$GPZDA,104442.00,01,01,2025,,*64
$GPDTM,W84,,00.0000000,N,00.0000000,E,00.0000000,W84*5F
$GPRMC,104442.00,A,4742.4462586,N,01617.9726328,E,0.0,,010125,5.1,E,D*12
$GPGLL,4742.4462586,N,01617.9726328,E,104442.00,A,D*63
$GPGGA,104442.00,4742.4462586,N,01617.9726328,E,2,21,0.7,626.9992,M,43.2111,M,2.4,0123*41
$GNGNS,104442.00,4742.4462586,N,01617.9726328,E,DAAA,21,0.7,626.9992,43.2111,,*5B
$GPGNS,104442.00,,,,,,05,,,,2.4,123*79
$GLGNS,104442.00,,,,,,03,,,,,*7B
$GAGNS,104442.00,,,,,,06,,,,,*73
$GBGNS,104442.00,,,,,,07,,,,,*71
$GPLLQ,104442.00,010125,,M,,M,1,21,3.164,,M*15
$GPVTG,,T,,M,0.01,N,0.01,K,D*26
$GPHDT,,T*1B
$GPTHS,,V*0E
$GPROT,,V*08
$PSSN,HRP,104442.00,010125,,,,,,,00,0,,*66
$PTNL,AVR,104442.00,,Yaw,,Tilt,,,,0,,00*30
$GPGSA,A,3,12,13,17,19,24,,,,,,,,1.5,0.7,1.3*3A
$GPGSA,A,3,66,67,76,,,,,,,,,,1.5,0.7,1.3*33
$GPGSA,A,3,02,03,07,08,25,30,,,,,,,1.5,0.7,1.3*39
$GPGSA,A,3,10,14,24,26,33,35,42,,,,,,1.5,0.7,1.3*35
$GPGST,104442.00,3.163,0.940,0.491,355.888,0.939,0.494,2.981*55
$GPGBS,104442.00,5.985,2.963,16.147,17,0.0001,-1.071,0.766*48
$GPGRS,104442.00,1,0.5,-0.9,-1.1,0.1,0.8,,,,,,,*62
$GPGRS,104442.00,1,-5.9,6.1,-1.2,,,,,,,,,*6F
$GPGRS,104442.00,1,0.4,-1.8,-2.0,0.3,-0.6,1.4,,,,,,*6B
$GPGRS,104442.00,1,-1.8,-1.3,-2.3,-1.1,-3.5,-5.1,-2.0,,,,,*40
$GPGSV,4,1,15,24,59,296,48,14,23,058,35,10,14,320,35,12,29,232,39*7E
$GPGSV,4,2,15,13,38,157,42,23,20,278,29,17,40,073,46,15,54,208,37*7D
$GPGSV,4,3,15,19,43,118,44,22,44,057,,02,04,026,,36,35,170,36*7D
$GPGSV,4,4,15,34,31,208,,49,34,195,34,61,03,257,*46
$GLGSV,3,1,10,76,67,018,51,86,13,109,,75,14,062,21,67,47,307,49*64
$GLGSV,3,2,10,85,24,055,27,66,50,213,42,77,48,274,26,84,08,005,*60
$GLGSV,3,3,10,68,07,338,30,65,09,180,*65
$GAGSV,3,1,11,02,86,157,45,16,12,054,,07,36,308,40,30,33,230,39*64
$GAGSV,3,2,11,03,30,158,37,25,35,055,41,18,34,152,,08,71,221,48*6E
$GAGSV,3,3,11,12,05,024,,11,02,072,,10,05,046,*59
$GBGSV,6,1,21,26,81,016,42,35,21,127,37,40,24,040,25,05,20,130,*62
$GBGSV,6,2,21,29,24,064,35,21,11,185,24,45,28,075,33,33,34,301,43*67
$GBGSV,6,3,21,50,27,203,,07,25,052,30,24,39,267,43,10,36,062,37*64
$GBGSV,6,4,21,14,44,268,45,42,41,230,45,56,38,069,,11,04,247,*63
$GBGSV,6,5,21,30,00,018,,02,04,109,,41,01,337,,57,01,352,*6B
$GBGSV,6,6,21,60,07,111,*58
$GPGGA,104442.00,,,,,0,00,,,M,,M,,*4F
$PTNL,GGK,104442.00,010125,4742.4462586,N,01617.9726328,E,1,21,1.5,EHT670.2102,M*42
$GPGGQ,104442.00,010125,4742.4462586,N,01617.9726328,E,1,21,3.164,626.9992,M*31
$GPGFA,104442.00,8.941,24.446,0.940,0.491,355.888,2.981,,VVV*38
$GPLLK,104442.00,010125,,M,,M,1,21,1.8,,M*06
$GNGMP,104442.00,,,,,DAAA,21,0.7,,,,*55
$GPGMP,104442.00,,,,,,05,,,,2.4,123*79
$GLGMP,104442.00,,,,,,03,,,,,*7B
$GAGMP,104442.00,,,,,,06,,,,,*73
$GBGMP,104442.00,,,,,,07,,,,,*71
$PSSN,SNC,[0,297900000,2347]*41
$GPZDA,104447.00,01,01,2025,,*61
$GPDTM,W84,,00.0000000,N,00.0000000,E,00.0000000,W84*5F
$GPRMC,104447.00,A,4742.4462560,N,01617.9726493,E,0.0,,010125,5.1,E,D*18
$GPGLL,4742.4462560,N,01617.9726493,E,104447.00,A,D*69
$GPGGA,104447.00,4742.4462560,N,01617.9726493,E,2,22,0.6,626.9910,M,43.2111,M,3.3,0123*45
$GNGNS,104447.00,4742.4462560,N,01617.9726493,E,DAAA,22,0.6,626.9910,43.2111,,*59
$GPGNS,104447.00,,,,,,06,,,,3.3,123*79
$GLGNS,104447.00,,,,,,03,,,,,*7E
$GAGNS,104447.00,,,,,,06,,,,,*76
$GBGNS,104447.00,,,,,,07,,,,,*74
$GPLLQ,104447.00,010125,,M,,M,1,22,3.973,,M*1D
$GPVTG,,T,,M,0.00,N,0.01,K,D*27
$GPHDT,,T*1B
$GPTHS,,V*0E
$GPROT,,V*08
$PSSN,HRP,104447.00,010125,,,,,,,00,0,,*63
$PTNL,AVR,104447.00,,Yaw,,Tilt,,,,0,,00*35
$GPGSA,A,3,12,13,15,17,19,24,,,,,,,1.5,0.6,1.3*3F
$GPGSA,A,3,66,67,76,,,,,,,,,,1.5,0.6,1.3*32
$GPGSA,A,3,02,03,07,08,25,30,,,,,,,1.5,0.6,1.3*38
$GPGSA,A,3,10,14,24,26,33,35,42,,,,,,1.5,0.6,1.3*34
$GPGST,104447.00,3.107,1.207,0.756,347.160,1.189,0.784,3.709*50
$GPGBS,104447.00,3.980,3.023,15.937,15,0.0001,2.150,0.711*60
$GPGRS,104447.00,1,0.1,-1.3,2.2,-1.3,-0.9,0.7,,,,,,*6E
$GPGRS,104447.00,1,-6.6,5.6,-0.8,,,,,,,,,*69
$GPGRS,104447.00,1,0.2,-1.7,-2.1,0.2,-0.2,1.8,,,,,,*6F
$GPGRS,104447.00,1,-2.8,0.1,-2.6,-0.6,-3.1,-4.8,-1.0,,,,,*64
$GPGSV,4,1,15,24,59,296,48,14,23,058,33,10,14,320,35,12,29,232,37*76
$GPGSV,4,2,15,13,38,157,41,23,20,278,28,17,40,073,46,15,53,208,37*78
$GPGSV,4,3,15,19,43,118,43,22,44,057,,02,04,026,,36,35,170,35*79
$GPGSV,4,4,15,34,31,208,,49,34,195,34,61,03,257,*46
$GLGSV,3,1,10,76,67,018,51,86,13,109,,75,14,062,21,85,24,054,33*65
$GLGSV,3,2,10,67,47,306,48,66,50,213,42,77,48,274,28,84,08,005,*6B
$GLGSV,3,3,10,68,07,338,28,65,09,180,23*6D
$GAGSV,3,1,11,02,86,157,45,16,12,054,,07,36,308,41,30,33,230,39*65
$GAGSV,3,2,11,03,30,158,38,25,35,055,40,18,34,152,,08,71,221,48*60
$GAGSV,3,3,11,12,05,024,,11,02,072,,10,05,046,*59
$GBGSV,6,1,21,26,81,017,42,35,21,127,37,40,24,040,26,05,20,130,*60
$GBGSV,6,2,21,29,24,064,36,21,11,185,24,45,28,075,33,33,34,301,42*65
$GBGSV,6,3,21,50,27,202,,07,25,052,30,24,39,267,43,10,36,062,36*64
$GBGSV,6,4,21,14,44,268,46,42,41,230,46,56,38,069,,11,04,247,*63
$GBGSV,6,5,21,30,00,018,,02,04,109,,41,01,337,,57,01,352,*6B
$GBGSV,6,6,21,60,07,111,*58
$GPGGA,104447.00,,,,,0,00,,,M,,M,,*4A
$PTNL,GGK,104447.00,010125,4742.4462560,N,01617.9726493,E,1,22,1.5,EHT670.2021,M*4B
$GPGGQ,104447.00,010125,4742.4462560,N,01617.9726493,E,1,22,3.973,626.9910,M*3C
$GPGFA,104447.00,11.479,30.412,1.207,0.756,347.160,3.709,,VVV*05
$GPLLK,104447.00,010125,,M,,M,1,22,1.7,,M*0F
$GNGMP,104447.00,,,,,DAAA,22,0.6,,,,*52
$GPGMP,104447.00,,,,,,06,,,,3.3,123*79
$GLGMP,104447.00,,,,,,03,,,,,*7E
$GAGMP,104447.00,,,,,,06,,,,,*76
$GBGMP,104447.00,,,,,,07,,,,,*74
$PSSN,SNC,[0,297905000,2347]*44
$GPZDA,104452.00,01,01,2025,,*65
$GPDTM,W84,,00.0000000,N,00.0000000,E,00.0000000,W84*5F
$GPRMC,104452.00,A,4742.4462532,N,01617.9726724,E,0.0,,010125,5.1,E,D*14
$GPGLL,4742.4462532,N,01617.9726724,E,104452.00,A,D*65
$GPGGA,104452.00,4742.4462532,N,01617.9726724,E,2,22,0.6,626.9688,M,43.2111,M,3.0,0123*44
$GNGNS,104452.00,4742.4462532,N,01617.9726724,E,DAAA,22,0.6,626.9688,43.2111,,*5B
$GPGNS,104452.00,,,,,,06,,,,3.0,123*7E
$GLGNS,104452.00,,,,,,04,,,,,*7D
$GAGNS,104452.00,,,,,,06,,,,,*72
$GBGNS,104452.00,,,,,,06,,,,,*71
$GPLLQ,104452.00,010125,,M,,M,1,22,3.722,,M*13
$GPVTG,,T,,M,0.01,N,0.02,K,D*25
$GPHDT,,T*1B
$GPTHS,,V*0E
$GPROT,,V*08
$PSSN,HRP,104452.00,010125,,,,,,,00,0,,*67
$PTNL,AVR,104452.00,,Yaw,,Tilt,,,,0,,00*31
$GPGSA,A,3,12,13,15,17,19,24,,,,,,,1.5,0.6,1.3*3F
$GPGSA,A,3,66,67,76,85,,,,,,,,,1.5,0.6,1.3*3F
$GPGSA,A,3,02,03,07,08,25,30,,,,,,,1.5,0.6,1.3*38
$GPGSA,A,3,10,14,24,26,33,42,,,,,,,1.5,0.6,1.3*32
$GPGST,104452.00,2.987,1.168,0.888,358.952,1.168,0.888,3.420*50
$GPGBS,104452.00,3.965,2.974,15.247,15,0.0001,2.178,0.729*68
$GPGRS,104452.00,1,-0.1,-2.1,2.2,-0.9,-1.3,0.7,,,,,,*46
$GPGRS,104452.00,1,-5.5,6.3,-0.0,3.5,,,,,,,,*4B
$GPGRS,104452.00,1,0.9,-1.5,-1.3,0.9,1.1,2.5,,,,,,*49
$GPGRS,104452.00,1,-2.1,1.1,-2.1,0.5,-4.1,0.1,,,,,,*64
$GPGSV,4,1,15,24,59,296,48,14,23,058,32,10,14,320,35,12,29,232,36*76
$GPGSV,4,2,15,13,38,157,40,23,20,278,26,17,40,073,45,15,53,208,37*74
$GPGSV,4,3,15,19,43,118,42,22,44,057,,02,04,026,,36,35,170,36*7B
$GPGSV,4,4,15,34,31,208,,49,34,195,34,61,03,257,*46
$GLGSV,3,1,10,76,67,018,51,86,13,109,,75,14,062,,67,47,306,47*68
$GLGSV,3,2,10,85,24,054,36,66,50,213,42,77,48,274,,84,08,005,23*64
$GLGSV,3,3,10,68,07,338,31,65,09,180,23*65
$GAGSV,3,1,11,02,86,156,46,16,12,054,,07,36,308,41,30,33,230,40*69
$GAGSV,3,2,11,03,29,158,37,25,35,055,39,18,34,152,,08,71,221,47*66
$GAGSV,3,3,11,12,05,024,,11,02,072,,10,05,046,*59
$GBGSV,6,1,21,26,81,017,43,35,21,126,32,40,24,040,26,05,20,130,*65
$GBGSV,6,2,21,29,24,064,25,21,11,185,26,45,28,075,33,33,34,301,40*67
$GBGSV,6,3,21,50,27,202,,07,25,052,30,24,39,267,44,10,36,062,36*63
$GBGSV,6,4,21,14,44,268,47,42,41,230,46,56,38,069,,11,04,247,*62
$GBGSV,6,5,21,30,00,018,,02,04,109,,41,01,337,,57,01,352,*6B
$GBGSV,6,6,21,60,07,111,*58
$GPGGA,104452.00,,,,,0,00,,,M,,M,,*4E
$PTNL,GGK,104452.00,010125,4742.4462532,N,01617.9726724,E,1,22,1.5,EHT670.1798,M*41
$GPGGQ,104452.00,010125,4742.4462532,N,01617.9726724,E,1,22,3.722,626.9688,M*34
$GPGFA,104452.00,11.108,28.046,1.168,0.888,358.952,3.420,,VVV*07
$GPLLK,104452.00,010125,,M,,M,1,22,1.7,,M*0B
$GNGMP,104452.00,,,,,DAAA,22,0.6,,,,*56
$GPGMP,104452.00,,,,,,06,,,,3.0,123*7E
$GLGMP,104452.00,,,,,,04,,,,,*7D
$GAGMP,104452.00,,,,,,06,,,,,*72
$GBGMP,104452.00,,,,,,06,,,,,*71
$PSSN,SNC,[0,297910000,2347]*40
$GPZDA,104457.00,01,01,2025,,*60
$GPDTM,W84,,00.0000000,N,00.0000000,E,00.0000000,W84*5F
$GPRMC,104457.00,A,4742.4462527,N,01617.9726855,E,0.0,,010125,5.1,E,D*1C
$GPGLL,4742.4462527,N,01617.9726855,E,104457.00,A,D*6D
$GPGGA,104457.00,4742.4462527,N,01617.9726855,E,2,22,0.6,626.9527,M,43.2111,M,1.4,0123*4C
$GNGNS,104457.00,4742.4462527,N,01617.9726855,E,DAAA,22,0.6,626.9527,43.2111,,*55
$GPGNS,104457.00,,,,,,07,,,,1.4,123*7C
$GLGNS,104457.00,,,,,,03,,,,,*7F
$GAGNS,104457.00,,,,,,06,,,,,*77
$GBGNS,104457.00,,,,,,06,,,,,*74
$GPLLQ,104457.00,010125,,M,,M,1,22,2.202,,M*10
$GPVTG,,T,,M,0.00,N,0.01,K,D*27
$GPHDT,,T*1B
$GPTHS,,V*0E
$GPROT,,V*08
$PSSN,HRP,104457.00,010125,,,,,,,00,0,,*62
$PTNL,AVR,104457.00,,Yaw,,Tilt,,,,0,,00*34
$GPGSA,A,3,10,12,13,15,17,19,24,,,,,,1.4,0.6,1.2*3E
$GPGSA,A,3,66,67,76,,,,,,,,,,1.4,0.6,1.2*32
$GPGSA,A,3,02,03,07,08,25,30,,,,,,,1.4,0.6,1.2*38
$GPGSA,A,3,10,14,24,26,33,42,,,,,,,1.4,0.6,1.2*32
$GPGST,104457.00,2.825,0.747,0.600,12.854,0.741,0.608,1.983*6E
$GPGBS,104457.00,2.349,2.416,8.249,13,0.0001,-1.525,0.778*73
$GPGRS,104457.00,1,-0.4,0.1,-1.5,1.3,-0.5,-0.1,0.3,,,,,*67
$GPGRS,104457.00,1,-4.0,7.0,-0.2,,,,,,,,,*62
$GPGRS,104457.00,1,1.6,-1.4,-0.5,1.3,1.6,3.0,,,,,,*4C
$GPGRS,104457.00,1,-1.4,1.5,-1.2,0.9,-5.0,0.4,,,,,,*6A
$GPGSV,4,1,15,24,59,296,48,14,23,058,31,10,14,320,36,12,29,232,35*75
$GPGSV,4,2,15,13,38,157,39,23,20,278,21,17,40,073,45,15,53,208,37*7D
$GPGSV,4,3,15,19,43,118,42,22,44,057,,02,04,026,,36,35,170,36*7B
$GPGSV,4,4,15,34,31,208,,49,34,195,34,61,03,257,*46
$GLGSV,3,1,10,76,67,018,50,86,13,109,,75,14,062,31,67,47,306,47*6B
$GLGSV,3,2,10,85,24,054,33,66,50,213,43,77,48,275,34,84,07,005,24*6E
$GLGSV,3,3,10,68,07,338,31,65,09,180,*64
$GAGSV,3,1,11,02,86,156,47,16,12,054,,07,36,308,42,30,33,230,41*6A
$GAGSV,3,2,11,03,29,158,37,25,35,055,38,18,34,152,,08,71,221,46*66
$GAGSV,3,3,11,12,05,024,,11,02,072,,10,05,046,*59
$GBGSV,6,1,21,26,81,017,43,35,21,126,32,40,24,040,27,05,20,130,*64
$GBGSV,6,2,21,29,24,064,34,21,11,185,25,45,28,075,34,33,34,301,38*6C
$GBGSV,6,3,21,50,27,202,,07,25,052,29,24,39,267,44,10,36,062,36*6B
$GBGSV,6,4,21,14,44,268,47,42,41,230,46,56,38,069,,11,04,247,*62
$GBGSV,6,5,21,30,00,018,,02,04,109,,41,01,337,,57,01,352,*6B
$GBGSV,6,6,21,60,07,111,*58
$GPGGA,104457.00,,,,,0,00,,,M,,M,,*4B
$PTNL,GGK,104457.00,010125,4742.4462527,N,01617.9726855,E,1,22,1.4,EHT670.1638,M*43
$GPGGQ,104457.00,010125,4742.4462527,N,01617.9726855,E,1,22,2.202,626.9527,M*3C
$GPGFA,104457.00,7.104,16.258,0.747,0.600,12.854,1.983,,VVV*01
$GPLLK,104457.00,010125,,M,,M,1,22,1.6,,M*0F
$GNGMP,104457.00,,,,,DAAA,22,0.6,,,,*53
$GPGMP,104457.00,,,,,,07,,,,1.4,123*7C
$GLGMP,104457.00,,,,,,03,,,,,*7F
$GAGMP,104457.00,,,,,,06,,,,,*77
$GBGMP,104457.00,,,,,,06,,,,,*74
$PSSN,SNC,[0,297915000,2347]*45
$GPZDA,104502.00,01,01,2025,,*61
$GPDTM,W84,,00.0000000,N,00.0000000,E,00.0000000,W84*5F
$GPRMC,104502.00,A,4742.4462485,N,01617.9726802,E,0.0,,010125,5.1,E,D*16
$GPGLL,4742.4462485,N,01617.9726802,E,104502.00,A,D*67
$GPGGA,104502.00,4742.4462485,N,01617.9726802,E,2,24,0.6,626.9395,M,43.2111,M,2.4,0123*4C
$GNGNS,104502.00,4742.4462485,N,01617.9726802,E,DAAA,24,0.6,626.9395,43.2111,,*56
$GPGNS,104502.00,,,,,,07,,,,2.4,123*7E
$GLGNS,104502.00,,,,,,05,,,,,*78
$GAGNS,104502.00,,,,,,06,,,,,*76
$GBGNS,104502.00,,,,,,06,,,,,*75
$GPLLQ,104502.00,010125,,M,,M,1,24,3.041,,M*13
$GPVTG,,T,,M,0.01,N,0.01,K,D*26
$GPHDT,,T*1B
$GPTHS,,V*0E
$GPROT,,V*08
$PSSN,HRP,104502.00,010125,,,,,,,00,0,,*63
$PTNL,AVR,104502.00,,Yaw,,Tilt,,,,0,,00*35
$GPGSA,A,3,10,12,13,15,17,19,24,,,,,,1.3,0.6,1.1*3A
$GPGSA,A,3,66,67,76,77,85,,,,,,,,1.3,0.6,1.1*3B
$GPGSA,A,3,02,03,07,08,25,30,,,,,,,1.3,0.6,1.1*3C
$GPGSA,A,3,10,14,24,26,33,42,,,,,,,1.3,0.6,1.1*36
$GPGST,104502.00,6.282,1.036,0.828,12.342,1.028,0.839,2.737*63
$GPGBS,104502.00,2.388,2.418,8.305,85,0.0001,22.592,6.279*65
$GPGRS,104502.00,1,-0.3,-0.6,-1.2,-0.1,-0.3,2.4,-0.1,,,,,*61
$GPGRS,104502.00,1,-3.5,6.4,-1.2,-7.6,22.6,,,,,,,*7F
$GPGRS,104502.00,1,1.2,-1.1,-0.8,1.0,0.9,2.3,,,,,,*4E
$GPGRS,104502.00,1,-2.2,1.3,-0.6,0.1,-4.8,0.5,,,,,,*6D
$GPGSV,4,1,15,24,59,296,47,14,23,058,30,10,14,320,37,12,29,232,35*7A
$GPGSV,4,2,15,13,38,158,39,23,20,278,32,17,40,073,45,15,53,208,36*71
$GPGSV,4,3,15,19,43,118,42,22,44,057,,02,04,026,,36,35,170,35*78
$GPGSV,4,4,15,34,31,208,,49,34,195,34,61,03,257,*46
$GLGSV,3,1,10,76,67,018,49,86,13,109,,75,14,062,31,67,47,306,46*62
$GLGSV,3,2,10,85,24,054,38,66,50,213,43,77,49,275,37,84,07,005,21*62
$GLGSV,3,3,10,68,07,338,34,65,09,180,*61
$GAGSV,3,1,11,02,86,155,47,16,12,054,,07,36,308,42,30,33,230,42*6A
$GAGSV,3,2,11,03,29,158,37,25,35,055,37,18,34,152,,08,71,221,45*6A
$GAGSV,3,3,11,12,05,024,,11,02,072,,10,05,046,*59
$GBGSV,6,1,21,26,81,017,43,35,21,126,30,40,24,040,27,05,20,130,*66
$GBGSV,6,2,21,29,24,064,31,21,11,185,24,45,28,075,34,33,34,301,35*65
$GBGSV,6,3,21,50,27,202,,07,25,052,29,24,39,267,45,10,36,062,36*6A
$GBGSV,6,4,21,14,44,268,48,42,41,230,46,56,38,069,,11,04,247,*6D
$GBGSV,6,5,21,30,00,018,,02,04,109,,41,01,337,,57,01,352,*6B
$GBGSV,6,6,21,60,07,111,*58
$GPGGA,104502.00,,,,,0,00,,,M,,M,,*4A
$PTNL,GGK,104502.00,010125,4742.4462485,N,01617.9726802,E,1,24,1.3,EHT670.1506,M*46
$GPGGQ,104502.00,010125,4742.4462485,N,01617.9726802,E,1,24,3.041,626.9395,M*3B
$GPGFA,104502.00,9.854,22.441,1.036,0.828,12.342,2.737,,VVV*01
$GPLLK,104502.00,010125,,M,,M,1,24,1.5,,M*0B
$GNGMP,104502.00,,,,,DAAA,24,0.6,,,,*54
$GPGMP,104502.00,,,,,,07,,,,2.4,123*7E
$GLGMP,104502.00,,,,,,05,,,,,*78
$GAGMP,104502.00,,,,,,06,,,,,*76
$GBGMP,104502.00,,,,,,06,,,,,*75
$PSSN,SNC,[0,297920000,2347]*43
$GPZDA,104507.00,01,01,2025,,*64
$GPDTM,W84,,00.0000000,N,00.0000000,E,00.0000000,W84*5F
$GPRMC,104507.00,A,4742.4462438,N,01617.9726656,E,0.0,,010125,5.1,E,D*1A
$GPGLL,4742.4462438,N,01617.9726656,E,104507.00,A,D*6B
$GPGGA,104507.00,4742.4462438,N,01617.9726656,E,2,24,0.6,626.9379,M,43.2111,M,3.4,0123*43
$GNGNS,104507.00,4742.4462438,N,01617.9726656,E,DAAA,24,0.6,626.9379,43.2111,,*58
$GPGNS,104507.00,,,,,,07,,,,3.4,123*7A
$GLGNS,104507.00,,,,,,06,,,,,*7E
$GAGNS,104507.00,,,,,,06,,,,,*73
$GBGNS,104507.00,,,,,,05,,,,,*73
$GPLLQ,104507.00,010125,,M,,M,1,24,3.040,,M*17
$GPVTG,,T,,M,0.01,N,0.01,K,D*26
$GPHDT,,T*1B
$GPTHS,,V*0E
$GPROT,,V*08
$PSSN,HRP,104507.00,010125,,,,,,,00,0,,*66
$PTNL,AVR,104507.00,,Yaw,,Tilt,,,,0,,00*30
$GPGSA,A,3,10,12,13,15,17,19,24,,,,,,1.2,0.6,1.0*3A
$GPGSA,A,3,66,67,68,76,77,85,,,,,,,1.2,0.6,1.0*35
$GPGSA,A,3,02,03,07,08,25,30,,,,,,,1.2,0.6,1.0*3C
$GPGSA,A,3,10,14,24,26,42,,,,,,,,1.2,0.6,1.0*36
$GPGST,104507.00,6.508,1.036,0.903,11.244,1.032,0.908,2.711*63
$GPGBS,104507.00,2.435,2.465,8.408,19,0.0001,2.940,0.761*5F
$GPGRS,104507.00,1,-0.8,-0.1,-0.3,-1.4,0.6,2.9,-0.0,,,,,*48
$GPGRS,104507.00,1,-4.1,6.5,12.5,-1.6,-5.5,21.1,,,,,,*61
$GPGRS,104507.00,1,1.2,-0.9,-0.8,1.0,-0.3,1.7,,,,,,*62
$GPGRS,104507.00,1,-1.3,1.9,1.1,0.5,0.4,,,,,,,*41
$GPGSV,4,1,15,24,59,296,46,14,23,058,30,10,14,320,38,12,29,232,35*74
$GPGSV,4,2,15,13,38,158,38,23,20,278,29,17,40,073,46,15,53,208,36*79
$GPGSV,4,3,15,19,43,118,41,22,44,057,,02,04,026,,36,35,170,36*78
$GPGSV,4,4,15,34,31,208,,49,34,195,34,61,03,257,*46
$GLGSV,3,1,10,76,66,018,48,86,13,109,,75,14,062,23,67,47,306,46*61
$GLGSV,3,2,10,85,24,054,38,66,50,213,43,77,49,275,37,84,07,005,*61
$GLGSV,3,3,10,68,07,338,36,65,09,180,*63
$GAGSV,3,1,11,02,87,155,48,16,12,054,,07,36,308,43,30,33,230,42*65
$GAGSV,3,2,11,03,29,158,38,25,35,055,37,18,34,152,,08,71,221,44*64
$GAGSV,3,3,11,12,05,024,,11,02,072,,10,05,046,*59
$GBGSV,6,1,21,26,81,018,44,35,21,126,28,40,24,040,28,05,20,130,*68
$GBGSV,6,2,21,29,24,064,26,21,11,185,23,45,28,075,32,33,34,301,33*64
$GBGSV,6,3,21,50,27,202,,07,25,052,28,24,39,267,45,10,36,062,36*6B
$GBGSV,6,4,21,14,44,268,49,42,41,230,47,56,38,069,,11,04,247,*6D
$GBGSV,6,5,21,30,00,018,,02,04,109,,41,01,337,,57,01,352,*6B
$GBGSV,6,6,21,60,07,111,*58
$GPGGA,104507.00,,,,,0,00,,,M,,M,,*4F
$PTNL,GGK,104507.00,010125,4742.4462438,N,01617.9726656,E,1,24,1.2,EHT670.1489,M*4D
$GPGGQ,104507.00,010125,4742.4462438,N,01617.9726656,E,1,24,3.040,626.9379,M*34
$GPGFA,104507.00,9.853,22.234,1.036,0.903,11.244,2.711,,VVV*0F
$GPLLK,104507.00,010125,,M,,M,1,24,1.4,,M*0F
$GNGMP,104507.00,,,,,DAAA,24,0.6,,,,*51
$GPGMP,104507.00,,,,,,07,,,,3.4,123*7A
$GLGMP,104507.00,,,,,,06,,,,,*7E
$GAGMP,104507.00,,,,,,06,,,,,*73
$GBGMP,104507.00,,,,,,05,,,,,*73
$PSSN,SNC,[0,297925000,2347]*46
$GPZDA,104512.00,01,01,2025,,*60
$GPDTM,W84,,00.0000000,N,00.0000000,E,00.0000000,W84*5F
$GPRMC,104512.00,A,4742.4462413,N,01617.9726424,E,0.0,,010125,5.1,E,D*10
$GPGLL,4742.4462413,N,01617.9726424,E,104512.00,A,D*61
$GPGGA,104512.00,4742.4462413,N,01617.9726424,E,2,23,0.6,626.9475,M,43.2111,M,2.7,0123*47
$GNGNS,104512.00,4742.4462413,N,01617.9726424,E,DAAA,23,0.6,626.9475,43.2111,,*5E
$GPGNS,104512.00,,,,,,07,,,,2.7,123*7C
$GLGNS,104512.00,,,,,,05,,,,,*79
$GAGNS,104512.00,,,,,,06,,,,,*77
$GBGNS,104512.00,,,,,,05,,,,,*77
$GPLLQ,104512.00,010125,,M,,M,1,23,2.395,,M*1E
$GPVTG,,T,,M,0.01,N,0.02,K,D*25
$GPHDT,,T*1B
$GPTHS,,V*0E
$GPROT,,V*08
$PSSN,HRP,104512.00,010125,,,,,,,00,0,,*62
$PTNL,AVR,104512.00,,Yaw,,Tilt,,,,0,,00*34
$GPGSA,A,3,10,12,13,15,17,19,24,,,,,,1.2,0.6,1.0*3A
$GPGSA,A,3,66,67,68,76,77,,,,,,,,1.2,0.6,1.0*38
$GPGSA,A,3,02,03,07,08,25,30,,,,,,,1.2,0.6,1.0*3C
$GPGSA,A,3,10,14,24,26,42,,,,,,,,1.2,0.6,1.0*36
$GPGST,104512.00,3.762,0.819,0.664,12.774,0.812,0.672,2.151*68
$GPGBS,104512.00,2.427,2.483,8.594,15,0.0001,-1.389,0.727*7B
$GPGRS,104512.00,1,-1.3,0.7,-0.3,-1.4,1.0,1.4,-0.5,,,,,*61
$GPGRS,104512.00,1,-3.7,6.0,11.0,-1.0,-5.5,,,,,,,*7D
$GPGRS,104512.00,1,1.1,-0.5,-0.6,0.9,-1.1,1.1,,,,,,*6A
$GPGRS,104512.00,1,-1.0,2.3,2.4,-0.0,-0.3,,,,,,,*4B
$GPGSV,4,1,15,24,59,296,44,14,23,058,30,10,14,320,38,12,29,232,37*74
$GPGSV,4,2,15,13,38,158,36,23,20,278,26,17,40,073,47,15,53,207,38*78
$GPGSV,4,3,15,19,43,118,39,22,44,057,,02,04,026,,36,35,170,36*77
$GPGSV,4,4,15,34,31,208,,49,34,195,35,61,03,257,*47
$GLGSV,3,1,10,76,66,018,49,86,13,109,,75,14,062,29,67,47,306,45*69
$GLGSV,3,2,10,85,24,054,30,66,50,213,44,77,49,275,38,84,07,005,22*61
$GLGSV,3,3,10,68,08,338,37,65,09,180,20*6F
$GAGSV,3,1,11,02,87,155,48,16,12,054,,07,36,308,43,30,33,230,42*65
$GAGSV,3,2,11,03,29,158,38,25,35,056,37,18,34,152,,08,71,221,44*67
$GAGSV,3,3,11,12,05,024,,11,02,071,,10,05,046,*5A
$GBGSV,6,1,21,26,81,018,43,35,21,126,28,40,24,040,28,05,20,130,*6F
$GBGSV,6,2,21,29,24,064,27,21,11,185,22,45,27,075,32,33,34,301,33*6B
$GBGSV,6,3,21,50,27,202,,07,25,052,28,24,39,267,46,10,36,062,36*68
$GBGSV,6,4,21,14,44,268,49,42,41,230,47,56,38,069,,11,04,247,*6D
$GBGSV,6,5,21,30,00,018,,02,04,109,,41,01,337,,57,01,352,*6B
$GBGSV,6,6,21,60,07,111,*58
$GPGGA,104512.00,,,,,0,00,,,M,,M,,*4B
$PTNL,GGK,104512.00,010125,4742.4462413,N,01617.9726424,E,1,23,1.2,EHT670.1586,M*4E
$GPGGQ,104512.00,010125,4742.4462413,N,01617.9726424,E,1,23,2.395,626.9475,M*38
$GPGFA,104512.00,7.786,17.635,0.819,0.664,12.774,2.151,,VVV*0C
$GPLLK,104512.00,010125,,M,,M,1,23,1.4,,M*0C
$GNGMP,104512.00,,,,,DAAA,23,0.6,,,,*52
$GPGMP,104512.00,,,,,,07,,,,2.7,123*7C
$GLGMP,104512.00,,,,,,05,,,,,*79
$GAGMP,104512.00,,,,,,06,,,,,*77
$GBGMP,104512.00,,,,,,05,,,,,*77
$PSSN,SNC,[0,297930000,2347]*42
$GPZDA,104517.00,01,01,2025,,*65
$GPDTM,W84,,00.0000000,N,00.0000000,E,00.0000000,W84*5F
$GPRMC,104517.00,A,4742.4462454,N,01617.9726339,E,0.0,,010125,5.1,E,D*1D
$GPGLL,4742.4462454,N,01617.9726339,E,104517.00,A,D*6C
$GPGGA,104517.00,4742.4462454,N,01617.9726339,E,2,23,0.6,626.9465,M,43.2111,M,1.5,0123*4A
$GNGNS,104517.00,4742.4462454,N,01617.9726339,E,DAAA,23,0.6,626.9465,43.2111,,*52
$GPGNS,104517.00,,,,,,06,,,,1.5,123*79
$GLGNS,104517.00,,,,,,06,,,,,*7F
$GAGNS,104517.00,,,,,,06,,,,,*72
$GBGNS,104517.00,,,,,,05,,,,,*72
$GPLLQ,104517.00,010125,,M,,M,1,23,1.979,,M*10
$GPVTG,,T,,M,0.01,N,0.01,K,D*26
$GPHDT,,T*1B
$GPTHS,,V*0E
$GPROT,,V*08
$PSSN,HRP,104517.00,010125,,,,,,,00,0,,*67
$PTNL,AVR,104517.00,,Yaw,,Tilt,,,,0,,00*31
$GPGSA,A,3,10,12,13,17,19,24,,,,,,,1.2,0.6,1.0*3E
$GPGSA,A,3,66,67,68,76,77,85,,,,,,,1.2,0.6,1.0*35
$GPGSA,A,3,02,03,07,08,25,30,,,,,,,1.2,0.6,1.0*3C
$GPGSA,A,3,10,14,24,26,42,,,,,,,,1.2,0.6,1.0*36
$GPGST,104517.00,3.186,0.684,0.528,20.978,0.666,0.551,1.781*64
$GPGBS,104517.00,2.892,2.561,10.295,13,0.0001,-1.023,0.781*47
$GPGRS,104517.00,1,-1.1,-0.1,-1.0,0.2,0.9,-0.2,,,,,,*41
$GPGRS,104517.00,1,-4.0,5.4,8.4,-1.1,-4.6,1.6,,,,,,*69
$GPGRS,104517.00,1,0.9,-0.8,-0.6,0.1,-2.3,0.5,,,,,,*67
$GPGRS,104517.00,1,-1.4,1.9,1.6,-1.1,-1.5,,,,,,,*45
$GPGSV,4,1,15,24,60,296,43,14,22,058,30,10,14,320,41,12,29,232,37*76
$GPGSV,4,2,15,13,38,158,37,23,20,278,34,17,40,073,48,15,53,207,39*74
$GPGSV,4,3,15,19,43,118,38,22,44,057,,02,04,026,,36,35,170,35*75
$GPGSV,4,4,15,34,31,208,,49,34,195,34,61,03,257,*46
$GLGSV,3,1,10,76,66,018,49,86,13,109,,75,14,062,28,67,47,306,44*69
$GLGSV,3,2,10,85,24,054,35,66,50,213,43,77,49,275,38,84,07,005,25*64
$GLGSV,3,3,10,68,08,338,37,65,08,180,*6C
$GAGSV,3,1,11,02,87,154,48,16,12,054,,07,36,308,43,30,33,230,42*64
$GAGSV,3,2,11,03,29,158,38,25,35,056,37,18,34,152,,08,71,220,43*61
$GAGSV,3,3,11,12,05,024,,11,02,071,,10,05,046,*5A
$GBGSV,6,1,21,26,81,018,43,35,21,126,29,40,24,040,28,05,20,130,*6E
$GBGSV,6,2,21,29,24,064,27,21,11,185,22,45,27,075,31,33,34,301,29*63
$GBGSV,6,3,21,50,27,202,,07,25,052,28,24,39,268,46,10,36,062,36*67
$GBGSV,6,4,21,14,44,268,49,42,41,230,48,56,38,069,,11,04,247,*62
$GBGSV,6,5,21,30,00,018,,02,04,109,,41,01,337,,57,01,352,*6B
$GBGSV,6,6,21,60,07,111,*58
$GPGGA,104517.00,,,,,0,00,,,M,,M,,*4E
$PTNL,GGK,104517.00,010125,4742.4462454,N,01617.9726339,E,1,23,1.2,EHT670.1576,M*4C
$GPGGQ,104517.00,010125,4742.4462454,N,01617.9726339,E,1,23,1.979,626.9465,M*3F
$GPGFA,104517.00,6.507,14.602,0.684,0.528,20.978,1.781,,VVV*0E
$GPLLK,104517.00,010125,,M,,M,1,23,1.4,,M*09
$GNGMP,104517.00,,,,,DAAA,23,0.6,,,,*57
$GPGMP,104517.00,,,,,,06,,,,1.5,123*79
$GLGMP,104517.00,,,,,,06,,,,,*7F
$GAGMP,104517.00,,,,,,06,,,,,*72
$GBGMP,104517.00,,,,,,05,,,,,*72
$PSSN,SNC,[0,297935000,2347]*47
$GPZDA,104522.00,01,01,2025,,*63
$GPDTM,W84,,00.0000000,N,00.0000000,E,00.0000000,W84*5F
$GPRMC,104522.00,A,4742.4462461,N,01617.9726223,E,0.0,,010125,5.1,E,D*17
$GPGLL,4742.4462461,N,01617.9726223,E,104522.00,A,D*66
$GPGGA,104522.00,4742.4462461,N,01617.9726223,E,2,25,0.6,626.9270,M,43.2111,M,2.4,0123*46
$GNGNS,104522.00,4742.4462461,N,01617.9726223,E,DAAA,25,0.6,626.9270,43.2111,,*5C
$GPGNS,104522.00,,,,,,07,,,,2.4,123*7C
$GLGNS,104522.00,,,,,,06,,,,,*79
$GAGNS,104522.00,,,,,,06,,,,,*74
$GBGNS,104522.00,,,,,,06,,,,,*77
$GPLLQ,104522.00,010125,,M,,M,1,25,2.690,,M*1B
$GPVTG,,T,,M,0.00,N,0.01,K,D*27
$GPHDT,,T*1B
$GPTHS,,V*0E
$GPROT,,V*08
$PSSN,HRP,104522.00,010125,,,,,,,00,0,,*61
$PTNL,AVR,104522.00,,Yaw,,Tilt,,,,0,,00*37
$GPGSA,A,3,10,12,13,17,19,23,24,,,,,,1.1,0.6,1.0*3C
$GPGSA,A,3,66,67,68,76,77,85,,,,,,,1.1,0.6,1.0*36
$GPGSA,A,3,02,03,07,08,25,30,,,,,,,1.1,0.6,1.0*3F
$GPGSA,A,3,10,14,24,26,33,42,,,,,,,1.1,0.6,1.0*35
$GPGST,104522.00,6.171,0.970,0.698,20.267,0.942,0.736,2.410*64
$GPGBS,104522.00,2.925,2.494,10.773,23,0.0001,-3.667,0.949*47
$GPGRS,104522.00,1,-1.1,0.8,-0.4,-0.1,1.3,-3.7,0.4,,,,,*6F
$GPGRS,104522.00,1,-6.1,3.1,8.6,-1.6,-6.7,4.0,,,,,,*6A
$GPGRS,104522.00,1,0.9,-1.2,-0.5,-0.0,-2.6,0.0,,,,,,*45
$GPGRS,104522.00,1,-1.9,1.5,-0.6,-1.2,21.5,-1.9,,,,,,*79
$GPGSV,4,1,15,24,60,296,43,14,22,058,31,10,14,320,41,12,29,232,38*78
$GPGSV,4,2,15,13,38,158,38,23,20,278,36,17,40,073,49,15,53,207,39*78
$GPGSV,4,3,15,19,43,118,39,22,44,057,,02,04,026,,36,35,170,35*74
$GPGSV,4,4,15,34,31,208,,49,34,195,34,61,03,257,*46
$GLGSV,3,1,10,76,66,019,49,86,13,109,,75,14,062,32,85,24,054,36*6B
$GLGSV,3,2,10,67,47,306,43,66,50,213,40,77,49,275,37,84,07,005,26*67
$GLGSV,3,3,10,68,08,338,37,65,08,180,*6C
$GAGSV,3,1,11,02,87,154,48,16,12,054,,07,36,308,43,30,33,230,42*64
$GAGSV,3,2,11,03,29,158,38,25,35,056,36,18,34,152,,08,71,220,42*61
$GAGSV,3,3,11,12,05,024,,11,02,071,,10,05,046,*5A
$GBGSV,6,1,21,26,81,018,43,35,21,126,28,40,24,040,28,05,20,130,*6F
$GBGSV,6,2,21,29,24,064,31,21,11,185,22,45,27,076,30,33,34,301,30*6E
$GBGSV,6,3,21,50,26,202,,07,25,052,27,24,39,268,46,10,36,062,36*69
$GBGSV,6,4,21,14,44,268,50,42,41,229,48,56,38,069,,11,04,247,*62
$GBGSV,6,5,21,30,00,017,,02,04,109,,41,01,336,,57,01,352,*65
$GBGSV,6,6,21,60,07,111,*58
$GPGGA,104522.00,,,,,0,00,,,M,,M,,*48
$PTNL,GGK,104522.00,010125,4742.4462461,N,01617.9726223,E,1,25,1.1,EHT670.1380,M*4C
$GPGGQ,104522.00,010125,4742.4462461,N,01617.9726223,E,1,25,2.690,626.9270,M*3A
$GPGFA,104522.00,9.223,19.763,0.970,0.698,20.267,2.410,,VVV*0C
$GPLLK,104522.00,010125,,M,,M,1,25,1.3,,M*0E
$GNGMP,104522.00,,,,,DAAA,25,0.6,,,,*57
$GPGMP,104522.00,,,,,,07,,,,2.4,123*7C
$GLGMP,104522.00,,,,,,06,,,,,*79
$GAGMP,104522.00,,,,,,06,,,,,*74
$GBGMP,104522.00,,,,,,06,,,,,*77
$PSSN,SNC,[0,297940000,2347]*45
$GPZDA,104527.00,01,01,2025,,*66
$GPDTM,W84,,00.0000000,N,00.0000000,E,00.0000000,W84*5F
$GPRMC,104527.00,A,4742.4462460,N,01617.9726139,E,0.0,,010125,5.1,E,D*1B
$GPGLL,4742.4462460,N,01617.9726139,E,104527.00,A,D*6A
$GPGGA,104527.00,4742.4462460,N,01617.9726139,E,2,25,0.6,626.9128,M,43.2111,M,3.4,0123*45
$GNGNS,104527.00,4742.4462460,N,01617.9726139,E,DAAA,25,0.6,626.9128,43.2111,,*5E
$GPGNS,104527.00,,,,,,07,,,,3.4,123*78
$GLGNS,104527.00,,,,,,06,,,,,*7C
$GAGNS,104527.00,,,,,,06,,,,,*71
$GBGNS,104527.00,,,,,,06,,,,,*72
$GPLLQ,104527.00,010125,,M,,M,1,25,2.432,,M*14
$GPVTG,,T,,M,0.01,N,0.01,K,D*26
$GPHDT,,T*1B
$GPTHS,,V*0E
$GPROT,,V*08
$PSSN,HRP,104527.00,010125,,,,,,,00,0,,*64
$PTNL,AVR,104527.00,,Yaw,,Tilt,,,,0,,00*32
$GPGSA,A,3,10,12,13,17,19,23,24,,,,,,1.1,0.6,1.0*3C
$GPGSA,A,3,66,67,68,76,77,85,,,,,,,1.1,0.6,1.0*36
$GPGSA,A,3,02,03,07,08,25,30,,,,,,,1.1,0.6,1.0*3F
$GPGSA,A,3,10,14,24,26,33,42,,,,,,,1.1,0.6,1.0*35
$GPGST,104527.00,5.349,0.904,0.626,19.885,0.876,0.664,2.170*62
$GPGBS,104527.00,2.952,2.463,10.945,19,0.0001,1.542,0.728*6A
$GPGRS,104527.00,1,-0.1,1.2,-0.8,-0.8,1.5,-0.7,0.3,,,,,*67
$GPGRS,104527.00,1,-7.3,2.8,6.7,-2.0,-9.9,11.8,,,,,,*53
$GPGRS,104527.00,1,0.2,-1.3,-0.9,-0.8,-3.7,0.0,,,,,,*4E
$GPGRS,104527.00,1,-2.4,1.1,-2.0,-0.9,11.2,-2.9,,,,,,*7F
$GPGSV,4,1,15,24,60,296,43,14,22,058,30,10,14,320,42,12,29,232,41*74
$GPGSV,4,2,15,13,38,158,39,23,20,278,37,17,40,073,49,15,53,207,35*74
$GPGSV,4,3,15,19,43,118,41,22,44,057,,02,04,026,,36,35,170,36*78
$GPGSV,4,4,15,34,31,208,,49,34,195,34,61,03,257,*46
$GLGSV,3,1,10,76,66,019,49,86,13,109,,75,14,062,33,85,24,054,39*65
$GLGSV,3,2,10,67,47,306,43,66,50,213,38,77,49,275,37,84,07,005,26*68
$GLGSV,3,3,10,68,08,338,35,65,08,180,*6E
$GAGSV,3,1,11,02,87,153,48,16,12,054,,07,36,308,44,30,33,230,42*64
$GAGSV,3,2,11,03,29,158,38,25,35,056,37,18,34,152,,08,71,220,41*63
$GAGSV,3,3,11,12,05,024,,11,02,071,,10,05,046,*5A
$GBGSV,6,1,21,26,81,018,43,35,21,126,25,40,24,040,29,05,20,130,*63
$GBGSV,6,2,21,29,24,064,31,21,11,185,21,45,27,076,28,33,34,301,37*63
$GBGSV,6,3,21,50,26,202,,07,25,052,27,24,39,268,47,10,36,062,36*68
$GBGSV,6,4,21,14,44,268,50,42,41,229,48,56,38,069,,11,04,247,*62
$GBGSV,6,5,21,30,00,017,,02,04,109,,41,01,336,,57,01,352,*65
$GBGSV,6,6,21,60,07,111,*58
$GPGGA,104527.00,,,,,0,00,,,M,,M,,*4D
$PTNL,GGK,104527.00,010125,4742.4462460,N,01617.9726139,E,1,25,1.1,EHT670.1238,M*42
$GPGGQ,104527.00,010125,4742.4462460,N,01617.9726139,E,1,25,2.432,626.9128,M*32
$GPGFA,104527.00,8.592,17.794,0.904,0.626,19.885,2.170,,VVV*0A
$GPLLK,104527.00,010125,,M,,M,1,25,1.3,,M*0B
$GNGMP,104527.00,,,,,DAAA,25,0.6,,,,*52
$GPGMP,104527.00,,,,,,07,,,,3.4,123*78
$GLGMP,104527.00,,,,,,06,,,,,*7C
$GAGMP,104527.00,,,,,,06,,,,,*71
$GBGMP,104527.00,,,,,,06,,,,,*72
$PSSN,SNC,[0,297945000,2347]*40
$GPZDA,104532.00,01,01,2025,,*62
$GPDTM,W84,,00.0000000,N,00.0000000,E,00.0000000,W84*5F
$GPRMC,104532.00,A,4742.4462533,N,01617.9726229,E,0.0,,010125,5.1,E,D*1A
$GPGLL,4742.4462533,N,01617.9726229,E,104532.00,A,D*6B
$GPGGA,104532.00,4742.4462533,N,01617.9726229,E,2,25,0.6,626.9273,M,43.2111,M,2.7,0123*4B
$GNGNS,104532.00,4742.4462533,N,01617.9726229,E,DAAA,25,0.6,626.9273,43.2111,,*52
$GPGNS,104532.00,,,,,,07,,,,2.7,123*7E
$GLGNS,104532.00,,,,,,05,,,,,*7B
$GAGNS,104532.00,,,,,,06,,,,,*75
$GBGNS,104532.00,,,,,,07,,,,,*77
$GPLLQ,104532.00,010125,,M,,M,1,25,3.524,,M*17
$GPVTG,,T,,M,0.00,N,0.01,K,D*27
$GPHDT,,T*1B
$GPTHS,,V*0E
$GPROT,,V*08
$PSSN,HRP,104532.00,010125,,,,,,,00,0,,*60
$PTNL,AVR,104532.00,,Yaw,,Tilt,,,,0,,00*36
$GPGSA,A,3,10,12,13,17,19,23,24,,,,,,1.2,0.6,1.1*3E
$GPGSA,A,3,66,67,76,77,85,,,,,,,,1.2,0.6,1.1*3A
$GPGSA,A,3,02,03,07,08,25,30,,,,,,,1.2,0.6,1.1*3D
$GPGSA,A,3,10,14,24,26,33,42,45,,,,,,1.2,0.6,1.1*36
$GPGST,104532.00,6.452,1.282,0.900,20.213,1.242,0.954,3.156*6D
$GPGBS,104532.00,2.873,2.422,11.253,12,0.0001,2.550,0.792*6E
$GPGRS,104532.00,1,-0.5,2.5,-1.6,-2.0,1.7,0.2,-0.3,,,,,*61
$GPGRS,104532.00,1,-7.1,5.2,-2.5,-10.3,18.3,,,,,,,*42
$GPGRS,104532.00,1,-0.4,-2.2,-1.3,-2.1,-4.5,-0.6,,,,,,*4D
$GPGRS,104532.00,1,-3.1,0.2,-2.9,-0.8,10.6,-4.3,-5.4,,,,,*7E
$GPGSV,4,1,15,24,60,296,44,14,22,058,31,10,14,320,41,12,30,232,41*79
$GPGSV,4,2,15,13,38,158,40,23,20,278,36,17,40,073,49,15,53,207,32*7C
$GPGSV,4,3,15,19,43,118,42,22,44,057,,02,04,026,,36,35,170,35*78
$GPGSV,4,4,15,34,31,208,,49,34,195,34,61,03,257,*46
$GLGSV,3,1,10,76,66,019,49,86,13,109,,75,14,062,32,67,47,306,45*62
$GLGSV,3,2,10,85,24,054,40,66,50,213,38,77,49,275,37,84,07,005,28*68
$GLGSV,3,3,10,68,08,338,35,65,08,180,*6E
$GAGSV,3,1,11,02,87,153,48,16,12,054,,07,36,308,44,30,33,230,42*64
$GAGSV,3,2,11,03,29,158,39,25,35,056,36,18,34,152,,08,70,220,39*6D
$GAGSV,3,3,11,12,05,024,,11,02,071,,10,05,046,*5A
$GBGSV,6,1,21,26,81,019,43,35,21,126,33,40,24,040,29,05,20,130,*65
$GBGSV,6,2,21,29,24,064,28,21,11,185,20,45,27,076,27,33,34,300,37*64
$GBGSV,6,3,21,50,26,202,,07,25,052,27,24,39,268,46,10,36,062,35*6A
$GBGSV,6,4,21,14,44,267,50,42,41,229,48,56,38,069,,11,04,247,*6D
$GBGSV,6,5,21,30,00,017,,02,04,109,,41,01,336,,57,01,352,*65
$GBGSV,6,6,21,60,07,111,*58
$GPGGA,104532.00,,,,,0,00,,,M,,M,,*49
$PTNL,GGK,104532.00,010125,4742.4462533,N,01617.9726229,E,1,25,1.2,EHT670.1384,M*46
$GPGGQ,104532.00,010125,4742.4462533,N,01617.9726229,E,1,25,3.524,626.9273,M*39
$GPGFA,104532.00,12.187,25.881,1.282,0.900,20.213,3.156,,VVV*3A
$GPLLK,104532.00,010125,,M,,M,1,25,1.4,,M*08
$GNGMP,104532.00,,,,,DAAA,25,0.6,,,,*56
$GPGMP,104532.00,,,,,,07,,,,2.7,123*7E
$GLGMP,104532.00,,,,,,05,,,,,*7B
$GAGMP,104532.00,,,,,,06,,,,,*75
$GBGMP,104532.00,,,,,,07,,,,,*77
$PSSN,SNC,[0,297950000,2347]*44
$GPZDA,104537.00,01,01,2025,,*67
$GPDTM,W84,,00.0000000,N,00.0000000,E,00.0000000,W84*5F
$GPRMC,104537.00,A,4742.4462614,N,01617.9726352,E,0.0,,010125,5.1,E,D*14
$GPGLL,4742.4462614,N,01617.9726352,E,104537.00,A,D*65
$GPGGA,104537.00,4742.4462614,N,01617.9726352,E,2,23,0.6,626.9343,M,43.2111,M,1.5,0123*40
$GNGNS,104537.00,4742.4462614,N,01617.9726352,E,DAAA,23,0.6,626.9343,43.2111,,*58
$GPGNS,104537.00,,,,,,06,,,,1.5,123*7B
$GLGNS,104537.00,,,,,,05,,,,,*7E
$GAGNS,104537.00,,,,,,06,,,,,*70
$GBGNS,104537.00,,,,,,06,,,,,*73
$GPLLQ,104537.00,010125,,M,,M,1,23,4.689,,M*17
$GPVTG,,T,,M,0.01,N,0.02,K,D*25
$GPHDT,,T*1B
$GPTHS,,V*0E
$GPROT,,V*08
$PSSN,HRP,104537.00,010125,,,,,,,00,0,,*65
$PTNL,AVR,104537.00,,Yaw,,Tilt,,,,0,,00*33
$GPGSA,A,3,10,12,13,17,19,24,,,,,,,1.3,0.6,1.1*3E
$GPGSA,A,3,66,67,76,77,85,,,,,,,,1.3,0.6,1.1*3B
$GPGSA,A,3,02,03,07,08,25,30,,,,,,,1.3,0.6,1.1*3C
$GPGSA,A,3,10,14,24,26,33,42,,,,,,,1.3,0.6,1.1*36
$GPGST,104537.00,8.448,1.623,1.203,22.378,1.569,1.272,4.231*60
$GPGBS,104537.00,2.857,2.472,10.096,85,0.0001,24.321,6.348*5D
$GPGRS,104537.00,1,-1.6,2.1,-2.2,-2.2,2.5,-0.1,,,,,,*48
$GPGRS,104537.00,1,-8.4,13.7,-2.2,-10.8,24.3,,,,,,,*7C
$GPGRS,104537.00,1,-0.2,-2.5,-1.1,-1.9,-4.4,-0.1,,,,,,*46
$GPGRS,104537.00,1,-2.1,0.4,-3.3,-0.4,9.1,-4.2,,,,,,*47
$GPGSV,4,1,15,24,60,296,46,14,22,058,30,10,14,320,42,12,30,232,41*79
$GPGSV,4,2,15,13,38,158,39,23,20,278,33,17,40,073,49,15,53,207,25*71
$GPGSV,4,3,15,19,43,118,43,22,44,057,,02,04,026,,36,35,170,35*79
$GPGSV,4,4,15,34,31,208,,49,34,195,34,61,03,257,*46
$GLGSV,3,1,10,76,66,019,48,86,13,109,,75,14,062,30,67,47,306,45*61
$GLGSV,3,2,10,85,24,054,41,66,50,213,38,77,49,275,35,84,07,005,30*62
$GLGSV,3,3,10,68,08,338,33,65,08,180,*68
$GAGSV,3,1,11,02,87,152,48,16,11,054,,07,36,308,44,30,34,230,40*63
$GAGSV,3,2,11,03,29,158,39,25,35,056,36,18,34,152,,08,70,220,38*6C
$GAGSV,3,3,11,12,05,024,,11,03,071,,10,05,046,*5B
$GBGSV,6,1,21,26,81,019,44,35,21,126,34,40,24,040,28,05,20,130,*64
$GBGSV,6,2,21,29,24,064,26,21,11,185,20,45,27,076,29,33,34,300,38*6B
$GBGSV,6,3,21,50,26,202,,07,25,052,26,24,39,268,46,10,36,062,36*68
$GBGSV,6,4,21,14,44,267,50,42,40,229,48,56,38,069,,11,04,247,*6C
$GBGSV,6,5,21,30,00,017,,02,04,109,,41,01,336,,57,01,352,*65
$GBGSV,6,6,21,60,07,111,*58
$GPGGA,104537.00,,,,,0,00,,,M,,M,,*4C
$PTNL,GGK,104537.00,010125,4742.4462614,N,01617.9726352,E,1,23,1.3,EHT670.1454,M*45
$GPGGQ,104537.00,010125,4742.4462614,N,01617.9726352,E,1,23,4.689,626.9343,M*30
$GPGFA,104537.00,15.434,34.696,1.623,1.203,22.378,4.231,,VVV*30
$GPLLK,104537.00,010125,,M,,M,1,23,1.5,,M*0A
$GNGMP,104537.00,,,,,DAAA,23,0.6,,,,*55
$GPGMP,104537.00,,,,,,06,,,,1.5,123*7B
$GLGMP,104537.00,,,,,,05,,,,,*7E
$GAGMP,104537.00,,,,,,06,,,,,*70
$GBGMP,104537.00,,,,,,06,,,,,*73
$PSSN,SNC,[0,297955000,2347]*41
$GPZDA,104542.00,01,01,2025,,*65
$GPDTM,W84,,00.0000000,N,00.0000000,E,00.0000000,W84*5F
$GPRMC,104542.00,A,4742.4462675,N,01617.9726461,E,0.0,,010125,5.1,E,D*16
$GPGLL,4742.4462675,N,01617.9726461,E,104542.00,A,D*67
$GPGGA,104542.00,4742.4462675,N,01617.9726461,E,2,20,0.7,626.9252,M,43.2111,M,2.6,0123*41
$GNGNS,104542.00,4742.4462675,N,01617.9726461,E,DAAA,20,0.7,626.9252,43.2111,,*59
$GPGNS,104542.00,,,,,,05,,,,2.6,123*7A
$GLGNS,104542.00,,,,,,03,,,,,*7A
$GAGNS,104542.00,,,,,,06,,,,,*72
$GBGNS,104542.00,,,,,,06,,,,,*71
$GPLLQ,104542.00,010125,,M,,M,1,20,3.204,,M*10
$GPVTG,,T,,M,0.01,N,0.02,K,D*25
$GPHDT,,T*1B
$GPTHS,,V*0E
$GPROT,,V*08
$PSSN,HRP,104542.00,010125,,,,,,,00,0,,*67
$PTNL,AVR,104542.00,,Yaw,,Tilt,,,,0,,00*31
$GPGSA,A,3,10,12,13,17,24,,,,,,,,1.4,0.7,1.2*33
$GPGSA,A,3,66,67,76,,,,,,,,,,1.4,0.7,1.2*33
$GPGSA,A,3,02,03,07,08,25,30,,,,,,,1.4,0.7,1.2*39
$GPGSA,A,3,10,14,24,26,33,42,,,,,,,1.4,0.7,1.2*33
$GPGST,104542.00,6.311,1.108,0.948,25.673,1.080,0.980,2.853*68
$GPGBS,104542.00,3.271,3.717,10.528,67,0.0001,16.659,6.076*58
$GPGRS,104542.00,1,-1.2,1.1,-1.9,-1.2,1.0,,,,,,,*42
$GPGRS,104542.00,1,-9.1,16.7,-1.9,,,,,,,,,*56
$GPGRS,104542.00,1,1.1,-1.8,0.2,-0.1,-3.3,1.0,,,,,,*6E
$GPGRS,104542.00,1,-1.2,1.4,-2.5,1.1,10.3,-3.6,,,,,,*53
$GPGSV,4,1,15,24,60,296,47,14,22,058,30,10,14,320,40,12,30,232,40*7B
$GPGSV,4,2,15,13,37,158,38,23,20,278,32,17,40,073,49,15,53,207,31*7B
$GPGSV,4,3,15,19,43,118,43,22,44,057,,02,04,026,,36,35,170,35*79
$GPGSV,4,4,15,34,31,208,,49,34,195,34,61,03,257,*46
$GLGSV,3,1,10,76,66,019,46,86,13,109,,75,14,062,27,67,47,306,41*6D
$GLGSV,3,2,10,85,24,054,39,66,50,213,39,77,49,275,34,84,07,005,29*65
$GLGSV,3,3,10,68,08,338,31,65,08,180,*6A
$GAGSV,3,1,11,02,87,152,47,16,11,054,,07,36,308,44,30,34,230,39*62
$GAGSV,3,2,11,03,29,158,39,25,35,056,35,18,34,152,,08,70,220,38*6F
$GAGSV,3,3,11,12,05,024,,11,03,071,,10,05,046,*5B
$GBGSV,6,1,21,26,81,019,45,35,21,126,24,40,24,040,30,05,20,130,*6D
$GBGSV,6,2,21,29,24,064,25,21,10,185,20,45,27,076,27,33,34,300,40*68
$GBGSV,6,3,21,50,26,202,,07,25,052,26,24,39,268,46,10,36,062,36*68
$GBGSV,6,4,21,14,44,267,50,42,40,229,48,56,38,069,,11,04,247,*6C
$GBGSV,6,5,21,30,00,017,,02,04,109,,41,01,336,,57,01,352,*65
$GBGSV,6,6,21,60,07,111,*58
$GPGGA,104542.00,,,,,0,00,,,M,,M,,*4E
$PTNL,GGK,104542.00,010125,4742.4462675,N,01617.9726461,E,1,20,1.4,EHT670.1363,M*40
$GPGGQ,104542.00,010125,4742.4462675,N,01617.9726461,E,1,20,3.204,626.9252,M*36
$GPGFA,104542.00,10.531,23.393,1.108,0.948,25.673,2.853,,VVV*3F
$GPLLK,104542.00,010125,,M,,M,1,20,1.6,,M*08
$GNGMP,104542.00,,,,,DAAA,20,0.7,,,,*55
$GPGMP,104542.00,,,,,,05,,,,2.6,123*7A
$GLGMP,104542.00,,,,,,03,,,,,*7A
$GAGMP,104542.00,,,,,,06,,,,,*72
$GBGMP,104542.00,,,,,,06,,,,,*71
$PSSN,SNC,[0,297960000,2347]*47
$GPZDA,104547.00,01,01,2025,,*60
$GPDTM,W84,,00.0000000,N,00.0000000,E,00.0000000,W84*5F
$GPRMC,104547.00,A,4742.4462637,N,01617.9726586,E,0.0,,010125,5.1,E,D*1D
$GPGLL,4742.4462637,N,01617.9726586,E,104547.00,A,D*6C
$GPGGA,104547.00,4742.4462637,N,01617.9726586,E,2,20,0.7,626.9020,M,43.2111,M,3.4,0123*4E
$GNGNS,104547.00,4742.4462637,N,01617.9726586,E,DAAA,20,0.7,626.9020,43.2111,,*55
$GPGNS,104547.00,,,,,,05,,,,3.4,123*7C
$GLGNS,104547.00,,,,,,03,,,,,*7F
$GAGNS,104547.00,,,,,,06,,,,,*77
$GBGNS,104547.00,,,,,,06,,,,,*74
$GPLLQ,104547.00,010125,,M,,M,1,20,3.414,,M*12
$GPVTG,,T,,M,0.00,N,0.00,K,D*26
$GPHDT,,T*1B
$GPTHS,,V*0E
$GPROT,,V*08
$PSSN,HRP,104547.00,010125,,,,,,,00,0,,*62
$PTNL,AVR,104547.00,,Yaw,,Tilt,,,,0,,00*34
$GPGSA,A,3,10,12,17,19,24,,,,,,,,1.4,0.7,1.2*39
$GPGSA,A,3,66,67,76,,,,,,,,,,1.4,0.7,1.2*33
$GPGSA,A,3,02,03,07,08,25,30,,,,,,,1.4,0.7,1.2*39
$GPGSA,A,3,10,14,24,26,33,42,,,,,,,1.4,0.7,1.2*33
$GPGST,104547.00,4.221,1.372,0.871,9.177,1.362,0.887,3.003*51
$GPGBS,104547.00,4.432,2.653,10.947,19,0.0001,2.492,0.720*65
$GPGRS,104547.00,1,-1.8,1.2,-1.4,2.5,0.4,,,,,,,*6F
$GPGRS,104547.00,1,-8.4,5.7,-2.3,,,,,,,,,*6C
$GPGRS,104547.00,1,0.9,-1.9,-0.3,0.1,-2.3,0.2,,,,,,*60
$GPGRS,104547.00,1,-1.7,0.8,-2.7,1.1,8.6,-3.7,,,,,,*61
$GPGSV,4,1,15,24,60,296,48,14,22,058,30,10,14,320,40,12,30,232,39*7A
$GPGSV,4,2,15,13,37,158,37,23,20,278,31,17,40,073,48,15,53,207,30*77
$GPGSV,4,3,15,19,43,118,43,22,44,057,,02,04,026,,36,35,170,35*79
$GPGSV,4,4,15,34,31,208,,49,34,195,34,61,03,257,*46
$GLGSV,3,1,10,76,66,019,45,86,13,109,,75,14,062,28,67,47,306,42*62
$GLGSV,3,2,10,85,24,054,36,66,50,213,38,77,49,275,34,84,07,005,27*65
$GLGSV,3,3,10,68,08,338,29,65,08,180,*63
$GAGSV,3,1,11,02,87,151,47,16,11,054,,07,36,308,44,30,34,230,38*60
$GAGSV,3,2,11,03,29,158,39,25,35,056,35,18,34,152,,08,70,220,40*60
$GAGSV,3,3,11,12,05,024,,11,03,071,,10,05,046,*5B
$GBGSV,6,1,21,26,81,019,46,35,21,126,24,40,24,040,29,05,20,130,*66
$GBGSV,6,2,21,21,10,185,21,29,24,064,27,45,27,076,26,33,34,300,41*6B
$GBGSV,6,3,21,50,26,202,,07,25,052,27,24,39,268,46,10,36,062,36*69
$GBGSV,6,4,21,14,44,267,50,42,40,229,48,56,38,069,,30,00,017,*6C
$GBGSV,6,5,21,11,04,247,,02,04,109,,41,01,336,,57,01,352,*65
$GBGSV,6,6,21,60,07,111,*58
$GPGGA,104547.00,,,,,0,00,,,M,,M,,*4B
$PTNL,GGK,104547.00,010125,4742.4462637,N,01617.9726586,E,1,20,1.4,EHT670.1131,M*4E
$GPGGQ,104547.00,010125,4742.4462637,N,01617.9726586,E,1,20,3.414,626.9020,M*3D
$GPGFA,104547.00,13.045,24.622,1.372,0.871,9.177,3.003,,VVV*02
$GPLLK,104547.00,010125,,M,,M,1,20,1.6,,M*0D
$GNGMP,104547.00,,,,,DAAA,20,0.7,,,,*50
$GPGMP,104547.00,,,,,,05,,,,3.4,123*7C
$GLGMP,104547.00,,,,,,03,,,,,*7F
$GAGMP,104547.00,,,,,,06,,,,,*77
$GBGMP,104547.00,,,,,,06,,,,,*74
$PSSN,SNC,[0,297965000,2347]*42
$GPZDA,104552.00,01,01,2025,,*64
$GPDTM,W84,,00.0000000,N,00.0000000,E,00.0000000,W84*5F
$GPRMC,104552.00,A,4742.4462843,N,01617.9726594,E,0.0,,010125,5.1,E,D*17
$GPGLL,4742.4462843,N,01617.9726594,E,104552.00,A,D*66
$GPGGA,104552.00,4742.4462843,N,01617.9726594,E,2,20,0.7,626.8965,M,43.2111,M,3.3,0123*4A
$GNGNS,104552.00,4742.4462843,N,01617.9726594,E,DAAA,20,0.7,626.8965,43.2111,,*56
$GPGNS,104552.00,,,,,,04,,,,3.3,123*7E
$GLGNS,104552.00,,,,,,03,,,,,*7B
$GAGNS,104552.00,,,,,,06,,,,,*73
$GBGNS,104552.00,,,,,,07,,,,,*71
$GPLLQ,104552.00,010125,,M,,M,1,20,4.578,,M*1A
$GPVTG,,T,,M,0.00,N,0.00,K,D*26
$GPHDT,,T*1B
$GPTHS,,V*0E
$GPROT,,V*08
$PSSN,HRP,104552.00,010125,,,,,,,00,0,,*66
$PTNL,AVR,104552.00,,Yaw,,Tilt,,,,0,,00*30
$GPGSA,A,3,10,17,19,24,,,,,,,,,1.3,0.7,1.2*3D
$GPGSA,A,3,66,67,76,,,,,,,,,,1.3,0.7,1.2*34
$GPGSA,A,3,02,03,07,08,25,30,,,,,,,1.3,0.7,1.2*3E
$GPGSA,A,3,10,14,24,26,33,35,42,,,,,,1.3,0.7,1.2*32
$GPGST,104552.00,3.723,2.699,0.895,22.990,2.509,1.338,3.588*64
$GPGBS,104552.00,8.492,5.547,12.496,19,0.0001,2.338,0.735*66
$GPGRS,104552.00,1,-2.8,-1.9,2.3,-0.0,,,,,,,,*67
$GPGRS,104552.00,1,5.3,2.6,-3.4,,,,,,,,,*4F
$GPGRS,104552.00,1,0.5,-1.6,-0.7,-0.9,-0.8,-1.2,,,,,,*63
$GPGRS,104552.00,1,-1.9,-0.6,-2.7,1.1,6.4,-6.6,-3.8,,,,,*48
$GPGSV,4,1,15,24,60,296,49,14,22,058,29,10,14,320,38,12,30,232,39*7C
$GPGSV,4,2,15,13,37,158,38,23,20,278,31,17,40,073,46,15,53,207,33*75
$GPGSV,4,3,15,19,43,117,42,22,44,057,,02,04,026,,36,35,170,35*77
$GPGSV,4,4,15,34,31,208,,49,34,195,34,61,03,257,*46
$GLGSV,3,1,10,76,66,019,44,86,13,109,,75,14,063,28,67,47,306,42*62
$GLGSV,3,2,10,85,24,054,31,66,50,213,44,77,49,275,35,84,07,005,24*6B
$GLGSV,3,3,10,68,08,338,25,65,08,180,*6F
$GAGSV,3,1,11,02,87,151,47,16,11,054,,07,36,308,44,30,34,230,36*6E
$GAGSV,3,2,11,03,29,158,40,25,35,056,36,18,34,152,,08,70,220,41*6C
$GAGSV,3,3,11,12,05,024,,11,03,071,,10,05,046,*5B
$GBGSV,6,1,21,26,81,019,47,35,21,126,35,40,24,040,30,05,20,130,*6F
$GBGSV,6,2,21,21,10,185,20,29,24,064,24,45,27,076,27,33,34,300,42*6B
$GBGSV,6,3,21,50,26,202,,07,25,052,27,24,39,268,46,10,36,062,36*69
$GBGSV,6,4,21,14,44,267,49,42,40,229,47,56,38,069,,30,00,017,*6B
$GBGSV,6,5,21,11,04,247,,02,04,109,,41,01,336,,57,01,352,*65
$GBGSV,6,6,21,60,07,111,*58
$GPGGA,104552.00,,,,,0,00,,,M,,M,,*4F
$PTNL,GGK,104552.00,010125,4742.4462843,N,01617.9726594,E,1,20,1.3,EHT670.1076,M*41
$GPGGQ,104552.00,010125,4742.4462843,N,01617.9726594,E,1,20,4.578,626.8965,M*32
$GPGFA,104552.00,25.662,29.421,2.699,0.895,22.990,3.588,,VVV*3B
$GPLLK,104552.00,010125,,M,,M,1,20,1.6,,M*09
$GNGMP,104552.00,,,,,DAAA,20,0.7,,,,*54
$GPGMP,104552.00,,,,,,04,,,,3.3,123*7E
$GLGMP,104552.00,,,,,,03,,,,,*7B
$GAGMP,104552.00,,,,,,06,,,,,*73
$GBGMP,104552.00,,,,,,07,,,,,*71
$PSSN,SNC,[0,297970000,2347]*46
$GPZDA,104557.00,01,01,2025,,*61
$GPDTM,W84,,00.0000000,N,00.0000000,E,00.0000000,W84*5F
$GPRMC,104557.00,A,4742.4462849,N,01617.9726631,E,0.0,,010125,5.1,E,D*14
$GPGLL,4742.4462849,N,01617.9726631,E,104557.00,A,D*65
$GPGGA,104557.00,4742.4462849,N,01617.9726631,E,2,21,0.6,626.8637,M,43.2111,M,1.5,0123*45
$GNGNS,104557.00,4742.4462849,N,01617.9726631,E,DAAA,21,0.6,626.8637,43.2111,,*5D
$GPGNS,104557.00,,,,,,04,,,,1.5,123*7F
$GLGNS,104557.00,,,,,,04,,,,,*79
$GAGNS,104557.00,,,,,,06,,,,,*76
$GBGNS,104557.00,,,,,,07,,,,,*74
$GPLLQ,104557.00,010125,,M,,M,1,21,2.894,,M*17
$GPVTG,,T,,M,0.01,N,0.01,K,D*26
$GPHDT,,T*1B
$GPTHS,,V*0E
$GPROT,,V*08
$PSSN,HRP,104557.00,010125,,,,,,,00,0,,*63
$PTNL,AVR,104557.00,,Yaw,,Tilt,,,,0,,00*35
$GPGSA,A,3,10,13,17,24,,,,,,,,,1.3,0.6,1.1*35
$GPGSA,A,3,66,67,76,77,,,,,,,,,1.3,0.6,1.1*36
$GPGSA,A,3,02,03,07,08,25,30,,,,,,,1.3,0.6,1.1*3C
$GPGSA,A,3,10,14,24,26,33,35,42,,,,,,1.3,0.6,1.1*30
$GPGST,104557.00,4.087,1.258,0.782,41.726,1.073,1.021,2.486*64
$GPGBS,104557.00,5.425,5.253,11.686,10,0.0001,-3.008,1.096*4A
$GPGRS,104557.00,1,-3.0,0.3,-0.5,1.4,,,,,,,,*4C
$GPGRS,104557.00,1,4.7,7.1,-1.7,-7.6,,,,,,,,*4E
$GPGRS,104557.00,1,1.8,0.5,0.3,0.2,1.1,-0.5,,,,,,*69
$GPGRS,104557.00,1,-0.4,-0.1,-1.4,2.7,6.5,-5.3,-1.9,,,,,*47
$GPGSV,4,1,15,24,60,296,50,14,22,058,28,10,14,320,37,12,30,232,39*7A
$GPGSV,4,2,15,13,37,158,39,23,20,278,29,17,40,073,44,15,53,207,32*7E
$GPGSV,4,3,15,19,43,117,41,22,44,057,,02,04,026,,36,35,170,35*74
$GPGSV,4,4,15,34,31,208,,49,34,195,34,61,03,257,*46
$GLGSV,3,1,10,76,66,019,43,86,13,109,,75,14,063,28,67,47,306,43*64
$GLGSV,3,2,10,85,24,054,,66,50,213,46,77,49,275,37,84,07,005,23*6E
$GLGSV,3,3,10,68,08,338,24,65,08,180,*6E
$GAGSV,3,1,11,02,87,150,47,16,11,054,,07,36,308,43,30,34,230,35*6B
$GAGSV,3,2,11,03,29,158,41,25,35,056,37,18,34,152,,08,70,220,41*6C
$GAGSV,3,3,11,12,05,024,,11,03,071,,10,05,046,*5B
$GBGSV,6,1,21,26,81,019,48,35,21,126,36,40,24,040,30,05,20,130,*63
$GBGSV,6,2,21,21,10,185,,29,24,064,21,45,27,076,27,33,34,300,40*6E
$GBGSV,6,3,21,50,26,202,,07,25,052,26,24,39,268,46,10,36,062,36*68
$GBGSV,6,4,21,14,44,267,48,42,40,229,46,56,38,069,,30,00,017,*6B
$GBGSV,6,5,21,11,04,247,,02,04,109,,41,01,336,,57,01,352,*65
$GBGSV,6,6,21,60,07,111,*58
$GPGGA,104557.00,,,,,0,00,,,M,,M,,*4A
$PTNL,GGK,104557.00,010125,4742.4462849,N,01617.9726631,E,1,21,1.3,EHT670.0748,M*48
$GPGGQ,104557.00,010125,4742.4462849,N,01617.9726631,E,1,21,2.894,626.8637,M*31
$GPGFA,104557.00,11.959,20.384,1.258,0.782,41.726,2.486,,VVV*34
$GPLLK,104557.00,010125,,M,,M,1,21,1.5,,M*0E
$GNGMP,104557.00,,,,,DAAA,21,0.6,,,,*51
$GPGMP,104557.00,,,,,,04,,,,1.5,123*7F
$GLGMP,104557.00,,,,,,04,,,,,*79
$GAGMP,104557.00,,,,,,06,,,,,*76
$GBGMP,104557.00,,,,,,07,,,,,*74
$PSSN,SNC,[0,297975000,2347]*43
$GPZDA,104602.00,01,01,2025,,*62
$GPDTM,W84,,00.0000000,N,00.0000000,E,00.0000000,W84*5F
$GPRMC,104602.00,A,4742.4462951,N,01617.9726588,E,0.0,,010125,5.1,E,D*1E
$GPGLL,4742.4462951,N,01617.9726588,E,104602.00,A,D*6F
$GPGGA,104602.00,4742.4462951,N,01617.9726588,E,2,21,0.6,626.8370,M,43.2111,M,2.5,0123*4A
$GNGNS,104602.00,4742.4462951,N,01617.9726588,E,DAAA,21,0.6,626.8370,43.2111,,*51
$GPGNS,104602.00,,,,,,04,,,,2.5,123*7F
$GLGNS,104602.00,,,,,,04,,,,,*7A
$GAGNS,104602.00,,,,,,05,,,,,*76
$GBGNS,104602.00,,,,,,08,,,,,*78
$GPLLQ,104602.00,010125,,M,,M,1,21,2.970,,M*1F
$GPVTG,,T,,M,0.00,N,0.01,K,D*27
$GPHDT,,T*1B
$GPTHS,,V*0E
$GPROT,,V*08
$PSSN,HRP,104602.00,010125,,,,,,,00,0,,*60
$PTNL,AVR,104602.00,,Yaw,,Tilt,,,,0,,00*36
$GPGSA,A,3,10,13,17,24,,,,,,,,,1.3,0.6,1.1*35
$GPGSA,A,3,66,67,76,77,,,,,,,,,1.3,0.6,1.1*36
$GPGSA,A,3,02,03,07,08,25,,,,,,,,1.3,0.6,1.1*3F
$GPGSA,A,3,10,14,24,26,33,35,42,45,,,,,1.3,0.6,1.1*31
$GPGST,104602.00,4.096,1.286,0.799,39.842,1.112,1.027,2.555*63
$GPGBS,104602.00,5.544,5.338,11.798,10,0.0001,-3.583,1.103*46
$GPGRS,104602.00,1,-3.6,0.9,0.3,0.8,,,,,,,,*65
$GPGRS,104602.00,1,-0.4,8.4,-2.4,-7.7,,,,,,,,*6C
$GPGRS,104602.00,1,1.1,0.6,-0.7,-0.6,1.1,,,,,,,*66
$GPGRS,104602.00,1,-0.3,-0.4,-2.8,2.4,2.9,-6.0,-2.1,-4.2,,,,*4C
$GPGSV,4,1,15,24,60,296,50,14,22,058,27,10,14,320,36,12,30,232,38*75
$GPGSV,4,2,15,13,37,158,39,23,20,277,,17,40,072,45,15,53,207,36*7E
$GPGSV,4,3,15,19,43,117,40,22,43,057,,02,04,026,,36,35,170,35*72
$GPGSV,4,4,15,34,31,208,,49,34,195,34,61,03,257,*46
$GLGSV,3,1,10,76,66,019,45,86,14,109,,75,14,063,26,67,47,306,46*6E
$GLGSV,3,2,10,85,24,054,,66,50,213,45,77,49,275,38,84,07,005,*63
$GLGSV,3,3,10,68,08,338,23,65,08,180,*69
$GAGSV,3,1,11,02,87,150,48,16,11,054,,03,29,158,41,25,35,056,39*60
$GAGSV,3,2,11,07,37,308,43,30,34,230,33,18,34,152,,08,70,220,42*62
$GAGSV,3,3,11,12,05,024,,10,05,046,,11,03,071,*5B
$GBGSV,6,1,21,26,81,020,48,35,21,126,35,40,24,040,31,05,20,130,*6B
$GBGSV,6,2,21,21,10,185,,29,24,064,27,45,27,076,38,33,34,300,38*69
$GBGSV,6,3,21,50,26,202,,07,25,052,26,24,39,268,46,10,36,062,37*69
$GBGSV,6,4,21,14,44,267,48,42,40,229,46,56,38,069,,30,00,017,*6B
$GBGSV,6,5,21,11,04,247,,02,04,109,,41,01,336,,57,01,352,*65
$GBGSV,6,6,21,60,07,111,*58
$GPGGA,104602.00,,,,,0,00,,,M,,M,,*49
$PTNL,GGK,104602.00,010125,4742.4462951,N,01617.9726588,E,1,21,1.3,EHT670.0481,M*44
$GPGGQ,104602.00,010125,4742.4462951,N,01617.9726588,E,1,21,2.970,626.8370,M*36
$GPGFA,104602.00,12.228,20.951,1.286,0.799,39.842,2.555,,VVV*3F
$GPLLK,104602.00,010125,,M,,M,1,21,1.5,,M*0D
$GNGMP,104602.00,,,,,DAAA,21,0.6,,,,*52
$GPGMP,104602.00,,,,,,04,,,,2.5,123*7F
$GLGMP,104602.00,,,,,,04,,,,,*7A
$GAGMP,104602.00,,,,,,05,,,,,*76
$GBGMP,104602.00,,,,,,08,,,,,*78
$PSSN,SNC,[0,297980000,2347]*49
$GPZDA,104607.00,01,01,2025,,*67
$GPDTM,W84,,00.0000000,N,00.0000000,E,00.0000000,W84*5F
$GPRMC,104607.00,A,4742.4463056,N,01617.9726440,E,0.0,,010125,5.1,E,D*11
$GPGLL,4742.4463056,N,01617.9726440,E,104607.00,A,D*60
$GPGGA,104607.00,4742.4463056,N,01617.9726440,E,2,21,0.6,626.8174,M,43.2111,M,2.5,0123*43
$GNGNS,104607.00,4742.4463056,N,01617.9726440,E,DAAA,21,0.6,626.8174,43.2111,,*58
$GPGNS,104607.00,,,,,,04,,,,2.5,123*7A
$GLGNS,104607.00,,,,,,05,,,,,*7E
$GAGNS,104607.00,,,,,,05,,,,,*73
$GBGNS,104607.00,,,,,,07,,,,,*72
$GPLLQ,104607.00,010125,,M,,M,1,21,5.489,,M*16
$GPVTG,,T,,M,0.01,N,0.02,K,D*25
$GPHDT,,T*1B
$GPTHS,,V*0E
$GPROT,,V*08
$PSSN,HRP,104607.00,010125,,,,,,,00,0,,*65
$PTNL,AVR,104607.00,,Yaw,,Tilt,,,,0,,00*33
$GPGSA,A,3,13,17,19,24,,,,,,,,,1.3,0.6,1.1*3C
$GPGSA,A,3,66,67,68,76,77,,,,,,,,1.3,0.6,1.1*38
$GPGSA,A,3,02,03,07,08,25,,,,,,,,1.3,0.6,1.1*3F
$GPGSA,A,3,10,14,24,26,33,35,42,,,,,,1.3,0.6,1.1*30
$GPGST,104607.00,4.319,1.141,0.912,305.003,0.993,1.071,5.291*5D
$GPGBS,104607.00,5.365,4.973,30.688,77,0.0001,-8.171,6.077*47
$GPGRS,104607.00,1,0.0,-0.1,1.0,-0.5,,,,,,,,*4F
$GPGRS,104607.00,1,-6.3,8.0,1.3,-1.8,-8.2,,,,,,,*45
$GPGRS,104607.00,1,-0.1,0.9,-2.1,-1.5,-0.1,,,,,,,*6A
$GPGRS,104607.00,1,-0.2,-0.7,-4.7,0.5,1.0,-6.5,-3.3,,,,,*48
$GPGSV,4,1,15,24,60,297,50,14,22,058,24,10,14,320,34,12,30,232,36*7B
$GPGSV,4,2,15,13,37,158,39,23,20,277,34,17,40,072,46,15,53,207,38*74
$GPGSV,4,3,15,19,43,117,39,22,43,057,,02,04,026,,36,35,170,35*7C
$GPGSV,4,4,15,34,31,208,,49,34,195,34,61,03,257,*46
$GLGSV,3,1,10,76,66,019,46,86,14,109,,75,14,063,20,67,47,306,48*65
$GLGSV,3,2,10,85,24,054,29,66,49,213,44,77,49,275,38,84,07,005,*61
$GLGSV,3,3,10,68,08,338,22,65,08,180,*68
$GAGSV,3,1,11,02,87,149,48,16,11,054,,03,29,158,41,25,35,056,41*67
$GAGSV,3,2,11,07,37,308,42,30,34,230,32,18,34,152,,08,70,220,42*62
$GAGSV,3,3,11,12,05,024,,10,05,046,,11,03,071,*5B
$GBGSV,5,1,20,26,81,020,48,35,21,126,35,40,24,040,31,05,20,130,*69
$GBGSV,5,2,20,21,10,185,,29,24,064,26,45,27,076,30,33,34,300,35*6F
$GBGSV,5,3,20,50,26,202,,07,25,052,27,24,39,268,46,10,36,062,37*6A
$GBGSV,5,4,20,14,44,267,48,42,40,229,47,56,38,069,,11,04,247,*68
$GBGSV,5,5,20,02,04,109,,41,01,336,,57,01,351,,60,07,111,*61
$GPGGA,104607.00,,,,,0,00,,,M,,M,,*4C
$PTNL,GGK,104607.00,010125,4742.4463056,N,01617.9726440,E,1,21,1.3,EHT670.0285,M*49
$GPGGQ,104607.00,010125,4742.4463056,N,01617.9726440,E,1,21,5.489,626.8174,M*33
$GPGFA,104607.00,10.847,43.390,1.141,0.912,305.003,5.291,,VVV*05
$GPLLK,104607.00,010125,,M,,M,1,21,1.5,,M*08
$GNGMP,104607.00,,,,,DAAA,21,0.6,,,,*57
$GPGMP,104607.00,,,,,,04,,,,2.5,123*7A
$GLGMP,104607.00,,,,,,05,,,,,*7E
$GAGMP,104607.00,,,,,,05,,,,,*73
$GBGMP,104607.00,,,,,,07,,,,,*72
$PSSN,SNC,[0,297985000,2347]*4C
$GPZDA,104612.00,01,01,2025,,*63
$GPDTM,W84,,00.0000000,N,00.0000000,E,00.0000000,W84*5F
$GPRMC,104612.00,A,4742.4463085,N,01617.9726356,E,0.0,,010125,5.1,E,D*1B
$GPGLL,4742.4463085,N,01617.9726356,E,104612.00,A,D*6A
$GPGGA,104612.00,4742.4463085,N,01617.9726356,E,2,18,0.7,626.8165,M,43.2111,M,3.5,0123*43
$GNGNS,104612.00,4742.4463085,N,01617.9726356,E,DAAA,18,0.7,626.8165,43.2111,,*59
$GPGNS,104612.00,,,,,,04,,,,3.5,123*7F
$GLGNS,104612.00,,,,,,04,,,,,*7B
$GAGNS,104612.00,,,,,,05,,,,,*77
$GBGNS,104612.00,,,,,,05,,,,,*74
$GPLLQ,104612.00,010125,,M,,M,1,18,6.961,,M*10
$GPVTG,,T,,M,0.01,N,0.01,K,D*26
$GPHDT,,T*1B
$GPTHS,,V*0E
$GPROT,,V*08
$PSSN,HRP,104612.00,010125,,,,,,,00,0,,*61
$PTNL,AVR,104612.00,,Yaw,,Tilt,,,,0,,00*37
$GPGSA,A,3,13,17,19,24,,,,,,,,,1.8,0.7,1.6*31
$GPGSA,A,3,66,67,76,77,,,,,,,,,1.8,0.7,1.6*3B
$GPGSA,A,3,02,03,07,08,25,,,,,,,,1.8,0.7,1.6*32
$GPGSA,A,3,10,14,24,26,42,,,,,,,,1.8,0.7,1.6*3B
$GPGST,104612.00,4.273,1.413,0.925,308.272,1.137,1.249,6.753*5D
$GPGBS,104612.00,6.647,6.857,30.596,67,0.0001,7.877,6.072*65
$GPGRS,104612.00,1,-0.7,0.2,0.9,-0.4,,,,,,,,*46
$GPGRS,104612.00,1,-6.3,7.9,-1.3,-7.6,,,,,,,,*6B
$GPGRS,104612.00,1,0.6,1.1,-2.3,-1.0,-0.4,,,,,,,*4F
$GPGRS,104612.00,1,0.5,0.2,-4.3,-1.0,-3.0,,,,,,,*4F
$GPGSV,4,1,15,24,60,297,50,14,22,058,23,10,14,319,32,12,30,232,34*72
$GPGSV,4,2,15,13,37,158,39,23,20,277,36,17,40,072,47,15,53,207,39*76
$GPGSV,4,3,15,19,43,117,37,22,43,057,,02,04,026,,36,35,170,35*72
$GPGSV,4,4,15,34,31,208,,49,34,195,34,61,03,257,*46
$GLGSV,3,1,10,76,66,019,46,86,14,109,,75,14,063,27,67,47,305,50*68
$GLGSV,3,2,10,85,24,054,32,66,49,213,44,77,49,275,40,84,07,005,25*63
$GLGSV,3,3,10,68,08,338,33,65,08,180,*68
$GAGSV,3,1,11,02,87,149,47,16,11,054,,03,29,158,40,25,35,056,42*6A
$GAGSV,3,2,11,07,37,308,42,30,34,230,33,18,34,152,,08,70,220,42*63
$GAGSV,3,3,11,12,05,024,,10,05,046,,11,03,071,*5B
$GBGSV,5,1,20,26,81,020,48,35,21,126,31,40,24,040,31,05,20,130,*6D
$GBGSV,5,2,20,21,10,185,,29,24,064,30,45,27,076,31,33,34,300,33*6F
$GBGSV,5,3,20,50,26,202,,07,25,052,26,24,39,268,45,10,36,062,38*67
$GBGSV,5,4,20,14,44,267,48,42,40,229,48,56,38,069,,11,04,247,*67
$GBGSV,5,5,20,02,04,109,,41,01,336,,57,01,351,,60,07,111,*61
$GPGGA,104612.00,,,,,0,00,,,M,,M,,*48
$PTNL,GGK,104612.00,010125,4742.4463085,N,01617.9726356,E,1,18,1.8,EHT670.0275,M*4D
$GPGGQ,104612.00,010125,4742.4463085,N,01617.9726356,E,1,18,6.961,626.8165,M*3B
$GPGFA,104612.00,13.434,55.377,1.413,0.925,308.272,6.753,,VVV*03
$GPLLK,104612.00,010125,,M,,M,1,18,2.2,,M*02
$GNGMP,104612.00,,,,,DAAA,18,0.7,,,,*58
$GPGMP,104612.00,,,,,,04,,,,3.5,123*7F
$GLGMP,104612.00,,,,,,04,,,,,*7B
$GAGMP,104612.00,,,,,,05,,,,,*77
$GBGMP,104612.00,,,,,,05,,,,,*74
$PSSN,SNC,[0,297990000,2347]*48
$GPZDA,104617.00,01,01,2025,,*66
$GPDTM,W84,,00.0000000,N,00.0000000,E,00.0000000,W84*5F
$GPRMC,104617.00,A,4742.4463095,N,01617.9726369,E,0.0,,010125,5.1,E,D*13
$GPGLL,4742.4463095,N,01617.9726369,E,104617.00,A,D*62
$GPGGA,104617.00,4742.4463095,N,01617.9726369,E,2,20,0.7,626.8298,M,43.2111,M,1.3,0123*45
$GNGNS,104617.00,4742.4463095,N,01617.9726369,E,DAAA,20,0.7,626.8298,43.2111,,*5B
$GPGNS,104617.00,,,,,,06,,,,1.3,123*7C
$GLGNS,104617.00,,,,,,04,,,,,*7E
$GAGNS,104617.00,,,,,,05,,,,,*72
$GBGNS,104617.00,,,,,,05,,,,,*71
$GPLLQ,104617.00,010125,,M,,M,1,20,3.799,,M*12
$GPVTG,,T,,M,0.00,N,0.01,K,D*27
$GPHDT,,T*1B
$GPTHS,,V*0E
$GPROT,,V*08
$PSSN,HRP,104617.00,010125,,,,,,,00,0,,*64
$PTNL,AVR,104617.00,,Yaw,,Tilt,,,,0,,00*32
$GPGSA,A,3,13,15,17,19,23,24,,,,,,,1.5,0.7,1.4*3B
$GPGSA,A,3,66,67,76,77,,,,,,,,,1.5,0.7,1.4*34
$GPGSA,A,3,02,03,07,08,25,,,,,,,,1.5,0.7,1.4*3D
$GPGSA,A,3,10,14,24,26,42,,,,,,,,1.5,0.7,1.4*34
$GPGST,104617.00,4.302,1.322,0.938,15.598,1.298,0.970,3.436*69
$GPGBS,104617.00,3.302,2.543,11.553,15,0.0001,1.890,0.639*62
$GPGRS,104617.00,1,-0.5,1.9,-0.7,0.2,2.1,-0.9,,,,,,*64
$GPGRS,104617.00,1,-5.3,9.5,-1.9,-7.6,,,,,,,,*65
$GPGRS,104617.00,1,0.2,-0.2,-3.5,-1.0,-1.2,,,,,,,*61
$GPGRS,104617.00,1,0.8,-0.3,-4.3,-1.6,-3.7,,,,,,,*6A
$GPGSV,4,1,15,24,60,297,50,14,22,058,23,10,14,319,30,12,30,232,35*71
$GPGSV,4,2,15,13,37,158,40,23,20,277,36,17,40,072,47,15,53,207,40*76
$GPGSV,4,3,15,19,43,117,37,22,43,057,,02,04,026,,36,35,170,35*72
$GPGSV,4,4,15,34,31,208,,49,34,195,34,61,03,257,*46
$GLGSV,3,1,10,76,66,020,46,86,14,109,,75,14,063,27,67,48,305,50*6D
$GLGSV,3,2,10,85,24,054,32,66,49,213,44,77,49,275,40,84,07,004,26*61
$GLGSV,3,3,10,68,08,338,31,65,08,180,*6A
$GAGSV,3,1,11,02,87,148,47,16,11,054,,03,29,158,38,25,35,056,43*65
$GAGSV,3,2,11,07,37,308,41,30,34,230,34,18,34,152,,08,70,220,42*67
$GAGSV,3,3,11,12,05,024,,10,05,046,,11,03,071,*5B
$GBGSV,5,1,20,26,81,020,48,35,21,126,31,40,24,040,31,05,20,130,*6D
$GBGSV,5,2,20,21,10,185,,29,24,064,31,45,27,076,32,33,34,300,34*6A
$GBGSV,5,3,20,50,26,202,,07,25,052,27,24,39,268,46,10,36,062,38*65
$GBGSV,5,4,20,14,44,267,48,42,40,229,49,56,38,069,,11,04,247,*66
$GBGSV,5,5,20,02,04,109,,41,01,336,,57,01,351,,60,07,111,*61
$GPGGA,104617.00,,,,,0,00,,,M,,M,,*4D
$PTNL,GGK,104617.00,010125,4742.4463095,N,01617.9726369,E,1,20,1.5,EHT670.0408,M*4F
$GPGGQ,104617.00,010125,4742.4463095,N,01617.9726369,E,1,20,3.799,626.8298,M*35
$GPGFA,104617.00,12.573,28.173,1.322,0.938,15.598,3.436,,VVV*39
$GPLLK,104617.00,010125,,M,,M,1,20,1.8,,M*05
$GNGMP,104617.00,,,,,DAAA,20,0.7,,,,*56
$GPGMP,104617.00,,,,,,06,,,,1.3,123*7C
$GLGMP,104617.00,,,,,,04,,,,,*7E
$GAGMP,104617.00,,,,,,05,,,,,*72
$GBGMP,104617.00,,,,,,05,,,,,*71
$PSSN,SNC,[0,297995000,2347]*4D
$GPZDA,104622.00,01,01,2025,,*60
$GPDTM,W84,,00.0000000,N,00.0000000,E,00.0000000,W84*5F
$GPRMC,104622.00,A,4742.4463177,N,01617.9726262,E,0.0,,010125,5.1,E,D*12
$GPGLL,4742.4463177,N,01617.9726262,E,104622.00,A,D*63
$GPGGA,104622.00,4742.4463177,N,01617.9726262,E,2,21,0.7,626.8263,M,43.2111,M,2.4,0123*45
$GNGNS,104622.00,4742.4463177,N,01617.9726262,E,DAAA,21,0.7,626.8263,43.2111,,*5F
$GPGNS,104622.00,,,,,,05,,,,2.4,123*7D
$GLGNS,104622.00,,,,,,04,,,,,*78
$GAGNS,104622.00,,,,,,05,,,,,*74
$GBGNS,104622.00,,,,,,07,,,,,*75
$GPLLQ,104622.00,010125,,M,,M,1,21,9.444,,M*1C
$GPVTG,,T,,M,0.01,N,0.01,K,D*26
$GPHDT,,T*1B
$GPTHS,,V*0E
$GPROT,,V*08
$PSSN,HRP,104622.00,010125,,,,,,,00,0,,*62
$PTNL,AVR,104622.00,,Yaw,,Tilt,,,,0,,00*34
$GPGSA,A,3,13,15,17,19,24,,,,,,,,1.6,0.7,1.5*38
$GPGSA,A,3,66,67,76,77,,,,,,,,,1.6,0.7,1.5*36
$GPGSA,A,3,02,03,07,08,25,,,,,,,,1.6,0.7,1.5*3F
$GPGSA,A,3,10,14,24,26,33,42,45,,,,,,1.6,0.7,1.5*37
$GPGST,104622.00,4.389,1.959,1.076,298.392,1.328,1.798,9.175*58
$GPGBS,104622.00,4.160,6.507,26.580,13,0.0001,2.132,0.765*67
$GPGRS,104622.00,1,2.1,-1.6,-0.3,0.9,-0.2,,,,,,,*42
$GPGRS,104622.00,1,-4.9,10.7,-1.7,-7.0,,,,,,,,*5A
$GPGRS,104622.00,1,0.6,-1.3,-3.0,0.0,-0.5,,,,,,,*4C
$GPGRS,104622.00,1,1.5,-0.9,-3.3,-0.9,4.4,-3.3,-4.1,,,,,*4F
$GPGSV,4,1,15,24,60,297,50,14,22,058,23,10,14,319,31,12,30,232,33*76
$GPGSV,4,2,15,13,37,158,42,23,20,277,35,17,40,072,47,15,53,207,40*77
$GPGSV,4,3,15,19,43,117,40,22,43,057,,02,04,025,,36,35,170,35*71
$GPGSV,4,4,15,34,31,208,,49,34,195,33,61,03,257,*41
$GLGSV,3,1,10,76,66,020,46,86,14,109,,75,13,063,,67,48,305,50*6F
$GLGSV,3,2,10,85,24,054,34,66,49,213,44,77,49,275,40,84,07,004,24*65
$GLGSV,3,3,10,68,08,338,28,65,08,180,*62
$GAGSV,3,1,11,02,87,148,46,16,11,054,,03,29,158,36,25,35,056,44*6D
$GAGSV,3,2,11,07,37,308,40,30,34,230,34,18,34,152,,08,70,219,43*6D
$GAGSV,3,3,11,12,05,024,,10,05,046,,11,03,071,*5B
$GBGSV,5,1,20,26,81,021,48,35,21,126,30,40,24,040,31,05,20,130,*6D
$GBGSV,5,2,20,21,10,185,,29,24,064,28,45,27,076,39,33,34,300,35*68
$GBGSV,5,3,20,50,26,202,,07,25,052,27,24,39,268,46,10,36,062,39*64
$GBGSV,5,4,20,14,44,267,47,42,40,229,49,56,38,069,,11,04,247,*69
$GBGSV,5,5,20,02,04,109,,41,01,336,,57,01,351,,60,07,111,*61
$GPGGA,104622.00,,,,,0,00,,,M,,M,,*4B
$PTNL,GGK,104622.00,010125,4742.4463177,N,01617.9726262,E,1,21,1.6,EHT670.0374,M*40
$GPGGQ,104622.00,010125,4742.4463177,N,01617.9726262,E,1,21,9.444,626.8263,M*38
$GPGFA,104622.00,18.626,75.237,1.959,1.076,298.392,9.175,,VVV*0A
$GPLLK,104622.00,010125,,M,,M,1,21,1.9,,M*03
$GNGMP,104622.00,,,,,DAAA,21,0.7,,,,*51
$GPGMP,104622.00,,,,,,05,,,,2.4,123*7D
$GLGMP,104622.00,,,,,,04,,,,,*78
$GAGMP,104622.00,,,,,,05,,,,,*74
$GBGMP,104622.00,,,,,,07,,,,,*75
$PSSN,SNC,[0,298000000,2347]*47
$GPZDA,104627.00,01,01,2025,,*65
$GPDTM,W84,,00.0000000,N,00.0000000,E,00.0000000,W84*5F
$GPRMC,104627.00,A,4742.4463257,N,01617.9726159,E,0.0,,010125,5.1,E,D*1D
$GPGLL,4742.4463257,N,01617.9726159,E,104627.00,A,D*6C
$GPGGA,104627.00,4742.4463257,N,01617.9726159,E,2,18,0.8,626.8452,M,43.2111,M,2.5,0123*4A
$GNGNS,104627.00,4742.4463257,N,01617.9726159,E,DAAA,18,0.8,626.8452,43.2111,,*51
$GPGNS,104627.00,,,,,,04,,,,2.5,123*78
$GLGNS,104627.00,,,,,,04,,,,,*7D
$GAGNS,104627.00,,,,,,04,,,,,*70
$GBGNS,104627.00,,,,,,06,,,,,*71
$GPLLQ,104627.00,010125,,M,,M,1,18,9.916,,M*19
$GPVTG,,T,,M,0.01,N,0.02,K,D*25
$GPHDT,,T*1B
$GPTHS,,V*0E
$GPROT,,V*08
$PSSN,HRP,104627.00,010125,,,,,,,00,0,,*67
$PTNL,AVR,104627.00,,Yaw,,Tilt,,,,0,,00*31
$GPGSA,A,3,13,17,19,24,,,,,,,,,1.8,0.8,1.6*3E
$GPGSA,A,3,66,67,76,77,,,,,,,,,1.8,0.8,1.6*34
$GPGSA,A,3,02,07,08,25,,,,,,,,,1.8,0.8,1.6*3E
$GPGSA,A,3,10,14,24,26,33,42,,,,,,,1.8,0.8,1.6*34
$GPGST,104627.00,5.079,2.005,1.360,308.302,1.638,1.785,9.615*5F
$GPGBS,104627.00,6.510,6.654,29.462,19,0.0001,1.944,0.720*65
$GPGRS,104627.00,1,1.0,-1.5,1.9,-0.4,,,,,,,,*41
$GPGRS,104627.00,1,-6.0,6.7,-0.8,-9.0,,,,,,,,*63
$GPGRS,104627.00,1,-0.4,-3.8,-1.2,-1.5,,,,,,,,*40
$GPGRS,104627.00,1,0.7,-2.7,-4.1,-2.2,6.8,-4.4,,,,,,*41
$GPGSV,4,1,15,24,60,297,50,14,22,058,26,10,14,319,33,12,30,232,31*73
$GPGSV,4,2,15,13,37,158,42,23,20,277,36,17,40,072,47,15,53,207,41*75
$GPGSV,4,3,15,19,43,117,42,22,43,057,,02,04,025,,36,35,170,35*73
$GPGSV,4,4,15,34,31,208,,49,34,195,34,61,03,257,*46
$GLGSV,3,1,10,76,66,020,47,86,14,109,,75,13,063,,67,48,305,49*66
$GLGSV,3,2,10,85,24,054,35,66,49,213,45,77,49,275,41,84,07,004,24*64
$GLGSV,3,3,10,68,08,338,24,65,08,180,*6E
$GAGSV,3,1,11,02,87,147,46,16,11,054,,03,29,158,34,25,35,056,44*60
$GAGSV,3,2,11,07,37,308,39,30,34,230,34,18,34,152,,08,70,219,43*63
$GAGSV,3,3,11,12,05,024,,10,05,046,,11,03,071,*5B
$GBGSV,5,1,20,26,81,021,47,35,21,126,31,40,24,040,31,05,20,130,*63
$GBGSV,5,2,20,21,10,185,,29,24,064,28,45,27,076,33,33,34,300,35*62
$GBGSV,5,3,20,50,26,202,,07,25,052,25,24,39,268,47,10,36,062,39*67
$GBGSV,5,4,20,14,44,267,47,42,40,229,49,56,38,069,,11,04,247,*69
