$GPZDA,152942.00,01,01,2025,,*6A
$GPDTM,W84,,00.0000000,N,00.0000000,E,00.0000000,W84*5F
$GPRMC,152942.00,A,4742.4466841,N,01617.9737233,E,0.0,,010125,5.1,E,D*15
$GPGLL,4742.4466841,N,01617.9737233,E,152942.00,A,D*64
$GPGGA,152942.00,4742.4466841,N,01617.9737233,E,2,23,0.7,625.7330,M,43.2111,M,3.4,0123*4A
$GNGNS,152942.00,4742.4466841,N,01617.9737233,E,DAAA,23,0.7,625.7330,43.2111,,*51
$GPGNS,152942.00,,,,,,07,,,,3.4,123*74
$GLGNS,152942.00,,,,,,05,,,,,*73
$GAGNS,152942.00,,,,,,04,,,,,*7F
$GBGNS,152942.00,,,,,,07,,,,,*7F
$GPLLQ,152942.00,010125,,M,,M,1,23,1.650,,M*1B
$GPVTG,,T,,M,0.00,N,0.01,K,D*27
$GPHDT,,T*1B
$GPTHS,,V*0E
$GPROT,,V*08
$PSSN,HRP,152942.00,010125,,,,,,,00,0,,*68
$PTNL,AVR,152942.00,,Yaw,,Tilt,,,,0,,00*3E
$GPGSA,A,3,12,18,25,26,28,29,31,,,,,,1.2,0.7,0.9*35
$GPGSA,A,3,78,79,80,81,88,,,,,,,,1.2,0.7,0.9*3F
$GPGSA,A,3,15,27,30,34,,,,,,,,,1.2,0.7,0.9*3A
$GPGSA,A,3,11,12,23,24,25,34,44,,,,,,1.2,0.7,0.9*3B
$GPGST,152942.00,2.159,1.043,0.491,23.425,0.977,0.612,1.180*6D
$GPGBS,152942.00,8.537,4.679,7.061,18,0.0001,-1.813,1.608*72
$GPGRS,152942.00,1,-0.5,-1.8,0.4,1.1,0.0,0.3,0.2,,,,,*60
$GPGRS,152942.00,1,-3.6,-1.9,-2.9,2.0,-0.9,,,,,,,*64
$GPGRS,152942.00,1,-1.4,-0.8,0.3,-2.3,,,,,,,,*65
$GPGRS,152942.00,1,4.4,1.6,-0.8,2.1,-1.4,0.6,-1.5,,,,,*4F
$GPGSV,4,1,16,29,80,257,48,18,19,186,46,26,16,297,36,11,26,047,27*70
$GPGSV,4,2,16,12,27,107,41,20,18,074,24,31,35,305,46,28,53,274,46*7C
$GPGSV,4,3,16,25,68,106,46,04,00,347,,05,09,107,,32,03,238,*70
$GPGSV,4,4,16,36,35,170,37,34,31,208,35,49,34,195,36,61,03,257,*70
$GLGSV,3,1,09,79,66,326,45,88,61,048,47,80,13,316,40,81,56,197,46*63
$GLGSV,3,2,09,78,55,127,41,70,08,318,27,82,09,207,,87,05,032,21*6D
$GLGSV,3,3,09,71,08,002,*50
$GAGSV,3,1,10,27,70,307,44,29,15,258,34,15,45,155,39,21,17,292,32*69
$GAGSV,3,2,10,34,48,071,42,19,16,303,28,30,53,101,45,13,05,191,*6C
$GAGSV,3,3,10,02,02,108,,36,10,032,23*64
$GBGSV,5,1,17,34,78,161,46,56,15,062,,05,20,130,,38,24,065,29*66
$GBGSV,5,2,17,43,27,208,,24,30,143,44,13,24,089,,08,25,080,*63
$GBGSV,5,3,17,23,36,305,46,44,36,055,47,11,56,204,46,12,62,064,47*6C
$GBGSV,5,4,17,25,77,214,53,10,10,077,,02,05,108,,20,00,342,*63
$GBGSV,5,5,17,60,09,110,*52
$GPGGA,152942.00,,,,,0,00,,,M,,M,,*41
$PTNL,GGK,152942.00,010125,4742.4466841,N,01617.9737233,E,1,23,1.2,EHT668.9441,M*40
$GPGGQ,152942.00,010125,4742.4466841,N,01617.9737233,E,1,23,1.650,625.7330,M*39
$GPGFA,152942.00,9.916,9.678,1.043,0.491,23.425,1.180,,VVV*3D
$GPLLK,152942.00,010125,,M,,M,1,23,1.4,,M*06
$GNGMP,152942.00,,,,,DAAA,23,0.7,,,,*59
$GPGMP,152942.00,,,,,,07,,,,3.4,123*74
$GLGMP,152942.00,,,,,,05,,,,,*73
$GAGMP,152942.00,,,,,,04,,,,,*7F
$GBGMP,152942.00,,,,,,07,,,,,*7F
$PSSN,SNC,[0,315000000,2347]*43
$GPALM,12,1,12,2347,00,49A9,7B,0BFA,FD42,A10DA3,3BB74F,6187C5,954551,DB2,FFF*3C
$GPALM,12,2,13,2347,00,4837,7B,1402,FD5D,A10D25,27894C,0F3ADE,183242,2D6,000*48
$GPALM,12,3,14,2347,00,2A30,7B,0117,FD33,A10D18,8B467C,5F93E6,8FE0D1,259,002*35
$GPALM,12,4,15,2347,00,840C,7B,FD17,FD32,A10D86,388507,02E693,FA7E33,103,001*41
$GPALM,12,5,16,2347,00,767A,7B,0B93,FD42,A10CE2,234971,623F35,4CD24F,FA5,003*4D
$GPALM,12,6,17,2347,00,6D91,7B,0F4B,FD5C,A10C73,CD3D68,8BCE8D,2296D3,202,FFB*42
$GPALM,12,7,18,2347,00,2757,7B,1496,FD55,A10D62,887901,B4CF70,D0D029,D4D,000*4A
$GPALM,12,8,19,2347,00,521E,7B,0EC8,FD5A,A10C6F,6E08B3,8D9B57,6ECCFF,262,001*3C
$GPALM,12,9,20,2347,00,1F53,7B,093D,FD29,A10CF0,9F5AA2,D75F47,E04B01,181,000*36
$GPALM,12,10,21,2347,00,D3FF,7B,0BDB,FD58,A10CA0,ECFD74,B0376E,1CBC4A,069,000*78
$GPALM,12,11,23,2347,00,28DA,7B,19FE,FD3F,A10CA4,8B40C0,DDA943,A35444,1A0,002*78
$GPALM,12,12,24,2347,00,8684,7B,FA6E,FD45,A10D15,2A83BF,2FEC4C,D71B52,E16,001*72
$GPZDA,152947.00,01,01,2025,,*6F
$GPDTM,W84,,00.0000000,N,00.0000000,E,00.0000000,W84*5F
$GPRMC,152947.00,A,4742.4466771,N,01617.9737236,E,0.0,,010125,5.1,E,D*19
$GPGLL,4742.4466771,N,01617.9737236,E,152947.00,A,D*68
$GPGGA,152947.00,4742.4466771,N,01617.9737236,E,2,22,0.7,625.7215,M,43.2110,M,2.3,0123*46
$GNGNS,152947.00,4742.4466771,N,01617.9737236,E,DAAA,22,0.7,625.7215,43.2110,,*5B
$GPGNS,152947.00,,,,,,06,,,,2.3,123*76
$GLGNS,152947.00,,,,,,05,,,,,*76
$GAGNS,152947.00,,,,,,04,,,,,*7A
$GBGNS,152947.00,,,,,,07,,,,,*7A
$GPLLQ,152947.00,010125,,M,,M,1,22,1.835,,M*12
$GPVTG,,T,,M,0.00,N,0.00,K,D*26
$GPHDT,,T*1B
$GPTHS,,V*0E
$GPROT,,V*08
$PSSN,HRP,152947.00,010125,,,,,,,00,0,,*6D
$PTNL,AVR,152947.00,,Yaw,,Tilt,,,,0,,00*3B
$GPGSA,A,3,12,18,25,28,29,31,,,,,,,1.2,0.7,1.0*39
$GPGSA,A,3,78,79,80,81,88,,,,,,,,1.2,0.7,1.0*37
$GPGSA,A,3,15,27,30,34,,,,,,,,,1.2,0.7,1.0*32
$GPGSA,A,3,11,12,23,24,25,34,44,,,,,,1.2,0.7,1.0*33
$GPGST,152947.00,2.734,1.097,0.540,20.054,1.047,0.631,1.369*6F
$GPGBS,152947.00,8.251,4.478,7.711,18,0.0001,-2.228,1.585*74
$GPGRS,152947.00,1,-0.2,-2.2,0.7,-0.1,0.4,0.1,,,,,,*6E
$GPGRS,152947.00,1,-2.1,-2.1,-7.6,0.4,-0.7,,,,,,,*6E
$GPGRS,152947.00,1,-1.4,-0.7,0.4,-2.3,,,,,,,,*68
$GPGRS,152947.00,1,4.3,2.2,-0.9,1.1,-1.6,0.4,-1.8,,,,,*45
$GPGSV,4,1,16,29,80,257,48,18,19,186,45,26,16,297,34,11,26,047,32*75
$GPGSV,4,2,16,12,27,107,42,20,18,074,,31,35,305,46,28,53,274,46*79
$GPGSV,4,3,16,25,68,106,47,04,00,347,,05,09,107,,32,03,238,*71
$GPGSV,4,4,16,36,35,170,36,34,31,208,35,49,34,195,36,61,03,257,*71
$GLGSV,3,1,09,79,66,326,43,88,61,048,46,80,13,316,40,81,56,197,46*64
$GLGSV,3,2,09,78,55,127,42,70,08,317,25,82,09,207,,87,05,032,21*63
$GLGSV,3,3,09,71,08,002,31*52
$GAGSV,3,1,10,27,70,307,45,29,15,258,35,15,45,155,39,21,17,292,34*6F
$GAGSV,3,2,10,34,48,071,43,19,16,303,26,30,53,101,46,13,05,191,*60
$GAGSV,3,3,10,02,02,108,,36,10,032,22*65
$GBGSV,5,1,17,34,79,161,47,56,15,062,,05,20,130,,38,24,065,28*67
$GBGSV,5,2,17,43,27,208,,24,30,143,44,13,24,089,,08,25,080,*63
$GBGSV,5,3,17,23,36,305,46,44,36,055,46,11,56,204,45,12,62,064,47*6E
$GBGSV,5,4,17,25,77,214,52,10,10,077,,02,05,108,,20,00,342,*62
$GBGSV,5,5,17,60,09,110,*52
$GPGGA,152947.00,,,,,0,00,,,M,,M,,*44
$PTNL,GGK,152947.00,010125,4742.4466771,N,01617.9737236,E,1,22,1.2,EHT668.9325,M*48
$GPGGQ,152947.00,010125,4742.4466771,N,01617.9737236,E,1,22,1.835,625.7215,M*3F
$GPGFA,152947.00,10.429,11.223,1.097,0.540,20.054,1.369,,VVV*32
$GPLLK,152947.00,010125,,M,,M,1,22,1.5,,M*03
$GNGMP,152947.00,,,,,DAAA,22,0.7,,,,*5D
$GPGMP,152947.00,,,,,,06,,,,2.3,123*76
$GLGMP,152947.00,,,,,,05,,,,,*76
$GAGMP,152947.00,,,,,,04,,,,,*7A
$GBGMP,152947.00,,,,,,07,,,,,*7A
$PSSN,SNC,[0,315005000,2347]*46
$GPZDA,152952.00,01,01,2025,,*6B
$GPDTM,W84,,00.0000000,N,00.0000000,E,00.0000000,W84*5F
$GPRMC,152952.00,A,4742.4466707,N,01617.9737190,E,0.0,,010125,5.1,E,D*13
$GPGLL,4742.4466707,N,01617.9737190,E,152952.00,A,D*62
$GPGGA,152952.00,4742.4466707,N,01617.9737190,E,2,22,0.7,625.7020,M,43.2111,M,2.0,0123*4A
$GNGNS,152952.00,4742.4466707,N,01617.9737190,E,DAAA,22,0.7,625.7020,43.2111,,*54
$GPGNS,152952.00,,,,,,06,,,,2.0,123*71
$GLGNS,152952.00,,,,,,05,,,,,*72
$GAGNS,152952.00,,,,,,04,,,,,*7E
$GBGNS,152952.00,,,,,,07,,,,,*7E
$GPLLQ,152952.00,010125,,M,,M,1,22,1.950,,M*14
$GPVTG,,T,,M,0.01,N,0.01,K,D*26
$GPHDT,,T*1B
$GPTHS,,V*0E
$GPROT,,V*08
$PSSN,HRP,152952.00,010125,,,,,,,00,0,,*69
$PTNL,AVR,152952.00,,Yaw,,Tilt,,,,0,,00*3F
$GPGSA,A,3,12,18,25,28,29,31,,,,,,,1.2,0.7,1.0*39
$GPGSA,A,3,78,79,80,81,88,,,,,,,,1.2,0.7,1.0*37
$GPGSA,A,3,15,27,30,34,,,,,,,,,1.2,0.7,1.0*32
$GPGSA,A,3,11,12,23,24,25,34,44,,,,,,1.2,0.7,1.0*33
$GPGST,152952.00,2.789,1.175,0.574,21.035,1.116,0.682,1.446*66
$GPGBS,152952.00,8.242,4.517,7.662,18,0.0001,-2.267,1.590*70
$GPGRS,152952.00,1,-0.1,-2.3,0.8,-0.1,0.5,-0.7,,,,,,*4D
$GPGRS,152952.00,1,-1.9,-1.6,-7.1,0.5,-1.6,,,,,,,*63
$GPGRS,152952.00,1,-1.4,-0.5,0.8,-1.6,,,,,,,,*64
$GPGRS,152952.00,1,5.5,2.7,-1.1,0.6,-1.5,-0.0,-1.8,,,,,*66
$GPGSV,4,1,16,29,80,257,48,18,19,186,45,26,16,297,32,11,26,047,32*73
$GPGSV,4,2,16,12,27,107,43,20,18,074,,31,35,305,47,28,53,274,46*79
$GPGSV,4,3,16,25,68,106,48,04,00,347,,05,09,107,,32,03,238,*7E
$GPGSV,4,4,16,36,35,170,36,34,31,208,35,49,34,195,36,61,03,257,*71
$GLGSV,3,1,09,79,66,326,42,88,61,048,45,80,13,316,38,81,56,197,46*69
$GLGSV,3,2,09,78,55,127,40,70,08,317,22,82,09,207,,87,05,032,*65
$GLGSV,3,3,09,71,08,002,30*53
$GAGSV,3,1,10,27,70,307,45,29,15,258,35,15,45,155,39,21,17,292,35*6E
$GAGSV,3,2,10,34,48,071,43,19,16,303,25,30,53,101,46,13,05,191,*63
$GAGSV,3,3,10,02,02,108,,36,10,032,21*66
$GBGSV,5,1,17,34,79,161,47,56,15,062,,05,20,130,,38,24,065,27*68
$GBGSV,5,2,17,43,27,208,,24,30,143,45,13,24,089,,08,25,080,*62
$GBGSV,5,3,17,23,36,305,47,44,36,054,46,11,56,204,44,12,62,064,47*6F
$GBGSV,5,4,17,25,77,213,52,10,10,077,,02,05,108,,20,00,342,*65
$GBGSV,5,5,17,60,09,110,*52
$GPGGA,152952.00,,,,,0,00,,,M,,M,,*40
$PTNL,GGK,152952.00,010125,4742.4466707,N,01617.9737190,E,1,22,1.2,EHT668.9131,M*45
$GPGGQ,152952.00,010125,4742.4466707,N,01617.9737190,E,1,22,1.950,625.7020,M*33
$GPGFA,152952.00,11.168,11.858,1.175,0.574,21.035,1.446,,VVV*37
$GPLLK,152952.00,010125,,M,,M,1,22,1.5,,M*07
$GNGMP,152952.00,,,,,DAAA,22,0.7,,,,*59
$GPGMP,152952.00,,,,,,06,,,,2.0,123*71
$GLGMP,152952.00,,,,,,05,,,,,*72
$GAGMP,152952.00,,,,,,04,,,,,*7E
$GBGMP,152952.00,,,,,,07,,,,,*7E
$PSSN,SNC,[0,315010000,2347]*42
$GPZDA,152957.00,01,01,2025,,*6E
$GPDTM,W84,,00.0000000,N,00.0000000,E,00.0000000,W84*5F
$GPRMC,152957.00,A,4742.4466664,N,01617.9737119,E,0.0,,010125,5.1,E,D*13
$GPGLL,4742.4466664,N,01617.9737119,E,152957.00,A,D*62
$GPGGA,152957.00,4742.4466664,N,01617.9737119,E,2,23,0.7,625.6823,M,43.2111,M,2.3,0123*42
$GNGNS,152957.00,4742.4466664,N,01617.9737119,E,DAAA,23,0.7,625.6823,43.2111,,*5F
$GPGNS,152957.00,,,,,,06,,,,2.3,123*77
$GLGNS,152957.00,,,,,,05,,,,,*77
$GAGNS,152957.00,,,,,,05,,,,,*7A
$GBGNS,152957.00,,,,,,07,,,,,*7B
$GPLLQ,152957.00,010125,,M,,M,1,23,1.739,,M*11
$GPVTG,,T,,M,0.00,N,0.01,K,D*27
$GPHDT,,T*1B
$GPTHS,,V*0E
$GPROT,,V*08
$PSSN,HRP,152957.00,010125,,,,,,,00,0,,*6C
$PTNL,AVR,152957.00,,Yaw,,Tilt,,,,0,,00*3A
$GPGSA,A,3,12,18,25,28,29,31,,,,,,,1.2,0.7,0.9*31
$GPGSA,A,3,78,79,80,81,88,,,,,,,,1.2,0.7,0.9*3F
$GPGSA,A,3,15,21,27,30,34,,,,,,,,1.2,0.7,0.9*39
$GPGSA,A,3,11,12,23,24,25,34,44,,,,,,1.2,0.7,0.9*3B
$GPGST,152957.00,2.710,1.057,0.513,21.391,1.002,0.614,1.282*6B
$GPGBS,152957.00,8.322,4.492,7.552,18,0.0001,-1.790,1.596*76
$GPGRS,152957.00,1,-0.5,-1.8,0.4,0.0,0.7,-0.4,,,,,,*65
$GPGRS,152957.00,1,-2.7,-0.1,-6.4,0.0,-2.2,,,,,,,*6B
$GPGRS,152957.00,1,-1.2,1.7,0.0,0.9,-1.5,,,,,,,*65
$GPGRS,152957.00,1,6.5,1.8,-1.2,0.1,-1.4,-0.6,-1.8,,,,,*6F
$GPGSV,4,1,16,29,80,257,48,18,19,186,44,26,16,297,27,11,26,047,34*70
$GPGSV,4,2,16,12,27,107,42,20,18,074,,31,35,305,47,28,53,274,46*78
$GPGSV,4,3,16,25,68,106,48,04,00,347,,05,09,107,,32,03,238,*7E
$GPGSV,4,4,16,36,35,170,36,34,31,208,35,49,34,195,36,61,03,257,*71
$GLGSV,3,1,09,79,66,326,42,88,61,048,46,80,13,316,36,81,56,197,45*67
$GLGSV,3,2,09,78,55,127,37,70,08,317,21,82,09,207,,87,05,032,*66
$GLGSV,3,3,09,71,08,002,29*5B
$GAGSV,3,1,10,27,70,307,45,29,15,258,35,15,45,155,38,21,17,292,37*6D
$GAGSV,3,2,10,34,48,071,44,19,16,303,24,30,53,101,46,13,05,191,*65
$GAGSV,3,3,10,02,02,108,,36,10,032,21*66
$GBGSV,5,1,17,34,79,161,47,56,15,062,,05,20,130,,38,24,065,24*6B
$GBGSV,5,2,17,43,27,208,,24,29,143,45,13,24,089,,08,25,080,*6A
$GBGSV,5,3,17,23,36,305,47,44,36,054,46,11,56,204,44,12,62,064,47*6F
$GBGSV,5,4,17,25,77,213,52,10,10,077,,02,05,108,,20,00,342,*65
$GBGSV,5,5,17,60,09,110,*52
$GPGGA,152957.00,,,,,0,00,,,M,,M,,*45
$PTNL,GGK,152957.00,010125,4742.4466664,N,01617.9737119,E,1,23,1.2,EHT668.8934,M*48
$GPGGQ,152957.00,010125,4742.4466664,N,01617.9737119,E,1,23,1.739,625.6823,M*39
$GPGFA,152957.00,10.050,10.512,1.057,0.513,21.391,1.282,,VVV*38
$GPLLK,152957.00,010125,,M,,M,1,23,1.4,,M*02
$GNGMP,152957.00,,,,,DAAA,23,0.7,,,,*5D
$GPGMP,152957.00,,,,,,06,,,,2.3,123*77
$GLGMP,152957.00,,,,,,05,,,,,*77
$GAGMP,152957.00,,,,,,05,,,,,*7A
$GBGMP,152957.00,,,,,,07,,,,,*7B
$PSSN,SNC,[0,315015000,2347]*47
$GPZDA,153002.00,01,01,2025,,*66
$GPDTM,W84,,00.0000000,N,00.0000000,E,00.0000000,W84*5F
$GPRMC,153002.00,A,4742.4466628,N,01617.9737148,E,0.0,,010125,5.1,E,D*17
$GPGLL,4742.4466628,N,01617.9737148,E,153002.00,A,D*66
$GPGGA,153002.00,4742.4466628,N,01617.9737148,E,2,23,0.7,625.6633,M,43.2111,M,3.3,0123*48
$GNGNS,153002.00,4742.4466628,N,01617.9737148,E,DAAA,23,0.7,625.6633,43.2111,,*54
$GPGNS,153002.00,,,,,,06,,,,3.3,123*7E
$GLGNS,153002.00,,,,,,05,,,,,*7F
$GAGNS,153002.00,,,,,,05,,,,,*72
$GBGNS,153002.00,,,,,,07,,,,,*73
$GPLLQ,153002.00,010125,,M,,M,1,23,1.785,,M*1E
$GPVTG,,T,,M,0.01,N,0.01,K,D*26
$GPHDT,,T*1B
$GPTHS,,V*0E
$GPROT,,V*08
$PSSN,HRP,153002.00,010125,,,,,,,00,0,,*64
$PTNL,AVR,153002.00,,Yaw,,Tilt,,,,0,,00*32
$GPGSA,A,3,12,18,25,28,29,31,,,,,,,1.2,0.7,0.9*31
$GPGSA,A,3,78,79,80,81,88,,,,,,,,1.2,0.7,0.9*3F
$GPGSA,A,3,15,21,27,30,34,,,,,,,,1.2,0.7,0.9*39
$GPGSA,A,3,11,12,23,24,25,34,44,,,,,,1.2,0.7,0.9*3B
$GPGST,153002.00,2.396,1.085,0.524,21.079,1.030,0.626,1.317*6A
$GPGBS,153002.00,8.361,4.543,7.637,29,0.0001,1.072,0.832*52
$GPGRS,153002.00,1,-1.3,-1.1,0.2,0.0,1.1,-0.4,,,,,,*62
$GPGRS,153002.00,1,-2.0,-1.2,-4.4,-0.0,-2.0,,,,,,,*4B
$GPGRS,153002.00,1,-1.5,3.2,0.9,1.1,-1.7,,,,,,,*6F
$GPGRS,153002.00,1,5.9,0.9,-0.9,-0.3,-1.3,-0.8,-1.6,,,,,*4A
$GPGSV,4,1,16,29,80,257,49,18,19,186,43,26,16,297,20,11,26,047,36*73
$GPGSV,4,2,16,12,27,107,41,20,18,074,,31,35,305,47,28,53,274,46*7B
$GPGSV,4,3,16,25,68,106,47,04,00,347,,05,09,107,,32,03,238,*71
$GPGSV,4,4,16,36,35,170,36,34,31,208,35,49,34,195,36,61,03,257,*71
$GLGSV,3,1,09,79,66,326,42,88,61,048,48,80,13,316,37,81,56,197,45*68
$GLGSV,3,2,09,78,55,127,35,70,07,317,20,82,09,207,,87,05,032,20*68
$GLGSV,3,3,09,71,08,002,20*52
$GAGSV,3,1,10,27,70,307,46,29,15,258,35,15,45,155,37,21,17,292,38*6E
$GAGSV,3,2,10,34,48,071,43,19,16,303,28,30,53,101,46,13,05,191,*6E
$GAGSV,3,3,10,02,02,108,,36,10,032,20*67
$GBGSV,5,1,17,34,79,161,46,56,15,062,,05,20,130,,38,24,065,23*6D
$GBGSV,5,2,17,43,27,208,,24,29,143,45,13,24,089,,08,25,080,*6A
$GBGSV,5,3,17,23,36,305,47,44,36,054,46,11,56,204,41,12,62,064,47*6A
$GBGSV,5,4,17,25,77,213,52,10,10,077,,02,05,108,,20,00,342,*65
$GBGSV,5,5,17,60,09,109,*5A
$GPGGA,153002.00,,,,,0,00,,,M,,M,,*4D
$PTNL,GGK,153002.00,010125,4742.4466628,N,01617.9737148,E,1,23,1.2,EHT668.8743,M*42
$GPGGQ,153002.00,010125,4742.4466628,N,01617.9737148,E,1,23,1.785,625.6633,M*35
$GPGFA,153002.00,10.317,10.801,1.085,0.524,21.079,1.317,,VVV*3C
$GPLLK,153002.00,010125,,M,,M,1,23,1.4,,M*0A
$GNGMP,153002.00,,,,,DAAA,23,0.7,,,,*55
$GPGMP,153002.00,,,,,,06,,,,3.3,123*7E
$GLGMP,153002.00,,,,,,05,,,,,*7F
$GAGMP,153002.00,,,,,,05,,,,,*72
$GBGMP,153002.00,,,,,,07,,,,,*73
$PSSN,SNC,[0,315020000,2347]*41
$GPZDA,153007.00,01,01,2025,,*63
$GPDTM,W84,,00.0000000,N,00.0000000,E,00.0000000,W84*5F
$GPRMC,153007.00,A,4742.4466604,N,01617.9737178,E,0.0,,010125,5.1,E,D*1F
$GPGLL,4742.4466604,N,01617.9737178,E,153007.00,A,D*6E
$GPGGA,153007.00,4742.4466604,N,01617.9737178,E,2,24,0.7,625.6397,M,43.2111,M,2.3,0123*4D
$GNGNS,153007.00,4742.4466604,N,01617.9737178,E,DAAA,24,0.7,625.6397,43.2111,,*50
$GPGNS,153007.00,,,,,,06,,,,2.3,123*7A
$GLGNS,153007.00,,,,,,05,,,,,*7A
$GAGNS,153007.00,,,,,,06,,,,,*74
$GBGNS,153007.00,,,,,,07,,,,,*76
$GPLLQ,153007.00,010125,,M,,M,1,24,1.815,,M*1A
$GPVTG,,T,,M,0.00,N,0.01,K,D*27
$GPHDT,,T*1B
$GPTHS,,V*0E
$GPROT,,V*08
$PSSN,HRP,153007.00,010125,,,,,,,00,0,,*61
$PTNL,AVR,153007.00,,Yaw,,Tilt,,,,0,,00*37
$GPGSA,A,3,12,18,25,28,29,31,,,,,,,1.1,0.7,0.9*32
$GPGSA,A,3,78,79,80,81,88,,,,,,,,1.1,0.7,0.9*3C
$GPGSA,A,3,15,21,27,29,30,34,,,,,,,1.1,0.7,0.9*31
$GPGSA,A,3,11,12,23,24,25,34,44,,,,,,1.1,0.7,0.9*38
$GPGST,153007.00,1.709,1.101,0.532,20.742,1.046,0.632,1.342*6E
$GPGBS,153007.00,8.188,4.435,7.712,29,0.0001,1.194,0.848*50
$GPGRS,153007.00,1,-1.4,-0.8,0.4,-0.2,1.2,-0.7,,,,,,*41
$GPGRS,153007.00,1,-1.0,-0.2,-2.4,0.6,-1.1,,,,,,,*63
$GPGRS,153007.00,1,-1.9,2.8,1.1,0.7,1.0,-1.8,,,,,,*43
$GPGRS,153007.00,1,3.3,1.6,-0.6,-0.7,-1.5,-0.5,-1.4,,,,,*4F
$GPGSV,4,1,16,29,80,258,50,18,19,186,42,26,16,297,32,11,26,047,36*76
$GPGSV,4,2,16,12,27,107,40,20,18,074,,31,36,305,47,28,53,274,46*79
$GPGSV,4,3,16,25,68,106,48,04,00,347,,05,09,107,,32,03,238,*7E
$GPGSV,4,4,16,36,35,170,36,34,31,208,34,49,34,195,36,61,03,257,*70
$GLGSV,3,1,09,79,66,326,41,88,61,048,49,80,13,316,40,81,56,197,46*69
$GLGSV,3,2,09,78,54,127,39,70,07,317,,82,09,207,,87,05,032,*65
$GLGSV,3,3,09,71,08,002,30*53
$GAGSV,3,1,10,27,70,307,46,29,15,258,35,15,45,155,35,21,17,292,38*6C
$GAGSV,3,2,10,34,48,071,43,19,16,303,29,30,53,101,46,13,05,191,*6F
$GAGSV,3,3,10,02,02,108,,36,10,032,*65
$GBGSV,5,1,17,34,79,160,46,56,15,062,,05,20,130,,38,24,065,21*6E
$GBGSV,5,2,17,43,27,208,,24,29,143,45,13,24,089,,08,25,080,*6A
$GBGSV,5,3,17,23,36,305,48,44,36,054,46,11,56,204,39,12,62,064,47*6A
$GBGSV,5,4,17,25,77,213,51,10,10,077,,02,05,108,,20,00,342,*66
$GBGSV,5,5,17,60,09,109,*5A
$GPGGA,153007.00,,,,,0,00,,,M,,M,,*48
$PTNL,GGK,153007.00,010125,4742.4466604,N,01617.9737178,E,1,24,1.1,EHT668.8507,M*4C
$GPGGQ,153007.00,010125,4742.4466604,N,01617.9737178,E,1,24,1.815,625.6397,M*37
$GPGFA,153007.00,10.464,11.001,1.101,0.532,20.742,1.342,,VVV*37
$GPLLK,153007.00,010125,,M,,M,1,24,1.3,,M*0F
$GNGMP,153007.00,,,,,DAAA,24,0.7,,,,*57
$GPGMP,153007.00,,,,,,06,,,,2.3,123*7A
$GLGMP,153007.00,,,,,,05,,,,,*7A
$GAGMP,153007.00,,,,,,06,,,,,*74
$GBGMP,153007.00,,,,,,07,,,,,*76
$PSSN,SNC,[0,315025000,2347]*44
$GPZDA,153012.00,01,01,2025,,*67
$GPDTM,W84,,00.0000000,N,00.0000000,E,00.0000000,W84*5F
$GPRMC,153012.00,A,4742.4466522,N,01617.9737166,E,0.0,,010125,5.1,E,D*13
$GPGLL,4742.4466522,N,01617.9737166,E,153012.00,A,D*62
$GPGGA,153012.00,4742.4466522,N,01617.9737166,E,2,24,0.6,625.6245,M,43.2111,M,2.3,0123*4E
$GNGNS,153012.00,4742.4466522,N,01617.9737166,E,DAAA,24,0.6,625.6245,43.2111,,*53
$GPGNS,153012.00,,,,,,07,,,,2.3,123*7F
$GLGNS,153012.00,,,,,,05,,,,,*7E
$GAGNS,153012.00,,,,,,05,,,,,*73
$GBGNS,153012.00,,,,,,07,,,,,*72
$GPLLQ,153012.00,010125,,M,,M,1,24,2.135,,M*16
$GPVTG,,T,,M,0.01,N,0.01,K,D*26
$GPHDT,,T*1B
$GPTHS,,V*0E
$GPROT,,V*08
$PSSN,HRP,153012.00,010125,,,,,,,00,0,,*65
$PTNL,AVR,153012.00,,Yaw,,Tilt,,,,0,,00*33
$GPGSA,A,3,11,12,18,25,28,29,31,,,,,,1.1,0.6,0.9*33
$GPGSA,A,3,78,79,80,81,88,,,,,,,,1.1,0.6,0.9*3D
$GPGSA,A,3,21,27,29,30,34,,,,,,,,1.1,0.6,0.9*34
$GPGSA,A,3,11,12,23,24,25,34,44,,,,,,1.1,0.6,0.9*39
$GPGST,153012.00,1.632,1.099,0.730,12.922,1.083,0.752,1.678*68
$GPGBS,153012.00,5.947,2.876,6.494,11,0.0001,3.171,1.404*54
$GPGRS,153012.00,1,3.2,-2.1,-1.2,0.3,-0.6,0.5,-0.7,,,,,*62
$GPGRS,153012.00,1,-0.2,0.4,-2.8,0.3,-0.5,,,,,,,*43
$GPGRS,153012.00,1,0.5,-0.1,1.4,0.9,-1.8,,,,,,,*65
$GPGRS,153012.00,1,0.1,1.8,-0.5,-1.5,-2.0,-1.0,-1.6,,,,,*44
$GPGSV,4,1,16,29,80,258,51,18,19,186,42,26,16,297,23,11,26,047,37*76
$GPGSV,4,2,16,12,27,107,39,20,18,074,,31,36,305,47,28,53,274,46*77
$GPGSV,4,3,16,25,68,106,48,04,00,347,,05,09,107,,32,03,238,*7E
$GPGSV,4,4,16,36,35,170,36,34,31,208,34,49,34,195,36,61,03,257,*70
$GLGSV,3,1,09,79,66,326,42,88,61,048,50,80,13,316,42,81,56,197,47*61
$GLGSV,3,2,09,78,54,127,40,70,07,317,,82,09,207,,87,05,032,*6B
$GLGSV,3,3,09,71,08,002,31*52
$GAGSV,3,1,10,27,70,307,45,29,15,258,36,15,45,155,34,21,17,292,38*6D
$GAGSV,3,2,10,34,48,071,43,19,16,303,30,30,53,101,46,13,05,191,*67
$GAGSV,3,3,10,02,02,108,,36,10,032,*65
$GBGSV,5,1,17,34,79,160,45,56,15,062,,05,20,130,,38,24,065,29*65
$GBGSV,5,2,17,43,27,208,,24,29,143,45,13,24,089,,08,25,080,*6A
$GBGSV,5,3,17,23,36,305,47,44,36,054,45,11,56,204,38,12,61,064,46*65
$GBGSV,5,4,17,25,77,213,51,10,10,077,,02,05,108,,20,00,342,*66
$GBGSV,5,5,17,60,09,109,*5A
$GPGGA,153012.00,,,,,0,00,,,M,,M,,*4C
$PTNL,GGK,153012.00,010125,4742.4466522,N,01617.9737166,E,1,24,1.1,EHT668.8356,M*42
$GPGGQ,153012.00,010125,4742.4466522,N,01617.9737166,E,1,24,2.135,625.6245,M*3D
$GPGFA,153012.00,10.447,13.764,1.099,0.730,12.922,1.678,,VVV*31
$GPLLK,153012.00,010125,,M,,M,1,24,1.2,,M*0A
$GNGMP,153012.00,,,,,DAAA,24,0.6,,,,*52
$GPGMP,153012.00,,,,,,07,,,,2.3,123*7F
$GLGMP,153012.00,,,,,,05,,,,,*7E
$GAGMP,153012.00,,,,,,05,,,,,*73
$GBGMP,153012.00,,,,,,07,,,,,*72
$PSSN,SNC,[0,315030000,2347]*40
$GPALM,1,1,01,2347,FF,01C5,7B,0B3A,FD45,A10DA0,CC8F9F,B746BC,2AB02B,012,009*00
$GPZDA,153017.00,01,01,2025,,*62
$GPDTM,W84,,00.0000000,N,00.0000000,E,00.0000000,W84*5F
$GPRMC,153017.00,A,4742.4466448,N,01617.9737173,E,0.0,,010125,5.1,E,D*1F
$GPGLL,4742.4466448,N,01617.9737173,E,153017.00,A,D*6E
$GPGGA,153017.00,4742.4466448,N,01617.9737173,E,2,24,0.6,625.6061,M,43.2111,M,2.1,0123*44
$GNGNS,153017.00,4742.4466448,N,01617.9737173,E,DAAA,24,0.6,625.6061,43.2111,,*5B
$GPGNS,153017.00,,,,,,07,,,,2.1,123*78
$GLGNS,153017.00,,,,,,05,,,,,*7B
$GAGNS,153017.00,,,,,,05,,,,,*76
$GBGNS,153017.00,,,,,,07,,,,,*77
$GPLLQ,153017.00,010125,,M,,M,1,24,1.466,,M*13
$GPVTG,,T,,M,0.01,N,0.02,K,D*25
$GPHDT,,T*1B
$GPTHS,,V*0E
$GPROT,,V*08
$PSSN,HRP,153017.00,010125,,,,,,,00,0,,*60
$PTNL,AVR,153017.00,,Yaw,,Tilt,,,,0,,00*36
$GPGSA,A,3,11,12,18,25,28,29,31,,,,,,1.1,0.6,0.9*33
$GPGSA,A,3,78,79,80,81,88,,,,,,,,1.1,0.6,0.9*3D
$GPGSA,A,3,21,27,29,30,34,,,,,,,,1.1,0.6,0.9*34
$GPGSA,A,3,11,12,23,24,25,34,44,,,,,,1.1,0.6,0.9*39
$GPGST,153017.00,1.378,0.756,0.502,13.197,0.745,0.519,1.152*69
$GPGBS,153017.00,5.916,2.864,6.536,12,0.0001,-0.756,1.167*71
$GPGRS,153017.00,1,-0.4,-0.8,-1.0,0.3,0.3,0.5,-0.2,,,,,*6B
$GPGRS,153017.00,1,0.7,1.5,-2.6,0.7,0.2,,,,,,,*4E
$GPGRS,153017.00,1,-0.0,-0.9,1.0,1.1,-1.2,,,,,,,*47
$GPGRS,153017.00,1,-2.4,1.2,-0.0,-1.7,-2.0,-0.6,-1.3,,,,,*64
$GPGSV,4,1,16,29,80,258,50,18,19,186,42,26,16,297,27,11,26,047,35*71
$GPGSV,4,2,16,12,27,107,40,20,18,074,,31,36,305,47,28,53,273,47*7F
$GPGSV,4,3,16,25,68,106,48,04,00,347,,05,09,107,,32,03,237,*71
$GPGSV,4,4,16,36,35,170,36,34,31,208,35,49,34,195,36,61,03,257,*71
$GLGSV,3,1,09,79,66,326,43,88,61,047,50,80,13,316,42,81,56,197,47*6F
$GLGSV,3,2,09,78,54,127,40,70,07,317,,82,10,207,,87,05,032,21*60
$GLGSV,3,3,09,71,08,002,31*52
$GAGSV,3,1,10,27,70,307,45,29,15,258,35,15,45,155,35,21,17,292,38*6F
$GAGSV,3,2,10,34,48,071,44,19,16,303,30,30,52,101,46,13,05,191,*61
$GAGSV,3,3,10,02,02,108,,36,10,032,*65
$GBGSV,5,1,17,34,79,160,45,56,15,062,,05,20,130,,38,24,065,30*6D
$GBGSV,5,2,17,43,27,208,,24,29,143,44,13,24,089,,08,25,080,*6B
$GBGSV,5,3,17,23,36,305,47,44,36,054,45,11,56,204,38,12,61,064,46*65
$GBGSV,5,4,17,25,77,213,50,10,10,077,,02,05,108,,20,00,342,*67
$GBGSV,5,5,17,60,09,109,*5A
$GPGGA,153017.00,,,,,0,00,,,M,,M,,*49
$PTNL,GGK,153017.00,010125,4742.4466448,N,01617.9737173,E,1,24,1.1,EHT668.8171,M*49
$GPGGQ,153017.00,010125,4742.4466448,N,01617.9737173,E,1,24,1.466,625.6061,M*35
$GPGFA,153017.00,7.186,9.446,0.756,0.502,13.197,1.152,,VVV*3C
$GPLLK,153017.00,010125,,M,,M,1,24,1.2,,M*0F
$GNGMP,153017.00,,,,,DAAA,24,0.6,,,,*57
$GPGMP,153017.00,,,,,,07,,,,2.1,123*78
$GLGMP,153017.00,,,,,,05,,,,,*7B
$GAGMP,153017.00,,,,,,05,,,,,*76
$GBGMP,153017.00,,,,,,07,,,,,*77
$PSSN,SNC,[0,315035000,2347]*45
$GPZDA,153022.00,01,01,2025,,*64
$GPDTM,W84,,00.0000000,N,00.0000000,E,00.0000000,W84*5F
$GPRMC,153022.00,A,4742.4466442,N,01617.9737190,E,0.0,,010125,5.1,E,D*1E
$GPGLL,4742.4466442,N,01617.9737190,E,153022.00,A,D*6F
$GPGGA,153022.00,4742.4466442,N,01617.9737190,E,2,23,0.7,625.5933,M,43.2111,M,3.3,0123*4D
$GNGNS,153022.00,4742.4466442,N,01617.9737190,E,DAAA,23,0.7,625.5933,43.2111,,*51
$GPGNS,153022.00,,,,,,06,,,,3.3,123*7C
$GLGNS,153022.00,,,,,,05,,,,,*7D
$GAGNS,153022.00,,,,,,05,,,,,*70
$GBGNS,153022.00,,,,,,07,,,,,*71
$GPLLQ,153022.00,010125,,M,,M,1,23,1.758,,M*1C
$GPVTG,,T,,M,0.00,N,0.01,K,D*27
$GPHDT,,T*1B
$GPTHS,,V*0E
$GPROT,,V*08
$PSSN,HRP,153022.00,010125,,,,,,,00,0,,*66
$PTNL,AVR,153022.00,,Yaw,,Tilt,,,,0,,00*30
$GPGSA,A,3,12,18,25,28,29,31,,,,,,,1.2,0.7,0.9*31
$GPGSA,A,3,78,79,80,81,88,,,,,,,,1.2,0.7,0.9*3F
$GPGSA,A,3,15,21,27,30,34,,,,,,,,1.2,0.7,0.9*39
$GPGSA,A,3,11,12,23,24,25,34,44,,,,,,1.2,0.7,0.9*3B
$GPGST,153022.00,1.987,1.068,0.514,21.188,1.013,0.616,1.299*6B
$GPGBS,153022.00,8.363,4.530,7.647,29,0.0001,0.714,0.832*57
$GPGRS,153022.00,1,-0.7,-0.7,-0.0,0.4,0.7,-0.4,,,,,,*4E
$GPGRS,153022.00,1,5.2,1.0,-3.1,0.1,-0.9,,,,,,,*6B
$GPGRS,153022.00,1,1.2,0.3,-1.3,0.5,-1.4,,,,,,,*65
$GPGRS,153022.00,1,-1.1,1.1,-0.7,-2.3,-2.5,-0.6,-1.8,,,,,*69
$GPGSV,4,1,16,29,80,258,51,18,19,186,43,26,16,297,28,11,26,047,34*7F
$GPGSV,4,2,16,12,27,107,40,20,18,074,,31,36,305,46,28,53,273,47*7E
$GPGSV,4,3,16,25,68,107,49,04,00,347,,05,09,107,,32,03,237,*71
$GPGSV,4,4,16,36,35,170,36,34,31,208,34,49,34,195,36,61,03,257,*70
$GLGSV,3,1,09,79,67,326,44,88,61,047,49,80,13,316,42,81,57,197,47*60
$GLGSV,3,2,09,78,54,127,39,70,07,317,,82,10,207,,87,05,032,*6D
$GLGSV,3,3,09,71,08,002,31*52
$GAGSV,3,1,10,27,70,307,44,29,15,258,34,15,45,155,36,21,17,292,38*6C
$GAGSV,3,2,10,34,48,071,44,19,16,303,28,30,52,102,45,13,05,191,*68
$GAGSV,3,3,10,02,02,108,,36,10,032,*65
$GBGSV,5,1,17,34,79,160,46,56,15,062,,05,20,130,,38,24,065,21*6E
$GBGSV,5,2,17,43,27,208,,24,29,143,44,13,24,089,,08,25,080,*6B
$GBGSV,5,3,17,23,36,305,47,44,36,054,45,11,56,204,40,12,61,063,45*6E
$GBGSV,5,4,17,25,77,213,49,10,10,077,,02,05,108,,20,00,342,*6F
$GBGSV,5,5,17,60,09,109,*5A
$GPGGA,153022.00,,,,,0,00,,,M,,M,,*4F
$PTNL,GGK,153022.00,010125,4742.4466442,N,01617.9737190,E,1,23,1.2,EHT668.8043,M*4C
$GPGGQ,153022.00,010125,4742.4466442,N,01617.9737190,E,1,23,1.758,625.5933,M*30
$GPGFA,153022.00,10.150,10.648,1.068,0.514,21.188,1.299,,VVV*34
$GPLLK,153022.00,010125,,M,,M,1,23,1.4,,M*08
$GNGMP,153022.00,,,,,DAAA,23,0.7,,,,*57
$GPGMP,153022.00,,,,,,06,,,,3.3,123*7C
$GLGMP,153022.00,,,,,,05,,,,,*7D
$GAGMP,153022.00,,,,,,05,,,,,*70
$GBGMP,153022.00,,,,,,07,,,,,*71
$PSSN,SNC,[0,315040000,2347]*47
$GPZDA,153027.00,01,01,2025,,*61
$GPDTM,W84,,00.0000000,N,00.0000000,E,00.0000000,W84*5F
$GPRMC,153027.00,A,4742.4466430,N,01617.9737239,E,0.0,,010125,5.1,E,D*1E
$GPGLL,4742.4466430,N,01617.9737239,E,153027.00,A,D*6F
$GPGGA,153027.00,4742.4466430,N,01617.9737239,E,2,23,0.7,625.5788,M,43.2110,M,2.3,0123*43
$GNGNS,153027.00,4742.4466430,N,01617.9737239,E,DAAA,23,0.7,625.5788,43.2110,,*5E
$GPGNS,153027.00,,,,,,06,,,,2.3,123*78
$GLGNS,153027.00,,,,,,05,,,,,*78
$GAGNS,153027.00,,,,,,05,,,,,*75
$GBGNS,153027.00,,,,,,07,,,,,*74
$GPLLQ,153027.00,010125,,M,,M,1,23,2.166,,M*11
$GPVTG,,T,,M,0.00,N,0.01,K,D*27
$GPHDT,,T*1B
$GPTHS,,V*0E
$GPROT,,V*08
$PSSN,HRP,153027.00,010125,,,,,,,00,0,,*63
$PTNL,AVR,153027.00,,Yaw,,Tilt,,,,0,,00*35
$GPGSA,A,3,12,18,25,28,29,31,,,,,,,1.2,0.7,0.9*31
$GPGSA,A,3,78,79,80,81,88,,,,,,,,1.2,0.7,0.9*3F
$GPGSA,A,3,15,21,27,30,34,,,,,,,,1.2,0.7,0.9*39
$GPGSA,A,3,11,12,23,24,25,34,44,,,,,,1.2,0.7,0.9*3B
$GPGST,153027.00,3.438,1.311,0.637,21.132,1.244,0.759,1.603*66
$GPGBS,153027.00,8.276,4.454,7.704,78,0.0001,10.877,6.185*6E
$GPGRS,153027.00,1,-1.7,-1.0,0.1,0.5,0.6,-0.5,,,,,,*61
$GPGRS,153027.00,1,10.9,1.4,-5.1,0.6,-2.2,,,,,,,*5D
$GPGRS,153027.00,1,2.7,0.3,-0.7,-0.1,-1.2,,,,,,,*4C
$GPGRS,153027.00,1,2.4,1.1,-1.4,-2.5,-2.2,-0.4,-1.8,,,,,*46
$GPGSV,4,1,16,29,80,258,50,18,19,186,44,26,16,297,24,11,26,047,33*72
$GPGSV,4,2,16,12,27,107,40,20,18,074,,31,36,305,46,28,53,273,46*7F
$GPGSV,4,3,16,25,68,107,49,04,00,347,,05,09,107,,32,03,237,*71
$GPGSV,4,4,16,36,35,170,36,34,31,208,35,49,34,195,36,61,03,257,*71
$GLGSV,3,1,09,79,67,326,46,88,61,047,49,80,13,316,42,81,57,197,48*6D
$GLGSV,3,2,09,78,54,127,37,70,07,317,,82,10,207,,87,05,032,*63
$GLGSV,3,3,09,71,08,002,30*53
$GAGSV,3,1,10,27,70,307,44,29,15,258,32,15,45,155,37,21,17,292,36*65
$GAGSV,3,2,10,34,48,071,45,19,16,303,27,30,52,102,45,13,05,191,*66
$GAGSV,3,3,10,02,02,108,,36,10,032,*65
$GBGSV,5,1,17,34,79,160,47,56,15,062,,05,20,130,,38,24,065,23*6D
$GBGSV,5,2,17,43,27,208,,24,29,143,43,13,24,089,,08,25,080,*6C
$GBGSV,5,3,17,23,36,305,46,44,36,054,45,11,56,204,41,12,61,063,45*6E
$GBGSV,5,4,17,25,77,212,49,10,10,077,,02,05,108,,20,00,342,*6E
$GBGSV,5,5,17,60,09,109,*5A
$GPGGA,153027.00,,,,,0,00,,,M,,M,,*4A
$PTNL,GGK,153027.00,010125,4742.4466430,N,01617.9737239,E,1,23,1.2,EHT668.7898,M*4D
$GPGGQ,153027.00,010125,4742.4466430,N,01617.9737239,E,1,23,2.166,625.5788,M*36
$GPGFA,153027.00,12.463,13.144,1.311,0.637,21.132,1.603,,VVV*37
$GPLLK,153027.00,010125,,M,,M,1,23,1.4,,M*0D
$GNGMP,153027.00,,,,,DAAA,23,0.7,,,,*52
$GPGMP,153027.00,,,,,,06,,,,2.3,123*78
$GLGMP,153027.00,,,,,,05,,,,,*78
$GAGMP,153027.00,,,,,,05,,,,,*75
$GBGMP,153027.00,,,,,,07,,,,,*74
$PSSN,SNC,[0,315045000,2347]*42
$GPZDA,153032.00,01,01,2025,,*65
$GPDTM,W84,,00.0000000,N,00.0000000,E,00.0000000,W84*5F
$GPRMC,153032.00,A,4742.4466412,N,01617.9737336,E,0.0,,010125,5.1,E,D*14
$GPGLL,4742.4466412,N,01617.9737336,E,153032.00,A,D*65
$GPGGA,153032.00,4742.4466412,N,01617.9737336,E,2,23,0.7,625.5551,M,43.2110,M,2.0,0123*4C
$GNGNS,153032.00,4742.4466412,N,01617.9737336,E,DAAA,23,0.7,625.5551,43.2110,,*52
$GPGNS,153032.00,,,,,,06,,,,2.0,123*7F
$GLGNS,153032.00,,,,,,05,,,,,*7C
$GAGNS,153032.00,,,,,,05,,,,,*71
$GBGNS,153032.00,,,,,,07,,,,,*70
$GPLLQ,153032.00,010125,,M,,M,1,23,2.020,,M*16
$GPVTG,,T,,M,0.00,N,0.01,K,D*27
$GPHDT,,T*1B
$GPTHS,,V*0E
$GPROT,,V*08
$PSSN,HRP,153032.00,010125,,,,,,,00,0,,*67
$PTNL,AVR,153032.00,,Yaw,,Tilt,,,,0,,00*31
$GPGSA,A,3,12,18,25,28,29,31,,,,,,,1.2,0.7,0.9*31
$GPGSA,A,3,78,79,80,81,88,,,,,,,,1.2,0.7,0.9*3F
$GPGSA,A,3,15,21,27,30,34,,,,,,,,1.2,0.7,0.9*39
$GPGSA,A,3,11,12,23,24,25,34,44,,,,,,1.2,0.7,0.9*3B
$GPGST,153032.00,2.490,1.223,0.592,21.160,1.161,0.707,1.495*68
$GPGBS,153032.00,8.265,4.493,7.578,12,0.0001,-2.054,1.196*74
$GPGRS,153032.00,1,-2.1,-1.1,0.1,0.6,0.7,0.1,,,,,,*4A
$GPGRS,153032.00,1,-2.8,2.1,-7.0,1.9,-2.1,,,,,,,*4E
$GPGRS,153032.00,1,1.5,1.5,0.0,0.1,-0.9,,,,,,,*43
$GPGRS,153032.00,1,2.3,0.2,-1.1,-2.4,-1.5,-0.5,-2.0,,,,,*4D
$GPGSV,4,1,16,29,80,258,49,18,20,186,44,26,16,297,23,11,26,047,32*76
$GPGSV,4,2,16,12,27,107,39,20,18,074,,31,36,305,46,28,53,273,46*71
$GPGSV,4,3,16,25,68,107,49,04,01,347,,05,09,107,,32,03,237,*70
$GPGSV,4,4,16,36,35,170,37,34,31,208,35,49,34,195,36,61,03,257,*70
$GLGSV,3,1,09,79,67,326,47,88,61,047,48,80,13,316,42,81,57,197,49*6C
$GLGSV,3,2,09,78,54,127,41,70,07,317,,82,10,207,,87,05,032,*62
$GLGSV,3,3,09,71,08,002,35*56
$GAGSV,3,1,10,27,70,307,43,29,15,258,28,15,46,155,36,21,17,293,35*69
$GAGSV,3,2,10,34,48,071,45,19,16,303,26,30,52,102,45,13,05,191,*67
$GAGSV,3,3,10,02,02,108,,36,10,032,*65
$GBGSV,5,1,17,34,79,160,48,56,15,062,,05,20,130,,38,24,065,24*65
$GBGSV,5,2,17,43,27,208,,24,29,143,43,13,24,089,,08,25,080,*6C
$GBGSV,5,3,17,23,36,305,45,44,36,054,44,11,56,204,42,12,61,063,44*6E
$GBGSV,5,4,17,25,77,212,50,10,10,077,,02,05,108,,20,00,342,*66
$GBGSV,5,5,17,60,09,109,*5A
$GPGGA,153032.00,,,,,0,00,,,M,,M,,*4E
$PTNL,GGK,153032.00,010125,4742.4466412,N,01617.9737336,E,1,23,1.2,EHT668.7661,M*4F
$GPGGQ,153032.00,010125,4742.4466412,N,01617.9737336,E,1,23,2.020,625.5551,M*39
$GPGFA,153032.00,11.630,12.259,1.223,0.592,21.160,1.495,,VVV*3C
$GPLLK,153032.00,010125,,M,,M,1,23,1.4,,M*09
$GNGMP,153032.00,,,,,DAAA,23,0.7,,,,*56
$GPGMP,153032.00,,,,,,06,,,,2.0,123*7F
$GLGMP,153032.00,,,,,,05,,,,,*7C
$GAGMP,153032.00,,,,,,05,,,,,*71
$GBGMP,153032.00,,,,,,07,,,,,*70
$PSSN,SNC,[0,315050000,2347]*46
$GPALM,1,1,25,2347,00,64D0,7B,042D,FD37,A10CF9,2D2119,5DE6C3,8E039D,209,000*72
$GPZDA,153037.00,01,01,2025,,*60
$GPDTM,W84,,00.0000000,N,00.0000000,E,00.0000000,W84*5F
$GPRMC,153037.00,A,4742.4466346,N,01617.9737427,E,0.0,,010125,5.1,E,D*10
$GPGLL,4742.4466346,N,01617.9737427,E,153037.00,A,D*61
$GPGGA,153037.00,4742.4466346,N,01617.9737427,E,2,22,0.7,625.5458,M,43.2110,M,2.3,0123*42
$GNGNS,153037.00,4742.4466346,N,01617.9737427,E,DAAA,22,0.7,625.5458,43.2110,,*5F
$GPGNS,153037.00,,,,,,06,,,,2.3,123*79
$GLGNS,153037.00,,,,,,05,,,,,*79
$GAGNS,153037.00,,,,,,04,,,,,*75
$GBGNS,153037.00,,,,,,07,,,,,*75
$GPLLQ,153037.00,010125,,M,,M,1,22,3.144,,M*10
$GPVTG,,T,,M,0.00,N,0.00,K,D*26
$GPHDT,,T*1B
$GPTHS,,V*0E
$GPROT,,V*08
$PSSN,HRP,153037.00,010125,,,,,,,00,0,,*62
$PTNL,AVR,153037.00,,Yaw,,Tilt,,,,0,,00*34
$GPGSA,A,3,12,18,25,28,29,31,,,,,,,1.1,0.7,0.9*32
$GPGSA,A,3,71,79,80,81,88,,,,,,,,1.1,0.7,0.9*35
$GPGSA,A,3,15,27,30,34,,,,,,,,,1.1,0.7,0.9*39
$GPGSA,A,3,11,12,23,24,25,34,44,,,,,,1.1,0.7,0.9*38
$GPGST,153037.00,6.872,1.894,0.947,21.294,1.798,1.118,2.324*64
$GPGBS,153037.00,8.179,4.403,7.432,71,0.0001,24.331,7.505*6D
$GPGRS,153037.00,1,-2.1,-1.2,-0.2,0.7,0.6,0.5,,,,,,*66
$GPGRS,153037.00,1,24.3,1.7,-8.7,2.3,-2.0,,,,,,,*5C
$GPGRS,153037.00,1,-0.9,-0.0,-0.3,-0.9,,,,,,,,*4E
$GPGRS,153037.00,1,0.8,-0.9,-1.3,-2.2,-1.5,-0.9,-3.0,,,,,*6E
$GPGSV,4,1,16,29,80,258,49,18,20,186,45,26,16,297,21,11,26,047,32*75
$GPGSV,4,2,16,12,27,107,39,20,18,074,,31,36,305,46,28,53,273,47*70
$GPGSV,4,3,16,25,68,107,48,04,01,347,,05,09,107,,32,03,237,*71
$GPGSV,4,4,16,36,35,170,36,34,31,208,35,49,34,195,36,61,03,257,*71
$GLGSV,3,1,09,79,67,326,48,88,61,047,48,80,13,316,39,81,57,197,49*6F
$GLGSV,3,2,09,78,54,127,35,70,07,317,22,82,10,207,,87,05,032,21*62
$GLGSV,3,3,09,71,08,002,37*54
$GAGSV,3,1,10,27,70,307,43,29,15,258,34,15,46,155,35,21,17,293,34*66
$GAGSV,3,2,10,34,48,071,45,19,16,303,25,30,52,102,45,13,05,191,*64
$GAGSV,3,3,10,02,02,108,,36,10,032,*65
$GBGSV,5,1,17,34,79,160,48,56,15,062,,05,20,130,,43,27,208,*65
$GBGSV,5,2,17,13,24,089,,38,24,065,25,24,29,143,43,08,25,080,*6D
$GBGSV,5,3,17,23,36,305,45,44,36,054,43,11,56,204,41,12,61,063,44*6A
$GBGSV,5,4,17,25,77,212,50,10,10,077,,02,05,107,,20,00,342,*69
$GBGSV,5,5,17,60,09,109,*5A
$GPGGA,153037.00,,,,,0,00,,,M,,M,,*4B
$PTNL,GGK,153037.00,010125,4742.4466346,N,01617.9737427,E,1,22,1.1,EHT668.7569,M*42
$GPGGQ,153037.00,010125,4742.4466346,N,01617.9737427,E,1,22,3.144,625.5458,M*36
$GPGFA,153037.00,18.004,19.059,1.894,0.947,21.294,2.324,,VVV*3C
$GPLLK,153037.00,010125,,M,,M,1,22,1.3,,M*0A
$GNGMP,153037.00,,,,,DAAA,22,0.7,,,,*52
$GPGMP,153037.00,,,,,,06,,,,2.3,123*79
$GLGMP,153037.00,,,,,,05,,,,,*79
$GAGMP,153037.00,,,,,,04,,,,,*75
$GBGMP,153037.00,,,,,,07,,,,,*75
$PSSN,SNC,[0,315055000,2347]*43
$GPZDA,153042.00,01,01,2025,,*62
$GPDTM,W84,,00.0000000,N,00.0000000,E,00.0000000,W84*5F
$GPRMC,153042.00,A,4742.4466246,N,01617.9737565,E,0.0,,010125,5.1,E,D*14
$GPGLL,4742.4466246,N,01617.9737565,E,153042.00,A,D*65
$GPGGA,153042.00,4742.4466246,N,01617.9737565,E,2,21,0.7,625.5252,M,43.2110,M,3.3,0123*48
$GNGNS,153042.00,4742.4466246,N,01617.9737565,E,DAAA,21,0.7,625.5252,43.2110,,*54
$GPGNS,153042.00,,,,,,06,,,,3.3,123*7A
$GLGNS,153042.00,,,,,,05,,,,,*7B
$GAGNS,153042.00,,,,,,03,,,,,*70
$GBGNS,153042.00,,,,,,07,,,,,*77
$GPLLQ,153042.00,010125,,M,,M,1,21,3.503,,M*16
$GPVTG,,T,,M,0.01,N,0.02,K,D*25
$GPHDT,,T*1B
$GPTHS,,V*0E
$GPROT,,V*08
$PSSN,HRP,153042.00,010125,,,,,,,00,0,,*60
$PTNL,AVR,153042.00,,Yaw,,Tilt,,,,0,,00*36
$GPGSA,A,3,12,18,25,28,29,31,,,,,,,1.2,0.7,1.0*39
$GPGSA,A,3,71,78,79,81,88,,,,,,,,1.2,0.7,1.0*39
$GPGSA,A,3,27,30,34,,,,,,,,,,1.2,0.7,1.0*36
$GPGSA,A,3,11,12,23,24,25,34,44,,,,,,1.2,0.7,1.0*33
$GPGST,153042.00,6.840,2.114,1.050,21.271,2.006,1.243,2.588*6E
$GPGBS,153042.00,8.342,4.449,7.619,71,0.0001,24.710,7.267*64
$GPGRS,153042.00,1,-2.4,-1.6,0.0,0.9,0.8,0.3,,,,,,*4C
$GPGRS,153042.00,1,24.7,-1.8,1.0,0.5,-1.7,,,,,,,*5B
$GPGRS,153042.00,1,-0.3,-0.7,-0.7,,,,,,,,,*4F
$GPGRS,153042.00,1,-0.5,-1.2,-1.3,-2.1,-1.5,-0.7,-4.0,,,,,*4C
$GPGSV,4,1,16,29,81,258,50,18,20,186,45,26,16,297,,11,26,047,34*79
$GPGSV,4,2,16,12,27,107,39,20,19,074,,31,36,305,47,28,53,273,48*7F
$GPGSV,4,3,16,25,68,107,47,04,01,347,,05,09,107,,32,03,237,*7E
$GPGSV,4,4,16,36,35,170,37,34,31,208,35,49,34,195,36,61,03,257,*70
$GLGSV,3,1,09,79,67,326,48,88,61,047,49,80,13,316,35,81,57,197,47*6C
$GLGSV,3,2,09,78,54,127,41,70,07,317,24,82,10,207,,87,05,032,*64
$GLGSV,3,3,09,71,08,002,36*55
$GAGSV,3,1,10,27,70,307,43,29,15,258,34,15,46,155,34,21,17,293,34*67
$GAGSV,3,2,10,34,48,071,45,19,16,303,31,30,52,102,45,13,05,191,*61
$GAGSV,3,3,10,02,02,108,,36,10,032,*65
$GBGSV,5,1,17,34,79,160,49,56,15,062,,05,20,130,,38,24,065,25*65
$GBGSV,5,2,17,43,27,208,,24,29,143,42,13,24,089,,08,25,080,*6D
$GBGSV,5,3,17,44,36,054,43,23,36,305,45,11,56,204,41,12,61,063,43*6D
$GBGSV,5,4,17,25,77,212,50,10,10,077,,02,05,107,,20,00,342,*69
$GBGSV,5,5,17,60,09,109,*5A
$GPGGA,153042.00,,,,,0,00,,,M,,M,,*49
$PTNL,GGK,153042.00,010125,4742.4466246,N,01617.9737565,E,1,21,1.2,EHT668.7363,M*4A
$GPGGQ,153042.00,010125,4742.4466246,N,01617.9737565,E,1,21,3.503,625.5252,M*3A
$GPGFA,153042.00,20.098,21.223,2.114,1.050,21.271,2.588,,VVV*33
$GPLLK,153042.00,010125,,M,,M,1,21,1.4,,M*0C
$GNGMP,153042.00,,,,,DAAA,21,0.7,,,,*53
$GPGMP,153042.00,,,,,,06,,,,3.3,123*7A
$GLGMP,153042.00,,,,,,05,,,,,*7B
$GAGMP,153042.00,,,,,,03,,,,,*70
$GBGMP,153042.00,,,,,,07,,,,,*77
$PSSN,SNC,[0,315060000,2347]*45
$GPALM,1,1,02,2347,00,8794,7B,0F9C,FD56,A10D15,D4BCA5,B09036,28D2A0,EDE,003*00
$GPZDA,153047.00,01,01,2025,,*67
$GPDTM,W84,,00.0000000,N,00.0000000,E,00.0000000,W84*5F
$GPRMC,153047.00,A,4742.4466146,N,01617.9737639,E,0.0,,010125,5.1,E,D*18
$GPGLL,4742.4466146,N,01617.9737639,E,153047.00,A,D*69
$GPGGA,153047.00,4742.4466146,N,01617.9737639,E,2,22,0.7,625.5084,M,43.2110,M,2.4,0123*48
$GNGNS,153047.00,4742.4466146,N,01617.9737639,E,DAAA,22,0.7,625.5084,43.2110,,*52
$GPGNS,153047.00,,,,,,07,,,,2.4,123*78
$GLGNS,153047.00,,,,,,04,,,,,*7F
$GAGNS,153047.00,,,,,,04,,,,,*72
$GBGNS,153047.00,,,,,,07,,,,,*72
$GPLLQ,153047.00,010125,,M,,M,1,22,2.026,,M*13
$GPVTG,,T,,M,0.01,N,0.01,K,D*26
$GPHDT,,T*1B
$GPTHS,,V*0E
$GPROT,,V*08
$PSSN,HRP,153047.00,010125,,,,,,,00,0,,*65
$PTNL,AVR,153047.00,,Yaw,,Tilt,,,,0,,00*33
$GPGSA,A,3,11,12,18,25,28,29,31,,,,,,1.2,0.7,1.0*39
$GPGSA,A,3,78,79,81,88,,,,,,,,,1.2,0.7,1.0*3F
$GPGSA,A,3,21,27,30,34,,,,,,,,,1.2,0.7,1.0*35
$GPGSA,A,3,11,12,23,24,25,34,44,,,,,,1.2,0.7,1.0*33
$GPGST,153047.00,1.828,1.020,0.696,13.137,1.006,0.716,1.606*6B
$GPGBS,153047.00,5.962,2.999,6.654,12,0.0001,-2.445,1.188*71
$GPGRS,153047.00,1,2.0,-2.4,-1.4,0.3,0.3,0.7,-0.7,,,,,*48
$GPGRS,153047.00,1,2.0,-0.1,-1.1,-1.1,,,,,,,,*64
$GPGRS,153047.00,1,0.3,-0.6,-0.9,-0.5,,,,,,,,*6E
$GPGRS,153047.00,1,-0.9,-0.8,-1.0,-2.3,-1.8,-0.2,-4.3,,,,,*44
$GPGSV,4,1,16,29,81,259,50,18,20,186,45,26,17,297,22,11,26,047,36*7B
$GPGSV,4,2,16,12,27,107,39,20,19,074,,31,36,305,47,28,53,273,47*70
$GPGSV,4,3,16,25,67,107,47,04,01,347,,05,09,107,,32,03,237,*71
$GPGSV,4,4,16,36,35,170,36,34,31,208,35,49,34,195,36,61,03,257,*71
$GLGSV,3,1,09,79,67,326,47,88,61,047,50,80,13,316,32,81,57,197,46*6D
$GLGSV,3,2,09,78,54,127,42,70,07,317,,82,10,207,,87,05,032,18*68
$GLGSV,3,3,09,71,08,002,34*57
$GAGSV,3,1,10,27,70,307,43,29,15,258,34,15,46,155,33,21,17,293,36*62
$GAGSV,3,2,10,34,48,071,46,19,16,303,30,30,52,102,45,13,05,191,*63
$GAGSV,3,3,10,02,02,108,,36,10,032,*65
$GBGSV,5,1,17,34,79,159,49,56,15,062,,05,20,130,,38,24,065,26*6C
$GBGSV,5,2,17,43,27,208,,24,29,143,42,13,24,089,,08,25,080,*6D
$GBGSV,5,3,17,44,36,054,42,23,36,305,45,11,56,204,41,12,61,063,43*6C
$GBGSV,5,4,17,25,77,212,49,10,10,077,,02,05,107,,20,00,342,*61
$GBGSV,5,5,17,60,09,109,*5A
$GPGGA,153047.00,,,,,0,00,,,M,,M,,*4C
$PTNL,GGK,153047.00,010125,4742.4466146,N,01617.9737639,E,1,22,1.2,EHT668.7195,M*4E
$GPGGQ,153047.00,010125,4742.4466146,N,01617.9737639,E,1,22,2.026,625.5084,M*3F
$GPGFA,153047.00,9.695,13.172,1.020,0.696,13.137,1.606,,VVV*0E
$GPLLK,153047.00,010125,,M,,M,1,22,1.4,,M*0A
$GNGMP,153047.00,,,,,DAAA,22,0.7,,,,*55
$GPGMP,153047.00,,,,,,07,,,,2.4,123*78
$GLGMP,153047.00,,,,,,04,,,,,*7F
$GAGMP,153047.00,,,,,,04,,,,,*72
$GBGMP,153047.00,,,,,,07,,,,,*72
$PSSN,SNC,[0,315065000,2347]*40
$GPZDA,153052.00,01,01,2025,,*63
$GPDTM,W84,,00.0000000,N,00.0000000,E,00.0000000,W84*5F
$GPRMC,153052.00,A,4742.4466037,N,01617.9737595,E,0.0,,010125,5.1,E,D*1E
$GPGLL,4742.4466037,N,01617.9737595,E,153052.00,A,D*6F
$GPGGA,153052.00,4742.4466037,N,01617.9737595,E,2,23,0.6,625.4907,M,43.2110,M,2.3,0123*4A
$GNGNS,153052.00,4742.4466037,N,01617.9737595,E,DAAA,23,0.6,625.4907,43.2110,,*57
$GPGNS,153052.00,,,,,,07,,,,2.3,123*7B
$GLGNS,153052.00,,,,,,05,,,,,*7A
$GAGNS,153052.00,,,,,,04,,,,,*76
$GBGNS,153052.00,,,,,,07,,,,,*76
$GPLLQ,153052.00,010125,,M,,M,1,23,2.680,,M*1C
$GPVTG,,T,,M,0.00,N,0.00,K,D*26
$GPHDT,,T*1B
$GPTHS,,V*0E
$GPROT,,V*08
$PSSN,HRP,153052.00,010125,,,,,,,00,0,,*61
$PTNL,AVR,153052.00,,Yaw,,Tilt,,,,0,,00*37
$GPGSA,A,3,11,12,18,25,28,29,31,,,,,,1.1,0.6,0.9*33
$GPGSA,A,3,71,78,79,81,88,,,,,,,,1.1,0.6,0.9*33
$GPGSA,A,3,21,27,30,34,,,,,,,,,1.1,0.6,0.9*3F
$GPGSA,A,3,11,12,23,24,25,34,44,,,,,,1.1,0.6,0.9*39
$GPGST,153052.00,5.052,1.365,0.925,13.877,1.344,0.956,2.113*69
$GPGBS,153052.00,5.963,2.946,6.674,71,0.0001,19.241,7.260*67
$GPGRS,153052.00,1,2.1,-2.5,-1.1,0.6,-0.5,0.7,-0.7,,,,,*67
$GPGRS,153052.00,1,19.2,0.7,-1.2,1.4,-0.3,,,,,,,*58
$GPGRS,153052.00,1,-0.2,-0.5,-0.9,-0.5,,,,,,,,*45
$GPGRS,153052.00,1,-0.9,0.5,-0.9,-2.1,-1.7,0.1,-3.2,,,,,*4D
$GPGSV,4,1,16,29,81,259,50,18,20,186,44,26,17,297,22,11,26,047,39*75
$GPGSV,4,2,16,12,27,107,39,20,19,074,31,31,36,305,48,28,53,273,47*7D
$GPGSV,4,3,16,25,67,107,47,04,01,347,,05,09,107,,32,03,237,*71
$GPGSV,4,4,16,36,35,170,37,34,31,208,34,49,34,195,36,61,03,257,*71
$GLGSV,3,1,09,79,67,326,46,88,61,047,51,80,13,316,32,81,57,197,46*6D
$GLGSV,3,2,09,78,54,127,42,70,07,317,29,82,10,207,,87,05,032,*6A
$GLGSV,3,3,09,71,08,002,35*56
$GAGSV,3,1,10,27,70,307,43,29,15,258,25,15,46,155,31,21,17,293,35*63
$GAGSV,3,2,10,34,48,070,46,19,16,303,28,30,52,102,44,13,05,191,*6A
$GAGSV,3,3,10,02,02,108,,36,09,032,*6D
$GBGSV,5,1,17,34,79,159,50,56,15,062,,05,20,130,,38,24,065,27*65
$GBGSV,5,2,17,43,27,208,,24,29,144,41,13,24,089,,08,25,080,*69
$GBGSV,5,3,17,44,36,054,41,23,37,305,46,11,56,204,41,12,61,063,44*6A
$GBGSV,5,4,17,25,77,212,49,10,10,077,,02,05,107,,20,00,342,*61
$GBGSV,5,5,17,60,09,109,*5A
$GPGGA,153052.00,,,,,0,00,,,M,,M,,*48
$PTNL,GGK,153052.00,010125,4742.4466037,N,01617.9737595,E,1,23,1.1,EHT668.7018,M*4E
$GPGGQ,153052.00,010125,4742.4466037,N,01617.9737595,E,1,23,2.680,625.4907,M*31
$GPGFA,153052.00,12.981,17.323,1.365,0.925,13.877,2.113,,VVV*30
$GPLLK,153052.00,010125,,M,,M,1,23,1.3,,M*08
$GNGMP,153052.00,,,,,DAAA,23,0.6,,,,*51
$GPGMP,153052.00,,,,,,07,,,,2.3,123*7B
$GLGMP,153052.00,,,,,,05,,,,,*7A
$GAGMP,153052.00,,,,,,04,,,,,*76
$GBGMP,153052.00,,,,,,07,,,,,*76
$PSSN,SNC,[0,315070000,2347]*44
$GPZDA,153057.00,01,01,2025,,*66
$GPDTM,W84,,00.0000000,N,00.0000000,E,00.0000000,W84*5F
$GPRMC,153057.00,A,4742.4465939,N,01617.9737569,E,0.0,,010125,5.1,E,D*1C
$GPGLL,4742.4465939,N,01617.9737569,E,153057.00,A,D*6D
$GPGGA,153057.00,4742.4465939,N,01617.9737569,E,2,22,0.7,625.4748,M,43.2110,M,2.1,0123*4F
$GNGNS,153057.00,4742.4465939,N,01617.9737569,E,DAAA,22,0.7,625.4748,43.2110,,*50
$GPGNS,153057.00,,,,,,07,,,,2.1,123*7C
$GLGNS,153057.00,,,,,,04,,,,,*7E
$GAGNS,153057.00,,,,,,04,,,,,*73
$GBGNS,153057.00,,,,,,07,,,,,*73
$GPLLQ,153057.00,010125,,M,,M,1,22,2.088,,M*16
$GPVTG,,T,,M,0.00,N,0.00,K,D*26
$GPHDT,,T*1B
$GPTHS,,V*0E
$GPROT,,V*08
$PSSN,HRP,153057.00,010125,,,,,,,00,0,,*64
$PTNL,AVR,153057.00,,Yaw,,Tilt,,,,0,,00*32
$GPGSA,A,3,11,12,18,25,28,29,31,,,,,,1.2,0.7,1.0*39
$GPGSA,A,3,78,79,81,88,,,,,,,,,1.2,0.7,1.0*3F
$GPGSA,A,3,21,27,30,34,,,,,,,,,1.2,0.7,1.0*35
$GPGSA,A,3,11,12,23,24,25,34,44,,,,,,1.2,0.7,1.0*33
$GPGST,153057.00,1.603,1.063,0.715,13.358,1.047,0.738,1.649*69
$GPGBS,153057.00,5.948,2.934,6.808,12,0.0001,-2.568,1.172*73
$GPGRS,153057.00,1,2.5,-2.6,-0.7,0.7,-0.5,0.6,-0.6,,,,,*63
$GPGRS,153057.00,1,-0.4,-1.6,2.5,-0.3,,,,,,,,*61
$GPGRS,153057.00,1,-1.4,-0.3,-1.1,-0.7,,,,,,,,*4A
$GPGRS,153057.00,1,-0.0,1.9,-0.6,-2.0,-1.3,0.2,-1.3,,,,,*46
$GPGSV,4,1,16,29,81,259,49,18,20,186,44,26,17,297,20,11,26,047,40*71
$GPGSV,4,2,16,12,27,107,39,20,19,074,31,31,36,305,47,28,53,273,46*73
$GPGSV,4,3,16,25,67,107,48,04,01,347,,05,10,107,,32,03,237,*76
$GPGSV,4,4,16,36,35,170,36,34,31,208,35,49,34,195,36,61,03,257,*71
$GLGSV,3,1,09,79,67,326,44,88,61,047,50,80,13,316,34,81,57,198,47*66
$GLGSV,3,2,09,78,54,127,42,70,07,317,30,82,10,207,,87,05,032,*62
$GLGSV,3,3,09,71,08,002,34*57
$GAGSV,3,1,10,27,70,307,43,29,15,258,27,15,46,155,27,21,17,293,36*65
$GAGSV,3,2,10,34,48,070,46,19,16,303,28,30,52,102,44,13,05,191,*6A
$GAGSV,3,3,10,02,02,109,,36,09,032,*6C
$GBGSV,5,1,17,34,79,159,49,56,15,062,,05,20,130,,38,24,065,27*6D
$GBGSV,5,2,17,43,27,208,,24,29,144,41,13,24,089,,08,25,080,*69
$GBGSV,5,3,17,44,36,054,40,23,37,305,46,11,56,204,42,12,61,063,45*69
$GBGSV,5,4,17,25,77,212,49,10,10,077,,02,05,107,,20,00,342,*61
$GBGSV,5,5,17,60,09,109,*5A
$GPGGA,153057.00,,,,,0,00,,,M,,M,,*4D
$PTNL,GGK,153057.00,010125,4742.4465939,N,01617.9737569,E,1,22,1.2,EHT668.6859,M*42
$GPGGQ,153057.00,010125,4742.4465939,N,01617.9737569,E,1,22,2.088,625.4748,M*39
$GPGFA,153057.00,10.108,13.522,1.063,0.715,13.358,1.649,,VVV*38
$GPLLK,153057.00,010125,,M,,M,1,22,1.4,,M*0B
$GNGMP,153057.00,,,,,DAAA,22,0.7,,,,*54
$GPGMP,153057.00,,,,,,07,,,,2.1,123*7C
$GLGMP,153057.00,,,,,,04,,,,,*7E
$GAGMP,153057.00,,,,,,04,,,,,*73
$GBGMP,153057.00,,,,,,07,,,,,*73
$PSSN,SNC,[0,315075000,2347]*41
$GPZDA,153102.00,01,01,2025,,*67
$GPDTM,W84,,00.0000000,N,00.0000000,E,00.0000000,W84*5F
$GPRMC,153102.00,A,4742.4465853,N,01617.9737542,E,0.0,,010125,5.1,E,D*19
$GPGLL,4742.4465853,N,01617.9737542,E,153102.00,A,D*68
$GPGGA,153102.00,4742.4465853,N,01617.9737542,E,2,24,0.6,625.4603,M,43.2111,M,3.1,0123*43
$GNGNS,153102.00,4742.4465853,N,01617.9737542,E,DAAA,24,0.6,625.4603,43.2111,,*5D
$GPGNS,153102.00,,,,,,07,,,,3.1,123*7C
$GLGNS,153102.00,,,,,,05,,,,,*7E
$GAGNS,153102.00,,,,,,05,,,,,*73
$GBGNS,153102.00,,,,,,07,,,,,*72
$GPLLQ,153102.00,010125,,M,,M,1,24,2.056,,M*12
$GPVTG,,T,,M,0.01,N,0.01,K,D*26
$GPHDT,,T*1B
$GPTHS,,V*0E
$GPROT,,V*08
$PSSN,HRP,153102.00,010125,,,,,,,00,0,,*65
$PTNL,AVR,153102.00,,Yaw,,Tilt,,,,0,,00*33
$GPGSA,A,3,11,12,18,25,28,29,31,,,,,,1.1,0.6,0.9*33
$GPGSA,A,3,78,79,80,81,88,,,,,,,,1.1,0.6,0.9*3D
$GPGSA,A,3,15,21,27,30,34,,,,,,,,1.1,0.6,0.9*3B
$GPGSA,A,3,11,12,23,24,25,34,44,,,,,,1.1,0.6,0.9*39
$GPGST,153102.00,2.126,1.046,0.706,14.027,1.029,0.730,1.623*6E
$GPGBS,153102.00,5.898,2.926,6.744,12,0.0001,-2.546,1.178*7C
$GPGRS,153102.00,1,1.9,-2.5,-0.3,0.7,-0.4,0.8,-1.0,,,,,*62
$GPGRS,153102.00,1,-0.7,0.1,-2.9,2.4,-0.9,,,,,,,*4B
$GPGRS,153102.00,1,-5.5,-1.2,-0.6,-1.3,-0.8,,,,,,,*46
$GPGRS,153102.00,1,1.3,2.6,-1.1,-1.8,-0.8,-0.6,-0.1,,,,,*49
$GPGSV,4,1,16,29,81,259,49,18,20,186,44,26,17,297,28,11,26,047,41*78
$GPGSV,4,2,16,12,27,107,40,20,19,074,30,31,36,304,47,28,53,273,46*7D
$GPGSV,4,3,16,25,67,107,49,04,01,347,,05,10,107,,32,03,237,*77
$GPGSV,4,4,16,36,35,170,36,34,31,208,35,49,34,195,36,61,03,257,*71
$GLGSV,3,1,09,79,67,326,43,88,61,047,50,80,13,316,39,81,57,198,46*6D
$GLGSV,3,2,09,78,54,127,42,70,07,317,31,82,10,207,,87,05,032,*63
$GLGSV,3,3,09,71,08,002,31*52
$GAGSV,3,1,10,27,70,307,44,29,15,258,27,15,46,155,35,21,17,293,37*60
$GAGSV,3,2,10,34,48,070,47,19,16,303,27,30,52,102,44,13,05,191,*64
$GAGSV,3,3,10,02,02,109,,36,09,032,*6C
$GBGSV,5,1,17,34,79,159,49,56,15,062,,05,20,130,,43,27,208,*6E
$GBGSV,5,2,17,13,24,089,,38,24,065,26,24,29,144,40,08,25,080,*6A
$GBGSV,5,3,17,44,36,054,39,23,37,305,46,11,56,204,44,12,61,063,46*62
$GBGSV,5,4,17,25,77,212,49,10,10,077,,02,05,107,,20,00,342,*61
$GBGSV,5,5,17,60,09,109,*5A
$GPGGA,153102.00,,,,,0,00,,,M,,M,,*4C
$PTNL,GGK,153102.00,010125,4742.4465853,N,01617.9737542,E,1,24,1.1,EHT668.6713,M*43
$GPGGQ,153102.00,010125,4742.4465853,N,01617.9737542,E,1,24,2.056,625.4603,M*37
$GPGFA,153102.00,9.945,13.310,1.046,0.706,14.027,1.623,,VVV*02
$GPLLK,153102.00,010125,,M,,M,1,24,1.3,,M*0B
$GNGMP,153102.00,,,,,DAAA,24,0.6,,,,*52
$GPGMP,153102.00,,,,,,07,,,,3.1,123*7C
$GLGMP,153102.00,,,,,,05,,,,,*7E
$GAGMP,153102.00,,,,,,05,,,,,*73
$GBGMP,153102.00,,,,,,07,,,,,*72
$PSSN,SNC,[0,315080000,2347]*4B
$GPALM,1,1,26,2347,00,503D,7B,F79C,FD25,A10D7B,189D94,5B2FE9,6DF10C,FDC,FFC*77
$GPZDA,153107.00,01,01,2025,,*62
$GPDTM,W84,,00.0000000,N,00.0000000,E,00.0000000,W84*5F
$GPRMC,153107.00,A,4742.4465803,N,01617.9737527,E,0.0,,010125,5.1,E,D*1A
$GPGLL,4742.4465803,N,01617.9737527,E,153107.00,A,D*6B
$GPGGA,153107.00,4742.4465803,N,01617.9737527,E,2,23,0.7,625.4387,M,43.2111,M,2.4,0123*4B
$GNGNS,153107.00,4742.4465803,N,01617.9737527,E,DAAA,23,0.7,625.4387,43.2111,,*51
$GPGNS,153107.00,,,,,,07,,,,2.4,123*7D
$GLGNS,153107.00,,,,,,05,,,,,*7B
$GAGNS,153107.00,,,,,,04,,,,,*77
$GBGNS,153107.00,,,,,,07,,,,,*77
$GPLLQ,153107.00,010125,,M,,M,1,23,2.104,,M*16
$GPVTG,,T,,M,0.01,N,0.02,K,D*25
$GPHDT,,T*1B
$GPTHS,,V*0E
$GPROT,,V*08
$PSSN,HRP,153107.00,010125,,,,,,,00,0,,*60
$PTNL,AVR,153107.00,,Yaw,,Tilt,,,,0,,00*36
$GPGSA,A,3,11,12,18,25,28,29,31,,,,,,1.1,0.7,0.9*32
$GPGSA,A,3,78,79,80,81,88,,,,,,,,1.1,0.7,0.9*3C
$GPGSA,A,3,21,27,30,34,,,,,,,,,1.1,0.7,0.9*3E
$GPGSA,A,3,11,12,23,24,25,34,44,,,,,,1.1,0.7,0.9*38
$GPGST,153107.00,1.713,1.071,0.721,13.679,1.055,0.745,1.661*6C
$GPGBS,153107.00,5.958,2.980,6.577,12,0.0001,-2.217,1.188*76
$GPGRS,153107.00,1,2.0,-2.2,-0.3,0.5,-0.1,1.0,-1.5,,,,,*61
$GPGRS,153107.00,1,-0.9,0.7,-1.2,3.2,-1.5,,,,,,,*44
$GPGRS,153107.00,1,-0.1,-0.8,-1.3,-0.6,,,,,,,,*42
$GPGRS,153107.00,1,1.7,2.6,-1.4,-1.1,-0.0,-1.6,1.1,,,,,*61
$GPGSV,4,1,16,29,81,259,49,18,20,186,44,26,17,297,29,11,26,047,41*79
$GPGSV,4,2,16,12,27,107,40,20,19,074,31,31,36,304,46,28,53,273,45*7E
$GPGSV,4,3,16,25,67,107,49,04,01,347,,05,10,107,,32,03,237,*77
$GPGSV,4,4,16,36,35,170,37,34,31,208,35,49,34,195,36,61,03,257,*70
$GLGSV,3,1,09,79,67,326,43,88,61,047,49,80,13,316,41,81,57,198,47*6B
$GLGSV,3,2,09,78,54,127,42,70,07,317,32,82,10,207,,87,05,032,*60
$GLGSV,3,3,09,71,08,001,31*51
$GAGSV,3,1,10,27,70,307,44,29,15,258,26,15,46,155,29,21,17,293,37*6C
$GAGSV,3,2,10,34,48,070,46,19,16,303,27,30,52,102,44,13,05,191,*65
$GAGSV,3,3,10,02,02,109,,36,09,032,*6C
$GBGSV,5,1,17,34,79,159,47,56,15,062,,05,20,130,,43,27,208,*60
$GBGSV,5,2,17,13,24,089,,38,24,065,26,24,29,144,40,08,25,080,*6A
$GBGSV,5,3,17,44,36,054,38,23,37,305,46,11,56,204,45,12,61,063,46*62
$GBGSV,5,4,17,25,77,211,49,10,10,077,,02,05,107,,20,00,342,*62
$GBGSV,5,5,17,60,09,109,*5A
$GPGGA,153107.00,,,,,0,00,,,M,,M,,*49
$PTNL,GGK,153107.00,010125,4742.4465803,N,01617.9737527,E,1,23,1.1,EHT668.6497,M*48
$GPGGQ,153107.00,010125,4742.4465803,N,01617.9737527,E,1,23,2.104,625.4387,M*3C
$GPGFA,153107.00,10.183,13.619,1.071,0.721,13.679,1.661,,VVV*3C
$GPLLK,153107.00,010125,,M,,M,1,23,1.3,,M*09
$GNGMP,153107.00,,,,,DAAA,23,0.7,,,,*51
$GPGMP,153107.00,,,,,,07,,,,2.4,123*7D
$GLGMP,153107.00,,,,,,05,,,,,*7B
$GAGMP,153107.00,,,,,,04,,,,,*77
$GBGMP,153107.00,,,,,,07,,,,,*77
$PSSN,SNC,[0,315085000,2347]*4E
$GPZDA,153112.00,01,01,2025,,*66
$GPDTM,W84,,00.0000000,N,00.0000000,E,00.0000000,W84*5F
$GPRMC,153112.00,A,4742.4465748,N,01617.9737519,E,0.0,,010125,5.1,E,D*13
$GPGLL,4742.4465748,N,01617.9737519,E,153112.00,A,D*62
$GPGGA,153112.00,4742.4465748,N,01617.9737519,E,2,23,0.7,625.4164,M,43.2111,M,2.3,0123*4A
$GNGNS,153112.00,4742.4465748,N,01617.9737519,E,DAAA,23,0.7,625.4164,43.2111,,*57
$GPGNS,153112.00,,,,,,07,,,,2.3,123*7E
$GLGNS,153112.00,,,,,,05,,,,,*7F
$GAGNS,153112.00,,,,,,04,,,,,*73
$GBGNS,153112.00,,,,,,07,,,,,*73
$GPLLQ,153112.00,010125,,M,,M,1,23,2.446,,M*11
$GPVTG,,T,,M,0.01,N,0.01,K,D*26
$GPHDT,,T*1B
$GPTHS,,V*0E
$GPROT,,V*08
$PSSN,HRP,153112.00,010125,,,,,,,00,0,,*64
$PTNL,AVR,153112.00,,Yaw,,Tilt,,,,0,,00*32
$GPGSA,A,3,11,12,18,25,28,29,31,,,,,,1.1,0.7,0.9*32
$GPGSA,A,3,78,79,80,81,88,,,,,,,,1.1,0.7,0.9*3C
$GPGSA,A,3,21,27,30,34,,,,,,,,,1.1,0.7,0.9*3E
$GPGSA,A,3,11,12,23,24,25,34,44,,,,,,1.1,0.7,0.9*38
$GPGST,153112.00,2.039,1.250,0.837,13.688,1.231,0.866,1.928*6F
$GPGBS,153112.00,5.991,2.931,6.642,12,0.0001,-3.008,1.202*74
$GPGRS,153112.00,1,2.3,-3.0,-0.1,0.3,-0.3,1.5,-1.5,,,,,*66
$GPGRS,153112.00,1,-1.4,-0.4,-1.7,3.5,-1.9,,,,,,,*6C
$GPGRS,153112.00,1,1.7,-0.7,-1.2,-0.9,,,,,,,,*6D
$GPGRS,153112.00,1,1.7,2.7,-1.5,-1.1,0.4,-1.9,-1.8,,,,,*67
$GPGSV,4,1,16,29,81,259,50,18,20,186,44,26,17,297,33,11,26,047,41*7A
$GPGSV,4,2,16,12,27,107,39,20,19,073,30,31,36,304,44,28,53,273,43*72
$GPGSV,4,3,16,25,67,107,49,04,01,347,,05,10,107,,32,03,237,*77
$GPGSV,4,4,16,36,35,170,36,34,31,208,35,49,34,195,36,61,03,257,*71
$GLGSV,3,1,09,79,67,326,43,88,61,047,48,80,13,316,41,81,57,198,48*65
$GLGSV,3,2,09,78,54,127,40,70,07,317,32,82,10,207,,87,05,032,*62
$GLGSV,3,3,09,71,08,001,34*54
$GAGSV,3,1,10,27,70,307,43,29,15,258,24,15,46,155,33,21,17,293,37*62
$GAGSV,3,2,10,34,48,070,46,19,16,303,26,30,52,102,43,13,05,191,*63
$GAGSV,3,3,10,02,02,109,,36,09,032,*6C
$GBGSV,5,1,17,34,79,159,47,56,15,062,,05,20,130,,43,27,208,*60
$GBGSV,5,2,17,13,24,089,,38,24,065,26,24,29,144,39,08,25,080,*64
$GBGSV,5,3,17,44,36,054,38,23,37,305,46,11,56,204,46,12,61,063,46*61
$GBGSV,5,4,17,25,77,211,50,10,10,077,,02,05,107,,20,00,342,*6A
$GBGSV,5,5,17,60,09,109,*5A
$GPGGA,153112.00,,,,,0,00,,,M,,M,,*4D
$PTNL,GGK,153112.00,010125,4742.4465748,N,01617.9737519,E,1,23,1.1,EHT668.6275,M*4B
$GPGGQ,153112.00,010125,4742.4465748,N,01617.9737519,E,1,23,2.446,625.4164,M*39
$GPGFA,153112.00,11.888,15.812,1.250,0.837,13.688,1.928,,VVV*3D
$GPLLK,153112.00,010125,,M,,M,1,23,1.3,,M*0D
$GNGMP,153112.00,,,,,DAAA,23,0.7,,,,*55
$GPGMP,153112.00,,,,,,07,,,,2.3,123*7E
$GLGMP,153112.00,,,,,,05,,,,,*7F
$GAGMP,153112.00,,,,,,04,,,,,*73
$GBGMP,153112.00,,,,,,07,,,,,*73
$PSSN,SNC,[0,315090000,2347]*4A
$GPALM,1,1,03,2347,00,2E71,7B,1D70,FD42,A10C6B,2EA3BD,DEFD30,9D26C3,29E,002*09
$GPZDA,153117.00,01,01,2025,,*63
$GPDTM,W84,,00.0000000,N,00.0000000,E,00.0000000,W84*5F
$GPRMC,153117.00,A,4742.4465709,N,01617.9737569,E,0.0,,010125,5.1,E,D*14
$GPGLL,4742.4465709,N,01617.9737569,E,153117.00,A,D*65
$GPGGA,153117.00,4742.4465709,N,01617.9737569,E,2,23,0.7,625.3977,M,43.2111,M,2.1,0123*42
$GNGNS,153117.00,4742.4465709,N,01617.9737569,E,DAAA,23,0.7,625.3977,43.2111,,*5D
$GPGNS,153117.00,,,,,,07,,,,2.1,123*79
$GLGNS,153117.00,,,,,,05,,,,,*7A
$GAGNS,153117.00,,,,,,04,,,,,*76
$GBGNS,153117.00,,,,,,07,,,,,*76
$GPLLQ,153117.00,010125,,M,,M,1,23,2.655,,M*14
$GPVTG,,T,,M,0.01,N,0.01,K,D*26
$GPHDT,,T*1B
$GPTHS,,V*0E
$GPROT,,V*08
$PSSN,HRP,153117.00,010125,,,,,,,00,0,,*61
$PTNL,AVR,153117.00,,Yaw,,Tilt,,,,0,,00*37
$GPGSA,A,3,11,12,18,25,28,29,31,,,,,,1.1,0.7,0.9*32
$GPGSA,A,3,78,79,80,81,88,,,,,,,,1.1,0.7,0.9*3C
$GPGSA,A,3,21,27,30,34,,,,,,,,,1.1,0.7,0.9*3E
$GPGSA,A,3,11,12,23,24,25,34,44,,,,,,1.1,0.7,0.9*38
$GPGST,153117.00,2.974,1.359,0.912,13.987,1.337,0.944,2.091*6A
$GPGBS,153117.00,5.953,2.920,6.684,12,0.0001,-3.209,1.175*75
$GPGRS,153117.00,1,2.1,-3.2,-0.1,-0.1,-0.0,1.7,-1.0,,,,,*48
$GPGRS,153117.00,1,-2.2,-2.0,-4.8,3.7,-2.1,,,,,,,*69
$GPGRS,153117.00,1,3.1,-0.8,-1.2,-1.1,,,,,,,,*6A
$GPGRS,153117.00,1,2.2,2.0,-1.3,-1.0,0.5,-1.5,-6.7,,,,,*61
$GPGSV,4,1,16,29,81,259,50,18,20,186,44,26,17,297,32,11,26,047,40*7A
$GPGSV,4,2,16,12,27,107,38,20,19,073,26,31,36,304,43,28,53,273,43*73
$GPGSV,4,3,16,25,67,107,48,04,01,347,,05,10,107,,32,03,237,*76
$GPGSV,4,4,16,36,35,170,36,34,31,208,35,49,34,195,36,61,03,257,*71
$GLGSV,3,1,09,79,67,326,42,82,10,207,,80,13,316,43,88,61,047,49*6E
$GLGSV,3,2,09,78,54,127,39,81,57,198,49,71,08,001,33,87,04,032,*6E
$GLGSV,3,3,09,70,07,317,33*59
$GAGSV,3,1,10,27,70,307,43,29,15,258,24,15,46,155,34,21,18,293,37*6A
$GAGSV,3,2,10,34,48,070,46,19,16,303,22,30,52,102,43,13,05,191,*67
$GAGSV,3,3,10,02,02,109,,36,09,032,*6C
$GBGSV,5,1,17,34,79,159,46,56,15,062,,05,20,130,,43,27,208,*61
$GBGSV,5,2,17,13,24,089,,38,24,065,25,24,29,144,39,08,25,080,*67
$GBGSV,5,3,17,44,36,054,37,23,37,305,45,11,57,204,47,12,61,063,46*6D
$GBGSV,5,4,17,25,77,211,50,10,10,077,,02,05,107,,20,00,342,*6A
$GBGSV,5,5,17,60,09,109,*5A
$GPGGA,153117.00,,,,,0,00,,,M,,M,,*48
$PTNL,GGK,153117.00,010125,4742.4465709,N,01617.9737569,E,1,23,1.1,EHT668.6088,M*4C
$GPGGQ,153117.00,010125,4742.4465709,N,01617.9737569,E,1,23,2.655,625.3977,M*33
$GPGFA,153117.00,12.923,17.147,1.359,0.912,13.987,2.091,,VVV*36
$GPLLK,153117.00,010125,,M,,M,1,23,1.3,,M*08
$GNGMP,153117.00,,,,,DAAA,23,0.7,,,,*50
$GPGMP,153117.00,,,,,,07,,,,2.1,123*79
$GLGMP,153117.00,,,,,,05,,,,,*7A
$GAGMP,153117.00,,,,,,04,,,,,*76
$GBGMP,153117.00,,,,,,07,,,,,*76
$PSSN,SNC,[0,315095000,2347]*4F
$GPZDA,153122.00,01,01,2025,,*65
$GPDTM,W84,,00.0000000,N,00.0000000,E,00.0000000,W84*5F
$GPRMC,153122.00,A,4742.4465643,N,01617.9737642,E,0.0,,010125,5.1,E,D*17
$GPGLL,4742.4465643,N,01617.9737642,E,153122.00,A,D*66
$GPGGA,153122.00,4742.4465643,N,01617.9737642,E,2,23,0.7,625.3729,M,43.2111,M,3.1,0123*45
$GNGNS,153122.00,4742.4465643,N,01617.9737642,E,DAAA,23,0.7,625.3729,43.2111,,*5B
$GPGNS,153122.00,,,,,,07,,,,3.1,123*7E
$GLGNS,153122.00,,,,,,05,,,,,*7C
$GAGNS,153122.00,,,,,,04,,,,,*70
$GBGNS,153122.00,,,,,,07,,,,,*70
$GPLLQ,153122.00,010125,,M,,M,1,23,2.475,,M*12
$GPVTG,,T,,M,0.00,N,0.01,K,D*27
$GPHDT,,T*1B
$GPTHS,,V*0E
$GPROT,,V*08
$PSSN,HRP,153122.00,010125,,,,,,,00,0,,*67
$PTNL,AVR,153122.00,,Yaw,,Tilt,,,,0,,00*31
$GPGSA,A,3,11,12,18,25,28,29,31,,,,,,1.1,0.7,0.9*32
$GPGSA,A,3,78,79,80,81,88,,,,,,,,1.1,0.7,0.9*3C
$GPGSA,A,3,21,27,30,34,,,,,,,,,1.1,0.7,0.9*3E
$GPGSA,A,3,11,12,23,24,25,34,44,,,,,,1.1,0.7,0.9*38
$GPGST,153122.00,3.180,1.261,0.849,13.912,1.241,0.879,1.953*6C
$GPGBS,153122.00,5.977,2.931,6.769,12,0.0001,-2.708,1.181*79
$GPGRS,153122.00,1,2.5,-2.7,-0.4,-0.4,0.3,1.4,-0.3,,,,,*61
$GPGRS,153122.00,1,-1.3,-3.5,-5.3,3.4,-2.1,,,,,,,*60
$GPGRS,153122.00,1,3.6,-1.8,-1.5,-1.1,,,,,,,,*6D
$GPGRS,153122.00,1,2.5,1.1,-1.3,-0.7,0.4,-1.6,-7.4,,,,,*64
$GPGSV,4,1,16,29,81,260,51,18,20,186,45,26,17,297,29,11,26,047,39*74
$GPGSV,4,2,16,12,26,107,40,20,19,073,24,31,36,304,43,28,53,273,44*78
$GPGSV,4,3,16,25,67,107,48,04,01,347,,05,10,107,,32,03,237,*76
$GPGSV,4,4,16,36,35,170,37,34,31,208,35,49,34,195,36,61,03,257,*70
$GLGSV,3,1,09,79,67,327,40,82,10,207,,80,14,316,43,88,61,047,50*62
$GLGSV,3,2,09,78,54,128,40,81,57,198,48,71,08,001,,87,04,032,*6E
$GLGSV,3,3,09,70,07,317,33*59
$GAGSV,3,1,10,27,70,307,41,29,15,258,27,15,46,155,34,21,18,293,35*69
$GAGSV,3,2,10,34,48,070,46,19,16,303,32,30,52,102,42,13,06,191,*64
$GAGSV,3,3,10,02,02,109,,36,09,032,*6C
$GBGSV,5,1,17,34,79,158,45,56,15,062,,05,20,130,,43,27,208,*63
$GBGSV,5,2,17,13,24,089,,38,24,065,26,24,29,144,40,08,25,080,*6A
$GBGSV,5,3,17,44,36,054,38,23,37,305,45,11,57,204,47,12,61,063,46*62
$GBGSV,5,4,17,25,77,211,50,10,10,077,,02,05,107,,20,00,342,*6A
$GBGSV,5,5,17,60,09,109,*5A
$GPGGA,153122.00,,,,,0,00,,,M,,M,,*4E
$PTNL,GGK,153122.00,010125,4742.4465643,N,01617.9737642,E,1,23,1.1,EHT668.5839,M*4E
$GPGGQ,153122.00,010125,4742.4465643,N,01617.9737642,E,1,23,2.475,625.3729,M*35
$GPGFA,153122.00,11.990,16.011,1.261,0.849,13.912,1.953,,VVV*35
$GPLLK,153122.00,010125,,M,,M,1,23,1.3,,M*0E
$GNGMP,153122.00,,,,,DAAA,23,0.7,,,,*56
$GPGMP,153122.00,,,,,,07,,,,3.1,123*7E
$GLGMP,153122.00,,,,,,05,,,,,*7C
$GAGMP,153122.00,,,,,,04,,,,,*70
$GBGMP,153122.00,,,,,,07,,,,,*70
$PSSN,SNC,[0,315100000,2347]*42
$GPZDA,153127.00,01,01,2025,,*60
$GPDTM,W84,,00.0000000,N,00.0000000,E,00.0000000,W84*5F
$GPRMC,153127.00,A,4742.4465553,N,01617.9737690,E,0.0,,010125,5.1,E,D*1F
$GPGLL,4742.4465553,N,01617.9737690,E,153127.00,A,D*6E
$GPGGA,153127.00,4742.4465553,N,01617.9737690,E,2,22,0.7,625.3684,M,43.2111,M,2.0,0123*4A
$GNGNS,153127.00,4742.4465553,N,01617.9737690,E,DAAA,22,0.7,625.3684,43.2111,,*54
$GPGNS,153127.00,,,,,,07,,,,2.0,123*7B
$GLGNS,153127.00,,,,,,05,,,,,*79
$GAGNS,153127.00,,,,,,03,,,,,*72
$GBGNS,153127.00,,,,,,07,,,,,*75
$GPLLQ,153127.00,010125,,M,,M,1,22,1.955,,M*1A
$GPVTG,,T,,M,0.01,N,0.01,K,D*26
$GPHDT,,T*1B
$GPTHS,,V*0E
$GPROT,,V*08
$PSSN,HRP,153127.00,010125,,,,,,,00,0,,*62
$PTNL,AVR,153127.00,,Yaw,,Tilt,,,,0,,00*34
$GPGSA,A,3,11,12,18,25,28,29,31,,,,,,1.2,0.7,1.0*39
$GPGSA,A,3,78,79,80,81,88,,,,,,,,1.2,0.7,1.0*37
$GPGSA,A,3,27,30,34,,,,,,,,,,1.2,0.7,1.0*36
$GPGSA,A,3,11,12,23,24,25,34,44,,,,,,1.2,0.7,1.0*33
$GPGST,153127.00,2.951,0.993,0.671,13.934,0.977,0.694,1.544*62
$GPGBS,153127.00,5.962,2.975,6.753,11,0.0001,2.162,1.407*5E
$GPGRS,153127.00,1,2.2,-1.6,-0.8,-0.6,0.2,0.7,0.6,,,,,*44
$GPGRS,153127.00,1,-1.5,-2.6,-5.9,2.4,-2.6,,,,,,,*6D
$GPGRS,153127.00,1,-2.9,-1.6,-0.8,,,,,,,,,*4A
$GPGRS,153127.00,1,2.9,0.6,-1.4,-0.8,0.3,-1.8,-6.3,,,,,*6C
$GPGSV,4,1,16,29,81,260,51,18,20,186,45,26,17,297,24,11,26,047,37*77
$GPGSV,4,2,16,12,26,107,41,20,19,073,19,31,36,304,44,28,53,273,45*71
$GPGSV,4,3,16,25,67,107,48,04,01,347,,05,10,107,,32,03,237,*76
$GPGSV,4,4,16,36,35,170,37,34,31,208,35,49,34,195,36,61,03,257,*70
$GLGSV,3,1,09,79,67,327,39,82,10,207,,80,14,316,42,88,61,047,49*65
$GLGSV,3,2,09,78,54,128,37,81,57,198,48,71,08,001,33,87,04,032,*6E
$GLGSV,3,3,09,70,07,317,31*5B
$GAGSV,3,1,10,27,70,307,41,29,15,258,30,15,46,155,34,21,18,293,34*6E
$GAGSV,3,2,10,34,48,070,47,19,16,303,27,30,52,102,42,13,06,191,*61
$GAGSV,3,3,10,02,02,109,,36,09,032,*6C
$GBGSV,5,1,17,34,79,158,44,56,15,062,,05,20,130,,38,24,065,27*61
$GBGSV,5,2,17,43,27,208,,24,29,144,40,13,24,089,,08,25,080,*68
$GBGSV,5,3,17,44,36,054,38,23,37,305,45,11,57,204,47,12,61,063,45*61
$GBGSV,5,4,17,25,77,211,50,10,10,077,,02,05,107,,20,00,342,*6A
$GBGSV,5,5,17,60,09,109,*5A
$GPGGA,153127.00,,,,,0,00,,,M,,M,,*4B
