$GPZDA,022942.00,01,01,2025,,*6C
$GPDTM,W84,,00.0000000,N,00.0000000,E,00.0000000,W84*5F
$GPRMC,022942.00,A,4742.4465113,N,01617.9735480,E,0.0,,010125,5.1,E,D*12
$GPGLL,4742.4465113,N,01617.9735480,E,022942.00,A,D*63
$GPGGA,022942.00,4742.4465113,N,01617.9735480,E,2,24,0.6,623.6959,M,43.2111,M,3.4,0123*49
$GNGNS,022942.00,4742.4465113,N,01617.9735480,E,DAAA,24,0.6,623.6959,43.2111,,*52
$GPGNS,022942.00,,,,,,05,,,,3.4,123*70
$GLGNS,022942.00,,,,,,04,,,,,*74
$GAGNS,022942.00,,,,,,05,,,,,*78
$GBGNS,022942.00,,,,,,10,,,,,*7F
$GPLLQ,022942.00,010125,,M,,M,1,24,2.594,,M*12
$GPVTG,,T,,M,0.00,N,0.01,K,D*27
$GPHDT,,T*1B
$GPTHS,,V*0E
$GPROT,,V*08
$PSSN,HRP,022942.00,010125,,,,,,,00,0,,*6E
$PTNL,AVR,022942.00,,Yaw,,Tilt,,,,0,,00*38
$GPGSA,A,3,03,04,06,09,31,,,,,,,,1.1,0.6,0.9*37
$GPGSA,A,3,69,70,85,86,,,,,,,,,1.1,0.6,0.9*36
$GPGSA,A,3,04,06,09,34,36,,,,,,,,1.1,0.6,0.9*34
$GPGSA,A,3,05,06,09,19,20,22,29,35,39,44,,,1.1,0.6,0.9*3A
$GPGST,022942.00,4.853,1.226,0.565,343.460,1.186,0.644,2.216*5A
$GPGBS,022942.00,7.369,3.714,10.462,69,0.0001,11.862,6.271*5B
$GPGRS,022942.00,1,0.2,-0.2,-0.9,0.2,0.8,,,,,,,*6C
$GPGRS,022942.00,1,11.9,-2.2,0.5,-2.7,,,,,,,,*78
$GPGRS,022942.00,1,0.7,0.4,0.3,0.5,0.1,,,,,,,*6B
$GPGRS,022942.00,1,3.8,8.5,-3.4,-4.0,-8.0,6.6,-0.2,-2.8,3.8,0.6,,*64
$GPGSV,5,1,18,04,80,209,48,06,34,311,46,28,14,037,26,19,28,274,33*73
$GPGSV,5,2,18,02,23,162,31,17,23,243,24,01,28,153,,31,31,059,46*75
$GPGSV,5,3,18,09,49,232,47,03,63,079,46,21,07,155,,26,02,084,*77
$GPGSV,5,4,18,07,01,185,,11,00,320,,36,35,170,41,34,31,208,*75
$GPGSV,5,5,18,49,34,195,36,61,03,257,*76
$GLGSV,3,1,10,70,71,323,38,69,24,054,37,84,13,173,,79,21,063,*61
$GLGSV,3,2,10,71,32,259,41,86,44,314,52,85,56,213,49,78,10,014,30*6D
$GLGSV,3,3,10,80,09,114,,87,04,338,*62
$GAGSV,3,1,10,09,85,126,47,05,35,226,34,11,31,153,32,18,21,276,*66
$GAGSV,3,2,10,04,35,054,41,34,38,310,46,06,62,062,46,36,75,213,48*6D
$GAGSV,3,3,10,10,06,147,,21,02,023,*6C
$GBGSV,5,1,20,48,78,032,,58,14,120,,46,11,137,,39,23,041,36*68
$GBGSV,5,2,20,22,14,260,37,44,20,317,34,29,25,197,39,37,22,084,29*61
$GBGSV,5,3,20,05,23,128,37,16,31,048,31,06,32,052,36,09,41,066,38*6D
$GBGSV,5,4,20,35,44,268,48,20,57,061,46,19,66,279,38,23,10,035,*62
$GBGSV,5,5,20,32,04,075,,02,08,106,,12,03,333,30,60,09,110,*6C
$GPGGA,022942.00,,,,,0,00,,,M,,M,,*47
$PTNL,GGK,022942.00,010125,4742.4465113,N,01617.9735480,E,1,24,1.1,EHT666.9069,M*43
$GPGGQ,022942.00,010125,4742.4465113,N,01617.9735480,E,1,24,2.594,623.6959,M*33
$GPGFA,022942.00,11.652,18.170,1.226,0.565,343.460,2.216,,VVV*02
$GPLLK,022942.00,010125,,M,,M,1,24,1.3,,M*00
$GNGMP,022942.00,,,,,DAAA,24,0.6,,,,*59
$GPGMP,022942.00,,,,,,05,,,,3.4,123*70
$GLGMP,022942.00,,,,,,04,,,,,*74
$GAGMP,022942.00,,,,,,05,,,,,*78
$GBGMP,022942.00,,,,,,10,,,,,*7F
$PSSN,SNC,[0,268200000,2347]*4A
$GPZDA,022947.00,01,01,2025,,*69
$GPDTM,W84,,00.0000000,N,00.0000000,E,00.0000000,W84*5F
$GPRMC,022947.00,A,4742.4465104,N,01617.9735392,E,0.0,,010125,5.1,E,D*15
$GPGLL,4742.4465104,N,01617.9735392,E,022947.00,A,D*64
$GPGGA,022947.00,4742.4465104,N,01617.9735392,E,2,25,0.6,623.7078,M,43.2111,M,1.2,0123*40
$GNGNS,022947.00,4742.4465104,N,01617.9735392,E,DAAA,25,0.6,623.7078,43.2111,,*5F
$GPGNS,022947.00,,,,,,05,,,,1.2,123*71
$GLGNS,022947.00,,,,,,06,,,,,*73
$GAGNS,022947.00,,,,,,05,,,,,*7D
$GBGNS,022947.00,,,,,,09,,,,,*72
$GPLLQ,022947.00,010125,,M,,M,1,25,3.196,,M*11
$GPVTG,,T,,M,0.00,N,0.00,K,D*26
$GPHDT,,T*1B
$GPTHS,,V*0E
$GPROT,,V*08
$PSSN,HRP,022947.00,010125,,,,,,,00,0,,*6B
$PTNL,AVR,022947.00,,Yaw,,Tilt,,,,0,,00*3D
$GPGSA,A,3,03,04,06,09,31,,,,,,,,1.1,0.6,0.9*37
$GPGSA,A,3,69,70,78,79,85,86,,,,,,,1.1,0.6,0.9*37
$GPGSA,A,3,04,06,09,34,36,,,,,,,,1.1,0.6,0.9*34
$GPGSA,A,3,05,06,09,19,20,22,29,35,39,,,,1.1,0.6,0.9*3A
$GPGST,022947.00,6.535,1.525,0.700,343.551,1.476,0.798,2.720*5C
$GPGBS,022947.00,7.001,3.538,9.990,79,0.0001,15.223,6.286*65
$GPGRS,022947.00,1,0.0,-0.4,-0.6,-0.0,0.9,,,,,,,*4C
$GPGRS,022947.00,1,8.0,-2.6,14.2,15.2,0.6,-3.4,,,,,,*48
$GPGRS,022947.00,1,0.6,0.4,-0.0,0.8,0.2,,,,,,,*4F
$GPGRS,022947.00,1,4.3,8.5,-3.7,-4.3,-8.2,6.6,-0.0,-4.0,1.1,,,*40
$GPGSV,5,1,18,04,80,209,47,06,34,311,46,28,14,037,27,19,28,274,34*7A
$GPGSV,5,2,18,02,23,162,32,17,23,243,37,01,28,153,,31,31,059,46*74
$GPGSV,5,3,18,09,49,232,48,03,63,079,45,21,07,155,,26,02,084,*7B
$GPGSV,5,4,18,07,01,185,,11,00,320,,36,35,170,41,34,31,208,*75
$GPGSV,5,5,18,49,34,195,36,61,03,257,*76
$GLGSV,3,1,10,70,71,323,38,69,24,054,36,84,13,173,,79,21,063,39*6A
$GLGSV,3,2,10,71,32,259,37,86,44,314,52,85,56,213,49,78,10,013,35*6E
$GLGSV,3,3,10,80,09,114,,87,04,338,*62
$GAGSV,3,1,10,09,85,125,47,05,35,226,35,11,31,153,32,18,21,276,*64
$GAGSV,3,2,10,04,35,054,42,34,38,310,47,06,62,062,46,36,75,213,48*6F
$GAGSV,3,3,10,10,06,147,,21,02,023,*6C
$GBGSV,5,1,20,48,78,032,,58,14,120,,46,11,137,,39,23,041,36*68
$GBGSV,5,2,20,22,14,260,35,44,20,317,33,29,25,197,38,05,23,128,37*6D
$GBGSV,5,3,20,16,31,048,31,37,22,084,26,06,32,052,37,09,41,066,38*6B
$GBGSV,5,4,20,35,44,268,48,20,57,061,44,19,66,279,36,12,03,333,25*6C
$GBGSV,5,5,20,32,04,075,,02,08,106,,23,10,034,,60,09,110,*6B
$GPGGA,022947.00,,,,,0,00,,,M,,M,,*42
$PTNL,GGK,022947.00,010125,4742.4465104,N,01617.9735392,E,1,25,1.1,EHT666.9189,M*4A
$GPGGQ,022947.00,010125,4742.4465104,N,01617.9735392,E,1,25,3.196,623.7078,M*39
$GPGFA,022947.00,14.499,22.301,1.525,0.700,343.551,2.720,,VVV*0C
$GPLLK,022947.00,010125,,M,,M,1,25,1.2,,M*05
$GNGMP,022947.00,,,,,DAAA,25,0.6,,,,*5D
$GPGMP,022947.00,,,,,,05,,,,1.2,123*71
$GLGMP,022947.00,,,,,,06,,,,,*73
$GAGMP,022947.00,,,,,,05,,,,,*7D
$GBGMP,022947.00,,,,,,09,,,,,*72
$PSSN,SNC,[0,268205000,2347]*4F
$GPZDA,022952.00,01,01,2025,,*6D
$GPDTM,W84,,00.0000000,N,00.0000000,E,00.0000000,W84*5F
$GPRMC,022952.00,A,4742.4465080,N,01617.9735294,E,0.0,,010125,5.1,E,D*1B
$GPGLL,4742.4465080,N,01617.9735294,E,022952.00,A,D*6A
$GPGGA,022952.00,4742.4465080,N,01617.9735294,E,2,24,0.7,623.7213,M,43.2111,M,2.0,0123*40
$GNGNS,022952.00,4742.4465080,N,01617.9735294,E,DAAA,24,0.7,623.7213,43.2111,,*5E
$GPGNS,022952.00,,,,,,06,,,,2.0,123*77
$GLGNS,022952.00,,,,,,06,,,,,*77
$GAGNS,022952.00,,,,,,05,,,,,*79
$GBGNS,022952.00,,,,,,07,,,,,*78
$GPLLQ,022952.00,010125,,M,,M,1,24,2.726,,M*18
$GPVTG,,T,,M,0.01,N,0.02,K,D*25
$GPHDT,,T*1B
$GPTHS,,V*0E
$GPROT,,V*08
$PSSN,HRP,022952.00,010125,,,,,,,00,0,,*6F
$PTNL,AVR,022952.00,,Yaw,,Tilt,,,,0,,00*39
$GPGSA,A,3,03,04,06,09,19,31,,,,,,,1.2,0.7,1.0*35
$GPGSA,A,3,69,70,71,79,85,86,,,,,,,1.2,0.7,1.0*34
$GPGSA,A,3,04,06,09,34,36,,,,,,,,1.2,0.7,1.0*3E
$GPGSA,A,3,05,06,09,20,29,35,39,,,,,,1.2,0.7,1.0*38
$GPGST,022952.00,5.472,1.404,0.576,341.131,1.342,0.709,2.264*55
$GPGBS,022952.00,6.863,3.531,9.241,79,0.0001,15.723,6.288*69
$GPGRS,022952.00,1,-0.1,-0.6,-0.5,-0.2,0.7,0.9,,,,,,*4E
$GPGRS,022952.00,1,6.1,-3.8,0.1,15.7,0.3,-3.9,,,,,,*77
$GPGRS,022952.00,1,0.5,0.4,0.0,0.7,0.6,,,,,,,*6E
$GPGRS,022952.00,1,4.4,9.3,-3.2,-6.9,-0.5,-5.1,-1.3,,,,,*44
$GPGSV,5,1,18,04,80,209,47,06,34,311,46,28,14,037,27,19,28,274,37*79
$GPGSV,5,2,18,02,23,162,34,17,23,243,38,01,28,153,,31,31,059,46*7D
$GPGSV,5,3,18,09,49,232,48,03,63,079,44,21,07,155,,26,02,083,*7D
$GPGSV,5,4,18,07,01,185,,11,00,320,,36,35,170,41,34,31,208,*75
$GPGSV,5,5,18,49,34,195,35,61,03,257,*75
$GLGSV,3,1,10,70,71,324,39,69,24,054,36,84,13,173,20,79,21,063,38*6F
$GLGSV,3,2,10,71,32,259,41,86,44,314,52,85,56,213,49,78,10,013,34*6E
$GLGSV,3,3,10,80,09,114,,87,04,338,*62
$GAGSV,3,1,10,09,85,125,47,05,35,226,35,11,31,153,30,18,21,276,*66
$GAGSV,3,2,10,04,35,054,42,34,38,310,48,06,62,062,47,36,75,213,49*60
$GAGSV,3,3,10,10,06,147,,21,02,023,*6C
$GBGSV,5,1,20,48,78,032,,58,14,120,,46,11,136,,39,23,040,36*68
$GBGSV,5,2,20,22,14,260,33,44,20,317,35,29,25,197,38,05,23,128,37*6D
$GBGSV,5,3,20,16,31,048,31,37,22,084,27,06,32,052,37,09,41,066,38*6A
$GBGSV,5,4,20,35,44,268,48,20,57,061,41,19,66,279,30,12,03,333,28*62
$GBGSV,5,5,20,32,04,075,,02,08,106,,23,10,034,,60,09,110,*6B
$GPGGA,022952.00,,,,,0,00,,,M,,M,,*46
$PTNL,GGK,022952.00,010125,4742.4465080,N,01617.9735294,E,1,24,1.2,EHT666.9323,M*44
$GPGGQ,022952.00,010125,4742.4465080,N,01617.9735294,E,1,24,2.726,623.7213,M*35
$GPGFA,022952.00,13.352,18.566,1.404,0.576,341.131,2.264,,VVV*05
$GPLLK,022952.00,010125,,M,,M,1,24,1.4,,M*06
$GNGMP,022952.00,,,,,DAAA,24,0.7,,,,*59
$GPGMP,022952.00,,,,,,06,,,,2.0,123*77
$GLGMP,022952.00,,,,,,06,,,,,*77
$GAGMP,022952.00,,,,,,05,,,,,*79
$GBGMP,022952.00,,,,,,07,,,,,*78
$PSSN,SNC,[0,268210000,2347]*4B
$GPZDA,022957.00,01,01,2025,,*68
$GPDTM,W84,,00.0000000,N,00.0000000,E,00.0000000,W84*5F
$GPRMC,022957.00,A,4742.4465057,N,01617.9735218,E,0.0,,010125,5.1,E,D*10
$GPGLL,4742.4465057,N,01617.9735218,E,022957.00,A,D*61
$GPGGA,022957.00,4742.4465057,N,01617.9735218,E,2,24,0.6,623.7391,M,43.2111,M,3.0,0123*40
$GNGNS,022957.00,4742.4465057,N,01617.9735218,E,DAAA,24,0.6,623.7391,43.2111,,*5F
$GPGNS,022957.00,,,,,,06,,,,3.0,123*73
$GLGNS,022957.00,,,,,,05,,,,,*71
$GAGNS,022957.00,,,,,,05,,,,,*7C
$GBGNS,022957.00,,,,,,08,,,,,*72
$GPLLQ,022957.00,010125,,M,,M,1,24,3.447,,M*18
$GPVTG,,T,,M,0.00,N,0.00,K,D*26
$GPHDT,,T*1B
$GPTHS,,V*0E
$GPROT,,V*08
$PSSN,HRP,022957.00,010125,,,,,,,00,0,,*6A
$PTNL,AVR,022957.00,,Yaw,,Tilt,,,,0,,00*3C
$GPGSA,A,3,03,04,06,09,19,31,,,,,,,1.2,0.6,1.0*34
$GPGSA,A,3,69,70,71,85,86,,,,,,,,1.2,0.6,1.0*3B
$GPGSA,A,3,04,06,09,34,36,,,,,,,,1.2,0.6,1.0*3F
$GPGSA,A,3,05,06,09,20,29,35,39,44,,,,,1.2,0.6,1.0*39
$GPGST,022957.00,7.024,1.776,0.728,341.306,1.699,0.894,2.863*59
$GPGBS,022957.00,6.913,3.570,9.380,79,0.0001,24.075,6.289*64
$GPGRS,022957.00,1,0.3,-0.5,-0.5,-0.7,0.6,1.0,,,,,,*6B
$GPGRS,022957.00,1,7.6,-2.2,-0.8,-0.7,-3.5,,,,,,,*63
$GPGRS,022957.00,1,-0.1,0.4,-0.1,0.5,0.6,,,,,,,*6C
$GPGRS,022957.00,1,2.6,11.6,-3.6,-5.5,-1.7,-5.6,-1.7,-2.9,,,,*7A
$GPGSV,5,1,18,04,80,209,47,06,34,311,45,28,14,037,28,19,28,274,38*7A
$GPGSV,5,2,18,02,23,162,35,17,23,243,38,01,28,153,,31,31,059,47*7D
$GPGSV,5,3,18,09,49,232,47,03,63,079,45,21,07,155,,26,02,083,*73
$GPGSV,5,4,18,07,01,185,,11,00,320,,36,35,170,41,34,31,208,*75
$GPGSV,5,5,18,49,34,195,35,61,03,257,*75
$GLGSV,3,1,10,70,71,324,39,69,24,054,36,84,13,173,,79,21,063,*66
$GLGSV,3,2,10,71,32,259,34,86,44,314,52,85,56,213,49,78,10,013,30*68
$GLGSV,3,3,10,80,09,114,,87,04,338,*62
$GAGSV,3,1,10,09,85,125,47,05,35,226,34,11,31,153,27,18,21,276,*61
$GAGSV,3,2,10,04,35,054,41,34,38,310,48,06,62,062,46,36,75,213,48*63
$GAGSV,3,3,10,10,06,147,,21,02,023,*6C
$GBGSV,5,1,20,48,78,032,,58,14,120,,46,11,136,,39,23,040,37*69
$GBGSV,5,2,20,22,14,260,31,44,20,317,38,29,25,197,37,05,23,128,37*6D
$GBGSV,5,3,20,16,31,048,31,37,22,084,30,06,32,052,36,09,41,066,37*62
$GBGSV,5,4,20,35,44,268,47,20,57,061,41,19,66,279,29,12,03,333,29*64
$GBGSV,5,5,20,32,04,075,,02,08,106,,23,10,034,,60,09,110,*6B
$GPGGA,022957.00,,,,,0,00,,,M,,M,,*43
$PTNL,GGK,022957.00,010125,4742.4465057,N,01617.9735218,E,1,24,1.2,EHT666.9501,M*49
$GPGGQ,022957.00,010125,4742.4465057,N,01617.9735218,E,1,24,3.447,623.7391,M*30
$GPGFA,022957.00,16.889,23.477,1.776,0.728,341.306,2.863,,VVV*05
$GPLLK,022957.00,010125,,M,,M,1,24,1.4,,M*03
$GNGMP,022957.00,,,,,DAAA,24,0.6,,,,*5D
$GPGMP,022957.00,,,,,,06,,,,3.0,123*73
$GLGMP,022957.00,,,,,,05,,,,,*71
$GAGMP,022957.00,,,,,,05,,,,,*7C
$GBGMP,022957.00,,,,,,08,,,,,*72
$PSSN,SNC,[0,268215000,2347]*4E
$GPZDA,023002.00,01,01,2025,,*60
$GPDTM,W84,,00.0000000,N,00.0000000,E,00.0000000,W84*5F
$GPRMC,023002.00,A,4742.4465013,N,01617.9735078,E,0.0,,010125,5.1,E,D*1C
$GPGLL,4742.4465013,N,01617.9735078,E,023002.00,A,D*6D
$GPGGA,023002.00,4742.4465013,N,01617.9735078,E,2,25,0.6,623.7477,M,43.2111,M,3.4,0123*46
$GNGNS,023002.00,4742.4465013,N,01617.9735078,E,DAAA,25,0.6,623.7477,43.2111,,*5D
$GPGNS,023002.00,,,,,,07,,,,3.4,123*7E
$GLGNS,023002.00,,,,,,05,,,,,*79
$GAGNS,023002.00,,,,,,05,,,,,*74
$GBGNS,023002.00,,,,,,08,,,,,*7A
$GPLLQ,023002.00,010125,,M,,M,1,25,1.551,,M*15
$GPVTG,,T,,M,0.00,N,0.01,K,D*27
$GPHDT,,T*1B
$GPTHS,,V*0E
$GPROT,,V*08
$PSSN,HRP,023002.00,010125,,,,,,,00,0,,*62
$PTNL,AVR,023002.00,,Yaw,,Tilt,,,,0,,00*34
$GPGSA,A,3,02,03,04,06,09,19,31,,,,,,1.1,0.6,1.0*35
$GPGSA,A,3,69,70,71,85,86,,,,,,,,1.1,0.6,1.0*38
$GPGSA,A,3,04,06,09,34,36,,,,,,,,1.1,0.6,1.0*3C
$GPGSA,A,3,05,06,09,20,29,35,39,44,,,,,1.1,0.6,1.0*3A
$GPGST,023002.00,4.889,0.662,0.523,359.744,0.662,0.523,1.301*52
$GPGBS,023002.00,3.515,2.315,6.298,31,0.0001,1.379,0.838*52
$GPGRS,023002.00,1,0.4,0.5,-0.6,-0.6,-0.5,-0.1,1.4,,,,,*63
$GPGRS,023002.00,1,9.7,-1.8,7.9,-1.2,-3.2,,,,,,,*45
$GPGRS,023002.00,1,-0.6,0.4,-0.3,0.4,0.5,,,,,,,*63
$GPGRS,023002.00,1,1.0,13.2,-4.2,-4.2,-0.7,-6.0,1.6,-2.3,,,,*56
$GPGSV,5,1,18,04,80,209,46,06,34,311,44,28,14,037,26,19,28,274,38*74
$GPGSV,5,2,18,02,23,162,36,17,23,243,34,01,28,153,,31,31,059,47*72
$GPGSV,5,3,18,09,50,232,48,03,63,079,45,21,07,155,,26,02,083,*74
$GPGSV,5,4,18,07,01,185,,11,00,320,,36,35,170,40,34,31,208,*74
$GPGSV,5,5,18,49,34,195,35,61,03,257,*75
$GLGSV,3,1,10,70,71,324,39,69,24,054,37,84,13,173,,79,21,063,33*67
$GLGSV,3,2,10,71,32,259,37,86,44,314,52,85,56,213,47,78,10,013,28*6C
$GLGSV,3,3,10,80,09,114,,87,04,338,*62
$GAGSV,3,1,10,09,85,124,47,05,35,226,34,11,31,153,26,18,21,276,*61
$GAGSV,3,2,10,04,35,054,40,34,38,310,49,06,62,062,46,36,75,213,48*63
$GAGSV,3,3,10,10,06,147,,21,02,023,*6C
$GBGSV,5,1,20,48,78,032,,58,14,120,,46,11,136,,39,23,040,36*68
$GBGSV,5,2,20,22,14,260,33,44,20,317,39,29,25,197,38,05,23,128,36*60
$GBGSV,5,3,20,16,31,048,31,37,22,084,29,06,32,052,36,09,41,066,36*6B
$GBGSV,5,4,20,35,44,268,47,20,57,061,42,19,66,279,30,12,03,333,29*6F
$GBGSV,5,5,20,32,04,075,,02,08,106,,23,10,034,,60,09,110,*6B
$GPGGA,023002.00,,,,,0,00,,,M,,M,,*4B
$PTNL,GGK,023002.00,010125,4742.4465013,N,01617.9735078,E,1,25,1.1,EHT666.9588,M*46
$GPGGQ,023002.00,010125,4742.4465013,N,01617.9735078,E,1,25,1.551,623.7477,M*36
$GPGFA,023002.00,6.294,10.668,0.662,0.523,359.744,1.301,,VVV*3D
$GPLLK,023002.00,010125,,M,,M,1,25,1.3,,M*0D
$GNGMP,023002.00,,,,,DAAA,25,0.6,,,,*54
$GPGMP,023002.00,,,,,,07,,,,3.4,123*7E
$GLGMP,023002.00,,,,,,05,,,,,*79
$GAGMP,023002.00,,,,,,05,,,,,*74
$GBGMP,023002.00,,,,,,08,,,,,*7A
$PSSN,SNC,[0,268220000,2347]*48
$GPZDA,023007.00,01,01,2025,,*65
$GPDTM,W84,,00.0000000,N,00.0000000,E,00.0000000,W84*5F
$GPRMC,023007.00,A,4742.4464990,N,01617.9734932,E,0.0,,010125,5.1,E,D*1C
$GPGLL,4742.4464990,N,01617.9734932,E,023007.00,A,D*6D
$GPGGA,023007.00,4742.4464990,N,01617.9734932,E,2,25,0.6,623.7600,M,43.2111,M,1.6,0123*44
$GNGNS,023007.00,4742.4464990,N,01617.9734932,E,DAAA,25,0.6,623.7600,43.2111,,*5F
$GPGNS,023007.00,,,,,,07,,,,1.6,123*7B
$GLGNS,023007.00,,,,,,04,,,,,*7D
$GAGNS,023007.00,,,,,,06,,,,,*72
$GBGNS,023007.00,,,,,,08,,,,,*7F
$GPLLQ,023007.00,010125,,M,,M,1,25,1.578,,M*1B
$GPVTG,,T,,M,0.01,N,0.01,K,D*26
$GPHDT,,T*1B
$GPTHS,,V*0E
$GPROT,,V*08
$PSSN,HRP,023007.00,010125,,,,,,,00,0,,*67
$PTNL,AVR,023007.00,,Yaw,,Tilt,,,,0,,00*31
$GPGSA,A,3,02,03,04,06,09,19,31,,,,,,1.1,0.6,1.0*35
$GPGSA,A,3,70,71,85,86,,,,,,,,,1.1,0.6,1.0*37
$GPGSA,A,3,04,05,06,09,34,36,,,,,,,1.1,0.6,1.0*39
$GPGSA,A,3,05,06,09,20,29,35,39,44,,,,,1.1,0.6,1.0*3A
$GPGST,023007.00,4.919,0.672,0.535,358.537,0.672,0.535,1.324*5F
$GPGBS,023007.00,3.273,2.233,6.037,06,0.0001,14.725,8.604*66
$GPGRS,023007.00,1,0.6,0.1,-0.9,0.0,0.0,-0.2,1.3,,,,,*68
$GPGRS,023007.00,1,-3.4,8.7,-0.9,-3.4,,,,,,,,*63
$GPGRS,023007.00,1,-0.5,-1.2,0.4,-0.0,0.3,0.6,,,,,,*62
$GPGRS,023007.00,1,1.1,14.7,-3.9,-1.9,1.2,-6.1,7.2,-2.0,,,,*7B
$GPGSV,5,1,18,04,80,209,46,06,34,311,43,28,14,037,23,19,28,274,38*76
$GPGSV,5,2,18,02,23,162,38,17,23,243,31,01,28,153,,31,31,059,48*76
$GPGSV,5,3,18,09,50,232,48,03,63,079,46,21,07,155,,26,02,083,*77
$GPGSV,5,4,18,07,01,185,,11,00,320,,36,35,170,40,34,31,208,*74
$GPGSV,5,5,18,49,34,195,35,61,03,257,*75
$GLGSV,3,1,10,70,71,324,39,69,24,054,35,84,13,173,,79,21,063,*65
$GLGSV,3,2,10,71,32,260,41,86,44,314,52,85,56,213,45,78,10,013,29*64
$GLGSV,3,3,10,80,09,114,,87,04,338,*62
$GAGSV,3,1,10,09,85,124,47,05,35,226,35,11,31,153,24,18,21,276,*62
$GAGSV,3,2,10,04,35,054,41,34,38,310,49,06,62,062,46,36,75,213,48*62
$GAGSV,3,3,10,10,06,147,,21,02,023,*6C
$GBGSV,5,1,20,48,78,032,,58,14,120,,46,11,136,,39,23,040,36*68
$GBGSV,5,2,20,22,14,260,32,44,20,317,41,29,25,197,38,05,23,128,36*6E
$GBGSV,5,3,20,16,31,048,32,37,22,084,27,06,32,052,36,09,41,066,37*67
$GBGSV,5,4,20,35,44,268,47,20,57,061,43,19,66,280,34,12,03,333,31*65
$GBGSV,5,5,20,32,04,075,,02,08,106,,23,10,034,,60,09,110,*6B
$GPGGA,023007.00,,,,,0,00,,,M,,M,,*4E
$PTNL,GGK,023007.00,010125,4742.4464990,N,01617.9734932,E,1,25,1.1,EHT666.9710,M*45
$GPGGQ,023007.00,010125,4742.4464990,N,01617.9734932,E,1,25,1.578,623.7600,M*3F
$GPGFA,023007.00,6.386,10.859,0.672,0.535,358.537,1.324,,VVV*30
$GPLLK,023007.00,010125,,M,,M,1,25,1.3,,M*08
$GNGMP,023007.00,,,,,DAAA,25,0.6,,,,*51
$GPGMP,023007.00,,,,,,07,,,,1.6,123*7B
$GLGMP,023007.00,,,,,,04,,,,,*7D
$GAGMP,023007.00,,,,,,06,,,,,*72
$GBGMP,023007.00,,,,,,08,,,,,*7F
$PSSN,SNC,[0,268225000,2347]*4D
$GPZDA,023012.00,01,01,2025,,*61
$GPDTM,W84,,00.0000000,N,00.0000000,E,00.0000000,W84*5F
$GPRMC,023012.00,A,4742.4464980,N,01617.9734800,E,0.0,,010125,5.1,E,D*19
$GPGLL,4742.4464980,N,01617.9734800,E,023012.00,A,D*68
$GPGGA,023012.00,4742.4464980,N,01617.9734800,E,2,26,0.6,623.7763,M,43.2111,M,2.0,0123*43
$GNGNS,023012.00,4742.4464980,N,01617.9734800,E,DAAA,26,0.6,623.7763,43.2111,,*5D
$GPGNS,023012.00,,,,,,07,,,,2.0,123*7A
$GLGNS,023012.00,,,,,,04,,,,,*79
$GAGNS,023012.00,,,,,,06,,,,,*76
$GBGNS,023012.00,,,,,,09,,,,,*7A
$GPLLQ,023012.00,010125,,M,,M,1,26,1.911,,M*1F
$GPVTG,,T,,M,0.00,N,0.00,K,D*26
$GPHDT,,T*1B
$GPTHS,,V*0E
$GPROT,,V*08
$PSSN,HRP,023012.00,010125,,,,,,,00,0,,*63
$PTNL,AVR,023012.00,,Yaw,,Tilt,,,,0,,00*35
$GPGSA,A,3,02,03,04,06,09,19,31,,,,,,1.1,0.6,0.9*3D
$GPGSA,A,3,70,71,85,86,,,,,,,,,1.1,0.6,0.9*3F
$GPGSA,A,3,04,05,06,09,34,36,,,,,,,1.1,0.6,0.9*31
$GPGSA,A,3,05,06,09,19,20,29,35,39,44,,,,1.1,0.6,0.9*3A
$GPGST,023012.00,6.414,0.818,0.653,0.125,0.818,0.653,1.598*51
$GPGBS,023012.00,3.322,2.265,6.090,06,0.0001,17.560,8.605*68
$GPGRS,023012.00,1,0.6,0.1,-0.9,1.0,-0.1,-1.6,1.0,,,,,*47
$GPGRS,023012.00,1,-2.8,9.0,0.4,-3.9,,,,,,,,*41
$GPGRS,023012.00,1,-0.0,-0.8,0.4,0.1,0.1,0.9,,,,,,*49
$GPGRS,023012.00,1,2.0,17.6,-3.2,-5.1,-0.5,0.5,-5.9,16.6,-3.0,,,*46
$GPGSV,5,1,18,04,80,209,46,06,34,311,43,28,14,037,24,19,28,274,38*71
$GPGSV,5,2,18,02,23,162,38,17,23,243,33,01,28,153,,31,31,059,48*74
$GPGSV,5,3,18,09,50,232,48,03,63,079,46,21,07,155,,26,02,083,*77
$GPGSV,5,4,18,07,01,185,,11,00,320,,36,35,170,40,34,31,208,*74
$GPGSV,5,5,18,49,34,195,36,61,03,257,*76
$GLGSV,3,1,10,70,71,324,39,69,24,054,35,84,13,173,,79,21,063,26*61
$GLGSV,3,2,10,71,32,260,43,86,44,314,50,85,56,213,45,78,10,013,30*6C
$GLGSV,3,3,10,80,09,114,,87,04,338,*62
$GAGSV,3,1,10,09,85,124,47,05,35,226,35,11,31,153,26,18,21,276,*60
$GAGSV,3,2,10,04,35,054,40,34,38,310,49,06,62,062,47,36,75,213,48*62
$GAGSV,3,3,10,10,06,147,,21,02,023,*6C
$GBGSV,5,1,20,48,78,032,,58,14,120,,46,11,136,,39,23,040,30*6E
$GBGSV,5,2,20,22,14,261,35,44,20,317,42,29,25,197,38,05,23,128,36*6B
$GBGSV,5,3,20,16,31,048,32,37,22,084,27,06,32,052,35,09,41,066,37*64
$GBGSV,5,4,20,35,44,268,48,20,57,061,45,19,66,280,37,12,03,333,32*6C
$GBGSV,5,5,20,32,04,075,,02,08,106,,23,10,034,,60,09,110,*6B
$GPGGA,023012.00,,,,,0,00,,,M,,M,,*4A
$PTNL,GGK,023012.00,010125,4742.4464980,N,01617.9734800,E,1,26,1.1,EHT666.9873,M*49
$GPGGQ,023012.00,010125,4742.4464980,N,01617.9734800,E,1,26,1.911,623.7763,M*3E
$GPGFA,023012.00,7.776,13.106,0.818,0.653,0.125,1.598,,VVV*37
$GPLLK,023012.00,010125,,M,,M,1,26,1.3,,M*0F
$GNGMP,023012.00,,,,,DAAA,26,0.6,,,,*56
$GPGMP,023012.00,,,,,,07,,,,2.0,123*7A
$GLGMP,023012.00,,,,,,04,,,,,*79
$GAGMP,023012.00,,,,,,06,,,,,*76
$GBGMP,023012.00,,,,,,09,,,,,*7A
$PSSN,SNC,[0,268230000,2347]*49
$GPZDA,023017.00,01,01,2025,,*64
$GPDTM,W84,,00.0000000,N,00.0000000,E,00.0000000,W84*5F
$GPRMC,023017.00,A,4742.4464933,N,01617.9734645,E,0.0,,010125,5.1,E,D*1B
$GPGLL,4742.4464933,N,01617.9734645,E,023017.00,A,D*6A
$GPGGA,023017.00,4742.4464933,N,01617.9734645,E,2,26,0.6,623.7902,M,43.2111,M,3.0,0123*49
$GNGNS,023017.00,4742.4464933,N,01617.9734645,E,DAAA,26,0.6,623.7902,43.2111,,*56
$GPGNS,023017.00,,,,,,07,,,,3.0,123*7E
$GLGNS,023017.00,,,,,,05,,,,,*7D
$GAGNS,023017.00,,,,,,05,,,,,*70
$GBGNS,023017.00,,,,,,09,,,,,*7F
$GPLLQ,023017.00,010125,,M,,M,1,26,2.097,,M*1E
$GPVTG,,T,,M,0.01,N,0.02,K,D*25
$GPHDT,,T*1B
$GPTHS,,V*0E
$GPROT,,V*08
$PSSN,HRP,023017.00,010125,,,,,,,00,0,,*66
$PTNL,AVR,023017.00,,Yaw,,Tilt,,,,0,,00*30
$GPGSA,A,3,02,03,04,06,09,19,31,,,,,,1.1,0.6,0.9*3D
$GPGSA,A,3,69,70,71,85,86,,,,,,,,1.1,0.6,0.9*30
$GPGSA,A,3,04,06,09,34,36,,,,,,,,1.1,0.6,0.9*34
$GPGSA,A,3,05,06,09,19,20,29,35,39,44,,,,1.1,0.6,0.9*3A
$GPGST,023017.00,8.015,0.902,0.711,0.679,0.902,0.711,1.755*52
$GPGBS,023017.00,3.407,2.279,6.166,39,0.0001,25.847,8.713*6B
$GPGRS,023017.00,1,0.5,0.0,-0.4,0.8,-0.2,-1.3,1.0,,,,,*42
$GPGRS,023017.00,1,-4.5,-2.2,10.0,0.5,-4.7,,,,,,,*7C
$GPGRS,023017.00,1,-0.3,0.3,0.1,-0.2,0.9,,,,,,,*6D
$GPGRS,023017.00,1,1.3,17.8,-2.4,-5.1,-2.8,-2.0,-5.3,25.8,-3.1,,,*6A
$GPGSV,5,1,18,04,80,209,46,06,34,311,44,28,14,037,22,19,28,274,40*7F
$GPGSV,5,2,18,02,23,162,38,17,23,243,34,01,28,153,,31,31,059,49*72
$GPGSV,5,3,18,09,50,232,47,03,63,079,45,21,07,155,,26,02,083,*7B
$GPGSV,5,4,18,07,01,185,,11,00,320,,36,35,170,41,34,31,208,*75
$GPGSV,5,5,18,49,34,195,37,61,03,257,*77
$GLGSV,3,1,10,70,71,324,40,69,24,054,37,84,13,173,,79,21,063,27*6C
$GLGSV,3,2,10,71,32,260,45,86,44,314,49,85,56,213,45,78,10,013,32*60
$GLGSV,3,3,10,80,10,114,,87,04,338,*6A
$GAGSV,3,1,10,09,85,123,46,05,35,226,35,11,31,153,27,18,21,275,*64
$GAGSV,3,2,10,04,35,054,40,34,38,310,49,06,62,062,47,36,75,212,49*62
$GAGSV,3,3,10,10,05,147,,21,02,023,*6F
$GBGSV,5,1,20,48,78,033,,58,15,120,,46,11,136,,39,23,040,37*69
$GBGSV,5,2,20,22,14,261,35,44,20,317,44,29,25,197,36,05,23,128,35*60
$GBGSV,5,3,20,16,31,048,32,37,22,083,29,06,32,052,35,09,41,066,37*6D
$GBGSV,5,4,20,35,44,268,48,20,57,061,47,19,66,280,38,12,03,333,32*61
$GBGSV,5,5,20,32,04,075,,02,08,106,,23,10,034,,60,09,110,*6B
$GPGGA,023017.00,,,,,0,00,,,M,,M,,*4F
$PTNL,GGK,023017.00,010125,4742.4464933,N,01617.9734645,E,1,26,1.1,EHT667.0013,M*4D
$GPGGQ,023017.00,010125,4742.4464933,N,01617.9734645,E,1,26,2.097,623.7902,M*31
$GPGFA,023017.00,8.574,14.393,0.902,0.711,0.679,1.755,,VVV*34
$GPLLK,023017.00,010125,,M,,M,1,26,1.3,,M*0A
$GNGMP,023017.00,,,,,DAAA,26,0.6,,,,*53
$GPGMP,023017.00,,,,,,07,,,,3.0,123*7E
$GLGMP,023017.00,,,,,,05,,,,,*7D
$GAGMP,023017.00,,,,,,05,,,,,*70
$GBGMP,023017.00,,,,,,09,,,,,*7F
$PSSN,SNC,[0,268235000,2347]*4C
$GPZDA,023022.00,01,01,2025,,*62
$GPDTM,W84,,00.0000000,N,00.0000000,E,00.0000000,W84*5F
$GPRMC,023022.00,A,4742.4464861,N,01617.9734613,E,0.0,,010125,5.1,E,D*18
$GPGLL,4742.4464861,N,01617.9734613,E,023022.00,A,D*69
$GPGGA,023022.00,4742.4464861,N,01617.9734613,E,2,25,0.6,623.7977,M,43.2111,M,3.4,0123*4F
$GNGNS,023022.00,4742.4464861,N,01617.9734613,E,DAAA,25,0.6,623.7977,43.2111,,*54
$GPGNS,023022.00,,,,,,07,,,,3.4,123*7C
$GLGNS,023022.00,,,,,,04,,,,,*7A
$GAGNS,023022.00,,,,,,06,,,,,*75
$GBGNS,023022.00,,,,,,08,,,,,*78
$GPLLQ,023022.00,010125,,M,,M,1,25,1.975,,M*1D
$GPVTG,,T,,M,0.00,N,0.01,K,D*27
$GPHDT,,T*1B
$GPTHS,,V*0E
$GPROT,,V*08
$PSSN,HRP,023022.00,010125,,,,,,,00,0,,*60
$PTNL,AVR,023022.00,,Yaw,,Tilt,,,,0,,00*36
$GPGSA,A,3,02,03,04,06,09,19,31,,,,,,1.1,0.6,1.0*35
$GPGSA,A,3,70,71,85,86,,,,,,,,,1.1,0.6,1.0*37
$GPGSA,A,3,04,05,06,09,34,36,,,,,,,1.1,0.6,1.0*39
$GPGSA,A,3,05,09,19,20,29,35,39,44,,,,,1.1,0.6,1.0*34
$GPGST,023022.00,7.247,0.844,0.669,359.805,0.844,0.669,1.656*56
$GPGBS,023022.00,3.482,2.337,6.298,39,0.0001,26.640,8.712*62
$GPGRS,023022.00,1,-0.8,-0.0,-0.7,0.3,-0.0,0.7,1.2,,,,,*69
$GPGRS,023022.00,1,-2.0,10.3,0.2,-5.5,,,,,,,,*7D
$GPGRS,023022.00,1,0.0,-0.1,0.5,0.3,-0.3,1.0,,,,,,*4A
$GPGRS,023022.00,1,1.7,-2.7,-4.4,-4.0,-4.5,-4.4,26.6,-2.2,,,,*7B
$GPGSV,5,1,18,04,80,209,46,06,34,311,44,28,14,037,27,19,28,274,42*78
$GPGSV,5,2,18,02,23,162,39,17,23,243,36,01,28,153,,31,31,059,49*71
$GPGSV,5,3,18,09,50,232,47,03,63,079,45,21,07,155,,26,02,083,*7B
$GPGSV,5,4,18,07,01,185,,11,00,320,,36,35,170,41,34,31,208,*75
$GPGSV,5,5,18,49,34,195,35,61,03,257,*75
$GLGSV,3,1,10,70,71,324,39,69,24,055,35,84,13,173,21,79,21,063,32*66
$GLGSV,3,2,10,71,32,260,44,86,44,314,48,85,56,213,45,78,10,013,26*65
$GLGSV,3,3,10,80,10,114,,87,04,338,*6A
$GAGSV,3,1,10,09,85,123,46,05,35,226,36,11,31,153,28,18,21,275,*68
$GAGSV,3,2,10,04,35,054,39,34,38,310,49,06,62,062,47,36,75,212,49*6C
$GAGSV,3,3,10,10,05,147,,21,02,023,*6F
$GBGSV,5,1,20,48,78,033,,58,15,120,,46,11,136,,39,23,040,36*68
$GBGSV,5,2,20,22,15,261,32,44,20,317,45,29,25,197,36,05,23,128,36*64
$GBGSV,5,3,20,16,31,048,31,37,23,083,30,06,32,052,34,09,41,066,37*66
$GBGSV,5,4,20,35,44,268,49,20,57,061,48,19,66,280,39,12,03,333,31*6D
$GBGSV,5,5,20,32,04,075,,02,08,106,,23,10,034,,60,09,110,*6B
$GPGGA,023022.00,,,,,0,00,,,M,,M,,*49
$PTNL,GGK,023022.00,010125,4742.4464861,N,01617.9734613,E,1,25,1.1,EHT667.0088,M*4F
$GPGGQ,023022.00,010125,4742.4464861,N,01617.9734613,E,1,25,1.975,623.7977,M*35
$GPGFA,023022.00,8.020,13.583,0.844,0.669,359.805,1.656,,VVV*33
$GPLLK,023022.00,010125,,M,,M,1,25,1.3,,M*0F
$GNGMP,023022.00,,,,,DAAA,25,0.6,,,,*56
$GPGMP,023022.00,,,,,,07,,,,3.4,123*7C
$GLGMP,023022.00,,,,,,04,,,,,*7A
$GAGMP,023022.00,,,,,,06,,,,,*75
$GBGMP,023022.00,,,,,,08,,,,,*78
$PSSN,SNC,[0,268240000,2347]*4E
$GPZDA,023027.00,01,01,2025,,*67
$GPDTM,W84,,00.0000000,N,00.0000000,E,00.0000000,W84*5F
$GPRMC,023027.00,A,4742.4464773,N,01617.9734627,E,0.0,,010125,5.1,E,D*16
$GPGLL,4742.4464773,N,01617.9734627,E,023027.00,A,D*67
$GPGGA,023027.00,4742.4464773,N,01617.9734627,E,2,25,0.6,623.8063,M,43.2111,M,1.6,0123*42
$GNGNS,023027.00,4742.4464773,N,01617.9734627,E,DAAA,25,0.6,623.8063,43.2111,,*59
$GPGNS,023027.00,,,,,,07,,,,1.6,123*79
$GLGNS,023027.00,,,,,,05,,,,,*7E
$GAGNS,023027.00,,,,,,06,,,,,*70
$GBGNS,023027.00,,,,,,07,,,,,*72
$GPLLQ,023027.00,010125,,M,,M,1,25,1.795,,M*18
$GPVTG,,T,,M,0.00,N,0.00,K,D*26
$GPHDT,,T*1B
$GPTHS,,V*0E
$GPROT,,V*08
$PSSN,HRP,023027.00,010125,,,,,,,00,0,,*65
$PTNL,AVR,023027.00,,Yaw,,Tilt,,,,0,,00*33
$GPGSA,A,3,02,03,04,06,09,19,31,,,,,,1.1,0.6,1.0*35
$GPGSA,A,3,69,70,71,85,86,,,,,,,,1.1,0.6,1.0*38
$GPGSA,A,3,04,05,06,09,34,36,,,,,,,1.1,0.6,1.0*39
$GPGSA,A,3,05,09,19,20,35,39,44,,,,,,1.1,0.6,1.0*3F
$GPGST,023027.00,7.048,0.768,0.610,358.402,0.768,0.610,1.503*57
$GPGBS,023027.00,3.302,2.188,5.968,39,0.0001,25.257,8.712*68
$GPGRS,023027.00,1,-0.6,0.1,-0.6,0.1,0.3,0.3,0.8,,,,,*6C
$GPGRS,023027.00,1,-2.1,-3.8,11.0,0.6,-6.4,,,,,,,*75
$GPGRS,023027.00,1,-0.2,0.4,0.7,-0.0,-0.5,0.6,,,,,,*65
$GPGRS,023027.00,1,1.0,-3.5,-4.5,-4.9,-3.6,25.3,-1.4,,,,,*76
$GPGSV,5,1,18,04,80,209,47,06,34,311,46,28,14,037,26,19,28,274,43*7B
$GPGSV,5,2,18,02,23,162,40,17,23,243,37,01,28,153,,31,31,059,48*7F
$GPGSV,5,3,18,09,50,232,45,03,63,079,45,21,07,155,,26,02,083,*79
$GPGSV,5,4,18,07,01,185,,11,00,320,,36,35,170,40,34,31,208,*74
$GPGSV,5,5,18,49,34,195,36,61,03,257,*76
$GLGSV,3,1,10,70,71,325,38,69,23,055,35,84,13,173,,79,21,063,34*64
$GLGSV,3,2,10,71,32,260,45,86,44,314,46,85,56,213,45,78,10,013,31*6C
$GLGSV,3,3,10,80,10,114,,87,04,338,*6A
$GAGSV,3,1,10,09,85,123,46,05,35,226,37,11,31,153,30,18,21,275,*60
$GAGSV,3,2,10,04,35,054,39,34,38,310,49,06,62,062,48,36,75,212,49*63
$GAGSV,3,3,10,10,05,147,,21,02,023,*6F
$GBGSV,5,1,20,48,78,033,,58,15,120,,46,11,136,,39,23,040,36*68
$GBGSV,5,2,20,22,15,261,31,44,20,317,45,29,25,197,35,05,23,128,36*64
$GBGSV,5,3,20,16,31,048,33,37,23,083,31,06,32,052,32,09,41,066,38*6C
$GBGSV,5,4,20,35,44,268,49,20,57,061,49,19,66,280,38,12,03,333,31*6D
$GBGSV,5,5,20,32,04,075,,02,08,106,,23,10,034,,60,09,110,*6B
$GPGGA,023027.00,,,,,0,00,,,M,,M,,*4C
$PTNL,GGK,023027.00,010125,4742.4464773,N,01617.9734627,E,1,25,1.1,EHT667.0174,M*43
$GPGGQ,023027.00,010125,4742.4464773,N,01617.9734627,E,1,25,1.795,623.8063,M*38
$GPGFA,023027.00,7.305,12.321,0.768,0.610,358.402,1.503,,VVV*34
$GPLLK,023027.00,010125,,M,,M,1,25,1.3,,M*0A
$GNGMP,023027.00,,,,,DAAA,25,0.6,,,,*53
$GPGMP,023027.00,,,,,,07,,,,1.6,123*79
$GLGMP,023027.00,,,,,,05,,,,,*7E
$GAGMP,023027.00,,,,,,06,,,,,*70
$GBGMP,023027.00,,,,,,07,,,,,*72
$PSSN,SNC,[0,268245000,2347]*4B
$GPZDA,023032.00,01,01,2025,,*63
$GPDTM,W84,,00.0000000,N,00.0000000,E,00.0000000,W84*5F
$GPRMC,023032.00,A,4742.4464754,N,01617.9734632,E,0.0,,010125,5.1,E,D*13
$GPGLL,4742.4464754,N,01617.9734632,E,023032.00,A,D*62
$GPGGA,023032.00,4742.4464754,N,01617.9734632,E,2,23,0.6,623.8124,M,43.2111,M,2.0,0123*46
$GNGNS,023032.00,4742.4464754,N,01617.9734632,E,DAAA,23,0.6,623.8124,43.2111,,*58
$GPGNS,023032.00,,,,,,07,,,,2.0,123*78
$GLGNS,023032.00,,,,,,04,,,,,*7B
$GAGNS,023032.00,,,,,,05,,,,,*77
$GBGNS,023032.00,,,,,,07,,,,,*76
$GPLLQ,023032.00,010125,,M,,M,1,23,1.777,,M*16
$GPVTG,,T,,M,0.01,N,0.01,K,D*26
$GPHDT,,T*1B
$GPTHS,,V*0E
$GPROT,,V*08
$PSSN,HRP,023032.00,010125,,,,,,,00,0,,*61
$PTNL,AVR,023032.00,,Yaw,,Tilt,,,,0,,00*37
$GPGSA,A,3,02,03,04,06,09,19,31,,,,,,1.2,0.6,1.0*36
$GPGSA,A,3,70,71,85,86,,,,,,,,,1.2,0.6,1.0*34
$GPGSA,A,3,04,06,09,34,36,,,,,,,,1.2,0.6,1.0*3F
$GPGSA,A,3,05,09,19,20,35,39,44,,,,,,1.2,0.6,1.0*3C
$GPGST,023032.00,7.188,0.765,0.608,1.211,0.765,0.608,1.484*5B
$GPGBS,023032.00,3.364,2.276,6.090,39,0.0001,23.165,8.713*66
$GPGRS,023032.00,1,-0.4,0.5,-0.6,-0.1,0.1,0.0,0.1,,,,,*4B
$GPGRS,023032.00,1,-3.6,12.6,0.3,-6.7,,,,,,,,*7C
$GPGRS,023032.00,1,-0.0,1.0,-0.1,-0.5,0.4,,,,,,,*4C
$GPGRS,023032.00,1,2.2,-2.9,-4.9,-4.8,-3.0,23.2,-0.9,,,,,*7E
$GPGSV,5,1,18,04,80,209,47,06,34,311,47,28,14,037,,19,28,274,42*7F
$GPGSV,5,2,18,02,23,162,40,17,23,243,36,01,28,153,,31,31,059,46*70
$GPGSV,5,3,18,09,50,232,44,03,63,080,45,21,07,155,,26,02,083,*7E
$GPGSV,5,4,18,07,01,185,,11,00,320,,36,35,170,40,34,31,208,*74
$GPGSV,5,5,18,49,34,195,38,61,03,257,*78
$GLGSV,3,1,10,70,71,325,39,69,23,055,34,84,13,173,23,79,21,063,34*65
$GLGSV,3,2,10,71,32,260,42,86,44,314,46,85,56,213,46,78,10,013,23*6B
$GLGSV,3,3,10,80,10,114,,87,04,338,*6A
$GAGSV,3,1,10,09,85,122,45,05,35,226,34,11,31,153,30,18,21,275,*61
$GAGSV,3,2,10,04,35,054,40,34,38,310,48,06,62,061,49,36,75,212,48*6F
$GAGSV,3,3,10,10,05,147,,21,02,023,*6F
$GBGSV,5,1,20,48,78,033,,58,15,120,,46,11,136,,39,23,040,36*68
$GBGSV,5,2,20,22,15,261,29,44,20,317,45,29,25,197,30,05,23,128,36*68
$GBGSV,5,3,20,16,31,048,33,37,23,083,24,06,32,052,30,09,41,066,37*65
$GBGSV,5,4,20,35,44,268,49,20,57,061,49,19,66,280,39,12,03,333,30*6D
$GBGSV,5,5,20,32,04,075,,02,08,106,,23,10,034,,60,09,110,*6B
$GPGGA,023032.00,,,,,0,00,,,M,,M,,*48
$PTNL,GGK,023032.00,010125,4742.4464754,N,01617.9734632,E,1,23,1.2,EHT667.0235,M*45
$GPGGQ,023032.00,010125,4742.4464754,N,01617.9734632,E,1,23,1.777,623.8124,M*35
$GPGFA,023032.00,7.272,12.172,0.765,0.608,1.211,1.484,,VVV*34
$GPLLK,023032.00,010125,,M,,M,1,23,1.4,,M*0F
$GNGMP,023032.00,,,,,DAAA,23,0.6,,,,*51
$GPGMP,023032.00,,,,,,07,,,,2.0,123*78
$GLGMP,023032.00,,,,,,04,,,,,*7B
$GAGMP,023032.00,,,,,,05,,,,,*77
$GBGMP,023032.00,,,,,,07,,,,,*76
$PSSN,SNC,[0,268250000,2347]*4F
$GPZDA,023037.00,01,01,2025,,*66
$GPDTM,W84,,00.0000000,N,00.0000000,E,00.0000000,W84*5F
$GPRMC,023037.00,A,4742.4464730,N,01617.9734612,E,0.0,,010125,5.1,E,D*16
$GPGLL,4742.4464730,N,01617.9734612,E,023037.00,A,D*67
$GPGGA,023037.00,4742.4464730,N,01617.9734612,E,2,25,0.6,623.8174,M,43.2111,M,3.0,0123*41
$GNGNS,023037.00,4742.4464730,N,01617.9734612,E,DAAA,25,0.6,623.8174,43.2111,,*5E
$GPGNS,023037.00,,,,,,07,,,,3.0,123*7C
$GLGNS,023037.00,,,,,,06,,,,,*7C
$GAGNS,023037.00,,,,,,05,,,,,*72
$GBGNS,023037.00,,,,,,07,,,,,*73
$GPLLQ,023037.00,010125,,M,,M,1,25,1.977,,M*1B
$GPVTG,,T,,M,0.00,N,0.01,K,D*27
$GPHDT,,T*1B
$GPTHS,,V*0E
$GPROT,,V*08
$PSSN,HRP,023037.00,010125,,,,,,,00,0,,*64
$PTNL,AVR,023037.00,,Yaw,,Tilt,,,,0,,00*32
$GPGSA,A,3,02,03,04,06,09,19,31,,,,,,1.1,0.6,1.0*35
$GPGSA,A,3,69,70,71,79,85,86,,,,,,,1.1,0.6,1.0*36
$GPGSA,A,3,04,06,09,34,36,,,,,,,,1.1,0.6,1.0*3C
$GPGSA,A,3,05,09,19,20,35,39,44,,,,,,1.1,0.6,1.0*3F
$GPGST,023037.00,7.802,0.855,0.671,0.891,0.855,0.671,1.651*5C
$GPGBS,023037.00,3.432,2.250,6.125,79,0.0001,17.632,6.293*69
$GPGRS,023037.00,1,-0.8,0.5,-0.3,0.2,0.5,-0.5,-0.2,,,,,*6B
$GPGRS,023037.00,1,-3.8,-3.2,9.4,17.6,-0.3,-7.0,,,,,,*78
$GPGRS,023037.00,1,-0.2,1.1,0.0,-0.5,0.1,,,,,,,*63
$GPGRS,023037.00,1,3.4,-2.7,-4.9,-4.4,-2.7,23.4,-1.2,,,,,*74
$GPGSV,5,1,18,04,80,209,47,06,34,311,47,28,14,037,28,19,28,273,41*71
$GPGSV,5,2,18,02,23,162,42,17,23,243,31,01,27,153,,31,31,058,46*7B
$GPGSV,5,3,18,09,50,232,45,03,63,080,44,21,07,155,,26,02,083,*7E
$GPGSV,5,4,18,07,01,185,,11,00,320,,36,35,170,40,34,31,208,*74
$GPGSV,5,5,18,49,34,195,37,61,03,257,*77
$GLGSV,3,1,10,70,71,325,39,69,23,055,36,84,12,173,23,79,21,063,36*64
$GLGSV,3,2,10,71,32,260,38,86,44,314,45,85,56,213,46,78,10,013,24*62
$GLGSV,3,3,10,80,10,114,,87,04,338,*6A
$GAGSV,3,1,10,09,85,122,46,05,35,226,33,11,31,153,32,18,21,275,*67
$GAGSV,3,2,10,04,35,054,39,34,38,310,48,06,62,061,49,36,75,212,48*61
$GAGSV,3,3,10,10,05,147,,21,02,023,*6F
$GBGSV,5,1,20,48,78,033,,58,15,120,,46,11,136,,39,23,040,35*6B
$GBGSV,5,2,20,22,15,261,34,44,20,317,45,29,25,197,27,05,23,128,37*63
$GBGSV,5,3,20,16,31,048,32,37,23,083,,06,32,052,30,09,41,066,36*63
$GBGSV,5,4,20,35,44,268,49,20,57,061,50,19,67,280,40,12,04,333,28*64
$GBGSV,5,5,20,32,04,075,,02,08,106,,23,10,034,,60,09,110,*6B
$GPGGA,023037.00,,,,,0,00,,,M,,M,,*4D
$PTNL,GGK,023037.00,010125,4742.4464730,N,01617.9734612,E,1,25,1.1,EHT667.0285,M*4E
$GPGGQ,023037.00,010125,4742.4464730,N,01617.9734612,E,1,25,1.977,623.8174,M*3D
$GPGFA,023037.00,8.126,13.542,0.855,0.671,0.891,1.651,,VVV*31
$GPLLK,023037.00,010125,,M,,M,1,25,1.3,,M*0B
$GNGMP,023037.00,,,,,DAAA,25,0.6,,,,*52
$GPGMP,023037.00,,,,,,07,,,,3.0,123*7C
$GLGMP,023037.00,,,,,,06,,,,,*7C
$GAGMP,023037.00,,,,,,05,,,,,*72
$GBGMP,023037.00,,,,,,07,,,,,*73
$PSSN,SNC,[0,268255000,2347]*4A
$GPZDA,023042.00,01,01,2025,,*64
$GPDTM,W84,,00.0000000,N,00.0000000,E,00.0000000,W84*5F
$GPRMC,023042.00,A,4742.4464724,N,01617.9734586,E,0.0,,010125,5.1,E,D*1F
$GPGLL,4742.4464724,N,01617.9734586,E,023042.00,A,D*6E
$GPGGA,023042.00,4742.4464724,N,01617.9734586,E,2,24,0.6,623.8089,M,43.2111,M,3.4,0123*4E
$GNGNS,023042.00,4742.4464724,N,01617.9734586,E,DAAA,24,0.6,623.8089,43.2111,,*55
$GPGNS,023042.00,,,,,,07,,,,3.4,123*7A
$GLGNS,023042.00,,,,,,05,,,,,*7D
$GAGNS,023042.00,,,,,,05,,,,,*70
$GBGNS,023042.00,,,,,,07,,,,,*71
$GPLLQ,023042.00,010125,,M,,M,1,24,2.094,,M*1F
$GPVTG,,T,,M,0.00,N,0.00,K,D*26
$GPHDT,,T*1B
$GPTHS,,V*0E
$GPROT,,V*08
$PSSN,HRP,023042.00,010125,,,,,,,00,0,,*66
$PTNL,AVR,023042.00,,Yaw,,Tilt,,,,0,,00*30
$GPGSA,A,3,02,03,04,06,09,19,31,,,,,,1.2,0.6,1.0*36
$GPGSA,A,3,69,70,79,85,86,,,,,,,,1.2,0.6,1.0*33
$GPGSA,A,3,04,06,09,34,36,,,,,,,,1.2,0.6,1.0*3F
$GPGSA,A,3,05,09,19,20,35,39,44,,,,,,1.2,0.6,1.0*3C
$GPGST,023042.00,7.611,0.903,0.709,359.928,0.903,0.709,1.751*5F
$GPGBS,023042.00,3.539,2.285,6.218,39,0.0001,26.098,8.712*66
$GPGRS,023042.00,1,-0.9,0.4,-0.1,-0.7,1.0,-0.6,0.6,,,,,*6D
$GPGRS,023042.00,1,-1.6,-3.2,13.2,-1.0,-6.6,,,,,,,*50
$GPGRS,023042.00,1,0.2,0.8,0.4,-0.4,0.1,,,,,,,*41
$GPGRS,023042.00,1,4.1,-2.6,-4.3,-4.2,-2.4,26.1,-1.1,,,,,*79
$GPGSV,5,1,18,04,80,209,47,06,34,311,47,28,14,037,,19,28,273,42*78
$GPGSV,5,2,18,02,23,162,41,17,23,243,34,01,27,153,,31,31,058,45*7E
$GPGSV,5,3,18,09,50,232,47,03,63,080,42,21,07,155,,26,02,083,*7A
$GPGSV,5,4,18,07,01,185,,11,00,320,,36,35,170,40,34,31,208,*74
$GPGSV,5,5,18,49,34,195,35,61,03,257,*75
$GLGSV,3,1,10,70,71,325,39,69,23,055,38,84,12,173,26,79,21,063,36*6F
$GLGSV,3,2,10,71,33,260,30,86,44,314,46,85,56,213,46,78,10,013,20*6C
$GLGSV,3,3,10,80,10,114,,87,04,338,*6A
$GAGSV,3,1,10,09,85,122,45,05,35,226,34,11,31,153,33,18,21,275,*62
$GAGSV,3,2,10,04,35,054,40,34,38,310,48,06,62,061,49,36,75,212,47*60
$GAGSV,3,3,10,10,05,147,,21,02,023,*6F
$GBGSV,5,1,20,48,78,033,,58,15,120,,46,11,136,,39,23,040,37*69
$GBGSV,5,2,20,22,15,261,32,44,20,317,45,29,25,197,24,05,23,128,36*67
$GBGSV,5,3,20,16,31,048,32,37,23,083,,06,32,052,29,09,41,066,36*6B
$GBGSV,5,4,20,35,44,268,50,20,57,062,49,19,67,280,42,12,04,333,29*64
$GBGSV,5,5,20,32,04,075,,02,08,106,,23,10,034,,60,09,110,*6B
$GPGGA,023042.00,,,,,0,00,,,M,,M,,*4F
$PTNL,GGK,023042.00,010125,4742.4464724,N,01617.9734586,E,1,24,1.2,EHT667.0200,M*48
$GPGGQ,023042.00,010125,4742.4464724,N,01617.9734586,E,1,24,2.094,623.8089,M*31
$GPGFA,023042.00,8.581,14.358,0.903,0.709,359.928,1.751,,VVV*31
$GPLLK,023042.00,010125,,M,,M,1,24,1.4,,M*0F
$GNGMP,023042.00,,,,,DAAA,24,0.6,,,,*51
$GPGMP,023042.00,,,,,,07,,,,3.4,123*7A
$GLGMP,023042.00,,,,,,05,,,,,*7D
$GAGMP,023042.00,,,,,,05,,,,,*70
$GBGMP,023042.00,,,,,,07,,,,,*71
$PSSN,SNC,[0,268260000,2347]*4C
$GPZDA,023047.00,01,01,2025,,*61
$GPDTM,W84,,00.0000000,N,00.0000000,E,00.0000000,W84*5F
$GPRMC,023047.00,A,4742.4464753,N,01617.9734526,E,0.0,,010125,5.1,E,D*10
$GPGLL,4742.4464753,N,01617.9734526,E,023047.00,A,D*61
$GPGGA,023047.00,4742.4464753,N,01617.9734526,E,2,24,0.6,623.8039,M,43.2111,M,1.6,0123*4A
$GNGNS,023047.00,4742.4464753,N,01617.9734526,E,DAAA,24,0.6,623.8039,43.2111,,*51
$GPGNS,023047.00,,,,,,07,,,,1.6,123*7F
$GLGNS,023047.00,,,,,,04,,,,,*79
$GAGNS,023047.00,,,,,,06,,,,,*76
$GBGNS,023047.00,,,,,,07,,,,,*74
$GPLLQ,023047.00,010125,,M,,M,1,24,2.082,,M*1D
$GPVTG,,T,,M,0.00,N,0.01,K,D*27
$GPHDT,,T*1B
$GPTHS,,V*0E
$GPROT,,V*08
$PSSN,HRP,023047.00,010125,,,,,,,00,0,,*63
$PTNL,AVR,023047.00,,Yaw,,Tilt,,,,0,,00*35
$GPGSA,A,3,02,03,04,06,09,19,31,,,,,,1.2,0.6,1.0*36
$GPGSA,A,3,69,70,85,86,,,,,,,,,1.2,0.6,1.0*3D
$GPGSA,A,3,04,05,06,09,34,36,,,,,,,1.2,0.6,1.0*3A
$GPGSA,A,3,05,09,19,20,35,39,44,,,,,,1.2,0.6,1.0*3C
$GPGST,023047.00,7.220,0.894,0.707,358.892,0.894,0.707,1.742*5F
$GPGBS,023047.00,3.305,2.190,5.965,39,0.0001,27.775,8.713*6B
$GPGRS,023047.00,1,-0.6,-0.3,0.1,-1.5,1.1,-0.3,1.3,,,,,*63
$GPGRS,023047.00,1,0.5,-3.1,-1.7,-5.6,,,,,,,,*63
$GPGRS,023047.00,1,-0.1,0.2,0.7,0.4,-0.4,-0.1,,,,,,*64
$GPGRS,023047.00,1,1.6,-4.4,-4.4,-3.5,-2.7,27.8,-2.1,,,,,*75
$GPGSV,5,1,18,04,80,209,48,06,34,311,45,28,14,037,25,19,28,273,43*73
$GPGSV,5,2,18,02,23,162,41,17,23,243,28,01,27,153,,31,31,058,46*70
$GPGSV,5,3,18,09,50,232,47,03,63,080,42,21,07,155,20,26,02,083,*78
$GPGSV,5,4,18,07,01,185,,11,01,320,,36,35,170,38,34,31,208,*7A
$GPGSV,5,5,18,49,34,195,32,61,03,257,*72
$GLGSV,3,1,10,70,71,325,38,69,23,055,38,84,12,173,24,79,21,063,35*6F
$GLGSV,3,2,10,71,33,260,32,86,44,313,47,85,56,213,46,78,09,013,27*67
$GLGSV,3,3,10,80,10,114,,87,04,338,*6A
$GAGSV,3,1,10,09,85,121,45,05,35,226,35,11,31,153,34,18,21,275,*67
$GAGSV,3,2,10,04,35,054,39,34,38,310,47,06,61,061,49,36,75,212,48*6D
$GAGSV,3,3,10,10,05,147,,21,02,023,*6F
$GBGSV,5,1,20,48,78,033,,58,15,120,,46,11,136,,39,23,040,36*68
$GBGSV,5,2,20,22,15,261,31,44,20,317,45,29,25,197,27,05,23,128,36*67
$GBGSV,5,3,20,16,31,048,32,37,23,083,,06,32,052,28,09,41,066,37*6B
$GBGSV,5,4,20,35,44,268,51,20,57,062,49,19,67,280,42,12,04,333,*6E
$GBGSV,5,5,20,32,04,075,,02,08,106,,23,10,034,,60,09,110,*6B
$GPGGA,023047.00,,,,,0,00,,,M,,M,,*4A
$PTNL,GGK,023047.00,010125,4742.4464753,N,01617.9734526,E,1,24,1.2,EHT667.0149,M*49
$GPGGQ,023047.00,010125,4742.4464753,N,01617.9734526,E,1,24,2.082,623.8039,M*32
$GPGFA,023047.00,8.505,14.286,0.894,0.707,358.892,1.742,,VVV*38
$GPLLK,023047.00,010125,,M,,M,1,24,1.4,,M*0A
$GNGMP,023047.00,,,,,DAAA,24,0.6,,,,*54
$GPGMP,023047.00,,,,,,07,,,,1.6,123*7F
$GLGMP,023047.00,,,,,,04,,,,,*79
$GAGMP,023047.00,,,,,,06,,,,,*76
$GBGMP,023047.00,,,,,,07,,,,,*74
$PSSN,SNC,[0,268265000,2347]*49
$GPZDA,023052.00,01,01,2025,,*65
$GPDTM,W84,,00.0000000,N,00.0000000,E,00.0000000,W84*5F
$GPRMC,023052.00,A,4742.4464763,N,01617.9734490,E,0.0,,010125,5.1,E,D*1B
$GPGLL,4742.4464763,N,01617.9734490,E,023052.00,A,D*6A
$GPGGA,023052.00,4742.4464763,N,01617.9734490,E,2,23,0.6,623.8026,M,43.2111,M,2.0,0123*4D
$GNGNS,023052.00,4742.4464763,N,01617.9734490,E,DAAA,23,0.6,623.8026,43.2111,,*53
$GPGNS,023052.00,,,,,,07,,,,2.0,123*7E
$GLGNS,023052.00,,,,,,04,,,,,*7D
$GAGNS,023052.00,,,,,,06,,,,,*72
$GBGNS,023052.00,,,,,,06,,,,,*71
$GPLLQ,023052.00,010125,,M,,M,1,23,1.439,,M*19
$GPVTG,,T,,M,0.01,N,0.01,K,D*26
$GPHDT,,T*1B
$GPTHS,,V*0E
$GPROT,,V*08
$PSSN,HRP,023052.00,010125,,,,,,,00,0,,*67
$PTNL,AVR,023052.00,,Yaw,,Tilt,,,,0,,00*31
$GPGSA,A,3,02,03,04,06,09,19,31,,,,,,1.2,0.6,1.0*36
$GPGSA,A,3,69,70,85,86,,,,,,,,,1.2,0.6,1.0*3D
$GPGSA,A,3,04,05,06,09,34,36,,,,,,,1.2,0.6,1.0*3A
$GPGSA,A,3,05,09,19,20,35,44,,,,,,,1.2,0.6,1.0*36
$GPGST,023052.00,2.847,0.621,0.493,0.411,0.621,0.493,1.201*5E
$GPGBS,023052.00,3.355,2.239,6.054,06,0.0001,-1.205,0.791*77
$GPGRS,023052.00,1,-0.9,-0.2,0.2,-1.2,0.8,0.1,1.2,,,,,*4B
$GPGRS,023052.00,1,2.5,-3.6,-1.5,-5.3,,,,,,,,*65
$GPGRS,023052.00,1,-0.2,-0.3,0.9,0.4,-0.5,-0.0,,,,,,*41
$GPGRS,023052.00,1,1.8,-3.1,-5.8,-3.3,-3.0,-3.0,,,,,,*63
$GPGSV,5,1,18,04,81,209,48,06,34,311,45,28,14,037,28,19,28,273,44*78
$GPGSV,5,2,18,02,23,162,41,17,23,243,29,01,27,153,,31,31,058,46*71
$GPGSV,5,3,18,09,50,232,47,03,63,080,41,21,07,155,,26,02,083,*79
$GPGSV,5,4,18,07,01,185,,11,01,320,,36,35,170,39,34,31,208,*7B
$GPGSV,5,5,18,49,34,195,34,61,03,257,*74
$GLGSV,3,1,10,70,71,325,39,69,23,055,38,84,12,173,24,79,21,063,32*69
$GLGSV,3,2,10,71,33,260,30,86,44,313,48,85,56,213,46,78,09,013,32*6E
$GLGSV,3,3,10,80,10,114,,87,04,338,*6A
$GAGSV,3,1,10,09,85,121,44,05,35,226,35,11,31,153,35,18,21,275,*67
$GAGSV,3,2,10,04,35,054,39,34,38,310,48,06,61,061,50,36,75,212,48*6A
$GAGSV,3,3,10,10,05,147,,21,02,022,*6E
$GBGSV,5,1,20,48,78,033,,58,15,120,,46,11,136,,39,23,040,35*6B
$GBGSV,5,2,20,22,15,261,34,44,20,317,44,29,25,197,30,05,23,128,37*64
$GBGSV,5,3,20,16,31,048,34,37,23,083,,06,32,051,30,09,41,066,37*67
$GBGSV,5,4,20,35,44,268,52,20,57,062,50,19,67,280,42,12,04,333,32*64
$GBGSV,5,5,20,32,04,075,,02,08,106,,23,10,034,,60,09,110,*6B
$GPGGA,023052.00,,,,,0,00,,,M,,M,,*4E
$PTNL,GGK,023052.00,010125,4742.4464763,N,01617.9734490,E,1,23,1.2,EHT667.0137,M*4C
$GPGGQ,023052.00,010125,4742.4464763,N,01617.9734490,E,1,23,1.439,623.8026,M*37
$GPGFA,023052.00,5.902,9.849,0.621,0.493,0.411,1.201,,VVV*0A
$GPLLK,023052.00,010125,,M,,M,1,23,1.4,,M*09
$GNGMP,023052.00,,,,,DAAA,23,0.6,,,,*57
$GPGMP,023052.00,,,,,,07,,,,2.0,123*7E
$GLGMP,023052.00,,,,,,04,,,,,*7D
$GAGMP,023052.00,,,,,,06,,,,,*72
$GBGMP,023052.00,,,,,,06,,,,,*71
$PSSN,SNC,[0,268270000,2347]*4D
$GPZDA,023057.00,01,01,2025,,*60
$GPDTM,W84,,00.0000000,N,00.0000000,E,00.0000000,W84*5F
$GPRMC,023057.00,A,4742.4464789,N,01617.9734440,E,0.0,,010125,5.1,E,D*17
$GPGLL,4742.4464789,N,01617.9734440,E,023057.00,A,D*66
$GPGGA,023057.00,4742.4464789,N,01617.9734440,E,2,25,0.6,623.7990,M,43.2111,M,3.0,0123*4D
$GNGNS,023057.00,4742.4464789,N,01617.9734440,E,DAAA,25,0.6,623.7990,43.2111,,*52
$GPGNS,023057.00,,,,,,07,,,,3.0,123*7A
$GLGNS,023057.00,,,,,,05,,,,,*79
$GAGNS,023057.00,,,,,,06,,,,,*77
$GBGNS,023057.00,,,,,,07,,,,,*75
$GPLLQ,023057.00,010125,,M,,M,1,25,1.413,,M*12
$GPVTG,,T,,M,0.00,N,0.01,K,D*27
$GPHDT,,T*1B
$GPTHS,,V*0E
$GPROT,,V*08
$PSSN,HRP,023057.00,010125,,,,,,,00,0,,*62
$PTNL,AVR,023057.00,,Yaw,,Tilt,,,,0,,00*34
$GPGSA,A,3,02,03,04,06,09,19,31,,,,,,1.1,0.6,1.0*35
$GPGSA,A,3,69,70,71,85,86,,,,,,,,1.1,0.6,1.0*38
$GPGSA,A,3,04,06,09,11,34,36,,,,,,,1.1,0.6,1.0*3C
$GPGSA,A,3,05,06,09,19,20,35,44,,,,,,1.1,0.6,1.0*33
$GPGST,023057.00,2.671,0.610,0.482,1.517,0.610,0.482,1.180*5C
$GPGBS,023057.00,3.379,2.279,6.147,03,0.0001,-1.111,0.652*76
$GPGRS,023057.00,1,0.0,-1.1,0.4,-0.8,0.5,0.0,1.2,,,,,*69
$GPGRS,023057.00,1,0.9,-3.1,-1.6,-1.7,-4.3,,,,,,,*6E
$GPGRS,023057.00,1,-1.0,1.2,0.1,1.0,-0.3,0.0,,,,,,*4C
$GPGRS,023057.00,1,2.1,-3.7,-2.7,-5.6,-3.1,-2.8,-3.4,,,,,*6D
$GPGSV,5,1,18,04,81,209,48,06,34,311,45,28,14,037,,19,28,273,45*73
$GPGSV,5,2,18,02,23,162,41,17,23,243,24,01,27,153,,31,31,058,45*7F
$GPGSV,5,3,18,09,50,232,47,03,63,080,41,21,07,155,,26,02,083,*79
$GPGSV,5,4,18,07,01,185,,11,01,320,,36,35,170,39,34,31,208,*7B
$GPGSV,5,5,18,49,34,195,34,61,03,257,*74
$GLGSV,3,1,10,70,71,325,39,69,23,055,37,84,12,173,25,79,21,063,29*6D
$GLGSV,3,2,10,71,33,260,35,86,44,313,49,85,56,213,46,78,09,013,33*6B
$GLGSV,3,3,10,80,10,114,,87,04,338,*6A
$GAGSV,3,1,10,09,85,121,44,05,35,226,35,11,31,153,36,18,21,275,*64
$GAGSV,3,2,10,04,35,054,38,34,38,310,47,06,61,061,49,36,75,212,48*6C
$GAGSV,3,3,10,10,05,147,,21,02,022,*6E
$GBGSV,5,1,20,48,78,033,,58,15,120,,46,11,136,,39,23,040,33*6D
$GBGSV,5,2,20,22,15,261,35,44,20,317,43,29,25,197,31,05,23,128,37*63
$GBGSV,5,3,20,16,31,048,32,37,23,083,28,06,32,051,35,09,41,066,37*6E
$GBGSV,5,4,20,35,44,268,51,20,57,062,50,19,67,280,43,12,04,333,33*67
$GBGSV,5,5,20,32,04,075,,02,08,106,,23,10,034,,60,09,110,*6B
$GPGGA,023057.00,,,,,0,00,,,M,,M,,*4B
$PTNL,GGK,023057.00,010125,4742.4464789,N,01617.9734440,E,1,25,1.1,EHT667.0100,M*41
$GPGGQ,023057.00,010125,4742.4464789,N,01617.9734440,E,1,25,1.413,623.7990,M*3E
$GPGFA,023057.00,5.797,9.675,0.610,0.482,1.517,1.180,,VVV*02
$GPLLK,023057.00,010125,,M,,M,1,25,1.3,,M*0D
$GNGMP,023057.00,,,,,DAAA,25,0.6,,,,*54
$GPGMP,023057.00,,,,,,07,,,,3.0,123*7A
$GLGMP,023057.00,,,,,,05,,,,,*79
$GAGMP,023057.00,,,,,,06,,,,,*77
$GBGMP,023057.00,,,,,,07,,,,,*75
$PSSN,SNC,[0,268275000,2347]*48
$GPZDA,023102.00,01,01,2025,,*61
$GPDTM,W84,,00.0000000,N,00.0000000,E,00.0000000,W84*5F
$GPRMC,023102.00,A,4742.4464810,N,01617.9734496,E,0.0,,010125,5.1,E,D*12
$GPGLL,4742.4464810,N,01617.9734496,E,023102.00,A,D*63
$GPGGA,023102.00,4742.4464810,N,01617.9734496,E,2,26,0.6,623.8069,M,43.2111,M,3.4,0123*4F
$GNGNS,023102.00,4742.4464810,N,01617.9734496,E,DAAA,26,0.6,623.8069,43.2111,,*54
$GPGNS,023102.00,,,,,,07,,,,3.4,123*7F
$GLGNS,023102.00,,,,,,04,,,,,*79
$GAGNS,023102.00,,,,,,07,,,,,*77
$GBGNS,023102.00,,,,,,08,,,,,*7B
$GPLLQ,023102.00,010125,,M,,M,1,26,1.287,,M*1B
$GPVTG,,T,,M,0.01,N,0.01,K,D*26
$GPHDT,,T*1B
$GPTHS,,V*0E
$GPROT,,V*08
$PSSN,HRP,023102.00,010125,,,,,,,00,0,,*63
$PTNL,AVR,023102.00,,Yaw,,Tilt,,,,0,,00*35
$GPGSA,A,3,02,03,04,06,09,19,31,,,,,,1.1,0.6,0.9*3D
$GPGSA,A,3,70,71,85,86,,,,,,,,,1.1,0.6,0.9*3F
$GPGSA,A,3,04,05,06,09,11,34,36,,,,,,1.1,0.6,0.9*31
$GPGSA,A,3,05,06,09,19,20,22,35,44,,,,,1.1,0.6,0.9*3B
$GPGST,023102.00,2.408,0.552,0.437,0.566,0.552,0.437,1.077*5F
$GPGBS,023102.00,3.457,2.328,6.276,03,0.0001,-1.319,0.675*77
$GPGRS,023102.00,1,-0.1,-1.3,0.3,-0.0,0.7,-0.3,0.7,,,,,*61
$GPGRS,023102.00,1,-2.3,-1.0,-1.5,-3.0,,,,,,,,*4B
$GPGRS,023102.00,1,-0.4,0.6,0.9,0.8,0.9,-0.1,0.0,,,,,*69
$GPGRS,023102.00,1,3.5,-4.3,-2.7,-4.4,-2.8,0.8,-3.2,-3.4,,,,*4C
$GPGSV,5,1,18,04,81,209,48,06,34,311,45,28,14,037,,19,28,273,45*73
$GPGSV,5,2,18,02,23,162,40,17,23,243,25,01,27,153,,31,31,058,43*79
$GPGSV,5,3,18,09,50,232,48,03,63,080,38,21,07,155,,26,02,083,*78
$GPGSV,5,4,18,07,01,185,,11,01,320,,36,35,170,40,34,31,208,*75
$GPGSV,5,5,18,49,34,195,36,61,03,257,*76
$GLGSV,3,1,10,70,71,326,39,69,23,055,32,84,12,173,23,79,21,063,34*61
$GLGSV,3,2,10,71,33,260,38,86,44,313,50,85,56,213,46,78,09,013,34*69
$GLGSV,3,3,10,80,10,114,,87,04,338,*6A
$GAGSV,3,1,10,09,85,120,44,05,35,226,35,11,31,153,37,18,21,275,*64
$GAGSV,3,2,10,04,35,055,37,34,38,310,48,06,61,061,49,36,75,212,48*6D
$GAGSV,3,3,10,10,05,147,,21,02,022,*6E
$GBGSV,5,1,20,48,78,034,,58,15,120,,46,11,136,,39,23,040,31*68
$GBGSV,5,2,20,22,15,261,36,44,20,317,43,29,25,197,31,05,23,128,38*6F
$GBGSV,5,3,20,16,31,048,32,37,23,083,,06,32,051,36,09,41,066,38*68
$GBGSV,5,4,20,35,44,267,51,20,57,062,50,19,67,280,44,12,04,333,32*6E
$GBGSV,5,5,20,32,04,075,,02,08,106,,23,10,034,,60,09,110,*6B
$GPGGA,023102.00,,,,,0,00,,,M,,M,,*4A
$PTNL,GGK,023102.00,010125,4742.4464810,N,01617.9734496,E,1,26,1.1,EHT667.0180,M*4F
$GPGGQ,023102.00,010125,4742.4464810,N,01617.9734496,E,1,26,1.287,623.8069,M*33
$GPGFA,023102.00,5.251,8.834,0.552,0.437,0.566,1.077,,VVV*03
$GPLLK,023102.00,010125,,M,,M,1,26,1.3,,M*0F
$GNGMP,023102.00,,,,,DAAA,26,0.6,,,,*56
$GPGMP,023102.00,,,,,,07,,,,3.4,123*7F
$GLGMP,023102.00,,,,,,04,,,,,*79
$GAGMP,023102.00,,,,,,07,,,,,*77
$GBGMP,023102.00,,,,,,08,,,,,*7B
$PSSN,SNC,[0,268280000,2347]*42
$GPZDA,023107.00,01,01,2025,,*64
$GPDTM,W84,,00.0000000,N,00.0000000,E,00.0000000,W84*5F
$GPRMC,023107.00,A,4742.4464862,N,01617.9734546,E,0.0,,010125,5.1,E,D*1E
$GPGLL,4742.4464862,N,01617.9734546,E,023107.00,A,D*6F
$GPGGA,023107.00,4742.4464862,N,01617.9734546,E,2,25,0.6,623.8079,M,43.2111,M,1.6,0123*41
$GNGNS,023107.00,4742.4464862,N,01617.9734546,E,DAAA,25,0.6,623.8079,43.2111,,*5A
$GPGNS,023107.00,,,,,,07,,,,1.6,123*7A
$GLGNS,023107.00,,,,,,04,,,,,*7C
$GAGNS,023107.00,,,,,,07,,,,,*72
$GBGNS,023107.00,,,,,,07,,,,,*71
$GPLLQ,023107.00,010125,,M,,M,1,25,1.899,,M*18
$GPVTG,,T,,M,0.00,N,0.01,K,D*27
$GPHDT,,T*1B
$GPTHS,,V*0E
$GPROT,,V*08
$PSSN,HRP,023107.00,010125,,,,,,,00,0,,*66
$PTNL,AVR,023107.00,,Yaw,,Tilt,,,,0,,00*30
$GPGSA,A,3,02,03,04,06,09,19,31,,,,,,1.1,0.6,0.9*3D
$GPGSA,A,3,70,71,85,86,,,,,,,,,1.1,0.6,0.9*3F
$GPGSA,A,3,04,05,06,09,11,34,36,,,,,,1.1,0.6,0.9*31
$GPGSA,A,3,05,09,19,20,22,35,44,,,,,,1.1,0.6,0.9*3D
$GPGST,023107.00,2.231,0.815,0.647,0.150,0.815,0.647,1.589*53
$GPGBS,023107.00,3.258,2.241,6.026,03,0.0001,-1.981,0.634*7C
$GPGRS,023107.00,1,0.2,-2.0,0.5,-0.1,1.4,-1.0,0.8,,,,,*42
$GPGRS,023107.00,1,-2.6,2.4,-0.5,-2.4,,,,,,,,*65
$GPGRS,023107.00,1,-0.2,0.8,0.8,1.2,2.0,0.2,0.4,,,,,*4F
$GPGRS,023107.00,1,4.6,-1.4,-3.5,-2.5,-0.4,-3.3,-2.1,,,,,*66
$GPGSV,5,1,18,04,81,209,48,06,34,311,45,28,14,037,22,19,28,273,44*72
$GPGSV,5,2,18,02,23,162,39,17,23,243,25,01,27,153,,31,31,058,40*74
$GPGSV,5,3,18,09,50,232,48,03,63,080,36,21,07,155,,26,02,083,*76
$GPGSV,5,4,18,07,01,185,,11,01,320,,36,35,170,41,34,31,208,*74
$GPGSV,5,5,18,49,34,195,36,61,03,257,*76
$GLGSV,3,1,10,70,71,326,37,69,23,055,32,84,12,173,25,79,21,063,31*6C
$GLGSV,3,2,10,71,33,260,40,86,44,313,51,85,56,213,45,78,09,013,33*63
$GLGSV,3,3,10,80,10,114,,87,04,338,*6A
$GAGSV,3,1,10,09,85,120,44,05,35,226,36,11,31,153,36,18,21,275,*66
$GAGSV,3,2,10,04,35,055,37,34,39,310,48,06,61,061,49,36,75,212,48*6C
$GAGSV,3,3,10,10,05,147,,21,02,022,*6E
$GBGSV,5,1,20,48,78,034,,58,15,120,,46,11,136,,39,23,040,31*68
$GBGSV,5,2,20,22,15,261,37,44,20,317,42,29,25,197,29,05,23,128,38*66
$GBGSV,5,3,20,16,31,048,33,37,23,083,30,06,32,051,35,09,41,066,38*69
$GBGSV,5,4,20,35,44,267,51,20,57,062,51,19,67,280,44,12,04,333,33*6E
$GBGSV,5,5,20,32,04,075,,02,08,106,,23,10,034,,60,09,110,*6B
$GPGGA,023107.00,,,,,0,00,,,M,,M,,*4F
$PTNL,GGK,023107.00,010125,4742.4464862,N,01617.9734546,E,1,25,1.1,EHT667.0189,M*49
$GPGGQ,023107.00,010125,4742.4464862,N,01617.9734546,E,1,25,1.899,623.8079,M*38
$GPGFA,023107.00,7.748,13.026,0.815,0.647,0.150,1.589,,VVV*36
$GPLLK,023107.00,010125,,M,,M,1,25,1.3,,M*09
$GNGMP,023107.00,,,,,DAAA,25,0.6,,,,*50
$GPGMP,023107.00,,,,,,07,,,,1.6,123*7A
$GLGMP,023107.00,,,,,,04,,,,,*7C
$GAGMP,023107.00,,,,,,07,,,,,*72
$GBGMP,023107.00,,,,,,07,,,,,*71
$PSSN,SNC,[0,268285000,2347]*47
$GPZDA,023112.00,01,01,2025,,*60
$GPDTM,W84,,00.0000000,N,00.0000000,E,00.0000000,W84*5F
$GPRMC,023112.00,A,4742.4464956,N,01617.9734592,E,0.0,,010125,5.1,E,D*15
$GPGLL,4742.4464956,N,01617.9734592,E,023112.00,A,D*64
$GPGGA,023112.00,4742.4464956,N,01617.9734592,E,2,25,0.6,623.8071,M,43.2111,M,2.0,0123*47
$GNGNS,023112.00,4742.4464956,N,01617.9734592,E,DAAA,25,0.6,623.8071,43.2111,,*59
$GPGNS,023112.00,,,,,,06,,,,2.0,123*7A
$GLGNS,023112.00,,,,,,04,,,,,*78
$GAGNS,023112.00,,,,,,07,,,,,*76
$GBGNS,023112.00,,,,,,08,,,,,*7A
$GPLLQ,023112.00,010125,,M,,M,1,25,1.622,,M*12
$GPVTG,,T,,M,0.00,N,0.00,K,D*26
$GPHDT,,T*1B
$GPTHS,,V*0E
$GPROT,,V*08
$PSSN,HRP,023112.00,010125,,,,,,,00,0,,*62
$PTNL,AVR,023112.00,,Yaw,,Tilt,,,,0,,00*34
$GPGSA,A,3,02,04,06,09,19,31,,,,,,,1.1,0.6,0.9*3E
$GPGSA,A,3,70,71,85,86,,,,,,,,,1.1,0.6,0.9*3F
$GPGSA,A,3,04,05,06,09,11,34,36,,,,,,1.1,0.6,0.9*31
$GPGSA,A,3,05,06,09,19,20,22,35,44,,,,,1.1,0.6,0.9*3B
$GPGST,023112.00,2.807,0.677,0.580,20.907,0.665,0.593,1.356*65
$GPGBS,023112.00,3.308,3.244,8.091,19,0.0001,-1.410,0.796*7D
$GPGRS,023112.00,1,1.0,0.4,0.1,0.8,-1.4,-1.5,,,,,,*40
$GPGRS,023112.00,1,-4.3,6.0,-0.2,-2.6,,,,,,,,*67
$GPGRS,023112.00,1,-0.4,0.7,0.2,0.7,0.0,-0.2,0.1,,,,,*66
$GPGRS,023112.00,1,3.5,-5.0,-2.0,-2.4,-3.1,-1.4,-3.1,-2.3,,,,*63
$GPGSV,5,1,18,04,81,209,49,06,35,311,44,28,14,037,25,19,28,273,43*73
$GPGSV,5,2,18,02,23,162,39,17,23,243,,01,27,153,,31,31,058,36*72
$GPGSV,5,3,18,09,50,232,47,03,63,080,35,21,07,155,,26,02,083,*7A
$GPGSV,5,4,18,07,01,185,,11,01,320,,36,35,170,41,34,31,208,*74
$GPGSV,5,5,18,49,34,195,35,61,03,257,*75
$GLGSV,3,1,10,70,71,326,36,69,23,055,31,84,12,173,23,79,21,063,28*60
$GLGSV,3,2,10,71,33,260,41,86,44,313,52,85,55,213,46,78,09,013,33*61
$GLGSV,3,3,10,80,10,114,,87,04,338,*6A
$GAGSV,3,1,10,09,85,120,45,05,35,226,37,11,31,153,36,18,21,275,*66
$GAGSV,3,2,10,04,35,055,37,34,39,310,49,06,61,061,49,36,75,211,48*6E
$GAGSV,3,3,10,10,05,147,,21,02,022,*6E
$GBGSV,5,1,20,48,78,034,,58,15,120,,46,11,136,,39,23,040,31*68
$GBGSV,5,2,20,22,15,261,38,44,20,317,42,29,25,197,30,05,23,128,37*6E
$GBGSV,5,3,20,16,31,048,32,37,23,083,34,06,32,051,35,09,41,066,37*63
$GBGSV,5,4,20,35,44,267,52,20,57,062,50,19,67,280,45,12,04,333,33*6D
$GBGSV,5,5,20,32,04,075,,02,08,106,,23,10,034,,60,09,110,*6B
$GPGGA,023112.00,,,,,0,00,,,M,,M,,*4B
$PTNL,GGK,023112.00,010125,4742.4464956,N,01617.9734592,E,1,25,1.1,EHT667.0181,M*4A
$GPGGQ,023112.00,010125,4742.4464956,N,01617.9734592,E,1,25,1.622,623.8071,M*35
$GPGFA,023112.00,6.433,11.116,0.677,0.580,20.907,1.356,,VVV*02
$GPLLK,023112.00,010125,,M,,M,1,25,1.3,,M*0D
$GNGMP,023112.00,,,,,DAAA,25,0.6,,,,*54
$GPGMP,023112.00,,,,,,06,,,,2.0,123*7A
$GLGMP,023112.00,,,,,,04,,,,,*78
$GAGMP,023112.00,,,,,,07,,,,,*76
$GBGMP,023112.00,,,,,,08,,,,,*7A
$PSSN,SNC,[0,268290000,2347]*43
$GPZDA,023117.00,01,01,2025,,*65
$GPDTM,W84,,00.0000000,N,00.0000000,E,00.0000000,W84*5F
$GPRMC,023117.00,A,4742.4465054,N,01617.9734533,E,0.0,,010125,5.1,E,D*11
$GPGLL,4742.4465054,N,01617.9734533,E,023117.00,A,D*60
$GPGGA,023117.00,4742.4465054,N,01617.9734533,E,2,24,0.6,623.8030,M,43.2111,M,2.8,0123*4F
$GNGNS,023117.00,4742.4465054,N,01617.9734533,E,DAAA,24,0.6,623.8030,43.2111,,*59
$GPGNS,023117.00,,,,,,05,,,,2.8,123*74
$GLGNS,023117.00,,,,,,04,,,,,*7D
$GAGNS,023117.00,,,,,,07,,,,,*73
$GBGNS,023117.00,,,,,,08,,,,,*7F
$GPLLQ,023117.00,010125,,M,,M,1,24,2.154,,M*13
$GPVTG,,T,,M,0.01,N,0.01,K,D*26
$GPHDT,,T*1B
$GPTHS,,V*0E
$GPROT,,V*08
$PSSN,HRP,023117.00,010125,,,,,,,00,0,,*67
$PTNL,AVR,023117.00,,Yaw,,Tilt,,,,0,,00*31
$GPGSA,A,3,02,04,06,09,19,,,,,,,,1.1,0.6,0.9*3C
$GPGSA,A,3,70,71,85,86,,,,,,,,,1.1,0.6,0.9*3F
$GPGSA,A,3,04,05,06,09,11,34,36,,,,,,1.1,0.6,0.9*31
$GPGSA,A,3,05,09,19,20,22,35,37,44,,,,,1.1,0.6,0.9*39
$GPGST,023117.00,4.682,1.219,0.682,44.128,0.996,0.980,1.640*61
$GPGBS,023117.00,5.717,4.914,7.073,19,0.0001,-1.780,0.806*72
$GPGRS,023117.00,1,0.9,0.3,-0.4,0.7,-1.8,,,,,,,*66
$GPGRS,023117.00,1,-3.5,6.2,0.3,-2.9,,,,,,,,*42
$GPGRS,023117.00,1,-0.9,0.5,0.3,0.9,-1.1,-0.1,0.1,,,,,*4D
$GPGRS,023117.00,1,3.0,-2.0,-1.8,-3.4,1.3,-2.7,16.2,-2.4,,,,*5E
$GPGSV,5,1,18,04,81,209,49,06,35,311,44,28,14,037,29,19,28,273,43*7F
$GPGSV,5,2,18,02,23,162,37,17,23,243,24,01,27,153,,31,31,058,31*7D
$GPGSV,5,3,18,09,50,232,47,03,62,080,35,21,06,155,,26,02,083,*7A
$GPGSV,5,4,18,07,02,185,,11,01,320,,36,35,170,40,34,31,208,*76
$GPGSV,5,5,18,49,34,195,35,61,03,257,*75
$GLGSV,3,1,10,70,71,326,36,69,23,055,25,84,12,174,19,79,21,063,*61
$GLGSV,3,2,10,71,33,260,42,86,44,313,52,85,55,212,45,78,09,013,33*60
$GLGSV,3,3,10,80,10,114,,87,04,338,*6A
$GAGSV,3,1,10,09,85,119,46,05,35,226,38,11,31,153,35,18,21,275,*63
$GAGSV,3,2,10,04,35,055,38,34,39,310,49,06,61,061,48,36,75,211,48*60
$GAGSV,3,3,10,10,05,147,,21,02,022,*6E
$GBGSV,5,1,20,48,78,034,,58,15,120,,46,11,136,,39,23,040,30*69
$GBGSV,5,2,20,22,15,261,38,44,20,317,41,29,25,197,31,05,23,128,37*6C
$GBGSV,5,3,20,16,31,048,31,37,23,083,36,06,32,051,24,09,41,066,38*6D
$GBGSV,5,4,20,35,44,267,52,20,57,062,50,19,67,280,45,12,04,333,34*6A
$GBGSV,5,5,20,32,04,075,,02,08,106,,23,10,034,,60,09,110,*6B
$GPGGA,023117.00,,,,,0,00,,,M,,M,,*4E
$PTNL,GGK,023117.00,010125,4742.4465054,N,01617.9734533,E,1,24,1.1,EHT667.0141,M*43
$GPGGQ,023117.00,010125,4742.4465054,N,01617.9734533,E,1,24,2.154,623.8030,M*30
$GPGFA,023117.00,11.594,13.444,1.219,0.682,44.128,1.640,,VVV*34
$GPLLK,023117.00,010125,,M,,M,1,24,1.3,,M*09
$GNGMP,023117.00,,,,,DAAA,24,0.6,,,,*50
$GPGMP,023117.00,,,,,,05,,,,2.8,123*74
$GLGMP,023117.00,,,,,,04,,,,,*7D
$GAGMP,023117.00,,,,,,07,,,,,*73
$GBGMP,023117.00,,,,,,08,,,,,*7F
$PSSN,SNC,[0,268295000,2347]*46
$GPZDA,023122.00,01,01,2025,,*63
$GPDTM,W84,,00.0000000,N,00.0000000,E,00.0000000,W84*5F
$GPRMC,023122.00,A,4742.4465074,N,01617.9734443,E,0.0,,010125,5.1,E,D*13
$GPGLL,4742.4465074,N,01617.9734443,E,023122.00,A,D*62
$GPGGA,023122.00,4742.4465074,N,01617.9734443,E,2,27,0.6,623.7798,M,43.2111,M,3.4,0123*49
$GNGNS,023122.00,4742.4465074,N,01617.9734443,E,DAAA,27,0.6,623.7798,43.2111,,*52
$GPGNS,023122.00,,,,,,07,,,,3.4,123*7D
$GLGNS,023122.00,,,,,,04,,,,,*7B
$GAGNS,023122.00,,,,,,07,,,,,*75
$GBGNS,023122.00,,,,,,09,,,,,*78
$GPLLQ,023122.00,010125,,M,,M,1,27,2.168,,M*19
$GPVTG,,T,,M,0.01,N,0.02,K,D*25
$GPHDT,,T*1B
$GPTHS,,V*0E
$GPROT,,V*08
$PSSN,HRP,023122.00,010125,,,,,,,00,0,,*61
$PTNL,AVR,023122.00,,Yaw,,Tilt,,,,0,,00*37
$GPGSA,A,3,02,03,04,06,09,19,31,,,,,,1.1,0.6,0.9*3D
$GPGSA,A,3,70,71,85,86,,,,,,,,,1.1,0.6,0.9*3F
$GPGSA,A,3,04,05,06,09,11,34,36,,,,,,1.1,0.6,0.9*31
$GPGSA,A,3,05,06,09,19,20,22,29,35,44,,,,1.1,0.6,0.9*30
$GPGST,023122.00,3.356,0.933,0.730,358.979,0.933,0.730,1.815*50
$GPGBS,023122.00,3.449,2.341,6.304,03,0.0001,2.537,0.683*5C
$GPGRS,023122.00,1,-1.4,2.5,-0.1,0.1,0.6,-1.4,-1.2,,,,,*62
$GPGRS,023122.00,1,-2.6,3.5,1.1,-3.6,,,,,,,,*49
$GPGRS,023122.00,1,-1.5,0.2,0.1,0.8,-1.5,-0.4,0.1,,,,,*43
$GPGRS,023122.00,1,3.0,-3.8,-1.2,-1.5,-3.5,7.2,-8.2,-3.5,-1.9,,,*45
$GPGSV,5,1,18,04,81,209,49,06,35,311,44,28,14,037,29,19,28,273,43*7F
$GPGSV,5,2,18,02,23,162,36,17,22,243,21,01,27,153,,31,31,058,36*7F
$GPGSV,5,3,18,09,50,232,47,03,62,080,35,21,06,155,,26,02,083,*7A
$GPGSV,5,4,18,07,02,185,,11,01,320,,36,35,170,40,34,31,208,*76
$GPGSV,5,5,18,49,34,195,35,61,03,257,*75
$GLGSV,3,1,10,70,71,326,36,69,23,055,27,84,12,174,22,79,21,062,33*6A
$GLGSV,3,2,10,71,33,260,45,86,44,313,51,85,55,212,46,78,09,013,31*65
$GLGSV,3,3,10,80,10,114,,87,04,338,*6A
$GAGSV,3,1,10,09,85,119,46,05,35,226,38,11,31,153,36,18,21,275,*60
$GAGSV,3,2,10,04,35,055,37,34,39,310,48,06,61,061,48,36,74,211,48*6F
$GAGSV,3,3,10,10,05,147,,21,02,022,*6E
$GBGSV,5,1,20,48,78,034,,58,15,120,,46,11,136,,39,23,040,27*6F
$GBGSV,5,2,20,22,15,261,39,44,20,317,40,29,24,197,29,05,23,128,37*64
$GBGSV,5,3,20,16,31,048,29,37,23,083,33,06,32,051,37,09,41,066,39*62
$GBGSV,5,4,20,35,44,267,52,20,56,062,51,19,67,280,45,12,04,333,34*6A
$GBGSV,5,5,20,32,04,075,,02,08,106,,23,10,034,,60,09,110,*6B
$GPGGA,023122.00,,,,,0,00,,,M,,M,,*48
$PTNL,GGK,023122.00,010125,4742.4465074,N,01617.9734443,E,1,27,1.1,EHT666.9908,M*4F
$GPGGQ,023122.00,010125,4742.4465074,N,01617.9734443,E,1,27,2.168,623.7798,M*34
$GPGFA,023122.00,8.869,14.885,0.933,0.730,358.979,1.815,,VVV*35
$GPLLK,023122.00,010125,,M,,M,1,27,1.2,,M*0D
$GNGMP,023122.00,,,,,DAAA,27,0.6,,,,*55
$GPGMP,023122.00,,,,,,07,,,,3.4,123*7D
$GLGMP,023122.00,,,,,,04,,,,,*7B
$GAGMP,023122.00,,,,,,07,,,,,*75
$GBGMP,023122.00,,,,,,09,,,,,*78
$PSSN,SNC,[0,268300000,2347]*4B
$GPZDA,023127.00,01,01,2025,,*66
$GPDTM,W84,,00.0000000,N,00.0000000,E,00.0000000,W84*5F
$GPRMC,023127.00,A,4742.4465020,N,01617.9734400,E,0.0,,010125,5.1,E,D*10
$GPGLL,4742.4465020,N,01617.9734400,E,023127.00,A,D*61
$GPGGA,023127.00,4742.4465020,N,01617.9734400,E,2,25,0.6,623.7678,M,43.2111,M,2.0,0123*42
$GNGNS,023127.00,4742.4465020,N,01617.9734400,E,DAAA,25,0.6,623.7678,43.2111,,*5C
$GPGNS,023127.00,,,,,,06,,,,2.0,123*7C
$GLGNS,023127.00,,,,,,03,,,,,*79
$GAGNS,023127.00,,,,,,07,,,,,*70
$GBGNS,023127.00,,,,,,09,,,,,*7D
$GPLLQ,023127.00,010125,,M,,M,1,25,2.209,,M*1A
$GPVTG,,T,,M,0.00,N,0.01,K,D*27
$GPHDT,,T*1B
$GPTHS,,V*0E
$GPROT,,V*08
$PSSN,HRP,023127.00,010125,,,,,,,00,0,,*64
$PTNL,AVR,023127.00,,Yaw,,Tilt,,,,0,,00*32
$GPGSA,A,3,02,04,06,09,19,31,,,,,,,1.1,0.6,1.0*36
$GPGSA,A,3,71,85,86,,,,,,,,,,1.1,0.6,1.0*30
$GPGSA,A,3,04,05,06,09,11,34,36,,,,,,1.1,0.6,1.0*39
$GPGSA,A,3,05,06,09,19,20,22,29,35,44,,,,1.1,0.6,1.0*38
$GPGST,023127.00,4.379,0.938,0.757,11.317,0.932,0.765,1.851*68
$GPGBS,023127.00,3.312,3.235,8.075,31,0.0001,2.396,0.873*55
$GPGRS,023127.00,1,-1.6,-0.2,-0.6,0.5,-0.7,2.4,,,,,,*4C
$GPGRS,023127.00,1,6.6,0.3,-3.6,,,,,,,,,*4E
$GPGRS,023127.00,1,-1.4,-0.5,-0.3,0.1,-0.8,-0.6,-0.1,,,,,*68
$GPGRS,023127.00,1,4.3,-1.8,-0.6,-1.2,-3.4,12.2,-8.4,-3.9,-2.4,,,*75
$GPGSV,5,1,18,04,81,209,49,06,35,311,45,28,14,037,29,19,28,273,43*7E
$GPGSV,5,2,18,02,23,162,36,17,22,243,21,01,27,153,,31,31,058,39*70
