$GPZDA,182942.00,01,01,2025,,*67
$GPDTM,W84,,00.0000000,N,00.0000000,E,00.0000000,W84*5F
$GPRMC,182942.00,A,4742.4461702,N,01617.9724573,E,0.0,,010125,5.1,E,D*16
$GPGLL,4742.4461702,N,01617.9724573,E,182942.00,A,D*67
$GPGGA,182942.00,4742.4461702,N,01617.9724573,E,2,17,0.9,626.7860,M,43.2111,M,4.0,0123*4E
$GNGNS,182942.00,4742.4461702,N,01617.9724573,E,DAAA,17,0.9,626.7860,43.2111,,*56
$GPGNS,182942.00,,,,,,05,,,,4.0,123*78
$GLGNS,182942.00,,,,,,04,,,,,*7F
$GAGNS,182942.00,,,,,,03,,,,,*75
$GBGNS,182942.00,,,,,,05,,,,,*70
$GPLLQ,182942.00,010125,,M,,M,1,17,1.972,,M*1E
$GPVTG,,T,,M,0.01,N,0.02,K,D*25
$GPHDT,,T*1B
$GPTHS,,V*0E
$GPROT,,V*08
$PSSN,HRP,182942.00,010125,,,,,,,00,0,,*65
$PTNL,AVR,182942.00,,Yaw,,Tilt,,,,0,,00*33
$GPGSA,A,3,16,18,23,26,27,,,,,,,,2.1,0.9,1.9*3E
$GPGSA,A,3,73,80,82,83,,,,,,,,,2.1,0.9,1.9*3D
$GPGSA,A,3,13,21,27,,,,,,,,,,2.1,0.9,1.9*34
$GPGSA,A,3,11,23,28,37,43,,,,,,,,2.1,0.9,1.9*38
$GPGST,182942.00,2.900,0.877,0.474,29.850,0.796,0.599,1.701*6B
$GPGBS,182942.00,5.787,4.024,11.898,83,0.0001,-6.113,6.076*48
$GPGRS,182942.00,1,-0.4,-0.1,0.6,-0.5,0.7,,,,,,,*48
$GPGRS,182942.00,1,2.4,0.1,-1.5,-6.1,,,,,,,,*4E
$GPGRS,182942.00,1,0.1,0.6,-0.3,,,,,,,,,*4D
$GPGRS,182942.00,1,0.6,-1.4,-1.9,-5.5,-0.8,,,,,,,*67
$GPGSV,4,1,16,18,68,059,40,10,14,174,,29,23,093,32,05,12,034,30*71
$GPGSV,4,2,16,27,32,288,36,31,12,221,,23,41,140,44,16,60,288,48*75
$GPGSV,4,3,16,26,62,215,47,15,06,084,,08,00,285,,07,02,339,*79
$GPGSV,4,4,16,36,35,170,40,34,31,208,,49,34,195,37,61,03,257,*77
$GLGSV,3,1,10,82,69,004,46,66,22,066,,79,11,176,29,83,49,267,39*6F
$GLGSV,3,2,10,65,12,017,21,73,43,310,46,81,27,054,32,80,54,215,48*6C
$GLGSV,3,3,10,74,06,337,,67,09,116,*68
$GAGSV,2,1,08,13,76,218,49,23,24,313,,26,22,228,27,14,22,279,*60
$GAGSV,2,2,08,27,42,159,37,15,47,053,24,21,70,266,47,05,02,034,*68
$GBGSV,6,1,21,43,72,055,49,14,12,134,,38,25,038,32,60,11,109,*68
$GBGSV,6,2,21,58,20,320,,21,21,057,27,05,22,129,,23,38,214,42*61
$GBGSV,6,3,21,42,21,109,24,34,24,075,,50,24,082,,08,38,044,20*6D
$GBGSV,6,4,21,37,41,284,39,13,44,054,35,28,39,264,42,11,48,065,47*60
$GBGSV,6,5,21,02,07,106,,46,06,329,,33,00,155,,25,03,176,*60
$GBGSV,6,6,21,22,00,013,*5A
$GPGGA,182942.00,,,,,0,00,,,M,,M,,*4C
$PTNL,GGK,182942.00,010125,4742.4461702,N,01617.9724573,E,1,17,2.1,EHT669.9970,M*4A
$GPGGQ,182942.00,010125,4742.4461702,N,01617.9724573,E,1,17,1.972,626.7860,M*3F
$GPGFA,182942.00,8.337,13.951,0.877,0.474,29.850,1.701,,VVV*09
$GPLLK,182942.00,010125,,M,,M,1,17,2.6,,M*0D
$GNGMP,182942.00,,,,,DAAA,17,0.9,,,,*5D
$GPGMP,182942.00,,,,,,05,,,,4.0,123*78
$GLGMP,182942.00,,,,,,04,,,,,*7F
$GAGMP,182942.00,,,,,,03,,,,,*75
$GBGMP,182942.00,,,,,,05,,,,,*70
$PSSN,SNC,[0,325800000,2347]*48
$GPZDA,182947.00,01,01,2025,,*62
$GPDTM,W84,,00.0000000,N,00.0000000,E,00.0000000,W84*5F
$GPRMC,182947.00,A,4742.4461708,N,01617.9724475,E,0.0,,010125,5.1,E,D*1E
$GPGLL,4742.4461708,N,01617.9724475,E,182947.00,A,D*6F
$GPGGA,182947.00,4742.4461708,N,01617.9724475,E,2,18,0.8,626.7808,M,43.2111,M,1.0,0123*43
$GNGNS,182947.00,4742.4461708,N,01617.9724475,E,DAAA,18,0.8,626.7808,43.2111,,*5E
$GPGNS,182947.00,,,,,,05,,,,1.0,123*78
$GLGNS,182947.00,,,,,,04,,,,,*7A
$GAGNS,182947.00,,,,,,04,,,,,*77
$GBGNS,182947.00,,,,,,05,,,,,*75
$GPLLQ,182947.00,010125,,M,,M,1,18,2.025,,M*1C
$GPVTG,,T,,M,0.00,N,0.01,K,D*27
$GPHDT,,T*1B
$GPTHS,,V*0E
$GPROT,,V*08
$PSSN,HRP,182947.00,010125,,,,,,,00,0,,*60
$PTNL,AVR,182947.00,,Yaw,,Tilt,,,,0,,00*36
$GPGSA,A,3,16,18,23,26,27,,,,,,,,2.0,0.8,1.8*3F
$GPGSA,A,3,73,80,82,83,,,,,,,,,2.0,0.8,1.8*3C
$GPGSA,A,3,13,15,21,27,,,,,,,,,2.0,0.8,1.8*31
$GPGSA,A,3,11,23,28,37,43,,,,,,,,2.0,0.8,1.8*39
$GPGST,182947.00,2.842,0.888,0.490,29.508,0.809,0.611,1.752*6F
$GPGBS,182947.00,5.282,3.691,11.230,18,0.0001,0.857,0.611*6B
$GPGRS,182947.00,1,-0.5,0.9,0.1,0.1,-0.5,,,,,,,*68
$GPGRS,182947.00,1,2.3,0.7,-1.1,-4.9,,,,,,,,*44
$GPGRS,182947.00,1,0.1,-3.6,0.5,0.2,,,,,,,,*61
$GPGRS,182947.00,1,-0.7,-3.3,-3.3,-4.6,-0.5,,,,,,,*4C
$GPGSV,4,1,16,18,68,059,42,10,14,174,,29,23,093,32,05,12,034,30*73
$GPGSV,4,2,16,27,32,288,38,31,12,221,20,23,41,140,44,16,60,288,48*79
$GPGSV,4,3,16,26,62,214,47,15,06,084,,08,00,285,,07,02,339,*78
$GPGSV,4,4,16,36,35,170,40,34,31,208,,49,34,195,36,61,03,257,*76
$GLGSV,3,1,10,82,69,004,46,66,22,066,28,79,11,176,28,83,49,267,39*64
$GLGSV,3,2,10,65,12,017,23,73,43,310,46,81,27,054,31,80,54,215,49*6C
$GLGSV,3,3,10,74,06,337,,67,09,116,*68
$GAGSV,2,1,08,13,76,218,49,23,24,313,,26,22,228,33,14,22,279,*65
$GAGSV,2,2,08,27,42,159,36,15,47,053,30,21,70,265,47,05,02,034,*6F
$GBGSV,5,1,20,43,72,055,49,14,12,134,,38,25,038,30,60,11,109,*68
$GBGSV,5,2,20,58,20,320,,21,21,057,,05,22,129,,23,37,214,40*6B
$GBGSV,5,3,20,42,21,109,28,34,24,075,,50,24,082,,08,38,044,43*66
$GBGSV,5,4,20,37,41,284,39,13,44,054,35,28,39,264,40,11,48,065,47*60
$GBGSV,5,5,20,46,06,329,,33,00,155,,25,03,176,,02,07,106,*62
$GPGGA,182947.00,,,,,0,00,,,M,,M,,*49
$PTNL,GGK,182947.00,010125,4742.4461708,N,01617.9724475,E,1,18,2.0,EHT669.9919,M*43
$GPGGQ,182947.00,010125,4742.4461708,N,01617.9724475,E,1,18,2.025,626.7808,M*3E
$GPGFA,182947.00,8.438,14.369,0.888,0.490,29.508,1.752,,VVV*0E
$GPLLK,182947.00,010125,,M,,M,1,18,2.5,,M*04
$GNGMP,182947.00,,,,,DAAA,18,0.8,,,,*56
$GPGMP,182947.00,,,,,,05,,,,1.0,123*78
$GLGMP,182947.00,,,,,,04,,,,,*7A
$GAGMP,182947.00,,,,,,04,,,,,*77
$GBGMP,182947.00,,,,,,05,,,,,*75
$PSSN,SNC,[0,325805000,2347]*4D
$GPZDA,182952.00,01,01,2025,,*66
$GPDTM,W84,,00.0000000,N,00.0000000,E,00.0000000,W84*5F
$GPRMC,182952.00,A,4742.4461704,N,01617.9724354,E,0.0,,010125,5.1,E,D*12
$GPGLL,4742.4461704,N,01617.9724354,E,182952.00,A,D*63
$GPGGA,182952.00,4742.4461704,N,01617.9724354,E,2,20,0.7,626.7745,M,43.2111,M,2.0,0123*4E
$GNGNS,182952.00,4742.4461704,N,01617.9724354,E,DAAA,20,0.7,626.7745,43.2111,,*50
$GPGNS,182952.00,,,,,,05,,,,2.0,123*7F
$GLGNS,182952.00,,,,,,04,,,,,*7E
$GAGNS,182952.00,,,,,,04,,,,,*73
$GBGNS,182952.00,,,,,,07,,,,,*73
$GPLLQ,182952.00,010125,,M,,M,1,20,2.156,,M*16
$GPVTG,,T,,M,0.00,N,0.00,K,D*26
$GPHDT,,T*1B
$GPTHS,,V*0E
$GPROT,,V*08
$PSSN,HRP,182952.00,010125,,,,,,,00,0,,*64
$PTNL,AVR,182952.00,,Yaw,,Tilt,,,,0,,00*32
$GPGSA,A,3,16,18,23,26,27,,,,,,,,1.8,0.7,1.7*34
$GPGSA,A,3,73,80,82,83,,,,,,,,,1.8,0.7,1.7*37
$GPGSA,A,3,13,15,21,27,,,,,,,,,1.8,0.7,1.7*3A
$GPGSA,A,3,08,11,13,23,28,37,43,,,,,,1.8,0.7,1.7*38
$GPGST,182952.00,2.720,0.938,0.523,29.227,0.857,0.646,1.869*67
$GPGBS,182952.00,5.249,3.664,11.322,18,0.0001,1.173,0.624*68
$GPGRS,182952.00,1,-0.8,1.2,-0.3,0.2,0.0,,,,,,,*6F
$GPGRS,182952.00,1,1.6,1.0,-0.3,-3.5,,,,,,,,*48
$GPGRS,182952.00,1,0.0,-3.7,0.4,-1.2,,,,,,,,*48
$GPGRS,182952.00,1,-3.5,-2.0,-0.5,-3.5,-4.8,-3.2,-1.0,,,,,*43
$GPGSV,4,1,16,18,68,059,44,10,14,174,,29,23,093,32,05,12,034,28*7C
$GPGSV,4,2,16,27,32,288,41,31,12,221,29,23,41,140,44,16,60,288,47*71
$GPGSV,4,3,16,26,62,214,48,15,06,084,,08,00,285,,07,02,339,*77
$GPGSV,4,4,16,36,35,170,40,34,31,208,,49,34,195,36,61,03,257,*76
$GLGSV,3,1,10,82,69,004,46,66,22,066,29,79,11,176,28,83,49,268,39*6A
$GLGSV,3,2,10,65,12,017,30,73,43,310,45,81,27,054,39,80,54,215,48*64
$GLGSV,3,3,10,74,06,337,,67,09,116,*68
$GAGSV,2,1,08,13,76,218,50,23,25,313,,26,22,228,26,14,22,279,*68
$GAGSV,2,2,08,27,42,159,35,15,47,053,29,21,70,265,47,05,02,034,*64
$GBGSV,5,1,20,43,72,055,49,14,12,134,,38,25,038,30,60,11,109,*68
$GBGSV,5,2,20,58,20,320,,21,21,057,,05,22,129,,23,37,214,38*64
$GBGSV,5,3,20,42,21,109,30,34,24,075,28,50,24,082,,08,38,044,42*64
$GBGSV,5,4,20,37,41,284,39,13,43,054,35,28,39,264,40,11,48,065,46*66
$GBGSV,5,5,20,46,06,329,,33,00,155,,25,03,176,,02,07,106,*62
$GPGGA,182952.00,,,,,0,00,,,M,,M,,*4D
$PTNL,GGK,182952.00,010125,4742.4461704,N,01617.9724354,E,1,20,1.8,EHT669.9855,M*46
$GPGGQ,182952.00,010125,4742.4461704,N,01617.9724354,E,1,20,2.156,626.7745,M*3A
$GPGFA,182952.00,8.914,15.327,0.938,0.523,29.227,1.869,,VVV*0C
$GPLLK,182952.00,010125,,M,,M,1,20,2.3,,M*0D
$GNGMP,182952.00,,,,,DAAA,20,0.7,,,,*56
$GPGMP,182952.00,,,,,,05,,,,2.0,123*7F
$GLGMP,182952.00,,,,,,04,,,,,*7E
$GAGMP,182952.00,,,,,,04,,,,,*73
$GBGMP,182952.00,,,,,,07,,,,,*73
$PSSN,SNC,[0,325810000,2347]*49
$GPZDA,182957.00,01,01,2025,,*63
$GPDTM,W84,,00.0000000,N,00.0000000,E,00.0000000,W84*5F
$GPRMC,182957.00,A,4742.4461618,N,01617.9724364,E,0.0,,010125,5.1,E,D*18
$GPGLL,4742.4461618,N,01617.9724364,E,182957.00,A,D*69
$GPGGA,182957.00,4742.4461618,N,01617.9724364,E,2,19,0.8,626.7887,M,43.2111,M,3.0,0123*41
$GNGNS,182957.00,4742.4461618,N,01617.9724364,E,DAAA,19,0.8,626.7887,43.2111,,*5E
$GPGNS,182957.00,,,,,,05,,,,3.0,123*7B
$GLGNS,182957.00,,,,,,05,,,,,*7A
$GAGNS,182957.00,,,,,,03,,,,,*71
$GBGNS,182957.00,,,,,,06,,,,,*77
$GPLLQ,182957.00,010125,,M,,M,1,19,4.062,,M*19
$GPVTG,,T,,M,0.00,N,0.01,K,D*27
$GPHDT,,T*1B
$GPTHS,,V*0E
$GPROT,,V*08
$PSSN,HRP,182957.00,010125,,,,,,,00,0,,*61
$PTNL,AVR,182957.00,,Yaw,,Tilt,,,,0,,00*37
$GPGSA,A,3,16,18,23,26,27,,,,,,,,1.7,0.8,1.5*36
$GPGSA,A,3,73,80,81,82,83,,,,,,,,1.7,0.8,1.5*3C
$GPGSA,A,3,13,15,21,,,,,,,,,,1.7,0.8,1.5*3D
$GPGSA,A,3,08,11,23,28,37,43,,,,,,,1.7,0.8,1.5*38
$GPGST,182957.00,5.409,1.767,0.995,28.422,1.625,1.213,3.520*66
$GPGBS,182957.00,5.195,3.644,11.337,27,0.0001,2.797,0.795*61
$GPGRS,182957.00,1,-1.3,0.4,-0.8,-0.2,2.8,,,,,,,*4B
$GPGRS,182957.00,1,1.6,-0.9,15.4,-1.1,-4.2,,,,,,,*75
$GPGRS,182957.00,1,-0.4,-4.0,0.1,,,,,,,,,*61
$GPGRS,182957.00,1,-4.0,-3.0,-3.7,-3.9,-3.1,-1.6,,,,,,*42
$GPGSV,4,1,16,18,68,059,46,10,14,174,,29,23,093,29,05,12,034,28*74
$GPGSV,4,2,16,27,32,288,41,31,12,221,30,23,41,140,44,16,60,288,46*78
$GPGSV,4,3,16,26,62,214,49,15,06,084,,08,00,285,,07,02,339,*76
$GPGSV,4,4,16,36,35,170,40,34,31,208,,49,34,195,36,61,03,257,*76
$GLGSV,3,1,10,82,69,005,43,66,22,066,31,79,11,176,29,83,50,268,39*6E
$GLGSV,3,2,10,65,12,017,,73,43,310,46,81,27,054,38,80,54,215,46*6B
$GLGSV,3,3,10,74,06,337,,67,09,116,*68
$GAGSV,2,1,08,13,76,218,50,23,25,313,,26,22,228,30,14,22,279,*6F
$GAGSV,2,2,08,27,41,159,34,15,47,053,29,21,70,265,47,05,02,034,*66
$GBGSV,5,1,20,43,72,055,49,14,12,134,,38,25,038,30,60,11,109,*68
$GBGSV,5,2,20,58,20,320,,21,21,057,,05,22,129,,23,37,214,38*64
$GBGSV,5,3,20,42,21,109,30,34,24,075,28,50,24,082,,08,38,044,42*64
$GBGSV,5,4,20,37,41,284,39,13,43,054,34,28,39,265,41,11,48,065,45*64
$GBGSV,5,5,20,46,06,329,,33,00,155,,25,03,176,,02,07,106,*62
$GPGGA,182957.00,,,,,0,00,,,M,,M,,*48
$PTNL,GGK,182957.00,010125,4742.4461618,N,01617.9724364,E,1,19,1.7,EHT669.9997,M*46
$GPGGQ,182957.00,010125,4742.4461618,N,01617.9724364,E,1,19,4.062,626.7887,M*3B
$GPGFA,182957.00,16.802,28.863,1.767,0.995,28.422,3.520,,VVV*31
$GPLLK,182957.00,010125,,M,,M,1,19,2.1,,M*00
$GNGMP,182957.00,,,,,DAAA,19,0.8,,,,*56
$GPGMP,182957.00,,,,,,05,,,,3.0,123*7B
$GLGMP,182957.00,,,,,,05,,,,,*7A
$GAGMP,182957.00,,,,,,03,,,,,*71
$GBGMP,182957.00,,,,,,06,,,,,*77
$PSSN,SNC,[0,325815000,2347]*4C
$GPZDA,183002.00,01,01,2025,,*6B
$GPDTM,W84,,00.0000000,N,00.0000000,E,00.0000000,W84*5F
$GPRMC,183002.00,A,4742.4461565,N,01617.9724365,E,0.0,,010125,5.1,E,D*18
$GPGLL,4742.4461565,N,01617.9724365,E,183002.00,A,D*69
$GPGGA,183002.00,4742.4461565,N,01617.9724365,E,2,18,0.8,626.8024,M,43.2111,M,4.0,0123*49
$GNGNS,183002.00,4742.4461565,N,01617.9724365,E,DAAA,18,0.8,626.8024,43.2111,,*51
$GPGNS,183002.00,,,,,,05,,,,4.0,123*74
$GLGNS,183002.00,,,,,,05,,,,,*72
$GAGNS,183002.00,,,,,,03,,,,,*79
$GBGNS,183002.00,,,,,,05,,,,,*7C
$GPLLQ,183002.00,010125,,M,,M,1,18,3.852,,M*1C
$GPVTG,,T,,M,0.00,N,0.00,K,D*26
$GPHDT,,T*1B
$GPTHS,,V*0E
$GPROT,,V*08
$PSSN,HRP,183002.00,010125,,,,,,,00,0,,*69
$PTNL,AVR,183002.00,,Yaw,,Tilt,,,,0,,00*3F
$GPGSA,A,3,16,18,23,26,27,,,,,,,,1.8,0.8,1.6*3A
$GPGSA,A,3,73,80,81,82,83,,,,,,,,1.8,0.8,1.6*30
$GPGSA,A,3,13,15,21,,,,,,,,,,1.8,0.8,1.6*31
$GPGSA,A,3,11,23,28,37,43,,,,,,,,1.8,0.8,1.6*3C
$GPGST,183002.00,6.263,1.670,0.944,28.667,1.534,1.152,3.340*6A
$GPGBS,183002.00,5.363,3.761,11.613,81,0.0001,18.647,6.200*53
$GPGRS,183002.00,1,-0.9,0.4,-0.7,-0.2,2.0,,,,,,,*4F
$GPGRS,183002.00,1,2.4,-2.5,18.6,-1.4,-3.6,,,,,,,*7B
$GPGRS,183002.00,1,-0.0,-3.7,0.2,,,,,,,,,*6E
$GPGRS,183002.00,1,-2.7,-3.2,-3.4,-2.8,-1.2,,,,,,,*4F
$GPGSV,4,1,16,18,68,059,47,10,14,174,,29,23,093,27,05,12,034,26*75
$GPGSV,4,2,16,27,32,288,39,31,12,221,26,23,41,140,43,16,60,288,45*74
$GPGSV,4,3,16,26,62,214,49,15,06,084,,08,00,285,,07,02,339,*76
$GPGSV,4,4,16,36,35,170,40,34,31,208,,49,34,195,36,61,03,257,*76
$GLGSV,3,1,10,82,69,005,42,66,22,066,33,79,11,176,29,83,50,268,40*63
$GLGSV,3,2,10,65,12,017,31,73,43,310,46,81,27,054,37,80,54,215,45*65
$GLGSV,3,3,10,74,07,337,,67,09,116,*69
$GAGSV,2,1,08,13,76,218,49,23,25,313,,26,22,228,30,14,22,279,*67
$GAGSV,2,2,08,27,41,159,32,15,47,053,27,21,70,265,47,05,02,034,*6E
$GBGSV,5,1,20,43,72,055,49,14,12,134,,38,25,038,29,60,11,109,*60
$GBGSV,5,2,20,58,20,320,,21,21,057,25,05,22,129,,23,37,214,39*62
$GBGSV,5,3,20,42,21,109,28,34,24,075,28,50,24,082,,08,38,044,23*6A
$GBGSV,5,4,20,37,41,284,39,13,43,054,34,28,39,265,43,11,48,065,44*67
$GBGSV,5,5,20,46,06,329,,33,00,155,,25,03,176,,02,07,106,*62
$GPGGA,183002.00,,,,,0,00,,,M,,M,,*40
$PTNL,GGK,183002.00,010125,4742.4461565,N,01617.9724365,E,1,18,1.8,EHT670.0135,M*49
$GPGGQ,183002.00,010125,4742.4461565,N,01617.9724365,E,1,18,3.852,626.8024,M*38
$GPGFA,183002.00,15.877,27.390,1.670,0.944,28.667,3.340,,VVV*38
$GPLLK,183002.00,010125,,M,,M,1,18,2.2,,M*0A
$GNGMP,183002.00,,,,,DAAA,18,0.8,,,,*5F
$GPGMP,183002.00,,,,,,05,,,,4.0,123*74
$GLGMP,183002.00,,,,,,05,,,,,*72
$GAGMP,183002.00,,,,,,03,,,,,*79
$GBGMP,183002.00,,,,,,05,,,,,*7C
$PSSN,SNC,[0,325820000,2347]*4A
$GPZDA,183007.00,01,01,2025,,*6E
$GPDTM,W84,,00.0000000,N,00.0000000,E,00.0000000,W84*5F
$GPRMC,183007.00,A,4742.4461468,N,01617.9724261,E,0.0,,010125,5.1,E,D*14
$GPGLL,4742.4461468,N,01617.9724261,E,183007.00,A,D*65
$GPGGA,183007.00,4742.4461468,N,01617.9724261,E,2,17,0.9,626.7948,M,43.2111,M,1.0,0123*42
$GNGNS,183007.00,4742.4461468,N,01617.9724261,E,DAAA,17,0.9,626.7948,43.2111,,*5F
$GPGNS,183007.00,,,,,,05,,,,1.0,123*74
$GLGNS,183007.00,,,,,,04,,,,,*76
$GAGNS,183007.00,,,,,,02,,,,,*7D
$GBGNS,183007.00,,,,,,06,,,,,*7A
$GPLLQ,183007.00,010125,,M,,M,1,17,2.526,,M*19
$GPVTG,,T,,M,0.01,N,0.01,K,D*26
$GPHDT,,T*1B
$GPTHS,,V*0E
$GPROT,,V*08
$PSSN,HRP,183007.00,010125,,,,,,,00,0,,*6C
$PTNL,AVR,183007.00,,Yaw,,Tilt,,,,0,,00*3A
$GPGSA,A,3,16,18,23,26,27,,,,,,,,1.7,0.9,1.5*37
$GPGSA,A,3,73,80,82,83,,,,,,,,,1.7,0.9,1.5*34
$GPGSA,A,3,13,21,,,,,,,,,,,1.7,0.9,1.5*38
$GPGSA,A,3,11,23,28,37,42,43,,,,,,,1.7,0.9,1.5*37
$GPGST,183007.00,2.316,1.106,0.609,29.226,1.010,0.758,2.188*61
$GPGBS,183007.00,5.371,3.712,11.361,27,0.0001,-1.275,0.776*4F
$GPGRS,183007.00,1,-0.2,1.0,-0.7,0.4,-1.3,,,,,,,*42
$GPGRS,183007.00,1,2.6,-0.8,0.7,-1.5,,,,,,,,*4C
$GPGRS,183007.00,1,0.6,0.8,,,,,,,,,,*4D
$GPGRS,183007.00,1,-1.8,-1.8,-2.6,-1.6,4.8,-0.4,,,,,,*65
$GPGSV,4,1,16,18,68,059,49,10,14,174,,29,23,093,25,05,12,034,27*78
$GPGSV,4,2,16,27,32,288,38,31,12,221,29,23,41,140,42,16,60,288,45*7B
$GPGSV,4,3,16,26,62,214,48,15,06,084,,08,00,285,,07,02,339,*77
$GPGSV,4,4,16,36,35,170,40,34,31,208,,49,34,195,36,61,03,257,*76
$GLGSV,3,1,10,82,69,005,44,66,22,066,35,79,10,176,30,73,43,310,47*6E
$GLGSV,3,2,10,81,27,054,34,65,12,017,30,83,50,268,42,80,54,215,44*61
$GLGSV,3,3,10,67,09,116,,74,07,337,*69
$GAGSV,2,1,08,13,76,218,49,23,25,313,,26,22,228,31,14,22,279,*66
$GAGSV,2,2,08,27,41,159,32,15,47,053,28,21,70,265,46,05,02,034,*60
$GBGSV,5,1,20,43,72,055,50,14,12,134,,38,25,038,28,60,11,109,*69
$GBGSV,5,2,20,58,20,320,,21,21,057,23,05,22,129,,23,37,214,41*6B
$GBGSV,5,3,20,42,21,109,35,34,24,075,24,50,24,081,,08,38,044,25*6F
$GBGSV,5,4,20,37,41,284,40,13,43,054,33,28,39,265,44,11,48,065,43*6E
$GBGSV,5,5,20,46,07,329,,33,00,155,,25,03,176,,02,07,106,*63
$GPGGA,183007.00,,,,,0,00,,,M,,M,,*45
$PTNL,GGK,183007.00,010125,4742.4461468,N,01617.9724261,E,1,17,1.7,EHT670.0058,M*4F
$GPGGQ,183007.00,010125,4742.4461468,N,01617.9724261,E,1,17,2.526,626.7948,M*38
$GPGFA,183007.00,10.518,17.941,1.106,0.609,29.226,2.188,,VVV*3E
$GPLLK,183007.00,010125,,M,,M,1,17,2.1,,M*03
$GNGMP,183007.00,,,,,DAAA,17,0.9,,,,*54
$GPGMP,183007.00,,,,,,05,,,,1.0,123*74
$GLGMP,183007.00,,,,,,04,,,,,*76
$GAGMP,183007.00,,,,,,02,,,,,*7D
$GBGMP,183007.00,,,,,,06,,,,,*7A
$PSSN,SNC,[0,325825000,2347]*4F
$GPZDA,183012.00,01,01,2025,,*6A
$GPDTM,W84,,00.0000000,N,00.0000000,E,00.0000000,W84*5F
$GPRMC,183012.00,A,4742.4461431,N,01617.9724226,E,0.0,,010125,5.1,E,D*1F
$GPGLL,4742.4461431,N,01617.9724226,E,183012.00,A,D*6E
$GPGGA,183012.00,4742.4461431,N,01617.9724226,E,2,19,0.8,626.7744,M,43.2111,M,2.0,0123*47
$GNGNS,183012.00,4742.4461431,N,01617.9724226,E,DAAA,19,0.8,626.7744,43.2111,,*59
$GPGNS,183012.00,,,,,,05,,,,2.0,123*73
$GLGNS,183012.00,,,,,,06,,,,,*70
$GAGNS,183012.00,,,,,,03,,,,,*78
$GBGNS,183012.00,,,,,,05,,,,,*7D
$GPLLQ,183012.00,010125,,M,,M,1,19,3.033,,M*13
$GPVTG,,T,,M,0.00,N,0.01,K,D*27
$GPHDT,,T*1B
$GPTHS,,V*0E
$GPROT,,V*08
$PSSN,HRP,183012.00,010125,,,,,,,00,0,,*68
$PTNL,AVR,183012.00,,Yaw,,Tilt,,,,0,,00*3E
$GPGSA,A,3,16,18,23,26,27,,,,,,,,1.6,0.8,1.4*36
$GPGSA,A,3,66,73,80,81,82,83,,,,,,,1.6,0.8,1.4*3C
$GPGSA,A,3,13,15,21,,,,,,,,,,1.6,0.8,1.4*3D
$GPGSA,A,3,11,23,28,37,43,,,,,,,,1.6,0.8,1.4*30
$GPGST,183012.00,5.902,1.310,0.745,27.745,1.211,0.898,2.632*69
$GPGBS,183012.00,5.049,3.548,11.124,81,0.0001,19.497,6.200*5D
$GPGRS,183012.00,1,0.3,0.6,-1.2,0.2,-0.2,,,,,,,*6F
$GPGRS,183012.00,1,3.3,1.7,-0.1,19.5,1.4,-0.6,,,,,,*7E
$GPGRS,183012.00,1,0.4,-3.1,0.5,,,,,,,,,*47
$GPGRS,183012.00,1,-1.3,-0.5,-2.6,-0.8,-0.6,,,,,,,*49
$GPGSV,4,1,16,18,68,059,49,10,14,174,,29,23,093,23,05,12,034,25*7C
$GPGSV,4,2,16,27,32,288,38,31,11,221,28,23,41,140,41,16,60,288,44*7B
$GPGSV,4,3,16,26,62,214,48,15,06,084,,08,00,285,,07,02,339,*77
$GPGSV,4,4,16,36,35,170,40,34,31,208,,49,34,195,36,61,03,257,*76
$GLGSV,3,1,10,82,69,005,45,66,22,066,35,79,10,176,29,73,43,310,48*68
$GLGSV,3,2,10,81,27,054,36,65,12,017,,83,50,268,43,80,54,215,44*61
$GLGSV,3,3,10,67,09,116,,74,07,337,*69
$GAGSV,2,1,08,13,76,218,49,23,25,313,,26,22,228,31,14,22,279,*66
$GAGSV,2,2,08,27,41,159,31,15,47,053,42,21,70,265,47,05,02,034,*6E
$GBGSV,5,1,20,43,72,055,50,14,12,134,,38,25,038,27,60,11,109,*66
$GBGSV,5,2,20,58,20,320,,21,21,057,20,05,22,129,,23,37,214,42*6B
$GBGSV,5,3,20,42,21,109,32,34,24,075,27,50,24,081,,08,38,044,26*68
$GBGSV,5,4,20,37,41,284,41,13,43,054,34,28,39,265,46,11,48,065,43*6A
$GBGSV,5,5,20,46,07,329,,33,00,155,,25,03,176,,02,07,106,*63
$GPGGA,183012.00,,,,,0,00,,,M,,M,,*41
$PTNL,GGK,183012.00,010125,4742.4461431,N,01617.9724226,E,1,19,1.6,EHT669.9855,M*4F
$GPGGQ,183012.00,010125,4742.4461431,N,01617.9724226,E,1,19,3.033,626.7744,M*3F
$GPGFA,183012.00,12.459,21.582,1.310,0.745,27.745,2.632,,VVV*3E
$GPLLK,183012.00,010125,,M,,M,1,19,1.9,,M*02
$GNGMP,183012.00,,,,,DAAA,19,0.8,,,,*5F
$GPGMP,183012.00,,,,,,05,,,,2.0,123*73
$GLGMP,183012.00,,,,,,06,,,,,*70
$GAGMP,183012.00,,,,,,03,,,,,*78
$GBGMP,183012.00,,,,,,05,,,,,*7D
$PSSN,SNC,[0,325830000,2347]*4B
$GPZDA,183017.00,01,01,2025,,*6F
$GPDTM,W84,,00.0000000,N,00.0000000,E,00.0000000,W84*5F
$GPRMC,183017.00,A,4742.4461327,N,01617.9724315,E,0.0,,010125,5.1,E,D*1B
$GPGLL,4742.4461327,N,01617.9724315,E,183017.00,A,D*6A
$GPGGA,183017.00,4742.4461327,N,01617.9724315,E,2,17,0.9,626.7840,M,43.2111,M,3.0,0123*46
$GNGNS,183017.00,4742.4461327,N,01617.9724315,E,DAAA,17,0.9,626.7840,43.2111,,*59
$GPGNS,183017.00,,,,,,05,,,,3.0,123*77
$GLGNS,183017.00,,,,,,05,,,,,*76
$GAGNS,183017.00,,,,,,02,,,,,*7C
$GBGNS,183017.00,,,,,,05,,,,,*78
$GPLLQ,183017.00,010125,,M,,M,1,17,3.314,,M*1E
$GPVTG,,T,,M,0.01,N,0.01,K,D*26
$GPHDT,,T*1B
$GPTHS,,V*0E
$GPROT,,V*08
$PSSN,HRP,183017.00,010125,,,,,,,00,0,,*6D
$PTNL,AVR,183017.00,,Yaw,,Tilt,,,,0,,00*3B
$GPGSA,A,3,16,18,23,26,27,,,,,,,,1.8,0.9,1.6*3B
$GPGSA,A,3,73,80,81,82,83,,,,,,,,1.8,0.9,1.6*31
$GPGSA,A,3,13,21,,,,,,,,,,,1.8,0.9,1.6*34
$GPGSA,A,3,11,23,28,37,43,,,,,,,,1.8,0.9,1.6*3D
$GPGST,183017.00,5.705,1.436,0.805,28.687,1.318,0.987,2.876*64
$GPGBS,183017.00,5.370,3.741,11.580,81,0.0001,17.562,6.202*57
$GPGRS,183017.00,1,0.4,-0.2,-1.4,0.2,1.2,,,,,,,*6E
$GPGRS,183017.00,1,1.1,-1.0,17.6,-0.2,-1.4,,,,,,,*77
$GPGRS,183017.00,1,0.2,0.1,,,,,,,,,,*41
$GPGRS,183017.00,1,-1.4,-0.1,-2.5,-0.4,-1.0,,,,,,,*47
$GPGSV,4,1,16,18,68,059,49,10,14,174,,29,23,093,29,05,11,034,23*73
$GPGSV,4,2,16,27,32,288,38,31,11,221,27,23,41,140,40,16,60,288,43*72
$GPGSV,4,3,16,26,62,214,49,15,06,084,,08,00,285,,07,03,339,*77
$GPGSV,4,4,16,36,35,170,40,34,31,208,,49,34,195,36,61,03,257,*76
$GLGSV,3,1,10,82,69,005,46,66,22,066,32,79,10,176,29,73,43,310,48*6C
$GLGSV,3,2,10,81,27,054,36,65,12,017,,83,50,268,43,80,53,215,43*61
$GLGSV,3,3,10,67,09,116,,74,07,337,*69
$GAGSV,2,1,08,13,76,218,50,23,25,313,,26,22,228,31,14,22,279,*6E
$GAGSV,2,2,08,27,41,159,32,15,47,053,34,21,70,265,47,05,02,034,*6C
$GBGSV,5,1,20,43,72,055,50,14,12,134,,38,25,038,26,60,11,109,*67
$GBGSV,5,2,20,58,20,320,,21,21,056,29,05,22,129,,23,37,214,43*62
$GBGSV,5,3,20,42,21,109,34,34,24,075,23,50,24,081,,08,38,044,27*6B
$GBGSV,5,4,20,37,41,284,41,13,43,054,33,28,39,265,46,11,48,065,43*6D
$GBGSV,5,5,20,46,07,329,,33,00,155,,25,03,176,,02,07,106,*63
$GPGGA,183017.00,,,,,0,00,,,M,,M,,*44
$PTNL,GGK,183017.00,010125,4742.4461327,N,01617.9724315,E,1,17,1.8,EHT669.9951,M*4E
$GPGGQ,183017.00,010125,4742.4461327,N,01617.9724315,E,1,17,3.314,626.7840,M*38
$GPGFA,183017.00,13.654,23.582,1.436,0.805,28.687,2.876,,VVV*31
$GPLLK,183017.00,010125,,M,,M,1,17,2.2,,M*01
$GNGMP,183017.00,,,,,DAAA,17,0.9,,,,*55
$GPGMP,183017.00,,,,,,05,,,,3.0,123*77
$GLGMP,183017.00,,,,,,05,,,,,*76
$GAGMP,183017.00,,,,,,02,,,,,*7C
$GBGMP,183017.00,,,,,,05,,,,,*78
$PSSN,SNC,[0,325835000,2347]*4E
$GPZDA,183022.00,01,01,2025,,*69
$GPDTM,W84,,00.0000000,N,00.0000000,E,00.0000000,W84*5F
$GPRMC,183022.00,A,4742.4461240,N,01617.9724508,E,0.0,,010125,5.1,E,D*17
$GPGLL,4742.4461240,N,01617.9724508,E,183022.00,A,D*66
$GPGGA,183022.00,4742.4461240,N,01617.9724508,E,2,18,0.8,626.7985,M,43.2111,M,4.0,0123*4B
$GNGNS,183022.00,4742.4461240,N,01617.9724508,E,DAAA,18,0.8,626.7985,43.2111,,*53
$GPGNS,183022.00,,,,,,05,,,,4.0,123*76
$GLGNS,183022.00,,,,,,04,,,,,*71
$GAGNS,183022.00,,,,,,03,,,,,*7B
$GBGNS,183022.00,,,,,,06,,,,,*7D
$GPLLQ,183022.00,010125,,M,,M,1,18,2.929,,M*12
$GPVTG,,T,,M,0.01,N,0.01,K,D*26
$GPHDT,,T*1B
$GPTHS,,V*0E
$GPROT,,V*08
$PSSN,HRP,183022.00,010125,,,,,,,00,0,,*6B
$PTNL,AVR,183022.00,,Yaw,,Tilt,,,,0,,00*3D
$GPGSA,A,3,16,18,23,26,27,,,,,,,,1.7,0.8,1.5*36
$GPGSA,A,3,73,80,82,83,,,,,,,,,1.7,0.8,1.5*35
$GPGSA,A,3,13,15,21,,,,,,,,,,1.7,0.8,1.5*3D
$GPGSA,A,3,11,23,28,37,42,43,,,,,,,1.7,0.8,1.5*36
$GPGST,183022.00,1.854,1.273,0.708,28.899,1.165,0.873,2.542*61
$GPGBS,183022.00,5.533,3.851,11.869,23,0.0001,-1.834,0.742*4F
$GPGRS,183022.00,1,0.2,-0.3,-1.8,0.4,1.6,,,,,,,*61
$GPGRS,183022.00,1,1.8,-3.0,-0.7,-2.6,,,,,,,,*60
$GPGRS,183022.00,1,0.8,-2.0,0.2,,,,,,,,,*4F
$GPGRS,183022.00,1,-0.5,0.4,-2.5,0.3,-0.3,-0.9,,,,,,*4B
$GPGSV,4,1,16,18,67,059,49,10,14,174,,29,23,093,32,05,11,034,27*72
$GPGSV,4,2,16,27,32,288,37,31,11,221,27,23,41,140,39,16,60,288,44*74
$GPGSV,4,3,16,26,62,214,49,15,06,084,,08,00,285,,07,03,339,*77
$GPGSV,4,4,16,36,35,170,40,34,31,208,,49,34,195,36,61,03,257,*76
$GLGSV,3,1,10,82,69,005,46,66,22,066,29,79,10,176,28,73,43,310,49*66
$GLGSV,3,2,10,81,27,054,34,65,12,017,,83,50,268,43,80,53,215,39*6E
$GLGSV,3,3,10,67,09,116,,74,07,337,*69
$GAGSV,2,1,08,13,76,218,50,23,25,313,,26,22,228,31,14,22,280,*68
$GAGSV,2,2,08,27,41,159,34,15,47,053,36,21,70,265,47,05,02,034,*68
$GBGSV,5,1,20,43,72,055,50,14,12,134,,38,25,038,25,60,11,109,*64
$GBGSV,5,2,20,58,20,319,,21,21,056,33,05,22,129,,23,37,214,43*63
$GBGSV,5,3,20,42,21,109,35,34,24,075,25,50,24,081,,08,38,044,27*6C
$GBGSV,5,4,20,37,41,284,41,13,43,054,33,28,39,265,46,11,48,065,44*6A
$GBGSV,5,5,20,46,07,329,,33,00,155,,25,03,176,,02,07,106,*63
$GPGGA,183022.00,,,,,0,00,,,M,,M,,*42
$PTNL,GGK,183022.00,010125,4742.4461240,N,01617.9724508,E,1,18,1.7,EHT670.0096,M*41
$GPGGQ,183022.00,010125,4742.4461240,N,01617.9724508,E,1,18,2.929,626.7985,M*36
$GPGFA,183022.00,12.099,20.841,1.273,0.708,28.899,2.542,,VVV*3E
$GPLLK,183022.00,010125,,M,,M,1,18,2.0,,M*0A
$GNGMP,183022.00,,,,,DAAA,18,0.8,,,,*5D
$GPGMP,183022.00,,,,,,05,,,,4.0,123*76
$GLGMP,183022.00,,,,,,04,,,,,*71
$GAGMP,183022.00,,,,,,03,,,,,*7B
$GBGMP,183022.00,,,,,,06,,,,,*7D
$PSSN,SNC,[0,325840000,2347]*4C
$GPZDA,183027.00,01,01,2025,,*6C
$GPDTM,W84,,00.0000000,N,00.0000000,E,00.0000000,W84*5F
$GPRMC,183027.00,A,4742.4461168,N,01617.9724716,E,0.0,,010125,5.1,E,D*16
$GPGLL,4742.4461168,N,01617.9724716,E,183027.00,A,D*67
$GPGGA,183027.00,4742.4461168,N,01617.9724716,E,2,19,0.8,626.7851,M,43.2111,M,1.0,0123*46
$GNGNS,183027.00,4742.4461168,N,01617.9724716,E,DAAA,19,0.8,626.7851,43.2111,,*5B
$GPGNS,183027.00,,,,,,05,,,,1.0,123*76
$GLGNS,183027.00,,,,,,04,,,,,*74
$GAGNS,183027.00,,,,,,04,,,,,*79
$GBGNS,183027.00,,,,,,06,,,,,*78
$GPLLQ,183027.00,010125,,M,,M,1,19,2.441,,M*15
$GPVTG,,T,,M,0.01,N,0.01,K,D*26
$GPHDT,,T*1B
$GPTHS,,V*0E
$GPROT,,V*08
$PSSN,HRP,183027.00,010125,,,,,,,00,0,,*6E
$PTNL,AVR,183027.00,,Yaw,,Tilt,,,,0,,00*38
$GPGSA,A,3,16,18,23,26,27,,,,,,,,1.7,0.8,1.5*36
$GPGSA,A,3,73,80,82,83,,,,,,,,,1.7,0.8,1.5*35
$GPGSA,A,3,13,15,21,27,,,,,,,,,1.7,0.8,1.5*38
$GPGSA,A,3,11,23,28,37,42,43,,,,,,,1.7,0.8,1.5*36
$GPGST,183027.00,1.724,1.053,0.590,28.961,0.965,0.726,2.122*6D
$GPGBS,183027.00,5.215,3.637,11.388,23,0.0001,-1.547,0.701*4D
$GPGRS,183027.00,1,0.4,-0.0,-1.5,0.5,0.8,,,,,,,*62
$GPGRS,183027.00,1,1.9,-1.8,-1.7,-2.7,,,,,,,,*6E
$GPGRS,183027.00,1,1.0,-0.2,0.3,-0.6,,,,,,,,*47
$GPGRS,183027.00,1,-0.4,0.4,-3.0,0.3,1.9,-0.7,,,,,,*63
$GPGSV,4,1,16,18,67,059,48,10,14,174,,29,23,093,35,05,11,034,27*74
$GPGSV,4,2,16,27,32,288,36,31,11,221,28,23,41,140,38,16,60,288,44*7B
$GPGSV,4,3,16,26,62,214,50,15,06,084,,08,00,285,,07,03,339,*7F
$GPGSV,4,4,16,36,35,170,40,34,31,208,,49,34,195,36,61,03,257,*76
$GLGSV,3,1,10,82,69,005,45,66,22,066,29,79,10,176,27,73,43,310,48*6B
$GLGSV,3,2,10,81,27,054,32,65,12,017,24,83,50,268,42,80,53,214,35*62
$GLGSV,3,3,10,67,09,116,,74,07,337,*69
$GAGSV,2,1,08,13,76,218,51,23,25,313,,26,22,228,30,14,23,280,*69
$GAGSV,2,2,08,27,41,159,36,15,47,053,38,21,70,265,46,05,02,034,*65
$GBGSV,5,1,20,43,72,055,50,14,12,134,,38,25,038,33,60,11,109,*63
$GBGSV,5,2,20,58,20,319,,21,21,056,35,05,22,129,,23,37,214,43*65
$GBGSV,5,3,20,42,21,109,36,34,24,075,29,50,24,081,,08,38,044,27*63
$GBGSV,5,4,20,37,41,284,41,13,43,054,33,28,39,265,46,11,48,065,44*6A
$GBGSV,5,5,20,46,07,329,,33,00,155,,25,03,176,,02,07,106,*63
$GPGGA,183027.00,,,,,0,00,,,M,,M,,*47
$PTNL,GGK,183027.00,010125,4742.4461168,N,01617.9724716,E,1,19,1.7,EHT669.9961,M*41
$GPGGQ,183027.00,010125,4742.4461168,N,01617.9724716,E,1,19,2.441,626.7851,M*3D
$GPGFA,183027.00,10.016,17.397,1.053,0.590,28.961,2.122,,VVV*3D
$GPLLK,183027.00,010125,,M,,M,1,19,2.0,,M*0E
$GNGMP,183027.00,,,,,DAAA,19,0.8,,,,*59
$GPGMP,183027.00,,,,,,05,,,,1.0,123*76
$GLGMP,183027.00,,,,,,04,,,,,*74
$GAGMP,183027.00,,,,,,04,,,,,*79
$GBGMP,183027.00,,,,,,06,,,,,*78
$PSSN,SNC,[0,325845000,2347]*49
$GPZDA,183032.00,01,01,2025,,*68
$GPDTM,W84,,00.0000000,N,00.0000000,E,00.0000000,W84*5F
$GPRMC,183032.00,A,4742.4461128,N,01617.9724834,E,0.0,,010125,5.1,E,D*19
$GPGLL,4742.4461128,N,01617.9724834,E,183032.00,A,D*68
$GPGGA,183032.00,4742.4461128,N,01617.9724834,E,2,21,0.7,626.7742,M,43.2111,M,2.0,0123*43
$GNGNS,183032.00,4742.4461128,N,01617.9724834,E,DAAA,21,0.7,626.7742,43.2111,,*5D
$GPGNS,183032.00,,,,,,05,,,,2.0,123*71
$GLGNS,183032.00,,,,,,05,,,,,*71
$GAGNS,183032.00,,,,,,04,,,,,*7D
$GBGNS,183032.00,,,,,,07,,,,,*7D
$GPLLQ,183032.00,010125,,M,,M,1,21,3.045,,M*1B
$GPVTG,,T,,M,0.00,N,0.01,K,D*27
$GPHDT,,T*1B
$GPTHS,,V*0E
$GPROT,,V*08
$PSSN,HRP,183032.00,010125,,,,,,,00,0,,*6A
$PTNL,AVR,183032.00,,Yaw,,Tilt,,,,0,,00*3C
$GPGSA,A,3,16,18,23,26,27,,,,,,,,1.4,0.7,1.2*3D
$GPGSA,A,3,73,80,81,82,83,,,,,,,,1.4,0.7,1.2*37
$GPGSA,A,3,13,15,21,27,,,,,,,,,1.4,0.7,1.2*33
$GPGSA,A,3,11,21,23,28,37,42,43,,,,,,1.4,0.7,1.2*3E
$GPGST,183032.00,5.094,1.298,0.747,27.745,1.200,0.896,2.652*66
$GPGBS,183032.00,5.020,3.545,11.280,23,0.0001,-2.096,0.712*4A
$GPGRS,183032.00,1,0.6,0.0,-2.1,0.8,-0.1,,,,,,,*67
$GPGRS,183032.00,1,1.7,-4.1,-5.6,-2.7,-2.5,,,,,,,*69
$GPGRS,183032.00,1,1.0,0.6,0.5,-0.6,,,,,,,,*6C
$GPGRS,183032.00,1,-0.1,16.1,0.4,-2.0,0.4,5.2,-0.7,,,,,*73
$GPGSV,4,1,16,18,67,059,48,10,14,174,,29,23,093,35,05,11,034,27*74
$GPGSV,4,2,16,27,32,288,36,31,11,221,30,23,41,140,38,16,60,288,45*73
$GPGSV,4,3,16,26,62,214,50,15,06,084,,08,00,285,,07,03,339,*7F
$GPGSV,4,4,16,36,35,170,40,34,31,208,,49,34,195,36,61,03,257,*76
$GLGSV,3,1,10,82,69,005,45,66,22,066,25,79,10,176,25,73,43,310,48*65
$GLGSV,3,2,10,81,27,054,36,65,12,017,26,83,50,268,41,80,53,214,37*65
$GLGSV,3,3,10,67,09,116,,74,07,337,*69
$GAGSV,2,1,08,13,76,218,51,23,25,313,,26,22,228,30,14,23,280,*69
$GAGSV,2,2,08,27,41,159,36,15,47,053,38,21,70,265,46,05,02,034,*65
$GBGSV,5,1,20,43,72,055,50,14,12,134,,38,25,038,22,60,11,109,*63
$GBGSV,5,2,20,58,20,319,,21,21,056,36,05,22,129,,23,37,214,42*67
$GBGSV,5,3,20,42,21,109,35,34,24,075,30,50,24,081,,08,38,044,28*67
$GBGSV,5,4,20,37,41,284,41,13,43,054,33,28,39,265,47,11,48,065,45*6A
$GBGSV,5,5,20,46,07,329,,33,00,155,,25,03,176,,02,07,106,*63
$GPGGA,183032.00,,,,,0,00,,,M,,M,,*43
$PTNL,GGK,183032.00,010125,4742.4461128,N,01617.9724834,E,1,21,1.4,EHT669.9852,M*47
$GPGGQ,183032.00,010125,4742.4461128,N,01617.9724834,E,1,21,3.045,626.7742,M*35
$GPGFA,183032.00,12.340,21.744,1.298,0.747,27.745,2.652,,VVV*3E
$GPLLK,183032.00,010125,,M,,M,1,21,1.7,,M*05
$GNGMP,183032.00,,,,,DAAA,21,0.7,,,,*59
$GPGMP,183032.00,,,,,,05,,,,2.0,123*71
$GLGMP,183032.00,,,,,,05,,,,,*71
$GAGMP,183032.00,,,,,,04,,,,,*7D
$GBGMP,183032.00,,,,,,07,,,,,*7D
$PSSN,SNC,[0,325850000,2347]*4D
$GPZDA,183037.00,01,01,2025,,*6D
$GPDTM,W84,,00.0000000,N,00.0000000,E,00.0000000,W84*5F
$GPRMC,183037.00,A,4742.4461041,N,01617.9724986,E,0.0,,010125,5.1,E,D*1A
$GPGLL,4742.4461041,N,01617.9724986,E,183037.00,A,D*6B
$GPGGA,183037.00,4742.4461041,N,01617.9724986,E,2,20,0.7,626.7587,M,43.2111,M,3.0,0123*4B
$GNGNS,183037.00,4742.4461041,N,01617.9724986,E,DAAA,20,0.7,626.7587,43.2111,,*54
$GPGNS,183037.00,,,,,,05,,,,3.0,123*75
$GLGNS,183037.00,,,,,,05,,,,,*74
$GAGNS,183037.00,,,,,,04,,,,,*78
$GBGNS,183037.00,,,,,,06,,,,,*79
$GPLLQ,183037.00,010125,,M,,M,1,20,3.698,,M*19
$GPVTG,,T,,M,0.00,N,0.00,K,D*26
$GPHDT,,T*1B
$GPTHS,,V*0E
$GPROT,,V*08
$PSSN,HRP,183037.00,010125,,,,,,,00,0,,*6F
$PTNL,AVR,183037.00,,Yaw,,Tilt,,,,0,,00*39
$GPGSA,A,3,16,18,23,26,27,,,,,,,,1.5,0.7,1.3*3D
$GPGSA,A,3,73,80,81,82,83,,,,,,,,1.5,0.7,1.3*37
$GPGSA,A,3,13,15,21,27,,,,,,,,,1.5,0.7,1.3*33
$GPGSA,A,3,11,21,23,28,37,43,,,,,,,1.5,0.7,1.3*38
$GPGST,183037.00,7.120,1.577,0.907,27.977,1.456,1.090,3.220*66
$GPGBS,183037.00,5.102,3.610,11.474,23,0.0001,-2.530,0.729*41
$GPGRS,183037.00,1,0.4,0.4,-2.5,0.5,1.0,,,,,,,*40
$GPGRS,183037.00,1,3.3,-2.0,4.5,-3.2,-2.9,,,,,,,*4A
$GPGRS,183037.00,1,0.7,-0.1,0.3,-1.3,,,,,,,,*47
$GPGRS,183037.00,1,-0.5,24.3,-0.5,-0.9,1.5,-1.0,,,,,,*79
$GPGSV,4,1,16,18,67,059,48,10,14,174,,29,23,093,36,05,11,034,20*70
$GPGSV,4,2,16,27,32,288,37,31,11,221,32,23,41,140,36,16,61,287,45*70
$GPGSV,4,3,16,26,62,214,50,15,06,084,,08,01,285,,07,03,339,*7E
$GPGSV,4,4,16,36,35,170,40,34,31,208,,49,34,195,37,61,03,257,*77
$GLGSV,3,1,10,82,69,005,45,66,22,066,22,79,10,176,24,73,43,310,50*6A
$GLGSV,3,2,10,81,27,054,35,65,12,017,28,83,50,268,40,80,53,214,43*6A
$GLGSV,3,3,10,67,09,116,,74,07,337,*69
$GAGSV,2,1,08,13,76,218,51,23,25,313,,26,22,228,30,14,23,280,*69
$GAGSV,2,2,08,27,41,159,37,15,47,053,39,21,70,264,46,05,02,034,*64
$GBGSV,5,1,20,43,72,055,50,14,12,134,,38,25,038,22,60,11,109,*63
$GBGSV,5,2,20,58,20,319,,21,21,056,36,05,22,129,,23,37,214,42*67
$GBGSV,5,3,20,42,21,109,34,34,24,075,31,50,24,081,,08,38,044,29*66
$GBGSV,5,4,20,37,41,284,42,13,43,054,34,28,39,265,48,11,48,065,45*61
$GBGSV,5,5,20,46,07,329,,33,00,155,,25,03,176,,02,07,106,*63
$GPGGA,183037.00,,,,,0,00,,,M,,M,,*46
$PTNL,GGK,183037.00,010125,4742.4461041,N,01617.9724986,E,1,20,1.5,EHT669.9698,M*4C
$GPGGQ,183037.00,010125,4742.4461041,N,01617.9724986,E,1,20,3.698,626.7587,M*3A
$GPGFA,183037.00,14.995,26.405,1.577,0.907,27.977,3.220,,VVV*3D
$GPLLK,183037.00,010125,,M,,M,1,20,1.8,,M*0E
$GNGMP,183037.00,,,,,DAAA,20,0.7,,,,*5D
$GPGMP,183037.00,,,,,,05,,,,3.0,123*75
$GLGMP,183037.00,,,,,,05,,,,,*74
$GAGMP,183037.00,,,,,,04,,,,,*78
$GBGMP,183037.00,,,,,,06,,,,,*79
$PSSN,SNC,[0,325855000,2347]*48
$GPZDA,183042.00,01,01,2025,,*6F
$GPDTM,W84,,00.0000000,N,00.0000000,E,00.0000000,W84*5F
$GPRMC,183042.00,A,4742.4460961,N,01617.9725127,E,0.0,,010125,5.1,E,D*10
$GPGLL,4742.4460961,N,01617.9725127,E,183042.00,A,D*61
$GPGGA,183042.00,4742.4460961,N,01617.9725127,E,2,17,0.9,626.7745,M,43.2111,M,4.0,0123*40
$GNGNS,183042.00,4742.4460961,N,01617.9725127,E,DAAA,17,0.9,626.7745,43.2111,,*58
$GPGNS,183042.00,,,,,,04,,,,4.0,123*71
$GLGNS,183042.00,,,,,,04,,,,,*77
$GAGNS,183042.00,,,,,,04,,,,,*7A
$GBGNS,183042.00,,,,,,05,,,,,*78
$GPLLQ,183042.00,010125,,M,,M,1,17,3.926,,M*15
$GPVTG,,T,,M,0.00,N,0.00,K,D*26
$GPHDT,,T*1B
$GPTHS,,V*0E
$GPROT,,V*08
$PSSN,HRP,183042.00,010125,,,,,,,00,0,,*6D
$PTNL,AVR,183042.00,,Yaw,,Tilt,,,,0,,00*3B
$GPGSA,A,3,16,18,26,27,,,,,,,,,2.1,0.9,1.9*3F
$GPGSA,A,3,73,80,82,83,,,,,,,,,2.1,0.9,1.9*3D
$GPGSA,A,3,13,15,21,27,,,,,,,,,2.1,0.9,1.9*30
$GPGSA,A,3,11,23,28,37,43,,,,,,,,2.1,0.9,1.9*38
$GPGST,183042.00,2.768,1.420,0.958,319.945,1.250,1.172,3.533*55
$GPGBS,183042.00,8.982,7.966,23.808,27,0.0001,1.435,0.810*69
$GPGRS,183042.00,1,-0.6,-0.4,-0.1,1.4,,,,,,,,*69
$GPGRS,183042.00,1,4.1,-0.6,-2.8,-3.7,,,,,,,,*62
$GPGRS,183042.00,1,0.1,-1.2,-0.5,-1.7,,,,,,,,*6E
$GPGRS,183042.00,1,-1.3,-1.9,-0.7,4.6,-1.8,,,,,,,*6A
$GPGSV,4,1,16,18,67,059,46,10,14,174,,29,23,093,36,05,11,034,21*7F
$GPGSV,4,2,16,27,32,288,39,31,11,221,33,23,41,140,33,16,61,287,46*79
$GPGSV,4,3,16,26,62,214,50,15,06,084,,08,01,285,,07,03,339,*7E
$GPGSV,4,4,16,36,35,170,40,34,31,208,,49,34,195,36,61,03,257,*76
$GLGSV,3,1,10,82,69,005,46,66,22,066,27,79,10,176,24,73,43,310,51*6D
$GLGSV,3,2,10,81,27,054,35,65,12,017,25,83,50,268,40,80,53,214,47*63
$GLGSV,3,3,10,67,09,116,,74,07,337,*69
$GAGSV,2,1,08,13,76,218,50,23,25,313,,26,22,228,28,14,23,280,*61
$GAGSV,2,2,08,27,41,159,37,15,47,053,39,21,70,264,46,05,02,034,*64
$GBGSV,5,1,20,43,72,055,50,14,12,134,,38,25,038,22,60,11,109,*63
$GBGSV,5,2,20,58,20,319,,21,21,056,34,05,22,129,,23,37,214,41*66
$GBGSV,5,3,20,42,22,109,30,34,24,075,31,50,24,081,,08,38,044,29*61
$GBGSV,5,4,20,37,41,284,42,13,43,054,34,28,39,265,48,11,48,065,46*62
$GBGSV,5,5,20,46,07,329,,33,00,155,,25,03,176,,02,07,106,*63
$GPGGA,183042.00,,,,,0,00,,,M,,M,,*44
$PTNL,GGK,183042.00,010125,4742.4460961,N,01617.9725127,E,1,17,2.1,EHT669.9856,M*49
$GPGGQ,183042.00,010125,4742.4460961,N,01617.9725127,E,1,17,3.926,626.7745,M*32
$GPGFA,183042.00,13.505,28.969,1.420,0.958,319.945,3.533,,VVV*07
$GPLLK,183042.00,010125,,M,,M,1,17,2.7,,M*04
$GNGMP,183042.00,,,,,DAAA,17,0.9,,,,*55
$GPGMP,183042.00,,,,,,04,,,,4.0,123*71
$GLGMP,183042.00,,,,,,04,,,,,*77
$GAGMP,183042.00,,,,,,04,,,,,*7A
$GBGMP,183042.00,,,,,,05,,,,,*78
$PSSN,SNC,[0,325860000,2347]*4E
$GPZDA,183047.00,01,01,2025,,*6A
$GPDTM,W84,,00.0000000,N,00.0000000,E,00.0000000,W84*5F
$GPRMC,183047.00,A,4742.4461021,N,01617.9725196,E,0.0,,010125,5.1,E,D*13
$GPGLL,4742.4461021,N,01617.9725196,E,183047.00,A,D*62
$GPGGA,183047.00,4742.4461021,N,01617.9725196,E,2,18,0.8,626.7896,M,43.2111,M,1.0,0123*49
$GNGNS,183047.00,4742.4461021,N,01617.9725196,E,DAAA,18,0.8,626.7896,43.2111,,*54
$GPGNS,183047.00,,,,,,04,,,,1.0,123*71
$GLGNS,183047.00,,,,,,05,,,,,*73
$GAGNS,183047.00,,,,,,04,,,,,*7F
$GBGNS,183047.00,,,,,,05,,,,,*7D
$GPLLQ,183047.00,010125,,M,,M,1,18,3.648,,M*18
$GPVTG,,T,,M,0.01,N,0.01,K,D*26
$GPHDT,,T*1B
$GPTHS,,V*0E
$GPROT,,V*08
$PSSN,HRP,183047.00,010125,,,,,,,00,0,,*68
$PTNL,AVR,183047.00,,Yaw,,Tilt,,,,0,,00*3E
$GPGSA,A,3,16,18,26,27,,,,,,,,,1.8,0.8,1.6*3B
$GPGSA,A,3,73,80,81,82,83,,,,,,,,1.8,0.8,1.6*30
$GPGSA,A,3,13,15,21,27,,,,,,,,,1.8,0.8,1.6*34
$GPGSA,A,3,11,23,28,37,43,,,,,,,,1.8,0.8,1.6*3C
$GPGST,183047.00,4.484,1.340,0.912,324.514,1.213,1.075,3.268*56
$GPGBS,183047.00,8.514,6.837,20.537,37,0.0001,11.169,8.548*5D
$GPGRS,183047.00,1,-0.3,-0.7,0.4,0.7,,,,,,,,*40
$GPGRS,183047.00,1,4.3,3.1,6.1,-2.6,-3.5,,,,,,,*69
$GPGRS,183047.00,1,0.2,-1.9,-0.1,-1.2,,,,,,,,*62
$GPGRS,183047.00,1,-1.1,-1.4,-0.4,11.2,-1.7,,,,,,,*5C
$GPGSV,4,1,16,18,67,059,46,10,14,174,,29,23,093,35,05,11,034,21*7C
$GPGSV,4,2,16,27,32,288,41,31,11,221,32,23,41,140,38,16,61,287,46*7C
$GPGSV,4,3,16,26,62,214,50,15,06,084,,08,01,285,,07,03,339,*7E
$GPGSV,4,4,16,36,35,170,40,34,31,208,,49,34,195,37,61,03,257,*77
$GLGSV,3,1,10,82,68,006,46,66,22,066,29,79,10,176,24,73,43,310,51*61
$GLGSV,3,2,10,81,27,054,37,65,12,017,24,83,50,268,39,80,53,214,49*60
$GLGSV,3,3,10,67,09,116,,74,07,337,*69
$GAGSV,2,1,08,13,76,218,50,23,25,313,,26,22,228,26,14,23,280,*6F
$GAGSV,2,2,08,27,41,159,37,15,47,053,38,21,70,264,46,05,02,033,*62
$GBGSV,5,1,20,43,72,056,50,14,12,134,,38,25,038,31,60,11,109,*62
$GBGSV,5,2,20,58,20,319,,21,21,056,31,05,22,129,,23,37,214,41*63
$GBGSV,5,3,20,42,22,109,30,34,24,075,31,50,24,081,,08,38,044,29*61
$GBGSV,5,4,20,37,41,284,42,13,43,054,34,28,39,265,48,11,48,065,46*62
$GBGSV,5,5,20,46,07,329,,33,01,155,,25,03,176,,02,07,106,*62
$GPGGA,183047.00,,,,,0,00,,,M,,M,,*41
$PTNL,GGK,183047.00,010125,4742.4461021,N,01617.9725196,E,1,18,1.8,EHT670.0006,M*43
$GPGGQ,183047.00,010125,4742.4461021,N,01617.9725196,E,1,18,3.648,626.7896,M*38
$GPGFA,183047.00,12.740,26.796,1.340,0.912,324.514,3.268,,VVV*00
$GPLLK,183047.00,010125,,M,,M,1,18,2.2,,M*0B
$GNGMP,183047.00,,,,,DAAA,18,0.8,,,,*5E
$GPGMP,183047.00,,,,,,04,,,,1.0,123*71
$GLGMP,183047.00,,,,,,05,,,,,*73
$GAGMP,183047.00,,,,,,04,,,,,*7F
$GBGMP,183047.00,,,,,,05,,,,,*7D
$PSSN,SNC,[0,325865000,2347]*4B
$GPZDA,183052.00,01,01,2025,,*6E
$GPDTM,W84,,00.0000000,N,00.0000000,E,00.0000000,W84*5F
$GPRMC,183052.00,A,4742.4461018,N,01617.9725275,E,0.0,,010125,5.1,E,D*13
$GPGLL,4742.4461018,N,01617.9725275,E,183052.00,A,D*62
$GPGGA,183052.00,4742.4461018,N,01617.9725275,E,2,18,0.8,626.8006,M,43.2111,M,2.0,0123*44
$GNGNS,183052.00,4742.4461018,N,01617.9725275,E,DAAA,18,0.8,626.8006,43.2111,,*5A
$GPGNS,183052.00,,,,,,04,,,,2.0,123*76
$GLGNS,183052.00,,,,,,05,,,,,*77
$GAGNS,183052.00,,,,,,04,,,,,*7B
$GBGNS,183052.00,,,,,,05,,,,,*79
$GPLLQ,183052.00,010125,,M,,M,1,18,4.115,,M*14
$GPVTG,,T,,M,0.00,N,0.01,K,D*27
$GPHDT,,T*1B
$GPTHS,,V*0E
$GPROT,,V*08
$PSSN,HRP,183052.00,010125,,,,,,,00,0,,*6C
$PTNL,AVR,183052.00,,Yaw,,Tilt,,,,0,,00*3A
$GPGSA,A,3,16,18,26,27,,,,,,,,,1.8,0.8,1.6*3B
$GPGSA,A,3,73,80,81,82,83,,,,,,,,1.8,0.8,1.6*30
$GPGSA,A,3,13,15,21,27,,,,,,,,,1.8,0.8,1.6*34
$GPGSA,A,3,11,23,28,37,43,,,,,,,,1.8,0.8,1.6*3C
$GPGST,183052.00,6.050,1.505,1.023,324.110,1.359,1.210,3.691*5C
$GPGBS,183052.00,8.639,6.893,20.748,81,0.0001,10.891,6.195*59
$GPGRS,183052.00,1,0.1,-0.7,0.2,0.4,,,,,,,,*6E
$GPGRS,183052.00,1,3.7,3.1,10.9,-3.0,-5.1,,,,,,,*54
$GPGRS,183052.00,1,0.2,-3.4,0.1,-1.0,,,,,,,,*46
$GPGRS,183052.00,1,-0.8,0.9,-1.0,14.4,-1.8,,,,,,,*78
$GPGSV,4,1,16,18,67,059,45,10,14,174,,29,23,093,32,05,11,034,21*78
$GPGSV,4,2,16,27,32,288,41,31,11,221,30,23,41,140,37,16,61,287,47*70
$GPGSV,4,3,16,26,62,214,50,15,06,084,,08,01,285,,07,03,339,*7E
$GPGSV,4,4,16,36,35,170,40,34,31,208,,49,34,195,36,61,03,257,*76
$GLGSV,3,1,10,82,68,006,47,66,22,066,28,79,10,176,24,73,43,310,50*60
$GLGSV,3,2,10,81,27,054,33,65,12,017,22,83,50,268,38,80,53,214,49*63
$GLGSV,3,3,10,67,09,116,,74,07,337,*69
$GAGSV,2,1,08,13,76,218,50,23,25,313,,26,22,228,24,14,23,280,*6D
$GAGSV,2,2,08,27,41,159,38,15,46,053,37,21,70,264,46,05,02,033,*63
$GBGSV,5,1,20,43,72,056,49,14,12,134,,38,25,038,31,60,11,109,*6A
$GBGSV,5,2,20,58,20,319,,21,21,056,28,05,22,129,,23,37,214,41*6B
$GBGSV,5,3,20,42,22,109,30,34,24,075,31,50,24,081,,08,38,044,30*69
$GBGSV,5,4,20,37,41,284,40,13,43,054,34,28,39,265,48,11,48,065,47*61
$GBGSV,5,5,20,46,07,329,,33,01,155,,25,03,176,,02,07,106,*62
$GPGGA,183052.00,,,,,0,00,,,M,,M,,*45
$PTNL,GGK,183052.00,010125,4742.4461018,N,01617.9725275,E,1,18,1.8,EHT670.0117,M*42
$GPGGQ,183052.00,010125,4742.4461018,N,01617.9725275,E,1,18,4.115,626.8006,M*3E
$GPGFA,183052.00,14.312,30.263,1.505,1.023,324.110,3.691,,VVV*06
$GPLLK,183052.00,010125,,M,,M,1,18,2.2,,M*0F
$GNGMP,183052.00,,,,,DAAA,18,0.8,,,,*5A
$GPGMP,183052.00,,,,,,04,,,,2.0,123*76
$GLGMP,183052.00,,,,,,05,,,,,*77
$GAGMP,183052.00,,,,,,04,,,,,*7B
$GBGMP,183052.00,,,,,,05,,,,,*79
$PSSN,SNC,[0,325870000,2347]*4F
$GPZDA,183057.00,01,01,2025,,*6B
$GPDTM,W84,,00.0000000,N,00.0000000,E,00.0000000,W84*5F
$GPRMC,183057.00,A,4742.4461050,N,01617.9725365,E,0.0,,010125,5.1,E,D*1A
$GPGLL,4742.4461050,N,01617.9725365,E,183057.00,A,D*6B
$GPGGA,183057.00,4742.4461050,N,01617.9725365,E,2,17,0.9,626.7990,M,43.2111,M,3.0,0123*4B
$GNGNS,183057.00,4742.4461050,N,01617.9725365,E,DAAA,17,0.9,626.7990,43.2111,,*54
$GPGNS,183057.00,,,,,,04,,,,3.0,123*72
$GLGNS,183057.00,,,,,,04,,,,,*73
$GAGNS,183057.00,,,,,,04,,,,,*7E
$GBGNS,183057.00,,,,,,05,,,,,*7C
$GPLLQ,183057.00,010125,,M,,M,1,17,3.666,,M*1A
$GPVTG,,T,,M,0.00,N,0.01,K,D*27
$GPHDT,,T*1B
$GPTHS,,V*0E
$GPROT,,V*08
$PSSN,HRP,183057.00,010125,,,,,,,00,0,,*69
$PTNL,AVR,183057.00,,Yaw,,Tilt,,,,0,,00*3F
$GPGSA,A,3,16,18,26,27,,,,,,,,,2.1,0.9,1.9*3F
$GPGSA,A,3,73,80,82,83,,,,,,,,,2.1,0.9,1.9*3D
$GPGSA,A,3,13,15,21,27,,,,,,,,,2.1,0.9,1.9*30
$GPGSA,A,3,11,23,28,37,43,,,,,,,,2.1,0.9,1.9*38
$GPGST,183057.00,5.067,1.330,0.907,322.699,1.192,1.082,3.294*5D
$GPGBS,183057.00,8.772,7.782,23.387,37,0.0001,13.555,8.549*58
$GPGRS,183057.00,1,-0.2,-0.4,0.2,0.5,,,,,,,,*47
$GPGRS,183057.00,1,3.6,0.7,-2.5,-4.2,,,,,,,,*45
$GPGRS,183057.00,1,0.6,-3.9,0.6,0.4,,,,,,,,*65
$GPGRS,183057.00,1,-0.6,3.6,-1.2,13.6,-2.0,,,,,,,*73
$GPGSV,4,1,16,18,67,059,45,10,14,174,,29,23,093,28,05,11,034,24*76
$GPGSV,4,2,16,27,32,288,40,31,11,221,,23,41,140,26,16,61,287,47*72
$GPGSV,4,3,16,26,62,214,49,15,06,084,,08,01,285,,07,03,339,*76
$GPGSV,4,4,16,36,35,170,40,34,31,208,,49,34,195,36,61,03,257,*76
$GLGSV,3,1,10,82,68,006,48,66,22,066,36,79,10,176,25,73,43,310,50*61
$GLGSV,3,2,10,81,27,054,34,65,12,017,,83,50,268,38,80,53,214,49*64
$GLGSV,3,3,10,67,09,116,,74,07,337,*69
$GAGSV,2,1,08,13,76,218,50,23,25,313,,26,22,228,22,14,23,280,*6B
$GAGSV,2,2,08,27,41,159,39,15,46,053,36,21,70,264,46,05,02,033,*63
$GBGSV,5,1,20,43,71,056,48,14,12,134,,38,25,038,30,60,11,109,*69
$GBGSV,5,2,20,58,20,319,,21,21,056,25,05,22,129,,23,37,214,41*66
$GBGSV,5,3,20,42,22,108,31,34,24,075,31,50,24,081,,08,38,044,31*68
$GBGSV,5,4,20,37,41,284,39,13,43,054,35,28,39,265,47,11,48,065,46*60
$GBGSV,5,5,20,46,07,329,,33,01,155,,25,03,176,,02,07,106,*62
$GPGGA,183057.00,,,,,0,00,,,M,,M,,*40
$PTNL,GGK,183057.00,010125,4742.4461050,N,01617.9725365,E,1,17,2.1,EHT670.0101,M*49
$GPGGQ,183057.00,010125,4742.4461050,N,01617.9725365,E,1,17,3.666,626.7990,M*35
$GPGFA,183057.00,12.643,27.007,1.330,0.907,322.699,3.294,,VVV*0D
$GPLLK,183057.00,010125,,M,,M,1,17,2.7,,M*00
$GNGMP,183057.00,,,,,DAAA,17,0.9,,,,*51
$GPGMP,183057.00,,,,,,04,,,,3.0,123*72
$GLGMP,183057.00,,,,,,04,,,,,*73
$GAGMP,183057.00,,,,,,04,,,,,*7E
$GBGMP,183057.00,,,,,,05,,,,,*7C
$PSSN,SNC,[0,325875000,2347]*4A
$GPZDA,183102.00,01,01,2025,,*6A
$GPDTM,W84,,00.0000000,N,00.0000000,E,00.0000000,W84*5F
$GPRMC,183102.00,A,4742.4461063,N,01617.9725451,E,0.0,,010125,5.1,E,D*1B
$GPGLL,4742.4461063,N,01617.9725451,E,183102.00,A,D*6A
$GPGGA,183102.00,4742.4461063,N,01617.9725451,E,2,18,0.8,626.8069,M,43.2111,M,4.0,0123*43
$GNGNS,183102.00,4742.4461063,N,01617.9725451,E,DAAA,18,0.8,626.8069,43.2111,,*5B
$GPGNS,183102.00,,,,,,04,,,,4.0,123*74
$GLGNS,183102.00,,,,,,04,,,,,*72
$GAGNS,183102.00,,,,,,04,,,,,*7F
$GBGNS,183102.00,,,,,,06,,,,,*7E
$GPLLQ,183102.00,010125,,M,,M,1,18,2.986,,M*14
$GPVTG,,T,,M,0.01,N,0.01,K,D*26
$GPHDT,,T*1B
$GPTHS,,V*0E
$GPROT,,V*08
$PSSN,HRP,183102.00,010125,,,,,,,00,0,,*68
$PTNL,AVR,183102.00,,Yaw,,Tilt,,,,0,,00*3E
$GPGSA,A,3,16,18,26,27,,,,,,,,,2.0,0.8,1.8*3E
$GPGSA,A,3,73,80,82,83,,,,,,,,,2.0,0.8,1.8*3C
$GPGSA,A,3,13,15,21,27,,,,,,,,,2.0,0.8,1.8*31
$GPGSA,A,3,11,13,23,28,37,43,,,,,,,2.0,0.8,1.8*3B
$GPGST,183102.00,3.243,1.074,0.734,320.823,0.953,0.885,2.688*5C
$GPGBS,183102.00,8.947,7.861,23.719,37,0.0001,7.180,8.550*61
$GPGRS,183102.00,1,-0.0,-0.3,0.2,0.1,,,,,,,,*47
$GPGRS,183102.00,1,3.4,-1.4,-2.3,-2.9,,,,,,,,*62
$GPGRS,183102.00,1,0.5,-3.2,0.5,2.0,,,,,,,,*69
$GPGRS,183102.00,1,-1.0,-3.8,1.2,-0.6,7.2,-2.2,,,,,,*4D
$GPGSV,4,1,16,18,67,059,44,10,14,174,,29,23,093,22,05,11,034,28*71
$GPGSV,4,2,16,27,32,288,39,31,11,221,,23,42,140,21,16,61,287,46*79
$GPGSV,4,3,16,26,62,214,49,15,06,084,,08,01,285,,07,03,339,*76
$GPGSV,4,4,16,36,35,170,40,34,31,208,,49,34,195,36,61,03,257,*76
$GLGSV,3,1,10,82,68,006,48,66,22,066,33,79,10,176,25,73,43,310,50*64
$GLGSV,3,2,10,81,27,054,37,65,12,017,,83,50,268,38,80,53,214,49*67
$GLGSV,3,3,10,67,09,116,,74,07,337,*69
$GAGSV,2,1,08,13,76,218,50,23,25,313,,26,22,228,31,14,23,280,*69
$GAGSV,2,2,08,27,41,159,40,15,46,053,36,21,70,264,46,05,02,033,*6D
$GBGSV,5,1,20,43,71,056,48,14,13,134,,38,25,038,30,60,11,109,*68
$GBGSV,5,2,20,58,20,319,,21,21,056,26,05,22,129,,23,37,214,39*6A
$GBGSV,5,3,20,42,22,108,32,34,24,075,31,50,24,081,,08,38,044,31*6B
$GBGSV,5,4,20,37,41,284,44,13,43,054,35,28,39,265,47,11,48,065,46*6A
$GBGSV,5,5,20,46,07,329,,33,01,155,,25,03,176,,02,07,106,*62
$GPGGA,183102.00,,,,,0,00,,,M,,M,,*41
$PTNL,GGK,183102.00,010125,4742.4461063,N,01617.9725451,E,1,18,2.0,EHT670.0180,M*4F
$GPGGQ,183102.00,010125,4742.4461063,N,01617.9725451,E,1,18,2.986,626.8069,M*3B
$GPGFA,183102.00,10.209,22.044,1.074,0.734,320.823,2.688,,VVV*0E
$GPLLK,183102.00,010125,,M,,M,1,18,2.5,,M*0C
$GNGMP,183102.00,,,,,DAAA,18,0.8,,,,*5E
$GPGMP,183102.00,,,,,,04,,,,4.0,123*74
$GLGMP,183102.00,,,,,,04,,,,,*72
$GAGMP,183102.00,,,,,,04,,,,,*7F
$GBGMP,183102.00,,,,,,06,,,,,*7E
$PSSN,SNC,[0,325880000,2347]*40
$GPZDA,183107.00,01,01,2025,,*6F
$GPDTM,W84,,00.0000000,N,00.0000000,E,00.0000000,W84*5F
$GPRMC,183107.00,A,4742.4461089,N,01617.9725455,E,0.0,,010125,5.1,E,D*1E
$GPGLL,4742.4461089,N,01617.9725455,E,183107.00,A,D*6F
$GPGGA,183107.00,4742.4461089,N,01617.9725455,E,2,19,0.8,626.8046,M,43.2111,M,1.0,0123*4F
$GNGNS,183107.00,4742.4461089,N,01617.9725455,E,DAAA,19,0.8,626.8046,43.2111,,*52
$GPGNS,183107.00,,,,,,04,,,,1.0,123*74
$GLGNS,183107.00,,,,,,04,,,,,*77
$GAGNS,183107.00,,,,,,04,,,,,*7A
$GBGNS,183107.00,,,,,,07,,,,,*7A
$GPLLQ,183107.00,010125,,M,,M,1,19,2.848,,M*13
$GPVTG,,T,,M,0.00,N,0.00,K,D*26
$GPHDT,,T*1B
$GPTHS,,V*0E
$GPROT,,V*08
$PSSN,HRP,183107.00,010125,,,,,,,00,0,,*6D
$PTNL,AVR,183107.00,,Yaw,,Tilt,,,,0,,00*3B
$GPGSA,A,3,16,18,26,27,,,,,,,,,1.7,0.8,1.5*37
$GPGSA,A,3,73,80,82,83,,,,,,,,,1.7,0.8,1.5*35
$GPGSA,A,3,13,15,21,27,,,,,,,,,1.7,0.8,1.5*38
$GPGSA,A,3,11,13,23,28,37,42,43,,,,,,1.7,0.8,1.5*34
$GPGST,183107.00,3.286,1.024,0.717,322.903,0.924,0.842,2.559*51
$GPGBS,183107.00,8.349,6.917,20.829,23,0.0001,-7.137,8.562*4B
$GPGRS,183107.00,1,-0.0,-0.4,0.4,0.1,,,,,,,,*43
$GPGRS,183107.00,1,2.8,-0.9,-1.7,-3.5,,,,,,,,*6C
$GPGRS,183107.00,1,0.9,3.2,0.4,3.0,,,,,,,,*4D
$GPGRS,183107.00,1,-1.6,-2.3,-7.1,0.1,-4.3,2.2,-1.8,,,,,*4E
$GPGSV,4,1,16,18,67,059,43,10,14,174,,29,23,093,21,05,11,034,29*74
$GPGSV,4,2,16,27,32,288,38,31,11,221,24,23,42,140,34,16,61,287,46*7A
$GPGSV,4,3,16,26,62,213,48,15,06,084,,08,01,285,,07,03,339,*70
$GPGSV,4,4,16,36,35,170,40,34,31,208,,49,34,195,36,61,03,257,*76
$GLGSV,3,1,10,82,68,006,49,66,22,066,27,73,43,310,49,65,12,017,*66
$GLGSV,3,2,10,81,27,054,34,83,50,268,39,80,53,214,48,74,07,337,*61
$GLGSV,3,3,10,67,09,116,,79,10,176,24*63
$GAGSV,2,1,08,13,76,218,51,23,25,313,,26,22,228,32,14,23,280,*6B
$GAGSV,2,2,08,27,41,159,40,15,46,053,36,21,70,264,46,05,02,033,*6D
$GBGSV,5,1,20,43,71,056,48,14,13,134,,38,25,038,30,60,11,109,*68
$GBGSV,5,2,20,58,20,319,,21,21,056,28,05,22,129,,23,37,214,35*68
$GBGSV,5,3,20,42,22,108,39,34,24,075,30,50,24,081,,08,38,044,32*62
$GBGSV,5,4,20,37,41,284,38,13,43,054,36,28,39,265,47,11,48,065,46*62
$GBGSV,5,5,20,46,07,329,,33,01,155,,25,03,176,,02,07,106,*62
$GPGGA,183107.00,,,,,0,00,,,M,,M,,*44
$PTNL,GGK,183107.00,010125,4742.4461089,N,01617.9725455,E,1,19,1.7,EHT670.0157,M*45
$GPGGQ,183107.00,010125,4742.4461089,N,01617.9725455,E,1,19,2.848,626.8046,M*31
$GPGFA,183107.00,9.735,20.984,1.024,0.717,322.903,2.559,,VVV*34
$GPLLK,183107.00,010125,,M,,M,1,19,2.0,,M*0D
$GNGMP,183107.00,,,,,DAAA,19,0.8,,,,*5A
$GPGMP,183107.00,,,,,,04,,,,1.0,123*74
$GLGMP,183107.00,,,,,,04,,,,,*77
$GAGMP,183107.00,,,,,,04,,,,,*7A
$GBGMP,183107.00,,,,,,07,,,,,*7A
$PSSN,SNC,[0,325885000,2347]*45
$GPZDA,183112.00,01,01,2025,,*6B
$GPDTM,W84,,00.0000000,N,00.0000000,E,00.0000000,W84*5F
$GPRMC,183112.00,A,4742.4461117,N,01617.9725483,E,0.0,,010125,5.1,E,D*17
$GPGLL,4742.4461117,N,01617.9725483,E,183112.00,A,D*66
$GPGGA,183112.00,4742.4461117,N,01617.9725483,E,2,18,0.8,626.8050,M,43.2111,M,2.0,0123*43
$GNGNS,183112.00,4742.4461117,N,01617.9725483,E,DAAA,18,0.8,626.8050,43.2111,,*5D
$GPGNS,183112.00,,,,,,04,,,,2.0,123*73
$GLGNS,183112.00,,,,,,04,,,,,*73
$GAGNS,183112.00,,,,,,04,,,,,*7E
$GBGNS,183112.00,,,,,,06,,,,,*7F
$GPLLQ,183112.00,010125,,M,,M,1,18,3.203,,M*12
$GPVTG,,T,,M,0.01,N,0.01,K,D*26
$GPHDT,,T*1B
$GPTHS,,V*0E
$GPROT,,V*08
$PSSN,HRP,183112.00,010125,,,,,,,00,0,,*69
$PTNL,AVR,183112.00,,Yaw,,Tilt,,,,0,,00*3F
$GPGSA,A,3,16,18,26,27,,,,,,,,,1.7,0.8,1.5*37
$GPGSA,A,3,73,80,82,83,,,,,,,,,1.7,0.8,1.5*35
$GPGSA,A,3,13,15,21,27,,,,,,,,,1.7,0.8,1.5*38
$GPGSA,A,3,11,13,28,37,42,43,,,,,,,1.7,0.8,1.5*35
$GPGST,183112.00,3.655,1.147,0.803,323.230,1.037,0.941,2.881*5B
$GPGBS,183112.00,8.574,6.980,21.086,15,0.0001,9.325,6.094*60
$GPGRS,183112.00,1,-0.0,-0.6,0.5,-0.2,,,,,,,,*6A
$GPGRS,183112.00,1,2.2,0.1,-1.3,-2.1,,,,,,,,*46
$GPGRS,183112.00,1,0.9,9.3,0.4,2.0,,,,,,,,*43
$GPGRS,183112.00,1,-1.3,-1.2,0.1,-5.1,3.3,-1.7,,,,,,*44
$GPGSV,4,1,16,18,67,059,43,10,14,173,,29,23,093,26,05,11,034,30*7C
$GPGSV,4,2,16,27,32,288,37,31,11,221,26,23,42,140,34,16,61,287,46*77
$GPGSV,4,3,16,26,62,213,48,15,06,084,,08,01,285,,07,03,339,*70
$GPGSV,4,4,16,36,35,170,40,34,31,208,,49,34,195,37,61,03,257,*77
$GLGSV,3,1,10,82,68,006,49,66,22,066,33,73,43,310,49,65,12,016,28*68
$GLGSV,3,2,10,81,27,054,34,83,50,268,39,80,53,214,48,74,07,337,*61
$GLGSV,3,3,10,67,09,116,,79,10,176,23*64
$GAGSV,2,1,08,13,76,218,50,23,25,313,,26,22,228,32,14,23,280,*6A
$GAGSV,2,2,08,27,41,159,39,15,46,053,35,21,70,264,45,05,02,033,*63
$GBGSV,5,1,20,43,71,056,48,14,13,134,,38,25,038,30,60,11,109,*68
$GBGSV,5,2,20,58,20,319,,21,21,056,28,05,22,129,,23,37,214,30*6D
$GBGSV,5,3,20,42,22,108,39,34,24,075,29,50,24,081,,08,38,044,32*6A
$GBGSV,5,4,20,37,41,284,39,13,43,054,37,28,40,265,46,11,48,065,46*6D
$GBGSV,5,5,20,46,07,329,,33,01,155,,25,03,176,,02,07,106,*62
$GPGGA,183112.00,,,,,0,00,,,M,,M,,*40
$PTNL,GGK,183112.00,010125,4742.4461117,N,01617.9725483,E,1,18,1.7,EHT670.0161,M*48
$GPGGQ,183112.00,010125,4742.4461117,N,01617.9725483,E,1,18,3.203,626.8050,M*3A
$GPGFA,183112.00,10.905,23.622,1.147,0.803,323.230,2.881,,VVV*09
$GPLLK,183112.00,010125,,M,,M,1,18,2.1,,M*09
$GNGMP,183112.00,,,,,DAAA,18,0.8,,,,*5F
$GPGMP,183112.00,,,,,,04,,,,2.0,123*73
$GLGMP,183112.00,,,,,,04,,,,,*73
$GAGMP,183112.00,,,,,,04,,,,,*7E
$GBGMP,183112.00,,,,,,06,,,,,*7F
$PSSN,SNC,[0,325890000,2347]*41
$GPZDA,183117.00,01,01,2025,,*6E
$GPDTM,W84,,00.0000000,N,00.0000000,E,00.0000000,W84*5F
$GPRMC,183117.00,A,4742.4461174,N,01617.9725498,E,0.0,,010125,5.1,E,D*1D
$GPGLL,4742.4461174,N,01617.9725498,E,183117.00,A,D*6C
$GPGGA,183117.00,4742.4461174,N,01617.9725498,E,2,19,0.8,626.8107,M,43.2111,M,3.0,0123*4A
$GNGNS,183117.00,4742.4461174,N,01617.9725498,E,DAAA,19,0.8,626.8107,43.2111,,*55
$GPGNS,183117.00,,,,,,04,,,,3.0,123*77
$GLGNS,183117.00,,,,,,04,,,,,*76
$GAGNS,183117.00,,,,,,04,,,,,*7B
$GBGNS,183117.00,,,,,,07,,,,,*7B
$GPLLQ,183117.00,010125,,M,,M,1,19,2.894,,M*13
$GPVTG,,T,,M,0.00,N,0.01,K,D*27
$GPHDT,,T*1B
$GPTHS,,V*0E
$GPROT,,V*08
$PSSN,HRP,183117.00,010125,,,,,,,00,0,,*6C
$PTNL,AVR,183117.00,,Yaw,,Tilt,,,,0,,00*3A
$GPGSA,A,3,16,18,26,27,,,,,,,,,1.7,0.8,1.5*37
$GPGSA,A,3,73,80,82,83,,,,,,,,,1.7,0.8,1.5*35
$GPGSA,A,3,13,15,21,27,,,,,,,,,1.7,0.8,1.5*38
$GPGSA,A,3,11,13,23,28,37,42,43,,,,,,1.7,0.8,1.5*34
$GPGST,183117.00,3.439,1.035,0.724,322.858,0.933,0.850,2.604*53
$GPGBS,183117.00,8.625,7.073,21.355,15,0.0001,10.058,6.093*5D
$GPGRS,183117.00,1,-0.4,-0.2,0.2,-0.3,,,,,,,,*69
$GPGRS,183117.00,1,1.7,0.1,-1.2,-1.4,,,,,,,,*42
$GPGRS,183117.00,1,0.5,10.1,0.3,1.0,,,,,,,,*74
$GPGRS,183117.00,1,-0.8,1.1,-1.9,0.2,-1.5,4.8,-1.6,,,,,*60
$GPGSV,4,1,16,18,67,059,44,10,14,173,,29,23,093,27,05,11,034,29*72
$GPGSV,4,2,16,27,32,289,35,31,11,221,27,23,42,140,34,16,61,287,45*76
$GPGSV,4,3,16,26,62,213,47,15,06,084,,08,01,285,,07,03,339,*7F
$GPGSV,4,4,16,36,35,170,40,34,31,208,,49,34,195,37,61,03,257,*77
$GLGSV,3,1,10,82,68,006,49,66,22,066,33,73,43,310,48,65,12,016,29*68
$GLGSV,3,2,10,81,27,054,35,83,50,268,40,80,53,214,48,74,07,337,*6E
$GLGSV,3,3,10,67,09,116,,79,10,176,22*65
$GAGSV,2,1,08,13,76,218,51,23,25,313,,26,22,228,33,14,23,280,*6A
$GAGSV,2,2,08,27,41,159,39,15,46,053,36,21,70,264,46,05,02,033,*63
$GBGSV,5,1,20,43,71,056,48,14,13,134,,38,25,038,22,60,11,109,*6B
$GBGSV,5,2,20,58,20,319,,21,21,056,,05,22,129,,23,37,214,36*61
$GBGSV,5,3,20,42,22,108,37,34,24,075,27,50,24,081,,08,38,044,32*6A
$GBGSV,5,4,20,37,41,284,39,13,43,054,38,28,40,265,46,11,48,065,46*62
$GBGSV,5,5,20,46,07,329,,33,01,155,,25,02,176,,02,07,106,*63
$GPGGA,183117.00,,,,,0,00,,,M,,M,,*45
$PTNL,GGK,183117.00,010125,4742.4461174,N,01617.9725498,E,1,19,1.7,EHT670.0217,M*41
$GPGGQ,183117.00,010125,4742.4461174,N,01617.9725498,E,1,19,2.894,626.8107,M*37
$GPGFA,183117.00,9.837,21.355,1.035,0.724,322.858,2.604,,VVV*3B
$GPLLK,183117.00,010125,,M,,M,1,19,2.0,,M*0C
$GNGMP,183117.00,,,,,DAAA,19,0.8,,,,*5B
$GPGMP,183117.00,,,,,,04,,,,3.0,123*77
$GLGMP,183117.00,,,,,,04,,,,,*76
$GAGMP,183117.00,,,,,,04,,,,,*7B
$GBGMP,183117.00,,,,,,07,,,,,*7B
$PSSN,SNC,[0,325895000,2347]*44
$GPZDA,183122.00,01,01,2025,,*68
$GPDTM,W84,,00.0000000,N,00.0000000,E,00.0000000,W84*5F
$GPRMC,183122.00,A,4742.4461191,N,01617.9725462,E,0.0,,010125,5.1,E,D*15
$GPGLL,4742.4461191,N,01617.9725462,E,183122.00,A,D*64
$GPGGA,183122.00,4742.4461191,N,01617.9725462,E,2,19,0.8,626.8039,M,43.2111,M,4.0,0123*49
$GNGNS,183122.00,4742.4461191,N,01617.9725462,E,DAAA,19,0.8,626.8039,43.2111,,*51
$GPGNS,183122.00,,,,,,04,,,,4.0,123*76
$GLGNS,183122.00,,,,,,05,,,,,*71
$GAGNS,183122.00,,,,,,03,,,,,*7A
$GBGNS,183122.00,,,,,,07,,,,,*7D
$GPLLQ,183122.00,010125,,M,,M,1,19,3.864,,M*1B
$GPVTG,,T,,M,0.00,N,0.01,K,D*27
$GPHDT,,T*1B
$GPTHS,,V*0E
$GPROT,,V*08
$PSSN,HRP,183122.00,010125,,,,,,,00,0,,*6A
$PTNL,AVR,183122.00,,Yaw,,Tilt,,,,0,,00*3C
$GPGSA,A,3,16,18,26,27,,,,,,,,,1.6,0.8,1.4*37
$GPGSA,A,3,73,80,81,82,83,,,,,,,,1.6,0.8,1.4*3C
$GPGSA,A,3,13,21,27,,,,,,,,,,1.6,0.8,1.4*3C
$GPGSA,A,3,11,13,23,28,37,42,43,,,,,,1.6,0.8,1.4*34
$GPGST,183122.00,2.666,1.410,0.990,327.131,1.301,1.130,3.459*52
$GPGBS,183122.00,8.955,6.530,19.773,27,0.0001,-1.812,0.815*41
$GPGRS,183122.00,1,-0.3,0.2,0.6,-1.8,,,,,,,,*4B
$GPGRS,183122.00,1,2.0,0.3,6.1,-0.6,-1.5,,,,,,,*6F
$GPGRS,183122.00,1,0.6,0.6,-0.0,,,,,,,,,*46
$GPGRS,183122.00,1,0.8,2.8,-2.2,0.7,-1.6,4.5,-1.1,,,,,*45
$GPGSV,4,1,16,18,67,059,44,10,14,173,,29,23,093,28,05,11,034,28*7C
$GPGSV,4,2,16,27,32,289,36,31,11,221,27,23,42,140,35,16,61,287,45*74
$GPGSV,4,3,16,26,62,213,46,15,06,084,,08,01,285,,07,03,339,*7E
$GPGSV,4,4,16,36,35,170,40,34,31,208,,49,34,195,37,61,03,257,*77
$GLGSV,3,1,10,82,68,006,49,66,22,066,32,73,43,309,48,65,12,016,*6A
$GLGSV,3,2,10,81,27,054,36,83,50,269,40,80,53,214,48,74,07,337,*6C
$GLGSV,3,3,10,67,09,116,,79,10,176,22*65
$GAGSV,2,1,08,13,76,218,50,23,25,313,,26,22,228,33,14,23,280,*6B
$GAGSV,2,2,08,27,41,159,39,15,46,053,35,21,70,264,45,05,03,033,*62
$GBGSV,5,1,20,43,71,056,48,14,13,134,,38,25,038,30,60,11,109,*68
$GBGSV,5,2,20,58,20,319,,21,21,056,27,05,22,129,,23,37,214,36*64
$GBGSV,5,3,20,42,22,108,36,34,24,075,28,50,24,081,,08,38,044,32*64
$GBGSV,5,4,20,37,41,284,35,13,43,054,38,28,40,265,46,11,47,065,46*61
$GBGSV,5,5,20,46,07,329,,33,01,155,,25,02,176,,02,07,106,*63
$GPGGA,183122.00,,,,,0,00,,,M,,M,,*43
$PTNL,GGK,183122.00,010125,4742.4461191,N,01617.9725462,E,1,19,1.6,EHT670.0149,M*40
$GPGGQ,183122.00,010125,4742.4461191,N,01617.9725462,E,1,19,3.864,626.8039,M*3D
$GPGFA,183122.00,13.410,28.362,1.410,0.990,327.131,3.459,,VVV*08
$GPLLK,183122.00,010125,,M,,M,1,19,1.9,,M*00
$GNGMP,183122.00,,,,,DAAA,19,0.8,,,,*5D
$GPGMP,183122.00,,,,,,04,,,,4.0,123*76
$GLGMP,183122.00,,,,,,05,,,,,*71
$GAGMP,183122.00,,,,,,03,,,,,*7A
$GBGMP,183122.00,,,,,,07,,,,,*7D
$PSSN,SNC,[0,325900000,2347]*49
$GPZDA,183127.00,01,01,2025,,*6D
$GPDTM,W84,,00.0000000,N,00.0000000,E,00.0000000,W84*5F
$GPRMC,183127.00,A,4742.4461234,N,01617.9725414,E,0.0,,010125,5.1,E,D*1D
$GPGLL,4742.4461234,N,01617.9725414,E,183127.00,A,D*6C
$GPGGA,183127.00,4742.4461234,N,01617.9725414,E,2,18,0.8,626.8097,M,43.2111,M,1.0,0123*41
$GNGNS,183127.00,4742.4461234,N,01617.9725414,E,DAAA,18,0.8,626.8097,43.2111,,*5C
$GPGNS,183127.00,,,,,,05,,,,1.0,123*77
$GLGNS,183127.00,,,,,,05,,,,,*74
$GAGNS,183127.00,,,,,,03,,,,,*7F
$GBGNS,183127.00,,,,,,05,,,,,*7A
$GPLLQ,183127.00,010125,,M,,M,1,18,4.048,,M*1E
$GPVTG,,T,,M,0.01,N,0.02,K,D*25
$GPHDT,,T*1B
$GPTHS,,V*0E
$GPROT,,V*08
$PSSN,HRP,183127.00,010125,,,,,,,00,0,,*6F
$PTNL,AVR,183127.00,,Yaw,,Tilt,,,,0,,00*39
$GPGSA,A,3,16,18,23,26,27,,,,,,,,1.7,0.8,1.6*35
$GPGSA,A,3,73,80,81,82,83,,,,,,,,1.7,0.8,1.6*3F
$GPGSA,A,3,13,21,27,,,,,,,,,,1.7,0.8,1.6*3F
$GPGSA,A,3,11,13,23,28,43,,,,,,,,1.7,0.8,1.6*35
$GPGST,183127.00,4.941,1.650,0.911,28.733,1.512,1.126,3.582*68
$GPGBS,183127.00,5.185,3.624,11.658,23,0.0001,2.298,0.782*6C
$GPGRS,183127.00,1,-0.9,-0.9,2.3,0.3,0.7,,,,,,,*6B
$GPGRS,183127.00,1,1.9,0.8,14.9,-1.2,-3.2,,,,,,,*50
$GPGRS,183127.00,1,0.2,0.4,-1.2,,,,,,,,,*46
$GPGRS,183127.00,1,0.6,2.9,-3.3,0.1,-1.6,,,,,,,*65
$GPGSV,4,1,16,18,67,059,44,10,14,173,,29,23,093,30,05,11,034,25*78
$GPGSV,4,2,16,27,32,289,39,31,11,221,30,23,42,140,36,16,61,287,44*7F
$GPGSV,4,3,16,26,62,213,45,15,06,084,,08,01,285,,07,03,339,*7D
$GPGSV,4,4,16,36,35,170,40,34,31,208,,49,34,195,37,61,03,257,*77
$GLGSV,3,1,10,82,68,006,48,66,22,065,33,73,43,309,48,65,12,016,*69
$GLGSV,3,2,10,81,27,054,35,83,50,269,40,80,53,214,47,74,07,337,*60
$GLGSV,3,3,10,67,09,116,,79,10,176,21*66
$GAGSV,2,1,08,13,76,218,50,23,25,313,,26,22,228,33,14,23,280,*6B
$GAGSV,2,2,08,27,41,159,39,15,46,053,39,21,70,264,45,05,03,033,*6E
$GBGSV,5,1,20,43,71,056,49,14,13,134,,38,25,038,24,60,11,109,*6C
$GBGSV,5,2,20,58,20,319,,21,21,056,29,05,22,129,,23,37,214,36*6A
$GBGSV,5,3,20,42,22,108,34,34,24,075,30,50,24,081,,08,38,044,33*6E
$GBGSV,5,4,20,37,41,284,30,13,43,054,38,28,40,265,46,11,47,065,45*67
$GBGSV,5,5,20,46,07,329,,33,01,155,,25,02,176,,02,07,106,*63
$GPGGA,183127.00,,,,,0,00,,,M,,M,,*46
$PTNL,GGK,183127.00,010125,4742.4461234,N,01617.9725414,E,1,18,1.7,EHT670.0208,M*4E
$GPGGQ,183127.00,010125,4742.4461234,N,01617.9725414,E,1,18,4.048,626.8097,M*31
$GPGFA,183127.00,15.687,29.373,1.650,0.911,28.733,3.582,,VVV*36
$GPLLK,183127.00,010125,,M,,M,1,18,2.1,,M*0F
$GNGMP,183127.00,,,,,DAAA,18,0.8,,,,*59
$GPGMP,183127.00,,,,,,05,,,,1.0,123*77
$GLGMP,183127.00,,,,,,05,,,,,*74
$GAGMP,183127.00,,,,,,03,,,,,*7F
$GBGMP,183127.00,,,,,,05,,,,,*7A
$PSSN,SNC,[0,325905000,2347]*4C
$GPZDA,183132.00,01,01,2025,,*69
$GPDTM,W84,,00.0000000,N,00.0000000,E,00.0000000,W84*5F
$GPRMC,183132.00,A,4742.4461362,N,01617.9725380,E,0.0,,010125,5.1,E,D*11
$GPGLL,4742.4461362,N,01617.9725380,E,183132.00,A,D*60
$GPGGA,183132.00,4742.4461362,N,01617.9725380,E,2,16,0.9,626.8366,M,43.2111,M,2.0,0123*4C
$GNGNS,183132.00,4742.4461362,N,01617.9725380,E,DAAA,16,0.9,626.8366,43.2111,,*52
$GPGNS,183132.00,,,,,,05,,,,2.0,123*70
$GLGNS,183132.00,,,,,,04,,,,,*71
$GAGNS,183132.00,,,,,,03,,,,,*7B
$GBGNS,183132.00,,,,,,04,,,,,*7F
$GPLLQ,183132.00,010125,,M,,M,1,16,2.515,,M*1F
$GPVTG,,T,,M,0.01,N,0.01,K,D*26
$GPHDT,,T*1B
$GPTHS,,V*0E
$GPROT,,V*08
$PSSN,HRP,183132.00,010125,,,,,,,00,0,,*6B
$PTNL,AVR,183132.00,,Yaw,,Tilt,,,,0,,00*3D
$GPGSA,A,3,16,18,23,26,27,,,,,,,,2.1,0.9,1.9*3E
$GPGSA,A,3,73,80,82,83,,,,,,,,,2.1,0.9,1.9*3D
$GPGSA,A,3,13,21,27,,,,,,,,,,2.1,0.9,1.9*34
$GPGSA,A,3,11,13,28,43,,,,,,,,,2.1,0.9,1.9*3F
$GPGST,183132.00,1.946,1.040,0.621,28.102,0.963,0.735,2.203*60
$GPGBS,183132.00,5.474,3.824,11.990,16,0.0001,-1.023,0.624*41
$GPGRS,183132.00,1,-1.0,-0.6,0.9,0.5,0.7,,,,,,,*66
$GPGRS,183132.00,1,2.4,-0.8,-1.7,-3.5,,,,,,,,*67
$GPGRS,183132.00,1,0.3,0.3,-1.9,,,,,,,,,*4F
$GPGRS,183132.00,1,-0.4,1.3,0.0,-2.0,,,,,,,,*40
$GPGSV,4,1,16,18,67,059,44,10,15,173,,29,22,093,31,05,11,034,25*79
