$GPZDA,115942.00,01,01,2025,,*69
$GPDTM,W84,,00.0000000,N,00.0000000,E,00.0000000,W84*5F
$GPRMC,115942.00,A,4742.4454220,N,01617.9733190,E,0.0,,010125,5.1,E,D*14
$GPGLL,4742.4454220,N,01617.9733190,E,115942.00,A,D*65
$GPGGA,115942.00,4742.4454220,N,01617.9733190,E,2,23,0.6,625.3049,M,43.2110,M,1.8,0123*4C
$GNGNS,115942.00,4742.4454220,N,01617.9733190,E,DAAA,23,0.6,625.3049,43.2110,,*59
$GPGNS,115942.00,,,,,,05,,,,1.8,123*7B
$GLGNS,115942.00,,,,,,05,,,,,*70
$GAGNS,115942.00,,,,,,05,,,,,*7D
$GBGNS,115942.00,,,,,,08,,,,,*73
$GPLLQ,115942.00,010125,,M,,M,1,23,2.568,,M*13
$GPVTG,,T,,M,0.00,N,0.01,K,D*27
$GPHDT,,T*1B
$GPTHS,,V*0E
$GPROT,,V*08
$PSSN,HRP,115942.00,010125,,,,,,,00,0,,*6B
$PTNL,AVR,115942.00,,Yaw,,Tilt,,,,0,,00*3D
$GPGSA,A,3,12,15,19,25,32,,,,,,,,1.1,0.6,0.9*34
$GPGSA,A,3,68,76,77,78,86,,,,,,,,1.1,0.6,0.9*33
$GPGSA,A,3,02,07,08,29,30,,,,,,,,1.1,0.6,0.9*38
$GPGSA,A,3,14,24,26,29,33,35,41,42,,,,,1.1,0.6,0.9*34
$GPGST,115942.00,7.820,1.168,0.894,335.801,1.127,0.945,2.106*5F
$GPGBS,115942.00,5.043,4.240,10.159,29,0.0001,25.564,8.943*55
$GPGRS,115942.00,1,0.3,-0.2,-1.0,1.6,-1.2,,,,,,,*43
$GPGRS,115942.00,1,2.3,-3.9,-7.0,-3.0,1.3,,,,,,,*4A
$GPGRS,115942.00,1,0.1,1.1,2.4,0.4,1.3,,,,,,,*6B
$GPGRS,115942.00,1,-0.3,5.0,-2.3,25.6,6.1,2.6,12.1,-3.4,,,,*69
$GPGSV,5,1,17,24,84,153,34,22,15,065,,06,14,103,,15,20,191,43*7F
$GPGSV,5,2,17,32,16,321,37,17,23,044,35,25,21,255,38,19,47,068,39*79
$GPGSV,5,3,17,12,61,257,50,23,00,251,,11,01,135,,10,09,289,36*77
$GPGSV,5,4,17,13,05,163,,36,35,170,36,34,31,208,35,49,34,195,36*76
$GPGSV,5,5,17,61,03,257,*4B
$GLGSV,3,1,10,77,68,351,36,78,23,280,46,66,10,200,27,87,25,129,32*69
$GLGSV,3,2,10,85,13,018,,86,36,073,45,68,34,314,49,76,38,067,49*69
$GLGSV,3,3,10,67,41,248,35,69,01,349,*68
$GAGSV,3,1,12,02,64,057,46,29,12,323,36,11,14,049,,36,13,097,*67
$GAGSV,3,2,12,25,12,065,,08,43,195,45,18,55,136,,07,52,280,42*6F
$GAGSV,3,3,12,30,58,254,44,03,03,164,,27,08,248,,10,08,023,*6E
$GBGSV,6,1,21,24,65,294,45,42,12,212,37,41,18,318,37,11,14,233,*61
$GBGSV,6,2,21,40,14,039,24,05,20,130,,29,15,037,39,44,27,154,35*66
$GBGSV,6,3,21,07,18,051,29,33,30,265,41,14,24,236,36,10,31,057,28*61
$GBGSV,6,4,21,35,41,098,40,56,37,057,,26,57,084,40,12,09,169,*63
$GBGSV,6,5,21,43,02,252,,02,04,109,,45,04,094,,25,09,278,*6E
$GBGSV,6,6,21,60,08,111,*57
$GPGGA,115942.00,,,,,0,00,,,M,,M,,*42
$PTNL,GGK,115942.00,010125,4742.4454220,N,01617.9733190,E,1,23,1.1,EHT668.5159,M*42
$GPGGQ,115942.00,010125,4742.4454220,N,01617.9733190,E,1,23,2.568,625.3049,M*3A
$GPGFA,115942.00,11.104,17.266,1.168,0.894,335.801,2.106,,VVV*0A
$GPLLK,115942.00,010125,,M,,M,1,23,1.2,,M*03
$GNGMP,115942.00,,,,,DAAA,23,0.6,,,,*5B
$GPGMP,115942.00,,,,,,05,,,,1.8,123*7B
$GLGMP,115942.00,,,,,,05,,,,,*70
$GAGMP,115942.00,,,,,,05,,,,,*7D
$GBGMP,115942.00,,,,,,08,,,,,*73
$PSSN,SNC,[0,302400000,2347]*41
$GPZDA,115947.00,01,01,2025,,*6C
$GPDTM,W84,,00.0000000,N,00.0000000,E,00.0000000,W84*5F
$GPRMC,115947.00,A,4742.4454287,N,01617.9733379,E,0.0,,010125,5.1,E,D*19
$GPGLL,4742.4454287,N,01617.9733379,E,115947.00,A,D*68
$GPGGA,115947.00,4742.4454287,N,01617.9733379,E,2,23,0.6,625.3022,M,43.2110,M,2.0,0123*47
$GNGNS,115947.00,4742.4454287,N,01617.9733379,E,DAAA,23,0.6,625.3022,43.2110,,*59
$GPGNS,115947.00,,,,,,05,,,,2.0,123*75
$GLGNS,115947.00,,,,,,05,,,,,*75
$GAGNS,115947.00,,,,,,05,,,,,*78
$GBGNS,115947.00,,,,,,08,,,,,*76
$GPLLQ,115947.00,010125,,M,,M,1,23,2.789,,M*1B
$GPVTG,,T,,M,0.01,N,0.01,K,D*26
$GPHDT,,T*1B
$GPTHS,,V*0E
$GPROT,,V*08
$PSSN,HRP,115947.00,010125,,,,,,,00,0,,*6E
$PTNL,AVR,115947.00,,Yaw,,Tilt,,,,0,,00*38
$GPGSA,A,3,12,15,19,25,32,,,,,,,,1.1,0.6,1.0*3C
$GPGSA,A,3,67,68,76,78,86,,,,,,,,1.1,0.6,1.0*3A
$GPGSA,A,3,02,07,08,29,30,,,,,,,,1.1,0.6,1.0*30
$GPGSA,A,3,14,24,26,29,33,35,41,42,,,,,1.1,0.6,1.0*3C
$GPGST,115947.00,6.907,1.255,0.953,335.301,1.208,1.012,2.301*52
$GPGBS,115947.00,5.012,4.255,10.352,29,0.0001,25.285,8.944*56
$GPGRS,115947.00,1,0.7,-0.1,-1.5,2.0,-1.5,,,,,,,*46
$GPGRS,115947.00,1,5.2,3.2,-3.6,-3.8,1.8,,,,,,,*6E
$GPGRS,115947.00,1,-0.1,1.2,2.3,0.4,0.5,,,,,,,*40
$GPGRS,115947.00,1,-0.0,2.5,-1.6,25.3,1.1,2.7,-2.3,-4.0,,,,*75
$GPGSV,5,1,17,24,84,153,36,22,15,065,,06,14,103,,15,20,191,43*7D
$GPGSV,5,2,17,32,16,321,36,17,22,044,35,25,21,255,40,19,47,068,41*79
$GPGSV,5,3,17,12,61,257,50,23,00,251,,11,01,135,,10,09,289,36*77
$GPGSV,5,4,17,13,05,163,,36,35,170,36,34,31,208,35,49,34,195,36*76
$GPGSV,5,5,17,61,03,257,*4B
$GLGSV,3,1,10,77,68,351,34,78,23,280,45,66,10,200,25,87,25,129,33*6B
$GLGSV,3,2,10,85,13,018,25,86,36,073,45,68,34,314,50,76,38,067,49*66
$GLGSV,3,3,10,67,41,248,38,69,01,349,*65
$GAGSV,3,1,12,02,64,057,46,29,12,323,35,11,14,049,,36,13,097,*64
$GAGSV,3,2,12,25,12,065,,08,43,195,44,18,55,136,,07,52,280,42*6E
$GAGSV,3,3,12,30,58,254,44,03,03,164,,27,08,248,,10,08,023,*6E
$GBGSV,6,1,21,24,65,294,45,42,12,212,37,41,18,318,39,11,14,233,*6F
$GBGSV,6,2,21,40,14,039,24,05,20,130,,29,15,037,39,44,27,154,26*64
$GBGSV,6,3,21,07,18,051,24,33,30,265,39,14,24,236,35,10,31,057,29*61
$GBGSV,6,4,21,35,41,098,40,56,37,057,,26,57,084,42,12,09,169,*61
$GBGSV,6,5,21,43,02,252,,02,04,109,,45,04,094,,25,09,278,*6E
$GBGSV,6,6,21,60,08,111,*57
$GPGGA,115947.00,,,,,0,00,,,M,,M,,*47
$PTNL,GGK,115947.00,010125,4742.4454287,N,01617.9733379,E,1,23,1.1,EHT668.5133,M*43
$GPGGQ,115947.00,010125,4742.4454287,N,01617.9733379,E,1,23,2.789,625.3022,M*37
$GPGFA,115947.00,11.936,18.868,1.255,0.953,335.301,2.301,,VVV*04
$GPLLK,115947.00,010125,,M,,M,1,23,1.3,,M*07
$GNGMP,115947.00,,,,,DAAA,23,0.6,,,,*5E
$GPGMP,115947.00,,,,,,05,,,,2.0,123*75
$GLGMP,115947.00,,,,,,05,,,,,*75
$GAGMP,115947.00,,,,,,05,,,,,*78
$GBGMP,115947.00,,,,,,08,,,,,*76
$PSSN,SNC,[0,302405000,2347]*44
$GPZDA,115952.00,01,01,2025,,*68
$GPDTM,W84,,00.0000000,N,00.0000000,E,00.0000000,W84*5F
$GPRMC,115952.00,A,4742.4454318,N,01617.9733574,E,0.0,,010125,5.1,E,D*11
$GPGLL,4742.4454318,N,01617.9733574,E,115952.00,A,D*60
$GPGGA,115952.00,4742.4454318,N,01617.9733574,E,2,23,0.6,625.3066,M,43.2110,M,3.2,0123*4C
$GNGNS,115952.00,4742.4454318,N,01617.9733574,E,DAAA,23,0.6,625.3066,43.2110,,*51
$GPGNS,115952.00,,,,,,06,,,,3.2,123*71
$GLGNS,115952.00,,,,,,06,,,,,*72
$GAGNS,115952.00,,,,,,04,,,,,*7D
$GBGNS,115952.00,,,,,,07,,,,,*7D
$GPLLQ,115952.00,010125,,M,,M,1,23,2.595,,M*10
$GPVTG,,T,,M,0.00,N,0.01,K,D*27
$GPHDT,,T*1B
$GPTHS,,V*0E
$GPROT,,V*08
$PSSN,HRP,115952.00,010125,,,,,,,00,0,,*6A
$PTNL,AVR,115952.00,,Yaw,,Tilt,,,,0,,00*3C
$GPGSA,A,3,10,12,15,19,25,32,,,,,,,1.1,0.6,0.9*35
$GPGSA,A,3,67,68,76,77,78,86,,,,,,,1.1,0.6,0.9*32
$GPGSA,A,3,02,07,08,30,,,,,,,,,1.1,0.6,0.9*33
$GPGSA,A,3,24,26,29,33,35,41,42,,,,,,1.1,0.6,0.9*31
$GPGST,115952.00,7.016,1.169,0.943,337.716,1.140,0.979,2.115*5E
$GPGBS,115952.00,5.156,4.249,10.236,29,0.0001,23.671,8.945*55
$GPGRS,115952.00,1,0.6,0.5,-0.7,-1.0,2.2,-1.6,,,,,,*6A
$GPGRS,115952.00,1,5.5,3.0,-4.2,-7.7,-4.6,2.1,,,,,,*6C
$GPGRS,115952.00,1,-0.5,0.9,1.5,-0.2,,,,,,,,*4F
$GPGRS,115952.00,1,-1.5,-0.6,23.7,-5.6,0.7,-3.3,-5.2,,,,,*71
$GPGSV,5,1,17,24,84,153,35,22,15,065,,06,14,103,,15,20,191,43*7E
$GPGSV,5,2,17,32,16,321,36,17,22,044,35,25,21,255,42,19,47,068,42*78
$GPGSV,5,3,17,12,61,257,50,23,00,251,,11,01,135,,10,09,289,37*76
$GPGSV,5,4,17,13,05,163,,36,35,170,36,34,31,208,34,49,34,195,35*74
$GPGSV,5,5,17,61,03,257,*4B
$GLGSV,3,1,10,77,68,352,36,78,23,280,44,66,10,200,22,87,25,128,*6D
$GLGSV,3,2,10,85,13,018,30,86,36,073,46,68,34,314,50,76,38,067,49*61
$GLGSV,3,3,10,67,41,248,40,69,01,349,*6A
$GAGSV,3,1,12,02,64,057,46,29,12,323,35,11,14,049,,36,13,097,*64
$GAGSV,3,2,12,25,12,065,21,08,43,195,43,18,55,136,,07,52,280,43*6B
$GAGSV,3,3,12,30,58,254,45,03,03,164,,27,08,248,,10,08,023,*6F
$GBGSV,6,1,21,24,65,294,44,42,12,212,37,41,18,318,37,11,14,233,*60
$GBGSV,6,2,21,40,14,039,23,05,20,130,,29,15,037,38,44,27,154,34*61
$GBGSV,6,3,21,07,18,051,29,33,30,265,40,14,24,236,34,10,31,057,30*6B
$GBGSV,6,4,21,35,41,098,38,56,37,057,,26,57,084,43,12,09,169,*6F
$GBGSV,6,5,21,43,02,252,,02,04,109,,45,04,094,,25,09,278,*6E
$GBGSV,6,6,21,60,08,111,*57
$GPGGA,115952.00,,,,,0,00,,,M,,M,,*43
$PTNL,GGK,115952.00,010125,4742.4454318,N,01617.9733574,E,1,23,1.1,EHT668.5177,M*4B
$GPGGQ,115952.00,010125,4742.4454318,N,01617.9733574,E,1,23,2.595,625.3066,M*30
$GPGFA,115952.00,11.118,17.346,1.169,0.943,337.716,2.115,,VVV*06
$GPLLK,115952.00,010125,,M,,M,1,23,1.2,,M*02
$GNGMP,115952.00,,,,,DAAA,23,0.6,,,,*5A
$GPGMP,115952.00,,,,,,06,,,,3.2,123*71
$GLGMP,115952.00,,,,,,06,,,,,*72
$GAGMP,115952.00,,,,,,04,,,,,*7D
$GBGMP,115952.00,,,,,,07,,,,,*7D
$PSSN,SNC,[0,302410000,2347]*40
$GPZDA,115957.00,01,01,2025,,*6D
$GPDTM,W84,,00.0000000,N,00.0000000,E,00.0000000,W84*5F
$GPRMC,115957.00,A,4742.4454343,N,01617.9733749,E,0.0,,010125,5.1,E,D*16
$GPGLL,4742.4454343,N,01617.9733749,E,115957.00,A,D*67
$GPGGA,115957.00,4742.4454343,N,01617.9733749,E,2,22,0.6,625.3122,M,43.2110,M,2.8,0123*40
$GNGNS,115957.00,4742.4454343,N,01617.9733749,E,DAAA,22,0.6,625.3122,43.2110,,*56
$GPGNS,115957.00,,,,,,06,,,,2.8,123*7F
$GLGNS,115957.00,,,,,,06,,,,,*77
$GAGNS,115957.00,,,,,,04,,,,,*78
$GBGNS,115957.00,,,,,,06,,,,,*79
$GPLLQ,115957.00,010125,,M,,M,1,22,2.627,,M*1E
$GPVTG,,T,,M,0.01,N,0.01,K,D*26
$GPHDT,,T*1B
$GPTHS,,V*0E
$GPROT,,V*08
$PSSN,HRP,115957.00,010125,,,,,,,00,0,,*6F
$PTNL,AVR,115957.00,,Yaw,,Tilt,,,,0,,00*39
$GPGSA,A,3,10,12,15,19,25,32,,,,,,,1.1,0.6,0.9*35
$GPGSA,A,3,67,68,76,77,78,86,,,,,,,1.1,0.6,0.9*32
$GPGSA,A,3,02,07,08,30,,,,,,,,,1.1,0.6,0.9*33
$GPGSA,A,3,24,26,29,33,41,42,,,,,,,1.1,0.6,0.9*37
$GPGST,115957.00,6.926,1.196,0.962,337.760,1.165,0.999,2.132*5E
$GPGBS,115957.00,5.206,4.353,9.734,25,0.0001,2.603,1.041*5D
$GPGRS,115957.00,1,1.1,0.2,-1.1,-0.9,2.6,-0.9,,,,,,*6B
$GPGRS,115957.00,1,7.1,3.3,-4.6,-5.7,-4.4,1.8,,,,,,*62
$GPGRS,115957.00,1,-0.4,0.2,0.7,0.1,,,,,,,,*6D
$GPGRS,115957.00,1,-1.7,0.2,22.2,-5.2,-4.2,-5.4,,,,,,*76
$GPGSV,5,1,17,24,84,153,35,22,15,065,,06,14,103,,15,20,191,43*7E
$GPGSV,5,2,17,32,16,321,37,17,22,044,35,25,21,255,43,19,47,068,43*79
$GPGSV,5,3,17,12,62,257,49,23,00,251,,11,01,135,,10,09,289,38*72
$GPGSV,5,4,17,13,05,163,,36,35,170,36,34,31,208,34,49,34,195,36*77
$GPGSV,5,5,17,61,03,257,*4B
$GLGSV,3,1,10,77,68,352,38,78,23,280,44,66,10,200,21,87,25,128,*60
$GLGSV,3,2,10,85,13,018,35,86,36,073,45,68,34,314,51,76,38,067,49*66
$GLGSV,3,3,10,67,41,248,42,69,01,349,*68
$GAGSV,3,1,12,02,64,057,46,29,12,323,33,11,14,049,,36,13,097,*62
$GAGSV,3,2,12,25,12,065,20,08,43,195,42,18,55,136,,07,52,280,43*6B
$GAGSV,3,3,12,30,58,254,46,03,03,164,,27,08,248,,10,08,023,*6C
$GBGSV,6,1,21,24,65,294,45,42,12,212,37,41,18,318,36,11,14,233,*60
$GBGSV,6,2,21,40,14,039,24,05,20,130,,29,15,037,36,44,27,154,33*6F
$GBGSV,6,3,21,07,18,051,28,33,30,265,40,14,24,236,35,10,31,057,32*69
$GBGSV,6,4,21,35,41,098,35,56,37,057,,26,57,084,43,12,09,169,*62
$GBGSV,6,5,21,43,02,252,,02,04,109,,45,04,094,,25,09,278,*6E
$GBGSV,6,6,21,60,08,111,*57
$GPGGA,115957.00,,,,,0,00,,,M,,M,,*46
$PTNL,GGK,115957.00,010125,4742.4454343,N,01617.9733749,E,1,22,1.1,EHT668.5233,M*4E
$GPGGQ,115957.00,010125,4742.4454343,N,01617.9733749,E,1,22,2.627,625.3122,M*3D
$GPGFA,115957.00,11.370,17.485,1.196,0.962,337.760,2.132,,VVV*00
$GPLLK,115957.00,010125,,M,,M,1,22,1.3,,M*07
$GNGMP,115957.00,,,,,DAAA,22,0.6,,,,*5E
$GPGMP,115957.00,,,,,,06,,,,2.8,123*7F
$GLGMP,115957.00,,,,,,06,,,,,*77
$GAGMP,115957.00,,,,,,04,,,,,*78
$GBGMP,115957.00,,,,,,06,,,,,*79
$PSSN,SNC,[0,302415000,2347]*45
$GPZDA,120002.00,01,01,2025,,*62
$GPDTM,W84,,00.0000000,N,00.0000000,E,00.0000000,W84*5F
$GPRMC,120002.00,A,4742.4454341,N,01617.9734005,E,0.0,,010125,5.1,E,D*13
$GPGLL,4742.4454341,N,01617.9734005,E,120002.00,A,D*62
$GPGGA,120002.00,4742.4454341,N,01617.9734005,E,2,19,0.7,625.3289,M,43.2110,M,1.8,0123*4D
$GNGNS,120002.00,4742.4454341,N,01617.9734005,E,DAAA,19,0.7,625.3289,43.2110,,*58
$GPGNS,120002.00,,,,,,05,,,,1.8,123*70
$GLGNS,120002.00,,,,,,06,,,,,*78
$GAGNS,120002.00,,,,,,04,,,,,*77
$GBGNS,120002.00,,,,,,04,,,,,*74
$GPLLQ,120002.00,010125,,M,,M,1,19,2.782,,M*17
$GPVTG,,T,,M,0.00,N,0.00,K,D*26
$GPHDT,,T*1B
$GPTHS,,V*0E
$GPROT,,V*08
$PSSN,HRP,120002.00,010125,,,,,,,00,0,,*60
$PTNL,AVR,120002.00,,Yaw,,Tilt,,,,0,,00*36
$GPGSA,A,3,12,15,19,25,32,,,,,,,,1.3,0.7,1.1*3E
$GPGSA,A,3,67,68,76,77,78,86,,,,,,,1.3,0.7,1.1*38
$GPGSA,A,3,02,07,08,30,,,,,,,,,1.3,0.7,1.1*39
$GPGSA,A,3,24,26,33,42,,,,,,,,,1.3,0.7,1.1*33
$GPGST,120002.00,4.085,1.269,0.924,337.393,1.224,0.983,2.296*5A
$GPGBS,120002.00,5.117,4.204,10.436,25,0.0001,3.098,1.008*63
$GPGRS,120002.00,1,-0.3,-1.0,-0.7,3.1,-1.4,,,,,,,*63
$GPGRS,120002.00,1,9.4,3.0,-4.3,-4.4,-4.4,1.7,,,,,,*6D
$GPGRS,120002.00,1,-0.5,-0.2,-0.0,0.4,,,,,,,,*61
$GPGRS,120002.00,1,-0.5,0.4,0.7,-5.2,,,,,,,,*4E
$GPGSV,4,1,16,24,84,153,36,22,15,065,,06,14,102,,15,20,191,43*7C
$GPGSV,4,2,16,32,16,321,38,17,22,044,34,25,21,255,43,19,47,068,44*70
$GPGSV,4,3,16,12,62,257,49,11,01,135,,10,09,289,38,13,05,163,*76
$GPGSV,4,4,16,36,35,170,35,34,31,208,35,49,34,195,35,61,03,257,*71
$GLGSV,3,1,10,77,68,352,40,78,23,280,45,66,10,200,21,87,26,128,32*6C
$GLGSV,3,2,10,85,13,018,34,86,36,073,45,68,34,313,50,76,38,067,49*61
$GLGSV,3,3,10,67,41,247,42,69,01,349,*67
$GAGSV,3,1,12,02,64,057,46,29,12,323,32,11,14,049,,36,13,097,*63
$GAGSV,3,2,12,25,12,065,21,08,43,195,39,18,55,136,,07,52,280,43*66
$GAGSV,3,3,12,30,58,254,47,03,03,164,,27,08,248,,10,08,023,*6D
$GBGSV,6,1,21,24,65,294,45,42,12,212,36,41,18,318,33,11,14,233,*64
$GBGSV,6,2,21,40,14,039,24,05,20,130,,29,15,037,33,44,27,154,33*6A
$GBGSV,6,3,21,07,18,051,23,33,30,265,40,14,24,236,35,10,31,057,33*63
$GBGSV,6,4,21,35,41,097,31,56,37,057,,26,57,084,43,12,09,169,*69
$GBGSV,6,5,21,43,02,252,,02,04,109,,45,04,094,,25,09,278,*6E
$GBGSV,6,6,21,60,08,111,*57
$GPGGA,120002.00,,,,,0,00,,,M,,M,,*49
$PTNL,GGK,120002.00,010125,4742.4454341,N,01617.9734005,E,1,19,1.3,EHT668.5399,M*40
$GPGGQ,120002.00,010125,4742.4454341,N,01617.9734005,E,1,19,2.782,625.3289,M*3C
$GPGFA,120002.00,12.067,18.830,1.269,0.924,337.393,2.296,,VVV*00
$GPLLK,120002.00,010125,,M,,M,1,19,1.5,,M*06
$GNGMP,120002.00,,,,,DAAA,19,0.7,,,,*58
$GPGMP,120002.00,,,,,,05,,,,1.8,123*70
$GLGMP,120002.00,,,,,,06,,,,,*78
$GAGMP,120002.00,,,,,,04,,,,,*77
$GBGMP,120002.00,,,,,,04,,,,,*74
$PSSN,SNC,[0,302420000,2347]*43
$GPZDA,120007.00,01,01,2025,,*67
$GPDTM,W84,,00.0000000,N,00.0000000,E,00.0000000,W84*5F
$GPRMC,120007.00,A,4742.4454384,N,01617.9734085,E,0.0,,010125,5.1,E,D*17
$GPGLL,4742.4454384,N,01617.9734085,E,120007.00,A,D*66
$GPGGA,120007.00,4742.4454384,N,01617.9734085,E,2,21,0.7,625.3155,M,43.2110,M,2.0,0123*4B
$GNGNS,120007.00,4742.4454384,N,01617.9734085,E,DAAA,21,0.7,625.3155,43.2110,,*55
$GPGNS,120007.00,,,,,,06,,,,2.0,123*7D
$GLGNS,120007.00,,,,,,06,,,,,*7D
$GAGNS,120007.00,,,,,,04,,,,,*72
$GBGNS,120007.00,,,,,,05,,,,,*70
$GPLLQ,120007.00,010125,,M,,M,1,21,2.095,,M*18
$GPVTG,,T,,M,0.01,N,0.02,K,D*25
$GPHDT,,T*1B
$GPTHS,,V*0E
$GPROT,,V*08
$PSSN,HRP,120007.00,010125,,,,,,,00,0,,*65
$PTNL,AVR,120007.00,,Yaw,,Tilt,,,,0,,00*33
$GPGSA,A,3,12,15,19,24,25,32,,,,,,,1.3,0.7,1.0*39
$GPGSA,A,3,67,68,76,77,78,86,,,,,,,1.3,0.7,1.0*39
$GPGSA,A,3,02,07,08,30,,,,,,,,,1.3,0.7,1.0*38
$GPGSA,A,3,14,24,26,33,42,,,,,,,,1.3,0.7,1.0*37
$GPGST,120007.00,4.720,1.084,0.813,335.920,1.043,0.864,1.598*52
$GPGBS,120007.00,5.081,4.230,5.687,32,0.0001,-2.471,1.252*77
$GPGRS,120007.00,1,-0.4,-0.8,-0.2,0.4,1.5,-2.5,,,,,,*43
$GPGRS,120007.00,1,9.5,1.1,-4.4,-3.9,-3.9,1.7,,,,,,*6D
$GPGRS,120007.00,1,-0.8,-0.8,-0.6,0.4,,,,,,,,*65
$GPGRS,120007.00,1,8.0,-0.5,0.2,8.3,-4.8,,,,,,,*6C
$GPGSV,4,1,16,24,84,153,38,22,15,065,,06,14,102,,15,20,191,42*73
$GPGSV,4,2,16,32,16,321,40,17,22,044,34,25,21,255,41,19,47,068,43*7A
$GPGSV,4,3,16,12,62,257,48,11,01,135,,10,09,289,35,13,05,163,*7A
$GPGSV,4,4,16,36,35,170,35,34,31,208,34,49,34,195,35,61,03,257,*70
$GLGSV,3,1,10,77,68,352,40,78,23,280,46,85,13,018,33,87,26,128,33*68
$GLGSV,3,2,10,86,36,073,45,76,38,067,49,68,34,313,50,67,41,247,42*63
$GLGSV,3,3,10,66,10,200,22,69,01,349,*67
$GAGSV,3,1,12,02,64,057,46,29,12,323,31,11,14,049,,36,13,097,*60
$GAGSV,3,2,12,25,12,065,21,08,43,194,36,18,55,136,,07,52,280,43*68
$GAGSV,3,3,12,30,58,254,48,03,03,164,,27,08,248,,10,08,023,*62
$GBGSV,6,1,21,24,65,294,46,42,12,212,36,41,18,318,31,11,14,233,*65
$GBGSV,6,2,21,40,14,039,25,05,20,130,,29,15,037,32,44,27,153,34*6A
$GBGSV,6,3,21,07,18,051,23,33,30,265,38,14,24,236,36,10,31,057,33*6F
$GBGSV,6,4,21,35,41,097,26,56,37,057,,26,57,084,43,12,09,169,*6F
$GBGSV,6,5,21,43,02,252,,02,04,109,,45,04,094,,25,09,278,*6E
$GBGSV,6,6,21,60,08,111,*57
$GPGGA,120007.00,,,,,0,00,,,M,,M,,*4C
$PTNL,GGK,120007.00,010125,4742.4454384,N,01617.9734085,E,1,21,1.3,EHT668.5266,M*4E
$GPGGQ,120007.00,010125,4742.4454384,N,01617.9734085,E,1,21,2.095,625.3155,M*30
$GPGFA,120007.00,10.302,13.106,1.084,0.813,335.920,1.598,,VVV*0E
$GPLLK,120007.00,010125,,M,,M,1,21,1.5,,M*08
$GNGMP,120007.00,,,,,DAAA,21,0.7,,,,*56
$GPGMP,120007.00,,,,,,06,,,,2.0,123*7D
$GLGMP,120007.00,,,,,,06,,,,,*7D
$GAGMP,120007.00,,,,,,04,,,,,*72
$GBGMP,120007.00,,,,,,05,,,,,*70
$PSSN,SNC,[0,302425000,2347]*46
$GPZDA,120012.00,01,01,2025,,*63
$GPDTM,W84,,00.0000000,N,00.0000000,E,00.0000000,W84*5F
$GPRMC,120012.00,A,4742.4454420,N,01617.9734082,E,0.0,,010125,5.1,E,D*1D
$GPGLL,4742.4454420,N,01617.9734082,E,120012.00,A,D*6C
$GPGGA,120012.00,4742.4454420,N,01617.9734082,E,2,20,0.7,625.2983,M,43.2110,M,3.0,0123*43
$GNGNS,120012.00,4742.4454420,N,01617.9734082,E,DAAA,20,0.7,625.2983,43.2110,,*5C
$GPGNS,120012.00,,,,,,06,,,,3.0,123*78
$GLGNS,120012.00,,,,,,06,,,,,*79
$GAGNS,120012.00,,,,,,03,,,,,*71
$GBGNS,120012.00,,,,,,05,,,,,*74
$GPLLQ,120012.00,010125,,M,,M,1,20,1.787,,M*1A
$GPVTG,,T,,M,0.01,N,0.02,K,D*25
$GPHDT,,T*1B
$GPTHS,,V*0E
$GPROT,,V*08
$PSSN,HRP,120012.00,010125,,,,,,,00,0,,*61
$PTNL,AVR,120012.00,,Yaw,,Tilt,,,,0,,00*37
$GPGSA,A,3,12,15,19,24,25,32,,,,,,,1.3,0.7,1.1*38
$GPGSA,A,3,67,68,76,77,78,86,,,,,,,1.3,0.7,1.1*38
$GPGSA,A,3,02,07,30,,,,,,,,,,1.3,0.7,1.1*31
$GPGSA,A,3,14,24,26,33,42,,,,,,,,1.3,0.7,1.1*36
$GPGST,120012.00,4.962,0.919,0.697,335.427,0.885,0.740,1.364*55
$GPGBS,120012.00,5.183,4.295,5.790,24,0.0001,0.852,0.656*5C
$GPGRS,120012.00,1,0.0,-0.6,-0.5,0.9,-0.8,1.5,,,,,,*65
$GPGRS,120012.00,1,7.1,2.0,-4.5,-6.0,-2.5,1.7,,,,,,*61
$GPGRS,120012.00,1,-0.8,-0.8,0.4,,,,,,,,,*64
$GPGRS,120012.00,1,8.0,-0.4,-0.1,10.4,-4.4,,,,,,,*75
$GPGSV,4,1,16,24,84,153,41,22,15,065,,06,14,102,,15,20,191,41*7E
$GPGSV,4,2,16,32,16,321,41,17,22,044,33,25,21,255,40,19,47,068,44*7A
$GPGSV,4,3,16,12,62,257,47,11,01,135,,10,09,289,35,13,05,163,*75
$GPGSV,4,4,16,36,35,170,35,34,31,208,35,49,34,195,35,61,03,257,*71
$GLGSV,3,1,10,77,68,352,39,78,23,280,48,85,13,018,23,87,26,128,35*6F
$GLGSV,3,2,10,86,36,073,44,76,38,067,49,68,34,313,49,67,41,247,42*6A
$GLGSV,3,3,10,66,10,200,24,69,01,349,*61
$GAGSV,3,1,12,02,64,057,45,29,12,323,31,11,14,049,,36,13,097,*63
$GAGSV,3,2,12,25,12,065,,08,43,194,34,18,55,136,,07,52,280,42*68
$GAGSV,3,3,12,30,58,254,48,03,03,164,,27,08,248,,10,08,023,*62
$GBGSV,6,1,21,24,65,294,46,42,12,212,36,41,18,317,27,11,14,233,*6D
$GBGSV,6,2,21,40,14,039,25,05,20,130,,29,15,037,31,44,27,153,33*6E
$GBGSV,6,3,21,07,18,051,23,33,30,265,37,14,24,236,37,10,31,057,34*66
$GBGSV,6,4,21,35,41,097,29,56,37,057,,26,57,084,44,12,09,169,*67
$GBGSV,6,5,21,43,02,252,,02,04,109,,45,04,094,,25,09,278,*6E
$GBGSV,6,6,21,60,08,111,*57
$GPGGA,120012.00,,,,,0,00,,,M,,M,,*48
$PTNL,GGK,120012.00,010125,4742.4454420,N,01617.9734082,E,1,20,1.3,EHT668.5093,M*4D
$GPGGQ,120012.00,010125,4742.4454420,N,01617.9734082,E,1,20,1.787,625.2983,M*3E
$GPGFA,120012.00,8.738,11.188,0.919,0.697,335.427,1.364,,VVV*3B
$GPLLK,120012.00,010125,,M,,M,1,20,1.5,,M*0D
$GNGMP,120012.00,,,,,DAAA,20,0.7,,,,*53
$GPGMP,120012.00,,,,,,06,,,,3.0,123*78
$GLGMP,120012.00,,,,,,06,,,,,*79
$GAGMP,120012.00,,,,,,03,,,,,*71
$GBGMP,120012.00,,,,,,05,,,,,*74
$PSSN,SNC,[0,302430000,2347]*42
$GPZDA,120017.00,01,01,2025,,*66
$GPDTM,W84,,00.0000000,N,00.0000000,E,00.0000000,W84*5F
$GPRMC,120017.00,A,4742.4454382,N,01617.9734049,E,0.0,,010125,5.1,E,D*10
$GPGLL,4742.4454382,N,01617.9734049,E,120017.00,A,D*61
$GPGGA,120017.00,4742.4454382,N,01617.9734049,E,2,19,0.9,625.2810,M,43.2110,M,3.4,0123*45
$GNGNS,120017.00,4742.4454382,N,01617.9734049,E,DAAA,19,0.9,625.2810,43.2110,,*5E
$GPGNS,120017.00,,,,,,05,,,,3.4,123*7A
$GLGNS,120017.00,,,,,,06,,,,,*7C
$GAGNS,120017.00,,,,,,03,,,,,*74
$GBGNS,120017.00,,,,,,05,,,,,*71
$GPLLQ,120017.00,010125,,M,,M,1,19,3.564,,M*18
$GPVTG,,T,,M,0.01,N,0.01,K,D*26
$GPHDT,,T*1B
$GPTHS,,V*0E
$GPROT,,V*08
$PSSN,HRP,120017.00,010125,,,,,,,00,0,,*64
$PTNL,AVR,120017.00,,Yaw,,Tilt,,,,0,,00*32
$GPGSA,A,3,12,15,19,24,25,,,,,,,,1.5,0.9,1.2*32
$GPGSA,A,3,67,68,76,77,78,86,,,,,,,1.5,0.9,1.2*33
$GPGSA,A,3,02,07,30,,,,,,,,,,1.5,0.9,1.2*3A
$GPGSA,A,3,14,24,26,33,42,,,,,,,,1.5,0.9,1.2*3D
$GPGST,120017.00,5.725,2.212,1.065,342.629,2.135,1.212,2.584*50
$GPGBS,120017.00,8.383,3.492,8.283,24,0.0001,2.222,0.674*55
$GPGRS,120017.00,1,-0.5,-0.8,-0.4,2.2,-2.2,,,,,,,*6C
$GPGRS,120017.00,1,5.3,2.3,-5.1,-8.6,-1.4,0.6,,,,,,*68
$GPGRS,120017.00,1,-1.2,-1.5,-0.4,,,,,,,,,*4B
$GPGRS,120017.00,1,8.2,-1.9,0.3,12.6,-3.7,,,,,,,*55
$GPGSV,4,1,16,24,84,153,40,22,15,065,,06,14,102,,15,20,191,41*7F
$GPGSV,4,2,16,32,16,321,30,17,22,044,32,25,21,255,38,19,47,068,44*72
$GPGSV,4,3,16,12,62,258,46,11,02,135,,10,09,289,36,13,05,163,*7B
$GPGSV,4,4,16,36,35,170,35,34,31,208,34,49,34,195,35,61,03,257,*70
$GLGSV,3,1,10,77,68,352,38,78,23,280,49,85,13,018,,87,26,128,36*6D
$GLGSV,3,2,10,86,36,073,43,76,38,067,49,68,34,313,49,67,41,247,37*6F
$GLGSV,3,3,10,66,10,200,24,69,02,349,*62
$GAGSV,3,1,12,02,64,057,45,29,12,323,31,11,14,048,,36,13,097,*62
$GAGSV,3,2,12,25,12,065,,08,43,194,32,18,55,136,,07,52,280,42*6E
$GAGSV,3,3,12,30,58,254,48,03,02,164,,27,08,248,,10,08,023,*63
$GBGSV,6,1,21,24,66,294,47,42,12,212,36,41,18,317,,11,14,233,*6A
$GBGSV,6,2,21,40,14,039,28,05,20,130,,29,15,037,30,44,27,153,28*68
$GBGSV,6,3,21,07,18,051,23,33,30,265,37,14,24,236,38,10,31,057,35*68
$GBGSV,6,4,21,35,41,097,34,56,37,057,,26,57,084,45,12,09,169,*6A
$GBGSV,6,5,21,43,02,252,,02,04,109,,45,04,094,,25,09,278,*6E
$GBGSV,6,6,21,60,08,111,*57
$GPGGA,120017.00,,,,,0,00,,,M,,M,,*4D
$PTNL,GGK,120017.00,010125,4742.4454382,N,01617.9734049,E,1,19,1.5,EHT668.4920,M*4C
$GPGGQ,120017.00,010125,4742.4454382,N,01617.9734049,E,1,19,3.564,625.2810,M*3F
$GPGFA,120017.00,21.027,21.185,2.212,1.065,342.629,2.584,,VVV*0D
$GPLLK,120017.00,010125,,M,,M,1,19,1.7,,M*00
$GNGMP,120017.00,,,,,DAAA,19,0.9,,,,*52
$GPGMP,120017.00,,,,,,05,,,,3.4,123*7A
$GLGMP,120017.00,,,,,,06,,,,,*7C
$GAGMP,120017.00,,,,,,03,,,,,*74
$GBGMP,120017.00,,,,,,05,,,,,*71
$PSSN,SNC,[0,302435000,2347]*47
$GPZDA,120022.00,01,01,2025,,*60
$GPDTM,W84,,00.0000000,N,00.0000000,E,00.0000000,W84*5F
$GPRMC,120022.00,A,4742.4454368,N,01617.9733987,E,0.0,,010125,5.1,E,D*1E
$GPGLL,4742.4454368,N,01617.9733987,E,120022.00,A,D*6F
$GPGGA,120022.00,4742.4454368,N,01617.9733987,E,2,20,0.8,625.2633,M,43.2110,M,1.2,0123*4B
$GNGNS,120022.00,4742.4454368,N,01617.9733987,E,DAAA,20,0.8,625.2633,43.2110,,*54
$GPGNS,120022.00,,,,,,05,,,,1.2,123*78
$GLGNS,120022.00,,,,,,05,,,,,*79
$GAGNS,120022.00,,,,,,03,,,,,*72
$GBGNS,120022.00,,,,,,07,,,,,*75
$GPLLQ,120022.00,010125,,M,,M,1,20,3.488,,M*17
$GPVTG,,T,,M,0.01,N,0.03,K,D*24
$GPHDT,,T*1B
$GPTHS,,V*0E
$GPROT,,V*08
$PSSN,HRP,120022.00,010125,,,,,,,00,0,,*62
$PTNL,AVR,120022.00,,Yaw,,Tilt,,,,0,,00*34
$GPGSA,A,3,12,15,19,24,25,,,,,,,,1.4,0.8,1.1*31
$GPGSA,A,3,68,76,77,78,86,,,,,,,,1.4,0.8,1.1*31
$GPGSA,A,3,02,07,30,,,,,,,,,,1.4,0.8,1.1*39
$GPGSA,A,3,10,14,24,26,33,35,42,,,,,,1.4,0.8,1.1*39
$GPGST,120022.00,7.198,2.155,1.038,343.314,2.086,1.171,2.538*5E
$GPGBS,120022.00,8.183,3.457,8.125,33,0.0001,21.769,8.610*60
$GPGRS,120022.00,1,-0.3,-0.5,-0.3,1.1,-1.6,,,,,,,*61
$GPGRS,120022.00,1,3.3,-4.8,-9.1,-1.9,0.0,,,,,,,*42
$GPGRS,120022.00,1,-0.8,-0.8,-0.1,,,,,,,,,*4F
$GPGRS,120022.00,1,0.3,7.3,-2.0,0.8,21.8,-2.7,-3.1,,,,,*7F
$GPGSV,4,1,16,24,84,152,40,22,15,065,,06,14,102,,15,20,191,41*7E
$GPGSV,4,2,16,32,16,321,41,17,22,044,20,25,21,255,36,19,47,068,45*78
$GPGSV,4,3,16,12,62,258,46,11,02,134,,10,09,289,37,13,05,163,*7B
$GPGSV,4,4,16,36,35,170,35,34,31,208,34,49,34,195,36,61,03,257,*73
$GLGSV,3,1,10,77,68,352,38,78,23,280,49,85,13,018,,87,26,128,*68
$GLGSV,3,2,10,86,36,073,42,76,38,067,50,68,34,313,48,67,40,247,34*65
$GLGSV,3,3,10,66,10,200,21,69,02,349,*67
$GAGSV,3,1,12,02,64,057,45,29,12,323,31,11,14,048,,36,13,097,*62
$GAGSV,3,2,12,25,12,065,,08,43,194,33,18,55,136,,07,52,280,42*6F
$GAGSV,3,3,12,30,58,255,48,03,02,164,,27,08,248,,10,08,023,30*61
$GBGSV,6,1,21,24,66,294,47,42,12,212,36,41,18,317,21,11,14,233,*69
$GBGSV,6,2,21,40,14,039,28,05,20,130,,29,15,037,30,44,27,153,27*67
$GBGSV,6,3,21,07,18,051,24,33,30,265,39,14,24,236,38,10,31,057,36*62
$GBGSV,6,4,21,35,41,097,36,56,37,057,,26,57,084,45,12,09,169,*68
$GBGSV,6,5,21,43,02,252,,02,04,109,,45,04,094,,25,09,278,*6E
$GBGSV,6,6,21,60,08,111,*57
$GPGGA,120022.00,,,,,0,00,,,M,,M,,*4B
$PTNL,GGK,120022.00,010125,4742.4454368,N,01617.9733987,E,1,20,1.4,EHT668.4744,M*45
$GPGGQ,120022.00,010125,4742.4454368,N,01617.9733987,E,1,20,3.488,625.2633,M*37
$GPGFA,120022.00,20.491,20.815,2.155,1.038,343.314,2.538,,VVV*07
$GPLLK,120022.00,010125,,M,,M,1,20,1.6,,M*0D
$GNGMP,120022.00,,,,,DAAA,20,0.8,,,,*5F
$GPGMP,120022.00,,,,,,05,,,,1.2,123*78
$GLGMP,120022.00,,,,,,05,,,,,*79
$GAGMP,120022.00,,,,,,03,,,,,*72
$GBGMP,120022.00,,,,,,07,,,,,*75
$PSSN,SNC,[0,302440000,2347]*45
$GPZDA,120027.00,01,01,2025,,*65
$GPDTM,W84,,00.0000000,N,00.0000000,E,00.0000000,W84*5F
$GPRMC,120027.00,A,4742.4454357,N,01617.9733964,E,0.0,,010125,5.1,E,D*1A
$GPGLL,4742.4454357,N,01617.9733964,E,120027.00,A,D*6B
$GPGGA,120027.00,4742.4454357,N,01617.9733964,E,2,21,0.7,625.2527,M,43.2110,M,2.3,0123*45
$GNGNS,120027.00,4742.4454357,N,01617.9733964,E,DAAA,21,0.7,625.2527,43.2110,,*58
$GPGNS,120027.00,,,,,,04,,,,2.3,123*7E
$GLGNS,120027.00,,,,,,05,,,,,*7C
$GAGNS,120027.00,,,,,,04,,,,,*70
$GBGNS,120027.00,,,,,,08,,,,,*7F
$GPLLQ,120027.00,010125,,M,,M,1,21,4.045,,M*11
$GPVTG,,T,,M,0.00,N,0.01,K,D*27
$GPHDT,,T*1B
$GPTHS,,V*0E
$GPROT,,V*08
$PSSN,HRP,120027.00,010125,,,,,,,00,0,,*67
$PTNL,AVR,120027.00,,Yaw,,Tilt,,,,0,,00*31
$GPGSA,A,3,12,15,19,24,,,,,,,,,1.3,0.7,1.1*3E
$GPGSA,A,3,68,76,77,78,86,,,,,,,,1.3,0.7,1.1*39
$GPGSA,A,3,02,07,08,30,,,,,,,,,1.3,0.7,1.1*39
$GPGSA,A,3,10,14,24,26,33,35,42,44,,,,,1.3,0.7,1.1*31
$GPGST,120027.00,8.137,2.424,0.902,331.078,2.166,1.413,3.111*5F
$GPGBS,120027.00,8.401,7.254,16.681,33,0.0001,26.843,8.610*5D
$GPGRS,120027.00,1,-0.0,-0.9,0.4,0.2,,,,,,,,*47
$GPGRS,120027.00,1,3.2,-3.7,-7.8,-2.6,0.2,,,,,,,*47
$GPGRS,120027.00,1,-0.6,-0.4,-0.5,-0.1,,,,,,,,*4E
$GPGRS,120027.00,1,0.5,5.3,-1.4,0.7,26.8,-1.6,-3.5,-8.2,,,,*7E
$GPGSV,4,1,16,24,84,152,41,22,15,065,,06,14,102,,15,20,191,41*7F
$GPGSV,4,2,16,32,16,321,41,17,22,044,24,25,21,255,32,19,47,068,46*7B
$GPGSV,4,3,16,12,62,258,45,11,02,134,,10,09,289,36,13,04,163,*78
$GPGSV,4,4,16,36,35,170,36,34,31,208,34,49,34,195,35,61,03,257,*73
$GLGSV,3,1,10,77,68,352,38,78,23,280,49,85,13,018,30,87,26,128,*6B
$GLGSV,3,2,10,86,36,073,42,76,38,067,50,68,34,313,48,67,40,247,33*62
$GLGSV,3,3,10,66,10,200,24,69,02,349,*62
$GAGSV,3,1,12,02,64,057,45,29,12,323,32,11,14,048,,36,13,097,*61
$GAGSV,3,2,12,25,12,065,,08,43,194,35,18,55,136,,07,52,280,41*6A
$GAGSV,3,3,12,30,58,255,48,03,02,164,,27,08,248,,10,08,023,30*61
$GBGSV,6,1,21,24,66,294,48,42,12,212,36,41,18,317,20,11,14,233,*67
$GBGSV,6,2,21,40,14,039,29,05,20,130,,29,15,037,31,44,27,153,38*69
$GBGSV,6,3,21,07,18,051,24,33,30,265,38,14,24,236,37,10,31,057,37*6D
$GBGSV,6,4,21,35,41,097,38,56,37,057,,26,57,084,46,12,09,169,*65
$GBGSV,6,5,21,43,02,252,,02,04,109,,45,04,094,,25,09,278,*6E
$GBGSV,6,6,21,60,08,111,*57
$GPGGA,120027.00,,,,,0,00,,,M,,M,,*4E
$PTNL,GGK,120027.00,010125,4742.4454357,N,01617.9733964,E,1,21,1.3,EHT668.4637,M*42
$GPGGQ,120027.00,010125,4742.4454357,N,01617.9733964,E,1,21,4.045,625.2527,M*36
$GPGFA,120027.00,23.050,25.506,2.424,0.902,331.078,3.111,,VVV*02
$GPLLK,120027.00,010125,,M,,M,1,21,1.6,,M*09
$GNGMP,120027.00,,,,,DAAA,21,0.7,,,,*54
$GPGMP,120027.00,,,,,,04,,,,2.3,123*7E
$GLGMP,120027.00,,,,,,05,,,,,*7C
$GAGMP,120027.00,,,,,,04,,,,,*70
$GBGMP,120027.00,,,,,,08,,,,,*7F
$PSSN,SNC,[0,302445000,2347]*40
$GPZDA,120032.00,01,01,2025,,*61
$GPDTM,W84,,00.0000000,N,00.0000000,E,00.0000000,W84*5F
$GPRMC,120032.00,A,4742.4454309,N,01617.9733918,E,0.0,,010125,5.1,E,D*1E
$GPGLL,4742.4454309,N,01617.9733918,E,120032.00,A,D*6F
$GPGGA,120032.00,4742.4454309,N,01617.9733918,E,2,22,0.7,625.2544,M,43.2110,M,3.3,0123*46
$GNGNS,120032.00,4742.4454309,N,01617.9733918,E,DAAA,22,0.7,625.2544,43.2110,,*5A
$GPGNS,120032.00,,,,,,04,,,,3.3,123*7B
$GLGNS,120032.00,,,,,,06,,,,,*7B
$GAGNS,120032.00,,,,,,04,,,,,*74
$GBGNS,120032.00,,,,,,08,,,,,*7B
$GPLLQ,120032.00,010125,,M,,M,1,22,4.125,,M*11
$GPVTG,,T,,M,0.01,N,0.01,K,D*26
$GPHDT,,T*1B
$GPTHS,,V*0E
$GPROT,,V*08
$PSSN,HRP,120032.00,010125,,,,,,,00,0,,*63
$PTNL,AVR,120032.00,,Yaw,,Tilt,,,,0,,00*35
$GPGSA,A,3,12,15,19,24,,,,,,,,,1.3,0.7,1.1*3E
$GPGSA,A,3,68,76,77,78,86,87,,,,,,,1.3,0.7,1.1*36
$GPGSA,A,3,02,07,08,30,,,,,,,,,1.3,0.7,1.1*39
$GPGSA,A,3,10,14,24,26,33,35,42,44,,,,,1.3,0.7,1.1*31
$GPGST,120032.00,6.642,2.416,0.948,331.159,2.165,1.431,3.207*5A
$GPGBS,120032.00,7.894,6.875,16.340,33,0.0001,22.232,8.612*5C
$GPGRS,120032.00,1,-1.1,-0.9,0.2,1.3,,,,,,,,*45
$GPGRS,120032.00,1,3.4,-4.1,-7.4,-3.3,-1.3,-1.4,,,,,,*67
$GPGRS,120032.00,1,-1.0,-0.2,-0.2,-0.7,,,,,,,,*4A
$GPGRS,120032.00,1,0.8,4.6,-1.5,-0.3,22.2,-4.2,-2.7,-3.9,,,,*57
$GPGSV,4,1,16,24,84,152,42,22,15,065,,06,14,102,,15,20,191,42*7F
$GPGSV,4,2,16,32,16,321,40,17,22,044,,25,21,255,25,19,47,068,45*79
$GPGSV,4,3,16,12,62,258,45,11,02,134,,10,09,289,35,13,04,163,*7B
$GPGSV,4,4,16,36,35,170,36,34,31,208,35,49,34,195,36,61,03,257,*71
$GLGSV,3,1,10,77,68,352,37,78,23,280,49,85,13,018,27,87,26,128,38*69
$GLGSV,3,2,10,86,36,072,43,76,37,067,50,68,34,313,48,67,40,247,33*6D
$GLGSV,3,3,10,66,10,200,23,69,02,349,*65
$GAGSV,3,1,12,02,64,057,45,29,12,323,34,11,14,048,,36,13,097,*67
$GAGSV,3,2,12,25,12,065,,08,43,194,37,18,55,136,,07,52,279,41*6E
$GAGSV,3,3,12,30,58,255,47,03,02,164,,27,08,248,,10,08,023,30*6E
$GBGSV,6,1,21,24,66,294,48,42,12,212,35,41,18,317,21,11,14,233,*65
$GBGSV,6,2,21,40,14,039,28,05,20,130,,29,15,037,33,44,27,153,39*6B
$GBGSV,6,3,21,07,18,051,24,33,30,265,42,14,24,236,35,10,31,057,37*62
$GBGSV,6,4,21,35,41,097,39,56,37,057,,26,57,084,45,12,09,169,*67
$GBGSV,6,5,21,43,02,252,,02,04,109,,45,04,094,,25,09,278,*6E
$GBGSV,6,6,21,60,08,111,*57
$GPGGA,120032.00,,,,,0,00,,,M,,M,,*4A
$PTNL,GGK,120032.00,010125,4742.4454309,N,01617.9733918,E,1,22,1.3,EHT668.4654,M*40
$GPGGQ,120032.00,010125,4742.4454309,N,01617.9733918,E,1,22,4.125,625.2544,M*33
$GPGFA,120032.00,22.969,26.295,2.416,0.948,331.159,3.207,,VVV*03
$GPLLK,120032.00,010125,,M,,M,1,22,1.5,,M*0D
$GNGMP,120032.00,,,,,DAAA,22,0.7,,,,*53
$GPGMP,120032.00,,,,,,04,,,,3.3,123*7B
$GLGMP,120032.00,,,,,,06,,,,,*7B
$GAGMP,120032.00,,,,,,04,,,,,*74
$GBGMP,120032.00,,,,,,08,,,,,*7B
$PSSN,SNC,[0,302450000,2347]*44
$GPZDA,120037.00,01,01,2025,,*64
$GPDTM,W84,,00.0000000,N,00.0000000,E,00.0000000,W84*5F
$GPRMC,120037.00,A,4742.4454322,N,01617.9733880,E,0.0,,010125,5.1,E,D*12
$GPGLL,4742.4454322,N,01617.9733880,E,120037.00,A,D*63
$GPGGA,120037.00,4742.4454322,N,01617.9733880,E,2,22,0.6,625.2289,M,43.2110,M,3.3,0123*4D
$GNGNS,120037.00,4742.4454322,N,01617.9733880,E,DAAA,22,0.6,625.2289,43.2110,,*51
$GPGNS,120037.00,,,,,,04,,,,3.3,123*7E
$GLGNS,120037.00,,,,,,06,,,,,*7E
$GAGNS,120037.00,,,,,,05,,,,,*70
$GBGNS,120037.00,,,,,,07,,,,,*71
$GPLLQ,120037.00,010125,,M,,M,1,22,4.070,,M*15
$GPVTG,,T,,M,0.00,N,0.01,K,D*27
$GPHDT,,T*1B
$GPTHS,,V*0E
$GPROT,,V*08
$PSSN,HRP,120037.00,010125,,,,,,,00,0,,*66
$PTNL,AVR,120037.00,,Yaw,,Tilt,,,,0,,00*30
$GPGSA,A,3,12,15,19,24,,,,,,,,,1.2,0.6,1.0*3F
$GPGSA,A,3,68,76,77,78,86,87,,,,,,,1.2,0.6,1.0*37
$GPGSA,A,3,02,07,08,29,30,,,,,,,,1.2,0.6,1.0*33
$GPGSA,A,3,10,14,24,26,33,35,44,,,,,,1.2,0.6,1.0*36
$GPGST,120037.00,4.005,2.342,1.008,331.425,2.113,1.428,3.172*54
$GPGBS,120037.00,6.341,6.159,14.107,24,0.0001,1.946,0.670*6C
$GPGRS,120037.00,1,-0.7,-0.9,-1.4,1.9,,,,,,,,*67
$GPGRS,120037.00,1,4.1,-4.2,-9.5,-3.8,-0.2,2.7,,,,,,*4A
$GPGRS,120037.00,1,-0.9,0.1,0.7,-2.0,-0.5,,,,,,,*42
$GPGRS,120037.00,1,1.0,4.1,-1.2,-1.0,-5.8,-5.3,-0.3,,,,,*44
$GPGSV,4,1,16,24,84,152,41,22,15,065,,06,14,102,,15,20,191,42*7C
$GPGSV,4,2,16,32,16,321,38,17,22,044,21,25,21,255,30,19,47,068,43*77
$GPGSV,4,3,16,12,62,258,44,11,02,134,,10,09,289,34,13,04,163,*7B
$GPGSV,4,4,16,36,35,170,36,34,31,208,35,49,34,195,36,61,03,257,*71
$GLGSV,3,1,10,77,68,353,37,78,23,280,47,85,13,018,,87,26,128,39*62
$GLGSV,3,2,10,86,36,072,44,76,37,067,49,68,34,313,48,67,40,247,31*60
$GLGSV,3,3,10,66,10,200,23,69,02,349,*65
$GAGSV,3,1,12,02,64,057,45,29,12,323,35,11,14,048,,36,13,097,*66
$GAGSV,3,2,12,25,12,065,,08,43,194,39,18,55,136,,07,52,279,42*63
$GAGSV,3,3,12,30,58,255,47,03,02,164,,27,08,248,,10,08,023,30*6E
$GBGSV,6,1,21,24,66,294,48,42,12,212,35,41,18,317,18,11,14,233,*6F
$GBGSV,6,2,21,40,14,039,28,05,20,130,,29,15,037,33,44,27,153,39*6B
$GBGSV,6,3,21,07,18,051,25,33,30,265,43,14,24,236,37,10,31,057,37*60
$GBGSV,6,4,21,35,42,097,40,56,37,057,,26,57,084,45,12,09,169,*6A
$GBGSV,6,5,21,43,02,252,,02,04,109,,45,04,094,,25,09,278,*6E
$GBGSV,6,6,21,60,08,111,*57
$GPGGA,120037.00,,,,,0,00,,,M,,M,,*4F
$PTNL,GGK,120037.00,010125,4742.4454322,N,01617.9733880,E,1,22,1.2,EHT668.4400,M*4E
$GPGGQ,120037.00,010125,4742.4454322,N,01617.9733880,E,1,22,4.070,625.2289,M*38
$GPGFA,120037.00,22.270,26.008,2.342,1.008,331.425,3.172,,VVV*06
$GPLLK,120037.00,010125,,M,,M,1,22,1.4,,M*09
$GNGMP,120037.00,,,,,DAAA,22,0.6,,,,*57
$GPGMP,120037.00,,,,,,04,,,,3.3,123*7E
$GLGMP,120037.00,,,,,,06,,,,,*7E
$GAGMP,120037.00,,,,,,05,,,,,*70
$GBGMP,120037.00,,,,,,07,,,,,*71
$PSSN,SNC,[0,302455000,2347]*41
$GPZDA,120042.00,01,01,2025,,*66
$GPDTM,W84,,00.0000000,N,00.0000000,E,00.0000000,W84*5F
$GPRMC,120042.00,A,4742.4454343,N,01617.9734014,E,0.0,,010125,5.1,E,D*15
$GPGLL,4742.4454343,N,01617.9734014,E,120042.00,A,D*64
$GPGGA,120042.00,4742.4454343,N,01617.9734014,E,2,22,0.6,625.2152,M,43.2110,M,1.8,0123*46
$GNGNS,120042.00,4742.4454343,N,01617.9734014,E,DAAA,22,0.6,625.2152,43.2110,,*53
$GPGNS,120042.00,,,,,,05,,,,1.8,123*74
$GLGNS,120042.00,,,,,,06,,,,,*7C
$GAGNS,120042.00,,,,,,05,,,,,*72
$GBGNS,120042.00,,,,,,06,,,,,*72
$GPLLQ,120042.00,010125,,M,,M,1,22,3.231,,M*17
$GPVTG,,T,,M,0.01,N,0.01,K,D*26
$GPHDT,,T*1B
$GPTHS,,V*0E
$GPROT,,V*08
$PSSN,HRP,120042.00,010125,,,,,,,00,0,,*64
$PTNL,AVR,120042.00,,Yaw,,Tilt,,,,0,,00*32
$GPGSA,A,3,12,15,19,24,32,,,,,,,,1.1,0.6,1.0*3D
$GPGSA,A,3,68,76,77,78,86,87,,,,,,,1.1,0.6,1.0*34
$GPGSA,A,3,02,07,08,29,30,,,,,,,,1.1,0.6,1.0*30
$GPGSA,A,3,10,14,24,26,35,44,,,,,,,1.1,0.6,1.0*35
$GPGST,120042.00,4.513,1.680,1.140,329.723,1.561,1.299,2.513*51
$GPGBS,120042.00,5.113,4.646,6.792,32,0.0001,4.692,1.286*52
$GPGRS,120042.00,1,0.8,-0.4,-1.7,-0.5,4.7,,,,,,,*44
$GPGRS,120042.00,1,4.9,-3.1,-8.0,-5.1,1.7,9.3,,,,,,*69
$GPGRS,120042.00,1,-0.4,1.2,2.0,-1.7,0.5,,,,,,,*63
$GPGRS,120042.00,1,1.4,6.2,-1.0,-0.3,-4.1,0.6,,,,,,*66
$GPGSV,4,1,16,24,84,152,41,22,15,065,,06,14,102,,15,20,191,43*7D
$GPGSV,4,2,16,32,16,321,35,17,22,044,26,25,21,255,29,19,47,068,41*77
$GPGSV,4,3,16,12,62,258,45,11,02,134,,10,09,289,,13,04,163,*7D
$GPGSV,4,4,16,36,35,170,36,34,31,208,35,49,34,195,36,61,03,257,*71
$GLGSV,3,1,10,77,68,353,38,78,23,281,45,85,13,018,27,87,26,128,39*6B
$GLGSV,3,2,10,86,36,072,44,76,37,067,50,68,34,313,49,67,40,247,32*6A
$GLGSV,3,3,10,66,10,200,23,69,02,349,*65
$GAGSV,3,1,12,02,64,057,45,29,12,323,36,11,14,048,,36,13,097,*65
$GAGSV,3,2,12,25,12,065,,08,43,194,40,18,55,136,,07,52,279,43*6C
$GAGSV,3,3,12,30,58,255,47,03,02,164,,27,08,248,,10,08,023,29*66
$GBGSV,6,1,21,24,66,294,47,42,12,212,34,41,18,317,31,11,14,233,*6A
$GBGSV,6,2,21,40,14,039,29,05,20,130,,29,15,037,32,44,27,153,40*65
$GBGSV,6,3,21,07,18,051,25,33,30,265,33,14,24,236,37,10,31,057,38*68
$GBGSV,6,4,21,35,42,097,42,56,37,057,,26,57,084,45,12,09,169,*68
$GBGSV,6,5,21,43,02,252,,02,04,109,,45,04,094,,25,09,278,*6E
$GBGSV,6,6,21,60,08,111,*57
$GPGGA,120042.00,,,,,0,00,,,M,,M,,*4D
$PTNL,GGK,120042.00,010125,4742.4454343,N,01617.9734014,E,1,22,1.1,EHT668.4262,M*48
$GPGGQ,120042.00,010125,4742.4454343,N,01617.9734014,E,1,22,3.231,625.2152,M*3A
$GPGFA,120042.00,15.977,20.609,1.680,1.140,329.723,2.513,,VVV*06
$GPLLK,120042.00,010125,,M,,M,1,22,1.3,,M*0C
$GNGMP,120042.00,,,,,DAAA,22,0.6,,,,*55
$GPGMP,120042.00,,,,,,05,,,,1.8,123*74
$GLGMP,120042.00,,,,,,06,,,,,*7C
$GAGMP,120042.00,,,,,,05,,,,,*72
$GBGMP,120042.00,,,,,,06,,,,,*72
$PSSN,SNC,[0,302460000,2347]*47
$GPZDA,120047.00,01,01,2025,,*63
$GPDTM,W84,,00.0000000,N,00.0000000,E,00.0000000,W84*5F
$GPRMC,120047.00,A,4742.4454380,N,01617.9734143,E,0.0,,010125,5.1,E,D*1C
$GPGLL,4742.4454380,N,01617.9734143,E,120047.00,A,D*6D
$GPGGA,120047.00,4742.4454380,N,01617.9734143,E,2,20,0.6,625.2114,M,43.2110,M,2.3,0123*47
$GNGNS,120047.00,4742.4454380,N,01617.9734143,E,DAAA,20,0.6,625.2114,43.2110,,*5A
$GPGNS,120047.00,,,,,,04,,,,2.3,123*78
$GLGNS,120047.00,,,,,,06,,,,,*79
$GAGNS,120047.00,,,,,,05,,,,,*77
$GBGNS,120047.00,,,,,,05,,,,,*74
$GPLLQ,120047.00,010125,,M,,M,1,20,3.514,,M*10
$GPVTG,,T,,M,0.01,N,0.01,K,D*26
$GPHDT,,T*1B
$GPTHS,,V*0E
$GPROT,,V*08
$PSSN,HRP,120047.00,010125,,,,,,,00,0,,*61
$PTNL,AVR,120047.00,,Yaw,,Tilt,,,,0,,00*37
$GPGSA,A,3,12,15,19,24,,,,,,,,,1.2,0.6,1.0*3F
$GPGSA,A,3,68,76,77,78,86,87,,,,,,,1.2,0.6,1.0*37
$GPGSA,A,3,02,07,08,29,30,,,,,,,,1.2,0.6,1.0*33
$GPGSA,A,3,10,24,26,35,44,,,,,,,,1.2,0.6,1.0*33
$GPGST,120047.00,5.108,2.049,0.876,330.076,1.829,1.273,2.718*55
$GPGBS,120047.00,6.322,6.586,13.986,87,0.0001,14.547,6.237*5F
$GPGRS,120047.00,1,0.9,-0.1,-1.1,-0.1,,,,,,,,*6A
$GPGRS,120047.00,1,5.2,-2.0,-6.1,-5.8,2.0,14.5,,,,,,*5E
$GPGRS,120047.00,1,0.1,1.2,2.3,-0.9,0.8,,,,,,,*4F
$GPGRS,120047.00,1,2.0,-1.6,-0.0,-1.6,1.5,,,,,,,*4B
$GPGSV,4,1,16,24,84,152,43,22,15,065,,06,14,102,,15,20,191,42*7E
$GPGSV,4,2,16,32,16,321,38,17,22,044,30,25,21,255,28,19,47,068,39*73
$GPGSV,4,3,16,12,62,258,44,11,02,134,,10,09,289,33,13,04,163,*7C
$GPGSV,4,4,16,36,35,170,36,34,31,208,35,49,34,195,36,61,03,257,*71
$GLGSV,3,1,10,77,68,353,39,78,23,281,44,85,13,018,25,87,26,128,39*69
$GLGSV,3,2,10,86,36,072,44,76,37,068,50,68,34,313,50,67,40,247,34*6B
$GLGSV,3,3,10,66,10,200,23,69,02,349,*65
$GAGSV,3,1,12,02,63,057,45,29,12,323,38,11,14,048,,36,13,097,*6C
$GAGSV,3,2,12,25,12,065,,08,43,194,40,18,55,136,,07,52,279,45*6A
$GAGSV,3,3,12,30,58,255,47,03,02,164,,27,08,248,,10,08,023,28*67
$GBGSV,6,1,21,24,66,294,46,42,12,212,34,41,18,317,33,11,14,233,*69
$GBGSV,6,2,21,40,14,039,29,05,20,130,,29,15,037,32,44,27,153,40*65
$GBGSV,6,3,21,07,18,051,24,33,30,265,34,14,24,236,31,10,31,057,38*68
$GBGSV,6,4,21,35,42,097,43,56,37,057,,26,57,084,45,12,09,169,*69
$GBGSV,6,5,21,43,02,252,,02,04,109,,45,04,094,,25,09,278,*6E
$GBGSV,6,6,21,60,08,111,*57
$GPGGA,120047.00,,,,,0,00,,,M,,M,,*48
$PTNL,GGK,120047.00,010125,4742.4454380,N,01617.9734143,E,1,20,1.2,EHT668.4225,M*43
$GPGGQ,120047.00,010125,4742.4454380,N,01617.9734143,E,1,20,3.514,625.2114,M*33
$GPGFA,120047.00,19.482,22.285,2.049,0.876,330.076,2.718,,VVV*01
$GPLLK,120047.00,010125,,M,,M,1,20,1.4,,M*0C
$GNGMP,120047.00,,,,,DAAA,20,0.6,,,,*52
$GPGMP,120047.00,,,,,,04,,,,2.3,123*78
$GLGMP,120047.00,,,,,,06,,,,,*79
$GAGMP,120047.00,,,,,,05,,,,,*77
$GBGMP,120047.00,,,,,,05,,,,,*74
$PSSN,SNC,[0,302465000,2347]*42
$GPZDA,120052.00,01,01,2025,,*67
$GPDTM,W84,,00.0000000,N,00.0000000,E,00.0000000,W84*5F
$GPRMC,120052.00,A,4742.4454401,N,01617.9734201,E,0.0,,010125,5.1,E,D*13
$GPGLL,4742.4454401,N,01617.9734201,E,120052.00,A,D*62
$GPGGA,120052.00,4742.4454401,N,01617.9734201,E,2,24,0.6,625.2049,M,43.2110,M,3.3,0123*44
$GNGNS,120052.00,4742.4454401,N,01617.9734201,E,DAAA,24,0.6,625.2049,43.2110,,*58
$GPGNS,120052.00,,,,,,04,,,,3.3,123*7D
$GLGNS,120052.00,,,,,,07,,,,,*7C
$GAGNS,120052.00,,,,,,05,,,,,*73
$GBGNS,120052.00,,,,,,08,,,,,*7D
$GPLLQ,120052.00,010125,,M,,M,1,24,3.252,,M*15
$GPVTG,,T,,M,0.00,N,0.01,K,D*27
$GPHDT,,T*1B
$GPTHS,,V*0E
$GPROT,,V*08
$PSSN,HRP,120052.00,010125,,,,,,,00,0,,*65
$PTNL,AVR,120052.00,,Yaw,,Tilt,,,,0,,00*33
$GPGSA,A,3,12,15,19,24,,,,,,,,,1.1,0.6,1.0*3C
$GPGSA,A,3,67,68,76,77,78,86,87,,,,,,1.1,0.6,1.0*35
$GPGSA,A,3,02,07,08,29,30,,,,,,,,1.1,0.6,1.0*30
$GPGSA,A,3,10,14,24,26,33,35,41,44,,,,,1.1,0.6,1.0*30
$GPGST,120052.00,5.409,1.874,0.831,330.693,1.684,1.169,2.525*53
$GPGBS,120052.00,5.664,6.139,13.176,87,0.0001,14.758,6.240*54
$GPGRS,120052.00,1,0.6,-0.7,-0.4,0.1,,,,,,,,*4E
$GPGRS,120052.00,1,4.6,5.5,-2.5,-7.5,-6.1,1.4,14.8,,,,,*71
$GPGRS,120052.00,1,-0.4,0.7,1.4,-2.1,0.2,,,,,,,*63
$GPGRS,120052.00,1,1.6,9.8,-2.0,-0.7,-1.1,1.2,-3.1,1.7,,,,*4E
$GPGSV,4,1,16,24,84,152,43,22,15,065,,06,14,102,,15,20,191,42*7E
$GPGSV,4,2,16,32,16,321,39,17,22,044,32,25,21,255,30,19,47,068,39*79
$GPGSV,4,3,16,12,62,258,44,11,02,134,,10,09,289,34,13,04,163,*7B
$GPGSV,4,4,16,36,35,170,36,34,31,208,35,49,34,195,36,61,03,257,*71
$GLGSV,3,1,10,77,68,353,40,78,23,281,43,85,13,018,33,87,26,128,38*66
$GLGSV,3,2,10,86,36,072,45,76,37,068,50,68,34,313,50,67,40,247,35*6B
$GLGSV,3,3,10,66,10,200,22,69,02,349,*64
$GAGSV,3,1,12,02,63,057,45,29,12,323,38,11,14,048,,36,13,097,*6C
$GAGSV,3,2,12,25,12,065,,08,42,194,40,18,55,136,,07,52,279,46*68
$GAGSV,3,3,12,30,58,255,47,03,02,164,,27,08,248,,10,08,023,28*67
$GBGSV,6,1,21,24,66,294,47,42,12,212,34,41,18,317,35,11,14,232,*6F
$GBGSV,6,2,21,40,14,039,29,05,20,130,,29,15,037,30,44,27,153,39*69
$GBGSV,6,3,21,07,18,051,24,33,30,265,38,14,24,236,37,10,31,057,39*63
$GBGSV,6,4,21,35,42,097,44,56,37,057,,26,57,084,44,12,09,169,*6F
$GBGSV,6,5,21,43,02,252,,02,04,109,,45,04,094,,25,09,278,*6E
$GBGSV,6,6,21,60,08,111,*57
$GPGGA,120052.00,,,,,0,00,,,M,,M,,*4C
$PTNL,GGK,120052.00,010125,4742.4454401,N,01617.9734201,E,1,24,1.1,EHT668.4160,M*49
$GPGGQ,120052.00,010125,4742.4454401,N,01617.9734201,E,1,24,3.252,625.2049,M*34
$GPGFA,120052.00,17.822,20.702,1.874,0.831,330.693,2.525,,VVV*02
$GPLLK,120052.00,010125,,M,,M,1,24,1.3,,M*0B
$GNGMP,120052.00,,,,,DAAA,24,0.6,,,,*52
$GPGMP,120052.00,,,,,,04,,,,3.3,123*7D
$GLGMP,120052.00,,,,,,07,,,,,*7C
$GAGMP,120052.00,,,,,,05,,,,,*73
$GBGMP,120052.00,,,,,,08,,,,,*7D
$PSSN,SNC,[0,302470000,2347]*46
$GPZDA,120057.00,01,01,2025,,*62
$GPDTM,W84,,00.0000000,N,00.0000000,E,00.0000000,W84*5F
$GPRMC,120057.00,A,4742.4454476,N,01617.9734167,E,0.0,,010125,5.1,E,D*15
$GPGLL,4742.4454476,N,01617.9734167,E,120057.00,A,D*64
$GPGGA,120057.00,4742.4454476,N,01617.9734167,E,2,24,0.6,625.1880,M,43.2110,M,3.2,0123*4D
$GNGNS,120057.00,4742.4454476,N,01617.9734167,E,DAAA,24,0.6,625.1880,43.2110,,*50
$GPGNS,120057.00,,,,,,05,,,,3.2,123*78
$GLGNS,120057.00,,,,,,06,,,,,*78
$GAGNS,120057.00,,,,,,05,,,,,*76
$GBGNS,120057.00,,,,,,08,,,,,*78
$GPLLQ,120057.00,010125,,M,,M,1,24,2.183,,M*1E
$GPVTG,,T,,M,0.01,N,0.01,K,D*26
$GPHDT,,T*1B
$GPTHS,,V*0E
$GPROT,,V*08
$PSSN,HRP,120057.00,010125,,,,,,,00,0,,*60
$PTNL,AVR,120057.00,,Yaw,,Tilt,,,,0,,00*36
$GPGSA,A,3,12,15,19,24,32,,,,,,,,1.1,0.6,1.0*3D
$GPGSA,A,3,67,68,76,77,78,86,,,,,,,1.1,0.6,1.0*3A
$GPGSA,A,3,02,07,08,29,30,,,,,,,,1.1,0.6,1.0*30
$GPGSA,A,3,10,14,24,26,33,35,41,44,,,,,1.1,0.6,1.0*30
$GPGST,120057.00,4.941,1.048,0.900,329.638,1.012,0.940,1.690*5E
$GPGBS,120057.00,5.289,4.739,7.120,67,0.0001,-11.099,6.130*4C
$GPGRS,120057.00,1,0.9,-0.5,-0.1,-0.0,-2.0,,,,,,,*6E
$GPGRS,120057.00,1,-11.1,6.1,-2.3,-8.2,-5.1,2.9,,,,,,*7D
$GPGRS,120057.00,1,-0.2,0.4,1.3,-1.5,0.4,,,,,,,*65
$GPGRS,120057.00,1,1.6,11.2,-1.1,-0.9,0.2,2.0,-0.7,1.6,,,,*5E
$GPGSV,4,1,16,24,84,152,43,22,15,065,,06,14,102,,15,20,191,41*7D
$GPGSV,4,2,16,32,16,321,40,17,22,044,33,25,21,255,31,19,47,068,39*77
$GPGSV,4,3,16,12,62,258,45,11,02,134,,10,09,289,30,13,04,163,*7E
$GPGSV,4,4,16,36,35,170,36,34,31,208,35,49,34,195,36,61,03,257,*71
$GLGSV,3,1,10,77,68,353,40,78,23,281,42,85,13,018,29,87,26,128,35*61
$GLGSV,3,2,10,86,36,072,46,76,37,068,50,68,34,313,51,67,40,247,39*65
$GLGSV,3,3,10,66,10,200,26,69,02,349,*60
$GAGSV,3,1,12,02,63,057,44,29,12,323,38,11,14,048,,36,13,097,*6D
$GAGSV,3,2,12,25,12,065,,08,42,194,40,18,55,136,,07,52,279,46*68
$GAGSV,3,3,12,30,58,255,47,03,02,164,,27,08,249,,10,08,023,28*66
$GBGSV,6,1,21,24,66,294,48,42,12,212,35,41,18,317,37,11,14,232,*63
$GBGSV,6,2,21,40,14,039,29,05,20,130,,29,15,037,27,44,27,153,38*6E
$GBGSV,6,3,21,07,18,051,23,33,30,265,41,14,24,236,37,10,31,057,39*6A
$GBGSV,6,4,21,35,42,097,44,56,37,057,,26,57,085,43,12,09,169,*69
$GBGSV,6,5,21,43,02,252,,02,04,109,,45,04,094,,25,09,278,*6E
$GBGSV,6,6,21,60,08,111,*57
$GPGGA,120057.00,,,,,0,00,,,M,,M,,*49
$PTNL,GGK,120057.00,010125,4742.4454476,N,01617.9734167,E,1,24,1.1,EHT668.3990,M*4F
$GPGGQ,120057.00,010125,4742.4454476,N,01617.9734167,E,1,24,2.183,625.1880,M*32
$GPGFA,120057.00,9.965,13.862,1.048,0.900,329.638,1.690,,VVV*30
$GPLLK,120057.00,010125,,M,,M,1,24,1.3,,M*0E
$GNGMP,120057.00,,,,,DAAA,24,0.6,,,,*57
$GPGMP,120057.00,,,,,,05,,,,3.2,123*78
$GLGMP,120057.00,,,,,,06,,,,,*78
$GAGMP,120057.00,,,,,,05,,,,,*76
$GBGMP,120057.00,,,,,,08,,,,,*78
$PSSN,SNC,[0,302475000,2347]*43
$GPZDA,120102.00,01,01,2025,,*63
$GPDTM,W84,,00.0000000,N,00.0000000,E,00.0000000,W84*5F
$GPRMC,120102.00,A,4742.4454525,N,01617.9734157,E,0.0,,010125,5.1,E,D*10
$GPGLL,4742.4454525,N,01617.9734157,E,120102.00,A,D*61
$GPGGA,120102.00,4742.4454525,N,01617.9734157,E,2,23,0.6,625.1765,M,43.2110,M,1.8,0123*43
$GNGNS,120102.00,4742.4454525,N,01617.9734157,E,DAAA,23,0.6,625.1765,43.2110,,*56
$GPGNS,120102.00,,,,,,05,,,,1.8,123*71
$GLGNS,120102.00,,,,,,05,,,,,*7A
$GAGNS,120102.00,,,,,,05,,,,,*77
$GBGNS,120102.00,,,,,,08,,,,,*79
$GPLLQ,120102.00,010125,,M,,M,1,23,1.942,,M*1E
$GPVTG,,T,,M,0.01,N,0.02,K,D*25
$GPHDT,,T*1B
$GPTHS,,V*0E
$GPROT,,V*08
$PSSN,HRP,120102.00,010125,,,,,,,00,0,,*61
$PTNL,AVR,120102.00,,Yaw,,Tilt,,,,0,,00*37
$GPGSA,A,3,12,15,19,24,32,,,,,,,,1.1,0.6,1.0*3D
$GPGSA,A,3,68,76,77,78,86,,,,,,,,1.1,0.6,1.0*3B
$GPGSA,A,3,02,07,08,29,30,,,,,,,,1.1,0.6,1.0*30
$GPGSA,A,3,10,14,24,26,33,35,41,44,,,,,1.1,0.6,1.0*30
$GPGST,120102.00,4.749,0.943,0.796,330.730,0.910,0.834,1.500*58
$GPGBS,120102.00,5.208,4.645,6.912,14,0.0001,14.011,8.646*62
$GPGRS,120102.00,1,1.0,-0.4,0.4,-0.5,-2.0,,,,,,,*4B
$GPGRS,120102.00,1,6.3,-2.7,-7.1,-4.6,3.6,,,,,,,*4C
$GPGRS,120102.00,1,-0.2,-0.1,1.1,-1.3,0.1,,,,,,,*4D
$GPGRS,120102.00,1,1.2,14.0,-1.5,-1.2,-0.8,-2.3,2.4,2.9,,,,*7B
$GPGSV,4,1,16,24,84,152,43,22,14,065,,06,14,102,,15,20,191,39*73
$GPGSV,4,2,16,32,16,321,40,17,22,044,24,25,21,255,32,19,47,068,39*72
$GPGSV,4,3,16,12,62,258,47,11,02,134,,10,08,289,23,13,04,163,*7F
$GPGSV,4,4,16,36,35,170,36,34,31,208,35,49,34,195,36,61,03,257,*71
$GLGSV,3,1,10,77,68,353,42,78,23,281,44,85,13,018,32,87,26,128,32*68
$GLGSV,3,2,10,86,36,072,46,76,37,068,50,68,34,313,51,67,40,247,30*6C
$GLGSV,3,3,10,66,10,200,24,69,02,349,*62
$GAGSV,3,1,12,02,63,057,44,29,12,323,38,11,14,048,,36,14,097,*6A
$GAGSV,3,2,12,25,12,065,,08,42,194,41,18,55,136,,07,52,279,46*69
$GAGSV,3,3,12,30,58,255,48,03,02,164,,27,08,249,,10,08,023,28*69
$GBGSV,6,1,21,24,66,295,48,42,12,212,35,41,18,317,36,11,14,232,*63
$GBGSV,6,2,21,40,14,039,30,05,20,130,,29,15,037,25,44,27,153,36*6A
$GBGSV,6,3,21,07,18,051,24,33,30,264,44,14,24,236,35,10,31,057,39*6B
$GBGSV,6,4,21,35,42,097,43,56,37,057,,26,57,085,43,12,09,169,*6E
$GBGSV,6,5,21,43,02,252,,02,04,109,,45,04,094,,25,09,278,*6E
$GBGSV,6,6,21,60,08,111,*57
$GPGGA,120102.00,,,,,0,00,,,M,,M,,*48
$PTNL,GGK,120102.00,010125,4742.4454525,N,01617.9734157,E,1,23,1.1,EHT668.3875,M*47
$GPGGQ,120102.00,010125,4742.4454525,N,01617.9734157,E,1,23,1.942,625.1765,M*32
$GPGFA,120102.00,8.970,12.299,0.943,0.796,330.730,1.500,,VVV*32
$GPLLK,120102.00,010125,,M,,M,1,23,1.3,,M*08
$GNGMP,120102.00,,,,,DAAA,23,0.6,,,,*51
$GPGMP,120102.00,,,,,,05,,,,1.8,123*71
$GLGMP,120102.00,,,,,,05,,,,,*7A
$GAGMP,120102.00,,,,,,05,,,,,*77
$GBGMP,120102.00,,,,,,08,,,,,*79
$PSSN,SNC,[0,302480000,2347]*49
$GPZDA,120107.00,01,01,2025,,*66
$GPDTM,W84,,00.0000000,N,00.0000000,E,00.0000000,W84*5F
$GPRMC,120107.00,A,4742.4454579,N,01617.9734104,E,0.0,,010125,5.1,E,D*1A
$GPGLL,4742.4454579,N,01617.9734104,E,120107.00,A,D*6B
$GPGGA,120107.00,4742.4454579,N,01617.9734104,E,2,23,0.6,625.1747,M,43.2110,M,2.0,0123*42
$GNGNS,120107.00,4742.4454579,N,01617.9734104,E,DAAA,23,0.6,625.1747,43.2110,,*5C
$GPGNS,120107.00,,,,,,05,,,,2.0,123*7F
$GLGNS,120107.00,,,,,,06,,,,,*7C
$GAGNS,120107.00,,,,,,05,,,,,*72
$GBGNS,120107.00,,,,,,07,,,,,*73
$GPLLQ,120107.00,010125,,M,,M,1,23,1.984,,M*11
$GPVTG,,T,,M,0.01,N,0.01,K,D*26
$GPHDT,,T*1B
$GPTHS,,V*0E
$GPROT,,V*08
$PSSN,HRP,120107.00,010125,,,,,,,00,0,,*64
$PTNL,AVR,120107.00,,Yaw,,Tilt,,,,0,,00*32
$GPGSA,A,3,12,15,19,24,32,,,,,,,,1.1,0.6,1.0*3D
$GPGSA,A,3,67,68,76,77,78,86,,,,,,,1.1,0.6,1.0*3A
$GPGSA,A,3,02,07,08,29,30,,,,,,,,1.1,0.6,1.0*30
$GPGSA,A,3,10,14,24,26,33,35,44,,,,,,1.1,0.6,1.0*35
$GPGST,120107.00,4.659,0.971,0.808,328.969,0.930,0.855,1.530*59
$GPGBS,120107.00,5.240,4.686,6.973,67,0.0001,12.974,6.124*66
$GPGRS,120107.00,1,0.8,-0.8,0.5,-0.4,-2.0,,,,,,,*4B
$GPGRS,120107.00,1,13.0,5.4,-3.0,-6.5,-3.9,3.2,,,,,,*5E
$GPGRS,120107.00,1,-0.4,-0.6,1.2,-1.0,0.1,,,,,,,*49
$GPGRS,120107.00,1,0.8,3.2,-1.4,-0.5,-1.8,-5.7,4.0,,,,,*63
$GPGSV,4,1,16,24,84,152,42,22,14,065,,06,14,102,,15,20,191,37*7C
$GPGSV,4,2,16,32,16,321,41,17,22,044,33,25,21,255,35,19,46,068,39*73
$GPGSV,4,3,16,12,62,258,48,11,02,134,,10,08,289,,13,04,163,*71
$GPGSV,4,4,16,36,35,170,36,34,31,208,34,49,34,195,35,61,03,257,*73
$GLGSV,3,1,10,77,68,353,42,78,23,281,45,85,12,018,35,87,26,128,30*6D
$GLGSV,3,2,10,86,36,072,46,76,37,068,49,68,34,313,50,67,40,247,44*66
$GLGSV,3,3,10,66,09,200,,69,02,349,*6C
$GAGSV,3,1,12,02,63,057,44,29,12,323,39,11,14,048,,36,14,097,*6B
$GAGSV,3,2,12,25,12,065,,08,42,194,42,18,55,136,,07,52,279,46*6A
$GAGSV,3,3,12,30,58,255,48,03,02,164,,27,08,249,,10,08,023,27*66
$GBGSV,6,1,21,24,66,295,49,42,12,212,35,41,18,317,33,11,14,232,*67
$GBGSV,6,2,21,40,14,039,30,05,20,130,,29,15,037,25,44,27,153,35*69
$GBGSV,6,3,21,07,18,051,25,33,30,264,45,14,24,236,36,10,31,057,40*66
$GBGSV,6,4,21,35,42,097,42,56,37,057,,26,57,085,43,12,09,169,*6F
$GBGSV,6,5,21,43,02,252,,02,04,109,,45,04,094,,25,09,278,*6E
$GBGSV,6,6,21,60,08,111,*57
$GPGGA,120107.00,,,,,0,00,,,M,,M,,*4D
$PTNL,GGK,120107.00,010125,4742.4454579,N,01617.9734104,E,1,23,1.1,EHT668.3857,M*4D
$GPGGQ,120107.00,010125,4742.4454579,N,01617.9734104,E,1,23,1.984,625.1747,M*32
$GPGFA,120107.00,9.231,12.548,0.971,0.808,328.969,1.530,,VVV*32
$GPLLK,120107.00,010125,,M,,M,1,23,1.3,,M*0D
$GNGMP,120107.00,,,,,DAAA,23,0.6,,,,*54
$GPGMP,120107.00,,,,,,05,,,,2.0,123*7F
$GLGMP,120107.00,,,,,,06,,,,,*7C
$GAGMP,120107.00,,,,,,05,,,,,*72
$GBGMP,120107.00,,,,,,07,,,,,*73
$PSSN,SNC,[0,302485000,2347]*4C
$GPZDA,120112.00,01,01,2025,,*62
$GPDTM,W84,,00.0000000,N,00.0000000,E,00.0000000,W84*5F
$GPRMC,120112.00,A,4742.4454546,N,01617.9734135,E,0.0,,010125,5.1,E,D*10
$GPGLL,4742.4454546,N,01617.9734135,E,120112.00,A,D*61
$GPGGA,120112.00,4742.4454546,N,01617.9734135,E,2,22,0.6,625.1439,M,43.2110,M,3.0,0123*42
$GNGNS,120112.00,4742.4454546,N,01617.9734135,E,DAAA,22,0.6,625.1439,43.2110,,*5D
$GPGNS,120112.00,,,,,,05,,,,3.0,123*7A
$GLGNS,120112.00,,,,,,06,,,,,*78
$GAGNS,120112.00,,,,,,05,,,,,*76
$GBGNS,120112.00,,,,,,06,,,,,*76
$GPLLQ,120112.00,010125,,M,,M,1,22,2.595,,M*1B
$GPVTG,,T,,M,0.01,N,0.01,K,D*26
$GPHDT,,T*1B
$GPTHS,,V*0E
$GPROT,,V*08
$PSSN,HRP,120112.00,010125,,,,,,,00,0,,*60
$PTNL,AVR,120112.00,,Yaw,,Tilt,,,,0,,00*36
$GPGSA,A,3,12,15,19,24,32,,,,,,,,1.2,0.6,1.0*3E
$GPGSA,A,3,67,68,76,77,78,86,,,,,,,1.2,0.6,1.0*39
$GPGSA,A,3,02,07,08,29,30,,,,,,,,1.2,0.6,1.0*33
$GPGSA,A,3,10,14,24,26,33,35,,,,,,,1.2,0.6,1.0*36
$GPGST,120112.00,6.144,1.264,1.061,328.588,1.212,1.120,2.003*59
$GPGBS,120112.00,5.337,4.758,7.085,67,0.0001,19.052,6.123*61
$GPGRS,120112.00,1,1.0,-2.7,0.5,-0.3,-0.8,,,,,,,*46
$GPGRS,120112.00,1,19.1,3.4,-2.7,-5.9,-3.5,3.3,,,,,,*53
$GPGRS,120112.00,1,-0.4,-0.4,2.0,-0.9,0.7,,,,,,,*40
$GPGRS,120112.00,1,0.5,9.7,-1.0,0.4,-2.2,-3.2,,,,,,*6D
$GPGSV,4,1,16,24,84,152,41,22,14,065,,06,14,102,,15,20,191,36*7E
$GPGSV,4,2,16,32,16,321,42,17,22,044,34,25,21,255,34,19,46,068,42*7A
$GPGSV,4,3,16,12,62,258,48,11,02,134,,10,08,289,,13,04,163,*71
$GPGSV,4,4,16,36,35,170,36,34,31,208,35,49,34,195,35,61,03,257,*72
$GLGSV,3,1,10,77,68,353,42,78,23,281,44,85,12,018,35,87,26,128,28*65
$GLGSV,3,2,10,86,36,072,45,76,37,068,49,68,34,313,49,67,40,247,45*6C
$GLGSV,3,3,10,66,09,200,21,69,02,349,*6F
$GAGSV,3,1,12,02,63,057,44,29,12,323,39,11,14,048,,36,14,097,*6B
$GAGSV,3,2,12,25,12,065,,08,42,194,43,18,55,136,,07,52,279,45*68
$GAGSV,3,3,12,30,58,255,48,03,02,164,,27,08,249,,10,08,023,27*66
$GBGSV,6,1,21,24,66,295,49,42,12,212,35,41,18,317,,11,14,232,*67
$GBGSV,6,2,21,40,14,039,30,05,20,130,,29,14,037,24,44,27,153,34*68
$GBGSV,6,3,21,07,18,051,24,33,30,264,45,14,24,236,36,10,31,057,40*67
$GBGSV,6,4,21,35,42,097,43,56,37,057,,26,57,085,44,12,09,169,*69
$GBGSV,6,5,21,43,02,252,,02,04,109,,45,04,094,,25,09,278,*6E
$GBGSV,6,6,21,60,08,111,*57
$GPGGA,120112.00,,,,,0,00,,,M,,M,,*49
$PTNL,GGK,120112.00,010125,4742.4454546,N,01617.9734135,E,1,22,1.2,EHT668.3550,M*4F
$GPGGQ,120112.00,010125,4742.4454546,N,01617.9734135,E,1,22,2.595,625.1439,M*3C
$GPGFA,120112.00,12.017,16.421,1.264,1.061,328.588,2.003,,VVV*0D
$GPLLK,120112.00,010125,,M,,M,1,22,1.4,,M*0F
$GNGMP,120112.00,,,,,DAAA,22,0.6,,,,*51
$GPGMP,120112.00,,,,,,05,,,,3.0,123*7A
$GLGMP,120112.00,,,,,,06,,,,,*78
$GAGMP,120112.00,,,,,,05,,,,,*76
$GBGMP,120112.00,,,,,,06,,,,,*76
$PSSN,SNC,[0,302490000,2347]*48
$GPZDA,120117.00,01,01,2025,,*67
$GPDTM,W84,,00.0000000,N,00.0000000,E,00.0000000,W84*5F
$GPRMC,120117.00,A,4742.4454476,N,01617.9734152,E,0.0,,010125,5.1,E,D*16
$GPGLL,4742.4454476,N,01617.9734152,E,120117.00,A,D*67
$GPGGA,120117.00,4742.4454476,N,01617.9734152,E,2,21,0.7,625.1371,M,43.2110,M,1.6,0123*49
$GNGNS,120117.00,4742.4454476,N,01617.9734152,E,DAAA,21,0.7,625.1371,43.2110,,*52
$GPGNS,120117.00,,,,,,05,,,,1.6,123*7B
$GLGNS,120117.00,,,,,,06,,,,,*7D
$GAGNS,120117.00,,,,,,05,,,,,*73
$GBGNS,120117.00,,,,,,05,,,,,*70
$GPLLQ,120117.00,010125,,M,,M,1,21,2.274,,M*15
$GPVTG,,T,,M,0.00,N,0.01,K,D*27
$GPHDT,,T*1B
$GPTHS,,V*0E
$GPROT,,V*08
$PSSN,HRP,120117.00,010125,,,,,,,00,0,,*65
$PTNL,AVR,120117.00,,Yaw,,Tilt,,,,0,,00*33
$GPGSA,A,3,12,15,19,24,32,,,,,,,,1.2,0.7,1.0*3F
$GPGSA,A,3,67,68,76,77,78,86,,,,,,,1.2,0.7,1.0*38
$GPGSA,A,3,02,07,08,29,30,,,,,,,,1.2,0.7,1.0*32
$GPGSA,A,3,10,24,26,33,35,,,,,,,,1.2,0.7,1.0*32
$GPGST,120117.00,5.325,1.113,0.925,330.418,1.070,0.974,1.754*58
$GPGBS,120117.00,5.286,4.620,7.000,67,0.0001,17.867,6.123*6C
$GPGRS,120117.00,1,0.3,-1.4,1.0,-0.7,-0.0,,,,,,,*49
$GPGRS,120117.00,1,17.9,2.2,-2.3,-5.1,-3.3,1.9,,,,,,*55
$GPGRS,120117.00,1,-0.1,-0.1,2.5,-0.5,1.2,,,,,,,*48
$GPGRS,120117.00,1,1.3,-0.9,1.4,-3.2,-1.1,,,,,,,*46
$GPGSV,4,1,16,24,83,152,40,22,14,065,,15,20,191,37,06,14,102,*79
$GPGSV,4,2,16,32,16,321,43,17,22,044,35,25,21,255,34,19,46,068,43*7B
$GPGSV,4,3,16,12,62,258,48,10,08,289,,11,02,134,,13,04,163,*71
$GPGSV,4,4,16,36,35,170,36,34,31,208,34,49,34,195,35,61,03,257,*73
$GLGSV,3,1,10,77,68,354,44,78,23,281,45,85,12,018,33,87,26,128,28*63
$GLGSV,3,2,10,86,36,072,45,76,37,068,48,68,34,313,48,67,40,247,46*6F
$GLGSV,3,3,10,66,09,200,,69,02,349,*6C
$GAGSV,3,1,12,02,63,057,44,29,12,323,39,11,14,048,,36,14,096,*6A
$GAGSV,3,2,12,25,12,065,,08,42,194,44,18,55,136,,07,52,279,45*6F
$GAGSV,3,3,12,30,58,255,49,03,02,164,,27,08,249,,10,08,023,26*66
$GBGSV,6,1,21,24,66,295,49,42,12,212,35,41,18,317,33,11,14,232,*67
$GBGSV,6,2,21,40,14,039,30,05,20,130,,29,14,037,30,44,27,153,33*6A
$GBGSV,6,3,21,07,18,051,24,33,29,264,44,14,24,236,35,10,31,057,40*6D
$GBGSV,6,4,21,35,42,097,43,56,37,057,,26,57,085,44,12,09,169,*69
$GBGSV,6,5,21,43,02,252,,02,04,109,,45,04,094,,25,09,278,*6E
$GBGSV,6,6,21,60,08,111,*57
$GPGGA,120117.00,,,,,0,00,,,M,,M,,*4C
$PTNL,GGK,120117.00,010125,4742.4454476,N,01617.9734152,E,1,21,1.2,EHT668.3482,M*44
$GPGGQ,120117.00,010125,4742.4454476,N,01617.9734152,E,1,21,2.274,625.1371,M*3A
$GPGFA,120117.00,10.584,14.383,1.113,0.925,330.418,1.754,,VVV*04
$GPLLK,120117.00,010125,,M,,M,1,21,1.4,,M*09
$GNGMP,120117.00,,,,,DAAA,21,0.7,,,,*56
$GPGMP,120117.00,,,,,,05,,,,1.6,123*7B
$GLGMP,120117.00,,,,,,06,,,,,*7D
$GAGMP,120117.00,,,,,,05,,,,,*73
$GBGMP,120117.00,,,,,,05,,,,,*70
$PSSN,SNC,[0,302495000,2347]*4D
$GPZDA,120122.00,01,01,2025,,*61
$GPDTM,W84,,00.0000000,N,00.0000000,E,00.0000000,W84*5F
$GPRMC,120122.00,A,4742.4454447,N,01617.9734155,E,0.0,,010125,5.1,E,D*15
$GPGLL,4742.4454447,N,01617.9734155,E,120122.00,A,D*64
$GPGGA,120122.00,4742.4454447,N,01617.9734155,E,2,21,0.7,625.1437,M,43.2110,M,2.0,0123*4A
$GNGNS,120122.00,4742.4454447,N,01617.9734155,E,DAAA,21,0.7,625.1437,43.2110,,*54
$GPGNS,120122.00,,,,,,05,,,,2.0,123*78
$GLGNS,120122.00,,,,,,06,,,,,*7B
$GAGNS,120122.00,,,,,,05,,,,,*75
$GBGNS,120122.00,,,,,,05,,,,,*76
$GPLLQ,120122.00,010125,,M,,M,1,21,1.341,,M*17
$GPVTG,,T,,M,0.01,N,0.02,K,D*25
$GPHDT,,T*1B
$GPTHS,,V*0E
$GPROT,,V*08
$PSSN,HRP,120122.00,010125,,,,,,,00,0,,*63
$PTNL,AVR,120122.00,,Yaw,,Tilt,,,,0,,00*35
$GPGSA,A,3,12,15,19,24,32,,,,,,,,1.2,0.7,1.0*3F
$GPGSA,A,3,67,68,76,77,78,86,,,,,,,1.2,0.7,1.0*38
$GPGSA,A,3,02,07,08,29,30,,,,,,,,1.2,0.7,1.0*32
$GPGSA,A,3,10,24,26,33,35,,,,,,,,1.2,0.7,1.0*32
$GPGST,120122.00,3.443,0.680,0.517,328.409,0.639,0.566,1.033*54
$GPGBS,120122.00,5.300,4.701,7.036,67,0.0001,9.558,6.123*5C
$GPGRS,120122.00,1,-0.1,1.0,-0.3,-0.2,0.1,,,,,,,*4F
$GPGRS,120122.00,1,9.6,1.7,-2.1,-4.5,-3.2,2.8,,,,,,*61
$GPGRS,120122.00,1,0.5,0.3,2.4,-0.0,1.4,,,,,,,*4A
$GPGRS,120122.00,1,1.2,-1.0,1.8,-3.5,-1.3,,,,,,,*40
$GPGSV,4,1,16,24,83,151,39,22,14,065,,15,20,191,40,06,14,102,*74
$GPGSV,4,2,16,32,17,321,43,17,22,044,35,25,21,255,34,19,46,067,43*75
$GPGSV,4,3,16,12,62,258,48,10,08,289,23,11,02,134,,13,04,163,*70
$GPGSV,4,4,16,36,35,170,36,34,31,208,34,49,34,195,36,61,03,257,*70
$GLGSV,3,1,10,77,68,354,44,78,23,281,46,85,12,018,33,87,26,128,29*61
$GLGSV,3,2,10,86,36,072,45,76,37,068,48,68,35,313,45,67,40,247,46*63
$GLGSV,3,3,10,66,09,200,20,69,02,349,*6E
$GAGSV,3,1,12,02,63,057,44,29,12,323,38,11,14,048,,36,14,096,*6B
$GAGSV,3,2,12,25,12,065,,08,42,194,44,18,55,136,,07,52,279,45*6F
$GAGSV,3,3,12,30,59,255,49,03,02,164,,27,08,249,,10,08,023,25*64
$GBGSV,6,1,21,24,66,295,49,42,12,212,35,41,18,317,34,11,14,232,*60
$GBGSV,6,2,21,40,14,039,29,05,20,130,,29,14,037,30,44,27,153,32*63
$GBGSV,6,3,21,07,18,051,25,33,29,264,43,14,24,236,33,10,31,057,40*6D
$GBGSV,6,4,21,35,42,097,44,56,37,057,,26,57,085,44,12,10,169,*66
$GBGSV,6,5,21,43,02,252,,02,04,109,,45,04,094,,25,09,278,*6E
$GBGSV,6,6,21,60,08,111,*57
$GPGGA,120122.00,,,,,0,00,,,M,,M,,*4A
$PTNL,GGK,120122.00,010125,4742.4454447,N,01617.9734155,E,1,21,1.2,EHT668.3547,M*4F
$GPGGQ,120122.00,010125,4742.4454447,N,01617.9734155,E,1,21,1.341,625.1437,M*38
$GPGFA,120122.00,6.463,8.474,0.680,0.517,328.409,1.033,,VVV*01
$GPLLK,120122.00,010125,,M,,M,1,21,1.4,,M*0F
$GNGMP,120122.00,,,,,DAAA,21,0.7,,,,*50
$GPGMP,120122.00,,,,,,05,,,,2.0,123*78
$GLGMP,120122.00,,,,,,06,,,,,*7B
$GAGMP,120122.00,,,,,,05,,,,,*75
$GBGMP,120122.00,,,,,,05,,,,,*76
$PSSN,SNC,[0,302500000,2347]*40
$GPZDA,120127.00,01,01,2025,,*64
$GPDTM,W84,,00.0000000,N,00.0000000,E,00.0000000,W84*5F
$GPRMC,120127.00,A,4742.4454598,N,01617.9734226,E,0.0,,010125,5.1,E,D*14
$GPGLL,4742.4454598,N,01617.9734226,E,120127.00,A,D*65
$GPGGA,120127.00,4742.4454598,N,01617.9734226,E,2,22,0.7,625.1550,M,43.2110,M,3.0,0123*49
$GNGNS,120127.00,4742.4454598,N,01617.9734226,E,DAAA,22,0.7,625.1550,43.2110,,*56
$GPGNS,120127.00,,,,,,05,,,,3.0,123*7C
$GLGNS,120127.00,,,,,,06,,,,,*7E
$GAGNS,120127.00,,,,,,05,,,,,*70
$GBGNS,120127.00,,,,,,06,,,,,*70
$GPLLQ,120127.00,010125,,M,,M,1,22,1.851,,M*1B
$GPVTG,,T,,M,0.00,N,0.00,K,D*26
$GPHDT,,T*1B
$GPTHS,,V*0E
$GPROT,,V*08
$PSSN,HRP,120127.00,010125,,,,,,,00,0,,*66
$PTNL,AVR,120127.00,,Yaw,,Tilt,,,,0,,00*30
$GPGSA,A,3,12,15,19,24,32,,,,,,,,1.2,0.7,1.0*3F
$GPGSA,A,3,67,68,76,77,78,86,,,,,,,1.2,0.7,1.0*38
$GPGSA,A,3,02,07,08,29,30,,,,,,,,1.2,0.7,1.0*32
$GPGSA,A,3,10,24,26,33,35,41,,,,,,,1.2,0.7,1.0*37
$GPGST,120127.00,3.075,0.895,0.761,328.683,0.861,0.799,1.430*5F
$GPGBS,120127.00,5.328,4.779,7.110,15,0.0001,2.118,1.128*5B
$GPGRS,120127.00,1,0.3,2.1,-1.3,0.3,-0.3,,,,,,,*65
$GPGRS,120127.00,1,5.1,2.8,-2.8,-5.6,-2.6,2.7,,,,,,*62
$GPGRS,120127.00,1,0.8,0.2,2.0,0.1,1.3,,,,,,,*6C
$GPGRS,120127.00,1,0.5,-1.4,2.5,-3.5,-1.6,-4.2,,,,,,*49
$GPGSV,4,1,16,24,83,151,35,22,14,065,,15,20,191,41,06,14,102,*79
$GPGSV,4,2,16,32,17,321,43,17,22,044,35,25,21,255,35,19,46,067,42*75
$GPGSV,4,3,16,12,62,258,48,10,08,289,,11,02,134,,13,04,163,*71
