$GPZDA,134442.00,01,01,2025,,*67
$GPDTM,W84,,00.0000000,N,00.0000000,E,00.0000000,W84*5F
$GPRMC,134442.00,A,4742.4459161,N,01617.9731705,E,0.0,,010125,5.1,E,D*19
$GPGLL,4742.4459161,N,01617.9731705,E,134442.00,A,D*68
$GPGGA,134442.00,4742.4459161,N,01617.9731705,E,2,24,0.6,627.2198,M,43.2110,M,1.8,0123*48
$GNGNS,134442.00,4742.4459161,N,01617.9731705,E,DAAA,24,0.6,627.2198,43.2110,,*5D
$GPGNS,134442.00,,,,,,05,,,,1.8,123*75
$GLGNS,134442.00,,,,,,06,,,,,*7D
$GAGNS,134442.00,,,,,,06,,,,,*70
$GBGNS,134442.00,,,,,,07,,,,,*72
$GPLLQ,134442.00,010125,,M,,M,1,24,2.799,,M*16
$GPVTG,,T,,M,0.00,N,0.01,K,D*27
$GPHDT,,T*1B
$GPTHS,,V*0E
$GPROT,,V*08
$PSSN,HRP,134442.00,010125,,,,,,,00,0,,*65
$PTNL,AVR,134442.00,,Yaw,,Tilt,,,,0,,00*33
$GPGSA,A,3,11,12,25,28,32,,,,,,,,1.2,0.6,1.0*39
$GPGSA,A,3,69,77,78,79,87,88,,,,,,,1.2,0.6,1.0*37
$GPGSA,A,3,07,27,29,30,34,36,,,,,,,1.2,0.6,1.0*3E
$GPGSA,A,3,12,24,25,26,34,35,44,,,,,,1.2,0.6,1.0*31
$GPGST,134442.00,3.020,1.732,0.669,16.138,1.674,0.803,2.095*60
$GPGBS,134442.00,10.977,3.785,8.226,32,0.0001,-2.399,1.192*43
$GPGRS,134442.00,1,0.5,-0.2,1.4,1.1,-2.4,,,,,,,*60
$GPGRS,134442.00,1,0.6,0.7,-2.8,9.2,-2.5,-2.5,,,,,,*67
$GPGRS,134442.00,1,-0.0,0.1,-1.0,-0.3,0.2,-2.1,,,,,,*48
$GPGRS,134442.00,1,3.0,-0.2,2.0,-0.1,2.1,-3.8,-1.4,,,,,*6B
$GPGSV,4,1,14,12,69,063,51,24,34,155,35,28,20,312,41,06,27,055,29*77
$GPGSV,4,2,14,29,32,214,30,32,31,278,48,11,34,099,39,25,63,291,47*70
$GPGSV,4,3,14,19,09,046,25,03,00,355,,36,35,170,35,34,31,208,35*75
$GPGSV,4,4,14,49,34,195,36,61,03,257,*7A
$GLGSV,3,1,09,78,64,334,45,68,17,255,37,86,12,024,30,79,17,300,37*6F
$GLGSV,3,2,09,69,24,306,47,87,50,058,43,88,44,157,39,77,41,094,40*67
$GLGSV,3,3,09,70,01,003,*59
$GAGSV,3,1,12,30,80,015,43,29,31,295,37,36,30,060,41,34,31,121,40*64
$GAGSV,3,2,12,07,32,231,41,02,31,081,34,27,37,276,43,18,50,070,*69
$GAGSV,3,3,12,15,05,165,,19,07,334,,11,03,019,,08,04,188,*65
$GBGSV,5,1,19,24,72,112,51,11,26,209,,05,20,130,,43,16,233,*6A
$GBGSV,5,2,19,41,10,278,34,34,33,186,38,26,21,117,37,10,20,062,24*6C
$GBGSV,5,3,19,56,27,052,,35,29,050,35,12,53,155,41,25,49,299,41*66
$GBGSV,5,4,19,44,61,107,48,40,01,049,,07,07,060,,32,08,328,31*63
$GBGSV,5,5,19,38,04,076,,02,04,108,,60,08,110,*5C
$GPGGA,134442.00,,,,,0,00,,,M,,M,,*4C
$PTNL,GGK,134442.00,010125,4742.4459161,N,01617.9731705,E,1,24,1.2,EHT670.4308,M*45
$GPGGQ,134442.00,010125,4742.4459161,N,01617.9731705,E,1,24,2.799,627.2198,M*32
$GPGFA,134442.00,16.464,17.175,1.732,0.669,16.138,2.095,,VVV*3E
$GPLLK,134442.00,010125,,M,,M,1,24,1.4,,M*0C
$GNGMP,134442.00,,,,,DAAA,24,0.6,,,,*52
$GPGMP,134442.00,,,,,,05,,,,1.8,123*75
$GLGMP,134442.00,,,,,,06,,,,,*7D
$GAGMP,134442.00,,,,,,06,,,,,*70
$GBGMP,134442.00,,,,,,07,,,,,*72
$PSSN,SNC,[0,308700000,2347]*48
$GPZDA,134447.00,01,01,2025,,*62
$GPDTM,W84,,00.0000000,N,00.0000000,E,00.0000000,W84*5F
$GPRMC,134447.00,A,4742.4459147,N,01617.9731695,E,0.0,,010125,5.1,E,D*10
$GPGLL,4742.4459147,N,01617.9731695,E,134447.00,A,D*61
$GPGGA,134447.00,4742.4459147,N,01617.9731695,E,2,25,0.6,627.2197,M,43.2110,M,2.8,0123*4C
$GNGNS,134447.00,4742.4459147,N,01617.9731695,E,DAAA,25,0.6,627.2197,43.2110,,*5A
$GPGNS,134447.00,,,,,,05,,,,2.8,123*73
$GLGNS,134447.00,,,,,,06,,,,,*78
$GAGNS,134447.00,,,,,,06,,,,,*75
$GBGNS,134447.00,,,,,,08,,,,,*78
$GPLLQ,134447.00,010125,,M,,M,1,25,3.518,,M*18
$GPVTG,,T,,M,0.01,N,0.01,K,D*26
$GPHDT,,T*1B
$GPTHS,,V*0E
$GPROT,,V*08
$PSSN,HRP,134447.00,010125,,,,,,,00,0,,*60
$PTNL,AVR,134447.00,,Yaw,,Tilt,,,,0,,00*36
$GPGSA,A,3,11,12,25,28,32,,,,,,,,1.1,0.6,1.0*3A
$GPGSA,A,3,69,77,78,79,87,88,,,,,,,1.1,0.6,1.0*34
$GPGSA,A,3,07,27,29,30,34,36,,,,,,,1.1,0.6,1.0*3D
$GPGSA,A,3,12,24,25,26,34,35,41,44,,,,,1.1,0.6,1.0*37
$GPGST,134447.00,4.577,2.608,0.761,11.921,2.557,0.919,2.235*63
$GPGBS,134447.00,10.950,3.797,8.139,32,0.0001,-2.574,1.202*42
$GPGRS,134447.00,1,0.9,-0.4,0.7,1.8,-2.6,,,,,,,*66
$GPGRS,134447.00,1,0.1,-5.5,-2.7,13.0,-3.6,-3.0,,,,,,*7F
$GPGRS,134447.00,1,-0.3,0.1,3.4,-0.5,0.2,-2.2,,,,,,*60
$GPGRS,134447.00,1,5.3,-0.9,0.2,0.9,1.2,-3.9,8.2,-2.0,,,,*67
$GPGSV,4,1,14,12,69,063,51,24,33,155,32,28,21,312,41,06,27,055,29*76
$GPGSV,4,2,14,29,32,214,28,32,31,278,47,11,34,099,41,25,63,291,48*76
$GPGSV,4,3,14,19,09,046,24,03,00,355,,36,35,170,35,34,31,208,35*74
$GPGSV,4,4,14,49,34,195,36,61,03,257,*7A
$GLGSV,3,1,09,78,64,334,46,68,17,255,36,86,12,024,30,79,17,300,36*6C
$GLGSV,3,2,09,69,24,306,45,87,50,057,43,88,44,157,39,77,41,094,38*65
$GLGSV,3,3,09,70,01,003,*59
$GAGSV,3,1,12,30,80,015,43,29,31,295,38,36,30,060,42,34,31,121,40*68
$GAGSV,3,2,12,07,32,231,41,02,31,081,34,27,37,276,43,18,50,070,*69
$GAGSV,3,3,12,15,05,165,,19,07,334,,11,03,019,,08,04,188,*65
$GBGSV,5,1,19,24,72,112,51,11,26,209,,05,20,130,,43,16,233,*6A
$GBGSV,5,2,19,41,10,278,36,34,33,186,38,26,21,117,37,10,20,062,25*6F
$GBGSV,5,3,19,56,27,052,,35,29,049,37,12,53,155,41,25,49,299,40*6D
$GBGSV,5,4,19,44,61,107,48,40,01,049,,07,07,060,,32,08,328,31*63
$GBGSV,5,5,19,38,04,076,,02,04,108,,60,08,110,*5C
$GPGGA,134447.00,,,,,0,00,,,M,,M,,*49
$PTNL,GGK,134447.00,010125,4742.4459147,N,01617.9731695,E,1,25,1.1,EHT670.4307,M*41
$GPGGQ,134447.00,010125,4742.4459147,N,01617.9731695,E,1,25,3.518,627.2197,M*3F
$GPGFA,134447.00,24.798,18.328,2.608,0.761,11.921,2.235,,VVV*32
$GPLLK,134447.00,010125,,M,,M,1,25,1.3,,M*0F
$GNGMP,134447.00,,,,,DAAA,25,0.6,,,,*56
$GPGMP,134447.00,,,,,,05,,,,2.8,123*73
$GLGMP,134447.00,,,,,,06,,,,,*78
$GAGMP,134447.00,,,,,,06,,,,,*75
$GBGMP,134447.00,,,,,,08,,,,,*78
$PSSN,SNC,[0,308705000,2347]*4D
$GPZDA,134452.00,01,01,2025,,*66
$GPDTM,W84,,00.0000000,N,00.0000000,E,00.0000000,W84*5F
$GPRMC,134452.00,A,4742.4459160,N,01617.9731639,E,0.0,,010125,5.1,E,D*17
$GPGLL,4742.4459160,N,01617.9731639,E,134452.00,A,D*66
$GPGGA,134452.00,4742.4459160,N,01617.9731639,E,2,25,0.6,627.2241,M,43.2111,M,2.7,0123*4D
$GNGNS,134452.00,4742.4459160,N,01617.9731639,E,DAAA,25,0.6,627.2241,43.2111,,*54
$GPGNS,134452.00,,,,,,06,,,,2.7,123*7B
$GLGNS,134452.00,,,,,,05,,,,,*7F
$GAGNS,134452.00,,,,,,06,,,,,*71
$GBGNS,134452.00,,,,,,08,,,,,*7C
$GPLLQ,134452.00,010125,,M,,M,1,25,3.543,,M*12
$GPVTG,,T,,M,0.00,N,0.01,K,D*27
$GPHDT,,T*1B
$GPTHS,,V*0E
$GPROT,,V*08
$PSSN,HRP,134452.00,010125,,,,,,,00,0,,*64
$PTNL,AVR,134452.00,,Yaw,,Tilt,,,,0,,00*32
$GPGSA,A,3,11,12,25,28,29,32,,,,,,,1.1,0.6,1.0*31
$GPGSA,A,3,69,77,78,87,88,,,,,,,,1.1,0.6,1.0*3A
$GPGSA,A,3,07,27,29,30,34,36,,,,,,,1.1,0.6,1.0*3D
$GPGSA,A,3,12,24,25,26,34,35,41,44,,,,,1.1,0.6,1.0*37
$GPGST,134452.00,4.859,1.653,1.011,7.742,1.644,1.027,2.965*5F
$GPGBS,134452.00,6.860,4.353,9.052,29,0.0001,3.094,1.018*51
$GPGRS,134452.00,1,1.4,-0.8,0.7,1.8,3.1,-3.5,,,,,,*4C
$GPGRS,134452.00,1,-1.7,-9.0,-3.2,-3.5,-0.0,,,,,,,*40
$GPGRS,134452.00,1,-0.8,0.1,6.7,-0.5,-0.1,-2.1,,,,,,*44
$GPGRS,134452.00,1,4.9,-1.9,-0.3,-1.5,-0.9,-4.2,13.6,-2.6,,,,*76
$GPGSV,4,1,14,12,69,063,51,24,33,155,30,28,21,312,40,06,27,055,29*75
$GPGSV,4,2,14,29,32,214,36,32,31,278,46,11,35,099,41,25,63,291,49*78
$GPGSV,4,3,14,19,09,046,23,03,00,355,,36,35,170,35,34,31,208,35*73
$GPGSV,4,4,14,49,34,195,36,61,03,257,*7A
$GLGSV,3,1,09,78,65,334,48,68,17,255,34,86,12,024,28,79,17,300,34*6A
$GLGSV,3,2,09,69,24,306,45,87,50,057,43,88,44,157,38,77,41,095,36*6B
$GLGSV,3,3,09,70,01,003,*59
$GAGSV,3,1,12,30,80,015,43,29,31,295,38,36,30,059,42,34,31,121,40*62
$GAGSV,3,2,12,07,32,231,41,02,31,081,34,27,37,276,42,18,50,070,*68
$GAGSV,3,3,12,15,05,165,,19,07,334,,11,03,019,,08,04,188,*65
$GBGSV,5,1,19,24,72,112,51,11,26,209,,05,20,130,,43,16,233,*6A
$GBGSV,5,2,19,41,10,278,37,34,33,186,38,26,21,117,36,10,20,062,23*69
$GBGSV,5,3,19,56,27,052,,35,29,049,37,12,53,155,40,25,49,299,40*6C
$GBGSV,5,4,19,44,61,107,47,40,01,049,,07,07,060,,32,08,328,31*6C
$GBGSV,5,5,19,38,04,076,,02,04,108,,60,08,110,*5C
$GPGGA,134452.00,,,,,0,00,,,M,,M,,*4D
$PTNL,GGK,134452.00,010125,4742.4459160,N,01617.9731639,E,1,25,1.1,EHT670.4351,M*45
$GPGGQ,134452.00,010125,4742.4459160,N,01617.9731639,E,1,25,3.543,627.2241,M*3E
$GPGFA,134452.00,15.720,24.317,1.653,1.011,7.742,2.965,,VVV*0A
$GPLLK,134452.00,010125,,M,,M,1,25,1.3,,M*0B
$GNGMP,134452.00,,,,,DAAA,25,0.6,,,,*52
$GPGMP,134452.00,,,,,,06,,,,2.7,123*7B
$GLGMP,134452.00,,,,,,05,,,,,*7F
$GAGMP,134452.00,,,,,,06,,,,,*71
$GBGMP,134452.00,,,,,,08,,,,,*7C
$PSSN,SNC,[0,308710000,2347]*49
$GPZDA,134457.00,01,01,2025,,*63
$GPDTM,W84,,00.0000000,N,00.0000000,E,00.0000000,W84*5F
$GPRMC,134457.00,A,4742.4459138,N,01617.9731594,E,0.0,,010125,5.1,E,D*1B
$GPGLL,4742.4459138,N,01617.9731594,E,134457.00,A,D*6A
$GPGGA,134457.00,4742.4459138,N,01617.9731594,E,2,23,0.6,627.2209,M,43.2111,M,2.4,0123*48
$GNGNS,134457.00,4742.4459138,N,01617.9731594,E,DAAA,23,0.6,627.2209,43.2111,,*52
$GPGNS,134457.00,,,,,,05,,,,2.4,123*7E
$GLGNS,134457.00,,,,,,04,,,,,*7B
$GAGNS,134457.00,,,,,,07,,,,,*75
$GBGNS,134457.00,,,,,,07,,,,,*76
$GPLLQ,134457.00,010125,,M,,M,1,23,3.615,,M*11
$GPVTG,,T,,M,0.00,N,0.00,K,D*26
$GPHDT,,T*1B
$GPTHS,,V*0E
$GPROT,,V*08
$PSSN,HRP,134457.00,010125,,,,,,,00,0,,*61
$PTNL,AVR,134457.00,,Yaw,,Tilt,,,,0,,00*37
$GPGSA,A,3,11,12,25,28,32,,,,,,,,1.2,0.6,1.0*39
$GPGSA,A,3,69,78,87,88,,,,,,,,,1.2,0.6,1.0*39
$GPGSA,A,3,02,07,27,29,30,34,36,,,,,,1.2,0.6,1.0*3C
$GPGSA,A,3,12,24,25,34,35,41,44,,,,,,1.2,0.6,1.0*30
$GPGST,134457.00,3.987,2.660,0.786,11.492,2.611,0.935,2.318*65
$GPGBS,134457.00,11.108,3.762,8.266,32,0.0001,-2.858,1.182*4C
$GPGRS,134457.00,1,0.7,-0.5,1.2,1.5,-2.9,,,,,,,*6E
$GPGRS,134457.00,1,-0.7,-2.2,-2.8,1.1,,,,,,,,*6E
$GPGRS,134457.00,1,3.1,-0.7,0.8,3.1,-0.4,-0.9,-1.6,,,,,*65
$GPGRS,134457.00,1,1.9,-1.8,0.8,-1.7,-3.6,13.3,-1.7,,,,,*5D
$GPGSV,4,1,14,12,69,063,51,24,33,155,30,28,21,312,40,06,27,055,31*7C
$GPGSV,4,2,14,29,32,214,34,32,31,278,46,11,35,099,41,25,63,291,50*72
$GPGSV,4,3,14,19,09,046,,03,00,355,,36,35,170,35,34,31,208,35*72
$GPGSV,4,4,14,49,34,195,36,61,03,257,*7A
$GLGSV,3,1,09,78,65,334,49,68,17,255,31,86,12,024,20,79,17,300,30*62
$GLGSV,3,2,09,69,24,306,44,87,50,057,43,88,44,157,36,77,41,095,34*66
$GLGSV,3,3,09,70,01,003,*59
$GAGSV,3,1,12,30,80,016,43,29,31,295,38,36,30,059,43,34,31,121,38*6F
$GAGSV,3,2,12,07,32,231,41,02,31,081,35,27,37,276,42,18,50,070,*69
$GAGSV,3,3,12,15,05,165,,19,07,334,,11,03,019,,08,04,188,*65
$GBGSV,5,1,19,24,72,112,51,11,26,209,,05,20,130,,43,16,233,*6A
$GBGSV,5,2,19,41,10,278,37,34,33,186,38,26,21,117,34,10,20,062,25*6D
$GBGSV,5,3,19,56,27,052,,35,29,049,36,12,53,155,38,25,49,299,41*63
$GBGSV,5,4,19,44,61,107,47,40,01,049,,07,07,060,,32,08,328,30*6D
$GBGSV,5,5,19,38,04,076,,02,04,108,,60,08,110,*5C
$GPGGA,134457.00,,,,,0,00,,,M,,M,,*48
$PTNL,GGK,134457.00,010125,4742.4459138,N,01617.9731594,E,1,23,1.2,EHT670.4319,M*40
$GPGGQ,134457.00,010125,4742.4459138,N,01617.9731594,E,1,23,3.615,627.2209,M*38
$GPGFA,134457.00,25.291,19.010,2.660,0.786,11.492,2.318,,VVV*3B
$GPLLK,134457.00,010125,,M,,M,1,23,1.4,,M*0F
$GNGMP,134457.00,,,,,DAAA,23,0.6,,,,*51
$GPGMP,134457.00,,,,,,05,,,,2.4,123*7E
$GLGMP,134457.00,,,,,,04,,,,,*7B
$GAGMP,134457.00,,,,,,07,,,,,*75
$GBGMP,134457.00,,,,,,07,,,,,*76
$PSSN,SNC,[0,308715000,2347]*4C
$GPZDA,134502.00,01,01,2025,,*62
$GPDTM,W84,,00.0000000,N,00.0000000,E,00.0000000,W84*5F
$GPRMC,134502.00,A,4742.4459144,N,01617.9731553,E,0.0,,010125,5.1,E,D*1A
$GPGLL,4742.4459144,N,01617.9731553,E,134502.00,A,D*6B
$GPGGA,134502.00,4742.4459144,N,01617.9731553,E,2,20,0.7,627.2236,M,43.2111,M,1.8,0123*48
$GNGNS,134502.00,4742.4459144,N,01617.9731553,E,DAAA,20,0.7,627.2236,43.2111,,*5D
$GPGNS,134502.00,,,,,,05,,,,1.8,123*70
$GLGNS,134502.00,,,,,,03,,,,,*7D
$GAGNS,134502.00,,,,,,07,,,,,*74
$GBGNS,134502.00,,,,,,05,,,,,*75
$GPLLQ,134502.00,010125,,M,,M,1,20,2.998,,M*18
$GPVTG,,T,,M,0.01,N,0.01,K,D*26
$GPHDT,,T*1B
$GPTHS,,V*0E
$GPROT,,V*08
$PSSN,HRP,134502.00,010125,,,,,,,00,0,,*60
$PTNL,AVR,134502.00,,Yaw,,Tilt,,,,0,,00*36
$GPGSA,A,3,11,12,25,28,32,,,,,,,,1.3,0.7,1.1*38
$GPGSA,A,3,69,78,87,,,,,,,,,,1.3,0.7,1.1*38
$GPGSA,A,3,02,07,27,29,30,34,36,,,,,,1.3,0.7,1.1*3D
$GPGSA,A,3,24,25,34,35,44,,,,,,,,1.3,0.7,1.1*37
$GPGST,134502.00,2.515,2.275,0.626,11.005,2.236,0.752,1.850*69
$GPGBS,134502.00,12.887,3.865,8.385,32,0.0001,-1.888,1.192*4B
$GPGRS,134502.00,1,1.0,-0.4,0.9,0.6,-1.9,,,,,,,*63
$GPGRS,134502.00,1,0.4,-1.8,-0.9,,,,,,,,,*65
$GPGRS,134502.00,1,3.5,-1.3,0.4,-5.7,-1.1,-1.6,-2.3,,,,,*48
$GPGRS,134502.00,1,-2.3,0.3,-2.0,-2.5,-0.9,,,,,,,*6F
$GPGSV,4,1,14,12,69,063,51,24,33,155,33,28,21,312,40,06,27,055,32*7C
$GPGSV,4,2,14,29,32,214,29,32,31,278,45,11,35,099,41,25,63,291,50*7D
$GPGSV,4,3,14,19,09,046,22,03,00,355,,36,35,170,35,34,31,208,35*72
$GPGSV,4,4,14,49,34,195,36,61,03,257,*7A
$GLGSV,3,1,10,78,65,335,50,68,17,255,29,86,12,024,,79,17,300,26*6F
$GLGSV,3,2,10,69,24,306,45,87,50,057,43,88,44,157,34,77,41,095,33*6A
$GLGSV,3,3,10,70,01,003,,81,00,186,*67
$GAGSV,3,1,12,30,80,016,42,29,31,295,37,36,30,059,42,34,31,121,36*6E
$GAGSV,3,2,12,07,32,231,41,02,31,081,36,27,37,276,40,18,50,070,*68
$GAGSV,3,3,12,15,05,165,,19,07,334,,11,03,019,,08,03,188,*62
$GBGSV,5,1,19,24,72,112,50,11,26,209,,05,20,130,,43,16,233,*6B
$GBGSV,5,2,19,41,10,278,34,34,33,186,38,26,21,117,32,10,20,062,24*69
$GBGSV,5,3,19,56,27,052,,35,29,049,36,12,53,155,35,25,49,299,40*6F
$GBGSV,5,4,19,44,61,107,47,40,00,050,,07,07,060,,32,08,328,29*6C
$GBGSV,5,5,19,38,04,076,,02,04,108,,60,08,110,*5C
$GPGGA,134502.00,,,,,0,00,,,M,,M,,*49
$PTNL,GGK,134502.00,010125,4742.4459144,N,01617.9731553,E,1,20,1.3,EHT670.4346,M*49
$GPGGQ,134502.00,010125,4742.4459144,N,01617.9731553,E,1,20,2.998,627.2236,M*3D
$GPGFA,134502.00,21.630,15.167,2.275,0.626,11.005,1.850,,VVV*39
$GPLLK,134502.00,010125,,M,,M,1,20,1.6,,M*0F
$GNGMP,134502.00,,,,,DAAA,20,0.7,,,,*52
$GPGMP,134502.00,,,,,,05,,,,1.8,123*70
$GLGMP,134502.00,,,,,,03,,,,,*7D
$GAGMP,134502.00,,,,,,07,,,,,*74
$GBGMP,134502.00,,,,,,05,,,,,*75
$PSSN,SNC,[0,308720000,2347]*4A
$GPZDA,134507.00,01,01,2025,,*67
$GPDTM,W84,,00.0000000,N,00.0000000,E,00.0000000,W84*5F
$GPRMC,134507.00,A,4742.4459112,N,01617.9731487,E,0.0,,010125,5.1,E,D*14
$GPGLL,4742.4459112,N,01617.9731487,E,134507.00,A,D*65
$GPGGA,134507.00,4742.4459112,N,01617.9731487,E,2,21,0.6,627.2243,M,43.2111,M,2.7,0123*48
$GNGNS,134507.00,4742.4459112,N,01617.9731487,E,DAAA,21,0.6,627.2243,43.2111,,*51
$GPGNS,134507.00,,,,,,06,,,,2.7,123*7A
$GLGNS,134507.00,,,,,,04,,,,,*7F
$GAGNS,134507.00,,,,,,06,,,,,*70
$GBGNS,134507.00,,,,,,05,,,,,*70
$GPLLQ,134507.00,010125,,M,,M,1,21,2.559,,M*1D
$GPVTG,,T,,M,0.01,N,0.03,K,D*24
$GPHDT,,T*1B
$GPTHS,,V*0E
$GPROT,,V*08
$PSSN,HRP,134507.00,010125,,,,,,,00,0,,*65
$PTNL,AVR,134507.00,,Yaw,,Tilt,,,,0,,00*33
$GPGSA,A,3,11,12,24,25,28,32,,,,,,,1.3,0.6,1.2*3C
$GPGSA,A,3,69,78,87,88,,,,,,,,,1.3,0.6,1.2*3A
$GPGSA,A,3,02,07,27,29,30,36,,,,,,,1.3,0.6,1.2*38
$GPGSA,A,3,24,25,34,35,44,,,,,,,,1.3,0.6,1.2*35
$GPGST,134507.00,2.725,1.623,0.603,14.636,1.577,0.713,1.885*61
$GPGBS,134507.00,6.765,4.268,9.638,32,0.0001,-1.842,1.204*70
$GPGRS,134507.00,1,1.1,-0.2,-0.4,0.4,1.3,-1.8,,,,,,*6E
$GPGRS,134507.00,1,1.0,-2.2,-0.9,-5.5,,,,,,,,*6F
$GPGRS,134507.00,1,3.4,-1.6,-0.4,-4.7,-1.0,-3.1,,,,,,*63
$GPGRS,134507.00,1,-2.5,-0.5,-2.7,0.1,-0.4,,,,,,,*66
$GPGSV,4,1,14,12,68,063,51,24,33,155,35,28,21,312,41,06,27,055,31*79
$GPGSV,4,2,14,29,32,214,28,32,31,278,45,11,35,099,41,25,63,291,50*7C
$GPGSV,4,3,14,19,09,046,22,03,00,355,,36,35,170,35,34,31,208,35*72
$GPGSV,4,4,14,49,34,195,36,61,03,257,*7A
$GLGSV,3,1,10,78,65,335,49,68,17,255,29,86,12,024,,79,17,300,22*63
$GLGSV,3,2,10,69,24,306,46,87,50,057,41,88,44,157,36,77,41,095,34*6E
$GLGSV,3,3,10,70,01,003,,81,00,186,*67
$GAGSV,3,1,12,30,80,016,42,29,31,295,37,36,30,059,41,34,32,121,35*6D
$GAGSV,3,2,12,07,32,231,41,02,31,081,36,27,37,276,39,18,50,070,*66
$GAGSV,3,3,12,15,05,165,,19,07,334,,11,03,019,,08,03,188,*62
$GBGSV,5,1,19,24,72,112,50,11,26,209,,05,20,130,,43,16,233,*6B
$GBGSV,5,2,19,41,10,278,30,34,33,186,38,26,20,117,31,10,20,062,25*6E
$GBGSV,5,3,19,56,27,052,,35,29,049,37,12,53,155,32,25,49,299,40*69
$GBGSV,5,4,19,44,61,107,48,40,00,050,,07,07,060,,32,08,328,27*6D
$GBGSV,5,5,19,38,04,076,,02,04,108,,60,08,110,*5C
$GPGGA,134507.00,,,,,0,00,,,M,,M,,*4C
$PTNL,GGK,134507.00,010125,4742.4459112,N,01617.9731487,E,1,21,1.3,EHT670.4353,M*42
$GPGGQ,134507.00,010125,4742.4459112,N,01617.9731487,E,1,21,2.559,627.2243,M*31
$GPGFA,134507.00,15.426,15.460,1.623,0.603,14.636,1.885,,VVV*34
$GPLLK,134507.00,010125,,M,,M,1,21,1.5,,M*08
$GNGMP,134507.00,,,,,DAAA,21,0.6,,,,*57
$GPGMP,134507.00,,,,,,06,,,,2.7,123*7A
$GLGMP,134507.00,,,,,,04,,,,,*7F
$GAGMP,134507.00,,,,,,06,,,,,*70
$GBGMP,134507.00,,,,,,05,,,,,*70
$PSSN,SNC,[0,308725000,2347]*4F
$GPZDA,134512.00,01,01,2025,,*63
$GPDTM,W84,,00.0000000,N,00.0000000,E,00.0000000,W84*5F
$GPRMC,134512.00,A,4742.4459044,N,01617.9731407,E,0.0,,010125,5.1,E,D*1A
$GPGLL,4742.4459044,N,01617.9731407,E,134512.00,A,D*6B
$GPGGA,134512.00,4742.4459044,N,01617.9731407,E,2,22,0.6,627.2247,M,43.2111,M,3.0,0123*47
$GNGNS,134512.00,4742.4459044,N,01617.9731407,E,DAAA,22,0.6,627.2247,43.2111,,*58
$GPGNS,134512.00,,,,,,06,,,,3.0,123*78
$GLGNS,134512.00,,,,,,04,,,,,*7B
$GAGNS,134512.00,,,,,,06,,,,,*74
$GBGNS,134512.00,,,,,,06,,,,,*77
$GPLLQ,134512.00,010125,,M,,M,1,22,3.080,,M*1A
$GPVTG,,T,,M,0.00,N,0.01,K,D*27
$GPHDT,,T*1B
$GPTHS,,V*0E
$GPROT,,V*08
$PSSN,HRP,134512.00,010125,,,,,,,00,0,,*61
$PTNL,AVR,134512.00,,Yaw,,Tilt,,,,0,,00*37
$GPGSA,A,3,11,12,24,25,28,32,,,,,,,1.2,0.6,1.0*3F
$GPGSA,A,3,69,77,78,87,,,,,,,,,1.2,0.6,1.0*39
$GPGSA,A,3,02,07,27,29,30,36,,,,,,,1.2,0.6,1.0*3B
$GPGSA,A,3,24,25,32,34,35,44,,,,,,,1.2,0.6,1.0*37
$GPGST,134512.00,4.952,1.583,0.780,26.219,1.461,0.989,2.525*69
$GPGBS,134512.00,6.894,4.275,9.408,11,0.0001,2.096,1.027*55
$GPGRS,134512.00,1,2.1,-0.3,-1.3,0.5,2.5,-1.2,,,,,,*60
$GPGRS,134512.00,1,-1.0,-9.4,-2.9,-3.4,,,,,,,,*4E
$GPGRS,134512.00,1,1.8,-1.9,-2.4,-3.4,-1.0,-3.1,,,,,,*60
$GPGRS,134512.00,1,-2.3,-1.5,14.1,-1.0,1.4,-0.0,,,,,,*7B
$GPGSV,4,1,14,12,68,063,51,24,33,155,36,28,21,312,42,06,27,055,33*7B
$GPGSV,4,2,14,29,32,214,30,32,31,278,45,11,35,099,41,25,63,291,50*75
$GPGSV,4,3,14,19,09,046,21,03,00,355,,36,35,170,35,34,31,208,35*71
$GPGSV,4,4,14,49,34,195,36,61,03,257,*7A
$GLGSV,3,1,10,78,65,335,49,68,17,255,25,86,12,024,27,79,17,300,*6A
$GLGSV,3,2,10,69,24,306,44,87,50,057,39,88,44,157,35,77,41,095,37*63
$GLGSV,3,3,10,70,01,003,,81,00,186,*67
$GAGSV,3,1,12,30,80,016,42,29,31,295,37,36,30,059,41,34,32,121,33*6B
$GAGSV,3,2,12,07,32,231,41,02,31,081,36,27,37,276,37,18,50,070,*68
$GAGSV,3,3,12,15,05,165,,19,07,334,,11,03,019,,08,03,188,*62
$GBGSV,5,1,19,24,72,112,49,11,26,209,,05,20,130,,43,16,233,*63
$GBGSV,5,2,19,41,10,278,27,34,33,186,38,26,20,117,28,10,20,062,25*60
$GBGSV,5,3,19,56,27,052,,35,29,049,39,12,53,155,32,25,49,299,39*69
$GBGSV,5,4,19,44,61,107,48,40,00,050,,07,07,060,,32,08,328,35*6E
$GBGSV,5,5,19,38,04,076,,02,04,108,,60,08,110,*5C
$GPGGA,134512.00,,,,,0,00,,,M,,M,,*48
$PTNL,GGK,134512.00,010125,4742.4459044,N,01617.9731407,E,1,22,1.2,EHT670.4357,M*4A
$GPGGQ,134512.00,010125,4742.4459044,N,01617.9731407,E,1,22,3.080,627.2247,M*38
$GPGFA,134512.00,15.047,20.702,1.583,0.780,26.219,2.525,,VVV*3D
$GPLLK,134512.00,010125,,M,,M,1,22,1.4,,M*0E
$GNGMP,134512.00,,,,,DAAA,22,0.6,,,,*50
$GPGMP,134512.00,,,,,,06,,,,3.0,123*78
$GLGMP,134512.00,,,,,,04,,,,,*7B
$GAGMP,134512.00,,,,,,06,,,,,*74
$GBGMP,134512.00,,,,,,06,,,,,*77
$PSSN,SNC,[0,308730000,2347]*4B
$GPZDA,134517.00,01,01,2025,,*66
$GPDTM,W84,,00.0000000,N,00.0000000,E,00.0000000,W84*5F
$GPRMC,134517.00,A,4742.4458911,N,01617.9731354,E,0.0,,010125,5.1,E,D*16
$GPGLL,4742.4458911,N,01617.9731354,E,134517.00,A,D*67
$GPGGA,134517.00,4742.4458911,N,01617.9731354,E,2,23,0.6,627.2375,M,43.2111,M,2.7,0123*4C
$GNGNS,134517.00,4742.4458911,N,01617.9731354,E,DAAA,23,0.6,627.2375,43.2111,,*55
$GPGNS,134517.00,,,,,,06,,,,2.7,123*7B
$GLGNS,134517.00,,,,,,05,,,,,*7F
$GAGNS,134517.00,,,,,,06,,,,,*71
$GBGNS,134517.00,,,,,,06,,,,,*72
$GPLLQ,134517.00,010125,,M,,M,1,23,3.088,,M*16
$GPVTG,,T,,M,0.00,N,0.01,K,D*27
$GPHDT,,T*1B
$GPTHS,,V*0E
$GPROT,,V*08
$PSSN,HRP,134517.00,010125,,,,,,,00,0,,*64
$PTNL,AVR,134517.00,,Yaw,,Tilt,,,,0,,00*32
$GPGSA,A,3,11,12,24,25,28,32,,,,,,,1.2,0.6,1.0*3F
$GPGSA,A,3,69,77,78,87,88,,,,,,,,1.2,0.6,1.0*39
$GPGSA,A,3,02,07,27,29,30,36,,,,,,,1.2,0.6,1.0*3B
$GPGSA,A,3,24,25,32,34,35,44,,,,,,,1.2,0.6,1.0*37
$GPGST,134517.00,4.762,1.583,0.782,25.913,1.464,0.987,2.533*6D
$GPGBS,134517.00,6.784,4.195,9.228,11,0.0001,2.142,0.994*5F
$GPGRS,134517.00,1,2.1,-0.3,-1.5,0.3,2.9,-0.8,,,,,,*62
$GPGRS,134517.00,1,-2.9,-8.4,-2.9,-4.3,-2.2,,,,,,,*43
$GPGRS,134517.00,1,-0.4,-1.6,-3.5,-2.8,-0.7,-2.7,,,,,,*46
$GPGRS,134517.00,1,-2.0,-1.4,14.0,-1.2,1.2,-0.0,,,,,,*79
$GPGSV,4,1,14,12,68,063,51,24,33,155,38,28,21,312,43,06,27,055,33*74
$GPGSV,4,2,14,29,32,214,32,32,31,277,45,11,35,099,40,25,63,291,49*71
$GPGSV,4,3,14,19,09,046,,03,00,355,,36,35,170,35,34,31,208,35*72
$GPGSV,4,4,14,49,34,195,36,61,03,257,*7A
$GLGSV,3,1,10,78,65,335,48,68,17,255,27,86,11,024,27,79,17,300,31*68
$GLGSV,3,2,10,69,24,306,44,87,50,057,38,88,44,157,35,77,41,095,38*6D
$GLGSV,3,3,10,70,01,003,,81,00,186,*67
$GAGSV,3,1,12,30,80,016,42,29,31,295,37,36,30,059,40,34,32,121,31*68
$GAGSV,3,2,12,07,32,231,41,02,31,081,36,27,37,277,35,18,50,070,*6B
$GAGSV,3,3,12,15,05,165,,19,07,334,,11,03,019,,08,03,188,*62
$GBGSV,5,1,19,24,72,112,48,11,26,209,,05,20,130,,43,16,233,*62
$GBGSV,5,2,19,41,10,278,23,34,33,186,37,26,20,117,26,10,20,062,25*65
$GBGSV,5,3,19,56,27,052,,35,29,049,41,12,53,155,35,25,49,299,40*6F
$GBGSV,5,4,19,44,61,107,48,40,00,050,,07,07,060,,32,08,328,36*6D
$GBGSV,5,5,19,38,04,076,,02,04,108,,60,08,110,*5C
$GPGGA,134517.00,,,,,0,00,,,M,,M,,*4D
$PTNL,GGK,134517.00,010125,4742.4458911,N,01617.9731354,E,1,23,1.2,EHT670.4485,M*4F
$GPGGQ,134517.00,010125,4742.4458911,N,01617.9731354,E,1,23,3.088,627.2375,M*3D
$GPGFA,134517.00,15.051,20.773,1.583,0.782,25.913,2.533,,VVV*3E
$GPLLK,134517.00,010125,,M,,M,1,23,1.4,,M*0A
$GNGMP,134517.00,,,,,DAAA,23,0.6,,,,*54
$GPGMP,134517.00,,,,,,06,,,,2.7,123*7B
$GLGMP,134517.00,,,,,,05,,,,,*7F
$GAGMP,134517.00,,,,,,06,,,,,*71
$GBGMP,134517.00,,,,,,06,,,,,*72
$PSSN,SNC,[0,308735000,2347]*4E
$GPZDA,134522.00,01,01,2025,,*60
$GPDTM,W84,,00.0000000,N,00.0000000,E,00.0000000,W84*5F
$GPRMC,134522.00,A,4742.4458816,N,01617.9731330,E,0.0,,010125,5.1,E,D*14
$GPGLL,4742.4458816,N,01617.9731330,E,134522.00,A,D*65
$GPGGA,134522.00,4742.4458816,N,01617.9731330,E,2,23,0.6,627.2574,M,43.2111,M,1.9,0123*44
$GNGNS,134522.00,4742.4458816,N,01617.9731330,E,DAAA,23,0.6,627.2574,43.2111,,*50
$GPGNS,134522.00,,,,,,07,,,,1.9,123*71
$GLGNS,134522.00,,,,,,04,,,,,*78
$GAGNS,134522.00,,,,,,05,,,,,*74
$GBGNS,134522.00,,,,,,07,,,,,*75
$GPLLQ,134522.00,010125,,M,,M,1,23,3.018,,M*19
$GPVTG,,T,,M,0.00,N,0.01,K,D*27
$GPHDT,,T*1B
$GPTHS,,V*0E
$GPROT,,V*08
$PSSN,HRP,134522.00,010125,,,,,,,00,0,,*62
$PTNL,AVR,134522.00,,Yaw,,Tilt,,,,0,,00*34
$GPGSA,A,3,11,12,24,25,28,29,32,,,,,,1.2,0.6,1.0*34
$GPGSA,A,3,69,77,78,87,,,,,,,,,1.2,0.6,1.0*39
$GPGSA,A,3,02,07,29,30,36,,,,,,,,1.2,0.6,1.0*3E
$GPGSA,A,3,12,24,25,32,34,35,44,,,,,,1.2,0.6,1.0*34
$GPGST,134522.00,4.723,1.440,0.785,24.581,1.349,0.932,2.534*60
$GPGBS,134522.00,4.339,3.714,9.283,29,0.0001,2.326,1.036*5B
$GPGRS,134522.00,1,2.2,-0.2,-1.5,-0.4,2.2,2.3,-0.3,,,,,*63
$GPGRS,134522.00,1,-2.1,-8.8,-2.7,-5.0,,,,,,,,*4E
$GPGRS,134522.00,1,-2.8,-0.8,-2.4,-0.5,-2.6,,,,,,,*4B
$GPGRS,134522.00,1,-4.1,-1.8,-0.7,12.8,-4.1,0.8,-0.7,,,,,*74
$GPGSV,4,1,14,12,68,063,52,24,33,155,39,28,21,312,44,06,27,055,30*72
$GPGSV,4,2,14,29,32,214,36,32,31,277,44,11,35,098,39,25,63,291,48*7A
$GPGSV,4,3,14,19,09,046,20,03,00,355,,36,35,170,35,34,31,208,35*70
$GPGSV,4,4,14,49,34,195,36,61,03,257,*7A
$GLGSV,3,1,10,78,65,335,49,68,16,255,28,86,11,024,28,79,17,300,28*60
$GLGSV,3,2,10,69,24,306,46,87,50,057,39,88,44,157,35,77,41,095,37*61
$GLGSV,3,3,10,70,01,003,,81,00,186,*67
$GAGSV,3,1,12,30,80,016,41,29,31,295,37,36,30,059,40,34,32,120,34*6F
$GAGSV,3,2,12,07,32,231,41,02,31,081,36,27,37,277,33,18,49,070,*65
$GAGSV,3,3,12,15,05,165,,19,07,334,,11,03,019,,08,03,188,*62
$GBGSV,5,1,20,24,72,112,47,11,26,209,,05,20,130,,43,16,233,*67
$GBGSV,5,2,20,41,10,278,26,34,33,186,36,26,20,117,23,10,20,062,26*6D
$GBGSV,5,3,20,56,27,052,,35,29,049,42,12,53,155,38,25,49,299,39*65
$GBGSV,5,4,20,44,61,107,48,38,04,076,,40,00,050,,02,04,108,*65
$GBGSV,5,5,20,08,00,089,,32,08,328,37,07,07,060,,60,08,110,*6C
$GPGGA,134522.00,,,,,0,00,,,M,,M,,*4B
$PTNL,GGK,134522.00,010125,4742.4458816,N,01617.9731330,E,1,23,1.2,EHT670.4684,M*4E
$GPGGQ,134522.00,010125,4742.4458816,N,01617.9731330,E,1,23,3.018,627.2574,M*31
$GPGFA,134522.00,13.687,20.775,1.440,0.785,24.581,2.534,,VVV*3D
$GPLLK,134522.00,010125,,M,,M,1,23,1.4,,M*0C
$GNGMP,134522.00,,,,,DAAA,23,0.6,,,,*52
$GPGMP,134522.00,,,,,,07,,,,1.9,123*71
$GLGMP,134522.00,,,,,,04,,,,,*78
$GAGMP,134522.00,,,,,,05,,,,,*74
$GBGMP,134522.00,,,,,,07,,,,,*75
$PSSN,SNC,[0,308740000,2347]*4C
$GPZDA,134527.00,01,01,2025,,*65
$GPDTM,W84,,00.0000000,N,00.0000000,E,00.0000000,W84*5F
$GPRMC,134527.00,A,4742.4458832,N,01617.9731388,E,0.0,,010125,5.1,E,D*14
$GPGLL,4742.4458832,N,01617.9731388,E,134527.00,A,D*65
$GPGGA,134527.00,4742.4458832,N,01617.9731388,E,2,24,0.6,627.2649,M,43.2111,M,2.9,0123*4D
$GNGNS,134527.00,4742.4458832,N,01617.9731388,E,DAAA,24,0.6,627.2649,43.2111,,*5A
$GPGNS,134527.00,,,,,,08,,,,2.9,123*78
$GLGNS,134527.00,,,,,,04,,,,,*7D
$GAGNS,134527.00,,,,,,05,,,,,*71
$GBGNS,134527.00,,,,,,07,,,,,*70
$GPLLQ,134527.00,010125,,M,,M,1,24,3.000,,M*12
$GPVTG,,T,,M,0.01,N,0.02,K,D*25
$GPHDT,,T*1B
$GPTHS,,V*0E
$GPROT,,V*08
$PSSN,HRP,134527.00,010125,,,,,,,00,0,,*67
$PTNL,AVR,134527.00,,Yaw,,Tilt,,,,0,,00*31
$GPGSA,A,3,06,11,12,24,25,28,29,32,,,,,1.2,0.6,1.0*32
$GPGSA,A,3,69,77,78,87,,,,,,,,,1.2,0.6,1.0*39
$GPGSA,A,3,02,07,29,30,36,,,,,,,,1.2,0.6,1.0*3E
$GPGSA,A,3,12,24,25,32,34,35,44,,,,,,1.2,0.6,1.0*34
$GPGST,134527.00,4.959,1.180,0.881,10.824,1.171,0.894,2.614*64
$GPGBS,134527.00,3.602,2.575,7.776,29,0.0001,2.779,1.044*5A
$GPGRS,134527.00,1,-3.0,1.8,-0.4,-0.5,-0.8,1.9,2.8,-0.5,,,,*61
$GPGRS,134527.00,1,-1.1,-9.0,-1.6,-5.4,,,,,,,,*47
$GPGRS,134527.00,1,-3.9,-0.8,-2.8,-0.4,-2.7,,,,,,,*42
$GPGRS,134527.00,1,-0.0,-2.1,-0.6,14.6,-5.1,1.1,-1.6,,,,,*7E
$GPGSV,4,1,14,12,68,063,52,24,33,155,39,28,21,312,44,06,27,055,35*77
$GPGSV,4,2,14,29,32,214,40,32,31,277,43,11,35,098,40,25,63,291,47*7D
$GPGSV,4,3,14,19,09,046,,03,00,355,,36,35,170,35,34,31,208,35*72
$GPGSV,4,4,14,49,34,195,36,61,03,257,*7A
$GLGSV,3,1,10,78,65,335,50,68,16,255,33,86,11,024,26,79,17,300,25*61
$GLGSV,3,2,10,69,24,306,46,87,50,057,37,88,44,157,33,77,41,095,37*69
$GLGSV,3,3,10,70,01,003,,81,00,186,*67
$GAGSV,3,1,12,30,80,017,41,29,31,295,38,36,30,059,40,34,32,120,34*61
$GAGSV,3,2,12,07,32,231,41,02,31,081,37,27,37,277,33,18,49,070,*64
$GAGSV,3,3,12,15,05,165,,19,07,334,,11,03,019,,08,03,188,*62
$GBGSV,5,1,20,24,72,112,47,11,26,209,,05,20,130,,43,16,233,*67
$GBGSV,5,2,20,41,10,278,26,34,33,186,35,26,20,117,23,10,20,062,26*6E
$GBGSV,5,3,20,35,29,049,43,56,27,052,,12,53,155,39,25,49,299,38*64
$GBGSV,5,4,20,44,61,106,48,38,04,076,,40,00,050,,02,04,108,*64
$GBGSV,5,5,20,08,00,089,,07,07,060,,32,08,328,36,60,08,110,*6D
$GPGGA,134527.00,,,,,0,00,,,M,,M,,*4E
$PTNL,GGK,134527.00,010125,4742.4458832,N,01617.9731388,E,1,24,1.2,EHT670.4759,M*48
$GPGGQ,134527.00,010125,4742.4458832,N,01617.9731388,E,1,24,3.000,627.2649,M*32
$GPGFA,134527.00,11.222,21.431,1.180,0.881,10.824,2.614,,VVV*35
$GPLLK,134527.00,010125,,M,,M,1,24,1.3,,M*09
$GNGMP,134527.00,,,,,DAAA,24,0.6,,,,*50
$GPGMP,134527.00,,,,,,08,,,,2.9,123*78
$GLGMP,134527.00,,,,,,04,,,,,*7D
$GAGMP,134527.00,,,,,,05,,,,,*71
$GBGMP,134527.00,,,,,,07,,,,,*70
$PSSN,SNC,[0,308745000,2347]*49
$GPZDA,134532.00,01,01,2025,,*61
$GPDTM,W84,,00.0000000,N,00.0000000,E,00.0000000,W84*5F
$GPRMC,134532.00,A,4742.4458929,N,01617.9731425,E,0.0,,010125,5.1,E,D*1B
$GPGLL,4742.4458929,N,01617.9731425,E,134532.00,A,D*6A
$GPGGA,134532.00,4742.4458929,N,01617.9731425,E,2,22,0.6,627.2823,M,43.2111,M,3.0,0123*4E
$GNGNS,134532.00,4742.4458929,N,01617.9731425,E,DAAA,22,0.6,627.2823,43.2111,,*51
$GPGNS,134532.00,,,,,,06,,,,3.0,123*7A
$GLGNS,134532.00,,,,,,05,,,,,*78
$GAGNS,134532.00,,,,,,05,,,,,*75
$GBGNS,134532.00,,,,,,06,,,,,*75
$GPLLQ,134532.00,010125,,M,,M,1,22,3.510,,M*14
$GPVTG,,T,,M,0.00,N,0.00,K,D*26
$GPHDT,,T*1B
$GPTHS,,V*0E
$GPROT,,V*08
$PSSN,HRP,134532.00,010125,,,,,,,00,0,,*63
$PTNL,AVR,134532.00,,Yaw,,Tilt,,,,0,,00*35
$GPGSA,A,3,11,12,24,25,28,32,,,,,,,1.3,0.6,1.1*3F
$GPGSA,A,3,68,69,77,78,87,,,,,,,,1.3,0.6,1.1*37
$GPGSA,A,3,02,07,29,30,36,,,,,,,,1.3,0.6,1.1*3E
$GPGSA,A,3,12,24,25,34,35,44,,,,,,,1.3,0.6,1.1*35
$GPGST,134532.00,5.482,1.796,0.875,25.115,1.668,1.099,2.885*60
$GPGBS,134532.00,6.807,4.267,9.681,68,0.0001,16.885,6.571*6D
$GPGRS,134532.00,1,2.3,-0.2,-1.6,-0.5,1.9,-1.0,,,,,,*44
$GPGRS,134532.00,1,16.9,-1.6,-8.5,-0.0,-6.4,,,,,,,*54
$GPGRS,134532.00,1,-2.0,-0.7,-1.6,-0.2,-2.0,,,,,,,*4D
$GPGRS,134532.00,1,-0.8,-2.4,-1.4,-3.6,0.8,-1.8,,,,,,*6E
$GPGSV,4,1,14,12,68,063,53,24,33,155,38,28,21,312,43,06,27,055,27*73
$GPGSV,4,2,14,29,32,214,41,32,31,277,41,11,35,098,39,25,63,291,46*71
$GPGSV,4,3,14,19,09,046,,03,00,355,,36,35,170,35,34,31,208,35*72
$GPGSV,4,4,14,49,34,195,36,61,03,257,*7A
$GLGSV,3,1,10,78,65,335,51,68,16,255,36,86,11,024,28,79,17,300,25*6B
$GLGSV,3,2,10,69,24,306,46,87,50,057,36,88,44,157,33,77,41,095,38*67
$GLGSV,3,3,10,70,02,003,,81,00,186,*64
$GAGSV,3,1,12,30,80,017,41,29,31,295,39,36,30,059,41,34,32,120,33*66
$GAGSV,3,2,12,07,32,231,41,02,31,081,37,27,37,277,33,18,49,070,*64
$GAGSV,3,3,12,15,05,165,,19,07,334,,11,03,019,,08,03,188,*62
$GBGSV,5,1,20,24,72,112,48,11,26,209,,05,20,130,,43,16,233,*68
$GBGSV,5,2,20,41,10,278,24,34,33,186,36,26,20,117,23,10,20,062,26*6F
$GBGSV,5,3,20,35,29,049,44,56,27,052,,12,53,155,40,25,49,299,38*6D
$GBGSV,5,4,20,44,61,106,47,38,04,076,,40,00,050,,02,04,108,*6B
$GBGSV,5,5,20,08,00,089,,07,07,060,,32,08,328,34,60,08,110,*6F
$GPGGA,134532.00,,,,,0,00,,,M,,M,,*4A
$PTNL,GGK,134532.00,010125,4742.4458929,N,01617.9731425,E,1,22,1.3,EHT670.4934,M*45
$GPGGQ,134532.00,010125,4742.4458929,N,01617.9731425,E,1,22,3.510,627.2823,M*3D
$GPGFA,134532.00,17.080,23.660,1.796,0.875,25.115,2.885,,VVV*38
$GPLLK,134532.00,010125,,M,,M,1,22,1.5,,M*0D
$GNGMP,134532.00,,,,,DAAA,22,0.6,,,,*52
$GPGMP,134532.00,,,,,,06,,,,3.0,123*7A
$GLGMP,134532.00,,,,,,05,,,,,*78
$GAGMP,134532.00,,,,,,05,,,,,*75
$GBGMP,134532.00,,,,,,06,,,,,*75
$PSSN,SNC,[0,308750000,2347]*4D
$GPZDA,134537.00,01,01,2025,,*64
$GPDTM,W84,,00.0000000,N,00.0000000,E,00.0000000,W84*5F
$GPRMC,134537.00,A,4742.4458785,N,01617.9731298,E,0.0,,010125,5.1,E,D*16
$GPGLL,4742.4458785,N,01617.9731298,E,134537.00,A,D*67
$GPGGA,134537.00,4742.4458785,N,01617.9731298,E,2,23,0.6,627.3007,M,43.2111,M,2.7,0123*4B
$GNGNS,134537.00,4742.4458785,N,01617.9731298,E,DAAA,23,0.6,627.3007,43.2111,,*52
$GPGNS,134537.00,,,,,,06,,,,2.7,123*79
$GLGNS,134537.00,,,,,,06,,,,,*7E
$GAGNS,134537.00,,,,,,05,,,,,*70
$GBGNS,134537.00,,,,,,06,,,,,*70
$GPLLQ,134537.00,010125,,M,,M,1,23,4.168,,M*1C
$GPVTG,,T,,M,0.01,N,0.01,K,D*26
$GPHDT,,T*1B
$GPTHS,,V*0E
$GPROT,,V*08
$PSSN,HRP,134537.00,010125,,,,,,,00,0,,*66
$PTNL,AVR,134537.00,,Yaw,,Tilt,,,,0,,00*30
$GPGSA,A,3,11,12,24,25,28,32,,,,,,,1.2,0.6,1.0*3F
$GPGSA,A,3,68,69,77,78,79,87,,,,,,,1.2,0.6,1.0*39
$GPGSA,A,3,02,07,29,30,36,,,,,,,,1.2,0.6,1.0*3E
$GPGSA,A,3,12,24,25,34,35,44,,,,,,,1.2,0.6,1.0*35
$GPGST,134537.00,4.885,2.124,1.041,24.509,1.980,1.294,3.432*62
$GPGBS,134537.00,7.017,4.222,9.599,11,0.0001,3.288,1.006*54
$GPGRS,134537.00,1,3.3,0.3,-2.6,-0.3,2.1,-1.8,,,,,,*6A
$GPGRS,134537.00,1,16.3,-1.4,-6.2,0.2,-1.2,-5.3,,,,,,*7B
$GPGRS,134537.00,1,0.6,-0.5,-0.1,0.2,-1.5,,,,,,,*4E
$GPGRS,134537.00,1,-2.5,-2.2,0.3,-0.8,1.4,-1.9,,,,,,*48
$GPGSV,4,1,14,12,68,063,53,24,33,155,38,28,21,312,42,06,27,055,25*70
$GPGSV,4,2,14,29,32,215,42,32,31,277,39,11,35,098,35,25,63,291,45*73
$GPGSV,4,3,14,19,09,046,,03,00,355,,36,35,170,35,34,31,208,35*72
$GPGSV,4,4,14,49,34,195,36,61,03,257,*7A
$GLGSV,3,1,10,78,65,335,51,68,16,255,37,86,11,024,29,79,17,300,37*68
$GLGSV,3,2,10,69,24,306,46,87,50,057,36,88,44,157,30,77,41,095,39*65
$GLGSV,3,3,10,70,02,003,,81,00,186,*64
$GAGSV,3,1,12,30,80,017,42,29,31,295,39,36,30,059,41,34,32,120,28*6F
$GAGSV,3,2,12,07,32,231,41,02,31,081,38,27,37,277,32,18,49,070,*6A
$GAGSV,3,3,12,15,05,165,,19,07,334,,11,03,019,,08,03,188,*62
$GBGSV,6,1,21,24,72,112,48,11,26,209,,05,20,130,,43,16,233,*6A
$GBGSV,6,2,21,41,10,278,31,34,33,186,38,26,20,117,23,10,20,062,27*66
$GBGSV,6,3,21,35,29,049,44,56,27,052,,12,53,155,41,25,49,299,37*61
$GBGSV,6,4,21,44,61,106,46,02,04,108,,38,04,076,,40,00,050,*68
$GBGSV,6,5,21,23,00,297,,08,00,089,,07,07,060,,32,08,328,32*68
$GBGSV,6,6,21,60,08,110,*56
$GPGGA,134537.00,,,,,0,00,,,M,,M,,*4F
$PTNL,GGK,134537.00,010125,4742.4458785,N,01617.9731298,E,1,23,1.2,EHT670.5117,M*40
$GPGGQ,134537.00,010125,4742.4458785,N,01617.9731298,E,1,23,4.168,627.3007,M*32
$GPGFA,134537.00,20.194,28.142,2.124,1.041,24.509,3.432,,VVV*3A
$GPLLK,134537.00,010125,,M,,M,1,23,1.4,,M*08
$GNGMP,134537.00,,,,,DAAA,23,0.6,,,,*56
$GPGMP,134537.00,,,,,,06,,,,2.7,123*79
$GLGMP,134537.00,,,,,,06,,,,,*7E
$GAGMP,134537.00,,,,,,05,,,,,*70
$GBGMP,134537.00,,,,,,06,,,,,*70
$PSSN,SNC,[0,308755000,2347]*48
$GPZDA,134542.00,01,01,2025,,*66
$GPDTM,W84,,00.0000000,N,00.0000000,E,00.0000000,W84*5F
$GPRMC,134542.00,A,4742.4458590,N,01617.9731341,E,0.0,,010125,5.1,E,D*17
$GPGLL,4742.4458590,N,01617.9731341,E,134542.00,A,D*66
$GPGGA,134542.00,4742.4458590,N,01617.9731341,E,2,22,0.6,627.2846,M,43.2111,M,1.6,0123*45
$GNGNS,134542.00,4742.4458590,N,01617.9731341,E,DAAA,22,0.6,627.2846,43.2111,,*5E
$GPGNS,134542.00,,,,,,05,,,,1.6,123*7A
$GLGNS,134542.00,,,,,,06,,,,,*7C
$GAGNS,134542.00,,,,,,05,,,,,*72
$GBGNS,134542.00,,,,,,06,,,,,*72
$GPLLQ,134542.00,010125,,M,,M,1,22,4.258,,M*1F
$GPVTG,,T,,M,0.02,N,0.03,K,D*27
$GPHDT,,T*1B
$GPTHS,,V*0E
$GPROT,,V*08
$PSSN,HRP,134542.00,010125,,,,,,,00,0,,*64
$PTNL,AVR,134542.00,,Yaw,,Tilt,,,,0,,00*32
$GPGSA,A,3,12,24,25,28,32,,,,,,,,1.2,0.6,1.1*3E
$GPGSA,A,3,68,69,77,78,79,87,,,,,,,1.2,0.6,1.1*38
$GPGSA,A,3,02,07,29,30,36,,,,,,,,1.2,0.6,1.1*3F
$GPGSA,A,3,12,24,25,34,35,44,,,,,,,1.2,0.6,1.1*34
$GPGST,134542.00,5.053,2.247,1.005,37.558,1.883,1.584,3.475*65
$GPGBS,134542.00,6.898,5.068,13.896,68,0.0001,17.208,6.565*58
$GPGRS,134542.00,1,0.8,-1.9,0.8,2.7,-1.5,,,,,,,*6C
$GPGRS,134542.00,1,17.2,-0.4,-4.7,-0.1,2.2,-2.9,,,,,,*72
$GPGRS,134542.00,1,1.4,0.1,-0.1,0.7,-0.2,,,,,,,*65
$GPGRS,134542.00,1,-1.8,-1.7,4.1,2.1,2.5,-0.8,,,,,,*60
$GPGSV,4,1,14,12,68,063,52,24,33,155,37,28,21,312,41,06,27,055,27*7F
$GPGSV,4,2,14,29,32,215,42,32,31,277,38,11,35,098,27,25,63,291,45*71
$GPGSV,4,3,14,19,09,046,,03,00,355,,36,35,170,35,34,31,208,35*72
$GPGSV,4,4,14,49,34,195,36,61,03,257,*7A
$GLGSV,3,1,10,78,65,335,50,68,16,255,40,86,11,024,29,79,17,300,37*69
$GLGSV,3,2,10,69,24,306,47,87,50,057,35,88,44,157,31,77,41,095,39*66
$GLGSV,3,3,10,70,02,003,,81,00,186,*64
$GAGSV,3,1,12,30,80,017,42,29,31,295,39,36,30,059,42,34,32,120,31*64
$GAGSV,3,2,12,07,32,231,41,02,31,081,37,27,37,277,31,18,49,070,*66
$GAGSV,3,3,12,15,05,165,,19,07,334,,11,03,019,,08,03,188,*62
$GBGSV,6,1,21,24,72,112,48,11,26,209,,05,20,130,,43,16,233,*6A
$GBGSV,6,2,21,41,10,278,23,34,33,186,38,26,20,117,22,10,20,062,26*65
$GBGSV,6,3,21,35,29,049,43,56,27,052,,12,53,155,42,25,49,299,35*67
$GBGSV,6,4,21,44,61,106,44,02,04,108,,38,04,076,,40,00,050,*6A
$GBGSV,6,5,21,23,00,297,,08,00,089,,07,07,060,,32,08,328,34*6E
$GBGSV,6,6,21,60,08,110,*56
$GPGGA,134542.00,,,,,0,00,,,M,,M,,*4D
$PTNL,GGK,134542.00,010125,4742.4458590,N,01617.9731341,E,1,22,1.2,EHT670.4957,M*4D
$GPGGQ,134542.00,010125,4742.4458590,N,01617.9731341,E,1,22,4.258,627.2846,M*3E
$GPGFA,134542.00,21.360,28.493,2.247,1.005,37.558,3.475,,VVV*3A
$GPLLK,134542.00,010125,,M,,M,1,22,1.4,,M*0B
$GNGMP,134542.00,,,,,DAAA,22,0.6,,,,*55
$GPGMP,134542.00,,,,,,05,,,,1.6,123*7A
$GLGMP,134542.00,,,,,,06,,,,,*7C
$GAGMP,134542.00,,,,,,05,,,,,*72
$GBGMP,134542.00,,,,,,06,,,,,*72
$PSSN,SNC,[0,308760000,2347]*4E
$GPZDA,134547.00,01,01,2025,,*63
$GPDTM,W84,,00.0000000,N,00.0000000,E,00.0000000,W84*5F
$GPRMC,134547.00,A,4742.4458534,N,01617.9731487,E,0.0,,010125,5.1,E,D*11
$GPGLL,4742.4458534,N,01617.9731487,E,134547.00,A,D*60
$GPGGA,134547.00,4742.4458534,N,01617.9731487,E,2,23,0.6,627.2938,M,43.2111,M,2.8,0123*47
$GNGNS,134547.00,4742.4458534,N,01617.9731487,E,DAAA,23,0.6,627.2938,43.2111,,*51
$GPGNS,134547.00,,,,,,06,,,,2.8,123*71
$GLGNS,134547.00,,,,,,07,,,,,*78
$GAGNS,134547.00,,,,,,05,,,,,*77
$GBGNS,134547.00,,,,,,05,,,,,*74
$GPLLQ,134547.00,010125,,M,,M,1,23,4.993,,M*17
$GPVTG,,T,,M,0.01,N,0.02,K,D*25
$GPHDT,,T*1B
$GPTHS,,V*0E
$GPROT,,V*08
$PSSN,HRP,134547.00,010125,,,,,,,00,0,,*61
$PTNL,AVR,134547.00,,Yaw,,Tilt,,,,0,,00*37
$GPGSA,A,3,12,24,25,28,29,32,,,,,,,1.2,0.6,1.1*35
$GPGSA,A,3,68,69,77,78,79,87,88,,,,,,1.2,0.6,1.1*38
$GPGSA,A,3,02,07,29,30,36,,,,,,,,1.2,0.6,1.1*3F
$GPGSA,A,3,12,24,34,35,44,,,,,,,,1.2,0.6,1.1*33
$GPGST,134547.00,5.180,2.180,1.263,41.435,1.836,1.726,4.310*69
$GPGBS,134547.00,5.688,3.700,13.109,32,0.0001,3.838,1.215*65
$GPGRS,134547.00,1,-0.5,-2.3,-0.1,1.0,3.2,3.8,,,,,,*6D
$GPGRS,134547.00,1,16.8,-1.0,-5.8,-2.4,3.1,-2.7,6.5,,,,,*51
$GPGRS,134547.00,1,-0.3,-1.0,-1.2,-0.5,-1.0,,,,,,,*48
$GPGRS,134547.00,1,-1.4,-3.0,-0.5,-0.2,-0.0,,,,,,,*4C
$GPGSV,4,1,14,12,68,063,52,24,33,155,37,28,21,312,40,06,27,055,31*79
$GPGSV,4,2,14,29,32,215,41,32,31,277,36,11,35,098,32,25,63,292,44*7A
$GPGSV,4,3,14,19,09,046,,03,00,354,,36,35,170,35,34,31,208,35*73
$GPGSV,4,4,14,49,34,195,36,61,03,257,*7A
$GLGSV,3,1,10,78,65,335,50,68,16,254,42,86,11,024,28,79,17,300,36*6A
$GLGSV,3,2,10,69,24,306,47,87,50,057,38,88,44,157,37,77,40,095,38*6D
$GLGSV,3,3,10,70,02,003,,81,00,186,*64
$GAGSV,3,1,12,30,80,017,42,29,31,295,40,36,30,059,42,34,32,120,30*6B
$GAGSV,3,2,12,07,32,231,41,02,31,081,37,27,37,277,28,18,49,070,*6E
$GAGSV,3,3,12,15,05,165,,19,07,334,,11,03,019,,08,03,188,*62
$GBGSV,6,1,21,24,72,112,48,11,26,209,,05,20,130,,43,16,233,*6A
$GBGSV,6,2,21,26,20,117,19,34,33,186,38,10,20,062,25,56,27,052,*67
$GBGSV,6,3,21,35,29,049,42,12,54,155,43,25,49,299,32,44,61,106,45*67
$GBGSV,6,4,21,07,07,060,,02,04,108,,38,04,076,,40,00,050,*6C
$GBGSV,6,5,21,41,10,278,24,08,00,089,,32,08,328,34,23,00,297,*67
$GBGSV,6,6,21,60,08,110,*56
$GPGGA,134547.00,,,,,0,00,,,M,,M,,*48
$PTNL,GGK,134547.00,010125,4742.4458534,N,01617.9731487,E,1,23,1.2,EHT670.5049,M*4D
$GPGGQ,134547.00,010125,4742.4458534,N,01617.9731487,E,1,23,4.993,627.2938,M*3D
$GPGFA,134547.00,20.728,35.345,2.180,1.263,41.435,4.310,,VVV*34
$GPLLK,134547.00,010125,,M,,M,1,23,1.4,,M*0F
$GNGMP,134547.00,,,,,DAAA,23,0.6,,,,*51
$GPGMP,134547.00,,,,,,06,,,,2.8,123*71
$GLGMP,134547.00,,,,,,07,,,,,*78
$GAGMP,134547.00,,,,,,05,,,,,*77
$GBGMP,134547.00,,,,,,05,,,,,*74
$PSSN,SNC,[0,308765000,2347]*4B
$GPZDA,134552.00,01,01,2025,,*67
$GPDTM,W84,,00.0000000,N,00.0000000,E,00.0000000,W84*5F
$GPRMC,134552.00,A,4742.4458561,N,01617.9731697,E,0.0,,010125,5.1,E,D*16
$GPGLL,4742.4458561,N,01617.9731697,E,134552.00,A,D*67
$GPGGA,134552.00,4742.4458561,N,01617.9731697,E,2,22,0.6,627.2988,M,43.2111,M,2.8,0123*4A
$GNGNS,134552.00,4742.4458561,N,01617.9731697,E,DAAA,22,0.6,627.2988,43.2111,,*5C
$GPGNS,134552.00,,,,,,05,,,,2.8,123*76
$GLGNS,134552.00,,,,,,06,,,,,*7D
$GAGNS,134552.00,,,,,,05,,,,,*73
$GBGNS,134552.00,,,,,,06,,,,,*73
$GPLLQ,134552.00,010125,,M,,M,1,22,4.294,,M*1E
$GPVTG,,T,,M,0.01,N,0.01,K,D*26
$GPHDT,,T*1B
$GPTHS,,V*0E
$GPROT,,V*08
$PSSN,HRP,134552.00,010125,,,,,,,00,0,,*65
$PTNL,AVR,134552.00,,Yaw,,Tilt,,,,0,,00*33
$GPGSA,A,3,12,24,25,28,29,,,,,,,,1.2,0.6,1.0*35
$GPGSA,A,3,68,69,77,78,87,88,,,,,,,1.2,0.6,1.0*37
$GPGSA,A,3,02,07,29,30,36,,,,,,,,1.2,0.6,1.0*3E
$GPGSA,A,3,12,24,32,34,35,44,,,,,,,1.2,0.6,1.0*33
$GPGST,134552.00,5.764,1.832,1.209,43.724,1.565,1.538,3.691*62
$GPGBS,134552.00,6.332,4.322,15.100,68,0.0001,16.436,6.565*54
$GPGRS,134552.00,1,-0.3,-2.0,-0.1,1.8,2.3,,,,,,,*41
$GPGRS,134552.00,1,16.4,-0.6,-7.7,-2.7,0.4,9.4,,,,,,*5E
$GPGRS,134552.00,1,-1.7,-0.7,-1.1,-0.4,-1.1,,,,,,,*4C
$GPGRS,134552.00,1,0.7,-2.8,0.1,-3.6,-5.8,0.9,,,,,,*6A
$GPGSV,4,1,14,12,68,064,52,24,33,155,36,28,21,312,40,06,27,054,34*7B
$GPGSV,4,2,14,29,32,215,38,32,31,277,34,11,35,098,28,25,63,292,44*7D
$GPGSV,4,3,14,19,09,046,,03,00,354,,36,35,170,35,34,31,208,35*73
$GPGSV,4,4,14,49,34,195,36,61,03,257,*7A
$GLGSV,3,1,10,78,65,335,49,68,16,254,42,86,11,024,27,79,17,300,34*6F
$GLGSV,3,2,10,69,24,306,48,87,50,057,41,88,44,157,39,77,40,095,36*6C
$GLGSV,3,3,10,70,02,003,,81,00,186,*64
$GAGSV,3,1,12,30,80,017,43,29,31,295,40,36,30,059,42,34,32,120,31*6B
$GAGSV,3,2,12,07,32,231,40,02,31,081,36,27,37,277,28,18,49,070,*6E
$GAGSV,3,3,12,15,05,165,,19,07,334,,11,03,019,,08,03,188,*62
$GBGSV,6,1,21,24,72,112,48,11,26,209,,05,20,130,,43,16,233,*6A
$GBGSV,6,2,21,26,20,117,,34,33,186,38,10,20,062,25,56,27,052,*6F
$GBGSV,6,3,21,35,29,049,39,12,54,155,44,25,49,299,30,44,61,106,46*6D
$GBGSV,6,4,21,07,07,060,,02,04,108,,38,04,076,,40,00,050,*6C
$GBGSV,6,5,21,41,10,277,28,08,00,089,,32,08,328,35,23,00,297,*65
$GBGSV,6,6,21,60,08,110,*56
$GPGGA,134552.00,,,,,0,00,,,M,,M,,*4C
$PTNL,GGK,134552.00,010125,4742.4458561,N,01617.9731697,E,1,22,1.2,EHT670.5099,M*46
$GPGGQ,134552.00,010125,4742.4458561,N,01617.9731697,E,1,22,4.294,627.2988,M*3C
$GPGFA,134552.00,17.415,30.263,1.832,1.209,43.724,3.691,,VVV*3C
$GPLLK,134552.00,010125,,M,,M,1,22,1.4,,M*0A
$GNGMP,134552.00,,,,,DAAA,22,0.6,,,,*54
$GPGMP,134552.00,,,,,,05,,,,2.8,123*76
$GLGMP,134552.00,,,,,,06,,,,,*7D
$GAGMP,134552.00,,,,,,05,,,,,*73
$GBGMP,134552.00,,,,,,06,,,,,*73
$PSSN,SNC,[0,308770000,2347]*4F
$GPZDA,134557.00,01,01,2025,,*62
$GPDTM,W84,,00.0000000,N,00.0000000,E,00.0000000,W84*5F
$GPRMC,134557.00,A,4742.4458538,N,01617.9731875,E,0.0,,010125,5.1,E,D*1D
$GPGLL,4742.4458538,N,01617.9731875,E,134557.00,A,D*6C
$GPGGA,134557.00,4742.4458538,N,01617.9731875,E,2,20,0.7,627.2939,M,43.2111,M,2.4,0123*44
$GNGNS,134557.00,4742.4458538,N,01617.9731875,E,DAAA,20,0.7,627.2939,43.2111,,*5E
$GPGNS,134557.00,,,,,,05,,,,2.4,123*7F
$GLGNS,134557.00,,,,,,05,,,,,*7B
$GAGNS,134557.00,,,,,,04,,,,,*77
$GBGNS,134557.00,,,,,,06,,,,,*76
$GPLLQ,134557.00,010125,,M,,M,1,20,3.182,,M*1A
$GPVTG,,T,,M,0.00,N,0.01,K,D*27
$GPHDT,,T*1B
$GPTHS,,V*0E
$GPROT,,V*08
$PSSN,HRP,134557.00,010125,,,,,,,00,0,,*60
$PTNL,AVR,134557.00,,Yaw,,Tilt,,,,0,,00*36
$GPGSA,A,3,06,12,25,28,29,,,,,,,,1.3,0.7,1.1*34
$GPGSA,A,3,68,69,78,87,88,,,,,,,,1.3,0.7,1.1*36
$GPGSA,A,3,07,29,30,36,,,,,,,,,1.3,0.7,1.1*3D
$GPGSA,A,3,12,24,32,34,35,44,,,,,,,1.3,0.7,1.1*32
$GPGST,134557.00,5.593,1.457,1.096,318.532,1.311,1.267,2.608*57
$GPGBS,134557.00,6.448,4.954,10.222,68,0.0001,12.522,6.566*55
$GPGRS,134557.00,1,-0.3,-0.3,-0.4,2.4,1.5,,,,,,,*4A
$GPGRS,134557.00,1,12.5,-0.5,-3.3,0.8,8.9,,,,,,,*5B
$GPGRS,134557.00,1,-0.6,-0.6,-0.5,-1.2,,,,,,,,*49
$GPGRS,134557.00,1,2.1,-2.2,-3.7,-5.3,-9.9,0.9,,,,,,*47
$GPGSV,4,1,14,12,68,064,51,24,33,155,34,28,21,312,41,06,27,054,36*79
$GPGSV,4,2,14,29,32,215,37,32,31,277,33,11,35,098,34,25,63,292,45*79
$GPGSV,4,3,14,19,09,046,,03,00,354,,36,35,170,35,34,31,208,35*73
$GPGSV,4,4,14,49,34,195,36,61,03,257,*7A
$GLGSV,3,1,10,78,65,335,48,68,16,254,41,86,11,024,28,79,17,300,30*66
$GLGSV,3,2,10,69,24,305,48,87,50,057,41,88,44,157,40,77,40,095,35*62
$GLGSV,3,3,10,70,02,003,,81,00,186,*64
$GAGSV,3,1,12,30,80,017,43,29,31,295,40,36,30,059,41,34,32,120,30*69
$GAGSV,3,2,12,07,32,231,39,02,31,082,33,27,37,277,28,18,49,070,*66
$GAGSV,3,3,12,15,05,165,,19,07,334,,11,03,019,,08,03,188,*62
$GBGSV,6,1,21,24,72,112,49,11,26,209,,05,20,130,,43,16,233,*6B
$GBGSV,6,2,21,26,20,117,24,34,33,186,37,10,20,062,26,56,27,052,*65
$GBGSV,6,3,21,35,29,049,36,12,54,155,44,25,49,299,31,44,61,106,46*63
$GBGSV,6,4,21,07,07,060,,02,04,108,,38,04,076,,40,00,050,*6C
$GBGSV,6,5,21,41,10,277,26,08,00,089,,32,08,328,37,23,00,297,*69
$GBGSV,6,6,21,60,08,110,*56
$GPGGA,134557.00,,,,,0,00,,,M,,M,,*49
$PTNL,GGK,134557.00,010125,4742.4458538,N,01617.9731875,E,1,20,1.3,EHT670.5049,M*43
$GPGGQ,134557.00,010125,4742.4458538,N,01617.9731875,E,1,20,3.182,627.2939,M*3C
$GPGFA,134557.00,13.856,21.385,1.457,1.096,318.532,2.608,,VVV*0D
$GPLLK,134557.00,010125,,M,,M,1,20,1.5,,M*0C
$GNGMP,134557.00,,,,,DAAA,20,0.7,,,,*52
$GPGMP,134557.00,,,,,,05,,,,2.4,123*7F
$GLGMP,134557.00,,,,,,05,,,,,*7B
$GAGMP,134557.00,,,,,,04,,,,,*77
$GBGMP,134557.00,,,,,,06,,,,,*76
$PSSN,SNC,[0,308775000,2347]*4A
$GPZDA,134602.00,01,01,2025,,*61
$GPDTM,W84,,00.0000000,N,00.0000000,E,00.0000000,W84*5F
$GPRMC,134602.00,A,4742.4458648,N,01617.9732029,E,0.0,,010125,5.1,E,D*18
$GPGLL,4742.4458648,N,01617.9732029,E,134602.00,A,D*69
$GPGGA,134602.00,4742.4458648,N,01617.9732029,E,2,19,0.7,627.3142,M,43.2111,M,1.8,0123*41
$GNGNS,134602.00,4742.4458648,N,01617.9732029,E,DAAA,19,0.7,627.3142,43.2111,,*54
$GPGNS,134602.00,,,,,,05,,,,1.8,123*73
$GLGNS,134602.00,,,,,,05,,,,,*78
$GAGNS,134602.00,,,,,,04,,,,,*74
$GBGNS,134602.00,,,,,,05,,,,,*76
$GPLLQ,134602.00,010125,,M,,M,1,19,3.274,,M*19
$GPVTG,,T,,M,0.01,N,0.01,K,D*26
$GPHDT,,T*1B
$GPTHS,,V*0E
$GPROT,,V*08
$PSSN,HRP,134602.00,010125,,,,,,,00,0,,*63
$PTNL,AVR,134602.00,,Yaw,,Tilt,,,,0,,00*35
$GPGSA,A,3,06,12,25,28,29,,,,,,,,1.3,0.7,1.1*34
$GPGSA,A,3,68,69,78,87,88,,,,,,,,1.3,0.7,1.1*36
$GPGSA,A,3,07,29,30,36,,,,,,,,,1.3,0.7,1.1*3D
$GPGSA,A,3,12,24,32,34,44,,,,,,,,1.3,0.7,1.1*34
$GPGST,134602.00,4.164,1.612,1.083,323.198,1.445,1.298,2.636*59
$GPGBS,134602.00,6.556,4.519,9.335,29,0.0001,2.207,1.009*5D
$GPGRS,134602.00,1,-2.3,-0.7,-0.2,2.4,2.2,,,,,,,*4D
$GPGRS,134602.00,1,9.7,0.1,-3.7,-0.8,6.9,,,,,,,*6E
$GPGRS,134602.00,1,-0.8,-0.5,-1.0,-1.5,,,,,,,,*44
$GPGRS,134602.00,1,0.5,-1.9,-1.6,-5.0,-0.6,,,,,,,*6B
$GPGSV,4,1,14,12,68,064,51,24,33,155,33,28,21,312,41,06,27,054,37*7F
$GPGSV,4,2,14,29,32,215,39,32,31,277,32,11,35,098,32,25,63,292,47*72
$GPGSV,4,3,14,19,08,046,,03,00,354,,36,35,170,35,34,31,208,35*72
$GPGSV,4,4,14,49,34,195,36,61,03,257,*7A
$GLGSV,3,1,10,78,65,335,48,68,16,254,41,86,11,024,30,79,17,300,32*6D
$GLGSV,3,2,10,69,24,305,48,87,50,056,41,88,44,157,39,77,40,095,33*6B
$GLGSV,3,3,10,70,02,003,,81,01,186,*65
$GAGSV,3,1,12,30,80,018,43,29,31,295,41,36,30,059,40,34,32,120,30*66
$GAGSV,3,2,12,07,32,231,38,02,31,082,30,27,38,277,29,18,49,070,*6A
$GAGSV,3,3,12,15,05,165,,19,07,334,,11,03,019,,08,03,188,*62
$GBGSV,6,1,21,24,72,113,49,11,26,209,,05,20,130,,43,16,233,*6A
$GBGSV,6,2,21,26,20,117,24,34,33,186,37,10,20,062,26,56,27,052,*65
$GBGSV,6,3,21,35,29,049,34,12,54,155,44,25,49,299,32,44,61,106,46*62
$GBGSV,6,4,21,07,07,060,,02,04,108,,38,04,076,,40,00,050,*6C
$GBGSV,6,5,21,41,10,277,27,08,00,089,,32,08,328,38,23,00,297,*67
$GBGSV,6,6,21,60,08,110,*56
$GPGGA,134602.00,,,,,0,00,,,M,,M,,*4A
$PTNL,GGK,134602.00,010125,4742.4458648,N,01617.9732029,E,1,19,1.3,EHT670.5253,M*45
$GPGGQ,134602.00,010125,4742.4458648,N,01617.9732029,E,1,19,3.274,627.3142,M*3C
$GPGFA,134602.00,15.328,21.614,1.612,1.083,323.198,2.636,,VVV*01
$GPLLK,134602.00,010125,,M,,M,1,19,1.5,,M*05
$GNGMP,134602.00,,,,,DAAA,19,0.7,,,,*5B
$GPGMP,134602.00,,,,,,05,,,,1.8,123*73
$GLGMP,134602.00,,,,,,05,,,,,*78
$GAGMP,134602.00,,,,,,04,,,,,*74
$GBGMP,134602.00,,,,,,05,,,,,*76
$PSSN,SNC,[0,308780000,2347]*40
$GPZDA,134607.00,01,01,2025,,*64
$GPDTM,W84,,00.0000000,N,00.0000000,E,00.0000000,W84*5F
$GPRMC,134607.00,A,4742.4458806,N,01617.9732187,E,0.0,,010125,5.1,E,D*1C
$GPGLL,4742.4458806,N,01617.9732187,E,134607.00,A,D*6D
$GPGGA,134607.00,4742.4458806,N,01617.9732187,E,2,20,0.7,627.3249,M,43.2110,M,2.6,0123*4B
$GNGNS,134607.00,4742.4458806,N,01617.9732187,E,DAAA,20,0.7,627.3249,43.2110,,*53
$GPGNS,134607.00,,,,,,05,,,,2.6,123*7B
$GLGNS,134607.00,,,,,,05,,,,,*7D
$GAGNS,134607.00,,,,,,04,,,,,*71
$GBGNS,134607.00,,,,,,06,,,,,*70
$GPLLQ,134607.00,010125,,M,,M,1,20,4.211,,M*12
$GPVTG,,T,,M,0.01,N,0.01,K,D*26
$GPHDT,,T*1B
$GPTHS,,V*0E
$GPROT,,V*08
$PSSN,HRP,134607.00,010125,,,,,,,00,0,,*66
$PTNL,AVR,134607.00,,Yaw,,Tilt,,,,0,,00*30
$GPGSA,A,3,06,11,12,25,28,,,,,,,,1.2,0.7,1.0*3F
$GPGSA,A,3,68,69,78,87,88,,,,,,,,1.2,0.7,1.0*36
$GPGSA,A,3,07,29,30,36,,,,,,,,,1.2,0.7,1.0*3D
$GPGSA,A,3,12,24,32,34,35,44,,,,,,,1.2,0.7,1.0*32
$GPGST,134607.00,3.532,2.801,0.959,9.449,2.767,1.052,2.994*5D
$GPGBS,134607.00,11.358,4.130,10.395,11,0.0001,3.107,1.424*59
$GPGRS,134607.00,1,-2.6,3.1,-0.6,-0.4,1.8,,,,,,,*47
$GPGRS,134607.00,1,9.9,-0.3,-3.4,-1.6,2.7,,,,,,,*4C
$GPGRS,134607.00,1,-0.2,-0.1,-0.6,-1.5,,,,,,,,*48
$GPGRS,134607.00,1,-1.6,-1.2,-0.1,-3.4,-0.6,-1.7,,,,,,*4B
$GPGSV,4,1,14,12,68,064,51,24,33,155,32,28,21,312,41,06,27,054,36*7F
$GPGSV,4,2,14,29,32,215,40,32,31,277,32,11,35,098,36,25,63,292,47*78
$GPGSV,4,3,14,19,08,046,,03,00,354,,36,35,170,35,34,31,208,35*72
$GPGSV,4,4,14,49,34,195,36,61,03,257,*7A
$GLGSV,3,1,10,78,65,335,48,68,16,254,39,86,11,024,31,79,17,300,33*62
$GLGSV,3,2,10,69,24,305,48,87,50,056,41,88,44,157,38,77,40,095,33*6A
$GLGSV,3,3,10,70,02,003,,81,01,186,*65
$GAGSV,3,1,12,30,80,018,43,29,31,295,41,36,30,059,40,34,32,120,29*6E
$GAGSV,3,2,12,07,31,231,38,02,31,082,30,27,38,277,32,18,49,070,*63
$GAGSV,3,3,12,15,05,165,,19,07,334,,11,03,019,,08,03,188,*62
$GBGSV,6,1,21,24,72,113,49,11,26,209,,05,20,130,,43,16,233,*6A
$GBGSV,6,2,21,26,20,117,21,10,20,062,26,34,33,186,38,56,27,052,*6F
$GBGSV,6,3,21,35,29,049,37,12,54,155,44,25,49,299,32,44,61,106,46*61
$GBGSV,6,4,21,07,07,060,,02,04,108,,38,04,076,,40,00,050,*6C
$GBGSV,6,5,21,41,10,277,32,08,00,089,,32,08,328,39,23,00,297,*62
$GBGSV,6,6,21,60,08,110,*56
$GPGGA,134607.00,,,,,0,00,,,M,,M,,*4F
$PTNL,GGK,134607.00,010125,4742.4458806,N,01617.9732187,E,1,20,1.2,EHT670.5360,M*4B
$GPGGQ,134607.00,010125,4742.4458806,N,01617.9732187,E,1,20,4.211,627.3249,M*3E
$GPGFA,134607.00,26.631,24.554,2.801,0.959,9.449,2.994,,VVV*0E
$GPLLK,134607.00,010125,,M,,M,1,20,1.4,,M*0B
$GNGMP,134607.00,,,,,DAAA,20,0.7,,,,*54
$GPGMP,134607.00,,,,,,05,,,,2.6,123*7B
$GLGMP,134607.00,,,,,,05,,,,,*7D
$GAGMP,134607.00,,,,,,04,,,,,*71
$GBGMP,134607.00,,,,,,06,,,,,*70
$PSSN,SNC,[0,308785000,2347]*45
$GPZDA,134612.00,01,01,2025,,*60
$GPDTM,W84,,00.0000000,N,00.0000000,E,00.0000000,W84*5F
$GPRMC,134612.00,A,4742.4458842,N,01617.9732303,E,0.0,,010125,5.1,E,D*16
$GPGLL,4742.4458842,N,01617.9732303,E,134612.00,A,D*67
$GPGGA,134612.00,4742.4458842,N,01617.9732303,E,2,21,0.7,627.3233,M,43.2111,M,1.8,0123*41
$GNGNS,134612.00,4742.4458842,N,01617.9732303,E,DAAA,21,0.7,627.3233,43.2111,,*54
$GPGNS,134612.00,,,,,,05,,,,1.8,123*72
$GLGNS,134612.00,,,,,,06,,,,,*7A
$GAGNS,134612.00,,,,,,04,,,,,*75
$GBGNS,134612.00,,,,,,06,,,,,*74
$GPLLQ,134612.00,010125,,M,,M,1,21,4.356,,M*15
$GPVTG,,T,,M,0.01,N,0.01,K,D*26
$GPHDT,,T*1B
$GPTHS,,V*0E
$GPROT,,V*08
$PSSN,HRP,134612.00,010125,,,,,,,00,0,,*62
$PTNL,AVR,134612.00,,Yaw,,Tilt,,,,0,,00*34
$GPGSA,A,3,06,11,12,25,28,,,,,,,,1.2,0.7,1.0*3F
$GPGSA,A,3,68,69,78,79,87,88,,,,,,,1.2,0.7,1.0*38
$GPGSA,A,3,07,29,30,36,,,,,,,,,1.2,0.7,1.0*3D
$GPGSA,A,3,12,24,32,34,35,44,,,,,,,1.2,0.7,1.0*32
$GPGST,134612.00,5.106,2.886,1.083,13.195,2.821,1.243,3.077*69
$GPGBS,134612.00,9.405,4.129,10.697,79,0.0001,14.604,6.828*5F
$GPGRS,134612.00,1,-2.7,-1.9,0.5,0.3,2.3,,,,,,,*69
$GPGRS,134612.00,1,10.6,0.5,-1.9,14.6,-1.9,0.6,,,,,,*4A
$GPGRS,134612.00,1,1.1,1.0,0.5,-0.4,,,,,,,,*60
$GPGRS,134612.00,1,-0.3,-0.0,2.3,-0.7,2.2,-0.7,,,,,,*4F
$GPGSV,4,1,14,12,68,064,51,24,33,155,31,28,21,312,41,06,27,054,36*7C
$GPGSV,4,2,14,29,32,215,39,32,31,277,33,11,35,098,37,25,63,292,47*76
$GPGSV,4,3,14,19,08,046,,03,00,354,,36,35,170,35,34,31,208,35*72
$GPGSV,4,4,14,49,34,195,36,61,03,257,*7A
$GLGSV,3,1,10,78,65,336,49,68,16,254,35,86,11,024,30,79,17,300,41*68
$GLGSV,3,2,10,69,24,305,47,87,50,056,44,88,44,157,36,77,40,095,32*6F
$GLGSV,3,3,10,70,02,003,,81,01,186,*65
$GAGSV,3,1,12,30,80,018,43,29,31,295,42,36,30,059,39,34,32,120,31*6A
$GAGSV,3,2,12,07,31,231,38,02,31,082,31,27,38,277,35,18,49,070,*65
$GAGSV,3,3,12,15,05,165,,19,07,334,,11,03,019,,08,03,188,*62
$GBGSV,6,1,21,24,72,113,49,11,26,209,,05,20,130,,43,16,232,*6B
$GBGSV,6,2,21,26,20,117,19,10,20,062,26,34,33,186,39,56,27,052,*65
$GBGSV,6,3,21,35,29,049,39,12,54,155,44,25,49,299,35,44,61,106,45*6B
$GBGSV,6,4,21,07,07,060,,02,04,108,,38,04,076,,40,00,050,*6C
$GBGSV,6,5,21,41,10,277,30,08,00,089,,32,08,328,40,23,00,297,*6E
$GBGSV,6,6,21,60,08,110,*56
$GPGGA,134612.00,,,,,0,00,,,M,,M,,*4B
$PTNL,GGK,134612.00,010125,4742.4458842,N,01617.9732303,E,1,21,1.2,EHT670.5344,M*46
$GPGGQ,134612.00,010125,4742.4458842,N,01617.9732303,E,1,21,4.356,627.3233,M*3A
$GPGFA,134612.00,27.444,25.235,2.886,1.083,13.195,3.077,,VVV*30
$GPLLK,134612.00,010125,,M,,M,1,21,1.4,,M*0E
$GNGMP,134612.00,,,,,DAAA,21,0.7,,,,*51
$GPGMP,134612.00,,,,,,05,,,,1.8,123*72
$GLGMP,134612.00,,,,,,06,,,,,*7A
$GAGMP,134612.00,,,,,,04,,,,,*75
$GBGMP,134612.00,,,,,,06,,,,,*74
$PSSN,SNC,[0,308790000,2347]*41
$GPZDA,134617.00,01,01,2025,,*65
$GPDTM,W84,,00.0000000,N,00.0000000,E,00.0000000,W84*5F
$GPRMC,134617.00,A,4742.4458868,N,01617.9732431,E,0.0,,010125,5.1,E,D*1D
$GPGLL,4742.4458868,N,01617.9732431,E,134617.00,A,D*6C
$GPGGA,134617.00,4742.4458868,N,01617.9732431,E,2,20,0.7,627.3265,M,43.2110,M,1.5,0123*44
$GNGNS,134617.00,4742.4458868,N,01617.9732431,E,DAAA,20,0.7,627.3265,43.2110,,*5C
$GPGNS,134617.00,,,,,,04,,,,1.5,123*7B
$GLGNS,134617.00,,,,,,04,,,,,*7D
$GAGNS,134617.00,,,,,,05,,,,,*71
$GBGNS,134617.00,,,,,,07,,,,,*70
$GPLLQ,134617.00,010125,,M,,M,1,20,7.055,,M*12
$GPVTG,,T,,M,0.00,N,0.01,K,D*27
$GPHDT,,T*1B
$GPTHS,,V*0E
$GPROT,,V*08
$PSSN,HRP,134617.00,010125,,,,,,,00,0,,*67
$PTNL,AVR,134617.00,,Yaw,,Tilt,,,,0,,00*31
$GPGSA,A,3,06,12,25,28,,,,,,,,,1.3,0.7,1.1*3F
$GPGSA,A,3,69,78,79,87,,,,,,,,,1.3,0.7,1.1*36
$GPGSA,A,3,07,27,29,30,36,,,,,,,,1.3,0.7,1.1*38
$GPGSA,A,3,12,24,25,32,34,35,44,,,,,,1.3,0.7,1.1*35
$GPGST,134617.00,5.066,5.137,1.069,358.496,5.135,1.077,4.716*58
$GPGBS,134617.00,29.703,4.466,24.702,79,0.0001,16.580,6.826*6A
$GPGRS,134617.00,1,-2.4,0.1,0.2,1.6,,,,,,,,*67
$GPGRS,134617.00,1,-0.0,-1.2,16.6,-1.7,,,,,,,,*51
$GPGRS,134617.00,1,0.2,-0.5,0.7,-0.0,-0.2,,,,,,,*49
$GPGRS,134617.00,1,1.3,-0.3,6.2,1.5,-0.3,1.1,-0.9,,,,,*40
$GPGSV,4,1,14,12,68,064,51,24,33,155,31,28,21,312,41,06,27,054,37*7D
$GPGSV,4,2,14,29,32,215,36,32,31,277,33,11,35,098,33,25,63,292,46*7C
$GPGSV,4,3,14,19,08,046,,03,00,354,,36,35,170,35,34,31,208,35*72
$GPGSV,4,4,14,49,34,195,36,61,03,257,*7A
$GLGSV,3,1,10,78,65,336,50,68,16,254,32,86,11,024,30,79,17,300,42*64
$GLGSV,3,2,10,69,24,305,47,87,50,056,45,88,45,157,35,77,40,095,33*6D
$GLGSV,3,3,10,70,02,003,,81,01,186,*65
$GAGSV,3,1,12,30,80,018,43,29,31,295,43,36,30,059,39,34,32,120,32*68
$GAGSV,3,2,12,07,31,231,38,02,31,082,33,27,38,277,37,18,49,069,*6D
$GAGSV,3,3,12,15,06,165,,19,07,334,,11,03,018,,08,03,188,*60
$GBGSV,6,1,21,24,72,113,50,11,26,209,,05,20,130,,43,16,232,*63
$GBGSV,6,2,21,26,20,117,,10,20,062,26,34,33,186,40,35,29,049,40*66
$GBGSV,6,3,21,56,27,052,,12,54,155,44,25,49,299,37,44,61,106,45*62
$GBGSV,6,4,21,07,07,060,,23,00,297,,38,04,076,,40,00,050,*6E
$GBGSV,6,5,21,41,10,277,29,08,00,089,,32,08,328,40,02,04,108,*64
$GBGSV,6,6,21,60,08,110,*56
$GPGGA,134617.00,,,,,0,00,,,M,,M,,*4E
$PTNL,GGK,134617.00,010125,4742.4458868,N,01617.9732431,E,1,20,1.3,EHT670.5375,M*4F
$GPGGQ,134617.00,010125,4742.4458868,N,01617.9732431,E,1,20,7.055,627.3265,M*30
$GPGFA,134617.00,48.838,38.671,5.137,1.069,358.496,4.716,,VVV*0E
$GPLLK,134617.00,010125,,M,,M,1,20,1.5,,M*0B
$GNGMP,134617.00,,,,,DAAA,20,0.7,,,,*55
$GPGMP,134617.00,,,,,,04,,,,1.5,123*7B
$GLGMP,134617.00,,,,,,04,,,,,*7D
$GAGMP,134617.00,,,,,,05,,,,,*71
$GBGMP,134617.00,,,,,,07,,,,,*70
$PSSN,SNC,[0,308795000,2347]*44
$GPZDA,134622.00,01,01,2025,,*63
$GPDTM,W84,,00.0000000,N,00.0000000,E,00.0000000,W84*5F
$GPRMC,134622.00,A,4742.4458880,N,01617.9732556,E,0.0,,010125,5.1,E,D*1D
$GPGLL,4742.4458880,N,01617.9732556,E,134622.00,A,D*6C
$GPGGA,134622.00,4742.4458880,N,01617.9732556,E,2,22,0.7,627.3210,M,43.2110,M,2.5,0123*47
$GNGNS,134622.00,4742.4458880,N,01617.9732556,E,DAAA,22,0.7,627.3210,43.2110,,*5C
$GPGNS,134622.00,,,,,,04,,,,2.5,123*7E
$GLGNS,134622.00,,,,,,05,,,,,*7A
$GAGNS,134622.00,,,,,,06,,,,,*74
$GBGNS,134622.00,,,,,,07,,,,,*76
$GPLLQ,134622.00,010125,,M,,M,1,22,6.913,,M*1C
$GPVTG,,T,,M,0.00,N,0.00,K,D*26
$GPHDT,,T*1B
$GPTHS,,V*0E
$GPROT,,V*08
$PSSN,HRP,134622.00,010125,,,,,,,00,0,,*61
$PTNL,AVR,134622.00,,Yaw,,Tilt,,,,0,,00*37
$GPGSA,A,3,06,12,25,28,,,,,,,,,1.2,0.7,1.0*3F
$GPGSA,A,3,69,78,79,87,88,,,,,,,,1.2,0.7,1.0*36
$GPGSA,A,3,02,07,27,29,30,36,,,,,,,1.2,0.7,1.0*3A
$GPGSA,A,3,12,24,25,32,34,35,44,,,,,,1.2,0.7,1.0*35
$GPGST,134622.00,6.218,4.851,1.254,359.349,4.851,1.255,4.763*5C
$GPGBS,134622.00,19.523,4.278,17.056,88,0.0001,17.290,6.163*61
$GPGRS,134622.00,1,-2.0,-0.2,0.3,1.5,,,,,,,,*49
$GPGRS,134622.00,1,-0.2,-1.4,15.7,0.7,17.3,,,,,,,*66
$GPGRS,134622.00,1,-0.9,-0.7,0.1,0.7,-0.2,-0.3,,,,,,*47
$GPGRS,134622.00,1,1.4,-0.6,3.4,1.2,-1.0,-2.5,-1.3,,,,,*63
$GPGSV,4,1,14,12,68,064,51,24,33,155,33,28,21,312,41,06,27,054,37*7F
$GPGSV,4,2,14,29,33,215,31,32,31,277,30,11,35,098,32,25,63,292,47*79
$GPGSV,4,3,14,19,08,046,,03,00,354,,36,35,170,35,34,31,208,35*72
$GPGSV,4,4,14,49,34,195,36,61,03,257,*7A
$GLGSV,3,1,10,78,65,336,51,68,16,254,28,86,11,024,,79,17,300,42*6D
$GLGSV,3,2,10,69,24,305,46,87,50,056,45,88,45,157,36,77,40,095,35*69
$GLGSV,3,3,10,70,02,003,,81,01,186,*65
$GAGSV,3,1,12,30,80,018,44,29,31,295,43,36,30,059,39,34,32,120,33*6E
$GAGSV,3,2,12,07,31,231,39,02,31,082,35,27,38,277,38,18,49,069,*65
$GAGSV,3,3,12,15,06,165,,19,07,334,,11,03,018,,08,03,188,*60
$GBGSV,6,1,21,24,72,113,50,11,26,209,,05,20,130,,43,16,232,*63
$GBGSV,6,2,21,26,20,117,,10,20,062,33,34,33,186,40,35,29,049,41*63
$GBGSV,6,3,21,56,27,052,,12,54,155,44,25,49,299,37,44,61,106,45*62
$GBGSV,6,4,21,07,07,060,,23,00,297,,38,04,076,,40,00,050,*6E
$GBGSV,6,5,21,41,10,277,30,08,00,089,,32,08,328,40,02,04,108,*6C
$GBGSV,6,6,21,60,08,110,*56
$GPGGA,134622.00,,,,,0,00,,,M,,M,,*48
$PTNL,GGK,134622.00,010125,4742.4458880,N,01617.9732556,E,1,22,1.2,EHT670.5321,M*4D
$GPGGQ,134622.00,010125,4742.4458880,N,01617.9732556,E,1,22,6.913,627.3210,M*3A
$GPGFA,134622.00,46.125,39.057,4.851,1.254,359.349,4.763,,VVV*02
$GPLLK,134622.00,010125,,M,,M,1,22,1.4,,M*0E
$GNGMP,134622.00,,,,,DAAA,22,0.7,,,,*51
$GPGMP,134622.00,,,,,,04,,,,2.5,123*7E
$GLGMP,134622.00,,,,,,05,,,,,*7A
$GAGMP,134622.00,,,,,,06,,,,,*74
$GBGMP,134622.00,,,,,,07,,,,,*76
$PSSN,SNC,[0,308800000,2347]*47
$GPZDA,134627.00,01,01,2025,,*66
$GPDTM,W84,,00.0000000,N,00.0000000,E,00.0000000,W84*5F
$GPRMC,134627.00,A,4742.4458914,N,01617.9732643,E,0.0,,010125,5.1,E,D*13
$GPGLL,4742.4458914,N,01617.9732643,E,134627.00,A,D*62
$GPGGA,134627.00,4742.4458914,N,01617.9732643,E,2,21,0.7,627.3196,M,43.2111,M,3.5,0123*47
$GNGNS,134627.00,4742.4458914,N,01617.9732643,E,DAAA,21,0.7,627.3196,43.2111,,*5D
$GPGNS,134627.00,,,,,,04,,,,3.5,123*7A
$GLGNS,134627.00,,,,,,04,,,,,*7E
$GAGNS,134627.00,,,,,,06,,,,,*71
$GBGNS,134627.00,,,,,,07,,,,,*73
$GPLLQ,134627.00,010125,,M,,M,1,21,5.732,,M*14
$GPVTG,,T,,M,0.01,N,0.02,K,D*25
$GPHDT,,T*1B
$GPTHS,,V*0E
$GPROT,,V*08
$PSSN,HRP,134627.00,010125,,,,,,,00,0,,*64
$PTNL,AVR,134627.00,,Yaw,,Tilt,,,,0,,00*32
$GPGSA,A,3,06,12,25,28,,,,,,,,,1.3,0.7,1.1*3F
$GPGSA,A,3,69,78,79,87,,,,,,,,,1.3,0.7,1.1*36
$GPGSA,A,3,02,07,27,29,30,36,,,,,,,1.3,0.7,1.1*3A
$GPGSA,A,3,12,24,25,32,34,35,44,,,,,,1.3,0.7,1.1*35
$GPGST,134627.00,4.601,4.189,0.885,358.614,4.188,0.890,3.811*52
$GPGBS,134627.00,29.686,4.386,24.710,79,0.0001,15.910,6.825*6A
$GPGRS,134627.00,1,-1.0,-0.6,0.8,0.6,,,,,,,,*42
$GPGRS,134627.00,1,-1.0,-1.4,15.9,1.1,,,,,,,,*72
$GPGRS,134627.00,1,-1.4,-1.0,0.5,0.3,-0.2,-1.0,,,,,,*4A
$GPGRS,134627.00,1,0.6,-0.7,1.2,2.1,-1.5,-4.6,-1.3,,,,,*60
$GPGSV,4,1,14,12,68,064,51,24,33,155,35,28,21,312,40,06,27,054,38*77
$GPGSV,4,2,14,29,33,215,31,32,31,277,33,11,35,098,31,25,64,292,46*7F
$GPGSV,4,3,14,19,08,046,,03,00,354,,36,35,170,35,34,31,208,36*71
$GPGSV,4,4,14,49,34,195,36,61,03,257,*7A
$GLGSV,3,1,10,78,65,336,51,68,16,254,30,86,11,024,,79,17,300,42*64
$GLGSV,3,2,10,69,24,305,45,87,50,056,45,88,45,157,34,77,40,095,35*68
$GLGSV,3,3,10,70,02,003,,81,01,186,*65
$GAGSV,3,1,12,30,80,018,44,29,31,295,43,36,30,059,39,34,32,120,31*6C
$GAGSV,3,2,12,07,31,231,40,02,31,082,37,27,38,277,38,18,49,069,*69
$GAGSV,3,3,12,15,06,165,,19,07,334,,11,03,018,,08,03,188,*60
$GBGSV,6,1,21,24,72,113,50,11,26,209,,05,20,130,,43,16,232,*63
$GBGSV,6,2,21,26,20,117,,10,20,062,33,34,33,186,40,35,29,049,41*63
$GBGSV,6,3,21,56,27,052,,12,54,155,43,25,49,299,37,44,61,106,45*65
$GBGSV,6,4,21,07,07,060,,23,00,297,,38,04,076,,40,00,050,*6E
$GBGSV,6,5,21,41,10,277,33,08,00,089,,32,08,328,40,02,04,108,*6F
$GBGSV,6,6,21,60,08,110,*56
$GPGGA,134627.00,,,,,0,00,,,M,,M,,*4D
$PTNL,GGK,134627.00,010125,4742.4458914,N,01617.9732643,E,1,21,1.3,EHT670.5307,M*45
$GPGGQ,134627.00,010125,4742.4458914,N,01617.9732643,E,1,21,5.732,627.3196,M*34
