$GPZDA,034442.00,01,01,2025,,*66
$GPDTM,W84,,00.0000000,N,00.0000000,E,00.0000000,W84*5F
$GPRMC,034442.00,A,4742.4462915,N,01617.9731223,E,0.0,,010125,5.1,E,D*1A
$GPGLL,4742.4462915,N,01617.9731223,E,034442.00,A,D*6B
$GPGGA,034442.00,4742.4462915,N,01617.9731223,E,2,21,0.7,625.7687,M,43.2111,M,1.0,0123*48
$GNGNS,034442.00,4742.4462915,N,01617.9731223,E,DAAA,21,0.7,625.7687,43.2111,,*55
$GPGNS,034442.00,,,,,,05,,,,1.0,123*7C
$GLGNS,034442.00,,,,,,05,,,,,*7F
$GAGNS,034442.00,,,,,,06,,,,,*71
$GBGNS,034442.00,,,,,,05,,,,,*71
$GPLLQ,034442.00,010125,,M,,M,1,21,2.634,,M*14
$GPVTG,,T,,M,0.00,N,0.01,K,D*27
$GPHDT,,T*1B
$GPTHS,,V*0E
$GPROT,,V*08
$PSSN,HRP,034442.00,010125,,,,,,,00,0,,*64
$PTNL,AVR,034442.00,,Yaw,,Tilt,,,,0,,00*32
$GPGSA,A,3,04,06,07,09,11,,,,,,,,1.3,0.7,1.1*3B
$GPGSA,A,3,71,79,80,86,87,,,,,,,,1.3,0.7,1.1*36
$GPGSA,A,3,05,06,09,15,34,36,,,,,,,1.3,0.7,1.1*3B
$GPGSA,A,3,12,19,20,22,44,,,,,,,,1.3,0.7,1.1*3E
$GPGST,034442.00,6.474,1.183,0.859,59.099,0.955,1.106,2.191*64
$GPGBS,034442.00,4.092,4.946,8.408,20,0.0001,19.605,8.595*67
$GPGRS,034442.00,1,-0.1,-0.3,1.7,-0.6,-0.4,,,,,,,*63
$GPGRS,034442.00,1,-1.4,6.8,1.3,-5.5,-10.2,,,,,,,*72
$GPGRS,034442.00,1,0.5,-0.1,0.1,0.4,0.3,-0.4,,,,,,*4D
$GPGRS,034442.00,1,-3.0,-1.4,19.6,1.5,-1.1,,,,,,,*74
$GPGSV,4,1,16,09,81,288,45,26,13,054,,07,33,181,42,11,28,312,45*7D
$GPGSV,4,2,16,03,34,112,34,06,55,274,39,04,64,056,45,19,08,244,*72
$GPGSV,4,3,16,20,07,303,33,16,09,084,,30,03,200,,31,09,037,20*71
$GPGSV,4,4,16,36,35,170,41,34,31,208,,49,34,195,34,61,03,257,*75
$GLGSV,3,1,09,71,59,307,42,79,17,025,36,72,16,273,23,85,15,199,29*6A
$GLGSV,3,2,09,73,18,140,,80,35,081,43,87,33,319,35,70,52,051,31*61
$GLGSV,3,3,09,86,48,254,38*56
$GAGSV,3,1,12,09,62,057,46,15,15,323,40,23,11,047,,04,12,063,24*64
$GAGSV,3,2,12,36,45,189,43,34,56,282,46,06,37,062,47,05,60,250,45*67
$GAGSV,3,3,12,18,03,236,,31,09,095,,11,04,162,,03,09,245,*69
$GBGSV,5,1,19,19,77,033,51,05,23,128,,39,14,039,25,12,21,314,44*60
$GBGSV,5,2,19,36,12,164,,37,24,053,32,44,28,288,39,16,24,043,28*6A
$GBGSV,5,3,19,20,31,084,41,06,26,045,33,46,35,115,,35,26,236,27*6E
$GBGSV,5,4,19,58,35,093,,22,39,282,40,09,39,054,34,48,53,079,*64
$GBGSV,5,5,19,02,07,106,,34,05,335,28,60,08,111,*53
$GPGGA,034442.00,,,,,0,00,,,M,,M,,*4D
$PTNL,GGK,034442.00,010125,4742.4462915,N,01617.9731223,E,1,21,1.3,EHT668.9798,M*4B
$GPGGQ,034442.00,010125,4742.4462915,N,01617.9731223,E,1,21,2.634,625.7687,M*3C
$GPGFA,034442.00,11.244,17.969,1.183,0.859,59.099,2.191,,VVV*3C
$GPLLK,034442.00,010125,,M,,M,1,21,1.6,,M*0A
$GNGMP,034442.00,,,,,DAAA,21,0.7,,,,*57
$GPGMP,034442.00,,,,,,05,,,,1.0,123*7C
$GLGMP,034442.00,,,,,,05,,,,,*7F
$GAGMP,034442.00,,,,,,06,,,,,*71
$GBGMP,034442.00,,,,,,05,,,,,*71
$PSSN,SNC,[0,272700000,2347]*44
$GPZDA,034447.00,01,01,2025,,*63
$GPDTM,W84,,00.0000000,N,00.0000000,E,00.0000000,W84*5F
$GPRMC,034447.00,A,4742.4462980,N,01617.9731153,E,0.0,,010125,5.1,E,D*17
$GPGLL,4742.4462980,N,01617.9731153,E,034447.00,A,D*66
$GPGGA,034447.00,4742.4462980,N,01617.9731153,E,2,20,0.7,625.7843,M,43.2111,M,2.0,0123*41
$GNGNS,034447.00,4742.4462980,N,01617.9731153,E,DAAA,20,0.7,625.7843,43.2111,,*5F
$GPGNS,034447.00,,,,,,05,,,,2.0,123*7A
$GLGNS,034447.00,,,,,,04,,,,,*7B
$GAGNS,034447.00,,,,,,06,,,,,*74
$GBGNS,034447.00,,,,,,05,,,,,*74
$GPLLQ,034447.00,010125,,M,,M,1,20,2.050,,M*14
$GPVTG,,T,,M,0.01,N,0.01,K,D*26
$GPHDT,,T*1B
$GPTHS,,V*0E
$GPROT,,V*08
$PSSN,HRP,034447.00,010125,,,,,,,00,0,,*61
$PTNL,AVR,034447.00,,Yaw,,Tilt,,,,0,,00*37
$GPGSA,A,3,04,06,07,09,11,,,,,,,,1.3,0.7,1.1*3B
$GPGSA,A,3,71,79,80,86,,,,,,,,,1.3,0.7,1.1*39
$GPGSA,A,3,05,06,09,15,34,36,,,,,,,1.3,0.7,1.1*3B
$GPGSA,A,3,12,19,20,22,44,,,,,,,,1.3,0.7,1.1*3E
$GPGST,034447.00,5.235,0.916,0.672,58.886,0.745,0.858,1.706*63
$GPGBS,034447.00,4.152,5.031,8.497,20,0.0001,16.730,8.597*6B
$GPGRS,034447.00,1,0.3,0.1,0.7,-0.9,0.8,,,,,,,*49
$GPGRS,034447.00,1,-3.5,6.5,-2.3,-2.7,,,,,,,,*62
$GPGRS,034447.00,1,0.2,-0.8,-0.2,0.2,-0.1,-0.5,,,,,,*40
$GPGRS,034447.00,1,-1.7,-1.8,16.7,-0.1,-0.3,,,,,,,*5D
$GPGSV,4,1,16,09,82,288,45,26,13,054,,07,33,181,42,11,28,312,46*7D
$GPGSV,4,2,16,03,33,112,35,06,55,274,39,04,64,056,45,19,08,244,27*71
$GPGSV,4,3,16,20,07,303,33,16,09,084,,30,03,200,,31,09,037,20*71
$GPGSV,4,4,16,36,35,170,41,34,31,208,,49,34,195,34,61,03,257,*75
$GLGSV,3,1,09,71,59,307,42,79,17,025,36,72,16,273,27,85,15,199,34*62
$GLGSV,3,2,09,73,18,140,,80,35,081,42,87,33,319,35,70,52,051,33*62
$GLGSV,3,3,09,86,48,254,39*57
$GAGSV,3,1,12,09,61,057,46,15,15,323,40,23,11,047,,04,12,063,24*67
$GAGSV,3,2,12,36,45,189,43,34,56,282,46,06,37,062,47,05,60,250,45*67
$GAGSV,3,3,12,18,03,236,,31,09,095,,11,04,162,,03,10,245,*61
$GBGSV,5,1,19,19,77,034,51,05,23,128,,39,14,039,24,12,21,314,44*66
$GBGSV,5,2,19,36,12,164,,37,24,053,27,44,28,288,38,16,24,043,28*6F
$GBGSV,5,3,19,20,31,084,38,06,26,045,33,46,35,115,,35,26,236,28*6F
$GBGSV,5,4,19,58,35,093,,22,39,282,40,09,39,054,35,48,53,079,*65
$GBGSV,5,5,19,02,07,106,,34,05,335,30,60,08,111,*5A
$GPGGA,034447.00,,,,,0,00,,,M,,M,,*48
$PTNL,GGK,034447.00,010125,4742.4462980,N,01617.9731153,E,1,20,1.3,EHT668.9953,M*4E
$GPGGQ,034447.00,010125,4742.4462980,N,01617.9731153,E,1,20,2.050,625.7843,M*32
$GPGFA,034447.00,8.710,13.991,0.916,0.672,58.886,1.706,,VVV*08
$GPLLK,034447.00,010125,,M,,M,1,20,1.6,,M*0E
$GNGMP,034447.00,,,,,DAAA,20,0.7,,,,*53
$GPGMP,034447.00,,,,,,05,,,,2.0,123*7A
$GLGMP,034447.00,,,,,,04,,,,,*7B
$GAGMP,034447.00,,,,,,06,,,,,*74
$GBGMP,034447.00,,,,,,05,,,,,*74
$PSSN,SNC,[0,272705000,2347]*41
$GPZDA,034452.00,01,01,2025,,*67
$GPDTM,W84,,00.0000000,N,00.0000000,E,00.0000000,W84*5F
$GPRMC,034452.00,A,4742.4462970,N,01617.9731202,E,0.0,,010125,5.1,E,D*1B
$GPGLL,4742.4462970,N,01617.9731202,E,034452.00,A,D*6A
$GPGGA,034452.00,4742.4462970,N,01617.9731202,E,2,21,0.7,625.7915,M,43.2111,M,3.0,0123*4F
$GNGNS,034452.00,4742.4462970,N,01617.9731202,E,DAAA,21,0.7,625.7915,43.2111,,*50
$GPGNS,034452.00,,,,,,05,,,,3.0,123*7F
$GLGNS,034452.00,,,,,,05,,,,,*7E
$GAGNS,034452.00,,,,,,06,,,,,*70
$GBGNS,034452.00,,,,,,05,,,,,*70
$GPLLQ,034452.00,010125,,M,,M,1,21,1.567,,M*13
$GPVTG,,T,,M,0.01,N,0.01,K,D*26
$GPHDT,,T*1B
$GPTHS,,V*0E
$GPROT,,V*08
$PSSN,HRP,034452.00,010125,,,,,,,00,0,,*65
$PTNL,AVR,034452.00,,Yaw,,Tilt,,,,0,,00*33
$GPGSA,A,3,04,06,07,09,11,,,,,,,,1.4,0.7,1.2*3F
$GPGSA,A,3,71,79,80,86,87,,,,,,,,1.4,0.7,1.2*32
$GPGSA,A,3,05,06,09,15,34,36,,,,,,,1.4,0.7,1.2*3F
$GPGSA,A,3,09,12,19,22,44,,,,,,,,1.4,0.7,1.2*31
$GPGST,034452.00,3.496,0.678,0.498,42.811,0.602,0.588,1.322*6A
$GPGBS,034452.00,4.210,5.109,8.606,87,0.0001,-8.743,6.144*75
$GPGRS,034452.00,1,0.1,0.2,0.2,-0.5,0.3,,,,,,,*4E
$GPGRS,034452.00,1,-3.0,7.1,-4.0,-1.8,-8.7,,,,,,,*63
$GPGRS,034452.00,1,0.2,-1.0,0.0,-0.3,-0.5,-0.6,,,,,,*49
$GPGRS,034452.00,1,0.3,-2.0,-2.1,1.9,-1.2,,,,,,,*40
$GPGSV,4,1,16,09,82,289,44,26,13,054,,07,33,181,42,11,28,312,48*73
$GPGSV,4,2,16,03,33,112,35,06,55,274,40,04,64,056,45,19,08,244,27*7F
$GPGSV,4,3,16,20,07,303,32,16,09,084,,30,03,200,,31,09,037,24*74
$GPGSV,4,4,16,36,35,170,41,34,31,208,,49,34,195,34,61,03,257,*75
$GLGSV,3,1,09,71,59,307,43,79,17,025,36,72,16,273,39,85,15,199,33*6B
$GLGSV,3,2,09,73,18,140,,80,35,081,42,87,34,319,35,70,52,052,34*61
$GLGSV,3,3,09,86,48,254,41*58
$GAGSV,3,1,12,09,61,057,46,15,15,323,40,23,11,047,,04,12,063,24*67
$GAGSV,3,2,12,36,45,189,42,34,56,282,47,06,37,062,47,05,60,250,45*67
$GAGSV,3,3,12,18,03,236,,31,09,095,,11,04,162,,03,10,245,*61
$GBGSV,5,1,19,19,77,034,50,05,23,128,,39,14,039,24,12,21,314,44*67
$GBGSV,5,2,19,36,12,164,,37,24,052,30,44,28,288,38,16,24,043,29*69
$GBGSV,5,3,19,20,31,084,33,06,26,045,33,46,35,115,,35,26,236,25*69
$GBGSV,5,4,19,58,35,093,,22,39,282,40,09,39,054,36,48,52,079,*67
$GBGSV,5,5,19,02,07,106,,34,05,335,30,60,08,111,*5A
$GPGGA,034452.00,,,,,0,00,,,M,,M,,*4C
$PTNL,GGK,034452.00,010125,4742.4462970,N,01617.9731202,E,1,21,1.4,EHT669.0026,M*47
$GPGGQ,034452.00,010125,4742.4462970,N,01617.9731202,E,1,21,1.567,625.7915,M*3F
$GPGFA,034452.00,6.445,10.841,0.678,0.498,42.811,1.322,,VVV*08
$GPLLK,034452.00,010125,,M,,M,1,21,1.6,,M*0B
$GNGMP,034452.00,,,,,DAAA,21,0.7,,,,*56
$GPGMP,034452.00,,,,,,05,,,,3.0,123*7F
$GLGMP,034452.00,,,,,,05,,,,,*7E
$GAGMP,034452.00,,,,,,06,,,,,*70
$GBGMP,034452.00,,,,,,05,,,,,*70
$PSSN,SNC,[0,272710000,2347]*45
$GPZDA,034457.00,01,01,2025,,*62
$GPDTM,W84,,00.0000000,N,00.0000000,E,00.0000000,W84*5F
$GPRMC,034457.00,A,4742.4463003,N,01617.9731213,E,0.0,,010125,5.1,E,D*12
$GPGLL,4742.4463003,N,01617.9731213,E,034457.00,A,D*63
$GPGGA,034457.00,4742.4463003,N,01617.9731213,E,2,21,0.7,625.7982,M,43.2111,M,4.0,0123*4F
$GNGNS,034457.00,4742.4463003,N,01617.9731213,E,DAAA,21,0.7,625.7982,43.2111,,*57
$GPGNS,034457.00,,,,,,05,,,,4.0,123*7D
$GLGNS,034457.00,,,,,,04,,,,,*7A
$GAGNS,034457.00,,,,,,06,,,,,*75
$GBGNS,034457.00,,,,,,06,,,,,*76
$GPLLQ,034457.00,010125,,M,,M,1,21,1.537,,M*13
$GPVTG,,T,,M,0.00,N,0.00,K,D*26
$GPHDT,,T*1B
$GPTHS,,V*0E
$GPROT,,V*08
$PSSN,HRP,034457.00,010125,,,,,,,00,0,,*60
$PTNL,AVR,034457.00,,Yaw,,Tilt,,,,0,,00*36
$GPGSA,A,3,04,06,07,09,11,,,,,,,,1.4,0.7,1.2*3F
$GPGSA,A,3,71,80,86,87,,,,,,,,,1.4,0.7,1.2*3C
$GPGSA,A,3,05,06,09,15,34,36,,,,,,,1.4,0.7,1.2*3F
$GPGSA,A,3,09,12,19,20,22,44,,,,,,,1.4,0.7,1.2*33
$GPGST,034457.00,3.440,0.688,0.495,58.570,0.554,0.641,1.282*6A
$GPGBS,034457.00,4.297,5.250,8.997,87,0.0001,-8.918,6.131*75
$GPGRS,034457.00,1,-0.1,0.3,0.3,-0.5,0.1,,,,,,,*64
$GPGRS,034457.00,1,-2.6,-3.1,-2.0,-8.9,,,,,,,,*4A
$GPGRS,034457.00,1,0.7,-0.7,0.3,0.0,-0.4,-0.5,,,,,,*60
$GPGRS,034457.00,1,0.7,-2.8,-1.9,-4.5,5.2,-2.1,,,,,,*4F
$GPGSV,4,1,16,09,82,289,44,26,13,054,,07,33,181,41,11,28,312,49*71
$GPGSV,4,2,16,03,33,112,34,06,55,274,42,04,64,056,46,19,08,244,27*7F
$GPGSV,4,3,16,20,07,303,29,16,09,084,,30,03,200,,31,09,037,*78
$GPGSV,4,4,16,36,35,170,41,34,31,208,,49,34,195,34,61,03,257,*75
$GLGSV,3,1,09,71,59,307,43,79,17,025,33,72,16,273,38,85,15,199,32*6E
$GLGSV,3,2,09,73,18,140,,80,35,081,41,87,34,319,36,70,52,052,34*61
$GLGSV,3,3,09,86,48,254,40*59
$GAGSV,3,1,12,09,61,057,45,15,15,323,41,23,11,047,,04,12,063,23*62
$GAGSV,3,2,12,36,45,189,42,34,56,282,47,06,37,062,46,05,60,250,45*66
$GAGSV,3,3,12,18,03,236,,31,09,095,,11,04,162,,03,10,245,*61
$GBGSV,5,1,19,19,77,034,50,05,23,128,,39,14,039,25,12,21,314,44*66
$GBGSV,5,2,19,36,12,164,,37,24,052,28,44,28,288,38,16,24,043,29*60
$GBGSV,5,3,19,20,31,084,37,06,26,045,34,46,35,115,,35,26,236,34*6A
$GBGSV,5,4,19,58,35,093,,22,39,282,39,09,39,054,36,48,52,079,*69
$GBGSV,5,5,19,02,07,106,,34,05,335,30,60,08,111,*5A
$GPGGA,034457.00,,,,,0,00,,,M,,M,,*49
$PTNL,GGK,034457.00,010125,4742.4463003,N,01617.9731213,E,1,21,1.4,EHT669.0093,M*40
$GPGGQ,034457.00,010125,4742.4463003,N,01617.9731213,E,1,21,1.537,625.7982,M*3D
$GPGFA,034457.00,6.543,10.512,0.688,0.495,58.570,1.282,,VVV*09
$GPLLK,034457.00,010125,,M,,M,1,21,1.6,,M*0E
$GNGMP,034457.00,,,,,DAAA,21,0.7,,,,*53
$GPGMP,034457.00,,,,,,05,,,,4.0,123*7D
$GLGMP,034457.00,,,,,,04,,,,,*7A
$GAGMP,034457.00,,,,,,06,,,,,*75
$GBGMP,034457.00,,,,,,06,,,,,*76
$PSSN,SNC,[0,272715000,2347]*40
$GPZDA,034502.00,01,01,2025,,*63
$GPDTM,W84,,00.0000000,N,00.0000000,E,00.0000000,W84*5F
$GPRMC,034502.00,A,4742.4462998,N,01617.9731231,E,0.0,,010125,5.1,E,D*19
$GPGLL,4742.4462998,N,01617.9731231,E,034502.00,A,D*68
$GPGGA,034502.00,4742.4462998,N,01617.9731231,E,2,19,0.8,625.8049,M,43.2111,M,1.0,0123*44
$GNGNS,034502.00,4742.4462998,N,01617.9731231,E,DAAA,19,0.8,625.8049,43.2111,,*59
$GPGNS,034502.00,,,,,,05,,,,1.0,123*79
$GLGNS,034502.00,,,,,,03,,,,,*7C
$GAGNS,034502.00,,,,,,06,,,,,*74
$GBGNS,034502.00,,,,,,05,,,,,*74
$GPLLQ,034502.00,010125,,M,,M,1,19,1.469,,M*13
$GPVTG,,T,,M,0.00,N,0.01,K,D*27
$GPHDT,,T*1B
$GPTHS,,V*0E
$GPROT,,V*08
$PSSN,HRP,034502.00,010125,,,,,,,00,0,,*61
$PTNL,AVR,034502.00,,Yaw,,Tilt,,,,0,,00*37
$GPGSA,A,3,04,06,07,09,11,,,,,,,,1.5,0.8,1.2*31
$GPGSA,A,3,71,80,86,,,,,,,,,,1.5,0.8,1.2*3D
$GPGSA,A,3,05,06,09,15,34,36,,,,,,,1.5,0.8,1.2*31
$GPGSA,A,3,09,12,19,22,44,,,,,,,,1.5,0.8,1.2*3F
$GPGST,034502.00,3.225,0.656,0.475,58.767,0.530,0.613,1.225*6F
$GPGBS,034502.00,4.109,5.030,8.641,22,0.0001,7.925,8.550*5E
$GPGRS,034502.00,1,0.4,0.1,-0.0,-0.4,0.0,,,,,,,*61
$GPGRS,034502.00,1,-2.9,-2.1,-5.5,,,,,,,,,*45
$GPGRS,034502.00,1,1.2,-0.2,0.7,0.9,-0.2,-0.3,,,,,,*6D
$GPGRS,034502.00,1,1.0,-3.5,-1.2,7.9,0.8,,,,,,,*62
$GPGSV,4,1,16,09,82,289,44,26,13,054,,07,33,181,40,11,28,312,50*78
$GPGSV,4,2,16,03,33,112,34,06,55,274,42,04,64,056,46,19,08,244,25*7D
$GPGSV,4,3,16,20,07,303,,16,09,084,,30,03,200,,31,09,037,22*73
$GPGSV,4,4,16,36,35,170,41,34,31,208,,49,34,195,34,61,03,257,*75
$GLGSV,3,1,09,71,59,307,44,79,17,025,31,72,16,273,32,85,15,199,30*63
$GLGSV,3,2,09,73,18,140,,80,35,081,40,87,34,319,35,70,52,052,33*64
$GLGSV,3,3,09,86,48,254,37*59
$GAGSV,3,1,12,09,61,057,45,15,15,323,41,23,11,047,,04,12,063,22*63
$GAGSV,3,2,12,36,45,189,42,34,56,282,47,06,37,062,46,05,60,250,45*66
$GAGSV,3,3,12,18,03,236,,31,09,095,,11,04,162,,03,10,245,*61
$GBGSV,5,1,19,19,77,034,49,05,23,128,,39,14,039,24,12,21,314,44*6F
$GBGSV,5,2,19,36,12,164,,37,24,052,32,44,28,288,38,16,24,043,29*6B
$GBGSV,5,3,19,20,31,085,28,06,26,045,34,46,35,115,,35,26,236,30*61
$GBGSV,5,4,19,58,35,093,,22,39,282,39,09,39,054,36,48,52,079,*69
$GBGSV,5,5,19,02,07,106,,34,05,335,30,60,08,111,*5A
$GPGGA,034502.00,,,,,0,00,,,M,,M,,*48
$PTNL,GGK,034502.00,010125,4742.4462998,N,01617.9731231,E,1,19,1.5,EHT669.0159,M*46
$GPGGQ,034502.00,010125,4742.4462998,N,01617.9731231,E,1,19,1.469,625.8049,M*36
$GPGFA,034502.00,6.237,10.048,0.656,0.475,58.767,1.225,,VVV*02
$GPLLK,034502.00,010125,,M,,M,1,19,1.7,,M*05
$GNGMP,034502.00,,,,,DAAA,19,0.8,,,,*56
$GPGMP,034502.00,,,,,,05,,,,1.0,123*79
$GLGMP,034502.00,,,,,,03,,,,,*7C
$GAGMP,034502.00,,,,,,06,,,,,*74
$GBGMP,034502.00,,,,,,05,,,,,*74
$PSSN,SNC,[0,272720000,2347]*46
$GPZDA,034507.00,01,01,2025,,*66
$GPDTM,W84,,00.0000000,N,00.0000000,E,00.0000000,W84*5F
$GPRMC,034507.00,A,4742.4462999,N,01617.9731184,E,0.0,,010125,5.1,E,D*10
$GPGLL,4742.4462999,N,01617.9731184,E,034507.00,A,D*61
$GPGGA,034507.00,4742.4462999,N,01617.9731184,E,2,18,0.8,625.8010,M,43.2111,M,2.0,0123*43
$GNGNS,034507.00,4742.4462999,N,01617.9731184,E,DAAA,18,0.8,625.8010,43.2111,,*5D
$GPGNS,034507.00,,,,,,05,,,,2.0,123*7F
$GLGNS,034507.00,,,,,,02,,,,,*78
$GAGNS,034507.00,,,,,,06,,,,,*71
$GBGNS,034507.00,,,,,,05,,,,,*71
$GPLLQ,034507.00,010125,,M,,M,1,18,1.436,,M*1D
$GPVTG,,T,,M,0.00,N,0.01,K,D*27
$GPHDT,,T*1B
$GPTHS,,V*0E
$GPROT,,V*08
$PSSN,HRP,034507.00,010125,,,,,,,00,0,,*64
$PTNL,AVR,034507.00,,Yaw,,Tilt,,,,0,,00*32
$GPGSA,A,3,04,06,07,09,11,,,,,,,,1.5,0.8,1.2*31
$GPGSA,A,3,71,80,,,,,,,,,,,1.5,0.8,1.2*33
$GPGSA,A,3,05,06,09,15,34,36,,,,,,,1.5,0.8,1.2*31
$GPGSA,A,3,09,12,19,22,44,,,,,,,,1.5,0.8,1.2*3F
$GPGST,034507.00,3.566,0.641,0.466,58.505,0.519,0.598,1.198*66
$GPGBS,034507.00,4.185,5.180,8.771,22,0.0001,9.750,8.550*55
$GPGRS,034507.00,1,0.3,-0.5,0.0,0.0,-0.4,,,,,,,*67
$GPGRS,034507.00,1,-2.3,-1.9,,,,,,,,,,*42
$GPGRS,034507.00,1,1.1,0.2,1.2,0.4,0.1,-0.4,,,,,,*66
$GPGRS,034507.00,1,1.6,-3.3,-0.4,9.8,-4.3,,,,,,,*4D
$GPGSV,4,1,16,09,82,289,43,26,13,054,,07,33,181,38,11,28,312,49*78
$GPGSV,4,2,16,03,33,112,34,06,55,273,42,04,64,056,46,19,08,244,25*7A
$GPGSV,4,3,16,20,07,303,,16,09,084,,30,03,200,,31,09,037,22*73
$GPGSV,4,4,16,36,35,170,41,34,31,208,,49,34,195,34,61,03,257,*75
$GLGSV,3,1,09,71,59,307,45,79,17,025,31,72,16,273,31,85,15,199,27*67
$GLGSV,3,2,09,73,18,140,,80,35,081,39,87,34,319,34,70,52,052,32*6A
$GLGSV,3,3,09,86,48,253,34*5D
$GAGSV,3,1,12,09,61,057,46,15,15,323,40,23,11,047,,04,12,063,21*62
$GAGSV,3,2,12,36,45,189,41,34,56,282,48,06,37,062,46,05,60,250,45*6A
$GAGSV,3,3,12,18,03,236,,31,09,095,,11,04,162,,03,10,245,*61
$GBGSV,5,1,19,19,77,034,49,05,23,128,,39,14,039,24,12,21,314,44*6F
$GBGSV,5,2,19,36,12,164,,37,24,052,30,44,28,288,41,16,24,043,30*6F
$GBGSV,5,3,19,20,31,085,30,06,26,045,34,46,35,115,,35,26,235,30*6B
$GBGSV,5,4,19,58,35,093,,22,39,282,37,09,39,054,36,48,52,079,*67
$GBGSV,5,5,19,02,07,106,,34,05,335,29,60,08,111,*52
$GPGGA,034507.00,,,,,0,00,,,M,,M,,*4D
$PTNL,GGK,034507.00,010125,4742.4462999,N,01617.9731184,E,1,18,1.5,EHT669.0121,M*41
$GPGGQ,034507.00,010125,4742.4462999,N,01617.9731184,E,1,18,1.436,625.8010,M*38
$GPGFA,034507.00,6.090,9.823,0.641,0.466,58.505,1.198,,VVV*32
$GPLLK,034507.00,010125,,M,,M,1,18,1.7,,M*01
$GNGMP,034507.00,,,,,DAAA,18,0.8,,,,*52
$GPGMP,034507.00,,,,,,05,,,,2.0,123*7F
$GLGMP,034507.00,,,,,,02,,,,,*78
$GAGMP,034507.00,,,,,,06,,,,,*71
$GBGMP,034507.00,,,,,,05,,,,,*71
$PSSN,SNC,[0,272725000,2347]*43
$GPZDA,034512.00,01,01,2025,,*62
$GPDTM,W84,,00.0000000,N,00.0000000,E,00.0000000,W84*5F
$GPRMC,034512.00,A,4742.4463030,N,01617.9731098,E,0.0,,010125,5.1,E,D*13
$GPGLL,4742.4463030,N,01617.9731098,E,034512.00,A,D*62
$GPGGA,034512.00,4742.4463030,N,01617.9731098,E,2,20,0.7,625.8018,M,43.2111,M,3.0,0123*4D
$GNGNS,034512.00,4742.4463030,N,01617.9731098,E,DAAA,20,0.7,625.8018,43.2111,,*52
$GPGNS,034512.00,,,,,,05,,,,3.0,123*7A
$GLGNS,034512.00,,,,,,03,,,,,*7D
$GAGNS,034512.00,,,,,,06,,,,,*75
$GBGNS,034512.00,,,,,,06,,,,,*76
$GPLLQ,034512.00,010125,,M,,M,1,20,2.903,,M*1A
$GPVTG,,T,,M,0.00,N,0.00,K,D*26
$GPHDT,,T*1B
$GPTHS,,V*0E
$GPROT,,V*08
$PSSN,HRP,034512.00,010125,,,,,,,00,0,,*60
$PTNL,AVR,034512.00,,Yaw,,Tilt,,,,0,,00*36
$GPGSA,A,3,04,06,07,09,11,,,,,,,,1.3,0.7,1.0*3A
$GPGSA,A,3,71,72,80,,,,,,,,,,1.3,0.7,1.0*3D
$GPGSA,A,3,05,06,09,15,34,36,,,,,,,1.3,0.7,1.0*3A
$GPGSA,A,3,09,12,19,35,37,44,,,,,,,1.3,0.7,1.0*36
$GPGST,034512.00,9.567,1.287,0.943,58.413,1.049,1.203,2.425*6F
$GPGBS,034512.00,4.250,5.123,8.828,37,0.0001,24.674,8.665*69
$GPGRS,034512.00,1,0.1,-0.5,0.2,0.6,-0.9,,,,,,,*68
$GPGRS,034512.00,1,-0.7,1.0,-1.8,,,,,,,,,*6E
$GPGRS,034512.00,1,1.0,0.3,1.3,0.6,0.4,0.1,,,,,,*4C
$GPGRS,034512.00,1,2.4,-2.8,0.2,9.9,24.7,21.4,,,,,,*6A
$GPGSV,4,1,16,09,82,289,43,26,13,054,,07,33,181,36,11,28,312,48*77
$GPGSV,4,2,16,03,33,112,35,06,55,273,42,04,64,056,46,19,08,244,27*79
$GPGSV,4,3,16,20,07,303,25,16,09,084,,30,03,200,,31,09,037,24*72
$GPGSV,4,4,16,36,35,170,41,34,31,208,,49,34,195,35,61,03,257,*74
$GLGSV,3,1,09,71,59,307,46,79,17,025,26,72,16,273,39,85,15,199,28*65
$GLGSV,3,2,09,73,18,140,,80,35,081,42,87,34,319,32,70,52,052,30*62
$GLGSV,3,3,09,86,48,253,29*51
$GAGSV,3,1,12,09,61,057,46,15,15,323,40,23,11,047,,04,12,063,21*62
$GAGSV,3,2,12,36,45,189,40,34,56,282,47,06,37,062,46,05,60,250,45*64
$GAGSV,3,3,12,18,03,236,,31,09,095,,11,04,162,,03,10,245,*61
$GBGSV,5,1,19,19,77,034,49,05,23,128,,39,14,039,25,12,22,314,44*6D
$GBGSV,5,2,19,36,12,164,,37,24,052,38,44,28,288,36,16,24,043,31*66
$GBGSV,5,3,19,20,31,085,29,06,26,045,33,46,35,115,,35,26,235,36*62
$GBGSV,5,4,19,58,35,093,,22,39,282,34,09,39,054,37,48,52,079,*65
$GBGSV,5,5,19,02,07,106,,34,05,335,29,60,08,111,*52
$GPGGA,034512.00,,,,,0,00,,,M,,M,,*49
$PTNL,GGK,034512.00,010125,4742.4463030,N,01617.9731098,E,1,20,1.3,EHT669.0129,M*47
$GPGGQ,034512.00,010125,4742.4463030,N,01617.9731098,E,1,20,2.903,625.8018,M*30
$GPGFA,034512.00,12.238,19.888,1.287,0.943,58.413,2.425,,VVV*30
$GPLLK,034512.00,010125,,M,,M,1,20,1.5,,M*0C
$GNGMP,034512.00,,,,,DAAA,20,0.7,,,,*52
$GPGMP,034512.00,,,,,,05,,,,3.0,123*7A
$GLGMP,034512.00,,,,,,03,,,,,*7D
$GAGMP,034512.00,,,,,,06,,,,,*75
$GBGMP,034512.00,,,,,,06,,,,,*76
$PSSN,SNC,[0,272730000,2347]*47
$GPZDA,034517.00,01,01,2025,,*67
$GPDTM,W84,,00.0000000,N,00.0000000,E,00.0000000,W84*5F
$GPRMC,034517.00,A,4742.4463056,N,01617.9731026,E,0.0,,010125,5.1,E,D*13
$GPGLL,4742.4463056,N,01617.9731026,E,034517.00,A,D*62
$GPGGA,034517.00,4742.4463056,N,01617.9731026,E,2,18,0.8,625.7934,M,43.2111,M,4.0,0123*46
$GNGNS,034517.00,4742.4463056,N,01617.9731026,E,DAAA,18,0.8,625.7934,43.2111,,*5E
$GPGNS,034517.00,,,,,,04,,,,4.0,123*79
$GLGNS,034517.00,,,,,,03,,,,,*78
$GAGNS,034517.00,,,,,,06,,,,,*70
$GBGNS,034517.00,,,,,,05,,,,,*70
$GPLLQ,034517.00,010125,,M,,M,1,18,7.463,,M*1A
$GPVTG,,T,,M,0.00,N,0.00,K,D*26
$GPHDT,,T*1B
$GPTHS,,V*0E
$GPROT,,V*08
$PSSN,HRP,034517.00,010125,,,,,,,00,0,,*65
$PTNL,AVR,034517.00,,Yaw,,Tilt,,,,0,,00*33
$GPGSA,A,3,04,06,09,11,,,,,,,,,1.4,0.8,1.1*34
$GPGSA,A,3,71,72,80,,,,,,,,,,1.4,0.8,1.1*34
$GPGSA,A,3,05,06,09,15,34,36,,,,,,,1.4,0.8,1.1*33
$GPGSA,A,3,09,12,19,35,37,,,,,,,,1.4,0.8,1.1*3F
$GPGST,034517.00,7.208,4.308,1.080,343.202,4.136,1.618,5.997*50
$GPGBS,034517.00,19.845,7.027,26.945,37,0.0001,21.814,8.664*63
$GPGRS,034517.00,1,0.1,0.0,0.6,-1.3,,,,,,,,*62
$GPGRS,034517.00,1,-1.5,5.0,-1.4,,,,,,,,,*60
$GPGRS,034517.00,1,0.6,-0.2,0.5,0.1,0.3,0.2,,,,,,*66
$GPGRS,034517.00,1,2.6,-2.3,-0.4,7.2,21.8,,,,,,,*5B
$GPGSV,4,1,16,09,82,290,43,26,13,054,,07,33,181,33,11,28,312,47*75
$GPGSV,4,2,16,03,33,112,35,06,55,273,43,04,64,056,46,19,08,244,28*77
$GPGSV,4,3,16,20,07,303,,16,09,084,,30,03,200,,31,09,037,25*74
$GPGSV,4,4,16,36,35,170,41,34,31,208,,49,34,195,34,61,03,257,*75
$GLGSV,3,1,09,71,59,308,45,79,17,025,,72,16,273,39,85,15,199,23*66
$GLGSV,3,2,09,73,18,140,,80,35,081,44,87,34,319,33,70,52,052,27*63
$GLGSV,3,3,09,86,48,253,33*5A
$GAGSV,3,1,12,09,61,057,46,15,15,323,39,23,11,047,,04,12,063,20*6D
$GAGSV,3,2,12,36,45,189,41,34,56,282,47,06,37,062,46,05,60,250,44*64
$GAGSV,3,3,12,18,03,236,,31,10,095,,11,04,162,,03,10,245,*69
$GBGSV,5,1,19,19,77,034,49,05,23,128,,39,14,039,25,12,22,314,44*6D
$GBGSV,5,2,19,36,12,164,,37,24,052,38,44,28,288,32,16,24,043,31*62
$GBGSV,5,3,19,20,31,085,29,06,26,045,33,46,35,115,,35,26,235,37*63
$GBGSV,5,4,19,58,35,093,,22,39,282,29,09,39,054,38,48,52,079,*66
$GBGSV,5,5,19,02,07,106,,34,05,335,30,60,08,111,*5A
$GPGGA,034517.00,,,,,0,00,,,M,,M,,*4C
$PTNL,GGK,034517.00,010125,4742.4463056,N,01617.9731026,E,1,18,1.4,EHT669.0045,M*40
$GPGGQ,034517.00,010125,4742.4463056,N,01617.9731026,E,1,18,7.463,625.7934,M*3D
$GPGFA,034517.00,40.960,49.175,4.308,1.080,343.202,5.997,,VVV*02
$GPLLK,034517.00,010125,,M,,M,1,18,1.6,,M*01
$GNGMP,034517.00,,,,,DAAA,18,0.8,,,,*53
$GPGMP,034517.00,,,,,,04,,,,4.0,123*79
$GLGMP,034517.00,,,,,,03,,,,,*78
$GAGMP,034517.00,,,,,,06,,,,,*70
$GBGMP,034517.00,,,,,,05,,,,,*70
$PSSN,SNC,[0,272735000,2347]*42
$GPZDA,034522.00,01,01,2025,,*61
$GPDTM,W84,,00.0000000,N,00.0000000,E,00.0000000,W84*5F
$GPRMC,034522.00,A,4742.4463033,N,01617.9731189,E,0.0,,010125,5.1,E,D*12
$GPGLL,4742.4463033,N,01617.9731189,E,034522.00,A,D*63
$GPGGA,034522.00,4742.4463033,N,01617.9731189,E,2,20,0.8,625.7636,M,43.2111,M,1.0,0123*44
$GNGNS,034522.00,4742.4463033,N,01617.9731189,E,DAAA,20,0.8,625.7636,43.2111,,*59
$GPGNS,034522.00,,,,,,05,,,,1.0,123*7B
$GLGNS,034522.00,,,,,,04,,,,,*79
$GAGNS,034522.00,,,,,,06,,,,,*76
$GBGNS,034522.00,,,,,,05,,,,,*76
$GPLLQ,034522.00,010125,,M,,M,1,20,2.644,,M*15
$GPVTG,,T,,M,0.01,N,0.01,K,D*26
$GPHDT,,T*1B
$GPTHS,,V*0E
$GPROT,,V*08
$PSSN,HRP,034522.00,010125,,,,,,,00,0,,*63
$PTNL,AVR,034522.00,,Yaw,,Tilt,,,,0,,00*35
$GPGSA,A,3,03,04,06,09,11,,,,,,,,1.3,0.8,1.1*30
$GPGSA,A,3,71,72,80,86,,,,,,,,,1.3,0.8,1.1*3D
$GPGSA,A,3,05,06,09,15,34,36,,,,,,,1.3,0.8,1.1*34
$GPGSA,A,3,09,12,19,35,44,,,,,,,,1.3,0.8,1.1*3C
$GPGST,034522.00,4.646,1.671,0.685,17.344,1.608,0.822,1.931*67
$GPGBS,034522.00,5.975,3.485,7.036,03,0.0001,-1.754,0.771*72
$GPGRS,034522.00,1,-1.8,0.6,-0.0,0.7,-0.4,,,,,,,*43
$GPGRS,034522.00,1,-2.2,13.4,0.1,-2.5,,,,,,,,*7C
$GPGRS,034522.00,1,0.7,-0.3,0.7,-0.1,0.5,0.4,,,,,,*4F
$GPGRS,034522.00,1,2.7,-0.6,-0.3,7.6,-4.3,,,,,,,*49
$GPGSV,4,1,16,09,82,290,43,26,13,054,,07,34,181,33,11,28,312,46*73
$GPGSV,4,2,16,03,33,112,37,06,55,273,44,04,64,056,45,19,08,244,27*7E
$GPGSV,4,3,16,20,07,303,30,16,09,084,,30,03,200,,31,09,037,25*77
$GPGSV,4,4,16,36,35,170,41,34,31,208,,49,34,195,35,61,03,257,*74
$GLGSV,3,1,09,71,59,308,46,79,17,025,,72,16,273,38,85,15,199,26*61
$GLGSV,3,2,09,73,18,140,,80,35,081,44,87,34,318,35,70,52,052,*61
$GLGSV,3,3,09,86,48,253,40*5E
$GAGSV,3,1,12,09,61,057,46,15,15,323,38,23,11,047,,04,12,063,21*6D
$GAGSV,3,2,12,36,45,189,41,34,56,282,47,06,37,062,46,05,60,250,44*64
$GAGSV,3,3,12,18,03,236,,31,10,095,,11,04,162,,03,10,245,*69
$GBGSV,5,1,19,19,77,035,49,05,23,128,,39,14,039,25,12,22,314,44*6C
$GBGSV,5,2,19,36,12,164,,37,24,052,39,44,28,288,26,16,24,043,31*66
$GBGSV,5,3,19,20,31,085,28,06,26,045,33,46,35,115,,35,26,235,37*62
$GBGSV,5,4,19,58,35,093,,22,39,282,35,09,39,054,38,48,52,079,*6B
$GBGSV,5,5,19,02,07,106,,34,05,335,31,60,08,111,*5B
$GPGGA,034522.00,,,,,0,00,,,M,,M,,*4A
$PTNL,GGK,034522.00,010125,4742.4463033,N,01617.9731189,E,1,20,1.3,EHT668.9747,M*40
$GPGGQ,034522.00,010125,4742.4463033,N,01617.9731189,E,1,20,2.644,625.7636,M*38
$GPGFA,034522.00,15.889,15.835,1.671,0.685,17.344,1.931,,VVV*33
$GPLLK,034522.00,010125,,M,,M,1,20,1.5,,M*0F
$GNGMP,034522.00,,,,,DAAA,20,0.8,,,,*5E
$GPGMP,034522.00,,,,,,05,,,,1.0,123*7B
$GLGMP,034522.00,,,,,,04,,,,,*79
$GAGMP,034522.00,,,,,,06,,,,,*76
$GBGMP,034522.00,,,,,,05,,,,,*76
$PSSN,SNC,[0,272740000,2347]*40
$GPZDA,034527.00,01,01,2025,,*64
$GPDTM,W84,,00.0000000,N,00.0000000,E,00.0000000,W84*5F
$GPRMC,034527.00,A,4742.4463032,N,01617.9731080,E,0.0,,010125,5.1,E,D*1E
$GPGLL,4742.4463032,N,01617.9731080,E,034527.00,A,D*6F
$GPGGA,034527.00,4742.4463032,N,01617.9731080,E,2,19,0.8,625.7627,M,43.2111,M,2.0,0123*41
$GNGNS,034527.00,4742.4463032,N,01617.9731080,E,DAAA,19,0.8,625.7627,43.2111,,*5F
$GPGNS,034527.00,,,,,,05,,,,2.0,123*7D
$GLGNS,034527.00,,,,,,03,,,,,*7B
$GAGNS,034527.00,,,,,,06,,,,,*73
$GBGNS,034527.00,,,,,,05,,,,,*73
$GPLLQ,034527.00,010125,,M,,M,1,19,2.719,,M*13
$GPVTG,,T,,M,0.00,N,0.01,K,D*27
$GPHDT,,T*1B
$GPTHS,,V*0E
$GPROT,,V*08
$PSSN,HRP,034527.00,010125,,,,,,,00,0,,*66
$PTNL,AVR,034527.00,,Yaw,,Tilt,,,,0,,00*30
$GPGSA,A,3,03,04,06,09,11,,,,,,,,1.5,0.8,1.2*35
$GPGSA,A,3,71,80,86,,,,,,,,,,1.5,0.8,1.2*3D
$GPGSA,A,3,05,06,09,15,34,36,,,,,,,1.5,0.8,1.2*31
$GPGSA,A,3,09,12,19,37,44,,,,,,,,1.5,0.8,1.2*3B
$GPGST,034527.00,2.530,1.719,0.703,17.140,1.656,0.842,1.986*61
$GPGBS,034527.00,6.262,3.596,7.195,06,0.0001,-1.651,0.636*71
$GPGRS,034527.00,1,1.5,0.3,-1.7,0.5,-0.2,,,,,,,*61
$GPGRS,034527.00,1,-1.4,-1.3,-1.4,,,,,,,,,*48
$GPGRS,034527.00,1,0.7,-1.0,-0.2,-1.2,0.4,-0.1,,,,,,*4B
$GPGRS,034527.00,1,1.8,-1.4,-1.2,5.4,-5.2,,,,,,,*43
$GPGSV,4,1,16,09,82,290,44,26,13,054,,07,34,181,33,11,28,312,46*74
$GPGSV,4,2,16,03,33,112,38,06,55,273,43,04,64,056,46,19,08,244,26*74
$GPGSV,4,3,16,20,07,303,33,16,09,084,,30,03,200,,31,09,037,23*72
$GPGSV,4,4,16,36,35,170,41,34,31,208,,49,34,195,35,61,03,257,*74
$GLGSV,3,1,09,71,59,308,45,79,17,025,27,72,16,273,34,85,15,199,28*65
$GLGSV,3,2,09,73,18,140,,80,35,081,43,87,34,318,35,70,52,052,26*62
$GLGSV,3,3,09,86,48,253,44*5A
$GAGSV,3,1,12,09,61,057,46,15,15,323,37,23,11,047,,04,12,063,20*63
$GAGSV,3,2,12,36,45,189,43,34,56,282,47,06,37,062,45,05,60,250,44*65
$GAGSV,3,3,12,18,03,236,,31,10,095,,11,04,162,,03,10,245,*69
$GBGSV,5,1,19,19,77,035,49,05,23,128,,39,14,039,25,12,22,314,44*6C
$GBGSV,5,2,19,36,12,164,,37,24,052,37,44,28,288,39,16,24,043,31*66
$GBGSV,5,3,19,20,31,085,30,06,26,045,33,46,35,115,,35,26,235,28*65
$GBGSV,5,4,19,58,35,093,,22,39,282,34,09,39,054,38,48,52,079,*6A
$GBGSV,5,5,19,02,07,106,,34,05,335,30,60,08,111,*5A
$GPGGA,034527.00,,,,,0,00,,,M,,M,,*4F
$PTNL,GGK,034527.00,010125,4742.4463032,N,01617.9731080,E,1,19,1.5,EHT668.9738,M*48
$GPGGQ,034527.00,010125,4742.4463032,N,01617.9731080,E,1,19,2.719,625.7627,M*37
$GPGFA,034527.00,16.347,16.282,1.719,0.703,17.140,1.986,,VVV*33
$GPLLK,034527.00,010125,,M,,M,1,19,1.8,,M*0D
$GNGMP,034527.00,,,,,DAAA,19,0.8,,,,*51
$GPGMP,034527.00,,,,,,05,,,,2.0,123*7D
$GLGMP,034527.00,,,,,,03,,,,,*7B
$GAGMP,034527.00,,,,,,06,,,,,*73
$GBGMP,034527.00,,,,,,05,,,,,*73
$PSSN,SNC,[0,272745000,2347]*45
$GPZDA,034532.00,01,01,2025,,*60
$GPDTM,W84,,00.0000000,N,00.0000000,E,00.0000000,W84*5F
$GPRMC,034532.00,A,4742.4463037,N,01617.9730789,E,0.0,,010125,5.1,E,D*10
$GPGLL,4742.4463037,N,01617.9730789,E,034532.00,A,D*61
$GPGGA,034532.00,4742.4463037,N,01617.9730789,E,2,18,0.9,625.7776,M,43.2111,M,3.0,0123*4B
$GNGNS,034532.00,4742.4463037,N,01617.9730789,E,DAAA,18,0.9,625.7776,43.2111,,*54
$GPGNS,034532.00,,,,,,05,,,,3.0,123*78
$GLGNS,034532.00,,,,,,03,,,,,*7F
$GAGNS,034532.00,,,,,,06,,,,,*77
$GBGNS,034532.00,,,,,,04,,,,,*76
$GPLLQ,034532.00,010125,,M,,M,1,18,2.213,,M*19
$GPVTG,,T,,M,0.00,N,0.00,K,D*26
$GPHDT,,T*1B
$GPTHS,,V*0E
$GPROT,,V*08
$PSSN,HRP,034532.00,010125,,,,,,,00,0,,*62
$PTNL,AVR,034532.00,,Yaw,,Tilt,,,,0,,00*34
$GPGSA,A,3,03,04,06,09,11,,,,,,,,1.5,0.9,1.3*35
$GPGSA,A,3,71,80,86,,,,,,,,,,1.5,0.9,1.3*3D
$GPGSA,A,3,05,06,09,15,34,36,,,,,,,1.5,0.9,1.3*31
$GPGSA,A,3,09,12,19,44,,,,,,,,,1.5,0.9,1.3*3F
$GPGST,034532.00,2.645,1.405,0.569,17.603,1.350,0.689,1.612*6C
$GPGBS,034532.00,6.390,3.689,7.313,06,0.0001,-1.506,0.654*7D
$GPGRS,034532.00,1,0.8,0.5,-1.5,0.1,0.4,,,,,,,*42
$GPGRS,034532.00,1,-0.3,-4.1,0.0,,,,,,,,,*65
$GPGRS,034532.00,1,1.1,-1.2,-0.3,-1.7,0.4,-0.1,,,,,,*4E
$GPGRS,034532.00,1,2.3,-3.4,-1.5,-5.7,,,,,,,,*60
$GPGSV,4,1,16,09,82,290,45,26,13,054,,07,34,181,34,11,28,312,46*72
$GPGSV,4,2,16,03,33,113,38,06,55,273,42,04,64,056,46,19,08,244,*70
$GPGSV,4,3,16,20,08,303,33,16,09,084,,30,03,200,,31,09,037,23*7D
$GPGSV,4,4,16,36,35,170,41,34,31,208,,49,34,195,35,61,03,257,*74
$GLGSV,3,1,09,71,59,308,47,79,17,025,29,72,16,273,32,85,15,199,30*66
$GLGSV,3,2,09,73,18,139,,80,35,081,44,87,34,318,35,70,52,052,26*6B
$GLGSV,3,3,09,86,48,253,46*58
$GAGSV,3,1,12,09,61,057,45,15,15,323,35,23,11,046,,04,12,063,20*63
$GAGSV,3,2,12,36,45,189,43,34,56,282,48,06,37,062,44,05,61,250,44*6A
$GAGSV,3,3,12,18,03,236,,31,10,095,,11,04,162,,03,10,245,*69
$GBGSV,5,1,19,19,77,035,49,05,23,128,,39,14,039,26,12,22,314,43*68
$GBGSV,5,2,19,36,12,164,,37,24,052,34,44,28,288,38,16,24,043,32*67
$GBGSV,5,3,19,20,31,085,31,06,26,045,33,46,35,115,,35,26,235,32*6F
$GBGSV,5,4,19,58,35,093,,22,39,282,33,09,39,054,39,48,52,079,*6C
$GBGSV,5,5,19,02,07,106,,34,05,335,31,60,08,111,*5B
$GPGGA,034532.00,,,,,0,00,,,M,,M,,*4B
$PTNL,GGK,034532.00,010125,4742.4463037,N,01617.9730789,E,1,18,1.5,EHT668.9887,M*4C
$GPGGQ,034532.00,010125,4742.4463037,N,01617.9730789,E,1,18,2.213,625.7776,M*32
$GPGFA,034532.00,13.358,13.222,1.405,0.569,17.603,1.612,,VVV*31
$GPLLK,034532.00,010125,,M,,M,1,18,1.8,,M*08
$GNGMP,034532.00,,,,,DAAA,18,0.9,,,,*55
$GPGMP,034532.00,,,,,,05,,,,3.0,123*78
$GLGMP,034532.00,,,,,,03,,,,,*7F
$GAGMP,034532.00,,,,,,06,,,,,*77
$GBGMP,034532.00,,,,,,04,,,,,*76
$PSSN,SNC,[0,272750000,2347]*41
$GPZDA,034537.00,01,01,2025,,*65
$GPDTM,W84,,00.0000000,N,00.0000000,E,00.0000000,W84*5F
$GPRMC,034537.00,A,4742.4462991,N,01617.9730721,E,0.0,,010125,5.1,E,D*13
$GPGLL,4742.4462991,N,01617.9730721,E,034537.00,A,D*62
$GPGGA,034537.00,4742.4462991,N,01617.9730721,E,2,18,0.9,625.7807,M,43.2111,M,4.0,0123*46
$GNGNS,034537.00,4742.4462991,N,01617.9730721,E,DAAA,18,0.9,625.7807,43.2111,,*5E
$GPGNS,034537.00,,,,,,05,,,,4.0,123*7A
$GLGNS,034537.00,,,,,,04,,,,,*7D
$GAGNS,034537.00,,,,,,05,,,,,*71
$GBGNS,034537.00,,,,,,04,,,,,*73
$GPLLQ,034537.00,010125,,M,,M,1,18,2.107,,M*1A
$GPVTG,,T,,M,0.00,N,0.01,K,D*27
$GPHDT,,T*1B
$GPTHS,,V*0E
$GPROT,,V*08
$PSSN,HRP,034537.00,010125,,,,,,,00,0,,*67
$PTNL,AVR,034537.00,,Yaw,,Tilt,,,,0,,00*31
$GPGSA,A,3,03,04,06,09,11,,,,,,,,1.6,0.9,1.4*31
$GPGSA,A,3,71,80,86,87,,,,,,,,,1.6,0.9,1.4*36
$GPGSA,A,3,05,06,09,34,36,,,,,,,,1.6,0.9,1.4*31
$GPGSA,A,3,09,12,19,44,,,,,,,,,1.6,0.9,1.4*3B
$GPGST,034537.00,3.344,1.337,0.540,17.646,1.285,0.655,1.536*6D
$GPGBS,034537.00,6.505,3.773,7.643,03,0.0001,-0.966,0.812*74
$GPGRS,034537.00,1,-1.0,0.6,-0.8,0.4,0.9,,,,,,,*64
$GPGRS,034537.00,1,0.2,-2.6,-0.2,-6.9,,,,,,,,*6E
$GPGRS,034537.00,1,1.4,-1.2,-0.2,0.8,-0.0,,,,,,,*47
$GPGRS,034537.00,1,2.0,-4.7,-1.8,-5.7,,,,,,,,*6F
$GPGSV,4,1,16,09,82,291,46,26,13,054,,07,34,181,33,11,28,312,46*77
$GPGSV,4,2,16,03,33,113,38,06,55,273,41,04,64,056,46,19,08,244,23*72
$GPGSV,4,3,16,20,08,303,34,16,09,084,,30,03,200,,31,09,037,22*7B
$GPGSV,4,4,16,36,35,170,41,34,31,208,,49,34,195,35,61,03,257,*74
$GLGSV,3,1,09,71,59,308,48,79,17,025,28,72,16,273,31,85,15,199,28*62
$GLGSV,3,2,09,73,18,139,,80,36,081,45,87,34,318,37,70,52,052,28*65
$GLGSV,3,3,09,86,48,253,47*59
$GAGSV,3,1,12,09,61,057,45,15,15,323,33,23,11,046,,04,12,063,*67
$GAGSV,3,2,12,36,45,189,44,34,56,281,48,06,36,062,43,05,61,250,44*68
$GAGSV,3,3,12,18,03,236,,31,10,095,,11,04,162,,03,10,245,*69
$GBGSV,5,1,19,19,77,035,49,05,23,128,,39,14,039,26,12,22,314,43*68
$GBGSV,5,2,19,36,12,164,,37,24,052,28,44,28,288,38,16,24,043,32*6A
$GBGSV,5,3,19,20,31,085,28,06,26,045,33,46,36,115,,35,26,235,30*66
$GBGSV,5,4,19,58,35,093,,22,39,282,31,09,39,054,39,48,52,079,*6E
$GBGSV,5,5,19,02,07,106,,34,05,335,32,60,08,111,*58
$GPGGA,034537.00,,,,,0,00,,,M,,M,,*4E
$PTNL,GGK,034537.00,010125,4742.4462991,N,01617.9730721,E,1,18,1.6,EHT668.9918,M*4B
$GPGGQ,034537.00,010125,4742.4462991,N,01617.9730721,E,1,18,2.107,625.7807,M*3E
$GPGFA,034537.00,12.715,12.597,1.337,0.540,17.646,1.536,,VVV*39
$GPLLK,034537.00,010125,,M,,M,1,18,1.9,,M*0C
$GNGMP,034537.00,,,,,DAAA,18,0.9,,,,*50
$GPGMP,034537.00,,,,,,05,,,,4.0,123*7A
$GLGMP,034537.00,,,,,,04,,,,,*7D
$GAGMP,034537.00,,,,,,05,,,,,*71
$GBGMP,034537.00,,,,,,04,,,,,*73
$PSSN,SNC,[0,272755000,2347]*44
$GPZDA,034542.00,01,01,2025,,*67
$GPDTM,W84,,00.0000000,N,00.0000000,E,00.0000000,W84*5F
$GPRMC,034542.00,A,4742.4462925,N,01617.9730847,E,0.0,,010125,5.1,E,D*11
$GPGLL,4742.4462925,N,01617.9730847,E,034542.00,A,D*60
$GPGGA,034542.00,4742.4462925,N,01617.9730847,E,2,17,0.9,625.7621,M,43.2111,M,1.0,0123*44
$GNGNS,034542.00,4742.4462925,N,01617.9730847,E,DAAA,17,0.9,625.7621,43.2111,,*59
$GPGNS,034542.00,,,,,,05,,,,1.0,123*7D
$GLGNS,034542.00,,,,,,04,,,,,*7F
$GAGNS,034542.00,,,,,,05,,,,,*73
$GBGNS,034542.00,,,,,,03,,,,,*76
$GPLLQ,034542.00,010125,,M,,M,1,17,2.853,,M*1F
$GPVTG,,T,,M,0.00,N,0.00,K,D*26
$GPHDT,,T*1B
$GPTHS,,V*0E
$GPROT,,V*08
$PSSN,HRP,034542.00,010125,,,,,,,00,0,,*65
$PTNL,AVR,034542.00,,Yaw,,Tilt,,,,0,,00*33
$GPGSA,A,3,03,04,06,09,11,,,,,,,,1.7,0.9,1.4*30
$GPGSA,A,3,71,80,86,87,,,,,,,,,1.7,0.9,1.4*37
$GPGSA,A,3,05,06,09,34,36,,,,,,,,1.7,0.9,1.4*30
$GPGSA,A,3,09,12,19,,,,,,,,,,1.7,0.9,1.4*3A
$GPGST,034542.00,2.948,1.811,0.732,17.567,1.740,0.886,2.080*67
$GPGBS,034542.00,6.210,3.581,7.295,03,0.0001,-2.426,0.772*77
$GPGRS,034542.00,1,-2.4,0.9,0.5,0.1,0.5,,,,,,,*47
$GPGRS,034542.00,1,0.5,-1.2,-0.9,-6.8,,,,,,,,*66
$GPGRS,034542.00,1,1.1,-1.0,-0.5,1.2,-0.2,,,,,,,*4C
$GPGRS,034542.00,1,1.4,-4.6,-2.0,,,,,,,,,*61
$GPGSV,4,1,16,09,82,291,46,26,13,054,,07,34,181,32,11,28,312,46*76
$GPGSV,4,2,16,03,33,113,37,06,55,273,40,04,64,056,46,19,08,244,26*79
$GPGSV,4,3,16,20,08,303,34,16,09,084,,30,03,200,,31,09,037,21*78
$GPGSV,4,4,16,36,35,170,41,34,31,208,,49,34,195,35,61,03,257,*74
$GLGSV,3,1,09,71,59,308,48,79,17,025,26,72,16,273,31,85,15,199,31*64
$GLGSV,3,2,09,73,18,139,,80,36,081,45,87,34,318,36,70,52,052,29*65
$GLGSV,3,3,09,86,47,253,47*56
$GAGSV,3,1,12,09,61,057,44,15,16,323,31,23,11,046,,04,12,063,*67
$GAGSV,3,2,12,36,45,189,44,34,56,281,48,06,36,062,42,05,61,250,44*69
$GAGSV,3,3,12,18,03,236,,31,10,095,,11,04,162,,03,10,245,*69
$GBGSV,5,1,19,19,77,035,49,05,23,128,,39,14,039,26,12,22,314,43*68
$GBGSV,5,2,19,36,12,164,,37,24,052,34,44,28,288,34,16,24,043,32*6B
$GBGSV,5,3,19,20,31,085,,06,26,045,32,46,36,115,,35,26,235,32*6F
$GBGSV,5,4,19,58,35,093,,22,39,282,29,09,39,054,39,48,52,079,*67
$GBGSV,5,5,19,02,07,106,,34,05,335,34,60,08,111,*5E
$GPGGA,034542.00,,,,,0,00,,,M,,M,,*4C
$PTNL,GGK,034542.00,010125,4742.4462925,N,01617.9730847,E,1,17,1.7,EHT668.9732,M*41
$GPGGQ,034542.00,010125,4742.4462925,N,01617.9730847,E,1,17,2.853,625.7621,M*31
$GPGFA,034542.00,17.214,17.057,1.811,0.732,17.567,2.080,,VVV*35
$GPLLK,034542.00,010125,,M,,M,1,17,2.0,,M*0B
$GNGMP,034542.00,,,,,DAAA,17,0.9,,,,*5D
$GPGMP,034542.00,,,,,,05,,,,1.0,123*7D
$GLGMP,034542.00,,,,,,04,,,,,*7F
$GAGMP,034542.00,,,,,,05,,,,,*73
$GBGMP,034542.00,,,,,,03,,,,,*76
$PSSN,SNC,[0,272760000,2347]*42
$GPZDA,034547.00,01,01,2025,,*62
$GPDTM,W84,,00.0000000,N,00.0000000,E,00.0000000,W84*5F
$GPRMC,034547.00,A,4742.4462866,N,01617.9730986,E,0.0,,010125,5.1,E,D*1E
$GPGLL,4742.4462866,N,01617.9730986,E,034547.00,A,D*6F
$GPGGA,034547.00,4742.4462866,N,01617.9730986,E,2,17,0.9,625.7505,M,43.2111,M,2.0,0123*4D
$GNGNS,034547.00,4742.4462866,N,01617.9730986,E,DAAA,17,0.9,625.7505,43.2111,,*53
$GPGNS,034547.00,,,,,,05,,,,2.0,123*7B
$GLGNS,034547.00,,,,,,04,,,,,*7A
$GAGNS,034547.00,,,,,,05,,,,,*76
$GBGNS,034547.00,,,,,,03,,,,,*73
$GPLLQ,034547.00,010125,,M,,M,1,17,2.077,,M*14
$GPVTG,,T,,M,0.00,N,0.01,K,D*27
$GPHDT,,T*1B
$GPTHS,,V*0E
$GPROT,,V*08
$PSSN,HRP,034547.00,010125,,,,,,,00,0,,*60
$PTNL,AVR,034547.00,,Yaw,,Tilt,,,,0,,00*36
$GPGSA,A,3,03,04,06,09,11,,,,,,,,1.7,0.9,1.4*30
$GPGSA,A,3,71,80,86,87,,,,,,,,,1.7,0.9,1.4*37
$GPGSA,A,3,05,06,09,34,36,,,,,,,,1.7,0.9,1.4*30
$GPGSA,A,3,09,12,19,,,,,,,,,,1.7,0.9,1.4*3A
$GPGST,034547.00,2.833,1.317,0.535,17.299,1.267,0.643,1.515*6C
$GPGBS,034547.00,6.286,3.638,7.395,03,0.0001,-1.529,0.785*78
$GPGRS,034547.00,1,-1.5,0.8,0.2,0.1,-0.0,,,,,,,*6E
$GPGRS,034547.00,1,0.4,-1.8,-1.9,-6.9,,,,,,,,*68
$GPGRS,034547.00,1,0.8,-0.9,-0.5,1.2,-0.5,,,,,,,*4E
$GPGRS,034547.00,1,1.8,-3.4,-2.0,,,,,,,,,*6D
$GPGSV,4,1,16,09,82,291,46,26,13,054,,07,34,181,33,11,28,312,46*77
$GPGSV,4,2,16,03,33,113,37,06,55,273,39,04,64,056,47,19,08,244,*72
$GPGSV,4,3,16,20,08,303,34,16,10,084,,30,03,200,,31,09,037,22*73
$GPGSV,4,4,16,36,35,170,41,34,31,208,,49,34,195,35,61,03,257,*74
$GLGSV,3,1,09,71,59,308,49,79,17,025,28,72,16,273,27,85,15,199,30*6D
$GLGSV,3,2,09,73,18,139,,80,36,081,45,87,34,318,36,70,52,052,28*64
$GLGSV,3,3,09,86,47,253,47*56
$GAGSV,3,1,12,09,61,057,44,15,16,323,28,23,11,046,,04,12,063,*6F
$GAGSV,3,2,12,36,45,189,44,34,56,281,48,06,36,062,42,05,61,250,44*69
$GAGSV,3,3,12,18,03,236,,31,10,095,,11,04,162,,03,10,245,*69
$GBGSV,5,1,19,19,77,035,49,05,23,128,,39,14,039,25,12,22,314,43*6B
$GBGSV,5,2,19,36,12,164,,37,24,052,34,44,28,288,33,16,24,043,32*6C
$GBGSV,5,3,19,20,31,085,28,35,26,235,36,46,36,115,,06,26,045,32*61
$GBGSV,5,4,19,58,35,093,,22,39,283,29,09,39,054,39,48,52,079,*66
$GBGSV,5,5,19,34,05,335,34,02,07,106,,60,08,111,*5E
$GPGGA,034547.00,,,,,0,00,,,M,,M,,*49
$PTNL,GGK,034547.00,010125,4742.4462866,N,01617.9730986,E,1,17,1.7,EHT668.9616,M*49
$GPGGQ,034547.00,010125,4742.4462866,N,01617.9730986,E,1,17,2.077,625.7505,M*35
$GPGFA,034547.00,12.517,12.423,1.317,0.535,17.299,1.515,,VVV*37
$GPLLK,034547.00,010125,,M,,M,1,17,2.0,,M*0E
$GNGMP,034547.00,,,,,DAAA,17,0.9,,,,*58
$GPGMP,034547.00,,,,,,05,,,,2.0,123*7B
$GLGMP,034547.00,,,,,,04,,,,,*7A
$GAGMP,034547.00,,,,,,05,,,,,*76
$GBGMP,034547.00,,,,,,03,,,,,*73
$PSSN,SNC,[0,272765000,2347]*47
$GPZDA,034552.00,01,01,2025,,*66
$GPDTM,W84,,00.0000000,N,00.0000000,E,00.0000000,W84*5F
$GPRMC,034552.00,A,4742.4462848,N,01617.9731032,E,0.0,,010125,5.1,E,D*11
$GPGLL,4742.4462848,N,01617.9731032,E,034552.00,A,D*60
$GPGGA,034552.00,4742.4462848,N,01617.9731032,E,2,19,0.8,625.7366,M,43.2111,M,3.0,0123*4F
$GNGNS,034552.00,4742.4462848,N,01617.9731032,E,DAAA,19,0.8,625.7366,43.2111,,*50
$GPGNS,034552.00,,,,,,05,,,,3.0,123*7E
$GLGNS,034552.00,,,,,,04,,,,,*7E
$GAGNS,034552.00,,,,,,05,,,,,*72
$GBGNS,034552.00,,,,,,05,,,,,*71
$GPLLQ,034552.00,010125,,M,,M,1,19,2.676,,M*19
$GPVTG,,T,,M,0.01,N,0.01,K,D*26
$GPHDT,,T*1B
$GPTHS,,V*0E
$GPROT,,V*08
$PSSN,HRP,034552.00,010125,,,,,,,00,0,,*64
$PTNL,AVR,034552.00,,Yaw,,Tilt,,,,0,,00*32
$GPGSA,A,3,03,04,06,09,11,,,,,,,,1.5,0.8,1.2*35
$GPGSA,A,3,71,80,86,87,,,,,,,,,1.5,0.8,1.2*32
$GPGSA,A,3,05,06,09,34,36,,,,,,,,1.5,0.8,1.2*35
$GPGSA,A,3,09,12,19,35,44,,,,,,,,1.5,0.8,1.2*39
$GPGST,034552.00,8.602,1.683,0.694,17.372,1.619,0.831,1.962*60
$GPGBS,034552.00,6.149,3.634,7.534,35,0.0001,28.438,8.576*69
$GPGRS,034552.00,1,-0.6,0.6,-0.2,-0.0,-0.0,,,,,,,*67
$GPGRS,034552.00,1,0.2,-2.7,-0.9,-2.5,,,,,,,,*6F
$GPGRS,034552.00,1,0.8,-1.1,0.0,0.7,-0.7,,,,,,,*6D
$GPGRS,034552.00,1,2.4,-2.8,-2.0,28.4,-6.6,,,,,,,*78
$GPGSV,4,1,16,09,82,291,46,26,13,054,,07,34,181,35,11,28,312,46*71
$GPGSV,4,2,16,03,33,113,37,06,55,273,39,04,64,056,46,19,08,244,30*70
$GPGSV,4,3,16,20,08,303,,16,10,084,,30,03,200,,31,09,037,23*75
$GPGSV,4,4,16,36,35,170,41,34,31,208,,49,34,195,35,61,03,257,*74
$GLGSV,3,1,09,71,59,308,49,79,17,025,34,72,16,273,25,85,15,199,30*62
$GLGSV,3,2,09,73,18,139,,80,36,081,45,87,34,318,40,70,52,052,24*69
$GLGSV,3,3,09,86,47,253,48*59
$GAGSV,3,1,12,09,61,057,44,15,16,323,40,23,11,046,,04,12,063,*61
$GAGSV,3,2,12,36,45,189,43,34,56,281,48,06,36,062,42,05,61,250,44*6E
$GAGSV,3,3,12,18,03,236,,31,10,095,,11,04,162,,03,10,245,*69
$GBGSV,5,1,19,19,77,035,49,05,23,128,,39,14,040,26,12,22,314,43*66
$GBGSV,5,2,19,36,12,164,,37,24,052,26,44,28,288,38,16,24,043,32*64
$GBGSV,5,3,19,20,31,085,29,06,26,045,32,46,36,115,,35,26,235,38*6E
$GBGSV,5,4,19,58,35,093,,22,39,283,28,09,39,054,40,48,52,079,*69
$GBGSV,5,5,19,02,07,106,,34,05,335,35,60,08,111,*5F
$GPGGA,034552.00,,,,,0,00,,,M,,M,,*4D
$PTNL,GGK,034552.00,010125,4742.4462848,N,01617.9731032,E,1,19,1.5,EHT668.9477,M*4F
$GPGGQ,034552.00,010125,4742.4462848,N,01617.9731032,E,1,19,2.676,625.7366,M*30
$GPGFA,034552.00,15.998,16.089,1.683,0.694,17.372,1.962,,VVV*37
$GPLLK,034552.00,010125,,M,,M,1,19,1.7,,M*00
$GNGMP,034552.00,,,,,DAAA,19,0.8,,,,*53
$GPGMP,034552.00,,,,,,05,,,,3.0,123*7E
$GLGMP,034552.00,,,,,,04,,,,,*7E
$GAGMP,034552.00,,,,,,05,,,,,*72
$GBGMP,034552.00,,,,,,05,,,,,*71
$PSSN,SNC,[0,272770000,2347]*43
$GPZDA,034557.00,01,01,2025,,*63
$GPDTM,W84,,00.0000000,N,00.0000000,E,00.0000000,W84*5F
$GPRMC,034557.00,A,4742.4462868,N,01617.9731007,E,0.0,,010125,5.1,E,D*10
$GPGLL,4742.4462868,N,01617.9731007,E,034557.00,A,D*61
$GPGGA,034557.00,4742.4462868,N,01617.9731007,E,2,22,0.6,625.7363,M,43.2111,M,4.0,0123*4A
$GNGNS,034557.00,4742.4462868,N,01617.9731007,E,DAAA,22,0.6,625.7363,43.2111,,*52
$GPGNS,034557.00,,,,,,06,,,,4.0,123*7F
$GLGNS,034557.00,,,,,,05,,,,,*7A
$GAGNS,034557.00,,,,,,05,,,,,*77
$GBGNS,034557.00,,,,,,06,,,,,*77
$GPLLQ,034557.00,010125,,M,,M,1,22,2.358,,M*1D
$GPVTG,,T,,M,0.01,N,0.01,K,D*26
$GPHDT,,T*1B
$GPTHS,,V*0E
$GPROT,,V*08
$PSSN,HRP,034557.00,010125,,,,,,,00,0,,*61
$PTNL,AVR,034557.00,,Yaw,,Tilt,,,,0,,00*37
$GPGSA,A,3,03,04,06,07,09,11,,,,,,,1.3,0.6,1.1*39
$GPGSA,A,3,71,79,80,86,87,,,,,,,,1.3,0.6,1.1*37
$GPGSA,A,3,05,06,09,34,36,,,,,,,,1.3,0.6,1.1*3E
$GPGSA,A,3,09,12,19,22,35,44,,,,,,,1.3,0.6,1.1*32
$GPGST,034557.00,7.393,1.064,0.720,28.824,0.995,0.813,1.977*6C
$GPGBS,034557.00,4.441,3.043,8.198,35,0.0001,21.393,8.576*67
$GPGRS,034557.00,1,1.5,-0.4,0.3,-0.2,-0.2,-0.5,,,,,,*48
$GPGRS,034557.00,1,0.3,13.1,-2.2,-0.4,-2.7,,,,,,,*7C
$GPGRS,034557.00,1,0.3,-1.2,0.2,0.7,-0.4,,,,,,,*61
$GPGRS,034557.00,1,2.4,-3.4,-2.3,-10.2,21.4,-6.9,,,,,,*45
$GPGSV,4,1,16,09,82,292,46,26,13,054,,07,34,181,36,11,28,312,46*71
$GPGSV,4,2,16,03,33,113,38,06,55,273,40,04,63,056,45,19,08,244,30*75
$GPGSV,4,3,16,20,08,303,,16,10,084,,30,03,200,,31,09,037,*74
$GPGSV,4,4,16,36,35,170,41,34,31,208,,49,34,195,35,61,03,257,*74
$GLGSV,3,1,09,71,59,308,49,79,17,025,39,72,16,273,31,85,15,199,31*6B
$GLGSV,3,2,09,73,18,139,,80,36,081,46,87,34,318,42,70,52,052,22*6E
$GLGSV,3,3,09,86,47,253,48*59
$GAGSV,3,1,12,09,61,057,44,15,16,323,22,23,11,046,,04,12,063,*65
$GAGSV,3,2,12,36,45,189,42,34,56,281,48,06,36,062,42,05,61,250,44*6F
$GAGSV,3,3,12,18,03,236,,31,10,095,,11,04,162,,03,10,245,*69
$GBGSV,5,1,19,19,77,036,50,05,23,128,,39,14,040,26,12,22,314,43*6D
$GBGSV,5,2,19,36,12,164,,37,24,052,28,44,28,288,38,16,24,043,33*6B
$GBGSV,5,3,19,20,31,085,29,06,26,045,32,46,36,115,,35,26,235,40*61
$GBGSV,5,4,19,58,35,093,,22,39,283,27,09,39,054,40,48,52,079,*66
$GBGSV,5,5,19,02,07,106,,34,05,335,35,60,08,111,*5F
$GPGGA,034557.00,,,,,0,00,,,M,,M,,*48
$PTNL,GGK,034557.00,010125,4742.4462868,N,01617.9731007,E,1,22,1.3,EHT668.9474,M*43
$GPGGQ,034557.00,010125,4742.4462868,N,01617.9731007,E,1,22,2.358,625.7363,M*35
$GPGFA,034557.00,10.121,16.214,1.064,0.720,28.824,1.977,,VVV*3A
$GPLLK,034557.00,010125,,M,,M,1,22,1.5,,M*0F
$GNGMP,034557.00,,,,,DAAA,22,0.6,,,,*50
$GPGMP,034557.00,,,,,,06,,,,4.0,123*7F
$GLGMP,034557.00,,,,,,05,,,,,*7A
$GAGMP,034557.00,,,,,,05,,,,,*77
$GBGMP,034557.00,,,,,,06,,,,,*77
$PSSN,SNC,[0,272775000,2347]*46
$GPZDA,034602.00,01,01,2025,,*60
$GPDTM,W84,,00.0000000,N,00.0000000,E,00.0000000,W84*5F
$GPRMC,034602.00,A,4742.4462881,N,01617.9730968,E,0.0,,010125,5.1,E,D*15
$GPGLL,4742.4462881,N,01617.9730968,E,034602.00,A,D*64
$GPGGA,034602.00,4742.4462881,N,01617.9730968,E,2,20,0.7,625.7398,M,43.2111,M,1.0,0123*4D
$GNGNS,034602.00,4742.4462881,N,01617.9730968,E,DAAA,20,0.7,625.7398,43.2111,,*50
$GPGNS,034602.00,,,,,,05,,,,1.0,123*7A
$GLGNS,034602.00,,,,,,05,,,,,*79
$GAGNS,034602.00,,,,,,05,,,,,*74
$GBGNS,034602.00,,,,,,05,,,,,*77
$GPLLQ,034602.00,010125,,M,,M,1,20,2.809,,M*13
$GPVTG,,T,,M,0.00,N,0.01,K,D*27
$GPHDT,,T*1B
$GPTHS,,V*0E
$GPROT,,V*08
$PSSN,HRP,034602.00,010125,,,,,,,00,0,,*62
$PTNL,AVR,034602.00,,Yaw,,Tilt,,,,0,,00*34
$GPGSA,A,3,04,06,07,09,11,,,,,,,,1.4,0.7,1.2*3F
$GPGSA,A,3,71,79,80,86,87,,,,,,,,1.4,0.7,1.2*32
$GPGSA,A,3,05,06,09,34,36,,,,,,,,1.4,0.7,1.2*3B
$GPGSA,A,3,09,12,19,22,35,,,,,,,,1.4,0.7,1.2*37
$GPGST,034602.00,7.700,1.224,0.915,59.002,1.006,1.150,2.357*63
$GPGBS,034602.00,4.131,4.894,8.685,79,0.0001,18.985,6.362*6A
$GPGRS,034602.00,1,-0.3,0.7,-0.3,-0.0,-0.9,,,,,,,*6D
$GPGRS,034602.00,1,1.6,19.0,-0.3,-0.3,-4.2,,,,,,,*77
$GPGRS,034602.00,1,0.4,-0.8,0.2,0.8,0.8,,,,,,,*40
$GPGRS,034602.00,1,2.5,-3.3,-2.5,1.1,19.0,,,,,,,*5B
$GPGSV,4,1,16,09,82,292,46,26,13,054,,07,34,181,37,11,28,312,45*73
$GPGSV,4,2,16,03,33,113,39,06,55,273,40,04,63,056,44,19,08,244,29*7D
$GPGSV,4,3,16,20,08,303,35,16,10,084,,30,03,200,,31,09,037,*72
$GPGSV,4,4,16,36,35,170,41,34,31,208,,49,34,195,35,61,03,257,*74
$GLGSV,3,1,09,71,59,308,50,79,16,025,40,72,16,273,30,85,15,199,32*6E
$GLGSV,3,2,09,73,18,139,,80,36,081,46,87,34,318,43,70,52,052,*6F
$GLGSV,3,3,09,86,47,253,47*56
$GAGSV,3,1,12,09,61,057,44,15,16,323,25,23,11,046,,04,12,063,*62
$GAGSV,3,2,12,36,45,189,42,34,56,281,49,06,36,062,42,05,61,251,44*6F
$GAGSV,3,3,12,18,03,236,,31,10,095,,11,03,162,,03,10,245,*6E
$GBGSV,5,1,19,19,77,036,50,05,23,128,,39,14,040,25,12,22,314,43*6E
$GBGSV,5,2,19,36,12,164,,37,24,052,28,44,28,288,34,16,24,043,33*67
$GBGSV,5,3,19,20,31,085,27,35,26,235,40,46,36,115,,06,26,045,32*6F
$GBGSV,5,4,19,58,35,093,,22,39,283,39,09,39,054,40,48,52,080,*6F
$GBGSV,5,5,19,34,05,335,35,02,07,106,,60,08,111,*5F
$GPGGA,034602.00,,,,,0,00,,,M,,M,,*4B
$PTNL,GGK,034602.00,010125,4742.4462881,N,01617.9730968,E,1,20,1.4,EHT668.9509,M*48
$GPGGQ,034602.00,010125,4742.4462881,N,01617.9730968,E,1,20,2.809,625.7398,M*39
$GPGFA,034602.00,11.639,19.328,1.224,0.915,59.002,2.357,,VVV*38
$GPLLK,034602.00,010125,,M,,M,1,20,1.6,,M*0D
$GNGMP,034602.00,,,,,DAAA,20,0.7,,,,*50
$GPGMP,034602.00,,,,,,05,,,,1.0,123*7A
$GLGMP,034602.00,,,,,,05,,,,,*79
$GAGMP,034602.00,,,,,,05,,,,,*74
$GBGMP,034602.00,,,,,,05,,,,,*77
$PSSN,SNC,[0,272780000,2347]*4C
$GPZDA,034607.00,01,01,2025,,*65
$GPDTM,W84,,00.0000000,N,00.0000000,E,00.0000000,W84*5F
$GPRMC,034607.00,A,4742.4462891,N,01617.9730948,E,0.0,,010125,5.1,E,D*13
$GPGLL,4742.4462891,N,01617.9730948,E,034607.00,A,D*62
$GPGGA,034607.00,4742.4462891,N,01617.9730948,E,2,22,0.7,625.7410,M,43.2111,M,1.0,0123*4E
$GNGNS,034607.00,4742.4462891,N,01617.9730948,E,DAAA,22,0.7,625.7410,43.2111,,*53
$GPGNS,034607.00,,,,,,05,,,,1.0,123*7F
$GLGNS,034607.00,,,,,,06,,,,,*7F
$GAGNS,034607.00,,,,,,06,,,,,*72
$GBGNS,034607.00,,,,,,05,,,,,*72
$GPLLQ,034607.00,010125,,M,,M,1,22,3.470,,M*17
$GPVTG,,T,,M,0.01,N,0.01,K,D*26
$GPHDT,,T*1B
$GPTHS,,V*0E
$GPROT,,V*08
$PSSN,HRP,034607.00,010125,,,,,,,00,0,,*67
$PTNL,AVR,034607.00,,Yaw,,Tilt,,,,0,,00*31
$GPGSA,A,3,04,06,07,09,11,,,,,,,,1.2,0.7,1.0*3B
$GPGSA,A,3,71,72,79,80,86,87,,,,,,,1.2,0.7,1.0*33
$GPGSA,A,3,05,06,09,15,34,36,,,,,,,1.2,0.7,1.0*3B
$GPGSA,A,3,09,12,19,22,35,,,,,,,,1.2,0.7,1.0*33
$GPGST,034607.00,9.307,1.519,1.129,59.587,1.241,1.429,2.908*66
$GPGBS,034607.00,4.099,4.850,8.428,79,0.0001,23.052,6.363*6B
$GPGRS,034607.00,1,-0.1,-0.3,-0.3,0.6,-1.3,,,,,,,*63
$GPGRS,034607.00,1,2.6,12.8,23.1,-0.2,-1.8,-4.8,,,,,,*6D
$GPGRS,034607.00,1,1.3,-0.3,0.4,-2.7,1.5,1.8,,,,,,*45
$GPGRS,034607.00,1,2.9,-2.7,-2.1,5.3,22.5,,,,,,,*58
$GPGSV,4,1,16,09,82,292,46,26,13,054,,07,34,181,38,11,28,312,44*7D
$GPGSV,4,2,16,03,33,113,40,06,55,273,40,04,63,056,42,19,08,244,27*7B
$GPGSV,4,3,16,20,08,303,34,16,10,084,,30,03,200,,31,09,037,23*72
$GPGSV,4,4,16,36,35,170,41,34,31,208,,49,34,195,35,61,03,257,*74
$GLGSV,3,1,09,71,59,308,51,79,16,025,39,72,16,273,36,85,15,199,32*67
$GLGSV,3,2,09,73,18,139,,80,36,080,46,87,34,318,43,70,52,052,28*64
$GLGSV,3,3,09,86,47,253,45*54
$GAGSV,3,1,12,09,61,057,44,15,16,323,40,23,11,046,,04,12,063,*61
$GAGSV,3,2,12,36,45,189,43,34,56,281,49,06,36,062,43,05,61,251,44*6F
$GAGSV,3,3,12,18,03,236,,31,10,095,,11,03,162,,03,10,245,*6E
$GBGSV,5,1,19,19,77,036,50,05,23,128,,39,14,040,26,12,22,314,42*6C
$GBGSV,5,2,19,36,12,164,,37,24,052,23,44,28,288,34,16,24,043,34*6B
$GBGSV,5,3,19,20,31,085,28,35,25,235,41,46,36,115,,06,26,045,31*61
$GBGSV,5,4,19,58,35,093,,22,39,283,40,09,39,054,40,48,52,080,*61
$GBGSV,5,5,19,34,05,335,34,02,07,106,,60,08,111,*5E
$GPGGA,034607.00,,,,,0,00,,,M,,M,,*4E
$PTNL,GGK,034607.00,010125,4742.4462891,N,01617.9730948,E,1,22,1.2,EHT668.9521,M*40
$GPGGQ,034607.00,010125,4742.4462891,N,01617.9730948,E,1,22,3.470,625.7410,M*39
$GPGFA,034607.00,14.438,23.847,1.519,1.129,59.587,2.908,,VVV*37
$GPLLK,034607.00,010125,,M,,M,1,22,1.4,,M*08
$GNGMP,034607.00,,,,,DAAA,22,0.7,,,,*57
$GPGMP,034607.00,,,,,,05,,,,1.0,123*7F
$GLGMP,034607.00,,,,,,06,,,,,*7F
$GAGMP,034607.00,,,,,,06,,,,,*72
$GBGMP,034607.00,,,,,,05,,,,,*72
$PSSN,SNC,[0,272785000,2347]*49
$GPZDA,034612.00,01,01,2025,,*61
$GPDTM,W84,,00.0000000,N,00.0000000,E,00.0000000,W84*5F
$GPRMC,034612.00,A,4742.4462989,N,01617.9730905,E,0.0,,010125,5.1,E,D*16
$GPGLL,4742.4462989,N,01617.9730905,E,034612.00,A,D*67
$GPGGA,034612.00,4742.4462989,N,01617.9730905,E,2,19,0.7,625.7287,M,43.2111,M,2.0,0123*48
$GNGNS,034612.00,4742.4462989,N,01617.9730905,E,DAAA,19,0.7,625.7287,43.2111,,*56
$GPGNS,034612.00,,,,,,05,,,,2.0,123*78
$GLGNS,034612.00,,,,,,04,,,,,*79
$GAGNS,034612.00,,,,,,05,,,,,*75
$GBGNS,034612.00,,,,,,05,,,,,*76
$GPLLQ,034612.00,010125,,M,,M,1,19,2.929,,M*1B
$GPVTG,,T,,M,0.00,N,0.01,K,D*27
$GPHDT,,T*1B
$GPTHS,,V*0E
$GPROT,,V*08
$PSSN,HRP,034612.00,010125,,,,,,,00,0,,*63
$PTNL,AVR,034612.00,,Yaw,,Tilt,,,,0,,00*35
$GPGSA,A,3,04,06,07,09,11,,,,,,,,1.5,0.7,1.3*3F
$GPGSA,A,3,71,80,86,87,,,,,,,,,1.5,0.7,1.3*3C
$GPGSA,A,3,05,06,09,34,36,,,,,,,,1.5,0.7,1.3*3B
$GPGSA,A,3,09,12,19,22,35,,,,,,,,1.5,0.7,1.3*37
$GPGST,034612.00,8.052,1.274,0.944,58.281,1.046,1.192,2.463*6E
$GPGBS,034612.00,4.154,5.052,9.038,35,0.0001,26.266,8.576*64
$GPGRS,034612.00,1,-0.4,0.4,1.1,0.6,-1.9,,,,,,,*6C
$GPGRS,034612.00,1,2.3,-1.4,-2.5,-4.8,,,,,,,,*6E
$GPGRS,034612.00,1,1.3,-1.0,0.4,1.3,1.6,,,,,,,*4D
$GPGRS,034612.00,1,3.3,-3.7,-2.2,3.1,26.3,,,,,,,*53
$GPGSV,4,1,16,09,82,292,48,26,13,054,,07,34,181,39,11,28,312,43*75
$GPGSV,4,2,16,03,33,113,39,06,55,273,42,04,63,056,41,19,08,244,27*74
$GPGSV,4,3,16,20,08,303,32,16,10,084,,30,03,200,,31,09,037,23*74
$GPGSV,4,4,16,36,35,170,41,34,31,208,,49,34,195,34,61,03,257,*75
$GLGSV,3,1,09,71,59,308,52,79,16,025,38,72,16,273,33,85,14,199,25*67
$GLGSV,3,2,09,73,18,139,,80,36,080,46,87,34,318,44,70,52,052,30*6A
$GLGSV,3,3,09,86,47,253,44*55
$GAGSV,3,1,12,09,61,057,44,15,16,323,33,23,11,046,,04,12,063,*65
$GAGSV,3,2,12,36,45,189,44,34,56,281,49,06,36,062,43,05,61,251,43*6F
$GAGSV,3,3,12,18,03,236,,31,10,095,,11,03,162,,03,10,245,*6E
$GBGSV,5,1,19,19,77,036,50,05,23,128,,39,14,040,26,12,22,314,42*6C
$GBGSV,5,2,19,36,12,164,,37,24,052,23,44,28,287,32,16,24,043,34*62
$GBGSV,5,3,19,20,31,085,31,35,25,235,40,46,36,115,,06,26,045,32*6B
$GBGSV,5,4,19,58,35,093,,22,39,283,39,09,39,054,40,48,52,080,*6F
$GBGSV,5,5,19,34,05,335,33,02,07,106,,60,08,111,*59
$GPGGA,034612.00,,,,,0,00,,,M,,M,,*4A
$PTNL,GGK,034612.00,010125,4742.4462989,N,01617.9730905,E,1,19,1.5,EHT668.9397,M*41
$GPGGQ,034612.00,010125,4742.4462989,N,01617.9730905,E,1,19,2.929,625.7287,M*3C
$GPGFA,034612.00,12.109,20.199,1.274,0.944,58.281,2.463,,VVV*35
$GPLLK,034612.00,010125,,M,,M,1,19,1.8,,M*08
$GNGMP,034612.00,,,,,DAAA,19,0.7,,,,*5B
$GPGMP,034612.00,,,,,,05,,,,2.0,123*78
$GLGMP,034612.00,,,,,,04,,,,,*79
$GAGMP,034612.00,,,,,,05,,,,,*75
$GBGMP,034612.00,,,,,,05,,,,,*76
$PSSN,SNC,[0,272790000,2347]*4D
$GPZDA,034617.00,01,01,2025,,*64
$GPDTM,W84,,00.0000000,N,00.0000000,E,00.0000000,W84*5F
$GPRMC,034617.00,A,4742.4463227,N,01617.9730951,E,0.0,,010125,5.1,E,D*1C
$GPGLL,4742.4463227,N,01617.9730951,E,034617.00,A,D*6D
$GPGGA,034617.00,4742.4463227,N,01617.9730951,E,2,22,0.7,625.7148,M,43.2111,M,3.0,0123*4B
$GNGNS,034617.00,4742.4463227,N,01617.9730951,E,DAAA,22,0.7,625.7148,43.2111,,*54
$GPGNS,034617.00,,,,,,05,,,,3.0,123*7C
$GLGNS,034617.00,,,,,,05,,,,,*7D
$GAGNS,034617.00,,,,,,06,,,,,*73
$GBGNS,034617.00,,,,,,06,,,,,*70
$GPLLQ,034617.00,010125,,M,,M,1,22,4.359,,M*1D
$GPVTG,,T,,M,0.01,N,0.01,K,D*26
$GPHDT,,T*1B
$GPTHS,,V*0E
$GPROT,,V*08
$PSSN,HRP,034617.00,010125,,,,,,,00,0,,*66
$PTNL,AVR,034617.00,,Yaw,,Tilt,,,,0,,00*30
$GPGSA,A,3,04,06,07,09,11,,,,,,,,1.3,0.7,1.1*3B
$GPGSA,A,3,71,72,80,86,87,,,,,,,,1.3,0.7,1.1*3D
$GPGSA,A,3,05,06,09,15,34,36,,,,,,,1.3,0.7,1.1*3B
$GPGSA,A,3,09,12,19,22,35,44,,,,,,,1.3,0.7,1.1*33
$GPGST,034617.00,10.865,1.902,1.403,58.477,1.555,1.779,3.663*53
$GPGBS,034617.00,4.214,5.107,8.880,44,0.0001,28.795,8.587*62
$GPGRS,034617.00,1,-0.6,0.9,2.2,-0.5,-2.6,,,,,,,*44
$GPGRS,034617.00,1,1.5,7.6,-1.8,-3.1,-5.0,,,,,,,*41
$GPGRS,034617.00,1,0.4,-2.1,-0.2,5.8,0.3,0.9,,,,,,*4B
$GPGRS,034617.00,1,3.4,-4.9,-3.2,-0.2,27.3,28.8,,,,,,*69
$GPGSV,4,1,16,09,82,293,48,26,13,054,,07,34,181,39,11,28,312,42*75
$GPGSV,4,2,16,03,33,113,37,06,55,273,44,04,63,056,40,19,08,244,28*72
$GPGSV,4,3,16,20,08,303,31,16,10,084,,30,03,200,,31,09,037,22*76
$GPGSV,4,4,16,36,35,170,41,34,31,208,,49,34,195,35,61,03,257,*74
$GLGSV,3,1,09,71,59,308,52,79,16,025,34,72,16,274,38,85,14,199,29*6B
$GLGSV,3,2,09,73,18,139,,80,36,080,46,87,34,318,44,70,52,052,31*6B
$GLGSV,3,3,09,86,47,253,43*52
$GAGSV,3,1,12,09,61,057,44,15,16,323,35,23,11,046,,04,12,063,*63
$GAGSV,3,2,12,36,45,189,45,34,56,281,49,06,36,062,43,05,61,251,43*6E
$GAGSV,3,3,12,18,03,236,,31,10,095,,11,03,162,,03,10,245,*6E
$GBGSV,5,1,19,19,77,036,51,05,23,128,,39,14,040,27,12,22,314,41*6F
$GBGSV,5,2,19,36,12,164,,37,24,052,26,44,28,287,35,16,24,043,34*60
$GBGSV,5,3,19,20,31,085,34,06,26,045,31,46,36,115,,35,25,235,39*63
$GBGSV,5,4,19,58,35,092,,22,39,283,40,09,39,053,40,48,52,080,*67
$GBGSV,5,5,19,02,07,106,,34,05,335,34,60,08,111,*5E
$GPGGA,034617.00,,,,,0,00,,,M,,M,,*4F
$PTNL,GGK,034617.00,010125,4742.4463227,N,01617.9730951,E,1,22,1.3,EHT668.9258,M*47
$GPGGQ,034617.00,010125,4742.4463227,N,01617.9730951,E,1,22,4.359,625.7148,M*35
$GPGFA,034617.00,18.080,30.034,1.902,1.403,58.477,3.663,,VVV*34
$GPLLK,034617.00,010125,,M,,M,1,22,1.5,,M*08
$GNGMP,034617.00,,,,,DAAA,22,0.7,,,,*56
$GPGMP,034617.00,,,,,,05,,,,3.0,123*7C
$GLGMP,034617.00,,,,,,05,,,,,*7D
$GAGMP,034617.00,,,,,,06,,,,,*73
$GBGMP,034617.00,,,,,,06,,,,,*70
$PSSN,SNC,[0,272795000,2347]*48
$GPZDA,034622.00,01,01,2025,,*62
$GPDTM,W84,,00.0000000,N,00.0000000,E,00.0000000,W84*5F
$GPRMC,034622.00,A,4742.4463362,N,01617.9731098,E,0.0,,010125,5.1,E,D*17
$GPGLL,4742.4463362,N,01617.9731098,E,034622.00,A,D*66
$GPGGA,034622.00,4742.4463362,N,01617.9731098,E,2,24,0.6,625.7031,M,43.2111,M,4.0,0123*4F
$GNGNS,034622.00,4742.4463362,N,01617.9731098,E,DAAA,24,0.6,625.7031,43.2111,,*57
$GPGNS,034622.00,,,,,,06,,,,4.0,123*7E
$GLGNS,034622.00,,,,,,05,,,,,*7B
$GAGNS,034622.00,,,,,,06,,,,,*75
$GBGNS,034622.00,,,,,,07,,,,,*77
$GPLLQ,034622.00,010125,,M,,M,1,24,3.989,,M*1D
$GPVTG,,T,,M,0.01,N,0.01,K,D*26
$GPHDT,,T*1B
$GPTHS,,V*0E
$GPROT,,V*08
$PSSN,HRP,034622.00,010125,,,,,,,00,0,,*60
$PTNL,AVR,034622.00,,Yaw,,Tilt,,,,0,,00*36
$GPGSA,A,3,03,04,06,07,09,11,,,,,,,1.2,0.6,1.0*39
$GPGSA,A,3,71,72,80,86,87,,,,,,,,1.2,0.6,1.0*3C
$GPGSA,A,3,05,06,09,15,34,36,,,,,,,1.2,0.6,1.0*3A
$GPGSA,A,3,09,12,19,20,22,35,44,,,,,,1.2,0.6,1.0*30
$GPGST,034622.00,9.518,2.203,1.122,20.382,2.102,1.302,3.130*6B
$GPGBS,034622.00,4.441,3.041,8.035,07,0.0001,2.951,0.796*52
$GPGRS,034622.00,1,-2.6,0.8,0.9,3.0,-0.3,-1.8,,,,,,*6E
$GPGRS,034622.00,1,1.1,10.8,-1.3,-4.2,-5.3,,,,,,,*77
$GPGRS,034622.00,1,0.4,-1.4,0.4,4.3,0.4,1.3,,,,,,*66
$GPGRS,034622.00,1,3.8,-4.8,-2.3,3.5,1.3,24.3,26.1,,,,,*63
$GPGSV,4,1,16,09,82,293,48,26,13,053,,07,34,181,38,11,28,312,41*70
$GPGSV,4,2,16,03,33,113,37,06,55,272,46,04,63,056,40,19,08,244,*7B
$GPGSV,4,3,16,20,08,303,31,16,10,083,,30,03,200,,31,09,037,23*70
$GPGSV,4,4,16,36,35,170,41,34,31,208,,49,34,195,35,61,03,257,*74
$GLGSV,3,1,09,71,59,309,52,79,16,025,31,72,16,274,40,85,14,199,30*68
$GLGSV,3,2,09,73,18,139,,80,36,080,47,87,34,318,45,70,52,052,32*68
$GLGSV,3,3,09,86,47,253,42*53
$GAGSV,3,1,12,09,61,057,45,15,16,323,36,23,11,046,,04,12,063,*61
$GAGSV,3,2,12,36,45,189,45,34,56,281,48,06,36,062,44,05,61,251,43*68
$GAGSV,3,3,12,18,03,236,,31,10,095,,11,03,162,,03,10,245,*6E
$GBGSV,5,1,19,19,77,036,51,05,23,128,,39,14,040,27,12,22,314,41*6F
$GBGSV,5,2,19,36,12,164,,37,24,052,29,44,28,287,36,16,24,043,33*6B
$GBGSV,5,3,19,20,31,085,36,06,26,045,31,46,36,114,,35,25,235,36*6F
$GBGSV,5,4,19,58,35,092,,22,39,283,40,09,39,053,40,48,52,080,*67
$GBGSV,5,5,19,02,07,106,,34,05,335,34,60,08,111,*5E
$GPGGA,034622.00,,,,,0,00,,,M,,M,,*49
$PTNL,GGK,034622.00,010125,4742.4463362,N,01617.9731098,E,1,24,1.2,EHT668.9141,M*40
$GPGGQ,034622.00,010125,4742.4463362,N,01617.9731098,E,1,24,3.989,625.7031,M*37
$GPGFA,034622.00,20.945,25.668,2.203,1.122,20.382,3.130,,VVV*3E
$GPLLK,034622.00,010125,,M,,M,1,24,1.4,,M*09
$GNGMP,034622.00,,,,,DAAA,24,0.6,,,,*57
$GPGMP,034622.00,,,,,,06,,,,4.0,123*7E
$GLGMP,034622.00,,,,,,05,,,,,*7B
$GAGMP,034622.00,,,,,,06,,,,,*75
$GBGMP,034622.00,,,,,,07,,,,,*77
$PSSN,SNC,[0,272800000,2347]*4B
$GPZDA,034627.00,01,01,2025,,*67
$GPDTM,W84,,00.0000000,N,00.0000000,E,00.0000000,W84*5F
$GPRMC,034627.00,A,4742.4463581,N,01617.9731075,E,0.0,,010125,5.1,E,D*1A
$GPGLL,4742.4463581,N,01617.9731075,E,034627.00,A,D*6B
$GPGGA,034627.00,4742.4463581,N,01617.9731075,E,2,22,0.7,625.6963,M,43.2111,M,1.0,0123*4F
$GNGNS,034627.00,4742.4463581,N,01617.9731075,E,DAAA,22,0.7,625.6963,43.2111,,*52
$GPGNS,034627.00,,,,,,05,,,,1.0,123*7D
$GLGNS,034627.00,,,,,,05,,,,,*7E
$GAGNS,034627.00,,,,,,06,,,,,*70
$GBGNS,034627.00,,,,,,06,,,,,*73
$GPLLQ,034627.00,010125,,M,,M,1,22,3.339,,M*1F
$GPVTG,,T,,M,0.01,N,0.02,K,D*25
$GPHDT,,T*1B
$GPTHS,,V*0E
$GPROT,,V*08
$PSSN,HRP,034627.00,010125,,,,,,,00,0,,*65
$PTNL,AVR,034627.00,,Yaw,,Tilt,,,,0,,00*33
$GPGSA,A,3,04,06,07,09,11,,,,,,,,1.3,0.7,1.1*3B
$GPGSA,A,3,71,72,80,86,87,,,,,,,,1.3,0.7,1.1*3D
$GPGSA,A,3,05,06,09,15,34,36,,,,,,,1.3,0.7,1.1*3B
$GPGSA,A,3,09,12,19,20,22,44,,,,,,,1.3,0.7,1.1*37
$GPGST,034627.00,4.729,1.455,1.080,57.697,1.199,1.358,2.804*6C
$GPGBS,034627.00,4.149,4.903,8.652,11,0.0001,-2.810,0.826*7F
$GPGRS,034627.00,1,0.4,0.4,2.1,-0.7,-2.8,,,,,,,*6A
$GPGRS,034627.00,1,0.3,11.9,-2.4,-4.5,-5.9,,,,,,,*78
$GPGRS,034627.00,1,-0.0,-1.6,-0.1,1.9,-0.2,0.8,,,,,,*4E
$GPGRS,034627.00,1,3.1,-4.6,-2.1,3.3,3.9,-7.2,,,,,,*6B
$GPGSV,4,1,16,09,82,293,49,26,13,053,,07,34,181,36,11,28,312,40*7E
$GPGSV,4,2,16,03,33,113,38,06,55,272,47,04,63,056,39,19,08,244,*7B
$GPGSV,4,3,16,20,08,303,33,16,10,083,,30,04,200,,31,09,037,25*73
$GPGSV,4,4,16,36,35,170,41,34,31,208,,49,34,195,35,61,03,257,*74
$GLGSV,3,1,09,71,59,309,52,79,16,025,29,72,16,274,41,85,14,199,27*66
$GLGSV,3,2,09,73,18,139,,80,36,080,47,87,34,318,45,70,52,053,31*6A
$GLGSV,3,3,09,86,47,253,43*52
$GAGSV,3,1,12,09,61,057,45,15,16,323,37,23,11,046,,04,12,063,*60
$GAGSV,3,2,12,36,45,189,45,34,56,281,47,06,36,062,43,05,61,251,43*60
$GAGSV,3,3,12,18,03,236,,31,10,095,,11,03,162,,03,10,245,*6E
$GBGSV,5,1,19,19,77,036,51,05,23,128,,39,14,040,26,12,22,314,41*6E
$GBGSV,5,2,19,36,12,164,,37,24,052,31,44,28,287,37,16,24,043,34*64
$GBGSV,5,3,19,20,31,085,37,06,26,045,30,46,36,114,,35,25,235,33*6A
$GBGSV,5,4,19,58,35,092,,22,39,283,40,09,39,053,40,48,52,080,*67
$GBGSV,5,5,19,02,07,106,,34,05,335,34,60,08,111,*5E
$GPGGA,034627.00,,,,,0,00,,,M,,M,,*4C
$PTNL,GGK,034627.00,010125,4742.4463581,N,01617.9731075,E,1,22,1.3,EHT668.9073,M*4A
$GPGGQ,034627.00,010125,4742.4463581,N,01617.9731075,E,1,22,3.339,625.6963,M*32
$GPGFA,034627.00,13.831,22.994,1.455,1.080,57.697,2.804,,VVV*33
$GPLLK,034627.00,010125,,M,,M,1,22,1.5,,M*0B
$GNGMP,034627.00,,,,,DAAA,22,0.7,,,,*55
$GPGMP,034627.00,,,,,,05,,,,1.0,123*7D
$GLGMP,034627.00,,,,,,05,,,,,*7E
$GAGMP,034627.00,,,,,,06,,,,,*70
$GBGMP,034627.00,,,,,,06,,,,,*73
$PSSN,SNC,[0,272805000,2347]*4E
$GPZDA,034632.00,01,01,2025,,*63
$GPDTM,W84,,00.0000000,N,00.0000000,E,00.0000000,W84*5F
$GPRMC,034632.00,A,4742.4463674,N,01617.9731065,E,0.0,,010125,5.1,E,D*16
