$GPZDA,031442.00,01,01,2025,,*63
$GPDTM,W84,,00.0000000,N,00.0000000,E,00.0000000,W84*5F
$GPRMC,031442.00,A,4742.4466342,N,01617.9731977,E,0.0,,010125,5.1,E,D*19
$GPGLL,4742.4466342,N,01617.9731977,E,031442.00,A,D*68
$GPGGA,031442.00,4742.4466342,N,01617.9731977,E,2,20,0.7,626.1323,M,43.2111,M,1.0,0123*44
$GNGNS,031442.00,4742.4466342,N,01617.9731977,E,DAAA,20,0.7,626.1323,43.2111,,*59
$GPGNS,031442.00,,,,,,05,,,,1.0,123*79
$GLGNS,031442.00,,,,,,04,,,,,*7B
$GAGNS,031442.00,,,,,,05,,,,,*77
$GBGNS,031442.00,,,,,,06,,,,,*77
$GPLLQ,031442.00,010125,,M,,M,1,20,2.263,,M*16
$GPVTG,,T,,M,0.01,N,0.01,K,D*26
$GPHDT,,T*1B
$GPTHS,,V*0E
$GPROT,,V*08
$PSSN,HRP,031442.00,010125,,,,,,,00,0,,*61
$PTNL,AVR,031442.00,,Yaw,,Tilt,,,,0,,00*37
$GPGSA,A,3,03,04,06,07,09,,,,,,,,1.3,0.7,1.1*38
$GPGSA,A,3,71,85,86,87,,,,,,,,,1.3,0.7,1.1*3D
$GPGSA,A,3,05,06,09,34,36,,,,,,,,1.3,0.7,1.1*3F
$GPGSA,A,3,09,12,16,19,20,22,,,,,,,1.3,0.7,1.1*30
$GPGST,031442.00,3.013,1.083,0.576,9.271,1.073,0.595,1.902*53
$GPGBS,031442.00,6.256,3.982,10.477,03,0.0001,1.247,0.646*6B
$GPGRS,031442.00,1,1.2,0.4,-0.8,-0.5,-0.1,,,,,,,*46
$GPGRS,031442.00,1,0.3,2.4,-3.3,-4.4,,,,,,,,*4B
$GPGRS,031442.00,1,0.3,0.8,-0.1,0.8,-0.0,,,,,,,*62
$GPGRS,031442.00,1,-0.1,-3.8,5.4,-2.2,-1.6,-5.1,,,,,,*6B
$GPGSV,5,1,17,04,78,052,49,11,17,318,37,26,10,067,,07,20,182,44*78
$GPGSV,5,2,17,19,17,254,38,31,20,043,25,03,45,102,42,06,50,295,43*73
$GPGSV,5,3,17,09,70,250,44,17,08,230,26,02,04,163,,16,02,095,*70
$GPGSV,5,4,17,01,08,157,,36,35,170,41,34,31,208,,49,34,195,36*79
$GPGSV,5,5,17,61,03,257,*4B
$GLGSV,3,1,10,70,63,027,32,80,27,098,27,87,23,331,41,79,23,039,*66
$GLGSV,3,2,10,85,31,202,38,71,49,284,51,86,53,280,47,73,04,146,*62
$GLGSV,3,3,10,69,06,069,,72,05,262,*64
$GAGSV,4,1,13,09,72,056,44,11,15,159,21,18,12,250,,04,21,058,31*6F
$GAGSV,4,2,13,34,51,299,40,36,58,192,47,06,47,059,39,05,50,239,43*64
$GAGSV,4,3,13,21,01,010,,23,08,056,,31,01,102,,03,01,238,*6F
$GAGSV,4,4,13,15,06,324,32*5C
$GBGSV,5,1,20,19,78,332,46,37,26,065,32,39,18,039,29,12,16,324,40*6F
$GBGSV,5,2,20,05,23,128,,16,27,044,35,46,26,125,,06,29,047,32*6A
$GBGSV,5,3,20,44,28,301,32,22,29,273,40,35,35,246,34,58,28,106,*68
$GBGSV,5,4,20,09,40,058,37,20,41,075,48,48,63,066,,23,02,022,*6F
$GBGSV,5,5,20,02,07,106,,36,01,168,,29,08,192,21,60,08,110,*64
$GPGGA,031442.00,,,,,0,00,,,M,,M,,*48
$PTNL,GGK,031442.00,010125,4742.4466342,N,01617.9731977,E,1,20,1.3,EHT669.3434,M*47
$GPGGQ,031442.00,010125,4742.4466342,N,01617.9731977,E,1,20,2.263,626.1323,M*36
$GPGFA,031442.00,10.300,15.596,1.083,0.576,9.271,1.902,,VVV*06
$GPLLK,031442.00,010125,,M,,M,1,20,1.5,,M*0D
$GNGMP,031442.00,,,,,DAAA,20,0.7,,,,*53
$GPGMP,031442.00,,,,,,05,,,,1.0,123*79
$GLGMP,031442.00,,,,,,04,,,,,*7B
$GAGMP,031442.00,,,,,,05,,,,,*77
$GBGMP,031442.00,,,,,,06,,,,,*77
$PSSN,SNC,[0,270900000,2347]*48
$GPZDA,031447.00,01,01,2025,,*66
$GPDTM,W84,,00.0000000,N,00.0000000,E,00.0000000,W84*5F
$GPRMC,031447.00,A,4742.4466407,N,01617.9731677,E,0.0,,010125,5.1,E,D*15
$GPGLL,4742.4466407,N,01617.9731677,E,031447.00,A,D*64
$GPGGA,031447.00,4742.4466407,N,01617.9731677,E,2,20,0.7,626.1217,M,43.2111,M,2.0,0123*4D
$GNGNS,031447.00,4742.4466407,N,01617.9731677,E,DAAA,20,0.7,626.1217,43.2111,,*53
$GPGNS,031447.00,,,,,,06,,,,2.0,123*7C
$GLGNS,031447.00,,,,,,04,,,,,*7E
$GAGNS,031447.00,,,,,,05,,,,,*72
$GBGNS,031447.00,,,,,,05,,,,,*71
$GPLLQ,031447.00,010125,,M,,M,1,20,2.498,,M*11
$GPVTG,,T,,M,0.00,N,0.01,K,D*27
$GPHDT,,T*1B
$GPTHS,,V*0E
$GPROT,,V*08
$PSSN,HRP,031447.00,010125,,,,,,,00,0,,*64
$PTNL,AVR,031447.00,,Yaw,,Tilt,,,,0,,00*32
$GPGSA,A,3,03,04,06,07,09,11,,,,,,,1.3,0.7,1.1*38
$GPGSA,A,3,71,85,86,87,,,,,,,,,1.3,0.7,1.1*3D
$GPGSA,A,3,05,06,09,34,36,,,,,,,,1.3,0.7,1.1*3F
$GPGSA,A,3,09,12,19,20,22,,,,,,,,1.3,0.7,1.1*37
$GPGST,031447.00,2.560,1.322,0.845,34.142,1.193,1.020,1.944*69
$GPGBS,031447.00,4.115,4.109,6.752,11,0.0001,-3.913,1.074*77
$GPGRS,031447.00,1,1.6,0.6,-0.9,-0.1,0.1,-3.9,,,,,,*64
$GPGRS,031447.00,1,0.9,-0.6,-4.1,-4.4,,,,,,,,*6C
$GPGRS,031447.00,1,0.5,1.0,0.2,1.4,0.0,,,,,,,*66
$GPGRS,031447.00,1,-0.2,-1.9,-1.8,-1.5,-4.0,,,,,,,*4B
$GPGSV,5,1,17,04,78,052,49,11,17,318,30,26,10,067,,07,20,182,44*7F
$GPGSV,5,2,17,19,17,254,31,31,20,043,24,03,45,102,43,06,50,295,43*7A
$GPGSV,5,3,17,09,70,250,44,17,08,230,29,02,04,163,,16,02,095,*7F
$GPGSV,5,4,17,01,08,157,,36,35,170,41,34,31,208,,49,34,195,37*78
$GPGSV,5,5,17,61,03,257,*4B
$GLGSV,3,1,10,70,63,028,30,80,27,098,26,87,23,331,40,79,23,039,32*6A
$GLGSV,3,2,10,85,31,202,36,71,49,284,52,86,53,279,47,73,04,146,*69
$GLGSV,3,3,10,69,06,069,,72,05,262,*64
$GAGSV,4,1,13,09,72,056,44,11,14,159,21,18,12,250,,04,21,058,30*6F
$GAGSV,4,2,13,34,51,299,41,36,58,192,47,06,47,059,40,05,50,239,43*6B
$GAGSV,4,3,13,21,01,010,,23,08,056,,31,01,102,,03,01,238,*6F
$GAGSV,4,4,13,15,06,324,31*5F
$GBGSV,5,1,20,19,78,333,46,37,26,065,33,39,18,039,28,12,16,324,40*6E
$GBGSV,5,2,20,05,23,128,,16,27,044,34,46,26,125,,06,29,047,33*6A
$GBGSV,5,3,20,44,28,301,32,22,29,273,40,35,35,246,33,58,28,106,*6F
$GBGSV,5,4,20,09,40,058,38,20,41,075,48,48,63,066,,23,02,022,*60
$GBGSV,5,5,20,02,07,106,,36,01,168,,29,08,192,20,60,08,110,*65
$GPGGA,031447.00,,,,,0,00,,,M,,M,,*4D
$PTNL,GGK,031447.00,010125,4742.4466407,N,01617.9731677,E,1,20,1.3,EHT669.3328,M*41
$GPGGQ,031447.00,010125,4742.4466407,N,01617.9731677,E,1,20,2.498,626.1217,M*3E
$GPGFA,031447.00,12.571,15.940,1.322,0.845,34.142,1.944,,VVV*3C
$GPLLK,031447.00,010125,,M,,M,1,20,1.5,,M*08
$GNGMP,031447.00,,,,,DAAA,20,0.7,,,,*56
$GPGMP,031447.00,,,,,,06,,,,2.0,123*7C
$GLGMP,031447.00,,,,,,04,,,,,*7E
$GAGMP,031447.00,,,,,,05,,,,,*72
$GBGMP,031447.00,,,,,,05,,,,,*71
$PSSN,SNC,[0,270905000,2347]*4D
$GPZDA,031452.00,01,01,2025,,*62
$GPDTM,W84,,00.0000000,N,00.0000000,E,00.0000000,W84*5F
$GPRMC,031452.00,A,4742.4466396,N,01617.9731404,E,0.0,,010125,5.1,E,D*18
$GPGLL,4742.4466396,N,01617.9731404,E,031452.00,A,D*69
$GPGGA,031452.00,4742.4466396,N,01617.9731404,E,2,20,0.7,626.1144,M,43.2111,M,4.0,0123*43
$GNGNS,031452.00,4742.4466396,N,01617.9731404,E,DAAA,20,0.7,626.1144,43.2111,,*5B
$GPGNS,031452.00,,,,,,05,,,,4.0,123*7D
$GLGNS,031452.00,,,,,,04,,,,,*7A
$GAGNS,031452.00,,,,,,05,,,,,*76
$GBGNS,031452.00,,,,,,06,,,,,*76
$GPLLQ,031452.00,010125,,M,,M,1,20,2.775,,M*15
$GPVTG,,T,,M,0.00,N,0.01,K,D*27
$GPHDT,,T*1B
$GPTHS,,V*0E
$GPROT,,V*08
$PSSN,HRP,031452.00,010125,,,,,,,00,0,,*60
$PTNL,AVR,031452.00,,Yaw,,Tilt,,,,0,,00*36
$GPGSA,A,3,03,04,06,07,09,,,,,,,,1.3,0.7,1.1*38
$GPGSA,A,3,71,85,86,87,,,,,,,,,1.3,0.7,1.1*3D
$GPGSA,A,3,05,06,09,34,36,,,,,,,,1.3,0.7,1.1*3F
$GPGSA,A,3,09,12,19,20,22,35,,,,,,,1.3,0.7,1.1*31
$GPGST,031452.00,2.354,1.324,0.705,9.023,1.312,0.727,2.334*5D
$GPGBS,031452.00,6.570,4.246,11.174,06,0.0001,-1.316,0.688*45
$GPGRS,031452.00,1,1.0,0.4,-1.3,-1.2,0.2,,,,,,,*67
$GPGRS,031452.00,1,-0.1,-1.6,-4.6,-4.0,,,,,,,,*4F
$GPGRS,031452.00,1,-0.1,0.9,0.2,0.9,-0.2,,,,,,,*60
$GPGRS,031452.00,1,0.8,-1.1,-1.6,-1.4,-4.5,-0.1,,,,,,*68
$GPGSV,5,1,17,04,78,052,50,11,17,318,28,26,10,067,,07,20,182,44*7E
$GPGSV,5,2,17,19,17,254,28,31,20,043,27,03,45,102,42,06,50,295,41*72
$GPGSV,5,3,17,09,70,250,45,17,08,230,29,02,04,163,,16,02,095,*7E
$GPGSV,5,4,17,01,08,157,,36,35,170,40,34,31,208,,49,34,195,37*79
$GPGSV,5,5,17,61,03,257,*4B
$GLGSV,3,1,10,70,63,028,29,80,27,098,35,87,23,331,41,79,23,039,32*61
$GLGSV,3,2,10,85,31,202,37,71,49,284,51,86,53,279,48,73,04,146,*64
$GLGSV,3,3,10,69,06,069,,72,05,262,25*63
$GAGSV,4,1,13,09,72,056,45,11,14,159,27,18,12,250,,04,21,058,28*61
$GAGSV,4,2,13,34,51,299,42,36,58,192,47,06,47,059,40,05,50,239,43*68
$GAGSV,4,3,13,21,01,010,,23,08,056,,31,01,102,,03,01,238,*6F
$GAGSV,4,4,13,15,06,324,32*5C
$GBGSV,5,1,20,19,78,333,46,37,26,065,35,39,18,039,29,12,16,324,41*68
$GBGSV,5,2,20,05,23,128,,16,27,044,34,46,26,125,,06,29,047,34*6D
$GBGSV,5,3,20,44,28,301,31,22,29,273,38,35,35,246,37,58,28,106,*67
$GBGSV,5,4,20,09,40,058,38,20,41,075,48,48,63,066,,23,02,022,*60
$GBGSV,5,5,20,02,07,106,,36,01,168,,29,08,192,,60,08,110,*67
$GPGGA,031452.00,,,,,0,00,,,M,,M,,*49
$PTNL,GGK,031452.00,010125,4742.4466396,N,01617.9731404,E,1,20,1.3,EHT669.3255,M*47
$GPGGQ,031452.00,010125,4742.4466396,N,01617.9731404,E,1,20,2.775,626.1144,M*36
$GPGFA,031452.00,12.590,19.143,1.324,0.705,9.023,2.334,,VVV*0B
$GPLLK,031452.00,010125,,M,,M,1,20,1.6,,M*0F
$GNGMP,031452.00,,,,,DAAA,20,0.7,,,,*52
$GPGMP,031452.00,,,,,,05,,,,4.0,123*7D
$GLGMP,031452.00,,,,,,04,,,,,*7A
$GAGMP,031452.00,,,,,,05,,,,,*76
$GBGMP,031452.00,,,,,,06,,,,,*76
$PSSN,SNC,[0,270910000,2347]*49
$GPZDA,031457.00,01,01,2025,,*67
$GPDTM,W84,,00.0000000,N,00.0000000,E,00.0000000,W84*5F
$GPRMC,031457.00,A,4742.4466373,N,01617.9731215,E,0.0,,010125,5.1,E,D*10
$GPGLL,4742.4466373,N,01617.9731215,E,031457.00,A,D*61
$GPGGA,031457.00,4742.4466373,N,01617.9731215,E,2,21,0.6,626.0989,M,43.2111,M,1.0,0123*46
$GNGNS,031457.00,4742.4466373,N,01617.9731215,E,DAAA,21,0.6,626.0989,43.2111,,*5B
$GPGNS,031457.00,,,,,,05,,,,1.0,123*7D
$GLGNS,031457.00,,,,,,05,,,,,*7E
$GAGNS,031457.00,,,,,,05,,,,,*73
$GBGNS,031457.00,,,,,,06,,,,,*73
$GPLLQ,031457.00,010125,,M,,M,1,21,3.457,,M*13
$GPVTG,,T,,M,0.01,N,0.01,K,D*26
$GPHDT,,T*1B
$GPTHS,,V*0E
$GPROT,,V*08
$PSSN,HRP,031457.00,010125,,,,,,,00,0,,*65
$PTNL,AVR,031457.00,,Yaw,,Tilt,,,,0,,00*33
$GPGSA,A,3,03,04,06,07,09,,,,,,,,1.2,0.6,1.1*38
$GPGSA,A,3,71,80,85,86,87,,,,,,,,1.2,0.6,1.1*35
$GPGSA,A,3,05,06,09,34,36,,,,,,,,1.2,0.6,1.1*3F
$GPGSA,A,3,09,12,19,20,22,35,,,,,,,1.2,0.6,1.1*31
$GPGST,031457.00,5.110,1.655,0.871,8.792,1.641,0.897,2.908*5C
$GPGBS,031457.00,6.299,3.897,10.507,80,0.0001,17.791,6.176*5F
$GPGRS,031457.00,1,0.2,0.7,-1.3,-1.3,0.7,,,,,,,*66
$GPGRS,031457.00,1,-1.1,17.8,0.9,-3.3,-3.0,,,,,,,*7D
$GPGRS,031457.00,1,0.2,1.0,0.8,0.6,-0.0,,,,,,,*44
$GPGRS,031457.00,1,0.6,0.1,-1.1,-0.8,-4.1,1.2,,,,,,*6E
$GPGSV,5,1,17,04,78,052,50,11,17,318,29,26,10,067,,07,20,182,43*78
$GPGSV,5,2,17,19,17,254,,31,19,043,23,03,45,102,41,06,50,295,40*74
$GPGSV,5,3,17,09,70,250,46,17,08,230,29,02,04,163,,16,02,095,*7D
$GPGSV,5,4,17,01,08,157,,36,35,170,40,34,31,208,,49,34,195,37*79
$GPGSV,5,5,17,61,03,257,*4B
$GLGSV,3,1,10,70,63,028,31,80,27,098,36,87,23,331,41,79,23,039,31*68
$GLGSV,3,2,10,85,31,202,41,71,49,284,51,86,53,279,49,73,04,146,*64
$GLGSV,3,3,10,69,06,069,,72,05,262,26*60
$GAGSV,4,1,13,09,72,056,45,11,14,159,29,18,12,250,,04,21,058,24*63
$GAGSV,4,2,13,34,51,299,42,36,58,192,47,06,47,059,42,05,50,239,42*6B
$GAGSV,4,3,13,21,01,010,,23,08,056,,31,01,102,,03,01,238,*6F
$GAGSV,4,4,13,15,06,324,33*5D
$GBGSV,5,1,20,19,78,333,47,37,26,065,35,39,18,039,28,12,16,324,42*6B
$GBGSV,5,2,20,05,23,128,,16,27,044,33,46,26,125,,06,29,047,33*6D
$GBGSV,5,3,20,44,28,301,33,22,29,273,38,35,35,246,30,58,28,106,*62
$GBGSV,5,4,20,09,40,058,39,20,41,075,49,48,63,066,,23,02,022,*60
$GBGSV,5,5,20,02,07,106,,36,01,168,,29,08,192,19,60,08,110,*6F
$GPGGA,031457.00,,,,,0,00,,,M,,M,,*4C
$PTNL,GGK,031457.00,010125,4742.4466373,N,01617.9731215,E,1,21,1.2,EHT669.3100,M*4C
$GPGGQ,031457.00,010125,4742.4466373,N,01617.9731215,E,1,21,3.457,626.0989,M*35
$GPGFA,031457.00,15.739,23.844,1.655,0.871,8.792,2.908,,VVV*09
$GPLLK,031457.00,010125,,M,,M,1,21,1.5,,M*08
$GNGMP,031457.00,,,,,DAAA,21,0.6,,,,*57
$GPGMP,031457.00,,,,,,05,,,,1.0,123*7D
$GLGMP,031457.00,,,,,,05,,,,,*7E
$GAGMP,031457.00,,,,,,05,,,,,*73
$GBGMP,031457.00,,,,,,06,,,,,*73
$PSSN,SNC,[0,270915000,2347]*4C
$GPZDA,031502.00,01,01,2025,,*66
$GPDTM,W84,,00.0000000,N,00.0000000,E,00.0000000,W84*5F
$GPRMC,031502.00,A,4742.4466368,N,01617.9731071,E,0.0,,010125,5.1,E,D*1B
$GPGLL,4742.4466368,N,01617.9731071,E,031502.00,A,D*6A
$GPGGA,031502.00,4742.4466368,N,01617.9731071,E,2,21,0.6,626.0808,M,43.2111,M,2.0,0123*46
$GNGNS,031502.00,4742.4466368,N,01617.9731071,E,DAAA,21,0.6,626.0808,43.2111,,*58
$GPGNS,031502.00,,,,,,05,,,,2.0,123*7F
$GLGNS,031502.00,,,,,,05,,,,,*7F
$GAGNS,031502.00,,,,,,05,,,,,*72
$GBGNS,031502.00,,,,,,06,,,,,*72
$GPLLQ,031502.00,010125,,M,,M,1,21,2.806,,M*1B
$GPVTG,,T,,M,0.00,N,0.01,K,D*27
$GPHDT,,T*1B
$GPTHS,,V*0E
$GPROT,,V*08
$PSSN,HRP,031502.00,010125,,,,,,,00,0,,*64
$PTNL,AVR,031502.00,,Yaw,,Tilt,,,,0,,00*32
$GPGSA,A,3,03,04,06,07,09,,,,,,,,1.2,0.6,1.1*38
$GPGSA,A,3,71,80,85,86,87,,,,,,,,1.2,0.6,1.1*35
$GPGSA,A,3,05,06,09,34,36,,,,,,,,1.2,0.6,1.1*3F
$GPGSA,A,3,09,12,19,20,22,35,,,,,,,1.2,0.6,1.1*31
$GPGST,031502.00,3.962,1.344,0.706,8.541,1.333,0.726,2.360*51
$GPGBS,031502.00,6.396,3.965,10.700,80,0.0001,11.157,6.168*5C
$GPGRS,031502.00,1,0.4,0.3,-1.0,-1.2,0.8,,,,,,,*68
$GPGRS,031502.00,1,-1.2,11.2,7.2,-3.4,-2.4,,,,,,,*7D
$GPGRS,031502.00,1,0.2,0.7,0.9,0.5,-0.2,,,,,,,*43
$GPGRS,031502.00,1,-0.1,0.1,-1.3,-1.3,-3.6,1.8,,,,,,*47
$GPGSV,5,1,17,04,78,052,49,11,17,318,32,26,11,066,,07,20,182,42*7B
$GPGSV,5,2,17,19,17,254,33,31,19,043,21,03,45,102,40,06,50,295,39*79
$GPGSV,5,3,17,09,70,251,46,17,08,230,30,02,04,163,,16,02,095,*74
$GPGSV,5,4,17,01,08,157,,36,35,170,40,34,31,208,,49,34,195,36*78
$GPGSV,5,5,17,61,03,257,*4B
$GLGSV,3,1,10,70,63,028,34,80,27,098,38,87,23,331,42,79,23,039,32*63
$GLGSV,3,2,10,85,31,202,39,71,49,284,51,86,53,279,48,73,04,146,*6A
$GLGSV,3,3,10,69,06,069,,72,05,262,25*63
$GAGSV,4,1,13,09,72,056,46,11,14,159,20,18,12,250,,04,21,058,24*69
$GAGSV,4,2,13,34,51,299,42,36,58,191,47,06,47,059,42,05,50,239,42*68
$GAGSV,4,3,13,21,01,010,,23,08,056,,31,01,102,,03,01,238,*6F
$GAGSV,4,4,13,15,06,324,33*5D
$GBGSV,5,1,20,19,78,333,47,37,26,065,35,39,18,039,29,12,16,324,41*69
$GBGSV,5,2,20,05,23,128,,16,27,044,32,46,26,125,,06,29,047,33*6C
$GBGSV,5,3,20,44,28,301,35,22,29,273,38,35,35,246,37,58,28,106,*63
$GBGSV,5,4,20,09,40,058,38,20,41,075,49,48,63,066,,23,02,022,*61
$GBGSV,5,5,20,02,07,106,,36,01,168,,29,08,192,,60,08,110,*67
$GPGGA,031502.00,,,,,0,00,,,M,,M,,*4D
$PTNL,GGK,031502.00,010125,4742.4466368,N,01617.9731071,E,1,21,1.2,EHT669.2919,M*46
$GPGGQ,031502.00,010125,4742.4466368,N,01617.9731071,E,1,21,2.806,626.0808,M*3F
$GPGFA,031502.00,12.778,19.354,1.344,0.706,8.541,2.360,,VVV*0B
$GPLLK,031502.00,010125,,M,,M,1,21,1.5,,M*09
$GNGMP,031502.00,,,,,DAAA,21,0.6,,,,*56
$GPGMP,031502.00,,,,,,05,,,,2.0,123*7F
$GLGMP,031502.00,,,,,,05,,,,,*7F
$GAGMP,031502.00,,,,,,05,,,,,*72
$GBGMP,031502.00,,,,,,06,,,,,*72
$PSSN,SNC,[0,270920000,2347]*4A
$GPZDA,031507.00,01,01,2025,,*63
$GPDTM,W84,,00.0000000,N,00.0000000,E,00.0000000,W84*5F
$GPRMC,031507.00,A,4742.4466333,N,01617.9730999,E,0.0,,010125,5.1,E,D*1E
$GPGLL,4742.4466333,N,01617.9730999,E,031507.00,A,D*6F
$GPGGA,031507.00,4742.4466333,N,01617.9730999,E,2,22,0.7,626.0713,M,43.2111,M,3.0,0123*45
$GNGNS,031507.00,4742.4466333,N,01617.9730999,E,DAAA,22,0.7,626.0713,43.2111,,*5A
$GPGNS,031507.00,,,,,,06,,,,3.0,123*78
$GLGNS,031507.00,,,,,,04,,,,,*7B
$GAGNS,031507.00,,,,,,05,,,,,*77
$GBGNS,031507.00,,,,,,07,,,,,*76
$GPLLQ,031507.00,010125,,M,,M,1,22,2.744,,M*14
$GPVTG,,T,,M,0.00,N,0.01,K,D*27
$GPHDT,,T*1B
$GPTHS,,V*0E
$GPROT,,V*08
$PSSN,HRP,031507.00,010125,,,,,,,00,0,,*61
$PTNL,AVR,031507.00,,Yaw,,Tilt,,,,0,,00*37
$GPGSA,A,3,03,04,06,07,09,11,,,,,,,1.2,0.7,1.1*39
$GPGSA,A,3,71,85,86,87,,,,,,,,,1.2,0.7,1.1*3C
$GPGSA,A,3,05,06,09,34,36,,,,,,,,1.2,0.7,1.1*3E
$GPGSA,A,3,09,12,19,20,22,35,44,,,,,,1.2,0.7,1.1*30
$GPGST,031507.00,4.579,1.354,0.822,21.275,1.296,0.910,2.241*61
$GPGBS,031507.00,4.168,4.180,6.881,11,0.0001,3.524,1.084*52
$GPGRS,031507.00,1,0.7,-0.1,-0.6,-1.6,0.3,3.5,,,,,,*61
$GPGRS,031507.00,1,-1.2,15.4,-4.3,-1.9,,,,,,,,*5F
$GPGRS,031507.00,1,0.4,0.6,1.0,-0.2,-0.3,,,,,,,*62
$GPGRS,031507.00,1,-0.8,-1.4,-0.7,-1.2,-1.4,4.5,2.9,,,,,*4B
$GPGSV,5,1,17,04,78,052,48,11,17,318,35,26,11,066,,07,20,182,41*7E
$GPGSV,5,2,17,19,17,254,32,31,19,043,30,03,45,102,41,06,50,295,39*79
$GPGSV,5,3,17,09,70,251,45,17,08,230,29,02,04,163,,16,02,095,*7F
$GPGSV,5,4,17,01,08,157,,36,35,170,40,34,31,208,,49,34,195,37*79
$GPGSV,5,5,17,61,03,257,*4B
$GLGSV,3,1,10,70,63,028,34,80,27,097,29,87,23,331,43,79,23,039,32*6D
$GLGSV,3,2,10,85,31,202,37,71,49,284,51,86,53,279,48,73,04,146,*64
$GLGSV,3,3,10,69,06,069,,72,05,262,25*63
$GAGSV,4,1,13,09,72,056,47,11,14,159,21,18,12,250,,04,21,058,23*6E
$GAGSV,4,2,13,34,51,299,43,36,58,191,47,06,46,059,42,05,50,239,43*69
$GAGSV,4,3,13,21,01,010,,23,08,056,,31,02,102,,03,01,238,*6C
$GAGSV,4,4,13,15,06,324,33*5D
$GBGSV,5,1,20,19,78,333,46,37,26,065,34,39,18,039,28,12,16,324,40*69
$GBGSV,5,2,20,05,23,128,,16,27,044,30,46,26,125,,06,29,047,31*6C
$GBGSV,5,3,20,44,28,301,37,22,29,273,39,35,35,246,35,58,28,106,*62
$GBGSV,5,4,20,09,40,058,38,20,41,076,49,48,63,066,,23,02,022,*62
$GBGSV,5,5,20,02,07,106,,36,01,168,,29,08,192,,60,08,110,*67
$GPGGA,031507.00,,,,,0,00,,,M,,M,,*48
$PTNL,GGK,031507.00,010125,4742.4466333,N,01617.9730999,E,1,22,1.2,EHT669.2824,M*4F
$GPGGQ,031507.00,010125,4742.4466333,N,01617.9730999,E,1,22,2.744,626.0713,M*35
$GPGFA,031507.00,12.871,18.374,1.354,0.822,21.275,2.241,,VVV*3A
$GPLLK,031507.00,010125,,M,,M,1,22,1.5,,M*0F
$GNGMP,031507.00,,,,,DAAA,22,0.7,,,,*51
$GPGMP,031507.00,,,,,,06,,,,3.0,123*78
$GLGMP,031507.00,,,,,,04,,,,,*7B
$GAGMP,031507.00,,,,,,05,,,,,*77
$GBGMP,031507.00,,,,,,07,,,,,*76
$PSSN,SNC,[0,270925000,2347]*4F
$GPZDA,031512.00,01,01,2025,,*67
$GPDTM,W84,,00.0000000,N,00.0000000,E,00.0000000,W84*5F
$GPRMC,031512.00,A,4742.4466258,N,01617.9730824,E,0.0,,010125,5.1,E,D*11
$GPGLL,4742.4466258,N,01617.9730824,E,031512.00,A,D*60
$GPGGA,031512.00,4742.4466258,N,01617.9730824,E,2,20,0.7,626.0760,M,43.2111,M,4.0,0123*4B
$GNGNS,031512.00,4742.4466258,N,01617.9730824,E,DAAA,20,0.7,626.0760,43.2111,,*53
$GPGNS,031512.00,,,,,,05,,,,4.0,123*78
$GLGNS,031512.00,,,,,,04,,,,,*7F
$GAGNS,031512.00,,,,,,05,,,,,*73
$GBGNS,031512.00,,,,,,06,,,,,*73
$GPLLQ,031512.00,010125,,M,,M,1,20,3.684,,M*1E
$GPVTG,,T,,M,0.00,N,0.00,K,D*26
$GPHDT,,T*1B
$GPTHS,,V*0E
$GPROT,,V*08
$PSSN,HRP,031512.00,010125,,,,,,,00,0,,*65
$PTNL,AVR,031512.00,,Yaw,,Tilt,,,,0,,00*33
$GPGSA,A,3,03,04,06,07,09,,,,,,,,1.3,0.7,1.1*38
$GPGSA,A,3,71,85,86,87,,,,,,,,,1.3,0.7,1.1*3D
$GPGSA,A,3,05,06,09,34,36,,,,,,,,1.3,0.7,1.1*3F
$GPGSA,A,3,09,12,19,20,22,44,,,,,,,1.3,0.7,1.1*37
$GPGST,031512.00,4.812,1.749,0.823,4.203,1.745,0.831,3.136*51
$GPGBS,031512.00,6.619,4.258,11.342,85,0.0001,15.958,6.117*50
$GPGRS,031512.00,1,1.7,-0.0,-1.0,-1.3,-0.3,,,,,,,*62
$GPGRS,031512.00,1,-1.0,16.0,-4.3,-1.9,,,,,,,,*5E
$GPGRS,031512.00,1,0.2,0.5,1.3,0.2,0.0,,,,,,,*63
$GPGRS,031512.00,1,-1.1,-2.9,-1.1,-1.3,0.9,1.5,,,,,,*4E
$GPGSV,5,1,17,04,78,052,48,11,17,318,34,26,11,066,,07,20,182,41*7F
$GPGSV,5,2,17,19,17,254,30,31,19,043,31,03,45,102,41,06,50,295,38*7B
$GPGSV,5,3,17,09,70,251,45,17,08,230,28,02,04,163,,16,02,095,*7E
$GPGSV,5,4,17,01,08,157,,36,35,170,40,34,31,208,,49,34,195,38*76
$GPGSV,5,5,17,61,03,257,*4B
$GLGSV,3,1,10,70,63,028,34,80,27,097,29,87,23,331,43,79,23,039,32*6D
$GLGSV,3,2,10,85,31,202,35,71,49,284,50,86,53,279,48,73,04,146,*67
$GLGSV,3,3,10,69,06,069,,72,05,262,23*65
$GAGSV,4,1,13,09,72,056,48,11,14,159,23,18,12,250,,04,21,058,24*64
$GAGSV,4,2,13,34,51,299,43,36,58,191,47,06,46,059,42,05,50,239,44*6E
$GAGSV,4,3,13,21,01,010,,23,08,056,,31,02,102,,03,01,238,*6C
$GAGSV,4,4,13,15,06,324,32*5C
$GBGSV,5,1,20,19,78,333,46,37,26,065,34,39,18,039,27,12,16,324,40*66
$GBGSV,5,2,20,05,23,128,,16,27,044,28,46,26,125,,06,29,047,32*66
$GBGSV,5,3,20,44,28,301,37,22,29,273,40,35,35,246,33,58,28,106,*6A
$GBGSV,5,4,20,09,40,058,37,20,41,076,48,48,63,067,,23,02,022,*6D
$GBGSV,5,5,20,02,07,106,,36,01,168,,29,07,192,19,60,08,110,*60
$GPGGA,031512.00,,,,,0,00,,,M,,M,,*4C
$PTNL,GGK,031512.00,010125,4742.4466258,N,01617.9730824,E,1,20,1.3,EHT669.2870,M*42
$GPGGQ,031512.00,010125,4742.4466258,N,01617.9730824,E,1,20,3.684,626.0760,M*30
$GPGFA,031512.00,16.629,25.714,1.749,0.823,4.203,3.136,,VVV*08
$GPLLK,031512.00,010125,,M,,M,1,20,1.5,,M*09
$GNGMP,031512.00,,,,,DAAA,20,0.7,,,,*57
$GPGMP,031512.00,,,,,,05,,,,4.0,123*78
$GLGMP,031512.00,,,,,,04,,,,,*7F
$GAGMP,031512.00,,,,,,05,,,,,*73
$GBGMP,031512.00,,,,,,06,,,,,*73
$PSSN,SNC,[0,270930000,2347]*4B
$GPZDA,031517.00,01,01,2025,,*62
$GPDTM,W84,,00.0000000,N,00.0000000,E,00.0000000,W84*5F
$GPRMC,031517.00,A,4742.4466255,N,01617.9730560,E,0.0,,010125,5.1,E,D*14
$GPGLL,4742.4466255,N,01617.9730560,E,031517.00,A,D*65
$GPGGA,031517.00,4742.4466255,N,01617.9730560,E,2,19,0.7,626.0754,M,43.2111,M,1.0,0123*46
$GNGNS,031517.00,4742.4466255,N,01617.9730560,E,DAAA,19,0.7,626.0754,43.2111,,*5B
$GPGNS,031517.00,,,,,,05,,,,1.0,123*78
$GLGNS,031517.00,,,,,,03,,,,,*7D
$GAGNS,031517.00,,,,,,05,,,,,*76
$GBGNS,031517.00,,,,,,06,,,,,*76
$GPLLQ,031517.00,010125,,M,,M,1,19,2.693,,M*16
$GPVTG,,T,,M,0.01,N,0.01,K,D*26
$GPHDT,,T*1B
$GPTHS,,V*0E
$GPROT,,V*08
$PSSN,HRP,031517.00,010125,,,,,,,00,0,,*60
$PTNL,AVR,031517.00,,Yaw,,Tilt,,,,0,,00*36
$GPGSA,A,3,03,04,06,07,09,,,,,,,,1.4,0.7,1.1*3F
$GPGSA,A,3,71,86,87,,,,,,,,,,1.4,0.7,1.1*37
$GPGSA,A,3,05,06,09,34,36,,,,,,,,1.4,0.7,1.1*38
$GPGSA,A,3,09,12,19,20,22,44,,,,,,,1.4,0.7,1.1*30
$GPGST,031517.00,2.663,1.298,0.676,8.579,1.287,0.695,2.261*50
$GPGBS,031517.00,6.564,3.991,10.855,03,0.0001,1.368,0.653*6A
$GPGRS,031517.00,1,1.4,0.2,-0.9,-1.0,0.3,,,,,,,*6D
$GPGRS,031517.00,1,-0.9,-6.0,-2.3,,,,,,,,,*42
$GPGRS,031517.00,1,-0.2,0.5,1.4,0.2,-0.3,,,,,,,*62
$GPGRS,031517.00,1,-1.5,-4.6,-2.0,-1.9,1.7,-1.5,,,,,,*6C
$GPGSV,5,1,17,04,78,052,48,11,17,318,34,26,11,066,,07,20,182,41*7F
$GPGSV,5,2,17,19,17,254,,31,19,043,31,03,45,102,39,06,50,295,37*78
$GPGSV,5,3,17,09,70,251,45,17,07,230,26,02,04,163,,16,02,095,*7F
$GPGSV,5,4,17,01,08,157,,36,35,170,41,34,31,208,,49,34,195,37*78
$GPGSV,5,5,17,61,03,257,*4B
$GLGSV,3,1,10,70,63,028,34,80,27,097,24,87,23,331,42,79,23,039,25*67
$GLGSV,3,2,10,85,31,202,21,71,49,284,51,86,53,279,47,73,04,146,*6C
$GLGSV,3,3,10,69,06,069,,72,05,262,26*60
$GAGSV,4,1,13,09,72,056,49,11,14,159,23,18,12,250,,04,21,058,27*66
$GAGSV,4,2,13,34,51,298,44,36,58,191,47,06,46,059,42,05,50,239,44*68
$GAGSV,4,3,13,21,01,010,,23,08,056,,31,02,102,,03,01,238,*6C
$GAGSV,4,4,13,15,06,324,30*5E
$GBGSV,5,1,20,19,78,333,46,37,26,065,29,12,16,324,38,39,18,039,29*6B
$GBGSV,5,2,20,05,23,128,,16,27,044,28,46,26,125,,06,29,047,33*67
$GBGSV,5,3,20,44,28,301,36,22,29,273,40,35,35,246,29,58,28,106,*60
$GBGSV,5,4,20,09,40,058,37,20,41,076,48,48,63,067,,23,02,022,*6D
$GBGSV,5,5,20,02,07,106,,36,01,168,,29,07,192,,60,08,110,*68
$GPGGA,031517.00,,,,,0,00,,,M,,M,,*49
$PTNL,GGK,031517.00,010125,4742.4466255,N,01617.9730560,E,1,19,1.4,EHT669.2865,M*4E
$GPGGQ,031517.00,010125,4742.4466255,N,01617.9730560,E,1,19,2.693,626.0754,M*3F
$GPGFA,031517.00,12.342,18.541,1.298,0.676,8.579,2.261,,VVV*0C
$GPLLK,031517.00,010125,,M,,M,1,19,1.6,,M*05
$GNGMP,031517.00,,,,,DAAA,19,0.7,,,,*58
$GPGMP,031517.00,,,,,,05,,,,1.0,123*78
$GLGMP,031517.00,,,,,,03,,,,,*7D
$GAGMP,031517.00,,,,,,05,,,,,*76
$GBGMP,031517.00,,,,,,06,,,,,*76
$PSSN,SNC,[0,270935000,2347]*4E
$GPZDA,031522.00,01,01,2025,,*64
$GPDTM,W84,,00.0000000,N,00.0000000,E,00.0000000,W84*5F
$GPRMC,031522.00,A,4742.4466202,N,01617.9730413,E,0.0,,010125,5.1,E,D*15
$GPGLL,4742.4466202,N,01617.9730413,E,031522.00,A,D*64
$GPGGA,031522.00,4742.4466202,N,01617.9730413,E,2,20,0.7,626.0695,M,43.2111,M,2.0,0123*42
$GNGNS,031522.00,4742.4466202,N,01617.9730413,E,DAAA,20,0.7,626.0695,43.2111,,*5C
$GPGNS,031522.00,,,,,,05,,,,2.0,123*7D
$GLGNS,031522.00,,,,,,04,,,,,*7C
$GAGNS,031522.00,,,,,,05,,,,,*70
$GBGNS,031522.00,,,,,,06,,,,,*70
$GPLLQ,031522.00,010125,,M,,M,1,20,3.306,,M*12
$GPVTG,,T,,M,0.00,N,0.01,K,D*27
$GPHDT,,T*1B
$GPTHS,,V*0E
$GPROT,,V*08
$PSSN,HRP,031522.00,010125,,,,,,,00,0,,*66
$PTNL,AVR,031522.00,,Yaw,,Tilt,,,,0,,00*30
$GPGSA,A,3,03,04,06,07,09,,,,,,,,1.3,0.7,1.1*38
$GPGSA,A,3,71,85,86,87,,,,,,,,,1.3,0.7,1.1*3D
$GPGSA,A,3,05,06,09,34,36,,,,,,,,1.3,0.7,1.1*3F
$GPGSA,A,3,09,12,19,20,22,35,,,,,,,1.3,0.7,1.1*31
$GPGST,031522.00,6.452,1.573,0.807,9.893,1.555,0.840,2.794*51
$GPGBS,031522.00,6.398,4.173,11.311,35,0.0001,20.426,8.550*53
$GPGRS,031522.00,1,1.2,0.1,-0.2,-1.3,0.1,,,,,,,*64
$GPGRS,031522.00,1,-0.3,-3.4,-5.7,-2.3,,,,,,,,*4E
$GPGRS,031522.00,1,-0.4,-0.1,0.9,0.6,-1.2,,,,,,,*43
$GPGRS,031522.00,1,-2.4,-7.0,-2.2,-2.7,0.9,20.4,,,,,,*72
$GPGSV,5,1,17,04,78,052,47,11,17,318,33,26,11,066,,07,20,182,42*74
$GPGSV,5,2,17,19,17,254,,31,19,043,30,03,45,102,38,06,50,295,37*78
$GPGSV,5,3,17,09,70,251,43,17,07,230,25,02,04,163,,16,02,094,*7B
$GPGSV,5,4,17,01,08,157,,36,35,170,40,34,31,208,,49,34,195,37*79
$GPGSV,5,5,17,61,03,257,*4B
$GLGSV,3,1,10,70,63,028,33,80,27,097,22,87,23,331,42,79,23,039,33*61
$GLGSV,3,2,10,85,31,202,36,71,49,284,52,86,53,279,46,73,04,146,*68
$GLGSV,3,3,10,69,06,069,,72,05,262,*64
$GAGSV,4,1,13,09,72,056,49,11,14,159,22,18,12,250,,04,21,058,29*69
$GAGSV,4,2,13,34,51,298,44,36,58,191,47,06,46,059,42,05,50,239,45*69
$GAGSV,4,3,13,21,01,009,,23,08,056,,31,02,102,,03,01,238,*64
$GAGSV,4,4,13,15,06,324,29*56
$GBGSV,5,1,20,19,78,334,47,37,26,064,29,12,16,324,38,39,18,039,25*60
$GBGSV,5,2,20,05,23,128,,16,27,044,25,46,26,125,,06,29,047,33*6A
$GBGSV,5,3,20,44,28,301,35,22,29,273,40,35,35,246,37,58,28,106,*6C
$GBGSV,5,4,20,09,40,058,37,20,41,076,47,48,63,067,,23,02,022,*62
$GBGSV,5,5,20,02,07,106,,36,01,168,,29,07,192,,60,08,110,*68
$GPGGA,031522.00,,,,,0,00,,,M,,M,,*4F
$PTNL,GGK,031522.00,010125,4742.4466202,N,01617.9730413,E,1,20,1.3,EHT669.2805,M*44
$GPGGQ,031522.00,010125,4742.4466202,N,01617.9730413,E,1,20,3.306,626.0695,M*30
$GPGFA,031522.00,14.952,22.911,1.573,0.807,9.893,2.794,,VVV*0A
$GPLLK,031522.00,010125,,M,,M,1,20,1.6,,M*09
$GNGMP,031522.00,,,,,DAAA,20,0.7,,,,*54
$GPGMP,031522.00,,,,,,05,,,,2.0,123*7D
$GLGMP,031522.00,,,,,,04,,,,,*7C
$GAGMP,031522.00,,,,,,05,,,,,*70
$GBGMP,031522.00,,,,,,06,,,,,*70
$PSSN,SNC,[0,270940000,2347]*4C
$GPZDA,031527.00,01,01,2025,,*61
$GPDTM,W84,,00.0000000,N,00.0000000,E,00.0000000,W84*5F
$GPRMC,031527.00,A,4742.4466146,N,01617.9730329,E,0.0,,010125,5.1,E,D*1D
$GPGLL,4742.4466146,N,01617.9730329,E,031527.00,A,D*6C
$GPGGA,031527.00,4742.4466146,N,01617.9730329,E,2,19,0.7,626.0546,M,43.2111,M,3.0,0123*4C
$GNGNS,031527.00,4742.4466146,N,01617.9730329,E,DAAA,19,0.7,626.0546,43.2111,,*53
$GPGNS,031527.00,,,,,,05,,,,3.0,123*79
$GLGNS,031527.00,,,,,,03,,,,,*7E
$GAGNS,031527.00,,,,,,05,,,,,*75
$GBGNS,031527.00,,,,,,06,,,,,*75
$GPLLQ,031527.00,010125,,M,,M,1,19,2.955,,M*10
$GPVTG,,T,,M,0.00,N,0.00,K,D*26
$GPHDT,,T*1B
$GPTHS,,V*0E
$GPROT,,V*08
$PSSN,HRP,031527.00,010125,,,,,,,00,0,,*63
$PTNL,AVR,031527.00,,Yaw,,Tilt,,,,0,,00*35
$GPGSA,A,3,03,04,06,07,09,,,,,,,,1.4,0.7,1.2*3C
$GPGSA,A,3,71,86,87,,,,,,,,,,1.4,0.7,1.2*34
$GPGSA,A,3,05,06,09,34,36,,,,,,,,1.4,0.7,1.2*3B
$GPGSA,A,3,09,12,19,20,22,35,,,,,,,1.4,0.7,1.2*35
$GPGST,031527.00,6.389,1.413,0.715,9.693,1.398,0.744,2.494*5F
$GPGBS,031527.00,6.704,4.263,11.730,35,0.0001,20.135,8.550*55
$GPGRS,031527.00,1,0.7,0.4,-0.7,-0.9,0.1,,,,,,,*6E
$GPGRS,031527.00,1,-0.1,-4.7,-0.5,,,,,,,,,*48
$GPGRS,031527.00,1,-0.7,-0.1,0.9,0.9,-1.1,,,,,,,*49
$GPGRS,031527.00,1,-3.1,-5.8,-1.7,-3.3,0.2,20.1,,,,,,*74
$GPGSV,5,1,17,04,78,052,46,11,17,318,34,26,11,066,,07,20,182,42*72
$GPGSV,5,2,17,19,17,254,27,31,19,043,33,03,45,102,39,06,50,295,38*70
$GPGSV,5,3,17,09,70,251,44,17,07,230,24,02,04,163,,16,02,094,*7D
$GPGSV,5,4,17,01,08,157,,36,35,170,41,34,31,208,,49,34,195,37*78
$GPGSV,5,5,17,61,03,257,*4B
$GLGSV,3,1,10,70,63,028,33,80,27,097,29,87,23,331,41,79,23,039,34*6E
$GLGSV,3,2,10,85,31,202,34,71,49,284,51,86,53,279,46,73,04,146,*69
$GLGSV,3,3,10,69,06,069,,72,05,262,24*62
$GAGSV,4,1,13,09,72,056,49,11,14,159,23,18,12,250,,04,21,058,30*60
$GAGSV,4,2,13,34,51,298,45,36,58,191,47,06,46,059,42,05,50,239,45*68
$GAGSV,4,3,13,21,01,009,,23,08,056,,31,02,102,,03,01,238,*64
$GAGSV,4,4,13,15,06,324,28*57
$GBGSV,5,1,20,19,78,334,47,37,26,064,35,12,16,324,38,39,18,039,25*6D
$GBGSV,5,2,20,05,23,128,,16,27,044,25,46,26,125,,06,29,047,33*6A
$GBGSV,5,3,20,44,28,301,34,22,29,273,39,35,35,246,37,58,28,106,*63
$GBGSV,5,4,20,09,40,058,37,20,41,076,47,48,63,067,,23,02,022,*62
$GBGSV,5,5,20,02,07,106,,36,01,168,,29,07,192,,60,08,110,*68
$GPGGA,031527.00,,,,,0,00,,,M,,M,,*4A
$PTNL,GGK,031527.00,010125,4742.4466146,N,01617.9730329,E,1,19,1.4,EHT669.2656,M*49
$GPGGQ,031527.00,010125,4742.4466146,N,01617.9730329,E,1,19,2.955,626.0546,M*32
$GPGFA,031527.00,13.437,20.454,1.413,0.715,9.693,2.494,,VVV*0E
$GPLLK,031527.00,010125,,M,,M,1,19,1.6,,M*06
$GNGMP,031527.00,,,,,DAAA,19,0.7,,,,*5B
$GPGMP,031527.00,,,,,,05,,,,3.0,123*79
$GLGMP,031527.00,,,,,,03,,,,,*7E
$GAGMP,031527.00,,,,,,05,,,,,*75
$GBGMP,031527.00,,,,,,06,,,,,*75
$PSSN,SNC,[0,270945000,2347]*49
$GPZDA,031532.00,01,01,2025,,*65
$GPDTM,W84,,00.0000000,N,00.0000000,E,00.0000000,W84*5F
$GPRMC,031532.00,A,4742.4466066,N,01617.9730190,E,0.0,,010125,5.1,E,D*1A
$GPGLL,4742.4466066,N,01617.9730190,E,031532.00,A,D*6B
$GPGGA,031532.00,4742.4466066,N,01617.9730190,E,2,20,0.7,626.0664,M,43.2111,M,3.7,0123*45
$GNGNS,031532.00,4742.4466066,N,01617.9730190,E,DAAA,20,0.7,626.0664,43.2111,,*5D
$GPGNS,031532.00,,,,,,06,,,,3.7,123*79
$GLGNS,031532.00,,,,,,04,,,,,*7D
$GAGNS,031532.00,,,,,,05,,,,,*71
$GBGNS,031532.00,,,,,,05,,,,,*72
$GPLLQ,031532.00,010125,,M,,M,1,20,2.604,,M*15
$GPVTG,,T,,M,0.00,N,0.01,K,D*27
$GPHDT,,T*1B
$GPTHS,,V*0E
$GPROT,,V*08
$PSSN,HRP,031532.00,010125,,,,,,,00,0,,*67
$PTNL,AVR,031532.00,,Yaw,,Tilt,,,,0,,00*31
$GPGSA,A,3,03,04,06,07,09,31,,,,,,,1.3,0.7,1.0*3B
$GPGSA,A,3,71,80,86,87,,,,,,,,,1.3,0.7,1.0*39
$GPGSA,A,3,05,06,09,34,36,,,,,,,,1.3,0.7,1.0*3E
$GPGSA,A,3,09,12,19,20,22,,,,,,,,1.3,0.7,1.0*36
$GPGST,031532.00,2.898,1.171,0.893,359.717,1.171,0.893,2.148*5B
$GPGBS,031532.00,4.677,3.519,8.184,31,0.0001,5.639,1.561*59
$GPGRS,031532.00,1,0.3,0.0,-0.4,-0.8,-0.2,5.6,,,,,,*6B
$GPGRS,031532.00,1,-1.1,-1.9,-4.1,0.9,,,,,,,,*61
$GPGRS,031532.00,1,-1.2,-0.7,0.5,0.6,-1.0,,,,,,,*4D
$GPGRS,031532.00,1,-3.7,-3.6,-2.5,-3.3,-2.4,,,,,,,*4B
$GPGSV,5,1,17,04,78,052,47,11,17,318,35,26,11,066,,07,20,182,44*74
$GPGSV,5,2,17,19,17,254,27,31,19,043,36,03,45,102,40,06,50,295,40*74
$GPGSV,5,3,17,09,70,251,45,17,07,230,23,02,04,163,,16,02,094,*7B
$GPGSV,5,4,17,01,08,157,,36,35,170,41,34,31,208,,49,34,195,36*79
$GPGSV,5,5,17,61,03,257,*4B
$GLGSV,3,1,10,70,63,028,32,80,27,097,36,87,23,331,40,79,23,039,34*60
$GLGSV,3,2,10,85,31,202,30,71,49,284,50,86,53,279,46,73,04,146,*6C
$GLGSV,3,3,10,69,06,069,,72,05,262,*64
$GAGSV,4,1,13,09,72,056,49,11,14,159,24,18,12,250,,04,21,058,31*66
$GAGSV,4,2,13,34,51,298,45,36,58,191,47,06,46,059,41,05,51,239,44*6B
$GAGSV,4,3,13,21,01,009,,23,08,056,,31,02,102,,03,01,239,*65
$GAGSV,4,4,13,15,06,324,29*56
$GBGSV,5,1,20,19,78,334,47,37,26,064,31,12,16,324,40,39,18,039,26*65
$GBGSV,5,2,20,05,23,128,,16,27,044,26,46,26,125,,06,29,047,33*69
$GBGSV,5,3,20,44,28,301,33,22,29,273,39,35,35,246,34,58,28,106,*67
$GBGSV,5,4,20,09,40,058,36,20,41,076,46,48,63,067,,23,02,022,*62
$GBGSV,5,5,20,02,07,106,,36,01,168,,29,07,192,,60,08,110,*68
$GPGGA,031532.00,,,,,0,00,,,M,,M,,*4E
$PTNL,GGK,031532.00,010125,4742.4466066,N,01617.9730190,E,1,20,1.3,EHT669.2774,M*42
$GPGGQ,031532.00,010125,4742.4466066,N,01617.9730190,E,1,20,2.604,626.0664,M*37
$GPGFA,031532.00,11.138,17.611,1.171,0.893,359.717,2.148,,VVV*0A
$GPLLK,031532.00,010125,,M,,M,1,20,1.5,,M*0B
$GNGMP,031532.00,,,,,DAAA,20,0.7,,,,*55
$GPGMP,031532.00,,,,,,06,,,,3.7,123*79
$GLGMP,031532.00,,,,,,04,,,,,*7D
$GAGMP,031532.00,,,,,,05,,,,,*71
$GBGMP,031532.00,,,,,,05,,,,,*72
$PSSN,SNC,[0,270950000,2347]*4D
$GPZDA,031537.00,01,01,2025,,*60
$GPDTM,W84,,00.0000000,N,00.0000000,E,00.0000000,W84*5F
$GPRMC,031537.00,A,4742.4466043,N,01617.9730040,E,0.0,,010125,5.1,E,D*14
$GPGLL,4742.4466043,N,01617.9730040,E,031537.00,A,D*65
$GPGGA,031537.00,4742.4466043,N,01617.9730040,E,2,20,0.7,626.0655,M,43.2111,M,1.0,0123*4C
$GNGNS,031537.00,4742.4466043,N,01617.9730040,E,DAAA,20,0.7,626.0655,43.2111,,*51
$GPGNS,031537.00,,,,,,05,,,,1.0,123*7A
$GLGNS,031537.00,,,,,,05,,,,,*79
$GAGNS,031537.00,,,,,,05,,,,,*74
$GBGNS,031537.00,,,,,,05,,,,,*77
$GPLLQ,031537.00,010125,,M,,M,1,20,2.270,,M*17
$GPVTG,,T,,M,0.00,N,0.01,K,D*27
$GPHDT,,T*1B
$GPTHS,,V*0E
$GPROT,,V*08
$PSSN,HRP,031537.00,010125,,,,,,,00,0,,*62
$PTNL,AVR,031537.00,,Yaw,,Tilt,,,,0,,00*34
$GPGSA,A,3,03,04,06,07,09,,,,,,,,1.3,0.7,1.1*38
$GPGSA,A,3,71,79,80,86,87,,,,,,,,1.3,0.7,1.1*36
$GPGSA,A,3,05,06,09,34,36,,,,,,,,1.3,0.7,1.1*3F
$GPGSA,A,3,09,12,19,20,22,,,,,,,,1.3,0.7,1.1*37
$GPGST,031537.00,3.086,1.084,0.548,9.524,1.073,0.569,1.918*59
$GPGBS,031537.00,6.385,3.975,11.068,06,0.0001,-1.212,0.638*45
$GPGRS,031537.00,1,0.6,0.2,-1.2,-0.2,0.2,,,,,,,*64
$GPGRS,031537.00,1,-0.9,6.9,-2.7,-4.1,0.4,,,,,,,*4C
$GPGRS,031537.00,1,-1.1,-0.8,0.6,0.8,-0.8,,,,,,,*40
$GPGRS,031537.00,1,-3.6,-2.1,-2.3,-2.7,-4.0,,,,,,,*48
$GPGSV,5,1,17,04,77,052,48,11,17,318,37,26,11,066,,07,20,182,44*76
$GPGSV,5,2,17,19,17,254,,31,19,043,37,03,45,102,39,06,50,295,40*7E
$GPGSV,5,3,17,09,70,251,45,17,07,230,26,02,03,163,,16,02,094,*79
$GPGSV,5,4,17,01,08,157,,36,35,170,41,34,31,208,,49,34,195,36*79
$GPGSV,5,5,17,61,03,257,*4B
$GLGSV,3,1,10,70,63,028,33,80,27,097,39,87,23,331,38,79,23,039,35*60
$GLGSV,3,2,10,85,31,202,26,71,49,285,50,86,53,279,47,73,04,146,*6B
$GLGSV,3,3,10,69,06,069,,72,05,262,*64
$GAGSV,4,1,13,09,72,056,49,11,14,159,23,18,12,250,,04,21,058,32*62
$GAGSV,4,2,13,34,51,298,45,36,58,191,47,06,46,059,41,05,51,239,44*6B
$GAGSV,4,3,13,21,01,009,,23,08,056,,31,02,102,,03,01,239,*65
$GAGSV,4,4,13,15,06,324,29*56
$GBGSV,5,1,20,19,78,334,47,37,26,064,31,12,16,324,40,39,18,039,26*65
$GBGSV,5,2,20,05,23,128,,16,27,044,29,46,26,125,,06,29,047,33*66
$GBGSV,5,3,20,44,28,301,32,22,29,273,38,35,35,246,31,58,28,106,*62
$GBGSV,5,4,20,09,40,058,36,20,41,076,46,48,63,067,,23,02,022,*62
$GBGSV,5,5,20,02,07,106,,36,01,168,,29,07,192,,60,08,110,*68
$GPGGA,031537.00,,,,,0,00,,,M,,M,,*4B
$PTNL,GGK,031537.00,010125,4742.4466043,N,01617.9730040,E,1,20,1.3,EHT669.2766,M*4F
$GPGGQ,031537.00,010125,4742.4466043,N,01617.9730040,E,1,20,2.270,626.0655,M*3C
$GPGFA,031537.00,10.308,15.730,1.084,0.548,9.524,1.918,,VVV*05
$GPLLK,031537.00,010125,,M,,M,1,20,1.5,,M*0E
$GNGMP,031537.00,,,,,DAAA,20,0.7,,,,*50
$GPGMP,031537.00,,,,,,05,,,,1.0,123*7A
$GLGMP,031537.00,,,,,,05,,,,,*79
$GAGMP,031537.00,,,,,,05,,,,,*74
$GBGMP,031537.00,,,,,,05,,,,,*77
$PSSN,SNC,[0,270955000,2347]*48
$GPZDA,031542.00,01,01,2025,,*62
$GPDTM,W84,,00.0000000,N,00.0000000,E,00.0000000,W84*5F
$GPRMC,031542.00,A,4742.4466075,N,01617.9729913,E,0.0,,010125,5.1,E,D*14
$GPGLL,4742.4466075,N,01617.9729913,E,031542.00,A,D*65
$GPGGA,031542.00,4742.4466075,N,01617.9729913,E,2,20,0.7,626.0626,M,43.2111,M,2.0,0123*4B
$GNGNS,031542.00,4742.4466075,N,01617.9729913,E,DAAA,20,0.7,626.0626,43.2111,,*55
$GPGNS,031542.00,,,,,,05,,,,2.0,123*7B
$GLGNS,031542.00,,,,,,05,,,,,*7B
$GAGNS,031542.00,,,,,,05,,,,,*76
$GBGNS,031542.00,,,,,,05,,,,,*75
$GPLLQ,031542.00,010125,,M,,M,1,20,1.794,,M*19
$GPVTG,,T,,M,0.00,N,0.01,K,D*27
$GPHDT,,T*1B
$GPTHS,,V*0E
$GPROT,,V*08
$PSSN,HRP,031542.00,010125,,,,,,,00,0,,*60
$PTNL,AVR,031542.00,,Yaw,,Tilt,,,,0,,00*36
$GPGSA,A,3,03,04,06,07,09,,,,,,,,1.3,0.7,1.1*38
$GPGSA,A,3,70,71,80,86,87,,,,,,,,1.3,0.7,1.1*3F
$GPGSA,A,3,05,06,09,34,36,,,,,,,,1.3,0.7,1.1*3F
$GPGSA,A,3,09,12,19,20,22,,,,,,,,1.3,0.7,1.1*37
$GPGST,031542.00,1.723,0.865,0.444,8.473,0.858,0.457,1.508*59
$GPGBS,031542.00,6.604,3.976,11.133,06,0.0001,-1.211,0.653*49
$GPGRS,031542.00,1,0.2,0.3,-1.2,0.2,-0.0,,,,,,,*61
$GPGRS,031542.00,1,0.0,-0.2,0.6,-3.8,-0.1,,,,,,,*42
$GPGRS,031542.00,1,-0.4,-0.3,1.4,1.8,-0.5,,,,,,,*42
$GPGRS,031542.00,1,-2.3,-1.0,-1.1,-1.3,-2.6,,,,,,,*4A
$GPGSV,5,1,17,04,77,052,48,11,17,318,37,26,11,066,,07,20,182,45*77
$GPGSV,5,2,17,19,17,254,33,31,19,043,37,03,45,102,38,06,50,295,41*7E
$GPGSV,5,3,17,09,70,251,45,17,07,230,27,02,03,163,,16,02,094,*78
$GPGSV,5,4,17,01,08,157,,36,35,170,41,34,31,208,,49,34,195,36*79
$GPGSV,5,5,17,61,03,257,*4B
$GLGSV,3,1,10,70,63,028,36,80,27,097,41,87,23,330,35,79,23,039,33*60
$GLGSV,3,2,10,85,31,202,29,71,49,285,49,86,53,279,47,73,04,146,*6C
$GLGSV,3,3,10,69,06,069,,72,05,262,28*6E
$GAGSV,4,1,13,09,72,056,48,11,14,159,24,18,12,250,,04,21,058,31*67
$GAGSV,4,2,13,34,51,298,46,36,58,191,47,06,46,059,41,05,51,239,44*68
$GAGSV,4,3,13,21,01,009,,23,08,056,,31,02,102,,03,01,239,*65
$GAGSV,4,4,13,15,06,324,29*56
$GBGSV,5,1,20,19,78,334,47,37,26,064,33,12,16,324,41,39,18,039,27*67
$GBGSV,5,2,20,05,23,128,,16,27,044,30,46,26,125,,06,29,047,33*6E
$GBGSV,5,3,20,44,28,301,34,22,29,273,39,35,35,246,25,58,28,106,*60
$GBGSV,5,4,20,09,40,058,37,20,41,076,45,48,63,067,,23,02,022,*60
$GBGSV,5,5,20,02,07,106,,36,01,168,,29,07,192,21,60,08,110,*6B
$GPGGA,031542.00,,,,,0,00,,,M,,M,,*49
$PTNL,GGK,031542.00,010125,4742.4466075,N,01617.9729913,E,1,20,1.3,EHT669.2736,M*4A
$GPGGQ,031542.00,010125,4742.4466075,N,01617.9729913,E,1,20,1.794,626.0626,M*34
$GPGFA,031542.00,8.223,12.363,0.865,0.444,8.473,1.508,,VVV*37
$GPLLK,031542.00,010125,,M,,M,1,20,1.5,,M*0C
$GNGMP,031542.00,,,,,DAAA,20,0.7,,,,*52
$GPGMP,031542.00,,,,,,05,,,,2.0,123*7B
$GLGMP,031542.00,,,,,,05,,,,,*7B
$GAGMP,031542.00,,,,,,05,,,,,*76
$GBGMP,031542.00,,,,,,05,,,,,*75
$PSSN,SNC,[0,270960000,2347]*4E
$GPZDA,031547.00,01,01,2025,,*67
$GPDTM,W84,,00.0000000,N,00.0000000,E,00.0000000,W84*5F
$GPRMC,031547.00,A,4742.4466112,N,01617.9729831,E,0.0,,010125,5.1,E,D*10
$GPGLL,4742.4466112,N,01617.9729831,E,031547.00,A,D*61
$GPGGA,031547.00,4742.4466112,N,01617.9729831,E,2,20,0.7,626.0642,M,43.2111,M,3.0,0123*4C
$GNGNS,031547.00,4742.4466112,N,01617.9729831,E,DAAA,20,0.7,626.0642,43.2111,,*53
$GPGNS,031547.00,,,,,,05,,,,3.0,123*7F
$GLGNS,031547.00,,,,,,04,,,,,*7F
$GAGNS,031547.00,,,,,,05,,,,,*73
$GBGNS,031547.00,,,,,,06,,,,,*73
$GPLLQ,031547.00,010125,,M,,M,1,20,2.246,,M*15
$GPVTG,,T,,M,0.01,N,0.01,K,D*26
$GPHDT,,T*1B
$GPTHS,,V*0E
$GPROT,,V*08
$PSSN,HRP,031547.00,010125,,,,,,,00,0,,*65
$PTNL,AVR,031547.00,,Yaw,,Tilt,,,,0,,00*33
$GPGSA,A,3,03,04,06,07,09,,,,,,,,1.3,0.7,1.1*38
$GPGSA,A,3,70,71,80,86,,,,,,,,,1.3,0.7,1.1*30
$GPGSA,A,3,05,06,09,34,36,,,,,,,,1.3,0.7,1.1*3F
$GPGSA,A,3,09,12,19,20,22,37,,,,,,,1.3,0.7,1.1*33
$GPGST,031547.00,5.089,1.082,0.546,7.982,1.074,0.561,1.891*5E
$GPGBS,031547.00,7.078,4.049,11.819,37,0.0001,15.693,8.623*58
$GPGRS,031547.00,1,-0.1,0.2,-0.4,0.4,-0.1,,,,,,,*4B
$GPGRS,031547.00,1,1.3,0.4,7.5,-4.0,,,,,,,,*67
$GPGRS,031547.00,1,-0.2,-0.1,1.9,2.2,-0.5,,,,,,,*47
$GPGRS,031547.00,1,-0.9,0.5,-0.5,-0.3,-2.4,15.7,,,,,,*75
$GPGSV,5,1,17,04,77,052,47,11,17,318,38,26,11,066,,07,20,182,45*77
$GPGSV,5,2,17,19,17,254,36,31,19,043,36,03,45,102,37,06,50,295,41*75
$GPGSV,5,3,17,09,70,251,46,17,07,230,,02,03,163,,16,02,094,*7E
$GPGSV,5,4,17,01,08,157,,36,35,170,41,34,31,208,,49,34,195,36*79
$GPGSV,5,5,17,61,03,257,*4B
$GLGSV,3,1,10,70,63,029,37,80,27,097,41,87,23,330,33,79,23,039,34*61
$GLGSV,3,2,10,85,31,202,33,71,49,285,49,86,53,279,46,73,04,146,*66
$GLGSV,3,3,10,69,06,069,,72,06,262,27*62
$GAGSV,4,1,13,09,72,056,48,11,14,159,24,18,12,250,,04,21,058,30*66
$GAGSV,4,2,13,34,51,298,45,36,58,191,46,06,46,059,41,05,51,239,44*6A
$GAGSV,4,3,13,21,01,009,,23,08,056,,31,02,102,,03,01,239,*65
$GAGSV,4,4,13,15,06,324,31*5F
$GBGSV,5,1,20,19,78,334,47,37,26,064,36,12,16,324,42,39,18,039,25*63
$GBGSV,5,2,20,05,23,128,,16,27,044,20,46,26,125,,06,29,047,33*6F
$GBGSV,5,3,20,44,28,301,33,22,29,274,40,35,35,245,23,58,28,106,*6B
$GBGSV,5,4,20,09,40,058,37,20,41,076,44,48,63,067,,23,02,022,*61
$GBGSV,5,5,20,02,07,106,,36,02,168,,29,07,192,,60,08,110,*6B
$GPGGA,031547.00,,,,,0,00,,,M,,M,,*4C
$PTNL,GGK,031547.00,010125,4742.4466112,N,01617.9729831,E,1,20,1.3,EHT669.2753,M*4D
$GPGGQ,031547.00,010125,4742.4466112,N,01617.9729831,E,1,20,2.246,626.0642,M*3B
$GPGFA,031547.00,10.286,15.508,1.082,0.546,7.982,1.891,,VVV*0A
$GPLLK,031547.00,010125,,M,,M,1,20,1.5,,M*09
$GNGMP,031547.00,,,,,DAAA,20,0.7,,,,*57
$GPGMP,031547.00,,,,,,05,,,,3.0,123*7F
$GLGMP,031547.00,,,,,,04,,,,,*7F
$GAGMP,031547.00,,,,,,05,,,,,*73
$GBGMP,031547.00,,,,,,06,,,,,*73
$PSSN,SNC,[0,270965000,2347]*4B
$GPZDA,031552.00,01,01,2025,,*63
$GPDTM,W84,,00.0000000,N,00.0000000,E,00.0000000,W84*5F
$GPRMC,031552.00,A,4742.4466121,N,01617.9729800,E,0.0,,010125,5.1,E,D*16
$GPGLL,4742.4466121,N,01617.9729800,E,031552.00,A,D*67
$GPGGA,031552.00,4742.4466121,N,01617.9729800,E,2,21,0.7,626.0720,M,43.2111,M,4.0,0123*49
$GNGNS,031552.00,4742.4466121,N,01617.9729800,E,DAAA,21,0.7,626.0720,43.2111,,*51
$GPGNS,031552.00,,,,,,05,,,,4.0,123*7C
$GLGNS,031552.00,,,,,,05,,,,,*7A
$GAGNS,031552.00,,,,,,05,,,,,*77
$GBGNS,031552.00,,,,,,06,,,,,*77
$GPLLQ,031552.00,010125,,M,,M,1,21,2.704,,M*13
$GPVTG,,T,,M,0.00,N,0.01,K,D*27
$GPHDT,,T*1B
$GPTHS,,V*0E
$GPROT,,V*08
$PSSN,HRP,031552.00,010125,,,,,,,00,0,,*61
$PTNL,AVR,031552.00,,Yaw,,Tilt,,,,0,,00*37
$GPGSA,A,3,03,04,06,07,09,,,,,,,,1.3,0.7,1.0*39
$GPGSA,A,3,70,71,79,80,86,,,,,,,,1.3,0.7,1.0*3F
$GPGSA,A,3,05,06,09,34,36,,,,,,,,1.3,0.7,1.0*3E
$GPGSA,A,3,09,12,19,20,22,37,,,,,,,1.3,0.7,1.0*32
$GPGST,031552.00,5.677,1.295,0.678,8.056,1.286,0.696,2.274*5E
$GPGBS,031552.00,6.967,4.150,11.561,80,0.0001,13.592,6.169*5E
$GPGRS,031552.00,1,-0.4,-0.0,-0.2,0.2,-0.1,,,,,,,*65
$GPGRS,031552.00,1,0.7,0.1,4.0,13.6,-3.1,,,,,,,*79
$GPGRS,031552.00,1,0.0,-0.4,2.0,2.4,-0.1,,,,,,,*61
$GPGRS,031552.00,1,-0.7,1.0,-0.4,0.9,-1.9,15.0,,,,,,*54
$GPGSV,5,1,17,04,77,052,47,11,18,318,38,26,11,066,,07,20,182,45*78
$GPGSV,5,2,17,19,17,254,36,31,19,042,36,03,45,102,35,06,50,295,41*76
$GPGSV,5,3,17,09,70,251,45,17,07,230,25,02,03,163,,16,02,094,*7A
$GPGSV,5,4,17,01,08,157,,36,35,170,41,34,31,208,,49,34,195,37*78
$GPGSV,5,5,17,61,03,257,*4B
$GLGSV,3,1,10,70,62,029,36,80,27,097,39,87,23,330,32,79,23,039,37*6C
$GLGSV,3,2,10,85,31,202,34,71,49,285,47,86,53,278,46,73,04,146,*6E
$GLGSV,3,3,10,69,06,069,,72,06,262,24*61
$GAGSV,4,1,13,09,72,056,48,11,14,159,24,18,12,250,,04,21,058,29*6E
$GAGSV,4,2,13,34,51,298,45,36,57,191,46,06,46,059,41,05,51,239,44*65
$GAGSV,4,3,13,21,01,009,,23,08,056,,31,02,102,,03,01,239,*65
$GAGSV,4,4,13,15,06,324,32*5C
$GBGSV,5,1,20,19,78,335,48,37,26,064,35,12,16,323,42,39,18,039,25*69
$GBGSV,5,2,20,05,23,128,,16,27,044,19,46,26,125,,06,29,047,32*64
$GBGSV,5,3,20,44,28,301,30,22,29,274,41,35,35,245,34,58,29,106,*6E
$GBGSV,5,4,20,09,40,058,37,20,41,076,44,48,63,067,,23,01,022,*62
$GBGSV,5,5,20,02,07,106,,36,02,168,,29,07,192,21,60,08,110,*68
$GPGGA,031552.00,,,,,0,00,,,M,,M,,*48
$PTNL,GGK,031552.00,010125,4742.4466121,N,01617.9729800,E,1,21,1.3,EHT669.2831,M*41
$GPGGQ,031552.00,010125,4742.4466121,N,01617.9729800,E,1,21,2.704,626.0720,M*3A
$GPGFA,031552.00,12.314,18.650,1.295,0.678,8.056,2.274,,VVV*02
$GPLLK,031552.00,010125,,M,,M,1,21,1.5,,M*0C
$GNGMP,031552.00,,,,,DAAA,21,0.7,,,,*52
$GPGMP,031552.00,,,,,,05,,,,4.0,123*7C
$GLGMP,031552.00,,,,,,05,,,,,*7A
$GAGMP,031552.00,,,,,,05,,,,,*77
$GBGMP,031552.00,,,,,,06,,,,,*77
$PSSN,SNC,[0,270970000,2347]*4F
$GPZDA,031557.00,01,01,2025,,*66
$GPDTM,W84,,00.0000000,N,00.0000000,E,00.0000000,W84*5F
$GPRMC,031557.00,A,4742.4466091,N,01617.9729766,E,0.0,,010125,5.1,E,D*16
$GPGLL,4742.4466091,N,01617.9729766,E,031557.00,A,D*67
$GPGGA,031557.00,4742.4466091,N,01617.9729766,E,2,18,0.7,626.0722,M,43.2111,M,1.0,0123*44
$GNGNS,031557.00,4742.4466091,N,01617.9729766,E,DAAA,18,0.7,626.0722,43.2111,,*59
$GPGNS,031557.00,,,,,,04,,,,1.0,123*7D
$GLGNS,031557.00,,,,,,04,,,,,*7E
$GAGNS,031557.00,,,,,,05,,,,,*72
$GBGNS,031557.00,,,,,,05,,,,,*71
$GPLLQ,031557.00,010125,,M,,M,1,18,2.997,,M*18
$GPVTG,,T,,M,0.01,N,0.01,K,D*26
$GPHDT,,T*1B
$GPTHS,,V*0E
$GPROT,,V*08
$PSSN,HRP,031557.00,010125,,,,,,,00,0,,*64
$PTNL,AVR,031557.00,,Yaw,,Tilt,,,,0,,00*32
$GPGSA,A,3,04,06,07,09,,,,,,,,,1.3,0.7,1.1*3B
$GPGSA,A,3,71,79,80,86,,,,,,,,,1.3,0.7,1.1*39
$GPGSA,A,3,05,06,09,34,36,,,,,,,,1.3,0.7,1.1*3F
$GPGSA,A,3,09,12,19,20,22,,,,,,,,1.3,0.7,1.1*37
$GPGST,031557.00,5.155,1.509,0.915,33.694,1.354,1.131,2.422*6A
$GPGBS,031557.00,7.055,6.396,14.131,80,0.0001,14.219,6.168*5E
$GPGRS,031557.00,1,0.0,0.2,-0.2,-0.4,,,,,,,,*4F
$GPGRS,031557.00,1,-0.4,7.9,14.2,-3.1,,,,,,,,*74
$GPGRS,031557.00,1,0.4,-0.7,2.0,2.1,-0.1,,,,,,,*66
$GPGRS,031557.00,1,-0.9,0.9,-0.7,1.9,-1.5,,,,,,,*43
$GPGSV,5,1,17,04,77,052,48,11,18,318,39,26,11,066,,07,20,182,45*76
$GPGSV,5,2,17,19,17,254,35,31,19,042,35,03,45,102,31,06,50,295,40*73
$GPGSV,5,3,17,09,70,251,45,17,07,230,26,02,03,163,,16,02,094,*79
$GPGSV,5,4,17,01,08,157,,36,35,170,41,34,31,208,,49,34,195,36*79
$GPGSV,5,5,17,61,03,257,*4B
$GLGSV,3,1,10,70,62,029,35,80,27,097,41,87,23,330,30,79,23,039,37*62
$GLGSV,3,2,10,85,31,202,29,71,49,285,47,86,53,278,46,73,04,146,*62
$GLGSV,3,3,10,69,06,069,,72,06,262,22*67
$GAGSV,4,1,13,09,72,056,48,11,14,159,24,18,11,250,,04,21,058,29*6D
$GAGSV,4,2,13,34,51,298,45,36,57,191,46,06,46,059,41,05,51,239,44*65
$GAGSV,4,3,13,21,01,009,,23,08,056,,31,02,102,,03,01,239,*65
$GAGSV,4,4,13,15,06,324,34*5A
$GBGSV,5,1,20,19,78,335,49,37,26,064,32,12,16,323,42,39,18,039,24*6E
$GBGSV,5,2,20,05,23,128,,16,27,044,29,46,26,125,,06,29,047,31*64
$GBGSV,5,3,20,44,28,301,38,22,29,274,41,35,35,245,32,58,29,105,*63
$GBGSV,5,4,20,09,40,058,36,20,41,076,44,48,63,067,,23,01,022,*63
$GBGSV,5,5,20,02,07,106,,36,02,168,,29,07,192,19,60,08,110,*63
$GPGGA,031557.00,,,,,0,00,,,M,,M,,*4D
$PTNL,GGK,031557.00,010125,4742.4466091,N,01617.9729766,E,1,18,1.3,EHT669.2833,M*49
$GPGGQ,031557.00,010125,4742.4466091,N,01617.9729766,E,1,18,2.997,626.0722,M*36
$GPGFA,031557.00,14.346,19.864,1.509,0.915,33.694,2.422,,VVV*3D
$GPLLK,031557.00,010125,,M,,M,1,18,1.6,,M*00
$GNGMP,031557.00,,,,,DAAA,18,0.7,,,,*5D
$GPGMP,031557.00,,,,,,04,,,,1.0,123*7D
$GLGMP,031557.00,,,,,,04,,,,,*7E
$GAGMP,031557.00,,,,,,05,,,,,*72
$GBGMP,031557.00,,,,,,05,,,,,*71
$PSSN,SNC,[0,270975000,2347]*4A
$GPZDA,031602.00,01,01,2025,,*65
$GPDTM,W84,,00.0000000,N,00.0000000,E,00.0000000,W84*5F
$GPRMC,031602.00,A,4742.4466047,N,01617.9729728,E,0.0,,010125,5.1,E,D*14
$GPGLL,4742.4466047,N,01617.9729728,E,031602.00,A,D*65
$GPGGA,031602.00,4742.4466047,N,01617.9729728,E,2,19,0.7,626.0806,M,43.2111,M,2.0,0123*4D
$GNGNS,031602.00,4742.4466047,N,01617.9729728,E,DAAA,19,0.7,626.0806,43.2111,,*53
$GPGNS,031602.00,,,,,,04,,,,2.0,123*7D
$GLGNS,031602.00,,,,,,04,,,,,*7D
$GAGNS,031602.00,,,,,,05,,,,,*71
$GBGNS,031602.00,,,,,,06,,,,,*71
$GPLLQ,031602.00,010125,,M,,M,1,19,3.410,,M*19
$GPVTG,,T,,M,0.00,N,0.00,K,D*26
$GPHDT,,T*1B
$GPTHS,,V*0E
$GPROT,,V*08
$PSSN,HRP,031602.00,010125,,,,,,,00,0,,*67
$PTNL,AVR,031602.00,,Yaw,,Tilt,,,,0,,00*31
$GPGSA,A,3,04,06,07,09,,,,,,,,,1.3,0.7,1.1*3B
$GPGSA,A,3,71,79,80,86,,,,,,,,,1.3,0.7,1.1*39
$GPGSA,A,3,05,06,09,34,36,,,,,,,,1.3,0.7,1.1*3F
$GPGSA,A,3,09,12,19,20,22,44,,,,,,,1.3,0.7,1.1*37
$GPGST,031602.00,6.038,1.714,1.036,33.356,1.540,1.279,2.760*65
$GPGBS,031602.00,7.114,6.432,14.303,80,0.0001,14.740,6.169*5B
$GPGRS,031602.00,1,0.0,0.5,-0.2,-0.3,,,,,,,,*4C
$GPGRS,031602.00,1,-0.7,13.5,14.7,-3.8,,,,,,,,*41
$GPGRS,031602.00,1,0.4,-0.5,1.8,2.1,-0.2,,,,,,,*6F
$GPGRS,031602.00,1,-2.4,0.6,-0.9,2.2,-0.9,1.1,,,,,,*65
$GPGSV,5,1,17,04,77,052,46,11,18,318,39,26,11,066,,07,20,182,45*78
$GPGSV,5,2,17,19,17,254,,31,19,042,35,03,45,102,28,06,50,294,38*73
$GPGSV,5,3,17,09,70,251,45,17,07,230,25,02,03,163,,16,02,094,*7A
$GPGSV,5,4,17,01,08,157,,36,35,170,41,34,31,208,,49,34,195,36*79
$GPGSV,5,5,17,61,03,257,*4B
$GLGSV,3,1,10,70,62,029,35,80,27,097,39,87,24,330,24,79,23,039,40*6F
$GLGSV,3,2,10,85,30,202,32,71,49,285,48,86,53,278,48,73,04,146,*68
$GLGSV,3,3,10,69,06,069,,72,06,262,25*60
$GAGSV,4,1,13,09,72,056,47,11,14,159,23,18,11,250,,04,21,058,28*64
$GAGSV,4,2,13,34,51,298,44,36,57,191,46,06,46,059,42,05,51,239,44*67
$GAGSV,4,3,13,21,01,009,,23,08,056,,31,02,102,,03,01,239,*65
$GAGSV,4,4,13,15,06,324,34*5A
$GBGSV,5,1,20,19,78,335,49,37,26,064,30,12,16,323,41,39,18,039,23*68
$GBGSV,5,2,20,05,23,128,,16,27,044,23,46,26,125,,06,29,047,31*6E
$GBGSV,5,3,20,44,28,301,39,22,29,274,43,35,35,245,28,58,29,105,*6B
$GBGSV,5,4,20,09,40,058,36,20,41,076,45,48,63,067,,23,01,022,*62
$GBGSV,5,5,20,02,07,106,,36,02,168,,29,07,192,21,60,08,110,*68
$GPGGA,031602.00,,,,,0,00,,,M,,M,,*4E
$PTNL,GGK,031602.00,010125,4742.4466047,N,01617.9729728,E,1,19,1.3,EHT669.2917,M*4D
$GPGGQ,031602.00,010125,4742.4466047,N,01617.9729728,E,1,19,3.410,626.0806,M*3F
$GPGFA,031602.00,16.293,22.630,1.714,1.036,33.356,2.760,,VVV*3B
$GPLLK,031602.00,010125,,M,,M,1,19,1.5,,M*01
$GNGMP,031602.00,,,,,DAAA,19,0.7,,,,*5F
$GPGMP,031602.00,,,,,,04,,,,2.0,123*7D
$GLGMP,031602.00,,,,,,04,,,,,*7D
$GAGMP,031602.00,,,,,,05,,,,,*71
$GBGMP,031602.00,,,,,,06,,,,,*71
$PSSN,SNC,[0,270980000,2347]*40
$GPZDA,031607.00,01,01,2025,,*60
$GPDTM,W84,,00.0000000,N,00.0000000,E,00.0000000,W84*5F
$GPRMC,031607.00,A,4742.4465981,N,01617.9729698,E,0.0,,010125,5.1,E,D*1B
$GPGLL,4742.4465981,N,01617.9729698,E,031607.00,A,D*6A
$GPGGA,031607.00,4742.4465981,N,01617.9729698,E,2,18,0.7,626.0867,M,43.2111,M,3.0,0123*45
$GNGNS,031607.00,4742.4465981,N,01617.9729698,E,DAAA,18,0.7,626.0867,43.2111,,*5A
$GPGNS,031607.00,,,,,,04,,,,3.0,123*79
$GLGNS,031607.00,,,,,,04,,,,,*78
$GAGNS,031607.00,,,,,,05,,,,,*74
$GBGNS,031607.00,,,,,,05,,,,,*77
$GPLLQ,031607.00,010125,,M,,M,1,18,3.550,,M*18
$GPVTG,,T,,M,0.01,N,0.02,K,D*25
$GPHDT,,T*1B
$GPTHS,,V*0E
$GPROT,,V*08
$PSSN,HRP,031607.00,010125,,,,,,,00,0,,*62
$PTNL,AVR,031607.00,,Yaw,,Tilt,,,,0,,00*34
$GPGSA,A,3,04,06,07,09,,,,,,,,,1.3,0.7,1.1*3B
$GPGSA,A,3,71,79,80,86,,,,,,,,,1.3,0.7,1.1*39
$GPGSA,A,3,05,06,09,34,36,,,,,,,,1.3,0.7,1.1*3F
$GPGSA,A,3,09,12,19,20,22,,,,,,,,1.3,0.7,1.1*37
$GPGST,031607.00,6.419,1.782,1.082,33.379,1.603,1.333,2.873*6C
$GPGBS,031607.00,7.199,6.570,14.530,79,0.0001,17.638,6.261*5A
$GPGRS,031607.00,1,0.1,0.1,-0.2,-0.1,,,,,,,,*4E
$GPGRS,031607.00,1,-1.0,17.6,10.1,-4.4,,,,,,,,*4C
$GPGRS,031607.00,1,-0.3,-0.9,1.3,2.2,-0.5,,,,,,,*43
$GPGRS,031607.00,1,-2.2,0.2,-1.3,1.9,-1.0,,,,,,,*47
$GPGSV,5,1,17,04,77,052,45,11,18,318,39,26,11,066,,07,20,182,45*7B
$GPGSV,5,2,17,19,17,254,32,31,19,042,36,03,45,102,32,06,50,294,39*7B
$GPGSV,5,3,17,09,70,251,46,17,07,230,22,02,03,163,,16,02,094,*7E
$GPGSV,5,4,17,01,08,157,,36,35,170,40,34,31,208,,49,34,195,35*7B
$GPGSV,5,5,17,61,03,257,*4B
$GLGSV,3,1,10,70,62,029,34,80,27,097,39,87,24,330,32,79,22,039,39*66
$GLGSV,3,2,10,85,30,202,33,71,49,285,48,86,53,278,47,73,04,146,*66
$GLGSV,3,3,10,69,06,069,,72,06,262,25*60
$GAGSV,4,1,13,09,72,056,48,11,14,159,24,18,11,250,,04,21,058,30*65
$GAGSV,4,2,13,34,51,298,43,36,57,191,47,06,46,059,43,05,51,239,44*60
$GAGSV,4,3,13,21,01,009,,23,08,056,,31,02,102,,03,01,239,*65
$GAGSV,4,4,13,15,06,324,34*5A
$GBGSV,5,1,20,19,78,335,49,37,26,064,29,12,16,323,40,39,18,039,20*62
$GBGSV,5,2,20,05,23,128,,16,27,044,29,46,26,125,,06,29,047,31*64
$GBGSV,5,3,20,44,28,301,32,22,29,274,44,35,35,245,31,58,29,105,*6F
$GBGSV,5,4,20,09,40,058,37,20,41,076,46,48,62,067,,23,01,022,*61
$GBGSV,5,5,20,02,07,106,,36,02,168,,29,07,192,20,60,08,110,*69
$GPGGA,031607.00,,,,,0,00,,,M,,M,,*4B
$PTNL,GGK,031607.00,010125,4742.4465981,N,01617.9729698,E,1,18,1.3,EHT669.2978,M*4A
$GPGGQ,031607.00,010125,4742.4465981,N,01617.9729698,E,1,18,3.550,626.0867,M*33
$GPGFA,031607.00,16.942,23.559,1.782,1.082,33.379,2.873,,VVV*34
$GPLLK,031607.00,010125,,M,,M,1,18,1.6,,M*06
$GNGMP,031607.00,,,,,DAAA,18,0.7,,,,*5B
$GPGMP,031607.00,,,,,,04,,,,3.0,123*79
$GLGMP,031607.00,,,,,,04,,,,,*78
$GAGMP,031607.00,,,,,,05,,,,,*74
$GBGMP,031607.00,,,,,,05,,,,,*77
$PSSN,SNC,[0,270985000,2347]*45
$GPZDA,031612.00,01,01,2025,,*64
$GPDTM,W84,,00.0000000,N,00.0000000,E,00.0000000,W84*5F
$GPRMC,031612.00,A,4742.4465939,N,01617.9729632,E,0.0,,010125,5.1,E,D*1C
$GPGLL,4742.4465939,N,01617.9729632,E,031612.00,A,D*6D
$GPGGA,031612.00,4742.4465939,N,01617.9729632,E,2,20,0.7,626.0982,M,43.2111,M,4.0,0123*44
$GNGNS,031612.00,4742.4465939,N,01617.9729632,E,DAAA,20,0.7,626.0982,43.2111,,*5C
$GPGNS,031612.00,,,,,,05,,,,4.0,123*7B
$GLGNS,031612.00,,,,,,04,,,,,*7C
$GAGNS,031612.00,,,,,,05,,,,,*70
$GBGNS,031612.00,,,,,,06,,,,,*70
$GPLLQ,031612.00,010125,,M,,M,1,20,3.178,,M*19
$GPVTG,,T,,M,0.01,N,0.01,K,D*26
$GPHDT,,T*1B
$GPTHS,,V*0E
$GPROT,,V*08
$PSSN,HRP,031612.00,010125,,,,,,,00,0,,*66
$PTNL,AVR,031612.00,,Yaw,,Tilt,,,,0,,00*30
$GPGSA,A,3,03,04,06,07,09,,,,,,,,1.3,0.7,1.1*38
$GPGSA,A,3,71,79,80,86,,,,,,,,,1.3,0.7,1.1*39
$GPGSA,A,3,05,06,09,34,36,,,,,,,,1.3,0.7,1.1*3F
$GPGSA,A,3,09,12,19,20,22,44,,,,,,,1.3,0.7,1.1*37
$GPGST,031612.00,4.695,1.528,0.721,3.929,1.525,0.727,2.691*58
$GPGBS,031612.00,6.975,4.152,11.757,79,0.0001,13.754,6.276*5C
$GPGRS,031612.00,1,0.7,-0.2,1.4,-0.8,-0.5,,,,,,,*47
$GPGRS,031612.00,1,-1.6,13.8,6.4,-5.5,,,,,,,,*76
$GPGRS,031612.00,1,-1.4,-1.0,0.4,1.8,-1.0,,,,,,,*42
$GPGRS,031612.00,1,-0.3,-1.1,-2.1,0.9,-1.7,1.5,,,,,,*42
$GPGSV,5,1,17,04,77,052,45,11,18,318,37,26,11,066,,07,20,182,45*75
$GPGSV,5,2,17,19,17,254,26,31,19,042,37,03,45,102,35,06,50,294,40*76
$GPGSV,5,3,17,09,70,251,47,17,07,230,,02,03,163,,16,02,094,*7F
$GPGSV,5,4,17,01,08,157,,36,35,170,41,34,31,208,,49,34,195,35*7A
$GPGSV,5,5,17,61,03,257,*4B
$GLGSV,3,1,10,70,62,029,32,80,27,097,38,87,24,330,35,79,22,038,35*6B
$GLGSV,3,2,10,85,30,202,34,71,50,285,48,86,53,278,48,73,05,146,*67
$GLGSV,3,3,10,69,06,069,,72,06,262,30*64
$GAGSV,4,1,13,09,72,056,47,11,14,159,23,18,11,250,,04,21,058,30*6D
$GAGSV,4,2,13,34,51,298,42,36,57,191,46,06,46,059,43,05,51,239,44*60
$GAGSV,4,3,13,21,01,009,,23,08,056,,31,02,102,,03,01,239,*65
$GAGSV,4,4,13,15,06,324,34*5A
$GBGSV,5,1,20,19,78,335,50,37,26,064,26,12,16,323,39,39,18,039,22*69
$GBGSV,5,2,20,05,23,128,,16,27,044,23,46,26,125,,06,29,047,32*6D
$GBGSV,5,3,20,44,28,301,39,22,29,274,45,35,35,245,33,58,29,105,*67
$GBGSV,5,4,20,09,40,058,38,20,41,076,46,48,62,067,,23,01,022,*6E
$GBGSV,5,5,20,02,07,106,,36,02,168,,29,07,192,20,60,08,110,*69
$GPGGA,031612.00,,,,,0,00,,,M,,M,,*4F
$PTNL,GGK,031612.00,010125,4742.4465939,N,01617.9729632,E,1,20,1.3,EHT669.3093,M*4B
$GPGGQ,031612.00,010125,4742.4465939,N,01617.9729632,E,1,20,3.178,626.0982,M*3B
$GPGFA,031612.00,14.529,22.069,1.528,0.721,3.929,2.691,,VVV*07
$GPLLK,031612.00,010125,,M,,M,1,20,1.5,,M*0A
$GNGMP,031612.00,,,,,DAAA,20,0.7,,,,*54
$GPGMP,031612.00,,,,,,05,,,,4.0,123*7B
$GLGMP,031612.00,,,,,,04,,,,,*7C
$GAGMP,031612.00,,,,,,05,,,,,*70
$GBGMP,031612.00,,,,,,06,,,,,*70
$PSSN,SNC,[0,270990000,2347]*41
$GPZDA,031617.00,01,01,2025,,*61
$GPDTM,W84,,00.0000000,N,00.0000000,E,00.0000000,W84*5F
$GPRMC,031617.00,A,4742.4465808,N,01617.9729657,E,0.0,,010125,5.1,E,D*19
$GPGLL,4742.4465808,N,01617.9729657,E,031617.00,A,D*68
$GPGGA,031617.00,4742.4465808,N,01617.9729657,E,2,19,0.7,626.1043,M,43.2111,M,1.0,0123*4B
$GNGNS,031617.00,4742.4465808,N,01617.9729657,E,DAAA,19,0.7,626.1043,43.2111,,*56
$GPGNS,031617.00,,,,,,05,,,,1.0,123*7B
$GLGNS,031617.00,,,,,,03,,,,,*7E
$GAGNS,031617.00,,,,,,05,,,,,*75
$GBGNS,031617.00,,,,,,06,,,,,*75
$GPLLQ,031617.00,010125,,M,,M,1,19,3.138,,M*12
$GPVTG,,T,,M,0.01,N,0.01,K,D*26
$GPHDT,,T*1B
$GPTHS,,V*0E
$GPROT,,V*08
$PSSN,HRP,031617.00,010125,,,,,,,00,0,,*63
$PTNL,AVR,031617.00,,Yaw,,Tilt,,,,0,,00*35
$GPGSA,A,3,03,04,06,07,09,,,,,,,,1.4,0.7,1.2*3C
$GPGSA,A,3,71,85,86,,,,,,,,,,1.4,0.7,1.2*36
$GPGSA,A,3,05,06,09,34,36,,,,,,,,1.4,0.7,1.2*3B
$GPGSA,A,3,09,12,19,20,22,44,,,,,,,1.4,0.7,1.2*33
$GPGST,031617.00,3.378,1.501,0.769,8.711,1.489,0.794,2.646*50
$GPGBS,031617.00,6.771,4.038,11.761,06,0.0001,1.545,0.639*6B
$GPGRS,031617.00,1,-0.2,0.1,1.5,-1.0,-1.1,,,,,,,*49
$GPGRS,031617.00,1,-2.3,9.0,-5.0,,,,,,,,,*6F
$GPGRS,031617.00,1,-1.1,-1.0,0.5,1.0,-0.7,,,,,,,*4D
$GPGRS,031617.00,1,0.0,-1.8,-2.0,0.8,-1.7,2.5,,,,,,*63
$GPGSV,5,1,17,04,77,052,47,11,18,318,37,26,11,066,,07,20,182,43*71
$GPGSV,5,2,17,19,17,254,,31,19,042,37,03,45,102,38,06,50,294,40*7F
$GPGSV,5,3,17,09,70,251,46,17,07,230,23,02,03,163,,16,02,094,*7F
$GPGSV,5,4,17,01,08,157,,36,35,170,41,34,31,208,,49,34,195,35*7A
$GPGSV,5,5,17,61,03,257,*4B
$GLGSV,3,1,10,70,62,029,31,80,27,097,33,87,24,330,30,79,22,038,35*66
$GLGSV,3,2,10,85,30,202,35,71,50,285,47,86,53,278,49,73,05,146,*68
$GLGSV,3,3,10,69,06,069,,72,06,262,33*67
$GAGSV,4,1,13,09,72,056,47,11,14,159,22,18,11,250,,04,21,058,29*64
$GAGSV,4,2,13,34,52,298,42,36,57,191,46,06,46,059,43,05,51,239,44*63
$GAGSV,4,3,13,21,01,009,,23,08,056,,31,02,102,,03,01,239,*65
$GAGSV,4,4,13,15,06,324,35*5B
$GBGSV,5,1,20,19,78,335,50,37,26,064,24,12,16,323,39,39,18,039,21*68
$GBGSV,5,2,20,05,23,128,,16,27,044,20,46,26,125,,06,29,047,31*6D
$GBGSV,5,3,20,44,28,301,35,22,29,274,46,35,35,245,34,58,29,105,*6F
$GBGSV,5,4,20,09,40,058,37,20,41,076,47,48,62,067,,23,01,022,*60
$GBGSV,5,5,20,02,07,106,,36,02,168,,29,07,192,21,60,08,110,*68
$GPGGA,031617.00,,,,,0,00,,,M,,M,,*4A
$PTNL,GGK,031617.00,010125,4742.4465808,N,01617.9729657,E,1,19,1.4,EHT669.3154,M*49
$GPGGQ,031617.00,010125,4742.4465808,N,01617.9729657,E,1,19,3.138,626.1043,M*35
$GPGFA,031617.00,14.276,21.694,1.501,0.769,8.711,2.646,,VVV*0B
$GPLLK,031617.00,010125,,M,,M,1,19,1.6,,M*06
$GNGMP,031617.00,,,,,DAAA,19,0.7,,,,*5B
$GPGMP,031617.00,,,,,,05,,,,1.0,123*7B
$GLGMP,031617.00,,,,,,03,,,,,*7E
$GAGMP,031617.00,,,,,,05,,,,,*75
$GBGMP,031617.00,,,,,,06,,,,,*75
$PSSN,SNC,[0,270995000,2347]*44
$GPZDA,031622.00,01,01,2025,,*67
$GPDTM,W84,,00.0000000,N,00.0000000,E,00.0000000,W84*5F
$GPRMC,031622.00,A,4742.4465698,N,01617.9729607,E,0.0,,010125,5.1,E,D*1D
$GPGLL,4742.4465698,N,01617.9729607,E,031622.00,A,D*6C
$GPGGA,031622.00,4742.4465698,N,01617.9729607,E,2,18,0.7,626.1064,M,43.2111,M,2.0,0123*48
$GNGNS,031622.00,4742.4465698,N,01617.9729607,E,DAAA,18,0.7,626.1064,43.2111,,*56
$GPGNS,031622.00,,,,,,04,,,,2.0,123*7F
$GLGNS,031622.00,,,,,,03,,,,,*78
$GAGNS,031622.00,,,,,,05,,,,,*73
$GBGNS,031622.00,,,,,,06,,,,,*73
$GPLLQ,031622.00,010125,,M,,M,1,18,2.703,,M*1A
$GPVTG,,T,,M,0.01,N,0.01,K,D*26
$GPHDT,,T*1B
$GPTHS,,V*0E
$GPROT,,V*08
$PSSN,HRP,031622.00,010125,,,,,,,00,0,,*65
$PTNL,AVR,031622.00,,Yaw,,Tilt,,,,0,,00*33
$GPGSA,A,3,04,06,07,09,,,,,,,,,1.4,0.7,1.2*3F
$GPGSA,A,3,71,85,86,,,,,,,,,,1.4,0.7,1.2*36
$GPGSA,A,3,05,06,09,34,36,,,,,,,,1.4,0.7,1.2*3B
$GPGSA,A,3,09,12,19,20,22,44,,,,,,,1.4,0.7,1.2*33
$GPGST,031622.00,2.434,1.376,0.781,34.942,1.213,1.015,2.191*68
$GPGBS,031622.00,8.231,7.130,16.449,07,0.0001,-1.420,0.860*4A
$GPGRS,031622.00,1,0.6,0.2,-1.4,-0.5,,,,,,,,*4E
$GPGRS,031622.00,1,-2.1,3.2,-4.1,,,,,,,,,*63
$GPGRS,031622.00,1,-0.6,-0.9,1.1,0.7,0.1,,,,,,,*6D
$GPGRS,031622.00,1,-0.3,-1.5,-1.1,1.0,-1.4,4.7,,,,,,*4A
$GPGSV,5,1,17,04,77,052,48,11,18,318,36,26,11,066,,07,20,182,41*7D
$GPGSV,5,2,17,19,17,254,35,31,19,042,38,03,45,102,39,06,50,294,40*77
$GPGSV,5,3,17,09,70,251,46,17,07,230,24,02,03,163,,16,02,094,*78
$GPGSV,5,4,17,01,08,157,,36,35,170,41,34,31,208,,49,34,195,34*7B
$GPGSV,5,5,17,61,03,257,*4B
$GLGSV,3,1,10,70,62,029,30,80,27,097,35,87,24,330,,79,22,038,35*62
$GLGSV,3,2,10,85,30,202,39,71,50,285,49,86,53,278,48,73,05,146,*6B
$GLGSV,3,3,10,69,06,069,,72,06,263,33*66
$GAGSV,4,1,13,09,72,056,47,11,14,159,23,18,11,249,,04,20,058,29*6C
$GAGSV,4,2,13,34,52,298,41,36,57,191,46,06,46,059,43,05,51,239,44*60
$GAGSV,4,3,13,21,01,009,,23,08,056,,31,02,102,,03,01,239,*65
$GAGSV,4,4,13,15,06,324,33*5D
$GBGSV,5,1,20,19,78,336,50,37,26,064,25,12,16,323,39,39,18,039,24*6F
$GBGSV,5,2,20,05,23,128,,16,27,044,23,46,26,125,,06,29,047,31*6E
$GBGSV,5,3,20,44,28,301,39,22,29,274,46,35,35,245,35,58,29,105,*62
$GBGSV,5,4,20,09,40,058,38,20,41,076,47,48,62,067,,23,01,022,*6F
$GBGSV,5,5,20,02,07,106,,36,02,168,,29,07,192,22,60,08,110,*6B
$GPGGA,031622.00,,,,,0,00,,,M,,M,,*4C
$PTNL,GGK,031622.00,010125,4742.4465698,N,01617.9729607,E,1,18,1.4,EHT669.3175,M*4F
$GPGGQ,031622.00,010125,4742.4465698,N,01617.9729607,E,1,18,2.703,626.1064,M*3A
$GPGFA,031622.00,13.081,17.968,1.376,0.781,34.942,2.191,,VVV*33
$GPLLK,031622.00,010125,,M,,M,1,18,1.6,,M*01
$GNGMP,031622.00,,,,,DAAA,18,0.7,,,,*5C
$GPGMP,031622.00,,,,,,04,,,,2.0,123*7F
$GLGMP,031622.00,,,,,,03,,,,,*78
$GAGMP,031622.00,,,,,,05,,,,,*73
$GBGMP,031622.00,,,,,,06,,,,,*73
$PSSN,SNC,[0,271000000,2347]*40
$GPZDA,031627.00,01,01,2025,,*62
$GPDTM,W84,,00.0000000,N,00.0000000,E,00.0000000,W84*5F
$GPRMC,031627.00,A,4742.4465617,N,01617.9729546,E,0.0,,010125,5.1,E,D*19
$GPGLL,4742.4465617,N,01617.9729546,E,031627.00,A,D*68
$GPGGA,031627.00,4742.4465617,N,01617.9729546,E,2,19,0.7,626.0962,M,43.2111,M,3.0,0123*42
$GNGNS,031627.00,4742.4465617,N,01617.9729546,E,DAAA,19,0.7,626.0962,43.2111,,*5D
$GPGNS,031627.00,,,,,,04,,,,3.0,123*7B
$GLGNS,031627.00,,,,,,03,,,,,*7D
$GAGNS,031627.00,,,,,,05,,,,,*76
$GBGNS,031627.00,,,,,,07,,,,,*77
$GPLLQ,031627.00,010125,,M,,M,1,19,3.382,,M*12
$GPVTG,,T,,M,0.01,N,0.01,K,D*26
$GPHDT,,T*1B
$GPTHS,,V*0E
$GPROT,,V*08
$PSSN,HRP,031627.00,010125,,,,,,,00,0,,*60
$PTNL,AVR,031627.00,,Yaw,,Tilt,,,,0,,00*36
$GPGSA,A,3,04,06,07,09,,,,,,,,,1.4,0.7,1.2*3F
$GPGSA,A,3,71,85,86,,,,,,,,,,1.4,0.7,1.2*36
$GPGSA,A,3,05,06,09,34,36,,,,,,,,1.4,0.7,1.2*3B
$GPGSA,A,3,09,12,19,20,22,35,44,,,,,,1.4,0.7,1.2*35
$GPGST,031627.00,4.969,1.704,1.018,36.303,1.500,1.300,2.738*63
$GPGBS,031627.00,7.369,7.016,15.117,87,0.0001,-13.111,6.229*79
$GPGRS,031627.00,1,0.7,0.0,-1.3,0.1,,,,,,,,*66
$GPGRS,031627.00,1,-0.0,4.9,-3.7,,,,,,,,,*68
$GPGRS,031627.00,1,-0.6,-0.7,1.0,1.4,0.5,,,,,,,*61
