$GPZDA,012942.00,01,01,2025,,*6F
$GPDTM,W84,,00.0000000,N,00.0000000,E,00.0000000,W84*5F
$GPRMC,012942.00,A,4742.4467809,N,01617.9733906,E,0.0,,010125,5.1,E,D*14
$GPGLL,4742.4467809,N,01617.9733906,E,012942.00,A,D*65
$GPGGA,012942.00,4742.4467809,N,01617.9733906,E,2,22,0.8,625.0265,M,43.2111,M,1.6,0123*43
$GNGNS,012942.00,4742.4467809,N,01617.9733906,E,DAAA,22,0.8,625.0265,43.2111,,*58
$GPGNS,012942.00,,,,,,07,,,,1.6,123*71
$GLGNS,012942.00,,,,,,02,,,,,*71
$GAGNS,012942.00,,,,,,06,,,,,*78
$GBGNS,012942.00,,,,,,07,,,,,*7A
$GPLLQ,012942.00,010125,,M,,M,1,22,2.314,,M*19
$GPVTG,,T,,M,0.00,N,0.01,K,D*27
$GPHDT,,T*1B
$GPTHS,,V*0E
$GPROT,,V*08
$PSSN,HRP,012942.00,010125,,,,,,,00,0,,*6D
$PTNL,AVR,012942.00,,Yaw,,Tilt,,,,0,,00*3B
$GPGSA,A,3,02,03,04,06,17,19,28,,,,,,1.4,0.8,1.2*3B
$GPGSA,A,3,69,85,,,,,,,,,,,1.4,0.8,1.2*3E
$GPGSA,A,3,04,06,09,11,34,36,,,,,,,1.4,0.8,1.2*35
$GPGSA,A,3,06,09,16,19,20,29,35,,,,,,1.4,0.8,1.2*33
$GPGST,012942.00,2.636,0.915,0.764,5.176,0.914,0.765,1.983*5C
$GPGBS,012942.00,3.386,3.233,9.846,28,0.0001,2.326,0.836*5C
$GPGRS,012942.00,1,1.2,-0.3,-1.2,1.1,-0.8,-1.5,2.3,,,,,*62
$GPGRS,012942.00,1,-1.6,2.1,,,,,,,,,,*6B
$GPGRS,012942.00,1,0.5,0.4,0.1,-0.0,-5.1,1.4,,,,,,*43
$GPGRS,012942.00,1,0.2,1.5,-2.8,-0.1,-2.2,0.6,-6.4,,,,,*65
$GPGSV,4,1,16,03,78,351,44,31,32,091,35,09,23,218,22,19,28,304,42*7D
$GPGSV,4,2,16,28,27,059,40,21,32,148,27,17,38,270,49,04,50,205,38*7D
$GPGSV,4,3,16,02,51,156,44,01,56,144,,06,10,313,39,32,02,046,*73
$GPGSV,4,4,16,36,35,170,39,34,31,208,,49,34,195,36,61,03,257,*78
$GLGSV,3,1,10,85,70,294,44,78,13,041,,86,17,327,31,69,51,037,49*65
$GLGSV,3,2,10,84,46,166,32,70,54,252,29,79,04,089,,77,02,348,*65
$GLGSV,3,3,10,68,04,049,,71,08,236,*6A
$GAGSV,3,1,12,06,74,113,47,05,14,214,33,18,17,308,,34,18,311,40*66
$GAGSV,3,2,12,04,55,062,48,10,26,136,32,09,64,188,47,11,54,139,36*60
$GAGSV,3,3,12,36,71,299,41,27,01,353,,12,04,134,,19,01,042,*60
$GBGSV,5,1,17,20,80,033,48,05,24,128,,23,11,056,,35,39,300,38*61
$GBGSV,5,2,17,39,27,047,29,32,24,062,29,09,36,077,41,29,50,208,43*6F
$GBGSV,5,3,17,16,32,057,38,06,32,061,43,19,45,250,43,48,74,260,*61
$GBGSV,5,4,17,37,08,104,,30,09,166,,44,02,327,27,02,08,105,*61
$GBGSV,5,5,17,60,09,110,*52
$GPGGA,012942.00,,,,,0,00,,,M,,M,,*44
$PTNL,GGK,012942.00,010125,4742.4467809,N,01617.9733906,E,1,22,1.4,EHT668.2375,M*4D
$GPGGQ,012942.00,010125,4742.4467809,N,01617.9733906,E,1,22,2.314,625.0265,M*39
$GPGFA,012942.00,8.704,16.259,0.915,0.764,5.176,1.983,,VVV*33
$GPLLK,012942.00,010125,,M,,M,1,22,1.7,,M*01
$GNGMP,012942.00,,,,,DAAA,22,0.8,,,,*52
$GPGMP,012942.00,,,,,,07,,,,1.6,123*71
$GLGMP,012942.00,,,,,,02,,,,,*71
$GAGMP,012942.00,,,,,,06,,,,,*78
$GBGMP,012942.00,,,,,,07,,,,,*7A
$PSSN,SNC,[0,264600000,2347]*42
$GPZDA,012947.00,01,01,2025,,*6A
$GPDTM,W84,,00.0000000,N,00.0000000,E,00.0000000,W84*5F
$GPRMC,012947.00,A,4742.4467793,N,01617.9733454,E,0.0,,010125,5.1,E,D*17
$GPGLL,4742.4467793,N,01617.9733454,E,012947.00,A,D*66
$GPGGA,012947.00,4742.4467793,N,01617.9733454,E,2,21,0.8,625.0322,M,43.2111,M,2.5,0123*41
$GNGNS,012947.00,4742.4467793,N,01617.9733454,E,DAAA,21,0.8,625.0322,43.2111,,*5A
$GPGNS,012947.00,,,,,,06,,,,2.5,123*75
$GLGNS,012947.00,,,,,,03,,,,,*75
$GAGNS,012947.00,,,,,,05,,,,,*7E
$GBGNS,012947.00,,,,,,07,,,,,*7F
$GPLLQ,012947.00,010125,,M,,M,1,21,2.909,,M*19
$GPVTG,,T,,M,0.00,N,0.00,K,D*26
$GPHDT,,T*1B
$GPTHS,,V*0E
$GPROT,,V*08
$PSSN,HRP,012947.00,010125,,,,,,,00,0,,*68
$PTNL,AVR,012947.00,,Yaw,,Tilt,,,,0,,00*3E
$GPGSA,A,3,02,03,06,17,19,28,,,,,,,1.5,0.8,1.2*3E
$GPGSA,A,3,69,85,86,,,,,,,,,,1.5,0.8,1.2*31
$GPGSA,A,3,04,06,09,11,36,,,,,,,,1.5,0.8,1.2*33
$GPGSA,A,3,06,09,16,19,20,29,35,,,,,,1.5,0.8,1.2*32
$GPGST,012947.00,3.021,1.257,0.921,6.814,1.253,0.926,2.456*53
$GPGBS,012947.00,5.198,3.430,10.160,28,0.0001,2.992,0.845*63
$GPGRS,012947.00,1,1.7,-0.1,-2.3,-1.2,-1.0,3.0,,,,,,*40
$GPGRS,012947.00,1,-1.7,2.2,-9.2,,,,,,,,,*64
$GPGRS,012947.00,1,0.3,0.0,-0.1,-0.2,1.8,,,,,,,*60
$GPGRS,012947.00,1,0.5,1.0,-2.1,0.2,-1.7,-0.4,1.9,,,,,*4B
$GPGSV,4,1,16,03,78,352,46,31,32,091,39,09,23,218,23,19,28,304,40*73
$GPGSV,4,2,16,28,27,059,40,21,32,148,30,17,38,270,49,04,50,205,34*77
$GPGSV,4,3,16,02,51,156,43,01,56,144,,06,10,313,38,32,02,046,*75
$GPGSV,4,4,16,36,35,170,40,34,31,208,,49,34,195,36,61,03,257,*76
$GLGSV,3,1,10,85,70,294,42,78,13,041,,86,17,327,37,69,51,037,50*6D
$GLGSV,3,2,10,84,46,167,33,70,54,252,30,79,04,089,,77,02,348,*6D
$GLGSV,3,3,10,68,04,049,,71,09,237,*6A
$GAGSV,3,1,12,06,74,113,47,05,14,214,32,18,17,308,,34,18,311,32*62
$GAGSV,3,2,12,04,55,062,48,10,26,136,30,09,64,188,47,11,54,139,36*62
$GAGSV,3,3,12,36,71,299,42,27,01,353,,12,04,134,,19,01,042,*63
$GBGSV,5,1,17,20,80,033,47,05,24,128,,23,11,056,,35,39,300,38*6E
$GBGSV,5,2,17,39,27,047,29,32,24,062,30,09,36,077,40,29,50,208,44*61
$GBGSV,5,3,17,16,32,057,38,06,32,061,43,19,45,250,43,48,74,260,*61
$GBGSV,5,4,17,37,08,104,,30,09,166,20,44,02,327,28,02,08,105,*6C
$GBGSV,5,5,17,60,09,110,*52
$GPGGA,012947.00,,,,,0,00,,,M,,M,,*41
$PTNL,GGK,012947.00,010125,4742.4467793,N,01617.9733454,E,1,21,1.5,EHT668.2433,M*49
$GPGGQ,012947.00,010125,4742.4467793,N,01617.9733454,E,1,21,2.909,625.0322,M*3D
$GPGFA,012947.00,11.952,20.140,1.257,0.921,6.814,2.456,,VVV*06
$GPLLK,012947.00,010125,,M,,M,1,21,1.7,,M*07
$GNGMP,012947.00,,,,,DAAA,21,0.8,,,,*54
$GPGMP,012947.00,,,,,,06,,,,2.5,123*75
$GLGMP,012947.00,,,,,,03,,,,,*75
$GAGMP,012947.00,,,,,,05,,,,,*7E
$GBGMP,012947.00,,,,,,07,,,,,*7F
$PSSN,SNC,[0,264605000,2347]*47
$GPZDA,012952.00,01,01,2025,,*6E
$GPDTM,W84,,00.0000000,N,00.0000000,E,00.0000000,W84*5F
$GPRMC,012952.00,A,4742.4467765,N,01617.9733038,E,0.0,,010125,5.1,E,D*14
$GPGLL,4742.4467765,N,01617.9733038,E,012952.00,A,D*65
$GPGGA,012952.00,4742.4467765,N,01617.9733038,E,2,21,0.8,625.0487,M,43.2111,M,3.6,0123*48
$GNGNS,012952.00,4742.4467765,N,01617.9733038,E,DAAA,21,0.8,625.0487,43.2111,,*51
$GPGNS,012952.00,,,,,,07,,,,3.6,123*72
$GLGNS,012952.00,,,,,,02,,,,,*70
$GAGNS,012952.00,,,,,,05,,,,,*7A
$GBGNS,012952.00,,,,,,07,,,,,*7B
$GPLLQ,012952.00,010125,,M,,M,1,21,2.437,,M*1D
$GPVTG,,T,,M,0.00,N,0.01,K,D*27
$GPHDT,,T*1B
$GPTHS,,V*0E
$GPROT,,V*08
$PSSN,HRP,012952.00,010125,,,,,,,00,0,,*6C
$PTNL,AVR,012952.00,,Yaw,,Tilt,,,,0,,00*3A
$GPGSA,A,3,02,03,04,06,17,19,28,,,,,,1.5,0.8,1.2*3A
$GPGSA,A,3,69,85,,,,,,,,,,,1.5,0.8,1.2*3F
$GPGSA,A,3,04,06,09,11,36,,,,,,,,1.5,0.8,1.2*33
$GPGSA,A,3,06,09,16,19,20,29,35,,,,,,1.5,0.8,1.2*32
$GPGST,012952.00,3.133,0.972,0.779,2.571,0.971,0.780,2.094*53
$GPGBS,012952.00,3.573,3.342,10.425,28,0.0001,2.789,0.858*6E
$GPGRS,012952.00,1,0.6,0.3,-1.5,-1.6,-0.7,-0.8,2.8,,,,,*6E
$GPGRS,012952.00,1,-1.1,-2.4,,,,,,,,,,*45
$GPGRS,012952.00,1,0.4,0.1,0.4,-0.7,2.4,,,,,,,*40
$GPGRS,012952.00,1,0.5,0.6,-1.2,0.7,-0.9,-0.8,10.3,,,,,*74
$GPGSV,4,1,16,03,78,352,45,31,32,091,37,09,23,218,38,19,28,304,38*7B
$GPGSV,4,2,16,28,27,059,40,21,32,149,32,17,38,270,50,04,50,205,35*7D
$GPGSV,4,3,16,02,51,156,43,01,56,144,,06,10,313,37,32,02,046,*7A
$GPGSV,4,4,16,36,35,170,40,34,31,208,,49,34,195,37,61,03,257,*77
$GLGSV,3,1,10,85,70,293,43,78,13,041,,86,17,327,29,69,51,037,49*6C
$GLGSV,3,2,10,84,46,167,35,70,54,252,31,79,04,089,,77,02,348,*6A
$GLGSV,3,3,10,68,04,049,,71,09,237,*6A
$GAGSV,3,1,12,06,74,113,47,05,14,214,33,18,17,308,,34,19,311,32*62
$GAGSV,3,2,12,04,54,062,48,10,26,136,32,09,64,188,47,11,54,139,35*62
$GAGSV,3,3,12,36,71,299,42,27,01,353,,12,04,134,,19,01,042,*63
$GBGSV,5,1,17,20,80,033,47,05,24,128,,23,11,056,,35,39,300,37*61
$GBGSV,5,2,17,39,27,047,29,32,24,062,25,09,36,077,41,29,50,208,44*64
$GBGSV,5,3,17,16,32,057,38,06,32,061,43,19,45,250,44,48,74,260,*66
$GBGSV,5,4,17,37,08,104,,30,09,166,21,44,02,327,26,02,08,105,*63
$GBGSV,5,5,17,60,09,110,*52
$GPGGA,012952.00,,,,,0,00,,,M,,M,,*45
$PTNL,GGK,012952.00,010125,4742.4467765,N,01617.9733038,E,1,21,1.5,EHT668.2598,M*4A
$GPGGQ,012952.00,010125,4742.4467765,N,01617.9733038,E,1,21,2.437,625.0487,M*36
$GPGFA,012952.00,9.237,17.174,0.972,0.779,2.571,2.094,,VVV*3E
$GPLLK,012952.00,010125,,M,,M,1,21,1.7,,M*03
$GNGMP,012952.00,,,,,DAAA,21,0.8,,,,*50
$GPGMP,012952.00,,,,,,07,,,,3.6,123*72
$GLGMP,012952.00,,,,,,02,,,,,*70
$GAGMP,012952.00,,,,,,05,,,,,*7A
$GBGMP,012952.00,,,,,,07,,,,,*7B
$PSSN,SNC,[0,264610000,2347]*43
$GPZDA,012957.00,01,01,2025,,*6B
$GPDTM,W84,,00.0000000,N,00.0000000,E,00.0000000,W84*5F
$GPRMC,012957.00,A,4742.4467704,N,01617.9732780,E,0.0,,010125,5.1,E,D*13
$GPGLL,4742.4467704,N,01617.9732780,E,012957.00,A,D*62
$GPGGA,012957.00,4742.4467704,N,01617.9732780,E,2,19,0.9,625.0468,M,43.2111,M,2.5,0123*46
$GNGNS,012957.00,4742.4467704,N,01617.9732780,E,DAAA,19,0.9,625.0468,43.2111,,*5D
$GPGNS,012957.00,,,,,,06,,,,2.5,123*74
$GLGNS,012957.00,,,,,,03,,,,,*74
$GAGNS,012957.00,,,,,,04,,,,,*7E
$GBGNS,012957.00,,,,,,06,,,,,*7F
$GPLLQ,012957.00,010125,,M,,M,1,19,1.812,,M*1B
$GPVTG,,T,,M,0.00,N,0.01,K,D*27
$GPHDT,,T*1B
$GPTHS,,V*0E
$GPROT,,V*08
$PSSN,HRP,012957.00,010125,,,,,,,00,0,,*69
$PTNL,AVR,012957.00,,Yaw,,Tilt,,,,0,,00*3F
$GPGSA,A,3,02,03,06,17,19,28,,,,,,,1.5,0.9,1.2*3F
$GPGSA,A,3,69,85,86,,,,,,,,,,1.5,0.9,1.2*30
$GPGSA,A,3,04,06,09,36,,,,,,,,,1.5,0.9,1.2*32
$GPGSA,A,3,06,09,16,19,20,29,,,,,,,1.5,0.9,1.2*35
$GPGST,012957.00,2.245,0.851,0.570,9.294,0.845,0.579,1.495*5D
$GPGBS,012957.00,5.073,3.548,9.756,28,0.0001,2.019,0.874*5B
$GPGRS,012957.00,1,0.3,-0.3,-0.8,-0.9,-0.1,2.0,,,,,,*44
$GPGRS,012957.00,1,-1.0,-1.4,-6.1,,,,,,,,,*46
$GPGRS,012957.00,1,0.3,-0.3,0.3,2.0,,,,,,,,*6A
$GPGRS,012957.00,1,-0.2,0.2,-1.5,0.7,-1.5,-2.2,,,,,,*41
$GPGSV,4,1,16,03,78,352,44,31,32,091,37,09,23,218,37,06,10,313,37*79
$GPGSV,4,2,16,28,27,059,38,19,28,304,38,21,32,149,33,17,38,270,49*75
$GPGSV,4,3,16,04,50,205,34,02,51,156,44,01,56,144,,32,02,046,*7E
$GPGSV,4,4,16,36,35,170,41,34,31,208,,49,34,195,36,61,03,257,*77
$GLGSV,3,1,10,85,70,293,45,78,13,041,,86,17,327,38,69,51,037,49*6A
$GLGSV,3,2,10,84,46,167,30,70,54,252,29,79,04,089,,77,02,348,*66
$GLGSV,3,3,10,68,04,049,,71,09,237,*6A
$GAGSV,3,1,12,06,74,113,48,05,14,214,32,18,17,308,,34,19,311,32*6C
$GAGSV,3,2,12,04,54,062,48,10,26,136,32,09,64,188,48,11,54,139,35*6D
$GAGSV,3,3,12,36,71,299,43,27,01,353,,12,04,134,,19,01,042,*62
$GBGSV,5,1,17,20,80,033,48,05,24,128,,23,11,056,,35,39,300,34*6D
$GBGSV,5,2,17,39,27,047,30,32,23,062,26,09,36,077,40,29,50,208,43*6E
$GBGSV,5,3,17,16,32,057,39,06,32,061,43,19,45,250,45,48,74,260,*66
$GBGSV,5,4,17,37,08,104,,30,09,166,22,44,02,327,27,02,08,105,*61
$GBGSV,5,5,17,60,09,110,*52
$GPGGA,012957.00,,,,,0,00,,,M,,M,,*40
$PTNL,GGK,012957.00,010125,4742.4467704,N,01617.9732780,E,1,19,1.5,EHT668.2579,M*49
$GPGGQ,012957.00,010125,4742.4467704,N,01617.9732780,E,1,19,1.812,625.0468,M*33
$GPGFA,012957.00,8.092,12.258,0.851,0.570,9.294,1.495,,VVV*35
$GPLLK,012957.00,010125,,M,,M,1,19,1.8,,M*02
$GNGMP,012957.00,,,,,DAAA,19,0.9,,,,*5F
$GPGMP,012957.00,,,,,,06,,,,2.5,123*74
$GLGMP,012957.00,,,,,,03,,,,,*74
$GAGMP,012957.00,,,,,,04,,,,,*7E
$GBGMP,012957.00,,,,,,06,,,,,*7F
$PSSN,SNC,[0,264615000,2347]*46
$GPZDA,013002.00,01,01,2025,,*63
$GPDTM,W84,,00.0000000,N,00.0000000,E,00.0000000,W84*5F
$GPRMC,013002.00,A,4742.4467746,N,01617.9732552,E,0.0,,010125,5.1,E,D*10
$GPGLL,4742.4467746,N,01617.9732552,E,013002.00,A,D*61
$GPGGA,013002.00,4742.4467746,N,01617.9732552,E,2,17,0.9,625.0664,M,43.2111,M,1.4,0123*47
$GNGNS,013002.00,4742.4467746,N,01617.9732552,E,DAAA,17,0.9,625.0664,43.2111,,*5E
$GPGNS,013002.00,,,,,,05,,,,1.4,123*7D
$GLGNS,013002.00,,,,,,02,,,,,*7D
$GAGNS,013002.00,,,,,,04,,,,,*76
$GBGNS,013002.00,,,,,,06,,,,,*77
$GPLLQ,013002.00,010125,,M,,M,1,17,3.116,,M*12
$GPVTG,,T,,M,0.00,N,0.00,K,D*26
$GPHDT,,T*1B
$GPTHS,,V*0E
$GPROT,,V*08
$PSSN,HRP,013002.00,010125,,,,,,,00,0,,*61
$PTNL,AVR,013002.00,,Yaw,,Tilt,,,,0,,00*37
$GPGSA,A,3,02,03,17,19,28,,,,,,,,1.7,0.9,1.5*3C
$GPGSA,A,3,69,85,,,,,,,,,,,1.7,0.9,1.5*3B
$GPGSA,A,3,04,06,09,36,,,,,,,,,1.7,0.9,1.5*37
$GPGSA,A,3,06,09,16,19,20,29,,,,,,,1.7,0.9,1.5*30
$GPGST,013002.00,1.957,1.416,0.967,10.256,1.404,0.984,2.602*65
$GPGBS,013002.00,5.206,3.241,11.206,02,0.0001,2.117,0.615*6A
$GPGRS,013002.00,1,2.1,-1.6,-0.9,-0.3,1.9,,,,,,,*4B
$GPGRS,013002.00,1,-1.6,1.1,,,,,,,,,,*64
$GPGRS,013002.00,1,-0.0,-0.4,-0.3,2.1,,,,,,,,*67
$GPGRS,013002.00,1,-0.5,1.0,-1.9,0.7,-1.8,-3.1,,,,,,*4E
$GPGSV,4,1,16,03,78,352,42,31,32,091,39,09,23,218,36,06,10,313,35*72
$GPGSV,4,2,16,28,27,059,37,19,28,304,38,21,32,149,34,17,38,270,49*7D
$GPGSV,4,3,16,04,50,205,34,02,51,156,44,01,56,144,,32,02,046,*7E
$GPGSV,4,4,16,36,35,170,41,34,31,208,,49,34,195,36,61,03,257,*77
$GLGSV,3,1,10,85,70,293,46,78,13,041,24,86,17,327,35,69,51,037,48*63
$GLGSV,3,2,10,84,46,167,29,70,54,252,29,79,04,089,,77,02,348,*6E
$GLGSV,3,3,10,68,04,049,,71,09,237,*6A
$GAGSV,3,1,12,06,74,113,48,05,14,214,30,18,17,308,,34,19,311,35*69
$GAGSV,3,2,12,04,54,062,48,10,26,136,33,09,64,188,48,11,54,140,34*63
$GAGSV,3,3,12,36,71,299,43,27,01,353,,12,04,134,,19,01,042,*62
$GBGSV,5,1,17,20,80,033,49,05,24,128,,23,11,056,,35,39,300,35*6D
$GBGSV,5,2,17,39,27,047,32,32,23,062,26,09,36,077,41,29,50,208,43*6D
$GBGSV,5,3,17,16,32,057,39,06,32,061,43,19,45,250,45,48,74,260,*66
$GBGSV,5,4,17,37,08,104,,30,09,166,22,44,02,327,25,02,08,105,*63
$GBGSV,5,5,17,60,09,110,*52
$GPGGA,013002.00,,,,,0,00,,,M,,M,,*48
$PTNL,GGK,013002.00,010125,4742.4467746,N,01617.9732552,E,1,17,1.7,EHT668.2775,M*48
$GPGGQ,013002.00,010125,4742.4467746,N,01617.9732552,E,1,17,3.116,625.0664,M*3F
$GPGFA,013002.00,13.464,21.337,1.416,0.967,10.256,2.602,,VVV*3F
$GPLLK,013002.00,010125,,M,,M,1,17,2.1,,M*0E
$GNGMP,013002.00,,,,,DAAA,17,0.9,,,,*59
$GPGMP,013002.00,,,,,,05,,,,1.4,123*7D
$GLGMP,013002.00,,,,,,02,,,,,*7D
$GAGMP,013002.00,,,,,,04,,,,,*76
$GBGMP,013002.00,,,,,,06,,,,,*77
$PSSN,SNC,[0,264620000,2347]*40
$GPZDA,013007.00,01,01,2025,,*66
$GPDTM,W84,,00.0000000,N,00.0000000,E,00.0000000,W84*5F
$GPRMC,013007.00,A,4742.4467745,N,01617.9732427,E,0.0,,010125,5.1,E,D*15
$GPGLL,4742.4467745,N,01617.9732427,E,013007.00,A,D*64
$GPGGA,013007.00,4742.4467745,N,01617.9732427,E,2,19,0.8,625.0903,M,43.2111,M,2.3,0123*47
$GNGNS,013007.00,4742.4467745,N,01617.9732427,E,DAAA,19,0.8,625.0903,43.2111,,*5A
$GPGNS,013007.00,,,,,,06,,,,2.3,123*7F
$GLGNS,013007.00,,,,,,03,,,,,*79
$GAGNS,013007.00,,,,,,04,,,,,*73
$GBGNS,013007.00,,,,,,06,,,,,*72
$GPLLQ,013007.00,010125,,M,,M,1,19,1.365,,M*1D
$GPVTG,,T,,M,0.01,N,0.02,K,D*25
$GPHDT,,T*1B
$GPTHS,,V*0E
$GPROT,,V*08
$PSSN,HRP,013007.00,010125,,,,,,,00,0,,*64
$PTNL,AVR,013007.00,,Yaw,,Tilt,,,,0,,00*32
$GPGSA,A,3,03,06,17,19,21,28,,,,,,,1.3,0.8,1.1*3A
$GPGSA,A,3,69,85,86,,,,,,,,,,1.3,0.8,1.1*34
$GPGSA,A,3,04,06,09,36,,,,,,,,,1.3,0.8,1.1*36
$GPGSA,A,3,06,09,16,19,20,29,,,,,,,1.3,0.8,1.1*31
$GPGST,013007.00,1.890,0.669,0.436,17.463,0.651,0.462,1.107*68
$GPGBS,013007.00,4.848,3.221,8.801,28,0.0001,0.960,0.851*51
$GPGRS,013007.00,1,-0.4,-0.8,-0.1,0.8,-0.5,1.0,,,,,,*4A
$GPGRS,013007.00,1,-0.9,0.8,1.4,,,,,,,,,*4C
$GPGRS,013007.00,1,1.2,0.7,0.7,3.6,,,,,,,,*4D
$GPGRS,013007.00,1,0.9,3.1,-0.9,2.3,-1.1,-1.9,,,,,,*6D
$GPGSV,4,1,16,03,78,353,41,31,32,091,35,06,10,313,35,09,23,218,33*79
$GPGSV,4,2,16,28,27,059,36,19,28,304,39,21,32,149,36,17,38,270,50*77
$GPGSV,4,3,16,04,50,205,34,02,51,156,43,01,56,144,,32,02,046,*79
$GPGSV,4,4,16,36,35,170,41,34,31,208,,49,34,195,37,61,03,257,*76
$GLGSV,3,1,10,85,70,293,46,78,13,041,24,86,17,327,39,69,51,037,47*60
$GLGSV,3,2,10,84,45,167,27,70,54,252,29,79,04,089,,77,02,348,*63
$GLGSV,3,3,10,68,04,049,,71,09,237,*6A
$GAGSV,3,1,12,06,74,113,48,05,14,214,29,18,17,308,,34,19,311,35*61
$GAGSV,3,2,12,04,54,062,48,10,26,136,34,09,64,188,48,11,54,140,32*62
$GAGSV,3,3,12,36,71,299,43,27,01,353,,12,04,134,,19,01,042,*62
$GBGSV,5,1,17,20,80,034,50,05,24,128,,23,11,056,,35,39,300,29*6F
$GBGSV,5,2,17,39,27,047,34,32,23,062,30,09,36,077,42,29,50,208,43*6F
$GBGSV,5,3,17,16,32,057,39,06,32,061,43,19,45,250,46,48,74,260,*65
$GBGSV,5,4,17,37,08,104,,30,09,166,21,44,02,327,27,02,08,105,*62
$GBGSV,5,5,17,60,09,110,*52
$GPGGA,013007.00,,,,,0,00,,,M,,M,,*4D
$PTNL,GGK,013007.00,010125,4742.4467745,N,01617.9732427,E,1,19,1.3,EHT668.3014,M*46
$GPGGQ,013007.00,010125,4742.4467745,N,01617.9732427,E,1,19,1.365,625.0903,M*3E
$GPGFA,013007.00,6.357,9.078,0.669,0.436,17.463,1.107,,VVV*3F
$GPLLK,013007.00,010125,,M,,M,1,19,1.6,,M*01
$GNGMP,013007.00,,,,,DAAA,19,0.8,,,,*53
$GPGMP,013007.00,,,,,,06,,,,2.3,123*7F
$GLGMP,013007.00,,,,,,03,,,,,*79
$GAGMP,013007.00,,,,,,04,,,,,*73
$GBGMP,013007.00,,,,,,06,,,,,*72
$PSSN,SNC,[0,264625000,2347]*45
$GPZDA,013012.00,01,01,2025,,*62
$GPDTM,W84,,00.0000000,N,00.0000000,E,00.0000000,W84*5F
$GPRMC,013012.00,A,4742.4467663,N,01617.9732399,E,0.0,,010125,5.1,E,D*16
$GPGLL,4742.4467663,N,01617.9732399,E,013012.00,A,D*67
$GPGGA,013012.00,4742.4467663,N,01617.9732399,E,2,20,0.8,625.0837,M,43.2111,M,3.3,0123*49
$GNGNS,013012.00,4742.4467663,N,01617.9732399,E,DAAA,20,0.8,625.0837,43.2111,,*55
$GPGNS,013012.00,,,,,,06,,,,3.3,123*7A
$GLGNS,013012.00,,,,,,03,,,,,*7D
$GAGNS,013012.00,,,,,,05,,,,,*76
$GBGNS,013012.00,,,,,,06,,,,,*76
$GPLLQ,013012.00,010125,,M,,M,1,20,1.397,,M*1E
$GPVTG,,T,,M,0.01,N,0.01,K,D*26
$GPHDT,,T*1B
$GPTHS,,V*0E
$GPROT,,V*08
$PSSN,HRP,013012.00,010125,,,,,,,00,0,,*60
$PTNL,AVR,013012.00,,Yaw,,Tilt,,,,0,,00*36
$GPGSA,A,3,03,06,17,19,21,28,,,,,,,1.3,0.8,1.1*3A
$GPGSA,A,3,69,85,86,,,,,,,,,,1.3,0.8,1.1*34
$GPGSA,A,3,04,06,09,34,36,,,,,,,,1.3,0.8,1.1*31
$GPGSA,A,3,06,09,16,19,20,29,,,,,,,1.3,0.8,1.1*31
$GPGST,013012.00,2.657,0.667,0.435,19.629,0.645,0.467,1.148*6E
$GPGBS,013012.00,4.926,3.291,8.897,21,0.0001,-1.508,0.832*7A
$GPGRS,013012.00,1,0.5,0.5,-0.2,-0.4,-1.5,0.3,,,,,,*63
$GPGRS,013012.00,1,-1.6,1.1,5.7,,,,,,,,,*49
$GPGRS,013012.00,1,1.0,0.6,0.6,3.8,2.8,,,,,,,*61
$GPGRS,013012.00,1,0.6,3.1,-1.6,3.1,-1.0,-2.2,,,,,,*62
$GPGSV,4,1,16,03,78,353,43,31,32,091,32,06,10,313,36,09,23,218,30*7C
$GPGSV,4,2,16,28,27,059,36,21,32,149,35,19,28,304,39,17,38,270,50*74
$GPGSV,4,3,16,04,50,205,34,02,51,156,43,01,56,144,,32,02,046,*79
$GPGSV,4,4,16,36,35,170,41,34,31,208,,49,34,195,37,61,03,257,*76
$GLGSV,3,1,10,85,70,293,48,78,13,041,22,86,17,327,41,69,51,037,48*68
$GLGSV,3,2,10,84,45,167,24,70,54,252,28,79,04,089,,77,02,348,*61
$GLGSV,3,3,10,68,04,049,,71,09,237,*6A
$GAGSV,3,1,12,06,74,113,48,05,14,214,30,18,17,308,,34,19,311,36*6A
$GAGSV,3,2,12,04,54,062,48,10,26,136,35,09,64,188,48,11,54,140,31*60
$GAGSV,3,3,12,36,71,299,43,27,01,353,,12,04,134,,19,01,042,*62
$GBGSV,5,1,17,20,80,034,52,05,24,128,,23,11,056,,35,39,300,33*66
$GBGSV,5,2,17,39,27,047,34,32,23,062,32,09,36,077,41,29,50,208,43*6E
$GBGSV,5,3,17,16,32,057,38,06,32,061,43,19,45,250,47,48,74,260,*65
$GBGSV,5,4,17,37,08,104,,30,09,166,,44,03,327,28,02,08,105,*6F
$GBGSV,5,5,17,60,09,110,*52
$GPGGA,013012.00,,,,,0,00,,,M,,M,,*49
$PTNL,GGK,013012.00,010125,4742.4467663,N,01617.9732399,E,1,20,1.3,EHT668.2948,M*4E
$GPGGQ,013012.00,010125,4742.4467663,N,01617.9732399,E,1,20,1.397,625.0837,M*3C
$GPGFA,013012.00,6.345,9.410,0.667,0.435,19.629,1.148,,VVV*36
$GPLLK,013012.00,010125,,M,,M,1,20,1.5,,M*0C
$GNGMP,013012.00,,,,,DAAA,20,0.8,,,,*5D
$GPGMP,013012.00,,,,,,06,,,,3.3,123*7A
$GLGMP,013012.00,,,,,,03,,,,,*7D
$GAGMP,013012.00,,,,,,05,,,,,*76
$GBGMP,013012.00,,,,,,06,,,,,*76
$PSSN,SNC,[0,264630000,2347]*41
$GPZDA,013017.00,01,01,2025,,*67
$GPDTM,W84,,00.0000000,N,00.0000000,E,00.0000000,W84*5F
$GPRMC,013017.00,A,4742.4467643,N,01617.9732370,E,0.0,,010125,5.1,E,D*16
$GPGLL,4742.4467643,N,01617.9732370,E,013017.00,A,D*67
$GPGGA,013017.00,4742.4467643,N,01617.9732370,E,2,21,0.7,625.0705,M,43.2111,M,2.7,0123*4C
$GNGNS,013017.00,4742.4467643,N,01617.9732370,E,DAAA,21,0.7,625.0705,43.2111,,*55
$GPGNS,013017.00,,,,,,07,,,,2.7,123*7B
$GLGNS,013017.00,,,,,,03,,,,,*78
$GAGNS,013017.00,,,,,,05,,,,,*73
$GBGNS,013017.00,,,,,,06,,,,,*73
$GPLLQ,013017.00,010125,,M,,M,1,21,1.911,,M*1E
$GPVTG,,T,,M,0.00,N,0.01,K,D*27
$GPHDT,,T*1B
$GPTHS,,V*0E
$GPROT,,V*08
$PSSN,HRP,013017.00,010125,,,,,,,00,0,,*65
$PTNL,AVR,013017.00,,Yaw,,Tilt,,,,0,,00*33
$GPGSA,A,3,02,03,06,17,19,21,28,,,,,,1.3,0.7,1.1*37
$GPGSA,A,3,69,85,86,,,,,,,,,,1.3,0.7,1.1*3B
$GPGSA,A,3,04,06,09,34,36,,,,,,,,1.3,0.7,1.1*3E
$GPGSA,A,3,06,09,16,19,20,29,,,,,,,1.3,0.7,1.1*3E
$GPGST,013017.00,2.967,0.887,0.594,31.934,0.815,0.689,1.585*68
$GPGBS,013017.00,2.834,3.348,7.959,21,0.0001,-2.597,0.853*70
$GPGRS,013017.00,1,-0.2,0.5,1.5,0.0,-0.6,-2.6,0.6,,,,,*4E
$GPGRS,013017.00,1,-2.1,1.6,7.7,,,,,,,,,*4D
$GPGRS,013017.00,1,0.7,0.3,0.1,4.4,2.2,,,,,,,*61
$GPGRS,013017.00,1,0.1,1.2,-2.7,2.7,-1.3,-2.0,,,,,,*65
$GPGSV,4,1,16,03,78,353,43,31,32,091,38,06,10,313,36,09,23,218,20*77
$GPGSV,4,2,16,28,27,059,35,21,32,149,35,19,28,304,39,17,38,270,51*76
$GPGSV,4,3,16,04,50,205,32,02,51,156,40,01,56,144,,32,02,046,*7C
$GPGSV,4,4,16,36,35,170,40,34,31,208,,49,34,195,35,61,03,257,*75
$GLGSV,3,1,10,85,70,293,48,78,13,041,,86,17,327,42,69,51,037,48*6B
$GLGSV,3,2,10,84,45,167,21,70,54,252,25,79,04,089,,77,02,348,*69
$GLGSV,3,3,10,68,04,049,,71,09,237,*6A
$GAGSV,3,1,12,06,74,113,48,05,14,214,31,18,17,308,,34,19,311,38*65
$GAGSV,3,2,12,04,54,062,47,10,26,136,34,09,64,188,48,11,54,140,32*6D
$GAGSV,3,3,12,36,71,299,42,27,01,353,,12,04,134,,19,01,042,*63
$GBGSV,5,1,17,20,80,034,52,05,24,128,,23,11,056,,35,39,300,34*61
$GBGSV,5,2,17,39,27,047,33,32,23,062,29,09,36,077,41,29,50,208,42*62
$GBGSV,5,3,17,16,32,057,38,06,32,061,42,19,45,250,46,48,74,260,*65
$GBGSV,5,4,17,37,08,104,,30,08,166,20,44,03,327,30,02,08,105,*65
$GBGSV,5,5,17,60,09,110,*52
$GPGGA,013017.00,,,,,0,00,,,M,,M,,*4C
$PTNL,GGK,013017.00,010125,4742.4467643,N,01617.9732370,E,1,21,1.3,EHT668.2815,M*46
$GPGGQ,013017.00,010125,4742.4467643,N,01617.9732370,E,1,21,1.911,625.0705,M*37
$GPGFA,013017.00,8.430,12.998,0.887,0.594,31.934,1.585,,VVV*09
$GPLLK,013017.00,010125,,M,,M,1,21,1.5,,M*08
$GNGMP,013017.00,,,,,DAAA,21,0.7,,,,*56
$GPGMP,013017.00,,,,,,07,,,,2.7,123*7B
$GLGMP,013017.00,,,,,,03,,,,,*78
$GAGMP,013017.00,,,,,,05,,,,,*73
$GBGMP,013017.00,,,,,,06,,,,,*73
$PSSN,SNC,[0,264635000,2347]*44
$GPZDA,013022.00,01,01,2025,,*61
$GPDTM,W84,,00.0000000,N,00.0000000,E,00.0000000,W84*5F
$GPRMC,013022.00,A,4742.4467506,N,01617.9732548,E,0.0,,010125,5.1,E,D*1F
$GPGLL,4742.4467506,N,01617.9732548,E,013022.00,A,D*6E
$GPGGA,013022.00,4742.4467506,N,01617.9732548,E,2,21,0.7,625.0593,M,43.2111,M,1.3,0123*4F
$GNGNS,013022.00,4742.4467506,N,01617.9732548,E,DAAA,21,0.7,625.0593,43.2111,,*51
$GPGNS,013022.00,,,,,,06,,,,1.3,123*7B
$GLGNS,013022.00,,,,,,03,,,,,*7E
$GAGNS,013022.00,,,,,,05,,,,,*75
$GBGNS,013022.00,,,,,,07,,,,,*74
$GPLLQ,013022.00,010125,,M,,M,1,21,2.536,,M*12
$GPVTG,,T,,M,0.00,N,0.01,K,D*27
$GPHDT,,T*1B
$GPTHS,,V*0E
$GPROT,,V*08
$PSSN,HRP,013022.00,010125,,,,,,,00,0,,*63
$PTNL,AVR,013022.00,,Yaw,,Tilt,,,,0,,00*35
$GPGSA,A,3,02,03,17,19,21,28,,,,,,,1.3,0.7,1.1*31
$GPGSA,A,3,69,85,86,,,,,,,,,,1.3,0.7,1.1*3B
$GPGSA,A,3,04,06,09,34,36,,,,,,,,1.3,0.7,1.1*3E
$GPGSA,A,3,06,09,16,19,20,29,35,,,,,,1.3,0.7,1.1*38
$GPGST,013022.00,4.525,1.085,0.736,24.239,1.035,0.806,2.171*6F
$GPGBS,013022.00,2.999,3.012,8.895,21,0.0001,-1.893,0.804*7A
$GPGRS,013022.00,1,-1.2,0.7,0.7,-0.4,-1.9,1.1,,,,,,*6E
$GPGRS,013022.00,1,-1.6,1.6,11.7,,,,,,,,,*78
$GPGRS,013022.00,1,1.0,0.5,0.5,4.5,2.1,,,,,,,*61
$GPGRS,013022.00,1,0.4,1.0,-1.6,1.4,-1.3,-1.2,10.1,,,,,*79
$GPGSV,4,1,16,03,78,353,45,31,32,090,41,06,10,313,35,09,23,218,33*7F
$GPGSV,4,2,16,28,27,059,37,21,32,149,36,19,28,304,40,17,38,270,51*79
$GPGSV,4,3,16,04,50,205,34,02,51,156,39,01,56,144,,32,02,046,*74
$GPGSV,4,4,16,36,35,170,40,34,31,208,,49,34,195,35,61,03,257,*75
$GLGSV,3,1,10,85,70,293,49,78,13,041,31,86,17,327,42,69,51,037,48*68
$GLGSV,3,2,10,84,45,167,35,70,54,252,19,79,05,089,,77,02,348,*62
$GLGSV,3,3,10,68,04,049,,71,09,237,*6A
$GAGSV,3,1,12,06,74,112,48,05,14,214,30,18,17,308,,34,19,311,38*65
$GAGSV,3,2,12,04,54,062,47,10,26,136,33,09,64,188,48,11,54,140,34*6C
$GAGSV,3,3,12,36,71,299,42,27,01,353,,12,04,134,,19,01,042,*63
$GBGSV,5,1,17,20,80,034,52,05,24,128,,23,11,056,,35,40,300,37*6C
$GBGSV,5,2,17,39,27,047,31,32,23,062,29,09,36,077,41,29,50,208,41*63
$GBGSV,5,3,17,16,32,057,38,06,32,061,42,19,45,250,45,48,74,260,*66
$GBGSV,5,4,17,37,08,104,,30,08,166,20,44,03,327,30,02,08,105,*65
$GBGSV,5,5,17,60,09,110,*52
$GPGGA,013022.00,,,,,0,00,,,M,,M,,*4A
$PTNL,GGK,013022.00,010125,4742.4467506,N,01617.9732548,E,1,21,1.3,EHT668.2704,M*40
$GPGGQ,013022.00,010125,4742.4467506,N,01617.9732548,E,1,21,2.536,625.0593,M*39
$GPGFA,013022.00,10.318,17.803,1.085,0.736,24.239,2.171,,VVV*32
$GPLLK,013022.00,010125,,M,,M,1,21,1.6,,M*0D
$GNGMP,013022.00,,,,,DAAA,21,0.7,,,,*50
$GPGMP,013022.00,,,,,,06,,,,1.3,123*7B
$GLGMP,013022.00,,,,,,03,,,,,*7E
$GAGMP,013022.00,,,,,,05,,,,,*75
$GBGMP,013022.00,,,,,,07,,,,,*74
$PSSN,SNC,[0,264640000,2347]*46
$GPZDA,013027.00,01,01,2025,,*64
$GPDTM,W84,,00.0000000,N,00.0000000,E,00.0000000,W84*5F
$GPRMC,013027.00,A,4742.4467386,N,01617.9732529,E,0.0,,010125,5.1,E,D*13
$GPGLL,4742.4467386,N,01617.9732529,E,013027.00,A,D*62
$GPGGA,013027.00,4742.4467386,N,01617.9732529,E,2,22,0.7,625.0379,M,43.2111,M,2.3,0123*41
$GNGNS,013027.00,4742.4467386,N,01617.9732529,E,DAAA,22,0.7,625.0379,43.2111,,*5C
$GPGNS,013027.00,,,,,,06,,,,2.3,123*7D
$GLGNS,013027.00,,,,,,03,,,,,*7B
$GAGNS,013027.00,,,,,,06,,,,,*73
$GBGNS,013027.00,,,,,,07,,,,,*71
$GPLLQ,013027.00,010125,,M,,M,1,22,1.950,,M*1B
$GPVTG,,T,,M,0.01,N,0.02,K,D*25
$GPHDT,,T*1B
$GPTHS,,V*0E
$GPROT,,V*08
$PSSN,HRP,013027.00,010125,,,,,,,00,0,,*66
$PTNL,AVR,013027.00,,Yaw,,Tilt,,,,0,,00*30
$GPGSA,A,3,02,03,17,19,21,28,,,,,,,1.3,0.7,1.1*31
$GPGSA,A,3,69,85,86,,,,,,,,,,1.3,0.7,1.1*3B
$GPGSA,A,3,04,06,09,11,34,36,,,,,,,1.3,0.7,1.1*3E
$GPGSA,A,3,06,09,16,19,20,29,35,,,,,,1.3,0.7,1.1*38
$GPGST,013027.00,4.775,0.836,0.573,29.537,0.780,0.647,1.666*6A
$GPGBS,013027.00,3.062,3.080,9.119,86,0.0001,14.460,6.308*61
$GPGRS,013027.00,1,0.6,0.8,-0.1,-1.1,-1.4,0.7,,,,,,*69
$GPGRS,013027.00,1,-1.9,1.2,14.5,,,,,,,,,*71
$GPGRS,013027.00,1,0.7,-0.1,0.2,2.1,3.1,1.5,,,,,,*65
$GPGRS,013027.00,1,0.2,0.5,-1.4,-0.4,-2.2,-1.1,9.9,,,,,*61
$GPGSV,4,1,16,03,78,353,46,31,32,090,42,06,10,313,35,09,23,218,26*7B
$GPGSV,4,2,16,28,27,059,35,21,32,149,35,19,28,304,40,17,38,270,50*79
$GPGSV,4,3,16,04,51,205,35,02,51,156,39,01,56,144,,32,02,046,*74
$GPGSV,4,4,16,36,35,170,40,34,31,208,,49,34,195,35,61,03,257,*75
$GLGSV,3,1,10,85,70,293,49,78,13,041,32,86,17,327,41,69,51,037,48*68
$GLGSV,3,2,10,84,45,167,22,70,54,252,,79,05,089,,77,02,348,*6C
$GLGSV,3,3,10,68,04,049,,71,09,237,*6A
$GAGSV,3,1,12,06,74,112,48,05,14,214,33,18,17,308,,34,19,311,37*69
$GAGSV,3,2,12,04,54,062,47,10,26,136,31,09,64,188,48,11,54,140,37*6D
$GAGSV,3,3,12,36,71,299,41,27,01,353,,12,04,134,,19,01,042,*60
$GBGSV,5,1,17,20,80,034,52,05,24,128,,23,11,056,,35,40,300,40*6C
$GBGSV,5,2,17,39,27,047,30,32,23,062,28,09,36,077,40,29,50,208,40*63
$GBGSV,5,3,17,16,32,057,39,06,32,061,42,19,45,250,44,48,74,261,*67
$GBGSV,5,4,17,37,08,104,,30,08,166,18,44,03,327,29,02,08,105,*66
$GBGSV,5,5,17,60,09,110,*52
$GPGGA,013027.00,,,,,0,00,,,M,,M,,*4F
$PTNL,GGK,013027.00,010125,4742.4467386,N,01617.9732529,E,1,22,1.3,EHT668.2489,M*49
$GPGGQ,013027.00,010125,4742.4467386,N,01617.9732529,E,1,22,1.950,625.0379,M*3B
$GPGFA,013027.00,7.949,13.661,0.836,0.573,29.537,1.666,,VVV*05
$GPLLK,013027.00,010125,,M,,M,1,22,1.6,,M*0B
$GNGMP,013027.00,,,,,DAAA,22,0.7,,,,*56
$GPGMP,013027.00,,,,,,06,,,,2.3,123*7D
$GLGMP,013027.00,,,,,,03,,,,,*7B
$GAGMP,013027.00,,,,,,06,,,,,*73
$GBGMP,013027.00,,,,,,07,,,,,*71
$PSSN,SNC,[0,264645000,2347]*43
$GPZDA,013032.00,01,01,2025,,*60
$GPDTM,W84,,00.0000000,N,00.0000000,E,00.0000000,W84*5F
$GPRMC,013032.00,A,4742.4467357,N,01617.9732503,E,0.0,,010125,5.1,E,D*13
$GPGLL,4742.4467357,N,01617.9732503,E,013032.00,A,D*62
$GPGGA,013032.00,4742.4467357,N,01617.9732503,E,2,21,0.7,625.0298,M,43.2111,M,3.2,0123*4C
$GNGNS,013032.00,4742.4467357,N,01617.9732503,E,DAAA,21,0.7,625.0298,43.2111,,*51
$GPGNS,013032.00,,,,,,05,,,,3.2,123*7A
$GLGNS,013032.00,,,,,,03,,,,,*7F
$GAGNS,013032.00,,,,,,06,,,,,*77
$GBGNS,013032.00,,,,,,07,,,,,*75
$GPLLQ,013032.00,010125,,M,,M,1,21,2.332,,M*11
$GPVTG,,T,,M,0.00,N,0.01,K,D*27
$GPHDT,,T*1B
$GPTHS,,V*0E
$GPROT,,V*08
$PSSN,HRP,013032.00,010125,,,,,,,00,0,,*62
$PTNL,AVR,013032.00,,Yaw,,Tilt,,,,0,,00*34
$GPGSA,A,3,03,17,19,21,28,,,,,,,,1.4,0.7,1.1*34
$GPGSA,A,3,69,85,86,,,,,,,,,,1.4,0.7,1.1*3C
$GPGSA,A,3,04,06,09,11,34,36,,,,,,,1.4,0.7,1.1*39
$GPGSA,A,3,06,09,16,19,20,29,35,,,,,,1.4,0.7,1.1*3F
$GPGST,013032.00,5.428,1.071,0.710,13.266,1.055,0.733,1.946*62
$GPGBS,013032.00,5.066,3.073,10.277,86,0.0001,17.245,6.308*5A
$GPGRS,013032.00,1,0.3,0.3,-1.6,-1.7,0.7,,,,,,,*65
$GPGRS,013032.00,1,-1.5,1.6,17.2,,,,,,,,,*79
$GPGRS,013032.00,1,0.7,0.2,0.6,1.6,3.7,2.0,,,,,,*4F
$GPGRS,013032.00,1,0.5,0.7,-0.2,0.4,-1.7,-1.5,8.8,,,,,*48
$GPGSV,4,1,16,03,78,353,44,31,32,090,42,06,10,313,34,09,23,218,34*7B
$GPGSV,4,2,16,28,27,058,36,21,32,149,36,19,28,304,40,17,38,270,50*78
$GPGSV,4,3,16,04,51,205,32,02,51,156,37,01,56,144,,32,01,046,*7E
$GPGSV,4,4,16,36,35,170,40,34,31,208,,49,34,195,36,61,03,257,*76
$GLGSV,3,1,10,85,70,293,49,78,13,041,26,86,17,327,40,69,51,037,49*6D
$GLGSV,3,2,10,84,45,167,35,70,54,252,25,79,05,089,,77,02,348,*6D
$GLGSV,3,3,10,68,04,049,,71,09,237,*6A
$GAGSV,3,1,12,06,74,112,48,05,14,214,33,18,17,308,,34,19,311,37*69
$GAGSV,3,2,12,04,54,062,46,10,26,136,29,09,64,188,48,11,54,140,39*6B
$GAGSV,3,3,12,36,71,299,40,27,01,353,,12,04,134,,19,01,042,*61
$GBGSV,5,1,17,20,80,034,52,05,24,128,,23,11,056,,35,40,300,42*6E
$GBGSV,5,2,17,39,27,047,31,32,23,062,27,09,36,077,41,29,50,208,39*62
$GBGSV,5,3,17,16,32,057,40,06,33,061,42,19,45,250,45,48,74,261,*69
$GBGSV,5,4,17,37,08,104,,30,08,166,,44,03,327,29,02,08,105,*6F
$GBGSV,5,5,17,60,09,110,*52
$GPGGA,013032.00,,,,,0,00,,,M,,M,,*4B
$PTNL,GGK,013032.00,010125,4742.4467357,N,01617.9732503,E,1,21,1.4,EHT668.2409,M*45
$GPGGQ,013032.00,010125,4742.4467357,N,01617.9732503,E,1,21,2.332,625.0298,M*3B
$GPGFA,013032.00,10.186,15.954,1.071,0.710,13.266,1.946,,VVV*39
$GPLLK,013032.00,010125,,M,,M,1,21,1.6,,M*0C
$GNGMP,013032.00,,,,,DAAA,21,0.7,,,,*51
$GPGMP,013032.00,,,,,,05,,,,3.2,123*7A
$GLGMP,013032.00,,,,,,03,,,,,*7F
$GAGMP,013032.00,,,,,,06,,,,,*77
$GBGMP,013032.00,,,,,,07,,,,,*75
$PSSN,SNC,[0,264650000,2347]*47
$GPZDA,013037.00,01,01,2025,,*65
$GPDTM,W84,,00.0000000,N,00.0000000,E,00.0000000,W84*5F
$GPRMC,013037.00,A,4742.4467216,N,01617.9732460,E,0.0,,010125,5.1,E,D*16
$GPGLL,4742.4467216,N,01617.9732460,E,013037.00,A,D*67
$GPGGA,013037.00,4742.4467216,N,01617.9732460,E,2,21,0.7,625.0398,M,43.2111,M,3.4,0123*4E
$GNGNS,013037.00,4742.4467216,N,01617.9732460,E,DAAA,21,0.7,625.0398,43.2111,,*55
$GPGNS,013037.00,,,,,,05,,,,3.4,123*79
$GLGNS,013037.00,,,,,,03,,,,,*7A
$GAGNS,013037.00,,,,,,06,,,,,*72
$GBGNS,013037.00,,,,,,07,,,,,*70
$GPLLQ,013037.00,010125,,M,,M,1,21,2.314,,M*10
$GPVTG,,T,,M,0.00,N,0.01,K,D*27
$GPHDT,,T*1B
$GPTHS,,V*0E
$GPROT,,V*08
$PSSN,HRP,013037.00,010125,,,,,,,00,0,,*67
$PTNL,AVR,013037.00,,Yaw,,Tilt,,,,0,,00*31
$GPGSA,A,3,03,17,19,21,28,,,,,,,,1.4,0.7,1.1*34
$GPGSA,A,3,69,85,86,,,,,,,,,,1.4,0.7,1.1*3C
$GPGSA,A,3,04,06,09,11,34,36,,,,,,,1.4,0.7,1.1*39
$GPGSA,A,3,06,09,16,19,20,29,35,,,,,,1.4,0.7,1.1*3F
$GPGST,013037.00,6.308,1.079,0.714,11.577,1.067,0.732,1.918*63
$GPGBS,013037.00,5.123,3.115,9.564,86,0.0001,21.855,6.310*64
$GPGRS,013037.00,1,0.3,0.6,-1.1,-0.5,0.9,,,,,,,*6F
$GPGRS,013037.00,1,-0.5,0.3,21.9,,,,,,,,,*77
$GPGRS,013037.00,1,0.2,0.5,0.6,1.0,4.5,1.0,,,,,,*48
$GPGRS,013037.00,1,1.0,0.4,0.8,1.8,-1.4,0.0,6.8,,,,,*44
$GPGSV,4,1,16,03,78,354,44,31,32,090,41,06,10,313,35,09,23,218,34*7E
$GPGSV,4,2,16,28,27,058,36,21,32,149,36,19,28,304,41,17,38,270,50*79
$GPGSV,4,3,16,04,51,205,37,02,51,156,36,01,56,144,,32,01,046,*7A
$GPGSV,4,4,16,36,35,170,41,34,31,208,,49,34,195,36,61,03,257,*77
$GLGSV,3,1,10,85,70,292,49,78,13,041,,86,17,327,38,69,51,037,50*6F
$GLGSV,3,2,10,84,45,167,23,70,54,252,29,79,05,089,,77,02,348,*66
$GLGSV,3,3,10,68,04,050,,71,09,237,37*66
$GAGSV,3,1,12,06,74,112,48,05,14,214,34,18,17,308,,34,19,311,36*6F
$GAGSV,3,2,12,04,54,062,44,10,26,136,24,09,64,188,48,11,54,140,40*6A
$GAGSV,3,3,12,36,71,299,39,27,01,353,,12,03,134,,19,01,042,*68
$GBGSV,5,1,17,20,80,034,52,05,24,128,,23,11,056,,35,40,300,42*6E
$GBGSV,5,2,17,39,27,047,30,32,23,062,32,09,36,077,40,29,50,208,40*68
$GBGSV,5,3,17,16,32,057,40,06,33,061,42,19,45,250,44,48,74,261,*68
$GBGSV,5,4,17,37,09,104,,30,08,166,19,44,03,327,29,02,08,105,*66
$GBGSV,5,5,17,60,09,110,*52
$GPGGA,013037.00,,,,,0,00,,,M,,M,,*4E
$PTNL,GGK,013037.00,010125,4742.4467216,N,01617.9732460,E,1,21,1.4,EHT668.2508,M*40
$GPGGQ,013037.00,010125,4742.4467216,N,01617.9732460,E,1,21,2.314,625.0398,M*3B
$GPGFA,013037.00,10.261,15.727,1.079,0.714,11.577,1.918,,VVV*3E
$GPLLK,013037.00,010125,,M,,M,1,21,1.6,,M*09
$GNGMP,013037.00,,,,,DAAA,21,0.7,,,,*54
$GPGMP,013037.00,,,,,,05,,,,3.4,123*79
$GLGMP,013037.00,,,,,,03,,,,,*7A
$GAGMP,013037.00,,,,,,06,,,,,*72
$GBGMP,013037.00,,,,,,07,,,,,*70
$PSSN,SNC,[0,264655000,2347]*42
$GPZDA,013042.00,01,01,2025,,*67
$GPDTM,W84,,00.0000000,N,00.0000000,E,00.0000000,W84*5F
$GPRMC,013042.00,A,4742.4467141,N,01617.9732436,E,0.0,,010125,5.1,E,D*16
$GPGLL,4742.4467141,N,01617.9732436,E,013042.00,A,D*67
$GPGGA,013042.00,4742.4467141,N,01617.9732436,E,2,20,0.7,625.0323,M,43.2111,M,1.2,0123*4B
$GNGNS,013042.00,4742.4467141,N,01617.9732436,E,DAAA,20,0.7,625.0323,43.2111,,*54
$GPGNS,013042.00,,,,,,05,,,,1.2,123*7F
$GLGNS,013042.00,,,,,,02,,,,,*79
$GAGNS,013042.00,,,,,,06,,,,,*70
$GBGNS,013042.00,,,,,,07,,,,,*72
$GPLLQ,013042.00,010125,,M,,M,1,20,1.623,,M*11
$GPVTG,,T,,M,0.00,N,0.00,K,D*26
$GPHDT,,T*1B
$GPTHS,,V*0E
$GPROT,,V*08
$PSSN,HRP,013042.00,010125,,,,,,,00,0,,*65
$PTNL,AVR,013042.00,,Yaw,,Tilt,,,,0,,00*33
$GPGSA,A,3,03,17,19,21,28,,,,,,,,1.4,0.7,1.2*37
$GPGSA,A,3,69,85,,,,,,,,,,,1.4,0.7,1.2*31
$GPGSA,A,3,04,06,09,11,34,36,,,,,,,1.4,0.7,1.2*3A
$GPGSA,A,3,06,09,16,19,20,29,35,,,,,,1.4,0.7,1.2*3C
$GPGST,013042.00,2.101,0.756,0.473,8.529,0.751,0.481,1.356*5C
$GPGBS,013042.00,4.872,2.967,9.871,03,0.0001,1.022,0.567*58
$GPGRS,013042.00,1,1.0,0.0,-1.2,-0.1,0.5,,,,,,,*62
$GPGRS,013042.00,1,0.2,-1.0,,,,,,,,,,*64
$GPGRS,013042.00,1,-0.9,0.1,0.2,0.5,5.5,-1.1,,,,,,*45
$GPGRS,013042.00,1,0.4,-0.8,0.8,2.0,-1.7,0.3,3.6,,,,,*62
$GPGSV,4,1,16,03,78,354,44,31,32,090,39,06,10,313,32,09,23,218,24*77
$GPGSV,4,2,16,28,27,058,35,21,32,149,37,19,28,304,42,17,38,270,49*70
$GPGSV,4,3,16,04,51,205,26,02,51,156,35,01,56,144,,32,01,046,*79
$GPGSV,4,4,16,36,35,170,42,34,31,208,,49,34,195,36,61,03,257,*74
$GLGSV,3,1,10,85,70,292,48,78,13,041,22,86,17,327,36,69,51,037,51*61
$GLGSV,3,2,10,84,45,167,26,70,54,253,31,79,05,089,,77,02,348,*6B
$GLGSV,3,3,10,68,04,050,,71,09,237,36*67
$GAGSV,3,1,12,06,74,112,48,05,14,214,35,18,17,308,,34,19,311,37*6F
$GAGSV,3,2,12,04,54,062,43,10,26,136,22,09,64,188,48,11,54,140,40*6B
$GAGSV,3,3,12,36,71,299,36,27,01,353,,12,03,134,,19,01,042,*67
$GBGSV,5,1,17,20,80,034,51,05,24,128,,23,11,055,,35,40,300,42*6E
$GBGSV,5,2,17,39,27,047,32,32,23,062,30,09,36,077,40,29,50,208,42*6A
$GBGSV,5,3,17,16,32,057,40,06,33,061,42,19,46,250,44,48,74,261,*6B
$GBGSV,5,4,17,37,09,104,,30,08,166,,44,03,327,32,02,08,105,*64
$GBGSV,5,5,17,60,09,110,*52
$GPGGA,013042.00,,,,,0,00,,,M,,M,,*4C
$PTNL,GGK,013042.00,010125,4742.4467141,N,01617.9732436,E,1,20,1.4,EHT668.2434,M*4F
$GPGGQ,013042.00,010125,4742.4467141,N,01617.9732436,E,1,20,1.623,625.0323,M*38
$GPGFA,013042.00,7.189,11.118,0.756,0.473,8.529,1.356,,VVV*3B
$GPLLK,013042.00,010125,,M,,M,1,20,1.7,,M*0B
$GNGMP,013042.00,,,,,DAAA,20,0.7,,,,*57
$GPGMP,013042.00,,,,,,05,,,,1.2,123*7F
$GLGMP,013042.00,,,,,,02,,,,,*79
$GAGMP,013042.00,,,,,,06,,,,,*70
$GBGMP,013042.00,,,,,,07,,,,,*72
$PSSN,SNC,[0,264660000,2347]*44
$GPZDA,013047.00,01,01,2025,,*62
$GPDTM,W84,,00.0000000,N,00.0000000,E,00.0000000,W84*5F
$GPRMC,013047.00,A,4742.4467102,N,01617.9732161,E,0.0,,010125,5.1,E,D*13
$GPGLL,4742.4467102,N,01617.9732161,E,013047.00,A,D*62
$GPGGA,013047.00,4742.4467102,N,01617.9732161,E,2,22,0.6,625.0254,M,43.2111,M,2.0,0123*4D
$GNGNS,013047.00,4742.4467102,N,01617.9732161,E,DAAA,22,0.6,625.0254,43.2111,,*53
$GPGNS,013047.00,,,,,,06,,,,2.0,123*78
$GLGNS,013047.00,,,,,,02,,,,,*7C
$GAGNS,013047.00,,,,,,07,,,,,*74
$GBGNS,013047.00,,,,,,07,,,,,*77
$GPLLQ,013047.00,010125,,M,,M,1,22,2.171,,M*15
$GPVTG,,T,,M,0.00,N,0.00,K,D*26
$GPHDT,,T*1B
$GPTHS,,V*0E
$GPROT,,V*08
$PSSN,HRP,013047.00,010125,,,,,,,00,0,,*60
$PTNL,AVR,013047.00,,Yaw,,Tilt,,,,0,,00*36
$GPGSA,A,3,03,17,19,21,28,31,,,,,,,1.2,0.6,1.0*30
$GPGSA,A,3,69,85,,,,,,,,,,,1.2,0.6,1.0*34
$GPGSA,A,3,04,05,06,09,10,11,34,,,,,,1.2,0.6,1.0*3E
$GPGSA,A,3,06,09,16,19,20,29,35,,,,,,1.2,0.6,1.0*39
$GPGST,013047.00,1.953,1.016,0.584,9.571,1.007,0.600,1.827*51
$GPGBS,013047.00,4.942,2.447,10.071,19,0.0001,-2.587,0.848*4F
$GPGRS,013047.00,1,0.5,-0.6,-2.6,-0.5,0.8,1.5,,,,,,*6C
$GPGRS,013047.00,1,0.2,-1.7,,,,,,,,,,*66
$GPGRS,013047.00,1,-1.3,-1.1,-0.2,-0.2,-3.8,-0.2,4.3,,,,,*6D
$GPGRS,013047.00,1,-0.3,-1.6,0.4,1.1,-1.8,-0.3,0.5,,,,,*6E
$GPGSV,4,1,16,03,78,354,46,31,32,090,36,06,10,313,30,09,23,218,21*7D
$GPGSV,4,2,16,28,27,058,36,21,32,149,36,19,28,304,42,17,38,270,48*73
$GPGSV,4,3,16,04,51,205,37,02,51,156,29,01,56,144,,32,01,046,*74
$GPGSV,4,4,16,36,35,170,42,34,31,208,,49,34,195,35,61,03,257,*77
$GLGSV,3,1,10,85,70,292,47,78,13,041,,86,17,327,34,69,51,037,51*6C
$GLGSV,3,2,10,84,45,167,29,70,54,253,32,79,05,089,,77,02,348,*67
$GLGSV,3,3,10,68,04,050,,71,09,237,34*65
$GAGSV,3,1,12,06,74,112,49,05,15,214,36,18,17,308,,34,19,311,36*6D
$GAGSV,3,2,12,04,54,062,41,10,26,136,40,09,64,188,48,11,54,140,40*6D
$GAGSV,3,3,12,36,71,299,34,27,01,353,,12,03,134,,19,01,042,*65
$GBGSV,5,1,17,20,80,034,51,05,24,128,,23,11,055,,35,40,300,42*6E
$GBGSV,5,2,17,39,27,047,32,32,23,062,32,09,36,077,40,29,50,208,43*69
$GBGSV,5,3,17,16,32,057,40,06,33,061,42,19,46,251,43,48,74,261,*6D
$GBGSV,5,4,17,37,09,104,,30,08,166,,44,03,327,33,02,08,105,*65
$GBGSV,5,5,17,60,09,110,*52
$GPGGA,013047.00,,,,,0,00,,,M,,M,,*49
$PTNL,GGK,013047.00,010125,4742.4467102,N,01617.9732161,E,1,22,1.2,EHT668.2365,M*4D
$GPGGQ,013047.00,010125,4742.4467102,N,01617.9732161,E,1,22,2.171,625.0254,M*3D
$GPGFA,013047.00,9.663,14.985,1.016,0.584,9.571,1.827,,VVV*30
$GPLLK,013047.00,010125,,M,,M,1,22,1.4,,M*0F
$GNGMP,013047.00,,,,,DAAA,22,0.6,,,,*51
$GPGMP,013047.00,,,,,,06,,,,2.0,123*78
$GLGMP,013047.00,,,,,,02,,,,,*7C
$GAGMP,013047.00,,,,,,07,,,,,*74
$GBGMP,013047.00,,,,,,07,,,,,*77
$PSSN,SNC,[0,264665000,2347]*41
$GPZDA,013052.00,01,01,2025,,*66
$GPDTM,W84,,00.0000000,N,00.0000000,E,00.0000000,W84*5F
$GPRMC,013052.00,A,4742.4467017,N,01617.9731901,E,0.0,,010125,5.1,E,D*1F
$GPGLL,4742.4467017,N,01617.9731901,E,013052.00,A,D*6E
$GPGGA,013052.00,4742.4467017,N,01617.9731901,E,2,20,0.7,625.0179,M,43.2111,M,3.3,0123*4C
$GNGNS,013052.00,4742.4467017,N,01617.9731901,E,DAAA,20,0.7,625.0179,43.2111,,*50
$GPGNS,013052.00,,,,,,04,,,,3.3,123*7C
$GLGNS,013052.00,,,,,,03,,,,,*79
$GAGNS,013052.00,,,,,,06,,,,,*71
$GBGNS,013052.00,,,,,,07,,,,,*73
$GPLLQ,013052.00,010125,,M,,M,1,20,2.902,,M*1F
$GPVTG,,T,,M,0.01,N,0.01,K,D*26
$GPHDT,,T*1B
$GPTHS,,V*0E
$GPROT,,V*08
$PSSN,HRP,013052.00,010125,,,,,,,00,0,,*64
$PTNL,AVR,013052.00,,Yaw,,Tilt,,,,0,,00*32
$GPGSA,A,3,03,17,21,28,,,,,,,,,1.2,0.7,1.0*3B
$GPGSA,A,3,69,85,86,,,,,,,,,,1.2,0.7,1.0*3B
$GPGSA,A,3,04,05,06,09,11,34,,,,,,,1.2,0.7,1.0*3E
$GPGSA,A,3,06,09,16,19,20,29,35,,,,,,1.2,0.7,1.0*38
$GPGST,013052.00,2.366,1.311,0.857,354.819,1.308,0.862,2.444*59
$GPGBS,013052.00,5.807,4.340,10.664,28,0.0001,2.052,0.859*6C
$GPGRS,013052.00,1,0.7,-1.3,-1.6,2.1,,,,,,,,*4A
$GPGRS,013052.00,1,-0.3,-0.8,-6.2,,,,,,,,,*47
$GPGRS,013052.00,1,-1.2,-1.2,-0.5,-0.4,-0.4,3.4,,,,,,*64
$GPGRS,013052.00,1,-0.6,-2.3,0.3,0.6,-1.5,-1.0,0.8,,,,,*6A
$GPGSV,4,1,16,03,78,354,45,31,32,090,36,06,10,313,26,09,23,218,31*78
$GPGSV,4,2,16,28,27,058,39,21,32,149,37,19,28,304,42,17,38,270,47*72
$GPGSV,4,3,16,04,51,205,37,02,51,156,,01,56,144,,32,01,046,*7F
$GPGSV,4,4,16,36,35,170,41,34,31,208,,49,34,195,36,61,03,257,*77
$GLGSV,3,1,10,85,70,292,47,78,13,041,,86,17,327,43,69,51,037,50*6D
$GLGSV,3,2,10,84,45,167,31,70,54,253,31,79,05,089,,77,02,348,*6D
$GLGSV,3,3,10,68,04,050,,71,09,237,31*60
$GAGSV,3,1,12,06,74,112,49,05,15,214,35,18,17,308,,34,19,311,37*6F
$GAGSV,3,2,12,04,54,062,40,10,26,136,30,09,64,188,48,11,54,140,41*6A
$GAGSV,3,3,12,36,71,299,35,27,01,353,,12,03,134,,19,01,042,*64
$GBGSV,5,1,17,20,80,034,51,05,24,128,,23,11,055,,35,40,300,42*6E
$GBGSV,5,2,17,39,27,046,32,32,23,062,35,09,36,077,40,29,50,208,43*6F
$GBGSV,5,3,17,16,32,057,40,06,33,061,42,19,46,251,41,48,74,261,*6F
$GBGSV,5,4,17,37,09,104,,30,08,166,,44,03,327,34,02,08,105,*62
$GBGSV,5,5,17,60,09,110,*52
$GPGGA,013052.00,,,,,0,00,,,M,,M,,*4D
$PTNL,GGK,013052.00,010125,4742.4467017,N,01617.9731901,E,1,20,1.2,EHT668.2289,M*40
$GPGGQ,013052.00,010125,4742.4467017,N,01617.9731901,E,1,20,2.902,625.0179,M*33
$GPGFA,013052.00,12.465,20.037,1.311,0.857,354.819,2.444,,VVV*08
$GPLLK,013052.00,010125,,M,,M,1,20,1.4,,M*09
$GNGMP,013052.00,,,,,DAAA,20,0.7,,,,*56
$GPGMP,013052.00,,,,,,04,,,,3.3,123*7C
$GLGMP,013052.00,,,,,,03,,,,,*79
$GAGMP,013052.00,,,,,,06,,,,,*71
$GBGMP,013052.00,,,,,,07,,,,,*73
$PSSN,SNC,[0,264670000,2347]*45
$GPZDA,013057.00,01,01,2025,,*63
$GPDTM,W84,,00.0000000,N,00.0000000,E,00.0000000,W84*5F
$GPRMC,013057.00,A,4742.4466893,N,01617.9731645,E,0.0,,010125,5.1,E,D*10
$GPGLL,4742.4466893,N,01617.9731645,E,013057.00,A,D*61
$GPGGA,013057.00,4742.4466893,N,01617.9731645,E,2,22,0.7,625.0133,M,43.2111,M,3.0,0123*4C
$GNGNS,013057.00,4742.4466893,N,01617.9731645,E,DAAA,22,0.7,625.0133,43.2111,,*53
$GPGNS,013057.00,,,,,,06,,,,3.0,123*78
$GLGNS,013057.00,,,,,,02,,,,,*7D
$GAGNS,013057.00,,,,,,06,,,,,*74
$GBGNS,013057.00,,,,,,08,,,,,*79
$GPLLQ,013057.00,010125,,M,,M,1,22,3.137,,M*17
$GPVTG,,T,,M,0.00,N,0.01,K,D*27
$GPHDT,,T*1B
$GPTHS,,V*0E
$GPROT,,V*08
$PSSN,HRP,013057.00,010125,,,,,,,00,0,,*61
$PTNL,AVR,013057.00,,Yaw,,Tilt,,,,0,,00*37
$GPGSA,A,3,03,04,17,19,21,28,,,,,,,1.3,0.7,1.1*37
$GPGSA,A,3,69,85,,,,,,,,,,,1.3,0.7,1.1*35
$GPGSA,A,3,04,06,09,11,34,36,,,,,,,1.3,0.7,1.1*3E
$GPGSA,A,3,06,09,16,19,20,29,32,35,,,,,1.3,0.7,1.1*39
$GPGST,013057.00,2.403,1.346,1.001,16.582,1.321,1.033,2.651*6A
$GPGBS,013057.00,3.034,2.881,8.981,04,0.0001,-2.358,0.609*7B
$GPGRS,013057.00,1,1.0,-2.4,-0.5,-2.9,-0.4,3.3,,,,,,*43
$GPGRS,013057.00,1,0.6,1.4,,,,,,,,,,*4D
$GPGRS,013057.00,1,-0.7,0.4,0.4,0.4,2.5,-2.3,,,,,,*4B
$GPGRS,013057.00,1,-0.3,-2.0,1.5,0.7,-0.6,-0.6,4.9,3.7,,,,*45
$GPGSV,4,1,16,03,78,354,45,31,32,090,,06,10,313,33,09,23,218,22*7B
$GPGSV,4,2,16,28,27,058,39,21,32,149,37,19,28,304,42,17,38,270,47*72
$GPGSV,4,3,16,04,51,205,38,02,51,156,31,01,56,144,,32,01,046,*72
$GPGSV,4,4,16,36,35,170,42,34,31,208,,49,34,195,37,61,03,257,*75
$GLGSV,3,1,10,85,70,292,49,78,13,041,,86,18,327,30,69,51,037,49*60
$GLGSV,3,2,10,84,45,167,32,70,54,253,32,79,05,088,,77,02,348,*6C
$GLGSV,3,3,10,68,04,050,,71,09,237,29*69
$GAGSV,3,1,12,06,74,112,49,05,15,214,34,18,17,308,,34,19,311,36*6F
$GAGSV,3,2,12,04,54,062,39,10,26,136,32,09,65,188,48,11,54,140,40*66
$GAGSV,3,3,12,36,71,299,35,27,01,353,,12,03,134,,19,01,042,*64
$GBGSV,5,1,17,20,80,034,51,05,24,128,,23,11,055,,35,40,300,43*6F
$GBGSV,5,2,17,39,27,046,31,32,23,062,36,09,36,077,40,29,50,208,44*68
$GBGSV,5,3,17,16,32,057,40,06,33,061,42,19,46,251,38,48,74,261,*61
$GBGSV,5,4,17,37,09,104,,30,08,166,,44,03,327,36,02,08,105,*60
$GBGSV,5,5,17,60,09,110,*52
$GPGGA,013057.00,,,,,0,00,,,M,,M,,*48
$PTNL,GGK,013057.00,010125,4742.4466893,N,01617.9731645,E,1,22,1.3,EHT668.2243,M*4A
$GPGGQ,013057.00,010125,4742.4466893,N,01617.9731645,E,1,22,3.137,625.0133,M*3F
$GPGFA,013057.00,12.793,21.740,1.346,1.001,16.582,2.651,,VVV*35
$GPLLK,013057.00,010125,,M,,M,1,22,1.6,,M*0C
$GNGMP,013057.00,,,,,DAAA,22,0.7,,,,*51
$GPGMP,013057.00,,,,,,06,,,,3.0,123*78
$GLGMP,013057.00,,,,,,02,,,,,*7D
$GAGMP,013057.00,,,,,,06,,,,,*74
$GBGMP,013057.00,,,,,,08,,,,,*79
$PSSN,SNC,[0,264675000,2347]*40
$GPZDA,013102.00,01,01,2025,,*62
$GPDTM,W84,,00.0000000,N,00.0000000,E,00.0000000,W84*5F
$GPRMC,013102.00,A,4742.4466842,N,01617.9731496,E,0.0,,010125,5.1,E,D*11
$GPGLL,4742.4466842,N,01617.9731496,E,013102.00,A,D*60
$GPGGA,013102.00,4742.4466842,N,01617.9731496,E,2,21,0.7,624.9934,M,43.2111,M,1.4,0123*4F
$GNGNS,013102.00,4742.4466842,N,01617.9731496,E,DAAA,21,0.7,624.9934,43.2111,,*56
$GPGNS,013102.00,,,,,,05,,,,1.4,123*7C
$GLGNS,013102.00,,,,,,03,,,,,*7D
$GAGNS,013102.00,,,,,,05,,,,,*76
$GBGNS,013102.00,,,,,,08,,,,,*78
$GPLLQ,013102.00,010125,,M,,M,1,21,2.601,,M*16
$GPVTG,,T,,M,0.00,N,0.01,K,D*27
$GPHDT,,T*1B
$GPTHS,,V*0E
$GPROT,,V*08
$PSSN,HRP,013102.00,010125,,,,,,,00,0,,*60
$PTNL,AVR,013102.00,,Yaw,,Tilt,,,,0,,00*36
$GPGSA,A,3,03,04,17,19,21,,,,,,,,1.4,0.7,1.2*39
$GPGSA,A,3,69,85,86,,,,,,,,,,1.4,0.7,1.2*3F
$GPGSA,A,3,04,06,09,11,34,,,,,,,,1.4,0.7,1.2*3F
$GPGSA,A,3,06,09,16,19,20,29,32,35,,,,,1.4,0.7,1.2*3D
$GPGST,013102.00,3.255,1.317,0.709,48.231,1.024,1.089,2.128*6F
$GPGBS,013102.00,4.740,4.517,8.026,19,0.0001,-1.882,0.835*7B
$GPGRS,013102.00,1,1.3,-1.1,0.3,-1.9,0.7,,,,,,,*6F
$GPGRS,013102.00,1,0.6,2.2,-6.2,,,,,,,,,*4E
$GPGRS,013102.00,1,0.6,1.0,0.8,0.4,2.0,,,,,,,*68
$GPGRS,013102.00,1,0.9,-1.4,1.8,0.2,-0.2,-0.4,7.2,5.8,,,,*6B
$GPGSV,4,1,16,03,78,355,44,31,32,090,,06,10,313,33,09,23,218,30*78
$GPGSV,4,2,16,28,27,058,39,21,32,149,37,19,28,304,40,17,38,270,46*71
$GPGSV,4,3,16,04,51,205,38,02,51,156,35,01,56,144,,32,01,046,*76
$GPGSV,4,4,16,36,35,170,41,34,31,208,,49,34,195,37,61,03,257,*76
$GLGSV,3,1,10,85,70,292,49,78,13,041,21,86,18,327,41,69,51,037,48*64
$GLGSV,3,2,10,84,45,167,31,70,54,253,32,79,05,088,,77,02,348,*6F
$GLGSV,3,3,10,68,04,050,,71,09,237,*62
$GAGSV,3,1,12,06,74,112,49,05,15,214,33,18,17,308,,34,19,311,37*69
$GAGSV,3,2,12,04,54,062,41,10,25,136,33,09,65,188,48,11,54,140,38*64
$GAGSV,3,3,12,36,71,299,35,27,01,353,,12,03,134,,19,01,042,*64
$GBGSV,5,1,17,20,80,034,52,05,24,128,,23,11,055,,35,40,300,44*6B
$GBGSV,5,2,17,39,27,046,31,32,23,062,36,09,36,077,39,29,50,208,44*66
$GBGSV,5,3,17,16,32,057,41,06,33,061,42,19,46,251,37,48,74,261,*6F
$GBGSV,5,4,17,37,09,104,,30,08,166,19,44,03,327,35,02,08,105,*6B
$GBGSV,5,5,17,60,09,110,*52
$GPGGA,013102.00,,,,,0,00,,,M,,M,,*49
$PTNL,GGK,013102.00,010125,4742.4466842,N,01617.9731496,E,1,21,1.4,EHT668.2045,M*4B
$GPGGQ,013102.00,010125,4742.4466842,N,01617.9731496,E,1,21,2.601,624.9934,M*39
$GPGFA,013102.00,12.518,17.453,1.317,0.709,48.231,2.128,,VVV*36
$GPLLK,013102.00,010125,,M,,M,1,21,1.6,,M*0E
$GNGMP,013102.00,,,,,DAAA,21,0.7,,,,*53
$GPGMP,013102.00,,,,,,05,,,,1.4,123*7C
$GLGMP,013102.00,,,,,,03,,,,,*7D
$GAGMP,013102.00,,,,,,05,,,,,*76
$GBGMP,013102.00,,,,,,08,,,,,*78
$PSSN,SNC,[0,264680000,2347]*4A
$GPZDA,013107.00,01,01,2025,,*67
$GPDTM,W84,,00.0000000,N,00.0000000,E,00.0000000,W84*5F
$GPRMC,013107.00,A,4742.4466796,N,01617.9731371,E,0.0,,010125,5.1,E,D*1C
$GPGLL,4742.4466796,N,01617.9731371,E,013107.00,A,D*6D
$GPGGA,013107.00,4742.4466796,N,01617.9731371,E,2,20,0.7,624.9866,M,43.2111,M,2.4,0123*46
$GNGNS,013107.00,4742.4466796,N,01617.9731371,E,DAAA,20,0.7,624.9866,43.2111,,*5C
$GPGNS,013107.00,,,,,,05,,,,2.4,123*7A
$GLGNS,013107.00,,,,,,02,,,,,*79
$GAGNS,013107.00,,,,,,05,,,,,*73
$GBGNS,013107.00,,,,,,08,,,,,*7D
$GPLLQ,013107.00,010125,,M,,M,1,20,2.657,,M*11
$GPVTG,,T,,M,0.01,N,0.01,K,D*26
$GPHDT,,T*1B
$GPTHS,,V*0E
$GPROT,,V*08
$PSSN,HRP,013107.00,010125,,,,,,,00,0,,*65
$PTNL,AVR,013107.00,,Yaw,,Tilt,,,,0,,00*33
$GPGSA,A,3,03,04,17,19,21,,,,,,,,1.4,0.7,1.2*39
$GPGSA,A,3,69,85,,,,,,,,,,,1.4,0.7,1.2*31
$GPGSA,A,3,04,06,09,11,34,,,,,,,,1.4,0.7,1.2*3F
$GPGSA,A,3,06,09,16,19,20,29,32,35,,,,,1.4,0.7,1.2*3D
$GPGST,013107.00,3.734,1.347,0.708,47.206,1.052,1.099,2.177*6D
$GPGBS,013107.00,4.833,4.568,8.188,04,0.0001,-1.717,0.640*7B
$GPGRS,013107.00,1,1.3,-1.7,0.5,-1.2,0.5,,,,,,,*63
$GPGRS,013107.00,1,0.5,2.3,,,,,,,,,,*4E
$GPGRS,013107.00,1,1.0,0.9,0.7,0.5,0.7,,,,,,,*69
$GPGRS,013107.00,1,1.7,-1.9,0.4,-0.5,-0.1,-0.5,11.0,6.2,,,,*75
$GPGSV,4,1,16,03,78,355,44,31,32,090,35,06,10,313,34,09,23,218,26*7E
$GPGSV,4,2,16,28,27,058,39,21,31,149,37,19,28,304,38,17,38,270,46*7D
$GPGSV,4,3,16,04,51,205,39,02,51,156,37,01,56,144,,32,01,046,*75
$GPGSV,4,4,16,36,35,170,42,34,31,208,,49,34,195,38,61,03,257,*7A
$GLGSV,3,1,10,85,70,292,48,78,13,041,28,86,18,327,36,69,51,037,47*63
$GLGSV,3,2,10,84,45,167,29,70,54,253,33,79,05,088,,77,02,348,*67
$GLGSV,3,3,10,68,04,050,,71,09,237,*62
$GAGSV,3,1,12,06,74,111,49,05,15,214,32,18,17,308,,34,19,311,36*6A
$GAGSV,3,2,12,04,54,062,42,10,25,136,33,09,65,188,48,11,53,140,37*6F
$GAGSV,3,3,12,36,71,298,35,27,01,353,,12,03,134,,19,01,042,*65
$GBGSV,5,1,17,20,80,035,52,05,24,128,,23,11,055,,35,40,300,44*6A
$GBGSV,5,2,17,39,27,046,32,32,23,062,36,09,36,077,39,29,50,208,45*64
$GBGSV,5,3,17,16,32,057,40,06,33,061,42,19,46,251,37,48,75,261,*6F
$GBGSV,5,4,17,37,09,103,,30,08,166,20,44,03,327,36,02,08,105,*65
$GBGSV,5,5,17,60,09,110,*52
$GPGGA,013107.00,,,,,0,00,,,M,,M,,*4C
$PTNL,GGK,013107.00,010125,4742.4466796,N,01617.9731371,E,1,20,1.4,EHT668.1977,M*4C
$GPGGQ,013107.00,010125,4742.4466796,N,01617.9731371,E,1,20,2.657,624.9866,M*30
$GPGFA,013107.00,12.806,17.855,1.347,0.708,47.206,2.177,,VVV*3E
$GPLLK,013107.00,010125,,M,,M,1,20,1.7,,M*0B
$GNGMP,013107.00,,,,,DAAA,20,0.7,,,,*57
$GPGMP,013107.00,,,,,,05,,,,2.4,123*7A
$GLGMP,013107.00,,,,,,02,,,,,*79
$GAGMP,013107.00,,,,,,05,,,,,*73
$GBGMP,013107.00,,,,,,08,,,,,*7D
$PSSN,SNC,[0,264685000,2347]*4F
$GPZDA,013112.00,01,01,2025,,*63
$GPDTM,W84,,00.0000000,N,00.0000000,E,00.0000000,W84*5F
$GPRMC,013112.00,A,4742.4466653,N,01617.9731157,E,0.0,,010125,5.1,E,D*16
$GPGLL,4742.4466653,N,01617.9731157,E,013112.00,A,D*67
$GPGGA,013112.00,4742.4466653,N,01617.9731157,E,2,21,0.7,624.9974,M,43.2111,M,3.3,0123*49
$GNGNS,013112.00,4742.4466653,N,01617.9731157,E,DAAA,21,0.7,624.9974,43.2111,,*55
$GPGNS,013112.00,,,,,,04,,,,3.3,123*79
$GLGNS,013112.00,,,,,,03,,,,,*7C
$GAGNS,013112.00,,,,,,06,,,,,*74
$GBGNS,013112.00,,,,,,08,,,,,*79
$GPLLQ,013112.00,010125,,M,,M,1,21,2.686,,M*18
$GPVTG,,T,,M,0.00,N,0.01,K,D*27
$GPHDT,,T*1B
$GPTHS,,V*0E
$GPROT,,V*08
$PSSN,HRP,013112.00,010125,,,,,,,00,0,,*61
$PTNL,AVR,013112.00,,Yaw,,Tilt,,,,0,,00*37
$GPGSA,A,3,03,17,19,21,,,,,,,,,1.3,0.7,1.1*39
$GPGSA,A,3,69,85,86,,,,,,,,,,1.3,0.7,1.1*3B
$GPGSA,A,3,04,06,09,11,34,36,,,,,,,1.3,0.7,1.1*3E
$GPGSA,A,3,06,09,16,19,20,29,32,35,,,,,1.3,0.7,1.1*39
$GPGST,013112.00,5.817,1.360,0.784,30.176,1.240,0.963,2.179*66
$GPGBS,013112.00,7.128,7.034,11.313,32,0.0001,18.857,8.628*55
$GPGRS,013112.00,1,0.1,-0.2,-0.7,-1.0,,,,,,,,*66
$GPGRS,013112.00,1,0.1,2.1,-8.5,,,,,,,,,*42
$GPGRS,013112.00,1,0.3,0.1,-0.2,-0.7,0.6,1.3,,,,,,*4D
$GPGRS,013112.00,1,1.0,-3.1,-0.4,-1.9,-1.3,-0.6,18.9,4.6,,,,*5A
$GPGSV,4,1,16,03,78,355,45,31,32,090,26,06,10,313,29,09,23,218,25*72
$GPGSV,4,2,16,28,27,058,34,21,31,149,37,19,28,304,36,17,38,270,45*7D
$GPGSV,4,3,16,04,51,205,35,02,51,156,,01,56,144,,32,01,046,*7D
$GPGSV,4,4,16,36,35,170,42,34,31,208,,49,34,195,38,61,03,257,*7A
$GLGSV,3,1,10,85,70,292,49,78,13,041,,86,18,327,31,69,51,037,46*6E
$GLGSV,3,2,10,84,45,167,28,70,54,253,33,79,05,088,,77,02,348,*66
$GLGSV,3,3,10,68,04,050,,71,09,237,31*60
$GAGSV,3,1,12,06,74,111,49,05,15,215,31,18,17,308,,34,19,311,37*69
$GAGSV,3,2,12,04,54,062,42,10,25,136,31,09,65,188,48,11,53,140,36*6C
$GAGSV,3,3,12,36,71,298,36,27,01,353,,12,03,134,,19,01,042,*66
$GBGSV,5,1,17,20,80,035,52,05,24,128,,23,11,055,,35,40,300,43*6D
$GBGSV,5,2,17,39,27,046,32,32,23,062,36,09,36,077,40,29,50,208,46*69
$GBGSV,5,3,17,16,32,057,39,06,33,061,42,19,46,251,36,48,75,261,*60
$GBGSV,5,4,17,37,09,103,,30,08,166,19,44,03,327,36,02,08,105,*6F
$GBGSV,5,5,17,60,09,110,*52
$GPGGA,013112.00,,,,,0,00,,,M,,M,,*48
$PTNL,GGK,013112.00,010125,4742.4466653,N,01617.9731157,E,1,21,1.3,EHT668.2085,M*47
$GPGGQ,013112.00,010125,4742.4466653,N,01617.9731157,E,1,21,2.686,624.9974,M*35
$GPGFA,013112.00,12.927,17.872,1.360,0.784,30.176,2.179,,VVV*36
$GPLLK,013112.00,010125,,M,,M,1,21,1.6,,M*0F
$GNGMP,013112.00,,,,,DAAA,21,0.7,,,,*52
$GPGMP,013112.00,,,,,,04,,,,3.3,123*79
$GLGMP,013112.00,,,,,,03,,,,,*7C
$GAGMP,013112.00,,,,,,06,,,,,*74
$GBGMP,013112.00,,,,,,08,,,,,*79
$PSSN,SNC,[0,264690000,2347]*4B
$GPZDA,013117.00,01,01,2025,,*66
$GPDTM,W84,,00.0000000,N,00.0000000,E,00.0000000,W84*5F
$GPRMC,013117.00,A,4742.4466583,N,01617.9731148,E,0.0,,010125,5.1,E,D*13
$GPGLL,4742.4466583,N,01617.9731148,E,013117.00,A,D*62
$GPGGA,013117.00,4742.4466583,N,01617.9731148,E,2,21,0.7,624.9836,M,43.2111,M,2.8,0123*41
$GNGNS,013117.00,4742.4466583,N,01617.9731148,E,DAAA,21,0.7,624.9836,43.2111,,*57
$GPGNS,013117.00,,,,,,05,,,,2.8,123*77
$GLGNS,013117.00,,,,,,03,,,,,*79
$GAGNS,013117.00,,,,,,05,,,,,*72
$GBGNS,013117.00,,,,,,08,,,,,*7C
$GPLLQ,013117.00,010125,,M,,M,1,21,3.464,,M*12
$GPVTG,,T,,M,0.00,N,0.01,K,D*27
$GPHDT,,T*1B
$GPTHS,,V*0E
$GPROT,,V*08
$PSSN,HRP,013117.00,010125,,,,,,,00,0,,*64
$PTNL,AVR,013117.00,,Yaw,,Tilt,,,,0,,00*32
$GPGSA,A,3,03,04,17,19,21,,,,,,,,1.4,0.7,1.2*39
$GPGSA,A,3,69,85,86,,,,,,,,,,1.4,0.7,1.2*3F
$GPGSA,A,3,04,06,09,11,34,,,,,,,,1.4,0.7,1.2*3F
$GPGSA,A,3,06,09,16,19,20,29,32,35,,,,,1.4,0.7,1.2*3D
$GPGST,013117.00,7.594,1.705,0.953,49.692,1.321,1.439,2.861*62
$GPGBS,013117.00,4.895,4.780,8.472,32,0.0001,25.330,8.628*6B
$GPGRS,013117.00,1,0.9,-1.8,0.5,-0.7,-0.7,,,,,,,*4D
$GPGRS,013117.00,1,2.4,2.5,-10.5,,,,,,,,,*7D
$GPGRS,013117.00,1,0.4,1.0,0.6,0.4,3.2,,,,,,,*63
$GPGRS,013117.00,1,1.3,-1.5,0.5,-1.8,-0.9,0.5,25.3,4.2,,,,*52
$GPGSV,4,1,16,03,78,355,45,31,32,090,37,06,11,313,31,09,24,218,27*7F
$GPGSV,4,2,16,28,27,058,33,21,31,149,37,19,29,304,36,17,38,269,45*73
$GPGSV,4,3,16,04,51,205,36,02,51,156,40,01,55,144,,32,01,046,*79
$GPGSV,4,4,16,36,35,170,41,34,31,208,,49,34,195,37,61,03,257,*76
$GLGSV,3,1,10,85,70,291,49,78,13,041,30,86,18,327,35,84,45,167,28*60
$GLGSV,3,2,10,70,54,253,34,69,51,037,45,79,05,088,,71,09,237,*6C
$GLGSV,3,3,10,68,04,050,,77,02,348,*66
$GAGSV,3,1,12,06,74,111,50,05,15,215,32,18,17,308,,34,19,311,36*63
$GAGSV,3,2,12,04,54,062,43,10,25,136,30,09,65,188,48,11,53,140,35*6F
$GAGSV,3,3,12,36,71,298,35,27,01,353,,12,03,134,,19,01,042,*65
$GBGSV,5,1,17,20,80,035,52,05,24,128,,23,11,055,,35,40,299,42*6D
$GBGSV,5,2,17,39,27,046,30,32,23,062,36,09,36,077,40,29,49,208,47*62
$GBGSV,5,3,17,16,32,057,40,06,33,061,42,19,46,251,36,48,75,261,*6E
$GBGSV,5,4,17,37,09,103,,30,08,166,,44,03,327,35,02,08,105,*64
$GBGSV,5,5,17,60,09,110,*52
$GPGGA,013117.00,,,,,0,00,,,M,,M,,*4D
$PTNL,GGK,013117.00,010125,4742.4466583,N,01617.9731148,E,1,21,1.4,EHT668.1946,M*40
$GPGGQ,013117.00,010125,4742.4466583,N,01617.9731148,E,1,21,3.464,624.9836,M*38
$GPGFA,013117.00,16.212,23.461,1.705,0.953,49.692,2.861,,VVV*33
$GPLLK,013117.00,010125,,M,,M,1,21,1.6,,M*0A
$GNGMP,013117.00,,,,,DAAA,21,0.7,,,,*57
$GPGMP,013117.00,,,,,,05,,,,2.8,123*77
$GLGMP,013117.00,,,,,,03,,,,,*79
$GAGMP,013117.00,,,,,,05,,,,,*72
$GBGMP,013117.00,,,,,,08,,,,,*7C
$PSSN,SNC,[0,264695000,2347]*4E
$GPZDA,013122.00,01,01,2025,,*60
$GPDTM,W84,,00.0000000,N,00.0000000,E,00.0000000,W84*5F
$GPRMC,013122.00,A,4742.4466562,N,01617.9731173,E,0.0,,010125,5.1,E,D*12
$GPGLL,4742.4466562,N,01617.9731173,E,013122.00,A,D*63
$GPGGA,013122.00,4742.4466562,N,01617.9731173,E,2,22,0.7,624.9685,M,43.2111,M,1.8,0123*46
$GNGNS,013122.00,4742.4466562,N,01617.9731173,E,DAAA,22,0.7,624.9685,43.2111,,*53
$GPGNS,013122.00,,,,,,06,,,,1.8,123*71
$GLGNS,013122.00,,,,,,02,,,,,*7E
$GAGNS,013122.00,,,,,,06,,,,,*77
$GBGNS,013122.00,,,,,,08,,,,,*7A
$GPLLQ,013122.00,010125,,M,,M,1,22,2.458,,M*19
$GPVTG,,T,,M,0.01,N,0.01,K,D*26
$GPHDT,,T*1B
$GPTHS,,V*0E
$GPROT,,V*08
$PSSN,HRP,013122.00,010125,,,,,,,00,0,,*62
$PTNL,AVR,013122.00,,Yaw,,Tilt,,,,0,,00*34
$GPGSA,A,3,03,04,17,19,21,31,,,,,,,1.3,0.7,1.1*3F
$GPGSA,A,3,69,85,,,,,,,,,,,1.3,0.7,1.1*35
$GPGSA,A,3,04,06,09,11,34,36,,,,,,,1.3,0.7,1.1*3E
$GPGSA,A,3,06,09,16,19,20,29,32,35,,,,,1.3,0.7,1.1*39
$GPGST,013122.00,6.815,1.065,0.704,19.642,1.030,0.754,2.100*60
$GPGBS,013122.00,3.609,3.022,8.838,32,0.0001,24.968,8.630*64
$GPGRS,013122.00,1,-0.2,1.1,-0.3,-0.5,-1.6,2.2,,,,,,*4E
$GPGRS,013122.00,1,1.2,-0.1,,,,,,,,,,*62
$GPGRS,013122.00,1,-0.5,0.1,0.0,-0.1,5.2,1.8,,,,,,*46
$GPGRS,013122.00,1,0.7,-2.4,1.1,-3.9,-1.5,-0.5,25.0,2.6,,,,*74
$GPGSV,4,1,16,03,78,356,45,31,32,090,38,06,11,313,31,09,24,218,23*77
$GPGSV,4,2,16,28,27,058,34,21,31,149,38,19,29,304,39,17,38,269,46*77
$GPGSV,4,3,16,04,51,205,38,02,51,156,39,01,55,144,,32,01,046,*79
$GPGSV,4,4,16,36,35,170,41,34,31,208,,49,34,195,37,61,03,257,*76
$GLGSV,3,1,10,85,70,291,49,78,13,041,29,86,18,327,28,84,45,167,30*6D
$GLGSV,3,2,10,70,54,253,34,69,51,037,40,79,05,088,,71,09,237,*69
$GLGSV,3,3,10,68,04,050,,77,02,348,*66
$GAGSV,3,1,12,06,74,111,50,05,15,215,32,18,17,308,,34,19,311,36*63
$GAGSV,3,2,12,04,54,061,43,10,25,136,29,09,65,188,48,11,53,140,35*64
$GAGSV,3,3,12,36,71,298,36,27,01,353,,12,03,134,,19,01,042,*66
$GBGSV,5,1,17,20,80,035,52,05,24,128,,23,11,055,,35,40,299,42*6D
$GBGSV,5,2,17,39,27,046,29,32,23,062,35,09,36,077,40,29,49,208,47*69
$GBGSV,5,3,17,16,32,057,40,06,33,061,42,19,46,251,36,48,75,261,*6E
$GBGSV,5,4,17,37,09,103,,30,08,166,,44,03,327,35,02,08,105,*64
$GBGSV,5,5,17,60,09,110,*52
$GPGGA,013122.00,,,,,0,00,,,M,,M,,*4B
$PTNL,GGK,013122.00,010125,4742.4466562,N,01617.9731173,E,1,22,1.3,EHT668.1795,M*45
$GPGGQ,013122.00,010125,4742.4466562,N,01617.9731173,E,1,22,2.458,624.9685,M*32
$GPGFA,013122.00,10.121,17.222,1.065,0.704,19.642,2.100,,VVV*3D
$GPLLK,013122.00,010125,,M,,M,1,22,1.6,,M*0F
$GNGMP,013122.00,,,,,DAAA,22,0.7,,,,*52
$GPGMP,013122.00,,,,,,06,,,,1.8,123*71
$GLGMP,013122.00,,,,,,02,,,,,*7E
$GAGMP,013122.00,,,,,,06,,,,,*77
$GBGMP,013122.00,,,,,,08,,,,,*7A
$PSSN,SNC,[0,264700000,2347]*43
$GPZDA,013127.00,01,01,2025,,*65
$GPDTM,W84,,00.0000000,N,00.0000000,E,00.0000000,W84*5F
$GPRMC,013127.00,A,4742.4466547,N,01617.9731264,E,0.0,,010125,5.1,E,D*15
$GPGLL,4742.4466547,N,01617.9731264,E,013127.00,A,D*64
$GPGGA,013127.00,4742.4466547,N,01617.9731264,E,2,21,0.7,624.9739,M,43.2111,M,3.0,0123*4E
$GNGNS,013127.00,4742.4466547,N,01617.9731264,E,DAAA,21,0.7,624.9739,43.2111,,*51
$GPGNS,013127.00,,,,,,06,,,,3.0,123*7E
$GLGNS,013127.00,,,,,,02,,,,,*7B
$GAGNS,013127.00,,,,,,05,,,,,*71
$GBGNS,013127.00,,,,,,08,,,,,*7F
$GPLLQ,013127.00,010125,,M,,M,1,21,2.829,,M*15
$GPVTG,,T,,M,0.00,N,0.01,K,D*27
$GPHDT,,T*1B
$GPTHS,,V*0E
$GPROT,,V*08
$PSSN,HRP,013127.00,010125,,,,,,,00,0,,*67
$PTNL,AVR,013127.00,,Yaw,,Tilt,,,,0,,00*31
$GPGSA,A,3,02,03,04,17,19,21,,,,,,,1.5,0.7,1.3*3B
$GPGSA,A,3,69,85,,,,,,,,,,,1.5,0.7,1.3*31
$GPGSA,A,3,04,06,09,11,36,,,,,,,,1.5,0.7,1.3*3D
$GPGSA,A,3,06,09,16,19,20,29,32,35,,,,,1.5,0.7,1.3*3D
$GPGST,013127.00,5.924,1.445,0.663,45.690,1.115,1.133,2.340*63
$GPGBS,013127.00,4.395,3.750,8.485,32,0.0001,21.333,8.630*6F
$GPGRS,013127.00,1,-1.1,0.1,1.2,0.2,1.1,-1.5,,,,,,*4C
$GPGRS,013127.00,1,-1.7,-1.2,,,,,,,,,,*4D
$GPGRS,013127.00,1,-0.1,0.1,-0.3,-0.7,0.7,,,,,,,*48
$GPGRS,013127.00,1,1.3,-2.1,1.4,2.8,-1.4,1.0,21.3,2.6,,,,*76
$GPGSV,4,1,16,03,78,356,46,31,32,090,39,06,11,313,32,09,24,218,23*76
$GPGSV,4,2,16,28,27,058,32,21,31,149,37,19,29,304,43,17,38,269,47*72
$GPGSV,4,3,16,04,51,205,39,02,50,156,40,01,55,144,,32,01,046,*77
$GPGSV,4,4,16,36,35,170,41,34,31,208,,49,34,195,37,61,03,257,*76
$GLGSV,3,1,10,85,70,291,48,78,13,041,,86,18,327,33,84,45,167,29*65
$GLGSV,3,2,10,70,54,253,33,69,50,038,42,79,05,088,,71,09,237,*62
$GLGSV,3,3,10,68,04,050,,77,02,348,*66
$GAGSV,3,1,12,06,74,111,50,05,15,215,33,18,17,308,,34,19,311,34*60
$GAGSV,3,2,12,04,54,061,44,10,25,136,30,09,65,188,47,11,53,140,36*67
$GAGSV,3,3,12,36,71,298,36,27,01,353,,12,03,134,,19,01,042,*66
$GBGSV,5,1,17,20,80,035,52,05,24,128,,23,11,055,,35,40,299,41*6E
$GBGSV,5,2,17,39,27,046,28,32,23,062,35,09,36,077,40,29,49,208,46*69
$GBGSV,5,3,17,16,32,057,40,06,33,061,42,19,46,251,39,48,75,261,*61
$GBGSV,5,4,17,37,09,103,,30,08,166,,44,03,327,34,02,08,105,*65
$GBGSV,5,5,17,60,09,110,*52
$GPGGA,013127.00,,,,,0,00,,,M,,M,,*4E
$PTNL,GGK,013127.00,010125,4742.4466547,N,01617.9731264,E,1,21,1.5,EHT668.1849,M*49
$GPGGQ,013127.00,010125,4742.4466547,N,01617.9731264,E,1,21,2.829,624.9739,M*3A
$GPGFA,013127.00,13.740,19.189,1.445,0.663,45.690,2.340,,VVV*30
$GPLLK,013127.00,010125,,M,,M,1,21,1.8,,M*07
$GNGMP,013127.00,,,,,DAAA,21,0.7,,,,*54
$GPGMP,013127.00,,,,,,06,,,,3.0,123*7E
$GLGMP,013127.00,,,,,,02,,,,,*7B
$GAGMP,013127.00,,,,,,05,,,,,*71
$GBGMP,013127.00,,,,,,08,,,,,*7F
$PSSN,SNC,[0,264705000,2347]*46
$GPZDA,013132.00,01,01,2025,,*61
$GPDTM,W84,,00.0000000,N,00.0000000,E,00.0000000,W84*5F
$GPRMC,013132.00,A,4742.4466460,N,01617.9731393,E,0.0,,010125,5.1,E,D*1C
$GPGLL,4742.4466460,N,01617.9731393,E,013132.00,A,D*6D
$GPGGA,013132.00,4742.4466460,N,01617.9731393,E,2,21,0.7,624.9627,M,43.2111,M,2.0,0123*48
$GNGNS,013132.00,4742.4466460,N,01617.9731393,E,DAAA,21,0.7,624.9627,43.2111,,*56
