$GPZDA,184442.00,01,01,2025,,*6C
$GPDTM,W84,,00.0000000,N,00.0000000,E,00.0000000,W84*5F
$GPRMC,184442.00,A,4742.4464452,N,01617.9725662,E,0.0,,010125,5.1,E,D*1C
$GPGLL,4742.4464452,N,01617.9725662,E,184442.00,A,D*6D
$GPGGA,184442.00,4742.4464452,N,01617.9725662,E,2,18,0.8,627.2263,M,43.2111,M,3.4,0123*44
$GNGNS,184442.00,4742.4464452,N,01617.9725662,E,DAAA,18,0.8,627.2263,43.2111,,*5F
$GPGNS,184442.00,,,,,,05,,,,3.4,123*70
$GLGNS,184442.00,,,,,,05,,,,,*75
$GAGNS,184442.00,,,,,,04,,,,,*79
$GBGNS,184442.00,,,,,,04,,,,,*7A
$GPLLQ,184442.00,010125,,M,,M,1,18,1.923,,M*1E
$GPVTG,,T,,M,0.00,N,0.01,K,D*27
$GPHDT,,T*1B
$GPTHS,,V*0E
$GPROT,,V*08
$PSSN,HRP,184442.00,010125,,,,,,,00,0,,*6E
$PTNL,AVR,184442.00,,Yaw,,Tilt,,,,0,,00*38
$GPGSA,A,3,10,16,18,26,27,,,,,,,,1.5,0.8,1.3*32
$GPGSA,A,3,66,80,81,82,83,,,,,,,,1.5,0.8,1.3*3C
$GPGSA,A,3,13,15,21,27,,,,,,,,,1.5,0.8,1.3*3C
$GPGSA,A,3,11,28,37,43,,,,,,,,,1.5,0.8,1.3*35
$GPGST,184442.00,3.107,0.743,0.618,31.652,0.710,0.654,1.663*62
$GPGBS,184442.00,4.331,4.710,8.818,10,0.0001,-1.061,0.967*7D
$GPGRS,184442.00,1,-1.1,0.2,-0.7,0.6,0.6,,,,,,,*6A
$GPGRS,184442.00,1,5.2,-1.7,6.8,-2.9,-2.8,,,,,,,*4C
$GPGRS,184442.00,1,0.2,0.1,1.6,-1.0,,,,,,,,*69
$GPGRS,184442.00,1,0.7,-0.7,2.5,-0.5,,,,,,,,*43
$GPGSV,5,1,17,16,64,275,48,10,20,172,43,29,18,097,24,26,56,206,45*7A
$GPGSV,5,2,17,27,38,292,46,23,47,134,38,18,61,057,44,05,07,031,*7E
$GPGSV,5,3,17,15,09,079,,07,05,335,25,13,01,048,,08,05,288,27*7F
$GPGSV,5,4,17,31,06,218,27,36,35,170,40,34,31,208,,49,34,195,36*78
$GPGSV,5,5,17,61,03,257,*4B
$GLGSV,3,1,10,82,64,021,44,67,15,112,,74,13,335,,81,21,059,36*6D
$GLGSV,3,2,10,66,24,058,39,73,47,301,35,80,46,209,47,83,55,278,38*68
$GLGSV,3,3,10,65,09,011,,79,03,176,*63
$GAGSV,3,1,09,13,81,226,47,23,29,312,,14,26,282,,26,27,231,34*68
$GAGSV,3,2,09,27,36,160,40,15,42,053,41,21,70,248,45,03,01,076,*6A
$GAGSV,3,3,09,05,03,029,*5C
$GBGSV,5,1,20,43,66,063,49,46,11,326,,21,20,051,32,14,17,131,32*62
$GBGSV,5,2,20,38,23,037,29,60,11,108,,58,24,316,,23,32,211,34*6E
$GBGSV,5,3,20,05,22,129,,34,19,078,,08,37,042,35,42,26,104,34*6C
$GBGSV,5,4,20,50,26,075,,13,43,051,27,37,41,276,43,11,43,069,42*64
$GBGSV,5,5,20,28,44,269,48,27,02,262,,33,05,153,,02,07,106,*63
$GPGGA,184442.00,,,,,0,00,,,M,,M,,*47
$PTNL,GGK,184442.00,010125,4742.4464452,N,01617.9725662,E,1,18,1.5,EHT670.4374,M*43
$GPGGQ,184442.00,010125,4742.4464452,N,01617.9725662,E,1,18,1.923,627.2263,M*33
$GPGFA,184442.00,7.062,13.633,0.743,0.618,31.652,1.663,,VVV*05
$GPLLK,184442.00,010125,,M,,M,1,18,1.8,,M*04
$GNGMP,184442.00,,,,,DAAA,18,0.8,,,,*58
$GPGMP,184442.00,,,,,,05,,,,3.4,123*70
$GLGMP,184442.00,,,,,,05,,,,,*75
$GAGMP,184442.00,,,,,,04,,,,,*79
$GBGMP,184442.00,,,,,,04,,,,,*7A
$PSSN,SNC,[0,326700000,2347]*44
$GPZDA,184447.00,01,01,2025,,*69
$GPDTM,W84,,00.0000000,N,00.0000000,E,00.0000000,W84*5F
$GPRMC,184447.00,A,4742.4464444,N,01617.9725745,E,0.0,,010125,5.1,E,D*1A
$GPGLL,4742.4464444,N,01617.9725745,E,184447.00,A,D*6B
$GPGGA,184447.00,4742.4464444,N,01617.9725745,E,2,18,0.8,627.2198,M,43.2111,M,1.2,0123*41
$GNGNS,184447.00,4742.4464444,N,01617.9725745,E,DAAA,18,0.8,627.2198,43.2111,,*5E
$GPGNS,184447.00,,,,,,05,,,,1.2,123*71
$GLGNS,184447.00,,,,,,05,,,,,*70
$GAGNS,184447.00,,,,,,04,,,,,*7C
$GBGNS,184447.00,,,,,,04,,,,,*7F
$GPLLQ,184447.00,010125,,M,,M,1,18,2.449,,M*19
$GPVTG,,T,,M,0.01,N,0.01,K,D*26
$GPHDT,,T*1B
$GPTHS,,V*0E
$GPROT,,V*08
$PSSN,HRP,184447.00,010125,,,,,,,00,0,,*6B
$PTNL,AVR,184447.00,,Yaw,,Tilt,,,,0,,00*3D
$GPGSA,A,3,10,16,18,26,27,,,,,,,,1.6,0.8,1.4*36
$GPGSA,A,3,66,73,80,82,83,,,,,,,,1.6,0.8,1.4*35
$GPGSA,A,3,13,15,21,27,,,,,,,,,1.6,0.8,1.4*38
$GPGSA,A,3,11,28,37,43,,,,,,,,,1.6,0.8,1.4*31
$GPGST,184447.00,4.981,0.945,0.779,32.399,0.901,0.830,2.121*69
$GPGBS,184447.00,4.218,4.491,8.929,82,0.0001,11.324,6.389*62
$GPGRS,184447.00,1,-0.8,0.1,-0.5,0.2,0.6,,,,,,,*62
$GPGRS,184447.00,1,6.5,-8.6,-1.8,11.3,-3.7,,,,,,,*74
$GPGRS,184447.00,1,0.5,0.1,0.8,-1.3,,,,,,,,*67
$GPGRS,184447.00,1,0.2,-0.6,2.6,-0.4,,,,,,,,*40
$GPGSV,5,1,17,16,64,275,48,10,20,172,43,29,18,097,22,26,56,206,45*7C
$GPGSV,5,2,17,27,38,292,47,23,47,134,34,18,61,057,44,05,07,031,23*72
$GPGSV,5,3,17,15,09,079,,07,05,335,25,13,01,048,,08,06,288,24*7F
$GPGSV,5,4,17,31,06,218,28,36,35,170,40,34,31,208,,49,34,195,36*77
$GPGSV,5,5,17,61,03,257,*4B
$GLGSV,3,1,10,82,64,021,35,67,15,112,,74,13,335,,81,21,059,33*6E
$GLGSV,3,2,10,66,24,058,38,73,47,301,38,80,46,209,46,83,55,278,38*65
$GLGSV,3,3,10,65,09,011,32,79,03,176,*62
$GAGSV,3,1,09,13,81,226,47,23,29,312,,14,26,282,,26,27,231,34*68
$GAGSV,3,2,09,27,36,160,42,15,42,053,42,21,70,248,45,03,01,076,*6B
$GAGSV,3,3,09,05,04,029,*5B
$GBGSV,5,1,20,43,66,063,49,46,11,326,,21,20,051,34,14,17,131,32*64
$GBGSV,5,2,20,38,23,037,29,60,11,108,,58,24,316,,23,32,211,35*6F
$GBGSV,5,3,20,05,22,129,,34,19,078,25,08,37,042,34,42,26,104,35*6B
$GBGSV,5,4,20,50,26,075,,13,43,051,28,37,41,276,43,11,43,069,42*6B
$GBGSV,5,5,20,28,44,269,48,27,02,262,,33,05,153,,02,07,106,*63
$GPGGA,184447.00,,,,,0,00,,,M,,M,,*42
$PTNL,GGK,184447.00,010125,4742.4464444,N,01617.9725745,E,1,18,1.6,EHT670.4309,M*4C
$GPGGQ,184447.00,010125,4742.4464444,N,01617.9725745,E,1,18,2.449,627.2198,M*30
$GPGFA,184447.00,8.986,17.391,0.945,0.779,32.399,2.121,,VVV*08
$GPLLK,184447.00,010125,,M,,M,1,18,2.0,,M*0A
$GNGMP,184447.00,,,,,DAAA,18,0.8,,,,*5D
$GPGMP,184447.00,,,,,,05,,,,1.2,123*71
$GLGMP,184447.00,,,,,,05,,,,,*70
$GAGMP,184447.00,,,,,,04,,,,,*7C
$GBGMP,184447.00,,,,,,04,,,,,*7F
$PSSN,SNC,[0,326705000,2347]*41
$GPZDA,184452.00,01,01,2025,,*6D
$GPDTM,W84,,00.0000000,N,00.0000000,E,00.0000000,W84*5F
$GPRMC,184452.00,A,4742.4464402,N,01617.9725821,E,0.0,,010125,5.1,E,D*11
$GPGLL,4742.4464402,N,01617.9725821,E,184452.00,A,D*60
$GPGGA,184452.00,4742.4464402,N,01617.9725821,E,2,18,0.8,627.2209,M,43.2111,M,2.2,0123*42
$GNGNS,184452.00,4742.4464402,N,01617.9725821,E,DAAA,18,0.8,627.2209,43.2111,,*5E
$GPGNS,184452.00,,,,,,05,,,,2.2,123*76
$GLGNS,184452.00,,,,,,04,,,,,*75
$GAGNS,184452.00,,,,,,04,,,,,*78
$GBGNS,184452.00,,,,,,05,,,,,*7A
$GPLLQ,184452.00,010125,,M,,M,1,18,2.117,,M*13
$GPVTG,,T,,M,0.00,N,0.01,K,D*27
$GPHDT,,T*1B
$GPTHS,,V*0E
$GPROT,,V*08
$PSSN,HRP,184452.00,010125,,,,,,,00,0,,*6F
$PTNL,AVR,184452.00,,Yaw,,Tilt,,,,0,,00*39
$GPGSA,A,3,10,16,18,26,27,,,,,,,,1.6,0.8,1.4*36
$GPGSA,A,3,73,80,82,83,,,,,,,,,1.6,0.8,1.4*35
$GPGSA,A,3,13,15,21,27,,,,,,,,,1.6,0.8,1.4*38
$GPGSA,A,3,11,21,28,37,43,,,,,,,,1.6,0.8,1.4*32
$GPGST,184452.00,3.087,0.804,0.670,31.678,0.770,0.710,1.840*68
$GPGBS,184452.00,4.314,4.635,9.145,27,0.0001,1.166,0.695*50
$GPGRS,184452.00,1,-0.4,-0.3,-0.5,0.0,1.2,,,,,,,*42
$GPGRS,184452.00,1,1.6,-3.4,4.5,-2.8,,,,,,,,*4B
$GPGRS,184452.00,1,0.9,0.1,0.5,-0.9,,,,,,,,*69
$GPGRS,184452.00,1,-1.6,7.1,-0.3,2.4,-0.5,,,,,,,*42
$GPGSV,5,1,17,16,64,275,49,10,20,172,43,29,18,097,22,26,56,205,44*7F
$GPGSV,5,2,17,27,38,292,47,23,47,134,31,18,61,057,44,05,07,031,*76
$GPGSV,5,3,17,15,09,079,,07,05,335,25,13,01,047,,08,06,288,26*72
$GPGSV,5,4,17,31,06,218,28,36,35,170,40,34,31,208,,49,34,195,36*77
$GPGSV,5,5,17,61,03,257,*4B
$GLGSV,3,1,10,82,64,021,41,67,15,112,,74,13,335,,81,21,059,31*6F
$GLGSV,3,2,10,66,24,058,35,73,47,301,43,80,46,209,46,83,55,279,37*6A
$GLGSV,3,3,10,65,09,011,31,79,03,176,*61
$GAGSV,3,1,09,13,81,226,47,23,29,312,,14,26,282,,26,27,232,33*6C
$GAGSV,3,2,09,27,36,160,44,15,42,053,43,21,70,248,44,03,01,076,*6D
$GAGSV,3,3,09,05,04,029,*5B
$GBGSV,5,1,20,43,66,063,48,46,11,326,,21,20,051,35,14,17,131,31*67
$GBGSV,5,2,20,38,23,037,29,60,11,108,,58,24,316,,23,32,211,30*6A
$GBGSV,5,3,20,05,22,129,,34,19,078,26,08,37,042,33,42,26,104,34*6E
$GBGSV,5,4,20,50,26,075,,13,43,051,29,37,41,276,42,11,43,069,41*68
$GBGSV,5,5,20,28,44,269,49,27,02,262,,33,05,153,,02,07,106,*62
$GPGGA,184452.00,,,,,0,00,,,M,,M,,*46
$PTNL,GGK,184452.00,010125,4742.4464402,N,01617.9725821,E,1,18,1.6,EHT670.4320,M*4C
$GPGGQ,184452.00,010125,4742.4464402,N,01617.9725821,E,1,18,2.117,627.2209,M*3E
$GPGFA,184452.00,7.649,15.085,0.804,0.670,31.678,1.840,,VVV*03
$GPLLK,184452.00,010125,,M,,M,1,18,1.9,,M*04
$GNGMP,184452.00,,,,,DAAA,18,0.8,,,,*59
$GPGMP,184452.00,,,,,,05,,,,2.2,123*76
$GLGMP,184452.00,,,,,,04,,,,,*75
$GAGMP,184452.00,,,,,,04,,,,,*78
$GBGMP,184452.00,,,,,,05,,,,,*7A
$PSSN,SNC,[0,326710000,2347]*45
$GPZDA,184457.00,01,01,2025,,*68
$GPDTM,W84,,00.0000000,N,00.0000000,E,00.0000000,W84*5F
$GPRMC,184457.00,A,4742.4464367,N,01617.9725894,E,0.0,,010125,5.1,E,D*1E
$GPGLL,4742.4464367,N,01617.9725894,E,184457.00,A,D*6F
$GPGGA,184457.00,4742.4464367,N,01617.9725894,E,2,18,0.8,627.2354,M,43.2111,M,3.2,0123*45
$GNGNS,184457.00,4742.4464367,N,01617.9725894,E,DAAA,18,0.8,627.2354,43.2111,,*58
$GPGNS,184457.00,,,,,,05,,,,3.2,123*72
$GLGNS,184457.00,,,,,,04,,,,,*70
$GAGNS,184457.00,,,,,,04,,,,,*7D
$GBGNS,184457.00,,,,,,05,,,,,*7F
$GPLLQ,184457.00,010125,,M,,M,1,18,1.726,,M*11
$GPVTG,,T,,M,0.00,N,0.00,K,D*26
$GPHDT,,T*1B
$GPTHS,,V*0E
$GPROT,,V*08
$PSSN,HRP,184457.00,010125,,,,,,,00,0,,*6A
$PTNL,AVR,184457.00,,Yaw,,Tilt,,,,0,,00*3C
$GPGSA,A,3,10,16,18,26,27,,,,,,,,1.6,0.8,1.4*36
$GPGSA,A,3,73,80,82,83,,,,,,,,,1.6,0.8,1.4*35
$GPGSA,A,3,13,15,21,27,,,,,,,,,1.6,0.8,1.4*38
$GPGSA,A,3,11,21,28,37,43,,,,,,,,1.6,0.8,1.4*32
$GPGST,184457.00,3.748,0.659,0.543,32.843,0.627,0.580,1.499*69
$GPGBS,184457.00,4.389,4.730,9.282,73,0.0001,6.238,6.069*50
$GPGRS,184457.00,1,-0.5,-0.2,0.0,-0.1,0.4,,,,,,,*44
$GPGRS,184457.00,1,6.2,-3.5,5.5,-3.8,,,,,,,,*4C
$GPGRS,184457.00,1,1.1,0.0,0.4,-0.7,,,,,,,,*6B
$GPGRS,184457.00,1,-2.4,6.9,0.2,1.7,-0.4,,,,,,,*62
$GPGSV,5,1,17,16,64,275,49,10,20,172,43,29,18,097,24,26,56,205,44*79
$GPGSV,5,2,17,27,38,292,46,23,47,134,26,18,61,057,45,05,07,031,*70
$GPGSV,5,3,17,15,09,079,,07,05,335,23,13,01,047,,08,06,288,23*71
$GPGSV,5,4,17,31,06,218,27,36,35,170,40,34,31,208,,49,34,195,36*78
$GPGSV,5,5,17,61,03,257,*4B
$GLGSV,3,1,10,82,64,021,44,67,15,112,,74,13,335,,81,21,059,29*63
$GLGSV,3,2,10,66,24,058,32,73,47,301,45,80,46,209,45,83,55,279,37*68
$GLGSV,3,3,10,65,09,011,,79,03,176,*63
$GAGSV,3,1,09,13,82,226,48,23,29,312,,14,26,282,,26,27,232,31*62
$GAGSV,3,2,09,27,36,161,45,15,42,053,43,21,70,248,44,03,01,076,*6D
$GAGSV,3,3,09,05,04,029,*5B
$GBGSV,5,1,20,43,66,063,48,46,11,326,,21,20,051,35,14,17,131,31*67
$GBGSV,5,2,20,38,23,037,30,60,11,108,,58,24,316,,23,32,211,25*66
$GBGSV,5,3,20,05,22,129,,34,19,078,28,08,37,042,33,42,26,104,33*67
$GBGSV,5,4,20,50,26,075,,13,43,051,30,37,41,276,40,11,43,069,41*62
$GBGSV,5,5,20,28,44,269,49,27,02,262,,33,05,153,,02,07,106,*62
$GPGGA,184457.00,,,,,0,00,,,M,,M,,*43
$PTNL,GGK,184457.00,010125,4742.4464367,N,01617.9725894,E,1,18,1.6,EHT670.4465,M*45
$GPGGQ,184457.00,010125,4742.4464367,N,01617.9725894,E,1,18,1.726,627.2354,M*3F
$GPGFA,184457.00,6.268,12.294,0.659,0.543,32.843,1.499,,VVV*0D
$GPLLK,184457.00,010125,,M,,M,1,18,1.9,,M*01
$GNGMP,184457.00,,,,,DAAA,18,0.8,,,,*5C
$GPGMP,184457.00,,,,,,05,,,,3.2,123*72
$GLGMP,184457.00,,,,,,04,,,,,*70
$GAGMP,184457.00,,,,,,04,,,,,*7D
$GBGMP,184457.00,,,,,,05,,,,,*7F
$PSSN,SNC,[0,326715000,2347]*40
$GPZDA,184502.00,01,01,2025,,*69
$GPDTM,W84,,00.0000000,N,00.0000000,E,00.0000000,W84*5F
$GPRMC,184502.00,A,4742.4464349,N,01617.9725832,E,0.0,,010125,5.1,E,D*1F
$GPGLL,4742.4464349,N,01617.9725832,E,184502.00,A,D*6E
$GPGGA,184502.00,4742.4464349,N,01617.9725832,E,2,18,0.8,627.2283,M,43.2111,M,3.4,0123*49
$GNGNS,184502.00,4742.4464349,N,01617.9725832,E,DAAA,18,0.8,627.2283,43.2111,,*52
$GPGNS,184502.00,,,,,,05,,,,3.4,123*75
$GLGNS,184502.00,,,,,,04,,,,,*71
$GAGNS,184502.00,,,,,,04,,,,,*7C
$GBGNS,184502.00,,,,,,05,,,,,*7E
$GPLLQ,184502.00,010125,,M,,M,1,18,1.885,,M*16
$GPVTG,,T,,M,0.01,N,0.01,K,D*26
$GPHDT,,T*1B
$GPTHS,,V*0E
$GPROT,,V*08
$PSSN,HRP,184502.00,010125,,,,,,,00,0,,*6B
$PTNL,AVR,184502.00,,Yaw,,Tilt,,,,0,,00*3D
$GPGSA,A,3,10,16,18,26,27,,,,,,,,1.8,0.8,1.7*3B
$GPGSA,A,3,73,80,82,83,,,,,,,,,1.8,0.8,1.7*38
$GPGSA,A,3,13,15,21,27,,,,,,,,,1.8,0.8,1.7*35
$GPGSA,A,3,11,23,28,37,43,,,,,,,,1.8,0.8,1.7*3D
$GPGST,184502.00,3.529,0.724,0.593,33.618,0.686,0.636,1.637*69
$GPGBS,184502.00,4.478,4.862,9.217,82,0.0001,6.611,6.053*54
$GPGRS,184502.00,1,-0.2,-0.4,0.5,0.0,-0.3,,,,,,,*47
$GPGRS,184502.00,1,5.8,-3.6,6.6,-4.5,,,,,,,,*4D
$GPGRS,184502.00,1,1.6,-0.0,0.3,-0.5,,,,,,,,*45
$GPGRS,184502.00,1,-1.7,-4.4,0.7,0.2,0.0,,,,,,,*69
$GPGSV,5,1,17,16,64,275,48,10,20,172,43,29,18,097,27,26,56,205,44*7B
$GPGSV,5,2,17,27,38,292,45,23,47,134,27,18,61,057,46,05,06,031,*70
$GPGSV,5,3,17,15,09,079,,07,05,335,23,13,01,047,,08,06,288,*70
$GPGSV,5,4,17,31,06,218,26,36,35,170,40,34,31,208,,49,34,195,36*79
$GPGSV,5,5,17,61,03,257,*4B
$GLGSV,3,1,10,82,64,021,43,67,15,112,33,74,13,335,,81,21,059,24*69
$GLGSV,3,2,10,66,24,058,33,73,47,301,45,80,45,209,44,83,55,279,37*6B
$GLGSV,3,3,10,65,09,011,31,79,03,176,*61
$GAGSV,3,1,09,13,82,226,48,23,29,312,,14,26,282,,26,27,232,30*63
$GAGSV,3,2,09,27,36,161,45,15,42,053,43,21,70,248,43,03,01,076,*6A
$GAGSV,3,3,09,05,04,029,*5B
$GBGSV,5,1,20,43,66,063,48,46,11,326,,21,20,051,35,14,17,131,30*66
$GBGSV,5,2,20,38,23,037,29,60,11,108,,58,24,316,,23,32,211,37*6D
$GBGSV,5,3,20,05,22,129,,34,19,078,31,08,37,042,33,42,26,104,31*6D
$GBGSV,5,4,20,50,26,075,,13,43,051,30,37,41,276,40,11,43,069,41*62
$GBGSV,5,5,20,28,44,269,49,27,02,262,,33,05,153,,02,07,106,*62
$GPGGA,184502.00,,,,,0,00,,,M,,M,,*42
$PTNL,GGK,184502.00,010125,4742.4464349,N,01617.9725832,E,1,18,1.8,EHT670.4394,M*43
$GPGGQ,184502.00,010125,4742.4464349,N,01617.9725832,E,1,18,1.885,627.2283,M*33
$GPGFA,184502.00,6.879,13.420,0.724,0.593,33.618,1.637,,VVV*0F
$GPLLK,184502.00,010125,,M,,M,1,18,2.2,,M*08
$GNGMP,184502.00,,,,,DAAA,18,0.8,,,,*5D
$GPGMP,184502.00,,,,,,05,,,,3.4,123*75
$GLGMP,184502.00,,,,,,04,,,,,*71
$GAGMP,184502.00,,,,,,04,,,,,*7C
$GBGMP,184502.00,,,,,,05,,,,,*7E
$PSSN,SNC,[0,326720000,2347]*46
$GPZDA,184507.00,01,01,2025,,*6C
$GPDTM,W84,,00.0000000,N,00.0000000,E,00.0000000,W84*5F
$GPRMC,184507.00,A,4742.4464348,N,01617.9725811,E,0.0,,010125,5.1,E,D*1A
$GPGLL,4742.4464348,N,01617.9725811,E,184507.00,A,D*6B
$GPGGA,184507.00,4742.4464348,N,01617.9725811,E,2,18,0.8,627.2214,M,43.2111,M,1.2,0123*46
$GNGNS,184507.00,4742.4464348,N,01617.9725811,E,DAAA,18,0.8,627.2214,43.2111,,*59
$GPGNS,184507.00,,,,,,05,,,,1.2,123*74
$GLGNS,184507.00,,,,,,04,,,,,*74
$GAGNS,184507.00,,,,,,04,,,,,*79
$GBGNS,184507.00,,,,,,05,,,,,*7B
$GPLLQ,184507.00,010125,,M,,M,1,18,1.563,,M*16
$GPVTG,,T,,M,0.01,N,0.01,K,D*26
$GPHDT,,T*1B
$GPTHS,,V*0E
$GPROT,,V*08
$PSSN,HRP,184507.00,010125,,,,,,,00,0,,*6E
$PTNL,AVR,184507.00,,Yaw,,Tilt,,,,0,,00*38
$GPGSA,A,3,10,16,18,26,27,,,,,,,,1.8,0.8,1.7*3B
$GPGSA,A,3,73,80,82,83,,,,,,,,,1.8,0.8,1.7*38
$GPGSA,A,3,13,15,21,27,,,,,,,,,1.8,0.8,1.7*35
$GPGSA,A,3,11,23,28,37,43,,,,,,,,1.8,0.8,1.7*3D
$GPGST,184507.00,2.701,0.600,0.490,33.496,0.569,0.526,1.357*67
$GPGBS,184507.00,4.270,4.574,9.155,83,0.0001,-5.771,6.068*70
$GPGRS,184507.00,1,-0.6,-0.1,0.1,0.5,-0.4,,,,,,,*45
$GPGRS,184507.00,1,3.3,-3.0,2.7,-5.8,,,,,,,,*4A
$GPGRS,184507.00,1,1.7,-0.7,0.2,-0.5,,,,,,,,*47
$GPGRS,184507.00,1,-0.5,-3.7,1.0,0.8,0.1,,,,,,,*66
$GPGSV,5,1,17,16,64,275,48,10,21,172,43,29,18,097,29,26,56,205,44*74
$GPGSV,5,2,17,27,38,292,44,23,47,134,33,18,61,057,46,05,06,031,22*74
$GPGSV,5,3,17,15,09,079,,07,05,335,29,13,01,047,,08,06,288,*7A
$GPGSV,5,4,17,31,06,218,26,36,35,170,40,34,31,208,,49,34,195,36*79
$GPGSV,5,5,17,61,03,257,*4B
$GLGSV,3,1,10,82,64,021,42,67,15,112,31,74,13,335,,81,21,059,26*68
$GLGSV,3,2,10,66,24,058,29,73,47,301,45,80,45,209,43,83,55,279,37*67
$GLGSV,3,3,10,65,09,011,29,79,03,176,*68
$GAGSV,3,1,09,13,82,226,49,23,29,312,,14,26,282,,26,27,232,29*6A
$GAGSV,3,2,09,27,36,161,46,15,42,053,42,21,70,248,43,03,01,076,*68
$GAGSV,3,3,09,05,04,029,*5B
$GBGSV,5,1,20,43,66,063,48,46,11,326,,21,20,050,35,14,17,131,28*6E
$GBGSV,5,2,20,38,23,037,28,60,11,108,,58,24,315,,23,31,211,30*6B
$GBGSV,5,3,20,05,22,129,,34,19,078,33,08,37,042,33,42,26,104,29*66
$GBGSV,5,4,20,50,26,075,,13,43,051,30,37,41,276,40,11,43,069,42*61
$GBGSV,5,5,20,28,44,269,49,27,02,262,,33,05,153,,02,07,106,*62
$GPGGA,184507.00,,,,,0,00,,,M,,M,,*47
$PTNL,GGK,184507.00,010125,4742.4464348,N,01617.9725811,E,1,18,1.8,EHT670.4325,M*4C
$GPGGQ,184507.00,010125,4742.4464348,N,01617.9725811,E,1,18,1.563,627.2214,M*3D
$GPGFA,184507.00,5.706,11.128,0.600,0.490,33.496,1.357,,VVV*03
$GPLLK,184507.00,010125,,M,,M,1,18,2.2,,M*0D
$GNGMP,184507.00,,,,,DAAA,18,0.8,,,,*58
$GPGMP,184507.00,,,,,,05,,,,1.2,123*74
$GLGMP,184507.00,,,,,,04,,,,,*74
$GAGMP,184507.00,,,,,,04,,,,,*79
$GBGMP,184507.00,,,,,,05,,,,,*7B
$PSSN,SNC,[0,326725000,2347]*43
$GPZDA,184512.00,01,01,2025,,*68
$GPDTM,W84,,00.0000000,N,00.0000000,E,00.0000000,W84*5F
$GPRMC,184512.00,A,4742.4464344,N,01617.9725778,E,0.0,,010125,5.1,E,D*12
$GPGLL,4742.4464344,N,01617.9725778,E,184512.00,A,D*63
$GPGGA,184512.00,4742.4464344,N,01617.9725778,E,2,17,0.8,627.2098,M,43.2111,M,2.2,0123*44
$GNGNS,184512.00,4742.4464344,N,01617.9725778,E,DAAA,17,0.8,627.2098,43.2111,,*58
$GPGNS,184512.00,,,,,,05,,,,2.2,123*73
$GLGNS,184512.00,,,,,,04,,,,,*70
$GAGNS,184512.00,,,,,,04,,,,,*7D
$GBGNS,184512.00,,,,,,04,,,,,*7E
$GPLLQ,184512.00,010125,,M,,M,1,17,1.547,,M*1B
$GPVTG,,T,,M,0.00,N,0.01,K,D*27
$GPHDT,,T*1B
$GPTHS,,V*0E
$GPROT,,V*08
$PSSN,HRP,184512.00,010125,,,,,,,00,0,,*6A
$PTNL,AVR,184512.00,,Yaw,,Tilt,,,,0,,00*3C
$GPGSA,A,3,10,16,18,26,27,,,,,,,,1.9,0.8,1.7*3A
$GPGSA,A,3,73,80,82,83,,,,,,,,,1.9,0.8,1.7*39
$GPGSA,A,3,13,15,21,27,,,,,,,,,1.9,0.8,1.7*34
$GPGSA,A,3,11,28,37,43,,,,,,,,,1.9,0.8,1.7*3D
$GPGST,184512.00,1.826,0.585,0.483,32.623,0.557,0.515,1.349*69
$GPGBS,184512.00,4.344,4.659,9.277,10,0.0001,-0.808,0.984*7E
$GPGRS,184512.00,1,-0.8,0.2,0.2,0.5,-0.3,,,,,,,*65
$GPGRS,184512.00,1,0.9,-0.7,-3.1,-4.1,,,,,,,,*61
$GPGRS,184512.00,1,1.8,-0.8,0.3,-0.3,,,,,,,,*44
$GPGRS,184512.00,1,-0.2,0.8,0.1,-0.0,,,,,,,,*4E
$GPGSV,5,1,17,16,64,275,49,10,21,172,43,29,18,097,31,26,56,205,43*7B
$GPGSV,5,2,17,27,38,292,42,23,47,134,33,18,61,057,47,05,06,031,*73
$GPGSV,5,3,17,15,09,079,,07,05,335,32,13,01,047,,08,06,288,24*76
$GPGSV,5,4,17,31,06,218,25,36,35,170,40,34,31,208,,49,34,195,36*7A
$GPGSV,5,5,17,61,03,257,*4B
$GLGSV,3,1,10,82,64,021,43,67,15,112,29,74,13,335,,81,21,059,31*66
$GLGSV,3,2,10,66,24,058,28,73,47,301,43,80,45,209,43,83,55,279,37*60
$GLGSV,3,3,10,65,09,011,,79,03,176,*63
$GAGSV,3,1,09,13,82,226,49,23,29,312,,14,26,282,,26,27,232,27*64
$GAGSV,3,2,09,27,36,161,47,15,42,053,42,21,70,248,43,03,01,076,*69
$GAGSV,3,3,09,05,04,029,*5B
$GBGSV,5,1,20,43,66,063,48,46,11,326,,21,20,050,35,14,18,131,22*6B
$GBGSV,5,2,20,38,23,037,29,60,11,108,,58,24,315,,23,31,211,33*69
$GBGSV,5,3,20,05,22,129,,34,19,078,33,08,37,042,33,42,26,104,28*67
$GBGSV,5,4,20,50,26,075,,13,43,051,30,37,41,276,39,11,43,069,42*6F
$GBGSV,5,5,20,28,44,270,49,27,02,262,,33,05,153,,02,07,106,*6A
$GPGGA,184512.00,,,,,0,00,,,M,,M,,*43
$PTNL,GGK,184512.00,010125,4742.4464344,N,01617.9725778,E,1,17,1.9,EHT670.4208,M*44
$GPGGQ,184512.00,010125,4742.4464344,N,01617.9725778,E,1,17,1.547,627.2098,M*3A
$GPGFA,184512.00,5.558,11.058,0.585,0.483,32.623,1.349,,VVV*06
$GPLLK,184512.00,010125,,M,,M,1,17,2.3,,M*07
$GNGMP,184512.00,,,,,DAAA,17,0.8,,,,*53
$GPGMP,184512.00,,,,,,05,,,,2.2,123*73
$GLGMP,184512.00,,,,,,04,,,,,*70
$GAGMP,184512.00,,,,,,04,,,,,*7D
$GBGMP,184512.00,,,,,,04,,,,,*7E
$PSSN,SNC,[0,326730000,2347]*47
$GPZDA,184517.00,01,01,2025,,*6D
$GPDTM,W84,,00.0000000,N,00.0000000,E,00.0000000,W84*5F
$GPRMC,184517.00,A,4742.4464337,N,01617.9725785,E,0.0,,010125,5.1,E,D*11
$GPGLL,4742.4464337,N,01617.9725785,E,184517.00,A,D*60
$GPGGA,184517.00,4742.4464337,N,01617.9725785,E,2,17,0.8,627.2053,M,43.2111,M,3.2,0123*41
$GNGNS,184517.00,4742.4464337,N,01617.9725785,E,DAAA,17,0.8,627.2053,43.2111,,*5C
$GPGNS,184517.00,,,,,,05,,,,3.2,123*77
$GLGNS,184517.00,,,,,,04,,,,,*75
$GAGNS,184517.00,,,,,,04,,,,,*78
$GBGNS,184517.00,,,,,,04,,,,,*7B
$GPLLQ,184517.00,010125,,M,,M,1,17,1.563,,M*18
$GPVTG,,T,,M,0.01,N,0.01,K,D*26
$GPHDT,,T*1B
$GPTHS,,V*0E
$GPROT,,V*08
$PSSN,HRP,184517.00,010125,,,,,,,00,0,,*6F
$PTNL,AVR,184517.00,,Yaw,,Tilt,,,,0,,00*39
$GPGSA,A,3,10,16,18,26,27,,,,,,,,1.9,0.8,1.7*3A
$GPGSA,A,3,73,80,82,83,,,,,,,,,1.9,0.8,1.7*39
$GPGSA,A,3,13,15,21,27,,,,,,,,,1.9,0.8,1.7*34
$GPGSA,A,3,11,28,37,43,,,,,,,,,1.9,0.8,1.7*3D
$GPGST,184517.00,1.449,0.593,0.489,32.711,0.565,0.521,1.361*68
$GPGBS,184517.00,4.424,4.759,9.421,27,0.0001,-0.672,0.713*79
$GPGRS,184517.00,1,-0.6,0.1,0.3,0.5,-0.7,,,,,,,*68
$GPGRS,184517.00,1,-1.2,-0.3,-1.1,-3.3,,,,,,,,*40
$GPGRS,184517.00,1,1.6,-0.8,0.4,-0.5,,,,,,,,*4E
$GPGRS,184517.00,1,-0.7,0.0,-1.3,-0.8,,,,,,,,*60
$GPGSV,5,1,17,16,64,275,50,10,21,172,44,29,18,097,31,26,56,205,42*75
$GPGSV,5,2,17,27,38,292,40,23,47,134,35,18,61,057,47,05,06,031,*77
$GPGSV,5,3,17,15,09,079,,07,05,335,32,13,01,047,,08,06,288,*70
$GPGSV,5,4,17,31,06,218,22,36,35,170,40,34,31,208,,49,34,195,36*7D
$GPGSV,5,5,17,61,03,257,*4B
$GLGSV,3,1,10,82,63,021,43,67,15,111,,74,13,335,,81,21,059,28*61
$GLGSV,3,2,10,66,24,058,30,73,47,300,39,80,45,209,42,83,55,279,38*6B
$GLGSV,3,3,10,65,09,011,,79,03,176,*63
$GAGSV,3,1,09,13,82,226,50,23,29,312,,14,26,282,,26,27,232,26*6D
$GAGSV,3,2,09,27,35,161,47,15,42,053,41,21,70,248,42,03,01,075,*6B
$GAGSV,3,3,09,05,04,029,*5B
$GBGSV,5,1,20,43,66,063,48,46,11,326,,21,20,050,34,14,18,131,*6A
$GBGSV,5,2,20,38,23,037,29,60,11,108,,58,24,315,,23,31,211,33*69
$GBGSV,5,3,20,05,22,129,,34,19,078,33,08,37,042,33,42,26,104,28*67
$GBGSV,5,4,20,50,26,075,,13,43,051,28,37,41,276,40,11,43,069,41*6B
$GBGSV,5,5,20,28,44,270,48,27,02,262,,33,05,153,,02,07,106,*6B
$GPGGA,184517.00,,,,,0,00,,,M,,M,,*46
$PTNL,GGK,184517.00,010125,4742.4464337,N,01617.9725785,E,1,17,1.9,EHT670.4163,M*49
$GPGGQ,184517.00,010125,4742.4464337,N,01617.9725785,E,1,17,1.563,627.2053,M*38
$GPGFA,184517.00,5.638,11.164,0.593,0.489,32.711,1.361,,VVV*0F
$GPLLK,184517.00,010125,,M,,M,1,17,2.3,,M*02
$GNGMP,184517.00,,,,,DAAA,17,0.8,,,,*56
$GPGMP,184517.00,,,,,,05,,,,3.2,123*77
$GLGMP,184517.00,,,,,,04,,,,,*75
$GAGMP,184517.00,,,,,,04,,,,,*78
$GBGMP,184517.00,,,,,,04,,,,,*7B
$PSSN,SNC,[0,326735000,2347]*42
$GPZDA,184522.00,01,01,2025,,*6B
$GPDTM,W84,,00.0000000,N,00.0000000,E,00.0000000,W84*5F
$GPRMC,184522.00,A,4742.4464323,N,01617.9725788,E,0.0,,010125,5.1,E,D*1F
$GPGLL,4742.4464323,N,01617.9725788,E,184522.00,A,D*6E
$GPGGA,184522.00,4742.4464323,N,01617.9725788,E,2,18,0.8,627.1877,M,43.2111,M,3.7,0123*48
$GNGNS,184522.00,4742.4464323,N,01617.9725788,E,DAAA,18,0.8,627.1877,43.2111,,*50
$GPGNS,184522.00,,,,,,06,,,,3.7,123*77
$GLGNS,184522.00,,,,,,04,,,,,*73
$GAGNS,184522.00,,,,,,04,,,,,*7E
$GBGNS,184522.00,,,,,,04,,,,,*7D
$GPLLQ,184522.00,010125,,M,,M,1,18,2.850,,M*1F
$GPVTG,,T,,M,0.00,N,0.01,K,D*27
$GPHDT,,T*1B
$GPTHS,,V*0E
$GPROT,,V*08
$PSSN,HRP,184522.00,010125,,,,,,,00,0,,*69
$PTNL,AVR,184522.00,,Yaw,,Tilt,,,,0,,00*3F
$GPGSA,A,3,10,16,18,23,26,27,,,,,,,1.9,0.8,1.7*3B
$GPGSA,A,3,73,80,82,83,,,,,,,,,1.9,0.8,1.7*39
$GPGSA,A,3,13,15,21,27,,,,,,,,,1.9,0.8,1.7*34
$GPGSA,A,3,11,28,37,43,,,,,,,,,1.9,0.8,1.7*3D
$GPGST,184522.00,1.659,1.110,0.739,29.576,1.032,0.845,2.519*61
$GPGBS,184522.00,4.126,3.463,9.330,23,0.0001,-2.318,0.725*78
$GPGRS,184522.00,1,0.5,0.6,0.8,-2.3,0.6,-0.5,,,,,,*4F
$GPGRS,184522.00,1,-2.2,-1.0,0.6,-2.9,,,,,,,,*67
$GPGRS,184522.00,1,1.7,0.1,1.2,-0.1,,,,,,,,*6E
$GPGRS,184522.00,1,-1.2,0.6,-1.5,-0.2,,,,,,,,*68
$GPGSV,5,1,17,16,64,275,50,10,21,172,44,29,17,097,30,26,56,205,43*7A
$GPGSV,5,2,17,27,38,292,41,23,47,134,36,18,61,057,47,05,06,031,*75
$GPGSV,5,3,17,15,09,078,,07,05,335,33,13,01,047,,08,06,288,*70
$GPGSV,5,4,17,31,06,218,20,36,35,170,40,34,31,208,,49,34,195,36*7F
$GPGSV,5,5,17,61,03,257,*4B
$GLGSV,3,1,10,82,63,021,42,67,15,111,,74,13,335,,81,21,059,29*61
$GLGSV,3,2,10,66,24,058,30,73,47,300,38,80,45,209,41,83,55,279,38*69
$GLGSV,3,3,10,65,09,011,,79,03,176,*63
$GAGSV,3,1,09,13,82,226,50,23,29,312,,14,26,282,,26,27,232,26*6D
$GAGSV,3,2,09,27,35,161,47,15,41,053,41,21,70,247,42,03,01,075,*67
$GAGSV,3,3,09,05,04,029,*5B
$GBGSV,5,1,20,43,66,063,47,46,11,326,,21,20,050,33,14,18,131,*62
$GBGSV,5,2,20,38,23,037,28,60,11,108,,58,24,315,,23,31,210,32*68
$GBGSV,5,3,20,05,22,129,,34,19,078,33,08,37,042,34,42,26,104,29*61
$GBGSV,5,4,20,50,26,075,,13,43,051,28,37,41,276,42,11,43,069,40*68
$GBGSV,5,5,20,28,44,270,47,27,02,262,,33,06,153,,02,07,106,*67
$GPGGA,184522.00,,,,,0,00,,,M,,M,,*40
$PTNL,GGK,184522.00,010125,4742.4464323,N,01617.9725788,E,1,18,1.9,EHT670.3988,M*42
$GPGGQ,184522.00,010125,4742.4464323,N,01617.9725788,E,1,18,2.850,627.1877,M*3A
$GPGFA,184522.00,10.557,20.657,1.110,0.739,29.576,2.519,,VVV*37
$GPLLK,184522.00,010125,,M,,M,1,18,2.3,,M*0B
$GNGMP,184522.00,,,,,DAAA,18,0.8,,,,*5F
$GPGMP,184522.00,,,,,,06,,,,3.7,123*77
$GLGMP,184522.00,,,,,,04,,,,,*73
$GAGMP,184522.00,,,,,,04,,,,,*7E
$GBGMP,184522.00,,,,,,04,,,,,*7D
$PSSN,SNC,[0,326740000,2347]*40
$GPZDA,184527.00,01,01,2025,,*6E
$GPDTM,W84,,00.0000000,N,00.0000000,E,00.0000000,W84*5F
$GPRMC,184527.00,A,4742.4464291,N,01617.9725873,E,0.0,,010125,5.1,E,D*19
$GPGLL,4742.4464291,N,01617.9725873,E,184527.00,A,D*68
$GPGGA,184527.00,4742.4464291,N,01617.9725873,E,2,18,0.8,627.1875,M,43.2111,M,1.3,0123*4A
$GNGNS,184527.00,4742.4464291,N,01617.9725873,E,DAAA,18,0.8,627.1875,43.2111,,*54
$GPGNS,184527.00,,,,,,06,,,,1.3,123*74
$GLGNS,184527.00,,,,,,04,,,,,*76
$GAGNS,184527.00,,,,,,04,,,,,*7B
$GBGNS,184527.00,,,,,,04,,,,,*78
$GPLLQ,184527.00,010125,,M,,M,1,18,1.537,,M*15
$GPVTG,,T,,M,0.01,N,0.01,K,D*26
$GPHDT,,T*1B
$GPTHS,,V*0E
$GPROT,,V*08
$PSSN,HRP,184527.00,010125,,,,,,,00,0,,*6C
$PTNL,AVR,184527.00,,Yaw,,Tilt,,,,0,,00*3A
$GPGSA,A,3,10,16,18,23,26,27,,,,,,,1.9,0.8,1.7*3B
$GPGSA,A,3,73,80,82,83,,,,,,,,,1.9,0.8,1.7*39
$GPGSA,A,3,13,15,21,27,,,,,,,,,1.9,0.8,1.7*34
$GPGSA,A,3,11,28,37,43,,,,,,,,,1.9,0.8,1.7*3D
$GPGST,184527.00,1.701,0.594,0.395,29.351,0.553,0.451,1.361*60
$GPGBS,184527.00,3.885,3.221,9.047,27,0.0001,0.845,0.686*59
$GPGRS,184527.00,1,-0.1,-0.2,0.2,-0.5,0.4,0.8,,,,,,*66
$GPGRS,184527.00,1,-0.9,-1.2,-1.8,-2.8,,,,,,,,*4A
$GPGRS,184527.00,1,1.0,0.3,0.6,-0.8,,,,,,,,*62
$GPGRS,184527.00,1,-3.2,0.5,-2.3,-0.0,,,,,,,,*6B
$GPGSV,5,1,17,16,64,274,50,10,21,172,45,29,17,097,29,26,56,205,45*74
$GPGSV,5,2,17,27,38,292,42,23,47,134,38,18,61,057,47,05,06,031,*78
$GPGSV,5,3,17,15,09,078,,07,05,335,33,13,01,047,,08,06,288,31*72
$GPGSV,5,4,17,31,06,217,,36,35,170,40,34,31,208,,49,34,195,36*72
$GPGSV,5,5,17,61,03,257,*4B
$GLGSV,3,1,10,82,63,021,39,67,15,111,29,74,13,335,,81,21,059,33*6D
$GLGSV,3,2,10,66,24,058,31,73,47,300,40,80,45,209,39,83,55,279,39*69
$GLGSV,3,3,10,65,09,011,26,79,03,176,*67
$GAGSV,3,1,09,13,82,226,50,23,29,312,,14,26,282,,26,27,232,29*62
$GAGSV,3,2,09,27,35,161,47,15,41,053,41,21,70,247,42,03,01,075,*67
$GAGSV,3,3,09,05,04,029,*5B
$GBGSV,5,1,20,43,66,063,45,46,11,326,,21,20,050,32,14,18,131,28*6B
$GBGSV,5,2,20,38,23,037,30,60,11,108,,58,24,315,,23,31,210,32*61
$GBGSV,5,3,20,05,22,129,,34,19,078,33,08,37,042,33,42,26,104,29*66
$GBGSV,5,4,20,50,26,075,,13,43,051,28,37,41,276,43,11,42,069,40*68
$GBGSV,5,5,20,28,44,270,46,27,02,262,,33,06,153,,02,07,106,*66
$GPGGA,184527.00,,,,,0,00,,,M,,M,,*45
$PTNL,GGK,184527.00,010125,4742.4464291,N,01617.9725873,E,1,18,1.9,EHT670.3985,M*49
$GPGGQ,184527.00,010125,4742.4464291,N,01617.9725873,E,1,18,1.537,627.1875,M*31
$GPGFA,184527.00,5.648,11.163,0.594,0.395,29.351,1.361,,VVV*0B
$GPLLK,184527.00,010125,,M,,M,1,18,2.3,,M*0E
$GNGMP,184527.00,,,,,DAAA,18,0.8,,,,*5A
$GPGMP,184527.00,,,,,,06,,,,1.3,123*74
$GLGMP,184527.00,,,,,,04,,,,,*76
$GAGMP,184527.00,,,,,,04,,,,,*7B
$GBGMP,184527.00,,,,,,04,,,,,*78
$PSSN,SNC,[0,326745000,2347]*45
$GPZDA,184532.00,01,01,2025,,*6A
$GPDTM,W84,,00.0000000,N,00.0000000,E,00.0000000,W84*5F
$GPRMC,184532.00,A,4742.4464270,N,01617.9725933,E,0.0,,010125,5.1,E,D*17
$GPGLL,4742.4464270,N,01617.9725933,E,184532.00,A,D*66
$GPGGA,184532.00,4742.4464270,N,01617.9725933,E,2,18,0.8,627.1929,M,43.2111,M,2.3,0123*4F
$GNGNS,184532.00,4742.4464270,N,01617.9725933,E,DAAA,18,0.8,627.1929,43.2111,,*52
$GPGNS,184532.00,,,,,,06,,,,2.3,123*73
$GLGNS,184532.00,,,,,,04,,,,,*72
$GAGNS,184532.00,,,,,,04,,,,,*7F
$GBGNS,184532.00,,,,,,04,,,,,*7C
$GPLLQ,184532.00,010125,,M,,M,1,18,1.783,,M*1C
$GPVTG,,T,,M,0.01,N,0.01,K,D*26
$GPHDT,,T*1B
$GPTHS,,V*0E
$GPROT,,V*08
$PSSN,HRP,184532.00,010125,,,,,,,00,0,,*68
$PTNL,AVR,184532.00,,Yaw,,Tilt,,,,0,,00*3E
$GPGSA,A,3,10,16,18,23,26,27,,,,,,,1.9,0.8,1.7*3B
$GPGSA,A,3,73,80,82,83,,,,,,,,,1.9,0.8,1.7*39
$GPGSA,A,3,13,15,21,27,,,,,,,,,1.9,0.8,1.7*34
$GPGSA,A,3,11,28,37,43,,,,,,,,,1.9,0.8,1.7*3D
$GPGST,184532.00,2.062,0.679,0.454,28.973,0.633,0.515,1.585*6C
$GPGBS,184532.00,3.942,3.271,9.203,27,0.0001,0.982,0.698*55
$GPGRS,184532.00,1,-0.8,-0.7,-0.1,0.3,-0.0,1.0,,,,,,*4B
$GPGRS,184532.00,1,2.1,-1.5,-3.9,-1.2,,,,,,,,*64
$GPGRS,184532.00,1,0.8,0.5,-0.5,-1.4,,,,,,,,*4A
$GPGRS,184532.00,1,-3.7,0.1,-1.9,0.5,,,,,,,,*4F
$GPGSV,5,1,17,16,64,274,50,10,21,172,45,29,17,097,28,26,56,205,45*75
$GPGSV,5,2,17,27,38,292,43,23,47,134,40,18,61,057,48,05,06,031,20*7B
$GPGSV,5,3,17,15,09,078,,07,05,334,34,13,01,047,,08,06,288,32*77
$GPGSV,5,4,17,31,06,217,20,36,35,170,40,34,31,208,,49,34,195,37*71
$GPGSV,5,5,17,61,03,257,*4B
$GLGSV,3,1,10,82,63,022,39,67,15,111,,74,13,335,,81,21,059,32*64
$GLGSV,3,2,10,66,24,058,31,73,47,300,43,80,45,209,40,83,55,279,39*64
$GLGSV,3,3,10,65,09,011,,79,03,176,*63
$GAGSV,3,1,09,13,82,226,49,23,29,312,,14,26,282,,26,27,232,31*63
$GAGSV,3,2,09,27,35,161,47,15,41,053,40,21,70,247,41,03,02,075,*66
$GAGSV,3,3,09,05,04,029,*5B
$GBGSV,5,1,20,43,66,063,44,46,11,326,,21,20,050,31,14,18,131,27*66
$GBGSV,5,2,20,38,23,037,29,60,11,108,,58,24,315,,23,31,210,31*6A
$GBGSV,5,3,20,05,22,129,,34,19,078,32,08,37,042,34,42,26,103,27*69
$GBGSV,5,4,20,50,26,075,,13,43,051,28,37,41,276,43,11,42,069,39*66
$GBGSV,5,5,20,28,44,270,45,27,02,262,,33,06,153,,02,07,106,*65
$GPGGA,184532.00,,,,,0,00,,,M,,M,,*41
$PTNL,GGK,184532.00,010125,4742.4464270,N,01617.9725933,E,1,18,1.9,EHT670.4039,M*4E
$GPGGQ,184532.00,010125,4742.4464270,N,01617.9725933,E,1,18,1.783,627.1929,M*3A
$GPGFA,184532.00,6.452,12.996,0.679,0.454,28.973,1.585,,VVV*09
$GPLLK,184532.00,010125,,M,,M,1,18,2.3,,M*0A
$GNGMP,184532.00,,,,,DAAA,18,0.8,,,,*5E
$GPGMP,184532.00,,,,,,06,,,,2.3,123*73
$GLGMP,184532.00,,,,,,04,,,,,*72
$GAGMP,184532.00,,,,,,04,,,,,*7F
$GBGMP,184532.00,,,,,,04,,,,,*7C
$PSSN,SNC,[0,326750000,2347]*41
$GPZDA,184537.00,01,01,2025,,*6F
$GPDTM,W84,,00.0000000,N,00.0000000,E,00.0000000,W84*5F
$GPRMC,184537.00,A,4742.4464217,N,01617.9725909,E,0.0,,010125,5.1,E,D*1A
$GPGLL,4742.4464217,N,01617.9725909,E,184537.00,A,D*6B
$GPGGA,184537.00,4742.4464217,N,01617.9725909,E,2,18,0.8,627.2026,M,43.2111,M,2.7,0123*43
$GNGNS,184537.00,4742.4464217,N,01617.9725909,E,DAAA,18,0.8,627.2026,43.2111,,*5A
$GPGNS,184537.00,,,,,,06,,,,2.7,123*72
$GLGNS,184537.00,,,,,,04,,,,,*77
$GAGNS,184537.00,,,,,,04,,,,,*7A
$GBGNS,184537.00,,,,,,04,,,,,*79
$GPLLQ,184537.00,010125,,M,,M,1,18,2.408,,M*1A
$GPVTG,,T,,M,0.00,N,0.01,K,D*27
$GPHDT,,T*1B
$GPTHS,,V*0E
$GPROT,,V*08
$PSSN,HRP,184537.00,010125,,,,,,,00,0,,*6D
$PTNL,AVR,184537.00,,Yaw,,Tilt,,,,0,,00*3B
$GPGSA,A,3,10,16,18,23,26,27,,,,,,,1.9,0.8,1.7*3B
$GPGSA,A,3,73,80,82,83,,,,,,,,,1.9,0.8,1.7*39
$GPGSA,A,3,13,15,21,27,,,,,,,,,1.9,0.8,1.7*34
$GPGSA,A,3,11,28,37,43,,,,,,,,,1.9,0.8,1.7*3D
$GPGST,184537.00,3.689,0.924,0.616,29.216,0.861,0.702,2.136*63
$GPGBS,184537.00,4.004,3.341,9.207,23,0.0001,1.215,0.691*53
$GPGRS,184537.00,1,-0.9,-0.6,-0.4,1.2,-0.5,0.8,,,,,,*47
$GPGRS,184537.00,1,10.4,-1.4,-2.9,-2.3,,,,,,,,*55
$GPGRS,184537.00,1,0.8,0.3,-0.7,-1.1,,,,,,,,*4E
$GPGRS,184537.00,1,-3.4,0.1,-2.7,0.8,,,,,,,,*49
$GPGSV,5,1,17,16,64,274,49,10,21,172,45,29,17,097,27,26,56,205,45*72
$GPGSV,5,2,17,27,38,292,43,23,47,134,41,18,61,057,48,05,06,031,21*7B
$GPGSV,5,3,17,15,09,078,,07,05,334,32,13,01,047,,08,06,288,34*77
$GPGSV,5,4,17,31,06,217,,36,35,170,40,34,31,208,,49,34,195,37*73
$GPGSV,5,5,17,61,03,257,*4B
$GLGSV,3,1,10,82,63,022,40,67,15,111,31,74,13,335,,81,21,059,31*6B
$GLGSV,3,2,10,66,24,058,,73,47,300,43,80,45,209,41,83,55,279,38*66
$GLGSV,3,3,10,65,09,011,,79,03,176,*63
$GAGSV,3,1,09,13,82,226,49,23,29,312,,14,27,282,,26,27,232,32*61
$GAGSV,3,2,09,27,35,161,46,15,41,053,39,21,70,247,42,03,02,075,*6A
$GAGSV,3,3,09,05,04,029,*5B
$GBGSV,5,1,20,43,66,063,43,46,11,326,,21,20,050,30,14,18,131,24*63
$GBGSV,5,2,20,38,23,037,30,60,11,108,,58,24,315,,23,31,210,30*63
$GBGSV,5,3,20,05,22,129,,34,19,078,31,08,37,042,35,42,26,103,25*69
$GBGSV,5,4,20,50,26,075,,13,43,051,28,37,41,276,43,11,42,069,38*67
$GBGSV,5,5,20,28,44,270,45,27,02,262,,33,06,153,,02,07,106,*65
$GPGGA,184537.00,,,,,0,00,,,M,,M,,*44
$PTNL,GGK,184537.00,010125,4742.4464217,N,01617.9725909,E,1,18,1.9,EHT670.4136,M*4D
$GPGGQ,184537.00,010125,4742.4464217,N,01617.9725909,E,1,18,2.408,627.2026,M*31
$GPGFA,184537.00,8.785,17.518,0.924,0.616,29.216,2.136,,VVV*01
$GPLLK,184537.00,010125,,M,,M,1,18,2.3,,M*0F
$GNGMP,184537.00,,,,,DAAA,18,0.8,,,,*5B
$GPGMP,184537.00,,,,,,06,,,,2.7,123*72
$GLGMP,184537.00,,,,,,04,,,,,*77
$GAGMP,184537.00,,,,,,04,,,,,*7A
$GBGMP,184537.00,,,,,,04,,,,,*79
$PSSN,SNC,[0,326755000,2347]*44
$GPZDA,184542.00,01,01,2025,,*6D
$GPDTM,W84,,00.0000000,N,00.0000000,E,00.0000000,W84*5F
$GPRMC,184542.00,A,4742.4464184,N,01617.9725853,E,0.0,,010125,5.1,E,D*1F
$GPGLL,4742.4464184,N,01617.9725853,E,184542.00,A,D*6E
$GPGGA,184542.00,4742.4464184,N,01617.9725853,E,2,19,0.7,627.2103,M,43.2111,M,3.7,0123*4F
$GNGNS,184542.00,4742.4464184,N,01617.9725853,E,DAAA,19,0.7,627.2103,43.2111,,*57
$GPGNS,184542.00,,,,,,06,,,,3.7,123*71
$GLGNS,184542.00,,,,,,04,,,,,*75
$GAGNS,184542.00,,,,,,04,,,,,*78
$GBGNS,184542.00,,,,,,05,,,,,*7A
$GPLLQ,184542.00,010125,,M,,M,1,19,3.218,,M*1F
$GPVTG,,T,,M,0.00,N,0.01,K,D*27
$GPHDT,,T*1B
$GPTHS,,V*0E
$GPROT,,V*08
$PSSN,HRP,184542.00,010125,,,,,,,00,0,,*6F
$PTNL,AVR,184542.00,,Yaw,,Tilt,,,,0,,00*39
$GPGSA,A,3,10,16,18,23,26,27,,,,,,,1.8,0.7,1.6*34
$GPGSA,A,3,73,80,82,83,,,,,,,,,1.8,0.7,1.6*36
$GPGSA,A,3,13,15,21,27,,,,,,,,,1.8,0.7,1.6*3B
$GPGSA,A,3,08,11,28,37,43,,,,,,,,1.8,0.7,1.6*3A
$GPGST,184542.00,4.998,1.245,0.831,29.383,1.159,0.947,2.849*6F
$GPGBS,184542.00,4.063,3.400,9.372,73,0.0001,15.218,6.071*62
$GPGRS,184542.00,1,-0.5,-0.2,-0.5,1.7,-1.4,0.9,,,,,,*48
$GPGRS,184542.00,1,15.2,-1.3,-4.1,-3.1,,,,,,,,*5E
$GPGRS,184542.00,1,0.9,-0.0,-0.4,-0.9,,,,,,,,*69
$GPGRS,184542.00,1,-2.5,-3.8,0.3,-3.1,1.0,,,,,,,*4F
$GPGSV,5,1,17,16,64,274,49,10,21,172,45,29,17,097,28,26,56,205,43*7B
$GPGSV,5,2,17,27,38,292,43,23,47,134,42,18,61,057,48,05,06,031,23*7A
$GPGSV,5,3,17,15,09,078,,07,05,334,32,13,01,047,,08,06,288,35*76
$GPGSV,5,4,17,31,06,217,,36,35,170,40,34,31,208,,49,34,195,37*73
$GPGSV,5,5,17,61,03,257,*4B
$GLGSV,3,1,10,82,63,022,39,67,15,111,32,74,13,335,,81,21,059,35*62
$GLGSV,3,2,10,66,24,058,,73,47,300,41,80,45,209,43,83,55,279,40*69
$GLGSV,3,3,10,65,09,011,,79,03,176,*63
$GAGSV,3,1,09,13,82,227,48,23,29,312,,14,27,282,,26,27,232,32*61
$GAGSV,3,2,09,27,35,161,46,15,41,053,38,21,70,247,42,03,02,075,*6B
$GAGSV,3,3,09,05,04,029,*5B
$GBGSV,5,1,20,43,66,063,43,46,11,326,,21,20,050,30,14,18,131,*65
$GBGSV,5,2,20,38,23,037,30,60,11,108,,58,24,315,,23,31,210,32*61
$GBGSV,5,3,20,05,22,129,,34,19,078,30,08,37,042,36,42,26,103,29*67
$GBGSV,5,4,20,50,26,075,,13,43,051,29,37,41,276,42,11,42,069,38*67
$GBGSV,5,5,20,28,44,270,45,27,02,263,,33,06,153,,02,07,106,*64
$GPGGA,184542.00,,,,,0,00,,,M,,M,,*46
$PTNL,GGK,184542.00,010125,4742.4464184,N,01617.9725853,E,1,19,1.8,EHT670.4214,M*4B
$GPGGQ,184542.00,010125,4742.4464184,N,01617.9725853,E,1,19,3.218,627.2103,M*35
$GPGFA,184542.00,11.837,23.363,1.245,0.831,29.383,2.849,,VVV*3A
$GPLLK,184542.00,010125,,M,,M,1,19,2.1,,M*0E
$GNGMP,184542.00,,,,,DAAA,19,0.7,,,,*57
$GPGMP,184542.00,,,,,,06,,,,3.7,123*71
$GLGMP,184542.00,,,,,,04,,,,,*75
$GAGMP,184542.00,,,,,,04,,,,,*78
$GBGMP,184542.00,,,,,,05,,,,,*7A
$PSSN,SNC,[0,326760000,2347]*42
$GPZDA,184547.00,01,01,2025,,*68
$GPDTM,W84,,00.0000000,N,00.0000000,E,00.0000000,W84*5F
$GPRMC,184547.00,A,4742.4464138,N,01617.9725831,E,0.0,,010125,5.1,E,D*19
$GPGLL,4742.4464138,N,01617.9725831,E,184547.00,A,D*68
$GPGGA,184547.00,4742.4464138,N,01617.9725831,E,2,19,0.7,627.2265,M,43.2111,M,1.3,0123*4C
$GNGNS,184547.00,4742.4464138,N,01617.9725831,E,DAAA,19,0.7,627.2265,43.2111,,*52
$GPGNS,184547.00,,,,,,06,,,,1.3,123*72
$GLGNS,184547.00,,,,,,04,,,,,*70
$GAGNS,184547.00,,,,,,04,,,,,*7D
$GBGNS,184547.00,,,,,,05,,,,,*7F
$GPLLQ,184547.00,010125,,M,,M,1,19,3.526,,M*10
$GPVTG,,T,,M,0.00,N,0.01,K,D*27
$GPHDT,,T*1B
$GPTHS,,V*0E
$GPROT,,V*08
$PSSN,HRP,184547.00,010125,,,,,,,00,0,,*6A
$PTNL,AVR,184547.00,,Yaw,,Tilt,,,,0,,00*3C
$GPGSA,A,3,10,16,18,23,26,27,,,,,,,1.8,0.7,1.6*34
$GPGSA,A,3,73,80,82,83,,,,,,,,,1.8,0.7,1.6*36
$GPGSA,A,3,13,15,21,27,,,,,,,,,1.8,0.7,1.6*3B
$GPGSA,A,3,08,11,28,37,43,,,,,,,,1.8,0.7,1.6*3A
$GPGST,184547.00,4.224,1.350,0.902,29.135,1.258,1.026,3.130*66
$GPGBS,184547.00,3.840,3.189,9.092,26,0.0001,-1.954,0.629*76
$GPGRS,184547.00,1,-0.6,0.1,-0.6,1.7,-2.0,1.4,,,,,,*68
$GPGRS,184547.00,1,12.8,0.1,-4.2,-1.0,,,,,,,,*78
$GPGRS,184547.00,1,0.9,-0.2,0.0,-0.8,,,,,,,,*46
$GPGRS,184547.00,1,-2.4,-3.1,0.3,-2.2,1.1,,,,,,,*41
$GPGSV,5,1,17,16,64,274,48,10,21,172,44,29,17,097,26,26,56,205,41*77
$GPGSV,5,2,17,27,38,292,42,23,47,134,43,18,60,057,47,05,06,031,21*76
$GPGSV,5,3,17,15,09,078,,07,05,334,31,13,01,047,,08,06,288,*73
$GPGSV,5,4,17,31,06,217,19,36,35,170,40,34,31,208,,49,34,195,36*7A
$GPGSV,5,5,17,61,03,257,*4B
$GLGSV,3,1,10,82,63,022,41,67,15,111,32,74,13,335,,81,21,059,37*6F
$GLGSV,3,2,10,66,24,058,34,73,47,300,39,80,45,209,42,83,55,279,41*61
$GLGSV,3,3,10,65,08,011,,79,03,176,*62
$GAGSV,3,1,09,13,82,227,48,23,29,312,,14,27,282,,26,27,232,32*61
$GAGSV,3,2,09,27,35,161,45,15,41,053,36,21,70,247,42,03,02,075,*66
$GAGSV,3,3,09,05,04,029,*5B
$GBGSV,5,1,20,43,66,063,43,46,11,326,,21,20,050,27,14,18,131,27*66
$GBGSV,5,2,20,38,23,037,30,60,11,108,,58,24,315,,23,31,210,33*60
$GBGSV,5,3,20,05,22,129,,34,19,079,30,08,37,042,36,42,26,103,31*6F
$GBGSV,5,4,20,50,26,075,,13,43,051,30,37,41,276,43,11,42,069,38*6E
$GBGSV,5,5,20,28,45,270,45,27,02,263,,33,06,153,,02,07,106,*65
$GPGGA,184547.00,,,,,0,00,,,M,,M,,*43
$PTNL,GGK,184547.00,010125,4742.4464138,N,01617.9725831,E,1,19,1.8,EHT670.4375,M*4B
$GPGGQ,184547.00,010125,4742.4464138,N,01617.9725831,E,1,19,3.526,627.2265,M*3A
$GPGFA,184547.00,12.832,25.665,1.350,0.902,29.135,3.130,,VVV*31
$GPLLK,184547.00,010125,,M,,M,1,19,2.1,,M*0B
$GNGMP,184547.00,,,,,DAAA,19,0.7,,,,*52
$GPGMP,184547.00,,,,,,06,,,,1.3,123*72
$GLGMP,184547.00,,,,,,04,,,,,*70
$GAGMP,184547.00,,,,,,04,,,,,*7D
$GBGMP,184547.00,,,,,,05,,,,,*7F
$PSSN,SNC,[0,326765000,2347]*47
$GPZDA,184552.00,01,01,2025,,*6C
$GPDTM,W84,,00.0000000,N,00.0000000,E,00.0000000,W84*5F
$GPRMC,184552.00,A,4742.4464039,N,01617.9725842,E,0.0,,010125,5.1,E,D*19
$GPGLL,4742.4464039,N,01617.9725842,E,184552.00,A,D*68
$GPGGA,184552.00,4742.4464039,N,01617.9725842,E,2,18,0.8,627.2502,M,43.2111,M,2.3,0123*47
$GNGNS,184552.00,4742.4464039,N,01617.9725842,E,DAAA,18,0.8,627.2502,43.2111,,*5A
$GPGNS,184552.00,,,,,,06,,,,2.3,123*75
$GLGNS,184552.00,,,,,,04,,,,,*74
$GAGNS,184552.00,,,,,,03,,,,,*7E
$GBGNS,184552.00,,,,,,05,,,,,*7B
$GPLLQ,184552.00,010125,,M,,M,1,18,3.384,,M*1B
$GPVTG,,T,,M,0.01,N,0.01,K,D*26
$GPHDT,,T*1B
$GPTHS,,V*0E
$GPROT,,V*08
$PSSN,HRP,184552.00,010125,,,,,,,00,0,,*6E
$PTNL,AVR,184552.00,,Yaw,,Tilt,,,,0,,00*38
$GPGSA,A,3,10,16,18,23,26,27,,,,,,,1.8,0.8,1.6*3B
$GPGSA,A,3,73,80,82,83,,,,,,,,,1.8,0.8,1.6*39
$GPGSA,A,3,13,21,27,,,,,,,,,,1.8,0.8,1.6*30
$GPGSA,A,3,08,11,28,37,43,,,,,,,,1.8,0.8,1.6*35
$GPGST,184552.00,3.409,1.286,0.854,28.802,1.200,0.972,3.012*6D
$GPGBS,184552.00,3.990,3.292,9.286,27,0.0001,1.732,0.698*58
$GPGRS,184552.00,1,-0.7,-0.1,-0.9,1.5,-1.4,1.7,,,,,,*49
$GPGRS,184552.00,1,9.9,1.1,-2.2,1.0,,,,,,,,*6D
$GPGRS,184552.00,1,0.9,-0.3,-1.0,,,,,,,,,*64
$GPGRS,184552.00,1,-1.1,-2.8,-0.3,-1.7,0.5,,,,,,,*65
$GPGSV,5,1,17,16,64,274,48,10,21,172,44,29,17,097,30,26,56,205,41*70
$GPGSV,5,2,17,27,38,292,42,23,47,134,42,18,60,057,47,05,06,031,21*77
$GPGSV,5,3,17,15,09,078,,07,05,334,30,13,01,047,,08,06,288,*72
$GPGSV,5,4,17,31,06,217,,36,35,170,40,34,31,208,,49,34,195,36*72
$GPGSV,5,5,17,61,03,257,*4B
$GLGSV,3,1,10,82,63,022,44,67,15,111,30,74,13,335,,81,21,059,39*66
$GLGSV,3,2,10,66,24,058,28,73,47,300,37,80,45,209,39,83,55,279,41*6E
$GLGSV,3,3,10,65,08,011,,79,03,176,*62
$GAGSV,3,1,09,13,82,227,48,23,29,312,,14,27,282,,26,27,232,31*62
$GAGSV,3,2,09,27,35,161,44,15,41,053,34,21,70,247,42,03,02,075,*65
$GAGSV,3,3,09,05,04,029,*5B
$GBGSV,5,1,20,43,66,063,44,46,11,326,,21,20,050,22,14,18,131,*61
$GBGSV,5,2,20,38,23,037,32,60,11,108,,58,24,315,,23,31,210,34*65
$GBGSV,5,3,20,05,22,129,,34,19,079,30,08,37,042,38,42,26,103,30*60
$GBGSV,5,4,20,50,26,075,,13,43,051,30,37,41,276,43,11,42,069,38*6E
$GBGSV,5,5,20,28,45,270,45,27,02,263,,33,06,153,,02,07,106,*65
$GPGGA,184552.00,,,,,0,00,,,M,,M,,*47
$PTNL,GGK,184552.00,010125,4742.4464039,N,01617.9725842,E,1,18,1.8,EHT670.4612,M*4E
$GPGGQ,184552.00,010125,4742.4464039,N,01617.9725842,E,1,18,3.384,627.2502,M*33
$GPGFA,184552.00,12.225,24.694,1.286,0.854,28.802,3.012,,VVV*33
$GPLLK,184552.00,010125,,M,,M,1,18,2.2,,M*0D
$GNGMP,184552.00,,,,,DAAA,18,0.8,,,,*58
$GPGMP,184552.00,,,,,,06,,,,2.3,123*75
$GLGMP,184552.00,,,,,,04,,,,,*74
$GAGMP,184552.00,,,,,,03,,,,,*7E
$GBGMP,184552.00,,,,,,05,,,,,*7B
$PSSN,SNC,[0,326770000,2347]*43
$GPZDA,184557.00,01,01,2025,,*69
$GPDTM,W84,,00.0000000,N,00.0000000,E,00.0000000,W84*5F
$GPRMC,184557.00,A,4742.4463979,N,01617.9725916,E,0.0,,010125,5.1,E,D*16
$GPGLL,4742.4463979,N,01617.9725916,E,184557.00,A,D*67
$GPGGA,184557.00,4742.4463979,N,01617.9725916,E,2,18,0.8,627.2653,M,43.2111,M,2.7,0123*4B
$GNGNS,184557.00,4742.4463979,N,01617.9725916,E,DAAA,18,0.8,627.2653,43.2111,,*52
$GPGNS,184557.00,,,,,,06,,,,2.7,123*74
$GLGNS,184557.00,,,,,,04,,,,,*71
$GAGNS,184557.00,,,,,,03,,,,,*7B
$GBGNS,184557.00,,,,,,05,,,,,*7E
$GPLLQ,184557.00,010125,,M,,M,1,18,3.061,,M*16
$GPVTG,,T,,M,0.00,N,0.00,K,D*26
$GPHDT,,T*1B
$GPTHS,,V*0E
$GPROT,,V*08
$PSSN,HRP,184557.00,010125,,,,,,,00,0,,*6B
$PTNL,AVR,184557.00,,Yaw,,Tilt,,,,0,,00*3D
$GPGSA,A,3,10,16,18,23,26,27,,,,,,,1.8,0.8,1.6*3B
$GPGSA,A,3,73,80,82,83,,,,,,,,,1.8,0.8,1.6*39
$GPGSA,A,3,13,21,27,,,,,,,,,,1.8,0.8,1.6*30
$GPGSA,A,3,08,11,28,37,43,,,,,,,,1.8,0.8,1.6*35
$GPGST,184557.00,1.889,1.171,0.777,29.043,1.091,0.886,2.719*6A
$GPGBS,184557.00,4.058,3.367,9.295,27,0.0001,2.041,0.714*5B
$GPGRS,184557.00,1,-1.3,0.0,-0.9,1.3,-0.8,2.0,,,,,,*6A
$GPGRS,184557.00,1,1.0,-3.9,-1.0,1.0,,,,,,,,*4F
$GPGRS,184557.00,1,0.7,-0.8,-1.2,,,,,,,,,*66
$GPGRS,184557.00,1,-0.2,-2.7,-0.9,-1.2,-0.4,,,,,,,*4E
$GPGSV,5,1,17,16,64,274,48,10,21,172,43,29,17,097,27,26,56,205,41*71
$GPGSV,5,2,17,27,38,292,41,23,47,134,41,18,60,057,47,05,06,031,*74
$GPGSV,5,3,17,15,09,078,,07,05,334,30,13,01,047,,08,06,288,*72
$GPGSV,5,4,17,31,06,217,19,36,35,170,40,34,31,208,,49,34,195,36*7A
$GPGSV,5,5,17,61,03,257,*4B
$GLGSV,3,1,10,82,63,022,45,67,15,111,29,74,13,335,,81,21,059,40*61
$GLGSV,3,2,10,66,24,058,31,73,47,300,38,80,45,209,36,83,55,279,40*67
$GLGSV,3,3,10,65,08,011,,79,03,176,*62
$GAGSV,3,1,09,13,82,227,48,23,30,312,,14,27,282,,26,27,232,31*6A
$GAGSV,3,2,09,27,35,161,44,15,41,053,32,21,70,247,42,03,02,075,*63
$GAGSV,3,3,09,05,04,029,*5B
$GBGSV,5,1,20,43,66,063,45,46,11,326,,21,20,050,34,14,18,131,*67
$GBGSV,5,2,20,38,23,037,31,60,11,108,,58,24,315,,23,31,210,34*66
$GBGSV,5,3,20,05,22,129,,34,19,079,32,08,37,042,38,42,26,103,25*66
$GBGSV,5,4,20,50,26,075,,13,43,051,31,37,41,276,44,11,42,069,39*69
$GBGSV,5,5,20,28,45,270,46,27,02,263,,33,06,153,,02,07,106,*66
$GPGGA,184557.00,,,,,0,00,,,M,,M,,*42
$PTNL,GGK,184557.00,010125,4742.4463979,N,01617.9725916,E,1,18,1.8,EHT670.4764,M*41
$GPGGQ,184557.00,010125,4742.4463979,N,01617.9725916,E,1,18,3.061,627.2653,M*33
$GPGFA,184557.00,11.136,22.295,1.171,0.777,29.043,2.719,,VVV*33
$GPLLK,184557.00,010125,,M,,M,1,18,2.2,,M*08
$GNGMP,184557.00,,,,,DAAA,18,0.8,,,,*5D
$GPGMP,184557.00,,,,,,06,,,,2.7,123*74
$GLGMP,184557.00,,,,,,04,,,,,*71
$GAGMP,184557.00,,,,,,03,,,,,*7B
$GBGMP,184557.00,,,,,,05,,,,,*7E
$PSSN,SNC,[0,326775000,2347]*46
$GPZDA,184602.00,01,01,2025,,*6A
$GPDTM,W84,,00.0000000,N,00.0000000,E,00.0000000,W84*5F
$GPRMC,184602.00,A,4742.4463901,N,01617.9726004,E,0.0,,010125,5.1,E,D*13
$GPGLL,4742.4463901,N,01617.9726004,E,184602.00,A,D*62
$GPGGA,184602.00,4742.4463901,N,01617.9726004,E,2,17,0.8,627.2670,M,43.2111,M,3.6,0123*40
$GNGNS,184602.00,4742.4463901,N,01617.9726004,E,DAAA,17,0.8,627.2670,43.2111,,*59
$GPGNS,184602.00,,,,,,05,,,,3.6,123*74
$GLGNS,184602.00,,,,,,04,,,,,*72
$GAGNS,184602.00,,,,,,03,,,,,*78
$GBGNS,184602.00,,,,,,05,,,,,*7D
$GPLLQ,184602.00,010125,,M,,M,1,17,4.097,,M*14
$GPVTG,,T,,M,0.01,N,0.01,K,D*26
$GPHDT,,T*1B
$GPTHS,,V*0E
$GPROT,,V*08
$PSSN,HRP,184602.00,010125,,,,,,,00,0,,*68
$PTNL,AVR,184602.00,,Yaw,,Tilt,,,,0,,00*3E
$GPGSA,A,3,10,16,18,23,26,,,,,,,,1.9,0.8,1.7*3E
$GPGSA,A,3,73,80,82,83,,,,,,,,,1.9,0.8,1.7*39
$GPGSA,A,3,13,21,27,,,,,,,,,,1.9,0.8,1.7*30
$GPGSA,A,3,08,11,28,37,43,,,,,,,,1.9,0.8,1.7*35
$GPGST,184602.00,2.563,1.556,0.829,336.667,1.466,0.979,3.698*5F
$GPGBS,184602.00,6.462,4.891,20.267,23,0.0001,1.272,0.707*63
$GPGRS,184602.00,1,-1.7,0.4,-0.8,1.3,-0.3,,,,,,,*4F
$GPGRS,184602.00,1,-0.8,-7.3,-0.7,0.3,,,,,,,,*62
$GPGRS,184602.00,1,0.7,-0.6,-1.0,,,,,,,,,*69
$GPGRS,184602.00,1,0.1,-1.4,-1.0,-1.0,-0.7,,,,,,,*6A
$GPGSV,5,1,17,16,64,274,48,10,21,172,43,29,17,098,25,26,56,205,42*7F
$GPGSV,5,2,17,27,38,292,42,23,47,134,40,18,60,057,46,05,06,031,*77
$GPGSV,5,3,17,15,09,078,,07,05,334,31,13,01,047,,08,06,288,28*79
$GPGSV,5,4,17,31,06,217,,36,35,170,40,34,31,208,,49,34,195,36*72
$GPGSV,5,5,17,61,03,257,*4B
$GLGSV,3,1,10,82,63,022,47,67,15,111,30,74,13,335,,81,21,059,39*65
$GLGSV,3,2,10,66,24,058,33,73,47,300,41,80,45,209,37,83,55,279,38*65
$GLGSV,3,3,10,65,08,011,,79,03,176,*62
$GAGSV,3,1,09,13,82,227,48,23,30,311,,14,27,282,,26,27,232,32*6A
$GAGSV,3,2,09,27,35,161,43,15,41,053,33,21,70,247,41,03,02,075,*66
$GAGSV,3,3,09,05,04,029,*5B
$GBGSV,5,1,20,43,66,063,46,46,11,326,,21,20,050,23,14,18,131,31*60
$GBGSV,5,2,20,38,23,037,31,60,11,108,,58,24,315,,23,31,210,33*61
$GBGSV,5,3,20,05,22,129,,34,19,079,33,08,37,042,38,42,26,103,19*68
$GBGSV,5,4,20,50,26,075,,13,43,051,32,37,41,276,44,11,42,069,41*65
$GBGSV,5,5,20,28,45,270,46,27,02,263,,33,06,153,,02,07,106,*66
$GPGGA,184602.00,,,,,0,00,,,M,,M,,*41
$PTNL,GGK,184602.00,010125,4742.4463901,N,01617.9726004,E,1,17,1.9,EHT670.4780,M*40
$GPGGQ,184602.00,010125,4742.4463901,N,01617.9726004,E,1,17,4.097,627.2670,M*36
$GPGFA,184602.00,14.791,30.324,1.556,0.829,336.667,3.698,,VVV*07
$GPLLK,184602.00,010125,,M,,M,1,17,2.3,,M*05
$GNGMP,184602.00,,,,,DAAA,17,0.8,,,,*51
$GPGMP,184602.00,,,,,,05,,,,3.6,123*74
$GLGMP,184602.00,,,,,,04,,,,,*72
$GAGMP,184602.00,,,,,,03,,,,,*78
$GBGMP,184602.00,,,,,,05,,,,,*7D
$PSSN,SNC,[0,326780000,2347]*4C
$GPZDA,184607.00,01,01,2025,,*6F
$GPDTM,W84,,00.0000000,N,00.0000000,E,00.0000000,W84*5F
$GPRMC,184607.00,A,4742.4463913,N,01617.9725960,E,0.0,,010125,5.1,E,D*1D
$GPGLL,4742.4463913,N,01617.9725960,E,184607.00,A,D*6C
$GPGGA,184607.00,4742.4463913,N,01617.9725960,E,2,19,0.8,627.2575,M,43.2111,M,1.4,0123*46
$GNGNS,184607.00,4742.4463913,N,01617.9725960,E,DAAA,19,0.8,627.2575,43.2111,,*5F
$GPGNS,184607.00,,,,,,05,,,,1.4,123*71
$GLGNS,184607.00,,,,,,06,,,,,*75
$GAGNS,184607.00,,,,,,03,,,,,*7D
$GBGNS,184607.00,,,,,,05,,,,,*78
$GPLLQ,184607.00,010125,,M,,M,1,19,4.945,,M*19
$GPVTG,,T,,M,0.00,N,0.01,K,D*27
$GPHDT,,T*1B
$GPTHS,,V*0E
$GPROT,,V*08
$PSSN,HRP,184607.00,010125,,,,,,,00,0,,*6D
$PTNL,AVR,184607.00,,Yaw,,Tilt,,,,0,,00*3B
$GPGSA,A,3,10,16,18,23,26,,,,,,,,1.6,0.8,1.4*32
$GPGSA,A,3,66,73,80,81,82,83,,,,,,,1.6,0.8,1.4*3C
$GPGSA,A,3,13,21,27,,,,,,,,,,1.6,0.8,1.4*3C
$GPGSA,A,3,08,11,28,37,43,,,,,,,,1.6,0.8,1.4*39
$GPGST,184607.00,5.915,1.848,1.051,335.656,1.738,1.223,4.465*5F
$GPGBS,184607.00,5.627,4.587,19.328,81,0.0001,19.160,6.260*5F
$GPGRS,184607.00,1,-1.1,0.4,-0.7,1.1,-0.5,,,,,,,*47
$GPGRS,184607.00,1,-1.1,2.4,-4.1,19.2,-0.2,-4.8,,,,,,*75
$GPGRS,184607.00,1,0.8,-0.3,-0.5,,,,,,,,,*62
$GPGRS,184607.00,1,0.4,-0.1,-1.2,-0.1,-0.4,,,,,,,*6F
$GPGSV,5,1,17,16,64,274,49,10,21,172,43,29,17,098,29,26,56,205,41*71
$GPGSV,5,2,17,27,38,292,41,23,47,133,40,18,60,057,45,05,06,031,20*72
$GPGSV,5,3,17,15,09,078,,07,05,334,29,13,01,047,,08,06,288,27*7F
$GPGSV,5,4,17,31,06,217,,36,35,170,40,34,31,208,,49,34,195,36*72
$GPGSV,5,5,17,61,03,257,*4B
$GLGSV,3,1,10,82,63,022,47,67,15,111,30,74,13,335,,81,21,059,39*65
$GLGSV,3,2,10,66,24,058,36,73,47,300,41,80,45,209,40,83,55,280,36*68
$GLGSV,3,3,10,65,08,011,,79,03,176,*62
$GAGSV,3,1,09,13,82,227,48,23,30,311,,14,27,282,,26,27,232,33*6B
$GAGSV,3,2,09,27,35,161,43,15,41,053,33,21,70,247,40,03,02,075,*67
$GAGSV,3,3,09,05,04,029,*5B
$GBGSV,5,1,20,43,66,064,47,46,11,326,,21,20,050,22,14,18,131,31*67
$GBGSV,5,2,20,38,23,037,32,60,11,108,,58,24,315,,23,31,210,34*65
$GBGSV,5,3,20,05,22,129,,34,19,079,33,08,37,042,38,42,26,103,21*63
$GBGSV,5,4,20,50,26,075,,13,43,051,33,37,41,276,45,11,42,069,42*66
$GBGSV,5,5,20,28,45,270,46,27,02,263,,33,06,153,,02,07,106,*66
$GPGGA,184607.00,,,,,0,00,,,M,,M,,*44
$PTNL,GGK,184607.00,010125,4742.4463913,N,01617.9725960,E,1,19,1.6,EHT670.4685,M*4B
$GPGGQ,184607.00,010125,4742.4463913,N,01617.9725960,E,1,19,4.945,627.2575,M*36
$GPGFA,184607.00,17.566,36.612,1.848,1.051,335.656,4.465,,VVV*0F
$GPLLK,184607.00,010125,,M,,M,1,19,1.9,,M*07
$GNGMP,184607.00,,,,,DAAA,19,0.8,,,,*5A
$GPGMP,184607.00,,,,,,05,,,,1.4,123*71
$GLGMP,184607.00,,,,,,06,,,,,*75
$GAGMP,184607.00,,,,,,03,,,,,*7D
$GBGMP,184607.00,,,,,,05,,,,,*78
$PSSN,SNC,[0,326785000,2347]*49
$GPZDA,184612.00,01,01,2025,,*6B
$GPDTM,W84,,00.0000000,N,00.0000000,E,00.0000000,W84*5F
$GPRMC,184612.00,A,4742.4463866,N,01617.9725921,E,0.0,,010125,5.1,E,D*1F
$GPGLL,4742.4463866,N,01617.9725921,E,184612.00,A,D*6E
$GPGGA,184612.00,4742.4463866,N,01617.9725921,E,2,20,0.7,627.2599,M,43.2111,M,2.4,0123*40
$GNGNS,184612.00,4742.4463866,N,01617.9725921,E,DAAA,20,0.7,627.2599,43.2111,,*5A
$GPGNS,184612.00,,,,,,05,,,,2.4,123*76
$GLGNS,184612.00,,,,,,05,,,,,*72
$GAGNS,184612.00,,,,,,04,,,,,*7E
$GBGNS,184612.00,,,,,,06,,,,,*7F
$GPLLQ,184612.00,010125,,M,,M,1,20,3.972,,M*14
$GPVTG,,T,,M,0.01,N,0.01,K,D*26
$GPHDT,,T*1B
$GPTHS,,V*0E
$GPROT,,V*08
$PSSN,HRP,184612.00,010125,,,,,,,00,0,,*69
$PTNL,AVR,184612.00,,Yaw,,Tilt,,,,0,,00*3F
$GPGSA,A,3,10,16,18,23,26,,,,,,,,1.4,0.7,1.2*39
$GPGSA,A,3,66,73,80,81,82,,,,,,,,1.4,0.7,1.2*3C
$GPGSA,A,3,13,21,26,27,,,,,,,,,1.4,0.7,1.2*33
$GPGSA,A,3,08,11,23,28,37,43,,,,,,,1.4,0.7,1.2*33
$GPGST,184612.00,5.273,1.462,0.835,335.902,1.377,0.968,3.597*50
$GPGBS,184612.00,5.615,4.583,18.934,81,0.0001,17.635,6.259*5B
$GPGRS,184612.00,1,-0.3,0.6,-0.4,0.5,-0.7,,,,,,,*46
$GPGRS,184612.00,1,4.2,2.0,1.3,17.6,-1.3,,,,,,,*71
$GPGRS,184612.00,1,0.6,0.4,-0.5,-0.3,,,,,,,,*42
$GPGRS,184612.00,1,0.5,0.7,4.5,-1.5,0.8,0.1,,,,,,*65
$GPGSV,5,1,17,16,64,274,49,10,21,172,44,29,17,098,26,26,56,205,42*7A
$GPGSV,5,2,17,27,38,292,39,23,47,133,42,18,60,057,45,05,06,031,21*7E
$GPGSV,5,3,17,15,09,078,,07,05,334,33,13,01,047,,08,06,288,26*75
$GPGSV,5,4,17,31,06,217,19,36,35,170,40,34,31,208,,49,34,195,36*7A
$GPGSV,5,5,17,61,03,257,*4B
$GLGSV,3,1,10,82,63,022,46,67,15,111,28,74,13,335,,81,21,059,39*6D
$GLGSV,3,2,10,66,24,058,39,73,47,300,40,80,45,209,44,83,55,280,35*61
$GLGSV,3,3,10,65,08,011,,79,03,176,*62
$GAGSV,3,1,09,13,82,227,47,23,30,311,,14,27,282,,26,27,232,35*62
$GAGSV,3,2,09,27,35,161,42,15,41,053,34,21,70,246,40,03,02,075,*60
$GAGSV,3,3,09,05,04,029,*5B
$GBGSV,5,1,20,43,66,064,47,46,11,326,,21,20,050,34,14,18,131,30*61
$GBGSV,5,2,20,38,23,037,32,60,11,108,,58,24,315,,23,31,210,35*64
$GBGSV,5,3,20,05,22,129,,34,19,079,32,08,37,042,39,42,26,103,31*62
$GBGSV,5,4,20,50,26,075,,13,43,051,33,37,41,276,45,11,42,069,43*67
$GBGSV,5,5,20,28,45,270,47,27,02,263,,33,06,153,,02,07,106,*67
$GPGGA,184612.00,,,,,0,00,,,M,,M,,*40
$PTNL,GGK,184612.00,010125,4742.4463866,N,01617.9725921,E,1,20,1.4,EHT670.4709,M*44
$GPGGQ,184612.00,010125,4742.4463866,N,01617.9725921,E,1,20,3.972,627.2599,M*3F
$GPGFA,184612.00,13.900,29.497,1.462,0.835,335.902,3.597,,VVV*08
$GPLLK,184612.00,010125,,M,,M,1,20,1.7,,M*07
$GNGMP,184612.00,,,,,DAAA,20,0.7,,,,*5B
$GPGMP,184612.00,,,,,,05,,,,2.4,123*76
$GLGMP,184612.00,,,,,,05,,,,,*72
$GAGMP,184612.00,,,,,,04,,,,,*7E
$GBGMP,184612.00,,,,,,06,,,,,*7F
$PSSN,SNC,[0,326790000,2347]*4D
$GPZDA,184617.00,01,01,2025,,*6E
$GPDTM,W84,,00.0000000,N,00.0000000,E,00.0000000,W84*5F
$GPRMC,184617.00,A,4742.4463843,N,01617.9725872,E,0.0,,010125,5.1,E,D*1A
$GPGLL,4742.4463843,N,01617.9725872,E,184617.00,A,D*6B
$GPGGA,184617.00,4742.4463843,N,01617.9725872,E,2,20,0.7,627.2682,M,43.2111,M,2.6,0123*4E
$GNGNS,184617.00,4742.4463843,N,01617.9725872,E,DAAA,20,0.7,627.2682,43.2111,,*56
$GPGNS,184617.00,,,,,,05,,,,2.6,123*71
$GLGNS,184617.00,,,,,,05,,,,,*77
$GAGNS,184617.00,,,,,,04,,,,,*7B
$GBGNS,184617.00,,,,,,06,,,,,*7A
$GPLLQ,184617.00,010125,,M,,M,1,20,4.773,,M*19
$GPVTG,,T,,M,0.00,N,0.00,K,D*26
$GPHDT,,T*1B
$GPTHS,,V*0E
$GPROT,,V*08
$PSSN,HRP,184617.00,010125,,,,,,,00,0,,*6C
$PTNL,AVR,184617.00,,Yaw,,Tilt,,,,0,,00*3A
$GPGSA,A,3,10,16,18,23,26,,,,,,,,1.4,0.7,1.2*39
$GPGSA,A,3,66,73,80,81,82,,,,,,,,1.4,0.7,1.2*3C
$GPGSA,A,3,13,21,26,27,,,,,,,,,1.4,0.7,1.2*33
$GPGSA,A,3,08,11,23,28,37,43,,,,,,,1.4,0.7,1.2*33
$GPGST,184617.00,6.982,1.780,1.021,336.123,1.679,1.179,4.310*54
$GPGBS,184617.00,5.688,4.696,18.360,81,0.0001,22.836,6.262*55
$GPGRS,184617.00,1,0.5,0.1,0.4,0.1,-0.7,,,,,,,*46
$GPGRS,184617.00,1,-8.2,1.0,2.0,22.8,-2.4,,,,,,,*5A
$GPGRS,184617.00,1,0.3,0.7,3.5,-0.5,,,,,,,,*69
$GPGRS,184617.00,1,0.5,0.8,4.1,-1.7,0.5,0.2,,,,,,*67
$GPGSV,5,1,17,16,64,274,49,10,21,172,45,29,17,098,23,26,56,205,42*7E
$GPGSV,5,2,17,27,38,292,38,23,48,133,42,18,60,057,45,05,06,031,21*70
$GPGSV,5,3,17,15,09,078,,07,05,334,33,13,01,047,,08,06,288,24*77
$GPGSV,5,4,17,31,06,217,19,36,35,170,40,34,31,208,,49,34,195,36*7A
$GPGSV,5,5,17,61,03,257,*4B
$GLGSV,3,1,10,82,63,022,45,67,15,111,29,74,14,334,,81,21,059,39*69
$GLGSV,3,2,10,66,24,058,35,73,47,300,40,80,45,209,45,83,55,280,35*6C
$GLGSV,3,3,10,65,08,011,,79,03,176,*62
$GAGSV,3,1,09,13,82,227,47,23,30,311,,14,27,282,,26,27,232,37*60
$GAGSV,3,2,09,27,35,161,42,15,41,053,35,21,70,246,40,03,02,075,*61
$GAGSV,3,3,09,05,04,029,*5B
$GBGSV,5,1,20,43,66,064,47,46,11,326,,21,20,050,34,14,18,130,27*66
$GBGSV,5,2,20,38,23,037,32,60,11,108,,58,24,315,,23,31,210,36*67
$GBGSV,5,3,20,05,22,129,,34,19,079,32,08,37,042,39,42,26,103,29*6B
$GBGSV,5,4,20,50,26,075,,13,43,051,33,37,41,276,45,11,42,069,43*67
$GBGSV,5,5,20,28,45,270,47,27,02,263,,33,06,153,,02,07,106,*67
$GPGGA,184617.00,,,,,0,00,,,M,,M,,*45
$PTNL,GGK,184617.00,010125,4742.4463843,N,01617.9725872,E,1,20,1.4,EHT670.4792,M*43
$GPGGQ,184617.00,010125,4742.4463843,N,01617.9725872,E,1,20,4.773,627.2682,M*3B
$GPGFA,184617.00,16.921,35.340,1.780,1.021,336.123,4.310,,VVV*0E
$GPLLK,184617.00,010125,,M,,M,1,20,1.7,,M*02
$GNGMP,184617.00,,,,,DAAA,20,0.7,,,,*5E
$GPGMP,184617.00,,,,,,05,,,,2.6,123*71
$GLGMP,184617.00,,,,,,05,,,,,*77
$GAGMP,184617.00,,,,,,04,,,,,*7B
$GBGMP,184617.00,,,,,,06,,,,,*7A
$PSSN,SNC,[0,326795000,2347]*48
$GPZDA,184622.00,01,01,2025,,*68
$GPDTM,W84,,00.0000000,N,00.0000000,E,00.0000000,W84*5F
$GPRMC,184622.00,A,4742.4463811,N,01617.9725849,E,0.0,,010125,5.1,E,D*13
$GPGLL,4742.4463811,N,01617.9725849,E,184622.00,A,D*62
$GPGGA,184622.00,4742.4463811,N,01617.9725849,E,2,20,0.8,627.2785,M,43.2111,M,1.2,0123*49
$GNGNS,184622.00,4742.4463811,N,01617.9725849,E,DAAA,20,0.8,627.2785,43.2111,,*56
$GPGNS,184622.00,,,,,,05,,,,1.2,123*70
$GLGNS,184622.00,,,,,,03,,,,,*77
$GAGNS,184622.00,,,,,,05,,,,,*7C
$GBGNS,184622.00,,,,,,07,,,,,*7D
$GPLLQ,184622.00,010125,,M,,M,1,20,2.985,,M*1E
$GPVTG,,T,,M,0.00,N,0.00,K,D*26
$GPHDT,,T*1B
$GPTHS,,V*0E
$GPROT,,V*08
$PSSN,HRP,184622.00,010125,,,,,,,00,0,,*6A
$PTNL,AVR,184622.00,,Yaw,,Tilt,,,,0,,00*3C
$GPGSA,A,3,10,16,18,23,26,,,,,,,,1.5,0.8,1.3*36
$GPGSA,A,3,66,80,82,,,,,,,,,,1.5,0.8,1.3*3E
$GPGSA,A,3,13,15,21,26,27,,,,,,,,1.5,0.8,1.3*38
$GPGSA,A,3,08,11,23,28,37,42,43,,,,,,1.5,0.8,1.3*3A
$GPGST,184622.00,2.890,1.112,0.634,335.697,1.047,0.737,2.696*5A
$GPGBS,184622.00,5.524,4.560,18.891,18,0.0001,0.841,0.610*6E
$GPGRS,184622.00,1,0.7,-0.0,0.8,-0.7,-0.7,,,,,,,*49
$GPGRS,184622.00,1,-8.2,1.2,-1.9,,,,,,,,,*6A
$GPGRS,184622.00,1,0.4,-0.9,1.1,3.9,-0.1,,,,,,,*6D
$GPGRS,184622.00,1,0.9,0.2,3.6,-1.1,-0.2,-0.7,0.3,,,,,*4E
$GPGSV,5,1,17,16,64,273,49,10,21,172,46,29,17,098,23,26,56,205,42*7A
$GPGSV,5,2,17,27,38,292,36,23,48,133,41,18,60,057,44,05,06,031,*7F
$GPGSV,5,3,17,15,09,078,,07,05,334,27,13,01,047,,08,06,288,22*74
$GPGSV,5,4,17,31,06,217,21,36,35,170,40,34,31,208,,49,34,195,37*70
$GPGSV,5,5,17,61,03,257,*4B
$GLGSV,3,1,10,82,63,022,44,67,15,111,29,74,14,334,,81,21,059,39*68
$GLGSV,3,2,10,66,24,058,36,73,47,300,31,80,45,209,47,83,55,280,35*6B
$GLGSV,3,3,10,65,08,010,,79,03,176,*63
$GAGSV,3,1,09,13,82,227,47,23,30,311,,14,27,282,,26,27,232,38*6F
$GAGSV,3,2,09,27,35,161,41,15,41,053,35,21,70,246,41,03,02,075,*63
$GAGSV,3,3,09,05,04,029,*5B
$GBGSV,5,1,20,43,66,064,47,46,11,326,,21,20,050,33,14,18,130,30*67
$GBGSV,5,2,20,38,23,037,32,60,11,108,,58,24,315,,23,31,210,36*67
$GBGSV,5,3,20,05,22,129,,34,19,079,30,08,37,042,39,42,26,103,35*64
$GBGSV,5,4,20,50,26,075,,13,43,051,33,37,41,275,44,11,42,069,43*65
$GBGSV,5,5,20,28,45,270,47,27,02,263,,33,06,152,,02,07,106,*66
$GPGGA,184622.00,,,,,0,00,,,M,,M,,*43
$PTNL,GGK,184622.00,010125,4742.4463811,N,01617.9725849,E,1,20,1.5,EHT670.4896,M*40
$GPGGQ,184622.00,010125,4742.4463811,N,01617.9725849,E,1,20,2.985,627.2785,M*35
$GPGFA,184622.00,10.574,22.109,1.112,0.634,335.697,2.696,,VVV*03
$GPLLK,184622.00,010125,,M,,M,1,20,1.8,,M*0B
$GNGMP,184622.00,,,,,DAAA,20,0.8,,,,*57
$GPGMP,184622.00,,,,,,05,,,,1.2,123*70
$GLGMP,184622.00,,,,,,03,,,,,*77
$GAGMP,184622.00,,,,,,05,,,,,*7C
$GBGMP,184622.00,,,,,,07,,,,,*7D
$PSSN,SNC,[0,326800000,2347]*4B
$GPZDA,184627.00,01,01,2025,,*6D
$GPDTM,W84,,00.0000000,N,00.0000000,E,00.0000000,W84*5F
$GPRMC,184627.00,A,4742.4463703,N,01617.9725847,E,0.0,,010125,5.1,E,D*14
$GPGLL,4742.4463703,N,01617.9725847,E,184627.00,A,D*65
$GPGGA,184627.00,4742.4463703,N,01617.9725847,E,2,20,0.8,627.2850,M,43.2111,M,2.2,0123*4A
$GNGNS,184627.00,4742.4463703,N,01617.9725847,E,DAAA,20,0.8,627.2850,43.2111,,*56
$GPGNS,184627.00,,,,,,05,,,,2.2,123*76
$GLGNS,184627.00,,,,,,03,,,,,*72
$GAGNS,184627.00,,,,,,05,,,,,*79
$GBGNS,184627.00,,,,,,07,,,,,*78
$GPLLQ,184627.00,010125,,M,,M,1,20,5.037,,M*1C
$GPVTG,,T,,M,0.01,N,0.01,K,D*26
$GPHDT,,T*1B
$GPTHS,,V*0E
$GPROT,,V*08
$PSSN,HRP,184627.00,010125,,,,,,,00,0,,*6F
$PTNL,AVR,184627.00,,Yaw,,Tilt,,,,0,,00*39
$GPGSA,A,3,10,16,18,23,26,,,,,,,,1.6,0.8,1.5*33
$GPGSA,A,3,73,80,82,,,,,,,,,,1.6,0.8,1.5*3F
$GPGSA,A,3,13,15,21,26,27,,,,,,,,1.6,0.8,1.5*3D
$GPGSA,A,3,08,11,23,28,37,42,43,,,,,,1.6,0.8,1.5*3F
$GPGST,184627.00,5.682,1.845,1.046,336.700,1.744,1.206,4.568*56
$GPGBS,184627.00,5.824,4.592,19.575,73,0.0001,19.575,6.079*5D
$GPGRS,184627.00,1,0.2,0.5,1.0,-1.5,-0.7,,,,,,,*6B
$GPGRS,184627.00,1,19.6,0.8,-1.4,,,,,,,,,*70
$GPGRS,184627.00,1,0.9,-0.8,1.0,4.1,0.2,,,,,,,*44
$GPGRS,184627.00,1,0.4,-0.5,2.8,-0.8,-1.1,-0.4,0.3,,,,,*6A
$GPGSV,5,1,17,16,64,273,49,10,21,172,47,29,17,098,25,26,56,205,41*7E
$GPGSV,5,2,17,27,38,292,26,23,48,133,40,18,60,057,45,05,06,031,21*7D
$GPGSV,5,3,17,15,09,078,,07,05,334,32,13,01,047,,08,06,288,23*71
$GPGSV,5,4,17,31,06,217,22,36,35,170,39,34,31,208,,49,34,195,36*7C
$GPGSV,5,5,17,61,03,257,*4B
$GLGSV,3,1,10,82,63,022,46,67,15,111,27,74,14,334,,81,21,059,40*6A
$GLGSV,3,2,10,66,24,058,31,73,47,300,40,80,45,209,47,83,55,280,34*6B
$GLGSV,3,3,10,65,08,010,,79,03,176,*63
$GAGSV,3,1,09,13,82,227,47,23,30,311,,14,27,282,,26,27,232,39*6E
$GAGSV,3,2,09,27,35,161,41,15,41,053,36,21,70,246,41,03,02,075,*60
$GAGSV,3,3,09,05,04,029,*5B
$GBGSV,5,1,20,43,66,064,47,46,11,326,,21,20,050,32,14,18,130,29*6E
$GBGSV,5,2,20,38,23,037,32,60,11,108,,58,24,315,,23,31,210,36*67
$GBGSV,5,3,20,05,22,129,,34,19,079,30,08,37,042,39,42,26,103,36*67
$GBGSV,5,4,20,50,26,075,,13,43,051,33,37,41,275,44,11,42,069,43*65
$GBGSV,5,5,20,28,45,270,48,27,02,263,,33,06,152,,02,07,106,*69
$GPGGA,184627.00,,,,,0,00,,,M,,M,,*46
$PTNL,GGK,184627.00,010125,4742.4463703,N,01617.9725847,E,1,20,1.6,EHT670.4961,M*4D
$GPGGQ,184627.00,010125,4742.4463703,N,01617.9725847,E,1,20,5.037,627.2850,M*32
$GPGFA,184627.00,17.543,37.461,1.845,1.046,336.700,4.568,,VVV*0B
$GPLLK,184627.00,010125,,M,,M,1,20,2.0,,M*05
$GNGMP,184627.00,,,,,DAAA,20,0.8,,,,*52
$GPGMP,184627.00,,,,,,05,,,,2.2,123*76
$GLGMP,184627.00,,,,,,03,,,,,*72
$GAGMP,184627.00,,,,,,05,,,,,*79
$GBGMP,184627.00,,,,,,07,,,,,*78
$PSSN,SNC,[0,326805000,2347]*4E
$GPZDA,184632.00,01,01,2025,,*69
