$GPZDA,195942.00,01,01,2025,,*61
$GPDTM,W84,,00.0000000,N,00.0000000,E,00.0000000,W84*5F
$GPRMC,195942.00,A,4742.4466197,N,01617.9735107,E,0.0,,010125,5.1,E,D*1A
$GPGLL,4742.4466197,N,01617.9735107,E,195942.00,A,D*6B
$GPGGA,195942.00,4742.4466197,N,01617.9735107,E,2,21,0.7,625.8525,M,43.2111,M,2.8,0123*47
$GNGNS,195942.00,4742.4466197,N,01617.9735107,E,DAAA,21,0.7,625.8525,43.2111,,*51
$GPGNS,195942.00,,,,,,05,,,,2.8,123*70
$GLGNS,195942.00,,,,,,05,,,,,*78
$GAGNS,195942.00,,,,,,04,,,,,*74
$GBGNS,195942.00,,,,,,07,,,,,*74
$GPLLQ,195942.00,010125,,M,,M,1,21,2.902,,M*19
$GPVTG,,T,,M,0.00,N,0.01,K,D*27
$GPHDT,,T*1B
$GPTHS,,V*0E
$GPROT,,V*08
$PSSN,HRP,195942.00,010125,,,,,,,00,0,,*63
$PTNL,AVR,195942.00,,Yaw,,Tilt,,,,0,,00*35
$GPGSA,A,3,07,10,16,23,27,,,,,,,,1.3,0.7,1.1*32
$GPGSA,A,3,67,73,74,82,83,,,,,,,,1.3,0.7,1.1*30
$GPGSA,A,3,13,21,26,31,,,,,,,,,1.3,0.7,1.1*30
$GPGSA,A,3,14,27,28,33,37,42,43,,,,,,1.3,0.7,1.1*38
$GPGST,195942.00,5.336,1.171,1.095,280.952,1.098,1.168,2.419*59
$GPGBS,195942.00,3.503,4.847,10.520,16,0.0001,-2.017,0.693*42
$GPGRS,195942.00,1,1.1,0.9,-2.0,0.3,0.6,,,,,,,*41
$GPGRS,195942.00,1,4.3,1.4,-9.8,-1.8,-3.0,,,,,,,*46
$GPGRS,195942.00,1,-0.4,-0.9,-0.5,-0.3,,,,,,,,*47
$GPGRS,195942.00,1,-3.8,-3.4,-2.7,14.6,3.1,-0.3,-2.7,,,,,*71
$GPGSV,4,1,16,27,71,303,48,15,15,047,,26,24,189,21,21,11,258,25*7D
$GPGSV,4,2,16,08,35,301,33,18,29,065,34,16,50,209,44,10,55,162,45*7E
$GPGSV,4,3,16,23,57,076,46,13,03,019,,07,07,307,36,30,01,338,*7B
$GPGSV,4,4,16,36,35,170,41,34,31,208,,49,34,195,36,61,03,257,*77
$GLGSV,3,1,10,83,66,009,40,84,25,279,29,66,15,021,35,68,24,132,33*65
$GLGSV,3,2,10,82,35,066,45,74,36,304,35,73,37,246,37,67,38,075,50*66
$GLGSV,3,3,10,80,06,198,,75,04,347,38*67
$GAGSV,3,1,11,13,70,045,45,08,12,103,,03,14,053,,23,47,290,*6F
$GAGSV,3,2,11,21,48,204,44,15,18,063,30,14,52,289,,26,50,255,45*68
$GAGSV,3,3,11,27,08,166,20,31,08,326,36,33,03,248,*53
$GBGSV,6,1,21,28,70,302,46,38,13,038,23,60,11,108,,50,22,045,*69
$GBGSV,6,2,21,05,23,128,,08,27,037,24,46,23,302,,11,18,089,33*66
$GBGSV,6,3,21,37,26,243,35,33,34,138,41,13,35,043,33,27,25,281,42*6A
$GBGSV,6,4,21,58,31,284,,42,36,069,42,14,41,105,37,43,40,090,41*6E
$GBGSV,6,5,21,21,07,027,,23,04,198,,57,09,222,,02,08,105,*68
$GBGSV,6,6,21,41,03,177,*5F
$GPGGA,195942.00,,,,,0,00,,,M,,M,,*4A
$PTNL,GGK,195942.00,010125,4742.4466197,N,01617.9735107,E,1,21,1.3,EHT669.0636,M*46
$GPGGQ,195942.00,010125,4742.4466197,N,01617.9735107,E,1,21,2.902,625.8525,M*32
$GPGFA,195942.00,11.129,19.835,1.171,1.095,280.952,2.419,,VVV*0C
$GPLLK,195942.00,010125,,M,,M,1,21,1.5,,M*0E
$GNGMP,195942.00,,,,,DAAA,21,0.7,,,,*50
$GPGMP,195942.00,,,,,,05,,,,2.8,123*70
$GLGMP,195942.00,,,,,,05,,,,,*78
$GAGMP,195942.00,,,,,,04,,,,,*74
$GBGMP,195942.00,,,,,,07,,,,,*74
$PSSN,SNC,[0,331200000,2347]*47
$GPZDA,195947.00,01,01,2025,,*64
$GPDTM,W84,,00.0000000,N,00.0000000,E,00.0000000,W84*5F
$GPRMC,195947.00,A,4742.4466123,N,01617.9735059,E,0.0,,010125,5.1,E,D*1A
$GPGLL,4742.4466123,N,01617.9735059,E,195947.00,A,D*6B
$GPGGA,195947.00,4742.4466123,N,01617.9735059,E,2,20,0.7,625.8687,M,43.2111,M,1.3,0123*45
$GNGNS,195947.00,4742.4466123,N,01617.9735059,E,DAAA,20,0.7,625.8687,43.2111,,*5B
$GPGNS,195947.00,,,,,,04,,,,1.3,123*7C
$GLGNS,195947.00,,,,,,05,,,,,*7D
$GAGNS,195947.00,,,,,,04,,,,,*71
$GBGNS,195947.00,,,,,,07,,,,,*71
$GPLLQ,195947.00,010125,,M,,M,1,20,7.371,,M*16
$GPVTG,,T,,M,0.01,N,0.01,K,D*26
$GPHDT,,T*1B
$GPTHS,,V*0E
$GPROT,,V*08
$PSSN,HRP,195947.00,010125,,,,,,,00,0,,*66
$PTNL,AVR,195947.00,,Yaw,,Tilt,,,,0,,00*30
$GPGSA,A,3,10,16,23,27,,,,,,,,,1.3,0.7,1.1*35
$GPGSA,A,3,67,73,82,83,84,,,,,,,,1.3,0.7,1.1*3F
$GPGSA,A,3,13,21,26,31,,,,,,,,,1.3,0.7,1.1*30
$GPGSA,A,3,14,27,28,33,37,42,43,,,,,,1.3,0.7,1.1*38
$GPGST,195947.00,5.570,1.709,1.082,333.361,1.603,1.234,7.088*53
$GPGBS,195947.00,6.173,3.824,31.761,16,0.0001,-1.982,0.644*4B
$GPGRS,195947.00,1,1.1,-2.0,0.0,0.1,,,,,,,,*67
$GPGRS,195947.00,1,5.4,4.5,-3.6,-2.6,-9.5,,,,,,,*47
$GPGRS,195947.00,1,-0.2,-1.2,-0.8,-0.7,,,,,,,,*47
$GPGRS,195947.00,1,-2.6,-3.9,-2.7,13.6,0.3,-2.0,-4.2,,,,,*72
$GPGSV,4,1,16,27,71,303,48,15,15,047,29,26,23,189,33,21,11,258,*75
$GPGSV,4,2,16,08,35,301,33,18,29,065,34,16,50,209,45,10,56,162,47*7E
$GPGSV,4,3,16,23,57,076,46,13,03,019,,07,07,307,37,30,01,338,*7A
$GPGSV,4,4,16,36,35,170,41,34,31,208,,49,34,195,37,61,03,257,*76
$GLGSV,3,1,10,83,66,009,40,84,25,279,39,66,15,021,34,68,24,132,33*65
$GLGSV,3,2,10,82,35,066,45,74,36,304,33,73,37,246,38,67,38,075,51*6E
$GLGSV,3,3,10,80,06,198,,75,04,347,38*67
$GAGSV,3,1,11,13,70,045,45,08,12,102,,03,14,053,,23,47,290,*6E
$GAGSV,3,2,11,21,48,204,44,15,18,063,29,14,52,289,,26,51,255,44*60
$GAGSV,3,3,11,27,08,166,21,31,08,326,36,33,03,248,*52
$GBGSV,6,1,21,28,70,302,47,38,13,038,19,60,11,108,,50,22,045,*61
$GBGSV,6,2,21,05,23,128,,08,27,037,25,46,23,302,,11,18,089,34*60
$GBGSV,6,3,21,37,25,243,37,33,34,138,40,13,35,043,34,27,25,281,41*6E
$GBGSV,6,4,21,58,31,284,,42,36,069,42,43,40,090,41,14,41,105,38*61
$GBGSV,6,5,21,21,07,027,,23,04,198,,57,09,222,,02,08,105,*68
$GBGSV,6,6,21,41,03,177,*5F
$GPGGA,195947.00,,,,,0,00,,,M,,M,,*4F
$PTNL,GGK,195947.00,010125,4742.4466123,N,01617.9735059,E,1,20,1.3,EHT669.0798,M*42
$GPGGQ,195947.00,010125,4742.4466123,N,01617.9735059,E,1,20,7.371,625.8687,M*33
$GPGFA,195947.00,16.250,58.122,1.709,1.082,333.361,7.088,,VVV*0C
$GPLLK,195947.00,010125,,M,,M,1,20,1.6,,M*09
$GNGMP,195947.00,,,,,DAAA,20,0.7,,,,*54
$GPGMP,195947.00,,,,,,04,,,,1.3,123*7C
$GLGMP,195947.00,,,,,,05,,,,,*7D
$GAGMP,195947.00,,,,,,04,,,,,*71
$GBGMP,195947.00,,,,,,07,,,,,*71
$PSSN,SNC,[0,331205000,2347]*42
$GPZDA,195952.00,01,01,2025,,*60
$GPDTM,W84,,00.0000000,N,00.0000000,E,00.0000000,W84*5F
$GPRMC,195952.00,A,4742.4466102,N,01617.9734946,E,0.0,,010125,5.1,E,D*1B
$GPGLL,4742.4466102,N,01617.9734946,E,195952.00,A,D*6A
$GPGGA,195952.00,4742.4466102,N,01617.9734946,E,2,21,0.7,625.8626,M,43.2111,M,2.4,0123*4A
$GNGNS,195952.00,4742.4466102,N,01617.9734946,E,DAAA,21,0.7,625.8626,43.2111,,*50
$GPGNS,195952.00,,,,,,05,,,,2.4,123*7D
$GLGNS,195952.00,,,,,,05,,,,,*79
$GAGNS,195952.00,,,,,,04,,,,,*75
$GBGNS,195952.00,,,,,,07,,,,,*75
$GPLLQ,195952.00,010125,,M,,M,1,21,4.383,,M*1D
$GPVTG,,T,,M,0.01,N,0.01,K,D*26
$GPHDT,,T*1B
$GPTHS,,V*0E
$GPROT,,V*08
$PSSN,HRP,195952.00,010125,,,,,,,00,0,,*62
$PTNL,AVR,195952.00,,Yaw,,Tilt,,,,0,,00*34
$GPGSA,A,3,10,16,18,23,27,,,,,,,,1.3,0.7,1.1*3C
$GPGSA,A,3,66,67,73,82,83,,,,,,,,1.3,0.7,1.1*33
$GPGSA,A,3,13,21,26,31,,,,,,,,,1.3,0.7,1.1*30
$GPGSA,A,3,14,27,28,33,37,42,43,,,,,,1.3,0.7,1.1*38
$GPGST,195952.00,5.778,1.685,1.010,311.505,1.349,1.428,3.918*53
$GPGBS,195952.00,4.649,4.162,13.409,16,0.0001,-2.163,0.660*40
$GPGRS,195952.00,1,1.5,-2.2,0.5,0.1,0.1,,,,,,,*4F
$GPGRS,195952.00,1,14.1,6.3,6.3,-3.6,-3.6,,,,,,,*57
$GPGRS,195952.00,1,0.1,-0.4,-0.6,-0.7,,,,,,,,*64
$GPGRS,195952.00,1,-1.6,-3.5,-2.6,10.2,-0.1,-2.6,-4.7,,,,,*53
$GPGSV,4,1,16,27,71,303,49,15,14,047,22,26,23,189,22,21,11,258,*7E
$GPGSV,4,2,16,08,35,301,30,18,29,065,36,16,50,209,44,10,56,162,48*71
$GPGSV,4,3,16,23,57,076,47,13,03,018,,07,07,307,37,30,01,338,*7A
$GPGSV,4,4,16,36,35,170,40,34,31,208,,49,34,195,37,61,03,257,*77
$GLGSV,3,1,10,83,66,009,40,84,25,279,28,66,15,021,36,68,25,132,32*67
$GLGSV,3,2,10,82,35,066,47,74,36,304,34,73,37,246,38,67,38,075,51*6B
$GLGSV,3,3,10,80,06,198,,75,04,347,38*67
$GAGSV,3,1,11,13,70,045,45,08,12,102,,03,14,053,,23,47,290,*6E
$GAGSV,3,2,11,21,48,204,43,15,18,063,28,14,52,289,,26,51,256,44*65
$GAGSV,3,3,11,27,08,166,20,31,08,326,35,33,03,248,*50
$GBGSV,6,1,21,28,70,302,46,38,13,038,24,60,11,108,,50,22,045,*6E
$GBGSV,6,2,21,05,23,128,,08,27,037,25,46,23,302,,11,18,089,33*67
$GBGSV,6,3,21,37,25,243,39,33,34,138,39,13,35,043,34,27,25,281,39*61
$GBGSV,6,4,21,58,31,284,,42,36,069,41,43,40,090,42,14,41,105,40*6E
$GBGSV,6,5,21,21,07,027,,23,04,198,,57,09,222,,02,08,105,*68
$GBGSV,6,6,21,41,03,177,*5F
$GPGGA,195952.00,,,,,0,00,,,M,,M,,*4B
$PTNL,GGK,195952.00,010125,4742.4466102,N,01617.9734946,E,1,21,1.3,EHT669.0736,M*46
$GPGGQ,195952.00,010125,4742.4466102,N,01617.9734946,E,1,21,4.383,625.8626,M*36
$GPGFA,195952.00,16.021,32.125,1.685,1.010,311.505,3.918,,VVV*09
$GPLLK,195952.00,010125,,M,,M,1,21,1.5,,M*0F
$GNGMP,195952.00,,,,,DAAA,21,0.7,,,,*51
$GPGMP,195952.00,,,,,,05,,,,2.4,123*7D
$GLGMP,195952.00,,,,,,05,,,,,*79
$GAGMP,195952.00,,,,,,04,,,,,*75
$GBGMP,195952.00,,,,,,07,,,,,*75
$PSSN,SNC,[0,331210000,2347]*46
$GPZDA,195957.00,01,01,2025,,*65
$GPDTM,W84,,00.0000000,N,00.0000000,E,00.0000000,W84*5F
$GPRMC,195957.00,A,4742.4466051,N,01617.9734842,E,0.0,,010125,5.1,E,D*1C
$GPGLL,4742.4466051,N,01617.9734842,E,195957.00,A,D*6D
$GPGGA,195957.00,4742.4466051,N,01617.9734842,E,2,20,0.7,625.8715,M,43.2111,M,2.5,0123*4C
$GNGNS,195957.00,4742.4466051,N,01617.9734842,E,DAAA,20,0.7,625.8715,43.2111,,*57
$GPGNS,195957.00,,,,,,04,,,,2.5,123*78
$GLGNS,195957.00,,,,,,06,,,,,*7F
$GAGNS,195957.00,,,,,,03,,,,,*77
$GBGNS,195957.00,,,,,,07,,,,,*70
$GPLLQ,195957.00,010125,,M,,M,1,20,4.746,,M*14
$GPVTG,,T,,M,0.00,N,0.01,K,D*27
$GPHDT,,T*1B
$GPTHS,,V*0E
$GPROT,,V*08
$PSSN,HRP,195957.00,010125,,,,,,,00,0,,*67
$PTNL,AVR,195957.00,,Yaw,,Tilt,,,,0,,00*31
$GPGSA,A,3,10,18,23,27,,,,,,,,,1.4,0.7,1.2*3F
$GPGSA,A,3,66,67,73,74,82,83,,,,,,,1.4,0.7,1.2*34
$GPGSA,A,3,13,21,26,,,,,,,,,,1.4,0.7,1.2*36
$GPGSA,A,3,14,27,28,33,37,42,43,,,,,,1.4,0.7,1.2*3C
$GPGST,195957.00,6.725,1.588,1.271,273.183,1.273,1.587,4.288*50
$GPGBS,195957.00,6.842,7.191,17.982,66,0.0001,16.895,6.332*5C
$GPGRS,195957.00,1,0.2,1.0,-0.4,0.0,,,,,,,,*62
$GPGRS,195957.00,1,16.9,5.8,5.9,-9.5,-3.3,-5.1,,,,,,*52
$GPGRS,195957.00,1,-0.3,-0.5,-1.3,,,,,,,,,*4F
$GPGRS,195957.00,1,-1.3,-4.3,-3.3,6.6,-0.6,-2.9,-4.7,,,,,*6D
$GPGSV,4,1,16,27,71,303,49,15,14,047,,26,23,189,22,21,11,258,*7E
$GPGSV,4,2,16,08,35,301,27,18,29,065,37,16,50,209,43,10,56,162,48*71
$GPGSV,4,3,16,23,57,076,48,13,03,018,,07,07,307,36,30,01,338,*74
$GPGSV,4,4,16,36,35,170,40,34,31,208,,49,34,195,37,61,03,257,*77
$GLGSV,3,1,10,83,66,009,40,84,25,279,28,66,15,021,35,68,25,132,32*64
$GLGSV,3,2,10,82,35,066,48,74,36,304,36,73,37,246,37,67,38,075,50*68
$GLGSV,3,3,10,80,06,198,,75,04,347,38*67
$GAGSV,3,1,11,13,70,045,45,08,12,102,,03,14,053,,23,47,290,*6E
$GAGSV,3,2,11,21,48,204,42,15,18,063,27,14,52,289,,26,51,256,44*6B
$GAGSV,3,3,11,27,08,166,,31,08,326,33,33,03,248,*54
$GBGSV,6,1,21,28,70,302,45,38,13,038,24,60,11,108,,50,22,045,*6D
$GBGSV,6,2,21,05,23,128,,08,27,037,26,46,23,302,,11,18,089,33*64
$GBGSV,6,3,21,37,25,243,39,33,34,138,38,13,35,043,34,27,25,281,39*60
$GBGSV,6,4,21,58,31,284,,42,36,069,42,43,40,090,42,14,41,105,42*6F
$GBGSV,6,5,21,21,07,027,,23,04,198,,57,09,222,,02,08,105,*68
$GBGSV,6,6,21,41,03,177,*5F
$GPGGA,195957.00,,,,,0,00,,,M,,M,,*4E
$PTNL,GGK,195957.00,010125,4742.4466051,N,01617.9734842,E,1,20,1.4,EHT669.0826,M*49
$GPGGQ,195957.00,010125,4742.4466051,N,01617.9734842,E,1,20,4.746,625.8715,M*3C
$GPGFA,195957.00,15.098,35.165,1.588,1.271,273.183,4.288,,VVV*0F
$GPLLK,195957.00,010125,,M,,M,1,20,1.6,,M*08
$GNGMP,195957.00,,,,,DAAA,20,0.7,,,,*55
$GPGMP,195957.00,,,,,,04,,,,2.5,123*78
$GLGMP,195957.00,,,,,,06,,,,,*7F
$GAGMP,195957.00,,,,,,03,,,,,*77
$GBGMP,195957.00,,,,,,07,,,,,*70
$PSSN,SNC,[0,331215000,2347]*43
$GPZDA,200002.00,01,01,2025,,*63
$GPDTM,W84,,00.0000000,N,00.0000000,E,00.0000000,W84*5F
$GPRMC,200002.00,A,4742.4465955,N,01617.9734761,E,0.0,,010125,5.1,E,D*1A
$GPGLL,4742.4465955,N,01617.9734761,E,200002.00,A,D*6B
$GPGGA,200002.00,4742.4465955,N,01617.9734761,E,2,21,0.7,625.8725,M,43.2111,M,3.3,0123*4F
$GNGNS,200002.00,4742.4465955,N,01617.9734761,E,DAAA,21,0.7,625.8725,43.2111,,*53
$GPGNS,200002.00,,,,,,06,,,,3.3,123*7B
$GLGNS,200002.00,,,,,,05,,,,,*7A
$GAGNS,200002.00,,,,,,03,,,,,*71
$GBGNS,200002.00,,,,,,07,,,,,*76
$GPLLQ,200002.00,010125,,M,,M,1,21,2.967,,M*18
$GPVTG,,T,,M,0.00,N,0.01,K,D*27
$GPHDT,,T*1B
$GPTHS,,V*0E
$GPROT,,V*08
$PSSN,HRP,200002.00,010125,,,,,,,00,0,,*61
$PTNL,AVR,200002.00,,Yaw,,Tilt,,,,0,,00*37
$GPGSA,A,3,07,10,16,18,23,27,,,,,,,1.3,0.7,1.1*3B
$GPGSA,A,3,67,73,74,82,83,,,,,,,,1.3,0.7,1.1*30
$GPGSA,A,3,13,21,26,,,,,,,,,,1.3,0.7,1.1*32
$GPGSA,A,3,14,27,28,33,37,42,43,,,,,,1.3,0.7,1.1*38
$GPGST,200002.00,4.064,1.280,1.018,335.062,1.238,1.069,2.475*51
$GPGBS,200002.00,3.802,2.908,8.311,07,0.0001,3.773,1.174*5B
$GPGRS,200002.00,1,3.8,0.2,-2.2,1.0,0.0,0.3,,,,,,*68
$GPGRS,200002.00,1,4.8,4.6,-7.9,-3.0,-3.9,,,,,,,*44
$GPGRS,200002.00,1,0.3,-0.4,-1.3,,,,,,,,,*65
$GPGRS,200002.00,1,0.5,-3.7,-2.8,5.6,-0.6,-2.6,-4.3,,,,,*40
$GPGSV,4,1,16,27,71,303,48,15,14,047,,26,23,189,34,21,11,258,21*7B
$GPGSV,4,2,16,08,35,301,22,18,29,065,38,16,49,209,43,10,56,161,47*7F
$GPGSV,4,3,16,23,57,075,49,13,03,018,,07,07,307,36,30,01,338,*76
$GPGSV,4,4,16,36,35,170,40,34,31,208,,49,34,195,37,61,03,257,*77
$GLGSV,3,1,10,83,65,009,41,84,25,279,29,66,15,021,32,68,25,132,33*61
$GLGSV,3,2,10,82,35,066,48,74,36,304,37,73,37,245,35,67,38,075,49*60
$GLGSV,3,3,10,80,06,198,19,75,04,347,38*6F
$GAGSV,3,1,11,13,70,045,45,08,12,102,,03,14,053,,23,47,290,*6E
$GAGSV,3,2,11,21,48,204,41,15,18,063,27,14,52,289,,26,51,256,44*68
$GAGSV,3,3,11,27,08,166,,31,08,326,32,33,03,248,*55
$GBGSV,6,1,21,28,70,302,44,38,13,038,21,60,11,108,,50,22,045,*69
$GBGSV,6,2,21,05,23,128,,08,27,037,25,46,23,302,,11,18,089,29*6C
$GBGSV,6,3,21,37,25,243,38,33,34,138,36,13,35,043,34,27,25,281,41*60
$GBGSV,6,4,21,58,31,284,,42,36,069,42,43,40,090,43,14,41,105,44*68
$GBGSV,6,5,21,21,07,027,,23,04,198,,57,09,222,,02,08,105,*68
$GBGSV,6,6,21,41,03,177,*5F
$GPGGA,200002.00,,,,,0,00,,,M,,M,,*48
$PTNL,GGK,200002.00,010125,4742.4465955,N,01617.9734761,E,1,21,1.3,EHT669.0836,M*48
$GPGGQ,200002.00,010125,4742.4465955,N,01617.9734761,E,1,21,2.967,625.8725,M*33
$GPGFA,200002.00,12.172,20.297,1.280,1.018,335.062,2.475,,VVV*0C
$GPLLK,200002.00,010125,,M,,M,1,21,1.5,,M*0C
$GNGMP,200002.00,,,,,DAAA,21,0.7,,,,*52
$GPGMP,200002.00,,,,,,06,,,,3.3,123*7B
$GLGMP,200002.00,,,,,,05,,,,,*7A
$GAGMP,200002.00,,,,,,03,,,,,*71
$GBGMP,200002.00,,,,,,07,,,,,*76
$PSSN,SNC,[0,331220000,2347]*45
$GPZDA,200007.00,01,01,2025,,*66
$GPDTM,W84,,00.0000000,N,00.0000000,E,00.0000000,W84*5F
$GPRMC,200007.00,A,4742.4465832,N,01617.9734776,E,0.0,,010125,5.1,E,D*19
$GPGLL,4742.4465832,N,01617.9734776,E,200007.00,A,D*68
$GPGGA,200007.00,4742.4465832,N,01617.9734776,E,2,20,0.7,625.9058,M,43.2111,M,1.7,0123*47
$GNGNS,200007.00,4742.4465832,N,01617.9734776,E,DAAA,20,0.7,625.9058,43.2111,,*5D
$GPGNS,200007.00,,,,,,06,,,,1.7,123*78
$GLGNS,200007.00,,,,,,05,,,,,*7F
$GAGNS,200007.00,,,,,,03,,,,,*74
$GBGNS,200007.00,,,,,,06,,,,,*72
$GPLLQ,200007.00,010125,,M,,M,1,20,2.591,,M*19
$GPVTG,,T,,M,0.01,N,0.01,K,D*26
$GPHDT,,T*1B
$GPTHS,,V*0E
$GPROT,,V*08
$PSSN,HRP,200007.00,010125,,,,,,,00,0,,*64
$PTNL,AVR,200007.00,,Yaw,,Tilt,,,,0,,00*32
$GPGSA,A,3,07,10,16,18,23,27,,,,,,,1.3,0.7,1.1*3B
$GPGSA,A,3,67,68,74,82,83,,,,,,,,1.3,0.7,1.1*3A
$GPGSA,A,3,13,21,26,,,,,,,,,,1.3,0.7,1.1*32
$GPGSA,A,3,14,27,28,37,42,43,,,,,,,1.3,0.7,1.1*38
$GPGST,200007.00,5.937,1.154,0.891,339.450,1.125,0.927,2.142*5D
$GPGBS,200007.00,3.523,2.695,7.633,68,0.0001,17.783,6.200*65
$GPGRS,200007.00,1,3.4,0.1,-0.8,-0.3,-0.2,0.0,,,,,,*69
$GPGRS,200007.00,1,4.0,17.8,-7.1,-3.1,-2.9,,,,,,,*7D
$GPGRS,200007.00,1,0.5,-0.8,-0.8,,,,,,,,,*60
$GPGRS,200007.00,1,1.6,-3.6,-2.1,-1.6,-1.7,-4.4,,,,,,*66
$GPGSV,4,1,16,27,72,303,48,15,14,047,,26,23,189,20,21,11,258,22*7E
$GPGSV,4,2,16,08,35,301,25,18,29,065,38,16,49,209,42,10,56,161,48*76
$GPGSV,4,3,16,23,57,075,48,13,03,018,,07,07,307,36,30,01,338,*77
$GPGSV,4,4,16,36,35,170,40,34,31,208,,49,34,195,37,61,03,257,*77
$GLGSV,3,1,10,83,65,009,41,84,25,279,27,66,15,021,20,68,25,132,36*69
$GLGSV,3,2,10,82,35,066,48,74,36,304,39,73,37,245,27,67,38,075,49*6D
$GLGSV,3,3,10,80,06,198,22,75,04,347,37*68
$GAGSV,3,1,11,13,70,045,45,08,12,102,,03,14,053,,23,47,290,*6E
$GAGSV,3,2,11,21,48,204,38,15,18,063,26,14,52,289,,26,51,256,44*67
$GAGSV,3,3,11,27,08,166,,31,08,326,30,33,04,248,*50
$GBGSV,6,1,21,28,70,302,45,38,13,038,20,60,11,108,,50,22,045,*69
$GBGSV,6,2,21,05,23,128,,08,27,037,25,46,23,302,,11,18,089,24*61
$GBGSV,6,3,21,37,25,243,38,33,34,138,35,13,35,043,34,27,25,281,41*63
$GBGSV,6,4,21,58,31,284,,42,36,069,43,43,40,090,42,14,41,105,45*69
$GBGSV,6,5,21,21,07,027,,23,03,198,,57,09,222,,02,08,105,*6F
$GBGSV,6,6,21,41,03,177,*5F
$GPGGA,200007.00,,,,,0,00,,,M,,M,,*4D
$PTNL,GGK,200007.00,010125,4742.4465832,N,01617.9734776,E,1,20,1.3,EHT669.1168,M*49
$GPGGQ,200007.00,010125,4742.4465832,N,01617.9734776,E,1,20,2.591,625.9058,M*38
$GPGFA,200007.00,10.972,17.563,1.154,0.891,339.450,2.142,,VVV*01
$GPLLK,200007.00,010125,,M,,M,1,20,1.5,,M*08
$GNGMP,200007.00,,,,,DAAA,20,0.7,,,,*56
$GPGMP,200007.00,,,,,,06,,,,1.7,123*78
$GLGMP,200007.00,,,,,,05,,,,,*7F
$GAGMP,200007.00,,,,,,03,,,,,*74
$GBGMP,200007.00,,,,,,06,,,,,*72
$PSSN,SNC,[0,331225000,2347]*40
$GPZDA,200012.00,01,01,2025,,*62
$GPDTM,W84,,00.0000000,N,00.0000000,E,00.0000000,W84*5F
$GPRMC,200012.00,A,4742.4465816,N,01617.9734952,E,0.0,,010125,5.1,E,D*13
$GPGLL,4742.4465816,N,01617.9734952,E,200012.00,A,D*62
$GPGGA,200012.00,4742.4465816,N,01617.9734952,E,2,21,0.7,625.9377,M,43.2111,M,2.7,0123*41
$GNGNS,200012.00,4742.4465816,N,01617.9734952,E,DAAA,21,0.7,625.9377,43.2111,,*58
$GPGNS,200012.00,,,,,,06,,,,2.7,123*7F
$GLGNS,200012.00,,,,,,06,,,,,*78
$GAGNS,200012.00,,,,,,03,,,,,*70
$GBGNS,200012.00,,,,,,06,,,,,*76
$GPLLQ,200012.00,010125,,M,,M,1,21,2.997,,M*16
$GPVTG,,T,,M,0.01,N,0.01,K,D*26
$GPHDT,,T*1B
$GPTHS,,V*0E
$GPROT,,V*08
$PSSN,HRP,200012.00,010125,,,,,,,00,0,,*60
$PTNL,AVR,200012.00,,Yaw,,Tilt,,,,0,,00*36
$GPGSA,A,3,07,10,16,18,23,27,,,,,,,1.3,0.7,1.1*3B
$GPGSA,A,3,67,68,73,74,82,83,,,,,,,1.3,0.7,1.1*3E
$GPGSA,A,3,13,21,26,,,,,,,,,,1.3,0.7,1.1*32
$GPGSA,A,3,14,27,28,37,42,43,,,,,,,1.3,0.7,1.1*38
$GPGST,200012.00,6.709,1.345,1.015,338.850,1.307,1.064,2.478*52
$GPGBS,200012.00,3.591,2.727,7.767,68,0.0001,21.182,6.198*60
$GPGRS,200012.00,1,3.6,0.6,-0.2,-1.7,-0.8,-0.0,,,,,,*40
$GPGRS,200012.00,1,4.8,21.2,5.1,-6.7,-3.5,-4.0,,,,,,*58
$GPGRS,200012.00,1,0.3,1.5,-0.5,,,,,,,,,*4E
$GPGRS,200012.00,1,1.5,-3.6,-2.0,0.4,-1.2,-4.4,,,,,,*4B
$GPGSV,4,1,16,27,72,303,48,15,14,047,,26,23,189,19,21,11,258,23*75
$GPGSV,4,2,16,08,35,301,36,18,29,065,38,16,49,209,42,10,56,161,49*75
$GPGSV,4,3,16,23,57,075,48,13,03,018,,07,07,307,37,30,01,338,*76
$GPGSV,4,4,16,36,35,170,41,34,31,208,,49,34,195,37,61,03,257,*76
$GLGSV,3,1,10,83,65,009,42,84,25,279,24,66,15,021,28,68,25,132,37*60
$GLGSV,3,2,10,82,35,067,48,74,36,304,42,73,37,245,41,67,38,074,50*69
$GLGSV,3,3,10,80,06,198,22,75,05,347,37*69
$GAGSV,3,1,11,13,70,045,45,08,12,102,,03,14,053,,23,47,290,*6E
$GAGSV,3,2,11,21,48,204,36,15,18,063,32,14,52,289,,26,51,256,44*6C
$GAGSV,3,3,11,27,08,166,,31,08,326,28,33,04,248,*59
$GBGSV,6,1,21,28,70,302,46,38,13,038,19,60,11,108,,50,22,045,*60
$GBGSV,6,2,21,05,23,128,,08,27,037,27,46,23,302,,11,18,089,31*67
$GBGSV,6,3,21,37,25,243,40,33,34,138,33,13,35,043,34,27,25,281,42*69
$GBGSV,6,4,21,58,31,284,,42,36,069,44,43,40,090,41,14,41,105,46*6E
$GBGSV,6,5,21,21,07,027,,23,03,198,,57,09,222,,02,08,105,*6F
$GBGSV,6,6,21,41,03,177,*5F
$GPGGA,200012.00,,,,,0,00,,,M,,M,,*49
$PTNL,GGK,200012.00,010125,4742.4465816,N,01617.9734952,E,1,21,1.3,EHT669.1487,M*46
$GPGGQ,200012.00,010125,4742.4465816,N,01617.9734952,E,1,21,2.997,625.9377,M*37
$GPGFA,200012.00,12.785,20.323,1.345,1.015,338.850,2.478,,VVV*01
$GPLLK,200012.00,010125,,M,,M,1,21,1.5,,M*0D
$GNGMP,200012.00,,,,,DAAA,21,0.7,,,,*53
$GPGMP,200012.00,,,,,,06,,,,2.7,123*7F
$GLGMP,200012.00,,,,,,06,,,,,*78
$GAGMP,200012.00,,,,,,03,,,,,*70
$GBGMP,200012.00,,,,,,06,,,,,*76
$PSSN,SNC,[0,331230000,2347]*44
$GPZDA,200017.00,01,01,2025,,*67
$GPDTM,W84,,00.0000000,N,00.0000000,E,00.0000000,W84*5F
$GPRMC,200017.00,A,4742.4465874,N,01617.9735139,E,0.0,,010125,5.1,E,D*16
$GPGLL,4742.4465874,N,01617.9735139,E,200017.00,A,D*67
$GPGGA,200017.00,4742.4465874,N,01617.9735139,E,2,19,0.8,625.9504,M,43.2111,M,2.6,0123*43
$GNGNS,200017.00,4742.4465874,N,01617.9735139,E,DAAA,19,0.8,625.9504,43.2111,,*5B
$GPGNS,200017.00,,,,,,05,,,,2.6,123*78
$GLGNS,200017.00,,,,,,05,,,,,*7E
$GAGNS,200017.00,,,,,,03,,,,,*75
$GBGNS,200017.00,,,,,,06,,,,,*73
$GPLLQ,200017.00,010125,,M,,M,1,19,5.097,,M*16
$GPVTG,,T,,M,0.00,N,0.01,K,D*27
$GPHDT,,T*1B
$GPTHS,,V*0E
$GPROT,,V*08
$PSSN,HRP,200017.00,010125,,,,,,,00,0,,*65
$PTNL,AVR,200017.00,,Yaw,,Tilt,,,,0,,00*33
$GPGSA,A,3,10,16,18,23,27,,,,,,,,1.5,0.8,1.3*37
$GPGSA,A,3,67,68,74,82,83,,,,,,,,1.5,0.8,1.3*31
$GPGSA,A,3,13,21,26,,,,,,,,,,1.5,0.8,1.3*39
$GPGSA,A,3,14,27,28,37,42,43,,,,,,,1.5,0.8,1.3*33
$GPGST,200017.00,7.675,1.927,1.138,310.109,1.516,1.646,4.579*55
$GPGBS,200017.00,4.889,4.305,15.154,68,0.0001,23.412,6.202*5F
$GPGRS,200017.00,1,1.0,0.2,-1.5,-1.2,0.7,,,,,,,*67
$GPGRS,200017.00,1,5.8,23.4,-5.7,-3.2,-3.5,,,,,,,*74
$GPGRS,200017.00,1,0.3,-2.4,-0.4,,,,,,,,,*65
$GPGRS,200017.00,1,0.8,-3.5,-1.6,5.8,-0.9,-3.1,,,,,,*45
$GPGSV,4,1,16,27,72,303,48,15,14,047,,26,23,189,31,21,11,258,26*7A
$GPGSV,4,2,16,08,35,301,36,18,29,065,38,16,49,209,44,10,56,161,49*73
$GPGSV,4,3,16,23,57,075,47,13,03,018,,07,07,307,37,30,01,338,*79
$GPGSV,4,4,16,36,35,170,40,34,31,208,,49,34,195,36,61,03,257,*76
$GLGSV,3,1,10,83,65,009,41,84,25,279,24,66,15,021,,68,25,132,36*68
$GLGSV,3,2,10,82,35,067,48,74,36,304,42,73,37,245,34,67,38,074,51*6A
$GLGSV,3,3,10,80,06,198,,75,05,347,37*69
$GAGSV,3,1,11,13,70,045,46,08,12,102,,03,14,053,,23,47,290,*6D
$GAGSV,3,2,11,21,48,204,44,15,18,063,32,14,52,289,,26,51,256,45*68
$GAGSV,3,3,11,27,08,166,,31,08,326,25,33,04,248,*54
$GBGSV,6,1,21,28,70,302,47,38,13,038,23,60,11,108,,50,22,045,*68
$GBGSV,6,2,21,05,23,128,,08,27,037,27,46,23,302,,11,18,090,27*68
$GBGSV,6,3,21,37,25,243,40,33,34,138,33,13,35,043,34,27,25,281,42*69
$GBGSV,6,4,21,58,31,284,,42,36,069,45,43,40,090,41,14,41,105,46*6F
$GBGSV,6,5,21,21,07,027,,23,03,198,,57,09,222,,02,08,105,*6F
$GBGSV,6,6,21,41,03,177,*5F
$GPGGA,200017.00,,,,,0,00,,,M,,M,,*4C
$PTNL,GGK,200017.00,010125,4742.4465874,N,01617.9735139,E,1,19,1.5,EHT669.1614,M*46
$GPGGQ,200017.00,010125,4742.4465874,N,01617.9735139,E,1,19,5.097,625.9504,M*35
$GPGFA,200017.00,18.322,37.548,1.927,1.138,310.109,4.579,,VVV*03
$GPLLK,200017.00,010125,,M,,M,1,19,1.8,,M*0E
$GNGMP,200017.00,,,,,DAAA,19,0.8,,,,*52
$GPGMP,200017.00,,,,,,05,,,,2.6,123*78
$GLGMP,200017.00,,,,,,05,,,,,*7E
$GAGMP,200017.00,,,,,,03,,,,,*75
$GBGMP,200017.00,,,,,,06,,,,,*73
$PSSN,SNC,[0,331235000,2347]*41
$GPZDA,200022.00,01,01,2025,,*61
$GPDTM,W84,,00.0000000,N,00.0000000,E,00.0000000,W84*5F
$GPRMC,200022.00,A,4742.4465963,N,01617.9735252,E,0.0,,010125,5.1,E,D*19
$GPGLL,4742.4465963,N,01617.9735252,E,200022.00,A,D*68
$GPGGA,200022.00,4742.4465963,N,01617.9735252,E,2,19,0.9,625.9409,M,43.2111,M,3.6,0123*40
$GNGNS,200022.00,4742.4465963,N,01617.9735252,E,DAAA,19,0.9,625.9409,43.2111,,*59
$GPGNS,200022.00,,,,,,05,,,,3.6,123*7F
$GLGNS,200022.00,,,,,,06,,,,,*7B
$GAGNS,200022.00,,,,,,02,,,,,*72
$GBGNS,200022.00,,,,,,06,,,,,*75
$GPLLQ,200022.00,010125,,M,,M,1,19,3.281,,M*13
$GPVTG,,T,,M,0.01,N,0.01,K,D*26
$GPHDT,,T*1B
$GPTHS,,V*0E
$GPROT,,V*08
$PSSN,HRP,200022.00,010125,,,,,,,00,0,,*63
$PTNL,AVR,200022.00,,Yaw,,Tilt,,,,0,,00*35
$GPGSA,A,3,10,16,18,23,27,,,,,,,,1.6,0.9,1.3*35
$GPGSA,A,3,67,73,74,82,83,84,,,,,,,1.6,0.9,1.3*35
$GPGSA,A,3,13,26,,,,,,,,,,,1.6,0.9,1.3*38
$GPGSA,A,3,14,27,28,37,42,43,,,,,,,1.6,0.9,1.3*31
$GPGST,200022.00,4.938,1.241,0.739,311.169,0.988,1.053,2.946*52
$GPGBS,200022.00,5.058,4.074,15.087,23,0.0001,-1.026,0.671*41
$GPGRS,200022.00,1,0.7,-0.2,-0.5,-1.0,0.4,,,,,,,*4A
$GPGRS,200022.00,1,7.7,3.5,-5.6,-2.8,-4.1,-7.0,,,,,,*41
$GPGRS,200022.00,1,0.7,-0.4,,,,,,,,,,*62
$GPGRS,200022.00,1,-0.3,-3.9,-1.1,9.5,-1.2,-2.0,,,,,,*65
$GPGSV,4,1,16,27,72,303,48,15,14,047,,26,23,189,24,21,11,258,*7A
$GPGSV,4,2,16,08,35,301,36,18,29,066,38,16,49,209,44,10,56,161,49*70
$GPGSV,4,3,16,23,57,075,46,13,03,018,,07,07,307,36,30,01,338,*79
$GPGSV,4,4,16,36,35,170,40,34,31,208,,49,34,195,36,61,03,257,*76
$GLGSV,3,1,10,83,65,010,41,84,25,279,25,66,15,021,,68,25,132,35*62
$GLGSV,3,2,10,82,35,067,49,74,36,304,42,73,37,245,36,67,38,074,51*69
$GLGSV,3,3,10,80,06,198,25,75,05,347,36*6F
$GAGSV,3,1,11,13,70,045,46,08,12,102,,03,14,053,,23,47,290,*6D
$GAGSV,3,2,11,21,48,204,35,15,18,063,31,14,52,289,,26,51,256,45*6D
$GAGSV,3,3,11,27,08,166,,31,08,326,26,33,04,248,*57
$GBGSV,6,1,21,28,70,302,48,38,13,038,25,60,11,108,,50,22,045,*61
$GBGSV,6,2,21,05,23,128,,08,27,037,26,46,23,302,,11,18,090,24*6A
$GBGSV,6,3,21,37,25,243,41,33,34,138,32,13,35,043,34,27,25,281,41*6A
$GBGSV,6,4,21,58,31,284,,42,36,069,45,43,40,090,41,14,41,105,45*6C
$GBGSV,6,5,21,21,07,027,,23,03,198,,57,09,222,,02,08,105,*6F
$GBGSV,6,6,21,41,03,177,*5F
$GPGGA,200022.00,,,,,0,00,,,M,,M,,*4A
$PTNL,GGK,200022.00,010125,4742.4465963,N,01617.9735252,E,1,19,1.6,EHT669.1519,M*44
$GPGGQ,200022.00,010125,4742.4465963,N,01617.9735252,E,1,19,3.281,625.9409,M*35
$GPGFA,200022.00,11.795,24.160,1.241,0.739,311.169,2.946,,VVV*04
$GPLLK,200022.00,010125,,M,,M,1,19,1.8,,M*08
$GNGMP,200022.00,,,,,DAAA,19,0.9,,,,*55
$GPGMP,200022.00,,,,,,05,,,,3.6,123*7F
$GLGMP,200022.00,,,,,,06,,,,,*7B
$GAGMP,200022.00,,,,,,02,,,,,*72
$GBGMP,200022.00,,,,,,06,,,,,*75
$PSSN,SNC,[0,331240000,2347]*43
$GPZDA,200027.00,01,01,2025,,*64
$GPDTM,W84,,00.0000000,N,00.0000000,E,00.0000000,W84*5F
$GPRMC,200027.00,A,4742.4466010,N,01617.9735325,E,0.0,,010125,5.1,E,D*13
$GPGLL,4742.4466010,N,01617.9735325,E,200027.00,A,D*62
$GPGGA,200027.00,4742.4466010,N,01617.9735325,E,2,19,0.8,625.9372,M,43.2111,M,1.4,0123*40
$GNGNS,200027.00,4742.4466010,N,01617.9735325,E,DAAA,19,0.8,625.9372,43.2111,,*59
$GPGNS,200027.00,,,,,,05,,,,1.4,123*7A
$GLGNS,200027.00,,,,,,06,,,,,*7E
$GAGNS,200027.00,,,,,,02,,,,,*77
$GBGNS,200027.00,,,,,,06,,,,,*70
$GPLLQ,200027.00,010125,,M,,M,1,19,4.183,,M*10
$GPVTG,,T,,M,0.00,N,0.01,K,D*27
$GPHDT,,T*1B
$GPTHS,,V*0E
$GPROT,,V*08
$PSSN,HRP,200027.00,010125,,,,,,,00,0,,*66
$PTNL,AVR,200027.00,,Yaw,,Tilt,,,,0,,00*30
$GPGSA,A,3,10,16,18,23,27,,,,,,,,1.5,0.8,1.3*37
$GPGSA,A,3,67,68,73,74,82,83,,,,,,,1.5,0.8,1.3*35
$GPGSA,A,3,13,26,,,,,,,,,,,1.5,0.8,1.3*3A
$GPGSA,A,3,14,27,28,37,42,43,,,,,,,1.5,0.8,1.3*33
$GPGST,200027.00,6.880,1.583,0.935,310.702,1.252,1.346,3.757*53
$GPGBS,200027.00,4.858,4.253,14.973,73,0.0001,16.034,6.111*53
$GPGRS,200027.00,1,0.8,-0.5,-0.1,-1.0,0.5,,,,,,,*42
$GPGRS,200027.00,1,10.1,3.9,16.0,-6.8,-2.6,-4.7,,,,,,*60
$GPGRS,200027.00,1,1.0,-0.2,,,,,,,,,,*67
$GPGRS,200027.00,1,-1.2,-4.0,-0.7,9.8,-1.1,-0.4,,,,,,*61
$GPGSV,4,1,16,27,72,303,47,15,14,047,,26,23,189,27,21,11,258,27*73
$GPGSV,4,2,16,08,35,301,35,18,29,066,37,16,49,209,44,10,56,161,50*74
$GPGSV,4,3,16,23,57,075,44,13,03,018,,07,07,307,35,30,01,338,*78
$GPGSV,4,4,16,36,35,170,41,34,31,208,,49,34,195,36,61,03,257,*77
$GLGSV,3,1,10,83,65,010,41,84,25,279,28,66,15,021,34,68,25,132,40*6A
$GLGSV,3,2,10,82,34,067,49,74,36,304,41,73,37,245,37,67,38,074,51*6A
$GLGSV,3,3,10,80,06,198,25,75,05,347,34*6D
$GAGSV,3,1,11,13,70,045,46,08,12,102,,03,14,053,,23,48,290,*62
$GAGSV,3,2,11,21,48,204,31,15,18,063,30,14,52,289,,26,51,256,45*68
$GAGSV,3,3,11,27,08,166,,31,08,326,28,33,04,248,*59
$GBGSV,6,1,21,28,70,302,49,38,13,038,25,60,11,108,,50,22,045,*60
$GBGSV,6,2,21,05,23,128,,08,27,037,25,46,23,302,,11,18,090,32*6E
$GBGSV,6,3,21,37,25,243,40,33,34,138,33,13,35,043,34,27,25,281,41*6A
$GBGSV,6,4,21,58,31,284,,42,36,069,46,43,40,090,42,14,41,105,45*6C
$GBGSV,6,5,21,21,07,027,,23,03,198,,57,09,222,,02,08,105,*6F
$GBGSV,6,6,21,41,03,177,*5F
$GPGGA,200027.00,,,,,0,00,,,M,,M,,*4F
$PTNL,GGK,200027.00,010125,4742.4466010,N,01617.9735325,E,1,19,1.5,EHT669.1483,M*4F
$GPGGQ,200027.00,010125,4742.4466010,N,01617.9735325,E,1,19,4.183,625.9372,M*32
$GPGFA,200027.00,15.054,30.810,1.583,0.935,310.702,3.757,,VVV*0A
$GPLLK,200027.00,010125,,M,,M,1,19,1.8,,M*0D
$GNGMP,200027.00,,,,,DAAA,19,0.8,,,,*51
$GPGMP,200027.00,,,,,,05,,,,1.4,123*7A
$GLGMP,200027.00,,,,,,06,,,,,*7E
$GAGMP,200027.00,,,,,,02,,,,,*77
$GBGMP,200027.00,,,,,,06,,,,,*70
$PSSN,SNC,[0,331245000,2347]*46
$GPZDA,200032.00,01,01,2025,,*60
$GPDTM,W84,,00.0000000,N,00.0000000,E,00.0000000,W84*5F
$GPRMC,200032.00,A,4742.4466018,N,01617.9735401,E,0.0,,010125,5.1,E,D*1E
$GPGLL,4742.4466018,N,01617.9735401,E,200032.00,A,D*6F
$GPGGA,200032.00,4742.4466018,N,01617.9735401,E,2,20,0.7,625.9456,M,43.2111,M,2.8,0123*46
$GNGNS,200032.00,4742.4466018,N,01617.9735401,E,DAAA,20,0.7,625.9456,43.2111,,*50
$GPGNS,200032.00,,,,,,05,,,,2.8,123*71
$GLGNS,200032.00,,,,,,06,,,,,*7A
$GAGNS,200032.00,,,,,,02,,,,,*73
$GBGNS,200032.00,,,,,,07,,,,,*75
$GPLLQ,200032.00,010125,,M,,M,1,20,3.225,,M*16
$GPVTG,,T,,M,0.00,N,0.01,K,D*27
$GPHDT,,T*1B
$GPTHS,,V*0E
$GPROT,,V*08
$PSSN,HRP,200032.00,010125,,,,,,,00,0,,*62
$PTNL,AVR,200032.00,,Yaw,,Tilt,,,,0,,00*34
$GPGSA,A,3,07,10,16,23,27,,,,,,,,1.3,0.7,1.1*32
$GPGSA,A,3,67,68,73,74,82,83,,,,,,,1.3,0.7,1.1*3E
$GPGSA,A,3,13,26,,,,,,,,,,,1.3,0.7,1.1*31
$GPGSA,A,3,13,14,27,28,37,42,43,,,,,,1.3,0.7,1.1*3A
$GPGST,200032.00,6.775,1.371,1.164,327.627,1.315,1.227,2.677*50
$GPGBS,200032.00,3.687,4.732,10.066,73,0.0001,17.657,6.118*5C
$GPGRS,200032.00,1,2.5,1.0,-1.3,-0.7,0.4,,,,,,,*64
$GPGRS,200032.00,1,10.7,-2.6,17.7,-9.0,-3.2,-4.8,,,,,,*4A
$GPGRS,200032.00,1,0.5,-0.2,,,,,,,,,,*67
$GPGRS,200032.00,1,-1.3,-1.5,-3.6,-1.5,4.2,-1.8,0.5,,,,,*43
$GPGSV,4,1,16,27,72,303,47,15,14,047,,26,23,189,29,21,11,258,26*7C
$GPGSV,4,2,16,08,35,301,27,18,29,066,35,16,49,209,44,10,56,161,50*75
$GPGSV,4,3,16,23,57,075,42,13,03,018,,07,07,307,36,30,01,338,*7D
$GPGSV,4,4,16,36,35,170,40,34,31,208,,49,34,195,36,61,03,257,*76
$GLGSV,3,1,10,83,65,010,39,84,25,279,30,66,15,021,35,68,25,132,36*6C
$GLGSV,3,2,10,82,34,067,48,74,36,304,40,73,37,245,35,67,38,074,51*68
$GLGSV,3,3,10,80,06,198,24,75,05,347,34*6C
$GAGSV,3,1,11,13,70,046,46,08,12,102,,03,14,053,,23,48,290,*61
$GAGSV,3,2,11,21,48,204,45,15,18,063,32,14,53,289,,26,51,256,45*68
$GAGSV,3,3,11,27,08,166,,31,08,326,30,33,04,248,*50
$GBGSV,6,1,21,28,71,303,49,38,13,038,26,60,11,108,,50,22,044,*62
$GBGSV,6,2,21,05,23,128,,08,27,037,25,46,23,302,,11,18,090,31*6D
$GBGSV,6,3,21,37,25,243,40,33,34,138,34,13,35,043,35,27,26,281,41*6F
$GBGSV,6,4,21,58,31,284,,42,36,069,46,43,40,090,44,14,41,105,44*6B
$GBGSV,6,5,21,21,07,027,,23,03,198,,57,09,222,,02,08,105,*6F
$GBGSV,6,6,21,41,03,177,*5F
$GPGGA,200032.00,,,,,0,00,,,M,,M,,*4B
$PTNL,GGK,200032.00,010125,4742.4466018,N,01617.9735401,E,1,20,1.3,EHT669.1566,M*44
$GPGGQ,200032.00,010125,4742.4466018,N,01617.9735401,E,1,20,3.225,625.9456,M*3C
$GPGFA,200032.00,13.030,21.953,1.371,1.164,327.627,2.677,,VVV*0A
$GPLLK,200032.00,010125,,M,,M,1,20,1.5,,M*0E
$GNGMP,200032.00,,,,,DAAA,20,0.7,,,,*50
$GPGMP,200032.00,,,,,,05,,,,2.8,123*71
$GLGMP,200032.00,,,,,,06,,,,,*7A
$GAGMP,200032.00,,,,,,02,,,,,*73
$GBGMP,200032.00,,,,,,07,,,,,*75
$PSSN,SNC,[0,331250000,2347]*42
$GPZDA,200037.00,01,01,2025,,*65
$GPDTM,W84,,00.0000000,N,00.0000000,E,00.0000000,W84*5F
$GPRMC,200037.00,A,4742.4465966,N,01617.9735419,E,0.0,,010125,5.1,E,D*11
$GPGLL,4742.4465966,N,01617.9735419,E,200037.00,A,D*60
$GPGGA,200037.00,4742.4465966,N,01617.9735419,E,2,20,0.7,625.9508,M,43.2111,M,2.2,0123*49
$GNGNS,200037.00,4742.4465966,N,01617.9735419,E,DAAA,20,0.7,625.9508,43.2111,,*55
$GPGNS,200037.00,,,,,,05,,,,2.2,123*7E
$GLGNS,200037.00,,,,,,05,,,,,*7C
$GAGNS,200037.00,,,,,,03,,,,,*77
$GBGNS,200037.00,,,,,,07,,,,,*70
$GPLLQ,200037.00,010125,,M,,M,1,20,2.698,,M*10
$GPVTG,,T,,M,0.00,N,0.01,K,D*27
$GPHDT,,T*1B
$GPTHS,,V*0E
$GPROT,,V*08
$PSSN,HRP,200037.00,010125,,,,,,,00,0,,*67
$PTNL,AVR,200037.00,,Yaw,,Tilt,,,,0,,00*31
$GPGSA,A,3,07,10,16,23,27,,,,,,,,1.3,0.7,1.1*32
$GPGSA,A,3,67,68,74,82,83,,,,,,,,1.3,0.7,1.1*3A
$GPGSA,A,3,13,21,26,,,,,,,,,,1.3,0.7,1.1*32
$GPGSA,A,3,13,14,27,28,37,42,43,,,,,,1.3,0.7,1.1*3A
$GPGST,200037.00,4.268,1.092,1.010,274.307,1.011,1.091,2.251*5A
$GPGBS,200037.00,3.539,4.864,10.229,16,0.0001,-1.719,0.676*41
$GPGRS,200037.00,1,1.0,1.0,-1.7,-0.2,0.7,,,,,,,*65
$GPGRS,200037.00,1,9.3,3.1,-8.5,-3.4,-5.3,,,,,,,*4F
$GPGRS,200037.00,1,0.7,-2.0,0.4,,,,,,,,,*4A
$GPGRS,200037.00,1,0.5,-1.8,-2.8,-1.6,-0.2,-2.2,0.9,,,,,*41
$GPGSV,4,1,16,27,72,303,48,15,14,047,30,26,23,189,30,21,11,258,*7C
$GPGSV,4,2,16,08,35,301,30,18,29,066,33,16,49,209,45,10,56,161,51*75
$GPGSV,4,3,16,23,57,075,41,13,03,018,,07,07,307,35,30,01,338,*7D
$GPGSV,4,4,16,36,35,170,40,34,31,208,,49,34,195,37,61,03,257,*77
$GLGSV,3,1,10,83,65,010,38,84,25,279,30,66,15,021,,68,25,132,36*6B
$GLGSV,3,2,10,82,34,067,48,74,36,304,39,73,37,245,32,67,38,074,51*61
$GLGSV,3,3,10,80,06,198,26,75,05,347,35*6F
$GAGSV,3,1,11,13,70,046,47,08,12,102,,03,14,053,,23,48,290,*60
$GAGSV,3,2,11,21,48,204,34,15,18,063,32,14,53,289,,26,51,256,45*6E
$GAGSV,3,3,11,27,08,166,,31,08,326,32,33,04,248,*52
$GBGSV,6,1,21,28,71,303,49,38,13,038,23,60,11,108,,50,22,044,*67
$GBGSV,6,2,21,05,23,128,,08,27,037,24,46,23,302,,11,18,090,32*6F
$GBGSV,6,3,21,37,25,243,41,33,34,138,34,13,35,043,36,27,26,281,41*6D
$GBGSV,6,4,21,58,31,284,,42,36,069,45,43,40,090,45,14,41,105,44*69
$GBGSV,6,5,21,21,07,027,,23,03,198,,57,09,222,,02,08,105,*6F
$GBGSV,6,6,21,41,03,177,*5F
$GPGGA,200037.00,,,,,0,00,,,M,,M,,*4E
$PTNL,GGK,200037.00,010125,4742.4465966,N,01617.9735419,E,1,20,1.3,EHT669.1619,M*40
$GPGGQ,200037.00,010125,4742.4465966,N,01617.9735419,E,1,20,2.698,625.9508,M*3A
$GPGFA,200037.00,10.378,18.459,1.092,1.010,274.307,2.251,,VVV*02
$GPLLK,200037.00,010125,,M,,M,1,20,1.5,,M*0B
$GNGMP,200037.00,,,,,DAAA,20,0.7,,,,*55
$GPGMP,200037.00,,,,,,05,,,,2.2,123*7E
$GLGMP,200037.00,,,,,,05,,,,,*7C
$GAGMP,200037.00,,,,,,03,,,,,*77
$GBGMP,200037.00,,,,,,07,,,,,*70
$PSSN,SNC,[0,331255000,2347]*47
$GPZDA,200042.00,01,01,2025,,*67
$GPDTM,W84,,00.0000000,N,00.0000000,E,00.0000000,W84*5F
$GPRMC,200042.00,A,4742.4465888,N,01617.9735416,E,0.0,,010125,5.1,E,D*1D
$GPGLL,4742.4465888,N,01617.9735416,E,200042.00,A,D*6C
$GPGGA,200042.00,4742.4465888,N,01617.9735416,E,2,19,0.8,625.9537,M,43.2111,M,3.2,0123*4D
$GNGNS,200042.00,4742.4465888,N,01617.9735416,E,DAAA,19,0.8,625.9537,43.2111,,*50
$GPGNS,200042.00,,,,,,05,,,,3.2,123*7D
$GLGNS,200042.00,,,,,,04,,,,,*7F
$GAGNS,200042.00,,,,,,03,,,,,*75
$GBGNS,200042.00,,,,,,07,,,,,*72
$GPLLQ,200042.00,010125,,M,,M,1,19,3.391,,M*15
$GPVTG,,T,,M,0.00,N,0.01,K,D*27
$GPHDT,,T*1B
$GPTHS,,V*0E
$GPROT,,V*08
$PSSN,HRP,200042.00,010125,,,,,,,00,0,,*65
$PTNL,AVR,200042.00,,Yaw,,Tilt,,,,0,,00*33
$GPGSA,A,3,07,10,16,23,27,,,,,,,,1.4,0.8,1.2*39
$GPGSA,A,3,67,73,82,83,,,,,,,,,1.4,0.8,1.2*38
$GPGSA,A,3,13,21,26,,,,,,,,,,1.4,0.8,1.2*39
$GPGSA,A,3,13,14,27,28,37,42,43,,,,,,1.4,0.8,1.2*31
$GPGST,200042.00,5.938,1.373,1.266,283.702,1.273,1.367,2.830*50
$GPGBS,200042.00,3.603,4.921,10.775,16,0.0001,-1.881,0.695*46
$GPGRS,200042.00,1,1.9,0.7,-1.9,-0.4,0.9,,,,,,,*6E
$GPGRS,200042.00,1,7.0,16.1,-3.6,-5.2,,,,,,,,*79
$GPGRS,200042.00,1,1.0,-5.4,1.0,,,,,,,,,*48
$GPGRS,200042.00,1,0.5,-2.1,-3.3,-1.6,3.4,-2.3,0.1,,,,,*62
$GPGSV,4,1,16,27,72,303,48,15,14,047,,26,23,189,32,21,11,258,*7D
$GPGSV,4,2,16,08,35,301,31,18,29,066,32,16,49,209,44,10,56,161,51*74
$GPGSV,4,3,16,23,57,075,41,13,03,018,,07,07,307,36,30,01,338,*7E
$GPGSV,4,4,16,36,35,170,40,34,31,208,,49,34,195,37,61,03,257,*77
$GLGSV,3,1,10,83,65,010,38,84,25,279,31,66,15,021,,68,25,132,35*69
$GLGSV,3,2,10,82,34,067,48,74,36,304,34,73,37,245,35,67,38,074,51*6B
$GLGSV,3,3,10,80,06,198,27,75,05,347,34*6F
$GAGSV,3,1,11,13,70,046,47,08,12,102,,03,14,053,,23,48,290,*60
$GAGSV,3,2,11,21,48,204,38,15,18,063,25,14,53,289,,26,51,256,45*64
$GAGSV,3,3,11,27,08,166,,31,08,326,33,33,04,248,*53
$GBGSV,6,1,21,28,71,303,49,38,13,038,23,60,11,108,,50,22,044,*67
$GBGSV,6,2,21,05,23,128,,08,27,037,24,46,23,302,,11,18,090,29*65
$GBGSV,6,3,21,37,25,243,41,33,34,138,35,13,35,043,37,27,26,281,41*6D
$GBGSV,6,4,21,58,31,284,,42,36,069,45,43,40,090,45,14,41,105,44*69
$GBGSV,6,5,21,21,07,027,,23,03,198,,57,09,222,,02,08,105,*6F
$GBGSV,6,6,21,41,03,177,*5F
$GPGGA,200042.00,,,,,0,00,,,M,,M,,*4C
$PTNL,GGK,200042.00,010125,4742.4465888,N,01617.9735416,E,1,19,1.4,EHT669.1648,M*45
$GPGGQ,200042.00,010125,4742.4465888,N,01617.9735416,E,1,19,3.391,625.9537,M*3D
$GPGFA,200042.00,13.056,23.208,1.373,1.266,283.702,2.830,,VVV*0D
$GPLLK,200042.00,010125,,M,,M,1,19,1.7,,M*01
$GNGMP,200042.00,,,,,DAAA,19,0.8,,,,*52
$GPGMP,200042.00,,,,,,05,,,,3.2,123*7D
$GLGMP,200042.00,,,,,,04,,,,,*7F
$GAGMP,200042.00,,,,,,03,,,,,*75
$GBGMP,200042.00,,,,,,07,,,,,*72
$PSSN,SNC,[0,331260000,2347]*41
$GPZDA,200047.00,01,01,2025,,*62
$GPDTM,W84,,00.0000000,N,00.0000000,E,00.0000000,W84*5F
$GPRMC,200047.00,A,4742.4465787,N,01617.9735451,E,0.0,,010125,5.1,E,D*1B
$GPGLL,4742.4465787,N,01617.9735451,E,200047.00,A,D*6A
$GPGGA,200047.00,4742.4465787,N,01617.9735451,E,2,19,0.7,625.9628,M,43.2111,M,1.5,0123*4C
$GNGNS,200047.00,4742.4465787,N,01617.9735451,E,DAAA,19,0.7,625.9628,43.2111,,*54
$GPGNS,200047.00,,,,,,04,,,,1.5,123*7C
$GLGNS,200047.00,,,,,,04,,,,,*7A
$GAGNS,200047.00,,,,,,03,,,,,*70
$GBGNS,200047.00,,,,,,08,,,,,*78
$GPLLQ,200047.00,010125,,M,,M,1,19,9.594,,M*19
$GPVTG,,T,,M,0.00,N,0.00,K,D*26
$GPHDT,,T*1B
$GPTHS,,V*0E
$GPROT,,V*08
$PSSN,HRP,200047.00,010125,,,,,,,00,0,,*60
$PTNL,AVR,200047.00,,Yaw,,Tilt,,,,0,,00*36
$GPGSA,A,3,10,16,23,27,,,,,,,,,1.4,0.7,1.2*31
$GPGSA,A,3,66,67,82,83,,,,,,,,,1.4,0.7,1.2*33
$GPGSA,A,3,13,21,26,,,,,,,,,,1.4,0.7,1.2*36
$GPGSA,A,3,13,14,27,28,33,37,42,43,,,,,1.4,0.7,1.2*3E
$GPGST,200047.00,3.680,2.196,1.272,331.481,2.023,1.532,9.253*56
$GPGBS,200047.00,7.897,4.070,35.503,16,0.0001,-2.173,0.645*47
$GPGRS,200047.00,1,0.8,-2.2,0.1,0.6,,,,,,,,*6D
$GPGRS,200047.00,1,2.9,4.5,-3.5,-5.3,,,,,,,,*45
$GPGRS,200047.00,1,1.1,-1.1,1.1,,,,,,,,,*4C
$GPGRS,200047.00,1,1.3,-1.9,-4.6,-1.8,-4.0,6.0,-1.2,-0.3,,,,*4C
$GPGSV,4,1,16,27,72,303,47,15,14,047,,26,23,189,34,21,11,258,24*72
$GPGSV,4,2,16,08,35,301,27,18,29,066,33,16,49,209,44,10,56,161,50*73
$GPGSV,4,3,16,23,56,075,43,13,03,018,,07,07,307,37,30,01,338,*7C
$GPGSV,4,4,16,36,35,170,40,34,31,208,,49,34,195,37,61,03,257,*77
$GLGSV,3,1,10,83,65,010,38,84,25,279,31,66,15,021,36,68,25,132,32*6B
$GLGSV,3,2,10,82,34,067,48,74,36,304,30,73,37,245,38,67,38,074,50*63
$GLGSV,3,3,10,80,06,198,26,75,05,347,34*6E
$GAGSV,3,1,11,13,70,046,47,08,12,102,,03,14,053,,21,48,204,40*6B
$GAGSV,3,2,11,23,48,290,,15,18,063,27,14,53,289,,26,51,256,45*62
$GAGSV,3,3,11,27,08,166,,31,08,326,34,33,04,248,*54
$GBGSV,6,1,21,28,71,303,48,38,13,038,24,60,11,108,,50,22,044,*61
$GBGSV,6,2,21,05,23,128,,08,27,037,24,46,23,302,,11,18,090,32*6F
$GBGSV,6,3,21,37,25,243,41,33,34,138,36,13,35,043,37,27,26,281,41*6E
$GBGSV,6,4,21,58,31,284,,42,36,069,44,43,40,091,46,14,41,104,44*6B
$GBGSV,6,5,21,21,07,027,,23,03,198,,57,09,222,,02,08,105,*6F
$GBGSV,6,6,21,41,03,177,*5F
$GPGGA,200047.00,,,,,0,00,,,M,,M,,*49
$PTNL,GGK,200047.00,010125,4742.4465787,N,01617.9735451,E,1,19,1.4,EHT669.1739,M*44
$GPGGQ,200047.00,010125,4742.4465787,N,01617.9735451,E,1,19,9.594,625.9628,M*3F
$GPGFA,200047.00,20.881,75.871,2.196,1.272,331.481,9.253,,VVV*06
$GPLLK,200047.00,010125,,M,,M,1,19,1.7,,M*04
$GNGMP,200047.00,,,,,DAAA,19,0.7,,,,*58
$GPGMP,200047.00,,,,,,04,,,,1.5,123*7C
$GLGMP,200047.00,,,,,,04,,,,,*7A
$GAGMP,200047.00,,,,,,03,,,,,*70
$GBGMP,200047.00,,,,,,08,,,,,*78
$PSSN,SNC,[0,331265000,2347]*44
$GPZDA,200052.00,01,01,2025,,*66
$GPDTM,W84,,00.0000000,N,00.0000000,E,00.0000000,W84*5F
$GPRMC,200052.00,A,4742.4465751,N,01617.9735360,E,0.0,,010125,5.1,E,D*11
$GPGLL,4742.4465751,N,01617.9735360,E,200052.00,A,D*60
$GPGGA,200052.00,4742.4465751,N,01617.9735360,E,2,19,0.7,625.9569,M,43.2111,M,3.3,0123*44
$GNGNS,200052.00,4742.4465751,N,01617.9735360,E,DAAA,19,0.7,625.9569,43.2111,,*58
$GPGNS,200052.00,,,,,,03,,,,3.3,123*7B
$GLGNS,200052.00,,,,,,04,,,,,*7E
$GAGNS,200052.00,,,,,,04,,,,,*73
$GBGNS,200052.00,,,,,,08,,,,,*7C
$GPLLQ,200052.00,010125,,M,,M,1,19,5.500,,M*1C
$GPVTG,,T,,M,0.01,N,0.01,K,D*26
$GPHDT,,T*1B
$GPTHS,,V*0E
$GPROT,,V*08
$PSSN,HRP,200052.00,010125,,,,,,,00,0,,*64
$PTNL,AVR,200052.00,,Yaw,,Tilt,,,,0,,00*32
$GPGSA,A,3,10,23,27,,,,,,,,,,1.3,0.7,1.1*32
$GPGSA,A,3,66,67,82,83,,,,,,,,,1.3,0.7,1.1*37
$GPGSA,A,3,13,21,26,31,,,,,,,,,1.3,0.7,1.1*30
$GPGSA,A,3,13,14,27,28,33,37,42,43,,,,,1.3,0.7,1.1*3A
$GPGST,200052.00,4.983,1.139,0.980,290.754,1.001,1.120,5.291*5F
$GPGBS,200052.00,7.305,6.616,45.583,66,0.0001,12.095,6.326*5C
$GPGRS,200052.00,1,0.5,-0.2,-0.1,,,,,,,,,*63
$GPGRS,200052.00,1,12.1,3.6,-3.6,-5.7,,,,,,,,*7B
$GPGRS,200052.00,1,0.3,-1.4,0.6,2.4,,,,,,,,*60
$GPGRS,200052.00,1,2.2,-2.7,-6.3,-2.5,-2.6,4.4,-1.0,-0.9,,,,*40
$GPGSV,4,1,16,27,72,303,46,15,14,047,28,26,23,189,35,21,11,258,25*79
$GPGSV,4,2,16,08,35,301,33,18,28,066,33,16,49,209,44,10,56,161,50*77
$GPGSV,4,3,16,23,56,075,43,13,03,018,,07,07,307,36,30,01,338,*7D
$GPGSV,4,4,16,36,35,170,40,34,31,208,,49,34,195,37,61,03,257,*77
$GLGSV,3,1,10,83,65,010,38,84,25,280,31,66,15,021,36,68,25,132,30*6F
$GLGSV,3,2,10,82,34,067,47,74,36,304,31,73,36,245,37,67,38,074,51*62
$GLGSV,3,3,10,80,06,198,26,75,05,347,30*6A
$GAGSV,3,1,11,13,70,046,47,08,12,102,,03,14,053,,21,48,204,41*6A
$GAGSV,3,2,11,23,48,290,,15,18,063,27,14,53,289,,26,51,256,45*62
$GAGSV,3,3,11,27,08,166,,31,08,326,36,33,04,248,*56
$GBGSV,6,1,21,28,71,303,47,38,13,038,23,60,11,108,,50,22,044,*69
$GBGSV,6,2,21,05,23,128,,08,27,037,22,46,23,301,,11,18,090,28*61
$GBGSV,6,3,21,37,25,243,40,33,34,138,37,13,35,043,39,27,26,281,40*61
$GBGSV,6,4,21,58,31,284,,42,36,069,43,43,40,091,46,14,41,104,44*6C
$GBGSV,6,5,21,21,07,027,,23,03,198,,57,09,222,,02,08,105,*6F
$GBGSV,6,6,21,41,03,177,*5F
$GPGGA,200052.00,,,,,0,00,,,M,,M,,*4D
$PTNL,GGK,200052.00,010125,4742.4465751,N,01617.9735360,E,1,19,1.3,EHT669.1679,M*4C
$GPGGQ,200052.00,010125,4742.4465751,N,01617.9735360,E,1,19,5.500,625.9569,M*32
$GPGFA,200052.00,10.826,43.387,1.139,0.980,290.754,5.291,,VVV*09
$GPLLK,200052.00,010125,,M,,M,1,19,1.5,,M*02
$GNGMP,200052.00,,,,,DAAA,19,0.7,,,,*5C
$GPGMP,200052.00,,,,,,03,,,,3.3,123*7B
$GLGMP,200052.00,,,,,,04,,,,,*7E
$GAGMP,200052.00,,,,,,04,,,,,*73
$GBGMP,200052.00,,,,,,08,,,,,*7C
$PSSN,SNC,[0,331270000,2347]*40
$GPZDA,200057.00,01,01,2025,,*63
$GPDTM,W84,,00.0000000,N,00.0000000,E,00.0000000,W84*5F
$GPRMC,200057.00,A,4742.4465751,N,01617.9735342,E,0.0,,010125,5.1,E,D*14
$GPGLL,4742.4465751,N,01617.9735342,E,200057.00,A,D*65
$GPGGA,200057.00,4742.4465751,N,01617.9735342,E,2,19,0.7,625.9590,M,43.2111,M,3.3,0123*47
$GNGNS,200057.00,4742.4465751,N,01617.9735342,E,DAAA,19,0.7,625.9590,43.2111,,*5B
$GPGNS,200057.00,,,,,,04,,,,3.3,123*79
$GLGNS,200057.00,,,,,,03,,,,,*7C
$GAGNS,200057.00,,,,,,04,,,,,*76
$GBGNS,200057.00,,,,,,08,,,,,*79
$GPLLQ,200057.00,010125,,M,,M,1,19,8.231,,M*11
$GPVTG,,T,,M,0.00,N,0.00,K,D*26
$GPHDT,,T*1B
$GPTHS,,V*0E
$GPROT,,V*08
$PSSN,HRP,200057.00,010125,,,,,,,00,0,,*61
$PTNL,AVR,200057.00,,Yaw,,Tilt,,,,0,,00*37
$GPGSA,A,3,10,16,23,27,,,,,,,,,1.4,0.7,1.2*31
$GPGSA,A,3,67,82,83,,,,,,,,,,1.4,0.7,1.2*33
$GPGSA,A,3,13,21,26,31,,,,,,,,,1.4,0.7,1.2*34
$GPGSA,A,3,13,14,27,28,33,37,42,43,,,,,1.4,0.7,1.2*3E
$GPGST,200057.00,3.433,1.938,1.198,330.254,1.784,1.416,7.910*56
$GPGBS,200057.00,6.427,4.140,32.178,16,0.0001,-1.882,0.693*42
$GPGRS,200057.00,1,1.2,-1.9,-0.4,0.5,,,,,,,,*44
$GPGRS,200057.00,1,5.1,-3.2,-5.8,,,,,,,,,*68
$GPGRS,200057.00,1,0.5,-0.7,0.5,1.8,,,,,,,,*6D
$GPGRS,200057.00,1,3.0,-1.8,-6.3,-1.9,-1.7,1.7,-0.5,-0.3,,,,*4F
$GPGSV,4,1,16,27,72,303,45,15,14,047,,26,23,189,35,21,11,258,*77
$GPGSV,4,2,16,08,35,301,33,18,28,066,33,16,49,209,45,10,56,161,50*76
$GPGSV,4,3,16,23,56,075,43,13,03,018,,07,07,307,37,30,01,338,*7C
$GPGSV,4,4,16,36,35,170,40,34,31,208,,49,34,195,36,61,03,257,*76
$GLGSV,3,1,10,83,65,010,36,84,25,280,32,66,15,021,35,68,25,132,30*61
$GLGSV,3,2,10,82,34,067,46,74,36,304,32,73,36,245,33,67,38,074,51*64
$GLGSV,3,3,10,80,06,198,27,75,05,347,26*6C
$GAGSV,3,1,11,13,70,046,47,08,12,102,,03,14,053,,21,48,204,42*69
$GAGSV,3,2,11,23,48,290,,15,18,063,26,14,53,289,,26,51,256,45*63
$GAGSV,3,3,11,27,07,166,,31,08,326,36,33,04,248,*59
$GBGSV,6,1,21,28,71,303,45,38,13,038,26,60,11,108,,50,22,044,*6E
$GBGSV,6,2,21,05,23,128,,08,27,037,24,46,23,301,,11,18,090,29*66
$GBGSV,6,3,21,37,25,243,40,33,34,138,39,13,35,043,39,27,26,281,39*61
$GBGSV,6,4,21,58,31,284,,42,36,069,43,43,40,091,46,14,41,104,44*6C
$GBGSV,6,5,21,21,07,027,,23,03,198,,57,09,222,,02,08,105,*6F
$GBGSV,6,6,21,41,03,177,*5F
$GPGGA,200057.00,,,,,0,00,,,M,,M,,*48
$PTNL,GGK,200057.00,010125,4742.4465751,N,01617.9735342,E,1,19,1.4,EHT669.1701,M*40
$GPGGQ,200057.00,010125,4742.4465751,N,01617.9735342,E,1,19,8.231,625.9590,M*39
$GPGFA,200057.00,18.425,64.862,1.938,1.198,330.254,7.910,,VVV*09
$GPLLK,200057.00,010125,,M,,M,1,19,1.6,,M*04
$GNGMP,200057.00,,,,,DAAA,19,0.7,,,,*59
$GPGMP,200057.00,,,,,,04,,,,3.3,123*79
$GLGMP,200057.00,,,,,,03,,,,,*7C
$GAGMP,200057.00,,,,,,04,,,,,*76
$GBGMP,200057.00,,,,,,08,,,,,*79
$PSSN,SNC,[0,331275000,2347]*45
$GPZDA,200102.00,01,01,2025,,*62
$GPDTM,W84,,00.0000000,N,00.0000000,E,00.0000000,W84*5F
$GPRMC,200102.00,A,4742.4465718,N,01617.9735291,E,0.0,,010125,5.1,E,D*17
$GPGLL,4742.4465718,N,01617.9735291,E,200102.00,A,D*66
$GPGGA,200102.00,4742.4465718,N,01617.9735291,E,2,19,0.7,625.9498,M,43.2111,M,1.3,0123*4F
$GNGNS,200102.00,4742.4465718,N,01617.9735291,E,DAAA,19,0.7,625.9498,43.2111,,*51
$GPGNS,200102.00,,,,,,04,,,,1.3,123*7A
$GLGNS,200102.00,,,,,,03,,,,,*7D
$GAGNS,200102.00,,,,,,04,,,,,*77
$GBGNS,200102.00,,,,,,08,,,,,*78
$GPLLQ,200102.00,010125,,M,,M,1,19,8.570,,M*12
$GPVTG,,T,,M,0.00,N,0.00,K,D*26
$GPHDT,,T*1B
$GPTHS,,V*0E
$GPROT,,V*08
$PSSN,HRP,200102.00,010125,,,,,,,00,0,,*60
$PTNL,AVR,200102.00,,Yaw,,Tilt,,,,0,,00*36
$GPGSA,A,3,10,16,23,27,,,,,,,,,1.4,0.7,1.2*31
$GPGSA,A,3,67,82,83,,,,,,,,,,1.4,0.7,1.2*33
$GPGSA,A,3,13,21,26,31,,,,,,,,,1.4,0.7,1.2*34
$GPGSA,A,3,13,14,27,28,33,37,42,43,,,,,1.4,0.7,1.2*3E
$GPGST,200102.00,3.419,2.074,1.382,327.994,1.905,1.606,8.200*54
$GPGBS,200102.00,6.503,3.933,30.993,16,0.0001,-2.035,0.646*4F
$GPGRS,200102.00,1,1.7,-2.0,-0.9,0.5,,,,,,,,*47
$GPGRS,200102.00,1,6.3,-3.9,-6.1,,,,,,,,,*69
$GPGRS,200102.00,1,0.5,-0.5,0.4,1.4,,,,,,,,*63
$GPGRS,200102.00,1,2.0,-0.8,-5.5,-0.9,-0.8,-0.4,-0.7,0.8,,,,*4F
$GPGSV,4,1,16,27,72,303,44,15,14,047,28,26,23,189,36,21,11,259,*7E
$GPGSV,4,2,16,08,35,301,23,18,28,066,34,16,49,209,44,10,56,161,50*71
$GPGSV,4,3,16,23,56,075,43,13,03,018,,07,07,307,39,30,01,338,*72
$GPGSV,4,4,16,36,35,170,40,34,31,208,,49,34,195,36,61,03,257,*76
$GLGSV,3,1,10,83,65,010,37,84,25,280,33,66,15,021,37,68,25,132,34*67
$GLGSV,3,2,10,82,34,067,44,74,36,304,32,73,36,245,32,67,38,074,51*67
$GLGSV,3,3,10,80,06,198,27,75,05,347,23*69
$GAGSV,3,1,11,13,70,046,46,08,12,102,,03,14,053,,21,48,204,42*68
$GAGSV,3,2,11,23,48,290,,15,18,063,27,14,53,289,,26,51,256,45*62
$GAGSV,3,3,11,27,07,166,,31,08,326,35,33,04,248,*5A
$GBGSV,6,1,21,28,71,303,44,38,13,038,26,60,11,108,,50,22,044,*6F
$GBGSV,6,2,21,05,23,128,,08,27,037,22,46,23,301,,11,18,090,29*60
$GBGSV,6,3,21,37,25,243,40,33,34,138,38,13,35,043,40,27,26,282,37*63
$GBGSV,6,4,21,58,31,284,,42,36,069,44,43,40,091,46,14,41,104,44*6B
$GBGSV,6,5,21,21,07,027,,23,03,198,,57,09,222,,02,08,105,*6F
$GBGSV,6,6,21,41,03,177,*5F
$GPGGA,200102.00,,,,,0,00,,,M,,M,,*49
$PTNL,GGK,200102.00,010125,4742.4465718,N,01617.9735291,E,1,19,1.4,EHT669.1609,M*4A
$GPGGQ,200102.00,010125,4742.4465718,N,01617.9735291,E,1,19,8.570,625.9498,M*31
$GPGFA,200102.00,19.716,67.241,2.074,1.382,327.994,8.200,,VVV*0D
$GPLLK,200102.00,010125,,M,,M,1,19,1.6,,M*05
$GNGMP,200102.00,,,,,DAAA,19,0.7,,,,*58
$GPGMP,200102.00,,,,,,04,,,,1.3,123*7A
$GLGMP,200102.00,,,,,,03,,,,,*7D
$GAGMP,200102.00,,,,,,04,,,,,*77
$GBGMP,200102.00,,,,,,08,,,,,*78
$PSSN,SNC,[0,331280000,2347]*4F
$GPZDA,200107.00,01,01,2025,,*67
$GPDTM,W84,,00.0000000,N,00.0000000,E,00.0000000,W84*5F
$GPRMC,200107.00,A,4742.4465697,N,01617.9735279,E,0.0,,010125,5.1,E,D*12
$GPGLL,4742.4465697,N,01617.9735279,E,200107.00,A,D*63
$GPGGA,200107.00,4742.4465697,N,01617.9735279,E,2,19,0.8,625.9435,M,43.2111,M,2.3,0123*41
$GNGNS,200107.00,4742.4465697,N,01617.9735279,E,DAAA,19,0.8,625.9435,43.2111,,*5C
$GPGNS,200107.00,,,,,,04,,,,2.3,123*7C
$GLGNS,200107.00,,,,,,04,,,,,*7F
$GAGNS,200107.00,,,,,,03,,,,,*75
$GBGNS,200107.00,,,,,,08,,,,,*7D
$GPLLQ,200107.00,010125,,M,,M,1,19,11.210,,M*2E
$GPVTG,,T,,M,0.00,N,0.00,K,D*26
$GPHDT,,T*1B
$GPTHS,,V*0E
$GPROT,,V*08
$PSSN,HRP,200107.00,010125,,,,,,,00,0,,*65
$PTNL,AVR,200107.00,,Yaw,,Tilt,,,,0,,00*33
$GPGSA,A,3,10,16,23,27,,,,,,,,,1.6,0.8,1.4*3A
$GPGSA,A,3,67,68,82,83,,,,,,,,,1.6,0.8,1.4*36
$GPGSA,A,3,13,21,26,,,,,,,,,,1.6,0.8,1.4*3D
$GPGSA,A,3,13,14,27,28,33,37,42,43,,,,,1.6,0.8,1.4*35
$GPGST,200107.00,4.234,2.553,1.315,332.768,2.349,1.653,10.836*6F
$GPGBS,200107.00,9.433,4.764,30.980,16,0.0001,-1.975,0.660*44
$GPGRS,200107.00,1,1.5,-2.0,-1.2,1.3,,,,,,,,*4D
$GPGRS,200107.00,1,5.3,9.5,-4.6,-5.9,,,,,,,,*4E
$GPGRS,200107.00,1,0.9,-0.3,0.5,,,,,,,,,*46
$GPGRS,200107.00,1,1.9,-0.2,-4.8,-0.7,-0.2,-1.2,-1.0,0.7,,,,*4C
$GPGSV,4,1,16,27,72,303,44,15,14,047,31,26,23,189,36,21,11,259,*76
$GPGSV,4,2,16,08,35,301,30,18,28,066,32,16,49,209,43,10,56,161,51*73
$GPGSV,4,3,16,23,56,075,41,13,03,018,,07,07,307,38,30,01,338,*71
$GPGSV,4,4,16,36,35,170,41,34,31,208,,49,34,195,36,61,03,257,*77
$GLGSV,3,1,10,83,65,011,38,84,25,280,33,66,15,021,25,68,25,132,36*68
$GLGSV,3,2,10,82,34,067,42,74,36,303,33,73,36,245,38,67,38,074,50*6C
$GLGSV,3,3,10,80,06,198,27,75,05,346,28*63
$GAGSV,3,1,11,13,70,046,45,08,12,102,,03,14,053,,21,48,204,43*6A
$GAGSV,3,2,11,23,48,290,,15,18,063,29,14,53,289,,26,51,256,44*6D
$GAGSV,3,3,11,27,07,166,,31,08,326,35,33,04,248,*5A
$GBGSV,6,1,21,28,71,303,41,38,13,038,25,60,11,108,,50,22,044,*69
$GBGSV,6,2,21,05,23,128,,08,27,037,24,46,23,301,,11,18,090,29*66
$GBGSV,6,3,21,37,25,243,40,33,34,138,38,13,34,043,40,27,26,282,36*63
$GBGSV,6,4,21,58,31,284,,42,36,069,45,43,40,091,45,14,41,104,44*69
$GBGSV,6,5,21,21,07,027,,23,03,198,,57,09,222,,02,08,105,*6F
$GBGSV,6,6,21,41,03,177,*5F
$GPGGA,200107.00,,,,,0,00,,,M,,M,,*4C
$PTNL,GGK,200107.00,010125,4742.4465697,N,01617.9735279,E,1,19,1.6,EHT669.1545,M*46
$GPGGQ,200107.00,010125,4742.4465697,N,01617.9735279,E,1,19,11.210,625.9435,M*0A
$GPGFA,200107.00,24.274,88.855,2.553,1.315,332.768,10.836,,VVV*38
$GPLLK,200107.00,010125,,M,,M,1,19,1.9,,M*0F
$GNGMP,200107.00,,,,,DAAA,19,0.8,,,,*52
$GPGMP,200107.00,,,,,,04,,,,2.3,123*7C
$GLGMP,200107.00,,,,,,04,,,,,*7F
$GAGMP,200107.00,,,,,,03,,,,,*75
$GBGMP,200107.00,,,,,,08,,,,,*7D
$PSSN,SNC,[0,331285000,2347]*4A
$GPZDA,200112.00,01,01,2025,,*63
$GPDTM,W84,,00.0000000,N,00.0000000,E,00.0000000,W84*5F
$GPRMC,200112.00,A,4742.4465729,N,01617.9735317,E,0.0,,010125,5.1,E,D*1B
$GPGLL,4742.4465729,N,01617.9735317,E,200112.00,A,D*6A
$GPGGA,200112.00,4742.4465729,N,01617.9735317,E,2,20,0.7,625.9314,M,43.2111,M,3.3,0123*48
$GNGNS,200112.00,4742.4465729,N,01617.9735317,E,DAAA,20,0.7,625.9314,43.2111,,*54
$GPGNS,200112.00,,,,,,04,,,,3.3,123*79
$GLGNS,200112.00,,,,,,05,,,,,*7A
$GAGNS,200112.00,,,,,,03,,,,,*71
$GBGNS,200112.00,,,,,,08,,,,,*79
$GPLLQ,200112.00,010125,,M,,M,1,20,10.720,,M*27
$GPVTG,,T,,M,0.00,N,0.01,K,D*27
$GPHDT,,T*1B
$GPTHS,,V*0E
$GPROT,,V*08
$PSSN,HRP,200112.00,010125,,,,,,,00,0,,*61
$PTNL,AVR,200112.00,,Yaw,,Tilt,,,,0,,00*37
$GPGSA,A,3,10,16,23,27,,,,,,,,,1.5,0.7,1.4*36
$GPGSA,A,3,67,68,73,82,83,,,,,,,,1.5,0.7,1.4*3E
$GPGSA,A,3,13,21,26,,,,,,,,,,1.5,0.7,1.4*31
$GPGSA,A,3,13,14,27,28,33,37,42,43,,,,,1.5,0.7,1.4*39
$GPGST,200112.00,3.731,2.453,1.271,333.228,2.264,1.584,10.358*6A
$GPGBS,200112.00,9.560,4.759,31.086,23,0.0001,-2.228,0.657*45
$GPGRS,200112.00,1,1.7,-0.7,-2.2,1.2,,,,,,,,*4C
$GPGRS,200112.00,1,3.7,9.0,-1.6,-5.0,-4.2,,,,,,,*44
$GPGRS,200112.00,1,1.3,0.0,0.6,,,,,,,,,*64
$GPGRS,200112.00,1,2.2,0.2,-2.9,-2.4,1.0,-2.2,-1.8,0.3,,,,*4A
$GPGSV,4,1,16,27,72,303,45,15,14,046,31,26,23,189,37,21,11,259,*77
$GPGSV,4,2,16,08,35,301,30,18,28,066,35,16,49,209,43,10,56,161,51*74
$GPGSV,4,3,16,23,56,075,38,13,03,018,,07,07,307,37,30,01,338,*70
$GPGSV,4,4,16,36,35,170,41,34,31,208,,49,34,195,37,61,03,257,*76
$GLGSV,3,1,10,83,65,011,38,84,25,280,32,66,15,021,30,68,25,132,39*62
$GLGSV,3,2,10,82,34,067,40,74,36,303,34,73,36,245,41,67,38,074,50*67
$GLGSV,3,3,10,80,06,198,27,75,05,346,28*63
$GAGSV,3,1,11,13,70,046,45,08,12,102,,03,14,053,,21,48,204,44*6D
$GAGSV,3,2,11,23,48,289,,15,17,063,30,14,53,289,,26,51,256,45*63
$GAGSV,3,3,11,27,07,166,,31,08,326,34,33,04,249,*5A
$GBGSV,6,1,21,28,71,303,41,38,13,038,24,60,11,108,,50,22,044,*68
$GBGSV,6,2,21,05,23,128,,08,27,037,24,46,23,301,,11,18,090,27*68
$GBGSV,6,3,21,37,25,243,41,33,34,138,39,13,34,043,40,27,26,282,36*63
$GBGSV,6,4,21,58,30,284,,42,36,069,45,43,40,091,44,14,41,104,44*69
$GBGSV,6,5,21,21,07,027,,23,03,198,,57,09,222,,02,08,105,*6F
$GBGSV,6,6,21,41,03,177,*5F
$GPGGA,200112.00,,,,,0,00,,,M,,M,,*48
$PTNL,GGK,200112.00,010125,4742.4465729,N,01617.9735317,E,1,20,1.5,EHT669.1424,M*40
$GPGGQ,200112.00,010125,4742.4465729,N,01617.9735317,E,1,20,10.720,625.9314,M*0A
$GPGFA,200112.00,23.326,84.935,2.453,1.271,333.228,10.358,,VVV*37
$GPLLK,200112.00,010125,,M,,M,1,20,1.8,,M*00
$GNGMP,200112.00,,,,,DAAA,20,0.7,,,,*53
$GPGMP,200112.00,,,,,,04,,,,3.3,123*79
$GLGMP,200112.00,,,,,,05,,,,,*7A
$GAGMP,200112.00,,,,,,03,,,,,*71
$GBGMP,200112.00,,,,,,08,,,,,*79
$PSSN,SNC,[0,331290000,2347]*4E
$GPZDA,200117.00,01,01,2025,,*66
$GPDTM,W84,,00.0000000,N,00.0000000,E,00.0000000,W84*5F
$GPRMC,200117.00,A,4742.4465765,N,01617.9735376,E,0.0,,010125,5.1,E,D*11
$GPGLL,4742.4465765,N,01617.9735376,E,200117.00,A,D*60
$GPGGA,200117.00,4742.4465765,N,01617.9735376,E,2,21,0.7,625.9375,M,43.2111,M,3.3,0123*44
$GNGNS,200117.00,4742.4465765,N,01617.9735376,E,DAAA,21,0.7,625.9375,43.2111,,*58
$GPGNS,200117.00,,,,,,04,,,,3.3,123*7C
$GLGNS,200117.00,,,,,,06,,,,,*7C
$GAGNS,200117.00,,,,,,03,,,,,*74
$GBGNS,200117.00,,,,,,08,,,,,*7C
$GPLLQ,200117.00,010125,,M,,M,1,21,8.286,,M*13
$GPVTG,,T,,M,0.00,N,0.01,K,D*27
$GPHDT,,T*1B
$GPTHS,,V*0E
$GPROT,,V*08
$PSSN,HRP,200117.00,010125,,,,,,,00,0,,*64
$PTNL,AVR,200117.00,,Yaw,,Tilt,,,,0,,00*32
$GPGSA,A,3,10,16,23,27,,,,,,,,,1.5,0.7,1.3*31
$GPGSA,A,3,67,68,73,74,82,83,,,,,,,1.5,0.7,1.3*3A
$GPGSA,A,3,13,21,26,,,,,,,,,,1.5,0.7,1.3*36
$GPGSA,A,3,13,14,27,28,33,37,42,43,,,,,1.5,0.7,1.3*3E
$GPGST,200117.00,4.718,1.853,1.021,334.132,1.726,1.224,8.011*5E
$GPGBS,200117.00,8.700,4.426,27.751,10,0.0001,1.226,0.616*61
$GPGRS,200117.00,1,1.2,-0.7,-1.1,0.7,,,,,,,,*48
$GPGRS,200117.00,1,3.7,9.9,6.4,-7.7,-5.6,-4.7,,,,,,*60
$GPGRS,200117.00,1,0.8,-0.5,-0.1,,,,,,,,,*69
$GPGRS,200117.00,1,2.3,-0.4,-1.4,-3.4,0.8,-3.6,-2.9,-1.0,,,,*4B
$GPGSV,4,1,16,27,72,303,44,15,14,046,32,26,23,189,35,21,11,259,*77
$GPGSV,4,2,16,08,35,301,34,18,28,066,34,16,49,209,44,10,56,161,52*75
$GPGSV,4,3,16,23,56,074,36,13,03,018,,07,07,307,36,30,01,338,*7E
$GPGSV,4,4,16,36,35,170,41,34,31,208,,49,34,195,36,61,03,257,*77
$GLGSV,3,1,10,83,65,011,38,84,25,280,29,66,15,021,32,68,25,132,41*65
$GLGSV,3,2,10,82,34,067,42,74,36,303,35,73,36,245,42,67,38,074,50*67
$GLGSV,3,3,10,80,06,198,26,75,05,346,*68
$GAGSV,3,1,11,13,70,046,45,08,12,102,,03,14,053,,21,48,204,45*6C
$GAGSV,3,2,11,23,48,289,,15,17,063,29,14,53,289,,26,51,256,45*6B
$GAGSV,3,3,11,27,07,166,,31,08,326,34,33,04,249,*5A
$GBGSV,6,1,21,28,71,303,41,38,13,038,22,60,11,108,,50,22,044,*6E
$GBGSV,6,2,21,05,23,128,,08,27,037,26,46,23,301,,11,18,090,23*6E
$GBGSV,6,3,21,37,25,243,41,33,34,138,39,13,34,043,40,27,26,282,38*6D
$GBGSV,6,4,21,58,30,284,,42,36,069,45,43,40,091,42,14,42,104,43*6B
$GBGSV,6,5,21,21,07,027,,23,03,198,,57,09,222,,02,08,105,*6F
$GBGSV,6,6,21,41,04,177,*58
$GPGGA,200117.00,,,,,0,00,,,M,,M,,*4D
$PTNL,GGK,200117.00,010125,4742.4465765,N,01617.9735376,E,1,21,1.5,EHT669.1486,M*43
$GPGGQ,200117.00,010125,4742.4465765,N,01617.9735376,E,1,21,8.286,625.9375,M*36
$GPGFA,200117.00,17.621,65.694,1.853,1.021,334.132,8.011,,VVV*0C
$GPLLK,200117.00,010125,,M,,M,1,21,1.8,,M*04
$GNGMP,200117.00,,,,,DAAA,21,0.7,,,,*57
$GPGMP,200117.00,,,,,,04,,,,3.3,123*7C
$GLGMP,200117.00,,,,,,06,,,,,*7C
$GAGMP,200117.00,,,,,,03,,,,,*74
$GBGMP,200117.00,,,,,,08,,,,,*7C
$PSSN,SNC,[0,331295000,2347]*4B
$GPZDA,200122.00,01,01,2025,,*60
$GPDTM,W84,,00.0000000,N,00.0000000,E,00.0000000,W84*5F
$GPRMC,200122.00,A,4742.4465791,N,01617.9735450,E,0.0,,010125,5.1,E,D*1F
$GPGLL,4742.4465791,N,01617.9735450,E,200122.00,A,D*6E
$GPGGA,200122.00,4742.4465791,N,01617.9735450,E,2,21,0.7,625.9351,M,43.2111,M,1.4,0123*49
$GNGNS,200122.00,4742.4465791,N,01617.9735450,E,DAAA,21,0.7,625.9351,43.2111,,*50
$GPGNS,200122.00,,,,,,05,,,,1.4,123*7E
$GLGNS,200122.00,,,,,,05,,,,,*79
$GAGNS,200122.00,,,,,,03,,,,,*72
$GBGNS,200122.00,,,,,,08,,,,,*7A
$GPLLQ,200122.00,010125,,M,,M,1,21,3.618,,M*1D
$GPVTG,,T,,M,0.00,N,0.01,K,D*27
$GPHDT,,T*1B
$GPTHS,,V*0E
$GPROT,,V*08
$PSSN,HRP,200122.00,010125,,,,,,,00,0,,*62
$PTNL,AVR,200122.00,,Yaw,,Tilt,,,,0,,00*34
$GPGSA,A,3,08,10,16,23,27,,,,,,,,1.5,0.7,1.3*39
$GPGSA,A,3,67,68,73,82,83,,,,,,,,1.5,0.7,1.3*39
$GPGSA,A,3,13,21,26,,,,,,,,,,1.5,0.7,1.3*36
$GPGSA,A,3,13,14,27,28,33,37,42,43,,,,,1.5,0.7,1.3*3E
$GPGST,200122.00,5.191,1.027,0.856,55.086,0.915,0.974,3.362*6A
$GPGBS,200122.00,3.699,4.777,17.413,23,0.0001,-1.247,0.632*40
$GPGRS,200122.00,1,1.2,0.6,-0.4,-1.2,0.2,,,,,,,*63
$GPGRS,200122.00,1,3.3,11.7,10.5,-4.6,-4.9,,,,,,,*6F
$GPGRS,200122.00,1,0.7,-0.4,0.2,,,,,,,,,*4F
$GPGRS,200122.00,1,2.2,-1.6,-2.9,-4.2,0.1,-4.1,-4.0,-1.6,,,,*40
$GPGSV,4,1,16,27,72,303,44,15,14,046,29,26,23,189,35,21,12,259,29*75
$GPGSV,4,2,16,08,35,301,36,18,28,066,34,16,49,209,45,10,56,161,51*75
$GPGSV,4,3,16,23,56,074,38,13,03,018,,07,07,307,35,30,01,338,*73
$GPGSV,4,4,16,36,35,170,41,34,31,208,,49,34,195,36,61,03,257,*77
$GLGSV,3,1,10,83,65,011,38,84,25,280,28,66,15,021,26,68,25,132,42*62
$GLGSV,3,2,10,82,34,067,44,74,36,303,34,73,36,245,40,67,38,074,50*62
$GLGSV,3,3,10,80,06,198,26,75,05,346,29*63
$GAGSV,3,1,11,13,70,046,45,08,12,102,,03,14,053,,21,48,204,45*6C
$GAGSV,3,2,11,23,48,289,,15,17,064,29,14,53,289,,26,51,256,46*6F
$GAGSV,3,3,11,27,07,166,,31,08,326,33,33,04,249,*5D
$GBGSV,6,1,21,28,71,303,42,38,13,038,23,60,11,108,,50,22,044,*6C
$GBGSV,6,2,21,05,23,128,,08,27,037,26,46,23,301,,11,18,090,20*6D
$GBGSV,6,3,21,37,25,243,41,33,34,138,39,13,34,043,41,27,26,282,38*6C
$GBGSV,6,4,21,58,30,284,,42,36,069,44,43,40,091,39,14,42,104,42*67
$GBGSV,6,5,21,21,07,027,,23,03,198,,57,09,223,,02,08,105,*6E
$GBGSV,6,6,21,41,04,177,*58
$GPGGA,200122.00,,,,,0,00,,,M,,M,,*4B
$PTNL,GGK,200122.00,010125,4742.4465791,N,01617.9735450,E,1,21,1.5,EHT669.1461,M*44
$GPGGQ,200122.00,010125,4742.4465791,N,01617.9735450,E,1,21,3.618,625.9351,M*36
$GPGFA,200122.00,9.760,27.570,1.027,0.856,55.086,3.362,,VVV*0A
$GPLLK,200122.00,010125,,M,,M,1,21,1.8,,M*02
$GNGMP,200122.00,,,,,DAAA,21,0.7,,,,*51
$GPGMP,200122.00,,,,,,05,,,,1.4,123*7E
$GLGMP,200122.00,,,,,,05,,,,,*79
$GAGMP,200122.00,,,,,,03,,,,,*72
$GBGMP,200122.00,,,,,,08,,,,,*7A
$PSSN,SNC,[0,331300000,2347]*46
$GPZDA,200127.00,01,01,2025,,*65
$GPDTM,W84,,00.0000000,N,00.0000000,E,00.0000000,W84*5F
$GPRMC,200127.00,A,4742.4465733,N,01617.9735654,E,0.0,,010125,5.1,E,D*14
$GPGLL,4742.4465733,N,01617.9735654,E,200127.00,A,D*65
$GPGGA,200127.00,4742.4465733,N,01617.9735654,E,2,21,0.7,625.9472,M,43.2111,M,2.3,0123*40
$GNGNS,200127.00,4742.4465733,N,01617.9735654,E,DAAA,21,0.7,625.9472,43.2111,,*5D
$GPGNS,200127.00,,,,,,04,,,,2.3,123*7E
$GLGNS,200127.00,,,,,,06,,,,,*7F
$GAGNS,200127.00,,,,,,03,,,,,*77
$GBGNS,200127.00,,,,,,08,,,,,*7F
$GPLLQ,200127.00,010125,,M,,M,1,21,6.098,,M*13
$GPVTG,,T,,M,0.00,N,0.00,K,D*26
$GPHDT,,T*1B
$GPTHS,,V*0E
$GPROT,,V*08
$PSSN,HRP,200127.00,010125,,,,,,,00,0,,*67
$PTNL,AVR,200127.00,,Yaw,,Tilt,,,,0,,00*31
$GPGSA,A,3,10,16,23,27,,,,,,,,,1.5,0.7,1.3*31
$GPGSA,A,3,67,68,73,74,82,83,,,,,,,1.5,0.7,1.3*3A
$GPGSA,A,3,13,21,26,,,,,,,,,,1.5,0.7,1.3*36
$GPGSA,A,3,13,14,27,28,33,37,42,43,,,,,1.5,0.7,1.3*3E
$GPGST,200127.00,4.463,1.393,0.743,333.778,1.292,0.907,5.890*55
$GPGBS,200127.00,8.934,4.383,28.683,68,0.0001,8.217,6.190*69
$GPGRS,200127.00,1,-0.0,-0.5,-0.4,0.1,,,,,,,,*65
$GPGRS,200127.00,1,3.8,8.2,5.3,-7.1,-3.9,-5.7,,,,,,*6C
$GPGRS,200127.00,1,1.0,0.3,0.5,,,,,,,,,*61
$GPGRS,200127.00,1,1.7,-1.7,-4.5,-4.1,0.2,-3.0,-3.6,-1.9,,,,*40
$GPGSV,4,1,16,27,72,303,45,15,14,046,26,26,23,189,32,21,12,259,30*74
$GPGSV,4,2,16,08,35,301,39,18,28,066,30,16,49,209,47,10,56,161,50*7D
$GPGSV,4,3,16,23,56,074,38,13,03,018,,07,07,307,32,30,01,338,*74
$GPGSV,4,4,16,36,35,170,41,34,31,208,,49,34,195,37,61,03,257,*76
$GLGSV,3,1,10,83,65,011,37,84,25,280,28,66,14,021,30,68,25,132,41*68
$GLGSV,3,2,10,82,34,067,45,74,36,303,35,73,36,245,38,67,38,074,50*6D
$GLGSV,3,3,10,80,05,198,25,75,05,346,30*6B
$GAGSV,3,1,11,13,70,046,45,08,12,102,,03,14,053,,21,48,204,46*6F
$GAGSV,3,2,11,23,48,289,,15,17,064,28,14,53,289,,26,51,256,46*6E
$GAGSV,3,3,11,27,07,166,,31,08,326,32,33,04,249,*5C
$GBGSV,6,1,21,28,71,303,43,38,13,038,21,60,11,108,,50,22,044,*6F
