$GPZDA,154442.00,01,01,2025,,*61
$GPDTM,W84,,00.0000000,N,00.0000000,E,00.0000000,W84*5F
$GPRMC,154442.00,A,4742.4460351,N,01617.9739563,E,0.0,,010125,5.1,E,D*1E
$GPGLL,4742.4460351,N,01617.9739563,E,154442.00,A,D*6F
$GPGGA,154442.00,4742.4460351,N,01617.9739563,E,2,24,0.6,625.3656,M,43.2110,M,1.6,0123*47
$GNGNS,154442.00,4742.4460351,N,01617.9739563,E,DAAA,24,0.6,625.3656,43.2110,,*5C
$GPGNS,154442.00,,,,,,05,,,,1.6,123*7D
$GLGNS,154442.00,,,,,,05,,,,,*78
$GAGNS,154442.00,,,,,,05,,,,,*75
$GBGNS,154442.00,,,,,,09,,,,,*7A
$GPLLQ,154442.00,010125,,M,,M,1,24,3.922,,M*1F
$GPVTG,,T,,M,0.01,N,0.01,K,D*26
$GPHDT,,T*1B
$GPTHS,,V*0E
$GPROT,,V*08
$PSSN,HRP,154442.00,010125,,,,,,,00,0,,*63
$PTNL,AVR,154442.00,,Yaw,,Tilt,,,,0,,00*35
$GPGSA,A,3,18,25,28,29,31,,,,,,,,1.2,0.6,1.0*3B
$GPGSA,A,3,78,79,81,82,88,,,,,,,,1.2,0.6,1.0*34
$GPGSA,A,3,15,21,27,30,34,,,,,,,,1.2,0.6,1.0*30
$GPGSA,A,3,11,12,23,24,25,34,38,43,44,,,,1.2,0.6,1.0*3E
$GPGST,154442.00,4.583,1.925,0.933,31.869,1.707,1.289,3.287*61
$GPGBS,154442.00,8.391,6.630,14.092,31,0.0001,2.467,1.099*66
$GPGRS,154442.00,1,-1.6,0.0,-0.6,0.1,2.5,,,,,,,*65
$GPGRS,154442.00,1,0.2,0.6,0.4,-1.7,-3.0,,,,,,,*67
$GPGRS,154442.00,1,0.5,2.5,0.4,1.1,-0.4,,,,,,,*4D
$GPGRS,154442.00,1,3.1,0.2,-2.8,-1.1,0.2,-0.5,17.3,2.9,0.1,,,*7D
$GPGSV,4,1,15,29,85,302,49,11,21,043,34,18,26,186,36,05,14,102,*75
$GPGSV,4,2,15,20,20,068,29,26,22,299,25,12,21,111,27,31,40,299,37*7B
$GPGSV,4,3,15,28,53,262,52,25,61,114,47,04,03,342,,36,35,170,36*72
$GPGSV,4,4,15,34,31,208,35,49,34,195,36,61,03,257,*42
$GLGSV,2,1,08,79,75,328,50,82,16,210,38,80,19,318,34,88,54,042,52*66
$GLGSV,2,2,08,78,47,134,46,81,65,201,44,71,09,355,34,70,04,311,23*66
$GAGSV,3,1,10,27,75,312,45,13,10,191,,29,11,254,28,19,15,298,27*6F
$GAGSV,3,2,10,21,21,295,36,34,47,064,43,15,51,152,47,30,48,107,45*6F
$GAGSV,3,3,10,04,01,350,,36,05,031,*68
$GBGSV,5,1,17,34,82,127,45,56,14,064,,24,24,146,46,44,31,054,39*6D
$GBGSV,5,2,17,05,20,130,34,38,26,062,36,43,40,221,42,13,27,087,27*6F
$GBGSV,5,3,17,08,28,078,25,23,42,304,40,11,63,206,42,12,56,058,45*6E
$GBGSV,5,4,17,25,72,196,53,19,01,020,,10,08,079,,02,05,107,*6B
$GBGSV,5,5,17,60,10,109,*52
$GPGGA,154442.00,,,,,0,00,,,M,,M,,*4A
$PTNL,GGK,154442.00,010125,4742.4460351,N,01617.9739563,E,1,24,1.2,EHT668.5766,M*46
$GPGGQ,154442.00,010125,4742.4460351,N,01617.9739563,E,1,24,3.922,625.3656,M*3C
$GPGFA,154442.00,18.298,26.957,1.925,0.933,31.869,3.287,,VVV*39
$GPLLK,154442.00,010125,,M,,M,1,24,1.4,,M*0A
$GNGMP,154442.00,,,,,DAAA,24,0.6,,,,*54
$GPGMP,154442.00,,,,,,05,,,,1.6,123*7D
$GLGMP,154442.00,,,,,,05,,,,,*78
$GAGMP,154442.00,,,,,,05,,,,,*75
$GBGMP,154442.00,,,,,,09,,,,,*7A
$PSSN,SNC,[0,315900000,2347]*4A
$GPZDA,154447.00,01,01,2025,,*64
$GPDTM,W84,,00.0000000,N,00.0000000,E,00.0000000,W84*5F
$GPRMC,154447.00,A,4742.4460327,N,01617.9739504,E,0.0,,010125,5.1,E,D*1B
$GPGLL,4742.4460327,N,01617.9739504,E,154447.00,A,D*6A
$GPGGA,154447.00,4742.4460327,N,01617.9739504,E,2,25,0.6,625.3592,M,43.2110,M,2.6,0123*4B
$GNGNS,154447.00,4742.4460327,N,01617.9739504,E,DAAA,25,0.6,625.3592,43.2110,,*53
$GPGNS,154447.00,,,,,,05,,,,2.6,123*7B
$GLGNS,154447.00,,,,,,06,,,,,*7E
$GAGNS,154447.00,,,,,,05,,,,,*70
$GBGNS,154447.00,,,,,,09,,,,,*7F
$GPLLQ,154447.00,010125,,M,,M,1,25,3.820,,M*18
$GPVTG,,T,,M,0.01,N,0.02,K,D*25
$GPHDT,,T*1B
$GPTHS,,V*0E
$GPROT,,V*08
$PSSN,HRP,154447.00,010125,,,,,,,00,0,,*66
$PTNL,AVR,154447.00,,Yaw,,Tilt,,,,0,,00*30
$GPGSA,A,3,18,25,28,29,31,,,,,,,,1.1,0.6,0.9*30
$GPGSA,A,3,78,79,80,81,82,88,,,,,,,1.1,0.6,0.9*37
$GPGSA,A,3,15,21,27,30,34,,,,,,,,1.1,0.6,0.9*3B
$GPGSA,A,3,11,12,23,24,25,34,38,43,44,,,,1.1,0.6,0.9*35
$GPGST,154447.00,4.765,1.905,0.946,35.041,1.651,1.340,3.174*61
$GPGBS,154447.00,7.717,6.681,12.825,31,0.0001,-2.927,1.110*4A
$GPGRS,154447.00,1,-0.0,0.7,-0.4,0.4,-2.9,,,,,,,*46
$GPGRS,154447.00,1,1.2,1.5,-4.9,0.7,-2.1,-2.2,,,,,,*6A
$GPGRS,154447.00,1,1.0,2.3,0.4,1.3,-0.4,,,,,,,*48
$GPGRS,154447.00,1,3.7,-0.3,-3.5,-1.0,0.7,-0.4,16.7,1.9,6.6,,,*5C
$GPGSV,4,1,15,29,85,302,49,11,21,043,33,18,26,186,37,05,14,102,*73
$GPGSV,4,2,15,20,20,068,,26,22,299,30,12,21,111,26,31,40,299,36*74
$GPGSV,4,3,15,28,53,262,51,25,61,114,46,04,03,342,,36,35,170,37*71
$GPGSV,4,4,15,34,31,208,34,49,34,195,36,61,03,257,*43
$GLGSV,2,1,08,79,75,328,50,82,16,210,38,80,20,319,40,88,54,042,52*6E
$GLGSV,2,2,08,78,47,134,47,81,65,201,43,71,09,355,33,70,04,311,22*66
$GAGSV,3,1,10,27,75,312,45,13,10,191,,29,11,254,28,19,15,298,27*6F
$GAGSV,3,2,10,21,21,295,36,34,47,063,44,15,51,152,47,30,48,107,44*6E
$GAGSV,3,3,10,04,01,350,,36,05,031,*68
$GBGSV,5,1,17,34,82,126,46,56,14,064,,24,24,146,46,44,31,054,39*6F
$GBGSV,5,2,17,05,20,130,33,38,26,062,36,43,40,221,43,13,27,087,23*6D
$GBGSV,5,3,17,08,28,078,24,23,42,304,40,11,63,206,43,12,56,058,45*6E
$GBGSV,5,4,17,25,72,196,53,19,01,020,,10,08,079,,02,05,107,*6B
$GBGSV,5,5,17,60,10,109,*52
$GPGGA,154447.00,,,,,0,00,,,M,,M,,*4F
$PTNL,GGK,154447.00,010125,4742.4460327,N,01617.9739504,E,1,25,1.1,EHT668.5702,M*43
$GPGGQ,154447.00,010125,4742.4460327,N,01617.9739504,E,1,25,3.820,625.3592,M*30
$GPGFA,154447.00,18.110,26.025,1.905,0.946,35.041,3.174,,VVV*3A
$GPLLK,154447.00,010125,,M,,M,1,25,1.3,,M*09
$GNGMP,154447.00,,,,,DAAA,25,0.6,,,,*50
$GPGMP,154447.00,,,,,,05,,,,2.6,123*7B
$GLGMP,154447.00,,,,,,06,,,,,*7E
$GAGMP,154447.00,,,,,,05,,,,,*70
$GBGMP,154447.00,,,,,,09,,,,,*7F
$PSSN,SNC,[0,315905000,2347]*4F
$GPZDA,154452.00,01,01,2025,,*60
$GPDTM,W84,,00.0000000,N,00.0000000,E,00.0000000,W84*5F
$GPRMC,154452.00,A,4742.4460411,N,01617.9739352,E,0.0,,010125,5.1,E,D*18
$GPGLL,4742.4460411,N,01617.9739352,E,154452.00,A,D*69
$GPGGA,154452.00,4742.4460411,N,01617.9739352,E,2,25,0.6,625.3550,M,43.2110,M,3.6,0123*47
$GNGNS,154452.00,4742.4460411,N,01617.9739352,E,DAAA,25,0.6,625.3550,43.2110,,*5E
$GPGNS,154452.00,,,,,,05,,,,3.6,123*7E
$GLGNS,154452.00,,,,,,06,,,,,*7A
$GAGNS,154452.00,,,,,,05,,,,,*74
$GBGNS,154452.00,,,,,,09,,,,,*7B
$GPLLQ,154452.00,010125,,M,,M,1,25,3.323,,M*14
$GPVTG,,T,,M,0.01,N,0.02,K,D*25
$GPHDT,,T*1B
$GPTHS,,V*0E
$GPROT,,V*08
$PSSN,HRP,154452.00,010125,,,,,,,00,0,,*62
$PTNL,AVR,154452.00,,Yaw,,Tilt,,,,0,,00*34
$GPGSA,A,3,18,25,28,29,31,,,,,,,,1.1,0.6,0.9*30
$GPGSA,A,3,78,79,80,81,82,88,,,,,,,1.1,0.6,0.9*37
$GPGSA,A,3,15,21,27,30,34,,,,,,,,1.1,0.6,0.9*3B
$GPGSA,A,3,11,12,23,24,25,34,38,43,44,,,,1.1,0.6,0.9*35
$GPGST,154452.00,4.878,1.656,0.824,35.291,1.433,1.169,2.761*69
$GPGBS,154452.00,7.719,6.736,12.830,38,0.0001,15.433,8.887*5D
$GPGRS,154452.00,1,1.6,0.4,-0.5,0.3,-1.3,,,,,,,*64
$GPGRS,154452.00,1,1.0,0.7,-3.2,-0.3,-1.6,-2.6,,,,,,*4A
$GPGRS,154452.00,1,0.6,2.9,-0.1,0.5,-0.5,,,,,,,*6F
$GPGRS,154452.00,1,4.0,-0.1,-3.7,-1.3,0.7,-0.6,15.4,-0.2,11.1,,,*4F
$GPGSV,4,1,15,29,85,303,49,11,21,043,31,18,26,186,40,05,14,102,*70
$GPGSV,4,2,15,20,20,068,28,26,22,299,35,12,21,111,25,31,40,299,36*78
$GPGSV,4,3,15,28,53,262,50,25,61,114,46,04,03,342,,36,35,170,36*71
$GPGSV,4,4,15,34,31,208,34,49,34,195,36,61,03,257,*43
$GLGSV,2,1,08,79,75,328,49,82,16,210,37,80,20,319,43,88,54,042,52*6A
$GLGSV,2,2,08,78,47,134,46,81,65,201,43,71,09,355,31,70,04,311,21*66
$GAGSV,3,1,10,27,75,312,46,13,10,191,,29,11,254,28,19,15,298,28*63
$GAGSV,3,2,10,21,21,295,37,34,47,063,45,15,51,152,46,30,48,107,44*6F
$GAGSV,3,3,10,04,01,350,,36,05,031,*68
$GBGSV,5,1,17,34,82,126,47,56,14,064,,24,24,146,46,44,31,054,39*6E
$GBGSV,5,2,17,05,20,130,34,38,26,062,35,43,40,221,44,13,27,087,20*6D
$GBGSV,5,3,17,08,28,078,23,23,42,304,39,11,63,206,44,12,56,058,44*61
$GBGSV,5,4,17,25,72,196,53,19,01,020,,10,08,079,,02,05,107,*6B
$GBGSV,5,5,17,60,10,109,*52
$GPGGA,154452.00,,,,,0,00,,,M,,M,,*4B
$PTNL,GGK,154452.00,010125,4742.4460411,N,01617.9739352,E,1,25,1.1,EHT668.5660,M*45
$GPGGQ,154452.00,010125,4742.4460411,N,01617.9739352,E,1,25,3.323,625.3550,M*35
$GPGFA,154452.00,15.740,22.638,1.656,0.824,35.291,2.761,,VVV*3E
$GPLLK,154452.00,010125,,M,,M,1,25,1.3,,M*0D
$GNGMP,154452.00,,,,,DAAA,25,0.6,,,,*54
$GPGMP,154452.00,,,,,,05,,,,3.6,123*7E
$GLGMP,154452.00,,,,,,06,,,,,*7A
$GAGMP,154452.00,,,,,,05,,,,,*74
$GBGMP,154452.00,,,,,,09,,,,,*7B
$PSSN,SNC,[0,315910000,2347]*4B
$GPZDA,154457.00,01,01,2025,,*65
$GPDTM,W84,,00.0000000,N,00.0000000,E,00.0000000,W84*5F
$GPRMC,154457.00,A,4742.4460418,N,01617.9739329,E,0.0,,010125,5.1,E,D*18
$GPGLL,4742.4460418,N,01617.9739329,E,154457.00,A,D*69
$GPGGA,154457.00,4742.4460418,N,01617.9739329,E,2,24,0.6,625.3568,M,43.2110,M,1.6,0123*4F
$GNGNS,154457.00,4742.4460418,N,01617.9739329,E,DAAA,24,0.6,625.3568,43.2110,,*54
$GPGNS,154457.00,,,,,,05,,,,1.6,123*79
$GLGNS,154457.00,,,,,,06,,,,,*7F
$GAGNS,154457.00,,,,,,05,,,,,*71
$GBGNS,154457.00,,,,,,08,,,,,*7F
$GPLLQ,154457.00,010125,,M,,M,1,24,2.339,,M*1A
$GPVTG,,T,,M,0.01,N,0.02,K,D*25
$GPHDT,,T*1B
$GPTHS,,V*0E
$GPROT,,V*08
$PSSN,HRP,154457.00,010125,,,,,,,00,0,,*67
$PTNL,AVR,154457.00,,Yaw,,Tilt,,,,0,,00*31
$GPGSA,A,3,18,25,26,28,29,,,,,,,,1.1,0.6,0.9*36
$GPGSA,A,3,78,79,80,81,82,88,,,,,,,1.1,0.6,0.9*37
$GPGSA,A,3,15,21,27,30,34,,,,,,,,1.1,0.6,0.9*3B
$GPGSA,A,3,11,12,23,24,25,34,43,44,,,,,1.1,0.6,0.9*3E
$GPGST,154457.00,3.640,1.240,0.693,36.178,1.081,0.921,1.859*67
$GPGBS,154457.00,7.567,6.747,13.606,44,0.0001,12.331,8.807*5E
$GPGRS,154457.00,1,0.7,-0.3,1.5,-0.8,0.3,,,,,,,*6D
$GPGRS,154457.00,1,-0.2,-0.3,1.9,-0.8,-0.8,-3.2,,,,,,*6D
$GPGRS,154457.00,1,-0.5,2.5,-0.6,-0.6,-1.0,,,,,,,*65
$GPGRS,154457.00,1,4.4,-0.1,-4.4,-2.0,0.3,-1.2,-1.2,12.3,,,,*55
$GPGSV,4,1,15,29,85,303,49,11,21,043,29,18,26,186,41,05,14,102,*78
$GPGSV,4,2,15,20,20,068,28,26,22,299,37,12,21,111,26,31,40,299,34*7B
$GPGSV,4,3,15,28,53,262,50,25,61,114,45,04,03,342,,36,35,170,36*72
$GPGSV,4,4,15,34,31,208,34,49,34,195,36,61,03,257,*43
$GLGSV,2,1,08,79,75,328,49,82,17,210,37,80,20,319,44,88,54,042,52*6C
$GLGSV,2,2,08,78,47,134,46,81,65,201,44,71,09,355,30,70,04,311,*63
$GAGSV,3,1,10,27,75,312,46,13,10,191,,29,11,254,28,19,15,298,30*6A
$GAGSV,3,2,10,21,22,295,38,34,47,063,45,15,51,152,45,30,48,107,44*60
$GAGSV,3,3,10,04,01,350,,36,05,031,*68
$GBGSV,5,1,17,34,82,126,48,56,14,064,,24,24,146,46,44,31,054,38*60
$GBGSV,5,2,17,05,20,130,34,38,26,062,34,43,40,221,45,13,27,087,26*6B
$GBGSV,5,3,17,08,28,078,22,23,42,304,39,11,63,206,44,12,56,058,44*60
$GBGSV,5,4,17,25,72,196,53,19,01,020,,10,08,079,,02,05,107,*6B
$GBGSV,5,5,17,60,10,109,*52
$GPGGA,154457.00,,,,,0,00,,,M,,M,,*4E
$PTNL,GGK,154457.00,010125,4742.4460418,N,01617.9739329,E,1,24,1.1,EHT668.5679,M*4C
$GPGGQ,154457.00,010125,4742.4460418,N,01617.9739329,E,1,24,2.339,625.3568,M*35
$GPGFA,154457.00,11.792,15.241,1.240,0.693,36.178,1.859,,VVV*3F
$GPLLK,154457.00,010125,,M,,M,1,24,1.3,,M*09
$GNGMP,154457.00,,,,,DAAA,24,0.6,,,,*50
$GPGMP,154457.00,,,,,,05,,,,1.6,123*79
$GLGMP,154457.00,,,,,,06,,,,,*7F
$GAGMP,154457.00,,,,,,05,,,,,*71
$GBGMP,154457.00,,,,,,08,,,,,*7F
$PSSN,SNC,[0,315915000,2347]*4E
$GPZDA,154502.00,01,01,2025,,*64
$GPDTM,W84,,00.0000000,N,00.0000000,E,00.0000000,W84*5F
$GPRMC,154502.00,A,4742.4460413,N,01617.9739329,E,0.0,,010125,5.1,E,D*12
$GPGLL,4742.4460413,N,01617.9739329,E,154502.00,A,D*63
$GPGGA,154502.00,4742.4460413,N,01617.9739329,E,2,24,0.6,625.3695,M,43.2110,M,1.8,0123*4A
$GNGNS,154502.00,4742.4460413,N,01617.9739329,E,DAAA,24,0.6,625.3695,43.2110,,*5F
$GPGNS,154502.00,,,,,,05,,,,1.8,123*76
$GLGNS,154502.00,,,,,,06,,,,,*7E
$GAGNS,154502.00,,,,,,05,,,,,*70
$GBGNS,154502.00,,,,,,08,,,,,*7E
$GPLLQ,154502.00,010125,,M,,M,1,24,2.332,,M*10
$GPVTG,,T,,M,0.01,N,0.02,K,D*25
$GPHDT,,T*1B
$GPTHS,,V*0E
$GPROT,,V*08
$PSSN,HRP,154502.00,010125,,,,,,,00,0,,*66
$PTNL,AVR,154502.00,,Yaw,,Tilt,,,,0,,00*30
$GPGSA,A,3,18,25,26,28,29,,,,,,,,1.1,0.6,0.9*36
$GPGSA,A,3,78,79,80,81,82,88,,,,,,,1.1,0.6,0.9*37
$GPGSA,A,3,15,21,27,30,34,,,,,,,,1.1,0.6,0.9*3B
$GPGSA,A,3,11,12,23,24,25,34,43,44,,,,,1.1,0.6,0.9*3E
$GPGST,154502.00,3.958,1.235,0.688,35.852,1.079,0.913,1.854*61
$GPGBS,154502.00,7.574,6.830,13.597,80,0.0001,8.652,6.820*61
$GPGRS,154502.00,1,0.5,-0.2,0.3,-0.5,0.0,,,,,,,*66
$GPGRS,154502.00,1,0.4,-0.1,8.7,1.5,-1.7,-3.1,,,,,,*6E
$GPGRS,154502.00,1,-0.8,2.8,-0.4,-0.6,-1.2,,,,,,,*64
$GPGRS,154502.00,1,3.4,-0.0,-4.6,-2.3,0.1,-1.6,-1.2,11.1,,,,*54
$GPGSV,4,1,15,29,85,304,49,11,21,043,,18,26,186,42,05,14,102,*77
$GPGSV,4,2,15,20,20,067,25,26,22,299,37,12,21,111,26,31,40,299,31*7C
$GPGSV,4,3,15,28,53,262,51,25,61,114,43,04,03,342,,36,35,170,37*74
$GPGSV,4,4,15,34,31,208,34,49,34,195,36,61,03,257,*43
$GLGSV,2,1,08,79,75,328,50,82,17,210,37,80,20,319,44,88,54,042,52*64
$GLGSV,2,2,08,78,47,134,46,81,65,201,46,71,09,355,31,70,04,311,*60
$GAGSV,3,1,10,27,75,312,46,13,10,191,,29,11,254,27,19,15,298,31*64
$GAGSV,3,2,10,21,22,295,39,34,46,063,45,15,51,152,44,30,48,107,43*66
$GAGSV,3,3,10,04,01,350,,36,05,031,*68
$GBGSV,5,1,17,34,82,126,48,56,14,064,,24,24,146,46,44,31,054,38*60
$GBGSV,5,2,17,05,20,130,34,38,26,062,33,43,40,221,45,13,27,087,27*6D
$GBGSV,5,3,17,08,28,078,21,23,42,304,39,11,63,206,43,12,56,058,45*65
$GBGSV,5,4,17,25,72,196,53,19,01,020,,10,08,079,,02,05,107,*6B
$GBGSV,5,5,17,60,10,109,*52
$GPGGA,154502.00,,,,,0,00,,,M,,M,,*4F
$PTNL,GGK,154502.00,010125,4742.4460413,N,01617.9739329,E,1,24,1.1,EHT668.5805,M*43
$GPGGQ,154502.00,010125,4742.4460413,N,01617.9739329,E,1,24,2.332,625.3695,M*35
$GPGFA,154502.00,11.742,15.206,1.235,0.688,35.852,1.854,,VVV*37
$GPLLK,154502.00,010125,,M,,M,1,24,1.3,,M*08
$GNGMP,154502.00,,,,,DAAA,24,0.6,,,,*51
$GPGMP,154502.00,,,,,,05,,,,1.8,123*76
$GLGMP,154502.00,,,,,,06,,,,,*7E
$GAGMP,154502.00,,,,,,05,,,,,*70
$GBGMP,154502.00,,,,,,08,,,,,*7E
$PSSN,SNC,[0,315920000,2347]*48
$GPZDA,154507.00,01,01,2025,,*61
$GPDTM,W84,,00.0000000,N,00.0000000,E,00.0000000,W84*5F
$GPRMC,154507.00,A,4742.4460384,N,01617.9739374,E,0.0,,010125,5.1,E,D*16
$GPGLL,4742.4460384,N,01617.9739374,E,154507.00,A,D*67
$GPGGA,154507.00,4742.4460384,N,01617.9739374,E,2,24,0.6,625.3738,M,43.2110,M,2.8,0123*4B
$GNGNS,154507.00,4742.4460384,N,01617.9739374,E,DAAA,24,0.6,625.3738,43.2110,,*5D
$GPGNS,154507.00,,,,,,05,,,,2.8,123*70
$GLGNS,154507.00,,,,,,06,,,,,*7B
$GAGNS,154507.00,,,,,,05,,,,,*75
$GBGNS,154507.00,,,,,,08,,,,,*7B
$GPLLQ,154507.00,010125,,M,,M,1,24,2.337,,M*10
$GPVTG,,T,,M,0.00,N,0.01,K,D*27
$GPHDT,,T*1B
$GPTHS,,V*0E
$GPROT,,V*08
$PSSN,HRP,154507.00,010125,,,,,,,00,0,,*63
$PTNL,AVR,154507.00,,Yaw,,Tilt,,,,0,,00*35
$GPGSA,A,3,18,25,26,28,29,,,,,,,,1.1,0.6,0.9*36
$GPGSA,A,3,78,79,80,81,82,88,,,,,,,1.1,0.6,0.9*37
$GPGSA,A,3,15,21,27,30,34,,,,,,,,1.1,0.6,0.9*3B
$GPGSA,A,3,11,12,23,24,25,34,43,44,,,,,1.1,0.6,0.9*3E
$GPGST,154507.00,3.624,1.242,0.693,36.193,1.083,0.922,1.854*6A
$GPGBS,154507.00,7.591,6.886,13.650,44,0.0001,11.320,8.808*5E
$GPGRS,154507.00,1,-0.1,-0.8,0.9,-0.3,0.4,,,,,,,*48
$GPGRS,154507.00,1,0.9,0.6,5.1,3.0,0.5,-3.1,,,,,,*6E
$GPGRS,154507.00,1,-0.7,3.9,-0.3,-0.4,-1.3,,,,,,,*6A
$GPGRS,154507.00,1,2.0,0.6,-4.0,-2.4,0.1,-1.6,-0.2,11.3,,,,*7D
$GPGSV,4,1,15,29,85,304,50,11,21,043,,18,26,186,43,05,14,102,*7E
$GPGSV,4,2,15,20,20,067,,26,22,299,36,12,21,111,26,31,40,299,30*7B
$GPGSV,4,3,15,28,53,262,52,25,61,114,42,04,03,342,,36,35,170,36*77
$GPGSV,4,4,15,34,31,208,34,49,34,195,36,61,03,257,*43
$GLGSV,2,1,08,79,75,328,50,82,17,210,39,80,20,319,43,88,54,042,52*6D
$GLGSV,2,2,08,78,47,134,46,81,65,201,48,71,09,355,32,70,04,311,24*6B
$GAGSV,3,1,10,27,75,312,46,13,10,191,,29,11,254,22,19,15,298,31*61
$GAGSV,3,2,10,21,22,295,39,34,46,063,45,15,51,152,42,30,48,107,42*61
$GAGSV,3,3,10,04,01,350,,36,05,031,*68
$GBGSV,5,1,17,34,82,125,48,56,14,064,,24,23,146,46,44,31,054,38*64
$GBGSV,5,2,17,05,20,130,34,38,26,062,33,43,40,221,46,13,27,087,25*6C
$GBGSV,5,3,17,08,28,078,21,23,42,303,38,11,63,206,43,12,56,058,45*63
$GBGSV,5,4,17,25,72,195,52,19,01,020,,10,08,079,,02,05,107,*69
$GBGSV,5,5,17,60,10,109,*52
$GPGGA,154507.00,,,,,0,00,,,M,,M,,*4A
$PTNL,GGK,154507.00,010125,4742.4460384,N,01617.9739374,E,1,24,1.1,EHT668.5848,M*4E
$GPGGQ,154507.00,010125,4742.4460384,N,01617.9739374,E,1,24,2.337,625.3738,M*32
$GPGFA,154507.00,11.809,15.205,1.242,0.693,36.193,1.854,,VVV*3C
$GPLLK,154507.00,010125,,M,,M,1,24,1.3,,M*0D
$GNGMP,154507.00,,,,,DAAA,24,0.6,,,,*54
$GPGMP,154507.00,,,,,,05,,,,2.8,123*70
$GLGMP,154507.00,,,,,,06,,,,,*7B
$GAGMP,154507.00,,,,,,05,,,,,*75
$GBGMP,154507.00,,,,,,08,,,,,*7B
$PSSN,SNC,[0,315925000,2347]*4D
$GPZDA,154512.00,01,01,2025,,*65
$GPDTM,W84,,00.0000000,N,00.0000000,E,00.0000000,W84*5F
$GPRMC,154512.00,A,4742.4460361,N,01617.9739392,E,0.0,,010125,5.1,E,D*11
$GPGLL,4742.4460361,N,01617.9739392,E,154512.00,A,D*60
$GPGGA,154512.00,4742.4460361,N,01617.9739392,E,2,24,0.6,625.3700,M,43.2110,M,3.8,0123*46
$GNGNS,154512.00,4742.4460361,N,01617.9739392,E,DAAA,24,0.6,625.3700,43.2110,,*51
$GPGNS,154512.00,,,,,,05,,,,3.8,123*75
$GLGNS,154512.00,,,,,,06,,,,,*7F
$GAGNS,154512.00,,,,,,05,,,,,*71
$GBGNS,154512.00,,,,,,08,,,,,*7F
$GPLLQ,154512.00,010125,,M,,M,1,24,2.386,,M*1E
$GPVTG,,T,,M,0.00,N,0.00,K,D*26
$GPHDT,,T*1B
$GPTHS,,V*0E
$GPROT,,V*08
$PSSN,HRP,154512.00,010125,,,,,,,00,0,,*67
$PTNL,AVR,154512.00,,Yaw,,Tilt,,,,0,,00*31
$GPGSA,A,3,18,25,26,28,29,,,,,,,,1.1,0.6,0.9*36
$GPGSA,A,3,78,79,80,81,82,88,,,,,,,1.1,0.6,0.9*37
$GPGSA,A,3,15,21,27,30,34,,,,,,,,1.1,0.6,0.9*3B
$GPGSA,A,3,11,12,23,24,25,34,43,44,,,,,1.1,0.6,0.9*3E
$GPGST,154512.00,3.845,1.267,0.708,36.442,1.102,0.944,1.893*69
$GPGBS,154512.00,7.609,6.946,13.706,44,0.0001,11.191,8.808*5F
$GPGRS,154512.00,1,-0.3,-0.7,-0.1,-0.3,0.9,,,,,,,*69
$GPGRS,154512.00,1,1.0,0.9,-5.3,3.3,1.6,-3.2,,,,,,*40
$GPGRS,154512.00,1,-0.4,4.5,-0.7,-0.3,-1.5,,,,,,,*63
$GPGRS,154512.00,1,2.5,1.1,-5.2,-2.5,0.1,-2.7,0.2,11.2,,,,*56
$GPGSV,4,1,15,29,85,304,50,11,21,043,,18,26,186,44,05,14,102,*79
$GPGSV,4,2,15,20,20,067,,26,22,299,36,12,21,111,26,31,40,299,34*7F
$GPGSV,4,3,15,28,53,262,52,25,61,114,41,04,03,342,,36,35,170,36*74
$GPGSV,4,4,15,34,31,208,34,49,34,195,36,61,03,257,*43
$GLGSV,2,1,08,79,75,328,51,82,17,210,40,80,20,319,42,88,54,042,52*63
$GLGSV,2,2,08,78,47,134,47,81,65,201,49,71,09,355,25,70,04,311,20*69
$GAGSV,3,1,10,27,75,312,46,13,10,191,,29,11,254,27,19,15,298,32*67
$GAGSV,3,2,10,21,22,295,39,34,46,063,45,15,51,152,40,30,48,107,41*60
$GAGSV,3,3,10,04,01,350,,36,05,031,*68
$GBGSV,5,1,17,34,82,125,47,56,14,064,,24,23,146,46,44,31,054,38*6B
$GBGSV,5,2,17,05,20,130,33,38,26,062,33,43,40,221,46,13,27,087,26*68
$GBGSV,5,3,17,08,28,078,35,23,42,303,37,11,63,206,42,12,56,058,45*68
$GBGSV,5,4,17,25,72,195,52,19,01,020,,10,08,079,,02,05,107,*69
$GBGSV,5,5,17,60,10,109,*52
$GPGGA,154512.00,,,,,0,00,,,M,,M,,*4E
$PTNL,GGK,154512.00,010125,4742.4460361,N,01617.9739392,E,1,24,1.1,EHT668.5810,M*44
$GPGGQ,154512.00,010125,4742.4460361,N,01617.9739392,E,1,24,2.386,625.3700,M*34
$GPGFA,154512.00,12.043,15.526,1.267,0.708,36.442,1.893,,VVV*3D
$GPLLK,154512.00,010125,,M,,M,1,24,1.3,,M*09
$GNGMP,154512.00,,,,,DAAA,24,0.6,,,,*50
$GPGMP,154512.00,,,,,,05,,,,3.8,123*75
$GLGMP,154512.00,,,,,,06,,,,,*7F
$GAGMP,154512.00,,,,,,05,,,,,*71
$GBGMP,154512.00,,,,,,08,,,,,*7F
$PSSN,SNC,[0,315930000,2347]*49
$GPZDA,154517.00,01,01,2025,,*60
$GPDTM,W84,,00.0000000,N,00.0000000,E,00.0000000,W84*5F
$GPRMC,154517.00,A,4742.4460341,N,01617.9739394,E,0.0,,010125,5.1,E,D*10
$GPGLL,4742.4460341,N,01617.9739394,E,154517.00,A,D*61
$GPGGA,154517.00,4742.4460341,N,01617.9739394,E,2,23,0.7,625.3645,M,43.2110,M,1.8,0123*43
$GNGNS,154517.00,4742.4460341,N,01617.9739394,E,DAAA,23,0.7,625.3645,43.2110,,*56
$GPGNS,154517.00,,,,,,04,,,,1.8,123*73
$GLGNS,154517.00,,,,,,06,,,,,*7A
$GAGNS,154517.00,,,,,,05,,,,,*74
$GBGNS,154517.00,,,,,,08,,,,,*7A
$GPLLQ,154517.00,010125,,M,,M,1,23,4.643,,M*16
$GPVTG,,T,,M,0.01,N,0.01,K,D*26
$GPHDT,,T*1B
$GPTHS,,V*0E
$GPROT,,V*08
$PSSN,HRP,154517.00,010125,,,,,,,00,0,,*62
$PTNL,AVR,154517.00,,Yaw,,Tilt,,,,0,,00*34
$GPGSA,A,3,18,25,28,29,,,,,,,,,1.2,0.7,1.0*38
$GPGSA,A,3,78,79,80,81,82,88,,,,,,,1.2,0.7,1.0*3D
$GPGSA,A,3,15,21,27,30,34,,,,,,,,1.2,0.7,1.0*31
$GPGSA,A,3,11,12,23,24,25,34,43,44,,,,,1.2,0.7,1.0*34
$GPGST,154517.00,4.499,2.268,0.925,14.816,2.205,1.066,3.944*60
$GPGBS,154517.00,13.634,6.810,24.135,44,0.0001,11.900,8.809*60
$GPGRS,154517.00,1,-0.5,-0.3,-0.5,0.8,,,,,,,,*6B
$GPGRS,154517.00,1,0.8,0.5,-7.9,4.2,1.3,-3.0,,,,,,*49
$GPGRS,154517.00,1,-0.2,4.1,-0.7,-0.4,-1.8,,,,,,,*6E
$GPGRS,154517.00,1,2.6,1.5,-6.3,-2.6,-0.1,-3.6,-0.3,11.9,,,,*5F
$GPGSV,4,1,15,29,85,305,50,11,21,043,24,05,14,102,,18,26,186,43*79
$GPGSV,4,2,15,20,20,067,,26,22,299,35,12,21,111,27,31,40,299,35*7C
$GPGSV,4,3,15,28,53,262,51,25,61,114,42,04,03,342,,36,35,170,37*75
$GPGSV,4,4,15,34,31,208,35,49,34,195,36,61,03,257,*42
$GLGSV,2,1,08,79,75,328,51,82,17,210,40,80,20,319,42,88,54,042,52*63
$GLGSV,2,2,08,78,47,134,47,81,65,201,50,71,09,355,33,70,04,311,*64
$GAGSV,3,1,10,27,75,312,46,13,10,191,,29,11,254,21,19,15,298,32*61
$GAGSV,3,2,10,21,22,295,39,34,46,063,45,15,51,152,38,30,48,107,41*6F
$GAGSV,3,3,10,04,01,350,,36,05,031,*68
$GBGSV,5,1,17,34,82,125,47,56,13,064,,24,23,146,46,44,31,054,37*63
$GBGSV,5,2,17,05,20,130,34,38,26,062,33,43,40,221,46,13,27,087,27*6E
$GBGSV,5,3,17,08,28,078,34,23,42,303,38,11,63,206,41,12,56,058,45*65
$GBGSV,5,4,17,25,72,195,51,19,01,020,,10,08,080,,02,05,107,*6C
$GBGSV,5,5,17,60,10,109,*52
$GPGGA,154517.00,,,,,0,00,,,M,,M,,*4B
$PTNL,GGK,154517.00,010125,4742.4460341,N,01617.9739394,E,1,23,1.2,EHT668.5755,M*4F
$GPGGQ,154517.00,010125,4742.4460341,N,01617.9739394,E,1,23,4.643,625.3645,M*38
$GPGFA,154517.00,21.565,32.341,2.268,0.925,14.816,3.944,,VVV*32
$GPLLK,154517.00,010125,,M,,M,1,23,1.4,,M*0C
$GNGMP,154517.00,,,,,DAAA,23,0.7,,,,*53
$GPGMP,154517.00,,,,,,04,,,,1.8,123*73
$GLGMP,154517.00,,,,,,06,,,,,*7A
$GAGMP,154517.00,,,,,,05,,,,,*74
$GBGMP,154517.00,,,,,,08,,,,,*7A
$PSSN,SNC,[0,315935000,2347]*4C
$GPZDA,154522.00,01,01,2025,,*66
$GPDTM,W84,,00.0000000,N,00.0000000,E,00.0000000,W84*5F
$GPRMC,154522.00,A,4742.4460312,N,01617.9739360,E,0.0,,010125,5.1,E,D*1B
$GPGLL,4742.4460312,N,01617.9739360,E,154522.00,A,D*6A
$GPGGA,154522.00,4742.4460312,N,01617.9739360,E,2,23,0.7,625.3602,M,43.2110,M,1.8,0123*4B
$GNGNS,154522.00,4742.4460312,N,01617.9739360,E,DAAA,23,0.7,625.3602,43.2110,,*5E
$GPGNS,154522.00,,,,,,04,,,,1.8,123*75
$GLGNS,154522.00,,,,,,06,,,,,*7C
$GAGNS,154522.00,,,,,,05,,,,,*72
$GBGNS,154522.00,,,,,,08,,,,,*7C
$GPLLQ,154522.00,010125,,M,,M,1,23,4.685,,M*1A
$GPVTG,,T,,M,0.00,N,0.01,K,D*27
$GPHDT,,T*1B
$GPTHS,,V*0E
$GPROT,,V*08
$PSSN,HRP,154522.00,010125,,,,,,,00,0,,*64
$PTNL,AVR,154522.00,,Yaw,,Tilt,,,,0,,00*32
$GPGSA,A,3,18,25,28,29,,,,,,,,,1.2,0.7,1.0*38
$GPGSA,A,3,78,79,80,81,82,88,,,,,,,1.2,0.7,1.0*3D
$GPGSA,A,3,15,21,27,30,34,,,,,,,,1.2,0.7,1.0*31
$GPGSA,A,3,11,12,23,24,25,34,43,44,,,,,1.2,0.7,1.0*34
$GPGST,154522.00,4.666,2.266,0.839,12.108,2.222,0.948,4.014*6C
$GPGBS,154522.00,13.636,6.884,24.094,44,0.0001,14.677,8.810*61
$GPGRS,154522.00,1,-0.5,0.2,-0.7,0.6,,,,,,,,*4D
$GPGRS,154522.00,1,0.4,0.2,-5.6,4.2,2.0,-2.4,,,,,,*4C
$GPGRS,154522.00,1,-1.6,3.0,-0.7,-0.3,-1.6,,,,,,,*62
$GPGRS,154522.00,1,1.0,1.0,-6.2,-2.5,-0.1,-3.0,-1.6,14.7,,,,*52
$GPGSV,4,1,15,29,85,306,51,11,21,043,28,05,14,102,,18,26,186,44*70
$GPGSV,4,2,15,20,20,067,,26,22,299,35,12,21,111,29,31,40,298,31*77
$GPGSV,4,3,15,28,53,261,51,25,61,114,43,04,03,342,,36,35,170,37*77
$GPGSV,4,4,15,34,31,208,34,49,34,195,35,61,03,257,*40
$GLGSV,2,1,08,79,75,328,51,82,17,210,41,80,20,319,42,88,53,042,52*65
$GLGSV,2,2,08,78,47,134,47,81,65,201,50,71,09,355,34,70,04,311,*63
$GAGSV,3,1,10,27,75,312,46,13,11,191,,29,11,254,23,19,15,298,32*62
$GAGSV,3,2,10,21,22,295,39,34,46,063,45,15,51,152,36,30,48,107,42*62
$GAGSV,3,3,10,04,01,350,,36,05,031,*68
$GBGSV,5,1,17,34,82,124,47,56,13,064,,24,23,146,45,44,31,054,36*60
$GBGSV,5,2,17,05,20,130,34,38,26,062,33,43,40,221,46,13,27,087,27*6E
$GBGSV,5,3,17,08,28,078,24,23,42,303,39,11,63,206,40,12,56,058,44*65
$GBGSV,5,4,17,25,72,195,51,19,01,020,,10,08,080,,02,05,107,*6C
$GBGSV,5,5,17,60,10,109,*52
$GPGGA,154522.00,,,,,0,00,,,M,,M,,*4D
$PTNL,GGK,154522.00,010125,4742.4460312,N,01617.9739360,E,1,23,1.2,EHT668.5712,M*47
$GPGGQ,154522.00,010125,4742.4460312,N,01617.9739360,E,1,23,4.685,625.3602,M*3A
$GPGFA,154522.00,21.543,32.916,2.266,0.839,12.108,4.014,,VVV*31
$GPLLK,154522.00,010125,,M,,M,1,23,1.4,,M*0A
$GNGMP,154522.00,,,,,DAAA,23,0.7,,,,*55
$GPGMP,154522.00,,,,,,04,,,,1.8,123*75
$GLGMP,154522.00,,,,,,06,,,,,*7C
$GAGMP,154522.00,,,,,,05,,,,,*72
$GBGMP,154522.00,,,,,,08,,,,,*7C
$PSSN,SNC,[0,315940000,2347]*4E
$GPZDA,154527.00,01,01,2025,,*63
$GPDTM,W84,,00.0000000,N,00.0000000,E,00.0000000,W84*5F
$GPRMC,154527.00,A,4742.4460279,N,01617.9739280,E,0.0,,010125,5.1,E,D*1D
$GPGLL,4742.4460279,N,01617.9739280,E,154527.00,A,D*6C
$GPGGA,154527.00,4742.4460279,N,01617.9739280,E,2,24,0.6,625.3560,M,43.2110,M,2.8,0123*4F
$GNGNS,154527.00,4742.4460279,N,01617.9739280,E,DAAA,24,0.6,625.3560,43.2110,,*59
$GPGNS,154527.00,,,,,,04,,,,2.8,123*73
$GLGNS,154527.00,,,,,,07,,,,,*78
$GAGNS,154527.00,,,,,,05,,,,,*77
$GBGNS,154527.00,,,,,,08,,,,,*79
$GPLLQ,154527.00,010125,,M,,M,1,24,4.704,,M*10
$GPVTG,,T,,M,0.01,N,0.01,K,D*26
$GPHDT,,T*1B
$GPTHS,,V*0E
$GPROT,,V*08
$PSSN,HRP,154527.00,010125,,,,,,,00,0,,*61
$PTNL,AVR,154527.00,,Yaw,,Tilt,,,,0,,00*37
$GPGSA,A,3,18,25,28,29,,,,,,,,,1.1,0.6,0.9*32
$GPGSA,A,3,71,78,79,80,81,82,88,,,,,,1.1,0.6,0.9*31
$GPGSA,A,3,15,21,27,30,34,,,,,,,,1.1,0.6,0.9*3B
$GPGSA,A,3,11,12,23,24,25,34,43,44,,,,,1.1,0.6,0.9*3E
$GPGST,154527.00,5.970,2.287,1.111,15.918,2.220,1.239,3.958*6B
$GPGBS,154527.00,12.383,6.714,22.177,44,0.0001,20.067,8.811*63
$GPGRS,154527.00,1,-0.5,0.2,-0.8,0.5,,,,,,,,*44
$GPGRS,154527.00,1,10.2,-0.8,-0.9,-3.5,3.2,0.8,-2.5,,,,,*5A
$GPGRS,154527.00,1,-1.6,1.9,-0.4,-0.2,-1.7,,,,,,,*6F
$GPGRS,154527.00,1,0.1,-0.2,-6.3,-2.4,-0.4,-2.0,-2.8,20.1,,,,*71
$GPGSV,4,1,15,29,85,306,50,11,21,043,30,05,14,102,,18,26,186,44*78
$GPGSV,4,2,15,20,20,067,24,26,22,299,32,12,21,111,30,31,40,298,20*7E
$GPGSV,4,3,15,28,53,261,51,25,61,114,44,04,03,342,,36,35,170,37*70
$GPGSV,4,4,15,34,31,208,34,49,34,195,36,61,03,257,*43
$GLGSV,2,1,08,79,75,328,50,82,17,210,41,80,20,319,43,88,53,042,52*65
$GLGSV,2,2,08,78,47,134,45,81,65,201,50,71,09,355,36,70,04,311,20*61
$GAGSV,3,1,10,27,75,312,46,13,11,191,,29,11,254,25,19,15,298,32*64
$GAGSV,3,2,10,21,22,295,38,34,46,063,45,15,51,152,37,30,48,107,42*62
$GAGSV,3,3,10,04,01,350,,36,05,031,*68
$GBGSV,5,1,17,34,82,124,47,56,13,064,,24,23,146,45,44,31,054,36*60
$GBGSV,5,2,17,05,20,130,33,38,26,062,33,43,40,221,45,13,27,087,28*65
$GBGSV,5,3,17,08,28,078,26,23,42,303,40,11,63,206,39,12,56,058,43*60
$GBGSV,5,4,17,25,72,195,51,19,01,020,,10,08,080,,02,05,107,*6C
$GBGSV,5,5,17,60,10,109,*52
$GPGGA,154527.00,,,,,0,00,,,M,,M,,*48
$PTNL,GGK,154527.00,010125,4742.4460279,N,01617.9739280,E,1,24,1.1,EHT668.5671,M*41
$GPGGQ,154527.00,010125,4742.4460279,N,01617.9739280,E,1,24,4.704,625.3560,M*34
$GPGFA,154527.00,21.742,32.456,2.287,1.111,15.918,3.958,,VVV*3B
$GPLLK,154527.00,010125,,M,,M,1,24,1.2,,M*0E
$GNGMP,154527.00,,,,,DAAA,24,0.6,,,,*56
$GPGMP,154527.00,,,,,,04,,,,2.8,123*73
$GLGMP,154527.00,,,,,,07,,,,,*78
$GAGMP,154527.00,,,,,,05,,,,,*77
$GBGMP,154527.00,,,,,,08,,,,,*79
$PSSN,SNC,[0,315945000,2347]*4B
$GPZDA,154532.00,01,01,2025,,*67
$GPDTM,W84,,00.0000000,N,00.0000000,E,00.0000000,W84*5F
$GPRMC,154532.00,A,4742.4460217,N,01617.9739232,E,0.0,,010125,5.1,E,D*18
$GPGLL,4742.4460217,N,01617.9739232,E,154532.00,A,D*69
$GPGGA,154532.00,4742.4460217,N,01617.9739232,E,2,24,0.6,625.3569,M,43.2110,M,3.8,0123*42
$GNGNS,154532.00,4742.4460217,N,01617.9739232,E,DAAA,24,0.6,625.3569,43.2110,,*55
$GPGNS,154532.00,,,,,,04,,,,3.8,123*76
$GLGNS,154532.00,,,,,,07,,,,,*7C
$GAGNS,154532.00,,,,,,05,,,,,*73
$GBGNS,154532.00,,,,,,08,,,,,*7D
$GPLLQ,154532.00,010125,,M,,M,1,24,5.838,,M*15
$GPVTG,,T,,M,0.01,N,0.02,K,D*25
$GPHDT,,T*1B
$GPTHS,,V*0E
$GPROT,,V*08
$PSSN,HRP,154532.00,010125,,,,,,,00,0,,*65
$PTNL,AVR,154532.00,,Yaw,,Tilt,,,,0,,00*33
$GPGSA,A,3,18,25,28,29,,,,,,,,,1.1,0.6,0.9*32
$GPGSA,A,3,71,78,79,80,81,82,88,,,,,,1.1,0.6,0.9*31
$GPGSA,A,3,15,21,27,30,34,,,,,,,,1.1,0.6,0.9*3B
$GPGSA,A,3,11,12,23,24,25,34,43,44,,,,,1.1,0.6,0.9*3E
$GPGST,154532.00,8.093,2.812,1.271,14.756,2.739,1.422,4.956*68
$GPGBS,154532.00,12.382,6.773,22.217,44,0.0001,26.130,8.810*66
$GPGRS,154532.00,1,-0.8,0.0,-0.8,0.5,,,,,,,,*4F
$GPGRS,154532.00,1,18.7,-1.7,-1.6,-1.2,2.5,0.2,-2.4,,,,,*5B
$GPGRS,154532.00,1,0.2,2.3,0.2,-0.2,-1.4,,,,,,,*62
$GPGRS,154532.00,1,1.1,-1.5,-6.4,-2.0,-1.0,-1.1,-1.8,26.1,,,,*73
$GPGSV,4,1,15,29,85,306,50,11,21,043,32,05,14,102,,18,26,186,44*7A
$GPGSV,4,2,15,20,20,067,,26,22,299,28,12,21,111,31,31,40,298,33*70
$GPGSV,4,3,15,28,53,261,51,25,61,114,43,04,03,342,,36,35,170,37*77
$GPGSV,4,4,15,34,31,208,34,49,34,195,36,61,03,257,*43
$GLGSV,2,1,08,79,75,328,49,82,17,210,42,80,20,319,45,88,53,042,52*68
$GLGSV,2,2,08,78,47,134,43,81,65,201,49,71,09,355,35,70,04,311,*6E
$GAGSV,3,1,10,27,75,312,45,13,11,191,,29,11,254,26,19,15,298,33*65
$GAGSV,3,2,10,21,22,295,38,34,46,063,45,15,52,152,39,30,48,107,42*6F
$GAGSV,3,3,10,04,01,350,,36,05,031,*68
$GBGSV,5,1,17,34,82,124,48,56,13,064,,24,23,146,45,44,31,054,36*6F
$GBGSV,5,2,17,05,20,130,33,38,26,062,33,43,40,221,46,13,27,087,28*66
$GBGSV,5,3,17,08,28,078,25,23,42,303,41,11,63,206,39,12,56,058,43*62
$GBGSV,5,4,17,25,72,195,51,19,01,020,,10,08,080,,02,05,107,*6C
$GBGSV,5,5,17,60,10,109,*52
$GPGGA,154532.00,,,,,0,00,,,M,,M,,*4C
$PTNL,GGK,154532.00,010125,4742.4460217,N,01617.9739232,E,1,24,1.1,EHT668.5679,M*4C
$GPGGQ,154532.00,010125,4742.4460217,N,01617.9739232,E,1,24,5.838,625.3569,M*39
$GPGFA,154532.00,26.737,40.636,2.812,1.271,14.756,4.956,,VVV*34
$GPLLK,154532.00,010125,,M,,M,1,24,1.2,,M*0A
$GNGMP,154532.00,,,,,DAAA,24,0.6,,,,*52
$GPGMP,154532.00,,,,,,04,,,,3.8,123*76
$GLGMP,154532.00,,,,,,07,,,,,*7C
$GAGMP,154532.00,,,,,,05,,,,,*73
$GBGMP,154532.00,,,,,,08,,,,,*7D
$PSSN,SNC,[0,315950000,2347]*4F
$GPZDA,154537.00,01,01,2025,,*62
$GPDTM,W84,,00.0000000,N,00.0000000,E,00.0000000,W84*5F
$GPRMC,154537.00,A,4742.4460152,N,01617.9739159,E,0.0,,010125,5.1,E,D*11
$GPGLL,4742.4460152,N,01617.9739159,E,154537.00,A,D*60
$GPGGA,154537.00,4742.4460152,N,01617.9739159,E,2,23,0.7,625.3556,M,43.2110,M,1.8,0123*43
$GNGNS,154537.00,4742.4460152,N,01617.9739159,E,DAAA,23,0.7,625.3556,43.2110,,*56
$GPGNS,154537.00,,,,,,04,,,,1.8,123*71
$GLGNS,154537.00,,,,,,06,,,,,*78
$GAGNS,154537.00,,,,,,05,,,,,*76
$GBGNS,154537.00,,,,,,08,,,,,*78
$GPLLQ,154537.00,010125,,M,,M,1,23,6.452,,M*14
$GPVTG,,T,,M,0.00,N,0.00,K,D*26
$GPHDT,,T*1B
$GPTHS,,V*0E
$GPROT,,V*08
$PSSN,HRP,154537.00,010125,,,,,,,00,0,,*60
$PTNL,AVR,154537.00,,Yaw,,Tilt,,,,0,,00*36
$GPGSA,A,3,18,25,28,29,,,,,,,,,1.2,0.7,1.0*38
$GPGSA,A,3,78,79,80,81,82,88,,,,,,,1.2,0.7,1.0*3D
$GPGSA,A,3,15,21,27,30,34,,,,,,,,1.2,0.7,1.0*31
$GPGSA,A,3,11,12,23,24,25,34,43,44,,,,,1.2,0.7,1.0*34
$GPGST,154537.00,7.673,3.154,1.286,14.994,3.065,1.486,5.480*6E
$GPGBS,154537.00,13.625,6.783,24.207,44,0.0001,29.141,8.810*6B
$GPGRS,154537.00,1,-1.0,0.2,-0.6,0.6,,,,,,,,*4C
$GPGRS,154537.00,1,-2.0,-1.5,-0.6,2.6,0.4,-2.4,,,,,,*49
$GPGRS,154537.00,1,1.4,3.6,0.2,0.0,-1.2,,,,,,,*4D
$GPGRS,154537.00,1,2.4,-2.1,-6.2,-1.3,-1.8,-0.5,-1.2,29.1,,,,*79
$GPGSV,4,1,15,29,85,307,49,11,21,043,33,05,14,102,,18,26,186,43*75
$GPGSV,4,2,15,20,20,067,28,26,22,299,,12,21,111,32,31,40,298,27*76
$GPGSV,4,3,15,28,53,261,50,25,61,114,43,04,03,342,,36,35,170,37*76
$GPGSV,4,4,15,34,31,208,35,49,34,195,36,61,03,257,*42
$GLGSV,2,1,08,79,75,328,48,82,17,210,41,80,20,319,46,88,53,042,51*6A
$GLGSV,2,2,08,78,47,134,41,81,66,201,49,71,09,355,34,70,04,311,22*6E
$GAGSV,3,1,10,27,75,312,45,13,11,191,,29,11,254,25,19,15,298,29*6D
$GAGSV,3,2,10,21,22,295,37,34,46,063,45,15,52,152,41,30,48,107,41*6C
$GAGSV,3,3,10,04,01,350,,36,05,031,*68
$GBGSV,5,1,17,34,82,124,49,56,13,064,,24,23,146,45,44,31,054,37*6F
$GBGSV,5,2,17,05,20,130,34,38,26,062,33,43,40,221,45,13,27,087,29*63
$GBGSV,5,3,17,08,28,078,25,23,42,303,42,11,63,206,38,12,56,058,42*61
$GBGSV,5,4,17,25,72,195,50,19,01,020,,10,08,080,,02,05,107,*6D
$GBGSV,5,5,17,60,10,109,*52
$GPGGA,154537.00,,,,,0,00,,,M,,M,,*49
$PTNL,GGK,154537.00,010125,4742.4460152,N,01617.9739159,E,1,23,1.2,EHT668.5667,M*4E
$GPGGQ,154537.00,010125,4742.4460152,N,01617.9739159,E,1,23,6.452,625.3556,M*38
$GPGFA,154537.00,29.988,44.936,3.154,1.286,14.994,5.480,,VVV*3A
$GPLLK,154537.00,010125,,M,,M,1,23,1.4,,M*0E
$GNGMP,154537.00,,,,,DAAA,23,0.7,,,,*51
$GPGMP,154537.00,,,,,,04,,,,1.8,123*71
$GLGMP,154537.00,,,,,,06,,,,,*78
$GAGMP,154537.00,,,,,,05,,,,,*76
$GBGMP,154537.00,,,,,,08,,,,,*78
$PSSN,SNC,[0,315955000,2347]*4A
$GPZDA,154542.00,01,01,2025,,*60
$GPDTM,W84,,00.0000000,N,00.0000000,E,00.0000000,W84*5F
$GPRMC,154542.00,A,4742.4460094,N,01617.9739099,E,0.0,,010125,5.1,E,D*15
$GPGLL,4742.4460094,N,01617.9739099,E,154542.00,A,D*64
$GPGGA,154542.00,4742.4460094,N,01617.9739099,E,2,23,0.7,625.3539,M,43.2110,M,1.8,0123*4E
$GNGNS,154542.00,4742.4460094,N,01617.9739099,E,DAAA,23,0.7,625.3539,43.2110,,*5B
$GPGNS,154542.00,,,,,,04,,,,1.8,123*73
$GLGNS,154542.00,,,,,,06,,,,,*7A
$GAGNS,154542.00,,,,,,05,,,,,*74
$GBGNS,154542.00,,,,,,08,,,,,*7A
$GPLLQ,154542.00,010125,,M,,M,1,23,6.205,,M*12
$GPVTG,,T,,M,0.00,N,0.01,K,D*27
$GPHDT,,T*1B
$GPTHS,,V*0E
$GPROT,,V*08
$PSSN,HRP,154542.00,010125,,,,,,,00,0,,*62
$PTNL,AVR,154542.00,,Yaw,,Tilt,,,,0,,00*34
$GPGSA,A,3,18,25,28,29,,,,,,,,,1.2,0.7,1.0*38
$GPGSA,A,3,78,79,80,81,82,88,,,,,,,1.2,0.7,1.0*3D
$GPGSA,A,3,15,21,27,30,34,,,,,,,,1.2,0.7,1.0*31
$GPGSA,A,3,11,12,23,24,25,34,43,44,,,,,1.2,0.7,1.0*34
$GPGST,154542.00,7.110,3.033,1.219,14.875,2.948,1.412,5.274*61
$GPGBS,154542.00,13.627,6.859,24.168,44,0.0001,26.863,8.810*6F
$GPGRS,154542.00,1,-1.1,0.8,-0.9,0.5,,,,,,,,*49
$GPGRS,154542.00,1,-2.3,-0.6,-1.0,3.0,-0.3,-2.6,,,,,,*62
$GPGRS,154542.00,1,0.0,4.4,-0.2,0.1,-1.9,,,,,,,*68
$GPGRS,154542.00,1,0.8,-1.9,-4.9,-1.4,-2.4,-0.5,-1.7,26.9,,,,*7D
$GPGSV,4,1,15,29,85,307,49,11,21,043,33,05,14,102,,18,26,186,43*75
$GPGSV,4,2,15,20,20,067,27,26,22,299,31,12,21,111,32,31,40,298,33*7E
$GPGSV,4,3,15,28,53,261,50,25,61,114,44,04,03,342,,36,35,170,37*71
$GPGSV,4,4,15,34,31,208,35,49,34,195,36,61,03,257,*42
$GLGSV,2,1,08,79,75,328,49,82,17,210,40,80,20,319,46,88,53,042,50*6B
$GLGSV,2,2,08,78,47,134,40,81,66,201,48,71,09,355,33,70,04,311,*69
$GAGSV,3,1,10,27,75,312,45,13,11,191,,29,11,254,26,19,15,298,33*65
$GAGSV,3,2,10,21,22,295,38,34,46,063,44,15,52,152,43,30,48,107,41*60
$GAGSV,3,3,10,04,01,350,,36,05,031,*68
$GBGSV,5,1,17,34,82,124,49,56,13,064,,24,23,146,46,44,30,054,37*6D
$GBGSV,5,2,17,05,20,130,33,38,26,062,32,43,40,221,45,13,27,087,29*65
$GBGSV,5,3,17,08,28,078,25,23,42,303,43,11,63,206,37,12,56,058,43*6E
$GBGSV,5,4,17,25,72,195,50,19,01,020,,10,08,080,,02,05,107,*6D
$GBGSV,5,5,17,60,10,109,*52
$GPGGA,154542.00,,,,,0,00,,,M,,M,,*4B
$PTNL,GGK,154542.00,010125,4742.4460094,N,01617.9739099,E,1,23,1.2,EHT668.5650,M*4E
$GPGGQ,154542.00,010125,4742.4460094,N,01617.9739099,E,1,23,6.205,625.3539,M*31
$GPGFA,154542.00,28.840,43.246,3.033,1.219,14.875,5.274,,VVV*32
$GPLLK,154542.00,010125,,M,,M,1,23,1.4,,M*0C
$GNGMP,154542.00,,,,,DAAA,23,0.7,,,,*53
$GPGMP,154542.00,,,,,,04,,,,1.8,123*73
$GLGMP,154542.00,,,,,,06,,,,,*7A
$GAGMP,154542.00,,,,,,05,,,,,*74
$GBGMP,154542.00,,,,,,08,,,,,*7A
$PSSN,SNC,[0,315960000,2347]*4C
$GPZDA,154547.00,01,01,2025,,*65
$GPDTM,W84,,00.0000000,N,00.0000000,E,00.0000000,W84*5F
$GPRMC,154547.00,A,4742.4460017,N,01617.9738976,E,0.0,,010125,5.1,E,D*12
$GPGLL,4742.4460017,N,01617.9738976,E,154547.00,A,D*63
$GPGGA,154547.00,4742.4460017,N,01617.9738976,E,2,23,0.7,625.3483,M,43.2110,M,2.8,0123*4A
$GNGNS,154547.00,4742.4460017,N,01617.9738976,E,DAAA,23,0.7,625.3483,43.2110,,*5C
$GPGNS,154547.00,,,,,,04,,,,2.8,123*75
$GLGNS,154547.00,,,,,,06,,,,,*7F
$GAGNS,154547.00,,,,,,05,,,,,*71
$GBGNS,154547.00,,,,,,08,,,,,*7F
$GPLLQ,154547.00,010125,,M,,M,1,23,5.822,,M*1B
$GPVTG,,T,,M,0.01,N,0.02,K,D*25
$GPHDT,,T*1B
$GPTHS,,V*0E
$GPROT,,V*08
$PSSN,HRP,154547.00,010125,,,,,,,00,0,,*67
$PTNL,AVR,154547.00,,Yaw,,Tilt,,,,0,,00*31
$GPGSA,A,3,18,25,28,29,,,,,,,,,1.2,0.7,1.0*38
$GPGSA,A,3,78,79,80,81,82,88,,,,,,,1.2,0.7,1.0*3D
$GPGSA,A,3,15,21,27,30,34,,,,,,,,1.2,0.7,1.0*31
$GPGSA,A,3,11,12,23,24,25,34,43,44,,,,,1.2,0.7,1.0*34
$GPGST,154547.00,5.742,2.834,1.270,15.327,2.754,1.436,4.924*61
$GPGBS,154547.00,13.637,6.903,24.221,44,0.0001,20.919,8.811*60
$GPGRS,154547.00,1,-1.4,0.8,-1.0,0.5,,,,,,,,*41
$GPGRS,154547.00,1,-3.1,0.0,-0.2,0.9,-1.2,-3.7,,,,,,*46
$GPGRS,154547.00,1,-0.6,4.9,-0.9,0.2,-2.1,,,,,,,*48
$GPGRS,154547.00,1,-0.4,-0.6,-3.6,-2.0,-2.7,-1.0,-2.1,20.9,,,,*5C
$GPGSV,4,1,15,29,85,308,49,11,21,043,33,05,14,102,,18,26,186,42*7B
$GPGSV,4,2,15,20,20,067,26,26,22,299,32,12,21,111,33,31,40,298,30*7E
$GPGSV,4,3,15,28,53,261,50,25,61,114,45,04,03,342,,36,35,170,37*70
$GPGSV,4,4,15,34,31,208,35,49,34,195,36,61,03,257,*42
$GLGSV,2,1,08,79,75,328,50,82,17,210,40,80,20,319,47,88,53,042,50*62
$GLGSV,2,2,08,78,47,134,39,81,66,201,46,71,09,355,35,70,04,311,24*69
$GAGSV,3,1,10,27,75,312,45,13,11,191,,29,11,254,26,19,15,298,33*65
$GAGSV,3,2,10,21,22,295,38,34,46,063,44,15,52,152,44,30,48,107,40*66
$GAGSV,3,3,10,04,01,350,,36,05,031,*68
$GBGSV,5,1,17,34,82,123,49,56,13,064,,24,23,146,46,44,30,054,37*6A
$GBGSV,5,2,17,05,20,130,33,38,26,062,31,43,40,221,45,13,27,087,30*6E
$GBGSV,5,3,17,08,28,078,26,23,42,303,44,11,63,206,36,12,56,058,43*6B
$GBGSV,5,4,17,25,72,195,50,19,01,020,,10,08,080,,02,05,107,*6D
$GBGSV,5,5,17,60,10,109,*52
$GPGGA,154547.00,,,,,0,00,,,M,,M,,*4E
$PTNL,GGK,154547.00,010125,4742.4460017,N,01617.9738976,E,1,23,1.2,EHT668.5593,M*45
$GPGGQ,154547.00,010125,4742.4460017,N,01617.9738976,E,1,23,5.822,625.3483,M*3A
$GPGFA,154547.00,26.947,40.378,2.834,1.270,15.327,4.924,,VVV*33
$GPLLK,154547.00,010125,,M,,M,1,23,1.4,,M*09
$GNGMP,154547.00,,,,,DAAA,23,0.7,,,,*56
$GPGMP,154547.00,,,,,,04,,,,2.8,123*75
$GLGMP,154547.00,,,,,,06,,,,,*7F
$GAGMP,154547.00,,,,,,05,,,,,*71
$GBGMP,154547.00,,,,,,08,,,,,*7F
$PSSN,SNC,[0,315965000,2347]*49
$GPZDA,154552.00,01,01,2025,,*61
$GPDTM,W84,,00.0000000,N,00.0000000,E,00.0000000,W84*5F
$GPRMC,154552.00,A,4742.4459947,N,01617.9738875,E,0.0,,010125,5.1,E,D*12
$GPGLL,4742.4459947,N,01617.9738875,E,154552.00,A,D*63
$GPGGA,154552.00,4742.4459947,N,01617.9738875,E,2,23,0.7,625.3433,M,43.2110,M,3.8,0123*40
$GNGNS,154552.00,4742.4459947,N,01617.9738875,E,DAAA,23,0.7,625.3433,43.2110,,*57
$GPGNS,154552.00,,,,,,04,,,,3.8,123*70
$GLGNS,154552.00,,,,,,06,,,,,*7B
$GAGNS,154552.00,,,,,,05,,,,,*75
$GBGNS,154552.00,,,,,,08,,,,,*7B
$GPLLQ,154552.00,010125,,M,,M,1,23,4.562,,M*17
$GPVTG,,T,,M,0.00,N,0.01,K,D*27
$GPHDT,,T*1B
$GPTHS,,V*0E
$GPROT,,V*08
$PSSN,HRP,154552.00,010125,,,,,,,00,0,,*63
$PTNL,AVR,154552.00,,Yaw,,Tilt,,,,0,,00*35
$GPGSA,A,3,18,25,28,29,,,,,,,,,1.2,0.7,1.0*38
$GPGSA,A,3,78,79,80,81,82,88,,,,,,,1.2,0.7,1.0*3D
$GPGSA,A,3,15,21,27,30,34,,,,,,,,1.2,0.7,1.0*31
$GPGSA,A,3,11,12,23,24,25,34,43,44,,,,,1.2,0.7,1.0*34
$GPGST,154552.00,4.156,2.228,0.914,14.977,2.166,1.055,3.874*63
$GPGBS,154552.00,13.647,6.958,24.276,44,0.0001,13.676,8.812*6A
$GPGRS,154552.00,1,-0.8,0.5,-0.9,0.7,,,,,,,,*4F
$GPGRS,154552.00,1,-2.0,1.0,-0.1,-1.5,-1.5,-4.2,,,,,,*65
$GPGRS,154552.00,1,-0.4,4.7,-0.5,0.2,-1.9,,,,,,,*47
$GPGRS,154552.00,1,2.9,0.2,-3.0,-2.3,-2.7,-1.2,-1.6,13.7,,,,*5E
$GPGSV,4,1,15,29,85,308,49,11,21,043,32,05,14,102,,18,27,186,40*79
$GPGSV,4,2,15,20,20,067,,26,22,299,20,12,21,111,34,31,40,298,32*7C
$GPGSV,4,3,15,28,53,261,49,25,61,114,46,04,03,342,,36,35,170,37*7B
$GPGSV,4,4,15,34,31,208,35,49,34,195,36,61,03,257,*42
$GLGSV,2,1,08,79,75,328,51,82,17,210,39,80,20,319,46,88,53,042,50*6C
$GLGSV,2,2,08,78,47,134,42,81,66,201,45,71,09,355,29,70,04,311,22*6D
$GAGSV,3,1,10,27,75,312,46,13,11,191,,29,11,254,26,19,15,298,33*66
$GAGSV,3,2,10,21,22,295,38,34,46,063,44,15,52,152,45,30,48,107,40*67
$GAGSV,3,3,10,04,01,350,,36,05,031,*68
$GBGSV,5,1,17,34,82,123,49,56,13,064,,24,23,146,46,44,30,054,38*65
$GBGSV,5,2,17,05,20,130,33,38,26,062,30,43,40,221,45,13,27,087,30*6F
$GBGSV,5,3,17,08,28,078,27,23,42,303,45,11,63,206,35,12,56,058,44*6F
$GBGSV,5,4,17,25,72,195,50,19,01,020,,10,08,080,,02,05,107,*6D
$GBGSV,5,5,17,60,10,109,*52
$GPGGA,154552.00,,,,,0,00,,,M,,M,,*4A
$PTNL,GGK,154552.00,010125,4742.4459947,N,01617.9738875,E,1,23,1.2,EHT668.5543,M*48
$GPGGQ,154552.00,010125,4742.4459947,N,01617.9738875,E,1,23,4.562,625.3433,M*39
$GPGFA,154552.00,21.187,31.769,2.228,0.914,14.977,3.874,,VVV*34
$GPLLK,154552.00,010125,,M,,M,1,23,1.4,,M*0D
$GNGMP,154552.00,,,,,DAAA,23,0.7,,,,*52
$GPGMP,154552.00,,,,,,04,,,,3.8,123*70
$GLGMP,154552.00,,,,,,06,,,,,*7B
$GAGMP,154552.00,,,,,,05,,,,,*75
$GBGMP,154552.00,,,,,,08,,,,,*7B
$PSSN,SNC,[0,315970000,2347]*4D
$GPZDA,154557.00,01,01,2025,,*64
$GPDTM,W84,,00.0000000,N,00.0000000,E,00.0000000,W84*5F
$GPRMC,154557.00,A,4742.4459882,N,01617.9738847,E,0.0,,010125,5.1,E,D*1E
$GPGLL,4742.4459882,N,01617.9738847,E,154557.00,A,D*6F
$GPGGA,154557.00,4742.4459882,N,01617.9738847,E,2,23,0.6,625.3313,M,43.2110,M,1.6,0123*44
$GNGNS,154557.00,4742.4459882,N,01617.9738847,E,DAAA,23,0.6,625.3313,43.2110,,*5F
$GPGNS,154557.00,,,,,,05,,,,1.6,123*78
$GLGNS,154557.00,,,,,,06,,,,,*7E
$GAGNS,154557.00,,,,,,05,,,,,*70
$GBGNS,154557.00,,,,,,07,,,,,*71
$GPLLQ,154557.00,010125,,M,,M,1,23,2.952,,M*1B
$GPVTG,,T,,M,0.01,N,0.01,K,D*26
$GPHDT,,T*1B
$GPTHS,,V*0E
$GPROT,,V*08
$PSSN,HRP,154557.00,010125,,,,,,,00,0,,*66
$PTNL,AVR,154557.00,,Yaw,,Tilt,,,,0,,00*30
$GPGSA,A,3,18,25,26,28,29,,,,,,,,1.2,0.6,1.0*3D
$GPGSA,A,3,78,79,80,81,82,88,,,,,,,1.2,0.6,1.0*3C
$GPGSA,A,3,15,21,27,30,34,,,,,,,,1.2,0.6,1.0*30
$GPGSA,A,3,12,23,24,25,34,43,44,,,,,,1.2,0.6,1.0*35
$GPGST,154557.00,2.965,1.543,0.830,33.753,1.363,1.100,2.376*66
$GPGBS,154557.00,7.581,6.737,13.771,26,0.0001,2.552,1.599*64
$GPGRS,154557.00,1,-0.8,0.4,2.6,-1.0,0.8,,,,,,,*66
$GPGRS,154557.00,1,-1.0,0.7,-2.6,-1.3,-1.5,-4.0,,,,,,*64
$GPGRS,154557.00,1,-0.4,4.3,-0.1,-0.9,-1.8,,,,,,,*65
$GPGRS,154557.00,1,0.1,-2.6,-2.6,-3.5,-0.9,-1.2,-7.3,,,,,*6E
$GPGSV,4,1,15,29,85,309,49,11,21,043,31,05,14,102,,18,27,186,39*75
$GPGSV,4,2,15,20,20,067,,26,23,299,38,12,21,111,33,31,40,298,35*74
$GPGSV,4,3,15,28,53,261,49,25,61,114,47,04,03,342,,36,35,170,37*7A
$GPGSV,4,4,15,34,31,208,35,49,34,195,36,61,03,257,*42
$GLGSV,2,1,08,79,75,328,51,82,17,210,39,80,20,319,46,88,53,042,51*6D
$GLGSV,2,2,08,78,47,134,44,81,66,201,44,71,09,355,32,70,04,311,23*61
$GAGSV,3,1,10,27,75,312,47,13,11,191,,29,11,254,26,19,15,298,33*67
$GAGSV,3,2,10,21,22,295,37,34,46,063,43,15,52,152,46,30,48,107,38*63
$GAGSV,3,3,10,04,01,350,,36,05,031,*68
$GBGSV,5,1,17,34,82,123,48,56,13,064,,24,23,146,46,44,30,054,38*64
$GBGSV,5,2,17,05,20,130,34,38,26,062,30,43,40,221,45,13,27,087,31*69
$GBGSV,5,3,17,08,28,078,27,23,42,303,46,11,63,206,32,12,56,058,44*6B
$GBGSV,5,4,17,25,72,195,49,19,01,020,,10,08,080,,02,05,107,*65
$GBGSV,5,5,17,60,10,109,*52
$GPGGA,154557.00,,,,,0,00,,,M,,M,,*4F
$PTNL,GGK,154557.00,010125,4742.4459882,N,01617.9738847,E,1,23,1.2,EHT668.5424,M*44
$GPGGQ,154557.00,010125,4742.4459882,N,01617.9738847,E,1,23,2.952,625.3313,M*39
$GPGFA,154557.00,14.667,19.481,1.543,0.830,33.753,2.376,,VVV*3A
$GPLLK,154557.00,010125,,M,,M,1,23,1.4,,M*08
$GNGMP,154557.00,,,,,DAAA,23,0.6,,,,*56
$GPGMP,154557.00,,,,,,05,,,,1.6,123*78
$GLGMP,154557.00,,,,,,06,,,,,*7E
$GAGMP,154557.00,,,,,,05,,,,,*70
$GBGMP,154557.00,,,,,,07,,,,,*71
$PSSN,SNC,[0,315975000,2347]*48
$GPZDA,154602.00,01,01,2025,,*67
$GPDTM,W84,,00.0000000,N,00.0000000,E,00.0000000,W84*5F
$GPRMC,154602.00,A,4742.4459837,N,01617.9738796,E,0.0,,010125,5.1,E,D*10
$GPGLL,4742.4459837,N,01617.9738796,E,154602.00,A,D*61
$GPGGA,154602.00,4742.4459837,N,01617.9738796,E,2,23,0.6,625.3400,M,43.2110,M,1.8,0123*41
$GNGNS,154602.00,4742.4459837,N,01617.9738796,E,DAAA,23,0.6,625.3400,43.2110,,*54
$GPGNS,154602.00,,,,,,05,,,,1.8,123*75
$GLGNS,154602.00,,,,,,06,,,,,*7D
$GAGNS,154602.00,,,,,,04,,,,,*72
$GBGNS,154602.00,,,,,,08,,,,,*7D
$GPLLQ,154602.00,010125,,M,,M,1,23,2.281,,M*1D
$GPVTG,,T,,M,0.01,N,0.01,K,D*26
$GPHDT,,T*1B
$GPTHS,,V*0E
$GPROT,,V*08
$PSSN,HRP,154602.00,010125,,,,,,,00,0,,*65
$PTNL,AVR,154602.00,,Yaw,,Tilt,,,,0,,00*33
$GPGSA,A,3,18,25,26,28,29,,,,,,,,1.1,0.6,0.9*36
$GPGSA,A,3,78,79,80,81,82,88,,,,,,,1.1,0.6,0.9*37
$GPGSA,A,3,15,21,27,34,,,,,,,,,1.1,0.6,0.9*38
$GPGSA,A,3,11,12,23,24,25,34,43,44,,,,,1.1,0.6,0.9*3E
$GPGST,154602.00,2.337,1.197,0.670,35.964,1.046,0.888,1.822*66
$GPGBS,154602.00,7.499,6.826,13.589,26,0.0001,1.758,1.606*6B
$GPGRS,154602.00,1,-0.7,0.1,1.8,-1.0,0.6,,,,,,,*6C
$GPGRS,154602.00,1,-0.5,0.3,-2.6,0.3,-1.6,-3.8,,,,,,*47
$GPGRS,154602.00,1,-0.4,4.5,-0.2,-1.7,,,,,,,,*66
$GPGRS,154602.00,1,-0.9,0.1,-2.1,-3.0,-4.1,-0.6,-0.1,-2.0,,,,*6F
$GPGSV,4,1,15,29,85,309,49,11,21,043,30,05,14,102,,18,27,186,39*74
$GPGSV,4,2,15,20,20,067,,26,23,299,40,12,21,111,33,31,40,298,28*77
$GPGSV,4,3,15,28,53,261,49,25,61,114,47,04,03,342,,36,35,170,37*7A
$GPGSV,4,4,15,34,31,208,35,49,34,195,36,61,03,257,*42
$GLGSV,2,1,08,79,75,328,52,82,17,210,39,80,20,319,45,88,53,042,51*6D
$GLGSV,2,2,08,78,47,134,44,81,66,201,42,71,09,355,33,70,04,311,*67
$GAGSV,3,1,10,27,75,312,47,13,11,191,,29,11,254,25,19,15,298,32*65
$GAGSV,3,2,10,21,22,295,36,34,46,063,43,15,52,151,46,30,48,107,34*6D
$GAGSV,3,3,10,04,01,349,,36,05,030,*61
$GBGSV,5,1,17,34,82,123,48,56,13,064,,24,23,146,46,44,30,054,36*6A
$GBGSV,5,2,17,05,20,130,33,38,26,062,32,43,41,221,45,13,27,087,32*6E
$GBGSV,5,3,17,08,28,078,28,23,42,303,47,11,63,206,27,12,56,058,45*60
$GBGSV,5,4,17,25,72,195,49,19,01,020,,10,08,080,,02,05,107,*65
$GBGSV,5,5,17,60,10,109,*52
$GPGGA,154602.00,,,,,0,00,,,M,,M,,*4C
$PTNL,GGK,154602.00,010125,4742.4459837,N,01617.9738796,E,1,23,1.1,EHT668.5511,M*4E
$GPGGQ,154602.00,010125,4742.4459837,N,01617.9738796,E,1,23,2.281,625.3400,M*37
$GPGFA,154602.00,11.384,14.943,1.197,0.670,35.964,1.822,,VVV*38
$GPLLK,154602.00,010125,,M,,M,1,23,1.3,,M*0C
$GNGMP,154602.00,,,,,DAAA,23,0.6,,,,*55
$GPGMP,154602.00,,,,,,05,,,,1.8,123*75
$GLGMP,154602.00,,,,,,06,,,,,*7D
$GAGMP,154602.00,,,,,,04,,,,,*72
$GBGMP,154602.00,,,,,,08,,,,,*7D
$PSSN,SNC,[0,315980000,2347]*42
$GPZDA,154607.00,01,01,2025,,*62
$GPDTM,W84,,00.0000000,N,00.0000000,E,00.0000000,W84*5F
$GPRMC,154607.00,A,4742.4459753,N,01617.9738827,E,0.0,,010125,5.1,E,D*1D
$GPGLL,4742.4459753,N,01617.9738827,E,154607.00,A,D*6C
$GPGGA,154607.00,4742.4459753,N,01617.9738827,E,2,22,0.7,625.3498,M,43.2110,M,2.8,0123*4E
$GNGNS,154607.00,4742.4459753,N,01617.9738827,E,DAAA,22,0.7,625.3498,43.2110,,*58
$GPGNS,154607.00,,,,,,05,,,,2.8,123*73
$GLGNS,154607.00,,,,,,06,,,,,*78
$GAGNS,154607.00,,,,,,04,,,,,*77
$GBGNS,154607.00,,,,,,07,,,,,*77
$GPLLQ,154607.00,010125,,M,,M,1,22,3.083,,M*18
$GPVTG,,T,,M,0.01,N,0.01,K,D*26
$GPHDT,,T*1B
$GPTHS,,V*0E
$GPROT,,V*08
$PSSN,HRP,154607.00,010125,,,,,,,00,0,,*60
$PTNL,AVR,154607.00,,Yaw,,Tilt,,,,0,,00*36
$GPGSA,A,3,18,25,26,28,29,,,,,,,,1.2,0.7,1.0*3C
$GPGSA,A,3,78,79,80,81,82,88,,,,,,,1.2,0.7,1.0*3D
$GPGSA,A,3,15,21,27,34,,,,,,,,,1.2,0.7,1.0*32
$GPGSA,A,3,12,23,24,25,34,43,44,,,,,,1.2,0.7,1.0*34
$GPGST,154607.00,2.804,1.624,0.912,36.401,1.415,1.211,2.457*65
$GPGBS,154607.00,7.603,6.931,13.792,26,0.0001,4.336,1.614*6A
$GPGRS,154607.00,1,-0.5,-0.2,4.3,-0.9,0.1,,,,,,,*44
$GPGRS,154607.00,1,-1.3,-0.2,-2.7,1.7,-0.8,-3.2,,,,,,*68
$GPGRS,154607.00,1,-0.2,5.8,-0.8,-1.8,,,,,,,,*6C
$GPGRS,154607.00,1,0.3,-1.7,-3.9,-4.3,-0.3,0.3,-1.1,,,,,*44
$GPGSV,4,1,15,29,85,310,49,11,21,043,29,05,14,102,,18,27,186,39*74
$GPGSV,4,2,15,20,20,067,,26,23,299,41,12,21,111,31,31,40,298,26*7A
$GPGSV,4,3,15,28,53,261,49,25,61,114,47,04,03,342,,36,35,170,37*7A
$GPGSV,4,4,15,34,31,208,35,49,34,195,36,61,03,257,*42
$GLGSV,3,1,09,79,75,328,51,82,17,210,39,80,20,319,43,88,53,042,52*6B
$GLGSV,3,2,09,78,46,134,45,81,66,201,44,72,00,038,,71,09,355,34*68
$GLGSV,3,3,09,70,04,311,25*5B
$GAGSV,3,1,10,27,75,312,47,13,11,191,,29,11,254,26,19,15,298,30*64
$GAGSV,3,2,10,21,22,295,36,34,46,063,44,15,52,151,46,30,48,107,29*66
$GAGSV,3,3,10,04,01,349,,36,05,030,*61
$GBGSV,5,1,17,34,82,122,48,56,13,064,,24,23,146,46,44,30,054,36*6B
$GBGSV,5,2,17,05,20,130,33,38,26,062,32,43,41,221,46,13,27,087,32*6D
$GBGSV,5,3,17,08,28,078,29,23,42,303,47,11,63,207,26,12,56,058,44*60
$GBGSV,5,4,17,25,72,195,49,19,01,020,,10,08,080,,02,05,107,*65
$GBGSV,5,5,17,60,10,109,*52
$GPGGA,154607.00,,,,,0,00,,,M,,M,,*49
$PTNL,GGK,154607.00,010125,4742.4459753,N,01617.9738827,E,1,22,1.2,EHT668.5609,M*4B
$GPGGQ,154607.00,010125,4742.4459753,N,01617.9738827,E,1,22,3.083,625.3498,M*3B
$GPGFA,154607.00,15.437,20.150,1.624,0.912,36.401,2.457,,VVV*3F
$GPLLK,154607.00,010125,,M,,M,1,22,1.4,,M*0F
$GNGMP,154607.00,,,,,DAAA,22,0.7,,,,*50
$GPGMP,154607.00,,,,,,05,,,,2.8,123*73
$GLGMP,154607.00,,,,,,06,,,,,*78
$GAGMP,154607.00,,,,,,04,,,,,*77
$GBGMP,154607.00,,,,,,07,,,,,*77
$PSSN,SNC,[0,315985000,2347]*47
$GPZDA,154612.00,01,01,2025,,*66
$GPDTM,W84,,00.0000000,N,00.0000000,E,00.0000000,W84*5F
$GPRMC,154612.00,A,4742.4459693,N,01617.9738888,E,0.0,,010125,5.1,E,D*11
$GPGLL,4742.4459693,N,01617.9738888,E,154612.00,A,D*60
$GPGGA,154612.00,4742.4459693,N,01617.9738888,E,2,22,0.7,625.3613,M,43.2110,M,3.7,0123*4D
$GNGNS,154612.00,4742.4459693,N,01617.9738888,E,DAAA,22,0.7,625.3613,43.2110,,*55
$GPGNS,154612.00,,,,,,06,,,,3.7,123*7A
$GLGNS,154612.00,,,,,,06,,,,,*7C
$GAGNS,154612.00,,,,,,03,,,,,*74
$GBGNS,154612.00,,,,,,07,,,,,*73
$GPLLQ,154612.00,010125,,M,,M,1,22,3.831,,M*1D
$GPVTG,,T,,M,0.00,N,0.00,K,D*26
$GPHDT,,T*1B
$GPTHS,,V*0E
$GPROT,,V*08
$PSSN,HRP,154612.00,010125,,,,,,,00,0,,*64
$PTNL,AVR,154612.00,,Yaw,,Tilt,,,,0,,00*32
$GPGSA,A,3,18,25,26,28,29,31,,,,,,,1.2,0.7,1.0*3E
$GPGSA,A,3,78,79,80,81,82,88,,,,,,,1.2,0.7,1.0*3D
$GPGSA,A,3,15,27,34,,,,,,,,,,1.2,0.7,1.0*31
$GPGSA,A,3,12,23,24,25,34,43,44,,,,,,1.2,0.7,1.0*34
$GPGST,154612.00,2.560,2.037,1.027,42.046,1.662,1.563,3.078*6B
$GPGBS,154612.00,6.057,6.998,10.915,31,0.0001,-3.151,1.105*41
$GPGRS,154612.00,1,0.6,-0.4,4.3,-0.6,0.4,-3.2,,,,,,*60
$GPGRS,154612.00,1,-1.2,-0.0,-4.4,2.9,0.1,-2.3,,,,,,*43
$GPGRS,154612.00,1,0.3,-0.6,-1.2,,,,,,,,,*63
$GPGRS,154612.00,1,0.7,0.2,-4.2,-3.2,0.5,0.7,-1.6,,,,,*4F
$GPGSV,4,1,15,29,85,310,50,11,21,043,27,05,14,102,,18,27,186,40*7C
$GPGSV,4,2,15,20,20,067,,26,23,299,41,12,21,111,29,31,40,298,40*73
$GPGSV,4,3,15,28,53,261,48,25,61,114,46,04,03,342,,36,35,170,37*7A
$GPGSV,4,4,15,34,31,208,35,49,34,195,36,61,03,257,*42
$GLGSV,3,1,09,79,75,328,51,82,17,210,40,80,20,319,41,88,53,042,52*67
$GLGSV,3,2,09,78,46,134,46,81,66,201,46,72,00,038,,71,09,355,34*69
$GLGSV,3,3,09,70,04,311,25*5B
$GAGSV,3,1,10,27,75,312,47,13,11,191,,29,11,254,25,19,15,298,29*6F
$GAGSV,3,2,10,21,22,295,34,34,46,063,45,15,52,151,46,30,48,107,26*6A
$GAGSV,3,3,10,04,01,349,,36,05,030,*61
$GBGSV,5,1,17,34,82,122,48,56,13,064,,24,23,146,45,44,30,054,36*68
$GBGSV,5,2,17,05,20,130,34,38,26,062,31,43,41,221,47,13,27,087,32*68
$GBGSV,5,3,17,08,28,078,29,23,42,303,47,11,63,207,28,12,56,058,44*6E
$GBGSV,5,4,17,25,72,195,48,19,01,020,,10,08,080,,02,05,107,*64
$GBGSV,5,5,17,60,10,109,*52
$GPGGA,154612.00,,,,,0,00,,,M,,M,,*4D
$PTNL,GGK,154612.00,010125,4742.4459693,N,01617.9738888,E,1,22,1.2,EHT668.5724,M*49
$GPGGQ,154612.00,010125,4742.4459693,N,01617.9738888,E,1,22,3.831,625.3613,M*37
$GPGFA,154612.00,19.367,25.240,2.037,1.027,42.046,3.078,,VVV*37
$GPLLK,154612.00,010125,,M,,M,1,22,1.4,,M*0B
$GNGMP,154612.00,,,,,DAAA,22,0.7,,,,*54
$GPGMP,154612.00,,,,,,06,,,,3.7,123*7A
$GLGMP,154612.00,,,,,,06,,,,,*7C
$GAGMP,154612.00,,,,,,03,,,,,*74
$GBGMP,154612.00,,,,,,07,,,,,*73
$PSSN,SNC,[0,315990000,2347]*43
$GPZDA,154617.00,01,01,2025,,*63
$GPDTM,W84,,00.0000000,N,00.0000000,E,00.0000000,W84*5F
$GPRMC,154617.00,A,4742.4459722,N,01617.9738903,E,0.0,,010125,5.1,E,D*1D
$GPGLL,4742.4459722,N,01617.9738903,E,154617.00,A,D*6C
$GPGGA,154617.00,4742.4459722,N,01617.9738903,E,2,22,0.7,625.3689,M,43.2110,M,2.0,0123*44
$GNGNS,154617.00,4742.4459722,N,01617.9738903,E,DAAA,22,0.7,625.3689,43.2110,,*5A
$GPGNS,154617.00,,,,,,06,,,,2.0,123*79
$GLGNS,154617.00,,,,,,06,,,,,*79
$GAGNS,154617.00,,,,,,03,,,,,*71
$GBGNS,154617.00,,,,,,07,,,,,*76
$GPLLQ,154617.00,010125,,M,,M,1,22,2.509,,M*1F
$GPVTG,,T,,M,0.00,N,0.01,K,D*27
$GPHDT,,T*1B
$GPTHS,,V*0E
$GPROT,,V*08
$PSSN,HRP,154617.00,010125,,,,,,,00,0,,*61
$PTNL,AVR,154617.00,,Yaw,,Tilt,,,,0,,00*37
$GPGSA,A,3,18,25,26,28,29,31,,,,,,,1.2,0.7,1.0*3E
$GPGSA,A,3,78,79,80,81,82,88,,,,,,,1.2,0.7,1.0*3D
$GPGSA,A,3,15,27,34,,,,,,,,,,1.2,0.7,1.0*31
$GPGSA,A,3,12,23,24,25,34,43,44,,,,,,1.2,0.7,1.0*34
$GPGST,154617.00,2.596,1.329,0.670,41.880,1.086,1.018,2.020*65
$GPGBS,154617.00,5.973,6.776,10.959,26,0.0001,3.039,1.594*66
$GPGRS,154617.00,1,0.6,-0.6,3.0,-0.6,0.5,0.3,,,,,,*4D
$GPGRS,154617.00,1,-1.3,0.1,-5.9,2.6,0.3,-2.4,,,,,,*6D
$GPGRS,154617.00,1,0.1,-0.6,-1.3,,,,,,,,,*65
$GPGRS,154617.00,1,0.3,0.4,-5.1,-3.3,0.2,0.5,-1.6,,,,,*4E
$GPGSV,4,1,15,29,85,311,50,11,21,043,25,05,14,102,,18,27,186,40*7F
$GPGSV,4,2,15,20,20,067,,26,23,299,41,12,21,111,26,31,40,298,41*7D
$GPGSV,4,3,15,28,53,261,49,25,61,114,46,04,03,342,,36,35,170,37*7B
$GPGSV,4,4,15,34,31,208,35,49,34,195,36,61,03,257,*42
$GLGSV,3,1,09,79,75,328,52,82,17,210,40,80,20,319,40,88,53,042,52*65
$GLGSV,3,2,09,78,46,135,46,81,66,201,47,72,00,038,,71,09,355,30*6D
$GLGSV,3,3,09,70,04,311,25*5B
$GAGSV,3,1,10,27,76,312,46,13,11,191,,29,11,254,26,19,15,298,28*6F
$GAGSV,3,2,10,21,22,295,32,34,46,063,45,15,52,151,46,30,48,107,27*6D
$GAGSV,3,3,10,04,01,349,,36,05,030,*61
$GBGSV,5,1,17,34,82,122,48,56,13,064,,24,23,146,44,44,30,054,37*68
$GBGSV,5,2,17,05,20,130,34,38,26,062,31,43,41,221,48,13,27,087,32*67
$GBGSV,5,3,17,23,42,303,47,08,28,078,30,11,63,207,30,12,56,058,44*6F
$GBGSV,5,4,17,25,72,195,48,19,01,020,,10,08,080,,02,05,107,*64
$GBGSV,5,5,17,60,10,109,*52
$GPGGA,154617.00,,,,,0,00,,,M,,M,,*48
$PTNL,GGK,154617.00,010125,4742.4459722,N,01617.9738903,E,1,22,1.2,EHT668.5800,M*4C
$GPGGQ,154617.00,010125,4742.4459722,N,01617.9738903,E,1,22,2.509,625.3689,M*3F
$GPGFA,154617.00,12.637,16.560,1.329,0.670,41.880,2.020,,VVV*3B
$GPLLK,154617.00,010125,,M,,M,1,22,1.4,,M*0E
$GNGMP,154617.00,,,,,DAAA,22,0.7,,,,*51
$GPGMP,154617.00,,,,,,06,,,,2.0,123*79
$GLGMP,154617.00,,,,,,06,,,,,*79
$GAGMP,154617.00,,,,,,03,,,,,*71
$GBGMP,154617.00,,,,,,07,,,,,*76
$PSSN,SNC,[0,315995000,2347]*46
$GPZDA,154622.00,01,01,2025,,*65
$GPDTM,W84,,00.0000000,N,00.0000000,E,00.0000000,W84*5F
$GPRMC,154622.00,A,4742.4459638,N,01617.9738995,E,0.0,,010125,5.1,E,D*1E
$GPGLL,4742.4459638,N,01617.9738995,E,154622.00,A,D*6F
$GPGGA,154622.00,4742.4459638,N,01617.9738995,E,2,21,0.7,625.3756,M,43.2110,M,1.8,0123*4C
$GNGNS,154622.00,4742.4459638,N,01617.9738995,E,DAAA,21,0.7,625.3756,43.2110,,*59
$GPGNS,154622.00,,,,,,05,,,,1.8,123*77
$GLGNS,154622.00,,,,,,06,,,,,*7F
$GAGNS,154622.00,,,,,,03,,,,,*77
$GBGNS,154622.00,,,,,,07,,,,,*70
$GPLLQ,154622.00,010125,,M,,M,1,21,2.226,,M*10
$GPVTG,,T,,M,0.01,N,0.01,K,D*26
$GPHDT,,T*1B
$GPTHS,,V*0E
$GPROT,,V*08
$PSSN,HRP,154622.00,010125,,,,,,,00,0,,*67
$PTNL,AVR,154622.00,,Yaw,,Tilt,,,,0,,00*31
$GPGSA,A,3,18,25,26,28,29,,,,,,,,1.2,0.7,1.0*3C
$GPGSA,A,3,78,79,80,81,82,88,,,,,,,1.2,0.7,1.0*3D
$GPGSA,A,3,15,27,34,,,,,,,,,,1.2,0.7,1.0*31
$GPGSA,A,3,12,23,24,25,34,43,44,,,,,,1.2,0.7,1.0*34
$GPGST,154622.00,2.474,1.162,0.656,36.022,1.016,0.865,1.782*61
$GPGBS,154622.00,7.699,6.899,14.065,26,0.0001,2.172,1.600*64
$GPGRS,154622.00,1,-0.5,-0.4,2.2,-0.7,0.3,,,,,,,*4E
$GPGRS,154622.00,1,-0.9,0.1,-5.3,2.6,-0.8,-2.7,,,,,,*4F
$GPGRS,154622.00,1,-0.0,-0.2,-0.8,,,,,,,,,*41
$GPGRS,154622.00,1,-0.5,0.2,-5.1,-3.1,0.0,0.3,-0.3,,,,,*67
$GPGSV,4,1,15,29,85,311,50,11,21,043,23,05,14,102,,18,27,186,40*79
$GPGSV,4,2,15,20,20,067,24,26,23,299,41,12,21,111,25,31,40,298,41*78
$GPGSV,4,3,15,28,53,261,48,25,61,114,46,04,03,342,,36,35,170,37*7A
$GPGSV,4,4,15,34,31,208,34,49,34,195,36,61,03,257,*43
$GLGSV,3,1,09,79,76,328,51,82,17,210,40,80,20,319,40,88,53,042,51*66
$GLGSV,3,2,09,78,46,135,46,81,66,201,47,72,00,038,,71,09,355,29*65
$GLGSV,3,3,09,70,04,311,*5C
$GAGSV,3,1,10,27,76,312,46,13,11,191,,29,10,254,31,19,15,298,29*69
$GAGSV,3,2,10,21,22,295,31,34,46,063,46,15,52,151,46,30,47,107,31*65
$GAGSV,3,3,10,04,01,349,,36,05,030,*61
$GBGSV,5,1,17,34,82,121,49,56,13,064,,24,23,146,43,44,30,054,37*6D
$GBGSV,5,2,17,05,21,130,34,38,26,062,31,43,41,221,48,13,27,087,32*66
$GBGSV,5,3,17,23,42,303,47,08,28,078,29,11,63,207,34,12,56,058,43*64
$GBGSV,5,4,17,25,72,195,48,19,01,020,,10,08,080,,02,05,107,*64
$GBGSV,5,5,17,60,10,109,*52
$GPGGA,154622.00,,,,,0,00,,,M,,M,,*4E
$PTNL,GGK,154622.00,010125,4742.4459638,N,01617.9738995,E,1,21,1.2,EHT668.5867,M*4D
$GPGGQ,154622.00,010125,4742.4459638,N,01617.9738995,E,1,21,2.226,625.3756,M*36
$GPGFA,154622.00,11.043,14.609,1.162,0.656,36.022,1.782,,VVV*30
$GPLLK,154622.00,010125,,M,,M,1,21,1.4,,M*0B
$GNGMP,154622.00,,,,,DAAA,21,0.7,,,,*54
$GPGMP,154622.00,,,,,,05,,,,1.8,123*77
$GLGMP,154622.00,,,,,,06,,,,,*7F
$GAGMP,154622.00,,,,,,03,,,,,*77
$GBGMP,154622.00,,,,,,07,,,,,*70
$PSSN,SNC,[0,316000000,2347]*40
$GPZDA,154627.00,01,01,2025,,*60
$GPDTM,W84,,00.0000000,N,00.0000000,E,00.0000000,W84*5F
$GPRMC,154627.00,A,4742.4459589,N,01617.9739016,E,0.0,,010125,5.1,E,D*11
$GPGLL,4742.4459589,N,01617.9739016,E,154627.00,A,D*60
$GPGGA,154627.00,4742.4459589,N,01617.9739016,E,2,23,0.7,625.3802,M,43.2110,M,2.8,0123*4C
$GNGNS,154627.00,4742.4459589,N,01617.9739016,E,DAAA,23,0.7,625.3802,43.2110,,*5A
$GPGNS,154627.00,,,,,,05,,,,2.8,123*71
$GLGNS,154627.00,,,,,,06,,,,,*7A
$GAGNS,154627.00,,,,,,04,,,,,*75
$GBGNS,154627.00,,,,,,08,,,,,*7A
$GPLLQ,154627.00,010125,,M,,M,1,23,2.214,,M*16
$GPVTG,,T,,M,0.01,N,0.02,K,D*25
$GPHDT,,T*1B
$GPTHS,,V*0E
$GPROT,,V*08
$PSSN,HRP,154627.00,010125,,,,,,,00,0,,*62
$PTNL,AVR,154627.00,,Yaw,,Tilt,,,,0,,00*34
$GPGSA,A,3,18,25,26,28,29,,,,,,,,1.2,0.7,1.0*3C
$GPGSA,A,3,78,79,80,81,82,88,,,,,,,1.2,0.7,1.0*3D
$GPGSA,A,3,15,27,30,34,,,,,,,,,1.2,0.7,1.0*32
$GPGSA,A,3,11,12,23,24,25,34,43,44,,,,,1.2,0.7,1.0*34
$GPGST,154627.00,2.041,1.157,0.658,36.128,1.012,0.865,1.769*64
$GPGBS,154627.00,7.622,6.868,13.952,26,0.0001,1.784,1.609*60
$GPGRS,154627.00,1,-0.6,0.2,1.8,-0.6,0.1,,,,,,,*69
$GPGRS,154627.00,1,-0.9,-0.6,-4.1,1.8,-1.5,-2.4,,,,,,*61
$GPGRS,154627.00,1,-0.1,0.0,2.3,-0.5,,,,,,,,*48
$GPGRS,154627.00,1,0.9,-1.7,0.3,-3.7,-2.5,0.3,0.6,1.8,,,,*63
$GPGSV,4,1,15,29,85,312,49,11,21,043,21,05,14,102,,18,27,186,40*70
$GPGSV,4,2,15,20,20,067,28,26,23,299,41,12,21,111,27,31,40,298,40*77
$GPGSV,4,3,15,28,53,261,48,25,61,114,47,04,03,342,,36,35,170,37*7B
$GPGSV,4,4,15,34,31,208,34,49,34,195,36,61,03,257,*43
$GLGSV,3,1,09,79,76,328,50,82,17,210,39,80,20,319,41,88,53,042,51*68
$GLGSV,3,2,09,78,46,135,47,81,66,201,46,72,00,038,,71,09,354,30*6C
$GLGSV,3,3,09,70,04,311,24*5A
$GAGSV,3,1,10,27,76,312,45,13,11,191,,29,10,254,31,19,15,298,28*6B
$GAGSV,3,2,10,21,22,295,31,34,46,063,46,15,52,151,46,30,47,107,35*61
$GAGSV,3,3,10,04,01,349,,36,05,030,*61
$GBGSV,5,1,17,34,82,121,49,56,13,064,,24,23,146,43,44,30,054,37*6D
$GBGSV,5,2,17,05,21,130,34,38,26,062,30,43,41,221,48,13,27,087,32*67
$GBGSV,5,3,17,23,42,303,47,08,28,078,30,11,63,207,36,12,56,058,42*6F
$GBGSV,5,4,17,25,72,194,48,19,01,020,,10,08,080,,02,05,107,*65
$GBGSV,5,5,17,60,10,109,*52
$GPGGA,154627.00,,,,,0,00,,,M,,M,,*4B
$PTNL,GGK,154627.00,010125,4742.4459589,N,01617.9739016,E,1,23,1.2,EHT668.5912,M*43
$GPGGQ,154627.00,010125,4742.4459589,N,01617.9739016,E,1,23,2.214,625.3802,M*34
$GPGFA,154627.00,10.998,14.506,1.157,0.658,36.128,1.769,,VVV*31
$GPLLK,154627.00,010125,,M,,M,1,23,1.4,,M*0C
$GNGMP,154627.00,,,,,DAAA,23,0.7,,,,*53
$GPGMP,154627.00,,,,,,05,,,,2.8,123*71
$GLGMP,154627.00,,,,,,06,,,,,*7A
$GAGMP,154627.00,,,,,,04,,,,,*75
$GBGMP,154627.00,,,,,,08,,,,,*7A
$PSSN,SNC,[0,316005000,2347]*45
$GPZDA,154632.00,01,01,2025,,*64
$GPDTM,W84,,00.0000000,N,00.0000000,E,00.0000000,W84*5F
$GPRMC,154632.00,A,4742.4459533,N,01617.9739012,E,0.0,,010125,5.1,E,D*10
$GPGLL,4742.4459533,N,01617.9739012,E,154632.00,A,D*61
$GPGGA,154632.00,4742.4459533,N,01617.9739012,E,2,23,0.7,625.3869,M,43.2110,M,3.8,0123*41
$GNGNS,154632.00,4742.4459533,N,01617.9739012,E,DAAA,23,0.7,625.3869,43.2110,,*56
$GPGNS,154632.00,,,,,,05,,,,3.8,123*74
$GLGNS,154632.00,,,,,,06,,,,,*7E
$GAGNS,154632.00,,,,,,04,,,,,*71
$GBGNS,154632.00,,,,,,08,,,,,*7E
$GPLLQ,154632.00,010125,,M,,M,1,23,2.231,,M*15
$GPVTG,,T,,M,0.01,N,0.01,K,D*26
$GPHDT,,T*1B
$GPTHS,,V*0E
$GPROT,,V*08
$PSSN,HRP,154632.00,010125,,,,,,,00,0,,*66
$PTNL,AVR,154632.00,,Yaw,,Tilt,,,,0,,00*30
$GPGSA,A,3,18,25,26,28,29,,,,,,,,1.2,0.7,1.0*3C
$GPGSA,A,3,78,79,80,81,82,88,,,,,,,1.2,0.7,1.0*3D
$GPGSA,A,3,15,27,30,34,,,,,,,,,1.2,0.7,1.0*32
$GPGSA,A,3,11,12,23,24,25,34,43,44,,,,,1.2,0.7,1.0*34
$GPGST,154632.00,1.791,1.165,0.664,36.371,1.017,0.874,1.783*68
$GPGBS,154632.00,7.640,6.934,14.009,26,0.0001,2.066,1.619*61
$GPGRS,154632.00,1,-0.6,0.1,2.1,-0.5,0.2,,,,,,,*64
$GPGRS,154632.00,1,0.3,-0.3,-2.5,1.5,-2.0,-2.2,,,,,,*48
$GPGRS,154632.00,1,-0.1,-0.0,1.2,-0.9,,,,,,,,*6F
$GPGRS,154632.00,1,1.1,-2.4,1.2,-2.1,-2.2,-0.1,0.6,2.9,,,,*43
$GPGSV,4,1,15,29,85,312,49,11,21,043,21,05,14,102,,18,27,186,40*70
