$GPZDA,004442.00,01,01,2025,,*65
$GPDTM,W84,,00.0000000,N,00.0000000,E,00.0000000,W84*5F
$GPRMC,004442.00,A,4742.4463545,N,01617.9728963,E,0.0,,010125,5.1,E,D*16
$GPGLL,4742.4463545,N,01617.9728963,E,004442.00,A,D*67
$GPGGA,004442.00,4742.4463545,N,01617.9728963,E,2,20,0.8,625.5404,M,43.2111,M,2.2,0123*40
$GNGNS,004442.00,4742.4463545,N,01617.9728963,E,DAAA,20,0.8,625.5404,43.2111,,*5C
$GPGNS,004442.00,,,,,,05,,,,2.2,123*7E
$GLGNS,004442.00,,,,,,03,,,,,*7A
$GAGNS,004442.00,,,,,,06,,,,,*72
$GBGNS,004442.00,,,,,,06,,,,,*71
$GPLLQ,004442.00,010125,,M,,M,1,20,3.047,,M*15
$GPVTG,,T,,M,0.00,N,0.00,K,D*26
$GPHDT,,T*1B
$GPTHS,,V*0E
$GPROT,,V*08
$PSSN,HRP,004442.00,010125,,,,,,,00,0,,*67
$PTNL,AVR,004442.00,,Yaw,,Tilt,,,,0,,00*31
$GPGSA,A,3,02,03,17,19,21,,,,,,,,1.4,0.8,1.2*30
$GPGSA,A,3,69,84,85,,,,,,,,,,1.4,0.8,1.2*32
$GPGSA,A,3,04,06,09,10,11,36,,,,,,,1.4,0.8,1.2*33
$GPGSA,A,3,19,20,29,30,32,35,,,,,,,1.4,0.8,1.2*39
$GPGST,004442.00,1.810,2.457,0.513,36.088,2.009,1.506,1.726*64
$GPGBS,004442.00,10.595,8.981,9.561,03,0.0001,0.831,0.594*62
$GPGRS,004442.00,1,-0.8,0.8,0.8,-0.2,-0.3,,,,,,,*42
$GPGRS,004442.00,1,-1.1,-1.9,1.0,,,,,,,,,*6F
$GPGRS,004442.00,1,0.9,0.1,-0.7,1.3,1.8,0.5,,,,,,*64
$GPGRS,004442.00,1,-3.7,1.1,1.4,2.6,1.9,-0.3,,,,,,*46
$GPGSV,5,1,17,01,78,130,,32,19,045,31,19,17,320,40,04,29,200,33*7B
$GPGSV,5,2,17,31,20,111,28,28,25,081,30,17,38,295,36,21,52,140,41*76
$GPGSV,5,3,17,03,66,285,50,02,73,151,47,09,04,212,,08,04,180,*79
$GPGSV,5,4,17,22,03,283,,36,35,170,41,34,31,208,,49,34,195,37*78
$GPGSV,5,5,17,61,03,257,*4B
$GLGSV,3,1,09,69,76,026,51,85,48,321,48,70,33,230,,68,24,041,28*6C
$GLGSV,3,2,09,84,72,155,38,78,03,061,,83,08,147,,77,08,007,*6B
$GLGSV,3,3,09,76,00,326,21*59
$GAGSV,3,1,11,11,71,121,39,19,15,042,24,12,18,124,26,09,45,187,41*62
$GAGSV,3,2,11,10,41,123,42,04,64,089,44,06,64,155,44,36,55,307,47*6B
$GAGSV,3,3,11,30,06,320,31,34,05,305,34,02,03,273,26*5E
$GBGSV,5,1,18,20,80,237,50,35,26,312,45,30,27,165,41,06,29,069,33*6F
$GBGSV,5,2,18,05,24,128,,39,27,053,23,09,30,084,31,19,29,236,37*61
$GBGSV,5,3,18,16,29,065,31,32,40,056,43,48,56,236,,29,65,235,51*68
$GBGSV,5,4,18,25,03,025,,13,03,083,,23,04,071,,02,08,105,*67
$GBGSV,5,5,18,57,06,098,,60,10,109,*68
$GPGGA,004442.00,,,,,0,00,,,M,,M,,*4E
$PTNL,GGK,004442.00,010125,4742.4463545,N,01617.9728963,E,1,20,1.4,EHT668.7514,M*49
$GPGGQ,004442.00,010125,4742.4463545,N,01617.9728963,E,1,20,3.047,625.5404,M*39
$GPGFA,004442.00,23.362,14.157,2.457,0.513,36.088,1.726,,VVV*31
$GPLLK,004442.00,010125,,M,,M,1,20,1.7,,M*09
$GNGMP,004442.00,,,,,DAAA,20,0.8,,,,*5A
$GPGMP,004442.00,,,,,,05,,,,2.2,123*7E
$GLGMP,004442.00,,,,,,03,,,,,*7A
$GAGMP,004442.00,,,,,,06,,,,,*72
$GBGMP,004442.00,,,,,,06,,,,,*71
$PSSN,SNC,[0,261900000,2347]*48
$GPZDA,004447.00,01,01,2025,,*60
$GPDTM,W84,,00.0000000,N,00.0000000,E,00.0000000,W84*5F
$GPRMC,004447.00,A,4742.4463522,N,01617.9729104,E,0.0,,010125,5.1,E,D*1A
$GPGLL,4742.4463522,N,01617.9729104,E,004447.00,A,D*6B
$GPGGA,004447.00,4742.4463522,N,01617.9729104,E,2,19,0.8,625.5398,M,43.2111,M,3.0,0123*47
$GNGNS,004447.00,4742.4463522,N,01617.9729104,E,DAAA,19,0.8,625.5398,43.2111,,*58
$GPGNS,004447.00,,,,,,04,,,,3.0,123*79
$GLGNS,004447.00,,,,,,03,,,,,*7F
$GAGNS,004447.00,,,,,,06,,,,,*77
$GBGNS,004447.00,,,,,,06,,,,,*74
$GPLLQ,004447.00,010125,,M,,M,1,19,4.722,,M*19
$GPVTG,,T,,M,0.00,N,0.01,K,D*27
$GPHDT,,T*1B
$GPTHS,,V*0E
$GPROT,,V*08
$PSSN,HRP,004447.00,010125,,,,,,,00,0,,*62
$PTNL,AVR,004447.00,,Yaw,,Tilt,,,,0,,00*34
$GPGSA,A,3,02,03,19,21,,,,,,,,,1.4,0.8,1.2*36
$GPGSA,A,3,69,84,85,,,,,,,,,,1.4,0.8,1.2*32
$GPGSA,A,3,04,06,09,10,11,36,,,,,,,1.4,0.8,1.2*33
$GPGSA,A,3,19,20,29,30,32,35,,,,,,,1.4,0.8,1.2*39
$GPGST,004447.00,2.202,3.926,0.698,39.833,3.048,2.571,2.528*6E
$GPGBS,004447.00,12.471,10.321,10.309,03,0.0001,1.109,0.605*6F
$GPGRS,004447.00,1,-1.0,1.1,-1.0,0.0,,,,,,,,*4D
$GPGRS,004447.00,1,-0.9,-2.7,2.3,,,,,,,,,*6E
$GPGRS,004447.00,1,0.6,-0.0,-0.8,2.2,2.2,0.2,,,,,,*41
$GPGRS,004447.00,1,-4.6,1.1,1.2,2.4,1.3,-0.4,,,,,,*4C
$GPGSV,5,1,17,01,78,131,,32,19,045,31,19,17,320,39,04,29,200,32*75
$GPGSV,5,2,17,31,20,111,30,28,25,081,22,17,38,295,35,21,52,140,40*7E
$GPGSV,5,3,17,03,66,285,50,02,73,151,46,09,04,212,,08,04,180,*78
$GPGSV,5,4,17,22,03,283,,36,35,170,40,34,31,208,,49,34,195,37*79
$GPGSV,5,5,17,61,03,257,*4B
$GLGSV,3,1,09,69,76,026,52,85,49,321,49,70,33,230,,68,24,041,30*66
$GLGSV,3,2,09,84,72,155,37,78,03,061,,83,08,147,,77,08,007,*64
$GLGSV,3,3,09,76,00,326,21*59
$GAGSV,3,1,11,11,71,121,39,19,15,042,24,12,18,124,24,09,45,187,41*60
$GAGSV,3,2,11,10,41,123,43,04,64,089,44,06,64,155,44,36,55,307,47*6A
$GAGSV,3,3,11,30,06,320,31,34,05,305,33,02,03,273,22*5D
$GBGSV,5,1,18,20,80,237,50,35,26,312,45,30,27,165,42,06,29,069,33*6C
$GBGSV,5,2,18,05,24,128,,39,27,053,22,09,30,084,31,19,29,236,35*62
$GBGSV,5,3,18,16,29,065,32,32,40,056,43,48,57,236,,29,65,235,51*6A
$GBGSV,5,4,18,25,03,025,,13,03,083,,23,04,071,,02,08,105,*67
$GBGSV,5,5,18,57,06,098,,60,10,109,*68
$GPGGA,004447.00,,,,,0,00,,,M,,M,,*4B
$PTNL,GGK,004447.00,010125,4742.4463522,N,01617.9729104,E,1,19,1.4,EHT668.7508,M*42
$GPGGQ,004447.00,010125,4742.4463522,N,01617.9729104,E,1,19,4.722,625.5398,M*3E
$GPGFA,004447.00,37.328,20.731,3.926,0.698,39.833,2.528,,VVV*3C
$GPLLK,004447.00,010125,,M,,M,1,19,1.7,,M*06
$GNGMP,004447.00,,,,,DAAA,19,0.8,,,,*55
$GPGMP,004447.00,,,,,,04,,,,3.0,123*79
$GLGMP,004447.00,,,,,,03,,,,,*7F
$GAGMP,004447.00,,,,,,06,,,,,*77
$GBGMP,004447.00,,,,,,06,,,,,*74
$PSSN,SNC,[0,261905000,2347]*4D
$GPZDA,004452.00,01,01,2025,,*64
$GPDTM,W84,,00.0000000,N,00.0000000,E,00.0000000,W84*5F
$GPRMC,004452.00,A,4742.4463541,N,01617.9729122,E,0.0,,010125,5.1,E,D*1F
$GPGLL,4742.4463541,N,01617.9729122,E,004452.00,A,D*6E
$GPGGA,004452.00,4742.4463541,N,01617.9729122,E,2,20,0.8,625.5303,M,43.2111,M,1.8,0123*40
$GNGNS,004452.00,4742.4463541,N,01617.9729122,E,DAAA,20,0.8,625.5303,43.2111,,*55
$GPGNS,004452.00,,,,,,05,,,,1.8,123*76
$GLGNS,004452.00,,,,,,04,,,,,*7C
$GAGNS,004452.00,,,,,,06,,,,,*73
$GBGNS,004452.00,,,,,,05,,,,,*73
$GPLLQ,004452.00,010125,,M,,M,1,20,4.248,,M*1E
$GPVTG,,T,,M,0.01,N,0.01,K,D*26
$GPHDT,,T*1B
$GPTHS,,V*0E
$GPROT,,V*08
$PSSN,HRP,004452.00,010125,,,,,,,00,0,,*66
$PTNL,AVR,004452.00,,Yaw,,Tilt,,,,0,,00*30
$GPGSA,A,3,02,03,17,19,21,,,,,,,,1.4,0.8,1.2*30
$GPGSA,A,3,68,69,84,85,,,,,,,,,1.4,0.8,1.2*3C
$GPGSA,A,3,04,06,09,10,11,36,,,,,,,1.4,0.8,1.2*33
$GPGSA,A,3,20,29,30,32,35,,,,,,,,1.4,0.8,1.2*31
$GPGST,004452.00,3.025,3.408,0.707,35.823,2.794,2.076,2.434*6E
$GPGBS,004452.00,9.967,9.136,10.110,17,0.0001,-1.226,0.723*4E
$GPGRS,004452.00,1,-0.8,1.0,-1.2,-0.6,0.4,,,,,,,*42
$GPGRS,004452.00,1,8.3,-0.7,-2.3,3.3,,,,,,,,*44
$GPGRS,004452.00,1,1.3,0.1,-0.1,2.8,2.5,0.5,,,,,,*6E
$GPGRS,004452.00,1,1.6,1.7,2.6,1.0,0.1,,,,,,,*62
$GPGSV,5,1,17,01,78,131,,32,19,045,32,19,17,320,40,04,29,200,32*78
$GPGSV,5,2,17,31,21,111,33,28,25,081,34,17,38,295,38,21,52,140,40*76
$GPGSV,5,3,17,03,66,285,50,02,73,151,46,09,04,212,,08,04,180,*78
$GPGSV,5,4,17,22,03,283,,36,35,170,41,34,31,208,,49,34,195,37*78
$GPGSV,5,5,17,61,03,257,*4B
$GLGSV,3,1,09,69,76,026,52,85,49,321,50,70,33,230,,68,24,041,36*68
$GLGSV,3,2,09,84,72,155,35,78,03,061,,83,08,147,,77,08,007,*66
$GLGSV,3,3,09,76,00,326,19*52
$GAGSV,3,1,11,11,71,121,38,19,15,042,25,12,18,124,22,09,45,187,41*66
$GAGSV,3,2,11,10,41,123,44,04,64,089,45,06,64,155,43,36,55,307,47*6B
$GAGSV,3,3,11,30,06,320,34,34,05,305,34,02,03,273,30*5C
$GBGSV,5,1,18,20,80,237,50,35,26,312,44,30,27,165,42,06,29,069,33*6D
$GBGSV,5,2,18,05,24,128,,39,27,053,23,09,30,084,32,19,29,236,34*61
$GBGSV,5,3,18,16,29,065,31,32,40,056,43,48,57,236,,29,65,235,52*6A
$GBGSV,5,4,18,25,03,025,,13,03,083,,23,04,071,,02,08,105,*67
$GBGSV,5,5,18,57,06,098,,60,10,109,*68
$GPGGA,004452.00,,,,,0,00,,,M,,M,,*4F
$PTNL,GGK,004452.00,010125,4742.4463541,N,01617.9729122,E,1,20,1.4,EHT668.7414,M*41
$GPGGQ,004452.00,010125,4742.4463541,N,01617.9729122,E,1,20,4.248,625.5303,M*3A
$GPGFA,004452.00,32.405,19.960,3.408,0.707,35.823,2.434,,VVV*32
$GPLLK,004452.00,010125,,M,,M,1,20,1.7,,M*08
$GNGMP,004452.00,,,,,DAAA,20,0.8,,,,*5B
$GPGMP,004452.00,,,,,,05,,,,1.8,123*76
$GLGMP,004452.00,,,,,,04,,,,,*7C
$GAGMP,004452.00,,,,,,06,,,,,*73
$GBGMP,004452.00,,,,,,05,,,,,*73
$PSSN,SNC,[0,261910000,2347]*49
$GPZDA,004457.00,01,01,2025,,*61
$GPDTM,W84,,00.0000000,N,00.0000000,E,00.0000000,W84*5F
$GPRMC,004457.00,A,4742.4463511,N,01617.9729131,E,0.0,,010125,5.1,E,D*1D
$GPGLL,4742.4463511,N,01617.9729131,E,004457.00,A,D*6C
$GPGGA,004457.00,4742.4463511,N,01617.9729131,E,2,18,0.9,625.5250,M,43.2111,M,2.8,0123*4C
$GNGNS,004457.00,4742.4463511,N,01617.9729131,E,DAAA,18,0.9,625.5250,43.2111,,*5A
$GPGNS,004457.00,,,,,,05,,,,2.8,123*70
$GLGNS,004457.00,,,,,,02,,,,,*7F
$GAGNS,004457.00,,,,,,06,,,,,*76
$GBGNS,004457.00,,,,,,05,,,,,*76
$GPLLQ,004457.00,010125,,M,,M,1,18,3.303,,M*19
$GPVTG,,T,,M,0.01,N,0.01,K,D*26
$GPHDT,,T*1B
$GPTHS,,V*0E
$GPROT,,V*08
$PSSN,HRP,004457.00,010125,,,,,,,00,0,,*63
$PTNL,AVR,004457.00,,Yaw,,Tilt,,,,0,,00*35
$GPGSA,A,3,02,03,17,19,21,,,,,,,,1.5,0.9,1.2*30
$GPGSA,A,3,69,85,,,,,,,,,,,1.5,0.9,1.2*3E
$GPGSA,A,3,04,06,09,10,11,36,,,,,,,1.5,0.9,1.2*33
$GPGSA,A,3,20,29,30,32,35,,,,,,,,1.5,0.9,1.2*31
$GPGST,004457.00,1.558,2.682,0.531,35.962,2.193,1.632,1.855*68
$GPGBS,004457.00,11.838,10.152,10.382,02,0.0001,-0.997,0.639*44
$GPGRS,004457.00,1,-1.0,0.6,0.9,0.0,0.2,,,,,,,*43
$GPGRS,004457.00,1,-1.2,1.5,,,,,,,,,,*66
$GPGRS,004457.00,1,1.6,0.1,0.2,2.3,1.4,0.0,,,,,,*4C
$GPGRS,004457.00,1,1.6,1.8,2.2,0.2,0.1,,,,,,,*6F
$GPGSV,5,1,17,01,78,131,,32,19,045,32,19,17,320,41,04,29,200,32*79
$GPGSV,5,2,17,31,21,111,33,28,25,081,23,17,38,295,40,21,52,140,41*7E
$GPGSV,5,3,17,03,66,285,50,02,73,151,45,09,04,212,,08,04,180,*7B
$GPGSV,5,4,17,22,03,283,,36,35,170,41,34,31,208,,49,34,195,37*78
$GPGSV,5,5,17,61,03,257,*4B
$GLGSV,3,1,09,69,76,026,51,85,49,321,49,70,33,230,,68,24,041,34*61
$GLGSV,3,2,09,84,72,155,34,78,03,061,,83,08,147,,77,08,007,*67
$GLGSV,3,3,09,76,00,326,21*59
$GAGSV,3,1,11,11,71,121,37,19,15,042,24,12,18,124,21,09,45,187,40*6A
$GAGSV,3,2,11,10,41,123,44,04,64,088,46,06,64,155,44,36,55,307,47*6E
$GAGSV,3,3,11,30,06,320,30,34,05,305,34,02,03,273,24*5D
$GBGSV,5,1,18,20,80,237,50,35,26,312,44,30,27,165,43,06,29,069,32*6D
$GBGSV,5,2,18,05,24,128,,39,27,053,23,09,30,084,31,19,29,236,34*62
$GBGSV,5,3,18,16,29,065,32,32,40,056,43,48,57,236,,29,65,234,52*68
$GBGSV,5,4,18,25,03,025,,13,03,083,,23,04,071,,02,08,105,*67
$GBGSV,5,5,18,57,06,098,,60,10,109,*68
$GPGGA,004457.00,,,,,0,00,,,M,,M,,*4A
$PTNL,GGK,004457.00,010125,4742.4463511,N,01617.9729131,E,1,18,1.5,EHT668.7361,M*4C
$GPGGQ,004457.00,010125,4742.4463511,N,01617.9729131,E,1,18,3.303,625.5250,M*3D
$GPGFA,004457.00,25.495,15.207,2.682,0.531,35.962,1.855,,VVV*34
$GPLLK,004457.00,010125,,M,,M,1,18,1.8,,M*09
$GNGMP,004457.00,,,,,DAAA,18,0.9,,,,*54
$GPGMP,004457.00,,,,,,05,,,,2.8,123*70
$GLGMP,004457.00,,,,,,02,,,,,*7F
$GAGMP,004457.00,,,,,,06,,,,,*76
$GBGMP,004457.00,,,,,,05,,,,,*76
$PSSN,SNC,[0,261915000,2347]*4C
$GPZDA,004502.00,01,01,2025,,*60
$GPDTM,W84,,00.0000000,N,00.0000000,E,00.0000000,W84*5F
$GPRMC,004502.00,A,4742.4463491,N,01617.9729217,E,0.0,,010125,5.1,E,D*12
$GPGLL,4742.4463491,N,01617.9729217,E,004502.00,A,D*63
$GPGGA,004502.00,4742.4463491,N,01617.9729217,E,2,18,0.8,625.5409,M,43.2111,M,2.0,0123*40
$GNGNS,004502.00,4742.4463491,N,01617.9729217,E,DAAA,18,0.8,625.5409,43.2111,,*5E
$GPGNS,004502.00,,,,,,04,,,,2.0,123*78
$GLGNS,004502.00,,,,,,02,,,,,*7E
$GAGNS,004502.00,,,,,,06,,,,,*77
$GBGNS,004502.00,,,,,,06,,,,,*74
$GPLLQ,004502.00,010125,,M,,M,1,18,3.767,,M*1E
$GPVTG,,T,,M,0.00,N,0.01,K,D*27
$GPHDT,,T*1B
$GPTHS,,V*0E
$GPROT,,V*08
$PSSN,HRP,004502.00,010125,,,,,,,00,0,,*62
$PTNL,AVR,004502.00,,Yaw,,Tilt,,,,0,,00*34
$GPGSA,A,3,02,03,19,21,,,,,,,,,1.5,0.8,1.2*37
$GPGSA,A,3,69,85,,,,,,,,,,,1.5,0.8,1.2*3F
$GPGSA,A,3,04,06,09,10,11,36,,,,,,,1.5,0.8,1.2*32
$GPGSA,A,3,19,20,29,30,32,35,,,,,,,1.5,0.8,1.2*38
$GPGST,004502.00,1.522,3.151,0.546,40.078,2.436,2.071,1.992*6E
$GPGBS,004502.00,12.770,10.602,10.366,02,0.0001,-0.882,0.581*48
$GPGRS,004502.00,1,-0.9,0.6,1.0,0.4,,,,,,,,*6A
$GPGRS,004502.00,1,-1.8,-0.7,,,,,,,,,,*43
$GPGRS,004502.00,1,1.5,-0.1,0.6,1.9,1.1,-0.2,,,,,,*44
$GPGRS,004502.00,1,1.4,1.6,1.7,2.1,-0.4,-0.3,,,,,,*4D
$GPGSV,5,1,17,01,78,131,,32,19,045,32,19,17,320,41,04,29,200,34*7F
$GPGSV,5,2,17,31,21,111,33,28,25,080,32,17,38,295,41,21,52,140,41*7E
$GPGSV,5,3,17,03,66,285,49,02,73,151,46,09,04,212,,08,04,180,*70
$GPGSV,5,4,17,22,03,283,,36,35,170,41,34,31,208,,49,34,195,37*78
$GPGSV,5,5,17,61,03,257,*4B
$GLGSV,3,1,09,69,76,026,51,85,49,321,48,70,33,230,37,68,24,041,33*63
$GLGSV,3,2,09,84,72,155,33,78,03,061,,83,08,147,,77,08,007,*60
$GLGSV,3,3,09,76,00,326,*5A
$GAGSV,3,1,11,11,70,121,37,19,15,042,22,12,18,124,22,09,46,187,40*6D
$GAGSV,3,2,11,10,41,123,44,04,64,088,47,06,64,155,44,36,55,307,48*60
$GAGSV,3,3,11,30,06,320,29,34,05,305,34,02,03,273,26*57
$GBGSV,5,1,18,20,80,238,49,35,26,312,44,30,27,165,42,06,29,069,32*6B
$GBGSV,5,2,18,05,24,128,,39,27,053,21,09,30,084,31,19,29,236,36*62
$GBGSV,5,3,18,16,29,065,32,32,40,056,43,48,57,236,,29,65,234,52*68
$GBGSV,5,4,18,25,03,025,,13,02,083,,23,04,071,,02,08,105,*66
$GBGSV,5,5,18,57,06,098,,60,10,109,*68
$GPGGA,004502.00,,,,,0,00,,,M,,M,,*4B
$PTNL,GGK,004502.00,010125,4742.4463491,N,01617.9729217,E,1,18,1.5,EHT668.7519,M*4A
$GPGGQ,004502.00,010125,4742.4463491,N,01617.9729217,E,1,18,3.767,625.5409,M*3E
$GPGFA,004502.00,29.954,16.336,3.151,0.546,40.078,1.992,,VVV*3B
$GPLLK,004502.00,010125,,M,,M,1,18,1.7,,M*07
$GNGMP,004502.00,,,,,DAAA,18,0.8,,,,*54
$GPGMP,004502.00,,,,,,04,,,,2.0,123*78
$GLGMP,004502.00,,,,,,02,,,,,*7E
$GAGMP,004502.00,,,,,,06,,,,,*77
$GBGMP,004502.00,,,,,,06,,,,,*74
$PSSN,SNC,[0,261920000,2347]*4A
$GPZDA,004507.00,01,01,2025,,*65
$GPDTM,W84,,00.0000000,N,00.0000000,E,00.0000000,W84*5F
$GPRMC,004507.00,A,4742.4463431,N,01617.9729231,E,0.0,,010125,5.1,E,D*19
$GPGLL,4742.4463431,N,01617.9729231,E,004507.00,A,D*68
$GPGGA,004507.00,4742.4463431,N,01617.9729231,E,2,19,0.7,625.5435,M,43.2111,M,3.0,0123*4B
$GNGNS,004507.00,4742.4463431,N,01617.9729231,E,DAAA,19,0.7,625.5435,43.2111,,*54
$GPGNS,004507.00,,,,,,04,,,,3.0,123*7C
$GLGNS,004507.00,,,,,,02,,,,,*7B
$GAGNS,004507.00,,,,,,06,,,,,*72
$GBGNS,004507.00,,,,,,07,,,,,*70
$GPLLQ,004507.00,010125,,M,,M,1,19,4.710,,M*1D
$GPVTG,,T,,M,0.01,N,0.01,K,D*26
$GPHDT,,T*1B
$GPTHS,,V*0E
$GPROT,,V*08
$PSSN,HRP,004507.00,010125,,,,,,,00,0,,*67
$PTNL,AVR,004507.00,,Yaw,,Tilt,,,,0,,00*31
$GPGSA,A,3,02,03,19,21,,,,,,,,,1.3,0.7,1.1*3D
$GPGSA,A,3,69,85,,,,,,,,,,,1.3,0.7,1.1*35
$GPGSA,A,3,04,06,09,10,11,36,,,,,,,1.3,0.7,1.1*38
$GPGSA,A,3,19,20,29,30,32,35,39,,,,,,1.3,0.7,1.1*38
$GPGST,004507.00,1.775,3.848,0.743,39.738,2.997,2.526,2.612*65
$GPGBS,004507.00,10.568,8.717,10.119,19,0.0001,3.062,1.213*5D
$GPGRS,004507.00,1,-1.0,0.1,3.1,0.4,,,,,,,,*63
$GPGRS,004507.00,1,-2.2,-1.6,,,,,,,,,,*4F
$GPGRS,004507.00,1,1.0,-0.4,0.5,1.0,1.5,-0.6,,,,,,*4B
$GPGRS,004507.00,1,2.8,1.1,1.0,1.0,-1.3,-1.5,0.6,,,,,*6C
$GPGSV,5,1,17,01,78,131,,32,19,045,31,19,17,320,41,04,29,200,35*7D
$GPGSV,5,2,17,31,21,111,31,28,25,080,25,17,38,295,41,21,52,140,42*79
$GPGSV,5,3,17,03,67,285,49,02,73,151,46,09,04,212,,08,04,180,*71
$GPGSV,5,4,17,22,03,283,,36,35,170,41,34,31,208,,49,34,195,37*78
$GPGSV,5,5,17,61,03,257,*4B
$GLGSV,2,1,08,69,75,026,51,85,49,321,47,70,33,230,36,68,24,041,34*69
$GLGSV,2,2,08,84,72,155,33,83,08,147,,78,03,061,,77,08,007,*60
$GAGSV,3,1,11,11,70,121,36,19,15,042,23,12,17,124,,09,46,187,40*62
$GAGSV,3,2,11,10,41,123,44,04,64,088,46,06,64,155,44,36,55,307,48*61
$GAGSV,3,3,11,30,06,320,27,34,05,305,34,02,03,273,26*59
$GBGSV,5,1,18,20,80,238,49,35,26,312,44,30,27,165,42,06,29,069,31*68
$GBGSV,5,2,18,05,24,128,,39,27,053,35,09,30,084,30,19,29,236,37*67
$GBGSV,5,3,18,16,29,065,32,32,40,056,43,48,57,236,,29,65,234,51*6B
$GBGSV,5,4,18,25,03,025,,13,02,083,,23,04,071,,02,08,105,*66
$GBGSV,5,5,18,57,06,098,,60,10,109,*68
$GPGGA,004507.00,,,,,0,00,,,M,,M,,*4E
$PTNL,GGK,004507.00,010125,4742.4463431,N,01617.9729231,E,1,19,1.3,EHT668.7545,M*4F
$GPGGQ,004507.00,010125,4742.4463431,N,01617.9729231,E,1,19,4.710,625.5435,M*3C
$GPGFA,004507.00,36.587,21.419,3.848,0.743,39.738,2.612,,VVV*33
$GPLLK,004507.00,010125,,M,,M,1,19,1.6,,M*02
$GNGMP,004507.00,,,,,DAAA,19,0.7,,,,*5F
$GPGMP,004507.00,,,,,,04,,,,3.0,123*7C
$GLGMP,004507.00,,,,,,02,,,,,*7B
$GAGMP,004507.00,,,,,,06,,,,,*72
$GBGMP,004507.00,,,,,,07,,,,,*70
$PSSN,SNC,[0,261925000,2347]*4F
$GPZDA,004512.00,01,01,2025,,*61
$GPDTM,W84,,00.0000000,N,00.0000000,E,00.0000000,W84*5F
$GPRMC,004512.00,A,4742.4463366,N,01617.9729376,E,0.0,,010125,5.1,E,D*1A
$GPGLL,4742.4463366,N,01617.9729376,E,004512.00,A,D*6B
$GPGGA,004512.00,4742.4463366,N,01617.9729376,E,2,20,0.7,625.5845,M,43.2111,M,2.0,0123*48
$GNGNS,004512.00,4742.4463366,N,01617.9729376,E,DAAA,20,0.7,625.5845,43.2111,,*56
$GPGNS,004512.00,,,,,,04,,,,2.0,123*79
$GLGNS,004512.00,,,,,,03,,,,,*7E
$GAGNS,004512.00,,,,,,06,,,,,*76
$GBGNS,004512.00,,,,,,07,,,,,*74
$GPLLQ,004512.00,010125,,M,,M,1,20,5.304,,M*13
$GPVTG,,T,,M,0.01,N,0.01,K,D*26
$GPHDT,,T*1B
$GPTHS,,V*0E
$GPROT,,V*08
$PSSN,HRP,004512.00,010125,,,,,,,00,0,,*63
$PTNL,AVR,004512.00,,Yaw,,Tilt,,,,0,,00*35
$GPGSA,A,3,02,03,17,21,,,,,,,,,1.4,0.7,1.2*37
$GPGSA,A,3,68,69,85,,,,,,,,,,1.4,0.7,1.2*3F
$GPGSA,A,3,04,06,09,10,11,36,,,,,,,1.4,0.7,1.2*3C
$GPGSA,A,3,19,20,29,30,32,35,39,,,,,,1.4,0.7,1.2*3C
$GPGST,004512.00,4.988,4.394,0.735,35.372,3.608,2.613,2.879*6C
$GPGBS,004512.00,18.876,14.050,11.650,68,0.0001,17.130,6.298*50
$GPGRS,004512.00,1,-1.0,0.1,0.3,0.2,,,,,,,,*60
$GPGRS,004512.00,1,17.1,-2.3,-1.3,,,,,,,,,*56
$GPGRS,004512.00,1,0.9,-0.5,0.2,0.7,0.7,-0.7,,,,,,*45
$GPGRS,004512.00,1,2.4,0.7,1.0,-0.6,-2.0,-2.5,0.8,,,,,*44
$GPGSV,5,1,17,01,78,131,,32,19,045,29,19,17,320,39,04,29,200,35*7B
$GPGSV,5,2,17,31,21,111,30,28,25,080,28,17,38,295,39,21,52,140,43*7B
$GPGSV,5,3,17,03,67,285,49,02,73,151,46,09,04,212,,08,04,180,*71
$GPGSV,5,4,17,22,03,283,,36,35,170,41,34,31,208,,49,34,195,37*78
$GPGSV,5,5,17,61,03,257,*4B
$GLGSV,2,1,08,69,75,026,51,85,49,321,47,70,33,230,34,68,24,041,36*69
$GLGSV,2,2,08,84,72,155,34,83,08,147,,78,03,061,,77,08,007,*67
$GAGSV,3,1,11,11,70,121,36,19,15,042,23,12,17,124,20,09,46,187,39*6E
$GAGSV,3,2,11,10,41,123,43,04,64,088,47,06,64,155,45,36,55,307,48*66
$GAGSV,3,3,11,30,06,320,27,34,05,305,35,02,03,273,26*58
$GBGSV,5,1,18,20,80,238,49,35,26,312,44,30,27,165,41,06,29,069,31*6B
$GBGSV,5,2,18,05,24,128,,39,27,053,35,09,30,084,30,19,29,236,39*69
$GBGSV,5,3,18,16,29,065,32,32,40,056,44,48,57,236,,29,65,234,51*6C
$GBGSV,5,4,18,25,03,025,,13,02,083,,23,04,071,,02,08,105,*66
$GBGSV,5,5,18,57,06,098,,60,10,109,*68
$GPGGA,004512.00,,,,,0,00,,,M,,M,,*4A
$PTNL,GGK,004512.00,010125,4742.4463366,N,01617.9729376,E,1,20,1.4,EHT668.7955,M*4C
$GPGGQ,004512.00,010125,4742.4463366,N,01617.9729376,E,1,20,5.304,625.5845,M*3E
$GPGFA,004512.00,41.775,23.611,4.394,0.735,35.372,2.879,,VVV*39
$GPLLK,004512.00,010125,,M,,M,1,20,1.6,,M*0C
$GNGMP,004512.00,,,,,DAAA,20,0.7,,,,*51
$GPGMP,004512.00,,,,,,04,,,,2.0,123*79
$GLGMP,004512.00,,,,,,03,,,,,*7E
$GAGMP,004512.00,,,,,,06,,,,,*76
$GBGMP,004512.00,,,,,,07,,,,,*74
$PSSN,SNC,[0,261930000,2347]*4B
$GPZDA,004517.00,01,01,2025,,*64
$GPDTM,W84,,00.0000000,N,00.0000000,E,00.0000000,W84*5F
$GPRMC,004517.00,A,4742.4463334,N,01617.9729300,E,0.0,,010125,5.1,E,D*19
$GPGLL,4742.4463334,N,01617.9729300,E,004517.00,A,D*68
$GPGGA,004517.00,4742.4463334,N,01617.9729300,E,2,19,0.7,625.5771,M,43.2111,M,3.0,0123*48
$GNGNS,004517.00,4742.4463334,N,01617.9729300,E,DAAA,19,0.7,625.5771,43.2111,,*57
$GPGNS,004517.00,,,,,,04,,,,3.0,123*7D
$GLGNS,004517.00,,,,,,03,,,,,*7B
$GAGNS,004517.00,,,,,,05,,,,,*70
$GBGNS,004517.00,,,,,,07,,,,,*71
$GPLLQ,004517.00,010125,,M,,M,1,19,3.616,,M*1C
$GPVTG,,T,,M,0.01,N,0.02,K,D*25
$GPHDT,,T*1B
$GPTHS,,V*0E
$GPROT,,V*08
$PSSN,HRP,004517.00,010125,,,,,,,00,0,,*66
$PTNL,AVR,004517.00,,Yaw,,Tilt,,,,0,,00*30
$GPGSA,A,3,02,03,17,21,,,,,,,,,1.4,0.7,1.2*37
$GPGSA,A,3,69,84,85,,,,,,,,,,1.4,0.7,1.2*3D
$GPGSA,A,3,04,06,09,10,36,,,,,,,,1.4,0.7,1.2*3C
$GPGSA,A,3,19,20,29,30,32,35,39,,,,,,1.4,0.7,1.2*3C
$GPGST,004517.00,2.192,3.054,0.470,35.992,2.487,1.835,1.877*62
$GPGBS,004517.00,14.950,11.385,12.183,21,0.0001,0.747,0.650*63
$GPGRS,004517.00,1,-0.6,0.3,-0.4,0.7,,,,,,,,*4F
$GPGRS,004517.00,1,-2.1,-4.3,0.3,,,,,,,,,*60
$GPGRS,004517.00,1,1.2,-0.1,-0.5,1.8,-0.2,,,,,,,*46
$GPGRS,004517.00,1,2.8,1.0,1.9,-0.2,-2.2,-2.9,1.5,,,,,*44
$GPGSV,5,1,17,01,78,131,,32,19,045,24,19,17,320,,04,29,200,33*7A
$GPGSV,5,2,17,31,21,111,31,28,26,080,31,17,38,295,39,21,51,140,43*72
$GPGSV,5,3,17,03,67,285,49,02,73,151,46,09,04,212,,08,04,180,*71
$GPGSV,5,4,17,22,03,283,,36,35,170,41,34,31,208,,49,34,195,37*78
$GPGSV,5,5,17,61,03,257,*4B
$GLGSV,2,1,08,69,75,026,50,85,49,321,47,70,34,230,34,68,24,041,27*6F
$GLGSV,2,2,08,84,72,155,35,83,08,147,,78,03,061,,77,08,007,*66
$GAGSV,3,1,11,11,70,121,34,19,15,042,22,12,17,124,,09,46,187,38*6E
$GAGSV,3,2,11,10,41,123,44,04,64,088,47,06,64,155,45,36,55,307,48*61
$GAGSV,3,3,11,30,06,320,29,34,05,305,36,02,03,273,25*56
$GBGSV,5,1,18,20,80,238,49,35,26,312,44,30,27,165,40,06,29,069,31*6A
$GBGSV,5,2,18,05,24,128,,39,27,053,35,09,30,084,29,19,29,236,40*6F
$GBGSV,5,3,18,16,29,065,33,32,40,056,43,48,57,236,,29,65,234,52*69
$GBGSV,5,4,18,25,03,025,,13,02,083,,23,04,071,,02,08,105,*66
$GBGSV,5,5,18,57,06,098,,60,10,109,*68
$GPGGA,004517.00,,,,,0,00,,,M,,M,,*4F
$PTNL,GGK,004517.00,010125,4742.4463334,N,01617.9729300,E,1,19,1.4,EHT668.7882,M*4E
$GPGGQ,004517.00,010125,4742.4463334,N,01617.9729300,E,1,19,3.616,625.5771,M*3F
$GPGFA,004517.00,29.040,15.392,3.054,0.470,35.992,1.877,,VVV*3B
$GPLLK,004517.00,010125,,M,,M,1,19,1.7,,M*02
$GNGMP,004517.00,,,,,DAAA,19,0.7,,,,*5E
$GPGMP,004517.00,,,,,,04,,,,3.0,123*7D
$GLGMP,004517.00,,,,,,03,,,,,*7B
$GAGMP,004517.00,,,,,,05,,,,,*70
$GBGMP,004517.00,,,,,,07,,,,,*71
$PSSN,SNC,[0,261935000,2347]*4E
$GPZDA,004522.00,01,01,2025,,*62
$GPDTM,W84,,00.0000000,N,00.0000000,E,00.0000000,W84*5F
$GPRMC,004522.00,A,4742.4463347,N,01617.9729399,E,0.0,,010125,5.1,E,D*1B
$GPGLL,4742.4463347,N,01617.9729399,E,004522.00,A,D*6A
$GPGGA,004522.00,4742.4463347,N,01617.9729399,E,2,19,0.7,625.5977,M,43.2111,M,2.0,0123*43
$GNGNS,004522.00,4742.4463347,N,01617.9729399,E,DAAA,19,0.7,625.5977,43.2111,,*5D
$GPGNS,004522.00,,,,,,04,,,,2.0,123*7A
$GLGNS,004522.00,,,,,,03,,,,,*7D
$GAGNS,004522.00,,,,,,05,,,,,*76
$GBGNS,004522.00,,,,,,07,,,,,*77
$GPLLQ,004522.00,010125,,M,,M,1,19,6.212,,M*1F
$GPVTG,,T,,M,0.01,N,0.01,K,D*26
$GPHDT,,T*1B
$GPTHS,,V*0E
$GPROT,,V*08
$PSSN,HRP,004522.00,010125,,,,,,,00,0,,*60
$PTNL,AVR,004522.00,,Yaw,,Tilt,,,,0,,00*36
$GPGSA,A,3,02,03,17,21,,,,,,,,,1.4,0.7,1.2*37
$GPGSA,A,3,69,84,85,,,,,,,,,,1.4,0.7,1.2*3D
$GPGSA,A,3,04,06,09,10,36,,,,,,,,1.4,0.7,1.2*3C
$GPGSA,A,3,19,20,29,30,32,35,39,,,,,,1.4,0.7,1.2*3C
$GPGST,004522.00,2.501,5.221,0.814,36.063,4.248,3.143,3.267*66
$GPGBS,004522.00,14.966,11.373,12.410,17,0.0001,2.481,0.743*6B
$GPGRS,004522.00,1,-0.8,-0.4,2.5,-0.1,,,,,,,,*68
$GPGRS,004522.00,1,-2.5,-2.6,1.1,,,,,,,,,*62
$GPGRS,004522.00,1,0.4,-0.7,-3.0,2.6,-0.8,,,,,,,*40
$GPGRS,004522.00,1,2.0,0.4,1.3,-2.4,-3.4,-3.5,1.3,,,,,*4D
$GPGSV,5,1,17,01,78,131,,32,19,045,29,19,17,320,33,04,29,200,30*74
$GPGSV,5,2,17,31,21,111,31,28,26,080,30,17,38,295,41,21,51,140,43*7C
$GPGSV,5,3,17,03,67,285,49,02,73,151,46,09,04,212,,08,04,180,*71
$GPGSV,5,4,17,22,03,283,,36,35,170,41,34,31,208,,49,34,195,37*78
$GPGSV,5,5,17,61,03,257,*4B
$GLGSV,2,1,08,69,75,026,50,85,49,321,48,70,34,230,34,68,24,041,22*65
$GLGSV,2,2,08,84,72,155,36,83,08,147,,78,03,061,,77,08,007,*65
$GAGSV,3,1,11,11,70,121,34,19,15,042,21,12,17,124,,09,46,187,35*60
$GAGSV,3,2,11,10,41,123,43,04,64,088,48,06,64,155,46,36,55,307,48*6A
$GAGSV,3,3,11,30,06,320,31,34,05,305,36,02,03,273,26*5C
$GBGSV,5,1,18,20,80,238,49,35,26,312,44,30,27,165,39,06,29,069,30*65
$GBGSV,5,2,18,05,24,128,,39,27,053,35,09,30,084,27,19,29,236,41*60
$GBGSV,5,3,18,16,29,065,34,32,40,056,43,48,57,236,,29,65,234,53*6F
$GBGSV,5,4,18,25,03,025,,13,02,083,,23,04,071,,02,08,105,*66
$GBGSV,5,5,18,57,06,098,,60,10,109,*68
$GPGGA,004522.00,,,,,0,00,,,M,,M,,*49
$PTNL,GGK,004522.00,010125,4742.4463347,N,01617.9729399,E,1,19,1.4,EHT668.8087,M*4E
$GPGGQ,004522.00,010125,4742.4463347,N,01617.9729399,E,1,19,6.212,625.5977,M*30
$GPGFA,004522.00,49.640,26.786,5.221,0.814,36.063,3.267,,VVV*39
$GPLLK,004522.00,010125,,M,,M,1,19,1.7,,M*04
$GNGMP,004522.00,,,,,DAAA,19,0.7,,,,*58
$GPGMP,004522.00,,,,,,04,,,,2.0,123*7A
$GLGMP,004522.00,,,,,,03,,,,,*7D
$GAGMP,004522.00,,,,,,05,,,,,*76
$GBGMP,004522.00,,,,,,07,,,,,*77
$PSSN,SNC,[0,261940000,2347]*4C
$GPZDA,004527.00,01,01,2025,,*67
$GPDTM,W84,,00.0000000,N,00.0000000,E,00.0000000,W84*5F
$GPRMC,004527.00,A,4742.4463336,N,01617.9729389,E,0.0,,010125,5.1,E,D*19
$GPGLL,4742.4463336,N,01617.9729389,E,004527.00,A,D*68
$GPGGA,004527.00,4742.4463336,N,01617.9729389,E,2,17,0.8,625.5923,M,43.2111,M,2.7,0123*46
$GNGNS,004527.00,4742.4463336,N,01617.9729389,E,DAAA,17,0.8,625.5923,43.2111,,*5F
$GPGNS,004527.00,,,,,,03,,,,2.7,123*7F
$GLGNS,004527.00,,,,,,03,,,,,*78
$GAGNS,004527.00,,,,,,04,,,,,*72
$GBGNS,004527.00,,,,,,07,,,,,*72
$GPLLQ,004527.00,010125,,M,,M,1,17,5.029,,M*1D
$GPVTG,,T,,M,0.00,N,0.01,K,D*27
$GPHDT,,T*1B
$GPTHS,,V*0E
$GPROT,,V*08
$PSSN,HRP,004527.00,010125,,,,,,,00,0,,*65
$PTNL,AVR,004527.00,,Yaw,,Tilt,,,,0,,00*33
$GPGSA,A,3,02,03,21,,,,,,,,,,1.5,0.8,1.2*3F
$GPGSA,A,3,69,84,85,,,,,,,,,,1.5,0.8,1.2*33
$GPGSA,A,3,04,06,10,36,,,,,,,,,1.5,0.8,1.2*3B
$GPGSA,A,3,19,20,29,30,32,35,39,,,,,,1.5,0.8,1.2*32
$GPGST,004527.00,3.131,3.304,0.704,35.783,2.712,2.015,3.726*6E
$GPGBS,004527.00,19.322,12.594,31.227,10,0.0001,5.202,6.090*64
$GPGRS,004527.00,1,-0.0,-0.2,0.3,,,,,,,,,*65
$GPGRS,004527.00,1,-1.3,-1.9,1.9,,,,,,,,,*66
$GPGRS,004527.00,1,1.0,0.1,5.2,-0.4,,,,,,,,*64
$GPGRS,004527.00,1,1.7,0.8,1.5,-6.0,-2.5,-2.4,2.6,,,,,*40
$GPGSV,5,1,17,01,78,131,,32,19,045,29,19,17,320,,04,29,200,27*72
$GPGSV,5,2,17,31,21,111,32,28,26,080,30,17,38,295,42,21,51,140,44*7B
$GPGSV,5,3,17,03,67,285,49,02,73,151,46,09,04,212,,08,03,180,*76
$GPGSV,5,4,17,22,03,283,,36,35,170,40,34,31,208,,49,34,195,37*79
$GPGSV,5,5,17,61,03,257,*4B
$GLGSV,2,1,08,69,75,026,50,85,49,321,48,70,34,230,34,68,24,041,35*63
$GLGSV,2,2,08,84,72,155,36,83,08,147,,78,03,061,,77,08,007,*65
$GAGSV,3,1,11,11,70,121,34,19,15,042,22,12,17,124,24,09,46,187,32*62
$GAGSV,3,2,11,10,41,123,43,04,64,088,47,06,64,155,47,36,55,307,48*64
$GAGSV,3,3,11,30,06,320,33,34,05,305,36,02,03,273,23*5B
$GBGSV,5,1,18,20,80,238,49,35,26,312,44,30,27,165,37,06,29,069,30*6B
$GBGSV,5,2,18,05,24,128,,39,27,053,35,09,30,084,26,19,29,236,41*61
$GBGSV,5,3,18,16,29,065,34,32,40,056,42,48,57,236,,29,65,234,53*6E
$GBGSV,5,4,18,25,03,025,,13,02,083,,23,04,071,,02,08,105,*66
$GBGSV,5,5,18,57,06,098,,60,10,109,*68
$GPGGA,004527.00,,,,,0,00,,,M,,M,,*4C
$PTNL,GGK,004527.00,010125,4742.4463336,N,01617.9729389,E,1,17,1.5,EHT668.8034,M*4B
$GPGGQ,004527.00,010125,4742.4463336,N,01617.9729389,E,1,17,5.029,625.5923,M*34
$GPGFA,004527.00,31.414,30.549,3.304,0.704,35.783,3.726,,VVV*32
$GPLLK,004527.00,010125,,M,,M,1,17,1.8,,M*00
$GNGMP,004527.00,,,,,DAAA,17,0.8,,,,*5C
$GPGMP,004527.00,,,,,,03,,,,2.7,123*7F
$GLGMP,004527.00,,,,,,03,,,,,*78
$GAGMP,004527.00,,,,,,04,,,,,*72
$GBGMP,004527.00,,,,,,07,,,,,*72
$PSSN,SNC,[0,261945000,2347]*49
$GPZDA,004532.00,01,01,2025,,*63
$GPDTM,W84,,00.0000000,N,00.0000000,E,00.0000000,W84*5F
$GPRMC,004532.00,A,4742.4463357,N,01617.9729359,E,0.0,,010125,5.1,E,D*17
$GPGLL,4742.4463357,N,01617.9729359,E,004532.00,A,D*66
$GPGGA,004532.00,4742.4463357,N,01617.9729359,E,2,15,1.0,625.5963,M,43.2111,M,2.3,0123*43
$GNGNS,004532.00,4742.4463357,N,01617.9729359,E,DAAA,15,1.0,625.5963,43.2111,,*5E
$GPGNS,004532.00,,,,,,03,,,,2.3,123*7F
$GLGNS,004532.00,,,,,,03,,,,,*7C
$GAGNS,004532.00,,,,,,04,,,,,*76
$GBGNS,004532.00,,,,,,05,,,,,*74
$GPLLQ,004532.00,010125,,M,,M,1,15,5.727,,M*12
$GPVTG,,T,,M,0.00,N,0.00,K,D*26
$GPHDT,,T*1B
$GPTHS,,V*0E
$GPROT,,V*08
$PSSN,HRP,004532.00,010125,,,,,,,00,0,,*61
$PTNL,AVR,004532.00,,Yaw,,Tilt,,,,0,,00*37
$GPGSA,A,3,02,03,21,,,,,,,,,,1.9,1.0,1.6*3E
$GPGSA,A,3,69,84,85,,,,,,,,,,1.9,1.0,1.6*32
$GPGSA,A,3,04,06,10,36,,,,,,,,,1.9,1.0,1.6*3A
$GPGSA,A,3,19,20,29,32,35,,,,,,,,1.9,1.0,1.6*3A
$GPGST,004532.00,2.606,4.206,0.718,35.618,3.445,2.518,3.819*69
$GPGBS,004532.00,27.026,18.563,32.373,10,0.0001,5.518,6.090*67
$GPGRS,004532.00,1,0.4,-0.5,0.2,,,,,,,,,*4E
$GPGRS,004532.00,1,-1.8,-3.3,1.0,,,,,,,,,*68
$GPGRS,004532.00,1,0.7,-0.1,5.5,-0.7,,,,,,,,*4F
$GPGRS,004532.00,1,1.0,0.0,1.1,-1.2,-2.0,,,,,,,*60
$GPGSV,5,1,17,01,78,131,,32,19,045,28,19,17,320,,04,29,200,23*77
$GPGSV,5,2,17,31,21,110,34,28,26,080,31,17,38,295,42,21,51,140,45*7C
$GPGSV,5,3,17,03,67,285,48,02,73,151,47,09,05,212,,08,03,180,*77
$GPGSV,5,4,17,22,03,283,,36,35,170,40,34,31,208,,49,34,195,37*79
$GPGSV,5,5,17,61,03,257,*4B
$GLGSV,2,1,08,69,75,026,49,85,49,321,49,70,34,230,32,68,24,041,34*6D
$GLGSV,2,2,08,84,72,155,36,83,08,147,,78,03,061,,77,08,007,*65
$GAGSV,3,1,11,11,70,121,34,19,15,042,21,12,17,124,24,09,46,187,29*6B
$GAGSV,3,2,11,10,41,123,42,04,64,088,47,06,64,155,48,36,55,307,48*6A
$GAGSV,3,3,11,30,06,320,33,34,05,305,36,02,03,273,22*5A
$GBGSV,5,1,18,20,80,238,48,35,27,312,44,30,27,165,34,06,29,069,28*61
$GBGSV,5,2,18,05,24,128,,39,27,053,34,09,30,084,25,19,29,236,41*63
$GBGSV,5,3,18,16,29,065,34,32,40,056,41,48,57,236,,29,65,234,54*6A
$GBGSV,5,4,18,25,03,024,,13,02,083,,23,04,071,,02,08,105,*67
$GBGSV,5,5,18,57,06,098,,60,10,109,*68
$GPGGA,004532.00,,,,,0,00,,,M,,M,,*48
$PTNL,GGK,004532.00,010125,4742.4463357,N,01617.9729359,E,1,15,1.9,EHT668.8073,M*48
$GPGGQ,004532.00,010125,4742.4463357,N,01617.9729359,E,1,15,5.727,625.5963,M*35
$GPGFA,004532.00,39.991,31.318,4.206,0.718,35.618,3.819,,VVV*34
$GPLLK,004532.00,010125,,M,,M,1,15,2.3,,M*0E
$GNGMP,004532.00,,,,,DAAA,15,1.0,,,,*53
$GPGMP,004532.00,,,,,,03,,,,2.3,123*7F
$GLGMP,004532.00,,,,,,03,,,,,*7C
$GAGMP,004532.00,,,,,,04,,,,,*76
$GBGMP,004532.00,,,,,,05,,,,,*74
$PSSN,SNC,[0,261950000,2347]*4D
$GPZDA,004537.00,01,01,2025,,*66
$GPDTM,W84,,00.0000000,N,00.0000000,E,00.0000000,W84*5F
$GPRMC,004537.00,A,4742.4463355,N,01617.9729268,E,0.0,,010125,5.1,E,D*13
$GPGLL,4742.4463355,N,01617.9729268,E,004537.00,A,D*62
$GPGGA,004537.00,4742.4463355,N,01617.9729268,E,2,16,0.9,625.6078,M,43.2111,M,2.8,0123*47
$GNGNS,004537.00,4742.4463355,N,01617.9729268,E,DAAA,16,0.9,625.6078,43.2111,,*51
$GPGNS,004537.00,,,,,,04,,,,2.8,123*76
$GLGNS,004537.00,,,,,,03,,,,,*79
$GAGNS,004537.00,,,,,,04,,,,,*73
$GBGNS,004537.00,,,,,,05,,,,,*71
$GPLLQ,004537.00,010125,,M,,M,1,16,4.215,,M*11
$GPVTG,,T,,M,0.01,N,0.02,K,D*25
$GPHDT,,T*1B
$GPTHS,,V*0E
$GPROT,,V*08
$PSSN,HRP,004537.00,010125,,,,,,,00,0,,*64
$PTNL,AVR,004537.00,,Yaw,,Tilt,,,,0,,00*32
$GPGSA,A,3,02,03,21,31,,,,,,,,,1.6,0.9,1.3*3E
$GPGSA,A,3,69,84,85,,,,,,,,,,1.6,0.9,1.3*30
$GPGSA,A,3,04,06,10,36,,,,,,,,,1.6,0.9,1.3*38
$GPGSA,A,3,19,20,29,32,35,,,,,,,,1.6,0.9,1.3*38
$GPGST,004537.00,2.323,3.113,0.721,38.712,2.471,2.027,2.748*67
$GPGBS,004537.00,16.463,12.688,20.922,03,0.0001,-0.876,0.643*45
$GPGRS,004537.00,1,0.6,-0.9,0.0,0.5,,,,,,,,*6C
$GPGRS,004537.00,1,-1.8,-3.3,0.3,,,,,,,,,*6F
$GPGRS,004537.00,1,0.7,-0.3,5.2,-0.9,,,,,,,,*41
$GPGRS,004537.00,1,1.4,-0.6,1.0,0.4,-1.3,,,,,,,*61
$GPGSV,5,1,17,01,78,131,,32,19,045,27,19,17,320,31,04,29,200,35*7D
$GPGSV,5,2,17,31,21,110,36,28,26,080,31,17,38,295,41,21,51,140,45*7D
$GPGSV,5,3,17,03,67,285,48,02,73,151,48,09,05,212,,08,03,180,*78
$GPGSV,5,4,17,22,03,283,,36,35,170,40,34,31,208,,49,34,195,37*79
$GPGSV,5,5,17,61,03,257,*4B
$GLGSV,2,1,08,69,75,026,49,85,49,321,48,70,34,230,31,68,23,041,34*68
$GLGSV,2,2,08,84,72,155,37,83,08,147,,78,03,060,,77,08,007,*65
$GAGSV,3,1,11,11,70,121,34,19,15,042,22,12,17,124,24,09,46,187,24*65
$GAGSV,3,2,11,10,41,124,40,04,64,088,46,06,64,155,48,36,55,307,47*61
$GAGSV,3,3,11,30,06,320,33,34,05,305,36,02,03,273,23*5B
$GBGSV,5,1,18,20,80,238,47,35,27,312,44,30,26,165,32,06,29,069,27*66
$GBGSV,5,2,18,05,24,128,,39,27,053,34,09,30,084,26,19,29,236,41*60
$GBGSV,5,3,18,16,29,065,34,32,40,056,41,48,57,236,,29,65,234,54*6A
$GBGSV,5,4,18,25,03,024,,13,02,083,,23,04,071,,02,08,105,*67
$GBGSV,5,5,18,57,06,098,,60,10,109,*68
$GPGGA,004537.00,,,,,0,00,,,M,,M,,*4D
$PTNL,GGK,004537.00,010125,4742.4463355,N,01617.9729268,E,1,16,1.6,EHT668.8188,M*45
$GPGGQ,004537.00,010125,4742.4463355,N,01617.9729268,E,1,16,4.215,625.6078,M*37
$GPGFA,004537.00,29.600,22.535,3.113,0.721,38.712,2.748,,VVV*3A
$GPLLK,004537.00,010125,,M,,M,1,16,1.9,,M*01
$GNGMP,004537.00,,,,,DAAA,16,0.9,,,,*5D
$GPGMP,004537.00,,,,,,04,,,,2.8,123*76
$GLGMP,004537.00,,,,,,03,,,,,*79
$GAGMP,004537.00,,,,,,04,,,,,*73
$GBGMP,004537.00,,,,,,05,,,,,*71
$PSSN,SNC,[0,261955000,2347]*48
$GPZDA,004542.00,01,01,2025,,*64
$GPDTM,W84,,00.0000000,N,00.0000000,E,00.0000000,W84*5F
$GPRMC,004542.00,A,4742.4463389,N,01617.9729180,E,0.0,,010125,5.1,E,D*15
$GPGLL,4742.4463389,N,01617.9729180,E,004542.00,A,D*64
$GPGGA,004542.00,4742.4463389,N,01617.9729180,E,2,17,0.8,625.6227,M,43.2111,M,1.6,0123*44
$GNGNS,004542.00,4742.4463389,N,01617.9729180,E,DAAA,17,0.8,625.6227,43.2111,,*5F
$GPGNS,004542.00,,,,,,05,,,,1.6,123*78
$GLGNS,004542.00,,,,,,03,,,,,*7B
$GAGNS,004542.00,,,,,,04,,,,,*71
$GBGNS,004542.00,,,,,,05,,,,,*73
$GPLLQ,004542.00,010125,,M,,M,1,17,1.973,,M*1C
$GPVTG,,T,,M,0.01,N,0.01,K,D*26
$GPHDT,,T*1B
$GPTHS,,V*0E
$GPROT,,V*08
$PSSN,HRP,004542.00,010125,,,,,,,00,0,,*66
$PTNL,AVR,004542.00,,Yaw,,Tilt,,,,0,,00*30
$GPGSA,A,3,02,03,04,21,31,,,,,,,,1.5,0.8,1.2*39
$GPGSA,A,3,69,84,85,,,,,,,,,,1.5,0.8,1.2*33
$GPGSA,A,3,04,06,10,36,,,,,,,,,1.5,0.8,1.2*3B
$GPGSA,A,3,19,20,29,32,35,,,,,,,,1.5,0.8,1.2*3B
$GPGST,004542.00,1.985,1.039,0.647,3.694,1.037,0.649,1.548*55
$GPGBS,004542.00,6.086,3.971,10.277,03,0.0001,-0.810,0.593*46
$GPGRS,004542.00,1,0.8,-0.8,-0.0,-0.4,0.9,,,,,,,*47
$GPGRS,004542.00,1,-1.9,-3.7,-1.0,,,,,,,,,*47
$GPGRS,004542.00,1,0.3,-0.7,3.0,-1.0,,,,,,,,*4F
$GPGRS,004542.00,1,2.2,-0.8,0.7,0.8,-1.2,,,,,,,*63
$GPGSV,5,1,17,01,78,131,,32,19,045,26,19,17,320,,04,29,200,37*7C
$GPGSV,5,2,17,31,21,110,37,28,26,080,31,17,38,295,39,21,51,140,45*73
$GPGSV,5,3,17,03,67,285,48,02,73,151,48,09,05,212,,08,03,180,*78
$GPGSV,5,4,17,22,03,283,,36,35,170,40,34,31,208,,49,34,195,37*79
$GPGSV,5,5,17,61,03,257,*4B
$GLGSV,2,1,08,69,75,026,49,85,49,321,47,70,34,230,30,68,23,041,34*66
$GLGSV,2,2,08,84,72,155,38,83,08,147,,78,03,060,,77,08,007,*6A
$GAGSV,3,1,11,11,70,121,33,19,15,042,22,12,17,124,22,09,46,187,46*60
$GAGSV,3,2,11,10,41,124,37,04,64,088,45,06,64,155,47,36,55,307,47*6D
$GAGSV,3,3,11,30,06,320,33,34,05,305,35,02,03,273,23*58
$GBGSV,5,1,18,20,80,238,46,30,26,165,33,05,24,128,,06,29,069,37*6C
$GBGSV,5,2,18,35,27,312,42,39,27,053,33,09,30,084,24,19,29,236,42*6B
$GBGSV,5,3,18,16,29,065,34,32,40,056,42,48,57,236,,29,65,234,54*69
$GBGSV,5,4,18,25,03,024,,13,02,083,,23,04,071,,02,08,105,*67
$GBGSV,5,5,18,57,06,098,,60,10,109,*68
$GPGGA,004542.00,,,,,0,00,,,M,,M,,*4F
$PTNL,GGK,004542.00,010125,4742.4463389,N,01617.9729180,E,1,17,1.5,EHT668.8337,M*47
$GPGGQ,004542.00,010125,4742.4463389,N,01617.9729180,E,1,17,1.973,625.6227,M*36
$GPGFA,004542.00,9.874,12.691,1.039,0.647,3.694,1.548,,VVV*35
$GPLLK,004542.00,010125,,M,,M,1,17,1.7,,M*0C
$GNGMP,004542.00,,,,,DAAA,17,0.8,,,,*5F
$GPGMP,004542.00,,,,,,05,,,,1.6,123*78
$GLGMP,004542.00,,,,,,03,,,,,*7B
$GAGMP,004542.00,,,,,,04,,,,,*71
$GBGMP,004542.00,,,,,,05,,,,,*73
$PSSN,SNC,[0,261960000,2347]*4E
$GPZDA,004547.00,01,01,2025,,*61
$GPDTM,W84,,00.0000000,N,00.0000000,E,00.0000000,W84*5F
$GPRMC,004547.00,A,4742.4463400,N,01617.9729040,E,0.0,,010125,5.1,E,D*1B
$GPGLL,4742.4463400,N,01617.9729040,E,004547.00,A,D*6A
$GPGGA,004547.00,4742.4463400,N,01617.9729040,E,2,18,0.8,625.6388,M,43.2111,M,2.8,0123*4C
$GNGNS,004547.00,4742.4463400,N,01617.9729040,E,DAAA,18,0.8,625.6388,43.2111,,*5A
$GPGNS,004547.00,,,,,,04,,,,2.8,123*71
$GLGNS,004547.00,,,,,,03,,,,,*7E
$GAGNS,004547.00,,,,,,05,,,,,*75
$GBGNS,004547.00,,,,,,06,,,,,*75
$GPLLQ,004547.00,010125,,M,,M,1,18,3.693,,M*15
$GPVTG,,T,,M,0.01,N,0.02,K,D*25
$GPHDT,,T*1B
$GPTHS,,V*0E
$GPROT,,V*08
$PSSN,HRP,004547.00,010125,,,,,,,00,0,,*63
$PTNL,AVR,004547.00,,Yaw,,Tilt,,,,0,,00*35
$GPGSA,A,3,02,03,21,31,,,,,,,,,1.3,0.8,1.0*39
$GPGSA,A,3,69,84,85,,,,,,,,,,1.3,0.8,1.0*37
$GPGSA,A,3,04,06,09,34,36,,,,,,,,1.3,0.8,1.0*30
$GPGSA,A,3,06,19,20,29,32,35,,,,,,,1.3,0.8,1.0*39
$GPGST,004547.00,2.071,2.757,0.685,37.194,2.235,1.754,2.360*63
$GPGBS,004547.00,13.227,8.513,15.122,31,0.0001,1.157,1.032*53
$GPGRS,004547.00,1,0.5,-0.6,-0.4,1.2,,,,,,,,*48
$GPGRS,004547.00,1,-2.3,-1.3,-1.2,,,,,,,,,*4F
$GPGRS,004547.00,1,-0.2,-1.1,-1.2,-1.2,-1.3,,,,,,,*4F
$GPGRS,004547.00,1,0.9,4.0,-0.5,0.6,2.3,-2.9,,,,,,*48
$GPGSV,5,1,17,01,78,131,,32,19,045,,19,17,320,34,04,29,200,26*7F
$GPGSV,5,2,17,31,21,110,37,28,26,080,27,17,38,295,35,21,51,140,45*78
$GPGSV,5,3,17,03,67,286,48,02,73,151,49,09,05,212,,08,03,180,*7A
$GPGSV,5,4,17,22,03,283,,36,35,170,40,34,31,208,,49,34,195,37*79
$GPGSV,5,5,17,61,03,257,*4B
$GLGSV,2,1,08,69,75,026,49,85,49,321,46,70,34,230,32,68,23,041,34*65
$GLGSV,2,2,08,84,72,155,39,83,08,147,,78,03,060,,77,08,007,*6B
$GAGSV,3,1,11,11,70,121,31,19,15,042,24,12,17,124,19,09,46,187,46*6C
$GAGSV,3,2,11,10,41,124,32,04,64,088,44,06,64,155,46,36,55,307,46*69
$GAGSV,3,3,11,30,06,320,33,34,05,305,35,02,03,273,20*5B
$GBGSV,5,1,18,20,80,238,45,30,26,165,35,05,24,128,,06,29,069,24*6B
$GBGSV,5,2,18,35,27,312,40,39,27,053,33,09,30,084,25,19,29,236,43*69
$GBGSV,5,3,18,16,29,065,33,32,40,056,43,48,57,236,,29,65,234,53*68
$GBGSV,5,4,18,25,03,024,,13,02,083,,23,04,071,,02,08,105,*67
$GBGSV,5,5,18,57,06,098,,60,10,109,*68
$GPGGA,004547.00,,,,,0,00,,,M,,M,,*4A
$PTNL,GGK,004547.00,010125,4742.4463400,N,01617.9729040,E,1,18,1.3,EHT668.8498,M*42
$GPGGQ,004547.00,010125,4742.4463400,N,01617.9729040,E,1,18,3.693,625.6388,M*30
$GPGFA,004547.00,26.212,19.352,2.757,0.685,37.194,2.360,,VVV*3B
$GPLLK,004547.00,010125,,M,,M,1,18,1.5,,M*04
$GNGMP,004547.00,,,,,DAAA,18,0.8,,,,*55
$GPGMP,004547.00,,,,,,04,,,,2.8,123*71
$GLGMP,004547.00,,,,,,03,,,,,*7E
$GAGMP,004547.00,,,,,,05,,,,,*75
$GBGMP,004547.00,,,,,,06,,,,,*75
$PSSN,SNC,[0,261965000,2347]*4B
$GPZDA,004552.00,01,01,2025,,*65
$GPDTM,W84,,00.0000000,N,00.0000000,E,00.0000000,W84*5F
$GPRMC,004552.00,A,4742.4463395,N,01617.9728933,E,0.0,,010125,5.1,E,D*18
$GPGLL,4742.4463395,N,01617.9728933,E,004552.00,A,D*69
$GPGGA,004552.00,4742.4463395,N,01617.9728933,E,2,18,0.8,625.6419,M,43.2111,M,2.8,0123*40
$GNGNS,004552.00,4742.4463395,N,01617.9728933,E,DAAA,18,0.8,625.6419,43.2111,,*56
$GPGNS,004552.00,,,,,,04,,,,2.8,123*75
$GLGNS,004552.00,,,,,,03,,,,,*7A
$GAGNS,004552.00,,,,,,04,,,,,*70
$GBGNS,004552.00,,,,,,07,,,,,*70
$GPLLQ,004552.00,010125,,M,,M,1,18,3.665,,M*18
$GPVTG,,T,,M,0.01,N,0.01,K,D*26
$GPHDT,,T*1B
$GPTHS,,V*0E
$GPROT,,V*08
$PSSN,HRP,004552.00,010125,,,,,,,00,0,,*67
$PTNL,AVR,004552.00,,Yaw,,Tilt,,,,0,,00*31
$GPGSA,A,3,02,03,21,31,,,,,,,,,1.4,0.8,1.2*3C
$GPGSA,A,3,69,84,85,,,,,,,,,,1.4,0.8,1.2*32
$GPGSA,A,3,04,06,09,36,,,,,,,,,1.4,0.8,1.2*32
$GPGSA,A,3,09,19,20,29,30,32,35,,,,,,1.4,0.8,1.2*30
$GPGST,004552.00,2.540,2.648,0.691,38.909,2.106,1.748,2.438*6D
$GPGBS,004552.00,12.808,9.813,18.553,31,0.0001,0.757,1.052*53
$GPGRS,004552.00,1,0.4,-0.3,-0.4,0.8,,,,,,,,*43
$GPGRS,004552.00,1,-2.4,-1.6,-0.7,,,,,,,,,*4D
$GPGRS,004552.00,1,-1.0,-1.0,-0.9,-1.1,,,,,,,,*41
$GPGRS,004552.00,1,-1.3,5.8,0.3,0.6,0.0,2.7,-3.7,,,,,*6D
$GPGSV,5,1,17,01,78,131,,32,19,045,27,19,18,320,34,04,29,200,28*7B
$GPGSV,5,2,17,31,21,110,35,28,26,080,22,17,38,295,32,21,51,140,45*78
$GPGSV,5,3,17,03,67,286,48,02,72,151,49,09,05,212,,08,03,180,*7B
$GPGSV,5,4,17,22,03,283,,36,35,170,40,34,31,208,,49,34,195,37*79
$GPGSV,5,5,17,61,03,257,*4B
$GLGSV,2,1,08,69,75,026,49,85,49,321,47,70,34,230,32,68,23,041,33*63
$GLGSV,2,2,08,84,72,155,39,83,08,147,,78,04,060,,77,08,007,*6C
$GAGSV,3,1,11,11,70,121,29,19,15,042,23,12,17,124,,09,46,187,46*6A
$GAGSV,3,2,11,10,41,124,23,04,64,088,44,06,64,155,45,36,55,307,46*6A
$GAGSV,3,3,11,30,06,320,32,34,05,305,34,02,03,273,19*51
$GBGSV,5,1,18,20,80,238,44,30,26,165,38,05,24,128,,06,29,069,22*61
$GBGSV,5,2,18,35,27,312,38,39,27,053,33,09,30,084,25,19,29,236,43*66
$GBGSV,5,3,18,16,29,065,32,32,40,056,45,48,57,236,,29,65,234,53*6F
$GBGSV,5,4,18,25,03,024,,13,02,084,,23,04,071,,02,08,105,*60
$GBGSV,5,5,18,57,06,098,,60,10,109,*68
$GPGGA,004552.00,,,,,0,00,,,M,,M,,*4E
$PTNL,GGK,004552.00,010125,4742.4463395,N,01617.9728933,E,1,18,1.4,EHT668.8529,M*4D
$GPGGQ,004552.00,010125,4742.4463395,N,01617.9728933,E,1,18,3.665,625.6419,M*35
$GPGFA,004552.00,25.180,19.992,2.648,0.691,38.909,2.438,,VVV*31
$GPLLK,004552.00,010125,,M,,M,1,18,1.7,,M*02
$GNGMP,004552.00,,,,,DAAA,18,0.8,,,,*51
$GPGMP,004552.00,,,,,,04,,,,2.8,123*75
$GLGMP,004552.00,,,,,,03,,,,,*7A
$GAGMP,004552.00,,,,,,04,,,,,*70
$GBGMP,004552.00,,,,,,07,,,,,*70
$PSSN,SNC,[0,261970000,2347]*4F
$GPZDA,004557.00,01,01,2025,,*60
$GPDTM,W84,,00.0000000,N,00.0000000,E,00.0000000,W84*5F
$GPRMC,004557.00,A,4742.4463440,N,01617.9729005,E,0.0,,010125,5.1,E,D*1F
$GPGLL,4742.4463440,N,01617.9729005,E,004557.00,A,D*6E
$GPGGA,004557.00,4742.4463440,N,01617.9729005,E,2,17,0.9,625.6493,M,43.2111,M,3.5,0123*47
$GNGNS,004557.00,4742.4463440,N,01617.9729005,E,DAAA,17,0.9,625.6493,43.2111,,*5D
$GPGNS,004557.00,,,,,,04,,,,3.5,123*7C
$GLGNS,004557.00,,,,,,03,,,,,*7F
$GAGNS,004557.00,,,,,,04,,,,,*75
$GBGNS,004557.00,,,,,,06,,,,,*74
$GPLLQ,004557.00,010125,,M,,M,1,17,6.481,,M*1F
$GPVTG,,T,,M,0.01,N,0.02,K,D*25
$GPHDT,,T*1B
$GPTHS,,V*0E
$GPROT,,V*08
$PSSN,HRP,004557.00,010125,,,,,,,00,0,,*62
$PTNL,AVR,004557.00,,Yaw,,Tilt,,,,0,,00*34
$GPGSA,A,3,02,03,04,21,,,,,,,,,1.6,0.9,1.4*3F
$GPGSA,A,3,69,84,85,,,,,,,,,,1.6,0.9,1.4*37
$GPGSA,A,3,04,06,09,36,,,,,,,,,1.6,0.9,1.4*37
$GPGSA,A,3,19,20,29,30,32,35,,,,,,,1.6,0.9,1.4*3C
$GPGST,004557.00,2.780,3.204,0.986,27.044,2.889,1.701,5.547*61
$GPGBS,004557.00,11.574,9.562,26.969,04,0.0001,2.008,0.834*50
$GPGRS,004557.00,1,0.3,-0.1,2.0,-1.1,,,,,,,,*4D
$GPGRS,004557.00,1,-2.6,-1.6,-0.3,,,,,,,,,*4E
$GPGRS,004557.00,1,-1.3,-0.9,-0.8,-0.9,,,,,,,,*47
$GPGRS,004557.00,1,5.4,0.2,0.5,-0.6,2.0,-5.0,,,,,,*4A
$GPGSV,5,1,17,01,78,131,,32,19,045,28,19,18,320,35,04,29,200,39*75
$GPGSV,5,2,17,31,21,110,34,28,26,080,30,17,38,295,29,21,51,140,45*70
$GPGSV,5,3,17,03,67,286,49,02,72,151,49,09,05,212,,08,03,180,*7A
$GPGSV,5,4,17,22,03,283,,36,35,170,40,34,31,208,,49,34,195,37*79
$GPGSV,5,5,17,61,03,257,*4B
$GLGSV,2,1,08,69,75,026,49,85,49,321,47,70,34,230,33,68,23,041,32*63
$GLGSV,2,2,08,84,72,155,40,83,08,147,,78,04,060,,77,08,007,*62
$GAGSV,3,1,11,11,70,121,26,19,15,042,24,12,17,124,,09,46,187,46*62
$GAGSV,3,2,11,10,41,124,39,04,64,088,43,06,64,155,45,36,55,307,46*66
$GAGSV,3,3,11,30,06,320,31,34,05,305,33,02,03,273,19*55
$GBGSV,5,1,18,20,80,238,44,30,26,165,40,05,24,128,,06,29,069,23*6F
$GBGSV,5,2,18,35,27,312,39,39,27,053,33,09,30,084,25,19,29,236,43*67
$GBGSV,5,3,18,16,29,065,31,32,40,056,46,48,57,236,,29,65,234,53*6F
$GBGSV,5,4,18,25,03,024,,13,02,084,,23,04,071,,02,08,105,*60
$GBGSV,5,5,18,57,06,098,,60,10,109,*68
$GPGGA,004557.00,,,,,0,00,,,M,,M,,*4B
$PTNL,GGK,004557.00,010125,4742.4463440,N,01617.9729005,E,1,17,1.6,EHT668.8604,M*4B
$GPGGQ,004557.00,010125,4742.4463440,N,01617.9729005,E,1,17,6.481,625.6493,M*32
$GPGFA,004557.00,30.462,45.485,3.204,0.986,27.044,5.547,,VVV*3F
$GPLLK,004557.00,010125,,M,,M,1,17,2.0,,M*0C
$GNGMP,004557.00,,,,,DAAA,17,0.9,,,,*5A
$GPGMP,004557.00,,,,,,04,,,,3.5,123*7C
$GLGMP,004557.00,,,,,,03,,,,,*7F
$GAGMP,004557.00,,,,,,04,,,,,*75
$GBGMP,004557.00,,,,,,06,,,,,*74
$PSSN,SNC,[0,261975000,2347]*4A
$GPZDA,004602.00,01,01,2025,,*63
$GPDTM,W84,,00.0000000,N,00.0000000,E,00.0000000,W84*5F
$GPRMC,004602.00,A,4742.4463477,N,01617.9729095,E,0.0,,010125,5.1,E,D*11
$GPGLL,4742.4463477,N,01617.9729095,E,004602.00,A,D*60
$GPGGA,004602.00,4742.4463477,N,01617.9729095,E,2,18,0.8,625.6579,M,43.2111,M,2.0,0123*46
$GNGNS,004602.00,4742.4463477,N,01617.9729095,E,DAAA,18,0.8,625.6579,43.2111,,*58
$GPGNS,004602.00,,,,,,04,,,,2.0,123*7B
$GLGNS,004602.00,,,,,,03,,,,,*7C
$GAGNS,004602.00,,,,,,05,,,,,*77
$GBGNS,004602.00,,,,,,06,,,,,*77
$GPLLQ,004602.00,010125,,M,,M,1,18,4.356,,M*1C
$GPVTG,,T,,M,0.01,N,0.01,K,D*26
$GPHDT,,T*1B
$GPTHS,,V*0E
$GPROT,,V*08
$PSSN,HRP,004602.00,010125,,,,,,,00,0,,*61
$PTNL,AVR,004602.00,,Yaw,,Tilt,,,,0,,00*37
$GPGSA,A,3,02,03,19,21,,,,,,,,,1.5,0.8,1.2*37
$GPGSA,A,3,69,84,85,,,,,,,,,,1.5,0.8,1.2*33
$GPGSA,A,3,04,06,09,10,36,,,,,,,,1.5,0.8,1.2*32
$GPGSA,A,3,19,20,29,30,32,35,,,,,,,1.5,0.8,1.2*38
$GPGST,004602.00,3.259,3.663,0.597,40.950,2.794,2.443,2.279*6E
$GPGBS,004602.00,12.858,10.974,10.046,21,0.0001,-0.847,0.664*41
$GPGRS,004602.00,1,0.2,0.2,0.2,-0.8,,,,,,,,*69
$GPGRS,004602.00,1,-1.8,-1.6,0.2,,,,,,,,,*6C
$GPGRS,004602.00,1,-0.8,-0.6,7.7,3.2,-0.7,,,,,,,*45
$GPGRS,004602.00,1,4.4,0.5,0.8,-1.1,1.8,-3.8,,,,,,*41
$GPGSV,5,1,17,01,78,131,,32,18,045,31,19,18,320,36,28,26,080,27*7B
$GPGSV,5,2,17,04,29,200,29,31,21,110,33,17,38,295,34,21,51,140,45*78
$GPGSV,5,3,17,03,67,286,49,02,72,151,48,08,03,180,,09,05,212,*7B
$GPGSV,5,4,17,22,03,283,,36,35,170,40,34,31,208,,49,34,195,37*79
$GPGSV,5,5,17,61,03,257,*4B
$GLGSV,2,1,08,69,75,026,49,85,49,321,47,70,34,230,34,68,23,041,29*6E
$GLGSV,2,2,08,84,71,155,40,83,08,147,,78,04,060,,77,08,007,*61
$GAGSV,3,1,11,11,70,122,37,19,15,042,24,12,17,124,,09,46,187,36*66
$GAGSV,3,2,11,10,41,124,39,04,64,088,42,06,64,155,44,36,55,307,45*65
$GAGSV,3,3,11,30,06,320,30,34,05,305,32,02,03,273,20*5F
$GBGSV,5,1,18,20,80,239,43,30,26,165,41,05,24,128,,06,29,069,23*68
$GBGSV,5,2,18,35,27,312,42,39,27,053,33,09,30,084,26,19,29,237,43*69
$GBGSV,5,3,18,16,29,065,30,32,39,056,47,48,57,236,,29,65,233,53*66
$GBGSV,5,4,18,25,03,024,,13,02,084,,23,04,071,,02,08,105,*60
$GBGSV,5,5,18,57,06,098,,60,10,109,*68
$GPGGA,004602.00,,,,,0,00,,,M,,M,,*48
$PTNL,GGK,004602.00,010125,4742.4463477,N,01617.9729095,E,1,18,1.5,EHT668.8689,M*4C
$GPGGQ,004602.00,010125,4742.4463477,N,01617.9729095,E,1,18,4.356,625.6579,M*39
$GPGFA,004602.00,34.829,18.691,3.663,0.597,40.950,2.279,,VVV*3D
$GPLLK,004602.00,010125,,M,,M,1,18,1.7,,M*04
$GNGMP,004602.00,,,,,DAAA,18,0.8,,,,*57
$GPGMP,004602.00,,,,,,04,,,,2.0,123*7B
$GLGMP,004602.00,,,,,,03,,,,,*7C
$GAGMP,004602.00,,,,,,05,,,,,*77
$GBGMP,004602.00,,,,,,06,,,,,*77
$PSSN,SNC,[0,261980000,2347]*40
$GPZDA,004607.00,01,01,2025,,*66
$GPDTM,W84,,00.0000000,N,00.0000000,E,00.0000000,W84*5F
$GPRMC,004607.00,A,4742.4463455,N,01617.9729147,E,0.0,,010125,5.1,E,D*1A
$GPGLL,4742.4463455,N,01617.9729147,E,004607.00,A,D*6B
$GPGGA,004607.00,4742.4463455,N,01617.9729147,E,2,18,0.8,625.6537,M,43.2111,M,3.0,0123*46
$GNGNS,004607.00,4742.4463455,N,01617.9729147,E,DAAA,18,0.8,625.6537,43.2111,,*59
$GPGNS,004607.00,,,,,,04,,,,3.0,123*7F
$GLGNS,004607.00,,,,,,03,,,,,*79
$GAGNS,004607.00,,,,,,05,,,,,*72
$GBGNS,004607.00,,,,,,06,,,,,*72
$GPLLQ,004607.00,010125,,M,,M,1,18,3.602,,M*1A
$GPVTG,,T,,M,0.01,N,0.02,K,D*25
$GPHDT,,T*1B
$GPTHS,,V*0E
$GPROT,,V*08
$PSSN,HRP,004607.00,010125,,,,,,,00,0,,*64
$PTNL,AVR,004607.00,,Yaw,,Tilt,,,,0,,00*32
$GPGSA,A,3,02,03,19,21,,,,,,,,,1.5,0.8,1.2*37
$GPGSA,A,3,69,84,85,,,,,,,,,,1.5,0.8,1.2*33
$GPGSA,A,3,04,06,09,10,36,,,,,,,,1.5,0.8,1.2*32
$GPGSA,A,3,19,20,29,30,32,35,,,,,,,1.5,0.8,1.2*38
$GPGST,004607.00,2.416,3.036,0.515,40.693,2.326,2.017,1.870*63
$GPGBS,004607.00,12.997,11.112,10.080,21,0.0001,-0.620,0.684*44
$GPGRS,004607.00,1,-0.1,0.2,0.8,-0.6,,,,,,,,*46
$GPGRS,004607.00,1,-0.8,-1.4,1.1,,,,,,,,,*68
$GPGRS,004607.00,1,-0.3,-0.3,5.2,3.0,-0.9,,,,,,,*45
$GPGRS,004607.00,1,3.7,0.6,0.8,-1.4,1.4,-1.9,,,,,,*49
$GPGSV,5,1,17,01,77,131,,32,18,045,32,19,18,320,38,28,26,080,29*77
$GPGSV,5,2,17,04,29,200,24,31,21,110,32,17,38,295,31,21,51,140,44*70
$GPGSV,5,3,17,03,67,286,49,02,72,151,47,08,03,180,,09,05,212,*74
$GPGSV,5,4,17,22,03,283,,36,35,170,40,34,31,208,,49,34,195,37*79
$GPGSV,5,5,17,61,03,257,*4B
$GLGSV,2,1,08,69,75,026,49,85,49,321,47,70,34,230,33,68,23,041,27*67
$GLGSV,2,2,08,84,71,155,40,83,07,147,,78,04,060,,77,08,007,*6E
$GAGSV,3,1,11,11,70,122,25,19,15,042,24,12,17,124,,09,46,187,38*6B
$GAGSV,3,2,11,10,41,124,39,04,64,088,42,06,64,155,44,36,55,307,44*64
$GAGSV,3,3,11,30,06,320,28,34,05,305,30,02,03,273,21*55
$GBGSV,5,1,18,20,80,239,43,30,26,165,42,05,24,128,,39,27,053,33*61
$GBGSV,5,2,18,35,27,312,44,06,29,069,23,09,30,084,26,19,29,237,43*65
$GBGSV,5,3,18,16,29,065,29,32,39,056,48,48,57,236,,29,65,233,52*60
$GBGSV,5,4,18,25,03,024,,13,02,084,,02,08,105,,23,04,071,*60
$GBGSV,5,5,18,57,06,098,,60,10,109,*68
$GPGGA,004607.00,,,,,0,00,,,M,,M,,*4D
$PTNL,GGK,004607.00,010125,4742.4463455,N,01617.9729147,E,1,18,1.5,EHT668.8647,M*45
$GPGGQ,004607.00,010125,4742.4463455,N,01617.9729147,E,1,18,3.602,625.6537,M*3B
$GPGFA,004607.00,28.861,15.335,3.036,0.515,40.693,1.870,,VVV*33
$GPLLK,004607.00,010125,,M,,M,1,18,1.7,,M*01
$GNGMP,004607.00,,,,,DAAA,18,0.8,,,,*52
$GPGMP,004607.00,,,,,,04,,,,3.0,123*7F
$GLGMP,004607.00,,,,,,03,,,,,*79
$GAGMP,004607.00,,,,,,05,,,,,*72
$GBGMP,004607.00,,,,,,06,,,,,*72
$PSSN,SNC,[0,261985000,2347]*45
$GPZDA,004612.00,01,01,2025,,*62
$GPDTM,W84,,00.0000000,N,00.0000000,E,00.0000000,W84*5F
$GPRMC,004612.00,A,4742.4463492,N,01617.9729217,E,0.0,,010125,5.1,E,D*13
$GPGLL,4742.4463492,N,01617.9729217,E,004612.00,A,D*62
$GPGGA,004612.00,4742.4463492,N,01617.9729217,E,2,19,0.8,625.6712,M,43.2111,M,2.2,0123*48
$GNGNS,004612.00,4742.4463492,N,01617.9729217,E,DAAA,19,0.8,625.6712,43.2111,,*54
$GPGNS,004612.00,,,,,,05,,,,2.2,123*79
$GLGNS,004612.00,,,,,,03,,,,,*7D
$GAGNS,004612.00,,,,,,05,,,,,*76
$GBGNS,004612.00,,,,,,06,,,,,*76
$GPLLQ,004612.00,010125,,M,,M,1,19,2.891,,M*1A
$GPVTG,,T,,M,0.00,N,0.00,K,D*26
$GPHDT,,T*1B
$GPTHS,,V*0E
$GPROT,,V*08
$PSSN,HRP,004612.00,010125,,,,,,,00,0,,*60
$PTNL,AVR,004612.00,,Yaw,,Tilt,,,,0,,00*36
$GPGSA,A,3,02,03,04,19,21,,,,,,,,1.4,0.8,1.2*32
$GPGSA,A,3,69,84,85,,,,,,,,,,1.4,0.8,1.2*32
$GPGSA,A,3,04,06,09,10,36,,,,,,,,1.4,0.8,1.2*33
$GPGSA,A,3,19,20,29,30,32,35,,,,,,,1.4,0.8,1.2*39
$GPGST,004612.00,5.728,1.715,0.846,56.995,1.173,1.510,2.168*6C
$GPGBS,004612.00,5.458,6.320,9.178,10,0.0001,18.693,6.092*6A
$GPGRS,004612.00,1,-0.4,0.0,1.2,0.7,-0.9,,,,,,,*68
$GPGRS,004612.00,1,-0.7,-1.5,0.4,,,,,,,,,*66
$GPGRS,004612.00,1,-0.8,-0.5,4.7,18.7,-1.4,,,,,,,*79
$GPGRS,004612.00,1,2.5,0.8,0.5,-2.2,0.9,-0.9,,,,,,*45
$GPGSV,5,1,17,01,77,131,,32,18,045,32,19,18,320,39,28,26,080,29*76
$GPGSV,5,2,17,04,29,200,38,31,21,110,31,17,38,295,35,21,51,140,43*7D
$GPGSV,5,3,17,03,67,286,48,02,72,151,47,08,03,180,,09,05,212,*75
$GPGSV,5,4,17,22,03,283,,36,35,170,40,34,31,208,,49,34,195,37*79
$GPGSV,5,5,17,61,03,257,*4B
$GLGSV,2,1,08,69,75,026,49,85,49,321,48,70,34,230,33,68,23,041,23*6C
$GLGSV,2,2,08,84,71,155,39,83,07,147,,78,04,060,,77,08,007,*60
$GAGSV,3,1,11,11,70,122,26,19,15,042,24,12,17,124,,09,46,187,40*67
$GAGSV,3,2,11,10,41,124,37,04,64,087,42,06,64,155,45,36,55,307,44*64
$GAGSV,3,3,11,30,06,320,27,34,05,305,30,02,03,272,24*5E
$GBGSV,5,1,18,20,80,239,43,30,26,165,42,05,24,128,,39,27,053,33*61
$GBGSV,5,2,18,35,27,312,45,06,29,069,25,09,30,084,26,19,29,237,41*60
$GBGSV,5,3,18,16,29,065,27,32,39,056,48,48,57,236,,29,65,233,52*6E
$GBGSV,5,4,18,25,03,024,,13,02,084,,02,08,105,,23,04,071,*60
$GBGSV,5,5,18,57,06,098,,60,10,109,*68
$GPGGA,004612.00,,,,,0,00,,,M,,M,,*49
$PTNL,GGK,004612.00,010125,4742.4463492,N,01617.9729217,E,1,19,1.4,EHT668.8823,M*40
$GPGGQ,004612.00,010125,4742.4463492,N,01617.9729217,E,1,19,2.891,625.6712,M*33
$GPGFA,004612.00,16.307,17.774,1.715,0.846,56.995,2.168,,VVV*30
$GPLLK,004612.00,010125,,M,,M,1,19,1.7,,M*04
$GNGMP,004612.00,,,,,DAAA,19,0.8,,,,*57
$GPGMP,004612.00,,,,,,05,,,,2.2,123*79
$GLGMP,004612.00,,,,,,03,,,,,*7D
$GAGMP,004612.00,,,,,,05,,,,,*76
$GBGMP,004612.00,,,,,,06,,,,,*76
$PSSN,SNC,[0,261990000,2347]*41
$GPZDA,004617.00,01,01,2025,,*67
$GPDTM,W84,,00.0000000,N,00.0000000,E,00.0000000,W84*5F
$GPRMC,004617.00,A,4742.4463561,N,01617.9729411,E,0.0,,010125,5.1,E,D*1B
$GPGLL,4742.4463561,N,01617.9729411,E,004617.00,A,D*6A
$GPGGA,004617.00,4742.4463561,N,01617.9729411,E,2,19,0.8,625.6885,M,43.2111,M,3.2,0123*40
$GNGNS,004617.00,4742.4463561,N,01617.9729411,E,DAAA,19,0.8,625.6885,43.2111,,*5D
$GPGNS,004617.00,,,,,,05,,,,3.2,123*7D
$GLGNS,004617.00,,,,,,03,,,,,*78
$GAGNS,004617.00,,,,,,05,,,,,*73
$GBGNS,004617.00,,,,,,06,,,,,*73
$GPLLQ,004617.00,010125,,M,,M,1,19,2.601,,M*18
$GPVTG,,T,,M,0.00,N,0.01,K,D*27
$GPHDT,,T*1B
$GPTHS,,V*0E
$GPROT,,V*08
$PSSN,HRP,004617.00,010125,,,,,,,00,0,,*65
$PTNL,AVR,004617.00,,Yaw,,Tilt,,,,0,,00*33
$GPGSA,A,3,02,03,04,19,21,,,,,,,,1.4,0.8,1.2*32
$GPGSA,A,3,69,84,85,,,,,,,,,,1.4,0.8,1.2*32
$GPGSA,A,3,04,06,09,10,36,,,,,,,,1.4,0.8,1.2*33
$GPGSA,A,3,19,20,29,30,32,35,,,,,,,1.4,0.8,1.2*39
$GPGST,004617.00,4.323,1.543,0.758,56.791,1.056,1.356,1.952*6C
$GPGBS,004617.00,5.550,6.449,9.256,10,0.0001,12.506,6.092*64
$GPGRS,004617.00,1,-0.4,-0.1,1.2,1.7,-0.9,,,,,,,*40
$GPGRS,004617.00,1,-1.6,-1.2,0.5,,,,,,,,,*65
$GPGRS,004617.00,1,-1.5,-0.7,6.1,12.5,-1.8,,,,,,,*72
$GPGRS,004617.00,1,1.5,1.1,0.3,-3.3,0.5,-0.9,,,,,,*41
$GPGSV,5,1,17,01,77,131,,32,18,045,,19,18,320,39,28,26,080,36*79
$GPGSV,5,2,17,04,29,200,37,31,21,110,29,17,38,295,35,21,51,140,43*7B
$GPGSV,5,3,17,03,67,286,49,02,72,151,47,08,03,180,,09,05,212,*74
$GPGSV,5,4,17,22,03,283,,36,35,170,40,34,31,208,,49,34,195,37*79
$GPGSV,5,5,17,61,03,257,*4B
$GLGSV,2,1,08,69,75,026,49,85,49,321,48,70,34,230,32,68,23,041,*6C
$GLGSV,2,2,08,84,71,155,39,83,07,147,,78,04,060,,77,08,007,*60
$GAGSV,3,1,11,11,70,122,28,19,15,042,24,12,17,124,,09,46,187,40*69
$GAGSV,3,2,11,10,41,124,39,04,63,087,42,06,64,155,45,36,56,307,43*69
$GAGSV,3,3,11,30,06,320,26,34,05,305,29,02,03,272,25*56
$GBGSV,5,1,18,20,80,239,44,30,26,165,42,05,24,128,,39,27,053,33*66
$GBGSV,5,2,18,35,27,312,46,06,29,069,24,09,30,084,27,19,29,237,40*62
$GBGSV,5,3,18,16,29,065,26,32,39,056,49,48,57,236,,29,65,233,52*6E
$GBGSV,5,4,18,25,03,024,,13,02,084,,02,08,105,,23,04,071,*60
$GBGSV,5,5,18,57,06,098,,60,10,109,*68
$GPGGA,004617.00,,,,,0,00,,,M,,M,,*4C
$PTNL,GGK,004617.00,010125,4742.4463561,N,01617.9729411,E,1,19,1.4,EHT668.8995,M*44
$GPGGQ,004617.00,010125,4742.4463561,N,01617.9729411,E,1,19,2.601,625.6885,M*3D
$GPGFA,004617.00,14.667,16.008,1.543,0.758,56.791,1.952,,VVV*30
$GPLLK,004617.00,010125,,M,,M,1,19,1.7,,M*01
$GNGMP,004617.00,,,,,DAAA,19,0.8,,,,*52
$GPGMP,004617.00,,,,,,05,,,,3.2,123*7D
$GLGMP,004617.00,,,,,,03,,,,,*78
$GAGMP,004617.00,,,,,,05,,,,,*73
$GBGMP,004617.00,,,,,,06,,,,,*73
$PSSN,SNC,[0,261995000,2347]*44
$GPZDA,004622.00,01,01,2025,,*61
$GPDTM,W84,,00.0000000,N,00.0000000,E,00.0000000,W84*5F
$GPRMC,004622.00,A,4742.4463538,N,01617.9729490,E,0.0,,010125,5.1,E,D*18
$GPGLL,4742.4463538,N,01617.9729490,E,004622.00,A,D*69
$GPGGA,004622.00,4742.4463538,N,01617.9729490,E,2,19,0.8,625.7047,M,43.2111,M,1.8,0123*4C
$GNGNS,004622.00,4742.4463538,N,01617.9729490,E,DAAA,19,0.8,625.7047,43.2111,,*59
$GPGNS,004622.00,,,,,,05,,,,1.8,123*73
$GLGNS,004622.00,,,,,,03,,,,,*7E
$GAGNS,004622.00,,,,,,05,,,,,*75
$GBGNS,004622.00,,,,,,06,,,,,*75
$GPLLQ,004622.00,010125,,M,,M,1,19,2.080,,M*11
$GPVTG,,T,,M,0.00,N,0.01,K,D*27
$GPHDT,,T*1B
$GPTHS,,V*0E
$GPROT,,V*08
$PSSN,HRP,004622.00,010125,,,,,,,00,0,,*63
$PTNL,AVR,004622.00,,Yaw,,Tilt,,,,0,,00*35
$GPGSA,A,3,02,03,04,19,21,,,,,,,,1.4,0.8,1.2*32
$GPGSA,A,3,69,84,85,,,,,,,,,,1.4,0.8,1.2*32
$GPGSA,A,3,04,06,09,10,36,,,,,,,,1.4,0.8,1.2*33
$GPGSA,A,3,19,20,29,30,32,35,,,,,,,1.4,0.8,1.2*39
$GPGST,004622.00,3.499,1.237,0.607,56.740,0.847,1.087,1.558*68
$GPGBS,004622.00,5.344,6.306,9.375,10,0.0001,9.445,6.092*51
$GPGRS,004622.00,1,-0.1,0.4,0.6,0.1,-0.7,,,,,,,*67
$GPGRS,004622.00,1,-1.4,-1.9,-0.9,,,,,,,,,*4B
$GPGRS,004622.00,1,-1.3,-0.5,5.8,9.4,-1.7,,,,,,,*4E
$GPGRS,004622.00,1,1.0,1.3,0.9,-2.6,0.5,-1.2,,,,,,*44
$GPGSV,5,1,17,01,77,131,,32,18,045,33,19,18,320,37,28,26,080,37*76
$GPGSV,5,2,17,04,29,200,37,31,21,110,26,17,38,294,37,21,51,140,43*77
$GPGSV,5,3,17,03,67,286,49,02,72,151,48,08,03,180,,09,05,212,*7B
$GPGSV,5,4,17,22,03,283,,36,35,170,40,34,31,208,,49,34,195,37*79
$GPGSV,5,5,17,61,03,257,*4B
$GLGSV,2,1,08,69,75,026,49,85,49,321,47,70,34,230,31,68,23,041,29*6B
$GLGSV,2,2,08,84,71,155,39,83,07,147,,78,04,060,,77,08,007,*60
$GAGSV,3,1,11,11,70,122,30,19,15,042,23,12,17,124,,09,46,187,39*69
$GAGSV,3,2,11,10,41,124,39,04,63,087,42,36,56,307,42,06,64,155,45*68
$GAGSV,3,3,11,30,06,320,27,34,05,305,29,02,03,272,25*57
$GBGSV,5,1,18,20,80,239,44,30,26,165,42,05,24,128,,39,27,053,33*66
$GBGSV,5,2,18,35,27,312,45,06,29,069,24,09,30,084,27,19,29,237,38*6E
$GBGSV,5,3,18,16,29,065,24,32,39,056,48,48,57,236,,29,65,233,52*6D
$GBGSV,5,4,18,25,03,024,,13,02,084,,02,08,105,,23,04,071,*60
$GBGSV,5,5,18,57,06,098,,60,10,109,*68
$GPGGA,004622.00,,,,,0,00,,,M,,M,,*4A
$PTNL,GGK,004622.00,010125,4742.4463538,N,01617.9729490,E,1,19,1.4,EHT668.9158,M*4F
$GPGGQ,004622.00,010125,4742.4463538,N,01617.9729490,E,1,19,2.080,625.7047,M*36
$GPGFA,004622.00,11.763,12.775,1.237,0.607,56.740,1.558,,VVV*3A
$GPLLK,004622.00,010125,,M,,M,1,19,1.7,,M*07
$GNGMP,004622.00,,,,,DAAA,19,0.8,,,,*54
$GPGMP,004622.00,,,,,,05,,,,1.8,123*73
$GLGMP,004622.00,,,,,,03,,,,,*7E
$GAGMP,004622.00,,,,,,05,,,,,*75
$GBGMP,004622.00,,,,,,06,,,,,*75
$PSSN,SNC,[0,262000000,2347]*42
$GPZDA,004627.00,01,01,2025,,*64
$GPDTM,W84,,00.0000000,N,00.0000000,E,00.0000000,W84*5F
$GPRMC,004627.00,A,4742.4463550,N,01617.9729530,E,0.0,,010125,5.1,E,D*18
$GPGLL,4742.4463550,N,01617.9729530,E,004627.00,A,D*69
$GPGGA,004627.00,4742.4463550,N,01617.9729530,E,2,17,0.9,625.6945,M,43.2111,M,2.7,0123*45
$GNGNS,004627.00,4742.4463550,N,01617.9729530,E,DAAA,17,0.9,625.6945,43.2111,,*5C
$GPGNS,004627.00,,,,,,03,,,,2.7,123*7C
$GLGNS,004627.00,,,,,,03,,,,,*7B
$GAGNS,004627.00,,,,,,05,,,,,*70
$GBGNS,004627.00,,,,,,06,,,,,*70
$GPLLQ,004627.00,010125,,M,,M,1,17,5.818,,M*14
$GPVTG,,T,,M,0.00,N,0.00,K,D*26
$GPHDT,,T*1B
$GPTHS,,V*0E
$GPROT,,V*08
$PSSN,HRP,004627.00,010125,,,,,,,00,0,,*66
$PTNL,AVR,004627.00,,Yaw,,Tilt,,,,0,,00*30
$GPGSA,A,3,02,03,21,,,,,,,,,,1.6,0.9,1.4*3B
$GPGSA,A,3,69,84,85,,,,,,,,,,1.6,0.9,1.4*37
$GPGSA,A,3,04,06,09,10,36,,,,,,,,1.6,0.9,1.4*36
$GPGSA,A,3,19,20,29,30,32,35,,,,,,,1.6,0.9,1.4*3C
$GPGST,004627.00,3.562,3.865,0.806,36.271,3.153,2.377,4.273*62
$GPGBS,004627.00,19.171,13.238,31.528,10,0.0001,7.871,6.092*65
$GPGRS,004627.00,1,0.1,0.4,-0.4,,,,,,,,,*4B
$GPGRS,004627.00,1,-0.5,-1.0,-5.4,,,,,,,,,*4F
$GPGRS,004627.00,1,-1.2,-0.7,4.5,7.9,-1.3,,,,,,,*43
$GPGRS,004627.00,1,0.3,1.0,1.5,-2.2,0.1,-1.5,,,,,,*4A
$GPGSV,5,1,17,01,77,131,,32,18,045,33,19,18,320,33,28,26,080,35*70
$GPGSV,5,2,17,04,29,200,30,31,21,110,,17,38,294,39,21,51,140,42*7B
$GPGSV,5,3,17,03,67,286,50,02,72,151,48,08,03,180,,09,05,212,*73
$GPGSV,5,4,17,22,03,283,,36,35,170,41,34,31,208,,49,34,195,37*78
$GPGSV,5,5,17,61,03,257,*4B
$GLGSV,2,1,08,69,75,026,49,85,49,321,46,70,34,230,29,68,23,041,30*6B
$GLGSV,2,2,08,84,71,155,39,83,07,147,,78,04,060,,77,08,007,*60
$GAGSV,3,1,11,11,70,122,30,19,15,042,24,12,17,124,,09,46,187,37*60
$GAGSV,3,2,11,10,41,124,38,04,63,087,42,36,56,307,42,06,64,154,46*6B
$GAGSV,3,3,11,30,06,320,26,34,05,305,28,02,03,272,20*52
$GBGSV,5,1,18,20,80,239,44,30,26,165,42,05,24,128,,39,27,053,33*66
$GBGSV,5,2,18,35,27,312,45,06,29,069,24,09,30,084,27,19,29,237,38*6E
$GBGSV,5,3,18,16,29,065,25,32,39,056,48,48,57,236,,29,65,233,53*6D
$GBGSV,5,4,18,25,03,024,,13,02,084,,02,08,105,,23,04,071,*60
$GBGSV,5,5,18,57,06,098,,60,10,109,*68
$GPGGA,004627.00,,,,,0,00,,,M,,M,,*4F
$PTNL,GGK,004627.00,010125,4742.4463550,N,01617.9729530,E,1,17,1.6,EHT668.9055,M*4F
$GPGGQ,004627.00,010125,4742.4463550,N,01617.9729530,E,1,17,5.818,625.6945,M*3C
$GPGFA,004627.00,36.752,35.042,3.865,0.806,36.271,4.273,,VVV*34
$GPLLK,004627.00,010125,,M,,M,1,17,2.0,,M*08
$GNGMP,004627.00,,,,,DAAA,17,0.9,,,,*5E
$GPGMP,004627.00,,,,,,03,,,,2.7,123*7C
$GLGMP,004627.00,,,,,,03,,,,,*7B
$GAGMP,004627.00,,,,,,05,,,,,*70
$GBGMP,004627.00,,,,,,06,,,,,*70
$PSSN,SNC,[0,262005000,2347]*47
$GPZDA,004632.00,01,01,2025,,*60
$GPDTM,W84,,00.0000000,N,00.0000000,E,00.0000000,W84*5F
$GPRMC,004632.00,A,4742.4463548,N,01617.9729516,E,0.0,,010125,5.1,E,D*11
$GPGLL,4742.4463548,N,01617.9729516,E,004632.00,A,D*60
$GPGGA,004632.00,4742.4463548,N,01617.9729516,E,2,17,0.9,625.6818,M,43.2111,M,2.0,0123*42
$GNGNS,004632.00,4742.4463548,N,01617.9729516,E,DAAA,17,0.9,625.6818,43.2111,,*5C
$GPGNS,004632.00,,,,,,04,,,,2.0,123*78
$GLGNS,004632.00,,,,,,03,,,,,*7F
$GAGNS,004632.00,,,,,,04,,,,,*75
$GBGNS,004632.00,,,,,,06,,,,,*74
$GPLLQ,004632.00,010125,,M,,M,1,17,4.498,,M*15
$GPVTG,,T,,M,0.01,N,0.01,K,D*26
$GPHDT,,T*1B
$GPTHS,,V*0E
$GPROT,,V*08
$PSSN,HRP,004632.00,010125,,,,,,,00,0,,*62
$PTNL,AVR,004632.00,,Yaw,,Tilt,,,,0,,00*34
