$GPZDA,114442.00,01,01,2025,,*65
$GPDTM,W84,,00.0000000,N,00.0000000,E,00.0000000,W84*5F
$GPRMC,114442.00,A,4742.4455952,N,01617.9732207,E,0.0,,010125,5.1,E,D*1B
$GPGLL,4742.4455952,N,01617.9732207,E,114442.00,A,D*6A
$GPGGA,114442.00,4742.4455952,N,01617.9732207,E,2,17,0.7,624.9849,M,43.2110,M,2.0,0123*4D
$GNGNS,114442.00,4742.4455952,N,01617.9732207,E,DAAA,17,0.7,624.9849,43.2110,,*53
$GPGNS,114442.00,,,,,,03,,,,2.0,123*7A
$GLGNS,114442.00,,,,,,07,,,,,*7E
$GAGNS,114442.00,,,,,,03,,,,,*77
$GBGNS,114442.00,,,,,,04,,,,,*73
$GPLLQ,114442.00,010125,,M,,M,1,17,6.224,,M*13
$GPVTG,,T,,M,0.02,N,0.04,K,D*20
$GPHDT,,T*1B
$GPTHS,,V*0E
$GPROT,,V*08
$PSSN,HRP,114442.00,010125,,,,,,,00,0,,*67
$PTNL,AVR,114442.00,,Yaw,,Tilt,,,,0,,00*31
$GPGSA,A,3,15,19,24,,,,,,,,,,1.3,0.7,1.1*3D
$GPGSA,A,3,66,67,68,76,77,78,86,,,,,,1.3,0.7,1.1*38
$GPGSA,A,3,02,08,30,,,,,,,,,,1.3,0.7,1.1*3E
$GPGSA,A,3,24,26,41,44,,,,,,,,,1.3,0.7,1.1*30
$GPGST,114442.00,6.945,3.780,1.033,326.475,3.202,2.258,4.836*54
$GPGBS,114442.00,18.040,11.799,25.622,78,0.0001,17.498,6.328*50
$GPGRS,114442.00,1,0.1,0.6,0.0,,,,,,,,,*61
$GPGRS,114442.00,1,-5.5,2.1,3.8,-5.7,-6.3,17.5,1.7,,,,,*71
$GPGRS,114442.00,1,0.5,1.9,1.7,,,,,,,,,*6D
$GPGRS,114442.00,1,-2.4,-3.0,-4.6,3.1,,,,,,,,*60
$GPGSV,5,1,17,24,87,272,52,13,11,162,,25,15,251,34,32,11,324,34*74
$GPGSV,5,2,17,22,20,062,,15,27,193,36,10,12,295,28,17,27,048,41*7D
$GPGSV,5,3,17,19,49,078,40,12,55,250,39,06,09,108,,23,05,256,27*7F
$GPGSV,5,4,17,14,00,067,,36,35,170,34,34,31,208,33,49,34,195,35*76
$GPGSV,5,5,17,61,03,257,*4B
$GLGSV,3,1,09,77,66,330,42,76,44,060,45,78,17,274,38,66,18,201,39*6D
$GLGSV,3,2,09,87,18,133,29,85,18,024,30,68,30,322,46,86,33,082,42*6E
$GLGSV,3,3,09,67,46,257,47*5C
$GAGSV,4,1,13,02,69,055,45,18,51,142,,11,13,054,,25,17,062,27*6A
$GAGSV,4,2,13,07,50,288,33,08,49,196,45,30,53,248,39,03,08,163,*68
$GAGSV,4,3,13,10,09,028,,27,04,245,,29,07,324,32,12,02,007,*63
$GAGSV,4,4,13,36,09,101,*56
$GBGSV,6,1,21,26,62,077,42,44,21,156,39,11,12,236,,41,16,323,39*6C
$GBGSV,6,2,21,40,17,039,33,05,20,130,,29,18,042,33,42,18,215,30*6F
$GBGSV,6,3,21,07,20,051,30,33,33,272,33,35,38,105,34,14,30,241,32*66
$GBGSV,6,4,21,10,32,057,35,56,38,059,,24,60,288,48,02,04,109,*6A
$GBGSV,6,5,21,12,03,171,,45,09,090,,50,04,195,,25,08,276,*6D
$GBGSV,6,6,21,60,07,111,*58
$GPGGA,114442.00,,,,,0,00,,,M,,M,,*4E
$PTNL,GGK,114442.00,010125,4742.4455952,N,01617.9732207,E,1,17,1.3,EHT668.1960,M*4E
$GPGGQ,114442.00,010125,4742.4455952,N,01617.9732207,E,1,17,6.224,624.9849,M*3A
$GPGFA,114442.00,35.935,39.652,3.780,1.033,326.475,4.836,,VVV*02
$GPLLK,114442.00,010125,,M,,M,1,17,1.5,,M*0F
$GNGMP,114442.00,,,,,DAAA,17,0.7,,,,*51
$GPGMP,114442.00,,,,,,03,,,,2.0,123*7A
$GLGMP,114442.00,,,,,,07,,,,,*7E
$GAGMP,114442.00,,,,,,03,,,,,*77
$GBGMP,114442.00,,,,,,04,,,,,*73
$PSSN,SNC,[0,301500000,2347]*43
$GPZDA,114447.00,01,01,2025,,*60
$GPDTM,W84,,00.0000000,N,00.0000000,E,00.0000000,W84*5F
$GPRMC,114447.00,A,4742.4455925,N,01617.9732117,E,0.0,,010125,5.1,E,D*1C
$GPGLL,4742.4455925,N,01617.9732117,E,114447.00,A,D*6D
$GPGGA,114447.00,4742.4455925,N,01617.9732117,E,2,19,0.6,624.9970,M,43.2110,M,3.3,0123*4C
$GNGNS,114447.00,4742.4455925,N,01617.9732117,E,DAAA,19,0.6,624.9970,43.2110,,*50
$GPGNS,114447.00,,,,,,04,,,,3.3,123*7A
$GLGNS,114447.00,,,,,,06,,,,,*7A
$GAGNS,114447.00,,,,,,03,,,,,*72
$GBGNS,114447.00,,,,,,06,,,,,*74
$GPLLQ,114447.00,010125,,M,,M,1,19,7.222,,M*1F
$GPVTG,,T,,M,0.00,N,0.01,K,D*27
$GPHDT,,T*1B
$GPTHS,,V*0E
$GPROT,,V*08
$PSSN,HRP,114447.00,010125,,,,,,,00,0,,*62
$PTNL,AVR,114447.00,,Yaw,,Tilt,,,,0,,00*34
$GPGSA,A,3,12,15,19,24,,,,,,,,,1.1,0.6,0.9*34
$GPGSA,A,3,66,67,68,76,77,86,,,,,,,1.1,0.6,0.9*3D
$GPGSA,A,3,02,08,30,,,,,,,,,,1.1,0.6,0.9*34
$GPGSA,A,3,07,24,25,26,41,44,,,,,,,1.1,0.6,0.9*3A
$GPGST,114447.00,4.616,3.848,1.165,336.239,3.553,1.881,5.999*57
$GPGBS,114447.00,10.196,7.222,21.263,12,0.0001,2.153,0.715*56
$GPGRS,114447.00,1,2.2,-1.0,1.5,-1.2,,,,,,,,*4B
$GPGRS,114447.00,1,-5.2,1.0,5.0,-7.3,-7.6,1.6,,,,,,*61
$GPGRS,114447.00,1,-0.8,-0.2,0.1,,,,,,,,,*68
$GPGRS,114447.00,1,4.9,-3.8,-2.1,-4.0,-4.2,1.8,,,,,,*43
$GPGSV,5,1,17,24,87,272,52,13,11,162,,25,15,251,34,32,11,324,32*72
$GPGSV,5,2,17,22,20,062,,15,27,193,35,10,12,295,31,17,27,047,40*78
$GPGSV,5,3,17,19,49,078,44,12,55,250,39,06,09,108,,23,05,256,26*7A
$GPGSV,5,4,17,14,00,067,,36,35,170,35,34,31,208,33,49,34,195,35*77
$GPGSV,5,5,17,61,03,257,*4B
$GLGSV,3,1,09,77,66,330,42,76,44,060,44,78,17,274,39,66,18,201,38*6C
$GLGSV,3,2,09,87,18,133,29,85,17,024,29,68,30,321,48,86,33,082,43*65
$GLGSV,3,3,09,67,46,257,47*5C
$GAGSV,4,1,13,02,69,055,45,18,51,142,,11,13,054,,25,17,062,27*6A
$GAGSV,4,2,13,07,50,288,32,08,49,196,44,30,53,248,40,03,08,163,*66
$GAGSV,4,3,13,10,09,028,,27,04,245,,29,07,324,32,12,02,007,*63
$GAGSV,4,4,13,36,09,101,*56
$GBGSV,6,1,21,26,62,077,43,44,21,156,40,11,12,236,,41,16,323,39*63
$GBGSV,6,2,21,40,16,039,33,05,20,130,,29,18,042,33,42,18,215,28*67
$GBGSV,6,3,21,07,20,051,30,33,33,272,34,35,39,105,32,14,29,241,34*68
$GBGSV,6,4,21,10,32,057,34,56,38,059,,24,60,288,48,02,04,109,*6B
$GBGSV,6,5,21,12,03,171,,45,09,090,,50,04,195,,25,08,276,30*6E
$GBGSV,6,6,21,60,07,111,*58
$GPGGA,114447.00,,,,,0,00,,,M,,M,,*4B
$PTNL,GGK,114447.00,010125,4742.4455925,N,01617.9732117,E,1,19,1.1,EHT668.2081,M*40
$GPGGQ,114447.00,010125,4742.4455925,N,01617.9732117,E,1,19,7.222,624.9970,M*3F
$GPGFA,114447.00,36.583,49.194,3.848,1.165,336.239,5.999,,VVV*0C
$GPLLK,114447.00,010125,,M,,M,1,19,1.3,,M*02
$GNGMP,114447.00,,,,,DAAA,19,0.6,,,,*5B
$GPGMP,114447.00,,,,,,04,,,,3.3,123*7A
$GLGMP,114447.00,,,,,,06,,,,,*7A
$GAGMP,114447.00,,,,,,03,,,,,*72
$GBGMP,114447.00,,,,,,06,,,,,*74
$PSSN,SNC,[0,301505000,2347]*46
$GPZDA,114452.00,01,01,2025,,*64
$GPDTM,W84,,00.0000000,N,00.0000000,E,00.0000000,W84*5F
$GPRMC,114452.00,A,4742.4455869,N,01617.9732018,E,0.0,,010125,5.1,E,D*1F
$GPGLL,4742.4455869,N,01617.9732018,E,114452.00,A,D*6E
$GPGGA,114452.00,4742.4455869,N,01617.9732018,E,2,20,0.7,625.0214,M,43.2110,M,3.3,0123*45
$GNGNS,114452.00,4742.4455869,N,01617.9732018,E,DAAA,20,0.7,625.0214,43.2110,,*59
$GPGNS,114452.00,,,,,,04,,,,3.3,123*7E
$GLGNS,114452.00,,,,,,07,,,,,*7F
$GAGNS,114452.00,,,,,,03,,,,,*76
$GBGNS,114452.00,,,,,,06,,,,,*70
$GPLLQ,114452.00,010125,,M,,M,1,20,6.129,,M*18
$GPVTG,,T,,M,0.01,N,0.01,K,D*26
$GPHDT,,T*1B
$GPTHS,,V*0E
$GPROT,,V*08
$PSSN,HRP,114452.00,010125,,,,,,,00,0,,*66
$PTNL,AVR,114452.00,,Yaw,,Tilt,,,,0,,00*30
$GPGSA,A,3,12,17,19,24,,,,,,,,,1.2,0.7,1.0*3C
$GPGSA,A,3,66,67,68,76,77,78,86,,,,,,1.2,0.7,1.0*38
$GPGSA,A,3,02,08,30,,,,,,,,,,1.2,0.7,1.0*3E
$GPGSA,A,3,14,24,26,33,41,44,,,,,,,1.2,0.7,1.0*35
$GPGST,114452.00,5.646,4.051,1.285,340.951,3.852,1.795,4.416*54
$GPGBS,114452.00,8.244,6.349,15.543,17,0.0001,3.033,1.004*6D
$GPGRS,114452.00,1,-0.9,3.0,0.9,-1.5,,,,,,,,*4E
$GPGRS,114452.00,1,-5.2,1.6,6.8,-7.3,-8.1,10.3,0.5,,,,,*7E
$GPGRS,114452.00,1,-1.4,-1.1,-0.8,,,,,,,,,*47
$GPGRS,114452.00,1,-4.3,-4.2,-2.8,-6.0,-3.9,1.5,,,,,,*67
$GPGSV,5,1,17,24,87,271,52,13,11,162,,25,15,251,32,32,11,324,32*77
$GPGSV,5,2,17,22,20,062,,15,27,193,34,10,11,295,30,17,27,047,39*75
$GPGSV,5,3,17,19,49,078,45,12,55,250,40,06,09,107,,23,05,256,24*78
$GPGSV,5,4,17,14,00,067,,36,35,170,34,34,31,208,33,49,34,195,35*76
$GPGSV,5,5,17,61,03,257,*4B
$GLGSV,3,1,09,77,66,330,43,76,44,060,45,78,17,274,38,66,18,201,38*6D
$GLGSV,3,2,09,87,18,133,27,85,17,024,,68,31,321,47,86,33,082,44*69
$GLGSV,3,3,09,67,46,257,48*53
$GAGSV,4,1,13,02,69,055,44,18,51,142,,11,13,054,,25,17,062,27*6B
$GAGSV,4,2,13,07,50,288,32,08,49,196,43,30,53,248,40,03,08,163,*61
$GAGSV,4,3,13,10,09,028,,27,04,245,,29,07,324,31,12,02,007,*60
$GAGSV,4,4,13,36,09,101,*56
$GBGSV,6,1,21,26,62,077,44,44,21,156,40,11,12,236,,41,16,323,40*6A
$GBGSV,6,2,21,40,16,039,34,05,20,130,,29,18,042,33,42,18,215,27*6F
$GBGSV,6,3,21,07,20,051,29,33,33,272,37,35,39,105,35,14,29,241,36*66
$GBGSV,6,4,21,10,32,057,34,56,38,059,,24,60,288,49,02,04,109,*6A
$GBGSV,6,5,21,12,03,171,,45,09,090,,50,04,195,,25,08,276,32*6C
$GBGSV,6,6,21,60,07,111,*58
$GPGGA,114452.00,,,,,0,00,,,M,,M,,*4F
$PTNL,GGK,114452.00,010125,4742.4455869,N,01617.9732018,E,1,20,1.2,EHT668.2324,M*46
$GPGGQ,114452.00,010125,4742.4455869,N,01617.9732018,E,1,20,6.129,625.0214,M*3E
$GPGFA,114452.00,38.515,36.213,4.051,1.285,340.951,4.416,,VVV*08
$GPLLK,114452.00,010125,,M,,M,1,20,1.4,,M*0B
$GNGMP,114452.00,,,,,DAAA,20,0.7,,,,*54
$GPGMP,114452.00,,,,,,04,,,,3.3,123*7E
$GLGMP,114452.00,,,,,,07,,,,,*7F
$GAGMP,114452.00,,,,,,03,,,,,*76
$GBGMP,114452.00,,,,,,06,,,,,*70
$PSSN,SNC,[0,301510000,2347]*42
$GPZDA,114457.00,01,01,2025,,*61
$GPDTM,W84,,00.0000000,N,00.0000000,E,00.0000000,W84*5F
$GPRMC,114457.00,A,4742.4455796,N,01617.9731795,E,0.0,,010125,5.1,E,D*14
$GPGLL,4742.4455796,N,01617.9731795,E,114457.00,A,D*65
$GPGGA,114457.00,4742.4455796,N,01617.9731795,E,2,21,0.6,625.0515,M,43.2111,M,1.3,0123*4B
$GNGNS,114457.00,4742.4455796,N,01617.9731795,E,DAAA,21,0.6,625.0515,43.2111,,*55
$GPGNS,114457.00,,,,,,04,,,,1.3,123*79
$GLGNS,114457.00,,,,,,07,,,,,*7A
$GAGNS,114457.00,,,,,,03,,,,,*73
$GBGNS,114457.00,,,,,,07,,,,,*74
$GPLLQ,114457.00,010125,,M,,M,1,21,4.382,,M*1D
$GPVTG,,T,,M,0.01,N,0.01,K,D*26
$GPHDT,,T*1B
$GPTHS,,V*0E
$GPROT,,V*08
$PSSN,HRP,114457.00,010125,,,,,,,00,0,,*63
$PTNL,AVR,114457.00,,Yaw,,Tilt,,,,0,,00*35
$GPGSA,A,3,12,17,19,24,,,,,,,,,1.2,0.6,1.0*3D
$GPGSA,A,3,66,67,68,76,77,78,86,,,,,,1.2,0.6,1.0*39
$GPGSA,A,3,02,08,30,,,,,,,,,,1.2,0.6,1.0*3F
$GPGSA,A,3,14,24,26,33,35,41,44,,,,,,1.2,0.6,1.0*32
$GPGST,114457.00,3.973,2.896,0.910,341.095,2.756,1.274,3.159*54
$GPGBS,114457.00,8.019,6.075,14.956,17,0.0001,2.464,0.974*6F
$GPGRS,114457.00,1,-0.7,2.5,0.4,-0.7,,,,,,,,*4F
$GPGRS,114457.00,1,-4.2,3.2,5.9,-6.3,-6.8,7.0,1.0,,,,,*49
$GPGRS,114457.00,1,-0.5,-0.6,-0.6,,,,,,,,,*4A
$GPGRS,114457.00,1,0.9,-2.9,-1.6,0.6,-0.3,-0.4,1.4,,,,,*63
$GPGSV,5,1,17,24,88,271,53,13,11,162,,25,15,251,30,32,11,324,30*79
$GPGSV,5,2,17,22,20,062,,15,27,193,34,10,11,295,29,17,27,047,37*73
$GPGSV,5,3,17,19,49,078,45,12,55,250,42,06,09,107,,23,05,256,20*7E
$GPGSV,5,4,17,14,00,067,,36,35,170,34,34,31,208,33,49,34,195,35*76
$GPGSV,5,5,17,61,03,257,*4B
$GLGSV,3,1,09,77,66,330,43,76,44,060,45,78,17,274,36,66,18,201,37*6C
$GLGSV,3,2,09,87,18,133,25,85,17,024,,68,31,321,46,86,33,082,44*6A
$GLGSV,3,3,09,67,46,257,49*52
$GAGSV,4,1,13,02,69,055,44,18,51,142,,11,13,054,,25,17,062,25*69
$GAGSV,4,2,13,07,50,288,32,08,49,196,41,30,53,248,40,03,08,163,*63
$GAGSV,4,3,13,10,09,028,,27,04,245,,29,08,324,31,12,02,007,*6F
$GAGSV,4,4,13,36,09,101,*56
$GBGSV,6,1,21,26,62,077,44,44,21,156,40,11,12,236,,41,16,323,40*6A
$GBGSV,6,2,21,40,16,039,33,05,20,130,,29,18,042,32,42,18,215,32*6D
$GBGSV,6,3,21,07,20,051,29,33,33,272,40,35,39,105,36,14,29,241,37*64
$GBGSV,6,4,21,10,32,057,34,56,38,059,,24,60,288,49,02,04,109,*6A
$GBGSV,6,5,21,12,03,171,,45,09,090,,50,04,195,,25,08,276,*6D
$GBGSV,6,6,21,60,07,111,*58
$GPGGA,114457.00,,,,,0,00,,,M,,M,,*4A
$PTNL,GGK,114457.00,010125,4742.4455796,N,01617.9731795,E,1,21,1.2,EHT668.2626,M*4B
$GPGGQ,114457.00,010125,4742.4455796,N,01617.9731795,E,1,21,4.382,625.0515,M*33
$GPGFA,114457.00,27.535,25.908,2.896,0.910,341.095,3.159,,VVV*08
$GPLLK,114457.00,010125,,M,,M,1,21,1.4,,M*0F
$GNGMP,114457.00,,,,,DAAA,21,0.6,,,,*51
$GPGMP,114457.00,,,,,,04,,,,1.3,123*79
$GLGMP,114457.00,,,,,,07,,,,,*7A
$GAGMP,114457.00,,,,,,03,,,,,*73
$GBGMP,114457.00,,,,,,07,,,,,*74
$PSSN,SNC,[0,301515000,2347]*47
$GPZDA,114502.00,01,01,2025,,*60
$GPDTM,W84,,00.0000000,N,00.0000000,E,00.0000000,W84*5F
$GPRMC,114502.00,A,4742.4455718,N,01617.9731765,E,0.0,,010125,5.1,E,D*1C
$GPGLL,4742.4455718,N,01617.9731765,E,114502.00,A,D*6D
$GPGGA,114502.00,4742.4455718,N,01617.9731765,E,2,20,0.7,625.0617,M,43.2111,M,2.3,0123*41
$GNGNS,114502.00,4742.4455718,N,01617.9731765,E,DAAA,20,0.7,625.0617,43.2111,,*5C
$GPGNS,114502.00,,,,,,03,,,,2.3,123*7C
$GLGNS,114502.00,,,,,,07,,,,,*7B
$GAGNS,114502.00,,,,,,03,,,,,*72
$GBGNS,114502.00,,,,,,07,,,,,*75
$GPLLQ,114502.00,010125,,M,,M,1,20,4.910,,M*1C
$GPVTG,,T,,M,0.01,N,0.01,K,D*26
$GPHDT,,T*1B
$GPTHS,,V*0E
$GPROT,,V*08
$PSSN,HRP,114502.00,010125,,,,,,,00,0,,*62
$PTNL,AVR,114502.00,,Yaw,,Tilt,,,,0,,00*34
$GPGSA,A,3,12,19,24,,,,,,,,,,1.2,0.7,1.0*3A
$GPGSA,A,3,66,67,68,76,77,78,86,,,,,,1.2,0.7,1.0*38
$GPGSA,A,3,02,08,30,,,,,,,,,,1.2,0.7,1.0*3E
$GPGSA,A,3,14,24,26,33,35,41,44,,,,,,1.2,0.7,1.0*33
$GPGST,114502.00,4.124,3.468,0.603,343.951,3.337,1.120,3.423*52
$GPGBS,114502.00,16.222,5.297,21.376,78,0.0001,7.817,6.330*50
$GPGRS,114502.00,1,0.7,0.0,-0.7,,,,,,,,,*4E
$GPGRS,114502.00,1,-4.6,3.4,-0.5,-6.4,-7.1,7.8,0.7,,,,,*6F
$GPGRS,114502.00,1,-0.4,-1.2,-1.0,,,,,,,,,*48
$GPGRS,114502.00,1,1.2,-2.5,-2.1,2.8,-1.6,2.7,1.3,,,,,*43
$GPGSV,5,1,17,24,88,270,53,13,11,162,,25,15,251,30,32,11,324,28*71
$GPGSV,5,2,17,22,20,062,,15,27,193,34,10,11,295,30,17,27,047,34*78
$GPGSV,5,3,17,19,49,078,44,12,55,250,45,06,09,107,,23,05,256,27*7F
$GPGSV,5,4,17,14,00,067,,36,35,170,34,34,31,208,33,49,34,195,35*76
$GPGSV,5,5,17,61,03,257,*4B
$GLGSV,3,1,09,77,66,331,42,76,43,060,44,78,17,274,36,66,18,201,35*68
$GLGSV,3,2,09,87,18,133,21,85,17,024,35,68,31,321,45,86,33,082,43*6C
$GLGSV,3,3,09,67,46,257,50*5A
$GAGSV,4,1,13,02,69,055,44,18,51,142,,11,13,054,,25,17,063,25*68
$GAGSV,4,2,13,07,50,288,33,08,49,196,40,30,53,248,41,03,08,163,*62
$GAGSV,4,3,13,10,09,028,,27,04,245,,29,08,324,31,12,02,007,*6F
$GAGSV,4,4,13,36,09,101,*56
$GBGSV,6,1,21,26,62,078,45,44,21,156,40,11,12,236,,41,16,323,40*64
$GBGSV,6,2,21,40,16,039,34,05,20,130,,29,18,042,30,42,18,215,31*6B
$GBGSV,6,3,21,07,20,051,30,33,33,272,41,35,39,105,36,14,29,241,37*6D
$GBGSV,6,4,21,10,32,057,34,56,38,059,,24,60,288,50,02,04,109,*62
$GBGSV,6,5,21,12,03,171,,45,09,090,,50,04,195,,25,08,276,30*6E
$GBGSV,6,6,21,60,07,111,*58
$GPGGA,114502.00,,,,,0,00,,,M,,M,,*4B
$PTNL,GGK,114502.00,010125,4742.4455718,N,01617.9731765,E,1,20,1.2,EHT668.2728,M*4D
$GPGGQ,114502.00,010125,4742.4455718,N,01617.9731765,E,1,20,4.910,625.0617,M*3A
$GPGFA,114502.00,32.973,28.067,3.468,0.603,343.951,3.423,,VVV*04
$GPLLK,114502.00,010125,,M,,M,1,20,1.4,,M*0F
$GNGMP,114502.00,,,,,DAAA,20,0.7,,,,*50
$GPGMP,114502.00,,,,,,03,,,,2.3,123*7C
$GLGMP,114502.00,,,,,,07,,,,,*7B
$GAGMP,114502.00,,,,,,03,,,,,*72
$GBGMP,114502.00,,,,,,07,,,,,*75
$PSSN,SNC,[0,301520000,2347]*41
$GPZDA,114507.00,01,01,2025,,*65
$GPDTM,W84,,00.0000000,N,00.0000000,E,00.0000000,W84*5F
$GPRMC,114507.00,A,4742.4455719,N,01617.9731907,E,0.0,,010125,5.1,E,D*12
$GPGLL,4742.4455719,N,01617.9731907,E,114507.00,A,D*63
$GPGGA,114507.00,4742.4455719,N,01617.9731907,E,2,19,0.7,625.0774,M,43.2111,M,3.3,0123*40
$GNGNS,114507.00,4742.4455719,N,01617.9731907,E,DAAA,19,0.7,625.0774,43.2111,,*5C
$GPGNS,114507.00,,,,,,03,,,,3.3,123*78
$GLGNS,114507.00,,,,,,06,,,,,*7F
$GAGNS,114507.00,,,,,,03,,,,,*77
$GBGNS,114507.00,,,,,,07,,,,,*70
$GPLLQ,114507.00,010125,,M,,M,1,19,10.045,,M*2F
$GPVTG,,T,,M,0.01,N,0.03,K,D*24
$GPHDT,,T*1B
$GPTHS,,V*0E
$GPROT,,V*08
$PSSN,HRP,114507.00,010125,,,,,,,00,0,,*67
$PTNL,AVR,114507.00,,Yaw,,Tilt,,,,0,,00*31
$GPGSA,A,3,12,19,24,,,,,,,,,,1.3,0.7,1.0*3B
$GPGSA,A,3,67,68,76,77,78,86,,,,,,,1.3,0.7,1.0*39
$GPGSA,A,3,02,08,30,,,,,,,,,,1.3,0.7,1.0*3F
$GPGSA,A,3,14,24,25,26,33,41,44,,,,,,1.3,0.7,1.0*33
$GPGST,114507.00,11.509,7.701,1.406,344.639,7.436,2.449,6.294*64
$GPGBS,114507.00,22.239,6.771,21.068,25,0.0001,33.720,9.072*64
$GPGRS,114507.00,1,1.2,-0.6,-0.7,,,,,,,,,*64
$GPGRS,114507.00,1,4.0,-2.1,-7.5,-8.6,16.0,-0.2,,,,,,*76
$GPGRS,114507.00,1,-0.4,-1.9,-1.4,,,,,,,,,*42
$GPGRS,114507.00,1,-2.4,-2.5,33.7,-2.3,2.0,3.8,1.3,,,,,*77
$GPGSV,5,1,17,24,88,269,53,13,11,162,,25,15,251,31,32,11,324,25*75
$GPGSV,5,2,17,22,20,062,,15,27,193,35,10,11,295,29,17,27,047,29*7D
$GPGSV,5,3,17,19,49,078,43,12,55,250,47,06,09,107,,23,05,256,26*7B
$GPGSV,5,4,17,14,00,067,,36,35,170,34,34,31,208,33,49,34,195,34*77
$GPGSV,5,5,17,61,03,257,*4B
$GLGSV,3,1,09,77,66,331,41,76,43,060,43,78,17,274,37,66,18,201,31*69
$GLGSV,3,2,09,87,18,133,25,85,17,024,34,68,31,321,45,86,33,082,43*69
$GLGSV,3,3,09,67,46,257,51*5B
$GAGSV,4,1,13,02,69,055,44,18,51,142,,11,13,054,,25,17,063,24*69
$GAGSV,4,2,13,07,50,288,35,08,49,196,40,30,53,248,41,03,08,163,*64
$GAGSV,4,3,13,10,09,027,,27,04,245,,29,08,324,30,12,02,007,*61
$GAGSV,4,4,13,36,09,101,*56
$GBGSV,6,1,21,26,62,078,44,44,21,156,39,11,12,236,,41,16,323,40*6B
$GBGSV,6,2,21,40,16,039,34,05,20,130,,29,18,042,32,42,18,215,32*6A
$GBGSV,6,3,21,07,20,051,29,33,33,271,41,35,39,105,35,14,29,241,36*64
$GBGSV,6,4,21,10,32,057,34,56,38,059,,24,60,288,50,02,04,109,*62
$GBGSV,6,5,21,12,03,171,,45,08,090,,50,04,195,,25,08,276,34*6B
$GBGSV,6,6,21,60,07,111,*58
$GPGGA,114507.00,,,,,0,00,,,M,,M,,*4E
$PTNL,GGK,114507.00,010125,4742.4455719,N,01617.9731907,E,1,19,1.3,EHT668.2884,M*41
$GPGGQ,114507.00,010125,4742.4455719,N,01617.9731907,E,1,19,10.045,625.0774,M*06
$GPGFA,114507.00,73.223,51.609,7.701,1.406,344.639,6.294,,VVV*0D
$GPLLK,114507.00,010125,,M,,M,1,19,1.5,,M*01
$GNGMP,114507.00,,,,,DAAA,19,0.7,,,,*5F
$GPGMP,114507.00,,,,,,03,,,,3.3,123*78
$GLGMP,114507.00,,,,,,06,,,,,*7F
$GAGMP,114507.00,,,,,,03,,,,,*77
$GBGMP,114507.00,,,,,,07,,,,,*70
$PSSN,SNC,[0,301525000,2347]*44
$GPZDA,114512.00,01,01,2025,,*61
$GPDTM,W84,,00.0000000,N,00.0000000,E,00.0000000,W84*5F
$GPRMC,114512.00,A,4742.4455714,N,01617.9732090,E,0.0,,010125,5.1,E,D*1F
$GPGLL,4742.4455714,N,01617.9732090,E,114512.00,A,D*6E
$GPGGA,114512.00,4742.4455714,N,01617.9732090,E,2,18,0.7,625.0829,M,43.2110,M,3.3,0123*4A
$GNGNS,114512.00,4742.4455714,N,01617.9732090,E,DAAA,18,0.7,625.0829,43.2110,,*56
$GPGNS,114512.00,,,,,,04,,,,3.3,123*7B
$GLGNS,114512.00,,,,,,05,,,,,*78
$GAGNS,114512.00,,,,,,03,,,,,*73
$GBGNS,114512.00,,,,,,06,,,,,*75
$GPLLQ,114512.00,010125,,M,,M,1,18,6.519,,M*11
$GPVTG,,T,,M,0.00,N,0.01,K,D*27
$GPHDT,,T*1B
$GPTHS,,V*0E
$GPROT,,V*08
$PSSN,HRP,114512.00,010125,,,,,,,00,0,,*63
$PTNL,AVR,114512.00,,Yaw,,Tilt,,,,0,,00*35
$GPGSA,A,3,12,15,19,24,,,,,,,,,1.3,0.7,1.0*3F
$GPGSA,A,3,67,68,76,77,86,,,,,,,,1.3,0.7,1.0*36
$GPGSA,A,3,02,08,30,,,,,,,,,,1.3,0.7,1.0*3F
$GPGSA,A,3,24,25,26,33,41,44,,,,,,,1.3,0.7,1.0*36
$GPGST,114512.00,10.316,3.507,1.119,337.642,3.271,1.688,5.381*61
$GPGBS,114512.00,9.415,6.630,20.301,25,0.0001,31.688,8.846*57
$GPGRS,114512.00,1,1.2,-0.5,-0.1,-0.5,,,,,,,,*63
$GPGRS,114512.00,1,4.2,-1.2,-5.9,-8.9,1.1,,,,,,,*47
$GPGRS,114512.00,1,-0.6,-1.5,-1.2,,,,,,,,,*4E
$GPGRS,114512.00,1,-2.7,31.7,-2.3,-0.0,3.5,1.1,,,,,,*56
$GPGSV,5,1,17,24,88,269,53,13,11,162,21,25,15,251,32,32,11,324,21*71
$GPGSV,5,2,17,22,20,062,,15,27,193,36,10,11,295,25,17,27,047,21*7A
$GPGSV,5,3,17,19,49,078,41,12,55,250,48,06,09,107,,23,05,256,25*75
$GPGSV,5,4,17,14,00,067,,36,35,170,34,34,31,208,33,49,34,195,34*77
$GPGSV,5,5,17,61,03,257,*4B
$GLGSV,3,1,09,77,66,331,41,76,43,060,43,78,17,275,37,66,17,201,26*61
$GLGSV,3,2,09,87,18,133,,85,17,024,24,68,31,321,44,86,33,082,44*69
$GLGSV,3,3,09,67,46,257,50*5A
$GAGSV,4,1,13,02,69,055,44,18,51,142,,11,13,054,,25,17,063,25*68
$GAGSV,4,2,13,07,50,288,35,08,49,196,40,30,53,248,41,03,08,163,*64
$GAGSV,4,3,13,10,09,027,,27,04,245,,29,08,324,30,12,02,007,*61
$GAGSV,4,4,13,36,09,101,*56
$GBGSV,6,1,21,26,62,078,44,44,21,156,39,11,12,236,,41,16,323,40*6B
$GBGSV,6,2,21,40,16,039,34,05,20,130,,29,18,042,33,42,18,215,34*6D
$GBGSV,6,3,21,07,20,051,29,33,33,271,41,35,39,105,35,14,29,241,34*66
$GBGSV,6,4,21,10,32,057,34,56,38,059,,24,60,288,50,02,04,109,*62
$GBGSV,6,5,21,12,03,171,,45,08,090,,50,04,195,,25,08,276,35*6A
$GBGSV,6,6,21,60,07,111,*58
$GPGGA,114512.00,,,,,0,00,,,M,,M,,*4A
$PTNL,GGK,114512.00,010125,4742.4455714,N,01617.9732090,E,1,18,1.3,EHT668.2939,M*4A
$GPGGQ,114512.00,010125,4742.4455714,N,01617.9732090,E,1,18,6.519,625.0829,M*36
$GPGFA,114512.00,33.339,44.120,3.507,1.119,337.642,5.381,,VVV*0A
$GPLLK,114512.00,010125,,M,,M,1,18,1.5,,M*04
$GNGMP,114512.00,,,,,DAAA,18,0.7,,,,*5A
$GPGMP,114512.00,,,,,,04,,,,3.3,123*7B
$GLGMP,114512.00,,,,,,05,,,,,*78
$GAGMP,114512.00,,,,,,03,,,,,*73
$GBGMP,114512.00,,,,,,06,,,,,*75
$PSSN,SNC,[0,301530000,2347]*40
$GPZDA,114517.00,01,01,2025,,*64
$GPDTM,W84,,00.0000000,N,00.0000000,E,00.0000000,W84*5F
$GPRMC,114517.00,A,4742.4455682,N,01617.9732127,E,0.0,,010125,5.1,E,D*19
$GPGLL,4742.4455682,N,01617.9732127,E,114517.00,A,D*68
$GPGGA,114517.00,4742.4455682,N,01617.9732127,E,2,19,0.7,625.0902,M,43.2110,M,1.3,0123*47
$GNGNS,114517.00,4742.4455682,N,01617.9732127,E,DAAA,19,0.7,625.0902,43.2110,,*59
$GPGNS,114517.00,,,,,,04,,,,1.3,123*7C
$GLGNS,114517.00,,,,,,06,,,,,*7E
$GAGNS,114517.00,,,,,,03,,,,,*76
$GBGNS,114517.00,,,,,,06,,,,,*70
$GPLLQ,114517.00,010125,,M,,M,1,19,5.652,,M*1A
$GPVTG,,T,,M,0.01,N,0.02,K,D*25
$GPHDT,,T*1B
$GPTHS,,V*0E
$GPROT,,V*08
$PSSN,HRP,114517.00,010125,,,,,,,00,0,,*66
$PTNL,AVR,114517.00,,Yaw,,Tilt,,,,0,,00*30
$GPGSA,A,3,12,15,19,24,,,,,,,,,1.3,0.7,1.1*3E
$GPGSA,A,3,67,68,76,77,78,86,,,,,,,1.3,0.7,1.1*38
$GPGSA,A,3,02,08,30,,,,,,,,,,1.3,0.7,1.1*3E
$GPGSA,A,3,24,26,33,35,41,44,,,,,,,1.3,0.7,1.1*36
$GPGST,114517.00,5.072,3.025,0.979,338.430,2.837,1.438,4.673*5A
$GPGBS,114517.00,8.827,6.483,19.210,78,0.0001,11.988,6.330*5E
$GPGRS,114517.00,1,0.4,-0.4,0.2,-0.5,,,,,,,,*4E
$GPGRS,114517.00,1,3.8,-2.3,-4.9,-8.5,12.0,2.4,,,,,,*5B
$GPGRS,114517.00,1,-1.3,-0.7,-1.0,,,,,,,,,*4E
$GPGRS,114517.00,1,-2.7,-3.1,-1.1,-4.6,1.0,0.0,,,,,,*4D
$GPGSV,5,1,17,24,88,268,53,13,11,162,20,25,15,251,32,32,11,324,28*78
$GPGSV,5,2,17,22,20,062,,15,27,193,36,10,11,295,26,17,27,047,19*72
$GPGSV,5,3,17,19,49,078,40,12,55,250,47,06,09,107,,23,04,256,22*7D
$GPGSV,5,4,17,14,00,067,,36,35,170,34,34,31,208,33,49,34,195,35*76
$GPGSV,5,5,17,61,03,257,*4B
$GLGSV,3,1,09,77,66,331,40,76,43,060,45,78,17,275,35,66,17,201,30*63
$GLGSV,3,2,09,87,18,132,,85,17,024,33,68,31,321,42,86,33,082,42*6E
$GLGSV,3,3,09,67,46,257,49*52
$GAGSV,4,1,13,02,69,055,44,18,51,142,,11,13,054,,25,17,063,23*6E
$GAGSV,4,2,13,07,50,288,35,08,49,196,40,30,53,248,42,03,08,163,*67
$GAGSV,4,3,13,10,09,027,,27,04,245,,29,08,324,29,12,02,007,*69
$GAGSV,4,4,13,36,09,101,*56
$GBGSV,6,1,21,26,62,078,43,44,21,156,37,11,12,236,,41,16,323,39*6C
$GBGSV,6,2,21,40,16,039,34,05,20,130,,29,18,041,34,42,18,215,34*69
$GBGSV,6,3,21,07,20,051,28,33,33,271,41,35,39,105,35,14,29,240,32*60
$GBGSV,6,4,21,10,32,057,34,56,38,059,,24,60,288,50,02,04,109,*62
$GBGSV,6,5,21,12,04,171,,45,08,090,,50,03,195,,25,08,277,37*69
$GBGSV,6,6,21,60,07,111,*58
$GPGGA,114517.00,,,,,0,00,,,M,,M,,*4F
$PTNL,GGK,114517.00,010125,4742.4455682,N,01617.9732127,E,1,19,1.3,EHT668.3013,M*4D
$GPGGQ,114517.00,010125,4742.4455682,N,01617.9732127,E,1,19,5.652,625.0902,M*36
$GPGFA,114517.00,28.765,38.318,3.025,0.979,338.430,4.673,,VVV*01
$GPLLK,114517.00,010125,,M,,M,1,19,1.5,,M*00
$GNGMP,114517.00,,,,,DAAA,19,0.7,,,,*5E
$GPGMP,114517.00,,,,,,04,,,,1.3,123*7C
$GLGMP,114517.00,,,,,,06,,,,,*7E
$GAGMP,114517.00,,,,,,03,,,,,*76
$GBGMP,114517.00,,,,,,06,,,,,*70
$PSSN,SNC,[0,301535000,2347]*45
$GPZDA,114522.00,01,01,2025,,*62
$GPDTM,W84,,00.0000000,N,00.0000000,E,00.0000000,W84*5F
$GPRMC,114522.00,A,4742.4455709,N,01617.9732161,E,0.0,,010125,5.1,E,D*1F
$GPGLL,4742.4455709,N,01617.9732161,E,114522.00,A,D*6E
$GPGGA,114522.00,4742.4455709,N,01617.9732161,E,2,18,0.7,625.0922,M,43.2110,M,2.3,0123*41
$GNGNS,114522.00,4742.4455709,N,01617.9732161,E,DAAA,18,0.7,625.0922,43.2110,,*5C
$GPGNS,114522.00,,,,,,04,,,,2.3,123*79
$GLGNS,114522.00,,,,,,05,,,,,*7B
$GAGNS,114522.00,,,,,,03,,,,,*70
$GBGNS,114522.00,,,,,,06,,,,,*76
$GPLLQ,114522.00,010125,,M,,M,1,18,3.341,,M*1C
$GPVTG,,T,,M,0.00,N,0.01,K,D*27
$GPHDT,,T*1B
$GPTHS,,V*0E
$GPROT,,V*08
$PSSN,HRP,114522.00,010125,,,,,,,00,0,,*60
$PTNL,AVR,114522.00,,Yaw,,Tilt,,,,0,,00*36
$GPGSA,A,3,12,15,19,24,,,,,,,,,1.4,0.7,1.2*3A
$GPGSA,A,3,67,68,76,77,86,,,,,,,,1.4,0.7,1.2*33
$GPGSA,A,3,02,08,30,,,,,,,,,,1.4,0.7,1.2*3A
$GPGSA,A,3,24,26,33,35,41,44,,,,,,,1.4,0.7,1.2*32
$GPGST,114522.00,3.668,1.812,0.565,337.173,1.684,0.875,2.750*52
$GPGBS,114522.00,9.555,6.897,20.510,77,0.0001,-8.136,6.080*4A
$GPGRS,114522.00,1,0.3,0.4,-0.1,-0.3,,,,,,,,*4A
$GPGRS,114522.00,1,4.6,-2.1,-3.2,-8.1,1.9,,,,,,,*4D
$GPGRS,114522.00,1,-0.8,0.4,0.1,,,,,,,,,*41
$GPGRS,114522.00,1,-2.4,-3.7,-0.4,-4.4,-0.0,1.4,,,,,,*61
$GPGSV,5,1,17,24,88,267,53,13,11,162,,25,15,251,32,32,11,323,23*79
$GPGSV,5,2,17,22,20,062,,15,27,193,37,10,11,295,20,17,27,047,32*7C
$GPGSV,5,3,17,19,49,078,41,12,55,251,47,06,09,107,,23,04,256,*7D
$GPGSV,5,4,17,14,00,067,,36,35,170,35,34,31,208,33,49,34,195,34*76
$GPGSV,5,5,17,61,03,257,*4B
$GLGSV,3,1,09,77,66,331,39,76,43,060,46,78,18,275,35,66,17,201,*62
$GLGSV,3,2,09,87,19,132,28,85,17,024,,68,31,321,41,86,33,082,41*65
$GLGSV,3,3,09,67,46,257,49*52
$GAGSV,4,1,13,02,69,055,44,18,51,141,,11,13,053,,25,17,063,23*6A
$GAGSV,4,2,13,07,51,288,34,08,49,196,40,30,53,249,42,03,08,163,*66
$GAGSV,4,3,13,10,09,027,,27,04,245,,29,08,324,29,12,02,007,*69
$GAGSV,4,4,13,36,09,101,*56
$GBGSV,6,1,21,26,62,078,43,44,21,156,35,11,12,236,,41,16,323,39*6E
$GBGSV,6,2,21,40,16,039,34,05,20,130,,29,18,041,34,42,18,215,35*68
$GBGSV,6,3,21,07,20,051,28,33,33,271,41,35,39,105,36,14,29,240,30*61
$GBGSV,6,4,21,10,32,057,34,56,38,059,,24,60,288,49,02,04,109,*6A
$GBGSV,6,5,21,12,04,171,,45,08,090,,50,03,195,,25,08,277,37*69
$GBGSV,6,6,21,60,07,111,*58
$GPGGA,114522.00,,,,,0,00,,,M,,M,,*49
$PTNL,GGK,114522.00,010125,4742.4455709,N,01617.9732161,E,1,18,1.4,EHT668.3033,M*4F
$GPGGQ,114522.00,010125,4742.4455709,N,01617.9732161,E,1,18,3.341,625.0922,M*32
$GPGFA,114522.00,17.226,22.547,1.812,0.565,337.173,2.750,,VVV*0A
$GPLLK,114522.00,010125,,M,,M,1,18,1.6,,M*04
$GNGMP,114522.00,,,,,DAAA,18,0.7,,,,*59
$GPGMP,114522.00,,,,,,04,,,,2.3,123*79
$GLGMP,114522.00,,,,,,05,,,,,*7B
$GAGMP,114522.00,,,,,,03,,,,,*70
$GBGMP,114522.00,,,,,,06,,,,,*76
$PSSN,SNC,[0,301540000,2347]*47
$GPZDA,114527.00,01,01,2025,,*67
$GPDTM,W84,,00.0000000,N,00.0000000,E,00.0000000,W84*5F
$GPRMC,114527.00,A,4742.4455770,N,01617.9732205,E,0.0,,010125,5.1,E,D*15
$GPGLL,4742.4455770,N,01617.9732205,E,114527.00,A,D*64
$GPGGA,114527.00,4742.4455770,N,01617.9732205,E,2,17,0.8,625.0994,M,43.2110,M,3.3,0123*47
$GNGNS,114527.00,4742.4455770,N,01617.9732205,E,DAAA,17,0.8,625.0994,43.2110,,*5B
$GPGNS,114527.00,,,,,,04,,,,3.3,123*7D
$GLGNS,114527.00,,,,,,05,,,,,*7E
$GAGNS,114527.00,,,,,,03,,,,,*75
$GBGNS,114527.00,,,,,,05,,,,,*70
$GPLLQ,114527.00,010125,,M,,M,1,17,3.818,,M*11
$GPVTG,,T,,M,0.01,N,0.01,K,D*26
$GPHDT,,T*1B
$GPTHS,,V*0E
$GPROT,,V*08
$PSSN,HRP,114527.00,010125,,,,,,,00,0,,*65
$PTNL,AVR,114527.00,,Yaw,,Tilt,,,,0,,00*33
$GPGSA,A,3,12,15,19,24,,,,,,,,,1.5,0.8,1.3*35
$GPGSA,A,3,67,68,76,77,86,,,,,,,,1.5,0.8,1.3*3C
$GPGSA,A,3,02,08,30,,,,,,,,,,1.5,0.8,1.3*35
$GPGSA,A,3,24,26,33,35,41,,,,,,,,1.5,0.8,1.3*3D
$GPGST,114527.00,3.936,2.082,0.630,336.885,1.930,1.002,3.138*53
$GPGBS,114527.00,10.191,7.180,20.915,77,0.0001,-9.209,6.081*73
$GPGRS,114527.00,1,0.4,0.9,-0.1,-0.5,,,,,,,,*43
$GPGRS,114527.00,1,4.9,-1.3,-3.0,-9.2,1.0,,,,,,,*4F
$GPGRS,114527.00,1,-0.7,0.4,-0.2,,,,,,,,,*65
$GPGRS,114527.00,1,-2.6,-3.3,-0.8,-3.8,-0.7,,,,,,,*49
$GPGSV,5,1,17,24,88,266,53,13,11,162,,25,15,251,30,32,11,323,28*71
$GPGSV,5,2,17,22,20,062,,15,27,193,37,10,11,295,26,17,27,047,25*7C
$GPGSV,5,3,17,19,49,078,42,12,55,251,48,06,09,107,,23,04,256,*71
$GPGSV,5,4,17,14,00,067,,36,35,170,34,34,31,208,33,49,34,195,34*77
$GPGSV,5,5,17,61,03,257,*4B
$GLGSV,3,1,09,77,66,331,38,76,43,060,45,78,18,275,32,66,17,201,*67
$GLGSV,3,2,09,87,19,132,26,85,17,024,,68,31,321,41,86,33,082,40*6A
$GLGSV,3,3,09,67,46,256,49*53
$GAGSV,4,1,13,02,69,055,44,18,51,141,,11,13,053,,25,17,063,24*6D
$GAGSV,4,2,13,07,51,288,32,08,49,196,41,30,53,249,42,03,08,163,*61
$GAGSV,4,3,13,10,09,027,,27,04,245,,29,08,324,30,12,02,007,*61
$GAGSV,4,4,13,36,09,101,*56
$GBGSV,6,1,21,26,62,078,44,44,21,156,33,11,12,236,,41,16,323,39*6F
$GBGSV,6,2,21,40,16,039,34,05,20,130,,29,18,041,33,42,18,215,27*6C
$GBGSV,6,3,21,07,20,051,28,33,33,271,40,35,39,105,36,14,29,240,31*61
$GBGSV,6,4,21,10,32,057,34,56,38,059,,24,60,288,49,02,04,109,*6A
$GBGSV,6,5,21,12,04,171,,45,08,090,,50,03,195,,25,08,277,36*68
$GBGSV,6,6,21,60,07,111,*58
$GPGGA,114527.00,,,,,0,00,,,M,,M,,*4C
$PTNL,GGK,114527.00,010125,4742.4455770,N,01617.9732205,E,1,17,1.5,EHT668.3105,M*4F
$GPGGQ,114527.00,010125,4742.4455770,N,01617.9732205,E,1,17,3.818,625.0994,M*3D
$GPGFA,114527.00,19.792,25.729,2.082,0.630,336.885,3.138,,VVV*0F
$GPLLK,114527.00,010125,,M,,M,1,17,1.8,,M*00
$GNGMP,114527.00,,,,,DAAA,17,0.8,,,,*5C
$GPGMP,114527.00,,,,,,04,,,,3.3,123*7D
$GLGMP,114527.00,,,,,,05,,,,,*7E
$GAGMP,114527.00,,,,,,03,,,,,*75
$GBGMP,114527.00,,,,,,05,,,,,*70
$PSSN,SNC,[0,301545000,2347]*42
$GPZDA,114532.00,01,01,2025,,*63
$GPDTM,W84,,00.0000000,N,00.0000000,E,00.0000000,W84*5F
$GPRMC,114532.00,A,4742.4455831,N,01617.9732291,E,0.0,,010125,5.1,E,D*16
$GPGLL,4742.4455831,N,01617.9732291,E,114532.00,A,D*67
$GPGGA,114532.00,4742.4455831,N,01617.9732291,E,2,18,0.7,625.1134,M,43.2110,M,3.3,0123*47
$GNGNS,114532.00,4742.4455831,N,01617.9732291,E,DAAA,18,0.7,625.1134,43.2110,,*5B
$GPGNS,114532.00,,,,,,04,,,,3.3,123*79
$GLGNS,114532.00,,,,,,06,,,,,*79
$GAGNS,114532.00,,,,,,03,,,,,*71
$GBGNS,114532.00,,,,,,05,,,,,*74
$GPLLQ,114532.00,010125,,M,,M,1,18,5.635,,M*1D
$GPVTG,,T,,M,0.01,N,0.01,K,D*26
$GPHDT,,T*1B
$GPTHS,,V*0E
$GPROT,,V*08
$PSSN,HRP,114532.00,010125,,,,,,,00,0,,*61
$PTNL,AVR,114532.00,,Yaw,,Tilt,,,,0,,00*37
$GPGSA,A,3,12,15,19,24,,,,,,,,,1.4,0.7,1.2*3A
$GPGSA,A,3,66,67,68,76,77,86,,,,,,,1.4,0.7,1.2*33
$GPGSA,A,3,02,08,30,,,,,,,,,,1.4,0.7,1.2*3A
$GPGSA,A,3,24,26,33,35,41,,,,,,,,1.4,0.7,1.2*32
$GPGST,114532.00,5.945,3.037,0.934,336.991,2.819,1.466,4.653*57
$GPGBS,114532.00,9.805,6.878,21.406,66,0.0001,13.947,6.263*53
$GPGRS,114532.00,1,0.8,0.7,-0.5,-0.8,,,,,,,,*4C
$GPGRS,114532.00,1,13.9,5.2,-0.4,-4.5,-9.2,1.6,,,,,,*56
$GPGRS,114532.00,1,-0.7,-0.1,-1.7,,,,,,,,,*4D
$GPGRS,114532.00,1,-2.7,-2.5,-1.6,-6.0,-1.2,,,,,,,*4D
$GPGSV,4,1,16,24,88,266,52,13,11,162,20,25,15,251,,32,11,323,31*79
$GPGSV,4,2,16,22,20,062,,15,27,193,37,10,11,295,28,17,27,047,28*7F
$GPGSV,4,3,16,19,49,077,43,12,55,251,49,06,09,107,,23,04,256,23*7F
$GPGSV,4,4,16,36,35,170,34,34,31,208,32,49,34,195,34,61,03,257,*76
$GLGSV,3,1,09,77,66,331,37,76,43,060,44,78,18,275,,66,17,201,36*6D
$GLGSV,3,2,09,87,19,132,,85,17,024,28,68,31,321,41,86,33,082,39*6A
$GLGSV,3,3,09,67,46,256,49*53
$GAGSV,4,1,13,02,69,055,45,18,51,141,,11,13,053,,25,16,063,23*6A
$GAGSV,4,2,13,07,51,288,30,08,49,196,41,30,53,249,42,03,07,163,*6C
$GAGSV,4,3,13,10,09,027,,27,04,245,,29,08,324,31,12,02,007,*60
$GAGSV,4,4,13,36,09,101,*56
$GBGSV,6,1,21,26,62,078,44,44,21,156,31,11,12,236,,41,16,322,38*6D
$GBGSV,6,2,21,40,16,039,33,05,20,130,,29,18,041,33,42,18,215,28*64
$GBGSV,6,3,21,07,20,051,28,33,33,271,41,35,39,105,37,14,29,240,32*62
$GBGSV,6,4,21,10,32,057,34,56,38,059,,24,60,288,48,02,04,109,*6B
$GBGSV,6,5,21,12,04,171,,45,08,090,,50,03,195,,25,08,277,34*6A
$GBGSV,6,6,21,60,07,111,*58
$GPGGA,114532.00,,,,,0,00,,,M,,M,,*48
$PTNL,GGK,114532.00,010125,4742.4455831,N,01617.9732291,E,1,18,1.4,EHT668.3244,M*44
$GPGGQ,114532.00,010125,4742.4455831,N,01617.9732291,E,1,18,5.635,625.1134,M*35
$GPGFA,114532.00,28.876,38.158,3.037,0.934,336.991,4.653,,VVV*0D
$GPLLK,114532.00,010125,,M,,M,1,18,1.6,,M*05
$GNGMP,114532.00,,,,,DAAA,18,0.7,,,,*58
$GPGMP,114532.00,,,,,,04,,,,3.3,123*79
$GLGMP,114532.00,,,,,,06,,,,,*79
$GAGMP,114532.00,,,,,,03,,,,,*71
$GBGMP,114532.00,,,,,,05,,,,,*74
$PSSN,SNC,[0,301550000,2347]*46
$GPZDA,114537.00,01,01,2025,,*66
$GPDTM,W84,,00.0000000,N,00.0000000,E,00.0000000,W84*5F
$GPRMC,114537.00,A,4742.4455918,N,01617.9732389,E,0.0,,010125,5.1,E,D*11
$GPGLL,4742.4455918,N,01617.9732389,E,114537.00,A,D*60
$GPGGA,114537.00,4742.4455918,N,01617.9732389,E,2,18,0.7,625.1294,M,43.2110,M,1.3,0123*4B
$GNGNS,114537.00,4742.4455918,N,01617.9732389,E,DAAA,18,0.7,625.1294,43.2110,,*55
$GPGNS,114537.00,,,,,,03,,,,1.3,123*79
$GLGNS,114537.00,,,,,,07,,,,,*7D
$GAGNS,114537.00,,,,,,03,,,,,*74
$GBGNS,114537.00,,,,,,05,,,,,*71
$GPLLQ,114537.00,010125,,M,,M,1,18,5.906,,M*17
$GPVTG,,T,,M,0.00,N,0.01,K,D*27
$GPHDT,,T*1B
$GPTHS,,V*0E
$GPROT,,V*08
$PSSN,HRP,114537.00,010125,,,,,,,00,0,,*64
$PTNL,AVR,114537.00,,Yaw,,Tilt,,,,0,,00*32
$GPGSA,A,3,12,19,24,,,,,,,,,,1.4,0.7,1.1*3D
$GPGSA,A,3,66,67,68,76,77,78,86,,,,,,1.4,0.7,1.1*3F
$GPGSA,A,3,02,08,30,,,,,,,,,,1.4,0.7,1.1*39
$GPGSA,A,3,24,26,33,35,41,,,,,,,,1.4,0.7,1.1*31
$GPGST,114537.00,6.059,3.577,0.965,340.884,3.395,1.484,4.599*53
$GPGBS,114537.00,19.330,6.182,21.180,78,0.0001,-10.929,6.320*42
$GPGRS,114537.00,1,0.9,-0.4,-0.5,,,,,,,,,*6D
$GPGRS,114537.00,1,9.7,4.9,1.7,-4.2,-8.5,-10.9,0.7,,,,,*79
$GPGRS,114537.00,1,-0.9,-0.0,-1.7,,,,,,,,,*47
$GPGRS,114537.00,1,-2.6,-1.2,-0.7,-7.8,-0.4,,,,,,,*43
$GPGSV,4,1,16,24,88,265,52,13,11,162,,25,15,251,27,32,11,323,33*7F
$GPGSV,4,2,16,22,20,062,,15,27,193,35,10,11,295,35,17,27,047,31*79
$GPGSV,4,3,16,19,49,077,43,12,55,251,50,06,09,107,,23,04,256,25*71
$GPGSV,4,4,16,36,35,170,34,34,31,208,32,49,34,195,34,61,03,257,*76
$GLGSV,3,1,09,77,66,331,37,76,43,060,44,78,18,275,41,66,17,201,36*68
$GLGSV,3,2,09,87,19,132,,85,17,024,25,68,31,321,42,86,33,082,38*65
$GLGSV,3,3,09,67,46,256,49*53
$GAGSV,4,1,13,02,69,055,45,18,51,141,,11,13,053,,25,16,063,24*6D
$GAGSV,4,2,13,07,51,288,29,08,49,196,41,30,53,249,42,03,07,163,*64
$GAGSV,4,3,13,10,09,027,,27,04,245,,29,08,324,34,12,02,007,*65
$GAGSV,4,4,13,36,09,100,*57
$GBGSV,6,1,21,26,62,078,45,44,21,156,30,11,12,236,,41,16,322,38*6D
$GBGSV,6,2,21,40,16,039,33,05,20,130,,29,18,041,33,42,18,215,30*6D
$GBGSV,6,3,21,07,20,051,28,33,33,271,42,35,39,105,36,14,29,240,34*66
$GBGSV,6,4,21,10,32,057,35,56,38,059,,24,60,288,48,02,04,109,*6A
$GBGSV,6,5,21,12,04,171,,45,08,090,,50,03,195,,25,08,277,30*6E
$GBGSV,6,6,21,60,07,111,*58
$GPGGA,114537.00,,,,,0,00,,,M,,M,,*4D
$PTNL,GGK,114537.00,010125,4742.4455918,N,01617.9732389,E,1,18,1.4,EHT668.3404,M*41
$GPGGQ,114537.00,010125,4742.4455918,N,01617.9732389,E,1,18,5.906,625.1294,M*34
$GPGFA,114537.00,34.012,37.713,3.577,0.965,340.884,4.599,,VVV*0D
$GPLLK,114537.00,010125,,M,,M,1,18,1.6,,M*00
$GNGMP,114537.00,,,,,DAAA,18,0.7,,,,*5D
$GPGMP,114537.00,,,,,,03,,,,1.3,123*79
$GLGMP,114537.00,,,,,,07,,,,,*7D
$GAGMP,114537.00,,,,,,03,,,,,*74
$GBGMP,114537.00,,,,,,05,,,,,*71
$PSSN,SNC,[0,301555000,2347]*43
$GPZDA,114542.00,01,01,2025,,*64
$GPDTM,W84,,00.0000000,N,00.0000000,E,00.0000000,W84*5F
$GPRMC,114542.00,A,4742.4455931,N,01617.9732488,E,0.0,,010125,5.1,E,D*1E
$GPGLL,4742.4455931,N,01617.9732488,E,114542.00,A,D*6F
$GPGGA,114542.00,4742.4455931,N,01617.9732488,E,2,20,0.9,625.1305,M,43.2110,M,2.3,0123*4B
$GNGNS,114542.00,4742.4455931,N,01617.9732488,E,DAAA,20,0.9,625.1305,43.2110,,*56
$GPGNS,114542.00,,,,,,03,,,,2.3,123*78
$GLGNS,114542.00,,,,,,05,,,,,*7D
$GAGNS,114542.00,,,,,,03,,,,,*76
$GBGNS,114542.00,,,,,,09,,,,,*7F
$GPLLQ,114542.00,010125,,M,,M,1,20,6.116,,M*14
$GPVTG,,T,,M,0.00,N,0.01,K,D*27
$GPHDT,,T*1B
$GPTHS,,V*0E
$GPROT,,V*08
$PSSN,HRP,114542.00,010125,,,,,,,00,0,,*66
$PTNL,AVR,114542.00,,Yaw,,Tilt,,,,0,,00*30
$GPGSA,A,3,12,19,24,,,,,,,,,,1.4,0.9,1.0*32
$GPGSA,A,3,67,68,76,77,78,,,,,,,,1.4,0.9,1.0*3E
$GPGSA,A,3,02,08,30,,,,,,,,,,1.4,0.9,1.0*36
$GPGSA,A,3,07,14,24,25,26,29,33,40,41,,,,1.4,0.9,1.0*32
$GPGST,114542.00,7.203,5.088,0.735,343.763,4.889,1.588,3.314*58
$GPGBS,114542.00,35.445,11.096,21.120,40,0.0001,18.481,8.865*56
$GPGRS,114542.00,1,0.9,-0.3,-0.3,,,,,,,,,*6E
$GPGRS,114542.00,1,4.1,2.1,-3.2,-8.7,-3.0,,,,,,,*41
$GPGRS,114542.00,1,-1.1,0.2,-0.5,,,,,,,,,*60
$GPGRS,114542.00,1,0.0,-1.5,-3.2,-12.8,-0.5,5.9,1.1,18.5,0.3,,,*6F
$GPGSV,4,1,16,24,88,264,51,13,11,162,,25,15,251,28,32,11,323,35*74
$GPGSV,4,2,16,22,20,062,,15,26,193,32,10,11,295,25,17,27,047,33*7C
$GPGSV,4,3,16,19,49,077,44,12,55,251,50,06,09,107,,23,04,256,25*76
$GPGSV,4,4,16,36,35,170,34,34,31,208,32,49,34,195,34,61,03,257,*76
$GLGSV,3,1,09,77,66,331,37,76,43,060,44,78,18,275,41,66,17,201,32*6C
$GLGSV,3,2,09,87,19,132,23,85,17,024,33,68,31,321,42,86,34,082,34*68
$GLGSV,3,3,09,67,46,256,48*52
$GAGSV,4,1,13,02,69,055,45,18,51,141,,11,13,053,,25,16,063,24*6D
$GAGSV,4,2,13,07,51,288,30,08,49,196,41,30,53,249,43,03,07,163,*6D
$GAGSV,4,3,13,10,09,027,,27,04,245,,29,08,324,35,12,02,006,*65
$GAGSV,4,4,13,36,09,100,*57
$GBGSV,6,1,21,26,62,078,45,44,21,156,28,11,12,236,,41,16,322,38*64
$GBGSV,6,2,21,40,16,039,33,05,20,130,,29,18,041,34,42,18,215,30*6A
$GBGSV,6,3,21,07,20,051,28,33,33,271,43,35,39,105,34,14,29,240,36*67
$GBGSV,6,4,21,10,32,057,35,56,38,059,,24,60,288,48,02,04,109,*6A
$GBGSV,6,5,21,12,04,171,,45,08,090,,50,03,195,,25,08,277,28*67
$GBGSV,6,6,21,60,07,111,*58
$GPGGA,114542.00,,,,,0,00,,,M,,M,,*4F
$PTNL,GGK,114542.00,010125,4742.4455931,N,01617.9732488,E,1,20,1.4,EHT668.3416,M*46
$GPGGQ,114542.00,010125,4742.4455931,N,01617.9732488,E,1,20,6.116,625.1305,M*33
$GPGFA,114542.00,48.372,27.179,5.088,0.735,343.763,3.314,,VVV*03
$GPLLK,114542.00,010125,,M,,M,1,20,1.6,,M*09
$GNGMP,114542.00,,,,,DAAA,20,0.9,,,,*5A
$GPGMP,114542.00,,,,,,03,,,,2.3,123*78
$GLGMP,114542.00,,,,,,05,,,,,*7D
$GAGMP,114542.00,,,,,,03,,,,,*76
$GBGMP,114542.00,,,,,,09,,,,,*7F
$PSSN,SNC,[0,301560000,2347]*45
$GPZDA,114547.00,01,01,2025,,*61
$GPDTM,W84,,00.0000000,N,00.0000000,E,00.0000000,W84*5F
$GPRMC,114547.00,A,4742.4455941,N,01617.9732537,E,0.0,,010125,5.1,E,D*19
$GPGLL,4742.4455941,N,01617.9732537,E,114547.00,A,D*68
$GPGGA,114547.00,4742.4455941,N,01617.9732537,E,2,19,0.9,625.1356,M,43.2110,M,3.3,0123*41
$GNGNS,114547.00,4742.4455941,N,01617.9732537,E,DAAA,19,0.9,625.1356,43.2110,,*5D
$GPGNS,114547.00,,,,,,03,,,,3.3,123*7C
$GLGNS,114547.00,,,,,,05,,,,,*78
$GAGNS,114547.00,,,,,,03,,,,,*73
$GBGNS,114547.00,,,,,,08,,,,,*7B
$GPLLQ,114547.00,010125,,M,,M,1,19,6.253,,M*19
$GPVTG,,T,,M,0.00,N,0.00,K,D*26
$GPHDT,,T*1B
$GPTHS,,V*0E
$GPROT,,V*08
$PSSN,HRP,114547.00,010125,,,,,,,00,0,,*63
$PTNL,AVR,114547.00,,Yaw,,Tilt,,,,0,,00*35
$GPGSA,A,3,12,19,24,,,,,,,,,,1.4,0.9,1.1*33
$GPGSA,A,3,67,68,76,77,78,,,,,,,,1.4,0.9,1.1*3F
$GPGSA,A,3,02,08,30,,,,,,,,,,1.4,0.9,1.1*37
$GPGSA,A,3,07,14,24,25,26,29,33,41,,,,,1.4,0.9,1.1*37
$GPGST,114547.00,5.339,5.260,0.744,343.801,5.055,1.632,3.299*50
$GPGBS,114547.00,36.333,11.229,20.930,77,0.0001,-10.399,6.082*78
$GPGRS,114547.00,1,0.5,-0.0,-0.4,,,,,,,,,*63
$GPGRS,114547.00,1,3.5,0.9,-4.0,-10.4,1.1,,,,,,,*5C
$GPGRS,114547.00,1,-1.1,0.1,1.1,,,,,,,,,*4E
$GPGRS,114547.00,1,-1.0,-2.0,-3.8,11.6,0.2,6.7,1.3,0.5,,,,*5B
$GPGSV,4,1,16,24,88,263,51,13,11,162,,25,15,251,28,32,11,323,35*73
$GPGSV,4,2,16,22,20,063,,15,26,193,27,10,11,295,35,17,27,047,35*7E
$GPGSV,4,3,16,19,49,077,43,12,55,251,50,06,09,107,,23,04,256,19*7E
$GPGSV,4,4,16,36,35,170,34,34,31,208,33,49,34,195,34,61,03,257,*77
$GLGSV,3,1,09,77,66,332,37,76,43,060,45,78,18,275,41,66,17,201,32*6E
$GLGSV,3,2,09,87,19,132,,85,17,024,34,68,31,321,42,86,34,082,35*6F
$GLGSV,3,3,09,67,46,256,47*5D
$GAGSV,4,1,13,02,69,055,45,18,51,141,,11,13,053,,25,16,063,23*6A
$GAGSV,4,2,13,07,51,288,31,08,49,196,41,30,53,249,43,03,07,163,*6C
$GAGSV,4,3,13,10,09,027,,27,04,245,,29,08,324,36,12,02,006,*66
$GAGSV,4,4,13,36,09,100,*57
$GBGSV,6,1,21,26,62,078,44,44,21,156,29,11,12,235,,41,16,322,38*67
$GBGSV,6,2,21,40,16,039,33,05,20,130,,29,18,041,35,42,18,214,31*6B
$GBGSV,6,3,21,07,20,051,27,33,33,271,44,35,39,105,32,14,29,240,38*67
$GBGSV,6,4,21,10,32,057,35,56,38,059,,24,60,288,49,02,04,109,*6B
$GBGSV,6,5,21,12,04,171,,45,08,090,,50,03,195,,25,08,277,31*6F
$GBGSV,6,6,21,60,07,111,*58
$GPGGA,114547.00,,,,,0,00,,,M,,M,,*4A
$PTNL,GGK,114547.00,010125,4742.4455941,N,01617.9732537,E,1,19,1.4,EHT668.3466,M*4C
$GPGGQ,114547.00,010125,4742.4455941,N,01617.9732537,E,1,19,6.253,625.1356,M*3A
$GPGFA,114547.00,50.008,27.052,5.260,0.744,343.801,3.299,,VVV*04
$GPLLK,114547.00,010125,,M,,M,1,19,1.7,,M*07
$GNGMP,114547.00,,,,,DAAA,19,0.9,,,,*55
$GPGMP,114547.00,,,,,,03,,,,3.3,123*7C
$GLGMP,114547.00,,,,,,05,,,,,*78
$GAGMP,114547.00,,,,,,03,,,,,*73
$GBGMP,114547.00,,,,,,08,,,,,*7B
$PSSN,SNC,[0,301565000,2347]*40
$GPZDA,114552.00,01,01,2025,,*65
$GPDTM,W84,,00.0000000,N,00.0000000,E,00.0000000,W84*5F
$GPRMC,114552.00,A,4742.4455914,N,01617.9732586,E,0.0,,010125,5.1,E,D*17
$GPGLL,4742.4455914,N,01617.9732586,E,114552.00,A,D*66
$GPGGA,114552.00,4742.4455914,N,01617.9732586,E,2,19,0.8,625.1328,M,43.2110,M,3.3,0123*47
$GNGNS,114552.00,4742.4455914,N,01617.9732586,E,DAAA,19,0.8,625.1328,43.2110,,*5B
$GPGNS,114552.00,,,,,,04,,,,3.3,123*7F
$GLGNS,114552.00,,,,,,05,,,,,*7C
$GAGNS,114552.00,,,,,,03,,,,,*77
$GBGNS,114552.00,,,,,,07,,,,,*70
$GPLLQ,114552.00,010125,,M,,M,1,19,5.880,,M*1A
$GPVTG,,T,,M,0.00,N,0.01,K,D*27
$GPHDT,,T*1B
$GPTHS,,V*0E
$GPROT,,V*08
$PSSN,HRP,114552.00,010125,,,,,,,00,0,,*67
$PTNL,AVR,114552.00,,Yaw,,Tilt,,,,0,,00*31
$GPGSA,A,3,12,15,19,24,,,,,,,,,1.3,0.8,1.0*30
$GPGSA,A,3,67,68,76,77,78,,,,,,,,1.3,0.8,1.0*38
$GPGSA,A,3,02,08,30,,,,,,,,,,1.3,0.8,1.0*30
$GPGSA,A,3,14,24,25,26,29,33,41,,,,,,1.3,0.8,1.0*37
$GPGST,114552.00,6.630,2.675,0.853,328.993,2.335,1.560,5.166*51
$GPGBS,114552.00,9.382,6.996,19.364,15,0.0001,-2.472,0.910*43
$GPGRS,114552.00,1,0.6,-2.5,0.5,0.0,,,,,,,,*61
$GPGRS,114552.00,1,3.8,2.7,-4.2,-9.6,-0.2,,,,,,,*4E
$GPGRS,114552.00,1,-0.1,0.4,2.9,,,,,,,,,*45
$GPGRS,114552.00,1,-2.4,-3.0,16.7,1.8,9.1,1.3,0.3,,,,,*53
$GPGSV,4,1,16,24,88,262,51,13,10,162,,25,16,251,28,32,11,323,34*71
$GPGSV,4,2,16,22,20,063,,15,26,193,36,10,11,295,33,17,27,047,*7E
$GPGSV,4,3,16,19,49,077,43,12,55,251,50,06,09,107,,23,04,255,26*71
$GPGSV,4,4,16,36,35,170,34,34,31,208,33,49,34,195,34,61,03,257,*77
$GLGSV,3,1,09,77,67,332,38,76,43,060,46,78,18,275,38,66,17,201,28*66
$GLGSV,3,2,09,87,19,132,,85,17,023,28,68,31,321,44,86,34,082,28*6F
$GLGSV,3,3,09,67,46,256,45*5F
$GAGSV,4,1,13,02,69,055,45,18,51,141,,11,13,053,,25,16,063,24*6D
$GAGSV,4,2,13,08,49,196,41,07,51,288,31,30,54,249,43,03,07,163,*6B
$GAGSV,4,3,13,10,09,027,,27,04,245,,29,08,324,36,12,02,006,*66
$GAGSV,4,4,13,36,09,100,*57
$GBGSV,6,1,21,26,62,078,43,44,21,156,30,11,12,235,,41,16,322,37*67
$GBGSV,6,2,21,40,16,039,33,05,20,130,,29,18,041,36,42,18,214,33*6A
$GBGSV,6,3,21,07,20,051,28,33,33,271,44,35,39,105,32,14,29,240,39*69
$GBGSV,6,4,21,10,32,057,35,56,38,059,,24,60,288,49,02,04,109,*6B
$GBGSV,6,5,21,12,04,171,,45,08,090,,50,03,195,,25,08,277,32*6C
$GBGSV,6,6,21,60,07,111,*58
$GPGGA,114552.00,,,,,0,00,,,M,,M,,*4E
$PTNL,GGK,114552.00,010125,4742.4455914,N,01617.9732586,E,1,19,1.3,EHT668.3439,M*4F
$GPGGQ,114552.00,010125,4742.4455914,N,01617.9732586,E,1,19,5.880,625.1328,M*3A
$GPGFA,114552.00,25.434,42.362,2.675,0.853,328.993,5.166,,VVV*06
$GPLLK,114552.00,010125,,M,,M,1,19,1.5,,M*01
$GNGMP,114552.00,,,,,DAAA,19,0.8,,,,*50
$GPGMP,114552.00,,,,,,04,,,,3.3,123*7F
$GLGMP,114552.00,,,,,,05,,,,,*7C
$GAGMP,114552.00,,,,,,03,,,,,*77
$GBGMP,114552.00,,,,,,07,,,,,*70
$PSSN,SNC,[0,301570000,2347]*44
$GPZDA,114557.00,01,01,2025,,*60
$GPDTM,W84,,00.0000000,N,00.0000000,E,00.0000000,W84*5F
$GPRMC,114557.00,A,4742.4455881,N,01617.9732595,E,0.0,,010125,5.1,E,D*1D
$GPGLL,4742.4455881,N,01617.9732595,E,114557.00,A,D*6C
$GPGGA,114557.00,4742.4455881,N,01617.9732595,E,2,20,0.9,625.1307,M,43.2110,M,1.3,0123*49
$GNGNS,114557.00,4742.4455881,N,01617.9732595,E,DAAA,20,0.9,625.1307,43.2110,,*57
$GPGNS,114557.00,,,,,,03,,,,1.3,123*7F
$GLGNS,114557.00,,,,,,07,,,,,*7B
$GAGNS,114557.00,,,,,,03,,,,,*72
$GBGNS,114557.00,,,,,,07,,,,,*75
$GPLLQ,114557.00,010125,,M,,M,1,20,5.325,,M*11
$GPVTG,,T,,M,0.00,N,0.01,K,D*27
$GPHDT,,T*1B
$GPTHS,,V*0E
$GPROT,,V*08
$PSSN,HRP,114557.00,010125,,,,,,,00,0,,*62
$PTNL,AVR,114557.00,,Yaw,,Tilt,,,,0,,00*34
$GPGSA,A,3,12,19,24,,,,,,,,,,1.5,0.9,1.2*31
$GPGSA,A,3,67,68,76,77,78,85,86,,,,,,1.5,0.9,1.2*3E
$GPGSA,A,3,02,08,30,,,,,,,,,,1.5,0.9,1.2*35
$GPGSA,A,3,10,14,24,26,29,33,41,,,,,,1.5,0.9,1.2*34
$GPGST,114557.00,4.602,4.278,0.669,343.771,4.112,1.357,3.099*54
$GPGBS,114557.00,27.132,8.452,20.856,77,0.0001,-8.879,6.082*75
$GPGRS,114557.00,1,0.3,0.4,-0.3,,,,,,,,,*4A
$GPGRS,114557.00,1,3.8,1.9,-4.8,-8.9,-2.2,3.2,-0.7,,,,,*6B
$GPGRS,114557.00,1,-0.5,-0.1,2.1,,,,,,,,,*64
$GPGRS,114557.00,1,-3.2,-0.4,-3.8,1.8,10.3,-0.4,-0.3,,,,,*7C
$GPGSV,4,1,16,24,88,262,52,13,10,162,,25,16,251,29,32,11,323,32*75
$GPGSV,4,2,16,22,20,063,,15,26,193,25,10,11,295,25,17,27,047,31*79
$GPGSV,4,3,16,19,49,077,45,12,55,251,50,06,09,107,,23,04,255,24*75
$GPGSV,4,4,16,36,35,170,35,34,31,208,32,49,34,195,34,61,03,257,*77
$GLGSV,3,1,09,77,67,332,37,76,43,060,46,78,18,275,36,66,17,201,25*6A
$GLGSV,3,2,09,87,19,132,,85,17,023,36,68,31,321,43,86,34,082,37*69
$GLGSV,3,3,09,67,46,256,45*5F
$GAGSV,4,1,13,02,69,055,45,18,51,141,,11,13,053,,25,16,063,23*6A
$GAGSV,4,2,13,08,49,196,42,07,51,288,30,30,54,249,43,03,07,163,*69
$GAGSV,4,3,13,10,09,027,,27,04,245,,29,08,324,37,12,02,006,*67
$GAGSV,4,4,13,36,09,100,*57
$GBGSV,6,1,21,26,62,078,40,44,21,156,30,11,12,235,,41,16,322,38*6B
$GBGSV,6,2,21,40,16,039,33,05,20,130,,29,18,041,36,42,18,214,34*6D
$GBGSV,6,3,21,07,20,051,27,33,33,271,44,35,39,105,33,14,29,240,40*69
$GBGSV,6,4,21,10,32,057,35,56,38,059,,24,60,288,48,02,04,109,*6A
$GBGSV,6,5,21,12,04,171,,45,08,090,,50,03,195,,25,08,277,32*6C
$GBGSV,6,6,21,60,07,111,*58
$GPGGA,114557.00,,,,,0,00,,,M,,M,,*4B
$PTNL,GGK,114557.00,010125,4742.4455881,N,01617.9732595,E,1,20,1.5,EHT668.3418,M*4A
$GPGGQ,114557.00,010125,4742.4455881,N,01617.9732595,E,1,20,5.325,625.1307,M*33
$GPGFA,114557.00,40.672,25.413,4.278,0.669,343.771,3.099,,VVV*00
$GPLLK,114557.00,010125,,M,,M,1,20,1.7,,M*0C
$GNGMP,114557.00,,,,,DAAA,20,0.9,,,,*5E
$GPGMP,114557.00,,,,,,03,,,,1.3,123*7F
$GLGMP,114557.00,,,,,,07,,,,,*7B
$GAGMP,114557.00,,,,,,03,,,,,*72
$GBGMP,114557.00,,,,,,07,,,,,*75
$PSSN,SNC,[0,301575000,2347]*41
$GPZDA,114602.00,01,01,2025,,*63
$GPDTM,W84,,00.0000000,N,00.0000000,E,00.0000000,W84*5F
$GPRMC,114602.00,A,4742.4455881,N,01617.9732512,E,0.0,,010125,5.1,E,D*11
$GPGLL,4742.4455881,N,01617.9732512,E,114602.00,A,D*60
$GPGGA,114602.00,4742.4455881,N,01617.9732512,E,2,19,0.8,625.1426,M,43.2110,M,2.3,0123*49
$GNGNS,114602.00,4742.4455881,N,01617.9732512,E,DAAA,19,0.8,625.1426,43.2110,,*54
$GPGNS,114602.00,,,,,,03,,,,2.3,123*7F
$GLGNS,114602.00,,,,,,06,,,,,*79
$GAGNS,114602.00,,,,,,03,,,,,*71
$GBGNS,114602.00,,,,,,07,,,,,*76
$GPLLQ,114602.00,010125,,M,,M,1,19,6.556,,M*19
$GPVTG,,T,,M,0.00,N,0.00,K,D*26
$GPHDT,,T*1B
$GPTHS,,V*0E
$GPROT,,V*08
$PSSN,HRP,114602.00,010125,,,,,,,00,0,,*61
$PTNL,AVR,114602.00,,Yaw,,Tilt,,,,0,,00*37
$GPGSA,A,3,12,19,24,,,,,,,,,,1.3,0.8,1.0*34
$GPGSA,A,3,67,68,76,77,78,85,,,,,,,1.3,0.8,1.0*35
$GPGSA,A,3,02,08,30,,,,,,,,,,1.3,0.8,1.0*30
$GPGSA,A,3,10,14,24,29,33,41,42,,,,,,1.3,0.8,1.0*33
$GPGST,114602.00,5.555,5.231,0.855,342.971,5.008,1.736,3.858*58
$GPGBS,114602.00,26.426,8.800,21.507,77,0.0001,-11.114,6.083*4F
$GPGRS,114602.00,1,-0.1,1.1,-0.6,,,,,,,,,*67
$GPGRS,114602.00,1,2.6,-0.2,-4.8,-11.1,1.7,5.4,,,,,,*5F
$GPGRS,114602.00,1,-0.7,-0.6,1.0,,,,,,,,,*60
$GPGRS,114602.00,1,-2.7,1.1,-4.6,12.0,-2.5,0.2,1.1,,,,,*7C
$GPGSV,4,1,16,24,88,261,52,13,10,162,,25,16,251,30,32,11,323,30*7C
$GPGSV,4,2,16,22,20,063,,15,26,193,30,10,11,295,29,17,27,047,30*70
$GPGSV,4,3,16,19,49,077,46,12,56,251,50,06,09,107,,23,04,255,27*76
$GPGSV,4,4,16,36,35,170,34,34,31,208,32,49,34,195,35,61,03,257,*77
$GLGSV,3,1,09,77,67,332,37,76,43,060,47,78,18,275,37,66,17,201,29*66
$GLGSV,3,2,09,87,19,132,30,85,17,023,38,68,31,321,43,86,34,082,37*64
$GLGSV,3,3,09,67,46,256,45*5F
$GAGSV,4,1,13,02,69,055,45,18,51,141,,11,13,053,,25,16,063,22*6B
$GAGSV,4,2,13,08,48,196,43,07,51,288,30,30,54,249,42,03,07,163,*68
$GAGSV,4,3,13,10,09,027,,27,04,245,,29,08,324,37,12,02,006,*67
$GAGSV,4,4,13,36,09,100,*57
$GBGSV,6,1,21,26,62,078,36,44,21,156,31,11,12,235,,41,16,322,39*6A
$GBGSV,6,2,21,40,16,039,33,05,20,130,,29,18,041,35,42,18,214,36*6C
$GBGSV,6,3,21,07,20,051,27,33,33,271,43,35,39,105,35,14,29,240,40*68
$GBGSV,6,4,21,10,32,057,35,56,38,059,,24,60,288,48,02,04,109,*6A
$GBGSV,6,5,21,12,04,171,,45,08,090,,50,03,195,,25,08,277,32*6C
$GBGSV,6,6,21,60,07,111,*58
$GPGGA,114602.00,,,,,0,00,,,M,,M,,*48
$PTNL,GGK,114602.00,010125,4742.4455881,N,01617.9732512,E,1,19,1.3,EHT668.3537,M*46
$GPGGQ,114602.00,010125,4742.4455881,N,01617.9732512,E,1,19,6.556,625.1426,M*30
$GPGFA,114602.00,49.736,31.637,5.231,0.855,342.971,3.858,,VVV*0D
$GPLLK,114602.00,010125,,M,,M,1,19,1.5,,M*07
$GNGMP,114602.00,,,,,DAAA,19,0.8,,,,*56
$GPGMP,114602.00,,,,,,03,,,,2.3,123*7F
$GLGMP,114602.00,,,,,,06,,,,,*79
$GAGMP,114602.00,,,,,,03,,,,,*71
$GBGMP,114602.00,,,,,,07,,,,,*76
$PSSN,SNC,[0,301580000,2347]*4B
$GPZDA,114607.00,01,01,2025,,*66
$GPDTM,W84,,00.0000000,N,00.0000000,E,00.0000000,W84*5F
$GPRMC,114607.00,A,4742.4455881,N,01617.9732401,E,0.0,,010125,5.1,E,D*17
$GPGLL,4742.4455881,N,01617.9732401,E,114607.00,A,D*66
$GPGGA,114607.00,4742.4455881,N,01617.9732401,E,2,20,0.7,625.1608,M,43.2110,M,3.3,0123*45
$GNGNS,114607.00,4742.4455881,N,01617.9732401,E,DAAA,20,0.7,625.1608,43.2110,,*59
$GPGNS,114607.00,,,,,,03,,,,3.3,123*7B
$GLGNS,114607.00,,,,,,07,,,,,*7D
$GAGNS,114607.00,,,,,,03,,,,,*74
$GBGNS,114607.00,,,,,,07,,,,,*73
$GPLLQ,114607.00,010125,,M,,M,1,20,8.786,,M*17
$GPVTG,,T,,M,0.01,N,0.01,K,D*26
$GPHDT,,T*1B
$GPTHS,,V*0E
$GPROT,,V*08
$PSSN,HRP,114607.00,010125,,,,,,,00,0,,*64
$PTNL,AVR,114607.00,,Yaw,,Tilt,,,,0,,00*32
$GPGSA,A,3,12,19,24,,,,,,,,,,1.3,0.7,1.1*3A
$GPGSA,A,3,67,68,76,77,78,85,86,,,,,,1.3,0.7,1.1*35
$GPGSA,A,3,02,08,30,,,,,,,,,,1.3,0.7,1.1*3E
$GPGSA,A,3,10,14,24,33,35,41,42,,,,,,1.3,0.7,1.1*30
$GPGST,114607.00,7.635,6.722,1.229,343.943,6.469,2.203,5.521*5B
$GPGBS,114607.00,21.597,6.950,21.819,86,0.0001,19.657,6.166*6F
$GPGRS,114607.00,1,0.0,1.0,-0.9,,,,,,,,,*40
$GPGRS,114607.00,1,0.8,-1.2,-4.9,-11.6,8.7,6.7,19.7,,,,,*49
$GPGRS,114607.00,1,-0.7,-1.0,1.0,,,,,,,,,*62
$GPGRS,114607.00,1,-2.7,2.1,-4.8,-6.1,0.9,0.3,3.6,,,,,*4A
$GPGSV,4,1,16,24,88,260,53,13,10,162,,25,16,251,30,32,11,323,30*7C
$GPGSV,4,2,16,22,20,063,,10,11,295,29,15,26,193,33,17,27,047,32*71
$GPGSV,4,3,16,19,49,077,46,12,56,251,50,06,09,107,,23,04,255,29*78
$GPGSV,4,4,16,36,35,170,35,34,31,208,33,49,34,195,35,61,03,257,*77
$GLGSV,3,1,09,77,67,332,36,76,43,060,48,78,18,275,35,66,17,201,32*60
$GLGSV,3,2,09,87,19,132,,85,17,023,41,68,31,321,42,86,34,082,37*68
$GLGSV,3,3,09,67,46,256,45*5F
$GAGSV,4,1,13,02,69,055,46,18,51,141,,11,13,053,,25,16,063,21*6B
$GAGSV,4,2,13,08,48,196,44,07,51,288,32,30,54,249,42,03,07,163,*6D
$GAGSV,4,3,13,10,09,027,,27,04,245,,29,08,324,37,12,02,006,*67
$GAGSV,4,4,13,36,09,100,*57
$GBGSV,6,1,21,26,62,078,36,44,21,156,30,11,12,235,,41,16,322,39*6B
$GBGSV,6,2,21,40,16,039,32,05,20,130,,29,18,041,33,42,18,214,37*6A
$GBGSV,6,3,21,07,20,051,26,33,32,271,41,35,39,105,36,14,29,240,40*69
$GBGSV,6,4,21,10,32,057,36,56,38,059,,24,60,288,48,02,04,109,*69
$GBGSV,6,5,21,12,04,171,,45,08,090,,50,03,195,,25,08,277,31*6F
$GBGSV,6,6,21,60,07,111,*58
$GPGGA,114607.00,,,,,0,00,,,M,,M,,*4D
$PTNL,GGK,114607.00,010125,4742.4455881,N,01617.9732401,E,1,20,1.3,EHT668.3718,M*45
$GPGGQ,114607.00,010125,4742.4455881,N,01617.9732401,E,1,20,8.786,625.1608,M*33
$GPGFA,114607.00,63.915,45.275,6.722,1.229,343.943,5.521,,VVV*0F
$GPLLK,114607.00,010125,,M,,M,1,20,1.5,,M*08
$GNGMP,114607.00,,,,,DAAA,20,0.7,,,,*56
$GPGMP,114607.00,,,,,,03,,,,3.3,123*7B
$GLGMP,114607.00,,,,,,07,,,,,*7D
$GAGMP,114607.00,,,,,,03,,,,,*74
$GBGMP,114607.00,,,,,,07,,,,,*73
$PSSN,SNC,[0,301585000,2347]*4E
$GPZDA,114612.00,01,01,2025,,*62
$GPDTM,W84,,00.0000000,N,00.0000000,E,00.0000000,W84*5F
$GPRMC,114612.00,A,4742.4455860,N,01617.9732337,E,0.0,,010125,5.1,E,D*1E
$GPGLL,4742.4455860,N,01617.9732337,E,114612.00,A,D*6F
$GPGGA,114612.00,4742.4455860,N,01617.9732337,E,2,20,0.6,625.1717,M,43.2110,M,3.3,0123*42
$GNGNS,114612.00,4742.4455860,N,01617.9732337,E,DAAA,20,0.6,625.1717,43.2110,,*5E
$GPGNS,114612.00,,,,,,04,,,,3.3,123*78
$GLGNS,114612.00,,,,,,06,,,,,*78
$GAGNS,114612.00,,,,,,03,,,,,*70
$GBGNS,114612.00,,,,,,07,,,,,*77
$GPLLQ,114612.00,010125,,M,,M,1,20,5.327,,M*11
$GPVTG,,T,,M,0.01,N,0.02,K,D*25
$GPHDT,,T*1B
$GPTHS,,V*0E
$GPROT,,V*08
$PSSN,HRP,114612.00,010125,,,,,,,00,0,,*60
$PTNL,AVR,114612.00,,Yaw,,Tilt,,,,0,,00*36
$GPGSA,A,3,12,15,19,24,,,,,,,,,1.2,0.6,1.1*3E
$GPGSA,A,3,67,68,76,77,85,86,,,,,,,1.2,0.6,1.1*3A
$GPGSA,A,3,02,08,30,,,,,,,,,,1.2,0.6,1.1*3E
$GPGSA,A,3,10,14,24,33,35,41,42,,,,,,1.2,0.6,1.1*30
$GPGST,114612.00,6.203,2.650,0.872,333.813,2.409,1.407,4.538*53
$GPGBS,114612.00,10.115,6.775,20.125,85,0.0001,12.203,6.540*64
$GPGRS,114612.00,1,0.1,0.1,0.9,-0.8,,,,,,,,*63
$GPGRS,114612.00,1,-0.6,-1.4,-4.7,-10.9,12.2,1.4,,,,,,*43
$GPGRS,114612.00,1,-0.1,-0.6,1.2,,,,,,,,,*65
$GPGRS,114612.00,1,-3.2,0.4,-4.7,-6.8,3.5,1.1,10.5,,,,,*76
$GPGSV,4,1,16,24,88,259,52,13,10,162,,25,16,251,28,32,11,323,31*7F
$GPGSV,4,2,16,22,20,063,,10,11,295,30,15,26,193,35,17,27,047,28*74
$GPGSV,4,3,16,19,49,077,46,12,56,251,50,06,09,107,,23,04,255,30*70
$GPGSV,4,4,16,36,35,170,34,34,31,208,32,49,34,195,34,61,03,257,*76
$GLGSV,3,1,09,77,67,332,37,76,43,060,49,78,18,275,33,66,17,201,35*61
$GLGSV,3,2,09,87,19,132,,85,17,023,42,68,31,321,39,86,34,081,35*66
$GLGSV,3,3,09,67,46,256,44*5E
$GAGSV,4,1,13,02,69,055,46,18,51,141,,11,13,053,,25,16,063,22*68
$GAGSV,4,2,13,08,48,196,44,07,51,288,34,30,54,249,42,03,07,163,*6B
$GAGSV,4,3,13,10,09,027,,27,04,245,,29,08,324,37,12,02,006,*67
$GAGSV,4,4,13,36,09,100,*57
$GBGSV,6,1,21,26,62,078,31,44,21,156,27,11,12,235,,41,16,322,40*64
$GBGSV,6,2,21,40,16,039,32,05,20,130,,29,18,041,29,42,18,214,38*6E
$GBGSV,6,3,21,07,20,051,26,33,32,271,40,35,39,104,37,14,29,240,39*66
$GBGSV,6,4,21,10,32,057,35,56,38,059,,24,60,288,48,02,04,109,*6A
$GBGSV,6,5,21,12,04,171,,45,08,090,,50,03,195,,25,08,277,32*6C
$GBGSV,6,6,21,60,07,111,*58
$GPGGA,114612.00,,,,,0,00,,,M,,M,,*49
$PTNL,GGK,114612.00,010125,4742.4455860,N,01617.9732337,E,1,20,1.2,EHT668.3827,M*4E
$GPGGQ,114612.00,010125,4742.4455860,N,01617.9732337,E,1,20,5.327,625.1717,M*37
$GPGFA,114612.00,25.198,37.211,2.650,0.872,333.813,4.538,,VVV*0C
$GPLLK,114612.00,010125,,M,,M,1,20,1.4,,M*0D
$GNGMP,114612.00,,,,,DAAA,20,0.6,,,,*53
$GPGMP,114612.00,,,,,,04,,,,3.3,123*78
$GLGMP,114612.00,,,,,,06,,,,,*78
$GAGMP,114612.00,,,,,,03,,,,,*70
$GBGMP,114612.00,,,,,,07,,,,,*77
$PSSN,SNC,[0,301590000,2347]*4A
$GPZDA,114617.00,01,01,2025,,*67
$GPDTM,W84,,00.0000000,N,00.0000000,E,00.0000000,W84*5F
$GPRMC,114617.00,A,4742.4455776,N,01617.9732263,E,0.0,,010125,5.1,E,D*13
$GPGLL,4742.4455776,N,01617.9732263,E,114617.00,A,D*62
$GPGGA,114617.00,4742.4455776,N,01617.9732263,E,2,21,0.6,625.1722,M,43.2110,M,1.3,0123*4A
$GNGNS,114617.00,4742.4455776,N,01617.9732263,E,DAAA,21,0.6,625.1722,43.2110,,*54
$GPGNS,114617.00,,,,,,04,,,,1.3,123*7F
$GLGNS,114617.00,,,,,,07,,,,,*7C
$GAGNS,114617.00,,,,,,04,,,,,*72
$GBGNS,114617.00,,,,,,06,,,,,*73
$GPLLQ,114617.00,010125,,M,,M,1,21,5.232,,M*10
$GPVTG,,T,,M,0.01,N,0.01,K,D*26
$GPHDT,,T*1B
$GPTHS,,V*0E
$GPROT,,V*08
$PSSN,HRP,114617.00,010125,,,,,,,00,0,,*65
$PTNL,AVR,114617.00,,Yaw,,Tilt,,,,0,,00*33
$GPGSA,A,3,12,15,19,24,,,,,,,,,1.2,0.6,1.0*3F
$GPGSA,A,3,66,67,68,76,77,85,86,,,,,,1.2,0.6,1.0*3B
$GPGSA,A,3,02,07,08,30,,,,,,,,,1.2,0.6,1.0*38
$GPGSA,A,3,10,14,24,35,41,42,,,,,,,1.2,0.6,1.0*31
$GPGST,114617.00,7.315,2.825,0.920,335.975,2.607,1.424,4.306*5A
$GPGBS,114617.00,8.371,6.792,18.567,85,0.0001,15.448,6.542*54
$GPGRS,114617.00,1,0.4,-0.5,0.6,-0.5,,,,,,,,*48
$GPGRS,114617.00,1,-5.8,-0.6,0.5,-3.7,-9.4,15.4,-4.3,,,,,*79
$GPGRS,114617.00,1,0.7,2.3,-0.4,1.9,,,,,,,,*6D
$GPGRS,114617.00,1,-2.1,-1.2,-4.0,3.5,0.5,17.6,,,,,,*50
$GPGSV,4,1,16,24,88,258,52,13,10,162,,25,16,251,26,32,12,323,34*76
$GPGSV,4,2,16,15,26,193,36,10,11,294,32,22,20,063,,17,27,047,34*79
$GPGSV,4,3,16,19,49,077,45,12,56,251,50,06,10,107,,23,04,255,30*7B
$GPGSV,4,4,16,36,35,170,35,34,31,208,33,49,34,195,34,61,03,257,*76
$GLGSV,3,1,09,77,67,332,39,76,43,061,50,78,18,275,28,66,17,201,37*6E
$GLGSV,3,2,09,87,19,132,,85,17,023,42,68,31,321,37,86,34,081,40*6A
$GLGSV,3,3,09,67,46,256,44*5E
$GAGSV,4,1,13,02,69,055,47,18,51,141,,11,13,053,,25,16,063,22*69
$GAGSV,4,2,13,08,48,196,44,07,51,287,36,30,54,249,43,03,07,163,*67
$GAGSV,4,3,13,10,09,027,,27,04,245,,29,08,324,37,12,02,006,*67
$GAGSV,4,4,13,36,09,100,*57
$GBGSV,6,1,21,26,62,078,35,44,21,156,26,11,12,235,,41,16,322,40*61
$GBGSV,6,2,21,40,16,039,32,05,20,130,,29,18,041,21,42,17,214,38*69
$GBGSV,6,3,21,07,20,051,26,33,32,271,33,35,39,104,38,14,29,240,40*63
$GBGSV,6,4,21,10,32,057,36,56,38,059,,24,60,288,48,02,04,109,*69
$GBGSV,6,5,21,12,04,171,,45,08,090,,50,03,195,,25,08,277,31*6F
$GBGSV,6,6,21,60,07,111,*58
$GPGGA,114617.00,,,,,0,00,,,M,,M,,*4C
$PTNL,GGK,114617.00,010125,4742.4455776,N,01617.9732263,E,1,21,1.2,EHT668.3832,M*46
$GPGGQ,114617.00,010125,4742.4455776,N,01617.9732263,E,1,21,5.232,625.1722,M*38
$GPGFA,114617.00,26.861,35.310,2.825,0.920,335.975,4.306,,VVV*01
$GPLLK,114617.00,010125,,M,,M,1,21,1.3,,M*0E
$GNGMP,114617.00,,,,,DAAA,21,0.6,,,,*57
$GPGMP,114617.00,,,,,,04,,,,1.3,123*7F
$GLGMP,114617.00,,,,,,07,,,,,*7C
$GAGMP,114617.00,,,,,,04,,,,,*72
$GBGMP,114617.00,,,,,,06,,,,,*73
$PSSN,SNC,[0,301595000,2347]*4F
$GPZDA,114622.00,01,01,2025,,*61
$GPDTM,W84,,00.0000000,N,00.0000000,E,00.0000000,W84*5F
$GPRMC,114622.00,A,4742.4455767,N,01617.9732247,E,0.0,,010125,5.1,E,D*13
$GPGLL,4742.4455767,N,01617.9732247,E,114622.00,A,D*62
$GPGGA,114622.00,4742.4455767,N,01617.9732247,E,2,23,0.6,625.1780,M,43.2110,M,2.0,0123*40
$GNGNS,114622.00,4742.4455767,N,01617.9732247,E,DAAA,23,0.6,625.1780,43.2110,,*5E
$GPGNS,114622.00,,,,,,05,,,,2.0,123*78
$GLGNS,114622.00,,,,,,07,,,,,*7A
$GAGNS,114622.00,,,,,,04,,,,,*74
$GBGNS,114622.00,,,,,,07,,,,,*74
$GPLLQ,114622.00,010125,,M,,M,1,23,2.237,,M*16
$GPVTG,,T,,M,0.00,N,0.00,K,D*26
$GPHDT,,T*1B
$GPTHS,,V*0E
$GPROT,,V*08
$PSSN,HRP,114622.00,010125,,,,,,,00,0,,*63
$PTNL,AVR,114622.00,,Yaw,,Tilt,,,,0,,00*35
$GPGSA,A,3,12,15,19,24,32,,,,,,,,1.1,0.6,0.9*35
$GPGSA,A,3,66,67,68,76,77,85,86,,,,,,1.1,0.6,0.9*30
$GPGSA,A,3,02,07,08,30,,,,,,,,,1.1,0.6,0.9*33
$GPGSA,A,3,10,14,24,26,35,41,42,,,,,,1.1,0.6,0.9*3E
$GPGST,114622.00,6.849,1.074,0.849,326.316,1.010,0.924,1.769*54
$GPGBS,114622.00,4.754,4.695,7.440,85,0.0001,14.801,6.544*65
$GPGRS,114622.00,1,0.2,-0.1,0.4,-0.4,-1.2,,,,,,,*4F
$GPGRS,114622.00,1,-6.1,1.3,2.7,-3.1,-6.8,14.8,-3.2,,,,,*52
$GPGRS,114622.00,1,0.9,1.4,-0.6,1.8,,,,,,,,*62
$GPGRS,114622.00,1,-1.9,-0.9,-3.1,5.2,2.2,1.0,19.1,,,,,*73
$GPGSV,4,1,16,24,88,257,51,13,10,162,,25,16,251,27,32,12,323,36*79
$GPGSV,4,2,16,15,26,193,37,10,11,294,33,22,20,063,,17,27,047,32*7F
$GPGSV,4,3,16,19,49,077,44,12,56,251,49,06,10,107,,23,04,255,30*72
$GPGSV,4,4,16,36,35,170,35,34,31,208,32,49,34,195,35,61,03,257,*76
$GLGSV,3,1,09,77,67,332,41,76,43,061,50,78,18,275,33,66,17,201,37*6B
$GLGSV,3,2,09,87,19,132,,85,17,023,41,68,31,321,37,86,34,081,42*6B
$GLGSV,3,3,09,67,46,256,44*5E
$GAGSV,4,1,13,02,69,055,47,18,52,141,,11,13,053,,25,16,063,21*69
$GAGSV,4,2,13,08,48,196,44,07,51,287,37,30,54,249,43,03,07,163,*66
$GAGSV,4,3,13,10,09,027,,27,04,245,,29,08,324,37,12,02,006,*67
$GAGSV,4,4,13,36,09,100,*57
$GBGSV,6,1,21,26,62,078,38,44,21,156,26,11,12,235,,41,16,322,39*62
$GBGSV,6,2,21,40,16,039,31,05,20,130,,29,18,041,22,42,17,214,39*68
$GBGSV,6,3,21,07,20,051,26,33,32,271,33,35,39,104,38,14,29,240,41*62
$GBGSV,6,4,21,10,32,057,36,56,38,059,,24,60,288,49,02,04,109,*68
$GBGSV,6,5,21,12,04,171,,45,08,090,,50,03,195,,25,08,277,30*6E
$GBGSV,6,6,21,60,07,111,*58
$GPGGA,114622.00,,,,,0,00,,,M,,M,,*4A
$PTNL,GGK,114622.00,010125,4742.4455767,N,01617.9732247,E,1,23,1.1,EHT668.3890,M*4F
$GPGGQ,114622.00,010125,4742.4455767,N,01617.9732247,E,1,23,2.237,625.1780,M*30
$GPGFA,114622.00,10.211,14.508,1.074,0.849,326.316,1.769,,VVV*07
$GPLLK,114622.00,010125,,M,,M,1,23,1.2,,M*0B
$GNGMP,114622.00,,,,,DAAA,23,0.6,,,,*53
$GPGMP,114622.00,,,,,,05,,,,2.0,123*78
$GLGMP,114622.00,,,,,,07,,,,,*7A
$GAGMP,114622.00,,,,,,04,,,,,*74
$GBGMP,114622.00,,,,,,07,,,,,*74
$PSSN,SNC,[0,301600000,2347]*40
$GPZDA,114627.00,01,01,2025,,*64
$GPDTM,W84,,00.0000000,N,00.0000000,E,00.0000000,W84*5F
$GPRMC,114627.00,A,4742.4455757,N,01617.9732218,E,0.0,,010125,5.1,E,D*1F
$GPGLL,4742.4455757,N,01617.9732218,E,114627.00,A,D*6E
$GPGGA,114627.00,4742.4455757,N,01617.9732218,E,2,25,0.6,625.1670,M,43.2110,M,3.0,0123*45
$GNGNS,114627.00,4742.4455757,N,01617.9732218,E,DAAA,25,0.6,625.1670,43.2110,,*5A
$GPGNS,114627.00,,,,,,05,,,,3.0,123*7C
$GLGNS,114627.00,,,,,,08,,,,,*70
$GAGNS,114627.00,,,,,,04,,,,,*71
$GBGNS,114627.00,,,,,,08,,,,,*7E
$GPLLQ,114627.00,010125,,M,,M,1,25,3.085,,M*1F
$GPVTG,,T,,M,0.01,N,0.01,K,D*26
$GPHDT,,T*1B
$GPTHS,,V*0E
$GPROT,,V*08
$PSSN,HRP,114627.00,010125,,,,,,,00,0,,*66
$PTNL,AVR,114627.00,,Yaw,,Tilt,,,,0,,00*30
$GPGSA,A,3,12,15,19,24,32,,,,,,,,1.0,0.6,0.9*34
$GPGSA,A,3,66,67,68,76,77,78,85,86,,,,,1.0,0.6,0.9*3E
$GPGSA,A,3,02,07,08,30,,,,,,,,,1.0,0.6,0.9*32
$GPGSA,A,3,10,14,24,26,33,35,41,42,,,,,1.0,0.6,0.9*3F
$GPGST,114627.00,9.017,1.476,1.170,326.266,1.389,1.272,2.443*5D
$GPGBS,114627.00,4.803,4.698,7.584,33,0.0001,26.594,8.585*67
