$GPZDA,112942.00,01,01,2025,,*6E
$GPDTM,W84,,00.0000000,N,00.0000000,E,00.0000000,W84*5F
$GPRMC,112942.00,A,4742.4459998,N,01617.9733487,E,0.0,,010125,5.1,E,D*15
$GPGLL,4742.4459998,N,01617.9733487,E,112942.00,A,D*64
$GPGGA,112942.00,4742.4459998,N,01617.9733487,E,2,24,0.6,624.2952,M,43.2111,M,2.6,0123*45
$GNGNS,112942.00,4742.4459998,N,01617.9733487,E,DAAA,24,0.6,624.2952,43.2111,,*5D
$GPGNS,112942.00,,,,,,07,,,,2.6,123*73
$GLGNS,112942.00,,,,,,06,,,,,*74
$GAGNS,112942.00,,,,,,04,,,,,*7B
$GBGNS,112942.00,,,,,,07,,,,,*7B
$GPLLQ,112942.00,010125,,M,,M,1,24,1.300,,M*18
$GPVTG,,T,,M,0.00,N,0.01,K,D*27
$GPHDT,,T*1B
$GPTHS,,V*0E
$GPROT,,V*08
$PSSN,HRP,112942.00,010125,,,,,,,00,0,,*6C
$PTNL,AVR,112942.00,,Yaw,,Tilt,,,,0,,00*3A
$GPGSA,A,3,10,12,15,17,19,24,32,,,,,,1.1,0.6,0.9*32
$GPGSA,A,3,66,67,68,76,85,86,,,,,,,1.1,0.6,0.9*30
$GPGSA,A,3,02,07,08,30,,,,,,,,,1.1,0.6,0.9*33
$GPGSA,A,3,10,24,26,33,35,41,42,,,,,,1.1,0.6,0.9*3B
$GPGST,112942.00,3.211,0.636,0.466,318.931,0.568,0.545,1.034*54
$GPGBS,112942.00,4.653,2.960,7.930,33,0.0001,-9.971,8.566*71
$GPGRS,112942.00,1,0.1,0.5,-0.8,0.5,0.2,-0.5,1.4,,,,,*66
$GPGRS,112942.00,1,-1.0,2.0,0.3,-1.9,1.1,5.4,,,,,,*4A
$GPGRS,112942.00,1,0.1,0.4,0.3,0.3,,,,,,,,*46
$GPGRS,112942.00,1,-4.4,-2.2,-2.9,-10.0,-0.4,-1.0,0.4,,,,,*56
$GPGSV,5,1,17,24,81,300,44,15,34,195,40,22,26,060,,13,17,161,25*7A
$GPGSV,5,2,17,10,14,301,37,17,32,052,37,19,50,089,36,12,48,245,47*78
$GPGSV,5,3,17,14,06,064,,23,09,261,29,06,04,112,,25,10,247,*79
$GPGSV,5,4,17,32,06,325,38,36,35,170,35,34,31,208,34,49,34,195,35*7C
$GPGSV,5,5,17,61,03,257,*4B
$GLGSV,3,1,09,77,63,312,35,85,21,031,37,78,12,269,29,87,11,136,*64
$GLGSV,3,2,09,66,26,203,41,68,26,328,36,86,29,091,40,76,49,052,38*62
$GLGSV,3,3,09,67,50,269,48*59
$GAGSV,3,1,12,02,74,054,46,03,13,162,,11,11,059,,18,47,145,*69
$GAGSV,3,2,12,25,21,060,30,07,48,295,43,08,55,199,44,30,48,243,46*68
$GAGSV,3,3,12,10,09,032,,29,03,325,32,12,04,011,,36,05,104,*6D
$GBGSV,6,1,21,26,68,069,49,44,15,158,25,41,13,327,39,07,21,051,29*68
$GBGSV,6,2,21,45,13,086,,05,20,130,,40,18,039,29,29,21,047,33*63
$GBGSV,6,3,21,42,24,218,38,35,35,112,40,33,35,279,37,10,33,058,37*6D
$GBGSV,6,4,21,14,34,246,34,56,38,061,,24,55,282,44,02,04,109,*60
$GBGSV,6,5,21,11,10,239,,50,09,197,,25,03,273,30,57,01,337,*64
$GBGSV,6,6,21,60,07,111,*58
$GPGGA,112942.00,,,,,0,00,,,M,,M,,*45
$PTNL,GGK,112942.00,010125,4742.4459998,N,01617.9733487,E,1,24,1.1,EHT667.5062,M*42
$GPGGQ,112942.00,010125,4742.4459998,N,01617.9733487,E,1,24,1.300,624.2952,M*34
$GPGFA,112942.00,6.042,8.475,0.636,0.466,318.931,1.034,,VVV*00
$GPLLK,112942.00,010125,,M,,M,1,24,1.3,,M*02
$GNGMP,112942.00,,,,,DAAA,24,0.6,,,,*5B
$GPGMP,112942.00,,,,,,07,,,,2.6,123*73
$GLGMP,112942.00,,,,,,06,,,,,*74
$GAGMP,112942.00,,,,,,04,,,,,*7B
$GBGMP,112942.00,,,,,,07,,,,,*7B
$PSSN,SNC,[0,300600000,2347]*41
$GPZDA,112947.00,01,01,2025,,*6B
$GPDTM,W84,,00.0000000,N,00.0000000,E,00.0000000,W84*5F
$GPRMC,112947.00,A,4742.4459978,N,01617.9733326,E,0.0,,010125,5.1,E,D*12
$GPGLL,4742.4459978,N,01617.9733326,E,112947.00,A,D*63
$GPGGA,112947.00,4742.4459978,N,01617.9733326,E,2,26,0.6,624.3100,M,43.2110,M,3.0,0123*48
$GNGNS,112947.00,4742.4459978,N,01617.9733326,E,DAAA,26,0.6,624.3100,43.2110,,*57
$GPGNS,112947.00,,,,,,07,,,,3.0,123*71
$GLGNS,112947.00,,,,,,07,,,,,*70
$GAGNS,112947.00,,,,,,04,,,,,*7E
$GBGNS,112947.00,,,,,,08,,,,,*71
$GPLLQ,112947.00,010125,,M,,M,1,26,2.301,,M*1D
$GPVTG,,T,,M,0.00,N,0.01,K,D*27
$GPHDT,,T*1B
$GPTHS,,V*0E
$GPROT,,V*08
$PSSN,HRP,112947.00,010125,,,,,,,00,0,,*69
$PTNL,AVR,112947.00,,Yaw,,Tilt,,,,0,,00*3F
$GPGSA,A,3,10,12,15,17,19,24,32,,,,,,1.1,0.6,0.9*32
$GPGSA,A,3,66,67,68,76,77,85,86,,,,,,1.1,0.6,0.9*30
$GPGSA,A,3,02,07,08,30,,,,,,,,,1.1,0.6,0.9*33
$GPGSA,A,3,10,14,24,26,33,35,41,42,,,,,1.1,0.6,0.9*3E
$GPGST,112947.00,3.746,1.089,0.767,331.922,1.027,0.849,1.876*5E
$GPGBS,112947.00,4.708,2.957,7.975,19,0.0001,2.510,0.718*58
$GPGRS,112947.00,1,-1.0,0.0,-0.5,0.2,2.5,-1.3,1.7,,,,,*40
$GPGRS,112947.00,1,-2.4,0.7,2.5,-3.0,-8.6,4.1,2.0,,,,,*49
$GPGRS,112947.00,1,-0.1,-0.3,0.0,-0.1,,,,,,,,*68
$GPGRS,112947.00,1,-4.0,-0.5,-2.3,-3.2,-9.7,0.2,-1.4,-2.9,,,,*68
$GPGSV,5,1,17,24,81,300,43,15,34,195,38,22,26,060,,13,17,161,20*77
$GPGSV,5,2,17,10,14,301,38,17,32,052,40,19,50,089,39,12,48,245,46*79
$GPGSV,5,3,17,14,06,064,,23,09,261,30,06,04,112,,25,10,247,*71
$GPGSV,5,4,17,32,06,325,37,36,35,170,35,34,31,208,34,49,34,195,35*73
$GPGSV,5,5,17,61,03,257,*4B
$GLGSV,3,1,09,77,63,312,37,85,21,031,39,78,12,269,28,87,11,136,*69
$GLGSV,3,2,09,66,26,203,40,68,26,328,37,86,29,091,38,76,49,052,38*6D
$GLGSV,3,3,09,67,50,269,48*59
$GAGSV,3,1,12,02,74,054,46,03,13,162,,11,11,059,,18,47,145,*69
$GAGSV,3,2,12,25,21,060,29,07,48,295,42,08,55,199,45,30,48,243,45*63
$GAGSV,3,3,12,10,09,032,,29,03,325,31,12,04,011,,36,05,104,*6E
$GBGSV,6,1,21,26,68,069,49,44,15,158,24,41,13,327,40,07,21,051,29*67
$GBGSV,6,2,21,45,13,086,,05,20,130,,40,18,039,29,29,21,047,33*63
$GBGSV,6,3,21,42,24,218,36,35,35,112,39,33,35,279,37,10,33,058,37*6D
$GBGSV,6,4,21,14,34,246,41,56,38,061,,24,55,282,44,02,04,109,*62
$GBGSV,6,5,21,11,10,239,,50,09,197,,25,03,273,30,57,01,337,*64
$GBGSV,6,6,21,60,07,111,*58
$GPGGA,112947.00,,,,,0,00,,,M,,M,,*40
$PTNL,GGK,112947.00,010125,4742.4459978,N,01617.9733326,E,1,26,1.1,EHT667.5211,M*41
$GPGGQ,112947.00,010125,4742.4459978,N,01617.9733326,E,1,26,2.301,624.3100,M*3D
$GPGFA,112947.00,10.358,15.382,1.089,0.767,331.922,1.876,,VVV*0F
$GPLLK,112947.00,010125,,M,,M,1,26,1.2,,M*04
$GNGMP,112947.00,,,,,DAAA,26,0.6,,,,*5C
$GPGMP,112947.00,,,,,,07,,,,3.0,123*71
$GLGMP,112947.00,,,,,,07,,,,,*70
$GAGMP,112947.00,,,,,,04,,,,,*7E
$GBGMP,112947.00,,,,,,08,,,,,*71
$PSSN,SNC,[0,300605000,2347]*44
$GPZDA,112952.00,01,01,2025,,*6F
$GPDTM,W84,,00.0000000,N,00.0000000,E,00.0000000,W84*5F
$GPRMC,112952.00,A,4742.4459968,N,01617.9733082,E,0.0,,010125,5.1,E,D*1A
$GPGLL,4742.4459968,N,01617.9733082,E,112952.00,A,D*6B
$GPGGA,112952.00,4742.4459968,N,01617.9733082,E,2,25,0.6,624.3371,M,43.2110,M,2.9,0123*4F
$GNGNS,112952.00,4742.4459968,N,01617.9733082,E,DAAA,25,0.6,624.3371,43.2110,,*58
$GPGNS,112952.00,,,,,,07,,,,2.9,123*7D
$GLGNS,112952.00,,,,,,07,,,,,*74
$GAGNS,112952.00,,,,,,04,,,,,*7A
$GBGNS,112952.00,,,,,,07,,,,,*7A
$GPLLQ,112952.00,010125,,M,,M,1,25,2.237,,M*1E
$GPVTG,,T,,M,0.00,N,0.00,K,D*26
$GPHDT,,T*1B
$GPTHS,,V*0E
$GPROT,,V*08
$PSSN,HRP,112952.00,010125,,,,,,,00,0,,*6D
$PTNL,AVR,112952.00,,Yaw,,Tilt,,,,0,,00*3B
$GPGSA,A,3,10,12,15,17,19,24,32,,,,,,1.1,0.6,0.9*32
$GPGSA,A,3,66,67,68,76,77,85,86,,,,,,1.1,0.6,0.9*30
$GPGSA,A,3,02,07,08,30,,,,,,,,,1.1,0.6,0.9*33
$GPGSA,A,3,10,14,24,26,33,35,41,,,,,,1.1,0.6,0.9*38
$GPGST,112952.00,4.172,1.060,0.739,332.574,1.000,0.818,1.826*58
$GPGBS,112952.00,4.817,2.949,8.064,19,0.0001,2.041,0.737*58
$GPGRS,112952.00,1,1.3,-0.8,0.1,0.1,2.0,-1.3,0.9,,,,,*6F
$GPGRS,112952.00,1,0.1,0.2,3.7,-4.1,-9.1,7.1,-2.0,,,,,*4F
$GPGRS,112952.00,1,-0.2,-0.6,-0.2,-0.6,,,,,,,,*42
$GPGRS,112952.00,1,-4.6,5.7,-2.0,-3.4,-8.0,-0.2,-1.3,,,,,*61
$GPGSV,5,1,17,24,81,300,41,15,33,195,36,22,26,060,,13,17,161,*7E
$GPGSV,5,2,17,10,14,301,39,17,32,052,40,19,50,089,39,12,49,245,45*7A
$GPGSV,5,3,17,14,06,064,,23,09,261,31,06,04,112,,25,10,247,*70
$GPGSV,5,4,17,32,06,325,36,36,35,170,35,34,31,208,34,49,34,195,35*72
$GPGSV,5,5,17,61,03,257,*4B
$GLGSV,3,1,09,77,63,312,38,85,21,030,38,78,12,269,27,87,11,136,*69
$GLGSV,3,2,09,66,26,203,38,68,26,328,39,86,29,091,36,76,49,052,37*6D
$GLGSV,3,3,09,67,50,268,48*58
$GAGSV,3,1,12,02,74,054,47,03,13,162,,11,11,059,,18,47,145,*68
$GAGSV,3,2,12,25,21,060,27,07,48,295,42,08,55,199,45,30,48,243,44*6C
$GAGSV,3,3,12,10,09,032,,29,03,325,31,12,04,011,,36,05,104,*6E
$GBGSV,6,1,21,26,68,070,49,44,15,158,23,41,13,327,40,07,21,051,29*68
$GBGSV,6,2,21,45,13,086,,05,20,130,,40,18,039,30,29,21,046,34*6D
$GBGSV,6,3,21,42,24,218,34,35,35,112,38,33,35,279,37,10,33,058,37*6E
$GBGSV,6,4,21,14,34,246,37,56,38,061,,24,55,282,45,02,04,109,*62
$GBGSV,6,5,21,11,10,239,,50,09,197,,25,03,273,30,57,01,337,*64
$GBGSV,6,6,21,60,07,111,*58
$GPGGA,112952.00,,,,,0,00,,,M,,M,,*44
$PTNL,GGK,112952.00,010125,4742.4459968,N,01617.9733082,E,1,25,1.1,EHT667.5482,M*46
$GPGGQ,112952.00,010125,4742.4459968,N,01617.9733082,E,1,25,2.237,624.3371,M*36
$GPGFA,112952.00,10.077,14.971,1.060,0.739,332.574,1.826,,VVV*07
$GPLLK,112952.00,010125,,M,,M,1,25,1.3,,M*02
$GNGMP,112952.00,,,,,DAAA,25,0.6,,,,*5B
$GPGMP,112952.00,,,,,,07,,,,2.9,123*7D
$GLGMP,112952.00,,,,,,07,,,,,*74
$GAGMP,112952.00,,,,,,04,,,,,*7A
$GBGMP,112952.00,,,,,,07,,,,,*7A
$PSSN,SNC,[0,300610000,2347]*40
$GPZDA,112957.00,01,01,2025,,*6A
$GPDTM,W84,,00.0000000,N,00.0000000,E,00.0000000,W84*5F
$GPRMC,112957.00,A,4742.4459912,N,01617.9733024,E,0.0,,010125,5.1,E,D*1E
$GPGLL,4742.4459912,N,01617.9733024,E,112957.00,A,D*6F
$GPGGA,112957.00,4742.4459912,N,01617.9733024,E,2,24,0.6,624.3515,M,43.2111,M,1.4,0123*41
$GNGNS,112957.00,4742.4459912,N,01617.9733024,E,DAAA,24,0.6,624.3515,43.2111,,*58
$GPGNS,112957.00,,,,,,05,,,,1.4,123*74
$GLGNS,112957.00,,,,,,07,,,,,*71
$GAGNS,112957.00,,,,,,04,,,,,*7F
$GBGNS,112957.00,,,,,,08,,,,,*70
$GPLLQ,112957.00,010125,,M,,M,1,24,2.806,,M*12
$GPVTG,,T,,M,0.00,N,0.01,K,D*27
$GPHDT,,T*1B
$GPTHS,,V*0E
$GPROT,,V*08
$PSSN,HRP,112957.00,010125,,,,,,,00,0,,*68
$PTNL,AVR,112957.00,,Yaw,,Tilt,,,,0,,00*3E
$GPGSA,A,3,10,12,17,19,24,,,,,,,,1.2,0.6,1.0*3C
$GPGSA,A,3,66,67,68,76,77,85,86,,,,,,1.2,0.6,1.0*3B
$GPGSA,A,3,02,07,08,30,,,,,,,,,1.2,0.6,1.0*38
$GPGSA,A,3,10,14,24,26,29,33,35,41,,,,,1.2,0.6,1.0*38
$GPGST,112957.00,5.000,1.712,0.649,346.527,1.672,0.747,2.127*54
$GPGBS,112957.00,6.701,3.666,12.162,19,0.0001,1.385,0.700*64
$GPGRS,112957.00,1,1.3,-0.4,-0.3,1.4,-0.6,,,,,,,*42
$GPGRS,112957.00,1,3.7,0.6,2.1,-4.3,-8.8,10.7,-2.2,,,,,*74
$GPGRS,112957.00,1,0.1,-0.7,-0.1,-1.0,,,,,,,,*6C
$GPGRS,112957.00,1,-5.0,7.6,-1.2,-3.4,6.4,-6.8,0.4,-1.4,,,,*67
$GPGSV,5,1,17,24,81,300,41,15,33,195,33,22,26,060,,13,17,161,*7B
$GPGSV,5,2,17,10,14,301,41,17,32,052,40,19,50,089,37,12,49,245,45*7B
$GPGSV,5,3,17,14,06,064,,23,09,261,32,06,04,112,,25,10,247,*73
$GPGSV,5,4,17,32,06,325,34,36,35,170,35,34,31,208,35,49,34,195,35*71
$GPGSV,5,5,17,61,03,257,*4B
$GLGSV,3,1,09,77,63,312,39,85,21,030,37,78,12,269,30,87,11,136,*61
$GLGSV,3,2,09,66,25,203,35,68,26,328,41,86,29,091,36,76,49,052,38*63
$GLGSV,3,3,09,67,50,268,48*58
$GAGSV,3,1,12,02,74,054,46,03,13,162,,11,11,059,,18,47,145,*69
$GAGSV,3,2,12,25,21,060,26,07,48,295,41,08,55,199,45,30,48,243,44*6E
$GAGSV,3,3,12,10,09,032,,29,03,325,30,12,04,011,,36,05,104,*6F
$GBGSV,6,1,21,26,68,070,49,44,15,158,24,41,13,327,41,07,21,051,30*66
$GBGSV,6,2,21,45,13,086,,05,20,130,,40,18,039,31,29,21,046,36*6E
$GBGSV,6,3,21,42,24,218,32,35,35,112,36,33,35,279,35,10,33,058,37*64
$GBGSV,6,4,21,14,34,246,37,56,38,061,,24,55,282,47,02,04,109,*60
$GBGSV,6,5,21,11,10,239,,50,09,197,,25,03,273,32,57,01,337,*66
$GBGSV,6,6,21,60,07,111,*58
$GPGGA,112957.00,,,,,0,00,,,M,,M,,*41
$PTNL,GGK,112957.00,010125,4742.4459912,N,01617.9733024,E,1,24,1.2,EHT667.5625,M*4F
$GPGGQ,112957.00,010125,4742.4459912,N,01617.9733024,E,1,24,2.806,624.3515,M*3F
$GPGFA,112957.00,16.279,17.438,1.712,0.649,346.527,2.127,,VVV*01
$GPLLK,112957.00,010125,,M,,M,1,24,1.4,,M*01
$GNGMP,112957.00,,,,,DAAA,24,0.6,,,,*5F
$GPGMP,112957.00,,,,,,05,,,,1.4,123*74
$GLGMP,112957.00,,,,,,07,,,,,*71
$GAGMP,112957.00,,,,,,04,,,,,*7F
$GBGMP,112957.00,,,,,,08,,,,,*70
$PSSN,SNC,[0,300615000,2347]*45
$GPZDA,113002.00,01,01,2025,,*62
$GPDTM,W84,,00.0000000,N,00.0000000,E,00.0000000,W84*5F
$GPRMC,113002.00,A,4742.4459909,N,01617.9733058,E,0.0,,010125,5.1,E,D*17
$GPGLL,4742.4459909,N,01617.9733058,E,113002.00,A,D*66
$GPGGA,113002.00,4742.4459909,N,01617.9733058,E,2,19,0.9,624.3684,M,43.2111,M,2.5,0123*40
$GNGNS,113002.00,4742.4459909,N,01617.9733058,E,DAAA,19,0.9,624.3684,43.2111,,*5B
$GPGNS,113002.00,,,,,,04,,,,2.5,123*7F
$GLGNS,113002.00,,,,,,05,,,,,*7B
$GAGNS,113002.00,,,,,,04,,,,,*77
$GBGNS,113002.00,,,,,,06,,,,,*76
$GPLLQ,113002.00,010125,,M,,M,1,19,2.803,,M*11
$GPVTG,,T,,M,0.01,N,0.01,K,D*26
$GPHDT,,T*1B
$GPTHS,,V*0E
$GPROT,,V*08
$PSSN,HRP,113002.00,010125,,,,,,,00,0,,*60
$PTNL,AVR,113002.00,,Yaw,,Tilt,,,,0,,00*36
$GPGSA,A,3,10,12,17,24,,,,,,,,,1.5,0.9,1.2*3E
$GPGSA,A,3,67,68,76,77,86,,,,,,,,1.5,0.9,1.2*3C
$GPGSA,A,3,02,07,08,30,,,,,,,,,1.5,0.9,1.2*32
$GPGSA,A,3,10,14,24,26,29,41,,,,,,,1.5,0.9,1.2*34
$GPGST,113002.00,4.617,1.933,0.658,336.574,1.792,0.977,1.920*5F
$GPGBS,113002.00,10.810,5.647,13.268,77,0.0001,-8.326,6.061*7A
$GPGRS,113002.00,1,1.6,0.2,-0.8,-0.1,,,,,,,,*43
$GPGRS,113002.00,1,1.4,0.9,-2.7,-8.3,0.6,,,,,,,*65
$GPGRS,113002.00,1,0.7,-0.2,0.2,-1.0,,,,,,,,*49
$GPGRS,113002.00,1,-3.9,6.4,-1.0,-3.3,10.1,-1.4,,,,,,*73
$GPGSV,5,1,17,24,81,300,42,15,33,195,32,22,26,060,,13,17,161,*79
$GPGSV,5,2,17,10,13,301,42,17,32,052,40,19,50,089,34,12,49,245,46*7F
$GPGSV,5,3,17,14,05,064,,23,09,261,33,06,04,112,,25,10,247,*71
$GPGSV,5,4,17,32,06,325,31,36,35,170,35,34,31,208,34,49,34,195,35*75
$GPGSV,5,5,17,61,03,257,*4B
$GLGSV,3,1,09,77,63,312,39,85,21,030,35,78,12,269,25,87,11,136,*67
$GLGSV,3,2,09,66,25,203,26,68,26,328,42,86,29,091,35,76,49,052,40*6E
$GLGSV,3,3,09,67,50,268,49*59
$GAGSV,3,1,12,02,74,054,46,03,13,162,,11,11,058,,18,47,145,*68
$GAGSV,3,2,12,25,21,060,24,07,48,295,41,08,55,199,45,30,48,243,43*6B
$GAGSV,3,3,12,10,09,032,,29,03,325,29,12,04,011,,36,05,104,*67
$GBGSV,6,1,21,26,68,070,49,44,15,158,,41,13,327,42,07,21,051,30*63
$GBGSV,6,2,21,45,13,086,,05,20,130,,40,18,039,31,29,21,046,37*6F
$GBGSV,6,3,21,42,24,218,29,35,35,112,34,33,35,279,34,10,33,058,37*6D
$GBGSV,6,4,21,14,34,246,37,56,38,061,,24,55,282,47,02,04,109,*60
$GBGSV,6,5,21,11,10,239,,50,09,197,,25,03,273,33,57,01,337,*67
$GBGSV,6,6,21,60,07,111,*58
$GPGGA,113002.00,,,,,0,00,,,M,,M,,*49
$PTNL,GGK,113002.00,010125,4742.4459909,N,01617.9733058,E,1,19,1.5,EHT667.5794,M*44
$GPGGQ,113002.00,010125,4742.4459909,N,01617.9733058,E,1,19,2.803,624.3684,M*36
$GPGFA,113002.00,18.374,15.746,1.933,0.658,336.574,1.920,,VVV*03
$GPLLK,113002.00,010125,,M,,M,1,19,1.8,,M*0B
$GNGMP,113002.00,,,,,DAAA,19,0.9,,,,*56
$GPGMP,113002.00,,,,,,04,,,,2.5,123*7F
$GLGMP,113002.00,,,,,,05,,,,,*7B
$GAGMP,113002.00,,,,,,04,,,,,*77
$GBGMP,113002.00,,,,,,06,,,,,*76
$PSSN,SNC,[0,300620000,2347]*43
$GPZDA,113007.00,01,01,2025,,*67
$GPDTM,W84,,00.0000000,N,00.0000000,E,00.0000000,W84*5F
$GPRMC,113007.00,A,4742.4459892,N,01617.9733150,E,0.0,,010125,5.1,E,D*18
$GPGLL,4742.4459892,N,01617.9733150,E,113007.00,A,D*69
$GPGGA,113007.00,4742.4459892,N,01617.9733150,E,2,21,0.8,624.3792,M,43.2111,M,3.4,0123*43
$GNGNS,113007.00,4742.4459892,N,01617.9733150,E,DAAA,21,0.8,624.3792,43.2111,,*58
$GPGNS,113007.00,,,,,,05,,,,3.4,123*7B
$GLGNS,113007.00,,,,,,06,,,,,*7D
$GAGNS,113007.00,,,,,,04,,,,,*72
$GBGNS,113007.00,,,,,,06,,,,,*73
$GPLLQ,113007.00,010125,,M,,M,1,21,2.736,,M*16
$GPVTG,,T,,M,0.00,N,0.00,K,D*26
$GPHDT,,T*1B
$GPTHS,,V*0E
$GPROT,,V*08
$PSSN,HRP,113007.00,010125,,,,,,,00,0,,*65
$PTNL,AVR,113007.00,,Yaw,,Tilt,,,,0,,00*33
$GPGSA,A,3,10,12,17,19,24,,,,,,,,1.5,0.8,1.2*37
$GPGSA,A,3,67,68,76,77,85,86,,,,,,,1.5,0.8,1.2*30
$GPGSA,A,3,02,07,08,30,,,,,,,,,1.5,0.8,1.2*33
$GPGSA,A,3,10,14,24,26,29,41,,,,,,,1.5,0.8,1.2*35
$GPGST,113007.00,5.401,1.714,0.617,347.448,1.678,0.708,2.041*58
$GPGBS,113007.00,7.745,3.850,13.288,77,0.0001,-10.381,6.064*77
$GPGRS,113007.00,1,1.4,0.1,-0.5,0.9,-0.3,,,,,,,*6F
$GPGRS,113007.00,1,1.0,-0.1,-3.8,-10.4,2.7,1.7,,,,,,*5A
$GPGRS,113007.00,1,0.0,-0.2,-0.6,-1.3,,,,,,,,*61
$GPGRS,113007.00,1,-3.8,2.7,-2.2,-4.0,14.9,-2.5,,,,,,*7B
$GPGSV,5,1,17,24,81,300,44,15,33,195,34,22,26,060,,13,17,161,*79
$GPGSV,5,2,17,10,13,301,41,17,32,052,39,19,50,088,38,12,49,245,45*7C
$GPGSV,5,3,17,14,05,064,,23,09,261,33,06,04,112,,25,10,247,*71
$GPGSV,5,4,17,32,06,325,28,36,35,170,35,34,31,208,34,49,34,195,35*7D
$GPGSV,5,5,17,61,03,257,*4B
$GLGSV,3,1,09,77,63,312,38,85,21,030,38,78,12,269,,87,11,136,*6C
$GLGSV,3,2,09,66,25,203,29,86,29,090,37,68,26,328,41,76,49,052,41*60
$GLGSV,3,3,09,67,50,268,50*51
$GAGSV,3,1,12,02,74,054,46,03,13,162,20,11,11,058,,18,47,145,*6A
$GAGSV,3,2,12,25,21,060,24,07,48,295,40,08,55,199,45,30,48,243,43*6A
$GAGSV,3,3,12,10,09,032,,29,03,325,28,12,04,011,,36,05,104,*66
$GBGSV,6,1,21,26,68,070,49,44,15,158,,41,13,327,42,07,21,051,30*63
$GBGSV,6,2,21,45,13,086,,05,20,130,,40,18,039,32,29,21,046,38*63
$GBGSV,6,3,21,42,24,218,29,35,35,112,34,33,35,279,32,10,33,058,37*6B
$GBGSV,6,4,21,14,34,246,36,56,38,061,,24,55,282,48,02,04,109,*6E
$GBGSV,6,5,21,11,10,239,,50,09,197,,25,03,273,34,57,01,337,*60
$GBGSV,6,6,21,60,07,111,*58
$GPGGA,113007.00,,,,,0,00,,,M,,M,,*4C
$PTNL,GGK,113007.00,010125,4742.4459892,N,01617.9733150,E,1,21,1.5,EHT667.5903,M*40
$GPGGQ,113007.00,010125,4742.4459892,N,01617.9733150,E,1,21,2.736,624.3792,M*3D
$GPGFA,113007.00,16.292,16.740,1.714,0.617,347.448,2.041,,VVV*01
$GPLLK,113007.00,010125,,M,,M,1,21,1.7,,M*0A
$GNGMP,113007.00,,,,,DAAA,21,0.8,,,,*59
$GPGMP,113007.00,,,,,,05,,,,3.4,123*7B
$GLGMP,113007.00,,,,,,06,,,,,*7D
$GAGMP,113007.00,,,,,,04,,,,,*72
$GBGMP,113007.00,,,,,,06,,,,,*73
$PSSN,SNC,[0,300625000,2347]*46
$GPZDA,113012.00,01,01,2025,,*63
$GPDTM,W84,,00.0000000,N,00.0000000,E,00.0000000,W84*5F
$GPRMC,113012.00,A,4742.4459877,N,01617.9733031,E,0.0,,010125,5.1,E,D*11
$GPGLL,4742.4459877,N,01617.9733031,E,113012.00,A,D*60
$GPGGA,113012.00,4742.4459877,N,01617.9733031,E,2,23,0.7,624.3787,M,43.2111,M,3.0,0123*47
$GNGNS,113012.00,4742.4459877,N,01617.9733031,E,DAAA,23,0.7,624.3787,43.2111,,*58
$GPGNS,113012.00,,,,,,06,,,,3.0,123*78
$GLGNS,113012.00,,,,,,06,,,,,*79
$GAGNS,113012.00,,,,,,04,,,,,*76
$GBGNS,113012.00,,,,,,07,,,,,*76
$GPLLQ,113012.00,010125,,M,,M,1,23,2.589,,M*16
$GPVTG,,T,,M,0.01,N,0.01,K,D*26
$GPHDT,,T*1B
$GPTHS,,V*0E
$GPROT,,V*08
$PSSN,HRP,113012.00,010125,,,,,,,00,0,,*61
$PTNL,AVR,113012.00,,Yaw,,Tilt,,,,0,,00*37
$GPGSA,A,3,10,12,15,17,19,24,,,,,,,1.2,0.7,1.1*38
$GPGSA,A,3,67,68,76,77,85,86,,,,,,,1.2,0.7,1.1*3B
$GPGSA,A,3,02,07,08,30,,,,,,,,,1.2,0.7,1.1*38
$GPGSA,A,3,10,14,24,26,29,35,41,,,,,,1.2,0.7,1.1*38
$GPGST,113012.00,6.244,1.237,0.800,333.324,1.162,0.905,2.129*5A
$GPGBS,113012.00,5.064,3.052,8.489,19,0.0001,2.148,0.736*55
$GPGRS,113012.00,1,-0.1,-0.5,-0.1,-1.2,2.1,-0.6,,,,,,*60
$GPGRS,113012.00,1,2.0,-0.3,-4.5,-9.2,7.0,6.9,,,,,,*60
$GPGRS,113012.00,1,-0.0,-0.2,-0.6,-0.7,,,,,,,,*4D
$GPGRS,113012.00,1,-3.7,-0.6,-2.7,-4.5,18.1,-6.1,-2.4,,,,,*5F
$GPGSV,5,1,17,24,81,300,44,15,33,195,38,22,26,060,,13,17,161,21*76
$GPGSV,5,2,17,10,13,301,39,17,32,052,38,19,50,088,39,12,49,245,45*73
$GPGSV,5,3,17,14,05,064,,23,09,261,31,06,04,112,,25,10,247,*73
$GPGSV,5,4,17,32,06,325,23,36,35,170,35,34,31,208,34,49,34,195,35*76
$GPGSV,5,5,17,61,03,257,*4B
$GLGSV,3,1,09,77,63,312,39,85,21,030,41,78,12,269,27,87,11,136,*66
$GLGSV,3,2,09,66,25,203,27,68,26,328,41,86,30,090,40,76,49,052,42*65
$GLGSV,3,3,09,67,50,268,51*50
$GAGSV,3,1,12,02,74,054,46,03,13,162,21,11,11,058,,18,47,145,*6B
$GAGSV,3,2,12,25,21,060,21,07,48,295,39,08,55,199,45,30,48,243,43*61
$GAGSV,3,3,12,10,09,032,,29,03,325,27,12,04,011,,36,05,104,*69
$GBGSV,6,1,21,26,67,070,48,44,15,158,27,41,13,327,42,07,21,051,30*68
$GBGSV,6,2,21,45,13,086,,05,20,130,,40,18,039,32,29,21,046,37*6C
$GBGSV,6,3,21,42,24,217,32,35,35,112,36,33,35,279,33,10,33,058,37*6D
$GBGSV,6,4,21,14,34,246,36,56,38,061,,24,55,282,48,02,04,109,*6E
$GBGSV,6,5,21,11,10,239,,50,09,197,,25,03,273,34,57,01,337,*60
$GBGSV,6,6,21,60,07,111,*58
$GPGGA,113012.00,,,,,0,00,,,M,,M,,*48
$PTNL,GGK,113012.00,010125,4742.4459877,N,01617.9733031,E,1,23,1.2,EHT667.5898,M*4F
$GPGGQ,113012.00,010125,4742.4459877,N,01617.9733031,E,1,23,2.589,624.3787,M*34
$GPGFA,113012.00,11.762,17.459,1.237,0.800,333.324,2.129,,VVV*0F
$GPLLK,113012.00,010125,,M,,M,1,23,1.5,,M*0E
$GNGMP,113012.00,,,,,DAAA,23,0.7,,,,*50
$GPGMP,113012.00,,,,,,06,,,,3.0,123*78
$GLGMP,113012.00,,,,,,06,,,,,*79
$GAGMP,113012.00,,,,,,04,,,,,*76
$GBGMP,113012.00,,,,,,07,,,,,*76
$PSSN,SNC,[0,300630000,2347]*42
$GPZDA,113017.00,01,01,2025,,*66
$GPDTM,W84,,00.0000000,N,00.0000000,E,00.0000000,W84*5F
$GPRMC,113017.00,A,4742.4460022,N,01617.9732899,E,0.0,,010125,5.1,E,D*1D
$GPGLL,4742.4460022,N,01617.9732899,E,113017.00,A,D*6C
$GPGGA,113017.00,4742.4460022,N,01617.9732899,E,2,22,0.7,624.3882,M,43.2111,M,1.3,0123*41
$GNGNS,113017.00,4742.4460022,N,01617.9732899,E,DAAA,22,0.7,624.3882,43.2111,,*5F
$GPGNS,113017.00,,,,,,06,,,,1.3,123*7C
$GLGNS,113017.00,,,,,,05,,,,,*7F
$GAGNS,113017.00,,,,,,04,,,,,*73
$GBGNS,113017.00,,,,,,07,,,,,*73
$GPLLQ,113017.00,010125,,M,,M,1,22,2.791,,M*19
$GPVTG,,T,,M,0.00,N,0.01,K,D*27
$GPHDT,,T*1B
$GPTHS,,V*0E
$GPROT,,V*08
$PSSN,HRP,113017.00,010125,,,,,,,00,0,,*64
$PTNL,AVR,113017.00,,Yaw,,Tilt,,,,0,,00*32
$GPGSA,A,3,10,12,15,17,19,24,,,,,,,1.3,0.7,1.1*39
$GPGSA,A,3,67,68,76,77,86,,,,,,,,1.3,0.7,1.1*37
$GPGSA,A,3,02,07,08,30,,,,,,,,,1.3,0.7,1.1*39
$GPGSA,A,3,10,14,24,26,29,35,41,,,,,,1.3,0.7,1.1*39
$GPGST,113017.00,6.384,1.333,0.862,333.251,1.252,0.976,2.296*53
$GPGBS,113017.00,4.852,3.025,8.174,17,0.0001,-2.256,0.917*79
$GPGRS,113017.00,1,-0.3,-0.0,1.7,-2.3,1.3,-1.2,,,,,,*4E
$GPGRS,113017.00,1,2.7,1.4,-5.7,-8.1,8.9,,,,,,,*6F
$GPGRS,113017.00,1,0.4,-1.6,-0.4,0.3,,,,,,,,*4F
$GPGRS,113017.00,1,-4.0,-1.1,-2.5,-4.5,19.0,0.4,-2.1,,,,,*75
$GPGSV,5,1,17,24,81,300,44,15,33,195,40,22,26,060,,13,17,161,26*7E
$GPGSV,5,2,17,10,13,301,38,17,32,052,37,19,50,088,36,12,49,245,46*71
$GPGSV,5,3,17,14,05,064,,23,09,261,31,06,04,112,,25,10,247,*73
$GPGSV,5,4,17,32,06,325,19,36,35,170,35,34,31,208,34,49,34,195,35*7F
$GPGSV,5,5,17,61,03,257,*4B
$GLGSV,3,1,09,77,63,312,37,85,21,030,24,78,12,269,30,87,11,136,*6D
$GLGSV,3,2,09,66,25,203,30,86,30,090,41,68,26,328,41,76,49,052,39*6E
$GLGSV,3,3,09,67,50,268,51*50
$GAGSV,3,1,12,02,74,054,46,03,13,162,21,11,11,058,,18,47,145,*6B
$GAGSV,3,2,12,25,21,060,21,07,48,295,37,08,55,199,44,30,48,243,44*69
$GAGSV,3,3,12,10,09,032,,29,03,325,26,12,04,011,,36,05,104,*68
$GBGSV,6,1,21,26,67,070,48,44,15,158,25,41,13,327,42,07,21,051,30*6A
$GBGSV,6,2,21,45,13,086,,05,20,130,,40,18,039,32,29,21,046,35*6E
$GBGSV,6,3,21,42,24,217,32,35,35,112,37,33,35,279,34,10,33,058,37*6B
$GBGSV,6,4,21,14,34,246,37,56,38,061,,24,55,282,47,02,04,109,*60
$GBGSV,6,5,21,11,10,238,,50,09,197,,25,03,273,33,57,01,337,*66
$GBGSV,6,6,21,60,07,111,*58
$GPGGA,113017.00,,,,,0,00,,,M,,M,,*4D
$PTNL,GGK,113017.00,010125,4742.4460022,N,01617.9732899,E,1,22,1.3,EHT667.5993,M*49
$GPGGQ,113017.00,010125,4742.4460022,N,01617.9732899,E,1,22,2.791,624.3882,M*38
$GPGFA,113017.00,12.672,18.827,1.333,0.862,333.251,2.296,,VVV*06
$GPLLK,113017.00,010125,,M,,M,1,22,1.5,,M*0A
$GNGMP,113017.00,,,,,DAAA,22,0.7,,,,*54
$GPGMP,113017.00,,,,,,06,,,,1.3,123*7C
$GLGMP,113017.00,,,,,,05,,,,,*7F
$GAGMP,113017.00,,,,,,04,,,,,*73
$GBGMP,113017.00,,,,,,07,,,,,*73
$PSSN,SNC,[0,300635000,2347]*47
$GPZDA,113022.00,01,01,2025,,*60
$GPDTM,W84,,00.0000000,N,00.0000000,E,00.0000000,W84*5F
$GPRMC,113022.00,A,4742.4460118,N,01617.9733017,E,0.0,,010125,5.1,E,D*1C
$GPGLL,4742.4460118,N,01617.9733017,E,113022.00,A,D*6D
$GPGGA,113022.00,4742.4460118,N,01617.9733017,E,2,20,0.7,624.4045,M,43.2111,M,2.4,0123*42
$GNGNS,113022.00,4742.4460118,N,01617.9733017,E,DAAA,20,0.7,624.4045,43.2111,,*58
$GPGNS,113022.00,,,,,,05,,,,2.4,123*7D
$GLGNS,113022.00,,,,,,05,,,,,*79
$GAGNS,113022.00,,,,,,03,,,,,*72
$GBGNS,113022.00,,,,,,07,,,,,*75
$GPLLQ,113022.00,010125,,M,,M,1,20,2.624,,M*12
$GPVTG,,T,,M,0.01,N,0.01,K,D*26
$GPHDT,,T*1B
$GPTHS,,V*0E
$GPROT,,V*08
$PSSN,HRP,113022.00,010125,,,,,,,00,0,,*62
$PTNL,AVR,113022.00,,Yaw,,Tilt,,,,0,,00*34
$GPGSA,A,3,10,12,15,17,24,,,,,,,,1.3,0.7,1.1*31
$GPGSA,A,3,67,68,76,77,86,,,,,,,,1.3,0.7,1.1*37
$GPGSA,A,3,02,08,30,,,,,,,,,,1.3,0.7,1.1*3E
$GPGSA,A,3,10,14,24,26,33,35,41,,,,,,1.3,0.7,1.1*32
$GPGST,113022.00,4.725,1.344,0.922,313.261,1.140,1.165,2.056*59
$GPGBS,113022.00,5.233,4.345,8.495,10,0.0001,3.150,1.243*5E
$GPGRS,113022.00,1,3.1,0.0,0.7,-2.2,-0.6,,,,,,,*60
$GPGRS,113022.00,1,3.1,3.0,-5.1,-9.4,6.8,,,,,,,*65
$GPGRS,113022.00,1,0.7,0.6,1.0,,,,,,,,,*63
$GPGRS,113022.00,1,-3.9,3.0,-1.9,-4.3,-1.6,6.3,-2.3,,,,,*4B
$GPGSV,5,1,17,24,81,299,43,15,33,195,42,22,26,060,,13,17,161,29*75
$GPGSV,5,2,17,10,13,301,37,17,32,052,36,19,50,088,34,12,49,245,45*7E
$GPGSV,5,3,17,14,05,064,,23,09,261,29,06,04,112,,25,10,247,*7A
$GPGSV,5,4,17,32,06,325,22,36,35,170,35,34,31,208,34,49,34,195,35*77
$GPGSV,5,5,17,61,03,257,*4B
$GLGSV,3,1,09,77,63,313,37,85,21,030,37,78,12,269,29,87,11,136,*66
$GLGSV,3,2,09,66,25,203,33,86,30,090,40,68,26,328,42,76,49,052,38*6E
$GLGSV,3,3,09,67,50,268,51*50
$GAGSV,3,1,12,02,74,054,46,03,13,162,23,11,11,058,,18,47,145,*69
$GAGSV,3,2,12,25,21,060,19,07,48,295,35,08,55,199,44,30,48,243,45*61
$GAGSV,3,3,12,10,09,032,,29,03,325,26,12,04,011,,36,05,104,*68
$GBGSV,6,1,21,26,67,070,47,44,15,158,31,41,13,327,41,07,21,051,30*63
$GBGSV,6,2,21,45,13,086,,05,20,130,,40,18,039,32,29,21,046,33*68
$GBGSV,6,3,21,42,24,217,30,35,35,111,38,33,35,279,35,10,33,058,37*64
$GBGSV,6,4,21,14,34,246,39,56,38,061,,24,55,282,47,02,04,109,*6E
$GBGSV,6,5,21,11,10,238,,50,09,197,,25,03,273,32,57,01,337,*67
$GBGSV,6,6,21,60,07,111,*58
$GPGGA,113022.00,,,,,0,00,,,M,,M,,*4B
$PTNL,GGK,113022.00,010125,4742.4460118,N,01617.9733017,E,1,20,1.3,EHT667.6155,M*4B
$GPGGQ,113022.00,010125,4742.4460118,N,01617.9733017,E,1,20,2.624,624.4045,M*30
$GPGFA,113022.00,12.776,16.861,1.344,0.922,313.261,2.056,,VVV*03
$GPLLK,113022.00,010125,,M,,M,1,20,1.5,,M*0E
$GNGMP,113022.00,,,,,DAAA,20,0.7,,,,*50
$GPGMP,113022.00,,,,,,05,,,,2.4,123*7D
$GLGMP,113022.00,,,,,,05,,,,,*79
$GAGMP,113022.00,,,,,,03,,,,,*72
$GBGMP,113022.00,,,,,,07,,,,,*75
$PSSN,SNC,[0,300640000,2347]*45
$GPZDA,113027.00,01,01,2025,,*65
$GPDTM,W84,,00.0000000,N,00.0000000,E,00.0000000,W84*5F
$GPRMC,113027.00,A,4742.4460150,N,01617.9733102,E,0.0,,010125,5.1,E,D*10
$GPGLL,4742.4460150,N,01617.9733102,E,113027.00,A,D*61
$GPGGA,113027.00,4742.4460150,N,01617.9733102,E,2,20,0.7,624.4262,M,43.2111,M,3.3,0123*4F
$GNGNS,113027.00,4742.4460150,N,01617.9733102,E,DAAA,20,0.7,624.4262,43.2111,,*53
$GPGNS,113027.00,,,,,,04,,,,3.3,123*7F
$GLGNS,113027.00,,,,,,06,,,,,*7F
$GAGNS,113027.00,,,,,,03,,,,,*77
$GBGNS,113027.00,,,,,,07,,,,,*70
$GPLLQ,113027.00,010125,,M,,M,1,20,7.680,,M*1C
$GPVTG,,T,,M,0.01,N,0.01,K,D*26
$GPHDT,,T*1B
$GPTHS,,V*0E
$GPROT,,V*08
$PSSN,HRP,113027.00,010125,,,,,,,00,0,,*67
$PTNL,AVR,113027.00,,Yaw,,Tilt,,,,0,,00*31
$GPGSA,A,3,12,15,19,24,,,,,,,,,1.4,0.7,1.2*3A
$GPGSA,A,3,67,68,76,77,85,86,,,,,,,1.4,0.7,1.2*3E
$GPGSA,A,3,02,08,30,,,,,,,,,,1.4,0.7,1.2*3A
$GPGSA,A,3,10,14,24,26,33,35,41,,,,,,1.4,0.7,1.2*36
$GPGST,113027.00,8.245,3.577,1.096,343.922,3.451,1.446,6.707*5D
$GPGBS,113027.00,12.154,5.473,22.912,85,0.0001,23.445,6.332*69
$GPGRS,113027.00,1,-0.2,0.4,-0.1,0.0,,,,,,,,*4F
$GPGRS,113027.00,1,4.2,5.5,-3.9,-9.5,23.4,5.9,,,,,,*71
$GPGRS,113027.00,1,0.8,0.8,1.2,,,,,,,,,*65
$GPGRS,113027.00,1,-2.7,9.3,-2.2,-3.9,-1.4,4.3,-2.9,,,,,*47
$GPGSV,5,1,17,24,81,299,43,15,33,195,42,22,26,060,,13,17,161,32*7F
$GPGSV,5,2,17,10,13,301,36,17,32,052,34,19,50,088,38,12,49,245,45*71
$GPGSV,5,3,17,14,05,064,,23,09,261,24,06,04,112,,25,10,247,*77
$GPGSV,5,4,17,32,06,325,23,36,35,170,35,34,31,208,34,49,34,195,35*76
$GPGSV,5,5,17,61,03,257,*4B
$GLGSV,3,1,09,77,63,313,35,85,21,030,38,78,12,269,29,87,12,136,*68
$GLGSV,3,2,09,66,25,203,34,86,30,090,39,68,26,328,43,76,49,052,39*67
$GLGSV,3,3,09,67,50,268,52*53
$GAGSV,3,1,12,02,74,054,45,03,13,162,24,11,11,058,,18,47,145,*6D
$GAGSV,3,2,12,25,21,060,28,07,48,295,32,08,55,199,44,30,48,243,45*64
$GAGSV,3,3,12,10,09,032,,29,03,325,26,12,04,011,,36,05,104,*68
$GBGSV,6,1,21,26,67,070,47,44,15,158,32,41,13,327,41,07,21,051,31*61
$GBGSV,6,2,21,45,13,086,,05,20,130,,40,18,039,32,29,21,046,34*6F
$GBGSV,6,3,21,42,24,217,21,35,35,111,39,33,35,279,35,10,33,058,37*65
$GBGSV,6,4,21,14,34,246,40,56,38,061,,24,55,282,45,02,04,109,*62
$GBGSV,6,5,21,11,10,238,,50,09,197,,25,03,273,30,57,01,337,*65
$GBGSV,6,6,21,60,07,111,*58
$GPGGA,113027.00,,,,,0,00,,,M,,M,,*4E
$PTNL,GGK,113027.00,010125,4742.4460150,N,01617.9733102,E,1,20,1.4,EHT667.6372,M*47
$GPGGQ,113027.00,010125,4742.4460150,N,01617.9733102,E,1,20,7.680,624.4262,M*30
$GPGFA,113027.00,34.012,55.000,3.577,1.096,343.922,6.707,,VVV*02
$GPLLK,113027.00,010125,,M,,M,1,20,1.6,,M*08
$GNGMP,113027.00,,,,,DAAA,20,0.7,,,,*55
$GPGMP,113027.00,,,,,,04,,,,3.3,123*7F
$GLGMP,113027.00,,,,,,06,,,,,*7F
$GAGMP,113027.00,,,,,,03,,,,,*77
$GBGMP,113027.00,,,,,,07,,,,,*70
$PSSN,SNC,[0,300645000,2347]*40
$GPZDA,113032.00,01,01,2025,,*61
$GPDTM,W84,,00.0000000,N,00.0000000,E,00.0000000,W84*5F
$GPRMC,113032.00,A,4742.4460125,N,01617.9733046,E,0.0,,010125,5.1,E,D*17
$GPGLL,4742.4460125,N,01617.9733046,E,113032.00,A,D*66
$GPGGA,113032.00,4742.4460125,N,01617.9733046,E,2,20,0.7,624.4310,M,43.2111,M,3.3,0123*4C
$GNGNS,113032.00,4742.4460125,N,01617.9733046,E,DAAA,20,0.7,624.4310,43.2111,,*50
$GPGNS,113032.00,,,,,,04,,,,3.3,123*7B
$GLGNS,113032.00,,,,,,05,,,,,*78
$GAGNS,113032.00,,,,,,03,,,,,*73
$GBGNS,113032.00,,,,,,08,,,,,*7B
$GPLLQ,113032.00,010125,,M,,M,1,20,7.923,,M*1E
$GPVTG,,T,,M,0.01,N,0.01,K,D*26
$GPHDT,,T*1B
$GPTHS,,V*0E
$GPROT,,V*08
$PSSN,HRP,113032.00,010125,,,,,,,00,0,,*63
$PTNL,AVR,113032.00,,Yaw,,Tilt,,,,0,,00*35
$GPGSA,A,3,12,15,19,24,,,,,,,,,1.4,0.7,1.2*3A
$GPGSA,A,3,67,68,76,85,86,,,,,,,,1.4,0.7,1.2*3E
$GPGSA,A,3,02,08,30,,,,,,,,,,1.4,0.7,1.2*3A
$GPGSA,A,3,10,14,24,26,29,33,35,41,,,,,1.4,0.7,1.2*3D
$GPGST,113032.00,8.753,3.669,1.129,344.114,3.542,1.479,6.931*5C
$GPGBS,113032.00,11.996,5.366,22.732,85,0.0001,24.323,6.333*66
$GPGRS,113032.00,1,-0.0,-0.7,0.8,-0.4,,,,,,,,*6A
$GPGRS,113032.00,1,4.8,4.7,-3.5,24.3,4.2,,,,,,,*75
$GPGRS,113032.00,1,-0.2,-0.4,0.6,,,,,,,,,*62
$GPGRS,113032.00,1,-3.3,10.1,-3.9,-3.6,13.0,-0.6,2.0,-3.7,,,,*6C
$GPGSV,5,1,17,24,81,299,43,15,33,195,42,22,26,060,,13,17,161,33*7E
$GPGSV,5,2,17,10,13,301,34,17,32,052,34,19,50,088,39,12,49,245,45*72
$GPGSV,5,3,17,14,05,064,,23,09,260,25,06,05,112,,25,10,247,*76
$GPGSV,5,4,17,32,06,325,25,36,35,170,35,34,31,208,34,49,34,195,35*70
$GPGSV,5,5,17,61,03,257,*4B
$GLGSV,3,1,09,77,63,313,34,85,21,030,38,78,12,269,29,87,12,136,*69
$GLGSV,3,2,09,66,25,203,32,86,30,090,37,68,26,328,45,76,49,052,43*64
$GLGSV,3,3,09,67,50,268,53*52
$GAGSV,3,1,12,02,74,054,45,03,13,162,25,11,11,058,,18,47,145,*6C
$GAGSV,3,2,12,25,21,060,28,07,48,295,33,08,55,199,43,30,49,243,46*60
$GAGSV,3,3,12,10,09,032,,29,03,325,27,12,03,011,,36,05,104,*6E
$GBGSV,6,1,21,26,67,070,48,44,15,158,23,45,13,086,,41,13,327,40*60
$GBGSV,6,2,21,40,18,039,32,05,20,130,,29,21,046,36,07,21,051,31*62
$GBGSV,6,3,21,42,23,217,31,35,35,111,40,33,35,278,37,10,33,058,37*6E
$GBGSV,6,4,21,14,34,246,40,56,38,061,,24,55,282,44,11,10,238,*65
$GBGSV,6,5,21,25,03,273,29,50,09,197,,02,04,109,,57,01,337,*6B
$GBGSV,6,6,21,60,07,111,*58
$GPGGA,113032.00,,,,,0,00,,,M,,M,,*4A
$PTNL,GGK,113032.00,010125,4742.4460125,N,01617.9733046,E,1,20,1.4,EHT667.6420,M*40
$GPGGQ,113032.00,010125,4742.4460125,N,01617.9733046,E,1,20,7.923,624.4310,M*35
$GPGFA,113032.00,34.883,56.831,3.669,1.129,344.114,6.931,,VVV*07
$GPLLK,113032.00,010125,,M,,M,1,20,1.6,,M*0C
$GNGMP,113032.00,,,,,DAAA,20,0.7,,,,*51
$GPGMP,113032.00,,,,,,04,,,,3.3,123*7B
$GLGMP,113032.00,,,,,,05,,,,,*78
$GAGMP,113032.00,,,,,,03,,,,,*73
$GBGMP,113032.00,,,,,,08,,,,,*7B
$PSSN,SNC,[0,300650000,2347]*44
$GPZDA,113037.00,01,01,2025,,*64
$GPDTM,W84,,00.0000000,N,00.0000000,E,00.0000000,W84*5F
$GPRMC,113037.00,A,4742.4460096,N,01617.9733038,E,0.0,,010125,5.1,E,D*12
$GPGLL,4742.4460096,N,01617.9733038,E,113037.00,A,D*63
$GPGGA,113037.00,4742.4460096,N,01617.9733038,E,2,19,0.7,624.4297,M,43.2111,M,1.4,0123*48
$GNGNS,113037.00,4742.4460096,N,01617.9733038,E,DAAA,19,0.7,624.4297,43.2111,,*51
$GPGNS,113037.00,,,,,,05,,,,1.4,123*7A
$GLGNS,113037.00,,,,,,03,,,,,*7B
$GAGNS,113037.00,,,,,,03,,,,,*76
$GBGNS,113037.00,,,,,,08,,,,,*7E
$GPLLQ,113037.00,010125,,M,,M,1,19,1.806,,M*11
$GPVTG,,T,,M,0.00,N,0.01,K,D*27
$GPHDT,,T*1B
$GPTHS,,V*0E
$GPROT,,V*08
$PSSN,HRP,113037.00,010125,,,,,,,00,0,,*66
$PTNL,AVR,113037.00,,Yaw,,Tilt,,,,0,,00*30
$GPGSA,A,3,10,12,15,19,24,,,,,,,,1.4,0.7,1.2*3B
$GPGSA,A,3,67,68,76,,,,,,,,,,1.4,0.7,1.2*3D
$GPGSA,A,3,02,08,30,,,,,,,,,,1.4,0.7,1.2*3A
$GPGSA,A,3,10,14,24,26,29,33,35,41,,,,,1.4,0.7,1.2*3D
$GPGST,113037.00,5.783,0.809,0.640,352.050,0.806,0.644,1.483*5D
$GPGBS,113037.00,5.217,4.689,8.828,29,0.0001,15.792,8.760*6B
$GPGRS,113037.00,1,-0.2,0.3,-0.6,-0.2,-0.1,,,,,,,*63
$GPGRS,113037.00,1,5.0,4.4,-2.1,,,,,,,,,*4C
$GPGRS,113037.00,1,-0.6,-0.7,0.8,,,,,,,,,*6E
$GPGRS,113037.00,1,-3.2,6.3,-3.6,-2.4,15.8,1.0,3.1,-4.5,,,,*70
$GPGSV,5,1,17,24,81,299,43,15,33,195,42,22,26,060,,13,17,161,33*7E
$GPGSV,5,2,17,10,13,301,35,17,32,052,32,19,50,088,40,12,49,245,45*7B
$GPGSV,5,3,17,14,05,064,,23,09,260,29,06,05,112,,25,10,247,*7A
$GPGSV,5,4,17,32,06,325,25,36,35,170,35,34,31,208,34,49,34,195,35*70
$GPGSV,5,5,17,61,03,257,*4B
$GLGSV,3,1,09,77,63,313,33,85,21,030,37,78,12,269,25,87,12,136,*6D
$GLGSV,3,2,09,66,25,203,29,86,30,090,34,68,26,327,46,76,49,052,45*67
$GLGSV,3,3,09,67,50,268,53*52
$GAGSV,3,1,12,02,74,054,44,03,13,162,26,11,11,058,,18,47,145,*6E
$GAGSV,3,2,12,25,21,060,28,07,48,295,35,08,55,199,42,30,49,243,46*67
$GAGSV,3,3,12,10,09,032,,29,03,325,26,12,03,011,,36,05,104,*6F
$GBGSV,6,1,21,26,67,070,48,44,15,158,26,41,13,327,39,07,21,051,31*64
$GBGSV,6,2,21,45,13,086,,05,20,130,,40,18,039,32,29,21,046,38*63
$GBGSV,6,3,21,42,23,217,29,35,35,111,41,33,35,278,37,10,33,058,37*66
$GBGSV,6,4,21,14,34,246,37,56,38,061,,24,55,282,44,02,04,109,*63
$GBGSV,6,5,21,11,10,238,,50,09,197,,25,03,273,29,57,01,337,*6D
$GBGSV,6,6,21,60,07,111,*58
$GPGGA,113037.00,,,,,0,00,,,M,,M,,*4F
$PTNL,GGK,113037.00,010125,4742.4460096,N,01617.9733038,E,1,19,1.4,EHT667.6407,M*4A
$GPGGQ,113037.00,010125,4742.4460096,N,01617.9733038,E,1,19,1.806,624.4297,M*34
$GPGFA,113037.00,7.696,12.157,0.809,0.640,352.050,1.483,,VVV*36
$GPLLK,113037.00,010125,,M,,M,1,19,1.6,,M*03
$GNGMP,113037.00,,,,,DAAA,19,0.7,,,,*5E
$GPGMP,113037.00,,,,,,05,,,,1.4,123*7A
$GLGMP,113037.00,,,,,,03,,,,,*7B
$GAGMP,113037.00,,,,,,03,,,,,*76
$GBGMP,113037.00,,,,,,08,,,,,*7E
$PSSN,SNC,[0,300655000,2347]*41
$GPZDA,113042.00,01,01,2025,,*66
$GPDTM,W84,,00.0000000,N,00.0000000,E,00.0000000,W84*5F
$GPRMC,113042.00,A,4742.4460012,N,01617.9733032,E,0.0,,010125,5.1,E,D*16
$GPGLL,4742.4460012,N,01617.9733032,E,113042.00,A,D*67
$GPGGA,113042.00,4742.4460012,N,01617.9733032,E,2,19,0.7,624.4230,M,43.2111,M,2.3,0123*45
$GNGNS,113042.00,4742.4460012,N,01617.9733032,E,DAAA,19,0.7,624.4230,43.2111,,*58
$GPGNS,113042.00,,,,,,04,,,,2.3,123*7D
$GLGNS,113042.00,,,,,,04,,,,,*7E
$GAGNS,113042.00,,,,,,04,,,,,*73
$GBGNS,113042.00,,,,,,07,,,,,*73
$GPLLQ,113042.00,010125,,M,,M,1,19,6.951,,M*17
$GPVTG,,T,,M,0.01,N,0.01,K,D*26
$GPHDT,,T*1B
$GPTHS,,V*0E
$GPROT,,V*08
$PSSN,HRP,113042.00,010125,,,,,,,00,0,,*64
$PTNL,AVR,113042.00,,Yaw,,Tilt,,,,0,,00*32
$GPGSA,A,3,12,15,19,24,,,,,,,,,1.4,0.7,1.2*3A
$GPGSA,A,3,67,68,76,85,,,,,,,,,1.4,0.7,1.2*30
$GPGSA,A,3,02,07,08,30,,,,,,,,,1.4,0.7,1.2*3D
$GPGSA,A,3,10,14,24,26,29,35,41,,,,,,1.4,0.7,1.2*3D
$GPGST,113042.00,7.158,3.253,1.000,343.455,3.132,1.333,6.061*5F
$GPGBS,113042.00,11.521,5.488,21.618,85,0.0001,14.769,6.335*63
$GPGRS,113042.00,1,0.1,-1.5,1.2,-0.2,,,,,,,,*4F
$GPGRS,113042.00,1,4.0,3.6,-2.4,14.8,,,,,,,,*5C
$GPGRS,113042.00,1,-1.4,0.4,-1.2,0.0,,,,,,,,*49
$GPGRS,113042.00,1,-3.2,2.6,-2.9,-1.9,17.1,1.9,-5.5,,,,,*5C
$GPGSV,5,1,17,24,81,299,43,15,33,195,41,22,26,060,,13,17,161,33*7D
$GPGSV,5,2,17,10,13,301,33,17,32,052,31,19,50,088,40,12,49,245,46*7D
$GPGSV,5,3,17,14,05,064,,23,09,260,30,06,05,112,,25,10,247,*72
$GPGSV,5,4,17,32,06,325,29,36,35,170,35,34,31,208,34,49,34,195,35*7C
$GPGSV,5,5,17,61,03,257,*4B
$GLGSV,3,1,09,77,63,313,34,85,21,030,36,78,12,269,,87,12,136,*6C
$GLGSV,3,2,09,66,25,203,39,86,30,090,27,68,26,327,47,76,49,052,46*66
$GLGSV,3,3,09,67,50,268,52*53
$GAGSV,3,1,12,02,74,054,43,03,13,162,27,11,11,058,,18,47,145,*68
$GAGSV,3,2,12,25,21,060,28,07,48,295,37,08,55,199,40,30,49,243,46*67
$GAGSV,3,3,12,10,09,032,,29,03,325,27,12,03,011,,36,05,104,*6E
$GBGSV,6,1,21,26,67,070,49,44,15,158,28,41,13,327,37,07,21,051,31*65
$GBGSV,6,2,21,45,13,086,,05,20,130,,40,18,039,32,29,21,046,39*62
$GBGSV,6,3,21,42,23,217,35,35,35,111,41,33,35,278,34,10,33,058,37*68
$GBGSV,6,4,21,14,34,246,35,56,38,061,,24,55,282,45,02,04,109,*60
$GBGSV,6,5,21,11,10,238,,50,09,197,,25,03,273,26,57,01,337,*62
$GBGSV,6,6,21,60,07,111,*58
$GPGGA,113042.00,,,,,0,00,,,M,,M,,*4D
$PTNL,GGK,113042.00,010125,4742.4460012,N,01617.9733032,E,1,19,1.4,EHT667.6341,M*4B
$GPGGQ,113042.00,010125,4742.4460012,N,01617.9733032,E,1,19,6.951,624.4230,M*39
$GPGFA,113042.00,30.932,49.702,3.253,1.000,343.455,6.061,,VVV*02
$GPLLK,113042.00,010125,,M,,M,1,19,1.7,,M*00
$GNGMP,113042.00,,,,,DAAA,19,0.7,,,,*5C
$GPGMP,113042.00,,,,,,04,,,,2.3,123*7D
$GLGMP,113042.00,,,,,,04,,,,,*7E
$GAGMP,113042.00,,,,,,04,,,,,*73
$GBGMP,113042.00,,,,,,07,,,,,*73
$PSSN,SNC,[0,300660000,2347]*47
$GPZDA,113047.00,01,01,2025,,*63
$GPDTM,W84,,00.0000000,N,00.0000000,E,00.0000000,W84*5F
$GPRMC,113047.00,A,4742.4459930,N,01617.9732938,E,0.0,,010125,5.1,E,D*12
$GPGLL,4742.4459930,N,01617.9732938,E,113047.00,A,D*63
$GPGGA,113047.00,4742.4459930,N,01617.9732938,E,2,19,0.7,624.4223,M,43.2111,M,3.3,0123*42
$GNGNS,113047.00,4742.4459930,N,01617.9732938,E,DAAA,19,0.7,624.4223,43.2111,,*5E
$GPGNS,113047.00,,,,,,04,,,,3.3,123*79
$GLGNS,113047.00,,,,,,04,,,,,*7B
$GAGNS,113047.00,,,,,,04,,,,,*76
$GBGNS,113047.00,,,,,,07,,,,,*76
$GPLLQ,113047.00,010125,,M,,M,1,19,5.582,,M*13
$GPVTG,,T,,M,0.01,N,0.02,K,D*25
$GPHDT,,T*1B
$GPTHS,,V*0E
$GPROT,,V*08
$PSSN,HRP,113047.00,010125,,,,,,,00,0,,*61
$PTNL,AVR,113047.00,,Yaw,,Tilt,,,,0,,00*37
$GPGSA,A,3,12,15,19,24,,,,,,,,,1.3,0.7,1.1*3E
$GPGSA,A,3,67,68,76,77,,,,,,,,,1.3,0.7,1.1*39
$GPGSA,A,3,02,07,08,30,,,,,,,,,1.3,0.7,1.1*39
$GPGSA,A,3,10,24,26,29,35,41,42,,,,,,1.3,0.7,1.1*3A
$GPGST,113047.00,6.557,2.596,0.801,343.719,2.502,1.059,4.876*59
$GPGBS,113047.00,12.142,5.570,22.917,29,0.0001,19.443,8.760*6B
$GPGRS,113047.00,1,0.3,-1.3,0.4,-0.1,,,,,,,,*4A
$GPGRS,113047.00,1,3.9,3.5,-2.4,-7.3,,,,,,,,*40
$GPGRS,113047.00,1,-1.3,0.0,-1.6,-0.1,,,,,,,,*67
$GPGRS,113047.00,1,-2.7,-2.1,-0.8,19.4,0.7,-5.7,0.8,,,,,*5F
$GPGSV,5,1,17,24,81,299,43,15,33,195,40,22,26,060,,13,17,161,31*7E
$GPGSV,5,2,17,10,13,301,30,17,32,052,31,19,50,088,39,12,49,245,45*73
$GPGSV,5,3,17,14,05,064,,23,09,260,30,06,05,112,,25,10,247,*72
$GPGSV,5,4,17,32,06,325,31,36,35,170,35,34,31,208,34,49,34,195,35*75
$GPGSV,5,5,17,61,03,257,*4B
$GLGSV,3,1,09,77,63,313,35,85,21,030,35,78,12,269,20,87,12,136,*6C
$GLGSV,3,2,09,66,25,203,32,86,30,090,27,68,26,327,48,76,49,052,46*62
$GLGSV,3,3,09,67,50,268,52*53
$GAGSV,3,1,12,02,74,054,42,03,13,162,28,11,11,058,,18,47,145,*66
$GAGSV,3,2,12,25,21,060,19,07,48,295,37,08,55,199,39,30,49,243,46*6B
$GAGSV,3,3,12,10,09,032,,29,03,325,27,12,03,011,,36,05,104,*6E
$GBGSV,6,1,21,26,67,070,49,44,15,158,28,41,13,327,36,07,21,051,32*67
$GBGSV,6,2,21,45,13,086,,40,18,039,32,05,20,130,,29,21,046,38*63
$GBGSV,6,3,21,42,23,217,37,35,35,111,41,33,35,278,32,10,33,058,37*6C
$GBGSV,6,4,21,14,34,246,32,56,38,061,,24,55,282,46,02,04,109,*64
$GBGSV,6,5,21,11,10,238,,50,09,197,,25,03,273,25,57,01,337,*61
$GBGSV,6,6,21,60,07,111,*58
$GPGGA,113047.00,,,,,0,00,,,M,,M,,*48
$PTNL,GGK,113047.00,010125,4742.4459930,N,01617.9732938,E,1,19,1.3,EHT667.6334,M*4A
$GPGGQ,113047.00,010125,4742.4459930,N,01617.9732938,E,1,19,5.582,624.4223,M*3E
$GPGFA,113047.00,24.682,39.982,2.596,0.801,343.719,4.876,,VVV*07
$GPLLK,113047.00,010125,,M,,M,1,19,1.5,,M*07
$GNGMP,113047.00,,,,,DAAA,19,0.7,,,,*59
$GPGMP,113047.00,,,,,,04,,,,3.3,123*79
$GLGMP,113047.00,,,,,,04,,,,,*7B
$GAGMP,113047.00,,,,,,04,,,,,*76
$GBGMP,113047.00,,,,,,07,,,,,*76
$PSSN,SNC,[0,300665000,2347]*42
$GPZDA,113052.00,01,01,2025,,*67
$GPDTM,W84,,00.0000000,N,00.0000000,E,00.0000000,W84*5F
$GPRMC,113052.00,A,4742.4459901,N,01617.9732977,E,0.0,,010125,5.1,E,D*1F
$GPGLL,4742.4459901,N,01617.9732977,E,113052.00,A,D*6E
$GPGGA,113052.00,4742.4459901,N,01617.9732977,E,2,18,0.7,624.4186,M,43.2111,M,3.3,0123*42
$GNGNS,113052.00,4742.4459901,N,01617.9732977,E,DAAA,18,0.7,624.4186,43.2111,,*5E
$GPGNS,113052.00,,,,,,04,,,,3.3,123*7D
$GLGNS,113052.00,,,,,,03,,,,,*78
$GAGNS,113052.00,,,,,,04,,,,,*72
$GBGNS,113052.00,,,,,,07,,,,,*72
$GPLLQ,113052.00,010125,,M,,M,1,18,5.603,,M*1C
$GPVTG,,T,,M,0.00,N,0.01,K,D*27
$GPHDT,,T*1B
$GPTHS,,V*0E
$GPROT,,V*08
$PSSN,HRP,113052.00,010125,,,,,,,00,0,,*65
$PTNL,AVR,113052.00,,Yaw,,Tilt,,,,0,,00*33
$GPGSA,A,3,12,15,19,24,,,,,,,,,1.4,0.7,1.2*3A
$GPGSA,A,3,67,68,76,,,,,,,,,,1.4,0.7,1.2*3D
$GPGSA,A,3,02,07,08,30,,,,,,,,,1.4,0.7,1.2*3D
$GPGSA,A,3,10,24,26,29,35,41,42,,,,,,1.4,0.7,1.2*3E
$GPGST,113052.00,6.450,2.593,0.799,344.136,2.504,1.046,4.902*56
$GPGBS,113052.00,12.317,5.492,23.366,29,0.0001,19.543,8.761*6D
$GPGRS,113052.00,1,0.9,-0.6,-0.5,-0.4,,,,,,,,*69
$GPGRS,113052.00,1,4.1,3.7,-2.8,,,,,,,,,*42
$GPGRS,113052.00,1,-1.4,-0.1,-1.2,0.8,,,,,,,,*68
$GPGRS,113052.00,1,-2.3,-1.3,0.2,19.5,1.4,-4.4,1.8,,,,,*79
$GPGSV,5,1,17,24,81,299,42,15,33,195,39,25,10,247,,13,17,161,30*75
$GPGSV,5,2,17,10,13,301,27,22,26,060,,17,32,052,28,19,50,088,38*72
$GPGSV,5,3,17,12,49,245,45,23,09,260,31,06,05,112,,14,05,064,*78
$GPGSV,5,4,17,32,06,325,33,36,35,170,35,34,31,208,34,49,34,195,35*77
$GPGSV,5,5,17,61,03,257,*4B
$GLGSV,3,1,09,77,63,313,34,85,21,030,31,78,12,269,34,87,12,136,*6C
$GLGSV,3,2,09,66,25,203,31,86,30,090,28,68,26,327,47,76,49,052,45*62
$GLGSV,3,3,09,67,50,268,51*50
$GAGSV,3,1,12,02,74,054,42,03,13,162,29,11,11,058,,18,47,145,*67
$GAGSV,3,2,12,25,21,060,21,07,48,295,37,08,55,199,39,30,49,243,47*61
$GAGSV,3,3,12,10,09,032,,29,03,325,27,12,03,011,,36,05,104,*6E
$GBGSV,6,1,21,26,67,070,50,44,16,158,28,45,13,087,,41,13,327,36*61
$GBGSV,6,2,21,40,18,039,31,05,20,130,,29,21,046,36,07,21,051,31*61
$GBGSV,6,3,21,42,23,217,39,35,35,111,41,33,35,278,31,10,33,058,37*61
$GBGSV,6,4,21,14,34,246,29,56,38,061,,24,55,282,47,11,10,238,*69
$GBGSV,6,5,21,25,03,273,20,50,09,197,,02,04,109,,57,01,336,*63
$GBGSV,6,6,21,60,07,111,*58
$GPGGA,113052.00,,,,,0,00,,,M,,M,,*4C
$PTNL,GGK,113052.00,010125,4742.4459901,N,01617.9732977,E,1,18,1.4,EHT667.6296,M*48
$GPGGQ,113052.00,010125,4742.4459901,N,01617.9732977,E,1,18,5.603,624.4186,M*34
$GPGFA,113052.00,24.652,40.194,2.593,0.799,344.136,4.902,,VVV*0A
$GPLLK,113052.00,010125,,M,,M,1,18,1.6,,M*01
$GNGMP,113052.00,,,,,DAAA,18,0.7,,,,*5C
$GPGMP,113052.00,,,,,,04,,,,3.3,123*7D
$GLGMP,113052.00,,,,,,03,,,,,*78
$GAGMP,113052.00,,,,,,04,,,,,*72
$GBGMP,113052.00,,,,,,07,,,,,*72
$PSSN,SNC,[0,300670000,2347]*46
$GPZDA,113057.00,01,01,2025,,*62
$GPDTM,W84,,00.0000000,N,00.0000000,E,00.0000000,W84*5F
$GPRMC,113057.00,A,4742.4459928,N,01617.9733037,E,0.0,,010125,5.1,E,D*1D
$GPGLL,4742.4459928,N,01617.9733037,E,113057.00,A,D*6C
$GPGGA,113057.00,4742.4459928,N,01617.9733037,E,2,20,0.7,624.4265,M,43.2111,M,1.3,0123*47
$GNGNS,113057.00,4742.4459928,N,01617.9733037,E,DAAA,20,0.7,624.4265,43.2111,,*59
$GPGNS,113057.00,,,,,,04,,,,1.3,123*7A
$GLGNS,113057.00,,,,,,06,,,,,*78
$GAGNS,113057.00,,,,,,04,,,,,*77
$GBGNS,113057.00,,,,,,06,,,,,*76
$GPLLQ,113057.00,010125,,M,,M,1,20,4.775,,M*13
$GPVTG,,T,,M,0.01,N,0.02,K,D*25
$GPHDT,,T*1B
$GPTHS,,V*0E
$GPROT,,V*08
$PSSN,HRP,113057.00,010125,,,,,,,00,0,,*60
$PTNL,AVR,113057.00,,Yaw,,Tilt,,,,0,,00*36
$GPGSA,A,3,12,15,19,24,,,,,,,,,1.2,0.7,1.0*3E
$GPGSA,A,3,66,67,68,76,77,78,,,,,,,1.2,0.7,1.0*36
$GPGSA,A,3,02,07,08,30,,,,,,,,,1.2,0.7,1.0*39
$GPGSA,A,3,10,24,26,35,41,42,,,,,,,1.2,0.7,1.0*31
$GPGST,113057.00,4.035,2.224,0.701,344.606,2.152,0.898,4.166*5F
$GPGBS,113057.00,10.748,5.166,20.231,77,0.0001,-9.784,6.073*7E
$GPGRS,113057.00,1,0.9,-0.7,0.9,-0.5,,,,,,,,*4D
$GPGRS,113057.00,1,-7.3,2.8,2.3,-4.2,-9.8,2.3,,,,,,*6B
$GPGRS,113057.00,1,-1.3,-0.1,-1.0,0.8,,,,,,,,*68
$GPGRS,113057.00,1,-2.6,-0.6,-0.0,1.9,-2.8,1.2,,,,,,*4C
$GPGSV,5,1,17,24,81,299,43,15,33,195,39,25,10,247,,13,17,161,31*75
$GPGSV,5,2,17,10,13,301,24,22,26,060,,17,32,052,24,19,50,088,40*72
$GPGSV,5,3,17,12,49,245,46,23,09,260,31,06,05,112,,14,05,064,*7B
$GPGSV,5,4,17,32,06,325,34,36,35,170,35,34,31,208,34,49,34,195,35*70
$GPGSV,5,5,17,61,03,257,*4B
$GLGSV,3,1,09,77,63,313,35,85,21,030,32,78,12,269,37,87,12,136,*6D
$GLGSV,3,2,09,66,25,203,26,86,30,090,35,68,26,327,46,76,49,052,42*6E
$GLGSV,3,3,09,67,50,268,50*51
$GAGSV,3,1,12,02,74,054,41,03,13,162,29,11,11,058,,18,47,145,*64
$GAGSV,3,2,12,25,21,060,21,07,48,295,37,08,55,199,40,30,49,243,47*6F
$GAGSV,3,3,12,10,09,032,,29,03,325,27,12,03,011,,36,05,104,*6E
$GBGSV,6,1,21,26,67,070,50,44,16,158,27,45,13,087,,41,13,327,36*6E
$GBGSV,6,2,21,40,18,039,31,05,20,130,,29,21,046,34,07,21,051,31*63
$GBGSV,6,3,21,42,23,217,39,35,35,111,41,33,35,278,33,10,33,058,37*63
$GBGSV,6,4,21,14,34,246,27,56,38,061,,24,55,283,48,11,10,238,*69
$GBGSV,6,5,21,25,03,273,,50,09,197,,02,04,109,,57,01,336,*61
$GBGSV,6,6,21,60,07,111,*58
$GPGGA,113057.00,,,,,0,00,,,M,,M,,*49
$PTNL,GGK,113057.00,010125,4742.4459928,N,01617.9733037,E,1,20,1.2,EHT667.6375,M*4B
$GPGGQ,113057.00,010125,4742.4459928,N,01617.9733037,E,1,20,4.775,624.4265,M*32
$GPGFA,113057.00,21.142,34.165,2.224,0.701,344.606,4.166,,VVV*05
$GPLLK,113057.00,010125,,M,,M,1,20,1.5,,M*0C
$GNGMP,113057.00,,,,,DAAA,20,0.7,,,,*52
$GPGMP,113057.00,,,,,,04,,,,1.3,123*7A
$GLGMP,113057.00,,,,,,06,,,,,*78
$GAGMP,113057.00,,,,,,04,,,,,*77
$GBGMP,113057.00,,,,,,06,,,,,*76
$PSSN,SNC,[0,300675000,2347]*43
$GPZDA,113102.00,01,01,2025,,*63
$GPDTM,W84,,00.0000000,N,00.0000000,E,00.0000000,W84*5F
$GPRMC,113102.00,A,4742.4459878,N,01617.9732975,E,0.0,,010125,5.1,E,D*16
$GPGLL,4742.4459878,N,01617.9732975,E,113102.00,A,D*67
$GPGGA,113102.00,4742.4459878,N,01617.9732975,E,2,22,0.6,624.4233,M,43.2111,M,2.3,0123*4F
$GNGNS,113102.00,4742.4459878,N,01617.9732975,E,DAAA,22,0.6,624.4233,43.2111,,*52
$GPGNS,113102.00,,,,,,04,,,,2.3,123*78
$GLGNS,113102.00,,,,,,07,,,,,*78
$GAGNS,113102.00,,,,,,04,,,,,*76
$GBGNS,113102.00,,,,,,07,,,,,*76
$GPLLQ,113102.00,010125,,M,,M,1,22,6.526,,M*16
$GPVTG,,T,,M,0.01,N,0.01,K,D*26
$GPHDT,,T*1B
$GPTHS,,V*0E
$GPROT,,V*08
$PSSN,HRP,113102.00,010125,,,,,,,00,0,,*61
$PTNL,AVR,113102.00,,Yaw,,Tilt,,,,0,,00*37
$GPGSA,A,3,12,15,19,24,,,,,,,,,1.2,0.6,1.0*3F
$GPGSA,A,3,66,67,68,76,77,78,86,,,,,,1.2,0.6,1.0*39
$GPGSA,A,3,02,07,08,30,,,,,,,,,1.2,0.6,1.0*38
$GPGSA,A,3,10,24,26,33,35,41,42,,,,,,1.2,0.6,1.0*30
$GPGST,113102.00,6.272,3.024,0.961,344.430,2.924,1.231,5.703*54
$GPGBS,113102.00,10.752,5.015,20.317,86,0.0001,16.402,6.243*65
$GPGRS,113102.00,1,0.5,-0.8,1.2,-0.5,,,,,,,,*45
$GPGRS,113102.00,1,-8.6,1.5,0.6,-6.4,-10.0,4.4,16.4,,,,,*41
$GPGRS,113102.00,1,-1.3,0.0,-0.9,-0.1,,,,,,,,*69
$GPGRS,113102.00,1,-3.5,-1.0,-1.0,7.9,0.3,0.6,1.6,,,,,*47
$GPGSV,5,1,17,24,81,299,41,15,33,195,40,25,10,247,,13,17,161,31*79
$GPGSV,5,2,17,10,13,301,33,22,26,060,,17,32,052,31,19,50,088,40*70
$GPGSV,5,3,17,12,49,245,46,23,09,260,30,06,05,112,,14,05,064,*7A
$GPGSV,5,4,17,32,06,325,35,36,35,170,35,34,31,208,34,49,34,195,35*71
$GPGSV,5,5,17,61,03,257,*4B
$GLGSV,3,1,09,77,63,313,35,85,21,030,26,78,12,269,39,87,12,136,*66
$GLGSV,3,2,09,66,25,203,37,86,30,090,36,68,26,327,45,76,49,053,42*6F
$GLGSV,3,3,09,67,50,267,50*5E
$GAGSV,3,1,12,02,74,054,41,03,13,162,29,11,11,058,,18,47,145,*64
$GAGSV,3,2,12,25,21,060,20,07,48,295,37,08,54,199,41,30,49,243,47*6E
$GAGSV,3,3,12,10,09,032,,29,03,325,27,12,03,011,,36,05,104,*6E
$GBGSV,6,1,21,26,67,070,50,44,16,158,26,45,13,087,,41,13,327,37*6E
$GBGSV,6,2,21,40,18,039,30,05,20,130,,29,21,046,31,07,21,051,31*67
$GBGSV,6,3,21,42,23,217,40,35,35,111,41,33,35,278,35,10,33,058,37*6B
$GBGSV,6,4,21,14,34,246,27,56,38,061,,24,55,283,48,11,10,238,*69
$GBGSV,6,5,21,25,03,273,20,50,09,197,,02,04,109,,57,01,336,*63
$GBGSV,6,6,21,60,07,111,*58
$GPGGA,113102.00,,,,,0,00,,,M,,M,,*48
$PTNL,GGK,113102.00,010125,4742.4459878,N,01617.9732975,E,1,22,1.2,EHT667.6343,M*47
$GPGGQ,113102.00,010125,4742.4459878,N,01617.9732975,E,1,22,6.526,624.4233,M*3E
$GPGFA,113102.00,28.748,46.763,3.024,0.961,344.430,5.703,,VVV*0C
$GPLLK,113102.00,010125,,M,,M,1,22,1.4,,M*0E
$GNGMP,113102.00,,,,,DAAA,22,0.6,,,,*50
$GPGMP,113102.00,,,,,,04,,,,2.3,123*78
$GLGMP,113102.00,,,,,,07,,,,,*78
$GAGMP,113102.00,,,,,,04,,,,,*76
$GBGMP,113102.00,,,,,,07,,,,,*76
$PSSN,SNC,[0,300680000,2347]*49
$GPZDA,113107.00,01,01,2025,,*66
$GPDTM,W84,,00.0000000,N,00.0000000,E,00.0000000,W84*5F
$GPRMC,113107.00,A,4742.4459826,N,01617.9732978,E,0.0,,010125,5.1,E,D*15
$GPGLL,4742.4459826,N,01617.9732978,E,113107.00,A,D*64
$GPGGA,113107.00,4742.4459826,N,01617.9732978,E,2,22,0.6,624.4218,M,43.2111,M,3.0,0123*47
$GNGNS,113107.00,4742.4459826,N,01617.9732978,E,DAAA,22,0.6,624.4218,43.2111,,*58
$GPGNS,113107.00,,,,,,05,,,,3.0,123*7E
$GLGNS,113107.00,,,,,,06,,,,,*7C
$GAGNS,113107.00,,,,,,04,,,,,*73
$GBGNS,113107.00,,,,,,07,,,,,*73
$GPLLQ,113107.00,010125,,M,,M,1,22,2.688,,M*10
$GPVTG,,T,,M,0.01,N,0.02,K,D*25
$GPHDT,,T*1B
$GPTHS,,V*0E
$GPROT,,V*08
$PSSN,HRP,113107.00,010125,,,,,,,00,0,,*64
$PTNL,AVR,113107.00,,Yaw,,Tilt,,,,0,,00*32
$GPGSA,A,3,12,15,19,24,32,,,,,,,,1.1,0.6,0.9*35
$GPGSA,A,3,67,68,76,77,78,86,,,,,,,1.1,0.6,0.9*32
$GPGSA,A,3,02,07,08,30,,,,,,,,,1.1,0.6,0.9*33
$GPGSA,A,3,10,24,26,33,35,41,42,,,,,,1.1,0.6,0.9*3B
$GPGST,113107.00,6.112,1.229,0.937,337.366,1.190,0.986,2.199*5A
$GPGBS,113107.00,5.091,4.855,9.902,86,0.0001,14.561,6.238*6E
$GPGRS,113107.00,1,1.0,-1.1,0.6,-0.4,-1.8,,,,,,,*42
$GPGRS,113107.00,1,1.2,0.9,-6.2,-8.5,5.2,14.6,,,,,,*7C
$GPGRS,113107.00,1,-1.9,0.3,-0.7,-0.6,,,,,,,,*6C
$GPGRS,113107.00,1,-3.2,-1.9,-2.3,10.7,-0.7,7.8,2.1,,,,,*50
$GPGSV,5,1,17,24,81,299,42,15,33,195,41,25,10,248,,13,17,162,31*77
$GPGSV,5,2,17,10,13,301,31,22,26,060,,17,32,052,35,19,50,088,41*77
$GPGSV,5,3,17,12,49,245,45,23,09,260,30,06,05,112,,14,05,064,*79
$GPGSV,5,4,17,32,06,325,35,36,35,170,35,34,31,208,34,49,34,195,35*71
$GPGSV,5,5,17,61,03,257,*4B
$GLGSV,3,1,09,77,64,313,37,85,21,030,38,78,12,269,40,87,12,136,*62
$GLGSV,3,2,09,66,25,203,29,86,30,090,38,68,26,327,45,76,49,053,42*6E
$GLGSV,3,3,09,67,50,267,50*5E
$GAGSV,3,1,12,02,74,054,42,03,13,162,30,11,11,058,,18,47,145,*6F
$GAGSV,3,2,12,25,21,060,22,07,48,295,37,08,54,199,43,30,49,243,46*6F
$GAGSV,3,3,12,10,09,032,,29,03,325,27,12,03,010,,36,05,104,*6F
$GBGSV,6,1,21,26,67,070,50,44,16,158,29,45,13,087,,41,13,327,38*6E
$GBGSV,6,2,21,40,18,039,29,05,20,130,,29,21,046,30,07,21,051,31*6E
$GBGSV,6,3,21,42,23,217,39,35,35,111,40,33,35,278,38,10,33,058,37*69
$GBGSV,6,4,21,14,34,245,28,56,38,061,,24,55,283,48,11,10,238,*65
$GBGSV,6,5,21,25,04,273,23,50,09,197,,02,04,109,,57,01,336,*67
$GBGSV,6,6,21,60,07,111,*58
$GPGGA,113107.00,,,,,0,00,,,M,,M,,*4D
$PTNL,GGK,113107.00,010125,4742.4459826,N,01617.9732978,E,1,22,1.1,EHT667.6329,M*4B
$GPGGQ,113107.00,010125,4742.4459826,N,01617.9732978,E,1,22,2.688,624.4218,M*37
$GPGFA,113107.00,11.680,18.034,1.229,0.937,337.366,2.199,,VVV*04
$GPLLK,113107.00,010125,,M,,M,1,22,1.3,,M*0C
$GNGMP,113107.00,,,,,DAAA,22,0.6,,,,*55
$GPGMP,113107.00,,,,,,05,,,,3.0,123*7E
$GLGMP,113107.00,,,,,,06,,,,,*7C
$GAGMP,113107.00,,,,,,04,,,,,*73
$GBGMP,113107.00,,,,,,07,,,,,*73
$PSSN,SNC,[0,300685000,2347]*4C
$GPZDA,113112.00,01,01,2025,,*62
$GPDTM,W84,,00.0000000,N,00.0000000,E,00.0000000,W84*5F
$GPRMC,113112.00,A,4742.4459775,N,01617.9732919,E,0.0,,010125,5.1,E,D*1F
$GPGLL,4742.4459775,N,01617.9732919,E,113112.00,A,D*6E
$GPGGA,113112.00,4742.4459775,N,01617.9732919,E,2,23,0.6,624.4394,M,43.2111,M,3.3,0123*4A
$GNGNS,113112.00,4742.4459775,N,01617.9732919,E,DAAA,23,0.6,624.4394,43.2111,,*56
$GPGNS,113112.00,,,,,,06,,,,3.3,123*7A
$GLGNS,113112.00,,,,,,06,,,,,*78
$GAGNS,113112.00,,,,,,04,,,,,*77
$GBGNS,113112.00,,,,,,07,,,,,*77
$GPLLQ,113112.00,010125,,M,,M,1,23,2.357,,M*12
$GPVTG,,T,,M,0.01,N,0.01,K,D*26
$GPHDT,,T*1B
$GPTHS,,V*0E
$GPROT,,V*08
$PSSN,HRP,113112.00,010125,,,,,,,00,0,,*60
$PTNL,AVR,113112.00,,Yaw,,Tilt,,,,0,,00*36
$GPGSA,A,3,12,15,17,19,24,32,,,,,,,1.1,0.6,0.9*33
$GPGSA,A,3,67,68,76,77,78,86,,,,,,,1.1,0.6,0.9*32
$GPGSA,A,3,02,07,08,30,,,,,,,,,1.1,0.6,0.9*33
$GPGSA,A,3,10,24,26,33,35,41,42,,,,,,1.1,0.6,0.9*3B
$GPGST,113112.00,6.458,1.163,0.713,326.035,1.044,0.879,1.921*54
$GPGBS,113112.00,4.898,3.533,8.196,86,0.0001,11.211,6.242*6C
$GPGRS,113112.00,1,0.4,-0.8,1.2,-0.3,-0.3,-0.7,,,,,,*47
$GPGRS,113112.00,1,-0.0,2.9,-8.5,-6.4,4.7,11.2,,,,,,*57
$GPGRS,113112.00,1,-1.7,-0.4,-0.8,-0.7,,,,,,,,*42
$GPGRS,113112.00,1,-4.1,-2.5,-3.2,13.0,-1.3,13.4,2.3,,,,,*65
$GPGSV,5,1,17,24,81,299,44,15,33,195,42,25,10,248,,13,17,162,31*72
$GPGSV,5,2,17,10,13,301,37,22,25,060,,17,32,052,37,19,50,088,41*70
$GPGSV,5,3,17,12,49,245,44,23,09,260,32,06,05,112,,14,05,064,*7A
$GPGSV,5,4,17,32,06,325,35,36,35,170,35,34,31,208,34,49,34,195,35*71
$GPGSV,5,5,17,61,03,257,*4B
$GLGSV,3,1,09,77,64,314,36,85,21,030,29,78,12,269,39,87,12,136,*6A
$GLGSV,3,2,09,66,25,203,34,86,30,090,38,68,26,327,46,76,49,053,38*6C
$GLGSV,3,3,09,67,50,267,49*56
$GAGSV,3,1,12,02,74,054,42,03,13,162,30,11,11,058,,18,47,145,*6F
$GAGSV,3,2,12,25,21,060,23,07,48,295,38,08,54,199,43,30,49,243,46*61
$GAGSV,3,3,12,10,09,032,,29,03,325,26,12,03,010,,36,05,104,*6E
$GBGSV,6,1,21,26,67,070,50,44,16,158,23,45,13,087,,41,13,327,37*6B
$GBGSV,6,2,21,40,18,039,28,05,20,130,,29,21,046,,07,21,051,32*6F
$GBGSV,6,3,21,42,23,217,39,35,35,111,39,33,35,278,39,10,33,058,37*66
$GBGSV,6,4,21,14,34,245,30,56,38,061,,24,55,283,48,11,10,238,*6C
$GBGSV,6,5,21,25,04,273,22,50,09,197,,02,04,109,,57,01,336,*66
$GBGSV,6,6,21,60,07,111,*58
$GPGGA,113112.00,,,,,0,00,,,M,,M,,*49
$PTNL,GGK,113112.00,010125,4742.4459775,N,01617.9732919,E,1,23,1.1,EHT667.6505,M*48
$GPGGQ,113112.00,010125,4742.4459775,N,01617.9732919,E,1,23,2.357,624.4394,M*3E
$GPGFA,113112.00,11.061,15.756,1.163,0.713,326.035,1.921,,VVV*0F
$GPLLK,113112.00,010125,,M,,M,1,23,1.3,,M*09
$GNGMP,113112.00,,,,,DAAA,23,0.6,,,,*50
$GPGMP,113112.00,,,,,,06,,,,3.3,123*7A
$GLGMP,113112.00,,,,,,06,,,,,*78
$GAGMP,113112.00,,,,,,04,,,,,*77
$GBGMP,113112.00,,,,,,07,,,,,*77
$PSSN,SNC,[0,300690000,2347]*48
$GPZDA,113117.00,01,01,2025,,*67
$GPDTM,W84,,00.0000000,N,00.0000000,E,00.0000000,W84*5F
$GPRMC,113117.00,A,4742.4459772,N,01617.9732944,E,0.0,,010125,5.1,E,D*15
$GPGLL,4742.4459772,N,01617.9732944,E,113117.00,A,D*64
$GPGGA,113117.00,4742.4459772,N,01617.9732944,E,2,23,0.6,624.4277,M,43.2111,M,1.7,0123*4A
$GNGNS,113117.00,4742.4459772,N,01617.9732944,E,DAAA,23,0.6,624.4277,43.2111,,*50
$GPGNS,113117.00,,,,,,06,,,,1.7,123*79
$GLGNS,113117.00,,,,,,06,,,,,*7D
$GAGNS,113117.00,,,,,,04,,,,,*72
$GBGNS,113117.00,,,,,,07,,,,,*72
$GPLLQ,113117.00,010125,,M,,M,1,23,1.984,,M*10
$GPVTG,,T,,M,0.01,N,0.02,K,D*25
$GPHDT,,T*1B
$GPTHS,,V*0E
$GPROT,,V*08
$PSSN,HRP,113117.00,010125,,,,,,,00,0,,*65
$PTNL,AVR,113117.00,,Yaw,,Tilt,,,,0,,00*33
$GPGSA,A,3,12,15,17,19,24,32,,,,,,,1.1,0.6,0.9*33
$GPGSA,A,3,66,67,68,77,78,86,,,,,,,1.1,0.6,0.9*33
$GPGSA,A,3,02,07,08,30,,,,,,,,,1.1,0.6,0.9*33
$GPGSA,A,3,10,24,26,33,35,41,42,,,,,,1.1,0.6,0.9*3B
$GPGST,113117.00,6.073,0.977,0.598,325.594,0.874,0.740,1.620*5D
$GPGBS,113117.00,4.596,3.528,7.837,41,0.0001,14.328,8.842*6C
$GPGRS,113117.00,1,-0.1,-0.2,-0.2,0.3,0.4,-1.9,,,,,,*44
$GPGRS,113117.00,1,4.8,0.2,5.0,-8.4,4.3,6.7,,,,,,*66
$GPGRS,113117.00,1,-1.6,-0.9,-0.5,-0.7,,,,,,,,*46
$GPGRS,113117.00,1,-3.6,-1.9,-3.4,12.4,-2.0,14.3,2.8,,,,,*67
$GPGSV,5,1,17,24,81,299,45,15,33,195,43,25,10,248,,13,17,162,30*73
$GPGSV,5,2,17,10,13,301,19,22,25,060,,17,32,052,39,19,50,088,41*72
$GPGSV,5,3,17,12,49,245,45,23,09,260,34,06,05,112,,14,05,064,*7D
$GPGSV,5,4,17,32,06,325,35,36,35,170,35,34,31,208,34,49,34,195,35*71
$GPGSV,5,5,17,61,03,257,*4B
$GLGSV,3,1,09,77,64,314,36,85,21,030,33,78,12,269,40,87,12,136,*6F
$GLGSV,3,2,09,66,25,203,37,86,30,090,36,68,26,327,47,76,49,053,34*6C
$GLGSV,3,3,09,67,50,267,49*56
$GAGSV,3,1,12,02,74,054,43,03,12,162,30,11,11,058,,18,47,145,*6F
$GAGSV,3,2,12,25,21,060,24,07,48,295,38,08,54,199,43,30,49,244,46*61
$GAGSV,3,3,12,10,09,032,,29,03,325,24,12,03,010,,36,05,104,*6C
$GBGSV,6,1,21,26,67,070,51,44,16,158,23,45,13,087,,41,13,327,35*68
$GBGSV,6,2,21,40,18,039,28,05,20,130,,29,21,046,36,07,21,051,32*6A
$GBGSV,6,3,21,42,23,217,37,35,35,111,38,33,35,278,42,10,33,058,37*65
$GBGSV,6,4,21,14,34,245,27,56,38,061,,24,55,283,47,11,10,238,*65
$GBGSV,6,5,21,25,04,273,23,50,09,197,,02,04,109,,57,01,336,*67
$GBGSV,6,6,21,60,07,111,*58
$GPGGA,113117.00,,,,,0,00,,,M,,M,,*4C
$PTNL,GGK,113117.00,010125,4742.4459772,N,01617.9732944,E,1,23,1.1,EHT667.6388,M*41
$GPGGQ,113117.00,010125,4742.4459772,N,01617.9732944,E,1,23,1.984,624.4277,M*3F
$GPGFA,113117.00,9.293,13.287,0.977,0.598,325.594,1.620,,VVV*3D
$GPLLK,113117.00,010125,,M,,M,1,23,1.2,,M*0D
$GNGMP,113117.00,,,,,DAAA,23,0.6,,,,*55
$GPGMP,113117.00,,,,,,06,,,,1.7,123*79
$GLGMP,113117.00,,,,,,06,,,,,*7D
$GAGMP,113117.00,,,,,,04,,,,,*72
$GBGMP,113117.00,,,,,,07,,,,,*72
$PSSN,SNC,[0,300695000,2347]*4D
$GPZDA,113122.00,01,01,2025,,*61
$GPDTM,W84,,00.0000000,N,00.0000000,E,00.0000000,W84*5F
$GPRMC,113122.00,A,4742.4459808,N,01617.9732958,E,0.0,,010125,5.1,E,D*1C
$GPGLL,4742.4459808,N,01617.9732958,E,113122.00,A,D*6D
$GPGGA,113122.00,4742.4459808,N,01617.9732958,E,2,22,0.6,624.4175,M,43.2111,M,2.0,0123*47
$GNGNS,113122.00,4742.4459808,N,01617.9732958,E,DAAA,22,0.6,624.4175,43.2111,,*59
$GPGNS,113122.00,,,,,,06,,,,2.0,123*7B
$GLGNS,113122.00,,,,,,06,,,,,*7B
$GAGNS,113122.00,,,,,,04,,,,,*74
$GBGNS,113122.00,,,,,,06,,,,,*75
$GPLLQ,113122.00,010125,,M,,M,1,22,1.911,,M*1B
$GPVTG,,T,,M,0.01,N,0.01,K,D*26
$GPHDT,,T*1B
$GPTHS,,V*0E
$GPROT,,V*08
$PSSN,HRP,113122.00,010125,,,,,,,00,0,,*63
$PTNL,AVR,113122.00,,Yaw,,Tilt,,,,0,,00*35
$GPGSA,A,3,12,15,17,19,24,32,,,,,,,1.1,0.6,0.9*33
$GPGSA,A,3,66,67,68,77,78,86,,,,,,,1.1,0.6,0.9*33
$GPGSA,A,3,02,07,08,30,,,,,,,,,1.1,0.6,0.9*33
$GPGSA,A,3,10,24,26,33,35,42,,,,,,,1.1,0.6,0.9*3E
$GPGST,113122.00,5.080,0.950,0.569,323.978,0.838,0.724,1.558*51
$GPGBS,113122.00,4.667,3.559,7.925,77,0.0001,-11.935,6.070*4F
$GPGRS,113122.00,1,0.3,0.2,0.6,-0.4,0.2,-1.6,,,,,,*4A
$GPGRS,113122.00,1,2.1,0.9,6.3,-11.9,4.7,2.5,,,,,,*53
$GPGRS,113122.00,1,-1.7,-0.6,-1.6,-0.9,,,,,,,,*42
$GPGRS,113122.00,1,-4.1,-1.4,-3.6,10.7,-3.0,2.7,,,,,,*79
$GPGSV,5,1,17,24,81,299,46,15,33,195,44,25,10,248,,13,17,162,28*7E
$GPGSV,5,2,17,10,13,301,24,22,25,060,,17,31,051,42,19,50,088,41*70
$GPGSV,5,3,17,12,49,245,45,23,09,260,35,06,05,112,,14,05,064,*7C
$GPGSV,5,4,17,32,06,325,35,36,35,170,35,34,31,208,34,49,34,195,35*71
$GPGSV,5,5,17,61,03,257,*4B
$GLGSV,3,1,09,77,64,314,35,85,21,030,34,78,12,269,39,87,12,136,*65
$GLGSV,3,2,09,66,25,203,38,86,30,090,35,68,26,327,48,76,49,053,34*6F
$GLGSV,3,3,09,67,50,267,49*56
$GAGSV,3,1,12,02,74,054,44,03,12,162,31,11,11,058,,18,47,145,*69
$GAGSV,3,2,12,25,21,060,24,07,48,295,39,08,54,199,42,30,49,244,46*61
$GAGSV,3,3,12,10,09,032,,29,03,325,23,12,03,010,,36,05,104,*6B
$GBGSV,6,1,21,26,67,070,51,44,16,158,24,45,13,087,,41,13,327,23*68
$GBGSV,6,2,21,40,18,039,25,05,20,130,,29,21,046,36,07,21,051,31*64
$GBGSV,6,3,21,42,23,217,36,35,35,111,37,33,35,278,44,10,33,058,37*6D
$GBGSV,6,4,21,14,34,245,23,56,38,061,,24,55,283,48,11,10,238,*6E
$GBGSV,6,5,21,25,04,273,24,50,08,196,,02,04,109,,57,01,336,*60
$GBGSV,6,6,21,60,07,111,*58
$GPGGA,113122.00,,,,,0,00,,,M,,M,,*4A
$PTNL,GGK,113122.00,010125,4742.4459808,N,01617.9732958,E,1,22,1.1,EHT667.6285,M*45
$GPGGQ,113122.00,010125,4742.4459808,N,01617.9732958,E,1,22,1.911,624.4175,M*3A
$GPGFA,113122.00,9.029,12.774,0.950,0.569,323.978,1.558,,VVV*3F
$GPLLK,113122.00,010125,,M,,M,1,22,1.3,,M*0B
$GNGMP,113122.00,,,,,DAAA,22,0.6,,,,*52
$GPGMP,113122.00,,,,,,06,,,,2.0,123*7B
$GLGMP,113122.00,,,,,,06,,,,,*7B
$GAGMP,113122.00,,,,,,04,,,,,*74
$GBGMP,113122.00,,,,,,06,,,,,*75
$PSSN,SNC,[0,300700000,2347]*40
$GPZDA,113127.00,01,01,2025,,*64
$GPDTM,W84,,00.0000000,N,00.0000000,E,00.0000000,W84*5F
$GPRMC,113127.00,A,4742.4459818,N,01617.9733005,E,0.0,,010125,5.1,E,D*18
$GPGLL,4742.4459818,N,01617.9733005,E,113127.00,A,D*69
$GPGGA,113127.00,4742.4459818,N,01617.9733005,E,2,22,0.7,624.4296,M,43.2111,M,2.6,0123*4A
$GNGNS,113127.00,4742.4459818,N,01617.9733005,E,DAAA,22,0.7,624.4296,43.2111,,*52
$GPGNS,113127.00,,,,,,05,,,,2.6,123*7B
$GLGNS,113127.00,,,,,,07,,,,,*7F
$GAGNS,113127.00,,,,,,04,,,,,*71
$GBGNS,113127.00,,,,,,06,,,,,*70
$GPLLQ,113127.00,010125,,M,,M,1,22,3.315,,M*12
$GPVTG,,T,,M,0.00,N,0.00,K,D*26
$GPHDT,,T*1B
$GPTHS,,V*0E
$GPROT,,V*08
$PSSN,HRP,113127.00,010125,,,,,,,00,0,,*66
$PTNL,AVR,113127.00,,Yaw,,Tilt,,,,0,,00*30
$GPGSA,A,3,12,15,17,19,24,,,,,,,,1.3,0.7,1.1*38
$GPGSA,A,3,66,67,68,76,77,78,86,,,,,,1.3,0.7,1.1*38
$GPGSA,A,3,02,07,08,30,,,,,,,,,1.3,0.7,1.1*39
$GPGSA,A,3,10,14,24,26,33,35,,,,,,,1.3,0.7,1.1*37
$GPGST,113127.00,6.673,1.698,0.726,324.817,1.449,1.144,2.753*51
$GPGBS,113127.00,5.820,4.916,11.350,77,0.0001,-15.043,6.071*74
$GPGRS,113127.00,1,0.0,0.9,0.8,-0.3,-0.4,,,,,,,*61
