$GPZDA,001442.00,01,01,2025,,*60
$GPDTM,W84,,00.0000000,N,00.0000000,E,00.0000000,W84*5F
$GPRMC,001442.00,A,4742.4459235,N,01617.9730108,E,0.0,,010125,5.1,E,D*16
$GPGLL,4742.4459235,N,01617.9730108,E,001442.00,A,D*67
$GPGGA,001442.00,4742.4459235,N,01617.9730108,E,2,22,0.6,623.4278,M,43.2111,M,2.4,0123*40
$GNGNS,001442.00,4742.4459235,N,01617.9730108,E,DAAA,22,0.6,623.4278,43.2111,,*5A
$GPGNS,001442.00,,,,,,05,,,,2.4,123*7D
$GLGNS,001442.00,,,,,,03,,,,,*7F
$GAGNS,001442.00,,,,,,06,,,,,*77
$GBGNS,001442.00,,,,,,08,,,,,*7A
$GPLLQ,001442.00,010125,,M,,M,1,22,5.095,,M*1B
$GPVTG,,T,,M,0.01,N,0.02,K,D*25
$GPHDT,,T*1B
$GPTHS,,V*0E
$GPROT,,V*08
$PSSN,HRP,001442.00,010125,,,,,,,00,0,,*62
$PTNL,AVR,001442.00,,Yaw,,Tilt,,,,0,,00*34
$GPGSA,A,3,02,03,17,21,32,,,,,,,,1.2,0.6,1.0*33
$GPGSA,A,3,68,69,85,,,,,,,,,,1.2,0.6,1.0*3A
$GPGSA,A,3,04,06,09,10,11,36,,,,,,,1.2,0.6,1.0*39
$GPGSA,A,3,16,19,20,29,30,32,35,39,,,,,1.2,0.6,1.0*3E
$GPGST,001442.00,9.447,2.581,0.914,0.667,2.581,0.915,4.297*54
$GPGBS,001442.00,8.921,3.398,19.024,30,0.0001,25.161,8.552*58
$GPGRS,001442.00,1,-0.3,-0.2,0.4,0.0,-0.2,,,,,,,*49
$GPGRS,001442.00,1,5.2,-1.0,-0.4,,,,,,,,,*61
$GPGRS,001442.00,1,-1.4,0.7,3.3,-0.9,-1.8,-0.4,,,,,,*4B
$GPGRS,001442.00,1,5.5,-0.8,-1.3,-1.6,25.2,-5.4,-4.7,23.9,,,,*62
$GPGSV,5,1,18,02,87,167,46,28,20,094,31,04,15,198,28,31,11,121,*76
$GPGSV,5,2,18,08,16,182,23,32,30,049,38,17,31,308,49,03,55,266,45*74
$GPGSV,5,3,18,21,65,131,43,01,87,339,,22,09,294,,19,07,326,*7B
$GPGSV,5,4,18,14,04,273,24,10,01,071,,36,35,170,41,34,31,208,*79
$GPGSV,5,5,18,49,34,195,37,61,03,257,*77
$GLGSV,2,1,08,84,87,059,35,83,22,139,28,70,19,220,,85,33,322,49*61
$GLGSV,2,2,08,68,39,038,46,69,87,204,48,77,07,021,,76,06,339,34*67
$GAGSV,3,1,10,11,80,091,45,09,33,186,39,02,10,281,32,19,24,044,28*6B
$GAGSV,3,2,10,12,27,116,32,06,52,164,43,36,45,304,43,10,51,113,40*6A
$GAGSV,3,3,10,04,62,114,47,30,07,330,30*69
$GBGSV,5,1,17,29,67,267,51,30,40,162,35,19,18,229,36,35,16,315,42*6D
$GBGSV,5,2,17,16,26,069,36,05,24,128,,39,26,058,35,57,15,090,*61
$GBGSV,5,3,17,06,25,073,33,48,44,226,,09,24,088,23,32,52,055,48*60
$GBGSV,5,4,17,20,67,222,44,25,01,035,,02,08,105,,13,05,076,*65
$GBGSV,5,5,17,60,10,109,*52
$GPGGA,001442.00,,,,,0,00,,,M,,M,,*4B
$PTNL,GGK,001442.00,010125,4742.4459235,N,01617.9730108,E,1,22,1.2,EHT666.6389,M*40
$GPGGQ,001442.00,010125,4742.4459235,N,01617.9730108,E,1,22,5.095,623.4278,M*38
$GPGFA,001442.00,24.538,35.233,2.581,0.914,0.667,4.297,,VVV*01
$GPLLK,001442.00,010125,,M,,M,1,22,1.4,,M*0D
$GNGMP,001442.00,,,,,DAAA,22,0.6,,,,*53
$GPGMP,001442.00,,,,,,05,,,,2.4,123*7D
$GLGMP,001442.00,,,,,,03,,,,,*7F
$GAGMP,001442.00,,,,,,06,,,,,*77
$GBGMP,001442.00,,,,,,08,,,,,*7A
$PSSN,SNC,[0,260100000,2347]*41
$GPZDA,001447.00,01,01,2025,,*65
$GPDTM,W84,,00.0000000,N,00.0000000,E,00.0000000,W84*5F
$GPRMC,001447.00,A,4742.4459203,N,01617.9730081,E,0.0,,010125,5.1,E,D*16
$GPGLL,4742.4459203,N,01617.9730081,E,001447.00,A,D*67
$GPGGA,001447.00,4742.4459203,N,01617.9730081,E,2,21,0.7,623.4312,M,43.2111,M,1.8,0123*40
$GNGNS,001447.00,4742.4459203,N,01617.9730081,E,DAAA,21,0.7,623.4312,43.2111,,*55
$GPGNS,001447.00,,,,,,05,,,,1.8,123*77
$GLGNS,001447.00,,,,,,04,,,,,*7D
$GAGNS,001447.00,,,,,,06,,,,,*72
$GBGNS,001447.00,,,,,,06,,,,,*71
$GPLLQ,001447.00,010125,,M,,M,1,21,2.573,,M*17
$GPVTG,,T,,M,0.00,N,0.01,K,D*27
$GPHDT,,T*1B
$GPTHS,,V*0E
$GPROT,,V*08
$PSSN,HRP,001447.00,010125,,,,,,,00,0,,*67
$PTNL,AVR,001447.00,,Yaw,,Tilt,,,,0,,00*31
$GPGSA,A,3,02,03,17,21,32,,,,,,,,1.3,0.7,1.0*33
$GPGSA,A,3,68,69,84,85,,,,,,,,,1.3,0.7,1.0*36
$GPGSA,A,3,04,06,09,10,11,36,,,,,,,1.3,0.7,1.0*39
$GPGSA,A,3,16,19,20,29,32,35,,,,,,,1.3,0.7,1.0*37
$GPGST,001447.00,3.151,1.312,0.464,0.814,1.312,0.464,2.165*5A
$GPGBS,001447.00,8.895,3.467,19.640,68,0.0001,5.314,6.143*65
$GPGRS,001447.00,1,-0.1,-0.0,0.4,-0.3,0.2,,,,,,,*4F
$GPGRS,001447.00,1,5.3,-1.2,-1.4,-0.8,,,,,,,,*6D
$GPGRS,001447.00,1,-1.3,0.6,3.1,-0.4,-1.7,-0.5,,,,,,*49
$GPGRS,001447.00,1,5.6,-0.1,-2.3,-1.5,-5.7,-4.5,,,,,,*61
$GPGSV,5,1,18,02,87,167,46,28,20,094,32,04,15,198,28,31,11,121,*75
$GPGSV,5,2,18,08,16,182,23,32,30,049,38,17,31,308,48,03,55,266,44*74
$GPGSV,5,3,18,21,65,131,43,01,87,340,,22,09,294,,19,07,326,27*70
$GPGSV,5,4,18,14,04,273,32,10,01,071,,36,35,170,41,34,31,208,*7E
$GPGSV,5,5,18,49,34,195,37,61,03,257,*77
$GLGSV,2,1,08,84,87,061,35,83,22,139,27,70,19,220,,85,33,322,50*6D
$GLGSV,2,2,08,68,39,038,46,69,87,204,49,77,07,021,,76,06,338,33*60
$GAGSV,3,1,10,11,80,091,45,09,33,186,39,02,10,281,34,19,24,044,29*6C
$GAGSV,3,2,10,12,27,116,32,06,52,164,43,36,45,304,42,10,51,113,40*6B
$GAGSV,3,3,10,04,62,114,46,30,07,330,31*69
$GBGSV,5,1,17,29,67,267,50,30,40,162,34,19,18,229,36,35,16,315,42*6D
$GBGSV,5,2,17,16,26,069,36,05,24,128,,39,26,058,34,57,15,090,*60
$GBGSV,5,3,17,06,25,073,33,09,24,088,24,48,44,227,,32,52,055,48*66
$GBGSV,5,4,17,20,67,222,41,25,01,035,,13,05,076,,02,08,105,*60
$GBGSV,5,5,17,60,10,109,*52
$GPGGA,001447.00,,,,,0,00,,,M,,M,,*4E
$PTNL,GGK,001447.00,010125,4742.4459203,N,01617.9730081,E,1,21,1.3,EHT666.6423,M*45
$GPGGQ,001447.00,010125,4742.4459203,N,01617.9730081,E,1,21,2.573,623.4312,M*3C
$GPGFA,001447.00,12.475,17.749,1.312,0.464,0.814,2.165,,VVV*06
$GPLLK,001447.00,010125,,M,,M,1,21,1.5,,M*0A
$GNGMP,001447.00,,,,,DAAA,21,0.7,,,,*54
$GPGMP,001447.00,,,,,,05,,,,1.8,123*77
$GLGMP,001447.00,,,,,,04,,,,,*7D
$GAGMP,001447.00,,,,,,06,,,,,*72
$GBGMP,001447.00,,,,,,06,,,,,*71
$PSSN,SNC,[0,260105000,2347]*44
$GPZDA,001452.00,01,01,2025,,*61
$GPDTM,W84,,00.0000000,N,00.0000000,E,00.0000000,W84*5F
$GPRMC,001452.00,A,4742.4459206,N,01617.9730099,E,0.0,,010125,5.1,E,D*1E
$GPGLL,4742.4459206,N,01617.9730099,E,001452.00,A,D*6F
$GPGGA,001452.00,4742.4459206,N,01617.9730099,E,2,22,0.7,623.4375,M,43.2111,M,2.8,0123*49
$GNGNS,001452.00,4742.4459206,N,01617.9730099,E,DAAA,22,0.7,623.4375,43.2111,,*5F
$GPGNS,001452.00,,,,,,05,,,,2.8,123*70
$GLGNS,001452.00,,,,,,04,,,,,*79
$GAGNS,001452.00,,,,,,06,,,,,*76
$GBGNS,001452.00,,,,,,07,,,,,*74
$GPLLQ,001452.00,010125,,M,,M,1,22,2.806,,M*1F
$GPVTG,,T,,M,0.00,N,0.00,K,D*26
$GPHDT,,T*1B
$GPTHS,,V*0E
$GPROT,,V*08
$PSSN,HRP,001452.00,010125,,,,,,,00,0,,*63
$PTNL,AVR,001452.00,,Yaw,,Tilt,,,,0,,00*35
$GPGSA,A,3,02,03,17,21,32,,,,,,,,1.2,0.7,1.0*32
$GPGSA,A,3,68,69,84,85,,,,,,,,,1.2,0.7,1.0*37
$GPGSA,A,3,04,06,09,10,11,36,,,,,,,1.2,0.7,1.0*38
$GPGSA,A,3,16,19,20,29,30,32,35,,,,,,1.2,0.7,1.0*35
$GPGST,001452.00,4.042,1.415,0.509,1.647,1.414,0.510,2.369*54
$GPGBS,001452.00,8.747,3.538,19.565,30,0.0001,11.029,8.550*53
$GPGRS,001452.00,1,0.2,0.4,0.0,-0.1,-0.6,,,,,,,*63
$GPGRS,001452.00,1,2.4,-1.1,-2.7,-1.0,,,,,,,,*63
$GPGRS,001452.00,1,-1.2,0.5,2.4,-1.1,-1.8,-0.5,,,,,,*40
$GPGRS,001452.00,1,5.6,1.0,-3.8,-1.3,11.0,-5.4,-4.2,,,,,*5E
$GPGSV,5,1,18,02,87,167,46,28,20,094,33,04,15,198,28,31,11,121,*74
$GPGSV,5,2,18,08,16,182,23,32,30,049,38,17,31,308,47,03,55,266,44*7B
$GPGSV,5,3,18,21,65,131,43,01,87,340,,22,09,294,,19,07,326,26*71
$GPGSV,5,4,18,14,04,273,32,10,01,071,,36,35,170,41,34,31,208,*7E
$GPGSV,5,5,18,49,34,195,37,61,03,257,*77
$GLGSV,2,1,08,84,87,062,35,83,22,139,26,70,19,220,,85,33,322,50*6F
$GLGSV,2,2,08,68,38,038,45,69,87,204,50,77,07,021,,76,06,338,32*6B
$GAGSV,3,1,10,11,80,091,44,09,33,186,39,02,10,281,35,19,24,044,30*64
$GAGSV,3,2,10,12,27,116,32,06,52,164,43,36,45,304,42,10,51,113,40*6B
$GAGSV,3,3,10,04,62,114,46,30,07,330,31*69
$GBGSV,5,1,17,29,67,267,50,30,40,162,37,19,18,229,36,35,16,315,41*6D
$GBGSV,5,2,17,16,26,069,36,05,24,128,,39,26,058,33,57,15,090,*67
$GBGSV,5,3,17,06,25,073,34,09,24,088,24,48,44,227,,32,52,055,48*61
$GBGSV,5,4,17,20,67,222,39,25,02,035,,13,05,076,,02,08,105,*6C
$GBGSV,5,5,17,60,10,109,*52
$GPGGA,001452.00,,,,,0,00,,,M,,M,,*4A
$PTNL,GGK,001452.00,010125,4742.4459206,N,01617.9730099,E,1,22,1.2,EHT666.6486,M*40
$GPGGQ,001452.00,010125,4742.4459206,N,01617.9730099,E,1,22,2.806,623.4375,M*39
$GPGFA,001452.00,13.451,19.430,1.415,0.509,1.647,2.369,,VVV*0B
$GPLLK,001452.00,010125,,M,,M,1,22,1.4,,M*0C
$GNGMP,001452.00,,,,,DAAA,22,0.7,,,,*53
$GPGMP,001452.00,,,,,,05,,,,2.8,123*70
$GLGMP,001452.00,,,,,,04,,,,,*79
$GAGMP,001452.00,,,,,,06,,,,,*76
$GBGMP,001452.00,,,,,,07,,,,,*74
$PSSN,SNC,[0,260110000,2347]*40
$GPZDA,001457.00,01,01,2025,,*64
$GPDTM,W84,,00.0000000,N,00.0000000,E,00.0000000,W84*5F
$GPRMC,001457.00,A,4742.4459279,N,01617.9730238,E,0.0,,010125,5.1,E,D*1A
$GPGLL,4742.4459279,N,01617.9730238,E,001457.00,A,D*6B
$GPGGA,001457.00,4742.4459279,N,01617.9730238,E,2,22,0.7,623.4253,M,43.2111,M,3.0,0123*41
$GNGNS,001457.00,4742.4459279,N,01617.9730238,E,DAAA,22,0.7,623.4253,43.2111,,*5E
$GPGNS,001457.00,,,,,,05,,,,3.0,123*7C
$GLGNS,001457.00,,,,,,04,,,,,*7C
$GAGNS,001457.00,,,,,,06,,,,,*73
$GBGNS,001457.00,,,,,,07,,,,,*71
$GPLLQ,001457.00,010125,,M,,M,1,22,3.730,,M*11
$GPVTG,,T,,M,0.01,N,0.01,K,D*26
$GPHDT,,T*1B
$GPTHS,,V*0E
$GPROT,,V*08
$PSSN,HRP,001457.00,010125,,,,,,,00,0,,*66
$PTNL,AVR,001457.00,,Yaw,,Tilt,,,,0,,00*30
$GPGSA,A,3,02,03,17,21,32,,,,,,,,1.3,0.7,1.1*32
$GPGSA,A,3,68,69,84,85,,,,,,,,,1.3,0.7,1.1*37
$GPGSA,A,3,04,06,09,10,11,36,,,,,,,1.3,0.7,1.1*38
$GPGSA,A,3,16,20,29,30,32,35,39,,,,,,1.3,0.7,1.1*37
$GPGST,001457.00,4.346,1.885,0.644,1.843,1.884,0.646,3.153*5C
$GPGBS,001457.00,9.654,3.504,21.194,30,0.0001,11.749,8.550*5B
$GPGRS,001457.00,1,0.2,0.8,-0.5,-0.2,-1.2,,,,,,,*44
$GPGRS,001457.00,1,2.7,-1.1,-2.2,-1.3,,,,,,,,*63
$GPGRS,001457.00,1,-0.7,0.9,2.0,-1.8,-1.5,0.2,,,,,,*67
$GPGRS,001457.00,1,5.2,-5.0,-0.9,11.7,-5.0,-3.3,-5.3,,,,,*75
$GPGSV,5,1,18,02,87,166,46,28,20,094,,04,15,198,28,31,11,121,*75
$GPGSV,5,2,18,08,16,182,24,32,30,049,36,17,31,308,46,03,55,266,44*73
$GPGSV,5,3,18,21,65,131,44,01,87,341,,22,09,294,,19,07,326,26*77
$GPGSV,5,4,18,14,04,273,30,10,01,071,,36,35,170,41,34,31,208,*7C
$GPGSV,5,5,18,49,34,195,37,61,03,257,*77
$GLGSV,2,1,08,84,87,063,36,83,22,139,24,70,19,220,,85,33,322,50*6F
$GLGSV,2,2,08,68,38,038,45,69,87,204,50,77,07,021,,76,06,338,33*6A
$GAGSV,3,1,10,11,80,091,44,09,33,186,39,02,10,281,34,19,24,044,30*65
$GAGSV,3,2,10,12,27,116,32,06,52,164,43,36,45,304,42,10,51,113,40*6B
$GAGSV,3,3,10,04,62,114,46,30,07,330,31*69
$GBGSV,5,1,17,29,67,267,50,30,40,162,37,19,18,229,35,35,16,315,41*6E
$GBGSV,5,2,17,39,26,058,35,05,24,128,,57,15,090,,16,26,069,36*61
$GBGSV,5,3,17,06,25,073,34,09,24,088,25,48,44,227,,32,52,055,49*61
$GBGSV,5,4,17,20,67,222,38,13,05,076,,02,08,105,,25,02,035,*6D
$GBGSV,5,5,17,60,10,109,*52
$GPGGA,001457.00,,,,,0,00,,,M,,M,,*4F
$PTNL,GGK,001457.00,010125,4742.4459279,N,01617.9730238,E,1,22,1.3,EHT666.6364,M*4E
$GPGGQ,001457.00,010125,4742.4459279,N,01617.9730238,E,1,22,3.730,623.4253,M*33
$GPGFA,001457.00,17.920,25.858,1.885,0.644,1.843,3.153,,VVV*03
$GPLLK,001457.00,010125,,M,,M,1,22,1.6,,M*0B
$GNGMP,001457.00,,,,,DAAA,22,0.7,,,,*56
$GPGMP,001457.00,,,,,,05,,,,3.0,123*7C
$GLGMP,001457.00,,,,,,04,,,,,*7C
$GAGMP,001457.00,,,,,,06,,,,,*73
$GBGMP,001457.00,,,,,,07,,,,,*71
$PSSN,SNC,[0,260115000,2347]*45
$GPZDA,001502.00,01,01,2025,,*65
$GPDTM,W84,,00.0000000,N,00.0000000,E,00.0000000,W84*5F
$GPRMC,001502.00,A,4742.4459330,N,01617.9730282,E,0.0,,010125,5.1,E,D*16
$GPGLL,4742.4459330,N,01617.9730282,E,001502.00,A,D*67
$GPGGA,001502.00,4742.4459330,N,01617.9730282,E,2,20,0.8,623.4199,M,43.2111,M,2.5,0123*41
$GNGNS,001502.00,4742.4459330,N,01617.9730282,E,DAAA,20,0.8,623.4199,43.2111,,*5A
$GPGNS,001502.00,,,,,,04,,,,2.5,123*78
$GLGNS,001502.00,,,,,,04,,,,,*7D
$GAGNS,001502.00,,,,,,06,,,,,*72
$GBGNS,001502.00,,,,,,06,,,,,*71
$GPLLQ,001502.00,010125,,M,,M,1,20,3.401,,M*13
$GPVTG,,T,,M,0.01,N,0.01,K,D*26
$GPHDT,,T*1B
$GPTHS,,V*0E
$GPROT,,V*08
$PSSN,HRP,001502.00,010125,,,,,,,00,0,,*67
$PTNL,AVR,001502.00,,Yaw,,Tilt,,,,0,,00*31
$GPGSA,A,3,02,03,17,21,,,,,,,,,1.4,0.8,1.2*38
$GPGSA,A,3,68,69,84,85,,,,,,,,,1.4,0.8,1.2*3C
$GPGSA,A,3,04,06,09,10,11,36,,,,,,,1.4,0.8,1.2*33
$GPGSA,A,3,16,20,29,30,32,35,,,,,,,1.4,0.8,1.2*36
$GPGST,001502.00,3.810,1.798,0.861,15.859,1.745,0.963,2.756*6E
$GPGBS,001502.00,9.667,7.592,19.766,17,0.0001,-1.274,0.860*45
$GPGRS,001502.00,1,0.1,0.5,-1.3,0.3,,,,,,,,*60
$GPGRS,001502.00,1,4.3,-0.6,-1.8,-1.2,,,,,,,,*6E
$GPGRS,001502.00,1,-0.2,1.3,2.1,-1.6,-0.8,0.4,,,,,,*6D
$GPGRS,001502.00,1,4.8,-4.6,-0.7,-8.8,-4.9,-3.0,,,,,,*62
$GPGSV,5,1,18,01,87,341,,28,20,094,,04,15,198,27,31,11,121,*7C
$GPGSV,5,2,18,08,16,182,24,32,30,049,32,17,31,308,44,03,55,266,45*74
$GPGSV,5,3,18,21,65,131,45,02,87,166,46,22,09,294,,19,07,326,27*71
$GPGSV,5,4,18,14,04,273,24,10,01,071,,36,35,170,41,34,31,208,*79
$GPGSV,5,5,18,49,34,195,37,61,03,257,*77
$GLGSV,2,1,08,84,87,064,35,83,22,139,26,70,19,220,,85,33,322,50*69
$GLGSV,2,2,08,68,38,038,45,69,87,204,50,77,07,021,,76,06,338,33*6A
$GAGSV,3,1,10,11,80,091,44,09,33,186,39,02,10,281,34,19,24,044,31*64
$GAGSV,3,2,10,12,27,116,33,06,52,164,43,36,45,304,43,10,51,113,41*6A
$GAGSV,3,3,10,04,62,114,47,30,07,330,28*60
$GBGSV,5,1,17,20,67,222,40,35,16,315,40,57,15,090,,19,18,229,33*69
$GBGSV,5,2,17,05,24,128,,30,40,162,35,39,26,058,31,06,25,073,34*65
$GBGSV,5,3,17,09,24,088,24,16,26,069,36,48,44,227,,32,52,055,49*6B
$GBGSV,5,4,17,29,67,267,50,25,02,035,,13,05,076,,02,08,105,*6B
$GBGSV,5,5,17,60,10,109,*52
$GPGGA,001502.00,,,,,0,00,,,M,,M,,*4E
$PTNL,GGK,001502.00,010125,4742.4459330,N,01617.9730282,E,1,20,1.4,EHT666.6310,M*44
$GPGGQ,001502.00,010125,4742.4459330,N,01617.9730282,E,1,20,3.401,623.4199,M*39
$GPGFA,001502.00,17.095,22.599,1.798,0.861,15.859,2.756,,VVV*34
$GPLLK,001502.00,010125,,M,,M,1,20,1.7,,M*09
$GNGMP,001502.00,,,,,DAAA,20,0.8,,,,*5A
$GPGMP,001502.00,,,,,,04,,,,2.5,123*78
$GLGMP,001502.00,,,,,,04,,,,,*7D
$GAGMP,001502.00,,,,,,06,,,,,*72
$GBGMP,001502.00,,,,,,06,,,,,*71
$PSSN,SNC,[0,260120000,2347]*43
$GPZDA,001507.00,01,01,2025,,*60
$GPDTM,W84,,00.0000000,N,00.0000000,E,00.0000000,W84*5F
$GPRMC,001507.00,A,4742.4459404,N,01617.9730213,E,0.0,,010125,5.1,E,D*1B
$GPGLL,4742.4459404,N,01617.9730213,E,001507.00,A,D*6A
$GPGGA,001507.00,4742.4459404,N,01617.9730213,E,2,20,0.8,623.4086,M,43.2111,M,1.5,0123*40
$GNGNS,001507.00,4742.4459404,N,01617.9730213,E,DAAA,20,0.8,623.4086,43.2111,,*58
$GPGNS,001507.00,,,,,,04,,,,1.5,123*7E
$GLGNS,001507.00,,,,,,04,,,,,*78
$GAGNS,001507.00,,,,,,06,,,,,*77
$GBGNS,001507.00,,,,,,06,,,,,*74
$GPLLQ,001507.00,010125,,M,,M,1,20,3.260,,M*17
$GPVTG,,T,,M,0.01,N,0.02,K,D*25
$GPHDT,,T*1B
$GPTHS,,V*0E
$GPROT,,V*08
$PSSN,HRP,001507.00,010125,,,,,,,00,0,,*62
$PTNL,AVR,001507.00,,Yaw,,Tilt,,,,0,,00*34
$GPGSA,A,3,02,03,17,21,,,,,,,,,1.4,0.8,1.2*38
$GPGSA,A,3,68,69,84,85,,,,,,,,,1.4,0.8,1.2*3C
$GPGSA,A,3,04,06,09,10,11,36,,,,,,,1.4,0.8,1.2*33
$GPGSA,A,3,16,20,29,30,32,35,,,,,,,1.4,0.8,1.2*36
$GPGST,001507.00,2.737,1.718,0.830,16.124,1.666,0.929,2.643*67
$GPGBS,001507.00,9.877,7.700,20.191,17,0.0001,-1.404,0.822*45
$GPGRS,001507.00,1,0.4,0.2,-1.4,0.3,,,,,,,,*60
$GPGRS,001507.00,1,2.5,-0.8,-2.4,-1.1,,,,,,,,*69
$GPGRS,001507.00,1,-0.5,1.0,2.1,-1.2,-0.8,-0.1,,,,,,*40
$GPGRS,001507.00,1,4.2,-3.6,-1.4,-2.4,-5.1,-3.0,,,,,,*67
$GPGSV,5,1,18,01,87,341,,28,20,094,30,04,15,198,26,31,11,121,*7E
$GPGSV,5,2,18,08,16,182,25,32,30,049,30,17,31,308,42,03,55,266,45*71
$GPGSV,5,3,18,21,65,131,45,02,87,166,47,22,09,294,,19,07,326,26*71
$GPGSV,5,4,18,14,04,273,26,10,01,071,,36,35,170,41,34,31,208,*7B
$GPGSV,5,5,18,49,34,195,37,61,03,257,*77
$GLGSV,2,1,08,84,87,065,36,83,22,139,28,70,19,220,,85,33,322,49*6D
$GLGSV,2,2,08,68,38,038,43,69,87,204,49,77,07,021,,76,06,338,21*67
$GAGSV,3,1,10,11,80,091,44,09,33,186,38,02,10,281,34,19,24,044,31*65
$GAGSV,3,2,10,12,27,116,33,06,52,164,43,36,45,304,43,10,51,113,41*6A
$GAGSV,3,3,10,04,62,114,47,30,07,330,31*68
$GBGSV,5,1,17,20,67,222,42,35,16,315,40,57,15,090,,19,18,229,31*69
$GBGSV,5,2,17,05,24,128,,30,40,162,36,39,26,058,30,06,25,073,34*67
$GBGSV,5,3,17,09,24,088,25,16,26,069,35,48,44,227,,32,52,055,48*68
$GBGSV,5,4,17,29,67,267,50,25,02,035,,13,05,076,,02,08,105,*6B
$GBGSV,5,5,17,60,10,109,*52
$GPGGA,001507.00,,,,,0,00,,,M,,M,,*4B
$PTNL,GGK,001507.00,010125,4742.4459404,N,01617.9730213,E,1,20,1.4,EHT666.6196,M*45
$GPGGQ,001507.00,010125,4742.4459404,N,01617.9730213,E,1,20,3.260,623.4086,M*3A
$GPGFA,001507.00,16.332,21.675,1.718,0.830,16.124,2.643,,VVV*35
$GPLLK,001507.00,010125,,M,,M,1,20,1.7,,M*0C
$GNGMP,001507.00,,,,,DAAA,20,0.8,,,,*5F
$GPGMP,001507.00,,,,,,04,,,,1.5,123*7E
$GLGMP,001507.00,,,,,,04,,,,,*78
$GAGMP,001507.00,,,,,,06,,,,,*77
$GBGMP,001507.00,,,,,,06,,,,,*74
$PSSN,SNC,[0,260125000,2347]*46
$GPZDA,001512.00,01,01,2025,,*64
$GPDTM,W84,,00.0000000,N,00.0000000,E,00.0000000,W84*5F
$GPRMC,001512.00,A,4742.4459471,N,01617.9730106,E,0.0,,010125,5.1,E,D*1A
$GPGLL,4742.4459471,N,01617.9730106,E,001512.00,A,D*6B
$GPGGA,001512.00,4742.4459471,N,01617.9730106,E,2,20,0.8,623.4119,M,43.2111,M,2.5,0123*45
$GNGNS,001512.00,4742.4459471,N,01617.9730106,E,DAAA,20,0.8,623.4119,43.2111,,*5E
$GPGNS,001512.00,,,,,,04,,,,2.5,123*79
$GLGNS,001512.00,,,,,,04,,,,,*7C
$GAGNS,001512.00,,,,,,06,,,,,*73
$GBGNS,001512.00,,,,,,06,,,,,*70
$GPLLQ,001512.00,010125,,M,,M,1,20,2.920,,M*1D
$GPVTG,,T,,M,0.00,N,0.00,K,D*26
$GPHDT,,T*1B
$GPTHS,,V*0E
$GPROT,,V*08
$PSSN,HRP,001512.00,010125,,,,,,,00,0,,*66
$PTNL,AVR,001512.00,,Yaw,,Tilt,,,,0,,00*30
$GPGSA,A,3,02,03,17,21,,,,,,,,,1.4,0.8,1.2*38
$GPGSA,A,3,68,69,84,85,,,,,,,,,1.4,0.8,1.2*3C
$GPGSA,A,3,04,06,09,10,11,36,,,,,,,1.4,0.8,1.2*33
$GPGSA,A,3,16,20,29,30,32,35,,,,,,,1.4,0.8,1.2*36
$GPGST,001512.00,2.603,1.550,0.732,16.977,1.498,0.834,2.364*66
$GPGBS,001512.00,9.996,7.834,20.474,17,0.0001,-0.945,0.833*40
$GPGRS,001512.00,1,0.2,-0.2,-0.9,0.5,,,,,,,,*45
$GPGRS,001512.00,1,1.0,-1.4,-1.7,-1.8,,,,,,,,*6F
$GPGRS,001512.00,1,-0.8,1.2,1.9,-0.5,-1.3,0.1,,,,,,*61
$GPGRS,001512.00,1,4.2,-4.4,-2.0,-1.2,-4.4,-3.0,,,,,,*60
$GPGSV,5,1,18,01,87,342,,28,20,094,29,04,15,198,23,31,11,121,*70
$GPGSV,5,2,18,08,16,182,26,32,30,049,34,17,31,308,40,03,55,266,45*74
$GPGSV,5,3,18,21,65,131,46,02,87,166,48,22,09,294,,19,07,326,26*7D
$GPGSV,5,4,18,14,04,273,23,10,01,071,,36,35,170,41,34,31,208,*7E
$GPGSV,5,5,18,49,34,195,37,61,03,257,*77
$GLGSV,2,1,08,84,87,066,37,83,22,139,28,70,19,220,,85,33,322,48*6E
$GLGSV,2,2,08,68,38,038,45,69,87,204,49,77,07,021,,76,06,338,*62
$GAGSV,3,1,10,11,80,091,44,09,33,186,37,02,10,281,34,19,24,044,31*6A
$GAGSV,3,2,10,12,27,116,34,06,52,164,43,36,45,304,44,10,51,113,42*69
$GAGSV,3,3,10,04,62,114,47,30,07,330,31*68
$GBGSV,5,1,17,20,67,222,44,35,16,315,40,57,15,090,,19,18,229,29*66
$GBGSV,5,2,17,05,24,128,,30,40,162,38,39,26,058,30,06,25,073,34*69
$GBGSV,5,3,17,09,24,088,25,16,26,069,35,48,45,227,,32,51,055,47*65
$GBGSV,5,4,17,29,67,267,50,25,02,035,,13,05,076,,02,08,105,*6B
$GBGSV,5,5,17,60,10,109,*52
$GPGGA,001512.00,,,,,0,00,,,M,,M,,*4F
$PTNL,GGK,001512.00,010125,4742.4459471,N,01617.9730106,E,1,20,1.4,EHT666.6229,M*43
$GPGGQ,001512.00,010125,4742.4459471,N,01617.9730106,E,1,20,2.920,623.4119,M*32
$GPGFA,001512.00,14.741,19.383,1.550,0.732,16.977,2.364,,VVV*39
$GPLLK,001512.00,010125,,M,,M,1,20,1.7,,M*08
$GNGMP,001512.00,,,,,DAAA,20,0.8,,,,*5B
$GPGMP,001512.00,,,,,,04,,,,2.5,123*79
$GLGMP,001512.00,,,,,,04,,,,,*7C
$GAGMP,001512.00,,,,,,06,,,,,*73
$GBGMP,001512.00,,,,,,06,,,,,*70
$PSSN,SNC,[0,260130000,2347]*42
$GPZDA,001517.00,01,01,2025,,*61
$GPDTM,W84,,00.0000000,N,00.0000000,E,00.0000000,W84*5F
$GPRMC,001517.00,A,4742.4459522,N,01617.9730049,E,0.0,,010125,5.1,E,D*12
$GPGLL,4742.4459522,N,01617.9730049,E,001517.00,A,D*63
$GPGGA,001517.00,4742.4459522,N,01617.9730049,E,2,21,0.7,623.3980,M,43.2111,M,3.0,0123*48
$GNGNS,001517.00,4742.4459522,N,01617.9730049,E,DAAA,21,0.7,623.3980,43.2111,,*57
$GPGNS,001517.00,,,,,,05,,,,3.0,123*79
$GLGNS,001517.00,,,,,,04,,,,,*79
$GAGNS,001517.00,,,,,,06,,,,,*76
$GBGNS,001517.00,,,,,,06,,,,,*75
$GPLLQ,001517.00,010125,,M,,M,1,21,3.249,,M*1C
$GPVTG,,T,,M,0.01,N,0.01,K,D*26
$GPHDT,,T*1B
$GPTHS,,V*0E
$GPROT,,V*08
$PSSN,HRP,001517.00,010125,,,,,,,00,0,,*63
$PTNL,AVR,001517.00,,Yaw,,Tilt,,,,0,,00*35
$GPGSA,A,3,02,03,17,21,32,,,,,,,,1.4,0.7,1.2*36
$GPGSA,A,3,68,69,84,85,,,,,,,,,1.4,0.7,1.2*33
$GPGSA,A,3,04,06,09,10,11,36,,,,,,,1.4,0.7,1.2*3C
$GPGSA,A,3,16,20,29,30,32,35,,,,,,,1.4,0.7,1.2*39
$GPGST,001517.00,2.383,1.640,0.564,2.126,1.639,0.567,2.747*53
$GPGBS,001517.00,9.647,3.532,21.215,17,0.0001,-1.779,0.849*44
$GPGRS,001517.00,1,0.5,-0.1,-1.8,0.5,0.2,,,,,,,*68
$GPGRS,001517.00,1,2.5,-1.1,-0.9,-1.5,,,,,,,,*6B
$GPGRS,001517.00,1,-0.9,2.1,2.9,0.0,-0.8,0.6,,,,,,*43
$GPGRS,001517.00,1,3.1,-4.5,-1.8,0.4,-2.8,-3.1,,,,,,*4A
$GPGSV,5,1,18,01,87,342,,28,20,093,26,04,15,198,21,31,11,121,*7A
$GPGSV,5,2,18,08,16,182,26,32,30,049,37,17,31,308,39,03,55,266,44*78
$GPGSV,5,3,18,21,65,131,46,02,87,165,48,22,09,293,,19,07,326,24*7B
$GPGSV,5,4,18,14,04,273,27,10,01,071,,36,35,170,41,34,31,208,*7A
$GPGSV,5,5,18,49,34,195,37,61,03,257,*77
$GLGSV,2,1,08,84,87,067,37,83,22,139,29,70,19,220,,85,33,322,47*61
$GLGSV,2,2,08,68,38,038,45,69,87,204,49,77,07,021,,76,06,338,32*63
$GAGSV,3,1,10,11,80,092,44,09,33,186,35,12,27,116,34,19,24,044,32*60
$GAGSV,3,2,10,36,45,304,44,06,52,164,44,10,51,113,42,04,62,114,47*6E
$GAGSV,3,3,10,30,07,330,29,02,10,281,35*68
$GBGSV,5,1,17,20,67,222,45,35,16,315,39,57,15,090,,19,18,229,26*66
$GBGSV,5,2,17,05,24,128,,30,40,162,38,16,26,069,35,39,26,058,30*61
$GBGSV,5,3,17,09,24,088,24,06,25,073,34,48,45,227,,32,51,055,47*6C
$GBGSV,5,4,17,29,67,266,49,02,08,105,,25,02,035,,13,05,076,*62
$GBGSV,5,5,17,60,10,109,*52
$GPGGA,001517.00,,,,,0,00,,,M,,M,,*4A
$PTNL,GGK,001517.00,010125,4742.4459522,N,01617.9730049,E,1,21,1.4,EHT666.6091,M*4B
$GPGGQ,001517.00,010125,4742.4459522,N,01617.9730049,E,1,21,3.249,623.3980,M*31
$GPGFA,001517.00,15.597,22.525,1.640,0.564,2.126,2.747,,VVV*09
$GPLLK,001517.00,010125,,M,,M,1,21,1.7,,M*0C
$GNGMP,001517.00,,,,,DAAA,21,0.7,,,,*50
$GPGMP,001517.00,,,,,,05,,,,3.0,123*79
$GLGMP,001517.00,,,,,,04,,,,,*79
$GAGMP,001517.00,,,,,,06,,,,,*76
$GBGMP,001517.00,,,,,,06,,,,,*75
$PSSN,SNC,[0,260135000,2347]*47
$GPZDA,001522.00,01,01,2025,,*67
$GPDTM,W84,,00.0000000,N,00.0000000,E,00.0000000,W84*5F
$GPRMC,001522.00,A,4742.4459555,N,01617.9729923,E,0.0,,010125,5.1,E,D*19
$GPGLL,4742.4459555,N,01617.9729923,E,001522.00,A,D*68
$GPGGA,001522.00,4742.4459555,N,01617.9729923,E,2,19,0.9,623.3951,M,43.2111,M,2.4,0123*4F
$GNGNS,001522.00,4742.4459555,N,01617.9729923,E,DAAA,19,0.9,623.3951,43.2111,,*55
$GPGNS,001522.00,,,,,,05,,,,2.4,123*7A
$GLGNS,001522.00,,,,,,04,,,,,*7F
$GAGNS,001522.00,,,,,,05,,,,,*73
$GBGNS,001522.00,,,,,,05,,,,,*70
$GPLLQ,001522.00,010125,,M,,M,1,19,2.878,,M*18
$GPVTG,,T,,M,0.01,N,0.01,K,D*26
$GPHDT,,T*1B
$GPTHS,,V*0E
$GPROT,,V*08
$PSSN,HRP,001522.00,010125,,,,,,,00,0,,*65
$PTNL,AVR,001522.00,,Yaw,,Tilt,,,,0,,00*33
$GPGSA,A,3,02,03,17,21,32,,,,,,,,1.7,0.9,1.4*3D
$GPGSA,A,3,68,69,84,85,,,,,,,,,1.7,0.9,1.4*38
$GPGSA,A,3,04,06,10,11,36,,,,,,,,1.7,0.9,1.4*3E
$GPGSA,A,3,20,29,30,32,35,,,,,,,,1.7,0.9,1.4*35
$GPGST,001522.00,2.182,1.468,0.471,1.728,1.468,0.473,2.430*51
$GPGBS,001522.00,10.676,3.482,22.586,03,0.0001,-0.410,0.618*7E
$GPGRS,001522.00,1,0.3,-0.4,-0.5,0.2,0.4,,,,,,,*60
$GPGRS,001522.00,1,3.4,-1.0,-0.6,-1.4,,,,,,,,*62
$GPGRS,001522.00,1,-1.3,2.3,-0.3,-0.9,0.3,,,,,,,*43
$GPGRS,001522.00,1,-4.1,-2.1,-0.1,-1.2,-3.4,,,,,,,*4A
$GPGSV,5,1,18,01,87,343,,28,20,093,,04,16,198,25,31,11,121,*78
$GPGSV,5,2,18,08,16,182,26,32,30,049,39,17,31,308,40,03,55,266,44*78
$GPGSV,5,3,18,21,65,131,44,02,87,165,48,22,09,293,,19,07,326,21*7C
$GPGSV,5,4,18,14,04,273,,10,01,071,,36,35,170,41,34,31,208,*7F
$GPGSV,5,5,18,49,34,195,37,61,03,257,*77
$GLGSV,2,1,08,84,87,069,38,83,22,139,29,70,20,220,,85,33,322,47*6A
$GLGSV,2,2,08,68,38,038,45,69,87,204,49,77,07,021,,76,06,338,*62
$GAGSV,3,1,10,11,80,092,44,09,34,186,33,12,27,116,34,19,24,044,32*61
$GAGSV,3,2,10,36,45,304,44,06,52,164,44,10,51,113,42,04,62,114,47*6E
$GAGSV,3,3,10,30,07,329,29,02,10,281,34*61
$GBGSV,5,1,17,20,67,222,46,35,16,315,38,57,15,090,,19,18,229,25*67
$GBGSV,5,2,17,05,24,128,,30,40,162,38,39,26,058,30,06,26,073,34*6A
$GBGSV,5,3,17,09,24,088,25,16,26,069,34,48,45,227,,32,51,055,46*65
$GBGSV,5,4,17,29,67,266,50,25,02,035,,13,05,076,,02,08,105,*6A
$GBGSV,5,5,17,60,10,109,*52
$GPGGA,001522.00,,,,,0,00,,,M,,M,,*4C
$PTNL,GGK,001522.00,010125,4742.4459555,N,01617.9729923,E,1,19,1.7,EHT666.6062,M*44
$GPGGQ,001522.00,010125,4742.4459555,N,01617.9729923,E,1,19,2.878,623.3951,M*34
$GPGFA,001522.00,13.959,19.927,1.468,0.471,1.728,2.430,,VVV*04
$GPLLK,001522.00,010125,,M,,M,1,19,2.0,,M*05
$GNGMP,001522.00,,,,,DAAA,19,0.9,,,,*53
$GPGMP,001522.00,,,,,,05,,,,2.4,123*7A
$GLGMP,001522.00,,,,,,04,,,,,*7F
$GAGMP,001522.00,,,,,,05,,,,,*73
$GBGMP,001522.00,,,,,,05,,,,,*70
$PSSN,SNC,[0,260140000,2347]*45
$GPZDA,001527.00,01,01,2025,,*62
$GPDTM,W84,,00.0000000,N,00.0000000,E,00.0000000,W84*5F
$GPRMC,001527.00,A,4742.4459571,N,01617.9729867,E,0.0,,010125,5.1,E,D*1B
$GPGLL,4742.4459571,N,01617.9729867,E,001527.00,A,D*6A
$GPGGA,001527.00,4742.4459571,N,01617.9729867,E,2,19,0.9,623.3932,M,43.2111,M,1.8,0123*47
$GNGNS,001527.00,4742.4459571,N,01617.9729867,E,DAAA,19,0.9,623.3932,43.2111,,*52
$GPGNS,001527.00,,,,,,05,,,,1.8,123*70
$GLGNS,001527.00,,,,,,04,,,,,*7A
$GAGNS,001527.00,,,,,,05,,,,,*76
$GBGNS,001527.00,,,,,,05,,,,,*75
$GPLLQ,001527.00,010125,,M,,M,1,19,2.799,,M*1D
$GPVTG,,T,,M,0.00,N,0.01,K,D*27
$GPHDT,,T*1B
$GPTHS,,V*0E
$GPROT,,V*08
$PSSN,HRP,001527.00,010125,,,,,,,00,0,,*60
$PTNL,AVR,001527.00,,Yaw,,Tilt,,,,0,,00*36
$GPGSA,A,3,02,03,17,21,32,,,,,,,,1.7,0.9,1.4*3D
$GPGSA,A,3,68,69,84,85,,,,,,,,,1.7,0.9,1.4*38
$GPGSA,A,3,04,06,10,11,36,,,,,,,,1.7,0.9,1.4*3E
$GPGSA,A,3,20,29,30,32,35,,,,,,,,1.7,0.9,1.4*35
$GPGST,001527.00,2.205,1.431,0.465,1.837,1.430,0.467,2.360*5A
$GPGBS,001527.00,10.889,3.536,22.971,32,0.0001,0.744,0.973*50
$GPGRS,001527.00,1,0.0,0.0,-0.2,-0.1,0.7,,,,,,,*65
$GPGRS,001527.00,1,2.6,-0.6,-0.7,-0.9,,,,,,,,*6E
$GPGRS,001527.00,1,-1.1,2.3,-0.1,-1.1,-0.4,,,,,,,*65
$GPGRS,001527.00,1,-4.4,-2.4,-0.7,0.1,-4.0,,,,,,,*65
$GPGSV,5,1,18,01,87,343,,28,20,093,,04,16,198,26,31,11,121,*7B
$GPGSV,5,2,18,08,16,182,26,32,30,049,41,17,31,308,41,03,55,267,45*76
$GPGSV,5,3,18,21,65,131,43,02,87,165,47,22,09,293,,19,07,326,22*77
$GPGSV,5,4,18,14,04,273,,10,01,071,,36,35,170,41,34,31,208,*7F
$GPGSV,5,5,18,49,34,195,37,61,03,257,*77
$GLGSV,2,1,08,84,87,069,38,83,22,139,28,70,20,220,,85,34,322,47*6C
$GLGSV,2,2,08,68,38,038,42,69,87,204,50,77,07,021,,76,06,338,25*6A
$GAGSV,3,1,10,11,80,092,44,09,34,186,32,12,27,116,34,19,24,044,32*60
$GAGSV,3,2,10,36,45,304,44,06,52,164,43,10,51,113,42,04,62,114,47*69
$GAGSV,3,3,10,30,07,329,29,02,10,281,34*61
$GBGSV,5,1,17,20,67,222,47,35,16,315,38,57,15,090,,19,18,229,27*64
$GBGSV,5,2,17,05,24,128,,30,39,162,37,39,26,058,30,06,26,073,34*6B
$GBGSV,5,3,17,09,24,088,25,16,26,069,34,48,45,227,,32,51,055,46*65
$GBGSV,5,4,17,29,67,266,50,25,02,035,,13,05,076,,02,08,105,*6A
$GBGSV,5,5,17,60,10,109,*52
$GPGGA,001527.00,,,,,0,00,,,M,,M,,*49
$PTNL,GGK,001527.00,010125,4742.4459571,N,01617.9729867,E,1,19,1.7,EHT666.6042,M*44
$GPGGQ,001527.00,010125,4742.4459571,N,01617.9729867,E,1,19,2.799,623.3932,M*33
$GPGFA,001527.00,13.601,19.352,1.431,0.465,1.837,2.360,,VVV*01
$GPLLK,001527.00,010125,,M,,M,1,19,2.0,,M*00
$GNGMP,001527.00,,,,,DAAA,19,0.9,,,,*56
$GPGMP,001527.00,,,,,,05,,,,1.8,123*70
$GLGMP,001527.00,,,,,,04,,,,,*7A
$GAGMP,001527.00,,,,,,05,,,,,*76
$GBGMP,001527.00,,,,,,05,,,,,*75
$PSSN,SNC,[0,260145000,2347]*40
$GPZDA,001532.00,01,01,2025,,*66
$GPDTM,W84,,00.0000000,N,00.0000000,E,00.0000000,W84*5F
$GPRMC,001532.00,A,4742.4459527,N,01617.9729795,E,0.0,,010125,5.1,E,D*1E
$GPGLL,4742.4459527,N,01617.9729795,E,001532.00,A,D*6F
$GPGGA,001532.00,4742.4459527,N,01617.9729795,E,2,19,0.9,623.3972,M,43.2111,M,2.8,0123*45
$GNGNS,001532.00,4742.4459527,N,01617.9729795,E,DAAA,19,0.9,623.3972,43.2111,,*53
$GPGNS,001532.00,,,,,,05,,,,2.8,123*77
$GLGNS,001532.00,,,,,,04,,,,,*7E
$GAGNS,001532.00,,,,,,05,,,,,*72
$GBGNS,001532.00,,,,,,05,,,,,*71
$GPLLQ,001532.00,010125,,M,,M,1,19,2.846,,M*14
$GPVTG,,T,,M,0.01,N,0.01,K,D*26
$GPHDT,,T*1B
$GPTHS,,V*0E
$GPROT,,V*08
$PSSN,HRP,001532.00,010125,,,,,,,00,0,,*64
$PTNL,AVR,001532.00,,Yaw,,Tilt,,,,0,,00*32
$GPGSA,A,3,02,03,17,21,32,,,,,,,,1.7,0.9,1.4*3D
$GPGSA,A,3,68,69,84,85,,,,,,,,,1.7,0.9,1.4*38
$GPGSA,A,3,04,06,10,11,36,,,,,,,,1.7,0.9,1.4*3E
$GPGSA,A,3,20,29,30,32,35,,,,,,,,1.7,0.9,1.4*35
$GPGST,001532.00,2.072,1.444,0.469,2.530,1.443,0.473,2.407*5C
$GPGBS,001532.00,11.083,3.604,23.417,32,0.0001,1.368,0.986*58
$GPGRS,001532.00,1,-0.5,0.2,-0.1,-0.1,1.4,,,,,,,*4A
$GPGRS,001532.00,1,0.9,-0.4,-0.6,-1.2,,,,,,,,*6E
$GPGRS,001532.00,1,-0.8,2.3,-0.1,-1.1,-0.6,,,,,,,*6B
$GPGRS,001532.00,1,-4.1,-2.5,-1.0,0.2,-3.9,,,,,,,*6E
$GPGSV,5,1,18,01,87,344,,28,20,093,19,04,16,198,24,31,11,121,*76
$GPGSV,5,2,18,08,15,182,25,32,30,049,42,17,31,308,41,03,55,267,45*75
$GPGSV,5,3,18,21,65,131,43,02,87,164,45,22,09,293,,19,07,326,26*70
$GPGSV,5,4,18,14,04,273,24,10,01,071,,36,35,170,41,34,31,208,*79
$GPGSV,5,5,18,49,34,195,37,61,03,257,*77
$GLGSV,2,1,08,84,87,071,38,83,22,139,27,70,20,220,,85,34,322,47*6A
$GLGSV,2,2,08,68,38,038,39,69,87,204,50,77,07,021,,76,06,338,29*6A
$GAGSV,3,1,10,11,80,092,44,09,34,186,30,12,26,116,34,19,24,044,31*60
$GAGSV,3,2,10,36,45,304,44,06,52,164,43,10,51,113,43,04,62,114,47*68
$GAGSV,3,3,10,30,07,329,29,02,10,281,34*61
$GBGSV,5,1,17,20,67,222,47,35,16,315,38,57,15,090,,19,18,229,27*64
$GBGSV,5,2,17,05,24,128,,30,39,162,37,16,26,069,34,39,26,058,31*60
$GBGSV,5,3,17,09,24,088,25,06,26,073,34,48,45,227,,32,51,055,46*6F
$GBGSV,5,4,17,29,67,266,50,02,08,105,,25,02,035,,13,05,077,*6B
$GBGSV,5,5,17,60,10,109,*52
$GPGGA,001532.00,,,,,0,00,,,M,,M,,*4D
$PTNL,GGK,001532.00,010125,4742.4459527,N,01617.9729795,E,1,19,1.7,EHT666.6082,M*4D
$GPGGQ,001532.00,010125,4742.4459527,N,01617.9729795,E,1,19,2.846,623.3972,M*3F
$GPGFA,001532.00,13.731,19.735,1.444,0.469,2.530,2.407,,VVV*03
$GPLLK,001532.00,010125,,M,,M,1,19,2.0,,M*04
$GNGMP,001532.00,,,,,DAAA,19,0.9,,,,*52
$GPGMP,001532.00,,,,,,05,,,,2.8,123*77
$GLGMP,001532.00,,,,,,04,,,,,*7E
$GAGMP,001532.00,,,,,,05,,,,,*72
$GBGMP,001532.00,,,,,,05,,,,,*71
$PSSN,SNC,[0,260150000,2347]*44
$GPZDA,001537.00,01,01,2025,,*63
$GPDTM,W84,,00.0000000,N,00.0000000,E,00.0000000,W84*5F
$GPRMC,001537.00,A,4742.4459517,N,01617.9729755,E,0.0,,010125,5.1,E,D*14
$GPGLL,4742.4459517,N,01617.9729755,E,001537.00,A,D*65
$GPGGA,001537.00,4742.4459517,N,01617.9729755,E,2,19,0.9,623.4112,M,43.2111,M,3.0,0123*4F
$GNGNS,001537.00,4742.4459517,N,01617.9729755,E,DAAA,19,0.9,623.4112,43.2111,,*50
$GPGNS,001537.00,,,,,,05,,,,3.0,123*7B
$GLGNS,001537.00,,,,,,04,,,,,*7B
$GAGNS,001537.00,,,,,,05,,,,,*77
$GBGNS,001537.00,,,,,,05,,,,,*74
$GPLLQ,001537.00,010125,,M,,M,1,19,2.897,,M*1D
$GPVTG,,T,,M,0.01,N,0.01,K,D*26
$GPHDT,,T*1B
$GPTHS,,V*0E
$GPROT,,V*08
$PSSN,HRP,001537.00,010125,,,,,,,00,0,,*61
$PTNL,AVR,001537.00,,Yaw,,Tilt,,,,0,,00*37
$GPGSA,A,3,02,03,17,21,32,,,,,,,,1.7,0.9,1.4*3D
$GPGSA,A,3,68,69,84,85,,,,,,,,,1.7,0.9,1.4*38
$GPGSA,A,3,04,06,10,11,36,,,,,,,,1.7,0.9,1.4*3E
$GPGSA,A,3,20,29,30,32,35,,,,,,,,1.7,0.9,1.4*35
$GPGST,001537.00,2.080,1.468,0.472,2.431,1.467,0.475,2.452*50
$GPGBS,001537.00,11.295,3.574,23.949,02,0.0001,-0.495,0.635*77
$GPGRS,001537.00,1,-0.5,0.0,0.4,0.4,0.2,,,,,,,*4A
$GPGRS,001537.00,1,-0.1,-0.9,-0.6,-1.9,,,,,,,,*48
$GPGRS,001537.00,1,-1.0,2.5,0.1,-1.3,-0.7,,,,,,,*4F
$GPGRS,001537.00,1,-4.0,-2.6,-1.2,-0.0,-3.5,,,,,,,*48
$GPGSV,5,1,18,01,87,344,,28,20,093,,04,16,198,28,31,11,121,*72
$GPGSV,5,2,18,08,15,182,25,32,30,049,42,17,31,308,42,03,55,267,44*77
$GPGSV,5,3,18,21,65,131,44,02,87,164,44,22,09,293,,19,07,326,31*70
$GPGSV,5,4,18,14,04,273,23,10,01,071,,36,35,170,41,34,31,208,*7E
$GPGSV,5,5,18,49,34,195,37,61,03,257,*77
$GLGSV,2,1,08,84,87,072,38,83,22,139,24,70,20,220,,85,34,322,47*6A
$GLGSV,2,2,08,68,38,038,40,69,87,204,50,77,07,021,,76,06,338,27*6A
$GAGSV,3,1,10,11,80,092,43,09,34,186,30,12,26,116,34,19,24,044,32*64
$GAGSV,3,2,10,36,45,304,43,06,53,164,43,10,51,113,43,04,62,113,46*68
$GAGSV,3,3,10,30,07,329,30,02,10,281,33*6E
$GBGSV,5,1,17,20,67,222,47,35,16,315,38,57,15,090,,19,18,229,27*64
$GBGSV,5,2,17,05,24,128,,30,39,162,37,39,26,058,31,06,26,073,35*6B
$GBGSV,5,3,17,09,24,088,25,16,26,069,34,48,45,227,,32,51,055,46*65
$GBGSV,5,4,17,29,67,266,50,25,02,035,,13,05,077,,02,08,105,*6B
$GBGSV,5,5,17,60,10,109,*52
$GPGGA,001537.00,,,,,0,00,,,M,,M,,*48
$PTNL,GGK,001537.00,010125,4742.4459517,N,01617.9729755,E,1,19,1.7,EHT666.6223,M*4E
$GPGGQ,001537.00,010125,4742.4459517,N,01617.9729755,E,1,19,2.897,623.4112,M*30
$GPGFA,001537.00,13.958,20.109,1.468,0.472,2.431,2.452,,VVV*00
$GPLLK,001537.00,010125,,M,,M,1,19,2.0,,M*01
$GNGMP,001537.00,,,,,DAAA,19,0.9,,,,*57
$GPGMP,001537.00,,,,,,05,,,,3.0,123*7B
$GLGMP,001537.00,,,,,,04,,,,,*7B
$GAGMP,001537.00,,,,,,05,,,,,*77
$GBGMP,001537.00,,,,,,05,,,,,*74
$PSSN,SNC,[0,260155000,2347]*41
$GPZDA,001542.00,01,01,2025,,*61
$GPDTM,W84,,00.0000000,N,00.0000000,E,00.0000000,W84*5F
$GPRMC,001542.00,A,4742.4459539,N,01617.9729810,E,0.0,,010125,5.1,E,D*14
$GPGLL,4742.4459539,N,01617.9729810,E,001542.00,A,D*65
$GPGGA,001542.00,4742.4459539,N,01617.9729810,E,2,21,0.7,623.4104,M,43.2111,M,2.4,0123*48
$GNGNS,001542.00,4742.4459539,N,01617.9729810,E,DAAA,21,0.7,623.4104,43.2111,,*52
$GPGNS,001542.00,,,,,,05,,,,2.4,123*7C
$GLGNS,001542.00,,,,,,04,,,,,*79
$GAGNS,001542.00,,,,,,05,,,,,*75
$GBGNS,001542.00,,,,,,07,,,,,*74
$GPLLQ,001542.00,010125,,M,,M,1,21,4.332,,M*16
$GPVTG,,T,,M,0.01,N,0.02,K,D*25
$GPHDT,,T*1B
$GPTHS,,V*0E
$GPROT,,V*08
$PSSN,HRP,001542.00,010125,,,,,,,00,0,,*63
$PTNL,AVR,001542.00,,Yaw,,Tilt,,,,0,,00*35
$GPGSA,A,3,02,03,17,21,32,,,,,,,,1.3,0.7,1.1*32
$GPGSA,A,3,68,69,84,85,,,,,,,,,1.3,0.7,1.1*37
$GPGSA,A,3,04,06,10,11,36,,,,,,,,1.3,0.7,1.1*31
$GPGSA,A,3,06,19,20,29,30,32,35,,,,,,1.3,0.7,1.1*34
$GPGST,001542.00,6.219,2.203,0.731,1.772,2.202,0.733,3.657*5E
$GPGBS,001542.00,10.124,3.437,21.063,19,0.0001,21.204,8.619*64
$GPGRS,001542.00,1,-0.1,-0.2,0.9,0.5,-1.4,,,,,,,*45
$GPGRS,001542.00,1,1.0,-0.9,-2.9,-2.1,,,,,,,,*61
$GPGRS,001542.00,1,-1.5,3.3,-0.1,-1.6,-0.8,,,,,,,*68
$GPGRS,001542.00,1,4.3,21.2,-3.5,-2.8,-0.9,-0.2,-4.3,,,,,*79
$GPGSV,5,1,18,01,87,344,,28,20,093,,04,16,198,29,31,11,121,*73
$GPGSV,5,2,18,08,15,182,24,32,30,049,42,17,31,308,44,03,55,267,44*70
$GPGSV,5,3,18,21,65,131,44,02,87,164,44,22,09,293,,19,07,326,33*72
$GPGSV,5,4,18,14,04,273,24,10,01,071,,36,35,170,41,34,31,208,*79
$GPGSV,5,5,18,49,34,195,37,61,03,257,*77
$GLGSV,2,1,08,84,87,073,38,83,22,139,25,70,20,220,,85,34,322,47*6A
$GLGSV,2,2,08,68,38,038,43,69,87,205,50,77,07,021,,76,06,338,28*67
$GAGSV,3,1,10,11,80,092,43,09,34,186,31,12,26,116,35,19,24,044,32*64
$GAGSV,3,2,10,36,45,304,43,06,53,164,43,10,51,113,43,04,62,113,45*6B
$GAGSV,3,3,10,30,07,329,31,02,10,281,32*6E
$GBGSV,5,1,17,20,67,222,47,35,16,315,38,57,15,090,,19,18,229,36*64
$GBGSV,5,2,17,05,24,128,,30,39,162,38,39,26,058,31,06,26,073,35*64
$GBGSV,5,3,17,09,24,088,26,16,26,069,33,48,45,227,,32,51,055,46*61
$GBGSV,5,4,17,29,67,266,51,25,02,035,,13,05,077,,02,08,105,*6A
$GBGSV,5,5,17,60,10,109,*52
$GPGGA,001542.00,,,,,0,00,,,M,,M,,*4A
$PTNL,GGK,001542.00,010125,4742.4459539,N,01617.9729810,E,1,21,1.3,EHT666.6215,M*44
$GPGGQ,001542.00,010125,4742.4459539,N,01617.9729810,E,1,21,4.332,623.4104,M*3E
$GPGFA,001542.00,20.948,29.989,2.203,0.731,1.772,3.657,,VVV*07
$GPLLK,001542.00,010125,,M,,M,1,21,1.5,,M*0E
$GNGMP,001542.00,,,,,DAAA,21,0.7,,,,*50
$GPGMP,001542.00,,,,,,05,,,,2.4,123*7C
$GLGMP,001542.00,,,,,,04,,,,,*79
$GAGMP,001542.00,,,,,,05,,,,,*75
$GBGMP,001542.00,,,,,,07,,,,,*74
$PSSN,SNC,[0,260160000,2347]*47
$GPZDA,001547.00,01,01,2025,,*64
$GPDTM,W84,,00.0000000,N,00.0000000,E,00.0000000,W84*5F
$GPRMC,001547.00,A,4742.4459544,N,01617.9729887,E,0.0,,010125,5.1,E,D*15
$GPGLL,4742.4459544,N,01617.9729887,E,001547.00,A,D*64
$GPGGA,001547.00,4742.4459544,N,01617.9729887,E,2,21,0.7,623.4195,M,43.2111,M,1.8,0123*4E
$GNGNS,001547.00,4742.4459544,N,01617.9729887,E,DAAA,21,0.7,623.4195,43.2111,,*5B
$GPGNS,001547.00,,,,,,05,,,,1.8,123*76
$GLGNS,001547.00,,,,,,04,,,,,*7C
$GAGNS,001547.00,,,,,,05,,,,,*70
$GBGNS,001547.00,,,,,,07,,,,,*71
$GPLLQ,001547.00,010125,,M,,M,1,21,3.487,,M*1D
$GPVTG,,T,,M,0.00,N,0.01,K,D*27
$GPHDT,,T*1B
$GPTHS,,V*0E
$GPROT,,V*08
$PSSN,HRP,001547.00,010125,,,,,,,00,0,,*66
$PTNL,AVR,001547.00,,Yaw,,Tilt,,,,0,,00*30
$GPGSA,A,3,02,03,17,21,32,,,,,,,,1.3,0.7,1.1*32
$GPGSA,A,3,68,69,84,85,,,,,,,,,1.3,0.7,1.1*37
$GPGSA,A,3,04,06,10,11,36,,,,,,,,1.3,0.7,1.1*31
$GPGSA,A,3,06,19,20,29,30,32,35,,,,,,1.3,0.7,1.1*34
$GPGST,001547.00,4.874,1.778,0.596,1.920,1.777,0.599,2.939*54
$GPGBS,001547.00,9.926,3.492,21.402,19,0.0001,14.929,8.619*5D
$GPGRS,001547.00,1,-0.2,-0.4,1.1,0.2,-0.6,,,,,,,*48
$GPGRS,001547.00,1,3.6,-1.6,-2.7,-2.0,,,,,,,,*61
$GPGRS,001547.00,1,-1.1,4.1,0.1,-1.6,-1.2,,,,,,,*4A
$GPGRS,001547.00,1,4.1,14.9,-3.0,-2.5,-1.4,0.2,-5.0,,,,,*58
$GPGSV,5,1,18,01,87,345,,28,20,093,27,04,16,198,30,31,11,120,*7E
$GPGSV,5,2,18,08,15,182,23,32,30,049,41,17,32,308,45,03,55,267,45*77
$GPGSV,5,3,18,21,65,131,44,02,87,164,44,22,09,293,,19,07,326,34*75
$GPGSV,5,4,18,14,04,273,27,10,01,071,,36,35,170,41,34,31,208,*7A
$GPGSV,5,5,18,49,34,195,37,61,03,257,*77
$GLGSV,2,1,08,84,87,074,37,83,21,139,25,70,20,220,,85,34,322,48*6E
$GLGSV,2,2,08,68,38,038,45,69,87,205,49,77,07,021,,76,06,338,25*64
$GAGSV,3,1,10,11,80,092,42,09,34,186,32,12,26,116,35,19,24,044,32*66
$GAGSV,3,2,10,36,45,304,42,06,53,164,43,10,51,113,44,04,62,113,44*6C
$GAGSV,3,3,10,30,07,329,32,02,10,281,31*6E
$GBGSV,5,1,17,20,67,222,47,35,16,315,39,57,15,090,,19,18,229,36*65
$GBGSV,5,2,17,05,24,128,,30,39,162,38,39,26,058,30,06,26,073,36*66
$GBGSV,5,3,17,09,24,088,26,16,26,069,33,48,45,227,,32,51,055,46*61
$GBGSV,5,4,17,29,67,266,51,25,02,034,,13,05,077,,02,08,105,*6B
$GBGSV,5,5,17,60,10,109,*52
$GPGGA,001547.00,,,,,0,00,,,M,,M,,*4F
$PTNL,GGK,001547.00,010125,4742.4459544,N,01617.9729887,E,1,21,1.3,EHT666.6306,M*46
$GPGGQ,001547.00,010125,4742.4459544,N,01617.9729887,E,1,21,3.487,623.4195,M*39
$GPGFA,001547.00,16.907,24.103,1.778,0.596,1.920,2.939,,VVV*01
$GPLLK,001547.00,010125,,M,,M,1,21,1.5,,M*0B
$GNGMP,001547.00,,,,,DAAA,21,0.7,,,,*55
$GPGMP,001547.00,,,,,,05,,,,1.8,123*76
$GLGMP,001547.00,,,,,,04,,,,,*7C
$GAGMP,001547.00,,,,,,05,,,,,*70
$GBGMP,001547.00,,,,,,07,,,,,*71
$PSSN,SNC,[0,260165000,2347]*42
$GPZDA,001552.00,01,01,2025,,*60
$GPDTM,W84,,00.0000000,N,00.0000000,E,00.0000000,W84*5F
$GPRMC,001552.00,A,4742.4459557,N,01617.9730038,E,0.0,,010125,5.1,E,D*17
$GPGLL,4742.4459557,N,01617.9730038,E,001552.00,A,D*66
$GPGGA,001552.00,4742.4459557,N,01617.9730038,E,2,22,0.7,623.4161,M,43.2111,M,2.7,0123*48
$GNGNS,001552.00,4742.4459557,N,01617.9730038,E,DAAA,22,0.7,623.4161,43.2111,,*51
$GPGNS,001552.00,,,,,,06,,,,2.7,123*7D
$GLGNS,001552.00,,,,,,04,,,,,*78
$GAGNS,001552.00,,,,,,05,,,,,*74
$GBGNS,001552.00,,,,,,07,,,,,*75
$GPLLQ,001552.00,010125,,M,,M,1,22,4.876,,M*1F
$GPVTG,,T,,M,0.00,N,0.01,K,D*27
$GPHDT,,T*1B
$GPTHS,,V*0E
$GPROT,,V*08
$PSSN,HRP,001552.00,010125,,,,,,,00,0,,*62
$PTNL,AVR,001552.00,,Yaw,,Tilt,,,,0,,00*34
$GPGSA,A,3,02,03,17,19,21,32,,,,,,,1.2,0.7,1.0*3A
$GPGSA,A,3,68,69,84,85,,,,,,,,,1.2,0.7,1.0*37
$GPGSA,A,3,04,06,10,11,36,,,,,,,,1.2,0.7,1.0*31
$GPGSA,A,3,06,19,20,29,30,32,35,,,,,,1.2,0.7,1.0*34
$GPGST,001552.00,5.048,2.596,0.888,2.312,2.594,0.894,4.031*56
$GPGBS,001552.00,9.729,3.666,18.107,19,0.0001,4.004,1.967*63
$GPGRS,001552.00,1,-0.7,1.1,0.5,4.0,-0.3,-2.0,,,,,,*67
$GPGRS,001552.00,1,7.9,-2.6,-1.8,-2.1,,,,,,,,*60
$GPGRS,001552.00,1,-0.7,4.6,0.5,-1.4,-1.1,,,,,,,*4B
$GPGRS,001552.00,1,4.1,13.7,-3.3,-2.2,-2.2,0.8,-5.7,,,,,*59
$GPGSV,5,1,18,01,87,346,,28,20,093,,04,16,198,32,31,11,120,*7A
$GPGSV,5,2,18,08,15,182,22,32,30,049,40,17,32,308,47,03,55,267,47*77
$GPGSV,5,3,18,21,64,131,44,02,87,163,44,22,09,293,,19,07,326,36*71
$GPGSV,5,4,18,14,04,273,30,10,01,071,,36,35,170,41,34,31,208,*7C
$GPGSV,5,5,18,49,34,195,37,61,03,257,*77
$GLGSV,2,1,08,84,87,075,37,83,21,139,26,70,20,220,,85,34,322,48*6C
$GLGSV,2,2,08,68,38,038,45,69,87,205,48,77,07,021,,76,06,338,33*62
$GAGSV,3,1,10,11,80,093,41,09,34,186,32,12,26,116,35,19,24,044,32*64
$GAGSV,3,2,10,36,45,304,42,06,53,164,43,10,51,113,45,04,62,113,43*6A
$GAGSV,3,3,10,30,07,329,31,02,10,281,30*6C
$GBGSV,5,1,17,20,67,222,47,35,16,315,40,57,15,090,,19,18,229,36*6B
$GBGSV,5,2,17,05,24,128,,30,39,162,37,39,26,058,30,06,26,073,36*69
$GBGSV,5,3,17,09,25,088,26,16,26,069,32,48,45,227,,32,51,055,47*60
$GBGSV,5,4,17,29,67,266,51,25,02,034,,13,05,077,,02,08,105,*6B
$GBGSV,5,5,17,60,10,109,*52
$GPGGA,001552.00,,,,,0,00,,,M,,M,,*4B
$PTNL,GGK,001552.00,010125,4742.4459557,N,01617.9730038,E,1,22,1.2,EHT666.6272,M*44
$GPGGQ,001552.00,010125,4742.4459557,N,01617.9730038,E,1,22,4.876,623.4161,M*36
$GPGFA,001552.00,24.678,33.054,2.596,0.888,2.312,4.031,,VVV*0A
$GPLLK,001552.00,010125,,M,,M,1,22,1.4,,M*0D
$GNGMP,001552.00,,,,,DAAA,22,0.7,,,,*52
$GPGMP,001552.00,,,,,,06,,,,2.7,123*7D
$GLGMP,001552.00,,,,,,04,,,,,*78
$GAGMP,001552.00,,,,,,05,,,,,*74
$GBGMP,001552.00,,,,,,07,,,,,*75
$PSSN,SNC,[0,260170000,2347]*46
$GPZDA,001557.00,01,01,2025,,*65
$GPDTM,W84,,00.0000000,N,00.0000000,E,00.0000000,W84*5F
$GPRMC,001557.00,A,4742.4459606,N,01617.9730325,E,0.0,,010125,5.1,E,D*1A
$GPGLL,4742.4459606,N,01617.9730325,E,001557.00,A,D*6B
$GPGGA,001557.00,4742.4459606,N,01617.9730325,E,2,22,0.7,623.4286,M,43.2111,M,3.0,0123*49
$GNGNS,001557.00,4742.4459606,N,01617.9730325,E,DAAA,22,0.7,623.4286,43.2111,,*56
$GPGNS,001557.00,,,,,,06,,,,3.0,123*7E
$GLGNS,001557.00,,,,,,04,,,,,*7D
$GAGNS,001557.00,,,,,,05,,,,,*71
$GBGNS,001557.00,,,,,,07,,,,,*70
$GPLLQ,001557.00,010125,,M,,M,1,22,6.207,,M*14
$GPVTG,,T,,M,0.00,N,0.00,K,D*26
$GPHDT,,T*1B
$GPTHS,,V*0E
$GPROT,,V*08
$PSSN,HRP,001557.00,010125,,,,,,,00,0,,*67
$PTNL,AVR,001557.00,,Yaw,,Tilt,,,,0,,00*31
$GPGSA,A,3,02,03,17,19,21,32,,,,,,,1.2,0.7,1.0*3A
$GPGSA,A,3,68,69,84,85,,,,,,,,,1.2,0.7,1.0*37
$GPGSA,A,3,04,06,10,11,36,,,,,,,,1.2,0.7,1.0*31
$GPGSA,A,3,06,19,20,29,30,32,35,,,,,,1.2,0.7,1.0*34
$GPGST,001557.00,5.858,3.303,1.125,2.314,3.301,1.132,5.133*55
$GPGBS,001557.00,9.928,3.601,18.277,32,0.0001,-2.729,0.931*44
$GPGRS,001557.00,1,-1.2,1.8,0.4,4.3,-0.1,-2.7,,,,,,*68
$GPGRS,001557.00,1,7.0,-2.6,-1.7,-3.1,,,,,,,,*62
$GPGRS,001557.00,1,-0.4,4.6,0.7,-1.7,-0.7,,,,,,,*4B
$GPGRS,001557.00,1,4.9,17.2,-3.9,-1.6,-3.3,0.4,-6.5,,,,,*55
$GPGSV,5,1,18,01,87,346,,28,20,093,31,04,16,198,32,31,11,120,*78
$GPGSV,5,2,18,08,15,182,22,32,30,049,38,17,32,308,47,03,55,267,48*77
$GPGSV,5,3,18,21,64,131,43,02,87,163,44,22,09,293,,19,08,326,38*77
$GPGSV,5,4,18,14,04,273,21,10,01,071,,36,35,170,41,34,31,208,*7C
$GPGSV,5,5,18,49,34,195,37,61,03,257,*77
$GLGSV,2,1,08,84,87,076,37,83,21,139,23,70,20,220,,85,34,322,47*65
$GLGSV,2,2,08,68,38,038,45,69,87,205,48,77,07,021,,76,06,338,35*64
$GAGSV,3,1,10,11,80,093,41,09,34,186,33,12,26,116,35,19,24,044,31*66
$GAGSV,3,2,10,36,45,304,41,06,53,164,42,10,51,113,45,04,62,113,43*68
$GAGSV,3,3,10,30,07,329,33,02,10,281,31*6F
$GBGSV,5,1,17,20,67,222,47,35,16,315,41,57,15,090,,19,18,229,35*69
$GBGSV,5,2,17,05,24,128,,30,39,163,37,39,26,058,29,06,26,073,37*61
$GBGSV,5,3,17,09,25,088,27,16,26,069,32,48,45,227,,32,51,055,47*61
$GBGSV,5,4,17,29,67,266,51,25,02,034,,13,05,077,,02,08,105,*6B
$GBGSV,5,5,17,60,10,109,*52
$GPGGA,001557.00,,,,,0,00,,,M,,M,,*4E
$PTNL,GGK,001557.00,010125,4742.4459606,N,01617.9730325,E,1,22,1.2,EHT666.6396,M*42
$GPGGQ,001557.00,010125,4742.4459606,N,01617.9730325,E,1,22,6.207,623.4286,M*3F
$GPGFA,001557.00,31.407,42.088,3.303,1.125,2.314,5.133,,VVV*06
$GPLLK,001557.00,010125,,M,,M,1,22,1.4,,M*08
$GNGMP,001557.00,,,,,DAAA,22,0.7,,,,*57
$GPGMP,001557.00,,,,,,06,,,,3.0,123*7E
$GLGMP,001557.00,,,,,,04,,,,,*7D
$GAGMP,001557.00,,,,,,05,,,,,*71
$GBGMP,001557.00,,,,,,07,,,,,*70
$PSSN,SNC,[0,260175000,2347]*43
$GPZDA,001602.00,01,01,2025,,*66
$GPDTM,W84,,00.0000000,N,00.0000000,E,00.0000000,W84*5F
$GPRMC,001602.00,A,4742.4459681,N,01617.9730664,E,0.0,,010125,5.1,E,D*16
$GPGLL,4742.4459681,N,01617.9730664,E,001602.00,A,D*67
$GPGGA,001602.00,4742.4459681,N,01617.9730664,E,2,22,0.8,623.4314,M,43.2111,M,2.7,0123*46
$GNGNS,001602.00,4742.4459681,N,01617.9730664,E,DAAA,22,0.8,623.4314,43.2111,,*5F
$GPGNS,001602.00,,,,,,06,,,,2.7,123*7B
$GLGNS,001602.00,,,,,,04,,,,,*7E
$GAGNS,001602.00,,,,,,06,,,,,*71
$GBGNS,001602.00,,,,,,06,,,,,*72
$GPLLQ,001602.00,010125,,M,,M,1,22,5.271,,M*15
$GPVTG,,T,,M,0.01,N,0.01,K,D*26
$GPHDT,,T*1B
$GPTHS,,V*0E
$GPROT,,V*08
$PSSN,HRP,001602.00,010125,,,,,,,00,0,,*64
$PTNL,AVR,001602.00,,Yaw,,Tilt,,,,0,,00*32
$GPGSA,A,3,02,03,17,19,21,32,,,,,,,1.3,0.8,1.1*35
$GPGSA,A,3,68,69,84,85,,,,,,,,,1.3,0.8,1.1*38
$GPGSA,A,3,04,06,10,11,12,36,,,,,,,1.3,0.8,1.1*3D
$GPGSA,A,3,06,20,29,30,32,35,,,,,,,1.3,0.8,1.1*33
$GPGST,001602.00,3.603,2.830,0.923,2.064,2.828,0.928,4.351*55
$GPGBS,001602.00,9.995,3.534,17.620,32,0.0001,-2.240,0.945*44
$GPGRS,001602.00,1,-0.5,1.4,-0.2,4.1,-0.0,-2.2,,,,,,*4C
$GPGRS,001602.00,1,3.3,-2.6,-3.2,-4.0,,,,,,,,*67
$GPGRS,001602.00,1,-0.7,4.2,0.5,-1.5,-1.2,-0.6,,,,,,*4E
$GPGRS,001602.00,1,4.4,-4.1,-1.4,-4.9,-0.1,-6.5,,,,,,*69
$GPGSV,5,1,18,01,87,347,,28,20,093,32,04,16,198,32,31,11,120,*7A
$GPGSV,5,2,18,08,15,182,22,32,30,049,37,17,32,308,47,03,55,267,48*78
$GPGSV,5,3,18,21,64,132,42,02,87,163,44,22,09,293,,19,08,326,38*75
$GPGSV,5,4,18,14,04,273,,10,01,071,,36,35,170,41,34,31,208,*7F
$GPGSV,5,5,18,49,34,195,37,61,03,257,*77
$GLGSV,2,1,08,69,87,205,47,83,21,139,22,70,20,221,,85,34,322,47*67
$GLGSV,2,2,08,68,38,038,46,84,87,077,35,77,07,021,,76,06,338,26*6B
$GAGSV,3,1,10,11,80,093,41,09,34,186,33,12,26,116,35,19,24,044,31*66
$GAGSV,3,2,10,36,45,304,42,06,53,164,42,10,50,113,46,04,63,113,43*68
$GAGSV,3,3,10,30,07,329,33,02,10,281,31*6F
$GBGSV,5,1,17,20,67,222,46,35,16,315,42,57,15,090,,19,18,229,32*6C
$GBGSV,5,2,17,05,24,128,,30,39,163,36,39,26,058,28,06,26,073,37*61
$GBGSV,5,3,17,09,25,088,28,16,26,069,32,48,45,227,,32,51,055,48*61
$GBGSV,5,4,17,29,67,266,52,25,02,034,,13,05,077,,02,08,105,*68
$GBGSV,5,5,17,60,10,109,*52
$GPGGA,001602.00,,,,,0,00,,,M,,M,,*4D
$PTNL,GGK,001602.00,010125,4742.4459681,N,01617.9730664,E,1,22,1.3,EHT666.6424,M*41
$GPGGQ,001602.00,010125,4742.4459681,N,01617.9730664,E,1,22,5.271,623.4314,M*3B
$GPGFA,001602.00,26.904,35.675,2.830,0.923,2.064,4.351,,VVV*0F
$GPLLK,001602.00,010125,,M,,M,1,22,1.6,,M*09
$GNGMP,001602.00,,,,,DAAA,22,0.8,,,,*5B
$GPGMP,001602.00,,,,,,06,,,,2.7,123*7B
$GLGMP,001602.00,,,,,,04,,,,,*7E
$GAGMP,001602.00,,,,,,06,,,,,*71
$GBGMP,001602.00,,,,,,06,,,,,*72
$PSSN,SNC,[0,260180000,2347]*49
$GPZDA,001607.00,01,01,2025,,*63
$GPDTM,W84,,00.0000000,N,00.0000000,E,00.0000000,W84*5F
$GPRMC,001607.00,A,4742.4459738,N,01617.9730764,E,0.0,,010125,5.1,E,D*11
$GPGLL,4742.4459738,N,01617.9730764,E,001607.00,A,D*60
$GPGGA,001607.00,4742.4459738,N,01617.9730764,E,2,21,0.9,623.4301,M,43.2111,M,1.7,0123*44
$GNGNS,001607.00,4742.4459738,N,01617.9730764,E,DAAA,21,0.9,623.4301,43.2111,,*5E
$GPGNS,001607.00,,,,,,06,,,,1.7,123*7D
$GLGNS,001607.00,,,,,,04,,,,,*7B
$GAGNS,001607.00,,,,,,05,,,,,*77
$GBGNS,001607.00,,,,,,06,,,,,*77
$GPLLQ,001607.00,010125,,M,,M,1,21,4.080,,M*1E
$GPVTG,,T,,M,0.01,N,0.02,K,D*25
$GPHDT,,T*1B
$GPTHS,,V*0E
$GPROT,,V*08
$PSSN,HRP,001607.00,010125,,,,,,,00,0,,*61
$PTNL,AVR,001607.00,,Yaw,,Tilt,,,,0,,00*37
$GPGSA,A,3,02,03,17,19,21,32,,,,,,,1.5,0.9,1.2*31
$GPGSA,A,3,68,69,84,85,,,,,,,,,1.5,0.9,1.2*3C
$GPGSA,A,3,04,06,10,11,36,,,,,,,,1.5,0.9,1.2*3A
$GPGSA,A,3,06,20,29,30,32,35,,,,,,,1.5,0.9,1.2*37
$GPGST,001607.00,3.611,2.189,0.719,2.100,2.188,0.723,3.367*58
$GPGBS,001607.00,10.199,3.605,18.971,19,0.0001,3.499,1.949*52
$GPGRS,001607.00,1,-0.7,0.7,-0.9,3.5,0.7,-0.7,,,,,,*6C
$GPGRS,001607.00,1,3.3,-2.5,-4.6,-3.5,,,,,,,,*60
$GPGRS,001607.00,1,-0.9,4.0,0.1,-1.4,-0.8,,,,,,,*4C
$GPGRS,001607.00,1,3.9,-3.0,-1.2,-6.2,-0.8,-5.8,,,,,,*68
$GPGSV,5,1,18,01,88,347,,28,20,093,33,04,16,198,32,31,11,120,*74
$GPGSV,5,2,18,08,15,182,22,32,30,049,38,17,32,308,47,03,55,267,47*78
$GPGSV,5,3,18,21,64,132,42,02,87,163,44,22,09,293,,19,08,326,38*75
$GPGSV,5,4,18,14,04,273,23,10,01,071,,36,35,170,41,34,31,208,*7E
$GPGSV,5,5,18,49,34,195,37,61,03,257,*77
$GLGSV,2,1,08,69,88,205,47,83,21,139,24,70,20,221,,85,34,322,46*6F
$GLGSV,2,2,08,68,38,038,47,84,87,079,36,77,07,020,,76,06,338,27*67
$GAGSV,3,1,10,11,80,093,41,09,34,186,33,12,26,116,35,19,24,044,30*67
$GAGSV,3,2,10,36,45,304,41,06,53,164,40,10,50,113,46,04,63,113,44*6E
$GAGSV,3,3,10,30,07,329,34,02,10,280,31*69
$GBGSV,5,1,17,20,67,222,46,35,16,315,43,57,15,090,,19,18,229,29*67
$GBGSV,5,2,17,05,24,128,,30,39,163,35,39,26,058,28,06,26,073,37*62
$GBGSV,5,3,17,09,25,088,28,16,26,069,32,48,45,227,,32,51,055,48*61
$GBGSV,5,4,17,29,67,266,51,25,02,034,,13,05,077,,02,08,105,*6B
$GBGSV,5,5,17,60,10,109,*52
$GPGGA,001607.00,,,,,0,00,,,M,,M,,*48
$PTNL,GGK,001607.00,010125,4742.4459738,N,01617.9730764,E,1,21,1.5,EHT666.6412,M*46
$GPGGQ,001607.00,010125,4742.4459738,N,01617.9730764,E,1,21,4.080,623.4301,M*36
$GPGFA,001607.00,20.817,27.613,2.189,0.719,2.100,3.367,,VVV*01
$GPLLK,001607.00,010125,,M,,M,1,21,1.8,,M*01
$GNGMP,001607.00,,,,,DAAA,21,0.9,,,,*5C
$GPGMP,001607.00,,,,,,06,,,,1.7,123*7D
$GLGMP,001607.00,,,,,,04,,,,,*7B
$GAGMP,001607.00,,,,,,05,,,,,*77
$GBGMP,001607.00,,,,,,06,,,,,*77
$PSSN,SNC,[0,260185000,2347]*4C
$GPZDA,001612.00,01,01,2025,,*67
$GPDTM,W84,,00.0000000,N,00.0000000,E,00.0000000,W84*5F
$GPRMC,001612.00,A,4742.4459776,N,01617.9730697,E,0.0,,010125,5.1,E,D*12
$GPGLL,4742.4459776,N,01617.9730697,E,001612.00,A,D*63
$GPGGA,001612.00,4742.4459776,N,01617.9730697,E,2,21,0.9,623.4453,M,43.2111,M,2.7,0123*44
$GNGNS,001612.00,4742.4459776,N,01617.9730697,E,DAAA,21,0.9,623.4453,43.2111,,*5D
$GPGNS,001612.00,,,,,,06,,,,2.7,123*7A
$GLGNS,001612.00,,,,,,04,,,,,*7F
$GAGNS,001612.00,,,,,,05,,,,,*73
$GBGNS,001612.00,,,,,,06,,,,,*73
$GPLLQ,001612.00,010125,,M,,M,1,21,4.042,,M*14
$GPVTG,,T,,M,0.00,N,0.01,K,D*27
$GPHDT,,T*1B
$GPTHS,,V*0E
$GPROT,,V*08
$PSSN,HRP,001612.00,010125,,,,,,,00,0,,*65
$PTNL,AVR,001612.00,,Yaw,,Tilt,,,,0,,00*33
$GPGSA,A,3,02,03,17,19,21,32,,,,,,,1.5,0.9,1.2*31
$GPGSA,A,3,68,69,84,85,,,,,,,,,1.5,0.9,1.2*3C
$GPGSA,A,3,04,06,10,11,36,,,,,,,,1.5,0.9,1.2*3A
$GPGSA,A,3,06,20,29,30,32,35,,,,,,,1.5,0.9,1.2*37
$GPGST,001612.00,3.588,2.156,0.708,2.920,2.153,0.716,3.345*57
$GPGBS,001612.00,10.328,3.691,19.208,19,0.0001,3.118,1.953*50
$GPGRS,001612.00,1,-0.8,0.4,-0.9,3.1,1.0,0.1,,,,,,*4D
$GPGRS,001612.00,1,4.5,-2.3,-3.8,-3.1,,,,,,,,*6E
$GPGRS,001612.00,1,-1.4,3.3,-0.6,-1.6,-1.2,,,,,,,*63
$GPGRS,001612.00,1,3.5,-2.7,-1.1,-7.2,-1.4,-5.2,,,,,,*63
$GPGSV,5,1,18,01,88,348,,28,20,093,31,04,16,198,31,31,11,120,*7A
$GPGSV,5,2,18,08,15,182,23,32,30,049,38,17,32,308,46,03,55,267,46*79
$GPGSV,5,3,18,21,64,132,43,02,87,163,44,22,09,293,,19,08,326,37*7B
$GPGSV,5,4,18,14,04,273,27,10,01,071,,36,35,170,41,34,31,208,*7A
$GPGSV,5,5,18,49,34,195,37,61,03,257,*77
$GLGSV,2,1,08,69,88,205,46,83,21,139,23,70,20,221,,85,34,322,46*69
$GLGSV,2,2,08,68,38,038,46,84,87,079,36,77,07,020,,76,06,338,28*69
$GAGSV,3,1,10,11,80,093,42,09,34,186,32,12,26,116,35,19,24,044,30*65
$GAGSV,3,2,10,36,45,304,42,06,53,164,39,10,50,113,46,04,63,113,44*63
$GAGSV,3,3,10,30,07,329,33,02,10,280,30*6F
$GBGSV,5,1,17,20,67,222,47,35,17,315,44,57,15,090,,19,18,229,26*6F
$GBGSV,5,2,17,05,24,128,,30,39,163,35,06,26,073,37,39,26,058,28*62
$GBGSV,5,3,17,09,25,088,28,16,26,069,32,48,45,227,,32,51,055,48*61
$GBGSV,5,4,17,29,67,266,51,02,08,105,,13,05,077,,25,02,034,*6B
$GBGSV,5,5,17,60,10,109,*52
$GPGGA,001612.00,,,,,0,00,,,M,,M,,*4C
$PTNL,GGK,001612.00,010125,4742.4459776,N,01617.9730697,E,1,21,1.5,EHT666.6564,M*45
$GPGGQ,001612.00,010125,4742.4459776,N,01617.9730697,E,1,21,4.042,623.4453,M*3B
$GPGFA,001612.00,20.494,27.430,2.156,0.708,2.920,3.345,,VVV*09
$GPLLK,001612.00,010125,,M,,M,1,21,1.8,,M*05
$GNGMP,001612.00,,,,,DAAA,21,0.9,,,,*58
$GPGMP,001612.00,,,,,,06,,,,2.7,123*7A
$GLGMP,001612.00,,,,,,04,,,,,*7F
$GAGMP,001612.00,,,,,,05,,,,,*73
$GBGMP,001612.00,,,,,,06,,,,,*73
$PSSN,SNC,[0,260190000,2347]*48
$GPZDA,001617.00,01,01,2025,,*62
$GPDTM,W84,,00.0000000,N,00.0000000,E,00.0000000,W84*5F
$GPRMC,001617.00,A,4742.4459827,N,01617.9730651,E,0.0,,010125,5.1,E,D*16
$GPGLL,4742.4459827,N,01617.9730651,E,001617.00,A,D*67
$GPGGA,001617.00,4742.4459827,N,01617.9730651,E,2,20,1.1,623.4520,M,43.2111,M,3.0,0123*4B
$GNGNS,001617.00,4742.4459827,N,01617.9730651,E,DAAA,20,1.1,623.4520,43.2111,,*54
$GPGNS,001617.00,,,,,,06,,,,3.0,123*79
$GLGNS,001617.00,,,,,,04,,,,,*7A
$GAGNS,001617.00,,,,,,05,,,,,*76
$GBGNS,001617.00,,,,,,05,,,,,*75
$GPLLQ,001617.00,010125,,M,,M,1,20,3.300,,M*12
$GPVTG,,T,,M,0.00,N,0.00,K,D*26
$GPHDT,,T*1B
$GPTHS,,V*0E
$GPROT,,V*08
$PSSN,HRP,001617.00,010125,,,,,,,00,0,,*60
$PTNL,AVR,001617.00,,Yaw,,Tilt,,,,0,,00*36
$GPGSA,A,3,02,03,17,19,21,32,,,,,,,1.8,1.1,1.5*32
$GPGSA,A,3,68,69,84,85,,,,,,,,,1.8,1.1,1.5*3F
$GPGSA,A,3,04,06,10,11,36,,,,,,,,1.8,1.1,1.5*39
$GPGSA,A,3,06,20,29,32,35,,,,,,,,1.8,1.1,1.5*37
$GPGST,001617.00,2.944,1.765,0.560,2.638,1.763,0.565,2.731*56
$GPGBS,001617.00,11.184,3.680,20.275,21,0.0001,0.753,0.633*59
$GPGRS,001617.00,1,-0.6,-0.1,-0.3,1.5,0.8,-0.1,,,,,,*46
$GPGRS,001617.00,1,3.8,-2.2,-4.4,-2.5,,,,,,,,*6E
$GPGRS,001617.00,1,-1.7,3.5,-1.1,-1.8,-1.1,,,,,,,*68
$GPGRS,001617.00,1,3.2,-3.1,-1.1,-1.7,-4.5,,,,,,,*65
$GPGSV,5,1,18,01,88,348,,28,20,093,29,04,16,198,31,31,11,120,*73
$GPGSV,5,2,18,08,15,182,24,32,30,049,37,17,32,308,45,03,55,267,44*70
$GPGSV,5,3,18,21,64,132,44,02,86,162,45,22,09,293,,19,08,326,36*7C
$GPGSV,5,4,18,14,04,272,24,10,01,071,,36,35,170,41,34,31,208,*78
$GPGSV,5,5,18,49,34,195,37,61,03,257,*77
$GLGSV,2,1,08,69,88,205,46,83,21,139,31,70,20,221,,85,34,322,46*6A
$GLGSV,2,2,08,68,38,038,46,84,87,081,37,77,07,020,,76,06,338,33*65
$GAGSV,3,1,10,11,80,093,42,09,34,186,30,12,26,116,34,19,24,044,29*6E
$GAGSV,3,2,10,36,45,304,42,06,53,164,38,10,50,113,45,04,63,113,44*61
$GAGSV,3,3,10,30,07,329,33,02,10,280,28*66
$GBGSV,5,1,17,20,68,222,47,35,17,315,45,57,15,090,,19,18,229,26*61
$GBGSV,5,2,17,05,24,128,,30,39,163,35,06,26,073,37,39,26,058,28*62
$GBGSV,5,3,17,09,25,088,28,16,26,069,32,48,45,227,,32,51,055,48*61
$GBGSV,5,4,17,29,67,265,51,02,08,105,,13,05,077,,25,02,034,*68
$GBGSV,5,5,17,60,10,109,*52
$GPGGA,001617.00,,,,,0,00,,,M,,M,,*49
$PTNL,GGK,001617.00,010125,4742.4459827,N,01617.9730651,E,1,20,1.8,EHT666.6631,M*4E
$GPGGQ,001617.00,010125,4742.4459827,N,01617.9730651,E,1,20,3.300,623.4520,M*39
$GPGFA,001617.00,16.782,22.396,1.765,0.560,2.638,2.731,,VVV*0A
$GPLLK,001617.00,010125,,M,,M,1,20,2.2,,M*08
$GNGMP,001617.00,,,,,DAAA,20,1.1,,,,*55
$GPGMP,001617.00,,,,,,06,,,,3.0,123*79
$GLGMP,001617.00,,,,,,04,,,,,*7A
$GAGMP,001617.00,,,,,,05,,,,,*76
$GBGMP,001617.00,,,,,,05,,,,,*75
$PSSN,SNC,[0,260195000,2347]*4D
$GPZDA,001622.00,01,01,2025,,*64
$GPDTM,W84,,00.0000000,N,00.0000000,E,00.0000000,W84*5F
$GPRMC,001622.00,A,4742.4459849,N,01617.9730626,E,0.0,,010125,5.1,E,D*18
$GPGLL,4742.4459849,N,01617.9730626,E,001622.00,A,D*69
$GPGGA,001622.00,4742.4459849,N,01617.9730626,E,2,19,1.1,623.4646,M,43.2111,M,2.4,0123*49
$GNGNS,001622.00,4742.4459849,N,01617.9730626,E,DAAA,19,1.1,623.4646,43.2111,,*53
$GPGNS,001622.00,,,,,,05,,,,2.4,123*79
$GLGNS,001622.00,,,,,,04,,,,,*7C
$GAGNS,001622.00,,,,,,05,,,,,*70
$GBGNS,001622.00,,,,,,05,,,,,*73
$GPLLQ,001622.00,010125,,M,,M,1,19,3.136,,M*19
$GPVTG,,T,,M,0.00,N,0.00,K,D*26
$GPHDT,,T*1B
$GPTHS,,V*0E
$GPROT,,V*08
$PSSN,HRP,001622.00,010125,,,,,,,00,0,,*66
$PTNL,AVR,001622.00,,Yaw,,Tilt,,,,0,,00*30
$GPGSA,A,3,02,03,17,21,32,,,,,,,,2.0,1.1,1.6*32
$GPGSA,A,3,68,69,84,85,,,,,,,,,2.0,1.1,1.6*37
$GPGSA,A,3,04,06,10,11,36,,,,,,,,2.0,1.1,1.6*31
$GPGSA,A,3,06,20,29,32,35,,,,,,,,2.0,1.1,1.6*3F
$GPGST,001622.00,2.635,1.607,0.495,2.519,1.605,0.499,2.647*54
$GPGBS,001622.00,11.524,3.474,23.393,02,0.0001,-0.572,0.576*7D
$GPGRS,001622.00,1,-0.6,0.4,0.2,0.6,-0.5,,,,,,,*64
$GPGRS,001622.00,1,2.5,-2.9,-1.8,-2.4,,,,,,,,*67
$GPGRS,001622.00,1,-1.9,3.5,-1.4,-1.6,-1.1,,,,,,,*6B
$GPGRS,001622.00,1,2.6,-3.4,-0.8,-1.7,-3.8,,,,,,,*61
$GPGSV,5,1,18,01,88,349,,28,20,093,25,04,16,198,29,31,11,120,*77
$GPGSV,5,2,18,08,15,182,22,32,30,049,35,17,32,308,44,03,55,267,43*72
$GPGSV,5,3,18,21,64,132,44,02,86,162,45,22,09,293,,19,08,326,34*7E
$GPGSV,5,4,18,14,04,272,,10,01,071,,36,35,170,40,34,31,208,*7F
$GPGSV,5,5,18,49,34,195,36,61,03,257,*76
$GLGSV,2,1,08,69,88,205,46,83,21,139,21,70,20,221,,85,34,322,45*68
$GLGSV,2,2,08,68,38,038,47,84,87,082,38,77,07,020,,76,06,338,37*6C
$GAGSV,3,1,10,11,80,093,42,09,34,186,30,12,26,116,34,19,24,044,30*66
$GAGSV,3,2,10,36,45,304,41,06,53,163,38,10,50,113,44,04,63,113,44*64
$GAGSV,3,3,10,30,07,329,33,02,10,280,27*69
$GBGSV,5,1,17,20,68,222,47,35,17,315,46,57,15,090,,19,18,229,27*63
$GBGSV,5,2,17,05,24,128,,30,39,163,34,06,26,073,37,39,26,058,29*62
$GBGSV,5,3,17,09,25,088,28,16,26,069,32,48,45,227,,32,51,055,48*61
$GBGSV,5,4,17,29,67,265,51,02,08,105,,13,05,077,,25,02,034,*68
$GBGSV,5,5,17,60,10,109,*52
$GPGGA,001622.00,,,,,0,00,,,M,,M,,*4F
$PTNL,GGK,001622.00,010125,4742.4459849,N,01617.9730626,E,1,19,2.0,EHT666.6757,M*40
$GPGGQ,001622.00,010125,4742.4459849,N,01617.9730626,E,1,19,3.136,623.4646,M*39
$GPGFA,001622.00,15.277,21.706,1.607,0.495,2.519,2.647,,VVV*00
$GPLLK,001622.00,010125,,M,,M,1,19,2.4,,M*02
$GNGMP,001622.00,,,,,DAAA,19,1.1,,,,*59
$GPGMP,001622.00,,,,,,05,,,,2.4,123*79
$GLGMP,001622.00,,,,,,04,,,,,*7C
$GAGMP,001622.00,,,,,,05,,,,,*70
$GBGMP,001622.00,,,,,,05,,,,,*73
$PSSN,SNC,[0,260200000,2347]*42
$GPZDA,001627.00,01,01,2025,,*61
$GPDTM,W84,,00.0000000,N,00.0000000,E,00.0000000,W84*5F
$GPRMC,001627.00,A,4742.4459894,N,01617.9730633,E,0.0,,010125,5.1,E,D*19
$GPGLL,4742.4459894,N,01617.9730633,E,001627.00,A,D*68
$GPGGA,001627.00,4742.4459894,N,01617.9730633,E,2,18,1.1,623.4624,M,43.2111,M,1.5,0123*4F
$GNGNS,001627.00,4742.4459894,N,01617.9730633,E,DAAA,18,1.1,623.4624,43.2111,,*57
$GPGNS,001627.00,,,,,,04,,,,1.5,123*7F
$GLGNS,001627.00,,,,,,04,,,,,*79
$GAGNS,001627.00,,,,,,05,,,,,*75
$GBGNS,001627.00,,,,,,05,,,,,*76
$GPLLQ,001627.00,010125,,M,,M,1,18,4.051,,M*1A
$GPVTG,,T,,M,0.01,N,0.01,K,D*26
$GPHDT,,T*1B
$GPTHS,,V*0E
$GPROT,,V*08
$PSSN,HRP,001627.00,010125,,,,,,,00,0,,*63
$PTNL,AVR,001627.00,,Yaw,,Tilt,,,,0,,00*35
$GPGSA,A,3,02,03,17,21,,,,,,,,,2.0,1.1,1.6*33
$GPGSA,A,3,68,69,84,85,,,,,,,,,2.0,1.1,1.6*37
$GPGSA,A,3,04,06,10,11,36,,,,,,,,2.0,1.1,1.6*31
$GPGSA,A,3,06,20,29,32,35,,,,,,,,2.0,1.1,1.6*3F
$GPGST,001627.00,3.027,2.225,0.967,16.963,2.147,1.130,3.244*65
$GPGBS,001627.00,12.676,8.286,23.084,03,0.0001,0.923,0.636*59
$GPGRS,001627.00,1,-0.7,0.9,-0.6,0.4,,,,,,,,*40
$GPGRS,001627.00,1,3.5,-3.7,-1.9,-3.1,,,,,,,,*69
$GPGRS,001627.00,1,-2.4,3.1,-2.2,-1.4,-1.7,,,,,,,*65
$GPGRS,001627.00,1,2.9,-3.6,-0.9,-1.7,-3.1,,,,,,,*61
$GPGSV,5,1,18,01,88,349,,28,20,093,,04,16,198,29,31,11,120,*70
$GPGSV,5,2,18,08,15,182,24,32,30,049,33,17,32,308,43,03,55,267,43*75
$GPGSV,5,3,18,21,64,132,45,02,86,162,46,22,09,293,,19,08,326,33*7B
$GPGSV,5,4,18,14,04,272,32,10,01,071,,36,35,170,41,34,31,208,*7F
$GPGSV,5,5,18,49,34,195,37,61,03,257,*77
$GLGSV,2,1,08,69,88,205,47,83,21,139,30,70,20,221,,85,34,322,45*69
$GLGSV,2,2,08,68,38,038,49,84,87,083,38,77,07,020,,76,06,338,38*6C
$GAGSV,3,1,10,11,80,093,42,09,34,186,32,12,26,116,34,19,24,044,28*6D
$GAGSV,3,2,10,36,45,304,41,06,53,163,39,10,50,113,43,04,63,113,44*62
$GAGSV,3,3,10,30,07,329,33,02,10,280,28*66
$GBGSV,5,1,17,20,68,222,48,35,17,315,46,57,15,090,,19,18,229,25*6E
$GBGSV,5,2,17,05,24,128,,30,39,163,34,06,26,073,37,39,26,058,29*62
$GBGSV,5,3,17,09,25,088,28,16,26,069,33,48,45,227,,32,51,055,48*60
$GBGSV,5,4,17,29,67,265,50,02,08,105,,13,05,077,,25,02,034,*69
$GBGSV,5,5,17,60,10,109,*52
$GPGGA,001627.00,,,,,0,00,,,M,,M,,*4A
$PTNL,GGK,001627.00,010125,4742.4459894,N,01617.9730633,E,1,18,2.0,EHT666.6735,M*44
$GPGGQ,001627.00,010125,4742.4459894,N,01617.9730633,E,1,18,4.051,623.4624,M*3A
$GPGFA,001627.00,21.152,26.601,2.225,0.967,16.963,3.244,,VVV*32
$GPLLK,001627.00,010125,,M,,M,1,18,2.4,,M*06
$GNGMP,001627.00,,,,,DAAA,18,1.1,,,,*5D
$GPGMP,001627.00,,,,,,04,,,,1.5,123*7F
$GLGMP,001627.00,,,,,,04,,,,,*79
$GAGMP,001627.00,,,,,,05,,,,,*75
$GBGMP,001627.00,,,,,,05,,,,,*76
$PSSN,SNC,[0,260205000,2347]*47
$GPZDA,001632.00,01,01,2025,,*65
$GPDTM,W84,,00.0000000,N,00.0000000,E,00.0000000,W84*5F
$GPRMC,001632.00,A,4742.4459944,N,01617.9730649,E,0.0,,010125,5.1,E,D*1C
$GPGLL,4742.4459944,N,01617.9730649,E,001632.00,A,D*6D
$GPGGA,001632.00,4742.4459944,N,01617.9730649,E,2,18,1.1,623.4717,M,43.2111,M,2.5,0123*48
$GNGNS,001632.00,4742.4459944,N,01617.9730649,E,DAAA,18,1.1,623.4717,43.2111,,*53
$GPGNS,001632.00,,,,,,04,,,,2.5,123*78
$GLGNS,001632.00,,,,,,04,,,,,*7D
$GAGNS,001632.00,,,,,,05,,,,,*71
$GBGNS,001632.00,,,,,,05,,,,,*72
$GPLLQ,001632.00,010125,,M,,M,1,18,4.431,,M*1C
$GPVTG,,T,,M,0.00,N,0.00,K,D*26
$GPHDT,,T*1B
$GPTHS,,V*0E
$GPROT,,V*08
$PSSN,HRP,001632.00,010125,,,,,,,00,0,,*67
$PTNL,AVR,001632.00,,Yaw,,Tilt,,,,0,,00*31
