$GPZDA,135942.00,01,01,2025,,*6B
$GPDTM,W84,,00.0000000,N,00.0000000,E,00.0000000,W84*5F
$GPRMC,135942.00,A,4742.4455948,N,01617.9733377,E,0.0,,010125,5.1,E,D*19
$GPGLL,4742.4455948,N,01617.9733377,E,135942.00,A,D*68
$GPGGA,135942.00,4742.4455948,N,01617.9733377,E,2,23,0.7,626.7342,M,43.2110,M,1.9,0123*4E
$GNGNS,135942.00,4742.4455948,N,01617.9733377,E,DAAA,23,0.7,626.7342,43.2110,,*5A
$GPGNS,135942.00,,,,,,07,,,,1.9,123*7A
$GLGNS,135942.00,,,,,,07,,,,,*70
$GAGNS,135942.00,,,,,,03,,,,,*79
$GBGNS,135942.00,,,,,,06,,,,,*7F
$GPLLQ,135942.00,010125,,M,,M,1,23,4.218,,M*17
$GPVTG,,T,,M,0.00,N,0.01,K,D*27
$GPHDT,,T*1B
$GPTHS,,V*0E
$GPROT,,V*08
$PSSN,HRP,135942.00,010125,,,,,,,00,0,,*69
$PTNL,AVR,135942.00,,Yaw,,Tilt,,,,0,,00*3F
$GPGSA,A,3,11,12,24,25,28,29,32,,,,,,1.2,0.7,1.0*35
$GPGSA,A,3,68,69,77,78,79,87,88,,,,,,1.2,0.7,1.0*38
$GPGSA,A,3,27,30,34,,,,,,,,,,1.2,0.7,1.0*36
$GPGSA,A,3,12,24,25,32,34,44,,,,,,,1.2,0.7,1.0*33
$GPGST,135942.00,6.384,1.767,1.151,14.127,1.737,1.197,3.653*6B
$GPGBS,135942.00,4.941,3.536,9.480,32,0.0001,-3.621,1.332*71
$GPGRS,135942.00,1,0.2,-1.6,-1.4,1.5,0.6,1.7,-3.6,,,,,*44
$GPGRS,135942.00,1,17.4,7.8,-9.9,-4.8,-3.9,7.8,-3.8,,,,,*57
$GPGRS,135942.00,1,-1.7,-1.1,0.3,,,,,,,,,*6D
$GPGRS,135942.00,1,-4.1,0.2,-3.9,-4.0,1.1,-0.5,,,,,,*4A
$GPGSV,4,1,14,25,69,299,38,06,25,048,34,24,27,156,38,32,29,270,35*71
$GPGSV,4,2,14,29,39,217,40,28,26,311,45,11,37,091,39,12,63,072,50*77
$GPGSV,4,3,14,31,01,316,,19,03,047,,36,35,170,36,34,31,208,36*7E
$GPGSV,4,4,14,49,34,195,36,61,03,257,*7A
$GLGSV,3,1,10,78,70,350,44,68,11,250,38,69,22,298,36,79,23,304,40*6F
$GLGSV,3,2,10,87,46,047,40,77,35,102,37,88,52,153,38,86,05,022,*6E
$GLGSV,3,3,10,70,05,358,,81,07,187,*68
$GAGSV,3,1,10,30,78,041,49,15,10,163,,02,27,085,32,29,31,289,27*6A
$GAGSV,3,2,10,07,27,228,31,34,36,116,38,36,29,054,33,27,41,281,44*6B
$GAGSV,3,3,10,18,44,066,,19,10,331,25*6F
$GBGSV,6,1,21,24,66,119,46,11,27,205,,43,18,230,,26,16,121,21*6D
$GBGSV,6,2,21,05,20,130,,10,18,064,29,35,25,047,31,34,39,186,43*6D
$GBGSV,6,3,21,56,25,053,,12,59,149,46,25,55,300,46,44,61,094,38*69
$GBGSV,6,4,21,32,07,323,38,13,03,095,,02,04,108,,38,07,075,*69
$GBGSV,6,5,21,41,07,273,29,07,05,062,,08,04,088,,23,05,299,34*6F
$GBGSV,6,6,21,60,09,110,*57
$GPGGA,135942.00,,,,,0,00,,,M,,M,,*40
$PTNL,GGK,135942.00,010125,4742.4455948,N,01617.9733377,E,1,23,1.2,EHT669.9452,M*4F
$GPGGQ,135942.00,010125,4742.4455948,N,01617.9733377,E,1,23,4.218,626.7342,M*3E
$GPGFA,135942.00,16.805,29.951,1.767,1.151,14.127,3.653,,VVV*36
$GPLLK,135942.00,010125,,M,,M,1,23,1.4,,M*07
$GNGMP,135942.00,,,,,DAAA,23,0.7,,,,*58
$GPGMP,135942.00,,,,,,07,,,,1.9,123*7A
$GLGMP,135942.00,,,,,,07,,,,,*70
$GAGMP,135942.00,,,,,,03,,,,,*79
$GBGMP,135942.00,,,,,,06,,,,,*7F
$PSSN,SNC,[0,309600000,2347]*48
$GPZDA,135947.00,01,01,2025,,*6E
$GPDTM,W84,,00.0000000,N,00.0000000,E,00.0000000,W84*5F
$GPRMC,135947.00,A,4742.4456004,N,01617.9733505,E,0.0,,010125,5.1,E,D*1D
$GPGLL,4742.4456004,N,01617.9733505,E,135947.00,A,D*6C
$GPGGA,135947.00,4742.4456004,N,01617.9733505,E,2,24,0.6,626.7183,M,43.2111,M,2.9,0123*41
$GNGNS,135947.00,4742.4456004,N,01617.9733505,E,DAAA,24,0.6,626.7183,43.2111,,*56
$GPGNS,135947.00,,,,,,08,,,,2.9,123*73
$GLGNS,135947.00,,,,,,07,,,,,*75
$GAGNS,135947.00,,,,,,03,,,,,*7C
$GBGNS,135947.00,,,,,,06,,,,,*7A
$GPLLQ,135947.00,010125,,M,,M,1,24,3.100,,M*18
$GPVTG,,T,,M,0.01,N,0.02,K,D*25
$GPHDT,,T*1B
$GPTHS,,V*0E
$GPROT,,V*08
$PSSN,HRP,135947.00,010125,,,,,,,00,0,,*6C
$PTNL,AVR,135947.00,,Yaw,,Tilt,,,,0,,00*3A
$GPGSA,A,3,06,11,12,24,25,28,29,32,,,,,1.1,0.6,0.9*39
$GPGSA,A,3,68,69,77,78,79,87,88,,,,,,1.1,0.6,0.9*32
$GPGSA,A,3,27,30,34,,,,,,,,,,1.1,0.6,0.9*3C
$GPGSA,A,3,12,24,25,32,34,44,,,,,,,1.1,0.6,0.9*39
$GPGST,135947.00,5.463,1.254,0.948,0.745,1.254,0.948,2.672*59
$GPGBS,135947.00,3.734,2.627,8.230,68,0.0001,19.494,6.869*66
$GPGRS,135947.00,1,-1.5,-0.6,-0.8,-0.5,0.8,0.9,1.9,-2.9,,,,*63
$GPGRS,135947.00,1,19.5,2.1,-6.6,-3.6,-2.7,1.3,2.2,,,,,*7C
$GPGRS,135947.00,1,-1.1,-0.6,0.6,,,,,,,,,*6D
$GPGRS,135947.00,1,-3.1,0.7,-3.1,-3.0,-0.6,-2.2,,,,,,*6C
$GPGSV,4,1,14,25,69,300,38,06,25,048,36,24,27,156,38,32,29,270,37*70
$GPGSV,4,2,14,29,39,217,38,28,27,311,46,11,37,091,40,12,63,072,50*74
$GPGSV,4,3,14,31,01,316,,19,03,047,,36,35,170,36,34,31,208,35*7D
$GPGSV,4,4,14,49,34,195,36,61,03,257,*7A
$GLGSV,3,1,10,78,70,350,44,68,11,250,37,69,22,298,36,79,23,304,41*61
$GLGSV,3,2,10,87,46,047,39,77,35,102,36,88,52,153,39,86,05,022,28*6A
$GLGSV,3,3,10,70,05,358,,81,07,187,*68
$GAGSV,3,1,10,30,78,041,49,15,10,163,,02,27,085,32,29,31,289,39*65
$GAGSV,3,2,10,07,27,228,31,34,36,116,37,36,29,054,34,27,42,281,43*67
$GAGSV,3,3,10,18,43,066,,19,10,331,22*6F
$GBGSV,6,1,21,24,66,119,46,11,27,205,,43,18,230,,05,20,130,*6A
$GBGSV,6,2,21,10,18,064,28,26,15,121,,35,25,047,30,34,39,186,42*6B
$GBGSV,6,3,21,56,25,053,,12,59,149,46,25,55,300,46,44,61,094,36*67
$GBGSV,6,4,21,32,07,323,38,13,03,095,,02,04,108,,38,07,075,*69
$GBGSV,6,5,21,41,07,273,32,07,05,062,,08,04,088,,23,05,299,34*65
$GBGSV,6,6,21,60,09,110,*57
$GPGGA,135947.00,,,,,0,00,,,M,,M,,*45
$PTNL,GGK,135947.00,010125,4742.4456004,N,01617.9733505,E,1,24,1.1,EHT669.9293,M*44
$GPGGQ,135947.00,010125,4742.4456004,N,01617.9733505,E,1,24,3.100,626.7183,M*3F
$GPGFA,135947.00,11.919,21.914,1.254,0.948,0.745,2.672,,VVV*00
$GPLLK,135947.00,010125,,M,,M,1,24,1.3,,M*02
$GNGMP,135947.00,,,,,DAAA,24,0.6,,,,*5B
$GPGMP,135947.00,,,,,,08,,,,2.9,123*73
$GLGMP,135947.00,,,,,,07,,,,,*75
$GAGMP,135947.00,,,,,,03,,,,,*7C
$GBGMP,135947.00,,,,,,06,,,,,*7A
$PSSN,SNC,[0,309605000,2347]*4D
$GPZDA,135952.00,01,01,2025,,*6A
$GPDTM,W84,,00.0000000,N,00.0000000,E,00.0000000,W84*5F
$GPRMC,135952.00,A,4742.4456025,N,01617.9733654,E,0.0,,010125,5.1,E,D*1D
$GPGLL,4742.4456025,N,01617.9733654,E,135952.00,A,D*6C
$GPGGA,135952.00,4742.4456025,N,01617.9733654,E,2,24,0.6,626.7164,M,43.2110,M,2.7,0123*47
$GNGNS,135952.00,4742.4456025,N,01617.9733654,E,DAAA,24,0.6,626.7164,43.2110,,*5E
$GPGNS,135952.00,,,,,,07,,,,2.7,123*76
$GLGNS,135952.00,,,,,,06,,,,,*70
$GAGNS,135952.00,,,,,,05,,,,,*7E
$GBGNS,135952.00,,,,,,06,,,,,*7E
$GPLLQ,135952.00,010125,,M,,M,1,24,2.517,,M*1F
$GPVTG,,T,,M,0.00,N,0.01,K,D*27
$GPHDT,,T*1B
$GPTHS,,V*0E
$GPROT,,V*08
$PSSN,HRP,135952.00,010125,,,,,,,00,0,,*68
$PTNL,AVR,135952.00,,Yaw,,Tilt,,,,0,,00*3E
$GPGSA,A,3,11,12,24,25,28,29,32,,,,,,1.2,0.6,1.0*34
$GPGSA,A,3,68,69,78,79,87,88,,,,,,,1.2,0.6,1.0*39
$GPGSA,A,3,27,29,30,34,36,,,,,,,,1.2,0.6,1.0*39
$GPGSA,A,3,12,24,25,32,34,44,,,,,,,1.2,0.6,1.0*32
$GPGST,135952.00,4.355,1.057,0.694,14.469,1.038,0.722,2.177*61
$GPGBS,135952.00,4.857,3.548,9.553,68,0.0001,14.187,6.875*60
$GPGRS,135952.00,1,-0.5,-0.6,-0.5,1.4,0.9,0.0,0.3,,,,,*4D
$GPGRS,135952.00,1,14.2,-1.7,-4.9,-0.6,-3.7,-4.0,,,,,,*50
$GPGRS,135952.00,1,-1.5,-2.8,-0.7,0.5,-2.4,,,,,,,*63
$GPGRS,135952.00,1,-3.4,0.0,-2.9,-3.3,-1.8,-3.1,,,,,,*6D
$GPGSV,4,1,14,25,69,300,37,06,25,048,32,24,27,156,37,32,29,270,40*74
$GPGSV,4,2,14,29,39,217,36,28,27,311,46,11,37,091,42,12,63,072,51*79
$GPGSV,4,3,14,31,01,316,,19,03,047,,36,35,170,36,34,31,208,36*7E
$GPGSV,4,4,14,49,34,195,36,61,03,257,*7A
$GLGSV,3,1,10,78,70,350,43,68,11,250,36,69,22,298,37,79,23,304,42*65
$GLGSV,3,2,10,87,46,047,37,77,35,102,32,88,52,153,42,86,05,022,23*67
$GLGSV,3,3,10,70,05,358,,81,07,187,*68
$GAGSV,3,1,10,30,78,041,49,15,10,163,,02,27,085,33,29,31,289,39*64
$GAGSV,3,2,10,07,27,228,31,34,36,116,36,36,29,054,36,27,42,281,42*65
$GAGSV,3,3,10,18,43,066,,19,10,331,19*67
$GBGSV,6,1,21,24,66,119,46,11,27,205,,43,18,230,,05,20,130,*6A
$GBGSV,6,2,21,10,18,064,28,26,15,121,,35,25,047,30,34,39,186,41*68
$GBGSV,6,3,21,56,25,053,,12,59,149,46,25,55,300,46,44,61,093,37*61
$GBGSV,6,4,21,32,07,323,39,13,03,095,,02,04,108,,38,07,075,*68
$GBGSV,6,5,21,41,07,273,33,07,05,062,,08,04,088,,23,05,299,34*64
$GBGSV,6,6,21,60,09,110,*57
$GPGGA,135952.00,,,,,0,00,,,M,,M,,*41
$PTNL,GGK,135952.00,010125,4742.4456025,N,01617.9733654,E,1,24,1.2,EHT669.9274,M*4E
$GPGGQ,135952.00,010125,4742.4456025,N,01617.9733654,E,1,24,2.517,626.7164,M*35
$GPGFA,135952.00,10.053,17.848,1.057,0.694,14.469,2.177,,VVV*3A
$GPLLK,135952.00,010125,,M,,M,1,24,1.4,,M*01
$GNGMP,135952.00,,,,,DAAA,24,0.6,,,,*5F
$GPGMP,135952.00,,,,,,07,,,,2.7,123*76
$GLGMP,135952.00,,,,,,06,,,,,*70
$GAGMP,135952.00,,,,,,05,,,,,*7E
$GBGMP,135952.00,,,,,,06,,,,,*7E
$PSSN,SNC,[0,309610000,2347]*49
$GPZDA,135957.00,01,01,2025,,*6F
$GPDTM,W84,,00.0000000,N,00.0000000,E,00.0000000,W84*5F
$GPRMC,135957.00,A,4742.4455972,N,01617.9733730,E,0.0,,010125,5.1,E,D*13
$GPGLL,4742.4455972,N,01617.9733730,E,135957.00,A,D*62
$GPGGA,135957.00,4742.4455972,N,01617.9733730,E,2,21,0.7,626.7176,M,43.2110,M,2.4,0123*4D
$GNGNS,135957.00,4742.4455972,N,01617.9733730,E,DAAA,21,0.7,626.7176,43.2110,,*57
$GPGNS,135957.00,,,,,,05,,,,2.4,123*72
$GLGNS,135957.00,,,,,,06,,,,,*75
$GAGNS,135957.00,,,,,,04,,,,,*7A
$GBGNS,135957.00,,,,,,06,,,,,*7B
$GPLLQ,135957.00,010125,,M,,M,1,21,2.948,,M*19
$GPVTG,,T,,M,0.00,N,0.00,K,D*26
$GPHDT,,T*1B
$GPTHS,,V*0E
$GPROT,,V*08
$PSSN,HRP,135957.00,010125,,,,,,,00,0,,*6D
$PTNL,AVR,135957.00,,Yaw,,Tilt,,,,0,,00*3B
$GPGSA,A,3,11,12,25,28,32,,,,,,,,1.3,0.7,1.0*39
$GPGSA,A,3,68,69,78,79,87,88,,,,,,,1.3,0.7,1.0*39
$GPGSA,A,3,27,30,34,36,,,,,,,,,1.3,0.7,1.0*32
$GPGSA,A,3,12,24,25,32,34,44,,,,,,,1.3,0.7,1.0*32
$GPGST,135957.00,4.141,1.779,0.728,11.822,1.748,0.801,2.235*63
$GPGBS,135957.00,12.817,3.952,11.214,68,0.0001,10.551,6.870*62
$GPGRS,135957.00,1,1.3,-0.6,0.1,0.4,0.9,,,,,,,*49
$GPGRS,135957.00,1,10.6,-1.2,-6.0,1.7,-4.6,-5.4,,,,,,*75
$GPGRS,135957.00,1,-1.6,-0.8,-0.1,-2.7,,,,,,,,*49
$GPGRS,135957.00,1,-3.2,-0.2,-3.0,-1.7,-1.6,-0.4,,,,,,*47
$GPGSV,4,1,14,25,69,300,37,06,25,048,32,24,27,156,35,32,29,270,43*75
$GPGSV,4,2,14,29,39,217,34,28,27,311,46,11,37,091,41,12,63,073,50*78
$GPGSV,4,3,14,31,02,316,,19,03,047,,36,35,170,36,34,31,208,36*7D
$GPGSV,4,4,14,49,34,195,37,61,03,257,*7B
$GLGSV,3,1,10,78,70,350,42,68,11,250,35,69,22,298,39,79,23,304,45*6E
$GLGSV,3,2,10,87,45,047,35,77,35,102,29,88,52,153,41,86,05,022,20*6C
$GLGSV,3,3,10,70,05,358,,81,07,187,*68
$GAGSV,3,1,10,30,78,041,49,15,10,163,,02,27,085,32,29,31,289,31*6D
$GAGSV,3,2,10,07,27,228,30,34,36,116,36,36,29,054,38,27,42,281,43*6B
$GAGSV,3,3,10,18,43,066,,19,10,331,22*6F
$GBGSV,6,1,21,24,66,119,46,11,27,205,,43,18,230,,05,20,130,*6A
$GBGSV,6,2,21,10,18,064,28,26,15,121,,35,25,047,30,34,39,186,40*69
$GBGSV,6,3,21,56,25,053,,12,59,149,46,25,55,300,46,44,61,093,39*6F
$GBGSV,6,4,21,32,07,323,38,13,03,095,,02,04,108,,38,07,075,*69
$GBGSV,6,5,21,41,06,273,34,07,05,062,,08,04,088,,23,05,299,34*62
$GBGSV,6,6,21,60,09,110,*57
$GPGGA,135957.00,,,,,0,00,,,M,,M,,*44
$PTNL,GGK,135957.00,010125,4742.4455972,N,01617.9733730,E,1,21,1.3,EHT669.9287,M*48
$GPGGQ,135957.00,010125,4742.4455972,N,01617.9733730,E,1,21,2.948,626.7176,M*3B
$GPGFA,135957.00,16.919,18.329,1.779,0.728,11.822,2.235,,VVV*33
$GPLLK,135957.00,010125,,M,,M,1,21,1.5,,M*00
$GNGMP,135957.00,,,,,DAAA,21,0.7,,,,*5E
$GPGMP,135957.00,,,,,,05,,,,2.4,123*72
$GLGMP,135957.00,,,,,,06,,,,,*75
$GAGMP,135957.00,,,,,,04,,,,,*7A
$GBGMP,135957.00,,,,,,06,,,,,*7B
$PSSN,SNC,[0,309615000,2347]*4C
$GPZDA,140002.00,01,01,2025,,*64
$GPDTM,W84,,00.0000000,N,00.0000000,E,00.0000000,W84*5F
$GPRMC,140002.00,A,4742.4455968,N,01617.9733739,E,0.0,,010125,5.1,E,D*1A
$GPGLL,4742.4455968,N,01617.9733739,E,140002.00,A,D*6B
$GPGGA,140002.00,4742.4455968,N,01617.9733739,E,2,21,0.7,626.7353,M,43.2110,M,1.8,0123*4E
$GNGNS,140002.00,4742.4455968,N,01617.9733739,E,DAAA,21,0.7,626.7353,43.2110,,*5B
$GPGNS,140002.00,,,,,,06,,,,1.8,123*75
$GLGNS,140002.00,,,,,,05,,,,,*7D
$GAGNS,140002.00,,,,,,04,,,,,*71
$GBGNS,140002.00,,,,,,06,,,,,*70
$GPLLQ,140002.00,010125,,M,,M,1,21,3.219,,M*1C
$GPVTG,,T,,M,0.00,N,0.01,K,D*27
$GPHDT,,T*1B
$GPTHS,,V*0E
$GPROT,,V*08
$PSSN,HRP,140002.00,010125,,,,,,,00,0,,*66
$PTNL,AVR,140002.00,,Yaw,,Tilt,,,,0,,00*30
$GPGSA,A,3,06,11,12,25,28,32,,,,,,,1.3,0.7,1.1*3E
$GPGSA,A,3,69,78,79,87,88,,,,,,,,1.3,0.7,1.1*36
$GPGSA,A,3,27,30,34,36,,,,,,,,,1.3,0.7,1.1*33
$GPGSA,A,3,12,24,25,32,34,44,,,,,,,1.3,0.7,1.1*33
$GPGST,140002.00,3.247,2.178,0.749,2.301,2.177,0.754,2.248*5D
$GPGBS,140002.00,8.447,3.171,9.778,06,0.0001,3.055,1.585*5F
$GPGRS,140002.00,1,3.1,0.2,-1.2,-0.1,0.3,1.4,,,,,,*4D
$GPGRS,140002.00,1,-1.5,-5.0,2.5,-4.3,-5.5,,,,,,,*66
$GPGRS,140002.00,1,-1.2,-1.0,-0.4,-2.0,,,,,,,,*4D
$GPGRS,140002.00,1,-2.7,-1.1,-3.1,-5.2,-0.7,1.0,,,,,,*62
$GPGSV,4,1,14,25,69,300,37,06,25,048,36,24,27,156,32,32,29,270,43*76
$GPGSV,4,2,14,29,39,217,32,28,27,311,46,11,37,091,39,12,63,073,49*79
$GPGSV,4,3,14,31,02,316,,19,03,047,,36,35,170,36,34,31,208,36*7D
$GPGSV,4,4,14,49,34,195,36,61,03,257,*7A
$GLGSV,3,1,10,78,70,350,43,68,11,250,34,69,22,298,41,79,23,304,47*63
$GLGSV,3,2,10,87,45,047,37,77,35,102,28,88,52,153,42,86,05,022,*6E
$GLGSV,3,3,10,70,05,358,,81,07,187,*68
$GAGSV,3,1,10,30,78,041,49,15,10,163,,02,27,085,32,29,31,289,28*65
$GAGSV,3,2,10,07,27,228,31,34,36,116,36,36,29,054,39,27,42,281,43*6B
$GAGSV,3,3,10,18,43,066,,19,10,331,22*6F
$GBGSV,6,1,21,24,66,120,45,11,27,205,,43,18,230,,05,20,130,*63
$GBGSV,6,2,21,10,18,064,27,26,15,121,29,35,25,047,29,34,39,186,39*6B
$GBGSV,6,3,21,56,25,053,,12,59,149,46,25,55,300,46,44,61,093,40*61
$GBGSV,6,4,21,32,07,323,36,13,03,095,,02,04,108,,38,07,075,*67
$GBGSV,6,5,21,41,06,273,33,07,05,062,,08,04,088,,23,05,299,34*65
$GBGSV,6,6,21,60,09,110,*57
$GPGGA,140002.00,,,,,0,00,,,M,,M,,*4F
$PTNL,GGK,140002.00,010125,4742.4455968,N,01617.9733739,E,1,21,1.3,EHT669.9463,M*4D
$GPGGQ,140002.00,010125,4742.4455968,N,01617.9733739,E,1,21,3.219,626.7353,M*39
$GPGFA,140002.00,20.710,18.433,2.178,0.749,2.301,2.248,,VVV*07
$GPLLK,140002.00,010125,,M,,M,1,21,1.6,,M*08
$GNGMP,140002.00,,,,,DAAA,21,0.7,,,,*55
$GPGMP,140002.00,,,,,,06,,,,1.8,123*75
$GLGMP,140002.00,,,,,,05,,,,,*7D
$GAGMP,140002.00,,,,,,04,,,,,*71
$GBGMP,140002.00,,,,,,06,,,,,*70
$PSSN,SNC,[0,309620000,2347]*4A
$GPZDA,140007.00,01,01,2025,,*61
$GPDTM,W84,,00.0000000,N,00.0000000,E,00.0000000,W84*5F
$GPRMC,140007.00,A,4742.4455933,N,01617.9733735,E,0.0,,010125,5.1,E,D*1D
$GPGLL,4742.4455933,N,01617.9733735,E,140007.00,A,D*6C
$GPGGA,140007.00,4742.4455933,N,01617.9733735,E,2,20,0.8,626.7531,M,43.2110,M,2.8,0123*46
$GNGNS,140007.00,4742.4455933,N,01617.9733735,E,DAAA,20,0.8,626.7531,43.2110,,*50
$GPGNS,140007.00,,,,,,05,,,,2.8,123*70
$GLGNS,140007.00,,,,,,05,,,,,*78
$GAGNS,140007.00,,,,,,05,,,,,*75
$GBGNS,140007.00,,,,,,05,,,,,*76
$GPLLQ,140007.00,010125,,M,,M,1,20,2.650,,M*10
$GPVTG,,T,,M,0.01,N,0.01,K,D*26
$GPHDT,,T*1B
$GPTHS,,V*0E
$GPROT,,V*08
$PSSN,HRP,140007.00,010125,,,,,,,00,0,,*63
$PTNL,AVR,140007.00,,Yaw,,Tilt,,,,0,,00*35
$GPGSA,A,3,11,12,25,28,32,,,,,,,,1.4,0.8,1.2*33
$GPGSA,A,3,69,78,79,87,88,,,,,,,,1.4,0.8,1.2*3D
$GPGSA,A,3,27,29,30,34,36,,,,,,,,1.4,0.8,1.2*33
$GPGSA,A,3,12,24,32,34,44,,,,,,,,1.4,0.8,1.2*3F
$GPGST,140007.00,3.670,1.926,0.573,7.355,1.911,0.619,1.728*54
$GPGBS,140007.00,13.241,3.916,11.450,88,0.0001,-5.952,6.159*78
$GPGRS,140007.00,1,1.1,-0.7,-0.3,0.4,0.2,,,,,,,*60
$GPGRS,140007.00,1,1.6,-3.3,3.1,-1.9,-6.0,,,,,,,*44
$GPGRS,140007.00,1,-1.0,-3.3,-0.6,0.2,-2.4,,,,,,,*61
$GPGRS,140007.00,1,-2.0,-2.3,-9.1,0.4,0.3,,,,,,,*43
$GPGSV,4,1,14,25,69,300,36,06,25,048,35,24,27,156,28,32,29,270,40*7C
$GPGSV,4,2,14,29,39,217,31,28,27,311,46,11,37,091,37,12,63,073,48*75
$GPGSV,4,3,14,31,02,316,,19,03,047,,36,35,170,36,34,31,208,36*7D
$GPGSV,4,4,14,49,34,195,37,61,03,257,*7B
$GLGSV,3,1,10,78,70,350,45,68,11,250,32,69,22,298,43,79,23,304,48*6E
$GLGSV,3,2,10,87,45,047,39,77,35,102,27,88,52,153,41,86,05,022,*6C
$GLGSV,3,3,10,70,05,358,,81,07,187,*68
$GAGSV,3,1,10,30,78,041,49,15,10,163,,02,27,085,30,29,31,289,38*66
$GAGSV,3,2,10,07,27,228,32,34,36,116,37,36,29,054,39,27,42,281,42*68
$GAGSV,3,3,10,18,43,066,,19,10,331,24*69
$GBGSV,6,1,21,24,66,120,45,11,27,205,,43,18,230,,26,15,121,29*6F
$GBGSV,6,2,21,05,20,130,,35,25,047,28,10,18,064,27,34,39,186,39*66
$GBGSV,6,3,21,56,25,053,,12,59,149,47,25,55,300,29,44,61,093,40*69
$GBGSV,6,4,21,32,07,323,37,13,03,095,,02,04,108,,38,07,075,*66
$GBGSV,6,5,21,41,06,273,34,07,05,062,,08,04,088,,23,05,299,33*65
$GBGSV,6,6,21,60,09,110,*57
$GPGGA,140007.00,,,,,0,00,,,M,,M,,*4A
$PTNL,GGK,140007.00,010125,4742.4455933,N,01617.9733735,E,1,20,1.4,EHT669.9641,M*4E
$GPGGQ,140007.00,010125,4742.4455933,N,01617.9733735,E,1,20,2.650,626.7531,M*35
$GPGFA,140007.00,18.311,14.173,1.926,0.573,7.355,1.728,,VVV*0E
$GPLLK,140007.00,010125,,M,,M,1,20,1.7,,M*0D
$GNGMP,140007.00,,,,,DAAA,20,0.8,,,,*5E
$GPGMP,140007.00,,,,,,05,,,,2.8,123*70
$GLGMP,140007.00,,,,,,05,,,,,*78
$GAGMP,140007.00,,,,,,05,,,,,*75
$GBGMP,140007.00,,,,,,05,,,,,*76
$PSSN,SNC,[0,309625000,2347]*4F
$GPZDA,140012.00,01,01,2025,,*65
$GPDTM,W84,,00.0000000,N,00.0000000,E,00.0000000,W84*5F
$GPRMC,140012.00,A,4742.4455907,N,01617.9733656,E,0.0,,010125,5.1,E,D*1A
$GPGLL,4742.4455907,N,01617.9733656,E,140012.00,A,D*6B
$GPGGA,140012.00,4742.4455907,N,01617.9733656,E,2,21,0.8,626.7559,M,43.2110,M,3.0,0123*47
$GNGNS,140012.00,4742.4455907,N,01617.9733656,E,DAAA,21,0.8,626.7559,43.2110,,*58
$GPGNS,140012.00,,,,,,05,,,,3.0,123*7D
$GLGNS,140012.00,,,,,,05,,,,,*7C
$GAGNS,140012.00,,,,,,05,,,,,*71
$GBGNS,140012.00,,,,,,06,,,,,*71
$GPLLQ,140012.00,010125,,M,,M,1,21,5.568,,M*1A
$GPVTG,,T,,M,0.02,N,0.03,K,D*27
$GPHDT,,T*1B
$GPTHS,,V*0E
$GPROT,,V*08
$PSSN,HRP,140012.00,010125,,,,,,,00,0,,*67
$PTNL,AVR,140012.00,,Yaw,,Tilt,,,,0,,00*31
$GPGSA,A,3,11,12,25,28,32,,,,,,,,1.4,0.8,1.1*30
$GPGSA,A,3,69,78,79,87,88,,,,,,,,1.4,0.8,1.1*3E
$GPGSA,A,3,27,29,30,34,36,,,,,,,,1.4,0.8,1.1*30
$GPGSA,A,3,12,24,25,32,34,44,,,,,,,1.4,0.8,1.1*3B
$GPGST,140012.00,6.636,4.045,1.215,7.318,4.015,1.310,3.629*56
$GPGBS,140012.00,13.093,3.987,11.627,88,0.0001,-21.211,6.166*4D
$GPGRS,140012.00,1,0.8,0.3,0.8,0.4,-4.3,,,,,,,*4B
$GPGRS,140012.00,1,7.7,-2.2,2.6,-0.6,-21.2,,,,,,,*78
$GPGRS,140012.00,1,-0.9,-2.6,0.1,1.3,-2.0,,,,,,,*47
$GPGRS,140012.00,1,-1.5,-3.0,-2.5,-6.6,1.2,-1.2,,,,,,*65
$GPGSV,4,1,14,25,69,300,39,06,25,048,36,24,27,156,24,32,29,270,38*73
$GPGSV,4,2,14,29,39,217,31,28,27,311,45,11,37,091,37,12,63,073,48*76
$GPGSV,4,3,14,31,02,316,34,19,03,047,,36,35,170,36,34,31,208,36*7A
$GPGSV,4,4,14,49,34,195,36,61,03,257,*7A
$GLGSV,3,1,10,78,70,350,45,68,10,250,32,69,22,298,42,79,23,304,49*6F
$GLGSV,3,2,10,87,45,047,37,77,35,102,21,88,52,153,38,86,05,022,25*6D
$GLGSV,3,3,10,70,05,358,,81,07,187,*68
$GAGSV,3,1,10,30,78,041,49,19,10,331,25,02,27,085,29,15,10,163,*60
$GAGSV,3,2,10,36,29,053,39,29,31,289,38,07,27,227,32,34,36,116,38*60
$GAGSV,3,3,10,18,43,066,,27,42,281,42*69
$GBGSV,6,1,21,24,66,120,44,11,27,205,,43,18,230,,26,15,121,29*6E
$GBGSV,6,2,21,05,20,130,,35,25,047,,10,18,064,27,34,39,186,38*6D
$GBGSV,6,3,21,56,25,053,,12,59,149,47,25,55,300,45,44,61,093,39*6D
$GBGSV,6,4,21,32,07,323,38,13,03,095,,02,04,108,,38,07,075,*69
$GBGSV,6,5,21,41,06,273,34,07,05,062,,08,04,088,,23,05,299,*65
$GBGSV,6,6,21,60,09,110,*57
$GPGGA,140012.00,,,,,0,00,,,M,,M,,*4E
$PTNL,GGK,140012.00,010125,4742.4455907,N,01617.9733656,E,1,21,1.4,EHT669.9669,M*42
$GPGGQ,140012.00,010125,4742.4455907,N,01617.9733656,E,1,21,5.568,626.7559,M*32
$GPGFA,140012.00,38.454,29.758,4.045,1.215,7.318,3.629,,VVV*0B
$GPLLK,140012.00,010125,,M,,M,1,21,1.6,,M*09
$GNGMP,140012.00,,,,,DAAA,21,0.8,,,,*5B
$GPGMP,140012.00,,,,,,05,,,,3.0,123*7D
$GLGMP,140012.00,,,,,,05,,,,,*7C
$GAGMP,140012.00,,,,,,05,,,,,*71
$GBGMP,140012.00,,,,,,06,,,,,*71
$PSSN,SNC,[0,309630000,2347]*4B
$GPZDA,140017.00,01,01,2025,,*60
$GPDTM,W84,,00.0000000,N,00.0000000,E,00.0000000,W84*5F
$GPRMC,140017.00,A,4742.4455864,N,01617.9733651,E,0.0,,010125,5.1,E,D*1C
$GPGLL,4742.4455864,N,01617.9733651,E,140017.00,A,D*6D
$GPGGA,140017.00,4742.4455864,N,01617.9733651,E,2,20,0.9,626.7418,M,43.2110,M,2.4,0123*40
$GNGNS,140017.00,4742.4455864,N,01617.9733651,E,DAAA,20,0.9,626.7418,43.2110,,*5A
$GPGNS,140017.00,,,,,,05,,,,2.4,123*7D
$GLGNS,140017.00,,,,,,05,,,,,*79
$GAGNS,140017.00,,,,,,05,,,,,*74
$GBGNS,140017.00,,,,,,05,,,,,*77
$GPLLQ,140017.00,010125,,M,,M,1,20,4.834,,M*1B
$GPVTG,,T,,M,0.00,N,0.01,K,D*27
$GPHDT,,T*1B
$GPTHS,,V*0E
$GPROT,,V*08
$PSSN,HRP,140017.00,010125,,,,,,,00,0,,*62
$PTNL,AVR,140017.00,,Yaw,,Tilt,,,,0,,00*34
$GPGSA,A,3,11,12,25,28,32,,,,,,,,1.5,0.9,1.2*33
$GPGSA,A,3,69,78,79,87,88,,,,,,,,1.5,0.9,1.2*3D
$GPGSA,A,3,27,29,30,34,36,,,,,,,,1.5,0.9,1.2*33
$GPGSA,A,3,12,24,25,32,44,,,,,,,,1.5,0.9,1.2*3F
$GPGST,140017.00,3.822,3.436,0.995,7.193,3.411,1.077,3.252*54
$GPGBS,140017.00,13.733,3.937,11.441,32,0.0001,-3.695,1.314*75
$GPGRS,140017.00,1,-0.8,0.3,1.4,-0.1,-3.7,,,,,,,*45
$GPGRS,140017.00,1,8.4,-2.9,2.4,-1.7,-5.7,,,,,,,*4B
$GPGRS,140017.00,1,-1.3,-2.3,-0.0,1.8,-2.4,,,,,,,*6F
$GPGRS,140017.00,1,-0.3,-4.0,-2.9,-2.7,-2.1,,,,,,,*44
$GPGSV,4,1,14,25,69,300,41,06,25,048,37,24,27,156,28,32,29,270,40*7E
$GPGSV,4,2,14,29,39,217,32,28,27,311,44,11,37,091,38,12,62,073,49*7B
$GPGSV,4,3,14,31,02,316,36,19,03,047,,36,35,170,36,34,31,208,36*78
$GPGSV,4,4,14,49,34,195,37,61,03,257,*7B
$GLGSV,3,1,10,78,70,351,45,68,10,250,,69,22,298,41,79,23,305,50*65
$GLGSV,3,2,10,87,45,047,35,77,35,102,,88,52,153,39,86,05,022,26*6E
$GLGSV,3,3,10,70,05,358,,81,07,187,*68
$GAGSV,3,1,10,30,78,042,49,19,10,331,26,02,27,085,30,15,10,163,*68
$GAGSV,3,2,10,36,29,053,39,29,31,289,38,07,27,227,33,34,36,116,39*60
$GAGSV,3,3,10,18,43,066,,27,42,281,43*68
$GBGSV,6,1,21,24,66,120,43,11,27,205,,43,18,230,,26,15,121,29*69
$GBGSV,6,2,21,05,20,130,,35,24,047,26,10,18,064,26,34,39,186,35*64
$GBGSV,6,3,21,56,25,053,,12,59,149,47,25,55,300,45,44,61,093,38*6C
$GBGSV,6,4,21,32,07,323,39,13,03,095,,02,04,108,,38,07,075,*68
$GBGSV,6,5,21,41,06,273,35,07,05,062,,08,04,088,,23,05,300,30*66
$GBGSV,6,6,21,60,09,110,*57
$GPGGA,140017.00,,,,,0,00,,,M,,M,,*4B
$PTNL,GGK,140017.00,010125,4742.4455864,N,01617.9733651,E,1,20,1.5,EHT669.9529,M*43
$GPGGQ,140017.00,010125,4742.4455864,N,01617.9733651,E,1,20,4.834,626.7418,M*34
$GPGFA,140017.00,32.667,26.667,3.436,0.995,7.193,3.252,,VVV*08
$GPLLK,140017.00,010125,,M,,M,1,20,1.8,,M*03
$GNGMP,140017.00,,,,,DAAA,20,0.9,,,,*5E
$GPGMP,140017.00,,,,,,05,,,,2.4,123*7D
$GLGMP,140017.00,,,,,,05,,,,,*79
$GAGMP,140017.00,,,,,,05,,,,,*74
$GBGMP,140017.00,,,,,,05,,,,,*77
$PSSN,SNC,[0,309635000,2347]*4E
$GPZDA,140022.00,01,01,2025,,*66
$GPDTM,W84,,00.0000000,N,00.0000000,E,00.0000000,W84*5F
$GPRMC,140022.00,A,4742.4455851,N,01617.9733726,E,0.0,,010125,5.1,E,D*1D
$GPGLL,4742.4455851,N,01617.9733726,E,140022.00,A,D*6C
$GPGGA,140022.00,4742.4455851,N,01617.9733726,E,2,20,0.9,626.7403,M,43.2110,M,1.8,0123*44
$GNGNS,140022.00,4742.4455851,N,01617.9733726,E,DAAA,20,0.9,626.7403,43.2110,,*51
$GPGNS,140022.00,,,,,,06,,,,1.8,123*77
$GLGNS,140022.00,,,,,,04,,,,,*7E
$GAGNS,140022.00,,,,,,05,,,,,*72
$GBGNS,140022.00,,,,,,05,,,,,*71
$GPLLQ,140022.00,010125,,M,,M,1,20,3.332,,M*17
$GPVTG,,T,,M,0.01,N,0.02,K,D*25
$GPHDT,,T*1B
$GPTHS,,V*0E
$GPROT,,V*08
$PSSN,HRP,140022.00,010125,,,,,,,00,0,,*64
$PTNL,AVR,140022.00,,Yaw,,Tilt,,,,0,,00*32
$GPGSA,A,3,06,11,12,25,28,32,,,,,,,1.5,0.9,1.2*35
$GPGSA,A,3,69,78,79,88,,,,,,,,,1.5,0.9,1.2*32
$GPGSA,A,3,27,29,30,34,36,,,,,,,,1.5,0.9,1.2*33
$GPGSA,A,3,12,24,25,32,44,,,,,,,,1.5,0.9,1.2*3F
$GPGST,140022.00,3.138,2.282,0.768,2.230,2.281,0.772,2.303*52
$GPGBS,140022.00,9.065,3.190,9.849,32,0.0001,3.706,1.323*56
$GPGRS,140022.00,1,1.6,-0.5,-0.5,0.5,-0.7,3.7,,,,,,*67
$GPGRS,140022.00,1,1.2,-4.5,2.3,-1.1,,,,,,,,*48
$GPGRS,140022.00,1,-1.7,-2.6,-1.1,1.4,-3.5,,,,,,,*64
$GPGRS,140022.00,1,-1.9,-5.0,-4.1,-0.5,-3.3,,,,,,,*45
$GPGSV,4,1,14,25,69,300,42,06,25,048,36,24,27,156,31,32,29,270,43*77
$GPGSV,4,2,14,29,39,217,27,28,27,311,43,11,37,090,38,12,62,073,50*71
$GPGSV,4,3,14,31,02,316,34,19,03,047,,36,35,170,36,34,31,208,36*7A
$GPGSV,4,4,14,49,34,195,37,61,03,257,*7B
$GLGSV,3,1,10,78,70,351,45,68,10,250,24,69,22,298,43,79,23,305,49*69
$GLGSV,3,2,10,87,45,047,30,77,35,102,26,88,52,153,41,86,05,022,26*60
$GLGSV,3,3,10,70,05,358,,81,07,187,*68
$GAGSV,3,1,10,30,78,042,48,19,10,331,27,02,27,085,31,15,10,163,*69
$GAGSV,3,2,10,36,29,053,38,29,31,289,39,07,27,227,34,34,36,116,41*68
$GAGSV,3,3,10,18,43,066,,27,42,281,43*68
$GBGSV,6,1,21,24,66,120,43,11,27,205,,43,18,230,,26,15,121,29*69
$GBGSV,6,2,21,05,20,130,,35,24,047,27,10,18,064,30,34,40,186,30*69
$GBGSV,6,3,21,56,25,053,,12,59,149,46,25,55,300,44,44,61,093,36*62
$GBGSV,6,4,21,32,07,323,39,13,03,095,,02,04,108,,38,07,075,*68
$GBGSV,6,5,21,41,06,273,34,07,05,062,,08,04,088,,23,05,300,28*6E
$GBGSV,6,6,21,60,09,110,*57
$GPGGA,140022.00,,,,,0,00,,,M,,M,,*4D
$PTNL,GGK,140022.00,010125,4742.4455851,N,01617.9733726,E,1,20,1.5,EHT669.9514,M*4C
$GPGGQ,140022.00,010125,4742.4455851,N,01617.9733726,E,1,20,3.332,626.7403,M*35
$GPGFA,140022.00,21.699,18.884,2.282,0.768,2.230,2.303,,VVV*0C
$GPLLK,140022.00,010125,,M,,M,1,20,1.7,,M*0A
$GNGMP,140022.00,,,,,DAAA,20,0.9,,,,*58
$GPGMP,140022.00,,,,,,06,,,,1.8,123*77
$GLGMP,140022.00,,,,,,04,,,,,*7E
$GAGMP,140022.00,,,,,,05,,,,,*72
$GBGMP,140022.00,,,,,,05,,,,,*71
$PSSN,SNC,[0,309640000,2347]*4C
$GPZDA,140027.00,01,01,2025,,*63
$GPDTM,W84,,00.0000000,N,00.0000000,E,00.0000000,W84*5F
$GPRMC,140027.00,A,4742.4455865,N,01617.9733803,E,0.0,,010125,5.1,E,D*17
$GPGLL,4742.4455865,N,01617.9733803,E,140027.00,A,D*66
$GPGGA,140027.00,4742.4455865,N,01617.9733803,E,2,19,0.8,626.7499,M,43.2110,M,2.5,0123*48
$GNGNS,140027.00,4742.4455865,N,01617.9733803,E,DAAA,19,0.8,626.7499,43.2110,,*53
$GPGNS,140027.00,,,,,,04,,,,2.5,123*7E
$GLGNS,140027.00,,,,,,04,,,,,*7B
$GAGNS,140027.00,,,,,,06,,,,,*74
$GBGNS,140027.00,,,,,,05,,,,,*74
$GPLLQ,140027.00,010125,,M,,M,1,19,3.441,,M*1B
$GPVTG,,T,,M,0.01,N,0.02,K,D*25
$GPHDT,,T*1B
$GPTHS,,V*0E
$GPROT,,V*08
$PSSN,HRP,140027.00,010125,,,,,,,00,0,,*61
$PTNL,AVR,140027.00,,Yaw,,Tilt,,,,0,,00*37
$GPGSA,A,3,11,12,25,28,,,,,,,,,1.4,0.8,1.1*31
$GPGSA,A,3,69,78,79,88,,,,,,,,,1.4,0.8,1.1*31
$GPGSA,A,3,07,27,29,30,34,36,,,,,,,1.4,0.8,1.1*37
$GPGSA,A,3,12,24,25,32,34,,,,,,,,1.4,0.8,1.1*3B
$GPGST,140027.00,3.295,2.647,0.629,14.714,2.565,0.906,2.108*67
$GPGBS,140027.00,18.469,5.433,12.752,69,0.0001,5.941,6.698*59
$GPGRS,140027.00,1,0.3,-0.7,0.6,0.3,,,,,,,,*62
$GPGRS,140027.00,1,5.9,-5.4,2.4,-1.0,,,,,,,,*44
$GPGRS,140027.00,1,-0.9,-1.6,-0.8,-1.0,1.3,-2.6,,,,,,*62
$GPGRS,140027.00,1,-1.6,-3.9,-4.2,-0.0,-3.0,,,,,,,*45
$GPGSV,4,1,14,25,69,300,43,06,25,048,34,24,27,156,33,32,29,270,43*76
$GPGSV,4,2,14,29,39,217,31,28,27,311,43,11,37,090,38,12,62,073,50*76
$GPGSV,4,3,14,31,02,316,33,19,03,047,,36,35,170,36,34,31,208,36*7D
$GPGSV,4,4,14,49,34,195,37,61,03,257,*7B
$GLGSV,3,1,10,78,70,351,44,68,10,250,32,69,22,298,43,79,23,305,49*6F
$GLGSV,3,2,10,87,45,047,,77,35,102,29,88,52,153,43,86,05,022,*6A
$GLGSV,3,3,10,70,06,358,,81,07,187,*6B
$GAGSV,3,1,10,30,78,042,48,19,10,331,26,02,27,085,32,15,10,163,*6B
$GAGSV,3,2,10,36,29,053,38,29,31,289,40,07,27,227,36,34,36,116,41*64
$GAGSV,3,3,10,18,43,066,,27,42,281,42*69
$GBGSV,6,1,21,24,66,120,43,11,27,205,,43,18,230,,26,15,121,28*68
$GBGSV,6,2,21,05,20,130,,35,24,047,30,10,18,064,29,34,40,186,37*60
$GBGSV,6,3,21,56,25,053,,12,59,149,46,25,55,300,44,44,61,093,31*65
$GBGSV,6,4,21,32,07,323,39,13,03,095,,02,04,108,,38,07,075,*68
$GBGSV,6,5,21,41,06,273,,07,05,062,,08,04,088,,23,05,300,28*69
$GBGSV,6,6,21,60,09,110,*57
$GPGGA,140027.00,,,,,0,00,,,M,,M,,*48
$PTNL,GGK,140027.00,010125,4742.4455865,N,01617.9733803,E,1,19,1.4,EHT669.9609,M*42
$GPGGQ,140027.00,010125,4742.4455865,N,01617.9733803,E,1,19,3.441,626.7499,M*35
$GPGFA,140027.00,25.165,17.282,2.647,0.629,14.714,2.108,,VVV*3E
$GPLLK,140027.00,010125,,M,,M,1,19,1.6,,M*04
$GNGMP,140027.00,,,,,DAAA,19,0.8,,,,*56
$GPGMP,140027.00,,,,,,04,,,,2.5,123*7E
$GLGMP,140027.00,,,,,,04,,,,,*7B
$GAGMP,140027.00,,,,,,06,,,,,*74
$GBGMP,140027.00,,,,,,05,,,,,*74
$PSSN,SNC,[0,309645000,2347]*49
$GPZDA,140032.00,01,01,2025,,*67
$GPDTM,W84,,00.0000000,N,00.0000000,E,00.0000000,W84*5F
$GPRMC,140032.00,A,4742.4455853,N,01617.9733839,E,0.0,,010125,5.1,E,D*1F
$GPGLL,4742.4455853,N,01617.9733839,E,140032.00,A,D*6E
$GPGGA,140032.00,4742.4455853,N,01617.9733839,E,2,17,0.8,626.7558,M,43.2110,M,3.0,0123*46
$GNGNS,140032.00,4742.4455853,N,01617.9733839,E,DAAA,17,0.8,626.7558,43.2110,,*59
$GPGNS,140032.00,,,,,,05,,,,3.0,123*7F
$GLGNS,140032.00,,,,,,03,,,,,*78
$GAGNS,140032.00,,,,,,06,,,,,*70
$GBGNS,140032.00,,,,,,03,,,,,*76
$GPLLQ,140032.00,010125,,M,,M,1,17,4.206,,M*13
$GPVTG,,T,,M,0.00,N,0.01,K,D*27
$GPHDT,,T*1B
$GPTHS,,V*0E
$GPROT,,V*08
$PSSN,HRP,140032.00,010125,,,,,,,00,0,,*65
$PTNL,AVR,140032.00,,Yaw,,Tilt,,,,0,,00*33
$GPGSA,A,3,11,12,25,28,32,,,,,,,,1.5,0.8,1.2*32
$GPGSA,A,3,78,79,88,,,,,,,,,,1.5,0.8,1.2*3C
$GPGSA,A,3,07,27,29,30,34,36,,,,,,,1.5,0.8,1.2*35
$GPGSA,A,3,12,24,32,,,,,,,,,,1.5,0.8,1.2*39
$GPGST,140032.00,3.386,3.188,0.871,12.110,3.122,1.083,2.603*6D
$GPGBS,140032.00,13.235,4.047,11.799,32,0.0001,4.862,1.307*50
$GPGRS,140032.00,1,0.1,-0.9,0.1,-0.4,4.9,,,,,,,*64
$GPGRS,140032.00,1,-5.9,2.5,-0.1,,,,,,,,,*6E
$GPGRS,140032.00,1,-0.6,-1.7,0.1,-0.8,1.0,-2.1,,,,,,*41
$GPGRS,140032.00,1,-1.4,-5.8,-2.1,,,,,,,,,*42
$GPGSV,4,1,14,25,69,300,42,06,25,048,34,24,26,156,34,32,29,270,42*70
$GPGSV,4,2,14,29,39,217,33,28,27,311,42,11,37,090,37,12,62,073,51*7B
$GPGSV,4,3,14,31,02,316,32,19,03,047,,36,35,170,36,34,31,208,36*7C
$GPGSV,4,4,14,49,34,195,36,61,03,257,*7A
$GLGSV,3,1,10,78,70,351,44,68,10,250,27,69,22,298,33,79,23,305,49*6C
$GLGSV,3,2,10,87,45,047,,77,35,102,34,88,53,153,43,86,05,022,25*60
$GLGSV,3,3,10,70,06,358,,81,08,187,*64
$GAGSV,3,1,10,30,78,042,48,19,10,331,25,02,27,085,32,15,11,163,*69
$GAGSV,3,2,10,36,29,053,38,29,31,289,41,07,27,227,37,34,36,116,42*67
$GAGSV,3,3,10,18,43,066,,27,42,281,42*69
$GBGSV,6,1,21,24,66,120,42,11,27,205,,43,18,229,,26,15,121,*6B
$GBGSV,6,2,21,05,20,130,34,35,24,047,32,10,18,064,29,34,40,186,29*6A
$GBGSV,6,3,21,56,25,053,,12,60,149,47,25,55,300,27,44,61,093,19*61
$GBGSV,6,4,21,32,07,323,40,13,03,095,,02,04,108,,38,07,075,*66
$GBGSV,6,5,21,41,06,273,32,07,05,062,,08,04,088,,23,05,300,28*68
$GBGSV,6,6,21,60,09,110,*57
$GPGGA,140032.00,,,,,0,00,,,M,,M,,*4C
$PTNL,GGK,140032.00,010125,4742.4455853,N,01617.9733839,E,1,17,1.5,EHT669.9669,M*43
$GPGGQ,140032.00,010125,4742.4455853,N,01617.9733839,E,1,17,4.206,626.7558,M*3D
$GPGFA,140032.00,30.306,21.345,3.188,0.871,12.110,2.603,,VVV*38
$GPLLK,140032.00,010125,,M,,M,1,17,1.7,,M*0F
$GNGMP,140032.00,,,,,DAAA,17,0.8,,,,*5C
$GPGMP,140032.00,,,,,,05,,,,3.0,123*7F
$GLGMP,140032.00,,,,,,03,,,,,*78
$GAGMP,140032.00,,,,,,06,,,,,*70
$GBGMP,140032.00,,,,,,03,,,,,*76
$PSSN,SNC,[0,309650000,2347]*4D
$GPZDA,140037.00,01,01,2025,,*62
$GPDTM,W84,,00.0000000,N,00.0000000,E,00.0000000,W84*5F
$GPRMC,140037.00,A,4742.4455873,N,01617.9733912,E,0.0,,010125,5.1,E,D*10
$GPGLL,4742.4455873,N,01617.9733912,E,140037.00,A,D*61
$GPGGA,140037.00,4742.4455873,N,01617.9733912,E,2,18,0.8,626.7558,M,43.2110,M,2.8,0123*4F
$GNGNS,140037.00,4742.4455873,N,01617.9733912,E,DAAA,18,0.8,626.7558,43.2110,,*59
$GPGNS,140037.00,,,,,,04,,,,2.8,123*72
$GLGNS,140037.00,,,,,,03,,,,,*7D
$GAGNS,140037.00,,,,,,06,,,,,*75
$GBGNS,140037.00,,,,,,05,,,,,*75
$GPLLQ,140037.00,010125,,M,,M,1,18,3.327,,M*1C
$GPVTG,,T,,M,0.01,N,0.02,K,D*25
$GPHDT,,T*1B
$GPTHS,,V*0E
$GPROT,,V*08
$PSSN,HRP,140037.00,010125,,,,,,,00,0,,*60
$PTNL,AVR,140037.00,,Yaw,,Tilt,,,,0,,00*36
$GPGSA,A,3,12,25,28,32,,,,,,,,,1.4,0.8,1.2*33
$GPGSA,A,3,78,79,88,,,,,,,,,,1.4,0.8,1.2*3D
$GPGSA,A,3,07,27,29,30,34,36,,,,,,,1.4,0.8,1.2*34
$GPGSA,A,3,12,24,25,32,44,,,,,,,,1.4,0.8,1.2*3F
$GPGST,140037.00,2.854,2.012,0.959,359.962,2.012,0.959,2.470*5E
$GPGBS,140037.00,12.758,7.249,19.791,32,0.0001,-2.123,1.315*71
$GPGRS,140037.00,1,-0.1,0.2,-0.3,-2.1,,,,,,,,*61
$GPGRS,140037.00,1,-3.9,2.6,0.1,,,,,,,,,*43
$GPGRS,140037.00,1,1.8,-0.5,0.9,0.4,1.6,-1.0,,,,,,*48
$GPGRS,140037.00,1,-0.0,-4.8,-3.4,-2.3,-3.9,,,,,,,*4C
$GPGSV,4,1,14,25,69,300,43,06,25,048,31,24,26,156,35,32,29,270,38*78
$GPGSV,4,2,14,29,39,217,28,28,27,311,41,11,37,090,32,12,62,073,51*77
$GPGSV,4,3,14,31,02,316,29,19,03,047,,36,35,170,36,34,31,208,36*76
$GPGSV,4,4,14,49,34,195,36,61,03,257,*7A
$GLGSV,3,1,10,78,71,351,44,68,10,250,,69,22,298,39,79,23,305,48*63
$GLGSV,3,2,10,87,45,047,31,77,35,102,34,88,53,153,43,86,05,022,25*62
$GLGSV,3,3,10,70,06,358,,81,08,187,*64
$GAGSV,3,1,10,30,78,042,48,19,10,331,25,02,27,085,32,15,11,163,*69
$GAGSV,3,2,10,36,29,053,39,29,31,289,41,07,27,227,38,34,36,116,42*69
$GAGSV,3,3,10,18,43,066,,27,42,281,41*6A
$GBGSV,6,1,21,24,66,120,40,11,27,205,,43,18,229,,26,15,121,23*68
$GBGSV,6,2,21,05,20,130,33,35,24,047,34,10,18,064,29,34,40,186,35*66
$GBGSV,6,3,21,56,25,053,,12,60,149,47,25,55,300,43,44,61,093,41*6E
$GBGSV,6,4,21,32,07,323,39,13,03,095,,02,04,108,,38,07,075,*68
$GBGSV,6,5,21,41,06,273,32,07,05,062,,08,04,088,,23,05,300,28*68
$GBGSV,6,6,21,60,09,110,*57
$GPGGA,140037.00,,,,,0,00,,,M,,M,,*49
$PTNL,GGK,140037.00,010125,4742.4455873,N,01617.9733912,E,1,18,1.4,EHT669.9669,M*42
$GPGGQ,140037.00,010125,4742.4455873,N,01617.9733912,E,1,18,3.327,626.7558,M*38
$GPGFA,140037.00,19.126,20.251,2.012,0.959,359.962,2.470,,VVV*0C
$GPLLK,140037.00,010125,,M,,M,1,18,1.7,,M*05
$GNGMP,140037.00,,,,,DAAA,18,0.8,,,,*56
$GPGMP,140037.00,,,,,,04,,,,2.8,123*72
$GLGMP,140037.00,,,,,,03,,,,,*7D
$GAGMP,140037.00,,,,,,06,,,,,*75
$GBGMP,140037.00,,,,,,05,,,,,*75
$PSSN,SNC,[0,309655000,2347]*48
$GPZDA,140042.00,01,01,2025,,*60
$GPDTM,W84,,00.0000000,N,00.0000000,E,00.0000000,W84*5F
$GPRMC,140042.00,A,4742.4455884,N,01617.9733913,E,0.0,,010125,5.1,E,D*1B
$GPGLL,4742.4455884,N,01617.9733913,E,140042.00,A,D*6A
$GPGGA,140042.00,4742.4455884,N,01617.9733913,E,2,19,0.7,626.7443,M,43.2110,M,1.6,0123*4C
$GNGNS,140042.00,4742.4455884,N,01617.9733913,E,DAAA,19,0.7,626.7443,43.2110,,*57
$GPGNS,140042.00,,,,,,05,,,,1.6,123*7C
$GLGNS,140042.00,,,,,,03,,,,,*7F
$GAGNS,140042.00,,,,,,06,,,,,*77
$GBGNS,140042.00,,,,,,05,,,,,*77
$GPLLQ,140042.00,010125,,M,,M,1,19,2.454,,M*1D
$GPVTG,,T,,M,0.00,N,0.01,K,D*27
$GPHDT,,T*1B
$GPTHS,,V*0E
$GPROT,,V*08
$PSSN,HRP,140042.00,010125,,,,,,,00,0,,*62
$PTNL,AVR,140042.00,,Yaw,,Tilt,,,,0,,00*34
$GPGSA,A,3,12,24,25,28,29,,,,,,,,1.3,0.7,1.1*34
$GPGSA,A,3,78,79,88,,,,,,,,,,1.3,0.7,1.1*36
$GPGSA,A,3,07,27,29,30,34,36,,,,,,,1.3,0.7,1.1*3F
$GPGSA,A,3,12,24,25,32,34,,,,,,,,1.3,0.7,1.1*33
$GPGST,140042.00,2.685,0.976,0.704,36.209,0.890,0.809,2.138*60
$GPGBS,140042.00,6.362,5.066,14.290,25,0.0001,1.099,0.801*68
$GPGRS,140042.00,1,-0.5,-0.9,1.1,-0.2,0.7,,,,,,,*47
$GPGRS,140042.00,1,-3.5,-0.1,-1.2,,,,,,,,,*4A
$GPGRS,140042.00,1,3.5,-0.7,0.3,0.3,1.5,-1.9,,,,,,*40
$GPGRS,140042.00,1,0.3,-1.2,-3.6,-4.5,-4.1,,,,,,,*62
$GPGSV,4,1,14,25,69,300,43,06,25,048,25,24,26,156,35,32,29,270,34*71
$GPGSV,4,2,14,29,39,217,37,28,27,311,42,11,37,090,26,12,62,073,50*7E
$GPGSV,4,3,14,31,02,316,28,19,03,047,,36,35,170,36,34,31,208,36*77
$GPGSV,4,4,14,49,34,195,37,61,03,257,*7B
$GLGSV,3,1,10,78,71,351,44,68,10,250,31,69,22,298,37,79,23,305,46*61
$GLGSV,3,2,10,87,45,047,,77,35,102,34,88,53,153,44,86,05,022,20*62
$GLGSV,3,3,10,70,06,358,,81,08,187,*64
$GAGSV,3,1,10,30,78,042,47,19,10,331,25,02,27,085,32,15,11,163,*66
$GAGSV,3,2,10,36,29,053,38,29,31,289,41,07,27,227,38,34,36,116,42*68
$GAGSV,3,3,10,18,43,066,,27,42,281,41*6A
$GBGSV,6,1,21,24,66,120,41,11,27,205,,43,18,229,,26,15,121,24*6E
$GBGSV,6,2,21,05,20,130,33,35,24,047,34,10,18,064,29,34,40,186,40*64
$GBGSV,6,3,21,56,25,053,,12,60,149,47,25,55,300,42,44,61,093,23*6B
$GBGSV,6,4,21,32,07,323,38,13,03,095,,02,04,108,,38,08,075,*66
$GBGSV,6,5,21,41,06,273,32,07,05,062,,08,04,088,,23,05,300,28*68
$GBGSV,6,6,21,60,09,110,*57
$GPGGA,140042.00,,,,,0,00,,,M,,M,,*4B
$PTNL,GGK,140042.00,010125,4742.4455884,N,01617.9733913,E,1,19,1.3,EHT669.9553,M*45
$GPGGQ,140042.00,010125,4742.4455884,N,01617.9733913,E,1,19,2.454,626.7443,M*3B
$GPGFA,140042.00,9.276,17.533,0.976,0.704,36.209,2.138,,VVV*04
$GPLLK,140042.00,010125,,M,,M,1,19,1.5,,M*04
$GNGMP,140042.00,,,,,DAAA,19,0.7,,,,*5A
$GPGMP,140042.00,,,,,,05,,,,1.6,123*7C
$GLGMP,140042.00,,,,,,03,,,,,*7F
$GAGMP,140042.00,,,,,,06,,,,,*77
$GBGMP,140042.00,,,,,,05,,,,,*77
$PSSN,SNC,[0,309660000,2347]*4E
$GPZDA,140047.00,01,01,2025,,*65
$GPDTM,W84,,00.0000000,N,00.0000000,E,00.0000000,W84*5F
$GPRMC,140047.00,A,4742.4455847,N,01617.9734018,E,0.0,,010125,5.1,E,D*14
$GPGLL,4742.4455847,N,01617.9734018,E,140047.00,A,D*65
$GPGGA,140047.00,4742.4455847,N,01617.9734018,E,2,19,0.7,626.7312,M,43.2110,M,2.3,0123*46
$GNGNS,140047.00,4742.4455847,N,01617.9734018,E,DAAA,19,0.7,626.7312,43.2110,,*5B
$GPGNS,140047.00,,,,,,04,,,,2.3,123*7E
$GLGNS,140047.00,,,,,,03,,,,,*7A
$GAGNS,140047.00,,,,,,06,,,,,*72
$GBGNS,140047.00,,,,,,06,,,,,*71
$GPLLQ,140047.00,010125,,M,,M,1,19,3.210,,M*1F
$GPVTG,,T,,M,0.01,N,0.01,K,D*26
$GPHDT,,T*1B
$GPTHS,,V*0E
$GPROT,,V*08
$PSSN,HRP,140047.00,010125,,,,,,,00,0,,*67
$PTNL,AVR,140047.00,,Yaw,,Tilt,,,,0,,00*31
$GPGSA,A,3,12,24,25,28,,,,,,,,,1.3,0.7,1.1*3F
$GPGSA,A,3,78,79,88,,,,,,,,,,1.3,0.7,1.1*36
$GPGSA,A,3,07,27,29,30,34,36,,,,,,,1.3,0.7,1.1*3F
$GPGSA,A,3,12,24,25,32,34,44,,,,,,,1.3,0.7,1.1*33
$GPGST,140047.00,3.733,1.785,0.856,40.449,1.467,1.329,2.528*68
$GPGBS,140047.00,6.596,7.916,14.477,25,0.0001,1.105,0.807*61
$GPGRS,140047.00,1,-0.8,-1.4,1.1,1.0,,,,,,,,*44
$GPGRS,140047.00,1,-3.0,-5.1,-1.3,,,,,,,,,*4E
$GPGRS,140047.00,1,4.9,-1.3,-0.3,-0.0,1.3,-1.7,,,,,,*40
$GPGRS,140047.00,1,0.2,-0.0,-3.7,-7.6,-3.1,-3.6,,,,,,*65
$GPGSV,4,1,14,25,70,300,43,06,25,048,27,24,26,156,35,32,29,270,32*7D
$GPGSV,4,2,14,29,39,217,35,28,27,311,43,11,37,090,24,12,62,073,50*7F
$GPGSV,4,3,14,31,02,316,23,19,03,047,,36,35,170,36,34,31,208,36*7C
$GPGSV,4,4,14,49,34,195,37,61,03,257,*7B
$GLGSV,3,1,10,78,71,351,46,68,10,249,25,69,22,297,31,79,23,305,43*62
$GLGSV,3,2,10,87,45,047,,77,35,102,34,88,53,153,45,86,05,022,*61
$GLGSV,3,3,10,70,06,358,,81,08,187,*64
$GAGSV,3,1,10,30,78,042,48,19,10,331,25,02,27,085,32,15,11,163,*69
$GAGSV,3,2,10,36,29,053,39,29,31,289,41,07,27,227,39,34,36,116,42*68
$GAGSV,3,3,10,18,43,065,,27,42,281,41*69
$GBGSV,6,1,21,24,66,120,42,11,27,205,,43,18,229,,26,15,121,26*6F
$GBGSV,6,2,21,05,20,130,33,35,24,047,33,10,18,064,29,34,40,186,42*61
$GBGSV,6,3,21,56,25,053,,12,60,149,47,25,55,300,42,44,61,093,42*6C
$GBGSV,6,4,21,32,07,323,37,13,03,095,,02,04,108,,38,08,075,*69
$GBGSV,6,5,21,41,06,273,31,07,05,062,,08,04,088,,23,05,300,28*6B
$GBGSV,6,6,21,60,09,110,*57
$GPGGA,140047.00,,,,,0,00,,,M,,M,,*4E
$PTNL,GGK,140047.00,010125,4742.4455847,N,01617.9734018,E,1,19,1.3,EHT669.9422,M*4D
$GPGGQ,140047.00,010125,4742.4455847,N,01617.9734018,E,1,19,3.210,626.7312,M*30
$GPGFA,140047.00,16.968,20.726,1.785,0.856,40.449,2.528,,VVV*34
$GPLLK,140047.00,010125,,M,,M,1,19,1.5,,M*01
$GNGMP,140047.00,,,,,DAAA,19,0.7,,,,*5F
$GPGMP,140047.00,,,,,,04,,,,2.3,123*7E
$GLGMP,140047.00,,,,,,03,,,,,*7A
$GAGMP,140047.00,,,,,,06,,,,,*72
$GBGMP,140047.00,,,,,,06,,,,,*71
$PSSN,SNC,[0,309665000,2347]*4B
$GPZDA,140052.00,01,01,2025,,*61
$GPDTM,W84,,00.0000000,N,00.0000000,E,00.0000000,W84*5F
$GPRMC,140052.00,A,4742.4455765,N,01617.9733950,E,0.0,,010125,5.1,E,D*1D
$GPGLL,4742.4455765,N,01617.9733950,E,140052.00,A,D*6C
$GPGGA,140052.00,4742.4455765,N,01617.9733950,E,2,19,0.7,626.7200,M,43.2110,M,2.8,0123*46
$GNGNS,140052.00,4742.4455765,N,01617.9733950,E,DAAA,19,0.7,626.7200,43.2110,,*50
$GPGNS,140052.00,,,,,,04,,,,2.8,123*71
$GLGNS,140052.00,,,,,,04,,,,,*79
$GAGNS,140052.00,,,,,,06,,,,,*76
$GBGNS,140052.00,,,,,,05,,,,,*76
$GPLLQ,140052.00,010125,,M,,M,1,19,4.988,,M*16
$GPVTG,,T,,M,0.00,N,0.01,K,D*27
$GPHDT,,T*1B
$GPTHS,,V*0E
$GPROT,,V*08
$PSSN,HRP,140052.00,010125,,,,,,,00,0,,*63
$PTNL,AVR,140052.00,,Yaw,,Tilt,,,,0,,00*35
$GPGSA,A,3,12,25,28,29,,,,,,,,,1.4,0.7,1.2*36
$GPGSA,A,3,78,79,87,88,,,,,,,,,1.4,0.7,1.2*3D
$GPGSA,A,3,07,27,29,30,34,36,,,,,,,1.4,0.7,1.2*3B
$GPGSA,A,3,12,24,25,32,34,,,,,,,,1.4,0.7,1.2*37
$GPGST,140052.00,3.474,1.762,1.664,298.096,1.687,1.741,4.359*5A
$GPGBS,140052.00,7.073,7.733,18.523,29,0.0001,-1.685,0.985*4A
$GPGRS,140052.00,1,0.4,1.1,2.3,-1.7,,,,,,,,*62
$GPGRS,140052.00,1,-1.2,-5.0,-4.2,0.2,,,,,,,,*63
$GPGRS,140052.00,1,7.2,-0.2,0.5,1.0,2.5,-0.5,,,,,,*4D
$GPGRS,140052.00,1,1.1,0.8,-2.5,-4.8,-0.4,,,,,,,*48
$GPGSV,4,1,14,25,70,300,43,06,25,048,27,24,26,156,34,32,29,270,33*7D
$GPGSV,4,2,14,29,39,217,37,28,27,311,43,11,37,090,22,12,62,073,50*7B
$GPGSV,4,3,14,31,02,316,23,19,03,047,,36,35,170,36,34,31,208,36*7C
$GPGSV,4,4,14,49,34,195,37,61,03,257,*7B
$GLGSV,3,1,10,78,71,351,47,68,10,249,31,69,22,297,29,79,23,305,41*6D
$GLGSV,3,2,10,87,45,047,39,77,34,102,33,88,53,153,46,86,05,022,24*68
$GLGSV,3,3,10,70,06,358,,81,08,187,*64
$GAGSV,3,1,10,30,78,042,48,19,10,331,26,02,27,085,32,15,11,163,*6A
$GAGSV,3,2,10,36,29,053,40,29,31,289,39,07,27,227,40,34,36,116,42*67
$GAGSV,3,3,10,18,43,065,,27,42,281,41*69
$GBGSV,6,1,21,24,66,120,44,11,27,205,,43,18,229,,26,15,121,26*69
$GBGSV,6,2,21,05,20,130,33,35,24,047,31,10,18,064,28,34,40,186,43*63
$GBGSV,6,3,21,56,25,053,,25,55,300,42,12,60,149,47,44,61,093,29*61
$GBGSV,6,4,21,32,07,323,38,13,03,095,,02,04,108,,38,08,075,*66
$GBGSV,6,5,21,41,06,273,31,07,05,062,,08,04,088,,23,05,300,29*6A
$GBGSV,6,6,21,60,09,110,*57
$GPGGA,140052.00,,,,,0,00,,,M,,M,,*4A
$PTNL,GGK,140052.00,010125,4742.4455765,N,01617.9733950,E,1,19,1.4,EHT669.9310,M*45
$GPGGQ,140052.00,010125,4742.4455765,N,01617.9733950,E,1,19,4.988,626.7200,M*36
$GPGFA,140052.00,16.756,35.743,1.762,1.664,298.096,4.359,,VVV*04
$GPLLK,140052.00,010125,,M,,M,1,19,1.6,,M*06
$GNGMP,140052.00,,,,,DAAA,19,0.7,,,,*5B
$GPGMP,140052.00,,,,,,04,,,,2.8,123*71
$GLGMP,140052.00,,,,,,04,,,,,*79
$GAGMP,140052.00,,,,,,06,,,,,*76
$GBGMP,140052.00,,,,,,05,,,,,*76
$PSSN,SNC,[0,309670000,2347]*4F
$GPZDA,140057.00,01,01,2025,,*64
$GPDTM,W84,,00.0000000,N,00.0000000,E,00.0000000,W84*5F
$GPRMC,140057.00,A,4742.4455718,N,01617.9733925,E,0.0,,010125,5.1,E,D*10
$GPGLL,4742.4455718,N,01617.9733925,E,140057.00,A,D*61
$GPGGA,140057.00,4742.4455718,N,01617.9733925,E,2,18,0.7,626.7282,M,43.2110,M,2.8,0123*40
$GNGNS,140057.00,4742.4455718,N,01617.9733925,E,DAAA,18,0.7,626.7282,43.2110,,*56
$GPGNS,140057.00,,,,,,04,,,,2.8,123*74
$GLGNS,140057.00,,,,,,04,,,,,*7C
$GAGNS,140057.00,,,,,,06,,,,,*73
$GBGNS,140057.00,,,,,,04,,,,,*72
$GPLLQ,140057.00,010125,,M,,M,1,18,2.583,,M*13
$GPVTG,,T,,M,0.00,N,0.00,K,D*26
$GPHDT,,T*1B
$GPTHS,,V*0E
$GPROT,,V*08
$PSSN,HRP,140057.00,010125,,,,,,,00,0,,*66
$PTNL,AVR,140057.00,,Yaw,,Tilt,,,,0,,00*30
$GPGSA,A,3,12,25,28,29,,,,,,,,,1.4,0.7,1.2*36
$GPGSA,A,3,78,79,87,88,,,,,,,,,1.4,0.7,1.2*3D
$GPGSA,A,3,07,27,29,30,34,36,,,,,,,1.4,0.7,1.2*3B
$GPGSA,A,3,12,24,32,34,,,,,,,,,1.4,0.7,1.2*30
$GPGST,140057.00,2.449,0.908,0.828,295.556,0.843,0.893,2.273*59
$GPGBS,140057.00,7.151,7.556,18.972,07,0.0001,6.160,6.469*64
$GPGRS,140057.00,1,0.0,0.5,0.8,-0.5,,,,,,,,*6C
$GPGRS,140057.00,1,-1.9,-2.9,-1.8,0.4,,,,,,,,*6A
$GPGRS,140057.00,1,6.2,0.3,-0.7,0.2,1.3,-0.8,,,,,,*41
$GPGRS,140057.00,1,0.3,0.4,-2.9,-0.3,,,,,,,,*46
$GPGSV,4,1,14,25,70,300,44,06,25,048,30,24,26,156,33,32,29,270,33*7B
$GPGSV,4,2,14,29,39,217,40,28,27,311,42,11,37,090,38,12,62,073,50*71
$GPGSV,4,3,14,31,02,316,25,19,03,047,,36,35,170,36,34,31,208,36*7A
$GPGSV,4,4,14,49,34,195,37,61,03,257,*7B
$GLGSV,3,1,10,78,71,351,48,68,10,249,31,69,22,297,,79,23,305,41*69
$GLGSV,3,2,10,87,45,047,40,77,34,102,33,88,53,153,47,86,05,022,22*61
$GLGSV,3,3,10,70,06,358,,81,08,187,*64
$GAGSV,3,1,10,30,78,042,49,19,10,331,28,02,26,085,32,15,11,163,*64
$GAGSV,3,2,10,36,29,053,40,29,31,289,38,07,27,227,41,34,36,116,40*65
$GAGSV,3,3,10,18,43,065,,27,42,281,41*69
$GBGSV,6,1,21,24,66,120,44,11,27,205,,43,18,229,,26,15,121,26*69
$GBGSV,6,2,21,05,20,130,33,35,24,047,28,10,18,064,28,34,40,186,44*6C
$GBGSV,6,3,21,56,25,053,,12,60,149,46,25,55,300,25,44,61,093,35*6C
$GBGSV,6,4,21,32,07,323,38,13,03,095,,02,04,108,,38,08,075,*66
$GBGSV,6,5,21,41,06,273,31,07,05,062,,08,04,088,,23,05,300,29*6A
$GBGSV,6,6,21,60,09,110,*57
$GPGGA,140057.00,,,,,0,00,,,M,,M,,*4F
$PTNL,GGK,140057.00,010125,4742.4455718,N,01617.9733925,E,1,18,1.4,EHT669.9392,M*43
$GPGGQ,140057.00,010125,4742.4455718,N,01617.9733925,E,1,18,2.583,626.7282,M*31
$GPGFA,140057.00,8.629,18.637,0.908,0.828,295.556,2.273,,VVV*35
$GPLLK,140057.00,010125,,M,,M,1,18,1.7,,M*03
$GNGMP,140057.00,,,,,DAAA,18,0.7,,,,*5F
$GPGMP,140057.00,,,,,,04,,,,2.8,123*74
$GLGMP,140057.00,,,,,,04,,,,,*7C
$GAGMP,140057.00,,,,,,06,,,,,*73
$GBGMP,140057.00,,,,,,04,,,,,*72
$PSSN,SNC,[0,309675000,2347]*4A
$GPZDA,140102.00,01,01,2025,,*65
$GPDTM,W84,,00.0000000,N,00.0000000,E,00.0000000,W84*5F
$GPRMC,140102.00,A,4742.4455722,N,01617.9733952,E,0.0,,010125,5.1,E,D*18
$GPGLL,4742.4455722,N,01617.9733952,E,140102.00,A,D*69
$GPGGA,140102.00,4742.4455722,N,01617.9733952,E,2,20,0.7,626.7145,M,43.2110,M,1.8,0123*48
$GNGNS,140102.00,4742.4455722,N,01617.9733952,E,DAAA,20,0.7,626.7145,43.2110,,*5D
$GPGNS,140102.00,,,,,,04,,,,1.8,123*76
$GLGNS,140102.00,,,,,,05,,,,,*7C
$GAGNS,140102.00,,,,,,06,,,,,*72
$GBGNS,140102.00,,,,,,05,,,,,*72
$GPLLQ,140102.00,010125,,M,,M,1,20,3.468,,M*1C
$GPVTG,,T,,M,0.00,N,0.01,K,D*27
$GPHDT,,T*1B
$GPTHS,,V*0E
$GPROT,,V*08
$PSSN,HRP,140102.00,010125,,,,,,,00,0,,*67
$PTNL,AVR,140102.00,,Yaw,,Tilt,,,,0,,00*31
$GPGSA,A,3,12,25,28,29,,,,,,,,,1.4,0.7,1.2*36
$GPGSA,A,3,69,78,79,87,88,,,,,,,,1.4,0.7,1.2*32
$GPGSA,A,3,07,27,29,30,34,36,,,,,,,1.4,0.7,1.2*3B
$GPGSA,A,3,12,24,32,34,44,,,,,,,,1.4,0.7,1.2*30
$GPGST,140102.00,6.658,1.216,1.119,298.577,1.142,1.195,3.049*52
$GPGBS,140102.00,7.217,7.598,18.340,69,0.0001,21.776,7.005*5E
$GPGRS,140102.00,1,-0.4,0.9,-0.6,0.1,,,,,,,,*42
$GPGRS,140102.00,1,21.8,-2.9,-2.4,4.5,-0.8,,,,,,,*74
$GPGRS,140102.00,1,4.4,0.5,-1.9,-0.2,0.3,-0.5,,,,,,*6C
$GPGRS,140102.00,1,-0.5,-0.3,-0.9,-0.4,6.4,,,,,,,*6F
$GPGSV,4,1,14,25,70,300,44,06,25,048,34,24,26,156,33,32,29,270,34*78
$GPGSV,4,2,14,29,39,217,41,28,27,311,41,11,37,090,34,12,62,073,49*77
$GPGSV,4,3,14,31,02,316,28,19,03,047,,36,35,170,36,34,31,208,36*77
$GPGSV,4,4,14,49,34,195,37,61,03,257,*7B
$GLGSV,3,1,10,78,71,352,48,68,10,249,31,69,22,297,35,79,23,305,42*6F
$GLGSV,3,2,10,87,45,047,43,77,34,103,33,88,53,153,47,86,05,022,21*60
$GLGSV,3,3,10,70,06,358,,81,08,187,*64
$GAGSV,3,1,10,30,77,043,49,19,10,331,26,02,26,085,33,15,11,163,*65
$GAGSV,3,2,10,36,29,053,40,29,31,289,38,07,26,227,41,34,37,116,38*6A
$GAGSV,3,3,10,18,43,065,,27,42,281,42*6A
$GBGSV,6,1,21,24,66,120,45,11,27,205,,43,18,229,,26,15,121,26*68
$GBGSV,6,2,21,05,20,130,33,35,24,047,26,10,18,064,27,34,40,186,45*6C
$GBGSV,6,3,21,56,25,053,,25,55,300,22,12,60,149,46,44,61,092,38*67
$GBGSV,6,4,21,32,07,323,38,13,03,095,,02,04,108,,38,08,075,*66
$GBGSV,6,5,21,41,06,273,32,07,05,062,,08,04,088,,23,05,300,27*67
$GBGSV,6,6,21,60,09,110,*57
$GPGGA,140102.00,,,,,0,00,,,M,,M,,*4E
$PTNL,GGK,140102.00,010125,4742.4455722,N,01617.9733952,E,1,20,1.4,EHT669.9256,M*49
$GPGGQ,140102.00,010125,4742.4455722,N,01617.9733952,E,1,20,3.468,626.7145,M*3F
$GPGFA,140102.00,11.564,24.999,1.216,1.119,298.577,3.049,,VVV*09
$GPLLK,140102.00,010125,,M,,M,1,20,1.6,,M*08
$GNGMP,140102.00,,,,,DAAA,20,0.7,,,,*55
$GPGMP,140102.00,,,,,,04,,,,1.8,123*76
$GLGMP,140102.00,,,,,,05,,,,,*7C
$GAGMP,140102.00,,,,,,06,,,,,*72
$GBGMP,140102.00,,,,,,05,,,,,*72
$PSSN,SNC,[0,309680000,2347]*40
$GPZDA,140107.00,01,01,2025,,*60
$GPDTM,W84,,00.0000000,N,00.0000000,E,00.0000000,W84*5F
$GPRMC,140107.00,A,4742.4455741,N,01617.9733978,E,0.0,,010125,5.1,E,D*10
$GPGLL,4742.4455741,N,01617.9733978,E,140107.00,A,D*61
$GPGGA,140107.00,4742.4455741,N,01617.9733978,E,2,21,0.7,626.7218,M,43.2110,M,2.8,0123*49
$GNGNS,140107.00,4742.4455741,N,01617.9733978,E,DAAA,21,0.7,626.7218,43.2110,,*5F
$GPGNS,140107.00,,,,,,05,,,,2.8,123*71
$GLGNS,140107.00,,,,,,04,,,,,*78
$GAGNS,140107.00,,,,,,06,,,,,*77
$GBGNS,140107.00,,,,,,06,,,,,*74
$GPLLQ,140107.00,010125,,M,,M,1,21,2.549,,M*1B
$GPVTG,,T,,M,0.00,N,0.00,K,D*26
$GPHDT,,T*1B
$GPTHS,,V*0E
$GPROT,,V*08
$PSSN,HRP,140107.00,010125,,,,,,,00,0,,*62
$PTNL,AVR,140107.00,,Yaw,,Tilt,,,,0,,00*34
$GPGSA,A,3,06,12,25,28,29,,,,,,,,1.3,0.7,1.1*34
$GPGSA,A,3,78,79,87,88,,,,,,,,,1.3,0.7,1.1*39
$GPGSA,A,3,07,27,29,30,34,36,,,,,,,1.3,0.7,1.1*3F
$GPGSA,A,3,12,24,25,32,34,44,,,,,,,1.3,0.7,1.1*33
$GPGST,140107.00,3.401,1.173,0.797,328.086,1.081,0.918,2.117*55
$GPGBS,140107.00,7.107,4.408,10.984,06,0.0001,2.701,1.560*60
$GPGRS,140107.00,1,2.7,-0.8,-0.1,-1.1,0.7,,,,,,,*45
$GPGRS,140107.00,1,-2.6,-0.9,8.5,-1.9,,,,,,,,*68
$GPGRS,140107.00,1,3.4,-0.4,-2.0,-0.6,0.5,-0.3,,,,,,*4C
$GPGRS,140107.00,1,-1.3,-0.8,-4.0,2.1,-0.1,5.5,,,,,,*41
$GPGSV,4,1,14,25,70,300,44,06,25,048,35,24,26,156,33,32,29,270,33*7E
$GPGSV,4,2,14,29,39,217,41,28,27,311,41,11,37,090,30,12,62,073,49*73
$GPGSV,4,3,14,31,02,316,31,19,03,047,,36,35,170,36,34,31,208,36*7F
$GPGSV,4,4,14,49,34,195,37,61,03,257,*7B
$GLGSV,3,1,10,78,71,352,49,68,10,249,30,69,22,297,34,79,23,305,44*68
$GLGSV,3,2,10,87,45,047,44,77,34,103,32,88,53,153,47,86,05,022,22*65
$GLGSV,3,3,10,70,06,358,,81,08,187,*64
$GAGSV,3,1,10,30,77,043,49,19,10,331,29,02,26,086,33,15,11,163,*69
$GAGSV,3,2,10,36,29,053,40,29,31,289,38,07,26,227,40,34,37,116,37*64
$GAGSV,3,3,10,18,43,065,,27,42,281,42*6A
$GBGSV,6,1,21,24,66,120,44,11,27,205,,43,18,229,,26,15,121,25*6A
$GBGSV,6,2,21,05,20,130,33,35,24,047,25,10,18,064,27,34,40,186,46*6C
$GBGSV,6,3,21,56,25,053,,25,55,300,41,12,60,149,45,44,61,092,39*60
$GBGSV,6,4,21,32,07,323,37,13,03,095,,02,04,108,,38,08,075,*69
$GBGSV,6,5,21,41,06,273,31,07,05,062,,08,04,088,,23,05,300,30*62
$GBGSV,6,6,21,60,09,110,*57
$GPGGA,140107.00,,,,,0,00,,,M,,M,,*4B
$PTNL,GGK,140107.00,010125,4742.4455741,N,01617.9733978,E,1,21,1.3,EHT669.9329,M*4E
$GPGGQ,140107.00,010125,4742.4455741,N,01617.9733978,E,1,21,2.549,626.7218,M*3E
$GPGFA,140107.00,11.151,17.363,1.173,0.797,328.086,2.117,,VVV*0A
$GPLLK,140107.00,010125,,M,,M,1,21,1.5,,M*0F
$GNGMP,140107.00,,,,,DAAA,21,0.7,,,,*51
$GPGMP,140107.00,,,,,,05,,,,2.8,123*71
$GLGMP,140107.00,,,,,,04,,,,,*78
$GAGMP,140107.00,,,,,,06,,,,,*77
$GBGMP,140107.00,,,,,,06,,,,,*74
$PSSN,SNC,[0,309685000,2347]*45
$GPZDA,140112.00,01,01,2025,,*64
$GPDTM,W84,,00.0000000,N,00.0000000,E,00.0000000,W84*5F
$GPRMC,140112.00,A,4742.4455763,N,01617.9733917,E,0.0,,010125,5.1,E,D*1D
$GPGLL,4742.4455763,N,01617.9733917,E,140112.00,A,D*6C
$GPGGA,140112.00,4742.4455763,N,01617.9733917,E,2,20,0.7,626.7437,M,43.2110,M,2.8,0123*4E
$GNGNS,140112.00,4742.4455763,N,01617.9733917,E,DAAA,20,0.7,626.7437,43.2110,,*58
$GPGNS,140112.00,,,,,,04,,,,2.8,123*74
$GLGNS,140112.00,,,,,,04,,,,,*7C
$GAGNS,140112.00,,,,,,06,,,,,*73
$GBGNS,140112.00,,,,,,06,,,,,*70
$GPLLQ,140112.00,010125,,M,,M,1,20,2.617,,M*16
$GPVTG,,T,,M,0.01,N,0.02,K,D*25
$GPHDT,,T*1B
$GPTHS,,V*0E
$GPROT,,V*08
$PSSN,HRP,140112.00,010125,,,,,,,00,0,,*66
$PTNL,AVR,140112.00,,Yaw,,Tilt,,,,0,,00*30
$GPGSA,A,3,12,25,28,29,,,,,,,,,1.4,0.7,1.2*36
$GPGSA,A,3,78,79,87,88,,,,,,,,,1.4,0.7,1.2*3D
$GPGSA,A,3,07,27,29,30,34,36,,,,,,,1.4,0.7,1.2*3B
$GPGSA,A,3,12,24,25,32,34,44,,,,,,,1.4,0.7,1.2*37
$GPGST,140112.00,3.233,0.921,0.847,294.880,0.861,0.908,2.298*50
$GPGBS,140112.00,7.057,7.717,18.588,87,0.0001,8.082,6.268*61
$GPGRS,140112.00,1,-0.6,0.0,-0.3,0.5,,,,,,,,*49
$GPGRS,140112.00,1,-1.6,0.2,8.1,-3.2,,,,,,,,*44
$GPGRS,140112.00,1,3.4,-0.6,-2.3,-0.3,2.0,-0.7,,,,,,*4F
$GPGRS,140112.00,1,-1.9,-1.1,-3.7,2.6,0.3,3.2,,,,,,*6E
$GPGSV,4,1,14,25,70,300,44,06,25,048,35,24,26,156,33,32,29,270,34*79
$GPGSV,4,2,14,29,39,217,41,28,27,311,42,11,37,090,30,12,62,073,50*78
$GPGSV,4,3,14,31,02,316,,19,03,047,,36,35,170,36,34,31,208,36*7D
$GPGSV,4,4,14,49,34,195,37,61,03,257,*7B
$GLGSV,3,1,10,78,71,352,50,68,10,249,29,69,22,297,33,79,23,305,45*6E
$GLGSV,3,2,10,87,45,047,43,77,34,103,32,88,53,152,46,86,05,022,28*68
$GLGSV,3,3,10,70,06,358,,81,08,187,*64
$GAGSV,3,1,10,30,77,043,49,19,10,331,30,02,26,086,33,15,11,163,*61
$GAGSV,3,2,10,36,29,053,39,29,31,289,38,07,26,227,39,34,37,116,37*64
$GAGSV,3,3,10,18,43,065,,27,42,281,43*6B
$GBGSV,6,1,21,24,66,120,44,11,27,205,,43,18,229,,26,15,121,*6D
$GBGSV,6,2,21,05,20,130,34,35,24,047,27,10,18,064,27,34,40,186,46*69
$GBGSV,6,3,21,56,25,053,,25,55,300,41,12,60,149,45,44,61,092,39*60
$GBGSV,6,4,21,32,07,323,37,13,03,095,,02,04,108,,38,08,075,*69
$GBGSV,6,5,21,41,06,273,28,07,05,062,,08,04,088,,23,05,300,29*62
$GBGSV,6,6,21,60,09,110,*57
$GPGGA,140112.00,,,,,0,00,,,M,,M,,*4F
$PTNL,GGK,140112.00,010125,4742.4455763,N,01617.9733917,E,1,20,1.4,EHT669.9548,M*44
$GPGGQ,140112.00,010125,4742.4455763,N,01617.9733917,E,1,20,2.617,626.7437,M*31
$GPGFA,140112.00,8.752,18.846,0.921,0.847,294.880,2.298,,VVV*30
$GPLLK,140112.00,010125,,M,,M,1,20,1.6,,M*09
$GNGMP,140112.00,,,,,DAAA,20,0.7,,,,*54
$GPGMP,140112.00,,,,,,04,,,,2.8,123*74
$GLGMP,140112.00,,,,,,04,,,,,*7C
$GAGMP,140112.00,,,,,,06,,,,,*73
$GBGMP,140112.00,,,,,,06,,,,,*70
$PSSN,SNC,[0,309690000,2347]*41
$GPZDA,140117.00,01,01,2025,,*61
$GPDTM,W84,,00.0000000,N,00.0000000,E,00.0000000,W84*5F
$GPRMC,140117.00,A,4742.4455754,N,01617.9733982,E,0.0,,010125,5.1,E,D*10
$GPGLL,4742.4455754,N,01617.9733982,E,140117.00,A,D*61
$GPGGA,140117.00,4742.4455754,N,01617.9733982,E,2,20,0.7,626.7274,M,43.2110,M,2.8,0123*42
$GNGNS,140117.00,4742.4455754,N,01617.9733982,E,DAAA,20,0.7,626.7274,43.2110,,*54
$GPGNS,140117.00,,,,,,04,,,,2.8,123*71
$GLGNS,140117.00,,,,,,04,,,,,*79
$GAGNS,140117.00,,,,,,06,,,,,*76
$GBGNS,140117.00,,,,,,06,,,,,*75
$GPLLQ,140117.00,010125,,M,,M,1,20,2.576,,M*17
$GPVTG,,T,,M,0.01,N,0.01,K,D*26
$GPHDT,,T*1B
$GPTHS,,V*0E
$GPROT,,V*08
$PSSN,HRP,140117.00,010125,,,,,,,00,0,,*63
$PTNL,AVR,140117.00,,Yaw,,Tilt,,,,0,,00*35
$GPGSA,A,3,12,25,28,29,,,,,,,,,1.4,0.7,1.2*36
$GPGSA,A,3,78,79,87,88,,,,,,,,,1.4,0.7,1.2*3D
$GPGSA,A,3,07,27,29,30,34,36,,,,,,,1.4,0.7,1.2*3B
$GPGSA,A,3,12,24,25,32,34,44,,,,,,,1.4,0.7,1.2*37
$GPGST,140117.00,2.421,0.900,0.826,295.945,0.840,0.887,2.268*56
$GPGBS,140117.00,7.121,7.467,18.868,88,0.0001,-3.962,6.154*41
$GPGRS,140117.00,1,-0.5,0.4,-0.1,0.2,,,,,,,,*4E
$GPGRS,140117.00,1,-1.5,-0.8,2.6,-4.0,,,,,,,,*6D
$GPGRS,140117.00,1,2.8,-0.8,-1.9,0.0,2.1,-2.1,,,,,,*6B
$GPGRS,140117.00,1,-2.8,-1.5,-3.5,-1.6,0.3,2.1,,,,,,*43
$GPGSV,4,1,14,25,70,301,42,06,25,048,34,24,26,156,32,32,29,270,35*7F
$GPGSV,4,2,14,29,39,217,40,28,27,311,43,11,37,090,31,12,62,073,50*79
$GPGSV,4,3,14,31,02,316,,19,03,047,,36,35,170,36,34,31,208,36*7D
$GPGSV,4,4,14,49,34,195,37,61,03,257,*7B
$GLGSV,3,1,10,78,71,352,50,68,10,249,33,69,22,297,33,79,23,305,45*65
$GLGSV,3,2,10,87,45,046,41,77,34,103,34,88,53,152,46,86,05,022,*67
$GLGSV,3,3,10,70,06,358,,81,08,187,*64
$GAGSV,3,1,10,30,77,043,48,19,10,330,29,02,26,086,34,15,11,163,*6E
$GAGSV,3,2,10,36,29,053,37,29,31,289,36,07,26,227,38,34,37,116,36*64
$GAGSV,3,3,10,18,43,065,,27,42,281,43*6B
$GBGSV,6,1,21,24,66,120,44,11,27,205,,43,18,229,,26,15,121,24*6B
$GBGSV,6,2,21,05,20,130,34,35,24,047,30,10,18,064,27,34,40,186,46*6F
$GBGSV,6,3,21,56,25,053,,25,55,300,41,12,60,149,45,44,61,092,41*6F
$GBGSV,6,4,21,32,07,323,37,13,03,095,,02,04,108,,38,08,075,*69
$GBGSV,6,5,21,41,06,273,27,07,05,062,,08,04,088,,23,05,300,29*6D
$GBGSV,6,6,21,60,09,110,*57
$GPGGA,140117.00,,,,,0,00,,,M,,M,,*4A
$PTNL,GGK,140117.00,010125,4742.4455754,N,01617.9733982,E,1,20,1.4,EHT669.9385,M*4E
$GPGGQ,140117.00,010125,4742.4455754,N,01617.9733982,E,1,20,2.576,626.7274,M*39
$GPGFA,140117.00,8.560,18.595,0.900,0.826,295.945,2.268,,VVV*37
$GPLLK,140117.00,010125,,M,,M,1,20,1.6,,M*0C
$GNGMP,140117.00,,,,,DAAA,20,0.7,,,,*51
$GPGMP,140117.00,,,,,,04,,,,2.8,123*71
$GLGMP,140117.00,,,,,,04,,,,,*79
$GAGMP,140117.00,,,,,,06,,,,,*76
$GBGMP,140117.00,,,,,,06,,,,,*75
$PSSN,SNC,[0,309695000,2347]*44
$GPZDA,140122.00,01,01,2025,,*67
$GPDTM,W84,,00.0000000,N,00.0000000,E,00.0000000,W84*5F
$GPRMC,140122.00,A,4742.4455770,N,01617.9733986,E,0.0,,010125,5.1,E,D*14
$GPGLL,4742.4455770,N,01617.9733986,E,140122.00,A,D*65
$GPGGA,140122.00,4742.4455770,N,01617.9733986,E,2,20,0.8,626.7442,M,43.2110,M,1.8,0123*49
$GNGNS,140122.00,4742.4455770,N,01617.9733986,E,DAAA,20,0.8,626.7442,43.2110,,*5C
$GPGNS,140122.00,,,,,,04,,,,1.8,123*74
$GLGNS,140122.00,,,,,,05,,,,,*7E
$GAGNS,140122.00,,,,,,05,,,,,*73
$GBGNS,140122.00,,,,,,06,,,,,*73
$GPLLQ,140122.00,010125,,M,,M,1,20,2.565,,M*13
$GPVTG,,T,,M,0.00,N,0.01,K,D*27
$GPHDT,,T*1B
$GPTHS,,V*0E
$GPROT,,V*08
$PSSN,HRP,140122.00,010125,,,,,,,00,0,,*65
$PTNL,AVR,140122.00,,Yaw,,Tilt,,,,0,,00*33
$GPGSA,A,3,12,25,28,29,,,,,,,,,1.4,0.8,1.2*39
$GPGSA,A,3,69,78,79,87,88,,,,,,,,1.4,0.8,1.2*3D
$GPGSA,A,3,07,27,29,30,36,,,,,,,,1.4,0.8,1.2*33
$GPGSA,A,3,12,24,25,32,34,44,,,,,,,1.4,0.8,1.2*38
$GPGST,140122.00,3.304,0.898,0.826,298.815,0.844,0.882,2.256*54
$GPGBS,140122.00,7.249,7.817,18.718,69,0.0001,8.367,6.708*60
$GPGRS,140122.00,1,-0.4,-0.2,0.3,0.5,,,,,,,,*4A
$GPGRS,140122.00,1,8.4,-1.8,-0.7,-2.3,-4.3,,,,,,,*60
$GPGRS,140122.00,1,2.5,-0.2,-1.3,0.2,-3.2,,,,,,,*4D
$GPGRS,140122.00,1,-2.9,-2.1,-3.2,-0.4,0.0,1.5,,,,,,*43
$GPGSV,4,1,14,25,70,301,40,06,25,048,34,24,26,156,30,32,29,270,34*7E
$GPGSV,4,2,14,29,39,217,39,28,27,311,44,11,37,090,31,12,62,073,50*70
$GPGSV,4,3,14,31,02,316,,19,02,047,,36,35,170,36,34,31,208,36*7C
$GPGSV,4,4,14,49,34,195,37,61,03,257,*7B
$GLGSV,3,1,10,78,71,352,50,77,34,103,35,87,45,046,41,79,24,305,45*6B
$GLGSV,3,2,10,69,22,297,37,88,53,152,45,81,08,187,,86,05,022,28*6D
$GLGSV,3,3,10,70,06,357,,68,10,249,35*62
$GAGSV,3,1,10,30,77,043,48,19,10,330,29,02,26,086,34,15,11,163,*6E
$GAGSV,3,2,10,36,29,053,36,29,31,289,35,07,26,227,36,34,37,116,35*6B
$GAGSV,3,3,10,18,43,065,,27,42,281,43*6B
$GBGSV,6,1,21,24,66,120,44,11,27,205,,43,18,229,,26,15,121,24*6B
$GBGSV,6,2,21,05,20,130,33,35,24,047,31,10,18,064,27,34,40,186,46*69
$GBGSV,6,3,21,56,25,053,,25,55,300,41,12,60,149,45,44,61,092,41*6F
$GBGSV,6,4,21,32,07,323,37,13,03,095,,02,04,108,,38,08,075,*69
$GBGSV,6,5,21,41,06,273,33,07,05,062,,08,04,088,,23,05,300,30*60
$GBGSV,6,6,21,60,09,110,*57
$GPGGA,140122.00,,,,,0,00,,,M,,M,,*4C
$PTNL,GGK,140122.00,010125,4742.4455770,N,01617.9733986,E,1,20,1.4,EHT669.9553,M*47
$GPGGQ,140122.00,010125,4742.4455770,N,01617.9733986,E,1,20,2.565,626.7442,M*3C
$GPGFA,140122.00,8.539,18.499,0.898,0.826,298.815,2.256,,VVV*34
$GPLLK,140122.00,010125,,M,,M,1,20,1.7,,M*0B
$GNGMP,140122.00,,,,,DAAA,20,0.8,,,,*58
$GPGMP,140122.00,,,,,,04,,,,1.8,123*74
$GLGMP,140122.00,,,,,,05,,,,,*7E
$GAGMP,140122.00,,,,,,05,,,,,*73
$GBGMP,140122.00,,,,,,06,,,,,*73
$PSSN,SNC,[0,309700000,2347]*49
$GPZDA,140127.00,01,01,2025,,*62
$GPDTM,W84,,00.0000000,N,00.0000000,E,00.0000000,W84*5F
$GPRMC,140127.00,A,4742.4455783,N,01617.9734088,E,0.0,,010125,5.1,E,D*1D
$GPGLL,4742.4455783,N,01617.9734088,E,140127.00,A,D*6C
$GPGGA,140127.00,4742.4455783,N,01617.9734088,E,2,22,0.7,626.7409,M,43.2110,M,2.8,0123*41
$GNGNS,140127.00,4742.4455783,N,01617.9734088,E,DAAA,22,0.7,626.7409,43.2110,,*57
$GPGNS,140127.00,,,,,,05,,,,2.8,123*73
$GLGNS,140127.00,,,,,,07,,,,,*79
$GAGNS,140127.00,,,,,,04,,,,,*77
$GBGNS,140127.00,,,,,,06,,,,,*76
$GPLLQ,140127.00,010125,,M,,M,1,22,3.558,,M*1B
$GPVTG,,T,,M,0.01,N,0.02,K,D*25
$GPHDT,,T*1B
$GPTHS,,V*0E
$GPROT,,V*08
$PSSN,HRP,140127.00,010125,,,,,,,00,0,,*60
$PTNL,AVR,140127.00,,Yaw,,Tilt,,,,0,,00*36
$GPGSA,A,3,06,12,25,28,29,,,,,,,,1.2,0.7,1.0*34
$GPGSA,A,3,68,69,77,78,79,87,88,,,,,,1.2,0.7,1.0*38
$GPGSA,A,3,07,27,30,36,,,,,,,,,1.2,0.7,1.0*33
$GPGSA,A,3,12,24,25,32,34,44,,,,,,,1.2,0.7,1.0*33
$GPGST,140127.00,6.723,1.654,1.116,328.006,1.522,1.290,2.946*5F
$GPGBS,140127.00,7.064,4.352,10.869,68,0.0001,22.111,6.872*58
$GPGRS,140127.00,1,1.8,-0.9,-0.1,0.3,1.0,,,,,,,*62
$GPGRS,140127.00,1,22.1,10.4,-2.5,-2.1,-1.1,-2.3,-3.6,,,,,*48
$GPGRS,140127.00,1,2.7,-0.3,-0.2,-3.5,,,,,,,,*60
$GPGRS,140127.00,1,-2.0,-2.9,-3.5,0.3,-0.7,0.4,,,,,,*40
$GPGSV,4,1,14,25,70,301,40,06,25,048,36,24,26,156,28,32,28,270,33*73
$GPGSV,4,2,14,29,39,217,40,28,27,311,45,11,37,090,30,12,62,073,51*7F
$GPGSV,4,3,14,31,02,316,31,19,02,047,,36,35,170,36,34,31,208,36*7E
$GPGSV,4,4,14,49,34,195,37,61,03,257,*7B
$GLGSV,3,1,10,78,71,352,49,77,34,103,36,87,45,046,42,79,24,305,45*63
$GLGSV,3,2,10,69,22,297,38,88,53,152,44,81,08,187,,86,05,022,27*6C
$GLGSV,3,3,10,70,06,357,,68,10,249,36*61
$GAGSV,3,1,10,30,77,043,48,19,10,330,28,02,26,086,34,15,11,163,*6F
$GAGSV,3,2,10,36,29,053,36,29,31,289,34,07,26,227,36,34,37,116,33*6C
$GAGSV,3,3,10,18,43,065,,27,42,281,43*6B
$GBGSV,6,1,21,24,66,120,44,11,27,205,,43,18,229,,26,15,121,23*6C
$GBGSV,6,2,21,05,20,130,33,35,24,047,32,10,18,064,27,34,40,186,46*6A
$GBGSV,6,3,21,56,25,053,,25,55,300,41,12,60,148,46,44,61,092,42*6E
$GBGSV,6,4,21,32,07,323,36,13,03,095,,02,04,108,,38,08,075,*68
$GBGSV,6,5,21,41,06,273,36,07,05,062,,08,04,088,,23,05,300,31*64
$GBGSV,6,6,21,60,09,110,*57
$GPGGA,140127.00,,,,,0,00,,,M,,M,,*49
$PTNL,GGK,140127.00,010125,4742.4455783,N,01617.9734088,E,1,22,1.2,EHT669.9520,M*4E
$GPGGQ,140127.00,010125,4742.4455783,N,01617.9734088,E,1,22,3.558,626.7409,M*37
$GPGFA,140127.00,15.723,24.158,1.654,1.116,328.006,2.946,,VVV*0D
$GPLLK,140127.00,010125,,M,,M,1,22,1.4,,M*0F
$GNGMP,140127.00,,,,,DAAA,22,0.7,,,,*50
$GPGMP,140127.00,,,,,,05,,,,2.8,123*73
