$GPZDA,045942.00,01,01,2025,,*6D
$GPDTM,W84,,00.0000000,N,00.0000000,E,00.0000000,W84*5F
$GPRMC,045942.00,A,4742.4464201,N,01617.9733169,E,0.0,,010125,5.1,E,D*16
$GPGLL,4742.4464201,N,01617.9733169,E,045942.00,A,D*67
$GPGGA,045942.00,4742.4464201,N,01617.9733169,E,2,21,0.7,624.0072,M,43.2111,M,3.8,0123*44
$GNGNS,045942.00,4742.4464201,N,01617.9733169,E,DAAA,21,0.7,624.0072,43.2111,,*53
$GPGNS,045942.00,,,,,,06,,,,3.8,123*7E
$GLGNS,045942.00,,,,,,06,,,,,*77
$GAGNS,045942.00,,,,,,05,,,,,*79
$GBGNS,045942.00,,,,,,04,,,,,*7B
$GPLLQ,045942.00,010125,,M,,M,1,21,3.166,,M*1E
$GPVTG,,T,,M,0.01,N,0.01,K,D*26
$GPHDT,,T*1B
$GPTHS,,V*0E
$GPROT,,V*08
$PSSN,HRP,045942.00,010125,,,,,,,00,0,,*6F
$PTNL,AVR,045942.00,,Yaw,,Tilt,,,,0,,00*39
$GPGSA,A,3,04,06,07,09,11,20,,,,,,,1.3,0.7,1.1*39
$GPGSA,A,3,71,72,73,74,80,87,,,,,,,1.3,0.7,1.1*34
$GPGSA,A,3,03,05,09,15,34,,,,,,,,1.3,0.7,1.1*3B
$GPGSA,A,3,21,22,36,44,,,,,,,,,1.3,0.7,1.1*31
$GPGST,045942.00,3.519,1.177,0.724,345.755,1.154,0.759,2.849*5E
$GPGBS,045942.00,4.587,3.391,10.776,06,0.0001,-2.649,0.720*46
$GPGRS,045942.00,1,-0.0,-2.6,1.1,0.2,0.3,0.3,,,,,,*46
$GPGRS,045942.00,1,-2.9,5.2,3.8,0.3,0.6,-7.1,,,,,,*44
$GPGRS,045942.00,1,-1.5,1.3,1.7,0.4,-0.1,,,,,,,*6B
$GPGRS,045942.00,1,-4.0,-2.6,-4.4,3.9,,,,,,,,*67
$GPGSV,4,1,16,07,68,167,51,04,33,074,44,16,18,052,32,20,37,306,46*78
$GPGSV,4,2,16,30,35,204,29,11,41,276,41,06,37,226,39,09,62,066,51*74
$GPGSV,4,3,16,05,05,310,30,26,04,027,,29,02,338,,03,04,131,*78
$GPGSV,4,4,16,36,35,170,41,34,31,208,,49,34,195,33,61,03,257,*72
$GLGSV,3,1,09,71,65,042,51,88,18,334,31,70,24,090,31,74,25,159,37*61
$GLGSV,3,2,09,86,15,223,34,87,33,271,41,80,29,036,37,72,44,305,52*6B
$GLGSV,3,3,09,73,50,108,47*57
$GAGSV,3,1,11,05,80,321,46,06,15,076,21,36,15,187,24,24,18,125,31*67
$GAGSV,3,2,11,31,24,072,29,03,31,265,40,15,34,306,45,34,46,237,46*61
$GAGSV,3,3,11,09,37,071,40,23,07,024,,16,07,148,*5A
$GBGSV,6,1,22,22,66,306,51,16,15,045,24,21,14,291,36,06,17,047,27*66
$GBGSV,6,2,22,05,22,129,32,44,15,259,36,36,42,153,44,09,31,050,23*65
$GBGSV,6,3,22,12,20,284,26,58,34,056,,48,27,104,,46,45,075,*61
$GBGSV,6,4,22,19,54,096,30,11,04,331,,37,07,033,,39,04,045,*65
$GBGSV,6,5,22,20,07,106,,45,06,189,,34,09,309,,02,06,107,*6B
$GBGSV,6,6,22,35,01,218,,60,07,111,*67
$GPGGA,045942.00,,,,,0,00,,,M,,M,,*46
$PTNL,GGK,045942.00,010125,4742.4464201,N,01617.9733169,E,1,21,1.3,EHT667.2183,M*4F
$GPGGQ,045942.00,010125,4742.4464201,N,01617.9733169,E,1,21,3.166,624.0072,M*3B
$GPGFA,045942.00,11.186,23.362,1.177,0.724,345.755,2.849,,VVV*07
$GPLLK,045942.00,010125,,M,,M,1,21,1.5,,M*02
$GNGMP,045942.00,,,,,DAAA,21,0.7,,,,*5C
$GPGMP,045942.00,,,,,,06,,,,3.8,123*7E
$GLGMP,045942.00,,,,,,06,,,,,*77
$GAGMP,045942.00,,,,,,05,,,,,*79
$GBGMP,045942.00,,,,,,04,,,,,*7B
$PSSN,SNC,[0,277200000,2347]*44
$GPZDA,045947.00,01,01,2025,,*68
$GPDTM,W84,,00.0000000,N,00.0000000,E,00.0000000,W84*5F
$GPRMC,045947.00,A,4742.4464250,N,01617.9733075,E,0.0,,010125,5.1,E,D*1B
$GPGLL,4742.4464250,N,01617.9733075,E,045947.00,A,D*6A
$GPGGA,045947.00,4742.4464250,N,01617.9733075,E,2,20,0.7,623.9958,M,43.2111,M,1.6,0123*4B
$GNGNS,045947.00,4742.4464250,N,01617.9733075,E,DAAA,20,0.7,623.9958,43.2111,,*50
$GPGNS,045947.00,,,,,,05,,,,1.6,123*74
$GLGNS,045947.00,,,,,,06,,,,,*72
$GAGNS,045947.00,,,,,,05,,,,,*7C
$GBGNS,045947.00,,,,,,04,,,,,*7E
$GPLLQ,045947.00,010125,,M,,M,1,20,3.205,,M*1C
$GPVTG,,T,,M,0.01,N,0.01,K,D*26
$GPHDT,,T*1B
$GPTHS,,V*0E
$GPROT,,V*08
$PSSN,HRP,045947.00,010125,,,,,,,00,0,,*6A
$PTNL,AVR,045947.00,,Yaw,,Tilt,,,,0,,00*3C
$GPGSA,A,3,04,07,09,11,20,,,,,,,,1.3,0.7,1.1*3F
$GPGSA,A,3,71,72,73,74,87,88,,,,,,,1.3,0.7,1.1*3C
$GPGSA,A,3,03,05,09,15,34,,,,,,,,1.3,0.7,1.1*3B
$GPGSA,A,3,21,22,36,44,,,,,,,,,1.3,0.7,1.1*31
$GPGST,045947.00,4.132,1.464,0.589,359.330,1.464,0.590,2.789*5B
$GPGBS,045947.00,6.510,3.104,13.537,07,0.0001,1.030,0.578*6D
$GPGRS,045947.00,1,-0.3,1.0,0.0,-1.1,-0.2,,,,,,,*46
$GPGRS,045947.00,1,-3.4,5.3,4.4,1.3,-7.9,-6.9,,,,,,*6A
$GPGRS,045947.00,1,-1.7,1.3,1.6,0.8,-0.1,,,,,,,*61
$GPGRS,045947.00,1,-3.3,-2.3,-3.9,3.2,,,,,,,,*62
$GPGSV,4,1,16,07,68,167,50,04,33,074,44,16,18,052,31,20,37,306,46*7A
$GPGSV,4,2,16,30,35,204,29,11,41,276,39,06,37,226,37,09,62,066,50*74
$GPGSV,4,3,16,05,05,311,28,26,04,027,,29,02,338,,03,04,131,*70
$GPGSV,4,4,16,36,35,170,41,34,31,208,,49,34,195,33,61,03,257,*72
$GLGSV,3,1,09,71,65,042,50,88,18,333,42,70,24,090,30,74,25,159,37*62
$GLGSV,3,2,09,86,15,223,28,87,33,271,41,80,29,036,34,72,44,305,52*65
$GLGSV,3,3,09,73,50,108,48*58
$GAGSV,3,1,11,05,80,321,46,06,15,076,22,36,15,187,26,24,18,125,29*6F
$GAGSV,3,2,11,31,24,071,31,03,31,265,38,15,34,306,44,34,46,237,45*66
$GAGSV,3,3,11,09,37,071,40,23,07,024,,16,07,148,*5A
$GBGSV,6,1,22,22,66,307,51,16,15,045,24,21,14,291,38,06,17,047,28*66
$GBGSV,6,2,22,05,22,129,33,44,15,259,37,36,42,153,44,09,31,050,22*64
$GBGSV,6,3,22,12,20,284,25,58,34,056,,48,27,104,,46,45,075,*62
$GBGSV,6,4,22,19,54,096,34,11,04,331,,37,07,033,,39,04,045,*61
$GBGSV,6,5,22,20,07,106,,45,06,189,,34,09,309,,02,06,107,*6B
$GBGSV,6,6,22,35,01,218,,60,07,111,*67
$GPGGA,045947.00,,,,,0,00,,,M,,M,,*43
$PTNL,GGK,045947.00,010125,4742.4464250,N,01617.9733075,E,1,20,1.3,EHT667.2068,M*47
$GPGGQ,045947.00,010125,4742.4464250,N,01617.9733075,E,1,20,3.205,623.9958,M*3E
$GPGFA,045947.00,13.916,22.873,1.464,0.589,359.330,2.789,,VVV*00
$GPLLK,045947.00,010125,,M,,M,1,20,1.5,,M*06
$GNGMP,045947.00,,,,,DAAA,20,0.7,,,,*58
$GPGMP,045947.00,,,,,,05,,,,1.6,123*74
$GLGMP,045947.00,,,,,,06,,,,,*72
$GAGMP,045947.00,,,,,,05,,,,,*7C
$GBGMP,045947.00,,,,,,04,,,,,*7E
$PSSN,SNC,[0,277205000,2347]*41
$GPZDA,045952.00,01,01,2025,,*6C
$GPDTM,W84,,00.0000000,N,00.0000000,E,00.0000000,W84*5F
$GPRMC,045952.00,A,4742.4464299,N,01617.9733043,E,0.0,,010125,5.1,E,D*1F
$GPGLL,4742.4464299,N,01617.9733043,E,045952.00,A,D*6E
$GPGGA,045952.00,4742.4464299,N,01617.9733043,E,2,21,0.7,623.9822,M,43.2111,M,1.8,0123*4C
$GNGNS,045952.00,4742.4464299,N,01617.9733043,E,DAAA,21,0.7,623.9822,43.2111,,*59
$GPGNS,045952.00,,,,,,05,,,,1.8,123*7E
$GLGNS,045952.00,,,,,,06,,,,,*76
$GAGNS,045952.00,,,,,,05,,,,,*78
$GBGNS,045952.00,,,,,,05,,,,,*7B
$GPLLQ,045952.00,010125,,M,,M,1,21,2.223,,M*1C
$GPVTG,,T,,M,0.00,N,0.00,K,D*26
$GPHDT,,T*1B
$GPTHS,,V*0E
$GPROT,,V*08
$PSSN,HRP,045952.00,010125,,,,,,,00,0,,*6E
$PTNL,AVR,045952.00,,Yaw,,Tilt,,,,0,,00*38
$GPGSA,A,3,04,07,09,11,20,,,,,,,,1.3,0.7,1.1*3F
$GPGSA,A,3,71,72,73,74,87,88,,,,,,,1.3,0.7,1.1*3C
$GPGSA,A,3,03,05,09,15,34,,,,,,,,1.3,0.7,1.1*3B
$GPGSA,A,3,19,21,22,36,44,,,,,,,,1.3,0.7,1.1*39
$GPGST,045952.00,3.367,1.017,0.408,359.024,1.017,0.408,1.934*5F
$GPGBS,045952.00,6.432,3.144,13.640,07,0.0001,0.698,0.594*68
$GPGRS,045952.00,1,-0.5,0.7,0.1,-0.3,-0.1,,,,,,,*43
$GPGRS,045952.00,1,-4.4,4.7,4.4,1.3,-6.8,1.0,,,,,,*4F
$GPGRS,045952.00,1,-1.0,1.2,2.2,0.9,-0.1,,,,,,,*65
$GPGRS,045952.00,1,-2.7,-2.3,-2.0,-4.1,2.5,,,,,,,*6B
$GPGSV,4,1,16,07,68,167,50,04,33,074,44,16,18,052,,20,37,306,46*78
$GPGSV,4,2,16,30,35,204,32,11,41,276,40,06,37,226,36,09,62,066,49*79
$GPGSV,4,3,16,05,05,311,,26,04,027,,29,02,338,,03,04,131,*7A
$GPGSV,4,4,16,36,35,170,41,34,31,208,,49,34,195,33,61,03,257,*72
$GLGSV,3,1,09,71,65,042,49,88,18,333,42,70,24,090,28,74,25,159,38*6C
$GLGSV,3,2,09,86,15,223,33,87,33,271,43,80,29,036,35,72,44,305,51*6F
$GLGSV,3,3,09,73,50,108,48*58
$GAGSV,3,1,11,05,80,321,47,06,15,076,23,36,15,187,28,24,18,125,28*60
$GAGSV,3,2,11,31,24,071,33,03,31,265,38,15,34,306,45,34,46,237,45*65
$GAGSV,3,3,11,09,37,071,41,23,07,024,,16,07,148,*5B
$GBGSV,6,1,22,22,66,307,51,16,15,045,24,21,14,291,39,06,17,047,28*67
$GBGSV,6,2,22,05,22,129,32,44,15,259,38,36,42,153,44,09,31,050,21*69
$GBGSV,6,3,22,12,20,284,27,58,34,056,,48,27,104,,46,45,075,*60
$GBGSV,6,4,22,19,54,096,36,11,04,331,,37,07,033,,39,04,045,*63
$GBGSV,6,5,22,20,07,106,,45,06,189,,34,09,309,,02,06,107,*6B
$GBGSV,6,6,22,35,01,218,,60,07,111,*67
$GPGGA,045952.00,,,,,0,00,,,M,,M,,*47
$PTNL,GGK,045952.00,010125,4742.4464299,N,01617.9733043,E,1,21,1.3,EHT667.1932,M*47
$GPGGQ,045952.00,010125,4742.4464299,N,01617.9733043,E,1,21,2.223,623.9822,M*32
$GPGFA,045952.00,9.668,15.860,1.017,0.408,359.024,1.934,,VVV*3A
$GPLLK,045952.00,010125,,M,,M,1,21,1.5,,M*03
$GNGMP,045952.00,,,,,DAAA,21,0.7,,,,*5D
$GPGMP,045952.00,,,,,,05,,,,1.8,123*7E
$GLGMP,045952.00,,,,,,06,,,,,*76
$GAGMP,045952.00,,,,,,05,,,,,*78
$GBGMP,045952.00,,,,,,05,,,,,*7B
$PSSN,SNC,[0,277210000,2347]*45
$GPZDA,045957.00,01,01,2025,,*69
$GPDTM,W84,,00.0000000,N,00.0000000,E,00.0000000,W84*5F
$GPRMC,045957.00,A,4742.4464350,N,01617.9733094,E,0.0,,010125,5.1,E,D*14
$GPGLL,4742.4464350,N,01617.9733094,E,045957.00,A,D*65
$GPGGA,045957.00,4742.4464350,N,01617.9733094,E,2,22,0.7,623.9676,M,43.2111,M,2.8,0123*48
$GNGNS,045957.00,4742.4464350,N,01617.9733094,E,DAAA,22,0.7,623.9676,43.2111,,*5E
$GPGNS,045957.00,,,,,,05,,,,2.8,123*78
$GLGNS,045957.00,,,,,,06,,,,,*73
$GAGNS,045957.00,,,,,,05,,,,,*7D
$GBGNS,045957.00,,,,,,06,,,,,*7D
$GPLLQ,045957.00,010125,,M,,M,1,22,2.767,,M*1F
$GPVTG,,T,,M,0.00,N,0.00,K,D*26
$GPHDT,,T*1B
$GPTHS,,V*0E
$GPROT,,V*08
$PSSN,HRP,045957.00,010125,,,,,,,00,0,,*6B
$PTNL,AVR,045957.00,,Yaw,,Tilt,,,,0,,00*3D
$GPGSA,A,3,04,07,09,11,20,,,,,,,,1.3,0.7,1.1*3F
$GPGSA,A,3,71,72,73,74,87,88,,,,,,,1.3,0.7,1.1*3C
$GPGSA,A,3,03,05,09,15,34,,,,,,,,1.3,0.7,1.1*3B
$GPGSA,A,3,09,19,21,22,36,44,,,,,,,1.3,0.7,1.1*30
$GPGST,045957.00,3.558,1.262,0.506,359.400,1.262,0.506,2.410*5A
$GPGBS,045957.00,6.445,3.180,13.810,04,0.0001,-1.336,0.810*41
$GPGRS,045957.00,1,-1.3,0.6,-0.2,1.0,-0.5,,,,,,,*45
$GPGRS,045957.00,1,-4.2,3.9,4.3,0.2,-3.5,4.6,,,,,,*49
$GPGRS,045957.00,1,-0.8,1.1,3.8,0.3,-0.2,,,,,,,*68
$GPGRS,045957.00,1,-5.6,-2.4,-3.3,-2.2,-5.0,2.6,,,,,,*6D
$GPGSV,4,1,16,07,68,167,50,04,33,074,43,16,18,052,29,20,37,306,46*74
$GPGSV,4,2,16,30,35,204,33,11,41,276,42,06,37,226,35,09,62,066,48*78
$GPGSV,4,3,16,05,05,311,28,26,04,027,,29,02,338,,03,04,131,*70
$GPGSV,4,4,16,36,35,170,41,34,31,208,,49,34,195,34,61,03,257,*75
$GLGSV,3,1,09,71,65,042,49,88,18,333,43,70,24,090,,74,25,159,37*68
$GLGSV,3,2,09,86,15,223,30,87,33,271,43,80,29,036,,72,44,305,50*6B
$GLGSV,3,3,09,73,50,108,49*59
$GAGSV,3,1,11,05,80,321,47,06,15,076,22,36,15,187,28,24,18,125,28*61
$GAGSV,3,2,11,31,24,071,33,03,31,265,37,15,34,306,45,34,46,237,45*6A
$GAGSV,3,3,11,09,37,071,41,23,07,024,,16,07,148,*5B
$GBGSV,6,1,22,22,66,307,51,16,15,045,24,21,14,291,40,06,17,047,28*69
$GBGSV,6,2,22,05,22,129,33,44,15,259,39,36,42,153,45,09,31,050,36*6E
$GBGSV,6,3,22,12,20,284,30,58,34,056,,48,27,104,,46,45,075,*66
$GBGSV,6,4,22,19,54,096,37,11,04,330,,37,07,033,,39,04,045,*63
$GBGSV,6,5,22,20,07,106,,45,06,189,,34,09,309,,02,06,107,*6B
$GBGSV,6,6,22,35,01,218,,60,07,111,*67
$GPGGA,045957.00,,,,,0,00,,,M,,M,,*42
$PTNL,GGK,045957.00,010125,4742.4464350,N,01617.9733094,E,1,22,1.3,EHT667.1786,M*4E
$GPGGQ,045957.00,010125,4742.4464350,N,01617.9733094,E,1,22,2.767,623.9676,M*30
$GPGFA,045957.00,11.996,19.766,1.262,0.506,359.400,2.410,,VVV*08
$GPLLK,045957.00,010125,,M,,M,1,22,1.5,,M*05
$GNGMP,045957.00,,,,,DAAA,22,0.7,,,,*5B
$GPGMP,045957.00,,,,,,05,,,,2.8,123*78
$GLGMP,045957.00,,,,,,06,,,,,*73
$GAGMP,045957.00,,,,,,05,,,,,*7D
$GBGMP,045957.00,,,,,,06,,,,,*7D
$PSSN,SNC,[0,277215000,2347]*40
$GPZDA,050002.00,01,01,2025,,*64
$GPDTM,W84,,00.0000000,N,00.0000000,E,00.0000000,W84*5F
$GPRMC,050002.00,A,4742.4464373,N,01617.9733233,E,0.0,,010125,5.1,E,D*17
$GPGLL,4742.4464373,N,01617.9733233,E,050002.00,A,D*66
$GPGGA,050002.00,4742.4464373,N,01617.9733233,E,2,22,0.7,623.9569,M,43.2111,M,3.8,0123*47
$GNGNS,050002.00,4742.4464373,N,01617.9733233,E,DAAA,22,0.7,623.9569,43.2111,,*50
$GPGNS,050002.00,,,,,,05,,,,3.8,123*74
$GLGNS,050002.00,,,,,,06,,,,,*7E
$GAGNS,050002.00,,,,,,05,,,,,*70
$GBGNS,050002.00,,,,,,06,,,,,*70
$GPLLQ,050002.00,010125,,M,,M,1,22,3.208,,M*1F
$GPVTG,,T,,M,0.00,N,0.01,K,D*27
$GPHDT,,T*1B
$GPTHS,,V*0E
$GPROT,,V*08
$PSSN,HRP,050002.00,010125,,,,,,,00,0,,*66
$PTNL,AVR,050002.00,,Yaw,,Tilt,,,,0,,00*30
$GPGSA,A,3,04,07,09,11,20,,,,,,,,1.3,0.7,1.1*3F
$GPGSA,A,3,71,72,73,74,87,88,,,,,,,1.3,0.7,1.1*3C
$GPGSA,A,3,03,05,09,15,34,,,,,,,,1.3,0.7,1.1*3B
$GPGSA,A,3,09,19,21,22,36,44,,,,,,,1.3,0.7,1.1*30
$GPGST,050002.00,3.885,1.466,0.586,359.482,1.466,0.586,2.792*59
$GPGBS,050002.00,6.520,3.232,13.989,11,0.0001,1.472,0.718*6C
$GPGRS,050002.00,1,-0.9,0.3,-0.3,1.5,-1.0,,,,,,,*46
$GPGRS,050002.00,1,-4.1,4.3,4.3,-1.5,-2.6,5.6,,,,,,*62
$GPGRS,050002.00,1,-1.0,1.2,4.6,0.1,-0.2,,,,,,,*64
$GPGRS,050002.00,1,-5.8,-1.6,-4.8,-2.6,-5.4,3.0,,,,,,*64
$GPGSV,4,1,16,07,68,167,49,04,33,074,43,16,18,052,29,20,37,306,47*7D
$GPGSV,4,2,16,30,35,204,35,11,41,276,44,06,37,226,33,09,62,066,47*71
$GPGSV,4,3,16,05,05,311,29,26,04,027,,29,02,338,,03,04,131,*71
$GPGSV,4,4,16,36,35,170,41,34,31,208,,49,34,195,33,61,03,257,*72
$GLGSV,3,1,09,71,65,042,49,88,18,333,42,70,24,090,23,74,25,159,37*68
$GLGSV,3,2,09,86,15,223,,87,33,271,43,80,28,036,35,72,44,305,50*6F
$GLGSV,3,3,09,73,51,108,50*50
$GAGSV,3,1,11,05,80,322,47,06,14,076,22,36,15,187,28,24,18,125,30*6A
$GAGSV,3,2,11,31,24,071,32,03,31,265,35,15,34,306,46,34,46,237,46*69
$GAGSV,3,3,11,09,37,071,40,23,07,024,,16,07,148,*5A
$GBGSV,6,1,22,22,66,307,50,16,15,045,26,21,14,291,39,06,17,047,28*64
$GBGSV,6,2,22,05,22,129,32,44,15,259,40,36,42,153,45,09,31,050,36*61
$GBGSV,6,3,22,12,20,284,31,58,34,056,,48,27,104,,46,45,075,*67
$GBGSV,6,4,22,19,54,096,37,11,04,330,,37,07,033,,39,04,045,*63
$GBGSV,6,5,22,20,07,106,,45,06,189,,34,09,309,,02,06,107,*6B
$GBGSV,6,6,22,35,01,218,,60,07,111,*67
$GPGGA,050002.00,,,,,0,00,,,M,,M,,*4F
$PTNL,GGK,050002.00,010125,4742.4464373,N,01617.9733233,E,1,22,1.3,EHT667.1680,M*4A
$GPGGQ,050002.00,010125,4742.4464373,N,01617.9733233,E,1,22,3.208,623.9569,M*33
$GPGFA,050002.00,13.936,22.895,1.466,0.586,359.482,2.792,,VVV*0F
$GPLLK,050002.00,010125,,M,,M,1,22,1.5,,M*08
$GNGMP,050002.00,,,,,DAAA,22,0.7,,,,*56
$GPGMP,050002.00,,,,,,05,,,,3.8,123*74
$GLGMP,050002.00,,,,,,06,,,,,*7E
$GAGMP,050002.00,,,,,,05,,,,,*70
$GBGMP,050002.00,,,,,,06,,,,,*70
$PSSN,SNC,[0,277220000,2347]*46
$GPZDA,050007.00,01,01,2025,,*61
$GPDTM,W84,,00.0000000,N,00.0000000,E,00.0000000,W84*5F
$GPRMC,050007.00,A,4742.4464392,N,01617.9733285,E,0.0,,010125,5.1,E,D*10
$GPGLL,4742.4464392,N,01617.9733285,E,050007.00,A,D*61
$GPGGA,050007.00,4742.4464392,N,01617.9733285,E,2,22,0.6,623.9494,M,43.2111,M,1.8,0123*40
$GNGNS,050007.00,4742.4464392,N,01617.9733285,E,DAAA,22,0.6,623.9494,43.2111,,*55
$GPGNS,050007.00,,,,,,06,,,,1.8,123*70
$GLGNS,050007.00,,,,,,06,,,,,*7B
$GAGNS,050007.00,,,,,,04,,,,,*74
$GBGNS,050007.00,,,,,,06,,,,,*75
$GPLLQ,050007.00,010125,,M,,M,1,22,2.152,,M*17
$GPVTG,,T,,M,0.00,N,0.01,K,D*27
$GPHDT,,T*1B
$GPTHS,,V*0E
$GPROT,,V*08
$PSSN,HRP,050007.00,010125,,,,,,,00,0,,*63
$PTNL,AVR,050007.00,,Yaw,,Tilt,,,,0,,00*35
$GPGSA,A,3,04,07,09,11,20,30,,,,,,,1.3,0.6,1.1*3D
$GPGSA,A,3,71,72,73,74,87,88,,,,,,,1.3,0.6,1.1*3D
$GPGSA,A,3,05,09,15,34,,,,,,,,,1.3,0.6,1.1*39
$GPGSA,A,3,09,19,21,22,36,44,,,,,,,1.3,0.6,1.1*31
$GPGST,050007.00,4.131,0.732,0.560,347.930,0.725,0.569,1.945*5E
$GPGBS,050007.00,4.132,3.093,8.898,30,0.0001,2.013,0.720*56
$GPGRS,050007.00,1,-0.2,-0.1,-0.0,0.4,-0.9,2.0,,,,,,*40
$GPGRS,050007.00,1,-5.1,6.0,4.2,-1.1,-4.7,4.6,,,,,,*64
$GPGRS,050007.00,1,1.1,3.2,-0.4,-0.5,,,,,,,,*4C
$GPGRS,050007.00,1,-5.8,-1.1,-6.2,-3.2,-5.3,2.3,,,,,,*6E
$GPGSV,4,1,16,07,68,167,49,04,33,074,43,16,18,052,30,20,37,306,47*75
$GPGSV,4,2,16,30,35,204,37,11,41,276,44,06,37,226,32,09,62,066,47*72
$GPGSV,4,3,16,05,05,311,28,26,04,027,,29,02,338,,03,04,131,*70
$GPGSV,4,4,16,36,35,170,41,34,31,208,,49,34,195,34,61,03,257,*75
$GLGSV,3,1,09,71,65,042,49,88,18,333,42,70,24,090,23,74,25,159,35*6A
$GLGSV,3,2,09,86,15,223,,87,33,271,41,80,28,036,,72,44,305,49*63
$GLGSV,3,3,09,73,51,108,50*50
$GAGSV,3,1,11,05,80,322,48,06,14,076,22,36,15,187,28,24,18,125,30*65
$GAGSV,3,2,11,31,24,071,32,03,31,265,33,15,34,306,46,34,46,237,46*6F
$GAGSV,3,3,11,09,37,071,40,23,07,024,,16,07,148,*5A
$GBGSV,6,1,22,22,66,307,50,16,15,045,27,21,15,291,38,06,17,047,29*64
$GBGSV,6,2,22,05,22,129,32,44,15,259,39,09,31,050,36,36,42,153,45*6F
$GBGSV,6,3,22,12,20,283,31,58,34,056,,48,27,104,,46,45,075,*60
$GBGSV,6,4,22,19,54,096,39,35,01,218,,37,06,033,,39,04,045,*64
$GBGSV,6,5,22,20,07,106,,45,06,189,,34,09,309,,02,06,107,*6B
$GBGSV,6,6,22,11,04,330,,60,07,111,*6F
$GPGGA,050007.00,,,,,0,00,,,M,,M,,*4A
$PTNL,GGK,050007.00,010125,4742.4464392,N,01617.9733285,E,1,22,1.3,EHT667.1605,M*40
$GPGGQ,050007.00,010125,4742.4464392,N,01617.9733285,E,1,22,2.152,623.9494,M*3A
$GPGFA,050007.00,6.957,15.946,0.732,0.560,347.930,1.945,,VVV*35
$GPLLK,050007.00,010125,,M,,M,1,22,1.5,,M*0D
$GNGMP,050007.00,,,,,DAAA,22,0.6,,,,*52
$GPGMP,050007.00,,,,,,06,,,,1.8,123*70
$GLGMP,050007.00,,,,,,06,,,,,*7B
$GAGMP,050007.00,,,,,,04,,,,,*74
$GBGMP,050007.00,,,,,,06,,,,,*75
$PSSN,SNC,[0,277225000,2347]*43
$GPZDA,050012.00,01,01,2025,,*65
$GPDTM,W84,,00.0000000,N,00.0000000,E,00.0000000,W84*5F
$GPRMC,050012.00,A,4742.4464465,N,01617.9733263,E,0.0,,010125,5.1,E,D*13
$GPGLL,4742.4464465,N,01617.9733263,E,050012.00,A,D*62
$GPGGA,050012.00,4742.4464465,N,01617.9733263,E,2,20,0.8,623.9537,M,43.2111,M,1.8,0123*47
$GNGNS,050012.00,4742.4464465,N,01617.9733263,E,DAAA,20,0.8,623.9537,43.2111,,*52
$GPGNS,050012.00,,,,,,05,,,,1.8,123*77
$GLGNS,050012.00,,,,,,05,,,,,*7C
$GAGNS,050012.00,,,,,,04,,,,,*70
$GBGNS,050012.00,,,,,,06,,,,,*71
$GPLLQ,050012.00,010125,,M,,M,1,20,2.696,,M*1E
$GPVTG,,T,,M,0.01,N,0.02,K,D*25
$GPHDT,,T*1B
$GPTHS,,V*0E
$GPROT,,V*08
$PSSN,HRP,050012.00,010125,,,,,,,00,0,,*67
$PTNL,AVR,050012.00,,Yaw,,Tilt,,,,0,,00*31
$GPGSA,A,3,04,07,09,11,20,,,,,,,,1.4,0.8,1.2*34
$GPGSA,A,3,71,72,73,87,88,,,,,,,,1.4,0.8,1.2*34
$GPGSA,A,3,05,09,15,34,,,,,,,,,1.4,0.8,1.2*33
$GPGSA,A,3,09,19,21,22,36,44,,,,,,,1.4,0.8,1.2*3B
$GPGST,050012.00,4.324,1.248,0.476,358.573,1.248,0.476,2.341*5B
$GPGBS,050012.00,7.098,3.161,14.532,20,0.0001,-0.975,0.719*41
$GPGRS,050012.00,1,0.5,0.0,0.0,0.4,-1.0,,,,,,,*4B
$GPGRS,050012.00,1,-5.3,5.7,2.4,-7.8,2.9,,,,,,,*60
$GPGRS,050012.00,1,1.1,0.9,-0.3,-0.3,,,,,,,,*41
$GPGRS,050012.00,1,-5.3,-0.3,-5.8,-3.3,-5.3,1.2,,,,,,*68
$GPGSV,4,1,16,07,68,167,48,04,33,074,43,16,18,052,29,20,37,306,47*7C
$GPGSV,4,2,16,30,35,204,38,11,41,276,43,06,37,226,33,09,62,066,48*74
$GPGSV,4,3,16,05,05,311,,26,04,027,,29,02,338,,03,04,131,*7A
$GPGSV,4,4,16,36,35,170,41,34,31,208,,49,34,195,33,61,03,257,*72
$GLGSV,3,1,09,71,65,042,49,88,18,333,41,70,24,090,23,74,25,159,34*68
$GLGSV,3,2,09,86,15,223,33,87,33,270,36,80,28,036,,72,44,305,45*6E
$GLGSV,3,3,09,73,51,108,49*58
$GAGSV,3,1,11,05,80,322,48,06,14,076,22,36,15,187,28,24,18,125,30*65
$GAGSV,3,2,11,31,24,071,31,03,31,265,33,15,34,306,46,34,46,237,45*6F
$GAGSV,3,3,11,09,37,071,39,23,07,024,,16,07,148,*54
$GBGSV,6,1,22,22,66,307,49,16,15,045,26,21,15,291,37,06,17,047,28*63
$GBGSV,6,2,22,05,22,129,33,44,15,259,38,09,31,050,36,36,42,153,45*6F
$GBGSV,6,3,22,12,20,283,30,58,34,056,,48,27,104,,46,45,075,*61
$GBGSV,6,4,22,19,54,096,42,35,01,218,,37,06,033,,39,04,045,*68
$GBGSV,6,5,22,20,07,106,,45,06,189,,34,09,309,,02,06,107,*6B
$GBGSV,6,6,22,11,04,330,,60,07,111,*6F
$GPGGA,050012.00,,,,,0,00,,,M,,M,,*4E
$PTNL,GGK,050012.00,010125,4742.4464465,N,01617.9733263,E,1,20,1.4,EHT667.1647,M*40
$GPGGQ,050012.00,010125,4742.4464465,N,01617.9733263,E,1,20,2.696,623.9537,M*3C
$GPGFA,050012.00,11.870,19.198,1.248,0.476,358.573,2.341,,VVV*03
$GPLLK,050012.00,010125,,M,,M,1,20,1.7,,M*09
$GNGMP,050012.00,,,,,DAAA,20,0.8,,,,*5A
$GPGMP,050012.00,,,,,,05,,,,1.8,123*77
$GLGMP,050012.00,,,,,,05,,,,,*7C
$GAGMP,050012.00,,,,,,04,,,,,*70
$GBGMP,050012.00,,,,,,06,,,,,*71
$PSSN,SNC,[0,277230000,2347]*47
$GPZDA,050017.00,01,01,2025,,*60
$GPDTM,W84,,00.0000000,N,00.0000000,E,00.0000000,W84*5F
$GPRMC,050017.00,A,4742.4464460,N,01617.9733219,E,0.0,,010125,5.1,E,D*1E
$GPGLL,4742.4464460,N,01617.9733219,E,050017.00,A,D*6F
$GPGGA,050017.00,4742.4464460,N,01617.9733219,E,2,20,0.7,623.9587,M,43.2111,M,2.8,0123*4D
$GNGNS,050017.00,4742.4464460,N,01617.9733219,E,DAAA,20,0.7,623.9587,43.2111,,*5B
$GPGNS,050017.00,,,,,,05,,,,2.8,123*71
$GLGNS,050017.00,,,,,,05,,,,,*79
$GAGNS,050017.00,,,,,,04,,,,,*75
$GBGNS,050017.00,,,,,,06,,,,,*74
$GPLLQ,050017.00,010125,,M,,M,1,20,2.315,,M*15
$GPVTG,,T,,M,0.00,N,0.01,K,D*27
$GPHDT,,T*1B
$GPTHS,,V*0E
$GPROT,,V*08
$PSSN,HRP,050017.00,010125,,,,,,,00,0,,*62
$PTNL,AVR,050017.00,,Yaw,,Tilt,,,,0,,00*34
$GPGSA,A,3,04,07,09,11,20,,,,,,,,1.3,0.7,1.1*3F
$GPGSA,A,3,71,72,73,74,88,,,,,,,,1.3,0.7,1.1*33
$GPGSA,A,3,05,09,15,34,,,,,,,,,1.3,0.7,1.1*38
$GPGSA,A,3,09,19,21,22,36,44,,,,,,,1.3,0.7,1.1*30
$GPGST,050017.00,3.236,1.059,0.422,359.597,1.059,0.422,2.015*52
$GPGBS,050017.00,6.550,3.165,13.841,20,0.0001,-0.807,0.731*40
$GPGRS,050017.00,1,0.8,-0.2,-0.0,0.7,-0.8,,,,,,,*4B
$GPGRS,050017.00,1,-5.5,-2.9,1.6,-0.9,-1.0,,,,,,,*67
$GPGRS,050017.00,1,0.7,0.3,-0.4,-0.4,,,,,,,,*49
$GPGRS,050017.00,1,-4.7,-1.2,-5.4,-2.9,-5.2,1.7,,,,,,*6B
$GPGSV,4,1,16,07,68,167,48,04,33,074,44,16,18,052,,20,37,306,48*7F
$GPGSV,4,2,16,30,35,204,39,11,41,276,43,06,37,226,33,09,62,066,49*74
$GPGSV,4,3,16,05,05,311,28,26,04,027,,29,02,338,,03,04,131,*70
$GPGSV,4,4,16,36,35,170,41,34,31,208,,49,34,195,34,61,03,257,*75
$GLGSV,3,1,09,71,65,043,49,88,18,333,41,70,24,090,22,74,25,159,36*6A
$GLGSV,3,2,09,86,15,223,31,87,33,270,34,80,28,036,,72,44,305,42*69
$GLGSV,3,3,09,73,51,108,48*59
$GAGSV,3,1,11,05,80,322,48,06,14,076,22,36,15,187,28,24,18,125,29*6D
$GAGSV,3,2,11,31,24,071,29,03,31,265,35,15,34,306,47,34,46,237,45*61
$GAGSV,3,3,11,09,37,071,39,23,07,024,,16,07,148,*54
$GBGSV,6,1,22,22,66,307,49,16,15,045,27,21,15,291,36,06,17,047,28*63
$GBGSV,6,2,22,05,22,129,32,44,15,259,37,09,31,050,37,36,42,153,45*60
$GBGSV,6,3,22,12,20,283,32,58,34,056,,48,27,104,,46,45,075,*63
$GBGSV,6,4,22,19,54,096,45,35,01,218,,37,06,033,,39,04,045,*6F
$GBGSV,6,5,22,20,07,106,,45,06,189,,34,09,309,,02,06,107,*6B
$GBGSV,6,6,22,11,04,330,,60,07,111,*6F
$GPGGA,050017.00,,,,,0,00,,,M,,M,,*4B
$PTNL,GGK,050017.00,010125,4742.4464460,N,01617.9733219,E,1,20,1.3,EHT667.1697,M*47
$GPGGQ,050017.00,010125,4742.4464460,N,01617.9733219,E,1,20,2.315,623.9587,M*34
$GPGFA,050017.00,10.071,16.521,1.059,0.422,359.597,2.015,,VVV*0D
$GPLLK,050017.00,010125,,M,,M,1,20,1.5,,M*0E
$GNGMP,050017.00,,,,,DAAA,20,0.7,,,,*50
$GPGMP,050017.00,,,,,,05,,,,2.8,123*71
$GLGMP,050017.00,,,,,,05,,,,,*79
$GAGMP,050017.00,,,,,,04,,,,,*75
$GBGMP,050017.00,,,,,,06,,,,,*74
$PSSN,SNC,[0,277235000,2347]*42
$GPZDA,050022.00,01,01,2025,,*66
$GPDTM,W84,,00.0000000,N,00.0000000,E,00.0000000,W84*5F
$GPRMC,050022.00,A,4742.4464447,N,01617.9733175,E,0.0,,010125,5.1,E,D*14
$GPGLL,4742.4464447,N,01617.9733175,E,050022.00,A,D*65
$GPGGA,050022.00,4742.4464447,N,01617.9733175,E,2,22,0.6,623.9690,M,43.2111,M,3.8,0123*40
$GNGNS,050022.00,4742.4464447,N,01617.9733175,E,DAAA,22,0.6,623.9690,43.2111,,*57
$GPGNS,050022.00,,,,,,06,,,,3.8,123*75
$GLGNS,050022.00,,,,,,05,,,,,*7F
$GAGNS,050022.00,,,,,,05,,,,,*72
$GBGNS,050022.00,,,,,,06,,,,,*72
$GPLLQ,050022.00,010125,,M,,M,1,22,1.940,,M*18
$GPVTG,,T,,M,0.00,N,0.01,K,D*27
$GPHDT,,T*1B
$GPTHS,,V*0E
$GPROT,,V*08
$PSSN,HRP,050022.00,010125,,,,,,,00,0,,*64
$PTNL,AVR,050022.00,,Yaw,,Tilt,,,,0,,00*32
$GPGSA,A,3,04,06,07,09,11,20,,,,,,,1.3,0.6,1.1*38
$GPGSA,A,3,71,72,73,74,88,,,,,,,,1.3,0.6,1.1*32
$GPGSA,A,3,03,05,09,15,34,,,,,,,,1.3,0.6,1.1*3A
$GPGSA,A,3,09,19,21,22,36,44,,,,,,,1.3,0.6,1.1*31
$GPGST,050022.00,2.814,0.716,0.455,345.843,0.703,0.475,1.744*50
$GPGBS,050022.00,4.610,3.375,10.695,11,0.0001,1.106,0.723*61
$GPGRS,050022.00,1,0.8,-0.5,-0.4,-0.1,1.1,-0.4,,,,,,*47
$GPGRS,050022.00,1,-4.9,-2.3,1.5,0.5,-0.4,,,,,,,*41
$GPGRS,050022.00,1,0.4,0.8,-0.8,-0.1,-0.1,,,,,,,*4C
$GPGRS,050022.00,1,-4.6,0.1,-4.4,-2.9,-5.4,2.0,,,,,,*40
$GPGSV,4,1,16,07,68,167,47,04,33,074,45,16,18,051,,20,37,306,48*72
$GPGSV,4,2,16,30,35,204,40,11,41,276,41,06,37,226,36,09,62,066,50*75
$GPGSV,4,3,16,05,05,311,29,26,04,027,,29,02,338,,03,04,131,*71
$GPGSV,4,4,16,36,35,170,41,34,31,208,,49,34,195,33,61,03,257,*72
$GLGSV,3,1,09,71,65,043,49,88,18,333,41,70,24,090,21,74,25,159,37*68
$GLGSV,3,2,09,86,14,223,29,87,33,270,32,80,28,036,38,72,44,305,41*6F
$GLGSV,3,3,09,73,51,108,47*56
$GAGSV,3,1,11,05,80,322,48,06,14,076,22,36,15,187,29,24,18,125,27*62
$GAGSV,3,2,11,31,24,071,27,03,31,265,37,15,34,306,46,34,46,237,44*6D
$GAGSV,3,3,11,09,37,071,38,23,07,024,,16,07,148,*55
$GBGSV,6,1,22,22,66,307,49,16,14,045,27,21,15,291,36,06,17,047,28*62
$GBGSV,6,2,22,05,22,129,32,44,15,259,36,09,31,050,37,36,42,153,45*61
$GBGSV,6,3,22,12,20,283,33,58,34,056,,48,27,104,,46,45,075,*62
$GBGSV,6,4,22,19,54,096,47,35,01,218,,37,06,033,,39,04,045,*6D
$GBGSV,6,5,22,20,07,106,,45,06,189,,34,09,309,,02,06,107,*6B
$GBGSV,6,6,22,11,04,330,,60,07,111,*6F
$GPGGA,050022.00,,,,,0,00,,,M,,M,,*4D
$PTNL,GGK,050022.00,010125,4742.4464447,N,01617.9733175,E,1,22,1.3,EHT667.1801,M*4E
$GPGGQ,050022.00,010125,4742.4464447,N,01617.9733175,E,1,22,1.940,623.9690,M*30
$GPGFA,050022.00,6.809,14.303,0.716,0.455,345.843,1.744,,VVV*3B
$GPLLK,050022.00,010125,,M,,M,1,22,1.5,,M*0A
$GNGMP,050022.00,,,,,DAAA,22,0.6,,,,*55
$GPGMP,050022.00,,,,,,06,,,,3.8,123*75
$GLGMP,050022.00,,,,,,05,,,,,*7F
$GAGMP,050022.00,,,,,,05,,,,,*72
$GBGMP,050022.00,,,,,,06,,,,,*72
$PSSN,SNC,[0,277240000,2347]*40
$GPZDA,050027.00,01,01,2025,,*63
$GPDTM,W84,,00.0000000,N,00.0000000,E,00.0000000,W84*5F
$GPRMC,050027.00,A,4742.4464459,N,01617.9733204,E,0.0,,010125,5.1,E,D*1B
$GPGLL,4742.4464459,N,01617.9733204,E,050027.00,A,D*6A
$GPGGA,050027.00,4742.4464459,N,01617.9733204,E,2,22,0.6,623.9849,M,43.2111,M,1.5,0123*4A
$GNGNS,050027.00,4742.4464459,N,01617.9733204,E,DAAA,22,0.6,623.9849,43.2111,,*52
$GPGNS,050027.00,,,,,,06,,,,1.5,123*7F
$GLGNS,050027.00,,,,,,05,,,,,*7A
$GAGNS,050027.00,,,,,,05,,,,,*77
$GBGNS,050027.00,,,,,,06,,,,,*77
$GPLLQ,050027.00,010125,,M,,M,1,22,2.301,,M*11
$GPVTG,,T,,M,0.00,N,0.00,K,D*26
$GPHDT,,T*1B
$GPTHS,,V*0E
$GPROT,,V*08
$PSSN,HRP,050027.00,010125,,,,,,,00,0,,*61
$PTNL,AVR,050027.00,,Yaw,,Tilt,,,,0,,00*37
$GPGSA,A,3,04,06,07,09,11,20,,,,,,,1.3,0.6,1.1*38
$GPGSA,A,3,71,72,73,74,88,,,,,,,,1.3,0.6,1.1*32
$GPGSA,A,3,03,05,09,15,34,,,,,,,,1.3,0.6,1.1*3A
$GPGSA,A,3,09,19,21,22,36,44,,,,,,,1.3,0.6,1.1*31
$GPGST,050027.00,2.736,0.869,0.531,345.670,0.852,0.557,2.064*5C
$GPGBS,050027.00,4.357,3.206,10.219,06,0.0001,1.466,0.679*6C
$GPGRS,050027.00,1,0.5,1.5,-1.0,-0.2,0.7,-0.5,,,,,,*63
$GPGRS,050027.00,1,-4.2,-0.9,1.6,0.6,1.3,,,,,,,*6C
$GPGRS,050027.00,1,-0.7,0.8,-3.0,-0.4,-0.3,,,,,,,*6B
$GPGRS,050027.00,1,-4.2,1.3,-4.3,-3.2,-5.1,0.6,,,,,,*4E
$GPGSV,4,1,16,07,68,166,45,04,33,074,45,16,18,051,25,20,37,306,47*79
$GPGSV,4,2,16,30,35,204,41,11,41,276,39,06,37,226,38,09,62,066,50*75
$GPGSV,4,3,16,05,05,311,29,26,04,027,,29,02,338,,03,04,131,*71
$GPGSV,4,4,16,36,35,170,41,34,31,208,,49,34,195,33,61,03,257,*72
$GLGSV,3,1,09,71,64,043,50,88,18,333,39,70,24,090,,74,25,159,38*62
$GLGSV,3,2,09,86,14,223,27,87,33,270,29,80,28,036,,72,44,305,38*6E
$GLGSV,3,3,09,73,51,108,48*59
$GAGSV,3,1,11,05,80,322,47,06,14,076,21,36,15,187,29,24,18,125,26*6F
$GAGSV,3,2,11,31,24,071,25,03,31,265,38,15,34,306,46,34,45,237,44*63
$GAGSV,3,3,11,09,37,071,37,23,07,024,,16,07,148,*5A
$GBGSV,6,1,22,22,66,307,49,16,14,045,27,21,15,291,36,06,17,047,28*62
$GBGSV,6,2,22,05,22,129,33,44,14,259,35,09,31,050,37,36,42,153,44*63
$GBGSV,6,3,22,12,20,283,32,58,34,056,,48,27,104,,46,45,075,*63
$GBGSV,6,4,22,19,54,096,47,35,01,218,,37,06,033,,39,04,045,*6D
$GBGSV,6,5,22,20,07,106,,45,06,189,,34,09,309,,02,06,107,*6B
$GBGSV,6,6,22,11,04,330,,60,07,111,*6F
$GPGGA,050027.00,,,,,0,00,,,M,,M,,*48
$PTNL,GGK,050027.00,010125,4742.4464459,N,01617.9733204,E,1,22,1.3,EHT667.1960,M*47
$GPGGQ,050027.00,010125,4742.4464459,N,01617.9733204,E,1,22,2.301,623.9849,M*39
$GPGFA,050027.00,8.260,16.923,0.869,0.531,345.670,2.064,,VVV*33
$GPLLK,050027.00,010125,,M,,M,1,22,1.5,,M*0F
$GNGMP,050027.00,,,,,DAAA,22,0.6,,,,*50
$GPGMP,050027.00,,,,,,06,,,,1.5,123*7F
$GLGMP,050027.00,,,,,,05,,,,,*7A
$GAGMP,050027.00,,,,,,05,,,,,*77
$GBGMP,050027.00,,,,,,06,,,,,*77
$PSSN,SNC,[0,277245000,2347]*45
$GPZDA,050032.00,01,01,2025,,*67
$GPDTM,W84,,00.0000000,N,00.0000000,E,00.0000000,W84*5F
$GPRMC,050032.00,A,4742.4464457,N,01617.9733212,E,0.0,,010125,5.1,E,D*16
$GPGLL,4742.4464457,N,01617.9733212,E,050032.00,A,D*67
$GPGGA,050032.00,4742.4464457,N,01617.9733212,E,2,21,0.7,624.0011,M,43.2111,M,2.7,0123*4F
$GNGNS,050032.00,4742.4464457,N,01617.9733212,E,DAAA,21,0.7,624.0011,43.2111,,*56
$GPGNS,050032.00,,,,,,06,,,,2.7,123*7A
$GLGNS,050032.00,,,,,,05,,,,,*7E
$GAGNS,050032.00,,,,,,05,,,,,*73
$GBGNS,050032.00,,,,,,05,,,,,*70
$GPLLQ,050032.00,010125,,M,,M,1,21,1.538,,M*19
$GPVTG,,T,,M,0.00,N,0.01,K,D*27
$GPHDT,,T*1B
$GPTHS,,V*0E
$GPROT,,V*08
$PSSN,HRP,050032.00,010125,,,,,,,00,0,,*65
$PTNL,AVR,050032.00,,Yaw,,Tilt,,,,0,,00*33
$GPGSA,A,3,04,06,07,09,11,20,,,,,,,1.3,0.7,1.2*3A
$GPGSA,A,3,71,72,73,74,88,,,,,,,,1.3,0.7,1.2*30
$GPGSA,A,3,03,05,09,15,34,,,,,,,,1.3,0.7,1.2*38
$GPGSA,A,3,09,19,21,22,36,,,,,,,,1.3,0.7,1.2*33
$GPGST,050032.00,2.667,0.579,0.355,345.503,0.568,0.373,1.380*5C
$GPGBS,050032.00,4.493,3.306,10.480,11,0.0001,0.932,0.709*6D
$GPGRS,050032.00,1,0.5,-0.4,-0.3,-0.2,0.9,-0.1,,,,,,*42
$GPGRS,050032.00,1,-3.9,0.9,2.5,0.4,-0.8,,,,,,,*6C
$GPGRS,050032.00,1,-0.5,1.1,-3.3,-0.7,0.0,,,,,,,*4B
$GPGRS,050032.00,1,-3.7,0.8,-4.4,-3.3,-4.2,,,,,,,*6E
$GPGSV,4,1,16,07,68,166,43,04,32,074,46,16,18,051,22,20,37,306,47*7A
$GPGSV,4,2,16,30,36,204,41,11,41,276,38,06,37,226,40,09,62,066,51*79
$GPGSV,4,3,16,05,05,311,28,26,04,027,,29,02,338,,03,04,131,*70
$GPGSV,4,4,16,36,35,170,41,34,31,208,,49,34,195,34,61,03,257,*75
$GLGSV,3,1,09,71,64,043,50,88,18,333,37,70,24,090,,74,25,159,38*6C
$GLGSV,3,2,09,86,14,223,29,87,33,270,22,80,28,036,31,72,44,305,37*66
$GLGSV,3,3,09,73,51,108,49*58
$GAGSV,3,1,11,05,81,323,47,06,14,076,20,36,15,187,28,24,18,125,23*6A
$GAGSV,3,2,11,31,24,071,26,03,31,265,39,15,34,306,45,34,45,236,44*63
$GAGSV,3,3,11,09,37,071,36,23,07,024,,16,08,148,*54
$GBGSV,6,1,22,22,66,307,50,16,14,045,27,44,14,259,33,05,22,129,33*6F
$GBGSV,6,2,22,06,17,047,27,21,15,291,37,09,31,050,38,36,42,153,44*61
$GBGSV,6,3,22,12,20,283,31,58,34,056,,48,27,104,,46,45,075,*60
$GBGSV,6,4,22,19,54,096,47,35,01,218,,37,06,033,,39,04,045,*6D
$GBGSV,6,5,22,11,04,330,,45,06,189,,34,09,309,,02,06,107,*6D
$GBGSV,6,6,22,20,07,106,,60,07,111,*69
$GPGGA,050032.00,,,,,0,00,,,M,,M,,*4C
$PTNL,GGK,050032.00,010125,4742.4464457,N,01617.9733212,E,1,21,1.3,EHT667.2121,M*47
$GPGGQ,050032.00,010125,4742.4464457,N,01617.9733212,E,1,21,1.538,624.0011,M*33
$GPGFA,050032.00,5.510,11.314,0.579,0.355,345.503,1.380,,VVV*36
$GPLLK,050032.00,010125,,M,,M,1,21,1.6,,M*0B
$GNGMP,050032.00,,,,,DAAA,21,0.7,,,,*56
$GPGMP,050032.00,,,,,,06,,,,2.7,123*7A
$GLGMP,050032.00,,,,,,05,,,,,*7E
$GAGMP,050032.00,,,,,,05,,,,,*73
$GBGMP,050032.00,,,,,,05,,,,,*70
$PSSN,SNC,[0,277250000,2347]*41
$GPZDA,050037.00,01,01,2025,,*62
$GPDTM,W84,,00.0000000,N,00.0000000,E,00.0000000,W84*5F
$GPRMC,050037.00,A,4742.4464439,N,01617.9733224,E,0.0,,010125,5.1,E,D*1E
$GPGLL,4742.4464439,N,01617.9733224,E,050037.00,A,D*6F
$GPGGA,050037.00,4742.4464439,N,01617.9733224,E,2,20,0.7,623.9961,M,43.2111,M,3.7,0123*47
$GNGNS,050037.00,4742.4464439,N,01617.9733224,E,DAAA,20,0.7,623.9961,43.2111,,*5F
$GPGNS,050037.00,,,,,,06,,,,3.7,123*7E
$GLGNS,050037.00,,,,,,05,,,,,*7B
$GAGNS,050037.00,,,,,,04,,,,,*77
$GBGNS,050037.00,,,,,,05,,,,,*75
$GPLLQ,050037.00,010125,,M,,M,1,20,1.826,,M*1F
$GPVTG,,T,,M,0.00,N,0.00,K,D*26
$GPHDT,,T*1B
$GPTHS,,V*0E
$GPROT,,V*08
$PSSN,HRP,050037.00,010125,,,,,,,00,0,,*60
$PTNL,AVR,050037.00,,Yaw,,Tilt,,,,0,,00*36
$GPGSA,A,3,04,06,07,09,11,20,,,,,,,1.4,0.7,1.2*3D
$GPGSA,A,3,71,72,73,74,88,,,,,,,,1.4,0.7,1.2*37
$GPGSA,A,3,03,05,15,34,,,,,,,,,1.4,0.7,1.2*36
$GPGSA,A,3,09,19,21,22,36,,,,,,,,1.4,0.7,1.2*34
$GPGST,050037.00,3.177,0.678,0.424,346.166,0.666,0.442,1.642*5A
$GPGBS,050037.00,4.598,3.415,10.755,06,0.0001,-0.750,0.723*45
$GPGRS,050037.00,1,0.5,-0.7,0.2,-0.2,0.7,-0.3,,,,,,*64
$GPGRS,050037.00,1,-4.2,3.9,2.5,1.1,-5.5,,,,,,,*6A
$GPGRS,050037.00,1,-0.2,1.3,-0.7,-0.0,,,,,,,,*65
$GPGRS,050037.00,1,-3.3,-1.2,-4.3,-3.7,-3.5,,,,,,,*4A
$GPGSV,4,1,16,07,68,166,43,04,32,074,47,16,18,051,,20,37,306,48*74
$GPGSV,4,2,16,30,36,204,41,11,41,276,38,06,37,226,40,09,61,066,51*7A
$GPGSV,4,3,16,05,05,311,27,26,04,027,,29,02,338,,03,04,131,*7F
$GPGSV,4,4,16,36,35,170,40,34,31,208,,49,34,195,34,61,03,257,*74
$GLGSV,3,1,09,71,64,043,50,88,18,333,35,70,24,090,,74,25,159,39*6F
$GLGSV,3,2,09,86,14,223,32,87,33,270,30,80,28,036,30,72,44,305,40*6E
$GLGSV,3,3,09,73,51,108,48*59
$GAGSV,3,1,11,05,81,323,48,06,14,076,21,36,15,187,27,24,18,125,33*6A
$GAGSV,3,2,11,31,24,071,32,03,31,265,41,15,34,306,45,34,45,236,45*68
$GAGSV,3,3,11,09,37,071,35,23,07,024,,16,08,148,*57
$GBGSV,6,1,22,22,66,307,51,16,14,045,27,44,14,259,30,05,22,129,33*6D
$GBGSV,6,2,22,06,17,047,27,21,15,291,37,09,31,050,38,36,42,153,44*61
$GBGSV,6,3,22,12,20,283,29,58,34,056,,48,27,104,,46,45,075,*69
$GBGSV,6,4,22,19,54,096,47,35,01,218,,37,06,033,,39,04,045,*6D
$GBGSV,6,5,22,11,04,330,,45,06,189,,34,09,309,,02,06,107,*6D
$GBGSV,6,6,22,20,07,106,,60,07,111,*69
$GPGGA,050037.00,,,,,0,00,,,M,,M,,*49
$PTNL,GGK,050037.00,010125,4742.4464439,N,01617.9733224,E,1,20,1.4,EHT667.2072,M*4E
$GPGGQ,050037.00,010125,4742.4464439,N,01617.9733224,E,1,20,1.826,623.9961,M*38
$GPGFA,050037.00,6.445,13.464,0.678,0.424,346.166,1.642,,VVV*3F
$GPLLK,050037.00,010125,,M,,M,1,20,1.6,,M*0F
$GNGMP,050037.00,,,,,DAAA,20,0.7,,,,*52
$GPGMP,050037.00,,,,,,06,,,,3.7,123*7E
$GLGMP,050037.00,,,,,,05,,,,,*7B
$GAGMP,050037.00,,,,,,04,,,,,*77
$GBGMP,050037.00,,,,,,05,,,,,*75
$PSSN,SNC,[0,277255000,2347]*44
$GPZDA,050042.00,01,01,2025,,*60
$GPDTM,W84,,00.0000000,N,00.0000000,E,00.0000000,W84*5F
$GPRMC,050042.00,A,4742.4464441,N,01617.9733220,E,0.0,,010125,5.1,E,D*17
$GPGLL,4742.4464441,N,01617.9733220,E,050042.00,A,D*66
$GPGGA,050042.00,4742.4464441,N,01617.9733220,E,2,19,0.7,623.9932,M,43.2111,M,1.3,0123*44
$GNGNS,050042.00,4742.4464441,N,01617.9733220,E,DAAA,19,0.7,623.9932,43.2111,,*5A
$GPGNS,050042.00,,,,,,06,,,,1.3,123*7A
$GLGNS,050042.00,,,,,,05,,,,,*79
$GAGNS,050042.00,,,,,,04,,,,,*75
$GBGNS,050042.00,,,,,,04,,,,,*76
$GPLLQ,050042.00,010125,,M,,M,1,19,2.270,,M*1D
$GPVTG,,T,,M,0.01,N,0.01,K,D*26
$GPHDT,,T*1B
$GPTHS,,V*0E
$GPROT,,V*08
$PSSN,HRP,050042.00,010125,,,,,,,00,0,,*62
$PTNL,AVR,050042.00,,Yaw,,Tilt,,,,0,,00*34
$GPGSA,A,3,04,06,07,09,11,20,,,,,,,1.4,0.7,1.2*3D
$GPGSA,A,3,71,72,73,74,88,,,,,,,,1.4,0.7,1.2*37
$GPGSA,A,3,03,05,15,34,,,,,,,,,1.4,0.7,1.2*36
$GPGSA,A,3,19,21,22,36,,,,,,,,,1.4,0.7,1.2*3D
$GPGST,050042.00,3.807,0.851,0.528,345.828,0.835,0.552,2.037*51
$GPGBS,050042.00,4.358,3.248,10.297,06,0.0001,-1.162,0.674*4D
$GPGRS,050042.00,1,0.2,-1.2,0.4,-0.3,1.1,-0.2,,,,,,*64
$GPGRS,050042.00,1,-5.2,6.0,2.8,0.1,-6.6,,,,,,,*69
$GPGRS,050042.00,1,0.4,1.3,-0.6,-0.0,,,,,,,,*4D
$GPGRS,050042.00,1,-2.0,-5.2,-3.4,-3.3,,,,,,,,*4F
$GPGSV,4,1,16,07,68,166,44,04,32,074,47,16,18,051,23,20,37,306,48*72
$GPGSV,4,2,16,30,36,204,40,11,41,276,39,06,37,226,41,09,61,066,50*7A
$GPGSV,4,3,16,05,05,311,26,26,03,027,,29,02,338,,03,04,131,*79
$GPGSV,4,4,16,36,35,170,41,34,31,208,,49,34,195,34,61,03,257,*75
$GLGSV,3,1,09,71,64,043,49,88,18,333,37,70,24,090,27,74,25,159,38*61
$GLGSV,3,2,09,86,14,223,34,87,33,270,35,80,28,036,33,72,44,305,43*6D
$GLGSV,3,3,09,73,51,108,48*59
$GAGSV,3,1,11,05,81,323,48,06,14,076,21,36,15,187,26,24,18,125,33*6B
$GAGSV,3,2,11,31,24,071,28,03,31,265,41,15,34,306,45,34,45,236,45*63
$GAGSV,3,3,11,09,37,071,34,23,07,024,,16,08,148,*56
$GBGSV,6,1,22,22,66,307,51,16,14,045,27,44,14,259,30,05,22,129,32*6C
$GBGSV,6,2,22,06,17,047,29,21,15,291,38,09,31,050,39,36,42,153,44*61
$GBGSV,6,3,22,12,20,283,29,58,34,056,,48,27,104,,46,45,075,*69
$GBGSV,6,4,22,19,54,096,47,35,01,218,,37,06,033,,39,04,045,*6D
$GBGSV,6,5,22,11,04,330,,45,06,189,,34,09,309,,02,06,107,*6D
$GBGSV,6,6,22,20,07,106,,60,07,111,*69
$GPGGA,050042.00,,,,,0,00,,,M,,M,,*4B
$PTNL,GGK,050042.00,010125,4742.4464441,N,01617.9733220,E,1,19,1.4,EHT667.2043,M*4F
$GPGGQ,050042.00,010125,4742.4464441,N,01617.9733220,E,1,19,2.270,623.9932,M*37
$GPGFA,050042.00,8.087,16.704,0.851,0.528,345.828,2.037,,VVV*36
$GPLLK,050042.00,010125,,M,,M,1,19,1.7,,M*06
$GNGMP,050042.00,,,,,DAAA,19,0.7,,,,*5A
$GPGMP,050042.00,,,,,,06,,,,1.3,123*7A
$GLGMP,050042.00,,,,,,05,,,,,*79
$GAGMP,050042.00,,,,,,04,,,,,*75
$GBGMP,050042.00,,,,,,04,,,,,*76
$PSSN,SNC,[0,277260000,2347]*42
$GPZDA,050047.00,01,01,2025,,*65
$GPDTM,W84,,00.0000000,N,00.0000000,E,00.0000000,W84*5F
$GPRMC,050047.00,A,4742.4464410,N,01617.9733267,E,0.0,,010125,5.1,E,D*15
$GPGLL,4742.4464410,N,01617.9733267,E,050047.00,A,D*64
$GPGGA,050047.00,4742.4464410,N,01617.9733267,E,2,22,0.6,623.9885,M,43.2111,M,2.3,0123*41
$GNGNS,050047.00,4742.4464410,N,01617.9733267,E,DAAA,22,0.6,623.9885,43.2111,,*5C
$GPGNS,050047.00,,,,,,06,,,,2.3,123*7C
$GLGNS,050047.00,,,,,,08,,,,,*71
$GAGNS,050047.00,,,,,,04,,,,,*70
$GBGNS,050047.00,,,,,,04,,,,,*73
$GPLLQ,050047.00,010125,,M,,M,1,22,2.537,,M*14
$GPVTG,,T,,M,0.01,N,0.01,K,D*26
$GPHDT,,T*1B
$GPTHS,,V*0E
$GPROT,,V*08
$PSSN,HRP,050047.00,010125,,,,,,,00,0,,*67
$PTNL,AVR,050047.00,,Yaw,,Tilt,,,,0,,00*31
$GPGSA,A,3,04,06,07,09,11,20,,,,,,,1.3,0.6,1.1*38
$GPGSA,A,3,71,72,73,74,80,86,87,88,,,,,1.3,0.6,1.1*3B
$GPGSA,A,3,03,05,15,34,,,,,,,,,1.3,0.6,1.1*33
$GPGSA,A,3,19,21,22,36,,,,,,,,,1.3,0.6,1.1*38
$GPGST,050047.00,4.811,0.963,0.592,344.592,0.942,0.626,2.271*59
$GPGBS,050047.00,4.313,3.261,10.309,86,0.0001,11.724,6.248*57
$GPGRS,050047.00,1,-0.0,-0.9,0.4,-0.7,1.2,0.0,,,,,,*6C
$GPGRS,050047.00,1,-5.7,6.4,2.7,-0.4,-2.0,11.7,-7.7,-2.8,,,,*5B
$GPGRS,050047.00,1,0.1,1.2,-0.7,-0.0,,,,,,,,*4D
$GPGRS,050047.00,1,-2.1,-5.2,-2.9,-3.5,,,,,,,,*41
$GPGSV,4,1,16,07,69,166,45,04,32,074,46,16,18,051,27,20,37,306,48*77
$GPGSV,4,2,16,30,36,204,39,11,41,276,41,06,37,226,41,09,61,066,49*73
$GPGSV,4,3,16,05,05,311,26,26,03,027,,29,02,338,,03,04,132,*7A
$GPGSV,4,4,16,36,35,170,41,34,31,208,,49,34,195,33,61,03,257,*72
$GLGSV,3,1,09,71,64,043,48,88,18,333,37,70,24,090,27,74,25,159,37*6F
$GLGSV,3,2,09,86,14,223,36,87,33,270,37,80,28,036,36,72,44,305,46*6D
$GLGSV,3,3,09,73,51,108,48*59
$GAGSV,3,1,11,05,81,323,48,06,14,076,,36,15,187,24,24,18,125,21*69
$GAGSV,3,2,11,31,24,071,27,03,31,265,42,15,34,306,44,34,45,236,45*6E
$GAGSV,3,3,11,09,37,071,34,23,07,024,,16,08,148,*56
$GBGSV,6,1,22,22,66,307,51,16,14,045,26,44,14,259,28,05,22,129,33*65
$GBGSV,6,2,22,06,17,047,30,21,15,291,37,09,31,050,20,36,42,153,44*6E
$GBGSV,6,3,22,12,20,283,30,58,34,056,,48,27,104,,46,45,075,*61
$GBGSV,6,4,22,19,54,096,46,35,01,218,,37,06,033,,39,04,045,*6C
$GBGSV,6,5,22,11,04,330,,45,06,189,,34,09,309,,02,06,107,*6D
$GBGSV,6,6,22,20,07,106,,60,07,111,*69
$GPGGA,050047.00,,,,,0,00,,,M,,M,,*4E
$PTNL,GGK,050047.00,010125,4742.4464410,N,01617.9733267,E,1,22,1.3,EHT667.1996,M*40
$GPGGQ,050047.00,010125,4742.4464410,N,01617.9733267,E,1,22,2.537,623.9885,M*34
$GPGFA,050047.00,9.156,18.622,0.963,0.592,344.592,2.271,,VVV*38
$GPLLK,050047.00,010125,,M,,M,1,22,1.5,,M*09
$GNGMP,050047.00,,,,,DAAA,22,0.6,,,,*56
$GPGMP,050047.00,,,,,,06,,,,2.3,123*7C
$GLGMP,050047.00,,,,,,08,,,,,*71
$GAGMP,050047.00,,,,,,04,,,,,*70
$GBGMP,050047.00,,,,,,04,,,,,*73
$PSSN,SNC,[0,277265000,2347]*47
$GPZDA,050052.00,01,01,2025,,*61
$GPDTM,W84,,00.0000000,N,00.0000000,E,00.0000000,W84*5F
$GPRMC,050052.00,A,4742.4464405,N,01617.9733366,E,0.0,,010125,5.1,E,D*15
$GPGLL,4742.4464405,N,01617.9733366,E,050052.00,A,D*64
$GPGGA,050052.00,4742.4464405,N,01617.9733366,E,2,22,0.6,623.9956,M,43.2111,M,2.7,0123*4A
$GNGNS,050052.00,4742.4464405,N,01617.9733366,E,DAAA,22,0.6,623.9956,43.2111,,*53
$GPGNS,050052.00,,,,,,06,,,,2.7,123*7C
$GLGNS,050052.00,,,,,,08,,,,,*75
$GAGNS,050052.00,,,,,,04,,,,,*74
$GBGNS,050052.00,,,,,,04,,,,,*77
$GPLLQ,050052.00,010125,,M,,M,1,22,2.810,,M*18
$GPVTG,,T,,M,0.00,N,0.01,K,D*27
$GPHDT,,T*1B
$GPTHS,,V*0E
$GPROT,,V*08
$PSSN,HRP,050052.00,010125,,,,,,,00,0,,*63
$PTNL,AVR,050052.00,,Yaw,,Tilt,,,,0,,00*35
$GPGSA,A,3,04,06,07,09,11,20,,,,,,,1.3,0.6,1.1*38
$GPGSA,A,3,71,72,73,74,80,86,87,88,,,,,1.3,0.6,1.1*3B
$GPGSA,A,3,03,05,15,34,,,,,,,,,1.3,0.6,1.1*33
$GPGSA,A,3,19,21,22,36,,,,,,,,,1.3,0.6,1.1*38
$GPGST,050052.00,6.295,1.058,0.655,345.190,1.037,0.689,2.519*50
$GPGBS,050052.00,4.375,3.317,10.445,86,0.0001,18.364,6.241*5C
$GPGRS,050052.00,1,-0.5,0.1,0.2,-0.8,0.9,-0.2,,,,,,*64
$GPGRS,050052.00,1,-4.8,6.7,1.8,-1.7,6.1,18.4,-9.4,-3.2,,,,*78
$GPGRS,050052.00,1,-1.0,1.0,-0.3,-0.3,,,,,,,,*61
$GPGRS,050052.00,1,-1.8,-4.6,-2.4,-3.6,,,,,,,,*44
$GPGSV,4,1,16,07,69,166,46,04,32,074,46,16,18,051,,20,37,306,48*71
$GPGSV,4,2,16,30,36,204,38,11,41,276,43,06,37,226,41,09,61,066,48*71
$GPGSV,4,3,16,05,05,311,27,26,03,027,,29,02,338,,03,04,132,*7B
$GPGSV,4,4,16,36,35,170,41,34,31,208,,49,34,195,34,61,03,257,*75
$GLGSV,3,1,09,71,64,043,49,88,18,333,35,70,24,090,25,74,25,159,36*6F
$GLGSV,3,2,09,86,14,223,36,87,33,270,36,80,28,036,37,72,44,306,47*6F
$GLGSV,3,3,09,73,51,107,46*58
$GAGSV,3,1,11,05,81,323,47,06,14,076,22,36,15,187,21,24,18,125,21*63
$GAGSV,3,2,11,31,24,071,23,03,31,265,42,15,34,306,44,34,45,236,45*6A
$GAGSV,3,3,11,09,37,071,35,23,07,024,,16,08,148,*57
$GBGSV,6,1,22,22,66,307,52,16,14,045,27,44,14,259,,05,22,129,33*6D
$GBGSV,6,2,22,06,17,047,29,21,15,291,37,09,31,050,22,36,42,153,44*64
$GBGSV,6,3,22,12,20,283,28,58,34,056,,48,27,104,,46,45,075,*68
$GBGSV,6,4,22,19,54,097,46,35,01,218,,37,06,033,,39,04,045,*6D
$GBGSV,6,5,22,11,04,330,,45,06,189,,34,09,309,,02,06,107,*6D
$GBGSV,6,6,22,20,07,106,,60,07,111,*69
$GPGGA,050052.00,,,,,0,00,,,M,,M,,*4A
$PTNL,GGK,050052.00,010125,4742.4464405,N,01617.9733366,E,1,22,1.3,EHT667.2067,M*44
$GPGGQ,050052.00,010125,4742.4464405,N,01617.9733366,E,1,22,2.810,623.9956,M*33
$GPGFA,050052.00,10.063,20.658,1.058,0.655,345.190,2.519,,VVV*03
$GPLLK,050052.00,010125,,M,,M,1,22,1.5,,M*0D
$GNGMP,050052.00,,,,,DAAA,22,0.6,,,,*52
$GPGMP,050052.00,,,,,,06,,,,2.7,123*7C
$GLGMP,050052.00,,,,,,08,,,,,*75
$GAGMP,050052.00,,,,,,04,,,,,*74
$GBGMP,050052.00,,,,,,04,,,,,*77
$PSSN,SNC,[0,277270000,2347]*43
$GPZDA,050057.00,01,01,2025,,*64
$GPDTM,W84,,00.0000000,N,00.0000000,E,00.0000000,W84*5F
$GPRMC,050057.00,A,4742.4464450,N,01617.9733484,E,0.0,,010125,5.1,E,D*1B
$GPGLL,4742.4464450,N,01617.9733484,E,050057.00,A,D*6A
$GPGGA,050057.00,4742.4464450,N,01617.9733484,E,2,20,0.7,623.9995,M,43.2111,M,3.7,0123*49
$GNGNS,050057.00,4742.4464450,N,01617.9733484,E,DAAA,20,0.7,623.9995,43.2111,,*51
$GPGNS,050057.00,,,,,,06,,,,3.7,123*78
$GLGNS,050057.00,,,,,,05,,,,,*7D
$GAGNS,050057.00,,,,,,05,,,,,*70
$GBGNS,050057.00,,,,,,04,,,,,*72
$GPLLQ,050057.00,010125,,M,,M,1,20,2.494,,M*1F
$GPVTG,,T,,M,0.00,N,0.01,K,D*27
$GPHDT,,T*1B
$GPTHS,,V*0E
$GPROT,,V*08
$PSSN,HRP,050057.00,010125,,,,,,,00,0,,*66
$PTNL,AVR,050057.00,,Yaw,,Tilt,,,,0,,00*30
$GPGSA,A,3,04,06,07,09,11,20,,,,,,,1.4,0.7,1.2*3D
$GPGSA,A,3,71,72,73,74,80,,,,,,,,1.4,0.7,1.2*3F
$GPGSA,A,3,03,05,09,15,34,,,,,,,,1.4,0.7,1.2*3F
$GPGSA,A,3,19,21,22,36,,,,,,,,,1.4,0.7,1.2*3D
$GPGST,050057.00,3.294,0.931,0.578,346.356,0.915,0.603,2.241*51
$GPGBS,050057.00,4.608,3.338,10.608,72,0.0001,7.416,6.079*6E
$GPGRS,050057.00,1,-0.3,-0.2,-0.1,-0.5,0.8,-0.1,,,,,,*68
$GPGRS,050057.00,1,-3.8,7.4,1.3,-1.9,4.7,,,,,,,*66
$GPGRS,050057.00,1,-1.2,1.0,1.6,-0.2,-0.6,,,,,,,*4B
$GPGRS,050057.00,1,-1.7,-4.4,-2.0,-3.5,,,,,,,,*4B
$GPGSV,4,1,16,07,69,166,47,04,32,074,45,16,18,051,23,20,37,306,48*72
$GPGSV,4,2,16,30,36,204,37,11,41,276,43,06,37,226,39,09,61,066,47*7E
$GPGSV,4,3,16,05,05,311,29,26,03,026,,29,02,337,,03,04,132,*7B
$GPGSV,4,4,16,36,35,170,41,34,31,208,,49,34,195,34,61,03,257,*75
$GLGSV,3,1,09,71,64,043,49,88,18,333,33,70,24,090,24,74,25,159,35*6B
$GLGSV,3,2,09,86,14,223,35,87,33,270,34,80,28,036,37,72,44,306,48*61
$GLGSV,3,3,09,73,51,107,47*59
$GAGSV,3,1,11,05,81,323,47,06,14,076,23,36,15,187,24,24,18,125,32*65
$GAGSV,3,2,11,31,24,071,24,03,31,265,42,15,34,306,43,34,45,236,46*69
$GAGSV,3,3,11,09,37,071,36,23,07,024,,16,08,148,*54
$GBGSV,6,1,22,22,66,307,51,16,14,045,28,44,14,259,31,05,22,129,33*63
$GBGSV,6,2,22,06,17,047,30,21,15,291,38,09,31,050,22,36,42,153,44*63
$GBGSV,6,3,22,12,20,283,27,58,34,056,,48,27,104,,46,44,075,*66
$GBGSV,6,4,22,19,54,097,46,35,01,218,,37,06,033,,39,04,045,*6D
$GBGSV,6,5,22,11,04,330,,45,06,189,,34,09,309,,02,06,107,*6D
$GBGSV,6,6,22,20,07,106,,60,07,111,*69
$GPGGA,050057.00,,,,,0,00,,,M,,M,,*4F
$PTNL,GGK,050057.00,010125,4742.4464450,N,01617.9733484,E,1,20,1.4,EHT667.2106,M*49
$GPGGQ,050057.00,010125,4742.4464450,N,01617.9733484,E,1,20,2.494,623.9995,M*30
$GPGFA,050057.00,8.854,18.373,0.931,0.578,346.356,2.241,,VVV*3E
$GPLLK,050057.00,010125,,M,,M,1,20,1.7,,M*08
$GNGMP,050057.00,,,,,DAAA,20,0.7,,,,*54
$GPGMP,050057.00,,,,,,06,,,,3.7,123*78
$GLGMP,050057.00,,,,,,05,,,,,*7D
$GAGMP,050057.00,,,,,,05,,,,,*70
$GBGMP,050057.00,,,,,,04,,,,,*72
$PSSN,SNC,[0,277275000,2347]*46
$GPZDA,050102.00,01,01,2025,,*65
$GPDTM,W84,,00.0000000,N,00.0000000,E,00.0000000,W84*5F
$GPRMC,050102.00,A,4742.4464407,N,01617.9733530,E,0.0,,010125,5.1,E,D*16
$GPGLL,4742.4464407,N,01617.9733530,E,050102.00,A,D*67
$GPGGA,050102.00,4742.4464407,N,01617.9733530,E,2,19,0.8,623.9936,M,43.2111,M,1.3,0123*4E
$GNGNS,050102.00,4742.4464407,N,01617.9733530,E,DAAA,19,0.8,623.9936,43.2111,,*50
$GPGNS,050102.00,,,,,,06,,,,1.3,123*7F
$GLGNS,050102.00,,,,,,04,,,,,*7D
$GAGNS,050102.00,,,,,,05,,,,,*71
$GBGNS,050102.00,,,,,,04,,,,,*73
$GPLLQ,050102.00,010125,,M,,M,1,19,2.095,,M*11
$GPVTG,,T,,M,0.00,N,0.01,K,D*27
$GPHDT,,T*1B
$GPTHS,,V*0E
$GPROT,,V*08
$PSSN,HRP,050102.00,010125,,,,,,,00,0,,*67
$PTNL,AVR,050102.00,,Yaw,,Tilt,,,,0,,00*31
$GPGSA,A,3,04,06,07,09,11,20,,,,,,,1.6,0.8,1.4*36
$GPGSA,A,3,71,72,73,87,,,,,,,,,1.6,0.8,1.4*30
$GPGSA,A,3,03,05,09,15,34,,,,,,,,1.6,0.8,1.4*34
$GPGSA,A,3,19,21,22,36,,,,,,,,,1.6,0.8,1.4*36
$GPGST,050102.00,4.757,0.788,0.481,345.768,0.773,0.505,1.881*52
$GPGBS,050102.00,4.516,3.311,10.721,87,0.0001,-13.000,6.137*78
$GPGRS,050102.00,1,0.3,-0.5,0.2,-0.3,0.3,0.3,,,,,,*4F
$GPGRS,050102.00,1,-3.8,6.5,2.2,-13.0,,,,,,,,*72
$GPGRS,050102.00,1,-0.5,1.3,1.9,0.2,-0.8,,,,,,,*63
$GPGRS,050102.00,1,-1.5,-4.6,-1.8,-2.6,,,,,,,,*43
$GPGSV,4,1,16,07,69,166,47,04,32,074,46,16,18,051,,20,37,306,48*70
$GPGSV,4,2,16,30,36,204,35,11,41,276,44,06,37,226,38,09,61,066,46*7B
$GPGSV,4,3,16,05,05,311,31,26,03,026,,29,02,337,,03,04,132,*72
$GPGSV,4,4,16,36,35,170,41,34,31,208,,49,34,195,34,61,03,257,*75
$GLGSV,3,1,09,71,64,043,49,88,18,333,30,70,24,090,24,74,25,159,34*69
$GLGSV,3,2,09,86,14,223,33,87,33,270,36,80,28,036,34,72,44,306,48*66
$GLGSV,3,3,09,73,51,107,48*56
$GAGSV,3,1,11,05,81,324,47,06,14,076,22,36,15,187,24,24,18,125,31*60
$GAGSV,3,2,11,31,24,071,28,03,31,265,42,15,34,306,43,34,45,236,45*66
$GAGSV,3,3,11,09,37,071,38,23,07,024,,16,08,148,*5A
$GBGSV,6,1,22,22,66,307,51,16,14,045,26,44,14,259,31,05,22,129,33*6D
$GBGSV,6,2,22,06,17,047,30,21,15,291,38,09,31,050,23,36,42,153,44*62
$GBGSV,6,3,22,12,20,283,29,58,34,056,,48,27,104,,46,44,075,*68
$GBGSV,6,4,22,19,54,097,45,35,01,218,,37,06,033,,39,04,045,*6E
$GBGSV,6,5,22,11,04,330,,45,07,189,,34,09,309,,02,06,107,*6C
$GBGSV,6,6,22,20,07,106,,60,07,111,*69
$GPGGA,050102.00,,,,,0,00,,,M,,M,,*4E
$PTNL,GGK,050102.00,010125,4742.4464407,N,01617.9733530,E,1,19,1.6,EHT667.2046,M*49
$GPGGQ,050102.00,010125,4742.4464407,N,01617.9733530,E,1,19,2.095,623.9936,M*3B
$GPGFA,050102.00,7.497,15.421,0.788,0.481,345.768,1.881,,VVV*3A
$GPLLK,050102.00,010125,,M,,M,1,19,1.9,,M*0D
$GNGMP,050102.00,,,,,DAAA,19,0.8,,,,*50
$GPGMP,050102.00,,,,,,06,,,,1.3,123*7F
$GLGMP,050102.00,,,,,,04,,,,,*7D
$GAGMP,050102.00,,,,,,05,,,,,*71
$GBGMP,050102.00,,,,,,04,,,,,*73
$PSSN,SNC,[0,277280000,2347]*4C
$GPZDA,050107.00,01,01,2025,,*60
$GPDTM,W84,,00.0000000,N,00.0000000,E,00.0000000,W84*5F
$GPRMC,050107.00,A,4742.4464369,N,01617.9733466,E,0.0,,010125,5.1,E,D*1E
$GPGLL,4742.4464369,N,01617.9733466,E,050107.00,A,D*6F
$GPGGA,050107.00,4742.4464369,N,01617.9733466,E,2,20,0.8,623.9989,M,43.2111,M,2.3,0123*4B
$GNGNS,050107.00,4742.4464369,N,01617.9733466,E,DAAA,20,0.8,623.9989,43.2111,,*56
$GPGNS,050107.00,,,,,,06,,,,2.3,123*79
$GLGNS,050107.00,,,,,,04,,,,,*78
$GAGNS,050107.00,,,,,,05,,,,,*74
$GBGNS,050107.00,,,,,,05,,,,,*77
$GPLLQ,050107.00,010125,,M,,M,1,20,1.917,,M*1E
$GPVTG,,T,,M,0.00,N,0.00,K,D*26
$GPHDT,,T*1B
$GPTHS,,V*0E
$GPROT,,V*08
$PSSN,HRP,050107.00,010125,,,,,,,00,0,,*62
$PTNL,AVR,050107.00,,Yaw,,Tilt,,,,0,,00*34
$GPGSA,A,3,04,06,07,09,11,20,,,,,,,1.5,0.8,1.3*32
$GPGSA,A,3,71,72,73,88,,,,,,,,,1.5,0.8,1.3*3B
$GPGSA,A,3,03,05,09,15,34,,,,,,,,1.5,0.8,1.3*30
$GPGSA,A,3,12,19,21,22,36,,,,,,,,1.5,0.8,1.3*31
$GPGST,050107.00,2.878,0.726,0.444,344.589,0.710,0.470,1.718*5B
$GPGBS,050107.00,4.630,3.402,10.910,06,0.0001,-1.081,0.698*44
$GPGRS,050107.00,1,0.9,-1.1,0.1,-0.1,0.2,0.2,,,,,,*44
$GPGRS,050107.00,1,-4.7,4.9,2.0,-3.3,,,,,,,,*41
$GPGRS,050107.00,1,-0.8,1.3,1.2,0.2,-1.0,,,,,,,*69
$GPGRS,050107.00,1,-4.5,-1.2,-3.9,-1.4,-1.3,,,,,,,*41
$GPGSV,4,1,16,07,69,166,47,04,32,074,45,16,18,051,23,20,37,306,47*7D
$GPGSV,4,2,16,30,36,204,33,11,41,276,45,06,37,226,38,09,61,066,46*7C
$GPGSV,4,3,16,05,05,311,32,26,03,026,,29,02,337,,03,04,132,*71
$GPGSV,4,4,16,36,35,170,40,34,31,208,,49,34,195,34,61,03,257,*74
$GLGSV,3,1,09,71,64,044,47,88,18,333,39,70,24,090,25,74,25,159,33*6F
$GLGSV,3,2,09,86,14,223,29,87,33,270,33,80,28,036,30,72,44,306,47*63
$GLGSV,3,3,09,73,51,107,47*59
$GAGSV,3,1,11,05,81,324,47,06,14,076,21,36,15,187,24,31,24,071,29*61
$GAGSV,3,2,11,24,18,125,24,03,31,265,41,15,34,306,43,34,45,236,44*63
$GAGSV,3,3,11,09,37,072,39,23,07,024,,16,08,148,*58
$GBGSV,6,1,22,22,66,307,51,16,14,045,27,44,14,259,30,05,22,129,32*6C
$GBGSV,6,2,22,06,17,047,30,21,15,291,39,09,31,050,24,36,42,153,44*64
$GBGSV,6,3,22,12,20,283,32,58,34,056,,48,27,104,,46,44,075,*62
$GBGSV,6,4,22,19,54,097,44,35,01,218,,37,06,033,,39,04,045,*6F
$GBGSV,6,5,22,11,04,330,,45,07,189,,34,09,309,,02,06,107,*6C
$GBGSV,6,6,22,20,07,106,,60,07,111,*69
$GPGGA,050107.00,,,,,0,00,,,M,,M,,*4B
$PTNL,GGK,050107.00,010125,4742.4464369,N,01617.9733466,E,1,20,1.5,EHT667.2099,M*4A
$GPGGQ,050107.00,010125,4742.4464369,N,01617.9733466,E,1,20,1.917,623.9989,M*3D
$GPGFA,050107.00,6.902,14.089,0.726,0.444,344.589,1.718,,VVV*36
$GPLLK,050107.00,010125,,M,,M,1,20,1.8,,M*03
$GNGMP,050107.00,,,,,DAAA,20,0.8,,,,*5F
$GPGMP,050107.00,,,,,,06,,,,2.3,123*79
$GLGMP,050107.00,,,,,,04,,,,,*78
$GAGMP,050107.00,,,,,,05,,,,,*74
$GBGMP,050107.00,,,,,,05,,,,,*77
$PSSN,SNC,[0,277285000,2347]*49
$GPZDA,050112.00,01,01,2025,,*64
$GPDTM,W84,,00.0000000,N,00.0000000,E,00.0000000,W84*5F
$GPRMC,050112.00,A,4742.4464330,N,01617.9733447,E,0.0,,010125,5.1,E,D*15
$GPGLL,4742.4464330,N,01617.9733447,E,050112.00,A,D*64
$GPGGA,050112.00,4742.4464330,N,01617.9733447,E,2,20,0.8,623.9925,M,43.2111,M,2.7,0123*42
$GNGNS,050112.00,4742.4464330,N,01617.9733447,E,DAAA,20,0.8,623.9925,43.2111,,*5B
$GPGNS,050112.00,,,,,,06,,,,2.7,123*79
$GLGNS,050112.00,,,,,,03,,,,,*7B
$GAGNS,050112.00,,,,,,05,,,,,*70
$GBGNS,050112.00,,,,,,06,,,,,*70
$GPLLQ,050112.00,010125,,M,,M,1,20,1.626,,M*17
$GPVTG,,T,,M,0.00,N,0.01,K,D*27
$GPHDT,,T*1B
$GPTHS,,V*0E
$GPROT,,V*08
$PSSN,HRP,050112.00,010125,,,,,,,00,0,,*66
$PTNL,AVR,050112.00,,Yaw,,Tilt,,,,0,,00*30
$GPGSA,A,3,04,06,07,09,11,20,,,,,,,1.5,0.8,1.3*32
$GPGSA,A,3,71,72,73,,,,,,,,,,1.5,0.8,1.3*3B
$GPGSA,A,3,03,05,09,15,34,,,,,,,,1.5,0.8,1.3*30
$GPGSA,A,3,12,19,21,22,36,44,,,,,,,1.5,0.8,1.3*31
$GPGST,050112.00,2.700,0.606,0.377,345.246,0.594,0.396,1.461*52
$GPGBS,050112.00,4.687,3.467,11.068,11,0.0001,0.808,0.702*69
$GPGRS,050112.00,1,0.1,-0.7,0.2,0.2,0.8,-0.3,,,,,,*44
$GPGRS,050112.00,1,-5.1,3.8,0.5,,,,,,,,,*40
$GPGRS,050112.00,1,-2.0,1.1,0.4,-0.2,-1.1,,,,,,,*4E
$GPGRS,050112.00,1,5.6,-0.9,-3.5,-1.1,-0.3,-1.0,,,,,,*6A
$GPGSV,4,1,16,07,69,166,47,04,32,074,45,16,18,051,,20,37,306,47*7C
$GPGSV,4,2,16,30,36,204,31,11,41,276,45,06,37,225,39,09,61,066,46*7C
$GPGSV,4,3,16,05,05,311,34,26,03,026,,29,02,337,,03,04,132,*77
$GPGSV,4,4,16,36,35,170,41,34,31,208,,49,34,195,34,61,03,257,*75
$GLGSV,3,1,09,71,64,044,47,88,18,333,39,70,24,090,24,74,25,159,32*6F
$GLGSV,3,2,09,86,14,223,21,87,33,270,35,80,28,036,29,72,44,306,48*6A
$GLGSV,3,3,09,73,51,107,46*58
$GAGSV,3,1,11,05,81,324,47,06,14,076,22,36,15,187,24,24,18,125,25*65
$GAGSV,3,2,11,31,24,071,27,03,31,265,40,15,34,306,44,34,45,236,44*6D
$GAGSV,3,3,11,09,37,072,40,23,07,024,,16,08,148,*56
$GBGSV,6,1,22,22,66,307,52,16,14,045,26,44,14,259,35,05,22,129,33*6A
$GBGSV,6,2,22,06,17,047,30,21,15,291,38,09,31,050,26,36,42,153,45*66
$GBGSV,6,3,22,12,20,283,36,58,34,055,,48,27,104,,46,44,074,*64
$GBGSV,6,4,22,19,54,097,43,35,01,218,,37,06,033,,39,04,045,*68
$GBGSV,6,5,22,11,04,330,,45,07,189,,34,09,309,,02,06,107,*6C
$GBGSV,6,6,22,20,07,106,,60,07,111,*69
$GPGGA,050112.00,,,,,0,00,,,M,,M,,*4F
$PTNL,GGK,050112.00,010125,4742.4464330,N,01617.9733447,E,1,20,1.5,EHT667.2036,M*44
$GPGGQ,050112.00,010125,4742.4464330,N,01617.9733447,E,1,20,1.626,623.9925,M*3D
$GPGFA,050112.00,5.761,11.976,0.606,0.377,345.246,1.461,,VVV*3A
$GPLLK,050112.00,010125,,M,,M,1,20,1.7,,M*08
$GNGMP,050112.00,,,,,DAAA,20,0.8,,,,*5B
$GPGMP,050112.00,,,,,,06,,,,2.7,123*79
$GLGMP,050112.00,,,,,,03,,,,,*7B
$GAGMP,050112.00,,,,,,05,,,,,*70
$GBGMP,050112.00,,,,,,06,,,,,*70
$PSSN,SNC,[0,277290000,2347]*4D
$GPZDA,050117.00,01,01,2025,,*61
$GPDTM,W84,,00.0000000,N,00.0000000,E,00.0000000,W84*5F
$GPRMC,050117.00,A,4742.4464289,N,01617.9733492,E,0.0,,010125,5.1,E,D*1B
$GPGLL,4742.4464289,N,01617.9733492,E,050117.00,A,D*6A
$GPGGA,050117.00,4742.4464289,N,01617.9733492,E,2,22,0.8,623.9987,M,43.2111,M,3.7,0123*47
$GNGNS,050117.00,4742.4464289,N,01617.9733492,E,DAAA,22,0.8,623.9987,43.2111,,*5F
$GPGNS,050117.00,,,,,,07,,,,3.7,123*7C
$GLGNS,050117.00,,,,,,05,,,,,*78
$GAGNS,050117.00,,,,,,05,,,,,*75
$GBGNS,050117.00,,,,,,05,,,,,*76
$GPLLQ,050117.00,010125,,M,,M,1,22,2.778,,M*19
$GPVTG,,T,,M,0.00,N,0.01,K,D*27
$GPHDT,,T*1B
$GPTHS,,V*0E
$GPROT,,V*08
$PSSN,HRP,050117.00,010125,,,,,,,00,0,,*63
$PTNL,AVR,050117.00,,Yaw,,Tilt,,,,0,,00*35
$GPGSA,A,3,04,05,06,07,09,11,20,,,,,,1.4,0.8,1.2*37
$GPGSA,A,3,71,72,73,87,88,,,,,,,,1.4,0.8,1.2*34
$GPGSA,A,3,03,05,09,15,34,,,,,,,,1.4,0.8,1.2*30
$GPGSA,A,3,12,19,21,22,36,,,,,,,,1.4,0.8,1.2*31
$GPGST,050117.00,4.607,1.166,0.736,345.277,1.143,0.771,2.412*51
$GPGBS,050117.00,4.933,3.449,7.835,05,0.0001,4.653,1.466*56
$GPGRS,050117.00,1,-0.4,4.7,-0.7,-0.0,-0.3,1.2,-0.4,,,,,*4B
$GPGRS,050117.00,1,-4.9,2.3,-0.2,-10.0,-8.4,,,,,,,*51
$GPGRS,050117.00,1,-2.4,0.9,0.3,-0.6,-0.8,,,,,,,*4D
$GPGRS,050117.00,1,8.4,-0.4,-3.7,-1.3,0.4,,,,,,,*45
$GPGSV,4,1,16,07,69,166,48,04,32,074,44,16,18,051,21,20,37,306,46*70
$GPGSV,4,2,16,30,36,204,31,11,41,276,45,06,37,225,40,09,61,066,46*72
$GPGSV,4,3,16,05,05,311,35,26,03,026,,29,02,337,,03,04,132,*76
$GPGSV,4,4,16,36,35,170,40,34,31,208,,49,34,195,34,61,03,257,*74
$GLGSV,3,1,09,71,64,044,47,88,18,333,37,70,24,090,25,74,25,159,30*62
$GLGSV,3,2,09,86,14,223,20,87,33,270,37,80,28,036,30,72,44,306,48*61
$GLGSV,3,3,09,73,51,107,46*58
$GAGSV,3,1,11,05,81,324,47,06,14,076,22,36,15,187,25,31,24,071,24*6E
$GAGSV,3,2,11,24,18,125,24,03,31,265,39,15,34,306,44,34,45,236,45*6A
$GAGSV,3,3,11,09,37,072,41,23,07,024,,16,08,148,*57
$GBGSV,6,1,22,22,66,307,52,16,14,045,26,44,14,259,31,05,22,129,32*6F
$GBGSV,6,2,22,06,17,047,30,21,15,291,38,09,31,050,25,36,42,153,46*66
$GBGSV,6,3,22,12,20,283,37,58,34,055,,48,27,104,,46,44,074,*65
$GBGSV,6,4,22,19,54,097,41,35,01,218,,37,06,033,,39,04,046,*69
$GBGSV,6,5,22,11,04,330,,45,07,189,,34,09,309,,02,06,107,*6C
$GBGSV,6,6,22,20,07,106,,60,07,111,*69
$GPGGA,050117.00,,,,,0,00,,,M,,M,,*4A
$PTNL,GGK,050117.00,010125,4742.4464289,N,01617.9733492,E,1,22,1.4,EHT667.2097,M*42
$GPGGQ,050117.00,010125,4742.4464289,N,01617.9733492,E,1,22,2.778,623.9987,M*30
$GPGFA,050117.00,11.084,19.776,1.166,0.736,345.277,2.412,,VVV*04
$GPLLK,050117.00,010125,,M,,M,1,22,1.6,,M*0E
$GNGMP,050117.00,,,,,DAAA,22,0.8,,,,*5C
$GPGMP,050117.00,,,,,,07,,,,3.7,123*7C
$GLGMP,050117.00,,,,,,05,,,,,*78
$GAGMP,050117.00,,,,,,05,,,,,*75
$GBGMP,050117.00,,,,,,05,,,,,*76
$PSSN,SNC,[0,277295000,2347]*48
$GPZDA,050122.00,01,01,2025,,*67
$GPDTM,W84,,00.0000000,N,00.0000000,E,00.0000000,W84*5F
$GPRMC,050122.00,A,4742.4464244,N,01617.9733556,E,0.0,,010125,5.1,E,D*15
$GPGLL,4742.4464244,N,01617.9733556,E,050122.00,A,D*64
$GPGGA,050122.00,4742.4464244,N,01617.9733556,E,2,21,0.8,624.0115,M,43.2111,M,1.3,0123*41
$GNGNS,050122.00,4742.4464244,N,01617.9733556,E,DAAA,21,0.8,624.0115,43.2111,,*5F
$GPGNS,050122.00,,,,,,06,,,,1.3,123*7D
$GLGNS,050122.00,,,,,,05,,,,,*7E
$GAGNS,050122.00,,,,,,05,,,,,*73
$GBGNS,050122.00,,,,,,05,,,,,*70
$GPLLQ,050122.00,010125,,M,,M,1,21,1.902,,M*1C
$GPVTG,,T,,M,0.01,N,0.02,K,D*25
$GPHDT,,T*1B
$GPTHS,,V*0E
$GPROT,,V*08
$PSSN,HRP,050122.00,010125,,,,,,,00,0,,*65
$PTNL,AVR,050122.00,,Yaw,,Tilt,,,,0,,00*33
$GPGSA,A,3,04,06,07,09,11,20,,,,,,,1.5,0.8,1.3*32
$GPGSA,A,3,71,72,73,87,88,,,,,,,,1.5,0.8,1.3*34
$GPGSA,A,3,03,05,09,15,34,,,,,,,,1.5,0.8,1.3*30
$GPGSA,A,3,12,19,21,22,36,,,,,,,,1.5,0.8,1.3*31
$GPGST,050122.00,4.039,0.718,0.437,346.103,0.705,0.458,1.707*5A
$GPGBS,050122.00,4.703,3.364,10.876,87,0.0001,-9.944,6.120*47
$GPGRS,050122.00,1,-0.1,-0.6,0.5,-0.0,0.2,-0.2,,,,,,*48
$GPGRS,050122.00,1,-4.1,2.3,0.5,-9.9,-4.6,,,,,,,*4A
$GPGRS,050122.00,1,-1.4,0.8,0.4,-0.5,-0.1,,,,,,,*44
$GPGRS,050122.00,1,7.3,-0.5,-5.1,-1.3,0.9,,,,,,,*47
$GPGSV,4,1,16,07,69,166,49,04,32,074,44,16,18,051,26,20,37,306,46*76
$GPGSV,4,2,16,30,36,204,28,11,41,275,45,06,37,225,40,09,61,066,47*78
$GPGSV,4,3,16,05,05,311,36,26,03,026,,29,02,337,,03,04,132,*75
$GPGSV,4,4,16,36,35,170,41,34,31,208,,49,34,195,34,61,03,257,*75
$GLGSV,3,1,09,71,64,044,48,88,18,333,40,70,24,090,26,86,14,223,*6C
$GLGSV,3,2,09,74,26,159,30,87,33,270,35,80,28,035,33,72,44,306,47*6F
$GLGSV,3,3,09,73,51,107,46*58
$GAGSV,3,1,11,05,81,324,46,06,14,076,21,36,15,187,27,24,19,125,24*64
$GAGSV,3,2,11,31,24,071,33,03,31,265,38,15,34,306,44,34,45,236,46*65
$GAGSV,3,3,11,09,37,072,41,23,07,024,,16,08,148,*57
$GBGSV,6,1,22,22,66,307,51,16,14,045,26,44,14,259,33,05,22,129,32*6E
$GBGSV,6,2,22,06,17,047,29,21,15,292,37,09,31,050,25,36,42,153,46*62
$GBGSV,6,3,22,12,20,283,38,58,34,055,,48,27,104,,46,44,074,*6A
$GBGSV,6,4,22,19,54,097,41,35,01,218,,37,06,033,,39,04,046,*69
$GBGSV,6,5,22,11,04,330,,45,07,189,,34,09,309,,02,06,107,*6C
$GBGSV,6,6,22,20,07,106,,60,07,111,*69
$GPGGA,050122.00,,,,,0,00,,,M,,M,,*4C
$PTNL,GGK,050122.00,010125,4742.4464244,N,01617.9733556,E,1,21,1.5,EHT667.2225,M*45
$GPGGQ,050122.00,010125,4742.4464244,N,01617.9733556,E,1,21,1.902,624.0115,M*30
$GPGFA,050122.00,6.827,13.994,0.718,0.437,346.103,1.707,,VVV*36
$GPLLK,050122.00,010125,,M,,M,1,21,1.8,,M*05
$GNGMP,050122.00,,,,,DAAA,21,0.8,,,,*59
$GPGMP,050122.00,,,,,,06,,,,1.3,123*7D
$GLGMP,050122.00,,,,,,05,,,,,*7E
$GAGMP,050122.00,,,,,,05,,,,,*73
$GBGMP,050122.00,,,,,,05,,,,,*70
$PSSN,SNC,[0,277300000,2347]*45
$GPZDA,050127.00,01,01,2025,,*62
$GPDTM,W84,,00.0000000,N,00.0000000,E,00.0000000,W84*5F
$GPRMC,050127.00,A,4742.4464233,N,01617.9733464,E,0.0,,010125,5.1,E,D*10
$GPGLL,4742.4464233,N,01617.9733464,E,050127.00,A,D*61
$GPGGA,050127.00,4742.4464233,N,01617.9733464,E,2,20,0.8,623.9974,M,43.2111,M,2.3,0123*47
$GNGNS,050127.00,4742.4464233,N,01617.9733464,E,DAAA,20,0.8,623.9974,43.2111,,*5A
$GPGNS,050127.00,,,,,,06,,,,2.3,123*7B
$GLGNS,050127.00,,,,,,04,,,,,*7A
$GAGNS,050127.00,,,,,,05,,,,,*76
$GBGNS,050127.00,,,,,,05,,,,,*75
$GPLLQ,050127.00,010125,,M,,M,1,20,2.027,,M*15
$GPVTG,,T,,M,0.00,N,0.01,K,D*27
$GPHDT,,T*1B
$GPTHS,,V*0E
$GPROT,,V*08
$PSSN,HRP,050127.00,010125,,,,,,,00,0,,*60
$PTNL,AVR,050127.00,,Yaw,,Tilt,,,,0,,00*36
$GPGSA,A,3,04,06,07,09,11,20,,,,,,,1.5,0.8,1.3*32
$GPGSA,A,3,71,72,73,88,,,,,,,,,1.5,0.8,1.3*3B
$GPGSA,A,3,03,05,09,15,34,,,,,,,,1.5,0.8,1.3*30
$GPGSA,A,3,12,19,21,22,36,,,,,,,,1.5,0.8,1.3*31
$GPGST,050127.00,2.527,0.775,0.470,346.200,0.761,0.492,1.813*55
$GPGBS,050127.00,4.815,3.406,10.976,06,0.0001,-1.114,0.745*47
$GPGRS,050127.00,1,0.4,-1.1,0.8,0.5,-0.7,-0.1,,,,,,*6D
$GPGRS,050127.00,1,-3.1,1.7,1.6,-2.9,,,,,,,,*47
$GPGRS,050127.00,1,-0.1,0.9,0.5,-0.1,0.5,,,,,,,*68
$GPGRS,050127.00,1,6.0,0.6,-4.1,-1.0,1.0,,,,,,,*64
$GPGSV,4,1,16,07,69,166,49,04,32,074,44,16,18,051,31,20,37,306,45*73
$GPGSV,4,2,16,30,36,204,32,11,41,275,45,06,37,225,38,09,61,066,47*7C
$GPGSV,4,3,16,05,05,311,36,26,03,026,,29,02,337,,03,04,132,*75
$GPGSV,4,4,16,36,35,170,41,34,31,208,,49,34,195,34,61,03,257,*75
$GLGSV,3,1,09,71,64,044,47,88,18,333,40,70,24,090,27,86,14,223,28*68
$GLGSV,3,2,09,74,26,159,32,87,33,270,35,80,28,035,32,72,44,306,47*6C
$GLGSV,3,3,09,73,51,107,46*58
$GAGSV,3,1,11,05,81,324,46,06,14,076,21,36,15,187,28,31,24,071,34*60
$GAGSV,3,2,11,24,19,125,26,03,31,265,37,15,34,306,44,34,45,236,46*64
