$GPZDA,212942.00,01,01,2025,,*6D
$GPDTM,W84,,00.0000000,N,00.0000000,E,00.0000000,W84*5F
$GPRMC,212942.00,A,4742.4461115,N,01617.9726261,E,0.0,,010125,5.1,E,D*1A
$GPGLL,4742.4461115,N,01617.9726261,E,212942.00,A,D*6B
$GPGGA,212942.00,4742.4461115,N,01617.9726261,E,2,20,0.7,626.1541,M,43.2111,M,1.8,0123*4D
$GNGNS,212942.00,4742.4461115,N,01617.9726261,E,DAAA,20,0.7,626.1541,43.2111,,*58
$GPGNS,212942.00,,,,,,05,,,,1.8,123*7F
$GLGNS,212942.00,,,,,,03,,,,,*72
$GAGNS,212942.00,,,,,,05,,,,,*79
$GBGNS,212942.00,,,,,,07,,,,,*78
$GPLLQ,212942.00,010125,,M,,M,1,20,3.182,,M*15
$GPVTG,,T,,M,0.00,N,0.01,K,D*27
$GPHDT,,T*1B
$GPTHS,,V*0E
$GPROT,,V*08
$PSSN,HRP,212942.00,010125,,,,,,,00,0,,*6F
$PTNL,AVR,212942.00,,Yaw,,Tilt,,,,0,,00*39
$GPGSA,A,3,02,08,10,27,32,,,,,,,,1.3,0.7,1.0*39
$GPGSA,A,3,68,69,75,,,,,,,,,,1.3,0.7,1.0*35
$GPGSA,A,3,08,13,26,31,33,,,,,,,,1.3,0.7,1.0*3A
$GPGSA,A,3,05,14,27,28,30,33,41,,,,,,1.3,0.7,1.0*3F
$GPGST,212942.00,4.811,2.036,0.863,22.521,1.910,1.115,2.288*64
$GPGBS,212942.00,7.347,3.946,6.725,27,0.0001,-1.301,0.665*77
$GPGRS,212942.00,1,0.9,1.1,0.1,-1.3,-1.0,,,,,,,*65
$GPGRS,212942.00,1,3.2,8.9,-8.0,,,,,,,,,*4B
$GPGRS,212942.00,1,-0.3,-1.2,1.0,-1.6,1.4,,,,,,,*40
$GPGRS,212942.00,1,1.2,-2.2,1.8,1.2,10.5,-3.5,-1.7,,,,,*7E
$GPGSV,4,1,14,08,72,274,48,16,11,193,19,32,29,130,43,23,24,049,27*7D
$GPGSV,4,2,14,02,25,280,41,01,21,271,,27,63,159,39,21,46,285,*7F
$GPGSV,4,3,14,10,66,066,53,14,04,333,,36,35,170,40,34,31,208,*70
$GPGSV,4,4,14,49,34,195,37,61,03,257,*7B
$GLGSV,3,1,10,84,58,328,35,74,18,254,31,67,19,028,35,85,12,296,*65
$GLGSV,3,2,10,75,24,309,40,69,39,155,41,83,39,085,31,68,55,076,46*6D
$GLGSV,3,3,10,76,01,000,,82,02,103,*6E
$GAGSV,3,1,10,26,75,315,46,21,14,195,23,33,28,273,42,08,30,073,39*6D
$GAGSV,3,2,10,07,24,131,34,23,39,245,,31,28,307,45,13,42,073,47*6B
$GAGSV,3,3,10,14,69,177,,03,08,026,*6D
$GBGSV,5,1,18,28,72,102,47,42,17,039,35,05,23,128,35,08,14,044,*61
$GBGSV,5,2,18,43,10,115,,58,11,251,,41,40,171,37,46,11,268,*61
$GBGSV,5,3,18,60,11,108,,13,22,047,34,14,39,056,41,57,42,244,*62
$GBGSV,5,4,18,27,58,300,43,33,56,090,43,30,09,297,36,02,08,105,*6F
$GBGSV,5,5,18,36,09,316,35,38,01,048,*6A
$GPGGA,212942.00,,,,,0,00,,,M,,M,,*46
$PTNL,GGK,212942.00,010125,4742.4461115,N,01617.9726261,E,1,20,1.3,EHT669.3652,M*46
$GPGGQ,212942.00,010125,4742.4461115,N,01617.9726261,E,1,20,3.182,626.1541,M*3A
$GPGFA,212942.00,19.361,18.763,2.036,0.863,22.521,2.288,,VVV*36
$GPLLK,212942.00,010125,,M,,M,1,20,1.4,,M*02
$GNGMP,212942.00,,,,,DAAA,20,0.7,,,,*5D
$GPGMP,212942.00,,,,,,05,,,,1.8,123*7F
$GLGMP,212942.00,,,,,,03,,,,,*72
$GAGMP,212942.00,,,,,,05,,,,,*79
$GBGMP,212942.00,,,,,,07,,,,,*78
$PSSN,SNC,[0,336600000,2347]*44
$GPZDA,212947.00,01,01,2025,,*68
$GPDTM,W84,,00.0000000,N,00.0000000,E,00.0000000,W84*5F
$GPRMC,212947.00,A,4742.4461033,N,01617.9726399,E,0.0,,010125,5.1,E,D*1C
$GPGLL,4742.4461033,N,01617.9726399,E,212947.00,A,D*6D
$GPGGA,212947.00,4742.4461033,N,01617.9726399,E,2,20,0.8,626.1463,M,43.2111,M,1.8,0123*45
$GNGNS,212947.00,4742.4461033,N,01617.9726399,E,DAAA,20,0.8,626.1463,43.2111,,*50
$GPGNS,212947.00,,,,,,06,,,,1.8,123*79
$GLGNS,212947.00,,,,,,03,,,,,*77
$GAGNS,212947.00,,,,,,05,,,,,*7C
$GBGNS,212947.00,,,,,,06,,,,,*7C
$GPLLQ,212947.00,010125,,M,,M,1,20,3.226,,M*1D
$GPVTG,,T,,M,0.01,N,0.01,K,D*26
$GPHDT,,T*1B
$GPTHS,,V*0E
$GPROT,,V*08
$PSSN,HRP,212947.00,010125,,,,,,,00,0,,*6A
$PTNL,AVR,212947.00,,Yaw,,Tilt,,,,0,,00*3C
$GPGSA,A,3,02,08,10,21,27,32,,,,,,,1.3,0.8,1.0*35
$GPGSA,A,3,68,69,75,,,,,,,,,,1.3,0.8,1.0*3A
$GPGSA,A,3,08,13,26,31,33,,,,,,,,1.3,0.8,1.0*35
$GPGSA,A,3,05,14,27,28,30,33,,,,,,,1.3,0.8,1.0*35
$GPGST,212947.00,4.568,2.068,0.827,22.672,1.935,1.104,2.333*6A
$GPGBS,212947.00,7.370,4.072,7.059,21,0.0001,4.483,1.198*55
$GPGRS,212947.00,1,0.3,0.5,-0.3,4.5,-0.7,-0.9,,,,,,*62
$GPGRS,212947.00,1,3.6,9.2,-9.8,,,,,,,,,*49
$GPGRS,212947.00,1,-0.6,-1.7,0.3,-1.6,0.4,,,,,,,*46
$GPGRS,212947.00,1,1.3,-1.8,1.6,0.7,5.4,-3.6,,,,,,*4A
$GPGSV,4,1,14,08,72,273,48,16,11,193,,32,29,130,42,23,24,049,25*71
$GPGSV,4,2,14,02,25,280,42,01,21,271,,27,63,159,41,21,46,285,36*76
$GPGSV,4,3,14,10,66,066,53,14,04,333,,36,35,170,41,34,31,208,*71
$GPGSV,4,4,14,49,34,195,37,61,03,257,*7B
$GLGSV,3,1,10,84,59,328,34,74,18,254,30,67,19,028,32,85,12,296,27*66
$GLGSV,3,2,10,75,24,309,37,69,39,155,40,83,39,085,31,68,55,076,47*6D
$GLGSV,3,3,10,76,01,000,,82,02,103,*6E
$GAGSV,3,1,10,26,75,315,47,21,14,195,25,33,28,273,41,08,30,073,39*69
$GAGSV,3,2,10,07,24,131,34,23,39,245,,31,28,307,45,13,42,073,47*6B
$GAGSV,3,3,10,14,69,177,,03,08,026,*6D
$GBGSV,5,1,19,28,72,102,47,42,17,039,31,05,23,128,35,08,14,044,*64
$GBGSV,5,2,19,43,10,115,,58,11,251,,41,40,171,41,46,11,268,*61
$GBGSV,5,3,19,60,11,108,,13,22,047,34,14,39,056,40,57,42,244,*62
$GBGSV,5,4,19,27,58,300,43,33,56,090,43,38,01,048,,30,09,297,36*66
$GBGSV,5,5,19,39,00,077,,02,08,105,,36,09,316,35*59
$GPGGA,212947.00,,,,,0,00,,,M,,M,,*43
$PTNL,GGK,212947.00,010125,4742.4461033,N,01617.9726399,E,1,20,1.3,EHT669.3573,M*40
$GPGGQ,212947.00,010125,4742.4461033,N,01617.9726399,E,1,20,3.226,626.1463,M*30
$GPGFA,212947.00,19.662,19.131,2.068,0.827,22.672,2.333,,VVV*3A
$GPLLK,212947.00,010125,,M,,M,1,20,1.5,,M*06
$GNGMP,212947.00,,,,,DAAA,20,0.8,,,,*57
$GPGMP,212947.00,,,,,,06,,,,1.8,123*79
$GLGMP,212947.00,,,,,,03,,,,,*77
$GAGMP,212947.00,,,,,,05,,,,,*7C
$GBGMP,212947.00,,,,,,06,,,,,*7C
$PSSN,SNC,[0,336605000,2347]*41
$GPZDA,212952.00,01,01,2025,,*6C
$GPDTM,W84,,00.0000000,N,00.0000000,E,00.0000000,W84*5F
$GPRMC,212952.00,A,4742.4461011,N,01617.9726602,E,0.0,,010125,5.1,E,D*1F
$GPGLL,4742.4461011,N,01617.9726602,E,212952.00,A,D*6E
$GPGGA,212952.00,4742.4461011,N,01617.9726602,E,2,22,0.7,626.1381,M,43.2111,M,2.8,0123*43
$GNGNS,212952.00,4742.4461011,N,01617.9726602,E,DAAA,22,0.7,626.1381,43.2111,,*55
$GPGNS,212952.00,,,,,,06,,,,2.8,123*7E
$GLGNS,212952.00,,,,,,03,,,,,*73
$GAGNS,212952.00,,,,,,05,,,,,*78
$GBGNS,212952.00,,,,,,08,,,,,*76
$GPLLQ,212952.00,010125,,M,,M,1,22,3.110,,M*1D
$GPVTG,,T,,M,0.00,N,0.01,K,D*27
$GPHDT,,T*1B
$GPTHS,,V*0E
$GPROT,,V*08
$PSSN,HRP,212952.00,010125,,,,,,,00,0,,*6E
$PTNL,AVR,212952.00,,Yaw,,Tilt,,,,0,,00*38
$GPGSA,A,3,02,08,10,21,27,32,,,,,,,1.1,0.7,0.9*30
$GPGSA,A,3,68,69,75,,,,,,,,,,1.1,0.7,0.9*3F
$GPGSA,A,3,08,13,26,31,33,,,,,,,,1.1,0.7,0.9*30
$GPGSA,A,3,05,14,27,28,30,36,41,42,,,,,1.1,0.7,0.9*36
$GPGST,212952.00,5.388,1.975,0.756,23.435,1.837,1.048,2.281*6A
$GPGBS,212952.00,7.125,4.112,7.192,21,0.0001,2.205,0.670*5C
$GPGRS,212952.00,1,-0.4,0.2,-0.7,2.2,-0.7,-1.1,,,,,,*47
$GPGRS,212952.00,1,3.6,13.4,-11.6,,,,,,,,,*47
$GPGRS,212952.00,1,-1.8,-1.9,-0.1,-1.8,0.1,,,,,,,*67
$GPGRS,212952.00,1,1.2,-3.4,2.3,0.2,4.1,-3.8,-2.4,6.1,,,,*64
$GPGSV,4,1,14,08,72,273,48,16,11,193,,32,29,129,40,23,24,049,21*7F
$GPGSV,4,2,14,02,25,280,41,01,21,271,,27,63,159,41,21,46,285,37*74
$GPGSV,4,3,14,10,66,066,52,14,04,333,,36,35,170,41,34,31,208,*70
$GPGSV,4,4,14,49,34,195,36,61,03,257,*7A
$GLGSV,3,1,10,84,59,328,35,74,18,254,,67,19,028,29,85,12,296,31*69
$GLGSV,3,2,10,75,24,309,36,69,39,155,38,83,39,085,31,68,54,076,48*6D
$GLGSV,3,3,10,76,01,000,,82,02,103,*6E
$GAGSV,3,1,10,26,75,315,47,21,14,195,26,33,28,273,41,08,30,073,38*6B
$GAGSV,3,2,10,07,24,131,34,23,39,245,,31,28,307,45,13,42,073,47*6B
$GAGSV,3,3,10,14,69,177,,03,08,026,24*6B
$GBGSV,5,1,19,28,72,102,47,42,17,039,35,05,23,128,35,08,14,044,*60
$GBGSV,5,2,19,43,10,115,,58,11,251,,41,40,171,42,46,11,268,*62
$GBGSV,5,3,19,60,11,108,,13,22,047,34,14,39,056,39,57,42,244,*6C
$GBGSV,5,4,19,27,58,300,42,33,56,089,24,38,01,048,,30,09,297,38*60
$GBGSV,5,5,19,39,00,077,,02,08,105,,36,09,316,36*5A
$GPGGA,212952.00,,,,,0,00,,,M,,M,,*47
$PTNL,GGK,212952.00,010125,4742.4461011,N,01617.9726602,E,1,22,1.1,EHT669.3491,M*4E
$GPGGQ,212952.00,010125,4742.4461011,N,01617.9726602,E,1,22,3.110,626.1381,M*3C
$GPGFA,212952.00,18.775,18.706,1.975,0.756,23.435,2.281,,VVV*3C
$GPLLK,212952.00,010125,,M,,M,1,22,1.3,,M*06
$GNGMP,212952.00,,,,,DAAA,22,0.7,,,,*5E
$GPGMP,212952.00,,,,,,06,,,,2.8,123*7E
$GLGMP,212952.00,,,,,,03,,,,,*73
$GAGMP,212952.00,,,,,,05,,,,,*78
$GBGMP,212952.00,,,,,,08,,,,,*76
$PSSN,SNC,[0,336610000,2347]*45
$GPZDA,212957.00,01,01,2025,,*69
$GPDTM,W84,,00.0000000,N,00.0000000,E,00.0000000,W84*5F
$GPRMC,212957.00,A,4742.4460997,N,01617.9726739,E,0.0,,010125,5.1,E,D*15
$GPGLL,4742.4460997,N,01617.9726739,E,212957.00,A,D*64
$GPGGA,212957.00,4742.4460997,N,01617.9726739,E,2,23,0.7,626.1299,M,43.2111,M,3.2,0123*4B
$GNGNS,212957.00,4742.4460997,N,01617.9726739,E,DAAA,23,0.7,626.1299,43.2111,,*56
$GPGNS,212957.00,,,,,,06,,,,3.2,123*70
$GLGNS,212957.00,,,,,,05,,,,,*70
$GAGNS,212957.00,,,,,,05,,,,,*7D
$GBGNS,212957.00,,,,,,07,,,,,*7C
$GPLLQ,212957.00,010125,,M,,M,1,23,3.749,,M*13
$GPVTG,,T,,M,0.00,N,0.01,K,D*27
$GPHDT,,T*1B
$GPTHS,,V*0E
$GPROT,,V*08
$PSSN,HRP,212957.00,010125,,,,,,,00,0,,*6B
$PTNL,AVR,212957.00,,Yaw,,Tilt,,,,0,,00*3D
$GPGSA,A,3,02,08,10,21,27,32,,,,,,,1.1,0.7,0.9*30
$GPGSA,A,3,68,69,75,84,85,,,,,,,,1.1,0.7,0.9*3E
$GPGSA,A,3,08,13,26,31,33,,,,,,,,1.1,0.7,0.9*30
$GPGSA,A,3,05,14,27,28,30,36,41,,,,,,1.1,0.7,0.9*30
$GPGST,212957.00,8.401,2.411,0.899,23.667,2.237,1.271,2.727*69
$GPGBS,212957.00,7.438,4.240,7.087,69,0.0001,21.109,6.102*67
$GPGRS,212957.00,1,-1.7,0.2,-0.7,1.5,-0.3,-0.3,,,,,,*43
$GPGRS,212957.00,1,4.0,21.1,-9.1,-3.3,21.4,,,,,,,*63
$GPGRS,212957.00,1,-1.9,-1.5,0.2,-1.2,1.0,,,,,,,*4B
$GPGRS,212957.00,1,1.2,-4.7,3.7,0.4,5.4,-3.1,5.1,,,,,*6D
$GPGSV,4,1,14,08,72,273,47,16,11,193,,32,29,129,39,23,24,049,33*7D
$GPGSV,4,2,14,02,25,280,40,01,21,271,,27,63,159,40,21,46,285,35*76
$GPGSV,4,3,14,10,66,066,52,14,04,333,,36,35,170,40,34,31,208,*71
$GPGSV,4,4,14,49,34,195,36,61,03,257,*7A
$GLGSV,3,1,10,84,59,328,36,74,18,254,22,67,19,028,34,85,12,296,37*60
$GLGSV,3,2,10,75,24,309,38,69,39,155,39,83,39,085,29,68,54,076,49*6A
$GLGSV,3,3,10,76,01,000,,82,02,103,*6E
$GAGSV,3,1,10,26,75,315,47,21,14,195,27,33,28,273,41,08,30,073,38*6A
$GAGSV,3,2,10,07,24,131,33,23,39,245,,31,28,307,45,13,42,073,47*6C
$GAGSV,3,3,10,14,69,177,,03,08,026,23*6C
$GBGSV,5,1,19,28,72,102,47,42,17,039,35,05,23,128,35,08,14,044,*60
$GBGSV,5,2,19,43,10,115,,58,11,251,,41,40,171,42,46,11,268,*62
$GBGSV,5,3,19,60,11,108,,13,22,047,34,14,39,056,38,57,42,244,*6D
$GBGSV,5,4,19,27,58,300,42,33,56,089,24,38,01,048,,30,09,297,38*60
$GBGSV,5,5,19,39,00,077,,02,08,105,,36,09,316,37*5B
$GPGGA,212957.00,,,,,0,00,,,M,,M,,*42
$PTNL,GGK,212957.00,010125,4742.4460997,N,01617.9726739,E,1,23,1.1,EHT669.3410,M*4C
$GPGGQ,212957.00,010125,4742.4460997,N,01617.9726739,E,1,23,3.749,626.1299,M*35
$GPGFA,212957.00,22.920,22.363,2.411,0.899,23.667,2.727,,VVV*3C
$GPLLK,212957.00,010125,,M,,M,1,23,1.3,,M*02
$GNGMP,212957.00,,,,,DAAA,23,0.7,,,,*5A
$GPGMP,212957.00,,,,,,06,,,,3.2,123*70
$GLGMP,212957.00,,,,,,05,,,,,*70
$GAGMP,212957.00,,,,,,05,,,,,*7D
$GBGMP,212957.00,,,,,,07,,,,,*7C
$PSSN,SNC,[0,336615000,2347]*40
$GPZDA,213002.00,01,01,2025,,*61
$GPDTM,W84,,00.0000000,N,00.0000000,E,00.0000000,W84*5F
$GPRMC,213002.00,A,4742.4461020,N,01617.9726691,E,0.0,,010125,5.1,E,D*1A
$GPGLL,4742.4461020,N,01617.9726691,E,213002.00,A,D*6B
$GPGGA,213002.00,4742.4461020,N,01617.9726691,E,2,24,0.7,626.1285,M,43.2111,M,1.8,0123*46
$GNGNS,213002.00,4742.4461020,N,01617.9726691,E,DAAA,24,0.7,626.1285,43.2111,,*53
$GPGNS,213002.00,,,,,,05,,,,1.8,123*73
$GLGNS,213002.00,,,,,,06,,,,,*7B
$GAGNS,213002.00,,,,,,05,,,,,*75
$GBGNS,213002.00,,,,,,08,,,,,*7B
$GPLLQ,213002.00,010125,,M,,M,1,24,3.852,,M*19
$GPVTG,,T,,M,0.00,N,0.00,K,D*26
$GPHDT,,T*1B
$GPTHS,,V*0E
$GPROT,,V*08
$PSSN,HRP,213002.00,010125,,,,,,,00,0,,*63
$PTNL,AVR,213002.00,,Yaw,,Tilt,,,,0,,00*35
$GPGSA,A,3,02,08,10,27,32,,,,,,,,1.1,0.7,0.9*33
$GPGSA,A,3,67,68,69,75,84,85,,,,,,,1.1,0.7,0.9*3F
$GPGSA,A,3,08,13,26,31,33,,,,,,,,1.1,0.7,0.9*30
$GPGSA,A,3,05,14,27,28,30,33,36,41,,,,,1.1,0.7,0.9*30
$GPGST,213002.00,9.142,2.446,1.053,22.580,2.295,1.352,2.783*62
$GPGBS,213002.00,7.021,3.794,6.683,69,0.0001,23.358,6.100*6D
$GPGRS,213002.00,1,-1.3,0.5,0.2,-0.7,-0.1,,,,,,,*4C
$GPGRS,213002.00,1,15.0,4.9,23.4,-7.1,-3.6,21.0,,,,,,*70
$GPGRS,213002.00,1,-1.7,-0.8,0.4,-1.0,1.1,,,,,,,*44
$GPGRS,213002.00,1,1.6,-4.4,3.7,0.9,6.1,-2.3,-2.6,5.3,,,,*6F
$GPGSV,4,1,14,08,72,273,46,16,11,193,,32,29,129,39,23,24,049,22*7C
$GPGSV,4,2,14,02,25,280,40,01,21,271,,27,63,159,40,21,46,285,34*77
$GPGSV,4,3,14,10,65,066,52,14,04,333,,36,35,170,40,34,31,208,*72
$GPGSV,4,4,14,49,34,195,36,61,03,257,*7A
$GLGSV,3,1,10,84,59,328,35,74,18,254,,67,19,028,36,85,12,296,39*6F
$GLGSV,3,2,10,75,24,309,39,69,39,155,40,83,39,085,27,68,54,076,49*6B
$GLGSV,3,3,10,76,01,000,,82,02,103,*6E
$GAGSV,3,1,10,26,75,315,47,21,14,195,28,33,28,273,41,08,30,073,37*6A
$GAGSV,3,2,10,07,24,131,32,23,39,245,,31,28,307,45,13,42,073,47*6D
$GAGSV,3,3,10,14,69,177,,03,08,026,*6D
$GBGSV,5,1,19,28,72,102,48,42,17,039,34,05,23,128,35,08,14,044,*6E
$GBGSV,5,2,19,43,10,115,,58,11,251,,41,40,171,43,46,11,268,*63
$GBGSV,5,3,19,60,11,108,,13,22,047,33,14,39,056,37,57,42,244,*65
$GBGSV,5,4,19,27,58,300,41,33,56,089,24,38,01,048,,30,09,297,40*6C
$GBGSV,5,5,19,39,00,077,,02,08,105,,36,09,316,36*5A
$GPGGA,213002.00,,,,,0,00,,,M,,M,,*4A
$PTNL,GGK,213002.00,010125,4742.4461020,N,01617.9726691,E,1,24,1.1,EHT669.3396,M*4D
$GPGGQ,213002.00,010125,4742.4461020,N,01617.9726691,E,1,24,3.852,626.1285,M*35
$GPGFA,213002.00,23.258,22.824,2.446,1.053,22.580,2.783,,VVV*31
$GPLLK,213002.00,010125,,M,,M,1,24,1.2,,M*0C
$GNGMP,213002.00,,,,,DAAA,24,0.7,,,,*55
$GPGMP,213002.00,,,,,,05,,,,1.8,123*73
$GLGMP,213002.00,,,,,,06,,,,,*7B
$GAGMP,213002.00,,,,,,05,,,,,*75
$GBGMP,213002.00,,,,,,08,,,,,*7B
$PSSN,SNC,[0,336620000,2347]*46
$GPZDA,213007.00,01,01,2025,,*64
$GPDTM,W84,,00.0000000,N,00.0000000,E,00.0000000,W84*5F
$GPRMC,213007.00,A,4742.4460969,N,01617.9726662,E,0.0,,010125,5.1,E,D*16
$GPGLL,4742.4460969,N,01617.9726662,E,213007.00,A,D*67
$GPGGA,213007.00,4742.4460969,N,01617.9726662,E,2,23,0.7,626.1162,M,43.2111,M,1.8,0123*47
$GNGNS,213007.00,4742.4460969,N,01617.9726662,E,DAAA,23,0.7,626.1162,43.2111,,*52
$GPGNS,213007.00,,,,,,06,,,,1.8,123*75
$GLGNS,213007.00,,,,,,05,,,,,*7D
$GAGNS,213007.00,,,,,,05,,,,,*70
$GBGNS,213007.00,,,,,,07,,,,,*71
$GPLLQ,213007.00,010125,,M,,M,1,23,4.045,,M*12
$GPVTG,,T,,M,0.01,N,0.02,K,D*25
$GPHDT,,T*1B
$GPTHS,,V*0E
$GPROT,,V*08
$PSSN,HRP,213007.00,010125,,,,,,,00,0,,*66
$PTNL,AVR,213007.00,,Yaw,,Tilt,,,,0,,00*30
$GPGSA,A,3,02,08,10,21,27,32,,,,,,,1.1,0.7,0.9*30
$GPGSA,A,3,67,68,69,75,85,,,,,,,,1.1,0.7,0.9*33
$GPGSA,A,3,08,13,26,31,33,,,,,,,,1.1,0.7,0.9*30
$GPGSA,A,3,05,14,27,28,30,36,41,,,,,,1.1,0.7,0.9*30
$GPGST,213007.00,9.519,2.546,1.055,22.745,2.383,1.384,2.960*6F
$GPGBS,213007.00,6.870,3.980,7.115,69,0.0001,22.210,6.105*6E
$GPGRS,213007.00,1,-1.1,0.6,0.2,1.1,-0.6,-0.9,,,,,,*6F
$GPGRS,213007.00,1,20.3,4.3,22.2,-6.9,18.6,,,,,,,*7E
$GPGRS,213007.00,1,-1.0,-0.7,0.4,-0.9,0.2,,,,,,,*43
$GPGRS,213007.00,1,1.3,-2.7,2.1,1.0,6.9,-2.9,7.6,,,,,*67
$GPGSV,4,1,14,08,72,273,44,16,11,192,23,32,29,129,38,23,24,049,32*7E
$GPGSV,4,2,14,02,25,280,38,01,21,271,,27,63,159,40,21,46,285,35*79
$GPGSV,4,3,14,10,65,066,51,14,04,333,,36,35,170,40,34,31,208,*71
$GPGSV,4,4,14,49,34,195,36,61,03,257,*7A
$GLGSV,3,1,10,84,59,328,34,74,18,254,,67,19,028,36,85,12,296,38*6F
$GLGSV,3,2,10,75,24,309,41,69,39,155,36,83,39,085,26,68,54,076,49*64
$GLGSV,3,3,10,76,01,000,,82,02,103,*6E
$GAGSV,3,1,10,26,75,315,46,21,14,195,29,33,28,273,41,08,30,072,38*64
$GAGSV,3,2,10,07,24,131,31,23,39,245,,31,28,307,46,13,42,073,47*6D
$GAGSV,3,3,10,14,69,177,,03,07,026,*62
$GBGSV,5,1,19,28,72,102,48,42,17,039,34,05,23,128,35,08,14,044,25*69
$GBGSV,5,2,19,43,10,115,,58,10,251,,41,40,171,43,46,11,268,*62
$GBGSV,5,3,19,60,11,108,,13,22,048,33,14,39,056,38,57,42,244,*65
$GBGSV,5,4,19,27,58,300,41,33,56,089,23,38,01,048,,30,09,297,40*6B
$GBGSV,5,5,19,39,00,077,,02,08,105,,36,09,316,35*59
$GPGGA,213007.00,,,,,0,00,,,M,,M,,*4F
$PTNL,GGK,213007.00,010125,4742.4460969,N,01617.9726662,E,1,23,1.1,EHT669.3273,M*4C
$GPGGQ,213007.00,010125,4742.4460969,N,01617.9726662,E,1,23,4.045,626.1162,M*3D
$GPGFA,213007.00,24.209,24.274,2.546,1.055,22.745,2.960,,VVV*31
$GPLLK,213007.00,010125,,M,,M,1,23,1.3,,M*0F
$GNGMP,213007.00,,,,,DAAA,23,0.7,,,,*57
$GPGMP,213007.00,,,,,,06,,,,1.8,123*75
$GLGMP,213007.00,,,,,,05,,,,,*7D
$GAGMP,213007.00,,,,,,05,,,,,*70
$GBGMP,213007.00,,,,,,07,,,,,*71
$PSSN,SNC,[0,336625000,2347]*43
$GPZDA,213012.00,01,01,2025,,*60
$GPDTM,W84,,00.0000000,N,00.0000000,E,00.0000000,W84*5F
$GPRMC,213012.00,A,4742.4460881,N,01617.9726738,E,0.0,,010125,5.1,E,D*1B
$GPGLL,4742.4460881,N,01617.9726738,E,213012.00,A,D*6A
$GPGGA,213012.00,4742.4460881,N,01617.9726738,E,2,22,0.7,626.0950,M,43.2111,M,3.0,0123*49
$GNGNS,213012.00,4742.4460881,N,01617.9726738,E,DAAA,22,0.7,626.0950,43.2111,,*56
$GPGNS,213012.00,,,,,,05,,,,3.0,123*78
$GLGNS,213012.00,,,,,,04,,,,,*78
$GAGNS,213012.00,,,,,,05,,,,,*74
$GBGNS,213012.00,,,,,,08,,,,,*7A
$GPLLQ,213012.00,010125,,M,,M,1,22,3.175,,M*12
$GPVTG,,T,,M,0.00,N,0.01,K,D*27
$GPHDT,,T*1B
$GPTHS,,V*0E
$GPROT,,V*08
$PSSN,HRP,213012.00,010125,,,,,,,00,0,,*62
$PTNL,AVR,213012.00,,Yaw,,Tilt,,,,0,,00*34
$GPGSA,A,3,02,08,10,27,32,,,,,,,,1.2,0.7,0.9*30
$GPGSA,A,3,67,68,75,85,,,,,,,,,1.2,0.7,0.9*3F
$GPGSA,A,3,08,13,26,31,33,,,,,,,,1.2,0.7,0.9*33
$GPGSA,A,3,05,14,27,28,30,33,36,41,,,,,1.2,0.7,0.9*33
$GPGST,213012.00,6.607,2.008,0.870,22.630,1.884,1.114,2.300*62
$GPGBS,213012.00,7.562,3.975,7.113,67,0.0001,19.583,6.263*61
$GPGRS,213012.00,1,-2.2,0.6,0.4,-0.0,-0.9,,,,,,,*45
$GPGRS,213012.00,1,19.6,3.1,-2.0,11.3,,,,,,,,*6D
$GPGRS,213012.00,1,-0.8,-0.7,0.9,-0.2,-0.4,,,,,,,*63
$GPGRS,213012.00,1,1.1,-1.5,2.1,0.4,7.5,-2.8,-2.7,6.5,,,,*6D
$GPGSV,4,1,14,08,72,273,44,16,11,192,,32,29,129,37,23,24,049,26*75
$GPGSV,4,2,14,02,25,280,35,01,21,271,,27,63,159,41,21,46,285,36*76
$GPGSV,4,3,14,10,65,066,51,14,04,333,,36,35,170,40,34,31,208,*71
$GPGSV,4,4,14,49,34,195,37,61,03,257,*7B
$GLGSV,3,1,10,84,59,328,33,74,18,254,31,67,19,028,36,85,12,296,35*67
$GLGSV,3,2,10,75,24,309,41,69,39,155,33,83,39,085,24,68,54,076,49*63
$GLGSV,3,3,10,76,01,000,,82,02,103,*6E
$GAGSV,3,1,10,26,75,315,46,21,14,195,29,33,28,273,40,08,30,072,40*6A
$GAGSV,3,2,10,07,24,131,30,23,39,245,,31,28,307,46,13,42,073,47*6C
$GAGSV,3,3,10,14,69,177,,03,07,026,*62
$GBGSV,5,1,19,28,72,102,48,42,17,039,35,05,23,128,35,08,14,044,25*68
$GBGSV,5,2,19,43,10,115,,58,10,251,,41,40,171,42,46,11,268,*63
$GBGSV,5,3,19,60,11,108,,13,22,048,31,14,39,056,39,57,42,244,*66
$GBGSV,5,4,19,27,58,300,41,33,56,089,41,38,01,048,,30,09,297,41*6E
$GBGSV,5,5,19,39,00,077,,02,08,105,,36,09,316,36*5A
$GPGGA,213012.00,,,,,0,00,,,M,,M,,*4B
$PTNL,GGK,213012.00,010125,4742.4460881,N,01617.9726738,E,1,22,1.2,EHT669.3061,M*42
$GPGGQ,213012.00,010125,4742.4460881,N,01617.9726738,E,1,22,3.175,626.0950,M*3C
$GPGFA,213012.00,19.096,18.858,2.008,0.870,22.630,2.300,,VVV*3A
$GPLLK,213012.00,010125,,M,,M,1,22,1.3,,M*0A
$GNGMP,213012.00,,,,,DAAA,22,0.7,,,,*52
$GPGMP,213012.00,,,,,,05,,,,3.0,123*78
$GLGMP,213012.00,,,,,,04,,,,,*78
$GAGMP,213012.00,,,,,,05,,,,,*74
$GBGMP,213012.00,,,,,,08,,,,,*7A
$PSSN,SNC,[0,336630000,2347]*47
$GPZDA,213017.00,01,01,2025,,*65
$GPDTM,W84,,00.0000000,N,00.0000000,E,00.0000000,W84*5F
$GPRMC,213017.00,A,4742.4460846,N,01617.9726756,E,0.0,,010125,5.1,E,D*1D
$GPGLL,4742.4460846,N,01617.9726756,E,213017.00,A,D*6C
$GPGGA,213017.00,4742.4460846,N,01617.9726756,E,2,20,0.7,626.0831,M,43.2111,M,1.8,0123*41
$GNGNS,213017.00,4742.4460846,N,01617.9726756,E,DAAA,20,0.7,626.0831,43.2111,,*54
$GPGNS,213017.00,,,,,,04,,,,1.8,123*76
$GLGNS,213017.00,,,,,,03,,,,,*7A
$GAGNS,213017.00,,,,,,05,,,,,*71
$GBGNS,213017.00,,,,,,08,,,,,*7F
$GPLLQ,213017.00,010125,,M,,M,1,20,3.366,,M*15
$GPVTG,,T,,M,0.00,N,0.00,K,D*26
$GPHDT,,T*1B
$GPTHS,,V*0E
$GPROT,,V*08
$PSSN,HRP,213017.00,010125,,,,,,,00,0,,*67
$PTNL,AVR,213017.00,,Yaw,,Tilt,,,,0,,00*31
$GPGSA,A,3,08,10,27,32,,,,,,,,,1.2,0.7,0.9*32
$GPGSA,A,3,67,68,75,,,,,,,,,,1.2,0.7,0.9*32
$GPGSA,A,3,08,13,26,31,33,,,,,,,,1.2,0.7,0.9*33
$GPGSA,A,3,05,14,27,28,30,33,36,41,,,,,1.2,0.7,0.9*33
$GPGST,213017.00,4.938,1.370,1.122,359.017,1.370,1.123,2.862*51
$GPGBS,213017.00,8.280,6.034,13.747,67,0.0001,14.449,6.263*51
$GPGRS,213017.00,1,0.5,-0.2,-0.1,-1.1,,,,,,,,*63
$GPGRS,213017.00,1,14.4,2.9,-1.0,,,,,,,,,*70
$GPGRS,213017.00,1,-0.9,-1.0,0.9,-0.1,-0.7,,,,,,,*61
$GPGRS,213017.00,1,1.7,-1.9,1.4,-0.0,8.5,3.3,-1.2,0.9,,,,*69
$GPGSV,4,1,14,08,72,273,43,16,11,192,,02,25,280,32,23,24,049,26*78
$GPGSV,4,2,14,32,29,129,37,01,21,271,,27,62,159,42,21,46,285,35*7A
$GPGSV,4,3,14,10,65,066,51,14,04,333,,36,35,170,40,34,31,208,*71
$GPGSV,4,4,14,49,34,195,37,61,03,257,*7B
$GLGSV,3,1,10,84,59,328,34,74,18,254,,67,19,028,36,85,12,296,31*66
$GLGSV,3,2,10,75,24,309,40,69,39,155,35,83,39,085,23,68,54,076,50*6B
$GLGSV,3,3,10,76,01,000,,82,02,103,*6E
$GAGSV,3,1,10,26,75,315,45,21,14,195,29,33,28,273,40,08,30,072,40*69
$GAGSV,3,2,10,07,24,131,27,23,39,245,,31,28,306,46,13,42,073,48*64
$GAGSV,3,3,10,14,69,177,,03,07,026,20*60
$GBGSV,5,1,19,28,72,102,48,42,17,039,34,05,23,128,35,08,14,044,*6E
$GBGSV,5,2,19,43,10,115,,58,10,251,,41,41,171,41,46,11,268,*61
$GBGSV,5,3,19,60,11,108,,13,22,048,31,14,39,056,40,57,42,244,*68
$GBGSV,5,4,19,27,58,300,41,33,56,089,39,38,01,048,,30,09,297,41*61
$GBGSV,5,5,19,39,00,077,,02,08,105,,36,09,316,37*5B
$GPGGA,213017.00,,,,,0,00,,,M,,M,,*4E
$PTNL,GGK,213017.00,010125,4742.4460846,N,01617.9726756,E,1,20,1.2,EHT669.2942,M*4F
$GPGGQ,213017.00,010125,4742.4460846,N,01617.9726756,E,1,20,3.366,626.0831,M*3E
$GPGFA,213017.00,13.022,23.468,1.370,1.122,359.017,2.862,,VVV*0E
$GPLLK,213017.00,010125,,M,,M,1,20,1.4,,M*0A
$GNGMP,213017.00,,,,,DAAA,20,0.7,,,,*55
$GPGMP,213017.00,,,,,,04,,,,1.8,123*76
$GLGMP,213017.00,,,,,,03,,,,,*7A
$GAGMP,213017.00,,,,,,05,,,,,*71
$GBGMP,213017.00,,,,,,08,,,,,*7F
$PSSN,SNC,[0,336635000,2347]*42
$GPZDA,213022.00,01,01,2025,,*63
$GPDTM,W84,,00.0000000,N,00.0000000,E,00.0000000,W84*5F
$GPRMC,213022.00,A,4742.4460788,N,01617.9726803,E,0.0,,010125,5.1,E,D*19
$GPGLL,4742.4460788,N,01617.9726803,E,213022.00,A,D*68
$GPGGA,213022.00,4742.4460788,N,01617.9726803,E,2,21,0.7,626.0830,M,43.2111,M,2.8,0123*46
$GNGNS,213022.00,4742.4460788,N,01617.9726803,E,DAAA,21,0.7,626.0830,43.2111,,*50
$GPGNS,213022.00,,,,,,04,,,,2.8,123*73
$GLGNS,213022.00,,,,,,05,,,,,*7A
$GAGNS,213022.00,,,,,,05,,,,,*77
$GBGNS,213022.00,,,,,,07,,,,,*76
$GPLLQ,213022.00,010125,,M,,M,1,21,3.515,,M*10
$GPVTG,,T,,M,0.00,N,0.00,K,D*26
$GPHDT,,T*1B
$GPTHS,,V*0E
$GPROT,,V*08
$PSSN,HRP,213022.00,010125,,,,,,,00,0,,*61
$PTNL,AVR,213022.00,,Yaw,,Tilt,,,,0,,00*37
$GPGSA,A,3,08,10,27,32,,,,,,,,,1.2,0.7,1.0*3A
$GPGSA,A,3,67,68,69,75,84,,,,,,,,1.2,0.7,1.0*39
$GPGSA,A,3,08,13,26,31,33,,,,,,,,1.2,0.7,1.0*3B
$GPGSA,A,3,14,27,28,30,33,36,41,,,,,,1.2,0.7,1.0*3E
$GPGST,213022.00,5.107,1.402,1.165,357.492,1.401,1.166,3.006*5F
$GPGBS,213022.00,7.764,6.076,13.541,67,0.0001,14.170,6.254*5E
$GPGRS,213022.00,1,0.6,-0.2,-0.7,-0.3,,,,,,,,*63
$GPGRS,213022.00,1,14.2,3.5,-5.7,-0.1,-3.1,,,,,,,*7D
$GPGRS,213022.00,1,-0.8,-1.0,0.6,-0.5,-0.2,,,,,,,*68
$GPGRS,213022.00,1,-0.2,1.0,-0.7,9.5,3.1,-1.2,-2.2,,,,,*69
$GPGSV,4,1,14,08,72,273,42,16,11,192,,02,26,280,33,23,24,049,25*78
$GPGSV,4,2,14,32,29,129,37,01,21,271,,27,62,159,43,21,46,285,35*7B
$GPGSV,4,3,14,10,65,066,51,14,04,333,,36,35,170,41,34,31,208,*70
$GPGSV,4,4,14,49,34,195,37,61,03,257,*7B
$GLGSV,3,1,10,84,59,329,36,74,18,254,,67,19,028,36,85,12,296,25*60
$GLGSV,3,2,10,75,24,309,43,83,39,085,31,69,39,155,42,68,54,075,50*68
$GLGSV,3,3,10,82,02,103,,76,01,000,*6E
$GAGSV,3,1,10,26,75,315,45,21,14,195,30,33,28,273,40,08,30,072,41*60
$GAGSV,3,2,10,07,24,131,27,23,38,244,,31,28,306,46,13,42,074,48*63
$GAGSV,3,3,10,14,69,177,,03,07,026,*62
$GBGSV,5,1,19,28,72,102,48,42,17,039,34,05,23,128,35,08,14,044,*6E
$GBGSV,5,2,19,43,10,115,,58,10,251,,41,41,171,41,46,11,268,*61
$GBGSV,5,3,19,60,11,108,,13,22,048,29,14,39,056,41,57,42,244,*60
$GBGSV,5,4,19,27,58,300,40,33,56,089,42,38,01,048,,30,09,297,40*6D
$GBGSV,5,5,19,39,00,077,,02,08,105,,36,09,316,38*54
$GPGGA,213022.00,,,,,0,00,,,M,,M,,*48
$PTNL,GGK,213022.00,010125,4742.4460788,N,01617.9726803,E,1,21,1.2,EHT669.2940,M*48
$GPGGQ,213022.00,010125,4742.4460788,N,01617.9726803,E,1,21,3.515,626.0830,M*38
$GPGFA,213022.00,13.327,24.648,1.402,1.165,357.492,3.006,,VVV*04
$GPLLK,213022.00,010125,,M,,M,1,21,1.4,,M*0D
$GNGMP,213022.00,,,,,DAAA,21,0.7,,,,*52
$GPGMP,213022.00,,,,,,04,,,,2.8,123*73
$GLGMP,213022.00,,,,,,05,,,,,*7A
$GAGMP,213022.00,,,,,,05,,,,,*77
$GBGMP,213022.00,,,,,,07,,,,,*76
$PSSN,SNC,[0,336640000,2347]*40
$GPZDA,213027.00,01,01,2025,,*66
$GPDTM,W84,,00.0000000,N,00.0000000,E,00.0000000,W84*5F
$GPRMC,213027.00,A,4742.4460735,N,01617.9726825,E,0.0,,010125,5.1,E,D*1E
$GPGLL,4742.4460735,N,01617.9726825,E,213027.00,A,D*6F
$GPGGA,213027.00,4742.4460735,N,01617.9726825,E,2,22,0.7,626.0877,M,43.2111,M,2.8,0123*41
$GNGNS,213027.00,4742.4460735,N,01617.9726825,E,DAAA,22,0.7,626.0877,43.2111,,*57
$GPGNS,213027.00,,,,,,04,,,,2.8,123*76
$GLGNS,213027.00,,,,,,05,,,,,*7F
$GAGNS,213027.00,,,,,,05,,,,,*72
$GBGNS,213027.00,,,,,,08,,,,,*7C
$GPLLQ,213027.00,010125,,M,,M,1,22,3.658,,M*1C
$GPVTG,,T,,M,0.01,N,0.02,K,D*25
$GPHDT,,T*1B
$GPTHS,,V*0E
$GPROT,,V*08
$PSSN,HRP,213027.00,010125,,,,,,,00,0,,*64
$PTNL,AVR,213027.00,,Yaw,,Tilt,,,,0,,00*32
$GPGSA,A,3,08,10,27,32,,,,,,,,,1.1,0.7,0.9*31
$GPGSA,A,3,67,68,69,75,84,,,,,,,,1.1,0.7,0.9*32
$GPGSA,A,3,08,13,26,31,33,,,,,,,,1.1,0.7,0.9*30
$GPGSA,A,3,05,14,27,28,30,33,36,41,,,,,1.1,0.7,0.9*30
$GPGST,213027.00,5.247,1.449,1.233,359.474,1.449,1.233,3.124*5A
$GPGBS,213027.00,7.480,6.129,13.909,67,0.0001,15.623,6.252*5F
$GPGRS,213027.00,1,0.5,-0.2,-0.9,0.8,,,,,,,,*4D
$GPGRS,213027.00,1,15.6,3.9,-5.1,2.0,-4.5,,,,,,,*5A
$GPGRS,213027.00,1,-0.7,-1.0,0.9,-0.4,-0.2,,,,,,,*6C
$GPGRS,213027.00,1,0.6,0.5,1.7,-1.6,8.4,4.4,-1.7,0.9,,,,*4A
$GPGSV,4,1,14,08,72,273,41,16,11,192,,02,26,280,35,23,24,049,24*7C
$GPGSV,4,2,14,32,29,129,38,01,21,271,,27,62,159,44,21,46,285,36*70
$GPGSV,4,3,14,10,65,066,50,14,04,333,,36,35,170,41,34,31,208,*71
$GPGSV,4,4,14,49,34,195,37,61,03,257,*7B
$GLGSV,3,1,10,84,59,329,36,74,18,254,30,67,19,028,36,85,12,296,21*67
$GLGSV,3,2,10,75,24,309,43,83,39,085,24,69,39,155,44,68,54,075,50*6A
$GLGSV,3,3,10,82,02,103,,76,01,000,*6E
$GAGSV,3,1,10,26,75,316,45,21,14,195,30,33,28,273,41,08,30,072,41*62
$GAGSV,3,2,10,07,24,131,26,23,38,244,,31,28,306,46,13,42,074,48*62
$GAGSV,3,3,10,14,69,177,,03,07,026,22*62
$GBGSV,5,1,19,28,72,102,48,42,17,039,34,05,23,128,35,08,14,044,*6E
$GBGSV,5,2,19,43,10,115,,58,10,251,,41,41,171,43,46,11,267,*6C
$GBGSV,5,3,19,60,11,108,,13,22,048,27,14,39,056,41,57,42,244,*6E
$GBGSV,5,4,19,27,58,300,39,33,56,089,44,38,01,048,,30,09,297,39*6B
$GBGSV,5,5,19,39,00,077,,02,08,105,,36,09,316,39*55
$GPGGA,213027.00,,,,,0,00,,,M,,M,,*4D
$PTNL,GGK,213027.00,010125,4742.4460735,N,01617.9726825,E,1,22,1.1,EHT669.2988,M*4B
$GPGGQ,213027.00,010125,4742.4460735,N,01617.9726825,E,1,22,3.658,626.0877,M*35
$GPGFA,213027.00,13.775,25.618,1.449,1.233,359.474,3.124,,VVV*0E
$GPLLK,213027.00,010125,,M,,M,1,22,1.3,,M*0C
$GNGMP,213027.00,,,,,DAAA,22,0.7,,,,*54
$GPGMP,213027.00,,,,,,04,,,,2.8,123*76
$GLGMP,213027.00,,,,,,05,,,,,*7F
$GAGMP,213027.00,,,,,,05,,,,,*72
$GBGMP,213027.00,,,,,,08,,,,,*7C
$PSSN,SNC,[0,336645000,2347]*45
$GPZDA,213032.00,01,01,2025,,*62
$GPDTM,W84,,00.0000000,N,00.0000000,E,00.0000000,W84*5F
$GPRMC,213032.00,A,4742.4460696,N,01617.9726766,E,0.0,,010125,5.1,E,D*1A
$GPGLL,4742.4460696,N,01617.9726766,E,213032.00,A,D*6B
$GPGGA,213032.00,4742.4460696,N,01617.9726766,E,2,22,0.7,626.1012,M,43.2111,M,3.0,0123*46
$GNGNS,213032.00,4742.4460696,N,01617.9726766,E,DAAA,22,0.7,626.1012,43.2111,,*59
$GPGNS,213032.00,,,,,,05,,,,3.0,123*7A
$GLGNS,213032.00,,,,,,04,,,,,*7A
$GAGNS,213032.00,,,,,,05,,,,,*76
$GBGNS,213032.00,,,,,,08,,,,,*78
$GPLLQ,213032.00,010125,,M,,M,1,22,2.049,,M*1F
$GPVTG,,T,,M,0.01,N,0.01,K,D*26
$GPHDT,,T*1B
$GPTHS,,V*0E
$GPROT,,V*08
$PSSN,HRP,213032.00,010125,,,,,,,00,0,,*60
$PTNL,AVR,213032.00,,Yaw,,Tilt,,,,0,,00*36
$GPGSA,A,3,02,08,10,27,32,,,,,,,,1.1,0.7,0.9*33
$GPGSA,A,3,67,68,69,75,,,,,,,,,1.1,0.7,0.9*3E
$GPGSA,A,3,08,13,26,31,33,,,,,,,,1.1,0.7,0.9*30
$GPGSA,A,3,05,14,27,28,30,33,36,41,,,,,1.1,0.7,0.9*30
$GPGST,213032.00,4.883,1.275,0.570,23.109,1.194,0.724,1.500*63
$GPGBS,213032.00,7.242,3.896,7.175,67,0.0001,14.854,6.257*67
$GPGRS,213032.00,1,0.8,-0.4,0.1,-0.5,0.5,,,,,,,*6C
$GPGRS,213032.00,1,14.9,3.6,-0.3,0.2,,,,,,,,*5A
$GPGRS,213032.00,1,-0.8,-0.8,1.4,0.3,-0.3,,,,,,,*49
$GPGRS,213032.00,1,1.0,-0.7,1.7,-2.5,7.2,4.6,-1.9,5.7,,,,*68
$GPGSV,4,1,14,08,72,272,40,16,11,192,20,32,29,129,40,23,24,049,25*71
$GPGSV,4,2,14,02,26,280,36,01,21,271,,27,62,159,44,21,46,285,36*72
$GPGSV,4,3,14,10,65,066,49,14,04,333,,36,35,170,41,34,31,208,*79
$GPGSV,4,4,14,49,34,195,37,61,03,257,*7B
$GLGSV,3,1,10,84,59,329,35,74,18,254,,67,19,028,35,85,12,296,28*6D
$GLGSV,3,2,10,75,24,309,43,83,39,085,25,69,39,155,44,68,54,075,50*6B
$GLGSV,3,3,10,82,02,103,,76,01,000,*6E
$GAGSV,3,1,10,26,75,316,45,21,14,195,30,33,28,273,41,08,30,072,41*62
$GAGSV,3,2,10,07,24,131,25,23,38,244,,31,28,306,46,13,42,074,49*60
$GAGSV,3,3,10,14,69,176,,03,07,026,19*6B
$GBGSV,5,1,19,28,72,102,48,42,17,039,34,05,23,128,35,08,14,044,25*69
$GBGSV,5,2,19,60,11,108,,58,10,251,,41,41,171,43,46,11,267,*60
$GBGSV,5,3,19,13,22,048,24,14,39,056,41,57,42,244,,27,58,300,38*62
$GBGSV,5,4,19,33,56,089,44,02,08,105,,43,10,115,,30,09,297,38*60
$GBGSV,5,5,19,38,01,048,,39,00,076,,36,09,316,39*5C
$GPGGA,213032.00,,,,,0,00,,,M,,M,,*49
$PTNL,GGK,213032.00,010125,4742.4460696,N,01617.9726766,E,1,22,1.1,EHT669.3122,M*46
$GPGGQ,213032.00,010125,4742.4460696,N,01617.9726766,E,1,22,2.049,626.1012,M*3C
$GPGFA,213032.00,12.119,12.302,1.275,0.570,23.109,1.500,,VVV*34
$GPLLK,213032.00,010125,,M,,M,1,22,1.3,,M*08
$GNGMP,213032.00,,,,,DAAA,22,0.7,,,,*50
$GPGMP,213032.00,,,,,,05,,,,3.0,123*7A
$GLGMP,213032.00,,,,,,04,,,,,*7A
$GAGMP,213032.00,,,,,,05,,,,,*76
$GBGMP,213032.00,,,,,,08,,,,,*78
$PSSN,SNC,[0,336650000,2347]*41
$GPZDA,213037.00,01,01,2025,,*67
$GPDTM,W84,,00.0000000,N,00.0000000,E,00.0000000,W84*5F
$GPRMC,213037.00,A,4742.4460597,N,01617.9726963,E,0.0,,010125,5.1,E,D*16
$GPGLL,4742.4460597,N,01617.9726963,E,213037.00,A,D*67
$GPGGA,213037.00,4742.4460597,N,01617.9726963,E,2,21,0.7,626.1261,M,43.2111,M,1.6,0123*4B
$GNGNS,213037.00,4742.4460597,N,01617.9726963,E,DAAA,21,0.7,626.1261,43.2111,,*50
$GPGNS,213037.00,,,,,,05,,,,1.6,123*7B
$GLGNS,213037.00,,,,,,03,,,,,*78
$GAGNS,213037.00,,,,,,05,,,,,*73
$GBGNS,213037.00,,,,,,08,,,,,*7D
$GPLLQ,213037.00,010125,,M,,M,1,21,2.630,,M*11
$GPVTG,,T,,M,0.01,N,0.01,K,D*26
$GPHDT,,T*1B
$GPTHS,,V*0E
$GPROT,,V*08
$PSSN,HRP,213037.00,010125,,,,,,,00,0,,*65
$PTNL,AVR,213037.00,,Yaw,,Tilt,,,,0,,00*33
$GPGSA,A,3,02,08,10,27,32,,,,,,,,1.2,0.7,1.0*38
$GPGSA,A,3,68,69,75,,,,,,,,,,1.2,0.7,1.0*34
$GPGSA,A,3,08,13,26,31,33,,,,,,,,1.2,0.7,1.0*3B
$GPGSA,A,3,05,14,27,28,30,33,36,41,,,,,1.2,0.7,1.0*3B
$GPGST,213037.00,3.414,1.655,0.714,22.681,1.552,0.917,1.915*6B
$GPGBS,213037.00,7.173,3.864,6.911,02,0.0001,2.263,0.786*50
$GPGRS,213037.00,1,2.3,-0.9,0.0,-1.1,-0.3,,,,,,,*42
$GPGRS,213037.00,1,3.2,2.5,-3.9,,,,,,,,,*45
$GPGRS,213037.00,1,-1.3,-0.9,1.5,0.3,-0.4,,,,,,,*41
$GPGRS,213037.00,1,0.7,-2.8,1.3,-3.1,7.8,0.3,-1.9,5.9,,,,*62
$GPGSV,4,1,14,08,72,272,40,16,10,192,,32,29,129,41,23,23,049,24*75
$GPGSV,4,2,14,02,26,280,36,01,21,271,,27,62,159,44,21,46,285,36*72
$GPGSV,4,3,14,10,65,065,50,14,04,333,,36,35,170,41,34,31,208,*72
$GPGSV,4,4,14,49,34,195,37,61,03,257,*7B
$GLGSV,3,1,10,84,59,329,35,74,18,254,32,67,19,028,33,85,12,296,*60
$GLGSV,3,2,10,75,24,309,42,83,39,085,25,69,39,155,44,68,54,075,50*6A
$GLGSV,3,3,10,82,02,103,,76,01,000,*6E
$GAGSV,3,1,10,26,75,316,45,21,14,195,29,33,28,273,41,08,30,072,42*69
$GAGSV,3,2,10,07,25,131,25,23,38,244,,31,28,306,46,13,42,074,49*61
$GAGSV,3,3,10,14,69,176,,03,07,026,*63
$GBGSV,5,1,19,28,72,103,47,42,17,039,33,05,23,128,35,08,14,044,26*63
$GBGSV,5,2,19,60,11,108,,58,10,251,,41,41,171,43,46,11,267,*60
$GBGSV,5,3,19,13,22,048,24,14,39,056,40,57,42,244,,27,58,300,37*6C
$GBGSV,5,4,19,33,56,089,42,02,08,105,,43,10,115,,30,09,297,37*69
$GBGSV,5,5,19,38,01,048,,39,00,076,,36,09,316,40*52
$GPGGA,213037.00,,,,,0,00,,,M,,M,,*4C
$PTNL,GGK,213037.00,010125,4742.4460597,N,01617.9726963,E,1,21,1.2,EHT669.3372,M*4D
$GPGGQ,213037.00,010125,4742.4460597,N,01617.9726963,E,1,21,2.630,626.1261,M*3D
$GPGFA,213037.00,15.739,15.701,1.655,0.714,22.681,1.915,,VVV*3A
$GPLLK,213037.00,010125,,M,,M,1,21,1.4,,M*09
$GNGMP,213037.00,,,,,DAAA,21,0.7,,,,*56
$GPGMP,213037.00,,,,,,05,,,,1.6,123*7B
$GLGMP,213037.00,,,,,,03,,,,,*78
$GAGMP,213037.00,,,,,,05,,,,,*73
$GBGMP,213037.00,,,,,,08,,,,,*7D
$PSSN,SNC,[0,336655000,2347]*44
$GPZDA,213042.00,01,01,2025,,*65
$GPDTM,W84,,00.0000000,N,00.0000000,E,00.0000000,W84*5F
$GPRMC,213042.00,A,4742.4460536,N,01617.9726955,E,0.0,,010125,5.1,E,D*1A
$GPGLL,4742.4460536,N,01617.9726955,E,213042.00,A,D*6B
$GPGGA,213042.00,4742.4460536,N,01617.9726955,E,2,23,0.7,626.1294,M,43.2111,M,2.8,0123*42
$GNGNS,213042.00,4742.4460536,N,01617.9726955,E,DAAA,23,0.7,626.1294,43.2111,,*54
$GPGNS,213042.00,,,,,,06,,,,2.8,123*77
$GLGNS,213042.00,,,,,,04,,,,,*7D
$GAGNS,213042.00,,,,,,05,,,,,*71
$GBGNS,213042.00,,,,,,08,,,,,*7F
$GPLLQ,213042.00,010125,,M,,M,1,23,2.879,,M*12
$GPVTG,,T,,M,0.01,N,0.01,K,D*26
$GPHDT,,T*1B
$GPTHS,,V*0E
$GPROT,,V*08
$PSSN,HRP,213042.00,010125,,,,,,,00,0,,*67
$PTNL,AVR,213042.00,,Yaw,,Tilt,,,,0,,00*31
$GPGSA,A,3,02,08,10,21,27,32,,,,,,,1.2,0.7,0.9*33
$GPGSA,A,3,68,69,75,84,,,,,,,,,1.2,0.7,0.9*30
$GPGSA,A,3,08,13,26,31,33,,,,,,,,1.2,0.7,0.9*33
$GPGSA,A,3,05,14,27,28,30,33,36,41,,,,,1.2,0.7,0.9*33
$GPGST,213042.00,3.695,1.815,0.735,22.518,1.700,0.972,2.111*61
$GPGBS,213042.00,7.139,4.080,6.994,21,0.0001,2.662,0.703*5D
$GPGRS,213042.00,1,-2.6,0.9,0.2,2.7,-0.8,0.2,,,,,,*48
$GPGRS,213042.00,1,4.1,0.6,-5.6,-4.2,,,,,,,,*4E
$GPGRS,213042.00,1,-1.0,-0.6,1.4,-0.8,0.1,,,,,,,*40
$GPGRS,213042.00,1,1.5,-5.4,2.7,-2.5,7.5,-1.4,-2.0,5.1,,,,*4E
$GPGSV,4,1,14,08,72,272,42,16,10,192,,32,29,129,42,23,23,049,24*74
$GPGSV,4,2,14,02,26,280,36,01,21,271,,27,62,159,44,21,46,285,36*72
$GPGSV,4,3,14,10,65,065,50,14,04,333,,36,35,170,41,34,31,208,*72
$GPGSV,4,4,14,49,34,195,37,61,03,257,*7B
$GLGSV,3,1,10,84,59,329,37,74,18,254,31,67,19,028,32,85,12,296,*60
$GLGSV,3,2,10,75,24,309,39,83,39,085,21,69,39,155,43,68,54,075,50*65
$GLGSV,3,3,10,82,02,103,,76,01,000,*6E
$GAGSV,3,1,10,26,75,316,46,21,14,195,29,33,28,273,41,08,30,072,41*69
$GAGSV,3,2,10,07,25,131,23,23,38,244,,31,28,306,45,13,42,074,49*64
$GAGSV,3,3,10,14,69,176,,03,07,026,21*60
$GBGSV,5,1,19,28,72,103,47,42,17,039,34,05,23,128,35,08,14,044,*60
$GBGSV,5,2,19,60,11,108,,58,10,251,,41,41,171,43,46,11,267,*60
$GBGSV,5,3,19,13,22,048,22,14,39,056,40,57,42,244,,27,58,300,39*64
$GBGSV,5,4,19,33,56,089,41,02,08,105,,43,10,115,,30,09,297,36*6B
$GBGSV,5,5,19,38,01,048,,39,00,076,,36,09,316,41*53
$GPGGA,213042.00,,,,,0,00,,,M,,M,,*4E
$PTNL,GGK,213042.00,010125,4742.4460536,N,01617.9726955,E,1,23,1.2,EHT669.3405,M*44
$GPGGQ,213042.00,010125,4742.4460536,N,01617.9726955,E,1,23,2.879,626.1294,M*3A
$GPGFA,213042.00,17.260,17.308,1.815,0.735,22.518,2.111,,VVV*39
$GPLLK,213042.00,010125,,M,,M,1,23,1.3,,M*0E
$GNGMP,213042.00,,,,,DAAA,23,0.7,,,,*56
$GPGMP,213042.00,,,,,,06,,,,2.8,123*77
$GLGMP,213042.00,,,,,,04,,,,,*7D
$GAGMP,213042.00,,,,,,05,,,,,*71
$GBGMP,213042.00,,,,,,08,,,,,*7F
$PSSN,SNC,[0,336660000,2347]*42
$GPZDA,213047.00,01,01,2025,,*60
$GPDTM,W84,,00.0000000,N,00.0000000,E,00.0000000,W84*5F
$GPRMC,213047.00,A,4742.4460517,N,01617.9727026,E,0.0,,010125,5.1,E,D*10
$GPGLL,4742.4460517,N,01617.9727026,E,213047.00,A,D*61
$GPGGA,213047.00,4742.4460517,N,01617.9727026,E,2,19,0.8,626.1257,M,43.2111,M,2.8,0123*41
$GNGNS,213047.00,4742.4460517,N,01617.9727026,E,DAAA,19,0.8,626.1257,43.2111,,*57
$GPGNS,213047.00,,,,,,05,,,,2.8,123*71
$GLGNS,213047.00,,,,,,03,,,,,*7F
$GAGNS,213047.00,,,,,,05,,,,,*74
$GBGNS,213047.00,,,,,,06,,,,,*74
$GPLLQ,213047.00,010125,,M,,M,1,19,3.272,,M*1E
$GPVTG,,T,,M,0.01,N,0.01,K,D*26
$GPHDT,,T*1B
$GPTHS,,V*0E
$GPROT,,V*08
$PSSN,HRP,213047.00,010125,,,,,,,00,0,,*62
$PTNL,AVR,213047.00,,Yaw,,Tilt,,,,0,,00*34
$GPGSA,A,3,02,08,10,27,32,,,,,,,,1.3,0.8,1.1*37
$GPGSA,A,3,68,69,84,,,,,,,,,,1.3,0.8,1.1*35
$GPGSA,A,3,08,13,26,31,33,,,,,,,,1.3,0.8,1.1*34
$GPGSA,A,3,14,27,28,33,36,41,,,,,,,1.3,0.8,1.1*32
$GPGST,213047.00,3.684,1.560,1.087,18.965,1.517,1.146,2.664*64
$GPGBS,213047.00,7.324,3.958,7.302,02,0.0001,-3.032,0.808*73
$GPGRS,213047.00,1,-3.0,0.6,-0.0,-0.9,0.9,,,,,,,*4B
$GPGRS,213047.00,1,3.6,-3.5,-3.7,,,,,,,,,*64
$GPGRS,213047.00,1,-1.0,-0.5,1.5,-2.1,0.4,,,,,,,*49
$GPGRS,213047.00,1,-7.4,2.8,-2.2,2.3,-1.9,5.3,,,,,,*66
$GPGSV,4,1,14,08,72,272,43,16,10,192,,32,29,129,43,23,23,049,25*75
$GPGSV,4,2,14,02,26,280,37,01,21,271,,27,62,159,43,21,46,285,35*77
$GPGSV,4,3,14,10,65,065,51,14,04,333,,36,35,170,41,34,31,208,*73
$GPGSV,4,4,14,49,34,195,37,61,03,257,*7B
$GLGSV,3,1,10,84,59,329,37,74,18,254,32,67,19,028,33,85,12,296,19*6A
$GLGSV,3,2,10,75,24,309,34,83,39,085,,69,39,155,42,68,54,075,50*6A
$GLGSV,3,3,10,82,02,103,,76,01,000,*6E
$GAGSV,3,1,10,26,75,316,46,21,14,194,29,33,28,273,40,08,30,072,42*6A
$GAGSV,3,2,10,07,25,131,22,23,38,244,,31,28,306,44,13,42,074,49*64
$GAGSV,3,3,10,14,69,176,,03,07,026,21*60
$GBGSV,5,1,19,28,72,103,46,42,17,039,34,05,23,128,35,08,14,044,*61
$GBGSV,5,2,19,60,11,108,,58,10,251,,41,41,171,43,46,11,267,*60
$GBGSV,5,3,19,13,22,048,21,14,39,056,40,57,42,244,,27,58,300,40*69
$GBGSV,5,4,19,33,56,089,43,02,08,105,,43,10,115,,30,09,297,35*6A
$GBGSV,5,5,19,38,01,048,,39,00,076,,36,09,316,41*53
$GPGGA,213047.00,,,,,0,00,,,M,,M,,*4B
$PTNL,GGK,213047.00,010125,4742.4460517,N,01617.9727026,E,1,19,1.3,EHT669.3368,M*4A
$GPGGQ,213047.00,010125,4742.4460517,N,01617.9727026,E,1,19,3.272,626.1257,M*36
$GPGFA,213047.00,14.828,21.841,1.560,1.087,18.965,2.664,,VVV*30
$GPLLK,213047.00,010125,,M,,M,1,19,1.5,,M*04
$GNGMP,213047.00,,,,,DAAA,19,0.8,,,,*55
$GPGMP,213047.00,,,,,,05,,,,2.8,123*71
$GLGMP,213047.00,,,,,,03,,,,,*7F
$GAGMP,213047.00,,,,,,05,,,,,*74
$GBGMP,213047.00,,,,,,06,,,,,*74
$PSSN,SNC,[0,336665000,2347]*47
$GPZDA,213052.00,01,01,2025,,*64
$GPDTM,W84,,00.0000000,N,00.0000000,E,00.0000000,W84*5F
$GPRMC,213052.00,A,4742.4460499,N,01617.9726847,E,0.0,,010125,5.1,E,D*1D
$GPGLL,4742.4460499,N,01617.9726847,E,213052.00,A,D*6C
$GPGGA,213052.00,4742.4460499,N,01617.9726847,E,2,22,0.7,626.1224,M,43.2111,M,2.8,0123*4F
$GNGNS,213052.00,4742.4460499,N,01617.9726847,E,DAAA,22,0.7,626.1224,43.2111,,*59
$GPGNS,213052.00,,,,,,06,,,,2.8,123*76
$GLGNS,213052.00,,,,,,04,,,,,*7C
$GAGNS,213052.00,,,,,,05,,,,,*70
$GBGNS,213052.00,,,,,,07,,,,,*71
$GPLLQ,213052.00,010125,,M,,M,1,22,2.046,,M*16
$GPVTG,,T,,M,0.01,N,0.01,K,D*26
$GPHDT,,T*1B
$GPTHS,,V*0E
$GPROT,,V*08
$PSSN,HRP,213052.00,010125,,,,,,,00,0,,*66
$PTNL,AVR,213052.00,,Yaw,,Tilt,,,,0,,00*30
$GPGSA,A,3,02,08,10,21,27,32,,,,,,,1.2,0.7,1.0*3B
$GPGSA,A,3,68,69,75,84,,,,,,,,,1.2,0.7,1.0*38
$GPGSA,A,3,08,13,26,31,33,,,,,,,,1.2,0.7,1.0*3B
$GPGSA,A,3,05,14,27,28,33,36,41,,,,,,1.2,0.7,1.0*38
$GPGST,213052.00,3.392,1.283,0.531,23.430,1.196,0.705,1.503*68
$GPGBS,213052.00,7.290,4.188,7.228,32,0.0001,1.397,0.824*5C
$GPGRS,213052.00,1,-1.0,-0.1,0.5,-0.5,-0.5,1.4,,,,,,*49
$GPGRS,213052.00,1,4.2,-3.8,-3.3,-4.3,,,,,,,,*6E
$GPGRS,213052.00,1,-0.1,0.0,2.0,-1.6,0.2,,,,,,,*61
$GPGRS,213052.00,1,2.4,-4.9,1.9,-1.0,5.1,-2.0,6.0,,,,,*48
$GPGSV,4,1,14,08,72,272,44,16,10,192,,32,29,129,43,23,23,049,27*70
$GPGSV,4,2,14,02,26,280,36,01,21,271,,27,62,159,43,21,46,285,35*76
$GPGSV,4,3,14,10,65,065,51,14,04,333,,36,35,170,41,34,31,208,*73
$GPGSV,4,4,14,49,34,195,37,61,03,257,*7B
$GLGSV,3,1,10,84,59,329,36,74,18,254,31,67,19,028,33,85,12,296,32*61
$GLGSV,3,2,10,75,24,309,36,83,39,086,29,69,39,155,40,68,54,075,49*6A
$GLGSV,3,3,10,82,02,103,,76,01,000,*6E
$GAGSV,3,1,10,26,75,316,46,21,14,194,28,33,28,273,40,08,30,072,42*6B
$GAGSV,3,2,10,07,25,131,22,23,38,244,,31,28,306,43,13,42,074,49*63
$GAGSV,3,3,10,14,69,176,,03,07,026,23*62
$GBGSV,5,1,19,28,72,103,46,42,17,039,34,05,23,128,35,08,14,044,25*66
$GBGSV,5,2,19,60,11,108,,58,10,251,,41,41,171,42,46,11,267,*61
$GBGSV,5,3,19,13,22,048,20,14,39,056,40,57,42,245,,27,58,300,41*68
$GBGSV,5,4,19,33,56,089,43,02,08,105,,43,10,115,,30,09,297,31*6E
$GBGSV,5,5,19,38,01,048,,39,00,076,,36,09,316,41*53
$GPGGA,213052.00,,,,,0,00,,,M,,M,,*4F
$PTNL,GGK,213052.00,010125,4742.4460499,N,01617.9726847,E,1,22,1.2,EHT669.3335,M*46
$GPGGQ,213052.00,010125,4742.4460499,N,01617.9726847,E,1,22,2.046,626.1224,M*33
$GPGFA,213052.00,12.196,12.327,1.283,0.531,23.430,1.503,,VVV*32
$GPLLK,213052.00,010125,,M,,M,1,22,1.4,,M*09
$GNGMP,213052.00,,,,,DAAA,22,0.7,,,,*56
$GPGMP,213052.00,,,,,,06,,,,2.8,123*76
$GLGMP,213052.00,,,,,,04,,,,,*7C
$GAGMP,213052.00,,,,,,05,,,,,*70
$GBGMP,213052.00,,,,,,07,,,,,*71
$PSSN,SNC,[0,336670000,2347]*43
$GPZDA,213057.00,01,01,2025,,*61
$GPDTM,W84,,00.0000000,N,00.0000000,E,00.0000000,W84*5F
$GPRMC,213057.00,A,4742.4460512,N,01617.9726736,E,0.0,,010125,5.1,E,D*13
$GPGLL,4742.4460512,N,01617.9726736,E,213057.00,A,D*62
$GPGGA,213057.00,4742.4460512,N,01617.9726736,E,2,21,0.7,626.1273,M,43.2111,M,2.0,0123*48
$GNGNS,213057.00,4742.4460512,N,01617.9726736,E,DAAA,21,0.7,626.1273,43.2111,,*56
$GPGNS,213057.00,,,,,,05,,,,2.0,123*78
$GLGNS,213057.00,,,,,,04,,,,,*79
$GAGNS,213057.00,,,,,,05,,,,,*75
$GBGNS,213057.00,,,,,,07,,,,,*74
$GPLLQ,213057.00,010125,,M,,M,1,21,2.426,,M*12
$GPVTG,,T,,M,0.00,N,0.00,K,D*26
$GPHDT,,T*1B
$GPTHS,,V*0E
$GPROT,,V*08
$PSSN,HRP,213057.00,010125,,,,,,,00,0,,*63
$PTNL,AVR,213057.00,,Yaw,,Tilt,,,,0,,00*35
$GPGSA,A,3,08,10,21,27,32,,,,,,,,1.2,0.7,1.0*39
$GPGSA,A,3,68,69,75,84,,,,,,,,,1.2,0.7,1.0*38
$GPGSA,A,3,08,13,26,31,33,,,,,,,,1.2,0.7,1.0*3B
$GPGSA,A,3,05,14,27,28,33,36,41,,,,,,1.2,0.7,1.0*38
$GPGST,213057.00,3.142,1.271,0.590,22.255,1.197,0.728,1.980*69
$GPGBS,213057.00,6.694,4.423,10.109,21,0.0001,1.439,0.682*69
$GPGRS,213057.00,1,-0.9,0.4,1.4,-0.6,0.4,,,,,,,*68
$GPGRS,213057.00,1,3.8,-1.5,-2.0,-5.1,,,,,,,,*68
$GPGRS,213057.00,1,-0.3,-0.0,1.5,-0.7,-0.3,,,,,,,*61
$GPGRS,213057.00,1,2.4,-1.2,1.4,0.4,5.9,-3.3,5.5,,,,,*6A
$GPGSV,4,1,14,08,72,272,44,16,10,192,,02,26,280,34,23,23,049,27*7C
$GPGSV,4,2,14,32,29,129,43,01,21,271,,27,62,159,43,21,46,285,37*7A
$GPGSV,4,3,14,10,65,065,51,14,04,333,,36,35,170,41,34,31,208,*73
$GPGSV,4,4,14,49,34,195,37,61,03,257,*7B
$GLGSV,3,1,10,84,59,329,36,74,18,254,29,67,19,028,31,85,12,296,35*6D
$GLGSV,3,2,10,75,24,309,37,83,39,086,28,69,39,155,39,68,54,075,49*64
$GLGSV,3,3,10,82,02,103,,76,01,000,*6E
$GAGSV,3,1,10,26,75,316,46,21,14,194,26,33,28,273,39,08,30,072,42*6B
$GAGSV,3,2,10,07,25,130,,23,38,244,,31,28,306,44,13,42,074,48*64
$GAGSV,3,3,10,14,69,176,,03,07,026,*63
$GBGSV,5,1,19,28,72,103,46,42,17,039,34,05,23,128,35,08,14,044,25*66
$GBGSV,5,2,19,60,11,108,,58,10,251,,41,41,171,41,46,11,267,*62
$GBGSV,5,3,19,13,22,048,23,14,39,056,41,57,42,245,,27,58,300,41*6A
$GBGSV,5,4,19,33,56,089,44,02,08,105,,43,10,115,,30,09,297,30*68
$GBGSV,5,5,19,38,00,048,,39,00,076,,36,09,316,40*53
$GPGGA,213057.00,,,,,0,00,,,M,,M,,*4A
$PTNL,GGK,213057.00,010125,4742.4460512,N,01617.9726736,E,1,21,1.2,EHT669.3384,M*41
$GPGGQ,213057.00,010125,4742.4460512,N,01617.9726736,E,1,21,2.426,626.1273,M*3E
$GPGFA,213057.00,12.082,16.237,1.271,0.590,22.255,1.980,,VVV*32
$GPLLK,213057.00,010125,,M,,M,1,21,1.4,,M*0F
$GNGMP,213057.00,,,,,DAAA,21,0.7,,,,*50
$GPGMP,213057.00,,,,,,05,,,,2.0,123*78
$GLGMP,213057.00,,,,,,04,,,,,*79
$GAGMP,213057.00,,,,,,05,,,,,*75
$GBGMP,213057.00,,,,,,07,,,,,*74
$PSSN,SNC,[0,336675000,2347]*46
$GPZDA,213102.00,01,01,2025,,*60
$GPDTM,W84,,00.0000000,N,00.0000000,E,00.0000000,W84*5F
$GPRMC,213102.00,A,4742.4460484,N,01617.9726704,E,0.0,,010125,5.1,E,D*1D
$GPGLL,4742.4460484,N,01617.9726704,E,213102.00,A,D*6C
$GPGGA,213102.00,4742.4460484,N,01617.9726704,E,2,20,0.7,626.1358,M,43.2111,M,2.8,0123*47
$GNGNS,213102.00,4742.4460484,N,01617.9726704,E,DAAA,20,0.7,626.1358,43.2111,,*51
$GPGNS,213102.00,,,,,,04,,,,2.8,123*70
$GLGNS,213102.00,,,,,,04,,,,,*78
$GAGNS,213102.00,,,,,,05,,,,,*74
$GBGNS,213102.00,,,,,,07,,,,,*75
$GPLLQ,213102.00,010125,,M,,M,1,20,2.454,,M*17
$GPVTG,,T,,M,0.01,N,0.01,K,D*26
$GPHDT,,T*1B
$GPTHS,,V*0E
$GPROT,,V*08
$PSSN,HRP,213102.00,010125,,,,,,,00,0,,*62
$PTNL,AVR,213102.00,,Yaw,,Tilt,,,,0,,00*34
$GPGSA,A,3,08,10,27,32,,,,,,,,,1.3,0.7,1.0*3B
$GPGSA,A,3,68,69,75,84,,,,,,,,,1.3,0.7,1.0*39
$GPGSA,A,3,08,13,26,31,33,,,,,,,,1.3,0.7,1.0*3A
$GPGSA,A,3,05,14,27,28,33,36,41,,,,,,1.3,0.7,1.0*39
$GPGST,213102.00,2.911,0.957,0.788,349.836,0.952,0.794,2.117*51
$GPGBS,213102.00,8.362,6.317,14.645,08,0.0001,-0.590,0.600*4C
$GPGRS,213102.00,1,-0.6,0.5,-0.0,-0.0,,,,,,,,*63
$GPGRS,213102.00,1,3.7,0.4,-2.7,-2.6,,,,,,,,*4C
$GPGRS,213102.00,1,0.0,0.4,2.0,0.4,0.4,,,,,,,*65
$GPGRS,213102.00,1,2.3,1.0,0.7,1.8,6.3,-2.8,4.5,,,,,*4E
$GPGSV,4,1,14,08,72,272,43,16,10,192,20,02,26,280,34,23,23,049,26*78
$GPGSV,4,2,14,32,29,129,42,01,21,271,,27,62,159,44,21,46,285,37*7C
$GPGSV,4,3,14,10,65,065,50,14,04,333,,36,35,170,41,34,31,208,*72
$GPGSV,4,4,14,49,34,195,37,61,03,257,*7B
$GLGSV,3,1,10,84,59,329,37,74,18,254,27,67,19,028,26,85,12,296,38*69
$GLGSV,3,2,10,75,24,308,38,83,39,086,26,69,39,155,38,68,54,075,50*6D
$GLGSV,3,3,10,82,02,103,,76,01,000,*6E
$GAGSV,3,1,10,26,75,316,46,21,14,194,24,33,28,273,38,08,30,072,42*68
$GAGSV,3,2,10,07,25,130,31,23,38,244,,31,28,306,44,13,42,074,49*67
$GAGSV,3,3,10,14,68,176,,03,07,026,21*61
$GBGSV,5,1,19,28,72,103,47,42,17,039,33,05,23,128,35,08,14,044,24*61
$GBGSV,5,2,19,60,11,108,,58,10,251,,41,41,171,40,46,11,267,*63
$GBGSV,5,3,19,13,22,048,24,14,39,056,41,57,42,245,,27,58,300,41*6D
$GBGSV,5,4,19,33,56,089,45,02,08,105,,43,10,115,,30,09,297,31*68
$GBGSV,5,5,19,38,00,048,,39,00,076,,36,09,316,41*52
$GPGGA,213102.00,,,,,0,00,,,M,,M,,*4B
$PTNL,GGK,213102.00,010125,4742.4460484,N,01617.9726704,E,1,20,1.3,EHT669.3469,M*4B
$GPGGQ,213102.00,010125,4742.4460484,N,01617.9726704,E,1,20,2.454,626.1358,M*3C
$GPGFA,213102.00,9.099,17.361,0.957,0.788,349.836,2.117,,VVV*31
$GPLLK,213102.00,010125,,M,,M,1,20,1.4,,M*0F
$GNGMP,213102.00,,,,,DAAA,20,0.7,,,,*50
$GPGMP,213102.00,,,,,,04,,,,2.8,123*70
$GLGMP,213102.00,,,,,,04,,,,,*78
$GAGMP,213102.00,,,,,,05,,,,,*74
$GBGMP,213102.00,,,,,,07,,,,,*75
$PSSN,SNC,[0,336680000,2347]*4C
$GPZDA,213107.00,01,01,2025,,*65
$GPDTM,W84,,00.0000000,N,00.0000000,E,00.0000000,W84*5F
$GPRMC,213107.00,A,4742.4460482,N,01617.9726639,E,0.0,,010125,5.1,E,D*11
$GPGLL,4742.4460482,N,01617.9726639,E,213107.00,A,D*60
$GPGGA,213107.00,4742.4460482,N,01617.9726639,E,2,20,0.7,626.1363,M,43.2111,M,2.8,0123*43
$GNGNS,213107.00,4742.4460482,N,01617.9726639,E,DAAA,20,0.7,626.1363,43.2111,,*55
$GPGNS,213107.00,,,,,,04,,,,2.8,123*75
$GLGNS,213107.00,,,,,,04,,,,,*7D
$GAGNS,213107.00,,,,,,05,,,,,*71
$GBGNS,213107.00,,,,,,07,,,,,*70
$GPLLQ,213107.00,010125,,M,,M,1,20,2.468,,M*1D
$GPVTG,,T,,M,0.01,N,0.01,K,D*26
$GPHDT,,T*1B
$GPTHS,,V*0E
$GPROT,,V*08
$PSSN,HRP,213107.00,010125,,,,,,,00,0,,*67
$PTNL,AVR,213107.00,,Yaw,,Tilt,,,,0,,00*31
$GPGSA,A,3,08,10,27,32,,,,,,,,,1.3,0.7,1.0*3B
$GPGSA,A,3,68,69,75,84,,,,,,,,,1.3,0.7,1.0*39
$GPGSA,A,3,08,13,26,31,33,,,,,,,,1.3,0.7,1.0*3A
$GPGSA,A,3,05,14,27,28,33,36,41,,,,,,1.3,0.7,1.0*39
$GPGST,213107.00,3.044,0.954,0.806,350.717,0.951,0.810,2.129*5F
$GPGBS,213107.00,8.056,6.423,15.071,75,0.0001,-4.992,6.144*4C
$GPGRS,213107.00,1,-0.4,0.3,0.2,0.0,,,,,,,,*60
$GPGRS,213107.00,1,4.3,0.1,-5.0,-1.8,,,,,,,,*42
$GPGRS,213107.00,1,0.1,0.6,2.2,0.4,1.4,,,,,,,*60
$GPGRS,213107.00,1,2.6,-0.7,0.8,1.8,6.4,-3.1,2.3,,,,,*65
$GPGSV,4,1,14,08,72,272,44,16,10,192,22,02,26,280,34,23,23,049,25*7E
$GPGSV,4,2,14,32,29,129,39,01,21,271,,27,62,159,45,21,46,285,37*71
$GPGSV,4,3,14,10,65,065,50,14,04,333,,36,35,170,41,34,31,208,*72
$GPGSV,4,4,14,49,34,195,37,61,03,257,*7B
$GLGSV,3,1,10,84,59,329,36,74,18,254,,67,19,028,19,85,12,296,41*6F
$GLGSV,3,2,10,75,24,308,41,83,39,086,28,69,39,155,39,68,54,075,50*6C
$GLGSV,3,3,10,82,02,103,,76,01,000,*6E
$GAGSV,3,1,10,26,75,316,46,21,13,194,24,33,28,273,38,08,30,072,42*6F
$GAGSV,3,2,10,07,25,130,34,23,38,244,,31,28,306,44,13,41,074,49*61
$GAGSV,3,3,10,14,68,176,,03,07,026,19*6A
$GBGSV,5,1,19,28,72,103,48,42,17,039,33,05,23,128,35,08,14,044,23*69
$GBGSV,5,2,19,60,11,108,,58,10,251,,41,41,171,39,46,11,267,*6D
$GBGSV,5,3,19,13,22,048,25,14,39,056,40,57,42,245,,27,58,300,42*6E
$GBGSV,5,4,19,33,56,088,45,02,08,105,,43,10,115,,30,09,297,29*60
$GBGSV,5,5,19,38,00,048,,39,00,076,,36,09,316,41*52
$GPGGA,213107.00,,,,,0,00,,,M,,M,,*4E
$PTNL,GGK,213107.00,010125,4742.4460482,N,01617.9726639,E,1,20,1.3,EHT669.3473,M*4C
$GPGGQ,213107.00,010125,4742.4460482,N,01617.9726639,E,1,20,2.468,626.1363,M*37
$GPGFA,213107.00,9.075,17.455,0.954,0.806,350.717,2.129,,VVV*35
$GPLLK,213107.00,010125,,M,,M,1,20,1.4,,M*0A
$GNGMP,213107.00,,,,,DAAA,20,0.7,,,,*55
$GPGMP,213107.00,,,,,,04,,,,2.8,123*75
$GLGMP,213107.00,,,,,,04,,,,,*7D
$GAGMP,213107.00,,,,,,05,,,,,*71
$GBGMP,213107.00,,,,,,07,,,,,*70
$PSSN,SNC,[0,336685000,2347]*49
$GPZDA,213112.00,01,01,2025,,*61
$GPDTM,W84,,00.0000000,N,00.0000000,E,00.0000000,W84*5F
$GPRMC,213112.00,A,4742.4460468,N,01617.9726621,E,0.0,,010125,5.1,E,D*18
$GPGLL,4742.4460468,N,01617.9726621,E,213112.00,A,D*69
$GPGGA,213112.00,4742.4460468,N,01617.9726621,E,2,22,0.7,626.1331,M,43.2111,M,2.8,0123*4F
$GNGNS,213112.00,4742.4460468,N,01617.9726621,E,DAAA,22,0.7,626.1331,43.2111,,*59
$GPGNS,213112.00,,,,,,06,,,,2.8,123*73
$GLGNS,213112.00,,,,,,04,,,,,*79
$GAGNS,213112.00,,,,,,06,,,,,*76
$GBGNS,213112.00,,,,,,06,,,,,*75
$GPLLQ,213112.00,010125,,M,,M,1,22,2.658,,M*1A
$GPVTG,,T,,M,0.00,N,0.00,K,D*26
$GPHDT,,T*1B
$GPTHS,,V*0E
$GPROT,,V*08
$PSSN,HRP,213112.00,010125,,,,,,,00,0,,*63
$PTNL,AVR,213112.00,,Yaw,,Tilt,,,,0,,00*35
$GPGSA,A,3,02,08,10,21,27,32,,,,,,,1.2,0.7,1.0*3B
$GPGSA,A,3,68,69,75,84,,,,,,,,,1.2,0.7,1.0*38
$GPGSA,A,3,07,08,13,26,31,33,,,,,,,1.2,0.7,1.0*3C
$GPGSA,A,3,14,27,28,33,36,41,,,,,,,1.2,0.7,1.0*3D
$GPGST,213112.00,4.898,1.653,0.678,23.516,1.540,0.906,1.967*65
$GPGBS,213112.00,7.207,4.178,7.304,21,0.0001,2.463,0.663*57
$GPGRS,213112.00,1,-1.3,-0.1,0.2,2.5,-0.4,-0.4,,,,,,*4A
$GPGRS,213112.00,1,3.9,-1.0,-6.6,-2.7,,,,,,,,*6F
$GPGRS,213112.00,1,13.6,-0.5,0.3,1.7,-0.5,1.9,,,,,,*75
$GPGRS,213112.00,1,-5.4,1.2,1.2,5.6,-4.9,1.6,,,,,,*44
$GPGSV,4,1,14,08,72,272,44,16,10,192,24,02,26,280,36,23,23,049,22*7D
$GPGSV,4,2,14,32,29,129,36,01,21,271,,27,62,159,45,21,46,285,37*7E
$GPGSV,4,3,14,10,65,065,50,14,04,333,,36,35,170,41,34,31,208,*72
$GPGSV,4,4,14,49,34,195,37,61,03,257,*7B
$GLGSV,3,1,10,84,59,329,36,74,18,254,24,67,19,028,27,85,12,296,22*61
$GLGSV,3,2,10,75,24,308,38,83,39,086,34,69,40,155,42,68,54,075,49*65
$GLGSV,3,3,10,82,02,103,,76,01,000,*6E
$GAGSV,3,1,10,26,75,316,46,21,13,194,21,33,28,273,39,08,30,072,42*6B
$GAGSV,3,2,10,07,25,130,34,23,38,244,,31,28,306,44,13,41,074,49*61
$GAGSV,3,3,10,14,68,176,,03,07,026,*62
$GBGSV,5,1,19,28,72,103,49,42,17,039,31,05,23,128,35,08,14,044,22*6B
$GBGSV,5,2,19,60,11,108,,58,10,251,,41,41,171,39,46,11,267,*6D
$GBGSV,5,3,19,13,22,048,24,14,39,056,38,57,42,245,,27,58,300,43*61
$GBGSV,5,4,19,33,56,088,45,02,08,105,,43,10,115,,30,09,297,31*69
$GBGSV,5,5,19,38,00,048,,39,00,076,,36,09,316,40*53
$GPGGA,213112.00,,,,,0,00,,,M,,M,,*4A
$PTNL,GGK,213112.00,010125,4742.4460468,N,01617.9726621,E,1,22,1.2,EHT669.3442,M*44
$GPGGQ,213112.00,010125,4742.4460468,N,01617.9726621,E,1,22,2.658,626.1331,M*3A
$GPGFA,213112.00,15.718,16.133,1.653,0.678,23.516,1.967,,VVV*3F
$GPLLK,213112.00,010125,,M,,M,1,22,1.4,,M*0C
$GNGMP,213112.00,,,,,DAAA,22,0.7,,,,*53
$GPGMP,213112.00,,,,,,06,,,,2.8,123*73
$GLGMP,213112.00,,,,,,04,,,,,*79
$GAGMP,213112.00,,,,,,06,,,,,*76
$GBGMP,213112.00,,,,,,06,,,,,*75
$PSSN,SNC,[0,336690000,2347]*4D
$GPZDA,213117.00,01,01,2025,,*64
$GPDTM,W84,,00.0000000,N,00.0000000,E,00.0000000,W84*5F
$GPRMC,213117.00,A,4742.4460395,N,01617.9726731,E,0.0,,010125,5.1,E,D*18
$GPGLL,4742.4460395,N,01617.9726731,E,213117.00,A,D*69
$GPGGA,213117.00,4742.4460395,N,01617.9726731,E,2,20,0.8,626.1258,M,43.2111,M,1.8,0123*4F
$GNGNS,213117.00,4742.4460395,N,01617.9726731,E,DAAA,20,0.8,626.1258,43.2111,,*5A
$GPGNS,213117.00,,,,,,05,,,,1.8,123*76
$GLGNS,213117.00,,,,,,04,,,,,*7C
$GAGNS,213117.00,,,,,,05,,,,,*70
$GBGNS,213117.00,,,,,,06,,,,,*70
$GPLLQ,213117.00,010125,,M,,M,1,20,2.823,,M*1F
$GPVTG,,T,,M,0.01,N,0.01,K,D*26
$GPHDT,,T*1B
$GPTHS,,V*0E
$GPROT,,V*08
$PSSN,HRP,213117.00,010125,,,,,,,00,0,,*66
$PTNL,AVR,213117.00,,Yaw,,Tilt,,,,0,,00*30
$GPGSA,A,3,02,08,10,21,27,,,,,,,,1.4,0.8,1.2*31
$GPGSA,A,3,68,69,75,84,,,,,,,,,1.4,0.8,1.2*33
$GPGSA,A,3,08,13,26,31,33,,,,,,,,1.4,0.8,1.2*30
$GPGSA,A,3,14,27,28,33,36,41,,,,,,,1.4,0.8,1.2*36
$GPGST,213117.00,4.187,1.562,0.754,21.361,1.481,0.904,2.227*6F
$GPGBS,213117.00,8.097,5.137,13.785,21,0.0001,1.632,0.684*68
$GPGRS,213117.00,1,-0.2,0.1,-0.1,1.6,-1.3,,,,,,,*4D
$GPGRS,213117.00,1,3.3,-0.6,-7.6,-2.8,,,,,,,,*69
$GPGRS,213117.00,1,-1.0,0.3,1.7,-1.0,2.4,,,,,,,*64
$GPGRS,213117.00,1,-7.8,1.4,0.4,5.8,-5.9,2.0,,,,,,*44
$GPGSV,4,1,14,08,72,271,44,16,10,192,25,02,26,280,37,23,23,049,37*7A
$GPGSV,4,2,14,32,29,129,35,01,21,271,,27,62,159,43,21,46,285,37*7B
$GPGSV,4,3,14,10,65,065,50,14,04,333,,36,35,170,41,34,31,208,*72
$GPGSV,4,4,14,49,34,195,36,61,03,257,*7A
$GLGSV,3,1,10,84,59,329,35,74,18,254,,67,19,028,32,85,12,296,*60
$GLGSV,3,2,10,75,24,308,41,83,39,086,34,69,40,155,44,68,54,075,48*6C
$GLGSV,3,3,10,82,02,103,,76,01,000,*6E
$GAGSV,3,1,10,26,75,317,45,21,13,194,20,33,28,273,40,08,30,072,42*66
$GAGSV,3,2,10,07,25,130,27,23,38,244,,31,28,306,44,13,41,074,49*63
$GAGSV,3,3,10,14,68,176,,03,07,026,*62
$GBGSV,5,1,19,28,72,103,49,42,17,039,30,05,23,128,35,08,14,044,*6A
$GBGSV,5,2,19,60,11,108,,58,10,250,,41,41,171,39,46,11,267,*6C
$GBGSV,5,3,19,13,22,048,30,14,39,055,38,57,42,245,,27,58,300,44*60
$GBGSV,5,4,19,33,56,088,43,02,08,105,,43,10,115,,30,09,297,33*6D
$GBGSV,5,5,19,38,00,048,,39,00,076,,36,09,316,39*5D
$GPGGA,213117.00,,,,,0,00,,,M,,M,,*4F
$PTNL,GGK,213117.00,010125,4742.4460395,N,01617.9726731,E,1,20,1.4,EHT669.3368,M*4F
$GPGGQ,213117.00,010125,4742.4460395,N,01617.9726731,E,1,20,2.823,626.1258,M*34
$GPGFA,213117.00,14.852,18.264,1.562,0.754,21.361,2.227,,VVV*33
$GPLLK,213117.00,010125,,M,,M,1,20,1.6,,M*09
$GNGMP,213117.00,,,,,DAAA,20,0.8,,,,*5B
$GPGMP,213117.00,,,,,,05,,,,1.8,123*76
$GLGMP,213117.00,,,,,,04,,,,,*7C
$GAGMP,213117.00,,,,,,05,,,,,*70
$GBGMP,213117.00,,,,,,06,,,,,*70
$PSSN,SNC,[0,336695000,2347]*48
$GPZDA,213122.00,01,01,2025,,*62
$GPDTM,W84,,00.0000000,N,00.0000000,E,00.0000000,W84*5F
$GPRMC,213122.00,A,4742.4460257,N,01617.9726840,E,0.0,,010125,5.1,E,D*18
$GPGLL,4742.4460257,N,01617.9726840,E,213122.00,A,D*69
$GPGGA,213122.00,4742.4460257,N,01617.9726840,E,2,22,0.7,626.1415,M,43.2111,M,2.8,0123*4E
$GNGNS,213122.00,4742.4460257,N,01617.9726840,E,DAAA,22,0.7,626.1415,43.2111,,*58
$GPGNS,213122.00,,,,,,06,,,,2.8,123*70
$GLGNS,213122.00,,,,,,05,,,,,*7B
$GAGNS,213122.00,,,,,,05,,,,,*76
$GBGNS,213122.00,,,,,,06,,,,,*76
$GPLLQ,213122.00,010125,,M,,M,1,22,3.417,,M*11
$GPVTG,,T,,M,0.01,N,0.02,K,D*25
$GPHDT,,T*1B
$GPTHS,,V*0E
$GPROT,,V*08
$PSSN,HRP,213122.00,010125,,,,,,,00,0,,*60
$PTNL,AVR,213122.00,,Yaw,,Tilt,,,,0,,00*36
$GPGSA,A,3,02,08,10,21,27,32,,,,,,,1.2,0.7,1.0*3B
$GPGSA,A,3,67,68,69,75,84,,,,,,,,1.2,0.7,1.0*39
$GPGSA,A,3,08,13,26,31,33,,,,,,,,1.2,0.7,1.0*3B
$GPGSA,A,3,14,27,28,33,36,41,,,,,,,1.2,0.7,1.0*3D
$GPGST,213122.00,5.649,2.133,0.837,22.700,1.994,1.128,2.535*6E
$GPGBS,213122.00,6.857,3.940,6.994,27,0.0001,-2.325,0.670*70
$GPGRS,213122.00,1,0.5,-0.1,-0.2,2.1,-2.3,1.2,,,,,,*65
$GPGRS,213122.00,1,17.7,3.4,0.9,-6.9,-4.1,,,,,,,*54
$GPGRS,213122.00,1,-1.2,0.1,1.7,-1.0,1.9,,,,,,,*6C
$GPGRS,213122.00,1,-3.4,1.3,-0.5,3.9,-6.4,0.3,,,,,,*69
$GPGSV,4,1,14,08,72,271,46,16,10,192,26,02,26,280,39,23,23,049,37*75
$GPGSV,4,2,14,32,29,129,35,01,21,271,,27,62,159,40,21,46,285,36*79
$GPGSV,4,3,14,10,65,065,50,14,05,333,33,36,35,170,41,34,31,208,*73
$GPGSV,4,4,14,49,34,195,37,61,03,257,*7B
$GLGSV,3,1,10,84,59,329,35,74,18,254,,67,19,028,36,85,12,296,35*62
$GLGSV,3,2,10,75,24,308,43,83,38,086,30,69,40,155,45,68,54,075,46*64
$GLGSV,3,3,10,82,02,103,,76,01,000,*6E
$GAGSV,3,1,10,26,75,317,44,21,13,194,21,33,28,273,40,08,30,072,41*65
$GAGSV,3,2,10,07,25,130,26,23,38,244,,31,28,306,45,13,41,074,49*63
$GAGSV,3,3,10,14,68,176,,03,07,026,21*61
$GBGSV,5,1,19,28,72,103,50,42,17,039,30,05,23,128,35,08,14,045,21*60
$GBGSV,5,2,19,60,11,108,,58,10,250,,41,41,171,39,46,11,267,*6C
$GBGSV,5,3,19,13,22,048,31,14,39,055,39,57,42,245,,27,58,300,45*61
$GBGSV,5,4,19,33,56,088,39,02,08,105,,43,10,115,,30,09,297,34*67
$GBGSV,5,5,19,38,00,048,,39,00,076,,36,09,316,39*5D
$GPGGA,213122.00,,,,,0,00,,,M,,M,,*49
$PTNL,GGK,213122.00,010125,4742.4460257,N,01617.9726840,E,1,22,1.2,EHT669.3526,M*47
$GPGGQ,213122.00,010125,4742.4460257,N,01617.9726840,E,1,22,3.417,626.1415,M*33
$GPGFA,213122.00,20.277,20.790,2.133,0.837,22.700,2.535,,VVV*37
$GPLLK,213122.00,010125,,M,,M,1,22,1.4,,M*0F
$GNGMP,213122.00,,,,,DAAA,22,0.7,,,,*50
$GPGMP,213122.00,,,,,,06,,,,2.8,123*70
$GLGMP,213122.00,,,,,,05,,,,,*7B
$GAGMP,213122.00,,,,,,05,,,,,*76
$GBGMP,213122.00,,,,,,06,,,,,*76
$PSSN,SNC,[0,336700000,2347]*45
$GPZDA,213127.00,01,01,2025,,*67
$GPDTM,W84,,00.0000000,N,00.0000000,E,00.0000000,W84*5F
$GPRMC,213127.00,A,4742.4460133,N,01617.9727020,E,0.0,,010125,5.1,E,D*13
$GPGLL,4742.4460133,N,01617.9727020,E,213127.00,A,D*62
$GPGGA,213127.00,4742.4460133,N,01617.9727020,E,2,21,0.7,626.1754,M,43.2111,M,2.5,0123*4D
$GNGNS,213127.00,4742.4460133,N,01617.9727020,E,DAAA,21,0.7,626.1754,43.2111,,*56
$GPGNS,213127.00,,,,,,06,,,,2.5,123*78
$GLGNS,213127.00,,,,,,04,,,,,*7F
$GAGNS,213127.00,,,,,,05,,,,,*73
$GBGNS,213127.00,,,,,,06,,,,,*73
$GPLLQ,213127.00,010125,,M,,M,1,21,3.775,,M*10
$GPVTG,,T,,M,0.00,N,0.01,K,D*27
$GPHDT,,T*1B
$GPTHS,,V*0E
$GPROT,,V*08
$PSSN,HRP,213127.00,010125,,,,,,,00,0,,*65
$PTNL,AVR,213127.00,,Yaw,,Tilt,,,,0,,00*33
$GPGSA,A,3,02,08,10,21,27,32,,,,,,,1.2,0.7,1.0*3B
$GPGSA,A,3,67,68,69,75,,,,,,,,,1.2,0.7,1.0*35
$GPGSA,A,3,08,13,26,31,33,,,,,,,,1.2,0.7,1.0*3B
$GPGSA,A,3,14,27,28,30,36,41,,,,,,,1.2,0.7,1.0*3E
$GPGST,213127.00,7.186,2.343,0.931,22.893,2.188,1.251,2.810*6B
$GPGBS,213127.00,6.859,3.994,7.338,27,0.0001,-2.004,0.626*7C
$GPGRS,213127.00,1,1.1,-0.5,-0.7,2.1,-2.0,0.3,,,,,,*67
$GPGRS,213127.00,1,18.7,3.5,1.3,-4.8,,,,,,,,*51
$GPGRS,213127.00,1,-1.2,-0.4,1.3,-1.2,1.7,,,,,,,*49
$GPGRS,213127.00,1,2.6,0.8,-1.7,16.5,-6.1,-0.9,,,,,,*51
$GPGSV,4,1,14,08,72,271,48,16,10,192,26,02,26,280,40,23,23,049,22*71
$GPGSV,4,2,14,32,29,129,36,01,21,271,,27,62,159,37,21,46,285,35*79
$GPGSV,4,3,14,10,65,065,50,14,05,333,32,36,35,170,41,34,31,208,*72
$GPGSV,4,4,14,49,34,195,37,61,03,257,*7B
$GLGSV,3,1,10,84,59,329,33,74,17,254,,67,19,028,39,85,12,296,32*63
$GLGSV,3,2,10,75,24,308,44,83,38,086,30,69,40,155,46,68,54,074,45*62
$GLGSV,3,3,10,82,02,103,,76,01,000,*6E
$GAGSV,3,1,10,26,75,317,44,21,13,194,29,33,28,273,41,08,30,072,42*6F
$GAGSV,3,2,10,07,25,130,24,23,38,244,,31,28,306,45,13,41,074,49*61
$GAGSV,3,3,10,14,68,176,,03,07,026,21*61
$GBGSV,5,1,19,28,72,103,50,42,17,039,31,05,23,128,35,08,14,045,*62
$GBGSV,5,2,19,60,11,108,,58,10,250,,41,41,171,38,46,11,267,*6D
$GBGSV,5,3,19,13,22,048,32,14,39,055,39,57,42,245,,27,58,300,45*62
$GBGSV,5,4,19,33,56,088,32,02,08,105,,43,10,115,,30,09,297,37*6F
$GBGSV,5,5,19,38,00,048,,39,00,076,,36,09,316,39*5D
$GPGGA,213127.00,,,,,0,00,,,M,,M,,*4C
$PTNL,GGK,213127.00,010125,4742.4460133,N,01617.9727020,E,1,21,1.2,EHT669.3865,M*45
$GPGGQ,213127.00,010125,4742.4460133,N,01617.9727020,E,1,21,3.775,626.1754,M*3A
$GPGFA,213127.00,22.273,23.046,2.343,0.931,22.893,2.810,,VVV*36
$GPLLK,213127.00,010125,,M,,M,1,21,1.4,,M*09
$GNGMP,213127.00,,,,,DAAA,21,0.7,,,,*56
$GPGMP,213127.00,,,,,,06,,,,2.5,123*78
$GLGMP,213127.00,,,,,,04,,,,,*7F
$GAGMP,213127.00,,,,,,05,,,,,*73
$GBGMP,213127.00,,,,,,06,,,,,*73
$PSSN,SNC,[0,336705000,2347]*40
$GPZDA,213132.00,01,01,2025,,*63
$GPDTM,W84,,00.0000000,N,00.0000000,E,00.0000000,W84*5F
$GPRMC,213132.00,A,4742.4460043,N,01617.9727148,E,0.0,,010125,5.1,E,D*1E
$GPGLL,4742.4460043,N,01617.9727148,E,213132.00,A,D*6F
$GPGGA,213132.00,4742.4460043,N,01617.9727148,E,2,21,0.7,626.1883,M,43.2111,M,3.0,0123*41
$GNGNS,213132.00,4742.4460043,N,01617.9727148,E,DAAA,21,0.7,626.1883,43.2111,,*5E
$GPGNS,213132.00,,,,,,05,,,,3.0,123*7B
$GLGNS,213132.00,,,,,,04,,,,,*7B
$GAGNS,213132.00,,,,,,05,,,,,*77
$GBGNS,213132.00,,,,,,07,,,,,*76
$GPLLQ,213132.00,010125,,M,,M,1,21,2.726,,M*13
$GPVTG,,T,,M,0.01,N,0.02,K,D*25
$GPHDT,,T*1B
$GPTHS,,V*0E
$GPROT,,V*08
$PSSN,HRP,213132.00,010125,,,,,,,00,0,,*61
$PTNL,AVR,213132.00,,Yaw,,Tilt,,,,0,,00*37
$GPGSA,A,3,02,08,10,27,32,,,,,,,,1.2,0.7,1.0*38
$GPGSA,A,3,67,68,69,75,,,,,,,,,1.2,0.7,1.0*35
