$GPZDA,162942.00,01,01,2025,,*69
$GPDTM,W84,,00.0000000,N,00.0000000,E,00.0000000,W84*5F
$GPRMC,162942.00,A,4742.4464705,N,01617.9723241,E,0.0,,010125,5.1,E,D*1B
$GPGLL,4742.4464705,N,01617.9723241,E,162942.00,A,D*6A
$GPGGA,162942.00,4742.4464705,N,01617.9723241,E,2,21,0.7,627.4921,M,43.2111,M,3.6,0123*4F
$GNGNS,162942.00,4742.4464705,N,01617.9723241,E,DAAA,21,0.7,627.4921,43.2111,,*56
$GPGNS,162942.00,,,,,,05,,,,3.6,123*77
$GLGNS,162942.00,,,,,,06,,,,,*73
$GAGNS,162942.00,,,,,,03,,,,,*7B
$GBGNS,162942.00,,,,,,07,,,,,*7C
$GPLLQ,162942.00,010125,,M,,M,1,21,6.706,,M*1F
$GPVTG,,T,,M,0.01,N,0.02,K,D*25
$GPHDT,,T*1B
$GPTHS,,V*0E
$GPROT,,V*08
$PSSN,HRP,162942.00,010125,,,,,,,00,0,,*6B
$PTNL,AVR,162942.00,,Yaw,,Tilt,,,,0,,00*3D
$GPGSA,A,3,18,26,28,29,31,,,,,,,,1.4,0.7,1.2*3D
$GPGSA,A,3,78,79,80,81,82,88,,,,,,,1.4,0.7,1.2*39
$GPGSA,A,3,13,15,27,,,,,,,,,,1.4,0.7,1.2*30
$GPGSA,A,3,08,11,13,23,25,34,43,,,,,,1.4,0.7,1.2*3F
$GPGST,162942.00,3.672,1.896,1.072,68.915,1.211,1.810,6.343*65
$GPGBS,162942.00,5.535,6.369,23.089,31,0.0001,-2.403,0.967*4A
$GPGRS,162942.00,1,0.8,1.1,0.4,0.4,-2.4,,,,,,,*49
$GPGRS,162942.00,1,-6.0,1.1,-2.8,1.2,2.6,-8.4,,,,,,*6E
$GPGRS,162942.00,1,-2.0,0.9,0.3,,,,,,,,,*4F
$GPGRS,162942.00,1,1.7,2.4,-3.3,4.9,-0.9,1.1,2.3,,,,,*6F
$GPGSV,4,1,16,29,71,050,51,16,11,301,34,20,19,048,,25,41,129,32*7A
$GPGSV,4,2,16,05,25,084,26,18,48,185,48,26,41,301,39,28,43,233,47*72
$GPGSV,4,3,16,31,45,272,42,12,05,122,,04,04,325,32,11,05,038,*77
$GPGSV,4,4,16,36,35,170,38,34,31,208,35,49,34,195,37,61,03,257,*7E
$GLGSV,2,1,08,81,87,334,50,88,31,040,38,78,25,148,39,82,39,223,41*6D
$GLGSV,2,2,08,80,41,321,44,79,79,169,49,71,05,335,,72,08,020,*6A
$GAGSV,2,1,08,27,88,101,47,13,27,194,38,30,34,121,29,34,36,049,34*60
$GAGSV,2,2,08,21,35,302,35,15,67,131,42,04,04,337,34,19,07,284,28*69
$GBGSV,5,1,19,11,83,212,48,37,11,317,32,44,15,057,28,05,21,129,*61
$GBGSV,5,2,19,38,30,055,35,13,36,080,38,25,53,181,40,08,35,070,41*6F
$GBGSV,5,3,19,12,39,055,31,23,56,288,39,43,59,232,47,34,69,062,49*6E
$GBGSV,5,4,19,22,04,052,,10,04,088,,02,06,107,,24,06,151,*63
$GBGSV,5,5,19,19,01,005,,56,09,071,,60,10,109,*5C
$GPGGA,162942.00,,,,,0,00,,,M,,M,,*42
$PTNL,GGK,162942.00,010125,4742.4464705,N,01617.9723241,E,1,21,1.4,EHT670.7031,M*4E
$GPGGQ,162942.00,010125,4742.4464705,N,01617.9723241,E,1,21,6.706,627.4921,M*3B
$GPGFA,162942.00,18.025,52.010,1.896,1.072,68.915,6.343,,VVV*32
$GPLLK,162942.00,010125,,M,,M,1,21,1.7,,M*04
$GNGMP,162942.00,,,,,DAAA,21,0.7,,,,*58
$GPGMP,162942.00,,,,,,05,,,,3.6,123*77
$GLGMP,162942.00,,,,,,06,,,,,*73
$GAGMP,162942.00,,,,,,03,,,,,*7B
$GBGMP,162942.00,,,,,,07,,,,,*7C
$PSSN,SNC,[0,318600000,2347]*48
$GPZDA,162947.00,01,01,2025,,*6C
$GPDTM,W84,,00.0000000,N,00.0000000,E,00.0000000,W84*5F
$GPRMC,162947.00,A,4742.4464746,N,01617.9723149,E,0.0,,010125,5.1,E,D*12
$GPGLL,4742.4464746,N,01617.9723149,E,162947.00,A,D*63
$GPGGA,162947.00,4742.4464746,N,01617.9723149,E,2,22,0.7,627.4903,M,43.2111,M,2.2,0123*40
$GNGNS,162947.00,4742.4464746,N,01617.9723149,E,DAAA,22,0.7,627.4903,43.2111,,*5C
$GPGNS,162947.00,,,,,,05,,,,2.2,123*77
$GLGNS,162947.00,,,,,,06,,,,,*76
$GAGNS,162947.00,,,,,,04,,,,,*79
$GBGNS,162947.00,,,,,,07,,,,,*79
$GPLLQ,162947.00,010125,,M,,M,1,22,8.758,,M*1C
$GPVTG,,T,,M,0.00,N,0.01,K,D*27
$GPHDT,,T*1B
$GPTHS,,V*0E
$GPROT,,V*08
$PSSN,HRP,162947.00,010125,,,,,,,00,0,,*6E
$PTNL,AVR,162947.00,,Yaw,,Tilt,,,,0,,00*38
$GPGSA,A,3,18,26,28,29,31,,,,,,,,1.4,0.7,1.2*3D
$GPGSA,A,3,78,79,80,81,82,88,,,,,,,1.4,0.7,1.2*39
$GPGSA,A,3,13,15,21,27,,,,,,,,,1.4,0.7,1.2*33
$GPGSA,A,3,08,11,13,23,25,34,43,,,,,,1.4,0.7,1.2*3F
$GPGST,162947.00,4.195,2.484,1.385,69.424,1.563,2.376,8.284*6E
$GPGBS,162947.00,5.306,6.348,22.740,31,0.0001,-3.228,0.980*4E
$GPGRS,162947.00,1,0.7,2.7,0.1,0.0,-3.2,,,,,,,*40
$GPGRS,162947.00,1,-6.2,0.5,-4.3,0.9,9.3,-6.3,,,,,,*6C
$GPGRS,162947.00,1,-3.2,0.9,1.2,0.2,,,,,,,,*65
$GPGRS,162947.00,1,1.5,2.4,-3.1,5.1,0.0,1.3,1.8,,,,,*4D
$GPGSV,4,1,16,29,71,050,51,16,11,301,31,20,19,048,28,25,41,129,33*74
$GPGSV,4,2,16,05,25,084,30,18,48,185,48,26,41,301,38,28,43,233,45*76
$GPGSV,4,3,16,31,45,272,43,12,05,122,,04,04,325,32,11,05,038,*76
$GPGSV,4,4,16,36,35,170,38,34,31,208,35,49,34,195,37,61,03,257,*7E
$GLGSV,2,1,08,81,87,335,50,88,31,040,39,78,25,148,38,82,39,223,40*6D
$GLGSV,2,2,08,80,41,321,44,79,79,169,49,71,05,335,,72,08,020,*6A
$GAGSV,2,1,08,27,88,102,47,13,27,194,37,30,34,121,29,34,36,049,33*6B
$GAGSV,2,2,08,21,35,302,36,15,67,131,42,04,04,337,33,19,07,284,27*62
$GBGSV,5,1,19,11,83,212,48,37,11,317,32,44,15,057,29,05,21,129,*60
$GBGSV,5,2,19,38,30,055,34,13,36,080,39,25,53,181,41,08,35,070,41*6E
$GBGSV,5,3,19,12,39,055,32,23,56,288,36,43,59,232,47,34,69,062,50*6A
$GBGSV,5,4,19,22,04,052,,10,04,088,,02,06,107,,24,06,151,*63
$GBGSV,5,5,19,19,01,005,,56,09,071,,60,10,109,*5C
$GPGGA,162947.00,,,,,0,00,,,M,,M,,*47
$PTNL,GGK,162947.00,010125,4742.4464746,N,01617.9723149,E,1,22,1.4,EHT670.7014,M*43
$GPGGQ,162947.00,010125,4742.4464746,N,01617.9723149,E,1,22,8.758,627.4903,M*34
$GPGFA,162947.00,23.620,67.925,2.484,1.385,69.424,8.284,,VVV*38
$GPLLK,162947.00,010125,,M,,M,1,22,1.6,,M*03
$GNGMP,162947.00,,,,,DAAA,22,0.7,,,,*5E
$GPGMP,162947.00,,,,,,05,,,,2.2,123*77
$GLGMP,162947.00,,,,,,06,,,,,*76
$GAGMP,162947.00,,,,,,04,,,,,*79
$GBGMP,162947.00,,,,,,07,,,,,*79
$PSSN,SNC,[0,318605000,2347]*4D
$GPZDA,162952.00,01,01,2025,,*68
$GPDTM,W84,,00.0000000,N,00.0000000,E,00.0000000,W84*5F
$GPRMC,162952.00,A,4742.4464799,N,01617.9723125,E,0.0,,010125,5.1,E,D*1E
$GPGLL,4742.4464799,N,01617.9723125,E,162952.00,A,D*6F
$GPGGA,162952.00,4742.4464799,N,01617.9723125,E,2,20,0.7,627.4691,M,43.2111,M,1.5,0123*4E
$GNGNS,162952.00,4742.4464799,N,01617.9723125,E,DAAA,20,0.7,627.4691,43.2111,,*56
$GPGNS,162952.00,,,,,,04,,,,1.5,123*76
$GLGNS,162952.00,,,,,,06,,,,,*72
$GAGNS,162952.00,,,,,,04,,,,,*7D
$GBGNS,162952.00,,,,,,06,,,,,*7C
$GPLLQ,162952.00,010125,,M,,M,1,20,7.390,,M*15
$GPVTG,,T,,M,0.01,N,0.01,K,D*26
$GPHDT,,T*1B
$GPTHS,,V*0E
$GPROT,,V*08
$PSSN,HRP,162952.00,010125,,,,,,,00,0,,*6A
$PTNL,AVR,162952.00,,Yaw,,Tilt,,,,0,,00*3C
$GPGSA,A,3,18,28,29,31,,,,,,,,,1.4,0.7,1.2*39
$GPGSA,A,3,78,79,80,81,82,88,,,,,,,1.4,0.7,1.2*39
$GPGSA,A,3,13,15,21,27,,,,,,,,,1.4,0.7,1.2*33
$GPGSA,A,3,08,11,13,25,34,43,,,,,,,1.4,0.7,1.2*3E
$GPGST,162952.00,4.099,1.943,1.263,52.809,1.546,1.726,7.017*62
$GPGBS,162952.00,6.199,7.395,34.552,31,0.0001,-1.855,0.943*47
$GPGRS,162952.00,1,-0.2,1.2,0.1,-1.9,,,,,,,,*4D
$GPGRS,162952.00,1,-5.2,0.8,-3.1,1.0,11.3,-3.9,,,,,,*5D
$GPGRS,162952.00,1,-2.2,0.9,1.8,0.9,,,,,,,,*61
$GPGRS,162952.00,1,1.8,2.6,-2.0,0.7,1.4,2.4,,,,,,*63
$GPGSV,4,1,16,29,71,050,51,16,11,301,26,20,19,048,25,25,41,129,34*78
$GPGSV,4,2,16,05,25,084,31,18,48,185,47,26,41,301,36,28,43,233,45*76
$GPGSV,4,3,16,31,45,272,43,12,05,122,,04,04,325,33,11,05,038,*77
$GPGSV,4,4,16,36,35,170,37,34,31,208,35,49,34,195,36,61,03,257,*70
$GLGSV,2,1,08,81,87,336,49,88,31,040,42,78,24,148,39,82,39,223,40*6A
$GLGSV,2,2,08,80,41,321,44,79,79,169,50,71,05,335,36,72,08,020,*67
$GAGSV,2,1,08,27,88,103,47,13,27,194,37,30,34,121,27,34,36,049,32*65
$GAGSV,2,2,08,21,35,302,38,15,67,131,43,04,04,337,32,19,07,284,25*6E
$GBGSV,5,1,19,11,83,212,47,37,11,317,31,44,15,057,29,05,21,129,*6C
$GBGSV,5,2,19,38,30,055,33,13,36,080,40,25,53,181,42,08,35,070,41*64
$GBGSV,5,3,19,12,39,055,34,23,56,288,34,43,59,232,46,34,69,062,50*6F
$GBGSV,5,4,19,22,04,052,,10,04,088,,02,06,107,,24,06,151,*63
$GBGSV,5,5,19,19,01,005,,56,09,072,,60,10,109,*5F
$GPGGA,162952.00,,,,,0,00,,,M,,M,,*43
$PTNL,GGK,162952.00,010125,4742.4464799,N,01617.9723125,E,1,20,1.4,EHT670.6802,M*43
$GPGGQ,162952.00,010125,4742.4464799,N,01617.9723125,E,1,20,7.390,627.4691,M*31
$GPGFA,162952.00,18.472,57.541,1.943,1.263,52.809,7.017,,VVV*3C
$GPLLK,162952.00,010125,,M,,M,1,20,1.7,,M*04
$GNGMP,162952.00,,,,,DAAA,20,0.7,,,,*58
$GPGMP,162952.00,,,,,,04,,,,1.5,123*76
$GLGMP,162952.00,,,,,,06,,,,,*72
$GAGMP,162952.00,,,,,,04,,,,,*7D
$GBGMP,162952.00,,,,,,06,,,,,*7C
$PSSN,SNC,[0,318610000,2347]*49
$GPZDA,162957.00,01,01,2025,,*6D
$GPDTM,W84,,00.0000000,N,00.0000000,E,00.0000000,W84*5F
$GPRMC,162957.00,A,4742.4464850,N,01617.9723086,E,0.0,,010125,5.1,E,D*19
$GPGLL,4742.4464850,N,01617.9723086,E,162957.00,A,D*68
$GPGGA,162957.00,4742.4464850,N,01617.9723086,E,2,20,0.7,627.4458,M,43.2111,M,2.5,0123*4D
$GNGNS,162957.00,4742.4464850,N,01617.9723086,E,DAAA,20,0.7,627.4458,43.2111,,*56
$GPGNS,162957.00,,,,,,04,,,,2.5,123*70
$GLGNS,162957.00,,,,,,06,,,,,*77
$GAGNS,162957.00,,,,,,04,,,,,*78
$GBGNS,162957.00,,,,,,06,,,,,*79
$GPLLQ,162957.00,010125,,M,,M,1,20,7.882,,M*18
$GPVTG,,T,,M,0.00,N,0.01,K,D*27
$GPHDT,,T*1B
$GPTHS,,V*0E
$GPROT,,V*08
$PSSN,HRP,162957.00,010125,,,,,,,00,0,,*6F
$PTNL,AVR,162957.00,,Yaw,,Tilt,,,,0,,00*39
$GPGSA,A,3,18,28,29,31,,,,,,,,,1.4,0.7,1.2*39
$GPGSA,A,3,78,79,80,81,82,88,,,,,,,1.4,0.7,1.2*39
$GPGSA,A,3,13,15,21,27,,,,,,,,,1.4,0.7,1.2*33
$GPGSA,A,3,08,11,13,25,34,43,,,,,,,1.4,0.7,1.2*3E
$GPGST,162957.00,3.445,2.068,1.351,52.847,1.649,1.839,7.485*6E
$GPGBS,162957.00,6.276,7.408,34.581,31,0.0001,-1.970,0.953*4A
$GPGRS,162957.00,1,-0.7,1.4,0.5,-2.0,,,,,,,,*45
$GPGRS,162957.00,1,-4.5,1.8,-1.6,1.2,9.1,-1.0,,,,,,*68
$GPGRS,162957.00,1,-2.0,1.4,2.4,1.3,,,,,,,,*6E
$GPGRS,162957.00,1,1.9,2.6,-1.4,1.2,1.3,2.8,,,,,,*6F
$GPGSV,4,1,16,29,71,050,50,16,11,301,,20,19,048,23,25,41,129,34*7B
$GPGSV,4,2,16,05,25,084,32,18,48,185,44,26,41,301,33,28,43,233,46*70
$GPGSV,4,3,16,31,45,272,42,12,05,122,,04,04,325,33,11,05,038,*76
$GPGSV,4,4,16,36,35,170,38,34,31,208,35,49,34,195,37,61,03,257,*7E
$GLGSV,2,1,08,81,87,336,49,88,31,040,44,78,24,148,40,82,39,223,38*6D
$GLGSV,2,2,08,80,42,321,44,79,79,169,50,71,05,335,29,72,08,020,*6A
$GAGSV,2,1,08,27,88,103,48,13,27,194,36,30,34,121,28,34,36,049,32*64
$GAGSV,2,2,08,21,35,302,38,15,67,130,43,04,04,337,30,19,07,284,24*6C
$GBGSV,5,1,19,11,83,212,46,37,11,317,31,44,15,057,28,05,21,129,*6C
$GBGSV,5,2,19,38,30,055,33,13,36,080,40,25,53,181,43,08,35,070,40*64
$GBGSV,5,3,19,12,39,055,35,23,56,288,31,43,59,232,45,34,69,062,50*68
$GBGSV,5,4,19,22,04,052,,10,04,088,,02,06,107,,24,06,151,*63
$GBGSV,5,5,19,19,01,005,,56,09,072,,60,10,109,*5F
$GPGGA,162957.00,,,,,0,00,,,M,,M,,*46
$PTNL,GGK,162957.00,010125,4742.4464850,N,01617.9723086,E,1,20,1.4,EHT670.6569,M*44
$GPGGQ,162957.00,010125,4742.4464850,N,01617.9723086,E,1,20,7.882,627.4458,M*39
$GPGFA,162957.00,19.665,61.378,2.068,1.351,52.847,7.485,,VVV*33
$GPLLK,162957.00,010125,,M,,M,1,20,1.7,,M*01
$GNGMP,162957.00,,,,,DAAA,20,0.7,,,,*5D
$GPGMP,162957.00,,,,,,04,,,,2.5,123*70
$GLGMP,162957.00,,,,,,06,,,,,*77
$GAGMP,162957.00,,,,,,04,,,,,*78
$GBGMP,162957.00,,,,,,06,,,,,*79
$PSSN,SNC,[0,318615000,2347]*4C
$GPZDA,163002.00,01,01,2025,,*65
$GPDTM,W84,,00.0000000,N,00.0000000,E,00.0000000,W84*5F
$GPRMC,163002.00,A,4742.4464855,N,01617.9723048,E,0.0,,010125,5.1,E,D*16
$GPGLL,4742.4464855,N,01617.9723048,E,163002.00,A,D*67
$GPGGA,163002.00,4742.4464855,N,01617.9723048,E,2,21,0.7,627.4292,M,43.2111,M,3.5,0123*42
$GNGNS,163002.00,4742.4464855,N,01617.9723048,E,DAAA,21,0.7,627.4292,43.2111,,*58
$GPGNS,163002.00,,,,,,04,,,,3.5,123*79
$GLGNS,163002.00,,,,,,06,,,,,*7F
$GAGNS,163002.00,,,,,,04,,,,,*70
$GBGNS,163002.00,,,,,,07,,,,,*70
$GPLLQ,163002.00,010125,,M,,M,1,21,5.189,,M*11
$GPVTG,,T,,M,0.00,N,0.00,K,D*26
$GPHDT,,T*1B
$GPTHS,,V*0E
$GPROT,,V*08
$PSSN,HRP,163002.00,010125,,,,,,,00,0,,*67
$PTNL,AVR,163002.00,,Yaw,,Tilt,,,,0,,00*31
$GPGSA,A,3,18,28,29,31,,,,,,,,,1.4,0.7,1.2*39
$GPGSA,A,3,78,79,80,81,82,88,,,,,,,1.4,0.7,1.2*39
$GPGSA,A,3,13,15,21,27,,,,,,,,,1.4,0.7,1.2*33
$GPGSA,A,3,08,11,12,13,25,34,43,,,,,,1.4,0.7,1.2*3D
$GPGST,163002.00,2.407,1.361,0.924,53.254,1.100,1.222,4.921*62
$GPGBS,163002.00,6.317,6.965,32.426,31,0.0001,-1.203,0.963*45
$GPGRS,163002.00,1,0.4,1.0,0.2,-1.2,,,,,,,,*61
$GPGRS,163002.00,1,-3.7,2.1,-1.8,1.9,-1.7,1.6,,,,,,*62
$GPGRS,163002.00,1,-1.8,1.5,4.6,1.3,,,,,,,,*68
$GPGRS,163002.00,1,0.6,1.8,0.0,-1.8,1.1,0.5,3.4,,,,,*4F
$GPGSV,4,1,16,29,71,051,50,16,11,301,,20,19,048,,25,41,129,38*77
$GPGSV,4,2,16,05,25,084,27,18,48,185,42,26,41,301,38,28,43,233,47*78
$GPGSV,4,3,16,31,45,272,44,12,05,122,,04,04,325,34,11,05,038,*77
$GPGSV,4,4,16,36,35,170,37,34,31,208,34,49,34,195,36,61,03,257,*71
$GLGSV,2,1,08,81,87,337,49,88,31,040,45,78,24,148,41,82,39,223,36*62
$GLGSV,2,2,08,80,42,321,45,79,78,169,50,71,05,335,30,72,08,020,*62
$GAGSV,2,1,08,27,88,104,48,13,27,194,36,30,34,121,31,34,36,049,32*6B
$GAGSV,2,2,08,21,35,302,39,15,67,130,43,04,04,337,30,19,07,284,21*68
$GBGSV,5,1,19,11,83,212,46,37,11,317,31,44,15,057,29,05,21,129,*6D
$GBGSV,5,2,19,38,30,055,32,13,36,080,40,25,53,181,44,08,35,070,39*6C
$GBGSV,5,3,19,12,39,055,35,23,56,288,28,43,59,232,45,34,69,062,49*68
$GBGSV,5,4,19,22,04,052,,10,04,088,,02,06,107,,24,06,151,*63
$GBGSV,5,5,19,19,01,005,,56,09,072,,60,10,109,*5F
$GPGGA,163002.00,,,,,0,00,,,M,,M,,*4E
$PTNL,GGK,163002.00,010125,4742.4464855,N,01617.9723048,E,1,21,1.4,EHT670.6402,M*46
$GPGGQ,163002.00,010125,4742.4464855,N,01617.9723048,E,1,21,5.189,627.4292,M*37
$GPGFA,163002.00,12.939,40.352,1.361,0.924,53.254,4.921,,VVV*34
$GPLLK,163002.00,010125,,M,,M,1,21,1.6,,M*09
$GNGMP,163002.00,,,,,DAAA,21,0.7,,,,*54
$GPGMP,163002.00,,,,,,04,,,,3.5,123*79
$GLGMP,163002.00,,,,,,06,,,,,*7F
$GAGMP,163002.00,,,,,,04,,,,,*70
$GBGMP,163002.00,,,,,,07,,,,,*70
$PSSN,SNC,[0,318620000,2347]*4A
$GPZDA,163007.00,01,01,2025,,*60
$GPDTM,W84,,00.0000000,N,00.0000000,E,00.0000000,W84*5F
$GPRMC,163007.00,A,4742.4465173,N,01617.9722832,E,0.0,,010125,5.1,E,D*1B
$GPGLL,4742.4465173,N,01617.9722832,E,163007.00,A,D*6A
$GPGGA,163007.00,4742.4465173,N,01617.9722832,E,2,21,0.7,627.3687,M,43.2111,M,2.5,0123*49
$GNGNS,163007.00,4742.4465173,N,01617.9722832,E,DAAA,21,0.7,627.3687,43.2111,,*52
$GPGNS,163007.00,,,,,,04,,,,2.5,123*7D
$GLGNS,163007.00,,,,,,06,,,,,*7A
$GAGNS,163007.00,,,,,,04,,,,,*75
$GBGNS,163007.00,,,,,,07,,,,,*75
$GPLLQ,163007.00,010125,,M,,M,1,21,7.154,,M*16
$GPVTG,,T,,M,0.01,N,0.01,K,D*26
$GPHDT,,T*1B
$GPTHS,,V*0E
$GPROT,,V*08
$PSSN,HRP,163007.00,010125,,,,,,,00,0,,*62
$PTNL,AVR,163007.00,,Yaw,,Tilt,,,,0,,00*34
$GPGSA,A,3,18,28,29,31,,,,,,,,,1.4,0.7,1.2*39
$GPGSA,A,3,78,79,80,81,82,88,,,,,,,1.4,0.7,1.2*39
$GPGSA,A,3,13,15,21,27,,,,,,,,,1.4,0.7,1.2*33
$GPGSA,A,3,08,11,12,13,25,34,43,,,,,,1.4,0.7,1.2*3D
$GPGST,163007.00,2.583,1.932,1.207,66.084,1.353,1.832,6.782*6E
$GPGBS,163007.00,6.181,6.964,32.434,18,0.0001,1.688,0.835*6C
$GPGRS,163007.00,1,1.7,-0.1,0.2,-0.4,,,,,,,,*4C
$GPGRS,163007.00,1,-3.8,1.7,-1.0,2.9,-1.8,1.4,,,,,,*6B
$GPGRS,163007.00,1,-2.3,1.3,5.4,1.6,,,,,,,,*65
$GPGRS,163007.00,1,-0.4,1.8,1.8,-1.5,1.2,0.0,3.1,,,,,*62
$GPGSV,4,1,16,29,71,051,50,16,11,301,,20,19,048,,25,41,129,38*77
$GPGSV,4,2,16,05,25,084,,18,48,185,40,26,41,301,38,28,43,233,47*7F
$GPGSV,4,3,16,31,45,272,45,12,05,122,,04,04,325,33,11,05,038,*71
$GPGSV,4,4,16,36,35,170,37,34,31,208,34,49,34,195,36,61,03,257,*71
$GLGSV,2,1,08,81,87,338,50,88,31,040,45,78,24,148,41,82,39,223,36*65
$GLGSV,2,2,08,80,42,321,47,79,78,169,50,71,05,335,37,72,08,020,*67
$GAGSV,2,1,08,27,88,105,49,13,27,194,35,30,34,121,34,34,36,049,32*6D
$GAGSV,2,2,08,21,36,302,39,15,67,130,44,04,04,337,29,19,07,284,*67
$GBGSV,5,1,19,11,83,212,45,37,11,317,32,44,15,057,28,05,21,129,*6C
$GBGSV,5,2,19,38,30,055,32,13,36,080,40,25,53,181,44,08,35,070,39*6C
$GBGSV,5,3,19,12,39,055,36,23,56,288,29,43,59,233,45,34,69,062,49*6B
$GBGSV,5,4,19,22,04,052,,10,04,088,,02,06,107,,24,06,151,*63
$GBGSV,5,5,19,19,01,005,,56,09,072,,60,10,109,*5F
$GPGGA,163007.00,,,,,0,00,,,M,,M,,*4B
$PTNL,GGK,163007.00,010125,4742.4465173,N,01617.9722832,E,1,21,1.4,EHT670.5797,M*47
$GPGGQ,163007.00,010125,4742.4465173,N,01617.9722832,E,1,21,7.154,627.3687,M*3F
$GPGFA,163007.00,18.365,55.610,1.932,1.207,66.084,6.782,,VVV*34
$GPLLK,163007.00,010125,,M,,M,1,21,1.6,,M*0C
$GNGMP,163007.00,,,,,DAAA,21,0.7,,,,*51
$GPGMP,163007.00,,,,,,04,,,,2.5,123*7D
$GLGMP,163007.00,,,,,,06,,,,,*7A
$GAGMP,163007.00,,,,,,04,,,,,*75
$GBGMP,163007.00,,,,,,07,,,,,*75
$PSSN,SNC,[0,318625000,2347]*4F
$GPZDA,163012.00,01,01,2025,,*64
$GPDTM,W84,,00.0000000,N,00.0000000,E,00.0000000,W84*5F
$GPRMC,163012.00,A,4742.4465287,N,01617.9722647,E,0.0,,010125,5.1,E,D*1B
$GPGLL,4742.4465287,N,01617.9722647,E,163012.00,A,D*6A
$GPGGA,163012.00,4742.4465287,N,01617.9722647,E,2,22,0.7,627.3755,M,43.2111,M,2.6,0123*47
$GNGNS,163012.00,4742.4465287,N,01617.9722647,E,DAAA,22,0.7,627.3755,43.2111,,*5F
$GPGNS,163012.00,,,,,,05,,,,2.6,123*7B
$GLGNS,163012.00,,,,,,06,,,,,*7E
$GAGNS,163012.00,,,,,,04,,,,,*71
$GBGNS,163012.00,,,,,,07,,,,,*71
$GPLLQ,163012.00,010125,,M,,M,1,22,6.126,,M*15
$GPVTG,,T,,M,0.01,N,0.02,K,D*25
$GPHDT,,T*1B
$GPTHS,,V*0E
$GPROT,,V*08
$PSSN,HRP,163012.00,010125,,,,,,,00,0,,*66
$PTNL,AVR,163012.00,,Yaw,,Tilt,,,,0,,00*30
$GPGSA,A,3,18,25,28,29,31,,,,,,,,1.4,0.7,1.2*3E
$GPGSA,A,3,78,79,80,81,82,88,,,,,,,1.4,0.7,1.2*39
$GPGSA,A,3,15,21,27,30,,,,,,,,,1.4,0.7,1.2*32
$GPGSA,A,3,08,11,12,13,25,34,43,,,,,,1.4,0.7,1.2*3D
$GPGST,163012.00,2.428,1.880,0.939,6.589,1.871,0.958,5.754*54
$GPGBS,163012.00,7.583,4.900,17.226,25,0.0001,2.436,0.925*67
$GPGRS,163012.00,1,1.4,2.4,-1.5,-0.4,-1.1,,,,,,,*49
$GPGRS,163012.00,1,-6.0,1.2,-0.8,3.5,3.2,-0.4,,,,,,*6A
$GPGRS,163012.00,1,0.6,2.5,1.0,-0.2,,,,,,,,*66
$GPGRS,163012.00,1,-1.0,1.1,0.8,-1.5,0.0,-0.8,1.5,,,,,*4B
$GPGSV,4,1,16,29,71,051,50,16,11,301,26,20,19,048,,25,41,129,38*73
$GPGSV,4,2,16,05,25,084,28,18,48,185,40,26,41,301,28,28,43,233,46*75
$GPGSV,4,3,16,31,45,272,45,12,05,122,,04,04,325,31,11,05,038,*73
$GPGSV,4,4,16,36,35,170,37,34,31,208,35,49,34,195,36,61,03,257,*70
$GLGSV,2,1,08,81,87,338,50,88,31,040,46,78,24,148,41,82,39,223,39*69
$GLGSV,2,2,08,80,42,321,48,79,78,169,49,71,05,335,36,72,08,020,*61
$GAGSV,2,1,08,27,88,105,50,13,27,194,34,30,34,121,35,34,36,049,33*64
$GAGSV,2,2,08,21,36,302,38,15,67,130,44,04,04,337,28,19,07,284,*67
$GBGSV,5,1,19,11,83,212,45,37,11,317,33,44,15,057,29,05,21,129,*6C
$GBGSV,5,2,19,38,30,055,32,13,36,080,40,25,53,181,45,08,35,070,38*6C
$GBGSV,5,3,19,12,39,055,36,23,56,288,33,43,59,233,46,34,69,062,48*62
$GBGSV,5,4,19,22,04,052,,10,04,088,,02,06,107,,24,06,151,*63
$GBGSV,5,5,19,19,01,005,,56,09,072,,60,10,109,*5F
$GPGGA,163012.00,,,,,0,00,,,M,,M,,*4F
$PTNL,GGK,163012.00,010125,4742.4465287,N,01617.9722647,E,1,22,1.4,EHT670.5866,M*45
$GPGGQ,163012.00,010125,4742.4465287,N,01617.9722647,E,1,22,6.126,627.3755,M*36
$GPGFA,163012.00,17.873,47.183,1.880,0.939,6.589,5.754,,VVV*04
$GPLLK,163012.00,010125,,M,,M,1,22,1.7,,M*0A
$GNGMP,163012.00,,,,,DAAA,22,0.7,,,,*56
$GPGMP,163012.00,,,,,,05,,,,2.6,123*7B
$GLGMP,163012.00,,,,,,06,,,,,*7E
$GAGMP,163012.00,,,,,,04,,,,,*71
$GBGMP,163012.00,,,,,,07,,,,,*71
$PSSN,SNC,[0,318630000,2347]*4B
$GPZDA,163017.00,01,01,2025,,*61
$GPDTM,W84,,00.0000000,N,00.0000000,E,00.0000000,W84*5F
$GPRMC,163017.00,A,4742.4465404,N,01617.9722500,E,0.0,,010125,5.1,E,D*13
$GPGLL,4742.4465404,N,01617.9722500,E,163017.00,A,D*62
$GPGGA,163017.00,4742.4465404,N,01617.9722500,E,2,23,0.7,627.3443,M,43.2111,M,3.6,0123*4B
$GNGNS,163017.00,4742.4465404,N,01617.9722500,E,DAAA,23,0.7,627.3443,43.2111,,*52
$GPGNS,163017.00,,,,,,05,,,,3.6,123*7F
$GLGNS,163017.00,,,,,,06,,,,,*7B
$GAGNS,163017.00,,,,,,04,,,,,*74
$GBGNS,163017.00,,,,,,08,,,,,*7B
$GPLLQ,163017.00,010125,,M,,M,1,23,5.763,,M*15
$GPVTG,,T,,M,0.01,N,0.01,K,D*26
$GPHDT,,T*1B
$GPTHS,,V*0E
$GPROT,,V*08
$PSSN,HRP,163017.00,010125,,,,,,,00,0,,*63
$PTNL,AVR,163017.00,,Yaw,,Tilt,,,,0,,00*35
$GPGSA,A,3,18,25,28,29,31,,,,,,,,1.4,0.7,1.2*3E
$GPGSA,A,3,78,79,80,81,82,88,,,,,,,1.4,0.7,1.2*39
$GPGSA,A,3,15,21,27,30,,,,,,,,,1.4,0.7,1.2*32
$GPGSA,A,3,08,11,12,13,23,25,34,43,,,,,1.4,0.7,1.2*3C
$GPGST,163017.00,3.248,1.766,0.995,11.016,1.743,1.033,5.394*67
$GPGBS,163017.00,7.618,4.902,17.172,18,0.0001,2.297,0.874*65
$GPGRS,163017.00,1,2.3,-1.6,-1.8,0.2,-0.5,,,,,,,*47
$GPGRS,163017.00,1,-4.3,1.1,-0.1,3.9,9.2,0.1,,,,,,*4A
$GPGRS,163017.00,1,1.5,-4.2,1.7,0.1,,,,,,,,*64
$GPGRS,163017.00,1,-0.4,1.7,1.3,-0.6,-2.6,0.1,-0.0,1.5,,,,*4B
$GPGSV,4,1,16,29,71,051,50,16,11,301,31,20,19,048,,25,41,129,36*7B
$GPGSV,4,2,16,05,25,084,37,18,48,185,42,26,41,301,27,28,43,233,46*76
$GPGSV,4,3,16,31,45,272,46,12,05,122,,04,04,325,30,11,05,038,*71
$GPGSV,4,4,16,36,35,170,37,34,31,208,35,49,34,195,37,61,03,257,*71
$GLGSV,2,1,08,81,87,339,50,88,31,040,46,78,24,148,42,82,39,223,40*65
$GLGSV,2,2,08,80,42,321,49,79,78,169,47,71,05,335,33,72,08,020,*6B
$GAGSV,2,1,08,27,88,106,50,13,27,194,34,30,34,121,37,34,36,049,33*65
$GAGSV,2,2,08,21,36,302,37,15,67,130,43,04,04,337,27,19,07,284,*60
$GBGSV,5,1,19,11,83,212,45,37,11,317,34,44,15,057,29,05,21,129,*6B
$GBGSV,5,2,19,38,30,055,32,13,36,080,41,25,53,180,45,08,35,070,38*6C
$GBGSV,5,3,19,12,39,055,37,23,56,288,36,43,59,233,47,34,69,062,48*67
$GBGSV,5,4,19,22,04,052,,10,04,088,,02,06,107,,24,06,151,*63
$GBGSV,5,5,19,19,01,005,,56,09,072,,60,10,109,*5F
$GPGGA,163017.00,,,,,0,00,,,M,,M,,*4A
$PTNL,GGK,163017.00,010125,4742.4465404,N,01617.9722500,E,1,23,1.4,EHT670.5554,M*40
$GPGGQ,163017.00,010125,4742.4465404,N,01617.9722500,E,1,23,5.763,627.3443,M*3F
$GPGFA,163017.00,16.786,44.234,1.766,0.995,11.016,5.394,,VVV*35
$GPLLK,163017.00,010125,,M,,M,1,23,1.7,,M*0E
$GNGMP,163017.00,,,,,DAAA,23,0.7,,,,*52
$GPGMP,163017.00,,,,,,05,,,,3.6,123*7F
$GLGMP,163017.00,,,,,,06,,,,,*7B
$GAGMP,163017.00,,,,,,04,,,,,*74
$GBGMP,163017.00,,,,,,08,,,,,*7B
$PSSN,SNC,[0,318635000,2347]*4E
$GPZDA,163022.00,01,01,2025,,*67
$GPDTM,W84,,00.0000000,N,00.0000000,E,00.0000000,W84*5F
$GPRMC,163022.00,A,4742.4465427,N,01617.9722454,E,0.0,,010125,5.1,E,D*14
$GPGLL,4742.4465427,N,01617.9722454,E,163022.00,A,D*65
$GPGGA,163022.00,4742.4465427,N,01617.9722454,E,2,22,0.7,627.3026,M,43.2111,M,2.5,0123*48
$GNGNS,163022.00,4742.4465427,N,01617.9722454,E,DAAA,22,0.7,627.3026,43.2111,,*53
$GPGNS,163022.00,,,,,,04,,,,2.5,123*7A
$GLGNS,163022.00,,,,,,06,,,,,*7D
$GAGNS,163022.00,,,,,,04,,,,,*72
$GBGNS,163022.00,,,,,,08,,,,,*7D
$GPLLQ,163022.00,010125,,M,,M,1,22,6.506,,M*10
$GPVTG,,T,,M,0.00,N,0.01,K,D*27
$GPHDT,,T*1B
$GPTHS,,V*0E
$GPROT,,V*08
$PSSN,HRP,163022.00,010125,,,,,,,00,0,,*65
$PTNL,AVR,163022.00,,Yaw,,Tilt,,,,0,,00*33
$GPGSA,A,3,18,28,29,31,,,,,,,,,1.4,0.7,1.2*39
$GPGSA,A,3,78,79,80,81,82,88,,,,,,,1.4,0.7,1.2*39
$GPGSA,A,3,15,21,27,30,,,,,,,,,1.4,0.7,1.2*32
$GPGSA,A,3,08,11,12,13,23,25,34,43,,,,,1.4,0.7,1.2*3C
$GPGST,163022.00,3.149,1.707,1.240,51.423,1.439,1.542,6.155*61
$GPGBS,163022.00,6.421,6.021,29.154,28,0.0001,-2.111,0.903*4B
$GPGRS,163022.00,1,1.1,-2.1,0.5,0.2,,,,,,,,*63
$GPGRS,163022.00,1,-3.8,0.9,-0.9,4.1,6.0,1.0,,,,,,*43
$GPGRS,163022.00,1,1.5,-7.8,1.7,0.1,,,,,,,,*6B
$GPGRS,163022.00,1,-0.4,1.1,2.0,-0.8,-0.2,-0.4,-0.1,0.8,,,,*66
$GPGSV,4,1,16,29,70,051,50,16,11,301,33,20,19,048,26,25,41,129,33*79
$GPGSV,4,2,16,05,25,084,38,18,48,185,43,26,41,301,28,28,43,232,44*74
$GPGSV,4,3,16,31,45,272,46,12,05,122,,04,04,325,31,11,05,038,*70
$GPGSV,4,4,16,36,35,170,38,34,31,208,35,49,34,195,36,61,03,257,*7F
$GLGSV,2,1,08,81,87,340,51,88,31,040,44,78,24,148,42,82,39,223,40*68
$GLGSV,2,2,08,80,42,321,49,79,78,169,47,71,05,335,28,72,08,020,*61
$GAGSV,2,1,08,27,88,106,50,13,27,194,33,30,34,121,37,34,36,049,35*64
$GAGSV,2,2,08,21,36,302,36,15,67,130,43,04,04,337,29,19,07,284,21*6C
$GBGSV,5,1,19,11,83,212,45,37,11,317,35,44,15,057,30,05,21,129,*62
$GBGSV,5,2,19,38,30,055,33,13,36,080,41,25,53,180,45,08,35,070,37*62
$GBGSV,5,3,19,12,39,055,38,23,56,288,38,43,59,233,47,34,69,062,48*66
$GBGSV,5,4,19,22,04,052,,10,04,088,,02,06,107,,24,06,151,*63
$GBGSV,5,5,19,19,01,005,,56,09,072,,60,10,109,*5F
$GPGGA,163022.00,,,,,0,00,,,M,,M,,*4C
$PTNL,GGK,163022.00,010125,4742.4465427,N,01617.9722454,E,1,22,1.4,EHT670.5137,M*47
$GPGGQ,163022.00,010125,4742.4465427,N,01617.9722454,E,1,22,6.506,627.3026,M*3C
$GPGFA,163022.00,16.226,50.470,1.707,1.240,51.423,6.155,,VVV*30
$GPLLK,163022.00,010125,,M,,M,1,22,1.7,,M*09
$GNGMP,163022.00,,,,,DAAA,22,0.7,,,,*55
$GPGMP,163022.00,,,,,,04,,,,2.5,123*7A
$GLGMP,163022.00,,,,,,06,,,,,*7D
$GAGMP,163022.00,,,,,,04,,,,,*72
$GBGMP,163022.00,,,,,,08,,,,,*7D
$PSSN,SNC,[0,318640000,2347]*4C
$GPZDA,163027.00,01,01,2025,,*62
$GPDTM,W84,,00.0000000,N,00.0000000,E,00.0000000,W84*5F
$GPRMC,163027.00,A,4742.4465365,N,01617.9722322,E,0.0,,010125,5.1,E,D*16
$GPGLL,4742.4465365,N,01617.9722322,E,163027.00,A,D*67
$GPGGA,163027.00,4742.4465365,N,01617.9722322,E,2,23,0.7,627.2846,M,43.2111,M,1.5,0123*47
$GNGNS,163027.00,4742.4465365,N,01617.9722322,E,DAAA,23,0.7,627.2846,43.2111,,*5F
$GPGNS,163027.00,,,,,,04,,,,1.5,123*7C
$GLGNS,163027.00,,,,,,06,,,,,*78
$GAGNS,163027.00,,,,,,04,,,,,*77
$GBGNS,163027.00,,,,,,09,,,,,*79
$GPLLQ,163027.00,010125,,M,,M,1,23,5.330,,M*14
$GPVTG,,T,,M,0.00,N,0.01,K,D*27
$GPHDT,,T*1B
$GPTHS,,V*0E
$GPROT,,V*08
$PSSN,HRP,163027.00,010125,,,,,,,00,0,,*60
$PTNL,AVR,163027.00,,Yaw,,Tilt,,,,0,,00*36
$GPGSA,A,3,18,28,29,31,,,,,,,,,1.2,0.7,1.0*3D
$GPGSA,A,3,78,79,80,81,82,88,,,,,,,1.2,0.7,1.0*3D
$GPGSA,A,3,15,27,30,34,,,,,,,,,1.2,0.7,1.0*32
$GPGSA,A,3,08,11,12,13,23,25,34,37,43,,,,1.2,0.7,1.0*3C
$GPGST,163027.00,2.499,1.401,1.098,55.192,1.205,1.310,5.024*68
$GPGBS,163027.00,6.238,4.951,22.944,28,0.0001,-2.039,0.915*42
$GPGRS,163027.00,1,0.2,-2.0,0.4,0.5,,,,,,,,*63
$GPGRS,163027.00,1,-3.4,1.6,-0.9,5.1,4.4,1.3,,,,,,*40
$GPGRS,163027.00,1,1.3,1.7,0.8,4.3,,,,,,,,*44
$GPGRS,163027.00,1,-1.0,0.6,2.5,-0.8,0.2,-0.3,-0.0,0.3,0.6,,,*6D
$GPGSV,4,1,16,29,70,051,50,16,11,301,34,20,19,048,27,25,41,129,29*74
$GPGSV,4,2,16,05,25,084,39,18,48,185,43,26,41,301,30,28,43,232,43*7B
$GPGSV,4,3,16,31,45,272,45,12,05,122,,04,04,325,27,11,05,038,*74
$GPGSV,4,4,16,36,35,170,37,34,31,208,34,49,34,195,36,61,03,257,*71
$GLGSV,2,1,08,81,87,340,52,88,31,040,41,78,24,148,42,82,39,223,41*6F
$GLGSV,2,2,08,80,42,321,49,79,78,169,46,71,05,335,28,72,08,020,*60
$GAGSV,2,1,08,27,88,107,50,13,27,194,32,34,36,049,36,30,34,121,37*67
$GAGSV,2,2,08,21,36,302,34,15,67,130,43,19,07,284,22,04,04,337,28*6C
$GBGSV,5,1,19,11,83,212,45,37,11,317,36,44,15,057,29,05,21,129,*69
$GBGSV,5,2,19,38,30,055,32,13,36,080,41,25,53,180,46,08,35,070,37*60
$GBGSV,5,3,19,12,39,055,39,23,56,287,38,43,59,233,47,34,69,062,48*68
$GBGSV,5,4,19,22,04,052,,10,04,088,,02,06,107,,24,06,151,*63
$GBGSV,5,5,19,19,01,005,,56,09,072,,60,10,109,*5F
$GPGGA,163027.00,,,,,0,00,,,M,,M,,*49
$PTNL,GGK,163027.00,010125,4742.4465365,N,01617.9722322,E,1,23,1.2,EHT670.4957,M*4D
$GPGGQ,163027.00,010125,4742.4465365,N,01617.9722322,E,1,23,5.330,627.2846,M*30
$GPGFA,163027.00,13.318,41.199,1.401,1.098,55.192,5.024,,VVV*33
$GPLLK,163027.00,010125,,M,,M,1,23,1.4,,M*0E
$GNGMP,163027.00,,,,,DAAA,23,0.7,,,,*51
$GPGMP,163027.00,,,,,,04,,,,1.5,123*7C
$GLGMP,163027.00,,,,,,06,,,,,*78
$GAGMP,163027.00,,,,,,04,,,,,*77
$GBGMP,163027.00,,,,,,09,,,,,*79
$PSSN,SNC,[0,318645000,2347]*49
$GPZDA,163032.00,01,01,2025,,*66
$GPDTM,W84,,00.0000000,N,00.0000000,E,00.0000000,W84*5F
$GPRMC,163032.00,A,4742.4465302,N,01617.9722228,E,0.0,,010125,5.1,E,D*18
$GPGLL,4742.4465302,N,01617.9722228,E,163032.00,A,D*69
$GPGGA,163032.00,4742.4465302,N,01617.9722228,E,2,23,0.7,627.2689,M,43.2111,M,2.5,0123*47
$GNGNS,163032.00,4742.4465302,N,01617.9722228,E,DAAA,23,0.7,627.2689,43.2111,,*5C
$GPGNS,163032.00,,,,,,04,,,,2.5,123*7B
$GLGNS,163032.00,,,,,,06,,,,,*7C
$GAGNS,163032.00,,,,,,04,,,,,*73
$GBGNS,163032.00,,,,,,09,,,,,*7D
$GPLLQ,163032.00,010125,,M,,M,1,23,4.743,,M*11
$GPVTG,,T,,M,0.00,N,0.01,K,D*27
$GPHDT,,T*1B
$GPTHS,,V*0E
$GPROT,,V*08
$PSSN,HRP,163032.00,010125,,,,,,,00,0,,*64
$PTNL,AVR,163032.00,,Yaw,,Tilt,,,,0,,00*32
$GPGSA,A,3,18,28,29,31,,,,,,,,,1.2,0.7,1.0*3D
$GPGSA,A,3,78,79,80,81,82,88,,,,,,,1.2,0.7,1.0*3D
$GPGSA,A,3,15,27,30,34,,,,,,,,,1.2,0.7,1.0*32
$GPGSA,A,3,08,11,12,13,23,25,34,37,43,,,,1.2,0.7,1.0*3C
$GPGST,163032.00,3.068,1.243,0.979,55.038,1.073,1.163,4.471*61
$GPGBS,163032.00,6.310,4.977,22.928,28,0.0001,-1.480,0.927*47
$GPGRS,163032.00,1,0.3,-1.5,0.2,0.5,,,,,,,,*66
$GPGRS,163032.00,1,-4.4,1.9,-1.2,4.7,8.6,0.9,,,,,,*44
$GPGRS,163032.00,1,1.3,1.5,1.5,2.7,,,,,,,,*4C
$GPGRS,163032.00,1,-1.5,0.4,3.2,-0.6,0.4,-0.3,-0.1,-0.3,0.5,,,*4F
$GPGSV,4,1,16,29,70,051,50,16,11,301,34,20,19,048,29,25,41,129,27*74
$GPGSV,4,2,16,05,25,084,38,18,48,185,42,26,41,301,32,28,42,232,42*79
$GPGSV,4,3,16,31,45,272,46,12,04,122,,04,04,325,29,11,05,038,*78
$GPGSV,4,4,16,36,35,170,38,34,31,208,34,49,34,195,36,61,03,257,*7E
$GLGSV,2,1,08,81,87,341,51,88,31,040,39,78,24,148,41,82,39,223,40*60
$GLGSV,2,2,08,80,42,321,49,79,78,169,45,71,05,335,28,72,09,020,*62
$GAGSV,2,1,08,27,88,107,50,13,28,194,32,34,36,049,36,30,33,121,37*6F
$GAGSV,2,2,08,21,36,302,33,15,67,130,43,19,07,284,22,04,04,337,28*6B
$GBGSV,5,1,19,11,83,212,45,37,11,317,36,44,14,057,29,05,21,129,*68
$GBGSV,5,2,19,38,30,055,33,13,36,080,41,25,53,180,46,08,35,070,37*61
$GBGSV,5,3,19,12,39,055,39,23,56,287,39,43,59,233,48,34,69,061,48*65
$GBGSV,5,4,19,22,04,052,,10,04,088,,02,06,107,,24,06,151,*63
$GBGSV,5,5,19,19,01,005,,56,09,072,,60,10,109,*5F
$GPGGA,163032.00,,,,,0,00,,,M,,M,,*4D
$PTNL,GGK,163032.00,010125,4742.4465302,N,01617.9722228,E,1,23,1.2,EHT670.4800,M*40
$GPGGQ,163032.00,010125,4742.4465302,N,01617.9722228,E,1,23,4.743,627.2689,M*32
$GPGFA,163032.00,11.821,36.663,1.243,0.979,55.038,4.471,,VVV*35
$GPLLK,163032.00,010125,,M,,M,1,23,1.4,,M*0A
$GNGMP,163032.00,,,,,DAAA,23,0.7,,,,*55
$GPGMP,163032.00,,,,,,04,,,,2.5,123*7B
$GLGMP,163032.00,,,,,,06,,,,,*7C
$GAGMP,163032.00,,,,,,04,,,,,*73
$GBGMP,163032.00,,,,,,09,,,,,*7D
$PSSN,SNC,[0,318650000,2347]*4D
$GPZDA,163037.00,01,01,2025,,*63
$GPDTM,W84,,00.0000000,N,00.0000000,E,00.0000000,W84*5F
$GPRMC,163037.00,A,4742.4465164,N,01617.9722228,E,0.0,,010125,5.1,E,D*1F
$GPGLL,4742.4465164,N,01617.9722228,E,163037.00,A,D*6E
$GPGGA,163037.00,4742.4465164,N,01617.9722228,E,2,23,0.7,627.2645,M,43.2111,M,3.5,0123*41
$GNGNS,163037.00,4742.4465164,N,01617.9722228,E,DAAA,23,0.7,627.2645,43.2111,,*5B
$GPGNS,163037.00,,,,,,04,,,,3.5,123*7F
$GLGNS,163037.00,,,,,,06,,,,,*79
$GAGNS,163037.00,,,,,,04,,,,,*76
$GBGNS,163037.00,,,,,,09,,,,,*78
$GPLLQ,163037.00,010125,,M,,M,1,23,6.485,,M*1F
$GPVTG,,T,,M,0.01,N,0.01,K,D*26
$GPHDT,,T*1B
$GPTHS,,V*0E
$GPROT,,V*08
$PSSN,HRP,163037.00,010125,,,,,,,00,0,,*61
$PTNL,AVR,163037.00,,Yaw,,Tilt,,,,0,,00*37
$GPGSA,A,3,18,28,29,31,,,,,,,,,1.2,0.7,1.0*3D
$GPGSA,A,3,78,79,80,81,82,88,,,,,,,1.2,0.7,1.0*3D
$GPGSA,A,3,15,27,30,34,,,,,,,,,1.2,0.7,1.0*32
$GPGSA,A,3,08,11,12,13,23,25,34,37,43,,,,1.2,0.7,1.0*3C
$GPGST,163037.00,3.390,1.701,1.356,55.214,1.478,1.597,6.110*69
$GPGBS,163037.00,6.394,5.049,22.913,18,0.0001,-2.186,0.870*43
$GPGRS,163037.00,1,-2.2,-0.7,0.5,1.6,,,,,,,,*4B
$GPGRS,163037.00,1,-4.6,2.4,-1.4,3.9,9.2,0.7,,,,,,*49
$GPGRS,163037.00,1,2.1,1.8,2.3,0.7,,,,,,,,*42
$GPGRS,163037.00,1,-2.0,2.0,4.6,-0.5,1.3,-0.7,0.4,-0.2,1.4,,,*61
$GPGSV,4,1,16,29,70,051,50,16,11,301,34,20,19,048,32,25,41,129,27*7E
$GPGSV,4,2,16,05,25,084,37,18,48,185,40,26,41,301,34,28,42,232,42*72
$GPGSV,4,3,16,31,45,271,47,12,04,122,,04,04,325,,11,05,038,*71
$GPGSV,4,4,16,36,35,170,38,34,31,208,35,49,34,195,37,61,03,257,*7E
$GLGSV,2,1,08,81,87,342,51,88,31,040,39,78,24,148,42,82,39,223,38*6F
$GLGSV,2,2,08,80,42,321,49,79,78,169,44,71,05,335,31,72,09,020,*6B
$GAGSV,2,1,08,27,88,108,51,13,28,194,33,34,35,048,37,30,33,121,38*6C
$GAGSV,2,2,08,21,36,302,32,15,67,130,44,19,07,284,21,04,04,337,30*67
$GBGSV,5,1,19,11,83,212,46,37,11,317,35,44,14,057,29,05,21,129,*68
$GBGSV,5,2,19,38,30,055,33,13,36,080,41,25,53,180,45,08,35,070,36*63
$GBGSV,5,3,19,12,39,055,39,23,56,287,41,43,59,233,49,34,69,061,47*64
$GBGSV,5,4,19,22,04,052,,10,04,088,,02,06,107,,24,06,151,*63
$GBGSV,5,5,19,19,01,005,,56,09,072,,60,10,109,*5F
$GPGGA,163037.00,,,,,0,00,,,M,,M,,*48
$PTNL,GGK,163037.00,010125,4742.4465164,N,01617.9722228,E,1,23,1.2,EHT670.4756,M*4B
$GPGGQ,163037.00,010125,4742.4465164,N,01617.9722228,E,1,23,6.485,627.2645,M*3E
$GPGFA,163037.00,16.177,50.098,1.701,1.356,55.214,6.110,,VVV*36
$GPLLK,163037.00,010125,,M,,M,1,23,1.4,,M*0F
$GNGMP,163037.00,,,,,DAAA,23,0.7,,,,*50
$GPGMP,163037.00,,,,,,04,,,,3.5,123*7F
$GLGMP,163037.00,,,,,,06,,,,,*79
$GAGMP,163037.00,,,,,,04,,,,,*76
$GBGMP,163037.00,,,,,,09,,,,,*78
$PSSN,SNC,[0,318655000,2347]*48
$GPZDA,163042.00,01,01,2025,,*61
$GPDTM,W84,,00.0000000,N,00.0000000,E,00.0000000,W84*5F
$GPRMC,163042.00,A,4742.4464904,N,01617.9722428,E,0.0,,010125,5.1,E,D*14
$GPGLL,4742.4464904,N,01617.9722428,E,163042.00,A,D*65
$GPGGA,163042.00,4742.4464904,N,01617.9722428,E,2,22,0.7,627.2430,M,43.2111,M,2.5,0123*4A
$GNGNS,163042.00,4742.4464904,N,01617.9722428,E,DAAA,22,0.7,627.2430,43.2111,,*51
$GPGNS,163042.00,,,,,,04,,,,2.5,123*7C
$GLGNS,163042.00,,,,,,06,,,,,*7B
$GAGNS,163042.00,,,,,,04,,,,,*74
$GBGNS,163042.00,,,,,,08,,,,,*7B
$GPLLQ,163042.00,010125,,M,,M,1,22,8.162,,M*1E
$GPVTG,,T,,M,0.01,N,0.01,K,D*26
$GPHDT,,T*1B
$GPTHS,,V*0E
$GPROT,,V*08
$PSSN,HRP,163042.00,010125,,,,,,,00,0,,*63
$PTNL,AVR,163042.00,,Yaw,,Tilt,,,,0,,00*35
$GPGSA,A,3,18,28,29,31,,,,,,,,,1.5,0.7,1.3*39
$GPGSA,A,3,78,79,80,81,82,88,,,,,,,1.5,0.7,1.3*39
$GPGSA,A,3,15,27,30,34,,,,,,,,,1.5,0.7,1.3*36
$GPGSA,A,3,08,11,12,13,23,25,34,43,,,,,1.5,0.7,1.3*3C
$GPGST,163042.00,3.006,2.097,1.636,50.868,1.833,1.926,7.717*6E
$GPGBS,163042.00,6.546,5.259,25.658,18,0.0001,-2.429,0.831*49
$GPGRS,163042.00,1,-2.4,-0.6,0.7,2.6,,,,,,,,*4F
$GPGRS,163042.00,1,-3.8,2.0,-1.0,3.1,3.8,0.1,,,,,,*4C
$GPGRS,163042.00,1,2.2,1.7,2.2,-0.8,,,,,,,,*6F
$GPGRS,163042.00,1,-4.9,3.3,4.9,-0.3,1.0,-1.6,0.8,1.5,,,,*68
$GPGSV,4,1,16,29,70,051,50,16,11,301,34,20,19,048,33,25,41,129,31*78
$GPGSV,4,2,16,05,25,084,35,18,48,185,40,26,41,301,35,28,42,232,43*70
$GPGSV,4,3,16,31,45,271,47,12,04,122,,04,04,325,19,11,05,038,*79
$GPGSV,4,4,16,36,35,170,37,34,31,208,35,49,34,195,36,61,03,257,*70
$GLGSV,2,1,08,81,87,342,50,88,31,040,39,78,24,148,43,82,39,223,39*6E
$GLGSV,2,2,08,80,42,321,49,79,78,169,43,71,05,335,32,72,09,020,*6F
$GAGSV,2,1,08,27,88,108,51,13,28,194,34,34,35,048,38,30,33,121,37*6B
$GAGSV,2,2,08,21,36,302,29,15,67,130,44,19,07,284,21,04,04,337,30*6D
$GBGSV,5,1,19,11,83,212,47,37,11,317,34,44,14,057,28,05,21,129,*69
$GBGSV,5,2,19,38,30,054,33,13,36,080,42,25,53,180,44,08,35,070,35*63
$GBGSV,5,3,19,12,38,055,39,23,56,287,43,43,59,233,50,34,69,061,47*6F
$GBGSV,5,4,19,22,04,052,,10,04,088,,02,06,107,,24,06,151,*63
$GBGSV,5,5,19,19,01,005,,56,09,072,,60,10,109,*5F
$GPGGA,163042.00,,,,,0,00,,,M,,M,,*4A
$PTNL,GGK,163042.00,010125,4742.4464904,N,01617.9722428,E,1,22,1.5,EHT670.4541,M*42
$GPGGQ,163042.00,010125,4742.4464904,N,01617.9722428,E,1,22,8.162,627.2430,M*36
$GPGFA,163042.00,19.937,63.279,2.097,1.636,50.868,7.717,,VVV*36
$GPLLK,163042.00,010125,,M,,M,1,22,1.8,,M*00
$GNGMP,163042.00,,,,,DAAA,22,0.7,,,,*53
$GPGMP,163042.00,,,,,,04,,,,2.5,123*7C
$GLGMP,163042.00,,,,,,06,,,,,*7B
$GAGMP,163042.00,,,,,,04,,,,,*74
$GBGMP,163042.00,,,,,,08,,,,,*7B
$PSSN,SNC,[0,318660000,2347]*4E
$GPZDA,163047.00,01,01,2025,,*64
$GPDTM,W84,,00.0000000,N,00.0000000,E,00.0000000,W84*5F
$GPRMC,163047.00,A,4742.4464554,N,01617.9722718,E,0.0,,010125,5.1,E,D*18
$GPGLL,4742.4464554,N,01617.9722718,E,163047.00,A,D*69
$GPGGA,163047.00,4742.4464554,N,01617.9722718,E,2,23,0.7,627.2209,M,43.2111,M,1.7,0123*4A
$GNGNS,163047.00,4742.4464554,N,01617.9722718,E,DAAA,23,0.7,627.2209,43.2111,,*50
$GPGNS,163047.00,,,,,,06,,,,1.7,123*7A
$GLGNS,163047.00,,,,,,06,,,,,*7E
$GAGNS,163047.00,,,,,,04,,,,,*71
$GBGNS,163047.00,,,,,,07,,,,,*71
$GPLLQ,163047.00,010125,,M,,M,1,23,5.698,,M*15
$GPVTG,,T,,M,0.00,N,0.00,K,D*26
$GPHDT,,T*1B
$GPTHS,,V*0E
$GPROT,,V*08
$PSSN,HRP,163047.00,010125,,,,,,,00,0,,*66
$PTNL,AVR,163047.00,,Yaw,,Tilt,,,,0,,00*30
$GPGSA,A,3,18,25,26,28,29,31,,,,,,,1.4,0.7,1.3*3B
$GPGSA,A,3,78,79,80,81,82,88,,,,,,,1.4,0.7,1.3*38
$GPGSA,A,3,15,27,30,34,,,,,,,,,1.4,0.7,1.3*37
$GPGSA,A,3,11,12,13,23,25,34,43,,,,,,1.4,0.7,1.3*35
$GPGST,163047.00,2.509,1.621,1.036,27.253,1.517,1.183,5.363*65
$GPGBS,163047.00,5.020,4.811,15.235,25,0.0001,-3.440,0.915*46
$GPGRS,163047.00,1,-0.9,-3.4,1.7,-0.8,1.0,1.8,,,,,,*6C
$GPGRS,163047.00,1,-3.0,0.6,-0.6,2.9,-0.4,0.3,,,,,,*6B
$GPGRS,163047.00,1,1.5,1.9,0.9,-0.7,,,,,,,,*66
$GPGRS,163047.00,1,3.8,5.1,-0.2,1.2,-2.9,1.1,1.8,,,,,*6B
$GPGSV,4,1,16,29,70,051,50,16,11,301,35,20,19,048,35,25,41,129,38*76
$GPGSV,4,2,16,05,25,084,31,18,48,185,40,26,41,301,35,28,42,232,43*74
$GPGSV,4,3,16,31,45,271,47,12,04,122,,04,04,325,,11,04,038,*70
$GPGSV,4,4,16,36,35,170,38,34,31,208,35,49,34,195,36,61,03,257,*7F
$GLGSV,2,1,08,81,87,343,49,88,30,040,38,78,24,148,44,82,39,223,39*60
$GLGSV,2,2,08,80,42,321,49,79,78,169,42,71,05,335,32,72,09,020,*6E
$GAGSV,2,1,08,27,88,109,51,13,28,194,35,34,35,048,38,30,33,121,35*69
$GAGSV,2,2,08,21,36,302,29,15,67,130,43,19,07,284,21,04,04,337,32*68
$GBGSV,5,1,19,11,84,212,47,37,11,317,32,44,14,057,28,05,21,129,*68
$GBGSV,5,2,19,38,30,054,33,13,36,080,42,25,53,180,43,08,35,070,35*64
$GBGSV,5,3,19,12,38,055,38,23,56,287,44,43,59,233,50,34,69,061,47*69
$GBGSV,5,4,19,22,04,052,,10,04,088,,02,06,107,,24,06,151,*63
$GBGSV,5,5,19,19,01,005,,56,09,072,,60,10,109,*5F
$GPGGA,163047.00,,,,,0,00,,,M,,M,,*4F
$PTNL,GGK,163047.00,010125,4742.4464554,N,01617.9722718,E,1,23,1.4,EHT670.4320,M*4F
$GPGGQ,163047.00,010125,4742.4464554,N,01617.9722718,E,1,23,5.698,627.2209,M*38
$GPGFA,163047.00,15.411,43.977,1.621,1.036,27.253,5.363,,VVV*38
$GPLLK,163047.00,010125,,M,,M,1,23,1.7,,M*0B
$GNGMP,163047.00,,,,,DAAA,23,0.7,,,,*57
$GPGMP,163047.00,,,,,,06,,,,1.7,123*7A
$GLGMP,163047.00,,,,,,06,,,,,*7E
$GAGMP,163047.00,,,,,,04,,,,,*71
$GBGMP,163047.00,,,,,,07,,,,,*71
$PSSN,SNC,[0,318665000,2347]*4B
$GPZDA,163052.00,01,01,2025,,*60
$GPDTM,W84,,00.0000000,N,00.0000000,E,00.0000000,W84*5F
$GPRMC,163052.00,A,4742.4464241,N,01617.9723145,E,0.0,,010125,5.1,E,D*10
$GPGLL,4742.4464241,N,01617.9723145,E,163052.00,A,D*61
$GPGGA,163052.00,4742.4464241,N,01617.9723145,E,2,24,0.6,627.1688,M,43.2111,M,2.7,0123*49
$GNGNS,163052.00,4742.4464241,N,01617.9723145,E,DAAA,24,0.6,627.1688,43.2111,,*50
$GPGNS,163052.00,,,,,,06,,,,2.7,123*7D
$GLGNS,163052.00,,,,,,06,,,,,*7A
$GAGNS,163052.00,,,,,,04,,,,,*75
$GBGNS,163052.00,,,,,,08,,,,,*7A
$GPLLQ,163052.00,010125,,M,,M,1,24,3.536,,M*17
$GPVTG,,T,,M,0.00,N,0.01,K,D*27
$GPHDT,,T*1B
$GPTHS,,V*0E
$GPROT,,V*08
$PSSN,HRP,163052.00,010125,,,,,,,00,0,,*62
$PTNL,AVR,163052.00,,Yaw,,Tilt,,,,0,,00*34
$GPGSA,A,3,16,18,25,28,29,31,,,,,,,1.2,0.6,1.0*3C
$GPGSA,A,3,78,79,80,81,82,88,,,,,,,1.2,0.6,1.0*3C
$GPGSA,A,3,13,15,27,34,,,,,,,,,1.2,0.6,1.0*32
$GPGSA,A,3,08,11,12,13,23,25,34,43,,,,,1.2,0.6,1.0*39
$GPGST,163052.00,2.846,1.263,0.976,21.102,1.230,1.018,3.155*68
$GPGBS,163052.00,4.433,4.668,14.483,25,0.0001,-2.712,0.925*49
$GPGRS,163052.00,1,2.7,-0.6,-2.7,-0.7,1.5,1.0,,,,,,*64
$GPGRS,163052.00,1,-2.5,-0.1,0.1,3.3,-0.6,-0.0,,,,,,*4C
$GPGRS,163052.00,1,-0.5,1.0,2.2,0.5,,,,,,,,*61
$GPGRS,163052.00,1,-4.7,4.2,5.5,0.6,1.6,-3.8,1.5,2.3,,,,*47
$GPGSV,4,1,16,29,70,051,51,16,11,301,36,20,19,048,36,25,41,129,38*77
$GPGSV,4,2,16,05,25,083,26,18,48,185,39,26,41,301,33,28,42,232,43*7D
$GPGSV,4,3,16,31,45,271,46,12,04,122,,04,04,325,,11,04,038,*71
$GPGSV,4,4,16,36,35,170,38,34,31,208,35,49,34,195,37,61,03,257,*7E
$GLGSV,2,1,08,81,87,343,50,88,30,040,36,78,24,148,44,82,39,223,40*68
$GLGSV,2,2,08,80,42,321,49,79,78,169,43,71,05,335,33,72,09,020,*6E
$GAGSV,2,1,08,27,88,109,51,13,28,194,35,34,35,048,39,30,33,121,32*6F
$GAGSV,2,2,08,21,36,302,31,15,67,130,42,19,07,284,,04,04,337,32*63
$GBGSV,5,1,19,11,84,212,48,37,11,317,28,44,14,057,28,05,21,129,*6C
$GBGSV,5,2,19,38,30,054,33,13,36,080,42,25,52,180,42,08,35,070,35*64
$GBGSV,5,3,19,12,38,055,37,23,56,287,45,43,59,233,51,34,68,061,47*67
$GBGSV,5,4,19,22,05,052,,10,04,088,,02,06,107,,24,06,151,*62
$GBGSV,5,5,19,19,01,005,,56,09,072,,60,10,109,*5F
$GPGGA,163052.00,,,,,0,00,,,M,,M,,*4B
$PTNL,GGK,163052.00,010125,4742.4464241,N,01617.9723145,E,1,24,1.2,EHT670.3799,M*47
$GPGGQ,163052.00,010125,4742.4464241,N,01617.9723145,E,1,24,3.536,627.1688,M*38
$GPGFA,163052.00,12.011,25.875,1.263,0.976,21.102,3.155,,VVV*32
$GPLLK,163052.00,010125,,M,,M,1,24,1.4,,M*0B
$GNGMP,163052.00,,,,,DAAA,24,0.6,,,,*55
$GPGMP,163052.00,,,,,,06,,,,2.7,123*7D
$GLGMP,163052.00,,,,,,06,,,,,*7A
$GAGMP,163052.00,,,,,,04,,,,,*75
$GBGMP,163052.00,,,,,,08,,,,,*7A
$PSSN,SNC,[0,318670000,2347]*4F
$GPZDA,163057.00,01,01,2025,,*65
$GPDTM,W84,,00.0000000,N,00.0000000,E,00.0000000,W84*5F
$GPRMC,163057.00,A,4742.4464001,N,01617.9723170,E,0.0,,010125,5.1,E,D*15
$GPGLL,4742.4464001,N,01617.9723170,E,163057.00,A,D*64
$GPGGA,163057.00,4742.4464001,N,01617.9723170,E,2,24,0.6,627.1605,M,43.2111,M,3.7,0123*48
$GNGNS,163057.00,4742.4464001,N,01617.9723170,E,DAAA,24,0.6,627.1605,43.2111,,*50
$GPGNS,163057.00,,,,,,06,,,,3.7,123*79
$GLGNS,163057.00,,,,,,06,,,,,*7F
$GAGNS,163057.00,,,,,,04,,,,,*70
$GBGNS,163057.00,,,,,,08,,,,,*7F
$GPLLQ,163057.00,010125,,M,,M,1,24,3.706,,M*13
$GPVTG,,T,,M,0.00,N,0.00,K,D*26
$GPHDT,,T*1B
$GPTHS,,V*0E
$GPROT,,V*08
$PSSN,HRP,163057.00,010125,,,,,,,00,0,,*67
$PTNL,AVR,163057.00,,Yaw,,Tilt,,,,0,,00*31
$GPGSA,A,3,16,18,25,28,29,31,,,,,,,1.2,0.6,1.0*3C
$GPGSA,A,3,78,79,80,81,82,88,,,,,,,1.2,0.6,1.0*3C
$GPGSA,A,3,13,15,27,34,,,,,,,,,1.2,0.6,1.0*32
$GPGSA,A,3,08,11,12,13,23,25,34,43,,,,,1.2,0.6,1.0*39
$GPGST,163057.00,2.842,1.310,0.959,19.441,1.276,1.004,3.332*64
$GPGBS,163057.00,4.465,4.723,14.562,25,0.0001,-3.015,0.941*4C
$GPGRS,163057.00,1,2.8,-0.5,-3.0,-0.7,1.5,-0.1,,,,,,*46
$GPGRS,163057.00,1,-3.0,1.1,0.3,3.9,1.0,-3.1,,,,,,*41
$GPGRS,163057.00,1,0.5,0.5,2.0,0.9,,,,,,,,*43
$GPGRS,163057.00,1,-3.7,4.3,4.4,0.4,1.4,-3.8,1.6,2.4,,,,*40
$GPGSV,4,1,16,29,70,051,51,16,11,301,37,20,19,048,36,25,41,129,38*76
$GPGSV,4,2,16,05,25,083,21,18,48,185,39,26,41,301,30,28,42,232,42*78
$GPGSV,4,3,16,31,45,271,45,12,04,122,,04,04,325,,11,04,038,*72
$GPGSV,4,4,16,36,35,170,38,34,31,208,35,49,34,195,37,61,03,257,*7E
$GLGSV,2,1,08,81,87,344,50,88,30,040,37,78,24,148,44,82,39,223,41*6F
$GLGSV,2,2,08,80,42,321,50,79,78,169,42,71,05,335,29,72,09,020,*6C
$GAGSV,2,1,08,27,88,109,51,13,28,194,37,34,35,048,38,30,33,121,30*6E
$GAGSV,2,2,08,21,36,302,34,15,67,130,41,19,07,284,,04,04,337,32*65
$GBGSV,5,1,19,11,84,212,48,37,11,317,23,44,14,057,28,05,21,129,*67
$GBGSV,5,2,19,38,30,054,33,13,36,080,42,25,52,180,40,08,36,070,36*66
$GBGSV,5,3,19,12,38,055,36,23,56,287,46,43,59,233,51,34,68,061,48*6A
$GBGSV,5,4,19,22,05,052,,10,04,088,,02,06,107,,24,06,151,*62
$GBGSV,5,5,19,19,01,005,,56,09,072,,60,10,109,*5F
$GPGGA,163057.00,,,,,0,00,,,M,,M,,*4E
$PTNL,GGK,163057.00,010125,4742.4464001,N,01617.9723170,E,1,24,1.2,EHT670.3715,M*46
$GPGGQ,163057.00,010125,4742.4464001,N,01617.9723170,E,1,24,3.706,627.1605,M*39
$GPGFA,163057.00,12.453,27.320,1.310,0.959,19.441,3.332,,VVV*3E
$GPLLK,163057.00,010125,,M,,M,1,24,1.4,,M*0E
$GNGMP,163057.00,,,,,DAAA,24,0.6,,,,*50
$GPGMP,163057.00,,,,,,06,,,,3.7,123*79
$GLGMP,163057.00,,,,,,06,,,,,*7F
$GAGMP,163057.00,,,,,,04,,,,,*70
$GBGMP,163057.00,,,,,,08,,,,,*7F
$PSSN,SNC,[0,318675000,2347]*4A
$GPZDA,163102.00,01,01,2025,,*64
$GPDTM,W84,,00.0000000,N,00.0000000,E,00.0000000,W84*5F
$GPRMC,163102.00,A,4742.4463760,N,01617.9723377,E,0.0,,010125,5.1,E,D*16
$GPGLL,4742.4463760,N,01617.9723377,E,163102.00,A,D*67
$GPGGA,163102.00,4742.4463760,N,01617.9723377,E,2,24,0.6,627.1165,M,43.2111,M,2.0,0123*4C
$GNGNS,163102.00,4742.4463760,N,01617.9723377,E,DAAA,24,0.6,627.1165,43.2111,,*52
$GPGNS,163102.00,,,,,,06,,,,2.0,123*7E
$GLGNS,163102.00,,,,,,06,,,,,*7E
$GAGNS,163102.00,,,,,,04,,,,,*71
$GBGNS,163102.00,,,,,,08,,,,,*7E
$GPLLQ,163102.00,010125,,M,,M,1,24,3.189,,M*13
$GPVTG,,T,,M,0.00,N,0.00,K,D*26
$GPHDT,,T*1B
$GPTHS,,V*0E
$GPROT,,V*08
$PSSN,HRP,163102.00,010125,,,,,,,00,0,,*66
$PTNL,AVR,163102.00,,Yaw,,Tilt,,,,0,,00*30
$GPGSA,A,3,16,18,25,28,29,31,,,,,,,1.2,0.6,1.0*3C
$GPGSA,A,3,78,79,80,81,82,88,,,,,,,1.2,0.6,1.0*3C
$GPGSA,A,3,13,15,27,34,,,,,,,,,1.2,0.6,1.0*32
$GPGSA,A,3,08,11,12,13,23,25,34,43,,,,,1.2,0.6,1.0*39
$GPGST,163102.00,2.708,1.141,0.883,20.693,1.112,0.919,2.844*6D
$GPGBS,163102.00,4.380,4.671,14.370,25,0.0001,-2.200,0.905*45
$GPGRS,163102.00,1,2.4,-0.2,-2.2,-0.1,1.6,-0.3,,,,,,*48
$GPGRS,163102.00,1,-2.8,0.3,0.4,4.9,0.6,-2.7,,,,,,*4A
$GPGRS,163102.00,1,1.4,0.9,2.2,0.9,,,,,,,,*4C
$GPGRS,163102.00,1,-2.3,5.0,3.0,0.5,1.4,-2.9,2.2,2.8,,,,*4F
$GPGSV,4,1,16,29,70,051,51,16,11,301,37,20,19,047,36,25,41,129,38*79
$GPGSV,4,2,16,05,25,083,23,18,48,185,39,26,41,301,31,28,42,232,41*78
$GPGSV,4,3,16,31,45,271,45,12,04,122,,04,04,325,,11,04,038,*72
$GPGSV,4,4,16,36,35,170,38,34,31,208,35,49,34,195,36,61,03,257,*7F
$GLGSV,2,1,08,81,87,344,51,88,30,040,39,78,24,148,44,82,39,223,39*6F
$GLGSV,2,2,08,80,42,321,50,79,78,169,41,71,04,335,24,72,09,020,*63
$GAGSV,2,1,08,27,88,110,50,13,28,194,37,34,35,048,38,30,33,121,32*65
$GAGSV,2,2,08,21,36,302,38,15,67,130,40,19,07,284,,04,04,337,31*6B
$GBGSV,5,1,19,11,84,212,49,37,11,317,21,44,14,057,28,05,21,129,*64
$GBGSV,5,2,19,38,30,054,33,13,36,080,42,25,52,180,39,08,36,070,36*68
$GBGSV,5,3,19,12,38,055,36,23,56,287,46,43,59,233,51,34,68,061,48*6A
$GBGSV,5,4,19,22,05,052,,10,04,088,,02,06,107,,24,06,151,*62
$GBGSV,5,5,19,19,01,005,,56,09,072,,60,10,109,*5F
$GPGGA,163102.00,,,,,0,00,,,M,,M,,*4F
$PTNL,GGK,163102.00,010125,4742.4463760,N,01617.9723377,E,1,24,1.2,EHT670.3275,M*46
$GPGGQ,163102.00,010125,4742.4463760,N,01617.9723377,E,1,24,3.189,627.1165,M*3A
$GPGFA,163102.00,10.848,23.322,1.141,0.883,20.693,2.844,,VVV*31
$GPLLK,163102.00,010125,,M,,M,1,24,1.4,,M*0F
$GNGMP,163102.00,,,,,DAAA,24,0.6,,,,*51
$GPGMP,163102.00,,,,,,06,,,,2.0,123*7E
$GLGMP,163102.00,,,,,,06,,,,,*7E
$GAGMP,163102.00,,,,,,04,,,,,*71
$GBGMP,163102.00,,,,,,08,,,,,*7E
$PSSN,SNC,[0,318680000,2347]*40
$GPZDA,163107.00,01,01,2025,,*61
$GPDTM,W84,,00.0000000,N,00.0000000,E,00.0000000,W84*5F
$GPRMC,163107.00,A,4742.4463531,N,01617.9723519,E,0.0,,010125,5.1,E,D*1B
$GPGLL,4742.4463531,N,01617.9723519,E,163107.00,A,D*6A
$GPGGA,163107.00,4742.4463531,N,01617.9723519,E,2,24,0.6,627.0896,M,43.2111,M,1.6,0123*40
$GNGNS,163107.00,4742.4463531,N,01617.9723519,E,DAAA,24,0.6,627.0896,43.2111,,*5B
$GPGNS,163107.00,,,,,,05,,,,1.6,123*7D
$GLGNS,163107.00,,,,,,06,,,,,*7B
$GAGNS,163107.00,,,,,,05,,,,,*75
$GBGNS,163107.00,,,,,,08,,,,,*7B
$GPLLQ,163107.00,010125,,M,,M,1,24,3.677,,M*10
$GPVTG,,T,,M,0.01,N,0.01,K,D*26
$GPHDT,,T*1B
$GPTHS,,V*0E
$GPROT,,V*08
$PSSN,HRP,163107.00,010125,,,,,,,00,0,,*63
$PTNL,AVR,163107.00,,Yaw,,Tilt,,,,0,,00*35
$GPGSA,A,3,16,18,28,29,31,,,,,,,,1.2,0.6,1.0*3B
$GPGSA,A,3,78,79,80,81,82,88,,,,,,,1.2,0.6,1.0*3C
$GPGSA,A,3,13,15,21,27,34,,,,,,,,1.2,0.6,1.0*31
$GPGSA,A,3,08,11,12,13,23,25,34,43,,,,,1.2,0.6,1.0*39
$GPGST,163107.00,3.812,1.341,0.992,277.373,0.999,1.336,3.277*52
$GPGBS,163107.00,5.374,6.607,18.923,21,0.0001,11.871,6.360*51
$GPGRS,163107.00,1,1.1,-1.5,-0.0,1.2,0.2,,,,,,,*67
$GPGRS,163107.00,1,-1.9,-0.1,-0.1,4.6,-0.9,-2.3,,,,,,*63
$GPGRS,163107.00,1,1.6,1.0,11.9,1.8,0.7,,,,,,,*53
$GPGRS,163107.00,1,-2.5,4.7,3.8,0.1,1.3,-2.5,1.9,2.8,,,,*45
$GPGSV,4,1,16,29,70,051,51,16,11,302,37,20,19,047,34,25,41,129,36*76
$GPGSV,4,2,16,05,25,083,26,18,48,185,40,26,41,301,33,28,42,232,42*72
$GPGSV,4,3,16,31,45,271,45,12,04,122,,04,04,325,,11,04,038,*72
$GPGSV,4,4,16,36,35,170,38,34,31,208,35,49,34,195,37,61,03,257,*7E
$GLGSV,2,1,08,81,87,345,51,88,30,040,40,78,24,148,45,82,39,223,40*6F
$GLGSV,2,2,08,80,42,321,51,79,78,169,42,71,04,335,32,72,09,020,*66
$GAGSV,2,1,08,27,88,110,50,13,28,194,38,34,35,048,37,30,33,121,34*63
$GAGSV,2,2,08,21,36,302,37,15,67,129,39,19,07,284,,04,04,337,29*6B
$GBGSV,5,1,19,11,84,212,48,37,11,317,25,44,14,057,,05,21,129,*6B
$GBGSV,5,2,19,38,30,054,34,13,36,080,42,25,52,180,38,08,36,070,36*6E
$GBGSV,5,3,19,12,38,055,35,23,56,287,46,43,59,233,51,34,68,061,48*69
$GBGSV,5,4,19,22,05,052,,10,04,088,,02,06,107,,24,06,151,*62
$GBGSV,5,5,19,19,01,005,,56,09,072,,60,10,109,*5F
$GPGGA,163107.00,,,,,0,00,,,M,,M,,*4A
$PTNL,GGK,163107.00,010125,4742.4463531,N,01617.9723519,E,1,24,1.2,EHT670.3006,M*4D
$GPGGQ,163107.00,010125,4742.4463531,N,01617.9723519,E,1,24,3.677,627.0896,M*35
$GPGFA,163107.00,12.747,26.870,1.341,0.992,277.373,3.277,,VVV*0C
$GPLLK,163107.00,010125,,M,,M,1,24,1.4,,M*0A
$GNGMP,163107.00,,,,,DAAA,24,0.6,,,,*54
$GPGMP,163107.00,,,,,,05,,,,1.6,123*7D
$GLGMP,163107.00,,,,,,06,,,,,*7B
$GAGMP,163107.00,,,,,,05,,,,,*75
$GBGMP,163107.00,,,,,,08,,,,,*7B
$PSSN,SNC,[0,318685000,2347]*45
$GPZDA,163112.00,01,01,2025,,*65
$GPDTM,W84,,00.0000000,N,00.0000000,E,00.0000000,W84*5F
$GPRMC,163112.00,A,4742.4463383,N,01617.9723582,E,0.0,,010125,5.1,E,D*12
$GPGLL,4742.4463383,N,01617.9723582,E,163112.00,A,D*63
$GPGGA,163112.00,4742.4463383,N,01617.9723582,E,2,23,0.6,627.0335,M,43.2111,M,2.7,0123*4E
$GNGNS,163112.00,4742.4463383,N,01617.9723582,E,DAAA,23,0.6,627.0335,43.2111,,*57
$GPGNS,163112.00,,,,,,06,,,,2.7,123*78
$GLGNS,163112.00,,,,,,06,,,,,*7F
$GAGNS,163112.00,,,,,,04,,,,,*70
$GBGNS,163112.00,,,,,,07,,,,,*70
$GPLLQ,163112.00,010125,,M,,M,1,23,3.311,,M*16
$GPVTG,,T,,M,0.00,N,0.01,K,D*27
$GPHDT,,T*1B
$GPTHS,,V*0E
$GPROT,,V*08
$PSSN,HRP,163112.00,010125,,,,,,,00,0,,*67
$PTNL,AVR,163112.00,,Yaw,,Tilt,,,,0,,00*31
$GPGSA,A,3,16,18,25,28,29,31,,,,,,,1.2,0.6,1.0*3C
$GPGSA,A,3,78,79,80,81,82,88,,,,,,,1.2,0.6,1.0*3C
$GPGSA,A,3,13,15,27,34,,,,,,,,,1.2,0.6,1.0*32
$GPGSA,A,3,08,11,13,23,25,34,43,,,,,,1.2,0.6,1.0*3A
$GPGST,163112.00,2.478,1.178,0.900,20.805,1.147,0.940,2.960*62
$GPGBS,163112.00,4.452,4.710,14.573,25,0.0001,-2.402,0.935*48
$GPGRS,163112.00,1,-1.3,-0.5,-2.4,0.2,1.6,0.3,,,,,,*62
$GPGRS,163112.00,1,-2.1,2.5,-0.4,4.2,2.1,-0.7,,,,,,*67
$GPGRS,163112.00,1,1.6,2.0,1.8,2.1,,,,,,,,*47
$GPGRS,163112.00,1,-2.5,4.2,0.0,1.3,-1.8,1.8,2.7,,,,,*60
$GPGSV,4,1,16,29,70,051,51,16,11,302,35,20,19,047,31,25,41,129,36*71
$GPGSV,4,2,16,05,25,083,27,18,48,185,42,26,41,301,34,28,42,232,43*77
$GPGSV,4,3,16,31,45,271,45,12,04,122,,04,04,325,,11,04,038,*72
$GPGSV,4,4,16,36,35,170,38,34,31,208,35,49,34,195,37,61,03,257,*7E
$GLGSV,2,1,08,81,87,345,51,88,30,040,41,78,24,148,45,82,39,223,43*6D
$GLGSV,2,2,08,80,42,321,51,79,78,169,44,71,04,335,33,72,09,019,*6B
$GAGSV,2,1,08,27,88,111,50,13,28,194,39,34,35,048,37,30,33,121,35*62
$GAGSV,2,2,08,21,36,302,38,15,67,129,39,19,07,284,,04,04,337,27*6A
$GBGSV,5,1,19,11,84,212,48,37,11,317,28,44,14,057,24,05,21,129,*60
$GBGSV,5,2,19,38,30,054,33,13,36,080,41,25,52,180,37,08,36,070,37*64
$GBGSV,5,3,19,12,38,055,34,23,56,287,45,43,59,233,51,34,68,061,48*6B
$GBGSV,5,4,19,22,05,052,,10,04,088,,02,06,107,,24,06,151,*62
$GBGSV,5,5,19,19,01,005,,56,09,072,,60,10,109,*5F
$GPGGA,163112.00,,,,,0,00,,,M,,M,,*4E
$PTNL,GGK,163112.00,010125,4742.4463383,N,01617.9723582,E,1,23,1.2,EHT670.2446,M*42
$GPGGQ,163112.00,010125,4742.4463383,N,01617.9723582,E,1,23,3.311,627.0335,M*3C
$GPGFA,163112.00,11.202,24.271,1.178,0.900,20.805,2.960,,VVV*33
$GPLLK,163112.00,010125,,M,,M,1,23,1.4,,M*09
$GNGMP,163112.00,,,,,DAAA,23,0.6,,,,*57
$GPGMP,163112.00,,,,,,06,,,,2.7,123*78
$GLGMP,163112.00,,,,,,06,,,,,*7F
$GAGMP,163112.00,,,,,,04,,,,,*70
$GBGMP,163112.00,,,,,,07,,,,,*70
$PSSN,SNC,[0,318690000,2347]*41
$GPZDA,163117.00,01,01,2025,,*60
$GPDTM,W84,,00.0000000,N,00.0000000,E,00.0000000,W84*5F
$GPRMC,163117.00,A,4742.4463289,N,01617.9723648,E,0.0,,010125,5.1,E,D*19
$GPGLL,4742.4463289,N,01617.9723648,E,163117.00,A,D*68
$GPGGA,163117.00,4742.4463289,N,01617.9723648,E,2,24,0.6,626.9820,M,43.2111,M,3.6,0123*45
$GNGNS,163117.00,4742.4463289,N,01617.9723648,E,DAAA,24,0.6,626.9820,43.2111,,*5C
$GPGNS,163117.00,,,,,,05,,,,3.6,123*7E
$GLGNS,163117.00,,,,,,06,,,,,*7A
$GAGNS,163117.00,,,,,,06,,,,,*77
$GBGNS,163117.00,,,,,,07,,,,,*75
$GPLLQ,163117.00,010125,,M,,M,1,24,3.337,,M*10
$GPVTG,,T,,M,0.01,N,0.02,K,D*25
$GPHDT,,T*1B
$GPTHS,,V*0E
$GPROT,,V*08
$PSSN,HRP,163117.00,010125,,,,,,,00,0,,*62
$PTNL,AVR,163117.00,,Yaw,,Tilt,,,,0,,00*34
$GPGSA,A,3,18,25,28,29,31,,,,,,,,1.3,0.6,1.2*38
$GPGSA,A,3,78,79,80,81,82,88,,,,,,,1.3,0.6,1.2*3F
$GPGSA,A,3,13,15,21,27,30,34,,,,,,,1.3,0.6,1.2*31
$GPGSA,A,3,08,11,13,23,25,34,43,,,,,,1.3,0.6,1.2*39
$GPGST,163117.00,2.699,1.020,0.591,9.772,1.010,0.607,3.122*56
$GPGBS,163117.00,7.385,4.797,16.581,29,0.0001,0.836,0.787*6C
$GPGRS,163117.00,1,0.3,-0.3,-0.6,0.8,-0.1,,,,,,,*41
$GPGRS,163117.00,1,-3.9,1.6,-1.4,3.6,3.3,-1.3,,,,,,*6F
$GPGRS,163117.00,1,0.3,1.1,-4.2,1.1,4.8,2.7,,,,,,*6C
$GPGRS,163117.00,1,-3.2,2.6,-0.7,0.1,-2.2,1.2,1.8,,,,,*47
$GPGSV,4,1,16,29,70,051,51,16,11,302,33,20,19,047,27,25,41,129,36*70
$GPGSV,4,2,16,05,25,083,25,18,48,185,43,26,41,301,33,28,42,232,44*74
$GPGSV,4,3,16,31,45,271,45,12,04,122,,04,04,325,33,11,04,038,*72
$GPGSV,4,4,16,36,35,170,38,34,31,208,35,49,34,195,37,61,03,257,*7E
$GLGSV,2,1,08,81,86,346,51,88,30,040,41,78,24,148,44,82,39,223,43*6E
$GLGSV,2,2,08,80,42,321,51,79,78,169,44,71,04,334,34,72,09,019,*6D
$GAGSV,2,1,08,27,88,111,50,13,28,194,39,34,35,048,36,30,33,121,36*60
$GAGSV,2,2,08,21,36,302,41,15,67,129,39,19,07,284,,04,04,337,26*65
$GBGSV,5,1,19,11,84,212,47,37,11,317,30,44,14,057,22,05,21,129,*60
$GBGSV,5,2,19,38,30,054,33,13,36,080,40,25,52,180,36,08,36,070,37*64
$GBGSV,5,3,19,12,38,055,34,23,56,287,45,43,59,233,51,34,68,061,47*64
$GBGSV,5,4,19,22,05,052,,10,04,088,,02,06,107,,24,06,151,*62
$GBGSV,5,5,19,19,01,005,,56,09,072,,60,10,109,*5F
$GPGGA,163117.00,,,,,0,00,,,M,,M,,*4B
$PTNL,GGK,163117.00,010125,4742.4463289,N,01617.9723648,E,1,24,1.3,EHT670.1930,M*40
$GPGGQ,163117.00,010125,4742.4463289,N,01617.9723648,E,1,24,3.337,626.9820,M*33
$GPGFA,163117.00,9.700,25.599,1.020,0.591,9.772,3.122,,VVV*3B
$GPLLK,163117.00,010125,,M,,M,1,24,1.6,,M*09
$GNGMP,163117.00,,,,,DAAA,24,0.6,,,,*55
$GPGMP,163117.00,,,,,,05,,,,3.6,123*7E
$GLGMP,163117.00,,,,,,06,,,,,*7A
$GAGMP,163117.00,,,,,,06,,,,,*77
$GBGMP,163117.00,,,,,,07,,,,,*75
$PSSN,SNC,[0,318695000,2347]*44
$GPZDA,163122.00,01,01,2025,,*66
$GPDTM,W84,,00.0000000,N,00.0000000,E,00.0000000,W84*5F
$GPRMC,163122.00,A,4742.4463241,N,01617.9723563,E,0.0,,010125,5.1,E,D*11
$GPGLL,4742.4463241,N,01617.9723563,E,163122.00,A,D*60
$GPGGA,163122.00,4742.4463241,N,01617.9723563,E,2,23,0.7,626.9651,M,43.2111,M,2.2,0123*46
$GNGNS,163122.00,4742.4463241,N,01617.9723563,E,DAAA,23,0.7,626.9651,43.2111,,*5A
$GPGNS,163122.00,,,,,,05,,,,2.2,123*7D
$GLGNS,163122.00,,,,,,06,,,,,*7C
$GAGNS,163122.00,,,,,,05,,,,,*72
$GBGNS,163122.00,,,,,,07,,,,,*73
$GPLLQ,163122.00,010125,,M,,M,1,23,3.389,,M*14
$GPVTG,,T,,M,0.00,N,0.00,K,D*26
$GPHDT,,T*1B
$GPTHS,,V*0E
$GPROT,,V*08
$PSSN,HRP,163122.00,010125,,,,,,,00,0,,*64
$PTNL,AVR,163122.00,,Yaw,,Tilt,,,,0,,00*32
$GPGSA,A,3,18,25,28,29,31,,,,,,,,1.4,0.7,1.2*3E
$GPGSA,A,3,78,79,80,81,82,88,,,,,,,1.4,0.7,1.2*39
$GPGSA,A,3,13,15,21,27,30,,,,,,,,1.4,0.7,1.2*30
$GPGSA,A,3,08,11,13,23,25,34,43,,,,,,1.4,0.7,1.2*3F
$GPGST,163122.00,2.381,1.040,0.590,9.934,1.029,0.608,3.171*54
$GPGBS,163122.00,7.742,4.822,17.250,28,0.0001,-1.158,0.910*42
$GPGRS,163122.00,1,0.1,0.2,-1.2,0.6,0.3,,,,,,,*4D
$GPGRS,163122.00,1,-4.1,-0.2,-1.0,3.4,2.9,-1.6,,,,,,*46
$GPGRS,163122.00,1,-0.6,0.9,-3.2,0.8,3.1,,,,,,,*61
$GPGRS,163122.00,1,-2.3,2.2,-1.2,0.3,-3.3,0.7,1.7,,,,,*48
$GPGSV,4,1,16,29,70,051,51,16,12,302,30,20,19,047,,25,41,129,36*75
$GPGSV,4,2,16,05,25,083,26,18,48,185,42,26,41,301,34,28,42,232,43*76
$GPGSV,4,3,16,31,45,271,45,12,04,122,,04,04,325,33,11,04,038,*72
$GPGSV,4,4,16,36,35,170,38,34,31,208,35,49,34,195,37,61,03,257,*7E
$GLGSV,2,1,08,81,86,347,51,88,30,040,42,78,24,148,43,82,39,223,41*69
$GLGSV,2,2,08,80,42,321,51,79,78,169,44,71,04,334,32,72,09,019,*6B
$GAGSV,2,1,08,27,88,112,50,13,28,194,39,34,35,048,35,30,33,121,37*61
$GAGSV,2,2,08,21,36,302,42,15,67,129,38,19,07,284,,04,04,337,21*60
$GBGSV,5,1,19,11,84,212,47,37,11,317,32,44,14,057,22,05,21,129,*62
$GBGSV,5,2,19,38,30,054,33,13,36,080,40,25,52,180,35,08,36,070,38*68
$GBGSV,5,3,19,12,38,055,34,23,56,287,45,43,59,233,51,34,68,061,47*64
$GBGSV,5,4,19,22,05,052,,10,04,088,,02,06,107,,24,06,151,*62
$GBGSV,5,5,19,19,01,004,,56,09,072,,60,10,109,*5E
$GPGGA,163122.00,,,,,0,00,,,M,,M,,*4D
$PTNL,GGK,163122.00,010125,4742.4463241,N,01617.9723563,E,1,23,1.4,EHT670.1761,M*42
$GPGGQ,163122.00,010125,4742.4463241,N,01617.9723563,E,1,23,3.389,626.9651,M*31
$GPGFA,163122.00,9.886,26.000,1.040,0.590,9.934,3.171,,VVV*37
$GPLLK,163122.00,010125,,M,,M,1,23,1.6,,M*08
$GNGMP,163122.00,,,,,DAAA,23,0.7,,,,*55
$GPGMP,163122.00,,,,,,05,,,,2.2,123*7D
$GLGMP,163122.00,,,,,,06,,,,,*7C
$GAGMP,163122.00,,,,,,05,,,,,*72
$GBGMP,163122.00,,,,,,07,,,,,*73
$PSSN,SNC,[0,318700000,2347]*49
$GPZDA,163127.00,01,01,2025,,*63
$GPDTM,W84,,00.0000000,N,00.0000000,E,00.0000000,W84*5F
$GPRMC,163127.00,A,4742.4463111,N,01617.9723443,E,0.0,,010125,5.1,E,D*11
$GPGLL,4742.4463111,N,01617.9723443,E,163127.00,A,D*60
$GPGGA,163127.00,4742.4463111,N,01617.9723443,E,2,24,0.6,626.9560,M,43.2111,M,1.7,0123*47
$GNGNS,163127.00,4742.4463111,N,01617.9723443,E,DAAA,24,0.6,626.9560,43.2111,,*5D
$GPGNS,163127.00,,,,,,06,,,,1.7,123*7D
$GLGNS,163127.00,,,,,,06,,,,,*79
$GAGNS,163127.00,,,,,,05,,,,,*77
$GBGNS,163127.00,,,,,,07,,,,,*76
$GPLLQ,163127.00,010125,,M,,M,1,24,3.225,,M*11
$GPVTG,,T,,M,0.01,N,0.01,K,D*26
$GPHDT,,T*1B
$GPTHS,,V*0E
$GPROT,,V*08
$PSSN,HRP,163127.00,010125,,,,,,,00,0,,*61
$PTNL,AVR,163127.00,,Yaw,,Tilt,,,,0,,00*37
$GPGSA,A,3,18,25,26,28,29,31,,,,,,,1.3,0.6,1.2*3C
$GPGSA,A,3,78,79,80,81,82,88,,,,,,,1.3,0.6,1.2*3F
$GPGSA,A,3,13,15,21,27,30,,,,,,,,1.3,0.6,1.2*36
$GPGSA,A,3,08,11,13,23,25,34,43,,,,,,1.3,0.6,1.2*39
$GPGST,163127.00,2.186,0.929,0.586,28.460,0.863,0.679,3.033*6D
$GPGBS,163127.00,5.165,4.856,15.714,28,0.0001,-1.694,0.924*42
$GPGRS,163127.00,1,-0.9,0.6,0.6,-1.7,0.7,0.5,,,,,,*43
$GPGRS,163127.00,1,-4.0,0.6,-0.5,3.8,0.7,-1.9,,,,,,*60
$GPGRS,163127.00,1,-1.0,0.3,-2.3,0.8,3.2,,,,,,,*6A
$GPGRS,163127.00,1,-1.8,2.2,-1.2,1.6,-2.8,0.5,2.0,,,,,*4D
$GPGSV,4,1,16,29,70,051,51,16,12,302,26,20,19,047,,25,41,129,37*73
$GPGSV,4,2,16,05,25,083,29,18,48,185,42,26,41,301,36,28,42,232,41*79
$GPGSV,4,3,16,31,45,271,45,12,04,122,,04,04,325,31,11,04,038,*70
$GPGSV,4,4,16,36,35,170,38,34,31,208,35,49,34,195,37,61,03,257,*7E
$GLGSV,2,1,08,81,86,347,51,88,30,040,42,78,24,148,44,82,39,223,40*6F
$GLGSV,2,2,08,80,42,321,52,79,78,169,45,71,04,334,29,72,09,019,*63
$GAGSV,2,1,08,27,88,112,50,13,28,194,39,34,35,048,33,30,33,121,38*68
$GAGSV,2,2,08,21,36,302,42,15,67,129,38,19,07,284,23,04,04,337,25*65
$GBGSV,5,1,19,11,84,212,47,37,11,317,33,44,14,057,,05,21,129,*63
$GBGSV,5,2,19,38,30,054,33,13,36,080,40,25,52,180,35,08,36,070,38*68
$GBGSV,5,3,19,12,38,055,34,23,56,287,44,43,59,233,51,34,68,061,47*65
$GBGSV,5,4,19,22,05,052,,10,04,088,,02,06,107,,24,06,151,*62
$GBGSV,5,5,19,19,01,004,,56,09,072,,60,10,109,*5E
$GPGGA,163127.00,,,,,0,00,,,M,,M,,*48
$PTNL,GGK,163127.00,010125,4742.4463111,N,01617.9723443,E,1,24,1.3,EHT670.1670,M*43
$GPGGQ,163127.00,010125,4742.4463111,N,01617.9723443,E,1,24,3.225,626.9560,M*30
$GPGFA,163127.00,8.834,24.867,0.929,0.586,28.460,3.033,,VVV*09
$GPLLK,163127.00,010125,,M,,M,1,24,1.6,,M*0A
$GNGMP,163127.00,,,,,DAAA,24,0.6,,,,*56
$GPGMP,163127.00,,,,,,06,,,,1.7,123*7D
$GLGMP,163127.00,,,,,,06,,,,,*79
$GAGMP,163127.00,,,,,,05,,,,,*77
$GBGMP,163127.00,,,,,,07,,,,,*76
$PSSN,SNC,[0,318705000,2347]*4C
$GPZDA,163132.00,01,01,2025,,*67
$GPDTM,W84,,00.0000000,N,00.0000000,E,00.0000000,W84*5F
$GPRMC,163132.00,A,4742.4462921,N,01617.9723332,E,0.0,,010125,5.1,E,D*1E
$GPGLL,4742.4462921,N,01617.9723332,E,163132.00,A,D*6F
$GPGGA,163132.00,4742.4462921,N,01617.9723332,E,2,24,0.6,626.9648,M,43.2111,M,2.7,0123*42
$GNGNS,163132.00,4742.4462921,N,01617.9723332,E,DAAA,24,0.6,626.9648,43.2111,,*5B
$GPGNS,163132.00,,,,,,06,,,,2.7,123*7A
$GLGNS,163132.00,,,,,,06,,,,,*7D
$GAGNS,163132.00,,,,,,05,,,,,*73
$GBGNS,163132.00,,,,,,07,,,,,*72
$GPLLQ,163132.00,010125,,M,,M,1,24,4.176,,M*17
$GPVTG,,T,,M,0.00,N,0.01,K,D*27
$GPHDT,,T*1B
$GPTHS,,V*0E
$GPROT,,V*08
$PSSN,HRP,163132.00,010125,,,,,,,00,0,,*65
$PTNL,AVR,163132.00,,Yaw,,Tilt,,,,0,,00*33
$GPGSA,A,3,18,25,26,28,29,31,,,,,,,1.3,0.6,1.2*3C
$GPGSA,A,3,78,79,80,81,82,88,,,,,,,1.3,0.6,1.2*3F
$GPGSA,A,3,13,15,21,27,30,,,,,,,,1.3,0.6,1.2*36
$GPGSA,A,3,08,11,13,23,25,34,43,,,,,,1.3,0.6,1.2*39
$GPGST,163132.00,2.247,1.209,0.762,28.299,1.124,0.882,3.924*69
$GPGBS,163132.00,5.198,4.880,15.753,28,0.0001,-2.220,0.937*46
$GPGRS,163132.00,1,-0.7,1.1,2.3,-2.2,0.5,0.6,,,,,,*4F
$GPGRS,163132.00,1,-3.4,2.3,-0.7,3.5,0.2,-1.8,,,,,,*6B
$GPGRS,163132.00,1,-1.2,-0.5,-1.7,0.6,3.5,,,,,,,*49
$GPGRS,163132.00,1,-2.5,2.2,-1.8,2.3,-1.3,0.0,1.5,,,,,*40
$GPGSV,4,1,16,29,70,051,51,16,12,302,23,20,19,047,,25,41,129,38*79
$GPGSV,4,2,16,05,25,083,,18,48,185,43,26,42,301,35,28,42,232,40*72
$GPGSV,4,3,16,31,45,271,46,12,04,122,,04,04,325,29,11,04,038,*7A
$GPGSV,4,4,16,36,35,170,38,34,31,208,35,49,34,195,37,61,03,257,*7E
$GLGSV,2,1,08,81,86,347,51,88,30,040,43,78,24,149,44,82,40,223,40*61
$GLGSV,2,2,08,80,42,321,52,79,78,169,47,71,04,334,24,72,09,019,*6C
$GAGSV,2,1,08,27,88,112,51,13,28,194,38,34,35,048,32,30,33,121,39*68
$GAGSV,2,2,08,21,36,302,43,15,67,129,38,19,07,284,25,04,04,337,24*63
