$GPZDA,084442.00,01,01,2025,,*6D
$GPDTM,W84,,00.0000000,N,00.0000000,E,00.0000000,W84*5F
$GPRMC,084442.00,A,4742.4458088,N,01617.9736601,E,0.0,,010125,5.1,E,D*16
$GPGLL,4742.4458088,N,01617.9736601,E,084442.00,A,D*67
$GPGGA,084442.00,4742.4458088,N,01617.9736601,E,2,18,0.9,624.0312,M,43.2110,M,2.3,0123*4E
$GNGNS,084442.00,4742.4458088,N,01617.9736601,E,DAAA,18,0.9,624.0312,43.2110,,*53
$GPGNS,084442.00,,,,,,03,,,,2.3,123*71
$GLGNS,084442.00,,,,,,04,,,,,*75
$GAGNS,084442.00,,,,,,05,,,,,*79
$GBGNS,084442.00,,,,,,06,,,,,*79
$GPLLQ,084442.00,010125,,M,,M,1,18,6.277,,M*12
$GPVTG,,T,,M,0.01,N,0.01,K,D*26
$GPHDT,,T*1B
$GPTHS,,V*0E
$GPROT,,V*08
$PSSN,HRP,084442.00,010125,,,,,,,00,0,,*6F
$PTNL,AVR,084442.00,,Yaw,,Tilt,,,,0,,00*39
$GPGSA,A,3,13,14,30,,,,,,,,,,1.5,0.9,1.3*39
$GPGSA,A,3,65,66,75,76,,,,,,,,,1.5,0.9,1.3*3D
$GPGSA,A,3,02,03,08,25,26,,,,,,,,1.5,0.9,1.3*37
$GPGSA,A,3,14,21,26,40,42,45,,,,,,,1.5,0.9,1.3*3C
$GPGST,084442.00,2.886,3.407,1.448,18.144,3.269,1.737,5.069*6A
$GPGBS,084442.00,22.224,9.555,32.416,14,0.0001,1.371,0.641*58
$GPGRS,084442.00,1,-0.2,1.4,-0.6,,,,,,,,,*6F
$GPGRS,084442.00,1,-0.4,-3.6,-3.0,-4.2,,,,,,,,*44
$GPGRS,084442.00,1,-0.6,-0.7,-1.0,0.7,5.5,,,,,,,*44
$GPGRS,084442.00,1,-0.8,1.1,-0.2,-0.1,3.5,-1.6,,,,,,*4A
$GPGSV,5,1,17,13,82,310,44,20,12,198,19,24,11,267,24,23,11,327,34*7B
$GPGSV,5,2,17,05,36,224,36,17,13,128,,30,42,073,49,15,46,301,39*74
$GPGSV,5,3,17,22,64,151,,14,66,096,47,07,08,077,,08,05,026,*71
$GPGSV,5,4,17,18,02,296,,36,35,170,38,34,31,208,,49,34,195,*7E
$GPGSV,5,5,17,61,03,257,*4B
$GLGSV,3,1,09,65,77,184,46,74,17,043,24,72,20,150,25,66,44,321,49*6F
$GLGSV,3,2,09,76,43,229,45,75,71,031,45,82,01,324,34,83,09,001,27*6B
$GLGSV,3,3,09,84,02,059,*5E
$GAGSV,3,1,09,03,76,129,44,24,25,046,37,05,23,125,26,02,39,192,42*6E
$GAGSV,3,2,09,16,49,061,,08,49,303,39,25,66,100,44,13,04,279,24*68
$GAGSV,3,3,09,26,07,327,34*53
$GBGSV,5,1,18,45,73,063,48,22,18,159,22,05,20,130,,36,22,058,35*65
$GBGSV,5,2,18,14,22,316,40,40,28,056,41,56,23,088,,10,34,073,*68
$GBGSV,5,3,18,42,46,301,36,26,47,237,50,21,63,201,48,50,65,262,*6A
$GBGSV,5,4,18,30,06,057,,27,01,012,,02,04,109,,29,00,106,*61
$GBGSV,5,5,18,09,07,079,,60,07,112,*61
$GPGGA,084442.00,,,,,0,00,,,M,,M,,*46
$PTNL,GGK,084442.00,010125,4742.4458088,N,01617.9736601,E,1,18,1.5,EHT667.2422,M*4D
$GPGGQ,084442.00,010125,4742.4458088,N,01617.9736601,E,1,18,6.277,624.0312,M*32
$GPGFA,084442.00,32.395,41.568,3.407,1.448,18.144,5.069,,VVV*36
$GPLLK,084442.00,010125,,M,,M,1,18,1.8,,M*05
$GNGMP,084442.00,,,,,DAAA,18,0.9,,,,*58
$GPGMP,084442.00,,,,,,03,,,,2.3,123*71
$GLGMP,084442.00,,,,,,04,,,,,*75
$GAGMP,084442.00,,,,,,05,,,,,*79
$GBGMP,084442.00,,,,,,06,,,,,*79
$PSSN,SNC,[0,290700000,2347]*48
$GPZDA,084447.00,01,01,2025,,*68
$GPDTM,W84,,00.0000000,N,00.0000000,E,00.0000000,W84*5F
$GPRMC,084447.00,A,4742.4458096,N,01617.9736619,E,0.0,,010125,5.1,E,D*15
$GPGLL,4742.4458096,N,01617.9736619,E,084447.00,A,D*64
$GPGGA,084447.00,4742.4458096,N,01617.9736619,E,2,19,0.8,624.0228,M,43.2110,M,3.3,0123*44
$GNGNS,084447.00,4742.4458096,N,01617.9736619,E,DAAA,19,0.8,624.0228,43.2110,,*58
$GPGNS,084447.00,,,,,,03,,,,3.3,123*75
$GLGNS,084447.00,,,,,,04,,,,,*70
$GAGNS,084447.00,,,,,,05,,,,,*7C
$GBGNS,084447.00,,,,,,07,,,,,*7D
$GPLLQ,084447.00,010125,,M,,M,1,19,6.390,,M*1E
$GPVTG,,T,,M,0.00,N,0.00,K,D*26
$GPHDT,,T*1B
$GPTHS,,V*0E
$GPROT,,V*08
$PSSN,HRP,084447.00,010125,,,,,,,00,0,,*6A
$PTNL,AVR,084447.00,,Yaw,,Tilt,,,,0,,00*3C
$GPGSA,A,3,13,14,30,,,,,,,,,,1.4,0.8,1.2*38
$GPGSA,A,3,65,66,75,76,,,,,,,,,1.4,0.8,1.2*3C
$GPGSA,A,3,02,03,08,25,26,,,,,,,,1.4,0.8,1.2*36
$GPGSA,A,3,14,21,26,36,40,42,45,,,,,,1.4,0.8,1.2*38
$GPGST,084447.00,3.587,3.468,1.474,17.692,3.334,1.756,5.160*61
$GPGBS,084447.00,22.054,9.597,32.142,26,0.0001,8.956,6.396*5C
$GPGRS,084447.00,1,-0.4,0.9,-0.7,,,,,,,,,*61
$GPGRS,084447.00,1,-0.2,-4.4,-3.8,-4.2,,,,,,,,*4A
$GPGRS,084447.00,1,-0.6,-0.9,-1.1,0.4,9.0,,,,,,,*44
$GPGRS,084447.00,1,-0.6,0.0,-0.5,3.3,-0.2,2.1,-1.7,,,,,*6F
$GPGSV,5,1,17,13,82,310,45,20,12,198,,24,11,267,27,23,12,327,33*75
$GPGSV,5,2,17,05,36,224,37,17,14,128,,30,42,073,50,15,46,301,39*7A
$GPGSV,5,3,17,22,64,151,,14,66,096,47,07,08,077,,08,05,026,*71
$GPGSV,5,4,17,18,02,296,,36,35,170,38,34,31,208,,49,34,195,*7E
$GPGSV,5,5,17,61,03,257,*4B
$GLGSV,3,1,09,65,77,184,47,74,17,043,22,72,20,150,20,66,45,321,47*62
$GLGSV,3,2,09,76,43,229,43,75,71,031,46,82,01,324,32,83,09,001,27*68
$GLGSV,3,3,09,84,02,059,*5E
$GAGSV,3,1,09,03,76,129,45,24,25,046,37,05,23,125,29,02,39,192,41*63
$GAGSV,3,2,09,16,49,061,,08,49,303,39,25,66,100,45,13,04,279,21*6C
$GAGSV,3,3,09,26,07,327,35*52
$GBGSV,5,1,18,45,73,063,48,22,18,159,23,05,20,130,,36,22,058,36*67
$GBGSV,5,2,18,14,22,316,40,40,28,056,41,56,23,088,,10,34,073,*68
$GBGSV,5,3,18,42,46,301,37,26,47,237,50,21,63,200,50,50,65,262,*63
$GBGSV,5,4,18,30,06,057,,27,01,012,,02,04,109,,29,00,106,*61
$GBGSV,5,5,18,09,07,079,,60,07,112,*61
$GPGGA,084447.00,,,,,0,00,,,M,,M,,*43
$PTNL,GGK,084447.00,010125,4742.4458096,N,01617.9736619,E,1,19,1.4,EHT667.2338,M*42
$GPGGQ,084447.00,010125,4742.4458096,N,01617.9736619,E,1,19,6.390,624.0228,M*30
$GPGFA,084447.00,32.975,42.314,3.468,1.474,17.692,5.160,,VVV*34
$GPLLK,084447.00,010125,,M,,M,1,19,1.7,,M*0E
$GNGMP,084447.00,,,,,DAAA,19,0.8,,,,*5D
$GPGMP,084447.00,,,,,,03,,,,3.3,123*75
$GLGMP,084447.00,,,,,,04,,,,,*70
$GAGMP,084447.00,,,,,,05,,,,,*7C
$GBGMP,084447.00,,,,,,07,,,,,*7D
$PSSN,SNC,[0,290705000,2347]*4D
$GPZDA,084452.00,01,01,2025,,*6C
$GPDTM,W84,,00.0000000,N,00.0000000,E,00.0000000,W84*5F
$GPRMC,084452.00,A,4742.4458030,N,01617.9736552,E,0.0,,010125,5.1,E,D*11
$GPGLL,4742.4458030,N,01617.9736552,E,084452.00,A,D*60
$GPGGA,084452.00,4742.4458030,N,01617.9736552,E,2,20,0.8,624.0131,M,43.2110,M,3.3,0123*41
$GNGNS,084452.00,4742.4458030,N,01617.9736552,E,DAAA,20,0.8,624.0131,43.2110,,*5D
$GPGNS,084452.00,,,,,,04,,,,3.3,123*76
$GLGNS,084452.00,,,,,,04,,,,,*74
$GAGNS,084452.00,,,,,,05,,,,,*78
$GBGNS,084452.00,,,,,,07,,,,,*79
$GPLLQ,084452.00,010125,,M,,M,1,20,4.188,,M*19
$GPVTG,,T,,M,0.00,N,0.01,K,D*27
$GPHDT,,T*1B
$GPTHS,,V*0E
$GPROT,,V*08
$PSSN,HRP,084452.00,010125,,,,,,,00,0,,*6E
$PTNL,AVR,084452.00,,Yaw,,Tilt,,,,0,,00*38
$GPGSA,A,3,05,13,14,30,,,,,,,,,1.3,0.8,1.1*39
$GPGSA,A,3,65,66,75,76,,,,,,,,,1.3,0.8,1.1*38
$GPGSA,A,3,02,03,08,25,26,,,,,,,,1.3,0.8,1.1*32
$GPGSA,A,3,14,21,26,36,40,42,45,,,,,,1.3,0.8,1.1*3C
$GPGST,084452.00,4.037,2.748,0.905,333.512,2.492,1.469,3.027*59
$GPGBS,084452.00,7.678,5.115,10.415,05,0.0001,-2.267,0.803*4C
$GPGRS,084452.00,1,-2.3,0.4,1.4,-0.4,,,,,,,,*45
$GPGRS,084452.00,1,0.6,-4.4,-2.2,-2.4,,,,,,,,*6C
$GPGRS,084452.00,1,0.3,0.1,-0.9,0.8,12.2,,,,,,,*70
$GPGRS,084452.00,1,-1.0,0.4,-0.1,4.0,-0.1,2.3,-1.2,,,,,*6C
$GPGSV,5,1,17,13,82,310,45,20,12,198,,24,11,267,28,23,12,327,30*79
$GPGSV,5,2,17,05,36,224,39,17,14,128,,30,42,073,50,15,46,301,37*7A
$GPGSV,5,3,17,22,64,151,,14,66,096,48,07,08,077,,08,05,026,*7E
$GPGSV,5,4,17,18,02,296,,36,35,170,38,34,31,208,,49,34,195,*7E
$GPGSV,5,5,17,61,03,257,*4B
$GLGSV,3,1,09,65,77,184,47,74,17,043,22,72,20,150,32,66,45,321,45*63
$GLGSV,3,2,09,76,44,229,43,75,71,031,49,82,01,324,30,83,09,001,24*61
$GLGSV,3,3,09,84,02,059,*5E
$GAGSV,3,1,09,03,76,129,45,24,25,046,37,05,23,125,31,02,39,192,40*6B
$GAGSV,3,2,09,16,49,061,,08,49,303,40,25,66,100,46,13,04,279,21*61
$GAGSV,3,3,09,26,07,327,36*51
$GBGSV,5,1,18,45,73,063,48,22,18,159,23,05,20,130,,36,22,058,36*67
$GBGSV,5,2,18,14,22,316,39,40,28,056,41,56,23,088,,10,34,073,*66
$GBGSV,5,3,18,42,46,301,39,26,47,237,49,21,63,200,50,50,65,262,*65
$GBGSV,5,4,18,30,06,057,,27,01,012,,02,04,109,,29,00,106,*61
$GBGSV,5,5,18,09,07,079,,60,07,112,*61
$GPGGA,084452.00,,,,,0,00,,,M,,M,,*47
$PTNL,GGK,084452.00,010125,4742.4458030,N,01617.9736552,E,1,20,1.3,EHT667.2241,M*44
$GPGGQ,084452.00,010125,4742.4458030,N,01617.9736552,E,1,20,4.188,624.0131,M*3C
$GPGFA,084452.00,26.127,24.825,2.748,0.905,333.512,3.027,,VVV*03
$GPLLK,084452.00,010125,,M,,M,1,20,1.6,,M*01
$GNGMP,084452.00,,,,,DAAA,20,0.8,,,,*53
$GPGMP,084452.00,,,,,,04,,,,3.3,123*76
$GLGMP,084452.00,,,,,,04,,,,,*74
$GAGMP,084452.00,,,,,,05,,,,,*78
$GBGMP,084452.00,,,,,,07,,,,,*79
$PSSN,SNC,[0,290710000,2347]*49
$GPZDA,084457.00,01,01,2025,,*69
$GPDTM,W84,,00.0000000,N,00.0000000,E,00.0000000,W84*5F
$GPRMC,084457.00,A,4742.4457928,N,01617.9736431,E,0.0,,010125,5.1,E,D*1F
$GPGLL,4742.4457928,N,01617.9736431,E,084457.00,A,D*6E
$GPGGA,084457.00,4742.4457928,N,01617.9736431,E,2,20,0.8,623.9902,M,43.2110,M,1.3,0123*4B
$GNGNS,084457.00,4742.4457928,N,01617.9736431,E,DAAA,20,0.8,623.9902,43.2110,,*55
$GPGNS,084457.00,,,,,,04,,,,1.3,123*71
$GLGNS,084457.00,,,,,,04,,,,,*71
$GAGNS,084457.00,,,,,,05,,,,,*7D
$GBGNS,084457.00,,,,,,07,,,,,*7C
$GPLLQ,084457.00,010125,,M,,M,1,20,3.936,,M*16
$GPVTG,,T,,M,0.00,N,0.00,K,D*26
$GPHDT,,T*1B
$GPTHS,,V*0E
$GPROT,,V*08
$PSSN,HRP,084457.00,010125,,,,,,,00,0,,*6B
$PTNL,AVR,084457.00,,Yaw,,Tilt,,,,0,,00*3D
$GPGSA,A,3,05,13,14,30,,,,,,,,,1.3,0.8,1.1*39
$GPGSA,A,3,65,66,75,76,,,,,,,,,1.3,0.8,1.1*38
$GPGSA,A,3,02,03,08,25,26,,,,,,,,1.3,0.8,1.1*32
$GPGSA,A,3,14,21,26,36,40,42,45,,,,,,1.3,0.8,1.1*3C
$GPGST,084457.00,4.147,2.591,0.843,333.871,2.355,1.369,2.840*54
$GPGBS,084457.00,7.441,5.084,10.646,05,0.0001,-1.800,0.758*45
$GPGRS,084457.00,1,-1.8,0.5,1.3,-0.7,,,,,,,,*4D
$GPGRS,084457.00,1,0.4,-4.1,1.0,-1.5,,,,,,,,*40
$GPGRS,084457.00,1,0.2,-0.1,-1.2,0.3,12.8,,,,,,,*52
$GPGRS,084457.00,1,-1.3,-0.5,-0.2,4.4,-0.1,3.2,-1.0,,,,,*43
$GPGSV,5,1,17,13,82,310,46,20,12,198,,24,11,267,28,23,12,327,26*7D
$GPGSV,5,2,17,05,36,224,39,17,14,128,,30,42,073,50,15,46,301,37*7A
$GPGSV,5,3,17,22,64,151,,14,66,096,47,07,08,077,,08,05,026,*71
$GPGSV,5,4,17,18,02,296,28,36,35,170,38,34,31,208,,49,34,195,*74
$GPGSV,5,5,17,61,03,257,*4B
$GLGSV,3,1,09,65,77,184,47,74,17,043,23,72,20,150,31,66,45,321,46*62
$GLGSV,3,2,09,76,44,229,44,75,71,031,50,82,01,324,28,83,09,001,20*63
$GLGSV,3,3,09,84,02,059,*5E
$GAGSV,3,1,09,03,76,129,46,24,25,046,36,05,22,125,32,02,39,192,39*65
$GAGSV,3,2,09,16,49,061,,08,49,303,40,25,66,100,46,13,04,279,22*62
$GAGSV,3,3,09,26,07,327,36*51
$GBGSV,5,1,18,45,73,063,49,22,18,159,26,05,20,130,,36,22,058,37*62
$GBGSV,5,2,18,14,22,316,39,40,28,056,41,56,23,088,,10,34,073,*66
$GBGSV,5,3,18,42,46,301,41,26,47,237,48,21,63,200,49,50,65,262,*63
$GBGSV,5,4,18,30,06,057,,27,01,012,,02,04,109,,29,00,106,*61
$GBGSV,5,5,18,09,07,079,,60,07,112,*61
$GPGGA,084457.00,,,,,0,00,,,M,,M,,*42
$PTNL,GGK,084457.00,010125,4742.4457928,N,01617.9736431,E,1,20,1.3,EHT667.2012,M*4E
$GPGGQ,084457.00,010125,4742.4457928,N,01617.9736431,E,1,20,3.936,623.9902,M*3E
$GPGFA,084457.00,24.631,23.292,2.591,0.843,333.871,2.840,,VVV*00
$GPLLK,084457.00,010125,,M,,M,1,20,1.6,,M*04
$GNGMP,084457.00,,,,,DAAA,20,0.8,,,,*56
$GPGMP,084457.00,,,,,,04,,,,1.3,123*71
$GLGMP,084457.00,,,,,,04,,,,,*71
$GAGMP,084457.00,,,,,,05,,,,,*7D
$GBGMP,084457.00,,,,,,07,,,,,*7C
$PSSN,SNC,[0,290715000,2347]*4C
$GPZDA,084502.00,01,01,2025,,*68
$GPDTM,W84,,00.0000000,N,00.0000000,E,00.0000000,W84*5F
$GPRMC,084502.00,A,4742.4457911,N,01617.9736369,E,0.0,,010125,5.1,E,D*1E
$GPGLL,4742.4457911,N,01617.9736369,E,084502.00,A,D*6F
$GPGGA,084502.00,4742.4457911,N,01617.9736369,E,2,21,0.8,623.9714,M,43.2110,M,2.6,0123*44
$GNGNS,084502.00,4742.4457911,N,01617.9736369,E,DAAA,21,0.8,623.9714,43.2110,,*5C
$GPGNS,084502.00,,,,,,05,,,,2.6,123*77
$GLGNS,084502.00,,,,,,04,,,,,*70
$GAGNS,084502.00,,,,,,05,,,,,*7C
$GBGNS,084502.00,,,,,,07,,,,,*7D
$GPLLQ,084502.00,010125,,M,,M,1,21,2.793,,M*16
$GPVTG,,T,,M,0.00,N,0.00,K,D*26
$GPHDT,,T*1B
$GPTHS,,V*0E
$GPROT,,V*08
$PSSN,HRP,084502.00,010125,,,,,,,00,0,,*6A
$PTNL,AVR,084502.00,,Yaw,,Tilt,,,,0,,00*3C
$GPGSA,A,3,05,13,14,23,30,,,,,,,,1.3,0.8,1.1*38
$GPGSA,A,3,65,66,75,76,,,,,,,,,1.3,0.8,1.1*38
$GPGSA,A,3,02,03,08,25,26,,,,,,,,1.3,0.8,1.1*32
$GPGSA,A,3,14,21,26,36,40,42,45,,,,,,1.3,0.8,1.1*3C
$GPGST,084502.00,4.214,1.635,0.918,330.955,1.498,1.129,2.070*5D
$GPGBS,084502.00,5.373,4.525,9.464,26,0.0001,12.315,6.397*65
$GPGRS,084502.00,1,-0.9,0.3,0.9,-2.2,-0.7,,,,,,,*42
$GPGRS,084502.00,1,0.2,-3.3,1.5,-0.7,,,,,,,,*44
$GPGRS,084502.00,1,-0.5,0.2,-1.3,0.1,12.3,,,,,,,*5F
$GPGRS,084502.00,1,-1.7,-1.1,0.2,5.0,-0.2,6.7,-0.6,,,,,*6F
$GPGSV,5,1,17,13,82,310,46,20,12,198,,24,11,267,29,23,12,327,40*7C
$GPGSV,5,2,17,05,36,223,39,17,14,128,,30,41,074,51,15,46,301,36*79
$GPGSV,5,3,17,22,64,151,,14,66,096,46,07,08,077,,08,05,025,*73
$GPGSV,5,4,17,18,02,296,28,36,35,170,38,34,31,208,,49,34,195,*74
$GPGSV,5,5,17,61,03,257,*4B
$GLGSV,3,1,09,65,77,184,46,74,17,043,25,72,20,150,30,66,45,321,46*64
$GLGSV,3,2,09,76,44,229,45,75,71,031,49,82,01,324,25,83,09,001,*65
$GLGSV,3,3,09,84,02,059,*5E
$GAGSV,3,1,09,03,76,129,46,24,25,046,36,05,22,125,32,02,39,192,38*64
$GAGSV,3,2,09,16,49,061,,08,49,303,41,25,66,100,46,13,04,279,21*60
$GAGSV,3,3,09,26,07,327,36*51
$GBGSV,5,1,18,45,73,063,49,22,18,159,25,05,20,130,,36,22,058,38*6E
$GBGSV,5,2,18,14,22,316,39,40,28,056,41,56,23,088,,10,35,073,*67
$GBGSV,5,3,18,42,47,301,41,26,47,237,48,21,63,200,48,50,65,262,*63
$GBGSV,5,4,18,30,06,057,,27,01,012,,02,04,109,,29,00,106,*61
$GBGSV,5,5,18,09,07,079,,60,07,112,*61
$GPGGA,084502.00,,,,,0,00,,,M,,M,,*43
$PTNL,GGK,084502.00,010125,4742.4457911,N,01617.9736369,E,1,21,1.3,EHT667.1824,M*40
$GPGGQ,084502.00,010125,4742.4457911,N,01617.9736369,E,1,21,2.793,623.9714,M*37
$GPGFA,084502.00,15.549,16.971,1.635,0.918,330.955,2.070,,VVV*01
$GPLLK,084502.00,010125,,M,,M,1,21,1.5,,M*07
$GNGMP,084502.00,,,,,DAAA,21,0.8,,,,*56
$GPGMP,084502.00,,,,,,05,,,,2.6,123*77
$GLGMP,084502.00,,,,,,04,,,,,*70
$GAGMP,084502.00,,,,,,05,,,,,*7C
$GBGMP,084502.00,,,,,,07,,,,,*7D
$PSSN,SNC,[0,290720000,2347]*4A
$GPZDA,084507.00,01,01,2025,,*6D
$GPDTM,W84,,00.0000000,N,00.0000000,E,00.0000000,W84*5F
$GPRMC,084507.00,A,4742.4457995,N,01617.9736295,E,0.0,,010125,5.1,E,D*15
$GPGLL,4742.4457995,N,01617.9736295,E,084507.00,A,D*64
$GPGGA,084507.00,4742.4457995,N,01617.9736295,E,2,20,0.8,623.9439,M,43.2110,M,2.4,0123*40
$GNGNS,084507.00,4742.4457995,N,01617.9736295,E,DAAA,20,0.8,623.9439,43.2110,,*5A
$GPGNS,084507.00,,,,,,05,,,,2.4,123*70
$GLGNS,084507.00,,,,,,04,,,,,*75
$GAGNS,084507.00,,,,,,04,,,,,*78
$GBGNS,084507.00,,,,,,07,,,,,*78
$GPLLQ,084507.00,010125,,M,,M,1,20,1.715,,M*1F
$GPVTG,,T,,M,0.00,N,0.01,K,D*27
$GPHDT,,T*1B
$GPTHS,,V*0E
$GPROT,,V*08
$PSSN,HRP,084507.00,010125,,,,,,,00,0,,*6F
$PTNL,AVR,084507.00,,Yaw,,Tilt,,,,0,,00*39
$GPGSA,A,3,05,13,14,23,30,,,,,,,,1.4,0.8,1.1*3F
$GPGSA,A,3,65,66,75,76,,,,,,,,,1.4,0.8,1.1*3F
$GPGSA,A,3,02,03,08,25,,,,,,,,,1.4,0.8,1.1*31
$GPGSA,A,3,14,21,26,36,40,42,45,,,,,,1.4,0.8,1.1*3B
$GPGST,084507.00,3.681,0.897,0.575,329.875,0.828,0.671,1.344*56
$GPGBS,084507.00,5.498,4.540,9.614,23,0.0001,-2.165,1.172*76
$GPGRS,084507.00,1,-0.0,0.3,0.6,-2.2,-0.6,,,,,,,*40
$GPGRS,084507.00,1,0.1,-2.5,-1.7,-0.4,,,,,,,,*69
$GPGRS,084507.00,1,-1.1,0.7,-1.3,0.2,,,,,,,,*47
$GPGRS,084507.00,1,-1.1,-1.1,0.3,5.1,-0.1,11.3,-0.7,,,,,*5C
$GPGSV,5,1,17,13,83,310,47,20,12,198,23,24,11,267,28,23,12,327,39*72
$GPGSV,5,2,17,05,36,223,38,17,14,128,,30,41,074,51,15,46,301,37*79
$GPGSV,5,3,17,22,64,151,,14,66,096,44,07,08,077,,08,05,025,*71
$GPGSV,5,4,17,18,02,296,32,36,35,170,38,34,31,208,,49,34,195,*7F
$GPGSV,5,5,17,61,03,257,*4B
$GLGSV,3,1,09,65,76,184,46,74,17,043,27,72,20,150,31,66,45,321,46*66
$GLGSV,3,2,09,76,44,229,46,75,71,031,48,82,01,324,23,83,09,001,26*65
$GLGSV,3,3,09,84,02,059,*5E
$GAGSV,3,1,09,03,75,129,46,24,25,046,36,05,22,125,33,02,39,192,37*69
$GAGSV,3,2,09,16,49,061,,08,49,303,41,25,66,100,46,13,04,279,25*64
$GAGSV,3,3,09,26,07,327,36*51
$GBGSV,5,1,18,45,73,063,49,22,18,159,25,05,20,130,,36,22,058,38*6E
$GBGSV,5,2,18,14,22,316,39,40,28,056,41,56,23,088,,10,35,073,*67
$GBGSV,5,3,18,42,47,301,42,26,47,237,47,21,63,200,46,50,65,262,*61
$GBGSV,5,4,18,30,06,057,,27,01,012,,02,04,109,,29,00,106,*61
$GBGSV,5,5,18,09,07,079,,60,07,112,*61
$GPGGA,084507.00,,,,,0,00,,,M,,M,,*46
$PTNL,GGK,084507.00,010125,4742.4457995,N,01617.9736295,E,1,20,1.4,EHT667.1550,M*43
$GPGGQ,084507.00,010125,4742.4457995,N,01617.9736295,E,1,20,1.715,623.9439,M*3C
$GPGFA,084507.00,8.533,11.019,0.897,0.575,329.875,1.344,,VVV*39
$GPLLK,084507.00,010125,,M,,M,1,20,1.6,,M*00
$GNGMP,084507.00,,,,,DAAA,20,0.8,,,,*52
$GPGMP,084507.00,,,,,,05,,,,2.4,123*70
$GLGMP,084507.00,,,,,,04,,,,,*75
$GAGMP,084507.00,,,,,,04,,,,,*78
$GBGMP,084507.00,,,,,,07,,,,,*78
$PSSN,SNC,[0,290725000,2347]*4F
$GPZDA,084512.00,01,01,2025,,*69
$GPDTM,W84,,00.0000000,N,00.0000000,E,00.0000000,W84*5F
$GPRMC,084512.00,A,4742.4458007,N,01617.9736316,E,0.0,,010125,5.1,E,D*16
$GPGLL,4742.4458007,N,01617.9736316,E,084512.00,A,D*67
$GPGGA,084512.00,4742.4458007,N,01617.9736316,E,2,19,0.8,623.9338,M,43.2110,M,3.5,0123*4F
$GNGNS,084512.00,4742.4458007,N,01617.9736316,E,DAAA,19,0.8,623.9338,43.2110,,*55
$GPGNS,084512.00,,,,,,04,,,,3.5,123*75
$GLGNS,084512.00,,,,,,04,,,,,*71
$GAGNS,084512.00,,,,,,04,,,,,*7C
$GBGNS,084512.00,,,,,,07,,,,,*7C
$GPLLQ,084512.00,010125,,M,,M,1,19,2.456,,M*16
$GPVTG,,T,,M,0.00,N,0.00,K,D*26
$GPHDT,,T*1B
$GPTHS,,V*0E
$GPROT,,V*08
$PSSN,HRP,084512.00,010125,,,,,,,00,0,,*6B
$PTNL,AVR,084512.00,,Yaw,,Tilt,,,,0,,00*3D
$GPGSA,A,3,05,13,14,30,,,,,,,,,1.5,0.8,1.2*3C
$GPGSA,A,3,65,66,75,76,,,,,,,,,1.5,0.8,1.2*3D
$GPGSA,A,3,02,03,08,25,,,,,,,,,1.5,0.8,1.2*33
$GPGSA,A,3,14,21,26,36,40,42,45,,,,,,1.5,0.8,1.2*39
$GPGST,084512.00,4.037,1.659,0.472,333.816,1.503,0.846,1.748*5C
$GPGBS,084512.00,10.295,6.406,12.395,42,0.0001,12.351,8.539*66
$GPGRS,084512.00,1,-0.1,0.2,0.3,-0.5,,,,,,,,*41
$GPGRS,084512.00,1,-0.0,-2.1,-3.0,-0.2,,,,,,,,*46
$GPGRS,084512.00,1,-1.7,0.9,-1.9,-0.1,,,,,,,,*6F
$GPGRS,084512.00,1,-0.9,-0.9,-0.1,4.2,-0.4,12.4,-1.7,,,,,*75
$GPGSV,5,1,17,13,83,310,47,20,12,198,23,24,11,267,,23,12,327,24*74
$GPGSV,5,2,17,05,36,223,39,17,14,128,,30,41,074,52,15,46,301,38*74
$GPGSV,5,3,17,22,64,151,,14,66,095,43,07,08,077,,08,05,025,*75
$GPGSV,5,4,17,18,02,296,33,36,35,170,38,34,31,208,,49,34,195,*7E
$GPGSV,5,5,17,61,03,257,*4B
$GLGSV,3,1,09,65,76,184,45,74,17,043,30,72,20,151,31,66,45,321,46*62
$GLGSV,3,2,09,76,44,229,48,75,70,031,48,82,01,324,26,83,09,001,23*6A
$GLGSV,3,3,09,84,02,059,*5E
$GAGSV,3,1,09,03,75,129,47,24,25,046,35,05,22,125,33,02,39,192,36*6A
$GAGSV,3,2,09,16,49,061,,08,49,303,42,25,66,100,45,13,04,279,20*61
$GAGSV,3,3,09,26,07,327,35*52
$GBGSV,5,1,18,45,73,062,48,22,18,159,24,05,20,130,,36,22,058,37*60
$GBGSV,5,2,18,14,22,316,39,40,28,056,41,56,23,088,,10,35,073,*67
$GBGSV,5,3,18,42,47,301,42,26,47,237,46,21,63,200,45,50,65,262,*63
$GBGSV,5,4,18,30,06,057,,27,01,012,,02,04,109,,29,00,106,*61
$GBGSV,5,5,18,09,07,079,,60,07,112,*61
$GPGGA,084512.00,,,,,0,00,,,M,,M,,*42
$PTNL,GGK,084512.00,010125,4742.4458007,N,01617.9736316,E,1,19,1.5,EHT667.1449,M*42
$GPGGQ,084512.00,010125,4742.4458007,N,01617.9736316,E,1,19,2.456,623.9338,M*34
$GPGFA,084512.00,15.769,14.336,1.659,0.472,333.816,1.748,,VVV*0A
$GPLLK,084512.00,010125,,M,,M,1,19,1.8,,M*00
$GNGMP,084512.00,,,,,DAAA,19,0.8,,,,*5C
$GPGMP,084512.00,,,,,,04,,,,3.5,123*75
$GLGMP,084512.00,,,,,,04,,,,,*71
$GAGMP,084512.00,,,,,,04,,,,,*7C
$GBGMP,084512.00,,,,,,07,,,,,*7C
$PSSN,SNC,[0,290730000,2347]*4B
$GPZDA,084517.00,01,01,2025,,*6C
$GPDTM,W84,,00.0000000,N,00.0000000,E,00.0000000,W84*5F
$GPRMC,084517.00,A,4742.4458002,N,01617.9736324,E,0.0,,010125,5.1,E,D*17
$GPGLL,4742.4458002,N,01617.9736324,E,084517.00,A,D*66
$GPGGA,084517.00,4742.4458002,N,01617.9736324,E,2,19,0.8,623.9249,M,43.2110,M,1.5,0123*4B
$GNGNS,084517.00,4742.4458002,N,01617.9736324,E,DAAA,19,0.8,623.9249,43.2110,,*53
$GPGNS,084517.00,,,,,,04,,,,1.5,123*72
$GLGNS,084517.00,,,,,,04,,,,,*74
$GAGNS,084517.00,,,,,,04,,,,,*79
$GBGNS,084517.00,,,,,,07,,,,,*79
$GPLLQ,084517.00,010125,,M,,M,1,19,2.450,,M*15
$GPVTG,,T,,M,0.01,N,0.02,K,D*25
$GPHDT,,T*1B
$GPTHS,,V*0E
$GPROT,,V*08
$PSSN,HRP,084517.00,010125,,,,,,,00,0,,*6E
$PTNL,AVR,084517.00,,Yaw,,Tilt,,,,0,,00*38
$GPGSA,A,3,05,13,14,30,,,,,,,,,1.5,0.8,1.2*3C
$GPGSA,A,3,65,66,75,76,,,,,,,,,1.5,0.8,1.2*3D
$GPGSA,A,3,02,03,08,25,,,,,,,,,1.5,0.8,1.2*33
$GPGSA,A,3,14,21,26,36,40,42,45,,,,,,1.5,0.8,1.2*39
$GPGST,084517.00,3.808,1.650,0.474,334.037,1.498,0.839,1.748*52
$GPGBS,084517.00,10.132,6.342,12.675,42,0.0001,11.999,8.539*6C
$GPGRS,084517.00,1,-0.2,0.1,0.5,-0.5,,,,,,,,*42
$GPGRS,084517.00,1,-0.6,-1.9,-1.9,-0.2,,,,,,,,*45
$GPGRS,084517.00,1,-2.0,0.8,-1.7,-0.5,,,,,,,,*65
$GPGRS,084517.00,1,-1.1,-1.1,-0.2,2.4,-0.4,12.0,-2.4,,,,,*77
$GPGSV,5,1,17,13,83,310,48,20,12,198,25,24,11,267,,23,12,327,29*70
$GPGSV,5,2,17,05,36,223,39,17,14,128,,30,41,074,52,15,46,301,38*74
$GPGSV,5,3,17,22,64,151,,14,66,095,43,07,08,078,,08,05,025,*7A
$GPGSV,5,4,17,18,02,296,33,36,35,170,38,34,31,208,,49,34,195,*7E
$GPGSV,5,5,17,61,03,257,*4B
$GLGSV,3,1,09,65,76,184,44,74,17,043,30,72,20,151,34,66,45,321,47*67
$GLGSV,3,2,09,76,44,229,49,75,70,031,49,82,01,324,30,83,09,001,21*6F
$GLGSV,3,3,09,84,02,059,*5E
$GAGSV,3,1,09,03,75,129,46,24,25,046,35,05,22,125,33,02,39,192,36*6B
$GAGSV,3,2,09,16,48,061,,08,49,303,42,25,66,100,45,13,04,279,22*62
$GAGSV,3,3,09,26,07,327,34*53
$GBGSV,5,1,18,45,73,062,48,22,18,159,21,05,20,130,,36,22,058,36*64
$GBGSV,5,2,18,14,22,316,39,40,28,056,41,56,23,088,,10,35,073,*67
$GBGSV,5,3,18,42,47,301,41,26,47,237,46,21,62,200,44,50,65,262,*60
$GBGSV,5,4,18,30,06,057,,27,01,012,,02,04,109,,29,00,106,*61
$GBGSV,5,5,18,09,07,079,,60,07,112,*61
$GPGGA,084517.00,,,,,0,00,,,M,,M,,*47
$PTNL,GGK,084517.00,010125,4742.4458002,N,01617.9736324,E,1,19,1.5,EHT667.1359,M*45
$GPGGQ,084517.00,010125,4742.4458002,N,01617.9736324,E,1,19,2.450,623.9249,M*34
$GPGFA,084517.00,15.688,14.334,1.650,0.474,334.037,1.748,,VVV*00
$GPLLK,084517.00,010125,,M,,M,1,19,1.8,,M*05
$GNGMP,084517.00,,,,,DAAA,19,0.8,,,,*59
$GPGMP,084517.00,,,,,,04,,,,1.5,123*72
$GLGMP,084517.00,,,,,,04,,,,,*74
$GAGMP,084517.00,,,,,,04,,,,,*79
$GBGMP,084517.00,,,,,,07,,,,,*79
$PSSN,SNC,[0,290735000,2347]*4E
$GPZDA,084522.00,01,01,2025,,*6A
$GPDTM,W84,,00.0000000,N,00.0000000,E,00.0000000,W84*5F
$GPRMC,084522.00,A,4742.4458023,N,01617.9736298,E,0.0,,010125,5.1,E,D*14
$GPGLL,4742.4458023,N,01617.9736298,E,084522.00,A,D*65
$GPGGA,084522.00,4742.4458023,N,01617.9736298,E,2,18,0.8,623.9192,M,43.2110,M,2.5,0123*4F
$GNGNS,084522.00,4742.4458023,N,01617.9736298,E,DAAA,18,0.8,623.9192,43.2110,,*54
$GPGNS,084522.00,,,,,,04,,,,2.5,123*77
$GLGNS,084522.00,,,,,,04,,,,,*72
$GAGNS,084522.00,,,,,,04,,,,,*7F
$GBGNS,084522.00,,,,,,06,,,,,*7E
$GPLLQ,084522.00,010125,,M,,M,1,18,2.789,,M*15
$GPVTG,,T,,M,0.00,N,0.01,K,D*27
$GPHDT,,T*1B
$GPTHS,,V*0E
$GPROT,,V*08
$PSSN,HRP,084522.00,010125,,,,,,,00,0,,*68
$PTNL,AVR,084522.00,,Yaw,,Tilt,,,,0,,00*3E
$GPGSA,A,3,05,13,14,30,,,,,,,,,1.6,0.8,1.4*39
$GPGSA,A,3,65,66,75,76,,,,,,,,,1.6,0.8,1.4*38
$GPGSA,A,3,02,03,08,25,,,,,,,,,1.6,0.8,1.4*36
$GPGSA,A,3,14,21,26,40,42,45,,,,,,,1.6,0.8,1.4*39
$GPGST,084522.00,3.808,1.865,0.544,334.501,1.700,0.941,2.001*5B
$GPGBS,084522.00,10.168,6.381,13.018,42,0.0001,11.602,8.540*65
$GPGRS,084522.00,1,-0.4,0.2,0.7,-0.8,,,,,,,,*4E
$GPGRS,084522.00,1,-1.2,-1.3,-0.6,-0.2,,,,,,,,*42
$GPGRS,084522.00,1,-2.1,0.1,-1.4,-0.3,,,,,,,,*6E
$GPGRS,084522.00,1,-1.0,-2.2,-0.1,-1.0,11.6,-2.7,,,,,,*58
$GPGSV,5,1,17,13,83,310,48,20,12,198,25,24,11,267,22,23,12,327,30*78
$GPGSV,5,2,17,05,36,223,39,17,14,128,,30,41,074,51,15,46,301,39*76
$GPGSV,5,3,17,22,64,151,,14,66,095,42,07,08,078,,08,05,025,*7B
$GPGSV,5,4,17,18,02,296,31,36,35,170,38,34,31,208,,49,34,195,*7C
$GPGSV,5,5,17,61,03,257,*4B
$GLGSV,3,1,09,65,76,184,43,74,17,043,30,72,20,151,34,66,45,321,49*6E
$GLGSV,3,2,09,76,44,229,49,75,70,031,49,82,01,323,32,83,09,001,*69
$GLGSV,3,3,09,84,02,059,*5E
$GAGSV,3,1,09,03,75,129,46,24,25,046,35,05,22,125,32,02,39,192,37*6B
$GAGSV,3,2,09,16,48,061,,08,49,303,42,25,66,100,44,13,04,279,19*6B
$GAGSV,3,3,09,26,07,327,34*53
$GBGSV,5,1,18,45,72,062,47,22,18,159,31,05,20,130,,36,21,058,35*6B
$GBGSV,5,2,18,14,22,316,40,40,28,056,40,56,23,088,,10,35,073,*68
$GBGSV,5,3,18,42,47,301,38,26,47,237,46,21,62,200,43,50,65,261,*6A
$GBGSV,5,4,18,30,06,057,,27,01,012,,02,04,109,,29,00,106,*61
$GBGSV,5,5,18,09,07,079,,60,07,112,*61
$GPGGA,084522.00,,,,,0,00,,,M,,M,,*41
$PTNL,GGK,084522.00,010125,4742.4458023,N,01617.9736298,E,1,18,1.6,EHT667.1303,M*4B
$GPGGQ,084522.00,010125,4742.4458023,N,01617.9736298,E,1,18,2.789,623.9192,M*34
$GPGFA,084522.00,17.735,16.405,1.865,0.544,334.501,2.001,,VVV*07
$GPLLK,084522.00,010125,,M,,M,1,18,2.0,,M*09
$GNGMP,084522.00,,,,,DAAA,18,0.8,,,,*5E
$GPGMP,084522.00,,,,,,04,,,,2.5,123*77
$GLGMP,084522.00,,,,,,04,,,,,*72
$GAGMP,084522.00,,,,,,04,,,,,*7F
$GBGMP,084522.00,,,,,,06,,,,,*7E
$PSSN,SNC,[0,290740000,2347]*4C
$GPZDA,084527.00,01,01,2025,,*6F
$GPDTM,W84,,00.0000000,N,00.0000000,E,00.0000000,W84*5F
$GPRMC,084527.00,A,4742.4458013,N,01617.9736407,E,0.0,,010125,5.1,E,D*12
$GPGLL,4742.4458013,N,01617.9736407,E,084527.00,A,D*63
$GPGGA,084527.00,4742.4458013,N,01617.9736407,E,2,18,0.8,623.9034,M,43.2110,M,2.5,0123*44
$GNGNS,084527.00,4742.4458013,N,01617.9736407,E,DAAA,18,0.8,623.9034,43.2110,,*5F
$GPGNS,084527.00,,,,,,04,,,,2.5,123*72
$GLGNS,084527.00,,,,,,04,,,,,*77
$GAGNS,084527.00,,,,,,04,,,,,*7A
$GBGNS,084527.00,,,,,,06,,,,,*7B
$GPLLQ,084527.00,010125,,M,,M,1,18,2.696,,M*1F
$GPVTG,,T,,M,0.01,N,0.02,K,D*25
$GPHDT,,T*1B
$GPTHS,,V*0E
$GPROT,,V*08
$PSSN,HRP,084527.00,010125,,,,,,,00,0,,*6D
$PTNL,AVR,084527.00,,Yaw,,Tilt,,,,0,,00*3B
$GPGSA,A,3,05,13,14,30,,,,,,,,,1.6,0.8,1.4*39
$GPGSA,A,3,65,66,75,76,,,,,,,,,1.6,0.8,1.4*38
$GPGSA,A,3,02,03,08,25,,,,,,,,,1.6,0.8,1.4*36
$GPGSA,A,3,14,21,26,40,42,45,,,,,,,1.6,0.8,1.4*39
$GPGST,084527.00,3.268,1.814,0.522,334.150,1.648,0.920,1.925*52
$GPGBS,084527.00,10.308,6.401,12.475,30,0.0001,-1.059,0.753*7C
$GPGRS,084527.00,1,0.7,0.4,-0.1,-1.1,,,,,,,,*40
$GPGRS,084527.00,1,-1.7,-1.0,-2.0,-1.1,,,,,,,,*47
$GPGRS,084527.00,1,-1.5,-0.2,-1.2,-0.4,,,,,,,,*43
$GPGRS,084527.00,1,-0.4,-2.8,-0.1,-0.8,9.4,-2.3,,,,,,*64
$GPGSV,5,1,17,13,83,310,48,20,12,198,26,24,11,267,29,23,12,327,30*70
$GPGSV,5,2,17,05,36,223,41,17,14,128,,30,41,074,51,15,46,301,40*77
$GPGSV,5,3,17,22,64,150,,14,66,095,43,07,08,078,,08,05,025,*7B
$GPGSV,5,4,17,18,02,296,30,36,35,170,38,34,31,208,,49,34,195,*7D
$GPGSV,5,5,17,61,03,257,*4B
$GLGSV,3,1,09,65,76,184,42,74,17,043,29,72,20,151,33,66,45,321,50*68
$GLGSV,3,2,09,76,44,229,49,75,70,031,48,82,01,323,34,83,09,001,*6E
$GLGSV,3,3,09,84,02,059,*5E
$GAGSV,3,1,09,03,75,129,46,24,25,046,33,05,22,125,32,02,39,192,38*62
$GAGSV,3,2,09,16,48,061,,08,49,303,43,25,66,100,44,13,04,279,22*62
$GAGSV,3,3,09,26,07,327,34*53
$GBGSV,5,1,18,45,72,062,47,22,18,159,30,05,20,130,,36,21,058,33*6C
$GBGSV,5,2,18,14,22,316,40,40,28,056,41,56,23,088,,10,35,073,*69
$GBGSV,5,3,18,42,47,301,36,26,47,237,47,21,62,200,43,50,65,261,*65
$GBGSV,5,4,18,30,06,057,,27,01,012,,02,04,109,,29,00,106,*61
$GBGSV,5,5,18,09,07,079,,60,07,112,*61
$GPGGA,084527.00,,,,,0,00,,,M,,M,,*44
$PTNL,GGK,084527.00,010125,4742.4458013,N,01617.9736407,E,1,18,1.6,EHT667.1145,M*4D
$GPGGQ,084527.00,010125,4742.4458013,N,01617.9736407,E,1,18,2.696,623.9034,M*30
$GPGFA,084527.00,17.245,15.781,1.814,0.522,334.150,1.925,,VVV*06
$GPLLK,084527.00,010125,,M,,M,1,18,2.0,,M*0C
$GNGMP,084527.00,,,,,DAAA,18,0.8,,,,*5B
$GPGMP,084527.00,,,,,,04,,,,2.5,123*72
$GLGMP,084527.00,,,,,,04,,,,,*77
$GAGMP,084527.00,,,,,,04,,,,,*7A
$GBGMP,084527.00,,,,,,06,,,,,*7B
$PSSN,SNC,[0,290745000,2347]*49
$GPZDA,084532.00,01,01,2025,,*6B
$GPDTM,W84,,00.0000000,N,00.0000000,E,00.0000000,W84*5F
$GPRMC,084532.00,A,4742.4458085,N,01617.9736515,E,0.0,,010125,5.1,E,D*1B
$GPGLL,4742.4458085,N,01617.9736515,E,084532.00,A,D*6A
$GPGGA,084532.00,4742.4458085,N,01617.9736515,E,2,17,0.9,623.9072,M,43.2110,M,3.5,0123*40
$GNGNS,084532.00,4742.4458085,N,01617.9736515,E,DAAA,17,0.9,623.9072,43.2110,,*5A
$GPGNS,084532.00,,,,,,04,,,,3.5,123*77
$GLGNS,084532.00,,,,,,04,,,,,*73
$GAGNS,084532.00,,,,,,04,,,,,*7E
$GBGNS,084532.00,,,,,,05,,,,,*7C
$GPLLQ,084532.00,010125,,M,,M,1,17,2.915,,M*10
$GPVTG,,T,,M,0.01,N,0.01,K,D*26
$GPHDT,,T*1B
$GPTHS,,V*0E
$GPROT,,V*08
$PSSN,HRP,084532.00,010125,,,,,,,00,0,,*69
$PTNL,AVR,084532.00,,Yaw,,Tilt,,,,0,,00*3F
$GPGSA,A,3,05,13,14,30,,,,,,,,,1.7,0.9,1.4*39
$GPGSA,A,3,65,66,75,76,,,,,,,,,1.7,0.9,1.4*38
$GPGSA,A,3,02,03,08,25,,,,,,,,,1.7,0.9,1.4*36
$GPGSA,A,3,14,21,26,40,45,,,,,,,,1.7,0.9,1.4*3F
$GPGST,084532.00,1.670,1.982,0.557,333.707,1.794,1.010,2.063*55
$GPGBS,084532.00,10.510,6.539,12.578,05,0.0001,1.462,0.799*50
$GPGRS,084532.00,1,1.5,-0.0,-0.3,-0.8,,,,,,,,*64
$GPGRS,084532.00,1,-1.1,-1.3,-2.7,-1.0,,,,,,,,*40
$GPGRS,084532.00,1,-0.1,-0.1,-1.3,-0.5,,,,,,,,*41
$GPGRS,084532.00,1,0.0,-2.4,-0.2,-0.7,-2.4,,,,,,,*6D
$GPGSV,5,1,17,13,83,310,48,20,12,198,27,24,11,267,28,23,12,327,31*71
$GPGSV,5,2,17,05,36,223,41,17,14,128,,30,41,074,51,15,46,301,41*76
$GPGSV,5,3,17,22,64,150,,14,66,095,44,07,08,078,,08,05,025,*7C
$GPGSV,5,4,17,18,02,296,28,36,35,170,38,34,31,208,,49,34,195,*74
$GPGSV,5,5,17,61,03,257,*4B
$GLGSV,3,1,09,65,76,184,42,74,17,043,28,72,19,151,31,66,45,321,51*60
$GLGSV,3,2,09,76,44,230,50,75,70,031,49,82,01,323,31,83,09,001,*6A
$GLGSV,3,3,09,84,02,059,*5E
$GAGSV,3,1,09,03,75,129,46,24,25,046,32,05,22,125,32,02,39,192,40*6C
$GAGSV,3,2,09,16,48,061,,08,49,303,43,25,66,100,44,13,04,279,24*64
$GAGSV,3,3,09,26,07,327,33*54
$GBGSV,5,1,18,45,72,062,46,22,18,159,29,05,20,130,,36,21,058,32*64
$GBGSV,5,2,18,14,22,316,40,40,28,056,41,56,23,088,,10,35,073,*69
$GBGSV,5,3,18,42,47,301,34,26,47,237,48,21,62,200,42,50,65,261,*69
$GBGSV,5,4,18,30,06,056,,27,01,012,,02,04,109,,29,00,106,*60
$GBGSV,5,5,18,09,07,079,,60,07,112,*61
$GPGGA,084532.00,,,,,0,00,,,M,,M,,*40
$PTNL,GGK,084532.00,010125,4742.4458085,N,01617.9736515,E,1,17,1.7,EHT667.1182,M*41
$GPGGQ,084532.00,010125,4742.4458085,N,01617.9736515,E,1,17,2.915,623.9072,M*30
$GPGFA,084532.00,18.848,16.915,1.982,0.557,333.707,2.063,,VVV*0D
$GPLLK,084532.00,010125,,M,,M,1,17,2.0,,M*07
$GNGMP,084532.00,,,,,DAAA,17,0.9,,,,*51
$GPGMP,084532.00,,,,,,04,,,,3.5,123*77
$GLGMP,084532.00,,,,,,04,,,,,*73
$GAGMP,084532.00,,,,,,04,,,,,*7E
$GBGMP,084532.00,,,,,,05,,,,,*7C
$PSSN,SNC,[0,290750000,2347]*4D
$GPZDA,084537.00,01,01,2025,,*6E
$GPDTM,W84,,00.0000000,N,00.0000000,E,00.0000000,W84*5F
$GPRMC,084537.00,A,4742.4458152,N,01617.9736620,E,0.0,,010125,5.1,E,D*10
$GPGLL,4742.4458152,N,01617.9736620,E,084537.00,A,D*61
$GPGGA,084537.00,4742.4458152,N,01617.9736620,E,2,17,0.9,623.9200,M,43.2110,M,1.5,0123*4E
$GNGNS,084537.00,4742.4458152,N,01617.9736620,E,DAAA,17,0.9,623.9200,43.2110,,*56
$GPGNS,084537.00,,,,,,04,,,,1.5,123*70
$GLGNS,084537.00,,,,,,04,,,,,*76
$GAGNS,084537.00,,,,,,04,,,,,*7B
$GBGNS,084537.00,,,,,,05,,,,,*79
$GPLLQ,084537.00,010125,,M,,M,1,17,2.475,,M*1E
$GPVTG,,T,,M,0.01,N,0.01,K,D*26
$GPHDT,,T*1B
$GPTHS,,V*0E
$GPROT,,V*08
$PSSN,HRP,084537.00,010125,,,,,,,00,0,,*6C
$PTNL,AVR,084537.00,,Yaw,,Tilt,,,,0,,00*3A
$GPGSA,A,3,05,13,14,30,,,,,,,,,1.7,0.9,1.4*39
$GPGSA,A,3,65,66,75,76,,,,,,,,,1.7,0.9,1.4*38
$GPGSA,A,3,02,03,08,25,,,,,,,,,1.7,0.9,1.4*36
$GPGSA,A,3,14,21,26,40,45,,,,,,,,1.7,0.9,1.4*3F
$GPGST,084537.00,1.545,1.679,0.476,333.925,1.522,0.853,1.756*51
$GPGBS,084537.00,10.337,6.469,12.861,30,0.0001,-0.640,0.780*77
$GPGRS,084537.00,1,0.5,0.2,-0.2,-0.6,,,,,,,,*40
$GPGRS,084537.00,1,-1.1,-1.8,-1.6,-1.0,,,,,,,,*4C
$GPGRS,084537.00,1,0.7,0.1,-2.2,-0.5,,,,,,,,*40
$GPGRS,084537.00,1,-0.6,-1.8,-1.2,-0.1,-2.2,,,,,,,*4D
$GPGSV,5,1,17,13,83,310,48,20,12,198,26,24,11,267,28,23,12,327,31*70
$GPGSV,5,2,17,05,36,223,42,17,14,128,,30,41,074,51,15,46,301,42*76
$GPGSV,5,3,17,22,64,150,,14,66,095,43,07,08,078,,08,05,025,*7B
$GPGSV,5,4,17,18,02,296,25,36,35,170,37,34,31,208,,49,34,195,*76
$GPGSV,5,5,17,61,03,257,*4B
$GLGSV,3,1,09,65,76,184,42,74,17,043,29,72,19,151,30,66,45,321,51*60
$GLGSV,3,2,09,76,44,230,50,75,70,031,49,82,01,323,27,83,09,001,*6D
$GLGSV,3,3,09,84,02,059,*5E
$GAGSV,3,1,09,03,75,129,45,24,24,046,33,05,22,125,33,02,39,192,41*6F
$GAGSV,3,2,09,16,48,061,,08,49,303,43,25,66,099,44,13,04,279,27*66
$GAGSV,3,3,09,26,07,327,32*55
$GBGSV,5,1,18,45,72,062,46,22,18,159,28,05,20,130,,36,21,058,30*67
$GBGSV,5,2,18,14,22,316,40,40,28,056,41,56,23,088,,10,35,073,*69
$GBGSV,5,3,18,42,47,301,33,26,47,237,47,21,62,200,42,50,65,261,*61
$GBGSV,5,4,18,30,06,056,,27,01,012,,02,04,109,,29,00,106,*60
$GBGSV,5,5,18,09,07,079,,60,07,112,*61
$GPGGA,084537.00,,,,,0,00,,,M,,M,,*45
$PTNL,GGK,084537.00,010125,4742.4458152,N,01617.9736620,E,1,17,1.7,EHT667.1311,M*42
$GPGGQ,084537.00,010125,4742.4458152,N,01617.9736620,E,1,17,2.475,623.9200,M*37
$GPGFA,084537.00,15.961,14.397,1.679,0.476,333.925,1.756,,VVV*08
$GPLLK,084537.00,010125,,M,,M,1,17,2.0,,M*02
$GNGMP,084537.00,,,,,DAAA,17,0.9,,,,*54
$GPGMP,084537.00,,,,,,04,,,,1.5,123*70
$GLGMP,084537.00,,,,,,04,,,,,*76
$GAGMP,084537.00,,,,,,04,,,,,*7B
$GBGMP,084537.00,,,,,,05,,,,,*79
$PSSN,SNC,[0,290755000,2347]*48
$GPZDA,084542.00,01,01,2025,,*6C
$GPDTM,W84,,00.0000000,N,00.0000000,E,00.0000000,W84*5F
$GPRMC,084542.00,A,4742.4458188,N,01617.9736694,E,0.0,,010125,5.1,E,D*1A
$GPGLL,4742.4458188,N,01617.9736694,E,084542.00,A,D*6B
$GPGGA,084542.00,4742.4458188,N,01617.9736694,E,2,17,0.9,623.9128,M,43.2110,M,2.5,0123*4E
$GNGNS,084542.00,4742.4458188,N,01617.9736694,E,DAAA,17,0.9,623.9128,43.2110,,*55
$GPGNS,084542.00,,,,,,04,,,,2.5,123*71
$GLGNS,084542.00,,,,,,04,,,,,*74
$GAGNS,084542.00,,,,,,04,,,,,*79
$GBGNS,084542.00,,,,,,05,,,,,*7B
$GPLLQ,084542.00,010125,,M,,M,1,17,2.446,,M*1C
$GPVTG,,T,,M,0.00,N,0.01,K,D*27
$GPHDT,,T*1B
$GPTHS,,V*0E
$GPROT,,V*08
$PSSN,HRP,084542.00,010125,,,,,,,00,0,,*6E
$PTNL,AVR,084542.00,,Yaw,,Tilt,,,,0,,00*38
$GPGSA,A,3,05,13,14,30,,,,,,,,,1.7,0.9,1.4*39
$GPGSA,A,3,65,66,75,76,,,,,,,,,1.7,0.9,1.4*38
$GPGSA,A,3,02,03,08,25,,,,,,,,,1.7,0.9,1.4*36
$GPGSA,A,3,14,21,26,40,45,,,,,,,,1.7,0.9,1.4*3F
$GPGST,084542.00,1.435,1.651,0.473,334.241,1.501,0.834,1.742*51
$GPGBS,084542.00,10.366,6.515,13.005,13,0.0001,0.442,0.605*50
$GPGRS,084542.00,1,0.5,0.4,-0.4,-0.4,,,,,,,,*40
$GPGRS,084542.00,1,-1.2,-1.9,-0.8,-0.9,,,,,,,,*4B
$GPGRS,084542.00,1,0.4,0.4,-2.3,-0.3,,,,,,,,*43
$GPGRS,084542.00,1,0.2,-0.9,-1.9,-0.3,-1.7,,,,,,,*69
$GPGSV,5,1,17,13,83,310,48,20,12,198,26,24,11,267,27,23,12,327,32*7C
$GPGSV,5,2,17,05,36,223,43,17,14,128,,30,41,074,50,15,46,301,42*76
$GPGSV,5,3,17,22,64,150,,14,66,095,43,07,08,078,,08,05,025,*7B
$GPGSV,5,4,17,18,02,296,23,36,35,170,38,34,31,208,,49,34,195,*7F
$GPGSV,5,5,17,61,03,257,*4B
$GLGSV,3,1,09,65,76,184,41,74,17,043,29,72,19,151,31,66,45,321,51*62
$GLGSV,3,2,09,76,44,230,50,75,70,031,48,82,01,323,29,83,09,001,26*66
$GLGSV,3,3,09,84,02,059,*5E
$GAGSV,3,1,09,03,75,129,45,24,24,046,32,05,22,125,33,02,39,192,43*6C
$GAGSV,3,2,09,16,48,061,,08,49,303,42,25,66,099,44,13,04,279,28*68
$GAGSV,3,3,09,26,07,327,31*56
$GBGSV,5,1,18,45,72,062,45,22,18,159,26,05,20,130,,36,21,058,30*6A
$GBGSV,5,2,18,14,22,316,41,40,28,056,41,56,23,088,,10,35,073,*68
$GBGSV,5,3,18,42,47,301,33,26,47,237,47,21,62,200,43,50,65,261,*60
$GBGSV,5,4,18,30,06,056,,27,01,012,,02,04,109,,29,00,106,*60
$GBGSV,5,5,18,09,07,079,,60,07,112,*61
$GPGGA,084542.00,,,,,0,00,,,M,,M,,*47
$PTNL,GGK,084542.00,010125,4742.4458188,N,01617.9736694,E,1,17,1.7,EHT667.1239,M*43
$GPGGQ,084542.00,010125,4742.4458188,N,01617.9736694,E,1,17,2.446,623.9128,M*34
$GPGFA,084542.00,15.700,14.285,1.651,0.473,334.241,1.742,,VVV*05
$GPLLK,084542.00,010125,,M,,M,1,17,2.0,,M*00
$GNGMP,084542.00,,,,,DAAA,17,0.9,,,,*56
$GPGMP,084542.00,,,,,,04,,,,2.5,123*71
$GLGMP,084542.00,,,,,,04,,,,,*74
$GAGMP,084542.00,,,,,,04,,,,,*79
$GBGMP,084542.00,,,,,,05,,,,,*7B
$PSSN,SNC,[0,290760000,2347]*4E
$GPZDA,084547.00,01,01,2025,,*69
$GPDTM,W84,,00.0000000,N,00.0000000,E,00.0000000,W84*5F
$GPRMC,084547.00,A,4742.4458192,N,01617.9736810,E,0.0,,010125,5.1,E,D*16
$GPGLL,4742.4458192,N,01617.9736810,E,084547.00,A,D*67
$GPGGA,084547.00,4742.4458192,N,01617.9736810,E,2,17,0.9,623.9038,M,43.2110,M,2.5,0123*42
$GNGNS,084547.00,4742.4458192,N,01617.9736810,E,DAAA,17,0.9,623.9038,43.2110,,*59
$GPGNS,084547.00,,,,,,04,,,,2.5,123*74
$GLGNS,084547.00,,,,,,04,,,,,*71
$GAGNS,084547.00,,,,,,04,,,,,*7C
$GBGNS,084547.00,,,,,,05,,,,,*7E
$GPLLQ,084547.00,010125,,M,,M,1,17,2.474,,M*18
$GPVTG,,T,,M,0.01,N,0.02,K,D*25
$GPHDT,,T*1B
$GPTHS,,V*0E
$GPROT,,V*08
$PSSN,HRP,084547.00,010125,,,,,,,00,0,,*6B
$PTNL,AVR,084547.00,,Yaw,,Tilt,,,,0,,00*3D
$GPGSA,A,3,05,13,14,30,,,,,,,,,1.7,0.9,1.4*39
$GPGSA,A,3,65,66,75,76,,,,,,,,,1.7,0.9,1.4*38
$GPGSA,A,3,02,03,08,25,,,,,,,,,1.7,0.9,1.4*36
$GPGSA,A,3,14,21,26,40,45,,,,,,,,1.7,0.9,1.4*3F
$GPGST,084547.00,1.671,1.680,0.474,334.001,1.524,0.851,1.753*5F
$GPGBS,084547.00,10.520,6.543,12.457,13,0.0001,0.623,0.623*51
$GPGRS,084547.00,1,0.4,0.6,-0.2,-0.7,,,,,,,,*43
$GPGRS,084547.00,1,-1.7,-1.7,-1.5,-1.6,,,,,,,,*47
$GPGRS,084547.00,1,-0.2,0.0,-2.6,-0.7,,,,,,,,*68
$GPGRS,084547.00,1,0.7,-1.0,-1.5,-0.3,-2.3,,,,,,,*6A
$GPGSV,5,1,17,13,83,310,49,20,12,198,25,24,11,268,26,23,12,327,32*70
$GPGSV,5,2,17,05,36,223,44,17,14,128,,30,41,074,51,15,46,301,42*70
$GPGSV,5,3,17,22,64,150,,14,66,095,42,07,08,078,,08,05,025,*7A
$GPGSV,5,4,17,18,02,296,28,36,35,170,37,34,31,208,,49,34,195,*7B
$GPGSV,5,5,17,61,03,257,*4B
$GLGSV,3,1,10,65,76,184,42,74,17,043,31,72,19,151,29,66,45,321,52*6A
$GLGSV,3,2,10,76,44,230,49,75,70,031,48,77,00,227,,82,01,323,*6D
$GLGSV,3,3,10,83,09,001,,84,02,059,*65
$GAGSV,3,1,09,03,75,129,45,24,24,046,32,05,22,125,31,02,39,192,43*6E
$GAGSV,3,2,09,16,48,061,,08,49,303,42,25,66,099,45,13,04,279,28*69
$GAGSV,3,3,09,26,07,327,30*57
$GBGSV,5,1,18,45,72,062,45,22,18,159,26,05,20,130,,36,21,058,30*6A
$GBGSV,5,2,18,14,23,316,41,40,28,056,41,56,23,088,,10,35,073,*69
$GBGSV,5,3,18,42,47,301,35,26,47,237,47,21,62,200,44,50,65,261,*61
$GBGSV,5,4,18,30,06,056,,27,01,012,,02,04,109,,29,00,106,*60
$GBGSV,5,5,18,09,07,079,,60,07,112,*61
$GPGGA,084547.00,,,,,0,00,,,M,,M,,*42
$PTNL,GGK,084547.00,010125,4742.4458192,N,01617.9736810,E,1,17,1.7,EHT667.1148,M*4A
$GPGGQ,084547.00,010125,4742.4458192,N,01617.9736810,E,1,17,2.474,623.9038,M*39
$GPGFA,084547.00,15.970,14.373,1.680,0.474,334.001,1.753,,VVV*0C
$GPLLK,084547.00,010125,,M,,M,1,17,2.0,,M*05
$GNGMP,084547.00,,,,,DAAA,17,0.9,,,,*53
$GPGMP,084547.00,,,,,,04,,,,2.5,123*74
$GLGMP,084547.00,,,,,,04,,,,,*71
$GAGMP,084547.00,,,,,,04,,,,,*7C
$GBGMP,084547.00,,,,,,05,,,,,*7E
$PSSN,SNC,[0,290765000,2347]*4B
$GPZDA,084552.00,01,01,2025,,*6D
$GPDTM,W84,,00.0000000,N,00.0000000,E,00.0000000,W84*5F
$GPRMC,084552.00,A,4742.4458253,N,01617.9736887,E,0.0,,010125,5.1,E,D*12
$GPGLL,4742.4458253,N,01617.9736887,E,084552.00,A,D*63
$GPGGA,084552.00,4742.4458253,N,01617.9736887,E,2,19,0.7,623.9024,M,43.2110,M,3.5,0123*4A
$GNGNS,084552.00,4742.4458253,N,01617.9736887,E,DAAA,19,0.7,623.9024,43.2110,,*50
$GPGNS,084552.00,,,,,,04,,,,3.5,123*71
$GLGNS,084552.00,,,,,,05,,,,,*74
$GAGNS,084552.00,,,,,,04,,,,,*78
$GBGNS,084552.00,,,,,,06,,,,,*79
$GPLLQ,084552.00,010125,,M,,M,1,19,2.877,,M*1D
$GPVTG,,T,,M,0.01,N,0.02,K,D*25
$GPHDT,,T*1B
$GPTHS,,V*0E
$GPROT,,V*08
$PSSN,HRP,084552.00,010125,,,,,,,00,0,,*6F
$PTNL,AVR,084552.00,,Yaw,,Tilt,,,,0,,00*39
$GPGSA,A,3,05,13,14,30,,,,,,,,,1.4,0.7,1.2*32
$GPGSA,A,3,65,66,72,75,76,,,,,,,,1.4,0.7,1.2*36
$GPGSA,A,3,02,03,08,25,,,,,,,,,1.4,0.7,1.2*3D
$GPGSA,A,3,14,21,26,40,42,45,,,,,,,1.4,0.7,1.2*32
$GPGST,084552.00,4.427,1.917,0.558,333.975,1.740,0.979,2.072*50
$GPGBS,084552.00,9.782,6.146,12.563,42,0.0001,12.220,8.542*5C
$GPGRS,084552.00,1,0.7,-0.0,0.3,-0.8,,,,,,,,*4C
$GPGRS,084552.00,1,-1.1,-1.9,6.8,-2.8,-2.0,,,,,,,*60
$GPGRS,084552.00,1,-0.8,-0.4,-2.4,-1.1,,,,,,,,*4A
$GPGRS,084552.00,1,1.0,-1.2,-0.6,-0.9,12.2,-3.3,,,,,,*7C
$GPGSV,5,1,17,13,83,310,49,20,11,198,26,24,11,268,25,23,12,327,32*73
$GPGSV,5,2,17,05,35,223,45,17,14,128,,30,41,074,51,15,47,301,42*73
$GPGSV,5,3,17,22,64,150,,14,66,095,41,07,08,078,,08,05,025,*79
$GPGSV,5,4,17,18,02,296,28,36,35,170,38,34,31,208,,49,34,195,*74
$GPGSV,5,5,17,61,03,257,*4B
$GLGSV,3,1,10,65,76,184,44,74,17,043,31,72,19,151,36,66,45,321,51*61
$GLGSV,3,2,10,76,44,230,49,75,70,031,46,77,00,227,,82,01,323,29*68
$GLGSV,3,3,10,83,09,001,,84,03,058,*65
$GAGSV,3,1,09,03,75,129,45,24,24,046,33,05,22,125,27,02,39,192,43*68
$GAGSV,3,2,09,16,48,061,,08,49,303,41,25,66,099,45,13,04,279,24*66
$GAGSV,3,3,09,26,07,327,28*5E
$GBGSV,5,1,18,45,72,062,44,22,18,159,23,05,20,130,,36,21,058,30*6E
$GBGSV,5,2,18,14,23,316,41,40,28,056,40,56,24,088,,10,35,073,*6F
$GBGSV,5,3,18,42,47,301,36,26,47,237,47,21,62,200,46,50,65,261,*60
$GBGSV,5,4,18,30,07,056,,27,01,012,,02,04,109,,29,00,106,*61
$GBGSV,5,5,18,09,07,079,,60,07,112,*61
$GPGGA,084552.00,,,,,0,00,,,M,,M,,*46
$PTNL,GGK,084552.00,010125,4742.4458253,N,01617.9736887,E,1,19,1.4,EHT667.1134,M*48
$GPGGQ,084552.00,010125,4742.4458253,N,01617.9736887,E,1,19,2.877,623.9024,M*31
$GPGFA,084552.00,18.224,16.988,1.917,0.558,333.975,2.072,,VVV*07
$GPLLK,084552.00,010125,,M,,M,1,19,1.6,,M*0A
$GNGMP,084552.00,,,,,DAAA,19,0.7,,,,*57
$GPGMP,084552.00,,,,,,04,,,,3.5,123*71
$GLGMP,084552.00,,,,,,05,,,,,*74
$GAGMP,084552.00,,,,,,04,,,,,*78
$GBGMP,084552.00,,,,,,06,,,,,*79
$PSSN,SNC,[0,290770000,2347]*4F
$GPZDA,084557.00,01,01,2025,,*68
$GPDTM,W84,,00.0000000,N,00.0000000,E,00.0000000,W84*5F
$GPRMC,084557.00,A,4742.4458297,N,01617.9736935,E,0.0,,010125,5.1,E,D*17
$GPGLL,4742.4458297,N,01617.9736935,E,084557.00,A,D*66
$GPGGA,084557.00,4742.4458297,N,01617.9736935,E,2,18,0.8,623.9047,M,43.2110,M,1.5,0123*46
$GNGNS,084557.00,4742.4458297,N,01617.9736935,E,DAAA,18,0.8,623.9047,43.2110,,*5E
$GPGNS,084557.00,,,,,,04,,,,1.5,123*76
$GLGNS,084557.00,,,,,,04,,,,,*70
$GAGNS,084557.00,,,,,,04,,,,,*7D
$GBGNS,084557.00,,,,,,06,,,,,*7C
$GPLLQ,084557.00,010125,,M,,M,1,18,3.796,,M*18
$GPVTG,,T,,M,0.00,N,0.00,K,D*26
$GPHDT,,T*1B
$GPTHS,,V*0E
$GPROT,,V*08
$PSSN,HRP,084557.00,010125,,,,,,,00,0,,*6A
$PTNL,AVR,084557.00,,Yaw,,Tilt,,,,0,,00*3C
$GPGSA,A,3,05,13,14,30,,,,,,,,,1.6,0.8,1.4*39
$GPGSA,A,3,65,66,75,76,,,,,,,,,1.6,0.8,1.4*38
$GPGSA,A,3,02,03,08,25,,,,,,,,,1.6,0.8,1.4*36
$GPGSA,A,3,14,21,26,40,42,45,,,,,,,1.6,0.8,1.4*39
$GPGST,084557.00,4.761,2.583,0.728,333.883,2.341,1.311,2.686*55
$GPGBS,084557.00,10.264,6.448,12.821,14,0.0001,1.197,0.637*5B
$GPGRS,084557.00,1,0.4,-0.6,1.2,-1.0,,,,,,,,*45
$GPGRS,084557.00,1,-0.4,-3.2,-3.9,-2.0,,,,,,,,*48
$GPGRS,084557.00,1,-1.1,-0.4,-1.9,-0.9,,,,,,,,*40
$GPGRS,084557.00,1,1.6,-1.1,-0.1,-0.9,13.7,-4.3,,,,,,*78
$GPGSV,5,1,17,13,83,310,48,20,11,198,,24,11,268,32,23,12,327,35*77
$GPGSV,5,2,17,05,35,223,45,17,14,128,,30,41,074,50,15,47,301,41*71
$GPGSV,5,3,17,22,64,150,,14,66,095,41,07,08,078,,08,05,025,*79
$GPGSV,5,4,17,18,02,296,23,36,35,170,38,34,31,208,,49,34,195,*7F
$GPGSV,5,5,17,61,03,257,*4B
$GLGSV,3,1,10,65,76,183,45,74,17,043,31,72,19,151,31,66,45,321,50*61
$GLGSV,3,2,10,76,44,230,48,75,70,031,45,77,00,227,,82,01,323,*61
$GLGSV,3,3,10,83,09,001,28,84,03,058,*6F
$GAGSV,3,1,09,03,75,129,45,24,24,046,33,05,22,125,23,02,39,192,43*6C
$GAGSV,3,2,09,16,48,061,,08,49,303,41,25,66,099,45,13,04,279,21*63
$GAGSV,3,3,09,26,07,327,27*51
$GBGSV,5,1,18,45,72,062,43,22,18,159,21,05,20,130,,36,21,058,29*63
$GBGSV,5,2,18,14,23,316,41,40,28,056,40,56,24,088,,10,35,073,*6F
$GBGSV,5,3,18,42,47,301,35,26,47,237,47,21,62,200,47,50,65,261,*62
$GBGSV,5,4,18,30,07,056,,27,01,012,,02,04,109,,29,00,106,*61
$GBGSV,5,5,18,09,07,079,,60,07,112,*61
$GPGGA,084557.00,,,,,0,00,,,M,,M,,*43
$PTNL,GGK,084557.00,010125,4742.4458297,N,01617.9736935,E,1,18,1.6,EHT667.1157,M*4B
$GPGGQ,084557.00,010125,4742.4458297,N,01617.9736935,E,1,18,3.796,623.9047,M*31
$GPGFA,084557.00,24.555,22.023,2.583,0.728,333.883,2.686,,VVV*01
$GPLLK,084557.00,010125,,M,,M,1,18,2.0,,M*0B
$GNGMP,084557.00,,,,,DAAA,18,0.8,,,,*5C
$GPGMP,084557.00,,,,,,04,,,,1.5,123*76
$GLGMP,084557.00,,,,,,04,,,,,*70
$GAGMP,084557.00,,,,,,04,,,,,*7D
$GBGMP,084557.00,,,,,,06,,,,,*7C
$PSSN,SNC,[0,290775000,2347]*4A
$GPZDA,084602.00,01,01,2025,,*6B
$GPDTM,W84,,00.0000000,N,00.0000000,E,00.0000000,W84*5F
$GPRMC,084602.00,A,4742.4458366,N,01617.9736933,E,0.0,,010125,5.1,E,D*1D
$GPGLL,4742.4458366,N,01617.9736933,E,084602.00,A,D*6C
$GPGGA,084602.00,4742.4458366,N,01617.9736933,E,2,18,0.8,623.9024,M,43.2110,M,2.2,0123*4D
$GNGNS,084602.00,4742.4458366,N,01617.9736933,E,DAAA,18,0.8,623.9024,43.2110,,*51
$GPGNS,084602.00,,,,,,05,,,,2.2,123*70
$GLGNS,084602.00,,,,,,04,,,,,*73
$GAGNS,084602.00,,,,,,04,,,,,*7E
$GBGNS,084602.00,,,,,,05,,,,,*7C
$GPLLQ,084602.00,010125,,M,,M,1,18,1.570,,M*13
$GPVTG,,T,,M,0.01,N,0.01,K,D*26
$GPHDT,,T*1B
$GPTHS,,V*0E
$GPROT,,V*08
$PSSN,HRP,084602.00,010125,,,,,,,00,0,,*69
$PTNL,AVR,084602.00,,Yaw,,Tilt,,,,0,,00*3F
$GPGSA,A,3,05,13,14,23,30,,,,,,,,1.5,0.8,1.3*3C
$GPGSA,A,3,65,66,75,76,,,,,,,,,1.5,0.8,1.3*3C
$GPGSA,A,3,02,03,08,25,,,,,,,,,1.5,0.8,1.3*32
$GPGSA,A,3,14,21,26,40,45,,,,,,,,1.5,0.8,1.3*3B
$GPGST,084602.00,2.230,0.822,0.532,328.195,0.753,0.626,1.227*51
$GPGBS,084602.00,5.375,4.664,9.570,30,0.0001,-0.991,0.799*71
$GPGRS,084602.00,1,0.5,-0.3,0.7,-0.0,-1.0,,,,,,,*45
$GPGRS,084602.00,1,-0.5,-3.6,-3.8,-1.6,,,,,,,,*4A
$GPGRS,084602.00,1,-1.1,0.0,-1.0,-0.7,,,,,,,,*6D
$GPGRS,084602.00,1,2.3,-0.5,0.2,-1.0,-3.7,,,,,,,*46
$GPGSV,5,1,17,13,83,310,48,20,11,198,23,24,11,268,30,23,12,327,35*74
$GPGSV,5,2,17,05,35,223,44,17,14,128,,30,41,074,49,15,47,301,41*78
$GPGSV,5,3,17,22,64,150,,14,66,095,40,07,08,078,,08,05,025,*78
$GPGSV,5,4,17,18,01,296,30,36,35,170,38,34,31,208,,49,34,195,*7E
$GPGSV,5,5,17,61,03,257,*4B
$GLGSV,3,1,10,65,76,183,46,74,16,043,30,72,19,151,33,66,45,321,49*68
$GLGSV,3,2,10,76,44,230,48,75,70,031,45,77,00,227,,82,01,323,26*65
$GLGSV,3,3,10,83,09,001,31,84,03,058,*67
$GAGSV,3,1,09,03,75,129,45,24,24,046,32,05,22,125,31,02,40,192,42*61
$GAGSV,3,2,09,16,48,061,,08,49,303,41,25,66,099,45,13,04,279,23*61
$GAGSV,3,3,09,26,07,327,27*51
$GBGSV,5,1,18,45,72,062,44,22,18,159,27,05,20,130,,36,21,058,25*6E
$GBGSV,5,2,18,14,23,316,41,40,28,056,39,56,24,088,,10,35,073,*61
$GBGSV,5,3,18,42,47,301,34,26,47,237,47,21,62,200,48,50,65,261,*6C
$GBGSV,5,4,18,30,07,056,,27,01,012,,02,04,109,,29,00,106,*61
$GBGSV,5,5,18,09,07,079,,60,07,112,*61
$GPGGA,084602.00,,,,,0,00,,,M,,M,,*40
$PTNL,GGK,084602.00,010125,4742.4458366,N,01617.9736933,E,1,18,1.5,EHT667.1135,M*46
$GPGGQ,084602.00,010125,4742.4458366,N,01617.9736933,E,1,18,1.570,623.9024,M*36
$GPGFA,084602.00,7.820,10.062,0.822,0.532,328.195,1.227,,VVV*3D
$GPLLK,084602.00,010125,,M,,M,1,18,1.8,,M*03
$GNGMP,084602.00,,,,,DAAA,18,0.8,,,,*5F
$GPGMP,084602.00,,,,,,05,,,,2.2,123*70
$GLGMP,084602.00,,,,,,04,,,,,*73
$GAGMP,084602.00,,,,,,04,,,,,*7E
$GBGMP,084602.00,,,,,,05,,,,,*7C
$PSSN,SNC,[0,290780000,2347]*40
$GPZDA,084607.00,01,01,2025,,*6E
$GPDTM,W84,,00.0000000,N,00.0000000,E,00.0000000,W84*5F
$GPRMC,084607.00,A,4742.4458347,N,01617.9737069,E,0.0,,010125,5.1,E,D*1C
$GPGLL,4742.4458347,N,01617.9737069,E,084607.00,A,D*6D
$GPGGA,084607.00,4742.4458347,N,01617.9737069,E,2,19,0.8,623.9046,M,43.2110,M,2.3,0123*48
$GNGNS,084607.00,4742.4458347,N,01617.9737069,E,DAAA,19,0.8,623.9046,43.2110,,*55
$GPGNS,084607.00,,,,,,06,,,,2.3,123*77
$GLGNS,084607.00,,,,,,04,,,,,*76
$GAGNS,084607.00,,,,,,04,,,,,*7B
$GBGNS,084607.00,,,,,,05,,,,,*79
$GPLLQ,084607.00,010125,,M,,M,1,19,2.926,,M*1B
$GPVTG,,T,,M,0.00,N,0.01,K,D*27
$GPHDT,,T*1B
$GPTHS,,V*0E
$GPROT,,V*08
$PSSN,HRP,084607.00,010125,,,,,,,00,0,,*6C
$PTNL,AVR,084607.00,,Yaw,,Tilt,,,,0,,00*3A
$GPGSA,A,3,05,13,14,15,23,30,,,,,,,1.5,0.8,1.3*38
$GPGSA,A,3,65,66,75,76,,,,,,,,,1.5,0.8,1.3*3C
$GPGSA,A,3,02,03,08,25,,,,,,,,,1.5,0.8,1.3*32
$GPGSA,A,3,14,21,26,40,45,,,,,,,,1.5,0.8,1.3*3B
$GPGST,084607.00,2.187,1.322,0.981,355.269,1.320,0.983,2.419*56
$GPGBS,084607.00,5.612,3.721,7.616,15,0.0001,2.304,0.680*5D
$GPGRS,084607.00,1,-0.0,-0.9,1.0,2.3,0.4,-1.8,,,,,,*6A
$GPGRS,084607.00,1,-0.9,-2.6,-3.7,-1.8,,,,,,,,*43
$GPGRS,084607.00,1,-1.3,-0.5,-1.3,-1.1,,,,,,,,*46
$GPGRS,084607.00,1,2.2,-1.0,-0.8,-1.3,-3.0,,,,,,,*65
$GPGSV,5,1,17,13,83,310,48,20,11,198,,24,11,268,29,23,12,327,36*7E
$GPGSV,5,2,17,05,35,223,43,17,14,128,,30,41,074,48,15,47,301,41*7E
$GPGSV,5,3,17,22,65,150,,14,66,094,42,07,08,078,,08,05,025,*7A
$GPGSV,5,4,17,18,01,295,,36,35,170,38,34,31,208,,49,34,195,*7E
$GPGSV,5,5,17,61,03,257,*4B
$GLGSV,3,1,10,65,76,183,46,74,16,043,30,72,19,151,33,76,44,230,47*67
$GLGSV,3,2,10,66,45,321,50,75,70,031,47,77,00,227,,82,01,323,28*61
$GLGSV,3,3,10,83,09,001,31,84,03,058,*67
$GAGSV,3,1,09,03,75,130,45,24,24,046,33,05,22,125,22,02,40,192,41*69
$GAGSV,3,2,09,16,48,061,,08,49,303,41,25,66,099,45,13,04,279,20*62
$GAGSV,3,3,09,26,07,327,24*52
$GBGSV,5,1,18,45,72,062,44,22,18,159,28,05,20,130,,36,21,058,24*60
$GBGSV,5,2,18,14,23,316,40,40,28,056,39,56,24,088,,10,35,073,*60
$GBGSV,5,3,18,42,47,301,32,26,47,237,47,21,62,200,48,50,65,261,*6A
$GBGSV,5,4,18,30,07,056,,27,01,012,,02,04,109,,29,01,106,*60
$GBGSV,5,5,18,09,07,079,,60,07,112,*61
$GPGGA,084607.00,,,,,0,00,,,M,,M,,*45
$PTNL,GGK,084607.00,010125,4742.4458347,N,01617.9737069,E,1,19,1.5,EHT667.1157,M*42
$GPGGQ,084607.00,010125,4742.4458347,N,01617.9737069,E,1,19,2.926,623.9046,M*3E
$GPGFA,084607.00,12.570,19.835,1.322,0.981,355.269,2.419,,VVV*0B
$GPLLK,084607.00,010125,,M,,M,1,19,1.8,,M*07
$GNGMP,084607.00,,,,,DAAA,19,0.8,,,,*5B
$GPGMP,084607.00,,,,,,06,,,,2.3,123*77
$GLGMP,084607.00,,,,,,04,,,,,*76
$GAGMP,084607.00,,,,,,04,,,,,*7B
$GBGMP,084607.00,,,,,,05,,,,,*79
$PSSN,SNC,[0,290785000,2347]*45
$GPZDA,084612.00,01,01,2025,,*6A
$GPDTM,W84,,00.0000000,N,00.0000000,E,00.0000000,W84*5F
$GPRMC,084612.00,A,4742.4458268,N,01617.9737233,E,0.0,,010125,5.1,E,D*19
$GPGLL,4742.4458268,N,01617.9737233,E,084612.00,A,D*68
$GPGGA,084612.00,4742.4458268,N,01617.9737233,E,2,20,0.8,623.8976,M,43.2110,M,3.3,0123*4D
$GNGNS,084612.00,4742.4458268,N,01617.9737233,E,DAAA,20,0.8,623.8976,43.2110,,*51
$GPGNS,084612.00,,,,,,06,,,,3.3,123*72
$GLGNS,084612.00,,,,,,04,,,,,*72
$GAGNS,084612.00,,,,,,04,,,,,*7F
$GBGNS,084612.00,,,,,,06,,,,,*7E
$GPLLQ,084612.00,010125,,M,,M,1,20,2.731,,M*1D
$GPVTG,,T,,M,0.00,N,0.00,K,D*26
$GPHDT,,T*1B
$GPTHS,,V*0E
$GPROT,,V*08
$PSSN,HRP,084612.00,010125,,,,,,,00,0,,*68
$PTNL,AVR,084612.00,,Yaw,,Tilt,,,,0,,00*3E
$GPGSA,A,3,05,13,14,15,23,30,,,,,,,1.5,0.8,1.3*38
$GPGSA,A,3,65,66,75,76,,,,,,,,,1.5,0.8,1.3*3C
$GPGSA,A,3,02,03,08,25,,,,,,,,,1.5,0.8,1.3*32
$GPGSA,A,3,14,21,26,40,42,45,,,,,,,1.5,0.8,1.3*3D
$GPGST,084612.00,4.543,1.260,0.911,350.623,1.252,0.922,2.245*59
$GPGBS,084612.00,5.704,3.788,7.719,30,0.0001,-2.214,0.773*75
$GPGRS,084612.00,1,-0.2,-0.7,1.6,1.2,0.3,-2.2,,,,,,*68
$GPGRS,084612.00,1,-1.0,-1.9,-2.6,-2.0,,,,,,,,*48
$GPGRS,084612.00,1,-1.5,-0.6,-1.1,-1.3,,,,,,,,*47
$GPGRS,084612.00,1,0.7,-2.1,-0.8,-2.2,14.9,-2.3,,,,,,*76
$GPGSV,5,1,17,13,83,310,48,20,11,198,,24,11,268,27,23,12,327,37*71
$GPGSV,5,2,17,05,35,223,43,17,14,128,,30,41,074,47,15,47,301,39*7E
$GPGSV,5,3,17,22,65,150,,14,66,094,44,07,08,078,,08,05,025,*7C
$GPGSV,5,4,17,18,01,295,33,36,35,170,38,34,31,208,,49,34,195,*7E
$GPGSV,5,5,17,61,03,257,*4B
$GLGSV,3,1,10,65,76,183,46,74,16,043,28,72,19,151,32,76,44,230,46*6E
$GLGSV,3,2,10,66,45,321,50,75,70,031,48,77,00,227,,82,01,323,32*65
$GLGSV,3,3,10,83,09,001,,84,03,058,*65
$GAGSV,3,1,09,03,75,130,45,24,24,046,33,05,22,125,30,02,40,192,41*6A
$GAGSV,3,2,09,16,48,061,,08,49,303,42,25,66,099,46,13,04,279,33*60
$GAGSV,3,3,09,26,07,327,23*55
$GBGSV,5,1,18,45,72,062,44,22,18,159,29,05,20,130,,36,21,059,22*66
$GBGSV,5,2,18,14,23,316,40,40,28,056,39,56,24,088,,10,35,073,*60
$GBGSV,5,3,18,42,47,301,36,26,47,237,47,21,62,200,48,50,65,261,*6E
$GBGSV,5,4,18,30,07,056,,27,01,012,,02,04,109,,29,01,105,*63
$GBGSV,5,5,18,09,07,079,,60,07,112,*61
$GPGGA,084612.00,,,,,0,00,,,M,,M,,*41
$PTNL,GGK,084612.00,010125,4742.4458268,N,01617.9737233,E,1,20,1.5,EHT667.1087,M*41
$GPGGQ,084612.00,010125,4742.4458268,N,01617.9737233,E,1,20,2.731,623.8976,M*32
$GPGFA,084612.00,11.983,18.406,1.260,0.911,350.623,2.245,,VVV*0F
$GPLLK,084612.00,010125,,M,,M,1,20,1.8,,M*09
$GNGMP,084612.00,,,,,DAAA,20,0.8,,,,*55
$GPGMP,084612.00,,,,,,06,,,,3.3,123*72
$GLGMP,084612.00,,,,,,04,,,,,*72
$GAGMP,084612.00,,,,,,04,,,,,*7F
$GBGMP,084612.00,,,,,,06,,,,,*7E
$PSSN,SNC,[0,290790000,2347]*41
$GPZDA,084617.00,01,01,2025,,*6F
$GPDTM,W84,,00.0000000,N,00.0000000,E,00.0000000,W84*5F
$GPRMC,084617.00,A,4742.4458191,N,01617.9737494,E,0.0,,010125,5.1,E,D*12
$GPGLL,4742.4458191,N,01617.9737494,E,084617.00,A,D*63
$GPGGA,084617.00,4742.4458191,N,01617.9737494,E,2,21,0.7,623.8970,M,43.2110,M,2.3,0123*4F
$GNGNS,084617.00,4742.4458191,N,01617.9737494,E,DAAA,21,0.7,623.8970,43.2110,,*52
$GPGNS,084617.00,,,,,,06,,,,2.3,123*76
$GLGNS,084617.00,,,,,,04,,,,,*77
$GAGNS,084617.00,,,,,,05,,,,,*7B
$GBGNS,084617.00,,,,,,06,,,,,*7B
$GPLLQ,084617.00,010125,,M,,M,1,21,3.001,,M*1C
$GPVTG,,T,,M,0.01,N,0.01,K,D*26
$GPHDT,,T*1B
$GPTHS,,V*0E
$GPROT,,V*08
$PSSN,HRP,084617.00,010125,,,,,,,00,0,,*6D
$PTNL,AVR,084617.00,,Yaw,,Tilt,,,,0,,00*3B
$GPGSA,A,3,05,13,14,15,23,30,,,,,,,1.3,0.7,1.0*32
$GPGSA,A,3,65,66,75,76,,,,,,,,,1.3,0.7,1.0*36
$GPGSA,A,3,02,03,05,08,25,,,,,,,,1.3,0.7,1.0*3D
$GPGSA,A,3,14,21,26,40,42,45,,,,,,,1.3,0.7,1.0*37
$GPGST,084617.00,4.295,1.388,1.018,349.598,1.377,1.032,2.458*58
$GPGBS,084617.00,5.413,3.664,7.481,15,0.0001,2.395,0.720*50
$GPGRS,084617.00,1,-0.2,-1.3,0.9,2.4,0.4,-2.1,,,,,,*67
$GPGRS,084617.00,1,-2.1,-2.3,-2.3,-3.4,,,,,,,,*46
$GPGRS,084617.00,1,-0.9,-0.9,5.9,-0.9,-1.5,,,,,,,*6D
$GPGRS,084617.00,1,-1.5,-2.5,-0.9,-2.4,12.6,-2.4,,,,,,*50
$GPGSV,5,1,17,13,83,310,47,20,11,198,,24,11,268,25,23,12,327,38*73
$GPGSV,5,2,17,05,35,223,42,17,14,128,,30,41,074,46,15,47,301,37*70
$GPGSV,5,3,17,22,65,150,,14,66,094,45,07,08,078,,08,05,025,*7D
$GPGSV,5,4,17,18,01,295,30,36,35,170,38,34,31,208,,49,34,195,*7D
$GPGSV,5,5,17,61,03,257,*4B
$GLGSV,3,1,10,65,76,183,46,74,16,043,27,72,19,151,32,76,44,230,45*62
$GLGSV,3,2,10,66,45,321,50,75,70,031,47,77,00,227,,82,00,323,*6A
$GLGSV,3,3,10,83,09,001,32,84,03,058,*64
$GAGSV,3,1,09,03,75,130,45,24,24,046,32,05,22,125,30,02,40,192,40*6A
$GAGSV,3,2,09,16,48,061,,08,49,303,42,25,66,099,47,13,04,279,32*60
$GAGSV,3,3,09,26,07,327,24*52
$GBGSV,5,1,18,45,72,062,45,22,18,159,31,05,20,130,,36,21,059,20*6C
$GBGSV,5,2,18,14,23,316,39,40,28,056,38,56,24,088,,10,35,073,*6F
$GBGSV,5,3,18,42,47,301,41,26,47,237,47,21,62,200,48,50,65,261,*6E
$GBGSV,5,4,18,30,07,056,,27,01,012,,02,04,109,,29,01,105,*63
$GBGSV,5,5,18,09,07,079,,60,07,112,*61
$GPGGA,084617.00,,,,,0,00,,,M,,M,,*44
$PTNL,GGK,084617.00,010125,4742.4458191,N,01617.9737494,E,1,21,1.3,EHT667.1080,M*4A
$GPGGQ,084617.00,010125,4742.4458191,N,01617.9737494,E,1,21,3.001,623.8970,M*3B
$GPGFA,084617.00,13.196,20.159,1.388,1.018,349.598,2.458,,VVV*07
$GPLLK,084617.00,010125,,M,,M,1,21,1.5,,M*00
$GNGMP,084617.00,,,,,DAAA,21,0.7,,,,*5E
$GPGMP,084617.00,,,,,,06,,,,2.3,123*76
$GLGMP,084617.00,,,,,,04,,,,,*77
$GAGMP,084617.00,,,,,,05,,,,,*7B
$GBGMP,084617.00,,,,,,06,,,,,*7B
$PSSN,SNC,[0,290795000,2347]*44
$GPZDA,084622.00,01,01,2025,,*69
$GPDTM,W84,,00.0000000,N,00.0000000,E,00.0000000,W84*5F
$GPRMC,084622.00,A,4742.4458114,N,01617.9737670,E,0.0,,010125,5.1,E,D*11
$GPGLL,4742.4458114,N,01617.9737670,E,084622.00,A,D*60
$GPGGA,084622.00,4742.4458114,N,01617.9737670,E,2,20,0.8,623.9133,M,43.2110,M,2.0,0123*4F
$GNGNS,084622.00,4742.4458114,N,01617.9737670,E,DAAA,20,0.8,623.9133,43.2110,,*51
$GPGNS,084622.00,,,,,,06,,,,2.0,123*73
$GLGNS,084622.00,,,,,,04,,,,,*71
$GAGNS,084622.00,,,,,,04,,,,,*7C
$GBGNS,084622.00,,,,,,06,,,,,*7D
$GPLLQ,084622.00,010125,,M,,M,1,20,2.598,,M*1F
$GPVTG,,T,,M,0.01,N,0.01,K,D*26
$GPHDT,,T*1B
$GPTHS,,V*0E
$GPROT,,V*08
$PSSN,HRP,084622.00,010125,,,,,,,00,0,,*6B
$PTNL,AVR,084622.00,,Yaw,,Tilt,,,,0,,00*3D
$GPGSA,A,3,05,13,14,15,23,30,,,,,,,1.5,0.8,1.3*38
$GPGSA,A,3,65,66,75,76,,,,,,,,,1.5,0.8,1.3*3C
$GPGSA,A,3,02,03,08,25,,,,,,,,,1.5,0.8,1.3*32
$GPGSA,A,3,14,21,26,40,42,45,,,,,,,1.5,0.8,1.3*3D
$GPGST,084622.00,4.250,1.197,0.892,348.646,1.186,0.906,2.126*5E
$GPGBS,084622.00,5.527,3.733,7.517,15,0.0001,1.562,0.677*53
$GPGRS,084622.00,1,-0.3,-1.4,0.7,1.6,1.0,-1.3,,,,,,*6C
$GPGRS,084622.00,1,-1.1,-1.8,-3.4,-4.0,,,,,,,,*4E
$GPGRS,084622.00,1,-0.2,-0.8,-0.5,-0.9,,,,,,,,*42
$GPGRS,084622.00,1,-3.4,-1.5,-0.6,-1.9,13.2,-1.8,,,,,,*5D
$GPGSV,5,1,17,13,83,309,47,20,11,198,,24,11,268,26,23,12,327,39*79
$GPGSV,5,2,17,05,35,223,41,17,14,128,,30,41,074,46,15,47,301,35*71
$GPGSV,5,3,17,22,65,150,,14,66,094,46,07,08,078,,08,05,025,*7E
$GPGSV,5,4,17,18,01,295,29,36,35,170,38,34,31,208,,49,34,195,*75
$GPGSV,5,5,17,61,03,257,*4B
$GLGSV,3,1,10,65,76,183,46,74,16,043,25,72,19,151,31,76,44,230,43*65
$GLGSV,3,2,10,66,45,321,51,75,70,031,46,77,00,227,,82,00,323,25*6D
$GLGSV,3,3,10,83,09,001,34,84,03,058,*62
$GAGSV,3,1,09,03,75,130,43,24,24,046,33,05,22,125,23,02,40,192,41*6E
$GAGSV,3,2,09,16,48,061,,08,49,303,43,25,66,099,47,13,04,279,23*61
$GAGSV,3,3,09,26,07,327,*54
$GBGSV,5,1,19,45,72,062,45,22,18,159,31,05,20,130,,36,21,059,19*67
$GBGSV,5,2,19,14,23,316,38,40,28,056,37,56,24,088,,10,35,073,*60
$GBGSV,5,3,19,42,47,301,43,26,47,237,47,21,62,200,49,50,65,260,*6D
$GBGSV,5,4,19,29,01,105,,30,07,056,,27,01,012,,02,04,109,*62
$GBGSV,5,5,19,33,00,325,,09,07,079,,60,07,112,*54
$GPGGA,084622.00,,,,,0,00,,,M,,M,,*42
$PTNL,GGK,084622.00,010125,4742.4458114,N,01617.9737670,E,1,20,1.5,EHT667.1243,M*43
$GPGGQ,084622.00,010125,4742.4458114,N,01617.9737670,E,1,20,2.598,623.9133,M*33
$GPGFA,084622.00,11.379,17.433,1.197,0.892,348.646,2.126,,VVV*07
$GPLLK,084622.00,010125,,M,,M,1,20,1.8,,M*0A
$GNGMP,084622.00,,,,,DAAA,20,0.8,,,,*56
$GPGMP,084622.00,,,,,,06,,,,2.0,123*73
$GLGMP,084622.00,,,,,,04,,,,,*71
$GAGMP,084622.00,,,,,,04,,,,,*7C
$GBGMP,084622.00,,,,,,06,,,,,*7D
$PSSN,SNC,[0,290800000,2347]*47
$GPZDA,084627.00,01,01,2025,,*6C
$GPDTM,W84,,00.0000000,N,00.0000000,E,00.0000000,W84*5F
$GPRMC,084627.00,A,4742.4458034,N,01617.9737783,E,0.0,,010125,5.1,E,D*1A
$GPGLL,4742.4458034,N,01617.9737783,E,084627.00,A,D*6B
$GPGGA,084627.00,4742.4458034,N,01617.9737783,E,2,21,0.7,623.9279,M,43.2110,M,2.3,0123*44
$GNGNS,084627.00,4742.4458034,N,01617.9737783,E,DAAA,21,0.7,623.9279,43.2110,,*59
$GPGNS,084627.00,,,,,,06,,,,2.3,123*75
$GLGNS,084627.00,,,,,,04,,,,,*74
$GAGNS,084627.00,,,,,,04,,,,,*79
$GBGNS,084627.00,,,,,,07,,,,,*79
$GPLLQ,084627.00,010125,,M,,M,1,21,2.394,,M*11
$GPVTG,,T,,M,0.00,N,0.01,K,D*27
$GPHDT,,T*1B
$GPTHS,,V*0E
$GPROT,,V*08
$PSSN,HRP,084627.00,010125,,,,,,,00,0,,*6E
$PTNL,AVR,084627.00,,Yaw,,Tilt,,,,0,,00*38
$GPGSA,A,3,05,13,14,15,23,30,,,,,,,1.4,0.7,1.1*34
$GPGSA,A,3,65,66,75,76,,,,,,,,,1.4,0.7,1.1*30
$GPGSA,A,3,02,03,08,25,,,,,,,,,1.4,0.7,1.1*3E
$GPGSA,A,3,14,21,26,36,40,42,45,,,,,,1.4,0.7,1.1*34
$GPGST,084627.00,6.084,1.105,0.811,350.388,1.097,0.821,1.963*53
$GPGBS,084627.00,5.604,3.688,7.528,36,0.0001,17.543,8.715*61
$GPGRS,084627.00,1,0.4,-1.1,0.6,1.1,1.5,-1.0,,,,,,*46
$GPGRS,084627.00,1,0.1,-1.3,-3.8,-4.4,,,,,,,,*64
$GPGRS,084627.00,1,0.3,-1.0,-1.0,-0.3,,,,,,,,*6C
$GPGRS,084627.00,1,-4.0,-0.8,-0.8,17.5,-1.9,12.0,-1.5,,,,,*4A
$GPGSV,5,1,17,13,83,309,47,20,11,198,27,24,11,268,27,23,12,327,40*73
$GPGSV,5,2,17,05,35,223,42,17,14,128,,30,41,074,47,15,47,301,36*70
$GPGSV,5,3,17,22,65,150,,14,66,094,46,07,08,078,,08,04,025,*7F
$GPGSV,5,4,17,18,01,295,34,36,35,170,38,34,31,208,,49,34,195,*79
$GPGSV,5,5,17,61,03,257,*4B
$GLGSV,3,1,10,65,76,183,46,74,16,043,22,72,19,151,30,76,44,230,42*62
$GLGSV,3,2,10,66,45,321,51,75,70,031,47,77,00,227,,82,00,323,33*6B
$GLGSV,3,3,10,83,09,001,35,84,03,058,*63
$GAGSV,3,1,09,03,75,130,41,24,24,046,33,05,22,125,31,02,40,192,41*6F
$GAGSV,3,2,09,16,48,061,,08,49,303,44,25,66,099,47,13,04,279,24*61
$GAGSV,3,3,09,26,07,327,*54
$GBGSV,5,1,19,45,72,062,46,22,18,159,32,05,20,130,,36,21,059,19*67
$GBGSV,5,2,19,14,23,316,38,40,28,056,37,56,24,087,,10,35,073,*6F
$GBGSV,5,3,19,42,47,301,44,26,47,237,47,21,62,200,50,50,65,260,*62
$GBGSV,5,4,19,29,01,105,,30,07,056,,27,01,012,,02,04,109,*62
$GBGSV,5,5,19,33,00,325,,09,07,079,,60,07,112,*54
$GPGGA,084627.00,,,,,0,00,,,M,,M,,*47
$PTNL,GGK,084627.00,010125,4742.4458034,N,01617.9737783,E,1,21,1.4,EHT667.1390,M*47
$GPGGQ,084627.00,010125,4742.4458034,N,01617.9737783,E,1,21,2.394,623.9279,M*3E
$GPGFA,084627.00,10.501,16.093,1.105,0.811,350.388,1.963,,VVV*01
$GPLLK,084627.00,010125,,M,,M,1,21,1.6,,M*00
$GNGMP,084627.00,,,,,DAAA,21,0.7,,,,*5D
$GPGMP,084627.00,,,,,,06,,,,2.3,123*75
$GLGMP,084627.00,,,,,,04,,,,,*74
$GAGMP,084627.00,,,,,,04,,,,,*79
$GBGMP,084627.00,,,,,,07,,,,,*79
$PSSN,SNC,[0,290805000,2347]*42
$GPZDA,084632.00,01,01,2025,,*68
$GPDTM,W84,,00.0000000,N,00.0000000,E,00.0000000,W84*5F
$GPRMC,084632.00,A,4742.4457902,N,01617.9737989,E,0.0,,010125,5.1,E,D*19
$GPGLL,4742.4457902,N,01617.9737989,E,084632.00,A,D*68
$GPGGA,084632.00,4742.4457902,N,01617.9737989,E,2,21,0.7,623.9495,M,43.2110,M,3.3,0123*42
$GNGNS,084632.00,4742.4457902,N,01617.9737989,E,DAAA,21,0.7,623.9495,43.2110,,*5E
$GPGNS,084632.00,,,,,,06,,,,3.3,123*70
$GLGNS,084632.00,,,,,,04,,,,,*70
$GAGNS,084632.00,,,,,,04,,,,,*7D
$GBGNS,084632.00,,,,,,07,,,,,*7D
$GPLLQ,084632.00,010125,,M,,M,1,21,2.637,,M*19
