$GPZDA,132942.00,01,01,2025,,*6C
$GPDTM,W84,,00.0000000,N,00.0000000,E,00.0000000,W84*5F
$GPRMC,132942.00,A,4742.4454154,N,01617.9734863,E,0.0,,010125,5.1,E,D*13
$GPGLL,4742.4454154,N,01617.9734863,E,132942.00,A,D*62
$GPGGA,132942.00,4742.4454154,N,01617.9734863,E,2,21,0.7,627.1863,M,43.2110,M,2.0,0123*43
$GNGNS,132942.00,4742.4454154,N,01617.9734863,E,DAAA,21,0.7,627.1863,43.2110,,*5D
$GPGNS,132942.00,,,,,,04,,,,2.0,123*74
$GLGNS,132942.00,,,,,,05,,,,,*75
$GAGNS,132942.00,,,,,,05,,,,,*78
$GBGNS,132942.00,,,,,,07,,,,,*79
$GPLLQ,132942.00,010125,,M,,M,1,21,4.787,,M*11
$GPVTG,,T,,M,0.00,N,0.00,K,D*26
$GPHDT,,T*1B
$GPTHS,,V*0E
$GPROT,,V*08
$PSSN,HRP,132942.00,010125,,,,,,,00,0,,*6E
$PTNL,AVR,132942.00,,Yaw,,Tilt,,,,0,,00*38
$GPGSA,A,3,11,12,25,29,,,,,,,,,1.4,0.7,1.2*3C
$GPGSA,A,3,68,69,78,87,88,,,,,,,,1.4,0.7,1.2*32
$GPGSA,A,3,02,07,27,30,34,,,,,,,,1.4,0.7,1.2*37
$GPGSA,A,3,12,24,25,26,34,35,44,,,,,,1.4,0.7,1.2*34
$GPGST,132942.00,4.635,2.456,0.775,353.667,2.442,0.817,4.035*52
$GPGBS,132942.00,10.812,4.297,18.899,27,0.0001,11.583,6.344*6C
$GPGRS,132942.00,1,1.2,-0.4,-0.7,0.0,,,,,,,,*41
$GPGRS,132942.00,1,9.3,-2.8,-3.2,-0.8,-1.0,,,,,,,*67
$GPGRS,132942.00,1,-1.8,-0.2,11.6,0.4,0.1,,,,,,,*57
$GPGRS,132942.00,1,-2.6,-2.2,-6.2,-0.9,-1.4,-1.3,0.7,,,,,*66
$GPGSV,4,1,14,12,74,049,51,28,15,312,35,19,15,046,25,11,31,106,45*75
$GPGSV,4,2,14,29,25,212,38,24,40,153,36,06,29,062,32,32,32,286,30*7B
$GPGSV,4,3,14,25,57,284,39,03,00,001,,36,35,170,35,34,31,208,35*72
$GPGSV,4,4,14,49,34,195,36,61,03,257,*7A
$GLGSV,3,1,10,78,58,323,50,86,18,027,28,79,11,295,31,68,23,261,37*67
$GLGSV,3,2,10,88,35,159,46,69,24,314,46,87,53,070,41,77,47,086,35*61
$GLGSV,3,3,10,67,00,219,,76,05,103,*69
$GAGSV,3,1,11,30,81,343,47,36,30,066,32,34,26,125,38,07,37,235,44*69
$GAGSV,3,2,11,29,30,301,33,02,35,077,45,27,33,272,39,18,55,077,*67
$GAGSV,3,3,11,19,03,337,,08,09,189,,11,07,022,*52
$GBGSV,5,1,20,24,78,100,49,34,26,186,41,43,14,236,,05,20,130,*61
$GBGSV,5,2,20,11,24,213,,41,14,283,35,10,22,061,30,26,26,113,38*6A
$GBGSV,5,3,20,56,29,052,,12,47,159,44,35,34,053,41,25,43,297,37*67
$GBGSV,5,4,20,44,59,120,49,38,01,077,,40,02,047,,32,07,334,35*61
$GBGSV,5,5,20,07,09,058,,33,03,237,,02,04,108,,60,08,110,*6E
$GPGGA,132942.00,,,,,0,00,,,M,,M,,*47
$PTNL,GGK,132942.00,010125,4742.4454154,N,01617.9734863,E,1,21,1.4,EHT670.3974,M*4A
$GPGGQ,132942.00,010125,4742.4454154,N,01617.9734863,E,1,21,4.787,627.1863,M*3A
$GPGFA,132942.00,23.348,33.090,2.456,0.775,353.667,4.035,,VVV*0B
$GPLLK,132942.00,010125,,M,,M,1,21,1.6,,M*00
$GNGMP,132942.00,,,,,DAAA,21,0.7,,,,*5D
$GPGMP,132942.00,,,,,,04,,,,2.0,123*74
$GLGMP,132942.00,,,,,,05,,,,,*75
$GAGMP,132942.00,,,,,,05,,,,,*78
$GBGMP,132942.00,,,,,,07,,,,,*79
$PSSN,SNC,[0,307800000,2347]*48
$GPZDA,132947.00,01,01,2025,,*69
$GPDTM,W84,,00.0000000,N,00.0000000,E,00.0000000,W84*5F
$GPRMC,132947.00,A,4742.4454188,N,01617.9734711,E,0.0,,010125,5.1,E,D*1D
$GPGLL,4742.4454188,N,01617.9734711,E,132947.00,A,D*6C
$GPGGA,132947.00,4742.4454188,N,01617.9734711,E,2,21,0.7,627.1969,M,43.2110,M,3.2,0123*45
$GNGNS,132947.00,4742.4454188,N,01617.9734711,E,DAAA,21,0.7,627.1969,43.2110,,*58
$GPGNS,132947.00,,,,,,05,,,,3.2,123*73
$GLGNS,132947.00,,,,,,04,,,,,*71
$GAGNS,132947.00,,,,,,05,,,,,*7D
$GBGNS,132947.00,,,,,,07,,,,,*7C
$GPLLQ,132947.00,010125,,M,,M,1,21,3.919,,M*1A
$GPVTG,,T,,M,0.01,N,0.02,K,D*25
$GPHDT,,T*1B
$GPTHS,,V*0E
$GPROT,,V*08
$PSSN,HRP,132947.00,010125,,,,,,,00,0,,*6B
$PTNL,AVR,132947.00,,Yaw,,Tilt,,,,0,,00*3D
$GPGSA,A,3,11,12,25,29,32,,,,,,,,1.4,0.7,1.2*3D
$GPGSA,A,3,69,78,87,88,,,,,,,,,1.4,0.7,1.2*3C
$GPGSA,A,3,02,07,27,30,34,,,,,,,,1.4,0.7,1.2*37
$GPGSA,A,3,12,24,25,26,34,35,44,,,,,,1.4,0.7,1.2*34
$GPGST,132947.00,3.577,1.999,0.875,4.482,1.994,0.886,3.255*51
$GPGBS,132947.00,8.893,4.525,13.651,25,0.0001,-1.695,0.877*41
$GPGRS,132947.00,1,1.8,0.1,-1.7,-0.3,-1.5,,,,,,,*4E
$GPGRS,132947.00,1,-2.0,-1.5,-2.5,0.9,,,,,,,,*61
$GPGRS,132947.00,1,-0.8,1.2,11.9,1.5,0.6,,,,,,,*77
$GPGRS,132947.00,1,-0.7,-1.4,-2.4,-1.5,-0.4,0.0,1.4,,,,,*46
$GPGSV,4,1,14,12,74,049,51,28,15,312,35,19,15,046,25,11,31,106,46*76
$GPGSV,4,2,14,29,25,212,36,24,40,153,34,06,29,062,33,32,32,285,36*73
$GPGSV,4,3,14,25,57,284,39,03,00,001,,36,35,170,35,34,31,208,35*72
$GPGSV,4,4,14,49,34,195,36,61,03,257,*7A
$GLGSV,3,1,10,78,58,323,49,86,18,027,28,79,11,295,32,68,23,261,36*6D
$GLGSV,3,2,10,88,35,159,47,69,24,314,45,87,53,070,40,77,47,086,34*63
$GLGSV,3,3,10,67,00,219,,76,05,103,*69
$GAGSV,3,1,12,30,81,343,47,36,30,066,33,34,26,125,38,07,37,235,44*6B
$GAGSV,3,2,12,29,30,301,32,02,35,077,45,27,33,272,38,18,55,077,*64
$GAGSV,3,3,12,15,00,166,,19,03,337,,08,09,189,,11,07,022,*64
$GBGSV,5,1,20,24,78,100,48,34,26,186,42,43,14,236,,05,20,130,*63
$GBGSV,5,2,20,11,24,213,,41,13,283,33,10,22,061,30,26,26,113,37*64
$GBGSV,5,3,20,56,29,052,,12,47,159,44,35,34,053,41,25,43,297,38*68
$GBGSV,5,4,20,44,59,119,50,38,01,077,,40,02,047,,32,07,334,35*63
$GBGSV,5,5,20,07,09,058,,33,03,237,,02,04,108,,60,08,110,*6E
$GPGGA,132947.00,,,,,0,00,,,M,,M,,*42
$PTNL,GGK,132947.00,010125,4742.4454188,N,01617.9734711,E,1,21,1.4,EHT670.4080,M*41
$GPGGQ,132947.00,010125,4742.4454188,N,01617.9734711,E,1,21,3.919,627.1969,M*31
$GPGFA,132947.00,19.009,26.687,1.999,0.875,4.482,3.255,,VVV*0C
$GPLLK,132947.00,010125,,M,,M,1,21,1.6,,M*05
$GNGMP,132947.00,,,,,DAAA,21,0.7,,,,*58
$GPGMP,132947.00,,,,,,05,,,,3.2,123*73
$GLGMP,132947.00,,,,,,04,,,,,*71
$GAGMP,132947.00,,,,,,05,,,,,*7D
$GBGMP,132947.00,,,,,,07,,,,,*7C
$PSSN,SNC,[0,307805000,2347]*4D
$GPZDA,132952.00,01,01,2025,,*6D
$GPDTM,W84,,00.0000000,N,00.0000000,E,00.0000000,W84*5F
$GPRMC,132952.00,A,4742.4454263,N,01617.9734636,E,0.0,,010125,5.1,E,D*1B
$GPGLL,4742.4454263,N,01617.9734636,E,132952.00,A,D*6A
$GPGGA,132952.00,4742.4454263,N,01617.9734636,E,2,22,0.6,627.1948,M,43.2110,M,3.2,0123*42
$GNGNS,132952.00,4742.4454263,N,01617.9734636,E,DAAA,22,0.6,627.1948,43.2110,,*5F
$GPGNS,132952.00,,,,,,05,,,,3.2,123*77
$GLGNS,132952.00,,,,,,04,,,,,*75
$GAGNS,132952.00,,,,,,05,,,,,*79
$GBGNS,132952.00,,,,,,08,,,,,*77
$GPLLQ,132952.00,010125,,M,,M,1,22,3.231,,M*1C
$GPVTG,,T,,M,0.01,N,0.02,K,D*25
$GPHDT,,T*1B
$GPTHS,,V*0E
$GPROT,,V*08
$PSSN,HRP,132952.00,010125,,,,,,,00,0,,*6F
$PTNL,AVR,132952.00,,Yaw,,Tilt,,,,0,,00*39
$GPGSA,A,3,06,11,12,25,32,,,,,,,,1.2,0.6,1.0*35
$GPGSA,A,3,69,78,87,88,,,,,,,,,1.2,0.6,1.0*39
$GPGSA,A,3,02,07,27,30,34,,,,,,,,1.2,0.6,1.0*32
$GPGSA,A,3,12,24,25,26,32,34,35,44,,,,,1.2,0.6,1.0*30
$GPGST,132952.00,3.544,2.148,0.740,6.802,2.135,0.777,2.297*53
$GPGBS,132952.00,10.294,3.597,11.924,11,0.0001,1.827,1.030*57
$GPGRS,132952.00,1,-1.7,1.8,-0.1,0.7,-1.9,,,,,,,*42
$GPGRS,132952.00,1,-1.0,-1.7,-3.8,1.8,,,,,,,,*68
$GPGRS,132952.00,1,-0.6,1.5,9.4,1.2,0.3,,,,,,,*4C
$GPGRS,132952.00,1,-0.3,-1.1,7.6,-1.4,1.2,-0.1,0.2,1.1,,,,*47
$GPGSV,4,1,14,12,74,049,50,28,15,312,30,19,15,046,26,11,31,106,46*71
$GPGSV,4,2,14,29,25,212,34,24,40,153,29,06,29,062,38,32,32,285,37*77
$GPGSV,4,3,14,25,57,284,41,03,00,000,,36,35,170,34,34,31,208,35*7D
$GPGSV,4,4,14,49,34,195,36,61,03,257,*7A
$GLGSV,3,1,10,78,58,323,49,86,18,027,26,79,11,295,32,68,23,261,34*61
$GLGSV,3,2,10,88,35,159,47,69,24,314,45,87,53,070,39,77,47,086,35*6C
$GLGSV,3,3,10,67,00,219,,76,05,103,*69
$GAGSV,3,1,12,30,81,343,47,36,30,066,33,34,26,124,38,07,37,235,44*6A
$GAGSV,3,2,12,29,30,301,33,02,35,077,45,27,33,272,38,18,55,076,*64
$GAGSV,3,3,12,15,00,166,,19,03,336,,08,09,189,,11,07,022,*65
$GBGSV,5,1,20,24,78,100,47,34,26,186,44,43,14,236,,05,20,130,*6A
$GBGSV,5,2,20,11,24,213,,41,13,283,30,10,22,061,29,26,26,113,36*6E
$GBGSV,5,3,20,56,29,052,,12,47,159,43,35,34,053,41,25,43,297,38*6F
$GBGSV,5,4,20,44,59,119,50,38,01,077,,40,02,047,,32,07,334,35*63
$GBGSV,5,5,20,07,09,058,,33,03,237,,02,04,108,,60,08,110,*6E
$GPGGA,132952.00,,,,,0,00,,,M,,M,,*46
$PTNL,GGK,132952.00,010125,4742.4454263,N,01617.9734636,E,1,22,1.2,EHT670.4058,M*47
$GPGGQ,132952.00,010125,4742.4454263,N,01617.9734636,E,1,22,3.231,627.1948,M*36
$GPGFA,132952.00,20.424,18.832,2.148,0.740,6.802,2.297,,VVV*03
$GPLLK,132952.00,010125,,M,,M,1,22,1.3,,M*07
$GNGMP,132952.00,,,,,DAAA,22,0.6,,,,*5E
$GPGMP,132952.00,,,,,,05,,,,3.2,123*77
$GLGMP,132952.00,,,,,,04,,,,,*75
$GAGMP,132952.00,,,,,,05,,,,,*79
$GBGMP,132952.00,,,,,,08,,,,,*77
$PSSN,SNC,[0,307810000,2347]*49
$GPZDA,132957.00,01,01,2025,,*68
$GPDTM,W84,,00.0000000,N,00.0000000,E,00.0000000,W84*5F
$GPRMC,132957.00,A,4742.4454307,N,01617.9734658,E,0.0,,010125,5.1,E,D*15
$GPGLL,4742.4454307,N,01617.9734658,E,132957.00,A,D*64
$GPGGA,132957.00,4742.4454307,N,01617.9734658,E,2,20,0.7,627.1862,M,43.2110,M,2.0,0123*45
$GNGNS,132957.00,4742.4454307,N,01617.9734658,E,DAAA,20,0.7,627.1862,43.2110,,*5B
$GPGNS,132957.00,,,,,,03,,,,2.0,123*77
$GLGNS,132957.00,,,,,,05,,,,,*71
$GAGNS,132957.00,,,,,,05,,,,,*7C
$GBGNS,132957.00,,,,,,07,,,,,*7D
$GPLLQ,132957.00,010125,,M,,M,1,20,4.795,,M*17
$GPVTG,,T,,M,0.01,N,0.02,K,D*25
$GPHDT,,T*1B
$GPTHS,,V*0E
$GPROT,,V*08
$PSSN,HRP,132957.00,010125,,,,,,,00,0,,*6A
$PTNL,AVR,132957.00,,Yaw,,Tilt,,,,0,,00*3C
$GPGSA,A,3,11,12,25,,,,,,,,,,1.4,0.7,1.2*37
$GPGSA,A,3,69,77,78,87,88,,,,,,,,1.4,0.7,1.2*3C
$GPGSA,A,3,02,07,27,30,34,,,,,,,,1.4,0.7,1.2*37
$GPGSA,A,3,12,24,25,26,34,35,44,,,,,,1.4,0.7,1.2*34
$GPGST,132957.00,4.329,3.196,0.840,5.606,3.181,0.892,3.474*58
$GPGBS,132957.00,16.934,6.830,19.526,25,0.0001,11.836,8.679*62
$GPGRS,132957.00,1,0.6,-0.5,0.6,,,,,,,,,*43
$GPGRS,132957.00,1,-0.8,-4.9,-2.5,-4.2,0.8,,,,,,,*67
$GPGRS,132957.00,1,-1.0,1.2,6.5,0.5,-0.4,,,,,,,*6B
$GPGRS,132957.00,1,-1.1,-1.5,11.8,-1.9,0.0,-0.9,0.7,,,,,*51
$GPGSV,4,1,14,12,74,049,50,28,15,312,36,19,15,046,26,11,31,106,46*77
$GPGSV,4,2,14,29,25,212,32,24,40,153,23,06,29,062,27,32,32,285,35*77
$GPGSV,4,3,14,25,57,284,43,03,00,000,,36,35,170,35,34,31,208,35*7E
$GPGSV,4,4,14,49,34,195,36,61,03,257,*7A
$GLGSV,3,1,10,78,58,323,48,86,18,027,31,79,11,295,35,68,22,261,36*62
$GLGSV,3,2,10,88,35,159,46,69,24,314,46,87,53,070,41,77,47,086,37*63
$GLGSV,3,3,10,67,00,219,,76,05,103,*69
$GAGSV,3,1,12,30,81,343,46,36,30,066,33,34,26,124,37,07,37,235,44*64
$GAGSV,3,2,12,29,30,301,34,02,35,077,45,27,33,272,37,18,55,076,*6C
$GAGSV,3,3,12,15,00,166,,19,03,336,,08,09,189,,11,07,022,*65
$GBGSV,5,1,20,24,78,100,47,34,26,186,45,43,14,236,,05,20,130,*6B
$GBGSV,5,2,20,11,24,213,,41,13,283,24,10,22,061,29,26,26,113,35*68
$GBGSV,5,3,20,56,29,052,,12,47,159,42,35,34,053,41,25,43,297,38*6E
$GBGSV,5,4,20,44,59,119,50,38,01,077,,40,02,047,,32,07,334,34*62
$GBGSV,5,5,20,07,09,058,,33,03,237,,02,04,108,,60,08,110,*6E
$GPGGA,132957.00,,,,,0,00,,,M,,M,,*43
$PTNL,GGK,132957.00,010125,4742.4454307,N,01617.9734658,E,1,20,1.4,EHT670.3973,M*4A
$GPGGQ,132957.00,010125,4742.4454307,N,01617.9734658,E,1,20,4.795,627.1862,M*3F
$GPGFA,132957.00,30.383,28.490,3.196,0.840,5.606,3.474,,VVV*04
$GPLLK,132957.00,010125,,M,,M,1,20,1.7,,M*04
$GNGMP,132957.00,,,,,DAAA,20,0.7,,,,*58
$GPGMP,132957.00,,,,,,03,,,,2.0,123*77
$GLGMP,132957.00,,,,,,05,,,,,*71
$GAGMP,132957.00,,,,,,05,,,,,*7C
$GBGMP,132957.00,,,,,,07,,,,,*7D
$PSSN,SNC,[0,307815000,2347]*4C
$GPZDA,133002.00,01,01,2025,,*60
$GPDTM,W84,,00.0000000,N,00.0000000,E,00.0000000,W84*5F
$GPRMC,133002.00,A,4742.4454287,N,01617.9734675,E,0.0,,010125,5.1,E,D*1B
$GPGLL,4742.4454287,N,01617.9734675,E,133002.00,A,D*6A
$GPGGA,133002.00,4742.4454287,N,01617.9734675,E,2,21,0.7,627.1933,M,43.2110,M,1.7,0123*4B
$GNGNS,133002.00,4742.4454287,N,01617.9734675,E,DAAA,21,0.7,627.1933,43.2110,,*51
$GPGNS,133002.00,,,,,,03,,,,1.7,123*7B
$GLGNS,133002.00,,,,,,06,,,,,*7A
$GAGNS,133002.00,,,,,,06,,,,,*77
$GBGNS,133002.00,,,,,,06,,,,,*74
$GPLLQ,133002.00,010125,,M,,M,1,21,3.909,,M*12
$GPVTG,,T,,M,0.00,N,0.00,K,D*26
$GPHDT,,T*1B
$GPTHS,,V*0E
$GPROT,,V*08
$PSSN,HRP,133002.00,010125,,,,,,,00,0,,*62
$PTNL,AVR,133002.00,,Yaw,,Tilt,,,,0,,00*34
$GPGSA,A,3,11,12,25,,,,,,,,,,1.3,0.7,1.1*33
$GPGSA,A,3,69,77,78,79,87,88,,,,,,,1.3,0.7,1.1*36
$GPGSA,A,3,02,07,27,29,30,34,,,,,,,1.3,0.7,1.1*38
$GPGSA,A,3,12,24,25,34,35,44,,,,,,,1.3,0.7,1.1*34
$GPGST,133002.00,3.998,2.645,0.714,7.785,2.622,0.793,2.788*59
$GPGBS,133002.00,12.862,6.487,15.095,25,0.0001,11.232,8.678*62
$GPGRS,133002.00,1,0.5,-0.4,0.0,,,,,,,,,*4F
$GPGRS,133002.00,1,0.1,-4.0,-1.7,5.1,-1.1,-0.8,,,,,,*42
$GPGRS,133002.00,1,-0.6,1.2,6.4,1.2,0.8,-0.1,,,,,,*40
$GPGRS,133002.00,1,-1.4,-1.1,11.2,0.7,-0.8,1.3,,,,,,*5A
$GPGSV,4,1,14,12,74,049,49,28,15,312,33,19,15,046,27,11,31,106,46*7B
$GPGSV,4,2,14,29,25,212,31,24,40,153,33,06,29,062,26,32,32,285,34*75
$GPGSV,4,3,14,25,57,284,45,03,00,000,,36,35,170,35,34,31,208,35*78
$GPGSV,4,4,14,49,34,195,36,61,03,257,*7A
$GLGSV,3,1,10,78,58,323,49,86,18,027,34,79,11,295,36,68,22,261,33*60
$GLGSV,3,2,10,69,24,314,46,88,35,159,45,87,53,070,43,77,47,086,39*6C
$GLGSV,3,3,10,76,05,103,,67,00,219,*69
$GAGSV,3,1,12,30,81,343,46,36,30,066,33,34,27,124,37,07,37,235,43*62
$GAGSV,3,2,12,29,30,301,36,02,35,077,46,27,33,272,36,18,55,076,*6C
$GAGSV,3,3,12,15,00,166,,19,03,336,,08,09,189,,11,07,022,*65
$GBGSV,5,1,20,24,78,100,47,34,26,186,46,43,14,236,,05,20,130,*68
$GBGSV,5,2,20,11,24,213,,41,13,283,,10,22,061,28,26,26,113,34*6E
$GBGSV,5,3,20,56,29,052,,12,47,159,41,35,34,053,43,25,43,297,38*6F
$GBGSV,5,4,20,44,59,119,50,38,01,077,,40,02,047,,32,07,334,32*64
$GBGSV,5,5,20,07,09,058,,33,03,237,,02,04,108,,60,08,110,*6E
$GPGGA,133002.00,,,,,0,00,,,M,,M,,*4B
$PTNL,GGK,133002.00,010125,4742.4454287,N,01617.9734675,E,1,21,1.3,EHT670.4043,M*4F
$GPGGQ,133002.00,010125,4742.4454287,N,01617.9734675,E,1,21,3.909,627.1933,M*39
$GPGFA,133002.00,25.149,22.860,2.645,0.714,7.785,2.788,,VVV*0A
$GPLLK,133002.00,010125,,M,,M,1,21,1.5,,M*0F
$GNGMP,133002.00,,,,,DAAA,21,0.7,,,,*51
$GPGMP,133002.00,,,,,,03,,,,1.7,123*7B
$GLGMP,133002.00,,,,,,06,,,,,*7A
$GAGMP,133002.00,,,,,,06,,,,,*77
$GBGMP,133002.00,,,,,,06,,,,,*74
$PSSN,SNC,[0,307820000,2347]*4A
$GPZDA,133007.00,01,01,2025,,*65
$GPDTM,W84,,00.0000000,N,00.0000000,E,00.0000000,W84*5F
$GPRMC,133007.00,A,4742.4454298,N,01617.9734660,E,0.0,,010125,5.1,E,D*14
$GPGLL,4742.4454298,N,01617.9734660,E,133007.00,A,D*65
$GPGGA,133007.00,4742.4454298,N,01617.9734660,E,2,21,0.7,627.1913,M,43.2110,M,3.0,0123*43
$GNGNS,133007.00,4742.4454298,N,01617.9734660,E,DAAA,21,0.7,627.1913,43.2110,,*5C
$GPGNS,133007.00,,,,,,04,,,,3.0,123*7C
$GLGNS,133007.00,,,,,,05,,,,,*7C
$GAGNS,133007.00,,,,,,06,,,,,*72
$GBGNS,133007.00,,,,,,06,,,,,*71
$GPLLQ,133007.00,010125,,M,,M,1,21,4.241,,M*17
$GPVTG,,T,,M,0.00,N,0.01,K,D*27
$GPHDT,,T*1B
$GPTHS,,V*0E
$GPROT,,V*08
$PSSN,HRP,133007.00,010125,,,,,,,00,0,,*67
$PTNL,AVR,133007.00,,Yaw,,Tilt,,,,0,,00*31
$GPGSA,A,3,11,12,25,32,,,,,,,,,1.4,0.7,1.2*36
$GPGSA,A,3,69,77,78,87,88,,,,,,,,1.4,0.7,1.2*3C
$GPGSA,A,3,02,07,27,29,30,34,,,,,,,1.4,0.7,1.2*3C
$GPGSA,A,3,12,24,25,34,35,44,,,,,,,1.4,0.7,1.2*30
$GPGST,133007.00,4.147,3.006,0.743,9.793,2.965,0.893,2.897*58
$GPGBS,133007.00,11.179,4.645,13.148,32,0.0001,-2.797,1.214*7A
$GPGRS,133007.00,1,0.5,-0.2,-0.0,-2.8,,,,,,,,*68
$GPGRS,133007.00,1,-0.4,-3.5,-1.3,1.4,-1.0,,,,,,,*62
$GPGRS,133007.00,1,-0.3,0.6,7.4,1.4,0.9,0.1,,,,,,*6E
$GPGRS,133007.00,1,-2.4,-0.7,12.1,1.3,-0.4,1.9,,,,,,*58
$GPGSV,4,1,14,12,74,049,48,28,15,312,33,19,15,046,26,11,31,106,46*7B
$GPGSV,4,2,14,29,25,212,32,24,40,153,38,06,29,062,28,32,32,285,36*71
$GPGSV,4,3,14,25,57,284,46,03,00,000,,36,35,170,35,34,31,208,35*7B
$GPGSV,4,4,14,49,34,195,36,61,03,257,*7A
$GLGSV,3,1,09,78,58,323,49,86,18,027,35,79,11,295,33,68,22,260,33*6D
$GLGSV,3,2,09,69,24,314,46,88,36,159,45,87,53,070,44,77,46,086,39*61
$GLGSV,3,3,09,76,05,103,*5A
$GAGSV,3,1,12,30,81,344,45,36,30,066,33,34,27,124,37,07,37,235,43*66
$GAGSV,3,2,12,29,30,301,37,02,35,077,46,27,33,272,36,18,55,076,*6D
$GAGSV,3,3,12,15,00,166,,19,03,336,,08,09,189,,11,06,022,*64
$GBGSV,5,1,20,24,78,100,47,34,26,186,46,43,14,236,,05,20,130,*68
$GBGSV,5,2,20,11,24,213,,41,13,283,33,10,21,061,27,26,26,113,34*62
$GBGSV,5,3,20,56,29,052,,12,47,159,40,35,34,053,44,25,43,297,37*66
$GBGSV,5,4,20,44,59,119,50,38,01,077,,40,02,047,,32,07,334,31*67
$GBGSV,5,5,20,07,09,058,,33,03,237,,02,04,108,,60,08,110,*6E
$GPGGA,133007.00,,,,,0,00,,,M,,M,,*4E
$PTNL,GGK,133007.00,010125,4742.4454298,N,01617.9734660,E,1,21,1.4,EHT670.4024,M*46
$GPGGQ,133007.00,010125,4742.4454298,N,01617.9734660,E,1,21,4.241,627.1913,M*34
$GPGFA,133007.00,28.581,23.756,3.006,0.743,9.793,2.897,,VVV*03
$GPLLK,133007.00,010125,,M,,M,1,21,1.7,,M*08
$GNGMP,133007.00,,,,,DAAA,21,0.7,,,,*54
$GPGMP,133007.00,,,,,,04,,,,3.0,123*7C
$GLGMP,133007.00,,,,,,05,,,,,*7C
$GAGMP,133007.00,,,,,,06,,,,,*72
$GBGMP,133007.00,,,,,,06,,,,,*71
$PSSN,SNC,[0,307825000,2347]*4F
$GPZDA,133012.00,01,01,2025,,*61
$GPDTM,W84,,00.0000000,N,00.0000000,E,00.0000000,W84*5F
$GPRMC,133012.00,A,4742.4454337,N,01617.9734526,E,0.0,,010125,5.1,E,D*15
$GPGLL,4742.4454337,N,01617.9734526,E,133012.00,A,D*64
$GPGGA,133012.00,4742.4454337,N,01617.9734526,E,2,22,0.7,627.1877,M,43.2110,M,3.3,0123*41
$GNGNS,133012.00,4742.4454337,N,01617.9734526,E,DAAA,22,0.7,627.1877,43.2110,,*5D
$GPGNS,133012.00,,,,,,04,,,,3.3,123*7B
$GLGNS,133012.00,,,,,,05,,,,,*78
$GAGNS,133012.00,,,,,,06,,,,,*76
$GBGNS,133012.00,,,,,,07,,,,,*74
$GPLLQ,133012.00,010125,,M,,M,1,22,6.032,,M*14
$GPVTG,,T,,M,0.01,N,0.01,K,D*26
$GPHDT,,T*1B
$GPTHS,,V*0E
$GPROT,,V*08
$PSSN,HRP,133012.00,010125,,,,,,,00,0,,*63
$PTNL,AVR,133012.00,,Yaw,,Tilt,,,,0,,00*35
$GPGSA,A,3,11,12,25,32,,,,,,,,,1.4,0.7,1.2*36
$GPGSA,A,3,69,77,78,87,88,,,,,,,,1.4,0.7,1.2*3C
$GPGSA,A,3,02,07,27,29,30,34,,,,,,,1.4,0.7,1.2*3C
$GPGSA,A,3,12,24,25,26,34,35,44,,,,,,1.4,0.7,1.2*34
$GPGST,133012.00,5.183,4.631,0.982,12.117,4.533,1.366,3.739*60
$GPGBS,133012.00,11.237,4.570,13.014,32,0.0001,-3.774,1.190*79
$GPGRS,133012.00,1,1.4,0.3,-0.0,-3.8,,,,,,,,*41
$GPGRS,133012.00,1,0.1,-5.2,-1.1,5.3,0.9,,,,,,,*6B
$GPGRS,133012.00,1,0.3,1.1,9.6,1.6,1.5,1.5,,,,,,*47
$GPGRS,133012.00,1,-2.2,-0.3,14.5,-0.8,2.4,0.8,2.6,,,,,*7E
$GPGSV,4,1,14,12,74,049,46,28,15,312,32,19,15,046,27,24,40,153,41*72
$GPGSV,4,2,14,06,29,062,30,11,31,106,46,29,25,212,32,32,32,285,37*70
$GPGSV,4,3,14,25,57,284,45,03,00,000,,36,35,170,34,34,31,208,35*79
$GPGSV,4,4,14,49,34,195,36,61,03,257,*7A
$GLGSV,3,1,09,78,59,323,50,86,18,027,34,79,11,295,,68,22,260,32*64
$GLGSV,3,2,09,69,24,314,46,88,36,159,45,87,53,070,45,77,46,086,40*6E
$GLGSV,3,3,09,76,05,103,*5A
$GAGSV,3,1,12,30,81,344,45,36,30,065,33,34,27,124,37,07,37,235,42*64
$GAGSV,3,2,12,29,30,301,37,02,35,077,46,27,33,272,37,18,55,076,*6C
$GAGSV,3,3,12,15,00,166,,19,03,336,,08,08,189,,11,06,022,*65
$GBGSV,5,1,20,24,78,100,47,34,26,186,47,43,14,236,,05,20,130,*69
$GBGSV,5,2,20,11,24,213,,41,13,283,35,10,21,061,26,26,26,113,35*64
$GBGSV,5,3,20,56,29,052,,12,47,159,40,35,34,053,45,25,43,297,35*65
$GBGSV,5,4,20,44,59,119,50,38,01,077,,40,02,047,,32,07,334,31*67
$GBGSV,5,5,20,07,09,058,,33,03,237,,02,04,108,,60,08,110,*6E
$GPGGA,133012.00,,,,,0,00,,,M,,M,,*4A
$PTNL,GGK,133012.00,010125,4742.4454337,N,01617.9734526,E,1,22,1.4,EHT670.3987,M*43
$GPGGQ,133012.00,010125,4742.4454337,N,01617.9734526,E,1,22,6.032,627.1877,M*31
$GPGFA,133012.00,44.030,30.656,4.631,0.982,12.117,3.739,,VVV*3D
$GPLLK,133012.00,010125,,M,,M,1,22,1.6,,M*0E
$GNGMP,133012.00,,,,,DAAA,22,0.7,,,,*53
$GPGMP,133012.00,,,,,,04,,,,3.3,123*7B
$GLGMP,133012.00,,,,,,05,,,,,*78
$GAGMP,133012.00,,,,,,06,,,,,*76
$GBGMP,133012.00,,,,,,07,,,,,*74
$PSSN,SNC,[0,307830000,2347]*4B
$GPZDA,133017.00,01,01,2025,,*64
$GPDTM,W84,,00.0000000,N,00.0000000,E,00.0000000,W84*5F
$GPRMC,133017.00,A,4742.4454417,N,01617.9734416,E,0.0,,010125,5.1,E,D*17
$GPGLL,4742.4454417,N,01617.9734416,E,133017.00,A,D*66
$GPGGA,133017.00,4742.4454417,N,01617.9734416,E,2,24,0.6,627.1674,M,43.2110,M,2.0,0123*4B
$GNGNS,133017.00,4742.4454417,N,01617.9734416,E,DAAA,24,0.6,627.1674,43.2110,,*55
$GPGNS,133017.00,,,,,,05,,,,2.0,123*7D
$GLGNS,133017.00,,,,,,06,,,,,*7E
$GAGNS,133017.00,,,,,,06,,,,,*73
$GBGNS,133017.00,,,,,,07,,,,,*71
$GPLLQ,133017.00,010125,,M,,M,1,24,3.558,,M*1B
$GPVTG,,T,,M,0.01,N,0.02,K,D*25
$GPHDT,,T*1B
$GPTHS,,V*0E
$GPROT,,V*08
$PSSN,HRP,133017.00,010125,,,,,,,00,0,,*66
$PTNL,AVR,133017.00,,Yaw,,Tilt,,,,0,,00*30
$GPGSA,A,3,06,11,12,25,32,,,,,,,,1.3,0.6,1.1*35
$GPGSA,A,3,68,69,77,78,87,88,,,,,,,1.3,0.6,1.1*37
$GPGSA,A,3,02,07,27,29,30,34,,,,,,,1.3,0.6,1.1*39
$GPGSA,A,3,12,24,25,26,34,35,44,,,,,,1.3,0.6,1.1*31
$GPGST,133017.00,4.270,2.384,0.812,6.332,2.371,0.849,2.514*53
$GPGBS,133017.00,10.565,3.494,11.665,06,0.0001,-2.572,1.304*7E
$GPGRS,133017.00,1,-2.6,1.2,1.0,-0.1,-1.9,,,,,,,*45
$GPGRS,133017.00,1,-6.3,-0.2,-4.1,-0.9,8.2,1.4,,,,,,*4D
$GPGRS,133017.00,1,0.2,1.1,11.9,2.1,1.6,1.8,,,,,,*7F
$GPGRS,133017.00,1,-0.7,0.2,0.9,0.4,2.5,2.0,2.7,,,,,*42
$GPGSV,4,1,14,12,74,049,46,28,15,312,30,19,15,046,27,24,40,153,43*72
$GPGSV,4,2,14,06,29,062,38,11,31,106,45,29,25,212,34,32,32,285,35*7F
$GPGSV,4,3,14,25,57,284,45,03,00,000,,36,35,170,35,34,31,208,35*78
$GPGSV,4,4,14,49,34,195,36,61,03,257,*7A
$GLGSV,3,1,09,78,59,323,50,86,18,027,34,79,11,295,39,68,22,260,36*6A
$GLGSV,3,2,09,69,24,314,45,88,36,159,46,87,53,070,45,77,46,086,40*6E
$GLGSV,3,3,09,76,05,103,*5A
$GAGSV,3,1,12,30,81,344,45,36,30,065,33,34,27,124,36,07,37,235,42*65
$GAGSV,3,2,12,29,30,301,38,02,35,077,46,27,33,272,37,18,55,076,*63
$GAGSV,3,3,12,15,00,166,,19,03,336,,08,08,189,,11,06,022,*65
$GBGSV,5,1,20,24,78,100,48,34,26,186,47,43,14,236,,05,20,130,*66
$GBGSV,5,2,20,11,24,213,,41,13,283,35,10,21,061,25,26,26,113,36*64
$GBGSV,5,3,20,56,29,052,,12,47,159,41,35,34,053,45,25,43,297,36*67
$GBGSV,5,4,20,44,59,119,49,38,01,077,,40,02,047,,32,07,333,33*6A
$GBGSV,5,5,20,07,09,058,,33,03,237,,02,04,108,,60,08,110,*6E
$GPGGA,133017.00,,,,,0,00,,,M,,M,,*4F
$PTNL,GGK,133017.00,010125,4742.4454417,N,01617.9734416,E,1,24,1.3,EHT670.3785,M*4C
$GPGGQ,133017.00,010125,4742.4454417,N,01617.9734416,E,1,24,3.558,627.1674,M*34
$GPGFA,133017.00,22.662,20.611,2.384,0.812,6.332,2.514,,VVV*02
$GPLLK,133017.00,010125,,M,,M,1,24,1.5,,M*0E
$GNGMP,133017.00,,,,,DAAA,24,0.6,,,,*51
$GPGMP,133017.00,,,,,,05,,,,2.0,123*7D
$GLGMP,133017.00,,,,,,06,,,,,*7E
$GAGMP,133017.00,,,,,,06,,,,,*73
$GBGMP,133017.00,,,,,,07,,,,,*71
$PSSN,SNC,[0,307835000,2347]*4E
$GPZDA,133022.00,01,01,2025,,*62
$GPDTM,W84,,00.0000000,N,00.0000000,E,00.0000000,W84*5F
$GPRMC,133022.00,A,4742.4454474,N,01617.9734446,E,0.0,,010125,5.1,E,D*11
$GPGLL,4742.4454474,N,01617.9734446,E,133022.00,A,D*60
$GPGGA,133022.00,4742.4454474,N,01617.9734446,E,2,21,0.6,627.1572,M,43.2110,M,2.2,0123*4F
$GNGNS,133022.00,4742.4454474,N,01617.9734446,E,DAAA,21,0.6,627.1572,43.2110,,*53
$GPGNS,133022.00,,,,,,05,,,,2.2,123*79
$GLGNS,133022.00,,,,,,05,,,,,*7B
$GAGNS,133022.00,,,,,,05,,,,,*76
$GBGNS,133022.00,,,,,,06,,,,,*76
$GPLLQ,133022.00,010125,,M,,M,1,21,3.804,,M*1C
$GPVTG,,T,,M,0.00,N,0.00,K,D*26
$GPHDT,,T*1B
$GPTHS,,V*0E
$GPROT,,V*08
$PSSN,HRP,133022.00,010125,,,,,,,00,0,,*60
$PTNL,AVR,133022.00,,Yaw,,Tilt,,,,0,,00*36
$GPGSA,A,3,06,11,12,25,29,,,,,,,,1.3,0.6,1.2*3C
$GPGSA,A,3,69,77,78,87,88,,,,,,,,1.3,0.6,1.2*3A
$GPGSA,A,3,02,07,29,30,34,,,,,,,,1.3,0.6,1.2*3F
$GPGSA,A,3,12,24,26,34,35,44,,,,,,,1.3,0.6,1.2*35
$GPGST,133022.00,2.566,1.962,0.847,340.166,1.868,1.038,3.148*53
$GPGBS,133022.00,8.093,4.313,13.952,06,0.0001,-3.904,1.314*46
$GPGRS,133022.00,1,-3.9,0.6,1.3,-0.2,0.6,,,,,,,*6B
$GPGRS,133022.00,1,-1.1,-5.2,-2.6,4.8,1.1,,,,,,,*43
$GPGRS,133022.00,1,-0.6,-0.1,2.0,1.4,1.0,,,,,,,*60
$GPGRS,133022.00,1,-0.1,0.4,-0.2,1.8,1.2,1.5,,,,,,*46
$GPGSV,4,1,14,12,74,049,46,28,15,312,,19,15,046,27,24,40,153,44*76
$GPGSV,4,2,14,06,29,062,36,11,31,106,44,29,25,212,37,32,32,285,35*73
$GPGSV,4,3,14,25,57,285,46,03,00,000,,36,35,170,35,34,31,208,35*7A
$GPGSV,4,4,14,49,34,195,36,61,03,257,*7A
$GLGSV,3,1,09,78,59,323,48,86,18,027,33,79,11,295,37,68,22,260,28*65
$GLGSV,3,2,09,69,24,314,46,88,36,159,46,87,53,070,44,77,46,086,40*6C
$GLGSV,3,3,09,76,05,103,*5A
$GAGSV,3,1,12,30,81,344,44,36,30,065,33,34,27,124,35,07,37,235,41*64
$GAGSV,3,2,12,29,30,301,38,02,35,077,46,27,33,272,34,18,55,076,*60
$GAGSV,3,3,12,15,00,166,,19,03,336,,08,08,189,,11,06,022,*65
$GBGSV,5,1,20,24,78,100,48,34,26,186,46,43,14,236,,05,20,130,*67
$GBGSV,5,2,20,11,24,213,,41,13,283,33,10,21,061,24,26,26,113,35*60
$GBGSV,5,3,20,56,29,052,,12,47,159,41,35,34,053,45,25,43,297,31*60
$GBGSV,5,4,20,44,59,119,48,38,01,077,,40,02,047,,32,07,333,34*6C
$GBGSV,5,5,20,07,09,058,,33,03,237,,02,04,108,,60,08,110,*6E
$GPGGA,133022.00,,,,,0,00,,,M,,M,,*49
$PTNL,GGK,133022.00,010125,4742.4454474,N,01617.9734446,E,1,21,1.3,EHT670.3682,M*49
$GPGGQ,133022.00,010125,4742.4454474,N,01617.9734446,E,1,21,3.804,627.1572,M*36
$GPGFA,133022.00,18.651,25.812,1.962,0.847,340.166,3.148,,VVV*0A
$GPLLK,133022.00,010125,,M,,M,1,21,1.5,,M*0D
$GNGMP,133022.00,,,,,DAAA,21,0.6,,,,*52
$GPGMP,133022.00,,,,,,05,,,,2.2,123*79
$GLGMP,133022.00,,,,,,05,,,,,*7B
$GAGMP,133022.00,,,,,,05,,,,,*76
$GBGMP,133022.00,,,,,,06,,,,,*76
$PSSN,SNC,[0,307840000,2347]*4C
$GPZDA,133027.00,01,01,2025,,*67
$GPDTM,W84,,00.0000000,N,00.0000000,E,00.0000000,W84*5F
$GPRMC,133027.00,A,4742.4454470,N,01617.9734449,E,0.0,,010125,5.1,E,D*1F
$GPGLL,4742.4454470,N,01617.9734449,E,133027.00,A,D*6E
$GPGGA,133027.00,4742.4454470,N,01617.9734449,E,2,21,0.7,627.1536,M,43.2110,M,2.0,0123*42
$GNGNS,133027.00,4742.4454470,N,01617.9734449,E,DAAA,21,0.7,627.1536,43.2110,,*5C
$GPGNS,133027.00,,,,,,05,,,,2.0,123*7E
$GLGNS,133027.00,,,,,,07,,,,,*7C
$GAGNS,133027.00,,,,,,04,,,,,*72
$GBGNS,133027.00,,,,,,05,,,,,*70
$GPLLQ,133027.00,010125,,M,,M,1,21,2.771,,M*15
$GPVTG,,T,,M,0.00,N,0.01,K,D*27
$GPHDT,,T*1B
$GPTHS,,V*0E
$GPROT,,V*08
$PSSN,HRP,133027.00,010125,,,,,,,00,0,,*65
$PTNL,AVR,133027.00,,Yaw,,Tilt,,,,0,,00*33
$GPGSA,A,3,11,12,25,29,32,,,,,,,,1.3,0.7,1.1*39
$GPGSA,A,3,68,69,77,78,79,87,88,,,,,,1.3,0.7,1.1*38
$GPGSA,A,3,02,07,29,30,,,,,,,,,1.3,0.7,1.1*3A
$GPGSA,A,3,12,24,34,35,44,,,,,,,,1.3,0.7,1.1*33
$GPGST,133027.00,4.984,1.403,0.629,6.165,1.397,0.643,2.306*57
$GPGBS,133027.00,8.585,4.598,12.487,68,0.0001,13.828,6.481*57
$GPGRS,133027.00,1,-0.2,0.5,0.0,0.4,-1.1,,,,,,,*67
$GPGRS,133027.00,1,13.8,-1.4,-6.2,-3.6,9.4,-1.3,-0.5,,,,,*7D
$GPGRS,133027.00,1,-1.7,-1.9,1.1,0.7,,,,,,,,*43
$GPGRS,133027.00,1,-0.2,-0.2,1.1,-0.6,0.3,,,,,,,*4C
$GPGSV,4,1,14,12,74,050,46,28,15,312,29,19,15,046,27,24,40,153,44*75
$GPGSV,4,2,14,06,29,062,32,11,31,106,43,29,25,212,39,32,32,285,36*7D
$GPGSV,4,3,14,25,57,285,46,03,00,000,,36,35,170,35,34,31,208,35*7A
$GPGSV,4,4,14,49,34,195,36,61,03,257,*7A
$GLGSV,3,1,09,78,59,323,48,86,18,027,34,79,11,295,38,68,22,260,41*62
$GLGSV,3,2,09,69,24,314,47,88,36,159,45,87,53,070,43,77,46,086,40*69
$GLGSV,3,3,09,76,05,103,*5A
$GAGSV,3,1,12,30,81,344,44,36,30,065,34,34,27,124,35,07,37,235,41*63
$GAGSV,3,2,12,29,30,301,39,02,35,077,46,27,33,272,31,18,55,076,*64
$GAGSV,3,3,12,15,00,166,,19,03,336,,08,08,189,,11,06,022,*65
$GBGSV,5,1,20,24,78,101,48,34,26,186,45,43,14,236,,05,20,130,*65
$GBGSV,5,2,20,11,24,213,,41,13,283,33,10,21,061,34,26,26,113,34*60
$GBGSV,5,3,20,56,29,052,,12,47,159,41,35,34,053,44,25,43,297,30*60
$GBGSV,5,4,20,44,59,119,48,38,01,077,,40,02,047,,32,07,333,35*6D
$GBGSV,5,5,20,07,08,058,,33,03,237,,02,04,108,,60,08,110,*6F
$GPGGA,133027.00,,,,,0,00,,,M,,M,,*4C
$PTNL,GGK,133027.00,010125,4742.4454470,N,01617.9734449,E,1,21,1.3,EHT670.3647,M*4E
$GPGGQ,133027.00,010125,4742.4454470,N,01617.9734449,E,1,21,2.771,627.1536,M*34
$GPGFA,133027.00,13.343,18.906,1.403,0.629,6.165,2.306,,VVV*0F
$GPLLK,133027.00,010125,,M,,M,1,21,1.5,,M*08
$GNGMP,133027.00,,,,,DAAA,21,0.7,,,,*56
$GPGMP,133027.00,,,,,,05,,,,2.0,123*7E
$GLGMP,133027.00,,,,,,07,,,,,*7C
$GAGMP,133027.00,,,,,,04,,,,,*72
$GBGMP,133027.00,,,,,,05,,,,,*70
$PSSN,SNC,[0,307845000,2347]*49
$GPZDA,133032.00,01,01,2025,,*63
$GPDTM,W84,,00.0000000,N,00.0000000,E,00.0000000,W84*5F
$GPRMC,133032.00,A,4742.4454525,N,01617.9734524,E,0.0,,010125,5.1,E,D*10
$GPGLL,4742.4454525,N,01617.9734524,E,133032.00,A,D*61
$GPGGA,133032.00,4742.4454525,N,01617.9734524,E,2,24,0.6,627.1609,M,43.2110,M,3.0,0123*47
$GNGNS,133032.00,4742.4454525,N,01617.9734524,E,DAAA,24,0.6,627.1609,43.2110,,*58
$GPGNS,133032.00,,,,,,06,,,,3.0,123*78
$GLGNS,133032.00,,,,,,06,,,,,*79
$GAGNS,133032.00,,,,,,05,,,,,*77
$GBGNS,133032.00,,,,,,07,,,,,*76
$GPLLQ,133032.00,010125,,M,,M,1,24,4.144,,M*12
$GPVTG,,T,,M,0.01,N,0.01,K,D*26
$GPHDT,,T*1B
$GPTHS,,V*0E
$GPROT,,V*08
$PSSN,HRP,133032.00,010125,,,,,,,00,0,,*61
$PTNL,AVR,133032.00,,Yaw,,Tilt,,,,0,,00*37
$GPGSA,A,3,11,12,24,25,29,32,,,,,,,1.1,0.6,0.9*35
$GPGSA,A,3,69,77,78,79,87,88,,,,,,,1.1,0.6,0.9*3C
$GPGSA,A,3,02,07,29,30,34,,,,,,,,1.1,0.6,0.9*37
$GPGSA,A,3,12,24,32,34,35,41,44,,,,,,1.1,0.6,0.9*3D
$GPGST,133032.00,4.958,1.961,0.983,11.844,1.930,1.043,3.516*6E
$GPGBS,133032.00,5.162,4.411,11.449,24,0.0001,3.212,0.852*6C
$GPGRS,133032.00,1,-0.7,-0.6,3.2,-1.1,2.4,1.6,,,,,,*62
$GPGRS,133032.00,1,-2.4,-6.6,-4.0,15.3,-1.6,-4.0,,,,,,*55
$GPGRS,133032.00,1,-3.2,-3.8,-0.2,-0.0,0.2,,,,,,,*6A
$GPGRS,133032.00,1,-0.8,-1.5,2.4,-0.1,-4.4,-5.0,-0.6,,,,,*68
$GPGSV,4,1,14,12,74,050,46,28,15,312,28,19,15,046,28,24,40,153,42*7D
$GPGSV,4,2,14,06,29,062,31,11,31,106,41,29,25,212,40,32,32,285,39*7D
$GPGSV,4,3,14,25,57,285,46,03,00,000,,36,35,170,35,34,31,208,35*7A
$GPGSV,4,4,14,49,34,195,36,61,03,257,*7A
$GLGSV,3,1,09,78,59,323,49,86,18,027,35,79,11,295,35,68,22,260,27*6F
$GLGSV,3,2,09,69,24,314,47,88,36,159,43,87,53,070,44,77,46,086,39*66
$GLGSV,3,3,09,76,04,103,*5B
$GAGSV,3,1,12,30,81,344,44,36,30,065,34,34,27,124,35,07,37,235,40*62
$GAGSV,3,2,12,29,30,301,39,02,35,077,45,27,33,272,28,18,55,076,*6F
$GAGSV,3,3,12,15,00,166,,19,03,336,,08,08,189,,11,06,022,*65
$GBGSV,5,1,20,24,78,101,48,34,27,186,44,43,14,236,,05,20,130,*65
$GBGSV,5,2,20,11,24,213,,41,13,283,37,10,21,061,23,26,25,113,33*66
$GBGSV,5,3,20,56,29,052,,12,47,159,42,35,34,053,43,25,43,298,30*6B
$GBGSV,5,4,20,44,59,119,49,38,01,077,,40,02,047,,32,07,333,37*6E
$GBGSV,5,5,20,07,08,058,,33,03,237,,02,04,108,,60,08,110,*6F
$GPGGA,133032.00,,,,,0,00,,,M,,M,,*48
$PTNL,GGK,133032.00,010125,4742.4454525,N,01617.9734524,E,1,24,1.1,EHT670.3719,M*4C
$GPGGQ,133032.00,010125,4742.4454525,N,01617.9734524,E,1,24,4.144,627.1609,M*37
$GPGFA,133032.00,18.649,28.831,1.961,0.983,11.844,3.516,,VVV*35
$GPLLK,133032.00,010125,,M,,M,1,24,1.3,,M*0F
$GNGMP,133032.00,,,,,DAAA,24,0.6,,,,*56
$GPGMP,133032.00,,,,,,06,,,,3.0,123*78
$GLGMP,133032.00,,,,,,06,,,,,*79
$GAGMP,133032.00,,,,,,05,,,,,*77
$GBGMP,133032.00,,,,,,07,,,,,*76
$PSSN,SNC,[0,307850000,2347]*4D
$GPZDA,133037.00,01,01,2025,,*66
$GPDTM,W84,,00.0000000,N,00.0000000,E,00.0000000,W84*5F
$GPRMC,133037.00,A,4742.4454681,N,01617.9734621,E,0.0,,010125,5.1,E,D*1E
$GPGLL,4742.4454681,N,01617.9734621,E,133037.00,A,D*6F
$GPGGA,133037.00,4742.4454681,N,01617.9734621,E,2,22,0.6,627.1807,M,43.2110,M,2.6,0123*48
$GNGNS,133037.00,4742.4454681,N,01617.9734621,E,DAAA,22,0.6,627.1807,43.2110,,*50
$GPGNS,133037.00,,,,,,05,,,,2.6,123*79
$GLGNS,133037.00,,,,,,05,,,,,*7F
$GAGNS,133037.00,,,,,,05,,,,,*72
$GBGNS,133037.00,,,,,,07,,,,,*73
$GPLLQ,133037.00,010125,,M,,M,1,22,3.507,,M*15
$GPVTG,,T,,M,0.01,N,0.02,K,D*25
$GPHDT,,T*1B
$GPTHS,,V*0E
$GPROT,,V*08
$PSSN,HRP,133037.00,010125,,,,,,,00,0,,*64
$PTNL,AVR,133037.00,,Yaw,,Tilt,,,,0,,00*32
$GPGSA,A,3,11,12,24,25,32,,,,,,,,1.2,0.6,1.0*35
$GPGSA,A,3,69,77,78,87,88,,,,,,,,1.2,0.6,1.0*39
$GPGSA,A,3,02,07,29,30,34,,,,,,,,1.2,0.6,1.0*3C
$GPGSA,A,3,12,24,32,34,35,41,44,,,,,,1.2,0.6,1.0*36
$GPGST,133037.00,4.335,1.792,0.799,23.099,1.678,1.017,2.907*6B
$GPGBS,133037.00,8.797,4.582,11.323,32,0.0001,2.749,1.197*64
$GPGRS,133037.00,1,-1.3,-0.6,0.9,-0.9,2.7,,,,,,,*49
$GPGRS,133037.00,1,-2.4,-8.2,-3.3,0.6,-5.2,,,,,,,*68
$GPGRS,133037.00,1,-3.9,-3.9,-0.3,-0.2,0.3,,,,,,,*67
$GPGRS,133037.00,1,-0.7,-1.5,3.0,0.0,-8.0,-7.3,-0.8,,,,,*4C
$GPGSV,4,1,14,12,74,050,46,28,15,312,29,19,15,046,28,24,40,153,40*7E
$GPGSV,4,2,14,06,29,062,32,11,31,106,39,29,25,212,41,32,32,285,40*7E
$GPGSV,4,3,14,25,57,285,46,03,00,000,,36,35,170,35,34,31,208,35*7A
$GPGSV,4,4,14,49,34,195,36,61,03,257,*7A
$GLGSV,3,1,09,78,59,324,49,86,18,027,37,79,11,295,32,68,22,260,38*63
$GLGSV,3,2,09,69,24,314,48,88,36,159,42,87,53,069,44,77,46,087,38*60
$GLGSV,3,3,09,76,04,103,*5B
$GAGSV,3,1,12,30,81,345,43,36,30,065,33,34,27,124,36,02,35,078,45*69
$GAGSV,3,2,12,07,37,235,39,29,30,301,38,27,33,272,26,18,55,076,*68
$GAGSV,3,3,12,19,03,336,,11,06,022,,08,08,189,,15,00,166,*65
$GBGSV,5,1,20,24,78,101,49,34,27,186,43,43,14,236,,05,20,130,*63
$GBGSV,5,2,20,11,24,213,,41,13,283,38,10,21,061,21,26,25,113,32*6A
$GBGSV,5,3,20,56,29,052,,12,47,159,42,35,34,053,41,25,43,298,32*6B
$GBGSV,5,4,20,44,59,119,48,38,01,077,,40,02,047,,32,07,333,37*6F
$GBGSV,5,5,20,07,08,058,,33,03,237,,02,04,108,,60,08,110,*6F
$GPGGA,133037.00,,,,,0,00,,,M,,M,,*4D
$PTNL,GGK,133037.00,010125,4742.4454681,N,01617.9734621,E,1,22,1.2,EHT670.3918,M*48
$GPGGQ,133037.00,010125,4742.4454681,N,01617.9734621,E,1,22,3.507,627.1807,M*3B
$GPGFA,133037.00,17.036,23.837,1.792,0.799,23.099,2.907,,VVV*3F
$GPLLK,133037.00,010125,,M,,M,1,22,1.3,,M*0C
$GNGMP,133037.00,,,,,DAAA,22,0.6,,,,*55
$GPGMP,133037.00,,,,,,05,,,,2.6,123*79
$GLGMP,133037.00,,,,,,05,,,,,*7F
$GAGMP,133037.00,,,,,,05,,,,,*72
$GBGMP,133037.00,,,,,,07,,,,,*73
$PSSN,SNC,[0,307855000,2347]*48
$GPZDA,133042.00,01,01,2025,,*64
$GPDTM,W84,,00.0000000,N,00.0000000,E,00.0000000,W84*5F
$GPRMC,133042.00,A,4742.4454661,N,01617.9734744,E,0.0,,010125,5.1,E,D*10
$GPGLL,4742.4454661,N,01617.9734744,E,133042.00,A,D*61
$GPGGA,133042.00,4742.4454661,N,01617.9734744,E,2,23,0.6,627.1889,M,43.2110,M,2.0,0123*47
$GNGNS,133042.00,4742.4454661,N,01617.9734744,E,DAAA,23,0.6,627.1889,43.2110,,*59
$GPGNS,133042.00,,,,,,05,,,,2.0,123*7D
$GLGNS,133042.00,,,,,,06,,,,,*7E
$GAGNS,133042.00,,,,,,05,,,,,*70
$GBGNS,133042.00,,,,,,07,,,,,*71
$GPLLQ,133042.00,010125,,M,,M,1,23,4.354,,M*11
$GPVTG,,T,,M,0.00,N,0.00,K,D*26
$GPHDT,,T*1B
$GPTHS,,V*0E
$GPROT,,V*08
$PSSN,HRP,133042.00,010125,,,,,,,00,0,,*66
$PTNL,AVR,133042.00,,Yaw,,Tilt,,,,0,,00*30
$GPGSA,A,3,11,12,24,25,32,,,,,,,,1.1,0.6,0.9*3E
$GPGSA,A,3,69,77,78,86,87,88,,,,,,,1.1,0.6,0.9*3C
$GPGSA,A,3,02,07,29,30,34,,,,,,,,1.1,0.6,0.9*37
$GPGSA,A,3,12,24,32,34,35,41,44,,,,,,1.1,0.6,0.9*3D
$GPGST,133042.00,6.903,2.206,1.019,23.120,2.068,1.276,3.613*68
$GPGBS,133042.00,8.194,4.431,10.700,86,0.0001,22.496,6.810*53
$GPGRS,133042.00,1,-0.5,-0.2,0.5,-0.7,2.9,,,,,,,*44
$GPGRS,133042.00,1,-1.4,-9.5,-3.2,22.5,1.2,-4.7,,,,,,*74
$GPGRS,133042.00,1,-4.4,-3.6,-1.8,-0.6,0.4,,,,,,,*69
$GPGRS,133042.00,1,-0.8,-1.4,2.4,-0.1,-8.6,-0.6,-1.3,,,,,*67
$GPGSV,4,1,14,12,74,050,46,28,15,312,30,19,15,046,27,24,40,153,39*77
$GPGSV,4,2,14,06,29,062,34,11,31,106,37,29,26,212,40,32,32,285,40*74
$GPGSV,4,3,14,25,57,285,44,03,00,000,,36,35,170,35,34,31,208,36*7B
$GPGSV,4,4,14,49,34,195,37,61,03,257,*7B
$GLGSV,3,1,09,78,59,324,49,86,18,027,39,79,11,296,25,68,22,260,*63
$GLGSV,3,2,09,69,24,314,49,88,36,159,42,87,53,069,43,77,46,087,38*66
$GLGSV,3,3,09,76,04,103,*5B
$GAGSV,3,1,12,30,81,345,43,36,30,065,32,34,27,124,36,02,35,078,44*69
$GAGSV,3,2,12,07,37,235,39,29,30,301,37,27,33,272,27,18,55,076,*66
$GAGSV,3,3,12,19,03,336,,11,06,022,,08,08,189,,15,00,166,*65
$GBGSV,5,1,20,24,78,101,49,34,27,186,42,43,14,236,,05,20,130,*62
$GBGSV,5,2,20,11,24,213,,41,13,283,39,10,21,061,22,26,25,113,32*68
$GBGSV,5,3,20,56,29,052,,12,47,159,42,35,34,053,40,25,43,298,34*6C
$GBGSV,5,4,20,44,59,119,48,38,01,077,,40,02,047,,32,07,333,37*6F
$GBGSV,5,5,20,07,08,058,,33,03,237,,02,04,108,,60,08,110,*6F
$GPGGA,133042.00,,,,,0,00,,,M,,M,,*4F
$PTNL,GGK,133042.00,010125,4742.4454661,N,01617.9734744,E,1,23,1.1,EHT670.3999,M*4D
$GPGGQ,133042.00,010125,4742.4454661,N,01617.9734744,E,1,23,4.354,627.1889,M*35
$GPGFA,133042.00,20.976,29.626,2.206,1.019,23.120,3.613,,VVV*3D
$GPLLK,133042.00,010125,,M,,M,1,23,1.3,,M*0F
$GNGMP,133042.00,,,,,DAAA,23,0.6,,,,*56
$GPGMP,133042.00,,,,,,05,,,,2.0,123*7D
$GLGMP,133042.00,,,,,,06,,,,,*7E
$GAGMP,133042.00,,,,,,05,,,,,*70
$GBGMP,133042.00,,,,,,07,,,,,*71
$PSSN,SNC,[0,307860000,2347]*4E
$GPZDA,133047.00,01,01,2025,,*61
$GPDTM,W84,,00.0000000,N,00.0000000,E,00.0000000,W84*5F
$GPRMC,133047.00,A,4742.4454656,N,01617.9734826,E,0.0,,010125,5.1,E,D*1A
$GPGLL,4742.4454656,N,01617.9734826,E,133047.00,A,D*6B
$GPGGA,133047.00,4742.4454656,N,01617.9734826,E,2,23,0.6,627.2049,M,43.2110,M,2.2,0123*48
$GNGNS,133047.00,4742.4454656,N,01617.9734826,E,DAAA,23,0.6,627.2049,43.2110,,*54
$GPGNS,133047.00,,,,,,05,,,,2.2,123*7A
$GLGNS,133047.00,,,,,,07,,,,,*7A
$GAGNS,133047.00,,,,,,04,,,,,*74
$GBGNS,133047.00,,,,,,07,,,,,*74
$GPLLQ,133047.00,010125,,M,,M,1,23,3.576,,M*15
$GPVTG,,T,,M,0.00,N,0.01,K,D*27
$GPHDT,,T*1B
$GPTHS,,V*0E
$GPROT,,V*08
$PSSN,HRP,133047.00,010125,,,,,,,00,0,,*63
$PTNL,AVR,133047.00,,Yaw,,Tilt,,,,0,,00*35
$GPGSA,A,3,11,12,24,25,32,,,,,,,,1.1,0.6,0.9*3E
$GPGSA,A,3,69,77,78,79,86,87,88,,,,,,1.1,0.6,0.9*32
$GPGSA,A,3,02,07,29,30,,,,,,,,,1.1,0.6,0.9*30
$GPGSA,A,3,12,24,32,34,35,41,44,,,,,,1.1,0.6,0.9*3D
$GPGST,133047.00,5.606,1.805,0.832,23.469,1.689,1.049,2.972*6B
$GPGBS,133047.00,8.256,4.525,10.706,86,0.0001,15.484,6.808*57
$GPGRS,133047.00,1,-0.7,-0.6,1.3,-0.7,1.5,,,,,,,*4F
$GPGRS,133047.00,1,-0.6,-9.3,-2.6,5.7,15.5,-1.3,-2.9,,,,,*7D
$GPGRS,133047.00,1,-4.1,-3.5,-3.2,-1.0,,,,,,,,*4F
$GPGRS,133047.00,1,-1.0,-1.2,1.9,-0.1,-6.6,5.6,-1.1,,,,,*47
$GPGSV,4,1,14,12,74,050,46,28,15,312,27,19,15,046,27,24,40,153,40*7F
$GPGSV,4,2,14,06,29,062,35,11,31,105,38,29,26,212,39,32,32,285,40*77
$GPGSV,4,3,14,25,57,285,43,03,00,000,,36,35,170,35,34,31,208,36*7C
$GPGSV,4,4,14,49,34,195,36,61,03,257,*7A
$GLGSV,3,1,09,78,59,324,50,86,18,027,41,79,11,296,22,68,22,260,*63
$GLGSV,3,2,09,69,24,314,50,88,36,159,42,87,53,069,39,77,46,087,38*63
$GLGSV,3,3,09,76,04,103,*5B
$GAGSV,3,1,12,30,81,345,42,36,30,065,31,34,27,124,35,02,35,078,43*6F
$GAGSV,3,2,12,07,36,235,39,29,30,301,37,27,33,272,32,18,55,076,*63
$GAGSV,3,3,12,19,03,336,,11,06,022,,08,08,189,,15,00,166,*65
$GBGSV,5,1,20,24,78,101,49,34,27,186,42,43,14,236,,05,20,130,*62
$GBGSV,5,2,20,11,24,213,,41,13,283,40,10,21,061,32,26,25,113,31*64
$GBGSV,5,3,20,56,29,052,,12,47,159,41,35,34,053,40,25,43,298,35*6E
$GBGSV,5,4,20,44,59,119,47,38,01,077,,40,02,047,,32,07,333,38*6F
$GBGSV,5,5,20,07,08,058,,33,03,237,,02,04,108,,60,08,110,*6F
$GPGGA,133047.00,,,,,0,00,,,M,,M,,*4A
$PTNL,GGK,133047.00,010125,4742.4454656,N,01617.9734826,E,1,23,1.1,EHT670.4159,M*44
$GPGGQ,133047.00,010125,4742.4454656,N,01617.9734826,E,1,23,3.576,627.2049,M*39
$GPGFA,133047.00,17.165,24.374,1.805,0.832,23.469,2.972,,VVV*32
$GPLLK,133047.00,010125,,M,,M,1,23,1.3,,M*0A
$GNGMP,133047.00,,,,,DAAA,23,0.6,,,,*53
$GPGMP,133047.00,,,,,,05,,,,2.2,123*7A
$GLGMP,133047.00,,,,,,07,,,,,*7A
$GAGMP,133047.00,,,,,,04,,,,,*74
$GBGMP,133047.00,,,,,,07,,,,,*74
$PSSN,SNC,[0,307865000,2347]*4B
$GPZDA,133052.00,01,01,2025,,*65
$GPDTM,W84,,00.0000000,N,00.0000000,E,00.0000000,W84*5F
$GPRMC,133052.00,A,4742.4454735,N,01617.9734776,E,0.0,,010125,5.1,E,D*10
$GPGLL,4742.4454735,N,01617.9734776,E,133052.00,A,D*61
$GPGGA,133052.00,4742.4454735,N,01617.9734776,E,2,23,0.6,627.2093,M,43.2110,M,3.2,0123*44
$GNGNS,133052.00,4742.4454735,N,01617.9734776,E,DAAA,23,0.6,627.2093,43.2110,,*59
$GPGNS,133052.00,,,,,,05,,,,3.2,123*7F
$GLGNS,133052.00,,,,,,06,,,,,*7F
$GAGNS,133052.00,,,,,,04,,,,,*70
$GBGNS,133052.00,,,,,,08,,,,,*7F
$GPLLQ,133052.00,010125,,M,,M,1,23,3.581,,M*19
$GPVTG,,T,,M,0.00,N,0.01,K,D*27
$GPHDT,,T*1B
$GPTHS,,V*0E
$GPROT,,V*08
$PSSN,HRP,133052.00,010125,,,,,,,00,0,,*67
$PTNL,AVR,133052.00,,Yaw,,Tilt,,,,0,,00*31
$GPGSA,A,3,11,12,24,25,32,,,,,,,,1.1,0.6,1.0*36
$GPGSA,A,3,69,77,78,86,87,88,,,,,,,1.1,0.6,1.0*34
$GPGSA,A,3,02,07,29,30,,,,,,,,,1.1,0.6,1.0*38
$GPGSA,A,3,12,24,25,32,34,35,41,44,,,,,1.1,0.6,1.0*32
$GPGST,133052.00,5.139,1.808,0.830,23.572,1.690,1.050,2.978*6A
$GPGBS,133052.00,8.323,4.547,10.771,24,0.0001,1.856,0.854*65
$GPGRS,133052.00,1,0.4,-0.5,1.9,-0.2,-1.7,,,,,,,*46
$GPGRS,133052.00,1,0.5,-7.4,-2.3,14.1,-3.3,-2.5,,,,,,*7C
$GPGRS,133052.00,1,-3.4,-2.5,-3.1,-0.8,,,,,,,,*42
$GPGRS,133052.00,1,-0.8,-1.4,-0.0,3.3,-0.9,-5.7,8.0,-0.9,,,,*4F
$GPGSV,4,1,14,12,74,050,46,28,15,312,34,19,14,046,27,24,40,153,40*7C
$GPGSV,4,2,14,06,29,062,35,11,31,105,39,29,26,212,37,32,32,285,40*78
$GPGSV,4,3,14,25,57,285,42,03,00,000,,36,35,170,35,34,31,208,35*7E
$GPGSV,4,4,14,49,34,195,37,61,03,257,*7B
$GLGSV,3,1,09,78,59,324,51,86,17,027,42,79,11,296,32,68,22,260,*6F
$GLGSV,3,2,09,69,24,314,51,88,36,159,42,87,53,069,35,77,46,087,39*6F
$GLGSV,3,3,09,76,04,104,*5C
$GAGSV,3,1,12,30,81,345,41,36,30,065,30,34,27,124,32,02,35,078,42*6B
$GAGSV,3,2,12,07,36,235,38,29,30,301,36,27,33,272,35,18,55,076,*64
$GAGSV,3,3,12,19,03,336,,11,06,022,,08,08,189,,15,00,166,*65
$GBGSV,5,1,20,24,78,101,48,34,27,186,42,43,14,236,,05,20,130,*63
$GBGSV,5,2,20,11,24,213,,41,13,283,40,10,21,061,22,26,25,114,32*61
$GBGSV,5,3,20,56,29,052,,12,47,159,40,35,34,053,38,25,43,298,36*63
$GBGSV,5,4,20,44,59,119,47,38,01,077,,40,02,048,,32,07,333,37*6F
$GBGSV,5,5,20,07,08,058,,33,03,237,,02,04,108,,60,08,110,*6F
$GPGGA,133052.00,,,,,0,00,,,M,,M,,*4E
$PTNL,GGK,133052.00,010125,4742.4454735,N,01617.9734776,E,1,23,1.1,EHT670.4203,M*42
$GPGGQ,133052.00,010125,4742.4454735,N,01617.9734776,E,1,23,3.581,627.2093,M*3C
$GPGFA,133052.00,17.185,24.422,1.808,0.830,23.572,2.978,,VVV*32
$GPLLK,133052.00,010125,,M,,M,1,23,1.3,,M*0E
$GNGMP,133052.00,,,,,DAAA,23,0.6,,,,*57
$GPGMP,133052.00,,,,,,05,,,,3.2,123*7F
$GLGMP,133052.00,,,,,,06,,,,,*7F
$GAGMP,133052.00,,,,,,04,,,,,*70
$GBGMP,133052.00,,,,,,08,,,,,*7F
$PSSN,SNC,[0,307870000,2347]*4F
$GPZDA,133057.00,01,01,2025,,*60
$GPDTM,W84,,00.0000000,N,00.0000000,E,00.0000000,W84*5F
$GPRMC,133057.00,A,4742.4454827,N,01617.9734657,E,0.0,,010125,5.1,E,D*1B
$GPGLL,4742.4454827,N,01617.9734657,E,133057.00,A,D*6A
$GPGGA,133057.00,4742.4454827,N,01617.9734657,E,2,23,0.6,627.2141,M,43.2110,M,2.3,0123*41
$GNGNS,133057.00,4742.4454827,N,01617.9734657,E,DAAA,23,0.6,627.2141,43.2110,,*5C
$GPGNS,133057.00,,,,,,06,,,,2.3,123*79
$GLGNS,133057.00,,,,,,05,,,,,*79
$GAGNS,133057.00,,,,,,05,,,,,*74
$GBGNS,133057.00,,,,,,07,,,,,*75
$GPLLQ,133057.00,010125,,M,,M,1,23,2.974,,M*1B
$GPVTG,,T,,M,0.01,N,0.02,K,D*25
$GPHDT,,T*1B
$GPTHS,,V*0E
$GPROT,,V*08
$PSSN,HRP,133057.00,010125,,,,,,,00,0,,*62
$PTNL,AVR,133057.00,,Yaw,,Tilt,,,,0,,00*34
$GPGSA,A,3,06,11,12,24,25,32,,,,,,,1.1,0.6,1.0*30
$GPGSA,A,3,69,77,78,86,88,,,,,,,,1.1,0.6,1.0*3B
$GPGSA,A,3,02,07,27,29,30,,,,,,,,1.1,0.6,1.0*3D
$GPGSA,A,3,12,24,32,34,35,41,44,,,,,,1.1,0.6,1.0*35
$GPGST,133057.00,4.881,1.311,0.813,17.803,1.273,0.872,2.542*6F
$GPGBS,133057.00,6.467,3.566,11.402,86,0.0001,14.499,6.811*5F
$GPGRS,133057.00,1,-1.8,-0.1,0.1,1.7,-0.2,-2.2,,,,,,*40
$GPGRS,133057.00,1,1.0,-4.9,-2.5,14.5,-2.3,,,,,,,*74
$GPGRS,133057.00,1,-2.6,-1.8,-1.0,-2.1,-0.4,,,,,,,*45
$GPGRS,133057.00,1,-1.2,-1.7,5.5,-1.5,-5.2,6.6,-1.1,,,,,*48
$GPGSV,4,1,14,12,74,050,47,28,15,312,34,19,14,046,27,24,40,153,40*7D
$GPGSV,4,2,14,06,29,062,36,11,31,105,39,29,26,212,36,32,32,285,38*75
$GPGSV,4,3,14,25,57,285,42,03,00,000,,36,35,170,35,34,31,208,36*7D
$GPGSV,4,4,14,49,34,195,37,61,03,257,*7B
$GLGSV,3,1,09,78,59,324,51,86,17,027,41,79,11,296,30,68,22,260,*6E
$GLGSV,3,2,09,69,24,314,51,88,36,159,41,87,53,069,35,77,46,087,39*6C
$GLGSV,3,3,09,76,04,104,*5C
$GAGSV,3,1,12,30,81,345,40,02,35,078,42,36,30,065,27,34,27,124,30*6E
$GAGSV,3,2,12,07,36,235,36,29,30,301,36,27,33,272,37,18,55,076,*68
$GAGSV,3,3,12,19,03,336,,15,00,166,,11,06,021,,08,08,189,*66
$GBGSV,5,1,20,24,78,101,48,34,27,186,43,43,14,236,,05,20,130,*62
$GBGSV,5,2,20,11,24,213,,41,13,282,39,10,21,061,21,26,25,114,33*6C
$GBGSV,5,3,20,56,29,052,,12,47,159,40,35,34,053,37,25,43,298,30*6A
$GBGSV,5,4,20,44,59,119,47,38,01,077,,40,02,048,,32,07,333,38*60
$GBGSV,5,5,20,07,08,058,,33,03,237,,02,04,108,,60,08,110,*6F
$GPGGA,133057.00,,,,,0,00,,,M,,M,,*4B
$PTNL,GGK,133057.00,010125,4742.4454827,N,01617.9734657,E,1,23,1.1,EHT670.4252,M*4D
$GPGGQ,133057.00,010125,4742.4454827,N,01617.9734657,E,1,23,2.974,627.2141,M*3E
$GPGFA,133057.00,12.465,20.844,1.311,0.813,17.803,2.542,,VVV*3A
$GPLLK,133057.00,010125,,M,,M,1,23,1.3,,M*0B
$GNGMP,133057.00,,,,,DAAA,23,0.6,,,,*52
$GPGMP,133057.00,,,,,,06,,,,2.3,123*79
$GLGMP,133057.00,,,,,,05,,,,,*79
$GAGMP,133057.00,,,,,,05,,,,,*74
$GBGMP,133057.00,,,,,,07,,,,,*75
$PSSN,SNC,[0,307875000,2347]*4A
$GPZDA,133102.00,01,01,2025,,*61
$GPDTM,W84,,00.0000000,N,00.0000000,E,00.0000000,W84*5F
$GPRMC,133102.00,A,4742.4454952,N,01617.9734611,E,0.0,,010125,5.1,E,D*1B
$GPGLL,4742.4454952,N,01617.9734611,E,133102.00,A,D*6A
$GPGGA,133102.00,4742.4454952,N,01617.9734611,E,2,25,0.6,627.2053,M,43.2110,M,2.0,0123*46
$GNGNS,133102.00,4742.4454952,N,01617.9734611,E,DAAA,25,0.6,627.2053,43.2110,,*58
$GPGNS,133102.00,,,,,,06,,,,2.0,123*7B
$GLGNS,133102.00,,,,,,06,,,,,*7B
$GAGNS,133102.00,,,,,,05,,,,,*75
$GBGNS,133102.00,,,,,,08,,,,,*7B
$GPLLQ,133102.00,010125,,M,,M,1,25,3.035,,M*11
$GPVTG,,T,,M,0.00,N,0.01,K,D*27
$GPHDT,,T*1B
$GPTHS,,V*0E
$GPROT,,V*08
$PSSN,HRP,133102.00,010125,,,,,,,00,0,,*63
$PTNL,AVR,133102.00,,Yaw,,Tilt,,,,0,,00*35
$GPGSA,A,3,06,11,12,24,25,32,,,,,,,1.1,0.6,1.0*30
$GPGSA,A,3,69,77,78,86,87,88,,,,,,,1.1,0.6,1.0*34
$GPGSA,A,3,02,07,27,29,30,,,,,,,,1.1,0.6,1.0*3D
$GPGSA,A,3,12,24,25,32,34,35,41,44,,,,,1.1,0.6,1.0*32
$GPGST,133102.00,6.104,1.338,0.837,17.669,1.300,0.895,2.592*66
$GPGBS,133102.00,6.325,3.484,11.349,86,0.0001,14.129,6.812*57
$GPGRS,133102.00,1,-2.0,-0.1,0.3,1.2,-0.1,-1.7,,,,,,*48
$GPGRS,133102.00,1,1.0,-6.0,-2.5,14.1,-3.0,-1.6,,,,,,*7C
$GPGRS,133102.00,1,-1.4,-0.1,0.4,-1.6,0.8,,,,,,,*40
$GPGRS,133102.00,1,-1.2,-0.9,17.7,8.1,-1.2,-3.9,1.9,-0.8,,,,*5A
$GPGSV,4,1,14,12,74,050,47,28,15,312,35,19,14,046,26,24,40,153,40*7D
$GPGSV,4,2,14,06,29,062,37,11,31,105,41,29,26,212,35,32,32,285,35*75
$GPGSV,4,3,14,25,57,285,44,03,00,000,,36,35,170,35,34,31,208,36*7B
$GPGSV,4,4,14,49,34,195,37,61,03,257,*7B
$GLGSV,3,1,09,78,59,324,50,86,17,027,41,79,11,296,30,68,22,260,33*6F
$GLGSV,3,2,09,69,24,314,51,88,36,159,40,87,52,069,36,77,46,087,36*60
$GLGSV,3,3,09,76,04,104,*5C
$GAGSV,3,1,12,30,81,345,40,02,35,078,43,34,27,124,28,36,30,065,26*67
$GAGSV,3,2,12,07,36,235,35,29,30,301,36,27,33,272,39,18,55,076,*65
$GAGSV,3,3,12,19,03,336,,15,00,166,,08,08,189,,11,06,021,*66
$GBGSV,5,1,20,24,77,101,47,34,27,186,44,43,14,236,,05,20,130,*65
$GBGSV,5,2,20,11,24,213,,41,13,282,38,10,21,061,21,26,25,114,33*6D
$GBGSV,5,3,20,56,29,052,,12,47,159,40,35,34,053,37,25,43,298,37*6D
$GBGSV,5,4,20,44,59,119,47,38,01,077,,40,02,048,,32,07,333,38*60
$GBGSV,5,5,20,07,08,058,,33,03,237,,02,04,108,,60,08,110,*6F
$GPGGA,133102.00,,,,,0,00,,,M,,M,,*4A
$PTNL,GGK,133102.00,010125,4742.4454952,N,01617.9734611,E,1,25,1.1,EHT670.4164,M*4D
$GPGGQ,133102.00,010125,4742.4454952,N,01617.9734611,E,1,25,3.035,627.2053,M*37
$GPGFA,133102.00,12.723,21.258,1.338,0.837,17.669,2.592,,VVV*3E
$GPLLK,133102.00,010125,,M,,M,1,25,1.3,,M*0C
$GNGMP,133102.00,,,,,DAAA,25,0.6,,,,*55
$GPGMP,133102.00,,,,,,06,,,,2.0,123*7B
$GLGMP,133102.00,,,,,,06,,,,,*7B
$GAGMP,133102.00,,,,,,05,,,,,*75
$GBGMP,133102.00,,,,,,08,,,,,*7B
$PSSN,SNC,[0,307880000,2347]*40
$GPZDA,133107.00,01,01,2025,,*64
$GPDTM,W84,,00.0000000,N,00.0000000,E,00.0000000,W84*5F
$GPRMC,133107.00,A,4742.4454920,N,01617.9734661,E,0.0,,010125,5.1,E,D*1C
$GPGLL,4742.4454920,N,01617.9734661,E,133107.00,A,D*6D
$GPGGA,133107.00,4742.4454920,N,01617.9734661,E,2,23,0.6,627.2105,M,43.2110,M,2.6,0123*43
$GNGNS,133107.00,4742.4454920,N,01617.9734661,E,DAAA,23,0.6,627.2105,43.2110,,*5B
$GPGNS,133107.00,,,,,,05,,,,2.6,123*7B
$GLGNS,133107.00,,,,,,06,,,,,*7E
$GAGNS,133107.00,,,,,,04,,,,,*71
$GBGNS,133107.00,,,,,,08,,,,,*7E
$GPLLQ,133107.00,010125,,M,,M,1,23,3.727,,M*16
$GPVTG,,T,,M,0.00,N,0.00,K,D*26
$GPHDT,,T*1B
$GPTHS,,V*0E
$GPROT,,V*08
$PSSN,HRP,133107.00,010125,,,,,,,00,0,,*66
$PTNL,AVR,133107.00,,Yaw,,Tilt,,,,0,,00*30
$GPGSA,A,3,06,11,12,24,25,,,,,,,,1.1,0.6,0.9*39
$GPGSA,A,3,68,69,78,86,87,88,,,,,,,1.1,0.6,0.9*32
$GPGSA,A,3,02,27,29,30,,,,,,,,,1.1,0.6,0.9*32
$GPGSA,A,3,12,24,25,32,34,35,41,44,,,,,1.1,0.6,0.9*3A
$GPGST,133107.00,6.554,1.305,1.207,14.712,1.299,1.213,3.275*61
$GPGBS,133107.00,6.387,5.958,15.490,68,0.0001,15.152,6.791*5E
$GPGRS,133107.00,1,1.3,0.1,-0.2,-1.2,0.3,,,,,,,*66
$GPGRS,133107.00,1,15.2,-0.3,-3.5,13.2,-2.4,-2.5,,,,,,*4B
$GPGRS,133107.00,1,-1.2,3.5,-1.1,0.9,,,,,,,,*45
$GPGRS,133107.00,1,-1.2,-0.7,13.4,7.1,-1.7,-1.4,-1.6,-0.8,,,,*71
$GPGSV,4,1,14,12,74,050,47,28,15,312,34,19,14,046,25,24,40,153,38*70
$GPGSV,4,2,14,06,29,062,36,11,31,105,41,29,26,212,33,32,32,285,34*73
$GPGSV,4,3,14,25,57,285,45,03,00,000,,36,35,170,36,34,31,208,35*7A
$GPGSV,4,4,14,49,34,195,37,61,03,257,*7B
$GLGSV,3,1,09,78,59,324,49,86,17,027,41,79,12,296,30,68,22,260,37*60
$GLGSV,3,2,09,69,24,314,50,88,36,159,40,87,52,069,39,77,46,087,33*6B
$GLGSV,3,3,09,76,04,104,*5C
$GAGSV,3,1,12,30,81,346,41,02,35,078,43,34,27,124,28,36,30,065,27*64
$GAGSV,3,2,12,07,36,235,34,29,30,301,35,27,33,272,40,18,55,076,*69
$GAGSV,3,3,12,19,03,336,,15,00,166,,08,08,189,,11,06,021,*66
$GBGSV,5,1,20,24,77,101,47,34,27,186,45,43,14,236,,05,20,130,*64
$GBGSV,5,2,20,11,24,213,,41,13,282,38,10,21,061,19,26,25,114,32*67
$GBGSV,5,3,20,56,29,052,,12,47,159,40,35,34,053,38,25,44,298,36*64
$GBGSV,5,4,20,44,59,118,47,38,01,077,,40,02,048,,32,07,333,38*61
$GBGSV,5,5,20,07,08,058,,33,03,237,,02,04,108,,60,08,110,*6F
$GPGGA,133107.00,,,,,0,00,,,M,,M,,*4F
$PTNL,GGK,133107.00,010125,4742.4454920,N,01617.9734661,E,1,23,1.1,EHT670.4215,M*49
$GPGGQ,133107.00,010125,4742.4454920,N,01617.9734661,E,1,23,3.727,627.2105,M*30
$GPGFA,133107.00,12.412,26.858,1.305,1.207,14.712,3.275,,VVV*30
$GPLLK,133107.00,010125,,M,,M,1,23,1.3,,M*0F
$GNGMP,133107.00,,,,,DAAA,23,0.6,,,,*56
$GPGMP,133107.00,,,,,,05,,,,2.6,123*7B
$GLGMP,133107.00,,,,,,06,,,,,*7E
$GAGMP,133107.00,,,,,,04,,,,,*71
$GBGMP,133107.00,,,,,,08,,,,,*7E
$PSSN,SNC,[0,307885000,2347]*45
$GPZDA,133112.00,01,01,2025,,*60
$GPDTM,W84,,00.0000000,N,00.0000000,E,00.0000000,W84*5F
$GPRMC,133112.00,A,4742.4454822,N,01617.9734639,E,0.0,,010125,5.1,E,D*16
$GPGLL,4742.4454822,N,01617.9734639,E,133112.00,A,D*67
$GPGGA,133112.00,4742.4454822,N,01617.9734639,E,2,24,0.6,627.2126,M,43.2110,M,2.0,0123*49
$GNGNS,133112.00,4742.4454822,N,01617.9734639,E,DAAA,24,0.6,627.2126,43.2110,,*57
$GPGNS,133112.00,,,,,,05,,,,2.0,123*79
$GLGNS,133112.00,,,,,,07,,,,,*7B
$GAGNS,133112.00,,,,,,04,,,,,*75
$GBGNS,133112.00,,,,,,08,,,,,*7A
$GPLLQ,133112.00,010125,,M,,M,1,24,4.345,,M*12
$GPVTG,,T,,M,0.01,N,0.01,K,D*26
$GPHDT,,T*1B
$GPTHS,,V*0E
$GPROT,,V*08
$PSSN,HRP,133112.00,010125,,,,,,,00,0,,*62
$PTNL,AVR,133112.00,,Yaw,,Tilt,,,,0,,00*34
$GPGSA,A,3,11,12,24,25,32,,,,,,,,1.1,0.6,0.9*3E
$GPGSA,A,3,68,69,78,79,86,87,88,,,,,,1.1,0.6,0.9*3C
$GPGSA,A,3,02,27,29,30,,,,,,,,,1.1,0.6,0.9*32
$GPGSA,A,3,12,24,25,32,34,35,41,44,,,,,1.1,0.6,0.9*3A
$GPGST,133112.00,7.451,2.214,1.007,22.754,2.078,1.263,3.601*69
$GPGBS,133112.00,8.437,4.426,10.760,79,0.0001,18.827,7.351*5B
$GPGRS,133112.00,1,-0.1,0.4,-1.5,0.9,-1.9,,,,,,,*4E
$GPGRS,133112.00,1,14.3,-0.8,-3.1,18.8,15.4,0.1,-1.0,,,,,*73
$GPGRS,133112.00,1,-0.4,5.5,0.9,1.1,,,,,,,,*6D
$GPGRS,133112.00,1,0.7,-0.6,7.1,6.1,-1.1,2.1,0.9,0.2,,,,*45
$GPGSV,4,1,14,12,74,050,47,28,15,312,35,19,14,046,26,24,40,153,37*7D
$GPGSV,4,2,14,06,29,062,33,11,31,105,40,29,26,212,33,32,32,285,37*74
$GPGSV,4,3,14,25,57,285,45,03,00,000,,36,35,170,36,34,31,208,36*79
$GPGSV,4,4,14,49,34,195,37,61,03,257,*7B
$GLGSV,3,1,09,78,59,324,48,86,17,027,42,79,12,296,37,68,22,260,36*64
$GLGSV,3,2,09,69,24,314,49,88,36,159,41,87,52,069,42,77,46,087,27*6B
$GLGSV,3,3,09,76,04,104,*5C
$GAGSV,3,1,12,30,81,346,41,02,35,078,44,34,27,124,29,36,30,065,31*65
$GAGSV,3,2,12,07,36,235,35,29,30,301,36,27,33,273,40,18,55,076,*6A
$GAGSV,3,3,12,19,03,336,,15,00,166,,08,08,189,,11,06,021,*66
$GBGSV,5,1,20,24,77,101,47,34,27,186,45,43,14,236,,05,20,130,*64
$GBGSV,5,2,20,11,24,213,,41,13,282,38,10,21,061,31,26,25,114,32*6D
$GBGSV,5,3,20,56,29,052,,12,47,159,40,35,34,053,40,25,44,298,37*6A
$GBGSV,5,4,20,44,59,118,47,38,01,077,,40,02,048,,32,07,333,37*6E
$GBGSV,5,5,20,07,08,058,,33,03,237,,02,04,108,,60,08,110,*6F
$GPGGA,133112.00,,,,,0,00,,,M,,M,,*4B
$PTNL,GGK,133112.00,010125,4742.4454822,N,01617.9734639,E,1,24,1.1,EHT670.4237,M*44
$GPGGQ,133112.00,010125,4742.4454822,N,01617.9734639,E,1,24,4.345,627.2126,M*3B
$GPGFA,133112.00,21.046,29.528,2.214,1.007,22.754,3.601,,VVV*34
$GPLLK,133112.00,010125,,M,,M,1,24,1.3,,M*0C
$GNGMP,133112.00,,,,,DAAA,24,0.6,,,,*55
$GPGMP,133112.00,,,,,,05,,,,2.0,123*79
$GLGMP,133112.00,,,,,,07,,,,,*7B
$GAGMP,133112.00,,,,,,04,,,,,*75
$GBGMP,133112.00,,,,,,08,,,,,*7A
$PSSN,SNC,[0,307890000,2347]*41
$GPZDA,133117.00,01,01,2025,,*65
$GPDTM,W84,,00.0000000,N,00.0000000,E,00.0000000,W84*5F
$GPRMC,133117.00,A,4742.4454722,N,01617.9734661,E,0.0,,010125,5.1,E,D*11
$GPGLL,4742.4454722,N,01617.9734661,E,133117.00,A,D*60
$GPGGA,133117.00,4742.4454722,N,01617.9734661,E,2,24,0.6,627.2124,M,43.2110,M,1.8,0123*47
$GNGNS,133117.00,4742.4454722,N,01617.9734661,E,DAAA,24,0.6,627.2124,43.2110,,*52
$GPGNS,133117.00,,,,,,05,,,,1.8,123*77
$GLGNS,133117.00,,,,,,06,,,,,*7F
$GAGNS,133117.00,,,,,,05,,,,,*71
$GBGNS,133117.00,,,,,,08,,,,,*7F
$GPLLQ,133117.00,010125,,M,,M,1,24,4.101,,M*15
$GPVTG,,T,,M,0.00,N,0.01,K,D*27
$GPHDT,,T*1B
$GPTHS,,V*0E
$GPROT,,V*08
$PSSN,HRP,133117.00,010125,,,,,,,00,0,,*67
$PTNL,AVR,133117.00,,Yaw,,Tilt,,,,0,,00*31
$GPGSA,A,3,11,12,24,25,32,,,,,,,,1.1,0.6,0.9*3E
$GPGSA,A,3,69,78,79,86,87,88,,,,,,,1.1,0.6,0.9*32
$GPGSA,A,3,02,07,27,29,30,,,,,,,,1.1,0.6,0.9*35
$GPGSA,A,3,12,24,25,32,34,35,41,44,,,,,1.1,0.6,0.9*3A
$GPGST,133117.00,7.351,2.086,0.959,22.706,1.960,1.196,3.398*69
$GPGBS,133117.00,8.223,4.429,10.686,79,0.0001,20.356,7.068*54
$GPGRS,133117.00,1,0.4,0.1,-1.7,0.7,-1.5,,,,,,,*66
$GPGRS,133117.00,1,-1.3,-3.9,20.4,18.6,3.4,0.1,,,,,,*4F
$GPGRS,133117.00,1,-0.1,0.2,3.3,3.0,0.2,,,,,,,*49
$GPGRS,133117.00,1,0.4,-0.9,7.5,2.9,-0.8,2.6,5.7,0.4,,,,*46
$GPGSV,4,1,14,12,74,050,45,28,15,312,35,19,14,046,27,24,40,154,37*79
$GPGSV,4,2,14,06,29,061,32,11,31,105,41,29,26,212,31,32,32,285,36*74
$GPGSV,4,3,14,25,57,285,44,03,00,000,,36,35,170,36,34,31,208,36*78
$GPGSV,4,4,14,49,34,195,37,61,03,257,*7B
$GLGSV,3,1,09,78,59,324,47,86,17,027,40,79,12,296,40,68,22,260,34*6B
$GLGSV,3,2,09,69,24,314,48,88,36,159,43,87,52,069,41,77,46,087,25*69
$GLGSV,3,3,09,76,04,104,*5C
$GAGSV,3,1,12,30,81,346,40,02,35,078,44,34,27,124,32,36,30,065,33*6C
$GAGSV,3,2,12,07,36,235,35,29,30,301,38,27,33,273,39,18,55,076,*6A
$GAGSV,3,3,12,19,03,336,,15,01,166,,08,08,189,,11,06,021,*67
$GBGSV,5,1,20,24,77,101,47,34,27,186,46,43,14,236,,05,20,130,*67
$GBGSV,5,2,20,11,24,213,,41,13,282,38,10,21,061,31,26,25,114,33*6C
$GBGSV,5,3,20,56,29,052,,12,47,159,40,35,33,053,41,25,44,298,37*6C
$GBGSV,5,4,20,44,59,118,47,38,01,077,,40,02,048,,32,07,333,37*6E
$GBGSV,5,5,20,07,08,058,,33,03,237,,02,04,108,,60,08,110,*6F
$GPGGA,133117.00,,,,,0,00,,,M,,M,,*4E
$PTNL,GGK,133117.00,010125,4742.4454722,N,01617.9734661,E,1,24,1.1,EHT670.4235,M*41
$GPGGQ,133117.00,010125,4742.4454722,N,01617.9734661,E,1,24,4.101,627.2124,M*3C
$GPGFA,133117.00,19.833,27.862,2.086,0.959,22.706,3.398,,VVV*35
$GPLLK,133117.00,010125,,M,,M,1,24,1.3,,M*09
$GNGMP,133117.00,,,,,DAAA,24,0.6,,,,*50
$GPGMP,133117.00,,,,,,05,,,,1.8,123*77
$GLGMP,133117.00,,,,,,06,,,,,*7F
$GAGMP,133117.00,,,,,,05,,,,,*71
$GBGMP,133117.00,,,,,,08,,,,,*7F
$PSSN,SNC,[0,307895000,2347]*44
$GPZDA,133122.00,01,01,2025,,*63
$GPDTM,W84,,00.0000000,N,00.0000000,E,00.0000000,W84*5F
$GPRMC,133122.00,A,4742.4454655,N,01617.9734707,E,0.0,,010125,5.1,E,D*17
$GPGLL,4742.4454655,N,01617.9734707,E,133122.00,A,D*66
$GPGGA,133122.00,4742.4454655,N,01617.9734707,E,2,24,0.6,627.2176,M,43.2110,M,2.4,0123*49
$GNGNS,133122.00,4742.4454655,N,01617.9734707,E,DAAA,24,0.6,627.2176,43.2110,,*53
$GPGNS,133122.00,,,,,,05,,,,2.4,123*7E
$GLGNS,133122.00,,,,,,06,,,,,*79
$GAGNS,133122.00,,,,,,05,,,,,*77
$GBGNS,133122.00,,,,,,08,,,,,*79
$GPLLQ,133122.00,010125,,M,,M,1,24,3.968,,M*13
$GPVTG,,T,,M,0.00,N,0.01,K,D*27
$GPHDT,,T*1B
$GPTHS,,V*0E
$GPROT,,V*08
$PSSN,HRP,133122.00,010125,,,,,,,00,0,,*61
$PTNL,AVR,133122.00,,Yaw,,Tilt,,,,0,,00*37
$GPGSA,A,3,11,12,24,25,28,,,,,,,,1.1,0.6,0.9*35
$GPGSA,A,3,69,78,79,86,87,88,,,,,,,1.1,0.6,0.9*32
$GPGSA,A,3,02,07,27,29,30,,,,,,,,1.1,0.6,0.9*35
$GPGSA,A,3,12,24,25,32,34,35,41,44,,,,,1.1,0.6,0.9*3A
$GPGST,133122.00,8.658,2.124,1.119,33.067,1.882,1.491,3.159*68
$GPGBS,133122.00,7.125,4.688,10.930,79,0.0001,23.671,7.065*5D
$GPGRS,133122.00,1,0.5,-0.5,-0.7,0.3,-2.4,,,,,,,*4F
$GPGRS,133122.00,1,-0.3,-3.2,23.7,19.5,1.9,0.5,,,,,,*4A
$GPGRS,133122.00,1,-0.0,0.4,0.1,9.3,0.2,,,,,,,*40
$GPGRS,133122.00,1,-1.3,-0.9,12.1,0.9,-0.4,1.1,8.6,0.5,,,,*5C
$GPGSV,4,1,14,12,74,051,44,28,15,312,35,19,14,046,27,24,40,154,37*79
$GPGSV,4,2,14,06,29,061,34,11,31,105,41,29,26,212,32,32,32,285,37*70
$GPGSV,4,3,14,25,57,285,43,03,00,000,,36,35,170,35,34,31,208,35*7F
$GPGSV,4,4,14,49,34,195,36,61,03,257,*7A
$GLGSV,3,1,09,78,59,324,47,86,17,027,40,79,12,296,40,68,22,260,32*6D
$GLGSV,3,2,09,69,24,314,47,88,36,159,44,87,52,069,38,77,46,087,21*6B
$GLGSV,3,3,09,76,04,104,*5C
$GAGSV,3,1,12,30,81,346,40,02,35,078,44,34,27,124,34,36,30,065,32*6B
$GAGSV,3,2,12,07,36,235,36,29,30,301,39,27,33,273,39,18,55,076,*68
$GAGSV,3,3,12,19,03,336,,15,01,166,,08,08,189,,11,06,021,*67
$GBGSV,5,1,20,24,77,101,48,34,27,186,46,43,14,235,,05,20,130,*6B
$GBGSV,5,2,20,11,24,213,,41,13,282,37,10,21,061,31,26,25,114,34*64
$GBGSV,5,3,20,56,29,052,,12,47,159,38,35,33,053,41,25,44,298,37*63
$GBGSV,5,4,20,44,59,118,48,38,01,077,,40,02,048,,32,07,333,37*61
$GBGSV,5,5,20,07,08,058,,33,03,237,,02,04,108,,60,08,110,*6F
$GPGGA,133122.00,,,,,0,00,,,M,,M,,*48
$PTNL,GGK,133122.00,010125,4742.4454655,N,01617.9734707,E,1,24,1.1,EHT670.4287,M*4E
$GPGGQ,133122.00,010125,4742.4454655,N,01617.9734707,E,1,24,3.968,627.2176,M*3D
$GPGFA,133122.00,20.195,25.906,2.124,1.119,33.067,3.159,,VVV*36
$GPLLK,133122.00,010125,,M,,M,1,24,1.3,,M*0F
$GNGMP,133122.00,,,,,DAAA,24,0.6,,,,*56
$GPGMP,133122.00,,,,,,05,,,,2.4,123*7E
$GLGMP,133122.00,,,,,,06,,,,,*79
$GAGMP,133122.00,,,,,,05,,,,,*77
$GBGMP,133122.00,,,,,,08,,,,,*79
$PSSN,SNC,[0,307900000,2347]*49
$GPZDA,133127.00,01,01,2025,,*66
$GPDTM,W84,,00.0000000,N,00.0000000,E,00.0000000,W84*5F
$GPRMC,133127.00,A,4742.4454652,N,01617.9734682,E,0.0,,010125,5.1,E,D*19
$GPGLL,4742.4454652,N,01617.9734682,E,133127.00,A,D*68
$GPGGA,133127.00,4742.4454652,N,01617.9734682,E,2,25,0.6,627.2250,M,43.2110,M,3.5,0123*41
$GNGNS,133127.00,4742.4454652,N,01617.9734682,E,DAAA,25,0.6,627.2250,43.2110,,*5B
$GPGNS,133127.00,,,,,,06,,,,3.5,123*78
$GLGNS,133127.00,,,,,,06,,,,,*7C
$GAGNS,133127.00,,,,,,05,,,,,*72
$GBGNS,133127.00,,,,,,08,,,,,*7C
$GPLLQ,133127.00,010125,,M,,M,1,25,3.624,,M*10
$GPVTG,,T,,M,0.00,N,0.00,K,D*26
$GPHDT,,T*1B
$GPTHS,,V*0E
$GPROT,,V*08
$PSSN,HRP,133127.00,010125,,,,,,,00,0,,*64
$PTNL,AVR,133127.00,,Yaw,,Tilt,,,,0,,00*32
$GPGSA,A,3,06,11,12,24,25,28,,,,,,,1.1,0.6,0.9*33
$GPGSA,A,3,69,78,79,86,87,88,,,,,,,1.1,0.6,0.9*32
$GPGSA,A,3,02,07,27,29,30,,,,,,,,1.1,0.6,0.9*35
$GPGSA,A,3,12,24,25,32,34,35,41,44,,,,,1.1,0.6,0.9*3A
$GPGST,133127.00,8.612,1.686,1.125,30.465,1.561,1.293,3.005*69
$GPGBS,133127.00,6.117,3.768,10.136,79,0.0001,21.811,7.063*52
$GPGRS,133127.00,1,0.1,0.8,-0.5,-0.2,-0.1,-1.6,,,,,,*43
$GPGRS,133127.00,1,-0.9,-1.6,21.8,18.3,-2.2,0.2,,,,,,*6B
$GPGRS,133127.00,1,-0.3,0.8,-0.4,16.2,0.3,,,,,,,*5C
$GPGRS,133127.00,1,-3.6,-1.2,13.7,4.3,-0.2,-1.0,5.2,0.2,,,,*79
$GPGSV,4,1,14,12,74,051,43,28,15,312,36,19,14,046,28,24,40,154,39*7C
$GPGSV,4,2,14,06,29,061,36,11,31,105,40,29,26,212,,32,32,285,35*70
$GPGSV,4,3,14,25,57,285,43,03,00,000,,36,35,170,35,34,31,208,36*7C
$GPGSV,4,4,14,49,34,195,37,61,03,257,*7B
$GLGSV,3,1,09,78,59,324,48,86,17,027,37,79,12,296,41,68,22,260,32*63
$GLGSV,3,2,09,69,24,313,46,88,36,159,44,87,52,069,37,77,46,087,*61
$GLGSV,3,3,09,76,04,104,*5C
$GAGSV,3,1,12,30,81,346,40,02,35,078,44,34,27,124,35,36,30,065,29*60
$GAGSV,3,2,12,07,36,235,37,29,30,301,38,27,33,273,39,18,54,076,*69
$GAGSV,3,3,12,19,04,336,,15,01,166,,08,08,189,,11,06,021,*60
$GBGSV,5,1,20,24,77,102,48,34,27,186,46,43,14,235,,05,20,130,*68
$GBGSV,5,2,20,11,24,212,,41,13,282,35,10,21,061,31,26,25,114,32*61
$GBGSV,5,3,20,56,29,052,,12,47,159,37,35,33,053,41,25,44,298,36*6D
$GBGSV,5,4,20,44,59,118,48,38,01,077,,40,02,048,,32,07,333,36*60
$GBGSV,5,5,20,07,08,058,,33,03,237,,02,04,108,,60,08,110,*6F
$GPGGA,133127.00,,,,,0,00,,,M,,M,,*4D
$PTNL,GGK,133127.00,010125,4742.4454652,N,01617.9734682,E,1,25,1.1,EHT670.4361,M*48
$GPGGQ,133127.00,010125,4742.4454652,N,01617.9734682,E,1,25,3.624,627.2250,M*32
$GPGFA,133127.00,16.028,24.639,1.686,1.125,30.465,3.005,,VVV*3D
$GPLLK,133127.00,010125,,M,,M,1,25,1.2,,M*0A
$GNGMP,133127.00,,,,,DAAA,25,0.6,,,,*52
$GPGMP,133127.00,,,,,,06,,,,3.5,123*78
$GLGMP,133127.00,,,,,,06,,,,,*7C
$GAGMP,133127.00,,,,,,05,,,,,*72
$GBGMP,133127.00,,,,,,08,,,,,*7C
$PSSN,SNC,[0,307905000,2347]*4C
