$GPZDA,234442.00,01,01,2025,,*64
$GPDTM,W84,,00.0000000,N,00.0000000,E,00.0000000,W84*5F
$GPRMC,234442.00,A,4742.4459968,N,01617.9738788,E,0.0,,010125,5.1,E,D*17
$GPGLL,4742.4459968,N,01617.9738788,E,234442.00,A,D*66
$GPGGA,234442.00,4742.4459968,N,01617.9738788,E,2,18,0.8,623.9476,M,43.2110,M,3.0,0123*47
$GNGNS,234442.00,4742.4459968,N,01617.9738788,E,DAAA,18,0.8,623.9476,43.2110,,*58
$GPGNS,234442.00,,,,,,07,,,,3.0,123*7E
$GLGNS,234442.00,,,,,,03,,,,,*7B
$GAGNS,234442.00,,,,,,04,,,,,*71
$GBGNS,234442.00,,,,,,04,,,,,*72
$GPLLQ,234442.00,010125,,M,,M,1,18,1.298,,M*1D
$GPVTG,,T,,M,0.01,N,0.02,K,D*25
$GPHDT,,T*1B
$GPTHS,,V*0E
$GPROT,,V*08
$PSSN,HRP,234442.00,010125,,,,,,,00,0,,*66
$PTNL,AVR,234442.00,,Yaw,,Tilt,,,,0,,00*30
$GPGSA,A,3,02,03,08,14,17,21,32,,,,,,1.5,0.8,1.2*35
$GPGSA,A,3,69,70,85,,,,,,,,,,1.5,0.8,1.2*38
$GPGSA,A,3,07,26,29,33,,,,,,,,,1.5,0.8,1.2*35
$GPGSA,A,3,27,30,32,41,,,,,,,,,1.5,0.8,1.2*3F
$GPGST,234442.00,1.987,0.579,0.536,338.011,0.573,0.542,1.030*54
$GPGBS,234442.00,4.208,3.714,5.397,03,0.0001,1.182,0.698*50
$GPGRS,234442.00,1,0.1,1.2,0.2,0.4,-0.7,-0.5,-0.6,,,,,*4A
$GPGRS,234442.00,1,-0.0,-3.1,3.1,,,,,,,,,*67
$GPGRS,234442.00,1,0.4,0.4,2.6,-1.2,,,,,,,,*63
$GPGRS,234442.00,1,3.6,-0.3,0.8,0.5,,,,,,,,*6F
$GPGSV,5,1,18,02,80,308,50,10,11,065,,08,27,184,38,28,13,103,*73
$GPGSV,5,2,18,22,12,304,,32,39,057,41,17,23,315,47,03,44,255,45*7C
$GPGSV,5,3,18,01,75,311,,21,76,118,41,27,02,165,,04,04,197,*73
$GPGSV,5,4,18,31,02,128,,14,10,282,36,36,35,170,39,34,31,208,*73
$GPGSV,5,5,18,49,34,195,31,61,03,257,*71
$GLGSV,3,1,10,85,75,336,49,71,12,212,32,86,19,317,32,69,49,040,49*6E
$GLGSV,3,2,10,84,45,128,25,70,59,208,36,78,00,037,,76,03,303,40*6D
$GLGSV,3,3,10,68,02,034,,77,08,344,*64
$GAGSV,3,1,11,33,69,313,45,31,12,259,26,29,45,162,43,12,15,296,28*66
$GAGSV,3,2,11,07,49,073,43,24,13,309,35,26,55,103,46,19,10,193,*6E
$GAGSV,3,3,11,13,05,112,,08,09,035,23,16,07,333,*58
$GBGSV,4,1,16,57,79,015,,60,10,109,,33,17,049,33,28,19,145,35*61
$GBGSV,4,2,16,09,19,090,,39,23,062,29,05,24,128,,16,22,073,28*67
$GBGSV,4,3,16,06,21,077,27,32,51,217,40,27,62,165,37,30,57,294,48*6B
$GBGSV,4,4,16,41,67,064,54,13,07,071,,02,08,105,,29,06,315,31*6E
$GPGGA,234442.00,,,,,0,00,,,M,,M,,*4F
$PTNL,GGK,234442.00,010125,4742.4459968,N,01617.9738788,E,1,18,1.5,EHT667.1586,M*40
$GPGGQ,234442.00,010125,4742.4459968,N,01617.9738788,E,1,18,1.298,623.9476,M*3E
$GPGFA,234442.00,5.508,8.450,0.579,0.536,338.011,1.030,,VVV*04
$GPLLK,234442.00,010125,,M,,M,1,18,1.7,,M*03
$GNGMP,234442.00,,,,,DAAA,18,0.8,,,,*50
$GPGMP,234442.00,,,,,,07,,,,3.0,123*7E
$GLGMP,234442.00,,,,,,03,,,,,*7B
$GAGMP,234442.00,,,,,,04,,,,,*71
$GBGMP,234442.00,,,,,,04,,,,,*72
$PSSN,SNC,[0,344700000,2347]*40
$GPZDA,234447.00,01,01,2025,,*61
$GPDTM,W84,,00.0000000,N,00.0000000,E,00.0000000,W84*5F
$GPRMC,234447.00,A,4742.4459998,N,01617.9738909,E,0.0,,010125,5.1,E,D*1A
$GPGLL,4742.4459998,N,01617.9738909,E,234447.00,A,D*6B
$GPGGA,234447.00,4742.4459998,N,01617.9738909,E,2,19,0.8,623.9539,M,43.2110,M,1.7,0123*44
$GNGNS,234447.00,4742.4459998,N,01617.9738909,E,DAAA,19,0.8,623.9539,43.2110,,*5E
$GPGNS,234447.00,,,,,,07,,,,1.7,123*7E
$GLGNS,234447.00,,,,,,04,,,,,*79
$GAGNS,234447.00,,,,,,04,,,,,*74
$GBGNS,234447.00,,,,,,04,,,,,*77
$GPLLQ,234447.00,010125,,M,,M,1,19,1.737,,M*19
$GPVTG,,T,,M,0.00,N,0.01,K,D*27
$GPHDT,,T*1B
$GPTHS,,V*0E
$GPROT,,V*08
$PSSN,HRP,234447.00,010125,,,,,,,00,0,,*63
$PTNL,AVR,234447.00,,Yaw,,Tilt,,,,0,,00*35
$GPGSA,A,3,02,03,08,14,17,21,32,,,,,,1.4,0.8,1.2*34
$GPGSA,A,3,69,70,85,86,,,,,,,,,1.4,0.8,1.2*37
$GPGSA,A,3,07,26,29,33,,,,,,,,,1.4,0.8,1.2*34
$GPGSA,A,3,27,30,32,41,,,,,,,,,1.4,0.8,1.2*3E
$GPGST,234447.00,2.833,0.780,0.714,336.676,0.770,0.725,1.378*5E
$GPGBS,234447.00,4.036,3.639,5.304,14,0.0001,2.335,1.075*51
$GPGRS,234447.00,1,-0.2,1.3,-0.5,2.3,-1.1,-0.3,0.1,,,,,*64
$GPGRS,234447.00,1,0.1,-4.1,2.0,-5.7,,,,,,,,*48
$GPGRS,234447.00,1,0.6,-0.5,2.0,-1.9,,,,,,,,*45
$GPGRS,234447.00,1,5.1,0.1,-0.5,0.3,,,,,,,,*62
$GPGSV,5,1,18,02,80,308,51,10,11,065,,08,27,184,41,28,13,103,*7C
$GPGSV,5,2,18,22,12,304,,32,39,057,43,17,23,315,46,03,44,255,47*7D
$GPGSV,5,3,18,01,75,311,,21,76,118,42,27,02,165,,04,04,197,*70
$GPGSV,5,4,18,31,02,128,,14,10,282,36,36,35,170,38,34,31,208,*72
$GPGSV,5,5,18,49,34,195,32,61,03,257,*72
$GLGSV,3,1,10,85,75,336,49,71,12,212,32,86,19,317,39,69,49,040,49*65
$GLGSV,3,2,10,84,45,128,30,70,59,208,36,78,00,037,,76,03,303,37*69
$GLGSV,3,3,10,68,02,034,,77,08,344,33*64
$GAGSV,3,1,11,33,69,313,46,31,12,259,30,29,45,162,44,12,15,296,27*6A
$GAGSV,3,2,11,07,49,073,44,24,13,309,32,26,55,103,46,19,10,193,*6E
$GAGSV,3,3,11,13,05,112,,08,09,035,26,16,07,333,*5D
$GBGSV,4,1,16,57,79,016,,60,10,109,,33,17,049,29,28,19,145,35*69
$GBGSV,4,2,16,09,19,090,,05,24,128,,39,23,062,29,16,22,073,27*68
$GBGSV,4,3,16,06,21,077,28,32,51,217,38,27,62,165,37,30,57,294,48*6B
$GBGSV,4,4,16,41,67,064,53,29,06,315,33,02,08,105,,13,07,071,*6B
$GPGGA,234447.00,,,,,0,00,,,M,,M,,*4A
$PTNL,GGK,234447.00,010125,4742.4459998,N,01617.9738909,E,1,19,1.4,EHT667.1649,M*4D
$GPGGQ,234447.00,010125,4742.4459998,N,01617.9738909,E,1,19,1.737,623.9539,M*38
$GPGFA,234447.00,7.419,11.297,0.780,0.714,336.676,1.378,,VVV*37
$GPLLK,234447.00,010125,,M,,M,1,19,1.7,,M*07
$GNGMP,234447.00,,,,,DAAA,19,0.8,,,,*54
$GPGMP,234447.00,,,,,,07,,,,1.7,123*7E
$GLGMP,234447.00,,,,,,04,,,,,*79
$GAGMP,234447.00,,,,,,04,,,,,*74
$GBGMP,234447.00,,,,,,04,,,,,*77
$PSSN,SNC,[0,344705000,2347]*45
$GPZDA,234452.00,01,01,2025,,*65
$GPDTM,W84,,00.0000000,N,00.0000000,E,00.0000000,W84*5F
$GPRMC,234452.00,A,4742.4459998,N,01617.9738868,E,0.0,,010125,5.1,E,D*18
$GPGLL,4742.4459998,N,01617.9738868,E,234452.00,A,D*69
$GPGGA,234452.00,4742.4459998,N,01617.9738868,E,2,17,0.8,623.9479,M,43.2110,M,2.8,0123*41
$GNGNS,234452.00,4742.4459998,N,01617.9738868,E,DAAA,17,0.8,623.9479,43.2110,,*57
$GPGNS,234452.00,,,,,,06,,,,2.8,123*77
$GLGNS,234452.00,,,,,,03,,,,,*7A
$GAGNS,234452.00,,,,,,04,,,,,*70
$GBGNS,234452.00,,,,,,04,,,,,*73
$GPLLQ,234452.00,010125,,M,,M,1,17,1.758,,M*1A
$GPVTG,,T,,M,0.00,N,0.00,K,D*26
$GPHDT,,T*1B
$GPTHS,,V*0E
$GPROT,,V*08
$PSSN,HRP,234452.00,010125,,,,,,,00,0,,*67
$PTNL,AVR,234452.00,,Yaw,,Tilt,,,,0,,00*31
$GPGSA,A,3,02,03,08,17,21,32,,,,,,,1.4,0.8,1.1*32
$GPGSA,A,3,69,85,86,,,,,,,,,,1.4,0.8,1.1*33
$GPGSA,A,3,07,26,29,33,,,,,,,,,1.4,0.8,1.1*37
$GPGSA,A,3,28,30,32,41,,,,,,,,,1.4,0.8,1.1*32
$GPGST,234452.00,5.212,0.752,0.689,323.274,0.730,0.712,1.431*56
$GPGBS,234452.00,3.978,3.647,5.910,28,0.0001,15.631,8.650*67
$GPGRS,234452.00,1,0.1,1.0,-0.4,-1.5,-0.6,1.1,,,,,,*63
$GPGRS,234452.00,1,-1.5,1.7,-2.4,,,,,,,,,*62
$GPGRS,234452.00,1,0.4,-0.5,2.5,-1.9,,,,,,,,*46
$GPGRS,234452.00,1,15.6,0.2,-1.1,-0.2,,,,,,,,*7A
$GPGSV,5,1,18,02,80,308,51,10,11,065,,08,27,184,41,28,13,103,*7C
$GPGSV,5,2,18,22,12,304,,32,39,057,44,17,23,315,46,03,44,255,46*7B
$GPGSV,5,3,18,01,75,311,,21,76,118,44,27,02,165,,04,04,197,*76
$GPGSV,5,4,18,31,03,128,,14,10,282,29,36,35,170,39,34,31,208,*7C
$GPGSV,5,5,18,49,34,195,38,61,03,257,*78
$GLGSV,3,1,10,85,75,336,49,71,12,212,30,86,19,317,38,69,49,040,49*66
$GLGSV,3,2,10,84,45,128,31,70,59,208,34,78,00,037,,76,02,303,41*6A
$GLGSV,3,3,10,68,02,034,,77,08,344,35*62
$GAGSV,3,1,11,33,69,313,46,31,12,259,31,29,46,162,46,12,15,296,27*6A
$GAGSV,3,2,11,07,49,073,42,24,13,309,34,26,55,103,46,19,10,193,*6E
$GAGSV,3,3,11,13,05,112,,08,09,035,,16,07,333,*59
$GBGSV,4,1,16,57,79,016,,60,10,109,,33,17,049,31,28,19,145,36*63
$GBGSV,4,2,16,09,19,090,,05,24,128,,39,23,062,26,16,22,073,27*67
$GBGSV,4,3,16,06,21,077,22,32,51,217,39,27,62,165,35,30,57,294,47*6D
$GBGSV,4,4,16,41,67,064,53,29,06,315,32,02,08,105,,13,07,071,*6A
$GPGGA,234452.00,,,,,0,00,,,M,,M,,*4E
$PTNL,GGK,234452.00,010125,4742.4459998,N,01617.9738868,E,1,17,1.4,EHT667.1589,M*4E
$GPGGQ,234452.00,010125,4742.4459998,N,01617.9738868,E,1,17,1.758,623.9479,M*38
$GPGFA,234452.00,7.148,11.737,0.752,0.689,323.274,1.431,,VVV*3F
$GPLLK,234452.00,010125,,M,,M,1,17,1.6,,M*0C
$GNGMP,234452.00,,,,,DAAA,17,0.8,,,,*5E
$GPGMP,234452.00,,,,,,06,,,,2.8,123*77
$GLGMP,234452.00,,,,,,03,,,,,*7A
$GAGMP,234452.00,,,,,,04,,,,,*70
$GBGMP,234452.00,,,,,,04,,,,,*73
$PSSN,SNC,[0,344710000,2347]*41
$GPZDA,234457.00,01,01,2025,,*60
$GPDTM,W84,,00.0000000,N,00.0000000,E,00.0000000,W84*5F
$GPRMC,234457.00,A,4742.4459999,N,01617.9738864,E,0.0,,010125,5.1,E,D*10
$GPGLL,4742.4459999,N,01617.9738864,E,234457.00,A,D*61
$GPGGA,234457.00,4742.4459999,N,01617.9738864,E,2,18,0.7,623.9448,M,43.2110,M,2.5,0123*46
$GNGNS,234457.00,4742.4459999,N,01617.9738864,E,DAAA,18,0.7,623.9448,43.2110,,*5D
$GPGNS,234457.00,,,,,,06,,,,2.5,123*7F
$GLGNS,234457.00,,,,,,03,,,,,*7F
$GAGNS,234457.00,,,,,,04,,,,,*75
$GBGNS,234457.00,,,,,,05,,,,,*77
$GPLLQ,234457.00,010125,,M,,M,1,18,1.498,,M*1F
$GPVTG,,T,,M,0.01,N,0.01,K,D*26
$GPHDT,,T*1B
$GPTHS,,V*0E
$GPROT,,V*08
$PSSN,HRP,234457.00,010125,,,,,,,00,0,,*62
$PTNL,AVR,234457.00,,Yaw,,Tilt,,,,0,,00*34
$GPGSA,A,3,02,03,08,17,21,32,,,,,,,1.3,0.7,1.1*3A
$GPGSA,A,3,69,85,86,,,,,,,,,,1.3,0.7,1.1*3B
$GPGSA,A,3,07,26,29,33,,,,,,,,,1.3,0.7,1.1*3F
$GPGSA,A,3,27,28,30,32,41,,,,,,,,1.3,0.7,1.1*3F
$GPGST,234457.00,4.853,0.637,0.592,321.889,0.620,0.610,1.220*59
$GPGBS,234457.00,3.994,3.718,5.664,28,0.0001,14.204,8.651*65
$GPGRS,234457.00,1,0.3,0.9,-0.7,-1.0,-0.4,0.6,,,,,,*6E
$GPGRS,234457.00,1,-2.4,2.3,-5.3,,,,,,,,,*62
$GPGRS,234457.00,1,0.2,-1.0,2.2,-1.7,,,,,,,,*48
$GPGRS,234457.00,1,2.4,14.2,-0.3,0.7,-0.4,,,,,,,*52
$GPGSV,5,1,18,02,81,308,51,10,11,065,,08,27,184,42,28,13,103,*7E
$GPGSV,5,2,18,22,12,304,,32,39,057,47,17,23,315,46,03,44,255,45*7B
$GPGSV,5,3,18,01,75,311,,21,76,118,44,27,01,165,,04,04,197,*75
$GPGSV,5,4,18,31,03,128,,14,10,282,32,36,35,170,39,34,31,208,*76
$GPGSV,5,5,18,49,34,195,39,61,03,257,*79
$GLGSV,3,1,10,85,75,336,48,71,12,212,28,86,19,317,38,69,49,040,48*6F
$GLGSV,3,2,10,84,45,128,32,70,59,208,30,78,00,037,,76,02,303,43*6F
$GLGSV,3,3,10,68,02,034,,77,08,344,35*62
$GAGSV,3,1,11,33,69,313,47,31,12,259,32,29,46,162,45,12,15,296,27*6B
$GAGSV,3,2,11,07,49,073,41,24,13,309,36,26,55,103,45,19,10,193,*6C
$GAGSV,3,3,11,13,05,112,,08,09,035,24,16,07,333,*5F
$GBGSV,4,1,16,57,79,016,,60,10,109,,33,17,049,29,28,19,145,36*6A
$GBGSV,4,2,16,09,19,090,,05,24,128,,39,23,062,27,16,22,073,26*67
$GBGSV,4,3,16,06,21,077,21,32,51,217,41,27,62,165,36,30,57,294,48*6D
$GBGSV,4,4,16,41,67,064,53,29,06,315,30,02,08,105,,13,07,071,*68
$GPGGA,234457.00,,,,,0,00,,,M,,M,,*4B
$PTNL,GGK,234457.00,010125,4742.4459999,N,01617.9738864,E,1,18,1.3,EHT667.1558,M*42
$GPGGQ,234457.00,010125,4742.4459999,N,01617.9738864,E,1,18,1.498,623.9448,M*32
$GPGFA,234457.00,6.058,10.002,0.637,0.592,321.889,1.220,,VVV*3C
$GPLLK,234457.00,010125,,M,,M,1,18,1.6,,M*06
$GNGMP,234457.00,,,,,DAAA,18,0.7,,,,*5B
$GPGMP,234457.00,,,,,,06,,,,2.5,123*7F
$GLGMP,234457.00,,,,,,03,,,,,*7F
$GAGMP,234457.00,,,,,,04,,,,,*75
$GBGMP,234457.00,,,,,,05,,,,,*77
$PSSN,SNC,[0,344715000,2347]*44
$GPZDA,234502.00,01,01,2025,,*61
$GPDTM,W84,,00.0000000,N,00.0000000,E,00.0000000,W84*5F
$GPRMC,234502.00,A,4742.4459966,N,01617.9738862,E,0.0,,010125,5.1,E,D*17
$GPGLL,4742.4459966,N,01617.9738862,E,234502.00,A,D*66
$GPGGA,234502.00,4742.4459966,N,01617.9738862,E,2,17,0.8,623.9421,M,43.2110,M,2.8,0123*43
$GNGNS,234502.00,4742.4459966,N,01617.9738862,E,DAAA,17,0.8,623.9421,43.2110,,*55
$GPGNS,234502.00,,,,,,06,,,,2.8,123*73
$GLGNS,234502.00,,,,,,03,,,,,*7E
$GAGNS,234502.00,,,,,,04,,,,,*74
$GBGNS,234502.00,,,,,,04,,,,,*77
$GPLLQ,234502.00,010125,,M,,M,1,17,1.608,,M*1A
$GPVTG,,T,,M,0.00,N,0.01,K,D*27
$GPHDT,,T*1B
$GPTHS,,V*0E
$GPROT,,V*08
$PSSN,HRP,234502.00,010125,,,,,,,00,0,,*63
$PTNL,AVR,234502.00,,Yaw,,Tilt,,,,0,,00*35
$GPGSA,A,3,02,03,08,17,21,32,,,,,,,1.4,0.8,1.1*32
$GPGSA,A,3,69,85,86,,,,,,,,,,1.4,0.8,1.1*33
$GPGSA,A,3,07,26,29,33,,,,,,,,,1.4,0.8,1.1*37
$GPGSA,A,3,28,30,32,41,,,,,,,,,1.4,0.8,1.1*32
$GPGST,234502.00,5.068,0.684,0.635,323.119,0.667,0.653,1.309*53
$GPGBS,234502.00,4.083,3.650,5.765,28,0.0001,13.921,8.652*69
$GPGRS,234502.00,1,0.1,0.7,-0.5,-0.9,-0.6,0.9,,,,,,*64
$GPGRS,234502.00,1,-1.9,2.4,-6.6,,,,,,,,,*6C
$GPGRS,234502.00,1,0.3,-1.1,2.1,-1.1,,,,,,,,*4C
$GPGRS,234502.00,1,13.9,-0.7,0.5,-0.7,,,,,,,,*72
$GPGSV,5,1,18,02,81,308,52,10,10,065,,08,27,184,43,28,13,103,*7D
$GPGSV,5,2,18,22,12,304,,32,39,057,46,17,23,315,46,03,44,255,45*7A
$GPGSV,5,3,18,01,75,311,,21,76,119,44,27,01,165,,04,04,197,*74
$GPGSV,5,4,18,31,03,128,,14,10,282,32,36,35,170,38,34,31,208,*77
$GPGSV,5,5,18,49,34,195,38,61,03,257,*78
$GLGSV,3,1,10,85,75,336,48,71,12,212,26,86,19,317,38,69,49,040,49*60
$GLGSV,3,2,10,84,45,128,31,70,59,208,30,78,00,037,,76,02,303,42*6D
$GLGSV,3,3,10,68,01,034,,77,08,344,33*67
$GAGSV,3,1,11,33,69,313,47,31,12,259,31,29,46,162,45,12,15,296,29*66
$GAGSV,3,2,11,07,49,073,42,24,13,309,34,26,55,103,45,19,10,193,*6D
$GAGSV,3,3,11,13,05,112,,08,09,035,25,16,07,333,*5E
$GBGSV,4,1,16,57,79,016,,60,10,109,,33,17,049,25,28,19,145,35*65
$GBGSV,4,2,16,09,19,090,,05,24,128,,39,23,062,28,16,22,073,26*68
$GBGSV,4,3,16,06,21,077,25,32,51,217,39,27,62,165,33,30,57,294,48*63
$GBGSV,4,4,16,41,67,064,53,29,06,315,31,02,08,105,,13,07,071,*69
$GPGGA,234502.00,,,,,0,00,,,M,,M,,*4A
$PTNL,GGK,234502.00,010125,4742.4459966,N,01617.9738862,E,1,17,1.4,EHT667.1532,M*41
$GPGGQ,234502.00,010125,4742.4459966,N,01617.9738862,E,1,17,1.608,623.9421,M*3E
$GPGFA,234502.00,6.501,10.733,0.684,0.635,323.119,1.309,,VVV*3F
$GPLLK,234502.00,010125,,M,,M,1,17,1.6,,M*08
$GNGMP,234502.00,,,,,DAAA,17,0.8,,,,*5A
$GPGMP,234502.00,,,,,,06,,,,2.8,123*73
$GLGMP,234502.00,,,,,,03,,,,,*7E
$GAGMP,234502.00,,,,,,04,,,,,*74
$GBGMP,234502.00,,,,,,04,,,,,*77
$PSSN,SNC,[0,344720000,2347]*42
$GPZDA,234507.00,01,01,2025,,*64
$GPDTM,W84,,00.0000000,N,00.0000000,E,00.0000000,W84*5F
$GPRMC,234507.00,A,4742.4459985,N,01617.9738895,E,0.0,,010125,5.1,E,D*17
$GPGLL,4742.4459985,N,01617.9738895,E,234507.00,A,D*66
$GPGGA,234507.00,4742.4459985,N,01617.9738895,E,2,16,0.8,623.9409,M,43.2110,M,1.8,0123*4B
$GNGNS,234507.00,4742.4459985,N,01617.9738895,E,DAAA,16,0.8,623.9409,43.2110,,*5E
$GPGNS,234507.00,,,,,,06,,,,1.8,123*75
$GLGNS,234507.00,,,,,,02,,,,,*7A
$GAGNS,234507.00,,,,,,04,,,,,*71
$GBGNS,234507.00,,,,,,04,,,,,*72
$GPLLQ,234507.00,010125,,M,,M,1,16,1.234,,M*15
$GPVTG,,T,,M,0.01,N,0.01,K,D*26
$GPHDT,,T*1B
$GPTHS,,V*0E
$GPROT,,V*08
$PSSN,HRP,234507.00,010125,,,,,,,00,0,,*66
$PTNL,AVR,234507.00,,Yaw,,Tilt,,,,0,,00*30
$GPGSA,A,3,02,03,08,17,21,32,,,,,,,1.4,0.8,1.2*31
$GPGSA,A,3,69,85,,,,,,,,,,,1.4,0.8,1.2*3E
$GPGSA,A,3,07,26,29,33,,,,,,,,,1.4,0.8,1.2*34
$GPGSA,A,3,29,30,32,41,,,,,,,,,1.4,0.8,1.2*30
$GPGST,234507.00,2.312,0.529,0.479,324.239,0.513,0.497,1.006*51
$GPGBS,234507.00,3.947,3.589,5.824,03,0.0001,0.934,0.647*54
$GPGRS,234507.00,1,0.1,0.9,-0.1,-0.7,-0.3,-0.3,,,,,,*47
$GPGRS,234507.00,1,-1.7,2.1,,,,,,,,,,*61
$GPGRS,234507.00,1,0.7,-1.2,1.8,-1.1,,,,,,,,*44
$GPGRS,234507.00,1,-4.8,-0.7,-3.0,-0.6,,,,,,,,*47
$GPGSV,5,1,18,02,81,308,52,10,10,065,,08,27,184,42,28,13,103,*7C
$GPGSV,5,2,18,22,12,304,,32,39,057,48,17,23,315,46,03,44,255,45*74
$GPGSV,5,3,18,01,75,311,,21,76,119,43,27,01,165,,04,04,197,*73
$GPGSV,5,4,18,31,03,128,,14,10,282,32,36,35,170,38,34,31,208,*77
$GPGSV,5,5,18,49,34,195,38,61,03,257,*78
$GLGSV,3,1,10,85,75,336,49,71,12,212,34,86,19,317,33,69,49,040,49*69
$GLGSV,3,2,10,84,45,128,30,70,59,208,27,78,00,037,,76,02,302,40*69
$GLGSV,3,3,10,68,01,034,,77,08,344,34*60
$GAGSV,3,1,11,33,69,313,47,31,12,259,34,29,46,162,45,12,15,296,28*62
$GAGSV,3,2,11,07,49,073,42,24,13,309,35,26,55,103,44,19,10,193,*6D
$GAGSV,3,3,11,13,04,112,,08,09,035,23,16,07,333,*59
$GBGSV,4,1,16,57,79,016,,60,10,109,,33,17,049,29,28,19,145,33*6F
$GBGSV,4,2,16,09,19,090,,05,24,128,,39,23,062,25,16,22,073,28*6B
$GBGSV,4,3,16,06,21,077,26,32,51,217,36,27,62,165,33,30,57,294,47*60
$GBGSV,4,4,16,41,67,064,53,29,06,315,29,02,08,105,,13,07,071,*60
$GPGGA,234507.00,,,,,0,00,,,M,,M,,*4F
$PTNL,GGK,234507.00,010125,4742.4459985,N,01617.9738895,E,1,16,1.4,EHT667.1519,M*49
$GPGGQ,234507.00,010125,4742.4459985,N,01617.9738895,E,1,16,1.234,623.9409,M*3E
$GPGFA,234507.00,5.029,8.253,0.529,0.479,324.239,1.006,,VVV*08
$GPLLK,234507.00,010125,,M,,M,1,16,1.7,,M*0D
$GNGMP,234507.00,,,,,DAAA,16,0.8,,,,*5E
$GPGMP,234507.00,,,,,,06,,,,1.8,123*75
$GLGMP,234507.00,,,,,,02,,,,,*7A
$GAGMP,234507.00,,,,,,04,,,,,*71
$GBGMP,234507.00,,,,,,04,,,,,*72
$PSSN,SNC,[0,344725000,2347]*47
$GPZDA,234512.00,01,01,2025,,*60
$GPDTM,W84,,00.0000000,N,00.0000000,E,00.0000000,W84*5F
$GPRMC,234512.00,A,4742.4460005,N,01617.9738942,E,0.0,,010125,5.1,E,D*13
$GPGLL,4742.4460005,N,01617.9738942,E,234512.00,A,D*62
$GPGGA,234512.00,4742.4460005,N,01617.9738942,E,2,16,0.8,623.9388,M,43.2110,M,2.8,0123*42
$GNGNS,234512.00,4742.4460005,N,01617.9738942,E,DAAA,16,0.8,623.9388,43.2110,,*54
$GPGNS,234512.00,,,,,,06,,,,2.8,123*72
$GLGNS,234512.00,,,,,,03,,,,,*7F
$GAGNS,234512.00,,,,,,04,,,,,*75
$GBGNS,234512.00,,,,,,03,,,,,*71
$GPLLQ,234512.00,010125,,M,,M,1,16,1.648,,M*1E
$GPVTG,,T,,M,0.00,N,0.01,K,D*27
$GPHDT,,T*1B
$GPTHS,,V*0E
$GPROT,,V*08
$PSSN,HRP,234512.00,010125,,,,,,,00,0,,*62
$PTNL,AVR,234512.00,,Yaw,,Tilt,,,,0,,00*34
$GPGSA,A,3,02,03,08,17,21,32,,,,,,,1.5,0.8,1.3*31
$GPGSA,A,3,69,71,85,,,,,,,,,,1.5,0.8,1.3*38
$GPGSA,A,3,07,26,29,33,,,,,,,,,1.5,0.8,1.3*34
$GPGSA,A,3,27,30,41,,,,,,,,,,1.5,0.8,1.3*3F
$GPGST,234512.00,5.011,0.706,0.644,320.763,0.682,0.670,1.342*5C
$GPGBS,234512.00,3.925,3.650,5.906,71,0.0001,14.352,6.278*66
$GPGRS,234512.00,1,0.1,0.8,-0.4,-0.5,-0.5,0.0,,,,,,*6D
$GPGRS,234512.00,1,-1.2,14.4,2.6,,,,,,,,,*78
$GPGRS,234512.00,1,0.8,-1.4,1.6,-1.0,,,,,,,,*46
$GPGRS,234512.00,1,-1.7,-0.9,-0.8,,,,,,,,,*49
$GPGSV,5,1,18,02,81,308,52,10,10,065,,08,27,184,43,28,13,103,*7D
$GPGSV,5,2,18,22,12,304,,32,39,057,48,17,24,315,45,03,44,255,46*73
$GPGSV,5,3,18,01,75,311,,21,76,119,43,27,01,165,,04,05,197,*72
$GPGSV,5,4,18,31,03,128,,14,10,282,32,36,35,170,39,34,31,208,*76
$GPGSV,5,5,18,49,34,195,36,61,03,257,*76
$GLGSV,3,1,10,85,75,336,49,71,12,212,35,86,19,317,34,69,49,040,49*6F
$GLGSV,3,2,10,84,45,128,30,70,59,208,27,78,00,037,,76,02,302,40*69
$GLGSV,3,3,10,68,01,034,,77,08,344,32*66
$GAGSV,3,1,11,33,69,313,48,31,12,259,33,29,46,162,44,12,15,296,29*6A
$GAGSV,3,2,11,07,49,073,41,24,13,309,34,26,55,103,44,19,10,193,*6F
$GAGSV,3,3,11,13,04,112,,08,09,035,25,16,07,333,*5F
$GBGSV,4,1,16,57,79,017,,60,10,109,,33,17,049,31,28,19,145,30*64
$GBGSV,4,2,16,09,19,090,,05,24,128,,39,23,062,29,16,22,073,26*69
$GBGSV,4,3,16,06,21,077,23,32,51,217,33,27,62,165,33,30,57,294,47*60
$GBGSV,4,4,16,41,67,064,52,29,06,315,32,02,08,105,,13,07,071,*6B
$GPGGA,234512.00,,,,,0,00,,,M,,M,,*4B
$PTNL,GGK,234512.00,010125,4742.4460005,N,01617.9738942,E,1,16,1.5,EHT667.1498,M*44
$GPGGQ,234512.00,010125,4742.4460005,N,01617.9738942,E,1,16,1.648,623.9388,M*3B
$GPGFA,234512.00,6.711,11.007,0.706,0.644,320.763,1.342,,VVV*36
$GPLLK,234512.00,010125,,M,,M,1,16,1.8,,M*06
$GNGMP,234512.00,,,,,DAAA,16,0.8,,,,*5A
$GPGMP,234512.00,,,,,,06,,,,2.8,123*72
$GLGMP,234512.00,,,,,,03,,,,,*7F
$GAGMP,234512.00,,,,,,04,,,,,*75
$GBGMP,234512.00,,,,,,03,,,,,*71
$PSSN,SNC,[0,344730000,2347]*43
$GPZDA,234517.00,01,01,2025,,*65
$GPDTM,W84,,00.0000000,N,00.0000000,E,00.0000000,W84*5F
$GPRMC,234517.00,A,4742.4460045,N,01617.9738960,E,0.0,,010125,5.1,E,D*12
$GPGLL,4742.4460045,N,01617.9738960,E,234517.00,A,D*63
$GPGGA,234517.00,4742.4460045,N,01617.9738960,E,2,17,0.8,623.9369,M,43.2110,M,2.5,0123*40
$GNGNS,234517.00,4742.4460045,N,01617.9738960,E,DAAA,17,0.8,623.9369,43.2110,,*5B
$GPGNS,234517.00,,,,,,06,,,,2.5,123*7A
$GLGNS,234517.00,,,,,,03,,,,,*7A
$GAGNS,234517.00,,,,,,05,,,,,*71
$GBGNS,234517.00,,,,,,03,,,,,*74
$GPLLQ,234517.00,010125,,M,,M,1,17,1.703,,M*14
$GPVTG,,T,,M,0.01,N,0.01,K,D*26
$GPHDT,,T*1B
$GPTHS,,V*0E
$GPROT,,V*08
$PSSN,HRP,234517.00,010125,,,,,,,00,0,,*67
$PTNL,AVR,234517.00,,Yaw,,Tilt,,,,0,,00*31
$GPGSA,A,3,02,03,08,17,21,32,,,,,,,1.4,0.8,1.1*32
$GPGSA,A,3,69,71,85,,,,,,,,,,1.4,0.8,1.1*3B
$GPGSA,A,3,07,24,26,29,33,,,,,,,,1.4,0.8,1.1*31
$GPGSA,A,3,27,30,41,,,,,,,,,,1.4,0.8,1.1*3C
$GPGST,234517.00,5.387,0.724,0.673,320.646,0.704,0.694,1.387*5B
$GPGBS,234517.00,3.935,3.724,5.641,71,0.0001,15.616,6.274*64
$GPGRS,234517.00,1,0.0,0.7,-0.3,-1.0,-0.1,0.1,,,,,,*60
$GPGRS,234517.00,1,-1.4,15.6,3.0,,,,,,,,,*7F
$GPGRS,234517.00,1,0.7,-0.6,-1.0,0.7,-1.0,,,,,,,*4D
$GPGRS,234517.00,1,-5.4,-0.0,-1.0,,,,,,,,,*4B
$GPGSV,5,1,18,02,81,308,51,10,10,065,,08,27,184,42,28,13,103,*7F
$GPGSV,5,2,18,22,12,303,,32,39,057,47,17,24,315,45,03,44,255,46*7B
$GPGSV,5,3,18,01,75,311,,21,76,119,43,27,01,165,,04,05,197,*72
$GPGSV,5,4,18,31,03,128,,14,10,282,34,36,35,170,39,34,31,208,*70
$GPGSV,5,5,18,49,34,195,36,61,03,257,*76
$GLGSV,3,1,10,85,75,336,49,71,12,212,36,86,19,317,34,69,49,040,50*64
$GLGSV,3,2,10,84,45,128,31,70,60,208,30,78,00,037,,76,02,302,38*6B
$GLGSV,3,3,10,68,01,034,,77,08,344,30*64
$GAGSV,3,1,11,33,69,313,48,31,12,259,33,29,46,161,44,12,15,296,34*65
$GAGSV,3,2,11,07,49,073,43,24,13,309,36,26,55,104,43,19,10,193,*6F
$GAGSV,3,3,11,13,04,112,,08,09,035,24,16,07,333,*5E
$GBGSV,4,1,16,57,79,017,,60,10,109,,33,17,049,28,28,19,145,26*6B
$GBGSV,4,2,16,09,19,090,,05,24,128,,39,23,062,29,16,22,073,24*6B
$GBGSV,4,3,16,06,21,077,,32,51,217,31,27,62,165,38,30,57,294,48*67
$GBGSV,4,4,16,41,67,064,51,29,06,315,32,02,08,105,,13,07,071,*68
$GPGGA,234517.00,,,,,0,00,,,M,,M,,*4E
$PTNL,GGK,234517.00,010125,4742.4460045,N,01617.9738960,E,1,17,1.4,EHT667.1479,M*4A
$GPGGQ,234517.00,010125,4742.4460045,N,01617.9738960,E,1,17,1.703,623.9369,M*3A
$GPGFA,234517.00,6.881,11.373,0.724,0.673,320.646,1.387,,VVV*3E
$GPLLK,234517.00,010125,,M,,M,1,17,1.6,,M*0C
$GNGMP,234517.00,,,,,DAAA,17,0.8,,,,*5E
$GPGMP,234517.00,,,,,,06,,,,2.5,123*7A
$GLGMP,234517.00,,,,,,03,,,,,*7A
$GAGMP,234517.00,,,,,,05,,,,,*71
$GBGMP,234517.00,,,,,,03,,,,,*74
$PSSN,SNC,[0,344735000,2347]*46
$GPZDA,234522.00,01,01,2025,,*63
$GPDTM,W84,,00.0000000,N,00.0000000,E,00.0000000,W84*5F
$GPRMC,234522.00,A,4742.4460076,N,01617.9738951,E,0.0,,010125,5.1,E,D*16
$GPGLL,4742.4460076,N,01617.9738951,E,234522.00,A,D*67
$GPGGA,234522.00,4742.4460076,N,01617.9738951,E,2,18,0.8,623.9297,M,43.2110,M,2.8,0123*46
$GNGNS,234522.00,4742.4460076,N,01617.9738951,E,DAAA,18,0.8,623.9297,43.2110,,*50
$GPGNS,234522.00,,,,,,06,,,,2.8,123*71
$GLGNS,234522.00,,,,,,04,,,,,*7B
$GAGNS,234522.00,,,,,,05,,,,,*77
$GBGNS,234522.00,,,,,,03,,,,,*72
$GPLLQ,234522.00,010125,,M,,M,1,18,1.772,,M*1B
$GPVTG,,T,,M,0.00,N,0.01,K,D*27
$GPHDT,,T*1B
$GPTHS,,V*0E
$GPROT,,V*08
$PSSN,HRP,234522.00,010125,,,,,,,00,0,,*61
$PTNL,AVR,234522.00,,Yaw,,Tilt,,,,0,,00*37
$GPGSA,A,3,02,03,08,17,21,32,,,,,,,1.3,0.8,1.1*35
$GPGSA,A,3,69,71,85,86,,,,,,,,,1.3,0.8,1.1*32
$GPGSA,A,3,07,12,26,29,33,,,,,,,,1.3,0.8,1.1*33
$GPGSA,A,3,27,30,41,,,,,,,,,,1.3,0.8,1.1*3B
$GPGST,234522.00,4.940,0.752,0.701,319.969,0.731,0.722,1.444*52
$GPGBS,234522.00,4.013,3.650,5.745,71,0.0001,14.304,6.277*6B
$GPGRS,234522.00,1,0.1,0.4,0.3,-1.2,0.3,-0.2,,,,,,*4A
$GPGRS,234522.00,1,-0.6,14.3,2.7,1.4,,,,,,,,*53
$GPGRS,234522.00,1,0.9,-3.9,-1.0,0.0,-0.8,,,,,,,*47
$GPGRS,234522.00,1,-5.7,0.3,-1.1,,,,,,,,,*61
$GPGSV,5,1,18,02,81,308,51,10,10,065,,08,27,184,42,28,13,103,*7F
$GPGSV,5,2,18,22,12,303,,32,39,056,46,17,24,315,45,03,45,255,46*7A
$GPGSV,5,3,18,01,75,311,,21,76,119,42,27,01,165,,04,05,197,*73
$GPGSV,5,4,18,31,03,128,,14,10,282,33,36,35,170,40,34,31,208,*79
$GPGSV,5,5,18,49,34,195,36,61,03,257,*76
$GLGSV,3,1,10,85,75,336,49,71,12,212,36,86,19,317,38,69,49,040,51*69
$GLGSV,3,2,10,84,45,128,30,70,60,208,32,78,00,037,,76,02,302,33*63
$GLGSV,3,3,10,68,01,034,,77,08,344,*67
$GAGSV,3,1,11,33,69,313,48,31,12,259,33,29,46,161,43,12,15,296,35*63
$GAGSV,3,2,11,07,49,073,42,24,13,309,35,26,55,104,42,19,10,193,*6C
$GAGSV,3,3,11,13,04,112,,08,09,035,27,16,07,333,*5D
$GBGSV,4,1,16,57,79,017,,60,10,109,,33,17,050,31,28,19,145,26*6B
$GBGSV,4,2,16,09,19,090,,05,24,128,,39,23,062,26,16,22,073,24*64
$GBGSV,4,3,16,06,21,077,23,32,51,217,23,27,62,165,37,30,57,294,48*6A
$GBGSV,4,4,16,41,67,064,51,29,06,315,33,02,08,105,,13,07,071,*69
$GPGGA,234522.00,,,,,0,00,,,M,,M,,*48
$PTNL,GGK,234522.00,010125,4742.4460076,N,01617.9738951,E,1,18,1.3,EHT667.1408,M*40
$GPGGQ,234522.00,010125,4742.4460076,N,01617.9738951,E,1,18,1.772,623.9297,M*37
$GPGFA,234522.00,7.147,11.841,0.752,0.701,319.969,1.444,,VVV*35
$GPLLK,234522.00,010125,,M,,M,1,18,1.6,,M*05
$GNGMP,234522.00,,,,,DAAA,18,0.8,,,,*57
$GPGMP,234522.00,,,,,,06,,,,2.8,123*71
$GLGMP,234522.00,,,,,,04,,,,,*7B
$GAGMP,234522.00,,,,,,05,,,,,*77
$GBGMP,234522.00,,,,,,03,,,,,*72
$PSSN,SNC,[0,344740000,2347]*44
$GPZDA,234527.00,01,01,2025,,*66
$GPDTM,W84,,00.0000000,N,00.0000000,E,00.0000000,W84*5F
$GPRMC,234527.00,A,4742.4460144,N,01617.9738962,E,0.0,,010125,5.1,E,D*13
$GPGLL,4742.4460144,N,01617.9738962,E,234527.00,A,D*62
$GPGGA,234527.00,4742.4460144,N,01617.9738962,E,2,16,0.8,623.9265,M,43.2110,M,1.8,0123*43
$GNGNS,234527.00,4742.4460144,N,01617.9738962,E,DAAA,16,0.8,623.9265,43.2110,,*56
$GPGNS,234527.00,,,,,,06,,,,1.8,123*77
$GLGNS,234527.00,,,,,,03,,,,,*79
$GAGNS,234527.00,,,,,,05,,,,,*72
$GBGNS,234527.00,,,,,,02,,,,,*76
$GPLLQ,234527.00,010125,,M,,M,1,16,1.092,,M*19
$GPVTG,,T,,M,0.00,N,0.01,K,D*27
$GPHDT,,T*1B
$GPTHS,,V*0E
$GPROT,,V*08
$PSSN,HRP,234527.00,010125,,,,,,,00,0,,*64
$PTNL,AVR,234527.00,,Yaw,,Tilt,,,,0,,00*32
$GPGSA,A,3,02,03,08,17,21,32,,,,,,,1.5,0.8,1.2*30
$GPGSA,A,3,69,85,86,,,,,,,,,,1.5,0.8,1.2*31
$GPGSA,A,3,07,12,26,29,33,,,,,,,,1.5,0.8,1.2*36
$GPGSA,A,3,30,41,,,,,,,,,,,1.5,0.8,1.2*3B
$GPGST,234527.00,1.332,0.467,0.426,326.321,0.455,0.439,0.891*59
$GPGBS,234527.00,3.948,3.571,5.806,32,0.0001,-0.703,0.739*73
$GPGRS,234527.00,1,0.4,0.5,-0.0,-0.5,-0.1,-0.7,,,,,,*49
$GPGRS,234527.00,1,-0.5,3.0,0.3,,,,,,,,,*4D
$GPGRS,234527.00,1,1.1,-1.6,-0.8,0.3,-0.7,,,,,,,*43
$GPGRS,234527.00,1,0.3,-0.7,,,,,,,,,,*62
$GPGSV,5,1,18,02,81,308,51,10,10,065,,08,27,184,44,28,13,103,*79
$GPGSV,5,2,18,22,12,303,,32,39,056,46,17,24,315,44,03,45,255,46*7B
$GPGSV,5,3,18,01,75,311,,21,76,119,42,27,01,165,,04,05,197,*73
$GPGSV,5,4,18,31,03,128,,14,10,282,32,36,35,170,40,34,31,208,*78
$GPGSV,5,5,18,49,34,195,36,61,03,257,*76
$GLGSV,3,1,10,85,75,336,49,71,12,212,33,86,19,317,38,69,49,040,50*6D
$GLGSV,3,2,10,84,45,128,27,70,60,208,33,78,00,037,,76,02,302,33*64
$GLGSV,3,3,10,68,01,034,,77,08,344,30*64
$GAGSV,3,1,11,33,69,313,48,31,12,259,32,29,46,161,42,12,15,296,35*63
$GAGSV,3,2,11,07,49,072,43,24,13,309,34,26,55,104,42,19,10,193,*6D
$GAGSV,3,3,11,13,04,112,,08,09,035,23,16,07,333,*59
$GBGSV,4,1,16,57,79,017,,60,10,109,,33,17,050,32,28,19,145,27*69
$GBGSV,4,2,16,09,19,090,,05,24,128,,39,23,062,26,16,22,073,23*63
$GBGSV,4,3,16,06,21,077,,32,51,217,26,27,62,165,34,30,57,294,47*62
$GBGSV,4,4,16,41,67,064,50,29,06,315,31,02,08,105,,13,07,071,*6A
$GPGGA,234527.00,,,,,0,00,,,M,,M,,*4D
$PTNL,GGK,234527.00,010125,4742.4460144,N,01617.9738962,E,1,16,1.5,EHT667.1376,M*43
$GPGGQ,234527.00,010125,4742.4460144,N,01617.9738962,E,1,16,1.092,623.9265,M*38
$GPGFA,234527.00,4.438,7.303,0.467,0.426,326.321,0.891,,VVV*08
$GPLLK,234527.00,010125,,M,,M,1,16,1.8,,M*00
$GNGMP,234527.00,,,,,DAAA,16,0.8,,,,*5C
$GPGMP,234527.00,,,,,,06,,,,1.8,123*77
$GLGMP,234527.00,,,,,,03,,,,,*79
$GAGMP,234527.00,,,,,,05,,,,,*72
$GBGMP,234527.00,,,,,,02,,,,,*76
$PSSN,SNC,[0,344745000,2347]*41
$GPZDA,234532.00,01,01,2025,,*62
$GPDTM,W84,,00.0000000,N,00.0000000,E,00.0000000,W84*5F
$GPRMC,234532.00,A,4742.4460180,N,01617.9739024,E,0.0,,010125,5.1,E,D*15
$GPGLL,4742.4460180,N,01617.9739024,E,234532.00,A,D*64
$GPGGA,234532.00,4742.4460180,N,01617.9739024,E,2,16,0.8,623.9167,M,43.2110,M,2.8,0123*47
$GNGNS,234532.00,4742.4460180,N,01617.9739024,E,DAAA,16,0.8,623.9167,43.2110,,*51
$GPGNS,234532.00,,,,,,06,,,,2.8,123*70
$GLGNS,234532.00,,,,,,03,,,,,*7D
$GAGNS,234532.00,,,,,,04,,,,,*77
$GBGNS,234532.00,,,,,,03,,,,,*73
$GPLLQ,234532.00,010125,,M,,M,1,16,1.116,,M*10
$GPVTG,,T,,M,0.00,N,0.01,K,D*27
$GPHDT,,T*1B
$GPTHS,,V*0E
$GPROT,,V*08
$PSSN,HRP,234532.00,010125,,,,,,,00,0,,*60
$PTNL,AVR,234532.00,,Yaw,,Tilt,,,,0,,00*36
$GPGSA,A,3,02,03,08,17,21,32,,,,,,,1.6,0.8,1.3*32
$GPGSA,A,3,69,85,86,,,,,,,,,,1.6,0.8,1.3*33
$GPGSA,A,3,07,26,29,33,,,,,,,,,1.6,0.8,1.3*37
$GPGSA,A,3,27,30,41,,,,,,,,,,1.6,0.8,1.3*3C
$GPGST,234532.00,1.695,0.477,0.438,324.638,0.464,0.451,0.910*50
$GPGBS,234532.00,4.000,3.649,5.958,17,0.0001,-1.095,0.865*7F
$GPGRS,234532.00,1,0.5,0.4,0.1,-1.1,-0.1,-0.3,,,,,,*60
$GPGRS,234532.00,1,-1.2,2.4,-0.9,,,,,,,,,*6D
$GPGRS,234532.00,1,0.6,-0.4,-0.2,-0.8,,,,,,,,*6A
$GPGRS,234532.00,1,-3.9,0.2,-0.2,,,,,,,,,*6B
$GPGSV,5,1,18,02,81,308,51,10,10,065,,08,27,184,42,28,13,103,*7F
$GPGSV,5,2,18,22,12,303,,32,39,056,46,17,24,315,45,03,45,255,45*79
$GPGSV,5,3,18,01,76,311,,21,76,119,42,27,01,165,,04,05,197,*70
$GPGSV,5,4,18,31,03,128,,14,10,282,,36,35,170,40,34,31,208,*79
$GPGSV,5,5,18,49,34,195,35,61,03,257,*75
$GLGSV,3,1,10,85,75,336,50,71,12,212,32,86,19,317,40,69,49,039,49*6D
$GLGSV,3,2,10,84,45,128,29,70,60,208,34,78,00,037,,76,02,302,26*69
$GLGSV,3,3,10,68,01,034,,77,08,344,28*6D
$GAGSV,3,1,11,33,69,314,48,31,12,259,30,29,46,161,42,12,15,297,35*67
$GAGSV,3,2,11,07,49,072,43,24,13,309,34,26,55,104,43,19,10,193,*6C
$GAGSV,3,3,11,13,04,112,,08,09,035,25,16,07,333,*5F
$GBGSV,4,1,16,57,79,017,,60,10,109,,33,17,050,31,28,19,145,29*64
$GBGSV,4,2,16,09,19,090,,05,24,128,,39,23,062,28,16,22,073,21*6F
$GBGSV,4,3,16,06,22,077,26,32,52,217,40,27,62,165,32,30,57,294,47*60
$GBGSV,4,4,16,41,67,064,51,29,06,315,32,02,08,105,,13,07,071,*68
$GPGGA,234532.00,,,,,0,00,,,M,,M,,*49
$PTNL,GGK,234532.00,010125,4742.4460180,N,01617.9739024,E,1,16,1.6,EHT667.1278,M*49
$GPGGQ,234532.00,010125,4742.4460180,N,01617.9739024,E,1,16,1.116,623.9167,M*32
$GPGFA,234532.00,4.537,7.458,0.477,0.438,324.638,0.910,,VVV*02
$GPLLK,234532.00,010125,,M,,M,1,16,1.9,,M*05
$GNGMP,234532.00,,,,,DAAA,16,0.8,,,,*58
$GPGMP,234532.00,,,,,,06,,,,2.8,123*70
$GLGMP,234532.00,,,,,,03,,,,,*7D
$GAGMP,234532.00,,,,,,04,,,,,*77
$GBGMP,234532.00,,,,,,03,,,,,*73
$PSSN,SNC,[0,344750000,2347]*45
$GPZDA,234537.00,01,01,2025,,*67
$GPDTM,W84,,00.0000000,N,00.0000000,E,00.0000000,W84*5F
$GPRMC,234537.00,A,4742.4460229,N,01617.9738969,E,0.0,,010125,5.1,E,D*11
$GPGLL,4742.4460229,N,01617.9738969,E,234537.00,A,D*60
$GPGGA,234537.00,4742.4460229,N,01617.9738969,E,2,17,0.8,623.9060,M,43.2110,M,2.5,0123*49
$GNGNS,234537.00,4742.4460229,N,01617.9738969,E,DAAA,17,0.8,623.9060,43.2110,,*52
$GPGNS,234537.00,,,,,,06,,,,2.5,123*78
$GLGNS,234537.00,,,,,,03,,,,,*78
$GAGNS,234537.00,,,,,,04,,,,,*72
$GBGNS,234537.00,,,,,,04,,,,,*71
$GPLLQ,234537.00,010125,,M,,M,1,17,1.188,,M*13
$GPVTG,,T,,M,0.01,N,0.01,K,D*26
$GPHDT,,T*1B
$GPTHS,,V*0E
$GPROT,,V*08
$PSSN,HRP,234537.00,010125,,,,,,,00,0,,*65
$PTNL,AVR,234537.00,,Yaw,,Tilt,,,,0,,00*33
$GPGSA,A,3,02,03,08,17,21,32,,,,,,,1.5,0.8,1.3*31
$GPGSA,A,3,69,85,86,,,,,,,,,,1.5,0.8,1.3*30
$GPGSA,A,3,07,26,29,33,,,,,,,,,1.5,0.8,1.3*34
$GPGSA,A,3,27,30,32,41,,,,,,,,,1.5,0.8,1.3*3E
$GPGST,234537.00,1.971,0.504,0.471,322.461,0.492,0.484,0.967*51
$GPGBS,234537.00,4.016,3.721,5.724,17,0.0001,-1.475,0.825*79
$GPGRS,234537.00,1,0.3,0.0,0.3,-1.5,0.0,0.5,,,,,,*66
$GPGRS,234537.00,1,-2.6,1.5,1.6,,,,,,,,,*4E
$GPGRS,234537.00,1,0.5,-0.2,-0.2,-0.6,,,,,,,,*64
$GPGRS,234537.00,1,-4.5,0.3,-1.9,-0.0,,,,,,,,*6D
$GPGSV,5,1,18,02,81,308,51,10,10,065,,08,27,184,42,28,13,103,*7F
$GPGSV,5,2,18,22,12,303,,32,39,056,47,17,24,315,44,03,45,255,44*78
$GPGSV,5,3,18,01,76,311,,21,76,119,41,27,01,165,,04,05,197,*73
$GPGSV,5,4,18,31,03,128,,14,10,282,32,36,35,170,40,34,31,208,*78
$GPGSV,5,5,18,49,34,195,37,61,03,257,*77
$GLGSV,3,1,10,85,75,336,49,71,12,212,32,86,19,317,40,69,49,039,49*65
$GLGSV,3,2,10,84,45,128,30,70,60,208,34,78,00,037,,76,02,302,26*61
$GLGSV,3,3,10,68,01,034,,77,08,344,*67
$GAGSV,3,1,11,33,69,314,49,31,12,259,29,29,46,161,41,12,15,297,33*6B
$GAGSV,3,2,11,07,49,072,43,24,13,309,34,26,55,104,43,19,10,193,*6C
$GAGSV,3,3,11,13,04,112,,08,09,035,25,16,07,333,*5F
$GBGSV,4,1,16,57,79,017,,60,10,109,,33,17,050,21,28,19,145,29*65
$GBGSV,4,2,16,09,19,090,,05,24,128,,39,23,062,30,16,22,073,23*64
$GBGSV,4,3,16,06,22,077,28,32,52,217,39,27,62,165,41,30,57,294,46*65
$GBGSV,4,4,16,41,67,064,50,29,06,315,32,02,08,105,,13,07,071,*69
$GPGGA,234537.00,,,,,0,00,,,M,,M,,*4C
$PTNL,GGK,234537.00,010125,4742.4460229,N,01617.9738969,E,1,17,1.5,EHT667.1171,M*45
$GPGGQ,234537.00,010125,4742.4460229,N,01617.9738969,E,1,17,1.188,623.9060,M*36
$GPGFA,234537.00,4.795,7.928,0.504,0.471,322.461,0.967,,VVV*07
$GPLLK,234537.00,010125,,M,,M,1,17,1.8,,M*00
$GNGMP,234537.00,,,,,DAAA,17,0.8,,,,*5C
$GPGMP,234537.00,,,,,,06,,,,2.5,123*78
$GLGMP,234537.00,,,,,,03,,,,,*78
$GAGMP,234537.00,,,,,,04,,,,,*72
$GBGMP,234537.00,,,,,,04,,,,,*71
$PSSN,SNC,[0,344755000,2347]*40
$GPZDA,234542.00,01,01,2025,,*65
$GPDTM,W84,,00.0000000,N,00.0000000,E,00.0000000,W84*5F
$GPRMC,234542.00,A,4742.4460227,N,01617.9738892,E,0.0,,010125,5.1,E,D*18
$GPGLL,4742.4460227,N,01617.9738892,E,234542.00,A,D*69
$GPGGA,234542.00,4742.4460227,N,01617.9738892,E,2,17,0.8,623.9011,M,43.2110,M,2.8,0123*4B
$GNGNS,234542.00,4742.4460227,N,01617.9738892,E,DAAA,17,0.8,623.9011,43.2110,,*5D
$GPGNS,234542.00,,,,,,06,,,,2.8,123*77
$GLGNS,234542.00,,,,,,03,,,,,*7A
$GAGNS,234542.00,,,,,,04,,,,,*70
$GBGNS,234542.00,,,,,,04,,,,,*73
$GPLLQ,234542.00,010125,,M,,M,1,17,1.333,,M*13
$GPVTG,,T,,M,0.00,N,0.01,K,D*27
$GPHDT,,T*1B
$GPTHS,,V*0E
$GPROT,,V*08
$PSSN,HRP,234542.00,010125,,,,,,,00,0,,*67
$PTNL,AVR,234542.00,,Yaw,,Tilt,,,,0,,00*31
$GPGSA,A,3,02,03,08,17,21,32,,,,,,,1.5,0.8,1.3*31
$GPGSA,A,3,69,85,86,,,,,,,,,,1.5,0.8,1.3*30
$GPGSA,A,3,07,26,29,33,,,,,,,,,1.5,0.8,1.3*34
$GPGSA,A,3,27,30,32,41,,,,,,,,,1.5,0.8,1.3*3E
$GPGST,234542.00,2.045,0.566,0.526,324.010,0.553,0.541,1.086*5E
$GPGBS,234542.00,4.107,3.656,5.831,32,0.0001,1.002,0.727*53
$GPGRS,234542.00,1,0.4,0.2,-0.1,-1.2,-0.6,1.0,,,,,,*66
$GPGRS,234542.00,1,-1.8,1.4,1.3,,,,,,,,,*45
$GPGRS,234542.00,1,0.4,-0.4,-0.2,-0.3,,,,,,,,*64
$GPGRS,234542.00,1,-5.1,0.9,1.8,-1.0,,,,,,,,*4D
$GPGSV,5,1,18,02,81,308,50,10,10,065,,08,27,184,42,28,13,103,*7E
$GPGSV,5,2,18,22,12,303,,32,39,056,47,17,24,315,43,03,45,255,42*79
$GPGSV,5,3,18,01,76,311,,21,76,119,41,27,01,165,,04,05,197,*73
$GPGSV,5,4,18,31,03,128,,14,10,282,33,36,35,170,40,34,31,208,*79
$GPGSV,5,5,18,49,34,195,36,61,03,257,*76
$GLGSV,3,1,10,85,75,336,48,71,12,212,33,86,19,317,40,69,49,039,50*6D
$GLGSV,3,2,10,84,45,128,30,70,60,208,32,78,00,037,,76,02,302,33*63
$GLGSV,3,3,10,68,01,034,,77,08,344,*67
$GAGSV,3,1,11,33,69,314,49,31,12,259,26,29,46,161,40,12,15,297,31*67
$GAGSV,3,2,11,07,49,072,43,24,13,309,34,26,55,104,42,19,10,193,*6D
$GAGSV,3,3,11,13,04,112,,08,09,035,24,16,07,333,*5E
$GBGSV,4,1,16,57,79,018,,60,10,109,,33,17,050,24,28,19,145,29*6F
$GBGSV,4,2,16,09,19,090,,05,24,128,,39,23,062,30,16,22,073,27*60
$GBGSV,4,3,16,06,22,077,,32,52,217,43,27,61,165,41,30,57,294,44*63
$GBGSV,4,4,16,41,67,064,50,29,06,315,34,02,08,105,,13,07,071,*6F
$GPGGA,234542.00,,,,,0,00,,,M,,M,,*4E
$PTNL,GGK,234542.00,010125,4742.4460227,N,01617.9738892,E,1,17,1.5,EHT667.1121,M*49
$GPGGQ,234542.00,010125,4742.4460227,N,01617.9738892,E,1,17,1.333,623.9011,M*3B
$GPGFA,234542.00,5.385,8.907,0.566,0.526,324.010,1.086,,VVV*07
$GPLLK,234542.00,010125,,M,,M,1,17,1.8,,M*02
$GNGMP,234542.00,,,,,DAAA,17,0.8,,,,*5E
$GPGMP,234542.00,,,,,,06,,,,2.8,123*77
$GLGMP,234542.00,,,,,,03,,,,,*7A
$GAGMP,234542.00,,,,,,04,,,,,*70
$GBGMP,234542.00,,,,,,04,,,,,*73
$PSSN,SNC,[0,344760000,2347]*46
$GPZDA,234547.00,01,01,2025,,*60
$GPDTM,W84,,00.0000000,N,00.0000000,E,00.0000000,W84*5F
$GPRMC,234547.00,A,4742.4460249,N,01617.9738843,E,0.0,,010125,5.1,E,D*19
$GPGLL,4742.4460249,N,01617.9738843,E,234547.00,A,D*68
$GPGGA,234547.00,4742.4460249,N,01617.9738843,E,2,18,0.8,623.9098,M,43.2110,M,1.8,0123*47
$GNGNS,234547.00,4742.4460249,N,01617.9738843,E,DAAA,18,0.8,623.9098,43.2110,,*52
$GPGNS,234547.00,,,,,,06,,,,1.8,123*71
$GLGNS,234547.00,,,,,,03,,,,,*7F
$GAGNS,234547.00,,,,,,04,,,,,*75
$GBGNS,234547.00,,,,,,05,,,,,*77
$GPLLQ,234547.00,010125,,M,,M,1,18,1.262,,M*1C
$GPVTG,,T,,M,0.01,N,0.02,K,D*25
$GPHDT,,T*1B
$GPTHS,,V*0E
$GPROT,,V*08
$PSSN,HRP,234547.00,010125,,,,,,,00,0,,*62
$PTNL,AVR,234547.00,,Yaw,,Tilt,,,,0,,00*34
$GPGSA,A,3,02,03,08,17,21,32,,,,,,,1.4,0.8,1.1*32
$GPGSA,A,3,69,85,86,,,,,,,,,,1.4,0.8,1.1*33
$GPGSA,A,3,07,26,29,33,,,,,,,,,1.4,0.8,1.1*37
$GPGSA,A,3,27,29,30,32,41,,,,,,,,1.4,0.8,1.1*36
$GPGST,234547.00,2.587,0.540,0.493,322.678,0.523,0.511,1.028*53
$GPGBS,234547.00,3.949,3.581,5.800,32,0.0001,0.809,0.740*5B
$GPGRS,234547.00,1,0.3,0.4,0.0,-0.8,-0.5,0.8,,,,,,*4F
$GPGRS,234547.00,1,-1.0,0.3,-0.7,,,,,,,,,*66
$GPGRS,234547.00,1,-0.5,-0.8,-0.2,-0.7,,,,,,,,*45
$GPGRS,234547.00,1,-5.0,-5.3,1.9,3.2,-1.3,,,,,,,*46
$GPGSV,5,1,18,02,81,307,50,10,10,065,,08,27,184,41,28,13,103,*72
$GPGSV,5,2,18,22,12,303,,32,39,056,47,17,24,315,44,03,45,255,42*7E
$GPGSV,5,3,18,01,76,311,,21,76,119,39,27,01,165,,04,05,197,*7C
$GPGSV,5,4,18,31,03,128,,14,10,282,32,36,35,170,39,34,31,208,*76
$GPGSV,5,5,18,49,34,195,36,61,03,257,*76
$GLGSV,3,1,10,85,75,336,47,71,12,212,34,86,19,317,40,69,49,039,51*64
$GLGSV,3,2,10,84,45,128,31,70,60,208,29,78,00,037,,76,02,302,33*68
$GLGSV,3,3,10,68,01,034,,77,08,344,*67
$GAGSV,3,1,11,33,69,314,49,31,12,259,26,29,46,161,40,12,15,297,32*64
$GAGSV,3,2,11,07,49,072,43,24,13,309,34,26,55,104,43,19,10,193,*6C
$GAGSV,3,3,11,13,04,112,,08,09,035,24,16,07,333,*5E
$GBGSV,4,1,16,57,79,018,,60,10,109,,33,17,050,21,28,18,145,30*63
$GBGSV,4,2,16,09,19,090,,05,24,128,,39,23,062,28,16,22,073,26*68
$GBGSV,4,3,16,06,22,077,24,32,52,217,44,27,61,165,40,30,57,294,42*65
$GBGSV,4,4,16,41,67,064,49,29,06,315,36,02,08,105,,13,07,071,*65
$GPGGA,234547.00,,,,,0,00,,,M,,M,,*4B
$PTNL,GGK,234547.00,010125,4742.4460249,N,01617.9738843,E,1,18,1.4,EHT667.1208,M*4E
$GPGGQ,234547.00,010125,4742.4460249,N,01617.9738843,E,1,18,1.262,623.9098,M*31
$GPGFA,234547.00,5.133,8.430,0.540,0.493,322.678,1.028,,VVV*05
$GPLLK,234547.00,010125,,M,,M,1,18,1.6,,M*06
$GNGMP,234547.00,,,,,DAAA,18,0.8,,,,*54
$GPGMP,234547.00,,,,,,06,,,,1.8,123*71
$GLGMP,234547.00,,,,,,03,,,,,*7F
$GAGMP,234547.00,,,,,,04,,,,,*75
$GBGMP,234547.00,,,,,,05,,,,,*77
$PSSN,SNC,[0,344765000,2347]*43
$GPZDA,234552.00,01,01,2025,,*64
$GPDTM,W84,,00.0000000,N,00.0000000,E,00.0000000,W84*5F
$GPRMC,234552.00,A,4742.4460223,N,01617.9738784,E,0.0,,010125,5.1,E,D*15
$GPGLL,4742.4460223,N,01617.9738784,E,234552.00,A,D*64
$GPGGA,234552.00,4742.4460223,N,01617.9738784,E,2,18,0.8,623.8973,M,43.2110,M,2.8,0123*45
$GNGNS,234552.00,4742.4460223,N,01617.9738784,E,DAAA,18,0.8,623.8973,43.2110,,*53
$GPGNS,234552.00,,,,,,06,,,,2.8,123*76
$GLGNS,234552.00,,,,,,03,,,,,*7B
$GAGNS,234552.00,,,,,,04,,,,,*71
$GBGNS,234552.00,,,,,,05,,,,,*73
$GPLLQ,234552.00,010125,,M,,M,1,18,1.219,,M*14
$GPVTG,,T,,M,0.00,N,0.01,K,D*27
$GPHDT,,T*1B
$GPTHS,,V*0E
$GPROT,,V*08
$PSSN,HRP,234552.00,010125,,,,,,,00,0,,*66
$PTNL,AVR,234552.00,,Yaw,,Tilt,,,,0,,00*30
$GPGSA,A,3,02,03,08,17,21,32,,,,,,,1.4,0.8,1.1*32
$GPGSA,A,3,69,85,86,,,,,,,,,,1.4,0.8,1.1*33
$GPGSA,A,3,07,26,29,33,,,,,,,,,1.4,0.8,1.1*37
$GPGSA,A,3,27,29,30,32,41,,,,,,,,1.4,0.8,1.1*36
$GPGST,234552.00,2.851,0.522,0.479,323.914,0.508,0.494,0.992*59
$GPGBS,234552.00,4.008,3.650,5.950,03,0.0001,0.739,0.661*53
$GPGRS,234552.00,1,0.2,0.7,-0.6,-0.9,-0.4,0.5,,,,,,*6F
$GPGRS,234552.00,1,-1.6,0.2,-0.6,,,,,,,,,*64
$GPGRS,234552.00,1,-0.8,-1.0,-0.2,-1.0,,,,,,,,*43
$GPGRS,234552.00,1,-5.2,-6.3,2.9,2.3,-1.2,,,,,,,*41
$GPGSV,5,1,18,02,81,307,50,10,10,065,,08,27,184,39,28,13,103,*7D
$GPGSV,5,2,18,22,12,303,,32,39,056,47,17,24,315,45,03,45,255,43*7E
$GPGSV,5,3,18,01,76,311,,21,76,119,38,27,01,165,,04,05,197,*7D
$GPGSV,5,4,18,31,03,128,,14,10,282,32,36,35,170,40,34,31,208,*78
$GPGSV,5,5,18,49,34,195,36,61,03,257,*76
$GLGSV,3,1,10,85,76,336,47,71,12,212,34,86,19,317,43,69,49,039,51*64
$GLGSV,3,2,10,84,45,128,30,70,60,208,26,78,00,037,,76,02,302,32*67
$GLGSV,3,3,10,68,01,034,,77,08,344,29*6C
$GAGSV,3,1,11,33,69,314,49,19,10,193,,31,12,259,24,12,15,297,33*6E
$GAGSV,3,2,11,24,13,308,34,29,46,161,40,07,49,072,43,26,55,104,42*65
$GAGSV,3,3,11,08,09,035,,13,04,112,,16,07,333,*58
$GBGSV,4,1,16,57,79,018,,60,10,109,,33,17,050,25,28,18,145,30*67
$GBGSV,4,2,16,09,19,090,,05,24,128,,39,23,062,30,16,22,073,29*6E
$GBGSV,4,3,16,06,22,077,24,32,52,217,44,27,61,165,40,30,57,294,40*67
$GBGSV,4,4,16,41,67,064,49,29,06,315,38,02,08,105,,13,07,071,*6B
$GPGGA,234552.00,,,,,0,00,,,M,,M,,*4F
$PTNL,GGK,234552.00,010125,4742.4460223,N,01617.9738784,E,1,18,1.4,EHT667.1084,M*44
$GPGGQ,234552.00,010125,4742.4460223,N,01617.9738784,E,1,18,1.219,623.8973,M*3C
$GPGFA,234552.00,4.967,8.136,0.522,0.479,323.914,0.992,,VVV*07
$GPLLK,234552.00,010125,,M,,M,1,18,1.6,,M*02
$GNGMP,234552.00,,,,,DAAA,18,0.8,,,,*50
$GPGMP,234552.00,,,,,,06,,,,2.8,123*76
$GLGMP,234552.00,,,,,,03,,,,,*7B
$GAGMP,234552.00,,,,,,04,,,,,*71
$GBGMP,234552.00,,,,,,05,,,,,*73
$PSSN,SNC,[0,344770000,2347]*47
$GPZDA,234557.00,01,01,2025,,*61
$GPDTM,W84,,00.0000000,N,00.0000000,E,00.0000000,W84*5F
$GPRMC,234557.00,A,4742.4460222,N,01617.9738790,E,0.0,,010125,5.1,E,D*14
$GPGLL,4742.4460222,N,01617.9738790,E,234557.00,A,D*65
$GPGGA,234557.00,4742.4460222,N,01617.9738790,E,2,18,0.8,623.8880,M,43.2110,M,2.5,0123*44
$GNGNS,234557.00,4742.4460222,N,01617.9738790,E,DAAA,18,0.8,623.8880,43.2110,,*5F
$GPGNS,234557.00,,,,,,06,,,,2.5,123*7E
$GLGNS,234557.00,,,,,,03,,,,,*7E
$GAGNS,234557.00,,,,,,04,,,,,*74
$GBGNS,234557.00,,,,,,05,,,,,*76
$GPLLQ,234557.00,010125,,M,,M,1,18,1.416,,M*18
$GPVTG,,T,,M,0.01,N,0.01,K,D*26
$GPHDT,,T*1B
$GPTHS,,V*0E
$GPROT,,V*08
$PSSN,HRP,234557.00,010125,,,,,,,00,0,,*63
$PTNL,AVR,234557.00,,Yaw,,Tilt,,,,0,,00*35
$GPGSA,A,3,02,03,08,17,21,32,,,,,,,1.4,0.8,1.1*32
$GPGSA,A,3,69,85,86,,,,,,,,,,1.4,0.8,1.1*33
$GPGSA,A,3,07,26,29,33,,,,,,,,,1.4,0.8,1.1*37
$GPGSA,A,3,27,29,30,32,41,,,,,,,,1.4,0.8,1.1*36
$GPGST,234557.00,2.421,0.604,0.562,322.757,0.589,0.577,1.151*50
$GPGBS,234557.00,4.038,3.724,5.720,03,0.0001,0.913,0.677*5F
$GPGRS,234557.00,1,-0.1,0.9,-1.1,-1.0,-0.1,0.5,,,,,,*41
$GPGRS,234557.00,1,-1.4,0.9,4.0,,,,,,,,,*47
$GPGRS,234557.00,1,-0.7,-0.6,0.6,-1.1,,,,,,,,*66
$GPGRS,234557.00,1,-4.4,-4.3,0.2,1.0,-0.7,,,,,,,*4C
$GPGSV,5,1,18,02,81,307,49,10,10,065,,08,27,184,38,28,13,103,*74
$GPGSV,5,2,18,22,12,303,,32,39,056,46,17,24,315,45,03,45,255,43*7F
$GPGSV,5,3,18,01,76,311,,21,76,119,39,27,01,165,,04,05,197,*7C
$GPGSV,5,4,18,31,03,128,,14,10,282,29,36,35,170,40,34,31,208,*72
$GPGSV,5,5,18,49,34,195,34,61,03,257,*74
$GLGSV,3,1,10,85,76,336,49,71,12,212,34,86,19,317,42,69,48,039,51*6A
$GLGSV,3,2,10,84,45,128,28,70,60,208,,78,00,037,,76,02,302,35*6D
$GLGSV,3,3,10,68,01,034,,77,08,344,33*67
$GAGSV,3,1,11,33,69,314,48,19,10,193,,31,12,259,19,12,15,297,33*61
$GAGSV,3,2,11,24,13,308,32,29,46,161,42,07,49,072,43,26,55,104,42*61
$GAGSV,3,3,11,08,09,035,24,13,04,112,,16,07,333,*5E
$GBGSV,4,1,16,57,79,018,,60,10,109,,33,17,050,23,28,18,145,30*61
$GBGSV,4,2,16,09,19,090,,05,24,128,,39,23,062,21,16,22,073,32*64
$GBGSV,4,3,16,06,22,077,27,32,52,217,44,27,61,165,41,30,58,294,39*64
$GBGSV,4,4,16,41,67,064,50,29,06,315,38,02,08,105,,13,07,071,*63
$GPGGA,234557.00,,,,,0,00,,,M,,M,,*4A
$PTNL,GGK,234557.00,010125,4742.4460222,N,01617.9738790,E,1,18,1.4,EHT667.0990,M*48
$GPGGQ,234557.00,010125,4742.4460222,N,01617.9738790,E,1,18,1.416,623.8880,M*39
$GPGFA,234557.00,5.738,9.442,0.604,0.562,322.757,1.151,,VVV*02
$GPLLK,234557.00,010125,,M,,M,1,18,1.6,,M*07
$GNGMP,234557.00,,,,,DAAA,18,0.8,,,,*55
$GPGMP,234557.00,,,,,,06,,,,2.5,123*7E
$GLGMP,234557.00,,,,,,03,,,,,*7E
$GAGMP,234557.00,,,,,,04,,,,,*74
$GBGMP,234557.00,,,,,,05,,,,,*76
$PSSN,SNC,[0,344775000,2347]*42
$GPZDA,234602.00,01,01,2025,,*62
$GPDTM,W84,,00.0000000,N,00.0000000,E,00.0000000,W84*5F
$GPRMC,234602.00,A,4742.4460210,N,01617.9738813,E,0.0,,010125,5.1,E,D*12
$GPGLL,4742.4460210,N,01617.9738813,E,234602.00,A,D*63
$GPGGA,234602.00,4742.4460210,N,01617.9738813,E,2,19,0.7,623.8745,M,43.2110,M,2.8,0123*47
$GNGNS,234602.00,4742.4460210,N,01617.9738813,E,DAAA,19,0.7,623.8745,43.2110,,*51
$GPGNS,234602.00,,,,,,06,,,,2.8,123*70
$GLGNS,234602.00,,,,,,04,,,,,*7A
$GAGNS,234602.00,,,,,,04,,,,,*77
$GBGNS,234602.00,,,,,,05,,,,,*75
$GPLLQ,234602.00,010125,,M,,M,1,19,1.624,,M*19
$GPVTG,,T,,M,0.00,N,0.00,K,D*26
$GPHDT,,T*1B
$GPTHS,,V*0E
$GPROT,,V*08
$PSSN,HRP,234602.00,010125,,,,,,,00,0,,*60
$PTNL,AVR,234602.00,,Yaw,,Tilt,,,,0,,00*36
$GPGSA,A,3,02,03,08,17,21,32,,,,,,,1.3,0.7,1.0*3B
$GPGSA,A,3,69,71,85,86,,,,,,,,,1.3,0.7,1.0*3C
$GPGSA,A,3,07,26,29,33,,,,,,,,,1.3,0.7,1.0*3E
$GPGSA,A,3,27,29,30,32,41,,,,,,,,1.3,0.7,1.0*3F
$GPGST,234602.00,2.793,0.691,0.643,322.052,0.673,0.661,1.321*50
$GPGBS,234602.00,4.029,3.656,5.746,21,0.0001,1.046,0.607*57
$GPGRS,234602.00,1,-0.0,0.5,-1.3,-1.2,1.0,-0.4,,,,,,*4E
$GPGRS,234602.00,1,-1.3,0.5,2.3,7.8,,,,,,,,*6B
$GPGRS,234602.00,1,-0.1,0.1,1.5,-0.9,,,,,,,,*42
$GPGRS,234602.00,1,-3.5,-1.8,1.5,-0.0,-0.8,,,,,,,*62
$GPGSV,5,1,18,02,81,307,49,10,10,065,22,08,27,184,36,28,13,103,*7A
$GPGSV,5,2,18,22,12,303,,32,39,056,45,17,24,315,46,03,45,255,42*7E
$GPGSV,5,3,18,01,76,311,,21,76,119,39,27,01,165,,04,05,197,*7C
$GPGSV,5,4,18,31,03,128,,14,10,282,32,36,35,170,39,34,31,208,*76
$GPGSV,5,5,18,49,34,195,36,61,03,257,*76
$GLGSV,3,1,10,85,76,336,49,71,12,212,36,86,19,317,43,69,48,039,50*68
$GLGSV,3,2,10,84,45,128,29,70,60,208,28,78,00,036,,76,02,302,28*6B
$GLGSV,3,3,10,68,01,034,,77,08,344,33*67
$GAGSV,3,1,11,33,69,314,48,19,10,193,,31,12,259,26,12,15,297,33*6D
$GAGSV,3,2,11,24,13,308,32,29,46,161,43,07,49,072,43,26,55,104,42*60
$GAGSV,3,3,11,08,09,035,,13,04,112,,16,07,333,*58
$GBGSV,4,1,16,57,79,018,,60,10,109,,33,17,050,,28,18,145,30*60
$GBGSV,4,2,16,09,19,090,,05,24,128,,39,23,062,26,16,22,073,31*60
$GBGSV,4,3,16,06,22,077,27,32,52,217,43,27,61,165,42,30,58,293,43*6A
$GBGSV,4,4,16,41,67,064,50,29,06,315,39,02,08,105,,13,07,071,*62
$GPGGA,234602.00,,,,,0,00,,,M,,M,,*49
$PTNL,GGK,234602.00,010125,4742.4460210,N,01617.9738813,E,1,19,1.3,EHT667.0855,M*40
$GPGGQ,234602.00,010125,4742.4460210,N,01617.9738813,E,1,19,1.624,623.8745,M*3B
$GPGFA,234602.00,6.568,10.833,0.691,0.643,322.052,1.321,,VVV*3C
$GPLLK,234602.00,010125,,M,,M,1,19,1.5,,M*06
$GNGMP,234602.00,,,,,DAAA,19,0.7,,,,*58
$GPGMP,234602.00,,,,,,06,,,,2.8,123*70
$GLGMP,234602.00,,,,,,04,,,,,*7A
$GAGMP,234602.00,,,,,,04,,,,,*77
$GBGMP,234602.00,,,,,,05,,,,,*75
$PSSN,SNC,[0,344780000,2347]*48
$GPZDA,234607.00,01,01,2025,,*67
$GPDTM,W84,,00.0000000,N,00.0000000,E,00.0000000,W84*5F
$GPRMC,234607.00,A,4742.4460237,N,01617.9738839,E,0.0,,010125,5.1,E,D*1A
$GPGLL,4742.4460237,N,01617.9738839,E,234607.00,A,D*6B
$GPGGA,234607.00,4742.4460237,N,01617.9738839,E,2,18,0.8,623.8562,M,43.2110,M,1.8,0123*45
$GNGNS,234607.00,4742.4460237,N,01617.9738839,E,DAAA,18,0.8,623.8562,43.2110,,*50
$GPGNS,234607.00,,,,,,06,,,,1.8,123*76
$GLGNS,234607.00,,,,,,04,,,,,*7F
$GAGNS,234607.00,,,,,,04,,,,,*72
$GBGNS,234607.00,,,,,,04,,,,,*71
$GPLLQ,234607.00,010125,,M,,M,1,18,1.719,,M*12
$GPVTG,,T,,M,0.01,N,0.01,K,D*26
$GPHDT,,T*1B
$GPTHS,,V*0E
$GPROT,,V*08
$PSSN,HRP,234607.00,010125,,,,,,,00,0,,*65
$PTNL,AVR,234607.00,,Yaw,,Tilt,,,,0,,00*33
$GPGSA,A,3,02,03,08,17,21,32,,,,,,,1.3,0.8,1.0*34
$GPGSA,A,3,69,71,85,86,,,,,,,,,1.3,0.8,1.0*33
$GPGSA,A,3,07,26,29,33,,,,,,,,,1.3,0.8,1.0*31
$GPGSA,A,3,29,30,32,41,,,,,,,,,1.3,0.8,1.0*35
$GPGST,234607.00,2.938,0.737,0.671,323.735,0.715,0.695,1.401*5E
$GPGBS,234607.00,3.890,3.575,5.785,03,0.0001,1.410,0.646*50
$GPGRS,234607.00,1,0.2,1.4,-0.5,-1.4,-0.2,-0.6,,,,,,*49
$GPGRS,234607.00,1,-2.0,2.5,1.4,8.2,,,,,,,,*6D
$GPGRS,234607.00,1,-0.8,-0.2,2.5,-0.7,,,,,,,,*6D
$GPGRS,234607.00,1,-1.0,-0.1,0.4,-1.7,,,,,,,,*65
$GPGSV,5,1,18,02,81,307,50,10,10,065,21,08,26,184,36,28,13,103,*70
$GPGSV,5,2,18,22,12,303,,32,39,056,46,17,24,315,46,03,45,255,45*7A
$GPGSV,5,3,18,01,76,311,,21,76,119,38,27,01,165,,04,05,197,*7D
$GPGSV,5,4,18,31,03,128,,14,10,282,,36,35,170,40,34,31,208,*79
$GPGSV,5,5,18,49,34,195,35,61,03,257,*75
$GLGSV,3,1,10,85,76,336,48,71,12,212,36,86,19,317,41,69,48,039,51*6A
$GLGSV,3,2,10,84,44,128,29,70,60,208,29,78,01,036,,76,02,302,32*61
$GLGSV,3,3,10,68,01,034,,77,08,344,*67
$GAGSV,3,1,11,33,70,314,48,19,10,193,,31,12,259,25,12,15,297,32*67
$GAGSV,3,2,11,24,13,308,34,29,46,161,43,07,49,072,43,26,55,104,42*66
$GAGSV,3,3,11,08,09,035,21,13,04,112,,16,07,333,*5B
$GBGSV,4,1,16,57,79,018,,60,10,109,,33,17,050,23,28,18,145,29*69
$GBGSV,4,2,16,09,19,090,,05,24,128,,39,23,062,21,16,22,073,29*6E
$GBGSV,4,3,16,06,22,077,21,32,52,217,43,27,61,165,28,30,58,293,43*60
$GBGSV,4,4,16,41,67,064,48,29,06,315,39,02,08,105,,13,07,071,*6B
$GPGGA,234607.00,,,,,0,00,,,M,,M,,*4C
$PTNL,GGK,234607.00,010125,4742.4460237,N,01617.9738839,E,1,18,1.3,EHT667.0673,M*43
$GPGGQ,234607.00,010125,4742.4460237,N,01617.9738839,E,1,18,1.719,623.8562,M*3A
$GPGFA,234607.00,7.009,11.488,0.737,0.671,323.735,1.401,,VVV*39
$GPLLK,234607.00,010125,,M,,M,1,18,1.5,,M*02
$GNGMP,234607.00,,,,,DAAA,18,0.8,,,,*53
$GPGMP,234607.00,,,,,,06,,,,1.8,123*76
$GLGMP,234607.00,,,,,,04,,,,,*7F
$GAGMP,234607.00,,,,,,04,,,,,*72
$GBGMP,234607.00,,,,,,04,,,,,*71
$PSSN,SNC,[0,344785000,2347]*4D
$GPZDA,234612.00,01,01,2025,,*63
$GPDTM,W84,,00.0000000,N,00.0000000,E,00.0000000,W84*5F
$GPRMC,234612.00,A,4742.4460301,N,01617.9738976,E,0.0,,010125,5.1,E,D*10
$GPGLL,4742.4460301,N,01617.9738976,E,234612.00,A,D*61
$GPGGA,234612.00,4742.4460301,N,01617.9738976,E,2,18,0.8,623.8582,M,43.2110,M,2.8,0123*42
$GNGNS,234612.00,4742.4460301,N,01617.9738976,E,DAAA,18,0.8,623.8582,43.2110,,*54
$GPGNS,234612.00,,,,,,06,,,,2.8,123*71
$GLGNS,234612.00,,,,,,04,,,,,*7B
$GAGNS,234612.00,,,,,,04,,,,,*76
$GBGNS,234612.00,,,,,,04,,,,,*75
$GPLLQ,234612.00,010125,,M,,M,1,18,2.296,,M*17
$GPVTG,,T,,M,0.01,N,0.01,K,D*26
$GPHDT,,T*1B
$GPTHS,,V*0E
$GPROT,,V*08
$PSSN,HRP,234612.00,010125,,,,,,,00,0,,*61
$PTNL,AVR,234612.00,,Yaw,,Tilt,,,,0,,00*37
$GPGSA,A,3,02,03,08,17,21,32,,,,,,,1.3,0.8,1.0*34
$GPGSA,A,3,69,71,85,86,,,,,,,,,1.3,0.8,1.0*33
$GPGSA,A,3,07,26,29,33,,,,,,,,,1.3,0.8,1.0*31
$GPGSA,A,3,29,30,32,41,,,,,,,,,1.3,0.8,1.0*35
$GPGST,234612.00,2.960,0.984,0.904,322.467,0.955,0.934,1.868*54
$GPGBS,234612.00,3.933,3.640,5.892,21,0.0001,-2.152,0.650*7A
$GPGRS,234612.00,1,0.4,1.5,0.5,-1.1,-2.2,0.4,,,,,,*4F
$GPGRS,234612.00,1,-0.7,5.8,0.8,5.5,,,,,,,,*61
$GPGRS,234612.00,1,-0.0,0.7,2.6,-0.4,,,,,,,,*49
$GPGRS,234612.00,1,-1.1,-1.0,2.2,-2.7,,,,,,,,*67
$GPGSV,5,1,18,02,81,307,49,10,10,065,,08,26,184,38,28,13,103,*75
$GPGSV,5,2,18,22,12,303,,32,39,056,47,17,24,315,46,03,45,256,45*78
$GPGSV,5,3,18,01,76,311,,21,76,119,38,27,01,165,,04,05,197,*7D
$GPGSV,5,4,18,31,03,128,,14,10,282,30,36,35,170,41,34,31,208,*7B
$GPGSV,5,5,18,49,34,195,37,61,03,257,*77
$GLGSV,3,1,10,85,76,336,47,71,12,212,36,86,19,317,38,69,48,039,52*68
$GLGSV,3,2,10,84,44,128,31,70,60,208,29,78,01,036,,76,02,302,23*68
$GLGSV,3,3,10,68,01,034,,77,08,344,29*6C
$GAGSV,3,1,11,33,70,314,48,19,10,193,,31,12,259,28,12,15,297,30*68
$GAGSV,3,2,11,24,13,308,34,29,46,161,44,07,49,072,42,26,55,104,42*60
$GAGSV,3,3,11,08,09,035,24,13,04,112,,16,07,333,*5E
$GBGSV,4,1,16,57,79,019,,60,10,109,,33,17,050,25,28,18,145,32*64
$GBGSV,4,2,16,09,19,090,,05,24,128,,39,23,062,28,16,22,073,28*66
$GBGSV,4,3,16,06,22,077,24,32,52,217,44,27,61,165,33,30,58,293,42*69
$GBGSV,4,4,16,41,67,064,48,29,06,315,38,02,08,105,,13,07,071,*6A
$GPGGA,234612.00,,,,,0,00,,,M,,M,,*48
$PTNL,GGK,234612.00,010125,4742.4460301,N,01617.9738976,E,1,18,1.3,EHT667.0692,M*46
$GPGGQ,234612.00,010125,4742.4460301,N,01617.9738976,E,1,18,2.296,623.8582,M*3F
$GPGFA,234612.00,9.351,15.316,0.984,0.904,322.467,1.868,,VVV*34
$GPLLK,234612.00,010125,,M,,M,1,18,1.5,,M*06
$GNGMP,234612.00,,,,,DAAA,18,0.8,,,,*57
$GPGMP,234612.00,,,,,,06,,,,2.8,123*71
$GLGMP,234612.00,,,,,,04,,,,,*7B
$GAGMP,234612.00,,,,,,04,,,,,*76
$GBGMP,234612.00,,,,,,04,,,,,*75
$PSSN,SNC,[0,344790000,2347]*49
$GPZDA,234617.00,01,01,2025,,*66
$GPDTM,W84,,00.0000000,N,00.0000000,E,00.0000000,W84*5F
$GPRMC,234617.00,A,4742.4460324,N,01617.9739028,E,0.0,,010125,5.1,E,D*11
$GPGLL,4742.4460324,N,01617.9739028,E,234617.00,A,D*60
$GPGGA,234617.00,4742.4460324,N,01617.9739028,E,2,19,0.8,623.8711,M,43.2110,M,2.5,0123*47
$GNGNS,234617.00,4742.4460324,N,01617.9739028,E,DAAA,19,0.8,623.8711,43.2110,,*5C
$GPGNS,234617.00,,,,,,06,,,,2.5,123*79
$GLGNS,234617.00,,,,,,03,,,,,*79
$GAGNS,234617.00,,,,,,05,,,,,*72
$GBGNS,234617.00,,,,,,05,,,,,*71
$GPLLQ,234617.00,010125,,M,,M,1,19,1.960,,M*12
$GPVTG,,T,,M,0.01,N,0.01,K,D*26
$GPHDT,,T*1B
$GPTHS,,V*0E
$GPROT,,V*08
$PSSN,HRP,234617.00,010125,,,,,,,00,0,,*64
$PTNL,AVR,234617.00,,Yaw,,Tilt,,,,0,,00*32
$GPGSA,A,3,02,03,08,17,21,32,,,,,,,1.3,0.8,1.1*35
$GPGSA,A,3,69,85,86,,,,,,,,,,1.3,0.8,1.1*34
$GPGSA,A,3,07,24,26,29,33,,,,,,,,1.3,0.8,1.1*36
$GPGSA,A,3,27,29,30,32,41,,,,,,,,1.3,0.8,1.1*31
$GPGST,234617.00,3.232,0.832,0.781,323.718,0.815,0.799,1.593*5C
$GPGBS,234617.00,4.021,3.711,5.681,21,0.0001,-1.307,0.595*70
$GPGRS,234617.00,1,0.1,1.1,0.3,-1.5,-1.3,1.1,,,,,,*4F
$GPGRS,234617.00,1,0.0,0.7,7.8,,,,,,,,,*6D
$GPGRS,234617.00,1,1.2,-0.3,1.0,1.9,-0.8,,,,,,,*64
$GPGRS,234617.00,1,1.9,-4.9,0.5,4.0,-2.7,,,,,,,*64
$GPGSV,5,1,18,02,81,307,50,10,10,065,,08,26,184,39,28,13,103,*7C
$GPGSV,5,2,18,22,12,303,,32,39,056,46,17,24,315,46,03,45,256,45*79
$GPGSV,5,3,18,01,76,311,,21,76,119,39,27,01,165,,04,05,197,*7C
$GPGSV,5,4,18,31,03,128,,14,10,282,29,36,35,170,41,34,31,208,*73
$GPGSV,5,5,18,49,34,195,35,61,03,257,*75
$GLGSV,3,1,10,85,76,336,47,71,12,212,28,86,19,317,36,69,48,039,53*68
$GLGSV,3,2,10,84,44,128,30,70,60,208,30,78,01,036,,76,02,302,30*63
$GLGSV,3,3,10,68,01,034,,77,08,344,*67
$GAGSV,3,1,11,33,70,314,48,19,10,193,,31,12,259,31,12,15,297,29*68
$GAGSV,3,2,11,24,13,308,36,29,46,161,44,07,49,072,43,26,55,104,43*62
$GAGSV,3,3,11,08,09,035,25,13,04,112,,16,07,333,*5F
$GBGSV,4,1,16,57,79,019,,60,10,109,,33,17,050,27,28,18,145,34*60
$GBGSV,4,2,16,09,19,090,,05,24,128,,39,23,062,26,16,22,073,30*61
$GBGSV,4,3,16,06,22,077,27,32,52,217,45,27,61,165,36,30,58,293,43*6F
$GBGSV,4,4,16,41,67,064,47,29,07,315,40,02,08,105,,13,07,071,*6B
$GPGGA,234617.00,,,,,0,00,,,M,,M,,*4D
$PTNL,GGK,234617.00,010125,4742.4460324,N,01617.9739028,E,1,19,1.3,EHT667.0821,M*40
$GPGGQ,234617.00,010125,4742.4460324,N,01617.9739028,E,1,19,1.960,623.8711,M*36
$GPGFA,234617.00,7.914,13.063,0.832,0.781,323.718,1.593,,VVV*3F
$GPLLK,234617.00,010125,,M,,M,1,19,1.6,,M*01
$GNGMP,234617.00,,,,,DAAA,19,0.8,,,,*53
$GPGMP,234617.00,,,,,,06,,,,2.5,123*79
$GLGMP,234617.00,,,,,,03,,,,,*79
$GAGMP,234617.00,,,,,,05,,,,,*72
$GBGMP,234617.00,,,,,,05,,,,,*71
$PSSN,SNC,[0,344795000,2347]*4C
$GPZDA,234622.00,01,01,2025,,*60
$GPDTM,W84,,00.0000000,N,00.0000000,E,00.0000000,W84*5F
$GPRMC,234622.00,A,4742.4460372,N,01617.9739019,E,0.0,,010125,5.1,E,D*16
$GPGLL,4742.4460372,N,01617.9739019,E,234622.00,A,D*67
$GPGGA,234622.00,4742.4460372,N,01617.9739019,E,2,19,0.7,623.8655,M,43.2110,M,2.8,0123*43
$GNGNS,234622.00,4742.4460372,N,01617.9739019,E,DAAA,19,0.7,623.8655,43.2110,,*55
$GPGNS,234622.00,,,,,,06,,,,2.8,123*72
$GLGNS,234622.00,,,,,,02,,,,,*7E
$GAGNS,234622.00,,,,,,05,,,,,*74
$GBGNS,234622.00,,,,,,06,,,,,*74
$GPLLQ,234622.00,010125,,M,,M,1,19,1.618,,M*14
$GPVTG,,T,,M,0.00,N,0.01,K,D*27
$GPHDT,,T*1B
$GPTHS,,V*0E
$GPROT,,V*08
$PSSN,HRP,234622.00,010125,,,,,,,00,0,,*62
$PTNL,AVR,234622.00,,Yaw,,Tilt,,,,0,,00*34
$GPGSA,A,3,02,03,08,17,21,32,,,,,,,1.2,0.7,0.9*32
$GPGSA,A,3,69,85,,,,,,,,,,,1.2,0.7,0.9*3D
$GPGSA,A,3,07,24,26,29,33,,,,,,,,1.2,0.7,0.9*31
$GPGSA,A,3,27,28,29,30,32,41,,,,,,,1.2,0.7,0.9*3C
$GPGST,234622.00,3.706,0.685,0.643,326.320,0.673,0.656,1.317*59
$GPGBS,234622.00,4.078,3.631,5.776,17,0.0001,-1.283,0.832*78
$GPGRS,234622.00,1,0.4,0.9,-0.1,-1.3,-0.8,0.7,,,,,,*61
$GPGRS,234622.00,1,0.6,1.1,,,,,,,,,,*4B
$GPGRS,234622.00,1,1.0,-0.2,1.1,1.5,-0.9,,,,,,,*6D
$GPGRS,234622.00,1,2.2,8.6,-5.7,-0.2,5.9,-3.0,,,,,,*61
$GPGSV,5,1,18,02,81,307,50,32,39,056,46,08,26,184,39,28,13,103,*75
$GPGSV,5,2,18,22,12,303,,17,24,315,45,03,45,256,46,01,76,311,*70
$GPGSV,5,3,18,21,76,120,38,14,10,282,28,27,01,165,,04,05,197,*72
$GPGSV,5,4,18,31,03,128,,10,10,066,,36,35,170,40,34,31,208,*75
$GPGSV,5,5,18,49,34,195,36,61,03,257,*76
$GLGSV,3,1,10,85,76,336,46,71,12,212,27,86,19,317,30,69,48,039,53*60
$GLGSV,3,2,10,84,44,128,30,70,60,208,33,78,01,036,,76,02,302,28*69
$GLGSV,3,3,10,68,01,034,,77,08,344,*67
$GAGSV,3,1,11,33,70,314,48,19,10,193,,31,12,259,31,12,15,297,26*67
$GAGSV,3,2,11,24,13,308,37,29,46,161,43,07,49,072,44,26,55,104,43*63
$GAGSV,3,3,11,08,09,035,24,13,04,112,,16,07,333,*5E
$GBGSV,4,1,16,57,79,019,,60,10,109,,33,17,050,27,28,18,145,36*62
$GBGSV,4,2,16,09,19,090,,05,24,128,,39,23,062,32,16,22,073,30*64
$GBGSV,4,3,16,06,22,077,24,32,52,217,44,27,61,165,38,30,58,293,43*63
$GBGSV,4,4,16,41,66,064,48,29,07,315,39,02,08,105,,13,07,071,*6B
$GPGGA,234622.00,,,,,0,00,,,M,,M,,*4B
$PTNL,GGK,234622.00,010125,4742.4460372,N,01617.9739019,E,1,19,1.2,EHT667.0766,M*4A
$GPGGQ,234622.00,010125,4742.4460372,N,01617.9739019,E,1,19,1.618,623.8655,M*30
$GPGFA,234622.00,6.515,10.800,0.685,0.643,326.320,1.317,,VVV*36
$GPLLK,234622.00,010125,,M,,M,1,19,1.4,,M*05
$GNGMP,234622.00,,,,,DAAA,19,0.7,,,,*5A
$GPGMP,234622.00,,,,,,06,,,,2.8,123*72
$GLGMP,234622.00,,,,,,02,,,,,*7E
$GAGMP,234622.00,,,,,,05,,,,,*74
$GBGMP,234622.00,,,,,,06,,,,,*74
$PSSN,SNC,[0,344800000,2347]*4F
$GPZDA,234627.00,01,01,2025,,*65
$GPDTM,W84,,00.0000000,N,00.0000000,E,00.0000000,W84*5F
$GPRMC,234627.00,A,4742.4460379,N,01617.9738990,E,0.0,,010125,5.1,E,D*11
$GPGLL,4742.4460379,N,01617.9738990,E,234627.00,A,D*60
$GPGGA,234627.00,4742.4460379,N,01617.9738990,E,2,19,0.8,623.8635,M,43.2110,M,2.8,0123*4D
$GNGNS,234627.00,4742.4460379,N,01617.9738990,E,DAAA,19,0.8,623.8635,43.2110,,*5B
$GPGNS,234627.00,,,,,,06,,,,2.8,123*77
$GLGNS,234627.00,,,,,,03,,,,,*7A
$GAGNS,234627.00,,,,,,05,,,,,*71
$GBGNS,234627.00,,,,,,05,,,,,*72
$GPLLQ,234627.00,010125,,M,,M,1,19,1.587,,M*14
$GPVTG,,T,,M,0.01,N,0.01,K,D*26
$GPHDT,,T*1B
$GPTHS,,V*0E
$GPROT,,V*08
$PSSN,HRP,234627.00,010125,,,,,,,00,0,,*67
$PTNL,AVR,234627.00,,Yaw,,Tilt,,,,0,,00*31
$GPGSA,A,3,02,03,08,17,21,32,,,,,,,1.3,0.8,1.1*35
$GPGSA,A,3,69,85,86,,,,,,,,,,1.3,0.8,1.1*34
$GPGSA,A,3,07,24,26,29,33,,,,,,,,1.3,0.8,1.1*36
$GPGSA,A,3,27,29,30,32,41,,,,,,,,1.3,0.8,1.1*31
$GPGST,234627.00,2.767,0.678,0.626,324.824,0.661,0.644,1.291*59
$GPGBS,234627.00,4.000,3.633,5.899,21,0.0001,-1.217,0.651*7D
$GPGRS,234627.00,1,0.2,0.9,0.0,-1.0,-1.2,0.7,,,,,,*46
$GPGRS,234627.00,1,0.5,1.5,-4.8,,,,,,,,,*46
$GPGRS,234627.00,1,0.7,-0.8,1.1,0.6,-1.0,,,,,,,*6E
$GPGRS,234627.00,1,2.0,-4.2,-0.3,5.4,-2.8,,,,,,,*47
$GPGSV,5,1,18,02,81,307,49,32,38,056,44,08,26,184,39,28,13,103,*7E
$GPGSV,5,2,18,22,12,303,,17,24,315,44,03,45,256,46,01,76,311,*71
$GPGSV,5,3,18,21,76,120,37,14,10,282,21,27,01,165,,04,05,197,*74
$GPGSV,5,4,18,31,03,128,,10,10,066,,36,35,170,40,34,31,208,*75
$GPGSV,5,5,18,49,34,195,37,61,03,257,*77
$GLGSV,3,1,10,85,76,336,46,71,12,212,30,86,20,317,41,69,48,039,53*6A
$GLGSV,3,2,10,84,44,128,28,70,60,208,33,78,01,036,,76,02,302,25*6D
$GLGSV,3,3,10,68,01,034,,77,08,344,31*65
$GAGSV,3,1,11,33,70,314,48,19,10,193,,31,12,259,29,12,15,297,26*6E
$GAGSV,3,2,11,24,13,308,38,29,46,161,42,07,49,072,44,26,55,104,44*6A
$GAGSV,3,3,11,08,09,035,24,13,04,112,,16,07,333,*5E
$GBGSV,4,1,16,57,79,019,,60,10,109,,33,17,050,22,28,18,145,34*65
$GBGSV,4,2,16,09,19,090,,05,24,128,,39,23,062,29,16,22,073,34*6A
$GBGSV,4,3,16,06,22,077,25,32,52,217,42,27,61,165,40,30,58,293,44*6C
$GBGSV,4,4,16,41,66,064,47,29,07,315,39,02,08,105,,13,07,071,*64
$GPGGA,234627.00,,,,,0,00,,,M,,M,,*4E
$PTNL,GGK,234627.00,010125,4742.4460379,N,01617.9738990,E,1,19,1.3,EHT667.0746,M*4E
$GPGGQ,234627.00,010125,4742.4460379,N,01617.9738990,E,1,19,1.587,623.8635,M*34
$GPGFA,234627.00,6.445,10.585,0.678,0.626,324.824,1.291,,VVV*34
$GPLLK,234627.00,010125,,M,,M,1,19,1.6,,M*02
$GNGMP,234627.00,,,,,DAAA,19,0.8,,,,*50
$GPGMP,234627.00,,,,,,06,,,,2.8,123*77
$GLGMP,234627.00,,,,,,03,,,,,*7A
$GAGMP,234627.00,,,,,,05,,,,,*71
$GBGMP,234627.00,,,,,,05,,,,,*72
$PSSN,SNC,[0,344805000,2347]*4A
$GPZDA,234632.00,01,01,2025,,*61
$GPDTM,W84,,00.0000000,N,00.0000000,E,00.0000000,W84*5F
$GPRMC,234632.00,A,4742.4460411,N,01617.9739038,E,0.0,,010125,5.1,E,D*16
$GPGLL,4742.4460411,N,01617.9739038,E,234632.00,A,D*67
$GPGGA,234632.00,4742.4460411,N,01617.9739038,E,2,20,0.7,623.8669,M,43.2110,M,2.5,0123*4B
$GNGNS,234632.00,4742.4460411,N,01617.9739038,E,DAAA,20,0.7,623.8669,43.2110,,*50
$GPGNS,234632.00,,,,,,06,,,,2.5,123*7E
$GLGNS,234632.00,,,,,,03,,,,,*7E
$GAGNS,234632.00,,,,,,05,,,,,*75
$GBGNS,234632.00,,,,,,06,,,,,*75
$GPLLQ,234632.00,010125,,M,,M,1,20,1.637,,M*12
$GPVTG,,T,,M,0.00,N,0.01,K,D*27
$GPHDT,,T*1B
$GPTHS,,V*0E
$GPROT,,V*08
$PSSN,HRP,234632.00,010125,,,,,,,00,0,,*63
$PTNL,AVR,234632.00,,Yaw,,Tilt,,,,0,,00*35
$GPGSA,A,3,02,03,08,17,21,32,,,,,,,1.2,0.7,0.9*32
