$GPZDA,164442.00,01,01,2025,,*62
$GPDTM,W84,,00.0000000,N,00.0000000,E,00.0000000,W84*5F
$GPRMC,164442.00,A,4742.4460799,N,01617.9724103,E,0.0,,010125,5.1,E,D*13
$GPGLL,4742.4460799,N,01617.9724103,E,164442.00,A,D*62
$GPGGA,164442.00,4742.4460799,N,01617.9724103,E,2,19,0.8,627.2804,M,43.2111,M,1.8,0123*4F
$GNGNS,164442.00,4742.4460799,N,01617.9724103,E,DAAA,19,0.8,627.2804,43.2111,,*5A
$GPGNS,164442.00,,,,,,04,,,,1.8,123*71
$GLGNS,164442.00,,,,,,04,,,,,*7A
$GAGNS,164442.00,,,,,,04,,,,,*77
$GBGNS,164442.00,,,,,,07,,,,,*77
$GPLLQ,164442.00,010125,,M,,M,1,19,8.769,,M*18
$GPVTG,,T,,M,0.00,N,0.00,K,D*26
$GPHDT,,T*1B
$GPTHS,,V*0E
$GPROT,,V*08
$PSSN,HRP,164442.00,010125,,,,,,,00,0,,*60
$PTNL,AVR,164442.00,,Yaw,,Tilt,,,,0,,00*36
$GPGSA,A,3,18,26,28,29,,,,,,,,,1.6,0.8,1.4*34
$GPGSA,A,3,79,80,81,82,,,,,,,,,1.6,0.8,1.4*3D
$GPGSA,A,3,15,21,27,34,,,,,,,,,1.6,0.8,1.4*3D
$GPGSA,A,3,08,11,13,25,34,37,43,,,,,,1.6,0.8,1.4*31
$GPGST,164442.00,2.675,2.281,1.185,83.327,1.207,2.269,8.384*65
$GPGBS,164442.00,5.433,8.185,29.565,28,0.0001,-2.276,0.898*48
$GPGRS,164442.00,1,1.3,1.6,-2.3,-0.8,,,,,,,,*43
$GPGRS,164442.00,1,0.3,-2.6,0.9,1.4,,,,,,,,*69
$GPGRS,164442.00,1,0.2,-1.9,0.1,1.6,,,,,,,,*6E
$GPGRS,164442.00,1,-1.3,2.8,-0.2,-3.6,-0.3,-5.8,1.7,,,,,*4B
$GPGSV,4,1,15,29,64,058,50,16,17,303,34,20,17,042,32,25,35,132,33*7D
$GPGSV,4,2,15,05,27,077,,28,37,226,41,26,47,300,42,18,55,184,45*71
$GPGSV,4,3,15,31,44,262,33,04,03,320,38,09,00,345,,36,35,170,39*77
$GPGSV,4,4,15,34,31,208,34,49,34,195,36,61,03,257,*43
$GLGSV,3,1,10,81,79,016,51,78,17,151,30,88,24,042,32,80,49,319,52*65
$GLGSV,3,2,10,82,46,229,46,79,70,168,52,65,04,065,,71,01,329,29*67
$GLGSV,3,3,10,83,05,223,,72,09,013,*67
$GAGSV,2,1,08,27,83,134,47,34,31,046,39,30,29,125,29,13,33,196,30*6F
$GAGSV,2,2,08,21,40,303,40,15,70,116,38,04,04,333,22,19,04,280,*68
$GBGSV,5,1,20,11,90,167,48,13,38,078,37,60,10,109,,38,30,052,34*6D
$GBGSV,5,2,20,37,16,317,39,05,21,129,,12,33,056,34,25,46,179,42*65
$GBGSV,5,3,20,08,37,067,44,23,59,278,25,34,63,060,50,43,65,238,50*6C
$GBGSV,5,4,20,28,04,237,,24,01,152,,02,06,107,,10,03,090,*68
$GBGSV,5,5,20,21,01,094,,44,10,059,20,56,08,074,,22,06,047,*64
$GPGGA,164442.00,,,,,0,00,,,M,,M,,*49
$PTNL,GGK,164442.00,010125,4742.4460799,N,01617.9724103,E,1,19,1.6,EHT670.4915,M*43
$GPGGQ,164442.00,010125,4742.4460799,N,01617.9724103,E,1,19,8.769,627.2804,M*3F
$GPGFA,164442.00,21.684,68.748,2.281,1.185,83.327,8.384,,VVV*30
$GPLLK,164442.00,010125,,M,,M,1,19,1.9,,M*0A
$GNGMP,164442.00,,,,,DAAA,19,0.8,,,,*57
$GPGMP,164442.00,,,,,,04,,,,1.8,123*71
$GLGMP,164442.00,,,,,,04,,,,,*7A
$GAGMP,164442.00,,,,,,04,,,,,*77
$GBGMP,164442.00,,,,,,07,,,,,*77
$PSSN,SNC,[0,319500000,2347]*4A
$GPZDA,164447.00,01,01,2025,,*67
$GPDTM,W84,,00.0000000,N,00.0000000,E,00.0000000,W84*5F
$GPRMC,164447.00,A,4742.4460764,N,01617.9724113,E,0.0,,010125,5.1,E,D*15
$GPGLL,4742.4460764,N,01617.9724113,E,164447.00,A,D*64
$GPGGA,164447.00,4742.4460764,N,01617.9724113,E,2,20,0.8,627.2620,M,43.2111,M,2.6,0123*46
$GNGNS,164447.00,4742.4460764,N,01617.9724113,E,DAAA,20,0.8,627.2620,43.2111,,*5E
$GPGNS,164447.00,,,,,,05,,,,2.6,123*78
$GLGNS,164447.00,,,,,,04,,,,,*7F
$GAGNS,164447.00,,,,,,04,,,,,*72
$GBGNS,164447.00,,,,,,07,,,,,*72
$GPLLQ,164447.00,010125,,M,,M,1,20,8.684,,M*15
$GPVTG,,T,,M,0.00,N,0.01,K,D*27
$GPHDT,,T*1B
$GPTHS,,V*0E
$GPROT,,V*08
$PSSN,HRP,164447.00,010125,,,,,,,00,0,,*65
$PTNL,AVR,164447.00,,Yaw,,Tilt,,,,0,,00*33
$GPGSA,A,3,18,26,28,29,31,,,,,,,,1.6,0.8,1.4*36
$GPGSA,A,3,79,80,81,82,,,,,,,,,1.6,0.8,1.4*3D
$GPGSA,A,3,15,21,27,34,,,,,,,,,1.6,0.8,1.4*3D
$GPGSA,A,3,08,11,13,25,34,37,43,,,,,,1.6,0.8,1.4*31
$GPGST,164447.00,2.566,2.071,1.211,79.628,1.248,2.049,8.346*68
$GPGBS,164447.00,5.522,6.538,29.190,26,0.0001,2.056,0.914*68
$GPGRS,164447.00,1,1.2,2.1,-2.0,-0.7,-0.9,,,,,,,*45
$GPGRS,164447.00,1,0.8,-2.3,1.6,1.2,,,,,,,,*6A
$GPGRS,164447.00,1,0.2,-2.0,0.2,1.6,,,,,,,,*62
$GPGRS,164447.00,1,-0.9,3.5,-0.8,-4.4,-0.5,-4.7,1.7,,,,,*4E
$GPGSV,4,1,15,29,64,058,50,16,17,303,33,20,17,042,34,25,35,132,34*7B
$GPGSV,4,2,15,05,27,077,28,28,37,226,41,26,47,300,41,18,55,184,45*78
$GPGSV,4,3,15,31,44,262,37,04,03,320,36,09,00,345,,36,35,170,39*7D
$GPGSV,4,4,15,34,31,208,34,49,34,195,36,61,03,257,*43
$GLGSV,3,1,10,81,79,016,51,78,17,151,28,88,24,042,33,80,49,319,53*6C
$GLGSV,3,2,10,82,46,229,48,79,70,168,53,65,04,065,,71,01,329,28*69
$GLGSV,3,3,10,83,05,223,,72,09,013,29*6C
$GAGSV,2,1,08,27,83,134,47,34,31,046,40,30,29,125,40,13,33,196,32*6C
$GAGSV,2,2,08,21,40,303,41,15,70,116,40,04,04,333,24,19,04,280,*60
$GBGSV,5,1,20,11,90,162,48,08,37,067,44,60,10,109,,37,16,317,41*6C
$GBGSV,5,2,20,38,30,052,33,05,21,129,,12,33,056,34,25,46,179,42*66
$GBGSV,5,3,20,13,38,078,36,23,59,278,29,34,63,060,50,43,65,238,50*6E
$GBGSV,5,4,20,28,04,237,,24,01,152,,10,03,090,,02,06,107,*68
$GBGSV,5,5,20,21,01,094,,44,10,059,20,56,08,074,,22,06,047,*64
$GPGGA,164447.00,,,,,0,00,,,M,,M,,*4C
$PTNL,GGK,164447.00,010125,4742.4460764,N,01617.9724113,E,1,20,1.6,EHT670.4731,M*47
$GPGGQ,164447.00,010125,4742.4460764,N,01617.9724113,E,1,20,8.684,627.2620,M*39
$GPGFA,164447.00,19.692,68.440,2.071,1.211,79.628,8.346,,VVV*30
$GPLLK,164447.00,010125,,M,,M,1,20,1.9,,M*05
$GNGMP,164447.00,,,,,DAAA,20,0.8,,,,*58
$GPGMP,164447.00,,,,,,05,,,,2.6,123*78
$GLGMP,164447.00,,,,,,04,,,,,*7F
$GAGMP,164447.00,,,,,,04,,,,,*72
$GBGMP,164447.00,,,,,,07,,,,,*72
$PSSN,SNC,[0,319505000,2347]*4F
$GPZDA,164452.00,01,01,2025,,*63
$GPDTM,W84,,00.0000000,N,00.0000000,E,00.0000000,W84*5F
$GPRMC,164452.00,A,4742.4460732,N,01617.9724144,E,0.0,,010125,5.1,E,D*10
$GPGLL,4742.4460732,N,01617.9724144,E,164452.00,A,D*61
$GPGGA,164452.00,4742.4460732,N,01617.9724144,E,2,20,0.8,627.2508,M,43.2111,M,3.6,0123*4B
$GNGNS,164452.00,4742.4460732,N,01617.9724144,E,DAAA,20,0.8,627.2508,43.2111,,*52
$GPGNS,164452.00,,,,,,05,,,,3.6,123*7D
$GLGNS,164452.00,,,,,,04,,,,,*7B
$GAGNS,164452.00,,,,,,04,,,,,*76
$GBGNS,164452.00,,,,,,07,,,,,*76
$GPLLQ,164452.00,010125,,M,,M,1,20,8.426,,M*1B
$GPVTG,,T,,M,0.01,N,0.01,K,D*26
$GPHDT,,T*1B
$GPTHS,,V*0E
$GPROT,,V*08
$PSSN,HRP,164452.00,010125,,,,,,,00,0,,*61
$PTNL,AVR,164452.00,,Yaw,,Tilt,,,,0,,00*37
$GPGSA,A,3,18,26,28,29,31,,,,,,,,1.6,0.8,1.4*36
$GPGSA,A,3,79,80,81,82,,,,,,,,,1.6,0.8,1.4*3D
$GPGSA,A,3,15,21,27,34,,,,,,,,,1.6,0.8,1.4*3D
$GPGSA,A,3,08,11,23,25,34,37,43,,,,,,1.6,0.8,1.4*32
$GPGST,164452.00,2.425,2.018,1.178,79.565,1.215,1.996,8.095*6E
$GPGBS,164452.00,5.603,6.728,29.523,26,0.0001,2.101,0.928*6F
$GPGRS,164452.00,1,1.1,2.1,-1.8,-0.7,-0.9,,,,,,,*49
$GPGRS,164452.00,1,0.6,-2.6,1.7,1.1,,,,,,,,*67
$GPGRS,164452.00,1,-0.2,-2.4,-0.1,1.9,,,,,,,,*6E
$GPGRS,164452.00,1,-0.6,3.1,-0.1,-4.8,-1.0,-2.8,2.1,,,,,*4C
$GPGSV,4,1,15,29,64,058,50,16,17,303,31,20,17,042,35,25,35,132,34*78
$GPGSV,4,2,15,05,27,077,25,28,37,226,41,26,47,300,41,18,55,184,46*76
$GPGSV,4,3,15,31,44,262,38,04,03,319,33,09,00,345,,36,35,170,39*7D
$GPGSV,4,4,15,34,31,208,34,49,34,195,37,61,03,257,*42
$GLGSV,3,1,10,81,79,016,51,78,17,151,25,88,24,042,35,80,49,319,53*67
$GLGSV,3,2,10,82,46,229,49,79,70,168,53,65,04,065,,71,01,329,29*69
$GLGSV,3,3,10,83,06,223,,72,09,013,*64
$GAGSV,2,1,08,27,83,134,46,34,31,046,39,30,29,125,32,13,33,196,34*60
$GAGSV,2,2,08,21,40,303,41,15,70,116,41,04,04,333,27,19,04,280,*62
$GBGSV,5,1,20,11,90,158,49,08,37,067,45,60,10,109,,37,16,317,42*66
$GBGSV,5,2,20,38,30,052,33,05,21,129,,12,33,056,34,25,46,179,42*66
$GBGSV,5,3,20,13,38,078,34,23,59,278,26,34,63,060,50,43,65,238,50*63
$GBGSV,5,4,20,28,04,237,,24,01,152,,10,03,091,,02,06,107,*69
$GBGSV,5,5,20,21,02,094,,44,10,059,21,56,08,074,,22,06,047,*66
$GPGGA,164452.00,,,,,0,00,,,M,,M,,*48
$PTNL,GGK,164452.00,010125,4742.4460732,N,01617.9724144,E,1,20,1.6,EHT670.4619,M*49
$GPGGQ,164452.00,010125,4742.4460732,N,01617.9724144,E,1,20,8.426,627.2508,M*3F
$GPGFA,164452.00,19.183,66.382,2.018,1.178,79.565,8.095,,VVV*30
$GPLLK,164452.00,010125,,M,,M,1,20,2.0,,M*0B
$GNGMP,164452.00,,,,,DAAA,20,0.8,,,,*5C
$GPGMP,164452.00,,,,,,05,,,,3.6,123*7D
$GLGMP,164452.00,,,,,,04,,,,,*7B
$GAGMP,164452.00,,,,,,04,,,,,*76
$GBGMP,164452.00,,,,,,07,,,,,*76
$PSSN,SNC,[0,319510000,2347]*4B
$GPZDA,164457.00,01,01,2025,,*66
$GPDTM,W84,,00.0000000,N,00.0000000,E,00.0000000,W84*5F
$GPRMC,164457.00,A,4742.4460690,N,01617.9724137,E,0.0,,010125,5.1,E,D*18
$GPGLL,4742.4460690,N,01617.9724137,E,164457.00,A,D*69
$GPGGA,164457.00,4742.4460690,N,01617.9724137,E,2,22,0.7,627.2328,M,43.2111,M,2.0,0123*4D
$GNGNS,164457.00,4742.4460690,N,01617.9724137,E,DAAA,22,0.7,627.2328,43.2111,,*53
$GPGNS,164457.00,,,,,,06,,,,2.0,123*7C
$GLGNS,164457.00,,,,,,04,,,,,*7E
$GAGNS,164457.00,,,,,,05,,,,,*72
$GBGNS,164457.00,,,,,,07,,,,,*73
$GPLLQ,164457.00,010125,,M,,M,1,22,6.709,,M*1C
$GPVTG,,T,,M,0.00,N,0.01,K,D*27
$GPHDT,,T*1B
$GPTHS,,V*0E
$GPROT,,V*08
$PSSN,HRP,164457.00,010125,,,,,,,00,0,,*64
$PTNL,AVR,164457.00,,Yaw,,Tilt,,,,0,,00*32
$GPGSA,A,3,18,25,26,28,29,31,,,,,,,1.4,0.7,1.2*3A
$GPGSA,A,3,79,80,81,82,,,,,,,,,1.4,0.7,1.2*36
$GPGSA,A,3,13,15,21,27,34,,,,,,,,1.4,0.7,1.2*34
$GPGSA,A,3,08,11,23,25,34,37,43,,,,,,1.4,0.7,1.2*39
$GPGST,164457.00,5.312,1.664,1.371,50.999,1.494,1.555,6.353*65
$GPGBS,164457.00,5.306,3.895,15.344,13,0.0001,18.866,6.189*5E
$GPGRS,164457.00,1,0.9,0.0,2.5,-1.5,-0.6,-2.1,,,,,,*69
$GPGRS,164457.00,1,0.3,-2.9,1.6,0.7,,,,,,,,*6E
$GPGRS,164457.00,1,18.9,-0.3,-2.0,-0.4,1.9,,,,,,,*75
$GPGRS,164457.00,1,-0.3,3.1,-0.8,-3.8,-1.3,-1.0,2.6,,,,,*4D
$GPGSV,4,1,15,29,64,058,50,16,17,303,32,20,17,042,33,25,35,132,35*7C
$GPGSV,4,2,15,05,27,077,25,28,37,226,42,26,47,300,42,18,55,184,47*77
$GPGSV,4,3,15,31,44,262,37,04,03,319,34,09,00,345,,36,35,170,39*75
$GPGSV,4,4,15,34,31,208,35,49,34,195,36,61,03,257,*42
$GLGSV,3,1,10,81,79,016,51,78,17,151,34,88,24,042,35,80,49,319,53*67
$GLGSV,3,2,10,82,46,229,49,79,70,168,52,65,04,065,,71,01,329,30*60
$GLGSV,3,3,10,83,06,223,,72,09,013,*64
$GAGSV,2,1,08,27,83,134,45,34,31,046,39,30,29,125,33,13,33,196,35*63
$GAGSV,2,2,08,21,40,303,40,15,70,116,42,04,04,333,28,19,04,280,28*65
$GBGSV,5,1,20,11,90,155,49,08,37,067,45,60,10,109,,38,30,052,33*64
$GBGSV,5,2,20,37,16,317,42,05,21,129,,12,33,056,34,25,46,179,42*69
$GBGSV,5,3,20,13,38,078,33,23,59,278,42,34,63,060,49,43,65,238,50*6E
$GBGSV,5,4,20,28,04,237,,24,01,152,,02,06,107,,10,03,091,*69
$GBGSV,5,5,20,21,02,094,,44,10,059,20,56,08,074,,22,06,047,*67
$GPGGA,164457.00,,,,,0,00,,,M,,M,,*4D
$PTNL,GGK,164457.00,010125,4742.4460690,N,01617.9724137,E,1,22,1.4,EHT670.4439,M*41
$GPGGQ,164457.00,010125,4742.4460690,N,01617.9724137,E,1,22,6.709,627.2328,M*31
$GPGFA,164457.00,15.822,52.095,1.664,1.371,50.999,6.353,,VVV*3F
$GPLLK,164457.00,010125,,M,,M,1,22,1.7,,M*08
$GNGMP,164457.00,,,,,DAAA,22,0.7,,,,*54
$GPGMP,164457.00,,,,,,06,,,,2.0,123*7C
$GLGMP,164457.00,,,,,,04,,,,,*7E
$GAGMP,164457.00,,,,,,05,,,,,*72
$GBGMP,164457.00,,,,,,07,,,,,*73
$PSSN,SNC,[0,319515000,2347]*4E
$GPZDA,164502.00,01,01,2025,,*67
$GPDTM,W84,,00.0000000,N,00.0000000,E,00.0000000,W84*5F
$GPRMC,164502.00,A,4742.4460673,N,01617.9724056,E,0.0,,010125,5.1,E,D*12
$GPGLL,4742.4460673,N,01617.9724056,E,164502.00,A,D*63
$GPGGA,164502.00,4742.4460673,N,01617.9724056,E,2,23,0.7,627.2358,M,43.2111,M,1.7,0123*45
$GNGNS,164502.00,4742.4460673,N,01617.9724056,E,DAAA,23,0.7,627.2358,43.2111,,*5F
$GPGNS,164502.00,,,,,,06,,,,1.7,123*79
$GLGNS,164502.00,,,,,,04,,,,,*7F
$GAGNS,164502.00,,,,,,05,,,,,*73
$GBGNS,164502.00,,,,,,08,,,,,*7D
$GPLLQ,164502.00,010125,,M,,M,1,23,5.093,,M*1B
$GPVTG,,T,,M,0.01,N,0.02,K,D*25
$GPHDT,,T*1B
$GPTHS,,V*0E
$GPROT,,V*08
$PSSN,HRP,164502.00,010125,,,,,,,00,0,,*65
$PTNL,AVR,164502.00,,Yaw,,Tilt,,,,0,,00*33
$GPGSA,A,3,18,25,26,28,29,31,,,,,,,1.3,0.7,1.2*3D
$GPGSA,A,3,79,80,81,82,,,,,,,,,1.3,0.7,1.2*31
$GPGSA,A,3,13,15,21,27,34,,,,,,,,1.3,0.7,1.2*33
$GPGSA,A,3,08,11,12,23,25,34,37,43,,,,,1.3,0.7,1.2*3D
$GPGST,164502.00,4.198,1.526,1.016,17.577,1.487,1.072,4.751*6B
$GPGBS,164502.00,5.341,3.823,15.048,26,0.0001,2.871,0.902*68
$GPGRS,164502.00,1,0.6,0.4,2.9,-1.0,-0.6,-2.7,,,,,,*6C
$GPGRS,164502.00,1,0.2,-2.9,1.4,0.4,,,,,,,,*6F
$GPGRS,164502.00,1,14.2,-0.5,-2.0,-0.5,2.0,,,,,,,*7E
$GPGRS,164502.00,1,0.1,3.4,-3.5,-1.2,-1.6,-1.4,-1.7,3.1,,,,*62
$GPGSV,4,1,15,29,64,058,50,16,17,303,33,20,17,042,29,25,35,132,36*75
$GPGSV,4,2,15,05,27,077,28,28,37,226,43,26,47,300,43,18,55,184,48*75
$GPGSV,4,3,15,31,44,262,39,04,03,319,32,09,00,345,,36,35,170,38*7C
$GPGSV,4,4,15,34,31,208,34,49,34,195,36,61,03,257,*43
$GLGSV,3,1,10,81,79,016,50,78,17,151,34,88,24,042,35,80,49,319,53*66
$GLGSV,3,2,10,82,46,229,49,79,69,168,52,65,04,065,,71,01,329,31*69
$GLGSV,3,3,10,83,06,223,,72,09,013,*64
$GAGSV,2,1,08,27,83,134,45,34,31,046,39,30,29,125,34,13,33,196,36*67
$GAGSV,2,2,08,21,40,303,40,15,70,116,43,04,04,333,27,19,04,280,27*64
$GBGSV,5,1,20,11,90,150,49,38,30,052,32,60,10,109,,37,16,317,42*6C
$GBGSV,5,2,20,12,33,056,35,05,21,129,,08,37,067,45,25,46,179,42*64
$GBGSV,5,3,20,13,38,078,31,23,59,278,42,34,63,060,48,43,65,238,50*6D
$GBGSV,5,4,20,28,04,237,,24,01,152,,10,03,091,,02,06,107,*69
$GBGSV,5,5,20,21,02,094,,44,10,059,21,56,08,074,,22,06,047,*66
$GPGGA,164502.00,,,,,0,00,,,M,,M,,*4C
$PTNL,GGK,164502.00,010125,4742.4460673,N,01617.9724056,E,1,23,1.3,EHT670.4468,M*49
$GPGGQ,164502.00,010125,4742.4460673,N,01617.9724056,E,1,23,5.093,627.2358,M*3A
$GPGFA,164502.00,14.506,38.962,1.526,1.016,17.577,4.751,,VVV*35
$GPLLK,164502.00,010125,,M,,M,1,23,1.6,,M*09
$GNGMP,164502.00,,,,,DAAA,23,0.7,,,,*54
$GPGMP,164502.00,,,,,,06,,,,1.7,123*79
$GLGMP,164502.00,,,,,,04,,,,,*7F
$GAGMP,164502.00,,,,,,05,,,,,*73
$GBGMP,164502.00,,,,,,08,,,,,*7D
$PSSN,SNC,[0,319520000,2347]*48
$GPZDA,164507.00,01,01,2025,,*62
$GPDTM,W84,,00.0000000,N,00.0000000,E,00.0000000,W84*5F
$GPRMC,164507.00,A,4742.4460611,N,01617.9724033,E,0.0,,010125,5.1,E,D*10
$GPGLL,4742.4460611,N,01617.9724033,E,164507.00,A,D*61
$GPGGA,164507.00,4742.4460611,N,01617.9724033,E,2,24,0.7,627.2312,M,43.2111,M,2.7,0123*4D
$GNGNS,164507.00,4742.4460611,N,01617.9724033,E,DAAA,24,0.7,627.2312,43.2111,,*54
$GPGNS,164507.00,,,,,,07,,,,2.7,123*7E
$GLGNS,164507.00,,,,,,04,,,,,*7A
$GAGNS,164507.00,,,,,,05,,,,,*76
$GBGNS,164507.00,,,,,,08,,,,,*78
$GPLLQ,164507.00,010125,,M,,M,1,24,3.171,,M*12
$GPVTG,,T,,M,0.01,N,0.02,K,D*25
$GPHDT,,T*1B
$GPTHS,,V*0E
$GPROT,,V*08
$PSSN,HRP,164507.00,010125,,,,,,,00,0,,*60
$PTNL,AVR,164507.00,,Yaw,,Tilt,,,,0,,00*36
$GPGSA,A,3,16,18,25,26,28,29,31,,,,,,1.3,0.7,1.1*39
$GPGSA,A,3,79,80,81,82,,,,,,,,,1.3,0.7,1.1*32
$GPGSA,A,3,13,15,21,27,34,,,,,,,,1.3,0.7,1.1*30
$GPGSA,A,3,08,11,12,23,25,34,37,43,,,,,1.3,0.7,1.1*3E
$GPGST,164507.00,2.276,1.078,0.778,26.393,1.026,0.846,2.878*66
$GPGBS,164507.00,3.547,3.682,11.085,26,0.0001,2.928,0.915*60
$GPGRS,164507.00,1,-3.1,-0.2,1.1,2.9,-0.5,-0.6,-0.6,,,,,*42
$GPGRS,164507.00,1,0.5,-3.2,0.5,-0.6,,,,,,,,*48
$GPGRS,164507.00,1,-2.4,-0.7,-2.1,-0.6,3.1,,,,,,,*67
$GPGRS,164507.00,1,-0.1,3.4,-1.7,-1.8,0.5,-1.5,-2.8,2.9,,,,*6B
$GPGSV,4,1,15,29,64,058,50,16,17,303,36,20,17,042,26,25,35,132,38*71
$GPGSV,4,2,15,05,27,077,27,28,37,226,44,26,47,300,43,18,55,184,48*7D
$GPGSV,4,3,15,31,44,262,41,04,03,319,32,09,00,344,,36,35,170,38*72
$GPGSV,4,4,15,34,31,208,34,49,34,195,36,61,03,257,*43
$GLGSV,3,1,10,81,79,016,50,78,17,151,29,88,24,042,32,80,49,319,53*6D
$GLGSV,3,2,10,82,46,229,49,79,69,168,52,65,04,065,,71,01,329,30*68
$GLGSV,3,3,10,83,06,223,,72,09,013,*64
$GAGSV,2,1,08,27,83,134,44,34,31,046,38,30,29,125,34,13,33,196,41*67
$GAGSV,2,2,08,21,40,303,39,15,70,116,43,04,04,333,27,19,04,280,25*68
$GBGSV,5,1,20,11,90,144,49,38,30,052,33,60,10,109,,37,16,317,42*68
$GBGSV,5,2,20,12,33,056,37,05,21,129,,08,37,067,45,25,46,179,42*66
$GBGSV,5,3,20,13,38,078,30,23,59,278,42,34,63,060,48,43,65,238,51*6D
$GBGSV,5,4,20,28,04,237,,24,01,152,,10,03,091,,02,06,107,*69
$GBGSV,5,5,20,21,02,094,,44,10,059,,56,08,074,,22,06,047,*65
$GPGGA,164507.00,,,,,0,00,,,M,,M,,*49
$PTNL,GGK,164507.00,010125,4742.4460611,N,01617.9724033,E,1,24,1.3,EHT670.4423,M*43
$GPGGQ,164507.00,010125,4742.4460611,N,01617.9724033,E,1,24,3.171,627.2312,M*3A
$GPGFA,164507.00,10.247,23.603,1.078,0.778,26.393,2.878,,VVV*38
$GPLLK,164507.00,010125,,M,,M,1,24,1.5,,M*08
$GNGMP,164507.00,,,,,DAAA,24,0.7,,,,*56
$GPGMP,164507.00,,,,,,07,,,,2.7,123*7E
$GLGMP,164507.00,,,,,,04,,,,,*7A
$GAGMP,164507.00,,,,,,05,,,,,*76
$GBGMP,164507.00,,,,,,08,,,,,*78
$PSSN,SNC,[0,319525000,2347]*4D
$GPZDA,164512.00,01,01,2025,,*66
$GPDTM,W84,,00.0000000,N,00.0000000,E,00.0000000,W84*5F
$GPRMC,164512.00,A,4742.4460631,N,01617.9723966,E,0.0,,010125,5.1,E,D*18
$GPGLL,4742.4460631,N,01617.9723966,E,164512.00,A,D*69
$GPGGA,164512.00,4742.4460631,N,01617.9723966,E,2,24,0.7,627.2632,M,43.2111,M,3.7,0123*43
$GNGNS,164512.00,4742.4460631,N,01617.9723966,E,DAAA,24,0.7,627.2632,43.2111,,*5B
$GPGNS,164512.00,,,,,,07,,,,3.7,123*7B
$GLGNS,164512.00,,,,,,04,,,,,*7E
$GAGNS,164512.00,,,,,,05,,,,,*72
$GBGNS,164512.00,,,,,,08,,,,,*7C
$GPLLQ,164512.00,010125,,M,,M,1,24,2.509,,M*1C
$GPVTG,,T,,M,0.00,N,0.01,K,D*27
$GPHDT,,T*1B
$GPTHS,,V*0E
$GPROT,,V*08
$PSSN,HRP,164512.00,010125,,,,,,,00,0,,*64
$PTNL,AVR,164512.00,,Yaw,,Tilt,,,,0,,00*32
$GPGSA,A,3,16,18,25,26,28,29,31,,,,,,1.3,0.7,1.1*39
$GPGSA,A,3,79,80,81,82,,,,,,,,,1.3,0.7,1.1*32
$GPGSA,A,3,13,15,21,27,34,,,,,,,,1.3,0.7,1.1*30
$GPGSA,A,3,08,11,12,23,25,34,37,43,,,,,1.3,0.7,1.1*3E
$GPGST,164512.00,2.241,0.861,0.616,26.467,0.818,0.672,2.274*69
$GPGBS,164512.00,3.563,3.725,11.190,25,0.0001,1.580,0.842*66
$GPGRS,164512.00,1,-0.4,-0.9,1.6,1.4,-0.3,-0.9,-0.1,,,,,*4C
$GPGRS,164512.00,1,0.2,-3.6,0.7,-1.3,,,,,,,,*49
$GPGRS,164512.00,1,-3.0,-1.6,-1.9,-1.3,4.2,,,,,,,*6D
$GPGRS,164512.00,1,-0.5,2.5,-0.5,-2.6,2.0,-1.6,-2.2,2.2,,,,*60
$GPGSV,4,1,15,29,64,058,51,16,17,303,39,20,17,042,23,25,35,132,38*7A
$GPGSV,4,2,15,05,27,077,24,28,37,226,44,26,47,300,42,18,55,184,48*7F
$GPGSV,4,3,15,31,44,262,43,04,03,319,34,09,00,344,,36,35,170,38*76
$GPGSV,4,4,15,34,31,208,34,49,34,195,36,61,03,257,*43
$GLGSV,3,1,10,81,79,016,50,78,17,151,31,88,24,042,30,80,49,319,53*66
$GLGSV,3,2,10,82,46,229,48,79,69,168,51,65,04,065,,71,01,329,*69
$GLGSV,3,3,10,83,06,223,,72,09,013,*64
$GAGSV,2,1,08,27,83,134,44,34,31,046,38,30,29,125,34,13,33,196,36*67
$GAGSV,2,2,08,21,40,303,38,15,70,116,43,04,04,333,27,19,04,280,24*68
$GBGSV,5,1,20,11,90,141,49,38,30,052,33,60,10,109,,37,16,317,42*6D
$GBGSV,5,2,20,12,33,056,38,05,21,129,,08,37,067,45,25,46,179,44*6F
$GBGSV,5,3,20,13,38,078,30,23,59,278,41,34,63,060,47,43,65,238,51*61
$GBGSV,5,4,20,28,04,237,,24,01,152,,10,03,091,,02,06,107,*69
$GBGSV,5,5,20,21,02,094,,44,10,059,,56,08,074,,22,06,047,*65
$GPGGA,164512.00,,,,,0,00,,,M,,M,,*4D
$PTNL,GGK,164512.00,010125,4742.4460631,N,01617.9723966,E,1,24,1.3,EHT670.4743,M*4E
$GPGGQ,164512.00,010125,4742.4460631,N,01617.9723966,E,1,24,2.509,627.2632,M*3F
$GPGFA,164512.00,8.182,18.650,0.861,0.616,26.467,2.274,,VVV*03
$GPLLK,164512.00,010125,,M,,M,1,24,1.5,,M*0C
$GNGMP,164512.00,,,,,DAAA,24,0.7,,,,*52
$GPGMP,164512.00,,,,,,07,,,,3.7,123*7B
$GLGMP,164512.00,,,,,,04,,,,,*7E
$GAGMP,164512.00,,,,,,05,,,,,*72
$GBGMP,164512.00,,,,,,08,,,,,*7C
$PSSN,SNC,[0,319530000,2347]*49
$GPZDA,164517.00,01,01,2025,,*63
$GPDTM,W84,,00.0000000,N,00.0000000,E,00.0000000,W84*5F
$GPRMC,164517.00,A,4742.4460584,N,01617.9723846,E,0.0,,010125,5.1,E,D*13
$GPGLL,4742.4460584,N,01617.9723846,E,164517.00,A,D*62
$GPGGA,164517.00,4742.4460584,N,01617.9723846,E,2,23,0.7,627.2902,M,43.2111,M,1.9,0123*4F
$GNGNS,164517.00,4742.4460584,N,01617.9723846,E,DAAA,23,0.7,627.2902,43.2111,,*5B
$GPGNS,164517.00,,,,,,07,,,,1.9,123*72
$GLGNS,164517.00,,,,,,04,,,,,*7B
$GAGNS,164517.00,,,,,,04,,,,,*76
$GBGNS,164517.00,,,,,,08,,,,,*79
$GPLLQ,164517.00,010125,,M,,M,1,23,3.495,,M*1B
$GPVTG,,T,,M,0.01,N,0.01,K,D*26
$GPHDT,,T*1B
$GPTHS,,V*0E
$GPROT,,V*08
$PSSN,HRP,164517.00,010125,,,,,,,00,0,,*61
$PTNL,AVR,164517.00,,Yaw,,Tilt,,,,0,,00*37
$GPGSA,A,3,16,18,25,26,28,29,31,,,,,,1.3,0.7,1.1*39
$GPGSA,A,3,79,80,81,82,,,,,,,,,1.3,0.7,1.1*32
$GPGSA,A,3,15,21,27,34,,,,,,,,,1.3,0.7,1.1*32
$GPGSA,A,3,08,11,12,23,25,34,37,43,,,,,1.3,0.7,1.1*3E
$GPGST,164517.00,2.532,1.208,0.857,26.677,1.146,0.938,3.166*60
$GPGBS,164517.00,3.479,3.637,10.746,28,0.0001,-3.166,0.895*43
$GPGRS,164517.00,1,-0.3,-0.1,1.9,0.5,-3.2,-0.4,0.3,,,,,*69
$GPGRS,164517.00,1,0.4,-2.7,1.9,-1.1,,,,,,,,*47
$GPGRS,164517.00,1,-0.9,-1.2,-0.9,6.5,,,,,,,,*63
$GPGRS,164517.00,1,-0.0,2.8,1.0,-2.1,3.4,-1.1,-0.9,2.2,,,,*48
$GPGSV,4,1,15,29,64,058,51,16,17,303,39,20,17,042,25,25,35,132,38*7C
$GPGSV,4,2,15,05,27,077,34,28,37,226,42,26,47,300,39,18,55,184,48*74
$GPGSV,4,3,15,31,44,262,45,04,03,319,34,09,00,344,,36,35,170,38*70
$GPGSV,4,4,15,34,31,208,34,49,34,195,36,61,03,257,*43
$GLGSV,3,1,10,81,79,016,50,78,17,151,29,88,24,042,34,80,49,319,53*6B
$GLGSV,3,2,10,82,46,229,47,79,69,168,52,65,04,065,,71,01,329,27*60
$GLGSV,3,3,10,83,06,223,,72,09,013,*64
$GAGSV,2,1,08,27,83,134,44,34,31,046,38,30,29,125,34,13,33,196,35*64
$GAGSV,2,2,08,21,40,303,38,15,70,116,44,04,04,333,25,19,04,280,23*6A
$GBGSV,5,1,20,11,90,135,49,38,30,052,33,60,10,109,,37,16,317,42*6E
$GBGSV,5,2,20,12,33,056,39,05,21,129,,08,37,067,45,25,46,179,45*6F
$GBGSV,5,3,20,13,38,078,29,23,59,277,41,34,63,060,47,43,65,238,51*66
$GBGSV,5,4,20,28,04,237,,24,01,152,,10,03,091,,02,06,107,*69
$GBGSV,5,5,20,21,02,094,,44,10,059,,56,08,074,,22,06,047,*65
$GPGGA,164517.00,,,,,0,00,,,M,,M,,*48
$PTNL,GGK,164517.00,010125,4742.4460584,N,01617.9723846,E,1,23,1.3,EHT670.5012,M*40
$GPGGQ,164517.00,010125,4742.4460584,N,01617.9723846,E,1,23,3.495,627.2902,M*3A
$GPGFA,164517.00,11.484,25.958,1.208,0.857,26.677,3.166,,VVV*39
$GPLLK,164517.00,010125,,M,,M,1,23,1.6,,M*0D
$GNGMP,164517.00,,,,,DAAA,23,0.7,,,,*50
$GPGMP,164517.00,,,,,,07,,,,1.9,123*72
$GLGMP,164517.00,,,,,,04,,,,,*7B
$GAGMP,164517.00,,,,,,04,,,,,*76
$GBGMP,164517.00,,,,,,08,,,,,*79
$PSSN,SNC,[0,319535000,2347]*4C
$GPZDA,164522.00,01,01,2025,,*65
$GPDTM,W84,,00.0000000,N,00.0000000,E,00.0000000,W84*5F
$GPRMC,164522.00,A,4742.4460582,N,01617.9723587,E,0.0,,010125,5.1,E,D*13
$GPGLL,4742.4460582,N,01617.9723587,E,164522.00,A,D*62
$GPGGA,164522.00,4742.4460582,N,01617.9723587,E,2,24,0.7,627.3161,M,43.2111,M,1.7,0123*4A
$GNGNS,164522.00,4742.4460582,N,01617.9723587,E,DAAA,24,0.7,627.3161,43.2111,,*50
$GPGNS,164522.00,,,,,,07,,,,1.7,123*7A
$GLGNS,164522.00,,,,,,05,,,,,*7C
$GAGNS,164522.00,,,,,,04,,,,,*70
$GBGNS,164522.00,,,,,,08,,,,,*7F
$GPLLQ,164522.00,010125,,M,,M,1,24,3.382,,M*1B
$GPVTG,,T,,M,0.00,N,0.01,K,D*27
$GPHDT,,T*1B
$GPTHS,,V*0E
$GPROT,,V*08
$PSSN,HRP,164522.00,010125,,,,,,,00,0,,*67
$PTNL,AVR,164522.00,,Yaw,,Tilt,,,,0,,00*31
$GPGSA,A,3,16,18,25,26,28,29,31,,,,,,1.3,0.7,1.1*39
$GPGSA,A,3,79,80,81,82,88,,,,,,,,1.3,0.7,1.1*32
$GPGSA,A,3,15,21,27,34,,,,,,,,,1.3,0.7,1.1*32
$GPGSA,A,3,08,11,12,23,25,34,37,43,,,,,1.3,0.7,1.1*3E
$GPGST,164522.00,2.711,1.163,0.837,24.677,1.113,0.902,3.063*62
$GPGBS,164522.00,3.330,3.512,10.354,28,0.0001,-2.895,0.847*47
$GPGRS,164522.00,1,-0.7,0.4,1.8,-0.3,-2.9,-0.2,1.2,,,,,*65
$GPGRS,164522.00,1,0.3,-2.9,1.1,-0.7,-4.5,,,,,,,*45
$GPGRS,164522.00,1,-0.6,-0.2,-0.3,7.0,,,,,,,,*65
$GPGRS,164522.00,1,0.0,3.2,0.4,-1.8,3.5,-0.6,-0.7,2.3,,,,*6F
$GPGSV,4,1,15,29,64,058,51,16,17,303,40,20,17,042,27,25,35,132,38*70
$GPGSV,4,2,15,05,27,077,31,28,37,226,40,26,47,300,36,18,55,184,48*7C
$GPGSV,4,3,15,31,44,262,47,04,03,319,33,09,00,344,,36,35,170,38*75
$GPGSV,4,4,15,34,31,208,34,49,34,195,36,61,03,257,*43
$GLGSV,3,1,10,81,79,016,49,78,17,151,29,88,24,042,36,80,49,319,52*60
$GLGSV,3,2,10,82,46,229,47,79,69,169,52,65,04,065,,71,01,329,*64
$GLGSV,3,3,10,83,06,223,,72,09,013,*64
$GAGSV,2,1,08,27,83,134,44,34,31,046,37,30,29,125,34,13,33,196,34*6A
$GAGSV,2,2,08,21,41,303,38,15,70,115,44,04,04,333,24,19,04,280,22*68
$GBGSV,5,1,20,11,90,128,49,38,30,052,34,37,16,317,41,12,33,056,40*6D
$GBGSV,5,2,20,60,10,109,,05,21,129,,25,46,179,45,08,37,067,45*6A
$GBGSV,5,3,20,13,38,078,30,23,59,277,41,34,63,059,48,43,65,238,51*6B
$GBGSV,5,4,20,28,04,237,,24,01,152,,21,02,094,,10,03,091,*67
$GBGSV,5,5,20,22,06,047,,44,09,059,20,56,08,074,,02,06,107,*61
$GPGGA,164522.00,,,,,0,00,,,M,,M,,*4E
$PTNL,GGK,164522.00,010125,4742.4460582,N,01617.9723587,E,1,24,1.3,EHT670.5272,M*43
$GPGGQ,164522.00,010125,4742.4460582,N,01617.9723587,E,1,24,3.382,627.3161,M*30
$GPGFA,164522.00,11.053,25.117,1.163,0.837,24.677,3.063,,VVV*3C
$GPLLK,164522.00,010125,,M,,M,1,24,1.5,,M*0F
$GNGMP,164522.00,,,,,DAAA,24,0.7,,,,*51
$GPGMP,164522.00,,,,,,07,,,,1.7,123*7A
$GLGMP,164522.00,,,,,,05,,,,,*7C
$GAGMP,164522.00,,,,,,04,,,,,*70
$GBGMP,164522.00,,,,,,08,,,,,*7F
$PSSN,SNC,[0,319540000,2347]*4E
$GPZDA,164527.00,01,01,2025,,*60
$GPDTM,W84,,00.0000000,N,00.0000000,E,00.0000000,W84*5F
$GPRMC,164527.00,A,4742.4460629,N,01617.9723404,E,0.0,,010125,5.1,E,D*1E
$GPGLL,4742.4460629,N,01617.9723404,E,164527.00,A,D*6F
$GPGGA,164527.00,4742.4460629,N,01617.9723404,E,2,24,0.7,627.3214,M,43.2111,M,2.7,0123*45
$GNGNS,164527.00,4742.4460629,N,01617.9723404,E,DAAA,24,0.7,627.3214,43.2111,,*5C
$GPGNS,164527.00,,,,,,07,,,,2.7,123*7C
$GLGNS,164527.00,,,,,,05,,,,,*79
$GAGNS,164527.00,,,,,,04,,,,,*75
$GBGNS,164527.00,,,,,,08,,,,,*7A
$GPLLQ,164527.00,010125,,M,,M,1,24,2.138,,M*1C
$GPVTG,,T,,M,0.01,N,0.01,K,D*26
$GPHDT,,T*1B
$GPTHS,,V*0E
$GPROT,,V*08
$PSSN,HRP,164527.00,010125,,,,,,,00,0,,*62
$PTNL,AVR,164527.00,,Yaw,,Tilt,,,,0,,00*34
$GPGSA,A,3,16,18,25,26,28,29,31,,,,,,1.3,0.7,1.1*39
$GPGSA,A,3,79,80,81,82,88,,,,,,,,1.3,0.7,1.1*32
$GPGSA,A,3,15,21,27,34,,,,,,,,,1.3,0.7,1.1*32
$GPGSA,A,3,08,11,12,23,25,34,37,43,,,,,1.3,0.7,1.1*3E
$GPGST,164527.00,2.376,0.732,0.531,24.063,0.703,0.570,1.937*6C
$GPGBS,164527.00,3.348,3.551,10.475,28,0.0001,-1.328,0.862*47
$GPGRS,164527.00,1,-1.8,0.4,1.1,-0.1,-1.3,-0.3,0.6,,,,,*68
$GPGRS,164527.00,1,0.1,-3.0,0.5,-0.1,3.3,,,,,,,*65
$GPGRS,164527.00,1,-0.5,-0.2,-0.3,6.4,,,,,,,,*66
$GPGRS,164527.00,1,-0.3,3.3,0.1,-2.1,2.9,0.0,-0.4,2.1,,,,*6D
$GPGSV,4,1,15,29,64,058,51,16,17,303,41,20,17,042,26,25,35,132,39*71
$GPGSV,4,2,15,05,27,076,29,28,37,226,39,26,47,300,35,18,55,184,48*79
$GPGSV,4,3,15,31,44,262,47,04,03,319,33,09,00,344,,36,35,170,38*75
$GPGSV,4,4,15,34,31,208,34,49,34,195,36,61,03,257,*43
$GLGSV,3,1,10,81,79,016,49,78,17,151,28,88,24,042,37,80,49,319,52*60
$GLGSV,3,2,10,82,46,229,47,79,69,169,51,65,04,065,,71,01,329,23*66
$GLGSV,3,3,10,83,06,223,,72,09,013,*64
$GAGSV,2,1,08,27,83,134,45,34,31,046,36,30,29,125,34,13,33,196,33*6D
$GAGSV,2,2,08,21,41,303,39,15,70,115,44,04,04,333,29,19,04,280,24*62
$GBGSV,5,1,20,11,90,125,49,38,30,052,34,37,16,317,41,12,33,056,40*60
$GBGSV,5,2,20,60,10,109,,05,21,129,,25,46,179,45,08,37,067,45*6A
$GBGSV,5,3,20,13,38,078,30,23,59,277,40,34,63,059,48,43,65,238,51*6A
$GBGSV,5,4,20,28,04,237,,24,01,152,,21,02,094,,10,03,091,*67
$GBGSV,5,5,20,22,06,047,,44,09,059,21,56,08,074,,02,06,107,*60
$GPGGA,164527.00,,,,,0,00,,,M,,M,,*4B
$PTNL,GGK,164527.00,010125,4742.4460629,N,01617.9723404,E,1,24,1.3,EHT670.5325,M*4D
$GPGGQ,164527.00,010125,4742.4460629,N,01617.9723404,E,1,24,2.138,627.3214,M*3E
$GPGFA,164527.00,6.961,15.887,0.732,0.531,24.063,1.937,,VVV*05
$GPLLK,164527.00,010125,,M,,M,1,24,1.5,,M*0A
$GNGMP,164527.00,,,,,DAAA,24,0.7,,,,*54
$GPGMP,164527.00,,,,,,07,,,,2.7,123*7C
$GLGMP,164527.00,,,,,,05,,,,,*79
$GAGMP,164527.00,,,,,,04,,,,,*75
$GBGMP,164527.00,,,,,,08,,,,,*7A
$PSSN,SNC,[0,319545000,2347]*4B
$GPZDA,164532.00,01,01,2025,,*64
$GPDTM,W84,,00.0000000,N,00.0000000,E,00.0000000,W84*5F
$GPRMC,164532.00,A,4742.4460695,N,01617.9723233,E,0.0,,010125,5.1,E,D*1F
$GPGLL,4742.4460695,N,01617.9723233,E,164532.00,A,D*6E
$GPGGA,164532.00,4742.4460695,N,01617.9723233,E,2,23,0.7,627.3212,M,43.2111,M,3.7,0123*44
$GNGNS,164532.00,4742.4460695,N,01617.9723233,E,DAAA,23,0.7,627.3212,43.2111,,*5C
$GPGNS,164532.00,,,,,,07,,,,3.7,123*79
$GLGNS,164532.00,,,,,,05,,,,,*7D
$GAGNS,164532.00,,,,,,03,,,,,*76
$GBGNS,164532.00,,,,,,08,,,,,*7E
$GPLLQ,164532.00,010125,,M,,M,1,23,1.974,,M*1C
$GPVTG,,T,,M,0.00,N,0.01,K,D*27
$GPHDT,,T*1B
$GPTHS,,V*0E
$GPROT,,V*08
$PSSN,HRP,164532.00,010125,,,,,,,00,0,,*66
$PTNL,AVR,164532.00,,Yaw,,Tilt,,,,0,,00*30
$GPGSA,A,3,16,18,25,26,28,29,31,,,,,,1.3,0.7,1.1*39
$GPGSA,A,3,79,80,81,82,88,,,,,,,,1.3,0.7,1.1*32
$GPGSA,A,3,15,21,27,,,,,,,,,,1.3,0.7,1.1*35
$GPGSA,A,3,08,11,12,23,25,34,37,43,,,,,1.3,0.7,1.1*3E
$GPGST,164532.00,2.323,0.677,0.488,24.690,0.648,0.526,1.789*67
$GPGBS,164532.00,3.432,3.664,10.883,16,0.0001,-3.096,1.737*4E
$GPGRS,164532.00,1,-3.1,0.2,0.8,0.3,-0.1,-0.4,-0.1,,,,,*68
$GPGRS,164532.00,1,0.1,-3.3,0.7,0.3,6.6,,,,,,,*4F
$GPGRS,164532.00,1,-0.5,-0.1,-0.5,,,,,,,,,*4B
$GPGRS,164532.00,1,-0.5,2.9,-0.3,2.4,1.7,0.2,-0.8,1.6,,,,*64
$GPGSV,4,1,15,29,64,058,51,16,17,303,41,20,17,042,,25,35,132,39*75
$GPGSV,4,2,15,05,27,076,20,28,37,226,38,26,48,300,35,18,55,184,48*7E
$GPGSV,4,3,15,31,44,262,47,04,03,319,33,09,00,344,,36,35,170,38*75
$GPGSV,4,4,15,34,31,208,34,49,34,195,36,61,03,257,*43
$GLGSV,3,1,10,81,79,016,48,78,17,151,27,88,23,042,37,80,49,319,52*69
$GLGSV,3,2,10,82,46,229,47,79,69,169,52,65,04,065,,71,01,329,20*66
$GLGSV,3,3,10,83,06,223,,72,09,013,*64
$GAGSV,2,1,08,27,83,134,45,34,31,046,34,30,29,125,34,13,33,196,32*6E
$GAGSV,2,2,08,21,41,303,40,15,70,115,44,04,04,333,27,19,04,280,24*62
$GBGSV,5,1,20,11,90,119,49,38,30,052,34,37,16,316,40,12,33,056,41*6E
$GBGSV,5,2,20,60,10,109,,05,21,129,,25,46,179,46,08,37,067,45*69
$GBGSV,5,3,20,13,38,078,30,23,59,277,41,34,63,059,49,43,65,238,51*6A
$GBGSV,5,4,20,28,04,237,,24,01,152,,21,02,094,,10,03,091,*67
$GBGSV,5,5,20,22,06,047,,44,09,059,,56,08,074,,02,06,107,*63
$GPGGA,164532.00,,,,,0,00,,,M,,M,,*4F
$PTNL,GGK,164532.00,010125,4742.4460695,N,01617.9723233,E,1,23,1.3,EHT670.5323,M*4D
$GPGGQ,164532.00,010125,4742.4460695,N,01617.9723233,E,1,23,1.974,627.3212,M*3D
$GPGFA,164532.00,6.437,14.669,0.677,0.488,24.690,1.789,,VVV*02
$GPLLK,164532.00,010125,,M,,M,1,23,1.6,,M*0A
$GNGMP,164532.00,,,,,DAAA,23,0.7,,,,*57
$GPGMP,164532.00,,,,,,07,,,,3.7,123*79
$GLGMP,164532.00,,,,,,05,,,,,*7D
$GAGMP,164532.00,,,,,,03,,,,,*76
$GBGMP,164532.00,,,,,,08,,,,,*7E
$PSSN,SNC,[0,319550000,2347]*4F
$GPZDA,164537.00,01,01,2025,,*61
$GPDTM,W84,,00.0000000,N,00.0000000,E,00.0000000,W84*5F
$GPRMC,164537.00,A,4742.4460779,N,01617.9723219,E,0.0,,010125,5.1,E,D*11
$GPGLL,4742.4460779,N,01617.9723219,E,164537.00,A,D*60
$GPGGA,164537.00,4742.4460779,N,01617.9723219,E,2,23,0.7,627.3044,M,43.2111,M,1.9,0123*47
$GNGNS,164537.00,4742.4460779,N,01617.9723219,E,DAAA,23,0.7,627.3044,43.2111,,*53
$GPGNS,164537.00,,,,,,07,,,,1.9,123*70
$GLGNS,164537.00,,,,,,05,,,,,*78
$GAGNS,164537.00,,,,,,03,,,,,*73
$GBGNS,164537.00,,,,,,08,,,,,*7B
$GPLLQ,164537.00,010125,,M,,M,1,23,1.951,,M*1E
$GPVTG,,T,,M,0.01,N,0.01,K,D*26
$GPHDT,,T*1B
$GPTHS,,V*0E
$GPROT,,V*08
$PSSN,HRP,164537.00,010125,,,,,,,00,0,,*63
$PTNL,AVR,164537.00,,Yaw,,Tilt,,,,0,,00*35
$GPGSA,A,3,16,18,25,26,28,29,31,,,,,,1.3,0.7,1.1*39
$GPGSA,A,3,79,80,81,82,88,,,,,,,,1.3,0.7,1.1*32
$GPGSA,A,3,15,21,27,,,,,,,,,,1.3,0.7,1.1*35
$GPGSA,A,3,08,11,12,23,25,34,37,43,,,,,1.3,0.7,1.1*3E
$GPGST,164537.00,3.235,0.672,0.482,25.162,0.642,0.522,1.767*6F
$GPGBS,164537.00,3.313,3.589,10.456,16,0.0001,-2.842,1.712*4C
$GPGRS,164537.00,1,-2.8,0.4,-0.2,-0.0,0.6,-0.3,0.1,,,,,*6A
$GPGRS,164537.00,1,0.5,-3.5,0.6,0.5,5.7,,,,,,,*4D
$GPGRS,164537.00,1,-0.1,0.8,-0.4,,,,,,,,,*6F
$GPGRS,164537.00,1,0.1,2.6,-0.3,10.1,0.9,0.4,-0.4,1.5,,,,*77
$GPGSV,4,1,15,29,64,058,51,16,17,303,41,20,17,042,27,25,35,132,39*70
$GPGSV,4,2,15,05,27,076,21,28,37,226,39,26,48,300,36,18,55,184,49*7C
$GPGSV,4,3,15,31,44,262,47,04,03,319,32,09,00,344,,36,35,170,38*74
$GPGSV,4,4,15,34,31,208,34,49,34,195,36,61,03,257,*43
$GLGSV,3,1,10,81,79,016,48,78,17,152,29,88,23,042,36,80,50,319,52*6D
$GLGSV,3,2,10,82,47,229,48,79,69,169,52,65,04,065,,71,01,329,*6A
$GLGSV,3,3,10,83,06,223,,72,09,013,*64
$GAGSV,2,1,08,27,83,134,44,34,31,046,31,30,29,125,34,13,33,196,30*68
$GAGSV,2,2,08,21,41,303,41,15,70,115,45,04,04,332,28,19,04,280,24*6C
$GBGSV,5,1,20,11,90,113,49,38,30,052,34,37,16,316,39,12,33,056,41*6A
$GBGSV,5,2,20,05,21,129,,60,10,109,,25,46,179,47,08,37,067,45*68
$GBGSV,5,3,20,13,38,078,31,23,59,277,42,34,63,059,50,43,65,238,50*61
$GBGSV,5,4,20,28,04,237,,24,01,152,,21,02,094,,02,06,107,*6F
$GBGSV,5,5,20,22,06,047,,44,09,059,,56,08,074,,10,03,091,*6B
$GPGGA,164537.00,,,,,0,00,,,M,,M,,*4A
$PTNL,GGK,164537.00,010125,4742.4460779,N,01617.9723219,E,1,23,1.3,EHT670.5155,M*40
$GPGGQ,164537.00,010125,4742.4460779,N,01617.9723219,E,1,23,1.951,627.3044,M*35
$GPGFA,164537.00,6.387,14.492,0.672,0.482,25.162,1.767,,VVV*09
$GPLLK,164537.00,010125,,M,,M,1,23,1.6,,M*0F
$GNGMP,164537.00,,,,,DAAA,23,0.7,,,,*52
$GPGMP,164537.00,,,,,,07,,,,1.9,123*70
$GLGMP,164537.00,,,,,,05,,,,,*78
$GAGMP,164537.00,,,,,,03,,,,,*73
$GBGMP,164537.00,,,,,,08,,,,,*7B
$PSSN,SNC,[0,319555000,2347]*4A
$GPZDA,164542.00,01,01,2025,,*63
$GPDTM,W84,,00.0000000,N,00.0000000,E,00.0000000,W84*5F
$GPRMC,164542.00,A,4742.4460849,N,01617.9723300,E,0.0,,010125,5.1,E,D*16
$GPGLL,4742.4460849,N,01617.9723300,E,164542.00,A,D*67
$GPGGA,164542.00,4742.4460849,N,01617.9723300,E,2,22,0.7,627.2672,M,43.2111,M,1.7,0123*4D
$GNGNS,164542.00,4742.4460849,N,01617.9723300,E,DAAA,22,0.7,627.2672,43.2111,,*57
$GPGNS,164542.00,,,,,,07,,,,1.7,123*7C
$GLGNS,164542.00,,,,,,04,,,,,*7B
$GAGNS,164542.00,,,,,,03,,,,,*71
$GBGNS,164542.00,,,,,,08,,,,,*79
$GPLLQ,164542.00,010125,,M,,M,1,22,2.056,,M*10
$GPVTG,,T,,M,0.00,N,0.00,K,D*26
$GPHDT,,T*1B
$GPTHS,,V*0E
$GPROT,,V*08
$PSSN,HRP,164542.00,010125,,,,,,,00,0,,*61
$PTNL,AVR,164542.00,,Yaw,,Tilt,,,,0,,00*37
$GPGSA,A,3,16,18,25,26,28,29,31,,,,,,1.4,0.7,1.2*3D
$GPGSA,A,3,79,80,81,82,,,,,,,,,1.4,0.7,1.2*36
$GPGSA,A,3,15,21,27,,,,,,,,,,1.4,0.7,1.2*31
$GPGSA,A,3,08,11,12,23,25,34,37,43,,,,,1.4,0.7,1.2*3A
$GPGST,164542.00,3.490,0.706,0.497,25.983,0.671,0.544,1.866*6B
$GPGBS,164542.00,3.502,3.666,11.018,16,0.0001,-2.771,1.717*4F
$GPGRS,164542.00,1,-2.8,0.3,-0.6,0.1,0.6,-0.0,0.6,,,,,*43
$GPGRS,164542.00,1,1.0,-3.9,-0.4,0.6,,,,,,,,*47
$GPGRS,164542.00,1,-0.3,1.3,-0.5,,,,,,,,,*64
$GPGRS,164542.00,1,0.2,2.6,-1.2,12.0,0.3,0.3,-1.4,1.2,,,,*7E
$GPGSV,4,1,15,29,64,058,51,16,17,303,41,20,17,042,29,25,34,133,39*7E
$GPGSV,4,2,15,05,27,076,23,28,37,226,41,26,48,300,36,18,56,184,49*72
$GPGSV,4,3,15,31,44,262,48,04,03,319,31,09,00,344,,36,35,170,38*78
$GPGSV,4,4,15,34,31,208,34,49,34,195,36,61,03,257,*43
$GLGSV,3,1,10,81,79,017,47,78,17,152,30,88,23,042,34,80,50,319,51*6A
$GLGSV,3,2,10,82,47,229,48,79,69,169,52,65,04,065,,71,01,329,*6A
$GLGSV,3,3,10,83,06,223,,72,09,013,*64
$GAGSV,2,1,08,27,83,134,45,34,31,046,29,30,29,125,34,13,33,196,30*60
$GAGSV,2,2,08,21,41,303,42,15,70,115,45,04,04,332,27,19,04,280,24*60
$GBGSV,5,1,20,11,90,110,49,38,30,052,34,37,16,316,39,12,33,056,40*68
$GBGSV,5,2,20,05,21,129,,60,10,109,,25,46,179,48,08,37,067,45*67
$GBGSV,5,3,20,13,38,077,32,23,59,277,42,34,63,059,51,43,65,238,50*6C
$GBGSV,5,4,20,28,04,237,,24,01,152,,21,02,094,,02,06,107,*6F
$GBGSV,5,5,20,22,06,047,,44,09,059,,56,08,074,,10,03,091,*6B
$GPGGA,164542.00,,,,,0,00,,,M,,M,,*48
$PTNL,GGK,164542.00,010125,4742.4460849,N,01617.9723300,E,1,22,1.4,EHT670.4783,M*4D
$GPGGQ,164542.00,010125,4742.4460849,N,01617.9723300,E,1,22,2.056,627.2672,M*3C
$GPGFA,164542.00,6.709,15.301,0.706,0.497,25.983,1.866,,VVV*0A
$GPLLK,164542.00,010125,,M,,M,1,22,1.7,,M*0D
$GNGMP,164542.00,,,,,DAAA,22,0.7,,,,*51
$GPGMP,164542.00,,,,,,07,,,,1.7,123*7C
$GLGMP,164542.00,,,,,,04,,,,,*7B
$GAGMP,164542.00,,,,,,03,,,,,*71
$GBGMP,164542.00,,,,,,08,,,,,*79
$PSSN,SNC,[0,319560000,2347]*4C
$GPZDA,164547.00,01,01,2025,,*66
$GPDTM,W84,,00.0000000,N,00.0000000,E,00.0000000,W84*5F
$GPRMC,164547.00,A,4742.4460904,N,01617.9723404,E,0.0,,010125,5.1,E,D*18
$GPGLL,4742.4460904,N,01617.9723404,E,164547.00,A,D*69
$GPGGA,164547.00,4742.4460904,N,01617.9723404,E,2,22,0.7,627.2301,M,43.2111,M,2.7,0123*41
$GNGNS,164547.00,4742.4460904,N,01617.9723404,E,DAAA,22,0.7,627.2301,43.2111,,*58
$GPGNS,164547.00,,,,,,07,,,,2.7,123*7A
$GLGNS,164547.00,,,,,,04,,,,,*7E
$GAGNS,164547.00,,,,,,03,,,,,*74
$GBGNS,164547.00,,,,,,08,,,,,*7C
$GPLLQ,164547.00,010125,,M,,M,1,22,1.904,,M*18
$GPVTG,,T,,M,0.00,N,0.00,K,D*26
$GPHDT,,T*1B
$GPTHS,,V*0E
$GPROT,,V*08
$PSSN,HRP,164547.00,010125,,,,,,,00,0,,*64
$PTNL,AVR,164547.00,,Yaw,,Tilt,,,,0,,00*32
$GPGSA,A,3,16,18,25,26,28,29,31,,,,,,1.4,0.7,1.2*3D
$GPGSA,A,3,79,80,81,82,,,,,,,,,1.4,0.7,1.2*36
$GPGSA,A,3,15,21,27,,,,,,,,,,1.4,0.7,1.2*31
$GPGSA,A,3,08,11,12,23,25,34,37,43,,,,,1.4,0.7,1.2*3A
$GPGST,164547.00,2.783,0.650,0.461,25.550,0.619,0.502,1.729*6F
$GPGBS,164547.00,3.521,3.706,11.161,16,0.0001,-2.435,1.723*47
$GPGRS,164547.00,1,-2.4,0.2,-0.6,-0.3,0.6,-0.1,0.5,,,,,*66
$GPGRS,164547.00,1,0.9,-4.0,-0.6,0.4,,,,,,,,*44
$GPGRS,164547.00,1,-0.5,1.3,-0.3,,,,,,,,,*61
$GPGRS,164547.00,1,0.5,2.6,-2.0,8.6,0.4,0.4,-1.5,1.3,,,,*40
$GPGSV,4,1,15,29,64,058,51,16,17,303,41,20,17,042,30,25,34,133,39*76
$GPGSV,4,2,15,05,27,076,20,28,37,226,42,26,48,300,38,18,56,184,48*7D
$GPGSV,4,3,15,31,44,262,48,04,03,319,34,09,00,344,,36,35,170,38*7D
$GPGSV,4,4,15,34,31,208,34,49,34,195,36,61,03,257,*43
$GLGSV,3,1,10,81,79,017,47,78,17,152,31,88,23,042,32,80,50,319,51*6D
$GLGSV,3,2,10,82,47,229,48,79,69,169,51,65,04,065,,71,01,329,32*68
$GLGSV,3,3,10,83,06,223,,72,09,013,*64
$GAGSV,3,1,09,27,83,134,45,34,31,046,26,30,29,125,35,13,34,196,31*68
$GAGSV,3,2,09,21,41,303,43,15,70,115,45,04,04,332,26,19,03,280,25*66
$GAGSV,3,3,09,06,00,355,*54
$GBGSV,5,1,20,11,90,104,49,25,46,179,49,38,30,052,34,37,16,316,39*6E
$GBGSV,5,2,20,60,10,109,,12,33,056,40,05,21,129,,08,37,067,45*65
$GBGSV,5,3,20,13,38,077,32,23,59,277,42,34,62,059,52,43,65,238,49*66
$GBGSV,5,4,20,28,04,237,,24,01,152,,10,03,091,,21,02,093,*60
$GBGSV,5,5,20,22,07,047,,44,09,059,,56,08,074,,02,06,107,*62
$GPGGA,164547.00,,,,,0,00,,,M,,M,,*4D
$PTNL,GGK,164547.00,010125,4742.4460904,N,01617.9723404,E,1,22,1.4,EHT670.4411,M*4B
$GPGGQ,164547.00,010125,4742.4460904,N,01617.9723404,E,1,22,1.904,627.2301,M*3E
$GPGFA,164547.00,6.176,14.177,0.650,0.461,25.550,1.729,,VVV*0E
$GPLLK,164547.00,010125,,M,,M,1,22,1.7,,M*08
$GNGMP,164547.00,,,,,DAAA,22,0.7,,,,*54
$GPGMP,164547.00,,,,,,07,,,,2.7,123*7A
$GLGMP,164547.00,,,,,,04,,,,,*7E
$GAGMP,164547.00,,,,,,03,,,,,*74
$GBGMP,164547.00,,,,,,08,,,,,*7C
$PSSN,SNC,[0,319565000,2347]*49
$GPZDA,164552.00,01,01,2025,,*62
$GPDTM,W84,,00.0000000,N,00.0000000,E,00.0000000,W84*5F
$GPRMC,164552.00,A,4742.4460954,N,01617.9723453,E,0.0,,010125,5.1,E,D*1B
$GPGLL,4742.4460954,N,01617.9723453,E,164552.00,A,D*6A
$GPGGA,164552.00,4742.4460954,N,01617.9723453,E,2,23,0.7,627.2075,M,43.2111,M,3.7,0123*42
$GNGNS,164552.00,4742.4460954,N,01617.9723453,E,DAAA,23,0.7,627.2075,43.2111,,*5A
$GPGNS,164552.00,,,,,,07,,,,3.7,123*7F
$GLGNS,164552.00,,,,,,04,,,,,*7A
$GAGNS,164552.00,,,,,,04,,,,,*77
$GBGNS,164552.00,,,,,,08,,,,,*78
$GPLLQ,164552.00,010125,,M,,M,1,23,1.777,,M*17
$GPVTG,,T,,M,0.01,N,0.01,K,D*26
$GPHDT,,T*1B
$GPTHS,,V*0E
$GPROT,,V*08
$PSSN,HRP,164552.00,010125,,,,,,,00,0,,*60
$PTNL,AVR,164552.00,,Yaw,,Tilt,,,,0,,00*36
$GPGSA,A,3,16,18,25,26,28,29,31,,,,,,1.3,0.7,1.1*39
$GPGSA,A,3,79,80,81,82,,,,,,,,,1.3,0.7,1.1*32
$GPGSA,A,3,15,21,27,30,,,,,,,,,1.3,0.7,1.1*36
$GPGSA,A,3,08,11,12,23,25,34,37,43,,,,,1.3,0.7,1.1*3E
$GPGST,164552.00,2.289,0.613,0.433,25.426,0.584,0.471,1.611*6C
$GPGBS,164552.00,3.549,3.679,11.192,16,0.0001,-2.619,1.731*47
$GPGRS,164552.00,1,-2.6,0.4,-0.3,0.9,-0.1,-0.0,0.1,,,,,*6B
$GPGRS,164552.00,1,0.8,-4.1,-0.3,-0.1,,,,,,,,*6D
$GPGRS,164552.00,1,-0.7,1.1,-0.4,-3.8,,,,,,,,*6A
$GPGRS,164552.00,1,0.9,2.4,-3.0,4.5,0.3,0.1,-2.0,1.5,,,,*46
$GPGSV,4,1,15,29,64,058,51,16,17,303,40,20,17,042,31,25,34,133,40*78
$GPGSV,4,2,15,05,27,076,25,28,37,226,42,26,48,300,38,18,56,184,49*79
$GPGSV,4,3,15,31,44,262,48,04,03,319,33,09,00,344,,36,35,170,38*7A
$GPGSV,4,4,15,34,31,208,34,49,34,195,36,61,03,257,*43
$GLGSV,3,1,10,81,79,017,48,78,17,152,32,88,23,042,29,80,50,319,50*6A
$GLGSV,3,2,10,82,47,229,49,79,69,169,51,65,04,065,,71,01,329,32*69
$GLGSV,3,3,10,83,06,223,,72,09,013,*64
$GAGSV,3,1,09,27,82,134,45,34,31,046,28,30,29,125,27,13,34,196,33*66
$GAGSV,3,2,09,21,41,303,44,15,70,115,45,04,04,332,26,19,03,280,26*62
$GAGSV,3,3,09,06,00,355,*54
$GBGSV,5,1,20,11,90,099,48,25,46,179,49,60,10,109,,38,30,052,35*69
$GBGSV,5,2,20,37,16,316,39,12,33,056,40,05,21,129,,08,37,067,45*67
$GBGSV,5,3,20,13,38,077,34,23,59,277,42,34,62,059,51,43,65,238,49*63
$GBGSV,5,4,20,28,04,237,,24,01,152,,02,06,107,,10,03,091,*69
$GBGSV,5,5,20,22,07,047,,44,09,059,,56,08,074,,21,02,093,*6B
$GPGGA,164552.00,,,,,0,00,,,M,,M,,*49
$PTNL,GGK,164552.00,010125,4742.4460954,N,01617.9723453,E,1,23,1.3,EHT670.4186,M*45
$GPGGQ,164552.00,010125,4742.4460954,N,01617.9723453,E,1,23,1.777,627.2075,M*36
$GPGFA,164552.00,5.830,13.208,0.613,0.433,25.426,1.611,,VVV*04
$GPLLK,164552.00,010125,,M,,M,1,23,1.5,,M*0F
$GNGMP,164552.00,,,,,DAAA,23,0.7,,,,*51
$GPGMP,164552.00,,,,,,07,,,,3.7,123*7F
$GLGMP,164552.00,,,,,,04,,,,,*7A
$GAGMP,164552.00,,,,,,04,,,,,*77
$GBGMP,164552.00,,,,,,08,,,,,*78
$PSSN,SNC,[0,319570000,2347]*4D
$GPZDA,164557.00,01,01,2025,,*67
$GPDTM,W84,,00.0000000,N,00.0000000,E,00.0000000,W84*5F
$GPRMC,164557.00,A,4742.4460972,N,01617.9723517,E,0.0,,010125,5.1,E,D*1B
$GPGLL,4742.4460972,N,01617.9723517,E,164557.00,A,D*6A
$GPGGA,164557.00,4742.4460972,N,01617.9723517,E,2,23,0.7,627.1681,M,43.2111,M,1.9,0123*40
$GNGNS,164557.00,4742.4460972,N,01617.9723517,E,DAAA,23,0.7,627.1681,43.2111,,*54
$GPGNS,164557.00,,,,,,07,,,,1.9,123*76
$GLGNS,164557.00,,,,,,04,,,,,*7F
$GAGNS,164557.00,,,,,,04,,,,,*72
$GBGNS,164557.00,,,,,,08,,,,,*7D
$GPLLQ,164557.00,010125,,M,,M,1,23,2.591,,M*1B
$GPVTG,,T,,M,0.00,N,0.01,K,D*27
$GPHDT,,T*1B
$GPTHS,,V*0E
$GPROT,,V*08
$PSSN,HRP,164557.00,010125,,,,,,,00,0,,*65
$PTNL,AVR,164557.00,,Yaw,,Tilt,,,,0,,00*33
$GPGSA,A,3,16,18,25,26,28,29,31,,,,,,1.3,0.7,1.1*39
$GPGSA,A,3,79,80,81,82,,,,,,,,,1.3,0.7,1.1*32
$GPGSA,A,3,15,21,27,30,,,,,,,,,1.3,0.7,1.1*36
$GPGSA,A,3,08,11,12,23,25,34,37,43,,,,,1.3,0.7,1.1*3E
$GPGST,164557.00,4.449,0.897,0.633,25.812,0.854,0.691,2.347*67
$GPGBS,164557.00,3.424,3.611,10.723,30,0.0001,15.798,6.182*55
$GPGRS,164557.00,1,-2.4,0.8,-0.8,0.4,-0.4,-0.0,0.3,,,,,*61
$GPGRS,164557.00,1,0.3,-4.7,0.9,1.1,,,,,,,,*6E
$GPGRS,164557.00,1,-0.9,0.7,-0.5,15.8,,,,,,,,*7D
$GPGRS,164557.00,1,1.3,1.9,-1.7,4.2,-0.1,-0.1,-2.6,1.5,,,,*40
$GPGSV,4,1,15,29,64,058,51,16,17,303,41,20,17,042,31,25,34,133,39*77
$GPGSV,4,2,15,05,27,076,23,28,37,226,43,26,48,300,37,18,56,184,48*70
$GPGSV,4,3,15,31,44,262,48,04,03,319,31,09,00,344,,36,35,170,38*78
$GPGSV,4,4,15,34,31,208,34,49,34,195,36,61,03,257,*43
$GLGSV,3,1,10,81,79,017,48,78,17,152,32,88,23,042,27,80,50,319,49*6C
$GLGSV,3,2,10,82,47,229,50,79,69,169,51,65,04,065,,71,01,329,33*60
$GLGSV,3,3,10,83,06,223,,72,09,013,*64
$GAGSV,3,1,09,27,82,134,46,34,31,046,30,30,29,125,37,13,34,196,34*6A
$GAGSV,3,2,09,21,41,303,44,15,70,115,45,04,04,332,28,19,03,280,27*6D
$GAGSV,3,3,09,06,00,355,*54
$GBGSV,5,1,20,11,90,097,48,25,46,179,49,60,10,109,,38,30,052,35*67
$GBGSV,5,2,20,37,16,316,39,12,33,056,40,05,21,129,,08,37,067,45*67
$GBGSV,5,3,20,13,38,077,34,23,59,277,42,34,62,059,51,43,65,238,49*63
$GBGSV,5,4,20,28,04,237,,24,00,152,,02,06,107,,10,03,091,*68
$GBGSV,5,5,20,22,07,047,,44,09,059,,56,08,074,,21,02,093,*6B
$GPGGA,164557.00,,,,,0,00,,,M,,M,,*4C
$PTNL,GGK,164557.00,010125,4742.4460972,N,01617.9723517,E,1,23,1.3,EHT670.3792,M*41
$GPGGQ,164557.00,010125,4742.4460972,N,01617.9723517,E,1,23,2.591,627.1681,M*31
$GPGFA,164557.00,8.532,19.245,0.897,0.633,25.812,2.347,,VVV*0E
$GPLLK,164557.00,010125,,M,,M,1,23,1.5,,M*0A
$GNGMP,164557.00,,,,,DAAA,23,0.7,,,,*54
$GPGMP,164557.00,,,,,,07,,,,1.9,123*76
$GLGMP,164557.00,,,,,,04,,,,,*7F
$GAGMP,164557.00,,,,,,04,,,,,*72
$GBGMP,164557.00,,,,,,08,,,,,*7D
$PSSN,SNC,[0,319575000,2347]*48
$GPZDA,164602.00,01,01,2025,,*64
$GPDTM,W84,,00.0000000,N,00.0000000,E,00.0000000,W84*5F
$GPRMC,164602.00,A,4742.4461033,N,01617.9723596,E,0.0,,010125,5.1,E,D*1C
$GPGLL,4742.4461033,N,01617.9723596,E,164602.00,A,D*6D
$GPGGA,164602.00,4742.4461033,N,01617.9723596,E,2,24,0.6,627.1256,M,43.2111,M,1.7,0123*41
$GNGNS,164602.00,4742.4461033,N,01617.9723596,E,DAAA,24,0.6,627.1256,43.2111,,*5B
$GPGNS,164602.00,,,,,,07,,,,1.7,123*7B
$GLGNS,164602.00,,,,,,04,,,,,*7C
$GAGNS,164602.00,,,,,,05,,,,,*70
$GBGNS,164602.00,,,,,,08,,,,,*7E
$GPLLQ,164602.00,010125,,M,,M,1,24,2.691,,M*1C
$GPVTG,,T,,M,0.00,N,0.01,K,D*27
$GPHDT,,T*1B
$GPTHS,,V*0E
$GPROT,,V*08
$PSSN,HRP,164602.00,010125,,,,,,,00,0,,*66
$PTNL,AVR,164602.00,,Yaw,,Tilt,,,,0,,00*30
$GPGSA,A,3,16,18,25,26,28,29,31,,,,,,1.2,0.6,1.0*38
$GPGSA,A,3,79,80,81,82,,,,,,,,,1.2,0.6,1.0*33
$GPGSA,A,3,13,15,21,27,30,,,,,,,,1.2,0.6,1.0*35
$GPGSA,A,3,08,11,12,23,25,34,37,43,,,,,1.2,0.6,1.0*3F
$GPGST,164602.00,4.263,0.931,0.654,25.703,0.886,0.714,2.439*64
$GPGBS,164602.00,3.487,3.577,10.821,30,0.0001,15.507,6.182*55
$GPGRS,164602.00,1,-2.1,0.7,-1.2,0.3,-0.2,-0.1,0.5,,,,,*65
$GPGRS,164602.00,1,0.0,-4.4,0.8,2.1,,,,,,,,*6F
$GPGRS,164602.00,1,-0.0,-0.9,0.3,-0.3,15.5,,,,,,,*72
$GPGRS,164602.00,1,1.2,1.4,-0.9,4.4,-0.5,-0.2,-3.2,1.6,,,,*47
$GPGSV,4,1,15,29,64,058,52,16,17,303,41,20,17,042,28,25,34,133,39*7C
$GPGSV,4,2,15,05,27,076,34,28,37,226,42,26,48,300,39,18,56,184,48*79
$GPGSV,4,3,15,31,44,261,48,04,03,319,26,09,00,344,,36,35,170,38*7D
$GPGSV,4,4,15,34,31,208,34,49,34,195,36,61,03,257,*43
$GLGSV,3,1,10,81,79,017,48,78,17,152,30,88,23,042,25,80,50,319,49*6C
$GLGSV,3,2,10,82,47,229,50,79,69,169,51,65,04,065,,71,01,329,33*60
$GLGSV,3,3,10,83,06,223,,72,09,013,*64
$GAGSV,3,1,09,27,82,134,46,34,31,046,30,30,29,125,37,13,34,196,35*6B
$GAGSV,3,2,09,21,41,303,44,15,70,115,46,04,04,332,28,19,03,280,27*6E
$GAGSV,3,3,09,06,00,355,*54
$GBGSV,5,1,20,11,90,092,47,25,46,179,49,60,10,109,,38,30,052,34*6C
$GBGSV,5,2,20,37,16,316,40,05,21,129,,12,33,056,40,08,37,067,44*68
$GBGSV,5,3,20,13,38,077,35,23,59,277,42,34,62,059,51,43,65,238,49*62
$GBGSV,5,4,20,28,04,237,,24,00,152,,02,06,107,,10,03,091,*68
$GBGSV,5,5,20,22,07,047,,44,09,059,19,56,08,074,,21,02,093,*63
$GPGGA,164602.00,,,,,0,00,,,M,,M,,*4F
$PTNL,GGK,164602.00,010125,4742.4461033,N,01617.9723596,E,1,24,1.2,EHT670.3366,M*4F
$GPGGQ,164602.00,010125,4742.4461033,N,01617.9723596,E,1,24,2.691,627.1256,M*3C
$GPGFA,164602.00,8.852,19.999,0.931,0.654,25.703,2.439,,VVV*01
$GPLLK,164602.00,010125,,M,,M,1,24,1.4,,M*0F
$GNGMP,164602.00,,,,,DAAA,24,0.6,,,,*51
$GPGMP,164602.00,,,,,,07,,,,1.7,123*7B
$GLGMP,164602.00,,,,,,04,,,,,*7C
$GAGMP,164602.00,,,,,,05,,,,,*70
$GBGMP,164602.00,,,,,,08,,,,,*7E
$PSSN,SNC,[0,319580000,2347]*42
$GPZDA,164607.00,01,01,2025,,*61
$GPDTM,W84,,00.0000000,N,00.0000000,E,00.0000000,W84*5F
$GPRMC,164607.00,A,4742.4461006,N,01617.9723689,E,0.0,,010125,5.1,E,D*12
$GPGLL,4742.4461006,N,01617.9723689,E,164607.00,A,D*63
$GPGGA,164607.00,4742.4461006,N,01617.9723689,E,2,25,0.6,627.0893,M,43.2111,M,3.7,0123*4E
$GNGNS,164607.00,4742.4461006,N,01617.9723689,E,DAAA,25,0.6,627.0893,43.2111,,*56
$GPGNS,164607.00,,,,,,07,,,,3.7,123*7C
$GLGNS,164607.00,,,,,,04,,,,,*79
$GAGNS,164607.00,,,,,,05,,,,,*75
$GBGNS,164607.00,,,,,,09,,,,,*7A
$GPLLQ,164607.00,010125,,M,,M,1,25,2.283,,M*1F
$GPVTG,,T,,M,0.00,N,0.01,K,D*27
$GPHDT,,T*1B
$GPTHS,,V*0E
$GPROT,,V*08
$PSSN,HRP,164607.00,010125,,,,,,,00,0,,*63
$PTNL,AVR,164607.00,,Yaw,,Tilt,,,,0,,00*35
$GPGSA,A,3,16,18,25,26,28,29,31,,,,,,1.2,0.6,1.0*38
$GPGSA,A,3,79,80,81,82,,,,,,,,,1.2,0.6,1.0*33
$GPGSA,A,3,13,15,21,27,30,,,,,,,,1.2,0.6,1.0*35
$GPGSA,A,3,08,11,12,13,23,25,34,37,43,,,,1.2,0.6,1.0*3D
$GPGST,164607.00,2.967,0.787,0.558,25.261,0.750,0.606,2.069*62
$GPGBS,164607.00,3.531,3.657,11.135,30,0.0001,9.404,6.182*6F
$GPGRS,164607.00,1,-1.3,0.4,-1.2,1.1,-0.8,0.0,0.6,,,,,*44
$GPGRS,164607.00,1,0.4,-3.7,0.3,1.4,,,,,,,,*67
$GPGRS,164607.00,1,-0.4,-1.1,-0.0,-0.2,9.4,,,,,,,*69
$GPGRS,164607.00,1,0.7,1.5,-0.5,-4.0,2.8,-1.2,-0.6,-4.0,1.4,,,*43
$GPGSV,4,1,15,29,64,058,52,16,17,303,42,20,17,042,28,25,34,133,38*7E
$GPGSV,4,2,15,05,27,076,33,28,37,226,41,26,48,300,41,18,56,184,47*7D
$GPGSV,4,3,15,31,44,261,49,04,03,319,,09,00,344,,36,35,170,38*78
$GPGSV,4,4,15,34,31,208,34,49,34,195,36,61,03,257,*43
$GLGSV,3,1,10,81,78,017,48,78,17,152,31,88,23,042,27,80,50,319,49*6E
$GLGSV,3,2,10,82,47,230,49,79,69,169,52,65,04,065,,71,01,329,29*68
$GLGSV,3,3,10,83,06,223,,72,09,013,*64
$GAGSV,3,1,09,27,82,134,45,34,31,046,30,30,28,125,37,13,34,196,36*6A
$GAGSV,3,2,09,21,41,303,44,15,70,115,46,04,04,332,28,19,03,280,26*6F
$GAGSV,3,3,09,06,00,355,*54
$GBGSV,5,1,20,11,89,088,47,25,46,179,49,60,10,109,,38,30,052,33*68
$GBGSV,5,2,20,37,16,316,41,05,21,129,,12,33,056,39,08,37,067,44*67
$GBGSV,5,3,20,13,38,077,36,23,59,277,42,34,62,059,50,43,65,238,49*60
$GBGSV,5,4,20,28,04,237,,24,00,152,,02,06,107,,10,03,091,*68
$GBGSV,5,5,20,22,07,047,,44,09,059,,56,08,074,,21,02,093,*6B
$GPGGA,164607.00,,,,,0,00,,,M,,M,,*4A
$PTNL,GGK,164607.00,010125,4742.4461006,N,01617.9723689,E,1,25,1.2,EHT670.3004,M*47
$GPGGQ,164607.00,010125,4742.4461006,N,01617.9723689,E,1,25,2.283,627.0893,M*36
$GPGFA,164607.00,7.478,16.969,0.787,0.558,25.261,2.069,,VVV*03
$GPLLK,164607.00,010125,,M,,M,1,25,1.4,,M*0B
$GNGMP,164607.00,,,,,DAAA,25,0.6,,,,*55
$GPGMP,164607.00,,,,,,07,,,,3.7,123*7C
$GLGMP,164607.00,,,,,,04,,,,,*79
$GAGMP,164607.00,,,,,,05,,,,,*75
$GBGMP,164607.00,,,,,,09,,,,,*7A
$PSSN,SNC,[0,319585000,2347]*47
$GPZDA,164612.00,01,01,2025,,*65
$GPDTM,W84,,00.0000000,N,00.0000000,E,00.0000000,W84*5F
$GPRMC,164612.00,A,4742.4460950,N,01617.9723875,E,0.0,,010125,5.1,E,D*10
$GPGLL,4742.4460950,N,01617.9723875,E,164612.00,A,D*61
$GPGGA,164612.00,4742.4460950,N,01617.9723875,E,2,25,0.6,627.0455,M,43.2111,M,1.9,0123*46
$GNGNS,164612.00,4742.4460950,N,01617.9723875,E,DAAA,25,0.6,627.0455,43.2111,,*52
$GPGNS,164612.00,,,,,,07,,,,1.9,123*74
$GLGNS,164612.00,,,,,,04,,,,,*7D
$GAGNS,164612.00,,,,,,05,,,,,*71
$GBGNS,164612.00,,,,,,09,,,,,*7E
$GPLLQ,164612.00,010125,,M,,M,1,25,2.632,,M*15
$GPVTG,,T,,M,0.01,N,0.01,K,D*26
$GPHDT,,T*1B
$GPTHS,,V*0E
$GPROT,,V*08
$PSSN,HRP,164612.00,010125,,,,,,,00,0,,*67
$PTNL,AVR,164612.00,,Yaw,,Tilt,,,,0,,00*31
$GPGSA,A,3,16,18,25,26,28,29,31,,,,,,1.2,0.6,1.0*38
$GPGSA,A,3,79,80,81,82,,,,,,,,,1.2,0.6,1.0*33
$GPGSA,A,3,13,15,21,27,30,,,,,,,,1.2,0.6,1.0*35
$GPGSA,A,3,08,11,12,13,23,25,34,37,43,,,,1.2,0.6,1.0*3D
$GPGST,164612.00,2.330,0.911,0.643,25.722,0.867,0.701,2.384*69
$GPGBS,164612.00,3.408,3.593,10.676,25,0.0001,-1.973,0.810*42
$GPGRS,164612.00,1,-0.8,0.6,-2.0,1.7,-0.6,-0.3,0.6,,,,,*6F
$GPGRS,164612.00,1,0.9,-3.0,0.3,0.0,,,,,,,,*6C
$GPGRS,164612.00,1,-0.5,-1.2,0.2,0.1,5.1,,,,,,,*67
$GPGRS,164612.00,1,0.5,1.7,-1.7,-3.4,2.5,-1.0,-0.5,-4.9,1.6,,,*40
$GPGSV,4,1,15,29,64,058,52,16,17,303,41,20,17,042,26,25,34,133,36*7D
$GPGSV,4,2,15,05,27,076,27,28,37,226,40,26,48,300,42,18,56,184,46*7B
$GPGSV,4,3,15,31,44,261,49,04,03,319,26,09,00,344,,36,35,170,38*7C
$GPGSV,4,4,15,34,31,208,34,49,34,195,36,61,03,257,*43
$GLGSV,3,1,10,81,78,017,48,78,16,152,23,88,23,042,28,80,50,319,50*6B
$GLGSV,3,2,10,82,47,230,49,79,69,169,51,65,04,065,,71,01,329,28*6A
$GLGSV,3,3,10,83,06,223,,72,09,013,*64
$GAGSV,3,1,09,27,82,134,45,34,31,046,31,30,28,125,36,13,34,196,37*6B
$GAGSV,3,2,09,21,41,303,45,15,70,115,46,04,04,332,27,19,03,280,25*62
$GAGSV,3,3,09,06,00,355,*54
$GBGSV,5,1,20,11,89,087,48,25,46,179,49,60,10,109,,37,16,316,42*66
$GBGSV,5,2,20,38,30,052,33,05,21,129,,12,33,056,38,08,37,067,44*6B
$GBGSV,5,3,20,13,38,077,36,23,59,277,42,34,62,059,50,43,65,238,49*60
$GBGSV,5,4,20,28,04,237,,24,00,152,,10,03,091,,02,06,107,*68
$GBGSV,5,5,20,22,07,047,,44,09,059,,56,08,074,,21,02,093,*6B
$GPGGA,164612.00,,,,,0,00,,,M,,M,,*4E
$PTNL,GGK,164612.00,010125,4742.4460950,N,01617.9723875,E,1,25,1.2,EHT670.2566,M*45
$GPGGQ,164612.00,010125,4742.4460950,N,01617.9723875,E,1,25,2.632,627.0455,M*3C
$GPGFA,164612.00,8.659,19.548,0.911,0.643,25.722,2.384,,VVV*03
$GPLLK,164612.00,010125,,M,,M,1,25,1.4,,M*0F
$GNGMP,164612.00,,,,,DAAA,25,0.6,,,,*51
$GPGMP,164612.00,,,,,,07,,,,1.9,123*74
$GLGMP,164612.00,,,,,,04,,,,,*7D
$GAGMP,164612.00,,,,,,05,,,,,*71
$GBGMP,164612.00,,,,,,09,,,,,*7E
$PSSN,SNC,[0,319590000,2347]*43
$GPZDA,164617.00,01,01,2025,,*60
$GPDTM,W84,,00.0000000,N,00.0000000,E,00.0000000,W84*5F
$GPRMC,164617.00,A,4742.4460964,N,01617.9724024,E,0.0,,010125,5.1,E,D*19
$GPGLL,4742.4460964,N,01617.9724024,E,164617.00,A,D*68
$GPGGA,164617.00,4742.4460964,N,01617.9724024,E,2,25,0.6,627.0183,M,43.2111,M,1.7,0123*4F
$GNGNS,164617.00,4742.4460964,N,01617.9724024,E,DAAA,25,0.6,627.0183,43.2111,,*55
$GPGNS,164617.00,,,,,,06,,,,1.7,123*7E
$GLGNS,164617.00,,,,,,04,,,,,*78
$GAGNS,164617.00,,,,,,05,,,,,*74
$GBGNS,164617.00,,,,,,10,,,,,*73
$GPLLQ,164617.00,010125,,M,,M,1,25,2.956,,M*1D
$GPVTG,,T,,M,0.01,N,0.01,K,D*26
$GPHDT,,T*1B
$GPTHS,,V*0E
$GPROT,,V*08
$PSSN,HRP,164617.00,010125,,,,,,,00,0,,*62
$PTNL,AVR,164617.00,,Yaw,,Tilt,,,,0,,00*34
$GPGSA,A,3,16,18,26,28,29,31,,,,,,,1.2,0.6,1.0*3F
$GPGSA,A,3,79,80,81,82,,,,,,,,,1.2,0.6,1.0*33
$GPGSA,A,3,13,15,21,27,30,,,,,,,,1.2,0.6,1.0*35
$GPGSA,A,3,08,11,12,13,23,25,34,37,38,43,,,1.2,0.6,1.0*36
$GPGST,164617.00,2.686,0.924,0.633,274.829,0.635,0.922,2.735*5F
$GPGBS,164617.00,3.883,4.667,19.707,29,0.0001,-0.825,0.715*4C
$GPGRS,164617.00,1,-1.7,0.6,0.7,0.0,-0.8,0.5,,,,,,*47
$GPGRS,164617.00,1,0.6,-2.8,1.0,-0.5,,,,,,,,*45
$GPGRS,164617.00,1,-0.7,-1.9,0.0,-0.3,5.7,,,,,,,*40
$GPGRS,164617.00,1,0.2,1.8,-3.8,-3.9,2.6,-1.0,-0.5,-6.0,0.2,1.4,,*6B
$GPGSV,4,1,15,29,64,058,51,16,17,303,40,20,17,042,20,25,34,133,34*7B
$GPGSV,4,2,15,05,27,076,26,28,37,226,39,26,48,300,41,18,56,184,45*74
$GPGSV,4,3,15,31,44,261,49,04,03,319,,09,00,344,,36,35,170,38*78
$GPGSV,4,4,15,34,31,208,34,49,34,195,36,61,03,257,*43
$GLGSV,3,1,10,81,78,017,48,78,16,152,25,88,23,042,29,80,50,319,51*6D
$GLGSV,3,2,10,82,47,230,48,79,69,169,50,65,04,065,,71,01,329,22*60
$GLGSV,3,3,10,83,06,223,,72,09,013,*64
$GAGSV,3,1,09,27,82,135,46,34,31,046,31,30,28,125,35,13,34,196,38*65
$GAGSV,3,2,09,21,41,303,45,15,70,114,46,04,04,332,29,19,03,280,25*6D
$GAGSV,3,3,09,06,00,355,*54
$GBGSV,5,1,20,11,89,083,48,37,16,316,42,38,30,052,36,05,21,129,*6C
$GBGSV,5,2,20,12,33,056,37,60,10,109,,25,46,179,49,08,37,067,44*6F
$GBGSV,5,3,20,13,38,077,36,23,59,277,43,34,62,059,49,43,65,239,50*60
$GBGSV,5,4,20,28,04,237,,24,00,152,,10,03,091,,21,02,093,*61
$GBGSV,5,5,20,22,07,047,,44,09,059,,56,08,075,,02,06,107,*63
$GPGGA,164617.00,,,,,0,00,,,M,,M,,*4B
$PTNL,GGK,164617.00,010125,4742.4460964,N,01617.9724024,E,1,25,1.2,EHT670.2294,M*46
$GPGGQ,164617.00,010125,4742.4460964,N,01617.9724024,E,1,25,2.956,627.0183,M*36
$GPGFA,164617.00,8.782,22.431,0.924,0.633,274.829,2.735,,VVV*3B
$GPLLK,164617.00,010125,,M,,M,1,25,1.4,,M*0A
$GNGMP,164617.00,,,,,DAAA,25,0.6,,,,*54
$GPGMP,164617.00,,,,,,06,,,,1.7,123*7E
$GLGMP,164617.00,,,,,,04,,,,,*78
$GAGMP,164617.00,,,,,,05,,,,,*74
$GBGMP,164617.00,,,,,,10,,,,,*73
$PSSN,SNC,[0,319595000,2347]*46
$GPZDA,164622.00,01,01,2025,,*66
$GPDTM,W84,,00.0000000,N,00.0000000,E,00.0000000,W84*5F
$GPRMC,164622.00,A,4742.4461034,N,01617.9724097,E,0.0,,010125,5.1,E,D*1A
$GPGLL,4742.4461034,N,01617.9724097,E,164622.00,A,D*6B
$GPGGA,164622.00,4742.4461034,N,01617.9724097,E,2,24,0.7,627.0026,M,43.2111,M,2.7,0123*41
$GNGNS,164622.00,4742.4461034,N,01617.9724097,E,DAAA,24,0.7,627.0026,43.2111,,*58
$GPGNS,164622.00,,,,,,06,,,,2.7,123*7B
$GLGNS,164622.00,,,,,,04,,,,,*7E
$GAGNS,164622.00,,,,,,04,,,,,*73
$GBGNS,164622.00,,,,,,10,,,,,*75
$GPLLQ,164622.00,010125,,M,,M,1,24,2.900,,M*19
$GPVTG,,T,,M,0.00,N,0.01,K,D*27
$GPHDT,,T*1B
$GPTHS,,V*0E
$GPROT,,V*08
$PSSN,HRP,164622.00,010125,,,,,,,00,0,,*64
$PTNL,AVR,164622.00,,Yaw,,Tilt,,,,0,,00*32
$GPGSA,A,3,16,18,26,28,29,31,,,,,,,1.3,0.7,1.1*3E
$GPGSA,A,3,79,80,81,82,,,,,,,,,1.3,0.7,1.1*32
$GPGSA,A,3,13,15,21,27,,,,,,,,,1.3,0.7,1.1*37
$GPGSA,A,3,08,11,12,13,23,25,34,37,38,43,,,1.3,0.7,1.1*37
$GPGST,164622.00,2.531,0.899,0.603,277.328,0.609,0.895,2.690*57
$GPGBS,164622.00,3.935,5.182,21.199,18,0.0001,0.836,0.730*6B
$GPGRS,164622.00,1,-1.9,0.8,-0.3,0.2,-0.8,0.3,,,,,,*6C
$GPGRS,164622.00,1,0.4,-2.1,1.3,-0.3,,,,,,,,*4D
$GPGRS,164622.00,1,-0.3,-1.8,-0.1,-0.4,,,,,,,,*44
$GPGRS,164622.00,1,0.3,2.3,-5.0,-3.9,3.0,-1.1,0.0,-5.9,0.8,1.5,,*45
$GPGSV,4,1,15,29,64,058,50,16,17,303,38,20,17,042,,25,34,133,33*70
$GPGSV,4,2,15,05,27,076,21,28,37,226,37,26,48,300,42,18,56,184,44*7F
$GPGSV,4,3,15,31,44,261,48,04,03,319,,09,00,344,,36,35,170,38*79
$GPGSV,4,4,15,34,31,208,33,49,34,195,36,61,03,257,*44
$GLGSV,3,1,10,81,78,017,48,78,16,152,26,88,23,042,30,80,50,319,52*65
$GLGSV,3,2,10,82,47,230,47,79,69,169,49,65,04,065,,71,01,328,20*64
$GLGSV,3,3,10,83,06,223,,72,09,012,*65
$GAGSV,3,1,09,27,82,135,45,34,31,046,31,30,28,125,34,13,34,196,38*67
$GAGSV,3,2,09,21,41,303,44,15,70,114,46,04,04,332,29,19,03,280,23*6A
$GAGSV,3,3,09,06,00,355,*54
$GBGSV,5,1,20,11,89,080,48,37,16,316,43,38,30,052,36,05,21,129,*6E
$GBGSV,5,2,20,60,10,109,,12,33,056,36,25,46,179,48,08,37,067,44*6F
$GBGSV,5,3,20,13,38,077,37,23,59,277,43,34,62,059,49,43,65,239,51*60
$GBGSV,5,4,20,28,04,237,,24,00,152,,10,03,091,,21,02,093,*61
$GBGSV,5,5,20,22,07,047,,44,09,059,,56,08,075,,02,06,107,*63
$GPGGA,164622.00,,,,,0,00,,,M,,M,,*4D
$PTNL,GGK,164622.00,010125,4742.4461034,N,01617.9724097,E,1,24,1.3,EHT670.2137,M*4F
$GPGGQ,164622.00,010125,4742.4461034,N,01617.9724097,E,1,24,2.900,627.0026,M*39
$GPGFA,164622.00,8.548,22.061,0.899,0.603,277.328,2.690,,VVV*3B
$GPLLK,164622.00,010125,,M,,M,1,24,1.6,,M*0F
$GNGMP,164622.00,,,,,DAAA,24,0.7,,,,*52
$GPGMP,164622.00,,,,,,06,,,,2.7,123*7B
$GLGMP,164622.00,,,,,,04,,,,,*7E
$GAGMP,164622.00,,,,,,04,,,,,*73
$GBGMP,164622.00,,,,,,10,,,,,*75
$PSSN,SNC,[0,319600000,2347]*49
$GPZDA,164627.00,01,01,2025,,*63
$GPDTM,W84,,00.0000000,N,00.0000000,E,00.0000000,W84*5F
$GPRMC,164627.00,A,4742.4461194,N,01617.9724141,E,0.0,,010125,5.1,E,D*1E
$GPGLL,4742.4461194,N,01617.9724141,E,164627.00,A,D*6F
$GPGGA,164627.00,4742.4461194,N,01617.9724141,E,2,23,0.7,626.9803,M,43.2111,M,3.7,0123*44
$GNGNS,164627.00,4742.4461194,N,01617.9724141,E,DAAA,23,0.7,626.9803,43.2111,,*5C
$GPGNS,164627.00,,,,,,06,,,,3.7,123*7F
$GLGNS,164627.00,,,,,,04,,,,,*7B
$GAGNS,164627.00,,,,,,04,,,,,*76
$GBGNS,164627.00,,,,,,09,,,,,*78
$GPLLQ,164627.00,010125,,M,,M,1,23,3.662,,M*11
$GPVTG,,T,,M,0.00,N,0.01,K,D*27
$GPHDT,,T*1B
$GPTHS,,V*0E
$GPROT,,V*08
$PSSN,HRP,164627.00,010125,,,,,,,00,0,,*61
$PTNL,AVR,164627.00,,Yaw,,Tilt,,,,0,,00*37
$GPGSA,A,3,16,18,26,28,29,31,,,,,,,1.3,0.7,1.2*3D
$GPGSA,A,3,79,80,81,82,,,,,,,,,1.3,0.7,1.2*31
$GPGSA,A,3,13,15,21,27,,,,,,,,,1.3,0.7,1.2*34
$GPGSA,A,3,08,11,13,23,25,34,37,38,43,,,,1.3,0.7,1.2*37
$GPGST,164627.00,2.275,1.138,0.761,277.005,0.768,1.134,3.397*59
$GPGBS,164627.00,3.995,5.321,21.746,18,0.0001,1.369,0.747*6B
$GPGRS,164627.00,1,-2.7,1.4,-0.2,0.2,-0.9,0.5,,,,,,*6F
$GPGRS,164627.00,1,0.4,-1.7,0.9,-0.5,,,,,,,,*40
$GPGRS,164627.00,1,0.3,-1.5,-0.4,-0.4,,,,,,,,*64
$GPGRS,164627.00,1,0.0,3.0,-3.4,2.7,-1.3,0.2,-5.7,1.2,1.3,,,*4F
$GPGSV,4,1,15,29,64,059,49,16,18,303,38,20,17,042,,25,34,133,30*75
$GPGSV,4,2,15,05,27,076,25,28,37,226,36,26,48,300,43,18,56,184,44*7B
$GPGSV,4,3,15,31,44,261,48,04,03,319,,09,00,344,,36,35,170,38*79
$GPGSV,4,4,15,34,31,208,33,49,34,195,36,61,03,257,*44
$GLGSV,3,1,10,81,78,017,47,78,16,152,33,88,23,042,30,80,50,319,53*6F
$GLGSV,3,2,10,82,47,230,47,79,69,169,49,65,04,065,,71,01,328,22*66
$GLGSV,3,3,10,83,06,223,,72,09,012,*65
$GAGSV,3,1,09,27,82,135,45,34,31,046,31,30,28,125,32,13,34,196,38*61
$GAGSV,3,2,09,21,41,303,44,15,70,114,45,04,04,332,30,19,03,280,21*63
$GAGSV,3,3,09,06,00,355,*54
$GBGSV,5,1,20,11,89,079,49,37,16,316,43,38,30,052,37,05,21,129,*68
$GBGSV,5,2,20,60,10,109,,12,33,056,35,25,45,179,48,08,37,067,43*68
$GBGSV,5,3,20,13,38,077,37,23,59,277,42,34,62,059,48,43,65,239,51*60
$GBGSV,5,4,20,28,04,237,,24,00,152,,10,03,091,,21,02,093,*61
$GBGSV,5,5,20,22,07,047,,44,09,059,,56,08,075,,02,06,107,*63
$GPGGA,164627.00,,,,,0,00,,,M,,M,,*48
$PTNL,GGK,164627.00,010125,4742.4461194,N,01617.9724141,E,1,23,1.3,EHT670.1914,M*46
$GPGGQ,164627.00,010125,4742.4461194,N,01617.9724141,E,1,23,3.662,626.9803,M*37
$GPGFA,164627.00,10.822,27.853,1.138,0.761,277.005,3.397,,VVV*03
$GPLLK,164627.00,010125,,M,,M,1,23,1.6,,M*0D
$GNGMP,164627.00,,,,,DAAA,23,0.7,,,,*50
$GPGMP,164627.00,,,,,,06,,,,3.7,123*7F
$GLGMP,164627.00,,,,,,04,,,,,*7B
$GAGMP,164627.00,,,,,,04,,,,,*76
$GBGMP,164627.00,,,,,,09,,,,,*78
$PSSN,SNC,[0,319605000,2347]*4C
$GPZDA,164632.00,01,01,2025,,*67
$GPDTM,W84,,00.0000000,N,00.0000000,E,00.0000000,W84*5F
$GPRMC,164632.00,A,4742.4461301,N,01617.9724189,E,0.0,,010125,5.1,E,D*10
$GPGLL,4742.4461301,N,01617.9724189,E,164632.00,A,D*61
$GPGGA,164632.00,4742.4461301,N,01617.9724189,E,2,25,0.6,626.9505,M,43.2111,M,2.0,0123*40
$GNGNS,164632.00,4742.4461301,N,01617.9724189,E,DAAA,25,0.6,626.9505,43.2111,,*5E
$GPGNS,164632.00,,,,,,06,,,,2.0,123*7D
$GLGNS,164632.00,,,,,,05,,,,,*7E
$GAGNS,164632.00,,,,,,04,,,,,*72
$GBGNS,164632.00,,,,,,10,,,,,*74
$GPLLQ,164632.00,010125,,M,,M,1,25,3.457,,M*17
$GPVTG,,T,,M,0.00,N,0.01,K,D*27
$GPHDT,,T*1B
