$GPZDA,081442.00,01,01,2025,,*68
$GPDTM,W84,,00.0000000,N,00.0000000,E,00.0000000,W84*5F
$GPRMC,081442.00,A,4742.4467043,N,01617.9729044,E,0.0,,010125,5.1,E,D*11
$GPGLL,4742.4467043,N,01617.9729044,E,081442.00,A,D*60
$GPGGA,081442.00,4742.4467043,N,01617.9729044,E,2,21,0.7,625.5557,M,43.2111,M,3.0,0123*4D
$GNGNS,081442.00,4742.4467043,N,01617.9729044,E,DAAA,21,0.7,625.5557,43.2111,,*52
$GPGNS,081442.00,,,,,,05,,,,3.0,123*70
$GLGNS,081442.00,,,,,,05,,,,,*71
$GAGNS,081442.00,,,,,,05,,,,,*7C
$GBGNS,081442.00,,,,,,06,,,,,*7C
$GPLLQ,081442.00,010125,,M,,M,1,21,4.200,,M*1F
$GPVTG,,T,,M,0.00,N,0.01,K,D*27
$GPHDT,,T*1B
$GPTHS,,V*0E
$GPROT,,V*08
$PSSN,HRP,081442.00,010125,,,,,,,00,0,,*6A
$PTNL,AVR,081442.00,,Yaw,,Tilt,,,,0,,00*3C
$GPGSA,A,3,05,13,14,15,30,,,,,,,,1.2,0.7,1.0*32
$GPGSA,A,3,65,66,72,75,82,,,,,,,,1.2,0.7,1.0*39
$GPGSA,A,3,03,05,08,24,25,,,,,,,,1.2,0.7,1.0*38
$GPGSA,A,3,21,22,26,36,42,45,,,,,,,1.2,0.7,1.0*32
$GPGST,081442.00,5.838,1.394,1.017,356.846,1.393,1.018,3.829*58
$GPGBS,081442.00,5.326,3.991,17.201,72,0.0001,19.026,6.145*5F
$GPGRS,081442.00,1,-1.1,0.7,0.5,0.8,-1.3,,,,,,,*63
$GPGRS,081442.00,1,-2.6,-4.2,19.0,-4.2,4.9,,,,,,,*77
$GPGRS,081442.00,1,-1.6,-1.5,0.3,-0.6,1.8,,,,,,,*49
$GPGRS,081442.00,1,0.5,4.3,-0.9,-3.9,1.1,-0.1,,,,,,*68
$GPGSV,5,1,17,13,68,307,49,20,25,203,31,07,19,071,36,15,33,303,42*76
$GPGSV,5,2,17,22,51,165,,05,47,237,47,30,54,066,47,14,63,129,44*76
$GPGSV,5,3,17,08,10,036,,18,07,307,31,23,02,333,,24,00,260,*7F
$GPGSV,5,4,17,17,03,136,,36,35,170,38,34,31,208,,49,34,195,*79
$GPGSV,5,5,17,61,03,257,*4B
$GLGSV,2,1,08,75,88,049,43,66,29,321,46,76,29,219,33,72,35,142,40*6F
$GLGSV,2,2,08,74,31,040,34,65,83,304,47,82,07,336,36,83,08,015,*6A
$GAGSV,3,1,10,03,86,088,46,02,27,189,36,13,11,287,31,24,33,051,42*6F
$GAGSV,3,2,10,05,32,117,37,08,39,301,41,16,54,076,,25,62,126,43*6C
$GAGSV,3,3,10,15,00,240,,26,07,336,20*6C
$GBGSV,4,1,16,45,83,103,49,22,31,155,43,40,26,061,31,05,21,130,35*6F
$GBGSV,4,2,16,26,35,229,38,56,18,091,,36,33,056,42,42,36,309,46*63
$GBGSV,4,3,16,10,32,078,,50,60,288,,21,73,225,52,27,01,022,*64
$GBGSV,4,4,16,02,04,109,,09,10,073,,30,01,067,,60,07,112,*6E
$GPGGA,081442.00,,,,,0,00,,,M,,M,,*43
$PTNL,GGK,081442.00,010125,4742.4467043,N,01617.9729044,E,1,21,1.2,EHT668.7668,M*41
$GPGGQ,081442.00,010125,4742.4467043,N,01617.9729044,E,1,21,4.200,625.5557,M*3E
$GPGFA,081442.00,13.252,31.397,1.394,1.017,356.846,3.829,,VVV*02
$GPLLK,081442.00,010125,,M,,M,1,21,1.4,,M*06
$GNGMP,081442.00,,,,,DAAA,21,0.7,,,,*59
$GPGMP,081442.00,,,,,,05,,,,3.0,123*70
$GLGMP,081442.00,,,,,,05,,,,,*71
$GAGMP,081442.00,,,,,,05,,,,,*7C
$GBGMP,081442.00,,,,,,06,,,,,*7C
$PSSN,SNC,[0,288900000,2347]*4F
$GPZDA,081447.00,01,01,2025,,*6D
$GPDTM,W84,,00.0000000,N,00.0000000,E,00.0000000,W84*5F
$GPRMC,081447.00,A,4742.4467009,N,01617.9729108,E,0.0,,010125,5.1,E,D*13
$GPGLL,4742.4467009,N,01617.9729108,E,081447.00,A,D*62
$GPGGA,081447.00,4742.4467009,N,01617.9729108,E,2,22,0.7,625.5521,M,43.2111,M,1.6,0123*49
$GNGNS,081447.00,4742.4467009,N,01617.9729108,E,DAAA,22,0.7,625.5521,43.2111,,*52
$GPGNS,081447.00,,,,,,05,,,,1.6,123*71
$GLGNS,081447.00,,,,,,05,,,,,*74
$GAGNS,081447.00,,,,,,05,,,,,*79
$GBGNS,081447.00,,,,,,07,,,,,*78
$GPLLQ,081447.00,010125,,M,,M,1,22,3.769,,M*14
$GPVTG,,T,,M,0.00,N,0.00,K,D*26
$GPHDT,,T*1B
$GPTHS,,V*0E
$GPROT,,V*08
$PSSN,HRP,081447.00,010125,,,,,,,00,0,,*6F
$PTNL,AVR,081447.00,,Yaw,,Tilt,,,,0,,00*39
$GPGSA,A,3,05,13,14,15,30,,,,,,,,1.1,0.7,0.9*39
$GPGSA,A,3,65,66,72,75,82,,,,,,,,1.1,0.7,0.9*32
$GPGSA,A,3,03,05,08,24,25,,,,,,,,1.1,0.7,0.9*33
$GPGSA,A,3,05,21,22,26,36,42,45,,,,,,1.1,0.7,0.9*3C
$GPGST,081447.00,4.974,1.264,0.906,356.876,1.263,0.907,3.433*5F
$GPGBS,081447.00,5.051,3.859,15.908,72,0.0001,14.228,6.144*5C
$GPGRS,081447.00,1,-1.0,1.2,-0.4,0.8,-0.8,,,,,,,*45
$GPGRS,081447.00,1,-2.3,-3.4,14.2,-4.9,8.0,,,,,,,*77
$GPGRS,081447.00,1,-1.3,-0.6,0.7,-0.4,1.5,,,,,,,*40
$GPGRS,081447.00,1,-0.3,0.9,4.4,-0.4,-5.7,1.5,-0.3,,,,,*65
$GPGSV,5,1,17,13,68,307,49,20,24,203,32,07,19,071,36,15,33,303,43*75
$GPGSV,5,2,17,22,51,165,,05,47,237,46,30,54,066,47,14,63,129,42*71
$GPGSV,5,3,17,08,10,036,,18,07,307,23,23,02,333,,24,00,260,*7C
$GPGSV,5,4,17,17,03,136,,36,35,170,37,34,31,208,,49,34,195,*76
$GPGSV,5,5,17,61,03,257,*4B
$GLGSV,2,1,08,75,88,048,42,66,29,321,45,76,29,219,29,72,35,142,40*67
$GLGSV,2,2,08,74,31,040,32,65,83,304,47,82,07,336,37,83,08,015,*6D
$GAGSV,3,1,10,03,86,088,46,02,27,189,33,13,11,287,30,24,33,051,42*6B
$GAGSV,3,2,10,05,32,117,38,08,39,301,40,16,54,076,,25,62,126,43*62
$GAGSV,3,3,10,15,00,240,,26,07,336,20*6C
$GBGSV,4,1,16,45,83,103,48,22,31,155,44,40,26,061,31,05,21,130,35*69
$GBGSV,4,2,16,26,35,229,38,56,18,091,,36,32,056,41,42,36,309,46*61
$GBGSV,4,3,16,10,32,078,,50,60,288,,21,73,225,52,27,01,022,*64
$GBGSV,4,4,16,02,04,109,,09,09,073,,30,01,067,,60,07,112,*66
$GPGGA,081447.00,,,,,0,00,,,M,,M,,*46
$PTNL,GGK,081447.00,010125,4742.4467009,N,01617.9729108,E,1,22,1.1,EHT668.7631,M*4F
$GPGGQ,081447.00,010125,4742.4467009,N,01617.9729108,E,1,22,3.769,625.5521,M*33
$GPGFA,081447.00,12.021,28.151,1.264,0.906,356.876,3.433,,VVV*02
$GPLLK,081447.00,010125,,M,,M,1,22,1.3,,M*07
$GNGMP,081447.00,,,,,DAAA,22,0.7,,,,*5F
$GPGMP,081447.00,,,,,,05,,,,1.6,123*71
$GLGMP,081447.00,,,,,,05,,,,,*74
$GAGMP,081447.00,,,,,,05,,,,,*79
$GBGMP,081447.00,,,,,,07,,,,,*78
$PSSN,SNC,[0,288905000,2347]*4A
$GPZDA,081452.00,01,01,2025,,*69
$GPDTM,W84,,00.0000000,N,00.0000000,E,00.0000000,W84*5F
$GPRMC,081452.00,A,4742.4466904,N,01617.9729183,E,0.0,,010125,5.1,E,D*11
$GPGLL,4742.4466904,N,01617.9729183,E,081452.00,A,D*60
$GPGGA,081452.00,4742.4466904,N,01617.9729183,E,2,22,0.7,625.5470,M,43.2111,M,2.6,0123*4D
$GNGNS,081452.00,4742.4466904,N,01617.9729183,E,DAAA,22,0.7,625.5470,43.2111,,*55
$GPGNS,081452.00,,,,,,05,,,,2.6,123*76
$GLGNS,081452.00,,,,,,05,,,,,*70
$GAGNS,081452.00,,,,,,05,,,,,*7D
$GBGNS,081452.00,,,,,,07,,,,,*7C
$GPLLQ,081452.00,010125,,M,,M,1,22,3.757,,M*1D
$GPVTG,,T,,M,0.01,N,0.01,K,D*26
$GPHDT,,T*1B
$GPTHS,,V*0E
$GPROT,,V*08
$PSSN,HRP,081452.00,010125,,,,,,,00,0,,*6B
$PTNL,AVR,081452.00,,Yaw,,Tilt,,,,0,,00*3D
$GPGSA,A,3,05,13,14,15,30,,,,,,,,1.1,0.7,0.9*39
$GPGSA,A,3,65,66,72,75,82,,,,,,,,1.1,0.7,0.9*32
$GPGSA,A,3,03,05,08,24,25,,,,,,,,1.1,0.7,0.9*33
$GPGSA,A,3,05,21,22,26,36,42,45,,,,,,1.1,0.7,0.9*3C
$GPGST,081452.00,5.275,1.254,0.915,358.442,1.254,0.915,3.421*50
$GPGBS,081452.00,5.139,3.922,16.071,82,0.0001,14.752,6.375*59
$GPGRS,081452.00,1,-0.8,1.3,-0.7,0.5,-0.2,,,,,,,*4D
$GPGRS,081452.00,1,-1.8,-3.0,9.0,-5.9,14.8,,,,,,,*75
$GPGRS,081452.00,1,-1.4,-1.9,0.6,-0.0,1.4,,,,,,,*49
$GPGRS,081452.00,1,-0.2,1.0,4.1,0.9,-6.4,1.3,-0.6,,,,,*4E
$GPGSV,5,1,17,13,68,307,49,20,24,203,34,07,19,071,36,15,33,303,43*73
$GPGSV,5,2,17,22,51,165,,05,47,237,46,30,54,066,48,14,63,129,41*7D
$GPGSV,5,3,17,08,10,036,,18,07,307,25,23,02,333,,24,00,260,*7A
$GPGSV,5,4,17,17,03,136,,36,35,170,38,34,31,208,,49,34,195,*79
$GPGSV,5,5,17,61,03,257,*4B
$GLGSV,2,1,08,75,88,048,42,66,30,321,46,76,29,219,28,72,35,142,40*6D
$GLGSV,2,2,08,74,31,040,31,65,83,304,47,82,07,336,36,83,08,015,*6F
$GAGSV,3,1,10,03,86,089,46,02,27,189,31,13,11,287,31,24,33,051,42*69
$GAGSV,3,2,10,05,32,117,38,08,39,301,40,16,54,076,,25,62,126,42*63
$GAGSV,3,3,10,15,00,240,,26,07,336,22*6E
$GBGSV,4,1,16,45,83,102,48,22,31,155,44,40,26,061,32,05,21,130,35*6B
$GBGSV,4,2,16,26,35,229,38,56,18,091,,36,32,056,39,42,36,309,46*6E
$GBGSV,4,3,16,10,32,078,,50,60,288,,21,73,225,53,27,01,022,*65
$GBGSV,4,4,16,02,04,109,,09,09,073,,30,01,066,,60,07,112,*67
$GPGGA,081452.00,,,,,0,00,,,M,,M,,*42
$PTNL,GGK,081452.00,010125,4742.4466904,N,01617.9729183,E,1,22,1.1,EHT668.7580,M*44
$GPGGQ,081452.00,010125,4742.4466904,N,01617.9729183,E,1,22,3.757,625.5470,M*39
$GPGFA,081452.00,11.921,28.055,1.254,0.915,358.442,3.421,,VVV*0E
$GPLLK,081452.00,010125,,M,,M,1,22,1.3,,M*03
$GNGMP,081452.00,,,,,DAAA,22,0.7,,,,*5B
$GPGMP,081452.00,,,,,,05,,,,2.6,123*76
$GLGMP,081452.00,,,,,,05,,,,,*70
$GAGMP,081452.00,,,,,,05,,,,,*7D
$GBGMP,081452.00,,,,,,07,,,,,*7C
$PSSN,SNC,[0,288910000,2347]*4E
$GPZDA,081457.00,01,01,2025,,*6C
$GPDTM,W84,,00.0000000,N,00.0000000,E,00.0000000,W84*5F
$GPRMC,081457.00,A,4742.4466834,N,01617.9729264,E,0.0,,010125,5.1,E,D*1C
$GPGLL,4742.4466834,N,01617.9729264,E,081457.00,A,D*6D
$GPGGA,081457.00,4742.4466834,N,01617.9729264,E,2,21,0.7,625.5438,M,43.2111,M,2.8,0123*41
$GNGNS,081457.00,4742.4466834,N,01617.9729264,E,DAAA,21,0.7,625.5438,43.2111,,*57
$GPGNS,081457.00,,,,,,05,,,,2.8,123*7D
$GLGNS,081457.00,,,,,,04,,,,,*74
$GAGNS,081457.00,,,,,,05,,,,,*78
$GBGNS,081457.00,,,,,,07,,,,,*79
$GPLLQ,081457.00,010125,,M,,M,1,21,2.874,,M*14
$GPVTG,,T,,M,0.00,N,0.01,K,D*27
$GPHDT,,T*1B
$GPTHS,,V*0E
$GPROT,,V*08
$PSSN,HRP,081457.00,010125,,,,,,,00,0,,*6E
$PTNL,AVR,081457.00,,Yaw,,Tilt,,,,0,,00*38
$GPGSA,A,3,05,13,14,15,30,,,,,,,,1.3,0.7,1.1*32
$GPGSA,A,3,65,66,72,75,,,,,,,,,1.3,0.7,1.1*33
$GPGSA,A,3,03,05,08,24,25,,,,,,,,1.3,0.7,1.1*38
$GPGSA,A,3,05,21,22,26,36,42,45,,,,,,1.3,0.7,1.1*37
$GPGST,081457.00,3.141,0.948,0.692,358.999,0.948,0.692,2.623*5D
$GPGBS,081457.00,5.319,4.054,16.908,13,0.0001,1.442,0.656*68
$GPGRS,081457.00,1,-0.4,1.4,-0.7,0.2,-0.5,,,,,,,*43
$GPGRS,081457.00,1,-1.9,-2.4,5.6,-5.8,,,,,,,,*6C
$GPGRS,081457.00,1,-1.5,-2.6,0.2,0.4,1.0,,,,,,,*68
$GPGRS,081457.00,1,-0.2,0.7,2.3,2.7,-6.0,0.4,-0.9,,,,,*48
$GPGSV,5,1,17,13,68,307,50,20,24,203,34,07,19,071,37,15,33,303,44*7D
$GPGSV,5,2,17,22,51,165,,05,47,237,47,30,54,066,48,14,63,129,39*73
$GPGSV,5,3,17,08,10,036,,18,07,307,24,23,02,333,,24,00,260,*7B
$GPGSV,5,4,17,17,03,136,,36,35,170,38,34,31,208,,49,34,195,*79
$GPGSV,5,5,17,61,03,257,*4B
$GLGSV,2,1,08,75,88,047,42,66,30,321,46,76,29,219,,72,35,143,39*67
$GLGSV,2,2,08,74,31,040,30,65,83,304,47,82,07,336,32,83,08,015,*6A
$GAGSV,3,1,10,03,86,089,46,02,27,189,29,13,11,287,31,24,33,051,41*63
$GAGSV,3,2,10,05,32,117,38,08,39,301,40,16,54,076,,25,62,126,42*63
$GAGSV,3,3,10,15,00,240,,26,07,336,27*6B
$GBGSV,4,1,16,45,83,102,48,22,31,155,43,40,26,061,32,05,21,130,35*6C
$GBGSV,4,2,16,26,35,229,38,56,18,091,,36,32,056,37,42,36,309,46*60
$GBGSV,4,3,16,10,32,078,,50,60,288,,21,73,225,53,27,01,022,*65
$GBGSV,4,4,16,02,04,109,,09,09,073,,30,01,066,,60,07,112,*67
$GPGGA,081457.00,,,,,0,00,,,M,,M,,*47
$PTNL,GGK,081457.00,010125,4742.4466834,N,01617.9729264,E,1,21,1.3,EHT668.7549,M*4D
$GPGGQ,081457.00,010125,4742.4466834,N,01617.9729264,E,1,21,2.874,625.5438,M*34
$GPGFA,081457.00,9.015,21.510,0.948,0.692,358.999,2.623,,VVV*3C
$GPLLK,081457.00,010125,,M,,M,1,21,1.5,,M*03
$GNGMP,081457.00,,,,,DAAA,21,0.7,,,,*5D
$GPGMP,081457.00,,,,,,05,,,,2.8,123*7D
$GLGMP,081457.00,,,,,,04,,,,,*74
$GAGMP,081457.00,,,,,,05,,,,,*78
$GBGMP,081457.00,,,,,,07,,,,,*79
$PSSN,SNC,[0,288915000,2347]*4B
$GPZDA,081502.00,01,01,2025,,*6D
$GPDTM,W84,,00.0000000,N,00.0000000,E,00.0000000,W84*5F
$GPRMC,081502.00,A,4742.4466785,N,01617.9729434,E,0.0,,010125,5.1,E,D*1B
$GPGLL,4742.4466785,N,01617.9729434,E,081502.00,A,D*6A
$GPGGA,081502.00,4742.4466785,N,01617.9729434,E,2,22,0.7,625.5353,M,43.2111,M,2.8,0123*4F
$GNGNS,081502.00,4742.4466785,N,01617.9729434,E,DAAA,22,0.7,625.5353,43.2111,,*59
$GPGNS,081502.00,,,,,,06,,,,2.8,123*7F
$GLGNS,081502.00,,,,,,04,,,,,*75
$GAGNS,081502.00,,,,,,05,,,,,*79
$GBGNS,081502.00,,,,,,07,,,,,*78
$GPLLQ,081502.00,010125,,M,,M,1,22,2.777,,M*1A
$GPVTG,,T,,M,0.00,N,0.01,K,D*27
$GPHDT,,T*1B
$GPTHS,,V*0E
$GPROT,,V*08
$PSSN,HRP,081502.00,010125,,,,,,,00,0,,*6F
$PTNL,AVR,081502.00,,Yaw,,Tilt,,,,0,,00*39
$GPGSA,A,3,05,13,14,15,20,30,,,,,,,1.2,0.7,1.0*30
$GPGSA,A,3,65,66,72,75,,,,,,,,,1.2,0.7,1.0*33
$GPGSA,A,3,03,05,08,24,25,,,,,,,,1.2,0.7,1.0*38
$GPGSA,A,3,05,21,22,26,36,42,45,,,,,,1.2,0.7,1.0*37
$GPGST,081502.00,2.824,0.923,0.815,26.284,0.903,0.838,2.490*6D
$GPGBS,081502.00,3.822,3.987,9.148,13,0.0001,1.673,0.677*5D
$GPGRS,081502.00,1,-0.4,1.7,-1.3,0.2,1.1,-0.6,,,,,,*69
$GPGRS,081502.00,1,-2.9,-3.0,5.1,-5.6,,,,,,,,*62
$GPGRS,081502.00,1,-1.3,-3.5,-0.2,0.7,0.3,,,,,,,*41
$GPGRS,081502.00,1,-0.5,0.4,0.2,2.5,-4.0,0.1,-1.3,,,,,*40
$GPGSV,5,1,17,13,68,307,51,20,24,203,35,07,19,071,37,15,33,303,45*7C
$GPGSV,5,2,17,22,51,165,,05,47,237,47,30,54,067,48,14,63,129,38*73
$GPGSV,5,3,17,08,10,036,,18,07,307,26,23,02,333,,24,00,260,*79
$GPGSV,5,4,17,17,03,136,,36,35,170,37,34,31,208,,49,34,195,*76
$GPGSV,5,5,17,61,03,257,*4B
$GLGSV,2,1,08,75,88,047,42,66,30,322,46,76,29,219,28,72,35,143,37*60
$GLGSV,2,2,08,74,31,040,,65,83,303,46,82,07,336,31,83,08,015,*6C
$GAGSV,3,1,10,03,86,089,45,02,27,189,25,13,11,287,31,24,33,051,41*6C
$GAGSV,3,2,10,05,32,117,38,08,39,301,40,16,54,075,,25,62,126,41*63
$GAGSV,3,3,10,15,00,240,,26,07,336,29*65
$GBGSV,4,1,16,45,83,102,48,22,31,155,42,40,26,061,32,05,21,130,35*6D
$GBGSV,4,2,16,26,35,229,38,56,18,091,,36,32,056,37,42,37,309,47*60
$GBGSV,4,3,16,10,32,078,,50,60,288,,21,73,225,53,27,01,022,*65
$GBGSV,4,4,16,02,04,109,,09,09,073,,30,01,066,,60,07,112,*67
$GPGGA,081502.00,,,,,0,00,,,M,,M,,*46
$PTNL,GGK,081502.00,010125,4742.4466785,N,01617.9729434,E,1,22,1.2,EHT668.7464,M*46
$GPGGQ,081502.00,010125,4742.4466785,N,01617.9729434,E,1,22,2.777,625.5353,M*36
$GPGFA,081502.00,8.776,20.414,0.923,0.815,26.284,2.490,,VVV*01
$GPLLK,081502.00,010125,,M,,M,1,22,1.4,,M*00
$GNGMP,081502.00,,,,,DAAA,22,0.7,,,,*5F
$GPGMP,081502.00,,,,,,06,,,,2.8,123*7F
$GLGMP,081502.00,,,,,,04,,,,,*75
$GAGMP,081502.00,,,,,,05,,,,,*79
$GBGMP,081502.00,,,,,,07,,,,,*78
$PSSN,SNC,[0,288920000,2347]*4D
$GPZDA,081507.00,01,01,2025,,*68
$GPDTM,W84,,00.0000000,N,00.0000000,E,00.0000000,W84*5F
$GPRMC,081507.00,A,4742.4466726,N,01617.9729454,E,0.0,,010125,5.1,E,D*11
$GPGLL,4742.4466726,N,01617.9729454,E,081507.00,A,D*60
$GPGGA,081507.00,4742.4466726,N,01617.9729454,E,2,22,0.6,625.5404,M,43.2111,M,1.7,0123*4D
$GNGNS,081507.00,4742.4466726,N,01617.9729454,E,DAAA,22,0.6,625.5404,43.2111,,*57
$GPGNS,081507.00,,,,,,07,,,,1.7,123*77
$GLGNS,081507.00,,,,,,03,,,,,*77
$GAGNS,081507.00,,,,,,05,,,,,*7C
$GBGNS,081507.00,,,,,,07,,,,,*7D
$GPLLQ,081507.00,010125,,M,,M,1,22,2.813,,M*12
$GPVTG,,T,,M,0.01,N,0.01,K,D*26
$GPHDT,,T*1B
$GPTHS,,V*0E
$GPROT,,V*08
$PSSN,HRP,081507.00,010125,,,,,,,00,0,,*6A
$PTNL,AVR,081507.00,,Yaw,,Tilt,,,,0,,00*3C
$GPGSA,A,3,05,07,13,14,15,20,30,,,,,,1.2,0.6,1.0*36
$GPGSA,A,3,65,66,75,,,,,,,,,,1.2,0.6,1.0*37
$GPGSA,A,3,03,05,08,24,25,,,,,,,,1.2,0.6,1.0*39
$GPGSA,A,3,05,21,22,26,36,42,45,,,,,,1.2,0.6,1.0*36
$GPGST,081507.00,2.980,1.130,0.879,351.570,1.125,0.885,2.421*58
$GPGBS,081507.00,3.262,2.329,7.240,07,0.0001,5.697,1.478*5B
$GPGRS,081507.00,1,-1.2,5.7,1.3,-0.1,-0.2,-0.3,-0.9,,,,,*4C
$GPGRS,081507.00,1,-4.3,-3.7,-5.9,,,,,,,,,*49
$GPGRS,081507.00,1,-1.3,-3.4,0.0,0.3,0.1,,,,,,,*6C
$GPGRS,081507.00,1,-0.4,-0.2,-1.8,0.4,-3.1,-0.1,-1.9,,,,,*6B
$GPGSV,5,1,17,13,68,307,51,20,24,203,35,07,19,071,37,15,33,303,45*7C
$GPGSV,5,2,17,05,47,237,47,22,51,164,,30,54,067,47,14,63,129,37*72
$GPGSV,5,3,17,08,10,036,,18,07,307,22,23,02,333,,24,00,260,*7D
$GPGSV,5,4,17,17,03,136,,36,35,170,38,34,31,208,,49,34,195,*79
$GPGSV,5,5,17,61,03,257,*4B
$GLGSV,2,1,08,75,88,046,43,66,30,322,46,76,29,219,33,72,35,143,35*68
$GLGSV,2,2,08,74,31,040,,65,83,303,44,82,07,336,34,83,08,015,*6B
$GAGSV,3,1,10,03,86,089,45,02,27,189,22,13,11,287,32,24,33,051,41*68
$GAGSV,3,2,10,05,32,117,38,08,39,301,39,16,54,075,,25,62,126,40*6C
$GAGSV,3,3,10,15,00,240,,26,07,336,30*6D
$GBGSV,4,1,16,45,83,101,48,22,31,155,41,40,26,061,32,05,21,130,35*6D
$GBGSV,4,2,16,26,35,229,38,56,18,091,,36,32,056,37,42,37,309,47*60
$GBGSV,4,3,16,10,32,078,,50,60,288,,21,73,225,53,27,01,022,*65
$GBGSV,4,4,16,02,04,109,,09,09,073,,30,01,066,,60,07,112,*67
$GPGGA,081507.00,,,,,0,00,,,M,,M,,*43
$PTNL,GGK,081507.00,010125,4742.4466726,N,01617.9729454,E,1,22,1.2,EHT668.7515,M*4B
$GPGGQ,081507.00,010125,4742.4466726,N,01617.9729454,E,1,22,2.813,625.5404,M*34
$GPGFA,081507.00,10.746,19.853,1.130,0.879,351.570,2.421,,VVV*0F
$GPLLK,081507.00,010125,,M,,M,1,22,1.4,,M*05
$GNGMP,081507.00,,,,,DAAA,22,0.6,,,,*5B
$GPGMP,081507.00,,,,,,07,,,,1.7,123*77
$GLGMP,081507.00,,,,,,03,,,,,*77
$GAGMP,081507.00,,,,,,05,,,,,*7C
$GBGMP,081507.00,,,,,,07,,,,,*7D
$PSSN,SNC,[0,288925000,2347]*48
$GPZDA,081512.00,01,01,2025,,*6C
$GPDTM,W84,,00.0000000,N,00.0000000,E,00.0000000,W84*5F
$GPRMC,081512.00,A,4742.4466641,N,01617.9729368,E,0.0,,010125,5.1,E,D*1D
$GPGLL,4742.4466641,N,01617.9729368,E,081512.00,A,D*6C
$GPGGA,081512.00,4742.4466641,N,01617.9729368,E,2,21,0.7,625.5374,M,43.2111,M,2.6,0123*41
$GNGNS,081512.00,4742.4466641,N,01617.9729368,E,DAAA,21,0.7,625.5374,43.2111,,*59
$GPGNS,081512.00,,,,,,05,,,,2.6,123*73
$GLGNS,081512.00,,,,,,04,,,,,*74
$GAGNS,081512.00,,,,,,05,,,,,*78
$GBGNS,081512.00,,,,,,07,,,,,*79
$GPLLQ,081512.00,010125,,M,,M,1,21,2.683,,M*12
$GPVTG,,T,,M,0.00,N,0.01,K,D*27
$GPHDT,,T*1B
$GPTHS,,V*0E
$GPROT,,V*08
$PSSN,HRP,081512.00,010125,,,,,,,00,0,,*6E
$PTNL,AVR,081512.00,,Yaw,,Tilt,,,,0,,00*38
$GPGSA,A,3,05,13,14,15,30,,,,,,,,1.3,0.7,1.1*32
$GPGSA,A,3,65,66,72,75,,,,,,,,,1.3,0.7,1.1*33
$GPGSA,A,3,03,05,08,24,25,,,,,,,,1.3,0.7,1.1*38
$GPGSA,A,3,05,21,22,26,36,42,45,,,,,,1.3,0.7,1.1*37
$GPGST,081512.00,3.126,0.882,0.645,358.389,0.882,0.646,2.451*53
$GPGBS,081512.00,5.190,3.978,16.565,13,0.0001,1.045,0.639*66
$GPGRS,081512.00,1,-0.8,1.0,-0.1,-0.3,-0.4,,,,,,,*60
$GPGRS,081512.00,1,-3.6,-2.7,8.1,-5.1,,,,,,,,*61
$GPGRS,081512.00,1,-0.7,-2.6,0.8,0.4,-0.1,,,,,,,*4C
$GPGRS,081512.00,1,0.4,0.1,-2.7,0.0,-1.9,0.6,-1.8,,,,,*45
$GPGSV,5,1,17,13,68,307,50,20,24,203,35,07,19,071,36,15,33,303,44*7D
$GPGSV,5,2,17,05,47,237,47,22,51,164,,30,54,067,47,14,63,129,37*72
$GPGSV,5,3,17,08,10,036,,18,07,307,26,23,02,333,,24,00,260,*79
$GPGSV,5,4,17,17,03,136,,36,35,170,37,34,31,208,,49,34,195,*76
$GPGSV,5,5,17,61,03,257,*4B
$GLGSV,2,1,08,75,88,046,44,66,30,322,45,76,29,219,35,72,35,143,36*69
$GLGSV,2,2,08,74,31,040,,65,83,303,44,82,07,336,33,83,08,015,*6C
$GAGSV,3,1,10,03,86,090,45,02,27,189,35,13,11,287,32,24,33,051,42*65
$GAGSV,3,2,10,05,32,117,37,08,39,301,39,16,54,075,,25,62,126,39*6D
$GAGSV,3,3,10,15,00,240,,26,07,336,31*6C
$GBGSV,4,1,16,45,83,101,48,22,31,155,40,40,26,061,33,05,21,130,35*6D
$GBGSV,4,2,16,26,35,229,38,56,18,091,,36,32,056,36,42,37,309,47*61
$GBGSV,4,3,16,10,32,078,,50,60,288,,21,73,225,53,27,01,022,*65
$GBGSV,4,4,16,02,04,109,,09,09,073,,30,01,066,,60,07,112,*67
$GPGGA,081512.00,,,,,0,00,,,M,,M,,*47
$PTNL,GGK,081512.00,010125,4742.4466641,N,01617.9729368,E,1,21,1.3,EHT668.7484,M*4C
$GPGGQ,081512.00,010125,4742.4466641,N,01617.9729368,E,1,21,2.683,625.5374,M*3C
$GPGFA,081512.00,8.387,20.096,0.882,0.645,358.389,2.451,,VVV*3E
$GPLLK,081512.00,010125,,M,,M,1,21,1.5,,M*03
$GNGMP,081512.00,,,,,DAAA,21,0.7,,,,*5D
$GPGMP,081512.00,,,,,,05,,,,2.6,123*73
$GLGMP,081512.00,,,,,,04,,,,,*74
$GAGMP,081512.00,,,,,,05,,,,,*78
$GBGMP,081512.00,,,,,,07,,,,,*79
$PSSN,SNC,[0,288930000,2347]*4C
$GPZDA,081517.00,01,01,2025,,*69
$GPDTM,W84,,00.0000000,N,00.0000000,E,00.0000000,W84*5F
$GPRMC,081517.00,A,4742.4466584,N,01617.9729427,E,0.0,,010125,5.1,E,D*1E
$GPGLL,4742.4466584,N,01617.9729427,E,081517.00,A,D*6F
$GPGGA,081517.00,4742.4466584,N,01617.9729427,E,2,21,0.7,625.5292,M,43.2111,M,2.8,0123*45
$GNGNS,081517.00,4742.4466584,N,01617.9729427,E,DAAA,21,0.7,625.5292,43.2111,,*53
$GPGNS,081517.00,,,,,,05,,,,2.8,123*78
$GLGNS,081517.00,,,,,,04,,,,,*71
$GAGNS,081517.00,,,,,,05,,,,,*7D
$GBGNS,081517.00,,,,,,07,,,,,*7C
$GPLLQ,081517.00,010125,,M,,M,1,21,2.657,,M*1E
$GPVTG,,T,,M,0.01,N,0.02,K,D*25
$GPHDT,,T*1B
$GPTHS,,V*0E
$GPROT,,V*08
$PSSN,HRP,081517.00,010125,,,,,,,00,0,,*6B
$PTNL,AVR,081517.00,,Yaw,,Tilt,,,,0,,00*3D
$GPGSA,A,3,05,13,14,15,30,,,,,,,,1.3,0.7,1.1*32
$GPGSA,A,3,65,66,72,75,,,,,,,,,1.3,0.7,1.1*33
$GPGSA,A,3,03,05,08,24,25,,,,,,,,1.3,0.7,1.1*38
$GPGSA,A,3,05,21,22,26,36,42,45,,,,,,1.3,0.7,1.1*37
$GPGST,081517.00,2.481,0.879,0.642,358.762,0.878,0.642,2.424*5E
$GPGBS,081517.00,5.345,4.064,16.874,13,0.0001,1.323,0.655*6E
$GPGRS,081517.00,1,-0.4,1.3,-0.8,-0.4,0.2,,,,,,,*4F
$GPGRS,081517.00,1,-2.4,-3.4,5.1,-3.9,,,,,,,,*66
$GPGRS,081517.00,1,-0.3,-1.5,0.8,0.6,-0.7,,,,,,,*49
$GPGRS,081517.00,1,1.4,0.3,-3.5,1.3,-0.9,1.1,-1.8,,,,,*45
$GPGSV,5,1,17,13,68,307,50,20,24,203,34,07,19,071,36,15,33,303,44*7C
$GPGSV,5,2,17,05,47,236,47,22,51,164,,30,54,067,47,14,63,129,37*73
$GPGSV,5,3,17,08,10,036,,18,07,307,28,23,02,333,,24,00,260,*77
$GPGSV,5,4,17,17,03,136,,36,35,170,38,34,31,208,,49,34,195,*79
$GPGSV,5,5,17,61,03,257,*4B
$GLGSV,2,1,08,75,88,045,44,66,30,322,43,76,29,219,31,72,35,143,37*69
$GLGSV,2,2,08,74,31,040,25,65,83,303,45,82,07,336,34,83,08,015,*6D
$GAGSV,3,1,10,03,86,090,45,02,27,190,34,13,11,287,33,24,33,051,42*6D
$GAGSV,3,2,10,05,32,117,37,08,39,301,38,16,54,075,,25,62,126,38*6D
$GAGSV,3,3,10,15,00,240,,26,07,336,30*6D
$GBGSV,4,1,16,45,83,101,47,22,31,155,40,40,26,061,34,05,21,130,35*65
$GBGSV,4,2,16,26,35,229,40,56,18,091,,36,32,056,36,42,37,309,47*6E
$GBGSV,4,3,16,10,32,078,,50,60,288,,21,73,225,53,27,01,022,*65
$GBGSV,4,4,16,02,04,109,,09,09,073,,30,01,066,,60,07,112,*67
$GPGGA,081517.00,,,,,0,00,,,M,,M,,*42
$PTNL,GGK,081517.00,010125,4742.4466584,N,01617.9729427,E,1,21,1.3,EHT668.7402,M*41
$GPGGQ,081517.00,010125,4742.4466584,N,01617.9729427,E,1,21,2.657,625.5292,M*3F
$GPGFA,081517.00,8.353,19.878,0.879,0.642,358.762,2.424,,VVV*30
$GPLLK,081517.00,010125,,M,,M,1,21,1.5,,M*06
$GNGMP,081517.00,,,,,DAAA,21,0.7,,,,*58
$GPGMP,081517.00,,,,,,05,,,,2.8,123*78
$GLGMP,081517.00,,,,,,04,,,,,*71
$GAGMP,081517.00,,,,,,05,,,,,*7D
$GBGMP,081517.00,,,,,,07,,,,,*7C
$PSSN,SNC,[0,288935000,2347]*49
$GPZDA,081522.00,01,01,2025,,*6F
$GPDTM,W84,,00.0000000,N,00.0000000,E,00.0000000,W84*5F
$GPRMC,081522.00,A,4742.4466522,N,01617.9729445,E,0.0,,010125,5.1,E,D*10
$GPGLL,4742.4466522,N,01617.9729445,E,081522.00,A,D*61
$GPGGA,081522.00,4742.4466522,N,01617.9729445,E,2,21,0.7,625.5221,M,43.2111,M,3.0,0123*4A
$GNGNS,081522.00,4742.4466522,N,01617.9729445,E,DAAA,21,0.7,625.5221,43.2111,,*55
$GPGNS,081522.00,,,,,,05,,,,3.0,123*77
$GLGNS,081522.00,,,,,,04,,,,,*77
$GAGNS,081522.00,,,,,,05,,,,,*7B
$GBGNS,081522.00,,,,,,07,,,,,*7A
$GPLLQ,081522.00,010125,,M,,M,1,21,2.824,,M*12
$GPVTG,,T,,M,0.01,N,0.02,K,D*25
$GPHDT,,T*1B
$GPTHS,,V*0E
$GPROT,,V*08
$PSSN,HRP,081522.00,010125,,,,,,,00,0,,*6D
$PTNL,AVR,081522.00,,Yaw,,Tilt,,,,0,,00*3B
$GPGSA,A,3,05,13,14,15,30,,,,,,,,1.3,0.7,1.1*32
$GPGSA,A,3,65,66,72,75,,,,,,,,,1.3,0.7,1.1*33
$GPGSA,A,3,03,05,08,24,25,,,,,,,,1.3,0.7,1.1*38
$GPGSA,A,3,05,21,22,26,36,42,45,,,,,,1.3,0.7,1.1*37
$GPGST,081522.00,2.736,0.938,0.677,357.740,0.938,0.677,2.576*5F
$GPGBS,081522.00,5.368,4.007,17.156,13,0.0001,1.373,0.675*6D
$GPGRS,081522.00,1,-0.6,1.4,-0.7,-0.3,0.4,,,,,,,*42
$GPGRS,081522.00,1,-2.4,-5.6,4.5,-3.2,,,,,,,,*6A
$GPGRS,081522.00,1,-0.3,-1.3,0.0,0.5,-1.3,,,,,,,*47
$GPGRS,081522.00,1,0.6,0.1,-4.1,2.1,-0.6,0.9,-2.8,,,,,*45
$GPGSV,5,1,17,13,68,307,50,20,24,203,35,07,19,071,36,15,33,303,43*7A
$GPGSV,5,2,17,05,47,236,46,22,51,164,,30,54,067,47,14,63,129,38*7D
$GPGSV,5,3,17,08,10,036,,18,07,307,32,23,02,333,,24,00,260,*7C
$GPGSV,5,4,17,17,03,136,,36,35,170,38,34,31,208,,49,34,195,*79
$GPGSV,5,5,17,61,03,257,*4B
$GLGSV,2,1,08,75,88,045,46,66,30,322,41,76,29,219,33,72,35,143,40*6B
$GLGSV,2,2,08,74,31,040,,65,83,302,45,82,07,336,32,83,08,015,*6D
$GAGSV,3,1,10,03,86,090,45,02,27,190,33,13,11,287,33,24,33,051,42*6A
$GAGSV,3,2,10,05,32,117,37,08,39,301,38,16,54,075,,25,62,126,37*62
$GAGSV,3,3,10,15,00,240,,26,07,336,30*6D
$GBGSV,4,1,16,45,83,101,47,22,31,156,38,40,26,061,35,05,21,130,36*6B
$GBGSV,4,2,16,26,35,229,41,56,18,091,,36,32,056,35,42,37,309,47*6C
$GBGSV,4,3,16,10,32,078,,50,60,288,,21,73,224,53,27,01,022,*64
$GBGSV,4,4,16,02,04,109,,09,09,073,,30,01,066,,60,07,112,*67
$GPGGA,081522.00,,,,,0,00,,,M,,M,,*44
$PTNL,GGK,081522.00,010125,4742.4466522,N,01617.9729445,E,1,21,1.3,EHT668.7332,M*4B
$GPGGQ,081522.00,010125,4742.4466522,N,01617.9729445,E,1,21,2.824,625.5221,M*33
$GPGFA,081522.00,8.923,21.121,0.938,0.677,357.740,2.576,,VVV*3E
$GPLLK,081522.00,010125,,M,,M,1,21,1.5,,M*00
$GNGMP,081522.00,,,,,DAAA,21,0.7,,,,*5E
$GPGMP,081522.00,,,,,,05,,,,3.0,123*77
$GLGMP,081522.00,,,,,,04,,,,,*77
$GAGMP,081522.00,,,,,,05,,,,,*7B
$GBGMP,081522.00,,,,,,07,,,,,*7A
$PSSN,SNC,[0,288940000,2347]*4B
$GPZDA,081527.00,01,01,2025,,*6A
$GPDTM,W84,,00.0000000,N,00.0000000,E,00.0000000,W84*5F
$GPRMC,081527.00,A,4742.4466450,N,01617.9729467,E,0.0,,010125,5.1,E,D*11
$GPGLL,4742.4466450,N,01617.9729467,E,081527.00,A,D*60
$GPGGA,081527.00,4742.4466450,N,01617.9729467,E,2,22,0.7,625.5113,M,43.2111,M,1.6,0123*4E
$GNGNS,081527.00,4742.4466450,N,01617.9729467,E,DAAA,22,0.7,625.5113,43.2111,,*55
$GPGNS,081527.00,,,,,,05,,,,1.6,123*76
$GLGNS,081527.00,,,,,,05,,,,,*73
$GAGNS,081527.00,,,,,,05,,,,,*7E
$GBGNS,081527.00,,,,,,07,,,,,*7F
$GPLLQ,081527.00,010125,,M,,M,1,22,2.785,,M*10
$GPVTG,,T,,M,0.01,N,0.01,K,D*26
$GPHDT,,T*1B
$GPTHS,,V*0E
$GPROT,,V*08
$PSSN,HRP,081527.00,010125,,,,,,,00,0,,*68
$PTNL,AVR,081527.00,,Yaw,,Tilt,,,,0,,00*3E
$GPGSA,A,3,05,13,14,15,30,,,,,,,,1.2,0.7,1.0*32
$GPGSA,A,3,65,66,72,75,76,,,,,,,,1.2,0.7,1.0*32
$GPGSA,A,3,03,05,08,24,25,,,,,,,,1.2,0.7,1.0*38
$GPGSA,A,3,05,21,22,26,36,42,45,,,,,,1.2,0.7,1.0*37
$GPGST,081527.00,2.549,0.920,0.666,357.203,0.919,0.667,2.542*5E
$GPGBS,081527.00,5.010,3.911,16.106,13,0.0001,1.481,0.624*67
$GPGRS,081527.00,1,-0.7,1.5,-0.6,0.0,-0.1,,,,,,,*40
$GPGRS,081527.00,1,-2.0,-5.4,4.8,-3.0,-1.9,,,,,,,*6D
$GPGRS,081527.00,1,-0.4,-1.1,-0.4,0.7,0.4,,,,,,,*47
$GPGRS,081527.00,1,0.4,-0.2,-3.0,2.0,0.3,0.8,-3.1,,,,,*4A
$GPGSV,5,1,17,13,68,307,50,20,24,203,35,07,19,071,36,15,33,303,43*7A
$GPGSV,5,2,17,05,47,236,47,22,51,164,,30,54,067,47,14,63,129,38*7C
$GPGSV,5,3,17,08,10,036,,18,07,307,32,23,02,333,,24,00,260,*7C
$GPGSV,5,4,17,17,03,136,,36,35,170,38,34,31,208,,49,34,195,*79
$GPGSV,5,5,17,61,03,257,*4B
$GLGSV,2,1,08,75,88,044,46,66,30,322,43,76,29,219,37,72,35,143,41*6D
$GLGSV,2,2,08,74,31,040,,65,83,302,46,82,07,336,34,83,08,015,*68
$GAGSV,3,1,10,03,86,091,46,02,27,190,32,13,11,287,33,24,33,051,42*69
$GAGSV,3,2,10,05,32,117,37,08,39,301,38,16,54,075,,25,62,126,36*63
$GAGSV,3,3,10,15,00,240,,26,07,336,30*6D
$GBGSV,4,1,16,45,83,101,47,22,30,156,37,40,26,061,35,05,21,130,36*65
$GBGSV,4,2,16,26,35,229,42,56,18,091,,36,32,056,35,42,37,309,47*6F
$GBGSV,4,3,16,10,32,078,,50,60,288,,21,73,224,53,27,01,022,*64
$GBGSV,4,4,16,02,04,109,,09,09,073,,30,01,066,,60,07,112,*67
$GPGGA,081527.00,,,,,0,00,,,M,,M,,*41
$PTNL,GGK,081527.00,010125,4742.4466450,N,01617.9729467,E,1,22,1.2,EHT668.7223,M*49
$GPGGQ,081527.00,010125,4742.4466450,N,01617.9729467,E,1,22,2.785,625.5113,M*37
$GPGFA,081527.00,8.746,20.848,0.920,0.666,357.203,2.542,,VVV*3D
$GPLLK,081527.00,010125,,M,,M,1,22,1.4,,M*07
$GNGMP,081527.00,,,,,DAAA,22,0.7,,,,*58
$GPGMP,081527.00,,,,,,05,,,,1.6,123*76
$GLGMP,081527.00,,,,,,05,,,,,*73
$GAGMP,081527.00,,,,,,05,,,,,*7E
$GBGMP,081527.00,,,,,,07,,,,,*7F
$PSSN,SNC,[0,288945000,2347]*4E
$GPZDA,081532.00,01,01,2025,,*6E
$GPDTM,W84,,00.0000000,N,00.0000000,E,00.0000000,W84*5F
$GPRMC,081532.00,A,4742.4466327,N,01617.9729464,E,0.0,,010125,5.1,E,D*11
$GPGLL,4742.4466327,N,01617.9729464,E,081532.00,A,D*60
$GPGGA,081532.00,4742.4466327,N,01617.9729464,E,2,25,0.6,625.4958,M,43.2111,M,2.8,0123*43
$GNGNS,081532.00,4742.4466327,N,01617.9729464,E,DAAA,25,0.6,625.4958,43.2111,,*55
$GPGNS,081532.00,,,,,,06,,,,2.8,123*7C
$GLGNS,081532.00,,,,,,06,,,,,*74
$GAGNS,081532.00,,,,,,05,,,,,*7A
$GBGNS,081532.00,,,,,,08,,,,,*74
$GPLLQ,081532.00,010125,,M,,M,1,25,2.387,,M*15
$GPVTG,,T,,M,0.00,N,0.01,K,D*27
$GPHDT,,T*1B
$GPTHS,,V*0E
$GPROT,,V*08
$PSSN,HRP,081532.00,010125,,,,,,,00,0,,*6C
$PTNL,AVR,081532.00,,Yaw,,Tilt,,,,0,,00*3A
$GPGSA,A,3,05,13,14,15,20,30,,,,,,,1.0,0.6,0.8*3A
$GPGSA,A,3,65,66,72,75,76,82,,,,,,,1.0,0.6,0.8*32
$GPGSA,A,3,03,05,08,24,25,,,,,,,,1.0,0.6,0.8*32
$GPGSA,A,3,05,21,22,26,36,40,42,45,,,,,1.0,0.6,0.8*39
$GPGST,081532.00,4.046,0.830,0.722,24.558,0.812,0.741,2.119*6C
$GPGBS,081532.00,3.668,3.866,8.590,20,0.0001,-1.970,0.991*76
$GPGRS,081532.00,1,-0.4,1.2,-0.6,0.1,-2.0,0.3,,,,,,*6F
$GPGRS,081532.00,1,-1.9,-2.9,4.7,-2.8,1.4,1.5,,,,,,*65
$GPGRS,081532.00,1,-0.3,-1.2,-0.0,1.0,3.8,,,,,,,*4A
$GPGRS,081532.00,1,1.2,-0.2,-1.1,1.5,1.1,14.6,1.2,-2.3,,,,*5A
$GPGSV,5,1,17,13,68,307,49,20,24,203,36,07,19,071,35,15,33,303,42*73
$GPGSV,5,2,17,05,47,236,48,22,51,164,,30,54,067,48,14,63,129,37*73
$GPGSV,5,3,17,08,10,036,,18,07,307,27,23,02,333,,24,00,260,*78
$GPGSV,5,4,17,17,03,136,,36,35,170,38,34,31,208,,49,34,195,*79
$GPGSV,5,5,17,61,03,257,*4B
$GLGSV,2,1,08,75,87,044,47,66,30,322,45,76,29,219,39,72,34,143,43*68
$GLGSV,2,2,08,74,31,040,,65,83,302,46,82,07,336,37,83,08,015,*6B
$GAGSV,3,1,10,03,86,091,46,02,27,190,30,13,11,287,33,24,33,051,42*6B
$GAGSV,3,2,10,05,32,117,37,08,39,301,39,16,54,075,,25,62,125,35*62
$GAGSV,3,3,10,15,00,240,,26,07,336,28*64
$GBGSV,4,1,16,45,83,100,47,22,30,156,35,40,26,061,35,05,21,130,35*65
$GBGSV,4,2,16,26,35,229,42,56,18,091,,36,32,056,35,42,37,309,47*6F
$GBGSV,4,3,16,10,32,078,,50,60,288,,21,73,224,53,27,01,022,*64
$GBGSV,4,4,16,02,04,109,,09,09,073,,30,01,066,,60,07,112,*67
$GPGGA,081532.00,,,,,0,00,,,M,,M,,*45
$PTNL,GGK,081532.00,010125,4742.4466327,N,01617.9729464,E,1,25,1.0,EHT668.7068,M*41
$GPGGQ,081532.00,010125,4742.4466327,N,01617.9729464,E,1,25,2.387,625.4958,M*30
$GPGFA,081532.00,7.889,17.372,0.830,0.722,24.558,2.119,,VVV*09
$GPLLK,081532.00,010125,,M,,M,1,25,1.2,,M*02
$GNGMP,081532.00,,,,,DAAA,25,0.6,,,,*5A
$GPGMP,081532.00,,,,,,06,,,,2.8,123*7C
$GLGMP,081532.00,,,,,,06,,,,,*74
$GAGMP,081532.00,,,,,,05,,,,,*7A
$GBGMP,081532.00,,,,,,08,,,,,*74
$PSSN,SNC,[0,288950000,2347]*4A
$GPZDA,081537.00,01,01,2025,,*6B
$GPDTM,W84,,00.0000000,N,00.0000000,E,00.0000000,W84*5F
$GPRMC,081537.00,A,4742.4466187,N,01617.9729451,E,0.0,,010125,5.1,E,D*1A
$GPGLL,4742.4466187,N,01617.9729451,E,081537.00,A,D*6B
$GPGGA,081537.00,4742.4466187,N,01617.9729451,E,2,25,0.6,625.4819,M,43.2111,M,2.5,0123*41
$GNGNS,081537.00,4742.4466187,N,01617.9729451,E,DAAA,25,0.6,625.4819,43.2111,,*5A
$GPGNS,081537.00,,,,,,06,,,,2.5,123*74
$GLGNS,081537.00,,,,,,07,,,,,*70
$GAGNS,081537.00,,,,,,04,,,,,*7E
$GBGNS,081537.00,,,,,,08,,,,,*71
$GPLLQ,081537.00,010125,,M,,M,1,25,2.413,,M*1A
$GPVTG,,T,,M,0.00,N,0.00,K,D*26
$GPHDT,,T*1B
$GPTHS,,V*0E
$GPROT,,V*08
$PSSN,HRP,081537.00,010125,,,,,,,00,0,,*69
$PTNL,AVR,081537.00,,Yaw,,Tilt,,,,0,,00*3F
$GPGSA,A,3,05,13,14,15,20,30,,,,,,,1.0,0.6,0.9*3B
$GPGSA,A,3,65,66,72,74,75,76,82,,,,,,1.0,0.6,0.9*30
$GPGSA,A,3,03,05,08,24,,,,,,,,,1.0,0.6,0.9*34
$GPGSA,A,3,05,21,22,26,36,40,42,45,,,,,1.0,0.6,0.9*38
$GPGST,081537.00,4.503,0.839,0.733,26.799,0.819,0.756,2.141*69
$GPGBS,081537.00,3.666,3.902,8.584,40,0.0001,15.977,8.719*64
$GPGRS,081537.00,1,-0.5,1.0,-0.3,0.7,-1.7,0.2,,,,,,*6F
$GPGRS,081537.00,1,-2.2,-2.2,5.4,5.8,-2.3,1.8,3.1,,,,,*43
$GPGRS,081537.00,1,-0.1,-1.4,-0.2,0.4,,,,,,,,*69
$GPGRS,081537.00,1,0.1,-0.4,1.4,1.0,1.2,16.0,1.2,-2.4,,,,*76
$GPGSV,5,1,17,13,68,307,48,20,24,203,37,07,19,071,35,15,33,303,41*70
$GPGSV,5,2,17,05,47,236,48,22,51,164,,30,53,067,49,14,63,128,37*74
$GPGSV,5,3,17,08,10,036,,18,07,307,20,23,02,333,,24,01,260,*7E
$GPGSV,5,4,17,17,03,136,,36,35,170,38,34,31,208,,49,34,195,*79
$GPGSV,5,5,17,61,03,257,*4B
$GLGSV,2,1,08,75,87,043,47,66,30,322,46,76,29,219,41,72,34,143,44*64
$GLGSV,2,2,08,74,31,040,37,65,83,302,46,82,07,336,37,83,08,015,*6F
$GAGSV,3,1,10,03,86,091,47,02,28,190,35,13,11,287,33,24,33,051,41*63
$GAGSV,3,2,10,05,32,117,37,08,39,301,40,16,54,075,,25,62,125,33*6A
$GAGSV,3,3,10,15,00,240,,26,07,336,26*6A
$GBGSV,4,1,16,45,83,100,46,22,30,156,36,40,26,061,35,05,21,130,35*67
$GBGSV,4,2,16,26,35,229,42,56,18,091,,36,32,056,36,42,37,309,47*6C
$GBGSV,4,3,16,10,32,078,,50,60,288,,21,73,224,53,27,01,022,*64
$GBGSV,4,4,16,02,04,109,,09,09,073,,30,01,066,,60,07,112,*67
$GPGGA,081537.00,,,,,0,00,,,M,,M,,*40
$PTNL,GGK,081537.00,010125,4742.4466187,N,01617.9729451,E,1,25,1.0,EHT668.6929,M*47
$GPGGQ,081537.00,010125,4742.4466187,N,01617.9729451,E,1,25,2.413,625.4819,M*35
$GPGFA,081537.00,7.977,17.552,0.839,0.733,26.799,2.141,,VVV*01
$GPLLK,081537.00,010125,,M,,M,1,25,1.2,,M*07
$GNGMP,081537.00,,,,,DAAA,25,0.6,,,,*5F
$GPGMP,081537.00,,,,,,06,,,,2.5,123*74
$GLGMP,081537.00,,,,,,07,,,,,*70
$GAGMP,081537.00,,,,,,04,,,,,*7E
$GBGMP,081537.00,,,,,,08,,,,,*71
$PSSN,SNC,[0,288955000,2347]*4F
$GPZDA,081542.00,01,01,2025,,*69
$GPDTM,W84,,00.0000000,N,00.0000000,E,00.0000000,W84*5F
$GPRMC,081542.00,A,4742.4466008,N,01617.9729445,E,0.0,,010125,5.1,E,D*1B
$GPGLL,4742.4466008,N,01617.9729445,E,081542.00,A,D*6A
$GPGGA,081542.00,4742.4466008,N,01617.9729445,E,2,24,0.6,625.4644,M,43.2111,M,2.8,0123*4A
$GNGNS,081542.00,4742.4466008,N,01617.9729445,E,DAAA,24,0.6,625.4644,43.2111,,*5C
$GPGNS,081542.00,,,,,,06,,,,2.8,123*7B
$GLGNS,081542.00,,,,,,07,,,,,*72
$GAGNS,081542.00,,,,,,04,,,,,*7C
$GBGNS,081542.00,,,,,,07,,,,,*7C
$GPLLQ,081542.00,010125,,M,,M,1,24,2.081,,M*16
$GPVTG,,T,,M,0.00,N,0.00,K,D*26
$GPHDT,,T*1B
$GPTHS,,V*0E
$GPROT,,V*08
$PSSN,HRP,081542.00,010125,,,,,,,00,0,,*6B
$PTNL,AVR,081542.00,,Yaw,,Tilt,,,,0,,00*3D
$GPGSA,A,3,05,13,14,15,20,30,,,,,,,1.0,0.6,0.9*3B
$GPGSA,A,3,65,66,72,74,75,76,82,,,,,,1.0,0.6,0.9*30
$GPGSA,A,3,03,05,08,24,,,,,,,,,1.0,0.6,0.9*34
$GPGSA,A,3,05,21,22,26,36,42,45,,,,,,1.0,0.6,0.9*3C
$GPGST,081542.00,2.751,0.721,0.631,28.819,0.701,0.653,1.848*65
$GPGBS,081542.00,3.682,3.883,8.760,13,0.0001,1.064,0.677*55
$GPGRS,081542.00,1,-1.2,1.1,-0.1,0.7,-1.4,0.1,,,,,,*68
$GPGRS,081542.00,1,-2.1,-3.3,6.2,2.6,-2.1,2.6,4.2,,,,,*45
$GPGRS,081542.00,1,-0.1,-1.3,0.4,-0.4,,,,,,,,*6A
$GPGRS,081542.00,1,-0.5,-0.0,4.3,0.8,1.7,1.3,-3.1,,,,,*4B
$GPGSV,5,1,17,13,68,307,47,20,24,203,38,07,19,071,35,15,33,303,40*71
$GPGSV,5,2,17,05,47,236,47,22,51,164,,30,53,067,49,14,63,128,39*75
$GPGSV,5,3,17,08,10,036,,18,07,307,24,23,02,333,,24,01,260,*7A
$GPGSV,5,4,17,17,03,136,,36,35,170,38,34,31,208,,49,34,195,*79
$GPGSV,5,5,17,61,03,257,*4B
$GLGSV,2,1,08,75,87,043,47,66,30,322,47,76,29,219,41,72,34,143,43*62
$GLGSV,2,2,08,74,31,040,38,65,83,301,45,82,07,336,40,83,08,015,*60
$GAGSV,3,1,10,03,86,091,47,02,28,190,35,13,11,287,33,24,33,051,40*62
$GAGSV,3,2,10,05,32,117,37,08,39,301,41,16,54,075,,25,62,125,31*69
$GAGSV,3,3,10,15,00,240,,26,07,336,24*68
$GBGSV,4,1,16,45,83,100,45,22,30,156,38,40,26,061,35,05,21,130,35*6A
$GBGSV,4,2,16,26,35,229,42,56,18,091,,36,32,056,36,42,37,309,47*6C
$GBGSV,4,3,16,10,32,078,,50,60,288,,21,73,224,53,27,01,022,*64
$GBGSV,4,4,16,02,04,109,,09,09,073,,30,01,066,,60,07,112,*67
$GPGGA,081542.00,,,,,0,00,,,M,,M,,*42
$PTNL,GGK,081542.00,010125,4742.4466008,N,01617.9729445,E,1,24,1.0,EHT668.6755,M*42
$GPGGQ,081542.00,010125,4742.4466008,N,01617.9729445,E,1,24,2.081,625.4644,M*3C
$GPGFA,081542.00,6.858,15.150,0.721,0.631,28.819,1.848,,VVV*05
$GPLLK,081542.00,010125,,M,,M,1,24,1.2,,M*04
$GNGMP,081542.00,,,,,DAAA,24,0.6,,,,*5C
$GPGMP,081542.00,,,,,,06,,,,2.8,123*7B
$GLGMP,081542.00,,,,,,07,,,,,*72
$GAGMP,081542.00,,,,,,04,,,,,*7C
$GBGMP,081542.00,,,,,,07,,,,,*7C
$PSSN,SNC,[0,288960000,2347]*49
$GPZDA,081547.00,01,01,2025,,*6C
$GPDTM,W84,,00.0000000,N,00.0000000,E,00.0000000,W84*5F
$GPRMC,081547.00,A,4742.4465874,N,01617.9729349,E,0.0,,010125,5.1,E,D*15
$GPGLL,4742.4465874,N,01617.9729349,E,081547.00,A,D*64
$GPGGA,081547.00,4742.4465874,N,01617.9729349,E,2,24,0.6,625.4501,M,43.2111,M,1.8,0123*45
$GNGNS,081547.00,4742.4465874,N,01617.9729349,E,DAAA,24,0.6,625.4501,43.2111,,*50
$GPGNS,081547.00,,,,,,06,,,,1.8,123*7D
$GLGNS,081547.00,,,,,,07,,,,,*77
$GAGNS,081547.00,,,,,,04,,,,,*79
$GBGNS,081547.00,,,,,,07,,,,,*79
$GPLLQ,081547.00,010125,,M,,M,1,24,2.811,,M*12
$GPVTG,,T,,M,0.01,N,0.01,K,D*26
$GPHDT,,T*1B
$GPTHS,,V*0E
$GPROT,,V*08
$PSSN,HRP,081547.00,010125,,,,,,,00,0,,*6E
$PTNL,AVR,081547.00,,Yaw,,Tilt,,,,0,,00*38
$GPGSA,A,3,05,13,14,15,20,30,,,,,,,1.0,0.6,0.9*3B
$GPGSA,A,3,65,66,72,74,75,76,82,,,,,,1.0,0.6,0.9*30
$GPGSA,A,3,03,05,08,24,,,,,,,,,1.0,0.6,0.9*34
$GPGSA,A,3,05,21,22,26,36,42,45,,,,,,1.0,0.6,0.9*3C
$GPGST,081547.00,3.895,0.970,0.850,23.181,0.953,0.869,2.498*6A
$GPGBS,081547.00,3.635,3.779,8.466,05,0.0001,-1.896,0.705*78
$GPGRS,081547.00,1,-1.9,0.9,1.2,0.3,-1.2,-0.3,,,,,,*6D
$GPGRS,081547.00,1,-1.9,-3.8,7.5,3.4,-2.9,3.2,9.7,,,,,*40
$GPGRS,081547.00,1,-0.4,-1.5,0.3,-0.8,,,,,,,,*67
$GPGRS,081547.00,1,-0.2,0.3,5.8,1.1,1.1,1.1,-3.4,,,,,*64
$GPGSV,5,1,17,13,68,307,47,20,24,203,38,07,19,071,36,15,33,303,40*72
$GPGSV,5,2,17,05,47,236,45,22,51,164,,30,53,067,49,14,63,128,41*78
$GPGSV,5,3,17,08,10,036,,18,07,307,28,23,02,333,,24,01,260,*76
$GPGSV,5,4,17,17,03,136,,36,35,170,38,34,31,208,,49,34,195,*79
$GPGSV,5,5,17,61,03,257,*4B
$GLGSV,2,1,08,75,87,043,47,66,30,322,47,76,29,219,41,72,34,143,43*62
$GLGSV,2,2,08,74,31,040,37,65,83,301,46,82,07,336,40,83,08,015,*6C
$GAGSV,3,1,10,03,86,092,47,02,28,190,34,13,11,287,32,24,33,051,39*6F
$GAGSV,3,2,10,05,32,117,37,08,39,301,41,16,54,075,,25,62,125,28*61
$GAGSV,3,3,10,15,00,240,,26,07,336,23*6F
$GBGSV,4,1,16,45,83,099,45,22,30,156,40,40,26,061,34,05,21,130,35*65
$GBGSV,4,2,16,26,35,229,42,56,18,091,,36,32,056,38,42,37,309,48*6D
$GBGSV,4,3,16,10,32,078,,50,60,288,,21,73,224,53,27,01,022,*64
$GBGSV,4,4,16,02,04,109,,09,09,073,,30,01,066,,60,07,112,*67
$GPGGA,081547.00,,,,,0,00,,,M,,M,,*47
$PTNL,GGK,081547.00,010125,4742.4465874,N,01617.9729349,E,1,24,1.0,EHT668.6612,M*4E
$GPGGQ,081547.00,010125,4742.4465874,N,01617.9729349,E,1,24,2.811,625.4501,M*31
$GPGFA,081547.00,9.225,20.483,0.970,0.850,23.181,2.498,,VVV*00
$GPLLK,081547.00,010125,,M,,M,1,24,1.2,,M*01
$GNGMP,081547.00,,,,,DAAA,24,0.6,,,,*59
$GPGMP,081547.00,,,,,,06,,,,1.8,123*7D
$GLGMP,081547.00,,,,,,07,,,,,*77
$GAGMP,081547.00,,,,,,04,,,,,*79
$GBGMP,081547.00,,,,,,07,,,,,*79
$PSSN,SNC,[0,288965000,2347]*4C
$GPZDA,081552.00,01,01,2025,,*68
$GPDTM,W84,,00.0000000,N,00.0000000,E,00.0000000,W84*5F
$GPRMC,081552.00,A,4742.4465800,N,01617.9729285,E,0.0,,010125,5.1,E,D*13
$GPGLL,4742.4465800,N,01617.9729285,E,081552.00,A,D*62
$GPGGA,081552.00,4742.4465800,N,01617.9729285,E,2,25,0.6,625.4391,M,43.2111,M,1.8,0123*4D
$GNGNS,081552.00,4742.4465800,N,01617.9729285,E,DAAA,25,0.6,625.4391,43.2111,,*58
$GPGNS,081552.00,,,,,,06,,,,1.8,123*79
$GLGNS,081552.00,,,,,,07,,,,,*73
$GAGNS,081552.00,,,,,,05,,,,,*7C
$GBGNS,081552.00,,,,,,07,,,,,*7D
$GPLLQ,081552.00,010125,,M,,M,1,25,3.074,,M*1D
$GPVTG,,T,,M,0.01,N,0.01,K,D*26
$GPHDT,,T*1B
$GPTHS,,V*0E
$GPROT,,V*08
$PSSN,HRP,081552.00,010125,,,,,,,00,0,,*6A
$PTNL,AVR,081552.00,,Yaw,,Tilt,,,,0,,00*3C
$GPGSA,A,3,05,13,14,15,20,30,,,,,,,1.0,0.6,0.9*3B
$GPGSA,A,3,65,66,72,74,75,76,82,,,,,,1.0,0.6,0.9*30
$GPGSA,A,3,03,05,08,24,25,,,,,,,,1.0,0.6,0.9*33
$GPGSA,A,3,05,21,22,26,36,42,45,,,,,,1.0,0.6,0.9*3C
$GPGST,081552.00,5.111,1.068,0.931,26.223,1.043,0.959,2.728*67
$GPGBS,081552.00,3.618,3.850,8.502,82,0.0001,16.532,6.371*62
$GPGRS,081552.00,1,-1.8,1.1,0.8,0.1,0.1,-0.6,,,,,,*42
$GPGRS,081552.00,1,-1.4,-3.8,9.4,3.8,-3.4,4.2,16.5,,,,,*7D
$GPGRS,081552.00,1,-0.2,-1.9,-0.0,-0.3,0.5,,,,,,,*67
$GPGRS,081552.00,1,1.0,0.6,5.1,0.8,1.2,1.0,-2.7,,,,,*4A
$GPGSV,5,1,17,13,68,307,46,20,24,203,37,07,19,071,36,15,33,303,41*7D
$GPGSV,5,2,17,05,47,236,44,22,51,164,,30,53,067,49,14,63,128,41*79
$GPGSV,5,3,17,08,10,035,,18,07,307,30,23,02,333,,24,01,260,*7C
$GPGSV,5,4,17,17,03,136,,36,35,170,38,34,31,208,,49,34,195,*79
$GPGSV,5,5,17,61,03,257,*4B
$GLGSV,2,1,08,75,87,042,46,66,30,322,47,76,29,219,41,72,34,143,42*63
$GLGSV,2,2,08,74,31,040,36,65,83,301,46,82,07,335,40,83,08,015,*6E
$GAGSV,3,1,10,03,86,092,48,02,28,190,33,13,11,287,29,24,33,051,38*6C
$GAGSV,3,2,10,05,32,117,38,08,39,301,41,16,54,075,,25,62,125,26*60
$GAGSV,3,3,10,15,00,240,,26,07,336,23*6F
$GBGSV,4,1,16,45,83,099,44,22,30,156,42,40,26,061,33,05,21,130,35*61
$GBGSV,4,2,16,26,35,229,41,56,18,091,,36,32,056,38,42,37,309,48*6E
$GBGSV,4,3,16,10,32,078,,50,60,287,,21,73,224,53,27,01,022,*6B
$GBGSV,4,4,16,02,04,109,,09,09,073,,30,01,066,,60,07,112,*67
$GPGGA,081552.00,,,,,0,00,,,M,,M,,*43
$PTNL,GGK,081552.00,010125,4742.4465800,N,01617.9729285,E,1,25,1.0,EHT668.6502,M*4B
$GPGGQ,081552.00,010125,4742.4465800,N,01617.9729285,E,1,25,3.074,625.4391,M*33
$GPGFA,081552.00,10.158,22.368,1.068,0.931,26.223,2.728,,VVV*34
$GPLLK,081552.00,010125,,M,,M,1,25,1.2,,M*04
$GNGMP,081552.00,,,,,DAAA,25,0.6,,,,*5C
$GPGMP,081552.00,,,,,,06,,,,1.8,123*79
$GLGMP,081552.00,,,,,,07,,,,,*73
$GAGMP,081552.00,,,,,,05,,,,,*7C
$GBGMP,081552.00,,,,,,07,,,,,*7D
$PSSN,SNC,[0,288970000,2347]*48
$GPZDA,081557.00,01,01,2025,,*6D
$GPDTM,W84,,00.0000000,N,00.0000000,E,00.0000000,W84*5F
$GPRMC,081557.00,A,4742.4465710,N,01617.9729246,E,0.0,,010125,5.1,E,D*17
$GPGLL,4742.4465710,N,01617.9729246,E,081557.00,A,D*66
$GPGGA,081557.00,4742.4465710,N,01617.9729246,E,2,24,0.6,625.4383,M,43.2111,M,2.8,0123*48
$GNGNS,081557.00,4742.4465710,N,01617.9729246,E,DAAA,24,0.6,625.4383,43.2111,,*5E
$GPGNS,081557.00,,,,,,06,,,,2.8,123*7F
$GLGNS,081557.00,,,,,,07,,,,,*76
$GAGNS,081557.00,,,,,,04,,,,,*78
$GBGNS,081557.00,,,,,,07,,,,,*78
$GPLLQ,081557.00,010125,,M,,M,1,24,3.054,,M*1B
$GPVTG,,T,,M,0.01,N,0.02,K,D*25
$GPHDT,,T*1B
$GPTHS,,V*0E
$GPROT,,V*08
$PSSN,HRP,081557.00,010125,,,,,,,00,0,,*6F
$PTNL,AVR,081557.00,,Yaw,,Tilt,,,,0,,00*39
$GPGSA,A,3,05,13,14,15,20,30,,,,,,,1.0,0.6,0.9*3B
$GPGSA,A,3,65,66,72,74,75,76,82,,,,,,1.0,0.6,0.9*30
$GPGSA,A,3,03,05,08,24,,,,,,,,,1.0,0.6,0.9*34
$GPGSA,A,3,05,21,22,26,36,42,45,,,,,,1.0,0.6,0.9*3C
$GPGST,081557.00,6.189,1.061,0.926,28.644,1.031,0.959,2.710*6A
$GPGBS,081557.00,3.681,3.881,8.764,82,0.0001,22.934,6.383*69
$GPGRS,081557.00,1,-1.2,1.0,-0.0,0.0,-0.3,-0.2,,,,,,*43
$GPGRS,081557.00,1,-2.0,-4.7,4.7,2.5,-3.7,5.2,22.9,,,,,*7C
$GPGRS,081557.00,1,0.0,-2.4,-0.5,0.4,,,,,,,,*47
$GPGRS,081557.00,1,1.0,0.6,3.8,0.3,1.4,0.6,-1.8,,,,,*46
$GPGSV,5,1,17,13,68,307,46,20,24,203,37,07,19,071,37,15,33,303,43*7E
$GPGSV,5,2,17,05,46,236,42,22,51,164,,30,53,067,49,14,63,128,42*7D
$GPGSV,5,3,17,08,10,035,,18,07,307,35,23,02,333,,24,01,260,*79
$GPGSV,5,4,17,17,03,136,,36,35,170,38,34,31,208,,49,34,195,*79
$GPGSV,5,5,17,61,03,257,*4B
$GLGSV,2,1,08,75,87,042,45,66,30,322,46,76,29,219,42,72,34,143,41*61
$GLGSV,2,2,08,74,31,040,36,65,84,301,45,82,07,335,37,83,08,015,*6A
$GAGSV,3,1,10,03,86,092,48,02,28,190,32,13,11,287,27,24,33,051,37*6C
$GAGSV,3,2,10,05,32,117,39,08,39,301,41,16,54,075,,25,62,125,30*66
$GAGSV,3,3,10,15,00,240,,26,07,336,24*68
$GBGSV,4,1,16,45,83,099,44,22,30,156,43,40,26,061,33,05,21,130,35*60
$GBGSV,4,2,16,26,35,229,40,56,18,091,,36,32,056,40,42,37,309,48*60
$GBGSV,4,3,16,10,32,078,,50,60,287,,21,73,224,52,27,01,022,*6A
$GBGSV,4,4,16,02,04,109,,09,09,073,,30,01,066,,60,07,112,*67
$GPGGA,081557.00,,,,,0,00,,,M,,M,,*46
$PTNL,GGK,081557.00,010125,4742.4465710,N,01617.9729246,E,1,24,1.0,EHT668.6493,M*47
$GPGGQ,081557.00,010125,4742.4465710,N,01617.9729246,E,1,24,3.054,625.4383,M*37
$GPGFA,081557.00,10.085,22.219,1.061,0.926,28.644,2.710,,VVV*38
$GPLLK,081557.00,010125,,M,,M,1,24,1.2,,M*00
$GNGMP,081557.00,,,,,DAAA,24,0.6,,,,*58
$GPGMP,081557.00,,,,,,06,,,,2.8,123*7F
$GLGMP,081557.00,,,,,,07,,,,,*76
$GAGMP,081557.00,,,,,,04,,,,,*78
$GBGMP,081557.00,,,,,,07,,,,,*78
$PSSN,SNC,[0,288975000,2347]*4D
$GPZDA,081602.00,01,01,2025,,*6E
$GPDTM,W84,,00.0000000,N,00.0000000,E,00.0000000,W84*5F
$GPRMC,081602.00,A,4742.4465579,N,01617.9729230,E,0.0,,010125,5.1,E,D*18
$GPGLL,4742.4465579,N,01617.9729230,E,081602.00,A,D*69
$GPGGA,081602.00,4742.4465579,N,01617.9729230,E,2,23,0.6,625.4445,M,43.2111,M,1.8,0123*4E
$GNGNS,081602.00,4742.4465579,N,01617.9729230,E,DAAA,23,0.6,625.4445,43.2111,,*5B
$GPGNS,081602.00,,,,,,06,,,,1.8,123*7F
$GLGNS,081602.00,,,,,,06,,,,,*74
$GAGNS,081602.00,,,,,,04,,,,,*7B
$GBGNS,081602.00,,,,,,07,,,,,*7B
$GPLLQ,081602.00,010125,,M,,M,1,23,2.483,,M*10
$GPVTG,,T,,M,0.00,N,0.01,K,D*27
$GPHDT,,T*1B
$GPTHS,,V*0E
$GPROT,,V*08
$PSSN,HRP,081602.00,010125,,,,,,,00,0,,*6C
$PTNL,AVR,081602.00,,Yaw,,Tilt,,,,0,,00*3A
$GPGSA,A,3,05,13,14,15,20,30,,,,,,,1.2,0.6,1.0*31
$GPGSA,A,3,65,66,72,74,75,76,,,,,,,1.2,0.6,1.0*30
$GPGSA,A,3,03,05,08,24,,,,,,,,,1.2,0.6,1.0*3E
$GPGSA,A,3,05,21,22,26,36,42,45,,,,,,1.2,0.6,1.0*36
$GPGST,081602.00,2.888,0.805,0.737,11.409,0.802,0.740,2.230*69
$GPGBS,081602.00,3.768,3.809,8.657,05,0.0001,-1.945,0.718*78
$GPGRS,081602.00,1,-1.9,1.1,0.5,-0.2,-0.7,0.0,,,,,,*66
$GPGRS,081602.00,1,-2.6,-6.0,-0.2,3.7,-4.5,5.7,,,,,,*44
$GPGRS,081602.00,1,-0.2,-2.2,-0.7,1.0,,,,,,,,*6A
$GPGRS,081602.00,1,0.0,0.6,2.6,0.5,1.5,0.5,-1.8,,,,,*4F
$GPGSV,5,1,17,13,69,307,46,20,24,203,37,07,19,071,37,15,34,303,44*7F
$GPGSV,5,2,17,05,46,236,38,22,51,164,,30,53,067,49,14,63,128,44*76
$GPGSV,5,3,17,08,10,035,,18,07,307,36,23,02,333,,24,01,260,*7A
$GPGSV,5,4,17,17,03,136,,36,35,170,38,34,31,208,,49,34,195,*79
$GPGSV,5,5,17,61,03,257,*4B
$GLGSV,2,1,08,75,87,042,44,66,30,322,45,76,29,219,42,72,34,143,42*60
$GLGSV,2,2,08,74,30,040,37,65,84,300,44,82,07,335,31,83,08,015,*6C
$GAGSV,3,1,10,03,85,093,48,02,28,190,31,13,11,287,24,24,33,051,37*6E
$GAGSV,3,2,10,05,32,117,39,08,39,301,41,16,54,075,,25,62,125,33*65
$GAGSV,3,3,10,15,00,240,,26,07,336,24*68
$GBGSV,4,1,16,45,83,099,44,22,30,156,44,40,26,061,33,05,21,130,35*67
$GBGSV,4,2,16,26,36,229,39,56,18,091,,36,32,056,41,42,37,309,48*6C
$GBGSV,4,3,16,10,32,078,,50,61,287,,21,73,224,53,27,01,022,*6A
$GBGSV,4,4,16,02,04,109,,09,09,073,,30,01,066,,60,07,112,*67
$GPGGA,081602.00,,,,,0,00,,,M,,M,,*45
$PTNL,GGK,081602.00,010125,4742.4465579,N,01617.9729230,E,1,23,1.2,EHT668.6555,M*46
$GPGGQ,081602.00,010125,4742.4465579,N,01617.9729230,E,1,23,2.483,625.4445,M*3D
$GPGFA,081602.00,7.651,18.286,0.805,0.737,11.409,2.230,,VVV*0E
$GPLLK,081602.00,010125,,M,,M,1,23,1.4,,M*02
$GNGMP,081602.00,,,,,DAAA,23,0.6,,,,*5C
$GPGMP,081602.00,,,,,,06,,,,1.8,123*7F
$GLGMP,081602.00,,,,,,06,,,,,*74
$GAGMP,081602.00,,,,,,04,,,,,*7B
$GBGMP,081602.00,,,,,,07,,,,,*7B
$PSSN,SNC,[0,288980000,2347]*47
$GPZDA,081607.00,01,01,2025,,*6B
$GPDTM,W84,,00.0000000,N,00.0000000,E,00.0000000,W84*5F
$GPRMC,081607.00,A,4742.4465579,N,01617.9729172,E,0.0,,010125,5.1,E,D*18
$GPGLL,4742.4465579,N,01617.9729172,E,081607.00,A,D*69
$GPGGA,081607.00,4742.4465579,N,01617.9729172,E,2,21,0.6,625.4311,M,43.2111,M,3.0,0123*40
$GNGNS,081607.00,4742.4465579,N,01617.9729172,E,DAAA,21,0.6,625.4311,43.2111,,*5F
$GPGNS,081607.00,,,,,,05,,,,3.0,123*73
$GLGNS,081607.00,,,,,,06,,,,,*71
$GAGNS,081607.00,,,,,,04,,,,,*7E
$GBGNS,081607.00,,,,,,06,,,,,*7F
$GPLLQ,081607.00,010125,,M,,M,1,21,2.322,,M*1B
$GPVTG,,T,,M,0.01,N,0.01,K,D*26
$GPHDT,,T*1B
$GPTHS,,V*0E
$GPROT,,V*08
$PSSN,HRP,081607.00,010125,,,,,,,00,0,,*69
$PTNL,AVR,081607.00,,Yaw,,Tilt,,,,0,,00*3F
$GPGSA,A,3,13,14,15,20,30,,,,,,,,1.2,0.6,1.1*35
$GPGSA,A,3,65,66,72,74,75,76,,,,,,,1.2,0.6,1.1*31
$GPGSA,A,3,03,05,08,24,,,,,,,,,1.2,0.6,1.1*3F
$GPGSA,A,3,21,22,26,36,42,45,,,,,,,1.2,0.6,1.1*32
$GPGST,081607.00,3.283,0.932,0.662,39.406,0.834,0.782,2.020*65
$GPGBS,081607.00,3.960,5.007,10.771,14,0.0001,1.200,0.649*65
$GPGRS,081607.00,1,0.5,1.2,-0.5,-0.4,-0.9,,,,,,,*4B
$GPGRS,081607.00,1,-3.7,-6.8,1.4,3.2,-5.5,5.5,,,,,,*65
$GPGRS,081607.00,1,-0.9,-2.5,-0.8,0.4,,,,,,,,*69
$GPGRS,081607.00,1,-0.1,1.1,0.6,0.5,-0.7,-2.3,,,,,,*6F
$GPGSV,5,1,17,13,69,307,46,20,24,203,36,07,19,071,37,15,34,303,45*7F
$GPGSV,5,2,17,05,46,236,35,22,51,164,,30,53,067,48,14,64,128,45*7C
$GPGSV,5,3,17,08,10,035,,18,07,307,33,23,02,333,,24,01,260,*7F
$GPGSV,5,4,17,17,03,136,,36,35,170,38,34,31,208,,49,34,195,*79
$GPGSV,5,5,17,61,03,257,*4B
$GLGSV,2,1,08,75,87,041,45,66,30,322,43,76,29,219,41,72,34,143,43*66
$GLGSV,2,2,08,74,30,040,38,65,84,300,44,82,07,335,28,83,08,015,*6B
$GAGSV,3,1,10,03,85,093,48,02,28,190,32,13,11,287,27,24,33,051,36*6F
$GAGSV,3,2,10,05,32,117,40,08,39,301,40,16,54,075,,25,62,125,33*6A
$GAGSV,3,3,10,15,00,240,,26,07,336,24*68
$GBGSV,4,1,16,45,83,098,44,22,30,156,45,40,26,061,32,05,21,130,35*66
$GBGSV,4,2,16,26,36,229,38,56,18,091,,36,32,056,41,42,37,309,47*62
$GBGSV,4,3,16,10,32,078,,50,61,287,,21,73,223,53,27,01,022,*6D
$GBGSV,4,4,16,02,04,109,,09,09,073,,30,01,066,,60,07,112,*67
$GPGGA,081607.00,,,,,0,00,,,M,,M,,*40
$PTNL,GGK,081607.00,010125,4742.4465579,N,01617.9729172,E,1,21,1.2,EHT668.6422,M*45
$GPGGQ,081607.00,010125,4742.4465579,N,01617.9729172,E,1,21,2.322,625.4311,M*35
$GPGFA,081607.00,8.866,16.568,0.932,0.662,39.406,2.020,,VVV*05
$GPLLK,081607.00,010125,,M,,M,1,21,1.4,,M*05
$GNGMP,081607.00,,,,,DAAA,21,0.6,,,,*5B
$GPGMP,081607.00,,,,,,05,,,,3.0,123*73
$GLGMP,081607.00,,,,,,06,,,,,*71
$GAGMP,081607.00,,,,,,04,,,,,*7E
$GBGMP,081607.00,,,,,,06,,,,,*7F
$PSSN,SNC,[0,288985000,2347]*42
$GPZDA,081612.00,01,01,2025,,*6F
$GPDTM,W84,,00.0000000,N,00.0000000,E,00.0000000,W84*5F
$GPRMC,081612.00,A,4742.4465658,N,01617.9729187,E,0.0,,010125,5.1,E,D*16
$GPGLL,4742.4465658,N,01617.9729187,E,081612.00,A,D*67
$GPGGA,081612.00,4742.4465658,N,01617.9729187,E,2,20,0.7,625.4132,M,43.2111,M,2.4,0123*48
$GNGNS,081612.00,4742.4465658,N,01617.9729187,E,DAAA,20,0.7,625.4132,43.2111,,*52
$GPGNS,081612.00,,,,,,05,,,,2.4,123*72
$GLGNS,081612.00,,,,,,06,,,,,*75
$GAGNS,081612.00,,,,,,03,,,,,*7D
$GBGNS,081612.00,,,,,,06,,,,,*7B
$GPLLQ,081612.00,010125,,M,,M,1,20,3.066,,M*1C
$GPVTG,,T,,M,0.01,N,0.01,K,D*26
$GPHDT,,T*1B
$GPTHS,,V*0E
$GPROT,,V*08
$PSSN,HRP,081612.00,010125,,,,,,,00,0,,*6D
$PTNL,AVR,081612.00,,Yaw,,Tilt,,,,0,,00*3B
$GPGSA,A,3,13,14,15,20,30,,,,,,,,1.3,0.7,1.1*35
$GPGSA,A,3,65,66,72,74,75,76,,,,,,,1.3,0.7,1.1*31
$GPGSA,A,3,03,05,08,,,,,,,,,,1.3,0.7,1.1*39
$GPGSA,A,3,21,22,26,36,42,45,,,,,,,1.3,0.7,1.1*32
$GPGST,081612.00,3.573,1.237,0.867,40.574,1.096,1.040,2.668*64
$GPGBS,081612.00,3.994,5.213,11.234,14,0.0001,1.729,0.665*68
$GPGRS,081612.00,1,0.5,1.7,-0.8,0.1,-1.6,,,,,,,*61
$GPGRS,081612.00,1,-3.4,-6.1,4.1,3.1,-5.3,5.9,,,,,,*62
$GPGRS,081612.00,1,-1.5,-2.5,-0.3,,,,,,,,,*41
$GPGRS,081612.00,1,-0.5,0.4,2.2,-0.1,-1.0,-2.4,,,,,,*45
$GPGSV,5,1,17,13,69,307,47,20,24,203,36,07,19,071,36,15,34,303,46*7C
$GPGSV,5,2,17,05,46,236,39,22,51,164,,30,53,067,47,14,64,128,46*7C
$GPGSV,5,3,17,08,10,035,,18,07,307,36,23,02,333,,24,01,260,*7A
$GPGSV,5,4,17,17,03,136,,36,35,170,38,34,31,208,,49,34,195,*79
$GPGSV,5,5,17,61,03,257,*4B
$GLGSV,2,1,08,75,87,041,46,66,30,322,43,76,29,219,38,72,34,143,43*6B
$GLGSV,2,2,08,74,30,040,39,65,84,300,45,82,07,335,,83,08,015,*61
$GAGSV,3,1,10,03,85,093,47,02,28,190,33,13,11,287,27,24,33,051,35*62
$GAGSV,3,2,10,05,31,117,41,08,39,301,40,16,54,075,,25,62,125,31*6A
$GAGSV,3,3,10,15,00,240,,26,07,336,25*69
$GBGSV,4,1,16,45,83,098,44,22,30,156,45,40,26,061,32,05,21,130,34*67
$GBGSV,4,2,16,26,36,229,39,56,18,091,,36,32,056,42,42,37,309,46*61
$GBGSV,4,3,16,10,32,078,,50,61,287,,21,73,223,53,27,01,022,*6D
$GBGSV,4,4,16,02,04,109,,09,09,073,,30,01,066,,60,07,112,*67
$GPGGA,081612.00,,,,,0,00,,,M,,M,,*44
$PTNL,GGK,081612.00,010125,4742.4465658,N,01617.9729187,E,1,20,1.3,EHT668.6243,M*4A
$GPGGQ,081612.00,010125,4742.4465658,N,01617.9729187,E,1,20,3.066,625.4132,M*3B
$GPGFA,081612.00,11.760,21.876,1.237,0.867,40.574,2.668,,VVV*32
$GPLLK,081612.00,010125,,M,,M,1,20,1.5,,M*01
$GNGMP,081612.00,,,,,DAAA,20,0.7,,,,*5F
$GPGMP,081612.00,,,,,,05,,,,2.4,123*72
$GLGMP,081612.00,,,,,,06,,,,,*75
$GAGMP,081612.00,,,,,,03,,,,,*7D
$GBGMP,081612.00,,,,,,06,,,,,*7B
$PSSN,SNC,[0,288990000,2347]*46
$GPZDA,081617.00,01,01,2025,,*6A
$GPDTM,W84,,00.0000000,N,00.0000000,E,00.0000000,W84*5F
$GPRMC,081617.00,A,4742.4465689,N,01617.9729227,E,0.0,,010125,5.1,E,D*16
$GPGLL,4742.4465689,N,01617.9729227,E,081617.00,A,D*67
$GPGGA,081617.00,4742.4465689,N,01617.9729227,E,2,18,0.7,625.4028,M,43.2111,M,2.8,0123*45
$GNGNS,081617.00,4742.4465689,N,01617.9729227,E,DAAA,18,0.7,625.4028,43.2111,,*53
$GPGNS,081617.00,,,,,,04,,,,2.8,123*7A
$GLGNS,081617.00,,,,,,05,,,,,*73
$GAGNS,081617.00,,,,,,03,,,,,*78
$GBGNS,081617.00,,,,,,06,,,,,*7E
$GPLLQ,081617.00,010125,,M,,M,1,18,3.044,,M*12
$GPVTG,,T,,M,0.00,N,0.01,K,D*27
$GPHDT,,T*1B
$GPTHS,,V*0E
$GPROT,,V*08
$PSSN,HRP,081617.00,010125,,,,,,,00,0,,*68
$PTNL,AVR,081617.00,,Yaw,,Tilt,,,,0,,00*3E
$GPGSA,A,3,05,13,15,30,,,,,,,,,1.4,0.7,1.2*33
$GPGSA,A,3,65,66,72,74,75,,,,,,,,1.4,0.7,1.2*34
$GPGSA,A,3,03,05,08,,,,,,,,,,1.4,0.7,1.2*3D
$GPGSA,A,3,21,22,26,36,42,45,,,,,,,1.4,0.7,1.2*36
$GPGST,081617.00,3.512,1.166,0.740,344.404,1.140,0.779,2.713*51
$GPGBS,081617.00,7.570,5.243,17.835,30,0.0001,-1.408,0.664*4D
$GPGRS,081617.00,1,0.5,0.9,-0.0,-1.4,,,,,,,,*4E
$GPGRS,081617.00,1,-2.5,-3.8,6.3,4.5,-3.9,,,,,,,*46
$GPGRS,081617.00,1,-1.1,-1.7,0.8,,,,,,,,,*67
$GPGRS,081617.00,1,0.2,0.7,5.3,-0.0,-0.2,-1.9,,,,,,*63
$GPGSV,5,1,17,13,69,307,48,20,24,203,35,07,19,071,35,15,34,303,47*72
$GPGSV,5,2,17,05,46,236,42,22,51,164,,30,53,067,46,14,64,128,46*71
$GPGSV,5,3,17,08,10,035,,18,07,307,35,23,02,333,,24,01,260,*79
$GPGSV,5,4,17,17,04,136,,36,35,170,38,34,31,208,,49,34,195,*7E
$GPGSV,5,5,17,61,03,257,*4B
$GLGSV,2,1,08,75,87,041,47,66,30,322,45,76,30,219,32,72,34,143,43*6E
$GLGSV,2,2,08,74,30,040,39,65,84,300,46,82,07,335,32,83,08,015,*63
$GAGSV,3,1,09,03,85,093,47,02,28,190,34,13,11,287,25,24,33,051,34*6E
$GAGSV,3,2,09,05,31,117,41,08,39,301,41,16,54,075,,25,63,125,29*6B
$GAGSV,3,3,09,26,07,336,25*53
$GBGSV,4,1,16,45,83,098,43,22,30,156,45,40,26,060,32,05,21,130,35*60
$GBGSV,4,2,16,26,36,229,40,56,18,091,,36,32,056,42,42,37,309,46*6F
$GBGSV,4,3,16,10,32,078,,50,61,287,,21,73,223,53,27,01,022,*6D
$GBGSV,4,4,16,02,04,109,,09,09,073,,30,01,066,,60,07,112,*67
$GPGGA,081617.00,,,,,0,00,,,M,,M,,*41
$PTNL,GGK,081617.00,010125,4742.4465689,N,01617.9729227,E,1,18,1.4,EHT668.6138,M*49
$GPGGQ,081617.00,010125,4742.4465689,N,01617.9729227,E,1,18,3.044,625.4028,M*3A
$GPGFA,081617.00,11.082,22.248,1.166,0.740,344.404,2.713,,VVV*09
$GPLLK,081617.00,010125,,M,,M,1,18,1.6,,M*0C
$GNGMP,081617.00,,,,,DAAA,18,0.7,,,,*51
$GPGMP,081617.00,,,,,,04,,,,2.8,123*7A
$GLGMP,081617.00,,,,,,05,,,,,*73
$GAGMP,081617.00,,,,,,03,,,,,*78
$GBGMP,081617.00,,,,,,06,,,,,*7E
$PSSN,SNC,[0,288995000,2347]*43
$GPZDA,081622.00,01,01,2025,,*6C
$GPDTM,W84,,00.0000000,N,00.0000000,E,00.0000000,W84*5F
$GPRMC,081622.00,A,4742.4465724,N,01617.9729380,E,0.0,,010125,5.1,E,D*1A
$GPGLL,4742.4465724,N,01617.9729380,E,081622.00,A,D*6B
$GPGGA,081622.00,4742.4465724,N,01617.9729380,E,2,18,0.7,625.3954,M,43.2111,M,1.8,0123*4F
$GNGNS,081622.00,4742.4465724,N,01617.9729380,E,DAAA,18,0.7,625.3954,43.2111,,*5A
$GPGNS,081622.00,,,,,,04,,,,1.8,123*7F
$GLGNS,081622.00,,,,,,05,,,,,*75
$GAGNS,081622.00,,,,,,03,,,,,*7E
$GBGNS,081622.00,,,,,,06,,,,,*78
$GPLLQ,081622.00,010125,,M,,M,1,18,2.815,,M*19
$GPVTG,,T,,M,0.01,N,0.01,K,D*26
$GPHDT,,T*1B
$GPTHS,,V*0E
$GPROT,,V*08
$PSSN,HRP,081622.00,010125,,,,,,,00,0,,*6E
$PTNL,AVR,081622.00,,Yaw,,Tilt,,,,0,,00*38
$GPGSA,A,3,05,13,15,30,,,,,,,,,1.4,0.7,1.2*33
$GPGSA,A,3,65,66,72,74,75,,,,,,,,1.4,0.7,1.2*34
$GPGSA,A,3,03,05,08,,,,,,,,,,1.4,0.7,1.2*3D
$GPGSA,A,3,21,22,26,36,42,45,,,,,,,1.4,0.7,1.2*36
$GPGST,081622.00,3.199,1.080,0.678,344.386,1.056,0.715,2.510*53
$GPGBS,081622.00,7.218,5.335,16.980,30,0.0001,-1.370,0.678*49
$GPGRS,081622.00,1,0.3,0.6,0.1,-1.4,,,,,,,,*6D
$GPGRS,081622.00,1,-2.0,-2.7,4.6,4.7,-2.6,,,,,,,*40
$GPGRS,081622.00,1,-1.3,-1.8,1.5,,,,,,,,,*60
$GPGRS,081622.00,1,0.4,1.2,6.2,-1.2,0.2,-0.9,,,,,,*4A
$GPGSV,5,1,17,13,69,307,48,20,24,203,34,07,19,071,33,15,34,303,47*75
$GPGSV,5,2,17,05,46,236,44,22,51,164,,30,53,067,46,14,64,128,46*77
$GPGSV,5,3,17,08,10,035,,18,07,307,32,23,02,333,,24,01,260,*7E
$GPGSV,5,4,17,17,04,136,,36,35,170,38,34,31,208,,49,34,195,*7E
$GPGSV,5,5,17,61,03,257,*4B
$GLGSV,2,1,08,75,87,041,48,66,30,322,47,76,30,219,31,72,34,143,41*62
$GLGSV,2,2,08,74,30,040,39,65,84,299,46,82,07,335,27,83,08,015,*66
$GAGSV,3,1,09,03,85,094,47,02,28,190,35,13,11,287,26,24,33,051,34*6B
$GAGSV,3,2,09,05,31,117,40,08,39,301,41,16,54,075,,25,63,125,30*62
$GAGSV,3,3,09,26,07,336,25*53
$GBGSV,4,1,16,45,83,098,45,22,30,156,45,40,26,060,32,05,21,130,35*66
$GBGSV,4,2,16,26,36,229,41,56,18,090,,36,32,056,41,42,37,309,45*6F
$GBGSV,4,3,16,10,32,078,,50,61,287,,21,73,223,53,27,01,022,*6D
$GBGSV,4,4,16,02,04,109,,09,09,073,,30,01,066,,60,07,112,*67
$GPGGA,081622.00,,,,,0,00,,,M,,M,,*47
$PTNL,GGK,081622.00,010125,4742.4465724,N,01617.9729380,E,1,18,1.4,EHT668.6065,M*4C
$GPGGQ,081622.00,010125,4742.4465724,N,01617.9729380,E,1,18,2.815,625.3954,M*3E
$GPGFA,081622.00,10.271,20.581,1.080,0.678,344.386,2.510,,VVV*0F
$GPLLK,081622.00,010125,,M,,M,1,18,1.6,,M*0A
$GNGMP,081622.00,,,,,DAAA,18,0.7,,,,*57
$GPGMP,081622.00,,,,,,04,,,,1.8,123*7F
$GLGMP,081622.00,,,,,,05,,,,,*75
$GAGMP,081622.00,,,,,,03,,,,,*7E
$GBGMP,081622.00,,,,,,06,,,,,*78
$PSSN,SNC,[0,289000000,2347]*47
$GPZDA,081627.00,01,01,2025,,*69
$GPDTM,W84,,00.0000000,N,00.0000000,E,00.0000000,W84*5F
$GPRMC,081627.00,A,4742.4465733,N,01617.9729465,E,0.0,,010125,5.1,E,D*15
$GPGLL,4742.4465733,N,01617.9729465,E,081627.00,A,D*64
$GPGGA,081627.00,4742.4465733,N,01617.9729465,E,2,20,0.7,625.3870,M,43.2111,M,2.8,0123*4F
$GNGNS,081627.00,4742.4465733,N,01617.9729465,E,DAAA,20,0.7,625.3870,43.2111,,*59
$GPGNS,081627.00,,,,,,04,,,,2.8,123*79
$GLGNS,081627.00,,,,,,06,,,,,*73
$GAGNS,081627.00,,,,,,04,,,,,*7C
$GBGNS,081627.00,,,,,,06,,,,,*7D
$GPLLQ,081627.00,010125,,M,,M,1,20,2.376,,M*19
$GPVTG,,T,,M,0.00,N,0.01,K,D*27
$GPHDT,,T*1B
$GPTHS,,V*0E
$GPROT,,V*08
$PSSN,HRP,081627.00,010125,,,,,,,00,0,,*6B
$PTNL,AVR,081627.00,,Yaw,,Tilt,,,,0,,00*3D
$GPGSA,A,3,05,13,15,30,,,,,,,,,1.3,0.7,1.1*37
$GPGSA,A,3,65,66,72,74,75,76,,,,,,,1.3,0.7,1.1*31
$GPGSA,A,3,02,03,05,08,,,,,,,,,1.3,0.7,1.1*3B
$GPGSA,A,3,21,22,26,36,42,45,,,,,,,1.3,0.7,1.1*32
$GPGST,081627.00,3.473,0.902,0.585,342.576,0.879,0.620,2.119*55
$GPGBS,081627.00,6.931,5.413,16.755,13,0.0001,0.648,0.633*64
$GPGRS,081627.00,1,-0.6,0.6,0.3,-0.6,,,,,,,,*41
$GPGRS,081627.00,1,-2.1,-1.9,4.1,5.7,-2.4,-4.9,,,,,,*43
$GPGRS,081627.00,1,0.0,-0.8,-1.7,2.1,,,,,,,,*49
$GPGRS,081627.00,1,0.6,1.8,6.8,-3.2,0.9,0.3,,,,,,*63
$GPGSV,5,1,17,13,69,307,48,20,24,203,33,07,19,071,32,15,34,303,46*72
$GPGSV,5,2,17,05,46,236,45,22,51,164,,30,53,067,46,14,64,128,45*75
$GPGSV,5,3,17,08,10,035,,18,07,307,26,23,02,333,,24,01,260,*7B
$GPGSV,5,4,17,17,04,136,,36,35,170,38,34,31,208,,49,34,195,*7E
$GPGSV,5,5,17,61,03,257,*4B
$GLGSV,2,1,08,75,87,040,49,66,30,322,48,76,30,219,38,72,34,143,40*65
$GLGSV,2,2,08,74,30,040,38,65,84,299,46,82,07,335,,83,08,015,*62
$GAGSV,3,1,09,03,85,094,47,02,28,190,36,13,11,287,27,24,33,050,34*68
$GAGSV,3,2,09,05,31,117,39,08,39,301,42,16,54,075,,25,63,125,32*6D
$GAGSV,3,3,09,26,07,336,25*53
$GBGSV,4,1,16,45,83,098,46,22,30,156,45,40,26,060,33,05,21,130,35*64
$GBGSV,4,2,16,26,36,229,41,56,18,090,,36,32,056,41,42,37,309,44*6E
$GBGSV,4,3,16,10,32,078,,50,61,287,,21,73,223,52,27,01,022,*6C
$GBGSV,4,4,16,02,04,109,,09,09,073,,30,01,066,,60,07,112,*67
$GPGGA,081627.00,,,,,0,00,,,M,,M,,*42
$PTNL,GGK,081627.00,010125,4742.4465733,N,01617.9729465,E,1,20,1.3,EHT668.5980,M*4E
$GPGGQ,081627.00,010125,4742.4465733,N,01617.9729465,E,1,20,2.376,625.3870,M*33
$GPGFA,081627.00,8.580,17.376,0.902,0.585,342.576,2.119,,VVV*31
$GPLLK,081627.00,010125,,M,,M,1,20,1.5,,M*07
$GNGMP,081627.00,,,,,DAAA,20,0.7,,,,*59
$GPGMP,081627.00,,,,,,04,,,,2.8,123*79
$GLGMP,081627.00,,,,,,06,,,,,*73
$GAGMP,081627.00,,,,,,04,,,,,*7C
$GBGMP,081627.00,,,,,,06,,,,,*7D
$PSSN,SNC,[0,289005000,2347]*42
$GPZDA,081632.00,01,01,2025,,*6D
$GPDTM,W84,,00.0000000,N,00.0000000,E,00.0000000,W84*5F
$GPRMC,081632.00,A,4742.4465686,N,01617.9729465,E,0.0,,010125,5.1,E,D*1E
$GPGLL,4742.4465686,N,01617.9729465,E,081632.00,A,D*6F
$GPGGA,081632.00,4742.4465686,N,01617.9729465,E,2,22,0.6,625.3859,M,43.2111,M,2.4,0123*40
$GNGNS,081632.00,4742.4465686,N,01617.9729465,E,DAAA,22,0.6,625.3859,43.2111,,*5A
$GPGNS,081632.00,,,,,,05,,,,2.4,123*70
$GLGNS,081632.00,,,,,,06,,,,,*77
$GAGNS,081632.00,,,,,,04,,,,,*78
$GBGNS,081632.00,,,,,,07,,,,,*78
$GPLLQ,081632.00,010125,,M,,M,1,22,2.343,,M*19
$GPVTG,,T,,M,0.00,N,0.01,K,D*27
$GPHDT,,T*1B
$GPTHS,,V*0E
$GPROT,,V*08
$PSSN,HRP,081632.00,010125,,,,,,,00,0,,*6F
$PTNL,AVR,081632.00,,Yaw,,Tilt,,,,0,,00*39
$GPGSA,A,3,05,13,15,18,30,,,,,,,,1.1,0.6,0.9*34
$GPGSA,A,3,65,66,72,74,75,76,,,,,,,1.1,0.6,0.9*3B
$GPGSA,A,3,02,03,05,08,,,,,,,,,1.1,0.6,0.9*31
$GPGSA,A,3,05,21,22,26,36,42,45,,,,,,1.1,0.6,0.9*3D
$GPGST,081632.00,4.040,1.141,0.760,341.417,1.109,0.807,1.900*57
$GPGBS,081632.00,7.011,5.395,10.589,05,0.0001,-1.365,0.725*41
$GPGRS,081632.00,1,-1.4,0.8,0.2,1.1,-0.2,,,,,,,*63
$GPGRS,081632.00,1,-2.6,-1.3,5.1,3.4,-3.1,10.3,,,,,,*58
$GPGRS,081632.00,1,0.3,-0.3,-1.6,1.8,,,,,,,,*4E
$GPGRS,081632.00,1,-0.4,0.1,0.5,6.9,-4.8,0.9,0.4,,,,,*60
$GPGSV,5,1,17,13,69,307,47,20,24,203,32,07,19,071,29,15,34,303,45*75
$GPGSV,5,2,17,05,46,236,46,22,52,164,,30,53,067,46,14,64,128,45*75
$GPGSV,5,3,17,08,10,035,,18,07,307,38,23,02,333,,24,01,260,*74
$GPGSV,5,4,17,17,04,136,,36,35,170,38,34,31,208,,49,34,195,*7E
$GPGSV,5,5,17,61,03,257,*4B
$GLGSV,2,1,08,75,87,040,49,66,30,322,49,76,30,219,38,72,34,143,40*64
$GLGSV,2,2,08,74,30,040,37,65,84,299,46,82,07,335,,83,08,014,*6C
$GAGSV,3,1,09,03,85,094,46,02,28,190,35,13,11,287,31,24,33,050,34*6D
