$GPZDA,091442.00,01,01,2025,,*69
$GPDTM,W84,,00.0000000,N,00.0000000,E,00.0000000,W84*5F
$GPRMC,091442.00,A,4742.4462389,N,01617.9737959,E,0.0,,010125,5.1,E,D*1A
$GPGLL,4742.4462389,N,01617.9737959,E,091442.00,A,D*6B
$GPGGA,091442.00,4742.4462389,N,01617.9737959,E,2,21,0.9,624.3574,M,43.2110,M,3.0,0123*4F
$GNGNS,091442.00,4742.4462389,N,01617.9737959,E,DAAA,21,0.9,624.3574,43.2110,,*50
$GPGNS,091442.00,,,,,,05,,,,3.0,123*71
$GLGNS,091442.00,,,,,,05,,,,,*70
$GAGNS,091442.00,,,,,,05,,,,,*7D
$GBGNS,091442.00,,,,,,06,,,,,*7D
$GPLLQ,091442.00,010125,,M,,M,1,21,4.194,,M*10
$GPVTG,,T,,M,0.01,N,0.01,K,D*26
$GPHDT,,T*1B
$GPTHS,,V*0E
$GPROT,,V*08
$PSSN,HRP,091442.00,010125,,,,,,,00,0,,*6B
$PTNL,AVR,091442.00,,Yaw,,Tilt,,,,0,,00*3D
$GPGSA,A,3,13,14,15,23,30,,,,,,,,1.5,0.9,1.2*3D
$GPGSA,A,3,65,66,67,75,76,,,,,,,,1.5,0.9,1.2*3D
$GPGSA,A,3,02,03,07,08,25,,,,,,,,1.5,0.9,1.2*35
$GPGSA,A,3,14,21,26,33,42,45,,,,,,,1.5,0.9,1.2*39
$GPGST,091442.00,3.317,2.906,0.696,9.959,2.865,0.850,2.943*5B
$GPGBS,091442.00,13.449,4.509,13.250,30,0.0001,2.324,0.951*5B
$GPGRS,091442.00,1,-0.2,-1.0,0.3,-0.6,2.3,,,,,,,*40
$GPGRS,091442.00,1,-2.8,-1.2,9.5,-2.5,-2.4,,,,,,,*6E
$GPGRS,091442.00,1,-0.7,-0.4,-1.8,0.5,-0.1,,,,,,,*64
$GPGRS,091442.00,1,4.3,-1.9,-2.2,-0.3,1.1,-1.7,,,,,,*4E
$GPGSV,4,1,15,13,83,148,36,05,24,215,33,24,22,275,32,23,19,318,37*7C
$GPGSV,4,2,15,30,30,081,41,17,24,119,34,14,59,070,48,15,58,291,40*7C
$GPGSV,4,3,15,22,72,117,,20,00,193,,19,10,146,,36,35,170,37*7A
$GPGSV,4,4,15,34,31,208,,49,34,195,,61,03,257,*41
$GLGSV,3,1,10,66,59,312,49,84,10,047,,77,12,235,,65,59,178,41*6A
$GLGSV,3,2,10,75,55,037,48,76,58,245,50,74,04,049,,67,09,329,37*6B
$GLGSV,3,3,10,83,06,348,,72,05,156,*64
$GAGSV,3,1,11,03,64,140,44,24,16,045,21,05,13,131,25,16,40,054,*6C
$GAGSV,3,2,11,02,51,194,39,08,59,301,42,25,63,075,46,07,08,308,36*6A
$GAGSV,3,3,11,26,04,318,31,30,03,214,,33,02,002,*57
$GBGSV,5,1,19,50,61,234,,05,20,130,33,36,11,062,,14,32,311,45*62
$GBGSV,5,2,19,40,29,051,34,56,28,084,,21,50,192,44,10,36,069,*6A
$GBGSV,5,3,19,42,54,286,44,26,58,247,47,45,61,060,47,33,10,324,39*68
$GBGSV,5,4,19,09,04,085,,24,09,243,30,29,08,097,,30,09,046,*6E
$GBGSV,5,5,19,02,04,109,,22,06,161,,60,07,112,*5E
$GPGGA,091442.00,,,,,0,00,,,M,,M,,*42
$PTNL,GGK,091442.00,010125,4742.4462389,N,01617.9737959,E,1,21,1.5,EHT667.5685,M*43
$GPGGQ,091442.00,010125,4742.4462389,N,01617.9737959,E,1,21,4.194,624.3574,M*3D
$GPGFA,091442.00,27.633,24.133,2.906,0.696,9.959,2.943,,VVV*09
$GPLLK,091442.00,010125,,M,,M,1,21,1.7,,M*04
$GNGMP,091442.00,,,,,DAAA,21,0.9,,,,*56
$GPGMP,091442.00,,,,,,05,,,,3.0,123*71
$GLGMP,091442.00,,,,,,05,,,,,*70
$GAGMP,091442.00,,,,,,05,,,,,*7D
$GBGMP,091442.00,,,,,,06,,,,,*7D
$PSSN,SNC,[0,292500000,2347]*48
$GPZDA,091447.00,01,01,2025,,*6C
$GPDTM,W84,,00.0000000,N,00.0000000,E,00.0000000,W84*5F
$GPRMC,091447.00,A,4742.4462431,N,01617.9737897,E,0.0,,010125,5.1,E,D*18
$GPGLL,4742.4462431,N,01617.9737897,E,091447.00,A,D*69
$GPGGA,091447.00,4742.4462431,N,01617.9737897,E,2,19,0.9,624.3841,M,43.2110,M,3.0,0123*4D
$GNGNS,091447.00,4742.4462431,N,01617.9737897,E,DAAA,19,0.9,624.3841,43.2110,,*52
$GPGNS,091447.00,,,,,,04,,,,3.0,123*75
$GLGNS,091447.00,,,,,,05,,,,,*75
$GAGNS,091447.00,,,,,,04,,,,,*79
$GBGNS,091447.00,,,,,,06,,,,,*78
$GPLLQ,091447.00,010125,,M,,M,1,19,4.401,,M*17
$GPVTG,,T,,M,0.01,N,0.03,K,D*24
$GPHDT,,T*1B
$GPTHS,,V*0E
$GPROT,,V*08
$PSSN,HRP,091447.00,010125,,,,,,,00,0,,*6E
$PTNL,AVR,091447.00,,Yaw,,Tilt,,,,0,,00*38
$GPGSA,A,3,14,15,23,30,,,,,,,,,1.6,0.9,1.3*3D
$GPGSA,A,3,65,66,67,75,76,,,,,,,,1.6,0.9,1.3*3F
$GPGSA,A,3,02,03,08,25,,,,,,,,,1.6,0.9,1.3*30
$GPGSA,A,3,14,21,26,33,42,45,,,,,,,1.6,0.9,1.3*3B
$GPGST,091447.00,3.282,3.268,0.682,9.897,3.222,0.876,2.868*53
$GPGBS,091447.00,11.319,4.543,14.017,30,0.0001,2.119,0.974*5D
$GPGRS,091447.00,1,-1.0,0.5,-0.6,2.1,,,,,,,,*40
$GPGRS,091447.00,1,-1.2,-2.3,8.6,-2.6,-3.4,,,,,,,*60
$GPGRS,091447.00,1,-0.8,-0.6,0.9,-0.0,,,,,,,,*6B
$GPGRS,091447.00,1,2.6,-1.8,-2.2,-0.5,0.0,-2.6,,,,,,*4D
$GPGSV,4,1,15,13,83,148,33,05,24,215,32,24,22,275,,23,19,318,37*79
$GPGSV,4,2,15,30,30,081,40,17,24,119,35,14,59,070,47,15,58,291,40*73
$GPGSV,4,3,15,22,72,117,,20,00,193,,19,10,146,,36,35,170,37*7A
$GPGSV,4,4,15,34,31,208,,49,34,195,,61,03,257,*41
$GLGSV,3,1,10,66,59,312,49,84,10,047,,77,12,235,,65,59,178,42*69
$GLGSV,3,2,10,75,55,037,49,76,58,245,50,74,04,049,,67,09,329,38*65
$GLGSV,3,3,10,83,06,348,,72,05,156,*64
$GAGSV,3,1,11,03,64,140,43,24,16,045,22,05,13,131,25,16,40,054,*68
$GAGSV,3,2,11,02,51,194,40,08,59,301,43,25,63,075,46,07,08,308,35*66
$GAGSV,3,3,11,26,04,318,31,30,03,214,,33,02,002,*57
$GBGSV,5,1,19,50,61,234,,05,20,130,33,36,11,062,,14,32,311,45*62
$GBGSV,5,2,19,40,29,051,35,56,28,084,,21,50,192,44,10,36,069,*6B
$GBGSV,5,3,19,42,54,286,44,26,58,247,48,45,61,060,48,33,10,324,39*68
$GBGSV,5,4,19,09,04,085,,24,09,243,30,29,08,097,,30,09,046,*6E
$GBGSV,5,5,19,02,04,109,,22,06,161,,60,07,112,*5E
$GPGGA,091447.00,,,,,0,00,,,M,,M,,*47
$PTNL,GGK,091447.00,010125,4742.4462431,N,01617.9737897,E,1,19,1.6,EHT667.5952,M*4C
$GPGGQ,091447.00,010125,4742.4462431,N,01617.9737897,E,1,19,4.401,624.3841,M*36
$GPGFA,091447.00,31.072,23.521,3.268,0.682,9.897,2.868,,VVV*04
$GPLLK,091447.00,010125,,M,,M,1,19,1.9,,M*04
$GNGMP,091447.00,,,,,DAAA,19,0.9,,,,*58
$GPGMP,091447.00,,,,,,04,,,,3.0,123*75
$GLGMP,091447.00,,,,,,05,,,,,*75
$GAGMP,091447.00,,,,,,04,,,,,*79
$GBGMP,091447.00,,,,,,06,,,,,*78
$PSSN,SNC,[0,292505000,2347]*4D
$GPZDA,091452.00,01,01,2025,,*68
$GPDTM,W84,,00.0000000,N,00.0000000,E,00.0000000,W84*5F
$GPRMC,091452.00,A,4742.4462402,N,01617.9737901,E,0.0,,010125,5.1,E,D*12
$GPGLL,4742.4462402,N,01617.9737901,E,091452.00,A,D*63
$GPGGA,091452.00,4742.4462402,N,01617.9737901,E,2,20,0.8,624.3904,M,43.2110,M,1.8,0123*46
$GNGNS,091452.00,4742.4462402,N,01617.9737901,E,DAAA,20,0.8,624.3904,43.2110,,*53
$GPGNS,091452.00,,,,,,05,,,,1.8,123*7A
$GLGNS,091452.00,,,,,,05,,,,,*71
$GAGNS,091452.00,,,,,,04,,,,,*7D
$GBGNS,091452.00,,,,,,06,,,,,*7C
$GPLLQ,091452.00,010125,,M,,M,1,20,2.564,,M*1D
$GPVTG,,T,,M,0.00,N,0.01,K,D*27
$GPHDT,,T*1B
$GPTHS,,V*0E
$GPROT,,V*08
$PSSN,HRP,091452.00,010125,,,,,,,00,0,,*6A
$PTNL,AVR,091452.00,,Yaw,,Tilt,,,,0,,00*3C
$GPGSA,A,3,14,15,17,23,30,,,,,,,,1.3,0.8,1.1*3D
$GPGSA,A,3,65,66,67,75,76,,,,,,,,1.3,0.8,1.1*39
$GPGSA,A,3,02,03,08,25,,,,,,,,,1.3,0.8,1.1*36
$GPGSA,A,3,14,21,26,33,42,45,,,,,,,1.3,0.8,1.1*3D
$GPGST,091452.00,3.080,1.709,0.607,19.954,1.619,0.816,1.813*62
$GPGBS,091452.00,7.975,3.902,7.574,30,0.0001,2.032,0.995*55
$GPGRS,091452.00,1,-1.2,-0.1,-0.0,1.1,2.0,,,,,,,*46
$GPGRS,091452.00,1,-0.3,-2.7,7.7,-2.3,-4.1,,,,,,,*69
$GPGRS,091452.00,1,-2.1,-0.8,1.0,-0.1,,,,,,,,*63
$GPGRS,091452.00,1,0.5,-1.4,-2.4,-1.6,-0.5,-3.3,,,,,,*6C
$GPGSV,4,1,15,13,83,148,35,05,24,215,31,24,22,275,34,23,19,318,38*74
$GPGSV,4,2,15,30,30,081,38,17,24,119,35,14,59,070,46,15,58,291,39*73
$GPGSV,4,3,15,22,72,116,,20,00,193,,19,10,146,,36,35,170,37*7B
$GPGSV,4,4,15,34,31,208,,49,34,195,,61,03,257,*41
$GLGSV,3,1,10,66,60,312,49,84,10,047,,77,12,235,,65,59,178,44*65
$GLGSV,3,2,10,75,54,037,49,76,58,245,49,74,04,049,,67,09,329,38*6C
$GLGSV,3,3,10,83,06,348,,72,05,156,*64
$GAGSV,3,1,11,03,64,140,44,24,15,045,22,05,13,131,24,16,40,054,*6D
$GAGSV,3,2,11,02,51,194,41,08,59,301,43,25,63,075,47,07,08,308,34*67
$GAGSV,3,3,11,26,04,318,31,30,03,214,,33,02,002,*57
$GBGSV,5,1,19,50,61,234,,05,20,130,33,36,11,062,,14,32,311,45*62
$GBGSV,5,2,19,40,29,051,35,56,28,084,,21,49,192,45,10,36,069,*62
$GBGSV,5,3,19,42,54,286,44,26,58,247,49,45,61,060,48,33,10,324,39*69
$GBGSV,5,4,19,09,04,085,,24,09,243,29,29,08,097,,30,09,046,*66
$GBGSV,5,5,19,02,04,109,,22,06,161,,60,07,112,*5E
$GPGGA,091452.00,,,,,0,00,,,M,,M,,*43
$PTNL,GGK,091452.00,010125,4742.4462402,N,01617.9737901,E,1,20,1.3,EHT667.6015,M*40
$GPGGQ,091452.00,010125,4742.4462402,N,01617.9737901,E,1,20,2.564,624.3904,M*32
$GPGFA,091452.00,16.246,14.870,1.709,0.607,19.954,1.813,,VVV*30
$GPLLK,091452.00,010125,,M,,M,1,20,1.6,,M*05
$GNGMP,091452.00,,,,,DAAA,20,0.8,,,,*57
$GPGMP,091452.00,,,,,,05,,,,1.8,123*7A
$GLGMP,091452.00,,,,,,05,,,,,*71
$GAGMP,091452.00,,,,,,04,,,,,*7D
$GBGMP,091452.00,,,,,,06,,,,,*7C
$PSSN,SNC,[0,292510000,2347]*49
$GPZDA,091457.00,01,01,2025,,*6D
$GPDTM,W84,,00.0000000,N,00.0000000,E,00.0000000,W84*5F
$GPRMC,091457.00,A,4742.4462309,N,01617.9737971,E,0.0,,010125,5.1,E,D*1C
$GPGLL,4742.4462309,N,01617.9737971,E,091457.00,A,D*6D
$GPGGA,091457.00,4742.4462309,N,01617.9737971,E,2,20,0.8,624.4140,M,43.2110,M,2.2,0123*4E
$GNGNS,091457.00,4742.4462309,N,01617.9737971,E,DAAA,20,0.8,624.4140,43.2110,,*52
$GPGNS,091457.00,,,,,,05,,,,2.2,123*76
$GLGNS,091457.00,,,,,,05,,,,,*74
$GAGNS,091457.00,,,,,,04,,,,,*78
$GBGNS,091457.00,,,,,,06,,,,,*79
$GPLLQ,091457.00,010125,,M,,M,1,20,2.827,,M*12
$GPVTG,,T,,M,0.01,N,0.01,K,D*26
$GPHDT,,T*1B
$GPTHS,,V*0E
$GPROT,,V*08
$PSSN,HRP,091457.00,010125,,,,,,,00,0,,*6F
$PTNL,AVR,091457.00,,Yaw,,Tilt,,,,0,,00*39
$GPGSA,A,3,13,14,15,17,30,,,,,,,,1.3,0.8,1.1*3E
$GPGSA,A,3,65,66,67,75,76,,,,,,,,1.3,0.8,1.1*39
$GPGSA,A,3,02,03,08,25,,,,,,,,,1.3,0.8,1.1*36
$GPGSA,A,3,14,21,26,33,42,45,,,,,,,1.3,0.8,1.1*3D
$GPGST,091457.00,2.734,1.624,0.870,8.825,1.611,0.895,2.144*52
$GPGBS,091457.00,7.307,5.436,9.455,13,0.0001,-1.367,0.648*7C
$GPGRS,091457.00,1,-1.4,-0.4,0.8,-0.7,0.7,,,,,,,*4A
$GPGRS,091457.00,1,0.4,-2.0,7.8,-1.4,-3.1,,,,,,,*4D
$GPGRS,091457.00,1,-1.6,0.2,1.3,0.7,,,,,,,,*6D
$GPGRS,091457.00,1,-0.1,-0.1,-1.7,-1.5,-0.2,-2.7,,,,,,*45
$GPGSV,4,1,15,13,83,148,37,05,24,215,30,24,22,275,34,23,19,318,39*76
$GPGSV,4,2,15,30,30,081,35,17,24,119,36,14,59,070,47,15,58,291,40*72
$GPGSV,4,3,15,22,72,116,,20,00,193,,19,10,146,,36,35,170,38*74
$GPGSV,4,4,15,34,31,208,,49,34,195,,61,03,257,*41
$GLGSV,3,1,10,66,60,312,49,84,10,047,,77,12,235,,65,59,178,44*65
$GLGSV,3,2,10,75,54,037,48,76,58,245,48,74,04,049,,67,09,329,39*6D
$GLGSV,3,3,10,83,06,348,,72,05,156,*64
$GAGSV,3,1,11,03,64,140,44,24,15,045,24,05,13,131,23,16,40,054,*6C
$GAGSV,3,2,11,02,51,194,42,08,59,301,43,25,63,075,47,07,08,308,33*63
$GAGSV,3,3,11,26,04,318,32,30,03,214,,33,02,002,*54
$GBGSV,5,1,19,50,61,234,,05,20,130,33,36,11,062,,14,32,311,45*62
$GBGSV,5,2,19,40,29,051,35,56,28,084,,21,49,192,45,10,36,069,*62
$GBGSV,5,3,19,42,54,286,44,26,58,247,49,45,61,060,48,33,10,324,38*68
$GBGSV,5,4,19,09,04,085,,24,09,243,30,29,08,097,,30,09,046,*6E
$GBGSV,5,5,19,02,04,109,,22,06,161,,60,07,112,*5E
$GPGGA,091457.00,,,,,0,00,,,M,,M,,*46
$PTNL,GGK,091457.00,010125,4742.4462309,N,01617.9737971,E,1,20,1.3,EHT667.6250,M*4D
$GPGGQ,091457.00,010125,4742.4462309,N,01617.9737971,E,1,20,2.827,624.4140,M*39
$GPGFA,091457.00,15.443,17.578,1.624,0.870,8.825,2.144,,VVV*0C
$GPLLK,091457.00,010125,,M,,M,1,20,1.6,,M*00
$GNGMP,091457.00,,,,,DAAA,20,0.8,,,,*52
$GPGMP,091457.00,,,,,,05,,,,2.2,123*76
$GLGMP,091457.00,,,,,,05,,,,,*74
$GAGMP,091457.00,,,,,,04,,,,,*78
$GBGMP,091457.00,,,,,,06,,,,,*79
$PSSN,SNC,[0,292515000,2347]*4C
$GPZDA,091502.00,01,01,2025,,*6C
$GPDTM,W84,,00.0000000,N,00.0000000,E,00.0000000,W84*5F
$GPRMC,091502.00,A,4742.4462241,N,01617.9738095,E,0.0,,010125,5.1,E,D*1C
$GPGLL,4742.4462241,N,01617.9738095,E,091502.00,A,D*6D
$GPGGA,091502.00,4742.4462241,N,01617.9738095,E,2,20,0.8,624.4303,M,43.2110,M,3.4,0123*4C
$GNGNS,091502.00,4742.4462241,N,01617.9738095,E,DAAA,20,0.8,624.4303,43.2110,,*57
$GPGNS,091502.00,,,,,,05,,,,3.4,123*70
$GLGNS,091502.00,,,,,,05,,,,,*75
$GAGNS,091502.00,,,,,,04,,,,,*79
$GBGNS,091502.00,,,,,,06,,,,,*78
$GPLLQ,091502.00,010125,,M,,M,1,20,2.996,,M*18
$GPVTG,,T,,M,0.00,N,0.01,K,D*27
$GPHDT,,T*1B
$GPTHS,,V*0E
$GPROT,,V*08
$PSSN,HRP,091502.00,010125,,,,,,,00,0,,*6E
$PTNL,AVR,091502.00,,Yaw,,Tilt,,,,0,,00*38
$GPGSA,A,3,13,14,15,17,23,,,,,,,,1.4,0.8,1.1*3B
$GPGSA,A,3,65,66,67,75,76,,,,,,,,1.4,0.8,1.1*3E
$GPGSA,A,3,02,03,08,25,,,,,,,,,1.4,0.8,1.1*31
$GPGSA,A,3,14,21,26,33,42,45,,,,,,,1.4,0.8,1.1*3A
$GPGST,091502.00,2.954,2.090,0.818,25.831,1.915,1.171,1.985*6A
$GPGBS,091502.00,7.953,5.812,8.499,23,0.0001,2.938,1.036*5E
$GPGRS,091502.00,1,-0.9,-0.5,0.9,-0.5,2.9,,,,,,,*49
$GPGRS,091502.00,1,0.4,-2.5,7.4,-3.2,-3.1,,,,,,,*41
$GPGRS,091502.00,1,-1.5,-0.0,0.1,0.3,,,,,,,,*47
$GPGRS,091502.00,1,-0.7,-0.5,-2.2,-1.5,-1.7,-2.9,,,,,,*4A
$GPGSV,4,1,15,13,83,148,39,05,24,215,30,24,22,275,32,23,19,318,38*7F
$GPGSV,4,2,15,30,30,081,33,17,24,119,37,14,59,070,47,15,58,291,41*74
$GPGSV,4,3,15,22,72,116,,20,00,193,,19,10,146,,36,35,170,37*7B
$GPGSV,4,4,15,34,31,208,,49,34,195,,61,03,257,*41
$GLGSV,3,1,10,66,60,312,48,84,10,047,,77,12,235,,65,59,178,46*66
$GLGSV,3,2,10,75,54,037,46,76,58,245,48,74,04,049,,67,09,329,40*6D
$GLGSV,3,3,10,83,06,348,,72,05,156,*64
$GAGSV,3,1,11,03,64,140,44,24,15,045,25,05,13,131,21,16,40,053,*68
$GAGSV,3,2,11,02,51,194,42,08,59,301,43,25,63,075,47,07,08,308,32*62
$GAGSV,3,3,11,26,04,318,32,30,03,214,,33,02,002,*54
$GBGSV,5,1,19,50,61,234,,05,20,130,33,36,11,062,,14,32,311,44*63
$GBGSV,5,2,19,40,29,051,35,56,28,084,,21,49,192,46,10,36,068,*60
$GBGSV,5,3,19,42,54,286,45,26,58,247,50,45,61,060,49,33,10,324,38*60
$GBGSV,5,4,19,09,04,085,,24,09,243,30,29,08,097,,30,09,046,*6E
$GBGSV,5,5,19,02,04,109,,22,06,161,,60,07,112,*5E
$GPGGA,091502.00,,,,,0,00,,,M,,M,,*47
$PTNL,GGK,091502.00,010125,4742.4462241,N,01617.9738095,E,1,20,1.4,EHT667.6414,M*4C
$GPGGQ,091502.00,010125,4742.4462241,N,01617.9738095,E,1,20,2.996,624.4303,M*37
$GPGFA,091502.00,19.870,16.275,2.090,0.818,25.831,1.985,,VVV*3E
$GPLLK,091502.00,010125,,M,,M,1,20,1.6,,M*01
$GNGMP,091502.00,,,,,DAAA,20,0.8,,,,*53
$GPGMP,091502.00,,,,,,05,,,,3.4,123*70
$GLGMP,091502.00,,,,,,05,,,,,*75
$GAGMP,091502.00,,,,,,04,,,,,*79
$GBGMP,091502.00,,,,,,06,,,,,*78
$PSSN,SNC,[0,292520000,2347]*4A
$GPZDA,091507.00,01,01,2025,,*69
$GPDTM,W84,,00.0000000,N,00.0000000,E,00.0000000,W84*5F
$GPRMC,091507.00,A,4742.4462124,N,01617.9738193,E,0.0,,010125,5.1,E,D*1E
$GPGLL,4742.4462124,N,01617.9738193,E,091507.00,A,D*6F
$GPGGA,091507.00,4742.4462124,N,01617.9738193,E,2,21,0.8,624.4371,M,43.2110,M,3.0,0123*4E
$GNGNS,091507.00,4742.4462124,N,01617.9738193,E,DAAA,21,0.8,624.4371,43.2110,,*51
$GPGNS,091507.00,,,,,,06,,,,3.0,123*72
$GLGNS,091507.00,,,,,,05,,,,,*70
$GAGNS,091507.00,,,,,,04,,,,,*7C
$GBGNS,091507.00,,,,,,06,,,,,*7D
$GPLLQ,091507.00,010125,,M,,M,1,21,2.715,,M*19
$GPVTG,,T,,M,0.00,N,0.00,K,D*26
$GPHDT,,T*1B
$GPTHS,,V*0E
$GPROT,,V*08
$PSSN,HRP,091507.00,010125,,,,,,,00,0,,*6B
$PTNL,AVR,091507.00,,Yaw,,Tilt,,,,0,,00*3D
$GPGSA,A,3,13,14,15,17,23,24,,,,,,,1.3,0.8,1.0*3B
$GPGSA,A,3,65,66,67,75,76,,,,,,,,1.3,0.8,1.0*38
$GPGSA,A,3,02,03,08,25,,,,,,,,,1.3,0.8,1.0*37
$GPGSA,A,3,14,21,26,33,42,45,,,,,,,1.3,0.8,1.0*3C
$GPGST,091507.00,3.026,1.837,0.786,18.772,1.758,0.951,1.837*6E
$GPGBS,091507.00,5.612,3.421,6.627,24,0.0001,-3.128,0.948*73
$GPGRS,091507.00,1,-0.7,-0.0,1.4,0.3,-0.4,-3.1,,,,,,*43
$GPGRS,091507.00,1,2.8,-1.9,9.0,-3.6,-1.9,,,,,,,*41
$GPGRS,091507.00,1,-0.1,0.7,0.8,1.0,,,,,,,,*66
$GPGRS,091507.00,1,-0.5,-0.2,-0.9,-0.1,-0.6,-1.8,,,,,,*44
$GPGSV,4,1,15,13,82,148,40,05,24,215,31,24,22,275,36,23,19,318,38*75
$GPGSV,4,2,15,30,30,081,34,17,24,119,37,14,59,070,46,15,59,291,42*70
$GPGSV,4,3,15,22,72,116,,20,00,193,,19,10,146,,36,35,170,37*7B
$GPGSV,4,4,15,34,31,208,,49,34,195,,61,03,257,*41
$GLGSV,3,1,10,66,60,311,48,84,10,047,,77,12,235,,65,58,178,47*65
$GLGSV,3,2,10,75,54,037,46,76,58,246,48,74,04,049,,67,09,329,40*6E
$GLGSV,3,3,10,83,06,348,,72,05,156,*64
$GAGSV,3,1,11,03,64,140,45,24,15,045,24,05,13,131,19,16,40,053,*63
$GAGSV,3,2,11,02,51,194,43,08,59,301,42,25,63,075,47,07,08,308,31*61
$GAGSV,3,3,11,26,04,318,31,30,03,214,,33,02,002,*57
$GBGSV,5,1,19,50,61,234,,05,20,130,33,36,11,063,,14,32,311,44*62
$GBGSV,5,2,19,40,29,051,35,56,29,084,,21,49,192,46,10,36,068,*61
$GBGSV,5,3,19,42,54,286,45,26,59,247,50,45,60,060,49,33,10,324,37*6F
$GBGSV,5,4,19,09,04,085,,24,09,243,30,29,08,097,,30,09,046,*6E
$GBGSV,5,5,19,02,04,109,,22,06,161,,60,07,112,*5E
$GPGGA,091507.00,,,,,0,00,,,M,,M,,*42
$PTNL,GGK,091507.00,010125,4742.4462124,N,01617.9738193,E,1,21,1.3,EHT667.6481,M*44
$GPGGQ,091507.00,010125,4742.4462124,N,01617.9738193,E,1,21,2.715,624.4371,M*34
$GPGFA,091507.00,17.468,15.065,1.837,0.786,18.772,1.837,,VVV*30
$GPLLK,091507.00,010125,,M,,M,1,21,1.5,,M*06
$GNGMP,091507.00,,,,,DAAA,21,0.8,,,,*57
$GPGMP,091507.00,,,,,,06,,,,3.0,123*72
$GLGMP,091507.00,,,,,,05,,,,,*70
$GAGMP,091507.00,,,,,,04,,,,,*7C
$GBGMP,091507.00,,,,,,06,,,,,*7D
$PSSN,SNC,[0,292525000,2347]*4F
$GPZDA,091512.00,01,01,2025,,*6D
$GPDTM,W84,,00.0000000,N,00.0000000,E,00.0000000,W84*5F
$GPRMC,091512.00,A,4742.4462103,N,01617.9738094,E,0.0,,010125,5.1,E,D*19
$GPGLL,4742.4462103,N,01617.9738094,E,091512.00,A,D*68
$GPGGA,091512.00,4742.4462103,N,01617.9738094,E,2,22,0.7,624.4300,M,43.2110,M,1.7,0123*46
$GNGNS,091512.00,4742.4462103,N,01617.9738094,E,DAAA,22,0.7,624.4300,43.2110,,*5C
$GPGNS,091512.00,,,,,,07,,,,1.7,123*72
$GLGNS,091512.00,,,,,,05,,,,,*74
$GAGNS,091512.00,,,,,,04,,,,,*78
$GBGNS,091512.00,,,,,,06,,,,,*79
$GPLLQ,091512.00,010125,,M,,M,1,22,2.138,,M*17
$GPVTG,,T,,M,0.01,N,0.02,K,D*25
$GPHDT,,T*1B
$GPTHS,,V*0E
$GPROT,,V*08
$PSSN,HRP,091512.00,010125,,,,,,,00,0,,*6F
$PTNL,AVR,091512.00,,Yaw,,Tilt,,,,0,,00*39
$GPGSA,A,3,13,14,15,17,23,24,30,,,,,,1.3,0.7,1.0*37
$GPGSA,A,3,65,66,67,75,76,,,,,,,,1.3,0.7,1.0*37
$GPGSA,A,3,02,03,08,25,,,,,,,,,1.3,0.7,1.0*38
$GPGSA,A,3,14,21,26,33,42,45,,,,,,,1.3,0.7,1.0*33
$GPGST,091512.00,3.045,1.456,0.616,15.164,1.415,0.706,1.439*64
$GPGBS,091512.00,5.136,2.511,4.943,24,0.0001,-2.451,0.918*75
$GPGRS,091512.00,1,-0.6,-0.1,0.9,1.0,0.5,-2.5,0.3,,,,,*4D
$GPGRS,091512.00,1,4.2,-0.7,9.8,-2.3,-1.7,,,,,,,*44
$GPGRS,091512.00,1,0.5,1.2,0.8,1.3,,,,,,,,*4C
$GPGRS,091512.00,1,0.8,-0.3,-0.3,-0.0,0.8,-1.3,,,,,,*42
$GPGSV,4,1,15,13,82,148,39,05,24,215,25,24,22,275,36,23,19,318,40*71
$GPGSV,4,2,15,30,30,081,35,17,24,119,37,14,59,070,45,15,59,291,43*73
$GPGSV,4,3,15,22,72,116,,20,00,193,,19,10,146,,36,35,170,38*74
$GPGSV,4,4,15,34,31,208,,49,34,195,,61,03,257,*41
$GLGSV,3,1,10,66,60,311,49,84,10,046,,77,12,235,,65,58,178,46*64
$GLGSV,3,2,10,75,54,037,46,76,58,246,48,74,04,049,,67,09,329,40*6E
$GLGSV,3,3,10,83,06,348,,72,05,156,*64
$GAGSV,3,1,11,03,64,140,45,24,15,045,25,05,13,131,21,16,40,053,*69
$GAGSV,3,2,11,02,51,194,44,08,59,301,40,25,63,075,47,07,08,308,28*6C
$GAGSV,3,3,11,26,04,318,30,30,03,214,,33,02,002,*56
$GBGSV,5,1,19,50,61,233,,05,20,130,33,36,11,063,19,14,32,311,45*6C
$GBGSV,5,2,19,40,29,051,35,56,29,084,,21,49,192,46,10,36,068,*61
$GBGSV,5,3,19,42,54,286,46,26,59,247,50,45,60,060,48,33,10,324,35*6F
$GBGSV,5,4,19,09,04,085,,24,09,244,31,29,08,097,,30,09,046,*68
$GBGSV,5,5,19,02,04,109,,22,06,161,,60,07,112,*5E
$GPGGA,091512.00,,,,,0,00,,,M,,M,,*46
$PTNL,GGK,091512.00,010125,4742.4462103,N,01617.9738094,E,1,22,1.3,EHT667.6411,M*49
$GPGGQ,091512.00,010125,4742.4462103,N,01617.9738094,E,1,22,2.138,624.4300,M*3F
$GPGFA,091512.00,13.847,11.796,1.456,0.616,15.164,1.439,,VVV*33
$GPLLK,091512.00,010125,,M,,M,1,22,1.5,,M*01
$GNGMP,091512.00,,,,,DAAA,22,0.7,,,,*5F
$GPGMP,091512.00,,,,,,07,,,,1.7,123*72
$GLGMP,091512.00,,,,,,05,,,,,*74
$GAGMP,091512.00,,,,,,04,,,,,*78
$GBGMP,091512.00,,,,,,06,,,,,*79
$PSSN,SNC,[0,292530000,2347]*4B
$GPZDA,091517.00,01,01,2025,,*68
$GPDTM,W84,,00.0000000,N,00.0000000,E,00.0000000,W84*5F
$GPRMC,091517.00,A,4742.4462023,N,01617.9738041,E,0.0,,010125,5.1,E,D*17
$GPGLL,4742.4462023,N,01617.9738041,E,091517.00,A,D*66
$GPGGA,091517.00,4742.4462023,N,01617.9738041,E,2,19,0.9,624.4533,M,43.2110,M,2.2,0123*4E
$GNGNS,091517.00,4742.4462023,N,01617.9738041,E,DAAA,19,0.9,624.4533,43.2110,,*52
$GPGNS,091517.00,,,,,,05,,,,2.2,123*73
$GLGNS,091517.00,,,,,,05,,,,,*71
$GAGNS,091517.00,,,,,,04,,,,,*7D
$GBGNS,091517.00,,,,,,05,,,,,*7F
$GPLLQ,091517.00,010125,,M,,M,1,19,4.416,,M*15
$GPVTG,,T,,M,0.01,N,0.01,K,D*26
$GPHDT,,T*1B
$GPTHS,,V*0E
$GPROT,,V*08
$PSSN,HRP,091517.00,010125,,,,,,,00,0,,*6A
$PTNL,AVR,091517.00,,Yaw,,Tilt,,,,0,,00*3C
$GPGSA,A,3,13,14,15,23,30,,,,,,,,1.6,0.9,1.4*38
$GPGSA,A,3,65,66,67,75,76,,,,,,,,1.6,0.9,1.4*38
$GPGSA,A,3,02,03,08,25,,,,,,,,,1.6,0.9,1.4*37
$GPGSA,A,3,14,21,26,42,45,,,,,,,,1.6,0.9,1.4*3C
$GPGST,091517.00,3.137,3.021,0.882,13.748,2.942,1.117,3.097*67
$GPGBS,091517.00,13.252,4.469,13.240,23,0.0001,3.426,1.021*59
$GPGRS,091517.00,1,-1.5,-0.6,0.1,3.4,0.7,,,,,,,*68
$GPGRS,091517.00,1,2.3,-0.6,9.1,-1.6,-1.3,,,,,,,*4C
$GPGRS,091517.00,1,-0.1,0.7,0.0,0.8,,,,,,,,*66
$GPGRS,091517.00,1,2.4,-0.7,-1.1,0.7,-1.2,,,,,,,*43
$GPGSV,4,1,15,13,82,148,39,05,23,215,26,24,22,275,31,23,19,318,40*72
$GPGSV,4,2,15,30,30,081,37,17,24,118,35,14,59,070,44,15,59,291,44*74
$GPGSV,4,3,15,22,72,116,,20,00,193,,19,10,146,,36,35,170,38*74
$GPGSV,4,4,15,34,31,208,,49,34,195,,61,03,257,*41
$GLGSV,3,1,10,66,60,311,49,84,10,046,,77,12,235,,65,58,178,45*67
$GLGSV,3,2,10,75,54,037,46,76,58,246,49,74,04,049,,67,09,329,39*61
$GLGSV,3,3,10,83,06,348,,72,05,156,*64
$GAGSV,3,1,11,03,64,140,45,24,15,045,25,05,13,131,20,16,40,053,*68
$GAGSV,3,2,11,02,51,194,44,08,59,301,39,25,63,074,47,07,08,308,28*63
$GAGSV,3,3,11,26,04,318,28,30,03,214,,33,02,002,*5F
$GBGSV,5,1,19,50,61,233,,05,20,130,33,36,11,063,,14,32,311,45*64
$GBGSV,5,2,19,40,29,051,34,56,29,084,,21,49,192,47,10,36,068,*61
$GBGSV,5,3,19,42,54,286,46,26,59,247,50,45,60,060,48,33,10,324,34*6E
$GBGSV,5,4,19,09,04,085,,24,09,244,32,29,09,097,,30,09,046,*6A
$GBGSV,5,5,19,02,04,109,,22,06,161,,60,07,112,*5E
$GPGGA,091517.00,,,,,0,00,,,M,,M,,*43
$PTNL,GGK,091517.00,010125,4742.4462023,N,01617.9738041,E,1,19,1.6,EHT667.6644,M*48
$GPGGQ,091517.00,010125,4742.4462023,N,01617.9738041,E,1,19,4.416,624.4533,M*30
$GPGFA,091517.00,28.724,25.397,3.021,0.882,13.748,3.097,,VVV*3F
$GPLLK,091517.00,010125,,M,,M,1,19,2.0,,M*0A
$GNGMP,091517.00,,,,,DAAA,19,0.9,,,,*5C
$GPGMP,091517.00,,,,,,05,,,,2.2,123*73
$GLGMP,091517.00,,,,,,05,,,,,*71
$GAGMP,091517.00,,,,,,04,,,,,*7D
$GBGMP,091517.00,,,,,,05,,,,,*7F
$PSSN,SNC,[0,292535000,2347]*4E
$GPZDA,091522.00,01,01,2025,,*6E
$GPDTM,W84,,00.0000000,N,00.0000000,E,00.0000000,W84*5F
$GPRMC,091522.00,A,4742.4461850,N,01617.9738202,E,0.0,,010125,5.1,E,D*1B
$GPGLL,4742.4461850,N,01617.9738202,E,091522.00,A,D*6A
$GPGGA,091522.00,4742.4461850,N,01617.9738202,E,2,19,0.9,624.4800,M,43.2110,M,3.2,0123*4E
$GNGNS,091522.00,4742.4461850,N,01617.9738202,E,DAAA,19,0.9,624.4800,43.2110,,*53
$GPGNS,091522.00,,,,,,05,,,,3.2,123*74
$GLGNS,091522.00,,,,,,05,,,,,*77
$GAGNS,091522.00,,,,,,04,,,,,*7B
$GBGNS,091522.00,,,,,,05,,,,,*79
$GPLLQ,091522.00,010125,,M,,M,1,19,4.913,,M*1B
$GPVTG,,T,,M,0.01,N,0.02,K,D*25
$GPHDT,,T*1B
$GPTHS,,V*0E
$GPROT,,V*08
$PSSN,HRP,091522.00,010125,,,,,,,00,0,,*6C
$PTNL,AVR,091522.00,,Yaw,,Tilt,,,,0,,00*3A
$GPGSA,A,3,13,14,15,23,30,,,,,,,,1.6,0.9,1.4*38
$GPGSA,A,3,65,66,67,75,76,,,,,,,,1.6,0.9,1.4*38
$GPGSA,A,3,02,03,08,25,,,,,,,,,1.6,0.9,1.4*37
$GPGSA,A,3,14,21,26,42,45,,,,,,,,1.6,0.9,1.4*3C
$GPGST,091522.00,2.796,3.393,0.822,10.051,3.344,1.003,3.457*60
$GPGBS,091522.00,13.361,4.526,13.302,23,0.0001,3.155,1.032*50
$GPGRS,091522.00,1,-1.0,-0.4,-0.0,3.2,-0.0,,,,,,,*69
$GPGRS,091522.00,1,0.8,-1.1,8.0,-1.9,-1.7,,,,,,,*4E
$GPGRS,091522.00,1,-0.5,-0.0,-0.1,0.1,,,,,,,,*6B
$GPGRS,091522.00,1,2.3,-0.8,-1.5,0.4,-1.3,,,,,,,*4B
$GPGSV,4,1,15,13,82,148,38,05,23,215,30,24,22,275,29,23,20,318,40*77
$GPGSV,4,2,15,30,30,081,38,17,24,118,31,14,59,069,44,15,59,290,44*76
$GPGSV,4,3,15,22,72,116,,20,00,193,,19,10,146,,36,35,170,38*74
$GPGSV,4,4,15,34,31,208,,49,34,195,,61,03,257,*41
$GLGSV,3,1,10,66,60,311,49,84,10,046,,77,12,235,,65,58,178,45*67
$GLGSV,3,2,10,75,54,037,45,76,58,246,49,74,04,049,,67,09,329,37*6C
$GLGSV,3,3,10,83,06,348,,72,05,156,*64
$GAGSV,3,1,11,03,64,140,45,24,15,045,26,05,13,131,27,16,40,053,*6C
$GAGSV,3,2,11,02,51,194,44,08,59,301,39,25,63,074,47,07,08,308,28*63
$GAGSV,3,3,11,26,04,318,28,30,03,214,,33,02,002,*5F
$GBGSV,5,1,19,50,61,233,,05,20,130,33,36,11,063,20,14,32,311,45*66
$GBGSV,5,2,19,40,29,051,33,56,29,084,,21,49,192,48,10,36,068,*69
$GBGSV,5,3,19,42,54,286,46,26,59,247,50,45,60,060,48,33,10,324,32*68
$GBGSV,5,4,19,09,04,085,,24,09,244,32,29,09,097,,30,09,046,*6A
$GBGSV,5,5,19,02,04,109,,22,06,161,,60,07,112,*5E
$GPGGA,091522.00,,,,,0,00,,,M,,M,,*45
$PTNL,GGK,091522.00,010125,4742.4461850,N,01617.9738202,E,1,19,1.6,EHT667.6910,M*4A
$GPGGQ,091522.00,010125,4742.4461850,N,01617.9738202,E,1,19,4.913,624.4800,M*39
$GPGFA,091522.00,32.263,28.346,3.393,0.822,10.051,3.457,,VVV*31
$GPLLK,091522.00,010125,,M,,M,1,19,2.0,,M*0C
$GNGMP,091522.00,,,,,DAAA,19,0.9,,,,*5A
$GPGMP,091522.00,,,,,,05,,,,3.2,123*74
$GLGMP,091522.00,,,,,,05,,,,,*77
$GAGMP,091522.00,,,,,,04,,,,,*7B
$GBGMP,091522.00,,,,,,05,,,,,*79
$PSSN,SNC,[0,292540000,2347]*4C
$GPZDA,091527.00,01,01,2025,,*6B
$GPDTM,W84,,00.0000000,N,00.0000000,E,00.0000000,W84*5F
$GPRMC,091527.00,A,4742.4461757,N,01617.9738284,E,0.0,,010125,5.1,E,D*18
$GPGLL,4742.4461757,N,01617.9738284,E,091527.00,A,D*69
$GPGGA,091527.00,4742.4461757,N,01617.9738284,E,2,18,0.9,624.5037,M,43.2110,M,2.6,0123*44
$GNGNS,091527.00,4742.4461757,N,01617.9738284,E,DAAA,18,0.9,624.5037,43.2110,,*5C
$GPGNS,091527.00,,,,,,05,,,,2.6,123*74
$GLGNS,091527.00,,,,,,04,,,,,*73
$GAGNS,091527.00,,,,,,04,,,,,*7E
$GBGNS,091527.00,,,,,,05,,,,,*7C
$GPLLQ,091527.00,010125,,M,,M,1,18,2.795,,M*19
$GPVTG,,T,,M,0.00,N,0.00,K,D*26
$GPHDT,,T*1B
$GPTHS,,V*0E
$GPROT,,V*08
$PSSN,HRP,091527.00,010125,,,,,,,00,0,,*69
$PTNL,AVR,091527.00,,Yaw,,Tilt,,,,0,,00*3F
$GPGSA,A,3,13,14,15,23,30,,,,,,,,1.9,0.9,1.7*34
$GPGSA,A,3,65,66,75,76,,,,,,,,,1.9,0.9,1.7*35
$GPGSA,A,3,02,03,08,25,,,,,,,,,1.9,0.9,1.7*3B
$GPGSA,A,3,14,21,26,42,45,,,,,,,,1.9,0.9,1.7*30
$GPGST,091527.00,1.219,1.924,0.475,9.809,1.897,0.572,1.972*5E
$GPGBS,091527.00,12.996,4.391,13.643,23,0.0001,1.662,1.048*50
$GPGRS,091527.00,1,-0.1,-0.1,-0.6,1.7,-0.4,,,,,,,*6C
$GPGRS,091527.00,1,0.5,-1.0,-2.1,-1.5,,,,,,,,*68
$GPGRS,091527.00,1,-0.4,-0.1,0.9,0.2,,,,,,,,*48
$GPGRS,091527.00,1,1.4,-0.5,-0.8,0.9,-0.8,,,,,,,*4C
$GPGSV,4,1,15,13,82,148,39,05,23,215,20,24,22,275,35,23,20,318,40*7A
$GPGSV,4,2,15,30,30,081,39,17,24,118,32,14,59,069,44,15,59,290,43*73
$GPGSV,4,3,15,22,72,116,,20,00,193,,19,10,146,,36,35,170,38*74
$GPGSV,4,4,15,34,31,208,,49,34,195,,61,03,257,*41
$GLGSV,3,1,10,66,60,311,50,84,10,046,,77,12,235,,65,58,178,44*6E
$GLGSV,3,2,10,75,54,037,44,76,58,246,49,74,04,049,,67,09,329,33*69
$GLGSV,3,3,10,83,06,348,,72,05,156,*64
$GAGSV,3,1,11,03,64,140,45,24,15,045,27,05,13,131,28,16,40,053,*62
$GAGSV,3,2,11,02,51,194,45,08,59,301,40,25,63,074,47,07,08,308,30*65
$GAGSV,3,3,11,26,04,318,28,30,03,214,,33,02,002,*5F
$GBGSV,5,1,19,50,61,233,,05,20,130,33,36,11,063,21,14,32,311,45*67
$GBGSV,5,2,19,40,29,051,33,56,29,084,,21,49,192,48,10,36,068,*69
$GBGSV,5,3,19,42,54,286,46,26,59,247,50,45,60,060,49,33,10,324,30*6B
$GBGSV,5,4,19,09,04,085,,24,09,244,31,29,09,097,,30,09,046,*69
$GBGSV,5,5,19,02,04,109,,22,06,161,,60,07,112,*5E
$GPGGA,091527.00,,,,,0,00,,,M,,M,,*40
$PTNL,GGK,091527.00,010125,4742.4461757,N,01617.9738284,E,1,18,1.9,EHT667.7148,M*43
$GPGGQ,091527.00,010125,4742.4461757,N,01617.9738284,E,1,18,2.795,624.5037,M*30
$GPGFA,091527.00,18.292,16.166,1.924,0.475,9.809,1.972,,VVV*00
$GPLLK,091527.00,010125,,M,,M,1,18,2.3,,M*0B
$GNGMP,091527.00,,,,,DAAA,18,0.9,,,,*5E
$GPGMP,091527.00,,,,,,05,,,,2.6,123*74
$GLGMP,091527.00,,,,,,04,,,,,*73
$GAGMP,091527.00,,,,,,04,,,,,*7E
$GBGMP,091527.00,,,,,,05,,,,,*7C
$PSSN,SNC,[0,292545000,2347]*49
$GPZDA,091532.00,01,01,2025,,*6F
$GPDTM,W84,,00.0000000,N,00.0000000,E,00.0000000,W84*5F
$GPRMC,091532.00,A,4742.4461770,N,01617.9738234,E,0.0,,010125,5.1,E,D*12
$GPGLL,4742.4461770,N,01617.9738234,E,091532.00,A,D*63
$GPGGA,091532.00,4742.4461770,N,01617.9738234,E,2,18,0.9,624.5001,M,43.2110,M,2.0,0123*4D
$GNGNS,091532.00,4742.4461770,N,01617.9738234,E,DAAA,18,0.9,624.5001,43.2110,,*53
$GPGNS,091532.00,,,,,,05,,,,2.0,123*76
$GLGNS,091532.00,,,,,,04,,,,,*77
$GAGNS,091532.00,,,,,,04,,,,,*7A
$GBGNS,091532.00,,,,,,05,,,,,*78
$GPLLQ,091532.00,010125,,M,,M,1,18,4.277,,M*12
$GPVTG,,T,,M,0.01,N,0.01,K,D*26
$GPHDT,,T*1B
$GPTHS,,V*0E
$GPROT,,V*08
$PSSN,HRP,091532.00,010125,,,,,,,00,0,,*6D
$PTNL,AVR,091532.00,,Yaw,,Tilt,,,,0,,00*3B
$GPGSA,A,3,13,14,15,23,30,,,,,,,,1.9,0.9,1.7*34
$GPGSA,A,3,65,66,75,76,,,,,,,,,1.9,0.9,1.7*35
$GPGSA,A,3,02,03,08,25,,,,,,,,,1.9,0.9,1.7*3B
$GPGSA,A,3,14,21,26,42,45,,,,,,,,1.9,0.9,1.7*30
$GPGST,091532.00,1.272,2.928,0.731,9.503,2.890,0.868,3.031*52
$GPGBS,091532.00,13.049,4.437,13.571,15,0.0001,-2.013,0.641*72
$GPGRS,091532.00,1,1.0,0.5,-2.0,0.2,0.3,,,,,,,*46
$GPGRS,091532.00,1,0.7,-0.3,-2.5,-0.3,,,,,,,,*6F
$GPGRS,091532.00,1,-0.4,0.2,1.7,0.4,,,,,,,,*6B
$GPGRS,091532.00,1,0.7,-0.7,-0.6,0.7,-0.3,,,,,,,*43
$GPGSV,4,1,15,13,82,148,40,05,23,215,31,24,22,275,35,23,20,318,40*74
$GPGSV,4,2,15,30,30,081,40,17,24,118,34,14,59,069,45,15,59,290,41*78
$GPGSV,4,3,15,22,72,115,,20,00,193,,19,10,146,,36,35,170,38*77
$GPGSV,4,4,15,34,31,208,,49,34,195,,61,03,257,*41
$GLGSV,3,1,10,66,60,311,51,84,10,046,,77,12,235,,65,58,178,44*6F
$GLGSV,3,2,10,75,54,037,45,76,58,246,50,74,04,049,,67,09,329,25*67
$GLGSV,3,3,10,83,06,348,,72,05,156,*64
$GAGSV,3,1,11,03,64,140,45,24,15,045,28,05,13,131,26,16,40,053,*63
$GAGSV,3,2,11,02,51,194,45,08,59,301,40,25,63,074,47,07,08,308,31*64
$GAGSV,3,3,11,26,04,318,29,30,03,214,,33,02,002,*5E
$GBGSV,5,1,19,50,61,233,,33,10,324,31,36,11,063,24,05,20,130,33*62
$GBGSV,5,2,19,40,29,051,33,14,32,311,44,56,29,084,,21,49,192,48*64
$GBGSV,5,3,19,10,36,068,,42,54,286,46,45,60,060,49,26,59,247,50*66
$GBGSV,5,4,19,09,04,085,,24,09,244,31,29,09,097,,30,09,046,*69
$GBGSV,5,5,19,02,04,109,,22,06,161,,60,07,112,*5E
$GPGGA,091532.00,,,,,0,00,,,M,,M,,*44
$PTNL,GGK,091532.00,010125,4742.4461770,N,01617.9738234,E,1,18,1.9,EHT667.7112,M*46
$GPGGQ,091532.00,010125,4742.4461770,N,01617.9738234,E,1,18,4.277,624.5001,M*30
$GPGFA,091532.00,27.838,24.850,2.928,0.731,9.503,3.031,,VVV*08
$GPLLK,091532.00,010125,,M,,M,1,18,2.3,,M*0F
$GNGMP,091532.00,,,,,DAAA,18,0.9,,,,*5A
$GPGMP,091532.00,,,,,,05,,,,2.0,123*76
$GLGMP,091532.00,,,,,,04,,,,,*77
$GAGMP,091532.00,,,,,,04,,,,,*7A
$GBGMP,091532.00,,,,,,05,,,,,*78
$PSSN,SNC,[0,292550000,2347]*4D
$GPZDA,091537.00,01,01,2025,,*6A
$GPDTM,W84,,00.0000000,N,00.0000000,E,00.0000000,W84*5F
$GPRMC,091537.00,A,4742.4461838,N,01617.9738034,E,0.0,,010125,5.1,E,D*16
$GPGLL,4742.4461838,N,01617.9738034,E,091537.00,A,D*67
$GPGGA,091537.00,4742.4461838,N,01617.9738034,E,2,19,0.8,624.5207,M,43.2110,M,2.2,0123*4F
$GNGNS,091537.00,4742.4461838,N,01617.9738034,E,DAAA,19,0.8,624.5207,43.2110,,*53
$GPGNS,091537.00,,,,,,06,,,,2.2,123*72
$GLGNS,091537.00,,,,,,04,,,,,*72
$GAGNS,091537.00,,,,,,04,,,,,*7F
$GBGNS,091537.00,,,,,,05,,,,,*7D
$GPLLQ,091537.00,010125,,M,,M,1,19,2.804,,M*1E
$GPVTG,,T,,M,0.01,N,0.02,K,D*25
$GPHDT,,T*1B
$GPTHS,,V*0E
$GPROT,,V*08
$PSSN,HRP,091537.00,010125,,,,,,,00,0,,*68
$PTNL,AVR,091537.00,,Yaw,,Tilt,,,,0,,00*3E
$GPGSA,A,3,13,14,15,17,23,30,,,,,,,1.6,0.8,1.4*3F
$GPGSA,A,3,65,66,75,76,,,,,,,,,1.6,0.8,1.4*38
$GPGSA,A,3,02,03,08,25,,,,,,,,,1.6,0.8,1.4*36
$GPGSA,A,3,14,21,26,42,45,,,,,,,,1.6,0.8,1.4*3D
$GPGST,091537.00,1.665,1.908,0.733,21.102,1.800,0.970,1.919*6A
$GPGBS,091537.00,7.360,3.717,7.523,17,0.0001,2.813,1.022*5B
$GPGRS,091537.00,1,0.6,0.3,-1.8,2.8,0.6,-0.7,,,,,,*40
$GPGRS,091537.00,1,1.1,-0.2,-3.5,0.4,,,,,,,,*47
$GPGRS,091537.00,1,-0.6,-0.1,0.9,-0.1,,,,,,,,*65
$GPGRS,091537.00,1,-0.2,-2.1,-1.3,0.0,-0.4,,,,,,,*6E
$GPGSV,4,1,15,13,82,148,40,05,23,215,29,24,22,275,23,19,10,146,*7D
$GPGSV,4,2,15,30,30,081,40,23,20,318,40,17,24,118,37,14,59,069,45*70
$GPGSV,4,3,15,15,59,290,42,22,72,115,,20,00,193,,36,35,170,38*78
$GPGSV,4,4,15,34,31,208,,49,34,195,,61,03,257,*41
$GLGSV,3,1,10,66,60,311,51,84,10,046,,77,12,235,,65,58,178,43*68
$GLGSV,3,2,10,75,54,037,46,76,58,246,50,74,04,049,,67,09,329,26*67
$GLGSV,3,3,10,83,06,348,,72,05,156,*64
$GAGSV,3,1,11,03,64,140,44,24,15,045,28,05,13,131,25,16,40,053,*61
$GAGSV,3,2,11,02,52,194,46,08,59,301,39,25,63,074,46,07,08,308,33*69
$GAGSV,3,3,11,26,04,318,29,30,04,214,,33,02,002,*59
$GBGSV,5,1,19,50,61,233,,33,10,324,33,36,11,063,24,05,20,130,33*60
$GBGSV,5,2,19,40,29,051,33,14,32,311,44,56,29,084,,21,49,192,49*65
$GBGSV,5,3,19,10,36,068,,42,54,285,46,45,60,060,50,26,59,248,50*62
$GBGSV,5,4,19,09,04,085,,24,09,244,30,29,09,097,,30,09,046,*68
$GBGSV,5,5,19,02,04,109,,22,06,161,,60,07,112,*5E
$GPGGA,091537.00,,,,,0,00,,,M,,M,,*41
$PTNL,GGK,091537.00,010125,4742.4461838,N,01617.9738034,E,1,19,1.6,EHT667.7318,M*44
$GPGGQ,091537.00,010125,4742.4461838,N,01617.9738034,E,1,19,2.804,624.5207,M*39
$GPGFA,091537.00,18.144,15.736,1.908,0.733,21.102,1.919,,VVV*33
$GPLLK,091537.00,010125,,M,,M,1,19,1.9,,M*02
$GNGMP,091537.00,,,,,DAAA,19,0.8,,,,*5F
$GPGMP,091537.00,,,,,,06,,,,2.2,123*72
$GLGMP,091537.00,,,,,,04,,,,,*72
$GAGMP,091537.00,,,,,,04,,,,,*7F
$GBGMP,091537.00,,,,,,05,,,,,*7D
$PSSN,SNC,[0,292555000,2347]*48
$GPZDA,091542.00,01,01,2025,,*68
$GPDTM,W84,,00.0000000,N,00.0000000,E,00.0000000,W84*5F
$GPRMC,091542.00,A,4742.4461942,N,01617.9737954,E,0.0,,010125,5.1,E,D*18
$GPGLL,4742.4461942,N,01617.9737954,E,091542.00,A,D*69
$GPGGA,091542.00,4742.4461942,N,01617.9737954,E,2,19,0.8,624.5386,M,43.2110,M,3.2,0123*48
$GNGNS,091542.00,4742.4461942,N,01617.9737954,E,DAAA,19,0.8,624.5386,43.2110,,*55
$GPGNS,091542.00,,,,,,05,,,,3.2,123*72
$GLGNS,091542.00,,,,,,04,,,,,*70
$GAGNS,091542.00,,,,,,04,,,,,*7D
$GBGNS,091542.00,,,,,,06,,,,,*7C
$GPLLQ,091542.00,010125,,M,,M,1,19,2.675,,M*14
$GPVTG,,T,,M,0.01,N,0.02,K,D*25
$GPHDT,,T*1B
$GPTHS,,V*0E
$GPROT,,V*08
$PSSN,HRP,091542.00,010125,,,,,,,00,0,,*6A
$PTNL,AVR,091542.00,,Yaw,,Tilt,,,,0,,00*3C
$GPGSA,A,3,13,14,15,23,30,,,,,,,,1.8,0.8,1.6*35
$GPGSA,A,3,65,66,75,76,,,,,,,,,1.8,0.8,1.6*34
$GPGSA,A,3,02,03,08,25,,,,,,,,,1.8,0.8,1.6*3A
$GPGSA,A,3,14,21,26,40,42,45,,,,,,,1.8,0.8,1.6*35
$GPGST,091542.00,1.450,1.839,0.456,9.862,1.813,0.549,1.889*56
$GPGBS,091542.00,13.035,4.429,13.348,23,0.0001,1.391,1.057*5F
$GPGRS,091542.00,1,0.6,-0.4,-0.5,1.4,-0.4,,,,,,,*40
$GPGRS,091542.00,1,0.9,-1.5,-2.1,-0.0,,,,,,,,*66
$GPGRS,091542.00,1,-0.4,-0.3,0.3,-0.3,,,,,,,,*6F
$GPGRS,091542.00,1,-0.1,-3.0,-1.8,-1.4,-0.2,-0.5,,,,,,*4C
$GPGSV,4,1,15,13,82,148,41,05,23,215,33,24,22,275,36,19,10,146,*73
$GPGSV,4,2,15,30,30,081,41,23,20,318,40,17,24,118,38,14,59,069,44*7F
$GPGSV,4,3,15,15,59,290,42,22,72,115,,20,00,193,,36,35,170,38*78
$GPGSV,4,4,15,34,31,208,,49,34,195,,61,03,257,*41
$GLGSV,3,1,10,66,60,311,49,84,10,046,,77,12,235,,65,58,178,43*61
$GLGSV,3,2,10,75,54,037,46,76,58,246,50,74,04,049,,67,09,329,27*66
$GLGSV,3,3,10,83,06,348,,72,05,156,*64
$GAGSV,3,1,11,03,64,140,44,24,15,045,28,05,13,131,24,16,40,053,*60
$GAGSV,3,2,11,02,52,194,46,08,59,301,39,25,63,074,46,07,08,308,34*6E
$GAGSV,3,3,11,26,04,318,25,30,04,214,,33,02,002,*55
$GBGSV,5,1,19,50,61,233,,33,10,324,34,36,11,063,25,05,20,130,33*66
$GBGSV,5,2,19,40,29,051,35,14,32,311,44,56,29,084,,21,49,192,49*63
$GBGSV,5,3,19,10,36,068,,42,54,285,46,45,60,060,51,26,59,248,50*63
$GBGSV,5,4,19,09,04,085,,24,09,244,30,29,09,097,,30,09,046,*68
$GBGSV,5,5,19,02,04,109,,22,06,161,,60,07,112,*5E
$GPGGA,091542.00,,,,,0,00,,,M,,M,,*43
$PTNL,GGK,091542.00,010125,4742.4461942,N,01617.9737954,E,1,19,1.8,EHT667.7497,M*44
$GPGGQ,091542.00,010125,4742.4461942,N,01617.9737954,E,1,19,2.675,624.5386,M*37
$GPGFA,091542.00,17.480,15.493,1.839,0.456,9.862,1.889,,VVV*01
$GPLLK,091542.00,010125,,M,,M,1,19,2.2,,M*08
$GNGMP,091542.00,,,,,DAAA,19,0.8,,,,*5D
$GPGMP,091542.00,,,,,,05,,,,3.2,123*72
$GLGMP,091542.00,,,,,,04,,,,,*70
$GAGMP,091542.00,,,,,,04,,,,,*7D
$GBGMP,091542.00,,,,,,06,,,,,*7C
$PSSN,SNC,[0,292560000,2347]*4E
$GPZDA,091547.00,01,01,2025,,*6D
$GPDTM,W84,,00.0000000,N,00.0000000,E,00.0000000,W84*5F
$GPRMC,091547.00,A,4742.4461892,N,01617.9737824,E,0.0,,010125,5.1,E,D*17
$GPGLL,4742.4461892,N,01617.9737824,E,091547.00,A,D*66
$GPGGA,091547.00,4742.4461892,N,01617.9737824,E,2,20,0.8,624.5296,M,43.2110,M,3.2,0123*4D
$GNGNS,091547.00,4742.4461892,N,01617.9737824,E,DAAA,20,0.8,624.5296,43.2110,,*50
$GPGNS,091547.00,,,,,,06,,,,3.2,123*74
$GLGNS,091547.00,,,,,,04,,,,,*75
$GAGNS,091547.00,,,,,,04,,,,,*78
$GBGNS,091547.00,,,,,,06,,,,,*79
$GPLLQ,091547.00,010125,,M,,M,1,20,3.302,,M*1F
$GPVTG,,T,,M,0.00,N,0.00,K,D*26
$GPHDT,,T*1B
$GPTHS,,V*0E
$GPROT,,V*08
$PSSN,HRP,091547.00,010125,,,,,,,00,0,,*6F
$PTNL,AVR,091547.00,,Yaw,,Tilt,,,,0,,00*39
$GPGSA,A,3,13,14,15,23,24,30,,,,,,,1.5,0.8,1.3*3B
$GPGSA,A,3,65,66,75,76,,,,,,,,,1.5,0.8,1.3*3C
$GPGSA,A,3,02,03,08,25,,,,,,,,,1.5,0.8,1.3*32
$GPGSA,A,3,14,21,26,33,42,45,,,,,,,1.5,0.8,1.3*39
$GPGST,091547.00,1.802,2.304,0.784,1.343,2.304,0.786,2.232*54
$GPGBS,091547.00,7.590,3.181,8.113,15,0.0001,-1.724,0.701*74
$GPGRS,091547.00,1,1.1,-0.0,-1.7,2.4,-2.0,0.5,,,,,,*6A
$GPGRS,091547.00,1,1.5,-2.3,-2.7,0.4,,,,,,,,*44
$GPGRS,091547.00,1,0.5,0.5,0.8,0.6,,,,,,,,*4E
$GPGRS,091547.00,1,0.9,-2.9,-1.0,0.6,0.4,0.1,,,,,,*40
$GPGSV,4,1,15,13,82,148,41,05,23,215,33,24,22,275,37,19,10,146,*72
$GPGSV,4,2,15,30,30,081,41,23,20,318,41,17,24,118,37,14,58,069,44*70
$GPGSV,4,3,15,15,59,290,42,22,72,115,,20,00,193,,36,35,170,38*78
$GPGSV,4,4,15,34,31,208,,49,34,195,,61,03,257,*41
$GLGSV,3,1,10,66,60,311,48,84,10,046,,77,12,235,,65,58,178,44*67
$GLGSV,3,2,10,75,54,037,44,76,58,246,50,74,04,049,,67,09,329,28*6B
$GLGSV,3,3,10,83,06,347,,72,05,156,*6B
$GAGSV,3,1,11,03,64,141,44,24,15,045,28,05,13,131,22,16,40,053,*67
$GAGSV,3,2,11,02,52,194,47,08,59,301,37,25,63,074,47,07,08,308,35*61
$GAGSV,3,3,11,26,04,318,19,30,04,214,,33,02,002,*5A
$GBGSV,5,1,19,50,61,233,,33,10,324,36,36,11,063,23,05,20,130,33*62
$GBGSV,5,2,19,40,29,051,32,14,32,311,44,56,29,084,,21,49,192,49*64
$GBGSV,5,3,19,10,36,068,,42,54,285,46,45,60,060,51,26,59,248,50*63
$GBGSV,5,4,19,09,04,085,,24,09,244,31,29,09,097,,30,09,046,*69
$GBGSV,5,5,19,02,04,109,,22,06,161,,60,07,112,*5E
$GPGGA,091547.00,,,,,0,00,,,M,,M,,*46
$PTNL,GGK,091547.00,010125,4742.4461892,N,01617.9737824,E,1,20,1.5,EHT667.7407,M*45
$GPGGQ,091547.00,010125,4742.4461892,N,01617.9737824,E,1,20,3.302,624.5296,M*36
$GPGFA,091547.00,21.907,18.302,2.304,0.784,1.343,2.232,,VVV*02
$GPLLK,091547.00,010125,,M,,M,1,20,1.8,,M*0E
$GNGMP,091547.00,,,,,DAAA,20,0.8,,,,*52
$GPGMP,091547.00,,,,,,06,,,,3.2,123*74
$GLGMP,091547.00,,,,,,04,,,,,*75
$GAGMP,091547.00,,,,,,04,,,,,*78
$GBGMP,091547.00,,,,,,06,,,,,*79
$PSSN,SNC,[0,292565000,2347]*4B
$GPZDA,091552.00,01,01,2025,,*69
$GPDTM,W84,,00.0000000,N,00.0000000,E,00.0000000,W84*5F
$GPRMC,091552.00,A,4742.4461815,N,01617.9737727,E,0.0,,010125,5.1,E,D*10
$GPGLL,4742.4461815,N,01617.9737727,E,091552.00,A,D*61
$GPGGA,091552.00,4742.4461815,N,01617.9737727,E,2,19,0.9,624.5384,M,43.2110,M,2.4,0123*44
$GNGNS,091552.00,4742.4461815,N,01617.9737727,E,DAAA,19,0.9,624.5384,43.2110,,*5E
$GPGNS,091552.00,,,,,,05,,,,2.4,123*74
$GLGNS,091552.00,,,,,,04,,,,,*71
$GAGNS,091552.00,,,,,,04,,,,,*7C
$GBGNS,091552.00,,,,,,06,,,,,*7D
$GPLLQ,091552.00,010125,,M,,M,1,19,5.639,,M*1A
$GPVTG,,T,,M,0.01,N,0.02,K,D*25
$GPHDT,,T*1B
$GPTHS,,V*0E
$GPROT,,V*08
$PSSN,HRP,091552.00,010125,,,,,,,00,0,,*6B
$PTNL,AVR,091552.00,,Yaw,,Tilt,,,,0,,00*3D
$GPGSA,A,3,13,14,15,23,30,,,,,,,,1.6,0.9,1.3*3F
$GPGSA,A,3,65,66,75,76,,,,,,,,,1.6,0.9,1.3*3E
$GPGSA,A,3,02,03,07,25,,,,,,,,,1.6,0.9,1.3*3F
$GPGSA,A,3,14,21,26,33,42,45,,,,,,,1.6,0.9,1.3*3B
$GPGST,091552.00,2.326,3.866,0.960,9.535,3.816,1.143,3.992*5C
$GPGBS,091552.00,13.425,4.486,13.861,15,0.0001,-2.216,0.649*73
$GPGRS,091552.00,1,0.7,0.0,-2.2,3.1,0.2,,,,,,,*40
$GPGRS,091552.00,1,2.2,-2.1,-5.0,0.6,,,,,,,,*44
$GPGRS,091552.00,1,0.5,0.5,-1.2,0.8,,,,,,,,*62
$GPGRS,091552.00,1,1.5,-3.1,-0.8,-0.0,-0.3,-0.1,,,,,,*65
$GPGSV,4,1,14,13,82,148,41,05,23,215,28,24,22,275,18,19,10,146,*74
$GPGSV,4,2,14,30,30,081,40,23,20,318,42,17,24,118,34,14,58,069,43*77
$GPGSV,4,3,14,15,59,290,42,22,72,115,,36,35,170,38,34,31,208,*7F
$GPGSV,4,4,14,49,34,195,,61,03,257,*7F
$GLGSV,3,1,10,66,60,311,48,84,10,046,,77,12,235,,65,58,178,45*66
$GLGSV,3,2,10,75,54,037,44,76,58,246,49,74,04,049,,67,09,329,28*63
$GLGSV,3,3,10,83,06,347,,72,05,156,*6B
$GAGSV,3,1,11,03,64,141,43,24,15,045,28,05,13,131,20,16,40,053,*62
$GAGSV,3,2,11,02,52,194,47,08,59,301,34,25,63,074,48,07,08,308,36*6E
$GAGSV,3,3,11,26,03,318,27,30,04,214,,33,02,002,*50
$GBGSV,5,1,19,50,61,233,,33,10,324,36,36,11,063,23,05,20,130,33*62
$GBGSV,5,2,19,40,29,051,32,14,32,311,43,56,29,084,,21,49,192,49*63
$GBGSV,5,3,19,10,36,068,,42,54,285,45,45,60,060,51,26,59,248,50*60
$GBGSV,5,4,19,09,04,085,,24,09,244,31,29,09,097,,30,09,046,*69
$GBGSV,5,5,19,02,04,109,,22,06,161,,60,07,112,*5E
$GPGGA,091552.00,,,,,0,00,,,M,,M,,*42
$PTNL,GGK,091552.00,010125,4742.4461815,N,01617.9737727,E,1,19,1.6,EHT667.7494,M*41
$GPGGQ,091552.00,010125,4742.4461815,N,01617.9737727,E,1,19,5.639,624.5384,M*32
$GPGFA,091552.00,36.755,32.734,3.866,0.960,9.535,3.992,,VVV*05
$GPLLK,091552.00,010125,,M,,M,1,19,1.8,,M*00
$GNGMP,091552.00,,,,,DAAA,19,0.9,,,,*5D
$GPGMP,091552.00,,,,,,05,,,,2.4,123*74
$GLGMP,091552.00,,,,,,04,,,,,*71
$GAGMP,091552.00,,,,,,04,,,,,*7C
$GBGMP,091552.00,,,,,,06,,,,,*7D
$PSSN,SNC,[0,292570000,2347]*4F
$GPZDA,091557.00,01,01,2025,,*6C
$GPDTM,W84,,00.0000000,N,00.0000000,E,00.0000000,W84*5F
$GPRMC,091557.00,A,4742.4461786,N,01617.9737678,E,0.0,,010125,5.1,E,D*1B
$GPGLL,4742.4461786,N,01617.9737678,E,091557.00,A,D*6A
$GPGGA,091557.00,4742.4461786,N,01617.9737678,E,2,18,0.9,624.5511,M,43.2110,M,2.8,0123*48
$GNGNS,091557.00,4742.4461786,N,01617.9737678,E,DAAA,18,0.9,624.5511,43.2110,,*5E
$GPGNS,091557.00,,,,,,04,,,,2.8,123*7C
$GLGNS,091557.00,,,,,,04,,,,,*74
$GAGNS,091557.00,,,,,,04,,,,,*79
$GBGNS,091557.00,,,,,,06,,,,,*78
$GPLLQ,091557.00,010125,,M,,M,1,18,4.054,,M*12
$GPVTG,,T,,M,0.00,N,0.00,K,D*26
$GPHDT,,T*1B
$GPTHS,,V*0E
$GPROT,,V*08
$PSSN,HRP,091557.00,010125,,,,,,,00,0,,*6E
$PTNL,AVR,091557.00,,Yaw,,Tilt,,,,0,,00*38
$GPGSA,A,3,13,14,15,30,,,,,,,,,1.6,0.9,1.3*3E
$GPGSA,A,3,65,66,75,76,,,,,,,,,1.6,0.9,1.3*3E
$GPGSA,A,3,02,03,07,25,,,,,,,,,1.6,0.9,1.3*3F
$GPGSA,A,3,14,21,26,33,42,45,,,,,,,1.6,0.9,1.3*3B
$GPGST,091557.00,1.934,2.530,0.752,10.407,2.492,0.869,3.077*68
$GPGBS,091557.00,13.254,5.322,17.234,15,0.0001,-1.225,0.662*7A
$GPGRS,091557.00,1,1.2,0.2,-1.2,-0.3,,,,,,,,*40
$GPGRS,091557.00,1,1.5,-1.6,-3.6,0.5,,,,,,,,*42
$GPGRS,091557.00,1,0.2,-0.2,-1.8,0.6,,,,,,,,*4E
$GPGRS,091557.00,1,1.9,-3.5,-0.5,0.1,-0.7,-0.2,,,,,,*4E
$GPGSV,4,1,14,13,82,148,40,05,23,215,31,24,22,275,34,19,10,146,*73
$GPGSV,4,2,14,30,30,081,40,23,20,318,42,17,24,118,31,14,58,069,43*72
$GPGSV,4,3,14,15,59,290,41,22,72,115,,36,35,170,38,34,31,208,*7C
$GPGSV,4,4,14,49,34,195,,61,03,257,*7F
$GLGSV,3,1,10,66,60,311,49,84,10,046,,77,12,235,,65,58,178,45*67
$GLGSV,3,2,10,75,54,037,45,76,58,246,48,74,04,049,,67,09,329,31*6B
$GLGSV,3,3,10,83,06,347,,72,05,156,*6B
$GAGSV,3,1,11,03,64,141,43,24,15,045,27,05,13,131,21,16,40,053,*6C
$GAGSV,3,2,11,02,52,194,47,08,59,301,31,25,63,074,48,07,08,308,37*6A
$GAGSV,3,3,11,26,03,318,28,30,04,214,,33,02,002,*5F
$GBGSV,5,1,19,50,61,233,,33,10,323,37,36,11,063,22,05,20,130,33*65
$GBGSV,5,2,19,40,29,051,31,14,33,311,43,56,29,084,,21,49,192,48*60
$GBGSV,5,3,19,10,36,068,,42,54,285,45,45,60,060,51,26,59,248,50*60
$GBGSV,5,4,19,09,04,085,,24,09,244,31,29,09,097,,30,09,046,*69
$GBGSV,5,5,19,02,04,109,,22,06,161,,60,07,112,*5E
$GPGGA,091557.00,,,,,0,00,,,M,,M,,*47
$PTNL,GGK,091557.00,010125,4742.4461786,N,01617.9737678,E,1,18,1.6,EHT667.7621,M*47
$GPGGQ,091557.00,010125,4742.4461786,N,01617.9737678,E,1,18,4.054,624.5511,M*3E
$GPGFA,091557.00,24.054,25.230,2.530,0.752,10.407,3.077,,VVV*38
$GPLLK,091557.00,010125,,M,,M,1,18,1.9,,M*05
$GNGMP,091557.00,,,,,DAAA,18,0.9,,,,*59
$GPGMP,091557.00,,,,,,04,,,,2.8,123*7C
$GLGMP,091557.00,,,,,,04,,,,,*74
$GAGMP,091557.00,,,,,,04,,,,,*79
$GBGMP,091557.00,,,,,,06,,,,,*78
$PSSN,SNC,[0,292575000,2347]*4A
$GPZDA,091602.00,01,01,2025,,*6F
$GPDTM,W84,,00.0000000,N,00.0000000,E,00.0000000,W84*5F
$GPRMC,091602.00,A,4742.4461812,N,01617.9737596,E,0.0,,010125,5.1,E,D*19
$GPGLL,4742.4461812,N,01617.9737596,E,091602.00,A,D*68
$GPGGA,091602.00,4742.4461812,N,01617.9737596,E,2,18,0.9,624.5449,M,43.2110,M,1.8,0123*45
$GNGNS,091602.00,4742.4461812,N,01617.9737596,E,DAAA,18,0.9,624.5449,43.2110,,*50
$GPGNS,091602.00,,,,,,04,,,,1.8,123*7C
$GLGNS,091602.00,,,,,,04,,,,,*77
$GAGNS,091602.00,,,,,,04,,,,,*7A
$GBGNS,091602.00,,,,,,06,,,,,*7B
$GPLLQ,091602.00,010125,,M,,M,1,18,3.174,,M*15
$GPVTG,,T,,M,0.00,N,0.01,K,D*27
$GPHDT,,T*1B
$GPTHS,,V*0E
$GPROT,,V*08
$PSSN,HRP,091602.00,010125,,,,,,,00,0,,*6D
$PTNL,AVR,091602.00,,Yaw,,Tilt,,,,0,,00*3B
$GPGSA,A,3,13,14,15,30,,,,,,,,,1.6,0.9,1.3*3E
$GPGSA,A,3,65,66,75,76,,,,,,,,,1.6,0.9,1.3*3E
$GPGSA,A,3,02,03,07,25,,,,,,,,,1.6,0.9,1.3*3F
$GPGSA,A,3,14,21,26,33,42,45,,,,,,,1.6,0.9,1.3*3B
$GPGST,091602.00,1.795,2.045,0.647,6.862,2.032,0.687,2.340*52
$GPGBS,091602.00,12.948,5.409,17.552,15,0.0001,-1.131,0.677*75
$GPGRS,091602.00,1,0.4,0.9,-1.1,-0.2,,,,,,,,*4D
$GPGRS,091602.00,1,1.0,-1.3,-2.2,-1.5,,,,,,,,*68
$GPGRS,091602.00,1,0.2,-0.7,-1.9,0.4,,,,,,,,*4B
$GPGRS,091602.00,1,2.5,-3.6,-0.0,-0.5,-0.3,0.0,,,,,,*46
$GPGSV,4,1,14,13,82,148,41,05,23,215,33,24,22,275,30,19,10,146,*74
$GPGSV,4,2,14,30,29,081,40,23,20,318,42,17,24,118,,14,58,069,42*79
$GPGSV,4,3,14,15,59,290,42,22,72,115,,36,35,170,38,34,31,208,*7F
$GPGSV,4,4,14,49,34,195,,61,03,257,*7F
$GLGSV,3,1,10,66,60,311,48,84,10,046,,77,12,235,,65,58,178,44*67
$GLGSV,3,2,10,75,54,037,46,76,58,246,45,74,04,049,,67,09,329,30*64
$GLGSV,3,3,10,83,06,347,,72,05,156,*6B
$GAGSV,3,1,11,03,64,141,43,24,15,045,27,05,13,132,21,16,40,053,*6F
$GAGSV,3,2,11,02,52,194,46,08,59,301,29,25,63,074,48,07,08,308,37*62
$GAGSV,3,3,11,26,03,318,27,30,04,214,,33,02,002,*50
$GBGSV,5,1,19,50,61,233,,33,10,323,37,36,11,063,22,05,20,130,33*65
$GBGSV,5,2,19,40,29,051,31,14,33,311,43,56,29,084,,21,49,192,48*60
$GBGSV,5,3,19,10,36,068,,42,54,285,44,45,60,060,51,26,59,248,50*61
$GBGSV,5,4,19,09,04,085,,24,09,244,30,29,09,097,,30,09,046,*68
$GBGSV,5,5,19,02,04,109,,22,06,161,,60,07,112,*5E
$GPGGA,091602.00,,,,,0,00,,,M,,M,,*44
$PTNL,GGK,091602.00,010125,4742.4461812,N,01617.9737596,E,1,18,1.6,EHT667.7560,M*43
$GPGGQ,091602.00,010125,4742.4461812,N,01617.9737596,E,1,18,3.174,624.5449,M*34
$GPGFA,091602.00,19.442,19.187,2.045,0.647,6.862,2.340,,VVV*0A
$GPLLK,091602.00,010125,,M,,M,1,18,1.9,,M*06
$GNGMP,091602.00,,,,,DAAA,18,0.9,,,,*5A
$GPGMP,091602.00,,,,,,04,,,,1.8,123*7C
$GLGMP,091602.00,,,,,,04,,,,,*77
$GAGMP,091602.00,,,,,,04,,,,,*7A
$GBGMP,091602.00,,,,,,06,,,,,*7B
$PSSN,SNC,[0,292580000,2347]*40
$GPZDA,091607.00,01,01,2025,,*6A
$GPDTM,W84,,00.0000000,N,00.0000000,E,00.0000000,W84*5F
$GPRMC,091607.00,A,4742.4461844,N,01617.9737506,E,0.0,,010125,5.1,E,D*16
$GPGLL,4742.4461844,N,01617.9737506,E,091607.00,A,D*67
$GPGGA,091607.00,4742.4461844,N,01617.9737506,E,2,19,0.8,624.5463,M,43.2110,M,2.6,0123*4F
$GNGNS,091607.00,4742.4461844,N,01617.9737506,E,DAAA,19,0.8,624.5463,43.2110,,*57
$GPGNS,091607.00,,,,,,05,,,,2.6,123*75
$GLGNS,091607.00,,,,,,04,,,,,*72
$GAGNS,091607.00,,,,,,04,,,,,*7F
$GBGNS,091607.00,,,,,,06,,,,,*7E
$GPLLQ,091607.00,010125,,M,,M,1,19,1.974,,M*1B
$GPVTG,,T,,M,0.00,N,0.01,K,D*27
$GPHDT,,T*1B
$GPTHS,,V*0E
$GPROT,,V*08
$PSSN,HRP,091607.00,010125,,,,,,,00,0,,*68
$PTNL,AVR,091607.00,,Yaw,,Tilt,,,,0,,00*3E
$GPGSA,A,3,05,13,14,15,30,,,,,,,,1.4,0.8,1.1*3A
$GPGSA,A,3,65,66,75,76,,,,,,,,,1.4,0.8,1.1*3F
$GPGSA,A,3,02,03,07,25,,,,,,,,,1.4,0.8,1.1*3E
$GPGSA,A,3,14,21,26,33,42,45,,,,,,,1.4,0.8,1.1*3A
$GPGST,091607.00,2.212,1.163,0.561,345.979,1.136,0.613,1.493*51
$GPGBS,091607.00,6.286,4.841,9.563,15,0.0001,-0.948,0.698*76
$GPGRS,091607.00,1,1.8,0.7,0.2,-0.9,-0.3,,,,,,,*6F
$GPGRS,091607.00,1,0.0,-2.0,-1.8,-4.2,,,,,,,,*67
$GPGRS,091607.00,1,-0.2,-1.0,-2.4,-0.0,,,,,,,,*42
$GPGRS,091607.00,1,2.9,-3.4,0.1,-0.6,-1.1,-0.2,,,,,,*4E
$GPGSV,4,1,14,13,82,148,41,05,23,215,36,24,22,275,22,19,10,146,*72
$GPGSV,4,2,14,30,29,081,39,23,20,318,40,17,24,118,26,14,58,069,42*71
$GPGSV,4,3,14,15,59,290,41,22,72,114,,36,35,170,38,34,31,208,*7D
$GPGSV,4,4,14,49,34,195,,61,03,257,*7F
$GLGSV,3,1,10,66,60,311,48,84,10,046,,77,13,235,,65,58,178,44*66
$GLGSV,3,2,10,75,54,037,47,76,58,246,42,74,04,049,,67,09,329,27*64
$GLGSV,3,3,10,83,06,347,,72,05,156,*6B
$GAGSV,3,1,11,03,64,141,43,24,15,045,27,05,13,132,22,16,40,053,*6C
$GAGSV,3,2,11,02,52,194,45,08,59,301,31,25,63,074,48,07,09,308,37*69
$GAGSV,3,3,11,26,03,318,25,30,04,214,,33,02,002,*52
$GBGSV,5,1,19,50,61,233,,33,10,323,36,36,11,063,22,05,20,130,33*64
$GBGSV,5,2,19,40,29,051,31,14,33,311,43,56,29,084,,21,49,192,47*6F
$GBGSV,5,3,19,10,36,068,,42,54,285,43,45,60,060,51,26,59,248,50*66
$GBGSV,5,4,19,09,04,085,,24,09,244,28,29,09,097,,30,09,046,*61
$GBGSV,5,5,19,02,04,109,,22,06,161,,60,07,112,*5E
$GPGGA,091607.00,,,,,0,00,,,M,,M,,*41
$PTNL,GGK,091607.00,010125,4742.4461844,N,01617.9737506,E,1,19,1.4,EHT667.7573,M*4D
$GPGGQ,091607.00,010125,4742.4461844,N,01617.9737506,E,1,19,1.974,624.5463,M*38
$GPGFA,091607.00,11.055,12.240,1.163,0.561,345.979,1.493,,VVV*02
$GPLLK,091607.00,010125,,M,,M,1,19,1.6,,M*0D
$GNGMP,091607.00,,,,,DAAA,19,0.8,,,,*5F
$GPGMP,091607.00,,,,,,05,,,,2.6,123*75
$GLGMP,091607.00,,,,,,04,,,,,*72
$GAGMP,091607.00,,,,,,04,,,,,*7F
$GBGMP,091607.00,,,,,,06,,,,,*7E
$PSSN,SNC,[0,292585000,2347]*45
$GPZDA,091612.00,01,01,2025,,*6E
$GPDTM,W84,,00.0000000,N,00.0000000,E,00.0000000,W84*5F
$GPRMC,091612.00,A,4742.4461890,N,01617.9737572,E,0.0,,010125,5.1,E,D*18
$GPGLL,4742.4461890,N,01617.9737572,E,091612.00,A,D*69
$GPGGA,091612.00,4742.4461890,N,01617.9737572,E,2,21,0.7,624.5634,M,43.2110,M,2.5,0123*46
$GNGNS,091612.00,4742.4461890,N,01617.9737572,E,DAAA,21,0.7,624.5634,43.2110,,*5D
$GPGNS,091612.00,,,,,,06,,,,2.5,123*71
$GLGNS,091612.00,,,,,,04,,,,,*76
$GAGNS,091612.00,,,,,,04,,,,,*7B
$GBGNS,091612.00,,,,,,07,,,,,*7B
$GPLLQ,091612.00,010125,,M,,M,1,21,2.038,,M*16
$GPVTG,,T,,M,0.00,N,0.01,K,D*27
$GPHDT,,T*1B
$GPTHS,,V*0E
$GPROT,,V*08
$PSSN,HRP,091612.00,010125,,,,,,,00,0,,*6C
$PTNL,AVR,091612.00,,Yaw,,Tilt,,,,0,,00*3A
$GPGSA,A,3,05,13,14,15,23,30,,,,,,,1.3,0.7,1.1*33
$GPGSA,A,3,65,66,75,76,,,,,,,,,1.3,0.7,1.1*37
$GPGSA,A,3,02,03,07,25,,,,,,,,,1.3,0.7,1.1*36
$GPGSA,A,3,14,21,26,33,40,42,45,,,,,,1.3,0.7,1.1*36
$GPGST,091612.00,2.359,1.019,0.754,351.668,1.014,0.761,1.596*58
$GPGBS,091612.00,5.037,3.357,5.375,05,0.0001,2.564,0.949*50
$GPGRS,091612.00,1,2.6,-0.8,0.2,-1.0,1.8,-0.5,,,,,,*6D
$GPGRS,091612.00,1,-0.2,-2.9,-2.1,-3.5,,,,,,,,*4F
$GPGRS,091612.00,1,-0.8,-1.2,-3.2,-0.4,,,,,,,,*4D
$GPGRS,091612.00,1,3.1,-2.8,-0.3,-1.6,-1.7,-2.3,-0.6,,,,,*60
$GPGSV,4,1,14,13,82,148,39,05,23,215,38,24,22,275,28,19,10,146,*79
$GPGSV,4,2,14,30,29,081,37,23,20,318,40,17,24,118,25,14,58,069,43*7D
$GPGSV,4,3,14,15,59,290,41,22,72,114,,36,35,170,38,34,31,208,*7D
$GPGSV,4,4,14,49,34,195,,61,03,257,*7F
$GLGSV,3,1,10,66,60,311,49,84,10,046,,77,13,235,,65,58,178,44*67
$GLGSV,3,2,10,75,54,037,48,76,58,246,42,74,04,049,,67,09,329,29*65
$GLGSV,3,3,10,83,06,347,,72,05,156,*6B
$GAGSV,3,1,11,03,64,141,43,24,15,045,27,05,13,132,22,16,40,053,*6C
$GAGSV,3,2,11,02,52,194,45,08,60,301,33,25,63,074,48,07,09,308,37*61
$GAGSV,3,3,11,26,03,317,25,30,04,214,,33,02,002,*5D
$GBGSV,5,1,19,50,61,233,,33,10,323,36,36,11,063,21,05,20,130,33*67
$GBGSV,5,2,19,40,29,051,36,14,33,311,42,56,29,084,,21,49,192,46*68
$GBGSV,5,3,19,10,36,068,,42,54,285,42,45,60,060,50,26,59,248,49*6E
$GBGSV,5,4,19,09,04,085,,24,09,244,29,29,09,097,,30,09,046,*60
$GBGSV,5,5,19,02,04,109,,22,06,161,,60,07,112,*5E
$GPGGA,091612.00,,,,,0,00,,,M,,M,,*45
$PTNL,GGK,091612.00,010125,4742.4461890,N,01617.9737572,E,1,21,1.3,EHT667.7745,M*48
$GPGGQ,091612.00,010125,4742.4461890,N,01617.9737572,E,1,21,2.038,624.5634,M*3F
$GPGFA,091612.00,9.691,13.085,1.019,0.754,351.668,1.596,,VVV*3D
$GPLLK,091612.00,010125,,M,,M,1,21,1.5,,M*01
$GNGMP,091612.00,,,,,DAAA,21,0.7,,,,*5F
$GPGMP,091612.00,,,,,,06,,,,2.5,123*71
$GLGMP,091612.00,,,,,,04,,,,,*76
$GAGMP,091612.00,,,,,,04,,,,,*7B
$GBGMP,091612.00,,,,,,07,,,,,*7B
$PSSN,SNC,[0,292590000,2347]*41
$GPZDA,091617.00,01,01,2025,,*6B
$GPDTM,W84,,00.0000000,N,00.0000000,E,00.0000000,W84*5F
$GPRMC,091617.00,A,4742.4461858,N,01617.9737612,E,0.0,,010125,5.1,E,D*1C
$GPGLL,4742.4461858,N,01617.9737612,E,091617.00,A,D*6D
$GPGGA,091617.00,4742.4461858,N,01617.9737612,E,2,18,0.9,624.5940,M,43.2110,M,3.0,0123*4E
$GNGNS,091617.00,4742.4461858,N,01617.9737612,E,DAAA,18,0.9,624.5940,43.2110,,*51
$GPGNS,091617.00,,,,,,04,,,,3.0,123*72
$GLGNS,091617.00,,,,,,04,,,,,*73
$GAGNS,091617.00,,,,,,04,,,,,*7E
$GBGNS,091617.00,,,,,,06,,,,,*7F
$GPLLQ,091617.00,010125,,M,,M,1,18,6.889,,M*1F
$GPVTG,,T,,M,0.01,N,0.01,K,D*26
$GPHDT,,T*1B
$GPTHS,,V*0E
$GPROT,,V*08
$PSSN,HRP,091617.00,010125,,,,,,,00,0,,*69
$PTNL,AVR,091617.00,,Yaw,,Tilt,,,,0,,00*3F
$GPGSA,A,3,13,14,15,23,,,,,,,,,1.7,0.9,1.5*3B
$GPGSA,A,3,65,66,75,76,,,,,,,,,1.7,0.9,1.5*39
$GPGSA,A,3,02,03,07,25,,,,,,,,,1.7,0.9,1.5*38
$GPGSA,A,3,14,21,26,40,42,45,,,,,,,1.7,0.9,1.5*38
$GPGST,091617.00,2.362,4.397,1.088,4.057,4.387,1.129,5.191*5B
$GPGBS,091617.00,15.721,5.689,21.155,23,0.0001,3.785,1.042*59
$GPGRS,091617.00,1,-0.9,0.4,-0.9,3.8,,,,,,,,*49
$GPGRS,091617.00,1,0.6,-2.0,-1.9,-3.0,,,,,,,,*64
$GPGRS,091617.00,1,-0.9,-1.0,-3.6,-0.0,,,,,,,,*4B
$GPGRS,091617.00,1,2.0,-1.9,-0.2,-1.3,-2.0,-0.5,,,,,,*66
$GPGSV,4,1,14,13,82,148,39,05,23,215,39,24,22,275,32,19,10,146,*73
$GPGSV,4,2,14,30,29,081,35,23,20,318,40,17,25,118,,14,58,069,43*79
$GPGSV,4,3,14,15,59,290,41,22,72,114,,36,35,170,38,34,31,208,*7D
$GPGSV,4,4,14,49,34,195,,61,03,257,*7F
$GLGSV,3,1,10,66,60,311,49,84,10,046,,77,13,235,,65,58,178,45*66
$GLGSV,3,2,10,75,54,038,48,76,58,246,43,74,04,049,,67,10,329,29*63
$GLGSV,3,3,10,83,06,347,,72,04,156,*6A
$GAGSV,3,1,11,03,64,141,43,24,15,045,29,05,13,132,23,16,40,053,*63
$GAGSV,3,2,11,02,52,194,44,08,60,301,35,25,63,074,48,07,09,308,37*66
$GAGSV,3,3,11,26,03,317,27,30,04,214,,33,02,002,*5F
$GBGSV,5,1,19,50,61,233,,33,10,323,34,36,11,063,21,05,20,130,33*65
$GBGSV,5,2,19,40,29,051,36,14,33,311,41,56,29,084,,21,49,192,45*68
$GBGSV,5,3,19,10,36,068,,42,54,285,42,45,60,060,50,26,59,248,48*6F
$GBGSV,5,4,19,09,04,085,,24,09,244,30,29,09,097,,30,09,046,*68
$GBGSV,5,5,19,02,04,109,,22,06,161,,60,07,112,*5E
$GPGGA,091617.00,,,,,0,00,,,M,,M,,*40
$PTNL,GGK,091617.00,010125,4742.4461858,N,01617.9737612,E,1,18,1.7,EHT667.8050,M*4E
$GPGGQ,091617.00,010125,4742.4461858,N,01617.9737612,E,1,18,6.889,624.5940,M*3B
$GPGFA,091617.00,41.805,42.563,4.397,1.088,4.057,5.191,,VVV*07
$GPLLK,091617.00,010125,,M,,M,1,18,2.1,,M*09
$GNGMP,091617.00,,,,,DAAA,18,0.9,,,,*5E
$GPGMP,091617.00,,,,,,04,,,,3.0,123*72
$GLGMP,091617.00,,,,,,04,,,,,*73
$GAGMP,091617.00,,,,,,04,,,,,*7E
$GBGMP,091617.00,,,,,,06,,,,,*7F
$PSSN,SNC,[0,292595000,2347]*44
$GPZDA,091622.00,01,01,2025,,*6D
$GPDTM,W84,,00.0000000,N,00.0000000,E,00.0000000,W84*5F
$GPRMC,091622.00,A,4742.4461864,N,01617.9737510,E,0.0,,010125,5.1,E,D*14
$GPGLL,4742.4461864,N,01617.9737510,E,091622.00,A,D*65
$GPGGA,091622.00,4742.4461864,N,01617.9737510,E,2,17,1.0,624.5990,M,43.2110,M,1.7,0123*49
$GNGNS,091622.00,4742.4461864,N,01617.9737510,E,DAAA,17,1.0,624.5990,43.2110,,*53
$GPGNS,091622.00,,,,,,03,,,,1.7,123*76
$GLGNS,091622.00,,,,,,04,,,,,*75
$GAGNS,091622.00,,,,,,05,,,,,*79
$GBGNS,091622.00,,,,,,05,,,,,*7A
$GPLLQ,091622.00,010125,,M,,M,1,17,6.876,,M*16
$GPVTG,,T,,M,0.01,N,0.02,K,D*25
$GPHDT,,T*1B
$GPTHS,,V*0E
$GPROT,,V*08
$PSSN,HRP,091622.00,010125,,,,,,,00,0,,*6F
$PTNL,AVR,091622.00,,Yaw,,Tilt,,,,0,,00*39
$GPGSA,A,3,13,14,15,,,,,,,,,,1.9,1.0,1.7*3E
$GPGSA,A,3,65,66,75,76,,,,,,,,,1.9,1.0,1.7*3D
$GPGSA,A,3,02,03,07,08,25,,,,,,,,1.9,1.0,1.7*34
$GPGSA,A,3,14,21,26,42,45,,,,,,,,1.9,1.0,1.7*38
$GPGST,091622.00,1.616,2.809,0.656,359.379,2.809,0.656,6.242*59
$GPGBS,091622.00,20.708,5.659,58.888,15,0.0001,-0.691,0.675*74
$GPGRS,091622.00,1,0.4,0.5,-0.7,,,,,,,,,*45
$GPGRS,091622.00,1,2.7,-1.8,-1.4,-1.7,,,,,,,,*62
$GPGRS,091622.00,1,-0.5,-0.1,-2.1,1.0,0.5,,,,,,,*40
$GPGRS,091622.00,1,-0.9,-1.2,0.0,-1.3,-0.1,,,,,,,*67
$GPGSV,4,1,14,13,82,148,40,05,23,215,39,24,22,275,32,19,10,146,*7D
$GPGSV,4,2,14,30,29,081,32,23,20,318,40,17,25,118,,14,58,069,44*79
$GPGSV,4,3,14,15,59,290,40,22,72,114,,36,35,170,38,34,31,208,*7C
$GPGSV,4,4,14,49,34,195,,61,03,257,*7F
$GLGSV,3,1,10,66,60,311,49,84,10,046,,77,13,235,,65,58,178,46*65
$GLGSV,3,2,10,75,54,038,49,76,58,246,45,74,04,049,,67,10,329,28*65
$GLGSV,3,3,10,83,06,347,,72,04,156,*6A
$GAGSV,3,1,11,03,64,141,44,24,15,045,28,05,13,132,22,16,40,053,*64
$GAGSV,3,2,11,02,52,194,43,08,60,301,36,25,63,074,48,07,09,308,36*63
$GAGSV,3,3,11,26,03,317,29,30,04,214,,33,02,002,*51
$GBGSV,5,1,19,50,61,233,,33,10,323,33,36,11,063,,05,20,130,33*61
$GBGSV,5,2,19,40,29,051,31,14,33,311,40,56,29,084,,21,49,192,46*6D
$GBGSV,5,3,19,10,36,068,,42,54,285,42,45,60,060,50,26,59,248,47*60
$GBGSV,5,4,19,09,04,085,,24,09,244,30,29,09,097,,30,09,046,*68
$GBGSV,5,5,19,02,04,109,,22,06,161,,60,07,112,*5E
$GPGGA,091622.00,,,,,0,00,,,M,,M,,*46
$PTNL,GGK,091622.00,010125,4742.4461864,N,01617.9737510,E,1,17,1.9,EHT667.8101,M*42
$GPGGQ,091622.00,010125,4742.4461864,N,01617.9737510,E,1,17,6.876,624.5990,M*31
$GPGFA,091622.00,26.704,51.184,2.809,0.656,359.379,6.242,,VVV*05
$GPLLK,091622.00,010125,,M,,M,1,17,2.4,,M*05
$GNGMP,091622.00,,,,,DAAA,17,1.0,,,,*5F
$GPGMP,091622.00,,,,,,03,,,,1.7,123*76
$GLGMP,091622.00,,,,,,04,,,,,*75
$GAGMP,091622.00,,,,,,05,,,,,*79
$GBGMP,091622.00,,,,,,05,,,,,*7A
$PSSN,SNC,[0,292600000,2347]*4B
$GPZDA,091627.00,01,01,2025,,*68
$GPDTM,W84,,00.0000000,N,00.0000000,E,00.0000000,W84*5F
$GPRMC,091627.00,A,4742.4461868,N,01617.9737425,E,0.0,,010125,5.1,E,D*1A
$GPGLL,4742.4461868,N,01617.9737425,E,091627.00,A,D*6B
$GPGGA,091627.00,4742.4461868,N,01617.9737425,E,2,16,1.0,624.6002,M,43.2110,M,2.7,0123*44
$GNGNS,091627.00,4742.4461868,N,01617.9737425,E,DAAA,16,1.0,624.6002,43.2110,,*5D
$GPGNS,091627.00,,,,,,03,,,,2.7,123*70
$GLGNS,091627.00,,,,,,04,,,,,*70
$GAGNS,091627.00,,,,,,04,,,,,*7D
$GBGNS,091627.00,,,,,,05,,,,,*7F
$GPLLQ,091627.00,010125,,M,,M,1,16,8.574,,M*13
$GPVTG,,T,,M,0.00,N,0.01,K,D*27
$GPHDT,,T*1B
$GPTHS,,V*0E
$GPROT,,V*08
$PSSN,HRP,091627.00,010125,,,,,,,00,0,,*6A
$PTNL,AVR,091627.00,,Yaw,,Tilt,,,,0,,00*3C
$GPGSA,A,3,13,14,15,,,,,,,,,,3.2,1.0,3.1*33
$GPGSA,A,3,65,66,75,76,,,,,,,,,3.2,1.0,3.1*30
$GPGSA,A,3,02,03,08,25,,,,,,,,,3.2,1.0,3.1*3E
$GPGSA,A,3,14,21,26,42,45,,,,,,,,3.2,1.0,3.1*35
$GPGST,091627.00,2.193,3.118,0.647,359.907,3.118,0.647,7.961*5D
$GPGBS,091627.00,25.743,5.908,60.832,15,0.0001,-0.687,0.695*73
$GPGRS,091627.00,1,0.0,0.6,-0.7,,,,,,,,,*47
$GPGRS,091627.00,1,3.6,-2.4,-1.1,-1.3,,,,,,,,*69
$GPGRS,091627.00,1,-0.5,0.1,0.9,0.4,,,,,,,,*61
$GPGRS,091627.00,1,-3.9,-1.6,-0.4,-1.4,-0.6,,,,,,,*4C
$GPGSV,4,1,14,13,82,148,41,05,23,215,38,24,22,275,30,19,10,146,*7F
$GPGSV,4,2,14,30,29,081,27,23,20,318,38,17,25,118,33,14,58,069,45*73
$GPGSV,4,3,14,15,59,290,40,22,72,114,,36,35,170,37,34,31,208,*73
$GPGSV,4,4,14,49,34,195,,61,03,257,*7F
$GLGSV,3,1,10,66,60,311,48,84,10,046,,77,13,235,,65,58,178,46*64
$GLGSV,3,2,10,75,54,038,50,76,59,246,45,74,04,049,,67,10,329,27*63
$GLGSV,3,3,10,83,06,347,,72,04,156,*6A
$GAGSV,3,1,11,03,64,141,45,24,15,045,28,05,13,132,23,16,40,053,*64
$GAGSV,3,2,11,02,52,194,43,08,60,301,38,25,63,074,48,07,09,308,35*6E
$GAGSV,3,3,11,26,03,317,29,30,04,214,,33,02,002,*51
$GBGSV,5,1,19,50,61,233,,33,10,323,32,36,11,063,,05,20,130,33*60
$GBGSV,5,2,19,40,29,051,31,14,33,311,39,56,29,084,,21,49,192,46*63
$GBGSV,5,3,19,10,36,068,,42,54,285,42,45,60,060,49,26,59,248,46*69
$GBGSV,5,4,19,09,04,085,,24,09,244,31,29,09,097,,30,09,046,*69
$GBGSV,5,5,19,02,04,109,,22,06,161,,60,07,112,*5E
$GPGGA,091627.00,,,,,0,00,,,M,,M,,*43
$PTNL,GGK,091627.00,010125,4742.4461868,N,01617.9737425,E,1,16,3.2,EHT667.8113,M*47
$GPGGQ,091627.00,010125,4742.4461868,N,01617.9737425,E,1,16,8.574,624.6002,M*3E
$GPGFA,091627.00,29.641,65.282,3.118,0.647,359.907,7.961,,VVV*0D
$GPLLK,091627.00,010125,,M,,M,1,16,4.1,,M*02
$GNGMP,091627.00,,,,,DAAA,16,1.0,,,,*5B
$GPGMP,091627.00,,,,,,03,,,,2.7,123*70
$GLGMP,091627.00,,,,,,04,,,,,*70
$GAGMP,091627.00,,,,,,04,,,,,*7D
$GBGMP,091627.00,,,,,,05,,,,,*7F
$PSSN,SNC,[0,292605000,2347]*4E
$GPZDA,091632.00,01,01,2025,,*6C
$GPDTM,W84,,00.0000000,N,00.0000000,E,00.0000000,W84*5F
$GPRMC,091632.00,A,4742.4461877,N,01617.9737355,E,0.0,,010125,5.1,E,D*10
$GPGLL,4742.4461877,N,01617.9737355,E,091632.00,A,D*61
$GPGGA,091632.00,4742.4461877,N,01617.9737355,E,2,16,1.0,624.5914,M,43.2110,M,2.3,0123*47
$GNGNS,091632.00,4742.4461877,N,01617.9737355,E,DAAA,16,1.0,624.5914,43.2110,,*5A
$GPGNS,091632.00,,,,,,03,,,,2.3,123*70
$GLGNS,091632.00,,,,,,04,,,,,*74
$GAGNS,091632.00,,,,,,04,,,,,*79
$GBGNS,091632.00,,,,,,05,,,,,*7B
$GPLLQ,091632.00,010125,,M,,M,1,16,9.334,,M*14
$GPVTG,,T,,M,0.00,N,0.01,K,D*27
$GPHDT,,T*1B
$GPTHS,,V*0E
$GPROT,,V*08
$PSSN,HRP,091632.00,010125,,,,,,,00,0,,*6E
$PTNL,AVR,091632.00,,Yaw,,Tilt,,,,0,,00*38
$GPGSA,A,3,13,14,15,,,,,,,,,,3.2,1.0,3.1*33
