$GPZDA,174442.00,01,01,2025,,*63
$GPDTM,W84,,00.0000000,N,00.0000000,E,00.0000000,W84*5F
$GPRMC,174442.00,A,4742.4461989,N,01617.9735441,E,0.0,,010125,5.1,E,D*1F
$GPGLL,4742.4461989,N,01617.9735441,E,174442.00,A,D*6E
$GPGGA,174442.00,4742.4461989,N,01617.9735441,E,2,25,0.6,624.3008,M,43.2110,M,2.7,0123*49
$GNGNS,174442.00,4742.4461989,N,01617.9735441,E,DAAA,25,0.6,624.3008,43.2110,,*50
$GPGNS,174442.00,,,,,,07,,,,2.7,123*7F
$GLGNS,174442.00,,,,,,05,,,,,*7A
$GAGNS,174442.00,,,,,,04,,,,,*76
$GBGNS,174442.00,,,,,,09,,,,,*78
$GPLLQ,174442.00,010125,,M,,M,1,25,1.676,,M*10
$GPVTG,,T,,M,0.00,N,0.01,K,D*27
$GPHDT,,T*1B
$GPTHS,,V*0E
$GPROT,,V*08
$PSSN,HRP,174442.00,010125,,,,,,,00,0,,*61
$PTNL,AVR,174442.00,,Yaw,,Tilt,,,,0,,00*37
$GPGSA,A,3,16,18,23,26,28,29,31,,,,,,1.1,0.6,1.0*3D
$GPGSA,A,3,73,79,80,81,82,,,,,,,,1.1,0.6,1.0*34
$GPGSA,A,3,13,15,21,27,,,,,,,,,1.1,0.6,1.0*35
$GPGSA,A,3,08,11,13,23,28,34,37,38,43,,,,1.1,0.6,1.0*3B
$GPGST,174442.00,3.112,0.847,0.554,358.070,0.846,0.554,1.336*59
$GPGBS,174442.00,4.822,3.226,7.241,28,0.0001,-2.117,1.266*76
$GPGRS,174442.00,1,0.7,0.6,-1.2,-0.5,-2.1,0.2,0.4,,,,,*4F
$GPGRS,174442.00,1,1.8,5.8,-2.8,0.3,-2.3,,,,,,,*6C
$GPGRS,174442.00,1,-0.1,-0.8,-0.4,-0.9,,,,,,,,*4A
$GPGRS,174442.00,1,-1.9,-1.6,-1.0,-1.1,-0.6,9.8,-3.3,0.4,0.0,,,*6D
$GPGSV,4,1,15,18,81,133,42,28,14,210,36,27,14,277,29,05,24,048,35*76
$GPGSV,4,2,15,25,10,143,,31,28,234,38,23,22,152,35,29,40,079,43*7A
$GPGSV,4,3,15,16,42,305,46,26,68,266,47,20,01,026,,36,35,170,38*7D
$GPGSV,4,4,15,34,31,208,34,49,34,195,36,61,03,257,*43
$GLGSV,3,1,09,82,71,282,46,65,15,039,,73,24,326,47,83,31,243,30*6C
$GLGSV,3,2,09,79,35,174,36,81,48,040,52,80,70,263,49,66,09,086,*66
$GLGSV,3,3,09,72,01,348,*57
$GAGSV,3,1,09,15,62,061,45,23,10,312,,34,12,045,28,27,59,151,48*6A
$GAGSV,3,2,09,13,57,205,45,21,60,297,45,26,07,219,,30,10,137,*60
$GAGSV,3,3,09,09,01,000,*59
$GBGSV,5,1,20,43,85,328,51,12,12,065,19,25,20,178,34,50,14,098,*6C
$GBGSV,5,2,20,21,16,075,,60,10,109,,38,29,042,37,05,22,129,*6A
$GBGSV,5,3,20,28,24,251,41,37,34,305,43,08,40,053,36,34,40,065,35*6B
$GBGSV,5,4,20,13,44,064,45,23,53,232,49,11,65,053,46,02,07,106,*65
$GBGSV,5,5,20,42,07,121,,56,02,086,,58,06,327,,22,07,026,*6B
$GPGGA,174442.00,,,,,0,00,,,M,,M,,*48
$PTNL,GGK,174442.00,010125,4742.4461989,N,01617.9735441,E,1,25,1.1,EHT667.5118,M*45
$GPGGQ,174442.00,010125,4742.4461989,N,01617.9735441,E,1,25,1.676,624.3008,M*3C
$GPGFA,174442.00,8.051,10.953,0.847,0.554,358.070,1.336,,VVV*30
$GPLLK,174442.00,010125,,M,,M,1,25,1.3,,M*0E
$GNGMP,174442.00,,,,,DAAA,25,0.6,,,,*57
$GPGMP,174442.00,,,,,,07,,,,2.7,123*7F
$GLGMP,174442.00,,,,,,05,,,,,*7A
$GAGMP,174442.00,,,,,,04,,,,,*76
$GBGMP,174442.00,,,,,,09,,,,,*78
$PSSN,SNC,[0,323100000,2347]*47
$GPZDA,174447.00,01,01,2025,,*66
$GPDTM,W84,,00.0000000,N,00.0000000,E,00.0000000,W84*5F
$GPRMC,174447.00,A,4742.4461841,N,01617.9735480,E,0.0,,010125,5.1,E,D*12
$GPGLL,4742.4461841,N,01617.9735480,E,174447.00,A,D*63
$GPGGA,174447.00,4742.4461841,N,01617.9735480,E,2,23,0.7,624.2836,M,43.2110,M,3.7,0123*46
$GNGNS,174447.00,4742.4461841,N,01617.9735480,E,DAAA,23,0.7,624.2836,43.2110,,*5E
$GPGNS,174447.00,,,,,,07,,,,3.7,123*7B
$GLGNS,174447.00,,,,,,04,,,,,*7E
$GAGNS,174447.00,,,,,,04,,,,,*73
$GBGNS,174447.00,,,,,,08,,,,,*7C
$GPLLQ,174447.00,010125,,M,,M,1,23,1.721,,M*10
$GPVTG,,T,,M,0.00,N,0.00,K,D*26
$GPHDT,,T*1B
$GPTHS,,V*0E
$GPROT,,V*08
$PSSN,HRP,174447.00,010125,,,,,,,00,0,,*64
$PTNL,AVR,174447.00,,Yaw,,Tilt,,,,0,,00*32
$GPGSA,A,3,16,18,23,26,28,29,31,,,,,,1.2,0.7,1.0*3F
$GPGSA,A,3,73,80,81,82,,,,,,,,,1.2,0.7,1.0*38
$GPGSA,A,3,13,15,21,27,,,,,,,,,1.2,0.7,1.0*37
$GPGSA,A,3,08,11,13,23,28,37,38,43,,,,,1.2,0.7,1.0*3E
$GPGST,174447.00,1.576,0.850,0.554,4.588,0.849,0.556,1.390*57
$GPGBS,174447.00,4.987,3.278,7.409,28,0.0001,-2.698,1.279*72
$GPGRS,174447.00,1,0.5,0.7,-1.5,-0.3,-2.7,0.4,0.7,,,,,*4B
$GPGRS,174447.00,1,0.6,-2.0,1.1,-2.5,,,,,,,,*48
$GPGRS,174447.00,1,0.2,-0.4,-0.7,-0.7,,,,,,,,*60
$GPGRS,174447.00,1,-2.2,-1.3,-1.1,-1.1,-0.6,-2.3,1.1,0.1,,,,*4F
$GPGSV,4,1,15,18,81,133,42,28,13,210,36,27,14,277,32,05,24,048,22*7D
$GPGSV,4,2,15,23,22,152,36,31,28,234,37,16,42,305,47,29,40,079,42*73
$GPGSV,4,3,15,26,68,266,48,20,01,026,,25,10,143,,36,35,170,39*76
$GPGSV,4,4,15,34,31,208,34,49,34,195,36,61,03,257,*43
$GLGSV,3,1,09,82,71,282,45,65,15,039,,73,24,325,45,83,31,243,28*67
$GLGSV,3,2,09,79,34,174,33,81,48,040,52,80,70,263,49,66,09,086,*62
$GLGSV,3,3,09,72,01,348,*57
$GAGSV,3,1,09,15,62,061,45,23,10,312,,34,12,045,28,27,59,151,48*6A
$GAGSV,3,2,09,13,57,205,45,21,60,297,44,26,07,219,,30,10,137,*61
$GAGSV,3,3,09,09,01,000,*59
$GBGSV,5,1,20,43,85,328,50,12,12,065,,25,20,178,33,50,14,098,*62
$GBGSV,5,2,20,21,16,074,,60,10,109,,38,29,042,37,05,22,129,*6B
$GBGSV,5,3,20,28,24,251,42,37,34,305,44,08,40,053,36,34,40,065,33*69
$GBGSV,5,4,20,13,44,064,45,23,53,231,50,11,65,053,46,02,07,106,*6E
$GBGSV,5,5,20,42,07,121,,56,02,086,,58,06,327,,22,07,026,*6B
$GPGGA,174447.00,,,,,0,00,,,M,,M,,*4D
$PTNL,GGK,174447.00,010125,4742.4461841,N,01617.9735480,E,1,23,1.2,EHT667.4946,M*4F
$GPGGQ,174447.00,010125,4742.4461841,N,01617.9735480,E,1,23,1.721,624.2836,M*30
$GPGFA,174447.00,8.085,11.397,0.850,0.554,4.588,1.390,,VVV*3D
$GPLLK,174447.00,010125,,M,,M,1,23,1.4,,M*0A
$GNGMP,174447.00,,,,,DAAA,23,0.7,,,,*55
$GPGMP,174447.00,,,,,,07,,,,3.7,123*7B
$GLGMP,174447.00,,,,,,04,,,,,*7E
$GAGMP,174447.00,,,,,,04,,,,,*73
$GBGMP,174447.00,,,,,,08,,,,,*7C
$PSSN,SNC,[0,323105000,2347]*42
$GPZDA,174452.00,01,01,2025,,*62
$GPDTM,W84,,00.0000000,N,00.0000000,E,00.0000000,W84*5F
$GPRMC,174452.00,A,4742.4461765,N,01617.9735489,E,0.0,,010125,5.1,E,D*16
$GPGLL,4742.4461765,N,01617.9735489,E,174452.00,A,D*67
$GPGGA,174452.00,4742.4461765,N,01617.9735489,E,2,23,0.7,624.2699,M,43.2110,M,2.0,0123*4F
$GNGNS,174452.00,4742.4461765,N,01617.9735489,E,DAAA,23,0.7,624.2699,43.2110,,*51
$GPGNS,174452.00,,,,,,06,,,,2.0,123*78
$GLGNS,174452.00,,,,,,04,,,,,*7A
$GAGNS,174452.00,,,,,,04,,,,,*77
$GBGNS,174452.00,,,,,,09,,,,,*79
$GPLLQ,174452.00,010125,,M,,M,1,23,1.405,,M*11
$GPVTG,,T,,M,0.01,N,0.02,K,D*25
$GPHDT,,T*1B
$GPTHS,,V*0E
$GPROT,,V*08
$PSSN,HRP,174452.00,010125,,,,,,,00,0,,*60
$PTNL,AVR,174452.00,,Yaw,,Tilt,,,,0,,00*36
$GPGSA,A,3,16,18,26,28,29,31,,,,,,,1.2,0.7,1.0*3E
$GPGSA,A,3,73,80,81,82,,,,,,,,,1.2,0.7,1.0*38
$GPGSA,A,3,13,15,21,27,,,,,,,,,1.2,0.7,1.0*37
$GPGSA,A,3,08,11,13,23,28,34,37,38,43,,,,1.2,0.7,1.0*39
$GPGST,174452.00,1.883,0.730,0.473,352.020,0.726,0.479,1.103*5C
$GPGBS,174452.00,5.931,4.189,6.463,28,0.0001,-2.044,1.252*73
$GPGRS,174452.00,1,-0.1,0.2,-0.0,-2.0,-0.0,1.0,,,,,,*4F
$GPGRS,174452.00,1,-0.7,-2.1,0.8,-3.6,,,,,,,,*6B
$GPGRS,174452.00,1,0.0,-0.1,-0.5,-1.0,,,,,,,,*67
$GPGRS,174452.00,1,-2.2,-2.0,-1.2,-1.3,0.2,-3.9,-1.6,1.6,-0.3,,,*44
$GPGSV,4,1,15,18,81,133,43,28,13,210,35,27,14,277,,05,24,048,31*7C
$GPGSV,4,2,15,23,22,152,31,31,28,234,37,16,42,304,47,29,40,079,39*79
$GPGSV,4,3,15,26,68,266,49,20,01,026,,25,10,143,,36,35,170,39*77
$GPGSV,4,4,15,34,31,208,34,49,34,195,37,61,03,257,*42
$GLGSV,3,1,09,82,71,283,45,65,15,039,,73,24,325,45,83,31,243,28*66
$GLGSV,3,2,09,79,34,174,30,81,48,040,53,80,70,263,49,66,09,086,*60
$GLGSV,3,3,09,72,01,348,*57
$GAGSV,3,1,09,15,62,061,45,23,10,312,,34,12,045,29,27,59,151,48*6B
$GAGSV,3,2,09,13,57,205,44,21,60,297,44,26,07,219,,30,10,137,*60
$GAGSV,3,3,09,09,01,000,*59
$GBGSV,5,1,20,43,85,329,50,12,12,065,,25,20,178,31,50,14,098,*61
$GBGSV,5,2,20,21,16,074,,60,10,109,,38,29,042,37,05,22,129,*6B
$GBGSV,5,3,20,28,24,251,42,37,34,305,44,08,40,053,36,34,40,065,40*6D
$GBGSV,5,4,20,13,44,064,45,23,53,231,50,11,65,053,46,02,07,106,*6E
$GBGSV,5,5,20,42,07,121,,56,02,086,,58,06,327,,22,07,026,*6B
$GPGGA,174452.00,,,,,0,00,,,M,,M,,*49
$PTNL,GGK,174452.00,010125,4742.4461765,N,01617.9735489,E,1,23,1.2,EHT667.4810,M*49
$GPGGQ,174452.00,010125,4742.4461765,N,01617.9735489,E,1,23,1.405,624.2699,M*3A
$GPGFA,174452.00,6.942,9.043,0.730,0.473,352.020,1.103,,VVV*04
$GPLLK,174452.00,010125,,M,,M,1,23,1.5,,M*0F
$GNGMP,174452.00,,,,,DAAA,23,0.7,,,,*51
$GPGMP,174452.00,,,,,,06,,,,2.0,123*78
$GLGMP,174452.00,,,,,,04,,,,,*7A
$GAGMP,174452.00,,,,,,04,,,,,*77
$GBGMP,174452.00,,,,,,09,,,,,*79
$PSSN,SNC,[0,323110000,2347]*46
$GPZDA,174457.00,01,01,2025,,*67
$GPDTM,W84,,00.0000000,N,00.0000000,E,00.0000000,W84*5F
$GPRMC,174457.00,A,4742.4461725,N,01617.9735565,E,0.0,,010125,5.1,E,D*14
$GPGLL,4742.4461725,N,01617.9735565,E,174457.00,A,D*65
$GPGGA,174457.00,4742.4461725,N,01617.9735565,E,2,21,0.7,624.2540,M,43.2110,M,1.8,0123*43
$GNGNS,174457.00,4742.4461725,N,01617.9735565,E,DAAA,21,0.7,624.2540,43.2110,,*56
$GPGNS,174457.00,,,,,,05,,,,1.8,123*75
$GLGNS,174457.00,,,,,,04,,,,,*7F
$GAGNS,174457.00,,,,,,04,,,,,*72
$GBGNS,174457.00,,,,,,08,,,,,*7D
$GPLLQ,174457.00,010125,,M,,M,1,21,1.466,,M*13
$GPVTG,,T,,M,0.00,N,0.00,K,D*26
$GPHDT,,T*1B
$GPTHS,,V*0E
$GPROT,,V*08
$PSSN,HRP,174457.00,010125,,,,,,,00,0,,*65
$PTNL,AVR,174457.00,,Yaw,,Tilt,,,,0,,00*33
$GPGSA,A,3,16,18,23,26,29,,,,,,,,1.3,0.7,1.1*37
$GPGSA,A,3,73,80,81,82,,,,,,,,,1.3,0.7,1.1*38
$GPGSA,A,3,13,15,21,27,,,,,,,,,1.3,0.7,1.1*37
$GPGSA,A,3,08,11,13,23,28,37,38,43,,,,,1.3,0.7,1.1*3E
$GPGST,174457.00,1.633,0.750,0.480,22.367,0.717,0.528,1.165*65
$GPGBS,174457.00,5.079,4.538,8.431,26,0.0001,0.595,0.623*5F
$GPGRS,174457.00,1,0.3,-0.0,-0.8,0.6,-0.7,,,,,,,*43
$GPGRS,174457.00,1,0.4,-1.7,1.3,-2.5,,,,,,,,*4D
$GPGRS,174457.00,1,-0.2,0.5,0.3,-0.3,,,,,,,,*4D
$GPGRS,174457.00,1,-2.6,-1.9,-0.4,-0.7,1.4,-1.0,3.2,0.5,,,,*68
$GPGSV,4,1,15,18,81,133,43,28,13,210,35,27,14,277,34,05,24,048,30*7A
$GPGSV,4,2,15,23,22,152,37,31,28,234,34,16,42,304,47,29,40,079,35*70
$GPGSV,4,3,15,26,68,265,49,20,01,026,,25,10,143,,36,35,170,39*74
$GPGSV,4,4,15,34,31,208,34,49,34,195,37,61,03,257,*42
$GLGSV,3,1,09,82,72,283,44,65,15,039,,73,24,325,45,83,31,243,28*64
$GLGSV,3,2,09,79,34,174,34,81,48,040,53,80,70,263,49,66,09,086,*64
$GLGSV,3,3,09,72,01,348,*57
$GAGSV,3,1,09,15,62,061,45,23,10,312,,34,12,045,28,27,59,151,48*6A
$GAGSV,3,2,09,13,57,205,43,21,60,297,43,26,07,219,,30,10,137,*60
$GAGSV,3,3,09,09,01,000,*59
$GBGSV,5,1,20,43,85,329,50,12,12,065,,25,20,178,28,50,14,098,*69
$GBGSV,5,2,20,21,16,074,,60,10,109,,38,29,042,38,05,22,129,*64
$GBGSV,5,3,20,28,24,251,41,37,34,305,44,08,40,053,36,34,40,065,29*61
$GBGSV,5,4,20,13,44,064,45,23,53,231,50,11,65,053,45,02,07,106,*6D
$GBGSV,5,5,20,42,07,121,,56,02,086,,58,06,327,,22,07,026,*6B
$GPGGA,174457.00,,,,,0,00,,,M,,M,,*4C
$PTNL,GGK,174457.00,010125,4742.4461725,N,01617.9735565,E,1,21,1.3,EHT667.4651,M*43
$GPGGQ,174457.00,010125,4742.4461725,N,01617.9735565,E,1,21,1.466,624.2540,M*38
$GPGFA,174457.00,7.130,9.551,0.750,0.480,22.367,1.165,,VVV*35
$GPLLK,174457.00,010125,,M,,M,1,21,1.6,,M*0B
$GNGMP,174457.00,,,,,DAAA,21,0.7,,,,*56
$GPGMP,174457.00,,,,,,05,,,,1.8,123*75
$GLGMP,174457.00,,,,,,04,,,,,*7F
$GAGMP,174457.00,,,,,,04,,,,,*72
$GBGMP,174457.00,,,,,,08,,,,,*7D
$PSSN,SNC,[0,323115000,2347]*43
$GPZDA,174502.00,01,01,2025,,*66
$GPDTM,W84,,00.0000000,N,00.0000000,E,00.0000000,W84*5F
$GPRMC,174502.00,A,4742.4461669,N,01617.9735581,E,0.0,,010125,5.1,E,D*16
$GPGLL,4742.4461669,N,01617.9735581,E,174502.00,A,D*67
$GPGGA,174502.00,4742.4461669,N,01617.9735581,E,2,20,0.8,624.2492,M,43.2111,M,3.0,0123*4A
$GNGNS,174502.00,4742.4461669,N,01617.9735581,E,DAAA,20,0.8,624.2492,43.2111,,*55
$GPGNS,174502.00,,,,,,03,,,,3.0,123*78
$GLGNS,174502.00,,,,,,05,,,,,*7F
$GAGNS,174502.00,,,,,,04,,,,,*73
$GBGNS,174502.00,,,,,,08,,,,,*7C
$GPLLQ,174502.00,010125,,M,,M,1,20,5.384,,M*1C
$GPVTG,,T,,M,0.01,N,0.01,K,D*26
$GPHDT,,T*1B
$GPTHS,,V*0E
$GPROT,,V*08
$PSSN,HRP,174502.00,010125,,,,,,,00,0,,*64
$PTNL,AVR,174502.00,,Yaw,,Tilt,,,,0,,00*32
$GPGSA,A,3,16,18,26,,,,,,,,,,1.5,0.8,1.3*36
$GPGSA,A,3,73,79,80,81,82,,,,,,,,1.5,0.8,1.3*3D
$GPGSA,A,3,13,15,21,27,,,,,,,,,1.5,0.8,1.3*3C
$GPGSA,A,3,08,11,13,23,28,37,38,43,,,,,1.5,0.8,1.3*35
$GPGST,174502.00,1.978,2.262,1.296,359.769,2.262,1.296,4.711*51
$GPGBS,174502.00,20.881,9.673,44.983,26,0.0001,0.435,0.632*50
$GPGRS,174502.00,1,-0.1,-0.3,0.4,,,,,,,,,*63
$GPGRS,174502.00,1,0.9,-2.0,-1.8,1.4,-3.3,,,,,,,*4F
$GPGRS,174502.00,1,-1.0,-0.2,0.1,-0.5,,,,,,,,*61
$GPGRS,174502.00,1,-2.4,-1.2,-0.4,-0.7,1.9,-1.6,3.8,0.6,,,,*62
$GPGSV,4,1,15,18,81,132,44,28,13,210,35,27,15,277,32,05,24,048,22*78
$GPGSV,4,2,15,23,22,152,28,31,28,233,32,16,42,304,48,29,40,079,34*71
$GPGSV,4,3,15,26,68,265,50,20,01,026,,25,10,143,,36,35,170,38*7D
$GPGSV,4,4,15,34,31,208,34,49,34,195,37,61,03,257,*42
$GLGSV,3,1,09,82,72,283,43,65,15,038,,73,25,325,44,83,31,243,28*62
$GLGSV,3,2,09,79,34,174,38,81,47,040,53,80,70,262,49,66,09,086,*66
$GLGSV,3,3,09,72,01,347,*58
$GAGSV,3,1,09,15,62,061,45,23,10,312,,34,12,045,29,27,59,151,48*6B
$GAGSV,3,2,09,13,58,205,42,21,60,297,43,26,07,219,,30,10,137,*6E
$GAGSV,3,3,09,09,01,000,*59
$GBGSV,5,1,20,43,85,329,50,12,12,065,,60,10,109,,25,20,178,24*6B
$GBGSV,5,2,20,21,16,074,,50,14,098,,38,29,042,38,05,22,129,*6A
$GBGSV,5,3,20,28,24,251,40,37,34,304,44,08,40,053,36,34,40,065,32*6B
$GBGSV,5,4,20,13,44,064,45,23,53,231,50,11,65,053,45,02,07,106,*6D
$GBGSV,5,5,20,42,07,121,,56,02,086,,58,06,327,,22,07,026,*6B
$GPGGA,174502.00,,,,,0,00,,,M,,M,,*4D
$PTNL,GGK,174502.00,010125,4742.4461669,N,01617.9735581,E,1,20,1.5,EHT667.4602,M*40
$GPGGQ,174502.00,010125,4742.4461669,N,01617.9735581,E,1,20,5.384,624.2492,M*3A
$GPGFA,174502.00,21.506,38.628,2.262,1.296,359.769,4.711,,VVV*0D
$GPLLK,174502.00,010125,,M,,M,1,20,1.8,,M*05
$GNGMP,174502.00,,,,,DAAA,20,0.8,,,,*59
$GPGMP,174502.00,,,,,,03,,,,3.0,123*78
$GLGMP,174502.00,,,,,,05,,,,,*7F
$GAGMP,174502.00,,,,,,04,,,,,*73
$GBGMP,174502.00,,,,,,08,,,,,*7C
$PSSN,SNC,[0,323120000,2347]*45
$GPZDA,174507.00,01,01,2025,,*63
$GPDTM,W84,,00.0000000,N,00.0000000,E,00.0000000,W84*5F
$GPRMC,174507.00,A,4742.4461653,N,01617.9735632,E,0.0,,010125,5.1,E,D*11
$GPGLL,4742.4461653,N,01617.9735632,E,174507.00,A,D*60
$GPGGA,174507.00,4742.4461653,N,01617.9735632,E,2,23,0.7,624.2473,M,43.2111,M,3.8,0123*46
$GNGNS,174507.00,4742.4461653,N,01617.9735632,E,DAAA,23,0.7,624.2473,43.2111,,*51
$GPGNS,174507.00,,,,,,05,,,,3.8,123*73
$GLGNS,174507.00,,,,,,05,,,,,*7A
$GAGNS,174507.00,,,,,,04,,,,,*76
$GBGNS,174507.00,,,,,,09,,,,,*78
$GPLLQ,174507.00,010125,,M,,M,1,23,1.819,,M*11
$GPVTG,,T,,M,0.01,N,0.01,K,D*26
$GPHDT,,T*1B
$GPTHS,,V*0E
$GPROT,,V*08
$PSSN,HRP,174507.00,010125,,,,,,,00,0,,*61
$PTNL,AVR,174507.00,,Yaw,,Tilt,,,,0,,00*37
$GPGSA,A,3,16,18,23,26,29,,,,,,,,1.3,0.7,1.1*37
$GPGSA,A,3,73,79,80,81,82,,,,,,,,1.3,0.7,1.1*36
$GPGSA,A,3,13,15,21,27,,,,,,,,,1.3,0.7,1.1*37
$GPGSA,A,3,08,11,13,23,28,34,37,38,43,,,,1.3,0.7,1.1*39
$GPGST,174507.00,2.178,0.925,0.577,25.221,0.872,0.654,1.457*6B
$GPGBS,174507.00,5.049,4.611,8.825,29,0.0001,1.296,0.805*59
$GPGRS,174507.00,1,0.2,-1.0,-1.3,0.7,1.3,,,,,,,*64
$GPGRS,174507.00,1,-0.9,-0.5,-1.6,1.7,-3.0,,,,,,,*6E
$GPGRS,174507.00,1,-1.1,-0.3,-0.3,-0.3,,,,,,,,*4D
$GPGRS,174507.00,1,-1.4,-1.1,0.1,-0.4,2.3,4.9,-1.4,4.4,0.1,,,*68
$GPGSV,4,1,15,18,81,132,43,28,13,210,34,27,15,277,32,05,24,048,20*7C
$GPGSV,4,2,15,23,22,152,36,31,28,233,32,16,43,304,48,29,40,079,36*7D
$GPGSV,4,3,15,26,68,265,51,20,01,026,,25,10,143,,36,35,170,38*7C
$GPGSV,4,4,15,34,31,208,34,49,34,195,36,61,03,257,*43
$GLGSV,3,1,09,82,72,283,43,65,15,038,,73,25,325,42,83,31,243,28*64
$GLGSV,3,2,09,79,34,174,40,81,47,040,53,80,70,262,49,66,09,086,*69
$GLGSV,3,3,09,72,01,347,*58
$GAGSV,3,1,09,15,62,061,45,23,10,312,,34,12,045,29,27,59,151,48*6B
$GAGSV,3,2,09,13,58,205,41,21,60,297,43,26,07,219,,30,10,137,*6D
$GAGSV,3,3,09,09,01,000,*59
$GBGSV,5,1,20,43,85,330,50,12,12,065,,60,10,109,,25,20,178,30*66
$GBGSV,5,2,20,21,16,074,,50,14,098,,38,29,042,38,05,22,129,*6A
$GBGSV,5,3,20,28,24,251,39,37,34,304,44,08,40,053,36,34,40,065,35*62
$GBGSV,5,4,20,13,44,064,45,23,53,231,50,11,65,053,45,02,07,106,*6D
$GBGSV,5,5,20,42,07,121,,56,02,086,,58,06,327,,22,07,026,*6B
$GPGGA,174507.00,,,,,0,00,,,M,,M,,*48
$PTNL,GGK,174507.00,010125,4742.4461653,N,01617.9735632,E,1,23,1.3,EHT667.4584,M*4F
$GPGGQ,174507.00,010125,4742.4461653,N,01617.9735632,E,1,23,1.819,624.2473,M*3A
$GPGFA,174507.00,8.791,11.946,0.925,0.577,25.221,1.457,,VVV*05
$GPLLK,174507.00,010125,,M,,M,1,23,1.5,,M*0E
$GNGMP,174507.00,,,,,DAAA,23,0.7,,,,*50
$GPGMP,174507.00,,,,,,05,,,,3.8,123*73
$GLGMP,174507.00,,,,,,05,,,,,*7A
$GAGMP,174507.00,,,,,,04,,,,,*76
$GBGMP,174507.00,,,,,,09,,,,,*78
$PSSN,SNC,[0,323125000,2347]*40
$GPZDA,174512.00,01,01,2025,,*67
$GPDTM,W84,,00.0000000,N,00.0000000,E,00.0000000,W84*5F
$GPRMC,174512.00,A,4742.4461546,N,01617.9735588,E,0.0,,010125,5.1,E,D*10
$GPGLL,4742.4461546,N,01617.9735588,E,174512.00,A,D*61
$GPGGA,174512.00,4742.4461546,N,01617.9735588,E,2,22,0.7,624.2551,M,43.2110,M,1.8,0123*44
$GNGNS,174512.00,4742.4461546,N,01617.9735588,E,DAAA,22,0.7,624.2551,43.2110,,*51
$GPGNS,174512.00,,,,,,04,,,,1.8,123*74
$GLGNS,174512.00,,,,,,05,,,,,*7E
$GAGNS,174512.00,,,,,,04,,,,,*72
$GBGNS,174512.00,,,,,,09,,,,,*7C
$GPLLQ,174512.00,010125,,M,,M,1,22,6.007,,M*14
$GPVTG,,T,,M,0.01,N,0.01,K,D*26
$GPHDT,,T*1B
$GPTHS,,V*0E
$GPROT,,V*08
$PSSN,HRP,174512.00,010125,,,,,,,00,0,,*65
$PTNL,AVR,174512.00,,Yaw,,Tilt,,,,0,,00*33
$GPGSA,A,3,16,18,26,29,,,,,,,,,1.4,0.7,1.2*32
$GPGSA,A,3,73,79,80,81,82,,,,,,,,1.4,0.7,1.2*32
$GPGSA,A,3,13,15,21,27,,,,,,,,,1.4,0.7,1.2*33
$GPGSA,A,3,08,11,13,23,28,34,37,38,43,,,,1.4,0.7,1.2*3D
$GPGST,174512.00,2.110,3.513,0.775,10.454,3.457,0.993,4.811*6E
$GPGBS,174512.00,15.813,3.461,20.699,29,0.0001,2.339,0.818*51
$GPGRS,174512.00,1,-0.2,-1.2,0.5,2.3,,,,,,,,*4F
$GPGRS,174512.00,1,-2.7,0.1,-1.4,1.5,-1.6,,,,,,,*4B
$GPGRS,174512.00,1,-0.5,0.1,-0.5,-0.5,,,,,,,,*63
$GPGRS,174512.00,1,-0.9,-2.2,0.0,-1.0,2.5,3.9,-1.3,3.9,-0.5,,,*41
$GPGSV,4,1,15,18,81,132,42,28,13,210,33,27,15,277,33,05,24,048,28*73
$GPGSV,4,2,15,23,22,152,25,31,28,233,30,16,43,304,48,29,40,079,38*73
$GPGSV,4,3,15,26,68,265,51,20,01,026,,25,10,143,,36,35,170,39*7D
$GPGSV,4,4,15,34,31,208,34,49,34,195,37,61,03,257,*42
$GLGSV,3,1,09,82,72,283,44,65,15,038,,73,25,325,37,83,31,243,29*60
$GLGSV,3,2,09,79,34,174,39,81,47,040,53,80,70,262,49,66,09,086,*67
$GLGSV,3,3,09,72,01,347,*58
$GAGSV,3,1,09,15,62,061,45,23,11,312,,34,12,045,19,27,59,151,48*69
$GAGSV,3,2,09,13,58,205,40,21,60,297,43,26,07,219,,30,10,137,*6C
$GAGSV,3,3,09,09,01,000,*59
$GBGSV,5,1,20,43,85,330,50,12,12,065,,60,10,109,,25,20,178,29*6E
$GBGSV,5,2,20,21,16,074,,50,14,098,,38,29,042,39,05,22,129,*6B
$GBGSV,5,3,20,28,24,251,35,37,34,304,45,08,40,053,36,34,40,065,37*6D
$GBGSV,5,4,20,13,44,064,45,23,53,231,50,11,65,053,45,02,07,106,*6D
$GBGSV,5,5,20,42,07,121,,56,02,086,,58,06,327,,22,07,026,*6B
$GPGGA,174512.00,,,,,0,00,,,M,,M,,*4C
$PTNL,GGK,174512.00,010125,4742.4461546,N,01617.9735588,E,1,22,1.4,EHT667.4661,M*40
$GPGGQ,174512.00,010125,4742.4461546,N,01617.9735588,E,1,22,6.007,624.2551,M*3B
$GPGFA,174512.00,33.400,39.451,3.513,0.775,10.454,4.811,,VVV*30
$GPLLK,174512.00,010125,,M,,M,1,22,1.7,,M*09
$GNGMP,174512.00,,,,,DAAA,22,0.7,,,,*55
$GPGMP,174512.00,,,,,,04,,,,1.8,123*74
$GLGMP,174512.00,,,,,,05,,,,,*7E
$GAGMP,174512.00,,,,,,04,,,,,*72
$GBGMP,174512.00,,,,,,09,,,,,*7C
$PSSN,SNC,[0,323130000,2347]*44
$GPZDA,174517.00,01,01,2025,,*62
$GPDTM,W84,,00.0000000,N,00.0000000,E,00.0000000,W84*5F
$GPRMC,174517.00,A,4742.4461442,N,01617.9735440,E,0.0,,010125,5.1,E,D*15
$GPGLL,4742.4461442,N,01617.9735440,E,174517.00,A,D*64
$GPGGA,174517.00,4742.4461442,N,01617.9735440,E,2,21,0.8,624.2647,M,43.2110,M,1.8,0123*49
$GNGNS,174517.00,4742.4461442,N,01617.9735440,E,DAAA,21,0.8,624.2647,43.2110,,*5C
$GPGNS,174517.00,,,,,,04,,,,1.8,123*71
$GLGNS,174517.00,,,,,,05,,,,,*7B
$GAGNS,174517.00,,,,,,04,,,,,*77
$GBGNS,174517.00,,,,,,08,,,,,*78
$GPLLQ,174517.00,010125,,M,,M,1,21,5.965,,M*1C
$GPVTG,,T,,M,0.00,N,0.01,K,D*27
$GPHDT,,T*1B
$GPTHS,,V*0E
$GPROT,,V*08
$PSSN,HRP,174517.00,010125,,,,,,,00,0,,*60
$PTNL,AVR,174517.00,,Yaw,,Tilt,,,,0,,00*36
$GPGSA,A,3,16,18,26,29,,,,,,,,,1.6,0.8,1.4*39
$GPGSA,A,3,73,79,80,81,82,,,,,,,,1.6,0.8,1.4*39
$GPGSA,A,3,13,15,21,27,,,,,,,,,1.6,0.8,1.4*38
$GPGSA,A,3,08,11,13,23,34,37,38,43,,,,,1.6,0.8,1.4*3C
$GPGST,174517.00,1.771,3.512,0.703,10.983,3.450,0.961,4.770*6C
$GPGBS,174517.00,18.963,3.523,24.843,29,0.0001,2.168,0.782*5F
$GPGRS,174517.00,1,-0.9,-0.5,0.5,2.2,,,,,,,,*46
$GPGRS,174517.00,1,-0.5,-2.1,-0.5,1.2,-1.1,,,,,,,*61
$GPGRS,174517.00,1,-0.7,0.5,-1.0,-0.8,,,,,,,,*69
$GPGRS,174517.00,1,-1.0,-1.9,-0.2,-1.5,2.5,-1.2,3.5,-0.9,,,,*4B
$GPGSV,4,1,15,18,81,132,40,28,13,210,34,27,15,277,33,05,24,048,26*78
$GPGSV,4,2,15,23,22,151,35,31,28,233,28,16,43,304,47,29,40,079,38*77
$GPGSV,4,3,15,26,68,265,51,20,01,026,,25,10,143,,36,35,170,39*7D
$GPGSV,4,4,15,34,31,208,34,49,34,195,36,61,03,257,*43
$GLGSV,3,1,09,82,72,283,45,65,15,038,,73,25,325,40,83,31,244,29*66
$GLGSV,3,2,09,79,34,174,38,81,47,040,53,80,70,262,50,66,09,086,*6E
$GLGSV,3,3,09,72,01,347,*58
$GAGSV,3,1,09,15,62,061,45,23,11,312,,34,12,045,28,27,59,151,47*64
$GAGSV,3,2,09,13,58,205,39,21,60,297,42,26,07,219,,30,09,137,*6B
$GAGSV,3,3,09,09,01,000,*59
$GBGSV,5,1,20,43,85,330,49,12,12,065,,60,10,109,,25,20,178,30*6E
$GBGSV,5,2,20,21,16,074,,50,14,098,,38,29,042,39,05,22,129,*6B
$GBGSV,5,3,20,28,24,251,29,37,34,304,46,08,40,053,36,34,40,065,39*6D
$GBGSV,5,4,20,13,44,064,45,23,53,231,49,11,65,053,46,02,07,106,*66
$GBGSV,5,5,20,42,07,121,,56,02,086,,58,06,327,,22,07,026,*6B
$GPGGA,174517.00,,,,,0,00,,,M,,M,,*49
$PTNL,GGK,174517.00,010125,4742.4461442,N,01617.9735440,E,1,21,1.6,EHT667.4757,M*40
$GPGGQ,174517.00,010125,4742.4461442,N,01617.9735440,E,1,21,5.965,624.2647,M*37
$GPGFA,174517.00,33.390,39.117,3.512,0.703,10.983,4.770,,VVV*33
$GPLLK,174517.00,010125,,M,,M,1,21,2.0,,M*0B
$GNGMP,174517.00,,,,,DAAA,21,0.8,,,,*5C
$GPGMP,174517.00,,,,,,04,,,,1.8,123*71
$GLGMP,174517.00,,,,,,05,,,,,*7B
$GAGMP,174517.00,,,,,,04,,,,,*77
$GBGMP,174517.00,,,,,,08,,,,,*78
$PSSN,SNC,[0,323135000,2347]*41
$GPZDA,174522.00,01,01,2025,,*64
$GPDTM,W84,,00.0000000,N,00.0000000,E,00.0000000,W84*5F
$GPRMC,174522.00,A,4742.4461466,N,01617.9735324,E,0.0,,010125,5.1,E,D*10
$GPGLL,4742.4461466,N,01617.9735324,E,174522.00,A,D*61
$GPGGA,174522.00,4742.4461466,N,01617.9735324,E,2,21,0.8,624.2708,M,43.2110,M,1.8,0123*46
$GNGNS,174522.00,4742.4461466,N,01617.9735324,E,DAAA,21,0.8,624.2708,43.2110,,*53
$GPGNS,174522.00,,,,,,04,,,,1.8,123*77
$GLGNS,174522.00,,,,,,05,,,,,*7D
$GAGNS,174522.00,,,,,,04,,,,,*71
$GBGNS,174522.00,,,,,,08,,,,,*7E
$GPLLQ,174522.00,010125,,M,,M,1,21,5.413,,M*16
$GPVTG,,T,,M,0.01,N,0.02,K,D*25
$GPHDT,,T*1B
$GPTHS,,V*0E
$GPROT,,V*08
$PSSN,HRP,174522.00,010125,,,,,,,00,0,,*66
$PTNL,AVR,174522.00,,Yaw,,Tilt,,,,0,,00*30
$GPGSA,A,3,16,18,26,29,,,,,,,,,1.6,0.8,1.4*39
$GPGSA,A,3,73,79,80,81,82,,,,,,,,1.6,0.8,1.4*39
$GPGSA,A,3,13,15,21,27,,,,,,,,,1.6,0.8,1.4*38
$GPGSA,A,3,08,11,13,23,34,37,38,43,,,,,1.6,0.8,1.4*3C
$GPGST,174522.00,2.397,3.182,0.646,10.906,3.127,0.875,4.331*65
$GPGBS,174522.00,18.869,3.514,24.694,16,0.0001,-1.271,0.732*70
$GPGRS,174522.00,1,-1.3,-0.5,0.6,1.3,,,,,,,,*4A
$GPGRS,174522.00,1,4.2,-4.9,0.0,1.4,0.7,,,,,,,*43
$GPGRS,174522.00,1,-0.9,0.6,-1.3,-1.2,,,,,,,,*6A
$GPGRS,174522.00,1,-0.7,-1.0,-0.2,-2.4,1.6,-1.1,4.0,-1.3,,,,*4A
$GPGSV,4,1,15,18,81,131,39,28,13,210,34,27,15,277,32,05,24,048,25*77
$GPGSV,4,2,15,23,22,151,27,31,28,233,29,16,43,304,46,29,40,079,38*74
$GPGSV,4,3,15,26,68,265,51,20,01,026,,25,10,143,,36,35,170,39*7D
$GPGSV,4,4,15,34,31,208,34,49,34,195,36,61,03,257,*43
$GLGSV,3,1,09,82,72,283,47,65,15,038,31,73,25,325,44,83,31,244,26*6D
$GLGSV,3,2,09,79,34,174,36,81,47,040,53,80,70,262,51,66,09,086,*61
$GLGSV,3,3,09,72,01,347,*58
$GAGSV,3,1,09,15,62,060,45,23,11,312,,34,12,045,27,27,59,151,46*6B
$GAGSV,3,2,09,13,58,205,39,21,60,297,42,26,07,219,,30,09,138,*64
$GAGSV,3,3,09,09,01,000,*59
$GBGSV,5,1,20,43,85,331,48,12,12,065,,60,10,109,,25,20,178,35*6B
$GBGSV,5,2,20,21,16,074,,50,14,098,,38,29,042,40,05,22,129,*65
$GBGSV,5,3,20,28,24,251,34,37,34,304,46,08,40,053,36,34,40,066,41*6D
$GBGSV,5,4,20,13,44,064,45,23,53,231,48,11,65,053,47,02,07,106,*66
$GBGSV,5,5,20,42,07,121,,56,02,086,,58,06,327,,22,07,026,*6B
$GPGGA,174522.00,,,,,0,00,,,M,,M,,*4F
$PTNL,GGK,174522.00,010125,4742.4461466,N,01617.9735324,E,1,21,1.6,EHT667.4819,M*40
$GPGGQ,174522.00,010125,4742.4461466,N,01617.9735324,E,1,21,5.413,624.2708,M*34
$GPGFA,174522.00,30.253,35.510,3.182,0.646,10.906,4.331,,VVV*36
$GPLLK,174522.00,010125,,M,,M,1,21,2.0,,M*0D
$GNGMP,174522.00,,,,,DAAA,21,0.8,,,,*5A
$GPGMP,174522.00,,,,,,04,,,,1.8,123*77
$GLGMP,174522.00,,,,,,05,,,,,*7D
$GAGMP,174522.00,,,,,,04,,,,,*71
$GBGMP,174522.00,,,,,,08,,,,,*7E
$PSSN,SNC,[0,323140000,2347]*43
$GPZDA,174527.00,01,01,2025,,*61
$GPDTM,W84,,00.0000000,N,00.0000000,E,00.0000000,W84*5F
$GPRMC,174527.00,A,4742.4461499,N,01617.9735187,E,0.0,,010125,5.1,E,D*1E
$GPGLL,4742.4461499,N,01617.9735187,E,174527.00,A,D*6F
$GPGGA,174527.00,4742.4461499,N,01617.9735187,E,2,21,0.8,624.2672,M,43.2110,M,2.8,0123*47
$GNGNS,174527.00,4742.4461499,N,01617.9735187,E,DAAA,21,0.8,624.2672,43.2110,,*51
$GPGNS,174527.00,,,,,,04,,,,2.8,123*71
$GLGNS,174527.00,,,,,,05,,,,,*78
$GAGNS,174527.00,,,,,,04,,,,,*74
$GBGNS,174527.00,,,,,,08,,,,,*7B
$GPLLQ,174527.00,010125,,M,,M,1,21,5.579,,M*1E
$GPVTG,,T,,M,0.01,N,0.01,K,D*26
$GPHDT,,T*1B
$GPTHS,,V*0E
$GPROT,,V*08
$PSSN,HRP,174527.00,010125,,,,,,,00,0,,*63
$PTNL,AVR,174527.00,,Yaw,,Tilt,,,,0,,00*35
$GPGSA,A,3,16,18,26,29,,,,,,,,,1.6,0.8,1.4*39
$GPGSA,A,3,73,79,80,81,82,,,,,,,,1.6,0.8,1.4*39
$GPGSA,A,3,13,15,21,27,,,,,,,,,1.6,0.8,1.4*38
$GPGSA,A,3,08,11,13,23,34,37,38,43,,,,,1.6,0.8,1.4*3C
$GPGST,174527.00,2.359,3.272,0.696,10.806,3.217,0.919,4.464*6E
$GPGBS,174527.00,18.937,3.534,24.798,16,0.0001,-1.768,0.747*7F
$GPGRS,174527.00,1,-1.8,0.7,0.3,1.5,,,,,,,,*68
$GPGRS,174527.00,1,3.5,-4.4,-0.7,1.2,1.4,,,,,,,*65
$GPGRS,174527.00,1,-0.6,-0.4,-1.9,-1.9,,,,,,,,*4E
$GPGRS,174527.00,1,-1.1,-0.8,-0.6,-3.3,1.6,-1.4,2.4,-2.2,,,,*46
$GPGSV,4,1,15,18,81,131,40,28,13,210,34,27,15,277,30,05,24,048,23*7D
$GPGSV,4,2,15,23,22,151,32,31,28,233,30,16,43,304,45,29,40,079,37*74
$GPGSV,4,3,15,26,68,265,52,20,01,026,,25,10,143,,36,35,170,39*7E
$GPGSV,4,4,15,34,31,208,34,49,34,195,37,61,03,257,*42
$GLGSV,3,1,09,82,72,283,46,65,15,038,28,73,25,325,45,83,32,244,24*64
$GLGSV,3,2,09,79,34,174,37,81,47,040,53,80,70,262,51,66,09,086,*60
$GLGSV,3,3,09,72,01,347,*58
$GAGSV,3,1,09,15,62,060,45,23,11,312,,34,12,045,20,27,59,151,45*6F
$GAGSV,3,2,09,13,58,205,40,21,60,297,41,26,07,219,,30,09,138,*69
$GAGSV,3,3,09,09,01,000,*59
$GBGSV,5,1,20,43,85,331,47,12,12,065,,60,10,109,,25,20,178,36*67
$GBGSV,5,2,20,21,16,074,,50,14,098,,38,29,042,40,05,22,129,*65
$GBGSV,5,3,20,28,24,251,34,37,34,304,46,08,40,053,37,34,40,066,42*6F
$GBGSV,5,4,20,13,44,064,45,23,53,231,47,11,65,053,48,02,07,106,*66
$GBGSV,5,5,20,42,07,121,,56,02,086,,58,06,327,,22,07,026,*6B
$GPGGA,174527.00,,,,,0,00,,,M,,M,,*4A
$PTNL,GGK,174527.00,010125,4742.4461499,N,01617.9735187,E,1,21,1.6,EHT667.4782,M*43
$GPGGQ,174527.00,010125,4742.4461499,N,01617.9735187,E,1,21,5.579,624.2672,M*3B
$GPGFA,174527.00,31.113,36.607,3.272,0.696,10.806,4.464,,VVV*34
$GPLLK,174527.00,010125,,M,,M,1,21,2.0,,M*08
$GNGMP,174527.00,,,,,DAAA,21,0.8,,,,*5F
$GPGMP,174527.00,,,,,,04,,,,2.8,123*71
$GLGMP,174527.00,,,,,,05,,,,,*78
$GAGMP,174527.00,,,,,,04,,,,,*74
$GBGMP,174527.00,,,,,,08,,,,,*7B
$PSSN,SNC,[0,323145000,2347]*46
$GPZDA,174532.00,01,01,2025,,*65
$GPDTM,W84,,00.0000000,N,00.0000000,E,00.0000000,W84*5F
$GPRMC,174532.00,A,4742.4461550,N,01617.9735020,E,0.0,,010125,5.1,E,D*12
$GPGLL,4742.4461550,N,01617.9735020,E,174532.00,A,D*63
$GPGGA,174532.00,4742.4461550,N,01617.9735020,E,2,21,0.8,624.2568,M,43.2110,M,3.8,0123*42
$GNGNS,174532.00,4742.4461550,N,01617.9735020,E,DAAA,21,0.8,624.2568,43.2110,,*55
$GPGNS,174532.00,,,,,,04,,,,3.8,123*74
$GLGNS,174532.00,,,,,,05,,,,,*7C
$GAGNS,174532.00,,,,,,04,,,,,*70
$GBGNS,174532.00,,,,,,08,,,,,*7F
$GPLLQ,174532.00,010125,,M,,M,1,21,5.318,,M*1B
$GPVTG,,T,,M,0.00,N,0.01,K,D*27
$GPHDT,,T*1B
$GPTHS,,V*0E
$GPROT,,V*08
$PSSN,HRP,174532.00,010125,,,,,,,00,0,,*67
$PTNL,AVR,174532.00,,Yaw,,Tilt,,,,0,,00*31
$GPGSA,A,3,16,18,26,29,,,,,,,,,1.6,0.8,1.4*39
$GPGSA,A,3,73,79,80,81,82,,,,,,,,1.6,0.8,1.4*39
$GPGSA,A,3,13,15,21,27,,,,,,,,,1.6,0.8,1.4*38
$GPGSA,A,3,08,11,13,23,34,37,38,43,,,,,1.6,0.8,1.4*3C
$GPGST,174532.00,2.071,3.123,0.646,11.057,3.067,0.872,4.256*6A
$GPGBS,174532.00,19.020,3.564,24.896,16,0.0001,-1.486,0.764*73
$GPGRS,174532.00,1,-1.5,1.1,0.1,-0.3,,,,,,,,*4E
$GPGRS,174532.00,1,1.5,-3.6,-1.5,0.7,-0.0,,,,,,,*49
$GPGRS,174532.00,1,-0.1,-1.2,-1.5,-1.8,,,,,,,,*47
$GPGRS,174532.00,1,-1.5,-0.3,-0.7,-3.7,1.5,-1.7,2.2,-2.1,,,,*4D
$GPGSV,4,1,15,18,81,131,41,28,13,210,35,27,15,277,,05,24,048,24*79
$GPGSV,4,2,15,23,22,151,33,31,28,233,29,16,43,304,43,29,40,079,37*7B
$GPGSV,4,3,15,26,68,265,52,20,01,026,,25,10,143,,36,35,170,39*7E
$GPGSV,4,4,15,34,31,208,34,49,34,195,36,61,03,257,*43
$GLGSV,3,1,09,82,72,284,46,65,15,038,28,73,25,325,45,83,32,244,28*6F
$GLGSV,3,2,09,79,34,174,39,81,47,040,52,80,70,262,51,66,09,086,*6F
$GLGSV,3,3,09,72,01,347,*58
$GAGSV,3,1,09,15,62,060,45,23,11,312,,34,12,045,18,27,59,151,45*64
$GAGSV,3,2,09,13,58,206,41,21,61,297,40,26,07,219,,30,09,138,*6B
$GAGSV,3,3,09,09,01,359,*56
$GBGSV,5,1,20,43,85,332,47,12,12,065,,60,10,109,,25,20,178,28*6B
$GBGSV,5,2,20,21,16,074,,50,14,098,,38,29,042,40,05,22,129,*65
$GBGSV,5,3,20,28,24,251,27,37,34,304,46,08,40,053,37,34,40,066,43*6C
$GBGSV,5,4,20,13,44,064,45,23,53,231,46,11,65,053,48,02,07,106,*67
$GBGSV,5,5,20,42,07,121,,56,02,086,,58,06,327,,22,07,026,*6B
$GPGGA,174532.00,,,,,0,00,,,M,,M,,*4E
$PTNL,GGK,174532.00,010125,4742.4461550,N,01617.9735020,E,1,21,1.6,EHT667.4678,M*4B
$GPGGQ,174532.00,010125,4742.4461550,N,01617.9735020,E,1,21,5.318,624.2568,M*3E
$GPGFA,174532.00,29.692,34.896,3.123,0.646,11.057,4.256,,VVV*33
$GPLLK,174532.00,010125,,M,,M,1,21,2.0,,M*0C
$GNGMP,174532.00,,,,,DAAA,21,0.8,,,,*5B
$GPGMP,174532.00,,,,,,04,,,,3.8,123*74
$GLGMP,174532.00,,,,,,05,,,,,*7C
$GAGMP,174532.00,,,,,,04,,,,,*70
$GBGMP,174532.00,,,,,,08,,,,,*7F
$PSSN,SNC,[0,323150000,2347]*42
$GPZDA,174537.00,01,01,2025,,*60
$GPDTM,W84,,00.0000000,N,00.0000000,E,00.0000000,W84*5F
$GPRMC,174537.00,A,4742.4461594,N,01617.9734939,E,0.0,,010125,5.1,E,D*1F
$GPGLL,4742.4461594,N,01617.9734939,E,174537.00,A,D*6E
$GPGGA,174537.00,4742.4461594,N,01617.9734939,E,2,23,0.7,624.2450,M,43.2111,M,1.6,0123*45
$GNGNS,174537.00,4742.4461594,N,01617.9734939,E,DAAA,23,0.7,624.2450,43.2111,,*5E
$GPGNS,174537.00,,,,,,05,,,,1.6,123*7C
$GLGNS,174537.00,,,,,,05,,,,,*79
$GAGNS,174537.00,,,,,,04,,,,,*75
$GBGNS,174537.00,,,,,,09,,,,,*7B
$GPLLQ,174537.00,010125,,M,,M,1,23,1.475,,M*14
$GPVTG,,T,,M,0.00,N,0.01,K,D*27
$GPHDT,,T*1B
$GPTHS,,V*0E
$GPROT,,V*08
$PSSN,HRP,174537.00,010125,,,,,,,00,0,,*62
$PTNL,AVR,174537.00,,Yaw,,Tilt,,,,0,,00*34
$GPGSA,A,3,16,18,26,28,29,,,,,,,,1.2,0.7,1.0*3C
$GPGSA,A,3,73,79,80,81,82,,,,,,,,1.2,0.7,1.0*36
$GPGSA,A,3,13,15,21,27,,,,,,,,,1.2,0.7,1.0*37
$GPGSA,A,3,08,11,13,23,28,34,37,38,43,,,,1.2,0.7,1.0*39
$GPGST,174537.00,1.630,0.778,0.504,0.943,0.778,0.505,1.148*53
$GPGBS,174537.00,5.498,4.369,6.987,18,0.0001,0.839,0.601*59
$GPGRS,174537.00,1,-0.9,0.8,0.1,-1.6,0.3,,,,,,,*67
$GPGRS,174537.00,1,0.9,-1.6,-1.6,0.5,-2.0,,,,,,,*40
$GPGRS,174537.00,1,0.0,-1.0,-1.1,-1.1,,,,,,,,*61
$GPGRS,174537.00,1,-0.8,-0.2,-0.4,-3.1,-1.8,1.5,-1.5,2.1,-1.6,,,*4F
$GPGSV,4,1,15,18,81,131,41,28,13,210,36,27,15,277,,05,24,048,26*78
$GPGSV,4,2,15,23,22,151,29,31,28,233,27,16,43,304,41,29,40,080,37*7A
$GPGSV,4,3,15,26,68,265,52,20,01,026,,25,10,143,,36,35,170,39*7E
$GPGSV,4,4,15,34,31,208,34,49,34,195,37,61,03,257,*42
$GLGSV,3,1,09,82,72,284,45,65,15,038,,73,25,325,46,83,32,244,31*6D
$GLGSV,3,2,09,79,34,174,41,81,47,040,51,80,70,261,51,66,09,086,*60
$GLGSV,3,3,09,72,01,347,*58
$GAGSV,3,1,09,15,62,060,45,23,11,312,,34,12,045,27,27,59,151,45*68
$GAGSV,3,2,09,13,58,206,43,21,61,297,40,26,07,219,,30,09,138,*69
$GAGSV,3,3,09,09,01,359,*56
$GBGSV,5,1,20,43,85,332,46,12,12,065,,60,10,109,,25,20,178,27*65
$GBGSV,5,2,20,21,16,074,,50,14,097,,38,29,042,40,05,22,129,*6A
$GBGSV,5,3,20,28,24,251,36,37,34,304,45,08,40,053,37,34,39,066,44*66
$GBGSV,5,4,20,13,44,064,45,23,53,231,44,11,65,053,49,02,07,106,*64
$GBGSV,5,5,20,42,07,121,,56,02,086,,58,06,327,,22,07,026,*6B
$GPGGA,174537.00,,,,,0,00,,,M,,M,,*4B
$PTNL,GGK,174537.00,010125,4742.4461594,N,01617.9734939,E,1,23,1.2,EHT667.4561,M*4B
$GPGGQ,174537.00,010125,4742.4461594,N,01617.9734939,E,1,23,1.475,624.2450,M*33
$GPGFA,174537.00,7.393,9.413,0.778,0.504,0.943,1.148,,VVV*0A
$GPLLK,174537.00,010125,,M,,M,1,23,1.4,,M*0C
$GNGMP,174537.00,,,,,DAAA,23,0.7,,,,*53
$GPGMP,174537.00,,,,,,05,,,,1.6,123*7C
$GLGMP,174537.00,,,,,,05,,,,,*79
$GAGMP,174537.00,,,,,,04,,,,,*75
$GBGMP,174537.00,,,,,,09,,,,,*7B
$PSSN,SNC,[0,323155000,2347]*47
$GPZDA,174542.00,01,01,2025,,*62
$GPDTM,W84,,00.0000000,N,00.0000000,E,00.0000000,W84*5F
$GPRMC,174542.00,A,4742.4461579,N,01617.9734791,E,0.0,,010125,5.1,E,D*12
$GPGLL,4742.4461579,N,01617.9734791,E,174542.00,A,D*63
$GPGGA,174542.00,4742.4461579,N,01617.9734791,E,2,24,0.6,624.2240,M,43.2111,M,1.8,0123*47
$GNGNS,174542.00,4742.4461579,N,01617.9734791,E,DAAA,24,0.6,624.2240,43.2111,,*52
$GPGNS,174542.00,,,,,,05,,,,1.8,123*70
$GLGNS,174542.00,,,,,,05,,,,,*7B
$GAGNS,174542.00,,,,,,04,,,,,*77
$GBGNS,174542.00,,,,,,10,,,,,*71
$GPLLQ,174542.00,010125,,M,,M,1,24,2.431,,M*12
$GPVTG,,T,,M,0.00,N,0.01,K,D*27
$GPHDT,,T*1B
$GPTHS,,V*0E
$GPROT,,V*08
$PSSN,HRP,174542.00,010125,,,,,,,00,0,,*60
$PTNL,AVR,174542.00,,Yaw,,Tilt,,,,0,,00*36
$GPGSA,A,3,16,18,26,28,29,,,,,,,,1.2,0.6,1.0*3D
$GPGSA,A,3,73,79,80,81,82,,,,,,,,1.2,0.6,1.0*37
$GPGSA,A,3,13,15,21,27,,,,,,,,,1.2,0.6,1.0*36
$GPGSA,A,3,08,11,13,23,25,28,34,37,38,43,,,1.2,0.6,1.0*3F
$GPGST,174542.00,6.934,1.279,0.833,1.401,1.279,0.834,1.893*5E
$GPGBS,174542.00,5.473,4.219,6.966,28,0.0001,27.880,8.847*67
$GPGRS,174542.00,1,-1.4,0.5,0.2,-1.2,0.8,,,,,,,*68
$GPGRS,174542.00,1,0.6,-0.2,-1.1,0.2,-1.8,,,,,,,*43
$GPGRS,174542.00,1,-0.3,-0.8,-0.8,-0.6,,,,,,,,*4A
$GPGRS,174542.00,1,-0.8,-0.1,-0.3,-2.2,-3.8,27.9,1.6,-0.8,1.9,-1.5,,*5C
$GPGSV,4,1,15,18,81,130,41,28,13,210,36,27,15,277,29,05,24,048,24*70
$GPGSV,4,2,15,23,22,151,29,31,28,233,29,16,43,304,41,29,40,080,39*7A
$GPGSV,4,3,15,26,68,265,51,20,01,026,,25,10,143,,36,35,170,39*7D
$GPGSV,4,4,15,34,31,208,34,49,34,195,37,61,03,257,*42
$GLGSV,3,1,09,82,72,284,43,65,15,038,30,73,25,325,46,83,32,244,32*6B
$GLGSV,3,2,09,79,34,174,44,81,47,040,51,80,70,261,51,66,09,086,*65
$GLGSV,3,3,09,72,01,347,*58
$GAGSV,3,1,09,15,62,060,45,23,11,312,,34,12,045,27,27,59,151,45*68
$GAGSV,3,2,09,13,58,206,43,21,61,297,40,26,07,219,,30,09,138,*69
$GAGSV,3,3,09,09,01,359,*56
$GBGSV,5,1,20,43,85,332,47,12,12,065,,60,10,109,,25,20,178,39*6B
$GBGSV,5,2,20,21,16,074,,50,14,097,,38,29,042,40,05,22,129,*6A
$GBGSV,5,3,20,28,24,251,35,37,34,304,44,08,40,053,37,34,39,066,45*65
$GBGSV,5,4,20,13,44,064,45,23,53,231,43,11,65,053,49,02,07,106,*63
$GBGSV,5,5,20,42,07,121,,56,02,086,,58,06,327,,22,07,026,*6B
$GPGGA,174542.00,,,,,0,00,,,M,,M,,*49
$PTNL,GGK,174542.00,010125,4742.4461579,N,01617.9734791,E,1,24,1.2,EHT667.4350,M*45
$GPGGQ,174542.00,010125,4742.4461579,N,01617.9734791,E,1,24,2.431,624.2240,M*3D
$GPGFA,174542.00,12.159,15.520,1.279,0.833,1.401,1.893,,VVV*0D
$GPLLK,174542.00,010125,,M,,M,1,24,1.4,,M*09
$GNGMP,174542.00,,,,,DAAA,24,0.6,,,,*57
$GPGMP,174542.00,,,,,,05,,,,1.8,123*70
$GLGMP,174542.00,,,,,,05,,,,,*7B
$GAGMP,174542.00,,,,,,04,,,,,*77
$GBGMP,174542.00,,,,,,10,,,,,*71
$PSSN,SNC,[0,323160000,2347]*41
$GPZDA,174547.00,01,01,2025,,*67
$GPDTM,W84,,00.0000000,N,00.0000000,E,00.0000000,W84*5F
$GPRMC,174547.00,A,4742.4461575,N,01617.9734708,E,0.0,,010125,5.1,E,D*1B
$GPGLL,4742.4461575,N,01617.9734708,E,174547.00,A,D*6A
$GPGGA,174547.00,4742.4461575,N,01617.9734708,E,2,24,0.6,624.2302,M,43.2111,M,2.8,0123*4A
$GNGNS,174547.00,4742.4461575,N,01617.9734708,E,DAAA,24,0.6,624.2302,43.2111,,*5C
$GPGNS,174547.00,,,,,,05,,,,2.8,123*76
$GLGNS,174547.00,,,,,,05,,,,,*7E
$GAGNS,174547.00,,,,,,04,,,,,*72
$GBGNS,174547.00,,,,,,10,,,,,*74
$GPLLQ,174547.00,010125,,M,,M,1,24,1.867,,M*1B
$GPVTG,,T,,M,0.00,N,0.01,K,D*27
$GPHDT,,T*1B
$GPTHS,,V*0E
$GPROT,,V*08
$PSSN,HRP,174547.00,010125,,,,,,,00,0,,*65
$PTNL,AVR,174547.00,,Yaw,,Tilt,,,,0,,00*33
$GPGSA,A,3,16,18,26,28,29,,,,,,,,1.2,0.6,1.0*3D
$GPGSA,A,3,73,79,80,81,82,,,,,,,,1.2,0.6,1.0*37
$GPGSA,A,3,13,15,21,27,,,,,,,,,1.2,0.6,1.0*36
$GPGSA,A,3,08,11,13,23,25,28,34,37,38,43,,,1.2,0.6,1.0*3F
$GPGST,174547.00,5.893,0.984,0.630,0.189,0.984,0.630,1.456*52
$GPGBS,174547.00,5.553,4.273,7.030,28,0.0001,23.458,8.615*62
$GPGRS,174547.00,1,0.2,0.6,-0.4,-0.9,0.1,,,,,,,*6C
$GPGRS,174547.00,1,0.2,2.5,-1.2,-0.7,-2.7,,,,,,,*4D
$GPGRS,174547.00,1,-1.0,-1.3,-0.8,-0.7,,,,,,,,*46
$GPGRS,174547.00,1,-1.3,0.1,-0.8,-2.2,1.4,23.5,1.5,-0.9,1.4,-2.3,,*54
$GPGSV,4,1,15,18,81,130,41,28,13,210,36,27,15,277,20,05,24,048,29*74
$GPGSV,4,2,15,23,22,151,27,31,27,233,32,16,43,304,43,29,40,080,39*73
$GPGSV,4,3,15,26,68,264,51,20,01,026,,25,10,143,,36,35,170,39*7C
$GPGSV,4,4,15,34,31,208,34,49,34,195,37,61,03,257,*42
$GLGSV,3,1,09,82,72,284,41,65,15,038,28,73,25,325,46,83,32,244,33*61
$GLGSV,3,2,09,79,34,174,46,81,47,040,50,80,70,261,52,66,09,085,*66
$GLGSV,3,3,09,72,01,347,*58
$GAGSV,3,1,09,15,62,060,45,23,11,312,,34,12,045,27,27,59,151,46*6B
$GAGSV,3,2,09,13,58,206,44,21,61,297,40,26,07,219,,30,09,138,*6E
$GAGSV,3,3,09,09,01,359,*56
$GBGSV,5,1,20,43,85,333,47,12,12,065,,60,10,109,,25,20,178,40*64
$GBGSV,5,2,20,21,16,074,,50,14,097,,38,29,042,40,05,22,129,*6A
$GBGSV,5,3,20,28,24,251,37,37,34,304,44,08,40,053,37,34,39,066,45*67
$GBGSV,5,4,20,13,44,064,45,23,53,231,42,11,65,054,50,02,07,106,*6D
$GBGSV,5,5,20,42,07,121,,56,02,086,,58,06,327,,22,07,026,*6B
$GPGGA,174547.00,,,,,0,00,,,M,,M,,*4C
$PTNL,GGK,174547.00,010125,4742.4461575,N,01617.9734708,E,1,24,1.2,EHT667.4413,M*4C
$GPGGQ,174547.00,010125,4742.4461575,N,01617.9734708,E,1,24,1.867,624.2302,M*3F
$GPGFA,174547.00,9.359,11.943,0.984,0.630,0.189,1.456,,VVV*39
$GPLLK,174547.00,010125,,M,,M,1,24,1.4,,M*0C
$GNGMP,174547.00,,,,,DAAA,24,0.6,,,,*52
$GPGMP,174547.00,,,,,,05,,,,2.8,123*76
$GLGMP,174547.00,,,,,,05,,,,,*7E
$GAGMP,174547.00,,,,,,04,,,,,*72
$GBGMP,174547.00,,,,,,10,,,,,*74
$PSSN,SNC,[0,323165000,2347]*44
$GPZDA,174552.00,01,01,2025,,*63
$GPDTM,W84,,00.0000000,N,00.0000000,E,00.0000000,W84*5F
$GPRMC,174552.00,A,4742.4461535,N,01617.9734736,E,0.0,,010125,5.1,E,D*16
$GPGLL,4742.4461535,N,01617.9734736,E,174552.00,A,D*67
$GPGGA,174552.00,4742.4461535,N,01617.9734736,E,2,24,0.6,624.2120,M,43.2111,M,3.8,0123*44
$GNGNS,174552.00,4742.4461535,N,01617.9734736,E,DAAA,24,0.6,624.2120,43.2111,,*53
$GPGNS,174552.00,,,,,,05,,,,3.8,123*73
$GLGNS,174552.00,,,,,,05,,,,,*7A
$GAGNS,174552.00,,,,,,04,,,,,*76
$GBGNS,174552.00,,,,,,10,,,,,*70
$GPLLQ,174552.00,010125,,M,,M,1,24,2.022,,M*15
$GPVTG,,T,,M,0.00,N,0.01,K,D*27
$GPHDT,,T*1B
$GPTHS,,V*0E
$GPROT,,V*08
$PSSN,HRP,174552.00,010125,,,,,,,00,0,,*61
$PTNL,AVR,174552.00,,Yaw,,Tilt,,,,0,,00*37
$GPGSA,A,3,16,18,26,28,29,,,,,,,,1.2,0.6,1.0*3D
$GPGSA,A,3,73,79,80,81,82,,,,,,,,1.2,0.6,1.0*37
$GPGSA,A,3,13,15,21,27,,,,,,,,,1.2,0.6,1.0*36
$GPGSA,A,3,08,11,13,23,25,28,34,37,38,43,,,1.2,0.6,1.0*3F
$GPGST,174552.00,5.647,1.063,0.684,0.024,1.063,0.684,1.578*5A
$GPGBS,174552.00,5.647,4.348,7.099,28,0.0001,21.538,8.615*6F
$GPGRS,174552.00,1,0.3,0.6,-0.5,-1.2,-0.3,,,,,,,*4D
$GPGRS,174552.00,1,1.0,4.1,-1.4,-0.6,-5.1,,,,,,,*4E
$GPGRS,174552.00,1,-1.0,-1.1,-0.9,-0.4,,,,,,,,*42
$GPGRS,174552.00,1,-0.5,0.6,-1.0,-0.9,3.5,21.5,1.7,-0.7,1.0,-2.8,,*52
$GPGSV,4,1,15,18,81,130,40,28,13,210,36,27,15,277,35,05,24,048,32*7B
$GPGSV,4,2,15,23,22,151,24,31,27,233,34,16,43,304,45,29,40,080,38*71
$GPGSV,4,3,15,26,68,264,50,20,01,026,,25,10,143,,36,35,170,39*7D
$GPGSV,4,4,15,34,31,208,34,49,34,195,37,61,03,257,*42
$GLGSV,3,1,09,82,72,284,39,65,15,038,27,73,25,325,46,83,32,244,31*63
$GLGSV,3,2,09,79,34,174,46,81,47,040,49,80,70,261,51,66,09,085,*6D
$GLGSV,3,3,09,72,01,347,*58
$GAGSV,3,1,09,15,62,060,45,23,11,312,,34,12,045,26,27,59,151,47*6B
$GAGSV,3,2,09,13,58,206,44,21,61,297,41,26,07,219,,30,09,138,*6F
$GAGSV,3,3,09,09,01,359,*56
$GBGSV,5,1,20,43,85,333,47,12,12,065,,60,10,109,,25,20,178,40*64
$GBGSV,5,2,20,21,16,074,,50,14,097,,38,29,042,40,05,22,129,*6A
$GBGSV,5,3,20,28,24,252,38,37,34,304,43,08,40,053,37,34,39,066,46*6F
$GBGSV,5,4,20,13,44,064,45,23,53,231,43,11,65,054,50,02,07,106,*6C
$GBGSV,5,5,20,42,07,121,,56,02,086,,58,06,327,,22,07,026,*6B
$GPGGA,174552.00,,,,,0,00,,,M,,M,,*48
$PTNL,GGK,174552.00,010125,4742.4461535,N,01617.9734736,E,1,24,1.2,EHT667.4230,M*46
$GPGGQ,174552.00,010125,4742.4461535,N,01617.9734736,E,1,24,2.022,624.2120,M*3A
$GPGFA,174552.00,10.108,12.943,1.063,0.684,0.024,1.578,,VVV*05
$GPLLK,174552.00,010125,,M,,M,1,24,1.4,,M*08
$GNGMP,174552.00,,,,,DAAA,24,0.6,,,,*56
$GPGMP,174552.00,,,,,,05,,,,3.8,123*73
$GLGMP,174552.00,,,,,,05,,,,,*7A
$GAGMP,174552.00,,,,,,04,,,,,*76
$GBGMP,174552.00,,,,,,10,,,,,*70
$PSSN,SNC,[0,323170000,2347]*40
$GPZDA,174557.00,01,01,2025,,*66
$GPDTM,W84,,00.0000000,N,00.0000000,E,00.0000000,W84*5F
$GPRMC,174557.00,A,4742.4461521,N,01617.9734727,E,0.0,,010125,5.1,E,D*16
$GPGLL,4742.4461521,N,01617.9734727,E,174557.00,A,D*67
$GPGGA,174557.00,4742.4461521,N,01617.9734727,E,2,25,0.6,624.2075,M,43.2111,M,2.0,0123*4D
$GNGNS,174557.00,4742.4461521,N,01617.9734727,E,DAAA,25,0.6,624.2075,43.2111,,*53
$GPGNS,174557.00,,,,,,06,,,,2.0,123*7C
$GLGNS,174557.00,,,,,,05,,,,,*7F
$GAGNS,174557.00,,,,,,04,,,,,*73
$GBGNS,174557.00,,,,,,10,,,,,*75
$GPLLQ,174557.00,010125,,M,,M,1,25,1.662,,M*10
$GPVTG,,T,,M,0.01,N,0.01,K,D*26
$GPHDT,,T*1B
$GPTHS,,V*0E
$GPROT,,V*08
$PSSN,HRP,174557.00,010125,,,,,,,00,0,,*64
$PTNL,AVR,174557.00,,Yaw,,Tilt,,,,0,,00*32
$GPGSA,A,3,16,18,26,28,29,31,,,,,,,1.1,0.6,1.0*3C
$GPGSA,A,3,73,79,80,81,82,,,,,,,,1.1,0.6,1.0*34
$GPGSA,A,3,13,15,21,27,,,,,,,,,1.1,0.6,1.0*35
$GPGSA,A,3,08,11,13,23,25,28,34,37,38,43,,,1.1,0.6,1.0*3C
$GPGST,174557.00,4.955,0.850,0.555,352.015,0.845,0.563,1.315*58
$GPGBS,174557.00,5.807,4.165,6.433,28,0.0001,19.709,8.615*63
$GPGRS,174557.00,1,-0.0,0.5,-0.2,-0.9,-0.2,-0.0,,,,,,*6A
$GPGRS,174557.00,1,0.6,2.2,-1.4,-0.1,-4.9,,,,,,,*47
$GPGRS,174557.00,1,-0.7,-0.9,-1.2,-0.2,,,,,,,,*44
$GPGRS,174557.00,1,-1.5,0.3,-1.0,0.0,2.3,19.7,1.2,-0.9,1.0,-2.6,,*7C
$GPGSV,4,1,15,18,81,130,39,28,13,210,35,27,15,277,24,05,24,048,33*77
$GPGSV,4,2,15,23,22,151,23,31,27,233,36,16,43,304,47,29,40,080,39*77
$GPGSV,4,3,15,26,68,264,48,20,01,026,,25,10,143,,36,35,170,39*74
$GPGSV,4,4,15,34,31,208,34,49,34,195,37,61,03,257,*42
$GLGSV,3,1,09,82,72,284,38,65,15,038,27,73,25,325,46,83,32,244,30*63
$GLGSV,3,2,09,79,34,174,44,81,47,040,49,80,70,261,51,66,09,085,*6F
$GLGSV,3,3,09,72,01,347,*58
$GAGSV,3,1,09,15,62,060,45,23,11,312,,34,12,045,26,27,59,151,48*64
$GAGSV,3,2,09,13,58,206,44,21,61,297,41,26,07,219,,30,09,138,*6F
$GAGSV,3,3,09,09,01,359,*56
$GBGSV,5,1,20,43,85,333,47,12,12,065,,60,10,109,,25,20,178,40*64
$GBGSV,5,2,20,21,16,074,,50,14,097,,38,29,042,40,05,22,129,*6A
$GBGSV,5,3,20,28,24,252,39,37,34,304,42,08,40,053,37,34,39,066,45*6C
$GBGSV,5,4,20,13,44,064,44,23,53,231,44,11,65,054,50,02,07,106,*6A
$GBGSV,5,5,20,42,07,121,,56,02,086,,58,06,327,,22,07,026,*6B
$GPGGA,174557.00,,,,,0,00,,,M,,M,,*4D
$PTNL,GGK,174557.00,010125,4742.4461521,N,01617.9734727,E,1,25,1.1,EHT667.4185,M*49
$GPGGQ,174557.00,010125,4742.4461521,N,01617.9734727,E,1,25,1.662,624.2075,M*3B
$GPGFA,174557.00,8.081,10.787,0.850,0.555,352.015,1.315,,VVV*30
$GPLLK,174557.00,010125,,M,,M,1,25,1.3,,M*0B
$GNGMP,174557.00,,,,,DAAA,25,0.6,,,,*52
$GPGMP,174557.00,,,,,,06,,,,2.0,123*7C
$GLGMP,174557.00,,,,,,05,,,,,*7F
$GAGMP,174557.00,,,,,,04,,,,,*73
$GBGMP,174557.00,,,,,,10,,,,,*75
$PSSN,SNC,[0,323175000,2347]*45
$GPZDA,174602.00,01,01,2025,,*65
$GPDTM,W84,,00.0000000,N,00.0000000,E,00.0000000,W84*5F
$GPRMC,174602.00,A,4742.4461415,N,01617.9734739,E,0.0,,010125,5.1,E,D*1C
$GPGLL,4742.4461415,N,01617.9734739,E,174602.00,A,D*6D
$GPGGA,174602.00,4742.4461415,N,01617.9734739,E,2,25,0.6,624.1948,M,43.2111,M,1.7,0123*47
$GNGNS,174602.00,4742.4461415,N,01617.9734739,E,DAAA,25,0.6,624.1948,43.2111,,*5D
$GPGNS,174602.00,,,,,,06,,,,1.7,123*7B
$GLGNS,174602.00,,,,,,05,,,,,*7C
$GAGNS,174602.00,,,,,,04,,,,,*70
$GBGNS,174602.00,,,,,,10,,,,,*76
$GPLLQ,174602.00,010125,,M,,M,1,25,1.729,,M*1D
$GPVTG,,T,,M,0.00,N,0.01,K,D*27
$GPHDT,,T*1B
$GPTHS,,V*0E
$GPROT,,V*08
$PSSN,HRP,174602.00,010125,,,,,,,00,0,,*67
$PTNL,AVR,174602.00,,Yaw,,Tilt,,,,0,,00*31
$GPGSA,A,3,16,18,23,26,29,31,,,,,,,1.2,0.6,1.0*34
$GPGSA,A,3,73,79,80,81,82,,,,,,,,1.2,0.6,1.0*37
$GPGSA,A,3,13,15,21,27,,,,,,,,,1.2,0.6,1.0*36
$GPGSA,A,3,08,11,13,23,25,28,34,37,38,43,,,1.2,0.6,1.0*3F
$GPGST,174602.00,3.963,0.846,0.560,7.545,0.842,0.567,1.400*5B
$GPGBS,174602.00,4.631,3.240,7.612,23,0.0001,-1.887,0.916*7B
$GPGRS,174602.00,1,-0.6,0.2,-1.9,0.2,0.9,0.1,,,,,,*4E
$GPGRS,174602.00,1,0.9,-1.6,-0.8,0.3,-4.2,,,,,,,*48
$GPGRS,174602.00,1,-0.1,-0.7,-0.8,0.0,,,,,,,,*6B
$GPGRS,174602.00,1,-1.4,-0.4,-1.2,-0.6,-1.2,15.6,0.8,-0.8,1.3,-1.7,,*54
$GPGSV,4,1,15,18,81,129,38,28,13,210,35,27,15,277,27,05,24,048,36*78
$GPGSV,4,2,15,23,22,151,39,31,27,233,37,16,43,304,47,29,40,080,40*73
$GPGSV,4,3,15,26,68,264,47,20,01,026,,25,10,143,,36,35,170,39*7B
$GPGSV,4,4,15,34,31,208,34,49,34,195,37,61,03,257,*42
$GLGSV,3,1,09,82,72,285,40,65,15,038,,73,25,325,45,83,32,244,30*6B
$GLGSV,3,2,09,79,34,174,43,81,47,040,49,80,70,261,51,66,09,085,*68
$GLGSV,3,3,09,72,01,347,*58
$GAGSV,3,1,09,15,62,060,44,23,11,312,,34,12,045,26,27,59,151,49*64
$GAGSV,3,2,09,13,58,206,44,21,61,297,41,26,07,219,,30,09,138,*6F
$GAGSV,3,3,09,09,01,359,*56
$GBGSV,5,1,20,43,85,334,46,12,12,065,,60,10,109,,25,20,178,39*6C
$GBGSV,5,2,20,21,16,074,,50,14,097,,38,29,042,40,05,22,129,*6A
$GBGSV,5,3,20,28,24,252,38,37,34,304,41,08,40,053,37,34,39,066,45*6E
$GBGSV,5,4,20,13,44,064,44,23,53,231,43,11,65,054,50,02,07,106,*6D
$GBGSV,5,5,20,42,07,121,,56,02,086,,58,06,327,,22,07,026,*6B
$GPGGA,174602.00,,,,,0,00,,,M,,M,,*4E
$PTNL,GGK,174602.00,010125,4742.4461415,N,01617.9734739,E,1,25,1.2,EHT667.4059,M*40
$GPGGQ,174602.00,010125,4742.4461415,N,01617.9734739,E,1,25,1.729,624.1948,M*3B
$GPGFA,174602.00,8.041,11.482,0.846,0.560,7.545,1.400,,VVV*39
$GPLLK,174602.00,010125,,M,,M,1,25,1.4,,M*0F
$GNGMP,174602.00,,,,,DAAA,25,0.6,,,,*51
$GPGMP,174602.00,,,,,,06,,,,1.7,123*7B
$GLGMP,174602.00,,,,,,05,,,,,*7C
$GAGMP,174602.00,,,,,,04,,,,,*70
$GBGMP,174602.00,,,,,,10,,,,,*76
$PSSN,SNC,[0,323180000,2347]*4F
$GPZDA,174607.00,01,01,2025,,*60
$GPDTM,W84,,00.0000000,N,00.0000000,E,00.0000000,W84*5F
$GPRMC,174607.00,A,4742.4461389,N,01617.9734684,E,0.0,,010125,5.1,E,D*1C
$GPGLL,4742.4461389,N,01617.9734684,E,174607.00,A,D*6D
$GPGGA,174607.00,4742.4461389,N,01617.9734684,E,2,24,0.6,624.1813,M,43.2111,M,2.6,0123*4B
$GNGNS,174607.00,4742.4461389,N,01617.9734684,E,DAAA,24,0.6,624.1813,43.2111,,*53
$GPGNS,174607.00,,,,,,05,,,,2.6,123*7F
$GLGNS,174607.00,,,,,,05,,,,,*79
$GAGNS,174607.00,,,,,,04,,,,,*75
$GBGNS,174607.00,,,,,,10,,,,,*73
$GPLLQ,174607.00,010125,,M,,M,1,24,1.920,,M*1E
$GPVTG,,T,,M,0.01,N,0.01,K,D*26
$GPHDT,,T*1B
$GPTHS,,V*0E
$GPROT,,V*08
$PSSN,HRP,174607.00,010125,,,,,,,00,0,,*62
$PTNL,AVR,174607.00,,Yaw,,Tilt,,,,0,,00*34
$GPGSA,A,3,16,18,26,29,31,,,,,,,,1.2,0.6,1.0*35
$GPGSA,A,3,73,79,80,81,82,,,,,,,,1.2,0.6,1.0*37
$GPGSA,A,3,13,15,21,27,,,,,,,,,1.2,0.6,1.0*36
$GPGSA,A,3,08,11,13,23,25,28,34,37,38,43,,,1.2,0.6,1.0*3F
$GPGST,174607.00,3.301,1.008,0.570,353.609,1.004,0.578,1.531*5D
$GPGBS,174607.00,6.482,4.091,7.392,18,0.0001,1.103,0.635*5C
$GPGRS,174607.00,1,-1.2,1.1,-0.2,0.7,0.2,,,,,,,*67
$GPGRS,174607.00,1,0.1,-2.5,-1.9,-1.0,-2.2,,,,,,,*6C
$GPGRS,174607.00,1,-0.2,-0.9,-0.8,-0.4,,,,,,,,*4A
$GPGRS,174607.00,1,-1.8,-1.1,-1.6,-1.5,-2.8,12.0,-0.8,-0.3,0.5,-1.6,,*77
$GPGSV,4,1,15,18,81,129,41,28,13,210,35,27,15,277,35,05,24,048,36*75
$GPGSV,4,2,15,23,23,151,32,31,27,233,38,16,43,304,47,29,40,080,41*77
$GPGSV,4,3,15,26,68,264,46,20,01,026,,25,09,143,,36,35,170,39*72
$GPGSV,4,4,15,34,31,208,34,49,34,195,37,61,03,257,*42
$GLGSV,3,1,09,82,72,285,42,65,15,038,23,73,25,325,45,83,32,244,29*60
$GLGSV,3,2,09,79,34,174,42,81,47,040,49,80,70,261,51,66,09,085,*69
$GLGSV,3,3,09,72,01,347,*58
$GAGSV,3,1,09,15,62,060,44,23,11,312,,34,12,045,25,27,59,151,49*67
$GAGSV,3,2,09,13,58,206,44,21,61,297,41,26,07,219,,30,09,138,*6F
$GAGSV,3,3,09,09,01,359,*56
$GBGSV,5,1,20,43,85,334,46,12,12,065,,60,10,109,,25,20,178,39*6C
$GBGSV,5,2,20,21,16,074,,50,14,097,,38,29,042,40,05,22,129,*6A
$GBGSV,5,3,20,28,24,252,37,37,34,304,40,08,40,053,37,34,39,066,44*61
$GBGSV,5,4,20,13,44,064,44,23,53,231,43,11,65,054,49,02,07,106,*65
$GBGSV,5,5,20,42,07,121,,56,02,086,,58,06,327,,22,07,026,*6B
$GPGGA,174607.00,,,,,0,00,,,M,,M,,*4B
$PTNL,GGK,174607.00,010125,4742.4461389,N,01617.9734684,E,1,24,1.2,EHT667.3924,M*45
$GPGGQ,174607.00,010125,4742.4461389,N,01617.9734684,E,1,24,1.920,624.1813,M*32
$GPGFA,174607.00,9.585,12.558,1.008,0.570,353.609,1.531,,VVV*3D
$GPLLK,174607.00,010125,,M,,M,1,24,1.4,,M*0B
$GNGMP,174607.00,,,,,DAAA,24,0.6,,,,*55
$GPGMP,174607.00,,,,,,05,,,,2.6,123*7F
$GLGMP,174607.00,,,,,,05,,,,,*79
$GAGMP,174607.00,,,,,,04,,,,,*75
$GBGMP,174607.00,,,,,,10,,,,,*73
$PSSN,SNC,[0,323185000,2347]*4A
$GPZDA,174612.00,01,01,2025,,*64
$GPDTM,W84,,00.0000000,N,00.0000000,E,00.0000000,W84*5F
$GPRMC,174612.00,A,4742.4461431,N,01617.9734563,E,0.0,,010125,5.1,E,D*16
$GPGLL,4742.4461431,N,01617.9734563,E,174612.00,A,D*67
$GPGGA,174612.00,4742.4461431,N,01617.9734563,E,2,25,0.6,624.1754,M,43.2111,M,3.7,0123*4C
$GNGNS,174612.00,4742.4461431,N,01617.9734563,E,DAAA,25,0.6,624.1754,43.2111,,*54
$GPGNS,174612.00,,,,,,06,,,,3.7,123*78
$GLGNS,174612.00,,,,,,05,,,,,*7D
$GAGNS,174612.00,,,,,,04,,,,,*71
$GBGNS,174612.00,,,,,,10,,,,,*77
$GPLLQ,174612.00,010125,,M,,M,1,25,1.467,,M*15
$GPVTG,,T,,M,0.01,N,0.01,K,D*26
$GPHDT,,T*1B
$GPTHS,,V*0E
$GPROT,,V*08
$PSSN,HRP,174612.00,010125,,,,,,,00,0,,*66
$PTNL,AVR,174612.00,,Yaw,,Tilt,,,,0,,00*30
$GPGSA,A,3,16,18,26,28,29,31,,,,,,,1.1,0.6,1.0*3C
$GPGSA,A,3,73,79,80,81,82,,,,,,,,1.1,0.6,1.0*34
$GPGSA,A,3,13,15,21,27,,,,,,,,,1.1,0.6,1.0*35
$GPGSA,A,3,08,11,13,23,25,28,34,37,38,43,,,1.1,0.6,1.0*3C
$GPGST,174612.00,3.091,0.764,0.487,351.212,0.759,0.495,1.154*51
$GPGBS,174612.00,6.080,4.131,6.958,16,0.0001,-1.035,0.764*7A
$GPGRS,174612.00,1,-1.0,0.4,0.5,-0.6,0.7,-0.7,,,,,,*62
$GPGRS,174612.00,1,1.2,-0.8,-2.2,-1.2,-2.3,,,,,,,*6E
$GPGRS,174612.00,1,-0.2,-0.4,-0.6,-0.4,,,,,,,,*4D
$GPGRS,174612.00,1,-2.0,-1.7,-1.7,-1.7,-2.1,11.4,-2.8,-0.3,0.7,-0.7,,*73
$GPGSV,4,1,15,18,81,129,43,28,13,210,36,27,15,277,34,05,24,048,33*70
$GPGSV,4,2,15,23,23,151,35,31,27,233,37,16,43,304,46,29,39,080,41*70
$GPGSV,4,3,15,26,68,264,46,20,01,026,,25,09,143,,36,35,170,39*72
$GPGSV,4,4,15,34,31,208,34,49,34,195,37,61,03,257,*42
$GLGSV,3,1,09,82,72,285,43,65,15,038,,73,25,325,45,83,32,244,28*61
$GLGSV,3,2,09,79,34,174,41,81,47,040,50,80,70,260,51,66,09,085,*63
$GLGSV,3,3,09,72,01,347,*58
$GAGSV,3,1,09,15,62,060,44,23,11,312,,34,12,045,26,27,59,151,49*64
$GAGSV,3,2,09,13,58,206,44,21,61,297,42,26,07,219,,30,09,138,*6C
$GAGSV,3,3,09,09,01,359,*56
$GBGSV,5,1,20,43,85,335,46,12,12,065,,60,10,109,,25,20,178,38*6C
$GBGSV,5,2,20,21,16,074,,50,14,097,,38,29,042,40,05,22,129,*6A
$GBGSV,5,3,20,28,24,252,36,37,34,304,40,08,40,053,36,34,39,066,42*67
$GBGSV,5,4,20,13,44,064,44,23,53,231,43,11,65,054,49,02,07,106,*65
$GBGSV,5,5,20,42,07,121,,56,02,086,,58,06,327,,22,07,025,*68
$GPGGA,174612.00,,,,,0,00,,,M,,M,,*4F
$PTNL,GGK,174612.00,010125,4742.4461431,N,01617.9734563,E,1,25,1.1,EHT667.3864,M*48
$GPGGQ,174612.00,010125,4742.4461431,N,01617.9734563,E,1,25,1.467,624.1754,M*3B
$GPGFA,174612.00,7.267,9.462,0.764,0.487,351.212,1.154,,VVV*00
$GPLLK,174612.00,010125,,M,,M,1,25,1.3,,M*09
$GNGMP,174612.00,,,,,DAAA,25,0.6,,,,*50
$GPGMP,174612.00,,,,,,06,,,,3.7,123*78
$GLGMP,174612.00,,,,,,05,,,,,*7D
$GAGMP,174612.00,,,,,,04,,,,,*71
$GBGMP,174612.00,,,,,,10,,,,,*77
$PSSN,SNC,[0,323190000,2347]*4E
$GPZDA,174617.00,01,01,2025,,*61
$GPDTM,W84,,00.0000000,N,00.0000000,E,00.0000000,W84*5F
$GPRMC,174617.00,A,4742.4461369,N,01617.9734453,E,0.0,,010125,5.1,E,D*1B
$GPGLL,4742.4461369,N,01617.9734453,E,174617.00,A,D*6A
$GPGGA,174617.00,4742.4461369,N,01617.9734453,E,2,24,0.6,624.1666,M,43.2111,M,2.0,0123*46
$GNGNS,174617.00,4742.4461369,N,01617.9734453,E,DAAA,24,0.6,624.1666,43.2111,,*58
$GPGNS,174617.00,,,,,,06,,,,2.0,123*7B
$GLGNS,174617.00,,,,,,05,,,,,*78
$GAGNS,174617.00,,,,,,04,,,,,*74
$GBGNS,174617.00,,,,,,09,,,,,*7A
$GPLLQ,174617.00,010125,,M,,M,1,24,1.709,,M*1A
$GPVTG,,T,,M,0.00,N,0.00,K,D*26
$GPHDT,,T*1B
$GPTHS,,V*0E
$GPROT,,V*08
$PSSN,HRP,174617.00,010125,,,,,,,00,0,,*63
$PTNL,AVR,174617.00,,Yaw,,Tilt,,,,0,,00*35
$GPGSA,A,3,16,18,26,28,29,31,,,,,,,1.2,0.6,1.0*3F
$GPGSA,A,3,73,79,80,81,82,,,,,,,,1.2,0.6,1.0*37
$GPGSA,A,3,13,15,21,27,,,,,,,,,1.2,0.6,1.0*36
$GPGSA,A,3,08,11,13,23,25,34,37,38,43,,,,1.2,0.6,1.0*35
$GPGST,174617.00,1.970,0.887,0.576,352.148,0.882,0.584,1.342*5F
$GPGBS,174617.00,5.823,4.163,6.427,31,0.0001,-2.300,0.956*73
$GPGRS,174617.00,1,-0.3,-0.1,0.9,-0.2,0.6,-2.3,,,,,,*42
$GPGRS,174617.00,1,2.4,0.5,-2.2,-0.6,-1.0,,,,,,,*4B
$GPGRS,174617.00,1,0.0,-0.1,-0.4,-0.2,,,,,,,,*66
$GPGRS,174617.00,1,-2.4,-1.7,-2.0,-1.3,-2.6,-4.9,-0.6,1.1,-0.2,,,*6F
$GPGSV,4,1,15,18,81,129,42,28,13,210,37,27,15,277,33,05,24,048,28*7D
$GPGSV,4,2,15,23,23,151,36,31,27,233,35,16,43,304,45,29,39,080,41*72
$GPGSV,4,3,15,26,68,264,45,20,01,026,,25,09,143,,36,35,170,39*71
$GPGSV,4,4,15,34,31,208,34,49,34,195,36,61,03,257,*43
$GLGSV,3,1,09,82,72,285,45,65,15,038,,73,25,325,46,83,32,244,27*6B
$GLGSV,3,2,09,79,34,174,40,81,47,040,50,80,70,260,50,66,09,085,*63
$GLGSV,3,3,09,72,01,347,*58
$GAGSV,3,1,09,15,62,060,44,23,11,312,,34,12,045,26,27,59,151,49*64
$GAGSV,3,2,09,13,58,206,45,21,61,297,43,26,07,219,,30,09,138,*6C
$GAGSV,3,3,09,09,01,359,*56
$GBGSV,5,1,20,43,85,335,47,12,12,065,,60,10,109,,25,20,178,37*62
$GBGSV,5,2,20,21,16,074,,50,14,097,,38,29,042,39,05,22,129,*64
$GBGSV,5,3,20,28,24,252,34,37,34,304,40,08,40,053,35,34,39,066,40*64
$GBGSV,5,4,20,13,44,064,43,23,53,231,43,11,64,054,49,02,07,106,*63
$GBGSV,5,5,20,42,08,121,,56,02,086,,58,06,327,,22,07,025,*67
$GPGGA,174617.00,,,,,0,00,,,M,,M,,*4A
$PTNL,GGK,174617.00,010125,4742.4461369,N,01617.9734453,E,1,24,1.2,EHT667.3776,M*4B
$GPGGQ,174617.00,010125,4742.4461369,N,01617.9734453,E,1,24,1.709,624.1666,M*3C
$GPGFA,174617.00,8.434,11.007,0.887,0.576,352.148,1.342,,VVV*33
$GPLLK,174617.00,010125,,M,,M,1,24,1.4,,M*0A
$GNGMP,174617.00,,,,,DAAA,24,0.6,,,,*54
$GPGMP,174617.00,,,,,,06,,,,2.0,123*7B
$GLGMP,174617.00,,,,,,05,,,,,*78
$GAGMP,174617.00,,,,,,04,,,,,*74
$GBGMP,174617.00,,,,,,09,,,,,*7A
$PSSN,SNC,[0,323195000,2347]*4B
$GPZDA,174622.00,01,01,2025,,*67
$GPDTM,W84,,00.0000000,N,00.0000000,E,00.0000000,W84*5F
$GPRMC,174622.00,A,4742.4461356,N,01617.9734424,E,0.0,,010125,5.1,E,D*11
$GPGLL,4742.4461356,N,01617.9734424,E,174622.00,A,D*60
$GPGGA,174622.00,4742.4461356,N,01617.9734424,E,2,21,0.7,624.1560,M,43.2111,M,1.8,0123*46
$GNGNS,174622.00,4742.4461356,N,01617.9734424,E,DAAA,21,0.7,624.1560,43.2111,,*53
$GPGNS,174622.00,,,,,,05,,,,1.8,123*75
$GLGNS,174622.00,,,,,,05,,,,,*7E
$GAGNS,174622.00,,,,,,04,,,,,*72
$GBGNS,174622.00,,,,,,07,,,,,*72
$GPLLQ,174622.00,010125,,M,,M,1,21,1.366,,M*14
$GPVTG,,T,,M,0.00,N,0.01,K,D*27
$GPHDT,,T*1B
$GPTHS,,V*0E
$GPROT,,V*08
$PSSN,HRP,174622.00,010125,,,,,,,00,0,,*65
$PTNL,AVR,174622.00,,Yaw,,Tilt,,,,0,,00*33
$GPGSA,A,3,16,18,26,28,29,,,,,,,,1.3,0.7,1.1*3C
$GPGSA,A,3,73,79,80,81,82,,,,,,,,1.3,0.7,1.1*36
$GPGSA,A,3,13,15,21,27,,,,,,,,,1.3,0.7,1.1*37
$GPGSA,A,3,11,13,23,34,37,38,43,,,,,,1.3,0.7,1.1*3B
$GPGST,174622.00,2.253,0.727,0.467,1.592,0.727,0.467,1.058*56
$GPGBS,174622.00,5.583,4.223,7.034,28,0.0001,-0.980,1.277*73
$GPGRS,174622.00,1,-0.2,-0.3,0.3,-1.0,0.5,,,,,,,*4F
$GPGRS,174622.00,1,2.5,0.2,-2.4,-0.0,-0.3,,,,,,,*49
$GPGRS,174622.00,1,0.5,-0.1,-0.3,-0.1,,,,,,,,*61
$GPGRS,174622.00,1,-1.6,-2.2,-0.5,-6.5,-2.2,1.1,-0.4,,,,,*61
$GPGSV,4,1,15,18,81,128,42,28,13,210,37,27,15,277,33,05,24,048,20*74
$GPGSV,4,2,15,23,23,151,36,31,27,233,30,16,43,304,44,29,39,080,40*77
$GPGSV,4,3,15,26,68,264,44,20,01,026,,25,09,143,,36,35,170,39*70
$GPGSV,4,4,15,34,31,208,35,49,34,195,37,61,03,257,*43
$GLGSV,3,1,09,82,72,285,46,65,15,038,29,73,25,325,46,83,32,244,23*67
$GLGSV,3,2,09,79,34,174,36,81,47,040,50,80,70,260,50,66,09,085,*62
$GLGSV,3,3,09,72,01,347,*58
$GAGSV,3,1,09,15,62,060,45,23,11,312,,34,12,045,25,27,59,152,50*6D
$GAGSV,3,2,09,13,58,206,45,21,61,297,43,26,08,219,,30,09,138,*63
$GAGSV,3,3,09,09,01,359,*56
$GBGSV,5,1,20,43,85,336,47,12,12,065,,60,10,109,,25,20,178,35*63
$GBGSV,5,2,20,21,16,074,,50,14,097,,38,29,042,39,05,22,129,*64
$GBGSV,5,3,20,28,24,252,34,37,34,304,41,08,40,053,34,34,39,066,37*64
$GBGSV,5,4,20,13,44,064,43,23,53,231,43,11,64,054,48,02,07,106,*62
$GBGSV,5,5,20,42,08,121,,56,02,086,,58,06,327,,22,07,025,*67
$GPGGA,174622.00,,,,,0,00,,,M,,M,,*4C
$PTNL,GGK,174622.00,010125,4742.4461356,N,01617.9734424,E,1,21,1.3,EHT667.3671,M*43
$GPGGQ,174622.00,010125,4742.4461356,N,01617.9734424,E,1,21,1.366,624.1560,M*3B
$GPGFA,174622.00,6.909,8.679,0.727,0.467,1.592,1.058,,VVV*05
$GPLLK,174622.00,010125,,M,,M,1,21,1.5,,M*08
$GNGMP,174622.00,,,,,DAAA,21,0.7,,,,*56
$GPGMP,174622.00,,,,,,05,,,,1.8,123*75
$GLGMP,174622.00,,,,,,05,,,,,*7E
$GAGMP,174622.00,,,,,,04,,,,,*72
$GBGMP,174622.00,,,,,,07,,,,,*72
$PSSN,SNC,[0,323200000,2347]*44
$GPZDA,174627.00,01,01,2025,,*62
$GPDTM,W84,,00.0000000,N,00.0000000,E,00.0000000,W84*5F
$GPRMC,174627.00,A,4742.4461296,N,01617.9734372,E,0.0,,010125,5.1,E,D*1D
$GPGLL,4742.4461296,N,01617.9734372,E,174627.00,A,D*6C
$GPGGA,174627.00,4742.4461296,N,01617.9734372,E,2,20,0.8,624.1601,M,43.2111,M,2.8,0123*43
$GNGNS,174627.00,4742.4461296,N,01617.9734372,E,DAAA,20,0.8,624.1601,43.2111,,*55
$GPGNS,174627.00,,,,,,06,,,,2.8,123*70
$GLGNS,174627.00,,,,,,04,,,,,*7A
$GAGNS,174627.00,,,,,,04,,,,,*77
$GBGNS,174627.00,,,,,,06,,,,,*76
$GPLLQ,174627.00,010125,,M,,M,1,20,1.403,,M*14
$GPVTG,,T,,M,0.01,N,0.01,K,D*26
$GPHDT,,T*1B
$GPTHS,,V*0E
$GPROT,,V*08
$PSSN,HRP,174627.00,010125,,,,,,,00,0,,*60
$PTNL,AVR,174627.00,,Yaw,,Tilt,,,,0,,00*36
$GPGSA,A,3,16,18,26,27,28,29,,,,,,,1.3,0.8,1.0*37
$GPGSA,A,3,73,80,81,82,,,,,,,,,1.3,0.8,1.0*36
$GPGSA,A,3,13,15,21,27,,,,,,,,,1.3,0.8,1.0*39
$GPGSA,A,3,11,13,23,37,38,43,,,,,,,1.3,0.8,1.0*32
$GPGST,174627.00,1.702,0.824,0.485,3.890,0.823,0.487,1.027*51
$GPGBS,174627.00,6.017,4.340,5.073,16,0.0001,0.886,0.746*59
$GPGRS,174627.00,1,0.9,-0.5,0.1,-1.3,-1.2,0.8,,,,,,*66
$GPGRS,174627.00,1,2.7,-2.3,1.1,-0.5,,,,,,,,*4E
$GPGRS,174627.00,1,0.6,-0.0,-0.4,-0.1,,,,,,,,*61
$GPGRS,174627.00,1,-1.6,-2.2,-0.7,-2.8,1.7,-0.3,,,,,,*6D
$GPGSV,4,1,15,18,81,128,43,28,13,210,38,27,15,277,36,05,23,048,26*7E
$GPGSV,4,2,15,23,23,151,35,31,27,233,21,16,43,304,46,29,39,080,40*76
$GPGSV,4,3,15,26,68,264,44,20,01,026,,25,09,143,,36,35,170,39*70
$GPGSV,4,4,15,34,31,208,35,49,34,195,37,61,03,257,*43
$GLGSV,3,1,09,82,72,285,46,65,15,038,31,73,25,325,47,83,32,244,23*6F
$GLGSV,3,2,09,79,34,174,28,81,47,040,50,80,70,260,50,66,09,085,*6D
$GLGSV,3,3,09,72,01,347,*58
$GAGSV,3,1,09,15,61,060,45,23,11,312,,34,12,045,26,27,59,152,49*65
$GAGSV,3,2,09,13,58,206,45,21,61,297,44,26,08,219,,30,09,138,*64
$GAGSV,3,3,09,09,01,359,*56
$GBGSV,5,1,20,43,85,336,47,12,12,065,,60,10,109,,25,20,178,33*65
$GBGSV,5,2,20,21,16,074,,50,14,097,,38,29,042,38,05,22,129,*65
$GBGSV,5,3,20,28,24,252,31,37,34,304,41,08,40,053,33,34,39,066,33*62
$GBGSV,5,4,20,13,44,064,43,23,53,231,43,11,64,054,48,02,07,106,*62
$GBGSV,5,5,20,42,08,121,,56,02,086,,58,06,327,,22,07,025,*67
$GPGGA,174627.00,,,,,0,00,,,M,,M,,*49
$PTNL,GGK,174627.00,010125,4742.4461296,N,01617.9734372,E,1,20,1.3,EHT667.3712,M*4A
$GPGGQ,174627.00,010125,4742.4461296,N,01617.9734372,E,1,20,1.403,624.1601,M*36
$GPGFA,174627.00,7.835,8.418,0.824,0.485,3.890,1.027,,VVV*0F
$GPLLK,174627.00,010125,,M,,M,1,20,1.5,,M*0C
$GNGMP,174627.00,,,,,DAAA,20,0.8,,,,*5D
$GPGMP,174627.00,,,,,,06,,,,2.8,123*70
$GLGMP,174627.00,,,,,,04,,,,,*7A
$GAGMP,174627.00,,,,,,04,,,,,*77
$GBGMP,174627.00,,,,,,06,,,,,*76
$PSSN,SNC,[0,323205000,2347]*41
$GPZDA,174632.00,01,01,2025,,*66
$GPDTM,W84,,00.0000000,N,00.0000000,E,00.0000000,W84*5F
$GPRMC,174632.00,A,4742.4461154,N,01617.9734315,E,0.0,,010125,5.1,E,D*15
$GPGLL,4742.4461154,N,01617.9734315,E,174632.00,A,D*64
$GPGGA,174632.00,4742.4461154,N,01617.9734315,E,2,21,0.7,624.1600,M,43.2111,M,3.8,0123*45
$GNGNS,174632.00,4742.4461154,N,01617.9734315,E,DAAA,21,0.7,624.1600,43.2111,,*52
$GPGNS,174632.00,,,,,,06,,,,3.8,123*75
$GLGNS,174632.00,,,,,,05,,,,,*7F
$GAGNS,174632.00,,,,,,04,,,,,*73
$GBGNS,174632.00,,,,,,06,,,,,*72
$GPLLQ,174632.00,010125,,M,,M,1,21,1.818,,M*17
$GPVTG,,T,,M,0.00,N,0.01,K,D*27
$GPHDT,,T*1B
$GPTHS,,V*0E
$GPROT,,V*08
