$GPZDA,105942.00,01,01,2025,,*68
$GPDTM,W84,,00.0000000,N,00.0000000,E,00.0000000,W84*5F
$GPRMC,105942.00,A,4742.4459899,N,01617.9729157,E,0.0,,010125,5.1,E,D*10
$GPGLL,4742.4459899,N,01617.9729157,E,105942.00,A,D*61
$GPGGA,105942.00,4742.4459899,N,01617.9729157,E,2,20,0.7,626.2065,M,43.2111,M,2.4,0123*48
$GNGNS,105942.00,4742.4459899,N,01617.9729157,E,DAAA,20,0.7,626.2065,43.2111,,*52
$GPGNS,105942.00,,,,,,05,,,,2.4,123*75
$GLGNS,105942.00,,,,,,04,,,,,*70
$GAGNS,105942.00,,,,,,05,,,,,*7C
$GBGNS,105942.00,,,,,,06,,,,,*7C
$GPLLQ,105942.00,010125,,M,,M,1,20,5.660,,M*1D
$GPVTG,,T,,M,0.00,N,0.00,K,D*26
$GPHDT,,T*1B
$GPTHS,,V*0E
$GPROT,,V*08
$PSSN,HRP,105942.00,010125,,,,,,,00,0,,*6A
$PTNL,AVR,105942.00,,Yaw,,Tilt,,,,0,,00*3C
$GPGSA,A,3,12,13,15,17,24,,,,,,,,1.7,0.7,1.5*32
$GPGSA,A,3,66,67,76,77,,,,,,,,,1.7,0.7,1.5*37
$GPGSA,A,3,02,07,08,25,30,,,,,,,,1.7,0.7,1.5*3E
$GPGSA,A,3,10,14,24,26,33,42,,,,,,,1.7,0.7,1.5*37
$GPGST,105942.00,6.261,2.008,1.017,323.264,1.720,1.451,5.193*5B
$GPGBS,105942.00,5.382,5.785,18.484,13,0.0001,-2.790,1.000*45
$GPGRS,105942.00,1,0.4,-2.8,-0.1,1.8,0.1,,,,,,,*6C
$GPGRS,105942.00,1,-10.7,13.5,-0.6,-8.2,,,,,,,,*65
$GPGRS,105942.00,1,0.6,-2.2,0.4,-1.3,5.5,,,,,,,*6B
$GPGRS,105942.00,1,-3.6,-0.5,-4.7,-2.3,4.3,-6.0,,,,,,*6B
$GPGSV,4,1,15,24,66,299,44,14,17,059,25,13,31,159,35,23,17,272,*7F
$GPGSV,4,2,15,10,15,314,33,12,36,235,44,15,47,202,45,17,39,065,45*72
$GPGSV,4,3,15,22,38,057,,19,46,110,30,02,03,021,,36,35,170,35*7B
$GPGSV,4,4,15,34,31,208,,49,34,195,34,61,03,257,*46
$GLGSV,3,1,11,76,61,032,47,86,19,104,35,68,14,336,31,85,24,046,21*63
$GLGSV,3,2,11,67,50,295,44,66,42,209,39,77,54,285,40,78,01,258,*62
$GLGSV,3,3,11,84,03,000,25,75,08,067,,65,02,180,*5E
$GAGSV,3,1,11,02,85,074,48,03,24,159,27,25,31,057,39,18,38,150,*6C
$GAGSV,3,2,11,30,38,234,44,07,40,305,40,08,66,210,39,16,07,056,*67
$GAGSV,3,3,11,12,05,020,,11,06,068,,10,07,042,*54
$GBGSV,6,1,21,26,78,044,51,05,20,130,,50,21,200,,35,26,122,27*67
$GBGSV,6,2,21,40,22,039,32,45,23,079,33,33,35,294,41,07,24,052,26*63
$GBGSV,6,3,21,29,24,058,22,42,35,225,40,24,44,272,43,10,35,060,40*6F
$GBGSV,6,4,21,14,42,260,42,56,38,066,,02,04,109,,44,04,162,*6C
$GBGSV,6,5,21,11,06,244,,21,05,184,,41,05,334,30,57,02,347,*63
$GBGSV,6,6,21,60,07,111,*58
$GPGGA,105942.00,,,,,0,00,,,M,,M,,*43
$PTNL,GGK,105942.00,010125,4742.4459899,N,01617.9729157,E,1,20,1.7,EHT669.4176,M*4E
$GPGGQ,105942.00,010125,4742.4459899,N,01617.9729157,E,1,20,5.660,626.2065,M*3D
$GPGFA,105942.00,19.090,42.583,2.008,1.017,323.264,5.193,,VVV*00
$GPLLK,105942.00,010125,,M,,M,1,20,2.0,,M*00
$GNGMP,105942.00,,,,,DAAA,20,0.7,,,,*58
$GPGMP,105942.00,,,,,,05,,,,2.4,123*75
$GLGMP,105942.00,,,,,,04,,,,,*70
$GAGMP,105942.00,,,,,,05,,,,,*7C
$GBGMP,105942.00,,,,,,06,,,,,*7C
$PSSN,SNC,[0,298800000,2347]*4F
$GPZDA,105947.00,01,01,2025,,*6D
$GPDTM,W84,,00.0000000,N,00.0000000,E,00.0000000,W84*5F
$GPRMC,105947.00,A,4742.4459813,N,01617.9729133,E,0.0,,010125,5.1,E,D*15
$GPGLL,4742.4459813,N,01617.9729133,E,105947.00,A,D*64
$GPGGA,105947.00,4742.4459813,N,01617.9729133,E,2,20,0.7,626.2005,M,43.2111,M,3.4,0123*4A
$GNGNS,105947.00,4742.4459813,N,01617.9729133,E,DAAA,20,0.7,626.2005,43.2111,,*51
$GPGNS,105947.00,,,,,,05,,,,3.4,123*71
$GLGNS,105947.00,,,,,,04,,,,,*75
$GAGNS,105947.00,,,,,,05,,,,,*79
$GBGNS,105947.00,,,,,,06,,,,,*79
$GPLLQ,105947.00,010125,,M,,M,1,20,5.147,,M*1A
$GPVTG,,T,,M,0.01,N,0.01,K,D*26
$GPHDT,,T*1B
$GPTHS,,V*0E
$GPROT,,V*08
$PSSN,HRP,105947.00,010125,,,,,,,00,0,,*6F
$PTNL,AVR,105947.00,,Yaw,,Tilt,,,,0,,00*39
$GPGSA,A,3,12,13,15,17,24,,,,,,,,1.7,0.7,1.5*32
$GPGSA,A,3,66,67,76,77,,,,,,,,,1.7,0.7,1.5*37
$GPGSA,A,3,02,07,08,25,30,,,,,,,,1.7,0.7,1.5*3E
$GPGSA,A,3,10,14,24,26,33,42,,,,,,,1.7,0.7,1.5*37
$GPGST,105947.00,6.687,1.822,0.923,323.259,1.561,1.317,4.725*58
$GPGBS,105947.00,5.444,5.881,18.722,67,0.0001,16.875,6.084*5D
$GPGRS,105947.00,1,-0.1,-2.2,-0.1,0.9,0.4,,,,,,,*4E
$GPGRS,105947.00,1,-7.2,16.9,-0.2,-11.0,,,,,,,,*64
$GPGRS,105947.00,1,0.2,-1.0,0.7,-1.4,5.3,,,,,,,*69
$GPGRS,105947.00,1,-3.5,-2.4,-4.0,-2.2,4.8,-5.0,,,,,,*60
$GPGSV,4,1,15,24,66,299,44,14,17,059,24,13,31,159,35,23,17,272,21*7D
$GPGSV,4,2,15,10,15,314,32,12,36,235,45,15,47,202,45,17,39,065,45*72
$GPGSV,4,3,15,22,38,057,,19,46,110,,02,03,021,,36,35,170,35*78
$GPGSV,4,4,15,34,31,208,,49,34,195,34,61,03,257,*46
$GLGSV,3,1,11,76,61,032,48,86,19,104,35,68,14,336,31,85,24,046,*6F
$GLGSV,3,2,11,67,50,295,42,66,42,209,38,77,54,285,40,78,01,258,*65
$GLGSV,3,3,11,84,03,000,20,75,08,067,,65,01,180,*58
$GAGSV,3,1,11,02,85,074,48,03,24,159,20,25,31,057,40,18,38,150,*65
$GAGSV,3,2,11,30,38,234,45,07,41,305,40,08,66,210,41,16,07,056,*68
$GAGSV,3,3,11,12,05,020,,11,06,068,,10,07,042,*54
$GBGSV,6,1,21,26,78,044,51,05,20,130,,50,21,200,,35,26,122,27*67
$GBGSV,6,2,21,40,22,039,32,45,23,079,33,33,35,294,40,07,24,052,26*62
$GBGSV,6,3,21,29,24,058,27,42,35,225,42,24,44,272,44,10,35,060,40*6F
$GBGSV,6,4,21,14,42,260,39,56,38,066,,02,04,109,,44,04,162,*60
$GBGSV,6,5,21,11,06,244,,21,05,184,,41,05,334,31,57,02,347,*62
$GBGSV,6,6,21,60,07,111,*58
$GPGGA,105947.00,,,,,0,00,,,M,,M,,*46
$PTNL,GGK,105947.00,010125,4742.4459813,N,01617.9729133,E,1,20,1.7,EHT669.4116,M*4D
$GPGGQ,105947.00,010125,4742.4459813,N,01617.9729133,E,1,20,5.147,626.2005,M*3C
$GPGFA,105947.00,17.326,38.743,1.822,0.923,323.259,4.725,,VVV*0E
$GPLLK,105947.00,010125,,M,,M,1,20,2.0,,M*05
$GNGMP,105947.00,,,,,DAAA,20,0.7,,,,*5D
$GPGMP,105947.00,,,,,,05,,,,3.4,123*71
$GLGMP,105947.00,,,,,,04,,,,,*75
$GAGMP,105947.00,,,,,,05,,,,,*79
$GBGMP,105947.00,,,,,,06,,,,,*79
$PSSN,SNC,[0,298805000,2347]*4A
$GPZDA,105952.00,01,01,2025,,*69
$GPDTM,W84,,00.0000000,N,00.0000000,E,00.0000000,W84*5F
$GPRMC,105952.00,A,4742.4459735,N,01617.9729121,E,0.0,,010125,5.1,E,D*19
$GPGLL,4742.4459735,N,01617.9729121,E,105952.00,A,D*68
$GPGGA,105952.00,4742.4459735,N,01617.9729121,E,2,19,0.8,626.1915,M,43.2111,M,3.3,0123*4F
$GNGNS,105952.00,4742.4459735,N,01617.9729121,E,DAAA,19,0.8,626.1915,43.2111,,*53
$GPGNS,105952.00,,,,,,04,,,,3.3,123*73
$GLGNS,105952.00,,,,,,05,,,,,*70
$GAGNS,105952.00,,,,,,05,,,,,*7D
$GBGNS,105952.00,,,,,,05,,,,,*7E
$GPLLQ,105952.00,010125,,M,,M,1,19,4.632,,M*10
$GPVTG,,T,,M,0.00,N,0.01,K,D*27
$GPHDT,,T*1B
$GPTHS,,V*0E
$GPROT,,V*08
$PSSN,HRP,105952.00,010125,,,,,,,00,0,,*6B
$PTNL,AVR,105952.00,,Yaw,,Tilt,,,,0,,00*3D
$GPGSA,A,3,12,15,17,24,,,,,,,,,1.7,0.8,1.5*3F
$GPGSA,A,3,66,67,76,77,86,,,,,,,,1.7,0.8,1.5*36
$GPGSA,A,3,02,07,08,25,30,,,,,,,,1.7,0.8,1.5*31
$GPGSA,A,3,10,14,24,26,42,,,,,,,,1.7,0.8,1.5*38
$GPGST,105952.00,6.186,1.960,0.807,324.111,1.657,1.322,4.119*5B
$GPGBS,105952.00,9.392,5.480,18.193,67,0.0001,13.174,6.090*50
$GPGRS,105952.00,1,-0.2,-0.7,0.5,0.7,,,,,,,,*43
$GPGRS,105952.00,1,-4.9,13.2,-0.3,-11.5,5.3,,,,,,,*4A
$GPGRS,105952.00,1,0.1,-0.1,1.1,-1.5,4.6,,,,,,,*6C
$GPGRS,105952.00,1,-3.8,-5.3,-3.0,-2.3,-4.3,,,,,,,*4F
$GPGSV,4,1,15,24,66,299,44,14,17,059,23,13,31,159,35,23,17,272,20*7B
$GPGSV,4,2,15,10,15,314,35,12,36,235,46,15,47,202,45,17,39,065,44*77
$GPGSV,4,3,15,22,38,057,,19,46,110,,02,03,021,,36,35,170,35*78
$GPGSV,4,4,15,34,31,208,,49,34,195,34,61,03,257,*46
$GLGSV,3,1,11,76,61,032,48,86,19,104,35,68,14,336,30,85,24,046,31*6C
$GLGSV,3,2,11,67,50,295,41,66,42,209,38,77,54,285,40,78,01,258,*66
$GLGSV,3,3,11,84,03,000,,75,08,067,,65,01,180,*5A
$GAGSV,3,1,11,02,85,074,47,03,24,159,24,25,31,057,40,18,38,150,*6E
$GAGSV,3,2,11,30,38,234,45,07,41,305,41,08,66,210,42,16,07,056,*6A
$GAGSV,3,3,11,12,05,020,,11,06,067,,10,07,042,*5B
$GBGSV,6,1,21,26,78,044,50,05,20,130,,50,21,200,,35,26,122,30*60
$GBGSV,6,2,21,40,22,039,32,45,23,079,33,33,35,294,28,07,24,052,27*6D
$GBGSV,6,3,21,29,24,058,27,42,35,225,43,24,44,272,44,10,35,060,40*6E
$GBGSV,6,4,21,14,42,260,37,56,38,066,,02,04,109,,44,04,162,*6E
$GBGSV,6,5,21,11,06,244,,21,05,184,,41,05,334,31,57,02,347,*62
$GBGSV,6,6,21,60,07,111,*58
$GPGGA,105952.00,,,,,0,00,,,M,,M,,*42
$PTNL,GGK,105952.00,010125,4742.4459735,N,01617.9729121,E,1,19,1.7,EHT669.4025,M*4A
$GPGGQ,105952.00,010125,4742.4459735,N,01617.9729121,E,1,19,4.632,626.1915,M*35
$GPGFA,105952.00,18.636,33.776,1.960,0.807,324.111,4.119,,VVV*0D
$GPLLK,105952.00,010125,,M,,M,1,19,2.0,,M*0B
$GNGMP,105952.00,,,,,DAAA,19,0.8,,,,*5C
$GPGMP,105952.00,,,,,,04,,,,3.3,123*73
$GLGMP,105952.00,,,,,,05,,,,,*70
$GAGMP,105952.00,,,,,,05,,,,,*7D
$GBGMP,105952.00,,,,,,05,,,,,*7E
$PSSN,SNC,[0,298810000,2347]*4E
$GPZDA,105957.00,01,01,2025,,*6C
$GPDTM,W84,,00.0000000,N,00.0000000,E,00.0000000,W84*5F
$GPRMC,105957.00,A,4742.4459633,N,01617.9729136,E,0.0,,010125,5.1,E,D*1D
$GPGLL,4742.4459633,N,01617.9729136,E,105957.00,A,D*6C
$GPGGA,105957.00,4742.4459633,N,01617.9729136,E,2,20,0.8,626.1810,M,43.2111,M,1.4,0123*40
$GNGNS,105957.00,4742.4459633,N,01617.9729136,E,DAAA,20,0.8,626.1810,43.2111,,*59
$GPGNS,105957.00,,,,,,05,,,,1.4,123*72
$GLGNS,105957.00,,,,,,04,,,,,*74
$GAGNS,105957.00,,,,,,06,,,,,*7B
$GBGNS,105957.00,,,,,,05,,,,,*7B
$GPLLQ,105957.00,010125,,M,,M,1,20,4.775,,M*1D
$GPVTG,,T,,M,0.00,N,0.01,K,D*27
$GPHDT,,T*1B
$GPTHS,,V*0E
$GPROT,,V*08
$PSSN,HRP,105957.00,010125,,,,,,,00,0,,*6E
$PTNL,AVR,105957.00,,Yaw,,Tilt,,,,0,,00*38
$GPGSA,A,3,12,13,15,17,24,,,,,,,,1.6,0.8,1.5*3C
$GPGSA,A,3,66,76,77,86,,,,,,,,,1.6,0.8,1.5*36
$GPGSA,A,3,02,03,07,08,25,30,,,,,,,1.6,0.8,1.5*33
$GPGSA,A,3,10,14,24,26,42,,,,,,,,1.6,0.8,1.5*39
$GPGST,105957.00,5.505,1.698,0.859,323.896,1.462,1.218,4.379*58
$GPGBS,105957.00,5.408,5.872,18.577,13,0.0001,-2.165,0.988*4A
$GPGRS,105957.00,1,0.2,-2.2,-0.6,0.1,1.2,,,,,,,*69
$GPGRS,105957.00,1,-2.6,-1.3,-9.6,13.2,,,,,,,,*55
$GPGRS,105957.00,1,0.5,-3.5,-0.1,1.2,-1.0,3.7,,,,,,*68
$GPGRS,105957.00,1,-3.9,-7.0,-2.1,-2.3,-3.3,,,,,,,*4D
$GPGSV,4,1,15,24,66,299,44,14,17,059,21,13,31,159,36,23,17,272,27*7D
$GPGSV,4,2,15,10,15,314,30,12,36,235,46,15,47,202,44,17,39,065,42*75
$GPGSV,4,3,15,22,38,057,,19,47,109,34,02,03,021,,36,35,170,35*76
$GPGSV,4,4,15,34,31,208,,49,34,195,34,61,03,257,*46
$GLGSV,3,1,11,76,61,032,47,86,19,104,35,68,14,336,32,85,24,046,26*67
$GLGSV,3,2,11,67,50,295,30,66,42,209,41,77,54,285,39,78,01,258,*60
$GLGSV,3,3,11,84,03,000,,75,08,067,,65,01,180,*5A
$GAGSV,3,1,11,02,85,073,47,03,24,159,30,25,31,057,40,18,38,150,*6C
$GAGSV,3,2,11,30,38,234,45,07,41,305,42,08,66,210,43,16,07,056,*68
$GAGSV,3,3,11,12,05,020,,11,06,067,,10,07,042,*5B
$GBGSV,6,1,21,26,78,044,50,05,20,130,,50,21,200,,35,26,122,32*62
$GBGSV,6,2,21,40,22,039,32,45,23,079,31,33,35,294,28,07,24,052,28*60
$GBGSV,6,3,21,29,24,058,28,42,35,225,45,24,44,272,44,10,35,060,40*67
$GBGSV,6,4,21,14,42,260,35,56,38,066,,02,04,109,,44,04,162,*6C
$GBGSV,6,5,21,11,06,244,,21,05,184,,41,05,334,31,57,02,347,*62
$GBGSV,6,6,21,60,07,111,*58
$GPGGA,105957.00,,,,,0,00,,,M,,M,,*47
$PTNL,GGK,105957.00,010125,4742.4459633,N,01617.9729136,E,1,20,1.6,EHT669.3920,M*4E
$GPGGQ,105957.00,010125,4742.4459633,N,01617.9729136,E,1,20,4.775,626.1810,M*3D
$GPGFA,105957.00,16.146,35.911,1.698,0.859,323.896,4.379,,VVV*09
$GPLLK,105957.00,010125,,M,,M,1,20,1.9,,M*0E
$GNGMP,105957.00,,,,,DAAA,20,0.8,,,,*53
$GPGMP,105957.00,,,,,,05,,,,1.4,123*72
$GLGMP,105957.00,,,,,,04,,,,,*74
$GAGMP,105957.00,,,,,,06,,,,,*7B
$GBGMP,105957.00,,,,,,05,,,,,*7B
$PSSN,SNC,[0,298815000,2347]*4B
$GPZDA,110002.00,01,01,2025,,*61
$GPDTM,W84,,00.0000000,N,00.0000000,E,00.0000000,W84*5F
$GPRMC,110002.00,A,4742.4459571,N,01617.9729255,E,0.0,,010125,5.1,E,D*13
$GPGLL,4742.4459571,N,01617.9729255,E,110002.00,A,D*62
$GPGGA,110002.00,4742.4459571,N,01617.9729255,E,2,18,0.8,626.1607,M,43.2111,M,2.4,0123*4E
$GNGNS,110002.00,4742.4459571,N,01617.9729255,E,DAAA,18,0.8,626.1607,43.2111,,*54
$GPGNS,110002.00,,,,,,05,,,,2.4,123*7C
$GLGNS,110002.00,,,,,,04,,,,,*79
$GAGNS,110002.00,,,,,,05,,,,,*75
$GBGNS,110002.00,,,,,,04,,,,,*77
$GPLLQ,110002.00,010125,,M,,M,1,18,4.613,,M*1A
$GPVTG,,T,,M,0.02,N,0.03,K,D*27
$GPHDT,,T*1B
$GPTHS,,V*0E
$GPROT,,V*08
$PSSN,HRP,110002.00,010125,,,,,,,00,0,,*63
$PTNL,AVR,110002.00,,Yaw,,Tilt,,,,0,,00*35
$GPGSA,A,3,12,13,15,17,24,,,,,,,,1.8,0.8,1.6*31
$GPGSA,A,3,66,67,76,77,,,,,,,,,1.8,0.8,1.6*34
$GPGSA,A,3,02,07,08,25,30,,,,,,,,1.8,0.8,1.6*3D
$GPGSA,A,3,10,24,26,42,,,,,,,,,1.8,0.8,1.6*31
$GPGST,110002.00,3.965,1.641,0.823,323.057,1.401,1.185,4.232*59
$GPGBS,110002.00,5.459,5.939,18.801,24,0.0001,1.634,0.648*6B
$GPGRS,110002.00,1,0.2,-0.8,-0.6,-1.4,1.6,,,,,,,*41
$GPGRS,110002.00,1,1.0,5.1,-2.6,-9.1,,,,,,,,*45
$GPGRS,110002.00,1,0.4,-0.7,0.7,-1.2,3.4,,,,,,,*62
$GPGRS,110002.00,1,-3.8,-3.1,-2.5,-2.7,,,,,,,,*47
$GPGSV,4,1,15,24,66,299,45,14,17,059,25,13,31,159,36,23,17,272,30*7E
$GPGSV,4,2,15,10,15,314,22,12,36,235,46,15,47,202,44,22,38,057,*76
$GPGSV,4,3,15,17,39,065,39,19,47,109,34,02,03,021,,36,35,170,35*7A
$GPGSV,4,4,15,34,31,208,,49,34,195,34,61,03,257,*46
$GLGSV,3,1,11,76,61,032,47,86,19,104,33,68,14,336,30,85,24,046,28*6D
$GLGSV,3,2,11,67,50,295,41,66,42,209,44,77,54,285,39,78,01,258,*63
$GLGSV,3,3,11,84,03,000,25,75,08,067,,65,01,180,*5D
$GAGSV,3,1,11,02,85,073,47,03,24,159,35,25,30,057,39,18,38,150,*66
$GAGSV,3,2,11,30,38,234,45,07,41,305,42,08,66,210,44,16,07,056,*6F
$GAGSV,3,3,11,12,05,020,,11,06,067,,10,07,042,*5B
$GBGSV,6,1,21,26,78,044,50,05,20,130,,50,21,200,,35,26,122,*63
$GBGSV,6,2,21,40,22,039,31,45,23,079,31,33,35,294,26,07,24,052,27*62
$GBGSV,6,3,21,29,24,058,28,42,35,225,46,24,44,272,43,10,35,060,40*63
$GBGSV,6,4,21,14,42,259,33,56,38,066,,02,04,109,,44,04,162,*60
$GBGSV,6,5,21,11,06,244,,21,05,184,,41,05,334,30,57,02,347,*63
$GBGSV,6,6,21,60,07,111,*58
$GPGGA,110002.00,,,,,0,00,,,M,,M,,*4A
$PTNL,GGK,110002.00,010125,4742.4459571,N,01617.9729255,E,1,18,1.8,EHT669.3718,M*40
$GPGGQ,110002.00,010125,4742.4459571,N,01617.9729255,E,1,18,4.613,626.1607,M*31
$GPGFA,110002.00,15.600,34.706,1.641,0.823,323.057,4.232,,VVV*09
$GPLLK,110002.00,010125,,M,,M,1,18,2.2,,M*00
$GNGMP,110002.00,,,,,DAAA,18,0.8,,,,*55
$GPGMP,110002.00,,,,,,05,,,,2.4,123*7C
$GLGMP,110002.00,,,,,,04,,,,,*79
$GAGMP,110002.00,,,,,,05,,,,,*75
$GBGMP,110002.00,,,,,,04,,,,,*77
$PSSN,SNC,[0,298820000,2347]*4D
$GPZDA,110007.00,01,01,2025,,*64
$GPDTM,W84,,00.0000000,N,00.0000000,E,00.0000000,W84*5F
$GPRMC,110007.00,A,4742.4459524,N,01617.9729331,E,0.0,,010125,5.1,E,D*15
$GPGLL,4742.4459524,N,01617.9729331,E,110007.00,A,D*64
$GPGGA,110007.00,4742.4459524,N,01617.9729331,E,2,19,0.8,626.1502,M,43.2111,M,2.2,0123*49
$GNGNS,110007.00,4742.4459524,N,01617.9729331,E,DAAA,19,0.8,626.1502,43.2111,,*55
$GPGNS,110007.00,,,,,,05,,,,2.2,123*7F
$GLGNS,110007.00,,,,,,03,,,,,*7B
$GAGNS,110007.00,,,,,,06,,,,,*73
$GBGNS,110007.00,,,,,,05,,,,,*73
$GPLLQ,110007.00,010125,,M,,M,1,19,3.482,,M*13
$GPVTG,,T,,M,0.01,N,0.02,K,D*25
$GPHDT,,T*1B
$GPTHS,,V*0E
$GPROT,,V*08
$PSSN,HRP,110007.00,010125,,,,,,,00,0,,*66
$PTNL,AVR,110007.00,,Yaw,,Tilt,,,,0,,00*30
$GPGSA,A,3,12,13,15,17,24,,,,,,,,1.7,0.8,1.5*3D
$GPGSA,A,3,66,76,77,,,,,,,,,,1.7,0.8,1.5*39
$GPGSA,A,3,02,03,07,08,25,30,,,,,,,1.7,0.8,1.5*32
$GPGSA,A,3,10,24,26,35,42,,,,,,,,1.7,0.8,1.5*3B
$GPGST,110007.00,5.126,1.235,0.623,323.252,1.057,0.891,3.195*58
$GPGBS,110007.00,5.415,5.852,18.448,35,0.0001,13.143,8.712*59
$GPGRS,110007.00,1,-0.5,-0.4,0.1,-0.5,0.8,,,,,,,*47
$GPGRS,110007.00,1,2.9,-1.7,-8.1,,,,,,,,,*63
$GPGRS,110007.00,1,0.1,-1.3,-1.0,0.1,-0.9,2.6,,,,,,*6A
$GPGRS,110007.00,1,-4.1,-4.2,-2.7,13.1,-3.4,,,,,,,*55
$GPGSV,4,1,15,24,66,299,45,14,17,059,25,13,31,159,38,23,17,272,30*70
$GPGSV,4,2,15,10,15,314,32,12,36,235,46,15,47,202,44,22,38,057,*77
$GPGSV,4,3,15,17,38,065,37,19,47,109,34,02,03,021,,36,35,170,35*75
$GPGSV,4,4,15,34,31,208,,49,34,195,35,61,03,257,*47
$GLGSV,3,1,11,76,61,032,47,86,19,104,30,68,14,336,34,85,24,046,34*67
$GLGSV,3,2,11,67,50,295,35,66,42,209,42,77,54,285,40,78,01,258,*68
$GLGSV,3,3,11,84,03,000,26,75,08,067,,65,01,180,*5E
$GAGSV,3,1,11,02,85,073,47,03,24,159,37,25,30,057,38,18,38,150,*65
$GAGSV,3,2,11,30,38,234,45,07,41,305,43,08,66,210,45,16,07,056,*6F
$GAGSV,3,3,11,12,05,020,,11,06,067,,10,07,042,*5B
$GBGSV,6,1,21,26,77,044,50,05,20,130,,50,21,200,,35,26,122,37*68
$GBGSV,6,2,21,40,22,039,31,45,23,079,32,33,35,294,,07,24,052,27*65
$GBGSV,6,3,21,29,24,058,28,42,35,225,47,24,44,272,42,10,35,060,40*63
$GBGSV,6,4,21,14,42,259,30,56,38,066,,02,04,109,,44,04,162,*63
$GBGSV,6,5,21,11,06,244,,21,05,184,,41,05,334,30,57,02,347,*63
$GBGSV,6,6,21,60,07,111,*58
$GPGGA,110007.00,,,,,0,00,,,M,,M,,*4F
$PTNL,GGK,110007.00,010125,4742.4459524,N,01617.9729331,E,1,19,1.7,EHT669.3613,M*42
$GPGGQ,110007.00,010125,4742.4459524,N,01617.9729331,E,1,19,3.482,626.1502,M*3D
$GPGFA,110007.00,11.737,26.201,1.235,0.623,323.252,3.195,,VVV*0B
$GPLLK,110007.00,010125,,M,,M,1,19,2.0,,M*06
$GNGMP,110007.00,,,,,DAAA,19,0.8,,,,*51
$GPGMP,110007.00,,,,,,05,,,,2.2,123*7F
$GLGMP,110007.00,,,,,,03,,,,,*7B
$GAGMP,110007.00,,,,,,06,,,,,*73
$GBGMP,110007.00,,,,,,05,,,,,*73
$PSSN,SNC,[0,298825000,2347]*48
$GPZDA,110012.00,01,01,2025,,*60
$GPDTM,W84,,00.0000000,N,00.0000000,E,00.0000000,W84*5F
$GPRMC,110012.00,A,4742.4459516,N,01617.9729353,E,0.0,,010125,5.1,E,D*14
$GPGLL,4742.4459516,N,01617.9729353,E,110012.00,A,D*65
$GPGGA,110012.00,4742.4459516,N,01617.9729353,E,2,21,0.6,626.1417,M,43.2111,M,3.0,0123*4B
$GNGNS,110012.00,4742.4459516,N,01617.9729353,E,DAAA,21,0.6,626.1417,43.2111,,*54
$GPGNS,110012.00,,,,,,04,,,,3.0,123*79
$GLGNS,110012.00,,,,,,06,,,,,*7A
$GAGNS,110012.00,,,,,,06,,,,,*77
$GBGNS,110012.00,,,,,,05,,,,,*77
$GPLLQ,110012.00,010125,,M,,M,1,21,3.948,,M*17
$GPVTG,,T,,M,0.00,N,0.01,K,D*27
$GPHDT,,T*1B
$GPTHS,,V*0E
$GPROT,,V*08
$PSSN,HRP,110012.00,010125,,,,,,,00,0,,*62
$PTNL,AVR,110012.00,,Yaw,,Tilt,,,,0,,00*34
$GPGSA,A,3,12,13,15,24,,,,,,,,,1.3,0.6,1.1*35
$GPGSA,A,3,66,67,68,76,77,85,,,,,,,1.3,0.6,1.1*35
$GPGSA,A,3,02,03,07,08,25,30,,,,,,,1.3,0.6,1.1*3C
$GPGSA,A,3,10,24,26,35,42,,,,,,,,1.3,0.6,1.1*35
$GPGST,110012.00,5.074,1.501,1.061,21.023,1.452,1.128,3.493*66
$GPGBS,110012.00,8.024,6.332,16.464,77,0.0001,-8.662,6.080*4F
$GPGRS,110012.00,1,-0.3,-0.0,-0.1,0.4,,,,,,,,*66
$GPGRS,110012.00,1,-0.6,3.8,3.8,-2.5,-8.7,8.6,,,,,,*60
$GPGRS,110012.00,1,-0.5,-1.6,-1.3,-0.6,-0.5,1.6,,,,,,*64
$GPGRS,110012.00,1,-4.5,-5.2,-3.2,9.6,-4.5,,,,,,,*6A
$GPGSV,4,1,15,24,66,299,46,14,17,059,27,13,31,159,40,23,17,272,30*7E
$GPGSV,4,2,15,10,15,314,35,12,36,235,47,15,47,202,43,22,38,057,*76
$GPGSV,4,3,15,17,38,065,33,19,47,109,,02,03,021,,36,35,170,35*76
$GPGSV,4,4,15,34,31,208,,49,34,195,35,61,03,257,*47
$GLGSV,3,1,11,76,61,032,46,86,19,104,,68,14,336,36,85,24,046,35*66
$GLGSV,3,2,11,67,50,295,38,66,42,209,37,77,54,285,40,78,01,258,*67
$GLGSV,3,3,11,84,03,000,26,75,08,067,,65,01,180,*5E
$GAGSV,3,1,11,02,85,073,46,03,24,159,39,25,30,057,36,18,38,150,*64
$GAGSV,3,2,11,30,38,234,45,07,41,305,43,08,66,210,45,16,07,056,*6F
$GAGSV,3,3,11,12,05,020,,11,06,067,,10,07,042,*5B
$GBGSV,6,1,21,26,77,044,50,05,20,130,,50,20,200,,35,26,122,36*68
$GBGSV,6,2,21,40,22,039,31,45,23,079,32,33,35,294,31,07,24,052,27*67
$GBGSV,6,3,21,29,24,058,28,42,35,225,47,24,44,272,41,10,35,060,40*60
$GBGSV,6,4,21,14,42,259,37,56,38,066,,02,04,109,,44,04,162,*64
$GBGSV,6,5,21,11,06,244,,21,05,184,,41,05,334,30,57,02,347,*63
$GBGSV,6,6,21,60,07,111,*58
$GPGGA,110012.00,,,,,0,00,,,M,,M,,*4B
$PTNL,GGK,110012.00,010125,4742.4459516,N,01617.9729353,E,1,21,1.3,EHT669.3527,M*48
$GPGGQ,110012.00,010125,4742.4459516,N,01617.9729353,E,1,21,3.948,626.1417,M*39
$GPGFA,110012.00,14.275,28.647,1.501,1.061,21.023,3.493,,VVV*36
$GPLLK,110012.00,010125,,M,,M,1,21,1.5,,M*0F
$GNGMP,110012.00,,,,,DAAA,21,0.6,,,,*50
$GPGMP,110012.00,,,,,,04,,,,3.0,123*79
$GLGMP,110012.00,,,,,,06,,,,,*7A
$GAGMP,110012.00,,,,,,06,,,,,*77
$GBGMP,110012.00,,,,,,05,,,,,*77
$PSSN,SNC,[0,298830000,2347]*4C
$GPZDA,110017.00,01,01,2025,,*65
$GPDTM,W84,,00.0000000,N,00.0000000,E,00.0000000,W84*5F
$GPRMC,110017.00,A,4742.4459478,N,01617.9729356,E,0.0,,010125,5.1,E,D*1D
$GPGLL,4742.4459478,N,01617.9729356,E,110017.00,A,D*6C
$GPGGA,110017.00,4742.4459478,N,01617.9729356,E,2,18,0.7,626.1368,M,43.2111,M,2.0,0123*47
$GNGNS,110017.00,4742.4459478,N,01617.9729356,E,DAAA,18,0.7,626.1368,43.2111,,*59
$GPGNS,110017.00,,,,,,04,,,,2.0,123*7D
$GLGNS,110017.00,,,,,,04,,,,,*7D
$GAGNS,110017.00,,,,,,05,,,,,*71
$GBGNS,110017.00,,,,,,05,,,,,*72
$GPLLQ,110017.00,010125,,M,,M,1,18,5.295,,M*15
$GPVTG,,T,,M,0.01,N,0.01,K,D*26
$GPHDT,,T*1B
$GPTHS,,V*0E
$GPROT,,V*08
$PSSN,HRP,110017.00,010125,,,,,,,00,0,,*67
$PTNL,AVR,110017.00,,Yaw,,Tilt,,,,0,,00*31
$GPGSA,A,3,12,13,15,24,,,,,,,,,1.4,0.7,1.2*30
$GPGSA,A,3,67,68,76,77,,,,,,,,,1.4,0.7,1.2*3D
$GPGSA,A,3,02,03,07,08,30,,,,,,,,1.4,0.7,1.2*3E
$GPGSA,A,3,10,14,24,26,42,,,,,,,,1.4,0.7,1.2*33
$GPGST,110017.00,6.038,2.103,1.309,23.757,1.996,1.468,4.680*65
$GPGBS,110017.00,10.205,7.396,20.354,68,0.0001,14.903,6.331*63
$GPGRS,110017.00,1,-0.2,-0.1,-1.0,0.6,,,,,,,,*61
$GPGRS,110017.00,1,3.4,14.9,-3.5,-7.9,,,,,,,,*7B
$GPGRS,110017.00,1,0.0,-1.2,-1.3,-0.0,1.4,,,,,,,*4F
$GPGRS,110017.00,1,-4.0,-4.8,-4.1,-4.1,-3.7,,,,,,,*47
$GPGSV,4,1,15,24,66,299,46,14,17,059,28,13,31,159,41,23,17,272,34*74
$GPGSV,4,2,15,10,15,314,39,12,36,235,46,15,47,202,42,22,38,057,*7A
$GPGSV,4,3,15,17,38,065,32,19,47,109,31,02,03,021,,36,35,170,35*75
$GPGSV,4,4,15,34,31,208,,49,34,195,35,61,03,257,*47
$GLGSV,3,1,11,76,61,032,45,86,19,104,31,68,14,336,38,85,24,046,29*64
$GLGSV,3,2,11,67,50,295,37,66,42,208,28,77,54,285,41,78,01,258,33*66
$GLGSV,3,3,11,84,03,000,27,75,08,067,,65,01,180,*5F
$GAGSV,3,1,11,02,85,073,46,03,24,159,40,25,30,057,33,18,38,150,*6F
$GAGSV,3,2,11,30,38,234,45,07,41,305,44,08,66,210,44,16,07,056,*69
$GAGSV,3,3,11,12,05,020,,11,06,067,,10,07,042,*5B
$GBGSV,6,1,21,26,77,045,50,05,20,130,,50,20,200,,35,26,122,34*6B
$GBGSV,6,2,21,40,22,039,31,45,23,079,32,33,35,294,,07,24,052,26*64
$GBGSV,6,3,21,29,24,058,27,42,35,225,47,24,44,272,41,10,35,060,40*6F
$GBGSV,6,4,21,14,42,259,39,56,38,066,,02,04,109,,44,04,162,*6A
$GBGSV,6,5,21,11,06,244,,21,05,184,,41,05,334,30,57,02,347,*63
$GBGSV,6,6,21,60,07,111,*58
$GPGGA,110017.00,,,,,0,00,,,M,,M,,*4E
$PTNL,GGK,110017.00,010125,4742.4459478,N,01617.9729356,E,1,18,1.4,EHT669.3478,M*47
$GPGGQ,110017.00,010125,4742.4459478,N,01617.9729356,E,1,18,5.295,626.1368,M*38
$GPGFA,110017.00,19.997,38.376,2.103,1.309,23.757,4.680,,VVV*36
$GPLLK,110017.00,010125,,M,,M,1,18,1.7,,M*02
$GNGMP,110017.00,,,,,DAAA,18,0.7,,,,*5E
$GPGMP,110017.00,,,,,,04,,,,2.0,123*7D
$GLGMP,110017.00,,,,,,04,,,,,*7D
$GAGMP,110017.00,,,,,,05,,,,,*71
$GBGMP,110017.00,,,,,,05,,,,,*72
$PSSN,SNC,[0,298835000,2347]*49
$GPZDA,110022.00,01,01,2025,,*63
$GPDTM,W84,,00.0000000,N,00.0000000,E,00.0000000,W84*5F
$GPRMC,110022.00,A,4742.4459395,N,01617.9729351,E,0.0,,010125,5.1,E,D*18
$GPGLL,4742.4459395,N,01617.9729351,E,110022.00,A,D*69
$GPGGA,110022.00,4742.4459395,N,01617.9729351,E,2,18,0.7,626.1349,M,43.2111,M,3.0,0123*40
$GNGNS,110022.00,4742.4459395,N,01617.9729351,E,DAAA,18,0.7,626.1349,43.2111,,*5F
$GPGNS,110022.00,,,,,,04,,,,3.0,123*7A
$GLGNS,110022.00,,,,,,04,,,,,*7B
$GAGNS,110022.00,,,,,,05,,,,,*77
$GBGNS,110022.00,,,,,,05,,,,,*74
$GPLLQ,110022.00,010125,,M,,M,1,18,7.324,,M*1A
$GPVTG,,T,,M,0.01,N,0.01,K,D*26
$GPHDT,,T*1B
$GPTHS,,V*0E
$GPROT,,V*08
$PSSN,HRP,110022.00,010125,,,,,,,00,0,,*61
$PTNL,AVR,110022.00,,Yaw,,Tilt,,,,0,,00*37
$GPGSA,A,3,12,13,15,24,,,,,,,,,1.3,0.7,1.2*37
$GPGSA,A,3,66,68,76,77,,,,,,,,,1.3,0.7,1.2*3B
$GPGSA,A,3,02,03,07,08,30,,,,,,,,1.3,0.7,1.2*39
$GPGSA,A,3,07,10,24,26,42,,,,,,,,1.3,0.7,1.2*36
$GPGST,110022.00,8.804,2.854,1.887,26.239,2.692,2.111,6.476*6D
$GPGBS,110022.00,9.551,7.520,19.728,68,0.0001,19.595,6.328*53
$GPGRS,110022.00,1,-0.0,0.6,-1.7,1.0,,,,,,,,*4F
$GPGRS,110022.00,1,-12.3,19.6,-2.4,-7.8,,,,,,,,*64
$GPGRS,110022.00,1,0.2,-0.5,-1.4,0.3,1.6,,,,,,,*66
$GPGRS,110022.00,1,13.7,-4.0,-3.5,-3.9,-3.0,,,,,,,*5E
$GPGSV,4,1,15,24,67,299,45,14,17,059,26,13,31,159,41,23,17,272,34*78
$GPGSV,4,2,15,10,15,314,41,12,36,236,45,15,47,202,40,22,38,057,*77
$GPGSV,4,3,15,17,38,065,30,19,47,109,33,02,03,020,,36,35,170,35*74
$GPGSV,4,4,15,34,31,208,,49,34,195,35,61,03,257,*47
$GLGSV,3,1,11,76,61,032,46,86,19,104,29,68,14,336,38,85,24,046,29*6E
$GLGSV,3,2,11,67,50,295,35,66,42,208,36,77,54,285,42,78,01,258,33*68
$GLGSV,3,3,11,84,03,000,26,75,08,067,,65,01,180,*5E
$GAGSV,3,1,11,02,85,072,46,03,24,159,41,25,30,057,31,18,38,150,*6D
$GAGSV,3,2,11,30,38,234,45,07,41,305,45,08,66,209,44,16,07,056,*60
$GAGSV,3,3,11,12,05,020,,11,06,067,,10,07,042,*5B
$GBGSV,6,1,21,26,77,045,50,05,20,130,,50,20,200,,35,26,122,33*6C
$GBGSV,6,2,21,40,22,039,30,45,22,079,32,33,35,294,34,07,24,052,26*63
$GBGSV,6,3,21,29,24,058,28,42,35,225,47,24,44,272,40,10,35,060,40*61
$GBGSV,6,4,21,14,42,259,35,56,38,066,,02,04,109,,44,04,162,*66
$GBGSV,6,5,21,11,06,244,,21,05,184,,41,05,334,29,57,02,347,*6B
$GBGSV,6,6,21,60,07,111,*58
$GPGGA,110022.00,,,,,0,00,,,M,,M,,*48
$PTNL,GGK,110022.00,010125,4742.4459395,N,01617.9729351,E,1,18,1.3,EHT669.3460,M*4C
$GPGGQ,110022.00,010125,4742.4459395,N,01617.9729351,E,1,18,7.324,626.1349,M*37
$GPGFA,110022.00,27.131,53.099,2.854,1.887,26.239,6.476,,VVV*31
$GPLLK,110022.00,010125,,M,,M,1,18,1.6,,M*05
$GNGMP,110022.00,,,,,DAAA,18,0.7,,,,*58
$GPGMP,110022.00,,,,,,04,,,,3.0,123*7A
$GLGMP,110022.00,,,,,,04,,,,,*7B
$GAGMP,110022.00,,,,,,05,,,,,*77
$GBGMP,110022.00,,,,,,05,,,,,*74
$PSSN,SNC,[0,298840000,2347]*4B
$GPZDA,110027.00,01,01,2025,,*66
$GPDTM,W84,,00.0000000,N,00.0000000,E,00.0000000,W84*5F
$GPRMC,110027.00,A,4742.4459339,N,01617.9729319,E,0.0,,010125,5.1,E,D*17
$GPGLL,4742.4459339,N,01617.9729319,E,110027.00,A,D*66
$GPGGA,110027.00,4742.4459339,N,01617.9729319,E,2,18,0.7,626.1408,M,43.2111,M,2.0,0123*4C
$GNGNS,110027.00,4742.4459339,N,01617.9729319,E,DAAA,18,0.7,626.1408,43.2111,,*52
$GPGNS,110027.00,,,,,,04,,,,2.0,123*7E
$GLGNS,110027.00,,,,,,04,,,,,*7E
$GAGNS,110027.00,,,,,,05,,,,,*72
$GBGNS,110027.00,,,,,,05,,,,,*71
$GPLLQ,110027.00,010125,,M,,M,1,18,7.381,,M*10
$GPVTG,,T,,M,0.01,N,0.01,K,D*26
$GPHDT,,T*1B
$GPTHS,,V*0E
$GPROT,,V*08
$PSSN,HRP,110027.00,010125,,,,,,,00,0,,*64
$PTNL,AVR,110027.00,,Yaw,,Tilt,,,,0,,00*32
$GPGSA,A,3,12,13,15,24,,,,,,,,,1.4,0.7,1.2*30
$GPGSA,A,3,66,68,76,77,,,,,,,,,1.4,0.7,1.2*3C
$GPGSA,A,3,02,03,07,08,30,,,,,,,,1.4,0.7,1.2*3E
$GPGSA,A,3,10,24,26,33,42,,,,,,,,1.4,0.7,1.2*36
$GPGST,110027.00,8.859,2.912,1.874,25.322,2.751,2.102,6.518*62
$GPGBS,110027.00,9.584,7.253,19.367,68,0.0001,20.273,6.325*5A
$GPGRS,110027.00,1,0.3,1.7,-1.3,0.5,,,,,,,,*64
$GPGRS,110027.00,1,-7.6,20.3,-1.0,-7.6,,,,,,,,*56
$GPGRS,110027.00,1,0.1,-0.6,-1.3,0.4,2.2,,,,,,,*64
$GPGRS,110027.00,1,-2.9,-2.5,-3.4,-17.0,-2.7,,,,,,,*70
$GPGSV,4,1,15,24,67,299,45,14,17,059,23,13,31,159,42,23,17,272,33*79
$GPGSV,4,2,15,10,15,314,41,12,36,236,45,15,47,202,39,22,38,057,*79
$GPGSV,4,3,15,17,38,065,30,19,47,109,,02,03,020,,36,35,170,35*74
$GPGSV,4,4,15,34,31,208,,49,34,195,35,61,03,257,*47
$GLGSV,3,1,11,76,61,032,46,86,19,104,27,68,14,336,40,85,24,046,33*64
$GLGSV,3,2,11,67,50,294,35,66,42,208,37,77,54,285,41,78,01,258,32*6A
$GLGSV,3,3,11,84,03,000,27,75,08,067,,65,01,180,*5F
$GAGSV,3,1,11,02,85,072,47,03,24,159,42,25,30,057,28,18,38,150,*67
$GAGSV,3,2,11,30,39,234,45,07,41,305,45,08,66,209,44,16,07,056,*61
$GAGSV,3,3,11,12,05,020,,11,06,067,,10,07,042,*5B
$GBGSV,6,1,21,26,77,045,50,05,20,130,,50,20,200,,35,26,122,31*6E
$GBGSV,6,2,21,40,22,039,30,45,22,079,30,33,35,294,36,07,24,052,25*60
$GBGSV,6,3,21,29,24,058,26,42,35,225,47,24,44,272,41,10,35,060,40*6E
$GBGSV,6,4,21,14,42,259,34,56,38,066,,02,04,109,,44,04,162,*67
$GBGSV,6,5,21,11,06,244,,21,05,184,,41,05,334,26,57,02,347,*64
$GBGSV,6,6,21,60,07,111,*58
$GPGGA,110027.00,,,,,0,00,,,M,,M,,*4D
$PTNL,GGK,110027.00,010125,4742.4459339,N,01617.9729319,E,1,18,1.4,EHT669.3519,M*4B
$GPGGQ,110027.00,010125,4742.4459339,N,01617.9729319,E,1,18,7.381,626.1408,M*35
$GPGFA,110027.00,27.685,53.448,2.912,1.874,25.322,6.518,,VVV*3A
$GPLLK,110027.00,010125,,M,,M,1,18,1.7,,M*01
$GNGMP,110027.00,,,,,DAAA,18,0.7,,,,*5D
$GPGMP,110027.00,,,,,,04,,,,2.0,123*7E
$GLGMP,110027.00,,,,,,04,,,,,*7E
$GAGMP,110027.00,,,,,,05,,,,,*72
$GBGMP,110027.00,,,,,,05,,,,,*71
$PSSN,SNC,[0,298845000,2347]*4E
$GPZDA,110032.00,01,01,2025,,*62
$GPDTM,W84,,00.0000000,N,00.0000000,E,00.0000000,W84*5F
$GPRMC,110032.00,A,4742.4459333,N,01617.9729308,E,0.0,,010125,5.1,E,D*19
$GPGLL,4742.4459333,N,01617.9729308,E,110032.00,A,D*68
$GPGGA,110032.00,4742.4459333,N,01617.9729308,E,2,19,0.7,626.1574,M,43.2111,M,3.0,0123*48
$GNGNS,110032.00,4742.4459333,N,01617.9729308,E,DAAA,19,0.7,626.1574,43.2111,,*57
$GPGNS,110032.00,,,,,,04,,,,3.0,123*7B
$GLGNS,110032.00,,,,,,05,,,,,*7B
$GAGNS,110032.00,,,,,,05,,,,,*76
$GBGNS,110032.00,,,,,,05,,,,,*75
$GPLLQ,110032.00,010125,,M,,M,1,19,7.038,,M*14
$GPVTG,,T,,M,0.01,N,0.02,K,D*25
$GPHDT,,T*1B
$GPTHS,,V*0E
$GPROT,,V*08
$PSSN,HRP,110032.00,010125,,,,,,,00,0,,*60
$PTNL,AVR,110032.00,,Yaw,,Tilt,,,,0,,00*36
$GPGSA,A,3,12,13,15,24,,,,,,,,,1.3,0.7,1.1*34
$GPGSA,A,3,66,68,76,77,85,,,,,,,,1.3,0.7,1.1*35
$GPGSA,A,3,02,03,07,08,30,,,,,,,,1.3,0.7,1.1*3A
$GPGSA,A,3,10,24,26,33,42,,,,,,,,1.3,0.7,1.1*32
$GPGST,110032.00,8.712,2.798,1.754,22.072,2.675,1.936,6.215*67
$GPGBS,110032.00,8.995,6.869,18.467,68,0.0001,21.042,6.325*56
$GPGRS,110032.00,1,0.3,0.6,-0.6,-0.4,,,,,,,,*48
$GPGRS,110032.00,1,-7.2,21.0,-1.4,-8.1,13.7,,,,,,,*43
$GPGRS,110032.00,1,-0.1,-0.9,-1.2,0.5,2.3,,,,,,,*43
$GPGRS,110032.00,1,-3.1,-3.0,-3.0,11.0,-2.4,,,,,,,*55
$GPGSV,4,1,15,24,67,299,44,14,17,059,21,13,31,159,41,23,17,271,33*7A
$GPGSV,4,2,15,10,15,314,41,12,36,236,44,15,47,202,38,22,38,057,*79
$GPGSV,4,3,15,17,38,065,29,19,47,109,,02,03,020,,36,35,170,36*7F
$GPGSV,4,4,15,34,31,208,,49,34,195,35,61,03,257,*47
$GLGSV,3,1,11,76,61,033,45,86,19,104,18,68,14,336,40,85,24,046,37*6E
$GLGSV,3,2,11,67,50,294,36,66,42,208,37,77,54,285,41,78,02,258,33*6B
$GLGSV,3,3,11,84,03,000,29,75,08,067,,65,01,180,*51
$GAGSV,3,1,11,02,85,072,47,03,24,160,42,25,30,057,23,18,38,150,*66
$GAGSV,3,2,11,30,39,234,45,07,41,305,45,08,66,209,43,16,07,056,*66
$GAGSV,3,3,11,12,05,020,,11,06,067,,10,07,042,*5B
$GBGSV,6,1,21,26,77,045,50,05,20,130,,50,20,200,,35,26,122,35*6A
$GBGSV,6,2,21,40,22,039,29,45,22,079,30,33,35,293,35,07,24,052,33*6B
$GBGSV,6,3,21,29,24,058,27,42,35,225,47,24,44,272,42,10,35,060,40*6C
$GBGSV,6,4,21,14,42,259,33,56,38,066,,02,04,109,,44,05,162,*61
$GBGSV,6,5,21,11,06,244,,21,05,184,,41,05,334,25,57,02,347,*67
$GBGSV,6,6,21,60,07,111,*58
$GPGGA,110032.00,,,,,0,00,,,M,,M,,*49
$PTNL,GGK,110032.00,010125,4742.4459333,N,01617.9729308,E,1,19,1.3,EHT669.3684,M*44
$GPGGQ,110032.00,010125,4742.4459333,N,01617.9729308,E,1,19,7.038,626.1574,M*31
$GPGFA,110032.00,26.598,50.963,2.798,1.754,22.072,6.215,,VVV*3D
$GPLLK,110032.00,010125,,M,,M,1,19,1.5,,M*06
$GNGMP,110032.00,,,,,DAAA,19,0.7,,,,*58
$GPGMP,110032.00,,,,,,04,,,,3.0,123*7B
$GLGMP,110032.00,,,,,,05,,,,,*7B
$GAGMP,110032.00,,,,,,05,,,,,*76
$GBGMP,110032.00,,,,,,05,,,,,*75
$PSSN,SNC,[0,298850000,2347]*4A
$GPZDA,110037.00,01,01,2025,,*67
$GPDTM,W84,,00.0000000,N,00.0000000,E,00.0000000,W84*5F
$GPRMC,110037.00,A,4742.4459297,N,01617.9729294,E,0.0,,010125,5.1,E,D*17
$GPGLL,4742.4459297,N,01617.9729294,E,110037.00,A,D*66
$GPGGA,110037.00,4742.4459297,N,01617.9729294,E,2,18,0.7,626.1710,M,43.2111,M,2.0,0123*46
$GNGNS,110037.00,4742.4459297,N,01617.9729294,E,DAAA,18,0.7,626.1710,43.2111,,*58
$GPGNS,110037.00,,,,,,04,,,,2.0,123*7F
$GLGNS,110037.00,,,,,,05,,,,,*7E
$GAGNS,110037.00,,,,,,05,,,,,*73
$GBGNS,110037.00,,,,,,04,,,,,*71
$GPLLQ,110037.00,010125,,M,,M,1,18,7.341,,M*1D
$GPVTG,,T,,M,0.01,N,0.01,K,D*26
$GPHDT,,T*1B
$GPTHS,,V*0E
$GPROT,,V*08
$PSSN,HRP,110037.00,010125,,,,,,,00,0,,*65
$PTNL,AVR,110037.00,,Yaw,,Tilt,,,,0,,00*33
$GPGSA,A,3,12,13,15,24,,,,,,,,,1.4,0.7,1.2*30
$GPGSA,A,3,66,68,76,77,85,,,,,,,,1.4,0.7,1.2*31
$GPGSA,A,3,02,03,07,08,30,,,,,,,,1.4,0.7,1.2*3E
$GPGSA,A,3,10,24,26,42,,,,,,,,,1.4,0.7,1.2*36
$GPGST,110037.00,9.398,2.841,1.918,23.104,2.719,2.087,6.492*6B
$GPGBS,110037.00,8.915,6.968,18.237,68,0.0001,22.710,6.324*5A
$GPGRS,110037.00,1,0.3,0.2,-1.0,-0.0,,,,,,,,*4A
$GPGRS,110037.00,1,-4.5,22.7,-2.3,-7.8,18.2,,,,,,,*4A
$GPGRS,110037.00,1,0.0,-0.7,-0.9,1.3,1.9,,,,,,,*60
$GPGRS,110037.00,1,-3.2,-2.8,-2.9,-2.0,,,,,,,,*48
$GPGSV,4,1,15,24,67,299,43,14,16,059,25,13,30,159,40,23,17,271,*78
$GPGSV,4,2,15,10,15,314,40,12,36,236,45,15,47,202,35,22,38,057,*74
$GPGSV,4,3,15,17,38,065,35,19,47,109,,02,03,020,,36,35,170,35*71
$GPGSV,4,4,15,34,31,208,,49,34,195,35,61,03,257,*47
$GLGSV,3,1,11,76,61,033,43,86,19,104,24,68,14,336,39,85,24,046,39*67
$GLGSV,3,2,11,67,50,294,35,66,41,208,41,77,54,285,42,78,02,259,34*6F
$GLGSV,3,3,11,84,03,359,27,75,08,067,,65,01,180,*50
$GAGSV,3,1,11,02,85,072,47,03,24,160,42,25,30,057,20,18,38,150,*65
$GAGSV,3,2,11,30,39,234,44,07,41,305,45,08,66,209,43,16,07,056,*67
$GAGSV,3,3,11,12,05,020,,11,06,067,,10,07,042,*5B
$GBGSV,6,1,21,26,77,045,50,05,20,130,,50,20,200,,35,26,122,23*6D
$GBGSV,6,2,21,40,22,039,20,45,22,079,30,33,35,293,34,07,24,052,32*62
$GBGSV,6,3,21,29,24,058,30,42,35,225,47,24,44,272,44,10,35,060,39*62
$GBGSV,6,4,21,14,42,259,34,56,38,066,,02,04,109,,44,05,162,*66
$GBGSV,6,5,21,11,06,244,,21,05,184,,41,05,334,23,57,02,347,*61
$GBGSV,6,6,21,60,07,111,*58
$GPGGA,110037.00,,,,,0,00,,,M,,M,,*4C
$PTNL,GGK,110037.00,010125,4742.4459297,N,01617.9729294,E,1,18,1.4,EHT669.3821,M*4D
$GPGGQ,110037.00,010125,4742.4459297,N,01617.9729294,E,1,18,7.341,626.1710,M*33
$GPGFA,110037.00,27.013,53.231,2.841,1.918,23.104,6.492,,VVV*35
$GPLLK,110037.00,010125,,M,,M,1,18,1.6,,M*01
$GNGMP,110037.00,,,,,DAAA,18,0.7,,,,*5C
$GPGMP,110037.00,,,,,,04,,,,2.0,123*7F
$GLGMP,110037.00,,,,,,05,,,,,*7E
$GAGMP,110037.00,,,,,,05,,,,,*73
$GBGMP,110037.00,,,,,,04,,,,,*71
$PSSN,SNC,[0,298855000,2347]*4F
$GPZDA,110042.00,01,01,2025,,*65
$GPDTM,W84,,00.0000000,N,00.0000000,E,00.0000000,W84*5F
$GPRMC,110042.00,A,4742.4459247,N,01617.9729323,E,0.0,,010125,5.1,E,D*15
$GPGLL,4742.4459247,N,01617.9729323,E,110042.00,A,D*64
$GPGGA,110042.00,4742.4459247,N,01617.9729323,E,2,19,0.7,626.1764,M,43.2111,M,3.3,0123*44
$GNGNS,110042.00,4742.4459247,N,01617.9729323,E,DAAA,19,0.7,626.1764,43.2111,,*58
$GPGNS,110042.00,,,,,,03,,,,3.3,123*78
$GLGNS,110042.00,,,,,,04,,,,,*7D
$GAGNS,110042.00,,,,,,06,,,,,*72
$GBGNS,110042.00,,,,,,06,,,,,*71
$GPLLQ,110042.00,010125,,M,,M,1,19,8.010,,M*16
$GPVTG,,T,,M,0.01,N,0.02,K,D*25
$GPHDT,,T*1B
$GPTHS,,V*0E
$GPROT,,V*08
$PSSN,HRP,110042.00,010125,,,,,,,00,0,,*67
$PTNL,AVR,110042.00,,Yaw,,Tilt,,,,0,,00*31
$GPGSA,A,3,12,13,24,,,,,,,,,,1.4,0.7,1.2*34
$GPGSA,A,3,66,68,76,77,,,,,,,,,1.4,0.7,1.2*3C
$GPGSA,A,3,02,03,07,08,25,30,,,,,,,1.4,0.7,1.2*39
$GPGSA,A,3,10,14,24,26,33,42,,,,,,,1.4,0.7,1.2*33
$GPGST,110042.00,7.965,3.313,1.660,12.105,3.258,1.766,7.101*65
$GPGBS,110042.00,15.359,6.943,33.500,68,0.0001,24.124,6.329*6F
$GPGRS,110042.00,1,0.2,-0.1,0.1,,,,,,,,,*49
$GPGRS,110042.00,1,-1.2,24.1,-2.9,-7.0,,,,,,,,*5D
$GPGRS,110042.00,1,-0.1,-1.1,-0.9,1.3,-1.0,0.6,,,,,,*45
$GPGRS,110042.00,1,-3.3,-1.9,-2.2,-3.0,9.0,-2.5,,,,,,*60
$GPGSV,4,1,15,24,67,299,39,14,16,059,25,13,30,159,38,23,17,271,*7A
$GPGSV,4,2,15,10,15,314,38,12,36,236,45,15,47,202,35,22,37,057,*74
$GPGSV,4,3,15,17,38,065,28,19,47,109,,02,03,020,,36,35,170,35*7D
$GPGSV,4,4,15,34,31,208,,49,34,195,35,61,03,257,*47
$GLGSV,3,1,11,76,61,033,41,86,19,104,30,68,14,336,36,85,24,046,39*6F
$GLGSV,3,2,11,67,51,294,,66,41,208,42,77,54,285,42,78,02,259,32*6D
$GLGSV,3,3,11,84,03,359,27,75,08,067,,65,01,180,*50
$GAGSV,3,1,11,02,85,072,47,03,24,160,42,25,30,057,42,18,39,150,*60
$GAGSV,3,2,11,30,39,234,42,07,41,305,45,08,66,209,44,16,07,056,*66
$GAGSV,3,3,11,12,05,020,,11,06,067,,10,07,042,*5B
$GBGSV,6,1,21,26,77,045,50,05,20,130,,50,20,200,,35,26,122,22*6C
$GBGSV,6,2,21,40,22,039,29,45,22,079,28,33,35,293,37,07,24,052,24*66
$GBGSV,6,3,21,29,24,058,30,42,35,225,47,24,44,272,45,10,35,060,39*63
$GBGSV,6,4,21,14,42,259,36,56,38,066,,02,04,109,,44,05,162,*64
$GBGSV,6,5,21,11,06,244,,21,05,184,,41,05,334,26,57,02,347,*64
$GBGSV,6,6,21,60,07,111,*58
$GPGGA,110042.00,,,,,0,00,,,M,,M,,*4E
$PTNL,GGK,110042.00,010125,4742.4459247,N,01617.9729323,E,1,19,1.4,EHT669.3874,M*4E
$GPGGQ,110042.00,010125,4742.4459247,N,01617.9729323,E,1,19,8.010,626.1764,M*3B
$GPGFA,110042.00,31.501,58.225,3.313,1.660,12.105,7.101,,VVV*38
$GPLLK,110042.00,010125,,M,,M,1,19,1.6,,M*02
$GNGMP,110042.00,,,,,DAAA,19,0.7,,,,*5F
$GPGMP,110042.00,,,,,,03,,,,3.3,123*78
$GLGMP,110042.00,,,,,,04,,,,,*7D
$GAGMP,110042.00,,,,,,06,,,,,*72
$GBGMP,110042.00,,,,,,06,,,,,*71
$PSSN,SNC,[0,298860000,2347]*49
$GPZDA,110047.00,01,01,2025,,*60
$GPDTM,W84,,00.0000000,N,00.0000000,E,00.0000000,W84*5F
$GPRMC,110047.00,A,4742.4459118,N,01617.9729385,E,0.0,,010125,5.1,E,D*15
$GPGLL,4742.4459118,N,01617.9729385,E,110047.00,A,D*64
$GPGGA,110047.00,4742.4459118,N,01617.9729385,E,2,20,0.7,626.1969,M,43.2111,M,1.8,0123*44
$GNGNS,110047.00,4742.4459118,N,01617.9729385,E,DAAA,20,0.7,626.1969,43.2111,,*51
$GPGNS,110047.00,,,,,,05,,,,1.8,123*72
$GLGNS,110047.00,,,,,,03,,,,,*7F
$GAGNS,110047.00,,,,,,06,,,,,*77
$GBGNS,110047.00,,,,,,06,,,,,*74
$GPLLQ,110047.00,010125,,M,,M,1,20,2.403,,M*15
$GPVTG,,T,,M,0.01,N,0.01,K,D*26
$GPHDT,,T*1B
$GPTHS,,V*0E
$GPROT,,V*08
$PSSN,HRP,110047.00,010125,,,,,,,00,0,,*62
$PTNL,AVR,110047.00,,Yaw,,Tilt,,,,0,,00*34
$GPGSA,A,3,10,12,13,15,24,,,,,,,,1.4,0.7,1.2*31
$GPGSA,A,3,66,76,77,,,,,,,,,,1.4,0.7,1.2*32
$GPGSA,A,3,02,03,07,08,25,30,,,,,,,1.4,0.7,1.2*39
$GPGSA,A,3,10,14,24,26,33,42,,,,,,,1.4,0.7,1.2*33
$GPGST,110047.00,3.948,1.427,0.710,66.282,0.867,1.337,1.798*64
$GPGBS,110047.00,3.579,6.671,8.963,10,0.0001,2.351,1.049*5F
$GPGRS,110047.00,1,2.4,-0.1,-1.1,-0.5,0.3,,,,,,,*4F
$GPGRS,110047.00,1,-2.4,-4.0,-4.5,,,,,,,,,*4D
$GPGRS,110047.00,1,-0.3,-1.2,-0.9,1.0,-1.2,0.4,,,,,,*42
$GPGRS,110047.00,1,-4.0,4.0,-1.4,-3.1,9.8,-2.9,,,,,,*40
$GPGSV,4,1,15,24,67,299,36,14,16,059,28,13,30,159,35,23,17,271,26*71
$GPGSV,4,2,15,10,15,313,36,12,36,236,45,15,47,202,38,22,37,057,*70
$GPGSV,4,3,15,17,38,064,39,19,47,109,34,02,03,020,,36,35,170,36*78
$GPGSV,4,4,15,34,31,208,,49,34,195,36,61,03,257,*44
$GLGSV,3,1,11,76,61,033,43,86,19,104,25,68,14,336,31,85,24,046,37*60
$GLGSV,3,2,11,67,51,294,32,66,41,208,41,77,54,285,40,78,02,259,31*6E
$GLGSV,3,3,11,84,03,359,29,75,08,067,,65,01,180,*5E
$GAGSV,3,1,11,02,85,071,46,03,24,160,41,25,30,057,42,18,39,150,*61
$GAGSV,3,2,11,30,39,234,41,07,41,305,45,08,66,209,43,16,07,056,*62
$GAGSV,3,3,11,12,05,019,,11,06,067,,10,07,042,*51
$GBGSV,6,1,21,26,77,045,50,05,20,130,,50,20,200,,35,26,122,27*69
$GBGSV,6,2,21,40,22,039,28,45,22,079,26,33,35,293,39,07,24,052,23*60
$GBGSV,6,3,21,29,24,058,30,42,35,225,47,24,44,272,45,10,35,060,39*63
$GBGSV,6,4,21,14,42,259,38,56,39,066,,02,04,109,,44,05,162,*6B
$GBGSV,6,5,21,11,06,244,,21,05,184,,41,06,334,28,57,02,347,*69
$GBGSV,6,6,21,60,07,111,*58
$GPGGA,110047.00,,,,,0,00,,,M,,M,,*4B
$PTNL,GGK,110047.00,010125,4742.4459118,N,01617.9729385,E,1,20,1.4,EHT669.4080,M*40
$GPGGQ,110047.00,010125,4742.4459118,N,01617.9729385,E,1,20,2.403,626.1969,M*3E
$GPGFA,110047.00,13.568,14.743,1.427,0.710,66.282,1.798,,VVV*35
$GPLLK,110047.00,010125,,M,,M,1,20,1.6,,M*0D
$GNGMP,110047.00,,,,,DAAA,20,0.7,,,,*50
$GPGMP,110047.00,,,,,,05,,,,1.8,123*72
$GLGMP,110047.00,,,,,,03,,,,,*7F
$GAGMP,110047.00,,,,,,06,,,,,*77
$GBGMP,110047.00,,,,,,06,,,,,*74
$PSSN,SNC,[0,298865000,2347]*4C
$GPZDA,110052.00,01,01,2025,,*64
$GPDTM,W84,,00.0000000,N,00.0000000,E,00.0000000,W84*5F
$GPRMC,110052.00,A,4742.4459035,N,01617.9729239,E,0.0,,010125,5.1,E,D*19
$GPGLL,4742.4459035,N,01617.9729239,E,110052.00,A,D*68
$GPGGA,110052.00,4742.4459035,N,01617.9729239,E,2,19,0.7,626.2014,M,43.2111,M,3.5,0123*4D
$GNGNS,110052.00,4742.4459035,N,01617.9729239,E,DAAA,19,0.7,626.2014,43.2111,,*57
$GPGNS,110052.00,,,,,,04,,,,3.5,123*78
$GLGNS,110052.00,,,,,,03,,,,,*7B
$GAGNS,110052.00,,,,,,06,,,,,*73
$GBGNS,110052.00,,,,,,06,,,,,*70
$GPLLQ,110052.00,010125,,M,,M,1,19,11.680,,M*20
$GPVTG,,T,,M,0.01,N,0.02,K,D*25
$GPHDT,,T*1B
$GPTHS,,V*0E
$GPROT,,V*08
$PSSN,HRP,110052.00,010125,,,,,,,00,0,,*66
$PTNL,AVR,110052.00,,Yaw,,Tilt,,,,0,,00*30
$GPGSA,A,3,12,15,17,19,,,,,,,,,1.7,0.7,1.5*3E
$GPGSA,A,3,66,76,77,,,,,,,,,,1.7,0.7,1.5*36
$GPGSA,A,3,02,03,07,08,25,30,,,,,,,1.7,0.7,1.5*3D
$GPGSA,A,3,10,14,24,26,33,42,,,,,,,1.7,0.7,1.5*37
$GPGST,110052.00,5.485,3.590,0.904,329.714,3.133,1.972,11.078*64
$GPGBS,110052.00,7.756,5.030,29.351,19,0.0001,2.645,0.778*65
$GPGRS,110052.00,1,-1.2,-0.3,-1.8,2.6,,,,,,,,*69
$GPGRS,110052.00,1,-6.7,-4.0,-6.1,,,,,,,,,*48
$GPGRS,110052.00,1,-1.2,-2.4,-1.7,-0.1,-1.9,-0.1,,,,,,*42
$GPGRS,110052.00,1,-4.6,10.9,-1.5,-4.3,7.8,-4.0,,,,,,*7B
$GPGSV,4,1,15,24,67,299,33,14,16,059,30,13,30,159,33,23,17,271,*7F
$GPGSV,4,2,15,10,15,313,34,12,36,236,45,15,46,202,40,22,37,057,*7C
$GPGSV,4,3,15,17,38,064,41,19,47,109,38,02,03,020,,36,35,170,36*7B
$GPGSV,4,4,15,34,31,208,,49,34,195,36,61,03,257,*44
$GLGSV,3,1,11,76,61,033,46,86,19,104,26,68,14,336,29,85,24,046,36*6E
$GLGSV,3,2,11,67,51,294,31,66,41,208,40,77,54,286,36,78,02,259,30*6F
$GLGSV,3,3,11,84,03,359,29,75,08,067,20,65,01,180,*5C
$GAGSV,3,1,11,02,85,071,46,03,24,160,41,25,30,057,41,18,39,150,*62
$GAGSV,3,2,11,30,39,234,40,07,41,305,45,08,66,209,42,16,07,056,*62
$GAGSV,3,3,11,12,05,019,,11,06,067,,10,07,042,*51
$GBGSV,6,1,21,26,77,045,51,05,20,130,,50,20,200,,35,26,122,27*68
$GBGSV,6,2,21,40,22,039,29,45,22,079,24,33,35,293,41,07,24,052,23*6C
$GBGSV,6,3,21,29,24,058,29,42,35,225,46,24,44,272,46,10,35,060,39*69
$GBGSV,6,4,21,14,42,259,37,56,39,066,,02,04,109,,44,05,162,*64
$GBGSV,6,5,21,11,06,244,,21,05,184,,41,06,334,29,57,02,347,*68
$GBGSV,6,6,21,60,07,111,*58
$GPGGA,110052.00,,,,,0,00,,,M,,M,,*4F
$PTNL,GGK,110052.00,010125,4742.4459035,N,01617.9729239,E,1,19,1.7,EHT669.4125,M*4B
$GPGGQ,110052.00,010125,4742.4459035,N,01617.9729239,E,1,19,11.680,626.2014,M*03
$GPGFA,110052.00,34.130,90.837,3.590,0.904,329.714,11.078,,VVV*33
$GPLLK,110052.00,010125,,M,,M,1,19,2.0,,M*06
$GNGMP,110052.00,,,,,DAAA,19,0.7,,,,*5E
$GPGMP,110052.00,,,,,,04,,,,3.5,123*78
$GLGMP,110052.00,,,,,,03,,,,,*7B
$GAGMP,110052.00,,,,,,06,,,,,*73
$GBGMP,110052.00,,,,,,06,,,,,*70
$PSSN,SNC,[0,298870000,2347]*48
$GPZDA,110057.00,01,01,2025,,*61
$GPDTM,W84,,00.0000000,N,00.0000000,E,00.0000000,W84*5F
$GPRMC,110057.00,A,4742.4459138,N,01617.9729287,E,0.0,,010125,5.1,E,D*15
$GPGLL,4742.4459138,N,01617.9729287,E,110057.00,A,D*64
$GPGGA,110057.00,4742.4459138,N,01617.9729287,E,2,19,0.7,626.1887,M,43.2111,M,1.5,0123*42
$GNGNS,110057.00,4742.4459138,N,01617.9729287,E,DAAA,19,0.7,626.1887,43.2111,,*5A
$GPGNS,110057.00,,,,,,04,,,,1.5,123*7F
$GLGNS,110057.00,,,,,,03,,,,,*7E
$GAGNS,110057.00,,,,,,06,,,,,*76
$GBGNS,110057.00,,,,,,06,,,,,*75
$GPLLQ,110057.00,010125,,M,,M,1,19,13.795,,M*22
$GPVTG,,T,,M,0.00,N,0.01,K,D*27
$GPHDT,,T*1B
$GPTHS,,V*0E
$GPROT,,V*08
$PSSN,HRP,110057.00,010125,,,,,,,00,0,,*63
$PTNL,AVR,110057.00,,Yaw,,Tilt,,,,0,,00*35
$GPGSA,A,3,12,15,17,19,,,,,,,,,1.6,0.7,1.4*3E
$GPGSA,A,3,66,76,85,,,,,,,,,,1.6,0.7,1.4*3B
$GPGSA,A,3,02,03,07,08,25,30,,,,,,,1.6,0.7,1.4*3D
$GPGSA,A,3,10,14,24,26,33,42,,,,,,,1.6,0.7,1.4*37
$GPGST,110057.00,8.519,4.301,1.056,329.739,3.752,2.351,13.065*66
$GPGBS,110057.00,7.725,5.154,28.255,85,0.0001,21.711,6.303*59
$GPGRS,110057.00,1,-0.5,1.3,-2.7,2.0,,,,,,,,*4C
$GPGRS,110057.00,1,-4.0,-2.4,21.7,,,,,,,,,*54
$GPGRS,110057.00,1,-0.7,-2.4,-1.1,-0.3,-1.2,1.0,,,,,,*61
$GPGRS,110057.00,1,-4.6,17.3,-0.4,-3.9,1.3,-4.2,,,,,,*71
$GPGSV,4,1,15,24,67,299,33,14,16,059,30,13,30,159,33,23,17,271,*7F
$GPGSV,4,2,15,10,15,313,30,12,36,236,44,15,46,202,40,22,37,057,*79
$GPGSV,4,3,15,17,38,064,41,19,47,109,41,02,03,020,,36,35,170,36*75
$GPGSV,4,4,15,34,31,208,,49,34,195,36,61,03,257,*44
$GLGSV,3,1,11,76,61,033,49,86,19,104,31,68,14,336,32,85,24,046,37*6C
$GLGSV,3,2,11,67,51,294,24,66,41,208,44,77,54,286,30,78,02,259,28*60
$GLGSV,3,3,11,84,03,359,28,75,08,067,,65,01,180,*5F
$GAGSV,3,1,11,02,85,071,46,03,23,160,41,25,30,057,40,18,39,150,*64
$GAGSV,3,2,11,30,39,234,39,07,41,305,45,08,66,209,42,16,07,056,*6C
$GAGSV,3,3,11,12,05,019,,11,06,067,,10,07,042,*51
$GBGSV,6,1,21,26,77,045,51,05,20,130,,50,20,200,,35,26,122,25*6A
$GBGSV,6,2,21,40,22,039,29,45,22,079,24,33,35,293,42,07,24,052,22*6E
$GBGSV,6,3,21,29,24,058,28,42,35,225,44,24,44,272,46,10,35,060,38*6B
$GBGSV,6,4,21,14,42,259,37,56,39,066,,02,04,109,,44,05,162,*64
$GBGSV,6,5,21,11,06,244,,21,05,184,,41,06,334,29,57,02,347,*68
$GBGSV,6,6,21,60,07,111,*58
$GPGGA,110057.00,,,,,0,00,,,M,,M,,*4A
$PTNL,GGK,110057.00,010125,4742.4459138,N,01617.9729287,E,1,19,1.6,EHT669.3997,M*40
$GPGGQ,110057.00,010125,4742.4459138,N,01617.9729287,E,1,19,13.795,626.1887,M*09
$GPGFA,110057.00,40.888,107.134,4.301,1.056,329.739,13.065,,VVV*0D
$GPLLK,110057.00,010125,,M,,M,1,19,1.9,,M*09
$GNGMP,110057.00,,,,,DAAA,19,0.7,,,,*5B
$GPGMP,110057.00,,,,,,04,,,,1.5,123*7F
$GLGMP,110057.00,,,,,,03,,,,,*7E
$GAGMP,110057.00,,,,,,06,,,,,*76
$GBGMP,110057.00,,,,,,06,,,,,*75
$PSSN,SNC,[0,298875000,2347]*4D
$GPZDA,110102.00,01,01,2025,,*60
$GPDTM,W84,,00.0000000,N,00.0000000,E,00.0000000,W84*5F
$GPRMC,110102.00,A,4742.4459202,N,01617.9729365,E,0.0,,010125,5.1,E,D*13
$GPGLL,4742.4459202,N,01617.9729365,E,110102.00,A,D*62
$GPGGA,110102.00,4742.4459202,N,01617.9729365,E,2,21,0.7,626.1705,M,43.2111,M,2.8,0123*44
$GNGNS,110102.00,4742.4459202,N,01617.9729365,E,DAAA,21,0.7,626.1705,43.2111,,*52
$GPGNS,110102.00,,,,,,05,,,,2.8,123*71
$GLGNS,110102.00,,,,,,03,,,,,*7F
$GAGNS,110102.00,,,,,,06,,,,,*77
$GBGNS,110102.00,,,,,,07,,,,,*75
$GPLLQ,110102.00,010125,,M,,M,1,21,5.454,,M*11
$GPVTG,,T,,M,0.01,N,0.01,K,D*26
$GPHDT,,T*1B
$GPTHS,,V*0E
$GPROT,,V*08
$PSSN,HRP,110102.00,010125,,,,,,,00,0,,*62
$PTNL,AVR,110102.00,,Yaw,,Tilt,,,,0,,00*34
$GPGSA,A,3,12,13,17,19,24,,,,,,,,1.4,0.7,1.3*3B
$GPGSA,A,3,66,76,85,,,,,,,,,,1.4,0.7,1.3*3E
$GPGSA,A,3,02,03,07,08,25,30,,,,,,,1.4,0.7,1.3*38
$GPGSA,A,3,10,14,24,26,29,33,42,,,,,,1.4,0.7,1.3*39
$GPGST,110102.00,8.569,1.957,0.983,341.947,1.886,1.114,4.995*51
$GPGBS,110102.00,6.565,3.844,13.895,85,0.0001,21.900,6.310*53
$GPGRS,110102.00,1,-1.0,-0.9,-1.5,0.9,0.7,,,,,,,*4C
$GPGRS,110102.00,1,-1.9,-1.7,21.9,,,,,,,,,*57
$GPGRS,110102.00,1,-0.4,-2.7,-1.3,0.1,-1.2,0.5,,,,,,*49
$GPGRS,110102.00,1,-5.2,19.8,-0.3,-4.1,4.0,-6.7,-5.2,,,,,*7D
$GPGSV,4,1,15,24,67,299,38,14,16,059,29,13,30,159,35,23,17,271,28*70
$GPGSV,4,2,15,10,15,313,29,12,36,236,44,15,46,202,40,22,37,057,*71
$GPGSV,4,3,15,17,38,064,41,19,47,109,42,02,03,020,,36,35,170,35*75
$GPGSV,4,4,15,34,31,208,,49,34,195,36,61,03,257,*44
$GLGSV,3,1,11,76,61,033,49,86,19,104,30,68,14,336,37,85,24,045,35*69
$GLGSV,3,2,11,67,51,294,35,66,41,208,46,77,54,286,20,78,02,259,29*62
$GLGSV,3,3,11,84,03,359,27,75,08,067,,65,01,180,*50
$GAGSV,3,1,11,02,85,071,46,03,23,160,40,25,30,057,40,18,39,150,*65
$GAGSV,3,2,11,30,39,234,39,07,41,305,45,08,66,209,42,16,07,056,*6C
$GAGSV,3,3,11,12,05,019,,11,06,067,,10,07,041,*52
$GBGSV,6,1,21,26,77,046,51,05,20,130,,50,20,200,,35,26,122,34*69
$GBGSV,6,2,21,40,22,039,29,45,22,079,23,33,35,293,42,07,24,052,24*6F
$GBGSV,6,3,21,29,24,058,37,42,35,224,42,24,45,272,46,10,35,060,38*63
$GBGSV,6,4,21,14,42,259,35,56,39,066,,02,04,109,,44,05,162,*66
$GBGSV,6,5,21,11,06,244,,21,05,184,,41,06,334,30,57,02,347,*60
$GBGSV,6,6,21,60,07,111,*58
$GPGGA,110102.00,,,,,0,00,,,M,,M,,*4B
$PTNL,GGK,110102.00,010125,4742.4459202,N,01617.9729365,E,1,21,1.4,EHT669.3815,M*44
$GPGGQ,110102.00,010125,4742.4459202,N,01617.9729365,E,1,21,5.454,626.1705,M*38
$GPGFA,110102.00,18.608,40.957,1.957,0.983,341.947,4.995,,VVV*0D
$GPLLK,110102.00,010125,,M,,M,1,21,1.7,,M*0D
$GNGMP,110102.00,,,,,DAAA,21,0.7,,,,*51
$GPGMP,110102.00,,,,,,05,,,,2.8,123*71
$GLGMP,110102.00,,,,,,03,,,,,*7F
$GAGMP,110102.00,,,,,,06,,,,,*77
$GBGMP,110102.00,,,,,,07,,,,,*75
$PSSN,SNC,[0,298880000,2347]*47
$GPZDA,110107.00,01,01,2025,,*65
$GPDTM,W84,,00.0000000,N,00.0000000,E,00.0000000,W84*5F
$GPRMC,110107.00,A,4742.4459196,N,01617.9729312,E,0.0,,010125,5.1,E,D*18
$GPGLL,4742.4459196,N,01617.9729312,E,110107.00,A,D*69
$GPGGA,110107.00,4742.4459196,N,01617.9729312,E,2,20,0.6,626.1616,M,43.2111,M,2.0,0123*44
$GNGNS,110107.00,4742.4459196,N,01617.9729312,E,DAAA,20,0.6,626.1616,43.2111,,*5A
$GPGNS,110107.00,,,,,,04,,,,2.0,123*7D
$GLGNS,110107.00,,,,,,04,,,,,*7D
$GAGNS,110107.00,,,,,,06,,,,,*72
$GBGNS,110107.00,,,,,,06,,,,,*71
$GPLLQ,110107.00,010125,,M,,M,1,20,4.220,,M*11
$GPVTG,,T,,M,0.01,N,0.01,K,D*26
$GPHDT,,T*1B
$GPTHS,,V*0E
$GPROT,,V*08
$PSSN,HRP,110107.00,010125,,,,,,,00,0,,*67
$PTNL,AVR,110107.00,,Yaw,,Tilt,,,,0,,00*31
$GPGSA,A,3,12,13,17,19,,,,,,,,,1.3,0.6,1.2*3A
$GPGSA,A,3,66,68,76,85,,,,,,,,,1.3,0.6,1.2*37
$GPGSA,A,3,02,03,07,08,25,30,,,,,,,1.3,0.6,1.2*3F
$GPGSA,A,3,10,24,26,29,33,42,,,,,,,1.3,0.6,1.2*3B
$GPGST,110107.00,3.640,1.074,0.587,335.871,1.009,0.693,4.038*58
$GPGBS,110107.00,6.320,5.062,21.934,17,0.0001,-1.089,0.835*46
$GPGRS,110107.00,1,-0.5,0.4,-1.1,0.8,,,,,,,,*41
$GPGRS,110107.00,1,-0.2,4.4,-1.3,7.2,,,,,,,,*4D
$GPGRS,110107.00,1,0.4,-2.2,-0.8,0.9,-0.7,1.4,,,,,,*62
$GPGRS,110107.00,1,-3.8,1.2,-4.0,4.2,-4.3,-4.5,,,,,,*44
$GPGSV,4,1,15,24,67,299,36,14,16,059,30,13,30,159,37,23,17,271,35*78
$GPGSV,4,2,15,10,15,313,31,12,36,236,44,15,46,202,39,22,37,057,*76
$GPGSV,4,3,15,17,38,064,41,19,47,109,43,02,03,020,,36,35,170,35*74
$GPGSV,4,4,15,34,31,208,,49,34,195,36,61,03,257,*44
$GLGSV,3,1,11,76,61,033,50,86,19,103,26,68,14,336,37,85,24,045,35*61
$GLGSV,3,2,11,67,51,294,33,66,41,208,47,77,54,286,,78,02,259,28*66
$GLGSV,3,3,11,84,03,359,26,75,08,067,,65,01,180,*51
$GAGSV,3,1,11,02,85,071,46,03,23,160,40,25,30,057,40,18,39,150,*65
$GAGSV,3,2,11,30,39,234,39,07,41,305,45,08,66,209,43,16,07,056,*6D
$GAGSV,3,3,11,12,05,019,,11,06,067,,10,07,041,*52
$GBGSV,6,1,21,26,77,046,51,05,20,130,,50,20,200,,35,26,122,35*68
$GBGSV,6,2,21,40,22,039,29,45,22,079,22,33,35,293,43,07,24,052,23*68
$GBGSV,6,3,21,29,24,057,39,42,35,224,41,24,45,272,46,10,35,060,38*61
$GBGSV,6,4,21,14,41,259,32,56,39,066,,02,04,109,,44,05,162,*62
$GBGSV,6,5,21,11,06,244,,21,05,184,,41,06,334,31,57,02,346,*60
$GBGSV,6,6,21,60,07,111,*58
$GPGGA,110107.00,,,,,0,00,,,M,,M,,*4E
$PTNL,GGK,110107.00,010125,4742.4459196,N,01617.9729312,E,1,20,1.3,EHT669.3727,M*47
$GPGGQ,110107.00,010125,4742.4459196,N,01617.9729312,E,1,20,4.220,626.1616,M*35
$GPGFA,110107.00,10.215,33.114,1.074,0.587,335.871,4.038,,VVV*0A
$GPLLK,110107.00,010125,,M,,M,1,20,1.5,,M*0B
$GNGMP,110107.00,,,,,DAAA,20,0.6,,,,*54
$GPGMP,110107.00,,,,,,04,,,,2.0,123*7D
$GLGMP,110107.00,,,,,,04,,,,,*7D
$GAGMP,110107.00,,,,,,06,,,,,*72
$GBGMP,110107.00,,,,,,06,,,,,*71
$PSSN,SNC,[0,298885000,2347]*42
$GPZDA,110112.00,01,01,2025,,*61
$GPDTM,W84,,00.0000000,N,00.0000000,E,00.0000000,W84*5F
$GPRMC,110112.00,A,4742.4459240,N,01617.9729325,E,0.0,,010125,5.1,E,D*10
$GPGLL,4742.4459240,N,01617.9729325,E,110112.00,A,D*61
$GPGGA,110112.00,4742.4459240,N,01617.9729325,E,2,19,0.6,626.1600,M,43.2111,M,3.0,0123*40
$GNGNS,110112.00,4742.4459240,N,01617.9729325,E,DAAA,19,0.6,626.1600,43.2111,,*5F
$GPGNS,110112.00,,,,,,04,,,,3.0,123*78
$GLGNS,110112.00,,,,,,03,,,,,*7E
$GAGNS,110112.00,,,,,,06,,,,,*76
$GBGNS,110112.00,,,,,,06,,,,,*75
$GPLLQ,110112.00,010125,,M,,M,1,19,5.239,,M*16
$GPVTG,,T,,M,0.00,N,0.01,K,D*27
$GPHDT,,T*1B
$GPTHS,,V*0E
$GPROT,,V*08
$PSSN,HRP,110112.00,010125,,,,,,,00,0,,*63
$PTNL,AVR,110112.00,,Yaw,,Tilt,,,,0,,00*35
$GPGSA,A,3,12,13,17,19,,,,,,,,,1.4,0.6,1.2*3D
$GPGSA,A,3,66,68,76,,,,,,,,,,1.4,0.6,1.2*3D
$GPGSA,A,3,02,03,07,08,25,30,,,,,,,1.4,0.6,1.2*38
$GPGSA,A,3,10,24,26,29,33,42,,,,,,,1.4,0.6,1.2*3C
$GPGST,110112.00,4.474,1.321,0.720,337.144,1.249,0.839,5.018*54
$GPGBS,110112.00,6.456,5.159,22.467,17,0.0001,-2.060,0.854*46
$GPGRS,110112.00,1,0.0,0.1,-2.1,1.0,,,,,,,,*62
$GPGRS,110112.00,1,-0.7,5.9,-1.0,,,,,,,,,*68
$GPGRS,110112.00,1,0.7,-1.4,0.4,0.1,-0.3,2.1,,,,,,*4B
$GPGRS,110112.00,1,-3.4,2.5,-3.4,12.2,-1.6,-3.5,,,,,,*7B
$GPGSV,4,1,15,24,67,299,35,14,16,059,28,13,30,159,38,23,17,271,36*7E
$GPGSV,4,2,15,10,15,313,32,12,36,236,44,15,46,202,34,22,37,057,*78
$GPGSV,4,3,15,17,38,064,39,19,47,109,42,02,03,020,,36,35,170,35*7A
$GPGSV,4,4,15,34,31,208,,49,34,195,35,61,03,257,*47
$GLGSV,3,1,11,76,61,033,50,86,19,103,27,68,14,336,37,85,24,045,33*66
$GLGSV,3,2,11,67,51,294,21,66,41,208,45,77,54,286,27,78,02,259,28*62
$GLGSV,3,3,11,84,03,359,24,75,08,067,,65,01,180,*53
$GAGSV,3,1,11,02,85,071,46,03,23,160,39,25,30,057,40,18,39,150,*6B
$GAGSV,3,2,11,30,39,234,40,07,41,305,46,08,66,209,42,16,07,056,*61
$GAGSV,3,3,11,12,05,019,,11,06,067,,10,07,041,*52
$GBGSV,6,1,21,26,77,046,51,05,20,130,,50,20,200,,35,26,122,35*68
$GBGSV,6,2,21,40,22,039,27,45,22,079,22,33,35,293,44,07,24,052,33*60
$GBGSV,6,3,21,29,24,057,40,42,35,224,40,24,45,272,47,10,35,060,38*6F
$GBGSV,6,4,21,14,41,259,31,56,39,066,,02,04,109,,44,05,162,*61
$GBGSV,6,5,21,11,06,244,,21,05,184,,41,06,334,32,57,02,346,*63
$GBGSV,6,6,21,60,07,111,*58
$GPGGA,110112.00,,,,,0,00,,,M,,M,,*4A
$PTNL,GGK,110112.00,010125,4742.4459240,N,01617.9729325,E,1,19,1.4,EHT669.3711,M*47
$GPGGQ,110112.00,010125,4742.4459240,N,01617.9729325,E,1,19,5.239,626.1600,M*39
$GPGFA,110112.00,12.556,41.150,1.321,0.720,337.144,5.018,,VVV*0B
$GPLLK,110112.00,010125,,M,,M,1,19,1.6,,M*06
$GNGMP,110112.00,,,,,DAAA,19,0.6,,,,*5A
$GPGMP,110112.00,,,,,,04,,,,3.0,123*78
$GLGMP,110112.00,,,,,,03,,,,,*7E
$GAGMP,110112.00,,,,,,06,,,,,*76
$GBGMP,110112.00,,,,,,06,,,,,*75
$PSSN,SNC,[0,298890000,2347]*46
$GPZDA,110117.00,01,01,2025,,*64
$GPDTM,W84,,00.0000000,N,00.0000000,E,00.0000000,W84*5F
$GPRMC,110117.00,A,4742.4459315,N,01617.9729409,E,0.0,,010125,5.1,E,D*1D
$GPGLL,4742.4459315,N,01617.9729409,E,110117.00,A,D*6C
$GPGGA,110117.00,4742.4459315,N,01617.9729409,E,2,18,0.6,626.1580,M,43.2111,M,2.3,0123*45
$GNGNS,110117.00,4742.4459315,N,01617.9729409,E,DAAA,18,0.6,626.1580,43.2111,,*58
$GPGNS,110117.00,,,,,,03,,,,2.3,123*78
$GLGNS,110117.00,,,,,,03,,,,,*7B
$GAGNS,110117.00,,,,,,06,,,,,*73
$GBGNS,110117.00,,,,,,06,,,,,*70
$GPLLQ,110117.00,010125,,M,,M,1,18,7.963,,M*14
$GPVTG,,T,,M,0.01,N,0.01,K,D*26
$GPHDT,,T*1B
$GPTHS,,V*0E
$GPROT,,V*08
$PSSN,HRP,110117.00,010125,,,,,,,00,0,,*66
$PTNL,AVR,110117.00,,Yaw,,Tilt,,,,0,,00*30
$GPGSA,A,3,12,13,19,,,,,,,,,,1.4,0.6,1.2*3B
$GPGSA,A,3,66,68,76,,,,,,,,,,1.4,0.6,1.2*3D
$GPGSA,A,3,02,03,07,08,25,30,,,,,,,1.4,0.6,1.2*38
$GPGSA,A,3,10,24,26,29,33,42,,,,,,,1.4,0.6,1.2*3C
$GPGST,110117.00,6.874,2.312,1.130,351.527,2.292,1.168,7.536*59
$GPGBS,110117.00,13.967,5.158,32.708,29,0.0001,20.158,8.737*6A
$GPGRS,110117.00,1,0.5,-0.9,1.6,,,,,,,,,*41
$GPGRS,110117.00,1,-4.3,6.9,-0.3,,,,,,,,,*6C
$GPGRS,110117.00,1,1.0,-0.5,0.8,-0.4,-0.2,1.7,,,,,,*68
$GPGRS,110117.00,1,-3.4,1.9,-2.9,20.2,-1.8,-3.3,,,,,,*74
$GPGSV,4,1,15,24,67,299,33,14,16,059,27,13,30,159,37,23,17,271,36*78
$GPGSV,4,2,15,10,15,313,32,12,36,236,45,15,46,202,41,22,37,057,*7B
$GPGSV,4,3,15,17,38,064,36,19,47,109,42,02,03,020,,36,35,170,35*75
$GPGSV,4,4,15,34,31,208,,49,34,195,35,61,03,257,*47
$GLGSV,3,1,11,76,61,033,51,86,19,103,34,68,14,336,38,85,24,045,33*6A
$GLGSV,3,2,11,67,51,294,29,66,41,208,42,77,54,286,33,78,02,259,28*68
$GLGSV,3,3,11,84,03,359,,75,08,067,,65,01,180,*55
$GAGSV,3,1,11,02,85,070,46,03,23,160,38,25,30,057,39,18,39,150,*65
$GAGSV,3,2,11,30,39,234,40,07,41,305,46,08,66,209,41,16,07,056,*62
$GAGSV,3,3,11,12,05,019,,11,06,067,,10,07,041,*52
$GBGSV,6,1,21,26,77,046,51,05,20,130,,50,20,200,,35,26,122,34*69
$GBGSV,6,2,21,40,22,039,26,45,22,079,24,33,35,293,43,07,24,052,33*60
$GBGSV,6,3,21,29,24,057,40,42,35,224,39,24,45,272,46,10,35,060,38*60
$GBGSV,6,4,21,14,41,259,29,56,39,066,,02,04,109,,44,05,162,*68
$GBGSV,6,5,21,11,06,244,,21,05,184,,41,06,334,33,57,02,346,*62
$GBGSV,6,6,21,60,07,111,*58
$GPGGA,110117.00,,,,,0,00,,,M,,M,,*4F
$PTNL,GGK,110117.00,010125,4742.4459315,N,01617.9729409,E,1,18,1.4,EHT669.3690,M*43
$GPGGQ,110117.00,010125,4742.4459315,N,01617.9729409,E,1,18,7.963,626.1580,M*38
$GPGFA,110117.00,21.978,61.795,2.312,1.130,351.527,7.536,,VVV*0C
$GPLLK,110117.00,010125,,M,,M,1,18,1.6,,M*02
$GNGMP,110117.00,,,,,DAAA,18,0.6,,,,*5E
$GPGMP,110117.00,,,,,,03,,,,2.3,123*78
$GLGMP,110117.00,,,,,,03,,,,,*7B
$GAGMP,110117.00,,,,,,06,,,,,*73
$GBGMP,110117.00,,,,,,06,,,,,*70
$PSSN,SNC,[0,298895000,2347]*43
$GPZDA,110122.00,01,01,2025,,*62
$GPDTM,W84,,00.0000000,N,00.0000000,E,00.0000000,W84*5F
$GPRMC,110122.00,A,4742.4459271,N,01617.9729318,E,0.0,,010125,5.1,E,D*1F
$GPGLL,4742.4459271,N,01617.9729318,E,110122.00,A,D*6E
$GPGGA,110122.00,4742.4459271,N,01617.9729318,E,2,19,0.7,626.1531,M,43.2111,M,2.7,0123*49
$GNGNS,110122.00,4742.4459271,N,01617.9729318,E,DAAA,19,0.7,626.1531,43.2111,,*50
$GPGNS,110122.00,,,,,,03,,,,2.7,123*7A
$GLGNS,110122.00,,,,,,03,,,,,*7D
$GAGNS,110122.00,,,,,,06,,,,,*75
$GBGNS,110122.00,,,,,,07,,,,,*77
$GPLLQ,110122.00,010125,,M,,M,1,19,9.910,,M*19
$GPVTG,,T,,M,0.01,N,0.01,K,D*26
$GPHDT,,T*1B
$GPTHS,,V*0E
$GPROT,,V*08
$PSSN,HRP,110122.00,010125,,,,,,,00,0,,*60
$PTNL,AVR,110122.00,,Yaw,,Tilt,,,,0,,00*36
$GPGSA,A,3,12,15,19,,,,,,,,,,1.4,0.7,1.2*3C
$GPGSA,A,3,66,68,76,,,,,,,,,,1.4,0.7,1.2*3C
$GPGSA,A,3,02,03,07,08,25,30,,,,,,,1.4,0.7,1.2*39
$GPGSA,A,3,10,14,24,26,29,33,42,,,,,,1.4,0.7,1.2*38
$GPGST,110122.00,6.398,3.816,1.100,339.825,3.602,1.673,9.079*5B
$GPGBS,110122.00,10.911,4.695,27.388,19,0.0001,2.110,0.738*59
$GPGRS,110122.00,1,-0.2,-0.3,2.1,,,,,,,,,*63
$GPGRS,110122.00,1,-5.4,6.2,-0.4,,,,,,,,,*60
$GPGRS,110122.00,1,0.7,-0.3,0.3,-0.2,-0.6,0.8,,,,,,*69
$GPGRS,110122.00,1,-3.9,-3.6,0.6,-3.5,19.0,-2.2,-3.4,,,,,*7C
$GPGSV,4,1,15,24,67,299,36,14,16,059,25,13,30,159,33,23,17,271,34*79
$GPGSV,4,2,15,10,15,313,31,12,36,236,45,15,46,202,43,22,37,057,*7A
$GPGSV,4,3,15,17,38,064,35,19,47,109,42,02,03,020,,36,35,170,35*76
$GPGSV,4,4,15,34,31,208,,49,34,195,34,61,03,257,*46
$GLGSV,3,1,11,76,61,033,51,86,19,103,33,68,14,336,37,85,24,045,30*61
$GLGSV,3,2,11,67,51,294,31,66,41,208,40,77,54,286,34,78,02,259,30*6D
$GLGSV,3,3,11,84,03,359,,75,08,067,,65,01,180,*55
$GAGSV,3,1,11,02,85,070,46,03,23,160,38,25,30,057,40,18,39,150,*6B
$GAGSV,3,2,11,30,39,234,40,07,41,305,46,08,66,209,41,16,07,056,*62
$GAGSV,3,3,11,12,05,019,,11,06,067,,10,07,041,*52
$GBGSV,6,1,21,26,77,046,51,05,20,130,,50,20,200,,35,26,122,31*6C
$GBGSV,6,2,21,40,22,039,27,45,22,079,27,33,35,293,42,07,24,052,33*63
$GBGSV,6,3,21,29,24,057,39,42,35,224,39,24,45,273,45,10,35,060,38*6C
$GBGSV,6,4,21,14,41,259,48,56,39,066,,02,04,109,,44,05,162,*6F
$GBGSV,6,5,21,11,06,244,,21,05,184,,41,06,334,33,57,02,346,*62
$GBGSV,6,6,21,60,07,111,*58
$GPGGA,110122.00,,,,,0,00,,,M,,M,,*49
$PTNL,GGK,110122.00,010125,4742.4459271,N,01617.9729318,E,1,19,1.4,EHT669.3642,M*4F
$GPGGQ,110122.00,010125,4742.4459271,N,01617.9729318,E,1,19,9.910,626.1531,M*3B
$GPGFA,110122.00,36.281,74.448,3.816,1.100,339.825,9.079,,VVV*0A
$GPLLK,110122.00,010125,,M,,M,1,19,1.6,,M*05
$GNGMP,110122.00,,,,,DAAA,19,0.7,,,,*58
$GPGMP,110122.00,,,,,,03,,,,2.7,123*7A
$GLGMP,110122.00,,,,,,03,,,,,*7D
$GAGMP,110122.00,,,,,,06,,,,,*75
$GBGMP,110122.00,,,,,,07,,,,,*77
$PSSN,SNC,[0,298900000,2347]*4E
$GPZDA,110127.00,01,01,2025,,*67
$GPDTM,W84,,00.0000000,N,00.0000000,E,00.0000000,W84*5F
$GPRMC,110127.00,A,4742.4459355,N,01617.9729286,E,0.0,,010125,5.1,E,D*1B
$GPGLL,4742.4459355,N,01617.9729286,E,110127.00,A,D*6A
$GPGGA,110127.00,4742.4459355,N,01617.9729286,E,2,19,0.7,626.1415,M,43.2111,M,2.5,0123*48
$GNGNS,110127.00,4742.4459355,N,01617.9729286,E,DAAA,19,0.7,626.1415,43.2111,,*53
$GPGNS,110127.00,,,,,,04,,,,2.5,123*7A
$GLGNS,110127.00,,,,,,02,,,,,*79
$GAGNS,110127.00,,,,,,06,,,,,*70
$GBGNS,110127.00,,,,,,07,,,,,*72
$GPLLQ,110127.00,010125,,M,,M,1,19,11.356,,M*2D
$GPVTG,,T,,M,0.00,N,0.01,K,D*27
$GPHDT,,T*1B
$GPTHS,,V*0E
$GPROT,,V*08
$PSSN,HRP,110127.00,010125,,,,,,,00,0,,*65
$PTNL,AVR,110127.00,,Yaw,,Tilt,,,,0,,00*33
$GPGSA,A,3,12,15,17,19,,,,,,,,,1.6,0.7,1.4*3E
$GPGSA,A,3,66,76,,,,,,,,,,,1.6,0.7,1.4*36
$GPGSA,A,3,02,03,07,08,25,30,,,,,,,1.6,0.7,1.4*3D
$GPGSA,A,3,10,14,24,26,29,33,42,,,,,,1.6,0.7,1.4*3C
$GPGST,110127.00,4.622,3.499,0.864,329.725,3.053,1.915,10.769*64
$GPGBS,110127.00,7.726,4.799,29.106,15,0.0001,1.787,0.726*6F
$GPGRS,110127.00,1,-1.1,1.8,-2.1,1.6,,,,,,,,*47
$GPGRS,110127.00,1,-5.5,-2.2,,,,,,,,,,*4A
$GPGRS,110127.00,1,0.0,-0.7,-1.1,-0.2,-1.8,-0.4,,,,,,*6F
$GPGRS,110127.00,1,-4.5,-8.5,-1.4,-4.5,8.2,-2.3,-4.3,,,,,*60
$GPGSV,4,1,15,24,67,299,31,14,16,059,31,13,30,159,29,23,17,271,*77
$GPGSV,4,2,15,10,15,313,26,12,36,236,45,15,46,202,43,22,37,057,*7C
$GPGSV,4,3,15,17,38,064,37,19,47,109,42,02,03,020,,36,35,170,35*74
$GPGSV,4,4,15,34,31,208,,49,34,195,35,61,03,257,*47
$GLGSV,3,1,11,76,60,033,50,86,19,103,33,68,14,336,37,85,24,045,33*62
$GLGSV,3,2,11,67,51,294,37,66,41,208,42,77,54,286,35,78,02,259,31*69
$GLGSV,3,3,11,84,03,359,,75,08,067,,65,01,180,*55
$GAGSV,3,1,11,02,85,070,47,03,23,160,39,25,30,057,40,18,39,150,*6B
$GAGSV,3,2,11,30,39,234,40,07,41,305,47,08,66,209,42,16,07,056,*60
$GAGSV,3,3,11,12,05,019,,11,06,067,,10,07,041,*52
$GBGSV,6,1,21,26,77,046,51,05,20,130,,50,20,200,,35,26,122,32*6F
$GBGSV,6,2,21,40,22,039,28,45,22,079,29,33,35,293,42,07,24,052,23*63
