$GPZDA,191442.00,01,01,2025,,*68
$GPDTM,W84,,00.0000000,N,00.0000000,E,00.0000000,W84*5F
$GPRMC,191442.00,A,4742.4463486,N,01617.9730487,E,0.0,,010125,5.1,E,D*1B
$GPGLL,4742.4463486,N,01617.9730487,E,191442.00,A,D*6A
$GPGGA,191442.00,4742.4463486,N,01617.9730487,E,2,18,0.7,626.5719,M,43.2111,M,3.3,0123*45
$GNGNS,191442.00,4742.4463486,N,01617.9730487,E,DAAA,18,0.7,626.5719,43.2111,,*59
$GPGNS,191442.00,,,,,,04,,,,3.3,123*72
$GLGNS,191442.00,,,,,,04,,,,,*70
$GAGNS,191442.00,,,,,,04,,,,,*7D
$GBGNS,191442.00,,,,,,06,,,,,*7C
$GPLLQ,191442.00,010125,,M,,M,1,18,3.513,,M*17
$GPVTG,,T,,M,0.01,N,0.01,K,D*26
$GPHDT,,T*1B
$GPTHS,,V*0E
$GPROT,,V*08
$PSSN,HRP,191442.00,010125,,,,,,,00,0,,*6A
$PTNL,AVR,191442.00,,Yaw,,Tilt,,,,0,,00*3C
$GPGSA,A,3,10,16,23,27,,,,,,,,,1.5,0.7,1.4*36
$GPGSA,A,3,73,74,80,82,,,,,,,,,1.5,0.7,1.4*31
$GPGSA,A,3,13,15,21,27,,,,,,,,,1.5,0.7,1.4*34
$GPGSA,A,3,08,11,14,28,37,43,,,,,,,1.5,0.7,1.4*30
$GPGST,191442.00,4.341,1.346,0.703,31.406,1.205,0.923,3.168*68
$GPGBS,191442.00,6.010,6.026,17.101,27,0.0001,1.201,0.654*66
$GPGRS,191442.00,1,0.2,-0.4,-0.8,1.2,,,,,,,,*48
$GPGRS,191442.00,1,2.4,-8.8,-3.9,-2.8,,,,,,,,*6E
$GPGRS,191442.00,1,0.8,0.6,1.3,-2.8,,,,,,,,*6E
$GPGRS,191442.00,1,4.8,2.2,3.7,-1.6,-6.5,-1.4,,,,,,*61
$GPGSV,4,1,15,16,65,241,50,10,34,170,42,08,17,294,,15,14,067,*79
$GPGSV,4,2,15,26,43,196,38,27,51,298,44,18,48,058,39,23,56,115,44*7A
$GPGSV,4,3,15,13,04,036,,07,08,324,29,29,07,105,,36,35,170,40*71
$GPGSV,4,4,15,34,31,208,,49,34,195,36,61,03,257,*44
$GLGSV,3,1,10,83,63,308,34,66,25,042,33,74,25,327,38,80,29,203,39*64
$GLGSV,3,2,10,67,26,100,,82,52,043,49,73,49,276,44,81,10,069,*6B
$GLGSV,3,3,10,68,03,143,,84,09,261,*6F
$GAGSV,3,1,09,13,86,010,50,14,35,287,,15,32,056,41,27,24,164,20*64
$GAGSV,3,2,09,23,38,307,,26,36,240,33,21,64,221,46,03,08,067,*61
$GAGSV,3,3,09,05,04,020,*52
$GBGSV,5,1,20,43,56,075,49,33,16,148,26,21,17,040,27,60,11,108,*63
$GBGSV,5,2,20,23,20,205,33,46,18,318,,27,11,270,32,38,19,037,30*6E
$GBGSV,5,3,20,05,22,128,,50,27,062,,14,28,123,39,08,34,039,37*61
$GBGSV,5,4,20,58,29,305,,13,40,047,32,42,33,092,32,11,33,077,40*64
$GBGSV,5,5,20,37,37,261,40,28,55,280,48,34,10,086,,02,08,106,*61
$GPGGA,191442.00,,,,,0,00,,,M,,M,,*43
$PTNL,GGK,191442.00,010125,4742.4463486,N,01617.9730487,E,1,18,1.5,EHT669.7829,M*4C
$GPGGQ,191442.00,010125,4742.4463486,N,01617.9730487,E,1,18,3.513,626.5719,M*37
$GPGFA,191442.00,12.794,25.982,1.346,0.703,31.406,3.168,,VVV*3D
$GPLLK,191442.00,010125,,M,,M,1,18,1.8,,M*00
$GNGMP,191442.00,,,,,DAAA,18,0.7,,,,*53
$GPGMP,191442.00,,,,,,04,,,,3.3,123*72
$GLGMP,191442.00,,,,,,04,,,,,*70
$GAGMP,191442.00,,,,,,04,,,,,*7D
$GBGMP,191442.00,,,,,,06,,,,,*7C
$PSSN,SNC,[0,328500000,2347]*48
$GPZDA,191447.00,01,01,2025,,*6D
$GPDTM,W84,,00.0000000,N,00.0000000,E,00.0000000,W84*5F
$GPRMC,191447.00,A,4742.4463410,N,01617.9730618,E,0.0,,010125,5.1,E,D*15
$GPGLL,4742.4463410,N,01617.9730618,E,191447.00,A,D*64
$GPGGA,191447.00,4742.4463410,N,01617.9730618,E,2,19,0.7,626.5722,M,43.2111,M,3.3,0123*42
$GNGNS,191447.00,4742.4463410,N,01617.9730618,E,DAAA,19,0.7,626.5722,43.2111,,*5E
$GPGNS,191447.00,,,,,,04,,,,3.3,123*77
$GLGNS,191447.00,,,,,,05,,,,,*74
$GAGNS,191447.00,,,,,,03,,,,,*7F
$GBGNS,191447.00,,,,,,07,,,,,*78
$GPLLQ,191447.00,010125,,M,,M,1,19,4.571,,M*10
$GPVTG,,T,,M,0.01,N,0.01,K,D*26
$GPHDT,,T*1B
$GPTHS,,V*0E
$GPROT,,V*08
$PSSN,HRP,191447.00,010125,,,,,,,00,0,,*6F
$PTNL,AVR,191447.00,,Yaw,,Tilt,,,,0,,00*39
$GPGSA,A,3,10,16,23,27,,,,,,,,,1.4,0.7,1.3*30
$GPGSA,A,3,73,74,80,82,83,,,,,,,,1.4,0.7,1.3*3C
$GPGSA,A,3,13,15,21,,,,,,,,,,1.4,0.7,1.3*37
$GPGSA,A,3,08,11,14,23,28,37,43,,,,,,1.4,0.7,1.3*37
$GPGST,191447.00,4.644,1.751,0.922,31.559,1.568,1.207,4.121*63
$GPGBS,191447.00,6.095,6.086,17.312,27,0.0001,1.832,0.673*6B
$GPGRS,191447.00,1,-1.1,-0.3,-0.6,1.8,,,,,,,,*61
$GPGRS,191447.00,1,2.8,-10.4,-3.9,-2.7,-5.0,,,,,,,*5B
$GPGRS,191447.00,1,1.2,0.9,1.6,,,,,,,,,*63
$GPGRS,191447.00,1,4.9,1.1,2.4,1.5,-1.6,-6.9,-1.6,,,,,*43
$GPGSV,4,1,15,16,65,241,51,10,34,170,41,08,17,294,26,15,14,067,*7F
$GPGSV,4,2,15,26,43,196,39,27,51,298,44,18,48,058,35,23,56,115,43*70
$GPGSV,4,3,15,13,04,036,,07,08,324,29,29,07,105,,36,35,170,40*71
$GPGSV,4,4,15,34,31,208,,49,34,195,36,61,03,257,*44
$GLGSV,3,1,10,83,63,308,35,66,25,042,28,74,25,327,36,80,29,203,37*6F
$GLGSV,3,2,10,67,27,100,35,82,52,043,49,73,49,276,45,81,10,069,20*6F
$GLGSV,3,3,10,68,03,143,,84,09,261,*6F
$GAGSV,3,1,09,13,86,010,50,14,35,287,,15,32,056,41,27,24,164,22*66
$GAGSV,3,2,09,23,38,307,,26,36,240,33,21,64,221,47,03,08,067,*60
$GAGSV,3,3,09,05,04,020,*52
$GBGSV,5,1,20,43,56,075,48,33,16,148,24,21,17,040,24,60,11,108,*63
$GBGSV,5,2,20,23,20,205,36,46,18,318,,27,11,270,33,38,19,037,30*6A
$GBGSV,5,3,20,05,22,128,,50,27,062,,14,28,123,38,08,34,039,37*60
$GBGSV,5,4,20,58,29,305,,13,40,047,32,42,33,092,18,11,32,077,40*6D
$GBGSV,5,5,20,37,37,261,40,28,55,280,48,34,10,086,,02,08,106,*61
$GPGGA,191447.00,,,,,0,00,,,M,,M,,*46
$PTNL,GGK,191447.00,010125,4742.4463410,N,01617.9730618,E,1,19,1.4,EHT669.7832,M*48
$GPGGQ,191447.00,010125,4742.4463410,N,01617.9730618,E,1,19,4.571,626.5722,M*33
$GPGFA,191447.00,16.649,33.789,1.751,0.922,31.559,4.121,,VVV*31
$GPLLK,191447.00,010125,,M,,M,1,19,1.7,,M*0B
$GNGMP,191447.00,,,,,DAAA,19,0.7,,,,*57
$GPGMP,191447.00,,,,,,04,,,,3.3,123*77
$GLGMP,191447.00,,,,,,05,,,,,*74
$GAGMP,191447.00,,,,,,03,,,,,*7F
$GBGMP,191447.00,,,,,,07,,,,,*78
$PSSN,SNC,[0,328505000,2347]*4D
$GPZDA,191452.00,01,01,2025,,*69
$GPDTM,W84,,00.0000000,N,00.0000000,E,00.0000000,W84*5F
$GPRMC,191452.00,A,4742.4463298,N,01617.9730738,E,0.0,,010125,5.1,E,D*14
$GPGLL,4742.4463298,N,01617.9730738,E,191452.00,A,D*65
$GPGGA,191452.00,4742.4463298,N,01617.9730738,E,2,18,0.8,626.5682,M,43.2111,M,1.3,0123*44
$GNGNS,191452.00,4742.4463298,N,01617.9730738,E,DAAA,18,0.8,626.5682,43.2111,,*5A
$GPGNS,191452.00,,,,,,04,,,,1.3,123*71
$GLGNS,191452.00,,,,,,04,,,,,*71
$GAGNS,191452.00,,,,,,03,,,,,*7B
$GBGNS,191452.00,,,,,,07,,,,,*7C
$GPLLQ,191452.00,010125,,M,,M,1,18,3.952,,M*1F
$GPVTG,,T,,M,0.01,N,0.01,K,D*26
$GPHDT,,T*1B
$GPTHS,,V*0E
$GPROT,,V*08
$PSSN,HRP,191452.00,010125,,,,,,,00,0,,*6B
$PTNL,AVR,191452.00,,Yaw,,Tilt,,,,0,,00*3D
$GPGSA,A,3,10,16,23,27,,,,,,,,,1.7,0.8,1.5*3A
$GPGSA,A,3,73,80,82,83,,,,,,,,,1.7,0.8,1.5*35
$GPGSA,A,3,13,15,21,,,,,,,,,,1.7,0.8,1.5*3D
$GPGSA,A,3,08,11,14,23,28,37,43,,,,,,1.7,0.8,1.5*3D
$GPGST,191452.00,3.836,1.494,0.782,30.579,1.346,1.015,3.574*6E
$GPGBS,191452.00,6.102,5.765,17.362,27,0.0001,1.595,0.624*6C
$GPGRS,191452.00,1,-1.0,-0.3,-0.5,1.6,,,,,,,,*69
$GPGRS,191452.00,1,2.9,-5.7,-2.0,-3.2,,,,,,,,*63
$GPGRS,191452.00,1,1.3,1.3,2.0,,,,,,,,,*68
$GPGRS,191452.00,1,4.7,1.3,1.4,4.1,-2.3,-6.7,-1.4,,,,,*43
$GPGSV,4,1,15,16,65,241,51,10,34,170,40,08,17,294,27,15,14,066,*7E
$GPGSV,4,2,15,26,43,196,40,27,51,298,43,18,48,058,43,23,56,115,43*78
$GPGSV,4,3,15,13,04,036,,07,08,324,31,29,07,105,,36,35,170,40*78
$GPGSV,4,4,15,34,31,208,,49,34,195,37,61,03,257,*45
$GLGSV,3,1,10,83,63,308,36,66,25,042,33,74,25,327,33,80,29,203,37*63
$GLGSV,3,2,10,67,27,100,34,82,52,043,48,73,49,276,45,81,10,069,*6D
$GLGSV,3,3,10,68,04,143,,84,09,261,*68
$GAGSV,3,1,09,13,86,010,50,14,35,287,,15,32,056,41,27,24,164,21*65
$GAGSV,3,2,09,23,38,307,,26,36,240,35,21,64,221,47,03,08,067,*66
$GAGSV,3,3,09,05,04,020,*52
$GBGSV,5,1,20,43,56,075,48,33,16,148,28,21,17,039,21,60,11,108,*64
$GBGSV,5,2,20,23,20,205,37,46,18,318,,27,11,270,32,38,19,037,30*6A
$GBGSV,5,3,20,05,22,128,,50,27,062,,14,28,123,36,08,34,039,37*6E
$GBGSV,5,4,20,58,29,305,,13,40,046,33,42,33,092,30,11,32,077,41*66
$GBGSV,5,5,20,37,37,261,40,28,55,280,47,34,10,086,20,02,08,106,*6C
$GPGGA,191452.00,,,,,0,00,,,M,,M,,*42
$PTNL,GGK,191452.00,010125,4742.4463298,N,01617.9730738,E,1,18,1.7,EHT669.7793,M*4F
$GPGGQ,191452.00,010125,4742.4463298,N,01617.9730738,E,1,18,3.952,626.5682,M*32
$GPGFA,191452.00,14.202,29.308,1.494,0.782,30.579,3.574,,VVV*34
$GPLLK,191452.00,010125,,M,,M,1,18,2.0,,M*0A
$GNGMP,191452.00,,,,,DAAA,18,0.8,,,,*5D
$GPGMP,191452.00,,,,,,04,,,,1.3,123*71
$GLGMP,191452.00,,,,,,04,,,,,*71
$GAGMP,191452.00,,,,,,03,,,,,*7B
$GBGMP,191452.00,,,,,,07,,,,,*7C
$PSSN,SNC,[0,328510000,2347]*49
$GPZDA,191457.00,01,01,2025,,*6C
$GPDTM,W84,,00.0000000,N,00.0000000,E,00.0000000,W84*5F
$GPRMC,191457.00,A,4742.4463173,N,01617.9730838,E,0.0,,010125,5.1,E,D*18
$GPGLL,4742.4463173,N,01617.9730838,E,191457.00,A,D*69
$GPGGA,191457.00,4742.4463173,N,01617.9730838,E,2,19,0.8,626.5707,M,43.2111,M,2.3,0123*46
$GNGNS,191457.00,4742.4463173,N,01617.9730838,E,DAAA,19,0.8,626.5707,43.2111,,*5B
$GPGNS,191457.00,,,,,,04,,,,2.3,123*77
$GLGNS,191457.00,,,,,,05,,,,,*75
$GAGNS,191457.00,,,,,,04,,,,,*79
$GBGNS,191457.00,,,,,,06,,,,,*78
$GPLLQ,191457.00,010125,,M,,M,1,19,4.164,,M*11
$GPVTG,,T,,M,0.00,N,0.00,K,D*26
$GPHDT,,T*1B
$GPTHS,,V*0E
$GPROT,,V*08
$PSSN,HRP,191457.00,010125,,,,,,,00,0,,*6E
$PTNL,AVR,191457.00,,Yaw,,Tilt,,,,0,,00*38
$GPGSA,A,3,10,16,23,27,,,,,,,,,1.5,0.8,1.3*3E
$GPGSA,A,3,66,73,80,82,83,,,,,,,,1.5,0.8,1.3*31
$GPGSA,A,3,13,15,21,26,,,,,,,,,1.5,0.8,1.3*3D
$GPGSA,A,3,08,11,23,28,37,43,,,,,,,1.5,0.8,1.3*3C
$GPGST,191457.00,4.564,1.542,0.841,30.170,1.398,1.063,3.776*63
$GPGBS,191457.00,5.910,5.605,16.455,27,0.0001,1.401,0.639*64
$GPGRS,191457.00,1,-1.1,-0.7,-0.0,1.4,,,,,,,,*6E
$GPGRS,191457.00,1,-9.1,2.0,-4.0,-2.3,-2.9,,,,,,,*6B
$GPGRS,191457.00,1,1.1,1.3,1.7,-2.2,,,,,,,,*68
$GPGRS,191457.00,1,4.6,1.6,6.7,-2.6,-6.5,-1.3,,,,,,*6D
$GPGSV,4,1,15,16,65,241,50,10,34,170,39,08,17,294,29,15,14,066,*7F
$GPGSV,4,2,15,26,43,196,41,27,51,298,43,18,47,058,32,23,56,115,42*71
$GPGSV,4,3,15,13,04,036,,07,08,324,33,29,07,105,,36,35,170,40*7A
$GPGSV,4,4,15,34,31,208,,49,34,195,36,61,03,257,*44
$GLGSV,3,1,10,83,63,308,37,66,25,042,35,74,25,327,30,80,29,203,38*68
$GLGSV,3,2,10,67,27,100,32,82,52,043,48,73,49,276,45,81,10,069,*6B
$GLGSV,3,3,10,68,04,143,,84,09,261,*68
$GAGSV,3,1,09,13,86,010,50,14,35,287,,15,32,056,41,27,24,164,20*64
$GAGSV,3,2,09,23,38,307,,26,36,240,41,21,64,221,47,03,08,067,*65
$GAGSV,3,3,09,05,04,020,*52
$GBGSV,5,1,20,43,56,075,47,33,16,148,26,21,17,039,27,60,11,108,*63
$GBGSV,5,2,20,23,20,205,39,46,18,318,,27,11,270,30,38,19,037,29*6E
$GBGSV,5,3,20,05,22,128,,50,27,062,,14,28,123,34,08,33,039,38*64
$GBGSV,5,4,20,58,29,305,,13,40,046,33,42,33,091,22,11,32,077,42*65
$GBGSV,5,5,20,37,37,261,40,28,55,280,47,34,10,086,20,02,08,106,*6C
$GPGGA,191457.00,,,,,0,00,,,M,,M,,*47
$PTNL,GGK,191457.00,010125,4742.4463173,N,01617.9730838,E,1,19,1.5,EHT669.7818,M*4C
$GPGGQ,191457.00,010125,4742.4463173,N,01617.9730838,E,1,19,4.164,626.5707,M*39
$GPGFA,191457.00,14.659,30.959,1.542,0.841,30.170,3.776,,VVV*3A
$GPLLK,191457.00,010125,,M,,M,1,19,1.8,,M*05
$GNGMP,191457.00,,,,,DAAA,19,0.8,,,,*59
$GPGMP,191457.00,,,,,,04,,,,2.3,123*77
$GLGMP,191457.00,,,,,,05,,,,,*75
$GAGMP,191457.00,,,,,,04,,,,,*79
$GBGMP,191457.00,,,,,,06,,,,,*78
$PSSN,SNC,[0,328515000,2347]*4C
$GPZDA,191502.00,01,01,2025,,*6D
$GPDTM,W84,,00.0000000,N,00.0000000,E,00.0000000,W84*5F
$GPRMC,191502.00,A,4742.4463120,N,01617.9730918,E,0.0,,010125,5.1,E,D*1C
$GPGLL,4742.4463120,N,01617.9730918,E,191502.00,A,D*6D
$GPGGA,191502.00,4742.4463120,N,01617.9730918,E,2,19,0.8,626.5728,M,43.2111,M,3.3,0123*4E
$GNGNS,191502.00,4742.4463120,N,01617.9730918,E,DAAA,19,0.8,626.5728,43.2111,,*52
$GPGNS,191502.00,,,,,,04,,,,3.3,123*77
$GLGNS,191502.00,,,,,,04,,,,,*75
$GAGNS,191502.00,,,,,,05,,,,,*79
$GBGNS,191502.00,,,,,,06,,,,,*79
$GPLLQ,191502.00,010125,,M,,M,1,19,4.394,,M*1D
$GPVTG,,T,,M,0.00,N,0.00,K,D*26
$GPHDT,,T*1B
$GPTHS,,V*0E
$GPROT,,V*08
$PSSN,HRP,191502.00,010125,,,,,,,00,0,,*6F
$PTNL,AVR,191502.00,,Yaw,,Tilt,,,,0,,00*39
$GPGSA,A,3,10,16,23,27,,,,,,,,,1.6,0.8,1.4*3A
$GPGSA,A,3,73,80,82,83,,,,,,,,,1.6,0.8,1.4*35
$GPGSA,A,3,13,15,21,26,27,,,,,,,,1.6,0.8,1.4*3C
$GPGSA,A,3,08,11,23,28,37,43,,,,,,,1.6,0.8,1.4*38
$GPGST,191502.00,5.878,1.648,0.869,29.924,1.492,1.115,3.980*6B
$GPGBS,191502.00,6.309,5.812,17.894,26,0.0001,15.105,6.089*52
$GPGRS,191502.00,1,-0.4,-0.7,-0.4,1.4,,,,,,,,*6F
$GPGRS,191502.00,1,1.4,-2.0,-2.9,-2.2,,,,,,,,*61
$GPGRS,191502.00,1,0.6,1.1,1.0,15.1,-2.7,,,,,,,*74
$GPGRS,191502.00,1,3.8,0.7,9.1,-2.1,-7.1,-1.5,,,,,,*68
$GPGSV,4,1,15,16,65,240,50,08,17,294,30,10,34,170,38,15,14,066,*77
$GPGSV,4,2,15,26,43,196,43,27,51,298,43,18,47,058,34,23,56,115,42*75
$GPGSV,4,3,15,13,04,036,,07,08,324,34,29,07,105,,36,35,170,40*7D
$GPGSV,4,4,15,34,31,208,,49,34,195,36,61,03,257,*44
$GLGSV,3,1,10,83,64,308,39,66,25,042,28,74,25,327,27,80,29,203,40*64
$GLGSV,3,2,10,67,27,100,27,82,52,043,47,73,49,276,43,81,10,069,*66
$GLGSV,3,3,10,68,04,143,,84,09,261,*68
$GAGSV,3,1,09,13,86,011,49,14,35,287,,15,32,056,41,27,24,164,38*64
$GAGSV,3,2,09,23,38,307,,26,36,240,37,21,64,221,47,03,08,067,*64
$GAGSV,3,3,09,05,04,020,*52
$GBGSV,5,1,20,43,56,075,47,33,16,148,24,21,17,039,22,60,11,108,*64
$GBGSV,5,2,20,23,20,205,40,46,18,318,,27,11,270,29,38,19,037,29*68
$GBGSV,5,3,20,05,22,128,,50,27,062,,14,28,123,34,08,33,039,37*6B
$GBGSV,5,4,20,58,29,305,,13,40,046,34,42,33,091,29,11,32,077,42*69
$GBGSV,5,5,20,37,37,261,39,28,55,280,47,34,10,086,,02,08,106,*60
$GPGGA,191502.00,,,,,0,00,,,M,,M,,*46
$PTNL,GGK,191502.00,010125,4742.4463120,N,01617.9730918,E,1,19,1.6,EHT669.7839,M*48
$GPGGQ,191502.00,010125,4742.4463120,N,01617.9730918,E,1,19,4.394,626.5728,M*3D
$GPGFA,191502.00,15.665,32.634,1.648,0.869,29.924,3.980,,VVV*36
$GPLLK,191502.00,010125,,M,,M,1,19,1.9,,M*05
$GNGMP,191502.00,,,,,DAAA,19,0.8,,,,*58
$GPGMP,191502.00,,,,,,04,,,,3.3,123*77
$GLGMP,191502.00,,,,,,04,,,,,*75
$GAGMP,191502.00,,,,,,05,,,,,*79
$GBGMP,191502.00,,,,,,06,,,,,*79
$PSSN,SNC,[0,328520000,2347]*4A
$GPZDA,191507.00,01,01,2025,,*68
$GPDTM,W84,,00.0000000,N,00.0000000,E,00.0000000,W84*5F
$GPRMC,191507.00,A,4742.4463023,N,01617.9731009,E,0.0,,010125,5.1,E,D*13
$GPGLL,4742.4463023,N,01617.9731009,E,191507.00,A,D*62
$GPGGA,191507.00,4742.4463023,N,01617.9731009,E,2,20,0.7,626.5756,M,43.2111,M,2.8,0123*47
$GNGNS,191507.00,4742.4463023,N,01617.9731009,E,DAAA,20,0.7,626.5756,43.2111,,*51
$GPGNS,191507.00,,,,,,05,,,,2.8,123*79
$GLGNS,191507.00,,,,,,05,,,,,*71
$GAGNS,191507.00,,,,,,04,,,,,*7D
$GBGNS,191507.00,,,,,,06,,,,,*7C
$GPLLQ,191507.00,010125,,M,,M,1,20,2.273,,M*1C
$GPVTG,,T,,M,0.01,N,0.01,K,D*26
$GPHDT,,T*1B
$GPTHS,,V*0E
$GPROT,,V*08
$PSSN,HRP,191507.00,010125,,,,,,,00,0,,*6A
$PTNL,AVR,191507.00,,Yaw,,Tilt,,,,0,,00*3C
$GPGSA,A,3,07,10,16,23,27,,,,,,,,1.2,0.7,1.0*32
$GPGSA,A,3,67,73,80,82,83,,,,,,,,1.2,0.7,1.0*3B
$GPGSA,A,3,13,15,21,26,,,,,,,,,1.2,0.7,1.0*36
$GPGSA,A,3,08,11,23,28,37,43,,,,,,,1.2,0.7,1.0*37
$GPGST,191507.00,4.994,1.270,0.660,45.788,1.004,1.020,1.766*6E
$GPGBS,191507.00,5.104,5.897,8.272,27,0.0001,1.374,0.675*59
$GPGRS,191507.00,1,-0.3,-0.5,-0.9,-0.1,1.4,,,,,,,*60
$GPGRS,191507.00,1,3.2,1.6,-0.8,-2.8,-2.1,,,,,,,*41
$GPGRS,191507.00,1,0.5,0.7,0.4,10.2,,,,,,,,*70
$GPGRS,191507.00,1,3.4,0.5,10.4,-1.9,-8.0,-2.0,,,,,,*5D
$GPGSV,4,1,15,16,65,240,50,08,17,294,32,10,34,170,39,15,14,066,*74
$GPGSV,4,2,15,26,43,196,45,27,51,298,43,18,47,058,35,23,56,115,43*73
$GPGSV,4,3,15,13,04,036,,07,08,324,36,29,07,105,,36,35,170,40*7F
$GPGSV,4,4,15,34,31,208,,49,34,195,37,61,03,257,*45
$GLGSV,3,1,10,83,64,308,39,66,24,042,34,74,25,327,27,80,29,203,42*6A
$GLGSV,3,2,10,67,27,100,25,82,52,043,46,73,49,276,43,81,10,069,22*65
$GLGSV,3,3,10,68,04,143,,84,09,261,*68
$GAGSV,3,1,09,13,86,011,49,14,35,287,,15,32,056,41,27,24,164,22*6F
$GAGSV,3,2,09,23,38,307,,26,36,240,38,21,64,220,46,03,08,067,*6B
$GAGSV,3,3,09,05,04,020,*52
$GBGSV,5,1,20,43,56,075,47,33,16,148,22,21,17,039,23,60,11,108,*63
$GBGSV,5,2,20,23,20,205,40,46,18,318,,27,11,270,31,38,19,037,29*61
$GBGSV,5,3,20,05,22,128,,50,27,062,,14,28,123,34,08,33,039,38*64
$GBGSV,5,4,20,58,29,305,,13,40,046,34,11,32,077,41,42,33,091,29*6A
$GBGSV,5,5,20,37,37,261,39,28,55,280,46,34,10,086,,02,08,106,*61
$GPGGA,191507.00,,,,,0,00,,,M,,M,,*43
$PTNL,GGK,191507.00,010125,4742.4463023,N,01617.9731009,E,1,20,1.2,EHT669.7867,M*42
$GPGGQ,191507.00,010125,4742.4463023,N,01617.9731009,E,1,20,2.273,626.5756,M*3F
$GPGFA,191507.00,12.076,14.481,1.270,0.660,45.788,1.766,,VVV*36
$GPLLK,191507.00,010125,,M,,M,1,20,1.4,,M*07
$GNGMP,191507.00,,,,,DAAA,20,0.7,,,,*58
$GPGMP,191507.00,,,,,,05,,,,2.8,123*79
$GLGMP,191507.00,,,,,,05,,,,,*71
$GAGMP,191507.00,,,,,,04,,,,,*7D
$GBGMP,191507.00,,,,,,06,,,,,*7C
$PSSN,SNC,[0,328525000,2347]*4F
$GPZDA,191512.00,01,01,2025,,*6C
$GPDTM,W84,,00.0000000,N,00.0000000,E,00.0000000,W84*5F
$GPRMC,191512.00,A,4742.4463028,N,01617.9731041,E,0.0,,010125,5.1,E,D*10
$GPGLL,4742.4463028,N,01617.9731041,E,191512.00,A,D*61
$GPGGA,191512.00,4742.4463028,N,01617.9731041,E,2,21,0.6,626.5871,M,43.2111,M,1.3,0123*46
$GNGNS,191512.00,4742.4463028,N,01617.9731041,E,DAAA,21,0.6,626.5871,43.2111,,*58
$GPGNS,191512.00,,,,,,06,,,,1.3,123*76
$GLGNS,191512.00,,,,,,04,,,,,*74
$GAGNS,191512.00,,,,,,05,,,,,*78
$GBGNS,191512.00,,,,,,06,,,,,*78
$GPLLQ,191512.00,010125,,M,,M,1,21,2.508,,M*12
$GPVTG,,T,,M,0.01,N,0.01,K,D*26
$GPHDT,,T*1B
$GPTHS,,V*0E
$GPROT,,V*08
$PSSN,HRP,191512.00,010125,,,,,,,00,0,,*6E
$PTNL,AVR,191512.00,,Yaw,,Tilt,,,,0,,00*38
$GPGSA,A,3,07,10,16,23,26,27,,,,,,,1.2,0.6,1.0*37
$GPGSA,A,3,73,80,82,83,,,,,,,,,1.2,0.6,1.0*3B
$GPGSA,A,3,13,15,21,26,27,,,,,,,,1.2,0.6,1.0*32
$GPGSA,A,3,08,11,23,28,37,43,,,,,,,1.2,0.6,1.0*36
$GPGST,191512.00,4.405,1.275,0.737,54.614,0.952,1.123,2.030*63
$GPGBS,191512.00,3.102,5.352,8.346,26,0.0001,2.110,0.679*57
$GPGRS,191512.00,1,0.9,-0.6,-1.3,-0.2,2.1,0.1,,,,,,*61
$GPGRS,191512.00,1,2.1,-0.5,-3.2,-2.1,,,,,,,,*68
$GPGRS,191512.00,1,0.1,-0.2,-0.4,5.0,-3.7,,,,,,,*44
$GPGRS,191512.00,1,2.4,-0.8,10.2,-2.8,-9.0,-2.7,,,,,,*7A
$GPGSV,4,1,15,16,65,240,50,08,17,294,33,10,34,170,41,15,14,066,*7A
$GPGSV,4,2,15,26,43,196,46,27,51,298,43,18,47,058,34,23,56,115,43*71
$GPGSV,4,3,15,13,04,036,,07,08,324,37,29,07,105,,36,35,170,40*7E
$GPGSV,4,4,15,34,31,208,,49,34,195,37,61,03,257,*45
$GLGSV,3,1,10,83,64,308,39,66,24,042,33,74,25,327,30,80,29,203,43*6A
$GLGSV,3,2,10,67,27,100,29,82,52,043,46,73,49,276,45,81,10,069,22*6F
$GLGSV,3,3,10,68,04,143,,84,09,261,*68
$GAGSV,3,1,09,13,86,011,49,14,35,287,,15,32,056,41,27,24,164,36*6A
$GAGSV,3,2,09,23,38,307,,26,36,240,38,21,64,220,46,03,08,067,*6B
$GAGSV,3,3,09,05,04,020,*52
$GBGSV,5,1,20,43,56,075,48,33,16,148,20,21,17,039,22,60,11,108,*6F
$GBGSV,5,2,20,23,20,205,40,46,18,318,,27,11,270,34,38,19,037,29*64
$GBGSV,5,3,20,05,22,128,,50,27,062,,14,28,123,34,08,33,039,37*6B
$GBGSV,5,4,20,58,29,305,,13,40,046,34,11,32,077,41,42,33,091,34*66
$GBGSV,5,5,20,37,37,261,37,28,55,280,46,34,10,086,19,02,08,106,*67
$GPGGA,191512.00,,,,,0,00,,,M,,M,,*47
$PTNL,GGK,191512.00,010125,4742.4463028,N,01617.9731041,E,1,21,1.2,EHT669.7982,M*4A
$GPGGQ,191512.00,010125,4742.4463028,N,01617.9731041,E,1,21,2.508,626.5871,M*3C
$GPGFA,191512.00,12.118,16.646,1.275,0.737,54.614,2.030,,VVV*35
$GPLLK,191512.00,010125,,M,,M,1,21,1.4,,M*02
$GNGMP,191512.00,,,,,DAAA,21,0.6,,,,*5C
$GPGMP,191512.00,,,,,,06,,,,1.3,123*76
$GLGMP,191512.00,,,,,,04,,,,,*74
$GAGMP,191512.00,,,,,,05,,,,,*78
$GBGMP,191512.00,,,,,,06,,,,,*78
$PSSN,SNC,[0,328530000,2347]*4B
$GPZDA,191517.00,01,01,2025,,*69
$GPDTM,W84,,00.0000000,N,00.0000000,E,00.0000000,W84*5F
$GPRMC,191517.00,A,4742.4463070,N,01617.9731059,E,0.0,,010125,5.1,E,D*11
$GPGLL,4742.4463070,N,01617.9731059,E,191517.00,A,D*60
$GPGGA,191517.00,4742.4463070,N,01617.9731059,E,2,22,0.6,626.6235,M,43.2111,M,2.3,0123*4E
$GNGNS,191517.00,4742.4463070,N,01617.9731059,E,DAAA,22,0.6,626.6235,43.2111,,*53
$GPGNS,191517.00,,,,,,06,,,,2.3,123*70
$GLGNS,191517.00,,,,,,04,,,,,*71
$GAGNS,191517.00,,,,,,05,,,,,*7D
$GBGNS,191517.00,,,,,,07,,,,,*7C
$GPLLQ,191517.00,010125,,M,,M,1,22,2.544,,M*1C
$GPVTG,,T,,M,0.00,N,0.01,K,D*27
$GPHDT,,T*1B
$GPTHS,,V*0E
$GPROT,,V*08
$PSSN,HRP,191517.00,010125,,,,,,,00,0,,*6B
$PTNL,AVR,191517.00,,Yaw,,Tilt,,,,0,,00*3D
$GPGSA,A,3,07,10,16,23,26,27,,,,,,,1.1,0.6,0.9*3C
$GPGSA,A,3,73,80,82,83,,,,,,,,,1.1,0.6,0.9*30
$GPGSA,A,3,13,15,21,26,27,,,,,,,,1.1,0.6,0.9*39
$GPGSA,A,3,08,11,23,27,28,42,43,,,,,,1.1,0.6,0.9*3A
$GPGST,191517.00,5.142,1.271,0.749,53.747,0.964,1.116,2.072*69
$GPGBS,191517.00,3.128,5.376,8.390,16,0.0001,-1.559,0.613*7F
$GPGRS,191517.00,1,1.8,0.5,-1.6,-0.4,1.5,-0.3,,,,,,*61
$GPGRS,191517.00,1,3.2,-1.4,-3.2,-3.3,,,,,,,,*6C
$GPGRS,191517.00,1,0.2,-0.1,-0.4,5.0,-3.7,,,,,,,*41
$GPGRS,191517.00,1,1.4,-1.6,9.8,14.0,-2.7,1.7,-3.0,,,,,*71
$GPGSV,4,1,15,16,65,240,49,08,17,294,31,10,34,170,43,15,14,066,*72
$GPGSV,4,2,15,26,43,196,46,27,51,298,43,18,47,058,35,23,56,115,43*70
$GPGSV,4,3,15,13,04,036,,07,08,324,37,29,07,105,,36,35,170,41*7F
$GPGSV,4,4,15,34,31,208,,49,34,195,37,61,03,257,*45
$GLGSV,3,1,10,83,64,309,38,66,24,042,32,74,25,327,32,80,29,203,43*69
$GLGSV,3,2,10,67,27,100,33,82,52,043,46,73,49,276,46,81,10,069,*67
$GLGSV,3,3,10,68,04,143,,84,09,261,*68
$GAGSV,3,1,09,13,86,011,49,14,35,287,,27,24,164,34,15,32,056,41*68
$GAGSV,3,2,09,23,38,307,,26,36,240,38,21,64,220,46,05,04,020,*62
$GAGSV,3,3,09,03,08,067,*5B
$GBGSV,5,1,20,43,56,075,48,33,16,148,,21,17,039,23,60,11,108,*6C
$GBGSV,5,2,20,23,20,205,39,46,18,318,,27,11,270,36,38,19,037,28*69
$GBGSV,5,3,20,05,22,128,,50,27,062,,14,28,123,34,08,33,039,37*6B
$GBGSV,5,4,20,58,29,305,,13,40,046,34,11,32,077,41,42,33,091,37*65
$GBGSV,5,5,20,37,37,261,34,28,55,280,46,34,10,086,,02,08,106,*6C
$GPGGA,191517.00,,,,,0,00,,,M,,M,,*42
$PTNL,GGK,191517.00,010125,4742.4463070,N,01617.9731059,E,1,22,1.1,EHT669.8345,M*45
$GPGGQ,191517.00,010125,4742.4463070,N,01617.9731059,E,1,22,2.544,626.6235,M*3F
$GPGFA,191517.00,12.082,16.992,1.271,0.749,53.747,2.072,,VVV*3F
$GPLLK,191517.00,010125,,M,,M,1,22,1.3,,M*03
$GNGMP,191517.00,,,,,DAAA,22,0.6,,,,*5A
$GPGMP,191517.00,,,,,,06,,,,2.3,123*70
$GLGMP,191517.00,,,,,,04,,,,,*71
$GAGMP,191517.00,,,,,,05,,,,,*7D
$GBGMP,191517.00,,,,,,07,,,,,*7C
$PSSN,SNC,[0,328535000,2347]*4E
$GPZDA,191522.00,01,01,2025,,*6F
$GPDTM,W84,,00.0000000,N,00.0000000,E,00.0000000,W84*5F
$GPRMC,191522.00,A,4742.4463127,N,01617.9731060,E,0.0,,010125,5.1,E,D*1E
$GPGLL,4742.4463127,N,01617.9731060,E,191522.00,A,D*6F
$GPGGA,191522.00,4742.4463127,N,01617.9731060,E,2,22,0.6,626.6522,M,43.2111,M,3.3,0123*41
$GNGNS,191522.00,4742.4463127,N,01617.9731060,E,DAAA,22,0.6,626.6522,43.2111,,*5D
$GPGNS,191522.00,,,,,,06,,,,3.3,123*77
$GLGNS,191522.00,,,,,,05,,,,,*76
$GAGNS,191522.00,,,,,,04,,,,,*7A
$GBGNS,191522.00,,,,,,07,,,,,*7A
$GPLLQ,191522.00,010125,,M,,M,1,22,2.194,,M*13
$GPVTG,,T,,M,0.00,N,0.01,K,D*27
$GPHDT,,T*1B
$GPTHS,,V*0E
$GPROT,,V*08
$PSSN,HRP,191522.00,010125,,,,,,,00,0,,*6D
$PTNL,AVR,191522.00,,Yaw,,Tilt,,,,0,,00*3B
$GPGSA,A,3,07,10,16,23,26,27,,,,,,,1.1,0.6,0.9*3C
$GPGSA,A,3,66,73,80,82,83,,,,,,,,1.1,0.6,0.9*30
$GPGSA,A,3,13,15,21,26,,,,,,,,,1.1,0.6,0.9*3C
$GPGSA,A,3,08,11,23,27,28,42,43,,,,,,1.1,0.6,0.9*3A
$GPGST,191522.00,4.929,1.086,0.649,53.398,0.831,0.954,1.792*62
$GPGBS,191522.00,3.164,5.377,8.480,16,0.0001,-1.369,0.630*72
$GPGRS,191522.00,1,-0.9,1.2,-1.4,-0.2,0.7,0.0,,,,,,*65
$GPGRS,191522.00,1,-3.9,2.9,-0.6,-3.4,-4.8,,,,,,,*60
$GPGRS,191522.00,1,0.5,0.3,0.0,5.0,,,,,,,,*41
$GPGRS,191522.00,1,0.9,-1.4,8.5,13.6,-2.3,1.0,-3.0,,,,,*77
$GPGSV,4,1,15,16,65,240,49,08,17,294,29,10,34,170,44,15,14,066,*7C
$GPGSV,4,2,15,26,43,196,46,27,51,298,42,18,47,058,32,23,56,115,43*76
$GPGSV,4,3,15,13,04,036,,07,08,324,35,29,07,105,,36,35,170,40*7C
$GPGSV,4,4,15,34,31,208,,49,34,195,37,61,03,257,*45
$GLGSV,3,1,10,83,64,309,37,66,24,042,41,74,25,327,33,80,29,203,42*62
$GLGSV,3,2,10,67,27,100,35,82,52,043,46,73,49,276,46,81,10,069,*61
$GLGSV,3,3,10,68,04,143,,84,09,261,*68
$GAGSV,3,1,09,13,86,012,49,14,35,287,,27,24,164,24,15,32,056,41*6A
$GAGSV,3,2,09,23,38,307,,26,37,240,38,21,64,220,46,05,04,020,*63
$GAGSV,3,3,09,03,08,067,*5B
$GBGSV,5,1,20,43,56,075,48,33,17,148,,21,17,039,26,60,11,108,*68
$GBGSV,5,2,20,23,20,205,37,46,18,318,,27,11,270,36,38,19,037,29*66
$GBGSV,5,3,20,05,22,128,,50,27,062,,14,28,123,33,08,33,039,37*6C
$GBGSV,5,4,20,58,29,305,,13,40,046,34,11,32,077,40,42,33,091,39*6A
$GBGSV,5,5,20,37,37,261,32,28,55,280,45,34,10,086,,02,08,106,*69
$GPGGA,191522.00,,,,,0,00,,,M,,M,,*44
$PTNL,GGK,191522.00,010125,4742.4463127,N,01617.9731060,E,1,22,1.1,EHT669.8632,M*4F
$GPGGQ,191522.00,010125,4742.4463127,N,01617.9731060,E,1,22,2.194,626.6522,M*38
$GPGFA,191522.00,10.328,14.696,1.086,0.649,53.398,1.792,,VVV*36
$GPLLK,191522.00,010125,,M,,M,1,22,1.3,,M*05
$GNGMP,191522.00,,,,,DAAA,22,0.6,,,,*5C
$GPGMP,191522.00,,,,,,06,,,,3.3,123*77
$GLGMP,191522.00,,,,,,05,,,,,*76
$GAGMP,191522.00,,,,,,04,,,,,*7A
$GBGMP,191522.00,,,,,,07,,,,,*7A
$PSSN,SNC,[0,328540000,2347]*4C
$GPZDA,191527.00,01,01,2025,,*6A
$GPDTM,W84,,00.0000000,N,00.0000000,E,00.0000000,W84*5F
$GPRMC,191527.00,A,4742.4463278,N,01617.9730995,E,0.0,,010125,5.1,E,D*10
$GPGLL,4742.4463278,N,01617.9730995,E,191527.00,A,D*61
$GPGGA,191527.00,4742.4463278,N,01617.9730995,E,2,22,0.6,626.6462,M,43.2111,M,3.4,0123*4D
$GNGNS,191527.00,4742.4463278,N,01617.9730995,E,DAAA,22,0.6,626.6462,43.2111,,*56
$GPGNS,191527.00,,,,,,05,,,,3.4,123*76
$GLGNS,191527.00,,,,,,06,,,,,*70
$GAGNS,191527.00,,,,,,05,,,,,*7E
$GBGNS,191527.00,,,,,,06,,,,,*7E
$GPLLQ,191527.00,010125,,M,,M,1,22,2.868,,M*1C
$GPVTG,,T,,M,0.01,N,0.01,K,D*26
$GPHDT,,T*1B
$GPTHS,,V*0E
$GPROT,,V*08
$PSSN,HRP,191527.00,010125,,,,,,,00,0,,*68
$PTNL,AVR,191527.00,,Yaw,,Tilt,,,,0,,00*3E
$GPGSA,A,3,10,16,23,26,27,,,,,,,,1.3,0.6,1.1*30
$GPGSA,A,3,66,67,73,80,82,83,,,,,,,1.3,0.6,1.1*3A
$GPGSA,A,3,13,15,21,26,27,,,,,,,,1.3,0.6,1.1*32
$GPGSA,A,3,08,11,27,28,42,43,,,,,,,1.3,0.6,1.1*30
$GPGST,191527.00,4.573,1.222,0.733,46.987,0.991,1.024,2.489*6A
$GPGBS,191527.00,5.956,5.415,16.453,10,0.0001,1.266,0.742*6B
$GPGRS,191527.00,1,1.3,-0.3,-0.1,0.1,-0.1,,,,,,,*44
$GPGRS,191527.00,1,2.4,3.2,2.8,-0.3,-2.1,-5.6,,,,,,*64
$GPGRS,191527.00,1,1.0,0.7,0.6,4.2,-3.6,,,,,,,*47
$GPGRS,191527.00,1,0.2,-1.3,14.2,-1.9,0.7,-3.6,,,,,,*57
$GPGSV,4,1,15,16,64,240,50,08,17,294,30,10,34,170,45,15,14,066,*7C
$GPGSV,4,2,15,26,43,196,45,27,51,298,42,18,47,058,37,23,56,115,44*77
$GPGSV,4,3,15,13,04,036,,07,08,324,36,29,07,105,,36,35,170,40*7F
$GPGSV,4,4,15,34,31,208,,49,34,195,37,61,03,257,*45
$GLGSV,3,1,10,83,64,309,37,66,24,042,42,74,25,327,35,80,29,203,39*6B
$GLGSV,3,2,10,67,27,100,35,82,52,043,47,73,49,276,47,81,09,069,*69
$GLGSV,3,3,10,68,04,142,,84,09,261,*69
$GAGSV,3,1,09,13,86,012,49,14,35,287,,27,24,164,33,15,32,056,40*6D
$GAGSV,3,2,09,23,38,307,,26,37,240,39,21,64,220,46,05,04,020,*62
$GAGSV,3,3,09,03,08,067,*5B
$GBGSV,5,1,20,43,55,075,47,33,17,148,29,21,17,039,26,60,11,108,*6F
$GBGSV,5,2,20,23,20,205,34,46,18,318,,27,11,270,36,38,19,037,28*64
$GBGSV,5,3,20,05,22,128,,50,27,062,,14,28,123,32,08,33,039,36*6C
$GBGSV,5,4,20,58,29,305,,13,40,046,34,11,32,077,40,42,33,091,40*64
$GBGSV,5,5,20,37,37,261,33,28,55,280,45,34,10,086,,02,08,106,*68
$GPGGA,191527.00,,,,,0,00,,,M,,M,,*41
$PTNL,GGK,191527.00,010125,4742.4463278,N,01617.9730995,E,1,22,1.3,EHT669.8572,M*44
$GPGGQ,191527.00,010125,4742.4463278,N,01617.9730995,E,1,22,2.868,626.6462,M*39
$GPGFA,191527.00,11.615,20.407,1.222,0.733,46.987,2.489,,VVV*3E
$GPLLK,191527.00,010125,,M,,M,1,22,1.5,,M*06
$GNGMP,191527.00,,,,,DAAA,22,0.6,,,,*59
$GPGMP,191527.00,,,,,,05,,,,3.4,123*76
$GLGMP,191527.00,,,,,,06,,,,,*70
$GAGMP,191527.00,,,,,,05,,,,,*7E
$GBGMP,191527.00,,,,,,06,,,,,*7E
$PSSN,SNC,[0,328545000,2347]*49
$GPZDA,191532.00,01,01,2025,,*6E
$GPDTM,W84,,00.0000000,N,00.0000000,E,00.0000000,W84*5F
$GPRMC,191532.00,A,4742.4463434,N,01617.9730985,E,0.0,,010125,5.1,E,D*1B
$GPGLL,4742.4463434,N,01617.9730985,E,191532.00,A,D*6A
$GPGGA,191532.00,4742.4463434,N,01617.9730985,E,2,24,0.6,626.6342,M,43.2111,M,1.3,0123*40
$GNGNS,191532.00,4742.4463434,N,01617.9730985,E,DAAA,24,0.6,626.6342,43.2111,,*5E
$GPGNS,191532.00,,,,,,07,,,,1.3,123*75
$GLGNS,191532.00,,,,,,06,,,,,*74
$GAGNS,191532.00,,,,,,04,,,,,*7B
$GBGNS,191532.00,,,,,,07,,,,,*7B
$GPLLQ,191532.00,010125,,M,,M,1,24,2.072,,M*1D
$GPVTG,,T,,M,0.00,N,0.00,K,D*26
$GPHDT,,T*1B
$GPTHS,,V*0E
$GPROT,,V*08
$PSSN,HRP,191532.00,010125,,,,,,,00,0,,*6C
$PTNL,AVR,191532.00,,Yaw,,Tilt,,,,0,,00*3A
$GPGSA,A,3,07,10,16,18,23,26,27,,,,,,1.2,0.6,1.0*3E
$GPGSA,A,3,66,73,74,80,82,83,,,,,,,1.2,0.6,1.0*38
$GPGSA,A,3,13,15,21,26,,,,,,,,,1.2,0.6,1.0*37
$GPGSA,A,3,08,11,27,28,37,42,43,,,,,,1.2,0.6,1.0*34
$GPGST,191532.00,4.888,0.738,0.659,60.664,0.679,0.720,1.821*65
$GPGBS,191532.00,2.452,2.678,8.321,10,0.0001,1.610,0.758*5C
$GPGRS,191532.00,1,-2.3,1.6,-0.3,0.5,-0.2,0.4,-0.0,,,,,*6B
$GPGRS,191532.00,1,2.5,2.9,-7.1,-0.8,-1.6,-6.2,,,,,,*42
$GPGRS,191532.00,1,0.9,0.6,0.6,5.1,,,,,,,,*4E
$GPGRS,191532.00,1,0.3,-1.1,15.4,-2.5,-1.4,1.7,-3.6,,,,,*5F
$GPGSV,4,1,15,16,64,240,50,08,17,294,31,10,35,170,44,15,14,066,*7D
$GPGSV,4,2,15,26,43,196,44,27,51,298,42,18,47,058,38,23,56,115,45*78
$GPGSV,4,3,15,13,04,036,,07,08,324,35,29,07,105,,36,35,170,40*7C
$GPGSV,4,4,15,34,31,208,,49,34,195,36,61,03,257,*44
$GLGSV,3,1,10,83,64,309,36,66,24,041,41,74,25,327,37,80,29,203,37*66
$GLGSV,3,2,10,67,27,100,33,82,52,044,48,73,49,276,46,81,09,069,*66
$GLGSV,3,3,10,68,04,142,,84,09,261,*69
$GAGSV,3,1,09,13,86,012,50,14,36,287,,27,24,164,26,15,32,056,40*62
$GAGSV,3,2,09,23,38,307,,26,37,240,39,21,64,220,46,05,04,020,*62
$GAGSV,3,3,09,03,08,067,*5B
$GBGSV,5,1,20,43,55,075,46,33,17,148,27,21,17,039,33,60,11,108,*64
$GBGSV,5,2,20,23,20,205,31,46,18,318,,27,11,270,35,38,19,037,28*62
$GBGSV,5,3,20,05,22,128,,50,27,062,,14,28,123,32,08,33,039,36*6C
$GBGSV,5,4,20,58,29,305,,13,40,046,35,11,32,077,39,42,33,091,41*6A
$GBGSV,5,5,20,37,37,261,36,28,55,280,45,34,10,086,,02,08,106,*6D
$GPGGA,191532.00,,,,,0,00,,,M,,M,,*45
$PTNL,GGK,191532.00,010125,4742.4463434,N,01617.9730985,E,1,24,1.2,EHT669.8452,M*4B
$GPGGQ,191532.00,010125,4742.4463434,N,01617.9730985,E,1,24,2.072,626.6342,M*32
$GPGFA,191532.00,7.018,14.931,0.738,0.659,60.664,1.821,,VVV*00
$GPLLK,191532.00,010125,,M,,M,1,24,1.3,,M*02
$GNGMP,191532.00,,,,,DAAA,24,0.6,,,,*5B
$GPGMP,191532.00,,,,,,07,,,,1.3,123*75
$GLGMP,191532.00,,,,,,06,,,,,*74
$GAGMP,191532.00,,,,,,04,,,,,*7B
$GBGMP,191532.00,,,,,,07,,,,,*7B
$PSSN,SNC,[0,328550000,2347]*4D
$GPZDA,191537.00,01,01,2025,,*6B
$GPDTM,W84,,00.0000000,N,00.0000000,E,00.0000000,W84*5F
$GPRMC,191537.00,A,4742.4463499,N,01617.9730867,E,0.0,,010125,5.1,E,D*14
$GPGLL,4742.4463499,N,01617.9730867,E,191537.00,A,D*65
$GPGGA,191537.00,4742.4463499,N,01617.9730867,E,2,22,0.7,626.6494,M,43.2111,M,2.2,0123*46
$GNGNS,191537.00,4742.4463499,N,01617.9730867,E,DAAA,22,0.7,626.6494,43.2111,,*5A
$GPGNS,191537.00,,,,,,06,,,,2.2,123*73
$GLGNS,191537.00,,,,,,06,,,,,*71
$GAGNS,191537.00,,,,,,04,,,,,*7E
$GBGNS,191537.00,,,,,,06,,,,,*7F
$GPLLQ,191537.00,010125,,M,,M,1,22,2.214,,M*1C
$GPVTG,,T,,M,0.01,N,0.01,K,D*26
$GPHDT,,T*1B
$GPTHS,,V*0E
$GPROT,,V*08
$PSSN,HRP,191537.00,010125,,,,,,,00,0,,*69
$PTNL,AVR,191537.00,,Yaw,,Tilt,,,,0,,00*3F
$GPGSA,A,3,10,16,18,23,26,27,,,,,,,1.5,0.7,1.3*3C
$GPGSA,A,3,66,73,74,80,82,83,,,,,,,1.5,0.7,1.3*3D
$GPGSA,A,3,13,15,21,26,,,,,,,,,1.5,0.7,1.3*32
$GPGSA,A,3,08,11,28,37,42,43,,,,,,,1.5,0.7,1.3*34
$GPGST,191537.00,2.885,0.662,0.606,44.113,0.635,0.634,2.024*6C
$GPGBS,191537.00,3.305,3.127,13.312,10,0.0001,1.176,0.772*64
$GPGRS,191537.00,1,1.2,-0.9,-0.1,-0.2,0.8,-0.6,,,,,,*41
$GPGRS,191537.00,1,-1.0,1.8,-4.1,-0.4,-1.4,-6.5,,,,,,*64
$GPGRS,191537.00,1,0.6,-0.0,0.3,4.8,,,,,,,,*62
$GPGRS,191537.00,1,-0.2,-1.3,-2.9,-1.0,2.6,-3.9,,,,,,*6F
$GPGSV,4,1,15,16,64,240,50,08,17,294,31,10,35,170,44,15,14,066,*7D
$GPGSV,4,2,15,26,43,196,44,27,51,298,42,18,47,058,36,23,56,115,44*77
$GPGSV,4,3,15,13,04,036,,07,08,324,35,29,07,105,,36,35,170,40*7C
$GPGSV,4,4,15,34,31,208,,49,34,195,36,61,03,257,*44
$GLGSV,3,1,10,83,64,309,36,66,24,041,42,74,25,327,39,80,29,203,36*6A
$GLGSV,3,2,10,67,27,100,27,82,52,044,49,73,49,276,44,81,09,069,*60
$GLGSV,3,3,10,68,04,142,,84,09,261,*69
$GAGSV,3,1,09,13,86,012,50,14,36,287,,27,24,164,26,15,31,056,39*6F
$GAGSV,3,2,09,23,38,306,,26,37,240,39,21,64,220,46,05,04,020,*63
$GAGSV,3,3,09,03,08,067,*5B
$GBGSV,5,1,20,43,55,075,45,33,17,148,25,21,17,039,30,60,11,108,*66
$GBGSV,5,2,20,23,20,205,26,46,18,318,,27,11,270,33,38,19,037,28*62
$GBGSV,5,3,20,05,22,128,,50,27,062,,14,28,123,32,08,33,039,35*6F
$GBGSV,5,4,20,58,29,305,,13,40,046,35,11,32,077,40,42,33,091,41*64
$GBGSV,5,5,20,37,37,261,37,28,55,281,44,34,10,086,20,02,08,106,*6E
$GPGGA,191537.00,,,,,0,00,,,M,,M,,*40
$PTNL,GGK,191537.00,010125,4742.4463499,N,01617.9730867,E,1,22,1.5,EHT669.8605,M*45
$GPGGQ,191537.00,010125,4742.4463499,N,01617.9730867,E,1,22,2.214,626.6494,M*35
$GPGFA,191537.00,6.294,16.601,0.662,0.606,44.113,2.024,,VVV*07
$GPLLK,191537.00,010125,,M,,M,1,22,1.7,,M*05
$GNGMP,191537.00,,,,,DAAA,22,0.7,,,,*59
$GPGMP,191537.00,,,,,,06,,,,2.2,123*73
$GLGMP,191537.00,,,,,,06,,,,,*71
$GAGMP,191537.00,,,,,,04,,,,,*7E
$GBGMP,191537.00,,,,,,06,,,,,*7F
$PSSN,SNC,[0,328555000,2347]*48
$GPZDA,191542.00,01,01,2025,,*69
$GPDTM,W84,,00.0000000,N,00.0000000,E,00.0000000,W84*5F
$GPRMC,191542.00,A,4742.4463556,N,01617.9730878,E,0.0,,010125,5.1,E,D*1A
$GPGLL,4742.4463556,N,01617.9730878,E,191542.00,A,D*6B
$GPGGA,191542.00,4742.4463556,N,01617.9730878,E,2,22,0.6,626.6832,M,43.2111,M,3.3,0123*49
$GNGNS,191542.00,4742.4463556,N,01617.9730878,E,DAAA,22,0.6,626.6832,43.2111,,*55
$GPGNS,191542.00,,,,,,06,,,,3.3,123*71
$GLGNS,191542.00,,,,,,06,,,,,*73
$GAGNS,191542.00,,,,,,04,,,,,*7C
$GBGNS,191542.00,,,,,,06,,,,,*7D
$GPLLQ,191542.00,010125,,M,,M,1,22,2.359,,M*16
$GPVTG,,T,,M,0.00,N,0.01,K,D*27
$GPHDT,,T*1B
$GPTHS,,V*0E
$GPROT,,V*08
$PSSN,HRP,191542.00,010125,,,,,,,00,0,,*6B
$PTNL,AVR,191542.00,,Yaw,,Tilt,,,,0,,00*3D
$GPGSA,A,3,07,10,16,23,26,27,,,,,,,1.3,0.6,1.1*37
$GPGSA,A,3,66,73,74,80,82,83,,,,,,,1.3,0.6,1.1*38
$GPGSA,A,3,13,15,21,26,,,,,,,,,1.3,0.6,1.1*37
$GPGSA,A,3,08,11,28,37,42,43,,,,,,,1.3,0.6,1.1*31
$GPGST,191542.00,2.572,1.171,0.697,53.414,0.894,1.028,1.926*64
$GPGBS,191542.00,3.210,5.434,8.497,07,0.0001,3.112,1.151*52
$GPGRS,191542.00,1,3.1,1.3,-1.1,-0.8,0.9,-0.4,,,,,,*6C
$GPGRS,191542.00,1,-0.4,2.0,-3.1,-1.2,-1.2,-4.6,,,,,,*6F
$GPGRS,191542.00,1,0.4,-0.7,-0.0,3.7,,,,,,,,*43
$GPGRS,191542.00,1,-0.4,-0.5,-2.9,-0.3,3.8,-3.2,,,,,,*6A
$GPGSV,4,1,15,16,64,240,50,08,17,294,30,10,35,170,44,15,14,066,*7C
$GPGSV,4,2,15,26,43,196,43,27,51,298,43,18,47,058,32,23,56,115,44*75
$GPGSV,4,3,15,13,04,036,,07,08,324,36,29,07,105,,36,35,170,40*7F
$GPGSV,4,4,15,34,31,208,,49,34,195,37,61,03,257,*45
$GLGSV,3,1,10,83,64,309,36,66,24,041,41,74,25,327,40,80,29,203,37*66
$GLGSV,3,2,10,67,27,100,27,82,52,044,49,73,49,276,44,81,09,069,*60
$GLGSV,3,3,10,68,04,142,,84,09,261,*69
$GAGSV,3,1,09,13,86,012,50,14,36,287,,27,24,164,26,15,31,056,38*6E
$GAGSV,3,2,09,23,38,306,,26,37,240,40,21,64,220,46,05,04,020,*6D
$GAGSV,3,3,09,03,08,067,*5B
$GBGSV,5,1,20,43,55,075,45,33,17,148,25,21,17,039,32,60,11,108,*64
$GBGSV,5,2,20,23,20,205,22,46,18,318,,27,11,270,32,38,19,037,27*68
$GBGSV,5,3,20,05,22,128,,50,27,062,,14,28,123,32,08,33,039,35*6F
$GBGSV,5,4,20,58,29,304,,13,40,046,35,11,32,077,40,42,33,091,41*65
$GBGSV,5,5,20,37,37,260,39,28,55,281,44,34,10,086,22,02,08,106,*63
$GPGGA,191542.00,,,,,0,00,,,M,,M,,*42
$PTNL,GGK,191542.00,010125,4742.4463556,N,01617.9730878,E,1,22,1.3,EHT669.8943,M*40
$GPGGQ,191542.00,010125,4742.4463556,N,01617.9730878,E,1,22,2.359,626.6832,M*33
$GPGFA,191542.00,11.135,15.791,1.171,0.697,53.414,1.926,,VVV*30
$GPLLK,191542.00,010125,,M,,M,1,22,1.5,,M*05
$GNGMP,191542.00,,,,,DAAA,22,0.6,,,,*5A
$GPGMP,191542.00,,,,,,06,,,,3.3,123*71
$GLGMP,191542.00,,,,,,06,,,,,*73
$GAGMP,191542.00,,,,,,04,,,,,*7C
$GBGMP,191542.00,,,,,,06,,,,,*7D
$PSSN,SNC,[0,328560000,2347]*4E
$GPZDA,191547.00,01,01,2025,,*6C
$GPDTM,W84,,00.0000000,N,00.0000000,E,00.0000000,W84*5F
$GPRMC,191547.00,A,4742.4463569,N,01617.9730932,E,0.0,,010125,5.1,E,D*1C
$GPGLL,4742.4463569,N,01617.9730932,E,191547.00,A,D*6D
$GPGGA,191547.00,4742.4463569,N,01617.9730932,E,2,21,0.6,626.7474,M,43.2111,M,3.0,0123*40
$GNGNS,191547.00,4742.4463569,N,01617.9730932,E,DAAA,21,0.6,626.7474,43.2111,,*5F
$GPGNS,191547.00,,,,,,06,,,,3.0,123*77
$GLGNS,191547.00,,,,,,06,,,,,*76
$GAGNS,191547.00,,,,,,04,,,,,*79
$GBGNS,191547.00,,,,,,05,,,,,*7B
$GPLLQ,191547.00,010125,,M,,M,1,21,2.786,,M*16
$GPVTG,,T,,M,0.00,N,0.01,K,D*27
$GPHDT,,T*1B
$GPTHS,,V*0E
$GPROT,,V*08
$PSSN,HRP,191547.00,010125,,,,,,,00,0,,*6E
$PTNL,AVR,191547.00,,Yaw,,Tilt,,,,0,,00*38
$GPGSA,A,3,07,10,16,23,26,27,,,,,,,1.3,0.6,1.1*37
$GPGSA,A,3,66,73,74,80,82,83,,,,,,,1.3,0.6,1.1*38
$GPGSA,A,3,13,15,21,26,,,,,,,,,1.3,0.6,1.1*37
$GPGSA,A,3,11,28,37,42,43,,,,,,,,1.3,0.6,1.1*39
$GPGST,191547.00,2.795,1.399,0.823,54.056,1.058,1.232,2.264*64
$GPGBS,191547.00,3.102,5.546,8.344,07,0.0001,3.693,1.124*56
$GPGRS,191547.00,1,3.7,1.9,-1.2,-1.0,0.4,-0.6,,,,,,*60
$GPGRS,191547.00,1,-1.6,3.0,-4.2,-1.4,-1.8,-2.0,,,,,,*60
$GPGRS,191547.00,1,-0.0,-1.5,-0.4,3.4,,,,,,,,*6B
$GPGRS,191547.00,1,-0.3,-3.1,0.0,4.0,-3.2,,,,,,,*46
$GPGSV,4,1,15,16,64,240,50,08,17,294,32,10,35,170,43,15,14,066,*79
$GPGSV,4,2,15,26,43,196,43,27,51,298,43,18,47,058,36,23,56,115,44*71
$GPGSV,4,3,15,13,04,036,,07,08,324,36,29,07,106,,36,35,170,40*7C
$GPGSV,4,4,15,34,31,208,,49,34,195,36,61,03,257,*44
$GLGSV,3,1,10,83,64,309,39,66,24,041,41,74,25,327,40,80,29,203,38*66
$GLGSV,3,2,10,67,27,100,35,82,52,044,49,73,49,276,44,81,09,069,*63
$GLGSV,3,3,10,68,04,142,,84,09,261,*69
$GAGSV,3,1,09,13,86,013,50,14,36,287,,27,24,164,27,15,31,056,37*61
$GAGSV,3,2,09,23,38,306,,26,37,240,40,21,64,220,46,05,04,020,*6D
$GAGSV,3,3,09,03,08,067,*5B
$GBGSV,5,1,20,43,55,076,45,33,17,148,27,21,17,039,33,60,11,108,*64
$GBGSV,5,2,20,23,20,205,23,46,18,318,,27,11,270,29,38,19,037,28*6C
$GBGSV,5,3,20,05,22,128,,50,27,062,,14,28,123,30,08,33,039,34*6C
$GBGSV,5,4,20,58,29,304,,13,40,046,35,11,32,077,41,42,33,091,41*64
$GBGSV,5,5,20,37,37,260,40,28,55,281,45,34,10,086,,02,08,106,*6C
$GPGGA,191547.00,,,,,0,00,,,M,,M,,*47
$PTNL,GGK,191547.00,010125,4742.4463569,N,01617.9730932,E,1,21,1.3,EHT669.9585,M*42
$GPGGQ,191547.00,010125,4742.4463569,N,01617.9730932,E,1,21,2.786,626.7474,M*3F
$GPGFA,191547.00,13.306,18.561,1.399,0.823,54.056,2.264,,VVV*3B
$GPLLK,191547.00,010125,,M,,M,1,21,1.5,,M*03
$GNGMP,191547.00,,,,,DAAA,21,0.6,,,,*5C
$GPGMP,191547.00,,,,,,06,,,,3.0,123*77
$GLGMP,191547.00,,,,,,06,,,,,*76
$GAGMP,191547.00,,,,,,04,,,,,*79
$GBGMP,191547.00,,,,,,05,,,,,*7B
$PSSN,SNC,[0,328565000,2347]*4B
$GPZDA,191552.00,01,01,2025,,*68
$GPDTM,W84,,00.0000000,N,00.0000000,E,00.0000000,W84*5F
$GPRMC,191552.00,A,4742.4463697,N,01617.9731092,E,0.0,,010125,5.1,E,D*18
$GPGLL,4742.4463697,N,01617.9731092,E,191552.00,A,D*69
$GPGGA,191552.00,4742.4463697,N,01617.9731092,E,2,22,0.6,626.8057,M,43.2111,M,1.3,0123*4C
$GNGNS,191552.00,4742.4463697,N,01617.9731092,E,DAAA,22,0.6,626.8057,43.2111,,*52
$GPGNS,191552.00,,,,,,06,,,,1.3,123*72
$GLGNS,191552.00,,,,,,07,,,,,*73
$GAGNS,191552.00,,,,,,04,,,,,*7D
$GBGNS,191552.00,,,,,,05,,,,,*7F
$GPLLQ,191552.00,010125,,M,,M,1,22,3.625,,M*18
$GPVTG,,T,,M,0.01,N,0.01,K,D*26
$GPHDT,,T*1B
$GPTHS,,V*0E
$GPROT,,V*08
$PSSN,HRP,191552.00,010125,,,,,,,00,0,,*6A
$PTNL,AVR,191552.00,,Yaw,,Tilt,,,,0,,00*3C
$GPGSA,A,3,07,10,16,23,26,27,,,,,,,1.2,0.6,1.1*36
$GPGSA,A,3,66,67,73,74,80,82,83,,,,,,1.2,0.6,1.1*38
$GPGSA,A,3,13,15,21,26,,,,,,,,,1.2,0.6,1.1*36
$GPGSA,A,3,11,28,37,42,43,,,,,,,,1.2,0.6,1.1*38
$GPGST,191552.00,5.583,1.538,1.124,53.849,1.283,1.408,3.084*67
$GPGBS,191552.00,3.115,5.207,8.304,07,0.0001,4.341,1.130*5A
$GPGRS,191552.00,1,4.3,2.0,-1.0,-0.6,1.0,-1.4,,,,,,*6E
$GPGRS,191552.00,1,-3.3,17.5,3.6,-6.7,-1.1,-0.9,-0.8,,,,,*70
$GPGRS,191552.00,1,0.4,-2.2,0.1,4.5,,,,,,,,*6C
$GPGRS,191552.00,1,1.2,-3.6,1.4,3.8,-2.7,,,,,,,*66
$GPGSV,4,1,15,16,64,239,50,08,17,294,35,10,35,170,42,15,14,066,*71
$GPGSV,4,2,15,26,43,196,42,27,51,298,43,18,47,058,38,23,57,114,44*7E
$GPGSV,4,3,15,13,04,036,,07,08,324,37,29,07,106,,36,35,170,40*7D
$GPGSV,4,4,15,34,31,208,,49,34,195,36,61,03,257,*44
$GLGSV,3,1,10,83,64,309,39,66,24,041,39,74,25,327,39,80,29,203,39*66
$GLGSV,3,2,10,67,27,100,37,82,52,044,49,73,49,275,46,81,09,069,*60
$GLGSV,3,3,10,68,04,142,,84,09,261,*69
$GAGSV,3,1,09,13,86,013,49,14,36,287,,27,24,164,28,15,31,056,37*66
$GAGSV,3,2,09,23,38,306,,26,37,240,40,21,64,220,46,05,04,020,*6D
$GAGSV,3,3,09,03,08,067,*5B
$GBGSV,5,1,20,43,55,076,45,33,17,148,29,21,17,039,35,60,11,108,*6C
$GBGSV,5,2,20,23,19,205,27,46,18,318,,27,11,270,33,38,19,037,27*66
$GBGSV,5,3,20,05,22,128,,50,27,062,,14,28,122,28,08,33,039,34*64
$GBGSV,5,4,20,58,29,304,,13,40,046,35,11,32,077,41,42,33,091,39*6B
$GBGSV,5,5,20,37,37,260,42,28,55,281,45,34,10,086,,02,08,106,*6E
$GPGGA,191552.00,,,,,0,00,,,M,,M,,*43
$PTNL,GGK,191552.00,010125,4742.4463697,N,01617.9731092,E,1,22,1.2,EHT670.0168,M*42
$GPGGQ,191552.00,010125,4742.4463697,N,01617.9731092,E,1,22,3.625,626.8057,M*3B
$GPGFA,191552.00,14.627,25.287,1.538,1.124,53.849,3.084,,VVV*31
$GPLLK,191552.00,010125,,M,,M,1,22,1.4,,M*05
$GNGMP,191552.00,,,,,DAAA,22,0.6,,,,*5B
$GPGMP,191552.00,,,,,,06,,,,1.3,123*72
$GLGMP,191552.00,,,,,,07,,,,,*73
$GAGMP,191552.00,,,,,,04,,,,,*7D
$GBGMP,191552.00,,,,,,05,,,,,*7F
$PSSN,SNC,[0,328570000,2347]*4F
$GPZDA,191557.00,01,01,2025,,*6D
$GPDTM,W84,,00.0000000,N,00.0000000,E,00.0000000,W84*5F
$GPRMC,191557.00,A,4742.4463858,N,01617.9731111,E,0.0,,010125,5.1,E,D*1A
$GPGLL,4742.4463858,N,01617.9731111,E,191557.00,A,D*6B
$GPGGA,191557.00,4742.4463858,N,01617.9731111,E,2,22,0.7,626.8372,M,43.2111,M,2.2,0123*49
$GNGNS,191557.00,4742.4463858,N,01617.9731111,E,DAAA,22,0.7,626.8372,43.2111,,*55
$GPGNS,191557.00,,,,,,06,,,,2.2,123*75
$GLGNS,191557.00,,,,,,07,,,,,*76
$GAGNS,191557.00,,,,,,04,,,,,*78
$GBGNS,191557.00,,,,,,05,,,,,*7A
$GPLLQ,191557.00,010125,,M,,M,1,22,4.661,,M*1A
$GPVTG,,T,,M,0.00,N,0.00,K,D*26
$GPHDT,,T*1B
$GPTHS,,V*0E
$GPROT,,V*08
$PSSN,HRP,191557.00,010125,,,,,,,00,0,,*6F
$PTNL,AVR,191557.00,,Yaw,,Tilt,,,,0,,00*39
$GPGSA,A,3,10,16,18,23,26,27,,,,,,,1.4,0.7,1.3*3D
$GPGSA,A,3,66,67,73,74,80,82,83,,,,,,1.4,0.7,1.3*3D
$GPGSA,A,3,13,15,21,26,,,,,,,,,1.4,0.7,1.3*33
$GPGSA,A,3,11,28,37,42,43,,,,,,,,1.4,0.7,1.3*3D
$GPGST,191557.00,4.370,1.119,0.938,333.093,1.084,0.977,4.427*5B
$GPGBS,191557.00,3.287,3.120,13.302,18,0.0001,-2.340,0.679*44
$GPGRS,191557.00,1,1.0,-0.9,-2.3,0.6,1.6,-0.0,,,,,,*65
$GPGRS,191557.00,1,-4.1,11.3,4.1,-8.0,0.6,0.2,-0.3,,,,,*7F
$GPGRS,191557.00,1,1.3,-1.6,1.2,4.4,,,,,,,,*6B
$GPGRS,191557.00,1,2.6,-3.0,1.8,2.3,-1.4,,,,,,,*64
$GPGSV,4,1,15,16,64,239,48,08,17,294,35,10,35,170,40,15,14,066,*7A
$GPGSV,4,2,15,26,43,196,39,27,51,298,43,18,47,058,30,23,57,114,44*7A
$GPGSV,4,3,15,13,04,036,,07,08,324,37,29,07,106,,36,35,170,40*7D
$GPGSV,4,4,15,34,31,208,,49,34,195,36,61,03,257,*44
$GLGSV,3,1,10,83,64,309,39,66,24,041,38,74,25,327,37,80,29,203,39*69
$GLGSV,3,2,10,67,27,100,38,82,52,044,49,73,49,275,47,81,09,069,*6E
$GLGSV,3,3,10,68,04,142,,84,09,262,37*6E
$GAGSV,3,1,09,13,86,013,49,14,36,287,,27,24,164,28,15,31,056,35*64
$GAGSV,3,2,09,23,38,306,,26,37,240,39,21,64,220,45,05,04,020,*60
$GAGSV,3,3,09,03,08,067,*5B
$GBGSV,5,1,20,43,55,076,44,33,17,148,31,21,17,039,35,60,11,108,*64
$GBGSV,5,2,20,23,19,205,30,46,18,318,,27,11,270,33,38,19,037,27*60
$GBGSV,5,3,20,05,22,128,,50,27,062,,14,28,122,28,08,33,039,34*64
$GBGSV,5,4,20,58,29,304,,13,40,046,35,11,32,077,41,42,33,091,37*65
$GBGSV,5,5,20,37,37,260,43,28,55,281,46,34,10,086,,02,08,106,*6C
$GPGGA,191557.00,,,,,0,00,,,M,,M,,*46
$PTNL,GGK,191557.00,010125,4742.4463858,N,01617.9731111,E,1,22,1.4,EHT670.0483,M*46
$GPGGQ,191557.00,010125,4742.4463858,N,01617.9731111,E,1,22,4.661,626.8372,M*3A
$GPGFA,191557.00,10.635,36.302,1.119,0.938,333.093,4.427,,VVV*0E
$GPLLK,191557.00,010125,,M,,M,1,22,1.7,,M*03
$GNGMP,191557.00,,,,,DAAA,22,0.7,,,,*5F
$GPGMP,191557.00,,,,,,06,,,,2.2,123*75
$GLGMP,191557.00,,,,,,07,,,,,*76
$GAGMP,191557.00,,,,,,04,,,,,*78
$GBGMP,191557.00,,,,,,05,,,,,*7A
$PSSN,SNC,[0,328575000,2347]*4A
$GPZDA,191602.00,01,01,2025,,*6E
$GPDTM,W84,,00.0000000,N,00.0000000,E,00.0000000,W84*5F
$GPRMC,191602.00,A,4742.4463920,N,01617.9731109,E,0.0,,010125,5.1,E,D*1E
$GPGLL,4742.4463920,N,01617.9731109,E,191602.00,A,D*6F
$GPGGA,191602.00,4742.4463920,N,01617.9731109,E,2,21,0.7,626.8416,M,43.2111,M,3.2,0123*4A
$GNGNS,191602.00,4742.4463920,N,01617.9731109,E,DAAA,21,0.7,626.8416,43.2111,,*57
$GPGNS,191602.00,,,,,,05,,,,3.2,123*74
$GLGNS,191602.00,,,,,,07,,,,,*75
$GAGNS,191602.00,,,,,,03,,,,,*7C
$GBGNS,191602.00,,,,,,06,,,,,*7A
$GPLLQ,191602.00,010125,,M,,M,1,21,4.637,,M*19
$GPVTG,,T,,M,0.01,N,0.02,K,D*25
$GPHDT,,T*1B
$GPTHS,,V*0E
$GPROT,,V*08
$PSSN,HRP,191602.00,010125,,,,,,,00,0,,*6C
$PTNL,AVR,191602.00,,Yaw,,Tilt,,,,0,,00*3A
$GPGSA,A,3,10,16,18,23,27,,,,,,,,1.5,0.7,1.3*38
$GPGSA,A,3,66,67,73,74,80,82,83,,,,,,1.5,0.7,1.3*3C
$GPGSA,A,3,13,21,26,,,,,,,,,,1.5,0.7,1.3*36
$GPGSA,A,3,11,13,28,37,42,43,,,,,,,1.5,0.7,1.3*3E
$GPGST,191602.00,4.319,1.115,0.866,331.076,1.062,0.931,4.417*51
$GPGBS,191602.00,3.689,3.327,13.767,18,0.0001,-2.456,0.691*49
$GPGRS,191602.00,1,0.5,-0.7,-2.5,0.7,1.2,,,,,,,*6C
$GPGRS,191602.00,1,-5.8,8.7,4.5,-9.6,0.8,-0.0,-2.5,,,,,*6E
$GPGRS,191602.00,1,1.4,1.6,1.6,,,,,,,,,*68
$GPGRS,191602.00,1,2.8,1.1,-2.4,1.1,-0.6,-0.3,,,,,,*67
$GPGSV,4,1,15,16,64,239,47,08,17,294,34,10,35,170,38,15,14,066,34*7C
$GPGSV,4,2,15,26,43,196,35,27,51,298,45,18,47,058,41,23,57,114,44*76
$GPGSV,4,3,15,13,04,035,,07,08,324,38,29,07,106,,36,35,170,40*71
$GPGSV,4,4,15,34,31,208,,49,34,195,36,61,03,257,*44
$GLGSV,3,1,10,83,64,309,38,66,24,041,35,74,25,327,37,80,29,203,38*64
$GLGSV,3,2,10,67,27,100,40,82,52,044,49,73,49,275,46,81,09,069,*60
$GLGSV,3,3,10,68,04,142,,84,09,262,37*6E
$GAGSV,3,1,09,13,86,013,49,14,36,287,,27,24,164,29,15,31,056,34*64
$GAGSV,3,2,09,23,38,306,,26,37,240,38,21,64,220,46,05,04,020,*62
$GAGSV,3,3,09,03,08,067,*5B
$GBGSV,5,1,20,43,55,076,45,33,17,147,32,21,17,039,35,60,11,108,*69
$GBGSV,5,2,20,23,19,205,33,46,18,318,,27,11,270,28,38,19,037,27*69
$GBGSV,5,3,20,05,22,128,,50,27,062,,14,28,122,28,08,33,039,33*63
$GBGSV,5,4,20,58,30,304,,13,40,046,35,11,32,077,41,42,33,091,35*6F
$GBGSV,5,5,20,37,37,260,44,28,55,281,47,34,10,086,21,02,08,106,*69
$GPGGA,191602.00,,,,,0,00,,,M,,M,,*45
$PTNL,GGK,191602.00,010125,4742.4463920,N,01617.9731109,E,1,21,1.5,EHT670.0527,M*4F
$GPGGQ,191602.00,010125,4742.4463920,N,01617.9731109,E,1,21,4.637,626.8416,M*3B
$GPGFA,191602.00,10.604,36.216,1.115,0.866,331.076,4.417,,VVV*07
$GPLLK,191602.00,010125,,M,,M,1,21,1.7,,M*03
$GNGMP,191602.00,,,,,DAAA,21,0.7,,,,*5F
$GPGMP,191602.00,,,,,,05,,,,3.2,123*74
$GLGMP,191602.00,,,,,,07,,,,,*75
$GAGMP,191602.00,,,,,,03,,,,,*7C
$GBGMP,191602.00,,,,,,06,,,,,*7A
$PSSN,SNC,[0,328580000,2347]*40
$GPZDA,191607.00,01,01,2025,,*6B
$GPDTM,W84,,00.0000000,N,00.0000000,E,00.0000000,W84*5F
$GPRMC,191607.00,A,4742.4463995,N,01617.9731218,E,0.0,,010125,5.1,E,D*16
$GPGLL,4742.4463995,N,01617.9731218,E,191607.00,A,D*67
$GPGGA,191607.00,4742.4463995,N,01617.9731218,E,2,19,0.7,626.8401,M,43.2111,M,1.2,0123*4D
$GNGNS,191607.00,4742.4463995,N,01617.9731218,E,DAAA,19,0.7,626.8401,43.2111,,*52
$GPGNS,191607.00,,,,,,05,,,,1.2,123*73
$GLGNS,191607.00,,,,,,06,,,,,*71
$GAGNS,191607.00,,,,,,03,,,,,*79
$GBGNS,191607.00,,,,,,05,,,,,*7C
$GPLLQ,191607.00,010125,,M,,M,1,19,4.553,,M*16
$GPVTG,,T,,M,0.01,N,0.01,K,D*26
$GPHDT,,T*1B
$GPTHS,,V*0E
$GPROT,,V*08
$PSSN,HRP,191607.00,010125,,,,,,,00,0,,*69
$PTNL,AVR,191607.00,,Yaw,,Tilt,,,,0,,00*3F
$GPGSA,A,3,10,16,18,23,27,,,,,,,,1.6,0.7,1.4*3C
$GPGSA,A,3,67,73,74,80,82,83,,,,,,,1.6,0.7,1.4*38
$GPGSA,A,3,13,21,26,,,,,,,,,,1.6,0.7,1.4*32
$GPGSA,A,3,11,13,28,37,43,,,,,,,,1.6,0.7,1.4*3C
$GPGST,191607.00,4.628,1.132,0.952,356.827,1.132,0.952,4.306*5B
$GPGBS,191607.00,3.612,3.203,13.495,18,0.0001,-1.671,0.660*4D
$GPGRS,191607.00,1,0.5,-0.7,-1.7,0.8,1.4,,,,,,,*61
$GPGRS,191607.00,1,11.6,3.2,-9.0,0.4,-1.2,-3.0,,,,,,*51
$GPGRS,191607.00,1,1.3,1.2,-2.0,,,,,,,,,*46
$GPGRS,191607.00,1,1.8,0.2,-2.0,0.5,0.1,,,,,,,*48
$GPGSV,4,1,15,16,64,239,47,08,17,294,34,10,35,170,37,15,14,066,33*74
$GPGSV,4,2,15,26,43,195,30,27,51,298,45,18,47,058,42,23,57,114,45*72
$GPGSV,4,3,15,13,04,035,,07,08,324,39,29,07,106,,36,35,170,40*70
$GPGSV,4,4,15,34,31,208,,49,34,195,36,61,03,257,*44
$GLGSV,3,1,10,83,64,310,37,66,24,041,26,74,25,326,35,80,28,203,36*6D
$GLGSV,3,2,10,67,27,100,40,82,52,044,48,73,49,275,44,81,09,069,*63
$GLGSV,3,3,10,68,04,142,,84,09,262,36*6F
$GAGSV,3,1,09,13,86,014,49,14,36,287,,27,24,164,29,15,31,056,34*63
$GAGSV,3,2,09,23,38,306,,26,37,240,38,21,64,220,46,05,04,020,*62
$GAGSV,3,3,09,03,08,067,*5B
$GBGSV,5,1,20,43,55,076,45,33,17,147,33,21,17,039,34,60,11,108,*69
$GBGSV,5,2,20,23,19,205,35,46,18,318,,27,11,270,33,38,19,037,28*6A
$GBGSV,5,3,20,05,22,128,,50,27,062,,14,28,122,26,08,33,039,33*6D
$GBGSV,5,4,20,58,30,304,,13,40,046,35,11,32,077,40,42,33,091,34*6F
$GBGSV,5,5,20,37,37,260,46,28,55,281,47,34,10,086,19,02,08,106,*60
$GPGGA,191607.00,,,,,0,00,,,M,,M,,*40
$PTNL,GGK,191607.00,010125,4742.4463995,N,01617.9731218,E,1,19,1.6,EHT670.0511,M*4A
$GPGGQ,191607.00,010125,4742.4463995,N,01617.9731218,E,1,19,4.553,626.8401,M*3F
$GPGFA,191607.00,10.765,35.308,1.132,0.952,356.827,4.306,,VVV*00
$GPLLK,191607.00,010125,,M,,M,1,19,1.9,,M*03
$GNGMP,191607.00,,,,,DAAA,19,0.7,,,,*51
$GPGMP,191607.00,,,,,,05,,,,1.2,123*73
$GLGMP,191607.00,,,,,,06,,,,,*71
$GAGMP,191607.00,,,,,,03,,,,,*79
$GBGMP,191607.00,,,,,,05,,,,,*7C
$PSSN,SNC,[0,328585000,2347]*45
$GPZDA,191612.00,01,01,2025,,*6F
$GPDTM,W84,,00.0000000,N,00.0000000,E,00.0000000,W84*5F
$GPRMC,191612.00,A,4742.4464023,N,01617.9731320,E,0.0,,010125,5.1,E,D*1B
$GPGLL,4742.4464023,N,01617.9731320,E,191612.00,A,D*6A
$GPGGA,191612.00,4742.4464023,N,01617.9731320,E,2,19,0.8,626.8461,M,43.2111,M,2.2,0123*4A
$GNGNS,191612.00,4742.4464023,N,01617.9731320,E,DAAA,19,0.8,626.8461,43.2111,,*56
$GPGNS,191612.00,,,,,,05,,,,2.2,123*74
$GLGNS,191612.00,,,,,,05,,,,,*76
$GAGNS,191612.00,,,,,,03,,,,,*7D
$GBGNS,191612.00,,,,,,06,,,,,*7B
$GPLLQ,191612.00,010125,,M,,M,1,19,4.198,,M*11
$GPVTG,,T,,M,0.00,N,0.00,K,D*26
$GPHDT,,T*1B
$GPTHS,,V*0E
$GPROT,,V*08
$PSSN,HRP,191612.00,010125,,,,,,,00,0,,*6D
$PTNL,AVR,191612.00,,Yaw,,Tilt,,,,0,,00*3B
$GPGSA,A,3,10,16,18,23,27,,,,,,,,1.6,0.8,1.4*33
$GPGSA,A,3,66,67,73,82,83,,,,,,,,1.6,0.8,1.4*3C
$GPGSA,A,3,13,21,26,,,,,,,,,,1.6,0.8,1.4*3D
$GPGSA,A,3,11,13,23,28,37,43,,,,,,,1.6,0.8,1.4*32
$GPGST,191612.00,6.845,1.058,0.875,356.474,1.057,0.875,3.967*57
$GPGBS,191612.00,3.675,3.313,13.621,66,0.0001,17.981,6.186*5F
$GPGRS,191612.00,1,0.8,-0.4,-1.4,0.4,0.8,,,,,,,*69
$GPGRS,191612.00,1,18.0,14.2,1.3,-2.2,-2.8,,,,,,,*6A
$GPGRS,191612.00,1,0.9,0.4,-2.0,,,,,,,,,*4E
$GPGRS,191612.00,1,0.4,-0.4,-2.7,-2.3,1.2,0.6,,,,,,*6E
$GPGSV,4,1,15,16,64,239,48,08,17,294,34,10,35,170,36,15,14,066,29*71
$GPGSV,4,2,15,26,43,195,32,27,51,298,45,18,47,058,43,23,57,114,45*71
$GPGSV,4,3,15,13,04,035,,07,08,324,38,29,07,106,,36,35,170,41*70
$GPGSV,4,4,15,34,31,208,,49,34,195,37,61,03,257,*45
$GLGSV,3,1,10,83,64,310,36,66,24,041,37,74,25,326,34,80,28,203,34*6F
$GLGSV,3,2,10,67,27,100,38,82,52,044,46,73,49,275,42,81,09,069,*64
$GLGSV,3,3,10,68,04,142,,84,09,261,35*6F
$GAGSV,3,1,09,13,86,014,49,14,36,287,,27,24,164,29,15,31,056,32*65
$GAGSV,3,2,09,23,38,306,,26,37,240,37,21,64,220,46,05,04,020,*6D
$GAGSV,3,3,09,03,08,067,*5B
$GBGSV,5,1,20,43,55,076,45,33,17,147,33,21,17,039,34,60,11,108,*69
$GBGSV,5,2,20,23,19,205,37,46,18,318,,27,11,270,32,38,19,037,27*66
$GBGSV,5,3,20,05,22,128,,50,27,062,,14,28,122,24,08,33,039,32*6E
$GBGSV,5,4,20,58,30,304,,13,40,046,35,11,32,077,40,42,33,091,33*68
$GBGSV,5,5,20,37,37,260,47,28,55,281,48,34,10,086,,02,08,106,*66
$GPGGA,191612.00,,,,,0,00,,,M,,M,,*44
$PTNL,GGK,191612.00,010125,4742.4464023,N,01617.9731320,E,1,19,1.6,EHT670.0571,M*41
$GPGGQ,191612.00,010125,4742.4464023,N,01617.9731320,E,1,19,4.198,626.8461,M*37
$GPGFA,191612.00,10.055,32.530,1.058,0.875,356.474,3.967,,VVV*03
$GPLLK,191612.00,010125,,M,,M,1,19,1.9,,M*07
$GNGMP,191612.00,,,,,DAAA,19,0.8,,,,*5A
$GPGMP,191612.00,,,,,,05,,,,2.2,123*74
$GLGMP,191612.00,,,,,,05,,,,,*76
$GAGMP,191612.00,,,,,,03,,,,,*7D
$GBGMP,191612.00,,,,,,06,,,,,*7B
$PSSN,SNC,[0,328590000,2347]*41
$GPZDA,191617.00,01,01,2025,,*6A
$GPDTM,W84,,00.0000000,N,00.0000000,E,00.0000000,W84*5F
$GPRMC,191617.00,A,4742.4464083,N,01617.9731316,E,0.0,,010125,5.1,E,D*11
$GPGLL,4742.4464083,N,01617.9731316,E,191617.00,A,D*60
$GPGGA,191617.00,4742.4464083,N,01617.9731316,E,2,19,0.7,626.8594,M,43.2111,M,3.3,0123*44
$GNGNS,191617.00,4742.4464083,N,01617.9731316,E,DAAA,19,0.7,626.8594,43.2111,,*58
$GPGNS,191617.00,,,,,,04,,,,3.3,123*70
$GLGNS,191617.00,,,,,,05,,,,,*73
$GAGNS,191617.00,,,,,,03,,,,,*78
$GBGNS,191617.00,,,,,,07,,,,,*7F
$GPLLQ,191617.00,010125,,M,,M,1,19,3.844,,M*1B
$GPVTG,,T,,M,0.01,N,0.01,K,D*26
$GPHDT,,T*1B
$GPTHS,,V*0E
$GPROT,,V*08
$PSSN,HRP,191617.00,010125,,,,,,,00,0,,*68
$PTNL,AVR,191617.00,,Yaw,,Tilt,,,,0,,00*3E
$GPGSA,A,3,08,16,23,27,,,,,,,,,1.3,0.7,1.1*3C
$GPGSA,A,3,66,67,73,82,83,,,,,,,,1.3,0.7,1.1*33
$GPGSA,A,3,13,21,26,,,,,,,,,,1.3,0.7,1.1*32
$GPGSA,A,3,11,13,14,23,28,37,43,,,,,,1.3,0.7,1.1*38
$GPGST,191617.00,7.549,2.240,0.999,24.866,2.075,1.308,2.960*65
$GPGBS,191617.00,10.877,5.286,13.966,66,0.0001,22.127,6.185*62
$GPGRS,191617.00,1,1.0,-0.7,-0.3,0.2,,,,,,,,*40
$GPGRS,191617.00,1,22.1,11.0,1.1,-2.9,-2.7,,,,,,,*66
$GPGRS,191617.00,1,0.5,-0.1,-0.6,,,,,,,,,*6B
$GPGRS,191617.00,1,-0.4,-0.5,6.2,-2.7,-2.5,0.7,1.1,,,,,*69
$GPGSV,4,1,15,16,64,239,48,08,17,294,35,10,35,170,35,15,14,066,*78
$GPGSV,4,2,15,26,43,195,35,27,51,298,45,18,47,058,33,23,57,114,45*71
$GPGSV,4,3,15,13,04,035,,07,08,324,37,29,07,106,,36,35,170,40*7E
$GPGSV,4,4,15,34,31,208,,49,34,195,36,61,03,257,*44
$GLGSV,3,1,10,83,64,310,37,66,24,041,36,74,25,326,34,80,28,203,30*6B
$GLGSV,3,2,10,67,27,100,37,82,51,044,45,73,49,275,40,81,09,069,*69
$GLGSV,3,3,10,68,04,142,,84,09,262,33*6A
$GAGSV,3,1,09,13,86,014,49,14,36,287,,27,24,164,30,15,31,056,32*6D
$GAGSV,3,2,09,23,38,306,,26,37,240,37,21,64,220,46,05,04,020,*6D
$GAGSV,3,3,09,03,08,067,*5B
$GBGSV,5,1,20,43,55,076,46,33,17,147,33,21,17,039,35,60,11,108,*6B
$GBGSV,5,2,20,23,19,205,38,46,18,318,,27,12,270,32,38,19,037,27*6A
$GBGSV,5,3,20,05,22,128,,50,27,062,,14,28,122,37,08,33,039,31*6F
$GBGSV,5,4,20,58,30,304,,13,40,046,35,11,32,077,40,42,33,091,30*6B
$GBGSV,5,5,20,37,37,260,48,28,55,281,48,34,09,086,,02,08,106,*61
$GPGGA,191617.00,,,,,0,00,,,M,,M,,*41
$PTNL,GGK,191617.00,010125,4742.4464083,N,01617.9731316,E,1,19,1.3,EHT670.0705,M*4F
$GPGGQ,191617.00,010125,4742.4464083,N,01617.9731316,E,1,19,3.844,626.8594,M*39
$GPGFA,191617.00,21.298,24.273,2.240,0.999,24.866,2.960,,VVV*34
$GPLLK,191617.00,010125,,M,,M,1,19,1.6,,M*0D
$GNGMP,191617.00,,,,,DAAA,19,0.7,,,,*50
$GPGMP,191617.00,,,,,,04,,,,3.3,123*70
$GLGMP,191617.00,,,,,,05,,,,,*73
$GAGMP,191617.00,,,,,,03,,,,,*78
$GBGMP,191617.00,,,,,,07,,,,,*7F
$PSSN,SNC,[0,328595000,2347]*44
$GPZDA,191622.00,01,01,2025,,*6C
$GPDTM,W84,,00.0000000,N,00.0000000,E,00.0000000,W84*5F
$GPRMC,191622.00,A,4742.4464069,N,01617.9731405,E,0.0,,010125,5.1,E,D*16
$GPGLL,4742.4464069,N,01617.9731405,E,191622.00,A,D*67
$GPGGA,191622.00,4742.4464069,N,01617.9731405,E,2,19,0.8,626.8903,M,43.2111,M,4.0,0123*4A
$GNGNS,191622.00,4742.4464069,N,01617.9731405,E,DAAA,19,0.8,626.8903,43.2111,,*52
$GPGNS,191622.00,,,,,,03,,,,4.0,123*75
$GLGNS,191622.00,,,,,,05,,,,,*75
$GAGNS,191622.00,,,,,,03,,,,,*7E
$GBGNS,191622.00,,,,,,08,,,,,*76
$GPLLQ,191622.00,010125,,M,,M,1,19,11.678,,M*2F
$GPVTG,,T,,M,0.01,N,0.01,K,D*26
$GPHDT,,T*1B
$GPTHS,,V*0E
$GPROT,,V*08
$PSSN,HRP,191622.00,010125,,,,,,,00,0,,*6E
$PTNL,AVR,191622.00,,Yaw,,Tilt,,,,0,,00*38
$GPGSA,A,3,16,23,27,,,,,,,,,,1.4,0.8,1.2*3F
$GPGSA,A,3,66,67,73,82,83,,,,,,,,1.4,0.8,1.2*38
$GPGSA,A,3,13,21,26,,,,,,,,,,1.4,0.8,1.2*39
$GPGSA,A,3,11,13,14,21,23,28,37,43,,,,,1.4,0.8,1.2*30
$GPGST,191622.00,7.921,3.489,1.079,17.910,3.336,1.485,11.092*54
$GPGBS,191622.00,11.054,5.464,41.651,66,0.0001,20.862,6.186*63
$GPGRS,191622.00,1,-0.7,-0.8,0.3,,,,,,,,,*63
$GPGRS,191622.00,1,20.9,7.3,3.0,-3.3,-3.7,,,,,,,*57
$GPGRS,191622.00,1,0.6,0.1,1.2,,,,,,,,,*6B
$GPGRS,191622.00,1,-1.5,-0.8,8.1,12.2,-2.4,-1.5,0.6,1.8,,,,*78
$GPGSV,4,1,15,16,64,239,49,08,17,294,36,10,35,170,32,15,14,066,26*79
$GPGSV,4,2,15,26,43,195,37,27,51,298,46,18,47,058,34,23,57,114,44*76
$GPGSV,4,3,15,13,04,035,,07,08,324,35,29,07,106,,36,35,170,40*7C
$GPGSV,4,4,15,34,31,208,,49,34,195,36,61,03,257,*44
$GLGSV,3,1,10,83,64,310,35,66,24,041,37,74,25,326,35,80,28,203,28*60
$GLGSV,3,2,10,67,27,100,41,82,51,044,44,73,49,275,41,81,09,069,*68
$GLGSV,3,3,10,68,04,142,,84,09,262,30*69
$GAGSV,3,1,09,13,86,014,49,14,36,287,,27,24,164,30,15,31,056,32*6D
$GAGSV,3,2,09,23,38,306,,26,37,240,35,21,64,220,47,05,04,020,*6E
$GAGSV,3,3,09,03,08,067,*5B
$GBGSV,5,1,20,43,55,076,48,33,17,147,34,21,17,039,36,60,11,108,*61
$GBGSV,5,2,20,23,19,205,38,46,18,318,,27,12,270,32,38,19,037,28*65
$GBGSV,5,3,20,05,22,128,,50,27,062,,14,28,122,39,08,33,039,31*61
$GBGSV,5,4,20,58,30,304,,13,40,046,35,11,32,077,39,42,33,091,27*63
$GBGSV,5,5,20,37,37,260,48,28,55,281,49,34,09,086,,02,08,106,*60
$GPGGA,191622.00,,,,,0,00,,,M,,M,,*47
$PTNL,GGK,191622.00,010125,4742.4464069,N,01617.9731405,E,1,19,1.4,EHT670.1014,M*49
$GPGGQ,191622.00,010125,4742.4464069,N,01617.9731405,E,1,19,11.678,626.8903,M*0E
$GPGFA,191622.00,33.169,90.957,3.489,1.079,17.910,11.092,,VVV*0C
$GPLLK,191622.00,010125,,M,,M,1,19,1.7,,M*0A
$GNGMP,191622.00,,,,,DAAA,19,0.8,,,,*59
$GPGMP,191622.00,,,,,,03,,,,4.0,123*75
$GLGMP,191622.00,,,,,,05,,,,,*75
$GAGMP,191622.00,,,,,,03,,,,,*7E
$GBGMP,191622.00,,,,,,08,,,,,*76
$PSSN,SNC,[0,328600000,2347]*4B
$GPZDA,191627.00,01,01,2025,,*69
$GPDTM,W84,,00.0000000,N,00.0000000,E,00.0000000,W84*5F
$GPRMC,191627.00,A,4742.4464028,N,01617.9731404,E,0.0,,010125,5.1,E,D*17
$GPGLL,4742.4464028,N,01617.9731404,E,191627.00,A,D*66
$GPGGA,191627.00,4742.4464028,N,01617.9731404,E,2,19,0.7,626.9035,M,43.2111,M,1.0,0123*4C
$GNGNS,191627.00,4742.4464028,N,01617.9731404,E,DAAA,19,0.7,626.9035,43.2111,,*51
$GPGNS,191627.00,,,,,,03,,,,1.0,123*75
$GLGNS,191627.00,,,,,,05,,,,,*70
$GAGNS,191627.00,,,,,,03,,,,,*7B
$GBGNS,191627.00,,,,,,08,,,,,*73
$GPLLQ,191627.00,010125,,M,,M,1,19,10.216,,M*27
$GPVTG,,T,,M,0.01,N,0.01,K,D*26
$GPHDT,,T*1B
$GPTHS,,V*0E
$GPROT,,V*08
$PSSN,HRP,191627.00,010125,,,,,,,00,0,,*6B
$PTNL,AVR,191627.00,,Yaw,,Tilt,,,,0,,00*3D
$GPGSA,A,3,16,23,27,,,,,,,,,,1.4,0.7,1.2*30
$GPGSA,A,3,67,73,74,82,83,,,,,,,,1.4,0.7,1.2*34
$GPGSA,A,3,13,21,26,,,,,,,,,,1.4,0.7,1.2*36
$GPGSA,A,3,11,13,14,21,23,28,37,43,,,,,1.4,0.7,1.2*3F
$GPGST,191627.00,7.007,3.038,0.937,17.776,2.908,1.287,9.708*61
$GPGBS,191627.00,10.783,5.197,40.936,67,0.0001,13.221,6.156*6D
$GPGRS,191627.00,1,-0.8,-0.3,1.1,,,,,,,,,*61
$GPGRS,191627.00,1,13.2,4.5,-4.7,-2.9,-4.1,,,,,,,*7B
$GPGRS,191627.00,1,0.7,0.4,1.9,,,,,,,,,*61
$GPGRS,191627.00,1,-3.8,-2.0,11.0,13.8,-2.3,-0.5,0.9,2.0,,,,*48
$GPGSV,4,1,15,16,64,239,49,08,17,294,35,10,35,170,31,15,14,066,24*7B
$GPGSV,4,2,15,26,43,195,38,27,51,298,47,18,47,058,35,23,57,114,44*79
$GPGSV,4,3,15,13,04,035,,07,08,324,33,29,07,106,,36,35,170,40*7A
$GPGSV,4,4,15,34,31,208,,49,34,195,36,61,03,257,*44
$GLGSV,3,1,10,83,64,310,36,66,24,041,34,74,25,326,37,80,28,203,28*62
$GLGSV,3,2,10,67,27,100,42,82,51,044,44,73,49,275,44,81,09,069,*6E
$GLGSV,3,3,10,68,04,142,,84,09,262,28*60
$GAGSV,3,1,09,13,86,014,49,14,36,287,,27,24,164,31,15,31,056,30*6E
$GAGSV,3,2,09,23,38,306,,26,37,240,35,21,64,220,47,05,04,020,*6E
$GAGSV,3,3,09,03,08,067,*5B
$GBGSV,5,1,20,43,55,076,48,33,17,147,34,21,17,039,36,60,11,108,*61
$GBGSV,5,2,20,23,19,205,38,46,18,318,,27,12,270,33,38,19,037,27*6B
$GBGSV,5,3,20,05,22,128,,50,27,062,,14,28,122,23,08,33,039,30*6B
$GBGSV,5,4,20,58,30,304,,13,40,046,35,11,32,077,38,42,33,091,28*6D
$GBGSV,5,5,20,37,37,260,48,28,55,281,49,34,09,086,,02,08,106,*60
$GPGGA,191627.00,,,,,0,00,,,M,,M,,*42
$PTNL,GGK,191627.00,010125,4742.4464028,N,01617.9731404,E,1,19,1.4,EHT670.1146,M*4E
$GPGGQ,191627.00,010125,4742.4464028,N,01617.9731404,E,1,19,10.216,626.9035,M*0F
$GPGFA,191627.00,28.889,79.608,3.038,0.937,17.776,9.708,,VVV*39
$GPLLK,191627.00,010125,,M,,M,1,19,1.6,,M*0E
$GNGMP,191627.00,,,,,DAAA,19,0.7,,,,*53
$GPGMP,191627.00,,,,,,03,,,,1.0,123*75
$GLGMP,191627.00,,,,,,05,,,,,*70
$GAGMP,191627.00,,,,,,03,,,,,*7B
$GBGMP,191627.00,,,,,,08,,,,,*73
$PSSN,SNC,[0,328605000,2347]*4E
$GPZDA,191632.00,01,01,2025,,*6D
$GPDTM,W84,,00.0000000,N,00.0000000,E,00.0000000,W84*5F
$GPRMC,191632.00,A,4742.4463981,N,01617.9731407,E,0.0,,010125,5.1,E,D*1D
$GPGLL,4742.4463981,N,01617.9731407,E,191632.00,A,D*6C
$GPGGA,191632.00,4742.4463981,N,01617.9731407,E,2,17,0.8,626.9151,M,43.2111,M,2.0,0123*47
$GNGNS,191632.00,4742.4463981,N,01617.9731407,E,DAAA,17,0.8,626.9151,43.2111,,*59
$GPGNS,191632.00,,,,,,03,,,,2.0,123*72
$GLGNS,191632.00,,,,,,05,,,,,*74
$GAGNS,191632.00,,,,,,03,,,,,*7F
$GBGNS,191632.00,,,,,,06,,,,,*79
$GPLLQ,191632.00,010125,,M,,M,1,17,11.227,,M*2E
$GPVTG,,T,,M,0.01,N,0.01,K,D*26
$GPHDT,,T*1B
