$GPZDA,235942.00,31,12,2024,,*68
$GPDTM,W84,,00.0000000,N,00.0000000,E,00.0000000,W84*5F
$GPRMC,235942.00,A,4742.4458616,N,01617.9735217,E,0.0,,311224,5.1,E,D*12
$GPGLL,4742.4458616,N,01617.9735217,E,235942.00,A,D*63
$GPGGA,235942.00,4742.4458616,N,01617.9735217,E,2,20,0.8,623.5201,M,43.2110,M,2.2,0123*40
$GNGNS,235942.00,4742.4458616,N,01617.9735217,E,DAAA,20,0.8,623.5201,43.2110,,*5C
$GPGNS,235942.00,,,,,,05,,,,2.2,123*73
$GLGNS,235942.00,,,,,,03,,,,,*77
$GAGNS,235942.00,,,,,,07,,,,,*7E
$GBGNS,235942.00,,,,,,05,,,,,*7F
$GPLLQ,235942.00,123124,,M,,M,1,20,2.213,,M*1A
$GPVTG,,T,,M,0.01,N,0.02,K,D*25
$GPHDT,,T*1B
$GPTHS,,V*0E
$GPROT,,V*08
$PSSN,HRP,235942.00,311224,,,,,,,00,0,,*6A
$PTNL,AVR,235942.00,,Yaw,,Tilt,,,,0,,00*3C
$GPGSA,A,3,02,03,08,17,21,,,,,,,,1.4,0.8,1.1*33
$GPGSA,A,3,68,69,85,,,,,,,,,,1.4,0.8,1.1*33
$GPGSA,A,3,02,04,06,09,10,11,36,,,,,,1.4,0.8,1.1*32
$GPGSA,A,3,20,29,30,32,35,,,,,,,,1.4,0.8,1.1*32
$GPGST,235942.00,1.749,1.308,0.654,53.865,0.935,1.124,1.661*6E
$GPGBS,235942.00,6.233,7.791,9.644,08,0.0001,-1.503,0.841*79
$GPGRS,235942.00,1,0.3,0.6,-1.5,-1.2,0.4,,,,,,,*6D
$GPGRS,235942.00,1,1.5,-1.2,-2.5,,,,,,,,,*6B
$GPGRS,235942.00,1,2.1,0.6,3.3,-1.2,1.7,-1.4,-0.3,,,,,*40
$GPGRS,235942.00,1,-0.7,0.1,0.4,0.9,-1.5,,,,,,,*64
$GPGSV,5,1,18,02,85,302,47,08,22,184,40,28,16,099,32,32,36,053,42*70
$GPGSV,5,2,18,22,11,299,,17,27,313,47,03,49,259,46,21,72,125,37*72
$GPGSV,5,3,18,01,80,316,,10,07,068,,19,02,328,,14,08,278,29*7B
$GPGSV,5,4,18,31,06,125,,04,09,197,,36,35,170,41,34,31,208,*7E
$GPGSV,5,5,18,49,34,195,37,61,03,257,*77
$GLGSV,2,1,08,84,81,349,22,70,12,216,,83,29,134,28,85,26,321,42*67
$GLGSV,2,2,08,68,46,039,47,69,78,198,52,77,04,028,,76,08,345,34*6D
$GAGSV,3,1,11,11,83,055,40,02,13,285,36,09,27,185,39,12,31,111,31*67
$GAGSV,3,2,11,19,28,047,25,36,40,302,36,06,46,166,37,10,56,106,45*6F
$GAGSV,3,3,11,04,59,125,36,30,06,334,27,25,04,238,*5D
$GBGSV,5,1,18,29,64,281,47,19,12,226,32,35,11,315,42,39,24,061,34*60
$GBGSV,5,2,18,05,24,128,,48,38,223,,57,20,086,,30,46,161,41*65
$GBGSV,5,3,18,16,24,072,24,09,21,089,,06,23,075,,20,60,217,45*69
$GBGSV,5,4,18,32,58,057,49,02,08,105,,41,05,050,,27,02,143,*6A
$GBGSV,5,5,18,13,06,073,,60,10,109,*6D
$GPGGA,235942.00,,,,,0,00,,,M,,M,,*43
$PTNL,GGK,235942.00,123124,4742.4458616,N,01617.9735217,E,1,20,1.4,EHT666.7312,M*43
$GPGGQ,235942.00,123124,4742.4458616,N,01617.9735217,E,1,20,2.213,623.5201,M*3A
$GPGFA,235942.00,12.432,13.624,1.308,0.654,53.865,1.661,,VVV*3C
$GPLLK,235942.00,123124,,M,,M,1,20,1.6,,M*05
$GNGMP,235942.00,,,,,DAAA,20,0.8,,,,*57
$GPGMP,235942.00,,,,,,05,,,,2.2,123*73
$GLGMP,235942.00,,,,,,03,,,,,*77
$GAGMP,235942.00,,,,,,07,,,,,*7E
$GBGMP,235942.00,,,,,,05,,,,,*7F
$PSSN,SNC,[0,259200000,2347]*48
$GPZDA,235947.00,31,12,2024,,*6D
$GPDTM,W84,,00.0000000,N,00.0000000,E,00.0000000,W84*5F
$GPRMC,235947.00,A,4742.4458544,N,01617.9735143,E,0.0,,311224,5.1,E,D*11
$GPGLL,4742.4458544,N,01617.9735143,E,235947.00,A,D*60
$GPGGA,235947.00,4742.4458544,N,01617.9735143,E,2,21,0.8,623.4972,M,43.2110,M,1.6,0123*4B
$GNGNS,235947.00,4742.4458544,N,01617.9735143,E,DAAA,21,0.8,623.4972,43.2110,,*50
$GPGNS,235947.00,,,,,,05,,,,1.6,123*71
$GLGNS,235947.00,,,,,,04,,,,,*75
$GAGNS,235947.00,,,,,,07,,,,,*7B
$GBGNS,235947.00,,,,,,05,,,,,*7A
$GPLLQ,235947.00,123124,,M,,M,1,21,3.258,,M*10
$GPVTG,,T,,M,0.00,N,0.01,K,D*27
$GPHDT,,T*1B
$GPTHS,,V*0E
$GPROT,,V*08
$PSSN,HRP,235947.00,311224,,,,,,,00,0,,*6F
$PTNL,AVR,235947.00,,Yaw,,Tilt,,,,0,,00*39
$GPGSA,A,3,02,03,08,17,21,,,,,,,,1.4,0.8,1.1*33
$GPGSA,A,3,68,69,84,85,,,,,,,,,1.4,0.8,1.1*3F
$GPGSA,A,3,02,04,06,09,10,11,36,,,,,,1.4,0.8,1.1*32
$GPGSA,A,3,20,29,30,32,35,,,,,,,,1.4,0.8,1.1*32
$GPGST,235947.00,2.079,1.922,0.962,53.200,1.385,1.643,2.449*60
$GPGBS,235947.00,6.041,7.751,9.306,21,0.0001,2.154,0.615*58
$GPGRS,235947.00,1,0.2,0.3,-2.9,-1.3,2.2,,,,,,,*66
$GPGRS,235947.00,1,1.4,-0.9,-1.2,-0.4,,,,,,,,*66
$GPGRS,235947.00,1,4.3,1.7,2.5,-1.8,0.6,-1.2,-1.2,,,,,*4A
$GPGRS,235947.00,1,-1.1,-1.1,0.0,-0.6,-2.2,,,,,,,*68
$GPGSV,5,1,18,02,85,302,46,08,22,184,39,28,16,099,33,32,35,053,43*7C
$GPGSV,5,2,18,22,11,299,,17,27,313,46,03,49,259,46,21,72,125,36*72
$GPGSV,5,3,18,01,80,316,,10,07,068,,19,02,328,,14,08,278,31*72
$GPGSV,5,4,18,31,06,125,,04,09,197,,36,35,170,41,34,31,208,*7E
$GPGSV,5,5,18,49,34,195,37,61,03,257,*77
$GLGSV,2,1,08,84,81,349,37,70,12,216,,83,29,134,26,85,26,321,44*6B
$GLGSV,2,2,08,68,46,039,47,69,78,198,52,77,04,027,,76,08,345,29*6E
$GAGSV,3,1,11,11,83,055,40,02,13,285,37,09,27,185,39,12,31,111,31*66
$GAGSV,3,2,11,19,28,047,20,36,40,302,36,06,46,166,36,10,56,106,44*6A
$GAGSV,3,3,11,04,59,125,39,30,06,334,27,25,04,238,*52
$GBGSV,5,1,18,29,64,281,46,19,12,226,33,35,11,315,42,39,24,061,33*67
$GBGSV,5,2,18,05,24,128,,48,38,223,,57,20,086,,30,46,161,41*65
$GBGSV,5,3,18,16,24,072,25,09,21,089,,06,23,075,,20,60,217,46*6B
$GBGSV,5,4,18,32,58,057,49,02,08,105,,41,05,050,,27,02,143,*6A
$GBGSV,5,5,18,13,06,073,,60,10,109,*6D
$GPGGA,235947.00,,,,,0,00,,,M,,M,,*46
$PTNL,GGK,235947.00,123124,4742.4458544,N,01617.9735143,E,1,21,1.4,EHT666.7082,M*4B
$GPGGQ,235947.00,123124,4742.4458544,N,01617.9735143,E,1,21,3.258,623.4972,M*38
$GPGFA,235947.00,18.270,20.085,1.922,0.962,53.200,2.449,,VVV*34
$GPLLK,235947.00,123124,,M,,M,1,21,1.6,,M*01
$GNGMP,235947.00,,,,,DAAA,21,0.8,,,,*53
$GPGMP,235947.00,,,,,,05,,,,1.6,123*71
$GLGMP,235947.00,,,,,,04,,,,,*75
$GAGMP,235947.00,,,,,,07,,,,,*7B
$GBGMP,235947.00,,,,,,05,,,,,*7A
$PSSN,SNC,[0,259205000,2347]*4D
$GPZDA,235952.00,31,12,2024,,*69
$GPDTM,W84,,00.0000000,N,00.0000000,E,00.0000000,W84*5F
$GPRMC,235952.00,A,4742.4458372,N,01617.9734959,E,0.0,,311224,5.1,E,D*14
$GPGLL,4742.4458372,N,01617.9734959,E,235952.00,A,D*65
$GPGGA,235952.00,4742.4458372,N,01617.9734959,E,2,19,0.7,623.4834,M,43.2110,M,3.0,0123*4D
$GNGNS,235952.00,4742.4458372,N,01617.9734959,E,DAAA,19,0.7,623.4834,43.2110,,*52
$GPGNS,235952.00,,,,,,05,,,,3.0,123*71
$GLGNS,235952.00,,,,,,03,,,,,*76
$GAGNS,235952.00,,,,,,06,,,,,*7E
$GBGNS,235952.00,,,,,,05,,,,,*7E
$GPLLQ,235952.00,123124,,M,,M,1,19,2.922,,M*18
$GPVTG,,T,,M,0.00,N,0.01,K,D*27
$GPHDT,,T*1B
$GPTHS,,V*0E
$GPROT,,V*08
$PSSN,HRP,235952.00,311224,,,,,,,00,0,,*6B
$PTNL,AVR,235952.00,,Yaw,,Tilt,,,,0,,00*3D
$GPGSA,A,3,02,03,08,17,32,,,,,,,,1.3,0.7,1.1*39
$GPGSA,A,3,68,69,85,,,,,,,,,,1.3,0.7,1.1*3B
$GPGSA,A,3,02,04,09,10,11,36,,,,,,,1.3,0.7,1.1*3C
$GPGSA,A,3,20,29,30,32,35,,,,,,,,1.3,0.7,1.1*3A
$GPGST,235952.00,3.106,1.270,1.134,304.918,1.180,1.227,2.375*50
$GPGBS,235952.00,4.072,4.163,8.475,08,0.0001,-2.909,0.865*77
$GPGRS,235952.00,1,0.1,0.5,-2.9,-1.2,2.7,,,,,,,*63
$GPGRS,235952.00,1,1.1,-1.6,0.7,,,,,,,,,*47
$GPGRS,235952.00,1,8.9,0.6,-1.8,-0.5,-1.4,-1.1,,,,,,*4A
$GPGRS,235952.00,1,0.4,-1.3,-0.9,-1.3,-2.1,,,,,,,*64
$GPGSV,5,1,18,02,85,302,46,08,22,184,38,28,16,099,32,32,35,053,43*7C
$GPGSV,5,2,18,22,11,299,,17,27,313,45,03,49,259,46,21,72,125,32*75
$GPGSV,5,3,18,01,80,316,,10,07,068,,19,02,328,,14,08,278,29*7B
$GPGSV,5,4,18,31,06,125,,04,09,197,,36,35,170,41,34,31,208,*7E
$GPGSV,5,5,18,49,34,195,37,61,03,257,*77
$GLGSV,2,1,08,84,81,349,25,70,12,216,,83,29,134,31,85,26,321,45*6F
$GLGSV,2,2,08,68,46,039,47,69,78,198,51,77,04,027,,76,08,345,26*62
$GAGSV,3,1,11,11,83,055,40,02,13,285,36,09,27,185,39,12,31,111,33*65
$GAGSV,3,2,11,19,28,047,33,36,40,302,35,06,46,166,34,10,56,106,43*6E
$GAGSV,3,3,11,04,59,125,40,30,06,334,29,25,04,238,*52
$GBGSV,5,1,18,29,64,281,46,19,12,226,32,35,11,315,41,39,24,061,32*64
$GBGSV,5,2,18,05,24,128,,48,38,223,,57,20,086,,30,46,161,40*64
$GBGSV,5,3,18,16,24,072,26,09,21,089,,06,23,075,,20,60,217,47*69
$GBGSV,5,4,18,32,58,057,49,02,08,105,,41,05,050,,27,02,143,*6A
$GBGSV,5,5,18,13,06,073,,60,10,109,*6D
$GPGGA,235952.00,,,,,0,00,,,M,,M,,*42
$PTNL,GGK,235952.00,123124,4742.4458372,N,01617.9734959,E,1,19,1.3,EHT666.6945,M*41
$GPGGQ,235952.00,123124,4742.4458372,N,01617.9734959,E,1,19,2.922,623.4834,M*32
$GPGFA,235952.00,12.070,19.473,1.270,1.134,304.918,2.375,,VVV*02
$GPLLK,235952.00,123124,,M,,M,1,19,1.5,,M*0D
$GNGMP,235952.00,,,,,DAAA,19,0.7,,,,*53
$GPGMP,235952.00,,,,,,05,,,,3.0,123*71
$GLGMP,235952.00,,,,,,03,,,,,*76
$GAGMP,235952.00,,,,,,06,,,,,*7E
$GBGMP,235952.00,,,,,,05,,,,,*7E
$PSSN,SNC,[0,259210000,2347]*49
$GPZDA,235957.00,31,12,2024,,*6C
$GPDTM,W84,,00.0000000,N,00.0000000,E,00.0000000,W84*5F
$GPRMC,235957.00,A,4742.4458206,N,01617.9734810,E,0.0,,311224,5.1,E,D*1F
$GPGLL,4742.4458206,N,01617.9734810,E,235957.00,A,D*6E
$GPGGA,235957.00,4742.4458206,N,01617.9734810,E,2,18,0.8,623.4713,M,43.2110,M,3.2,0123*40
$GNGNS,235957.00,4742.4458206,N,01617.9734810,E,DAAA,18,0.8,623.4713,43.2110,,*5D
$GPGNS,235957.00,,,,,,05,,,,3.2,123*76
$GLGNS,235957.00,,,,,,04,,,,,*74
$GAGNS,235957.00,,,,,,04,,,,,*79
$GBGNS,235957.00,,,,,,05,,,,,*7B
$GPLLQ,235957.00,123124,,M,,M,1,18,2.447,,M*12
$GPVTG,,T,,M,0.00,N,0.01,K,D*27
$GPHDT,,T*1B
$GPTHS,,V*0E
$GPROT,,V*08
$PSSN,HRP,235957.00,311224,,,,,,,00,0,,*6E
$PTNL,AVR,235957.00,,Yaw,,Tilt,,,,0,,00*38
$GPGSA,A,3,02,03,08,17,32,,,,,,,,1.3,0.8,1.1*36
$GPGSA,A,3,68,69,84,85,,,,,,,,,1.3,0.8,1.1*38
$GPGSA,A,3,04,09,10,11,,,,,,,,,1.3,0.8,1.1*34
$GPGSA,A,3,20,29,30,32,35,,,,,,,,1.3,0.8,1.1*35
$GPGST,235957.00,2.002,1.070,0.935,306.428,0.985,1.024,1.993*5B
$GPGBS,235957.00,4.196,4.134,8.864,32,0.0001,2.549,0.840*5C
$GPGRS,235957.00,1,0.1,0.2,-1.8,-1.2,2.5,,,,,,,*61
$GPGRS,235957.00,1,1.0,-2.1,-2.2,-1.3,,,,,,,,*6C
$GPGRS,235957.00,1,-0.0,-1.3,-1.0,-1.4,,,,,,,,*47
$GPGRS,235957.00,1,-0.2,-0.6,-2.4,-1.9,-2.6,,,,,,,*4C
$GPGSV,5,1,18,02,85,301,46,08,22,184,38,28,16,099,,32,35,053,41*7C
$GPGSV,5,2,18,22,11,299,,17,27,313,45,03,49,259,46,21,72,125,28*7E
$GPGSV,5,3,18,01,80,316,,10,07,068,,19,02,328,,14,08,278,29*7B
$GPGSV,5,4,18,31,06,125,,04,09,197,,36,35,170,41,34,31,208,*7E
$GPGSV,5,5,18,49,34,195,37,61,03,257,*77
$GLGSV,2,1,08,84,81,349,38,70,12,216,,83,29,134,23,85,26,321,45*60
$GLGSV,2,2,08,68,46,039,46,69,78,198,51,77,04,027,,76,08,345,28*6D
$GAGSV,3,1,11,11,83,056,40,02,13,285,35,09,27,185,39,12,31,111,34*62
$GAGSV,3,2,11,19,28,047,34,36,40,302,34,06,46,166,33,10,56,106,41*6D
$GAGSV,3,3,11,04,59,125,41,30,06,334,28,25,04,238,*52
$GBGSV,5,1,18,29,64,281,47,19,12,226,31,35,11,315,41,39,24,061,32*66
$GBGSV,5,2,18,05,24,128,,48,38,223,,57,20,086,,30,46,161,39*6A
$GBGSV,5,3,18,16,24,072,26,09,21,089,26,06,23,075,,20,60,217,46*6C
$GBGSV,5,4,18,32,58,057,49,02,08,105,,41,05,050,,27,02,143,*6A
$GBGSV,5,5,18,13,06,073,,60,10,109,*6D
$GPGGA,235957.00,,,,,0,00,,,M,,M,,*47
$PTNL,GGK,235957.00,123124,4742.4458206,N,01617.9734810,E,1,18,1.3,EHT666.6823,M*4A
$GPGGQ,235957.00,123124,4742.4458206,N,01617.9734810,E,1,18,2.447,623.4713,M*3C
$GPGFA,235957.00,10.174,16.339,1.070,0.935,306.428,1.993,,VVV*01
$GPLLK,235957.00,123124,,M,,M,1,18,1.5,,M*09
$GNGMP,235957.00,,,,,DAAA,18,0.8,,,,*58
$GPGMP,235957.00,,,,,,05,,,,3.2,123*76
$GLGMP,235957.00,,,,,,04,,,,,*74
$GAGMP,235957.00,,,,,,04,,,,,*79
$GBGMP,235957.00,,,,,,05,,,,,*7B
$PSSN,SNC,[0,259215000,2347]*4C
$GPZDA,000002.00,01,01,2025,,*61
$GPDTM,W84,,00.0000000,N,00.0000000,E,00.0000000,W84*5F
$GPRMC,000002.00,A,4742.4458043,N,01617.9734645,E,0.0,,010125,5.1,E,D*1F
$GPGLL,4742.4458043,N,01617.9734645,E,000002.00,A,D*6E
$GPGGA,000002.00,4742.4458043,N,01617.9734645,E,2,17,0.8,623.4613,M,43.2110,M,1.8,0123*46
$GNGNS,000002.00,4742.4458043,N,01617.9734645,E,DAAA,17,0.8,623.4613,43.2110,,*53
$GPGNS,000002.00,,,,,,05,,,,1.8,123*73
$GLGNS,000002.00,,,,,,03,,,,,*7E
$GAGNS,000002.00,,,,,,04,,,,,*74
$GBGNS,000002.00,,,,,,05,,,,,*76
$GPLLQ,000002.00,010125,,M,,M,1,17,2.136,,M*13
$GPVTG,,T,,M,0.00,N,0.01,K,D*27
$GPHDT,,T*1B
$GPTHS,,V*0E
$GPROT,,V*08
$PSSN,HRP,000002.00,010125,,,,,,,00,0,,*63
$PTNL,AVR,000002.00,,Yaw,,Tilt,,,,0,,00*35
$GPGSA,A,3,02,03,08,17,32,,,,,,,,1.4,0.8,1.1*31
$GPGSA,A,3,68,69,85,,,,,,,,,,1.4,0.8,1.1*33
$GPGSA,A,3,04,09,10,11,,,,,,,,,1.4,0.8,1.1*33
$GPGSA,A,3,20,29,30,32,35,,,,,,,,1.4,0.8,1.1*32
$GPGST,000002.00,2.321,0.945,0.809,308.228,0.863,0.895,1.737*56
$GPGBS,000002.00,4.050,4.029,8.460,32,0.0001,2.125,0.854*54
$GPGRS,000002.00,1,0.0,0.2,-1.9,-0.2,2.1,,,,,,,*69
$GPGRS,000002.00,1,0.9,-1.2,-3.2,,,,,,,,,*69
$GPGRS,000002.00,1,-0.5,-0.5,-1.3,-1.4,,,,,,,,*4B
$GPGRS,000002.00,1,-2.3,0.4,-3.3,-1.8,-3.0,,,,,,,*6D
$GPGSV,5,1,18,02,85,301,47,08,22,184,38,28,16,099,,32,35,053,39*72
$GPGSV,5,2,18,22,11,299,,17,27,313,44,03,49,259,47,21,71,125,29*7C
$GPGSV,5,3,18,01,80,316,,10,07,068,,19,02,328,,14,08,278,32*71
$GPGSV,5,4,18,31,06,125,,04,09,197,,36,35,170,41,34,31,208,*7E
$GPGSV,5,5,18,49,34,195,37,61,03,257,*77
$GLGSV,2,1,08,84,81,350,28,70,12,216,,83,29,134,26,85,26,321,44*6D
$GLGSV,2,2,08,68,46,039,47,69,78,198,51,77,04,027,,76,08,345,28*6C
$GAGSV,3,1,11,11,83,056,40,02,13,285,34,09,27,185,39,12,31,111,35*62
$GAGSV,3,2,11,19,28,047,35,06,46,166,32,36,40,302,33,10,56,106,39*65
$GAGSV,3,3,11,04,59,125,40,30,06,334,29,25,04,238,*52
$GBGSV,5,1,18,29,64,281,47,19,12,226,30,35,11,315,40,39,24,061,31*65
$GBGSV,5,2,18,05,24,128,,48,38,223,,57,20,086,,30,46,161,35*66
$GBGSV,5,3,18,16,24,072,26,09,21,089,,06,23,075,,20,60,217,46*68
$GBGSV,5,4,18,32,57,057,49,02,08,105,,41,05,050,,27,02,143,*65
$GBGSV,5,5,18,13,06,073,,60,10,109,*6D
$GPGGA,000002.00,,,,,0,00,,,M,,M,,*4A
$PTNL,GGK,000002.00,010125,4742.4458043,N,01617.9734645,E,1,17,1.4,EHT666.6724,M*4A
$GPGGQ,000002.00,010125,4742.4458043,N,01617.9734645,E,1,17,2.136,623.4613,M*31
$GPGFA,000002.00,8.984,14.243,0.945,0.809,308.228,1.737,,VVV*34
$GPLLK,000002.00,010125,,M,,M,1,17,1.6,,M*08
$GNGMP,000002.00,,,,,DAAA,17,0.8,,,,*5A
$GPGMP,000002.00,,,,,,05,,,,1.8,123*73
$GLGMP,000002.00,,,,,,03,,,,,*7E
$GAGMP,000002.00,,,,,,04,,,,,*74
$GBGMP,000002.00,,,,,,05,,,,,*76
$PSSN,SNC,[0,259220000,2347]*4A
$GPZDA,000007.00,01,01,2025,,*64
$GPDTM,W84,,00.0000000,N,00.0000000,E,00.0000000,W84*5F
$GPRMC,000007.00,A,4742.4457932,N,01617.9734585,E,0.0,,010125,5.1,E,D*15
$GPGLL,4742.4457932,N,01617.9734585,E,000007.00,A,D*64
$GPGGA,000007.00,4742.4457932,N,01617.9734585,E,2,18,0.7,623.4597,M,43.2110,M,2.0,0123*48
$GNGNS,000007.00,4742.4457932,N,01617.9734585,E,DAAA,18,0.7,623.4597,43.2110,,*56
$GPGNS,000007.00,,,,,,05,,,,2.0,123*7D
$GLGNS,000007.00,,,,,,04,,,,,*7C
$GAGNS,000007.00,,,,,,05,,,,,*70
$GBGNS,000007.00,,,,,,04,,,,,*72
$GPLLQ,000007.00,010125,,M,,M,1,18,1.678,,M*17
$GPVTG,,T,,M,0.00,N,0.00,K,D*26
$GPHDT,,T*1B
$GPTHS,,V*0E
$GPROT,,V*08
$PSSN,HRP,000007.00,010125,,,,,,,00,0,,*66
$PTNL,AVR,000007.00,,Yaw,,Tilt,,,,0,,00*30
$GPGSA,A,3,02,03,08,17,32,,,,,,,,1.2,0.7,1.0*39
$GPGSA,A,3,68,69,83,85,,,,,,,,,1.2,0.7,1.0*30
$GPGSA,A,3,04,09,10,11,12,,,,,,,,1.2,0.7,1.0*38
$GPGSA,A,3,20,29,32,35,,,,,,,,,1.2,0.7,1.0*39
$GPGST,000007.00,2.698,0.742,0.648,305.965,0.682,0.711,1.358*56
$GPGBS,000007.00,4.008,4.124,8.452,32,0.0001,1.674,0.877*50
$GPGRS,000007.00,1,-0.5,0.3,-1.0,0.1,1.7,,,,,,,*67
$GPGRS,000007.00,1,0.6,-0.8,-5.4,-4.3,,,,,,,,*6C
$GPGRS,000007.00,1,-1.1,0.1,-1.7,-1.6,2.5,,,,,,,*4D
$GPGRS,000007.00,1,-1.7,0.3,-1.9,-2.8,,,,,,,,*63
$GPGSV,5,1,18,02,86,301,48,08,22,183,39,28,16,099,,32,35,053,36*77
$GPGSV,5,2,18,22,11,299,,17,27,313,44,03,49,259,47,21,71,125,31*75
$GPGSV,5,3,18,01,80,316,,10,07,068,,19,02,328,,14,08,278,34*77
$GPGSV,5,4,18,31,06,125,,04,09,197,,36,35,170,41,34,31,208,*7E
$GPGSV,5,5,18,49,34,195,37,61,03,257,*77
$GLGSV,2,1,08,84,81,350,30,70,12,216,,83,29,134,36,85,26,321,44*65
$GLGSV,2,2,08,68,46,039,47,69,78,198,51,77,04,027,,76,08,345,29*6D
$GAGSV,3,1,11,11,83,056,41,02,13,285,33,09,28,185,38,12,31,111,35*6A
$GAGSV,3,2,11,19,28,047,35,06,46,166,33,36,40,302,31,10,56,106,37*68
$GAGSV,3,3,11,04,59,124,40,30,06,334,30,25,03,238,*5C
$GBGSV,5,1,18,29,64,281,47,19,12,226,28,35,11,315,40,39,24,061,31*6C
$GBGSV,5,2,18,05,24,128,,48,38,223,,57,20,086,,30,46,161,28*6A
$GBGSV,5,3,18,16,24,072,26,09,21,089,26,06,23,075,,20,60,217,47*6D
$GBGSV,5,4,18,32,57,057,48,02,08,105,,41,05,050,,27,02,143,*64
$GBGSV,5,5,18,13,06,073,,60,10,109,*6D
$GPGGA,000007.00,,,,,0,00,,,M,,M,,*4F
$PTNL,GGK,000007.00,010125,4742.4457932,N,01617.9734585,E,1,18,1.2,EHT666.6707,M*48
$GPGGQ,000007.00,010125,4742.4457932,N,01617.9734585,E,1,18,1.678,623.4597,M*35
$GPGFA,000007.00,7.054,11.140,0.742,0.648,305.965,1.358,,VVV*3F
$GPLLK,000007.00,010125,,M,,M,1,18,1.4,,M*00
$GNGMP,000007.00,,,,,DAAA,18,0.7,,,,*5F
$GPGMP,000007.00,,,,,,05,,,,2.0,123*7D
$GLGMP,000007.00,,,,,,04,,,,,*7C
$GAGMP,000007.00,,,,,,05,,,,,*70
$GBGMP,000007.00,,,,,,04,,,,,*72
$PSSN,SNC,[0,259225000,2347]*4F
$GPZDA,000012.00,01,01,2025,,*60
$GPDTM,W84,,00.0000000,N,00.0000000,E,00.0000000,W84*5F
$GPRMC,000012.00,A,4742.4457831,N,01617.9734524,E,0.0,,010125,5.1,E,D*18
$GPGLL,4742.4457831,N,01617.9734524,E,000012.00,A,D*69
$GPGGA,000012.00,4742.4457831,N,01617.9734524,E,2,17,0.7,623.4675,M,43.2110,M,3.0,0123*44
$GNGNS,000012.00,4742.4457831,N,01617.9734524,E,DAAA,17,0.7,623.4675,43.2110,,*5B
$GPGNS,000012.00,,,,,,05,,,,3.0,123*78
$GLGNS,000012.00,,,,,,03,,,,,*7F
$GAGNS,000012.00,,,,,,04,,,,,*75
$GBGNS,000012.00,,,,,,05,,,,,*77
$GPLLQ,000012.00,010125,,M,,M,1,17,2.046,,M*14
$GPVTG,,T,,M,0.01,N,0.01,K,D*26
$GPHDT,,T*1B
$GPTHS,,V*0E
$GPROT,,V*08
$PSSN,HRP,000012.00,010125,,,,,,,00,0,,*62
$PTNL,AVR,000012.00,,Yaw,,Tilt,,,,0,,00*34
$GPGSA,A,3,02,03,08,17,32,,,,,,,,1.3,0.7,1.1*39
$GPGSA,A,3,68,69,85,,,,,,,,,,1.3,0.7,1.1*3B
$GPGSA,A,3,04,09,11,12,,,,,,,,,1.3,0.7,1.1*39
$GPGSA,A,3,20,29,30,32,35,,,,,,,,1.3,0.7,1.1*3A
$GPGST,000012.00,2.255,0.900,0.794,303.246,0.827,0.869,1.657*58
$GPGBS,000012.00,4.095,4.233,8.605,32,0.0001,2.151,0.895*5A
$GPGRS,000012.00,1,-0.8,0.3,-0.9,0.3,2.2,,,,,,,*62
$GPGRS,000012.00,1,0.7,-1.4,-4.3,,,,,,,,,*66
$GPGRS,000012.00,1,-0.8,0.3,-1.9,1.8,,,,,,,,*47
$GPGRS,000012.00,1,-0.2,-0.2,-2.4,-1.9,-2.5,,,,,,,*47
$GPGSV,5,1,18,02,86,301,47,08,22,183,40,28,16,099,,32,35,053,35*75
$GPGSV,5,2,18,22,11,299,,17,27,313,45,03,49,260,48,21,71,125,28*79
$GPGSV,5,3,18,01,80,316,,10,07,068,,19,02,328,33,14,08,278,34*77
$GPGSV,5,4,18,31,06,125,,04,09,197,,36,35,170,41,34,31,208,*7E
$GPGSV,5,5,18,49,34,195,37,61,03,257,*77
$GLGSV,2,1,08,84,81,350,30,70,13,216,,83,29,134,28,85,26,321,43*6C
$GLGSV,2,2,08,68,46,039,48,69,78,198,51,77,04,027,,76,08,345,*69
$GAGSV,3,1,11,11,83,056,40,02,13,285,30,09,28,185,38,12,31,112,35*6B
$GAGSV,3,2,11,19,28,047,35,06,46,166,34,36,40,302,31,10,56,107,34*6D
$GAGSV,3,3,11,04,59,124,39,30,06,334,30,25,03,238,*52
$GBGSV,5,1,18,29,64,281,45,19,12,226,24,35,11,315,40,39,24,061,31*62
$GBGSV,5,2,18,05,24,128,,48,38,223,,57,20,086,,30,46,161,43*67
$GBGSV,5,3,18,16,24,072,26,09,21,089,26,06,23,075,,20,60,217,48*62
$GBGSV,5,4,18,32,57,057,48,02,08,105,,41,05,050,,27,02,143,*64
$GBGSV,5,5,18,13,06,073,,60,10,109,*6D
$GPGGA,000012.00,,,,,0,00,,,M,,M,,*4B
$PTNL,GGK,000012.00,010125,4742.4457831,N,01617.9734524,E,1,17,1.3,EHT666.6785,M*41
$GPGGQ,000012.00,010125,4742.4457831,N,01617.9734524,E,1,17,2.046,623.4675,M*30
$GPGFA,000012.00,8.556,13.584,0.900,0.794,303.246,1.657,,VVV*33
$GPLLK,000012.00,010125,,M,,M,1,17,1.5,,M*0A
$GNGMP,000012.00,,,,,DAAA,17,0.7,,,,*54
$GPGMP,000012.00,,,,,,05,,,,3.0,123*78
$GLGMP,000012.00,,,,,,03,,,,,*7F
$GAGMP,000012.00,,,,,,04,,,,,*75
$GBGMP,000012.00,,,,,,05,,,,,*77
$PSSN,SNC,[0,259230000,2347]*4B
$GPZDA,000017.00,01,01,2025,,*65
$GPDTM,W84,,00.0000000,N,00.0000000,E,00.0000000,W84*5F
$GPRMC,000017.00,A,4742.4457732,N,01617.9734482,E,0.0,,010125,5.1,E,D*1C
$GPGLL,4742.4457732,N,01617.9734482,E,000017.00,A,D*6D
$GPGGA,000017.00,4742.4457732,N,01617.9734482,E,2,15,0.9,623.4804,M,43.2110,M,3.8,0123*4C
$GNGNS,000017.00,4742.4457732,N,01617.9734482,E,DAAA,15,0.9,623.4804,43.2110,,*5B
$GPGNS,000017.00,,,,,,04,,,,3.8,123*74
$GLGNS,000017.00,,,,,,03,,,,,*7A
$GAGNS,000017.00,,,,,,03,,,,,*77
$GBGNS,000017.00,,,,,,05,,,,,*72
$GPLLQ,000017.00,010125,,M,,M,1,15,1.919,,M*13
$GPVTG,,T,,M,0.01,N,0.01,K,D*26
$GPHDT,,T*1B
$GPTHS,,V*0E
$GPROT,,V*08
$PSSN,HRP,000017.00,010125,,,,,,,00,0,,*67
$PTNL,AVR,000017.00,,Yaw,,Tilt,,,,0,,00*31
$GPGSA,A,3,02,03,08,17,,,,,,,,,1.5,0.9,1.2*33
$GPGSA,A,3,68,69,85,,,,,,,,,,1.5,0.9,1.2*30
$GPGSA,A,3,04,09,11,,,,,,,,,,1.5,0.9,1.2*31
$GPGSA,A,3,20,29,30,32,35,,,,,,,,1.5,0.9,1.2*31
$GPGST,000017.00,1.970,1.277,0.565,63.076,0.767,1.167,1.316*6D
$GPGBS,000017.00,6.271,10.909,9.665,02,0.0001,-0.635,0.626*4A
$GPGRS,000017.00,1,-0.6,0.4,-0.5,0.9,,,,,,,,*46
$GPGRS,000017.00,1,1.6,-1.1,-3.6,,,,,,,,,*64
$GPGRS,000017.00,1,0.7,0.7,-1.4,,,,,,,,,*4E
$GPGRS,000017.00,1,-0.1,0.7,-1.8,-0.9,-2.3,,,,,,,*61
$GPGSV,5,1,18,02,86,301,46,08,22,183,41,28,16,099,,32,35,053,36*76
$GPGSV,5,2,18,22,11,299,,17,27,313,45,03,49,260,47,21,71,125,22*7C
$GPGSV,5,3,18,01,80,316,,10,06,068,,19,02,328,33,14,07,278,33*7E
$GPGSV,5,4,18,31,06,125,,04,09,197,,36,35,170,41,34,31,208,*7E
$GPGSV,5,5,18,49,34,195,37,61,03,257,*77
$GLGSV,2,1,08,84,81,350,30,70,13,216,,83,29,134,29,85,26,321,42*6C
$GLGSV,2,2,08,68,46,039,48,69,78,198,51,77,04,027,,76,08,345,30*6A
$GAGSV,3,1,11,11,83,057,40,02,13,285,27,09,28,185,38,12,31,112,35*6C
$GAGSV,3,2,11,19,28,047,36,06,46,166,35,36,40,302,33,10,55,107,32*68
$GAGSV,3,3,11,04,59,124,40,30,06,334,31,25,03,238,*5D
$GBGSV,5,1,18,29,64,281,44,19,12,226,23,35,11,315,40,39,24,060,31*65
$GBGSV,5,2,18,05,24,128,,48,38,223,,57,20,086,,30,46,161,44*60
$GBGSV,5,3,18,16,24,072,27,09,21,089,25,06,23,075,,20,60,217,48*60
$GBGSV,5,4,18,32,57,057,47,02,08,105,,41,05,050,,27,02,143,*6B
$GBGSV,5,5,18,13,06,073,,60,10,109,*6D
$GPGGA,000017.00,,,,,0,00,,,M,,M,,*4E
$PTNL,GGK,000017.00,010125,4742.4457732,N,01617.9734482,E,1,15,1.5,EHT666.6915,M*46
$GPGGQ,000017.00,010125,4742.4457732,N,01617.9734482,E,1,15,1.919,623.4804,M*3E
$GPGFA,000017.00,12.141,10.790,1.277,0.565,63.076,1.316,,VVV*39
$GPLLK,000017.00,010125,,M,,M,1,15,1.8,,M*00
$GNGMP,000017.00,,,,,DAAA,15,0.9,,,,*5D
$GPGMP,000017.00,,,,,,04,,,,3.8,123*74
$GLGMP,000017.00,,,,,,03,,,,,*7A
$GAGMP,000017.00,,,,,,03,,,,,*77
$GBGMP,000017.00,,,,,,05,,,,,*72
$PSSN,SNC,[0,259235000,2347]*4E
$GPZDA,000022.00,01,01,2025,,*63
$GPDTM,W84,,00.0000000,N,00.0000000,E,00.0000000,W84*5F
$GPRMC,000022.00,A,4742.4457701,N,01617.9734564,E,0.0,,010125,5.1,E,D*13
$GPGLL,4742.4457701,N,01617.9734564,E,000022.00,A,D*62
$GPGGA,000022.00,4742.4457701,N,01617.9734564,E,2,15,0.9,623.4846,M,43.2110,M,1.8,0123*47
$GNGNS,000022.00,4742.4457701,N,01617.9734564,E,DAAA,15,0.9,623.4846,43.2110,,*52
$GPGNS,000022.00,,,,,,04,,,,1.8,123*70
$GLGNS,000022.00,,,,,,03,,,,,*7C
$GAGNS,000022.00,,,,,,04,,,,,*76
$GBGNS,000022.00,,,,,,04,,,,,*75
$GPLLQ,000022.00,010125,,M,,M,1,15,1.793,,M*19
$GPVTG,,T,,M,0.01,N,0.02,K,D*25
$GPHDT,,T*1B
$GPTHS,,V*0E
$GPROT,,V*08
$PSSN,HRP,000022.00,010125,,,,,,,00,0,,*61
$PTNL,AVR,000022.00,,Yaw,,Tilt,,,,0,,00*37
$GPGSA,A,3,02,03,08,17,,,,,,,,,1.5,0.9,1.2*33
$GPGSA,A,3,68,69,85,,,,,,,,,,1.5,0.9,1.2*30
$GPGSA,A,3,04,09,11,36,,,,,,,,,1.5,0.9,1.2*34
$GPGSA,A,3,20,29,32,35,,,,,,,,,1.5,0.9,1.2*32
$GPGST,000022.00,2.625,1.186,0.530,62.401,0.723,1.079,1.236*62
$GPGBS,000022.00,6.350,10.273,9.778,36,0.0001,6.293,6.093*6F
$GPGRS,000022.00,1,-0.3,0.3,-0.3,0.6,,,,,,,,*4B
$GPGRS,000022.00,1,1.6,-1.1,-2.0,,,,,,,,,*65
$GPGRS,000022.00,1,0.8,0.9,-1.3,6.3,,,,,,,,*65
$GPGRS,000022.00,1,-0.2,1.4,-0.3,-1.4,,,,,,,,*62
$GPGSV,5,1,18,02,86,301,45,08,22,183,43,28,16,099,,32,35,053,36*77
$GPGSV,5,2,18,22,11,299,,17,27,313,45,03,49,260,47,21,71,125,25*7B
$GPGSV,5,3,18,01,80,317,,10,06,068,,19,02,328,34,14,07,278,31*7A
$GPGSV,5,4,18,31,06,125,,04,09,197,,36,35,170,41,34,31,208,*7E
$GPGSV,5,5,18,49,34,195,37,61,03,257,*77
$GLGSV,2,1,08,84,81,350,30,70,13,216,,83,29,134,27,85,26,321,42*62
$GLGSV,2,2,08,68,46,039,49,69,78,199,50,77,04,027,,76,08,345,31*6A
$GAGSV,3,1,11,11,83,057,39,02,13,285,28,09,28,185,39,12,31,112,35*6C
$GAGSV,3,2,11,19,28,047,36,06,46,166,35,36,40,302,36,10,55,107,32*6D
$GAGSV,3,3,11,04,59,124,41,30,06,334,32,25,03,238,*5F
$GBGSV,5,1,18,29,65,281,42,19,13,226,22,35,11,315,41,39,24,060,32*60
$GBGSV,5,2,18,05,24,128,,48,38,223,,57,20,086,,30,46,161,38*6B
$GBGSV,5,3,18,16,24,072,27,09,21,089,24,06,23,075,,20,60,217,47*6E
$GBGSV,5,4,18,32,57,057,47,02,08,105,,41,05,050,,27,02,143,*6B
$GBGSV,5,5,18,13,06,073,,60,10,109,*6D
$GPGGA,000022.00,,,,,0,00,,,M,,M,,*48
$PTNL,GGK,000022.00,010125,4742.4457701,N,01617.9734564,E,1,15,1.5,EHT666.6956,M*4E
$GPGGQ,000022.00,010125,4742.4457701,N,01617.9734564,E,1,15,1.793,623.4846,M*3B
$GPGFA,000022.00,11.276,10.139,1.186,0.530,62.401,1.236,,VVV*35
$GPLLK,000022.00,010125,,M,,M,1,15,1.8,,M*06
$GNGMP,000022.00,,,,,DAAA,15,0.9,,,,*5B
$GPGMP,000022.00,,,,,,04,,,,1.8,123*70
$GLGMP,000022.00,,,,,,03,,,,,*7C
$GAGMP,000022.00,,,,,,04,,,,,*76
$GBGMP,000022.00,,,,,,04,,,,,*75
$PSSN,SNC,[0,259240000,2347]*4C
$GPZDA,000027.00,01,01,2025,,*66
$GPDTM,W84,,00.0000000,N,00.0000000,E,00.0000000,W84*5F
$GPRMC,000027.00,A,4742.4457680,N,01617.9734573,E,0.0,,010125,5.1,E,D*18
$GPGLL,4742.4457680,N,01617.9734573,E,000027.00,A,D*69
$GPGGA,000027.00,4742.4457680,N,01617.9734573,E,2,16,0.9,623.4851,M,43.2110,M,1.8,0123*49
$GNGNS,000027.00,4742.4457680,N,01617.9734573,E,DAAA,16,0.9,623.4851,43.2110,,*5C
$GPGNS,000027.00,,,,,,04,,,,1.8,123*75
$GLGNS,000027.00,,,,,,03,,,,,*79
$GAGNS,000027.00,,,,,,04,,,,,*73
$GBGNS,000027.00,,,,,,05,,,,,*71
$GPLLQ,000027.00,010125,,M,,M,1,16,2.335,,M*14
$GPVTG,,T,,M,0.01,N,0.02,K,D*25
$GPHDT,,T*1B
$GPTHS,,V*0E
$GPROT,,V*08
$PSSN,HRP,000027.00,010125,,,,,,,00,0,,*64
$PTNL,AVR,000027.00,,Yaw,,Tilt,,,,0,,00*32
$GPGSA,A,3,02,03,08,17,,,,,,,,,1.5,0.9,1.2*33
$GPGSA,A,3,68,69,85,,,,,,,,,,1.5,0.9,1.2*30
$GPGSA,A,3,04,09,11,36,,,,,,,,,1.5,0.9,1.2*34
$GPGSA,A,3,20,29,30,32,35,,,,,,,,1.5,0.9,1.2*31
$GPGST,000027.00,4.432,1.537,0.691,61.722,0.949,1.392,1.616*60
$GPGBS,000027.00,6.154,10.411,9.486,36,0.0001,12.718,6.093*5F
$GPGRS,000027.00,1,-0.1,0.4,-0.3,-0.2,,,,,,,,*62
$GPGRS,000027.00,1,1.1,-1.3,-1.2,,,,,,,,,*64
$GPGRS,000027.00,1,0.3,0.5,-1.3,12.7,,,,,,,,*56
$GPGRS,000027.00,1,0.2,1.3,-1.8,0.1,-1.8,,,,,,,*64
$GPGSV,5,1,18,02,86,301,45,08,22,183,44,28,16,099,,32,35,053,34*72
$GPGSV,5,2,18,22,11,299,,17,27,313,46,03,49,260,47,21,71,125,29*74
$GPGSV,5,3,18,01,80,317,,10,06,068,,19,02,328,34,14,07,278,27*7D
$GPGSV,5,4,18,31,06,125,,04,09,197,,36,35,170,41,34,31,208,*7E
$GPGSV,5,5,18,49,34,195,37,61,03,257,*77
$GLGSV,2,1,08,84,81,350,29,70,13,217,,83,29,134,29,85,26,321,44*63
$GLGSV,2,2,08,68,46,039,49,69,78,199,51,77,04,027,,76,08,345,21*6A
$GAGSV,3,1,11,11,83,057,39,02,13,285,27,09,28,185,40,12,31,112,34*6C
$GAGSV,3,2,11,19,28,047,36,06,46,166,34,36,40,302,37,10,55,107,33*6C
$GAGSV,3,3,11,04,59,124,42,30,06,334,33,25,03,238,*5D
$GBGSV,5,1,18,29,65,281,41,19,13,226,20,35,11,315,41,39,24,060,32*61
$GBGSV,5,2,18,05,24,128,,48,39,223,,57,20,086,,30,46,161,44*61
$GBGSV,5,3,18,16,24,072,28,09,21,089,22,06,23,075,,20,61,217,47*66
$GBGSV,5,4,18,32,57,057,47,02,08,105,,41,05,050,,27,02,143,*6B
$GBGSV,5,5,18,13,06,073,,60,10,109,*6D
$GPGGA,000027.00,,,,,0,00,,,M,,M,,*4D
$PTNL,GGK,000027.00,010125,4742.4457680,N,01617.9734573,E,1,16,1.5,EHT666.6962,M*41
$GPGGQ,000027.00,010125,4742.4457680,N,01617.9734573,E,1,16,2.335,623.4851,M*3E
$GPGFA,000027.00,14.610,13.253,1.537,0.691,61.722,1.616,,VVV*3C
$GPLLK,000027.00,010125,,M,,M,1,16,1.7,,M*0F
$GNGMP,000027.00,,,,,DAAA,16,0.9,,,,*5D
$GPGMP,000027.00,,,,,,04,,,,1.8,123*75
$GLGMP,000027.00,,,,,,03,,,,,*79
$GAGMP,000027.00,,,,,,04,,,,,*73
$GBGMP,000027.00,,,,,,05,,,,,*71
$PSSN,SNC,[0,259245000,2347]*49
$GPZDA,000032.00,01,01,2025,,*62
$GPDTM,W84,,00.0000000,N,00.0000000,E,00.0000000,W84*5F
$GPRMC,000032.00,A,4742.4457677,N,01617.9734624,E,0.0,,010125,5.1,E,D*15
$GPGLL,4742.4457677,N,01617.9734624,E,000032.00,A,D*64
$GPGGA,000032.00,4742.4457677,N,01617.9734624,E,2,17,0.9,623.4783,M,43.2110,M,2.8,0123*46
$GNGNS,000032.00,4742.4457677,N,01617.9734624,E,DAAA,17,0.9,623.4783,43.2110,,*50
$GPGNS,000032.00,,,,,,04,,,,2.8,123*72
$GLGNS,000032.00,,,,,,03,,,,,*7D
$GAGNS,000032.00,,,,,,05,,,,,*76
$GBGNS,000032.00,,,,,,05,,,,,*75
$GPLLQ,000032.00,010125,,M,,M,1,17,2.382,,M*1D
$GPVTG,,T,,M,0.01,N,0.03,K,D*24
$GPHDT,,T*1B
$GPTHS,,V*0E
$GPROT,,V*08
$PSSN,HRP,000032.00,010125,,,,,,,00,0,,*60
$PTNL,AVR,000032.00,,Yaw,,Tilt,,,,0,,00*36
$GPGSA,A,3,02,03,08,17,,,,,,,,,1.4,0.9,1.2*32
$GPGSA,A,3,68,69,85,,,,,,,,,,1.4,0.9,1.2*31
$GPGSA,A,3,04,09,10,11,36,,,,,,,,1.4,0.9,1.2*34
$GPGSA,A,3,20,29,30,32,35,,,,,,,,1.4,0.9,1.2*30
$GPGST,000032.00,4.368,1.573,0.702,62.305,0.960,1.431,1.645*66
$GPGBS,000032.00,6.195,10.403,9.540,36,0.0001,13.062,6.092*54
$GPGRS,000032.00,1,-0.0,0.6,-0.5,-0.4,,,,,,,,*65
$GPGRS,000032.00,1,1.6,-1.1,-0.3,,,,,,,,,*65
$GPGRS,000032.00,1,0.1,0.0,0.2,-1.7,13.1,,,,,,,*7A
$GPGRS,000032.00,1,1.0,0.9,-2.1,0.5,-2.4,,,,,,,*69
$GPGSV,5,1,18,02,86,301,45,08,22,183,44,28,16,099,,32,35,053,29*7E
$GPGSV,5,2,18,22,11,299,,17,27,313,46,03,49,260,47,21,71,125,33*7F
$GPGSV,5,3,18,01,81,317,,10,06,068,,19,02,328,34,14,07,278,*79
$GPGSV,5,4,18,31,06,125,,04,09,197,,36,35,170,41,34,31,208,*7E
$GPGSV,5,5,18,49,34,195,37,61,03,257,*77
$GLGSV,2,1,08,84,81,350,30,70,13,217,,83,29,134,27,85,26,321,45*64
$GLGSV,2,2,08,68,46,039,50,69,78,199,51,77,04,027,,76,08,345,30*62
$GAGSV,3,1,11,11,83,057,38,02,13,285,28,09,28,185,41,12,31,112,32*65
$GAGSV,3,2,11,19,28,047,21,06,47,166,33,36,40,302,38,10,55,107,36*66
$GAGSV,3,3,11,04,59,124,43,30,06,334,31,25,03,238,*5E
$GBGSV,5,1,18,29,65,281,40,19,13,226,,35,11,315,41,39,25,060,32*63
$GBGSV,5,2,18,05,24,128,,48,39,223,,57,20,086,,30,46,161,44*61
$GBGSV,5,3,18,16,24,071,28,09,21,089,21,06,23,075,,20,61,217,47*66
$GBGSV,5,4,18,32,57,057,47,02,08,105,,41,05,050,,27,02,143,*6B
$GBGSV,5,5,18,13,06,073,,60,10,109,*6D
$GPGGA,000032.00,,,,,0,00,,,M,,M,,*49
$PTNL,GGK,000032.00,010125,4742.4457677,N,01617.9734624,E,1,17,1.4,EHT666.6894,M*44
$GPGGQ,000032.00,010125,4742.4457677,N,01617.9734624,E,1,17,2.382,623.4783,M*3E
$GPGFA,000032.00,14.960,13.486,1.573,0.702,62.305,1.645,,VVV*31
$GPLLK,000032.00,010125,,M,,M,1,17,1.7,,M*0A
$GNGMP,000032.00,,,,,DAAA,17,0.9,,,,*58
$GPGMP,000032.00,,,,,,04,,,,2.8,123*72
$GLGMP,000032.00,,,,,,03,,,,,*7D
$GAGMP,000032.00,,,,,,05,,,,,*76
$GBGMP,000032.00,,,,,,05,,,,,*75
$PSSN,SNC,[0,259250000,2347]*4D
$GPZDA,000037.00,01,01,2025,,*67
$GPDTM,W84,,00.0000000,N,00.0000000,E,00.0000000,W84*5F
$GPRMC,000037.00,A,4742.4457644,N,01617.9734640,E,0.0,,010125,5.1,E,D*12
$GPGLL,4742.4457644,N,01617.9734640,E,000037.00,A,D*63
$GPGGA,000037.00,4742.4457644,N,01617.9734640,E,2,18,0.9,623.4779,M,43.2110,M,3.6,0123*44
$GNGNS,000037.00,4742.4457644,N,01617.9734640,E,DAAA,18,0.9,623.4779,43.2110,,*5D
$GPGNS,000037.00,,,,,,05,,,,3.6,123*79
$GLGNS,000037.00,,,,,,03,,,,,*78
$GAGNS,000037.00,,,,,,05,,,,,*73
$GBGNS,000037.00,,,,,,05,,,,,*70
$GPLLQ,000037.00,010125,,M,,M,1,18,2.124,,M*19
$GPVTG,,T,,M,0.00,N,0.01,K,D*27
$GPHDT,,T*1B
$GPTHS,,V*0E
$GPROT,,V*08
$PSSN,HRP,000037.00,010125,,,,,,,00,0,,*65
$PTNL,AVR,000037.00,,Yaw,,Tilt,,,,0,,00*33
$GPGSA,A,3,02,03,08,17,21,,,,,,,,1.4,0.9,1.2*31
$GPGSA,A,3,68,69,85,,,,,,,,,,1.4,0.9,1.2*31
$GPGSA,A,3,04,09,10,11,36,,,,,,,,1.4,0.9,1.2*34
$GPGSA,A,3,20,29,30,32,35,,,,,,,,1.4,0.9,1.2*30
$GPGST,000037.00,3.378,1.334,0.627,59.262,0.869,1.191,1.529*60
$GPGBS,000037.00,6.263,9.200,9.606,36,0.0001,9.207,6.091*5E
$GPGRS,000037.00,1,0.1,0.7,-0.6,-0.6,-0.7,,,,,,,*48
$GPGRS,000037.00,1,3.3,-1.4,-1.4,,,,,,,,,*64
$GPGRS,000037.00,1,0.0,-0.1,-2.9,-1.4,9.2,,,,,,,*4D
$GPGRS,000037.00,1,0.6,1.8,0.6,1.0,-3.0,,,,,,,*42
$GPGSV,5,1,18,02,86,300,46,08,22,183,44,28,16,099,,32,35,053,37*73
$GPGSV,5,2,18,22,11,299,,17,27,313,46,03,49,260,48,21,71,125,36*75
$GPGSV,5,3,18,01,81,317,,10,06,068,,19,02,328,35,14,07,278,24*7E
$GPGSV,5,4,18,31,06,125,,04,09,197,,36,35,170,41,34,31,208,*7E
$GPGSV,5,5,18,49,34,195,37,61,03,257,*77
$GLGSV,2,1,08,84,81,350,32,70,13,217,,83,29,134,23,85,26,321,46*61
$GLGSV,2,2,08,68,46,039,50,69,78,199,51,77,04,027,,76,08,345,31*63
$GAGSV,3,1,11,11,83,058,39,02,13,285,32,09,28,185,41,12,31,112,30*62
$GAGSV,3,2,11,19,28,047,22,06,47,166,32,36,40,302,39,10,55,107,47*63
$GAGSV,3,3,11,04,59,124,43,30,06,334,31,25,03,238,*5E
$GBGSV,5,1,19,29,65,281,39,19,13,226,,35,11,315,40,39,25,060,33*6C
$GBGSV,5,2,19,05,24,128,,48,39,223,,57,20,086,,30,46,161,45*61
$GBGSV,5,3,19,16,24,071,27,09,22,089,,06,23,075,,20,61,218,47*67
$GBGSV,5,4,19,32,57,057,47,02,08,105,,27,01,143,,41,05,050,*69
$GBGSV,5,5,19,25,00,039,,13,06,073,,60,10,109,*51
$GPGGA,000037.00,,,,,0,00,,,M,,M,,*4C
$PTNL,GGK,000037.00,010125,4742.4457644,N,01617.9734640,E,1,18,1.4,EHT666.6890,M*48
$GPGGQ,000037.00,010125,4742.4457644,N,01617.9734640,E,1,18,2.124,623.4779,M*3D
$GPGFA,000037.00,12.686,12.538,1.334,0.627,59.262,1.529,,VVV*32
$GPLLK,000037.00,010125,,M,,M,1,18,1.7,,M*00
$GNGMP,000037.00,,,,,DAAA,18,0.9,,,,*52
$GPGMP,000037.00,,,,,,05,,,,3.6,123*79
$GLGMP,000037.00,,,,,,03,,,,,*78
$GAGMP,000037.00,,,,,,05,,,,,*73
$GBGMP,000037.00,,,,,,05,,,,,*70
$PSSN,SNC,[0,259255000,2347]*48
$GPZDA,000042.00,01,01,2025,,*65
$GPDTM,W84,,00.0000000,N,00.0000000,E,00.0000000,W84*5F
$GPRMC,000042.00,A,4742.4457638,N,01617.9734732,E,0.0,,010125,5.1,E,D*1F
$GPGLL,4742.4457638,N,01617.9734732,E,000042.00,A,D*6E
$GPGGA,000042.00,4742.4457638,N,01617.9734732,E,2,18,0.9,623.4737,M,43.2110,M,2.2,0123*46
$GNGNS,000042.00,4742.4457638,N,01617.9734732,E,DAAA,18,0.9,623.4737,43.2110,,*5A
$GPGNS,000042.00,,,,,,05,,,,2.2,123*7E
$GLGNS,000042.00,,,,,,03,,,,,*7A
$GAGNS,000042.00,,,,,,05,,,,,*71
$GBGNS,000042.00,,,,,,05,,,,,*72
$GPLLQ,000042.00,010125,,M,,M,1,18,3.339,,M*14
$GPVTG,,T,,M,0.00,N,0.01,K,D*27
$GPHDT,,T*1B
$GPTHS,,V*0E
$GPROT,,V*08
$PSSN,HRP,000042.00,010125,,,,,,,00,0,,*67
$PTNL,AVR,000042.00,,Yaw,,Tilt,,,,0,,00*31
$GPGSA,A,3,02,03,08,17,21,,,,,,,,1.4,0.9,1.2*31
$GPGSA,A,3,68,69,85,,,,,,,,,,1.4,0.9,1.2*31
$GPGSA,A,3,04,09,10,11,36,,,,,,,,1.4,0.9,1.2*34
$GPGSA,A,3,20,29,30,32,35,,,,,,,,1.4,0.9,1.2*30
$GPGST,000042.00,6.319,1.977,0.980,52.726,1.429,1.682,2.506*63
$GPGBS,000042.00,6.337,7.733,9.699,10,0.0001,19.222,6.066*6B
$GPGRS,000042.00,1,-0.1,1.3,-0.6,-0.7,-0.7,,,,,,,*63
$GPGRS,000042.00,1,4.1,-2.1,-1.3,,,,,,,,,*62
$GPGRS,000042.00,1,0.1,0.4,19.2,-1.4,2.6,,,,,,,*75
$GPGRS,000042.00,1,-0.0,4.4,2.6,1.6,-2.5,,,,,,,*62
$GPGSV,5,1,18,02,86,300,46,08,22,183,44,28,16,099,,32,35,053,25*70
$GPGSV,5,2,18,22,11,299,,17,27,313,46,03,49,260,48,21,71,125,38*7B
$GPGSV,5,3,18,01,81,317,,10,06,068,,19,02,328,34,14,07,278,24*7F
$GPGSV,5,4,18,31,06,125,,04,09,197,,36,35,170,41,34,31,208,*7E
$GPGSV,5,5,18,49,34,195,37,61,03,257,*77
$GLGSV,2,1,08,84,81,350,33,70,13,217,,83,29,134,20,85,26,321,46*63
$GLGSV,2,2,08,68,46,039,50,69,78,199,51,77,04,027,,76,08,345,32*60
$GAGSV,3,1,11,11,83,058,39,02,13,285,34,09,28,185,42,12,31,112,26*60
$GAGSV,3,2,11,19,28,047,25,06,47,166,31,36,40,302,40,10,55,107,38*61
$GAGSV,3,3,11,04,59,124,43,30,06,334,31,25,03,238,*5E
$GBGSV,5,1,19,29,65,281,38,19,13,226,,35,11,315,40,39,25,060,33*6D
$GBGSV,5,2,19,05,24,128,,48,39,223,,57,20,086,,30,46,161,46*62
$GBGSV,5,3,19,16,24,071,28,09,22,089,,06,23,075,,20,61,218,47*68
$GBGSV,5,4,19,32,57,057,48,02,08,105,,27,01,143,,41,05,050,*66
$GBGSV,5,5,19,25,00,039,,13,06,073,,60,10,109,*51
$GPGGA,000042.00,,,,,0,00,,,M,,M,,*4E
$PTNL,GGK,000042.00,010125,4742.4457638,N,01617.9734732,E,1,18,1.4,EHT666.6847,M*4F
$GPGGQ,000042.00,010125,4742.4457638,N,01617.9734732,E,1,18,3.339,623.4737,M*35
$GPGFA,000042.00,18.799,20.547,1.977,0.980,52.726,2.506,,VVV*33
$GPLLK,000042.00,010125,,M,,M,1,18,1.7,,M*02
$GNGMP,000042.00,,,,,DAAA,18,0.9,,,,*50
$GPGMP,000042.00,,,,,,05,,,,2.2,123*7E
$GLGMP,000042.00,,,,,,03,,,,,*7A
$GAGMP,000042.00,,,,,,05,,,,,*71
$GBGMP,000042.00,,,,,,05,,,,,*72
$PSSN,SNC,[0,259260000,2347]*4E
$GPZDA,000047.00,01,01,2025,,*60
$GPDTM,W84,,00.0000000,N,00.0000000,E,00.0000000,W84*5F
$GPRMC,000047.00,A,4742.4457622,N,01617.9734786,E,0.0,,010125,5.1,E,D*1E
$GPGLL,4742.4457622,N,01617.9734786,E,000047.00,A,D*6F
$GPGGA,000047.00,4742.4457622,N,01617.9734786,E,2,19,0.8,623.4604,M,43.2110,M,1.6,0123*41
$GNGNS,000047.00,4742.4457622,N,01617.9734786,E,DAAA,19,0.8,623.4604,43.2110,,*5A
$GPGNS,000047.00,,,,,,05,,,,1.6,123*7C
$GLGNS,000047.00,,,,,,04,,,,,*78
$GAGNS,000047.00,,,,,,05,,,,,*74
$GBGNS,000047.00,,,,,,05,,,,,*77
$GPLLQ,000047.00,010125,,M,,M,1,19,2.531,,M*1F
$GPVTG,,T,,M,0.01,N,0.02,K,D*25
$GPHDT,,T*1B
$GPTHS,,V*0E
$GPROT,,V*08
$PSSN,HRP,000047.00,010125,,,,,,,00,0,,*62
$PTNL,AVR,000047.00,,Yaw,,Tilt,,,,0,,00*34
$GPGSA,A,3,02,03,08,17,21,,,,,,,,1.3,0.8,1.0*35
$GPGSA,A,3,68,69,76,85,,,,,,,,,1.3,0.8,1.0*34
$GPGSA,A,3,04,09,10,11,36,,,,,,,,1.3,0.8,1.0*30
$GPGSA,A,3,20,29,30,32,35,,,,,,,,1.3,0.8,1.0*34
$GPGST,000047.00,4.822,1.493,0.755,52.420,1.090,1.270,1.899*64
$GPGBS,000047.00,6.013,7.621,9.108,10,0.0001,12.311,6.067*6D
$GPGRS,000047.00,1,-0.1,0.9,-0.8,-1.1,-0.1,,,,,,,*62
$GPGRS,000047.00,1,3.8,-3.0,-2.0,-2.3,,,,,,,,*6B
$GPGRS,000047.00,1,0.1,1.0,12.3,-1.5,-3.0,,,,,,,*54
$GPGRS,000047.00,1,-0.1,7.4,4.1,1.5,-2.4,,,,,,,*66
$GPGSV,5,1,18,02,86,300,45,08,22,183,43,28,16,099,,32,35,053,26*77
$GPGSV,5,2,18,22,11,299,,17,27,313,45,03,49,260,48,21,71,125,40*77
$GPGSV,5,3,18,01,81,317,,10,06,068,,19,02,328,33,14,07,278,24*78
$GPGSV,5,4,18,31,06,125,,04,09,197,,36,35,170,41,34,31,208,*7E
$GPGSV,5,5,18,49,34,195,37,61,03,257,*77
$GLGSV,2,1,08,84,81,351,32,70,13,217,,83,28,134,31,85,26,321,45*61
$GLGSV,2,2,08,68,46,039,50,69,78,199,51,77,04,027,,76,08,345,37*65
$GAGSV,3,1,11,11,83,058,39,02,13,285,35,09,28,185,42,12,31,112,36*60
$GAGSV,3,2,11,19,28,047,27,06,47,166,29,36,40,302,40,10,55,107,37*65
$GAGSV,3,3,11,04,60,124,42,30,06,334,30,25,03,238,*54
$GBGSV,5,1,19,29,65,280,35,19,13,226,,35,11,315,40,39,25,060,33*61
$GBGSV,5,2,19,05,24,128,,48,39,223,,57,20,086,,30,46,161,46*62
$GBGSV,5,3,19,16,24,071,27,09,22,089,25,06,23,075,,20,61,218,48*6F
$GBGSV,5,4,19,32,57,057,49,02,08,105,,27,01,143,,41,05,050,*67
$GBGSV,5,5,19,25,00,039,,13,06,073,,60,10,109,*51
$GPGGA,000047.00,,,,,0,00,,,M,,M,,*4B
$PTNL,GGK,000047.00,010125,4742.4457622,N,01617.9734786,E,1,19,1.3,EHT666.6715,M*40
$GPGGQ,000047.00,010125,4742.4457622,N,01617.9734786,E,1,19,2.531,623.4604,M*3B
$GPGFA,000047.00,14.195,15.569,1.493,0.755,52.420,1.899,,VVV*36
$GPLLK,000047.00,010125,,M,,M,1,19,1.5,,M*04
$GNGMP,000047.00,,,,,DAAA,19,0.8,,,,*55
$GPGMP,000047.00,,,,,,05,,,,1.6,123*7C
$GLGMP,000047.00,,,,,,04,,,,,*78
$GAGMP,000047.00,,,,,,05,,,,,*74
$GBGMP,000047.00,,,,,,05,,,,,*77
$PSSN,SNC,[0,259265000,2347]*4B
$GPZDA,000052.00,01,01,2025,,*64
$GPDTM,W84,,00.0000000,N,00.0000000,E,00.0000000,W84*5F
$GPRMC,000052.00,A,4742.4457634,N,01617.9734793,E,0.0,,010125,5.1,E,D*19
$GPGLL,4742.4457634,N,01617.9734793,E,000052.00,A,D*68
$GPGGA,000052.00,4742.4457634,N,01617.9734793,E,2,18,0.9,623.4472,M,43.2110,M,2.6,0123*46
$GNGNS,000052.00,4742.4457634,N,01617.9734793,E,DAAA,18,0.9,623.4472,43.2110,,*5E
$GPGNS,000052.00,,,,,,05,,,,2.6,123*7B
$GLGNS,000052.00,,,,,,03,,,,,*7B
$GAGNS,000052.00,,,,,,06,,,,,*73
$GBGNS,000052.00,,,,,,04,,,,,*72
$GPLLQ,000052.00,010125,,M,,M,1,18,2.262,,M*1B
$GPVTG,,T,,M,0.00,N,0.01,K,D*27
$GPHDT,,T*1B
$GPTHS,,V*0E
$GPROT,,V*08
$PSSN,HRP,000052.00,010125,,,,,,,00,0,,*66
$PTNL,AVR,000052.00,,Yaw,,Tilt,,,,0,,00*30
$GPGSA,A,3,02,03,08,17,21,,,,,,,,1.5,0.9,1.2*30
$GPGSA,A,3,68,69,85,,,,,,,,,,1.5,0.9,1.2*30
$GPGSA,A,3,02,04,09,10,11,36,,,,,,,1.5,0.9,1.2*37
$GPGSA,A,3,20,30,32,35,,,,,,,,,1.5,0.9,1.2*3A
$GPGST,000052.00,2.474,1.299,0.678,48.570,0.999,1.072,1.723*6B
$GPGBS,000052.00,6.192,7.843,9.417,08,0.0001,-1.163,0.869*71
$GPGRS,000052.00,1,0.2,0.7,-1.2,-0.8,0.2,,,,,,,*6B
$GPGRS,000052.00,1,3.4,-2.9,-3.3,,,,,,,,,*6B
$GPGRS,000052.00,1,-1.1,0.3,1.9,-1.9,-1.6,0.8,,,,,,*68
$GPGRS,000052.00,1,0.2,3.8,1.6,-2.4,,,,,,,,*6C
$GPGSV,5,1,18,02,86,300,45,08,22,183,42,28,16,099,,32,35,053,27*77
$GPGSV,5,2,18,22,11,299,,17,27,313,45,03,49,260,48,21,71,125,40*77
$GPGSV,5,3,18,01,81,317,,10,06,068,,19,02,328,32,14,07,278,25*78
$GPGSV,5,4,18,31,06,125,,04,09,197,,36,35,170,41,34,31,208,*7E
$GPGSV,5,5,18,49,34,195,37,61,03,257,*77
$GLGSV,2,1,08,84,81,351,32,70,13,217,,83,28,134,30,85,26,321,44*61
$GLGSV,2,2,08,68,46,039,49,69,78,199,51,77,04,027,,76,08,345,35*6F
$GAGSV,3,1,11,11,83,058,39,02,13,285,35,09,28,185,42,12,31,112,26*61
$GAGSV,3,2,11,19,28,047,30,06,47,166,27,36,40,302,41,10,55,107,48*64
$GAGSV,3,3,11,04,60,124,42,30,06,334,30,25,03,238,*54
$GBGSV,5,1,19,29,65,280,30,19,13,226,32,35,11,315,40,39,25,060,33*65
$GBGSV,5,2,19,05,24,128,,48,39,223,,57,20,086,,30,46,161,46*62
$GBGSV,5,3,19,16,24,071,28,09,22,089,,06,23,075,,20,61,218,49*66
$GBGSV,5,4,19,32,57,057,50,02,08,105,,27,01,143,,41,05,050,*6F
$GBGSV,5,5,19,25,00,039,,13,06,073,,60,10,109,*51
$GPGGA,000052.00,,,,,0,00,,,M,,M,,*4F
$PTNL,GGK,000052.00,010125,4742.4457634,N,01617.9734793,E,1,18,1.5,EHT666.6583,M*4D
$GPGGQ,000052.00,010125,4742.4457634,N,01617.9734793,E,1,18,2.262,623.4472,M*3F
$GPGFA,000052.00,12.351,14.127,1.299,0.678,48.570,1.723,,VVV*32
$GPLLK,000052.00,010125,,M,,M,1,18,1.7,,M*03
$GNGMP,000052.00,,,,,DAAA,18,0.9,,,,*51
$GPGMP,000052.00,,,,,,05,,,,2.6,123*7B
$GLGMP,000052.00,,,,,,03,,,,,*7B
$GAGMP,000052.00,,,,,,06,,,,,*73
$GBGMP,000052.00,,,,,,04,,,,,*72
$PSSN,SNC,[0,259270000,2347]*4F
$GPZDA,000057.00,01,01,2025,,*61
$GPDTM,W84,,00.0000000,N,00.0000000,E,00.0000000,W84*5F
$GPRMC,000057.00,A,4742.4457622,N,01617.9734868,E,0.0,,010125,5.1,E,D*10
$GPGLL,4742.4457622,N,01617.9734868,E,000057.00,A,D*61
$GPGGA,000057.00,4742.4457622,N,01617.9734868,E,2,20,0.7,623.4255,M,43.2110,M,3.6,0123*48
$GNGNS,000057.00,4742.4457622,N,01617.9734868,E,DAAA,20,0.7,623.4255,43.2110,,*51
$GPGNS,000057.00,,,,,,05,,,,3.6,123*7F
$GLGNS,000057.00,,,,,,03,,,,,*7E
$GAGNS,000057.00,,,,,,08,,,,,*78
$GBGNS,000057.00,,,,,,04,,,,,*77
$GPLLQ,000057.00,010125,,M,,M,1,20,2.226,,M*15
$GPVTG,,T,,M,0.01,N,0.02,K,D*25
$GPHDT,,T*1B
$GPTHS,,V*0E
$GPROT,,V*08
$PSSN,HRP,000057.00,010125,,,,,,,00,0,,*63
$PTNL,AVR,000057.00,,Yaw,,Tilt,,,,0,,00*35
$GPGSA,A,3,02,03,08,17,21,,,,,,,,1.2,0.7,1.0*3B
$GPGSA,A,3,68,69,85,,,,,,,,,,1.2,0.7,1.0*3B
$GPGSA,A,3,02,04,09,10,11,12,30,36,,,,,1.2,0.7,1.0*3C
$GPGSA,A,3,20,30,32,35,,,,,,,,,1.2,0.7,1.0*31
$GPGST,000057.00,3.360,1.320,0.659,53.300,0.949,1.129,1.667*65
$GPGBS,000057.00,5.979,7.715,9.003,10,0.0001,-7.006,6.067*7A
$GPGRS,000057.00,1,0.5,0.6,-0.9,-0.9,0.3,,,,,,,*62
$GPGRS,000057.00,1,2.7,-2.5,-1.7,,,,,,,,,*66
$GPGRS,000057.00,1,-2.0,0.2,2.1,-7.0,-2.1,-1.1,-4.6,4.9,,,,*69
$GPGRS,000057.00,1,-0.7,3.2,1.4,-2.7,,,,,,,,*4A
$GPGSV,5,1,18,02,86,300,44,08,22,183,42,28,16,099,,32,35,053,28*79
$GPGSV,5,2,18,22,11,299,,17,27,313,45,03,49,260,49,21,71,125,41*77
$GPGSV,5,3,18,01,81,317,,10,06,068,,19,02,328,31,14,07,278,28*76
$GPGSV,5,4,18,31,06,125,,04,09,197,,36,35,170,41,34,31,208,*7E
$GPGSV,5,5,18,49,34,195,37,61,03,257,*77
$GLGSV,2,1,08,84,81,351,33,70,13,217,,83,28,134,29,85,26,321,45*69
$GLGSV,2,2,08,68,46,039,47,69,78,199,51,77,04,027,,76,08,345,34*60
$GAGSV,3,1,11,11,83,059,38,02,13,285,35,09,28,185,42,12,31,112,36*60
$GAGSV,3,2,11,19,28,047,30,06,47,166,28,36,40,302,40,10,55,107,37*62
$GAGSV,3,3,11,04,60,124,42,30,06,334,36,25,03,238,*52
$GBGSV,5,1,19,29,65,280,21,19,13,226,33,35,11,315,40,39,25,060,33*64
$GBGSV,5,2,19,05,24,128,,48,39,223,,57,20,086,,30,46,161,47*63
$GBGSV,5,3,19,16,24,071,27,09,22,089,27,06,23,075,,20,61,218,49*6C
$GBGSV,5,4,19,32,57,057,50,02,08,105,,27,01,143,,41,05,050,*6F
$GBGSV,5,5,19,25,00,039,,13,06,073,,60,10,109,*51
$GPGGA,000057.00,,,,,0,00,,,M,,M,,*4A
$PTNL,GGK,000057.00,010125,4742.4457622,N,01617.9734868,E,1,20,1.2,EHT666.6365,M*46
$GPGGQ,000057.00,010125,4742.4457622,N,01617.9734868,E,1,20,2.226,623.4255,M*3E
$GPGFA,000057.00,12.547,13.671,1.320,0.659,53.300,1.667,,VVV*3F
$GPLLK,000057.00,010125,,M,,M,1,20,1.4,,M*0E
$GNGMP,000057.00,,,,,DAAA,20,0.7,,,,*51
$GPGMP,000057.00,,,,,,05,,,,3.6,123*7F
$GLGMP,000057.00,,,,,,03,,,,,*7E
$GAGMP,000057.00,,,,,,08,,,,,*78
$GBGMP,000057.00,,,,,,04,,,,,*77
$PSSN,SNC,[0,259275000,2347]*4A
$GPZDA,000102.00,01,01,2025,,*60
$GPDTM,W84,,00.0000000,N,00.0000000,E,00.0000000,W84*5F
$GPRMC,000102.00,A,4742.4457593,N,01617.9734872,E,0.0,,010125,5.1,E,D*13
$GPGLL,4742.4457593,N,01617.9734872,E,000102.00,A,D*62
$GPGGA,000102.00,4742.4457593,N,01617.9734872,E,2,20,0.7,623.4062,M,43.2110,M,2.2,0123*48
$GNGNS,000102.00,4742.4457593,N,01617.9734872,E,DAAA,20,0.7,623.4062,43.2110,,*54
$GPGNS,000102.00,,,,,,05,,,,2.2,123*7B
$GLGNS,000102.00,,,,,,03,,,,,*7F
$GAGNS,000102.00,,,,,,07,,,,,*76
$GBGNS,000102.00,,,,,,05,,,,,*77
$GPLLQ,000102.00,010125,,M,,M,1,20,1.742,,M*10
$GPVTG,,T,,M,0.01,N,0.02,K,D*25
$GPHDT,,T*1B
$GPTHS,,V*0E
$GPROT,,V*08
$PSSN,HRP,000102.00,010125,,,,,,,00,0,,*62
$PTNL,AVR,000102.00,,Yaw,,Tilt,,,,0,,00*34
$GPGSA,A,3,02,03,08,17,21,,,,,,,,1.2,0.7,0.9*33
$GPGSA,A,3,68,69,85,,,,,,,,,,1.2,0.7,0.9*33
$GPGSA,A,3,04,09,10,11,12,30,36,,,,,,1.2,0.7,0.9*36
$GPGSA,A,3,20,29,30,32,35,,,,,,,,1.2,0.7,0.9*32
$GPGST,000102.00,2.411,1.032,0.520,52.988,0.747,0.881,1.304*68
$GPGBS,000102.00,6.042,7.497,9.121,08,0.0001,-0.798,0.846*72
$GPGRS,000102.00,1,0.4,0.4,-0.8,-0.7,0.1,,,,,,,*6D
$GPGRS,000102.00,1,2.3,-1.8,0.3,,,,,,,,,*45
$GPGRS,000102.00,1,0.8,1.8,-3.9,-1.6,-0.9,1.4,2.2,,,,,*4E
$GPGRS,000102.00,1,-1.4,-4.2,3.2,1.1,-2.0,,,,,,,*4E
$GPGSV,5,1,18,02,86,300,44,08,22,183,41,28,16,099,,32,35,053,29*7B
$GPGSV,5,2,18,22,11,299,,17,27,312,45,03,49,260,48,21,71,125,41*77
$GPGSV,5,3,18,01,81,317,,10,06,068,,19,02,328,30,14,07,278,28*77
$GPGSV,5,4,18,31,06,125,,04,09,197,,36,35,170,41,34,31,208,*7E
$GPGSV,5,5,18,49,34,195,37,61,03,257,*77
$GLGSV,2,1,08,84,81,351,34,70,13,217,,83,28,134,27,85,26,321,46*63
$GLGSV,2,2,08,68,46,039,45,69,78,199,51,77,04,027,,76,08,345,34*62
$GAGSV,3,1,11,11,83,059,38,02,13,285,35,09,28,185,41,12,31,112,26*62
$GAGSV,3,2,11,19,28,046,31,06,47,166,28,36,40,302,38,10,55,107,38*62
$GAGSV,3,3,11,04,60,124,43,30,06,334,37,25,03,238,*52
$GBGSV,5,1,19,29,65,280,42,19,13,226,34,35,11,315,40,39,25,060,33*66
$GBGSV,5,2,19,05,24,128,,48,39,223,,57,20,086,,30,46,161,48*6C
$GBGSV,5,3,19,16,24,071,27,09,22,089,28,06,23,075,,20,61,218,49*63
$GBGSV,5,4,19,32,57,057,50,02,08,105,,27,01,143,,41,05,050,*6F
$GBGSV,5,5,19,25,00,039,,13,06,073,,60,10,109,*51
$GPGGA,000102.00,,,,,0,00,,,M,,M,,*4B
$PTNL,GGK,000102.00,010125,4742.4457593,N,01617.9734872,E,1,20,1.2,EHT666.6172,M*41
$GPGGQ,000102.00,010125,4742.4457593,N,01617.9734872,E,1,20,1.742,623.4062,M*3F
$GPGFA,000102.00,9.809,10.692,1.032,0.520,52.988,1.304,,VVV*0B
$GPLLK,000102.00,010125,,M,,M,1,20,1.4,,M*0F
$GNGMP,000102.00,,,,,DAAA,20,0.7,,,,*50
$GPGMP,000102.00,,,,,,05,,,,2.2,123*7B
$GLGMP,000102.00,,,,,,03,,,,,*7F
$GAGMP,000102.00,,,,,,07,,,,,*76
$GBGMP,000102.00,,,,,,05,,,,,*77
$PSSN,SNC,[0,259280000,2347]*40
$GPZDA,000107.00,01,01,2025,,*65
$GPDTM,W84,,00.0000000,N,00.0000000,E,00.0000000,W84*5F
$GPRMC,000107.00,A,4742.4457572,N,01617.9734840,E,0.0,,010125,5.1,E,D*18
$GPGLL,4742.4457572,N,01617.9734840,E,000107.00,A,D*69
$GPGGA,000107.00,4742.4457572,N,01617.9734840,E,2,20,0.8,623.4054,M,43.2110,M,1.6,0123*4E
$GNGNS,000107.00,4742.4457572,N,01617.9734840,E,DAAA,20,0.8,623.4054,43.2110,,*55
$GPGNS,000107.00,,,,,,05,,,,1.6,123*79
$GLGNS,000107.00,,,,,,03,,,,,*7A
$GAGNS,000107.00,,,,,,07,,,,,*73
$GBGNS,000107.00,,,,,,05,,,,,*72
$GPLLQ,000107.00,010125,,M,,M,1,20,1.586,,M*1F
$GPVTG,,T,,M,0.00,N,0.00,K,D*26
$GPHDT,,T*1B
$GPTHS,,V*0E
$GPROT,,V*08
$PSSN,HRP,000107.00,010125,,,,,,,00,0,,*67
$PTNL,AVR,000107.00,,Yaw,,Tilt,,,,0,,00*31
$GPGSA,A,3,02,03,08,17,21,,,,,,,,1.3,0.8,1.0*35
$GPGSA,A,3,68,69,85,,,,,,,,,,1.3,0.8,1.0*35
$GPGSA,A,3,02,04,09,10,11,30,36,,,,,,1.3,0.8,1.0*31
$GPGSA,A,3,20,29,30,32,35,,,,,,,,1.3,0.8,1.0*34
$GPGST,000107.00,2.466,0.939,0.469,52.434,0.682,0.797,1.189*6F
$GPGBS,000107.00,5.897,7.577,8.877,08,0.0001,-0.936,0.858*75
$GPGRS,000107.00,1,0.2,0.0,-0.9,-0.5,0.5,,,,,,,*6D
$GPGRS,000107.00,1,1.7,-1.3,1.8,,,,,,,,,*46
$GPGRS,000107.00,1,-0.4,0.8,1.6,0.0,-1.4,4.0,-2.4,,,,,*47
$GPGRS,000107.00,1,-1.4,-4.3,3.9,0.7,-2.4,,,,,,,*42
$GPGSV,5,1,18,02,86,300,45,08,22,183,41,28,16,099,,32,35,053,33*71
$GPGSV,5,2,18,22,11,299,,17,27,312,45,03,49,260,48,21,71,126,42*77
$GPGSV,5,3,18,01,81,317,,10,06,068,,19,02,327,28,14,07,278,32*7A
$GPGSV,5,4,18,31,06,125,,04,09,197,,36,35,170,41,34,31,208,*7E
$GPGSV,5,5,18,49,34,195,37,61,03,257,*77
$GLGSV,2,1,08,84,81,351,34,70,13,217,,83,28,134,25,85,27,321,47*61
$GLGSV,2,2,08,68,46,039,42,69,79,199,51,77,04,027,,76,08,345,33*63
$GAGSV,3,1,11,11,83,059,38,02,13,285,35,09,28,185,40,12,31,112,26*63
$GAGSV,3,2,11,19,28,046,31,06,47,166,28,36,40,302,36,10,55,107,40*63
$GAGSV,3,3,11,04,60,124,43,30,06,334,37,25,03,238,*52
$GBGSV,5,1,19,29,65,280,42,19,13,226,33,35,11,315,40,39,25,060,33*61
$GBGSV,5,2,19,05,24,128,,48,39,223,,57,20,086,,30,46,161,48*6C
$GBGSV,5,3,19,16,24,071,27,09,22,089,29,06,23,075,,20,61,218,49*62
$GBGSV,5,4,19,32,57,057,50,02,08,105,,27,01,143,,41,04,050,*6E
$GBGSV,5,5,19,25,00,039,,13,06,073,,60,10,109,*51
$GPGGA,000107.00,,,,,0,00,,,M,,M,,*4E
$PTNL,GGK,000107.00,010125,4742.4457572,N,01617.9734840,E,1,20,1.3,EHT666.6164,M*4C
$GPGGQ,000107.00,010125,4742.4457572,N,01617.9734840,E,1,20,1.586,623.4054,M*3B
$GPGFA,000107.00,8.926,9.746,0.939,0.469,52.434,1.189,,VVV*31
$GPLLK,000107.00,010125,,M,,M,1,20,1.5,,M*0B
$GNGMP,000107.00,,,,,DAAA,20,0.8,,,,*5A
$GPGMP,000107.00,,,,,,05,,,,1.6,123*79
$GLGMP,000107.00,,,,,,03,,,,,*7A
$GAGMP,000107.00,,,,,,07,,,,,*73
$GBGMP,000107.00,,,,,,05,,,,,*72
$PSSN,SNC,[0,259285000,2347]*45
$GPZDA,000112.00,01,01,2025,,*61
$GPDTM,W84,,00.0000000,N,00.0000000,E,00.0000000,W84*5F
$GPRMC,000112.00,A,4742.4457549,N,01617.9734799,E,0.0,,010125,5.1,E,D*1F
$GPGLL,4742.4457549,N,01617.9734799,E,000112.00,A,D*6E
$GPGGA,000112.00,4742.4457549,N,01617.9734799,E,2,20,0.7,623.3829,M,43.2110,M,2.6,0123*40
$GNGNS,000112.00,4742.4457549,N,01617.9734799,E,DAAA,20,0.7,623.3829,43.2110,,*58
$GPGNS,000112.00,,,,,,05,,,,2.6,123*7E
$GLGNS,000112.00,,,,,,03,,,,,*7E
$GAGNS,000112.00,,,,,,07,,,,,*77
$GBGNS,000112.00,,,,,,05,,,,,*76
$GPLLQ,000112.00,010125,,M,,M,1,20,1.610,,M*17
$GPVTG,,T,,M,0.01,N,0.01,K,D*26
$GPHDT,,T*1B
$GPTHS,,V*0E
$GPROT,,V*08
$PSSN,HRP,000112.00,010125,,,,,,,00,0,,*63
$PTNL,AVR,000112.00,,Yaw,,Tilt,,,,0,,00*35
$GPGSA,A,3,02,03,08,17,21,,,,,,,,1.2,0.7,0.9*33
$GPGSA,A,3,68,69,85,,,,,,,,,,1.2,0.7,0.9*33
$GPGSA,A,3,02,04,09,10,11,12,30,,,,,,1.2,0.7,0.9*31
$GPGSA,A,3,20,29,30,32,35,,,,,,,,1.2,0.7,0.9*32
$GPGST,000112.00,2.548,0.952,0.476,52.694,0.690,0.810,1.207*6B
$GPGBS,000112.00,5.927,7.598,8.877,21,0.0001,0.892,0.612*53
$GPGRS,000112.00,1,-0.0,-0.2,-0.8,-0.6,0.9,,,,,,,*67
$GPGRS,000112.00,1,1.1,-1.1,1.4,,,,,,,,,*4A
$GPGRS,000112.00,1,-0.7,0.4,0.3,2.5,-1.6,-1.4,3.5,,,,,*4C
$GPGRS,000112.00,1,-1.4,-5.3,4.5,0.2,-1.9,,,,,,,*47
$GPGSV,5,1,18,02,86,299,46,08,22,183,41,28,16,099,,32,35,053,34*74
$GPGSV,5,2,18,22,11,299,,17,27,312,44,03,49,260,48,21,71,126,43*77
$GPGSV,5,3,18,01,81,317,,10,06,068,,19,02,327,25,14,07,278,30*75
$GPGSV,5,4,18,31,06,125,,04,09,197,,36,35,170,41,34,31,208,*7E
$GPGSV,5,5,18,49,34,195,37,61,03,257,*77
$GLGSV,2,1,08,84,81,351,34,70,13,217,,83,28,134,26,85,27,321,47*62
$GLGSV,2,2,08,68,46,039,43,69,79,199,51,77,04,027,,76,08,345,26*66
$GAGSV,3,1,11,11,83,059,38,02,13,285,35,09,28,185,39,12,31,112,25*6E
$GAGSV,3,2,11,19,28,046,30,06,47,166,27,36,40,302,34,10,55,107,41*6E
$GAGSV,3,3,11,04,60,124,42,30,06,334,36,25,03,238,*52
$GBGSV,5,1,19,29,65,280,39,19,13,226,33,35,11,315,41,39,25,060,33*6C
$GBGSV,5,2,19,05,24,128,,48,39,223,,57,20,086,,30,46,161,49*6D
$GBGSV,5,3,19,16,24,071,27,09,22,089,28,06,23,075,,20,61,218,49*63
$GBGSV,5,4,19,32,57,057,50,02,08,105,,27,01,143,,41,04,050,*6E
$GBGSV,5,5,19,25,00,039,,13,06,073,,60,10,109,*51
$GPGGA,000112.00,,,,,0,00,,,M,,M,,*4A
$PTNL,GGK,000112.00,010125,4742.4457549,N,01617.9734799,E,1,20,1.2,EHT666.5940,M*47
$GPGGQ,000112.00,010125,4742.4457549,N,01617.9734799,E,1,20,1.610,623.3829,M*35
$GPGFA,000112.00,9.052,9.899,0.952,0.476,52.694,1.207,,VVV*3D
$GPLLK,000112.00,010125,,M,,M,1,20,1.4,,M*0E
$GNGMP,000112.00,,,,,DAAA,20,0.7,,,,*51
$GPGMP,000112.00,,,,,,05,,,,2.6,123*7E
$GLGMP,000112.00,,,,,,03,,,,,*7E
$GAGMP,000112.00,,,,,,07,,,,,*77
$GBGMP,000112.00,,,,,,05,,,,,*76
$PSSN,SNC,[0,259290000,2347]*41
$GPZDA,000117.00,01,01,2025,,*64
$GPDTM,W84,,00.0000000,N,00.0000000,E,00.0000000,W84*5F
$GPRMC,000117.00,A,4742.4457543,N,01617.9734736,E,0.0,,010125,5.1,E,D*15
$GPGLL,4742.4457543,N,01617.9734736,E,000117.00,A,D*64
$GPGGA,000117.00,4742.4457543,N,01617.9734736,E,2,18,0.9,623.3843,M,43.2110,M,3.6,0123*42
$GNGNS,000117.00,4742.4457543,N,01617.9734736,E,DAAA,18,0.9,623.3843,43.2110,,*5B
$GPGNS,000117.00,,,,,,05,,,,3.6,123*7A
$GLGNS,000117.00,,,,,,03,,,,,*7B
$GAGNS,000117.00,,,,,,05,,,,,*70
$GBGNS,000117.00,,,,,,05,,,,,*73
$GPLLQ,000117.00,010125,,M,,M,1,18,1.644,,M*18
$GPVTG,,T,,M,0.01,N,0.01,K,D*26
$GPHDT,,T*1B
$GPTHS,,V*0E
$GPROT,,V*08
$PSSN,HRP,000117.00,010125,,,,,,,00,0,,*66
$PTNL,AVR,000117.00,,Yaw,,Tilt,,,,0,,00*30
$GPGSA,A,3,02,03,08,17,21,,,,,,,,1.4,0.9,1.1*32
$GPGSA,A,3,68,69,85,,,,,,,,,,1.4,0.9,1.1*32
$GPGSA,A,3,02,04,09,10,11,,,,,,,,1.4,0.9,1.1*30
$GPGSA,A,3,20,29,30,32,35,,,,,,,,1.4,0.9,1.1*33
$GPGST,000117.00,1.864,0.975,0.480,52.578,0.704,0.827,1.234*6B
$GPGBS,000117.00,6.264,8.008,9.424,21,0.0001,0.560,0.628*58
$GPGRS,000117.00,1,-0.4,0.2,-0.3,-0.2,0.6,,,,,,,*4B
$GPGRS,000117.00,1,0.3,-1.2,-0.2,,,,,,,,,*65
$GPGRS,000117.00,1,-0.6,-0.5,-2.0,2.5,-1.6,,,,,,,*66
$GPGRS,000117.00,1,-1.7,-0.9,4.1,0.1,-1.3,,,,,,,*43
$GPGSV,5,1,18,02,86,299,47,08,22,183,40,28,16,099,,32,35,053,35*75
$GPGSV,5,2,18,22,11,299,,17,27,312,44,03,49,260,48,21,71,126,43*77
$GPGSV,5,3,18,01,81,317,,10,06,068,,19,02,327,,14,07,278,27*74
$GPGSV,5,4,18,31,06,125,,04,10,197,,36,35,170,41,34,31,208,*76
$GPGSV,5,5,18,49,34,195,37,61,03,257,*77
$GLGSV,2,1,08,84,81,351,34,70,13,217,,83,28,134,29,85,27,321,46*6C
$GLGSV,2,2,08,68,45,039,42,69,79,199,52,77,04,027,,76,08,344,34*65
$GAGSV,3,1,11,11,83,060,38,02,13,285,35,09,28,185,37,12,31,112,24*6B
$GAGSV,3,2,11,19,28,046,29,06,47,166,28,36,40,302,32,10,55,107,41*6F
$GAGSV,3,3,11,04,60,124,41,30,06,334,35,25,03,238,*52
$GBGSV,5,1,19,29,65,280,41,19,13,226,34,35,11,315,41,39,25,060,33*64
$GBGSV,5,2,19,05,24,128,,48,39,223,,57,20,086,,30,46,161,49*6D
$GBGSV,5,3,19,16,24,071,27,09,22,089,28,06,23,075,,20,61,218,49*63
$GBGSV,5,4,19,32,57,057,51,02,08,105,,27,01,143,,41,04,050,*6F
$GBGSV,5,5,19,25,00,039,,13,06,073,,60,10,109,*51
$GPGGA,000117.00,,,,,0,00,,,M,,M,,*4F
$PTNL,GGK,000117.00,010125,4742.4457543,N,01617.9734736,E,1,18,1.4,EHT666.5953,M*42
$GPGGQ,000117.00,010125,4742.4457543,N,01617.9734736,E,1,18,1.644,623.3843,M*39
$GPGFA,000117.00,9.266,10.117,0.975,0.480,52.578,1.234,,VVV*07
$GPLLK,000117.00,010125,,M,,M,1,18,1.6,,M*02
$GNGMP,000117.00,,,,,DAAA,18,0.9,,,,*51
$GPGMP,000117.00,,,,,,05,,,,3.6,123*7A
$GLGMP,000117.00,,,,,,03,,,,,*7B
$GAGMP,000117.00,,,,,,05,,,,,*70
$GBGMP,000117.00,,,,,,05,,,,,*73
$PSSN,SNC,[0,259295000,2347]*44
$GPZDA,000122.00,01,01,2025,,*62
$GPDTM,W84,,00.0000000,N,00.0000000,E,00.0000000,W84*5F
$GPRMC,000122.00,A,4742.4457496,N,01617.9734651,E,0.0,,010125,5.1,E,D*1A
$GPGLL,4742.4457496,N,01617.9734651,E,000122.00,A,D*6B
$GPGGA,000122.00,4742.4457496,N,01617.9734651,E,2,18,0.8,623.3828,M,43.2110,M,2.2,0123*44
$GNGNS,000122.00,4742.4457496,N,01617.9734651,E,DAAA,18,0.8,623.3828,43.2110,,*58
$GPGNS,000122.00,,,,,,06,,,,2.2,123*7A
$GLGNS,000122.00,,,,,,03,,,,,*7D
$GAGNS,000122.00,,,,,,04,,,,,*77
$GBGNS,000122.00,,,,,,05,,,,,*75
$GPLLQ,000122.00,010125,,M,,M,1,18,1.761,,M*18
$GPVTG,,T,,M,0.00,N,0.00,K,D*26
$GPHDT,,T*1B
$GPTHS,,V*0E
$GPROT,,V*08
$PSSN,HRP,000122.00,010125,,,,,,,00,0,,*60
$PTNL,AVR,000122.00,,Yaw,,Tilt,,,,0,,00*36
$GPGSA,A,3,02,03,08,17,21,32,,,,,,,1.4,0.8,1.1*32
$GPGSA,A,3,68,69,85,,,,,,,,,,1.4,0.8,1.1*33
$GPGSA,A,3,02,04,10,11,,,,,,,,,1.4,0.8,1.1*38
$GPGSA,A,3,20,29,30,32,35,,,,,,,,1.4,0.8,1.1*32
$GPGST,000122.00,1.864,0.761,0.739,336.824,0.758,0.742,1.405*53
$GPGBS,000122.00,3.809,3.445,5.536,32,0.0001,1.905,0.878*55
$GPGRS,000122.00,1,-1.1,-0.0,-1.0,0.0,0.8,1.9,,,,,,*63
$GPGRS,000122.00,1,0.3,-1.6,-2.6,,,,,,,,,*61
$GPGRS,000122.00,1,-0.4,-0.4,2.3,-1.4,,,,,,,,*66
$GPGRS,000122.00,1,-1.7,1.1,2.6,-0.1,-1.9,,,,,,,*47
$GPGSV,5,1,18,02,86,299,47,08,22,183,39,28,16,099,,32,35,053,36*78
$GPGSV,5,2,18,22,11,299,,17,27,312,44,03,49,260,48,21,71,126,44*70
$GPGSV,5,3,18,01,81,317,,10,06,068,,19,02,327,,14,07,278,27*74
$GPGSV,5,4,18,31,07,125,,04,10,197,,36,35,170,41,34,31,208,*77
$GPGSV,5,5,18,49,34,195,37,61,03,257,*77
$GLGSV,2,1,08,84,82,351,34,70,13,217,,83,28,134,32,85,27,321,45*66
$GLGSV,2,2,08,68,45,039,41,69,79,199,52,77,05,027,,76,08,344,30*63
$GAGSV,3,1,11,11,83,060,39,02,13,285,35,09,28,185,34,12,31,112,25*68
$GAGSV,3,2,11,19,28,046,28,06,47,166,29,36,40,302,32,10,55,107,42*6C
$GAGSV,3,3,11,04,60,124,41,30,06,334,33,25,03,238,*54
$GBGSV,5,1,19,29,65,280,42,19,13,226,,35,11,315,41,39,25,060,34*67
$GBGSV,5,2,19,05,24,128,,48,39,223,,57,20,086,,30,46,161,48*6C
$GBGSV,5,3,19,16,24,071,27,09,22,089,28,06,23,075,,20,61,218,49*63
$GBGSV,5,4,19,32,57,057,51,02,08,105,,27,01,143,,41,04,050,*6F
$GBGSV,5,5,19,25,00,039,,13,06,073,,60,10,109,*51
$GPGGA,000122.00,,,,,0,00,,,M,,M,,*49
$PTNL,GGK,000122.00,010125,4742.4457496,N,01617.9734651,E,1,18,1.4,EHT666.5939,M*41
$GPGGQ,000122.00,010125,4742.4457496,N,01617.9734651,E,1,18,1.761,623.3828,M*3D
$GPGFA,000122.00,7.238,11.523,0.761,0.739,336.824,1.405,,VVV*3D
$GPLLK,000122.00,010125,,M,,M,1,18,1.6,,M*04
$GNGMP,000122.00,,,,,DAAA,18,0.8,,,,*56
$GPGMP,000122.00,,,,,,06,,,,2.2,123*7A
$GLGMP,000122.00,,,,,,03,,,,,*7D
$GAGMP,000122.00,,,,,,04,,,,,*77
$GBGMP,000122.00,,,,,,05,,,,,*75
$PSSN,SNC,[0,259300000,2347]*49
$GPZDA,000127.00,01,01,2025,,*67
$GPDTM,W84,,00.0000000,N,00.0000000,E,00.0000000,W84*5F
$GPRMC,000127.00,A,4742.4457400,N,01617.9734420,E,0.0,,010125,5.1,E,D*14
$GPGLL,4742.4457400,N,01617.9734420,E,000127.00,A,D*65
$GPGGA,000127.00,4742.4457400,N,01617.9734420,E,2,17,0.8,623.3917,M,43.2111,M,1.8,0123*40
$GNGNS,000127.00,4742.4457400,N,01617.9734420,E,DAAA,17,0.8,623.3917,43.2111,,*55
$GPGNS,000127.00,,,,,,06,,,,1.8,123*76
$GLGNS,000127.00,,,,,,03,,,,,*78
$GAGNS,000127.00,,,,,,03,,,,,*75
$GBGNS,000127.00,,,,,,05,,,,,*70
$GPLLQ,000127.00,010125,,M,,M,1,17,2.097,,M*1F
$GPVTG,,T,,M,0.00,N,0.01,K,D*27
$GPHDT,,T*1B
$GPTHS,,V*0E
$GPROT,,V*08
$PSSN,HRP,000127.00,010125,,,,,,,00,0,,*65
$PTNL,AVR,000127.00,,Yaw,,Tilt,,,,0,,00*33
$GPGSA,A,3,02,03,08,17,21,32,,,,,,,1.4,0.8,1.2*31
$GPGSA,A,3,68,69,85,,,,,,,,,,1.4,0.8,1.2*30
$GPGSA,A,3,04,10,11,,,,,,,,,,1.4,0.8,1.2*39
$GPGSA,A,3,20,29,30,32,35,,,,,,,,1.4,0.8,1.2*31
$GPGST,000127.00,2.349,0.906,0.884,350.589,0.905,0.884,1.672*5C
$GPGBS,000127.00,3.813,3.490,5.738,32,0.0001,2.078,0.890*59
$GPGRS,000127.00,1,-1.1,-0.3,-1.3,-0.0,1.0,2.1,,,,,,*49
$GPGRS,000127.00,1,0.3,-1.9,-5.0,,,,,,,,,*6A
$GPGRS,000127.00,1,0.4,2.2,-1.4,,,,,,,,,*48
$GPGRS,000127.00,1,-1.5,1.6,1.3,0.1,-2.0,,,,,,,*66
$GPGSV,5,1,18,02,86,299,47,08,22,183,39,28,16,099,,32,35,053,35*7B
$GPGSV,5,2,18,22,11,299,,17,27,312,45,03,49,260,48,21,71,126,44*71
$GPGSV,5,3,18,01,81,317,,10,06,068,,19,02,327,,14,07,278,28*7B
$GPGSV,5,4,18,31,07,125,,04,10,197,,36,35,170,41,34,31,208,*77
$GPGSV,5,5,18,49,34,195,36,61,03,257,*76
$GLGSV,2,1,08,84,82,351,33,70,13,217,,83,28,134,33,85,27,321,42*67
$GLGSV,2,2,08,68,45,039,40,69,79,199,51,77,05,027,,76,08,344,25*65
$GAGSV,3,1,11,11,83,060,40,02,13,285,34,09,28,185,32,12,31,112,26*62
$GAGSV,3,2,11,19,28,046,27,06,47,166,30,36,40,302,33,10,55,107,42*6A
$GAGSV,3,3,11,04,60,124,40,30,06,334,32,25,03,238,*54
$GBGSV,5,1,19,29,65,280,42,19,13,226,,35,11,315,40,39,25,060,34*66
$GBGSV,5,2,19,05,24,128,,48,39,223,,57,20,086,,30,46,161,48*6C
$GBGSV,5,3,19,16,24,071,27,09,22,089,28,06,23,075,,20,61,218,49*63
$GBGSV,5,4,19,32,57,057,52,02,08,105,,27,01,143,,41,04,050,*6C
$GBGSV,5,5,19,25,00,039,,13,06,073,,60,10,109,*51
$GPGGA,000127.00,,,,,0,00,,,M,,M,,*4C
$PTNL,GGK,000127.00,010125,4742.4457400,N,01617.9734420,E,1,17,1.4,EHT666.6028,M*4A
$GPGGQ,000127.00,010125,4742.4457400,N,01617.9734420,E,1,17,2.097,623.3917,M*3C
$GPGFA,000127.00,8.614,13.711,0.906,0.884,350.589,1.672,,VVV*32
$GPLLK,000127.00,010125,,M,,M,1,17,1.7,,M*0F
$GNGMP,000127.00,,,,,DAAA,17,0.8,,,,*5C
$GPGMP,000127.00,,,,,,06,,,,1.8,123*76
$GLGMP,000127.00,,,,,,03,,,,,*78
$GAGMP,000127.00,,,,,,03,,,,,*75
$GBGMP,000127.00,,,,,,05,,,,,*70
$PSSN,SNC,[0,259305000,2347]*4C
$GPZDA,000132.00,01,01,2025,,*63
$GPDTM,W84,,00.0000000,N,00.0000000,E,00.0000000,W84*5F
$GPRMC,000132.00,A,4742.4457310,N,01617.9734240,E,0.0,,010125,5.1,E,D*16
$GPGLL,4742.4457310,N,01617.9734240,E,000132.00,A,D*67
$GPGGA,000132.00,4742.4457310,N,01617.9734240,E,2,17,0.8,623.3912,M,43.2110,M,2.8,0123*45
$GNGNS,000132.00,4742.4457310,N,01617.9734240,E,DAAA,17,0.8,623.3912,43.2110,,*53
$GPGNS,000132.00,,,,,,06,,,,2.8,123*71
$GLGNS,000132.00,,,,,,03,,,,,*7C
$GAGNS,000132.00,,,,,,03,,,,,*71
$GBGNS,000132.00,,,,,,05,,,,,*74
$GPLLQ,000132.00,010125,,M,,M,1,17,1.810,,M*1F
$GPVTG,,T,,M,0.00,N,0.01,K,D*27
$GPHDT,,T*1B
$GPTHS,,V*0E
