$GPZDA,202942.00,01,01,2025,,*6C
$GPDTM,W84,,00.0000000,N,00.0000000,E,00.0000000,W84*5F
$GPRMC,202942.00,A,4742.4464485,N,01617.9736776,E,0.0,,010125,5.1,E,D*10
$GPGLL,4742.4464485,N,01617.9736776,E,202942.00,A,D*61
$GPGGA,202942.00,4742.4464485,N,01617.9736776,E,2,18,0.7,625.2187,M,43.2111,M,2.8,0123*41
$GNGNS,202942.00,4742.4464485,N,01617.9736776,E,DAAA,18,0.7,625.2187,43.2111,,*57
$GPGNS,202942.00,,,,,,05,,,,2.8,123*7D
$GLGNS,202942.00,,,,,,05,,,,,*75
$GAGNS,202942.00,,,,,,03,,,,,*7E
$GBGNS,202942.00,,,,,,05,,,,,*7B
$GPLLQ,202942.00,010125,,M,,M,1,18,3.058,,M*19
$GPVTG,,T,,M,0.01,N,0.01,K,D*26
$GPHDT,,T*1B
$GPTHS,,V*0E
$GPROT,,V*08
$PSSN,HRP,202942.00,010125,,,,,,,00,0,,*6E
$PTNL,AVR,202942.00,,Yaw,,Tilt,,,,0,,00*38
$GPGSA,A,3,08,10,16,23,27,,,,,,,,1.4,0.7,1.1*3A
$GPGSA,A,3,67,68,73,82,83,,,,,,,,1.4,0.7,1.1*3A
$GPGSA,A,3,13,26,31,,,,,,,,,,1.4,0.7,1.1*34
$GPGSA,A,3,13,27,28,42,43,,,,,,,,1.4,0.7,1.1*3C
$GPGST,202942.00,6.888,1.022,0.960,301.733,0.978,1.006,2.718*50
$GPGBS,202942.00,3.848,4.565,10.821,68,0.0001,18.495,6.134*51
$GPGRS,202942.00,1,0.7,-0.2,-0.1,-0.4,-0.1,,,,,,,*6E
$GPGRS,202942.00,1,0.3,18.5,6.8,4.9,-7.9,,,,,,,*70
$GPGRS,202942.00,1,-1.0,-2.5,2.3,,,,,,,,,*68
$GPGRS,202942.00,1,2.9,-3.0,-2.3,0.4,3.3,,,,,,,*62
$GPGSV,5,1,17,27,85,275,51,26,11,186,25,15,10,035,19,21,22,266,34*76
$GPGSV,5,2,17,18,18,072,30,16,36,201,45,08,48,302,45,23,48,058,44*7A
$GPGSV,5,3,17,10,68,144,49,07,02,296,30,02,04,263,,30,01,327,*74
$GPGSV,5,4,17,32,06,145,,36,35,170,41,34,31,208,,49,34,195,37*75
$GPGSV,5,5,17,61,03,257,*4B
$GLGSV,3,1,10,83,59,043,43,75,15,338,34,82,24,079,36,68,39,122,37*6E
$GLGSV,3,2,10,73,24,234,40,84,36,293,29,67,38,054,44,74,36,285,*6E
$GLGSV,3,3,10,66,04,013,21,69,07,163,*6D
$GAGSV,3,1,11,14,66,283,,03,14,043,28,31,16,322,37,33,12,256,33*6D
$GAGSV,3,2,11,21,37,200,31,08,20,094,,23,49,274,,13,60,055,43*67
$GAGSV,3,3,11,26,59,269,40,15,09,070,,07,05,142,*56
$GBGSV,5,1,20,28,80,334,52,37,16,235,33,60,11,108,,50,15,037,*61
$GBGSV,5,2,20,41,15,175,29,05,23,128,,57,19,228,,46,22,290,*63
$GBGSV,5,3,20,08,23,038,29,58,26,271,,13,31,043,39,43,30,099,40*66
$GBGSV,5,4,20,33,45,128,33,42,33,056,40,27,35,288,42,14,46,088,35*65
$GBGSV,5,5,20,11,09,098,,38,09,040,24,36,04,336,31,02,08,105,*6A
$GPGGA,202942.00,,,,,0,00,,,M,,M,,*47
$PTNL,GGK,202942.00,010125,4742.4464485,N,01617.9736776,E,1,18,1.4,EHT668.4298,M*44
$GPGGQ,202942.00,010125,4742.4464485,N,01617.9736776,E,1,18,3.058,625.2187,M*33
$GPGFA,202942.00,9.721,22.286,1.022,0.960,301.733,2.718,,VVV*3A
$GPLLK,202942.00,010125,,M,,M,1,18,1.6,,M*0A
$GNGMP,202942.00,,,,,DAAA,18,0.7,,,,*57
$GPGMP,202942.00,,,,,,05,,,,2.8,123*7D
$GLGMP,202942.00,,,,,,05,,,,,*75
$GAGMP,202942.00,,,,,,03,,,,,*7E
$GBGMP,202942.00,,,,,,05,,,,,*7B
$PSSN,SNC,[0,333000000,2347]*47
$GPZDA,202947.00,01,01,2025,,*69
$GPDTM,W84,,00.0000000,N,00.0000000,E,00.0000000,W84*5F
$GPRMC,202947.00,A,4742.4464469,N,01617.9736833,E,0.0,,010125,5.1,E,D*19
$GPGLL,4742.4464469,N,01617.9736833,E,202947.00,A,D*68
$GPGGA,202947.00,4742.4464469,N,01617.9736833,E,2,19,0.7,625.2220,M,43.2110,M,1.4,0123*49
$GNGNS,202947.00,4742.4464469,N,01617.9736833,E,DAAA,19,0.7,625.2220,43.2110,,*50
$GPGNS,202947.00,,,,,,05,,,,1.4,123*77
$GLGNS,202947.00,,,,,,04,,,,,*71
$GAGNS,202947.00,,,,,,03,,,,,*7B
$GBGNS,202947.00,,,,,,07,,,,,*7C
$GPLLQ,202947.00,010125,,M,,M,1,19,1.978,,M*14
$GPVTG,,T,,M,0.00,N,0.01,K,D*27
$GPHDT,,T*1B
$GPTHS,,V*0E
$GPROT,,V*08
$PSSN,HRP,202947.00,010125,,,,,,,00,0,,*6B
$PTNL,AVR,202947.00,,Yaw,,Tilt,,,,0,,00*3D
$GPGSA,A,3,08,10,16,23,27,,,,,,,,1.4,0.7,1.1*3A
$GPGSA,A,3,67,73,82,83,,,,,,,,,1.4,0.7,1.1*34
$GPGSA,A,3,13,26,31,,,,,,,,,,1.4,0.7,1.1*34
$GPGSA,A,3,13,14,27,28,33,42,43,,,,,,1.4,0.7,1.1*39
$GPGST,202947.00,4.452,0.664,0.625,297.626,0.633,0.656,1.756*57
$GPGBS,202947.00,3.683,4.329,10.547,73,0.0001,8.016,6.172*68
$GPGRS,202947.00,1,0.3,-0.1,-0.3,-0.2,0.0,,,,,,,*44
$GPGRS,202947.00,1,-0.7,8.0,8.1,-7.0,,,,,,,,*45
$GPGRS,202947.00,1,-1.0,-1.9,2.2,,,,,,,,,*63
$GPGRS,202947.00,1,2.5,-3.0,-4.2,-2.5,1.4,0.0,2.5,,,,,*40
$GPGSV,5,1,17,27,85,274,52,26,11,186,24,15,10,035,,21,22,266,35*7C
$GPGSV,5,2,17,18,18,072,30,16,36,201,44,08,48,302,45,23,48,058,44*7B
$GPGSV,5,3,17,10,68,144,49,07,02,296,28,02,04,263,,30,01,327,*7D
$GPGSV,5,4,17,32,06,145,,36,35,170,41,34,31,208,,49,34,195,37*75
$GPGSV,5,5,17,61,03,257,*4B
$GLGSV,3,1,10,83,59,043,43,75,15,338,30,82,24,079,37,68,39,122,33*6F
$GLGSV,3,2,10,73,24,234,40,84,36,293,25,67,38,054,44,74,36,285,*62
$GLGSV,3,3,10,66,04,013,,69,07,163,*6E
$GAGSV,3,1,11,14,66,283,,03,14,043,28,31,16,322,37,33,12,256,31*6F
$GAGSV,3,2,11,21,37,200,32,08,20,094,,23,49,274,,13,60,055,43*64
$GAGSV,3,3,11,26,60,269,40,15,09,070,,07,05,142,*5C
$GBGSV,5,1,20,28,80,334,52,37,16,235,30,60,11,108,,50,15,037,*62
$GBGSV,5,2,20,41,15,175,29,05,23,128,,57,20,228,,46,22,290,*69
$GBGSV,5,3,20,08,23,038,29,58,26,271,,43,30,099,40,13,31,043,38*67
$GBGSV,5,4,20,33,45,128,36,42,33,055,41,27,35,288,41,14,46,088,37*63
$GBGSV,5,5,20,11,09,098,,02,08,105,,36,04,336,31,38,09,040,23*6D
$GPGGA,202947.00,,,,,0,00,,,M,,M,,*42
$PTNL,GGK,202947.00,010125,4742.4464469,N,01617.9736833,E,1,19,1.4,EHT668.4330,M*4F
$GPGGQ,202947.00,010125,4742.4464469,N,01617.9736833,E,1,19,1.978,625.2220,M*3C
$GPGFA,202947.00,6.317,14.396,0.664,0.625,297.626,1.756,,VVV*3D
$GPLLK,202947.00,010125,,M,,M,1,19,1.6,,M*0E
$GNGMP,202947.00,,,,,DAAA,19,0.7,,,,*53
$GPGMP,202947.00,,,,,,05,,,,1.4,123*77
$GLGMP,202947.00,,,,,,04,,,,,*71
$GAGMP,202947.00,,,,,,03,,,,,*7B
$GBGMP,202947.00,,,,,,07,,,,,*7C
$PSSN,SNC,[0,333005000,2347]*42
$GPZDA,202952.00,01,01,2025,,*6D
$GPDTM,W84,,00.0000000,N,00.0000000,E,00.0000000,W84*5F
$GPRMC,202952.00,A,4742.4464431,N,01617.9736783,E,0.0,,010125,5.1,E,D*14
$GPGLL,4742.4464431,N,01617.9736783,E,202952.00,A,D*65
$GPGGA,202952.00,4742.4464431,N,01617.9736783,E,2,22,0.7,625.2279,M,43.2111,M,2.3,0123*45
$GNGNS,202952.00,4742.4464431,N,01617.9736783,E,DAAA,22,0.7,625.2279,43.2111,,*58
$GPGNS,202952.00,,,,,,06,,,,2.3,123*74
$GLGNS,202952.00,,,,,,06,,,,,*77
$GAGNS,202952.00,,,,,,03,,,,,*7F
$GBGNS,202952.00,,,,,,07,,,,,*78
$GPLLQ,202952.00,010125,,M,,M,1,22,2.192,,M*17
$GPVTG,,T,,M,0.01,N,0.01,K,D*26
$GPHDT,,T*1B
$GPTHS,,V*0E
$GPROT,,V*08
$PSSN,HRP,202952.00,010125,,,,,,,00,0,,*6F
$PTNL,AVR,202952.00,,Yaw,,Tilt,,,,0,,00*39
$GPGSA,A,3,08,10,16,21,23,27,,,,,,,1.3,0.7,1.1*3E
$GPGSA,A,3,67,68,73,82,83,84,,,,,,,1.3,0.7,1.1*31
$GPGSA,A,3,13,26,31,,,,,,,,,,1.3,0.7,1.1*33
$GPGSA,A,3,13,14,27,28,33,42,43,,,,,,1.3,0.7,1.1*3E
$GPGST,202952.00,5.012,0.819,0.782,346.685,0.817,0.784,1.877*54
$GPGBS,202952.00,4.136,4.425,8.741,82,0.0001,11.755,6.275*66
$GPGRS,202952.00,1,0.3,0.0,-0.9,-0.6,0.9,-0.2,,,,,,*6A
$GPGRS,202952.00,1,-0.4,-1.3,8.0,11.8,-7.6,-7.9,,,,,,*79
$GPGRS,202952.00,1,-1.0,-1.9,1.8,,,,,,,,,*6E
$GPGRS,202952.00,1,1.8,-2.0,-4.0,-2.5,3.5,-0.4,1.6,,,,,*63
$GPGSV,5,1,17,27,85,274,52,26,11,186,25,15,10,035,,21,22,266,35*7D
$GPGSV,5,2,17,18,17,072,29,16,36,201,41,08,48,302,44,23,48,058,42*7E
$GPGSV,5,3,17,10,68,144,48,07,02,296,23,02,04,264,,30,01,327,*70
$GPGSV,5,4,17,32,06,145,,36,35,170,40,34,31,208,,49,34,195,36*75
$GPGSV,5,5,17,61,03,257,*4B
$GLGSV,3,1,10,83,59,043,42,75,15,338,30,82,24,079,37,68,39,122,40*6A
$GLGSV,3,2,10,73,24,234,42,84,36,293,37,67,38,054,45,74,36,285,30*61
$GLGSV,3,3,10,66,04,013,,69,07,163,*6E
$GAGSV,3,1,11,14,66,283,,03,14,043,27,31,16,322,37,33,12,256,29*69
$GAGSV,3,2,11,21,37,200,33,08,20,094,,23,49,274,,13,60,055,43*65
$GAGSV,3,3,11,26,60,269,39,15,09,070,,07,05,142,*52
$GBGSV,5,1,20,28,80,334,52,37,16,235,26,60,11,108,,50,15,037,*65
$GBGSV,5,2,20,41,15,175,28,05,23,128,,57,20,228,,46,22,290,*68
$GBGSV,5,3,20,08,23,038,28,58,26,271,,43,30,099,40,13,31,043,39*67
$GBGSV,5,4,20,33,45,128,37,42,33,055,42,27,35,288,40,14,46,088,40*60
$GBGSV,5,5,20,11,09,098,,02,08,105,,36,04,336,31,38,09,040,23*6D
$GPGGA,202952.00,,,,,0,00,,,M,,M,,*46
$PTNL,GGK,202952.00,010125,4742.4464431,N,01617.9736783,E,1,22,1.3,EHT668.4389,M*4F
$GPGGQ,202952.00,010125,4742.4464431,N,01617.9736783,E,1,22,2.192,625.2279,M*3A
$GPGFA,202952.00,7.787,15.388,0.819,0.782,346.685,1.877,,VVV*3B
$GPLLK,202952.00,010125,,M,,M,1,22,1.5,,M*01
$GNGMP,202952.00,,,,,DAAA,22,0.7,,,,*5F
$GPGMP,202952.00,,,,,,06,,,,2.3,123*74
$GLGMP,202952.00,,,,,,06,,,,,*77
$GAGMP,202952.00,,,,,,03,,,,,*7F
$GBGMP,202952.00,,,,,,07,,,,,*78
$PSSN,SNC,[0,333010000,2347]*46
$GPZDA,202957.00,01,01,2025,,*68
$GPDTM,W84,,00.0000000,N,00.0000000,E,00.0000000,W84*5F
$GPRMC,202957.00,A,4742.4464293,N,01617.9736650,E,0.0,,010125,5.1,E,D*10
$GPGLL,4742.4464293,N,01617.9736650,E,202957.00,A,D*61
$GPGGA,202957.00,4742.4464293,N,01617.9736650,E,2,21,0.7,625.2273,M,43.2110,M,3.3,0123*48
$GNGNS,202957.00,4742.4464293,N,01617.9736650,E,DAAA,21,0.7,625.2273,43.2110,,*54
$GPGNS,202957.00,,,,,,06,,,,3.3,123*70
$GLGNS,202957.00,,,,,,05,,,,,*71
$GAGNS,202957.00,,,,,,03,,,,,*7A
$GBGNS,202957.00,,,,,,07,,,,,*7D
$GPLLQ,202957.00,010125,,M,,M,1,21,3.166,,M*1B
$GPVTG,,T,,M,0.00,N,0.01,K,D*27
$GPHDT,,T*1B
$GPTHS,,V*0E
$GPROT,,V*08
$PSSN,HRP,202957.00,010125,,,,,,,00,0,,*6A
$PTNL,AVR,202957.00,,Yaw,,Tilt,,,,0,,00*3C
$GPGSA,A,3,08,10,16,21,23,27,,,,,,,1.3,0.7,1.1*3E
$GPGSA,A,3,67,68,73,82,83,,,,,,,,1.3,0.7,1.1*3D
$GPGSA,A,3,13,26,31,,,,,,,,,,1.3,0.7,1.1*33
$GPGSA,A,3,13,14,27,28,33,42,43,,,,,,1.3,0.7,1.1*3E
$GPGST,202957.00,6.520,1.191,1.134,341.251,1.185,1.140,2.705*5B
$GPGBS,202957.00,4.253,4.570,8.937,82,0.0001,19.803,6.281*62
$GPGRS,202957.00,1,0.9,0.0,-1.7,-1.2,1.1,-0.1,,,,,,*65
$GPGRS,202957.00,1,-0.2,2.3,9.4,19.8,-7.6,,,,,,,*54
$GPGRS,202957.00,1,-0.9,-1.6,1.4,,,,,,,,,*60
$GPGRS,202957.00,1,2.2,-0.0,-3.4,-2.0,4.2,-1.1,-0.1,,,,,*44
$GPGSV,5,1,17,27,85,274,52,26,11,186,26,15,10,035,,21,22,266,36*7D
$GPGSV,5,2,17,18,17,072,29,16,36,201,37,08,48,302,45,23,48,058,41*7D
$GPGSV,5,3,17,10,68,144,48,07,02,296,27,02,04,264,,30,01,327,20*76
$GPGSV,5,4,17,32,06,145,,36,35,170,41,34,31,208,,49,34,195,36*74
$GPGSV,5,5,17,61,03,257,*4B
$GLGSV,3,1,10,83,59,043,42,75,15,338,31,82,24,079,36,68,39,122,36*6B
$GLGSV,3,2,10,73,24,234,42,84,36,293,22,67,38,054,45,74,36,284,28*6D
$GLGSV,3,3,10,66,04,013,22,69,07,163,*6E
$GAGSV,3,1,11,14,66,283,,03,14,043,24,31,16,322,37,33,12,256,29*6A
$GAGSV,3,2,11,21,37,200,34,08,20,094,,23,49,274,,13,60,055,43*62
$GAGSV,3,3,11,26,60,269,40,15,09,070,,07,05,142,*5C
$GBGSV,5,1,20,28,80,334,52,37,16,235,23,60,11,108,,50,15,037,*60
$GBGSV,5,2,20,41,15,175,25,05,23,128,,57,20,228,,46,22,290,*65
$GBGSV,5,3,20,08,23,038,27,58,26,271,,43,30,099,40,13,31,043,38*69
$GBGSV,5,4,20,33,45,128,36,42,33,055,42,27,35,288,40,14,46,088,42*63
$GBGSV,5,5,20,11,09,098,,02,08,105,,36,04,336,28,38,09,040,21*67
$GPGGA,202957.00,,,,,0,00,,,M,,M,,*43
$PTNL,GGK,202957.00,010125,4742.4464293,N,01617.9736650,E,1,21,1.3,EHT668.4383,M*42
$GPGGQ,202957.00,010125,4742.4464293,N,01617.9736650,E,1,21,3.166,625.2273,M*3D
$GPGFA,202957.00,11.327,22.181,1.191,1.134,341.251,2.705,,VVV*09
$GPLLK,202957.00,010125,,M,,M,1,21,1.5,,M*07
$GNGMP,202957.00,,,,,DAAA,21,0.7,,,,*59
$GPGMP,202957.00,,,,,,06,,,,3.3,123*70
$GLGMP,202957.00,,,,,,05,,,,,*71
$GAGMP,202957.00,,,,,,03,,,,,*7A
$GBGMP,202957.00,,,,,,07,,,,,*7D
$PSSN,SNC,[0,333015000,2347]*43
$GPZDA,203002.00,01,01,2025,,*60
$GPDTM,W84,,00.0000000,N,00.0000000,E,00.0000000,W84*5F
$GPRMC,203002.00,A,4742.4464169,N,01617.9736555,E,0.0,,010125,5.1,E,D*18
$GPGLL,4742.4464169,N,01617.9736555,E,203002.00,A,D*69
$GPGGA,203002.00,4742.4464169,N,01617.9736555,E,2,19,0.8,625.2278,M,43.2110,M,2.8,0123*45
$GNGNS,203002.00,4742.4464169,N,01617.9736555,E,DAAA,19,0.8,625.2278,43.2110,,*53
$GPGNS,203002.00,,,,,,05,,,,2.8,123*71
$GLGNS,203002.00,,,,,,04,,,,,*78
$GAGNS,203002.00,,,,,,03,,,,,*72
$GBGNS,203002.00,,,,,,07,,,,,*75
$GPLLQ,203002.00,010125,,M,,M,1,19,3.271,,M*1D
$GPVTG,,T,,M,0.00,N,0.01,K,D*27
$GPHDT,,T*1B
$GPTHS,,V*0E
$GPROT,,V*08
$PSSN,HRP,203002.00,010125,,,,,,,00,0,,*62
$PTNL,AVR,203002.00,,Yaw,,Tilt,,,,0,,00*34
$GPGSA,A,3,08,10,21,23,27,,,,,,,,1.4,0.8,1.2*32
$GPGSA,A,3,67,68,73,83,,,,,,,,,1.4,0.8,1.2*3C
$GPGSA,A,3,13,26,31,,,,,,,,,,1.4,0.8,1.2*38
$GPGSA,A,3,13,14,27,28,33,42,43,,,,,,1.4,0.8,1.2*35
$GPGST,203002.00,4.540,1.640,0.993,353.121,1.632,1.005,2.651*54
$GPGBS,203002.00,6.158,4.653,10.162,23,0.0001,1.645,0.747*64
$GPGRS,203002.00,1,1.3,-0.4,-1.2,1.6,-0.9,,,,,,,*45
$GPGRS,203002.00,1,-0.7,1.9,9.0,-8.2,,,,,,,,*41
$GPGRS,203002.00,1,-2.0,-1.8,1.0,,,,,,,,,*69
$GPGRS,203002.00,1,1.7,1.5,-4.1,-2.6,6.4,-2.0,-2.6,,,,,*64
$GPGSV,5,1,17,27,85,273,51,26,11,186,25,15,10,035,,21,22,267,38*75
$GPGSV,5,2,17,18,17,072,28,16,36,201,29,08,48,302,45,23,48,058,38*7D
$GPGSV,5,3,17,10,68,144,48,07,02,296,30,02,04,264,,30,01,327,20*70
$GPGSV,5,4,17,32,06,145,,36,35,170,40,34,31,208,,49,34,195,37*74
$GPGSV,5,5,17,61,03,257,*4B
$GLGSV,3,1,10,83,59,043,42,75,15,338,30,82,24,080,,68,39,122,38*67
$GLGSV,3,2,10,73,24,234,42,84,36,293,37,67,38,054,46,74,36,284,*60
$GLGSV,3,3,10,66,04,013,24,69,07,163,*68
$GAGSV,3,1,11,14,66,283,,03,14,043,23,31,16,322,37,33,12,256,35*60
$GAGSV,3,2,11,21,37,199,35,08,20,094,,23,49,274,,13,60,055,43*60
$GAGSV,3,3,11,26,60,269,41,15,09,070,,07,05,142,*5D
$GBGSV,5,1,20,28,80,334,52,37,16,235,22,60,11,108,,50,15,037,*61
$GBGSV,5,2,20,41,15,175,22,05,23,128,,57,20,228,,46,22,289,*6A
$GBGSV,5,3,20,08,23,038,27,58,26,271,,43,30,099,39,13,31,043,39*66
$GBGSV,5,4,20,33,45,128,36,42,33,055,43,27,35,288,39,14,46,088,43*6D
$GBGSV,5,5,20,11,09,098,,02,08,105,,36,04,336,28,38,09,040,21*67
$GPGGA,203002.00,,,,,0,00,,,M,,M,,*4B
$PTNL,GGK,203002.00,010125,4742.4464169,N,01617.9736555,E,1,19,1.4,EHT668.4388,M*4D
$GPGGQ,203002.00,010125,4742.4464169,N,01617.9736555,E,1,19,3.271,625.2278,M*30
$GPGFA,203002.00,15.589,21.734,1.640,0.993,353.121,2.651,,VVV*04
$GPLLK,203002.00,010125,,M,,M,1,19,1.6,,M*07
$GNGMP,203002.00,,,,,DAAA,19,0.8,,,,*55
$GPGMP,203002.00,,,,,,05,,,,2.8,123*71
$GLGMP,203002.00,,,,,,04,,,,,*78
$GAGMP,203002.00,,,,,,03,,,,,*72
$GBGMP,203002.00,,,,,,07,,,,,*75
$PSSN,SNC,[0,333020000,2347]*45
$GPZDA,203007.00,01,01,2025,,*65
$GPDTM,W84,,00.0000000,N,00.0000000,E,00.0000000,W84*5F
$GPRMC,203007.00,A,4742.4464101,N,01617.9736425,E,0.0,,010125,5.1,E,D*15
$GPGLL,4742.4464101,N,01617.9736425,E,203007.00,A,D*64
$GPGGA,203007.00,4742.4464101,N,01617.9736425,E,2,21,0.7,625.2424,M,43.2110,M,1.4,0123*4C
$GNGNS,203007.00,4742.4464101,N,01617.9736425,E,DAAA,21,0.7,625.2424,43.2110,,*55
$GPGNS,203007.00,,,,,,05,,,,1.4,123*7B
$GLGNS,203007.00,,,,,,04,,,,,*7D
$GAGNS,203007.00,,,,,,05,,,,,*71
$GBGNS,203007.00,,,,,,07,,,,,*70
$GPLLQ,203007.00,010125,,M,,M,1,21,3.890,,M*16
$GPVTG,,T,,M,0.01,N,0.01,K,D*26
$GPHDT,,T*1B
$GPTHS,,V*0E
$GPROT,,V*08
$PSSN,HRP,203007.00,010125,,,,,,,00,0,,*67
$PTNL,AVR,203007.00,,Yaw,,Tilt,,,,0,,00*31
$GPGSA,A,3,08,10,21,23,27,,,,,,,,1.3,0.7,1.1*39
$GPGSA,A,3,67,68,73,83,,,,,,,,,1.3,0.7,1.1*37
$GPGSA,A,3,13,21,26,31,33,,,,,,,,1.3,0.7,1.1*30
$GPGSA,A,3,13,14,27,28,33,42,43,,,,,,1.3,0.7,1.1*3E
$GPGST,203007.00,5.062,1.912,1.206,353.825,1.906,1.216,3.166*5C
$GPGBS,203007.00,6.022,4.485,9.327,23,0.0001,2.763,0.717*5C
$GPGRS,203007.00,1,0.5,-1.0,-0.4,2.8,-1.2,,,,,,,*42
$GPGRS,203007.00,1,0.8,9.8,6.8,-8.0,,,,,,,,*6A
$GPGRS,203007.00,1,-2.5,0.3,-1.7,0.1,-0.6,,,,,,,*4E
$GPGRS,203007.00,1,1.3,2.3,-5.1,-2.8,8.3,-2.5,-3.8,,,,,*6C
$GPGSV,5,1,17,27,85,273,51,26,11,186,23,15,10,035,,21,22,267,39*72
$GPGSV,5,2,17,18,17,072,28,16,36,201,20,08,48,302,44,23,48,058,35*78
$GPGSV,5,3,17,10,68,144,47,07,02,296,33,02,04,264,,30,01,327,24*78
$GPGSV,5,4,17,32,06,145,,36,35,170,41,34,31,208,,49,34,195,36*74
$GPGSV,5,5,17,61,03,257,*4B
$GLGSV,3,1,10,83,59,043,41,75,15,338,35,82,24,080,23,68,39,122,40*6F
$GLGSV,3,2,10,73,24,234,43,84,36,293,32,67,38,054,47,74,36,284,*65
$GLGSV,3,3,10,66,04,013,22,69,07,163,*6E
$GAGSV,3,1,11,14,66,283,,03,14,043,22,31,16,322,37,33,12,256,28*6D
$GAGSV,3,2,11,21,36,199,36,08,20,094,,23,49,274,,13,60,055,42*63
$GAGSV,3,3,11,26,60,269,41,15,09,070,,07,05,142,*5D
$GBGSV,5,1,20,28,80,334,52,37,16,234,20,60,11,108,,50,15,037,*62
$GBGSV,5,2,20,41,15,175,22,05,23,128,,57,20,228,,46,22,289,*6A
$GBGSV,5,3,20,08,23,038,27,58,26,271,,43,30,099,37,13,31,043,38*69
$GBGSV,5,4,20,33,45,128,35,42,33,055,43,27,36,289,39,14,46,088,45*6A
$GBGSV,5,5,20,11,09,098,,02,08,105,,36,04,336,28,38,09,040,*64
$GPGGA,203007.00,,,,,0,00,,,M,,M,,*4E
$PTNL,GGK,203007.00,010125,4742.4464101,N,01617.9736425,E,1,21,1.3,EHT668.4534,M*4D
$GPGGQ,203007.00,010125,4742.4464101,N,01617.9736425,E,1,21,3.890,625.2424,M*3C
$GPGFA,203007.00,18.181,25.960,1.912,1.206,353.825,3.166,,VVV*0A
$GPLLK,203007.00,010125,,M,,M,1,21,1.5,,M*0A
$GNGMP,203007.00,,,,,DAAA,21,0.7,,,,*54
$GPGMP,203007.00,,,,,,05,,,,1.4,123*7B
$GLGMP,203007.00,,,,,,04,,,,,*7D
$GAGMP,203007.00,,,,,,05,,,,,*71
$GBGMP,203007.00,,,,,,07,,,,,*70
$PSSN,SNC,[0,333025000,2347]*40
$GPZDA,203012.00,01,01,2025,,*61
$GPDTM,W84,,00.0000000,N,00.0000000,E,00.0000000,W84*5F
$GPRMC,203012.00,A,4742.4464026,N,01617.9736472,E,0.0,,010125,5.1,E,D*17
$GPGLL,4742.4464026,N,01617.9736472,E,203012.00,A,D*66
$GPGGA,203012.00,4742.4464026,N,01617.9736472,E,2,20,0.7,625.2680,M,43.2110,M,2.5,0123*41
$GNGNS,203012.00,4742.4464026,N,01617.9736472,E,DAAA,20,0.7,625.2680,43.2110,,*5A
$GPGNS,203012.00,,,,,,04,,,,2.5,123*7C
$GLGNS,203012.00,,,,,,05,,,,,*78
$GAGNS,203012.00,,,,,,05,,,,,*75
$GBGNS,203012.00,,,,,,06,,,,,*75
$GPLLQ,203012.00,010125,,M,,M,1,20,4.981,,M*15
$GPVTG,,T,,M,0.01,N,0.01,K,D*26
$GPHDT,,T*1B
$GPTHS,,V*0E
$GPROT,,V*08
$PSSN,HRP,203012.00,010125,,,,,,,00,0,,*63
$PTNL,AVR,203012.00,,Yaw,,Tilt,,,,0,,00*35
$GPGSA,A,3,08,10,21,27,,,,,,,,,1.3,0.7,1.1*38
$GPGSA,A,3,67,68,73,83,84,,,,,,,,1.3,0.7,1.1*3B
$GPGSA,A,3,13,21,26,31,33,,,,,,,,1.3,0.7,1.1*30
$GPGSA,A,3,13,14,27,28,42,43,,,,,,,1.3,0.7,1.1*3E
$GPGST,203012.00,5.128,2.914,1.161,48.280,2.124,2.308,3.869*6C
$GPGBS,203012.00,8.998,10.213,16.576,68,0.0001,11.203,6.126*62
$GPGRS,203012.00,1,0.3,-0.5,0.5,-0.4,,,,,,,,*4B
$GPGRS,203012.00,1,4.3,11.2,8.9,-7.0,-3.0,,,,,,,*52
$GPGRS,203012.00,1,-1.6,0.2,-1.5,0.8,0.7,,,,,,,*6C
$GPGRS,203012.00,1,0.8,3.2,-5.2,-2.0,-1.7,-2.9,,,,,,*4D
$GPGSV,5,1,17,27,85,273,51,26,11,186,23,15,10,035,,21,22,267,38*73
$GPGSV,5,2,17,18,17,072,29,16,36,201,,08,48,302,44,23,48,058,30*7E
$GPGSV,5,3,17,10,68,144,47,07,02,296,22,02,04,264,,30,01,327,23*7F
$GPGSV,5,4,17,32,06,145,,36,35,170,40,34,31,208,,49,34,195,36*75
$GPGSV,5,5,17,61,03,257,*4B
$GLGSV,3,1,10,83,59,043,41,75,15,338,39,82,24,080,35,68,39,122,39*6A
$GLGSV,3,2,10,73,24,234,43,84,36,293,36,67,38,054,48,74,36,284,28*64
$GLGSV,3,3,10,66,04,013,,69,07,163,*6E
$GAGSV,3,1,11,14,66,283,,03,14,043,21,31,16,322,37,33,12,256,27*61
$GAGSV,3,2,11,21,36,199,36,08,20,094,33,23,49,274,,13,60,055,41*60
$GAGSV,3,3,11,26,60,269,42,15,09,070,,07,05,142,*5E
$GBGSV,5,1,20,28,80,334,51,37,16,234,,60,11,108,,50,15,037,*63
$GBGSV,5,2,20,41,15,175,20,05,23,128,,57,20,228,,46,22,289,*68
$GBGSV,5,3,20,08,23,038,26,58,26,271,,43,30,099,37,13,31,043,38*68
$GBGSV,5,4,20,33,45,128,31,42,33,055,44,27,36,289,39,14,46,088,45*69
$GBGSV,5,5,20,11,09,098,,02,08,105,,36,04,336,24,38,09,040,*68
$GPGGA,203012.00,,,,,0,00,,,M,,M,,*4A
$PTNL,GGK,203012.00,010125,4742.4464026,N,01617.9736472,E,1,20,1.3,EHT668.4790,M*42
$GPGGQ,203012.00,010125,4742.4464026,N,01617.9736472,E,1,20,4.981,625.2680,M*35
$GPGFA,203012.00,27.707,31.725,2.914,1.161,48.280,3.869,,VVV*3D
$GPLLK,203012.00,010125,,M,,M,1,20,1.5,,M*0F
$GNGMP,203012.00,,,,,DAAA,20,0.7,,,,*51
$GPGMP,203012.00,,,,,,04,,,,2.5,123*7C
$GLGMP,203012.00,,,,,,05,,,,,*78
$GAGMP,203012.00,,,,,,05,,,,,*75
$GBGMP,203012.00,,,,,,06,,,,,*75
$PSSN,SNC,[0,333030000,2347]*44
$GPZDA,203017.00,01,01,2025,,*64
$GPDTM,W84,,00.0000000,N,00.0000000,E,00.0000000,W84*5F
$GPRMC,203017.00,A,4742.4464070,N,01617.9736470,E,0.0,,010125,5.1,E,D*13
$GPGLL,4742.4464070,N,01617.9736470,E,203017.00,A,D*62
$GPGGA,203017.00,4742.4464070,N,01617.9736470,E,2,21,0.7,625.2632,M,43.2110,M,3.5,0123*4C
$GNGNS,203017.00,4742.4464070,N,01617.9736470,E,DAAA,21,0.7,625.2632,43.2110,,*56
$GPGNS,203017.00,,,,,,04,,,,3.5,123*78
$GLGNS,203017.00,,,,,,06,,,,,*7E
$GAGNS,203017.00,,,,,,05,,,,,*70
$GBGNS,203017.00,,,,,,06,,,,,*70
$GPLLQ,203017.00,010125,,M,,M,1,21,4.790,,M*1F
$GPVTG,,T,,M,0.01,N,0.01,K,D*26
$GPHDT,,T*1B
$GPTHS,,V*0E
$GPROT,,V*08
$PSSN,HRP,203017.00,010125,,,,,,,00,0,,*66
$PTNL,AVR,203017.00,,Yaw,,Tilt,,,,0,,00*30
$GPGSA,A,3,08,10,21,27,,,,,,,,,1.2,0.7,1.0*38
$GPGSA,A,3,67,68,73,82,83,84,,,,,,,1.2,0.7,1.0*31
$GPGSA,A,3,13,21,26,31,33,,,,,,,,1.2,0.7,1.0*30
$GPGSA,A,3,13,14,27,28,42,43,,,,,,,1.2,0.7,1.0*3E
$GPGST,203017.00,5.677,2.355,1.585,25.215,2.235,1.750,3.858*69
$GPGBS,203017.00,8.779,10.614,17.226,68,0.0001,12.096,6.131*6D
$GPGRS,203017.00,1,0.5,0.3,-1.3,0.3,,,,,,,,*63
$GPGRS,203017.00,1,7.1,12.1,10.5,5.3,-6.6,-3.5,,,,,,*49
$GPGRS,203017.00,1,-0.8,-0.6,-1.7,1.4,1.8,,,,,,,*4E
$GPGRS,203017.00,1,1.3,3.1,-5.2,-1.4,-1.2,-2.7,,,,,,*4D
$GPGSV,5,1,17,27,85,272,52,26,11,186,23,15,10,035,,21,22,267,38*71
$GPGSV,5,2,17,18,17,072,32,16,36,201,26,08,48,302,44,23,48,058,22*73
$GPGSV,5,3,17,10,68,144,47,07,02,296,31,02,04,264,,30,01,327,24*7A
$GPGSV,5,4,17,32,06,145,,36,35,170,40,34,31,208,,49,34,195,36*75
$GPGSV,5,5,17,61,03,257,*4B
$GLGSV,3,1,10,83,59,043,41,75,15,338,39,82,23,080,36,68,39,122,38*6F
$GLGSV,3,2,10,73,24,234,42,84,36,293,36,67,38,054,48,74,36,284,30*6C
$GLGSV,3,3,10,66,04,013,23,69,08,163,*60
$GAGSV,3,1,11,14,66,283,,03,14,043,21,31,16,322,35,33,12,256,24*60
$GAGSV,3,2,11,21,36,199,36,08,20,094,33,23,49,274,,13,60,055,40*61
$GAGSV,3,3,11,26,60,269,42,15,09,070,,07,05,142,*5E
$GBGSV,5,1,20,28,80,335,51,37,16,234,25,60,11,108,,50,15,036,*64
$GBGSV,5,2,20,41,15,175,33,05,23,128,,57,20,228,,46,22,289,*6A
$GBGSV,5,3,20,08,23,038,24,58,26,271,,43,30,099,36,13,31,043,38*6B
$GBGSV,5,4,20,33,45,128,33,42,33,055,44,27,36,289,40,14,46,088,45*65
$GBGSV,5,5,20,11,09,098,,02,08,105,,36,04,336,23,38,09,040,19*67
$GPGGA,203017.00,,,,,0,00,,,M,,M,,*4F
$PTNL,GGK,203017.00,010125,4742.4464070,N,01617.9736470,E,1,21,1.2,EHT668.4743,M*48
$GPGGQ,203017.00,010125,4742.4464070,N,01617.9736470,E,1,21,4.790,625.2632,M*37
$GPGFA,203017.00,22.388,31.638,2.355,1.585,25.215,3.858,,VVV*37
$GPLLK,203017.00,010125,,M,,M,1,21,1.4,,M*0A
$GNGMP,203017.00,,,,,DAAA,21,0.7,,,,*55
$GPGMP,203017.00,,,,,,04,,,,3.5,123*78
$GLGMP,203017.00,,,,,,06,,,,,*7E
$GAGMP,203017.00,,,,,,05,,,,,*70
$GBGMP,203017.00,,,,,,06,,,,,*70
$PSSN,SNC,[0,333035000,2347]*41
$GPZDA,203022.00,01,01,2025,,*62
$GPDTM,W84,,00.0000000,N,00.0000000,E,00.0000000,W84*5F
$GPRMC,203022.00,A,4742.4464062,N,01617.9736450,E,0.0,,010125,5.1,E,D*14
$GPGLL,4742.4464062,N,01617.9736450,E,203022.00,A,D*65
$GPGGA,203022.00,4742.4464062,N,01617.9736450,E,2,19,0.8,625.2426,M,43.2110,M,2.8,0123*44
$GNGNS,203022.00,4742.4464062,N,01617.9736450,E,DAAA,19,0.8,625.2426,43.2110,,*52
$GPGNS,203022.00,,,,,,05,,,,2.8,123*73
$GLGNS,203022.00,,,,,,05,,,,,*7B
$GAGNS,203022.00,,,,,,04,,,,,*77
$GBGNS,203022.00,,,,,,05,,,,,*75
$GPLLQ,203022.00,010125,,M,,M,1,19,4.413,,M*1A
$GPVTG,,T,,M,0.01,N,0.02,K,D*25
$GPHDT,,T*1B
$GPTHS,,V*0E
$GPROT,,V*08
$PSSN,HRP,203022.00,010125,,,,,,,00,0,,*60
$PTNL,AVR,203022.00,,Yaw,,Tilt,,,,0,,00*36
$GPGSA,A,3,08,10,21,23,27,,,,,,,,1.4,0.8,1.2*32
$GPGSA,A,3,67,68,73,83,84,,,,,,,,1.4,0.8,1.2*30
$GPGSA,A,3,13,21,26,33,,,,,,,,,1.4,0.8,1.2*39
$GPGSA,A,3,13,14,27,28,42,,,,,,,,1.4,0.8,1.2*32
$GPGST,203022.00,6.035,2.212,1.339,352.888,2.201,1.356,3.576*56
$GPGBS,203022.00,6.123,4.602,9.992,23,0.0001,-2.454,0.741*7B
$GPGRS,203022.00,1,1.3,0.5,-1.9,-2.5,0.7,,,,,,,*6E
$GPGRS,203022.00,1,6.0,12.3,10.4,-6.6,-6.5,,,,,,,*61
$GPGRS,203022.00,1,-0.5,-1.0,-1.6,2.9,,,,,,,,*6A
$GPGRS,203022.00,1,1.1,2.2,-4.6,-1.0,-1.3,,,,,,,*4D
$GPGSV,5,1,17,27,85,272,52,26,11,186,24,15,10,035,,21,22,267,37*79
$GPGSV,5,2,17,18,17,072,31,16,36,201,30,08,48,302,44,23,48,058,45*76
$GPGSV,5,3,17,10,68,143,48,07,02,296,27,02,04,264,,30,01,327,*73
$GPGSV,5,4,17,32,06,145,,36,35,170,41,34,31,208,,49,34,195,36*74
$GPGSV,5,5,17,61,03,257,*4B
$GLGSV,3,1,10,83,59,043,41,75,15,338,32,82,23,080,30,68,39,122,28*63
$GLGSV,3,2,10,73,24,234,40,84,36,293,36,67,38,054,47,74,36,284,30*61
$GLGSV,3,3,10,66,04,013,28,69,08,163,*6B
$GAGSV,3,1,11,14,66,283,,03,14,043,23,31,16,322,34,33,12,256,36*60
$GAGSV,3,2,11,21,36,199,36,08,20,094,34,23,49,273,,13,60,055,39*6F
$GAGSV,3,3,11,26,60,269,42,15,09,070,,07,05,142,*5E
$GBGSV,5,1,20,28,80,335,52,37,16,234,,60,11,108,,50,14,036,*61
$GBGSV,5,2,20,41,15,175,33,05,23,128,,57,20,228,,46,22,289,*6A
$GBGSV,5,3,20,08,23,038,23,58,26,271,,43,30,099,34,13,30,043,38*6F
$GBGSV,5,4,20,33,45,128,32,42,33,055,45,27,36,289,41,14,46,088,45*64
$GBGSV,5,5,20,11,09,098,,02,08,105,,36,05,336,21,38,09,040,21*6F
$GPGGA,203022.00,,,,,0,00,,,M,,M,,*49
$PTNL,GGK,203022.00,010125,4742.4464062,N,01617.9736450,E,1,19,1.4,EHT668.4537,M*43
$GPGGQ,203022.00,010125,4742.4464062,N,01617.9736450,E,1,19,4.413,625.2426,M*34
$GPGFA,203022.00,21.029,29.325,2.212,1.339,352.888,3.576,,VVV*05
$GPLLK,203022.00,010125,,M,,M,1,19,1.6,,M*05
$GNGMP,203022.00,,,,,DAAA,19,0.8,,,,*57
$GPGMP,203022.00,,,,,,05,,,,2.8,123*73
$GLGMP,203022.00,,,,,,05,,,,,*7B
$GAGMP,203022.00,,,,,,04,,,,,*77
$GBGMP,203022.00,,,,,,05,,,,,*75
$PSSN,SNC,[0,333040000,2347]*43
$GPZDA,203027.00,01,01,2025,,*67
$GPDTM,W84,,00.0000000,N,00.0000000,E,00.0000000,W84*5F
$GPRMC,203027.00,A,4742.4464135,N,01617.9736448,E,0.0,,010125,5.1,E,D*1B
$GPGLL,4742.4464135,N,01617.9736448,E,203027.00,A,D*6A
$GPGGA,203027.00,4742.4464135,N,01617.9736448,E,2,18,0.8,625.2219,M,43.2110,M,1.5,0123*4E
$GNGNS,203027.00,4742.4464135,N,01617.9736448,E,DAAA,18,0.8,625.2219,43.2110,,*56
$GPGNS,203027.00,,,,,,04,,,,1.5,123*79
$GLGNS,203027.00,,,,,,04,,,,,*7F
$GAGNS,203027.00,,,,,,03,,,,,*75
$GBGNS,203027.00,,,,,,07,,,,,*72
$GPLLQ,203027.00,010125,,M,,M,1,18,6.409,,M*17
$GPVTG,,T,,M,0.01,N,0.02,K,D*25
$GPHDT,,T*1B
$GPTHS,,V*0E
$GPROT,,V*08
$PSSN,HRP,203027.00,010125,,,,,,,00,0,,*65
$PTNL,AVR,203027.00,,Yaw,,Tilt,,,,0,,00*33
$GPGSA,A,3,08,10,21,27,,,,,,,,,1.2,0.8,0.9*3F
$GPGSA,A,3,67,73,83,84,,,,,,,,,1.2,0.8,0.9*32
$GPGSA,A,3,13,26,33,,,,,,,,,,1.2,0.8,0.9*36
$GPGSA,A,3,13,14,27,28,38,41,42,,,,,,1.2,0.8,0.9*30
$GPGST,203027.00,8.356,3.789,1.368,48.471,2.713,2.978,4.985*6F
$GPGBS,203027.00,10.452,11.837,18.677,21,0.0001,-1.802,0.855*46
$GPGRS,203027.00,1,0.7,0.4,-1.8,0.0,,,,,,,,*6D
$GPGRS,203027.00,1,2.4,10.6,-8.0,-9.3,,,,,,,,*79
$GPGRS,203027.00,1,0.1,-1.0,3.0,,,,,,,,,*4A
$GPGRS,203027.00,1,-0.1,1.4,-3.5,-1.2,21.0,4.9,-2.2,,,,,*5B
$GPGSV,5,1,17,27,85,271,51,26,11,186,23,15,10,035,,21,23,267,36*7E
$GPGSV,5,2,17,18,17,072,29,16,36,201,33,08,48,302,44,23,48,058,27*78
$GPGSV,5,3,17,10,68,143,48,07,02,296,22,02,04,264,,30,01,327,*76
$GPGSV,5,4,17,32,06,145,,36,35,170,41,34,31,208,,49,34,195,36*74
$GPGSV,5,5,17,61,03,257,*4B
$GLGSV,3,1,10,83,59,043,40,75,15,338,32,82,23,080,28,68,39,122,31*63
$GLGSV,3,2,10,73,24,234,37,84,36,293,37,67,38,054,45,74,36,284,32*60
$GLGSV,3,3,10,66,04,013,28,69,08,163,*6B
$GAGSV,3,1,11,14,66,283,,03,14,043,23,31,16,322,32,33,12,256,36*66
$GAGSV,3,2,11,21,36,199,34,08,20,094,35,23,49,273,,13,60,055,39*6C
$GAGSV,3,3,11,26,60,269,42,15,09,070,,07,05,142,*5E
$GBGSV,5,1,20,28,80,335,52,37,16,234,23,60,11,108,,50,14,036,*60
$GBGSV,5,2,20,41,15,175,33,05,23,128,,57,20,228,,46,22,289,*6A
$GBGSV,5,3,20,08,23,038,22,58,26,271,,43,30,099,31,13,30,043,38*6B
$GBGSV,5,4,20,33,45,128,32,42,33,055,46,27,36,289,41,14,46,088,45*67
$GBGSV,5,5,20,11,09,098,,02,08,105,,36,05,336,26,38,09,040,19*63
$GPGGA,203027.00,,,,,0,00,,,M,,M,,*4C
$PTNL,GGK,203027.00,010125,4742.4464135,N,01617.9736448,E,1,18,1.2,EHT668.4329,M*42
$GPGGQ,203027.00,010125,4742.4464135,N,01617.9736448,E,1,18,6.409,625.2219,M*39
$GPGFA,203027.00,36.024,40.880,3.789,1.368,48.471,4.985,,VVV*37
$GPLLK,203027.00,010125,,M,,M,1,18,1.3,,M*04
$GNGMP,203027.00,,,,,DAAA,18,0.8,,,,*53
$GPGMP,203027.00,,,,,,04,,,,1.5,123*79
$GLGMP,203027.00,,,,,,04,,,,,*7F
$GAGMP,203027.00,,,,,,03,,,,,*75
$GBGMP,203027.00,,,,,,07,,,,,*72
$PSSN,SNC,[0,333045000,2347]*46
$GPZDA,203032.00,01,01,2025,,*63
$GPDTM,W84,,00.0000000,N,00.0000000,E,00.0000000,W84*5F
$GPRMC,203032.00,A,4742.4464139,N,01617.9736409,E,0.0,,010125,5.1,E,D*16
$GPGLL,4742.4464139,N,01617.9736409,E,203032.00,A,D*67
$GPGGA,203032.00,4742.4464139,N,01617.9736409,E,2,16,0.9,625.2218,M,43.2110,M,2.7,0123*4C
$GNGNS,203032.00,4742.4464139,N,01617.9736409,E,DAAA,16,0.9,625.2218,43.2110,,*55
$GPGNS,203032.00,,,,,,03,,,,2.7,123*7B
$GLGNS,203032.00,,,,,,04,,,,,*7B
$GAGNS,203032.00,,,,,,03,,,,,*71
$GBGNS,203032.00,,,,,,06,,,,,*77
$GPLLQ,203032.00,010125,,M,,M,1,16,5.913,,M*18
$GPVTG,,T,,M,0.00,N,0.01,K,D*27
$GPHDT,,T*1B
$GPTHS,,V*0E
$GPROT,,V*08
$PSSN,HRP,203032.00,010125,,,,,,,00,0,,*61
$PTNL,AVR,203032.00,,Yaw,,Tilt,,,,0,,00*37
$GPGSA,A,3,08,10,27,,,,,,,,,,1.5,0.9,1.2*30
$GPGSA,A,3,67,75,83,84,,,,,,,,,1.5,0.9,1.2*38
$GPGSA,A,3,13,26,33,,,,,,,,,,1.5,0.9,1.2*3A
$GPGSA,A,3,13,14,27,28,33,42,,,,,,,1.5,0.9,1.2*32
$GPGST,203032.00,5.412,3.885,1.112,40.334,3.048,2.654,4.316*6A
$GPGBS,203032.00,16.142,16.560,26.432,75,0.0001,-9.759,6.297*4C
$GPGRS,203032.00,1,0.0,0.2,-0.2,,,,,,,,,*4D
$GPGRS,203032.00,1,0.2,-9.8,-9.0,-7.3,,,,,,,,*6D
$GPGRS,203032.00,1,0.5,-0.3,3.0,,,,,,,,,*48
$GPGRS,203032.00,1,0.1,0.1,-2.3,-1.1,3.6,-2.2,,,,,,*67
$GPGSV,5,1,17,27,85,271,51,26,11,186,23,15,10,035,,21,23,267,35*7D
$GPGSV,5,2,17,18,17,072,29,16,36,201,34,08,48,302,43,23,48,058,25*7A
$GPGSV,5,3,17,10,68,143,47,07,02,296,27,02,04,264,,30,01,327,25*7B
$GPGSV,5,4,17,32,06,145,,36,35,170,41,34,31,208,,49,34,195,36*74
$GPGSV,5,5,17,61,03,257,*4B
$GLGSV,3,1,10,83,59,043,38,75,15,338,35,82,23,080,28,68,39,122,31*6B
$GLGSV,3,2,10,73,24,233,34,84,36,293,37,67,38,054,43,74,36,284,33*63
$GLGSV,3,3,10,66,04,013,29,69,08,163,*6A
$GAGSV,3,1,11,14,66,283,,03,14,043,23,31,16,322,30,33,12,256,36*64
$GAGSV,3,2,11,21,36,199,32,08,20,094,34,23,49,273,,13,60,055,39*6B
$GAGSV,3,3,11,26,60,269,43,15,09,070,,07,05,142,*5F
$GBGSV,5,1,20,28,80,335,52,37,16,234,,60,11,108,,50,14,036,*61
$GBGSV,5,2,20,41,15,175,33,05,23,128,,57,20,228,,46,22,289,*6A
$GBGSV,5,3,20,08,22,038,22,58,26,271,,43,30,099,31,13,30,043,38*6A
$GBGSV,5,4,20,33,45,128,38,42,33,055,46,27,36,289,41,14,46,088,44*6C
$GBGSV,5,5,20,11,09,098,,02,08,105,,36,05,336,28,38,09,040,*65
$GPGGA,203032.00,,,,,0,00,,,M,,M,,*48
$PTNL,GGK,203032.00,010125,4742.4464139,N,01617.9736409,E,1,16,1.5,EHT668.4328,M*47
$GPGGQ,203032.00,010125,4742.4464139,N,01617.9736409,E,1,16,5.913,625.2218,M*3E
$GPGFA,203032.00,36.941,35.392,3.885,1.112,40.334,4.316,,VVV*31
$GPLLK,203032.00,010125,,M,,M,1,16,1.8,,M*05
$GNGMP,203032.00,,,,,DAAA,16,0.9,,,,*58
$GPGMP,203032.00,,,,,,03,,,,2.7,123*7B
$GLGMP,203032.00,,,,,,04,,,,,*7B
$GAGMP,203032.00,,,,,,03,,,,,*71
$GBGMP,203032.00,,,,,,06,,,,,*77
$PSSN,SNC,[0,333050000,2347]*42
$GPZDA,203037.00,01,01,2025,,*66
$GPDTM,W84,,00.0000000,N,00.0000000,E,00.0000000,W84*5F
$GPRMC,203037.00,A,4742.4464106,N,01617.9736364,E,0.0,,010125,5.1,E,D*13
$GPGLL,4742.4464106,N,01617.9736364,E,203037.00,A,D*62
$GPGGA,203037.00,4742.4464106,N,01617.9736364,E,2,17,0.7,625.2121,M,43.2110,M,3.7,0123*4E
$GNGNS,203037.00,4742.4464106,N,01617.9736364,E,DAAA,17,0.7,625.2121,43.2110,,*56
$GPGNS,203037.00,,,,,,03,,,,3.7,123*7F
$GLGNS,203037.00,,,,,,04,,,,,*7E
$GAGNS,203037.00,,,,,,03,,,,,*74
$GBGNS,203037.00,,,,,,07,,,,,*73
$GPLLQ,203037.00,010125,,M,,M,1,17,5.748,,M*1C
$GPVTG,,T,,M,0.00,N,0.01,K,D*27
$GPHDT,,T*1B
$GPTHS,,V*0E
$GPROT,,V*08
$PSSN,HRP,203037.00,010125,,,,,,,00,0,,*64
$PTNL,AVR,203037.00,,Yaw,,Tilt,,,,0,,00*32
$GPGSA,A,3,08,10,27,,,,,,,,,,1.3,0.7,1.0*3A
$GPGSA,A,3,67,75,83,84,,,,,,,,,1.3,0.7,1.0*32
$GPGSA,A,3,13,26,33,,,,,,,,,,1.3,0.7,1.0*30
$GPGSA,A,3,13,14,27,28,33,41,42,,,,,,1.3,0.7,1.0*3D
$GPGST,203037.00,4.988,3.773,1.138,40.048,2.980,2.579,4.185*6E
$GPGBS,203037.00,16.085,16.578,26.748,83,0.0001,-9.094,6.074*44
$GPGRS,203037.00,1,-0.2,-0.3,0.3,,,,,,,,,*67
$GPGRS,203037.00,1,0.2,-7.7,-9.1,-6.8,,,,,,,,*62
$GPGRS,203037.00,1,1.8,0.6,3.4,,,,,,,,,*6D
$GPGRS,203037.00,1,-0.5,-0.6,-2.4,-0.9,1.2,5.9,-1.5,,,,,*4F
$GPGSV,5,1,17,27,85,271,51,26,11,186,22,15,10,035,,21,23,267,33*7A
$GPGSV,5,2,17,18,17,072,30,16,36,201,30,08,48,302,41,23,48,058,23*72
$GPGSV,5,3,17,10,68,143,45,07,02,296,28,02,04,264,,30,01,327,25*76
$GPGSV,5,4,17,32,06,145,,36,35,170,41,34,31,208,,49,34,195,36*74
$GPGSV,5,5,17,61,03,257,*4B
$GLGSV,3,1,10,83,59,043,37,75,15,338,36,82,23,080,27,68,39,122,34*6D
$GLGSV,3,2,10,73,24,233,30,84,36,293,37,67,38,054,43,74,36,284,31*65
$GLGSV,3,3,10,66,04,013,29,69,08,163,*6A
$GAGSV,3,1,11,14,66,283,,03,14,043,25,31,16,322,29,33,12,256,36*6A
$GAGSV,3,2,11,21,36,199,30,08,20,094,34,23,49,273,,13,60,055,41*66
$GAGSV,3,3,11,26,60,269,45,15,09,070,,07,05,142,*59
$GBGSV,5,1,20,28,80,335,51,37,16,234,27,60,11,108,,50,14,036,*67
$GBGSV,5,2,20,41,15,175,32,05,23,128,,57,20,228,,46,22,289,*6B
$GBGSV,5,3,20,08,22,038,20,58,26,271,,43,30,099,35,13,30,043,38*6C
$GBGSV,5,4,20,33,45,128,39,42,33,055,46,27,36,289,41,14,46,088,43*6A
$GBGSV,5,5,20,11,09,098,,02,08,105,,36,05,336,28,38,09,040,*65
$GPGGA,203037.00,,,,,0,00,,,M,,M,,*4D
$PTNL,GGK,203037.00,010125,4742.4464106,N,01617.9736364,E,1,17,1.3,EHT668.4231,M*4C
$GPGGQ,203037.00,010125,4742.4464106,N,01617.9736364,E,1,17,5.748,625.2121,M*33
$GPGFA,203037.00,35.874,34.315,3.773,1.138,40.048,4.185,,VVV*30
$GPLLK,203037.00,010125,,M,,M,1,17,1.4,,M*0D
$GNGMP,203037.00,,,,,DAAA,17,0.7,,,,*52
$GPGMP,203037.00,,,,,,03,,,,3.7,123*7F
$GLGMP,203037.00,,,,,,04,,,,,*7E
$GAGMP,203037.00,,,,,,03,,,,,*74
$GBGMP,203037.00,,,,,,07,,,,,*73
$PSSN,SNC,[0,333055000,2347]*47
$GPZDA,203042.00,01,01,2025,,*64
$GPDTM,W84,,00.0000000,N,00.0000000,E,00.0000000,W84*5F
$GPRMC,203042.00,A,4742.4464096,N,01617.9736413,E,0.0,,010125,5.1,E,D*1E
$GPGLL,4742.4464096,N,01617.9736413,E,203042.00,A,D*6F
$GPGGA,203042.00,4742.4464096,N,01617.9736413,E,2,18,0.7,625.2099,M,43.2110,M,2.0,0123*48
$GNGNS,203042.00,4742.4464096,N,01617.9736413,E,DAAA,18,0.7,625.2099,43.2110,,*56
$GPGNS,203042.00,,,,,,03,,,,2.0,123*7B
$GLGNS,203042.00,,,,,,04,,,,,*7C
$GAGNS,203042.00,,,,,,03,,,,,*76
$GBGNS,203042.00,,,,,,08,,,,,*7E
$GPLLQ,203042.00,010125,,M,,M,1,18,8.116,,M*11
$GPVTG,,T,,M,0.01,N,0.01,K,D*26
$GPHDT,,T*1B
$GPTHS,,V*0E
$GPROT,,V*08
$PSSN,HRP,203042.00,010125,,,,,,,00,0,,*66
$PTNL,AVR,203042.00,,Yaw,,Tilt,,,,0,,00*30
$GPGSA,A,3,08,10,27,,,,,,,,,,1.2,0.7,1.0*3B
$GPGSA,A,3,67,75,83,84,,,,,,,,,1.2,0.7,1.0*33
$GPGSA,A,3,13,26,33,,,,,,,,,,1.2,0.7,1.0*31
$GPGSA,A,3,13,14,27,28,33,41,42,43,,,,,1.2,0.7,1.0*3B
$GPGST,203042.00,6.299,5.331,1.590,39.743,4.223,3.621,5.910*6B
$GPGBS,203042.00,16.030,16.254,26.801,10,0.0001,-1.149,0.601*42
$GPGRS,203042.00,1,0.3,-1.1,0.9,,,,,,,,,*40
$GPGRS,203042.00,1,2.9,-10.0,-7.2,-6.9,,,,,,,,*54
$GPGRS,203042.00,1,2.1,0.6,4.2,,,,,,,,,*64
$GPGRS,203042.00,1,-0.3,0.8,-4.4,-1.0,0.0,6.1,-1.2,12.1,,,,*75
$GPGSV,5,1,17,27,85,270,51,26,11,186,22,15,10,035,28,21,23,267,32*70
$GPGSV,5,2,17,18,17,072,30,16,36,201,22,08,48,302,38,23,48,058,23*7F
$GPGSV,5,3,17,10,68,143,42,07,02,296,25,02,04,264,,30,01,327,28*71
$GPGSV,5,4,17,32,06,145,,36,35,170,41,34,31,208,,49,34,195,36*74
$GPGSV,5,5,17,61,03,257,*4B
$GLGSV,3,1,10,83,59,044,36,75,15,338,36,82,23,080,27,68,39,121,32*6E
$GLGSV,3,2,10,73,24,233,29,84,36,293,36,67,38,054,44,74,36,284,28*63
$GLGSV,3,3,10,66,04,013,29,69,08,163,*6A
$GAGSV,3,1,11,14,66,283,,03,14,043,27,31,16,322,28,33,12,256,36*69
$GAGSV,3,2,11,21,36,199,29,08,20,094,32,23,49,273,,13,60,055,42*6B
$GAGSV,3,3,11,26,60,269,46,15,09,070,,07,05,141,*59
$GBGSV,5,1,20,28,80,335,51,37,16,234,29,60,11,108,,50,14,036,*69
$GBGSV,5,2,20,41,15,175,32,05,23,128,,57,20,228,,46,22,289,*6B
$GBGSV,5,3,20,08,22,038,31,58,26,271,,43,30,099,36,13,30,043,37*60
$GBGSV,5,4,20,33,45,128,41,42,33,055,47,27,36,289,41,14,46,087,43*6B
$GBGSV,5,5,20,11,09,098,,02,08,105,,36,05,336,23,38,09,040,*6E
$GPGGA,203042.00,,,,,0,00,,,M,,M,,*4F
$PTNL,GGK,203042.00,010125,4742.4464096,N,01617.9736413,E,1,18,1.2,EHT668.4210,M*4C
$GPGGQ,203042.00,010125,4742.4464096,N,01617.9736413,E,1,18,8.116,625.2099,M*33
$GPGFA,203042.00,50.682,48.465,5.331,1.590,39.743,5.910,,VVV*38
$GPLLK,203042.00,010125,,M,,M,1,18,1.4,,M*00
$GNGMP,203042.00,,,,,DAAA,18,0.7,,,,*5F
$GPGMP,203042.00,,,,,,03,,,,2.0,123*7B
$GLGMP,203042.00,,,,,,04,,,,,*7C
$GAGMP,203042.00,,,,,,03,,,,,*76
$GBGMP,203042.00,,,,,,08,,,,,*7E
$PSSN,SNC,[0,333060000,2347]*41
$GPZDA,203047.00,01,01,2025,,*61
$GPDTM,W84,,00.0000000,N,00.0000000,E,00.0000000,W84*5F
$GPRMC,203047.00,A,4742.4464075,N,01617.9736474,E,0.0,,010125,5.1,E,D*17
$GPGLL,4742.4464075,N,01617.9736474,E,203047.00,A,D*66
$GPGGA,203047.00,4742.4464075,N,01617.9736474,E,2,16,0.9,625.2138,M,43.2110,M,1.7,0123*4F
$GNGNS,203047.00,4742.4464075,N,01617.9736474,E,DAAA,16,0.9,625.2138,43.2110,,*55
$GPGNS,203047.00,,,,,,03,,,,1.7,123*7A
$GLGNS,203047.00,,,,,,03,,,,,*7E
$GAGNS,203047.00,,,,,,03,,,,,*73
$GBGNS,203047.00,,,,,,07,,,,,*74
$GPLLQ,203047.00,010125,,M,,M,1,16,8.849,,M*19
$GPVTG,,T,,M,0.01,N,0.02,K,D*25
$GPHDT,,T*1B
$GPTHS,,V*0E
$GPROT,,V*08
$PSSN,HRP,203047.00,010125,,,,,,,00,0,,*63
$PTNL,AVR,203047.00,,Yaw,,Tilt,,,,0,,00*35
$GPGSA,A,3,08,10,27,,,,,,,,,,1.5,0.9,1.2*30
$GPGSA,A,3,67,83,84,,,,,,,,,,1.5,0.9,1.2*3A
$GPGSA,A,3,13,26,33,,,,,,,,,,1.5,0.9,1.2*3A
$GPGSA,A,3,13,14,27,28,33,42,43,,,,,,1.5,0.9,1.2*35
$GPGST,203047.00,7.051,5.724,1.725,39.615,4.545,3.884,6.524*69
$GPGBS,203047.00,16.493,16.652,26.814,43,0.0001,15.303,8.615*53
$GPGRS,203047.00,1,-0.6,-0.8,0.9,,,,,,,,,*65
$GPGRS,203047.00,1,4.9,-7.5,-8.5,,,,,,,,,*60
$GPGRS,203047.00,1,1.7,0.6,5.5,,,,,,,,,*62
$GPGRS,203047.00,1,0.3,1.1,-4.6,-1.3,-0.3,-1.1,15.3,,,,,*55
$GPGSV,5,1,17,27,85,270,52,26,11,186,23,15,10,035,28,21,23,267,32*72
$GPGSV,5,2,17,18,17,072,31,16,36,201,,08,48,302,35,23,48,058,42*74
$GPGSV,5,3,17,10,69,143,40,07,02,296,22,02,05,264,,30,01,327,29*75
$GPGSV,5,4,17,32,07,145,,36,35,170,41,34,31,208,,49,34,195,36*75
$GPGSV,5,5,17,61,03,257,*4B
$GLGSV,3,1,10,83,59,044,36,75,15,338,29,82,23,080,30,84,36,293,35*66
$GLGSV,3,2,10,73,23,233,35,68,39,121,32,67,38,054,43,74,36,284,24*61
$GLGSV,3,3,10,66,04,013,30,69,08,163,*62
$GAGSV,3,1,11,14,66,283,,03,14,043,28,31,16,322,29,33,12,256,36*67
$GAGSV,3,2,11,21,36,199,29,08,20,094,29,23,49,273,,13,60,055,44*67
$GAGSV,3,3,11,26,60,269,46,15,09,070,,07,05,141,*59
$GBGSV,5,1,20,28,80,336,51,37,16,234,28,60,11,108,,50,14,036,*6B
$GBGSV,5,2,20,41,15,175,31,05,23,128,,57,20,228,,46,22,289,*68
$GBGSV,5,3,20,08,22,039,31,58,26,271,,43,30,099,37,13,30,043,37*60
$GBGSV,5,4,20,33,45,128,40,42,33,055,46,27,36,289,40,14,46,087,41*68
$GBGSV,5,5,20,11,09,098,,02,08,105,,36,05,336,20,38,09,040,*6D
$GPGGA,203047.00,,,,,0,00,,,M,,M,,*4A
$PTNL,GGK,203047.00,010125,4742.4464075,N,01617.9736474,E,1,16,1.5,EHT668.4248,M*41
$GPGGQ,203047.00,010125,4742.4464075,N,01617.9736474,E,1,16,8.849,625.2138,M*3D
$GPGFA,203047.00,54.423,53.494,5.724,1.725,39.615,6.524,,VVV*32
$GPLLK,203047.00,010125,,M,,M,1,16,1.8,,M*07
$GNGMP,203047.00,,,,,DAAA,16,0.9,,,,*5A
$GPGMP,203047.00,,,,,,03,,,,1.7,123*7A
$GLGMP,203047.00,,,,,,03,,,,,*7E
$GAGMP,203047.00,,,,,,03,,,,,*73
$GBGMP,203047.00,,,,,,07,,,,,*74
$PSSN,SNC,[0,333065000,2347]*44
$GPZDA,203052.00,01,01,2025,,*65
$GPDTM,W84,,00.0000000,N,00.0000000,E,00.0000000,W84*5F
$GPRMC,203052.00,A,4742.4464021,N,01617.9736510,E,0.0,,010125,5.1,E,D*11
$GPGLL,4742.4464021,N,01617.9736510,E,203052.00,A,D*60
$GPGGA,203052.00,4742.4464021,N,01617.9736510,E,2,16,0.8,625.2078,M,43.2110,M,2.5,0123*4C
$GNGNS,203052.00,4742.4464021,N,01617.9736510,E,DAAA,16,0.8,625.2078,43.2110,,*57
$GPGNS,203052.00,,,,,,02,,,,2.5,123*7E
$GLGNS,203052.00,,,,,,04,,,,,*7D
$GAGNS,203052.00,,,,,,03,,,,,*77
$GBGNS,203052.00,,,,,,07,,,,,*70
$GPLLQ,203052.00,010125,,M,,M,1,16,9.458,,M*10
$GPVTG,,T,,M,0.00,N,0.01,K,D*27
$GPHDT,,T*1B
$GPTHS,,V*0E
$GPROT,,V*08
$PSSN,HRP,203052.00,010125,,,,,,,00,0,,*67
$PTNL,AVR,203052.00,,Yaw,,Tilt,,,,0,,00*31
$GPGSA,A,3,10,27,,,,,,,,,,,1.4,0.8,1.1*3B
$GPGSA,A,3,67,73,75,83,,,,,,,,,1.4,0.8,1.1*33
$GPGSA,A,3,13,26,33,,,,,,,,,,1.4,0.8,1.1*39
$GPGSA,A,3,13,14,27,28,33,42,43,,,,,,1.4,0.8,1.1*36
$GPGST,203052.00,6.318,4.017,2.128,31.194,3.609,2.764,8.293*63
$GPGBS,203052.00,24.528,10.482,70.365,75,0.0001,-9.304,6.292*47
$GPGRS,203052.00,1,0.1,0.4,,,,,,,,,,*4D
$GPGRS,203052.00,1,3.0,4.3,-9.3,-8.2,,,,,,,,*4C
$GPGRS,203052.00,1,1.0,0.2,5.7,,,,,,,,,*67
$GPGRS,203052.00,1,-0.8,-0.6,-3.9,-1.9,-1.7,-1.6,10.9,,,,,*53
$GPGSV,5,1,17,27,85,269,52,26,11,186,22,15,10,035,29,21,23,267,32*7A
$GPGSV,5,2,17,18,17,072,31,16,36,201,32,08,48,302,31,23,47,058,42*7E
$GPGSV,5,3,17,10,69,143,39,07,02,296,,02,05,264,,30,01,327,26*74
$GPGSV,5,4,17,32,07,145,,36,35,170,41,34,31,208,,49,34,195,37*74
$GPGSV,5,5,17,61,03,257,*4B
$GLGSV,3,1,10,83,59,044,37,75,15,338,37,82,23,080,31,84,36,293,33*6F
$GLGSV,3,2,10,73,23,233,37,68,39,121,34,67,38,054,40,74,36,284,25*67
$GLGSV,3,3,10,66,04,013,31,69,08,163,*63
$GAGSV,3,1,11,14,66,283,,03,14,043,29,31,16,322,31,33,12,256,35*6C
$GAGSV,3,2,11,21,36,199,31,08,20,094,25,23,49,273,,13,60,055,45*63
$GAGSV,3,3,11,26,60,269,46,15,09,070,,07,05,141,*59
$GBGSV,5,1,20,28,80,336,51,37,16,234,25,60,11,108,,50,14,036,*66
$GBGSV,5,2,20,05,23,128,,41,15,175,30,57,20,228,,46,22,289,*69
$GBGSV,5,3,20,08,22,039,31,58,26,271,,43,30,099,37,13,30,043,37*60
$GBGSV,5,4,20,33,45,128,40,42,33,055,46,27,36,289,39,14,46,087,40*67
$GBGSV,5,5,20,11,08,098,,38,09,040,20,36,05,336,26,02,08,105,*68
$GPGGA,203052.00,,,,,0,00,,,M,,M,,*4E
$PTNL,GGK,203052.00,010125,4742.4464021,N,01617.9736510,E,1,16,1.4,EHT668.4188,M*49
$GPGGQ,203052.00,010125,4742.4464021,N,01617.9736510,E,1,16,9.458,625.2078,M*33
$GPGFA,203052.00,38.195,68.006,4.017,2.128,31.194,8.293,,VVV*3E
$GPLLK,203052.00,010125,,M,,M,1,16,1.6,,M*0D
$GNGMP,203052.00,,,,,DAAA,16,0.8,,,,*5F
$GPGMP,203052.00,,,,,,02,,,,2.5,123*7E
$GLGMP,203052.00,,,,,,04,,,,,*7D
$GAGMP,203052.00,,,,,,03,,,,,*77
$GBGMP,203052.00,,,,,,07,,,,,*70
$PSSN,SNC,[0,333070000,2347]*40
$GPZDA,203057.00,01,01,2025,,*60
$GPDTM,W84,,00.0000000,N,00.0000000,E,00.0000000,W84*5F
$GPRMC,203057.00,A,4742.4464065,N,01617.9736452,E,0.0,,010125,5.1,E,D*13
$GPGLL,4742.4464065,N,01617.9736452,E,203057.00,A,D*62
$GPGGA,203057.00,4742.4464065,N,01617.9736452,E,2,19,0.7,625.2158,M,43.2110,M,3.5,0123*4C
$GNGNS,203057.00,4742.4464065,N,01617.9736452,E,DAAA,19,0.7,625.2158,43.2110,,*56
$GPGNS,203057.00,,,,,,02,,,,3.5,123*7A
$GLGNS,203057.00,,,,,,04,,,,,*78
$GAGNS,203057.00,,,,,,02,,,,,*73
$GBGNS,203057.00,,,,,,11,,,,,*72
$GPLLQ,203057.00,010125,,M,,M,1,19,10.724,,M*2A
$GPVTG,,T,,M,0.00,N,0.01,K,D*27
$GPHDT,,T*1B
$GPTHS,,V*0E
$GPROT,,V*08
$PSSN,HRP,203057.00,010125,,,,,,,00,0,,*62
$PTNL,AVR,203057.00,,Yaw,,Tilt,,,,0,,00*34
$GPGSA,A,3,10,27,,,,,,,,,,,1.1,0.7,0.9*38
$GPGSA,A,3,67,73,75,83,,,,,,,,,1.1,0.7,0.9*30
$GPGSA,A,3,13,26,,,,,,,,,,,1.1,0.7,0.9*3A
$GPGSA,A,3,08,13,14,27,28,33,37,38,41,42,43,,1.1,0.7,0.9*37
$GPGST,203057.00,20.801,3.830,2.302,35.842,3.384,2.917,9.749*5E
$GPGBS,203057.00,19.753,12.754,91.723,08,0.0001,18.313,8.665*52
$GPGRS,203057.00,1,0.1,0.0,,,,,,,,,,*4C
$GPGRS,203057.00,1,2.9,1.7,-10.1,-7.0,,,,,,,,*77
$GPGRS,203057.00,1,0.5,-0.0,,,,,,,,,,*65
$GPGRS,203057.00,1,18.3,-1.4,-2.6,-3.7,-2.6,-1.7,55.3,39.2,4.5,-2.2,6.7,*55
$GPGSV,5,1,17,27,85,269,51,26,11,186,22,15,10,035,30,21,23,267,34*77
$GPGSV,5,2,17,18,17,072,30,16,36,201,32,08,48,302,28,23,47,058,31*73
$GPGSV,5,3,17,10,69,143,42,07,02,296,,02,05,264,,30,01,327,22*7C
$GPGSV,5,4,17,32,07,145,,36,35,170,41,34,31,208,,49,34,195,37*74
$GPGSV,5,5,17,61,03,257,*4B
$GLGSV,3,1,10,83,59,044,38,75,15,338,38,82,23,080,30,68,39,121,34*6E
$GLGSV,3,2,10,73,23,233,38,84,36,293,32,67,38,054,37,74,36,284,26*6A
$GLGSV,3,3,10,66,04,013,31,69,08,163,*63
$GAGSV,3,1,11,14,66,283,,03,14,043,30,31,16,322,32,33,12,256,34*66
$GAGSV,3,2,11,21,36,199,32,08,20,094,31,23,49,273,,13,60,055,46*66
$GAGSV,3,3,11,26,60,270,47,15,09,070,,07,05,141,*50
$GBGSV,5,1,20,28,80,336,51,37,16,234,20,60,11,108,,50,14,036,*63
$GBGSV,5,2,20,05,23,128,,41,15,175,29,57,20,228,,46,22,289,*61
$GBGSV,5,3,20,08,22,039,30,58,26,271,,43,30,099,36,13,30,043,37*60
$GBGSV,5,4,20,33,45,128,40,42,33,055,46,27,36,289,38,14,46,087,38*69
$GBGSV,5,5,20,11,08,098,,38,08,040,18,36,05,336,26,02,08,105,*62
$GPGGA,203057.00,,,,,0,00,,,M,,M,,*4B
$PTNL,GGK,203057.00,010125,4742.4464065,N,01617.9736452,E,1,19,1.1,EHT668.4269,M*4D
$GPGGQ,203057.00,010125,4742.4464065,N,01617.9736452,E,1,19,10.724,625.2158,M*0D
$GPGFA,203057.00,36.411,79.939,3.830,2.302,35.842,9.749,,VVV*3C
$GPLLK,203057.00,010125,,M,,M,1,19,1.2,,M*03
$GNGMP,203057.00,,,,,DAAA,19,0.7,,,,*5A
$GPGMP,203057.00,,,,,,02,,,,3.5,123*7A
$GLGMP,203057.00,,,,,,04,,,,,*78
$GAGMP,203057.00,,,,,,02,,,,,*73
$GBGMP,203057.00,,,,,,11,,,,,*72
$PSSN,SNC,[0,333075000,2347]*45
$GPZDA,203102.00,01,01,2025,,*61
$GPDTM,W84,,00.0000000,N,00.0000000,E,00.0000000,W84*5F
$GPRMC,203102.00,A,4742.4464057,N,01617.9736440,E,0.0,,010125,5.1,E,D*10
$GPGLL,4742.4464057,N,01617.9736440,E,203102.00,A,D*61
$GPGGA,203102.00,4742.4464057,N,01617.9736440,E,2,17,0.8,625.2131,M,43.2110,M,2.5,0123*40
$GNGNS,203102.00,4742.4464057,N,01617.9736440,E,DAAA,17,0.8,625.2131,43.2110,,*5B
$GPGNS,203102.00,,,,,,02,,,,2.5,123*7A
$GLGNS,203102.00,,,,,,04,,,,,*79
$GAGNS,203102.00,,,,,,02,,,,,*72
$GBGNS,203102.00,,,,,,09,,,,,*7A
$GPLLQ,203102.00,010125,,M,,M,1,17,14.599,,M*25
$GPVTG,,T,,M,0.01,N,0.01,K,D*26
$GPHDT,,T*1B
$GPTHS,,V*0E
$GPROT,,V*08
$PSSN,HRP,203102.00,010125,,,,,,,00,0,,*63
$PTNL,AVR,203102.00,,Yaw,,Tilt,,,,0,,00*35
$GPGSA,A,3,10,27,,,,,,,,,,,1.3,0.8,1.0*3D
$GPGSA,A,3,67,68,73,83,,,,,,,,,1.3,0.8,1.0*39
$GPGSA,A,3,13,26,,,,,,,,,,,1.3,0.8,1.0*3F
$GPGSA,A,3,08,13,14,27,28,33,38,41,42,,,,1.3,0.8,1.0*31
$GPGST,203102.00,12.597,4.227,2.501,21.683,4.035,2.800,13.748*67
$GPGBS,203102.00,33.375,12.461,123.748,68,0.0001,13.182,6.138*6D
$GPGRS,203102.00,1,0.2,-0.3,,,,,,,,,,*60
$GPGRS,203102.00,1,5.4,13.2,1.5,-7.3,,,,,,,,*50
$GPGRS,203102.00,1,-0.3,-0.3,,,,,,,,,,*4C
$GPGRS,203102.00,1,-1.4,-1.2,-2.4,-4.2,-3.1,0.2,35.6,4.2,-2.7,,,*57
$GPGSV,5,1,17,27,85,269,50,26,11,186,22,15,10,035,30,21,23,267,34*76
$GPGSV,5,2,17,18,17,072,27,16,36,201,31,08,48,302,33,23,47,058,34*79
$GPGSV,5,3,17,10,69,143,44,07,02,296,,02,05,264,,30,01,327,21*79
$GPGSV,5,4,17,32,07,145,,36,35,170,41,34,31,208,,49,34,195,37*74
$GPGSV,5,5,17,61,03,257,*4B
$GLGSV,3,1,10,83,59,044,39,75,15,338,33,82,23,080,29,84,36,293,32*6D
$GLGSV,3,2,10,73,23,233,38,68,39,121,35,67,38,054,36,74,36,284,*6F
$GLGSV,3,3,10,66,04,013,29,69,08,163,*6A
$GAGSV,3,1,11,14,66,283,,03,14,043,31,31,16,322,32,33,12,256,32*61
$GAGSV,3,2,11,21,36,199,34,08,20,094,31,23,49,273,,13,60,055,46*60
$GAGSV,3,3,11,26,60,270,47,15,09,070,,07,05,141,*50
$GBGSV,5,1,20,28,80,336,51,37,16,234,,60,11,108,,50,14,036,*61
$GBGSV,5,2,20,05,23,128,,41,15,175,27,57,20,228,,46,22,289,*6F
$GBGSV,5,3,20,08,22,039,20,58,26,271,,43,30,099,29,13,30,043,38*60
$GBGSV,5,4,20,33,45,128,41,42,33,055,45,27,36,289,38,14,46,087,37*64
$GBGSV,5,5,20,11,08,098,,38,08,040,21,36,05,336,26,02,08,105,*68
$GPGGA,203102.00,,,,,0,00,,,M,,M,,*4A
$PTNL,GGK,203102.00,010125,4742.4464057,N,01617.9736440,E,1,17,1.3,EHT668.4242,M*4B
$GPGGQ,203102.00,010125,4742.4464057,N,01617.9736440,E,1,17,14.599,625.2131,M*0F
$GPGFA,203102.00,40.188,112.737,4.227,2.501,21.683,13.748,,VVV*37
$GPLLK,203102.00,010125,,M,,M,1,17,1.4,,M*0A
$GNGMP,203102.00,,,,,DAAA,17,0.8,,,,*5A
$GPGMP,203102.00,,,,,,02,,,,2.5,123*7A
$GLGMP,203102.00,,,,,,04,,,,,*79
$GAGMP,203102.00,,,,,,02,,,,,*72
$GBGMP,203102.00,,,,,,09,,,,,*7A
$PSSN,SNC,[0,333080000,2347]*4F
$GPZDA,203107.00,01,01,2025,,*64
$GPDTM,W84,,00.0000000,N,00.0000000,E,00.0000000,W84*5F
$GPRMC,203107.00,A,4742.4464079,N,01617.9736421,E,0.0,,010125,5.1,E,D*1E
$GPGLL,4742.4464079,N,01617.9736421,E,203107.00,A,D*6F
$GPGGA,203107.00,4742.4464079,N,01617.9736421,E,2,17,0.8,625.2156,M,43.2110,M,1.7,0123*4E
$GNGNS,203107.00,4742.4464079,N,01617.9736421,E,DAAA,17,0.8,625.2156,43.2110,,*54
$GPGNS,203107.00,,,,,,03,,,,1.7,123*7F
$GLGNS,203107.00,,,,,,04,,,,,*7C
$GAGNS,203107.00,,,,,,03,,,,,*76
$GBGNS,203107.00,,,,,,07,,,,,*71
$GPLLQ,203107.00,010125,,M,,M,1,17,6.511,,M*13
$GPVTG,,T,,M,0.00,N,0.00,K,D*26
$GPHDT,,T*1B
$GPTHS,,V*0E
$GPROT,,V*08
$PSSN,HRP,203107.00,010125,,,,,,,00,0,,*66
$PTNL,AVR,203107.00,,Yaw,,Tilt,,,,0,,00*30
$GPGSA,A,3,08,10,27,,,,,,,,,,1.3,0.8,1.1*34
$GPGSA,A,3,67,73,75,83,,,,,,,,,1.3,0.8,1.1*34
$GPGSA,A,3,13,21,26,,,,,,,,,,1.3,0.8,1.1*3D
$GPGSA,A,3,13,14,27,28,33,38,42,,,,,,1.3,0.8,1.1*3D
$GPGST,203107.00,11.461,3.013,1.332,42.256,2.403,2.253,5.616*51
$GPGBS,203107.00,9.930,12.060,29.285,83,0.0001,-7.211,6.071*78
$GPGRS,203107.00,1,-0.3,0.0,0.1,,,,,,,,,*48
$GPGRS,203107.00,1,3.5,2.9,-5.8,-7.2,,,,,,,,*4C
$GPGRS,203107.00,1,-0.5,3.1,-0.2,,,,,,,,,*62
$GPGRS,203107.00,1,-0.8,-0.3,-4.2,-2.6,0.8,34.1,-3.2,,,,,*7C
$GPGSV,5,1,17,27,86,268,51,26,11,186,21,15,10,035,31,21,23,267,34*77
$GPGSV,5,2,17,18,17,072,27,16,36,201,29,08,48,302,35,23,47,058,39*7B
$GPGSV,5,3,17,10,69,143,44,07,02,296,,02,05,264,,30,01,327,*7A
$GPGSV,5,4,17,32,07,145,,36,35,170,41,34,31,208,,49,34,195,37*74
$GPGSV,5,5,17,61,03,257,*4B
$GLGSV,3,1,10,83,59,044,39,75,15,338,40,82,23,080,29,84,36,293,31*6A
$GLGSV,3,2,10,73,23,233,36,68,39,121,34,67,38,053,37,74,36,284,26*62
$GLGSV,3,3,10,66,04,013,29,69,08,163,*6A
$GAGSV,3,1,11,14,67,283,,03,14,043,31,31,16,322,33,33,12,256,31*62
$GAGSV,3,2,11,21,36,199,36,08,20,094,23,23,49,273,,13,60,055,46*61
$GAGSV,3,3,11,26,60,270,48,15,09,070,,07,05,141,*5F
$GBGSV,5,1,20,28,80,336,51,37,16,234,,60,11,108,,50,14,036,*61
$GBGSV,5,2,20,05,23,128,,41,15,175,25,57,20,228,,46,22,289,*6D
$GBGSV,5,3,20,08,22,039,19,58,26,271,,43,30,100,31,13,30,043,37*6D
$GBGSV,5,4,20,33,45,128,43,42,33,055,44,27,36,289,39,14,46,087,35*64
$GBGSV,5,5,20,11,08,098,,38,08,041,22,36,05,336,32,02,08,105,*6F
$GPGGA,203107.00,,,,,0,00,,,M,,M,,*4F
$PTNL,GGK,203107.00,010125,4742.4464079,N,01617.9736421,E,1,17,1.3,EHT668.4266,M*43
$GPGGQ,203107.00,010125,4742.4464079,N,01617.9736421,E,1,17,6.511,625.2156,M*33
$GPGFA,203107.00,28.650,46.050,3.013,1.332,42.256,5.616,,VVV*3B
$GPLLK,203107.00,010125,,M,,M,1,17,1.6,,M*0D
$GNGMP,203107.00,,,,,DAAA,17,0.8,,,,*5F
$GPGMP,203107.00,,,,,,03,,,,1.7,123*7F
$GLGMP,203107.00,,,,,,04,,,,,*7C
$GAGMP,203107.00,,,,,,03,,,,,*76
$GBGMP,203107.00,,,,,,07,,,,,*71
$PSSN,SNC,[0,333085000,2347]*4A
$GPZDA,203112.00,01,01,2025,,*60
$GPDTM,W84,,00.0000000,N,00.0000000,E,00.0000000,W84*5F
$GPRMC,203112.00,A,4742.4464081,N,01617.9736416,E,0.0,,010125,5.1,E,D*19
$GPGLL,4742.4464081,N,01617.9736416,E,203112.00,A,D*68
$GPGGA,203112.00,4742.4464081,N,01617.9736416,E,2,19,0.7,625.2186,M,43.2110,M,2.7,0123*46
$GNGNS,203112.00,4742.4464081,N,01617.9736416,E,DAAA,19,0.7,625.2186,43.2110,,*5F
$GPGNS,203112.00,,,,,,03,,,,2.7,123*78
$GLGNS,203112.00,,,,,,03,,,,,*7F
$GAGNS,203112.00,,,,,,03,,,,,*72
$GBGNS,203112.00,,,,,,10,,,,,*73
$GPLLQ,203112.00,010125,,M,,M,1,19,9.519,,M*1E
$GPVTG,,T,,M,0.00,N,0.01,K,D*27
$GPHDT,,T*1B
$GPTHS,,V*0E
$GPROT,,V*08
$PSSN,HRP,203112.00,010125,,,,,,,00,0,,*62
$PTNL,AVR,203112.00,,Yaw,,Tilt,,,,0,,00*34
$GPGSA,A,3,08,10,27,,,,,,,,,,1.2,0.7,1.0*3B
$GPGSA,A,3,67,75,83,,,,,,,,,,1.2,0.7,1.0*3F
$GPGSA,A,3,13,21,26,,,,,,,,,,1.2,0.7,1.0*32
$GPGSA,A,3,08,13,14,27,28,33,38,41,42,43,,,1.2,0.7,1.0*38
$GPGST,203112.00,12.335,6.305,1.794,40.364,4.943,4.306,6.903*5B
$GPGBS,203112.00,18.447,18.533,27.931,75,0.0001,14.870,6.331*5E
$GPGRS,203112.00,1,-1.2,-0.1,0.5,,,,,,,,,*64
$GPGRS,203112.00,1,6.9,14.9,-7.0,,,,,,,,,*7A
$GPGRS,203112.00,1,-0.2,3.1,0.1,,,,,,,,,*4F
$GPGRS,203112.00,1,18.3,-1.1,-1.1,-3.3,-2.1,1.6,32.9,5.9,-4.3,2.5,,*6A
$GPGSV,5,1,17,27,86,268,51,26,11,186,22,15,10,035,29,21,23,267,34*7D
$GPGSV,5,2,17,18,17,072,20,16,36,201,27,08,48,302,36,23,47,058,33*7B
$GPGSV,5,3,17,10,69,143,43,07,02,296,21,02,05,264,,30,01,327,*7E
$GPGSV,5,4,17,32,07,145,,36,35,170,41,34,31,208,,49,34,195,37*74
$GPGSV,5,5,17,61,03,257,*4B
$GLGSV,3,1,10,83,59,044,39,75,15,337,32,82,23,080,28,84,36,293,33*63
$GLGSV,3,2,10,73,23,233,30,68,39,121,34,67,38,053,39,74,36,284,23*6F
$GLGSV,3,3,10,66,04,013,27,69,08,163,*64
$GAGSV,3,1,11,14,67,283,,03,14,043,30,31,16,322,32,33,12,256,31*62
$GAGSV,3,2,11,21,36,199,37,08,20,094,30,23,49,273,,13,60,055,46*62
$GAGSV,3,3,11,26,60,270,48,15,09,070,,07,05,141,*5F
$GBGSV,5,1,20,28,80,336,51,37,16,234,19,60,11,108,,50,14,036,*69
$GBGSV,5,2,20,05,23,128,,41,15,175,24,57,20,228,,46,22,289,*6C
$GBGSV,5,3,20,08,22,039,21,58,26,271,,43,30,100,31,13,30,043,37*66
$GBGSV,5,4,20,33,45,128,44,42,33,055,43,27,36,289,40,14,46,087,34*6B
$GBGSV,5,5,20,11,08,098,,38,08,041,22,36,05,336,27,02,08,105,*6B
$GPGGA,203112.00,,,,,0,00,,,M,,M,,*4B
$PTNL,GGK,203112.00,010125,4742.4464081,N,01617.9736416,E,1,19,1.2,EHT668.4296,M*44
$GPGGQ,203112.00,010125,4742.4464081,N,01617.9736416,E,1,19,9.519,625.2186,M*30
$GPGFA,203112.00,59.949,56.601,6.305,1.794,40.364,6.903,,VVV*3E
$GPLLK,203112.00,010125,,M,,M,1,19,1.4,,M*05
$GNGMP,203112.00,,,,,DAAA,19,0.7,,,,*5A
$GPGMP,203112.00,,,,,,03,,,,2.7,123*78
$GLGMP,203112.00,,,,,,03,,,,,*7F
$GAGMP,203112.00,,,,,,03,,,,,*72
$GBGMP,203112.00,,,,,,10,,,,,*73
$PSSN,SNC,[0,333090000,2347]*4E
$GPZDA,203117.00,01,01,2025,,*65
$GPDTM,W84,,00.0000000,N,00.0000000,E,00.0000000,W84*5F
$GPRMC,203117.00,A,4742.4464075,N,01617.9736414,E,0.0,,010125,5.1,E,D*15
$GPGLL,4742.4464075,N,01617.9736414,E,203117.00,A,D*64
$GPGGA,203117.00,4742.4464075,N,01617.9736414,E,2,16,0.8,625.2155,M,43.2110,M,1.7,0123*47
$GNGNS,203117.00,4742.4464075,N,01617.9736414,E,DAAA,16,0.8,625.2155,43.2110,,*5D
$GPGNS,203117.00,,,,,,03,,,,1.7,123*7E
$GLGNS,203117.00,,,,,,03,,,,,*7A
$GAGNS,203117.00,,,,,,03,,,,,*77
$GBGNS,203117.00,,,,,,07,,,,,*70
$GPLLQ,203117.00,010125,,M,,M,1,16,6.718,,M*18
$GPVTG,,T,,M,0.01,N,0.01,K,D*26
$GPHDT,,T*1B
$GPTHS,,V*0E
$GPROT,,V*08
$PSSN,HRP,203117.00,010125,,,,,,,00,0,,*67
$PTNL,AVR,203117.00,,Yaw,,Tilt,,,,0,,00*31
$GPGSA,A,3,08,10,27,,,,,,,,,,1.3,0.8,1.0*35
$GPGSA,A,3,67,73,83,,,,,,,,,,1.3,0.8,1.0*37
$GPGSA,A,3,13,21,26,,,,,,,,,,1.3,0.8,1.0*3C
$GPGSA,A,3,13,27,28,33,38,41,42,,,,,,1.3,0.8,1.0*3C
$GPGST,203117.00,12.457,3.728,1.370,42.625,2.896,2.718,5.418*59
$GPGBS,203117.00,10.558,12.795,31.187,08,0.0001,1.412,0.648*61
$GPGRS,203117.00,1,1.4,-0.7,0.4,,,,,,,,,*4D
$GPGRS,203117.00,1,5.7,-0.6,-6.7,,,,,,,,,*63
$GPGRS,203117.00,1,-0.4,1.4,-0.2,,,,,,,,,*65
$GPGRS,203117.00,1,-2.0,-2.7,-2.3,1.3,35.4,4.4,-4.7,,,,,*53
$GPGSV,5,1,17,27,86,267,51,26,11,186,22,18,17,072,26,16,36,201,19*7B
$GPGSV,5,2,17,21,23,267,33,08,48,301,39,23,47,058,36,10,69,143,44*77
$GPGSV,5,3,17,15,10,035,28,07,02,296,,02,05,264,,30,01,327,24*7D
$GPGSV,5,4,17,32,07,145,,36,35,170,41,34,31,208,,49,34,195,36*75
$GPGSV,5,5,17,61,03,257,*4B
$GLGSV,3,1,10,83,59,044,39,75,15,337,33,82,23,080,28,84,36,293,31*60
$GLGSV,3,2,10,73,23,233,38,68,39,121,32,67,38,053,40,74,36,284,*6E
$GLGSV,3,3,10,66,04,013,27,69,08,163,*64
$GAGSV,3,1,11,14,67,283,,03,14,043,30,31,16,322,32,33,12,256,31*62
$GAGSV,3,2,11,21,36,199,37,08,20,094,26,23,49,273,,13,60,055,47*64
$GAGSV,3,3,11,26,60,270,49,15,09,070,,07,05,141,*5E
$GBGSV,5,1,20,28,80,336,51,37,15,234,,60,11,108,,50,14,036,*62
$GBGSV,5,2,20,05,23,128,,41,15,175,23,57,20,228,,46,22,289,*6B
$GBGSV,5,3,20,08,22,039,31,58,26,271,,43,29,100,32,13,30,043,37*6C
$GBGSV,5,4,20,33,45,128,44,42,33,055,42,27,36,289,42,14,46,087,35*69
$GBGSV,5,5,20,11,08,098,,38,08,041,23,36,05,336,27,02,08,105,*6A
$GPGGA,203117.00,,,,,0,00,,,M,,M,,*4E
$PTNL,GGK,203117.00,010125,4742.4464075,N,01617.9736414,E,1,16,1.3,EHT668.4265,M*4A
$GPGGQ,203117.00,010125,4742.4464075,N,01617.9736414,E,1,16,6.718,625.2155,M*31
$GPGFA,203117.00,35.448,44.425,3.728,1.370,42.625,5.418,,VVV*3C
$GPLLK,203117.00,010125,,M,,M,1,16,1.5,,M*0E
$GNGMP,203117.00,,,,,DAAA,16,0.8,,,,*5F
$GPGMP,203117.00,,,,,,03,,,,1.7,123*7E
$GLGMP,203117.00,,,,,,03,,,,,*7A
$GAGMP,203117.00,,,,,,03,,,,,*77
$GBGMP,203117.00,,,,,,07,,,,,*70
$PSSN,SNC,[0,333095000,2347]*4B
$GPZDA,203122.00,01,01,2025,,*63
$GPDTM,W84,,00.0000000,N,00.0000000,E,00.0000000,W84*5F
$GPRMC,203122.00,A,4742.4463884,N,01617.9736432,E,0.0,,010125,5.1,E,D*16
$GPGLL,4742.4463884,N,01617.9736432,E,203122.00,A,D*67
$GPGGA,203122.00,4742.4463884,N,01617.9736432,E,2,17,0.8,625.2485,M,43.2111,M,3.0,0123*49
$GNGNS,203122.00,4742.4463884,N,01617.9736432,E,DAAA,17,0.8,625.2485,43.2111,,*56
$GPGNS,203122.00,,,,,,04,,,,3.0,123*7A
$GLGNS,203122.00,,,,,,04,,,,,*7B
$GAGNS,203122.00,,,,,,03,,,,,*71
$GBGNS,203122.00,,,,,,06,,,,,*77
$GPLLQ,203122.00,010125,,M,,M,1,17,9.249,,M*11
$GPVTG,,T,,M,0.00,N,0.01,K,D*27
$GPHDT,,T*1B
$GPTHS,,V*0E
$GPROT,,V*08
$PSSN,HRP,203122.00,010125,,,,,,,00,0,,*61
$PTNL,AVR,203122.00,,Yaw,,Tilt,,,,0,,00*37
$GPGSA,A,3,08,10,23,27,,,,,,,,,1.5,0.8,1.2*30
$GPGSA,A,3,67,68,75,83,,,,,,,,,1.5,0.8,1.2*3B
$GPGSA,A,3,13,21,26,,,,,,,,,,1.5,0.8,1.2*38
$GPGSA,A,3,13,27,28,33,38,42,,,,,,,1.5,0.8,1.2*3D
$GPGST,203122.00,11.764,3.460,1.486,7.220,3.438,1.537,8.447*6C
$GPGBS,203122.00,10.707,5.005,27.264,23,0.0001,2.682,0.747*51
$GPGRS,203122.00,1,1.6,-1.1,2.7,-1.3,,,,,,,,*4E
$GPGRS,203122.00,1,2.8,1.8,5.6,-9.1,,,,,,,,*6B
$GPGRS,203122.00,1,-2.0,-1.7,-1.7,,,,,,,,,*4F
$GPGRS,203122.00,1,-4.0,-4.8,-4.0,-1.4,33.8,-5.9,,,,,,*5E
$GPGSV,5,1,17,27,86,267,51,26,10,186,21,18,17,072,24,16,36,201,*73
$GPGSV,5,2,17,21,23,267,31,08,48,301,41,23,47,058,38,10,69,142,46*77
$GPGSV,5,3,17,15,10,035,27,07,02,296,25,02,05,264,,30,01,327,*73
$GPGSV,5,4,17,32,07,145,,36,35,170,41,34,31,208,,49,34,195,35*76
$GPGSV,5,5,17,61,03,257,*4B
$GLGSV,3,1,10,83,59,044,40,75,15,337,38,82,23,080,30,84,37,293,29*64
$GLGSV,3,2,10,73,23,233,34,68,39,121,36,67,38,053,39,74,36,284,30*6B
$GLGSV,3,3,10,66,04,013,26,69,08,162,*64
$GAGSV,3,1,11,14,67,282,,03,14,043,29,31,16,322,32,33,12,256,32*68
$GAGSV,3,2,11,21,36,199,36,08,20,094,23,23,49,273,,13,60,056,47*63
$GAGSV,3,3,11,26,60,270,49,15,09,070,,07,05,141,*5E
$GBGSV,5,1,20,28,80,337,51,37,15,234,,60,11,108,,50,14,036,*63
$GBGSV,5,2,20,05,23,128,,41,15,175,23,57,20,228,,46,22,289,*6B
$GBGSV,5,3,20,08,22,039,32,58,26,271,,43,29,100,34,13,30,043,37*69
$GBGSV,5,4,20,33,45,128,43,42,33,055,42,27,36,289,42,14,46,087,34*6F
$GBGSV,5,5,20,11,08,098,,38,08,041,23,36,05,336,34,02,08,105,*68
$GPGGA,203122.00,,,,,0,00,,,M,,M,,*48
$PTNL,GGK,203122.00,010125,4742.4463884,N,01617.9736432,E,1,17,1.5,EHT668.4595,M*46
$GPGGQ,203122.00,010125,4742.4463884,N,01617.9736432,E,1,17,9.249,625.2485,M*35
$GPGFA,203122.00,32.901,69.266,3.460,1.486,7.220,8.447,,VVV*05
$GPLLK,203122.00,010125,,M,,M,1,17,1.7,,M*0B
$GNGMP,203122.00,,,,,DAAA,17,0.8,,,,*58
$GPGMP,203122.00,,,,,,04,,,,3.0,123*7A
$GLGMP,203122.00,,,,,,04,,,,,*7B
$GAGMP,203122.00,,,,,,03,,,,,*71
$GBGMP,203122.00,,,,,,06,,,,,*77
$PSSN,SNC,[0,333100000,2347]*46
$GPZDA,203127.00,01,01,2025,,*66
$GPDTM,W84,,00.0000000,N,00.0000000,E,00.0000000,W84*5F
$GPRMC,203127.00,A,4742.4463840,N,01617.9736503,E,0.0,,010125,5.1,E,D*18
$GPGLL,4742.4463840,N,01617.9736503,E,203127.00,A,D*69
$GPGGA,203127.00,4742.4463840,N,01617.9736503,E,2,17,0.7,625.2721,M,43.2110,M,2.3,0123*46
$GNGNS,203127.00,4742.4463840,N,01617.9736503,E,DAAA,17,0.7,625.2721,43.2110,,*5B
$GPGNS,203127.00,,,,,,03,,,,2.3,123*7A
$GLGNS,203127.00,,,,,,03,,,,,*79
$GAGNS,203127.00,,,,,,03,,,,,*74
$GBGNS,203127.00,,,,,,08,,,,,*7C
$GPLLQ,203127.00,010125,,M,,M,1,17,7.652,,M*14
$GPVTG,,T,,M,0.01,N,0.02,K,D*25
$GPHDT,,T*1B
$GPTHS,,V*0E
$GPROT,,V*08
$PSSN,HRP,203127.00,010125,,,,,,,00,0,,*64
$PTNL,AVR,203127.00,,Yaw,,Tilt,,,,0,,00*32
$GPGSA,A,3,08,10,27,,,,,,,,,,1.2,0.7,1.0*3B
$GPGSA,A,3,67,75,83,,,,,,,,,,1.2,0.7,1.0*3F
$GPGSA,A,3,13,21,26,,,,,,,,,,1.2,0.7,1.0*32
$GPGSA,A,3,13,27,28,33,38,41,42,43,,,,,1.2,0.7,1.0*35
$GPGST,203127.00,12.230,5.296,1.383,40.197,4.142,3.578,5.347*55
$GPGBS,203127.00,21.269,21.085,28.091,27,0.0001,-0.930,0.570*49
$GPGRS,203127.00,1,0.8,0.2,-0.9,,,,,,,,,*4B
$GPGRS,203127.00,1,1.9,-6.3,-9.5,,,,,,,,,*64
$GPGRS,203127.00,1,-1.7,-2.3,-1.1,,,,,,,,,*4F
$GPGRS,203127.00,1,-3.0,-4.3,-3.5,-3.2,35.3,3.6,-5.4,3.0,,,,*57
$GPGSV,5,1,17,27,86,267,51,26,10,186,22,18,17,072,25,16,36,201,24*77
$GPGSV,5,2,17,21,23,267,32,08,48,301,40,23,47,058,39,10,69,142,47*75
$GPGSV,5,3,17,15,10,035,27,07,02,296,26,02,05,264,,30,01,327,*70
$GPGSV,5,4,17,32,07,145,,36,35,170,41,34,31,208,,49,34,195,36*75
$GPGSV,5,5,17,61,03,257,*4B
$GLGSV,3,1,10,83,59,044,41,75,15,337,40,82,23,080,28,84,37,293,31*6A
$GLGSV,3,2,10,73,23,233,34,68,39,121,32,67,38,053,38,74,36,284,31*6F
$GLGSV,3,3,10,66,04,013,27,69,08,162,*65
$GAGSV,3,1,11,14,67,282,,03,14,043,26,31,16,322,33,33,12,256,32*66
$GAGSV,3,2,11,21,36,199,35,08,20,094,22,23,49,273,,13,60,056,47*61
$GAGSV,3,3,11,26,60,270,49,15,09,070,,07,05,141,*5E
$GBGSV,5,1,20,28,80,337,51,37,15,234,,60,11,108,,50,14,036,*63
$GBGSV,5,2,20,05,23,128,,41,15,175,22,57,20,228,,46,22,289,*6A
$GBGSV,5,3,20,08,22,039,31,58,26,270,,43,29,100,35,13,30,043,38*65
