$GPZDA,075942.00,01,01,2025,,*6E
$GPDTM,W84,,00.0000000,N,00.0000000,E,00.0000000,W84*5F
$GPRMC,075942.00,A,4742.4468805,N,01617.9734734,E,0.0,,010125,5.1,E,D*1E
$GPGLL,4742.4468805,N,01617.9734734,E,075942.00,A,D*6F
$GPGGA,075942.00,4742.4468805,N,01617.9734734,E,2,22,0.7,625.1350,M,43.2111,M,3.0,0123*44
$GNGNS,075942.00,4742.4468805,N,01617.9734734,E,DAAA,22,0.7,625.1350,43.2111,,*5B
$GPGNS,075942.00,,,,,,05,,,,3.0,123*76
$GLGNS,075942.00,,,,,,05,,,,,*77
$GAGNS,075942.00,,,,,,07,,,,,*78
$GBGNS,075942.00,,,,,,05,,,,,*79
$GPLLQ,075942.00,010125,,M,,M,1,22,3.997,,M*18
$GPVTG,,T,,M,0.01,N,0.01,K,D*26
$GPHDT,,T*1B
$GPTHS,,V*0E
$GPROT,,V*08
$PSSN,HRP,075942.00,010125,,,,,,,00,0,,*6C
$PTNL,AVR,075942.00,,Yaw,,Tilt,,,,0,,00*3A
$GPGSA,A,3,05,13,14,15,30,,,,,,,,1.2,0.7,1.0*32
$GPGSA,A,3,65,66,72,74,75,,,,,,,,1.2,0.7,1.0*30
$GPGSA,A,3,02,03,05,08,13,24,25,,,,,,1.2,0.7,1.0*38
$GPGSA,A,3,21,22,36,42,45,,,,,,,,1.2,0.7,1.0*36
$GPGST,075942.00,5.048,1.337,1.039,11.967,1.326,1.053,3.621*61
$GPGBS,075942.00,4.526,3.754,14.833,13,0.0001,1.449,0.678*6D
$GPGRS,075942.00,1,0.3,1.4,-0.1,-1.4,-0.9,,,,,,,*4B
$GPGRS,075942.00,1,-4.5,-7.2,8.1,3.8,-4.7,,,,,,,*45
$GPGRS,075942.00,1,0.7,-0.6,-0.8,1.6,9.9,-1.9,7.3,,,,,*42
$GPGRS,075942.00,1,-1.3,1.5,-5.7,-1.4,2.0,,,,,,,*43
$GPGSV,4,1,14,13,61,304,40,08,11,042,,20,31,207,28,15,27,303,46*7D
$GPGSV,4,2,14,07,25,068,32,22,44,168,,05,51,246,43,14,59,141,47*72
$GPGSV,4,3,14,30,60,063,48,18,08,313,32,36,35,170,38,34,31,208,*77
$GPGSV,4,4,14,49,34,195,,61,03,257,*7F
$GLGSV,3,1,09,75,83,192,48,66,22,320,40,76,21,215,26,72,42,137,35*64
$GLGSV,3,2,09,74,39,040,38,65,75,322,45,81,01,300,20,82,09,343,*66
$GLGSV,3,3,09,83,06,022,*51
$GAGSV,3,1,10,03,86,000,50,13,14,292,37,24,37,055,41,02,21,189,36*6A
$GAGSV,3,2,10,08,34,299,41,05,37,113,37,16,56,085,,25,58,135,38*69
$GAGSV,3,3,10,15,05,243,19,26,06,341,26*65
$GBGSV,4,1,15,45,82,154,38,09,11,070,,56,15,092,,26,29,226,24*67
$GBGSV,4,2,15,05,21,130,,40,24,063,32,22,37,153,43,42,31,311,48*64
$GBGSV,4,3,15,36,38,056,36,10,30,080,,50,56,296,,21,75,249,51*6B
$GBGSV,4,4,15,27,00,027,,02,05,108,,60,07,112,*52
$GPGGA,075942.00,,,,,0,00,,,M,,M,,*45
$PTNL,GGK,075942.00,010125,4742.4468805,N,01617.9734734,E,1,22,1.2,EHT668.3461,M*42
$GPGGQ,075942.00,010125,4742.4468805,N,01617.9734734,E,1,22,3.997,625.1350,M*35
$GPGFA,075942.00,12.712,29.688,1.337,1.039,11.967,3.621,,VVV*37
$GPLLK,075942.00,010125,,M,,M,1,22,1.4,,M*03
$GNGMP,075942.00,,,,,DAAA,22,0.7,,,,*5C
$GPGMP,075942.00,,,,,,05,,,,3.0,123*76
$GLGMP,075942.00,,,,,,05,,,,,*77
$GAGMP,075942.00,,,,,,07,,,,,*78
$GBGMP,075942.00,,,,,,05,,,,,*79
$PSSN,SNC,[0,288000000,2347]*46
$GPZDA,075947.00,01,01,2025,,*6B
$GPDTM,W84,,00.0000000,N,00.0000000,E,00.0000000,W84*5F
$GPRMC,075947.00,A,4742.4468802,N,01617.9734846,E,0.0,,010125,5.1,E,D*16
$GPGLL,4742.4468802,N,01617.9734846,E,075947.00,A,D*67
$GPGGA,075947.00,4742.4468802,N,01617.9734846,E,2,21,0.7,625.1192,M,43.2111,M,3.2,0123*41
$GNGNS,075947.00,4742.4468802,N,01617.9734846,E,DAAA,21,0.7,625.1192,43.2111,,*5C
$GPGNS,075947.00,,,,,,05,,,,3.2,123*71
$GLGNS,075947.00,,,,,,05,,,,,*72
$GAGNS,075947.00,,,,,,06,,,,,*7C
$GBGNS,075947.00,,,,,,05,,,,,*7C
$GPLLQ,075947.00,010125,,M,,M,1,21,4.596,,M*14
$GPVTG,,T,,M,0.00,N,0.00,K,D*26
$GPHDT,,T*1B
$GPTHS,,V*0E
$GPROT,,V*08
$PSSN,HRP,075947.00,010125,,,,,,,00,0,,*69
$PTNL,AVR,075947.00,,Yaw,,Tilt,,,,0,,00*3F
$GPGSA,A,3,05,13,14,15,30,,,,,,,,1.3,0.7,1.0*33
$GPGSA,A,3,65,66,72,74,75,,,,,,,,1.3,0.7,1.0*31
$GPGSA,A,3,02,03,08,13,24,25,,,,,,,1.3,0.7,1.0*3C
$GPGSA,A,3,21,22,36,42,45,,,,,,,,1.3,0.7,1.0*37
$GPGST,075947.00,4.453,1.526,1.194,9.304,1.518,1.204,4.168*5B
$GPGBS,075947.00,4.790,3.720,14.948,13,0.0001,2.362,0.697*65
$GPGRS,075947.00,1,-0.5,2.4,-0.4,-0.8,-1.2,,,,,,,*64
$GPGRS,075947.00,1,-4.4,-7.8,4.7,4.0,-4.3,,,,,,,*4A
$GPGRS,075947.00,1,1.7,-0.4,1.5,6.1,-2.9,7.8,,,,,,*43
$GPGRS,075947.00,1,-1.0,0.9,-2.2,-1.2,3.3,,,,,,,*4E
$GPGSV,4,1,14,13,61,304,39,08,11,042,,20,31,207,29,15,27,303,46*72
$GPGSV,4,2,14,07,25,068,32,22,44,168,,05,51,246,43,14,59,141,47*72
$GPGSV,4,3,14,30,60,063,47,18,08,313,32,36,35,170,38,34,31,208,*78
$GPGSV,4,4,14,49,34,195,,61,03,257,*7F
$GLGSV,3,1,09,75,83,192,48,66,22,320,39,76,21,215,24,72,42,137,37*6A
$GLGSV,3,2,09,74,39,040,37,65,75,322,46,81,01,300,20,82,09,343,32*6B
$GLGSV,3,3,09,83,06,022,*51
$GAGSV,3,1,10,03,86,001,50,13,14,292,37,24,37,055,40,02,21,189,35*69
$GAGSV,3,2,10,08,34,299,42,05,37,113,34,16,56,085,,25,58,135,38*69
$GAGSV,3,3,10,15,05,243,22,26,06,341,25*6E
$GBGSV,4,1,15,45,82,154,40,09,11,070,,56,15,092,,26,29,226,27*6B
$GBGSV,4,2,15,05,21,130,,40,24,063,30,22,37,153,43,42,31,311,47*69
$GBGSV,4,3,15,36,38,056,36,10,30,080,,50,56,296,,21,75,249,52*68
$GBGSV,4,4,15,27,00,027,,02,05,108,,60,07,112,*52
$GPGGA,075947.00,,,,,0,00,,,M,,M,,*40
$PTNL,GGK,075947.00,010125,4742.4468802,N,01617.9734846,E,1,21,1.3,EHT668.3303,M*4B
$GPGGQ,075947.00,010125,4742.4468802,N,01617.9734846,E,1,21,4.596,625.1192,M*38
$GPGFA,075947.00,14.508,34.176,1.526,1.194,9.304,4.168,,VVV*0C
$GPLLK,075947.00,010125,,M,,M,1,21,1.5,,M*04
$GNGMP,075947.00,,,,,DAAA,21,0.7,,,,*5A
$GPGMP,075947.00,,,,,,05,,,,3.2,123*71
$GLGMP,075947.00,,,,,,05,,,,,*72
$GAGMP,075947.00,,,,,,06,,,,,*7C
$GBGMP,075947.00,,,,,,05,,,,,*7C
$PSSN,SNC,[0,288005000,2347]*43
$GPZDA,075952.00,01,01,2025,,*6F
$GPDTM,W84,,00.0000000,N,00.0000000,E,00.0000000,W84*5F
$GPRMC,075952.00,A,4742.4468787,N,01617.9734992,E,0.0,,010125,5.1,E,D*18
$GPGLL,4742.4468787,N,01617.9734992,E,075952.00,A,D*69
$GPGGA,075952.00,4742.4468787,N,01617.9734992,E,2,20,0.8,625.0968,M,43.2111,M,1.8,0123*45
$GNGNS,075952.00,4742.4468787,N,01617.9734992,E,DAAA,20,0.8,625.0968,43.2111,,*50
$GPGNS,075952.00,,,,,,05,,,,1.8,123*7D
$GLGNS,075952.00,,,,,,05,,,,,*76
$GAGNS,075952.00,,,,,,05,,,,,*7B
$GBGNS,075952.00,,,,,,05,,,,,*78
$GPLLQ,075952.00,010125,,M,,M,1,20,4.048,,M*17
$GPVTG,,T,,M,0.01,N,0.01,K,D*26
$GPHDT,,T*1B
$GPTHS,,V*0E
$GPROT,,V*08
$PSSN,HRP,075952.00,010125,,,,,,,00,0,,*6D
$PTNL,AVR,075952.00,,Yaw,,Tilt,,,,0,,00*3B
$GPGSA,A,3,05,13,14,15,30,,,,,,,,1.4,0.8,1.2*39
$GPGSA,A,3,65,66,72,74,75,,,,,,,,1.4,0.8,1.2*3B
$GPGSA,A,3,03,08,13,24,25,,,,,,,,1.4,0.8,1.2*34
$GPGSA,A,3,21,22,36,42,45,,,,,,,,1.4,0.8,1.2*3D
$GPGST,075952.00,3.738,1.330,1.026,6.113,1.327,1.030,3.683*5E
$GPGBS,075952.00,4.630,3.629,15.355,13,0.0001,1.687,0.648*6A
$GPGRS,075952.00,1,-0.9,1.7,0.1,-0.3,-1.1,,,,,,,*4C
$GPGRS,075952.00,1,-3.8,-5.9,1.3,3.4,-3.2,,,,,,,*42
$GPGRS,075952.00,1,-0.1,2.9,0.4,-2.5,8.4,,,,,,,*69
$GPGRS,075952.00,1,-0.2,0.9,1.3,-1.1,3.7,,,,,,,*61
$GPGSV,4,1,14,13,61,304,39,08,11,042,,20,31,206,29,15,27,303,46*73
$GPGSV,4,2,14,07,25,068,31,22,44,168,,05,51,246,43,14,59,141,46*70
$GPGSV,4,3,14,30,60,063,46,18,08,313,33,36,35,170,38,34,31,208,*78
$GPGSV,4,4,14,49,34,195,,61,03,257,*7F
$GLGSV,3,1,09,75,83,192,49,66,22,320,38,76,22,215,26,72,42,137,36*6A
$GLGSV,3,2,09,74,38,040,37,65,75,322,46,81,01,300,,82,09,343,30*6A
$GLGSV,3,3,09,83,06,022,*51
$GAGSV,3,1,10,03,86,001,50,13,14,292,37,24,37,055,38,02,21,189,35*66
$GAGSV,3,2,10,08,34,299,41,05,37,113,32,16,56,085,,25,58,135,39*6D
$GAGSV,3,3,10,15,05,243,22,26,06,341,24*6F
$GBGSV,4,1,15,45,82,154,40,09,11,070,,40,24,063,27,05,21,130,*6D
$GBGSV,4,2,15,26,29,226,31,56,15,092,,22,37,153,44,42,31,311,46*68
$GBGSV,4,3,15,36,38,056,38,10,30,080,,50,56,296,,21,75,249,52*66
$GBGSV,4,4,15,27,00,027,,02,05,108,,60,07,112,*52
$GPGGA,075952.00,,,,,0,00,,,M,,M,,*44
$PTNL,GGK,075952.00,010125,4742.4468787,N,01617.9734992,E,1,20,1.4,EHT668.3079,M*4D
$GPGGQ,075952.00,010125,4742.4468787,N,01617.9734992,E,1,20,4.048,625.0968,M*3D
$GPGFA,075952.00,12.644,30.201,1.330,1.026,6.113,3.683,,VVV*05
$GPLLK,075952.00,010125,,M,,M,1,20,1.7,,M*03
$GNGMP,075952.00,,,,,DAAA,20,0.8,,,,*50
$GPGMP,075952.00,,,,,,05,,,,1.8,123*7D
$GLGMP,075952.00,,,,,,05,,,,,*76
$GAGMP,075952.00,,,,,,05,,,,,*7B
$GBGMP,075952.00,,,,,,05,,,,,*78
$PSSN,SNC,[0,288010000,2347]*47
$GPZDA,075957.00,01,01,2025,,*6A
$GPDTM,W84,,00.0000000,N,00.0000000,E,00.0000000,W84*5F
$GPRMC,075957.00,A,4742.4468776,N,01617.9734978,E,0.0,,010125,5.1,E,D*17
$GPGLL,4742.4468776,N,01617.9734978,E,075957.00,A,D*66
$GPGGA,075957.00,4742.4468776,N,01617.9734978,E,2,21,0.7,625.0998,M,43.2111,M,2.0,0123*40
$GNGNS,075957.00,4742.4468776,N,01617.9734978,E,DAAA,21,0.7,625.0998,43.2111,,*5E
$GPGNS,075957.00,,,,,,05,,,,2.0,123*73
$GLGNS,075957.00,,,,,,05,,,,,*73
$GAGNS,075957.00,,,,,,05,,,,,*7E
$GBGNS,075957.00,,,,,,06,,,,,*7E
$GPLLQ,075957.00,010125,,M,,M,1,21,3.176,,M*18
$GPVTG,,T,,M,0.01,N,0.01,K,D*26
$GPHDT,,T*1B
$GPTHS,,V*0E
$GPROT,,V*08
$PSSN,HRP,075957.00,010125,,,,,,,00,0,,*68
$PTNL,AVR,075957.00,,Yaw,,Tilt,,,,0,,00*3E
$GPGSA,A,3,05,13,14,15,30,,,,,,,,1.3,0.7,1.1*32
$GPGSA,A,3,65,66,72,74,75,,,,,,,,1.3,0.7,1.1*30
$GPGSA,A,3,03,08,13,24,25,,,,,,,,1.3,0.7,1.1*3F
$GPGSA,A,3,21,22,26,36,42,45,,,,,,,1.3,0.7,1.1*32
$GPGST,075957.00,3.402,1.046,0.809,8.846,1.041,0.816,2.888*5A
$GPGBS,075957.00,4.654,3.675,14.862,13,0.0001,1.162,0.665*69
$GPGRS,075957.00,1,-0.9,1.2,0.2,-0.4,-0.5,,,,,,,*4D
$GPGRS,075957.00,1,-3.2,-3.2,2.3,4.1,-3.0,,,,,,,*43
$GPGRS,075957.00,1,0.1,3.8,-0.4,-2.1,7.5,,,,,,,*66
$GPGRS,075957.00,1,0.1,1.4,-2.7,3.0,-1.3,3.5,,,,,,*41
$GPGSV,4,1,14,13,61,304,38,08,11,042,,20,31,206,28,15,27,303,45*70
$GPGSV,4,2,14,07,25,068,25,22,44,168,,05,51,246,43,14,59,141,45*76
$GPGSV,4,3,14,30,60,063,46,18,08,313,34,36,35,170,38,34,31,208,*7F
$GPGSV,4,4,14,49,34,195,,61,03,257,*7F
$GLGSV,3,1,09,75,83,192,48,66,22,320,39,76,22,215,25,72,42,137,38*67
$GLGSV,3,2,09,74,38,040,38,65,75,322,46,81,01,300,,82,09,343,29*6D
$GLGSV,3,3,09,83,06,022,*51
$GAGSV,3,1,10,03,86,001,50,13,14,292,37,24,37,055,38,02,22,189,34*64
$GAGSV,3,2,10,08,34,299,41,05,37,113,31,16,56,085,,25,58,135,40*60
$GAGSV,3,3,10,15,05,243,22,26,06,341,23*68
$GBGSV,4,1,15,45,82,154,38,09,11,070,,40,24,063,,05,21,130,*67
$GBGSV,4,2,15,26,29,226,34,56,15,092,,22,37,153,44,42,31,311,46*6D
$GBGSV,4,3,15,36,38,056,39,10,30,080,,50,56,296,,21,75,249,51*64
$GBGSV,4,4,15,27,00,027,,02,05,108,,60,07,112,*52
$GPGGA,075957.00,,,,,0,00,,,M,,M,,*41
$PTNL,GGK,075957.00,010125,4742.4468776,N,01617.9734978,E,1,21,1.3,EHT668.3108,M*43
$GPGGQ,075957.00,010125,4742.4468776,N,01617.9734978,E,1,21,3.176,625.0998,M*37
$GPGFA,075957.00,9.949,23.681,1.046,0.809,8.846,2.888,,VVV*33
$GPLLK,075957.00,010125,,M,,M,1,21,1.6,,M*06
$GNGMP,075957.00,,,,,DAAA,21,0.7,,,,*5B
$GPGMP,075957.00,,,,,,05,,,,2.0,123*73
$GLGMP,075957.00,,,,,,05,,,,,*73
$GAGMP,075957.00,,,,,,05,,,,,*7E
$GBGMP,075957.00,,,,,,06,,,,,*7E
$PSSN,SNC,[0,288015000,2347]*42
$GPZDA,080002.00,01,01,2025,,*69
$GPDTM,W84,,00.0000000,N,00.0000000,E,00.0000000,W84*5F
$GPRMC,080002.00,A,4742.4468745,N,01617.9735013,E,0.0,,010125,5.1,E,D*11
$GPGLL,4742.4468745,N,01617.9735013,E,080002.00,A,D*60
$GPGGA,080002.00,4742.4468745,N,01617.9735013,E,2,20,0.7,625.0856,M,43.2111,M,3.0,0123*45
$GNGNS,080002.00,4742.4468745,N,01617.9735013,E,DAAA,20,0.7,625.0856,43.2111,,*5A
$GPGNS,080002.00,,,,,,05,,,,3.0,123*71
$GLGNS,080002.00,,,,,,05,,,,,*70
$GAGNS,080002.00,,,,,,05,,,,,*7D
$GBGNS,080002.00,,,,,,05,,,,,*7E
$GPLLQ,080002.00,010125,,M,,M,1,20,3.332,,M*18
$GPVTG,,T,,M,0.01,N,0.01,K,D*26
$GPHDT,,T*1B
$GPTHS,,V*0E
$GPROT,,V*08
$PSSN,HRP,080002.00,010125,,,,,,,00,0,,*6B
$PTNL,AVR,080002.00,,Yaw,,Tilt,,,,0,,00*3D
$GPGSA,A,3,05,13,14,15,30,,,,,,,,1.4,0.7,1.2*36
$GPGSA,A,3,65,66,72,74,75,,,,,,,,1.4,0.7,1.2*34
$GPGSA,A,3,03,08,13,24,25,,,,,,,,1.4,0.7,1.2*3B
$GPGSA,A,3,21,22,26,36,42,,,,,,,,1.4,0.7,1.2*37
$GPGST,080002.00,3.421,1.106,0.858,8.608,1.101,0.865,3.024*53
$GPGBS,080002.00,4.728,3.741,15.132,13,0.0001,1.603,0.682*62
$GPGRS,080002.00,1,-0.6,1.6,-0.1,-0.4,-0.6,,,,,,,*68
$GPGRS,080002.00,1,-2.8,-2.2,4.7,5.3,-3.8,,,,,,,*43
$GPGRS,080002.00,1,0.3,3.0,1.7,-1.6,6.0,,,,,,,*40
$GPGRS,080002.00,1,-0.2,1.5,-1.9,3.7,-1.3,,,,,,,*4F
$GPGSV,4,1,14,13,61,304,38,08,11,042,,20,31,206,28,15,27,303,45*70
$GPGSV,4,2,14,07,25,068,19,22,44,168,,05,51,246,43,14,59,141,44*78
$GPGSV,4,3,14,30,60,063,45,18,08,313,34,36,35,170,38,34,31,208,*7C
$GPGSV,4,4,14,49,34,195,,61,03,257,*7F
$GLGSV,3,1,09,75,83,192,48,66,22,320,39,76,22,215,28,72,42,137,40*65
$GLGSV,3,2,09,74,38,040,40,65,75,322,46,81,00,300,,82,09,343,29*63
$GLGSV,3,3,09,83,06,022,*51
$GAGSV,3,1,10,03,86,002,51,13,14,292,37,24,37,055,37,02,22,189,33*6E
$GAGSV,3,2,10,08,34,299,41,05,37,113,34,16,56,085,,25,58,135,39*6B
$GAGSV,3,3,10,15,05,243,21,26,06,341,27*6F
$GBGSV,4,1,15,45,82,153,35,09,11,070,,40,24,063,28,05,21,130,*67
$GBGSV,4,2,15,26,29,226,37,56,15,092,,22,37,153,43,42,31,311,46*69
$GBGSV,4,3,15,36,38,056,42,10,30,080,,50,56,296,,21,75,249,51*68
$GBGSV,4,4,15,27,00,027,,02,05,108,,60,07,112,*52
$GPGGA,080002.00,,,,,0,00,,,M,,M,,*42
$PTNL,GGK,080002.00,010125,4742.4468745,N,01617.9735013,E,1,20,1.4,EHT668.2967,M*43
$GPGGQ,080002.00,010125,4742.4468745,N,01617.9735013,E,1,20,3.332,625.0856,M*31
$GPGFA,080002.00,10.512,24.797,1.106,0.858,8.608,3.024,,VVV*01
$GPLLK,080002.00,010125,,M,,M,1,20,1.6,,M*04
$GNGMP,080002.00,,,,,DAAA,20,0.7,,,,*59
$GPGMP,080002.00,,,,,,05,,,,3.0,123*71
$GLGMP,080002.00,,,,,,05,,,,,*70
$GAGMP,080002.00,,,,,,05,,,,,*7D
$GBGMP,080002.00,,,,,,05,,,,,*7E
$PSSN,SNC,[0,288020000,2347]*44
$GPZDA,080007.00,01,01,2025,,*6C
$GPDTM,W84,,00.0000000,N,00.0000000,E,00.0000000,W84*5F
$GPRMC,080007.00,A,4742.4468677,N,01617.9735062,E,0.0,,010125,5.1,E,D*12
$GPGLL,4742.4468677,N,01617.9735062,E,080007.00,A,D*63
$GPGGA,080007.00,4742.4468677,N,01617.9735062,E,2,21,0.7,625.0734,M,43.2111,M,3.2,0123*4E
$GNGNS,080007.00,4742.4468677,N,01617.9735062,E,DAAA,21,0.7,625.0734,43.2111,,*53
$GPGNS,080007.00,,,,,,05,,,,3.2,123*76
$GLGNS,080007.00,,,,,,05,,,,,*75
$GAGNS,080007.00,,,,,,06,,,,,*7B
$GBGNS,080007.00,,,,,,05,,,,,*7B
$GPLLQ,080007.00,010125,,M,,M,1,21,3.575,,M*19
$GPVTG,,T,,M,0.01,N,0.01,K,D*26
$GPHDT,,T*1B
$GPTHS,,V*0E
$GPROT,,V*08
$PSSN,HRP,080007.00,010125,,,,,,,00,0,,*6E
$PTNL,AVR,080007.00,,Yaw,,Tilt,,,,0,,00*38
$GPGSA,A,3,05,13,14,15,30,,,,,,,,1.3,0.7,1.1*32
$GPGSA,A,3,65,66,72,74,75,,,,,,,,1.3,0.7,1.1*30
$GPGSA,A,3,03,05,08,13,24,25,,,,,,,1.3,0.7,1.1*3A
$GPGSA,A,3,21,22,26,36,42,,,,,,,,1.3,0.7,1.1*33
$GPGST,080007.00,3.627,1.187,0.916,7.203,1.183,0.921,3.246*5D
$GPGBS,080007.00,4.911,3.663,15.218,13,0.0001,1.684,0.698*6D
$GPGRS,080007.00,1,-0.6,1.7,-0.8,-0.4,-0.1,,,,,,,*62
$GPGRS,080007.00,1,-3.6,-3.7,5.8,6.8,-4.1,,,,,,,*45
$GPGRS,080007.00,1,0.2,1.5,0.1,4.6,-2.1,3.7,,,,,,*6E
$GPGRS,080007.00,1,-0.3,-0.1,0.2,3.8,-1.1,,,,,,,*49
$GPGSV,4,1,14,13,61,304,38,08,11,042,,20,31,206,30,15,27,303,45*79
$GPGSV,4,2,14,07,25,068,,22,44,168,,05,51,246,44,14,59,141,42*71
$GPGSV,4,3,14,30,60,063,45,18,08,313,33,36,35,170,39,34,31,208,*7A
$GPGSV,4,4,14,49,34,195,,61,03,257,*7F
$GLGSV,3,1,09,75,83,192,49,66,22,320,39,76,22,215,35,72,42,137,42*6A
$GLGSV,3,2,09,74,38,040,40,65,75,321,46,81,00,300,21,82,09,343,27*6D
$GLGSV,3,3,09,83,06,022,*51
$GAGSV,3,1,10,03,86,002,51,13,14,292,38,24,37,055,37,02,22,189,31*63
$GAGSV,3,2,10,08,34,299,39,05,36,113,36,16,56,085,,25,58,135,38*66
$GAGSV,3,3,10,15,05,243,20,26,06,341,21*68
$GBGSV,4,1,15,45,82,153,33,09,11,070,,40,24,063,26,05,21,130,*6F
$GBGSV,4,2,15,26,29,226,39,56,15,092,,22,37,153,42,42,31,311,46*66
$GBGSV,4,3,15,36,38,056,43,10,30,080,,50,56,296,,21,75,248,52*6B
$GBGSV,4,4,15,27,00,027,,02,05,108,,60,07,112,*52
$GPGGA,080007.00,,,,,0,00,,,M,,M,,*47
$PTNL,GGK,080007.00,010125,4742.4468677,N,01617.9735062,E,1,21,1.3,EHT668.2845,M*47
$GPGGQ,080007.00,010125,4742.4468677,N,01617.9735062,E,1,21,3.575,625.0734,M*3D
$GPGFA,080007.00,11.283,26.616,1.187,0.916,7.203,3.246,,VVV*04
$GPLLK,080007.00,010125,,M,,M,1,21,1.6,,M*00
$GNGMP,080007.00,,,,,DAAA,21,0.7,,,,*5D
$GPGMP,080007.00,,,,,,05,,,,3.2,123*76
$GLGMP,080007.00,,,,,,05,,,,,*75
$GAGMP,080007.00,,,,,,06,,,,,*7B
$GBGMP,080007.00,,,,,,05,,,,,*7B
$PSSN,SNC,[0,288025000,2347]*41
$GPZDA,080012.00,01,01,2025,,*68
$GPDTM,W84,,00.0000000,N,00.0000000,E,00.0000000,W84*5F
$GPRMC,080012.00,A,4742.4468573,N,01617.9735115,E,0.0,,010125,5.1,E,D*10
$GPGLL,4742.4468573,N,01617.9735115,E,080012.00,A,D*61
$GPGGA,080012.00,4742.4468573,N,01617.9735115,E,2,22,0.7,625.0696,M,43.2111,M,1.8,0123*4E
$GNGNS,080012.00,4742.4468573,N,01617.9735115,E,DAAA,22,0.7,625.0696,43.2111,,*5B
$GPGNS,080012.00,,,,,,05,,,,1.8,123*7A
$GLGNS,080012.00,,,,,,05,,,,,*71
$GAGNS,080012.00,,,,,,06,,,,,*7F
$GBGNS,080012.00,,,,,,06,,,,,*7C
$GPLLQ,080012.00,010125,,M,,M,1,22,3.787,,M*11
$GPVTG,,T,,M,0.00,N,0.01,K,D*27
$GPHDT,,T*1B
$GPTHS,,V*0E
$GPROT,,V*08
$PSSN,HRP,080012.00,010125,,,,,,,00,0,,*6A
$PTNL,AVR,080012.00,,Yaw,,Tilt,,,,0,,00*3C
$GPGSA,A,3,05,13,14,15,30,,,,,,,,1.3,0.7,1.1*32
$GPGSA,A,3,65,66,72,74,75,,,,,,,,1.3,0.7,1.1*30
$GPGSA,A,3,03,05,08,13,24,25,,,,,,,1.3,0.7,1.1*3A
$GPGSA,A,3,21,22,26,36,42,45,,,,,,,1.3,0.7,1.1*32
$GPGST,080012.00,4.183,1.239,0.956,5.904,1.237,0.959,3.448*50
$GPGBS,080012.00,4.546,3.602,15.225,13,0.0001,1.775,0.654*61
$GPGRS,080012.00,1,-0.5,1.8,-1.1,0.2,-0.2,,,,,,,*4A
$GPGRS,080012.00,1,-2.7,-5.6,5.9,7.7,-3.2,,,,,,,*4D
$GPGRS,080012.00,1,-0.0,1.0,-1.1,7.0,-2.7,0.7,,,,,,*6C
$GPGRS,080012.00,1,-0.0,-3.2,5.7,3.2,-1.3,-1.5,,,,,,*41
$GPGSV,4,1,14,13,61,304,37,08,11,042,,20,31,206,32,15,27,303,45*74
$GPGSV,4,2,14,07,25,068,,22,44,168,,05,51,246,45,14,59,141,40*72
$GPGSV,4,3,14,30,60,063,46,18,08,313,35,36,35,170,39,34,31,208,*7F
$GPGSV,4,4,14,49,34,195,,61,03,257,*7F
$GLGSV,3,1,09,75,83,192,49,66,23,320,40,76,22,215,36,72,42,137,43*67
$GLGSV,3,2,09,74,38,040,39,65,75,321,45,81,00,300,,82,09,343,31*64
$GLGSV,3,3,09,83,06,022,*51
$GAGSV,3,1,10,03,86,003,51,13,14,292,38,24,37,055,37,02,22,189,30*63
$GAGSV,3,2,10,08,34,299,37,05,36,113,39,16,56,085,,25,58,135,39*66
$GAGSV,3,3,10,15,05,243,19,26,06,341,21*62
$GBGSV,4,1,15,45,82,153,31,09,11,070,,40,24,063,,05,21,130,*69
$GBGSV,4,2,15,26,29,226,41,56,15,092,,22,37,153,41,42,31,311,47*6B
$GBGSV,4,3,15,36,38,056,45,10,30,080,,50,56,296,,21,75,248,52*6D
$GBGSV,4,4,15,27,00,027,,02,05,108,,60,07,112,*52
$GPGGA,080012.00,,,,,0,00,,,M,,M,,*43
$PTNL,GGK,080012.00,010125,4742.4468573,N,01617.9735115,E,1,22,1.3,EHT668.2807,M*40
$GPGGQ,080012.00,010125,4742.4468573,N,01617.9735115,E,1,22,3.787,625.0696,M*3A
$GPGFA,080012.00,11.782,28.276,1.239,0.956,5.904,3.448,,VVV*0C
$GPLLK,080012.00,010125,,M,,M,1,22,1.5,,M*04
$GNGMP,080012.00,,,,,DAAA,22,0.7,,,,*5A
$GPGMP,080012.00,,,,,,05,,,,1.8,123*7A
$GLGMP,080012.00,,,,,,05,,,,,*71
$GAGMP,080012.00,,,,,,06,,,,,*7F
$GBGMP,080012.00,,,,,,06,,,,,*7C
$PSSN,SNC,[0,288030000,2347]*45
$GPZDA,080017.00,01,01,2025,,*6D
$GPDTM,W84,,00.0000000,N,00.0000000,E,00.0000000,W84*5F
$GPRMC,080017.00,A,4742.4468512,N,01617.9735145,E,0.0,,010125,5.1,E,D*17
$GPGLL,4742.4468512,N,01617.9735145,E,080017.00,A,D*66
$GPGGA,080017.00,4742.4468512,N,01617.9735145,E,2,23,0.7,625.0688,M,43.2111,M,1.8,0123*47
$GNGNS,080017.00,4742.4468512,N,01617.9735145,E,DAAA,23,0.7,625.0688,43.2111,,*52
$GPGNS,080017.00,,,,,,06,,,,1.8,123*7C
$GLGNS,080017.00,,,,,,05,,,,,*74
$GAGNS,080017.00,,,,,,06,,,,,*7A
$GBGNS,080017.00,,,,,,06,,,,,*79
$GPLLQ,080017.00,010125,,M,,M,1,23,2.127,,M*18
$GPVTG,,T,,M,0.01,N,0.02,K,D*25
$GPHDT,,T*1B
$GPTHS,,V*0E
$GPROT,,V*08
$PSSN,HRP,080017.00,010125,,,,,,,00,0,,*6F
$PTNL,AVR,080017.00,,Yaw,,Tilt,,,,0,,00*39
$GPGSA,A,3,05,13,14,15,18,30,,,,,,,1.2,0.7,1.0*3B
$GPGSA,A,3,65,66,72,74,75,,,,,,,,1.2,0.7,1.0*30
$GPGSA,A,3,03,05,08,13,24,25,,,,,,,1.2,0.7,1.0*3A
$GPGSA,A,3,21,22,26,36,42,45,,,,,,,1.2,0.7,1.0*32
$GPGST,080017.00,4.503,0.915,0.682,5.106,0.913,0.684,1.795*53
$GPGBS,080017.00,4.605,3.510,10.616,13,0.0001,7.988,6.362*6D
$GPGRS,080017.00,1,-0.5,0.1,-0.4,0.3,-0.0,0.3,,,,,,*6D
$GPGRS,080017.00,1,-3.0,-4.7,4.8,6.9,-2.8,,,,,,,*4A
$GPGRS,080017.00,1,0.1,0.4,-0.3,8.0,-2.7,1.0,,,,,,*4A
$GPGRS,080017.00,1,-0.3,-4.7,9.9,3.4,-0.8,-3.2,,,,,,*4E
$GPGSV,4,1,14,13,61,304,35,08,11,042,,20,31,206,32,15,27,303,46*75
$GPGSV,4,2,14,07,25,068,,22,44,168,,05,51,246,46,14,59,141,37*71
$GPGSV,4,3,14,30,60,063,47,18,08,313,36,36,35,170,39,34,31,208,*7D
$GPGSV,4,4,14,49,34,195,,61,03,257,*7F
$GLGSV,3,1,09,75,83,192,49,66,23,320,40,76,22,215,38,72,42,137,42*68
$GLGSV,3,2,09,74,38,040,36,65,75,321,45,81,00,300,,82,09,343,31*6B
$GLGSV,3,3,09,83,06,022,*51
$GAGSV,3,1,10,03,86,003,51,13,14,292,38,24,37,055,37,02,22,189,25*67
$GAGSV,3,2,10,08,34,299,36,05,36,113,40,16,56,085,,25,58,135,41*66
$GAGSV,3,3,10,15,05,243,,26,06,341,30*6A
$GBGSV,4,1,15,45,82,153,42,09,11,070,,40,24,063,30,05,21,130,*6E
$GBGSV,4,2,15,26,29,226,41,56,15,092,,22,37,153,40,42,31,311,47*6A
$GBGSV,4,3,15,36,38,056,45,10,30,080,,50,56,296,,21,75,248,52*6D
$GBGSV,4,4,15,27,00,027,,02,05,108,,60,07,112,*52
$GPGGA,080017.00,,,,,0,00,,,M,,M,,*46
$PTNL,GGK,080017.00,010125,4742.4468512,N,01617.9735145,E,1,23,1.2,EHT668.2798,M*4E
$GPGGQ,080017.00,010125,4742.4468512,N,01617.9735145,E,1,23,2.127,625.0688,M*3E
$GPGFA,080017.00,8.696,14.718,0.915,0.682,5.106,1.795,,VVV*3E
$GPLLK,080017.00,010125,,M,,M,1,23,1.4,,M*01
$GNGMP,080017.00,,,,,DAAA,23,0.7,,,,*5E
$GPGMP,080017.00,,,,,,06,,,,1.8,123*7C
$GLGMP,080017.00,,,,,,05,,,,,*74
$GAGMP,080017.00,,,,,,06,,,,,*7A
$GBGMP,080017.00,,,,,,06,,,,,*79
$PSSN,SNC,[0,288035000,2347]*40
$GPZDA,080022.00,01,01,2025,,*6B
$GPDTM,W84,,00.0000000,N,00.0000000,E,00.0000000,W84*5F
$GPRMC,080022.00,A,4742.4468466,N,01617.9735126,E,0.0,,010125,5.1,E,D*16
$GPGLL,4742.4468466,N,01617.9735126,E,080022.00,A,D*67
$GPGGA,080022.00,4742.4468466,N,01617.9735126,E,2,17,0.8,625.0737,M,43.2111,M,3.0,0123*41
$GNGNS,080022.00,4742.4468466,N,01617.9735126,E,DAAA,17,0.8,625.0737,43.2111,,*5E
$GPGNS,080022.00,,,,,,03,,,,3.0,123*75
$GLGNS,080022.00,,,,,,04,,,,,*73
$GAGNS,080022.00,,,,,,05,,,,,*7F
$GBGNS,080022.00,,,,,,05,,,,,*7C
$GPLLQ,080022.00,010125,,M,,M,1,17,5.373,,M*1D
$GPVTG,,T,,M,0.00,N,0.00,K,D*26
$GPHDT,,T*1B
$GPTHS,,V*0E
$GPROT,,V*08
$PSSN,HRP,080022.00,010125,,,,,,,00,0,,*69
$PTNL,AVR,080022.00,,Yaw,,Tilt,,,,0,,00*3F
$GPGSA,A,3,05,15,30,,,,,,,,,,1.4,0.8,1.2*3E
$GPGSA,A,3,65,66,72,75,,,,,,,,,1.4,0.8,1.2*38
$GPGSA,A,3,03,05,13,24,25,,,,,,,,1.4,0.8,1.2*39
$GPGSA,A,3,21,22,26,36,42,,,,,,,,1.4,0.8,1.2*38
$GPGST,080022.00,5.220,1.971,0.864,327.826,1.731,1.279,4.924*56
$GPGBS,080022.00,11.729,8.682,31.264,13,0.0001,8.858,6.361*51
$GPGRS,080022.00,1,-0.5,0.0,0.3,,,,,,,,,*43
$GPGRS,080022.00,1,-2.6,-4.7,2.9,-2.9,,,,,,,,*6C
$GPGRS,080022.00,1,0.3,0.5,8.9,-1.7,2.1,,,,,,,*47
$GPGRS,080022.00,1,-0.2,-5.0,10.1,3.5,-0.5,,,,,,,*71
$GPGSV,4,1,14,13,61,304,31,08,11,042,25,20,31,206,30,15,27,303,46*74
$GPGSV,4,2,14,07,24,068,29,22,44,168,,05,51,246,46,14,59,141,35*79
$GPGSV,4,3,14,30,60,063,48,18,08,313,34,36,35,170,38,34,31,208,*71
$GPGSV,4,4,14,49,34,195,,61,03,257,*7F
$GLGSV,3,1,09,75,83,192,49,66,23,320,39,76,22,215,37,72,42,137,41*6A
$GLGSV,3,2,09,74,38,040,31,65,75,321,44,81,00,300,,82,09,342,32*6F
$GLGSV,3,3,09,83,06,022,*51
$GAGSV,3,1,10,03,86,003,51,13,14,292,38,24,37,055,37,02,22,189,34*67
$GAGSV,3,2,10,08,34,299,34,05,36,113,41,16,56,085,,25,58,135,41*65
$GAGSV,3,3,10,15,05,243,,26,06,341,30*6A
$GBGSV,4,1,15,45,82,153,30,09,11,070,,40,24,063,,05,21,130,*68
$GBGSV,4,2,15,26,29,226,40,56,15,092,,22,37,153,38,42,31,311,48*6B
$GBGSV,4,3,15,36,38,056,46,10,30,080,,50,56,296,,21,75,248,53*6F
$GBGSV,4,4,15,27,00,027,,02,05,108,,60,07,112,*52
$GPGGA,080022.00,,,,,0,00,,,M,,M,,*40
$PTNL,GGK,080022.00,010125,4742.4468466,N,01617.9735126,E,1,17,1.4,EHT668.2847,M*43
$GPGGQ,080022.00,010125,4742.4468466,N,01617.9735126,E,1,17,5.373,625.0737,M*39
$GPGFA,080022.00,18.739,40.373,1.971,0.864,327.826,4.924,,VVV*09
$GPLLK,080022.00,010125,,M,,M,1,17,1.7,,M*03
$GNGMP,080022.00,,,,,DAAA,17,0.8,,,,*50
$GPGMP,080022.00,,,,,,03,,,,3.0,123*75
$GLGMP,080022.00,,,,,,04,,,,,*73
$GAGMP,080022.00,,,,,,05,,,,,*7F
$GBGMP,080022.00,,,,,,05,,,,,*7C
$PSSN,SNC,[0,288040000,2347]*42
$GPZDA,080027.00,01,01,2025,,*6E
$GPDTM,W84,,00.0000000,N,00.0000000,E,00.0000000,W84*5F
$GPRMC,080027.00,A,4742.4468467,N,01617.9735076,E,0.0,,010125,5.1,E,D*16
$GPGLL,4742.4468467,N,01617.9735076,E,080027.00,A,D*67
$GPGGA,080027.00,4742.4468467,N,01617.9735076,E,2,19,0.7,625.0825,M,43.2111,M,2.7,0123*4A
$GNGNS,080027.00,4742.4468467,N,01617.9735076,E,DAAA,19,0.7,625.0825,43.2111,,*53
$GPGNS,080027.00,,,,,,03,,,,2.7,123*76
$GLGNS,080027.00,,,,,,06,,,,,*74
$GAGNS,080027.00,,,,,,05,,,,,*7A
$GBGNS,080027.00,,,,,,05,,,,,*79
$GPLLQ,080027.00,010125,,M,,M,1,19,9.505,,M*1D
$GPVTG,,T,,M,0.00,N,0.01,K,D*27
$GPHDT,,T*1B
$GPTHS,,V*0E
$GPROT,,V*08
$PSSN,HRP,080027.00,010125,,,,,,,00,0,,*6C
$PTNL,AVR,080027.00,,Yaw,,Tilt,,,,0,,00*3A
$GPGSA,A,3,05,15,30,,,,,,,,,,1.2,0.7,1.0*35
$GPGSA,A,3,65,66,72,75,76,82,,,,,,,1.2,0.7,1.0*38
$GPGSA,A,3,03,05,13,24,25,,,,,,,,1.2,0.7,1.0*32
$GPGSA,A,3,21,22,26,36,42,,,,,,,,1.2,0.7,1.0*33
$GPGST,080027.00,8.223,3.934,1.358,326.951,3.380,2.429,8.546*53
$GPGBS,080027.00,10.190,6.797,25.407,76,0.0001,19.048,6.258*6D
$GPGRS,080027.00,1,-0.8,0.1,0.2,,,,,,,,,*4B
$GPGRS,080027.00,1,-2.4,-5.2,3.1,-3.0,19.0,11.4,,,,,,*62
$GPGRS,080027.00,1,0.2,0.1,11.2,-1.6,-0.8,,,,,,,*53
$GPGRS,080027.00,1,-0.0,-5.7,9.6,3.6,-0.3,,,,,,,*4B
$GPGSV,4,1,14,13,61,304,32,08,11,042,23,20,31,206,27,15,27,303,46*77
$GPGSV,4,2,14,07,24,068,29,22,44,168,,05,51,246,46,14,59,141,34*78
$GPGSV,4,3,14,30,60,063,48,18,08,313,34,36,35,170,38,34,31,208,*71
$GPGSV,4,4,14,49,34,195,,61,03,257,*7F
$GLGSV,3,1,09,75,83,192,48,66,23,320,36,76,22,215,36,72,42,137,38*6B
$GLGSV,3,2,09,74,38,040,,65,75,321,44,81,00,300,,82,09,342,36*69
$GLGSV,3,3,09,83,06,022,*51
$GAGSV,3,1,10,03,86,004,51,13,14,292,38,24,37,055,38,02,22,189,34*6F
$GAGSV,3,2,10,08,34,299,33,05,36,113,42,16,56,085,,25,58,135,41*61
$GAGSV,3,3,10,15,05,243,,26,06,341,29*62
$GBGSV,4,1,15,45,82,152,30,09,11,070,,40,24,063,33,05,21,130,*69
$GBGSV,4,2,15,26,29,226,39,56,15,092,,22,37,153,35,42,31,311,48*68
$GBGSV,4,3,15,36,38,056,46,10,30,080,,50,56,296,,21,75,248,53*6F
$GBGSV,4,4,15,27,00,027,,02,05,108,,60,07,112,*52
$GPGGA,080027.00,,,,,0,00,,,M,,M,,*45
$PTNL,GGK,080027.00,010125,4742.4468467,N,01617.9735076,E,1,19,1.2,EHT668.2935,M*4F
$GPGGQ,080027.00,010125,4742.4468467,N,01617.9735076,E,1,19,9.505,625.0825,M*30
$GPGFA,080027.00,37.402,70.075,3.934,1.358,326.951,8.546,,VVV*0E
$GPLLK,080027.00,010125,,M,,M,1,19,1.4,,M*0B
$GNGMP,080027.00,,,,,DAAA,19,0.7,,,,*54
$GPGMP,080027.00,,,,,,03,,,,2.7,123*76
$GLGMP,080027.00,,,,,,06,,,,,*74
$GAGMP,080027.00,,,,,,05,,,,,*7A
$GBGMP,080027.00,,,,,,05,,,,,*79
$PSSN,SNC,[0,288045000,2347]*47
$GPZDA,080032.00,01,01,2025,,*6A
$GPDTM,W84,,00.0000000,N,00.0000000,E,00.0000000,W84*5F
$GPRMC,080032.00,A,4742.4468409,N,01617.9735031,E,0.0,,010125,5.1,E,D*19
$GPGLL,4742.4468409,N,01617.9735031,E,080032.00,A,D*68
$GPGGA,080032.00,4742.4468409,N,01617.9735031,E,2,17,0.8,625.0922,M,43.2111,M,2.3,0123*46
$GNGNS,080032.00,4742.4468409,N,01617.9735031,E,DAAA,17,0.8,625.0922,43.2111,,*5B
$GPGNS,080032.00,,,,,,03,,,,2.3,123*76
$GLGNS,080032.00,,,,,,05,,,,,*73
$GAGNS,080032.00,,,,,,05,,,,,*7E
$GBGNS,080032.00,,,,,,04,,,,,*7C
$GPLLQ,080032.00,010125,,M,,M,1,17,9.974,,M*1D
$GPVTG,,T,,M,0.00,N,0.01,K,D*27
$GPHDT,,T*1B
$GPTHS,,V*0E
$GPROT,,V*08
$PSSN,HRP,080032.00,010125,,,,,,,00,0,,*68
$PTNL,AVR,080032.00,,Yaw,,Tilt,,,,0,,00*3E
$GPGSA,A,3,05,15,30,,,,,,,,,,1.4,0.8,1.2*3E
$GPGSA,A,3,65,66,72,75,82,,,,,,,,1.4,0.8,1.2*32
$GPGSA,A,3,03,05,13,24,25,,,,,,,,1.4,0.8,1.2*39
$GPGSA,A,3,21,26,36,42,,,,,,,,,1.4,0.8,1.2*38
$GPGST,080032.00,7.453,4.210,1.191,327.487,3.607,2.476,8.963*58
$GPGBS,080032.00,13.127,9.424,33.906,13,0.0001,14.041,6.361*65
$GPGRS,080032.00,1,-0.9,0.4,0.3,,,,,,,,,*4A
$GPGRS,080032.00,1,-1.8,-4.1,5.4,-3.2,13.9,,,,,,,*73
$GPGRS,080032.00,1,0.1,-0.5,14.0,-2.0,-2.4,,,,,,,*71
$GPGRS,080032.00,1,0.2,8.9,4.1,0.0,,,,,,,,*41
$GPGSV,4,1,14,13,61,304,,08,11,041,21,20,31,206,27,15,27,303,46*77
$GPGSV,4,2,14,07,24,068,30,22,44,168,,05,51,246,46,14,59,141,32*76
$GPGSV,4,3,14,30,60,063,49,18,08,313,34,36,35,170,39,34,31,208,*71
$GPGSV,4,4,14,49,34,195,,61,03,257,*7F
$GLGSV,3,1,09,75,83,191,48,66,23,320,36,76,22,215,35,72,42,137,35*66
$GLGSV,3,2,09,74,38,040,,65,75,321,44,81,00,300,,82,09,342,38*67
$GLGSV,3,3,09,83,06,021,*52
$GAGSV,3,1,10,03,86,004,50,13,14,292,38,24,37,055,37,02,22,189,23*67
$GAGSV,3,2,10,08,34,299,33,05,36,113,42,16,56,085,,25,58,135,41*61
$GAGSV,3,3,10,15,05,243,21,26,06,341,30*69
$GBGSV,4,1,15,45,82,152,31,09,11,070,,40,24,063,33,05,21,130,*68
$GBGSV,4,2,15,26,29,226,36,56,15,092,,22,37,153,31,42,31,311,48*63
$GBGSV,4,3,15,36,38,056,46,10,30,080,,50,56,296,,21,75,248,54*68
$GBGSV,4,4,15,27,00,027,,02,05,108,,60,07,112,*52
$GPGGA,080032.00,,,,,0,00,,,M,,M,,*41
$PTNL,GGK,080032.00,010125,4742.4468409,N,01617.9735031,E,1,17,1.4,EHT668.3033,M*46
$GPGGQ,080032.00,010125,4742.4468409,N,01617.9735031,E,1,17,9.974,625.0922,M*3D
$GPGFA,080032.00,40.027,73.497,4.210,1.191,327.487,8.963,,VVV*03
$GPLLK,080032.00,010125,,M,,M,1,17,1.6,,M*03
$GNGMP,080032.00,,,,,DAAA,17,0.8,,,,*51
$GPGMP,080032.00,,,,,,03,,,,2.3,123*76
$GLGMP,080032.00,,,,,,05,,,,,*73
$GAGMP,080032.00,,,,,,05,,,,,*7E
$GBGMP,080032.00,,,,,,04,,,,,*7C
$PSSN,SNC,[0,288050000,2347]*43
$GPZDA,080037.00,01,01,2025,,*6F
$GPDTM,W84,,00.0000000,N,00.0000000,E,00.0000000,W84*5F
$GPRMC,080037.00,A,4742.4468344,N,01617.9734993,E,0.0,,010125,5.1,E,D*12
$GPGLL,4742.4468344,N,01617.9734993,E,080037.00,A,D*63
$GPGGA,080037.00,4742.4468344,N,01617.9734993,E,2,16,1.1,625.1010,M,43.2111,M,2.0,0123*4E
$GNGNS,080037.00,4742.4468344,N,01617.9734993,E,DAAA,16,1.1,625.1010,43.2111,,*50
$GPGNS,080037.00,,,,,,03,,,,2.0,123*70
$GLGNS,080037.00,,,,,,04,,,,,*77
$GAGNS,080037.00,,,,,,05,,,,,*7B
$GBGNS,080037.00,,,,,,04,,,,,*79
$GPLLQ,080037.00,010125,,M,,M,1,16,13.869,,M*2F
$GPVTG,,T,,M,0.01,N,0.02,K,D*25
$GPHDT,,T*1B
$GPTHS,,V*0E
$GPROT,,V*08
$PSSN,HRP,080037.00,010125,,,,,,,00,0,,*6D
$PTNL,AVR,080037.00,,Yaw,,Tilt,,,,0,,00*3B
$GPGSA,A,3,05,15,30,,,,,,,,,,1.7,1.1,1.4*33
$GPGSA,A,3,65,66,75,82,,,,,,,,,1.7,1.1,1.4*3A
$GPGSA,A,3,03,05,13,24,25,,,,,,,,1.7,1.1,1.4*34
$GPGSA,A,3,21,36,42,45,,,,,,,,,1.7,1.1,1.4*30
$GPGST,080037.00,8.138,6.031,1.249,327.692,5.141,3.392,12.426*61
$GPGBS,080037.00,22.703,15.442,56.134,82,0.0001,18.327,6.338*5E
$GPGRS,080037.00,1,-0.5,0.3,0.1,,,,,,,,,*46
$GPGRS,080037.00,1,-1.7,-0.3,-3.6,18.3,,,,,,,,*55
$GPGRS,080037.00,1,-0.2,-1.0,14.3,-1.6,-1.7,,,,,,,*58
$GPGRS,080037.00,1,0.4,3.7,-0.1,4.3,,,,,,,,*69
$GPGSV,4,1,14,13,61,304,32,08,11,041,,20,31,206,30,15,27,303,45*70
$GPGSV,4,2,14,07,24,068,26,22,44,168,,05,51,246,46,14,59,141,33*70
$GPGSV,4,3,14,30,60,064,49,18,08,313,32,36,35,170,39,34,31,208,*70
$GPGSV,4,4,14,49,34,195,,61,03,257,*7F
$GLGSV,3,1,09,75,83,191,49,66,23,320,40,76,22,215,30,72,42,138,32*6B
$GLGSV,3,2,09,74,38,040,34,65,75,321,44,81,00,300,,82,09,342,38*60
$GLGSV,3,3,09,83,06,021,*52
$GAGSV,3,1,10,03,86,005,50,13,14,292,37,24,37,054,37,02,22,189,27*6C
$GAGSV,3,2,10,08,34,299,32,05,36,113,42,16,56,085,,25,58,135,42*63
$GAGSV,3,3,10,15,05,243,20,26,06,341,28*61
$GBGSV,4,1,15,45,82,152,34,09,11,070,,40,24,063,32,05,21,130,*6C
$GBGSV,4,2,15,26,30,226,31,56,15,092,,22,37,153,30,42,31,311,48*6D
$GBGSV,4,3,15,36,38,056,46,10,30,080,,50,56,296,,21,75,248,54*68
$GBGSV,4,4,15,27,00,027,,02,05,108,,60,07,112,*52
$GPGGA,080037.00,,,,,0,00,,,M,,M,,*44
$PTNL,GGK,080037.00,010125,4742.4468344,N,01617.9734993,E,1,16,1.7,EHT668.3121,M*4D
$GPGGQ,080037.00,010125,4742.4468344,N,01617.9734993,E,1,16,13.869,625.1010,M*08
$GPGFA,080037.00,57.340,101.894,6.031,1.249,327.692,12.426,,VVV*0D
$GPLLK,080037.00,010125,,M,,M,1,16,2.1,,M*03
$GNGMP,080037.00,,,,,DAAA,16,1.1,,,,*5D
$GPGMP,080037.00,,,,,,03,,,,2.0,123*70
$GLGMP,080037.00,,,,,,04,,,,,*77
$GAGMP,080037.00,,,,,,05,,,,,*7B
$GBGMP,080037.00,,,,,,04,,,,,*79
$PSSN,SNC,[0,288055000,2347]*46
$GPZDA,080042.00,01,01,2025,,*6D
$GPDTM,W84,,00.0000000,N,00.0000000,E,00.0000000,W84*5F
$GPRMC,080042.00,A,4742.4468296,N,01617.9735009,E,0.0,,010125,5.1,E,D*15
$GPGLL,4742.4468296,N,01617.9735009,E,080042.00,A,D*64
$GPGGA,080042.00,4742.4468296,N,01617.9735009,E,2,15,1.1,625.1035,M,43.2111,M,3.0,0123*4C
$GNGNS,080042.00,4742.4468296,N,01617.9735009,E,DAAA,15,1.1,625.1035,43.2111,,*53
$GPGNS,080042.00,,,,,,03,,,,3.0,123*73
$GLGNS,080042.00,,,,,,03,,,,,*72
$GAGNS,080042.00,,,,,,05,,,,,*79
$GBGNS,080042.00,,,,,,04,,,,,*7B
$GPLLQ,080042.00,010125,,M,,M,1,15,9.026,,M*16
$GPVTG,,T,,M,0.00,N,0.01,K,D*27
$GPHDT,,T*1B
$GPTHS,,V*0E
$GPROT,,V*08
$PSSN,HRP,080042.00,010125,,,,,,,00,0,,*6F
$PTNL,AVR,080042.00,,Yaw,,Tilt,,,,0,,00*39
$GPGSA,A,3,05,15,30,,,,,,,,,,1.8,1.1,1.4*3C
$GPGSA,A,3,65,66,75,,,,,,,,,,1.8,1.1,1.4*3F
$GPGSA,A,3,03,05,13,24,25,,,,,,,,1.8,1.1,1.4*3B
$GPGSA,A,3,21,36,42,45,,,,,,,,,1.8,1.1,1.4*3F
$GPGST,080042.00,4.788,3.829,0.777,326.770,3.231,2.197,8.136*58
$GPGBS,080042.00,27.231,18.913,69.893,13,0.0001,11.196,6.363*56
$GPGRS,080042.00,1,-0.6,0.5,0.1,,,,,,,,,*41
$GPGRS,080042.00,1,-1.5,3.0,-3.2,,,,,,,,,*68
$GPGRS,080042.00,1,-0.2,-0.8,11.2,-1.3,0.2,,,,,,,*7B
$GPGRS,080042.00,1,0.1,4.0,-0.3,4.1,,,,,,,,*6E
$GPGSV,4,1,14,13,61,304,33,08,11,041,,20,31,206,32,15,27,303,45*73
$GPGSV,4,2,14,07,24,068,30,22,44,168,,05,51,246,46,14,59,140,34*71
$GPGSV,4,3,14,30,60,064,49,18,08,313,33,36,35,170,39,34,31,208,*71
$GPGSV,4,4,14,49,34,195,,61,03,257,*7F
$GLGSV,3,1,09,75,83,191,49,66,23,320,42,76,22,215,29,72,42,138,28*6A
$GLGSV,3,2,09,74,38,040,38,65,75,321,45,81,00,300,,82,09,342,24*60
$GLGSV,3,3,09,83,06,021,*52
$GAGSV,3,1,10,03,86,005,50,13,14,292,35,24,37,054,38,02,22,189,30*67
$GAGSV,3,2,10,08,34,299,34,05,36,113,43,16,56,084,,25,58,135,43*64
$GAGSV,3,3,10,15,05,243,22,26,06,341,30*6A
$GBGSV,4,1,15,45,82,152,36,09,11,070,,40,24,063,32,05,21,130,*6E
$GBGSV,4,2,15,26,30,226,27,56,15,092,,22,37,153,32,42,31,311,47*67
$GBGSV,4,3,15,36,38,056,46,10,30,080,,50,56,296,,21,75,248,54*68
$GBGSV,4,4,15,27,00,027,,02,05,108,,60,07,112,*52
$GPGGA,080042.00,,,,,0,00,,,M,,M,,*46
$PTNL,GGK,080042.00,010125,4742.4468296,N,01617.9735009,E,1,15,1.8,EHT668.3146,M*47
$GPGGQ,080042.00,010125,4742.4468296,N,01617.9735009,E,1,15,9.026,625.1035,M*33
$GPGFA,080042.00,36.407,66.717,3.829,0.777,326.770,8.136,,VVV*06
$GPLLK,080042.00,010125,,M,,M,1,15,2.1,,M*02
$GNGMP,080042.00,,,,,DAAA,15,1.1,,,,*5C
$GPGMP,080042.00,,,,,,03,,,,3.0,123*73
$GLGMP,080042.00,,,,,,03,,,,,*72
$GAGMP,080042.00,,,,,,05,,,,,*79
$GBGMP,080042.00,,,,,,04,,,,,*7B
$PSSN,SNC,[0,288060000,2347]*40
$GPZDA,080047.00,01,01,2025,,*68
$GPDTM,W84,,00.0000000,N,00.0000000,E,00.0000000,W84*5F
$GPRMC,080047.00,A,4742.4468259,N,01617.9734976,E,0.0,,010125,5.1,E,D*13
$GPGLL,4742.4468259,N,01617.9734976,E,080047.00,A,D*62
$GPGGA,080047.00,4742.4468259,N,01617.9734976,E,2,15,1.2,625.1131,M,43.2111,M,2.7,0123*4A
$GNGNS,080047.00,4742.4468259,N,01617.9734976,E,DAAA,15,1.2,625.1131,43.2111,,*53
$GPGNS,080047.00,,,,,,03,,,,2.7,123*70
$GLGNS,080047.00,,,,,,03,,,,,*77
$GAGNS,080047.00,,,,,,05,,,,,*7C
$GBGNS,080047.00,,,,,,04,,,,,*7E
$GPLLQ,080047.00,010125,,M,,M,1,15,7.082,,M*13
$GPVTG,,T,,M,0.01,N,0.01,K,D*26
$GPHDT,,T*1B
$GPTHS,,V*0E
$GPROT,,V*08
$PSSN,HRP,080047.00,010125,,,,,,,00,0,,*6A
$PTNL,AVR,080047.00,,Yaw,,Tilt,,,,0,,00*3C
$GPGSA,A,3,05,15,30,,,,,,,,,,2.0,1.2,1.6*36
$GPGSA,A,3,65,66,75,,,,,,,,,,2.0,1.2,1.6*35
$GPGSA,A,3,03,05,08,24,25,,,,,,,,2.0,1.2,1.6*3B
$GPGSA,A,3,21,36,42,45,,,,,,,,,2.0,1.2,1.6*35
$GPGST,080047.00,2.765,2.988,0.639,327.003,2.530,1.713,6.389*5C
$GPGBS,080047.00,23.228,16.043,60.214,15,0.0001,0.600,0.972*63
$GPGRS,080047.00,1,-0.3,0.6,0.0,,,,,,,,,*43
$GPGRS,080047.00,1,-1.4,2.9,-3.0,,,,,,,,,*66
$GPGRS,080047.00,1,-0.1,-1.1,0.2,-1.1,0.9,,,,,,,*4C
$GPGRS,080047.00,1,-0.6,4.6,-0.2,4.0,,,,,,,,*47
$GPGSV,4,1,14,13,61,304,37,08,11,041,,20,31,206,34,15,27,303,45*71
$GPGSV,4,2,14,07,24,068,31,22,44,168,,05,51,245,47,14,59,140,35*73
$GPGSV,4,3,14,30,60,064,49,18,08,313,34,36,35,170,38,34,31,208,*77
$GPGSV,4,4,14,49,34,195,,61,03,257,*7F
$GLGSV,3,1,09,75,83,191,50,66,23,320,42,76,22,215,32,72,42,138,27*67
$GLGSV,3,2,09,74,38,040,39,65,75,321,44,81,00,300,,82,09,342,34*61
$GLGSV,3,3,09,83,06,021,*52
$GAGSV,3,1,10,03,86,005,50,13,14,292,35,24,37,054,38,02,22,189,30*67
$GAGSV,3,2,10,08,34,299,36,05,36,113,42,16,56,084,,25,58,134,44*61
$GAGSV,3,3,10,15,05,243,22,26,06,341,29*62
$GBGSV,4,1,15,45,82,151,38,09,11,070,,40,24,063,33,05,21,130,*62
$GBGSV,4,2,15,26,30,226,26,56,15,092,,22,37,153,35,42,31,311,46*60
$GBGSV,4,3,15,36,38,056,46,10,30,080,,50,56,296,,21,75,247,53*60
$GBGSV,4,4,15,27,00,027,,02,05,108,,60,07,112,*52
$GPGGA,080047.00,,,,,0,00,,,M,,M,,*43
$PTNL,GGK,080047.00,010125,4742.4468259,N,01617.9734976,E,1,15,2.0,EHT668.3241,M*4E
$GPGGQ,080047.00,010125,4742.4468259,N,01617.9734976,E,1,15,7.082,625.1131,M*30
$GPGFA,080047.00,28.412,52.393,2.988,0.639,327.003,6.389,,VVV*0D
$GPLLK,080047.00,010125,,M,,M,1,15,2.4,,M*02
$GNGMP,080047.00,,,,,DAAA,15,1.2,,,,*5A
$GPGMP,080047.00,,,,,,03,,,,2.7,123*70
$GLGMP,080047.00,,,,,,03,,,,,*77
$GAGMP,080047.00,,,,,,05,,,,,*7C
$GBGMP,080047.00,,,,,,04,,,,,*7E
$PSSN,SNC,[0,288065000,2347]*45
$GPZDA,080052.00,01,01,2025,,*6C
$GPDTM,W84,,00.0000000,N,00.0000000,E,00.0000000,W84*5F
$GPRMC,080052.00,A,4742.4468269,N,01617.9735000,E,0.0,,010125,5.1,E,D*1D
$GPGLL,4742.4468269,N,01617.9735000,E,080052.00,A,D*6C
$GPGGA,080052.00,4742.4468269,N,01617.9735000,E,2,18,0.8,625.1160,M,43.2111,M,2.8,0123*49
$GNGNS,080052.00,4742.4468269,N,01617.9735000,E,DAAA,18,0.8,625.1160,43.2111,,*5F
$GPGNS,080052.00,,,,,,04,,,,2.8,123*7C
$GLGNS,080052.00,,,,,,03,,,,,*73
$GAGNS,080052.00,,,,,,06,,,,,*7B
$GBGNS,080052.00,,,,,,05,,,,,*7B
$GPLLQ,080052.00,010125,,M,,M,1,18,2.525,,M*17
$GPVTG,,T,,M,0.00,N,0.01,K,D*27
$GPHDT,,T*1B
$GPTHS,,V*0E
$GPROT,,V*08
$PSSN,HRP,080052.00,010125,,,,,,,00,0,,*6E
$PTNL,AVR,080052.00,,Yaw,,Tilt,,,,0,,00*38
$GPGSA,A,3,05,15,20,30,,,,,,,,,1.4,0.8,1.1*3F
$GPGSA,A,3,65,66,75,,,,,,,,,,1.4,0.8,1.1*3E
$GPGSA,A,3,03,05,08,13,24,25,,,,,,,1.4,0.8,1.1*32
$GPGSA,A,3,21,22,36,42,45,,,,,,,,1.4,0.8,1.1*3E
$GPGST,080052.00,2.742,0.845,0.666,300.677,0.717,0.802,2.284*56
$GPGBS,080052.00,5.142,5.925,16.078,20,0.0001,1.615,0.889*68
$GPGRS,080052.00,1,0.2,-0.1,1.6,-0.0,,,,,,,,*45
$GPGRS,080052.00,1,-3.5,-1.8,-3.2,,,,,,,,,*4C
$GPGRS,080052.00,1,-0.6,-1.8,0.6,1.3,-1.6,0.3,,,,,,*63
$GPGRS,080052.00,1,-1.7,0.4,4.8,-0.5,4.5,,,,,,,*65
$GPGSV,4,1,14,13,62,304,37,08,11,041,,20,31,206,36,15,27,303,45*70
$GPGSV,4,2,14,07,24,068,32,22,44,168,,05,51,245,48,14,59,140,35*7F
$GPGSV,4,3,14,30,60,064,49,18,08,313,32,36,35,170,38,34,31,208,*71
$GPGSV,4,4,14,49,34,195,,61,03,257,*7F
$GLGSV,3,1,09,75,84,191,50,66,23,320,41,76,22,215,34,72,42,138,32*61
$GLGSV,3,2,09,74,38,040,,65,75,321,42,81,00,300,,82,09,342,32*6B
$GLGSV,3,3,09,83,06,021,*52
$GAGSV,3,1,10,03,86,006,50,13,14,292,35,24,37,054,37,02,22,189,31*6A
$GAGSV,3,2,10,08,34,299,36,05,36,113,42,16,56,084,,25,58,134,45*60
$GAGSV,3,3,10,15,05,243,22,26,06,341,29*62
$GBGSV,4,1,15,45,82,151,39,09,11,070,,40,24,063,33,05,21,130,*63
$GBGSV,4,2,15,26,30,226,31,56,15,092,,22,37,153,36,42,31,311,45*66
$GBGSV,4,3,15,36,38,056,46,10,30,080,,50,56,296,,21,75,247,53*60
$GBGSV,4,4,15,27,00,027,,02,05,108,,60,07,112,*52
$GPGGA,080052.00,,,,,0,00,,,M,,M,,*47
$PTNL,GGK,080052.00,010125,4742.4468269,N,01617.9735000,E,1,18,1.4,EHT668.3270,M*48
$GPGGQ,080052.00,010125,4742.4468269,N,01617.9735000,E,1,18,2.525,625.1160,M*3A
$GPGFA,080052.00,8.035,18.729,0.845,0.666,300.677,2.284,,VVV*31
$GPLLK,080052.00,010125,,M,,M,1,18,1.6,,M*0A
$GNGMP,080052.00,,,,,DAAA,18,0.8,,,,*58
$GPGMP,080052.00,,,,,,04,,,,2.8,123*7C
$GLGMP,080052.00,,,,,,03,,,,,*73
$GAGMP,080052.00,,,,,,06,,,,,*7B
$GBGMP,080052.00,,,,,,05,,,,,*7B
$PSSN,SNC,[0,288070000,2347]*41
$GPZDA,080057.00,01,01,2025,,*69
$GPDTM,W84,,00.0000000,N,00.0000000,E,00.0000000,W84*5F
$GPRMC,080057.00,A,4742.4468329,N,01617.9735064,E,0.0,,010125,5.1,E,D*1F
$GPGLL,4742.4468329,N,01617.9735064,E,080057.00,A,D*6E
$GPGGA,080057.00,4742.4468329,N,01617.9735064,E,2,19,0.8,625.1256,M,43.2111,M,1.8,0123*4F
$GNGNS,080057.00,4742.4468329,N,01617.9735064,E,DAAA,19,0.8,625.1256,43.2111,,*5A
$GPGNS,080057.00,,,,,,05,,,,1.8,123*7B
$GLGNS,080057.00,,,,,,04,,,,,*71
$GAGNS,080057.00,,,,,,05,,,,,*7D
$GBGNS,080057.00,,,,,,05,,,,,*7E
$GPLLQ,080057.00,010125,,M,,M,1,19,3.390,,M*1A
$GPVTG,,T,,M,0.01,N,0.02,K,D*25
$GPHDT,,T*1B
$GPTHS,,V*0E
$GPROT,,V*08
$PSSN,HRP,080057.00,010125,,,,,,,00,0,,*6B
$PTNL,AVR,080057.00,,Yaw,,Tilt,,,,0,,00*3D
$GPGSA,A,3,05,14,15,20,30,,,,,,,,1.4,0.8,1.2*39
$GPGSA,A,3,65,66,72,75,,,,,,,,,1.4,0.8,1.2*38
$GPGSA,A,3,03,05,08,24,25,,,,,,,,1.4,0.8,1.2*33
$GPGSA,A,3,21,22,36,42,45,,,,,,,,1.4,0.8,1.2*3D
$GPGST,080057.00,2.631,1.038,0.874,277.282,0.877,1.035,3.107*5A
$GPGBS,080057.00,3.923,6.278,15.522,14,0.0001,-1.698,0.674*4E
$GPGRS,080057.00,1,0.3,-1.7,0.2,1.3,0.3,,,,,,,*41
$GPGRS,080057.00,1,-2.9,-3.8,1.1,-3.0,,,,,,,,*6A
$GPGRS,080057.00,1,-0.7,-1.9,0.8,-1.7,0.7,,,,,,,*41
$GPGRS,080057.00,1,-2.0,-0.4,5.3,-0.5,2.0,,,,,,,*40
$GPGSV,4,1,14,13,62,304,37,08,11,041,,20,30,206,36,15,27,303,45*71
$GPGSV,4,2,14,07,24,068,31,22,44,168,,05,51,245,48,14,59,140,37*7E
$GPGSV,4,3,14,30,60,064,49,18,08,313,27,36,35,170,38,34,31,208,*75
$GPGSV,4,4,14,49,34,195,,61,03,257,*7F
$GLGSV,3,1,09,75,84,191,51,66,23,320,39,76,22,215,33,72,42,138,37*6D
$GLGSV,3,2,09,74,38,040,,65,75,321,41,81,00,300,,82,09,342,32*68
$GLGSV,3,3,09,83,06,021,*52
$GAGSV,3,1,10,03,86,006,49,13,14,292,35,24,37,054,38,02,22,189,32*6E
$GAGSV,3,2,10,08,34,299,37,05,36,113,42,16,56,084,,25,58,134,45*61
$GAGSV,3,3,10,15,05,243,,26,06,341,30*6A
$GBGSV,4,1,15,45,82,151,38,09,11,070,,40,24,063,32,05,21,130,*63
$GBGSV,4,2,15,26,30,226,34,56,15,092,,22,37,153,35,42,31,311,45*60
$GBGSV,4,3,15,36,38,056,45,10,30,080,,50,56,296,,21,75,247,52*62
$GBGSV,4,4,15,27,00,027,,02,05,108,,60,07,112,*52
$GPGGA,080057.00,,,,,0,00,,,M,,M,,*42
$PTNL,GGK,080057.00,010125,4742.4468329,N,01617.9735064,E,1,19,1.4,EHT668.3367,M*4C
$GPGGQ,080057.00,010125,4742.4468329,N,01617.9735064,E,1,19,3.390,625.1256,M*36
$GPGFA,080057.00,9.867,25.476,1.038,0.874,277.282,3.107,,VVV*35
$GPLLK,080057.00,010125,,M,,M,1,19,1.7,,M*0F
$GNGMP,080057.00,,,,,DAAA,19,0.8,,,,*5C
$GPGMP,080057.00,,,,,,05,,,,1.8,123*7B
$GLGMP,080057.00,,,,,,04,,,,,*71
$GAGMP,080057.00,,,,,,05,,,,,*7D
$GBGMP,080057.00,,,,,,05,,,,,*7E
$PSSN,SNC,[0,288075000,2347]*44
$GPZDA,080102.00,01,01,2025,,*68
$GPDTM,W84,,00.0000000,N,00.0000000,E,00.0000000,W84*5F
$GPRMC,080102.00,A,4742.4468363,N,01617.9735148,E,0.0,,010125,5.1,E,D*1F
$GPGLL,4742.4468363,N,01617.9735148,E,080102.00,A,D*6E
$GPGGA,080102.00,4742.4468363,N,01617.9735148,E,2,19,0.8,625.1452,M,43.2111,M,2.2,0123*44
$GNGNS,080102.00,4742.4468363,N,01617.9735148,E,DAAA,19,0.8,625.1452,43.2111,,*58
$GPGNS,080102.00,,,,,,05,,,,2.2,123*73
$GLGNS,080102.00,,,,,,05,,,,,*71
$GAGNS,080102.00,,,,,,05,,,,,*7C
$GBGNS,080102.00,,,,,,04,,,,,*7E
$GPLLQ,080102.00,010125,,M,,M,1,19,3.680,,M*1F
$GPVTG,,T,,M,0.01,N,0.02,K,D*25
$GPHDT,,T*1B
$GPTHS,,V*0E
$GPROT,,V*08
$PSSN,HRP,080102.00,010125,,,,,,,00,0,,*6A
$PTNL,AVR,080102.00,,Yaw,,Tilt,,,,0,,00*3C
$GPGSA,A,3,05,14,15,20,30,,,,,,,,1.5,0.8,1.3*39
$GPGSA,A,3,65,66,72,74,75,,,,,,,,1.5,0.8,1.3*3B
$GPGSA,A,3,03,05,08,24,25,,,,,,,,1.5,0.8,1.3*33
$GPGSA,A,3,21,36,42,45,,,,,,,,,1.5,0.8,1.3*3D
$GPGST,080102.00,3.475,1.143,0.938,276.247,0.941,1.141,3.370*50
$GPGBS,080102.00,3.958,6.256,15.501,20,0.0001,1.965,0.869*6B
$GPGRS,080102.00,1,-0.5,-1.0,0.8,2.0,0.3,,,,,,,*66
$GPGRS,080102.00,1,-1.7,-5.1,7.5,-2.2,-2.9,,,,,,,*60
$GPGRS,080102.00,1,-0.8,-2.0,0.7,-0.9,1.1,,,,,,,*42
$GPGRS,080102.00,1,-1.9,5.4,-0.5,1.0,,,,,,,,*48
$GPGSV,4,1,14,13,62,304,36,08,11,041,,20,30,206,36,15,27,303,46*73
$GPGSV,4,2,14,07,24,068,29,22,44,168,,05,51,245,48,14,59,140,39*79
$GPGSV,4,3,14,30,60,064,48,18,08,313,27,36,35,170,38,34,31,208,*74
$GPGSV,4,4,14,49,34,195,,61,03,257,*7F
$GLGSV,3,1,09,75,84,191,51,66,23,320,37,76,22,215,34,72,42,138,39*6A
$GLGSV,3,2,09,74,38,040,36,65,76,321,43,81,00,300,,82,09,342,31*6F
$GLGSV,3,3,09,83,06,021,*52
$GAGSV,3,1,10,03,86,006,49,13,14,292,35,24,37,054,38,02,22,189,32*6E
$GAGSV,3,2,10,08,34,299,37,05,36,113,41,16,56,084,,25,58,134,45*62
$GAGSV,3,3,10,15,05,243,,26,06,340,33*68
$GBGSV,4,1,15,45,82,151,37,09,11,070,,40,24,063,31,05,21,130,*6F
$GBGSV,4,2,15,26,30,226,34,56,15,092,,22,37,153,32,42,31,311,45*67
$GBGSV,4,3,15,36,38,056,44,10,30,080,,50,56,296,,21,75,247,52*63
$GBGSV,4,4,15,27,00,027,,02,05,108,,60,07,112,*52
$GPGGA,080102.00,,,,,0,00,,,M,,M,,*43
$PTNL,GGK,080102.00,010125,4742.4468363,N,01617.9735148,E,1,19,1.5,EHT668.3562,M*4E
$GPGGQ,080102.00,010125,4742.4468363,N,01617.9735148,E,1,19,3.680,625.1452,M*30
$GPGFA,080102.00,10.868,27.630,1.143,0.938,276.247,3.370,,VVV*0F
$GPLLK,080102.00,010125,,M,,M,1,19,1.7,,M*0E
$GNGMP,080102.00,,,,,DAAA,19,0.8,,,,*5D
$GPGMP,080102.00,,,,,,05,,,,2.2,123*73
$GLGMP,080102.00,,,,,,05,,,,,*71
$GAGMP,080102.00,,,,,,05,,,,,*7C
$GBGMP,080102.00,,,,,,04,,,,,*7E
$PSSN,SNC,[0,288080000,2347]*4E
$GPZDA,080107.00,01,01,2025,,*6D
$GPDTM,W84,,00.0000000,N,00.0000000,E,00.0000000,W84*5F
$GPRMC,080107.00,A,4742.4468414,N,01617.9735169,E,0.0,,010125,5.1,E,D*1E
$GPGLL,4742.4468414,N,01617.9735169,E,080107.00,A,D*6F
$GPGGA,080107.00,4742.4468414,N,01617.9735169,E,2,20,0.7,625.1660,M,43.2111,M,2.4,0123*45
$GNGNS,080107.00,4742.4468414,N,01617.9735169,E,DAAA,20,0.7,625.1660,43.2111,,*5F
$GPGNS,080107.00,,,,,,05,,,,2.4,123*70
$GLGNS,080107.00,,,,,,05,,,,,*74
$GAGNS,080107.00,,,,,,06,,,,,*7A
$GBGNS,080107.00,,,,,,04,,,,,*7B
$GPLLQ,080107.00,010125,,M,,M,1,20,3.773,,M*1D
$GPVTG,,T,,M,0.01,N,0.02,K,D*25
$GPHDT,,T*1B
$GPTHS,,V*0E
$GPROT,,V*08
$PSSN,HRP,080107.00,010125,,,,,,,00,0,,*6F
$PTNL,AVR,080107.00,,Yaw,,Tilt,,,,0,,00*39
$GPGSA,A,3,05,14,15,20,30,,,,,,,,1.4,0.7,1.2*36
$GPGSA,A,3,65,66,72,74,75,,,,,,,,1.4,0.7,1.2*34
$GPGSA,A,3,03,05,08,13,24,25,,,,,,,1.4,0.7,1.2*3E
$GPGSA,A,3,21,36,42,45,,,,,,,,,1.4,0.7,1.2*32
$GPGST,080107.00,4.693,1.164,0.959,279.315,0.965,1.159,3.459*50
$GPGBS,080107.00,3.985,6.131,15.025,72,0.0001,13.250,6.117*50
$GPGRS,080107.00,1,-0.8,-0.5,0.7,1.7,0.1,,,,,,,*63
$GPGRS,080107.00,1,-1.3,-5.8,13.2,-0.7,-3.0,,,,,,,*55
$GPGRS,080107.00,1,-1.2,-2.5,-0.9,-1.6,-1.5,0.6,,,,,,*65
$GPGRS,080107.00,1,-2.1,6.1,-0.8,2.3,,,,,,,,*4D
$GPGSV,4,1,14,13,62,304,33,08,11,041,,20,30,206,37,15,27,303,46*77
$GPGSV,4,2,14,07,24,068,29,22,44,168,,05,51,245,48,14,59,140,39*79
$GPGSV,4,3,14,30,60,064,48,18,08,313,30,36,35,170,38,34,31,208,*72
$GPGSV,4,4,14,49,34,195,,61,03,257,*7F
$GLGSV,3,1,09,75,84,191,51,66,23,320,35,76,22,215,34,72,42,138,39*68
$GLGSV,3,2,09,74,38,040,36,65,76,321,44,81,00,300,,82,09,342,33*6A
$GLGSV,3,3,09,83,06,021,*52
$GAGSV,3,1,10,03,86,007,49,13,14,292,35,24,37,054,39,02,22,189,32*6E
$GAGSV,3,2,10,08,34,299,37,05,36,113,40,16,56,084,,25,58,134,45*63
$GAGSV,3,3,10,15,05,243,22,26,06,340,32*69
$GBGSV,4,1,15,45,82,150,36,09,11,070,,40,24,063,31,05,21,130,*6F
$GBGSV,4,2,15,26,30,226,35,22,37,153,27,56,15,092,,42,32,311,45*61
$GBGSV,4,3,15,36,38,056,42,10,30,080,,50,56,296,,21,75,247,52*65
$GBGSV,4,4,15,27,00,027,,02,05,108,,60,07,112,*52
$GPGGA,080107.00,,,,,0,00,,,M,,M,,*46
$PTNL,GGK,080107.00,010125,4742.4468414,N,01617.9735169,E,1,20,1.4,EHT668.3770,M*45
$GPGGQ,080107.00,010125,4742.4468414,N,01617.9735169,E,1,20,3.773,625.1660,M*35
$GPGFA,080107.00,11.064,28.362,1.164,0.959,279.315,3.459,,VVV*05
$GPLLK,080107.00,010125,,M,,M,1,20,1.6,,M*00
$GNGMP,080107.00,,,,,DAAA,20,0.7,,,,*5D
$GPGMP,080107.00,,,,,,05,,,,2.4,123*70
$GLGMP,080107.00,,,,,,05,,,,,*74
$GAGMP,080107.00,,,,,,06,,,,,*7A
$GBGMP,080107.00,,,,,,04,,,,,*7B
$PSSN,SNC,[0,288085000,2347]*4B
$GPZDA,080112.00,01,01,2025,,*69
$GPDTM,W84,,00.0000000,N,00.0000000,E,00.0000000,W84*5F
$GPRMC,080112.00,A,4742.4468463,N,01617.9735176,E,0.0,,010125,5.1,E,D*14
$GPGLL,4742.4468463,N,01617.9735176,E,080112.00,A,D*65
$GPGGA,080112.00,4742.4468463,N,01617.9735176,E,2,19,0.8,625.1830,M,43.2111,M,1.8,0123*4E
$GNGNS,080112.00,4742.4468463,N,01617.9735176,E,DAAA,19,0.8,625.1830,43.2111,,*5B
$GPGNS,080112.00,,,,,,05,,,,1.8,123*7B
$GLGNS,080112.00,,,,,,05,,,,,*70
$GAGNS,080112.00,,,,,,05,,,,,*7D
$GBGNS,080112.00,,,,,,04,,,,,*7F
$GPLLQ,080112.00,010125,,M,,M,1,19,4.239,,M*1F
$GPVTG,,T,,M,0.01,N,0.02,K,D*25
$GPHDT,,T*1B
$GPTHS,,V*0E
$GPROT,,V*08
$PSSN,HRP,080112.00,010125,,,,,,,00,0,,*6B
$PTNL,AVR,080112.00,,Yaw,,Tilt,,,,0,,00*3D
$GPGSA,A,3,05,14,15,20,30,,,,,,,,1.5,0.8,1.3*39
$GPGSA,A,3,65,66,72,74,75,,,,,,,,1.5,0.8,1.3*3B
$GPGSA,A,3,03,05,08,24,25,,,,,,,,1.5,0.8,1.3*33
$GPGSA,A,3,21,36,42,45,,,,,,,,,1.5,0.8,1.3*3D
$GPGST,080112.00,4.674,1.303,1.088,278.512,1.093,1.298,3.885*58
$GPGBS,080112.00,3.951,6.185,15.267,20,0.0001,2.389,0.858*60
$GPGRS,080112.00,1,-0.4,-1.3,-0.1,2.4,0.4,,,,,,,*42
$GPGRS,080112.00,1,-0.0,-6.2,9.5,3.4,-3.8,,,,,,,*43
$GPGRS,080112.00,1,-1.0,-3.1,-1.9,-1.5,0.0,,,,,,,*65
$GPGRS,080112.00,1,-1.8,7.9,-0.9,4.2,,,,,,,,*4C
$GPGSV,4,1,14,13,62,304,29,08,11,041,,20,30,206,37,15,27,303,45*7F
$GPGSV,4,2,14,07,24,068,30,22,44,168,,05,51,245,49,14,59,140,39*70
$GPGSV,4,3,14,30,60,064,49,18,08,313,32,36,35,170,39,34,31,208,*70
$GPGSV,4,4,14,49,34,195,,61,03,257,*7F
$GLGSV,3,1,09,75,84,191,50,66,23,320,35,76,22,215,33,72,42,138,38*6F
$GLGSV,3,2,09,74,38,040,35,65,76,321,45,81,00,300,,82,09,342,32*69
$GLGSV,3,3,09,83,06,021,*52
$GAGSV,3,1,10,03,86,007,49,13,14,292,34,24,37,054,40,02,22,189,32*61
$GAGSV,3,2,10,08,34,299,36,05,36,113,40,16,56,084,,25,59,134,45*63
$GAGSV,3,3,10,15,04,243,,26,06,340,31*6B
$GBGSV,4,1,15,45,82,150,37,09,11,070,,40,24,063,32,05,21,130,*6D
$GBGSV,4,2,15,26,30,226,34,22,37,153,21,56,15,092,,42,32,311,45*66
$GBGSV,4,3,15,36,38,056,39,10,30,080,,50,56,296,,21,75,247,53*68
$GBGSV,4,4,15,27,00,027,,02,05,108,,60,07,112,*52
$GPGGA,080112.00,,,,,0,00,,,M,,M,,*42
$PTNL,GGK,080112.00,010125,4742.4468463,N,01617.9735176,E,1,19,1.5,EHT668.3941,M*48
$GPGGQ,080112.00,010125,4742.4468463,N,01617.9735176,E,1,19,4.239,625.1830,M*32
$GPGFA,080112.00,12.385,31.855,1.303,1.088,278.512,3.885,,VVV*03
$GPLLK,080112.00,010125,,M,,M,1,19,1.7,,M*0F
$GNGMP,080112.00,,,,,DAAA,19,0.8,,,,*5C
$GPGMP,080112.00,,,,,,05,,,,1.8,123*7B
$GLGMP,080112.00,,,,,,05,,,,,*70
$GAGMP,080112.00,,,,,,05,,,,,*7D
$GBGMP,080112.00,,,,,,04,,,,,*7F
$PSSN,SNC,[0,288090000,2347]*4F
$GPZDA,080117.00,01,01,2025,,*6C
$GPDTM,W84,,00.0000000,N,00.0000000,E,00.0000000,W84*5F
$GPRMC,080117.00,A,4742.4468505,N,01617.9735211,E,0.0,,010125,5.1,E,D*12
$GPGLL,4742.4468505,N,01617.9735211,E,080117.00,A,D*63
$GPGGA,080117.00,4742.4468505,N,01617.9735211,E,2,19,0.8,625.1983,M,43.2111,M,2.7,0123*4D
$GNGNS,080117.00,4742.4468505,N,01617.9735211,E,DAAA,19,0.8,625.1983,43.2111,,*54
$GPGNS,080117.00,,,,,,06,,,,2.7,123*71
$GLGNS,080117.00,,,,,,04,,,,,*74
$GAGNS,080117.00,,,,,,05,,,,,*78
$GBGNS,080117.00,,,,,,04,,,,,*7A
$GPLLQ,080117.00,010125,,M,,M,1,19,3.082,,M*1F
$GPVTG,,T,,M,0.00,N,0.01,K,D*27
$GPHDT,,T*1B
$GPTHS,,V*0E
$GPROT,,V*08
$PSSN,HRP,080117.00,010125,,,,,,,00,0,,*6E
$PTNL,AVR,080117.00,,Yaw,,Tilt,,,,0,,00*38
$GPGSA,A,3,05,14,15,18,20,30,,,,,,,1.4,0.8,1.1*33
$GPGSA,A,3,65,72,74,75,,,,,,,,,1.4,0.8,1.1*38
$GPGSA,A,3,03,05,08,24,25,,,,,,,,1.4,0.8,1.1*30
$GPGSA,A,3,21,36,42,45,,,,,,,,,1.4,0.8,1.1*3E
$GPGST,080117.00,2.940,1.083,0.866,284.595,0.881,1.070,2.752*57
$GPGBS,080117.00,4.448,5.700,12.097,20,0.0001,2.008,0.866*62
$GPGRS,080117.00,1,-0.2,-1.1,-0.5,-0.1,2.0,0.7,,,,,,*42
$GPGRS,080117.00,1,-0.1,3.9,2.0,-4.3,,,,,,,,*4F
$GPGRS,080117.00,1,-0.8,-2.9,-1.7,-1.4,-0.6,,,,,,,*44
$GPGRS,080117.00,1,-1.5,-5.1,-0.7,4.1,,,,,,,,*6E
$GPGSV,4,1,14,13,62,304,,08,11,041,,20,30,206,37,15,27,303,45*74
$GPGSV,4,2,14,07,24,068,29,22,44,168,,05,51,245,48,14,59,140,41*76
$GPGSV,4,3,14,30,60,064,51,18,08,313,36,36,35,170,39,34,31,208,*7D
$GPGSV,4,4,14,49,34,195,,61,03,257,*7F
$GLGSV,3,1,09,75,84,191,50,66,23,320,35,76,22,215,33,72,42,138,37*60
$GLGSV,3,2,09,74,38,040,35,65,76,321,45,81,00,300,,82,09,342,33*68
$GLGSV,3,3,09,83,06,021,*52
$GAGSV,3,1,10,03,86,008,49,13,14,292,35,24,37,054,40,02,22,189,30*6D
$GAGSV,3,2,10,08,34,299,35,05,36,113,38,16,56,084,,25,59,134,43*69
$GAGSV,3,3,10,15,04,243,24,26,06,340,30*6C
$GBGSV,4,1,15,45,82,150,37,09,11,070,,40,24,063,31,05,21,130,*6E
$GBGSV,4,2,15,26,30,226,35,22,37,153,35,56,15,092,,42,32,311,45*62
$GBGSV,4,3,15,36,37,056,43,10,30,080,,50,56,296,,21,75,246,52*6A
$GBGSV,4,4,15,27,00,027,,02,05,108,,60,07,112,*52
$GPGGA,080117.00,,,,,0,00,,,M,,M,,*47
$PTNL,GGK,080117.00,010125,4742.4468505,N,01617.9735211,E,1,19,1.4,EHT668.4094,M*49
$GPGGQ,080117.00,010125,4742.4468505,N,01617.9735211,E,1,19,3.082,625.1983,M*38
$GPGFA,080117.00,10.294,22.567,1.083,0.866,284.595,2.752,,VVV*01
$GPLLK,080117.00,010125,,M,,M,1,19,1.6,,M*0B
$GNGMP,080117.00,,,,,DAAA,19,0.8,,,,*59
$GPGMP,080117.00,,,,,,06,,,,2.7,123*71
$GLGMP,080117.00,,,,,,04,,,,,*74
$GAGMP,080117.00,,,,,,05,,,,,*78
$GBGMP,080117.00,,,,,,04,,,,,*7A
$PSSN,SNC,[0,288095000,2347]*4A
$GPZDA,080122.00,01,01,2025,,*6A
$GPDTM,W84,,00.0000000,N,00.0000000,E,00.0000000,W84*5F
$GPRMC,080122.00,A,4742.4468576,N,01617.9735188,E,0.0,,010125,5.1,E,D*13
$GPGLL,4742.4468576,N,01617.9735188,E,080122.00,A,D*62
$GPGGA,080122.00,4742.4468576,N,01617.9735188,E,2,21,0.7,625.2074,M,43.2111,M,3.0,0123*4C
$GNGNS,080122.00,4742.4468576,N,01617.9735188,E,DAAA,21,0.7,625.2074,43.2111,,*53
$GPGNS,080122.00,,,,,,06,,,,3.0,123*71
$GLGNS,080122.00,,,,,,06,,,,,*70
$GAGNS,080122.00,,,,,,06,,,,,*7D
$GBGNS,080122.00,,,,,,03,,,,,*7B
$GPLLQ,080122.00,010125,,M,,M,1,21,2.609,,M*16
$GPVTG,,T,,M,0.01,N,0.02,K,D*25
$GPHDT,,T*1B
$GPTHS,,V*0E
$GPROT,,V*08
$PSSN,HRP,080122.00,010125,,,,,,,00,0,,*68
$PTNL,AVR,080122.00,,Yaw,,Tilt,,,,0,,00*3E
$GPGSA,A,3,05,14,15,18,20,30,,,,,,,1.2,0.7,1.0*3B
$GPGSA,A,3,65,72,74,75,76,82,,,,,,,1.2,0.7,1.0*3B
$GPGSA,A,3,03,05,08,13,24,25,,,,,,,1.2,0.7,1.0*3A
$GPGSA,A,3,21,42,45,,,,,,,,,,1.2,0.7,1.0*33
$GPGST,080122.00,2.466,0.988,0.753,288.436,0.780,0.968,2.294*56
$GPGBS,080122.00,4.451,5.651,11.374,20,0.0001,2.111,0.879*63
$GPGRS,080122.00,1,-0.2,-0.9,-0.6,-0.1,2.1,0.4,,,,,,*4C
$GPGRS,080122.00,1,-1.5,4.5,3.0,-4.1,-3.7,0.9,,,,,,*64
$GPGRS,080122.00,1,-0.9,-2.2,-1.4,-0.5,-1.9,-1.0,,,,,,*47
$GPGRS,080122.00,1,-1.6,-0.7,0.8,,,,,,,,,*61
$GPGSV,4,1,14,13,62,304,39,08,11,041,,20,30,206,37,15,27,303,45*7E
$GPGSV,4,2,14,07,24,068,31,22,44,168,,05,51,245,47,14,59,140,42*73
$GPGSV,4,3,14,30,60,064,51,18,08,313,38,36,35,170,39,34,31,208,*73
$GPGSV,4,4,14,49,34,195,,61,03,257,*7F
$GLGSV,3,1,09,75,84,191,50,66,23,320,29,76,22,215,36,72,42,138,37*68
$GLGSV,3,2,09,74,38,040,37,65,76,321,44,81,00,300,,82,09,342,35*6D
$GLGSV,3,3,09,83,06,021,*52
$GAGSV,3,1,10,03,86,008,48,13,14,292,35,24,37,054,40,02,22,189,29*64
$GAGSV,3,2,10,08,34,299,35,05,36,113,37,16,56,084,,25,59,134,42*67
$GAGSV,3,3,10,15,04,243,24,26,06,340,31*6D
$GBGSV,4,1,15,45,83,150,38,09,11,070,,40,24,063,31,05,21,130,*60
$GBGSV,4,2,15,26,30,226,33,22,36,153,28,56,15,092,,42,32,311,45*69
$GBGSV,4,3,15,36,37,056,35,10,30,080,,50,56,296,,21,75,246,52*6B
$GBGSV,4,4,15,27,00,027,,02,05,108,,60,07,112,*52
$GPGGA,080122.00,,,,,0,00,,,M,,M,,*41
$PTNL,GGK,080122.00,010125,4742.4468576,N,01617.9735188,E,1,21,1.2,EHT668.4184,M*45
$GPGGQ,080122.00,010125,4742.4468576,N,01617.9735188,E,1,21,2.609,625.2074,M*34
$GPGFA,080122.00,9.398,18.811,0.988,0.753,288.436,2.294,,VVV*36
$GPLLK,080122.00,010125,,M,,M,1,21,1.4,,M*04
$GNGMP,080122.00,,,,,DAAA,21,0.7,,,,*5B
$GPGMP,080122.00,,,,,,06,,,,3.0,123*71
$GLGMP,080122.00,,,,,,06,,,,,*70
$GAGMP,080122.00,,,,,,06,,,,,*7D
$GBGMP,080122.00,,,,,,03,,,,,*7B
$PSSN,SNC,[0,288100000,2347]*47
$GPZDA,080127.00,01,01,2025,,*6F
$GPDTM,W84,,00.0000000,N,00.0000000,E,00.0000000,W84*5F
$GPRMC,080127.00,A,4742.4468703,N,01617.9735238,E,0.0,,010125,5.1,E,D*1E
$GPGLL,4742.4468703,N,01617.9735238,E,080127.00,A,D*6F
$GPGGA,080127.00,4742.4468703,N,01617.9735238,E,2,23,0.6,625.2294,M,43.2111,M,2.7,0123*48
$GNGNS,080127.00,4742.4468703,N,01617.9735238,E,DAAA,23,0.6,625.2294,43.2111,,*51
$GPGNS,080127.00,,,,,,06,,,,2.7,123*72
$GLGNS,080127.00,,,,,,06,,,,,*75
$GAGNS,080127.00,,,,,,06,,,,,*78
$GBGNS,080127.00,,,,,,05,,,,,*78
$GPLLQ,080127.00,010125,,M,,M,1,23,3.097,,M*11
$GPVTG,,T,,M,0.01,N,0.01,K,D*26
$GPHDT,,T*1B
$GPTHS,,V*0E
$GPROT,,V*08
$PSSN,HRP,080127.00,010125,,,,,,,00,0,,*6D
$PTNL,AVR,080127.00,,Yaw,,Tilt,,,,0,,00*3B
$GPGSA,A,3,05,14,15,18,20,30,,,,,,,1.1,0.6,0.9*31
$GPGSA,A,3,65,72,74,75,76,82,,,,,,,1.1,0.6,0.9*31
$GPGSA,A,3,03,05,08,13,24,25,,,,,,,1.1,0.6,0.9*30
$GPGSA,A,3,21,26,36,42,45,,,,,,,,1.1,0.6,0.9*38
$GPGST,080127.00,2.939,1.168,0.895,290.888,0.934,1.137,2.725*5B
$GPGBS,080127.00,4.399,5.438,10.862,20,0.0001,2.782,0.893*6D
$GPGRS,080127.00,1,-0.4,-0.6,-1.1,1.0,2.8,-0.2,,,,,,*49
$GPGRS,080127.00,1,-3.3,5.4,4.5,-4.1,-3.3,2.7,,,,,,*6F
$GPGRS,080127.00,1,-1.1,-2.3,-1.6,1.7,-2.4,-1.0,,,,,,*68
$GPGRS,080127.00,1,-1.6,-2.5,-1.2,-1.1,-1.5,,,,,,,*46
$GPGSV,4,1,14,13,62,304,41,08,11,041,,20,30,206,38,15,27,303,45*7E
$GPGSV,4,2,14,07,24,068,31,22,44,168,,05,51,245,46,14,59,140,43*73
$GPGSV,4,3,14,30,60,064,52,18,08,312,38,36,35,170,39,34,31,208,*71
$GPGSV,4,4,14,49,34,195,,61,03,257,*7F
$GLGSV,3,1,09,75,84,191,50,66,23,320,26,76,22,215,36,72,42,138,36*66
$GLGSV,3,2,09,74,38,040,38,65,76,321,44,81,00,300,,82,09,342,36*61
$GLGSV,3,3,09,83,06,021,*52
$GAGSV,3,1,10,03,86,008,48,13,14,291,35,24,37,054,40,02,22,189,29*67
$GAGSV,3,2,10,08,34,299,35,05,36,113,35,16,56,084,,25,59,134,42*65
$GAGSV,3,3,10,15,04,243,25,26,06,340,30*6D
$GBGSV,4,1,15,45,83,150,38,09,11,070,,40,24,063,32,05,21,130,*63
$GBGSV,4,2,15,26,30,226,35,22,36,154,31,56,15,092,,42,32,311,45*60
$GBGSV,4,3,15,36,37,056,38,10,30,080,,50,56,296,,21,75,246,51*65
$GBGSV,4,4,15,27,00,027,,02,05,108,,60,07,112,*52
$GPGGA,080127.00,,,,,0,00,,,M,,M,,*44
$PTNL,GGK,080127.00,010125,4742.4468703,N,01617.9735238,E,1,23,1.1,EHT668.4404,M*44
$GPGGQ,080127.00,010125,4742.4468703,N,01617.9735238,E,1,23,3.097,625.2294,M*37
$GPGFA,080127.00,11.110,22.344,1.168,0.895,290.888,2.725,,VVV*07
$GPLLK,080127.00,010125,,M,,M,1,23,1.3,,M*04
$GNGMP,080127.00,,,,,DAAA,23,0.6,,,,*5D
$GPGMP,080127.00,,,,,,06,,,,2.7,123*72
$GLGMP,080127.00,,,,,,06,,,,,*75
$GAGMP,080127.00,,,,,,06,,,,,*78
$GBGMP,080127.00,,,,,,05,,,,,*78
$PSSN,SNC,[0,288105000,2347]*42
$GPZDA,080132.00,01,01,2025,,*6B
$GPDTM,W84,,00.0000000,N,00.0000000,E,00.0000000,W84*5F
$GPRMC,080132.00,A,4742.4468835,N,01617.9735285,E,0.0,,010125,5.1,E,D*16
$GPGLL,4742.4468835,N,01617.9735285,E,080132.00,A,D*67
$GPGGA,080132.00,4742.4468835,N,01617.9735285,E,2,21,0.7,625.2590,M,43.2111,M,1.7,0123*43
$GNGNS,080132.00,4742.4468835,N,01617.9735285,E,DAAA,21,0.7,625.2590,43.2111,,*59
$GPGNS,080132.00,,,,,,06,,,,1.7,123*75
$GLGNS,080132.00,,,,,,05,,,,,*72
$GAGNS,080132.00,,,,,,04,,,,,*7E
$GBGNS,080132.00,,,,,,06,,,,,*7F
$GPLLQ,080132.00,010125,,M,,M,1,21,3.718,,M*17
$GPVTG,,T,,M,0.00,N,0.01,K,D*27
$GPHDT,,T*1B
$GPTHS,,V*0E
$GPROT,,V*08
$PSSN,HRP,080132.00,010125,,,,,,,00,0,,*69
$PTNL,AVR,080132.00,,Yaw,,Tilt,,,,0,,00*3F
$GPGSA,A,3,05,14,15,18,20,30,,,,,,,1.2,0.7,1.0*3B
$GPGSA,A,3,65,74,75,76,82,,,,,,,,1.2,0.7,1.0*3E
$GPGSA,A,3,03,13,24,25,,,,,,,,,1.2,0.7,1.0*37
$GPGSA,A,3,21,22,26,36,42,45,,,,,,,1.2,0.7,1.0*32
$GPGST,080132.00,2.953,1.406,1.077,291.304,1.126,1.367,3.269*54
$GPGBS,080132.00,4.411,5.580,11.186,20,0.0001,2.768,0.856*63
$GPGRS,080132.00,1,-0.4,0.0,-1.7,3.4,2.8,-0.8,,,,,,*6C
$GPGRS,080132.00,1,-3.7,3.6,-4.7,-2.8,-2.8,,,,,,,*6A
$GPGRS,080132.00,1,-1.5,-0.4,-2.7,-0.6,,,,,,,,*45
$GPGRS,080132.00,1,-2.3,0.8,-2.9,1.7,-1.6,-2.3,,,,,,*44
$GPGSV,4,1,14,13,62,304,,08,11,041,,20,30,206,39,15,27,303,45*7A
$GPGSV,4,2,14,07,24,068,30,22,44,168,,05,51,245,45,14,59,140,44*76
$GPGSV,4,3,14,30,59,064,52,18,08,312,39,36,35,170,38,34,31,208,*7B
$GPGSV,4,4,14,49,34,195,,61,03,257,*7F
$GLGSV,3,1,09,75,84,191,50,66,23,320,35,76,22,215,36,72,42,138,26*65
$GLGSV,3,2,09,74,38,040,40,65,76,321,44,81,00,300,,82,09,342,36*6E
$GLGSV,3,3,09,83,06,021,*52
$GAGSV,3,1,10,03,86,009,49,13,14,291,35,24,37,054,39,02,22,189,30*61
$GAGSV,3,2,10,08,35,299,35,05,36,113,34,16,56,084,,25,59,134,41*66
$GAGSV,3,3,10,15,04,243,24,26,06,340,31*6D
$GBGSV,4,1,15,45,83,149,39,09,11,070,,40,24,063,32,05,21,130,*6A
$GBGSV,4,2,15,26,30,226,35,22,36,154,37,56,15,092,,42,32,311,45*66
$GBGSV,4,3,15,36,37,056,42,10,30,080,,50,56,295,,21,75,246,51*6B
$GBGSV,4,4,15,27,00,027,,02,05,108,,60,07,112,*52
$GPGGA,080132.00,,,,,0,00,,,M,,M,,*40
$PTNL,GGK,080132.00,010125,4742.4468835,N,01617.9735285,E,1,21,1.2,EHT668.4701,M*4B
$GPGGQ,080132.00,010125,4742.4468835,N,01617.9735285,E,1,21,3.718,625.2590,M*3E
$GPGFA,080132.00,13.363,26.805,1.406,1.077,291.304,3.269,,VVV*07
$GPLLK,080132.00,010125,,M,,M,1,21,1.4,,M*05
$GNGMP,080132.00,,,,,DAAA,21,0.7,,,,*5A
$GPGMP,080132.00,,,,,,06,,,,1.7,123*75
$GLGMP,080132.00,,,,,,05,,,,,*72
$GAGMP,080132.00,,,,,,04,,,,,*7E
$GBGMP,080132.00,,,,,,06,,,,,*7F
$PSSN,SNC,[0,288110000,2347]*46
$GPZDA,080137.00,01,01,2025,,*6E
$GPDTM,W84,,00.0000000,N,00.0000000,E,00.0000000,W84*5F
