$GPZDA,092942.00,01,01,2025,,*67
$GPDTM,W84,,00.0000000,N,00.0000000,E,00.0000000,W84*5F
$GPRMC,092942.00,A,4742.4464631,N,01617.9730501,E,0.0,,010125,5.1,E,D*12
$GPGLL,4742.4464631,N,01617.9730501,E,092942.00,A,D*63
$GPGGA,092942.00,4742.4464631,N,01617.9730501,E,2,21,0.8,625.3649,M,43.2111,M,2.2,0123*48
$GNGNS,092942.00,4742.4464631,N,01617.9730501,E,DAAA,21,0.8,625.3649,43.2111,,*54
$GPGNS,092942.00,,,,,,06,,,,2.2,123*7F
$GLGNS,092942.00,,,,,,05,,,,,*7E
$GAGNS,092942.00,,,,,,04,,,,,*72
$GBGNS,092942.00,,,,,,06,,,,,*73
$GPLLQ,092942.00,010125,,M,,M,1,21,3.600,,M*13
$GPVTG,,T,,M,0.01,N,0.02,K,D*25
$GPHDT,,T*1B
$GPTHS,,V*0E
$GPROT,,V*08
$PSSN,HRP,092942.00,010125,,,,,,,00,0,,*65
$PTNL,AVR,092942.00,,Yaw,,Tilt,,,,0,,00*33
$GPGSA,A,3,13,14,15,23,24,30,,,,,,,1.4,0.8,1.2*3B
$GPGSA,A,3,65,66,67,75,76,,,,,,,,1.4,0.8,1.2*3D
$GPGSA,A,3,02,03,08,25,,,,,,,,,1.4,0.8,1.2*32
$GPGSA,A,3,10,14,21,26,33,45,,,,,,,1.4,0.8,1.2*3E
$GPGST,092942.00,5.629,2.362,0.816,2.319,2.360,0.821,2.591*5B
$GPGBS,092942.00,6.671,2.590,8.783,67,0.0001,18.285,6.273*61
$GPGRS,092942.00,1,-1.4,-1.0,0.7,-1.1,0.8,2.3,,,,,,*6D
$GPGRS,092942.00,1,-2.5,5.0,18.3,-3.0,-1.3,,,,,,,*70
$GPGRS,092942.00,1,0.3,-0.6,0.3,0.0,,,,,,,,*61
$GPGRS,092942.00,1,1.2,-6.0,-2.8,-0.1,-0.8,-3.0,,,,,,*62
$GPGSV,4,1,14,13,75,148,44,05,18,212,35,30,24,085,36,19,15,143,*78
$GPGSV,4,2,14,24,27,279,43,23,22,313,44,17,29,113,31,14,53,063,44*78
$GPGSV,4,3,14,15,63,280,44,22,71,094,,36,35,170,36,34,31,208,*74
$GPGSV,4,4,14,49,34,195,,61,03,257,*7F
$GLGSV,3,1,09,66,66,300,38,84,13,040,,67,16,329,45,77,18,240,*6C
$GLGSV,3,2,09,65,50,178,42,75,47,041,49,76,64,257,50,83,03,342,*61
$GLGSV,3,3,09,85,04,088,*55
$GAGSV,3,1,11,08,64,298,44,24,11,045,24,07,13,309,23,16,35,052,*6A
$GAGSV,3,2,11,02,57,195,42,03,58,144,45,25,59,066,40,05,08,134,*68
$GAGSV,3,3,11,26,01,314,29,30,08,216,,33,03,358,*53
$GBGSV,5,1,19,26,64,254,52,33,15,322,38,40,28,049,32,05,20,130,32*6F
$GBGSV,5,2,19,24,14,247,27,29,12,093,,21,43,190,47,14,37,307,37*6F
$GBGSV,5,3,19,56,31,082,,10,36,072,41,50,57,224,,42,55,276,30*6F
$GBGSV,5,4,19,45,55,061,46,09,03,088,,22,01,162,,36,07,065,*69
$GBGSV,5,5,19,30,10,041,,02,04,109,,60,07,112,*59
$GPGGA,092942.00,,,,,0,00,,,M,,M,,*4C
$PTNL,GGK,092942.00,010125,4742.4464631,N,01617.9730501,E,1,21,1.4,EHT668.5760,M*4F
$GPGGQ,092942.00,010125,4742.4464631,N,01617.9730501,E,1,21,3.600,625.3649,M*34
$GPGFA,092942.00,22.454,21.250,2.362,0.816,2.319,2.591,,VVV*0A
$GPLLK,092942.00,010125,,M,,M,1,21,1.7,,M*0A
$GNGMP,092942.00,,,,,DAAA,21,0.8,,,,*59
$GPGMP,092942.00,,,,,,06,,,,2.2,123*7F
$GLGMP,092942.00,,,,,,05,,,,,*7E
$GAGMP,092942.00,,,,,,04,,,,,*72
$GBGMP,092942.00,,,,,,06,,,,,*73
$PSSN,SNC,[0,293400000,2347]*48
$GPZDA,092947.00,01,01,2025,,*62
$GPDTM,W84,,00.0000000,N,00.0000000,E,00.0000000,W84*5F
$GPRMC,092947.00,A,4742.4464623,N,01617.9730543,E,0.0,,010125,5.1,E,D*12
$GPGLL,4742.4464623,N,01617.9730543,E,092947.00,A,D*63
$GPGGA,092947.00,4742.4464623,N,01617.9730543,E,2,21,0.7,625.3849,M,43.2111,M,3.3,0123*49
$GNGNS,092947.00,4742.4464623,N,01617.9730543,E,DAAA,21,0.7,625.3849,43.2111,,*55
$GPGNS,092947.00,,,,,,07,,,,3.3,123*7B
$GLGNS,092947.00,,,,,,04,,,,,*7A
$GAGNS,092947.00,,,,,,04,,,,,*77
$GBGNS,092947.00,,,,,,06,,,,,*76
$GPLLQ,092947.00,010125,,M,,M,1,21,2.251,,M*17
$GPVTG,,T,,M,0.00,N,0.00,K,D*26
$GPHDT,,T*1B
$GPTHS,,V*0E
$GPROT,,V*08
$PSSN,HRP,092947.00,010125,,,,,,,00,0,,*60
$PTNL,AVR,092947.00,,Yaw,,Tilt,,,,0,,00*36
$GPGSA,A,3,05,13,14,15,23,24,30,,,,,,1.2,0.7,1.0*35
$GPGSA,A,3,65,67,75,76,,,,,,,,,1.2,0.7,1.0*36
$GPGSA,A,3,02,03,08,25,,,,,,,,,1.2,0.7,1.0*39
$GPGSA,A,3,10,14,21,26,33,45,,,,,,,1.2,0.7,1.0*35
$GPGST,092947.00,5.251,1.186,0.769,358.765,1.186,0.769,1.752*5E
$GPGBS,092947.00,4.833,2.901,5.044,67,0.0001,17.607,6.272*6B
$GPGRS,092947.00,1,-0.5,-1.4,-0.7,0.6,-0.7,1.0,2.2,,,,,*66
$GPGRS,092947.00,1,-2.1,17.6,-2.9,-1.1,,,,,,,,*5A
$GPGRS,092947.00,1,1.3,0.5,0.7,1.2,,,,,,,,*4C
$GPGRS,092947.00,1,1.5,-5.6,-3.2,0.4,0.6,-2.1,,,,,,*65
$GPGSV,4,1,14,13,75,148,43,05,18,212,35,30,24,085,36,19,15,143,*7F
$GPGSV,4,2,14,24,28,279,41,23,22,313,43,17,29,113,34,14,53,063,44*77
$GPGSV,4,3,14,15,63,280,43,22,71,094,,36,35,170,37,34,31,208,*72
$GPGSV,4,4,14,49,34,195,,61,03,257,*7F
$GLGSV,3,1,09,66,66,299,34,84,13,040,,67,16,329,45,77,18,240,*61
$GLGSV,3,2,09,65,50,178,43,75,47,041,49,76,64,258,50,83,03,342,*6F
$GLGSV,3,3,09,85,04,088,*55
$GAGSV,3,1,11,08,64,298,44,24,11,045,24,07,13,309,22,16,35,052,*6B
$GAGSV,3,2,11,02,57,195,43,03,58,144,46,25,59,066,40,05,08,134,*6A
$GAGSV,3,3,11,26,01,314,29,30,08,216,,33,03,358,*53
$GBGSV,5,1,19,26,64,254,52,33,15,322,38,40,28,049,33,05,20,130,31*6D
$GBGSV,5,2,19,24,14,247,28,29,12,093,,21,43,190,47,14,37,307,37*60
$GBGSV,5,3,19,56,31,082,,10,36,072,41,50,57,224,,42,55,275,33*6F
$GBGSV,5,4,19,45,55,061,45,09,03,088,,22,01,162,,36,07,065,*6A
$GBGSV,5,5,19,30,10,041,,02,04,109,,60,07,112,*59
$GPGGA,092947.00,,,,,0,00,,,M,,M,,*49
$PTNL,GGK,092947.00,010125,4742.4464623,N,01617.9730543,E,1,21,1.2,EHT668.5960,M*47
$GPGGQ,092947.00,010125,4742.4464623,N,01617.9730543,E,1,21,2.251,625.3849,M*3B
$GPGFA,092947.00,11.274,14.369,1.186,0.769,358.765,1.752,,VVV*07
$GPLLK,092947.00,010125,,M,,M,1,21,1.5,,M*0D
$GNGMP,092947.00,,,,,DAAA,21,0.7,,,,*53
$GPGMP,092947.00,,,,,,07,,,,3.3,123*7B
$GLGMP,092947.00,,,,,,04,,,,,*7A
$GAGMP,092947.00,,,,,,04,,,,,*77
$GBGMP,092947.00,,,,,,06,,,,,*76
$PSSN,SNC,[0,293405000,2347]*4D
$GPZDA,092952.00,01,01,2025,,*66
$GPDTM,W84,,00.0000000,N,00.0000000,E,00.0000000,W84*5F
$GPRMC,092952.00,A,4742.4464565,N,01617.9730544,E,0.0,,010125,5.1,E,D*10
$GPGLL,4742.4464565,N,01617.9730544,E,092952.00,A,D*61
$GPGGA,092952.00,4742.4464565,N,01617.9730544,E,2,23,0.6,625.3994,M,43.2111,M,2.8,0123*43
$GNGNS,092952.00,4742.4464565,N,01617.9730544,E,DAAA,23,0.6,625.3994,43.2111,,*55
$GPGNS,092952.00,,,,,,08,,,,2.8,123*7A
$GLGNS,092952.00,,,,,,04,,,,,*7E
$GAGNS,092952.00,,,,,,04,,,,,*73
$GBGNS,092952.00,,,,,,07,,,,,*73
$GPLLQ,092952.00,010125,,M,,M,1,23,2.499,,M*13
$GPVTG,,T,,M,0.00,N,0.01,K,D*27
$GPHDT,,T*1B
$GPTHS,,V*0E
$GPROT,,V*08
$PSSN,HRP,092952.00,010125,,,,,,,00,0,,*64
$PTNL,AVR,092952.00,,Yaw,,Tilt,,,,0,,00*32
$GPGSA,A,3,05,13,14,15,17,23,24,30,,,,,1.2,0.6,1.0*32
$GPGSA,A,3,65,67,75,76,,,,,,,,,1.2,0.6,1.0*37
$GPGSA,A,3,02,03,08,25,,,,,,,,,1.2,0.6,1.0*38
$GPGSA,A,3,10,14,21,26,33,42,45,,,,,,1.2,0.6,1.0*32
$GPGST,092952.00,4.821,1.345,0.782,7.138,1.339,0.794,1.956*57
$GPGBS,092952.00,4.041,1.867,5.169,30,0.0001,3.586,1.029*58
$GPGRS,092952.00,1,-1.0,-1.2,-1.0,1.8,-0.8,-0.2,-0.0,3.6,,,,*4E
$GPGRS,092952.00,1,-1.7,17.4,-3.2,-1.3,,,,,,,,*51
$GPGRS,092952.00,1,1.4,0.6,0.8,1.2,,,,,,,,*43
$GPGRS,092952.00,1,1.3,-3.5,-3.4,0.1,-0.4,0.6,-1.3,,,,,*67
$GPGSV,4,1,14,13,75,148,43,05,18,212,35,30,24,085,35,19,15,143,*7C
$GPGSV,4,2,14,24,28,279,39,23,22,313,42,17,29,113,37,14,53,063,43*7D
$GPGSV,4,3,14,15,63,280,44,22,71,094,,36,35,170,37,34,31,208,*75
$GPGSV,4,4,14,49,34,195,,61,03,257,*7F
$GLGSV,3,1,09,66,66,299,34,84,13,040,,67,16,329,44,77,18,240,*60
$GLGSV,3,2,09,65,50,178,43,75,47,041,49,76,64,258,49,83,03,342,*67
$GLGSV,3,3,09,85,04,088,*55
$GAGSV,3,1,11,08,64,298,43,24,11,045,25,07,13,309,25,16,35,052,*6A
$GAGSV,3,2,11,02,57,195,44,03,58,144,47,25,59,066,39,05,08,134,*62
$GAGSV,3,3,11,26,01,314,27,30,08,216,,33,03,358,*5D
$GBGSV,5,1,19,26,64,254,52,33,15,322,37,40,28,049,35,05,20,130,32*67
$GBGSV,5,2,19,24,14,247,29,29,12,093,,21,43,190,47,14,37,307,39*6F
$GBGSV,5,3,19,56,31,082,,10,36,072,41,50,57,224,,42,55,275,36*6A
$GBGSV,5,4,19,45,55,061,45,09,03,088,,22,01,162,,36,07,065,*6A
$GBGSV,5,5,19,30,10,041,,02,04,109,,60,07,112,*59
$GPGGA,092952.00,,,,,0,00,,,M,,M,,*4D
$PTNL,GGK,092952.00,010125,4742.4464565,N,01617.9730544,E,1,23,1.2,EHT668.6105,M*4F
$GPGGQ,092952.00,010125,4742.4464565,N,01617.9730544,E,1,23,2.499,625.3994,M*38
$GPGFA,092952.00,12.792,16.037,1.345,0.782,7.138,1.956,,VVV*02
$GPLLK,092952.00,010125,,M,,M,1,23,1.4,,M*0A
$GNGMP,092952.00,,,,,DAAA,23,0.6,,,,*54
$GPGMP,092952.00,,,,,,08,,,,2.8,123*7A
$GLGMP,092952.00,,,,,,04,,,,,*7E
$GAGMP,092952.00,,,,,,04,,,,,*73
$GBGMP,092952.00,,,,,,07,,,,,*73
$PSSN,SNC,[0,293410000,2347]*49
$GPZDA,092957.00,01,01,2025,,*63
$GPDTM,W84,,00.0000000,N,00.0000000,E,00.0000000,W84*5F
$GPRMC,092957.00,A,4742.4464535,N,01617.9730711,E,0.0,,010125,5.1,E,D*12
$GPGLL,4742.4464535,N,01617.9730711,E,092957.00,A,D*63
$GPGGA,092957.00,4742.4464535,N,01617.9730711,E,2,22,0.7,625.3964,M,43.2111,M,1.9,0123*4C
$GNGNS,092957.00,4742.4464535,N,01617.9730711,E,DAAA,22,0.7,625.3964,43.2111,,*58
$GPGNS,092957.00,,,,,,07,,,,1.9,123*72
$GLGNS,092957.00,,,,,,04,,,,,*7B
$GAGNS,092957.00,,,,,,04,,,,,*76
$GBGNS,092957.00,,,,,,07,,,,,*76
$GPLLQ,092957.00,010125,,M,,M,1,22,2.439,,M*1D
$GPVTG,,T,,M,0.00,N,0.00,K,D*26
$GPHDT,,T*1B
$GPTHS,,V*0E
$GPROT,,V*08
$PSSN,HRP,092957.00,010125,,,,,,,00,0,,*61
$PTNL,AVR,092957.00,,Yaw,,Tilt,,,,0,,00*37
$GPGSA,A,3,05,13,14,15,17,23,24,,,,,,1.2,0.7,1.0*30
$GPGSA,A,3,65,67,75,76,,,,,,,,,1.2,0.7,1.0*36
$GPGSA,A,3,02,03,08,25,,,,,,,,,1.2,0.7,1.0*39
$GPGSA,A,3,10,14,21,26,33,42,45,,,,,,1.2,0.7,1.0*33
$GPGST,092957.00,4.857,1.247,0.811,14.938,1.223,0.847,1.933*67
$GPGBS,092957.00,4.068,2.714,5.238,15,0.0001,2.268,0.633*54
$GPGRS,092957.00,1,-0.2,-0.9,-1.2,2.3,0.3,-0.1,-0.2,,,,,*44
$GPGRS,092957.00,1,-1.9,17.4,-3.3,-2.3,,,,,,,,*58
$GPGRS,092957.00,1,1.1,-0.1,0.3,0.6,,,,,,,,*67
$GPGRS,092957.00,1,0.7,-2.0,-3.5,-0.8,-0.2,2.0,-0.9,,,,,*4F
$GPGSV,4,1,14,13,75,148,42,05,18,212,35,30,24,085,34,19,15,143,*7C
$GPGSV,4,2,14,24,28,279,36,23,22,313,42,17,29,113,38,14,53,063,44*7A
$GPGSV,4,3,14,15,63,280,46,22,71,094,,36,35,170,37,34,31,208,*77
$GPGSV,4,4,14,49,34,195,,61,03,257,*7F
$GLGSV,3,1,09,66,66,299,32,84,13,040,,67,16,329,43,77,18,240,*61
$GLGSV,3,2,09,65,50,178,43,75,47,041,50,76,64,258,49,83,03,342,*6F
$GLGSV,3,3,09,85,04,088,*55
$GAGSV,3,1,11,08,64,298,44,24,11,045,24,07,13,309,27,16,35,052,*6E
$GAGSV,3,2,11,02,57,195,45,03,58,144,47,25,59,066,40,05,08,134,*6D
$GAGSV,3,3,11,26,01,314,26,30,08,216,,33,03,358,*5C
$GBGSV,5,1,19,26,64,254,52,33,15,322,37,40,28,049,34,05,20,130,31*65
$GBGSV,5,2,19,24,14,247,28,29,12,093,,21,43,190,48,14,37,307,41*6E
$GBGSV,5,3,19,56,31,082,,10,36,072,40,50,56,224,,42,55,275,36*6A
$GBGSV,5,4,19,45,55,061,46,09,03,088,,22,01,162,,36,07,065,*69
$GBGSV,5,5,19,30,10,041,,02,04,109,,60,07,112,*59
$GPGGA,092957.00,,,,,0,00,,,M,,M,,*48
$PTNL,GGK,092957.00,010125,4742.4464535,N,01617.9730711,E,1,22,1.2,EHT668.6075,M*4A
$GPGGQ,092957.00,010125,4742.4464535,N,01617.9730711,E,1,22,2.439,625.3964,M*3E
$GPGFA,092957.00,11.859,15.848,1.247,0.811,14.938,1.933,,VVV*30
$GPLLK,092957.00,010125,,M,,M,1,22,1.4,,M*0E
$GNGMP,092957.00,,,,,DAAA,22,0.7,,,,*51
$GPGMP,092957.00,,,,,,07,,,,1.9,123*72
$GLGMP,092957.00,,,,,,04,,,,,*7B
$GAGMP,092957.00,,,,,,04,,,,,*76
$GBGMP,092957.00,,,,,,07,,,,,*76
$PSSN,SNC,[0,293415000,2347]*4C
$GPZDA,093002.00,01,01,2025,,*6B
$GPDTM,W84,,00.0000000,N,00.0000000,E,00.0000000,W84*5F
$GPRMC,093002.00,A,4742.4464560,N,01617.9730788,E,0.0,,010125,5.1,E,D*1A
$GPGLL,4742.4464560,N,01617.9730788,E,093002.00,A,D*6B
$GPGGA,093002.00,4742.4464560,N,01617.9730788,E,2,20,0.7,625.3878,M,43.2111,M,3.0,0123*41
$GNGNS,093002.00,4742.4464560,N,01617.9730788,E,DAAA,20,0.7,625.3878,43.2111,,*5E
$GPGNS,093002.00,,,,,,06,,,,3.0,123*70
$GLGNS,093002.00,,,,,,04,,,,,*73
$GAGNS,093002.00,,,,,,04,,,,,*7E
$GBGNS,093002.00,,,,,,06,,,,,*7F
$GPLLQ,093002.00,010125,,M,,M,1,20,2.295,,M*17
$GPVTG,,T,,M,0.01,N,0.01,K,D*26
$GPHDT,,T*1B
$GPTHS,,V*0E
$GPROT,,V*08
$PSSN,HRP,093002.00,010125,,,,,,,00,0,,*69
$PTNL,AVR,093002.00,,Yaw,,Tilt,,,,0,,00*3F
$GPGSA,A,3,05,13,14,15,17,23,,,,,,,1.3,0.7,1.1*36
$GPGSA,A,3,65,67,75,76,,,,,,,,,1.3,0.7,1.1*36
$GPGSA,A,3,02,03,08,25,,,,,,,,,1.3,0.7,1.1*39
$GPGSA,A,3,10,14,21,26,33,45,,,,,,,1.3,0.7,1.1*35
$GPGST,093002.00,5.072,1.145,0.823,15.378,1.126,0.850,1.810*6E
$GPGBS,093002.00,3.932,2.948,5.498,67,0.0001,17.213,6.274*6A
$GPGRS,093002.00,1,-0.8,-0.1,-1.4,1.2,1.1,-1.1,,,,,,*49
$GPGRS,093002.00,1,-1.6,17.2,-3.4,-2.1,,,,,,,,*5C
$GPGRS,093002.00,1,0.7,-0.5,0.1,-0.3,,,,,,,,*46
$GPGRS,093002.00,1,0.6,-0.4,-3.2,-1.1,-0.4,-0.7,,,,,,*6B
$GPGSV,4,1,14,13,75,148,42,05,17,212,36,30,24,085,33,19,15,143,*77
$GPGSV,4,2,14,24,28,279,31,23,22,313,42,17,29,113,39,14,53,063,44*7C
$GPGSV,4,3,14,15,63,280,47,22,71,093,,36,35,170,37,34,31,208,*71
$GPGSV,4,4,14,49,34,195,,61,03,257,*7F
$GLGSV,3,1,09,66,66,299,31,84,13,040,,67,16,329,41,77,18,240,25*67
$GLGSV,3,2,09,65,50,178,44,75,47,041,50,76,64,258,49,83,03,342,*68
$GLGSV,3,3,09,85,04,088,*55
$GAGSV,3,1,11,08,64,298,44,24,11,045,25,07,13,309,30,16,35,052,*69
$GAGSV,3,2,11,02,57,195,46,03,58,144,47,25,59,066,40,05,08,134,*6E
$GAGSV,3,3,11,26,01,314,26,30,08,216,,33,03,358,*5C
$GBGSV,5,1,19,26,64,254,52,33,15,322,36,40,28,049,34,05,20,130,32*67
$GBGSV,5,2,19,24,14,247,29,29,12,093,,21,43,190,47,14,37,307,42*63
$GBGSV,5,3,19,56,31,082,,10,36,072,40,50,56,224,,45,55,061,46*6D
$GBGSV,5,4,19,42,55,275,34,09,03,088,,36,06,065,,22,01,162,*6D
$GBGSV,5,5,19,30,10,041,,02,04,109,,60,07,112,*59
$GPGGA,093002.00,,,,,0,00,,,M,,M,,*40
$PTNL,GGK,093002.00,010125,4742.4464560,N,01617.9730788,E,1,20,1.3,EHT668.5988,M*49
$GPGGQ,093002.00,010125,4742.4464560,N,01617.9730788,E,1,20,2.295,625.3878,M*38
$GPGFA,093002.00,10.889,14.843,1.145,0.823,15.378,1.810,,VVV*31
$GPLLK,093002.00,010125,,M,,M,1,20,1.5,,M*05
$GNGMP,093002.00,,,,,DAAA,20,0.7,,,,*5B
$GPGMP,093002.00,,,,,,06,,,,3.0,123*70
$GLGMP,093002.00,,,,,,04,,,,,*73
$GAGMP,093002.00,,,,,,04,,,,,*7E
$GBGMP,093002.00,,,,,,06,,,,,*7F
$PSSN,SNC,[0,293420000,2347]*4A
$GPZDA,093007.00,01,01,2025,,*6E
$GPDTM,W84,,00.0000000,N,00.0000000,E,00.0000000,W84*5F
$GPRMC,093007.00,A,4742.4464553,N,01617.9730786,E,0.0,,010125,5.1,E,D*11
$GPGLL,4742.4464553,N,01617.9730786,E,093007.00,A,D*60
$GPGGA,093007.00,4742.4464553,N,01617.9730786,E,2,20,0.7,625.3712,M,43.2111,M,2.0,0123*48
$GNGNS,093007.00,4742.4464553,N,01617.9730786,E,DAAA,20,0.7,625.3712,43.2111,,*56
$GPGNS,093007.00,,,,,,06,,,,2.0,123*74
$GLGNS,093007.00,,,,,,04,,,,,*76
$GAGNS,093007.00,,,,,,04,,,,,*7B
$GBGNS,093007.00,,,,,,06,,,,,*7A
$GPLLQ,093007.00,010125,,M,,M,1,20,2.391,,M*17
$GPVTG,,T,,M,0.00,N,0.00,K,D*26
$GPHDT,,T*1B
$GPTHS,,V*0E
$GPROT,,V*08
$PSSN,HRP,093007.00,010125,,,,,,,00,0,,*6C
$PTNL,AVR,093007.00,,Yaw,,Tilt,,,,0,,00*3A
$GPGSA,A,3,05,13,14,15,17,23,,,,,,,1.3,0.7,1.1*36
$GPGSA,A,3,65,67,75,76,,,,,,,,,1.3,0.7,1.1*36
$GPGSA,A,3,02,03,08,25,,,,,,,,,1.3,0.7,1.1*39
$GPGSA,A,3,10,14,21,26,33,45,,,,,,,1.3,0.7,1.1*35
$GPGST,093007.00,5.417,1.210,0.806,14.703,1.188,0.838,1.898*6B
$GPGBS,093007.00,3.768,2.905,5.605,67,0.0001,18.691,6.277*63
$GPGRS,093007.00,1,-1.9,0.8,-1.0,0.9,0.6,-0.6,,,,,,*66
$GPGRS,093007.00,1,-0.4,18.7,-3.3,-1.1,,,,,,,,*54
$GPGRS,093007.00,1,1.0,-0.2,0.5,-0.1,,,,,,,,*44
$GPGRS,093007.00,1,1.0,1.1,-2.9,-0.5,-1.0,-0.2,,,,,,*4F
$GPGSV,4,1,14,13,75,148,43,05,17,212,36,30,24,085,31,19,15,143,*74
$GPGSV,4,2,14,24,28,279,25,23,22,312,42,17,29,113,39,14,53,063,44*78
$GPGSV,4,3,14,15,63,280,47,22,71,093,,36,35,170,37,34,31,208,*71
$GPGSV,4,4,14,49,34,195,,61,03,257,*7F
$GLGSV,3,1,09,66,66,299,35,84,13,040,,67,16,329,39,77,18,240,27*6E
$GLGSV,3,2,09,65,50,178,45,75,47,041,50,76,64,258,50,83,03,342,*61
$GLGSV,3,3,09,85,04,088,*55
$GAGSV,3,1,11,08,64,298,44,24,11,045,26,07,13,309,32,16,35,052,*68
$GAGSV,3,2,11,02,57,195,47,03,58,144,47,25,59,066,41,05,08,134,*6E
$GAGSV,3,3,11,26,01,314,26,30,08,216,,33,03,358,*5C
$GBGSV,5,1,19,26,64,254,52,33,15,322,36,40,28,048,34,05,20,130,32*66
$GBGSV,5,2,19,24,14,247,27,29,12,093,,21,43,190,46,14,37,307,44*6A
$GBGSV,5,3,19,56,31,082,,10,36,072,40,50,56,224,,45,55,061,47*6C
$GBGSV,5,4,19,42,55,275,33,09,03,088,,36,06,065,,22,01,162,*6A
$GBGSV,5,5,19,30,10,041,,02,04,109,,60,07,112,*59
$GPGGA,093007.00,,,,,0,00,,,M,,M,,*45
$PTNL,GGK,093007.00,010125,4742.4464553,N,01617.9730786,E,1,20,1.3,EHT668.5822,M*43
$GPGGQ,093007.00,010125,4742.4464553,N,01617.9730786,E,1,20,2.391,625.3712,M*35
$GPGFA,093007.00,11.503,15.565,1.210,0.806,14.703,1.898,,VVV*3F
$GPLLK,093007.00,010125,,M,,M,1,20,1.5,,M*00
$GNGMP,093007.00,,,,,DAAA,20,0.7,,,,*5E
$GPGMP,093007.00,,,,,,06,,,,2.0,123*74
$GLGMP,093007.00,,,,,,04,,,,,*76
$GAGMP,093007.00,,,,,,04,,,,,*7B
$GBGMP,093007.00,,,,,,06,,,,,*7A
$PSSN,SNC,[0,293425000,2347]*4F
$GPZDA,093012.00,01,01,2025,,*6A
$GPDTM,W84,,00.0000000,N,00.0000000,E,00.0000000,W84*5F
$GPRMC,093012.00,A,4742.4464578,N,01617.9730828,E,0.0,,010125,5.1,E,D*17
$GPGLL,4742.4464578,N,01617.9730828,E,093012.00,A,D*66
$GPGGA,093012.00,4742.4464578,N,01617.9730828,E,2,21,0.7,625.3693,M,43.2111,M,3.0,0123*46
$GNGNS,093012.00,4742.4464578,N,01617.9730828,E,DAAA,21,0.7,625.3693,43.2111,,*59
$GPGNS,093012.00,,,,,,06,,,,3.0,123*71
$GLGNS,093012.00,,,,,,05,,,,,*73
$GAGNS,093012.00,,,,,,04,,,,,*7F
$GBGNS,093012.00,,,,,,06,,,,,*7E
$GPLLQ,093012.00,010125,,M,,M,1,21,2.121,,M*1B
$GPVTG,,T,,M,0.00,N,0.01,K,D*27
$GPHDT,,T*1B
$GPTHS,,V*0E
$GPROT,,V*08
$PSSN,HRP,093012.00,010125,,,,,,,00,0,,*68
$PTNL,AVR,093012.00,,Yaw,,Tilt,,,,0,,00*3E
$GPGSA,A,3,05,13,14,15,17,23,,,,,,,1.2,0.7,1.0*36
$GPGSA,A,3,65,66,67,75,76,,,,,,,,1.2,0.7,1.0*36
$GPGSA,A,3,02,03,08,25,,,,,,,,,1.2,0.7,1.0*39
$GPGSA,A,3,10,14,21,26,33,45,,,,,,,1.2,0.7,1.0*35
$GPGST,093012.00,5.069,1.042,0.779,12.894,1.031,0.794,1.675*60
$GPGBS,093012.00,3.827,2.965,5.702,67,0.0001,16.546,6.286*6A
$GPGRS,093012.00,1,-0.1,0.8,-1.5,0.4,0.6,-0.0,,,,,,*65
$GPGRS,093012.00,1,-1.7,7.1,16.5,-2.9,-0.8,,,,,,,*75
$GPGRS,093012.00,1,1.0,-0.2,0.5,0.0,,,,,,,,*6C
$GPGRS,093012.00,1,1.0,1.0,-3.4,-0.1,-1.9,-1.3,,,,,,*4B
$GPGSV,4,1,14,13,75,148,43,05,17,212,35,30,24,085,29,19,15,143,*7E
$GPGSV,4,2,14,24,28,279,31,23,22,312,42,17,29,113,37,14,53,063,45*72
$GPGSV,4,3,14,15,63,280,48,22,71,093,,36,35,170,37,34,31,208,*7E
$GPGSV,4,4,14,49,34,195,,61,03,257,*7F
$GLGSV,3,1,09,66,66,299,38,84,13,040,,67,16,329,36,77,18,240,29*62
$GLGSV,3,2,09,65,49,178,45,75,47,041,51,76,64,258,49,83,03,342,*60
$GLGSV,3,3,09,85,04,088,*55
$GAGSV,3,1,11,08,64,298,44,24,11,045,24,07,13,309,35,16,35,052,*6D
$GAGSV,3,2,11,02,57,195,48,03,58,144,48,25,59,066,40,05,08,134,*6F
$GAGSV,3,3,11,26,01,314,26,30,08,216,,33,03,358,*5C
$GBGSV,5,1,19,26,64,254,52,33,15,322,36,40,28,048,33,05,20,130,32*61
$GBGSV,5,2,19,24,14,247,23,29,12,093,,21,43,190,45,14,37,307,45*6C
$GBGSV,5,3,19,56,31,082,,10,36,072,40,50,56,224,,45,55,061,46*6D
$GBGSV,5,4,19,42,55,275,33,09,03,088,,36,06,065,,22,01,162,*6A
$GBGSV,5,5,19,30,10,041,,02,04,109,,60,07,112,*59
$GPGGA,093012.00,,,,,0,00,,,M,,M,,*41
$PTNL,GGK,093012.00,010125,4742.4464578,N,01617.9730828,E,1,21,1.2,EHT668.5803,M*46
$GPGGQ,093012.00,010125,4742.4464578,N,01617.9730828,E,1,21,2.121,625.3693,M*33
$GPGFA,093012.00,9.911,13.736,1.042,0.779,12.894,1.675,,VVV*07
$GPLLK,093012.00,010125,,M,,M,1,21,1.4,,M*04
$GNGMP,093012.00,,,,,DAAA,21,0.7,,,,*5B
$GPGMP,093012.00,,,,,,06,,,,3.0,123*71
$GLGMP,093012.00,,,,,,05,,,,,*73
$GAGMP,093012.00,,,,,,04,,,,,*7F
$GBGMP,093012.00,,,,,,06,,,,,*7E
$PSSN,SNC,[0,293430000,2347]*4B
$GPZDA,093017.00,01,01,2025,,*6F
$GPDTM,W84,,00.0000000,N,00.0000000,E,00.0000000,W84*5F
$GPRMC,093017.00,A,4742.4464635,N,01617.9730942,E,0.0,,010125,5.1,E,D*15
$GPGLL,4742.4464635,N,01617.9730942,E,093017.00,A,D*64
$GPGGA,093017.00,4742.4464635,N,01617.9730942,E,2,22,0.7,625.3589,M,43.2111,M,1.7,0123*4A
$GNGNS,093017.00,4742.4464635,N,01617.9730942,E,DAAA,22,0.7,625.3589,43.2111,,*50
$GPGNS,093017.00,,,,,,06,,,,1.7,123*71
$GLGNS,093017.00,,,,,,05,,,,,*76
$GAGNS,093017.00,,,,,,05,,,,,*7B
$GBGNS,093017.00,,,,,,06,,,,,*7B
$GPLLQ,093017.00,010125,,M,,M,1,22,2.565,,M*19
$GPVTG,,T,,M,0.01,N,0.01,K,D*26
$GPHDT,,T*1B
$GPTHS,,V*0E
$GPROT,,V*08
$PSSN,HRP,093017.00,010125,,,,,,,00,0,,*6D
$PTNL,AVR,093017.00,,Yaw,,Tilt,,,,0,,00*3B
$GPGSA,A,3,13,14,15,17,23,24,,,,,,,1.3,0.7,1.1*35
$GPGSA,A,3,65,66,67,75,76,,,,,,,,1.3,0.7,1.1*36
$GPGSA,A,3,02,03,07,08,25,,,,,,,,1.3,0.7,1.1*3E
$GPGSA,A,3,10,14,21,26,33,45,,,,,,,1.3,0.7,1.1*35
$GPGST,093017.00,3.950,1.589,0.682,13.567,1.553,0.761,1.894*6D
$GPGBS,093017.00,6.195,3.109,7.479,24,0.0001,2.286,0.826*5B
$GPGRS,093017.00,1,0.8,-1.3,0.1,-0.8,-0.7,2.3,,,,,,*6A
$GPGRS,093017.00,1,-2.9,2.8,11.5,-2.5,-1.4,,,,,,,*77
$GPGRS,093017.00,1,0.8,-0.4,6.0,0.4,-0.7,,,,,,,*65
$GPGRS,093017.00,1,-0.1,0.7,-4.0,0.1,-2.6,-2.9,,,,,,*4E
$GPGSV,4,1,14,13,75,148,43,05,17,212,34,30,24,085,29,19,15,143,*7F
$GPGSV,4,2,14,24,28,279,36,23,22,312,41,17,29,113,36,14,53,063,45*77
$GPGSV,4,3,14,15,63,280,47,22,71,093,,36,35,170,37,34,31,208,*71
$GPGSV,4,4,14,49,34,195,,61,03,257,*7F
$GLGSV,3,1,09,66,66,299,41,84,13,040,,67,16,329,36,77,19,240,30*65
$GLGSV,3,2,09,65,49,178,46,75,47,041,51,76,64,258,49,83,02,342,*62
$GLGSV,3,3,09,85,04,088,*55
$GAGSV,3,1,11,08,64,298,43,24,11,045,24,07,13,309,36,16,35,052,*69
$GAGSV,3,2,11,02,58,195,48,03,58,144,48,25,59,066,41,05,08,134,*61
$GAGSV,3,3,11,26,01,313,27,30,08,216,,33,03,358,*5A
$GBGSV,5,1,19,26,64,254,52,33,15,322,37,40,28,048,36,05,20,130,31*66
$GBGSV,5,2,19,24,14,247,27,29,12,093,,21,43,190,43,14,37,306,45*6F
$GBGSV,5,3,19,56,31,082,,10,36,072,39,50,56,224,,45,55,061,45*60
$GBGSV,5,4,19,42,55,275,34,09,03,088,,36,06,065,,22,01,162,*6D
$GBGSV,5,5,19,30,10,041,,02,04,109,,60,07,112,*59
$GPGGA,093017.00,,,,,0,00,,,M,,M,,*44
$PTNL,GGK,093017.00,010125,4742.4464635,N,01617.9730942,E,1,22,1.3,EHT668.5700,M*4A
$GPGGQ,093017.00,010125,4742.4464635,N,01617.9730942,E,1,22,2.565,625.3589,M*3E
$GPGFA,093017.00,15.109,15.529,1.589,0.682,13.567,1.894,,VVV*32
$GPLLK,093017.00,010125,,M,,M,1,22,1.6,,M*00
$GNGMP,093017.00,,,,,DAAA,22,0.7,,,,*5D
$GPGMP,093017.00,,,,,,06,,,,1.7,123*71
$GLGMP,093017.00,,,,,,05,,,,,*76
$GAGMP,093017.00,,,,,,05,,,,,*7B
$GBGMP,093017.00,,,,,,06,,,,,*7B
$PSSN,SNC,[0,293435000,2347]*4E
$GPZDA,093022.00,01,01,2025,,*69
$GPDTM,W84,,00.0000000,N,00.0000000,E,00.0000000,W84*5F
$GPRMC,093022.00,A,4742.4464695,N,01617.9731022,E,0.0,,010125,5.1,E,D*17
$GPGLL,4742.4464695,N,01617.9731022,E,093022.00,A,D*66
$GPGGA,093022.00,4742.4464695,N,01617.9731022,E,2,22,0.7,625.3586,M,43.2111,M,2.8,0123*4B
$GNGNS,093022.00,4742.4464695,N,01617.9731022,E,DAAA,22,0.7,625.3586,43.2111,,*5D
$GPGNS,093022.00,,,,,,05,,,,2.8,123*78
$GLGNS,093022.00,,,,,,05,,,,,*70
$GAGNS,093022.00,,,,,,05,,,,,*7D
$GBGNS,093022.00,,,,,,07,,,,,*7C
$GPLLQ,093022.00,010125,,M,,M,1,22,2.153,,M*1E
$GPVTG,,T,,M,0.01,N,0.02,K,D*25
$GPHDT,,T*1B
$GPTHS,,V*0E
$GPROT,,V*08
$PSSN,HRP,093022.00,010125,,,,,,,00,0,,*6B
$PTNL,AVR,093022.00,,Yaw,,Tilt,,,,0,,00*3D
$GPGSA,A,3,13,14,15,17,23,,,,,,,,1.3,0.7,1.1*33
$GPGSA,A,3,65,66,67,75,76,,,,,,,,1.3,0.7,1.1*36
$GPGSA,A,3,02,03,07,08,25,,,,,,,,1.3,0.7,1.1*3E
$GPGSA,A,3,10,14,21,26,33,40,45,,,,,,1.3,0.7,1.1*31
$GPGST,093022.00,3.451,1.315,0.563,20.892,1.245,0.705,1.608*66
$GPGBS,093022.00,7.906,4.606,9.181,13,0.0001,1.257,0.665*5F
$GPGRS,093022.00,1,1.3,-0.8,-0.4,-0.2,-0.4,,,,,,,*62
$GPGRS,093022.00,1,-2.0,-3.1,8.2,-2.3,-0.3,,,,,,,*62
$GPGRS,093022.00,1,1.1,-0.1,6.7,1.0,0.1,,,,,,,*47
$GPGRS,093022.00,1,0.8,1.5,-3.3,0.8,-2.5,2.7,-3.7,,,,,*45
$GPGSV,4,1,14,13,75,148,45,05,17,212,33,30,24,085,30,19,16,143,*75
$GPGSV,4,2,14,24,28,279,39,23,22,312,42,17,29,113,36,14,53,063,45*7B
$GPGSV,4,3,14,15,63,280,47,22,71,093,,36,35,170,37,34,31,208,*71
$GPGSV,4,4,14,49,34,195,,61,03,257,*7F
$GLGSV,3,1,09,66,66,299,37,84,13,039,33,67,16,329,36,77,19,240,30*6A
$GLGSV,3,2,09,65,49,178,46,75,47,041,50,76,65,258,49,83,02,342,*62
$GLGSV,3,3,09,85,04,088,*55
$GAGSV,3,1,11,08,64,298,43,24,11,045,25,07,13,309,37,16,35,052,*69
$GAGSV,3,2,11,02,58,195,48,03,58,144,48,25,59,066,41,05,08,134,*61
$GAGSV,3,3,11,26,01,313,29,30,08,216,,33,03,358,*54
$GBGSV,5,1,19,26,64,254,52,33,15,322,38,40,28,048,36,05,20,130,31*69
$GBGSV,5,2,19,24,14,247,25,29,12,093,,21,43,190,42,14,37,306,46*6F
$GBGSV,5,3,19,56,31,082,,10,36,072,39,50,56,223,,45,54,061,44*67
$GBGSV,5,4,19,42,55,275,34,09,03,088,,36,06,065,,22,01,162,*6D
$GBGSV,5,5,19,30,10,041,,02,04,109,,60,07,112,*59
$GPGGA,093022.00,,,,,0,00,,,M,,M,,*42
$PTNL,GGK,093022.00,010125,4742.4464695,N,01617.9731022,E,1,22,1.3,EHT668.5697,M*47
$GPGGQ,093022.00,010125,4742.4464695,N,01617.9731022,E,1,22,2.153,625.3586,M*32
$GPGFA,093022.00,12.507,13.188,1.315,0.563,20.892,1.608,,VVV*33
$GPLLK,093022.00,010125,,M,,M,1,22,1.6,,M*06
$GNGMP,093022.00,,,,,DAAA,22,0.7,,,,*5B
$GPGMP,093022.00,,,,,,05,,,,2.8,123*78
$GLGMP,093022.00,,,,,,05,,,,,*70
$GAGMP,093022.00,,,,,,05,,,,,*7D
$GBGMP,093022.00,,,,,,07,,,,,*7C
$PSSN,SNC,[0,293440000,2347]*4C
$GPZDA,093027.00,01,01,2025,,*6C
$GPDTM,W84,,00.0000000,N,00.0000000,E,00.0000000,W84*5F
$GPRMC,093027.00,A,4742.4464763,N,01617.9731182,E,0.0,,010125,5.1,E,D*11
$GPGLL,4742.4464763,N,01617.9731182,E,093027.00,A,D*60
$GPGGA,093027.00,4742.4464763,N,01617.9731182,E,2,22,0.7,625.3601,M,43.2111,M,2.3,0123*4A
$GNGNS,093027.00,4742.4464763,N,01617.9731182,E,DAAA,22,0.7,625.3601,43.2111,,*57
$GPGNS,093027.00,,,,,,06,,,,2.3,123*75
$GLGNS,093027.00,,,,,,05,,,,,*75
$GAGNS,093027.00,,,,,,05,,,,,*78
$GBGNS,093027.00,,,,,,06,,,,,*78
$GPLLQ,093027.00,010125,,M,,M,1,22,3.484,,M*15
$GPVTG,,T,,M,0.00,N,0.00,K,D*26
$GPHDT,,T*1B
$GPTHS,,V*0E
$GPROT,,V*08
$PSSN,HRP,093027.00,010125,,,,,,,00,0,,*6E
$PTNL,AVR,093027.00,,Yaw,,Tilt,,,,0,,00*38
$GPGSA,A,3,13,14,15,17,23,24,,,,,,,1.3,0.7,1.1*35
$GPGSA,A,3,65,66,67,75,76,,,,,,,,1.3,0.7,1.1*36
$GPGSA,A,3,02,03,07,08,25,,,,,,,,1.3,0.7,1.1*3E
$GPGSA,A,3,10,14,21,26,33,45,,,,,,,1.3,0.7,1.1*35
$GPGST,093027.00,2.805,1.877,0.804,358.816,1.877,0.805,2.822*5D
$GPGBS,093027.00,6.094,3.060,7.682,14,0.0001,-1.494,0.670*75
$GPGRS,093027.00,1,1.1,-1.5,-0.2,-0.6,-0.2,1.2,,,,,,*40
$GPGRS,093027.00,1,-2.2,-2.2,2.9,-3.9,0.4,,,,,,,*47
$GPGRS,093027.00,1,0.7,-0.9,6.5,0.8,0.2,,,,,,,*45
$GPGRS,093027.00,1,0.3,1.3,-3.0,0.4,-1.7,-4.7,,,,,,*6F
$GPGSV,4,1,14,13,75,148,47,05,17,212,29,30,24,085,31,19,16,143,*7D
$GPGSV,4,2,14,24,28,279,40,23,22,312,42,17,29,113,35,14,53,063,46*75
$GPGSV,4,3,14,15,63,280,47,22,71,093,,36,35,170,37,34,31,208,*71
$GPGSV,4,4,14,49,34,195,,61,03,257,*7F
$GLGSV,3,1,09,66,66,299,41,84,13,039,31,67,16,329,36,77,19,240,30*69
$GLGSV,3,2,09,65,49,178,45,75,47,041,49,76,65,258,49,83,02,342,*69
$GLGSV,3,3,09,85,04,088,*55
$GAGSV,3,1,11,08,64,298,44,24,11,045,24,07,13,309,38,16,35,052,*60
$GAGSV,3,2,11,02,58,195,49,03,58,144,47,25,59,066,41,05,08,134,*6F
$GAGSV,3,3,11,26,01,313,30,30,08,216,,33,03,358,*5C
$GBGSV,5,1,19,26,64,254,52,33,15,322,40,40,28,048,33,05,20,130,31*63
$GBGSV,5,2,19,24,14,247,21,29,12,093,,21,42,190,41,14,37,306,46*69
$GBGSV,5,3,19,56,31,082,,10,36,072,39,50,56,223,,45,54,061,43*60
$GBGSV,5,4,19,42,55,275,32,09,03,088,,36,06,065,,22,01,162,*6B
$GBGSV,5,5,19,30,10,041,,02,04,109,,60,07,112,*59
$GPGGA,093027.00,,,,,0,00,,,M,,M,,*47
$PTNL,GGK,093027.00,010125,4742.4464763,N,01617.9731182,E,1,22,1.3,EHT668.5711,M*4E
$GPGGQ,093027.00,010125,4742.4464763,N,01617.9731182,E,1,22,3.484,625.3601,M*36
$GPGFA,093027.00,17.848,23.142,1.877,0.804,358.816,2.822,,VVV*06
$GPLLK,093027.00,010125,,M,,M,1,22,1.6,,M*03
$GNGMP,093027.00,,,,,DAAA,22,0.7,,,,*5E
$GPGMP,093027.00,,,,,,06,,,,2.3,123*75
$GLGMP,093027.00,,,,,,05,,,,,*75
$GAGMP,093027.00,,,,,,05,,,,,*78
$GBGMP,093027.00,,,,,,06,,,,,*78
$PSSN,SNC,[0,293445000,2347]*49
$GPZDA,093032.00,01,01,2025,,*68
$GPDTM,W84,,00.0000000,N,00.0000000,E,00.0000000,W84*5F
$GPRMC,093032.00,A,4742.4464805,N,01617.9731290,E,0.0,,010125,5.1,E,D*1A
$GPGLL,4742.4464805,N,01617.9731290,E,093032.00,A,D*6B
$GPGGA,093032.00,4742.4464805,N,01617.9731290,E,2,21,0.7,625.3571,M,43.2111,M,3.3,0123*47
$GNGNS,093032.00,4742.4464805,N,01617.9731290,E,DAAA,21,0.7,625.3571,43.2111,,*5B
$GPGNS,093032.00,,,,,,06,,,,3.3,123*70
$GLGNS,093032.00,,,,,,04,,,,,*70
$GAGNS,093032.00,,,,,,05,,,,,*7C
$GBGNS,093032.00,,,,,,06,,,,,*7C
$GPLLQ,093032.00,010125,,M,,M,1,21,1.651,,M*1A
$GPVTG,,T,,M,0.00,N,0.01,K,D*27
$GPHDT,,T*1B
$GPTHS,,V*0E
$GPROT,,V*08
$PSSN,HRP,093032.00,010125,,,,,,,00,0,,*6A
$PTNL,AVR,093032.00,,Yaw,,Tilt,,,,0,,00*3C
$GPGSA,A,3,13,14,15,17,23,24,,,,,,,1.4,0.7,1.2*31
$GPGSA,A,3,65,66,75,76,,,,,,,,,1.4,0.7,1.2*33
$GPGSA,A,3,02,03,07,08,25,,,,,,,,1.4,0.7,1.2*3A
$GPGSA,A,3,10,14,21,26,33,45,,,,,,,1.4,0.7,1.2*31
$GPGST,093032.00,2.544,1.014,0.440,12.711,0.994,0.484,1.226*60
$GPGBS,093032.00,6.299,3.113,7.933,13,0.0001,0.957,0.630*53
$GPGRS,093032.00,1,1.0,-0.8,0.1,-0.1,0.5,-0.8,,,,,,*6C
$GPGRS,093032.00,1,-2.7,-1.5,-4.4,1.2,,,,,,,,*6A
$GPGRS,093032.00,1,0.8,-0.8,5.0,0.5,0.0,,,,,,,*46
$GPGRS,093032.00,1,0.5,1.2,-2.0,0.2,1.5,-4.8,,,,,,*4B
$GPGSV,4,1,14,13,75,148,48,05,17,212,34,30,24,085,32,19,16,143,*7D
$GPGSV,4,2,14,24,28,279,41,23,22,312,43,17,29,113,36,14,53,063,46*76
$GPGSV,4,3,14,15,64,279,46,22,71,093,,36,35,170,37,34,31,208,*71
$GPGSV,4,4,14,49,34,195,,61,03,257,*7F
$GLGSV,3,1,09,66,66,299,45,84,13,039,27,67,16,329,34,77,19,240,29*60
$GLGSV,3,2,09,65,49,178,45,75,47,041,48,76,65,258,48,83,02,342,*69
$GLGSV,3,3,09,85,04,088,*55
$GAGSV,3,1,11,08,64,297,44,24,11,045,24,07,13,309,39,16,35,052,*6E
$GAGSV,3,2,11,02,58,195,49,03,58,144,47,25,59,066,40,05,08,134,*6E
$GAGSV,3,3,11,26,01,313,29,30,08,216,,33,03,358,*54
$GBGSV,5,1,19,26,64,254,51,33,15,322,41,40,28,048,33,05,20,130,32*62
$GBGSV,5,2,19,24,14,247,22,29,12,093,,21,42,190,41,14,37,306,46*6A
$GBGSV,5,3,19,56,31,082,,10,36,072,39,50,56,223,,45,54,061,43*60
$GBGSV,5,4,19,42,55,275,32,09,03,088,,36,06,065,,22,00,162,*6A
$GBGSV,5,5,19,30,10,041,,02,04,109,,60,07,112,*59
$GPGGA,093032.00,,,,,0,00,,,M,,M,,*43
$PTNL,GGK,093032.00,010125,4742.4464805,N,01617.9731290,E,1,21,1.4,EHT668.5681,M*49
$GPGGQ,093032.00,010125,4742.4464805,N,01617.9731290,E,1,21,1.651,625.3571,M*32
$GPGFA,093032.00,9.640,10.055,1.014,0.440,12.711,1.226,,VVV*05
$GPLLK,093032.00,010125,,M,,M,1,21,1.6,,M*04
$GNGMP,093032.00,,,,,DAAA,21,0.7,,,,*59
$GPGMP,093032.00,,,,,,06,,,,3.3,123*70
$GLGMP,093032.00,,,,,,04,,,,,*70
$GAGMP,093032.00,,,,,,05,,,,,*7C
$GBGMP,093032.00,,,,,,06,,,,,*7C
$PSSN,SNC,[0,293450000,2347]*4D
$GPZDA,093037.00,01,01,2025,,*6D
$GPDTM,W84,,00.0000000,N,00.0000000,E,00.0000000,W84*5F
$GPRMC,093037.00,A,4742.4464851,N,01617.9731292,E,0.0,,010125,5.1,E,D*1C
$GPGLL,4742.4464851,N,01617.9731292,E,093037.00,A,D*6D
$GPGGA,093037.00,4742.4464851,N,01617.9731292,E,2,21,0.7,625.3580,M,43.2111,M,1.7,0123*49
$GNGNS,093037.00,4742.4464851,N,01617.9731292,E,DAAA,21,0.7,625.3580,43.2111,,*53
$GPGNS,093037.00,,,,,,06,,,,1.7,123*73
$GLGNS,093037.00,,,,,,04,,,,,*75
$GAGNS,093037.00,,,,,,05,,,,,*79
$GBGNS,093037.00,,,,,,06,,,,,*79
$GPLLQ,093037.00,010125,,M,,M,1,21,1.883,,M*1E
$GPVTG,,T,,M,0.00,N,0.01,K,D*27
$GPHDT,,T*1B
$GPTHS,,V*0E
$GPROT,,V*08
$PSSN,HRP,093037.00,010125,,,,,,,00,0,,*6F
$PTNL,AVR,093037.00,,Yaw,,Tilt,,,,0,,00*39
$GPGSA,A,3,13,14,15,17,23,24,,,,,,,1.4,0.7,1.2*31
$GPGSA,A,3,65,66,75,76,,,,,,,,,1.4,0.7,1.2*33
$GPGSA,A,3,02,03,07,08,25,,,,,,,,1.4,0.7,1.2*3A
$GPGSA,A,3,10,14,21,26,33,45,,,,,,,1.4,0.7,1.2*31
$GPGST,093037.00,3.460,1.166,0.499,13.146,1.141,0.553,1.392*62
$GPGBS,093037.00,6.259,3.097,7.470,17,0.0001,1.623,0.875*5B
$GPGRS,093037.00,1,0.4,-1.0,-0.7,1.6,0.3,0.5,,,,,,*43
$GPGRS,093037.00,1,-3.0,-0.7,-3.8,0.3,,,,,,,,*61
$GPGRS,093037.00,1,0.6,-0.9,4.1,-0.1,-0.9,,,,,,,*41
$GPGRS,093037.00,1,0.8,1.5,-1.8,0.3,9.4,-5.0,,,,,,*4E
$GPGSV,4,1,14,13,75,148,48,05,17,212,34,30,24,085,31,19,16,143,*7E
$GPGSV,4,2,14,24,28,279,41,23,22,312,43,17,29,113,38,14,53,063,45*7B
$GPGSV,4,3,14,15,64,279,44,22,71,093,,36,35,170,37,34,31,208,*73
$GPGSV,4,4,14,49,34,195,,61,03,257,*7F
$GLGSV,3,1,09,66,66,298,46,84,13,039,,67,16,329,32,77,19,240,29*61
$GLGSV,3,2,09,65,49,178,45,75,46,041,48,76,65,258,47,83,02,342,*67
$GLGSV,3,3,09,85,04,088,*55
$GAGSV,3,1,11,08,64,297,44,24,11,045,24,07,13,310,39,16,35,052,*66
$GAGSV,3,2,11,02,58,195,49,03,58,144,46,25,59,066,40,05,08,134,*6F
$GAGSV,3,3,11,26,01,313,27,30,08,216,,33,03,358,*5A
$GBGSV,5,1,19,26,64,254,51,33,15,322,42,40,28,048,32,05,20,130,31*63
$GBGSV,5,2,19,24,14,247,24,29,12,093,,21,42,190,41,14,37,306,46*6C
$GBGSV,5,3,19,56,31,082,,10,36,072,39,50,56,223,,45,54,061,43*60
$GBGSV,5,4,19,42,55,275,33,09,03,088,,36,06,065,,22,00,162,*6B
$GBGSV,5,5,19,30,10,040,,02,04,109,,60,07,112,*58
$GPGGA,093037.00,,,,,0,00,,,M,,M,,*46
$PTNL,GGK,093037.00,010125,4742.4464851,N,01617.9731292,E,1,21,1.4,EHT668.5691,M*4E
$GPGGQ,093037.00,010125,4742.4464851,N,01617.9731292,E,1,21,1.883,625.3580,M*3B
$GPGFA,093037.00,11.085,11.410,1.166,0.499,13.146,1.392,,VVV*39
$GPLLK,093037.00,010125,,M,,M,1,21,1.6,,M*01
$GNGMP,093037.00,,,,,DAAA,21,0.7,,,,*5C
$GPGMP,093037.00,,,,,,06,,,,1.7,123*73
$GLGMP,093037.00,,,,,,04,,,,,*75
$GAGMP,093037.00,,,,,,05,,,,,*79
$GBGMP,093037.00,,,,,,06,,,,,*79
$PSSN,SNC,[0,293455000,2347]*48
$GPZDA,093042.00,01,01,2025,,*6F
$GPDTM,W84,,00.0000000,N,00.0000000,E,00.0000000,W84*5F
$GPRMC,093042.00,A,4742.4464913,N,01617.9731275,E,0.0,,010125,5.1,E,D*10
$GPGLL,4742.4464913,N,01617.9731275,E,093042.00,A,D*61
$GPGGA,093042.00,4742.4464913,N,01617.9731275,E,2,21,0.7,625.3771,M,43.2111,M,2.7,0123*4A
$GNGNS,093042.00,4742.4464913,N,01617.9731275,E,DAAA,21,0.7,625.3771,43.2111,,*53
$GPGNS,093042.00,,,,,,06,,,,2.7,123*72
$GLGNS,093042.00,,,,,,04,,,,,*77
$GAGNS,093042.00,,,,,,05,,,,,*7B
$GBGNS,093042.00,,,,,,06,,,,,*7B
$GPLLQ,093042.00,010125,,M,,M,1,21,1.999,,M*16
$GPVTG,,T,,M,0.01,N,0.01,K,D*26
$GPHDT,,T*1B
$GPTHS,,V*0E
$GPROT,,V*08
$PSSN,HRP,093042.00,010125,,,,,,,00,0,,*6D
$PTNL,AVR,093042.00,,Yaw,,Tilt,,,,0,,00*3B
$GPGSA,A,3,13,14,15,17,23,24,,,,,,,1.4,0.7,1.2*31
$GPGSA,A,3,65,66,75,76,,,,,,,,,1.4,0.7,1.2*33
$GPGSA,A,3,02,03,07,08,25,,,,,,,,1.4,0.7,1.2*3A
$GPGSA,A,3,10,14,21,26,33,45,,,,,,,1.4,0.7,1.2*31
$GPGST,093042.00,4.901,1.251,0.524,13.641,1.222,0.589,1.469*6F
$GPGBS,093042.00,6.350,3.141,7.563,33,0.0001,16.284,8.685*68
$GPGRS,093042.00,1,0.3,-0.6,-0.9,0.9,-0.3,0.9,,,,,,*60
$GPGRS,093042.00,1,-2.5,-1.7,-2.8,-0.4,,,,,,,,*4D
$GPGRS,093042.00,1,0.2,-1.1,3.4,0.2,-1.7,,,,,,,*6D
$GPGRS,093042.00,1,0.8,2.2,-2.3,0.2,16.3,-5.0,,,,,,*78
$GPGSV,4,1,14,13,75,148,48,05,17,212,28,30,24,085,31,19,16,143,*73
$GPGSV,4,2,14,24,28,279,41,23,22,312,43,17,29,113,38,14,53,063,45*7B
$GPGSV,4,3,14,15,64,279,43,22,71,093,,36,35,170,37,34,31,208,*74
$GPGSV,4,4,14,49,34,195,,61,03,257,*7F
$GLGSV,3,1,09,66,66,298,46,84,13,039,20,67,16,329,33,77,19,240,29*62
$GLGSV,3,2,09,65,49,178,44,75,46,041,49,76,65,258,46,83,02,342,*66
$GLGSV,3,3,09,85,05,088,*54
$GAGSV,3,1,11,08,64,297,44,24,11,045,24,07,13,310,39,16,35,052,*66
$GAGSV,3,2,11,02,58,195,48,03,58,144,46,25,59,066,39,05,08,134,*60
$GAGSV,3,3,11,26,01,313,26,30,08,216,,33,03,358,*5B
$GBGSV,5,1,19,26,64,254,51,33,15,322,42,40,28,048,31,05,20,130,32*63
$GBGSV,5,2,19,24,14,247,23,29,12,093,,21,42,190,41,14,37,306,47*6A
$GBGSV,5,3,19,56,31,082,,10,36,072,39,50,56,223,,45,54,061,42*61
$GBGSV,5,4,19,42,55,275,35,09,03,088,,36,06,065,,22,00,162,*6D
$GBGSV,5,5,19,30,10,040,,02,04,109,,60,07,112,*58
$GPGGA,093042.00,,,,,0,00,,,M,,M,,*44
$PTNL,GGK,093042.00,010125,4742.4464913,N,01617.9731275,E,1,21,1.4,EHT668.5882,M*4E
$GPGGQ,093042.00,010125,4742.4464913,N,01617.9731275,E,1,21,1.999,625.3771,M*31
$GPGFA,093042.00,11.897,12.044,1.251,0.524,13.641,1.469,,VVV*35
$GPLLK,093042.00,010125,,M,,M,1,21,1.6,,M*03
$GNGMP,093042.00,,,,,DAAA,21,0.7,,,,*5E
$GPGMP,093042.00,,,,,,06,,,,2.7,123*72
$GLGMP,093042.00,,,,,,04,,,,,*77
$GAGMP,093042.00,,,,,,05,,,,,*7B
$GBGMP,093042.00,,,,,,06,,,,,*7B
$PSSN,SNC,[0,293460000,2347]*4E
$GPZDA,093047.00,01,01,2025,,*6A
$GPDTM,W84,,00.0000000,N,00.0000000,E,00.0000000,W84*5F
$GPRMC,093047.00,A,4742.4464952,N,01617.9731284,E,0.0,,010125,5.1,E,D*1E
$GPGLL,4742.4464952,N,01617.9731284,E,093047.00,A,D*6F
$GPGGA,093047.00,4742.4464952,N,01617.9731284,E,2,22,0.7,625.3833,M,43.2111,M,2.3,0123*4A
$GNGNS,093047.00,4742.4464952,N,01617.9731284,E,DAAA,22,0.7,625.3833,43.2111,,*57
$GPGNS,093047.00,,,,,,06,,,,2.3,123*73
$GLGNS,093047.00,,,,,,04,,,,,*72
$GAGNS,093047.00,,,,,,05,,,,,*7E
$GBGNS,093047.00,,,,,,07,,,,,*7F
$GPLLQ,093047.00,010125,,M,,M,1,22,2.006,,M*1C
$GPVTG,,T,,M,0.01,N,0.01,K,D*26
$GPHDT,,T*1B
$GPTHS,,V*0E
$GPROT,,V*08
$PSSN,HRP,093047.00,010125,,,,,,,00,0,,*68
$PTNL,AVR,093047.00,,Yaw,,Tilt,,,,0,,00*3E
$GPGSA,A,3,13,14,15,17,23,24,,,,,,,1.4,0.7,1.1*32
$GPGSA,A,3,65,66,75,76,,,,,,,,,1.4,0.7,1.1*30
$GPGSA,A,3,02,03,07,08,25,,,,,,,,1.4,0.7,1.1*39
$GPGSA,A,3,10,14,21,26,33,42,45,,,,,,1.4,0.7,1.1*34
$GPGST,093047.00,5.866,1.245,0.528,13.203,1.218,0.588,1.481*6E
$GPGBS,093047.00,6.234,3.059,7.827,33,0.0001,20.154,8.685*60
$GPGRS,093047.00,1,0.1,-0.0,-0.3,0.5,-1.0,1.3,,,,,,*6E
$GPGRS,093047.00,1,-2.4,-3.1,-2.1,-0.4,,,,,,,,*44
$GPGRS,093047.00,1,-0.1,-1.0,2.0,0.4,-1.6,,,,,,,*45
$GPGRS,093047.00,1,1.1,2.9,-3.0,0.6,20.2,5.6,-5.3,,,,,*52
$GPGSV,4,1,14,13,75,148,48,05,17,212,32,30,24,085,30,19,16,143,*79
$GPGSV,4,2,14,24,28,279,41,23,22,312,42,17,29,113,38,14,53,063,45*7A
$GPGSV,4,3,14,15,64,279,43,22,71,092,,36,35,170,36,34,31,208,*74
$GPGSV,4,4,14,49,34,195,,61,03,257,*7F
$GLGSV,3,1,09,66,66,298,45,84,13,039,,67,16,329,33,77,19,240,*68
$GLGSV,3,2,09,65,49,178,44,75,46,041,49,76,65,259,45,83,02,341,*67
$GLGSV,3,3,09,85,05,088,*54
$GAGSV,3,1,11,08,64,297,44,24,11,045,21,07,13,310,40,16,35,052,*6D
$GAGSV,3,2,11,02,58,195,47,03,58,144,46,25,59,066,38,05,08,134,*6E
$GAGSV,3,3,11,26,01,313,24,30,08,216,,33,03,358,*59
$GBGSV,5,1,19,26,65,254,51,33,15,322,42,40,28,048,30,05,20,130,31*60
$GBGSV,5,2,19,24,14,247,23,29,13,093,,21,42,190,42,14,37,306,47*68
$GBGSV,5,3,19,56,31,082,,10,36,072,39,50,56,223,,45,54,061,42*61
$GBGSV,5,4,19,42,55,275,37,09,03,088,,36,06,065,,22,00,162,*6F
$GBGSV,5,5,19,30,10,040,,02,04,109,,60,07,112,*58
$GPGGA,093047.00,,,,,0,00,,,M,,M,,*41
$PTNL,GGK,093047.00,010125,4742.4464952,N,01617.9731284,E,1,22,1.4,EHT668.5943,M*4F
$GPGGQ,093047.00,010125,4742.4464952,N,01617.9731284,E,1,22,2.006,625.3833,M*39
$GPGFA,093047.00,11.837,12.144,1.245,0.528,13.203,1.481,,VVV*36
$GPLLK,093047.00,010125,,M,,M,1,22,1.6,,M*05
$GNGMP,093047.00,,,,,DAAA,22,0.7,,,,*58
$GPGMP,093047.00,,,,,,06,,,,2.3,123*73
$GLGMP,093047.00,,,,,,04,,,,,*72
$GAGMP,093047.00,,,,,,05,,,,,*7E
$GBGMP,093047.00,,,,,,07,,,,,*7F
$PSSN,SNC,[0,293465000,2347]*4B
$GPZDA,093052.00,01,01,2025,,*6E
$GPDTM,W84,,00.0000000,N,00.0000000,E,00.0000000,W84*5F
$GPRMC,093052.00,A,4742.4464978,N,01617.9731343,E,0.0,,010125,5.1,E,D*18
$GPGLL,4742.4464978,N,01617.9731343,E,093052.00,A,D*69
$GPGGA,093052.00,4742.4464978,N,01617.9731343,E,2,22,0.7,625.3945,M,43.2111,M,3.3,0123*4D
$GNGNS,093052.00,4742.4464978,N,01617.9731343,E,DAAA,22,0.7,625.3945,43.2111,,*51
$GPGNS,093052.00,,,,,,06,,,,3.3,123*76
$GLGNS,093052.00,,,,,,04,,,,,*76
$GAGNS,093052.00,,,,,,05,,,,,*7A
$GBGNS,093052.00,,,,,,07,,,,,*7B
$GPLLQ,093052.00,010125,,M,,M,1,22,2.456,,M*19
$GPVTG,,T,,M,0.00,N,0.00,K,D*26
$GPHDT,,T*1B
$GPTHS,,V*0E
$GPROT,,V*08
$PSSN,HRP,093052.00,010125,,,,,,,00,0,,*6C
$PTNL,AVR,093052.00,,Yaw,,Tilt,,,,0,,00*3A
$GPGSA,A,3,13,14,15,17,23,24,,,,,,,1.4,0.7,1.1*32
$GPGSA,A,3,65,66,75,76,,,,,,,,,1.4,0.7,1.1*30
$GPGSA,A,3,02,03,07,08,25,,,,,,,,1.4,0.7,1.1*39
$GPGSA,A,3,10,14,21,26,33,42,45,,,,,,1.4,0.7,1.1*34
$GPGST,093052.00,5.173,1.506,0.652,12.673,1.476,0.717,1.828*6E
$GPGBS,093052.00,6.324,3.099,7.946,24,0.0001,2.309,0.855*59
$GPGRS,093052.00,1,-0.1,0.2,-0.2,-0.8,-1.7,2.3,,,,,,*4D
$GPGRS,093052.00,1,-3.6,-3.2,-1.9,-0.7,,,,,,,,*48
$GPGRS,093052.00,1,-0.5,-1.7,1.4,-0.0,-1.8,,,,,,,*62
$GPGRS,093052.00,1,0.5,2.2,-3.5,0.4,17.0,4.1,-5.6,,,,,*5A
$GPGSV,4,1,14,13,75,148,49,05,17,212,34,30,24,085,30,19,16,142,*7F
$GPGSV,4,2,14,24,28,279,41,23,22,312,42,17,29,113,39,14,53,063,45*7B
$GPGSV,4,3,14,15,64,279,43,22,71,092,,36,35,170,37,34,31,208,*75
$GPGSV,4,4,14,49,34,195,,61,03,257,*7F
$GLGSV,3,1,09,66,66,298,46,84,13,039,,67,16,329,34,77,19,240,*6C
$GLGSV,3,2,09,65,49,178,43,75,46,041,49,76,65,259,44,83,02,341,*61
$GLGSV,3,3,09,85,05,088,*54
$GAGSV,3,1,11,08,64,297,44,24,11,045,25,07,13,310,41,16,35,052,*68
$GAGSV,3,2,11,02,58,195,46,03,58,144,47,25,59,066,36,05,08,134,*60
$GAGSV,3,3,11,26,01,313,,30,09,216,,33,03,358,*5E
$GBGSV,5,1,19,26,65,254,51,33,15,322,41,40,28,048,28,05,20,130,32*69
$GBGSV,5,2,19,24,14,247,27,29,13,092,,21,42,190,44,14,37,306,47*6B
$GBGSV,5,3,19,56,31,082,,10,36,072,39,50,56,223,,45,54,061,40*63
$GBGSV,5,4,19,42,55,275,38,09,03,088,,36,06,065,,22,00,162,*60
$GBGSV,5,5,19,30,10,040,,02,04,109,,60,07,112,*58
$GPGGA,093052.00,,,,,0,00,,,M,,M,,*45
$PTNL,GGK,093052.00,010125,4742.4464978,N,01617.9731343,E,1,22,1.4,EHT668.6055,M*44
$GPGGQ,093052.00,010125,4742.4464978,N,01617.9731343,E,1,22,2.456,625.3945,M*3E
$GPGFA,093052.00,14.314,14.989,1.506,0.652,12.673,1.828,,VVV*31
$GPLLK,093052.00,010125,,M,,M,1,22,1.6,,M*01
$GNGMP,093052.00,,,,,DAAA,22,0.7,,,,*5C
$GPGMP,093052.00,,,,,,06,,,,3.3,123*76
$GLGMP,093052.00,,,,,,04,,,,,*76
$GAGMP,093052.00,,,,,,05,,,,,*7A
$GBGMP,093052.00,,,,,,07,,,,,*7B
$PSSN,SNC,[0,293470000,2347]*4F
$GPZDA,093057.00,01,01,2025,,*6B
$GPDTM,W84,,00.0000000,N,00.0000000,E,00.0000000,W84*5F
$GPRMC,093057.00,A,4742.4464933,N,01617.9731405,E,0.0,,010125,5.1,E,D*17
$GPGLL,4742.4464933,N,01617.9731405,E,093057.00,A,D*66
$GPGGA,093057.00,4742.4464933,N,01617.9731405,E,2,23,0.7,625.3851,M,43.2111,M,2.4,0123*41
$GNGNS,093057.00,4742.4464933,N,01617.9731405,E,DAAA,23,0.7,625.3851,43.2111,,*5B
$GPGNS,093057.00,,,,,,07,,,,2.4,123*74
$GLGNS,093057.00,,,,,,05,,,,,*72
$GAGNS,093057.00,,,,,,04,,,,,*7E
$GBGNS,093057.00,,,,,,07,,,,,*7E
$GPLLQ,093057.00,010125,,M,,M,1,23,1.929,,M*1B
$GPVTG,,T,,M,0.00,N,0.00,K,D*26
$GPHDT,,T*1B
$GPTHS,,V*0E
$GPROT,,V*08
$PSSN,HRP,093057.00,010125,,,,,,,00,0,,*69
$PTNL,AVR,093057.00,,Yaw,,Tilt,,,,0,,00*3F
$GPGSA,A,3,05,13,14,15,17,23,24,,,,,,1.2,0.7,1.0*30
$GPGSA,A,3,65,66,67,75,76,,,,,,,,1.2,0.7,1.0*36
$GPGSA,A,3,02,03,07,08,,,,,,,,,1.2,0.7,1.0*39
$GPGSA,A,3,10,14,21,26,33,42,45,,,,,,1.2,0.7,1.0*33
$GPGST,093057.00,3.182,0.996,0.636,15.122,0.975,0.666,1.525*69
$GPGBS,093057.00,4.066,2.716,5.201,24,0.0001,1.821,0.827*57
$GPGRS,093057.00,1,-1.5,-0.4,0.9,-0.1,-0.1,-1.8,1.8,,,,,*4C
$GPGRS,093057.00,1,-4.2,-3.1,8.4,-2.7,-0.8,,,,,,,*6D
$GPGRS,093057.00,1,-0.3,-1.5,1.6,0.0,,,,,,,,*46
$GPGRS,093057.00,1,0.2,1.3,-2.1,0.5,-3.1,2.7,-4.3,,,,,*43
$GPGSV,4,1,14,13,74,148,49,05,17,212,36,30,24,085,30,19,16,142,*7C
$GPGSV,4,2,14,24,28,279,41,23,22,312,41,17,29,113,39,14,53,063,46*7B
$GPGSV,4,3,14,15,64,279,44,22,71,092,,36,35,170,36,34,31,208,*73
$GPGSV,4,4,14,49,34,195,,61,03,257,*7F
$GLGSV,3,1,09,66,66,298,47,84,13,039,,67,16,329,35,77,19,240,*6C
$GLGSV,3,2,09,65,49,178,43,75,46,041,48,76,65,259,43,83,02,341,*67
$GLGSV,3,3,09,85,05,088,*54
$GAGSV,3,1,11,08,64,297,44,24,10,045,25,07,13,310,41,16,35,052,*69
$GAGSV,3,2,11,02,58,195,46,03,58,144,47,25,59,066,35,05,08,134,*63
$GAGSV,3,3,11,26,01,313,20,30,09,216,,33,03,358,*5C
$GBGSV,5,1,19,26,65,254,51,33,15,322,41,40,28,048,32,05,20,130,32*62
$GBGSV,5,2,19,24,14,247,26,29,13,092,,21,42,190,44,14,37,306,46*6B
$GBGSV,5,3,19,56,31,082,,10,36,072,39,50,56,223,,45,54,061,39*6D
$GBGSV,5,4,19,42,55,275,39,09,03,088,,36,06,065,,22,00,162,*61
$GBGSV,5,5,19,30,10,040,,02,04,109,,60,07,112,*58
$GPGGA,093057.00,,,,,0,00,,,M,,M,,*40
$PTNL,GGK,093057.00,010125,4742.4464933,N,01617.9731405,E,1,23,1.2,EHT668.5961,M*41
$GPGGQ,093057.00,010125,4742.4464933,N,01617.9731405,E,1,23,1.929,625.3851,M*32
$GPGFA,093057.00,9.466,12.505,0.996,0.636,15.122,1.525,,VVV*06
$GPLLK,093057.00,010125,,M,,M,1,23,1.4,,M*07
$GNGMP,093057.00,,,,,DAAA,23,0.7,,,,*58
$GPGMP,093057.00,,,,,,07,,,,2.4,123*74
$GLGMP,093057.00,,,,,,05,,,,,*72
$GAGMP,093057.00,,,,,,04,,,,,*7E
$GBGMP,093057.00,,,,,,07,,,,,*7E
$PSSN,SNC,[0,293475000,2347]*4A
$GPZDA,093102.00,01,01,2025,,*6A
$GPDTM,W84,,00.0000000,N,00.0000000,E,00.0000000,W84*5F
$GPRMC,093102.00,A,4742.4464848,N,01617.9731345,E,0.0,,010125,5.1,E,D*18
$GPGLL,4742.4464848,N,01617.9731345,E,093102.00,A,D*69
$GPGGA,093102.00,4742.4464848,N,01617.9731345,E,2,22,0.7,625.3703,M,43.2111,M,3.4,0123*46
$GNGNS,093102.00,4742.4464848,N,01617.9731345,E,DAAA,22,0.7,625.3703,43.2111,,*5D
$GPGNS,093102.00,,,,,,07,,,,3.4,123*74
$GLGNS,093102.00,,,,,,04,,,,,*72
$GAGNS,093102.00,,,,,,04,,,,,*7F
$GBGNS,093102.00,,,,,,07,,,,,*7F
$GPLLQ,093102.00,010125,,M,,M,1,22,1.953,,M*16
$GPVTG,,T,,M,0.01,N,0.01,K,D*26
$GPHDT,,T*1B
$GPTHS,,V*0E
$GPROT,,V*08
$PSSN,HRP,093102.00,010125,,,,,,,00,0,,*68
$PTNL,AVR,093102.00,,Yaw,,Tilt,,,,0,,00*3E
$GPGSA,A,3,05,13,14,15,17,23,24,,,,,,1.2,0.7,1.0*30
$GPGSA,A,3,65,66,75,76,,,,,,,,,1.2,0.7,1.0*37
$GPGSA,A,3,02,03,07,08,,,,,,,,,1.2,0.7,1.0*39
$GPGSA,A,3,10,14,21,26,33,42,45,,,,,,1.2,0.7,1.0*33
$GPGST,093102.00,2.132,1.005,0.643,15.194,0.984,0.674,1.546*67
$GPGBS,093102.00,4.145,2.777,5.405,23,0.0001,-2.418,0.989*79
$GPGRS,093102.00,1,-1.8,0.1,1.1,-0.1,-0.2,-2.4,1.2,,,,,*67
$GPGRS,093102.00,1,-4.3,-1.9,-2.4,0.9,,,,,,,,*6A
$GPGRS,093102.00,1,0.1,-1.1,2.3,0.3,,,,,,,,*69
$GPGRS,093102.00,1,0.3,0.9,-1.5,0.6,-2.0,3.4,-1.4,,,,,*4C
$GPGSV,4,1,14,13,74,148,50,05,17,212,36,30,24,085,29,19,16,142,*7C
$GPGSV,4,2,14,24,28,279,42,23,22,312,40,17,29,113,39,14,53,062,46*78
$GPGSV,4,3,14,15,64,279,45,22,71,092,,36,35,170,36,34,31,208,*72
$GPGSV,4,4,14,49,34,195,,61,03,257,*7F
$GLGSV,3,1,09,66,66,298,48,84,13,039,,67,16,329,35,77,19,240,*63
$GLGSV,3,2,09,65,49,178,42,75,46,041,49,76,65,259,41,83,02,341,*65
$GLGSV,3,3,09,85,05,088,*54
$GAGSV,3,1,11,08,64,297,44,24,10,045,25,07,13,310,41,16,35,052,*69
$GAGSV,3,2,11,02,58,195,45,03,58,145,47,25,59,066,35,05,08,134,*61
$GAGSV,3,3,11,26,01,313,22,30,09,216,,33,03,358,*5E
$GBGSV,5,1,19,26,65,254,51,33,15,322,39,40,28,048,32,05,20,130,32*6D
$GBGSV,5,2,19,24,14,247,26,29,13,092,,21,42,190,44,14,37,306,46*6B
$GBGSV,5,3,19,56,31,082,,10,36,072,38,50,56,223,,45,54,061,40*62
$GBGSV,5,4,19,42,55,275,39,09,03,089,,36,06,065,,22,00,162,*60
$GBGSV,5,5,19,30,10,040,,02,04,109,,60,07,112,*58
$GPGGA,093102.00,,,,,0,00,,,M,,M,,*41
$PTNL,GGK,093102.00,010125,4742.4464848,N,01617.9731345,E,1,22,1.2,EHT668.5814,M*4C
$GPGGQ,093102.00,010125,4742.4464848,N,01617.9731345,E,1,22,1.953,625.3703,M*39
$GPGFA,093102.00,9.555,12.679,1.005,0.643,15.194,1.546,,VVV*06
$GPLLK,093102.00,010125,,M,,M,1,22,1.4,,M*07
$GNGMP,093102.00,,,,,DAAA,22,0.7,,,,*58
$GPGMP,093102.00,,,,,,07,,,,3.4,123*74
$GLGMP,093102.00,,,,,,04,,,,,*72
$GAGMP,093102.00,,,,,,04,,,,,*7F
$GBGMP,093102.00,,,,,,07,,,,,*7F
$PSSN,SNC,[0,293480000,2347]*40
$GPZDA,093107.00,01,01,2025,,*6F
$GPDTM,W84,,00.0000000,N,00.0000000,E,00.0000000,W84*5F
$GPRMC,093107.00,A,4742.4464732,N,01617.9731291,E,0.0,,010125,5.1,E,D*17
$GPGLL,4742.4464732,N,01617.9731291,E,093107.00,A,D*66
$GPGGA,093107.00,4742.4464732,N,01617.9731291,E,2,24,0.6,625.3502,M,43.2111,M,2.7,0123*4F
$GNGNS,093107.00,4742.4464732,N,01617.9731291,E,DAAA,24,0.6,625.3502,43.2111,,*56
$GPGNS,093107.00,,,,,,07,,,,2.7,123*73
$GLGNS,093107.00,,,,,,05,,,,,*76
$GAGNS,093107.00,,,,,,05,,,,,*7B
$GBGNS,093107.00,,,,,,07,,,,,*7A
$GPLLQ,093107.00,010125,,M,,M,1,24,1.818,,M*1B
$GPVTG,,T,,M,0.00,N,0.01,K,D*27
$GPHDT,,T*1B
$GPTHS,,V*0E
$GPROT,,V*08
$PSSN,HRP,093107.00,010125,,,,,,,00,0,,*6D
$PTNL,AVR,093107.00,,Yaw,,Tilt,,,,0,,00*3B
$GPGSA,A,3,05,13,14,15,17,23,24,,,,,,1.2,0.6,1.0*31
$GPGSA,A,3,65,66,67,75,76,,,,,,,,1.2,0.6,1.0*37
$GPGSA,A,3,02,03,07,08,25,,,,,,,,1.2,0.6,1.0*3F
$GPGSA,A,3,10,14,21,26,33,42,45,,,,,,1.2,0.6,1.0*32
$GPGST,093107.00,2.756,0.929,0.604,14.703,0.912,0.630,1.441*63
$GPGBS,093107.00,3.977,2.721,5.441,05,0.0001,-1.925,1.021*7F
$GPGRS,093107.00,1,-1.9,-0.2,0.9,0.6,-0.2,-1.5,1.4,,,,,*6A
$GPGRS,093107.00,1,-4.1,-2.1,8.7,-1.7,0.1,,,,,,,*4F
$GPGRS,093107.00,1,-0.0,-1.4,2.3,0.2,-0.1,,,,,,,*46
$GPGRS,093107.00,1,-0.5,1.2,-2.5,0.7,-0.5,1.9,0.7,,,,,*4D
$GPGSV,4,1,14,13,74,148,50,05,17,212,36,30,24,085,29,19,16,142,*7C
$GPGSV,4,2,14,24,28,279,42,23,22,312,40,17,29,112,41,14,53,062,48*78
$GPGSV,4,3,14,15,64,279,46,22,71,092,,36,35,170,36,34,31,208,*71
$GPGSV,4,4,14,49,34,195,,61,03,257,*7F
$GLGSV,3,1,09,66,66,298,48,84,13,039,,67,16,329,36,77,19,240,29*6B
$GLGSV,3,2,09,65,49,178,43,75,46,041,48,76,65,259,36,83,02,341,*65
$GLGSV,3,3,09,85,05,088,*54
$GAGSV,3,1,11,08,64,297,44,24,10,045,26,07,13,310,41,16,35,052,*6A
$GAGSV,3,2,11,03,58,145,47,02,58,195,45,25,59,066,36,05,08,134,*62
$GAGSV,3,3,11,26,01,313,23,30,09,216,,33,03,357,*50
$GBGSV,5,1,19,26,65,254,51,33,15,322,37,40,28,048,30,05,20,130,31*62
$GBGSV,5,2,19,24,14,247,30,29,13,092,,21,42,190,44,14,37,306,46*6C
$GBGSV,5,3,19,56,31,082,,10,36,072,38,50,56,223,,45,54,061,40*62
$GBGSV,5,4,19,42,55,274,38,09,03,089,,36,06,065,,22,00,162,*60
$GBGSV,5,5,19,30,10,040,,02,04,109,,60,07,112,*58
$GPGGA,093107.00,,,,,0,00,,,M,,M,,*44
$PTNL,GGK,093107.00,010125,4742.4464732,N,01617.9731291,E,1,24,1.2,EHT668.5612,M*4D
$GPGGQ,093107.00,010125,4742.4464732,N,01617.9731291,E,1,24,1.818,625.3502,M*3D
$GPGFA,093107.00,8.834,11.815,0.929,0.604,14.703,1.441,,VVV*05
$GPLLK,093107.00,010125,,M,,M,1,24,1.3,,M*03
$GNGMP,093107.00,,,,,DAAA,24,0.6,,,,*5A
$GPGMP,093107.00,,,,,,07,,,,2.7,123*73
$GLGMP,093107.00,,,,,,05,,,,,*76
$GAGMP,093107.00,,,,,,05,,,,,*7B
$GBGMP,093107.00,,,,,,07,,,,,*7A
$PSSN,SNC,[0,293485000,2347]*45
$GPZDA,093112.00,01,01,2025,,*6B
$GPDTM,W84,,00.0000000,N,00.0000000,E,00.0000000,W84*5F
$GPRMC,093112.00,A,4742.4464638,N,01617.9731289,E,0.0,,010125,5.1,E,D*11
$GPGLL,4742.4464638,N,01617.9731289,E,093112.00,A,D*60
$GPGGA,093112.00,4742.4464638,N,01617.9731289,E,2,22,0.7,625.3450,M,43.2111,M,1.4,0123*48
$GNGNS,093112.00,4742.4464638,N,01617.9731289,E,DAAA,22,0.7,625.3450,43.2111,,*51
$GPGNS,093112.00,,,,,,07,,,,1.4,123*77
$GLGNS,093112.00,,,,,,04,,,,,*73
$GAGNS,093112.00,,,,,,05,,,,,*7F
$GBGNS,093112.00,,,,,,06,,,,,*7F
$GPLLQ,093112.00,010125,,M,,M,1,22,1.616,,M*19
$GPVTG,,T,,M,0.01,N,0.01,K,D*26
$GPHDT,,T*1B
$GPTHS,,V*0E
$GPROT,,V*08
$PSSN,HRP,093112.00,010125,,,,,,,00,0,,*69
$PTNL,AVR,093112.00,,Yaw,,Tilt,,,,0,,00*3F
$GPGSA,A,3,05,13,14,15,17,23,24,,,,,,1.2,0.7,1.0*30
$GPGSA,A,3,65,66,67,75,,,,,,,,,1.2,0.7,1.0*37
$GPGSA,A,3,02,03,07,08,25,,,,,,,,1.2,0.7,1.0*3E
$GPGSA,A,3,10,14,21,26,42,45,,,,,,,1.2,0.7,1.0*33
$GPGST,093112.00,3.207,0.825,0.539,14.278,0.811,0.561,1.281*61
$GPGBS,093112.00,4.015,2.660,5.172,05,0.0001,-1.908,1.034*7B
$GPGRS,093112.00,1,-1.9,-0.5,0.2,0.1,0.4,-0.4,1.5,,,,,*4F
$GPGRS,093112.00,1,-3.4,-2.3,9.5,-2.5,,,,,,,,*66
$GPGRS,093112.00,1,-0.3,-1.7,2.1,0.4,-0.3,,,,,,,*44
$GPGRS,093112.00,1,-1.6,2.1,-3.9,0.5,-1.8,1.2,,,,,,*6A
$GPGSV,4,1,14,13,74,148,49,05,17,212,36,30,24,085,28,19,16,142,*75
$GPGSV,4,2,14,24,28,279,42,23,22,312,40,17,29,112,42,14,53,062,48*7B
$GPGSV,4,3,14,15,64,279,46,22,71,092,,36,35,170,37,34,31,208,*70
$GPGSV,4,4,14,49,34,195,,61,03,257,*7F
$GLGSV,3,1,09,66,66,298,48,84,13,039,,67,16,329,37,77,19,240,28*6B
$GLGSV,3,2,09,65,49,178,44,75,46,041,47,76,65,259,30,83,02,341,*6B
$GLGSV,3,3,09,85,05,088,*54
$GAGSV,3,1,11,08,64,297,43,24,10,045,26,07,13,310,41,16,35,052,*6D
$GAGSV,3,2,11,03,58,145,47,02,58,195,45,25,59,066,37,05,08,134,*63
$GAGSV,3,3,11,26,01,313,27,30,09,216,,33,03,357,*54
$GBGSV,5,1,19,26,65,254,51,33,15,322,35,40,28,048,30,05,20,130,31*60
$GBGSV,5,2,19,24,14,247,27,29,13,092,,21,42,190,43,14,37,306,47*6C
$GBGSV,5,3,19,56,31,082,,10,36,072,37,50,56,223,,45,54,061,41*6C
$GBGSV,5,4,19,42,55,274,38,09,03,089,,36,06,065,,22,00,162,*60
$GBGSV,5,5,19,30,10,040,,02,04,109,,60,07,112,*58
$GPGGA,093112.00,,,,,0,00,,,M,,M,,*40
$PTNL,GGK,093112.00,010125,4742.4464638,N,01617.9731289,E,1,22,1.2,EHT668.5560,M*4B
$GPGGQ,093112.00,010125,4742.4464638,N,01617.9731289,E,1,22,1.616,625.3450,M*3B
$GPGFA,093112.00,7.849,10.504,0.825,0.539,14.278,1.281,,VVV*0B
$GPLLK,093112.00,010125,,M,,M,1,22,1.4,,M*06
$GNGMP,093112.00,,,,,DAAA,22,0.7,,,,*59
$GPGMP,093112.00,,,,,,07,,,,1.4,123*77
$GLGMP,093112.00,,,,,,04,,,,,*73
$GAGMP,093112.00,,,,,,05,,,,,*7F
$GBGMP,093112.00,,,,,,06,,,,,*7F
$PSSN,SNC,[0,293490000,2347]*41
$GPZDA,093117.00,01,01,2025,,*6E
$GPDTM,W84,,00.0000000,N,00.0000000,E,00.0000000,W84*5F
$GPRMC,093117.00,A,4742.4464562,N,01617.9731330,E,0.0,,010125,5.1,E,D*1B
$GPGLL,4742.4464562,N,01617.9731330,E,093117.00,A,D*6A
$GPGGA,093117.00,4742.4464562,N,01617.9731330,E,2,23,0.7,625.3579,M,43.2111,M,2.3,0123*4D
$GNGNS,093117.00,4742.4464562,N,01617.9731330,E,DAAA,23,0.7,625.3579,43.2111,,*50
$GPGNS,093117.00,,,,,,06,,,,2.3,123*77
$GLGNS,093117.00,,,,,,05,,,,,*77
$GAGNS,093117.00,,,,,,05,,,,,*7A
$GBGNS,093117.00,,,,,,07,,,,,*7B
$GPLLQ,093117.00,010125,,M,,M,1,23,2.219,,M*15
$GPVTG,,T,,M,0.01,N,0.01,K,D*26
$GPHDT,,T*1B
$GPTHS,,V*0E
$GPROT,,V*08
$PSSN,HRP,093117.00,010125,,,,,,,00,0,,*6C
$PTNL,AVR,093117.00,,Yaw,,Tilt,,,,0,,00*3A
$GPGSA,A,3,13,14,15,17,23,24,,,,,,,1.3,0.7,1.1*35
$GPGSA,A,3,65,66,67,75,76,,,,,,,,1.3,0.7,1.1*36
$GPGSA,A,3,02,03,07,08,25,,,,,,,,1.3,0.7,1.1*3E
$GPGSA,A,3,07,10,14,21,26,42,45,,,,,,1.3,0.7,1.1*34
$GPGST,093117.00,4.367,1.372,0.583,13.197,1.342,0.648,1.644*61
$GPGBS,093117.00,6.289,3.081,7.670,24,0.0001,1.956,0.842*59
$GPGRS,093117.00,1,-0.8,-0.2,-0.2,0.2,-0.3,2.0,,,,,,*48
$GPGRS,093117.00,1,-3.0,-2.8,13.3,-3.9,-4.6,,,,,,,*5D
$GPGRS,093117.00,1,-0.8,-1.7,1.6,0.2,-0.5,,,,,,,*4E
$GPGRS,093117.00,1,-0.3,-1.4,3.3,-4.2,0.3,-5.6,1.1,,,,,*6D
$GPGSV,4,1,14,13,74,148,49,05,17,212,34,30,24,085,26,19,16,142,*79
$GPGSV,4,2,14,24,28,279,40,23,22,312,40,17,29,112,41,14,53,062,48*7A
$GPGSV,4,3,14,15,64,279,46,22,71,092,,36,35,170,36,34,31,208,*71
$GPGSV,4,4,14,49,34,195,,61,03,257,*7F
$GLGSV,3,1,09,66,66,298,47,84,13,039,,67,16,329,37,77,19,240,19*66
$GLGSV,3,2,09,65,49,178,44,75,46,041,46,76,65,259,48,83,02,341,*65
$GLGSV,3,3,09,85,05,088,*54
$GAGSV,3,1,11,08,65,297,43,24,10,045,26,07,13,310,40,16,35,052,*6D
$GAGSV,3,2,11,03,58,145,47,02,58,195,44,25,59,066,39,05,08,134,*6C
$GAGSV,3,3,11,26,01,313,25,30,09,216,,33,03,357,*56
$GBGSV,5,1,20,26,65,255,51,33,15,322,32,40,28,048,26,05,20,130,32*68
$GBGSV,5,2,20,24,14,247,27,29,13,092,,21,42,190,41,07,29,059,40*67
$GBGSV,5,3,20,14,37,306,47,56,31,082,,10,36,072,37,50,56,223,*63
$GBGSV,5,4,20,42,55,274,38,45,54,061,42,22,00,162,,09,03,089,*6B
$GBGSV,5,5,20,36,06,065,,30,10,040,,02,04,109,,60,07,112,*62
$GPGGA,093117.00,,,,,0,00,,,M,,M,,*45
$PTNL,GGK,093117.00,010125,4742.4464562,N,01617.9731330,E,1,23,1.3,EHT668.5690,M*4D
$GPGGQ,093117.00,010125,4742.4464562,N,01617.9731330,E,1,23,2.219,625.3579,M*32
$GPGFA,093117.00,13.042,13.482,1.372,0.583,13.197,1.644,,VVV*35
$GPLLK,093117.00,010125,,M,,M,1,23,1.6,,M*00
$GNGMP,093117.00,,,,,DAAA,23,0.7,,,,*5D
$GPGMP,093117.00,,,,,,06,,,,2.3,123*77
$GLGMP,093117.00,,,,,,05,,,,,*77
$GAGMP,093117.00,,,,,,05,,,,,*7A
$GBGMP,093117.00,,,,,,07,,,,,*7B
$PSSN,SNC,[0,293495000,2347]*44
$GPZDA,093122.00,01,01,2025,,*68
$GPDTM,W84,,00.0000000,N,00.0000000,E,00.0000000,W84*5F
$GPRMC,093122.00,A,4742.4464523,N,01617.9731430,E,0.0,,010125,5.1,E,D*1F
$GPGLL,4742.4464523,N,01617.9731430,E,093122.00,A,D*6E
$GPGGA,093122.00,4742.4464523,N,01617.9731430,E,2,23,0.7,625.3662,M,43.2111,M,3.3,0123*41
$GNGNS,093122.00,4742.4464523,N,01617.9731430,E,DAAA,23,0.7,625.3662,43.2111,,*5D
$GPGNS,093122.00,,,,,,06,,,,3.3,123*70
$GLGNS,093122.00,,,,,,05,,,,,*71
$GAGNS,093122.00,,,,,,05,,,,,*7C
$GBGNS,093122.00,,,,,,07,,,,,*7D
$GPLLQ,093122.00,010125,,M,,M,1,23,2.072,,M*1C
$GPVTG,,T,,M,0.00,N,0.01,K,D*27
$GPHDT,,T*1B
$GPTHS,,V*0E
$GPROT,,V*08
$PSSN,HRP,093122.00,010125,,,,,,,00,0,,*6A
$PTNL,AVR,093122.00,,Yaw,,Tilt,,,,0,,00*3C
$GPGSA,A,3,13,14,15,17,23,24,,,,,,,1.3,0.7,1.1*35
$GPGSA,A,3,65,66,67,75,76,,,,,,,,1.3,0.7,1.1*36
$GPGSA,A,3,02,03,07,08,25,,,,,,,,1.3,0.7,1.1*3E
$GPGSA,A,3,07,10,14,21,26,42,45,,,,,,1.3,0.7,1.1*34
$GPGST,093122.00,4.393,1.281,0.543,13.321,1.253,0.605,1.536*6C
$GPGBS,093122.00,6.392,3.135,7.791,67,0.0001,14.255,6.272*60
$GPGRS,093122.00,1,-0.5,-0.4,0.5,-0.8,0.3,0.7,,,,,,*60
$GPGRS,093122.00,1,-3.3,-3.2,14.3,-3.6,6.1,,,,,,,*73
$GPGRS,093122.00,1,-0.5,-1.4,1.4,0.5,-1.1,,,,,,,*46
$GPGRS,093122.00,1,-0.4,-1.2,2.6,-3.5,0.3,-1.8,1.6,,,,,*63
$GPGSV,4,1,14,13,74,148,49,05,17,212,32,30,24,085,24,19,16,142,32*7C
$GPGSV,4,2,14,24,28,279,37,23,22,312,42,17,29,112,40,14,53,062,48*79
$GPGSV,4,3,14,15,64,279,46,22,71,092,,36,35,170,36,34,31,208,*71
$GPGSV,4,4,14,49,34,195,,61,03,257,*7F
$GLGSV,3,1,09,66,66,298,47,84,13,039,,67,16,329,37,77,19,240,*6E
$GLGSV,3,2,09,65,49,178,44,75,46,041,46,76,65,259,45,83,02,341,*68
$GLGSV,3,3,09,85,05,088,*54
$GAGSV,3,1,11,08,65,297,43,24,10,045,27,07,13,310,40,16,35,052,*6C
$GAGSV,3,2,11,03,58,145,47,02,58,195,44,25,59,066,40,05,08,134,*62
$GAGSV,3,3,11,26,01,313,26,30,09,216,,33,03,357,*55
$GBGSV,5,1,20,26,65,255,52,33,15,322,29,40,28,048,27,05,20,130,31*63
$GBGSV,5,2,20,24,14,247,26,29,13,092,,21,42,190,41,07,29,059,39*68
$GBGSV,5,3,20,14,37,306,46,56,31,082,,10,36,072,37,50,56,223,*62
$GBGSV,5,4,20,42,55,274,38,45,54,061,42,22,00,162,,09,03,089,*6B
$GBGSV,5,5,20,36,06,065,,30,10,040,,02,04,109,,60,07,112,*62
$GPGGA,093122.00,,,,,0,00,,,M,,M,,*43
$PTNL,GGK,093122.00,010125,4742.4464523,N,01617.9731430,E,1,23,1.3,EHT668.5773,M*45
$GPGGQ,093122.00,010125,4742.4464523,N,01617.9731430,E,1,23,2.072,625.3662,M*30
$GPGFA,093122.00,12.178,12.596,1.281,0.543,13.321,1.536,,VVV*37
$GPLLK,093122.00,010125,,M,,M,1,23,1.6,,M*06
$GNGMP,093122.00,,,,,DAAA,23,0.7,,,,*5B
$GPGMP,093122.00,,,,,,06,,,,3.3,123*70
$GLGMP,093122.00,,,,,,05,,,,,*71
$GAGMP,093122.00,,,,,,05,,,,,*7C
$GBGMP,093122.00,,,,,,07,,,,,*7D
$PSSN,SNC,[0,293500000,2347]*49
$GPZDA,093127.00,01,01,2025,,*6D
$GPDTM,W84,,00.0000000,N,00.0000000,E,00.0000000,W84*5F
$GPRMC,093127.00,A,4742.4464483,N,01617.9731565,E,0.0,,010125,5.1,E,D*10
$GPGLL,4742.4464483,N,01617.9731565,E,093127.00,A,D*61
$GPGGA,093127.00,4742.4464483,N,01617.9731565,E,2,22,0.7,625.3574,M,43.2111,M,3.0,0123*48
$GNGNS,093127.00,4742.4464483,N,01617.9731565,E,DAAA,22,0.7,625.3574,43.2111,,*57
$GPGNS,093127.00,,,,,,06,,,,3.0,123*76
$GLGNS,093127.00,,,,,,04,,,,,*75
$GAGNS,093127.00,,,,,,05,,,,,*79
$GBGNS,093127.00,,,,,,07,,,,,*78
$GPLLQ,093127.00,010125,,M,,M,1,22,1.595,,M*17
$GPVTG,,T,,M,0.01,N,0.01,K,D*26
$GPHDT,,T*1B
$GPTHS,,V*0E
$GPROT,,V*08
$PSSN,HRP,093127.00,010125,,,,,,,00,0,,*6F
$PTNL,AVR,093127.00,,Yaw,,Tilt,,,,0,,00*39
$GPGSA,A,3,13,14,15,17,23,24,,,,,,,1.4,0.7,1.2*31
$GPGSA,A,3,65,66,75,76,,,,,,,,,1.4,0.7,1.2*33
$GPGSA,A,3,02,03,07,08,25,,,,,,,,1.4,0.7,1.2*3A
$GPGSA,A,3,07,10,14,21,26,42,45,,,,,,1.4,0.7,1.2*30
$GPGST,093127.00,2.804,0.977,0.419,12.933,0.957,0.463,1.189*63
$GPGBS,093127.00,6.332,3.076,8.097,76,0.0001,7.000,6.063*55
$GPGRS,093127.00,1,0.0,-0.7,0.8,-0.6,0.9,-0.0,,,,,,*6D
$GPGRS,093127.00,1,-4.1,-3.6,-3.1,7.0,,,,,,,,*68
$GPGRS,093127.00,1,0.3,-1.1,1.0,0.4,-1.8,,,,,,,*61
$GPGRS,093127.00,1,-0.6,-1.4,1.1,-3.5,0.3,1.0,2.2,,,,,*44
$GPGSV,4,1,14,13,74,148,49,05,17,212,31,30,24,085,27,19,16,142,31*7F
$GPGSV,4,2,14,24,28,279,35,23,22,312,44,17,29,112,40,14,53,062,47*72
$GPGSV,4,3,14,15,64,279,47,22,71,092,,36,35,170,36,34,31,208,*70
$GPGSV,4,4,14,49,34,195,,61,03,257,*7F
$GLGSV,3,1,09,66,66,298,45,84,13,039,,67,16,329,36,77,19,240,*6D
$GLGSV,3,2,09,65,49,178,44,75,46,041,46,76,65,259,47,83,02,341,*6A
$GLGSV,3,3,09,85,05,088,*54
$GAGSV,3,1,11,08,65,297,43,24,10,045,27,07,13,310,39,16,35,052,*62
$GAGSV,3,2,11,03,58,145,47,02,58,195,44,25,59,066,40,05,08,134,*62
$GAGSV,3,3,11,26,01,313,26,30,09,216,,33,03,357,*55
$GBGSV,5,1,20,26,65,255,52,33,15,322,26,40,28,048,29,05,20,130,32*61
$GBGSV,5,2,20,24,14,247,23,29,13,092,,21,42,190,40,07,29,059,39*6C
$GBGSV,5,3,20,14,37,306,45,56,31,082,,10,36,072,36,50,56,223,*60
$GBGSV,5,4,20,42,55,274,39,45,54,061,42,22,00,162,,09,03,089,*6A
$GBGSV,5,5,20,36,06,065,,30,10,040,,02,04,109,,60,07,112,*62
$GPGGA,093127.00,,,,,0,00,,,M,,M,,*46
$PTNL,GGK,093127.00,010125,4742.4464483,N,01617.9731565,E,1,22,1.4,EHT668.5685,M*44
$GPGGQ,093127.00,010125,4742.4464483,N,01617.9731565,E,1,22,1.595,625.3574,M*35
$GPGFA,093127.00,9.294,9.746,0.977,0.419,12.933,1.189,,VVV*39
$GPLLK,093127.00,010125,,M,,M,1,22,1.6,,M*02
$GNGMP,093127.00,,,,,DAAA,22,0.7,,,,*5F
$GPGMP,093127.00,,,,,,06,,,,3.0,123*76
$GLGMP,093127.00,,,,,,04,,,,,*75
$GAGMP,093127.00,,,,,,05,,,,,*79
$GBGMP,093127.00,,,,,,07,,,,,*78
$PSSN,SNC,[0,293505000,2347]*4C
$GPZDA,093132.00,01,01,2025,,*69
$GPDTM,W84,,00.0000000,N,00.0000000,E,00.0000000,W84*5F
$GPRMC,093132.00,A,4742.4464489,N,01617.9731680,E,0.0,,010125,5.1,E,D*16
$GPGLL,4742.4464489,N,01617.9731680,E,093132.00,A,D*67
$GPGGA,093132.00,4742.4464489,N,01617.9731680,E,2,22,0.7,625.3664,M,43.2111,M,1.4,0123*4A
$GNGNS,093132.00,4742.4464489,N,01617.9731680,E,DAAA,22,0.7,625.3664,43.2111,,*53
$GPGNS,093132.00,,,,,,05,,,,1.4,123*77
$GLGNS,093132.00,,,,,,05,,,,,*70
$GAGNS,093132.00,,,,,,05,,,,,*7D
$GBGNS,093132.00,,,,,,07,,,,,*7C
$GPLLQ,093132.00,010125,,M,,M,1,22,2.584,,M*10
$GPVTG,,T,,M,0.01,N,0.01,K,D*26
$GPHDT,,T*1B
$GPTHS,,V*0E
$GPROT,,V*08
$PSSN,HRP,093132.00,010125,,,,,,,00,0,,*6B
$PTNL,AVR,093132.00,,Yaw,,Tilt,,,,0,,00*3D
$GPGSA,A,3,13,14,15,17,23,,,,,,,,1.4,0.7,1.2*37
$GPGSA,A,3,65,66,67,75,76,,,,,,,,1.4,0.7,1.2*32
