$GPZDA,121442.00,01,01,2025,,*63
$GPDTM,W84,,00.0000000,N,00.0000000,E,00.0000000,W84*5F
$GPRMC,121442.00,A,4742.4458145,N,01617.9739202,E,0.0,,010125,5.1,E,D*10
$GPGLL,4742.4458145,N,01617.9739202,E,121442.00,A,D*61
$GPGGA,121442.00,4742.4458145,N,01617.9739202,E,2,21,0.7,624.3371,M,43.2110,M,2.3,0123*4A
$GNGNS,121442.00,4742.4458145,N,01617.9739202,E,DAAA,21,0.7,624.3371,43.2110,,*57
$GPGNS,121442.00,,,,,,04,,,,2.3,123*78
$GLGNS,121442.00,,,,,,07,,,,,*78
$GAGNS,121442.00,,,,,,05,,,,,*77
$GBGNS,121442.00,,,,,,05,,,,,*74
$GPLLQ,121442.00,010125,,M,,M,1,21,4.188,,M*17
$GPVTG,,T,,M,0.01,N,0.01,K,D*26
$GPHDT,,T*1B
$GPTHS,,V*0E
$GPROT,,V*08
$PSSN,HRP,121442.00,010125,,,,,,,00,0,,*61
$PTNL,AVR,121442.00,,Yaw,,Tilt,,,,0,,00*37
$GPGSA,A,3,12,19,24,32,,,,,,,,,1.3,0.7,1.1*3B
$GPGSA,A,3,67,68,76,77,78,86,87,,,,,,1.3,0.7,1.1*37
$GPGSA,A,3,02,07,08,29,30,,,,,,,,1.3,0.7,1.1*32
$GPGSA,A,3,24,26,33,35,41,,,,,,,,1.3,0.7,1.1*36
$GPGST,121442.00,3.563,2.284,0.607,357.325,2.281,0.616,3.458*5E
$GPGBS,121442.00,14.915,4.425,21.940,67,0.0001,7.661,6.142*59
$GPGRS,121442.00,1,0.2,-0.1,-0.1,0.4,,,,,,,,*48
$GPGRS,121442.00,1,7.7,5.0,-1.8,-7.0,-1.3,-2.5,5.0,,,,,*6B
$GPGRS,121442.00,1,0.3,-0.1,0.5,-0.2,0.7,,,,,,,*62
$GPGRS,121442.00,1,0.2,1.6,0.9,1.9,-0.5,,,,,,,*4C
$GPGSV,4,1,15,24,77,147,43,17,17,042,30,06,18,097,,15,14,189,29*75
$GPGSV,4,2,15,32,21,317,39,25,26,259,28,19,43,061,45,12,68,266,51*73
$GPGSV,4,3,15,11,06,131,,10,05,284,31,22,10,068,,36,35,170,35*7B
$GPGSV,4,4,15,34,31,208,35,49,34,195,35,61,03,257,*41
$GLGSV,3,1,10,77,68,013,40,78,28,286,42,76,32,074,45,87,32,124,42*6C
$GLGSV,3,2,10,67,34,240,47,68,36,304,45,86,37,063,39,85,08,014,*6E
$GLGSV,3,3,10,66,03,198,,69,07,346,29*65
$GAGSV,3,1,12,30,63,261,46,29,16,321,36,11,15,044,,27,12,252,28*6C
$GAGSV,3,2,12,08,37,193,36,36,17,093,,18,58,129,,07,52,271,48*67
$GAGSV,3,3,12,02,59,060,41,10,06,019,,34,01,139,,25,08,068,*65
$GBGSV,5,1,20,24,71,301,47,29,11,034,,12,15,168,33,25,13,282,*65
$GBGSV,5,2,20,40,12,040,23,05,20,130,,11,15,230,,41,19,312,44*61
$GBGSV,5,3,20,07,17,052,31,14,19,232,30,44,33,151,34,33,26,259,43*69
$GBGSV,5,4,20,10,29,057,29,56,36,055,,35,43,089,45,26,52,090,44*66
$GBGSV,5,5,20,43,04,250,,02,04,109,,42,07,209,23,60,08,111,*67
$GPGGA,121442.00,,,,,0,00,,,M,,M,,*48
$PTNL,GGK,121442.00,010125,4742.4458145,N,01617.9739202,E,1,21,1.3,EHT667.5482,M*4A
$GPGGQ,121442.00,010125,4742.4458145,N,01617.9739202,E,1,21,4.188,624.3371,M*39
$GPGFA,121442.00,21.712,28.355,2.284,0.607,357.325,3.458,,VVV*0F
$GPLLK,121442.00,010125,,M,,M,1,21,1.6,,M*0F
$GNGMP,121442.00,,,,,DAAA,21,0.7,,,,*52
$GPGMP,121442.00,,,,,,04,,,,2.3,123*78
$GLGMP,121442.00,,,,,,07,,,,,*78
$GAGMP,121442.00,,,,,,05,,,,,*77
$GBGMP,121442.00,,,,,,05,,,,,*74
$PSSN,SNC,[0,303300000,2347]*47
$GPALM,1,1,10,2347,00,52D8,7B,1D31,FD44,A10D15,A0F128,DEE2D4,7365CA,EEE,FFC*0A
$GPZDA,121447.00,01,01,2025,,*66
$GPDTM,W84,,00.0000000,N,00.0000000,E,00.0000000,W84*5F
$GPRMC,121447.00,A,4742.4458139,N,01617.9739247,E,0.0,,010125,5.1,E,D*1F
$GPGLL,4742.4458139,N,01617.9739247,E,121447.00,A,D*6E
$GPGGA,121447.00,4742.4458139,N,01617.9739247,E,2,22,0.7,624.3397,M,43.2110,M,2.2,0123*4F
$GNGNS,121447.00,4742.4458139,N,01617.9739247,E,DAAA,22,0.7,624.3397,43.2110,,*53
$GPGNS,121447.00,,,,,,05,,,,2.2,123*7D
$GLGNS,121447.00,,,,,,07,,,,,*7D
$GAGNS,121447.00,,,,,,05,,,,,*72
$GBGNS,121447.00,,,,,,05,,,,,*71
$GPLLQ,121447.00,010125,,M,,M,1,22,3.198,,M*17
$GPVTG,,T,,M,0.00,N,0.00,K,D*26
$GPHDT,,T*1B
$GPTHS,,V*0E
$GPROT,,V*08
$PSSN,HRP,121447.00,010125,,,,,,,00,0,,*64
$PTNL,AVR,121447.00,,Yaw,,Tilt,,,,0,,00*32
$GPGSA,A,3,12,19,24,25,32,,,,,,,,1.3,0.7,1.1*3C
$GPGSA,A,3,67,68,76,77,78,86,87,,,,,,1.3,0.7,1.1*37
$GPGSA,A,3,02,07,08,29,30,,,,,,,,1.3,0.7,1.1*32
$GPGSA,A,3,24,26,33,35,41,,,,,,,,1.3,0.7,1.1*36
$GPGST,121447.00,5.009,1.863,0.771,342.124,1.789,0.931,2.482*51
$GPGBS,121447.00,7.334,4.372,11.463,68,0.0001,14.827,6.133*5A
$GPGRS,121447.00,1,0.2,-0.3,-0.3,-1.7,1.0,,,,,,,*4D
$GPGRS,121447.00,1,9.8,14.8,-2.7,-4.9,-1.1,0.2,4.2,,,,,*78
$GPGRS,121447.00,1,0.8,-0.1,-0.6,-0.5,0.9,,,,,,,*4B
$GPGRS,121447.00,1,0.6,1.0,0.8,1.3,-0.5,,,,,,,*40
$GPGSV,4,1,15,24,77,147,42,17,17,042,31,06,18,097,,15,14,189,30*7D
$GPGSV,4,2,15,32,21,317,41,25,26,259,38,19,43,061,46,12,68,266,52*7D
$GPGSV,4,3,15,11,06,131,,10,05,284,20,22,10,068,,36,35,170,35*7B
$GPGSV,4,4,15,34,31,208,35,49,34,195,35,61,03,257,*41
$GLGSV,3,1,10,77,68,013,42,78,28,286,42,76,32,074,45,87,32,123,39*65
$GLGSV,3,2,10,67,34,240,46,68,36,304,44,86,37,063,38,85,08,014,24*69
$GLGSV,3,3,10,66,03,198,,69,07,346,30*6D
$GAGSV,3,1,12,30,63,261,47,29,16,321,37,11,15,044,,27,12,252,25*61
$GAGSV,3,2,12,08,37,193,37,36,17,093,,18,58,129,,07,52,271,48*66
$GAGSV,3,3,12,02,59,060,42,10,06,019,,34,02,139,,25,08,068,*65
$GBGSV,5,1,20,24,71,302,46,29,11,034,,12,15,168,34,25,13,282,*60
$GBGSV,5,2,20,40,12,040,23,05,20,130,,11,16,230,,41,19,312,43*65
$GBGSV,5,3,20,07,17,052,31,14,19,232,32,44,33,151,34,33,26,259,43*6B
$GBGSV,5,4,20,10,29,057,29,56,36,055,,35,43,089,44,26,52,090,44*67
$GBGSV,5,5,20,43,04,250,,02,04,109,,42,07,209,23,60,08,111,*67
$GPGGA,121447.00,,,,,0,00,,,M,,M,,*4D
$PTNL,GGK,121447.00,010125,4742.4458139,N,01617.9739247,E,1,22,1.3,EHT667.5508,M*45
$GPGGQ,121447.00,010125,4742.4458139,N,01617.9739247,E,1,22,3.198,624.3397,M*3B
$GPGFA,121447.00,17.712,20.351,1.863,0.771,342.124,2.482,,VVV*02
$GPLLK,121447.00,010125,,M,,M,1,22,1.5,,M*0A
$GNGMP,121447.00,,,,,DAAA,22,0.7,,,,*54
$GPGMP,121447.00,,,,,,05,,,,2.2,123*7D
$GLGMP,121447.00,,,,,,07,,,,,*7D
$GAGMP,121447.00,,,,,,05,,,,,*72
$GBGMP,121447.00,,,,,,05,,,,,*71
$PSSN,SNC,[0,303305000,2347]*42
$GPZDA,121452.00,01,01,2025,,*62
$GPDTM,W84,,00.0000000,N,00.0000000,E,00.0000000,W84*5F
$GPRMC,121452.00,A,4742.4458113,N,01617.9739331,E,0.0,,010125,5.1,E,D*13
$GPGLL,4742.4458113,N,01617.9739331,E,121452.00,A,D*62
$GPGGA,121452.00,4742.4458113,N,01617.9739331,E,2,21,0.8,624.3356,M,43.2110,M,2.4,0123*44
$GNGNS,121452.00,4742.4458113,N,01617.9739331,E,DAAA,21,0.8,624.3356,43.2110,,*5E
$GPGNS,121452.00,,,,,,05,,,,2.4,123*7F
$GLGNS,121452.00,,,,,,06,,,,,*78
$GAGNS,121452.00,,,,,,05,,,,,*76
$GBGNS,121452.00,,,,,,05,,,,,*75
$GPLLQ,121452.00,010125,,M,,M,1,21,3.682,,M*1C
$GPVTG,,T,,M,0.00,N,0.01,K,D*27
$GPHDT,,T*1B
$GPTHS,,V*0E
$GPROT,,V*08
$PSSN,HRP,121452.00,010125,,,,,,,00,0,,*60
$PTNL,AVR,121452.00,,Yaw,,Tilt,,,,0,,00*36
$GPGSA,A,3,12,19,24,25,32,,,,,,,,1.4,0.8,1.2*37
$GPGSA,A,3,67,68,76,77,78,86,,,,,,,1.4,0.8,1.2*33
$GPGSA,A,3,02,07,08,29,30,,,,,,,,1.4,0.8,1.2*39
$GPGSA,A,3,24,26,33,35,41,,,,,,,,1.4,0.8,1.2*3D
$GPGST,121452.00,6.473,2.159,0.876,341.883,2.070,1.069,2.850*57
$GPGBS,121452.00,7.724,4.445,11.892,68,0.0001,20.567,6.135*52
$GPGRS,121452.00,1,0.2,-0.7,-0.3,0.9,0.0,,,,,,,*6E
$GPGRS,121452.00,1,10.9,20.6,-2.2,-4.5,2.2,-2.7,,,,,,*6A
$GPGRS,121452.00,1,0.8,-0.3,-0.9,-1.2,0.3,,,,,,,*4E
$GPGRS,121452.00,1,1.2,1.0,0.7,0.5,-0.8,,,,,,,*44
$GPGSV,4,1,15,24,77,147,42,17,17,042,30,06,18,097,,15,14,189,30*7C
$GPGSV,4,2,15,32,21,317,43,25,26,259,40,19,43,061,46,12,68,266,52*70
$GPGSV,4,3,15,11,06,131,,10,05,284,28,22,10,068,,36,35,170,35*73
$GPGSV,4,4,15,34,31,208,35,49,34,195,35,61,03,257,*41
$GLGSV,3,1,10,77,68,014,42,78,28,286,42,76,32,074,45,87,33,123,*69
$GLGSV,3,2,10,67,34,240,46,68,36,304,42,86,37,063,39,85,08,014,32*69
$GLGSV,3,3,10,66,03,198,,69,07,346,31*6C
$GAGSV,3,1,12,30,63,261,46,29,16,321,37,11,15,044,,27,12,252,25*60
$GAGSV,3,2,12,08,37,193,37,36,17,093,,18,58,129,,07,52,271,48*66
$GAGSV,3,3,12,02,59,060,43,10,06,019,,34,02,139,,25,08,068,*64
$GBGSV,5,1,20,24,71,302,45,29,11,034,,12,15,168,35,25,13,282,*62
$GBGSV,5,2,20,40,12,040,22,05,20,130,,11,16,230,,41,19,312,43*64
$GBGSV,5,3,20,07,17,052,31,14,19,232,34,44,33,151,34,33,26,259,43*6D
$GBGSV,5,4,20,10,29,057,30,56,36,055,,35,43,089,43,26,52,090,45*69
$GBGSV,5,5,20,43,04,250,,02,04,109,,42,07,209,23,60,08,111,*67
$GPGGA,121452.00,,,,,0,00,,,M,,M,,*49
$PTNL,GGK,121452.00,010125,4742.4458113,N,01617.9739331,E,1,21,1.4,EHT667.5467,M*45
$GPGGQ,121452.00,010125,4742.4458113,N,01617.9739331,E,1,21,3.682,624.3356,M*35
$GPGFA,121452.00,20.529,23.373,2.159,0.876,341.883,2.850,,VVV*04
$GPLLK,121452.00,010125,,M,,M,1,21,1.7,,M*0F
$GNGMP,121452.00,,,,,DAAA,21,0.8,,,,*5C
$GPGMP,121452.00,,,,,,05,,,,2.4,123*7F
$GLGMP,121452.00,,,,,,06,,,,,*78
$GAGMP,121452.00,,,,,,05,,,,,*76
$GBGMP,121452.00,,,,,,05,,,,,*75
$PSSN,SNC,[0,303310000,2347]*46
$GPZDA,121457.00,01,01,2025,,*67
$GPDTM,W84,,00.0000000,N,00.0000000,E,00.0000000,W84*5F
$GPRMC,121457.00,A,4742.4458145,N,01617.9739559,E,0.0,,010125,5.1,E,D*1D
$GPGLL,4742.4458145,N,01617.9739559,E,121457.00,A,D*6C
$GPGGA,121457.00,4742.4458145,N,01617.9739559,E,2,23,0.6,624.3516,M,43.2110,M,3.4,0123*45
$GNGNS,121457.00,4742.4458145,N,01617.9739559,E,DAAA,23,0.6,624.3516,43.2110,,*5E
$GPGNS,121457.00,,,,,,05,,,,3.4,123*7B
$GLGNS,121457.00,,,,,,07,,,,,*7C
$GAGNS,121457.00,,,,,,05,,,,,*73
$GBGNS,121457.00,,,,,,06,,,,,*73
$GPLLQ,121457.00,010125,,M,,M,1,23,3.834,,M*18
$GPVTG,,T,,M,0.01,N,0.01,K,D*26
$GPHDT,,T*1B
$GPTHS,,V*0E
$GPROT,,V*08
$PSSN,HRP,121457.00,010125,,,,,,,00,0,,*65
$PTNL,AVR,121457.00,,Yaw,,Tilt,,,,0,,00*33
$GPGSA,A,3,12,19,24,25,32,,,,,,,,1.2,0.6,1.0*3D
$GPGSA,A,3,67,68,76,77,78,86,87,,,,,,1.2,0.6,1.0*36
$GPGSA,A,3,02,07,08,29,30,,,,,,,,1.2,0.6,1.0*33
$GPGSA,A,3,12,24,26,33,35,41,,,,,,,1.2,0.6,1.0*34
$GPGST,121457.00,5.993,2.229,0.952,342.848,2.149,1.123,2.971*53
$GPGBS,121457.00,6.920,4.397,10.943,68,0.0001,16.295,6.134*56
$GPGRS,121457.00,1,-0.0,-1.0,-0.3,1.9,0.3,,,,,,,*40
$GPGRS,121457.00,1,10.1,16.3,-2.2,-6.2,4.7,-3.5,-9.7,,,,,*6F
$GPGRS,121457.00,1,0.0,-0.4,-1.8,-2.1,-0.6,,,,,,,*6C
$GPGRS,121457.00,1,4.1,0.8,1.5,-0.3,1.6,-0.8,,,,,,*4F
$GPGSV,4,1,15,24,77,147,42,17,17,042,28,06,18,097,,15,14,189,30*75
$GPGSV,4,2,15,32,21,317,43,25,27,259,42,19,43,061,46,12,68,266,51*70
$GPGSV,4,3,15,11,06,131,,10,05,284,31,22,10,068,,36,35,170,35*7B
$GPGSV,4,4,15,34,31,208,34,49,34,195,35,61,03,257,*40
$GLGSV,3,1,10,77,68,014,42,78,28,286,41,76,32,074,45,87,33,123,36*6F
$GLGSV,3,2,10,67,34,240,46,68,36,304,44,86,37,063,39,85,08,014,29*65
$GLGSV,3,3,10,66,03,198,,69,07,346,31*6C
$GAGSV,3,1,12,30,63,261,46,29,16,321,37,11,15,044,,27,12,252,31*65
$GAGSV,3,2,12,08,37,193,38,36,17,093,,18,58,129,,07,52,271,48*69
$GAGSV,3,3,12,02,59,060,43,10,06,019,,34,02,139,,25,08,068,*64
$GBGSV,5,1,20,24,71,302,45,29,11,034,,12,15,168,35,25,13,282,*62
$GBGSV,5,2,20,40,12,040,22,05,20,130,,11,16,230,,41,19,312,42*65
$GBGSV,5,3,20,07,17,052,31,14,19,232,34,44,33,151,35,33,26,259,41*6E
$GBGSV,5,4,20,10,29,057,30,56,36,055,,35,43,089,42,26,52,090,46*6B
$GBGSV,5,5,20,43,04,250,,02,04,109,,42,07,209,22,60,08,111,*66
$GPGGA,121457.00,,,,,0,00,,,M,,M,,*4C
$PTNL,GGK,121457.00,010125,4742.4458145,N,01617.9739559,E,1,23,1.2,EHT667.5626,M*48
$GPGGQ,121457.00,010125,4742.4458145,N,01617.9739559,E,1,23,3.834,624.3516,M*38
$GPGFA,121457.00,21.196,24.358,2.229,0.952,342.848,2.971,,VVV*0B
$GPLLK,121457.00,010125,,M,,M,1,23,1.3,,M*0C
$GNGMP,121457.00,,,,,DAAA,23,0.6,,,,*55
$GPGMP,121457.00,,,,,,05,,,,3.4,123*7B
$GLGMP,121457.00,,,,,,07,,,,,*7C
$GAGMP,121457.00,,,,,,05,,,,,*73
$GBGMP,121457.00,,,,,,06,,,,,*73
$PSSN,SNC,[0,303315000,2347]*43
$GPZDA,121502.00,01,01,2025,,*66
$GPDTM,W84,,00.0000000,N,00.0000000,E,00.0000000,W84*5F
$GPRMC,121502.00,A,4742.4458178,N,01617.9739807,E,0.0,,010125,5.1,E,D*14
$GPGLL,4742.4458178,N,01617.9739807,E,121502.00,A,D*65
$GPGGA,121502.00,4742.4458178,N,01617.9739807,E,2,24,0.6,624.3670,M,43.2110,M,2.0,0123*4D
$GNGNS,121502.00,4742.4458178,N,01617.9739807,E,DAAA,24,0.6,624.3670,43.2110,,*53
$GPGNS,121502.00,,,,,,05,,,,2.0,123*7F
$GLGNS,121502.00,,,,,,07,,,,,*7D
$GAGNS,121502.00,,,,,,05,,,,,*72
$GBGNS,121502.00,,,,,,07,,,,,*73
$GPLLQ,121502.00,010125,,M,,M,1,24,3.525,,M*13
$GPVTG,,T,,M,0.00,N,0.01,K,D*27
$GPHDT,,T*1B
$GPTHS,,V*0E
$GPROT,,V*08
$PSSN,HRP,121502.00,010125,,,,,,,00,0,,*64
$PTNL,AVR,121502.00,,Yaw,,Tilt,,,,0,,00*32
$GPGSA,A,3,12,19,24,25,32,,,,,,,,1.1,0.6,1.0*3E
$GPGSA,A,3,67,68,76,77,78,86,87,,,,,,1.1,0.6,1.0*35
$GPGSA,A,3,02,07,08,29,30,,,,,,,,1.1,0.6,1.0*30
$GPGSA,A,3,12,24,26,33,35,41,44,,,,,,1.1,0.6,1.0*37
$GPGST,121502.00,5.357,2.034,0.887,342.712,1.960,1.041,2.739*50
$GPGBS,121502.00,6.565,4.221,10.606,25,0.0001,1.916,0.907*69
$GPGRS,121502.00,1,-0.6,-1.2,-0.1,1.9,1.5,,,,,,,*40
$GPGRS,121502.00,1,8.2,12.0,-3.1,-7.6,2.3,-1.9,-6.8,,,,,*58
$GPGRS,121502.00,1,-0.3,-0.7,-2.3,-2.7,-0.4,,,,,,,*4C
$GPGRS,121502.00,1,2.9,-0.0,2.0,-2.1,2.2,-0.7,10.5,,,,,*71
$GPGSV,4,1,15,24,77,147,42,17,17,042,24,06,18,097,,15,14,189,30*79
$GPGSV,4,2,15,32,21,317,43,25,27,259,42,19,43,061,46,12,68,266,51*70
$GPGSV,4,3,15,11,06,131,,10,05,284,30,22,10,068,,36,35,170,35*7A
$GPGSV,4,4,15,34,31,208,34,49,34,195,35,61,03,257,*40
$GLGSV,3,1,10,77,68,014,42,78,28,286,36,76,32,074,44,87,33,123,35*6D
$GLGSV,3,2,10,67,34,240,47,68,36,304,44,86,37,063,40,85,08,014,28*6B
$GLGSV,3,3,10,66,03,198,,69,07,346,30*6D
$GAGSV,3,1,12,30,63,261,46,29,16,321,37,11,15,043,,27,12,252,29*6B
$GAGSV,3,2,12,08,37,193,37,36,17,093,,18,58,129,,07,52,271,48*66
$GAGSV,3,3,12,02,59,060,43,10,06,019,,34,02,139,,25,08,068,*64
$GBGSV,5,1,20,24,71,302,44,29,11,034,,12,15,168,35,25,13,282,*63
$GBGSV,5,2,20,40,12,040,22,05,20,130,,11,16,230,,41,19,312,42*65
$GBGSV,5,3,20,07,17,052,31,14,19,232,34,44,33,151,37,33,26,259,39*63
$GBGSV,5,4,20,10,29,057,30,56,36,055,,35,43,089,41,26,52,090,46*68
$GBGSV,5,5,20,43,04,250,,02,04,109,,42,07,209,22,60,08,111,*66
$GPGGA,121502.00,,,,,0,00,,,M,,M,,*4D
$PTNL,GGK,121502.00,010125,4742.4458178,N,01617.9739807,E,1,24,1.1,EHT667.5780,M*48
$GPGGQ,121502.00,010125,4742.4458178,N,01617.9739807,E,1,24,3.525,624.3670,M*38
$GPGFA,121502.00,19.339,22.458,2.034,0.887,342.712,2.739,,VVV*02
$GPLLK,121502.00,010125,,M,,M,1,24,1.3,,M*0A
$GNGMP,121502.00,,,,,DAAA,24,0.6,,,,*53
$GPGMP,121502.00,,,,,,05,,,,2.0,123*7F
$GLGMP,121502.00,,,,,,07,,,,,*7D
$GAGMP,121502.00,,,,,,05,,,,,*72
$GBGMP,121502.00,,,,,,07,,,,,*73
$PSSN,SNC,[0,303320000,2347]*45
$GPZDA,121507.00,01,01,2025,,*63
$GPDTM,W84,,00.0000000,N,00.0000000,E,00.0000000,W84*5F
$GPRMC,121507.00,A,4742.4458239,N,01617.9739994,E,0.0,,010125,5.1,E,D*1C
$GPGLL,4742.4458239,N,01617.9739994,E,121507.00,A,D*6D
$GPGGA,121507.00,4742.4458239,N,01617.9739994,E,2,21,0.7,624.3931,M,43.2110,M,2.2,0123*49
$GNGNS,121507.00,4742.4458239,N,01617.9739994,E,DAAA,21,0.7,624.3931,43.2110,,*55
$GPGNS,121507.00,,,,,,05,,,,2.2,123*78
$GLGNS,121507.00,,,,,,05,,,,,*7A
$GAGNS,121507.00,,,,,,05,,,,,*77
$GBGNS,121507.00,,,,,,06,,,,,*77
$GPLLQ,121507.00,010125,,M,,M,1,21,3.324,,M*14
$GPVTG,,T,,M,0.00,N,0.01,K,D*27
$GPHDT,,T*1B
$GPTHS,,V*0E
$GPROT,,V*08
$PSSN,HRP,121507.00,010125,,,,,,,00,0,,*61
$PTNL,AVR,121507.00,,Yaw,,Tilt,,,,0,,00*37
$GPGSA,A,3,12,19,24,25,32,,,,,,,,1.3,0.7,1.1*3C
$GPGSA,A,3,67,68,76,77,86,,,,,,,,1.3,0.7,1.1*37
$GPGSA,A,3,02,07,08,29,30,,,,,,,,1.3,0.7,1.1*32
$GPGSA,A,3,24,26,33,35,41,44,,,,,,,1.3,0.7,1.1*36
$GPGST,121507.00,4.767,1.933,0.807,341.727,1.853,0.977,2.581*5E
$GPGBS,121507.00,7.361,4.458,11.528,25,0.0001,2.166,0.917*64
$GPGRS,121507.00,1,-1.0,-0.5,0.1,2.2,0.2,,,,,,,*67
$GPGRS,121507.00,1,7.9,5.6,-3.5,-6.9,0.2,,,,,,,*66
$GPGRS,121507.00,1,-0.3,-1.2,-0.9,-3.5,-0.4,,,,,,,*46
$GPGRS,121507.00,1,-1.3,1.7,-4.0,0.5,-1.4,11.0,,,,,,*53
$GPGSV,4,1,15,24,77,147,42,17,17,042,31,06,18,097,,15,14,189,30*7D
$GPGSV,4,2,15,32,21,317,41,25,27,259,42,19,43,060,47,12,68,267,50*72
$GPGSV,4,3,15,11,06,131,,10,05,284,33,22,10,068,,36,35,170,35*79
$GPGSV,4,4,15,34,31,208,34,49,34,195,35,61,03,257,*40
$GLGSV,3,1,10,77,68,014,42,78,29,286,34,76,32,074,43,87,33,123,35*69
$GLGSV,3,2,10,67,34,240,47,68,36,304,42,86,37,063,42,85,08,014,30*66
$GLGSV,3,3,10,66,03,198,,69,07,346,30*6D
$GAGSV,3,1,12,30,63,261,46,29,16,321,38,11,15,043,,27,12,252,21*6C
$GAGSV,3,2,12,08,37,193,37,36,17,093,,18,58,129,,07,52,271,48*66
$GAGSV,3,3,12,02,59,060,43,10,06,019,,34,02,139,,25,08,068,*64
$GBGSV,5,1,20,24,71,302,44,29,11,034,,12,15,168,35,25,13,282,*63
$GBGSV,5,2,20,40,12,040,23,05,20,130,,11,16,230,,41,19,312,42*64
$GBGSV,5,3,20,07,17,052,31,14,19,232,34,44,33,151,36,33,26,259,37*6C
$GBGSV,5,4,20,10,29,057,31,56,36,055,,35,43,089,39,26,52,090,45*65
$GBGSV,5,5,20,43,04,250,,02,04,109,,42,07,209,21,60,08,111,*65
$GPGGA,121507.00,,,,,0,00,,,M,,M,,*48
$PTNL,GGK,121507.00,010125,4742.4458239,N,01617.9739994,E,1,21,1.3,EHT667.6041,M*4E
$GPGGQ,121507.00,010125,4742.4458239,N,01617.9739994,E,1,21,3.324,624.3931,M*38
$GPGFA,121507.00,18.376,21.164,1.933,0.807,341.727,2.581,,VVV*05
$GPLLK,121507.00,010125,,M,,M,1,21,1.5,,M*0C
$GNGMP,121507.00,,,,,DAAA,21,0.7,,,,*52
$GPGMP,121507.00,,,,,,05,,,,2.2,123*78
$GLGMP,121507.00,,,,,,05,,,,,*7A
$GAGMP,121507.00,,,,,,05,,,,,*77
$GBGMP,121507.00,,,,,,06,,,,,*77
$PSSN,SNC,[0,303325000,2347]*40
$GPZDA,121512.00,01,01,2025,,*67
$GPDTM,W84,,00.0000000,N,00.0000000,E,00.0000000,W84*5F
$GPRMC,121512.00,A,4742.4458342,N,01617.9740014,E,0.0,,010125,5.1,E,D*1A
$GPGLL,4742.4458342,N,01617.9740014,E,121512.00,A,D*6B
$GPGGA,121512.00,4742.4458342,N,01617.9740014,E,2,21,0.7,624.4009,M,43.2110,M,2.4,0123*4C
$GNGNS,121512.00,4742.4458342,N,01617.9740014,E,DAAA,21,0.7,624.4009,43.2110,,*56
$GPGNS,121512.00,,,,,,05,,,,2.4,123*7A
$GLGNS,121512.00,,,,,,06,,,,,*7D
$GAGNS,121512.00,,,,,,05,,,,,*73
$GBGNS,121512.00,,,,,,05,,,,,*70
$GPLLQ,121512.00,010125,,M,,M,1,21,3.961,,M*1B
$GPVTG,,T,,M,0.01,N,0.01,K,D*26
$GPHDT,,T*1B
$GPTHS,,V*0E
$GPROT,,V*08
$PSSN,HRP,121512.00,010125,,,,,,,00,0,,*65
$PTNL,AVR,121512.00,,Yaw,,Tilt,,,,0,,00*33
$GPGSA,A,3,12,19,24,25,32,,,,,,,,1.3,0.7,1.1*3C
$GPGSA,A,3,67,68,76,77,86,87,,,,,,,1.3,0.7,1.1*38
$GPGSA,A,3,02,07,08,29,30,,,,,,,,1.3,0.7,1.1*32
$GPGSA,A,3,24,26,35,41,44,,,,,,,,1.3,0.7,1.1*36
$GPGST,121512.00,5.188,2.297,0.968,342.106,2.206,1.160,3.078*50
$GPGBS,121512.00,7.095,4.383,11.206,25,0.0001,2.248,0.928*61
$GPGRS,121512.00,1,-1.1,0.1,0.5,2.2,-2.6,,,,,,,*64
$GPGRS,121512.00,1,8.5,-4.3,-2.9,-6.3,2.5,-5.7,,,,,,*4B
$GPGRS,121512.00,1,-0.1,-0.6,-0.1,-2.9,0.1,,,,,,,*68
$GPGRS,121512.00,1,-1.2,1.5,-1.3,-0.6,13.1,,,,,,,*79
$GPGSV,4,1,15,24,77,147,44,17,17,042,32,06,18,097,30,15,14,189,31*7A
$GPGSV,4,2,15,32,21,317,40,25,27,259,43,19,43,060,47,12,68,267,49*7A
$GPGSV,4,3,15,11,07,131,,10,05,284,26,22,10,068,,36,35,170,35*7C
$GPGSV,4,4,15,34,31,208,35,49,34,195,35,61,03,257,*41
$GLGSV,3,1,10,77,68,014,42,78,29,286,33,76,32,074,43,87,33,123,35*6E
$GLGSV,3,2,10,67,34,240,47,68,36,304,40,86,37,063,44,85,08,014,28*6B
$GLGSV,3,3,10,66,03,198,,69,07,346,30*6D
$GAGSV,3,1,12,30,63,261,45,29,16,321,38,11,15,043,,27,12,252,23*6D
$GAGSV,3,2,12,08,37,193,37,36,17,093,,18,58,129,,07,52,271,48*66
$GAGSV,3,3,12,02,59,060,43,10,06,019,,34,02,139,,25,08,068,*64
$GBGSV,5,1,20,24,71,302,43,29,11,034,,12,15,168,34,25,13,282,*65
$GBGSV,5,2,20,40,12,040,21,05,20,130,,11,16,230,,41,19,312,42*66
$GBGSV,5,3,20,07,17,052,31,14,19,232,33,44,33,151,35,33,26,259,35*6A
$GBGSV,5,4,20,10,29,057,31,56,36,055,,35,43,089,38,26,52,090,44*65
$GBGSV,5,5,20,43,04,250,,02,04,109,,42,07,209,22,60,08,111,*66
$GPGGA,121512.00,,,,,0,00,,,M,,M,,*4C
$PTNL,GGK,121512.00,010125,4742.4458342,N,01617.9740014,E,1,21,1.3,EHT667.6120,M*4E
$GPGGQ,121512.00,010125,4742.4458342,N,01617.9740014,E,1,21,3.961,624.4009,M*30
$GPGFA,121512.00,21.842,25.244,2.297,0.968,342.106,3.078,,VVV*08
$GPLLK,121512.00,010125,,M,,M,1,21,1.5,,M*08
$GNGMP,121512.00,,,,,DAAA,21,0.7,,,,*56
$GPGMP,121512.00,,,,,,05,,,,2.4,123*7A
$GLGMP,121512.00,,,,,,06,,,,,*7D
$GAGMP,121512.00,,,,,,05,,,,,*73
$GBGMP,121512.00,,,,,,05,,,,,*70
$PSSN,SNC,[0,303330000,2347]*44
$GPZDA,121517.00,01,01,2025,,*62
$GPDTM,W84,,00.0000000,N,00.0000000,E,00.0000000,W84*5F
$GPRMC,121517.00,A,4742.4458512,N,01617.9739990,E,0.0,,010125,5.1,E,D*17
$GPGLL,4742.4458512,N,01617.9739990,E,121517.00,A,D*66
$GPGGA,121517.00,4742.4458512,N,01617.9739990,E,2,21,0.7,624.4194,M,43.2110,M,3.4,0123*45
$GNGNS,121517.00,4742.4458512,N,01617.9739990,E,DAAA,21,0.7,624.4194,43.2110,,*5E
$GPGNS,121517.00,,,,,,05,,,,3.4,123*7E
$GLGNS,121517.00,,,,,,06,,,,,*78
$GAGNS,121517.00,,,,,,05,,,,,*76
$GBGNS,121517.00,,,,,,05,,,,,*75
$GPLLQ,121517.00,010125,,M,,M,1,21,4.121,,M*15
$GPVTG,,T,,M,0.00,N,0.01,K,D*27
$GPHDT,,T*1B
$GPTHS,,V*0E
$GPROT,,V*08
$PSSN,HRP,121517.00,010125,,,,,,,00,0,,*60
$PTNL,AVR,121517.00,,Yaw,,Tilt,,,,0,,00*36
$GPGSA,A,3,12,19,24,25,32,,,,,,,,1.3,0.7,1.1*3C
$GPGSA,A,3,67,68,76,77,86,87,,,,,,,1.3,0.7,1.1*38
$GPGSA,A,3,02,07,08,29,30,,,,,,,,1.3,0.7,1.1*32
$GPGSA,A,3,24,26,35,41,44,,,,,,,,1.3,0.7,1.1*36
$GPGST,121517.00,5.883,2.394,1.022,342.749,2.306,1.207,3.195*5F
$GPGBS,121517.00,7.161,4.461,11.302,25,0.0001,2.389,0.942*60
$GPGRS,121517.00,1,-1.4,0.1,0.9,2.4,-2.4,,,,,,,*6C
$GPGRS,121517.00,1,8.7,-0.2,-2.1,-6.6,4.1,-2.2,,,,,,*44
$GPGRS,121517.00,1,-0.1,-0.2,0.7,-2.9,0.4,,,,,,,*47
$GPGRS,121517.00,1,-1.3,0.8,-0.3,-0.7,17.7,,,,,,,*73
$GPGSV,4,1,15,24,77,147,46,17,17,042,27,06,18,097,32,15,14,189,30*7F
$GPGSV,4,2,15,32,21,317,38,25,27,259,42,19,43,060,46,12,68,267,48*74
$GPGSV,4,3,15,11,07,131,,10,05,283,27,22,10,068,,36,35,170,35*7A
$GPGSV,4,4,15,34,31,208,35,49,34,195,36,61,03,257,*42
$GLGSV,3,1,10,77,68,014,43,78,29,286,38,76,32,074,43,87,33,123,37*66
$GLGSV,3,2,10,67,34,240,47,68,36,304,43,86,37,063,45,85,07,014,31*6E
$GLGSV,3,3,10,66,03,198,,69,07,346,27*6B
$GAGSV,3,1,12,30,63,261,45,29,16,321,37,11,15,043,,27,12,252,24*65
$GAGSV,3,2,12,08,37,193,37,36,17,093,,18,58,129,,07,52,270,48*67
$GAGSV,3,3,12,02,59,060,42,10,06,019,29,34,02,139,,25,08,068,*6E
$GBGSV,5,1,20,24,71,302,43,29,11,034,,12,15,168,33,25,13,282,*62
$GBGSV,5,2,20,40,12,040,21,05,20,130,,11,16,230,,41,19,312,41*65
$GBGSV,5,3,20,07,17,052,31,14,19,232,32,44,33,151,36,33,26,259,34*69
$GBGSV,5,4,20,10,29,057,31,56,36,055,,35,43,089,39,26,52,090,43*63
$GBGSV,5,5,20,43,04,250,,02,04,109,,42,07,209,23,60,08,111,*67
$GPGGA,121517.00,,,,,0,00,,,M,,M,,*49
$PTNL,GGK,121517.00,010125,4742.4458512,N,01617.9739990,E,1,21,1.3,EHT667.6304,M*47
$GPGGQ,121517.00,010125,4742.4458512,N,01617.9739990,E,1,21,4.121,624.4194,M*33
$GPGFA,121517.00,22.760,26.202,2.394,1.022,342.749,3.195,,VVV*0B
$GPLLK,121517.00,010125,,M,,M,1,21,1.5,,M*0D
$GNGMP,121517.00,,,,,DAAA,21,0.7,,,,*53
$GPGMP,121517.00,,,,,,05,,,,3.4,123*7E
$GLGMP,121517.00,,,,,,06,,,,,*78
$GAGMP,121517.00,,,,,,05,,,,,*76
$GBGMP,121517.00,,,,,,05,,,,,*75
$PSSN,SNC,[0,303335000,2347]*41
$GPZDA,121522.00,01,01,2025,,*64
$GPDTM,W84,,00.0000000,N,00.0000000,E,00.0000000,W84*5F
$GPRMC,121522.00,A,4742.4458710,N,01617.9739959,E,0.0,,010125,5.1,E,D*14
$GPGLL,4742.4458710,N,01617.9739959,E,121522.00,A,D*65
$GPGGA,121522.00,4742.4458710,N,01617.9739959,E,2,20,0.7,624.4197,M,43.2110,M,1.5,0123*47
$GNGNS,121522.00,4742.4458710,N,01617.9739959,E,DAAA,20,0.7,624.4197,43.2110,,*5F
$GPGNS,121522.00,,,,,,04,,,,1.5,123*7A
$GLGNS,121522.00,,,,,,07,,,,,*7F
$GAGNS,121522.00,,,,,,05,,,,,*70
$GBGNS,121522.00,,,,,,04,,,,,*72
$GPLLQ,121522.00,010125,,M,,M,1,20,6.556,,M*14
$GPVTG,,T,,M,0.01,N,0.01,K,D*26
$GPHDT,,T*1B
$GPTHS,,V*0E
$GPROT,,V*08
$PSSN,HRP,121522.00,010125,,,,,,,00,0,,*66
$PTNL,AVR,121522.00,,Yaw,,Tilt,,,,0,,00*30
$GPGSA,A,3,12,19,24,25,,,,,,,,,1.2,0.7,1.0*3D
$GPGSA,A,3,67,68,69,76,77,86,87,,,,,,1.2,0.7,1.0*37
$GPGSA,A,3,02,07,08,29,30,,,,,,,,1.2,0.7,1.0*32
$GPGSA,A,3,24,26,41,44,,,,,,,,,1.2,0.7,1.0*30
$GPGST,121522.00,9.802,4.513,1.230,340.389,4.271,1.907,4.594*56
$GPGBS,121522.00,8.396,4.802,11.076,78,0.0001,22.912,6.191*58
$GPGRS,121522.00,1,-1.6,-0.9,1.4,2.1,,,,,,,,*41
$GPGRS,121522.00,1,7.6,4.6,12.6,-3.4,-6.6,2.2,-1.5,,,,,*7F
$GPGRS,121522.00,1,-0.2,-0.6,0.9,-3.3,-0.1,,,,,,,*6B
$GPGRS,121522.00,1,-2.0,-0.5,-1.9,22.2,,,,,,,,*59
$GPGSV,4,1,15,24,77,147,46,17,17,042,31,06,18,097,31,15,14,189,31*7A
$GPGSV,4,2,15,32,21,317,34,25,27,259,43,19,43,060,47,12,68,267,48*78
$GPGSV,4,3,15,11,07,131,,10,05,283,27,22,09,068,,36,35,170,35*72
$GPGSV,4,4,15,34,31,208,34,49,34,195,35,61,03,257,*40
$GLGSV,3,1,10,77,68,014,43,78,29,286,,76,32,074,42,87,33,123,39*62
$GLGSV,3,2,10,67,34,240,46,68,36,304,46,86,37,063,45,85,07,014,*68
$GLGSV,3,3,10,66,02,198,,69,07,346,35*69
$GAGSV,3,1,12,30,63,261,45,29,16,321,36,11,15,043,,27,12,252,24*64
$GAGSV,3,2,12,08,37,193,38,36,17,093,,18,58,129,,07,52,270,48*68
$GAGSV,3,3,12,02,59,060,42,10,06,019,28,34,02,139,,25,08,068,*6F
$GBGSV,5,1,20,24,71,302,43,29,11,034,,12,15,168,31,25,13,282,*60
$GBGSV,5,2,20,40,12,040,22,05,20,130,,11,16,230,,41,20,312,42*6F
$GBGSV,5,3,20,07,17,052,31,14,19,232,31,44,33,151,37,33,26,259,34*6B
$GBGSV,5,4,20,10,29,057,32,56,36,055,,35,43,089,26,26,52,090,44*69
$GBGSV,5,5,20,43,04,250,,02,04,109,,42,07,209,23,60,08,111,*67
$GPGGA,121522.00,,,,,0,00,,,M,,M,,*4F
$PTNL,GGK,121522.00,010125,4742.4458710,N,01617.9739959,E,1,20,1.2,EHT667.6307,M*47
$GPGGQ,121522.00,010125,4742.4458710,N,01617.9739959,E,1,20,6.556,624.4197,M*34
$GPGFA,121522.00,42.905,37.669,4.513,1.230,340.389,4.594,,VVV*09
$GPLLK,121522.00,010125,,M,,M,1,20,1.4,,M*0B
$GNGMP,121522.00,,,,,DAAA,20,0.7,,,,*54
$GPGMP,121522.00,,,,,,04,,,,1.5,123*7A
$GLGMP,121522.00,,,,,,07,,,,,*7F
$GAGMP,121522.00,,,,,,05,,,,,*70
$GBGMP,121522.00,,,,,,04,,,,,*72
$PSSN,SNC,[0,303340000,2347]*43
$GPZDA,121527.00,01,01,2025,,*61
$GPDTM,W84,,00.0000000,N,00.0000000,E,00.0000000,W84*5F
$GPRMC,121527.00,A,4742.4458805,N,01617.9740025,E,0.0,,010125,5.1,E,D*16
$GPGLL,4742.4458805,N,01617.9740025,E,121527.00,A,D*67
$GPGGA,121527.00,4742.4458805,N,01617.9740025,E,2,22,0.6,624.4343,M,43.2110,M,2.5,0123*4E
$GNGNS,121527.00,4742.4458805,N,01617.9740025,E,DAAA,22,0.6,624.4343,43.2110,,*55
$GPGNS,121527.00,,,,,,04,,,,2.5,123*7C
$GLGNS,121527.00,,,,,,07,,,,,*7A
$GAGNS,121527.00,,,,,,05,,,,,*75
$GBGNS,121527.00,,,,,,06,,,,,*75
$GPLLQ,121527.00,010125,,M,,M,1,22,5.192,,M*1C
$GPVTG,,T,,M,0.00,N,0.00,K,D*26
$GPHDT,,T*1B
$GPTHS,,V*0E
$GPROT,,V*08
$PSSN,HRP,121527.00,010125,,,,,,,00,0,,*63
$PTNL,AVR,121527.00,,Yaw,,Tilt,,,,0,,00*35
$GPGSA,A,3,12,19,24,25,,,,,,,,,1.2,0.6,1.0*3C
$GPGSA,A,3,67,68,69,76,77,86,87,,,,,,1.2,0.6,1.0*36
$GPGSA,A,3,02,07,08,29,30,,,,,,,,1.2,0.6,1.0*33
$GPGSA,A,3,24,26,33,35,41,44,,,,,,,1.2,0.6,1.0*37
$GPGST,121527.00,8.966,3.562,1.128,341.526,3.397,1.555,3.606*52
$GPGBS,121527.00,8.449,4.889,11.105,44,0.0001,20.501,8.597*51
$GPGRS,121527.00,1,-1.4,-0.7,0.6,1.8,,,,,,,,*41
$GPGRS,121527.00,1,5.9,10.2,13.0,-5.1,-6.0,1.5,-0.6,,,,,*42
$GPGRS,121527.00,1,-0.3,-0.5,1.5,-3.8,-0.2,,,,,,,*69
$GPGRS,121527.00,1,-1.6,-0.3,-7.0,18.1,-3.0,20.5,,,,,,*43
$GPGSV,4,1,15,24,77,147,45,17,17,042,30,06,18,097,30,15,14,189,30*78
$GPGSV,4,2,15,32,21,317,30,25,27,259,41,19,43,060,47,12,68,267,48*7E
$GPGSV,4,3,15,11,07,131,,10,05,283,30,22,09,068,,36,35,170,35*74
$GPGSV,4,4,15,34,31,208,34,49,34,195,35,61,03,257,*40
$GLGSV,3,1,10,77,68,014,44,78,29,286,,76,32,074,40,87,33,123,41*68
$GLGSV,3,2,10,67,34,240,44,68,36,304,46,86,37,063,45,85,07,014,*6A
$GLGSV,3,3,10,66,02,198,,69,07,346,36*6A
$GAGSV,3,1,12,30,63,261,45,29,16,321,35,11,15,043,,27,12,252,24*67
$GAGSV,3,2,12,08,37,193,38,36,17,093,,18,58,129,,07,52,270,48*68
$GAGSV,3,3,12,02,59,060,42,10,06,018,28,34,02,139,,25,08,068,*6E
$GBGSV,5,1,20,24,71,302,43,29,11,034,,12,15,168,29,25,13,282,*69
$GBGSV,5,2,20,40,12,040,21,05,20,130,,11,16,230,,41,20,312,43*6D
$GBGSV,5,3,20,07,17,052,31,14,19,232,29,44,33,151,38,33,26,259,35*6C
$GBGSV,5,4,20,10,29,057,32,56,36,055,,35,43,089,40,26,52,090,44*69
$GBGSV,5,5,20,43,04,250,,02,04,109,,42,07,209,24,60,08,111,*60
$GPGGA,121527.00,,,,,0,00,,,M,,M,,*4A
$PTNL,GGK,121527.00,010125,4742.4458805,N,01617.9740025,E,1,22,1.2,EHT667.6454,M*46
$GPGGQ,121527.00,010125,4742.4458805,N,01617.9740025,E,1,22,5.192,624.4343,M*30
$GPGFA,121527.00,33.865,29.567,3.562,1.128,341.526,3.606,,VVV*09
$GPLLK,121527.00,010125,,M,,M,1,22,1.4,,M*0C
$GNGMP,121527.00,,,,,DAAA,22,0.6,,,,*52
$GPGMP,121527.00,,,,,,04,,,,2.5,123*7C
$GLGMP,121527.00,,,,,,07,,,,,*7A
$GAGMP,121527.00,,,,,,05,,,,,*75
$GBGMP,121527.00,,,,,,06,,,,,*75
$PSSN,SNC,[0,303345000,2347]*46
$GPZDA,121532.00,01,01,2025,,*65
$GPDTM,W84,,00.0000000,N,00.0000000,E,00.0000000,W84*5F
$GPRMC,121532.00,A,4742.4458863,N,01617.9740075,E,0.0,,010125,5.1,E,D*17
$GPGLL,4742.4458863,N,01617.9740075,E,121532.00,A,D*66
$GPGGA,121532.00,4742.4458863,N,01617.9740075,E,2,21,0.7,624.4596,M,43.2110,M,3.3,0123*44
$GNGNS,121532.00,4742.4458863,N,01617.9740075,E,DAAA,21,0.7,624.4596,43.2110,,*58
$GPGNS,121532.00,,,,,,04,,,,3.3,123*7F
$GLGNS,121532.00,,,,,,07,,,,,*7E
$GAGNS,121532.00,,,,,,04,,,,,*70
$GBGNS,121532.00,,,,,,06,,,,,*71
$GPLLQ,121532.00,010125,,M,,M,1,21,5.497,,M*1B
$GPVTG,,T,,M,0.00,N,0.01,K,D*27
$GPHDT,,T*1B
$GPTHS,,V*0E
$GPROT,,V*08
$PSSN,HRP,121532.00,010125,,,,,,,00,0,,*67
$PTNL,AVR,121532.00,,Yaw,,Tilt,,,,0,,00*31
$GPGSA,A,3,12,19,24,25,,,,,,,,,1.2,0.7,1.0*3D
$GPGSA,A,3,67,68,69,76,77,86,87,,,,,,1.2,0.7,1.0*37
$GPGSA,A,3,02,07,08,30,,,,,,,,,1.2,0.7,1.0*39
$GPGSA,A,3,24,26,33,35,41,44,,,,,,,1.2,0.7,1.0*36
$GPGST,121532.00,10.546,3.823,1.199,341.981,3.654,1.643,3.764*69
$GPGBS,121532.00,9.585,4.748,11.476,35,0.0001,22.856,8.569*5C
$GPGRS,121532.00,1,-1.2,-0.1,-0.0,1.6,,,,,,,,*60
$GPGRS,121532.00,1,4.2,10.4,15.4,-7.1,-6.3,1.7,3.5,,,,,*66
$GPGRS,121532.00,1,0.1,-0.4,1.9,0.3,,,,,,,,*6B
$GPGRS,121532.00,1,-1.6,-0.6,17.3,22.9,-2.9,15.7,,,,,,*50
$GPGSV,4,1,15,24,76,147,44,17,17,042,30,06,18,097,28,15,14,189,29*79
$GPGSV,4,2,15,32,21,317,24,25,27,259,40,19,43,060,46,12,68,267,47*74
$GPGSV,4,3,15,11,07,131,,10,05,283,30,22,09,068,,36,35,170,35*74
$GPGSV,4,4,15,34,31,208,35,49,34,195,36,61,03,257,*42
$GLGSV,3,1,10,77,67,015,44,78,29,286,,76,32,074,38,87,33,123,43*6B
$GLGSV,3,2,10,67,34,240,44,68,36,304,44,86,37,063,44,85,07,014,*69
$GLGSV,3,3,10,66,02,198,,69,07,346,36*6A
$GAGSV,3,1,12,30,63,262,45,29,16,321,34,11,15,043,,27,12,252,22*63
$GAGSV,3,2,12,08,37,193,37,36,17,093,,18,58,129,,07,52,270,49*66
$GAGSV,3,3,12,02,58,060,41,10,06,018,25,34,02,139,,25,08,068,*61
$GBGSV,5,1,20,24,71,302,44,29,11,034,,12,15,168,27,25,13,282,*60
$GBGSV,5,2,20,40,12,040,21,05,20,130,,11,16,229,,41,20,312,43*65
$GBGSV,5,3,20,07,17,052,31,14,19,232,24,44,33,151,38,33,26,259,36*62
$GBGSV,5,4,20,10,29,057,32,56,36,055,,35,43,089,39,26,52,090,43*60
$GBGSV,5,5,20,43,04,250,,02,04,109,,42,07,209,24,60,08,111,*60
$GPGGA,121532.00,,,,,0,00,,,M,,M,,*4E
$PTNL,GGK,121532.00,010125,4742.4458863,N,01617.9740075,E,1,21,1.2,EHT667.6706,M*40
$GPGGQ,121532.00,010125,4742.4458863,N,01617.9740075,E,1,21,5.497,624.4596,M*3C
$GPGFA,121532.00,36.344,30.867,3.823,1.199,341.981,3.764,,VVV*03
$GPLLK,121532.00,010125,,M,,M,1,21,1.4,,M*0B
$GNGMP,121532.00,,,,,DAAA,21,0.7,,,,*54
$GPGMP,121532.00,,,,,,04,,,,3.3,123*7F
$GLGMP,121532.00,,,,,,07,,,,,*7E
$GAGMP,121532.00,,,,,,04,,,,,*70
$GBGMP,121532.00,,,,,,06,,,,,*71
$PSSN,SNC,[0,303350000,2347]*42
$GPZDA,121537.00,01,01,2025,,*60
$GPDTM,W84,,00.0000000,N,00.0000000,E,00.0000000,W84*5F
$GPRMC,121537.00,A,4742.4458902,N,01617.9740122,E,0.0,,010125,5.1,E,D*17
$GPGLL,4742.4458902,N,01617.9740122,E,121537.00,A,D*66
$GPGGA,121537.00,4742.4458902,N,01617.9740122,E,2,22,0.7,624.4816,M,43.2110,M,1.3,0123*40
$GNGNS,121537.00,4742.4458902,N,01617.9740122,E,DAAA,22,0.7,624.4816,43.2110,,*5E
$GPGNS,121537.00,,,,,,04,,,,1.3,123*78
$GLGNS,121537.00,,,,,,07,,,,,*7B
$GAGNS,121537.00,,,,,,04,,,,,*75
$GBGNS,121537.00,,,,,,07,,,,,*75
$GPLLQ,121537.00,010125,,M,,M,1,22,5.333,,M*14
$GPVTG,,T,,M,0.00,N,0.01,K,D*27
$GPHDT,,T*1B
$GPTHS,,V*0E
$GPROT,,V*08
$PSSN,HRP,121537.00,010125,,,,,,,00,0,,*62
$PTNL,AVR,121537.00,,Yaw,,Tilt,,,,0,,00*34
$GPGSA,A,3,12,19,24,25,,,,,,,,,1.3,0.7,1.1*3D
$GPGSA,A,3,67,68,76,77,78,86,87,,,,,,1.3,0.7,1.1*37
$GPGSA,A,3,02,07,08,30,,,,,,,,,1.3,0.7,1.1*39
$GPGSA,A,3,14,24,26,33,35,41,44,,,,,,1.3,0.7,1.1*33
$GPGST,121537.00,9.673,3.732,1.158,342.346,3.574,1.581,3.630*5D
$GPGBS,121537.00,9.558,4.803,10.997,35,0.0001,24.469,8.570*54
$GPGRS,121537.00,1,-1.4,-0.1,0.3,1.9,,,,,,,,*42
$GPGRS,121537.00,1,3.3,4.9,-7.2,-7.2,-12.4,0.5,6.1,,,,,*76
$GPGRS,121537.00,1,0.2,-0.3,1.4,0.5,,,,,,,,*61
$GPGRS,121537.00,1,2.8,-1.9,-0.3,15.7,24.5,-2.6,14.2,,,,,*7C
$GPGSV,4,1,15,24,76,147,45,17,17,042,33,06,18,097,25,15,14,189,29*76
$GPGSV,4,2,15,32,21,317,25,25,27,259,38,19,43,060,46,12,68,267,47*7A
$GPGSV,4,3,15,11,07,131,,10,05,283,29,22,09,068,,36,35,170,36*7F
$GPGSV,4,4,15,34,31,208,35,49,34,195,36,61,03,257,*42
$GLGSV,3,1,10,77,67,015,44,78,29,287,42,76,32,074,37,87,33,123,42*62
$GLGSV,3,2,10,67,34,240,44,68,36,304,44,86,37,062,44,85,07,014,22*68
$GLGSV,3,3,10,66,02,198,,69,07,346,35*69
$GAGSV,3,1,12,30,63,262,44,29,16,321,33,11,15,043,,27,12,252,19*6D
$GAGSV,3,2,12,08,37,193,37,36,17,092,,18,58,129,,07,52,270,49*67
$GAGSV,3,3,12,02,58,060,41,10,06,018,24,34,02,139,,25,08,068,*60
$GBGSV,5,1,20,24,71,302,45,29,11,034,,12,15,168,27,25,13,282,*61
$GBGSV,5,2,20,40,12,040,21,05,20,130,,11,16,229,,41,20,312,43*65
$GBGSV,5,3,20,07,17,052,30,14,19,232,41,44,33,151,36,33,26,259,35*6D
$GBGSV,5,4,20,10,29,057,32,56,36,055,,35,43,089,38,26,52,090,42*60
$GBGSV,5,5,20,43,04,250,,02,04,109,,42,07,209,25,60,08,111,*61
$GPGGA,121537.00,,,,,0,00,,,M,,M,,*4B
$PTNL,GGK,121537.00,010125,4742.4458902,N,01617.9740122,E,1,22,1.3,EHT667.6926,M*4E
$GPGGQ,121537.00,010125,4742.4458902,N,01617.9740122,E,1,22,5.333,624.4816,M*33
$GPGFA,121537.00,35.487,29.762,3.732,1.158,342.346,3.630,,VVV*0F
$GPLLK,121537.00,010125,,M,,M,1,22,1.5,,M*0C
$GNGMP,121537.00,,,,,DAAA,22,0.7,,,,*52
$GPGMP,121537.00,,,,,,04,,,,1.3,123*78
$GLGMP,121537.00,,,,,,07,,,,,*7B
$GAGMP,121537.00,,,,,,04,,,,,*75
$GBGMP,121537.00,,,,,,07,,,,,*75
$PSSN,SNC,[0,303355000,2347]*47
$GPZDA,121542.00,01,01,2025,,*62
$GPDTM,W84,,00.0000000,N,00.0000000,E,00.0000000,W84*5F
$GPRMC,121542.00,A,4742.4458992,N,01617.9740103,E,0.0,,010125,5.1,E,D*1F
$GPGLL,4742.4458992,N,01617.9740103,E,121542.00,A,D*6E
$GPGGA,121542.00,4742.4458992,N,01617.9740103,E,2,19,0.7,624.5004,M,43.2110,M,2.3,0123*49
$GNGNS,121542.00,4742.4458992,N,01617.9740103,E,DAAA,19,0.7,624.5004,43.2110,,*54
$GPGNS,121542.00,,,,,,03,,,,2.3,123*7E
$GLGNS,121542.00,,,,,,07,,,,,*79
$GAGNS,121542.00,,,,,,04,,,,,*77
$GBGNS,121542.00,,,,,,05,,,,,*75
$GPLLQ,121542.00,010125,,M,,M,1,19,8.921,,M*1A
$GPVTG,,T,,M,0.00,N,0.01,K,D*27
$GPHDT,,T*1B
$GPTHS,,V*0E
$GPROT,,V*08
$PSSN,HRP,121542.00,010125,,,,,,,00,0,,*60
$PTNL,AVR,121542.00,,Yaw,,Tilt,,,,0,,00*36
$GPGSA,A,3,12,19,24,,,,,,,,,,1.3,0.7,1.1*3A
$GPGSA,A,3,67,68,76,77,78,86,87,,,,,,1.3,0.7,1.1*37
$GPGSA,A,3,02,07,08,30,,,,,,,,,1.3,0.7,1.1*39
$GPGSA,A,3,07,14,24,26,41,,,,,,,,1.3,0.7,1.1*32
$GPGST,121542.00,9.267,3.784,1.615,359.987,3.784,1.615,7.916*5C
$GPGBS,121542.00,13.755,6.747,28.852,24,0.0001,1.373,0.625*5C
$GPGRS,121542.00,1,-1.4,-0.4,1.4,,,,,,,,,*65
$GPGRS,121542.00,1,4.1,4.6,-7.1,-8.6,-8.0,-0.5,6.6,,,,,*63
$GPGRS,121542.00,1,0.3,-0.7,1.3,1.0,,,,,,,,*65
$GPGRS,121542.00,1,27.2,1.9,-1.8,-0.4,-2.2,,,,,,,*7E
$GPGSV,4,1,15,24,76,147,46,17,17,042,33,06,18,097,24,15,14,189,28*75
$GPGSV,4,2,15,32,21,317,33,25,27,259,35,19,43,060,46,12,68,267,47*70
$GPGSV,4,3,15,11,07,131,,10,05,283,31,22,09,068,,36,35,170,35*75
$GPGSV,4,4,15,34,31,208,35,49,34,195,36,61,03,257,*42
$GLGSV,3,1,10,77,67,015,43,78,29,287,42,76,32,074,39,87,33,123,40*69
$GLGSV,3,2,10,67,34,240,45,68,36,304,44,86,37,062,46,85,07,014,*6B
$GLGSV,3,3,10,66,02,198,,69,07,346,34*68
$GAGSV,3,1,12,30,63,262,45,29,16,321,32,11,15,043,,27,12,252,27*60
$GAGSV,3,2,12,08,37,193,38,36,17,092,,18,58,129,,07,52,270,49*68
$GAGSV,3,3,12,02,58,060,41,10,06,018,24,34,02,139,,25,08,068,*60
$GBGSV,5,1,20,24,71,302,46,29,11,034,,12,15,168,25,25,13,282,*60
$GBGSV,5,2,20,40,12,040,21,05,20,130,,11,16,229,,41,20,312,43*65
$GBGSV,5,3,20,07,17,052,30,14,19,232,27,44,33,151,33,33,26,259,34*69
$GBGSV,5,4,20,10,29,057,33,56,36,055,,35,43,089,34,26,52,090,41*6E
$GBGSV,5,5,20,43,04,250,,02,04,109,,42,07,209,25,60,08,111,*61
$GPGGA,121542.00,,,,,0,00,,,M,,M,,*49
$PTNL,GGK,121542.00,010125,4742.4458992,N,01617.9740103,E,1,19,1.3,EHT667.7114,M*46
$GPGGQ,121542.00,010125,4742.4458992,N,01617.9740103,E,1,19,8.921,624.5004,M*3D
$GPGFA,121542.00,35.975,64.909,3.784,1.615,359.987,7.916,,VVV*06
$GPLLK,121542.00,010125,,M,,M,1,19,1.5,,M*06
$GNGMP,121542.00,,,,,DAAA,19,0.7,,,,*58
$GPGMP,121542.00,,,,,,03,,,,2.3,123*7E
$GLGMP,121542.00,,,,,,07,,,,,*79
$GAGMP,121542.00,,,,,,04,,,,,*77
$GBGMP,121542.00,,,,,,05,,,,,*75
$PSSN,SNC,[0,303360000,2347]*41
$GPZDA,121547.00,01,01,2025,,*67
$GPDTM,W84,,00.0000000,N,00.0000000,E,00.0000000,W84*5F
$GPRMC,121547.00,A,4742.4459088,N,01617.9740034,E,0.0,,010125,5.1,E,D*1C
$GPGLL,4742.4459088,N,01617.9740034,E,121547.00,A,D*6D
$GPGGA,121547.00,4742.4459088,N,01617.9740034,E,2,19,0.7,624.4985,M,43.2110,M,2.8,0123*40
$GNGNS,121547.00,4742.4459088,N,01617.9740034,E,DAAA,19,0.7,624.4985,43.2110,,*56
$GPGNS,121547.00,,,,,,04,,,,2.8,123*77
$GLGNS,121547.00,,,,,,07,,,,,*7C
$GAGNS,121547.00,,,,,,04,,,,,*72
$GBGNS,121547.00,,,,,,04,,,,,*71
$GPLLQ,121547.00,010125,,M,,M,1,19,6.760,,M*1A
$GPVTG,,T,,M,0.01,N,0.02,K,D*25
$GPHDT,,T*1B
$GPTHS,,V*0E
$GPROT,,V*08
$PSSN,HRP,121547.00,010125,,,,,,,00,0,,*65
$PTNL,AVR,121547.00,,Yaw,,Tilt,,,,0,,00*33
$GPGSA,A,3,12,19,24,32,,,,,,,,,1.4,0.7,1.1*3C
$GPGSA,A,3,67,68,76,77,78,86,87,,,,,,1.4,0.7,1.1*30
$GPGSA,A,3,02,07,08,30,,,,,,,,,1.4,0.7,1.1*3E
$GPGSA,A,3,07,24,26,41,,,,,,,,,1.4,0.7,1.1*30
$GPGST,121547.00,9.222,3.565,1.008,358.116,3.563,1.014,5.655*58
$GPGBS,121547.00,15.598,4.422,23.820,24,0.0001,1.254,0.641*56
$GPGRS,121547.00,1,-0.9,-0.5,1.3,0.9,,,,,,,,*4D
$GPGRS,121547.00,1,5.1,4.5,-6.9,-8.4,-6.0,0.8,3.8,,,,,*4A
$GPGRS,121547.00,1,-0.1,-1.0,1.6,0.7,,,,,,,,*4A
$GPGRS,121547.00,1,28.0,-2.2,-1.6,-2.4,,,,,,,,*5C
$GPGSV,4,1,15,24,76,147,46,17,17,042,33,06,18,097,25,15,14,189,27*7B
$GPGSV,4,2,15,32,21,317,39,25,27,259,31,19,43,060,45,12,68,267,47*7D
$GPGSV,4,3,15,11,07,131,,10,05,283,31,22,09,068,,36,35,170,35*75
$GPGSV,4,4,15,34,31,208,35,49,34,195,36,61,03,257,*42
$GLGSV,3,1,10,77,67,015,43,78,29,287,41,76,32,074,39,87,33,123,38*65
$GLGSV,3,2,10,67,34,240,45,68,36,304,43,86,37,062,46,85,07,014,*6C
$GLGSV,3,3,10,66,02,198,,69,07,346,34*68
$GAGSV,3,1,12,30,63,262,45,29,16,321,32,11,15,043,,27,12,252,20*67
$GAGSV,3,2,12,08,36,193,39,36,17,092,,18,58,129,,07,52,270,49*68
$GAGSV,3,3,12,02,58,060,41,10,06,018,25,34,02,139,,25,08,068,*61
$GBGSV,5,1,20,24,71,302,47,29,11,034,,12,15,168,27,25,14,282,*64
$GBGSV,5,2,20,40,12,040,,05,20,130,,11,16,229,,41,20,312,42*67
$GBGSV,5,3,20,07,17,052,30,14,19,232,30,44,33,151,29,33,26,259,35*65
$GBGSV,5,4,20,10,29,057,33,56,36,055,,35,43,089,35,26,52,090,40*6E
$GBGSV,5,5,20,43,04,250,,02,04,109,,42,07,209,26,60,08,111,*62
$GPGGA,121547.00,,,,,0,00,,,M,,M,,*4C
$PTNL,GGK,121547.00,010125,4742.4459088,N,01617.9740034,E,1,19,1.4,EHT667.7096,M*49
$GPGGQ,121547.00,010125,4742.4459088,N,01617.9740034,E,1,19,6.760,624.4985,M*3A
$GPGFA,121547.00,33.891,46.368,3.565,1.008,358.116,5.655,,VVV*0F
$GPLLK,121547.00,010125,,M,,M,1,19,1.6,,M*00
$GNGMP,121547.00,,,,,DAAA,19,0.7,,,,*5D
$GPGMP,121547.00,,,,,,04,,,,2.8,123*77
$GLGMP,121547.00,,,,,,07,,,,,*7C
$GAGMP,121547.00,,,,,,04,,,,,*72
$GBGMP,121547.00,,,,,,04,,,,,*71
$PSSN,SNC,[0,303365000,2347]*44
$GPZDA,121552.00,01,01,2025,,*63
$GPDTM,W84,,00.0000000,N,00.0000000,E,00.0000000,W84*5F
$GPRMC,121552.00,A,4742.4459207,N,01617.9739976,E,0.0,,010125,5.1,E,D*1C
$GPGLL,4742.4459207,N,01617.9739976,E,121552.00,A,D*6D
$GPGGA,121552.00,4742.4459207,N,01617.9739976,E,2,18,0.8,624.4856,M,43.2110,M,2.8,0123*41
$GNGNS,121552.00,4742.4459207,N,01617.9739976,E,DAAA,18,0.8,624.4856,43.2110,,*57
$GPGNS,121552.00,,,,,,04,,,,2.8,123*73
$GLGNS,121552.00,,,,,,07,,,,,*78
$GAGNS,121552.00,,,,,,04,,,,,*76
$GBGNS,121552.00,,,,,,03,,,,,*72
$GPLLQ,121552.00,010125,,M,,M,1,18,6.670,,M*1F
$GPVTG,,T,,M,0.00,N,0.01,K,D*27
$GPHDT,,T*1B
$GPTHS,,V*0E
$GPROT,,V*08
$PSSN,HRP,121552.00,010125,,,,,,,00,0,,*61
$PTNL,AVR,121552.00,,Yaw,,Tilt,,,,0,,00*37
$GPGSA,A,3,12,19,24,32,,,,,,,,,1.5,0.8,1.2*31
$GPGSA,A,3,67,68,76,77,78,86,87,,,,,,1.5,0.8,1.2*3D
$GPGSA,A,3,02,07,08,30,,,,,,,,,1.5,0.8,1.2*33
$GPGSA,A,3,24,26,41,,,,,,,,,,1.5,0.8,1.2*3A
$GPGST,121552.00,4.308,3.634,0.975,357.907,3.632,0.984,5.507*58
$GPGBS,121552.00,15.390,4.639,22.383,24,0.0001,1.346,0.662*54
$GPGRS,121552.00,1,-0.4,-0.8,1.3,-1.1,,,,,,,,*6D
$GPGRS,121552.00,1,4.8,1.8,-7.7,-7.4,-6.2,0.2,1.4,,,,,*48
$GPGRS,121552.00,1,-0.2,-1.2,1.7,0.3,,,,,,,,*4A
$GPGRS,121552.00,1,-2.3,-1.9,-2.5,,,,,,,,,*43
$GPGSV,4,1,15,24,76,147,46,17,17,042,32,06,18,097,26,15,14,189,27*79
$GPGSV,4,2,15,32,21,317,42,25,27,259,30,19,43,060,44,12,68,267,47*71
$GPGSV,4,3,15,11,07,130,,10,05,283,29,22,09,068,,36,35,170,35*7D
$GPGSV,4,4,15,34,31,208,35,49,34,195,36,61,03,257,*42
$GLGSV,3,1,10,77,67,015,43,78,29,287,42,76,32,074,40,87,33,123,37*67
$GLGSV,3,2,10,67,34,240,44,68,36,304,41,86,37,062,46,85,07,014,*6F
$GLGSV,3,3,10,66,02,198,,69,07,346,35*69
$GAGSV,3,1,12,30,63,262,45,29,16,321,32,11,15,043,,27,12,252,21*66
$GAGSV,3,2,12,08,36,193,40,36,17,092,,18,59,129,,07,52,270,49*67
$GAGSV,3,3,12,02,58,060,41,10,06,018,,34,02,138,,25,08,068,*67
$GBGSV,5,1,20,24,71,302,48,29,11,034,,40,12,040,,05,20,130,*6A
$GBGSV,5,2,20,25,14,282,,12,15,168,30,11,16,229,,41,20,312,40*62
$GBGSV,5,3,20,07,17,052,30,14,19,232,32,44,33,151,29,33,26,259,35*67
$GBGSV,5,4,20,10,29,057,33,56,36,055,,35,43,089,33,26,51,090,40*6B
$GBGSV,5,5,20,43,04,250,,02,04,109,,42,07,209,25,60,08,111,*61
$GPGGA,121552.00,,,,,0,00,,,M,,M,,*48
$PTNL,GGK,121552.00,010125,4742.4459207,N,01617.9739976,E,1,18,1.5,EHT667.6967,M*4F
$GPGGQ,121552.00,010125,4742.4459207,N,01617.9739976,E,1,18,6.670,624.4856,M*34
$GPGFA,121552.00,34.555,45.156,3.634,0.975,357.907,5.507,,VVV*03
$GPLLK,121552.00,010125,,M,,M,1,18,1.7,,M*04
$GNGMP,121552.00,,,,,DAAA,18,0.8,,,,*57
$GPGMP,121552.00,,,,,,04,,,,2.8,123*73
$GLGMP,121552.00,,,,,,07,,,,,*78
$GAGMP,121552.00,,,,,,04,,,,,*76
$GBGMP,121552.00,,,,,,03,,,,,*72
$PSSN,SNC,[0,303370000,2347]*40
$GPZDA,121557.00,01,01,2025,,*66
$GPDTM,W84,,00.0000000,N,00.0000000,E,00.0000000,W84*5F
$GPRMC,121557.00,A,4742.4459252,N,01617.9739962,E,0.0,,010125,5.1,E,D*1C
$GPGLL,4742.4459252,N,01617.9739962,E,121557.00,A,D*6D
$GPGGA,121557.00,4742.4459252,N,01617.9739962,E,2,21,0.7,624.4782,M,43.2110,M,1.8,0123*41
$GNGNS,121557.00,4742.4459252,N,01617.9739962,E,DAAA,21,0.7,624.4782,43.2110,,*54
$GPGNS,121557.00,,,,,,04,,,,1.8,123*75
$GLGNS,121557.00,,,,,,08,,,,,*72
$GAGNS,121557.00,,,,,,04,,,,,*73
$GBGNS,121557.00,,,,,,05,,,,,*71
$GPLLQ,121557.00,010125,,M,,M,1,21,6.144,,M*10
$GPVTG,,T,,M,0.01,N,0.02,K,D*25
$GPHDT,,T*1B
$GPTHS,,V*0E
$GPROT,,V*08
$PSSN,HRP,121557.00,010125,,,,,,,00,0,,*64
$PTNL,AVR,121557.00,,Yaw,,Tilt,,,,0,,00*32
$GPGSA,A,3,12,19,24,32,,,,,,,,,1.3,0.7,1.1*3B
$GPGSA,A,3,67,68,69,76,77,78,86,87,,,,,1.3,0.7,1.1*38
$GPGSA,A,3,02,07,08,30,,,,,,,,,1.3,0.7,1.1*39
$GPGSA,A,3,24,26,33,35,41,,,,,,,,1.3,0.7,1.1*36
$GPGST,121557.00,6.042,3.333,0.914,357.877,3.331,0.921,5.080*52
$GPGBS,121557.00,14.008,4.428,20.730,69,0.0001,16.404,7.247*64
$GPGRS,121557.00,1,-0.2,-0.4,0.7,-0.2,,,,,,,,*65
$GPGRS,121557.00,1,2.4,-0.7,16.4,-6.2,-6.8,-5.4,-1.1,-7.4,,,,*71
$GPGRS,121557.00,1,-0.2,-1.2,1.8,0.2,,,,,,,,*41
$GPGRS,121557.00,1,-2.2,-2.2,-5.1,-4.5,-2.0,,,,,,,*4F
$GPGSV,4,1,15,24,76,147,45,17,17,042,31,06,18,097,27,15,14,189,26*79
$GPGSV,4,2,15,32,21,317,44,25,27,259,33,19,43,060,43,12,68,267,48*7C
$GPGSV,4,3,15,11,07,130,,10,05,283,29,22,09,068,,36,35,170,35*7D
$GPGSV,4,4,15,34,31,208,35,49,34,195,36,61,03,257,*42
$GLGSV,3,1,10,77,67,015,43,78,29,287,43,76,32,074,42,87,33,123,37*64
$GLGSV,3,2,10,67,34,240,42,68,36,304,41,86,37,062,47,85,07,014,*68
$GLGSV,3,3,10,66,02,198,,69,08,346,36*65
$GAGSV,3,1,12,30,63,262,45,29,16,321,32,11,15,043,,27,12,252,22*65
$GAGSV,3,2,12,08,36,193,41,36,17,092,,18,59,129,,07,52,270,49*66
$GAGSV,3,3,12,02,58,060,42,10,06,018,,34,02,138,,25,08,068,*64
$GBGSV,5,1,20,24,71,302,48,29,11,034,,40,12,040,,05,20,130,*6A
$GBGSV,5,2,20,25,14,282,,12,15,168,32,11,16,229,,41,20,312,39*6E
$GBGSV,5,3,20,07,17,052,29,14,19,232,34,44,33,151,31,33,26,259,37*62
$GBGSV,5,4,20,10,29,057,33,56,36,055,,35,43,089,39,26,51,090,40*61
$GBGSV,5,5,20,43,04,250,,02,04,109,,42,07,209,25,60,08,111,*61
$GPGGA,121557.00,,,,,0,00,,,M,,M,,*4D
$PTNL,GGK,121557.00,010125,4742.4459252,N,01617.9739962,E,1,21,1.3,EHT667.6892,M*48
$GPGGQ,121557.00,010125,4742.4459252,N,01617.9739962,E,1,21,6.144,624.4782,M*38
$GPGFA,121557.00,31.694,41.656,3.333,0.914,357.877,5.080,,VVV*07
$GPLLK,121557.00,010125,,M,,M,1,21,1.5,,M*09
$GNGMP,121557.00,,,,,DAAA,21,0.7,,,,*57
$GPGMP,121557.00,,,,,,04,,,,1.8,123*75
$GLGMP,121557.00,,,,,,08,,,,,*72
$GAGMP,121557.00,,,,,,04,,,,,*73
$GBGMP,121557.00,,,,,,05,,,,,*71
$PSSN,SNC,[0,303375000,2347]*45
$GPZDA,121602.00,01,01,2025,,*65
$GPDTM,W84,,00.0000000,N,00.0000000,E,00.0000000,W84*5F
$GPRMC,121602.00,A,4742.4459263,N,01617.9739971,E,0.0,,010125,5.1,E,D*1F
$GPGLL,4742.4459263,N,01617.9739971,E,121602.00,A,D*6E
$GPGGA,121602.00,4742.4459263,N,01617.9739971,E,2,22,0.7,624.4836,M,43.2110,M,2.6,0123*4C
$GNGNS,121602.00,4742.4459263,N,01617.9739971,E,DAAA,22,0.7,624.4836,43.2110,,*54
$GPGNS,121602.00,,,,,,05,,,,2.6,123*7A
$GLGNS,121602.00,,,,,,08,,,,,*71
$GAGNS,121602.00,,,,,,04,,,,,*70
$GBGNS,121602.00,,,,,,05,,,,,*72
$GPLLQ,121602.00,010125,,M,,M,1,22,3.148,,M*19
$GPVTG,,T,,M,0.00,N,0.01,K,D*27
$GPHDT,,T*1B
$GPTHS,,V*0E
$GPROT,,V*08
$PSSN,HRP,121602.00,010125,,,,,,,00,0,,*67
$PTNL,AVR,121602.00,,Yaw,,Tilt,,,,0,,00*31
$GPGSA,A,3,12,19,24,25,32,,,,,,,,1.3,0.7,1.1*3C
$GPGSA,A,3,67,68,69,76,77,78,86,87,,,,,1.3,0.7,1.1*38
$GPGSA,A,3,02,07,08,30,,,,,,,,,1.3,0.7,1.1*39
$GPGSA,A,3,24,26,33,35,41,,,,,,,,1.3,0.7,1.1*36
$GPGST,121602.00,5.742,1.822,0.744,343.259,1.758,0.885,2.457*5B
$GPGBS,121602.00,7.178,4.282,11.401,69,0.0001,15.245,7.242*53
$GPGRS,121602.00,1,-0.5,-0.0,0.6,0.1,0.3,,,,,,,*67
$GPGRS,121602.00,1,0.6,0.5,15.2,-5.5,-7.7,-4.1,-0.9,-10.3,,,,*6E
$GPGRS,121602.00,1,-0.3,-1.1,2.0,-0.2,,,,,,,,*66
$GPGRS,121602.00,1,-1.7,-1.9,-3.1,4.5,-2.5,,,,,,,*6C
$GPGSV,4,1,15,24,76,147,44,17,17,042,30,06,18,097,,15,14,189,26*7C
$GPGSV,4,2,15,32,21,317,45,25,27,259,36,19,43,060,43,12,68,267,50*71
$GPGSV,4,3,15,11,07,130,,10,05,283,28,22,09,068,,36,35,170,35*7C
$GPGSV,4,4,15,34,31,208,35,49,34,195,36,61,03,257,*42
$GLGSV,3,1,10,77,67,015,42,78,29,287,45,76,32,074,44,87,33,123,39*6B
$GLGSV,3,2,10,67,34,240,38,68,36,304,38,86,37,062,48,85,07,014,29*6F
$GLGSV,3,3,10,66,02,198,,69,08,346,37*64
$GAGSV,3,1,12,30,63,262,46,29,16,321,33,11,15,043,,27,12,252,21*64
$GAGSV,3,2,12,08,36,193,41,36,17,092,,18,59,129,,07,52,270,49*66
$GAGSV,3,3,12,02,58,060,42,10,06,018,26,34,02,138,,25,08,068,*60
$GBGSV,5,1,20,24,71,302,49,29,11,034,,40,12,040,,05,20,130,*6B
$GBGSV,5,2,20,25,14,282,,12,15,168,34,11,16,229,,41,20,312,37*66
$GBGSV,5,3,20,07,17,052,29,14,19,232,34,44,33,151,32,33,26,259,39*6F
$GBGSV,5,4,20,10,29,057,33,56,36,055,,35,43,089,41,26,51,090,42*6C
$GBGSV,5,5,20,43,04,249,,02,04,109,,42,07,209,24,60,08,111,*68
$GPGGA,121602.00,,,,,0,00,,,M,,M,,*4E
$PTNL,GGK,121602.00,010125,4742.4459263,N,01617.9739971,E,1,22,1.3,EHT667.6947,M*41
$GPGGQ,121602.00,010125,4742.4459263,N,01617.9739971,E,1,22,3.148,624.4836,M*31
$GPGFA,121602.00,17.326,20.146,1.822,0.744,343.259,2.457,,VVV*05
$GPLLK,121602.00,010125,,M,,M,1,22,1.5,,M*09
$GNGMP,121602.00,,,,,DAAA,22,0.7,,,,*57
$GPGMP,121602.00,,,,,,05,,,,2.6,123*7A
$GLGMP,121602.00,,,,,,08,,,,,*71
$GAGMP,121602.00,,,,,,04,,,,,*70
$GBGMP,121602.00,,,,,,05,,,,,*72
$PSSN,SNC,[0,303380000,2347]*4F
$GPZDA,121607.00,01,01,2025,,*60
$GPDTM,W84,,00.0000000,N,00.0000000,E,00.0000000,W84*5F
$GPRMC,121607.00,A,4742.4459287,N,01617.9739874,E,0.0,,010125,5.1,E,D*14
$GPGLL,4742.4459287,N,01617.9739874,E,121607.00,A,D*65
$GPGGA,121607.00,4742.4459287,N,01617.9739874,E,2,22,0.7,624.4817,M,43.2110,M,2.8,0123*4A
$GNGNS,121607.00,4742.4459287,N,01617.9739874,E,DAAA,22,0.7,624.4817,43.2110,,*5C
$GPGNS,121607.00,,,,,,05,,,,2.8,123*71
$GLGNS,121607.00,,,,,,08,,,,,*74
$GAGNS,121607.00,,,,,,04,,,,,*75
$GBGNS,121607.00,,,,,,05,,,,,*77
$GPLLQ,121607.00,010125,,M,,M,1,22,3.493,,M*1F
$GPVTG,,T,,M,0.00,N,0.01,K,D*27
$GPHDT,,T*1B
$GPTHS,,V*0E
$GPROT,,V*08
$PSSN,HRP,121607.00,010125,,,,,,,00,0,,*62
$PTNL,AVR,121607.00,,Yaw,,Tilt,,,,0,,00*34
$GPGSA,A,3,12,19,24,25,32,,,,,,,,1.3,0.7,1.1*3C
$GPGSA,A,3,67,68,69,76,77,78,86,87,,,,,1.3,0.7,1.1*38
$GPGSA,A,3,02,07,08,30,,,,,,,,,1.3,0.7,1.1*39
$GPGSA,A,3,24,26,33,35,41,,,,,,,,1.3,0.7,1.1*36
$GPGST,121607.00,5.728,2.013,0.846,342.498,1.936,1.009,2.727*53
$GPGBS,121607.00,7.290,4.385,11.463,69,0.0001,16.428,7.236*5C
$GPGRS,121607.00,1,-0.3,0.2,1.1,-1.6,-0.5,,,,,,,*4D
$GPGRS,121607.00,1,0.5,1.3,16.4,-3.2,-8.1,-2.8,0.6,-6.6,,,,*7D
$GPGRS,121607.00,1,0.2,-0.7,2.1,-0.3,,,,,,,,*48
$GPGRS,121607.00,1,-1.4,-1.7,-3.3,7.1,-4.1,,,,,,,*63
$GPGSV,4,1,15,24,76,147,42,17,17,042,31,06,18,097,25,15,14,189,26*7C
$GPGSV,4,2,15,32,21,317,46,25,27,259,38,19,43,060,44,12,68,267,51*7A
$GPGSV,4,3,15,11,07,130,,10,05,283,26,22,09,068,,36,35,170,35*72
$GPGSV,4,4,15,34,31,208,35,49,34,195,35,61,03,257,*41
$GLGSV,3,1,10,77,67,015,41,78,29,287,46,76,32,074,45,87,33,123,39*6A
$GLGSV,3,2,10,67,34,240,36,68,36,304,37,86,37,062,48,85,07,014,21*66
$GLGSV,3,3,10,66,02,198,,69,08,346,39*6A
$GAGSV,3,1,12,30,63,262,46,29,16,321,33,11,15,043,,27,12,252,25*60
$GAGSV,3,2,12,08,36,193,42,36,18,092,,18,59,129,,07,52,270,49*6A
$GAGSV,3,3,12,02,58,060,43,10,06,018,,34,02,138,,25,08,068,*65
$GBGSV,5,1,20,24,71,302,49,29,11,034,,40,12,040,,05,20,130,*6B
$GBGSV,5,2,20,25,14,282,,12,15,168,35,11,16,229,,41,20,312,36*66
$GBGSV,5,3,20,07,17,052,29,14,19,232,34,44,33,150,34,33,26,259,40*66
$GBGSV,5,4,20,10,29,057,34,56,36,055,,35,43,089,42,26,51,090,44*6E
$GBGSV,5,5,20,43,04,249,,02,04,109,,42,07,209,23,60,08,111,*6F
$GPGGA,121607.00,,,,,0,00,,,M,,M,,*4B
$PTNL,GGK,121607.00,010125,4742.4459287,N,01617.9739874,E,1,22,1.3,EHT667.6927,M*4C
$GPGGQ,121607.00,010125,4742.4459287,N,01617.9739874,E,1,22,3.493,624.4817,M*3A
$GPGFA,121607.00,19.137,22.361,2.013,0.846,342.498,2.727,,VVV*03
$GPLLK,121607.00,010125,,M,,M,1,22,1.5,,M*0C
$GNGMP,121607.00,,,,,DAAA,22,0.7,,,,*52
$GPGMP,121607.00,,,,,,05,,,,2.8,123*71
$GLGMP,121607.00,,,,,,08,,,,,*74
$GAGMP,121607.00,,,,,,04,,,,,*75
$GBGMP,121607.00,,,,,,05,,,,,*77
$PSSN,SNC,[0,303385000,2347]*4A
$GPZDA,121612.00,01,01,2025,,*64
$GPDTM,W84,,00.0000000,N,00.0000000,E,00.0000000,W84*5F
$GPRMC,121612.00,A,4742.4459291,N,01617.9739710,E,0.0,,010125,5.1,E,D*1A
$GPGLL,4742.4459291,N,01617.9739710,E,121612.00,A,D*6B
$GPGGA,121612.00,4742.4459291,N,01617.9739710,E,2,22,0.6,624.4564,M,43.2110,M,3.0,0123*45
$GNGNS,121612.00,4742.4459291,N,01617.9739710,E,DAAA,22,0.6,624.4564,43.2110,,*5A
$GPGNS,121612.00,,,,,,05,,,,3.0,123*7C
$GLGNS,121612.00,,,,,,08,,,,,*70
$GAGNS,121612.00,,,,,,04,,,,,*71
$GBGNS,121612.00,,,,,,05,,,,,*73
$GPLLQ,121612.00,010125,,M,,M,1,22,3.269,,M*18
$GPVTG,,T,,M,0.00,N,0.01,K,D*27
$GPHDT,,T*1B
$GPTHS,,V*0E
$GPROT,,V*08
$PSSN,HRP,121612.00,010125,,,,,,,00,0,,*66
$PTNL,AVR,121612.00,,Yaw,,Tilt,,,,0,,00*30
$GPGSA,A,3,12,19,24,25,32,,,,,,,,1.1,0.6,1.0*3E
$GPGSA,A,3,67,68,69,76,77,78,86,87,,,,,1.1,0.6,1.0*3A
$GPGSA,A,3,02,07,08,30,,,,,,,,,1.1,0.6,1.0*3B
$GPGSA,A,3,12,24,26,33,35,,,,,,,,1.1,0.6,1.0*32
$GPGST,121612.00,5.101,1.889,0.816,342.794,1.820,0.959,2.541*51
$GPGBS,121612.00,6.809,4.330,10.900,69,0.0001,14.389,7.232*5E
$GPGRS,121612.00,1,-0.1,0.2,1.3,-1.3,-1.0,,,,,,,*48
$GPGRS,121612.00,1,1.7,2.1,14.4,-2.4,-8.1,-2.5,0.7,-5.7,,,,*70
$GPGRS,121612.00,1,-0.3,-0.8,2.7,-0.6,,,,,,,,*6C
$GPGRS,121612.00,1,4.2,-1.7,-1.2,-2.5,5.0,,,,,,,*4B
$GPGSV,4,1,15,24,76,147,41,17,17,042,30,06,18,097,33,15,14,189,26*79
$GPGSV,4,2,15,32,21,317,47,25,27,259,40,19,43,060,45,12,68,267,52*76
$GPGSV,4,3,15,11,07,130,,10,05,283,28,22,09,068,,36,35,170,35*7C
$GPGSV,4,4,15,34,31,208,34,49,34,195,35,61,03,257,*40
$GLGSV,3,1,10,77,67,015,41,78,29,287,46,76,32,074,46,87,33,123,39*69
$GLGSV,3,2,10,67,34,240,36,68,36,303,37,86,37,062,48,85,07,014,*62
$GLGSV,3,3,10,66,02,198,,69,08,346,39*6A
$GAGSV,3,1,12,30,63,262,45,29,16,321,34,11,15,043,,27,12,252,26*67
$GAGSV,3,2,12,08,36,193,42,36,18,092,,18,59,129,,07,52,270,49*6A
$GAGSV,3,3,12,02,58,060,43,10,06,018,25,34,02,138,,25,08,068,*62
$GBGSV,5,1,20,24,71,302,49,29,11,034,,40,12,040,,05,20,130,*6B
$GBGSV,5,2,20,25,14,282,,12,15,168,35,11,16,229,,41,20,312,35*65
$GBGSV,5,3,20,07,17,052,29,14,19,232,32,44,33,150,35,33,26,259,42*63
$GBGSV,5,4,20,10,29,057,33,56,36,055,,35,43,089,41,26,51,090,45*6B
$GBGSV,5,5,20,43,04,249,,02,04,109,,42,07,209,22,60,08,111,*6E
$GPGGA,121612.00,,,,,0,00,,,M,,M,,*4F
$PTNL,GGK,121612.00,010125,4742.4459291,N,01617.9739710,E,1,22,1.1,EHT667.6674,M*49
$GPGGQ,121612.00,010125,4742.4459291,N,01617.9739710,E,1,22,3.269,624.4564,M*3E
$GPGFA,121612.00,17.959,20.835,1.889,0.816,342.794,2.541,,VVV*01
$GPLLK,121612.00,010125,,M,,M,1,22,1.3,,M*0E
$GNGMP,121612.00,,,,,DAAA,22,0.6,,,,*57
$GPGMP,121612.00,,,,,,05,,,,3.0,123*7C
$GLGMP,121612.00,,,,,,08,,,,,*70
$GAGMP,121612.00,,,,,,04,,,,,*71
$GBGMP,121612.00,,,,,,05,,,,,*73
$PSSN,SNC,[0,303390000,2347]*4E
$GPZDA,121617.00,01,01,2025,,*61
$GPDTM,W84,,00.0000000,N,00.0000000,E,00.0000000,W84*5F
$GPRMC,121617.00,A,4742.4459349,N,01617.9739549,E,0.0,,010125,5.1,E,D*15
$GPGLL,4742.4459349,N,01617.9739549,E,121617.00,A,D*64
$GPGGA,121617.00,4742.4459349,N,01617.9739549,E,2,22,0.6,624.4439,M,43.2110,M,1.6,0123*47
$GNGNS,121617.00,4742.4459349,N,01617.9739549,E,DAAA,22,0.6,624.4439,43.2110,,*5C
$GPGNS,121617.00,,,,,,05,,,,1.6,123*7D
$GLGNS,121617.00,,,,,,08,,,,,*75
$GAGNS,121617.00,,,,,,04,,,,,*74
$GBGNS,121617.00,,,,,,05,,,,,*76
$GPLLQ,121617.00,010125,,M,,M,1,22,3.536,,M*10
$GPVTG,,T,,M,0.00,N,0.00,K,D*26
$GPHDT,,T*1B
$GPTHS,,V*0E
$GPROT,,V*08
$PSSN,HRP,121617.00,010125,,,,,,,00,0,,*63
$PTNL,AVR,121617.00,,Yaw,,Tilt,,,,0,,00*35
$GPGSA,A,3,12,19,24,25,32,,,,,,,,1.1,0.6,1.0*3E
$GPGSA,A,3,67,68,69,76,77,78,86,87,,,,,1.1,0.6,1.0*3A
$GPGSA,A,3,02,07,08,30,,,,,,,,,1.1,0.6,1.0*3B
$GPGSA,A,3,12,24,26,33,35,,,,,,,,1.1,0.6,1.0*32
$GPGST,121617.00,4.899,2.053,0.881,342.891,1.980,1.036,2.741*5D
$GPGBS,121617.00,6.561,4.161,10.682,24,0.0001,1.727,0.620*66
$GPGRS,121617.00,1,-0.6,0.1,1.7,-1.4,-1.1,,,,,,,*4B
$GPGRS,121617.00,1,3.8,5.0,14.0,-3.5,-7.0,-3.4,-0.7,-4.6,,,,*59
$GPGRS,121617.00,1,-1.0,-1.1,2.6,-1.2,,,,,,,,*67
$GPGRS,121617.00,1,2.9,-2.0,-0.7,0.4,1.1,,,,,,,*68
$GPGSV,4,1,15,24,76,147,41,17,17,042,28,06,18,097,34,15,14,189,27*76
$GPGSV,4,2,15,32,21,317,47,25,27,259,40,19,42,060,45,12,68,267,51*74
$GPGSV,4,3,15,11,07,130,,10,05,283,32,22,09,068,,36,35,170,35*77
$GPGSV,4,4,15,34,31,208,34,49,34,195,35,61,03,257,*40
$GLGSV,3,1,10,77,67,016,42,78,29,287,45,76,32,074,46,87,33,123,40*64
$GLGSV,3,2,10,67,34,240,37,68,36,303,39,86,37,062,46,85,07,014,*63
$GLGSV,3,3,10,66,02,198,,69,08,346,41*65
$GAGSV,3,1,12,30,63,262,45,29,16,321,34,11,15,043,,27,12,252,27*66
$GAGSV,3,2,12,08,36,193,41,36,18,092,,18,59,128,,07,52,270,49*68
$GAGSV,3,3,12,02,58,060,42,10,06,018,25,34,02,138,,25,08,068,*63
$GBGSV,5,1,20,24,71,302,49,29,11,034,,40,12,040,,05,20,130,*6B
$GBGSV,5,2,20,25,14,282,,12,15,168,36,11,16,229,,41,20,311,34*64
$GBGSV,5,3,20,07,17,052,28,14,19,232,30,44,33,150,35,33,26,259,42*60
$GBGSV,5,4,20,10,29,057,33,56,36,055,,35,43,088,39,26,51,090,46*66
$GBGSV,5,5,20,43,04,249,,02,04,109,,42,06,209,21,60,08,111,*6C
$GPGGA,121617.00,,,,,0,00,,,M,,M,,*4A
$PTNL,GGK,121617.00,010125,4742.4459349,N,01617.9739549,E,1,22,1.1,EHT667.6549,M*4B
$GPGGQ,121617.00,010125,4742.4459349,N,01617.9739549,E,1,22,3.536,624.4439,M*35
$GPGFA,121617.00,19.523,22.476,2.053,0.881,342.891,2.741,,VVV*08
$GPLLK,121617.00,010125,,M,,M,1,22,1.3,,M*0B
$GNGMP,121617.00,,,,,DAAA,22,0.6,,,,*52
$GPGMP,121617.00,,,,,,05,,,,1.6,123*7D
$GLGMP,121617.00,,,,,,08,,,,,*75
$GAGMP,121617.00,,,,,,04,,,,,*74
$GBGMP,121617.00,,,,,,05,,,,,*76
$PSSN,SNC,[0,303395000,2347]*4B
$GPZDA,121622.00,01,01,2025,,*67
$GPDTM,W84,,00.0000000,N,00.0000000,E,00.0000000,W84*5F
$GPRMC,121622.00,A,4742.4459402,N,01617.9739377,E,0.0,,010125,5.1,E,D*10
$GPGLL,4742.4459402,N,01617.9739377,E,121622.00,A,D*61
$GPGGA,121622.00,4742.4459402,N,01617.9739377,E,2,22,0.6,624.4298,M,43.2110,M,2.6,0123*4C
$GNGNS,121622.00,4742.4459402,N,01617.9739377,E,DAAA,22,0.6,624.4298,43.2110,,*54
$GPGNS,121622.00,,,,,,05,,,,2.6,123*78
$GLGNS,121622.00,,,,,,08,,,,,*73
$GAGNS,121622.00,,,,,,04,,,,,*72
$GBGNS,121622.00,,,,,,05,,,,,*70
$GPLLQ,121622.00,010125,,M,,M,1,22,3.796,,M*1E
$GPVTG,,T,,M,0.00,N,0.00,K,D*26
$GPHDT,,T*1B
$GPTHS,,V*0E
$GPROT,,V*08
$PSSN,HRP,121622.00,010125,,,,,,,00,0,,*65
$PTNL,AVR,121622.00,,Yaw,,Tilt,,,,0,,00*33
$GPGSA,A,3,12,19,24,25,32,,,,,,,,1.1,0.6,1.0*3E
$GPGSA,A,3,67,68,69,76,77,78,86,87,,,,,1.1,0.6,1.0*3A
$GPGSA,A,3,02,07,08,30,,,,,,,,,1.1,0.6,1.0*3B
$GPGSA,A,3,12,24,26,33,35,,,,,,,,1.1,0.6,1.0*32
$GPGST,121622.00,4.655,2.202,0.935,342.630,2.120,1.108,2.947*5D
$GPGBS,121622.00,6.603,4.219,10.750,24,0.0001,1.882,0.634*60
$GPGRS,121622.00,1,-0.9,-0.2,1.9,-2.0,0.1,,,,,,,*49
$GPGRS,121622.00,1,3.9,5.1,12.7,-3.7,-7.2,-4.1,-2.3,1.1,,,,*75
$GPGRS,121622.00,1,-1.1,-0.8,2.7,-1.1,,,,,,,,*6A
$GPGRS,121622.00,1,2.5,-1.7,0.1,1.6,-1.6,,,,,,,*64
$GPGSV,4,1,15,24,76,147,41,17,17,042,25,06,18,097,34,15,14,189,26*7A
$GPGSV,4,2,15,32,21,317,48,25,27,259,40,19,42,060,45,12,68,267,50*7A
$GPGSV,4,3,15,11,07,130,,10,05,283,33,22,09,068,,36,35,170,35*76
$GPGSV,4,4,15,34,31,208,34,49,34,195,35,61,03,257,*40
$GLGSV,3,1,10,77,67,016,41,78,29,287,42,76,31,074,45,87,33,123,41*61
$GLGSV,3,2,10,67,34,240,39,68,37,303,43,86,37,062,45,85,07,014,*62
$GLGSV,3,3,10,66,02,198,,69,08,346,41*65
$GAGSV,3,1,12,30,63,262,44,29,16,321,34,11,15,043,,27,12,252,27*67
$GAGSV,3,2,12,08,36,193,40,36,18,092,,18,59,128,,07,52,270,48*68
$GAGSV,3,3,12,02,58,060,42,10,06,018,26,34,02,138,,25,08,068,*60
$GBGSV,5,1,20,24,71,302,49,29,11,034,,40,12,040,,05,20,130,*6B
$GBGSV,5,2,20,25,14,282,,12,15,168,36,11,16,229,,41,20,311,35*65
$GBGSV,5,3,20,07,17,052,29,14,19,232,28,44,33,150,33,33,26,258,42*6F
$GBGSV,5,4,20,10,29,057,33,56,36,055,,35,43,088,35,26,51,090,46*6A
$GBGSV,5,5,20,43,04,249,,02,04,109,,42,06,209,20,60,08,111,*6D
$GPGGA,121622.00,,,,,0,00,,,M,,M,,*4C
$PTNL,GGK,121622.00,010125,4742.4459402,N,01617.9739377,E,1,22,1.1,EHT667.6408,M*4A
$GPGGQ,121622.00,010125,4742.4459402,N,01617.9739377,E,1,22,3.796,624.4298,M*35
$GPGFA,121622.00,20.937,24.164,2.202,0.935,342.630,2.947,,VVV*08
$GPLLK,121622.00,010125,,M,,M,1,22,1.3,,M*0D
$GNGMP,121622.00,,,,,DAAA,22,0.6,,,,*54
$GPGMP,121622.00,,,,,,05,,,,2.6,123*78
$GLGMP,121622.00,,,,,,08,,,,,*73
$GAGMP,121622.00,,,,,,04,,,,,*72
$GBGMP,121622.00,,,,,,05,,,,,*70
$PSSN,SNC,[0,303400000,2347]*40
$GPZDA,121627.00,01,01,2025,,*62
$GPDTM,W84,,00.0000000,N,00.0000000,E,00.0000000,W84*5F
$GPRMC,121627.00,A,4742.4459445,N,01617.9739237,E,0.0,,010125,5.1,E,D*13
$GPGLL,4742.4459445,N,01617.9739237,E,121627.00,A,D*62
$GPGGA,121627.00,4742.4459445,N,01617.9739237,E,2,22,0.6,624.4153,M,43.2110,M,2.8,0123*45
$GNGNS,121627.00,4742.4459445,N,01617.9739237,E,DAAA,22,0.6,624.4153,43.2110,,*53
$GPGNS,121627.00,,,,,,05,,,,2.8,123*73
$GLGNS,121627.00,,,,,,08,,,,,*76
$GAGNS,121627.00,,,,,,04,,,,,*77
$GBGNS,121627.00,,,,,,05,,,,,*75
$GPLLQ,121627.00,010125,,M,,M,1,22,3.481,,M*1E
$GPVTG,,T,,M,0.00,N,0.01,K,D*27
$GPHDT,,T*1B
$GPTHS,,V*0E
$GPROT,,V*08
$PSSN,HRP,121627.00,010125,,,,,,,00,0,,*60
$PTNL,AVR,121627.00,,Yaw,,Tilt,,,,0,,00*36
$GPGSA,A,3,12,19,24,25,32,,,,,,,,1.1,0.6,0.9*36
$GPGSA,A,3,67,68,69,76,77,78,86,87,,,,,1.1,0.6,0.9*32
$GPGSA,A,3,02,07,08,30,,,,,,,,,1.1,0.6,0.9*33
$GPGSA,A,3,12,24,26,33,41,,,,,,,,1.1,0.6,0.9*39
$GPGST,121627.00,5.674,1.998,0.864,342.604,1.924,1.018,2.716*56
$GPGBS,121627.00,6.691,4.331,10.874,24,0.0001,1.185,0.650*60
$GPGRS,121627.00,1,-0.8,-0.2,1.2,-0.8,0.5,,,,,,,*48
$GPGRS,121627.00,1,4.4,7.1,10.5,-4.1,-9.1,-9.1,-2.0,8.7,,,,*75
$GPGRS,121627.00,1,-0.7,-0.6,2.8,-0.8,,,,,,,,*61
$GPGRS,121627.00,1,3.0,-1.1,0.5,-2.0,-4.0,,,,,,,*4C
$GPGSV,4,1,15,24,76,147,41,17,17,042,23,06,18,096,32,15,14,189,26*7B
$GPGSV,4,2,15,32,21,317,48,25,27,259,39,19,42,060,46,12,68,268,51*79
$GPGSV,4,3,15,11,07,130,,10,05,283,32,22,09,068,,36,35,170,35*77
$GPGSV,4,4,15,34,31,208,35,49,34,195,35,61,03,257,*41
$GLGSV,3,1,10,77,67,016,40,78,29,287,35,76,31,075,46,87,33,123,43*60
$GLGSV,3,2,10,67,34,240,41,68,37,303,46,86,37,062,45,85,07,014,28*62
$GLGSV,3,3,10,66,02,198,,69,08,346,41*65
$GAGSV,3,1,12,30,63,262,43,29,16,321,35,11,15,043,,27,12,252,27*61
$GAGSV,3,2,12,08,36,193,38,36,18,092,,18,59,128,,07,52,270,48*67
$GAGSV,3,3,12,02,58,060,41,10,06,018,25,34,02,138,,25,08,068,*60
$GBGSV,5,1,20,24,71,302,48,29,11,034,,40,12,040,,05,20,130,*6A
$GBGSV,5,2,20,25,14,282,,12,15,168,36,11,16,229,,41,20,311,35*65
$GBGSV,5,3,20,07,17,052,28,14,19,232,25,44,33,150,32,33,26,258,41*61
$GBGSV,5,4,20,10,29,057,34,56,36,055,,35,43,088,30,26,51,091,46*69
$GBGSV,5,5,20,43,04,249,,02,04,109,,42,06,209,19,60,08,111,*67
$GPGGA,121627.00,,,,,0,00,,,M,,M,,*49
