$GPZDA,035942.00,01,01,2025,,*6A
$GPDTM,W84,,00.0000000,N,00.0000000,E,00.0000000,W84*5F
$GPRMC,035942.00,A,4742.4465728,N,01617.9732422,E,0.0,,010125,5.1,E,D*15
$GPGLL,4742.4465728,N,01617.9732422,E,035942.00,A,D*64
$GPGGA,035942.00,4742.4465728,N,01617.9732422,E,2,21,0.7,625.7178,M,43.2111,M,4.0,0123*45
$GNGNS,035942.00,4742.4465728,N,01617.9732422,E,DAAA,21,0.7,625.7178,43.2111,,*5D
$GPGNS,035942.00,,,,,,05,,,,4.0,123*75
$GLGNS,035942.00,,,,,,06,,,,,*70
$GAGNS,035942.00,,,,,,06,,,,,*7D
$GBGNS,035942.00,,,,,,04,,,,,*7C
$GPLLQ,035942.00,010125,,M,,M,1,21,3.816,,M*17
$GPVTG,,T,,M,0.00,N,0.01,K,D*27
$GPHDT,,T*1B
$GPTHS,,V*0E
$GPROT,,V*08
$PSSN,HRP,035942.00,010125,,,,,,,00,0,,*68
$PTNL,AVR,035942.00,,Yaw,,Tilt,,,,0,,00*3E
$GPGSA,A,3,04,06,07,09,11,,,,,,,,1.4,0.7,1.2*3F
$GPGSA,A,3,70,71,72,80,86,87,,,,,,,1.4,0.7,1.2*3E
$GPGSA,A,3,05,06,09,15,34,36,,,,,,,1.4,0.7,1.2*3F
$GPGSA,A,3,12,19,35,44,,,,,,,,,1.4,0.7,1.2*3E
$GPGST,035942.00,6.023,1.306,1.148,60.639,1.188,1.270,3.396*60
$GPGBS,035942.00,4.477,4.703,11.079,72,0.0001,20.917,6.208*5D
$GPGRS,035942.00,1,-1.5,0.3,1.8,0.1,-1.1,,,,,,,*66
$GPGRS,035942.00,1,-0.6,0.7,20.9,-1.2,-0.9,-5.5,,,,,,*77
$GPGRS,035942.00,1,-0.3,-1.2,0.9,-0.4,-0.6,0.3,,,,,,*4F
$GPGRS,035942.00,1,-0.2,-1.7,-2.1,-4.5,,,,,,,,*41
$GPGSV,4,1,16,09,83,344,51,16,13,078,,26,13,048,,20,13,305,*78
$GPGSV,4,2,16,03,28,117,34,07,40,180,43,11,32,308,47,04,57,059,40*7B
$GPGSV,4,3,16,06,54,261,48,19,03,240,,30,09,200,,31,04,036,*71
$GPGSV,4,4,16,36,35,170,39,34,31,208,,49,34,195,35,61,03,257,*7B
$GLGSV,3,1,09,71,63,322,48,79,12,020,30,72,21,279,36,80,37,072,45*69
$GLGSV,3,2,09,73,25,136,44,86,42,244,43,87,37,310,46,70,47,061,41*6A
$GLGSV,3,3,09,85,08,197,25*51
$GAGSV,3,1,10,05,65,257,44,15,20,321,38,23,11,042,,31,13,091,*6F
$GAGSV,3,2,10,36,39,188,39,03,14,249,33,06,32,064,36,34,57,272,48*6B
$GAGSV,3,3,10,09,56,059,47,04,08,065,*63
$GBGSV,5,1,19,19,74,055,48,36,17,163,32,05,23,128,,39,12,040,*64
$GBGSV,5,2,19,12,23,308,40,16,22,043,30,20,26,089,32,37,22,047,32*6A
$GBGSV,5,3,19,44,27,282,45,35,21,231,38,06,24,045,32,46,39,109,*67
$GBGSV,5,4,19,58,37,086,,22,44,287,34,09,37,052,31,48,47,085,*65
$GBGSV,5,5,19,34,08,331,29,02,07,106,,60,08,111,*5B
$GPGGA,035942.00,,,,,0,00,,,M,,M,,*41
$PTNL,GGK,035942.00,010125,4742.4465728,N,01617.9732422,E,1,21,1.4,EHT668.9288,M*47
$GPGGQ,035942.00,010125,4742.4465728,N,01617.9732422,E,1,21,3.816,625.7178,M*3B
$GPGFA,035942.00,12.417,27.850,1.306,1.148,60.639,3.396,,VVV*3E
$GPLLK,035942.00,010125,,M,,M,1,21,1.6,,M*06
$GNGMP,035942.00,,,,,DAAA,21,0.7,,,,*5B
$GPGMP,035942.00,,,,,,05,,,,4.0,123*75
$GLGMP,035942.00,,,,,,06,,,,,*70
$GAGMP,035942.00,,,,,,06,,,,,*7D
$GBGMP,035942.00,,,,,,04,,,,,*7C
$PSSN,SNC,[0,273600000,2347]*44
$GPZDA,035947.00,01,01,2025,,*6F
$GPDTM,W84,,00.0000000,N,00.0000000,E,00.0000000,W84*5F
$GPRMC,035947.00,A,4742.4465847,N,01617.9732366,E,0.0,,010125,5.1,E,D*11
$GPGLL,4742.4465847,N,01617.9732366,E,035947.00,A,D*60
$GPGGA,035947.00,4742.4465847,N,01617.9732366,E,2,22,0.6,625.7198,M,43.2111,M,1.0,0123*48
$GNGNS,035947.00,4742.4465847,N,01617.9732366,E,DAAA,22,0.6,625.7198,43.2111,,*55
$GPGNS,035947.00,,,,,,06,,,,1.0,123*76
$GLGNS,035947.00,,,,,,06,,,,,*75
$GAGNS,035947.00,,,,,,06,,,,,*78
$GBGNS,035947.00,,,,,,04,,,,,*79
$GPLLQ,035947.00,010125,,M,,M,1,22,2.307,,M*1B
$GPVTG,,T,,M,0.00,N,0.01,K,D*27
$GPHDT,,T*1B
$GPTHS,,V*0E
$GPROT,,V*08
$PSSN,HRP,035947.00,010125,,,,,,,00,0,,*6D
$PTNL,AVR,035947.00,,Yaw,,Tilt,,,,0,,00*3B
$GPGSA,A,3,03,04,06,07,09,11,,,,,,,1.3,0.6,1.1*39
$GPGSA,A,3,70,71,72,80,86,87,,,,,,,1.3,0.6,1.1*3B
$GPGSA,A,3,05,06,09,15,34,36,,,,,,,1.3,0.6,1.1*3A
$GPGSA,A,3,12,19,35,44,,,,,,,,,1.3,0.6,1.1*3B
$GPGST,035947.00,3.981,0.943,0.685,23.782,0.906,0.733,1.991*69
$GPGBS,035947.00,4.051,2.575,7.734,11,0.0001,-1.726,0.766*78
$GPGRS,035947.00,1,1.2,1.0,0.1,0.7,-0.6,-1.7,,,,,,*46
$GPGRS,035947.00,1,-0.5,-0.7,12.7,-1.2,-1.8,-4.9,,,,,,*5E
$GPGRS,035947.00,1,-0.9,-1.6,0.3,-0.2,-0.8,0.8,,,,,,*4D
$GPGRS,035947.00,1,-2.8,-2.5,1.2,-4.3,,,,,,,,*66
$GPGSV,4,1,16,09,83,344,51,16,13,078,,26,13,048,,20,13,305,*78
$GPGSV,4,2,16,03,28,117,38,07,40,180,44,11,32,308,47,04,57,059,42*72
$GPGSV,4,3,16,06,54,261,48,19,03,240,,30,09,200,,31,04,036,*71
$GPGSV,4,4,16,36,35,170,39,34,31,208,,49,34,195,35,61,03,257,*7B
$GLGSV,3,1,09,71,63,322,48,79,12,020,35,72,21,279,40,80,37,072,46*6E
$GLGSV,3,2,09,73,25,136,43,86,42,244,42,87,37,310,46,70,47,061,42*6F
$GLGSV,3,3,09,85,08,197,25*51
$GAGSV,3,1,10,05,65,257,44,15,20,321,38,23,11,042,,31,13,091,*6F
$GAGSV,3,2,10,36,39,188,39,03,14,249,34,06,32,064,37,34,57,272,48*6D
$GAGSV,3,3,10,09,56,059,47,04,08,065,*63
$GBGSV,5,1,19,19,74,055,49,36,18,163,32,12,23,308,39,39,12,040,20*64
$GBGSV,5,2,19,05,23,128,,16,22,043,30,20,26,089,28,37,22,047,31*60
$GBGSV,5,3,19,44,27,282,46,35,21,231,38,06,24,045,32,46,39,109,*64
$GBGSV,5,4,19,58,37,086,,22,44,287,33,09,37,052,31,48,47,085,*62
$GBGSV,5,5,19,34,08,331,30,02,07,106,,60,08,111,*53
$GPGGA,035947.00,,,,,0,00,,,M,,M,,*44
$PTNL,GGK,035947.00,010125,4742.4465847,N,01617.9732366,E,1,22,1.3,EHT668.9308,M*4E
$GPGGQ,035947.00,010125,4742.4465847,N,01617.9732366,E,1,22,2.307,625.7198,M*38
$GPGFA,035947.00,8.963,16.325,0.943,0.685,23.782,1.991,,VVV*01
$GPLLK,035947.00,010125,,M,,M,1,22,1.5,,M*03
$GNGMP,035947.00,,,,,DAAA,22,0.6,,,,*5C
$GPGMP,035947.00,,,,,,06,,,,1.0,123*76
$GLGMP,035947.00,,,,,,06,,,,,*75
$GAGMP,035947.00,,,,,,06,,,,,*78
$GBGMP,035947.00,,,,,,04,,,,,*79
$PSSN,SNC,[0,273605000,2347]*41
$GPZDA,035952.00,01,01,2025,,*6B
$GPDTM,W84,,00.0000000,N,00.0000000,E,00.0000000,W84*5F
$GPRMC,035952.00,A,4742.4465938,N,01617.9732217,E,0.0,,010125,5.1,E,D*1B
$GPGLL,4742.4465938,N,01617.9732217,E,035952.00,A,D*6A
$GPGGA,035952.00,4742.4465938,N,01617.9732217,E,2,24,0.6,625.7191,M,43.2111,M,2.0,0123*4E
$GNGNS,035952.00,4742.4465938,N,01617.9732217,E,DAAA,24,0.6,625.7191,43.2111,,*50
$GPGNS,035952.00,,,,,,06,,,,2.0,123*71
$GLGNS,035952.00,,,,,,07,,,,,*70
$GAGNS,035952.00,,,,,,06,,,,,*7C
$GBGNS,035952.00,,,,,,05,,,,,*7C
$GPLLQ,035952.00,010125,,M,,M,1,24,2.257,,M*1D
$GPVTG,,T,,M,0.00,N,0.01,K,D*27
$GPHDT,,T*1B
$GPTHS,,V*0E
$GPROT,,V*08
$PSSN,HRP,035952.00,010125,,,,,,,00,0,,*69
$PTNL,AVR,035952.00,,Yaw,,Tilt,,,,0,,00*3F
$GPGSA,A,3,03,04,06,07,09,11,,,,,,,1.2,0.6,1.0*39
$GPGSA,A,3,70,71,72,79,80,86,87,,,,,,1.2,0.6,1.0*35
$GPGSA,A,3,05,06,09,15,34,36,,,,,,,1.2,0.6,1.0*3A
$GPGSA,A,3,12,19,22,35,44,,,,,,,,1.2,0.6,1.0*3B
$GPGST,035952.00,5.353,0.921,0.676,23.407,0.887,0.720,1.947*69
$GPGBS,035952.00,4.073,2.590,7.737,72,0.0001,13.665,6.194*64
$GPGRS,035952.00,1,0.1,0.7,0.2,0.7,-0.3,-1.7,,,,,,*40
$GPGRS,035952.00,1,-2.5,-0.3,13.7,12.2,-2.4,-2.3,-3.6,,,,,*47
$GPGRS,035952.00,1,-0.6,-1.4,-0.0,-0.7,-1.1,1.6,,,,,,*68
$GPGRS,035952.00,1,-7.1,-3.2,-5.3,2.6,-3.9,,,,,,,*67
$GPGSV,4,1,16,09,83,344,50,16,13,078,,26,13,048,,20,13,305,31*7B
$GPGSV,4,2,16,03,28,117,40,07,40,180,45,11,32,308,48,06,54,261,49*70
$GPGSV,4,3,16,04,57,059,43,19,03,240,,30,09,200,,31,04,036,*72
$GPGSV,4,4,16,36,35,170,40,34,31,208,,49,34,195,34,61,03,257,*74
$GLGSV,3,1,09,71,63,322,48,79,12,020,36,72,21,279,43,80,37,071,44*6F
$GLGSV,3,2,09,73,25,136,42,86,42,244,42,87,37,310,46,70,47,061,41*6D
$GLGSV,3,3,09,85,08,197,24*50
$GAGSV,3,1,10,05,65,257,45,15,20,321,38,23,11,042,,31,13,091,*6E
$GAGSV,3,2,10,36,39,188,39,03,14,249,30,06,32,064,38,34,57,272,48*66
$GAGSV,3,3,10,09,56,059,47,04,08,066,*60
$GBGSV,5,1,19,19,74,055,49,36,18,163,32,05,23,128,,39,12,040,20*68
$GBGSV,5,2,19,12,23,308,38,16,22,043,30,20,26,089,32,37,22,047,31*66
$GBGSV,5,3,19,44,27,281,46,35,21,231,39,06,24,045,32,46,39,109,*66
$GBGSV,5,4,19,58,37,086,,22,44,287,26,09,37,052,31,48,47,085,*66
$GBGSV,5,5,19,34,08,331,31,02,07,106,,60,08,111,*52
$GPGGA,035952.00,,,,,0,00,,,M,,M,,*40
$PTNL,GGK,035952.00,010125,4742.4465938,N,01617.9732217,E,1,24,1.2,EHT668.9302,M*49
$GPGGQ,035952.00,010125,4742.4465938,N,01617.9732217,E,1,24,2.257,625.7191,M*39
$GPGFA,035952.00,8.755,15.962,0.921,0.676,23.407,1.947,,VVV*09
$GPLLK,035952.00,010125,,M,,M,1,24,1.4,,M*00
$GNGMP,035952.00,,,,,DAAA,24,0.6,,,,*5E
$GPGMP,035952.00,,,,,,06,,,,2.0,123*71
$GLGMP,035952.00,,,,,,07,,,,,*70
$GAGMP,035952.00,,,,,,06,,,,,*7C
$GBGMP,035952.00,,,,,,05,,,,,*7C
$PSSN,SNC,[0,273610000,2347]*45
$GPZDA,035957.00,01,01,2025,,*6E
$GPDTM,W84,,00.0000000,N,00.0000000,E,00.0000000,W84*5F
$GPRMC,035957.00,A,4742.4466023,N,01617.9732167,E,0.0,,010125,5.1,E,D*1A
$GPGLL,4742.4466023,N,01617.9732167,E,035957.00,A,D*6B
$GPGGA,035957.00,4742.4466023,N,01617.9732167,E,2,24,0.6,625.7201,M,43.2111,M,3.0,0123*44
$GNGNS,035957.00,4742.4466023,N,01617.9732167,E,DAAA,24,0.6,625.7201,43.2111,,*5B
$GPGNS,035957.00,,,,,,06,,,,3.0,123*75
$GLGNS,035957.00,,,,,,07,,,,,*75
$GAGNS,035957.00,,,,,,06,,,,,*79
$GBGNS,035957.00,,,,,,05,,,,,*79
$GPLLQ,035957.00,010125,,M,,M,1,24,2.442,,M*1A
$GPVTG,,T,,M,0.00,N,0.01,K,D*27
$GPHDT,,T*1B
$GPTHS,,V*0E
$GPROT,,V*08
$PSSN,HRP,035957.00,010125,,,,,,,00,0,,*6C
$PTNL,AVR,035957.00,,Yaw,,Tilt,,,,0,,00*3A
$GPGSA,A,3,03,04,06,07,09,11,,,,,,,1.2,0.6,1.0*39
$GPGSA,A,3,70,71,72,79,80,86,87,,,,,,1.2,0.6,1.0*35
$GPGSA,A,3,05,06,09,15,34,36,,,,,,,1.2,0.6,1.0*3A
$GPGSA,A,3,12,19,22,35,44,,,,,,,,1.2,0.6,1.0*3B
$GPGST,035957.00,6.617,0.997,0.730,23.481,0.960,0.778,2.106*61
$GPGBS,035957.00,4.146,2.626,7.863,72,0.0001,18.473,6.194*68
$GPGRS,035957.00,1,-0.2,0.1,0.0,0.8,-0.2,-1.1,,,,,,*67
$GPGRS,035957.00,1,-2.4,-0.1,18.5,15.2,-4.4,-2.7,-4.4,,,,,*48
$GPGRS,035957.00,1,-0.2,-0.7,0.2,-0.9,-0.9,2.5,,,,,,*43
$GPGRS,035957.00,1,-7.5,-3.5,-4.9,1.6,-3.9,,,,,,,*69
$GPGSV,4,1,16,09,83,345,49,16,13,078,,26,13,048,,20,13,305,32*71
$GPGSV,4,2,16,03,28,117,42,07,40,180,45,11,32,308,48,06,54,261,49*72
$GPGSV,4,3,16,04,57,059,43,19,03,240,,30,09,200,,31,04,036,*72
$GPGSV,4,4,16,36,35,170,40,34,31,208,,49,34,195,34,61,03,257,*74
$GLGSV,3,1,09,71,63,322,47,79,12,020,36,72,21,279,42,80,37,071,43*66
$GLGSV,3,2,09,73,25,136,40,86,42,244,43,87,37,310,45,70,47,061,42*6E
$GLGSV,3,3,09,85,08,197,25*51
$GAGSV,3,1,10,05,65,257,45,15,20,321,38,23,11,042,,31,13,091,*6E
$GAGSV,3,2,10,36,39,188,39,03,14,249,30,06,32,064,38,34,57,271,49*64
$GAGSV,3,3,10,09,56,059,47,04,08,066,*60
$GBGSV,5,1,19,19,74,055,49,36,18,163,33,05,23,128,,39,12,040,*6B
$GBGSV,5,2,19,12,23,308,38,16,22,043,29,20,26,089,25,37,22,047,36*6F
$GBGSV,5,3,19,44,27,281,45,35,21,231,39,06,24,045,33,46,39,109,*64
$GBGSV,5,4,19,58,37,086,,22,44,287,42,09,37,052,30,48,47,085,*65
$GBGSV,5,5,19,34,08,331,30,02,07,106,,60,08,111,*53
$GPGGA,035957.00,,,,,0,00,,,M,,M,,*45
$PTNL,GGK,035957.00,010125,4742.4466023,N,01617.9732167,E,1,24,1.2,EHT668.9312,M*49
$GPGGQ,035957.00,010125,4742.4466023,N,01617.9732167,E,1,24,2.442,625.7201,M*30
$GPGFA,035957.00,9.479,17.270,0.997,0.730,23.481,2.106,,VVV*04
$GPLLK,035957.00,010125,,M,,M,1,24,1.3,,M*02
$GNGMP,035957.00,,,,,DAAA,24,0.6,,,,*5B
$GPGMP,035957.00,,,,,,06,,,,3.0,123*75
$GLGMP,035957.00,,,,,,07,,,,,*75
$GAGMP,035957.00,,,,,,06,,,,,*79
$GBGMP,035957.00,,,,,,05,,,,,*79
$PSSN,SNC,[0,273615000,2347]*40
$GPZDA,040002.00,01,01,2025,,*65
$GPDTM,W84,,00.0000000,N,00.0000000,E,00.0000000,W84*5F
$GPRMC,040002.00,A,4742.4466118,N,01617.9732142,E,0.0,,010125,5.1,E,D*1F
$GPGLL,4742.4466118,N,01617.9732142,E,040002.00,A,D*6E
$GPGGA,040002.00,4742.4466118,N,01617.9732142,E,2,22,0.6,625.7165,M,43.2111,M,4.0,0123*41
$GNGNS,040002.00,4742.4466118,N,01617.9732142,E,DAAA,22,0.6,625.7165,43.2111,,*59
$GPGNS,040002.00,,,,,,06,,,,4.0,123*79
$GLGNS,040002.00,,,,,,06,,,,,*7F
$GAGNS,040002.00,,,,,,06,,,,,*72
$GBGNS,040002.00,,,,,,04,,,,,*73
$GPLLQ,040002.00,010125,,M,,M,1,22,2.479,,M*1F
$GPVTG,,T,,M,0.01,N,0.01,K,D*26
$GPHDT,,T*1B
$GPTHS,,V*0E
$GPROT,,V*08
$PSSN,HRP,040002.00,010125,,,,,,,00,0,,*67
$PTNL,AVR,040002.00,,Yaw,,Tilt,,,,0,,00*31
$GPGSA,A,3,03,04,06,07,09,11,,,,,,,1.3,0.6,1.1*39
$GPGSA,A,3,70,71,72,80,86,87,,,,,,,1.3,0.6,1.1*3B
$GPGSA,A,3,05,06,09,15,34,36,,,,,,,1.3,0.6,1.1*3A
$GPGSA,A,3,12,19,35,44,,,,,,,,,1.3,0.6,1.1*3B
$GPGST,040002.00,4.813,1.012,0.737,23.667,0.973,0.788,2.139*6B
$GPGBS,040002.00,4.274,2.686,8.129,72,0.0001,14.587,6.194*65
$GPGRS,040002.00,1,-0.4,0.1,-0.1,0.9,0.0,-1.0,,,,,,*69
$GPGRS,040002.00,1,-1.0,-0.4,14.6,-5.2,-2.8,-5.6,,,,,,*5D
$GPGRS,040002.00,1,-0.1,-0.7,0.5,-0.6,-0.7,3.9,,,,,,*40
$GPGRS,040002.00,1,-4.4,-3.4,1.8,-3.8,,,,,,,,*60
$GPGSV,4,1,16,09,83,345,48,16,13,078,,26,13,048,,20,13,305,33*71
$GPGSV,4,2,16,03,27,117,42,07,40,180,44,11,33,307,48,06,54,261,49*72
$GPGSV,4,3,16,04,57,059,44,19,03,240,,30,09,200,,31,04,036,*75
$GPGSV,4,4,16,36,35,170,40,34,31,208,,49,34,195,34,61,03,257,*74
$GLGSV,3,1,09,71,63,322,47,79,12,020,35,72,21,279,41,80,38,071,43*69
$GLGSV,3,2,09,73,25,136,39,86,42,244,44,87,37,310,45,70,47,061,42*67
$GLGSV,3,3,09,85,08,197,24*50
$GAGSV,3,1,10,05,65,257,45,15,20,321,37,23,11,042,,31,13,091,*61
$GAGSV,3,2,10,36,39,188,39,03,14,249,29,06,32,064,37,34,57,271,48*62
$GAGSV,3,3,10,09,56,059,46,04,08,066,*61
$GBGSV,5,1,19,19,74,055,50,36,18,163,35,05,23,128,,39,12,040,19*6D
$GBGSV,5,2,19,12,23,308,38,16,22,043,28,20,26,089,32,37,22,047,35*6B
$GBGSV,5,3,19,44,27,281,45,35,21,231,38,06,24,045,32,46,39,109,*64
$GBGSV,5,4,19,58,37,086,,22,44,287,36,09,37,052,30,48,47,085,*66
$GBGSV,5,5,19,34,08,331,31,02,07,106,,60,08,111,*52
$GPGGA,040002.00,,,,,0,00,,,M,,M,,*4E
$PTNL,GGK,040002.00,010125,4742.4466118,N,01617.9732142,E,1,22,1.3,EHT668.9276,M*48
$GPGGQ,040002.00,010125,4742.4466118,N,01617.9732142,E,1,22,2.479,625.7165,M*3A
$GPGFA,040002.00,9.621,17.542,1.012,0.737,23.667,2.139,,VVV*02
$GPLLK,040002.00,010125,,M,,M,1,22,1.5,,M*09
$GNGMP,040002.00,,,,,DAAA,22,0.6,,,,*56
$GPGMP,040002.00,,,,,,06,,,,4.0,123*79
$GLGMP,040002.00,,,,,,06,,,,,*7F
$GAGMP,040002.00,,,,,,06,,,,,*72
$GBGMP,040002.00,,,,,,04,,,,,*73
$PSSN,SNC,[0,273620000,2347]*46
$GPZDA,040007.00,01,01,2025,,*60
$GPDTM,W84,,00.0000000,N,00.0000000,E,00.0000000,W84*5F
$GPRMC,040007.00,A,4742.4466163,N,01617.9732100,E,0.0,,010125,5.1,E,D*10
$GPGLL,4742.4466163,N,01617.9732100,E,040007.00,A,D*61
$GPGGA,040007.00,4742.4466163,N,01617.9732100,E,2,23,0.6,625.7164,M,43.2111,M,1.0,0123*4B
$GNGNS,040007.00,4742.4466163,N,01617.9732100,E,DAAA,23,0.6,625.7164,43.2111,,*56
$GPGNS,040007.00,,,,,,06,,,,1.0,123*79
$GLGNS,040007.00,,,,,,06,,,,,*7A
$GAGNS,040007.00,,,,,,06,,,,,*77
$GBGNS,040007.00,,,,,,05,,,,,*77
$GPLLQ,040007.00,010125,,M,,M,1,23,1.644,,M*14
$GPVTG,,T,,M,0.00,N,0.01,K,D*27
$GPHDT,,T*1B
$GPTHS,,V*0E
$GPROT,,V*08
$PSSN,HRP,040007.00,010125,,,,,,,00,0,,*62
$PTNL,AVR,040007.00,,Yaw,,Tilt,,,,0,,00*34
$GPGSA,A,3,03,04,06,07,09,11,,,,,,,1.2,0.6,1.0*39
$GPGSA,A,3,70,71,72,80,86,87,,,,,,,1.2,0.6,1.0*3B
$GPGSA,A,3,05,06,09,15,34,36,,,,,,,1.2,0.6,1.0*3A
$GPGSA,A,3,12,19,35,36,44,,,,,,,,1.2,0.6,1.0*3E
$GPGST,040007.00,3.243,0.671,0.487,23.645,0.645,0.521,1.420*69
$GPGBS,040007.00,4.031,2.567,7.732,87,0.0001,-6.510,6.104*7F
$GPGRS,040007.00,1,-0.4,-0.0,-0.3,0.7,0.5,-0.8,,,,,,*40
$GPGRS,040007.00,1,-0.3,-0.8,5.5,-2.8,-2.8,-6.5,,,,,,*68
$GPGRS,040007.00,1,-0.6,-0.9,0.6,-1.4,-0.9,4.1,,,,,,*4D
$GPGRS,040007.00,1,-2.2,-3.3,3.9,3.2,-4.0,,,,,,,*41
$GPGSV,4,1,16,09,83,345,48,16,13,078,,26,13,048,,20,13,305,33*71
$GPGSV,4,2,16,03,27,117,43,07,40,180,43,11,33,307,48,06,54,261,48*75
$GPGSV,4,3,16,04,57,059,44,19,03,240,,30,09,200,,31,04,036,*75
$GPGSV,4,4,16,36,35,170,40,34,31,208,,49,34,195,35,61,03,257,*75
$GLGSV,3,1,09,71,63,323,46,79,12,020,36,72,21,279,37,80,38,071,43*6B
$GLGSV,3,2,09,73,25,136,37,86,42,244,44,87,37,310,44,70,47,061,42*68
$GLGSV,3,3,09,85,08,197,25*51
$GAGSV,3,1,10,05,65,257,45,15,20,321,36,23,11,042,,31,13,091,*60
$GAGSV,3,2,10,36,39,188,40,03,14,249,28,06,32,064,37,34,57,271,48*6D
$GAGSV,3,3,10,09,56,059,46,04,08,066,*61
$GBGSV,5,1,19,19,74,055,50,36,18,163,37,12,23,308,39,39,12,040,20*69
$GBGSV,5,2,19,05,23,128,,16,22,043,29,20,26,089,35,35,21,231,38*6F
$GBGSV,5,3,19,44,27,281,44,37,22,047,34,06,24,045,32,46,39,108,*6A
$GBGSV,5,4,19,58,37,086,,22,44,287,38,09,37,052,29,48,47,085,*60
$GBGSV,5,5,19,02,07,106,,34,08,331,33,60,08,111,*50
$GPGGA,040007.00,,,,,0,00,,,M,,M,,*4B
$PTNL,GGK,040007.00,010125,4742.4466163,N,01617.9732100,E,1,23,1.2,EHT668.9274,M*45
$GPGGQ,040007.00,010125,4742.4466163,N,01617.9732100,E,1,23,1.644,625.7164,M*3A
$GPGFA,040007.00,6.378,11.646,0.671,0.487,23.645,1.420,,VVV*04
$GPLLK,040007.00,010125,,M,,M,1,23,1.4,,M*0C
$GNGMP,040007.00,,,,,DAAA,23,0.6,,,,*52
$GPGMP,040007.00,,,,,,06,,,,1.0,123*79
$GLGMP,040007.00,,,,,,06,,,,,*7A
$GAGMP,040007.00,,,,,,06,,,,,*77
$GBGMP,040007.00,,,,,,05,,,,,*77
$PSSN,SNC,[0,273625000,2347]*43
$GPZDA,040012.00,01,01,2025,,*64
$GPDTM,W84,,00.0000000,N,00.0000000,E,00.0000000,W84*5F
$GPRMC,040012.00,A,4742.4466209,N,01617.9732101,E,0.0,,010125,5.1,E,D*1A
$GPGLL,4742.4466209,N,01617.9732101,E,040012.00,A,D*6B
$GPGGA,040012.00,4742.4466209,N,01617.9732101,E,2,24,0.6,625.7052,M,43.2111,M,2.0,0123*41
$GNGNS,040012.00,4742.4466209,N,01617.9732101,E,DAAA,24,0.6,625.7052,43.2111,,*5F
$GPGNS,040012.00,,,,,,06,,,,2.0,123*7E
$GLGNS,040012.00,,,,,,07,,,,,*7F
$GAGNS,040012.00,,,,,,05,,,,,*70
$GBGNS,040012.00,,,,,,06,,,,,*70
$GPLLQ,040012.00,010125,,M,,M,1,24,1.853,,M*1F
$GPVTG,,T,,M,0.00,N,0.00,K,D*26
$GPHDT,,T*1B
$GPTHS,,V*0E
$GPROT,,V*08
$PSSN,HRP,040012.00,010125,,,,,,,00,0,,*66
$PTNL,AVR,040012.00,,Yaw,,Tilt,,,,0,,00*30
$GPGSA,A,3,03,04,06,07,09,11,,,,,,,1.2,0.6,1.0*39
$GPGSA,A,3,70,71,72,73,80,86,87,,,,,,1.2,0.6,1.0*3F
$GPGSA,A,3,05,06,09,34,36,,,,,,,,1.2,0.6,1.0*3E
$GPGSA,A,3,12,19,20,35,36,44,,,,,,,1.2,0.6,1.0*3C
$GPGST,040012.00,5.599,0.752,0.546,22.662,0.725,0.581,1.604*6A
$GPGBS,040012.00,4.094,2.583,7.977,20,0.0001,18.637,8.645*64
$GPGRS,040012.00,1,-1.0,-0.1,-0.4,0.4,0.7,-0.1,,,,,,*4F
$GPGRS,040012.00,1,-1.9,-1.0,-0.7,4.0,-1.9,-2.6,-6.7,,,,,*60
$GPGRS,040012.00,1,-0.2,-1.2,1.0,-1.0,3.7,,,,,,,*4F
$GPGRS,040012.00,1,-3.5,-3.4,18.6,6.3,3.4,-4.0,,,,,,*5C
$GPGSV,4,1,16,09,83,346,48,16,13,078,,26,13,048,,20,13,305,34*75
$GPGSV,4,2,16,03,27,117,42,07,40,180,42,11,33,307,47,06,54,261,48*7A
$GPGSV,4,3,16,04,57,059,44,19,03,240,23,30,09,200,,31,04,036,*74
$GPGSV,4,4,16,36,35,170,40,34,31,208,,49,34,195,35,61,03,257,*75
$GLGSV,3,1,09,71,63,323,45,79,12,020,37,72,21,279,35,80,38,071,42*6A
$GLGSV,3,2,09,73,25,136,37,86,42,244,43,87,37,310,44,70,47,061,42*6F
$GLGSV,3,3,09,85,08,197,24*50
$GAGSV,3,1,10,05,65,257,45,15,20,321,34,23,11,042,,31,13,091,*62
$GAGSV,3,2,10,36,39,188,39,03,14,249,26,06,32,064,36,34,57,271,48*6C
$GAGSV,3,3,10,09,56,059,46,04,08,066,*61
$GBGSV,5,1,19,19,74,055,50,36,18,163,39,05,23,128,,39,12,040,*69
$GBGSV,5,2,19,12,23,308,39,16,22,043,29,20,26,089,36,35,21,231,37*6F
$GBGSV,5,3,19,44,27,281,43,37,22,047,31,06,24,045,32,46,39,108,*68
$GBGSV,5,4,19,58,37,086,,22,44,287,38,09,37,052,29,48,47,085,*60
$GBGSV,5,5,19,02,07,106,,34,08,331,33,60,08,111,*50
$GPGGA,040012.00,,,,,0,00,,,M,,M,,*4F
$PTNL,GGK,040012.00,010125,4742.4466209,N,01617.9732101,E,1,24,1.2,EHT668.9163,M*4D
$GPGGQ,040012.00,010125,4742.4466209,N,01617.9732101,E,1,24,1.853,625.7052,M*3B
$GPGFA,040012.00,7.147,13.151,0.752,0.546,22.662,1.604,,VVV*00
$GPLLK,040012.00,010125,,M,,M,1,24,1.4,,M*0F
$GNGMP,040012.00,,,,,DAAA,24,0.6,,,,*51
$GPGMP,040012.00,,,,,,06,,,,2.0,123*7E
$GLGMP,040012.00,,,,,,07,,,,,*7F
$GAGMP,040012.00,,,,,,05,,,,,*70
$GBGMP,040012.00,,,,,,06,,,,,*70
$PSSN,SNC,[0,273630000,2347]*47
$GPZDA,040017.00,01,01,2025,,*61
$GPDTM,W84,,00.0000000,N,00.0000000,E,00.0000000,W84*5F
$GPRMC,040017.00,A,4742.4466207,N,01617.9732110,E,0.0,,010125,5.1,E,D*11
$GPGLL,4742.4466207,N,01617.9732110,E,040017.00,A,D*60
$GPGGA,040017.00,4742.4466207,N,01617.9732110,E,2,24,0.6,625.7025,M,43.2111,M,3.0,0123*4B
$GNGNS,040017.00,4742.4466207,N,01617.9732110,E,DAAA,24,0.6,625.7025,43.2111,,*54
$GPGNS,040017.00,,,,,,06,,,,3.0,123*7A
$GLGNS,040017.00,,,,,,07,,,,,*7A
$GAGNS,040017.00,,,,,,05,,,,,*75
$GBGNS,040017.00,,,,,,06,,,,,*75
$GPLLQ,040017.00,010125,,M,,M,1,24,2.008,,M*1F
$GPVTG,,T,,M,0.00,N,0.01,K,D*27
$GPHDT,,T*1B
$GPTHS,,V*0E
$GPROT,,V*08
$PSSN,HRP,040017.00,010125,,,,,,,00,0,,*63
$PTNL,AVR,040017.00,,Yaw,,Tilt,,,,0,,00*35
$GPGSA,A,3,03,04,06,07,09,11,,,,,,,1.2,0.6,1.1*38
$GPGSA,A,3,70,71,72,73,80,86,87,,,,,,1.2,0.6,1.1*3E
$GPGSA,A,3,05,06,09,34,36,,,,,,,,1.2,0.6,1.1*3F
$GPGSA,A,3,12,19,20,22,36,44,,,,,,,1.2,0.6,1.1*3B
$GPGST,040017.00,6.110,0.816,0.590,22.828,0.786,0.629,1.737*64
$GPGBS,040017.00,4.184,2.634,8.111,20,0.0001,21.604,8.644*62
$GPGRS,040017.00,1,-1.0,0.0,-0.4,0.0,0.5,0.3,,,,,,*4F
$GPGRS,040017.00,1,-1.6,-0.6,3.3,4.5,-3.8,-3.3,-6.1,,,,,*43
$GPGRS,040017.00,1,0.6,-0.5,1.4,-0.9,2.9,,,,,,,*66
$GPGRS,040017.00,1,-3.6,-2.8,21.6,-4.0,3.2,-3.3,,,,,,*73
$GPGSV,4,1,16,09,83,346,48,16,13,078,,26,13,048,,20,13,305,35*74
$GPGSV,4,2,16,03,27,117,43,07,41,180,41,11,33,307,47,06,54,261,48*79
$GPGSV,4,3,16,04,57,059,43,19,03,240,,30,09,200,,31,03,036,*75
$GPGSV,4,4,16,36,35,170,40,34,31,208,,49,34,195,35,61,03,257,*75
$GLGSV,3,1,09,71,63,323,46,79,12,020,39,72,21,279,38,80,38,071,42*6A
$GLGSV,3,2,09,73,25,136,37,86,42,244,42,87,37,310,43,70,47,061,42*69
$GLGSV,3,3,09,85,07,197,22*59
$GAGSV,3,1,10,05,65,257,44,15,20,321,34,23,11,042,,31,13,091,*63
$GAGSV,3,2,10,36,39,188,39,03,14,249,25,06,32,064,35,34,57,271,48*6C
$GAGSV,3,3,10,09,56,059,47,04,08,066,*60
$GBGSV,5,1,19,19,73,055,50,36,18,163,39,05,23,128,,39,12,040,*6E
$GBGSV,5,2,19,12,23,308,41,16,22,043,28,20,26,089,37,35,21,231,35*62
$GBGSV,5,3,19,44,27,281,43,37,22,047,31,06,24,045,32,46,39,108,*68
$GBGSV,5,4,19,58,37,085,,22,44,287,44,09,37,052,29,48,47,085,*68
$GBGSV,5,5,19,02,07,106,,34,08,331,35,60,08,111,*56
$GPGGA,040017.00,,,,,0,00,,,M,,M,,*4A
$PTNL,GGK,040017.00,010125,4742.4466207,N,01617.9732110,E,1,24,1.2,EHT668.9136,M*46
$GPGGQ,040017.00,010125,4742.4466207,N,01617.9732110,E,1,24,2.008,625.7025,M*35
$GPGFA,040017.00,7.760,14.247,0.816,0.590,22.828,1.737,,VVV*00
$GPLLK,040017.00,010125,,M,,M,1,24,1.4,,M*0A
$GNGMP,040017.00,,,,,DAAA,24,0.6,,,,*54
$GPGMP,040017.00,,,,,,06,,,,3.0,123*7A
$GLGMP,040017.00,,,,,,07,,,,,*7A
$GAGMP,040017.00,,,,,,05,,,,,*75
$GBGMP,040017.00,,,,,,06,,,,,*75
$PSSN,SNC,[0,273635000,2347]*42
$GPZDA,040022.00,01,01,2025,,*67
$GPDTM,W84,,00.0000000,N,00.0000000,E,00.0000000,W84*5F
$GPRMC,040022.00,A,4742.4466186,N,01617.9732152,E,0.0,,010125,5.1,E,D*1B
$GPGLL,4742.4466186,N,01617.9732152,E,040022.00,A,D*6A
$GPGGA,040022.00,4742.4466186,N,01617.9732152,E,2,24,0.6,625.6974,M,43.2111,M,4.0,0123*4A
$GNGNS,040022.00,4742.4466186,N,01617.9732152,E,DAAA,24,0.6,625.6974,43.2111,,*52
$GPGNS,040022.00,,,,,,06,,,,4.0,123*7B
$GLGNS,040022.00,,,,,,07,,,,,*7C
$GAGNS,040022.00,,,,,,04,,,,,*72
$GBGNS,040022.00,,,,,,07,,,,,*72
$GPLLQ,040022.00,010125,,M,,M,1,24,2.426,,M*11
$GPVTG,,T,,M,0.00,N,0.01,K,D*27
$GPHDT,,T*1B
$GPTHS,,V*0E
$GPROT,,V*08
$PSSN,HRP,040022.00,010125,,,,,,,00,0,,*65
$PTNL,AVR,040022.00,,Yaw,,Tilt,,,,0,,00*33
$GPGSA,A,3,03,04,06,07,09,11,,,,,,,1.1,0.6,0.9*32
$GPGSA,A,3,70,71,72,73,80,86,87,,,,,,1.1,0.6,0.9*34
$GPGSA,A,3,05,09,34,36,,,,,,,,,1.1,0.6,0.9*33
$GPGSA,A,3,12,19,20,22,34,36,44,,,,,,1.1,0.6,0.9*36
$GPGST,040022.00,8.021,0.991,0.710,23.801,0.951,0.763,2.097*64
$GPGBS,040022.00,4.285,2.713,8.223,20,0.0001,28.417,8.644*69
$GPGRS,040022.00,1,-0.5,-0.2,-0.4,-0.1,0.3,0.9,,,,,,*42
$GPGRS,040022.00,1,-3.4,1.1,9.8,4.5,-2.9,-4.4,-6.1,,,,,*6F
$GPGRS,040022.00,1,0.1,1.2,-1.4,2.8,,,,,,,,*6A
$GPGRS,040022.00,1,-2.6,-2.9,28.4,-4.3,-5.5,2.8,-3.0,,,,,*76
$GPGSV,4,1,16,09,83,346,47,16,13,078,,26,13,048,,20,13,305,35*7B
$GPGSV,4,2,16,03,27,117,43,07,41,180,40,11,33,307,47,06,54,261,48*78
$GPGSV,4,3,16,04,57,059,42,19,03,240,,30,09,200,,31,03,036,*74
$GPGSV,4,4,16,36,35,170,40,34,31,208,,49,34,195,34,61,03,257,*74
$GLGSV,3,1,09,71,63,323,46,79,12,020,40,72,21,279,42,80,38,071,42*69
$GLGSV,3,2,09,73,25,136,37,86,42,244,42,87,37,310,43,70,47,061,41*6A
$GLGSV,3,3,09,85,07,197,22*59
$GAGSV,3,1,10,05,65,258,43,15,20,321,32,23,11,042,,31,13,091,*6D
$GAGSV,3,2,10,36,39,188,38,03,14,249,32,06,32,064,34,34,57,271,48*6A
$GAGSV,3,3,10,09,56,059,47,04,08,066,*60
$GBGSV,5,1,19,19,73,055,50,36,18,163,40,05,23,128,,39,12,040,*60
$GBGSV,5,2,19,12,23,308,42,16,22,043,28,20,26,089,38,35,21,231,31*6A
$GBGSV,5,3,19,44,27,281,42,37,22,047,32,06,24,045,31,46,39,108,*69
$GBGSV,5,4,19,58,37,085,,22,44,287,44,09,37,052,29,48,47,085,*68
$GBGSV,5,5,19,02,07,106,,34,08,331,36,60,08,111,*55
$GPGGA,040022.00,,,,,0,00,,,M,,M,,*4C
$PTNL,GGK,040022.00,010125,4742.4466186,N,01617.9732152,E,1,24,1.1,EHT668.9084,M*47
$GPGGQ,040022.00,010125,4742.4466186,N,01617.9732152,E,1,24,2.426,625.6974,M*3B
$GPGFA,040022.00,9.425,17.193,0.991,0.710,23.801,2.097,,VVV*03
$GPLLK,040022.00,010125,,M,,M,1,24,1.3,,M*0B
$GNGMP,040022.00,,,,,DAAA,24,0.6,,,,*52
$GPGMP,040022.00,,,,,,06,,,,4.0,123*7B
$GLGMP,040022.00,,,,,,07,,,,,*7C
$GAGMP,040022.00,,,,,,04,,,,,*72
$GBGMP,040022.00,,,,,,07,,,,,*72
$PSSN,SNC,[0,273640000,2347]*40
$GPZDA,040027.00,01,01,2025,,*62
$GPDTM,W84,,00.0000000,N,00.0000000,E,00.0000000,W84*5F
$GPRMC,040027.00,A,4742.4466162,N,01617.9732184,E,0.0,,010125,5.1,E,D*1F
$GPGLL,4742.4466162,N,01617.9732184,E,040027.00,A,D*6E
$GPGGA,040027.00,4742.4466162,N,01617.9732184,E,2,26,0.6,625.7025,M,43.2111,M,1.4,0123*41
$GNGNS,040027.00,4742.4466162,N,01617.9732184,E,DAAA,26,0.6,625.7025,43.2111,,*58
$GPGNS,040027.00,,,,,,07,,,,1.4,123*7E
$GLGNS,040027.00,,,,,,07,,,,,*79
$GAGNS,040027.00,,,,,,04,,,,,*77
$GBGNS,040027.00,,,,,,08,,,,,*78
$GPLLQ,040027.00,010125,,M,,M,1,26,2.961,,M*18
$GPVTG,,T,,M,0.00,N,0.00,K,D*26
$GPHDT,,T*1B
$GPTHS,,V*0E
$GPROT,,V*08
$PSSN,HRP,040027.00,010125,,,,,,,00,0,,*60
$PTNL,AVR,040027.00,,Yaw,,Tilt,,,,0,,00*36
$GPGSA,A,3,03,04,06,07,09,11,20,,,,,,1.0,0.6,0.9*31
$GPGSA,A,3,70,71,72,73,80,86,87,,,,,,1.0,0.6,0.9*35
$GPGSA,A,3,05,09,34,36,,,,,,,,,1.0,0.6,0.9*32
$GPGSA,A,3,12,19,20,22,34,35,36,44,,,,,1.0,0.6,0.9*31
$GPGST,040027.00,9.449,1.263,0.889,26.380,1.199,0.975,2.526*6E
$GPGBS,040027.00,3.937,2.558,6.009,20,0.0001,33.120,8.644*6B
$GPGRS,040027.00,1,-0.6,-0.4,-0.5,0.2,0.4,0.8,-0.8,,,,,*60
$GPGRS,040027.00,1,-2.8,2.8,20.4,4.1,-2.9,-3.7,-5.7,,,,,*5F
$GPGRS,040027.00,1,-0.0,0.8,-1.5,3.9,,,,,,,,*49
$GPGRS,040027.00,1,-0.8,-3.2,33.1,2.5,-5.6,-2.9,2.5,-3.3,,,,*52
$GPGSV,4,1,16,09,83,347,47,16,13,078,,26,13,048,,20,13,305,35*7A
$GPGSV,4,2,16,03,27,117,43,07,41,180,38,11,33,307,48,06,54,261,48*78
$GPGSV,4,3,16,04,57,059,42,19,03,240,,30,09,200,,31,03,036,*74
$GPGSV,4,4,16,36,35,170,40,34,31,208,,49,34,195,35,61,03,257,*75
$GLGSV,3,1,09,71,63,323,47,79,12,020,40,72,21,279,43,80,38,071,43*68
$GLGSV,3,2,09,73,25,136,37,86,42,244,45,87,37,310,43,70,47,061,41*6D
$GLGSV,3,3,09,85,07,197,21*5A
$GAGSV,3,1,10,05,65,258,42,15,20,321,32,23,11,042,,31,13,091,*6C
$GAGSV,3,2,10,36,39,188,37,03,14,249,22,06,32,064,34,34,57,271,48*64
$GAGSV,3,3,10,09,56,059,47,04,08,066,*60
$GBGSV,5,1,19,19,73,055,50,36,18,163,39,05,23,128,,39,12,040,*6E
$GBGSV,5,2,19,12,23,308,42,16,22,043,28,20,26,089,38,35,21,231,25*6F
$GBGSV,5,3,19,44,27,281,42,37,22,047,32,06,24,045,31,46,39,108,*69
$GBGSV,5,4,19,58,37,085,,22,44,287,39,09,37,052,28,48,47,085,*63
$GBGSV,5,5,19,02,07,106,,34,08,331,36,60,08,111,*55
$GPGGA,040027.00,,,,,0,00,,,M,,M,,*49
$PTNL,GGK,040027.00,010125,4742.4466162,N,01617.9732184,E,1,26,1.0,EHT668.9136,M*48
$GPGGQ,040027.00,010125,4742.4466162,N,01617.9732184,E,1,26,2.961,625.7025,M*3F
$GPGFA,040027.00,12.011,20.712,1.263,0.889,26.380,2.526,,VVV*34
$GPLLK,040027.00,010125,,M,,M,1,26,1.2,,M*0D
$GNGMP,040027.00,,,,,DAAA,26,0.6,,,,*55
$GPGMP,040027.00,,,,,,07,,,,1.4,123*7E
$GLGMP,040027.00,,,,,,07,,,,,*79
$GAGMP,040027.00,,,,,,04,,,,,*77
$GBGMP,040027.00,,,,,,08,,,,,*78
$PSSN,SNC,[0,273645000,2347]*45
$GPZDA,040032.00,01,01,2025,,*66
$GPDTM,W84,,00.0000000,N,00.0000000,E,00.0000000,W84*5F
$GPRMC,040032.00,A,4742.4466055,N,01617.9732194,E,0.0,,010125,5.1,E,D*1F
$GPGLL,4742.4466055,N,01617.9732194,E,040032.00,A,D*6E
$GPGGA,040032.00,4742.4466055,N,01617.9732194,E,2,25,0.6,625.7018,M,43.2111,M,1.9,0123*41
$GNGNS,040032.00,4742.4466055,N,01617.9732194,E,DAAA,25,0.6,625.7018,43.2111,,*55
$GPGNS,040032.00,,,,,,07,,,,1.9,123*77
$GLGNS,040032.00,,,,,,08,,,,,*72
$GAGNS,040032.00,,,,,,04,,,,,*73
$GBGNS,040032.00,,,,,,06,,,,,*72
$GPLLQ,040032.00,010125,,M,,M,1,25,2.668,,M*19
$GPVTG,,T,,M,0.00,N,0.00,K,D*26
$GPHDT,,T*1B
$GPTHS,,V*0E
$GPROT,,V*08
$PSSN,HRP,040032.00,010125,,,,,,,00,0,,*64
$PTNL,AVR,040032.00,,Yaw,,Tilt,,,,0,,00*32
$GPGSA,A,3,03,04,06,07,09,11,20,,,,,,1.0,0.6,0.8*30
$GPGSA,A,3,70,71,72,73,79,80,86,87,,,,,1.0,0.6,0.8*3A
$GPGSA,A,3,05,09,34,36,,,,,,,,,1.0,0.6,0.8*33
$GPGSA,A,3,12,19,22,34,36,44,,,,,,,1.0,0.6,0.8*34
$GPGST,040032.00,8.763,1.257,0.852,30.615,1.165,0.973,2.194*67
$GPGBS,040032.00,3.983,2.598,5.980,72,0.0001,24.088,6.192*67
$GPGRS,040032.00,1,-0.5,0.2,-0.6,-1.9,0.8,0.7,0.5,,,,,*4B
$GPGRS,040032.00,1,-2.3,5.1,24.1,4.4,23.5,-2.5,-1.7,-7.0,,,,*4B
$GPGRS,040032.00,1,0.5,0.5,-1.5,7.9,,,,,,,,*6C
$GPGRS,040032.00,1,-0.9,-3.3,2.9,-5.6,3.2,-2.6,,,,,,*4F
$GPGSV,4,1,16,09,83,347,46,16,13,078,,26,13,048,,20,13,305,36*78
$GPGSV,4,2,16,03,27,117,43,07,41,180,36,11,33,307,48,06,54,261,46*78
$GPGSV,4,3,16,04,57,059,42,19,03,240,,30,09,200,,31,03,036,*74
$GPGSV,4,4,16,36,35,170,40,34,31,208,,49,34,195,35,61,03,257,*75
$GLGSV,3,1,09,71,63,323,47,79,12,020,38,72,21,279,42,80,38,071,42*67
$GLGSV,3,2,09,73,25,136,37,86,42,244,46,87,37,310,42,70,46,061,42*6D
$GLGSV,3,3,09,85,07,197,22*59
$GAGSV,3,1,10,05,65,258,42,15,20,321,33,23,11,042,,31,13,091,*6D
$GAGSV,3,2,10,36,39,188,36,03,14,249,22,06,32,064,33,34,57,271,47*6D
$GAGSV,3,3,10,09,56,059,47,04,08,066,*60
$GBGSV,5,1,19,19,73,056,50,36,18,163,39,05,23,128,,39,12,040,*6D
$GBGSV,5,2,19,12,23,308,42,16,22,043,29,20,26,089,37,35,21,231,24*60
$GBGSV,5,3,19,44,27,281,42,37,22,047,24,06,24,045,31,46,39,108,*6E
$GBGSV,5,4,19,58,37,085,,22,44,287,36,09,37,052,28,48,47,085,*6C
$GBGSV,5,5,19,02,07,106,,34,08,331,37,60,08,111,*54
$GPGGA,040032.00,,,,,0,00,,,M,,M,,*4D
$PTNL,GGK,040032.00,010125,4742.4466055,N,01617.9732194,E,1,25,1.0,EHT668.9129,M*45
$GPGGQ,040032.00,010125,4742.4466055,N,01617.9732194,E,1,25,2.668,625.7018,M*34
$GPGFA,040032.00,11.949,17.993,1.257,0.852,30.615,2.194,,VVV*36
$GPLLK,040032.00,010125,,M,,M,1,25,1.2,,M*0A
$GNGMP,040032.00,,,,,DAAA,25,0.6,,,,*52
$GPGMP,040032.00,,,,,,07,,,,1.9,123*77
$GLGMP,040032.00,,,,,,08,,,,,*72
$GAGMP,040032.00,,,,,,04,,,,,*73
$GBGMP,040032.00,,,,,,06,,,,,*72
$PSSN,SNC,[0,273650000,2347]*41
$GPZDA,040037.00,01,01,2025,,*63
$GPDTM,W84,,00.0000000,N,00.0000000,E,00.0000000,W84*5F
$GPRMC,040037.00,A,4742.4465890,N,01617.9732202,E,0.0,,010125,5.1,E,D*14
$GPGLL,4742.4465890,N,01617.9732202,E,040037.00,A,D*65
$GPGGA,040037.00,4742.4465890,N,01617.9732202,E,2,25,0.6,625.7133,M,43.2111,M,2.9,0123*41
$GNGNS,040037.00,4742.4465890,N,01617.9732202,E,DAAA,25,0.6,625.7133,43.2111,,*56
$GPGNS,040037.00,,,,,,07,,,,2.9,123*71
$GLGNS,040037.00,,,,,,08,,,,,*77
$GAGNS,040037.00,,,,,,04,,,,,*76
$GBGNS,040037.00,,,,,,06,,,,,*77
$GPLLQ,040037.00,010125,,M,,M,1,25,2.545,,M*10
$GPVTG,,T,,M,0.00,N,0.00,K,D*26
$GPHDT,,T*1B
$GPTHS,,V*0E
$GPROT,,V*08
$PSSN,HRP,040037.00,010125,,,,,,,00,0,,*61
$PTNL,AVR,040037.00,,Yaw,,Tilt,,,,0,,00*37
$GPGSA,A,3,03,04,06,07,09,11,20,,,,,,1.0,0.6,0.8*30
$GPGSA,A,3,70,71,72,73,79,80,86,87,,,,,1.0,0.6,0.8*3A
$GPGSA,A,3,05,09,34,36,,,,,,,,,1.0,0.6,0.8*33
$GPGSA,A,3,12,19,22,34,36,44,,,,,,,1.0,0.6,0.8*34
$GPGST,040037.00,7.716,1.201,0.812,31.005,1.111,0.932,2.092*6F
$GPGBS,040037.00,4.043,2.634,6.067,72,0.0001,20.269,6.193*6E
$GPGRS,040037.00,1,-0.3,0.2,-0.5,-0.7,0.3,0.2,2.2,,,,,*4F
$GPGRS,040037.00,1,-2.9,6.4,20.3,3.2,20.3,-2.7,-1.8,-7.8,,,,*45
$GPGRS,040037.00,1,1.0,0.2,-1.9,0.4,,,,,,,,*6C
$GPGRS,040037.00,1,-2.8,-3.3,-5.5,-6.1,3.3,-3.2,,,,,,*6F
$GPGSV,4,1,16,09,83,347,47,16,13,078,,26,13,048,,20,13,305,38*77
$GPGSV,4,2,16,03,27,117,43,07,41,180,38,11,33,307,48,06,54,261,46*76
$GPGSV,4,3,16,04,57,059,42,19,03,240,19,30,09,200,,31,03,036,*7C
$GPGSV,4,4,16,36,35,170,40,34,31,208,,49,34,195,35,61,03,257,*75
$GLGSV,3,1,09,71,63,323,46,79,12,020,36,72,21,279,40,80,38,071,42*6A
$GLGSV,3,2,09,73,25,136,35,86,42,244,46,87,37,310,41,70,46,061,42*6C
$GLGSV,3,3,09,85,07,197,21*5A
$GAGSV,3,1,10,05,65,258,43,15,20,321,34,23,11,042,,31,13,091,*6B
$GAGSV,3,2,10,36,39,188,45,03,14,249,24,06,32,064,34,34,57,271,46*69
$GAGSV,3,3,10,09,56,059,47,04,08,066,*60
$GBGSV,5,1,19,19,73,056,50,36,18,162,38,05,23,128,,39,12,040,*6D
$GBGSV,5,2,19,12,23,308,42,16,22,043,29,20,26,089,37,35,21,231,33*66
$GBGSV,5,3,19,44,27,281,42,37,22,047,25,06,24,045,30,46,39,108,*6E
$GBGSV,5,4,19,58,37,085,,22,44,287,43,09,37,052,26,48,47,085,*60
$GBGSV,5,5,19,02,07,106,,34,08,331,36,60,08,111,*55
$GPGGA,040037.00,,,,,0,00,,,M,,M,,*48
$PTNL,GGK,040037.00,010125,4742.4465890,N,01617.9732202,E,1,25,1.0,EHT668.9244,M*46
$GPGGQ,040037.00,010125,4742.4465890,N,01617.9732202,E,1,25,2.545,625.7133,M*3B
$GPGFA,040037.00,11.419,17.152,1.201,0.812,31.005,2.092,,VVV*38
$GPLLK,040037.00,010125,,M,,M,1,25,1.2,,M*0F
$GNGMP,040037.00,,,,,DAAA,25,0.6,,,,*57
$GPGMP,040037.00,,,,,,07,,,,2.9,123*71
$GLGMP,040037.00,,,,,,08,,,,,*77
$GAGMP,040037.00,,,,,,04,,,,,*76
$GBGMP,040037.00,,,,,,06,,,,,*77
$PSSN,SNC,[0,273655000,2347]*44
$GPZDA,040042.00,01,01,2025,,*61
$GPDTM,W84,,00.0000000,N,00.0000000,E,00.0000000,W84*5F
$GPRMC,040042.00,A,4742.4465890,N,01617.9732245,E,0.0,,010125,5.1,E,D*15
$GPGLL,4742.4465890,N,01617.9732245,E,040042.00,A,D*64
$GPGGA,040042.00,4742.4465890,N,01617.9732245,E,2,22,0.7,625.7276,M,43.2111,M,1.3,0123*4D
$GNGNS,040042.00,4742.4465890,N,01617.9732245,E,DAAA,22,0.7,625.7276,43.2111,,*53
$GPGNS,040042.00,,,,,,07,,,,1.3,123*7A
$GLGNS,040042.00,,,,,,06,,,,,*7B
$GAGNS,040042.00,,,,,,03,,,,,*73
$GBGNS,040042.00,,,,,,06,,,,,*75
$GPLLQ,040042.00,010125,,M,,M,1,22,2.798,,M*17
$GPVTG,,T,,M,0.00,N,0.01,K,D*27
$GPHDT,,T*1B
$GPTHS,,V*0E
$GPROT,,V*08
$PSSN,HRP,040042.00,010125,,,,,,,00,0,,*63
$PTNL,AVR,040042.00,,Yaw,,Tilt,,,,0,,00*35
$GPGSA,A,3,03,04,06,07,09,11,20,,,,,,1.1,0.7,0.9*31
$GPGSA,A,3,70,71,72,80,86,87,,,,,,,1.1,0.7,0.9*31
$GPGSA,A,3,05,09,34,,,,,,,,,,1.1,0.7,0.9*37
$GPGSA,A,3,12,19,20,34,36,44,,,,,,,1.1,0.7,0.9*37
$GPGST,040042.00,10.160,1.316,0.890,30.465,1.221,1.016,2.304*50
$GPGBS,040042.00,3.986,2.569,6.030,20,0.0001,31.644,8.646*6F
$GPGRS,040042.00,1,-0.3,-0.4,-0.5,0.5,0.1,-0.6,2.7,,,,,*67
$GPGRS,040042.00,1,-3.0,2.3,18.6,-1.8,-2.2,-7.8,,,,,,*77
$GPGRS,040042.00,1,0.9,0.4,-2.3,,,,,,,,,*43
$GPGRS,040042.00,1,-3.6,-3.8,31.6,-6.5,2.8,-4.9,,,,,,*72
$GPGSV,4,1,16,09,83,348,47,16,13,078,,26,13,048,,20,13,305,39*79
$GPGSV,4,2,16,03,27,117,43,07,41,180,40,11,33,307,48,06,54,261,47*78
$GPGSV,4,3,16,04,57,059,42,19,03,240,21,30,09,200,,31,03,036,*77
$GPGSV,4,4,16,36,35,170,40,34,31,208,,49,34,195,34,61,03,257,*74
$GLGSV,3,1,09,71,63,323,43,79,12,020,22,72,21,279,38,80,38,071,40*67
$GLGSV,3,2,09,73,25,136,35,86,42,244,47,87,37,310,42,70,46,061,41*6D
$GLGSV,3,3,09,85,07,197,*59
$GAGSV,3,1,10,05,65,258,44,15,20,321,35,23,11,042,,31,13,091,*6D
$GAGSV,3,2,10,36,39,188,34,03,14,249,26,06,32,064,35,34,57,271,46*6C
$GAGSV,3,3,10,09,56,059,46,04,08,066,*61
$GBGSV,5,1,19,19,73,056,50,36,18,162,37,05,23,128,,39,12,040,*62
$GBGSV,5,2,19,12,23,308,42,16,22,043,28,20,26,089,35,35,21,231,29*6E
$GBGSV,5,3,19,44,27,281,43,37,22,047,25,06,24,045,30,46,39,108,*6F
$GBGSV,5,4,19,58,37,085,,22,44,287,27,09,37,052,25,48,47,085,*61
$GBGSV,5,5,19,02,07,106,,34,08,331,37,60,08,111,*54
$GPGGA,040042.00,,,,,0,00,,,M,,M,,*4A
$PTNL,GGK,040042.00,010125,4742.4465890,N,01617.9732245,E,1,22,1.1,EHT668.9387,M*4F
$GPGGQ,040042.00,010125,4742.4465890,N,01617.9732245,E,1,22,2.798,625.7276,M*3D
$GPGFA,040042.00,12.514,18.889,1.316,0.890,30.465,2.304,,VVV*37
$GPLLK,040042.00,010125,,M,,M,1,22,1.3,,M*0B
$GNGMP,040042.00,,,,,DAAA,22,0.7,,,,*53
$GPGMP,040042.00,,,,,,07,,,,1.3,123*7A
$GLGMP,040042.00,,,,,,06,,,,,*7B
$GAGMP,040042.00,,,,,,03,,,,,*73
$GBGMP,040042.00,,,,,,06,,,,,*75
$PSSN,SNC,[0,273660000,2347]*42
$GPZDA,040047.00,01,01,2025,,*64
$GPDTM,W84,,00.0000000,N,00.0000000,E,00.0000000,W84*5F
$GPRMC,040047.00,A,4742.4465871,N,01617.9732313,E,0.0,,010125,5.1,E,D*1D
$GPGLL,4742.4465871,N,01617.9732313,E,040047.00,A,D*6C
$GPGGA,040047.00,4742.4465871,N,01617.9732313,E,2,25,0.6,625.7425,M,43.2111,M,2.3,0123*40
$GNGNS,040047.00,4742.4465871,N,01617.9732313,E,DAAA,25,0.6,625.7425,43.2111,,*5D
$GPGNS,040047.00,,,,,,07,,,,2.3,123*7C
$GLGNS,040047.00,,,,,,08,,,,,*70
$GAGNS,040047.00,,,,,,05,,,,,*70
$GBGNS,040047.00,,,,,,05,,,,,*73
$GPLLQ,040047.00,010125,,M,,M,1,25,2.233,,M*11
$GPVTG,,T,,M,0.01,N,0.01,K,D*26
$GPHDT,,T*1B
$GPTHS,,V*0E
$GPROT,,V*08
$PSSN,HRP,040047.00,010125,,,,,,,00,0,,*66
$PTNL,AVR,040047.00,,Yaw,,Tilt,,,,0,,00*30
$GPGSA,A,3,03,04,06,07,09,11,20,,,,,,1.0,0.6,0.8*30
$GPGSA,A,3,70,71,72,73,79,80,86,87,,,,,1.0,0.6,0.8*3A
$GPGSA,A,3,05,06,09,15,34,,,,,,,,1.0,0.6,0.8*34
$GPGSA,A,3,12,19,34,36,44,,,,,,,,1.0,0.6,0.8*34
$GPGST,040047.00,5.982,1.043,0.713,30.417,0.970,0.811,1.840*6F
$GPGBS,040047.00,3.970,2.574,5.995,72,0.0001,19.829,6.196*66
$GPGRS,040047.00,1,-0.9,0.1,-0.2,-0.1,-0.1,-0.5,3.5,,,,,*43
$GPGRS,040047.00,1,-3.5,-3.7,19.8,6.9,-1.1,0.3,-1.7,-7.8,,,,*53
$GPGRS,040047.00,1,0.9,1.5,0.5,-0.7,-1.8,,,,,,,*61
$GPGRS,040047.00,1,-2.7,-3.3,-6.3,2.9,-5.1,,,,,,,*68
$GPGSV,4,1,16,09,83,348,46,16,13,078,,20,13,305,39,26,13,048,*78
$GPGSV,4,2,16,03,27,117,43,07,41,180,41,11,33,307,48,06,54,260,47*78
$GPGSV,4,3,16,04,57,059,44,19,03,240,20,30,09,200,,31,03,036,*70
$GPGSV,4,4,16,36,35,170,40,34,31,208,,49,34,195,35,61,03,257,*75
$GLGSV,3,1,09,71,63,323,41,79,12,020,35,72,21,279,39,80,38,071,42*60
$GLGSV,3,2,09,73,25,136,37,86,42,244,46,87,37,310,42,70,46,061,41*6E
$GLGSV,3,3,09,85,07,197,21*5A
$GAGSV,3,1,10,05,65,258,44,15,20,321,35,23,11,042,,31,13,091,*6D
$GAGSV,3,2,10,36,39,188,32,03,14,249,26,06,32,064,36,34,57,271,46*69
$GAGSV,3,3,10,09,56,059,46,04,08,066,*61
$GBGSV,5,1,19,19,73,056,51,36,18,162,36,05,23,128,,39,12,040,*62
$GBGSV,5,2,19,12,23,308,42,16,22,043,29,20,26,089,30,35,21,231,28*6B
$GBGSV,5,3,19,44,27,281,43,37,22,047,30,06,24,045,31,46,39,108,*6A
$GBGSV,5,4,19,58,37,085,,22,44,287,31,09,37,052,26,48,47,085,*65
$GBGSV,5,5,19,02,07,106,,34,08,331,35,60,08,111,*56
$GPGGA,040047.00,,,,,0,00,,,M,,M,,*4F
$PTNL,GGK,040047.00,010125,4742.4465871,N,01617.9732313,E,1,25,1.0,EHT668.9536,M*4D
$GPGGQ,040047.00,010125,4742.4465871,N,01617.9732313,E,1,25,2.233,625.7425,M*36
$GPGFA,040047.00,9.921,15.091,1.043,0.713,30.417,1.840,,VVV*04
$GPLLK,040047.00,010125,,M,,M,1,25,1.2,,M*08
$GNGMP,040047.00,,,,,DAAA,25,0.6,,,,*50
$GPGMP,040047.00,,,,,,07,,,,2.3,123*7C
$GLGMP,040047.00,,,,,,08,,,,,*70
$GAGMP,040047.00,,,,,,05,,,,,*70
$GBGMP,040047.00,,,,,,05,,,,,*73
$PSSN,SNC,[0,273665000,2347]*47
$GPZDA,040052.00,01,01,2025,,*60
$GPDTM,W84,,00.0000000,N,00.0000000,E,00.0000000,W84*5F
$GPRMC,040052.00,A,4742.4465825,N,01617.9732354,E,0.0,,010125,5.1,E,D*1B
$GPGLL,4742.4465825,N,01617.9732354,E,040052.00,A,D*6A
$GPGGA,040052.00,4742.4465825,N,01617.9732354,E,2,23,0.7,625.7547,M,43.2111,M,2.7,0123*40
$GNGNS,040052.00,4742.4465825,N,01617.9732354,E,DAAA,23,0.7,625.7547,43.2111,,*59
$GPGNS,040052.00,,,,,,07,,,,2.7,123*7C
$GLGNS,040052.00,,,,,,08,,,,,*74
$GAGNS,040052.00,,,,,,04,,,,,*75
$GBGNS,040052.00,,,,,,04,,,,,*76
$GPLLQ,040052.00,010125,,M,,M,1,23,2.488,,M*15
$GPVTG,,T,,M,0.00,N,0.01,K,D*27
$GPHDT,,T*1B
$GPTHS,,V*0E
$GPROT,,V*08
$PSSN,HRP,040052.00,010125,,,,,,,00,0,,*62
$PTNL,AVR,040052.00,,Yaw,,Tilt,,,,0,,00*34
$GPGSA,A,3,03,04,06,07,09,11,20,,,,,,1.1,0.7,0.9*31
$GPGSA,A,3,70,71,72,73,79,80,86,87,,,,,1.1,0.7,0.9*3B
$GPGSA,A,3,05,09,15,34,,,,,,,,,1.1,0.7,0.9*33
$GPGSA,A,3,12,19,34,44,,,,,,,,,1.1,0.7,0.9*30
$GPGST,040052.00,7.302,1.169,0.796,30.531,1.085,0.907,2.046*63
$GPGBS,040052.00,4.074,2.635,6.042,72,0.0001,23.733,6.200*6F
$GPGRS,040052.00,1,-0.7,0.2,-0.5,-0.1,-0.1,-0.6,2.8,,,,,*42
$GPGRS,040052.00,1,-3.2,-3.9,23.7,6.6,5.3,4.0,-3.0,-8.8,,,,*71
$GPGRS,040052.00,1,0.8,0.1,-0.5,-1.5,,,,,,,,*45
$GPGRS,040052.00,1,-2.7,-3.0,-6.1,-4.9,,,,,,,,*41
$GPGSV,4,1,16,09,83,348,45,16,13,078,,20,13,305,40,26,13,047,*7A
$GPGSV,4,2,16,03,27,117,42,07,41,180,43,11,33,307,48,06,54,260,46*7A
$GPGSV,4,3,16,04,57,059,44,19,03,239,20,30,09,200,,31,03,036,*7E
$GPGSV,4,4,16,36,35,170,40,34,31,208,,49,34,195,34,61,03,257,*74
$GLGSV,3,1,09,71,63,323,40,79,12,020,25,72,21,279,37,80,38,071,44*68
$GLGSV,3,2,09,73,25,136,38,86,42,244,45,87,37,310,43,70,46,061,41*63
$GLGSV,3,3,09,85,07,197,21*5A
$GAGSV,3,1,10,05,65,258,45,15,20,321,36,23,11,042,,31,13,091,*6F
$GAGSV,3,2,10,36,39,188,27,03,14,249,25,06,32,064,35,34,57,271,46*6D
$GAGSV,3,3,10,09,56,059,45,04,07,066,*6D
$GBGSV,5,1,19,19,73,056,51,36,18,162,34,05,23,128,,39,12,040,*60
$GBGSV,5,2,19,12,23,308,41,16,22,043,28,20,26,089,29,35,21,231,26*6F
$GBGSV,5,3,19,44,27,281,43,37,22,047,26,06,24,045,31,46,39,108,*6D
$GBGSV,5,4,19,58,37,085,,22,44,287,34,09,37,052,33,48,47,085,*64
$GBGSV,5,5,19,02,07,106,,34,08,331,36,60,08,111,*55
$GPGGA,040052.00,,,,,0,00,,,M,,M,,*4B
$PTNL,GGK,040052.00,010125,4742.4465825,N,01617.9732354,E,1,23,1.1,EHT668.9658,M*47
$GPGGQ,040052.00,010125,4742.4465825,N,01617.9732354,E,1,23,2.488,625.7547,M*35
$GPGFA,040052.00,11.119,16.779,1.169,0.796,30.531,2.046,,VVV*34
$GPLLK,040052.00,010125,,M,,M,1,23,1.3,,M*0B
$GNGMP,040052.00,,,,,DAAA,23,0.7,,,,*53
$GPGMP,040052.00,,,,,,07,,,,2.7,123*7C
$GLGMP,040052.00,,,,,,08,,,,,*74
$GAGMP,040052.00,,,,,,04,,,,,*75
$GBGMP,040052.00,,,,,,04,,,,,*76
$PSSN,SNC,[0,273670000,2347]*43
$GPZDA,040057.00,01,01,2025,,*65
$GPDTM,W84,,00.0000000,N,00.0000000,E,00.0000000,W84*5F
$GPRMC,040057.00,A,4742.4465770,N,01617.9732367,E,0.0,,010125,5.1,E,D*11
$GPGLL,4742.4465770,N,01617.9732367,E,040057.00,A,D*60
$GPGGA,040057.00,4742.4465770,N,01617.9732367,E,2,22,0.7,625.7604,M,43.2111,M,3.7,0123*4E
$GNGNS,040057.00,4742.4465770,N,01617.9732367,E,DAAA,22,0.7,625.7604,43.2111,,*56
$GPGNS,040057.00,,,,,,07,,,,3.7,123*78
$GLGNS,040057.00,,,,,,06,,,,,*7F
$GAGNS,040057.00,,,,,,04,,,,,*70
$GBGNS,040057.00,,,,,,05,,,,,*72
$GPLLQ,040057.00,010125,,M,,M,1,22,1.659,,M*1C
$GPVTG,,T,,M,0.00,N,0.00,K,D*26
$GPHDT,,T*1B
$GPTHS,,V*0E
$GPROT,,V*08
$PSSN,HRP,040057.00,010125,,,,,,,00,0,,*67
$PTNL,AVR,040057.00,,Yaw,,Tilt,,,,0,,00*31
$GPGSA,A,3,03,04,06,07,09,11,20,,,,,,1.2,0.7,1.0*3A
$GPGSA,A,3,70,71,73,80,86,87,,,,,,,1.2,0.7,1.0*3B
$GPGSA,A,3,05,09,15,34,,,,,,,,,1.2,0.7,1.0*38
$GPGSA,A,3,12,19,22,34,44,,,,,,,,1.2,0.7,1.0*3B
$GPGST,040057.00,4.092,0.788,0.529,31.244,0.727,0.610,1.361*67
$GPGBS,040057.00,4.197,2.720,6.193,20,0.0001,2.253,1.203*5D
$GPGRS,040057.00,1,-0.8,-0.0,-0.2,0.1,0.4,-0.7,2.3,,,,,*6F
$GPGRS,040057.00,1,-2.5,-4.0,5.7,4.8,-3.7,-8.1,,,,,,*48
$GPGRS,040057.00,1,0.7,-0.5,-0.8,-1.1,,,,,,,,*6F
$GPGRS,040057.00,1,-3.3,-2.5,-3.1,-5.5,-5.3,,,,,,,*48
$GPGSV,4,1,16,09,83,349,46,16,13,078,,20,13,305,39,26,13,047,*76
$GPGSV,4,2,16,03,27,117,42,07,41,180,44,11,33,307,48,06,54,260,45*7E
$GPGSV,4,3,16,04,57,059,44,19,03,239,19,30,09,200,,31,03,036,*74
$GPGSV,4,4,16,36,35,170,40,34,31,208,,49,34,195,34,61,03,257,*74
$GLGSV,3,1,09,71,63,323,37,79,12,020,,72,21,279,34,80,38,071,43*6B
$GLGSV,3,2,09,73,25,136,37,86,42,244,43,87,37,310,42,70,46,061,41*6B
$GLGSV,3,3,09,85,07,197,22*59
$GAGSV,3,1,10,05,65,258,45,15,20,321,37,23,11,042,,31,13,091,*6E
$GAGSV,3,2,10,36,39,188,21,03,14,249,26,06,32,064,33,34,57,271,46*6E
$GAGSV,3,3,10,09,56,059,44,04,07,066,*6C
$GBGSV,5,1,19,19,73,056,51,36,18,162,32,05,23,128,,39,12,040,*66
$GBGSV,5,2,19,12,23,308,41,16,22,043,28,20,26,089,27,35,20,231,24*62
$GBGSV,5,3,19,44,27,281,42,37,22,047,21,06,24,045,30,46,39,108,*6A
$GBGSV,5,4,19,58,37,085,,22,44,287,38,09,37,052,33,48,47,085,*68
$GBGSV,5,5,19,02,07,106,,34,08,331,37,60,08,111,*54
$GPGGA,040057.00,,,,,0,00,,,M,,M,,*4E
$PTNL,GGK,040057.00,010125,4742.4465770,N,01617.9732367,E,1,22,1.2,EHT668.9715,M*47
$GPGGQ,040057.00,010125,4742.4465770,N,01617.9732367,E,1,22,1.659,625.7604,M*37
$GPGFA,040057.00,7.490,11.162,0.788,0.529,31.244,1.361,,VVV*06
$GPLLK,040057.00,010125,,M,,M,1,22,1.4,,M*08
$GNGMP,040057.00,,,,,DAAA,22,0.7,,,,*57
$GPGMP,040057.00,,,,,,07,,,,3.7,123*78
$GLGMP,040057.00,,,,,,06,,,,,*7F
$GAGMP,040057.00,,,,,,04,,,,,*70
$GBGMP,040057.00,,,,,,05,,,,,*72
$PSSN,SNC,[0,273675000,2347]*46
$GPZDA,040102.00,01,01,2025,,*64
$GPDTM,W84,,00.0000000,N,00.0000000,E,00.0000000,W84*5F
$GPRMC,040102.00,A,4742.4465785,N,01617.9732398,E,0.0,,010125,5.1,E,D*1A
$GPGLL,4742.4465785,N,01617.9732398,E,040102.00,A,D*6B
$GPGGA,040102.00,4742.4465785,N,01617.9732398,E,2,22,0.7,625.7618,M,43.2111,M,1.3,0123*4E
$GNGNS,040102.00,4742.4465785,N,01617.9732398,E,DAAA,22,0.7,625.7618,43.2111,,*50
$GPGNS,040102.00,,,,,,07,,,,1.3,123*7F
$GLGNS,040102.00,,,,,,06,,,,,*7E
$GAGNS,040102.00,,,,,,04,,,,,*71
$GBGNS,040102.00,,,,,,05,,,,,*73
$GPLLQ,040102.00,010125,,M,,M,1,22,1.797,,M*1E
$GPVTG,,T,,M,0.01,N,0.01,K,D*26
$GPHDT,,T*1B
$GPTHS,,V*0E
$GPROT,,V*08
$PSSN,HRP,040102.00,010125,,,,,,,00,0,,*66
$PTNL,AVR,040102.00,,Yaw,,Tilt,,,,0,,00*30
$GPGSA,A,3,03,04,06,07,09,11,20,,,,,,1.2,0.7,1.0*3A
$GPGSA,A,3,70,71,73,80,86,87,,,,,,,1.2,0.7,1.0*3B
$GPGSA,A,3,05,09,15,34,,,,,,,,,1.2,0.7,1.0*38
$GPGSA,A,3,12,19,22,34,44,,,,,,,,1.2,0.7,1.0*3B
$GPGST,040102.00,3.751,0.848,0.573,31.037,0.785,0.658,1.477*67
$GPGBS,040102.00,3.970,2.598,5.998,20,0.0001,2.444,1.214*5D
$GPGRS,040102.00,1,-0.6,-0.9,-0.3,0.6,0.9,-0.9,2.4,,,,,*6B
$GPGRS,040102.00,1,-2.8,-3.8,4.6,4.0,-3.6,-6.3,,,,,,*4E
$GPGRS,040102.00,1,0.7,-1.1,-1.0,-1.0,,,,,,,,*63
$GPGRS,040102.00,1,-4.0,-2.5,-3.2,-5.2,-5.3,,,,,,,*49
$GPGSV,4,1,16,09,83,349,47,16,13,078,,20,13,305,40,26,13,047,*79
$GPGSV,4,2,16,03,27,117,43,07,41,180,45,11,33,307,48,06,54,260,46*7D
$GPGSV,4,3,16,04,57,059,44,19,03,239,21,30,09,200,,31,03,036,*7F
$GPGSV,4,4,16,36,35,170,40,34,31,208,,49,34,195,33,61,03,257,*73
$GLGSV,3,1,09,71,63,324,36,79,12,020,39,72,21,279,29,80,38,071,42*6A
$GLGSV,3,2,09,73,25,136,38,86,42,244,43,87,37,309,43,70,46,061,41*6D
$GLGSV,3,3,09,85,07,197,23*58
$GAGSV,3,1,10,05,65,258,45,15,20,321,38,23,11,041,,31,13,091,*62
$GAGSV,3,2,10,36,39,188,29,03,14,249,26,06,32,064,32,34,57,271,45*64
$GAGSV,3,3,10,09,56,059,43,04,07,066,*6B
$GBGSV,5,1,19,19,73,056,51,36,18,162,32,05,23,128,,39,12,040,*66
$GBGSV,5,2,19,12,23,308,41,16,22,043,29,20,26,089,32,35,20,231,32*60
$GBGSV,5,3,19,44,27,281,42,37,22,047,26,06,24,045,31,46,40,108,*62
$GBGSV,5,4,19,58,37,085,,22,44,287,40,09,37,052,23,48,47,085,*66
$GBGSV,5,5,19,02,07,106,,34,08,331,36,60,08,111,*55
$GPGGA,040102.00,,,,,0,00,,,M,,M,,*4F
$PTNL,GGK,040102.00,010125,4742.4465785,N,01617.9732398,E,1,22,1.2,EHT668.9728,M*42
$GPGGQ,040102.00,010125,4742.4465785,N,01617.9732398,E,1,22,1.797,625.7618,M*32
$GPGFA,040102.00,8.066,12.113,0.848,0.573,31.037,1.477,,VVV*0A
$GPLLK,040102.00,010125,,M,,M,1,22,1.4,,M*09
$GNGMP,040102.00,,,,,DAAA,22,0.7,,,,*56
$GPGMP,040102.00,,,,,,07,,,,1.3,123*7F
$GLGMP,040102.00,,,,,,06,,,,,*7E
$GAGMP,040102.00,,,,,,04,,,,,*71
$GBGMP,040102.00,,,,,,05,,,,,*73
$PSSN,SNC,[0,273680000,2347]*4C
$GPZDA,040107.00,01,01,2025,,*61
$GPDTM,W84,,00.0000000,N,00.0000000,E,00.0000000,W84*5F
$GPRMC,040107.00,A,4742.4465851,N,01617.9732457,E,0.0,,010125,5.1,E,D*1D
$GPGLL,4742.4465851,N,01617.9732457,E,040107.00,A,D*6C
$GPGGA,040107.00,4742.4465851,N,01617.9732457,E,2,23,0.7,625.7640,M,43.2111,M,2.3,0123*46
$GNGNS,040107.00,4742.4465851,N,01617.9732457,E,DAAA,23,0.7,625.7640,43.2111,,*5B
$GPGNS,040107.00,,,,,,07,,,,2.3,123*79
$GLGNS,040107.00,,,,,,06,,,,,*7B
$GAGNS,040107.00,,,,,,04,,,,,*74
$GBGNS,040107.00,,,,,,06,,,,,*75
$GPLLQ,040107.00,010125,,M,,M,1,23,2.459,,M*18
$GPVTG,,T,,M,0.00,N,0.00,K,D*26
$GPHDT,,T*1B
$GPTHS,,V*0E
$GPROT,,V*08
$PSSN,HRP,040107.00,010125,,,,,,,00,0,,*63
$PTNL,AVR,040107.00,,Yaw,,Tilt,,,,0,,00*35
$GPGSA,A,3,03,04,06,07,09,11,20,,,,,,1.2,0.7,0.9*32
$GPGSA,A,3,70,71,73,80,86,87,,,,,,,1.2,0.7,0.9*33
$GPGSA,A,3,05,09,15,34,,,,,,,,,1.2,0.7,0.9*30
$GPGSA,A,3,12,19,20,22,34,44,,,,,,,1.2,0.7,0.9*31
$GPGST,040107.00,6.880,1.150,0.783,30.498,1.068,0.892,2.028*68
$GPGBS,040107.00,4.029,2.617,6.073,20,0.0001,22.892,8.647*6F
$GPGRS,040107.00,1,-1.0,-0.4,-0.2,1.3,0.6,-1.5,2.7,,,,,*60
$GPGRS,040107.00,1,-2.4,-4.4,6.1,3.4,-3.1,-5.9,,,,,,*44
$GPGRS,040107.00,1,-0.4,-1.3,-0.7,-1.4,,,,,,,,*48
$GPGRS,040107.00,1,-4.9,-2.6,22.9,-4.7,-5.0,-4.4,,,,,,*57
$GPGSV,4,1,16,09,83,349,47,16,13,078,,20,13,305,40,26,13,047,*79
$GPGSV,4,2,16,03,27,117,42,07,41,180,46,11,33,307,48,06,54,260,46*7F
$GPGSV,4,3,16,04,57,059,44,19,03,239,,30,09,200,,31,03,036,*7C
$GPGSV,4,4,16,36,35,170,40,34,31,208,,49,34,195,34,61,03,257,*74
$GLGSV,3,1,09,71,63,324,37,79,12,019,39,72,21,279,32,80,38,071,41*68
$GLGSV,3,2,09,73,25,136,39,86,42,244,45,87,37,309,44,70,46,061,41*6D
$GLGSV,3,3,09,85,07,197,24*5F
$GAGSV,3,1,10,05,66,258,44,15,20,321,37,23,11,041,,31,13,091,*6F
$GAGSV,3,2,10,36,39,188,33,03,14,249,34,06,32,064,31,34,57,271,45*6F
$GAGSV,3,3,10,09,56,059,43,04,07,066,*6B
$GBGSV,5,1,19,19,73,056,50,36,18,162,32,05,23,128,,39,12,040,*67
$GBGSV,5,2,19,12,23,308,41,16,22,043,28,20,26,089,36,35,20,231,35*62
$GBGSV,5,3,19,44,27,281,42,37,22,047,24,06,24,045,31,46,40,108,*60
$GBGSV,5,4,19,58,37,085,,22,44,287,40,09,37,052,24,48,47,085,*61
$GBGSV,5,5,19,02,07,106,,34,08,331,37,60,08,111,*54
$GPGGA,040107.00,,,,,0,00,,,M,,M,,*4A
$PTNL,GGK,040107.00,010125,4742.4465851,N,01617.9732457,E,1,23,1.2,EHT668.9750,M*4B
$GPGGQ,040107.00,010125,4742.4465851,N,01617.9732457,E,1,23,2.459,625.7640,M*3B
$GPGFA,040107.00,10.935,16.626,1.150,0.783,30.498,2.028,,VVV*3D
$GPLLK,040107.00,010125,,M,,M,1,23,1.3,,M*0A
$GNGMP,040107.00,,,,,DAAA,23,0.7,,,,*52
$GPGMP,040107.00,,,,,,07,,,,2.3,123*79
$GLGMP,040107.00,,,,,,06,,,,,*7B
$GAGMP,040107.00,,,,,,04,,,,,*74
$GBGMP,040107.00,,,,,,06,,,,,*75
$PSSN,SNC,[0,273685000,2347]*49
$GPZDA,040112.00,01,01,2025,,*65
$GPDTM,W84,,00.0000000,N,00.0000000,E,00.0000000,W84*5F
$GPRMC,040112.00,A,4742.4465953,N,01617.9732481,E,0.0,,010125,5.1,E,D*11
$GPGLL,4742.4465953,N,01617.9732481,E,040112.00,A,D*60
$GPGGA,040112.00,4742.4465953,N,01617.9732481,E,2,24,0.6,625.7704,M,43.2111,M,2.7,0123*49
$GNGNS,040112.00,4742.4465953,N,01617.9732481,E,DAAA,24,0.6,625.7704,43.2111,,*50
$GPGNS,040112.00,,,,,,07,,,,2.7,123*79
$GLGNS,040112.00,,,,,,06,,,,,*7F
$GAGNS,040112.00,,,,,,05,,,,,*71
$GBGNS,040112.00,,,,,,06,,,,,*71
$GPLLQ,040112.00,010125,,M,,M,1,24,2.451,,M*13
$GPVTG,,T,,M,0.00,N,0.01,K,D*27
$GPHDT,,T*1B
$GPTHS,,V*0E
$GPROT,,V*08
$PSSN,HRP,040112.00,010125,,,,,,,00,0,,*67
$PTNL,AVR,040112.00,,Yaw,,Tilt,,,,0,,00*31
$GPGSA,A,3,03,04,06,07,09,11,20,,,,,,1.1,0.6,0.9*30
$GPGSA,A,3,70,71,73,80,86,87,,,,,,,1.1,0.6,0.9*31
$GPGSA,A,3,05,09,15,34,36,,,,,,,,1.1,0.6,0.9*37
$GPGSA,A,3,12,19,20,22,34,44,,,,,,,1.1,0.6,0.9*33
$GPGST,040112.00,5.283,1.150,0.779,31.034,1.064,0.893,2.020*65
$GPGBS,040112.00,4.059,2.655,6.098,07,0.0001,1.972,0.717*58
$GPGRS,040112.00,1,-1.0,-0.5,-0.6,2.0,-0.0,-1.7,3.2,,,,,*4C
$GPGRS,040112.00,1,-2.5,-1.3,5.7,2.0,-1.9,-5.1,,,,,,*41
$GPGRS,040112.00,1,-0.5,-1.4,-0.4,-0.8,6.9,,,,,,,*65
$GPGRS,040112.00,1,-5.1,-2.5,14.5,-6.8,-4.9,-4.4,,,,,,*55
$GPGSV,4,1,16,09,83,350,47,16,13,078,,20,13,305,40,26,13,047,*71
$GPGSV,4,2,16,03,27,117,42,07,41,180,47,11,33,307,47,06,54,260,47*70
$GPGSV,4,3,16,04,57,059,43,19,03,239,,30,10,200,,31,03,036,*73
$GPGSV,4,4,16,36,35,170,40,34,31,208,,49,34,195,34,61,03,257,*74
$GLGSV,3,1,09,71,63,324,40,79,12,019,37,72,21,279,35,80,38,071,39*6E
$GLGSV,3,2,09,73,25,136,40,86,42,244,47,87,37,309,46,70,46,061,42*60
$GLGSV,3,3,09,85,07,197,25*5E
$GAGSV,3,1,10,05,66,258,44,15,20,321,37,23,11,041,,31,13,091,*6F
$GAGSV,3,2,10,36,39,188,37,03,14,249,33,06,32,064,28,34,57,271,46*67
$GAGSV,3,3,10,09,56,059,42,04,07,066,*6A
$GBGSV,5,1,19,19,73,056,49,36,18,162,32,05,23,128,,39,12,040,*6F
$GBGSV,5,2,19,12,23,308,41,16,22,043,28,20,26,089,38,35,20,231,35*6C
$GBGSV,5,3,19,44,27,281,39,37,22,047,20,06,24,045,30,46,40,108,*69
$GBGSV,5,4,19,58,37,085,,22,44,287,40,09,37,052,26,48,47,085,*63
$GBGSV,5,5,19,02,07,106,,34,08,331,36,60,08,111,*55
$GPGGA,040112.00,,,,,0,00,,,M,,M,,*4E
$PTNL,GGK,040112.00,010125,4742.4465953,N,01617.9732481,E,1,24,1.1,EHT668.9814,M*4C
$GPGGQ,040112.00,010125,4742.4465953,N,01617.9732481,E,1,24,2.451,625.7704,M*39
$GPGFA,040112.00,10.934,16.561,1.150,0.779,31.034,2.020,,VVV*36
$GPLLK,040112.00,010125,,M,,M,1,24,1.3,,M*09
$GNGMP,040112.00,,,,,DAAA,24,0.6,,,,*50
$GPGMP,040112.00,,,,,,07,,,,2.7,123*79
$GLGMP,040112.00,,,,,,06,,,,,*7F
$GAGMP,040112.00,,,,,,05,,,,,*71
$GBGMP,040112.00,,,,,,06,,,,,*71
$PSSN,SNC,[0,273690000,2347]*4D
$GPZDA,040117.00,01,01,2025,,*60
$GPDTM,W84,,00.0000000,N,00.0000000,E,00.0000000,W84*5F
$GPRMC,040117.00,A,4742.4466086,N,01617.9732575,E,0.0,,010125,5.1,E,D*1C
$GPGLL,4742.4466086,N,01617.9732575,E,040117.00,A,D*6D
$GPGGA,040117.00,4742.4466086,N,01617.9732575,E,2,25,0.6,625.7838,M,43.2111,M,3.7,0123*44
$GNGNS,040117.00,4742.4466086,N,01617.9732575,E,DAAA,25,0.6,625.7838,43.2111,,*5C
$GPGNS,040117.00,,,,,,07,,,,3.7,123*7D
$GLGNS,040117.00,,,,,,07,,,,,*7B
$GAGNS,040117.00,,,,,,05,,,,,*74
$GBGNS,040117.00,,,,,,06,,,,,*74
$GPLLQ,040117.00,010125,,M,,M,1,25,2.796,,M*1F
$GPVTG,,T,,M,0.00,N,0.01,K,D*27
$GPHDT,,T*1B
$GPTHS,,V*0E
$GPROT,,V*08
$PSSN,HRP,040117.00,010125,,,,,,,00,0,,*62
$PTNL,AVR,040117.00,,Yaw,,Tilt,,,,0,,00*34
$GPGSA,A,3,03,04,06,07,09,11,20,,,,,,1.1,0.6,0.9*30
$GPGSA,A,3,70,71,72,73,80,86,87,,,,,,1.1,0.6,0.9*34
$GPGSA,A,3,05,09,15,34,36,,,,,,,,1.1,0.6,0.9*37
$GPGSA,A,3,12,19,20,22,34,44,,,,,,,1.1,0.6,0.9*33
$GPGST,040117.00,6.059,1.320,0.888,31.074,1.220,1.021,2.299*64
$GPGBS,040117.00,4.139,2.679,6.184,72,0.0001,19.819,6.201*6B
$GPGRS,040117.00,1,-1.6,-0.4,-0.6,2.1,-0.4,-1.1,3.2,,,,,*4D
$GPGRS,040117.00,1,-2.0,-0.4,19.8,4.4,-1.6,-1.3,-3.3,,,,,*7D
$GPGRS,040117.00,1,1.0,-1.4,0.2,-0.2,7.4,,,,,,,*64
$GPGRS,040117.00,1,-5.5,-2.1,6.4,-6.0,-4.3,-4.8,,,,,,*6C
$GPGSV,4,1,16,09,83,350,45,16,13,078,,20,13,305,38,26,13,047,*7C
$GPGSV,4,2,16,03,27,117,42,07,41,180,46,11,33,307,46,06,54,260,46*71
$GPGSV,4,3,16,04,57,059,42,19,03,239,,30,10,200,,31,03,036,*72
$GPGSV,4,4,16,36,35,170,39,34,31,208,,49,34,195,34,61,03,257,*7A
$GLGSV,3,1,09,71,63,324,43,79,12,019,28,72,21,279,36,80,38,070,38*60
$GLGSV,3,2,09,73,25,135,37,86,42,243,46,87,37,309,46,70,46,062,42*66
$GLGSV,3,3,09,85,07,197,26*5D
$GAGSV,3,1,11,05,66,258,44,15,20,321,37,23,11,041,,31,14,091,*69
$GAGSV,3,2,11,36,38,188,37,03,14,249,21,06,32,064,30,34,57,271,46*6D
$GAGSV,3,3,11,09,56,059,42,24,00,136,,04,07,066,*59
$GBGSV,5,1,19,19,73,056,49,36,18,162,30,05,23,128,,39,12,040,*6D
$GBGSV,5,2,19,12,23,308,40,16,22,043,26,20,26,089,39,35,20,231,*64
$GBGSV,5,3,19,44,27,281,38,37,22,047,26,06,24,045,30,46,40,108,*6E
$GBGSV,5,4,19,58,38,085,,22,44,287,41,09,37,052,28,48,47,085,*63
$GBGSV,5,5,19,02,07,106,,34,08,331,37,60,08,111,*54
$GPGGA,040117.00,,,,,0,00,,,M,,M,,*4B
$PTNL,GGK,040117.00,010125,4742.4466086,N,01617.9732575,E,1,25,1.1,EHT668.9948,M*48
$GPGGQ,040117.00,010125,4742.4466086,N,01617.9732575,E,1,25,2.796,625.7838,M*3D
$GPGFA,040117.00,12.552,18.853,1.320,0.888,31.074,2.299,,VVV*3F
$GPLLK,040117.00,010125,,M,,M,1,25,1.3,,M*0D
$GNGMP,040117.00,,,,,DAAA,25,0.6,,,,*54
$GPGMP,040117.00,,,,,,07,,,,3.7,123*7D
$GLGMP,040117.00,,,,,,07,,,,,*7B
$GAGMP,040117.00,,,,,,05,,,,,*74
$GBGMP,040117.00,,,,,,06,,,,,*74
$PSSN,SNC,[0,273695000,2347]*48
$GPZDA,040122.00,01,01,2025,,*66
$GPDTM,W84,,00.0000000,N,00.0000000,E,00.0000000,W84*5F
$GPRMC,040122.00,A,4742.4466154,N,01617.9732686,E,0.0,,010125,5.1,E,D*1B
$GPGLL,4742.4466154,N,01617.9732686,E,040122.00,A,D*6A
$GPGGA,040122.00,4742.4466154,N,01617.9732686,E,2,24,0.6,625.7918,M,43.2111,M,1.3,0123*47
$GNGNS,040122.00,4742.4466154,N,01617.9732686,E,DAAA,24,0.6,625.7918,43.2111,,*59
$GPGNS,040122.00,,,,,,07,,,,1.3,123*7D
$GLGNS,040122.00,,,,,,07,,,,,*7D
$GAGNS,040122.00,,,,,,05,,,,,*72
$GBGNS,040122.00,,,,,,05,,,,,*71
$GPLLQ,040122.00,010125,,M,,M,1,24,2.452,,M*13
$GPVTG,,T,,M,0.01,N,0.01,K,D*26
$GPHDT,,T*1B
$GPTHS,,V*0E
$GPROT,,V*08
$PSSN,HRP,040122.00,010125,,,,,,,00,0,,*64
$PTNL,AVR,040122.00,,Yaw,,Tilt,,,,0,,00*32
$GPGSA,A,3,03,04,06,07,09,11,20,,,,,,1.2,0.6,1.0*3B
$GPGSA,A,3,70,71,72,73,80,86,87,,,,,,1.2,0.6,1.0*3F
$GPGSA,A,3,05,09,15,34,36,,,,,,,,1.2,0.6,1.0*3C
$GPGSA,A,3,12,19,20,22,44,,,,,,,,1.2,0.6,1.0*3F
$GPGST,040122.00,5.712,1.160,0.781,31.097,1.072,0.898,2.015*6C
$GPGBS,040122.00,3.923,2.564,5.933,72,0.0001,16.754,6.197*64
$GPGRS,040122.00,1,-1.7,0.1,-0.5,1.1,0.0,-0.9,3.0,,,,,*40
$GPGRS,040122.00,1,-1.8,0.2,16.8,3.8,-4.4,-3.2,-5.2,,,,,*5C
$GPGRS,040122.00,1,0.9,-1.2,-0.1,-0.3,8.5,,,,,,,*4D
$GPGRS,040122.00,1,-6.4,-1.8,4.0,-4.5,-5.5,,,,,,,*6B
$GPGSV,4,1,16,09,83,350,46,16,13,078,,20,13,305,37,26,13,047,*70
$GPGSV,4,2,16,03,27,117,41,07,41,180,46,11,33,307,46,06,54,260,45*71
$GPGSV,4,3,16,04,57,060,42,19,03,239,,30,10,200,,31,03,036,*78
$GPGSV,4,4,16,36,35,170,39,34,31,208,,49,34,195,34,61,03,257,*7A
$GLGSV,3,1,09,71,63,324,44,79,12,019,29,72,22,279,36,80,38,070,42*68
$GLGSV,3,2,09,73,25,135,35,86,42,243,45,87,37,309,45,70,46,062,41*67
$GLGSV,3,3,09,85,07,197,27*5C
$GAGSV,3,1,11,05,66,258,43,15,20,321,36,23,11,041,,31,14,091,*6F
$GAGSV,3,2,11,36,38,188,37,03,14,249,33,06,32,064,33,34,57,270,46*6C
$GAGSV,3,3,11,09,56,059,42,24,00,136,,04,07,066,*59
$GBGSV,5,1,19,19,73,057,49,36,18,162,30,05,23,128,,39,12,040,*6C
$GBGSV,5,2,19,12,23,308,39,16,22,043,28,20,26,089,38,35,20,231,32*64
$GBGSV,5,3,19,44,27,281,40,37,22,047,27,06,24,045,30,46,40,108,*60
$GBGSV,5,4,19,58,38,085,,22,44,287,41,09,37,052,30,48,47,085,*6A
$GBGSV,5,5,19,02,07,106,,34,04,328,36,60,08,111,*51
$GPGGA,040122.00,,,,,0,00,,,M,,M,,*4D
$PTNL,GGK,040122.00,010125,4742.4466154,N,01617.9732686,E,1,24,1.2,EHT669.0028,M*4A
$GPGGQ,040122.00,010125,4742.4466154,N,01617.9732686,E,1,24,2.452,625.7918,M*33
$GPGFA,040122.00,11.030,16.520,1.160,0.781,31.097,2.015,,VVV*37
$GPLLK,040122.00,010125,,M,,M,1,24,1.4,,M*0D
$GNGMP,040122.00,,,,,DAAA,24,0.6,,,,*53
$GPGMP,040122.00,,,,,,07,,,,1.3,123*7D
$GLGMP,040122.00,,,,,,07,,,,,*7D
$GAGMP,040122.00,,,,,,05,,,,,*72
$GBGMP,040122.00,,,,,,05,,,,,*71
$PSSN,SNC,[0,273700000,2347]*45
$GPZDA,040127.00,01,01,2025,,*63
$GPDTM,W84,,00.0000000,N,00.0000000,E,00.0000000,W84*5F
$GPRMC,040127.00,A,4742.4466186,N,01617.9732755,E,0.0,,010125,5.1,E,D*1E
$GPGLL,4742.4466186,N,01617.9732755,E,040127.00,A,D*6F
$GPGGA,040127.00,4742.4466186,N,01617.9732755,E,2,22,0.7,625.7993,M,43.2111,M,2.0,0123*46
$GNGNS,040127.00,4742.4466186,N,01617.9732755,E,DAAA,22,0.7,625.7993,43.2111,,*58
$GPGNS,040127.00,,,,,,06,,,,2.0,123*79
$GLGNS,040127.00,,,,,,06,,,,,*79
$GAGNS,040127.00,,,,,,05,,,,,*77
$GBGNS,040127.00,,,,,,05,,,,,*74
$GPLLQ,040127.00,010125,,M,,M,1,22,2.530,,M*15
$GPVTG,,T,,M,0.00,N,0.01,K,D*27
$GPHDT,,T*1B
$GPTHS,,V*0E
$GPROT,,V*08
$PSSN,HRP,040127.00,010125,,,,,,,00,0,,*61
$PTNL,AVR,040127.00,,Yaw,,Tilt,,,,0,,00*37
$GPGSA,A,3,03,04,06,07,09,11,,,,,,,1.3,0.7,1.1*38
$GPGSA,A,3,70,71,72,80,86,87,,,,,,,1.3,0.7,1.1*3A
$GPGSA,A,3,05,09,15,34,36,,,,,,,,1.3,0.7,1.1*3D
$GPGSA,A,3,12,19,20,22,44,,,,,,,,1.3,0.7,1.1*3E
$GPGST,040127.00,7.689,1.025,0.747,22.519,0.989,0.794,2.189*68
$GPGBS,040127.00,4.133,2.615,7.941,80,0.0001,22.861,6.137*64
$GPGRS,040127.00,1,-1.4,0.1,-0.3,1.0,0.5,-0.4,,,,,,*64
$GPGRS,040127.00,1,-2.5,1.6,7.9,22.9,-4.6,-6.7,,,,,,*57
$GPGRS,040127.00,1,0.2,-1.5,-0.1,-0.6,10.3,,,,,,,*7E
$GPGRS,040127.00,1,-6.5,-1.6,4.1,-3.7,-6.2,,,,,,,*61
$GPGSV,4,1,16,09,83,351,46,16,13,078,,20,13,305,33,26,13,047,*75
$GPGSV,4,2,16,03,27,117,41,07,41,180,45,11,33,307,46,06,54,260,44*73
$GPGSV,4,3,16,04,57,060,43,19,03,239,,30,10,200,,31,03,036,*79
$GPGSV,4,4,16,36,35,170,39,34,31,208,,49,34,195,34,61,03,257,*7A
$GLGSV,3,1,09,71,63,324,46,79,12,019,34,72,22,279,40,80,38,070,39*6B
$GLGSV,3,2,09,73,25,135,34,86,42,243,44,87,37,309,43,70,46,062,40*60
$GLGSV,3,3,09,85,07,197,28*53
$GAGSV,3,1,11,05,66,258,43,15,20,321,36,23,11,041,,31,14,091,*6F
$GAGSV,3,2,11,36,38,188,37,03,14,249,34,06,32,064,34,34,57,270,48*62
$GAGSV,3,3,11,09,56,059,41,24,00,136,,04,07,066,*5A
$GBGSV,5,1,19,19,73,057,50,36,18,162,29,05,23,128,,39,12,040,21*6F
$GBGSV,5,2,19,12,23,308,38,16,22,043,27,20,26,089,36,35,20,231,31*67
$GBGSV,5,3,19,44,27,281,40,37,22,047,26,06,24,045,29,46,40,108,*69
$GBGSV,5,4,19,58,38,085,,22,44,287,41,09,37,052,30,48,47,085,*6A
$GBGSV,5,5,19,02,07,106,,34,04,328,36,60,08,111,*51
$GPGGA,040127.00,,,,,0,00,,,M,,M,,*48
$PTNL,GGK,040127.00,010125,4742.4466186,N,01617.9732755,E,1,22,1.3,EHT669.0104,M*47
$GPGGQ,040127.00,010125,4742.4466186,N,01617.9732755,E,1,22,2.530,625.7993,M*36
$GPGFA,040127.00,9.741,17.949,1.025,0.747,22.519,2.189,,VVV*07
$GPLLK,040127.00,010125,,M,,M,1,22,1.5,,M*0F
$GNGMP,040127.00,,,,,DAAA,22,0.7,,,,*51
$GPGMP,040127.00,,,,,,06,,,,2.0,123*79
$GLGMP,040127.00,,,,,,06,,,,,*79
$GAGMP,040127.00,,,,,,05,,,,,*77
$GBGMP,040127.00,,,,,,05,,,,,*74
$PSSN,SNC,[0,273705000,2347]*40
$GPZDA,040132.00,01,01,2025,,*67
$GPDTM,W84,,00.0000000,N,00.0000000,E,00.0000000,W84*5F
