$GPZDA,122942.00,01,01,2025,,*6D
$GPDTM,W84,,00.0000000,N,00.0000000,E,00.0000000,W84*5F
$GPRMC,122942.00,A,4742.4465360,N,01617.9740515,E,0.0,,010125,5.1,E,D*1A
$GPGLL,4742.4465360,N,01617.9740515,E,122942.00,A,D*6B
$GPGGA,122942.00,4742.4465360,N,01617.9740515,E,2,24,0.6,625.2456,M,43.2110,M,2.0,0123*45
$GNGNS,122942.00,4742.4465360,N,01617.9740515,E,DAAA,24,0.6,625.2456,43.2110,,*5B
$GPGNS,122942.00,,,,,,05,,,,2.0,123*74
$GLGNS,122942.00,,,,,,07,,,,,*76
$GAGNS,122942.00,,,,,,05,,,,,*79
$GBGNS,122942.00,,,,,,07,,,,,*78
$GPLLQ,122942.00,010125,,M,,M,1,24,3.222,,M*18
$GPVTG,,T,,M,0.00,N,0.00,K,D*26
$GPHDT,,T*1B
$GPTHS,,V*0E
$GPROT,,V*08
$PSSN,HRP,122942.00,010125,,,,,,,00,0,,*6F
$PTNL,AVR,122942.00,,Yaw,,Tilt,,,,0,,00*39
$GPGSA,A,3,12,19,24,25,32,,,,,,,,1.1,0.6,1.0*3E
$GPGSA,A,3,67,68,69,77,78,86,87,,,,,,1.1,0.6,1.0*3B
$GPGSA,A,3,02,07,08,29,30,,,,,,,,1.1,0.6,1.0*30
$GPGSA,A,3,12,14,24,26,35,41,44,,,,,,1.1,0.6,1.0*32
$GPGST,122942.00,4.701,1.661,0.830,346.927,1.629,0.892,2.633*56
$GPGBS,122942.00,5.361,3.894,13.126,32,0.0001,-2.755,1.134*4E
$GPGRS,122942.00,1,-0.0,1.3,-0.1,0.1,-2.8,,,,,,,*4B
$GPGRS,122942.00,1,-1.1,1.7,11.6,-7.2,11.4,-1.7,2.6,,,,,*40
$GPGRS,122942.00,1,0.5,-1.9,-3.5,-0.1,-1.0,,,,,,,*65
$GPGRS,122942.00,1,-1.8,-1.5,0.3,-0.7,-3.3,-0.3,-0.8,,,,,*6C
$GPGSV,4,1,15,12,74,279,48,17,12,041,29,11,11,127,,32,25,313,44*70
$GPGSV,4,2,15,19,38,055,40,06,22,091,26,25,32,263,44,24,69,147,46*7E
$GPGSV,4,3,15,22,05,071,,15,08,188,26,10,02,278,32,36,35,170,35*7C
$GPGSV,4,4,15,34,31,208,34,49,34,195,35,61,03,257,*40
$GLGSV,3,1,10,77,65,034,45,78,34,292,38,69,12,342,38,76,27,080,34*60
$GLGSV,3,2,10,67,28,235,37,68,37,295,37,86,36,053,36,87,39,117,40*60
$GLGSV,3,3,10,85,02,011,23,88,04,166,*6F
$GAGSV,3,1,12,30,67,269,50,08,31,192,37,29,20,319,37,11,15,039,*6F
$GAGSV,3,2,12,27,16,256,30,36,21,088,27,18,61,120,,02,54,063,49*6F
$GAGSV,3,3,12,07,51,262,46,10,04,015,,34,06,136,,25,04,071,*6D
$GBGSV,6,1,21,24,76,312,46,40,10,041,20,14,14,229,37,05,20,130,*60
$GBGSV,6,2,21,12,21,167,39,07,15,053,23,25,18,285,,11,17,227,*62
$GBGSV,6,3,21,41,20,306,41,33,22,254,31,44,39,147,45,10,28,057,31*69
$GBGSV,6,4,21,56,35,054,,35,44,081,46,26,47,095,44,02,04,109,*66
$GBGSV,6,5,21,42,02,207,,43,06,247,,29,07,031,,34,02,187,*6F
$GBGSV,6,6,21,60,08,111,*57
$GPGGA,122942.00,,,,,0,00,,,M,,M,,*46
$PTNL,GGK,122942.00,010125,4742.4465360,N,01617.9740515,E,1,24,1.1,EHT668.4567,M*43
$GPGGQ,122942.00,010125,4742.4465360,N,01617.9740515,E,1,24,3.222,625.2456,M*30
$GPGFA,122942.00,15.796,21.590,1.661,0.830,346.927,2.633,,VVV*0C
$GPLLK,122942.00,010125,,M,,M,1,24,1.3,,M*01
$GNGMP,122942.00,,,,,DAAA,24,0.6,,,,*58
$GPGMP,122942.00,,,,,,05,,,,2.0,123*74
$GLGMP,122942.00,,,,,,07,,,,,*76
$GAGMP,122942.00,,,,,,05,,,,,*79
$GBGMP,122942.00,,,,,,07,,,,,*78
$PSSN,SNC,[0,304200000,2347]*41
$GPZDA,122947.00,01,01,2025,,*68
$GPDTM,W84,,00.0000000,N,00.0000000,E,00.0000000,W84*5F
$GPRMC,122947.00,A,4742.4465378,N,01617.9740411,E,0.0,,010125,5.1,E,D*13
$GPGLL,4742.4465378,N,01617.9740411,E,122947.00,A,D*62
$GPGGA,122947.00,4742.4465378,N,01617.9740411,E,2,25,0.6,625.2460,M,43.2110,M,2.2,0123*4A
$GNGNS,122947.00,4742.4465378,N,01617.9740411,E,DAAA,25,0.6,625.2460,43.2110,,*56
$GPGNS,122947.00,,,,,,05,,,,2.2,123*73
$GLGNS,122947.00,,,,,,07,,,,,*73
$GAGNS,122947.00,,,,,,05,,,,,*7C
$GBGNS,122947.00,,,,,,08,,,,,*72
$GPLLQ,122947.00,010125,,M,,M,1,25,3.709,,M*10
$GPVTG,,T,,M,0.00,N,0.01,K,D*27
$GPHDT,,T*1B
$GPTHS,,V*0E
$GPROT,,V*08
$PSSN,HRP,122947.00,010125,,,,,,,00,0,,*6A
$PTNL,AVR,122947.00,,Yaw,,Tilt,,,,0,,00*3C
$GPGSA,A,3,12,19,24,25,32,,,,,,,,1.1,0.6,0.9*36
$GPGSA,A,3,67,68,69,76,77,78,87,,,,,,1.1,0.6,0.9*3C
$GPGSA,A,3,02,07,08,29,30,,,,,,,,1.1,0.6,0.9*38
$GPGSA,A,3,12,14,24,26,33,35,41,44,,,,,1.1,0.6,0.9*3A
$GPGST,122947.00,7.166,1.899,0.941,346.710,1.860,1.014,3.045*51
$GPGBS,122947.00,5.267,3.917,13.174,78,0.0001,17.325,6.148*59
$GPGRS,122947.00,1,0.4,0.4,-0.2,-0.3,-2.3,,,,,,,*46
$GPGRS,122947.00,1,-0.2,-0.1,13.9,7.7,-6.1,17.3,3.6,,,,,*49
$GPGRS,122947.00,1,0.5,-2.0,-3.2,0.5,-0.8,,,,,,,*4D
$GPGRS,122947.00,1,-1.5,0.3,-0.6,-2.7,16.7,-3.2,-0.8,0.6,,,,*53
$GPGSV,4,1,15,12,74,280,48,17,12,041,27,11,12,127,,32,25,313,44*7B
$GPGSV,4,2,15,19,38,055,39,06,22,091,27,25,32,263,44,24,69,147,46*71
$GPGSV,4,3,15,22,05,071,,15,08,188,26,10,02,278,22,36,35,170,35*7D
$GPGSV,4,4,15,34,31,208,34,49,34,195,35,61,03,257,*40
$GLGSV,3,1,10,77,65,034,45,78,34,292,40,69,12,342,39,76,26,080,40*6C
$GLGSV,3,2,10,67,28,235,39,68,37,294,39,86,36,053,35,87,39,117,40*62
$GLGSV,3,3,10,85,02,010,27,88,04,166,*6A
$GAGSV,3,1,12,30,67,269,50,08,31,192,38,29,20,319,37,11,15,039,*60
$GAGSV,3,2,12,27,16,256,30,36,21,088,29,18,61,120,,02,54,063,49*61
$GAGSV,3,3,12,07,51,262,46,10,04,015,,34,06,136,,25,04,071,*6D
$GBGSV,6,1,21,24,76,312,45,40,10,041,,14,14,229,21,05,20,130,*66
$GBGSV,6,2,21,12,21,167,39,07,15,053,25,25,18,285,,11,17,227,*64
$GBGSV,6,3,21,41,20,306,41,33,22,254,40,44,39,147,45,10,28,057,32*6C
$GBGSV,6,4,21,56,35,054,,35,44,081,46,26,47,095,43,02,04,109,*61
$GBGSV,6,5,21,42,02,207,,43,06,247,,29,07,031,,34,02,187,*6F
$GBGSV,6,6,21,60,08,111,*57
$GPGGA,122947.00,,,,,0,00,,,M,,M,,*43
$PTNL,GGK,122947.00,010125,4742.4465378,N,01617.9740411,E,1,25,1.1,EHT668.4570,M*4D
$GPGGQ,122947.00,010125,4742.4465378,N,01617.9740411,E,1,25,3.709,625.2460,M*31
$GPGFA,122947.00,18.052,24.966,1.899,0.941,346.710,3.045,,VVV*09
$GPLLK,122947.00,010125,,M,,M,1,25,1.2,,M*04
$GNGMP,122947.00,,,,,DAAA,25,0.6,,,,*5C
$GPGMP,122947.00,,,,,,05,,,,2.2,123*73
$GLGMP,122947.00,,,,,,07,,,,,*73
$GAGMP,122947.00,,,,,,05,,,,,*7C
$GBGMP,122947.00,,,,,,08,,,,,*72
$PSSN,SNC,[0,304205000,2347]*44
$GPZDA,122952.00,01,01,2025,,*6C
$GPDTM,W84,,00.0000000,N,00.0000000,E,00.0000000,W84*5F
$GPRMC,122952.00,A,4742.4465385,N,01617.9740345,E,0.0,,010125,5.1,E,D*13
$GPGLL,4742.4465385,N,01617.9740345,E,122952.00,A,D*62
$GPGGA,122952.00,4742.4465385,N,01617.9740345,E,2,24,0.6,625.2284,M,43.2110,M,2.4,0123*41
$GNGNS,122952.00,4742.4465385,N,01617.9740345,E,DAAA,24,0.6,625.2284,43.2110,,*5B
$GPGNS,122952.00,,,,,,05,,,,2.4,123*71
$GLGNS,122952.00,,,,,,07,,,,,*77
$GAGNS,122952.00,,,,,,05,,,,,*78
$GBGNS,122952.00,,,,,,07,,,,,*79
$GPLLQ,122952.00,010125,,M,,M,1,24,3.877,,M*13
$GPVTG,,T,,M,0.01,N,0.01,K,D*26
$GPHDT,,T*1B
$GPTHS,,V*0E
$GPROT,,V*08
$PSSN,HRP,122952.00,010125,,,,,,,00,0,,*6E
$PTNL,AVR,122952.00,,Yaw,,Tilt,,,,0,,00*38
$GPGSA,A,3,12,19,24,25,32,,,,,,,,1.1,0.6,1.0*3E
$GPGSA,A,3,67,68,69,76,77,78,87,,,,,,1.1,0.6,1.0*34
$GPGSA,A,3,02,07,08,29,30,,,,,,,,1.1,0.6,1.0*30
$GPGSA,A,3,12,24,26,33,35,41,44,,,,,,1.1,0.6,1.0*37
$GPGST,122952.00,6.984,1.992,0.992,347.385,1.955,1.062,3.174*58
$GPGBS,122952.00,5.508,3.941,12.826,78,0.0001,18.981,6.147*5B
$GPGRS,122952.00,1,0.4,0.3,0.2,-1.0,-2.3,,,,,,,*6A
$GPGRS,122952.00,1,1.1,-0.4,13.8,3.7,-6.4,19.0,3.9,,,,,*65
$GPGRS,122952.00,1,0.8,-1.7,-2.7,0.3,-0.5,,,,,,,*4F
$GPGRS,122952.00,1,-0.7,-1.1,-3.0,13.0,-3.1,-0.3,0.6,,,,,*73
$GPGSV,4,1,15,12,74,280,48,17,12,041,26,11,12,127,,32,25,313,42*7C
$GPGSV,4,2,15,19,38,055,38,06,22,091,27,25,32,263,45,24,69,147,46*71
$GPGSV,4,3,15,22,05,071,,15,08,188,26,10,02,278,25,36,35,170,35*7A
$GPGSV,4,4,15,34,31,208,34,49,34,195,35,61,03,257,*40
$GLGSV,3,1,10,77,65,034,44,78,34,292,42,69,12,342,40,76,26,080,41*60
$GLGSV,3,2,10,67,28,235,41,68,37,294,40,86,36,053,34,87,39,117,39*6C
$GLGSV,3,3,10,85,02,010,27,88,04,166,*6A
$GAGSV,3,1,12,30,67,269,50,08,31,192,38,29,20,319,36,11,15,039,*61
$GAGSV,3,2,12,27,16,256,31,36,21,088,29,18,61,120,,02,54,063,48*61
$GAGSV,3,3,12,07,51,262,46,10,04,015,,34,06,136,,25,04,071,*6D
$GBGSV,6,1,21,24,76,312,46,40,10,041,,14,14,229,23,05,20,130,*67
$GBGSV,6,2,21,12,21,167,38,07,15,053,24,25,18,285,,11,17,226,*65
$GBGSV,6,3,21,41,20,306,40,33,22,254,39,44,39,147,45,10,28,057,31*60
$GBGSV,6,4,21,56,35,054,,35,44,081,46,26,47,095,41,02,04,109,*63
$GBGSV,6,5,21,42,02,207,,43,06,247,,29,07,031,,34,03,187,*6E
$GBGSV,6,6,21,60,08,111,*57
$GPGGA,122952.00,,,,,0,00,,,M,,M,,*47
$PTNL,GGK,122952.00,010125,4742.4465385,N,01617.9740345,E,1,24,1.1,EHT668.4394,M*40
$GPGGQ,122952.00,010125,4742.4465385,N,01617.9740345,E,1,24,3.877,625.2284,M*3A
$GPGFA,122952.00,18.935,26.030,1.992,0.992,347.385,3.174,,VVV*03
$GPLLK,122952.00,010125,,M,,M,1,24,1.3,,M*00
$GNGMP,122952.00,,,,,DAAA,24,0.6,,,,*59
$GPGMP,122952.00,,,,,,05,,,,2.4,123*71
$GLGMP,122952.00,,,,,,07,,,,,*77
$GAGMP,122952.00,,,,,,05,,,,,*78
$GBGMP,122952.00,,,,,,07,,,,,*79
$PSSN,SNC,[0,304210000,2347]*40
$GPZDA,122957.00,01,01,2025,,*69
$GPDTM,W84,,00.0000000,N,00.0000000,E,00.0000000,W84*5F
$GPRMC,122957.00,A,4742.4465405,N,01617.9740181,E,0.0,,010125,5.1,E,D*13
$GPGLL,4742.4465405,N,01617.9740181,E,122957.00,A,D*62
$GPGGA,122957.00,4742.4465405,N,01617.9740181,E,2,24,0.6,625.2247,M,43.2110,M,3.4,0123*4F
$GNGNS,122957.00,4742.4465405,N,01617.9740181,E,DAAA,24,0.6,625.2247,43.2110,,*54
$GPGNS,122957.00,,,,,,05,,,,3.4,123*75
$GLGNS,122957.00,,,,,,07,,,,,*72
$GAGNS,122957.00,,,,,,05,,,,,*7D
$GBGNS,122957.00,,,,,,07,,,,,*7C
$GPLLQ,122957.00,010125,,M,,M,1,24,3.372,,M*18
$GPVTG,,T,,M,0.00,N,0.00,K,D*26
$GPHDT,,T*1B
$GPTHS,,V*0E
$GPROT,,V*08
$PSSN,HRP,122957.00,010125,,,,,,,00,0,,*6B
$PTNL,AVR,122957.00,,Yaw,,Tilt,,,,0,,00*3D
$GPGSA,A,3,12,19,24,25,32,,,,,,,,1.1,0.6,1.0*3E
$GPGSA,A,3,67,68,69,76,77,78,87,,,,,,1.1,0.6,1.0*34
$GPGSA,A,3,02,07,08,29,30,,,,,,,,1.1,0.6,1.0*30
$GPGSA,A,3,12,24,26,33,35,41,44,,,,,,1.1,0.6,1.0*37
$GPGST,122957.00,5.028,1.746,0.880,347.902,1.717,0.935,2.747*54
$GPGBS,122957.00,5.553,4.013,13.003,32,0.0001,-2.540,1.121*49
$GPGRS,122957.00,1,-0.2,1.6,0.3,-0.4,-2.5,,,,,,,*42
$GPGRS,122957.00,1,3.3,-2.2,11.9,2.8,-7.1,12.5,-0.2,,,,,*46
$GPGRS,122957.00,1,0.8,-1.4,-2.6,-1.2,-0.6,,,,,,,*66
$GPGRS,122957.00,1,-2.1,-1.6,-3.1,3.0,-3.3,-0.4,-0.7,,,,,*6C
$GPGSV,4,1,15,12,74,280,48,17,12,041,27,11,12,127,,32,25,313,41*7E
$GPGSV,4,2,15,19,38,055,37,06,22,091,24,25,32,263,45,24,69,147,45*7E
$GPGSV,4,3,15,22,05,071,,15,08,188,26,10,02,278,29,36,35,170,35*76
$GPGSV,4,4,15,34,31,208,34,49,34,195,35,61,03,257,*40
$GLGSV,3,1,10,77,65,034,42,78,34,292,42,69,12,342,40,76,26,080,41*66
$GLGSV,3,2,10,67,27,235,42,68,37,294,40,86,36,053,34,87,39,117,39*60
$GLGSV,3,3,10,85,02,010,27,88,05,166,*6B
$GAGSV,3,1,12,30,67,269,50,08,31,192,39,29,20,319,35,11,15,039,*63
$GAGSV,3,2,12,27,16,256,31,36,21,088,29,18,61,120,,02,54,063,48*61
$GAGSV,3,3,12,07,51,262,46,10,04,015,,34,06,136,,25,04,071,*6D
$GBGSV,6,1,21,24,76,312,46,40,10,041,,14,14,229,22,05,20,130,*66
$GBGSV,6,2,21,12,21,167,37,07,15,053,24,25,18,285,,11,17,226,*6A
$GBGSV,6,3,21,41,20,306,39,33,22,254,34,44,39,147,46,10,28,057,31*60
$GBGSV,6,4,21,56,35,054,,35,44,081,46,26,47,095,38,02,04,109,*6D
$GBGSV,6,5,21,42,02,207,,43,06,247,,29,07,031,,34,03,187,*6E
$GBGSV,6,6,21,60,08,111,*57
$GPGGA,122957.00,,,,,0,00,,,M,,M,,*42
$PTNL,GGK,122957.00,010125,4742.4465405,N,01617.9740181,E,1,24,1.1,EHT668.4357,M*4F
$GPGGQ,122957.00,010125,4742.4465405,N,01617.9740181,E,1,24,3.372,625.2247,M*3B
$GPGFA,122957.00,16.603,22.528,1.746,0.880,347.902,2.747,,VVV*0D
$GPLLK,122957.00,010125,,M,,M,1,24,1.3,,M*05
$GNGMP,122957.00,,,,,DAAA,24,0.6,,,,*5C
$GPGMP,122957.00,,,,,,05,,,,3.4,123*75
$GLGMP,122957.00,,,,,,07,,,,,*72
$GAGMP,122957.00,,,,,,05,,,,,*7D
$GBGMP,122957.00,,,,,,07,,,,,*7C
$PSSN,SNC,[0,304215000,2347]*45
$GPZDA,123002.00,01,01,2025,,*61
$GPDTM,W84,,00.0000000,N,00.0000000,E,00.0000000,W84*5F
$GPRMC,123002.00,A,4742.4465406,N,01617.9740042,E,0.0,,010125,5.1,E,D*16
$GPGLL,4742.4465406,N,01617.9740042,E,123002.00,A,D*67
$GPGGA,123002.00,4742.4465406,N,01617.9740042,E,2,22,0.6,625.2287,M,43.2110,M,2.0,0123*45
$GNGNS,123002.00,4742.4465406,N,01617.9740042,E,DAAA,22,0.6,625.2287,43.2110,,*5B
$GPGNS,123002.00,,,,,,05,,,,2.0,123*78
$GLGNS,123002.00,,,,,,06,,,,,*7B
$GAGNS,123002.00,,,,,,04,,,,,*74
$GBGNS,123002.00,,,,,,07,,,,,*74
$GPLLQ,123002.00,010125,,M,,M,1,22,3.139,,M*1B
$GPVTG,,T,,M,0.01,N,0.01,K,D*26
$GPHDT,,T*1B
$GPTHS,,V*0E
$GPROT,,V*08
$PSSN,HRP,123002.00,010125,,,,,,,00,0,,*63
$PTNL,AVR,123002.00,,Yaw,,Tilt,,,,0,,00*35
$GPGSA,A,3,12,19,24,25,32,,,,,,,,1.2,0.6,1.0*3D
$GPGSA,A,3,67,69,76,77,78,87,,,,,,,1.2,0.6,1.0*39
$GPGSA,A,3,02,07,08,30,,,,,,,,,1.2,0.6,1.0*38
$GPGSA,A,3,12,24,26,33,35,41,44,,,,,,1.2,0.6,1.0*34
$GPGST,123002.00,5.295,1.626,0.806,347.393,1.597,0.863,2.561*5D
$GPGBS,123002.00,5.524,3.852,13.225,19,0.0001,1.536,0.819*68
$GPGRS,123002.00,1,-0.2,1.5,-0.4,0.1,-1.7,,,,,,,*4A
$GPGRS,123002.00,1,10.6,11.2,3.1,-8.6,3.7,-1.3,,,,,,*43
$GPGRS,123002.00,1,1.2,-1.5,-2.0,-0.1,,,,,,,,*65
$GPGRS,123002.00,1,-3.0,-2.1,-1.1,6.8,-2.7,-0.4,-1.3,,,,,*6F
$GPGSV,4,1,16,12,74,280,47,17,12,040,24,11,12,127,,32,25,313,42*73
$GPGSV,4,2,16,19,38,055,39,06,22,091,29,25,32,264,45,24,69,147,45*79
$GPGSV,4,3,16,22,04,071,,15,08,188,27,29,00,206,,10,02,278,27*77
$GPGSV,4,4,16,36,35,170,35,34,31,208,34,49,34,195,35,61,03,257,*70
$GLGSV,3,1,10,77,65,034,39,78,34,293,41,69,12,342,39,76,26,080,39*69
$GLGSV,3,2,10,67,27,235,42,68,37,294,35,86,36,053,33,87,39,117,40*6B
$GLGSV,3,3,10,85,02,010,26,88,05,166,*6A
$GAGSV,3,1,12,30,67,270,51,08,31,192,40,29,20,319,34,11,15,038,*64
$GAGSV,3,2,12,27,16,256,32,36,21,088,29,18,61,120,,02,54,063,48*62
$GAGSV,3,3,12,07,51,262,46,10,04,015,,34,06,136,,25,04,071,*6D
$GBGSV,6,1,21,24,76,312,47,40,10,041,,14,14,228,22,05,20,130,*66
$GBGSV,6,2,21,12,21,167,36,07,15,053,25,25,18,285,,11,17,226,*6A
$GBGSV,6,3,21,41,20,306,39,33,22,254,36,44,39,147,46,10,28,057,31*62
$GBGSV,6,4,21,56,35,054,,35,44,081,46,26,47,095,36,02,04,109,*63
$GBGSV,6,5,21,42,02,207,,43,06,247,,29,07,031,,34,03,187,*6E
$GBGSV,6,6,21,60,08,111,*57
$GPGGA,123002.00,,,,,0,00,,,M,,M,,*4A
$PTNL,GGK,123002.00,010125,4742.4465406,N,01617.9740042,E,1,22,1.2,EHT668.4398,M*4C
$GPGGQ,123002.00,010125,4742.4465406,N,01617.9740042,E,1,22,3.139,625.2287,M*39
$GPGFA,123002.00,15.461,21.002,1.626,0.806,347.393,2.561,,VVV*03
$GPLLK,123002.00,010125,,M,,M,1,22,1.3,,M*0B
$GNGMP,123002.00,,,,,DAAA,22,0.6,,,,*52
$GPGMP,123002.00,,,,,,05,,,,2.0,123*78
$GLGMP,123002.00,,,,,,06,,,,,*7B
$GAGMP,123002.00,,,,,,04,,,,,*74
$GBGMP,123002.00,,,,,,07,,,,,*74
$PSSN,SNC,[0,304220000,2347]*43
$GPZDA,123007.00,01,01,2025,,*64
$GPDTM,W84,,00.0000000,N,00.0000000,E,00.0000000,W84*5F
$GPRMC,123007.00,A,4742.4465382,N,01617.9739923,E,0.0,,010125,5.1,E,D*18
$GPGLL,4742.4465382,N,01617.9739923,E,123007.00,A,D*69
$GPGGA,123007.00,4742.4465382,N,01617.9739923,E,2,20,0.6,625.2444,M,43.2110,M,2.2,0123*42
$GNGNS,123007.00,4742.4465382,N,01617.9739923,E,DAAA,20,0.6,625.2444,43.2110,,*5E
$GPGNS,123007.00,,,,,,05,,,,2.2,123*7F
$GLGNS,123007.00,,,,,,06,,,,,*7E
$GAGNS,123007.00,,,,,,04,,,,,*71
$GBGNS,123007.00,,,,,,05,,,,,*73
$GPLLQ,123007.00,010125,,M,,M,1,20,4.193,,M*1B
$GPVTG,,T,,M,0.00,N,0.00,K,D*26
$GPHDT,,T*1B
$GPTHS,,V*0E
$GPROT,,V*08
$PSSN,HRP,123007.00,010125,,,,,,,00,0,,*66
$PTNL,AVR,123007.00,,Yaw,,Tilt,,,,0,,00*30
$GPGSA,A,3,12,19,24,25,32,,,,,,,,1.2,0.6,1.0*3D
$GPGSA,A,3,67,69,76,77,78,87,,,,,,,1.2,0.6,1.0*39
$GPGSA,A,3,02,07,08,30,,,,,,,,,1.2,0.6,1.0*38
$GPGSA,A,3,12,24,35,41,44,,,,,,,,1.2,0.6,1.0*30
$GPGST,123007.00,7.794,2.150,1.061,346.834,2.107,1.143,3.440*53
$GPGBS,123007.00,5.460,3.949,13.468,67,0.0001,20.552,6.190*5E
$GPGRS,123007.00,1,-0.5,1.8,-0.4,-0.1,-0.7,,,,,,,*69
$GPGRS,123007.00,1,20.6,13.3,4.8,-11.3,-2.1,-0.4,,,,,,*59
$GPGRS,123007.00,1,1.2,-1.5,-1.1,0.0,,,,,,,,*4E
$GPGRS,123007.00,1,-3.3,-2.7,-2.4,-1.4,-1.6,,,,,,,*4B
$GPGSV,4,1,16,12,74,280,47,17,12,040,25,11,12,127,,32,25,313,43*73
$GPGSV,4,2,16,19,38,055,41,06,22,091,29,25,32,264,45,24,69,147,43*70
$GPGSV,4,3,16,22,04,071,,15,08,188,27,29,00,206,,10,02,278,26*76
$GPGSV,4,4,16,36,35,170,35,34,31,208,34,49,34,195,35,61,03,257,*70
$GLGSV,3,1,10,77,65,034,37,78,34,293,41,69,13,342,39,76,26,080,36*69
$GLGSV,3,2,10,67,27,235,41,68,37,294,34,86,36,053,34,87,39,117,39*60
$GLGSV,3,3,10,85,02,010,24,88,05,166,*68
$GAGSV,3,1,12,30,67,270,51,08,31,192,40,29,20,319,33,11,15,038,*63
$GAGSV,3,2,12,27,16,256,32,36,21,088,28,18,61,120,,02,54,063,47*6C
$GAGSV,3,3,12,07,51,262,46,10,04,015,,34,06,136,,25,04,071,*6D
$GBGSV,6,1,21,24,76,312,47,40,10,041,,14,14,228,20,05,20,130,*64
$GBGSV,6,2,21,12,21,167,35,07,15,053,25,25,18,286,,11,17,226,*6A
$GBGSV,6,3,21,41,20,306,40,33,22,254,29,44,39,147,46,10,28,057,31*62
$GBGSV,6,4,21,56,35,054,,35,44,081,46,26,46,095,34,02,04,109,*60
$GBGSV,6,5,21,42,02,207,,43,06,247,,29,07,031,,34,03,187,*6E
$GBGSV,6,6,21,60,08,111,*57
$GPGGA,123007.00,,,,,0,00,,,M,,M,,*4F
$PTNL,GGK,123007.00,010125,4742.4465382,N,01617.9739923,E,1,20,1.2,EHT668.4554,M*46
$GPGGQ,123007.00,010125,4742.4465382,N,01617.9739923,E,1,20,4.193,625.2444,M*3B
$GPGFA,123007.00,20.439,28.212,2.150,1.061,346.834,3.440,,VVV*0E
$GPLLK,123007.00,010125,,M,,M,1,20,1.4,,M*0B
$GNGMP,123007.00,,,,,DAAA,20,0.6,,,,*55
$GPGMP,123007.00,,,,,,05,,,,2.2,123*7F
$GLGMP,123007.00,,,,,,06,,,,,*7E
$GAGMP,123007.00,,,,,,04,,,,,*71
$GBGMP,123007.00,,,,,,05,,,,,*73
$PSSN,SNC,[0,304225000,2347]*46
$GPZDA,123012.00,01,01,2025,,*60
$GPDTM,W84,,00.0000000,N,00.0000000,E,00.0000000,W84*5F
$GPRMC,123012.00,A,4742.4465350,N,01617.9739821,E,0.0,,010125,5.1,E,D*10
$GPGLL,4742.4465350,N,01617.9739821,E,123012.00,A,D*61
$GPGGA,123012.00,4742.4465350,N,01617.9739821,E,2,18,0.7,625.2604,M,43.2110,M,2.4,0123*40
$GNGNS,123012.00,4742.4465350,N,01617.9739821,E,DAAA,18,0.7,625.2604,43.2110,,*5A
$GPGNS,123012.00,,,,,,05,,,,2.4,123*7D
$GLGNS,123012.00,,,,,,05,,,,,*79
$GAGNS,123012.00,,,,,,04,,,,,*75
$GBGNS,123012.00,,,,,,04,,,,,*76
$GPLLQ,123012.00,010125,,M,,M,1,18,3.692,,M*15
$GPVTG,,T,,M,0.00,N,0.00,K,D*26
$GPHDT,,T*1B
$GPTHS,,V*0E
$GPROT,,V*08
$PSSN,HRP,123012.00,010125,,,,,,,00,0,,*62
$PTNL,AVR,123012.00,,Yaw,,Tilt,,,,0,,00*34
$GPGSA,A,3,12,19,24,25,32,,,,,,,,1.4,0.7,1.2*38
$GPGSA,A,3,69,77,78,86,87,,,,,,,,1.4,0.7,1.2*32
$GPGSA,A,3,02,07,08,30,,,,,,,,,1.4,0.7,1.2*3D
$GPGSA,A,3,24,35,41,44,,,,,,,,,1.4,0.7,1.2*36
$GPGST,123012.00,7.398,1.916,0.930,347.283,1.880,1.000,3.016*59
$GPGBS,123012.00,6.004,4.026,13.618,69,0.0001,16.468,7.030*54
$GPGRS,123012.00,1,-0.3,1.1,-0.5,0.1,-0.6,,,,,,,*4F
$GPGRS,123012.00,1,16.5,-12.9,0.7,11.7,-0.8,,,,,,,*53
$GPGRS,123012.00,1,1.1,-1.3,-0.5,-0.0,,,,,,,,*67
$GPGRS,123012.00,1,-3.2,-2.3,-1.3,-1.8,,,,,,,,*46
$GPGSV,4,1,16,12,74,280,48,17,12,040,25,11,12,127,,32,25,313,44*7B
$GPGSV,4,2,16,19,38,055,43,06,22,091,22,25,32,264,45,24,69,147,41*7B
$GPGSV,4,3,16,22,04,071,,15,08,188,27,29,00,206,,10,02,278,28*78
$GPGSV,4,4,16,36,35,170,35,34,31,208,34,49,34,195,35,61,03,257,*70
$GLGSV,3,1,10,77,65,034,37,78,34,293,40,69,13,342,36,76,26,080,31*60
$GLGSV,3,2,10,67,27,235,40,68,37,294,35,86,36,053,39,87,39,117,39*6D
$GLGSV,3,3,10,85,02,010,,88,05,166,*6E
$GAGSV,3,1,12,30,67,270,50,08,31,192,41,29,20,319,32,11,15,038,*62
$GAGSV,3,2,12,27,16,256,32,36,21,088,28,18,61,120,,02,54,063,47*6C
$GAGSV,3,3,12,07,51,262,45,10,04,015,,34,06,136,,25,04,071,*6E
$GBGSV,6,1,21,24,76,312,47,40,10,041,,14,14,228,22,05,20,130,*66
$GBGSV,6,2,21,07,15,053,26,12,21,167,34,25,18,286,,11,17,226,*68
$GBGSV,6,3,21,41,20,306,41,33,22,254,30,44,39,147,46,10,28,057,32*68
$GBGSV,6,4,21,56,35,054,,35,44,081,46,26,46,095,32,02,04,109,*66
$GBGSV,6,5,21,42,02,207,,43,06,247,,29,07,031,,34,03,187,*6E
$GBGSV,6,6,21,60,08,111,*57
$GPGGA,123012.00,,,,,0,00,,,M,,M,,*4B
$PTNL,GGK,123012.00,010125,4742.4465350,N,01617.9739821,E,1,18,1.4,EHT668.4715,M*44
$GPGGQ,123012.00,010125,4742.4465350,N,01617.9739821,E,1,18,3.692,625.2604,M*3F
$GPGFA,123012.00,18.216,24.733,1.916,0.930,347.283,3.016,,VVV*05
$GPLLK,123012.00,010125,,M,,M,1,18,1.6,,M*06
$GNGMP,123012.00,,,,,DAAA,18,0.7,,,,*5B
$GPGMP,123012.00,,,,,,05,,,,2.4,123*7D
$GLGMP,123012.00,,,,,,05,,,,,*79
$GAGMP,123012.00,,,,,,04,,,,,*75
$GBGMP,123012.00,,,,,,04,,,,,*76
$PSSN,SNC,[0,304230000,2347]*42
$GPZDA,123017.00,01,01,2025,,*65
$GPDTM,W84,,00.0000000,N,00.0000000,E,00.0000000,W84*5F
$GPRMC,123017.00,A,4742.4465288,N,01617.9739797,E,0.0,,010125,5.1,E,D*13
$GPGLL,4742.4465288,N,01617.9739797,E,123017.00,A,D*62
$GPGGA,123017.00,4742.4465288,N,01617.9739797,E,2,18,0.7,625.2642,M,43.2110,M,1.6,0123*40
$GNGNS,123017.00,4742.4465288,N,01617.9739797,E,DAAA,18,0.7,625.2642,43.2110,,*5B
$GPGNS,123017.00,,,,,,05,,,,1.6,123*79
$GLGNS,123017.00,,,,,,04,,,,,*7D
$GAGNS,123017.00,,,,,,04,,,,,*70
$GBGNS,123017.00,,,,,,05,,,,,*72
$GPLLQ,123017.00,010125,,M,,M,1,18,4.355,,M*19
$GPVTG,,T,,M,0.00,N,0.00,K,D*26
$GPHDT,,T*1B
$GPTHS,,V*0E
$GPROT,,V*08
$PSSN,HRP,123017.00,010125,,,,,,,00,0,,*67
$PTNL,AVR,123017.00,,Yaw,,Tilt,,,,0,,00*31
$GPGSA,A,3,12,19,24,25,32,,,,,,,,1.4,0.7,1.2*38
$GPGSA,A,3,67,78,86,87,,,,,,,,,1.4,0.7,1.2*3C
$GPGSA,A,3,02,07,08,30,,,,,,,,,1.4,0.7,1.2*3D
$GPGSA,A,3,14,24,35,41,44,,,,,,,,1.4,0.7,1.2*33
$GPGST,123017.00,8.057,2.269,1.125,346.832,2.224,1.211,3.543*5F
$GPGBS,123017.00,5.777,3.892,13.361,67,0.0001,22.915,6.197*59
$GPGRS,123017.00,1,0.1,0.9,-0.7,0.2,-0.4,,,,,,,*6F
$GPGRS,123017.00,1,22.9,9.0,9.7,-0.7,,,,,,,,*5C
$GPGRS,123017.00,1,1.0,-1.4,-0.3,-0.0,,,,,,,,*62
$GPGRS,123017.00,1,-3.6,-2.9,-1.9,-1.0,-1.4,,,,,,,*49
$GPGSV,4,1,16,12,74,280,48,17,12,040,26,11,12,127,,32,25,313,44*78
$GPGSV,4,2,16,19,38,055,44,06,22,091,36,25,32,264,46,24,69,147,43*78
$GPGSV,4,3,16,22,04,071,,15,08,188,28,29,00,206,,10,01,278,27*7B
$GPGSV,4,4,16,36,35,170,35,34,31,208,34,49,34,195,35,61,03,257,*70
$GLGSV,3,1,10,77,65,034,,78,34,293,38,69,13,342,33,76,26,080,30*6F
$GLGSV,3,2,10,67,27,235,38,68,37,294,34,86,36,053,41,87,39,117,39*6C
$GLGSV,3,3,10,85,02,010,,88,05,166,*6E
$GAGSV,3,1,12,30,67,270,51,08,31,192,41,29,20,319,31,11,15,038,*60
$GAGSV,3,2,12,27,16,256,31,36,21,088,28,18,61,120,,02,54,063,46*6E
$GAGSV,3,3,12,07,51,261,45,10,04,015,,34,06,136,,25,04,071,*6D
$GBGSV,6,1,21,24,76,312,47,40,10,041,,14,14,228,35,05,20,130,*60
$GBGSV,6,2,21,07,15,053,25,12,21,167,34,25,18,286,,11,17,226,*6B
$GBGSV,6,3,21,41,20,306,42,33,22,254,32,44,39,147,45,10,28,057,31*69
$GBGSV,6,4,21,56,35,054,,35,44,080,46,26,46,095,33,02,04,109,*66
$GBGSV,6,5,21,42,02,207,,43,06,247,,29,07,031,,34,03,187,*6E
$GBGSV,6,6,21,60,08,111,*57
$GPGGA,123017.00,,,,,0,00,,,M,,M,,*4E
$PTNL,GGK,123017.00,010125,4742.4465288,N,01617.9739797,E,1,18,1.4,EHT668.4752,M*44
$GPGGQ,123017.00,010125,4742.4465288,N,01617.9739797,E,1,18,4.355,625.2642,M*37
$GPGFA,123017.00,21.573,29.049,2.269,1.125,346.832,3.543,,VVV*00
$GPLLK,123017.00,010125,,M,,M,1,18,1.6,,M*03
$GNGMP,123017.00,,,,,DAAA,18,0.7,,,,*5E
$GPGMP,123017.00,,,,,,05,,,,1.6,123*79
$GLGMP,123017.00,,,,,,04,,,,,*7D
$GAGMP,123017.00,,,,,,04,,,,,*70
$GBGMP,123017.00,,,,,,05,,,,,*72
$PSSN,SNC,[0,304235000,2347]*47
$GPZDA,123022.00,01,01,2025,,*63
$GPDTM,W84,,00.0000000,N,00.0000000,E,00.0000000,W84*5F
$GPRMC,123022.00,A,4742.4465268,N,01617.9739740,E,0.0,,010125,5.1,E,D*11
$GPGLL,4742.4465268,N,01617.9739740,E,123022.00,A,D*60
$GPGGA,123022.00,4742.4465268,N,01617.9739740,E,2,19,0.7,625.2743,M,43.2110,M,2.6,0123*40
$GNGNS,123022.00,4742.4465268,N,01617.9739740,E,DAAA,19,0.7,625.2743,43.2110,,*58
$GPGNS,123022.00,,,,,,05,,,,2.6,123*7C
$GLGNS,123022.00,,,,,,06,,,,,*79
$GAGNS,123022.00,,,,,,04,,,,,*76
$GBGNS,123022.00,,,,,,04,,,,,*75
$GPLLQ,123022.00,010125,,M,,M,1,19,3.202,,M*1A
$GPVTG,,T,,M,0.00,N,0.01,K,D*27
$GPHDT,,T*1B
$GPTHS,,V*0E
$GPROT,,V*08
$PSSN,HRP,123022.00,010125,,,,,,,00,0,,*61
$PTNL,AVR,123022.00,,Yaw,,Tilt,,,,0,,00*37
$GPGSA,A,3,12,19,24,25,32,,,,,,,,1.5,0.7,1.3*38
$GPGSA,A,3,67,68,77,78,86,87,,,,,,,1.5,0.7,1.3*32
$GPGSA,A,3,02,07,08,30,,,,,,,,,1.5,0.7,1.3*3D
$GPGSA,A,3,24,35,41,44,,,,,,,,,1.5,0.7,1.3*36
$GPGST,123022.00,5.399,1.655,0.803,346.953,1.623,0.867,2.621*5B
$GPGBS,123022.00,5.818,3.917,13.734,67,0.0001,13.739,6.196*52
$GPGRS,123022.00,1,-0.2,1.3,0.0,-0.1,-1.3,,,,,,,*4E
$GPGRS,123022.00,1,13.7,3.8,3.6,-6.9,7.8,-0.5,,,,,,*70
$GPGRS,123022.00,1,0.7,-1.8,-0.4,-0.4,,,,,,,,*6D
$GPGRS,123022.00,1,-2.5,-2.1,-2.3,-1.4,,,,,,,,*4E
$GPGSV,4,1,16,12,74,280,48,17,12,040,24,11,12,127,,32,25,313,44*7A
$GPGSV,4,2,16,19,38,055,44,06,22,091,38,25,33,264,46,24,69,147,43*77
$GPGSV,4,3,16,22,04,071,,15,08,188,28,29,00,206,,10,01,278,28*74
$GPGSV,4,4,16,36,35,170,35,34,31,208,34,49,34,195,35,61,03,257,*70
$GLGSV,3,1,10,77,65,034,36,78,34,293,41,69,13,342,29,76,26,080,33*6C
$GLGSV,3,2,10,67,27,235,37,68,37,294,38,86,36,053,42,87,40,117,40*6C
$GLGSV,3,3,10,85,02,010,,88,05,166,*6E
$GAGSV,3,1,12,30,67,270,51,08,31,192,41,29,20,319,31,11,15,038,*60
$GAGSV,3,2,12,27,16,256,30,36,21,088,26,18,61,120,,02,54,063,45*62
$GAGSV,3,3,12,07,51,261,44,10,04,015,,34,06,136,,25,04,071,*6C
$GBGSV,6,1,21,24,76,312,48,40,10,041,,14,14,228,33,05,20,130,*69
$GBGSV,6,2,21,07,15,053,26,12,21,167,33,25,18,286,,11,17,226,*6F
$GBGSV,6,3,21,41,20,306,43,33,22,254,32,44,39,147,45,10,28,057,32*6B
$GBGSV,6,4,21,56,35,054,,35,44,080,46,26,46,095,33,02,04,109,*66
$GBGSV,6,5,21,42,02,207,,43,06,247,,29,06,031,,34,03,187,*6F
$GBGSV,6,6,21,60,08,111,*57
$GPGGA,123022.00,,,,,0,00,,,M,,M,,*48
$PTNL,GGK,123022.00,010125,4742.4465268,N,01617.9739740,E,1,19,1.5,EHT668.4854,M*4F
$GPGGQ,123022.00,010125,4742.4465268,N,01617.9739740,E,1,19,3.202,625.2743,M*30
$GPGFA,123022.00,15.736,21.490,1.655,0.803,346.953,2.621,,VVV*0E
$GPLLK,123022.00,010125,,M,,M,1,19,1.7,,M*05
$GNGMP,123022.00,,,,,DAAA,19,0.7,,,,*59
$GPGMP,123022.00,,,,,,05,,,,2.6,123*7C
$GLGMP,123022.00,,,,,,06,,,,,*79
$GAGMP,123022.00,,,,,,04,,,,,*76
$GBGMP,123022.00,,,,,,04,,,,,*75
$PSSN,SNC,[0,304240000,2347]*45
$GPZDA,123027.00,01,01,2025,,*66
$GPDTM,W84,,00.0000000,N,00.0000000,E,00.0000000,W84*5F
$GPRMC,123027.00,A,4742.4465236,N,01617.9739601,E,0.0,,010125,5.1,E,D*1B
$GPGLL,4742.4465236,N,01617.9739601,E,123027.00,A,D*6A
$GPGGA,123027.00,4742.4465236,N,01617.9739601,E,2,19,0.7,625.2776,M,43.2110,M,2.2,0123*48
$GNGNS,123027.00,4742.4465236,N,01617.9739601,E,DAAA,19,0.7,625.2776,43.2110,,*54
$GPGNS,123027.00,,,,,,06,,,,2.2,123*7E
$GLGNS,123027.00,,,,,,05,,,,,*7F
$GAGNS,123027.00,,,,,,04,,,,,*73
$GBGNS,123027.00,,,,,,04,,,,,*70
$GPLLQ,123027.00,010125,,M,,M,1,19,4.156,,M*1A
$GPVTG,,T,,M,0.00,N,0.00,K,D*26
$GPHDT,,T*1B
$GPTHS,,V*0E
$GPROT,,V*08
$PSSN,HRP,123027.00,010125,,,,,,,00,0,,*64
$PTNL,AVR,123027.00,,Yaw,,Tilt,,,,0,,00*32
$GPGSA,A,3,06,12,19,24,25,32,,,,,,,1.3,0.7,1.2*39
$GPGSA,A,3,67,68,77,86,87,,,,,,,,1.3,0.7,1.2*3A
$GPGSA,A,3,02,07,08,30,,,,,,,,,1.3,0.7,1.2*3A
$GPGSA,A,3,24,35,41,44,,,,,,,,,1.3,0.7,1.2*31
$GPGST,123027.00,5.687,2.178,1.071,348.982,2.148,1.131,3.373*50
$GPGBS,123027.00,5.680,3.682,12.488,06,0.0001,16.899,4.419*59
$GPGRS,123027.00,1,16.9,-0.3,1.1,-0.7,-0.0,-0.9,,,,,,*78
$GPGRS,123027.00,1,-2.9,0.7,3.9,7.5,0.5,,,,,,,*49
$GPGRS,123027.00,1,1.2,-1.3,0.0,-0.1,,,,,,,,*4B
$GPGRS,123027.00,1,-2.0,-1.8,-2.8,-0.9,,,,,,,,*43
$GPGSV,4,1,16,12,74,280,48,17,12,040,22,11,12,127,,32,25,313,44*7C
$GPGSV,4,2,16,19,38,055,44,06,22,091,39,25,33,264,46,24,69,147,43*76
$GPGSV,4,3,16,22,04,071,,15,08,188,29,29,00,206,,10,01,278,28*75
$GPGSV,4,4,16,36,35,170,35,34,31,208,34,49,34,195,36,61,03,257,*73
$GLGSV,3,1,10,77,65,035,35,78,34,293,27,69,13,342,28,76,26,080,34*68
$GLGSV,3,2,10,67,27,235,36,68,37,294,38,86,36,053,42,87,40,117,41*6C
$GLGSV,3,3,10,85,02,010,23,88,05,166,*6F
$GAGSV,3,1,12,30,67,270,51,08,31,192,41,29,20,319,32,11,15,038,*63
$GAGSV,3,2,12,27,16,256,29,36,21,088,25,18,61,120,,02,54,063,45*69
$GAGSV,3,3,12,07,51,261,44,10,04,015,,34,06,136,,25,04,071,*6C
$GBGSV,6,1,21,24,76,312,48,40,10,041,,14,14,228,25,05,20,130,*6E
$GBGSV,6,2,21,07,15,053,26,12,21,167,32,25,18,286,,11,17,226,*6E
$GBGSV,6,3,21,41,20,306,44,33,22,254,34,44,39,147,45,10,28,057,32*6A
$GBGSV,6,4,21,56,35,054,,35,44,080,47,26,46,095,31,02,04,109,*65
$GBGSV,6,5,21,42,02,207,,43,06,247,,29,06,031,,34,03,187,*6F
$GBGSV,6,6,21,60,08,111,*57
$GPGGA,123027.00,,,,,0,00,,,M,,M,,*4D
$PTNL,GGK,123027.00,010125,4742.4465236,N,01617.9739601,E,1,19,1.3,EHT668.4886,M*4C
$GPGGQ,123027.00,010125,4742.4465236,N,01617.9739601,E,1,19,4.156,625.2776,M*39
$GPGFA,123027.00,20.710,27.659,2.178,1.071,348.982,3.373,,VVV*0E
$GPLLK,123027.00,010125,,M,,M,1,19,1.6,,M*01
$GNGMP,123027.00,,,,,DAAA,19,0.7,,,,*5C
$GPGMP,123027.00,,,,,,06,,,,2.2,123*7E
$GLGMP,123027.00,,,,,,05,,,,,*7F
$GAGMP,123027.00,,,,,,04,,,,,*73
$GBGMP,123027.00,,,,,,04,,,,,*70
$PSSN,SNC,[0,304245000,2347]*40
$GPZDA,123032.00,01,01,2025,,*62
$GPDTM,W84,,00.0000000,N,00.0000000,E,00.0000000,W84*5F
$GPRMC,123032.00,A,4742.4465238,N,01617.9739518,E,0.0,,010125,5.1,E,D*1A
$GPGLL,4742.4465238,N,01617.9739518,E,123032.00,A,D*6B
$GPGGA,123032.00,4742.4465238,N,01617.9739518,E,2,19,0.7,625.2921,M,43.2110,M,3.2,0123*44
$GNGNS,123032.00,4742.4465238,N,01617.9739518,E,DAAA,19,0.7,625.2921,43.2110,,*59
$GPGNS,123032.00,,,,,,06,,,,3.2,123*7B
$GLGNS,123032.00,,,,,,04,,,,,*7A
$GAGNS,123032.00,,,,,,04,,,,,*77
$GBGNS,123032.00,,,,,,05,,,,,*75
$GPLLQ,123032.00,010125,,M,,M,1,19,3.421,,M*1C
$GPVTG,,T,,M,0.00,N,0.01,K,D*27
$GPHDT,,T*1B
$GPTHS,,V*0E
$GPROT,,V*08
$PSSN,HRP,123032.00,010125,,,,,,,00,0,,*60
$PTNL,AVR,123032.00,,Yaw,,Tilt,,,,0,,00*36
$GPGSA,A,3,06,12,19,24,25,32,,,,,,,1.3,0.7,1.2*39
$GPGSA,A,3,67,68,86,87,,,,,,,,,1.3,0.7,1.2*3A
$GPGSA,A,3,02,07,08,30,,,,,,,,,1.3,0.7,1.2*3A
$GPGSA,A,3,24,33,35,41,44,,,,,,,,1.3,0.7,1.2*31
$GPGST,123032.00,5.114,1.804,0.889,349.140,1.780,0.937,2.767*5F
$GPGBS,123032.00,5.777,3.682,12.812,06,0.0001,13.619,4.420*52
$GPGRS,123032.00,1,13.6,0.1,-1.0,-0.8,0.4,-0.2,,,,,,*58
$GPGRS,123032.00,1,-5.0,3.1,7.5,2.9,,,,,,,,*6C
$GPGRS,123032.00,1,2.0,-0.5,1.2,0.4,,,,,,,,*62
$GPGRS,123032.00,1,-1.4,-1.1,-0.9,-2.5,-0.2,,,,,,,*45
$GPGSV,4,1,16,12,74,280,47,17,12,040,21,11,12,127,,32,25,313,43*77
$GPGSV,4,2,16,19,38,055,42,06,22,091,39,25,33,264,45,24,69,147,43*73
$GPGSV,4,3,16,22,04,071,,15,08,188,28,29,00,206,,10,01,278,26*7A
$GPGSV,4,4,16,36,35,170,36,34,31,208,34,49,34,195,35,61,03,257,*73
$GLGSV,3,1,10,77,65,035,35,78,34,293,28,69,13,342,,76,26,080,*6A
$GLGSV,3,2,10,67,27,234,37,68,37,294,41,86,36,053,39,87,40,117,42*6D
$GLGSV,3,3,10,85,02,010,21,88,05,166,*6D
$GAGSV,3,1,12,30,67,270,51,08,31,192,41,29,20,318,34,11,15,038,*64
$GAGSV,3,2,12,27,16,256,28,36,21,088,24,18,61,119,,02,54,063,45*63
$GAGSV,3,3,12,07,51,261,43,10,04,015,,34,06,136,,25,04,071,*6B
$GBGSV,6,1,21,24,76,313,48,40,10,041,,14,14,228,26,05,20,130,*6C
$GBGSV,6,2,21,07,15,053,26,12,21,167,32,25,18,286,,11,17,226,*6E
$GBGSV,6,3,21,41,20,306,44,33,22,254,36,44,39,147,44,10,28,057,32*69
$GBGSV,6,4,21,56,35,054,,35,44,080,47,26,46,096,27,02,04,109,*61
$GBGSV,6,5,21,42,02,207,,43,06,247,,29,06,031,,34,03,187,*6F
$GBGSV,6,6,21,60,08,111,*57
$GPGGA,123032.00,,,,,0,00,,,M,,M,,*49
$PTNL,GGK,123032.00,010125,4742.4465238,N,01617.9739518,E,1,19,1.3,EHT668.5032,M*4B
$GPGGQ,123032.00,010125,4742.4465238,N,01617.9739518,E,1,19,3.421,625.2921,M*36
$GPGFA,123032.00,17.156,22.693,1.804,0.889,349.140,2.767,,VVV*01
$GPLLK,123032.00,010125,,M,,M,1,19,1.6,,M*05
$GNGMP,123032.00,,,,,DAAA,19,0.7,,,,*58
$GPGMP,123032.00,,,,,,06,,,,3.2,123*7B
$GLGMP,123032.00,,,,,,04,,,,,*7A
$GAGMP,123032.00,,,,,,04,,,,,*77
$GBGMP,123032.00,,,,,,05,,,,,*75
$PSSN,SNC,[0,304250000,2347]*44
$GPZDA,123037.00,01,01,2025,,*67
$GPDTM,W84,,00.0000000,N,00.0000000,E,00.0000000,W84*5F
$GPRMC,123037.00,A,4742.4465295,N,01617.9739688,E,0.0,,010125,5.1,E,D*12
$GPGLL,4742.4465295,N,01617.9739688,E,123037.00,A,D*63
$GPGGA,123037.00,4742.4465295,N,01617.9739688,E,2,22,0.6,625.2890,M,43.2110,M,2.2,0123*4F
$GNGNS,123037.00,4742.4465295,N,01617.9739688,E,DAAA,22,0.6,625.2890,43.2110,,*53
$GPGNS,123037.00,,,,,,06,,,,2.2,123*7F
$GLGNS,123037.00,,,,,,06,,,,,*7D
$GAGNS,123037.00,,,,,,05,,,,,*73
$GBGNS,123037.00,,,,,,05,,,,,*70
$GPLLQ,123037.00,010125,,M,,M,1,22,3.874,,M*1D
$GPVTG,,T,,M,0.00,N,0.01,K,D*27
$GPHDT,,T*1B
$GPTHS,,V*0E
$GPROT,,V*08
$PSSN,HRP,123037.00,010125,,,,,,,00,0,,*65
$PTNL,AVR,123037.00,,Yaw,,Tilt,,,,0,,00*33
$GPGSA,A,3,06,12,19,24,25,32,,,,,,,1.2,0.6,1.1*3A
$GPGSA,A,3,67,68,69,78,86,87,,,,,,,1.2,0.6,1.1*39
$GPGSA,A,3,02,07,08,29,30,,,,,,,,1.2,0.6,1.1*32
$GPGSA,A,3,24,33,35,41,44,,,,,,,,1.2,0.6,1.1*32
$GPGST,123037.00,4.502,2.010,0.995,348.769,1.981,1.052,3.158*59
$GPGBS,123037.00,5.325,3.581,12.921,19,0.0001,-3.018,0.822*4A
$GPGRS,123037.00,1,9.8,0.8,-3.0,-0.0,0.4,0.8,,,,,,*4C
$GPGRS,123037.00,1,-1.3,7.4,-3.2,-7.8,-3.4,5.8,,,,,,*4F
$GPGRS,123037.00,1,2.2,-0.1,2.1,3.1,0.6,,,,,,,*4F
$GPGRS,123037.00,1,-0.6,-1.8,-0.7,-1.6,0.0,,,,,,,*6B
$GPGSV,4,1,16,12,74,281,47,17,11,040,26,11,12,127,,32,25,313,44*75
$GPGSV,4,2,16,19,38,055,40,06,22,091,36,25,33,264,45,24,69,147,44*79
$GPGSV,4,3,16,22,04,071,,15,08,188,28,29,00,206,,10,01,278,22*7E
$GPGSV,4,4,16,36,35,170,36,34,31,208,34,49,34,195,36,61,03,257,*70
$GLGSV,3,1,10,77,65,035,34,78,34,293,36,69,13,342,35,76,26,081,*63
$GLGSV,3,2,10,67,27,234,39,68,37,294,44,86,36,053,41,87,40,117,41*6A
$GLGSV,3,3,10,85,02,010,,88,05,166,*6E
$GAGSV,3,1,12,30,68,270,51,08,31,192,40,29,20,318,36,11,15,038,*68
$GAGSV,3,2,12,27,16,256,25,36,21,088,25,18,61,119,,02,54,063,45*6F
$GAGSV,3,3,12,07,51,261,41,10,04,014,,34,07,136,,25,04,071,*69
$GBGSV,6,1,21,24,76,313,48,40,10,041,,14,14,228,26,05,20,130,*6C
$GBGSV,6,2,21,07,15,053,26,12,21,167,32,25,18,286,,11,17,226,*6E
$GBGSV,6,3,21,41,20,306,44,33,22,254,38,44,39,147,44,10,28,057,31*64
$GBGSV,6,4,21,56,35,054,,35,44,080,47,26,46,096,27,02,04,109,*61
$GBGSV,6,5,21,42,02,207,,43,06,247,,29,06,031,,34,03,187,*6F
$GBGSV,6,6,21,60,08,111,*57
$GPGGA,123037.00,,,,,0,00,,,M,,M,,*4C
$PTNL,GGK,123037.00,010125,4742.4465295,N,01617.9739688,E,1,22,1.2,EHT668.5001,M*4A
$GPGGQ,123037.00,010125,4742.4465295,N,01617.9739688,E,1,22,3.874,625.2890,M*31
$GPGFA,123037.00,19.111,25.898,2.010,0.995,348.769,3.158,,VVV*0E
$GPLLK,123037.00,010125,,M,,M,1,22,1.4,,M*0A
$GNGMP,123037.00,,,,,DAAA,22,0.6,,,,*54
$GPGMP,123037.00,,,,,,06,,,,2.2,123*7F
$GLGMP,123037.00,,,,,,06,,,,,*7D
$GAGMP,123037.00,,,,,,05,,,,,*73
$GBGMP,123037.00,,,,,,05,,,,,*70
$PSSN,SNC,[0,304255000,2347]*41
$GPZDA,123042.00,01,01,2025,,*65
$GPDTM,W84,,00.0000000,N,00.0000000,E,00.0000000,W84*5F
$GPRMC,123042.00,A,4742.4465329,N,01617.9739895,E,0.0,,010125,5.1,E,D*14
$GPGLL,4742.4465329,N,01617.9739895,E,123042.00,A,D*65
$GPGGA,123042.00,4742.4465329,N,01617.9739895,E,2,21,0.7,625.2737,M,43.2110,M,2.2,0123*49
$GNGNS,123042.00,4742.4465329,N,01617.9739895,E,DAAA,21,0.7,625.2737,43.2110,,*55
$GPGNS,123042.00,,,,,,05,,,,2.2,123*7E
$GLGNS,123042.00,,,,,,06,,,,,*7F
$GAGNS,123042.00,,,,,,05,,,,,*71
$GBGNS,123042.00,,,,,,05,,,,,*72
$GPLLQ,123042.00,010125,,M,,M,1,21,3.261,,M*12
$GPVTG,,T,,M,0.00,N,0.01,K,D*27
$GPHDT,,T*1B
$GPTHS,,V*0E
$GPROT,,V*08
$PSSN,HRP,123042.00,010125,,,,,,,00,0,,*67
$PTNL,AVR,123042.00,,Yaw,,Tilt,,,,0,,00*31
$GPGSA,A,3,12,19,24,25,32,,,,,,,,1.3,0.7,1.1*3C
$GPGSA,A,3,67,68,69,77,78,87,,,,,,,1.3,0.7,1.1*37
$GPGSA,A,3,02,07,08,29,30,,,,,,,,1.3,0.7,1.1*32
$GPGSA,A,3,24,33,35,41,44,,,,,,,,1.3,0.7,1.1*32
$GPGST,123042.00,3.668,1.659,0.816,346.915,1.627,0.879,2.687*5D
$GPGBS,123042.00,5.536,4.010,13.962,19,0.0001,-2.241,0.834*48
$GPGRS,123042.00,1,0.7,-2.2,0.1,0.0,1.0,,,,,,,*4C
$GPGRS,123042.00,1,2.2,8.9,2.2,2.7,-5.5,4.6,,,,,,*63
$GPGRS,123042.00,1,1.6,-0.6,2.0,3.9,0.2,,,,,,,*40
$GPGRS,123042.00,1,-0.1,3.2,-1.0,-1.0,-0.6,,,,,,,*60
$GPGSV,4,1,16,12,74,281,47,17,11,040,26,11,12,126,,32,25,313,44*74
$GPGSV,4,2,16,19,38,054,38,06,22,091,33,25,33,264,44,24,69,147,45*72
$GPGSV,4,3,16,22,04,071,,15,08,188,28,29,00,206,,10,01,278,*7E
$GPGSV,4,4,16,36,35,170,36,34,31,208,34,49,34,195,36,61,03,257,*70
$GLGSV,3,1,10,77,65,035,35,78,34,293,39,69,13,341,36,76,26,081,*6D
$GLGSV,3,2,10,67,27,234,40,68,37,294,42,86,36,053,30,87,40,117,41*64
$GLGSV,3,3,10,85,02,010,24,88,05,166,*68
$GAGSV,3,1,12,30,68,270,51,08,31,192,39,29,20,318,37,11,15,038,*67
$GAGSV,3,2,12,27,16,256,26,36,21,088,23,18,61,119,,02,53,063,44*6C
$GAGSV,3,3,12,07,51,261,41,10,04,014,,34,07,136,,25,04,071,*69
$GBGSV,6,1,21,24,76,313,48,40,10,041,,14,14,228,24,05,20,130,*6E
$GBGSV,6,2,21,07,15,053,26,12,21,167,33,25,18,286,,11,17,226,*6F
$GBGSV,6,3,21,41,20,306,45,33,22,253,40,44,39,147,44,10,28,057,32*6E
$GBGSV,6,4,21,56,35,054,,35,44,080,46,26,46,096,33,02,04,109,*65
$GBGSV,6,5,21,42,02,207,,43,06,247,,29,06,031,,34,03,187,*6F
$GBGSV,6,6,21,60,08,111,*57
$GPGGA,123042.00,,,,,0,00,,,M,,M,,*4E
$PTNL,GGK,123042.00,010125,4742.4465329,N,01617.9739895,E,1,21,1.3,EHT668.4847,M*45
$GPGGQ,123042.00,010125,4742.4465329,N,01617.9739895,E,1,21,3.261,625.2737,M*38
$GPGFA,123042.00,15.776,22.029,1.659,0.816,346.915,2.687,,VVV*0F
$GPLLK,123042.00,010125,,M,,M,1,21,1.5,,M*0A
$GNGMP,123042.00,,,,,DAAA,21,0.7,,,,*54
$GPGMP,123042.00,,,,,,05,,,,2.2,123*7E
$GLGMP,123042.00,,,,,,06,,,,,*7F
$GAGMP,123042.00,,,,,,05,,,,,*71
$GBGMP,123042.00,,,,,,05,,,,,*72
$PSSN,SNC,[0,304260000,2347]*47
$GPZDA,123047.00,01,01,2025,,*60
$GPDTM,W84,,00.0000000,N,00.0000000,E,00.0000000,W84*5F
$GPRMC,123047.00,A,4742.4465350,N,01617.9740018,E,0.0,,010125,5.1,E,D*1C
$GPGLL,4742.4465350,N,01617.9740018,E,123047.00,A,D*6D
$GPGGA,123047.00,4742.4465350,N,01617.9740018,E,2,21,0.7,625.2683,M,43.2110,M,2.4,0123*49
$GNGNS,123047.00,4742.4465350,N,01617.9740018,E,DAAA,21,0.7,625.2683,43.2110,,*53
$GPGNS,123047.00,,,,,,05,,,,2.4,123*7D
$GLGNS,123047.00,,,,,,05,,,,,*79
$GAGNS,123047.00,,,,,,05,,,,,*74
$GBGNS,123047.00,,,,,,06,,,,,*74
$GPLLQ,123047.00,010125,,M,,M,1,21,2.308,,M*18
$GPVTG,,T,,M,0.00,N,0.00,K,D*26
$GPHDT,,T*1B
$GPTHS,,V*0E
$GPROT,,V*08
$PSSN,HRP,123047.00,010125,,,,,,,00,0,,*62
$PTNL,AVR,123047.00,,Yaw,,Tilt,,,,0,,00*34
$GPGSA,A,3,12,19,24,25,32,,,,,,,,1.3,0.7,1.2*3F
$GPGSA,A,3,67,68,69,78,87,,,,,,,,1.3,0.7,1.2*34
$GPGSA,A,3,02,07,08,29,30,,,,,,,,1.3,0.7,1.2*31
$GPGSA,A,3,24,26,33,35,41,44,,,,,,,1.3,0.7,1.2*35
$GPGST,123047.00,4.506,1.177,0.582,347.558,1.156,0.622,1.898*59
$GPGBS,123047.00,5.768,4.015,13.634,33,0.0001,11.325,8.665*5B
$GPGRS,123047.00,1,0.2,-0.5,-0.2,0.0,0.7,,,,,,,*61
$GPGRS,123047.00,1,-2.2,7.8,3.2,-6.4,0.0,,,,,,,*6F
$GPGRS,123047.00,1,1.0,-0.5,1.2,3.5,-0.1,,,,,,,*63
$GPGRS,123047.00,1,0.3,-4.3,11.3,-1.9,-0.7,-0.9,,,,,,*7C
$GPGSV,4,1,16,12,74,281,48,17,11,040,27,11,12,126,,32,25,312,44*7B
$GPGSV,4,2,16,19,38,054,39,06,22,091,31,25,33,264,44,24,69,147,46*72
$GPGSV,4,3,16,22,04,071,,15,08,188,28,29,00,206,,10,01,278,*7E
$GPGSV,4,4,16,36,35,170,35,34,31,208,34,49,34,195,36,61,03,257,*73
$GLGSV,3,1,10,77,65,035,35,78,35,293,40,69,13,341,37,76,26,081,34*64
$GLGSV,3,2,10,67,27,234,36,68,37,294,42,86,36,053,34,87,40,117,41*61
$GLGSV,3,3,10,85,02,010,21,88,05,166,*6D
$GAGSV,3,1,12,30,68,270,51,08,31,192,38,29,20,318,39,11,15,038,*68
$GAGSV,3,2,12,27,16,256,29,36,21,088,22,18,61,119,,02,53,063,44*62
$GAGSV,3,3,12,07,51,261,41,10,04,014,,34,07,136,,25,04,071,*69
$GBGSV,6,1,21,24,77,313,48,40,10,041,,14,14,228,21,05,20,130,*6A
$GBGSV,6,2,21,07,15,053,27,12,21,167,33,25,18,286,,11,17,226,*6E
$GBGSV,6,3,21,41,20,306,45,33,22,253,40,44,39,147,45,10,28,057,31*6C
$GBGSV,6,4,21,56,35,054,,35,44,080,46,26,46,096,36,02,04,109,*60
$GBGSV,6,5,21,42,01,207,,43,06,247,,29,06,031,,34,03,187,*6C
$GBGSV,6,6,21,60,08,111,*57
$GPGGA,123047.00,,,,,0,00,,,M,,M,,*4B
$PTNL,GGK,123047.00,010125,4742.4465350,N,01617.9740018,E,1,21,1.3,EHT668.4794,M*4C
$GPGGQ,123047.00,010125,4742.4465350,N,01617.9740018,E,1,21,2.308,625.2683,M*31
$GPGFA,123047.00,11.190,15.561,1.177,0.582,347.558,1.898,,VVV*01
$GPLLK,123047.00,010125,,M,,M,1,21,1.5,,M*0F
$GNGMP,123047.00,,,,,DAAA,21,0.7,,,,*51
$GPGMP,123047.00,,,,,,05,,,,2.4,123*7D
$GLGMP,123047.00,,,,,,05,,,,,*79
$GAGMP,123047.00,,,,,,05,,,,,*74
$GBGMP,123047.00,,,,,,06,,,,,*74
$PSSN,SNC,[0,304265000,2347]*42
$GPZDA,123052.00,01,01,2025,,*64
$GPDTM,W84,,00.0000000,N,00.0000000,E,00.0000000,W84*5F
$GPRMC,123052.00,A,4742.4465317,N,01617.9740045,E,0.0,,010125,5.1,E,D*13
$GPGLL,4742.4465317,N,01617.9740045,E,123052.00,A,D*62
$GPGGA,123052.00,4742.4465317,N,01617.9740045,E,2,21,0.7,625.2721,M,43.2110,M,3.4,0123*4E
$GNGNS,123052.00,4742.4465317,N,01617.9740045,E,DAAA,21,0.7,625.2721,43.2110,,*55
$GPGNS,123052.00,,,,,,05,,,,3.4,123*78
$GLGNS,123052.00,,,,,,05,,,,,*7D
$GAGNS,123052.00,,,,,,05,,,,,*70
$GBGNS,123052.00,,,,,,06,,,,,*70
$GPLLQ,123052.00,010125,,M,,M,1,21,3.629,,M*1B
$GPVTG,,T,,M,0.01,N,0.01,K,D*26
$GPHDT,,T*1B
$GPTHS,,V*0E
$GPROT,,V*08
$PSSN,HRP,123052.00,010125,,,,,,,00,0,,*66
$PTNL,AVR,123052.00,,Yaw,,Tilt,,,,0,,00*30
$GPGSA,A,3,12,19,24,25,32,,,,,,,,1.3,0.7,1.2*3F
$GPGSA,A,3,67,68,69,78,87,,,,,,,,1.3,0.7,1.2*34
$GPGSA,A,3,02,07,08,29,30,,,,,,,,1.3,0.7,1.2*31
$GPGSA,A,3,24,26,33,35,41,44,,,,,,,1.3,0.7,1.2*35
$GPGST,123052.00,7.424,1.867,0.933,348.039,1.837,0.992,2.969*5A
$GPGBS,123052.00,5.824,4.082,13.840,67,0.0001,20.491,6.194*57
$GPGRS,123052.00,1,-0.2,0.5,-0.3,-0.7,0.7,,,,,,,*4E
$GPGRS,123052.00,1,20.5,4.1,3.1,-5.9,-3.1,,,,,,,*59
$GPGRS,123052.00,1,0.3,0.0,-0.1,3.2,-0.7,,,,,,,*63
$GPGRS,123052.00,1,0.4,-0.6,16.2,-2.2,-0.3,-1.3,,,,,,*7F
$GPGSV,4,1,16,12,74,281,49,17,11,040,27,11,12,126,,32,25,312,45*7B
$GPGSV,4,2,16,19,38,054,41,06,22,091,30,25,33,264,44,24,69,147,47*7D
$GPGSV,4,3,16,22,04,071,,15,08,188,28,29,00,206,,10,01,278,*7E
$GPGSV,4,4,16,36,35,170,35,34,31,208,34,49,34,195,36,61,03,257,*73
$GLGSV,3,1,10,77,65,035,,78,35,293,42,69,13,341,38,76,26,081,25*6F
$GLGSV,3,2,10,67,27,234,41,68,37,294,39,86,36,053,35,87,40,117,41*6C
$GLGSV,3,3,10,85,01,010,,88,05,166,*6D
$GAGSV,3,1,12,30,68,270,51,08,31,192,36,29,20,318,39,11,15,038,*66
$GAGSV,3,2,12,27,16,256,31,36,21,088,21,18,61,119,,02,53,063,44*68
$GAGSV,3,3,12,07,51,261,41,10,04,014,,34,07,136,,25,04,071,*69
$GBGSV,6,1,21,24,77,313,49,40,10,041,,14,14,228,21,05,20,130,*6B
$GBGSV,6,2,21,07,15,053,27,12,21,167,34,25,18,286,,11,18,226,*66
$GBGSV,6,3,21,41,20,306,46,33,22,253,39,44,39,147,45,10,28,057,31*61
$GBGSV,6,4,21,56,35,054,,35,44,080,46,26,46,096,36,02,04,109,*60
$GBGSV,6,5,21,42,01,207,,43,06,247,,29,06,031,,34,03,187,*6C
$GBGSV,6,6,21,60,08,111,*57
$GPGGA,123052.00,,,,,0,00,,,M,,M,,*4F
$PTNL,GGK,123052.00,010125,4742.4465317,N,01617.9740045,E,1,21,1.3,EHT668.4831,M*43
$GPGGQ,123052.00,010125,4742.4465317,N,01617.9740045,E,1,21,3.629,625.2721,M*30
$GPGFA,123052.00,17.750,24.343,1.867,0.933,348.039,2.969,,VVV*02
$GPLLK,123052.00,010125,,M,,M,1,21,1.5,,M*0B
$GNGMP,123052.00,,,,,DAAA,21,0.7,,,,*55
$GPGMP,123052.00,,,,,,05,,,,3.4,123*78
$GLGMP,123052.00,,,,,,05,,,,,*7D
$GAGMP,123052.00,,,,,,05,,,,,*70
$GBGMP,123052.00,,,,,,06,,,,,*70
$PSSN,SNC,[0,304270000,2347]*46
$GPZDA,123057.00,01,01,2025,,*61
$GPDTM,W84,,00.0000000,N,00.0000000,E,00.0000000,W84*5F
$GPRMC,123057.00,A,4742.4465309,N,01617.9740022,E,0.0,,010125,5.1,E,D*18
$GPGLL,4742.4465309,N,01617.9740022,E,123057.00,A,D*69
$GPGGA,123057.00,4742.4465309,N,01617.9740022,E,2,21,0.7,625.2866,M,43.2110,M,2.0,0123*4C
$GNGNS,123057.00,4742.4465309,N,01617.9740022,E,DAAA,21,0.7,625.2866,43.2110,,*52
$GPGNS,123057.00,,,,,,05,,,,2.0,123*78
$GLGNS,123057.00,,,,,,07,,,,,*7A
$GAGNS,123057.00,,,,,,04,,,,,*74
$GBGNS,123057.00,,,,,,05,,,,,*76
$GPLLQ,123057.00,010125,,M,,M,1,21,4.026,,M*10
$GPVTG,,T,,M,0.01,N,0.01,K,D*26
$GPHDT,,T*1B
$GPTHS,,V*0E
$GPROT,,V*08
$PSSN,HRP,123057.00,010125,,,,,,,00,0,,*63
$PTNL,AVR,123057.00,,Yaw,,Tilt,,,,0,,00*35
$GPGSA,A,3,12,19,24,25,32,,,,,,,,1.3,0.7,1.1*3C
$GPGSA,A,3,67,68,69,77,78,86,87,,,,,,1.3,0.7,1.1*39
$GPGSA,A,3,02,07,29,30,,,,,,,,,1.3,0.7,1.1*3A
$GPGSA,A,3,24,33,35,41,44,,,,,,,,1.3,0.7,1.1*32
$GPGST,123057.00,8.047,2.074,1.016,347.313,2.036,1.091,3.297*59
$GPGBS,123057.00,5.982,3.863,14.422,67,0.0001,21.066,6.194*5D
$GPGRS,123057.00,1,-0.2,0.3,0.0,-0.3,0.2,,,,,,,*62
$GPGRS,123057.00,1,21.1,2.8,2.1,-15.3,-4.9,3.5,-2.5,,,,,*4F
$GPGRS,123057.00,1,0.3,-0.1,3.0,-1.0,,,,,,,,*4C
$GPGRS,123057.00,1,0.6,12.5,-1.4,-0.1,-2.1,,,,,,,*78
$GPGSV,4,1,16,12,74,281,48,17,11,040,29,11,12,126,,32,25,312,45*74
$GPGSV,4,2,16,19,38,054,41,06,22,091,32,25,33,264,45,24,69,147,47*7E
$GPGSV,4,3,16,22,04,071,,15,08,188,27,29,00,206,,10,01,278,*71
$GPGSV,4,4,16,36,35,170,35,34,31,208,34,49,34,195,35,61,03,257,*70
$GLGSV,3,1,10,77,65,035,36,78,35,293,43,69,13,341,38,76,26,081,*6C
$GLGSV,3,2,10,67,27,234,41,68,37,294,39,86,36,053,35,87,40,116,39*62
$GLGSV,3,3,10,85,01,010,20,88,05,166,*6F
$GAGSV,3,1,12,30,68,270,50,08,30,192,34,29,20,318,40,11,15,038,*6A
$GAGSV,3,2,12,27,16,256,32,36,21,088,25,18,61,119,,02,53,063,44*6F
$GAGSV,3,3,12,07,51,261,42,10,04,014,,34,07,136,,25,04,071,*6A
$GBGSV,6,1,21,24,77,313,49,40,10,041,,14,14,228,27,05,20,130,*6D
$GBGSV,6,2,21,07,15,053,28,12,21,167,34,25,18,286,,11,18,226,*69
$GBGSV,6,3,21,41,20,306,46,33,22,253,38,44,39,147,45,10,28,057,31*60
$GBGSV,6,4,21,56,35,054,,35,44,080,47,26,46,096,35,02,04,109,*62
$GBGSV,6,5,21,42,01,207,,43,06,247,,29,06,031,,34,03,187,*6C
$GBGSV,6,6,21,60,08,111,*57
$GPGGA,123057.00,,,,,0,00,,,M,,M,,*4A
$PTNL,GGK,123057.00,010125,4742.4465309,N,01617.9740022,E,1,21,1.3,EHT668.4976,M*4A
$GPGGQ,123057.00,010125,4742.4465309,N,01617.9740022,E,1,21,4.026,625.2866,M*39
$GPGFA,123057.00,19.718,27.039,2.074,1.016,347.313,3.297,,VVV*01
$GPLLK,123057.00,010125,,M,,M,1,21,1.6,,M*0D
$GNGMP,123057.00,,,,,DAAA,21,0.7,,,,*50
$GPGMP,123057.00,,,,,,05,,,,2.0,123*78
$GLGMP,123057.00,,,,,,07,,,,,*7A
$GAGMP,123057.00,,,,,,04,,,,,*74
$GBGMP,123057.00,,,,,,05,,,,,*76
$PSSN,SNC,[0,304275000,2347]*43
$GPZDA,123102.00,01,01,2025,,*60
$GPDTM,W84,,00.0000000,N,00.0000000,E,00.0000000,W84*5F
$GPRMC,123102.00,A,4742.4465311,N,01617.9740057,E,0.0,,010125,5.1,E,D*12
$GPGLL,4742.4465311,N,01617.9740057,E,123102.00,A,D*63
$GPGGA,123102.00,4742.4465311,N,01617.9740057,E,2,19,0.8,625.2940,M,43.2110,M,2.2,0123*45
$GNGNS,123102.00,4742.4465311,N,01617.9740057,E,DAAA,19,0.8,625.2940,43.2110,,*59
$GPGNS,123102.00,,,,,,05,,,,2.2,123*7B
$GLGNS,123102.00,,,,,,06,,,,,*7A
$GAGNS,123102.00,,,,,,04,,,,,*75
$GBGNS,123102.00,,,,,,04,,,,,*76
$GPLLQ,123102.00,010125,,M,,M,1,19,3.598,,M*1D
$GPVTG,,T,,M,0.01,N,0.01,K,D*26
$GPHDT,,T*1B
$GPTHS,,V*0E
$GPROT,,V*08
$PSSN,HRP,123102.00,010125,,,,,,,00,0,,*62
$PTNL,AVR,123102.00,,Yaw,,Tilt,,,,0,,00*34
$GPGSA,A,3,12,19,24,25,32,,,,,,,,1.4,0.8,1.2*37
$GPGSA,A,3,67,68,69,77,78,87,,,,,,,1.4,0.8,1.2*3C
$GPGSA,A,3,02,07,29,30,,,,,,,,,1.4,0.8,1.2*31
$GPGSA,A,3,24,35,41,44,,,,,,,,,1.4,0.8,1.2*39
$GPGST,123102.00,6.700,1.845,0.881,347.097,1.809,0.953,2.960*50
$GPGBS,123102.00,6.051,3.991,14.780,67,0.0001,18.694,6.196*5C
$GPGRS,123102.00,1,-0.4,0.4,-0.3,0.3,0.2,,,,,,,*61
$GPGRS,123102.00,1,18.7,3.7,0.6,-10.5,-6.5,-2.3,,,,,,*6A
$GPGRS,123102.00,1,0.1,-0.8,2.5,-0.8,,,,,,,,*4B
$GPGRS,123102.00,1,1.1,-0.4,-0.4,-2.7,,,,,,,,*65
$GPGSV,4,1,16,12,74,281,47,17,11,040,25,11,12,126,,32,25,312,45*77
$GPGSV,4,2,16,19,38,054,41,06,22,091,32,25,33,264,45,24,69,147,48*71
$GPGSV,4,3,16,22,04,071,,15,08,188,27,29,00,206,,10,01,278,*71
$GPGSV,4,4,16,36,35,170,35,34,31,208,34,49,34,195,35,61,03,257,*70
$GLGSV,3,1,10,77,65,035,36,78,35,293,43,69,13,341,40,76,26,081,29*68
$GLGSV,3,2,10,67,27,234,40,68,37,294,39,86,36,053,34,87,40,116,39*62
$GLGSV,3,3,10,85,01,010,,88,05,166,*6D
$GAGSV,3,1,12,30,68,270,50,08,30,192,34,29,20,318,40,11,15,038,*6A
$GAGSV,3,2,12,27,16,256,31,36,21,088,20,18,61,119,,02,53,063,43*6E
$GAGSV,3,3,12,07,51,261,42,10,04,014,,34,07,136,,25,04,071,*6A
$GBGSV,6,1,21,24,77,313,49,40,10,041,,14,14,228,28,05,20,130,*62
$GBGSV,6,2,21,07,15,053,28,12,21,167,34,25,18,286,,11,18,226,*69
$GBGSV,6,3,21,41,20,306,46,33,22,253,35,44,39,147,45,10,28,057,32*6E
$GBGSV,6,4,21,56,35,054,,35,44,080,48,26,46,096,32,02,04,109,*6A
$GBGSV,6,5,21,42,01,207,,43,06,247,,29,06,031,,34,03,187,*6C
$GBGSV,6,6,21,60,08,111,*57
$GPGGA,123102.00,,,,,0,00,,,M,,M,,*4B
$PTNL,GGK,123102.00,010125,4742.4465311,N,01617.9740057,E,1,19,1.4,EHT668.5050,M*40
$GPGGQ,123102.00,010125,4742.4465311,N,01617.9740057,E,1,19,3.598,625.2940,M*3A
$GPGFA,123102.00,17.541,24.273,1.845,0.881,347.097,2.960,,VVV*0C
$GPLLK,123102.00,010125,,M,,M,1,19,1.7,,M*06
$GNGMP,123102.00,,,,,DAAA,19,0.8,,,,*55
$GPGMP,123102.00,,,,,,05,,,,2.2,123*7B
$GLGMP,123102.00,,,,,,06,,,,,*7A
$GAGMP,123102.00,,,,,,04,,,,,*75
$GBGMP,123102.00,,,,,,04,,,,,*76
$PSSN,SNC,[0,304280000,2347]*49
$GPZDA,123107.00,01,01,2025,,*65
$GPDTM,W84,,00.0000000,N,00.0000000,E,00.0000000,W84*5F
$GPRMC,123107.00,A,4742.4465334,N,01617.9740052,E,0.0,,010125,5.1,E,D*15
$GPGLL,4742.4465334,N,01617.9740052,E,123107.00,A,D*64
$GPGGA,123107.00,4742.4465334,N,01617.9740052,E,2,20,0.7,625.3092,M,43.2110,M,2.4,0123*46
$GNGNS,123107.00,4742.4465334,N,01617.9740052,E,DAAA,20,0.7,625.3092,43.2110,,*5C
$GPGNS,123107.00,,,,,,05,,,,2.4,123*78
$GLGNS,123107.00,,,,,,07,,,,,*7E
$GAGNS,123107.00,,,,,,04,,,,,*70
$GBGNS,123107.00,,,,,,04,,,,,*73
$GPLLQ,123107.00,010125,,M,,M,1,20,3.197,,M*19
$GPVTG,,T,,M,0.01,N,0.01,K,D*26
$GPHDT,,T*1B
$GPTHS,,V*0E
$GPROT,,V*08
$PSSN,HRP,123107.00,010125,,,,,,,00,0,,*67
$PTNL,AVR,123107.00,,Yaw,,Tilt,,,,0,,00*31
$GPGSA,A,3,12,19,24,25,32,,,,,,,,1.4,0.7,1.2*38
$GPGSA,A,3,67,68,69,77,78,86,87,,,,,,1.4,0.7,1.2*3D
$GPGSA,A,3,02,07,29,30,,,,,,,,,1.4,0.7,1.2*3E
$GPGSA,A,3,24,35,41,44,,,,,,,,,1.4,0.7,1.2*36
$GPGST,123107.00,5.790,1.646,0.794,347.318,1.615,0.855,2.623*51
$GPGBS,123107.00,6.148,3.972,14.127,67,0.0001,15.800,6.200*54
$GPGRS,123107.00,1,-0.5,0.6,-0.0,0.3,0.1,,,,,,,*67
$GPGRS,123107.00,1,15.8,5.2,3.2,-9.2,-5.7,-3.6,-1.6,,,,,*57
$GPGRS,123107.00,1,-0.2,-0.9,2.4,-0.4,,,,,,,,*6C
$GPGRS,123107.00,1,1.8,-0.2,-0.6,-2.3,,,,,,,,*69
$GPGSV,4,1,16,12,74,281,47,17,11,040,32,11,12,126,,32,25,312,45*71
$GPGSV,4,2,16,19,38,054,41,06,22,091,32,25,33,264,45,24,69,147,49*70
$GPGSV,4,3,16,22,04,071,,15,08,187,27,29,00,206,,10,01,278,27*7B
$GPGSV,4,4,16,36,35,170,35,34,31,208,34,49,34,195,35,61,03,257,*70
$GLGSV,3,1,10,77,65,035,39,78,35,293,43,69,13,341,41,76,26,081,29*66
$GLGSV,3,2,10,67,27,234,37,68,37,294,38,86,35,052,43,87,40,116,37*6F
$GLGSV,3,3,10,85,01,010,,88,05,166,*6D
$GAGSV,3,1,12,30,68,270,50,08,30,192,34,29,20,318,40,11,15,038,*6A
$GAGSV,3,2,12,27,16,256,30,36,21,088,23,18,61,119,,02,53,063,43*6C
$GAGSV,3,3,12,07,51,261,42,10,04,014,,34,07,136,,25,04,071,*6A
$GBGSV,6,1,21,24,77,313,49,40,10,041,,14,14,228,29,05,20,130,*63
$GBGSV,6,2,21,07,15,053,28,12,21,167,34,25,18,286,,11,18,226,*69
$GBGSV,6,3,21,41,20,306,46,33,22,253,34,44,39,147,45,10,28,057,32*6F
$GBGSV,6,4,21,56,35,054,,35,44,080,47,26,46,096,29,02,04,109,*6F
$GBGSV,6,5,21,42,01,207,,43,06,247,,29,06,031,,34,03,187,*6C
$GBGSV,6,6,21,60,08,111,*57
$GPGGA,123107.00,,,,,0,00,,,M,,M,,*4E
$PTNL,GGK,123107.00,010125,4742.4465334,N,01617.9740052,E,1,20,1.4,EHT668.5203,M*49
$GPGGQ,123107.00,010125,4742.4465334,N,01617.9740052,E,1,20,3.197,625.3092,M*3B
$GPGFA,123107.00,15.650,21.512,1.646,0.794,347.318,2.623,,VVV*07
$GPLLK,123107.00,010125,,M,,M,1,20,1.7,,M*09
$GNGMP,123107.00,,,,,DAAA,20,0.7,,,,*55
$GPGMP,123107.00,,,,,,05,,,,2.4,123*78
$GLGMP,123107.00,,,,,,07,,,,,*7E
$GAGMP,123107.00,,,,,,04,,,,,*70
$GBGMP,123107.00,,,,,,04,,,,,*73
$PSSN,SNC,[0,304285000,2347]*4C
$GPZDA,123112.00,01,01,2025,,*61
$GPDTM,W84,,00.0000000,N,00.0000000,E,00.0000000,W84*5F
$GPRMC,123112.00,A,4742.4465343,N,01617.9740041,E,0.0,,010125,5.1,E,D*13
$GPGLL,4742.4465343,N,01617.9740041,E,123112.00,A,D*62
$GPGGA,123112.00,4742.4465343,N,01617.9740041,E,2,19,0.9,625.3212,M,43.2110,M,3.4,0123*4F
$GNGNS,123112.00,4742.4465343,N,01617.9740041,E,DAAA,19,0.9,625.3212,43.2110,,*54
$GPGNS,123112.00,,,,,,05,,,,3.4,123*7D
$GLGNS,123112.00,,,,,,06,,,,,*7B
$GAGNS,123112.00,,,,,,04,,,,,*74
$GBGNS,123112.00,,,,,,04,,,,,*77
$GPLLQ,123112.00,010125,,M,,M,1,19,2.557,,M*1E
$GPVTG,,T,,M,0.01,N,0.01,K,D*26
$GPHDT,,T*1B
$GPTHS,,V*0E
$GPROT,,V*08
$PSSN,HRP,123112.00,010125,,,,,,,00,0,,*63
$PTNL,AVR,123112.00,,Yaw,,Tilt,,,,0,,00*35
$GPGSA,A,3,12,19,24,25,32,,,,,,,,1.6,0.9,1.3*35
$GPGSA,A,3,68,69,77,78,86,87,,,,,,,1.6,0.9,1.3*31
$GPGSA,A,3,02,07,29,30,,,,,,,,,1.6,0.9,1.3*33
$GPGSA,A,3,24,35,41,44,,,,,,,,,1.6,0.9,1.3*3B
$GPGST,123112.00,4.507,1.336,0.639,348.621,1.316,0.680,2.085*56
$GPGBS,123112.00,6.404,4.045,14.624,77,0.0001,-9.719,6.073*43
$GPGRS,123112.00,1,-0.1,0.4,0.3,0.1,0.2,,,,,,,*4A
$GPGRS,123112.00,1,6.1,6.7,-9.7,-5.8,-3.9,-1.8,,,,,,*4A
$GPGRS,123112.00,1,-0.5,-0.8,1.3,-0.8,,,,,,,,*66
$GPGRS,123112.00,1,1.2,-1.7,-1.2,-2.5,,,,,,,,*60
$GPGSV,4,1,16,12,74,281,48,17,11,040,24,11,12,126,,32,25,312,45*79
$GPGSV,4,2,16,19,38,054,41,06,22,091,32,25,33,264,45,24,69,147,49*70
$GPGSV,4,3,16,22,04,071,,15,08,187,25,29,00,206,,10,01,278,30*7F
$GPGSV,4,4,16,36,35,170,35,34,31,208,34,49,34,195,35,61,03,257,*70
$GLGSV,3,1,10,77,65,035,41,78,35,293,46,69,13,341,42,76,26,081,32*65
$GLGSV,3,2,10,67,27,234,35,68,37,293,35,86,35,052,43,87,40,116,35*65
$GLGSV,3,3,10,85,01,010,,88,05,166,*6D
$GAGSV,3,1,12,30,68,270,50,08,30,192,35,29,20,318,39,11,15,038,*65
$GAGSV,3,2,12,27,16,256,30,36,21,088,23,18,61,119,,02,53,063,43*6C
$GAGSV,3,3,12,07,51,261,41,10,04,014,,34,07,136,,25,04,071,*69
$GBGSV,6,1,21,24,77,313,49,40,10,041,,14,14,228,30,05,20,130,*6B
$GBGSV,6,2,21,07,15,053,28,12,21,167,33,25,18,286,,11,18,226,*6E
$GBGSV,6,3,21,41,20,306,46,33,22,253,34,44,39,147,46,10,28,057,32*6C
$GBGSV,6,4,21,56,35,054,,35,44,080,47,26,46,096,42,02,04,109,*62
$GBGSV,6,5,21,42,01,207,,43,06,247,,29,06,031,,34,03,187,*6C
$GBGSV,6,6,21,60,08,111,*57
$GPGGA,123112.00,,,,,0,00,,,M,,M,,*4A
$PTNL,GGK,123112.00,010125,4742.4465343,N,01617.9740041,E,1,19,1.6,EHT668.5322,M*45
$GPGGQ,123112.00,010125,4742.4465343,N,01617.9740041,E,1,19,2.557,625.3212,M*34
$GPGFA,123112.00,12.702,17.095,1.336,0.639,348.621,2.085,,VVV*03
$GPLLK,123112.00,010125,,M,,M,1,19,1.8,,M*08
$GNGMP,123112.00,,,,,DAAA,19,0.9,,,,*55
$GPGMP,123112.00,,,,,,05,,,,3.4,123*7D
$GLGMP,123112.00,,,,,,06,,,,,*7B
$GAGMP,123112.00,,,,,,04,,,,,*74
$GBGMP,123112.00,,,,,,04,,,,,*77
$PSSN,SNC,[0,304290000,2347]*48
$GPZDA,123117.00,01,01,2025,,*64
$GPDTM,W84,,00.0000000,N,00.0000000,E,00.0000000,W84*5F
$GPRMC,123117.00,A,4742.4465323,N,01617.9740020,E,0.0,,010125,5.1,E,D*17
$GPGLL,4742.4465323,N,01617.9740020,E,123117.00,A,D*66
$GPGGA,123117.00,4742.4465323,N,01617.9740020,E,2,18,0.7,625.3241,M,43.2110,M,2.0,0123*47
$GNGNS,123117.00,4742.4465323,N,01617.9740020,E,DAAA,18,0.7,625.3241,43.2110,,*59
$GPGNS,123117.00,,,,,,05,,,,2.0,123*7D
$GLGNS,123117.00,,,,,,04,,,,,*7C
$GAGNS,123117.00,,,,,,05,,,,,*70
$GBGNS,123117.00,,,,,,04,,,,,*72
$GPLLQ,123117.00,010125,,M,,M,1,18,2.518,,M*11
$GPVTG,,T,,M,0.01,N,0.01,K,D*26
$GPHDT,,T*1B
$GPTHS,,V*0E
$GPROT,,V*08
$PSSN,HRP,123117.00,010125,,,,,,,00,0,,*66
$PTNL,AVR,123117.00,,Yaw,,Tilt,,,,0,,00*30
$GPGSA,A,3,12,19,24,25,32,,,,,,,,1.4,0.7,1.2*38
$GPGSA,A,3,69,77,78,86,,,,,,,,,1.4,0.7,1.2*3D
$GPGSA,A,3,02,07,08,29,30,,,,,,,,1.4,0.7,1.2*36
$GPGSA,A,3,24,35,41,44,,,,,,,,,1.4,0.7,1.2*36
$GPGST,123117.00,4.991,1.306,0.631,347.768,1.283,0.676,2.058*5C
$GPGBS,123117.00,6.021,3.918,14.361,77,0.0001,-9.642,6.073*48
$GPGRS,123117.00,1,-0.2,0.8,-0.3,0.2,-0.2,,,,,,,*43
$GPGRS,123117.00,1,10.4,-9.6,-3.9,-5.2,,,,,,,,*53
$GPGRS,123117.00,1,-0.6,-1.0,-2.8,0.5,-1.0,,,,,,,*6E
$GPGRS,123117.00,1,0.6,-2.7,-2.0,-2.8,,,,,,,,*6F
$GPGSV,4,1,16,12,74,281,47,17,11,040,23,11,12,126,,32,25,312,45*71
$GPGSV,4,2,16,19,38,054,42,06,22,090,31,25,33,264,45,24,69,147,49*71
$GPGSV,4,3,16,22,04,071,,15,08,187,25,29,01,206,,10,01,278,31*7F
$GPGSV,4,4,16,36,35,170,35,34,31,208,34,49,34,195,35,61,03,257,*70
$GLGSV,3,1,10,77,65,036,41,78,35,293,47,69,13,341,42,76,26,081,26*62
$GLGSV,3,2,10,67,27,234,33,68,37,293,33,86,35,052,42,87,40,116,33*62
$GLGSV,3,3,10,85,01,010,23,88,05,166,*6C
$GAGSV,3,1,12,30,68,270,50,08,30,192,35,29,20,318,38,11,15,038,*64
$GAGSV,3,2,12,27,16,256,30,36,21,088,21,18,61,119,,02,53,063,44*69
$GAGSV,3,3,12,07,51,261,40,10,04,014,,34,07,136,,25,04,071,*68
$GBGSV,6,1,21,24,77,313,49,40,10,041,,14,13,228,29,05,20,130,*64
$GBGSV,6,2,21,07,15,053,28,12,21,167,33,25,18,286,,11,18,226,*6E
$GBGSV,6,3,21,41,20,306,46,33,22,253,35,44,39,147,46,10,28,057,32*6D
$GBGSV,6,4,21,56,35,054,,35,44,080,46,26,46,096,25,02,04,109,*62
$GBGSV,6,5,21,42,01,207,,43,06,247,,29,06,031,,34,03,187,*6C
$GBGSV,6,6,21,60,08,111,*57
$GPGGA,123117.00,,,,,0,00,,,M,,M,,*4F
$PTNL,GGK,123117.00,010125,4742.4465323,N,01617.9740020,E,1,18,1.4,EHT668.5351,M*46
$GPGGQ,123117.00,010125,4742.4465323,N,01617.9740020,E,1,18,2.518,625.3241,M*3C
$GPGFA,123117.00,12.414,16.878,1.306,0.631,347.768,2.058,,VVV*00
$GPLLK,123117.00,010125,,M,,M,1,18,1.7,,M*03
$GNGMP,123117.00,,,,,DAAA,18,0.7,,,,*5F
$GPGMP,123117.00,,,,,,05,,,,2.0,123*7D
$GLGMP,123117.00,,,,,,04,,,,,*7C
$GAGMP,123117.00,,,,,,05,,,,,*70
$GBGMP,123117.00,,,,,,04,,,,,*72
$PSSN,SNC,[0,304295000,2347]*4D
$GPZDA,123122.00,01,01,2025,,*62
$GPDTM,W84,,00.0000000,N,00.0000000,E,00.0000000,W84*5F
$GPRMC,123122.00,A,4742.4465295,N,01617.9739989,E,0.0,,010125,5.1,E,D*19
$GPGLL,4742.4465295,N,01617.9739989,E,123122.00,A,D*68
$GPGGA,123122.00,4742.4465295,N,01617.9739989,E,2,18,0.7,625.3314,M,43.2110,M,2.2,0123*4A
$GNGNS,123122.00,4742.4465295,N,01617.9739989,E,DAAA,18,0.7,625.3314,43.2110,,*56
$GPGNS,123122.00,,,,,,05,,,,2.2,123*79
$GLGNS,123122.00,,,,,,03,,,,,*7D
$GAGNS,123122.00,,,,,,05,,,,,*76
$GBGNS,123122.00,,,,,,05,,,,,*75
$GPLLQ,123122.00,010125,,M,,M,1,18,2.817,,M*15
$GPVTG,,T,,M,0.01,N,0.02,K,D*25
$GPHDT,,T*1B
$GPTHS,,V*0E
$GPROT,,V*08
$PSSN,HRP,123122.00,010125,,,,,,,00,0,,*60
$PTNL,AVR,123122.00,,Yaw,,Tilt,,,,0,,00*36
$GPGSA,A,3,12,19,24,25,32,,,,,,,,1.4,0.7,1.2*38
$GPGSA,A,3,69,77,78,,,,,,,,,,1.4,0.7,1.2*33
$GPGSA,A,3,02,07,08,29,30,,,,,,,,1.4,0.7,1.2*36
$GPGSA,A,3,24,33,35,41,44,,,,,,,,1.4,0.7,1.2*36
$GPGST,123122.00,5.500,1.445,0.697,346.913,1.416,0.754,2.315*51
$GPGBS,123122.00,5.988,4.038,14.641,77,0.0001,-11.341,6.074*74
$GPGRS,123122.00,1,-0.3,0.6,-0.2,0.5,-0.1,,,,,,,*4F
$GPGRS,123122.00,1,11.9,-11.3,-3.2,,,,,,,,,*6A
$GPGRS,123122.00,1,0.1,-0.7,-2.1,0.0,-0.8,,,,,,,*41
$GPGRS,123122.00,1,0.7,-4.7,-3.2,-2.0,-2.9,,,,,,,*6D
$GPGSV,4,1,16,12,74,281,47,17,11,040,31,11,12,126,,32,25,312,46*71
$GPGSV,4,2,16,19,38,054,41,06,22,090,29,25,33,264,46,24,69,147,48*79
$GPGSV,4,3,16,22,04,071,,15,08,187,24,29,01,206,,10,01,278,27*79
$GPGSV,4,4,16,36,35,170,35,34,31,208,34,49,34,195,36,61,03,257,*73
$GLGSV,3,1,10,77,65,036,40,78,35,293,47,69,13,341,40,76,26,081,33*65
$GLGSV,3,2,10,67,27,234,31,68,37,293,34,86,35,052,37,87,40,116,30*66
$GLGSV,3,3,10,85,01,010,,88,05,166,*6D
$GAGSV,3,1,12,30,68,270,50,08,30,192,36,29,20,318,38,11,15,038,*67
$GAGSV,3,2,12,27,16,256,30,36,21,088,21,18,61,119,,02,53,063,44*69
$GAGSV,3,3,12,07,51,261,40,10,04,014,,34,07,136,,25,04,071,*68
$GBGSV,6,1,21,24,77,313,49,40,10,041,,14,13,228,27,05,20,130,*6A
$GBGSV,6,2,21,07,15,053,27,12,22,167,32,25,18,286,,11,18,226,*63
$GBGSV,6,3,21,41,20,305,46,33,22,253,36,44,39,147,46,10,28,057,32*6D
$GBGSV,6,4,21,56,35,054,,35,44,080,45,26,46,096,30,02,04,109,*65
$GBGSV,6,5,21,42,01,207,,43,06,247,,29,06,031,,34,03,187,*6C
$GBGSV,6,6,21,60,08,111,*57
$GPGGA,123122.00,,,,,0,00,,,M,,M,,*49
$PTNL,GGK,123122.00,010125,4742.4465295,N,01617.9739989,E,1,18,1.4,EHT668.5425,M*4C
$GPGGQ,123122.00,010125,4742.4465295,N,01617.9739989,E,1,18,2.817,625.3314,M*31
$GPGFA,123122.00,13.737,18.987,1.445,0.697,346.913,2.315,,VVV*0F
$GPLLK,123122.00,010125,,M,,M,1,18,1.6,,M*04
$GNGMP,123122.00,,,,,DAAA,18,0.7,,,,*59
$GPGMP,123122.00,,,,,,05,,,,2.2,123*79
$GLGMP,123122.00,,,,,,03,,,,,*7D
$GAGMP,123122.00,,,,,,05,,,,,*76
$GBGMP,123122.00,,,,,,05,,,,,*75
$PSSN,SNC,[0,304300000,2347]*40
$GPZDA,123127.00,01,01,2025,,*67
$GPDTM,W84,,00.0000000,N,00.0000000,E,00.0000000,W84*5F
$GPRMC,123127.00,A,4742.4465293,N,01617.9740007,E,0.0,,010125,5.1,E,D*1B
$GPGLL,4742.4465293,N,01617.9740007,E,123127.00,A,D*6A
$GPGGA,123127.00,4742.4465293,N,01617.9740007,E,2,21,0.7,625.3438,M,43.2110,M,2.4,0123*4D
$GNGNS,123127.00,4742.4465293,N,01617.9740007,E,DAAA,21,0.7,625.3438,43.2110,,*57
$GPGNS,123127.00,,,,,,05,,,,2.4,123*7A
$GLGNS,123127.00,,,,,,05,,,,,*7E
$GAGNS,123127.00,,,,,,05,,,,,*73
$GBGNS,123127.00,,,,,,06,,,,,*73
$GPLLQ,123127.00,010125,,M,,M,1,21,3.189,,M*15
$GPVTG,,T,,M,0.01,N,0.01,K,D*26
$GPHDT,,T*1B
$GPTHS,,V*0E
$GPROT,,V*08
$PSSN,HRP,123127.00,010125,,,,,,,00,0,,*65
$PTNL,AVR,123127.00,,Yaw,,Tilt,,,,0,,00*33
$GPGSA,A,3,12,19,24,25,32,,,,,,,,1.2,0.7,1.0*3C
$GPGSA,A,3,68,69,77,78,86,,,,,,,,1.2,0.7,1.0*37
$GPGSA,A,3,02,07,08,29,30,,,,,,,,1.2,0.7,1.0*32
$GPGSA,A,3,14,24,33,35,41,44,,,,,,,1.2,0.7,1.0*37
$GPGST,123127.00,6.422,1.642,0.803,347.286,1.612,0.863,2.613*58
$GPGBS,123127.00,6.129,3.997,13.725,77,0.0001,-12.501,6.076*7D
$GPGRS,123127.00,1,-0.3,0.6,-0.3,0.9,-0.1,,,,,,,*47
$GPGRS,123127.00,1,-0.2,7.2,-12.5,-4.3,-5.7,,,,,,,*50
$GPGRS,123127.00,1,0.5,-0.6,-1.5,0.1,-0.6,,,,,,,*49
$GPGRS,123127.00,1,16.3,0.8,-4.5,-4.0,-2.1,-2.3,,,,,,*71
$GPGSV,4,1,16,12,74,282,47,17,11,040,29,11,12,126,,32,25,312,46*7B
$GPGSV,4,2,16,19,38,054,41,06,22,090,29,25,33,264,46,24,69,147,48*79
$GPGSV,4,3,16,22,04,071,,15,08,187,23,29,01,206,,10,01,278,21*78
$GPGSV,4,4,16,36,35,170,35,34,31,208,34,49,34,195,35,61,03,257,*70
$GLGSV,3,1,10,77,65,036,39,78,35,293,47,69,13,341,40,76,26,081,33*6B
$GLGSV,3,2,10,67,27,234,34,68,37,293,38,86,35,052,41,87,40,116,33*6D
