$GPZDA,181442.00,01,01,2025,,*69
$GPDTM,W84,,00.0000000,N,00.0000000,E,00.0000000,W84*5F
$GPRMC,181442.00,A,4742.4465601,N,01617.9726703,E,0.0,,010125,5.1,E,D*19
$GPGLL,4742.4465601,N,01617.9726703,E,181442.00,A,D*68
$GPGGA,181442.00,4742.4465601,N,01617.9726703,E,2,19,0.8,626.2312,M,43.2111,M,2.5,0123*46
$GNGNS,181442.00,4742.4465601,N,01617.9726703,E,DAAA,19,0.8,626.2312,43.2111,,*5D
$GPGNS,181442.00,,,,,,04,,,,2.5,123*74
$GLGNS,181442.00,,,,,,04,,,,,*71
$GAGNS,181442.00,,,,,,04,,,,,*7C
$GBGNS,181442.00,,,,,,07,,,,,*7C
$GPLLQ,181442.00,010125,,M,,M,1,19,5.583,,M*18
$GPVTG,,T,,M,0.01,N,0.01,K,D*26
$GPHDT,,T*1B
$GPTHS,,V*0E
$GPROT,,V*08
$PSSN,HRP,181442.00,010125,,,,,,,00,0,,*6B
$PTNL,AVR,181442.00,,Yaw,,Tilt,,,,0,,00*3D
$GPGSA,A,3,18,23,26,31,,,,,,,,,1.4,0.8,1.2*32
$GPGSA,A,3,73,80,81,82,,,,,,,,,1.4,0.8,1.2*33
$GPGSA,A,3,13,15,21,27,,,,,,,,,1.4,0.8,1.2*3C
$GPGSA,A,3,11,13,23,28,34,37,43,,,,,,1.4,0.8,1.2*31
$GPGST,181442.00,2.916,2.913,1.372,352.488,2.893,1.412,4.561*5F
$GPGBS,181442.00,9.068,4.768,17.744,31,0.0001,5.061,1.446*68
$GPGRS,181442.00,1,-0.8,-0.9,0.8,5.1,,,,,,,,*49
$GPGRS,181442.00,1,2.0,-4.0,4.5,-2.8,,,,,,,,*49
$GPGRS,181442.00,1,-1.0,-0.4,-0.3,-1.2,,,,,,,,*41
$GPGRS,181442.00,1,-3.4,-0.4,-0.9,0.9,-1.9,-2.4,-0.2,,,,,*65
$GPGSV,4,1,15,18,74,067,44,23,35,145,40,05,16,038,25,27,26,284,26*75
$GPGSV,4,2,15,31,17,225,36,29,29,088,38,16,55,297,39,26,67,228,47*7B
$GPGSV,4,3,15,28,02,204,23,10,07,175,,15,02,090,,36,35,170,40*7E
$GPGSV,4,4,15,34,31,208,34,49,34,195,37,61,03,257,*42
$GLGSV,3,1,09,82,73,341,47,66,18,074,28,65,15,024,22,79,18,175,34*67
$GLGSV,3,2,09,83,44,258,33,73,37,318,50,81,34,049,42,80,61,224,46*6A
$GLGSV,3,3,09,67,02,121,*5D
$GAGSV,3,1,10,13,70,212,37,23,20,313,,26,17,225,28,14,19,277,*6B
$GAGSV,3,2,10,27,48,156,40,15,52,054,38,21,68,280,43,05,01,038,*61
$GAGSV,3,3,10,30,00,142,,34,03,048,*65
$GBGSV,6,1,21,43,77,043,49,58,15,323,,60,11,109,,21,20,063,31*61
$GBGSV,6,2,21,05,22,129,,38,26,039,26,42,17,113,26,50,21,087,*6C
$GBGSV,6,3,21,08,39,047,30,34,29,071,37,23,43,218,45,37,39,292,38*61
$GBGSV,6,4,21,28,34,260,40,13,44,057,45,11,54,061,38,14,07,137,*6C
$GBGSV,6,5,21,02,07,106,,46,02,331,,25,09,177,,12,03,071,*61
$GBGSV,6,6,21,22,03,017,*5D
$GPGGA,181442.00,,,,,0,00,,,M,,M,,*42
$PTNL,GGK,181442.00,010125,4742.4465601,N,01617.9726703,E,1,19,1.4,EHT669.4422,M*4A
$GPGGQ,181442.00,010125,4742.4465601,N,01617.9726703,E,1,19,5.583,626.2312,M*33
$GPGFA,181442.00,27.693,37.403,2.913,1.372,352.488,4.561,,VVV*0B
$GPLLK,181442.00,010125,,M,,M,1,19,1.7,,M*0F
$GNGMP,181442.00,,,,,DAAA,19,0.8,,,,*5C
$GPGMP,181442.00,,,,,,04,,,,2.5,123*74
$GLGMP,181442.00,,,,,,04,,,,,*71
$GAGMP,181442.00,,,,,,04,,,,,*7C
$GBGMP,181442.00,,,,,,07,,,,,*7C
$PSSN,SNC,[0,324900000,2347]*48
$GPZDA,181447.00,01,01,2025,,*6C
$GPDTM,W84,,00.0000000,N,00.0000000,E,00.0000000,W84*5F
$GPRMC,181447.00,A,4742.4465622,N,01617.9726789,E,0.0,,010125,5.1,E,D*1F
$GPGLL,4742.4465622,N,01617.9726789,E,181447.00,A,D*6E
$GPGGA,181447.00,4742.4465622,N,01617.9726789,E,2,18,0.8,626.2211,M,43.2111,M,4.0,0123*40
$GNGNS,181447.00,4742.4465622,N,01617.9726789,E,DAAA,18,0.8,626.2211,43.2111,,*58
$GPGNS,181447.00,,,,,,03,,,,4.0,123*75
$GLGNS,181447.00,,,,,,04,,,,,*74
$GAGNS,181447.00,,,,,,04,,,,,*79
$GBGNS,181447.00,,,,,,07,,,,,*79
$GPLLQ,181447.00,010125,,M,,M,1,18,8.235,,M*1B
$GPVTG,,T,,M,0.00,N,0.00,K,D*26
$GPHDT,,T*1B
$GPTHS,,V*0E
$GPROT,,V*08
$PSSN,HRP,181447.00,010125,,,,,,,00,0,,*6E
$PTNL,AVR,181447.00,,Yaw,,Tilt,,,,0,,00*38
$GPGSA,A,3,18,23,26,,,,,,,,,,1.7,0.8,1.5*34
$GPGSA,A,3,73,80,81,82,,,,,,,,,1.7,0.8,1.5*37
$GPGSA,A,3,13,15,21,27,,,,,,,,,1.7,0.8,1.5*38
$GPGSA,A,3,11,13,23,28,34,37,43,,,,,,1.7,0.8,1.5*35
$GPGST,181447.00,2.087,3.590,1.161,333.027,3.243,1.929,7.320*58
$GPGBS,181447.00,27.314,14.575,62.207,26,0.0001,1.025,0.638*6E
$GPGRS,181447.00,1,-0.4,-1.0,1.0,,,,,,,,,*6B
$GPGRS,181447.00,1,1.0,-3.2,3.3,-2.8,,,,,,,,*4B
$GPGRS,181447.00,1,0.6,0.1,-0.1,-1.0,,,,,,,,*46
$GPGRS,181447.00,1,-3.1,-0.1,-0.5,-1.4,-1.5,-0.4,0.5,,,,,*69
$GPGSV,4,1,15,18,74,067,42,23,35,145,40,05,16,038,26,27,26,284,29*7F
$GPGSV,4,2,15,31,17,225,36,29,29,088,37,16,55,297,38,26,67,228,48*7A
$GPGSV,4,3,15,28,02,204,23,10,07,175,,15,02,089,,36,35,170,40*76
$GPGSV,4,4,15,34,31,208,34,49,34,195,37,61,03,257,*42
$GLGSV,3,1,09,82,73,341,46,66,18,074,,65,14,024,26,79,18,175,33*6E
$GLGSV,3,2,09,83,44,258,35,73,37,317,49,81,34,049,41,80,61,224,46*68
$GLGSV,3,3,09,67,02,121,*5D
$GAGSV,3,1,10,13,70,213,37,23,20,313,,26,17,225,28,14,19,277,*6A
$GAGSV,3,2,10,27,47,156,40,15,52,054,38,21,68,280,42,05,01,038,*6F
$GAGSV,3,3,10,30,00,142,,34,03,048,*65
$GBGSV,6,1,21,43,77,043,49,58,15,323,,60,11,109,,21,20,063,31*61
$GBGSV,6,2,21,05,22,129,,38,26,039,25,42,17,113,26,50,21,087,*6F
$GBGSV,6,3,21,08,39,047,28,34,29,071,36,23,43,218,44,37,39,292,41*66
$GBGSV,6,4,21,28,34,260,39,13,44,057,45,11,54,061,37,14,07,137,*6D
$GBGSV,6,5,21,02,07,106,,46,02,331,,25,09,177,,12,03,071,*61
$GBGSV,6,6,21,22,03,017,*5D
$GPGGA,181447.00,,,,,0,00,,,M,,M,,*47
$PTNL,GGK,181447.00,010125,4742.4465622,N,01617.9726789,E,1,18,1.7,EHT669.4322,M*49
$GPGGQ,181447.00,010125,4742.4465622,N,01617.9726789,E,1,18,8.235,626.2211,M*31
$GPGFA,181447.00,34.133,60.024,3.590,1.161,333.027,7.320,,VVV*02
$GPLLK,181447.00,010125,,M,,M,1,18,2.0,,M*0F
$GNGMP,181447.00,,,,,DAAA,18,0.8,,,,*58
$GPGMP,181447.00,,,,,,03,,,,4.0,123*75
$GLGMP,181447.00,,,,,,04,,,,,*74
$GAGMP,181447.00,,,,,,04,,,,,*79
$GBGMP,181447.00,,,,,,07,,,,,*79
$PSSN,SNC,[0,324905000,2347]*4D
$GPZDA,181452.00,01,01,2025,,*68
$GPDTM,W84,,00.0000000,N,00.0000000,E,00.0000000,W84*5F
$GPRMC,181452.00,A,4742.4465601,N,01617.9726911,E,0.0,,010125,5.1,E,D*15
$GPGLL,4742.4465601,N,01617.9726911,E,181452.00,A,D*64
$GPGGA,181452.00,4742.4465601,N,01617.9726911,E,2,19,0.8,626.2031,M,43.2111,M,1.0,0123*4E
$GNGNS,181452.00,4742.4465601,N,01617.9726911,E,DAAA,19,0.8,626.2031,43.2111,,*53
$GPGNS,181452.00,,,,,,03,,,,1.0,123*74
$GLGNS,181452.00,,,,,,05,,,,,*71
$GAGNS,181452.00,,,,,,04,,,,,*7D
$GBGNS,181452.00,,,,,,07,,,,,*7D
$GPLLQ,181452.00,010125,,M,,M,1,19,9.318,,M*11
$GPVTG,,T,,M,0.00,N,0.01,K,D*27
$GPHDT,,T*1B
$GPTHS,,V*0E
$GPROT,,V*08
$PSSN,HRP,181452.00,010125,,,,,,,00,0,,*6A
$PTNL,AVR,181452.00,,Yaw,,Tilt,,,,0,,00*3C
$GPGSA,A,3,18,23,26,,,,,,,,,,1.7,0.8,1.5*34
$GPGSA,A,3,73,80,81,82,83,,,,,,,,1.7,0.8,1.5*3C
$GPGSA,A,3,13,15,21,27,,,,,,,,,1.7,0.8,1.5*38
$GPGSA,A,3,11,13,23,28,34,37,43,,,,,,1.7,0.8,1.5*35
$GPGST,181452.00,2.111,4.060,1.276,332.986,3.663,2.167,8.290*5B
$GPGBS,181452.00,27.327,14.449,62.240,23,0.0001,-1.816,0.736*48
$GPGRS,181452.00,1,0.3,-1.8,1.0,,,,,,,,,*4D
$GPGRS,181452.00,1,-0.4,-3.2,0.0,-2.7,-3.4,,,,,,,*6C
$GPGRS,181452.00,1,0.2,0.7,-0.0,-1.0,,,,,,,,*41
$GPGRS,181452.00,1,-2.6,0.3,-0.3,-2.9,-1.3,-0.9,0.8,,,,,*4A
$GPGSV,4,1,15,18,74,067,42,23,35,145,40,05,16,038,28,27,26,284,33*7A
$GPGSV,4,2,15,31,17,225,35,29,29,088,37,16,55,297,39,26,67,228,50*71
$GPGSV,4,3,15,28,02,204,22,10,08,175,,15,02,089,,36,35,170,40*78
$GPGSV,4,4,15,34,31,208,34,49,34,195,37,61,03,257,*42
$GLGSV,3,1,09,82,73,341,46,66,18,074,29,65,14,024,28,79,18,175,30*68
$GLGSV,3,2,09,83,44,258,37,73,37,317,48,81,34,049,40,80,61,224,46*6A
$GLGSV,3,3,09,67,02,120,*5C
$GAGSV,3,1,10,13,70,213,36,23,20,313,,26,17,225,27,14,19,277,*64
$GAGSV,3,2,10,27,47,156,41,15,52,054,39,21,68,280,40,05,01,038,*6D
$GAGSV,3,3,10,30,00,142,,34,03,048,*65
$GBGSV,6,1,21,43,77,044,49,58,15,323,,60,11,109,,21,20,063,29*6F
$GBGSV,6,2,21,05,22,129,,38,26,039,22,42,17,113,26,50,21,087,*68
$GBGSV,6,3,21,08,39,047,25,34,29,071,36,23,43,218,44,37,39,292,43*69
$GBGSV,6,4,21,28,34,260,37,13,44,057,45,11,54,061,37,14,07,137,*63
$GBGSV,6,5,21,02,07,106,,46,02,331,,25,09,177,,12,03,071,*61
$GBGSV,6,6,21,22,03,017,*5D
$GPGGA,181452.00,,,,,0,00,,,M,,M,,*43
$PTNL,GGK,181452.00,010125,4742.4465601,N,01617.9726911,E,1,19,1.7,EHT669.4141,M*45
$GPGGQ,181452.00,010125,4742.4465601,N,01617.9726911,E,1,19,9.318,626.2031,M*35
$GPGFA,181452.00,38.604,67.975,4.060,1.276,332.986,8.290,,VVV*0D
$GPLLK,181452.00,010125,,M,,M,1,19,2.0,,M*0A
$GNGMP,181452.00,,,,,DAAA,19,0.8,,,,*5D
$GPGMP,181452.00,,,,,,03,,,,1.0,123*74
$GLGMP,181452.00,,,,,,05,,,,,*71
$GAGMP,181452.00,,,,,,04,,,,,*7D
$GBGMP,181452.00,,,,,,07,,,,,*7D
$PSSN,SNC,[0,324910000,2347]*49
$GPZDA,181457.00,01,01,2025,,*6D
$GPDTM,W84,,00.0000000,N,00.0000000,E,00.0000000,W84*5F
$GPRMC,181457.00,A,4742.4465543,N,01617.9726989,E,0.0,,010125,5.1,E,D*14
$GPGLL,4742.4465543,N,01617.9726989,E,181457.00,A,D*65
$GPGGA,181457.00,4742.4465543,N,01617.9726989,E,2,19,0.8,626.1907,M,43.2111,M,2.0,0123*43
$GNGNS,181457.00,4742.4465543,N,01617.9726989,E,DAAA,19,0.8,626.1907,43.2111,,*5D
$GPGNS,181457.00,,,,,,03,,,,2.0,123*72
$GLGNS,181457.00,,,,,,05,,,,,*74
$GAGNS,181457.00,,,,,,04,,,,,*78
$GBGNS,181457.00,,,,,,07,,,,,*78
$GPLLQ,181457.00,010125,,M,,M,1,19,7.345,,M*12
$GPVTG,,T,,M,0.00,N,0.01,K,D*27
$GPHDT,,T*1B
$GPTHS,,V*0E
$GPROT,,V*08
$PSSN,HRP,181457.00,010125,,,,,,,00,0,,*6F
$PTNL,AVR,181457.00,,Yaw,,Tilt,,,,0,,00*39
$GPGSA,A,3,18,23,26,,,,,,,,,,1.7,0.8,1.5*34
$GPGSA,A,3,73,80,81,82,83,,,,,,,,1.7,0.8,1.5*3C
$GPGSA,A,3,13,15,21,27,,,,,,,,,1.7,0.8,1.5*38
$GPGSA,A,3,11,13,23,28,34,37,43,,,,,,1.7,0.8,1.5*35
$GPGST,181457.00,2.526,3.202,0.972,332.977,2.886,1.693,6.539*5E
$GPGBS,181457.00,27.308,14.520,62.330,26,0.0001,0.811,0.600*62
$GPGRS,181457.00,1,0.4,-1.0,0.8,,,,,,,,,*4E
$GPGRS,181457.00,1,-0.4,-4.3,-1.9,-2.4,-2.6,,,,,,,*4A
$GPGRS,181457.00,1,-1.4,0.8,-0.3,-1.5,,,,,,,,*67
$GPGRS,181457.00,1,-2.6,0.4,-0.9,-4.9,-0.3,-2.0,0.4,,,,,*42
$GPGSV,4,1,15,18,74,067,42,23,35,145,40,05,16,038,31,27,26,285,33*73
$GPGSV,4,2,15,31,17,225,34,29,29,089,37,16,55,297,37,26,67,228,50*7F
$GPGSV,4,3,15,28,02,204,23,10,08,175,,15,02,089,,36,35,170,40*79
$GPGSV,4,4,15,34,31,208,34,49,34,195,37,61,03,257,*42
$GLGSV,3,1,09,82,73,341,46,66,18,074,29,65,14,024,27,79,18,175,28*6E
$GLGSV,3,2,09,83,44,258,38,73,37,317,47,81,34,049,39,80,61,224,46*64
$GLGSV,3,3,09,67,02,120,*5C
$GAGSV,3,1,10,13,70,213,36,23,20,313,,26,17,225,28,14,19,277,*6B
$GAGSV,3,2,10,27,47,156,40,15,52,054,40,21,68,280,40,05,01,038,*62
$GAGSV,3,3,10,30,00,142,,34,03,048,*65
$GBGSV,6,1,21,43,77,044,49,58,15,323,,60,11,109,,21,20,063,26*60
$GBGSV,6,2,21,05,22,129,,38,26,039,21,42,17,113,25,50,21,087,*68
$GBGSV,6,3,21,08,39,047,21,34,29,071,36,23,43,218,42,37,39,292,44*6C
$GBGSV,6,4,21,28,34,260,35,13,44,057,45,11,53,061,37,14,07,137,*66
$GBGSV,6,5,21,02,07,106,,46,02,331,,25,09,177,,12,03,071,*61
$GBGSV,6,6,21,22,03,017,*5D
$GPGGA,181457.00,,,,,0,00,,,M,,M,,*46
$PTNL,GGK,181457.00,010125,4742.4465543,N,01617.9726989,E,1,19,1.7,EHT669.4018,M*49
$GPGGQ,181457.00,010125,4742.4465543,N,01617.9726989,E,1,19,7.345,626.1907,M*3D
$GPGFA,181457.00,30.441,53.617,3.202,0.972,332.977,6.539,,VVV*04
$GPLLK,181457.00,010125,,M,,M,1,19,2.0,,M*0F
$GNGMP,181457.00,,,,,DAAA,19,0.8,,,,*58
$GPGMP,181457.00,,,,,,03,,,,2.0,123*72
$GLGMP,181457.00,,,,,,05,,,,,*74
$GAGMP,181457.00,,,,,,04,,,,,*78
$GBGMP,181457.00,,,,,,07,,,,,*78
$PSSN,SNC,[0,324915000,2347]*4C
$GPZDA,181502.00,01,01,2025,,*6C
$GPDTM,W84,,00.0000000,N,00.0000000,E,00.0000000,W84*5F
$GPRMC,181502.00,A,4742.4465503,N,01617.9726994,E,0.0,,010125,5.1,E,D*1D
$GPGLL,4742.4465503,N,01617.9726994,E,181502.00,A,D*6C
$GPGGA,181502.00,4742.4465503,N,01617.9726994,E,2,19,0.8,626.1833,M,43.2111,M,3.0,0123*4D
$GNGNS,181502.00,4742.4465503,N,01617.9726994,E,DAAA,19,0.8,626.1833,43.2111,,*52
$GPGNS,181502.00,,,,,,03,,,,3.0,123*72
$GLGNS,181502.00,,,,,,05,,,,,*75
$GAGNS,181502.00,,,,,,04,,,,,*79
$GBGNS,181502.00,,,,,,07,,,,,*79
$GPLLQ,181502.00,010125,,M,,M,1,19,6.411,,M*14
$GPVTG,,T,,M,0.01,N,0.01,K,D*26
$GPHDT,,T*1B
$GPTHS,,V*0E
$GPROT,,V*08
$PSSN,HRP,181502.00,010125,,,,,,,00,0,,*6E
$PTNL,AVR,181502.00,,Yaw,,Tilt,,,,0,,00*38
$GPGSA,A,3,18,23,26,,,,,,,,,,1.7,0.8,1.6*37
$GPGSA,A,3,73,80,81,82,83,,,,,,,,1.7,0.8,1.6*3F
$GPGSA,A,3,13,15,21,27,,,,,,,,,1.7,0.8,1.6*3B
$GPGSA,A,3,08,11,13,23,34,37,43,,,,,,1.7,0.8,1.6*34
$GPGST,181502.00,2.579,2.786,0.860,332.038,2.493,1.511,5.710*56
$GPGBS,181502.00,28.013,15.456,64.688,80,0.0001,-3.697,6.052*41
$GPGRS,181502.00,1,0.3,0.0,-0.1,,,,,,,,,*40
$GPGRS,181502.00,1,0.4,-3.7,-2.3,-3.0,-3.4,,,,,,,*6A
$GPGRS,181502.00,1,-2.2,0.3,-0.8,-2.9,,,,,,,,*6C
$GPGRS,181502.00,1,-0.9,-2.6,0.2,-0.9,3.2,-2.5,0.2,,,,,*6D
$GPGSV,4,1,15,18,74,067,43,23,35,145,41,05,16,038,32,27,26,285,34*77
$GPGSV,4,2,15,31,17,225,30,29,29,089,36,16,55,297,,26,67,228,51*7F
$GPGSV,4,3,15,28,02,204,22,10,08,175,,15,02,089,,36,35,170,39*76
$GPGSV,4,4,15,34,31,208,34,49,34,195,37,61,03,257,*42
$GLGSV,3,1,10,82,73,341,45,66,18,074,,65,14,024,30,79,18,175,27*67
$GLGSV,3,2,10,83,44,258,38,73,37,317,47,81,34,049,41,80,61,224,46*63
$GLGSV,3,3,10,67,02,120,,74,00,338,*6F
$GAGSV,3,1,10,13,70,213,36,23,20,313,,26,17,225,27,14,19,277,*64
$GAGSV,3,2,10,27,47,156,39,15,52,054,41,21,68,280,38,05,01,038,*62
$GAGSV,3,3,10,30,00,142,,34,03,048,*65
$GBGSV,6,1,21,43,77,044,49,58,15,323,,60,11,109,,21,20,063,20*66
$GBGSV,6,2,21,05,22,129,,38,26,039,33,42,17,113,,50,21,087,*6C
$GBGSV,6,3,21,08,39,047,35,34,29,071,36,23,43,218,42,37,39,292,45*68
$GBGSV,6,4,21,28,34,260,34,13,44,057,45,11,53,061,38,14,07,137,*68
$GBGSV,6,5,21,02,07,106,,46,02,331,,25,08,177,,12,03,071,*60
$GBGSV,6,6,21,22,03,017,*5D
$GPGGA,181502.00,,,,,0,00,,,M,,M,,*47
$PTNL,GGK,181502.00,010125,4742.4465503,N,01617.9726994,E,1,19,1.7,EHT669.3944,M*47
$GPGGQ,181502.00,010125,4742.4465503,N,01617.9726994,E,1,19,6.411,626.1833,M*35
$GPGFA,181502.00,26.485,46.824,2.786,0.860,332.038,5.710,,VVV*02
$GPLLK,181502.00,010125,,M,,M,1,19,2.1,,M*0F
$GNGMP,181502.00,,,,,DAAA,19,0.8,,,,*59
$GPGMP,181502.00,,,,,,03,,,,3.0,123*72
$GLGMP,181502.00,,,,,,05,,,,,*75
$GAGMP,181502.00,,,,,,04,,,,,*79
$GBGMP,181502.00,,,,,,07,,,,,*79
$PSSN,SNC,[0,324920000,2347]*4A
$GPZDA,181507.00,01,01,2025,,*69
$GPDTM,W84,,00.0000000,N,00.0000000,E,00.0000000,W84*5F
$GPRMC,181507.00,A,4742.4465490,N,01617.9726972,E,0.0,,010125,5.1,E,D*1B
$GPGLL,4742.4465490,N,01617.9726972,E,181507.00,A,D*6A
$GPGGA,181507.00,4742.4465490,N,01617.9726972,E,2,20,0.8,626.1898,M,43.2111,M,4.0,0123*47
$GNGNS,181507.00,4742.4465490,N,01617.9726972,E,DAAA,20,0.8,626.1898,43.2111,,*5F
$GPGNS,181507.00,,,,,,03,,,,4.0,123*70
$GLGNS,181507.00,,,,,,05,,,,,*70
$GAGNS,181507.00,,,,,,04,,,,,*7C
$GBGNS,181507.00,,,,,,08,,,,,*73
$GPLLQ,181507.00,010125,,M,,M,1,20,6.082,,M*15
$GPVTG,,T,,M,0.01,N,0.02,K,D*25
$GPHDT,,T*1B
$GPTHS,,V*0E
$GPROT,,V*08
$PSSN,HRP,181507.00,010125,,,,,,,00,0,,*6B
$PTNL,AVR,181507.00,,Yaw,,Tilt,,,,0,,00*3D
$GPGSA,A,3,18,23,26,,,,,,,,,,1.6,0.8,1.5*35
$GPGSA,A,3,73,80,81,82,83,,,,,,,,1.6,0.8,1.5*3D
$GPGSA,A,3,13,15,21,27,,,,,,,,,1.6,0.8,1.5*39
$GPGSA,A,3,08,11,13,23,28,34,37,43,,,,,1.6,0.8,1.5*3C
$GPGST,181507.00,2.758,2.641,0.841,332.552,2.376,1.428,5.413*55
$GPGBS,181507.00,26.913,14.608,61.823,34,0.0001,6.480,8.590*67
$GPGRS,181507.00,1,-0.0,0.2,-0.2,,,,,,,,,*6A
$GPGRS,181507.00,1,1.5,-2.3,0.5,-3.7,-2.0,,,,,,,*41
$GPGRS,181507.00,1,0.0,0.1,-1.0,-4.0,,,,,,,,*40
$GPGRS,181507.00,1,-1.7,-1.4,0.2,-0.5,-1.7,6.5,-2.5,0.4,,,,*6B
$GPGSV,4,1,15,18,74,067,44,23,35,145,41,05,16,038,32,27,26,285,35*71
$GPGSV,4,2,15,31,17,225,25,29,29,089,33,16,55,296,34,26,66,228,52*7A
$GPGSV,4,3,15,28,02,204,21,10,08,175,,15,02,089,,36,35,170,39*75
$GPGSV,4,4,15,34,31,208,33,49,34,195,37,61,03,257,*45
$GLGSV,3,1,10,82,73,342,45,66,18,073,,65,14,024,31,79,18,175,26*63
$GLGSV,3,2,10,83,44,258,39,73,37,317,48,81,34,049,43,80,61,224,47*6E
$GLGSV,3,3,10,67,03,120,,74,00,338,*6E
$GAGSV,3,1,10,13,70,213,36,23,20,313,,26,17,225,24,14,19,277,*67
$GAGSV,3,2,10,27,47,156,38,15,52,054,42,21,68,280,37,05,01,038,*6F
$GAGSV,3,3,10,30,00,142,,34,03,048,*65
$GBGSV,6,1,21,43,77,044,50,58,16,323,,60,11,109,,21,20,063,22*6F
$GBGSV,6,2,21,05,22,129,,38,26,039,33,42,17,113,25,50,21,087,*6B
$GBGSV,6,3,21,23,43,218,41,34,29,072,36,08,39,047,36,37,39,292,45*6B
$GBGSV,6,4,21,28,34,260,36,13,44,057,45,11,53,061,39,14,07,137,*6B
$GBGSV,6,5,21,02,07,106,,46,02,331,,22,03,017,,12,03,071,*6B
$GBGSV,6,6,21,25,08,177,*56
$GPGGA,181507.00,,,,,0,00,,,M,,M,,*42
$PTNL,GGK,181507.00,010125,4742.4465490,N,01617.9726972,E,1,20,1.6,EHT669.4008,M*4C
$GPGGQ,181507.00,010125,4742.4465490,N,01617.9726972,E,1,20,6.082,626.1898,M*36
$GPGFA,181507.00,25.109,44.388,2.641,0.841,332.552,5.413,,VVV*0A
$GPLLK,181507.00,010125,,M,,M,1,20,2.0,,M*01
$GNGMP,181507.00,,,,,DAAA,20,0.8,,,,*56
$GPGMP,181507.00,,,,,,03,,,,4.0,123*70
$GLGMP,181507.00,,,,,,05,,,,,*70
$GAGMP,181507.00,,,,,,04,,,,,*7C
$GBGMP,181507.00,,,,,,08,,,,,*73
$PSSN,SNC,[0,324925000,2347]*4F
$GPZDA,181512.00,01,01,2025,,*6D
$GPDTM,W84,,00.0000000,N,00.0000000,E,00.0000000,W84*5F
$GPRMC,181512.00,A,4742.4465506,N,01617.9726934,E,0.0,,010125,5.1,E,D*13
$GPGLL,4742.4465506,N,01617.9726934,E,181512.00,A,D*62
$GPGGA,181512.00,4742.4465506,N,01617.9726934,E,2,20,0.8,626.1928,M,43.2111,M,1.0,0123*40
$GNGNS,181512.00,4742.4465506,N,01617.9726934,E,DAAA,20,0.8,626.1928,43.2111,,*5D
$GPGNS,181512.00,,,,,,03,,,,1.0,123*71
$GLGNS,181512.00,,,,,,05,,,,,*74
$GAGNS,181512.00,,,,,,04,,,,,*78
$GBGNS,181512.00,,,,,,08,,,,,*77
$GPLLQ,181512.00,010125,,M,,M,1,20,6.092,,M*10
$GPVTG,,T,,M,0.00,N,0.01,K,D*27
$GPHDT,,T*1B
$GPTHS,,V*0E
$GPROT,,V*08
$PSSN,HRP,181512.00,010125,,,,,,,00,0,,*6F
$PTNL,AVR,181512.00,,Yaw,,Tilt,,,,0,,00*39
$GPGSA,A,3,18,23,26,,,,,,,,,,1.6,0.8,1.5*35
$GPGSA,A,3,73,80,81,82,83,,,,,,,,1.6,0.8,1.5*3D
$GPGSA,A,3,13,15,21,27,,,,,,,,,1.6,0.8,1.5*39
$GPGSA,A,3,08,11,13,23,28,34,37,43,,,,,1.6,0.8,1.5*3C
$GPGST,181512.00,3.316,2.644,0.827,332.459,2.376,1.426,5.426*59
$GPGBS,181512.00,26.922,14.517,61.900,34,0.0001,7.105,8.590*65
$GPGRS,181512.00,1,0.1,0.2,-0.2,,,,,,,,,*42
$GPGRS,181512.00,1,2.3,0.1,3.7,-2.4,-1.7,,,,,,,*6A
$GPGRS,181512.00,1,0.8,-0.3,-1.4,-5.0,,,,,,,,*66
$GPGRS,181512.00,1,-1.7,-1.5,0.1,-0.1,5.0,7.1,-2.5,0.5,,,,*43
$GPGSV,4,1,15,18,74,067,44,23,35,145,41,05,16,038,30,27,26,285,32*74
$GPGSV,4,2,15,31,17,225,,29,29,089,29,16,55,296,,26,66,228,53*70
$GPGSV,4,3,15,28,02,204,22,10,08,175,,15,02,089,,36,35,170,39*76
$GPGSV,4,4,15,34,31,208,34,49,34,195,36,61,03,257,*43
$GLGSV,3,1,10,82,73,342,46,66,18,073,29,65,14,024,34,79,18,175,35*6C
$GLGSV,3,2,10,83,44,258,38,73,37,317,49,81,34,049,43,80,61,224,47*6E
$GLGSV,3,3,10,67,03,120,,74,00,338,*6E
$GAGSV,3,1,10,13,70,213,36,23,20,313,,26,17,225,20,14,19,277,*63
$GAGSV,3,2,10,27,47,156,36,15,52,054,43,21,68,280,36,05,01,038,*61
$GAGSV,3,3,10,30,00,142,,34,03,048,*65
$GBGSV,6,1,21,43,77,044,50,58,16,323,,60,11,109,,21,20,063,24*69
$GBGSV,6,2,21,05,22,129,,38,26,039,33,42,17,113,27,50,21,087,*69
$GBGSV,6,3,21,23,43,218,39,34,29,072,36,08,39,047,37,37,39,292,44*64
$GBGSV,6,4,21,28,34,260,37,13,44,057,45,11,53,061,39,14,07,137,*6A
$GBGSV,6,5,21,02,07,106,,46,02,331,,22,03,017,,12,03,071,*6B
$GBGSV,6,6,21,25,08,177,*56
$GPGGA,181512.00,,,,,0,00,,,M,,M,,*46
$PTNL,GGK,181512.00,010125,4742.4465506,N,01617.9726934,E,1,20,1.6,EHT669.4038,M*47
$GPGGQ,181512.00,010125,4742.4465506,N,01617.9726934,E,1,20,6.092,626.1928,M*35
$GPGFA,181512.00,25.140,44.492,2.644,0.827,332.459,5.426,,VVV*06
$GPLLK,181512.00,010125,,M,,M,1,20,2.0,,M*05
$GNGMP,181512.00,,,,,DAAA,20,0.8,,,,*52
$GPGMP,181512.00,,,,,,03,,,,1.0,123*71
$GLGMP,181512.00,,,,,,05,,,,,*74
$GAGMP,181512.00,,,,,,04,,,,,*78
$GBGMP,181512.00,,,,,,08,,,,,*77
$PSSN,SNC,[0,324930000,2347]*4B
$GPZDA,181517.00,01,01,2025,,*68
$GPDTM,W84,,00.0000000,N,00.0000000,E,00.0000000,W84*5F
$GPRMC,181517.00,A,4742.4465450,N,01617.9726930,E,0.0,,010125,5.1,E,D*10
$GPGLL,4742.4465450,N,01617.9726930,E,181517.00,A,D*61
$GPGGA,181517.00,4742.4465450,N,01617.9726930,E,2,17,0.8,626.1873,M,43.2111,M,2.0,0123*4B
$GNGNS,181517.00,4742.4465450,N,01617.9726930,E,DAAA,17,0.8,626.1873,43.2111,,*55
$GPGNS,181517.00,,,,,,03,,,,2.0,123*77
$GLGNS,181517.00,,,,,,05,,,,,*71
$GAGNS,181517.00,,,,,,02,,,,,*7B
$GBGNS,181517.00,,,,,,07,,,,,*7D
$GPLLQ,181517.00,010125,,M,,M,1,17,9.151,,M*10
$GPVTG,,T,,M,0.00,N,0.00,K,D*26
$GPHDT,,T*1B
$GPTHS,,V*0E
$GPROT,,V*08
$PSSN,HRP,181517.00,010125,,,,,,,00,0,,*6A
$PTNL,AVR,181517.00,,Yaw,,Tilt,,,,0,,00*3C
$GPGSA,A,3,18,23,26,,,,,,,,,,1.7,0.8,1.5*34
$GPGSA,A,3,73,80,81,82,83,,,,,,,,1.7,0.8,1.5*3C
$GPGSA,A,3,13,15,,,,,,,,,,,1.7,0.8,1.5*3E
$GPGSA,A,3,11,13,23,28,34,37,43,,,,,,1.7,0.8,1.5*35
$GPGST,181517.00,6.010,3.994,1.167,332.554,3.585,2.112,8.150*5C
$GPGBS,181517.00,29.215,15.705,66.768,81,0.0001,10.376,6.119*52
$GPGRS,181517.00,1,0.2,-0.9,-0.0,,,,,,,,,*60
$GPGRS,181517.00,1,2.6,0.1,10.4,-1.2,-4.3,,,,,,,*5F
$GPGRS,181517.00,1,1.2,0.4,,,,,,,,,,*42
$GPGRS,181517.00,1,-2.4,-0.1,1.0,13.1,6.4,-2.5,0.7,,,,,*71
$GPGSV,4,1,15,18,74,067,43,23,35,145,40,05,16,038,28,27,26,285,29*71
$GPGSV,4,2,15,31,17,225,,29,28,089,28,16,55,296,,26,66,227,53*7F
$GPGSV,4,3,15,28,02,204,22,10,08,175,,15,02,089,,36,35,170,39*76
$GPGSV,4,4,15,34,31,208,33,49,34,195,37,61,03,257,*45
$GLGSV,3,1,10,82,73,342,46,66,18,073,32,65,14,024,33,79,18,175,29*6C
$GLGSV,3,2,10,83,44,258,36,73,37,317,49,81,34,049,42,80,61,223,47*66
$GLGSV,3,3,10,67,03,120,,74,00,338,*6E
$GAGSV,3,1,09,13,70,213,36,23,20,313,,26,17,225,32,14,19,277,*68
$GAGSV,3,2,09,27,47,156,34,15,52,054,44,21,68,280,35,05,01,038,*6F
$GAGSV,3,3,09,34,03,048,*59
$GBGSV,6,1,21,43,77,044,50,58,16,323,,60,11,109,,21,20,063,23*6E
$GBGSV,6,2,21,05,22,129,,38,26,039,28,42,17,113,29,50,21,087,*6D
$GBGSV,6,3,21,23,43,218,38,34,29,072,35,08,39,047,27,37,39,292,43*60
$GBGSV,6,4,21,28,34,260,35,13,44,057,45,11,53,061,38,14,07,137,*69
$GBGSV,6,5,21,02,07,106,,46,02,331,,22,03,016,,12,03,071,*6A
$GBGSV,6,6,21,25,08,177,*56
$GPGGA,181517.00,,,,,0,00,,,M,,M,,*43
$PTNL,GGK,181517.00,010125,4742.4465450,N,01617.9726930,E,1,17,1.7,EHT669.3984,M*48
$GPGGQ,181517.00,010125,4742.4465450,N,01617.9726930,E,1,17,9.151,626.1873,M*3C
$GPGFA,181517.00,37.972,66.833,3.994,1.167,332.554,8.150,,VVV*04
$GPLLK,181517.00,010125,,M,,M,1,17,2.1,,M*05
$GNGMP,181517.00,,,,,DAAA,17,0.8,,,,*53
$GPGMP,181517.00,,,,,,03,,,,2.0,123*77
$GLGMP,181517.00,,,,,,05,,,,,*71
$GAGMP,181517.00,,,,,,02,,,,,*7B
$GBGMP,181517.00,,,,,,07,,,,,*7D
$PSSN,SNC,[0,324935000,2347]*4E
$GPZDA,181522.00,01,01,2025,,*6E
$GPDTM,W84,,00.0000000,N,00.0000000,E,00.0000000,W84*5F
$GPRMC,181522.00,A,4742.4465399,N,01617.9726912,E,0.0,,010125,5.1,E,D*14
$GPGLL,4742.4465399,N,01617.9726912,E,181522.00,A,D*65
$GPGGA,181522.00,4742.4465399,N,01617.9726912,E,2,16,0.9,626.1923,M,43.2111,M,3.0,0123*4A
$GNGNS,181522.00,4742.4465399,N,01617.9726912,E,DAAA,16,0.9,626.1923,43.2111,,*55
$GPGNS,181522.00,,,,,,03,,,,3.0,123*70
$GLGNS,181522.00,,,,,,05,,,,,*77
$GAGNS,181522.00,,,,,,02,,,,,*7D
$GBGNS,181522.00,,,,,,06,,,,,*7A
$GPLLQ,181522.00,010125,,M,,M,1,16,11.006,,M*2D
$GPVTG,,T,,M,0.01,N,0.01,K,D*26
$GPHDT,,T*1B
$GPTHS,,V*0E
$GPROT,,V*08
$PSSN,HRP,181522.00,010125,,,,,,,00,0,,*6C
$PTNL,AVR,181522.00,,Yaw,,Tilt,,,,0,,00*3A
$GPGSA,A,3,18,23,26,,,,,,,,,,1.8,0.9,1.6*39
$GPGSA,A,3,73,80,81,82,83,,,,,,,,1.8,0.9,1.6*31
$GPGSA,A,3,13,15,,,,,,,,,,,1.8,0.9,1.6*33
$GPGSA,A,3,11,13,23,34,37,43,,,,,,,1.8,0.9,1.6*32
$GPGST,181522.00,6.368,4.795,1.412,331.890,4.281,2.580,9.806*5F
$GPGBS,181522.00,30.739,17.000,70.913,81,0.0001,15.979,6.121*59
$GPGRS,181522.00,1,0.5,-0.5,-0.2,,,,,,,,,*6F
$GPGRS,181522.00,1,2.1,-1.9,16.0,-2.4,-7.1,,,,,,,*7C
$GPGRS,181522.00,1,1.9,0.6,,,,,,,,,,*4D
$GPGRS,181522.00,1,-3.1,-0.3,0.6,5.3,-1.3,0.5,,,,,,*68
$GPGSV,4,1,15,18,74,067,44,23,35,145,41,05,16,038,26,27,26,285,27*77
$GPGSV,4,2,15,31,17,225,29,29,28,089,29,16,55,296,39,26,66,227,53*7F
$GPGSV,4,3,15,28,02,204,21,10,08,175,,15,02,089,,36,35,170,39*75
$GPGSV,4,4,15,34,31,208,34,49,34,195,36,61,03,257,*43
$GLGSV,3,1,10,82,73,342,45,66,18,073,33,65,14,024,33,79,18,175,33*65
$GLGSV,3,2,10,83,44,259,35,73,37,317,49,81,33,049,41,80,61,223,46*61
$GLGSV,3,3,10,67,03,120,,74,00,338,*6E
$GAGSV,3,1,09,13,70,213,37,23,20,313,,26,17,225,33,14,19,277,*68
$GAGSV,3,2,09,27,47,156,33,15,52,054,45,21,68,280,34,05,01,038,*68
$GAGSV,3,3,09,34,03,048,*59
$GBGSV,6,1,21,43,77,044,50,58,16,323,,60,11,109,,21,20,063,21*6C
$GBGSV,6,2,21,05,22,129,,38,26,039,30,42,17,113,29,50,21,087,*64
$GBGSV,6,3,21,23,43,218,37,34,29,072,35,08,39,047,28,37,39,292,41*62
$GBGSV,6,4,21,28,34,260,30,13,44,057,45,11,53,061,38,14,07,137,*6C
$GBGSV,6,5,21,02,07,106,,46,02,331,,22,03,016,,12,03,071,*6A
$GBGSV,6,6,21,25,08,177,*56
$GPGGA,181522.00,,,,,0,00,,,M,,M,,*45
$PTNL,GGK,181522.00,010125,4742.4465399,N,01617.9726912,E,1,16,1.8,EHT669.4033,M*40
$GPGGQ,181522.00,010125,4742.4465399,N,01617.9726912,E,1,16,11.006,626.1923,M*07
$GPGFA,181522.00,45.586,80.407,4.795,1.412,331.890,9.806,,VVV*01
$GPLLK,181522.00,010125,,M,,M,1,16,2.2,,M*01
$GNGMP,181522.00,,,,,DAAA,16,0.9,,,,*55
$GPGMP,181522.00,,,,,,03,,,,3.0,123*70
$GLGMP,181522.00,,,,,,05,,,,,*77
$GAGMP,181522.00,,,,,,02,,,,,*7D
$GBGMP,181522.00,,,,,,06,,,,,*7A
$PSSN,SNC,[0,324940000,2347]*4C
$GPZDA,181527.00,01,01,2025,,*6B
$GPDTM,W84,,00.0000000,N,00.0000000,E,00.0000000,W84*5F
$GPRMC,181527.00,A,4742.4465322,N,01617.9726817,E,0.0,,010125,5.1,E,D*15
$GPGLL,4742.4465322,N,01617.9726817,E,181527.00,A,D*64
$GPGGA,181527.00,4742.4465322,N,01617.9726817,E,2,19,0.8,626.1848,M,43.2111,M,4.0,0123*4E
$GNGNS,181527.00,4742.4465322,N,01617.9726817,E,DAAA,19,0.8,626.1848,43.2111,,*56
$GPGNS,181527.00,,,,,,04,,,,4.0,123*75
$GLGNS,181527.00,,,,,,05,,,,,*72
$GAGNS,181527.00,,,,,,02,,,,,*78
$GBGNS,181527.00,,,,,,08,,,,,*71
$GPLLQ,181527.00,010125,,M,,M,1,19,4.536,,M*15
$GPVTG,,T,,M,0.01,N,0.01,K,D*26
$GPHDT,,T*1B
$GPTHS,,V*0E
$GPROT,,V*08
$PSSN,HRP,181527.00,010125,,,,,,,00,0,,*69
$PTNL,AVR,181527.00,,Yaw,,Tilt,,,,0,,00*3F
$GPGSA,A,3,16,18,23,26,,,,,,,,,1.7,0.8,1.5*33
$GPGSA,A,3,73,80,81,82,83,,,,,,,,1.7,0.8,1.5*3C
$GPGSA,A,3,13,15,,,,,,,,,,,1.7,0.8,1.5*3E
$GPGSA,A,3,08,11,13,23,28,34,37,43,,,,,1.7,0.8,1.5*3D
$GPGST,181527.00,5.480,1.852,1.129,23.690,1.756,1.274,3.983*69
$GPGBS,181527.00,7.523,5.437,13.516,81,0.0001,16.206,6.125*5A
$GPGRS,181527.00,1,1.5,0.1,-0.7,-0.6,,,,,,,,*42
$GPGRS,181527.00,1,1.1,-3.9,16.2,-3.5,-6.1,,,,,,,*7B
$GPGRS,181527.00,1,1.4,-0.2,,,,,,,,,,*6C
$GPGRS,181527.00,1,-2.1,-2.3,-1.0,0.8,-3.5,1.5,-0.6,0.0,,,,*64
$GPGSV,4,1,15,18,74,067,44,23,35,145,41,05,16,038,27,27,26,285,25*74
$GPGSV,4,2,15,31,17,225,30,29,28,089,31,16,55,296,39,26,66,227,53*7E
$GPGSV,4,3,15,28,02,204,,10,08,175,,15,02,089,,36,35,170,39*76
$GPGSV,4,4,15,34,31,208,33,49,34,195,36,61,03,257,*44
$GLGSV,3,1,10,82,72,342,45,66,18,073,32,65,14,024,31,79,18,175,35*61
$GLGSV,3,2,10,83,44,259,35,73,38,317,48,81,33,049,38,80,61,223,47*60
$GLGSV,3,3,10,67,03,120,,74,00,338,*6E
$GAGSV,3,1,09,13,70,213,38,23,20,313,,26,17,225,30,14,19,277,*64
$GAGSV,3,2,09,27,47,156,32,15,52,053,45,21,68,280,33,05,01,038,*69
$GAGSV,3,3,09,34,03,048,*59
$GBGSV,6,1,21,43,77,044,50,58,16,323,,60,11,109,,21,20,063,30*6C
$GBGSV,6,2,21,05,22,129,,38,26,039,31,42,17,113,29,50,21,087,*65
$GBGSV,6,3,21,23,43,218,38,34,29,072,36,08,39,047,37,37,39,292,40*61
$GBGSV,6,4,21,28,34,260,38,13,44,057,45,11,53,061,39,14,07,137,*65
$GBGSV,6,5,21,02,07,106,,46,02,331,,22,03,016,,12,03,071,*6A
$GBGSV,6,6,21,25,08,177,*56
$GPGGA,181527.00,,,,,0,00,,,M,,M,,*40
$PTNL,GGK,181527.00,010125,4742.4465322,N,01617.9726817,E,1,19,1.7,EHT669.3959,M*43
$GPGGQ,181527.00,010125,4742.4465322,N,01617.9726817,E,1,19,4.536,626.1848,M*37
$GPGFA,181527.00,17.610,32.664,1.852,1.129,23.690,3.983,,VVV*35
$GPLLK,181527.00,010125,,M,,M,1,19,2.1,,M*08
$GNGMP,181527.00,,,,,DAAA,19,0.8,,,,*5E
$GPGMP,181527.00,,,,,,04,,,,4.0,123*75
$GLGMP,181527.00,,,,,,05,,,,,*72
$GAGMP,181527.00,,,,,,02,,,,,*78
$GBGMP,181527.00,,,,,,08,,,,,*71
$PSSN,SNC,[0,324945000,2347]*49
$GPZDA,181532.00,01,01,2025,,*6F
$GPDTM,W84,,00.0000000,N,00.0000000,E,00.0000000,W84*5F
$GPRMC,181532.00,A,4742.4465182,N,01617.9726859,E,0.0,,010125,5.1,E,D*13
$GPGLL,4742.4465182,N,01617.9726859,E,181532.00,A,D*62
$GPGGA,181532.00,4742.4465182,N,01617.9726859,E,2,21,0.7,626.1923,M,43.2111,M,1.0,0123*45
$GNGNS,181532.00,4742.4465182,N,01617.9726859,E,DAAA,21,0.7,626.1923,43.2111,,*58
$GPGNS,181532.00,,,,,,05,,,,1.0,123*75
$GLGNS,181532.00,,,,,,06,,,,,*75
$GAGNS,181532.00,,,,,,02,,,,,*7C
$GBGNS,181532.00,,,,,,08,,,,,*75
$GPLLQ,181532.00,010125,,M,,M,1,21,2.544,,M*19
$GPVTG,,T,,M,0.01,N,0.01,K,D*26
$GPHDT,,T*1B
$GPTHS,,V*0E
$GPROT,,V*08
$PSSN,HRP,181532.00,010125,,,,,,,00,0,,*6D
$PTNL,AVR,181532.00,,Yaw,,Tilt,,,,0,,00*3B
$GPGSA,A,3,16,18,23,26,27,,,,,,,,1.4,0.7,1.2*3D
$GPGSA,A,3,73,79,80,81,82,83,,,,,,,1.4,0.7,1.2*39
$GPGSA,A,3,13,15,,,,,,,,,,,1.4,0.7,1.2*35
$GPGSA,A,3,08,11,13,23,28,34,37,43,,,,,1.4,0.7,1.2*36
$GPGST,181532.00,3.413,1.233,0.668,30.688,1.114,0.852,2.123*68
$GPGBS,181532.00,6.182,4.176,8.735,27,0.0001,1.308,0.843*52
$GPGRS,181532.00,1,0.1,0.6,-0.9,-0.5,1.3,,,,,,,*65
$GPGRS,181532.00,1,1.3,-1.7,-2.1,8.7,-2.5,-6.3,,,,,,*48
$GPGRS,181532.00,1,1.2,-0.4,,,,,,,,,,*68
$GPGRS,181532.00,1,-2.4,-0.2,-1.1,0.9,-4.1,-1.7,0.2,-0.2,,,,*4C
$GPGSV,4,1,15,18,74,067,44,23,35,145,42,05,16,038,30,27,26,285,36*73
$GPGSV,4,2,15,31,17,225,28,29,28,089,31,16,55,296,38,26,66,227,53*76
$GPGSV,4,3,15,28,02,204,21,10,08,175,,15,02,089,,36,35,170,39*75
$GPGSV,4,4,15,34,31,208,33,49,34,195,36,61,03,257,*44
$GLGSV,3,1,10,82,72,342,46,66,18,073,32,65,14,023,26,79,18,176,36*63
$GLGSV,3,2,10,83,44,259,36,73,38,317,49,81,33,049,37,80,61,223,47*6D
$GLGSV,3,3,10,67,03,120,,74,00,338,*6E
$GAGSV,3,1,09,13,70,213,37,23,20,313,,26,17,225,32,14,19,277,*69
$GAGSV,3,2,09,27,47,156,33,15,52,053,45,21,68,280,31,05,01,038,*6A
$GAGSV,3,3,09,34,03,048,*59
$GBGSV,6,1,21,43,77,044,50,58,16,323,,60,11,109,,21,20,063,30*6C
$GBGSV,6,2,21,05,22,129,,38,26,039,32,42,17,113,28,50,21,087,*67
$GBGSV,6,3,21,23,43,218,39,34,29,072,37,08,39,047,37,37,39,292,38*6E
$GBGSV,6,4,21,28,34,260,38,13,44,057,44,11,53,061,40,14,07,137,*6A
$GBGSV,6,5,21,02,07,106,,46,02,331,,22,03,016,,12,03,071,*6A
$GBGSV,6,6,21,25,08,177,*56
$GPGGA,181532.00,,,,,0,00,,,M,,M,,*44
$PTNL,GGK,181532.00,010125,4742.4465182,N,01617.9726859,E,1,21,1.4,EHT669.4034,M*48
$GPGGQ,181532.00,010125,4742.4465182,N,01617.9726859,E,1,21,2.544,626.1923,M*35
$GPGFA,181532.00,11.722,17.408,1.233,0.668,30.688,2.123,,VVV*3E
$GPLLK,181532.00,010125,,M,,M,1,21,1.6,,M*03
$GNGMP,181532.00,,,,,DAAA,21,0.7,,,,*5E
$GPGMP,181532.00,,,,,,05,,,,1.0,123*75
$GLGMP,181532.00,,,,,,06,,,,,*75
$GAGMP,181532.00,,,,,,02,,,,,*7C
$GBGMP,181532.00,,,,,,08,,,,,*75
$PSSN,SNC,[0,324950000,2347]*4D
$GPZDA,181537.00,01,01,2025,,*6A
$GPDTM,W84,,00.0000000,N,00.0000000,E,00.0000000,W84*5F
$GPRMC,181537.00,A,4742.4465128,N,01617.9726791,E,0.0,,010125,5.1,E,D*1D
$GPGLL,4742.4465128,N,01617.9726791,E,181537.00,A,D*6C
$GPGGA,181537.00,4742.4465128,N,01617.9726791,E,2,20,0.7,626.1868,M,43.2111,M,2.0,0123*47
$GNGNS,181537.00,4742.4465128,N,01617.9726791,E,DAAA,20,0.7,626.1868,43.2111,,*59
$GPGNS,181537.00,,,,,,05,,,,2.0,123*73
$GLGNS,181537.00,,,,,,06,,,,,*70
$GAGNS,181537.00,,,,,,02,,,,,*79
$GBGNS,181537.00,,,,,,07,,,,,*7F
$GPLLQ,181537.00,010125,,M,,M,1,20,1.550,,M*1B
$GPVTG,,T,,M,0.01,N,0.01,K,D*26
$GPHDT,,T*1B
$GPTHS,,V*0E
$GPROT,,V*08
$PSSN,HRP,181537.00,010125,,,,,,,00,0,,*68
$PTNL,AVR,181537.00,,Yaw,,Tilt,,,,0,,00*3E
$GPGSA,A,3,16,18,23,26,27,,,,,,,,1.4,0.7,1.2*3D
$GPGSA,A,3,73,79,80,81,82,83,,,,,,,1.4,0.7,1.2*39
$GPGSA,A,3,13,15,,,,,,,,,,,1.4,0.7,1.2*35
$GPGSA,A,3,11,13,23,28,34,37,43,,,,,,1.4,0.7,1.2*3E
$GPGST,181537.00,2.219,0.889,0.401,32.505,0.781,0.586,1.205*68
$GPGBS,181537.00,6.303,4.263,8.882,83,0.0001,-5.444,6.085*74
$GPGRS,181537.00,1,-0.2,0.5,-0.4,-0.0,-0.0,,,,,,,*6A
$GPGRS,181537.00,1,1.9,-0.4,-0.6,1.1,-0.9,-5.4,,,,,,*45
$GPGRS,181537.00,1,1.7,-0.1,,,,,,,,,,*6D
$GPGRS,181537.00,1,1.1,-0.7,-0.3,-4.1,-2.3,0.8,-0.2,,,,,*4E
$GPGSV,4,1,15,18,74,066,45,23,35,145,42,05,16,038,31,27,26,285,37*73
$GPGSV,4,2,15,31,17,225,25,29,28,089,31,16,55,296,38,26,66,227,52*7A
$GPGSV,4,3,15,28,02,204,22,10,08,175,,15,02,089,,36,35,170,39*76
$GPGSV,4,4,15,34,31,208,33,49,34,195,36,61,03,257,*44
$GLGSV,3,1,10,82,72,343,46,66,18,073,30,65,14,023,22,79,18,176,36*64
$GLGSV,3,2,10,83,44,259,37,73,38,317,49,81,33,049,36,80,61,223,47*6D
$GLGSV,3,3,10,67,03,120,,74,00,338,*6E
$GAGSV,3,1,09,13,70,213,37,23,20,313,,26,17,225,34,14,19,277,*6F
$GAGSV,3,2,09,27,47,156,34,15,52,053,44,21,68,280,30,05,01,038,*6D
$GAGSV,3,3,09,34,02,048,*58
$GBGSV,6,1,21,43,77,044,51,58,16,323,,60,11,109,,21,20,062,21*6C
$GBGSV,6,2,21,05,22,129,,38,26,039,33,42,17,113,29,50,21,087,*67
$GBGSV,6,3,21,23,43,218,40,34,29,072,37,08,39,047,31,37,39,292,38*66
$GBGSV,6,4,21,28,34,260,38,13,44,057,44,11,53,061,42,14,07,137,*68
$GBGSV,6,5,21,02,07,106,,46,02,331,,22,03,016,,12,03,071,*6A
$GBGSV,6,6,21,25,08,177,*56
$GPGGA,181537.00,,,,,0,00,,,M,,M,,*41
$PTNL,GGK,181537.00,010125,4742.4465128,N,01617.9726791,E,1,20,1.4,EHT669.3979,M*40
$GPGGQ,181537.00,010125,4742.4465128,N,01617.9726791,E,1,20,1.550,626.1868,M*32
$GPGFA,181537.00,8.457,9.878,0.889,0.401,32.505,1.205,,VVV*31
$GPLLK,181537.00,010125,,M,,M,1,20,1.7,,M*06
$GNGMP,181537.00,,,,,DAAA,20,0.7,,,,*5A
$GPGMP,181537.00,,,,,,05,,,,2.0,123*73
$GLGMP,181537.00,,,,,,06,,,,,*70
$GAGMP,181537.00,,,,,,02,,,,,*79
$GBGMP,181537.00,,,,,,07,,,,,*7F
$PSSN,SNC,[0,324955000,2347]*48
$GPZDA,181542.00,01,01,2025,,*68
$GPDTM,W84,,00.0000000,N,00.0000000,E,00.0000000,W84*5F
$GPRMC,181542.00,A,4742.4465077,N,01617.9726798,E,0.0,,010125,5.1,E,D*1D
$GPGLL,4742.4465077,N,01617.9726798,E,181542.00,A,D*6C
$GPGGA,181542.00,4742.4465077,N,01617.9726798,E,2,20,0.7,626.1838,M,43.2111,M,3.0,0123*43
$GNGNS,181542.00,4742.4465077,N,01617.9726798,E,DAAA,20,0.7,626.1838,43.2111,,*5C
$GPGNS,181542.00,,,,,,05,,,,3.0,123*70
$GLGNS,181542.00,,,,,,05,,,,,*71
$GAGNS,181542.00,,,,,,03,,,,,*7A
$GBGNS,181542.00,,,,,,07,,,,,*7D
$GPLLQ,181542.00,010125,,M,,M,1,20,1.919,,M*18
$GPVTG,,T,,M,0.00,N,0.00,K,D*26
$GPHDT,,T*1B
$GPTHS,,V*0E
$GPROT,,V*08
$PSSN,HRP,181542.00,010125,,,,,,,00,0,,*6A
$PTNL,AVR,181542.00,,Yaw,,Tilt,,,,0,,00*3C
$GPGSA,A,3,16,18,23,26,27,,,,,,,,1.4,0.7,1.2*3D
$GPGSA,A,3,73,79,80,82,83,,,,,,,,1.4,0.7,1.2*30
$GPGSA,A,3,13,15,27,,,,,,,,,,1.4,0.7,1.2*30
$GPGSA,A,3,11,13,23,28,34,37,43,,,,,,1.4,0.7,1.2*3E
$GPGST,181542.00,2.336,1.115,0.489,32.993,0.972,0.733,1.483*6E
$GPGBS,181542.00,6.746,4.622,9.432,16,0.0001,1.006,0.663*5B
$GPGRS,181542.00,1,1.0,0.2,-0.7,-0.1,-0.8,,,,,,,*4B
$GPGRS,181542.00,1,2.0,1.9,-0.9,-0.8,-4.0,,,,,,,*49
$GPGRS,181542.00,1,1.4,0.2,0.6,,,,,,,,,*6A
$GPGRS,181542.00,1,2.0,-0.6,-1.4,-4.4,-3.9,0.9,-0.2,,,,,*46
$GPGSV,4,1,15,18,74,066,45,23,35,145,44,05,16,038,34,27,26,285,37*70
$GPGSV,4,2,15,31,17,225,30,29,28,089,30,16,55,296,37,26,66,227,52*70
$GPGSV,4,3,15,28,02,204,21,10,08,175,,15,02,089,,36,35,170,39*75
$GPGSV,4,4,15,34,31,208,33,49,34,195,36,61,03,257,*44
$GLGSV,3,1,10,82,72,343,45,66,18,073,23,65,14,023,20,79,18,176,37*66
$GLGSV,3,2,10,83,44,259,36,73,38,317,49,81,33,049,34,80,61,223,46*6F
$GLGSV,3,3,10,67,03,120,,74,00,338,*6E
$GAGSV,3,1,09,13,70,213,38,23,20,313,,26,17,225,35,14,19,277,*61
$GAGSV,3,2,09,27,47,156,36,15,52,053,43,21,68,280,32,05,01,038,*6A
$GAGSV,3,3,09,34,02,048,*58
$GBGSV,6,1,21,43,77,044,51,58,16,323,,60,11,109,,21,20,062,21*6C
$GBGSV,6,2,21,05,22,129,,38,26,039,33,42,17,113,30,50,21,087,*6F
$GBGSV,6,3,21,23,43,218,41,34,29,072,37,08,39,047,31,37,40,292,37*66
$GBGSV,6,4,21,28,34,260,38,13,44,057,44,11,53,061,44,14,07,137,*6E
$GBGSV,6,5,21,02,07,106,,46,02,331,,22,03,016,,12,02,071,*6B
$GBGSV,6,6,21,25,08,177,*56
$GPGGA,181542.00,,,,,0,00,,,M,,M,,*43
$PTNL,GGK,181542.00,010125,4742.4465077,N,01617.9726798,E,1,20,1.4,EHT669.3948,M*42
$GPGGQ,181542.00,010125,4742.4465077,N,01617.9726798,E,1,20,1.919,626.1838,M*36
$GPGFA,181542.00,10.598,12.161,1.115,0.489,32.993,1.483,,VVV*35
$GPLLK,181542.00,010125,,M,,M,1,20,1.7,,M*04
$GNGMP,181542.00,,,,,DAAA,20,0.7,,,,*58
$GPGMP,181542.00,,,,,,05,,,,3.0,123*70
$GLGMP,181542.00,,,,,,05,,,,,*71
$GAGMP,181542.00,,,,,,03,,,,,*7A
$GBGMP,181542.00,,,,,,07,,,,,*7D
$PSSN,SNC,[0,324960000,2347]*4E
$GPZDA,181547.00,01,01,2025,,*6D
$GPDTM,W84,,00.0000000,N,00.0000000,E,00.0000000,W84*5F
$GPRMC,181547.00,A,4742.4464990,N,01617.9726810,E,0.0,,010125,5.1,E,D*16
$GPGLL,4742.4464990,N,01617.9726810,E,181547.00,A,D*67
$GPGGA,181547.00,4742.4464990,N,01617.9726810,E,2,18,0.8,626.1789,M,43.2111,M,4.0,0123*4E
$GNGNS,181547.00,4742.4464990,N,01617.9726810,E,DAAA,18,0.8,626.1789,43.2111,,*56
$GPGNS,181547.00,,,,,,03,,,,4.0,123*74
$GLGNS,181547.00,,,,,,05,,,,,*74
$GAGNS,181547.00,,,,,,03,,,,,*7F
$GBGNS,181547.00,,,,,,07,,,,,*78
$GPLLQ,181547.00,010125,,M,,M,1,18,6.391,,M*1B
$GPVTG,,T,,M,0.01,N,0.01,K,D*26
$GPHDT,,T*1B
$GPTHS,,V*0E
$GPROT,,V*08
$PSSN,HRP,181547.00,010125,,,,,,,00,0,,*6F
$PTNL,AVR,181547.00,,Yaw,,Tilt,,,,0,,00*39
$GPGSA,A,3,18,23,26,,,,,,,,,,1.6,0.8,1.4*34
$GPGSA,A,3,73,79,80,82,83,,,,,,,,1.6,0.8,1.4*3B
$GPGSA,A,3,13,15,27,,,,,,,,,,1.6,0.8,1.4*3B
$GPGSA,A,3,11,13,23,28,34,37,43,,,,,,1.6,0.8,1.4*35
$GPGST,181547.00,2.338,2.745,0.857,332.803,2.473,1.468,5.707*58
$GPGBS,181547.00,29.131,15.609,67.780,83,0.0001,-3.178,6.096*4F
$GPGRS,181547.00,1,0.1,-0.4,-0.1,,,,,,,,,*6A
$GPGRS,181547.00,1,1.6,1.6,-1.2,-2.0,-3.2,,,,,,,*43
$GPGRS,181547.00,1,1.5,0.5,1.4,,,,,,,,,*6A
$GPGRS,181547.00,1,2.4,-0.4,-1.1,-4.1,-3.3,-0.0,0.1,,,,,*45
$GPGSV,4,1,15,18,74,066,45,23,35,145,45,05,16,038,35,27,26,285,25*73
$GPGSV,4,2,15,31,17,225,32,29,28,089,29,16,55,296,35,26,66,227,52*78
$GPGSV,4,3,15,28,02,204,,10,08,175,,15,02,089,,36,35,170,39*76
$GPGSV,4,4,15,34,31,208,33,49,34,195,36,61,03,257,*44
$GLGSV,3,1,10,82,72,343,44,66,18,073,,65,14,023,,79,18,176,38*6B
$GLGSV,3,2,10,83,44,259,35,73,38,317,49,81,33,049,34,80,61,223,46*6C
$GLGSV,3,3,10,67,03,120,,74,00,338,*6E
$GAGSV,3,1,09,13,70,213,39,23,20,313,,26,17,225,35,14,19,277,*60
$GAGSV,3,2,09,27,47,157,38,15,52,053,42,21,68,279,33,05,01,038,*63
$GAGSV,3,3,09,34,02,048,*58
$GBGSV,6,1,21,43,77,044,51,58,16,323,,60,11,109,,21,20,062,20*6D
$GBGSV,6,2,21,05,22,129,,38,26,039,34,42,17,113,30,50,21,087,*68
$GBGSV,6,3,21,23,43,218,43,34,29,072,37,08,39,047,31,37,40,292,37*64
$GBGSV,6,4,21,28,34,260,38,13,44,057,44,11,53,061,45,14,07,137,*6F
$GBGSV,6,5,21,02,07,106,,46,02,331,,22,03,016,,12,02,071,*6B
$GBGSV,6,6,21,25,08,177,*56
$GPGGA,181547.00,,,,,0,00,,,M,,M,,*46
$PTNL,GGK,181547.00,010125,4742.4464990,N,01617.9726810,E,1,18,1.6,EHT669.3900,M*4C
$GPGGQ,181547.00,010125,4742.4464990,N,01617.9726810,E,1,18,6.391,626.1789,M*3E
$GPGFA,181547.00,26.102,46.798,2.745,0.857,332.803,5.707,,VVV*0C
$GPLLK,181547.00,010125,,M,,M,1,18,1.9,,M*04
$GNGMP,181547.00,,,,,DAAA,18,0.8,,,,*59
$GPGMP,181547.00,,,,,,03,,,,4.0,123*74
$GLGMP,181547.00,,,,,,05,,,,,*74
$GAGMP,181547.00,,,,,,03,,,,,*7F
$GBGMP,181547.00,,,,,,07,,,,,*78
$PSSN,SNC,[0,324965000,2347]*4B
$GPZDA,181552.00,01,01,2025,,*69
$GPDTM,W84,,00.0000000,N,00.0000000,E,00.0000000,W84*5F
$GPRMC,181552.00,A,4742.4464991,N,01617.9726840,E,0.0,,010125,5.1,E,D*16
$GPGLL,4742.4464991,N,01617.9726840,E,181552.00,A,D*67
$GPGGA,181552.00,4742.4464991,N,01617.9726840,E,2,19,0.7,626.1647,M,43.2111,M,1.0,0123*46
$GNGNS,181552.00,4742.4464991,N,01617.9726840,E,DAAA,19,0.7,626.1647,43.2111,,*5B
$GPGNS,181552.00,,,,,,05,,,,1.0,123*73
$GLGNS,181552.00,,,,,,04,,,,,*71
$GAGNS,181552.00,,,,,,03,,,,,*7B
$GBGNS,181552.00,,,,,,07,,,,,*7C
$GPLLQ,181552.00,010125,,M,,M,1,19,2.973,,M*1C
$GPVTG,,T,,M,0.01,N,0.01,K,D*26
$GPHDT,,T*1B
$GPTHS,,V*0E
$GPROT,,V*08
$PSSN,HRP,181552.00,010125,,,,,,,00,0,,*6B
$PTNL,AVR,181552.00,,Yaw,,Tilt,,,,0,,00*3D
$GPGSA,A,3,16,18,23,26,27,,,,,,,,1.4,0.7,1.2*3D
$GPGSA,A,3,73,79,80,82,,,,,,,,,1.4,0.7,1.2*3B
$GPGSA,A,3,13,15,27,,,,,,,,,,1.4,0.7,1.2*30
$GPGSA,A,3,11,13,23,28,34,37,43,,,,,,1.4,0.7,1.2*3E
$GPGST,181552.00,2.245,1.725,0.758,33.031,1.504,1.135,2.299*63
$GPGBS,181552.00,6.538,4.473,9.136,16,0.0001,2.364,0.637*53
$GPGRS,181552.00,1,2.4,-0.5,-0.1,-0.2,-1.3,,,,,,,*68
$GPGRS,181552.00,1,0.9,1.2,-1.3,-2.0,,,,,,,,*4E
$GPGRS,181552.00,1,0.7,0.3,1.0,,,,,,,,,*6F
$GPGRS,181552.00,1,1.7,-0.8,-1.0,-4.0,-4.3,-2.1,-0.3,,,,,*66
$GPGSV,4,1,15,18,74,066,43,23,35,145,45,05,16,038,36,27,26,285,37*75
$GPGSV,4,2,15,31,17,225,33,29,28,089,26,16,55,296,36,26,66,227,53*74
$GPGSV,4,3,15,28,02,204,,10,08,175,,15,02,089,,36,35,170,39*76
$GPGSV,4,4,15,34,31,208,33,49,34,195,37,61,03,257,*45
$GLGSV,3,1,10,82,72,343,45,66,18,073,,65,14,023,,79,18,176,38*6A
$GLGSV,3,2,10,83,44,259,34,73,38,317,49,81,33,049,34,80,61,223,47*6C
$GLGSV,3,3,10,67,03,120,,74,00,338,*6E
$GAGSV,3,1,09,13,70,213,39,23,20,313,,26,17,225,35,14,19,277,*60
$GAGSV,3,2,09,27,47,157,38,15,52,053,42,21,68,279,34,05,01,038,*64
$GAGSV,3,3,09,34,02,048,*58
$GBGSV,6,1,21,43,77,045,51,58,16,323,,60,11,109,,21,20,062,22*6E
$GBGSV,6,2,21,05,22,129,,38,26,039,34,42,17,113,29,50,21,087,*60
$GBGSV,6,3,21,23,43,218,43,34,29,072,38,08,39,047,31,37,40,292,37*6B
$GBGSV,6,4,21,28,34,260,31,13,44,057,43,11,53,061,46,14,07,137,*62
$GBGSV,6,5,21,02,07,106,,46,02,331,,22,03,016,,12,02,072,*68
$GBGSV,6,6,21,25,08,177,*56
$GPGGA,181552.00,,,,,0,00,,,M,,M,,*42
$PTNL,GGK,181552.00,010125,4742.4464991,N,01617.9726840,E,1,19,1.4,EHT669.3757,M*43
$GPGGQ,181552.00,010125,4742.4464991,N,01617.9726840,E,1,19,2.973,626.1647,M*3E
$GPGFA,181552.00,16.401,18.853,1.725,0.758,33.031,2.299,,VVV*35
$GPLLK,181552.00,010125,,M,,M,1,19,1.7,,M*0F
$GNGMP,181552.00,,,,,DAAA,19,0.7,,,,*53
$GPGMP,181552.00,,,,,,05,,,,1.0,123*73
$GLGMP,181552.00,,,,,,04,,,,,*71
$GAGMP,181552.00,,,,,,03,,,,,*7B
$GBGMP,181552.00,,,,,,07,,,,,*7C
$PSSN,SNC,[0,324970000,2347]*4F
$GPZDA,181557.00,01,01,2025,,*6C
$GPDTM,W84,,00.0000000,N,00.0000000,E,00.0000000,W84*5F
$GPRMC,181557.00,A,4742.4464984,N,01617.9726862,E,0.0,,010125,5.1,E,D*17
$GPGLL,4742.4464984,N,01617.9726862,E,181557.00,A,D*66
$GPGGA,181557.00,4742.4464984,N,01617.9726862,E,2,18,0.7,626.1621,M,43.2111,M,2.0,0123*45
$GNGNS,181557.00,4742.4464984,N,01617.9726862,E,DAAA,18,0.7,626.1621,43.2111,,*5B
$GPGNS,181557.00,,,,,,04,,,,2.0,123*74
$GLGNS,181557.00,,,,,,04,,,,,*74
$GAGNS,181557.00,,,,,,03,,,,,*7E
$GBGNS,181557.00,,,,,,07,,,,,*79
$GPLLQ,181557.00,010125,,M,,M,1,18,1.680,,M*18
$GPVTG,,T,,M,0.01,N,0.01,K,D*26
$GPHDT,,T*1B
$GPTHS,,V*0E
$GPROT,,V*08
$PSSN,HRP,181557.00,010125,,,,,,,00,0,,*6E
$PTNL,AVR,181557.00,,Yaw,,Tilt,,,,0,,00*38
$GPGSA,A,3,18,23,26,27,,,,,,,,,1.5,0.7,1.3*3A
$GPGSA,A,3,73,79,80,82,,,,,,,,,1.5,0.7,1.3*3B
$GPGSA,A,3,13,15,27,,,,,,,,,,1.5,0.7,1.3*30
$GPGSA,A,3,11,13,23,28,34,37,43,,,,,,1.5,0.7,1.3*3E
$GPGST,181557.00,1.870,0.966,0.485,30.346,0.869,0.643,1.286*6F
$GPGBS,181557.00,6.028,4.990,9.745,27,0.0001,-0.968,0.841*74
$GPGRS,181557.00,1,-0.4,0.4,0.2,-1.0,,,,,,,,*42
$GPGRS,181557.00,1,1.0,0.8,0.3,-1.2,,,,,,,,*65
$GPGRS,181557.00,1,0.3,1.1,1.2,,,,,,,,,*6F
$GPGRS,181557.00,1,1.2,-0.6,0.3,-3.1,-4.2,-1.0,0.7,,,,,*6B
$GPGSV,4,1,15,18,74,066,42,23,35,145,45,05,16,038,35,27,26,285,37*77
$GPGSV,4,2,15,31,17,225,33,29,28,089,32,16,55,296,38,26,66,227,52*7E
$GPGSV,4,3,15,28,02,204,,10,08,175,,15,02,089,,36,35,170,39*76
$GPGSV,4,4,15,34,31,208,34,49,34,195,36,61,03,257,*43
$GLGSV,3,1,10,82,72,343,44,66,18,073,29,65,14,023,27,79,18,176,38*65
$GLGSV,3,2,10,83,44,259,34,73,38,317,48,81,33,049,31,80,61,223,48*67
$GLGSV,3,3,10,67,03,120,,74,00,338,*6E
$GAGSV,3,1,09,13,70,213,40,23,20,313,,26,17,225,34,14,19,277,*6F
$GAGSV,3,2,09,27,47,157,39,15,52,053,42,21,69,279,35,05,01,038,*65
$GAGSV,3,3,09,34,02,048,*58
$GBGSV,6,1,21,43,77,045,51,58,16,323,,60,11,109,,21,20,062,26*6A
$GBGSV,6,2,21,05,22,129,,38,26,039,34,42,17,113,30,50,21,087,*68
$GBGSV,6,3,21,23,43,218,42,34,29,072,37,08,39,047,32,37,40,291,39*6B
$GBGSV,6,4,21,28,34,260,39,13,44,057,43,11,53,061,47,14,07,137,*6B
$GBGSV,6,5,21,02,07,106,,46,02,331,,22,03,016,,12,02,072,*68
$GBGSV,6,6,21,25,08,177,*56
$GPGGA,181557.00,,,,,0,00,,,M,,M,,*47
$PTNL,GGK,181557.00,010125,4742.4464984,N,01617.9726862,E,1,18,1.5,EHT669.3732,M*41
$GPGGQ,181557.00,010125,4742.4464984,N,01617.9726862,E,1,18,1.680,626.1621,M*3E
$GPGFA,181557.00,9.187,10.547,0.966,0.485,30.346,1.286,,VVV*03
$GPLLK,181557.00,010125,,M,,M,1,18,1.7,,M*0B
$GNGMP,181557.00,,,,,DAAA,18,0.7,,,,*57
$GPGMP,181557.00,,,,,,04,,,,2.0,123*74
$GLGMP,181557.00,,,,,,04,,,,,*74
$GAGMP,181557.00,,,,,,03,,,,,*7E
$GBGMP,181557.00,,,,,,07,,,,,*79
$PSSN,SNC,[0,324975000,2347]*4A
$GPZDA,181602.00,01,01,2025,,*6F
$GPDTM,W84,,00.0000000,N,00.0000000,E,00.0000000,W84*5F
$GPRMC,181602.00,A,4742.4465014,N,01617.9726838,E,0.0,,010125,5.1,E,D*1A
$GPGLL,4742.4465014,N,01617.9726838,E,181602.00,A,D*6B
$GPGGA,181602.00,4742.4465014,N,01617.9726838,E,2,19,0.7,626.1517,M,43.2111,M,3.0,0123*4E
$GNGNS,181602.00,4742.4465014,N,01617.9726838,E,DAAA,19,0.7,626.1517,43.2111,,*51
$GPGNS,181602.00,,,,,,05,,,,3.0,123*77
$GLGNS,181602.00,,,,,,04,,,,,*77
$GAGNS,181602.00,,,,,,03,,,,,*7D
$GBGNS,181602.00,,,,,,07,,,,,*7A
$GPLLQ,181602.00,010125,,M,,M,1,19,3.134,,M*10
$GPVTG,,T,,M,0.01,N,0.01,K,D*26
$GPHDT,,T*1B
$GPTHS,,V*0E
$GPROT,,V*08
$PSSN,HRP,181602.00,010125,,,,,,,00,0,,*6D
$PTNL,AVR,181602.00,,Yaw,,Tilt,,,,0,,00*3B
$GPGSA,A,3,16,18,23,26,27,,,,,,,,1.4,0.7,1.2*3D
$GPGSA,A,3,73,79,80,82,,,,,,,,,1.4,0.7,1.2*3B
$GPGSA,A,3,13,15,27,,,,,,,,,,1.4,0.7,1.2*30
$GPGSA,A,3,11,13,23,28,34,37,43,,,,,,1.4,0.7,1.2*3E
$GPGST,181602.00,2.086,1.815,0.794,33.161,1.580,1.195,2.429*6B
$GPGBS,181602.00,6.745,4.607,9.447,16,0.0001,2.255,0.658*55
$GPGRS,181602.00,1,2.3,-0.1,-0.2,-0.1,-2.1,,,,,,,*6C
$GPGRS,181602.00,1,0.7,-0.0,-0.4,-1.0,,,,,,,,*6D
$GPGRS,181602.00,1,-0.0,0.8,0.7,,,,,,,,,*4E
$GPGRS,181602.00,1,1.0,-1.3,1.6,-2.9,-4.7,-1.8,0.6,,,,,*6F
$GPGSV,4,1,15,18,74,066,41,23,35,144,44,05,16,038,35,27,26,285,36*75
$GPGSV,4,2,15,31,17,224,32,29,28,089,24,16,55,296,39,26,66,227,52*78
$GPGSV,4,3,15,28,02,204,,10,08,175,,15,02,089,,36,35,170,39*76
$GPGSV,4,4,15,34,31,208,33,49,34,195,36,61,03,257,*44
$GLGSV,3,1,10,82,72,343,44,66,18,073,33,65,14,023,28,79,18,176,36*6F
$GLGSV,3,2,10,83,44,259,35,73,38,317,48,81,33,049,31,80,61,223,48*66
$GLGSV,3,3,10,67,03,120,,74,00,338,*6E
$GAGSV,3,1,09,13,70,213,41,23,20,313,,26,17,225,33,14,19,277,*69
$GAGSV,3,2,09,27,47,157,39,15,52,053,43,21,69,279,34,05,01,038,*65
$GAGSV,3,3,09,34,02,048,*58
$GBGSV,6,1,21,43,77,045,52,58,16,323,,60,11,109,,21,20,062,23*6C
$GBGSV,6,2,21,05,22,129,,38,26,039,34,42,17,113,31,50,21,087,*69
$GBGSV,6,3,21,23,43,218,41,34,29,072,37,08,39,047,32,37,40,291,41*67
$GBGSV,6,4,21,28,34,260,40,13,44,057,43,11,53,061,48,14,07,137,*6A
$GBGSV,6,5,21,02,07,106,,46,02,331,,22,03,016,,12,02,072,*68
$GBGSV,6,6,21,25,08,177,*56
$GPGGA,181602.00,,,,,0,00,,,M,,M,,*44
$PTNL,GGK,181602.00,010125,4742.4465014,N,01617.9726838,E,1,19,1.4,EHT669.3628,M*46
$GPGGQ,181602.00,010125,4742.4465014,N,01617.9726838,E,1,19,3.134,626.1517,M*3E
$GPGFA,181602.00,17.257,19.915,1.815,0.794,33.161,2.429,,VVV*30
$GPLLK,181602.00,010125,,M,,M,1,19,1.7,,M*09
$GNGMP,181602.00,,,,,DAAA,19,0.7,,,,*55
$GPGMP,181602.00,,,,,,05,,,,3.0,123*77
$GLGMP,181602.00,,,,,,04,,,,,*77
$GAGMP,181602.00,,,,,,03,,,,,*7D
$GBGMP,181602.00,,,,,,07,,,,,*7A
$PSSN,SNC,[0,324980000,2347]*40
$GPZDA,181607.00,01,01,2025,,*6A
$GPDTM,W84,,00.0000000,N,00.0000000,E,00.0000000,W84*5F
$GPRMC,181607.00,A,4742.4464968,N,01617.9726787,E,0.0,,010125,5.1,E,D*17
$GPGLL,4742.4464968,N,01617.9726787,E,181607.00,A,D*66
$GPGGA,181607.00,4742.4464968,N,01617.9726787,E,2,18,0.8,626.1380,M,43.2111,M,4.0,0123*42
$GNGNS,181607.00,4742.4464968,N,01617.9726787,E,DAAA,18,0.8,626.1380,43.2111,,*5A
$GPGNS,181607.00,,,,,,04,,,,4.0,123*74
$GLGNS,181607.00,,,,,,04,,,,,*72
$GAGNS,181607.00,,,,,,03,,,,,*78
$GBGNS,181607.00,,,,,,07,,,,,*7F
$GPLLQ,181607.00,010125,,M,,M,1,18,2.774,,M*17
$GPVTG,,T,,M,0.01,N,0.01,K,D*26
$GPHDT,,T*1B
$GPTHS,,V*0E
$GPROT,,V*08
$PSSN,HRP,181607.00,010125,,,,,,,00,0,,*68
$PTNL,AVR,181607.00,,Yaw,,Tilt,,,,0,,00*3E
$GPGSA,A,3,16,18,23,26,,,,,,,,,1.8,0.8,1.6*3F
$GPGSA,A,3,73,80,82,83,,,,,,,,,1.8,0.8,1.6*39
$GPGSA,A,3,13,15,27,,,,,,,,,,1.8,0.8,1.6*37
$GPGSA,A,3,11,13,23,28,34,37,43,,,,,,1.8,0.8,1.6*39
$GPGST,181607.00,2.146,1.029,0.610,16.701,1.001,0.655,2.503*61
$GPGBS,181607.00,8.043,5.585,14.438,16,0.0001,1.034,0.675*6A
$GPGRS,181607.00,1,1.0,0.5,-0.2,-0.6,,,,,,,,*47
$GPGRS,181607.00,1,0.8,-1.0,-0.8,-1.9,,,,,,,,*63
$GPGRS,181607.00,1,-0.2,0.5,0.7,,,,,,,,,*44
$GPGRS,181607.00,1,1.2,-1.6,3.2,-3.1,-4.2,-1.2,0.3,,,,,*68
$GPGSV,4,1,15,18,74,066,41,23,35,144,44,05,16,038,34,27,26,285,35*77
$GPGSV,4,2,15,31,17,224,31,29,28,089,27,16,55,296,39,26,66,227,52*78
$GPGSV,4,3,15,28,02,204,,10,08,175,,15,02,089,,36,35,170,39*76
$GPGSV,4,4,15,34,31,208,34,49,34,195,36,61,03,257,*43
$GLGSV,3,1,10,82,72,343,43,66,19,073,34,65,14,023,,79,18,176,34*66
$GLGSV,3,2,10,83,44,259,35,73,38,317,47,81,33,049,33,80,61,223,48*6B
$GLGSV,3,3,10,67,03,120,,74,00,338,*6E
$GAGSV,3,1,09,13,70,213,41,23,20,313,,26,17,225,32,14,19,277,*68
$GAGSV,3,2,09,27,47,157,40,15,52,053,43,21,69,279,34,05,01,038,*6B
$GAGSV,3,3,09,34,02,048,*58
$GBGSV,6,1,21,43,77,045,52,58,16,323,,60,11,109,,21,20,062,20*6F
$GBGSV,6,2,21,05,22,129,,38,26,039,34,42,17,113,33,50,21,087,*6B
$GBGSV,6,3,21,23,43,218,40,34,29,072,37,08,39,047,31,37,40,291,42*66
$GBGSV,6,4,21,28,34,260,41,13,44,057,42,11,53,061,48,14,07,137,*6A
$GBGSV,6,5,21,02,07,106,,46,02,331,,22,03,016,,12,02,072,*68
$GBGSV,6,6,21,25,08,177,*56
$GPGGA,181607.00,,,,,0,00,,,M,,M,,*41
$PTNL,GGK,181607.00,010125,4742.4464968,N,01617.9726787,E,1,18,1.8,EHT669.3490,M*47
$GPGGQ,181607.00,010125,4742.4464968,N,01617.9726787,E,1,18,2.774,626.1380,M*39
$GPGFA,181607.00,9.784,20.524,1.029,0.610,16.701,2.503,,VVV*01
$GPLLK,181607.00,010125,,M,,M,1,18,2.2,,M*0B
$GNGMP,181607.00,,,,,DAAA,18,0.8,,,,*5E
$GPGMP,181607.00,,,,,,04,,,,4.0,123*74
$GLGMP,181607.00,,,,,,04,,,,,*72
$GAGMP,181607.00,,,,,,03,,,,,*78
$GBGMP,181607.00,,,,,,07,,,,,*7F
$PSSN,SNC,[0,324985000,2347]*45
$GPZDA,181612.00,01,01,2025,,*6E
$GPDTM,W84,,00.0000000,N,00.0000000,E,00.0000000,W84*5F
$GPRMC,181612.00,A,4742.4464914,N,01617.9726686,E,0.0,,010125,5.1,E,D*18
$GPGLL,4742.4464914,N,01617.9726686,E,181612.00,A,D*69
$GPGGA,181612.00,4742.4464914,N,01617.9726686,E,2,19,0.8,626.1279,M,43.2111,M,1.0,0123*4E
$GNGNS,181612.00,4742.4464914,N,01617.9726686,E,DAAA,19,0.8,626.1279,43.2111,,*53
$GPGNS,181612.00,,,,,,05,,,,1.0,123*74
$GLGNS,181612.00,,,,,,04,,,,,*76
$GAGNS,181612.00,,,,,,03,,,,,*7C
$GBGNS,181612.00,,,,,,07,,,,,*7B
$GPLLQ,181612.00,010125,,M,,M,1,19,3.725,,M*17
$GPVTG,,T,,M,0.01,N,0.01,K,D*26
$GPHDT,,T*1B
$GPTHS,,V*0E
$GPROT,,V*08
$PSSN,HRP,181612.00,010125,,,,,,,00,0,,*6C
$PTNL,AVR,181612.00,,Yaw,,Tilt,,,,0,,00*3A
$GPGSA,A,3,16,18,23,26,27,,,,,,,,1.6,0.8,1.4*36
$GPGSA,A,3,73,80,82,83,,,,,,,,,1.6,0.8,1.4*35
$GPGSA,A,3,13,15,27,,,,,,,,,,1.6,0.8,1.4*3B
$GPGSA,A,3,11,13,23,28,34,37,43,,,,,,1.6,0.8,1.4*35
$GPGST,181612.00,4.947,2.093,0.926,31.817,1.844,1.355,2.939*67
$GPGBS,181612.00,6.493,4.414,9.103,27,0.0001,-3.120,0.834*72
$GPGRS,181612.00,1,0.4,1.2,0.6,-0.7,-3.1,,,,,,,*69
$GPGRS,181612.00,1,1.9,-2.1,-1.9,-3.2,,,,,,,,*6C
$GPGRS,181612.00,1,-0.6,0.1,0.7,,,,,,,,,*40
$GPGRS,181612.00,1,0.7,-1.8,3.4,14.9,-4.6,-1.0,0.3,,,,,*75
$GPGSV,4,1,15,18,74,066,40,23,35,144,45,05,16,038,33,27,26,285,37*72
$GPGSV,4,2,15,31,17,224,29,29,28,089,30,16,55,296,37,26,66,227,52*79
$GPGSV,4,3,15,28,02,204,,10,08,175,,15,02,089,,36,35,170,39*76
$GPGSV,4,4,15,34,31,208,33,49,34,195,37,61,03,257,*45
$GLGSV,3,1,10,82,72,344,43,66,19,073,33,65,14,023,26,79,18,176,31*67
$GLGSV,3,2,10,83,44,259,36,73,38,317,48,81,33,049,35,80,61,223,48*61
$GLGSV,3,3,10,67,03,120,,74,01,338,*6F
$GAGSV,3,1,09,13,70,213,42,23,20,313,,26,17,225,30,14,19,277,*69
$GAGSV,3,2,09,27,47,157,41,15,52,053,43,21,69,279,32,05,01,038,*6C
$GAGSV,3,3,09,34,02,048,*58
$GBGSV,6,1,21,43,77,045,51,58,16,323,,60,11,109,,21,20,062,30*6D
$GBGSV,6,2,21,05,22,129,,38,26,039,34,42,17,113,,50,21,087,*6B
$GBGSV,6,3,21,23,43,218,40,34,29,072,36,08,39,047,31,37,40,291,43*66
$GBGSV,6,4,21,28,34,260,36,13,44,057,42,11,53,061,48,14,07,137,*6A
$GBGSV,6,5,21,02,07,106,,46,02,331,,22,03,016,,12,02,072,*68
$GBGSV,6,6,21,25,08,177,*56
$GPGGA,181612.00,,,,,0,00,,,M,,M,,*45
$PTNL,GGK,181612.00,010125,4742.4464914,N,01617.9726686,E,1,19,1.6,EHT669.3390,M*40
$GPGGQ,181612.00,010125,4742.4464914,N,01617.9726686,E,1,19,3.725,626.1279,M*35
$GPGFA,181612.00,19.900,24.103,2.093,0.926,31.817,2.939,,VVV*33
$GPLLK,181612.00,010125,,M,,M,1,19,2.0,,M*0C
$GNGMP,181612.00,,,,,DAAA,19,0.8,,,,*5B
$GPGMP,181612.00,,,,,,05,,,,1.0,123*74
$GLGMP,181612.00,,,,,,04,,,,,*76
$GAGMP,181612.00,,,,,,03,,,,,*7C
$GBGMP,181612.00,,,,,,07,,,,,*7B
$PSSN,SNC,[0,324990000,2347]*41
$GPZDA,181617.00,01,01,2025,,*6B
$GPDTM,W84,,00.0000000,N,00.0000000,E,00.0000000,W84*5F
$GPRMC,181617.00,A,4742.4464921,N,01617.9726457,E,0.0,,010125,5.1,E,D*15
$GPGLL,4742.4464921,N,01617.9726457,E,181617.00,A,D*64
$GPGGA,181617.00,4742.4464921,N,01617.9726457,E,2,20,0.7,626.1021,M,43.2111,M,2.0,0123*4A
$GNGNS,181617.00,4742.4464921,N,01617.9726457,E,DAAA,20,0.7,626.1021,43.2111,,*54
$GPGNS,181617.00,,,,,,05,,,,2.0,123*72
$GLGNS,181617.00,,,,,,05,,,,,*72
$GAGNS,181617.00,,,,,,03,,,,,*79
$GBGNS,181617.00,,,,,,07,,,,,*7E
$GPLLQ,181617.00,010125,,M,,M,1,20,2.655,,M*1F
$GPVTG,,T,,M,0.00,N,0.01,K,D*27
$GPHDT,,T*1B
$GPTHS,,V*0E
$GPROT,,V*08
$PSSN,HRP,181617.00,010125,,,,,,,00,0,,*69
$PTNL,AVR,181617.00,,Yaw,,Tilt,,,,0,,00*3F
$GPGSA,A,3,16,18,23,26,27,,,,,,,,1.6,0.7,1.4*39
$GPGSA,A,3,73,80,81,82,83,,,,,,,,1.6,0.7,1.4*33
$GPGSA,A,3,13,15,27,,,,,,,,,,1.6,0.7,1.4*34
$GPGSA,A,3,11,13,23,28,34,37,43,,,,,,1.6,0.7,1.4*3A
$GPGST,181617.00,4.117,1.512,0.688,32.194,1.331,0.994,2.072*63
$GPGBS,181617.00,6.242,4.198,8.831,27,0.0001,-1.769,0.844*7B
$GPGRS,181617.00,1,1.1,0.5,0.7,-0.7,-1.8,,,,,,,*64
$GPGRS,181617.00,1,2.2,-2.6,-2.7,-1.3,-1.0,,,,,,,*6A
$GPGRS,181617.00,1,-0.5,-0.3,0.2,,,,,,,,,*6C
$GPGRS,181617.00,1,-0.2,-2.4,2.3,12.8,-4.1,-1.1,0.0,,,,,*53
$GPGSV,4,1,15,18,74,066,39,23,35,144,45,05,16,038,33,27,26,285,38*73
$GPGSV,4,2,15,31,16,224,32,29,28,089,33,16,55,296,37,26,66,226,52*70
$GPGSV,4,3,15,28,02,204,,10,08,175,,15,02,089,,36,35,170,39*76
$GPGSV,4,4,15,34,31,208,33,49,34,195,37,61,03,257,*45
$GLGSV,3,1,10,82,72,344,42,66,19,073,32,65,14,023,,79,18,176,28*6B
$GLGSV,3,2,10,83,44,259,36,73,38,317,48,81,33,049,37,80,61,223,48*63
$GLGSV,3,3,10,67,03,120,,74,01,338,*6F
$GAGSV,3,1,09,13,70,213,42,23,20,313,,26,17,225,28,14,19,277,*60
$GAGSV,3,2,09,27,47,157,42,15,52,053,43,21,69,279,30,05,01,038,*6D
$GAGSV,3,3,09,34,02,048,*58
$GBGSV,6,1,21,43,77,045,51,58,16,322,,60,11,109,,21,20,062,30*6C
$GBGSV,6,2,21,05,22,129,,38,26,039,33,42,17,113,,50,21,087,*6C
$GBGSV,6,3,21,23,43,218,42,34,29,072,35,08,39,047,31,37,40,291,44*60
$GBGSV,6,4,21,28,34,260,37,13,44,057,41,11,53,061,48,14,07,137,*68
$GBGSV,6,5,21,02,07,106,,46,02,331,,22,03,016,,12,02,072,*68
$GBGSV,6,6,21,25,08,177,*56
$GPGGA,181617.00,,,,,0,00,,,M,,M,,*40
$PTNL,GGK,181617.00,010125,4742.4464921,N,01617.9726457,E,1,20,1.6,EHT669.3132,M*4D
$GPGGQ,181617.00,010125,4742.4464921,N,01617.9726457,E,1,20,2.655,626.1021,M*3A
$GPGFA,181617.00,14.373,16.987,1.512,0.688,32.194,2.072,,VVV*33
$GPLLK,181617.00,010125,,M,,M,1,20,1.9,,M*09
$GNGMP,181617.00,,,,,DAAA,20,0.7,,,,*5B
$GPGMP,181617.00,,,,,,05,,,,2.0,123*72
$GLGMP,181617.00,,,,,,05,,,,,*72
$GAGMP,181617.00,,,,,,03,,,,,*79
$GBGMP,181617.00,,,,,,07,,,,,*7E
$PSSN,SNC,[0,324995000,2347]*44
$GPZDA,181622.00,01,01,2025,,*6D
$GPDTM,W84,,00.0000000,N,00.0000000,E,00.0000000,W84*5F
$GPRMC,181622.00,A,4742.4464899,N,01617.9726407,E,0.0,,010125,5.1,E,D*14
$GPGLL,4742.4464899,N,01617.9726407,E,181622.00,A,D*65
$GPGGA,181622.00,4742.4464899,N,01617.9726407,E,2,19,0.8,626.1054,M,43.2111,M,2.7,0123*4B
$GNGNS,181622.00,4742.4464899,N,01617.9726407,E,DAAA,19,0.8,626.1054,43.2111,,*52
$GPGNS,181622.00,,,,,,06,,,,2.7,123*70
$GLGNS,181622.00,,,,,,04,,,,,*75
$GAGNS,181622.00,,,,,,03,,,,,*7F
$GBGNS,181622.00,,,,,,06,,,,,*79
$GPLLQ,181622.00,010125,,M,,M,1,19,2.723,,M*13
$GPVTG,,T,,M,0.00,N,0.01,K,D*27
$GPHDT,,T*1B
$GPTHS,,V*0E
$GPROT,,V*08
$PSSN,HRP,181622.00,010125,,,,,,,00,0,,*6F
$PTNL,AVR,181622.00,,Yaw,,Tilt,,,,0,,00*39
$GPGSA,A,3,16,18,23,26,27,29,,,,,,,1.6,0.8,1.4*3D
$GPGSA,A,3,73,80,82,83,,,,,,,,,1.6,0.8,1.4*35
$GPGSA,A,3,13,15,27,,,,,,,,,,1.6,0.8,1.4*3B
$GPGSA,A,3,11,13,23,28,37,43,,,,,,,1.6,0.8,1.4*32
$GPGST,181622.00,4.273,1.523,0.757,23.763,1.427,0.926,2.126*62
$GPGBS,181622.00,4.565,3.241,7.588,16,0.0001,1.735,0.661*52
$GPGRS,181622.00,1,1.7,-0.3,0.4,-0.7,-1.7,1.5,,,,,,*69
$GPGRS,181622.00,1,2.6,-3.2,-3.8,-1.3,,,,,,,,*61
$GPGRS,181622.00,1,-0.8,-1.2,-0.4,,,,,,,,,*4C
$GPGRS,181622.00,1,-0.8,-2.6,1.2,12.6,2.6,-0.4,,,,,,*57
$GPGSV,4,1,15,18,74,066,39,23,35,144,45,05,16,037,32,27,26,285,37*72
$GPGSV,4,2,15,31,16,224,33,29,28,089,36,16,56,296,39,26,66,226,51*7A
$GPGSV,4,3,15,28,02,204,,10,08,175,,15,02,089,,36,35,170,39*76
$GPGSV,4,4,15,34,31,208,33,49,34,195,36,61,03,257,*44
$GLGSV,3,1,10,82,72,344,42,66,19,073,30,65,14,023,,79,17,176,28*66
$GLGSV,3,2,10,83,44,259,36,73,38,317,50,81,33,050,29,80,61,223,48*6D
$GLGSV,3,3,10,67,03,120,,74,01,338,*6F
$GAGSV,3,1,09,13,70,213,41,23,20,313,,26,17,225,26,14,19,277,*6D
$GAGSV,3,2,09,27,47,157,43,15,51,053,43,21,69,279,29,05,01,038,*67
$GAGSV,3,3,09,34,02,048,*58
$GBGSV,6,1,21,43,77,045,51,58,16,322,,60,11,109,,21,20,062,31*6D
$GBGSV,6,2,21,05,22,129,,38,26,039,33,42,17,113,31,50,21,087,*6E
$GBGSV,6,3,21,23,43,218,44,34,29,072,33,08,39,047,31,37,40,291,45*61
$GBGSV,6,4,21,28,34,260,39,13,44,057,41,11,53,061,48,14,07,137,*66
$GBGSV,6,5,21,02,07,106,,46,02,331,,22,03,016,,12,02,072,*68
$GBGSV,6,6,21,25,08,177,*56
$GPGGA,181622.00,,,,,0,00,,,M,,M,,*46
$PTNL,GGK,181622.00,010125,4742.4464899,N,01617.9726407,E,1,19,1.6,EHT669.3165,M*44
$GPGGQ,181622.00,010125,4742.4464899,N,01617.9726407,E,1,19,2.723,626.1054,M*33
$GPGFA,181622.00,14.483,17.433,1.523,0.757,23.763,2.126,,VVV*31
$GPLLK,181622.00,010125,,M,,M,1,19,2.0,,M*0F
$GNGMP,181622.00,,,,,DAAA,19,0.8,,,,*58
$GPGMP,181622.00,,,,,,06,,,,2.7,123*70
$GLGMP,181622.00,,,,,,04,,,,,*75
$GAGMP,181622.00,,,,,,03,,,,,*7F
$GBGMP,181622.00,,,,,,06,,,,,*79
$PSSN,SNC,[0,325000000,2347]*40
$GPZDA,181627.00,01,01,2025,,*68
$GPDTM,W84,,00.0000000,N,00.0000000,E,00.0000000,W84*5F
$GPRMC,181627.00,A,4742.4464882,N,01617.9726479,E,0.0,,010125,5.1,E,D*12
$GPGLL,4742.4464882,N,01617.9726479,E,181627.00,A,D*63
$GPGGA,181627.00,4742.4464882,N,01617.9726479,E,2,21,0.7,626.0964,M,43.2111,M,3.7,0123*43
$GNGNS,181627.00,4742.4464882,N,01617.9726479,E,DAAA,21,0.7,626.0964,43.2111,,*5B
$GPGNS,181627.00,,,,,,06,,,,3.7,123*74
$GLGNS,181627.00,,,,,,05,,,,,*71
$GAGNS,181627.00,,,,,,04,,,,,*7D
$GBGNS,181627.00,,,,,,06,,,,,*7C
$GPLLQ,181627.00,010125,,M,,M,1,21,2.624,,M*1B
$GPVTG,,T,,M,0.01,N,0.02,K,D*25
$GPHDT,,T*1B
$GPTHS,,V*0E
$GPROT,,V*08
$PSSN,HRP,181627.00,010125,,,,,,,00,0,,*6A
$PTNL,AVR,181627.00,,Yaw,,Tilt,,,,0,,00*3C
$GPGSA,A,3,16,18,23,26,27,29,,,,,,,1.4,0.7,1.2*36
$GPGSA,A,3,73,80,81,82,83,,,,,,,,1.4,0.7,1.2*37
$GPGSA,A,3,13,15,26,27,,,,,,,,,1.4,0.7,1.2*34
$GPGSA,A,3,11,13,23,28,37,43,,,,,,,1.4,0.7,1.2*39
$GPGST,181627.00,4.286,1.448,0.738,16.811,1.403,0.821,2.061*66
$GPGBS,181627.00,5.138,2.881,7.118,16,0.0001,2.135,0.678*5D
$GPGRS,181627.00,1,2.1,0.4,0.1,-0.9,-1.0,-1.1,,,,,,*66
$GPGRS,181627.00,1,2.8,-2.9,-3.0,-5.6,-1.8,,,,,,,*63
$GPGRS,181627.00,1,-1.0,-1.4,-2.8,-0.7,,,,,,,,*4C
$GPGRS,181627.00,1,-1.6,-2.7,-0.0,11.3,6.4,-0.5,,,,,,*73
$GPGSV,4,1,15,18,74,066,42,23,35,144,44,05,16,037,33,27,26,285,35*7C
$GPGSV,4,2,15,31,16,224,33,29,28,089,37,16,56,296,39,26,66,226,52*78
$GPGSV,4,3,15,28,02,204,,10,08,175,,15,02,089,,36,35,170,39*76
$GPGSV,4,4,15,34,31,208,33,49,34,195,36,61,03,257,*44
$GLGSV,3,1,10,82,72,344,39,66,19,073,29,65,14,023,,79,17,176,31*6A
$GLGSV,3,2,10,83,44,259,35,73,38,317,51,81,33,050,40,80,61,223,49*61
$GLGSV,3,3,10,67,03,120,,74,01,338,*6F
$GAGSV,3,1,09,13,70,213,41,23,20,313,,26,17,225,25,14,19,277,*6E
$GAGSV,3,2,09,27,47,157,44,15,51,053,43,21,69,279,29,05,01,038,*60
$GAGSV,3,3,09,34,02,048,*58
$GBGSV,6,1,21,43,77,045,51,58,16,322,,60,11,109,,21,20,062,32*6E
$GBGSV,6,2,21,05,22,129,,38,26,039,33,42,17,113,31,50,21,087,*6E
$GBGSV,6,3,21,23,43,218,45,34,29,072,31,08,39,047,31,37,40,291,45*62
$GBGSV,6,4,21,28,34,260,39,13,44,057,40,11,53,061,47,14,07,137,*68
$GBGSV,6,5,21,02,07,106,,46,02,331,,22,03,016,,12,02,072,*68
$GBGSV,6,6,21,25,08,177,*56
$GPGGA,181627.00,,,,,0,00,,,M,,M,,*43
$PTNL,GGK,181627.00,010125,4742.4464882,N,01617.9726479,E,1,21,1.4,EHT669.3075,M*4B
$GPGGQ,181627.00,010125,4742.4464882,N,01617.9726479,E,1,21,2.624,626.0964,M*33
$GPGFA,181627.00,13.770,16.896,1.448,0.738,16.811,2.061,,VVV*35
$GPLLK,181627.00,010125,,M,,M,1,21,1.7,,M*05
$GNGMP,181627.00,,,,,DAAA,21,0.7,,,,*59
$GPGMP,181627.00,,,,,,06,,,,3.7,123*74
$GLGMP,181627.00,,,,,,05,,,,,*71
$GAGMP,181627.00,,,,,,04,,,,,*7D
$GBGMP,181627.00,,,,,,06,,,,,*7C
$PSSN,SNC,[0,325005000,2347]*45
$GPZDA,181632.00,01,01,2025,,*6C
$GPDTM,W84,,00.0000000,N,00.0000000,E,00.0000000,W84*5F
