$GPZDA,024442.00,01,01,2025,,*67
$GPDTM,W84,,00.0000000,N,00.0000000,E,00.0000000,W84*5F
$GPRMC,024442.00,A,4742.4466154,N,01617.9731172,E,0.0,,010125,5.1,E,D*15
$GPGLL,4742.4466154,N,01617.9731172,E,024442.00,A,D*64
$GPGGA,024442.00,4742.4466154,N,01617.9731172,E,2,23,0.7,623.8608,M,43.2111,M,4.0,0123*4E
$GNGNS,024442.00,4742.4466154,N,01617.9731172,E,DAAA,23,0.7,623.8608,43.2111,,*56
$GPGNS,024442.00,,,,,,04,,,,4.0,123*79
$GLGNS,024442.00,,,,,,04,,,,,*7F
$GAGNS,024442.00,,,,,,06,,,,,*70
$GBGNS,024442.00,,,,,,09,,,,,*7C
$GPLLQ,024442.00,010125,,M,,M,1,23,5.419,,M*1D
$GPVTG,,T,,M,0.00,N,0.00,K,D*26
$GPHDT,,T*1B
$GPTHS,,V*0E
$GPROT,,V*08
$PSSN,HRP,024442.00,010125,,,,,,,00,0,,*65
$PTNL,AVR,024442.00,,Yaw,,Tilt,,,,0,,00*33
$GPGSA,A,3,03,04,06,09,,,,,,,,,1.2,0.7,1.0*3F
$GPGSA,A,3,71,79,85,86,,,,,,,,,1.2,0.7,1.0*3C
$GPGSA,A,3,04,05,06,09,34,36,,,,,,,1.2,0.7,1.0*3B
$GPGSA,A,3,09,12,16,19,20,23,29,35,44,,,,1.2,0.7,1.0*3C
$GPGST,024442.00,13.557,2.083,1.119,351.726,2.068,1.147,4.876*61
$GPGBS,024442.00,8.502,5.736,22.912,03,0.0001,1.809,0.674*6E
$GPGRS,024442.00,1,1.8,-0.8,-0.7,-0.5,,,,,,,,*64
$GPGRS,024442.00,1,1.0,15.2,0.8,-4.3,,,,,,,,*5F
$GPGRS,024442.00,1,-1.3,0.5,-0.6,0.0,0.1,-0.9,,,,,,*6E
$GPGRS,024442.00,1,-0.8,17.1,2.6,-1.8,-2.1,48.6,-3.2,-1.8,0.4,,,*4E
$GPGSV,5,1,18,04,87,192,49,19,25,267,,02,17,162,24,17,18,239,34*73
$GPGSV,5,2,18,01,21,155,,31,28,052,34,06,40,308,45,03,57,088,42*73
$GPGSV,5,3,18,09,56,236,47,11,06,320,25,21,01,156,,26,05,078,*76
$GPGSV,5,4,18,28,09,034,28,07,07,184,,36,35,170,41,34,31,208,*7D
$GPGSV,5,5,18,49,34,195,36,61,03,257,*76
$GLGSV,3,1,10,70,70,349,34,69,18,059,28,80,15,110,35,87,10,337,23*6D
$GLGSV,3,2,10,79,23,055,37,71,38,267,49,85,48,208,40,86,49,305,47*64
$GLGSV,3,3,10,84,05,174,,78,06,008,30*6D
$GAGSV,3,1,11,09,82,077,47,11,26,155,33,04,30,055,41,18,19,267,*6F
$GAGSV,3,2,11,34,43,308,49,05,40,230,46,06,57,059,41,36,70,201,44*61
$GAGSV,3,3,11,23,02,065,,10,01,149,,21,02,018,*5C
$GBGSV,5,1,19,48,73,048,,46,16,133,,29,19,195,40,58,19,116,*6E
$GBGSV,5,2,19,39,22,040,35,05,23,128,34,22,19,265,34,44,23,312,44*6B
$GBGSV,5,3,19,16,30,047,38,37,25,078,30,06,32,050,34,09,41,063,37*6E
$GBGSV,5,4,19,35,42,260,47,20,52,066,45,19,71,291,45,12,08,331,33*6E
$GBGSV,5,5,19,02,07,106,,23,08,030,18,60,09,110,*5D
$GPGGA,024442.00,,,,,0,00,,,M,,M,,*4C
$PTNL,GGK,024442.00,010125,4742.4466154,N,01617.9731172,E,1,23,1.2,EHT667.0718,M*49
$GPGGQ,024442.00,010125,4742.4466154,N,01617.9731172,E,1,23,5.419,623.8608,M*35
$GPGFA,024442.00,19.809,39.983,2.083,1.119,351.726,4.876,,VVV*0E
$GPLLK,024442.00,010125,,M,,M,1,23,1.4,,M*0B
$GNGMP,024442.00,,,,,DAAA,23,0.7,,,,*54
$GPGMP,024442.00,,,,,,04,,,,4.0,123*79
$GLGMP,024442.00,,,,,,04,,,,,*7F
$GAGMP,024442.00,,,,,,06,,,,,*70
$GBGMP,024442.00,,,,,,09,,,,,*7C
$PSSN,SNC,[0,269100000,2347]*48
$GPZDA,024447.00,01,01,2025,,*62
$GPDTM,W84,,00.0000000,N,00.0000000,E,00.0000000,W84*5F
$GPRMC,024447.00,A,4742.4466184,N,01617.9730945,E,0.0,,010125,5.1,E,D*10
$GPGLL,4742.4466184,N,01617.9730945,E,024447.00,A,D*61
$GPGGA,024447.00,4742.4466184,N,01617.9730945,E,2,20,0.7,623.8725,M,43.2111,M,1.0,0123*43
$GNGNS,024447.00,4742.4466184,N,01617.9730945,E,DAAA,20,0.7,623.8725,43.2111,,*5E
$GPGNS,024447.00,,,,,,03,,,,1.0,123*7E
$GLGNS,024447.00,,,,,,03,,,,,*7D
$GAGNS,024447.00,,,,,,06,,,,,*75
$GBGNS,024447.00,,,,,,08,,,,,*78
$GPLLQ,024447.00,010125,,M,,M,1,20,6.124,,M*13
$GPVTG,,T,,M,0.01,N,0.01,K,D*26
$GPHDT,,T*1B
$GPTHS,,V*0E
$GPROT,,V*08
$PSSN,HRP,024447.00,010125,,,,,,,00,0,,*60
$PTNL,AVR,024447.00,,Yaw,,Tilt,,,,0,,00*36
$GPGSA,A,3,04,06,09,,,,,,,,,,1.3,0.7,1.1*3C
$GPGSA,A,3,71,85,86,,,,,,,,,,1.3,0.7,1.1*32
$GPGSA,A,3,04,05,06,09,34,36,,,,,,,1.3,0.7,1.1*3B
$GPGSA,A,3,09,12,16,19,20,29,35,44,,,,,1.3,0.7,1.1*3D
$GPGST,024447.00,4.993,2.193,1.492,316.757,1.897,1.855,5.520*5B
$GPGBS,024447.00,8.209,20.320,43.207,12,0.0001,16.623,9.216*62
$GPGRS,024447.00,1,-0.3,-1.0,-0.3,,,,,,,,,*4D
$GPGRS,024447.00,1,-0.6,-0.1,-4.3,,,,,,,,,*4C
$GPGRS,024447.00,1,-1.0,0.3,-1.3,0.2,0.1,-0.6,,,,,,*67
$GPGRS,024447.00,1,-2.5,16.6,1.9,-1.8,-1.4,-2.5,-1.7,-0.6,,,,*7A
$GPGSV,5,1,18,04,87,191,49,19,25,267,,02,17,162,21,17,18,239,19*7A
$GPGSV,5,2,18,01,21,155,,31,28,052,35,06,40,308,45,03,57,088,42*72
$GPGSV,5,3,18,09,56,236,47,11,06,320,28,21,01,156,,26,05,078,*7B
$GPGSV,5,4,18,28,09,034,28,07,07,184,,36,35,170,41,34,31,208,*7D
$GPGSV,5,5,18,49,34,195,35,61,03,257,*75
$GLGSV,3,1,10,70,70,349,34,69,18,059,31,80,15,109,36,87,10,337,23*6E
$GLGSV,3,2,10,79,23,055,,71,38,267,50,85,48,208,40,86,49,305,46*69
$GLGSV,3,3,10,84,05,174,,78,06,008,20*6C
$GAGSV,3,1,11,09,82,076,46,11,26,155,32,04,30,055,42,18,19,267,*6D
$GAGSV,3,2,11,34,43,308,49,05,40,230,46,06,57,059,41,36,70,201,45*60
$GAGSV,3,3,11,23,02,065,,10,01,149,,21,02,018,*5C
$GBGSV,5,1,19,48,73,048,,46,16,133,,29,19,195,40,58,19,116,*6E
$GBGSV,5,2,19,39,22,040,34,05,23,128,34,22,19,265,34,44,23,312,43*6D
$GBGSV,5,3,19,16,30,047,38,37,25,078,27,06,31,050,35,09,41,063,37*6A
$GBGSV,5,4,19,35,42,260,47,20,52,066,45,19,71,291,44,12,08,330,33*6E
$GBGSV,5,5,19,02,07,106,,23,08,030,,60,09,110,*54
$GPGGA,024447.00,,,,,0,00,,,M,,M,,*49
$PTNL,GGK,024447.00,010125,4742.4466184,N,01617.9730945,E,1,20,1.3,EHT667.0836,M*4D
$GPGGQ,024447.00,010125,4742.4466184,N,01617.9730945,E,1,20,6.124,623.8725,M*35
$GPGFA,024447.00,20.852,45.261,2.193,1.492,316.757,5.520,,VVV*0F
$GPLLK,024447.00,010125,,M,,M,1,20,1.5,,M*0C
$GNGMP,024447.00,,,,,DAAA,20,0.7,,,,*52
$GPGMP,024447.00,,,,,,03,,,,1.0,123*7E
$GLGMP,024447.00,,,,,,03,,,,,*7D
$GAGMP,024447.00,,,,,,06,,,,,*75
$GBGMP,024447.00,,,,,,08,,,,,*78
$PSSN,SNC,[0,269105000,2347]*4D
$GPZDA,024452.00,01,01,2025,,*66
$GPDTM,W84,,00.0000000,N,00.0000000,E,00.0000000,W84*5F
$GPRMC,024452.00,A,4742.4466222,N,01617.9730878,E,0.0,,010125,5.1,E,D*14
$GPGLL,4742.4466222,N,01617.9730878,E,024452.00,A,D*65
$GPGGA,024452.00,4742.4466222,N,01617.9730878,E,2,20,0.7,623.8693,M,43.2111,M,2.0,0123*48
$GNGNS,024452.00,4742.4466222,N,01617.9730878,E,DAAA,20,0.7,623.8693,43.2111,,*56
$GPGNS,024452.00,,,,,,03,,,,2.0,123*79
$GLGNS,024452.00,,,,,,03,,,,,*79
$GAGNS,024452.00,,,,,,06,,,,,*71
$GBGNS,024452.00,,,,,,08,,,,,*7C
$GPLLQ,024452.00,010125,,M,,M,1,20,5.368,,M*1E
$GPVTG,,T,,M,0.01,N,0.02,K,D*25
$GPHDT,,T*1B
$GPTHS,,V*0E
$GPROT,,V*08
$PSSN,HRP,024452.00,010125,,,,,,,00,0,,*64
$PTNL,AVR,024452.00,,Yaw,,Tilt,,,,0,,00*32
$GPGSA,A,3,04,06,09,,,,,,,,,,1.4,0.7,1.1*3B
$GPGSA,A,3,71,85,86,,,,,,,,,,1.4,0.7,1.1*35
$GPGSA,A,3,04,05,06,09,34,36,,,,,,,1.4,0.7,1.1*3C
$GPGSA,A,3,09,16,19,20,22,29,35,44,,,,,1.4,0.7,1.1*39
$GPGST,024452.00,1.730,2.233,0.841,290.367,1.107,2.114,4.808*56
$GPGBS,024452.00,8.330,20.303,43.611,04,0.0001,0.468,0.585*56
$GPGRS,024452.00,1,0.5,-0.5,-0.4,,,,,,,,,*61
$GPGRS,024452.00,1,-0.4,-0.4,-4.0,,,,,,,,,*4C
$GPGRS,024452.00,1,-0.1,0.8,-0.9,0.9,0.6,0.5,,,,,,*41
$GPGRS,024452.00,1,-1.2,3.1,-1.6,-0.6,-0.7,-1.1,-1.4,-1.4,,,,*61
$GPGSV,5,1,18,04,87,191,49,19,25,267,,02,17,162,,17,18,239,*71
$GPGSV,5,2,18,01,21,155,,31,28,052,33,06,40,308,46,03,57,088,41*74
$GPGSV,5,3,18,09,56,236,45,11,06,320,30,21,01,156,,26,05,078,*70
$GPGSV,5,4,18,28,09,034,29,07,07,184,,36,35,170,41,34,31,208,*7C
$GPGSV,5,5,18,49,34,195,35,61,03,257,*75
$GLGSV,3,1,10,70,70,349,33,69,18,059,34,80,15,109,35,87,10,337,21*6D
$GLGSV,3,2,10,79,23,055,38,71,38,267,51,85,48,208,40,86,49,305,45*60
$GLGSV,3,3,10,84,05,174,,78,06,008,21*6D
$GAGSV,3,1,11,09,82,076,46,11,25,155,30,04,30,055,43,18,19,267,*6D
$GAGSV,3,2,11,34,43,308,48,05,40,230,46,06,57,059,41,36,70,201,45*61
$GAGSV,3,3,11,23,02,065,,10,01,149,,21,02,018,*5C
$GBGSV,5,1,19,48,73,048,,46,16,133,,29,19,195,40,58,19,116,*6E
$GBGSV,5,2,19,39,21,040,34,05,23,128,34,22,19,265,35,44,23,312,41*6D
$GBGSV,5,3,19,16,30,047,38,37,25,078,29,06,31,050,34,09,41,063,37*65
$GBGSV,5,4,19,35,42,260,46,20,52,066,46,19,71,291,43,12,08,330,34*6C
$GBGSV,5,5,19,02,07,106,,23,08,030,,60,09,110,*54
$GPGGA,024452.00,,,,,0,00,,,M,,M,,*4D
$PTNL,GGK,024452.00,010125,4742.4466222,N,01617.9730878,E,1,20,1.4,EHT667.0803,M*48
$GPGGQ,024452.00,010125,4742.4466222,N,01617.9730878,E,1,20,5.368,623.8693,M*34
$GPGFA,024452.00,21.229,39.427,2.233,0.841,290.367,4.808,,VVV*07
$GPLLK,024452.00,010125,,M,,M,1,20,1.6,,M*0B
$GNGMP,024452.00,,,,,DAAA,20,0.7,,,,*56
$GPGMP,024452.00,,,,,,03,,,,2.0,123*79
$GLGMP,024452.00,,,,,,03,,,,,*79
$GAGMP,024452.00,,,,,,06,,,,,*71
$GBGMP,024452.00,,,,,,08,,,,,*7C
$PSSN,SNC,[0,269110000,2347]*49
$GPZDA,024457.00,01,01,2025,,*63
$GPDTM,W84,,00.0000000,N,00.0000000,E,00.0000000,W84*5F
$GPRMC,024457.00,A,4742.4466201,N,01617.9730848,E,0.0,,010125,5.1,E,D*13
$GPGLL,4742.4466201,N,01617.9730848,E,024457.00,A,D*62
$GPGGA,024457.00,4742.4466201,N,01617.9730848,E,2,20,0.7,623.8635,M,43.2111,M,4.0,0123*45
$GNGNS,024457.00,4742.4466201,N,01617.9730848,E,DAAA,20,0.7,623.8635,43.2111,,*5D
$GPGNS,024457.00,,,,,,03,,,,4.0,123*7A
$GLGNS,024457.00,,,,,,03,,,,,*7C
$GAGNS,024457.00,,,,,,06,,,,,*74
$GBGNS,024457.00,,,,,,08,,,,,*79
$GPLLQ,024457.00,010125,,M,,M,1,20,6.002,,M*17
$GPVTG,,T,,M,0.01,N,0.01,K,D*26
$GPHDT,,T*1B
$GPTHS,,V*0E
$GPROT,,V*08
$PSSN,HRP,024457.00,010125,,,,,,,00,0,,*61
$PTNL,AVR,024457.00,,Yaw,,Tilt,,,,0,,00*37
$GPGSA,A,3,04,06,09,,,,,,,,,,1.4,0.7,1.1*3B
$GPGSA,A,3,71,85,86,,,,,,,,,,1.4,0.7,1.1*35
$GPGSA,A,3,04,05,06,09,34,36,,,,,,,1.4,0.7,1.1*3C
$GPGSA,A,3,09,16,19,20,22,29,35,44,,,,,1.4,0.7,1.1*39
$GPGST,024457.00,1.899,2.507,1.071,291.231,1.349,2.369,5.347*57
$GPGBS,024457.00,8.615,20.288,43.583,09,0.0001,-1.019,0.650*73
$GPGRS,024457.00,1,0.9,-0.4,-1.0,,,,,,,,,*6C
$GPGRS,024457.00,1,0.8,-0.5,-3.7,,,,,,,,,*69
$GPGRS,024457.00,1,0.6,1.3,-0.1,1.4,0.6,0.4,,,,,,*61
$GPGRS,024457.00,1,1.4,4.4,-1.0,-0.3,0.1,-0.7,-1.2,-1.3,,,,*63
$GPGSV,5,1,18,04,87,190,49,19,25,267,,02,17,162,,17,18,239,27*75
$GPGSV,5,2,18,01,21,155,,31,28,052,30,06,40,308,46,03,57,088,38*79
$GPGSV,5,3,18,09,56,236,44,11,06,320,30,21,01,156,,26,05,078,*71
$GPGSV,5,4,18,28,09,034,31,07,07,184,,36,35,170,41,34,31,208,*75
$GPGSV,5,5,18,49,34,195,36,61,03,257,*76
$GLGSV,3,1,10,70,70,349,32,69,18,059,32,80,15,109,33,87,10,337,22*6F
$GLGSV,3,2,10,79,23,055,31,71,38,267,51,85,48,208,43,86,49,305,44*6B
$GLGSV,3,3,10,84,05,174,,78,06,008,25*69
$GAGSV,3,1,11,09,82,076,46,11,25,155,29,04,30,055,43,18,19,267,*65
$GAGSV,3,2,11,34,43,308,48,05,40,230,46,06,57,059,42,36,70,201,45*62
$GAGSV,3,3,11,23,02,065,,10,01,149,,21,02,018,*5C
$GBGSV,5,1,19,48,73,048,,46,16,133,,29,19,195,41,58,19,116,*6F
$GBGSV,5,2,19,39,21,040,34,05,23,128,35,22,19,265,37,44,23,312,41*6E
$GBGSV,5,3,19,16,30,046,38,37,25,078,24,06,31,050,35,09,41,063,38*67
$GBGSV,5,4,19,35,42,260,46,20,52,066,47,19,71,291,42,12,08,330,32*6A
$GBGSV,5,5,19,02,07,106,,23,08,030,26,60,09,110,*50
$GPGGA,024457.00,,,,,0,00,,,M,,M,,*48
$PTNL,GGK,024457.00,010125,4742.4466201,N,01617.9730848,E,1,20,1.4,EHT667.0745,M*42
$GPGGQ,024457.00,010125,4742.4466201,N,01617.9730848,E,1,20,6.002,623.8635,M*33
$GPGFA,024457.00,23.836,43.849,2.507,1.071,291.231,5.347,,VVV*05
$GPLLK,024457.00,010125,,M,,M,1,20,1.6,,M*0E
$GNGMP,024457.00,,,,,DAAA,20,0.7,,,,*53
$GPGMP,024457.00,,,,,,03,,,,4.0,123*7A
$GLGMP,024457.00,,,,,,03,,,,,*7C
$GAGMP,024457.00,,,,,,06,,,,,*74
$GBGMP,024457.00,,,,,,08,,,,,*79
$PSSN,SNC,[0,269115000,2347]*4C
$GPZDA,024502.00,01,01,2025,,*62
$GPDTM,W84,,00.0000000,N,00.0000000,E,00.0000000,W84*5F
$GPRMC,024502.00,A,4742.4466227,N,01617.9730699,E,0.0,,010125,5.1,E,D*14
$GPGLL,4742.4466227,N,01617.9730699,E,024502.00,A,D*65
$GPGGA,024502.00,4742.4466227,N,01617.9730699,E,2,20,0.7,623.8639,M,43.2111,M,1.0,0123*4B
$GNGNS,024502.00,4742.4466227,N,01617.9730699,E,DAAA,20,0.7,623.8639,43.2111,,*56
$GPGNS,024502.00,,,,,,03,,,,1.0,123*7E
$GLGNS,024502.00,,,,,,03,,,,,*7D
$GAGNS,024502.00,,,,,,06,,,,,*75
$GBGNS,024502.00,,,,,,08,,,,,*78
$GPLLQ,024502.00,010125,,M,,M,1,20,5.565,,M*11
$GPVTG,,T,,M,0.00,N,0.01,K,D*27
$GPHDT,,T*1B
$GPTHS,,V*0E
$GPROT,,V*08
$PSSN,HRP,024502.00,010125,,,,,,,00,0,,*60
$PTNL,AVR,024502.00,,Yaw,,Tilt,,,,0,,00*36
$GPGSA,A,3,04,06,09,,,,,,,,,,1.4,0.7,1.1*3B
$GPGSA,A,3,71,85,86,,,,,,,,,,1.4,0.7,1.1*35
$GPGSA,A,3,04,05,06,09,34,36,,,,,,,1.4,0.7,1.1*3C
$GPGSA,A,3,09,16,19,20,22,29,35,44,,,,,1.4,0.7,1.1*39
$GPGST,024502.00,2.147,2.302,0.712,289.064,1.009,2.188,5.016*59
$GPGBS,024502.00,8.239,20.253,43.669,06,0.0001,-0.823,0.709*7B
$GPGRS,024502.00,1,0.2,-0.8,0.3,,,,,,,,,*45
$GPGRS,024502.00,1,-0.1,-1.4,-5.2,,,,,,,,,*4F
$GPGRS,024502.00,1,-0.0,1.1,-0.1,0.9,-0.1,-0.5,,,,,,*43
$GPGRS,024502.00,1,-0.2,4.0,-0.8,-1.8,1.7,-1.4,-1.3,-1.3,,,,*4B
$GPGSV,5,1,18,04,87,190,49,19,25,267,,02,16,162,,17,18,239,*71
$GPGSV,5,2,18,01,21,155,,31,28,052,30,06,40,307,46,03,57,088,33*7D
$GPGSV,5,3,18,09,56,236,43,11,06,320,28,21,01,156,,26,05,078,*7F
$GPGSV,5,4,18,28,09,034,31,07,07,184,,36,35,170,41,34,31,208,*75
$GPGSV,5,5,18,49,34,195,36,61,03,257,*76
$GLGSV,3,1,10,70,70,349,32,69,18,059,30,80,15,109,30,87,10,337,*6E
$GLGSV,3,2,10,79,23,055,,71,38,267,50,85,48,208,46,86,49,305,41*68
$GLGSV,3,3,10,84,05,174,,78,06,008,28*64
$GAGSV,3,1,11,09,82,076,46,11,25,155,28,04,30,055,43,18,19,267,*64
$GAGSV,3,2,11,34,43,308,48,05,40,230,46,06,57,059,43,36,70,201,44*62
$GAGSV,3,3,11,23,02,065,,10,01,149,,21,02,018,*5C
$GBGSV,5,1,19,48,73,048,,46,16,133,,29,19,195,41,58,19,116,*6F
$GBGSV,5,2,19,39,21,040,33,05,23,128,35,22,19,265,36,44,23,312,41*68
$GBGSV,5,3,19,16,30,046,37,37,25,077,28,06,31,050,34,09,41,063,37*65
$GBGSV,5,4,19,35,42,260,46,20,52,066,47,19,71,292,41,12,08,330,31*69
$GBGSV,5,5,19,02,07,106,,23,08,030,27,60,09,110,*51
$GPGGA,024502.00,,,,,0,00,,,M,,M,,*49
$PTNL,GGK,024502.00,010125,4742.4466227,N,01617.9730699,E,1,20,1.4,EHT667.0750,M*41
$GPGGQ,024502.00,010125,4742.4466227,N,01617.9730699,E,1,20,5.565,623.8639,M*3F
$GPGFA,024502.00,21.886,41.134,2.302,0.712,289.064,5.016,,VVV*00
$GPLLK,024502.00,010125,,M,,M,1,20,1.6,,M*0F
$GNGMP,024502.00,,,,,DAAA,20,0.7,,,,*52
$GPGMP,024502.00,,,,,,03,,,,1.0,123*7E
$GLGMP,024502.00,,,,,,03,,,,,*7D
$GAGMP,024502.00,,,,,,06,,,,,*75
$GBGMP,024502.00,,,,,,08,,,,,*78
$PSSN,SNC,[0,269120000,2347]*4A
$GPZDA,024507.00,01,01,2025,,*67
$GPDTM,W84,,00.0000000,N,00.0000000,E,00.0000000,W84*5F
$GPRMC,024507.00,A,4742.4466281,N,01617.9730698,E,0.0,,010125,5.1,E,D*1C
$GPGLL,4742.4466281,N,01617.9730698,E,024507.00,A,D*6D
$GPGGA,024507.00,4742.4466281,N,01617.9730698,E,2,24,0.7,623.8601,M,43.2111,M,2.0,0123*4F
$GNGNS,024507.00,4742.4466281,N,01617.9730698,E,DAAA,24,0.7,623.8601,43.2111,,*51
$GPGNS,024507.00,,,,,,05,,,,2.0,123*7E
$GLGNS,024507.00,,,,,,04,,,,,*7F
$GAGNS,024507.00,,,,,,06,,,,,*70
$GBGNS,024507.00,,,,,,09,,,,,*7C
$GPLLQ,024507.00,010125,,M,,M,1,24,2.785,,M*1B
$GPVTG,,T,,M,0.00,N,0.01,K,D*27
$GPHDT,,T*1B
$GPTHS,,V*0E
$GPROT,,V*08
$PSSN,HRP,024507.00,010125,,,,,,,00,0,,*65
$PTNL,AVR,024507.00,,Yaw,,Tilt,,,,0,,00*33
$GPGSA,A,3,03,04,06,09,11,,,,,,,,1.1,0.7,0.9*34
$GPGSA,A,3,71,79,85,86,,,,,,,,,1.1,0.7,0.9*37
$GPGSA,A,3,04,05,06,09,34,36,,,,,,,1.1,0.7,0.9*30
$GPGSA,A,3,09,16,19,20,22,23,29,35,44,,,,1.1,0.7,0.9*34
$GPGST,024507.00,13.119,1.226,0.900,321.408,1.111,1.039,2.333*60
$GPGBS,024507.00,8.046,5.230,14.018,09,0.0001,0.769,0.620*6D
$GPGRS,024507.00,1,-0.6,-0.1,-0.6,0.8,1.2,,,,,,,*43
$GPGRS,024507.00,1,0.2,-2.9,1.3,-7.4,,,,,,,,*42
$GPGRS,024507.00,1,-0.5,1.4,0.1,0.4,0.3,-0.3,,,,,,*4F
$GPGRS,024507.00,1,-0.6,3.6,0.4,-2.7,0.3,53.2,-1.6,-1.2,-0.3,,,*7B
$GPGSV,5,1,18,04,87,189,49,19,25,267,35,02,16,162,27,17,18,238,21*78
$GPGSV,5,2,18,01,21,155,,31,28,052,20,06,40,307,46,03,57,088,40*78
$GPGSV,5,3,18,09,56,237,43,11,06,320,35,21,01,156,,26,05,078,*72
$GPGSV,5,4,18,28,09,034,32,07,07,184,,36,35,170,41,34,31,208,*76
$GPGSV,5,5,18,49,34,195,36,61,03,257,*76
$GLGSV,3,1,10,70,70,350,33,69,18,059,32,80,16,109,29,87,10,337,23*6F
$GLGSV,3,2,10,79,23,055,38,71,38,267,49,85,48,208,48,86,49,305,40*64
$GLGSV,3,3,10,84,05,174,,78,06,008,31*6C
$GAGSV,3,1,11,09,82,076,46,11,25,155,35,04,30,055,43,18,19,267,*68
$GAGSV,3,2,11,34,43,308,48,05,40,230,46,06,57,059,43,36,70,201,44*62
$GAGSV,3,3,11,23,02,065,,10,01,149,,21,02,018,*5C
$GBGSV,5,1,19,48,73,048,,46,16,133,,29,19,195,40,58,19,116,*6E
$GBGSV,5,2,19,39,21,040,33,05,23,128,34,22,19,265,35,44,23,312,42*69
$GBGSV,5,3,19,16,30,046,37,37,25,077,26,06,31,050,34,09,41,063,38*64
$GBGSV,5,4,19,35,42,260,46,20,51,066,46,19,71,292,40,12,08,330,31*6A
$GBGSV,5,5,19,02,07,106,,23,08,030,25,60,09,110,*53
$GPGGA,024507.00,,,,,0,00,,,M,,M,,*4C
$PTNL,GGK,024507.00,010125,4742.4466281,N,01617.9730698,E,1,24,1.1,EHT667.0712,M*4E
$GPGGQ,024507.00,010125,4742.4466281,N,01617.9730698,E,1,24,2.785,623.8601,M*33
$GPGFA,024507.00,11.658,19.133,1.226,0.900,321.408,2.333,,VVV*06
$GPLLK,024507.00,010125,,M,,M,1,24,1.3,,M*0B
$GNGMP,024507.00,,,,,DAAA,24,0.7,,,,*53
$GPGMP,024507.00,,,,,,05,,,,2.0,123*7E
$GLGMP,024507.00,,,,,,04,,,,,*7F
$GAGMP,024507.00,,,,,,06,,,,,*70
$GBGMP,024507.00,,,,,,09,,,,,*7C
$PSSN,SNC,[0,269125000,2347]*4F
$GPZDA,024512.00,01,01,2025,,*63
$GPDTM,W84,,00.0000000,N,00.0000000,E,00.0000000,W84*5F
$GPRMC,024512.00,A,4742.4466325,N,01617.9730741,E,0.0,,010125,5.1,E,D*12
$GPGLL,4742.4466325,N,01617.9730741,E,024512.00,A,D*63
$GPGGA,024512.00,4742.4466325,N,01617.9730741,E,2,23,0.7,623.8671,M,43.2111,M,3.0,0123*40
$GNGNS,024512.00,4742.4466325,N,01617.9730741,E,DAAA,23,0.7,623.8671,43.2111,,*5F
$GPGNS,024512.00,,,,,,04,,,,3.0,123*7A
$GLGNS,024512.00,,,,,,04,,,,,*7B
$GAGNS,024512.00,,,,,,06,,,,,*74
$GBGNS,024512.00,,,,,,09,,,,,*78
$GPLLQ,024512.00,010125,,M,,M,1,23,4.055,,M*14
$GPVTG,,T,,M,0.00,N,0.01,K,D*27
$GPHDT,,T*1B
$GPTHS,,V*0E
$GPROT,,V*08
$PSSN,HRP,024512.00,010125,,,,,,,00,0,,*61
$PTNL,AVR,024512.00,,Yaw,,Tilt,,,,0,,00*37
$GPGSA,A,3,04,06,09,11,,,,,,,,,1.2,0.7,0.9*34
$GPGSA,A,3,71,79,85,86,,,,,,,,,1.2,0.7,0.9*34
$GPGSA,A,3,04,05,06,09,34,36,,,,,,,1.2,0.7,0.9*33
$GPGSA,A,3,06,09,16,19,20,23,29,35,44,,,,1.2,0.7,0.9*31
$GPGST,024512.00,12.706,1.929,1.265,300.027,1.460,1.786,3.335*6D
$GPGBS,024512.00,8.203,7.292,19.677,09,0.0001,1.202,0.632*68
$GPGRS,024512.00,1,-0.6,-0.7,1.2,1.3,,,,,,,,*4E
$GPGRS,024512.00,1,0.4,3.5,6.2,-7.0,,,,,,,,*62
$GPGRS,024512.00,1,-0.9,1.4,-0.5,-0.1,0.2,-0.7,,,,,,*43
$GPGRS,024512.00,1,7.9,-0.7,3.0,0.3,-4.5,48.7,-1.7,-1.9,-0.4,,,*74
$GPGSV,5,1,18,04,87,189,48,19,25,267,,02,16,162,28,17,18,238,25*74
$GPGSV,5,2,18,01,21,155,,31,28,052,22,06,40,307,45,03,57,088,41*78
$GPGSV,5,3,18,09,56,237,44,11,06,320,27,21,01,156,,26,05,078,*76
$GPGSV,5,4,18,28,09,034,31,07,07,184,,36,35,170,41,34,31,208,*75
$GPGSV,5,5,18,49,34,195,36,61,03,257,*76
$GLGSV,3,1,10,70,70,350,34,69,18,059,30,80,16,109,26,87,10,337,27*61
$GLGSV,3,2,10,79,23,055,38,71,38,267,47,85,48,208,49,86,49,305,40*6B
$GLGSV,3,3,10,84,05,174,,78,06,008,34*69
$GAGSV,3,1,11,09,82,076,46,11,25,155,27,04,30,055,43,18,19,267,*6B
$GAGSV,3,2,11,34,43,308,49,05,40,230,47,06,57,059,44,36,70,201,45*64
$GAGSV,3,3,11,23,02,065,,10,01,149,,21,02,018,*5C
$GBGSV,5,1,19,48,73,048,,46,16,133,,29,19,195,40,58,19,116,*6E
$GBGSV,5,2,19,39,21,040,33,05,23,128,34,22,19,265,35,44,23,312,43*68
$GBGSV,5,3,19,16,30,046,36,37,25,077,25,06,31,050,35,09,41,063,38*67
$GBGSV,5,4,19,35,42,260,46,20,51,066,46,19,71,292,39,12,08,330,28*6C
$GBGSV,5,5,19,02,07,106,,23,08,030,20,60,09,110,*56
$GPGGA,024512.00,,,,,0,00,,,M,,M,,*48
$PTNL,GGK,024512.00,010125,4742.4466325,N,01617.9730741,E,1,23,1.2,EHT667.0782,M*4D
$GPGGQ,024512.00,010125,4742.4466325,N,01617.9730741,E,1,23,4.055,623.8671,M*31
$GPGFA,024512.00,18.344,27.348,1.929,1.265,300.027,3.335,,VVV*00
$GPLLK,024512.00,010125,,M,,M,1,23,1.3,,M*08
$GNGMP,024512.00,,,,,DAAA,23,0.7,,,,*50
$GPGMP,024512.00,,,,,,04,,,,3.0,123*7A
$GLGMP,024512.00,,,,,,04,,,,,*7B
$GAGMP,024512.00,,,,,,06,,,,,*74
$GBGMP,024512.00,,,,,,09,,,,,*78
$PSSN,SNC,[0,269130000,2347]*4B
$GPZDA,024517.00,01,01,2025,,*66
$GPDTM,W84,,00.0000000,N,00.0000000,E,00.0000000,W84*5F
$GPRMC,024517.00,A,4742.4466420,N,01617.9730726,E,0.0,,010125,5.1,E,D*14
$GPGLL,4742.4466420,N,01617.9730726,E,024517.00,A,D*65
$GPGGA,024517.00,4742.4466420,N,01617.9730726,E,2,23,0.7,623.8650,M,43.2111,M,4.0,0123*42
$GNGNS,024517.00,4742.4466420,N,01617.9730726,E,DAAA,23,0.7,623.8650,43.2111,,*5A
$GPGNS,024517.00,,,,,,04,,,,4.0,123*78
$GLGNS,024517.00,,,,,,04,,,,,*7E
$GAGNS,024517.00,,,,,,06,,,,,*71
$GBGNS,024517.00,,,,,,09,,,,,*7D
$GPLLQ,024517.00,010125,,M,,M,1,23,4.025,,M*16
$GPVTG,,T,,M,0.00,N,0.01,K,D*27
$GPHDT,,T*1B
$GPTHS,,V*0E
$GPROT,,V*08
$PSSN,HRP,024517.00,010125,,,,,,,00,0,,*64
$PTNL,AVR,024517.00,,Yaw,,Tilt,,,,0,,00*32
$GPGSA,A,3,03,04,06,09,,,,,,,,,1.3,0.7,1.1*3F
$GPGSA,A,3,71,79,85,86,,,,,,,,,1.3,0.7,1.1*3C
$GPGSA,A,3,04,05,06,09,34,36,,,,,,,1.3,0.7,1.1*3B
$GPGSA,A,3,06,09,16,19,20,22,29,35,44,,,,1.3,0.7,1.1*38
$GPGST,024517.00,4.284,1.543,0.815,351.355,1.530,0.839,3.627*56
$GPGBS,024517.00,8.384,5.651,22.848,09,0.0001,1.154,0.655*61
$GPGRS,024517.00,1,0.0,-0.5,-1.1,1.2,,,,,,,,*4D
$GPGRS,024517.00,1,0.3,4.7,9.0,-6.3,,,,,,,,*6A
$GPGRS,024517.00,1,-1.0,1.7,-0.4,0.2,0.5,-0.3,,,,,,*61
$GPGRS,024517.00,1,10.1,0.1,3.0,1.3,-4.4,-2.7,-1.5,-1.8,0.4,,,*59
$GPGSV,5,1,18,04,87,189,48,19,25,267,,02,16,162,29,17,18,238,22*72
$GPGSV,5,2,18,01,21,155,,31,28,052,26,06,40,307,44,03,57,088,41*7D
$GPGSV,5,3,18,09,56,237,46,11,06,320,29,21,01,156,,26,05,078,*7A
$GPGSV,5,4,18,28,09,034,29,07,07,184,,36,35,170,41,34,31,208,*7C
$GPGSV,5,5,18,49,34,195,36,61,03,257,*76
$GLGSV,3,1,10,70,70,350,33,69,17,059,31,80,16,109,,87,11,337,26*6C
$GLGSV,3,2,10,79,23,055,37,71,38,267,48,85,48,207,49,86,49,305,39*6A
$GLGSV,3,3,10,84,05,174,,78,06,007,32*60
$GAGSV,3,1,11,09,82,076,46,11,25,156,27,04,30,055,42,18,19,266,*68
$GAGSV,3,2,11,34,43,308,49,05,40,230,47,06,57,059,44,36,70,201,45*64
$GAGSV,3,3,11,23,02,065,,10,01,149,,21,02,018,*5C
$GBGSV,5,1,19,48,73,048,,46,16,133,,29,19,195,40,58,19,116,*6E
$GBGSV,5,2,19,39,21,040,34,05,23,128,34,22,19,265,36,44,23,312,44*6B
$GBGSV,5,3,19,16,30,046,35,37,25,077,30,06,31,050,35,09,41,063,38*60
$GBGSV,5,4,19,35,42,260,46,20,51,066,46,19,71,292,40,12,08,330,27*6D
$GBGSV,5,5,19,02,07,106,,23,08,030,,60,09,110,*54
$GPGGA,024517.00,,,,,0,00,,,M,,M,,*4D
$PTNL,GGK,024517.00,010125,4742.4466420,N,01617.9730726,E,1,23,1.3,EHT667.0761,M*47
$GPGGQ,024517.00,010125,4742.4466420,N,01617.9730726,E,1,23,4.025,623.8650,M*33
$GPGFA,024517.00,14.668,29.738,1.543,0.815,351.355,3.627,,VVV*07
$GPLLK,024517.00,010125,,M,,M,1,23,1.5,,M*0B
$GNGMP,024517.00,,,,,DAAA,23,0.7,,,,*55
$GPGMP,024517.00,,,,,,04,,,,4.0,123*78
$GLGMP,024517.00,,,,,,04,,,,,*7E
$GAGMP,024517.00,,,,,,06,,,,,*71
$GBGMP,024517.00,,,,,,09,,,,,*7D
$PSSN,SNC,[0,269135000,2347]*4E
$GPZDA,024522.00,01,01,2025,,*60
$GPDTM,W84,,00.0000000,N,00.0000000,E,00.0000000,W84*5F
$GPRMC,024522.00,A,4742.4466499,N,01617.9730765,E,0.0,,010125,5.1,E,D*17
$GPGLL,4742.4466499,N,01617.9730765,E,024522.00,A,D*66
$GPGGA,024522.00,4742.4466499,N,01617.9730765,E,2,22,0.7,623.8666,M,43.2111,M,1.0,0123*40
$GNGNS,024522.00,4742.4466499,N,01617.9730765,E,DAAA,22,0.7,623.8666,43.2111,,*5D
$GPGNS,024522.00,,,,,,04,,,,1.0,123*7B
$GLGNS,024522.00,,,,,,04,,,,,*78
$GAGNS,024522.00,,,,,,06,,,,,*77
$GBGNS,024522.00,,,,,,08,,,,,*7A
$GPLLQ,024522.00,010125,,M,,M,1,22,3.357,,M*10
$GPVTG,,T,,M,0.01,N,0.01,K,D*26
$GPHDT,,T*1B
$GPTHS,,V*0E
$GPROT,,V*08
$PSSN,HRP,024522.00,010125,,,,,,,00,0,,*62
$PTNL,AVR,024522.00,,Yaw,,Tilt,,,,0,,00*34
$GPGSA,A,3,03,04,06,09,,,,,,,,,1.3,0.7,1.1*3F
$GPGSA,A,3,71,79,85,86,,,,,,,,,1.3,0.7,1.1*3C
$GPGSA,A,3,04,05,06,09,34,36,,,,,,,1.3,0.7,1.1*3B
$GPGSA,A,3,09,16,19,20,22,29,35,44,,,,,1.3,0.7,1.1*3E
$GPGST,024522.00,2.606,1.289,0.681,351.472,1.278,0.700,3.024*53
$GPGBS,024522.00,8.066,5.401,21.798,09,0.0001,1.175,0.603*6E
$GPGRS,024522.00,1,-0.3,-0.3,-0.7,1.2,,,,,,,,*64
$GPGRS,024522.00,1,1.4,4.1,4.5,-4.5,,,,,,,,*60
$GPGRS,024522.00,1,-1.1,1.6,-0.3,0.1,0.6,0.4,,,,,,*4A
$GPGRS,024522.00,1,0.7,1.9,2.2,-3.7,2.0,-2.2,-2.1,0.5,,,,*6F
$GPGSV,5,1,18,04,87,188,48,19,25,266,,02,16,163,32,17,18,238,24*7F
$GPGSV,5,2,18,01,21,155,,31,28,052,,06,40,307,43,03,57,088,30*78
$GPGSV,5,3,18,09,56,237,47,11,06,320,29,21,01,156,,26,05,078,*7B
$GPGSV,5,4,18,28,09,034,28,07,07,184,,36,35,170,41,34,31,208,*7D
$GPGSV,5,5,18,49,34,195,36,61,03,257,*76
$GLGSV,3,1,10,70,70,350,32,69,17,059,32,80,16,109,27,87,11,337,21*6C
$GLGSV,3,2,10,79,23,055,36,71,38,267,50,85,48,207,48,86,49,305,39*63
$GLGSV,3,3,10,84,05,174,,78,06,007,31*63
$GAGSV,3,1,11,09,82,075,46,11,25,156,28,04,30,055,41,18,19,266,*67
$GAGSV,3,2,11,34,43,308,49,05,40,230,47,06,57,059,44,36,70,201,45*64
$GAGSV,3,3,11,23,02,065,,10,01,149,,21,02,018,*5C
$GBGSV,5,1,19,48,73,048,,46,16,133,,29,19,195,38,58,19,116,*61
$GBGSV,5,2,19,39,21,040,34,05,23,128,34,22,19,265,37,44,23,312,44*6A
$GBGSV,5,3,19,16,30,046,35,37,25,077,30,06,31,050,34,09,41,063,39*60
$GBGSV,5,4,19,35,42,260,45,20,51,066,46,19,71,292,40,12,08,330,27*6E
$GBGSV,5,5,19,02,07,106,,23,08,030,23,60,09,110,*55
$GPGGA,024522.00,,,,,0,00,,,M,,M,,*4B
$PTNL,GGK,024522.00,010125,4742.4466499,N,01617.9730765,E,1,22,1.3,EHT667.0776,M*43
$GPGGQ,024522.00,010125,4742.4466499,N,01617.9730765,E,1,22,3.357,623.8666,M*35
$GPGFA,024522.00,12.252,24.797,1.289,0.681,351.472,3.024,,VVV*07
$GPLLK,024522.00,010125,,M,,M,1,22,1.5,,M*0C
$GNGMP,024522.00,,,,,DAAA,22,0.7,,,,*52
$GPGMP,024522.00,,,,,,04,,,,1.0,123*7B
$GLGMP,024522.00,,,,,,04,,,,,*78
$GAGMP,024522.00,,,,,,06,,,,,*77
$GBGMP,024522.00,,,,,,08,,,,,*7A
$PSSN,SNC,[0,269140000,2347]*4C
$GPZDA,024527.00,01,01,2025,,*65
$GPDTM,W84,,00.0000000,N,00.0000000,E,00.0000000,W84*5F
$GPRMC,024527.00,A,4742.4466570,N,01617.9730788,E,0.0,,010125,5.1,E,D*17
$GPGLL,4742.4466570,N,01617.9730788,E,024527.00,A,D*66
$GPGGA,024527.00,4742.4466570,N,01617.9730788,E,2,22,0.7,623.8697,M,43.2111,M,2.0,0123*4D
$GNGNS,024527.00,4742.4466570,N,01617.9730788,E,DAAA,22,0.7,623.8697,43.2111,,*53
$GPGNS,024527.00,,,,,,04,,,,2.0,123*7D
$GLGNS,024527.00,,,,,,04,,,,,*7D
$GAGNS,024527.00,,,,,,06,,,,,*72
$GBGNS,024527.00,,,,,,08,,,,,*7F
$GPLLQ,024527.00,010125,,M,,M,1,22,2.713,,M*10
$GPVTG,,T,,M,0.00,N,0.01,K,D*27
$GPHDT,,T*1B
$GPTHS,,V*0E
$GPROT,,V*08
$PSSN,HRP,024527.00,010125,,,,,,,00,0,,*67
$PTNL,AVR,024527.00,,Yaw,,Tilt,,,,0,,00*31
$GPGSA,A,3,03,04,06,09,,,,,,,,,1.2,0.7,1.0*3F
$GPGSA,A,3,71,79,85,86,,,,,,,,,1.2,0.7,1.0*3C
$GPGSA,A,3,04,05,06,09,34,36,,,,,,,1.2,0.7,1.0*3B
$GPGSA,A,3,09,19,20,22,23,29,35,44,,,,,1.2,0.7,1.0*38
$GPGST,024527.00,7.408,1.045,0.553,351.717,1.037,0.567,2.442*5E
$GPGBS,024527.00,8.216,5.510,22.066,09,0.0001,0.952,0.618*6C
$GPGRS,024527.00,1,-0.3,-0.2,-0.6,1.0,,,,,,,,*63
$GPGRS,024527.00,1,2.4,1.8,-1.1,-3.5,,,,,,,,*41
$GPGRS,024527.00,1,-1.7,1.1,-0.1,-0.3,0.3,0.3,,,,,,*61
$GPGRS,024527.00,1,0.2,0.9,-3.0,5.8,27.1,-2.9,-3.0,-0.5,,,,*74
$GPGSV,5,1,18,04,87,188,49,19,25,266,41,02,16,163,32,17,18,238,32*7C
$GPGSV,5,2,18,01,21,155,,31,28,052,36,06,40,307,42,03,57,088,40*7B
$GPGSV,5,3,18,09,57,237,48,11,06,320,32,21,01,156,,26,05,078,*7F
$GPGSV,5,4,18,28,09,034,24,07,07,184,,36,35,170,41,34,31,208,*71
$GPGSV,5,5,18,49,34,195,36,61,03,257,*76
$GLGSV,3,1,10,70,70,350,33,69,17,059,30,80,16,109,25,87,11,337,21*6D
$GLGSV,3,2,10,79,23,055,35,71,38,267,51,85,48,207,46,86,49,305,42*63
$GLGSV,3,3,10,84,05,174,,78,06,007,29*6A
$GAGSV,3,1,11,09,82,075,45,11,25,156,30,04,30,055,40,18,19,266,*6C
$GAGSV,3,2,11,34,43,308,49,05,40,230,47,06,57,059,44,36,70,201,45*64
$GAGSV,3,3,11,23,02,065,,10,01,149,,21,02,018,*5C
$GBGSV,5,1,19,48,73,048,,46,16,133,,29,19,195,37,58,19,116,*6E
$GBGSV,5,2,19,39,21,040,34,05,23,128,34,22,19,265,38,44,23,312,43*62
$GBGSV,5,3,19,16,30,046,35,37,25,077,31,06,31,050,34,09,41,063,38*60
$GBGSV,5,4,19,35,42,260,45,20,51,066,45,19,71,292,39,12,08,330,31*64
$GBGSV,5,5,19,02,07,106,,23,08,030,26,60,09,110,*50
$GPGGA,024527.00,,,,,0,00,,,M,,M,,*4E
$PTNL,GGK,024527.00,010125,4742.4466570,N,01617.9730788,E,1,22,1.2,EHT667.0808,M*44
$GPGGQ,024527.00,010125,4742.4466570,N,01617.9730788,E,1,22,2.713,623.8697,M*3E
$GPGFA,024527.00,9.934,20.021,1.045,0.553,351.717,2.442,,VVV*36
$GPLLK,024527.00,010125,,M,,M,1,22,1.4,,M*08
$GNGMP,024527.00,,,,,DAAA,22,0.7,,,,*57
$GPGMP,024527.00,,,,,,04,,,,2.0,123*7D
$GLGMP,024527.00,,,,,,04,,,,,*7D
$GAGMP,024527.00,,,,,,06,,,,,*72
$GBGMP,024527.00,,,,,,08,,,,,*7F
$PSSN,SNC,[0,269145000,2347]*49
$GPZDA,024532.00,01,01,2025,,*61
$GPDTM,W84,,00.0000000,N,00.0000000,E,00.0000000,W84*5F
$GPRMC,024532.00,A,4742.4466598,N,01617.9730806,E,0.0,,010125,5.1,E,D*1C
$GPGLL,4742.4466598,N,01617.9730806,E,024532.00,A,D*6D
$GPGGA,024532.00,4742.4466598,N,01617.9730806,E,2,22,0.7,623.8653,M,43.2111,M,2.8,0123*46
$GNGNS,024532.00,4742.4466598,N,01617.9730806,E,DAAA,22,0.7,623.8653,43.2111,,*50
$GPGNS,024532.00,,,,,,05,,,,2.8,123*70
$GLGNS,024532.00,,,,,,04,,,,,*79
$GAGNS,024532.00,,,,,,06,,,,,*76
$GBGNS,024532.00,,,,,,07,,,,,*74
$GPLLQ,024532.00,010125,,M,,M,1,22,1.887,,M*15
$GPVTG,,T,,M,0.00,N,0.00,K,D*26
$GPHDT,,T*1B
$GPTHS,,V*0E
$GPROT,,V*08
$PSSN,HRP,024532.00,010125,,,,,,,00,0,,*63
$PTNL,AVR,024532.00,,Yaw,,Tilt,,,,0,,00*35
$GPGSA,A,3,03,04,06,09,19,,,,,,,,1.3,0.7,1.1*37
$GPGSA,A,3,71,79,85,86,,,,,,,,,1.3,0.7,1.1*3C
$GPGSA,A,3,04,05,06,09,34,36,,,,,,,1.3,0.7,1.1*3B
$GPGSA,A,3,09,19,20,22,29,35,44,,,,,,1.3,0.7,1.1*39
$GPGST,024532.00,2.496,0.891,0.540,347.940,0.879,0.560,1.573*55
$GPGBS,024532.00,7.893,5.566,11.049,09,0.0001,0.542,0.638*63
$GPGRS,024532.00,1,0.1,0.0,0.1,0.5,-0.2,,,,,,,*48
$GPGRS,024532.00,1,3.4,1.0,-0.7,-3.5,,,,,,,,*4B
$GPGRS,024532.00,1,-0.9,0.7,0.4,-0.4,0.3,0.3,,,,,,*42
$GPGRS,024532.00,1,-0.0,-0.0,-2.0,6.0,-3.9,-3.3,-0.6,,,,,*6A
$GPGSV,5,1,18,04,88,187,49,19,25,266,40,02,16,163,32,17,18,238,34*7B
$GPGSV,5,2,18,01,21,155,,31,28,052,36,06,40,307,42,03,57,088,39*75
$GPGSV,5,3,18,09,57,237,48,11,06,320,33,21,01,156,,26,05,078,*7E
$GPGSV,5,4,18,28,09,034,,07,07,184,,36,35,170,41,34,31,208,*77
$GPGSV,5,5,18,49,34,195,36,61,03,257,*76
$GLGSV,3,1,10,70,70,350,35,69,17,059,33,80,16,109,21,87,11,337,26*6B
$GLGSV,3,2,10,79,23,055,35,71,38,267,50,85,48,207,46,86,49,305,42*62
$GLGSV,3,3,10,84,05,174,,78,06,007,32*60
$GAGSV,3,1,11,09,82,075,45,11,25,156,32,04,30,055,40,18,19,266,*6E
$GAGSV,3,2,11,34,43,308,49,05,40,230,46,06,57,059,45,36,70,201,46*67
$GAGSV,3,3,11,23,02,065,,10,00,149,,21,02,018,*5D
$GBGSV,5,1,19,48,73,049,,46,16,133,,29,19,195,35,58,19,116,*6D
$GBGSV,5,2,19,39,21,040,34,05,23,128,34,22,19,265,38,44,23,312,43*62
$GBGSV,5,3,19,16,30,046,34,37,25,077,33,06,31,050,34,09,41,063,39*62
$GBGSV,5,4,19,35,42,259,45,20,51,066,45,19,71,292,38,12,08,330,27*68
$GBGSV,5,5,19,02,07,106,,23,08,030,25,60,09,110,*53
$GPGGA,024532.00,,,,,0,00,,,M,,M,,*4A
$PTNL,GGK,024532.00,010125,4742.4466598,N,01617.9730806,E,1,22,1.3,EHT667.0764,M*4B
$GPGGQ,024532.00,010125,4742.4466598,N,01617.9730806,E,1,22,1.887,623.8653,M*3C
$GPGFA,024532.00,8.473,12.898,0.891,0.540,347.940,1.573,,VVV*3F
$GPLLK,024532.00,010125,,M,,M,1,22,1.5,,M*0D
$GNGMP,024532.00,,,,,DAAA,22,0.7,,,,*53
$GPGMP,024532.00,,,,,,05,,,,2.8,123*70
$GLGMP,024532.00,,,,,,04,,,,,*79
$GAGMP,024532.00,,,,,,06,,,,,*76
$GBGMP,024532.00,,,,,,07,,,,,*74
$PSSN,SNC,[0,269150000,2347]*4D
$GPZDA,024537.00,01,01,2025,,*64
$GPDTM,W84,,00.0000000,N,00.0000000,E,00.0000000,W84*5F
$GPRMC,024537.00,A,4742.4466577,N,01617.9730906,E,0.0,,010125,5.1,E,D*19
$GPGLL,4742.4466577,N,01617.9730906,E,024537.00,A,D*68
$GPGGA,024537.00,4742.4466577,N,01617.9730906,E,2,22,0.9,623.8718,M,43.2111,M,3.8,0123*42
$GNGNS,024537.00,4742.4466577,N,01617.9730906,E,DAAA,22,0.9,623.8718,43.2111,,*55
$GPGNS,024537.00,,,,,,05,,,,3.8,123*74
$GLGNS,024537.00,,,,,,04,,,,,*7C
$GAGNS,024537.00,,,,,,06,,,,,*73
$GBGNS,024537.00,,,,,,07,,,,,*71
$GPLLQ,024537.00,010125,,M,,M,1,22,2.211,,M*16
$GPVTG,,T,,M,0.00,N,0.01,K,D*27
$GPHDT,,T*1B
$GPTHS,,V*0E
$GPROT,,V*08
$PSSN,HRP,024537.00,010125,,,,,,,00,0,,*66
$PTNL,AVR,024537.00,,Yaw,,Tilt,,,,0,,00*30
$GPGSA,A,3,03,04,06,09,19,,,,,,,,1.4,0.9,1.1*3E
$GPGSA,A,3,70,71,85,86,,,,,,,,,1.4,0.9,1.1*3C
$GPGSA,A,3,04,05,06,09,34,36,,,,,,,1.4,0.9,1.1*32
$GPGSA,A,3,09,19,20,22,23,35,44,,,,,,1.4,0.9,1.1*3A
$GPGST,024537.00,6.960,1.047,0.634,347.937,1.032,0.657,1.842*5C
$GPGBS,024537.00,8.271,5.947,11.609,03,0.0001,-1.017,0.681*43
$GPGRS,024537.00,1,-1.0,-0.3,0.9,-0.2,1.1,,,,,,,*43
$GPGRS,024537.00,1,-1.6,1.8,0.7,-5.0,,,,,,,,*45
$GPGRS,024537.00,1,-0.1,0.3,0.3,-0.3,0.1,0.5,,,,,,*4F
$GPGRS,024537.00,1,-0.2,-1.0,-1.2,5.3,25.5,-3.3,0.6,,,,,*55
$GPGSV,5,1,18,04,88,187,48,19,25,266,39,02,16,163,33,17,18,238,29*79
$GPGSV,5,2,18,01,21,155,,31,28,052,35,06,40,307,43,03,57,088,38*76
$GPGSV,5,3,18,09,57,237,48,11,06,320,34,21,01,156,,26,05,078,*79
$GPGSV,5,4,18,28,09,034,22,07,07,184,,36,35,170,41,34,31,208,*77
$GPGSV,5,5,18,49,34,195,36,61,03,257,*76
$GLGSV,3,1,10,70,70,350,35,69,17,059,31,80,16,109,,87,11,337,30*6D
$GLGSV,3,2,10,79,23,055,34,71,38,267,49,85,47,207,47,86,49,304,43*65
$GLGSV,3,3,10,84,05,174,,78,06,007,28*6B
$GAGSV,3,1,11,09,82,075,45,11,25,156,33,04,30,055,40,18,19,266,*6F
$GAGSV,3,2,11,34,43,308,49,05,40,230,46,06,56,059,45,36,70,200,46*67
$GAGSV,3,3,11,23,02,064,,10,00,149,,21,02,018,*5C
$GBGSV,5,1,19,48,73,049,,46,16,133,,29,19,195,33,58,19,116,*6B
$GBGSV,5,2,19,39,21,040,33,05,23,128,35,22,19,265,39,44,23,312,44*62
$GBGSV,5,3,19,16,30,046,34,37,25,077,34,06,31,050,32,09,41,063,38*62
$GBGSV,5,4,19,35,42,259,46,20,51,066,46,19,71,292,39,12,08,330,27*69
$GBGSV,5,5,19,02,07,106,,23,08,030,23,60,09,110,*55
$GPGGA,024537.00,,,,,0,00,,,M,,M,,*4F
$PTNL,GGK,024537.00,010125,4742.4466577,N,01617.9730906,E,1,22,1.4,EHT667.0829,M*4F
$GPGGQ,024537.00,010125,4742.4466577,N,01617.9730906,E,1,22,2.211,623.8718,M*31
$GPGFA,024537.00,9.951,15.104,1.047,0.634,347.937,1.842,,VVV*30
$GPLLK,024537.00,010125,,M,,M,1,22,1.7,,M*0A
$GNGMP,024537.00,,,,,DAAA,22,0.9,,,,*58
$GPGMP,024537.00,,,,,,05,,,,3.8,123*74
$GLGMP,024537.00,,,,,,04,,,,,*7C
$GAGMP,024537.00,,,,,,06,,,,,*73
$GBGMP,024537.00,,,,,,07,,,,,*71
$PSSN,SNC,[0,269155000,2347]*48
$GPZDA,024542.00,01,01,2025,,*66
$GPDTM,W84,,00.0000000,N,00.0000000,E,00.0000000,W84*5F
$GPRMC,024542.00,A,4742.4466515,N,01617.9731084,E,0.0,,010125,5.1,E,D*1D
$GPGLL,4742.4466515,N,01617.9731084,E,024542.00,A,D*6C
$GPGGA,024542.00,4742.4466515,N,01617.9731084,E,2,23,0.8,623.8829,M,43.2111,M,1.5,0123*44
$GNGNS,024542.00,4742.4466515,N,01617.9731084,E,DAAA,23,0.8,623.8829,43.2111,,*5C
$GPGNS,024542.00,,,,,,06,,,,1.5,123*7A
$GLGNS,024542.00,,,,,,04,,,,,*7E
$GAGNS,024542.00,,,,,,06,,,,,*71
$GBGNS,024542.00,,,,,,07,,,,,*73
$GPLLQ,024542.00,010125,,M,,M,1,23,2.357,,M*16
$GPVTG,,T,,M,0.01,N,0.02,K,D*25
$GPHDT,,T*1B
$GPTHS,,V*0E
$GPROT,,V*08
$PSSN,HRP,024542.00,010125,,,,,,,00,0,,*64
$PTNL,AVR,024542.00,,Yaw,,Tilt,,,,0,,00*32
$GPGSA,A,3,03,04,06,09,11,19,,,,,,,1.3,0.8,1.1*38
$GPGSA,A,3,70,71,85,86,,,,,,,,,1.3,0.8,1.1*3A
$GPGSA,A,3,04,05,06,09,34,36,,,,,,,1.3,0.8,1.1*34
$GPGSA,A,3,09,19,20,22,35,37,44,,,,,,1.3,0.8,1.1*39
$GPGST,024542.00,2.850,1.177,0.695,345.755,1.154,0.733,1.920*5E
$GPGBS,024542.00,7.106,5.236,9.446,11,0.0001,3.257,1.976*5C
$GPGRS,024542.00,1,-0.8,-0.2,0.8,-0.0,3.3,0.2,,,,,,*66
$GPGRS,024542.00,1,-1.8,-1.1,2.2,-5.1,,,,,,,,*6B
$GPGRS,024542.00,1,0.3,0.2,-0.3,-0.1,0.1,0.7,,,,,,*4E
$GPGRS,024542.00,1,-0.8,-2.6,-1.0,6.1,-4.2,4.3,0.5,,,,,*6B
$GPGSV,5,1,18,04,88,186,48,19,25,266,38,02,16,163,33,17,18,238,36*77
$GPGSV,5,2,18,01,21,155,,31,28,052,27,06,40,307,43,03,57,088,38*75
$GPGSV,5,3,18,09,57,237,47,11,06,320,35,21,01,156,,26,05,078,*77
$GPGSV,5,4,18,28,09,034,20,07,07,184,,36,35,170,41,34,31,208,*75
$GPGSV,5,5,18,49,34,195,37,61,03,257,*77
$GLGSV,3,1,10,70,70,351,36,69,17,059,32,80,16,109,,87,11,337,35*69
$GLGSV,3,2,10,79,23,055,28,71,38,267,47,85,47,207,47,86,49,304,45*60
$GLGSV,3,3,10,84,05,174,,78,06,007,28*6B
$GAGSV,3,1,11,09,82,075,45,11,25,156,34,04,30,055,38,18,19,266,*67
$GAGSV,3,2,11,34,43,308,49,05,40,230,45,06,56,059,45,36,70,200,47*65
$GAGSV,3,3,11,23,02,064,,10,00,149,,21,02,018,*5C
$GBGSV,5,1,19,48,73,049,,46,16,133,,29,19,195,28,58,19,116,*61
$GBGSV,5,2,19,39,21,040,30,05,23,128,34,22,19,265,40,44,23,312,43*69
$GBGSV,5,3,19,16,30,046,33,37,25,077,37,06,31,050,35,09,41,063,39*60
$GBGSV,5,4,19,35,42,259,44,20,51,066,47,19,71,292,40,12,08,330,25*66
$GBGSV,5,5,19,02,07,106,,23,08,030,,60,09,110,*54
$GPGGA,024542.00,,,,,0,00,,,M,,M,,*4D
$PTNL,GGK,024542.00,010125,4742.4466515,N,01617.9731084,E,1,23,1.3,EHT667.0939,M*4D
$GPGGQ,024542.00,010125,4742.4466515,N,01617.9731084,E,1,23,2.357,623.8829,M*3A
$GPGFA,024542.00,11.190,15.747,1.177,0.695,345.755,1.920,,VVV*0B
$GPLLK,024542.00,010125,,M,,M,1,23,1.6,,M*08
$GNGMP,024542.00,,,,,DAAA,23,0.8,,,,*5A
$GPGMP,024542.00,,,,,,06,,,,1.5,123*7A
$GLGMP,024542.00,,,,,,04,,,,,*7E
$GAGMP,024542.00,,,,,,06,,,,,*71
$GBGMP,024542.00,,,,,,07,,,,,*73
$PSSN,SNC,[0,269160000,2347]*4E
$GPZDA,024547.00,01,01,2025,,*63
$GPDTM,W84,,00.0000000,N,00.0000000,E,00.0000000,W84*5F
$GPRMC,024547.00,A,4742.4466484,N,01617.9731098,E,0.0,,010125,5.1,E,D*1C
$GPGLL,4742.4466484,N,01617.9731098,E,024547.00,A,D*6D
$GPGGA,024547.00,4742.4466484,N,01617.9731098,E,2,22,0.8,623.8955,M,43.2111,M,1.8,0123*43
$GNGNS,024547.00,4742.4466484,N,01617.9731098,E,DAAA,22,0.8,623.8955,43.2111,,*56
$GPGNS,024547.00,,,,,,05,,,,1.8,123*71
$GLGNS,024547.00,,,,,,03,,,,,*7C
$GAGNS,024547.00,,,,,,06,,,,,*74
$GBGNS,024547.00,,,,,,08,,,,,*79
$GPLLQ,024547.00,010125,,M,,M,1,22,3.278,,M*1F
$GPVTG,,T,,M,0.01,N,0.01,K,D*26
$GPHDT,,T*1B
$GPTHS,,V*0E
$GPROT,,V*08
$PSSN,HRP,024547.00,010125,,,,,,,00,0,,*61
$PTNL,AVR,024547.00,,Yaw,,Tilt,,,,0,,00*37
$GPGSA,A,3,04,06,09,11,19,,,,,,,,1.3,0.8,1.1*3B
$GPGSA,A,3,71,85,86,,,,,,,,,,1.3,0.8,1.1*3D
$GPGSA,A,3,04,05,06,09,34,36,,,,,,,1.3,0.8,1.1*34
$GPGSA,A,3,09,19,20,22,23,35,37,44,,,,,1.3,0.8,1.1*38
$GPGST,024547.00,8.104,1.740,0.949,292.558,1.101,1.647,2.611*5C
$GPGBS,024547.00,8.612,8.172,15.338,11,0.0001,2.639,1.975*67
$GPGRS,024547.00,1,-0.0,-0.5,-0.2,2.6,0.4,,,,,,,*4A
$GPGRS,024547.00,1,-2.3,1.8,-4.2,,,,,,,,,*6E
$GPGRS,024547.00,1,0.7,-0.0,-0.3,-0.1,-0.1,0.5,,,,,,*4F
$GPGRS,024547.00,1,-0.7,-2.5,-1.4,5.9,28.4,-5.3,8.4,-0.5,,,,*5B
$GPGSV,5,1,18,04,88,186,48,19,25,266,38,02,16,163,34,17,18,238,35*73
$GPGSV,5,2,18,01,21,155,,31,28,052,29,06,40,307,43,03,57,089,37*75
$GPGSV,5,3,18,09,57,237,46,11,06,320,38,21,01,156,,26,05,078,*7B
$GPGSV,5,4,18,28,09,034,22,07,07,184,,36,35,170,41,34,31,208,*77
$GPGSV,5,5,18,49,34,195,38,61,03,257,*78
$GLGSV,3,1,10,70,70,351,35,69,17,059,32,80,16,109,,87,11,337,34*6B
$GLGSV,3,2,10,79,23,055,32,71,38,267,47,85,47,207,46,86,49,304,44*6B
$GLGSV,3,3,10,84,05,174,,78,06,007,33*61
$GAGSV,3,1,11,09,82,075,45,11,25,156,34,04,30,055,39,18,19,266,*66
$GAGSV,3,2,11,34,43,308,49,05,40,230,44,06,56,059,46,36,70,200,47*67
$GAGSV,3,3,11,23,02,064,,10,00,149,,21,02,018,*5C
$GBGSV,5,1,19,48,73,049,,46,16,133,,29,19,195,29,58,20,116,*6A
$GBGSV,5,2,19,39,21,040,29,05,23,128,35,22,19,265,39,44,23,312,43*6E
$GBGSV,5,3,19,16,30,046,33,37,25,077,36,06,31,050,32,09,41,063,38*67
$GBGSV,5,4,19,35,42,259,43,20,51,066,47,19,71,292,41,12,08,330,28*6D
$GBGSV,5,5,19,02,07,106,,23,08,030,20,60,09,110,*56
$GPGGA,024547.00,,,,,0,00,,,M,,M,,*48
$PTNL,GGK,024547.00,010125,4742.4466484,N,01617.9731098,E,1,22,1.3,EHT667.1066,M*4F
$GPGGQ,024547.00,010125,4742.4466484,N,01617.9731098,E,1,22,3.278,623.8955,M*3D
$GPGFA,024547.00,16.542,21.411,1.740,0.949,292.558,2.611,,VVV*03
$GPLLK,024547.00,010125,,M,,M,1,22,1.5,,M*0F
$GNGMP,024547.00,,,,,DAAA,22,0.8,,,,*5E
$GPGMP,024547.00,,,,,,05,,,,1.8,123*71
$GLGMP,024547.00,,,,,,03,,,,,*7C
$GAGMP,024547.00,,,,,,06,,,,,*74
$GBGMP,024547.00,,,,,,08,,,,,*79
$PSSN,SNC,[0,269165000,2347]*4B
$GPZDA,024552.00,01,01,2025,,*67
$GPDTM,W84,,00.0000000,N,00.0000000,E,00.0000000,W84*5F
$GPRMC,024552.00,A,4742.4466506,N,01617.9731163,E,0.0,,010125,5.1,E,D*16
$GPGLL,4742.4466506,N,01617.9731163,E,024552.00,A,D*67
$GPGGA,024552.00,4742.4466506,N,01617.9731163,E,2,23,0.8,623.9008,M,43.2111,M,2.8,0123*4B
$GNGNS,024552.00,4742.4466506,N,01617.9731163,E,DAAA,23,0.8,623.9008,43.2111,,*5D
$GPGNS,024552.00,,,,,,06,,,,2.8,123*75
$GLGNS,024552.00,,,,,,04,,,,,*7F
$GAGNS,024552.00,,,,,,06,,,,,*70
$GBGNS,024552.00,,,,,,07,,,,,*72
$GPLLQ,024552.00,010125,,M,,M,1,23,2.365,,M*16
$GPVTG,,T,,M,0.00,N,0.01,K,D*27
$GPHDT,,T*1B
$GPTHS,,V*0E
$GPROT,,V*08
$PSSN,HRP,024552.00,010125,,,,,,,00,0,,*65
$PTNL,AVR,024552.00,,Yaw,,Tilt,,,,0,,00*33
$GPGSA,A,3,03,04,06,09,11,19,,,,,,,1.3,0.8,1.1*38
$GPGSA,A,3,70,71,85,86,,,,,,,,,1.3,0.8,1.1*3A
$GPGSA,A,3,04,05,06,09,34,36,,,,,,,1.3,0.8,1.1*34
$GPGSA,A,3,09,19,20,22,35,37,44,,,,,,1.3,0.8,1.1*39
$GPGST,024552.00,4.211,1.188,0.700,345.864,1.164,0.738,1.922*5C
$GPGBS,024552.00,7.334,5.375,9.306,03,0.0001,1.133,0.660*52
$GPGRS,024552.00,1,1.1,0.2,-0.8,-0.0,2.7,0.2,,,,,,*47
$GPGRS,024552.00,1,-3.0,-3.2,2.1,-4.6,,,,,,,,*64
$GPGRS,024552.00,1,1.0,0.3,-0.2,-0.5,0.1,0.5,,,,,,*4B
$GPGRS,024552.00,1,-0.2,-3.0,-1.8,5.8,-4.4,12.7,0.1,,,,,*54
$GPGSV,5,1,18,04,88,185,48,19,25,266,39,02,16,163,35,17,18,238,32*77
$GPGSV,5,2,18,01,21,155,,31,28,052,24,06,40,307,43,03,57,089,41*79
$GPGSV,5,3,18,09,57,237,46,11,06,320,39,21,01,156,,26,05,078,*7A
$GPGSV,5,4,18,28,09,034,,07,07,184,,36,35,170,41,34,31,208,*77
$GPGSV,5,5,18,49,34,195,37,61,03,257,*77
$GLGSV,3,1,10,70,70,351,36,69,17,059,26,80,16,109,,87,11,337,32*6B
$GLGSV,3,2,10,79,23,055,26,71,38,267,44,85,47,207,46,86,49,304,44*6D
$GLGSV,3,3,10,84,05,174,,78,06,007,31*63
$GAGSV,3,1,11,09,82,075,44,11,25,156,35,04,30,055,39,18,19,266,*66
$GAGSV,3,2,11,34,43,308,49,05,40,230,44,06,56,059,45,36,69,200,47*6C
$GAGSV,3,3,11,23,03,064,,10,00,149,,21,02,018,*5D
$GBGSV,5,1,19,48,73,049,,46,16,133,,29,19,195,30,58,20,115,*61
$GBGSV,5,2,19,39,21,040,27,05,23,128,35,22,19,265,40,44,23,312,43*6E
$GBGSV,5,3,19,16,30,046,31,37,25,077,36,06,31,050,33,09,41,063,39*65
$GBGSV,5,4,19,35,42,259,43,20,51,066,48,19,71,292,43,12,08,330,26*6E
$GBGSV,5,5,19,02,07,106,,23,08,029,,60,09,110,*5C
$GPGGA,024552.00,,,,,0,00,,,M,,M,,*4C
$PTNL,GGK,024552.00,010125,4742.4466506,N,01617.9731163,E,1,23,1.3,EHT667.1118,M*4C
$GPGGQ,024552.00,010125,4742.4466506,N,01617.9731163,E,1,23,2.365,623.9008,M*3A
$GPGFA,024552.00,11.291,15.756,1.188,0.700,345.864,1.922,,VVV*0A
$GPLLK,024552.00,010125,,M,,M,1,23,1.6,,M*09
$GNGMP,024552.00,,,,,DAAA,23,0.8,,,,*5B
$GPGMP,024552.00,,,,,,06,,,,2.8,123*75
$GLGMP,024552.00,,,,,,04,,,,,*7F
$GAGMP,024552.00,,,,,,06,,,,,*70
$GBGMP,024552.00,,,,,,07,,,,,*72
$PSSN,SNC,[0,269170000,2347]*4F
$GPZDA,024557.00,01,01,2025,,*62
$GPDTM,W84,,00.0000000,N,00.0000000,E,00.0000000,W84*5F
$GPRMC,024557.00,A,4742.4466540,N,01617.9731011,E,0.0,,010125,5.1,E,D*15
$GPGLL,4742.4466540,N,01617.9731011,E,024557.00,A,D*64
$GPGGA,024557.00,4742.4466540,N,01617.9731011,E,2,21,0.9,623.9117,M,43.2111,M,3.8,0123*45
$GNGNS,024557.00,4742.4466540,N,01617.9731011,E,DAAA,21,0.9,623.9117,43.2111,,*52
$GPGNS,024557.00,,,,,,05,,,,3.8,123*72
$GLGNS,024557.00,,,,,,04,,,,,*7A
$GAGNS,024557.00,,,,,,06,,,,,*75
$GBGNS,024557.00,,,,,,06,,,,,*76
$GPLLQ,024557.00,010125,,M,,M,1,21,3.593,,M*1F
$GPVTG,,T,,M,0.01,N,0.01,K,D*26
$GPHDT,,T*1B
$GPTHS,,V*0E
$GPROT,,V*08
$PSSN,HRP,024557.00,010125,,,,,,,00,0,,*60
$PTNL,AVR,024557.00,,Yaw,,Tilt,,,,0,,00*36
$GPGSA,A,3,04,06,09,11,19,,,,,,,,1.5,0.9,1.2*3F
$GPGSA,A,3,70,71,85,86,,,,,,,,,1.5,0.9,1.2*3E
$GPGSA,A,3,04,05,06,09,34,36,,,,,,,1.5,0.9,1.2*30
$GPGSA,A,3,09,19,20,22,35,44,,,,,,,1.5,0.9,1.2*39
$GPGST,024557.00,2.759,1.935,0.982,292.304,1.168,1.828,2.864*59
$GPGBS,024557.00,9.098,9.204,16.874,11,0.0001,2.905,1.981*6B
$GPGRS,024557.00,1,0.5,-0.7,-0.1,2.9,0.1,,,,,,,*68
$GPGRS,024557.00,1,-3.2,-2.8,1.9,-4.1,,,,,,,,*64
$GPGRS,024557.00,1,0.9,0.7,0.1,-0.5,0.4,0.7,,,,,,*6B
$GPGRS,024557.00,1,-0.7,-2.1,-0.7,6.4,-3.0,-1.1,,,,,,*60
$GPGSV,5,1,18,04,88,185,48,19,25,266,40,02,16,163,35,17,18,238,30*7B
$GPGSV,5,2,18,01,21,155,,31,28,052,27,06,40,307,44,03,57,089,40*7C
$GPGSV,5,3,18,09,57,237,46,11,06,320,39,21,01,156,,26,05,078,*7A
$GPGSV,5,4,18,28,09,034,24,07,07,184,,36,35,170,41,34,31,208,*71
$GPGSV,5,5,18,49,34,195,37,61,03,257,*77
$GLGSV,3,1,10,70,70,351,36,69,17,059,20,80,16,109,27,87,11,337,*69
$GLGSV,3,2,10,79,23,055,27,71,38,267,41,85,47,207,46,86,49,304,46*6B
$GLGSV,3,3,10,84,05,174,,78,06,007,29*6A
$GAGSV,3,1,11,09,82,074,45,11,25,156,35,04,30,055,40,18,19,266,*68
$GAGSV,3,2,11,34,43,308,49,05,40,230,44,06,56,059,45,36,69,200,48*63
$GAGSV,3,3,11,23,03,064,,10,00,149,,21,02,018,*5D
$GBGSV,5,1,19,48,73,049,,46,16,133,,29,19,195,29,58,20,115,*69
$GBGSV,5,2,19,39,21,040,32,05,23,128,33,22,19,265,38,44,23,312,43*63
$GBGSV,5,3,19,16,30,046,30,37,25,077,34,06,31,050,34,09,41,063,39*61
$GBGSV,5,4,19,35,42,259,43,20,51,066,50,19,71,292,43,12,08,330,28*69
$GBGSV,5,5,19,02,07,106,,23,08,029,27,60,09,110,*59
$GPGGA,024557.00,,,,,0,00,,,M,,M,,*49
$PTNL,GGK,024557.00,010125,4742.4466540,N,01617.9731011,E,1,21,1.5,EHT667.1227,M*44
$GPGGQ,024557.00,010125,4742.4466540,N,01617.9731011,E,1,21,3.593,623.9117,M*3A
$GPGFA,024557.00,18.393,23.486,1.935,0.982,292.304,2.864,,VVV*02
$GPLLK,024557.00,010125,,M,,M,1,21,1.8,,M*00
$GNGMP,024557.00,,,,,DAAA,21,0.9,,,,*5D
$GPGMP,024557.00,,,,,,05,,,,3.8,123*72
$GLGMP,024557.00,,,,,,04,,,,,*7A
$GAGMP,024557.00,,,,,,06,,,,,*75
$GBGMP,024557.00,,,,,,06,,,,,*76
$PSSN,SNC,[0,269175000,2347]*4A
$GPZDA,024602.00,01,01,2025,,*61
$GPDTM,W84,,00.0000000,N,00.0000000,E,00.0000000,W84*5F
$GPRMC,024602.00,A,4742.4466564,N,01617.9730983,E,0.0,,010125,5.1,E,D*13
$GPGLL,4742.4466564,N,01617.9730983,E,024602.00,A,D*62
$GPGGA,024602.00,4742.4466564,N,01617.9730983,E,2,23,0.7,623.9137,M,43.2111,M,1.5,0123*42
$GNGNS,024602.00,4742.4466564,N,01617.9730983,E,DAAA,23,0.7,623.9137,43.2111,,*5A
$GPGNS,024602.00,,,,,,06,,,,1.5,123*7D
$GLGNS,024602.00,,,,,,04,,,,,*79
$GAGNS,024602.00,,,,,,06,,,,,*76
$GBGNS,024602.00,,,,,,07,,,,,*74
$GPLLQ,024602.00,010125,,M,,M,1,23,1.374,,M*13
$GPVTG,,T,,M,0.00,N,0.01,K,D*27
$GPHDT,,T*1B
$GPTHS,,V*0E
$GPROT,,V*08
$PSSN,HRP,024602.00,010125,,,,,,,00,0,,*63
$PTNL,AVR,024602.00,,Yaw,,Tilt,,,,0,,00*35
$GPGSA,A,3,02,04,06,09,11,19,,,,,,,1.1,0.7,0.8*3C
$GPGSA,A,3,70,71,85,86,,,,,,,,,1.1,0.7,0.8*3F
$GPGSA,A,3,04,05,06,09,34,36,,,,,,,1.1,0.7,0.8*31
$GPGSA,A,3,09,19,20,22,23,35,44,,,,,,1.1,0.7,0.8*39
$GPGST,024602.00,7.189,0.901,0.464,49.421,0.684,0.748,0.928*64
$GPGBS,024602.00,4.091,4.193,5.827,19,0.0001,-0.925,0.851*70
$GPGRS,024602.00,1,0.8,0.4,-0.7,0.2,1.8,-0.9,,,,,,*45
$GPGRS,024602.00,1,-3.1,-1.6,1.2,-3.0,,,,,,,,*64
$GPGRS,024602.00,1,0.7,0.9,0.4,-0.3,0.5,0.6,,,,,,*6B
$GPGRS,024602.00,1,-0.2,-2.7,0.4,7.4,27.0,-1.7,-0.6,,,,,*57
$GPGSV,5,1,18,04,88,184,49,19,25,266,40,02,16,163,35,17,18,238,31*7A
$GPGSV,5,2,18,01,21,155,,31,28,052,34,06,40,307,46,03,57,089,39*72
$GPGSV,5,3,18,09,57,237,46,11,06,320,37,21,01,156,,26,05,078,*74
$GPGSV,5,4,18,28,09,034,22,07,07,184,,36,35,170,40,34,31,208,*76
$GPGSV,5,5,18,49,34,195,36,61,03,257,*76
$GLGSV,3,1,10,70,70,351,38,69,17,059,26,80,16,109,28,87,11,337,33*6E
$GLGSV,3,2,10,79,23,055,31,71,38,267,42,85,47,207,44,86,49,304,47*6C
$GLGSV,3,3,10,84,05,174,,78,06,007,26*65
$GAGSV,3,1,11,09,82,074,45,11,25,156,34,04,30,055,39,18,19,266,*67
$GAGSV,3,2,11,34,43,308,49,05,40,230,45,06,56,059,45,36,69,200,48*62
$GAGSV,3,3,11,23,03,064,,10,00,149,,21,02,018,*5D
$GBGSV,5,1,19,48,73,049,,46,16,133,,29,19,195,31,58,20,115,*60
$GBGSV,5,2,19,39,21,040,34,05,23,128,34,22,19,265,35,44,24,312,44*6F
$GBGSV,5,3,19,16,30,046,32,37,25,077,32,06,31,050,35,09,41,063,38*65
$GBGSV,5,4,19,35,42,259,42,20,51,066,50,19,71,293,44,12,08,330,29*6F
$GBGSV,5,5,19,02,07,106,,23,08,029,30,60,09,110,*5F
$GPGGA,024602.00,,,,,0,00,,,M,,M,,*4A
$PTNL,GGK,024602.00,010125,4742.4466564,N,01617.9730983,E,1,23,1.1,EHT667.1247,M*42
$GPGGQ,024602.00,010125,4742.4466564,N,01617.9730983,E,1,23,1.374,623.9137,M*31
$GPGFA,024602.00,8.570,7.608,0.901,0.464,49.421,0.928,,VVV*35
$GPLLK,024602.00,010125,,M,,M,1,23,1.2,,M*0B
$GNGMP,024602.00,,,,,DAAA,23,0.7,,,,*52
$GPGMP,024602.00,,,,,,06,,,,1.5,123*7D
$GLGMP,024602.00,,,,,,04,,,,,*79
$GAGMP,024602.00,,,,,,06,,,,,*76
$GBGMP,024602.00,,,,,,07,,,,,*74
$PSSN,SNC,[0,269180000,2347]*40
$GPZDA,024607.00,01,01,2025,,*64
$GPDTM,W84,,00.0000000,N,00.0000000,E,00.0000000,W84*5F
$GPRMC,024607.00,A,4742.4466575,N,01617.9730922,E,0.0,,010125,5.1,E,D*1D
$GPGLL,4742.4466575,N,01617.9730922,E,024607.00,A,D*6C
$GPGGA,024607.00,4742.4466575,N,01617.9730922,E,2,22,0.9,623.9045,M,43.2111,M,1.8,0123*4A
$GNGNS,024607.00,4742.4466575,N,01617.9730922,E,DAAA,22,0.9,623.9045,43.2111,,*5F
$GPGNS,024607.00,,,,,,05,,,,1.8,123*76
$GLGNS,024607.00,,,,,,04,,,,,*7C
$GAGNS,024607.00,,,,,,06,,,,,*73
$GBGNS,024607.00,,,,,,07,,,,,*71
$GPLLQ,024607.00,010125,,M,,M,1,22,2.857,,M*1E
$GPVTG,,T,,M,0.00,N,0.01,K,D*27
$GPHDT,,T*1B
$GPTHS,,V*0E
$GPROT,,V*08
$PSSN,HRP,024607.00,010125,,,,,,,00,0,,*66
$PTNL,AVR,024607.00,,Yaw,,Tilt,,,,0,,00*30
$GPGSA,A,3,04,06,09,11,19,,,,,,,,1.4,0.9,1.1*3D
$GPGSA,A,3,70,71,85,86,,,,,,,,,1.4,0.9,1.1*3C
$GPGSA,A,3,04,05,06,09,34,36,,,,,,,1.4,0.9,1.1*32
$GPGSA,A,3,09,12,19,20,23,35,44,,,,,,1.4,0.9,1.1*39
$GPGST,024607.00,6.379,1.534,0.778,291.776,0.920,1.454,2.280*5B
$GPGBS,024607.00,8.811,9.044,16.520,19,0.0001,-0.781,0.812*40
$GPGRS,024607.00,1,0.4,-0.4,0.2,1.1,-0.8,,,,,,,*6D
$GPGRS,024607.00,1,-1.4,0.8,0.2,-2.8,,,,,,,,*4C
$GPGRS,024607.00,1,0.4,0.5,0.9,0.2,0.5,0.7,,,,,,*41
$GPGRS,024607.00,1,-0.4,3.4,-2.9,0.3,24.0,-1.4,0.2,,,,,*70
$GPGSV,5,1,18,04,88,183,49,19,25,266,40,02,16,163,36,17,18,238,32*7D
$GPGSV,5,2,18,01,21,155,,31,28,052,35,06,40,307,46,03,57,089,39*73
$GPGSV,5,3,18,09,57,237,46,11,06,320,37,21,01,156,,26,06,078,*77
$GPGSV,5,4,18,28,09,034,25,07,07,184,,36,35,170,40,34,31,208,*71
$GPGSV,5,5,18,49,34,195,34,61,03,257,*74
$GLGSV,3,1,10,70,70,351,37,69,17,059,23,80,16,109,33,87,11,337,*6E
$GLGSV,3,2,10,79,23,055,32,71,38,267,41,85,47,207,44,86,49,304,47*6C
$GLGSV,3,3,10,84,05,174,,78,06,007,27*64
$GAGSV,3,1,11,09,82,074,45,11,25,156,34,04,30,055,40,18,19,266,*69
$GAGSV,3,2,11,34,43,308,50,05,40,230,44,06,56,059,46,36,69,200,47*67
$GAGSV,3,3,11,23,03,064,,10,00,149,,21,02,018,*5D
$GBGSV,5,1,19,48,73,049,,46,16,133,,29,19,195,32,58,20,115,*63
$GBGSV,5,2,19,39,21,040,33,05,23,128,32,22,19,265,34,44,24,312,44*6F
$GBGSV,5,3,19,16,30,046,33,37,25,077,32,06,31,050,32,09,41,063,38*63
$GBGSV,5,4,19,35,42,259,43,20,51,066,49,19,71,293,45,12,08,330,30*6F
$GBGSV,5,5,19,02,07,106,,23,08,029,28,60,09,110,*56
$GPGGA,024607.00,,,,,0,00,,,M,,M,,*4F
$PTNL,GGK,024607.00,010125,4742.4466575,N,01617.9730922,E,1,22,1.4,EHT667.1156,M*4B
$GPGGQ,024607.00,010125,4742.4466575,N,01617.9730922,E,1,22,2.857,623.9045,M*33
$GPGFA,024607.00,14.590,18.699,1.534,0.778,291.776,2.280,,VVV*0D
$GPLLK,024607.00,010125,,M,,M,1,22,1.7,,M*0A
$GNGMP,024607.00,,,,,DAAA,22,0.9,,,,*58
$GPGMP,024607.00,,,,,,05,,,,1.8,123*76
$GLGMP,024607.00,,,,,,04,,,,,*7C
$GAGMP,024607.00,,,,,,06,,,,,*73
$GBGMP,024607.00,,,,,,07,,,,,*71
$PSSN,SNC,[0,269185000,2347]*45
$GPZDA,024612.00,01,01,2025,,*60
$GPDTM,W84,,00.0000000,N,00.0000000,E,00.0000000,W84*5F
$GPRMC,024612.00,A,4742.4466582,N,01617.9730669,E,0.0,,010125,5.1,E,D*11
$GPGLL,4742.4466582,N,01617.9730669,E,024612.00,A,D*60
$GPGGA,024612.00,4742.4466582,N,01617.9730669,E,2,23,0.8,623.8979,M,43.2111,M,2.8,0123*42
$GNGNS,024612.00,4742.4466582,N,01617.9730669,E,DAAA,23,0.8,623.8979,43.2111,,*54
$GPGNS,024612.00,,,,,,06,,,,2.8,123*72
$GLGNS,024612.00,,,,,,04,,,,,*78
$GAGNS,024612.00,,,,,,06,,,,,*77
$GBGNS,024612.00,,,,,,07,,,,,*75
$GPLLQ,024612.00,010125,,M,,M,1,23,2.911,,M*18
$GPVTG,,T,,M,0.01,N,0.01,K,D*26
$GPHDT,,T*1B
$GPTHS,,V*0E
$GPROT,,V*08
$PSSN,HRP,024612.00,010125,,,,,,,00,0,,*62
$PTNL,AVR,024612.00,,Yaw,,Tilt,,,,0,,00*34
$GPGSA,A,3,03,04,06,09,11,19,,,,,,,1.5,0.8,1.2*3D
$GPGSA,A,3,70,71,85,86,,,,,,,,,1.5,0.8,1.2*3F
$GPGSA,A,3,04,05,06,09,34,36,,,,,,,1.5,0.8,1.2*31
$GPGSA,A,3,06,09,16,19,20,35,44,,,,,,1.5,0.8,1.2*39
$GPGST,024612.00,2.361,1.465,0.864,345.928,1.436,0.910,2.363*53
$GPGBS,024612.00,7.350,5.409,9.273,03,0.0001,1.597,0.665*57
$GPGRS,024612.00,1,1.6,0.3,-1.5,-0.5,1.3,-1.0,,,,,,*66
$GPGRS,024612.00,1,-2.5,3.2,-0.4,-4.1,,,,,,,,*67
$GPGRS,024612.00,1,-0.2,-0.0,0.8,0.4,0.5,0.5,,,,,,*43
$GPGRS,024612.00,1,5.6,0.3,-1.8,-2.8,-1.1,-1.4,-0.1,,,,,*49
$GPGSV,5,1,18,04,88,183,49,19,25,266,39,02,16,163,36,17,17,238,32*7C
$GPGSV,5,2,18,01,21,155,,31,28,052,30,06,40,307,46,03,57,089,39*76
$GPGSV,5,3,18,09,57,237,45,11,06,320,36,21,01,156,,26,06,078,*75
$GPGSV,5,4,18,28,09,034,23,07,07,184,,36,35,170,41,34,31,208,*76
$GPGSV,5,5,18,49,34,195,34,61,03,257,*74
$GLGSV,3,1,10,70,70,351,37,69,17,059,28,80,16,109,32,87,11,337,*64
$GLGSV,3,2,10,79,23,055,34,71,38,267,42,85,47,207,42,86,49,304,47*6F
$GLGSV,3,3,10,84,05,174,,78,06,007,29*6A
$GAGSV,3,1,11,09,82,074,45,11,25,156,33,04,30,055,39,18,19,266,*60
$GAGSV,3,2,11,34,43,308,50,05,40,230,45,06,56,059,46,36,69,200,47*66
$GAGSV,3,3,11,23,03,064,,10,00,149,,21,02,018,*5D
$GBGSV,5,1,19,48,73,049,,46,16,133,,29,19,195,33,58,20,115,*62
$GBGSV,5,2,19,39,21,040,34,05,23,128,34,22,19,265,28,44,24,312,42*65
$GBGSV,5,3,19,16,30,046,37,37,25,077,30,06,31,050,35,09,41,063,38*62
$GBGSV,5,4,19,35,42,259,42,20,51,067,50,19,71,293,44,12,08,330,29*6E
$GBGSV,5,5,19,02,07,106,,23,08,029,25,60,09,110,*5B
$GPGGA,024612.00,,,,,0,00,,,M,,M,,*4B
$PTNL,GGK,024612.00,010125,4742.4466582,N,01617.9730669,E,1,23,1.5,EHT667.1090,M*4C
$GPGGQ,024612.00,010125,4742.4466582,N,01617.9730669,E,1,23,2.911,623.8979,M*3A
$GPGFA,024612.00,13.926,19.378,1.465,0.864,345.928,2.363,,VVV*02
$GPLLK,024612.00,010125,,M,,M,1,23,1.8,,M*00
$GNGMP,024612.00,,,,,DAAA,23,0.8,,,,*5C
$GPGMP,024612.00,,,,,,06,,,,2.8,123*72
$GLGMP,024612.00,,,,,,04,,,,,*78
$GAGMP,024612.00,,,,,,06,,,,,*77
$GBGMP,024612.00,,,,,,07,,,,,*75
$PSSN,SNC,[0,269190000,2347]*41
$GPZDA,024617.00,01,01,2025,,*65
$GPDTM,W84,,00.0000000,N,00.0000000,E,00.0000000,W84*5F
$GPRMC,024617.00,A,4742.4466656,N,01617.9730310,E,0.0,,010125,5.1,E,D*15
$GPGLL,4742.4466656,N,01617.9730310,E,024617.00,A,D*64
$GPGGA,024617.00,4742.4466656,N,01617.9730310,E,2,23,0.6,623.9004,M,43.2111,M,3.8,0123*4B
$GNGNS,024617.00,4742.4466656,N,01617.9730310,E,DAAA,23,0.6,623.9004,43.2111,,*5C
$GPGNS,024617.00,,,,,,06,,,,3.8,123*76
$GLGNS,024617.00,,,,,,04,,,,,*7D
$GAGNS,024617.00,,,,,,06,,,,,*72
$GBGNS,024617.00,,,,,,07,,,,,*70
$GPLLQ,024617.00,010125,,M,,M,1,23,2.856,,M*1F
$GPVTG,,T,,M,0.00,N,0.01,K,D*27
$GPHDT,,T*1B
$GPTHS,,V*0E
$GPROT,,V*08
$PSSN,HRP,024617.00,010125,,,,,,,00,0,,*67
$PTNL,AVR,024617.00,,Yaw,,Tilt,,,,0,,00*31
$GPGSA,A,3,02,03,04,06,09,19,,,,,,,1.1,0.6,0.9*3F
$GPGSA,A,3,70,71,85,86,,,,,,,,,1.1,0.6,0.9*3F
$GPGSA,A,3,04,05,06,09,34,36,,,,,,,1.1,0.6,0.9*31
$GPGSA,A,3,09,19,20,23,29,35,44,,,,,,1.1,0.6,0.9*32
$GPGST,024617.00,7.117,1.532,0.881,24.494,1.441,1.023,2.244*6A
$GPGBS,024617.00,4.878,3.854,6.266,03,0.0001,2.338,0.686*54
$GPGRS,024617.00,1,2.3,2.3,0.2,-1.6,-0.8,-1.3,,,,,,*6A
$GPGRS,024617.00,1,-2.8,2.7,-1.1,-4.2,,,,,,,,*6C
$GPGRS,024617.00,1,-0.1,-0.3,0.9,0.4,0.3,0.5,,,,,,*41
$GPGRS,024617.00,1,0.8,-3.4,-1.7,27.2,0.6,-1.2,-0.5,,,,,*58
$GPGSV,5,1,18,04,88,182,49,19,25,266,40,02,16,163,36,17,17,238,32*73
$GPGSV,5,2,18,01,20,155,,31,28,052,28,06,40,307,45,03,57,089,38*7C
$GPGSV,5,3,18,09,57,237,44,11,06,320,33,21,01,156,,26,06,078,*71
$GPGSV,5,4,18,28,09,034,25,07,08,184,,36,35,170,39,34,31,208,*70
$GPGSV,5,5,18,49,34,195,32,61,03,257,*72
$GLGSV,3,1,10,70,70,351,36,69,17,059,33,80,16,109,32,87,11,337,*6F
$GLGSV,3,2,10,79,23,055,33,71,39,267,43,85,47,207,38,86,49,304,47*65
$GLGSV,3,3,10,84,05,174,,78,06,007,32*60
$GAGSV,3,1,11,09,82,074,46,11,25,156,35,04,30,055,39,18,19,266,*65
$GAGSV,3,2,11,34,43,308,51,05,41,230,44,06,56,059,46,36,69,200,47*67
$GAGSV,3,3,11,23,03,064,,10,00,149,,21,02,018,*5D
$GBGSV,5,1,19,48,73,049,,46,16,133,,29,18,195,35,58,20,115,*65
$GBGSV,5,2,19,39,21,040,32,05,23,128,33,22,20,265,34,44,24,312,43*62
$GBGSV,5,3,19,16,30,046,36,37,25,077,28,06,31,050,34,09,41,063,39*6A
$GBGSV,5,4,19,35,42,259,43,20,51,067,50,19,71,293,44,12,08,330,29*6F
$GBGSV,5,5,19,02,07,106,,23,08,029,26,60,09,110,*58
$GPGGA,024617.00,,,,,0,00,,,M,,M,,*4E
$PTNL,GGK,024617.00,010125,4742.4466656,N,01617.9730310,E,1,23,1.1,EHT667.1115,M*40
$GPGGQ,024617.00,010125,4742.4466656,N,01617.9730310,E,1,23,2.856,623.9004,M*3E
$GPGFA,024617.00,14.564,18.401,1.532,0.881,24.494,2.244,,VVV*30
$GPLLK,024617.00,010125,,M,,M,1,23,1.3,,M*0E
$GNGMP,024617.00,,,,,DAAA,23,0.6,,,,*57
$GPGMP,024617.00,,,,,,06,,,,3.8,123*76
$GLGMP,024617.00,,,,,,04,,,,,*7D
$GAGMP,024617.00,,,,,,06,,,,,*72
$GBGMP,024617.00,,,,,,07,,,,,*70
$PSSN,SNC,[0,269195000,2347]*44
$GPZDA,024622.00,01,01,2025,,*63
$GPDTM,W84,,00.0000000,N,00.0000000,E,00.0000000,W84*5F
$GPRMC,024622.00,A,4742.4466806,N,01617.9730019,E,0.0,,010125,5.1,E,D*12
$GPGLL,4742.4466806,N,01617.9730019,E,024622.00,A,D*63
$GPGGA,024622.00,4742.4466806,N,01617.9730019,E,2,24,0.6,623.9164,M,43.2111,M,1.6,0123*40
$GNGNS,024622.00,4742.4466806,N,01617.9730019,E,DAAA,24,0.6,623.9164,43.2111,,*5B
$GPGNS,024622.00,,,,,,05,,,,1.6,123*7F
$GLGNS,024622.00,,,,,,05,,,,,*7A
$GAGNS,024622.00,,,,,,07,,,,,*75
$GBGNS,024622.00,,,,,,07,,,,,*76
$GPLLQ,024622.00,010125,,M,,M,1,24,2.175,,M*16
$GPVTG,,T,,M,0.01,N,0.01,K,D*26
$GPHDT,,T*1B
$GPTHS,,V*0E
$GPROT,,V*08
$PSSN,HRP,024622.00,010125,,,,,,,00,0,,*61
$PTNL,AVR,024622.00,,Yaw,,Tilt,,,,0,,00*37
$GPGSA,A,3,02,04,06,09,19,,,,,,,,1.1,0.6,0.9*3C
$GPGSA,A,3,70,71,79,85,86,,,,,,,,1.1,0.6,0.9*31
$GPGSA,A,3,04,05,06,09,11,34,36,,,,,,1.1,0.6,0.9*31
$GPGSA,A,3,05,09,19,20,23,35,44,,,,,,1.1,0.6,0.9*3C
$GPGST,024622.00,8.691,1.254,0.704,33.858,1.113,0.911,1.631*6B
$GPGBS,024622.00,5.791,4.269,6.341,02,0.0001,2.288,0.937*52
$GPGRS,024622.00,1,2.3,0.1,-1.3,-0.2,-0.5,,,,,,,*48
$GPGRS,024622.00,1,-2.8,3.2,1.2,-0.0,-3.3,,,,,,,*45
$GPGRS,024622.00,1,0.2,-0.3,0.8,0.5,-1.9,0.4,0.7,,,,,*67
$GPGRS,024622.00,1,0.3,1.5,-2.8,-1.1,35.1,-0.4,0.6,,,,,*75
$GPGSV,5,1,18,04,88,181,48,19,25,266,40,02,16,163,36,17,17,238,31*72
$GPGSV,5,2,18,01,20,155,,31,28,052,29,06,40,307,45,03,57,089,33*76
$GPGSV,5,3,18,09,57,237,45,11,06,320,32,21,01,156,,26,06,078,*71
$GPGSV,5,4,18,28,09,034,25,07,08,184,,36,35,170,39,34,31,208,*70
$GPGSV,5,5,18,49,34,195,29,61,03,257,*78
$GLGSV,3,1,10,70,70,352,35,69,17,060,35,80,16,109,33,87,11,337,29*69
$GLGSV,3,2,10,79,23,054,34,71,39,267,43,85,47,207,42,86,49,304,48*61
$GLGSV,3,3,10,84,05,174,,78,06,007,30*62
$GAGSV,3,1,11,09,82,074,46,11,25,156,35,04,30,055,38,18,18,266,*65
$GAGSV,3,2,11,34,43,308,51,05,41,230,43,06,56,059,46,36,69,200,47*60
$GAGSV,3,3,11,23,03,064,,10,00,149,,21,02,018,*5D
$GBGSV,5,1,19,48,73,049,,46,16,133,,29,18,195,35,58,20,115,*65
$GBGSV,5,2,19,39,21,040,33,05,23,128,34,22,20,265,34,44,24,312,44*63
$GBGSV,5,3,19,16,30,046,29,37,25,077,24,06,31,050,30,09,41,063,40*62
$GBGSV,5,4,19,35,42,259,44,20,51,067,50,19,71,293,45,12,08,330,28*68
$GBGSV,5,5,19,02,07,106,,23,08,029,24,60,09,110,*5A
$GPGGA,024622.00,,,,,0,00,,,M,,M,,*48
$PTNL,GGK,024622.00,010125,4742.4466806,N,01617.9730019,E,1,24,1.1,EHT667.1275,M*45
$GPGGQ,024622.00,010125,4742.4466806,N,01617.9730019,E,1,24,2.175,623.9164,M*31
$GPGFA,024622.00,11.919,13.378,1.254,0.704,33.858,1.631,,VVV*3D
$GPLLK,024622.00,010125,,M,,M,1,24,1.2,,M*0E
$GNGMP,024622.00,,,,,DAAA,24,0.6,,,,*56
$GPGMP,024622.00,,,,,,05,,,,1.6,123*7F
$GLGMP,024622.00,,,,,,05,,,,,*7A
$GAGMP,024622.00,,,,,,07,,,,,*75
$GBGMP,024622.00,,,,,,07,,,,,*76
$PSSN,SNC,[0,269200000,2347]*4B
$GPZDA,024627.00,01,01,2025,,*66
$GPDTM,W84,,00.0000000,N,00.0000000,E,00.0000000,W84*5F
$GPRMC,024627.00,A,4742.4466939,N,01617.9729732,E,0.0,,010125,5.1,E,D*1C
$GPGLL,4742.4466939,N,01617.9729732,E,024627.00,A,D*6D
$GPGGA,024627.00,4742.4466939,N,01617.9729732,E,2,22,0.7,623.9218,M,43.2111,M,1.8,0123*4F
$GNGNS,024627.00,4742.4466939,N,01617.9729732,E,DAAA,22,0.7,623.9218,43.2111,,*5A
$GPGNS,024627.00,,,,,,06,,,,1.8,123*77
$GLGNS,024627.00,,,,,,04,,,,,*7E
$GAGNS,024627.00,,,,,,06,,,,,*71
$GBGNS,024627.00,,,,,,06,,,,,*72
$GPLLQ,024627.00,010125,,M,,M,1,22,3.279,,M*1B
$GPVTG,,T,,M,0.01,N,0.02,K,D*25
$GPHDT,,T*1B
$GPTHS,,V*0E
$GPROT,,V*08
$PSSN,HRP,024627.00,010125,,,,,,,00,0,,*64
$PTNL,AVR,024627.00,,Yaw,,Tilt,,,,0,,00*32
$GPGSA,A,3,02,03,04,06,09,19,,,,,,,1.2,0.7,1.0*35
$GPGSA,A,3,70,71,85,86,,,,,,,,,1.2,0.7,1.0*35
$GPGSA,A,3,04,05,06,09,34,36,,,,,,,1.2,0.7,1.0*3B
$GPGSA,A,3,09,12,19,20,35,44,,,,,,,1.2,0.7,1.0*31
$GPGST,024627.00,1.853,1.519,0.956,3.585,1.517,0.958,2.745*52
$GPGBS,024627.00,4.728,3.725,5.982,03,0.0001,2.025,0.647*54
$GPGRS,024627.00,1,1.1,2.0,0.2,-1.3,-0.1,-2.1,,,,,,*66
$GPGRS,024627.00,1,-3.1,1.9,0.2,-3.3,,,,,,,,*43
$GPGRS,024627.00,1,-0.0,-0.5,0.8,0.5,-0.2,0.2,,,,,,*6E
$GPGRS,024627.00,1,1.3,1.5,-2.5,-1.9,-0.5,0.3,,,,,,*69
$GPGSV,5,1,18,04,88,181,48,19,25,266,41,02,16,163,35,17,17,238,34*75
$GPGSV,5,2,18,01,20,155,,31,28,052,35,06,40,307,45,03,57,089,39*71
$GPGSV,5,3,18,09,57,237,44,11,06,320,30,21,00,156,,26,06,078,*73
$GPGSV,5,4,18,28,09,034,20,07,08,184,,36,35,170,40,34,31,208,*7B
$GPGSV,5,5,18,49,34,195,36,61,03,257,*76
