$GPZDA,041442.00,01,01,2025,,*64
$GPDTM,W84,,00.0000000,N,00.0000000,E,00.0000000,W84*5F
$GPRMC,041442.00,A,4742.4465907,N,01617.9731689,E,0.0,,010125,5.1,E,D*18
$GPGLL,4742.4465907,N,01617.9731689,E,041442.00,A,D*69
$GPGGA,041442.00,4742.4465907,N,01617.9731689,E,2,22,0.6,625.9654,M,43.2111,M,3.4,0123*4E
$GNGNS,041442.00,4742.4465907,N,01617.9731689,E,DAAA,22,0.6,625.9654,43.2111,,*55
$GPGNS,041442.00,,,,,,05,,,,3.4,123*78
$GLGNS,041442.00,,,,,,07,,,,,*7F
$GAGNS,041442.00,,,,,,04,,,,,*71
$GBGNS,041442.00,,,,,,06,,,,,*70
$GPLLQ,041442.00,010125,,M,,M,1,22,3.498,,M*10
$GPVTG,,T,,M,0.01,N,0.02,K,D*25
$GPHDT,,T*1B
$GPTHS,,V*0E
$GPROT,,V*08
$PSSN,HRP,041442.00,010125,,,,,,,00,0,,*66
$PTNL,AVR,041442.00,,Yaw,,Tilt,,,,0,,00*30
$GPGSA,A,3,04,06,07,09,30,,,,,,,,1.3,0.6,1.1*39
$GPGSA,A,3,70,71,72,73,80,86,87,,,,,,1.3,0.6,1.1*3F
$GPGSA,A,3,05,09,15,34,,,,,,,,,1.3,0.6,1.1*39
$GPGSA,A,3,09,12,19,22,36,44,,,,,,,1.3,0.6,1.1*31
$GPGST,041442.00,4.443,1.699,0.952,328.343,1.530,1.205,2.906*5F
$GPGBS,041442.00,7.526,5.443,10.994,30,0.0001,-2.919,0.950*4D
$GPGRS,041442.00,1,-0.1,-0.5,1.2,0.8,-2.9,,,,,,,*4E
$GPGRS,041442.00,1,-0.9,2.6,8.6,7.9,-1.2,-2.6,-3.5,,,,,*6B
$GPGRS,041442.00,1,-0.3,-0.2,5.5,-0.3,,,,,,,,*66
$GPGRS,041442.00,1,6.4,-6.5,-0.8,-1.8,-2.2,0.4,,,,,,*4D
$GPGSV,4,1,14,09,80,028,47,03,22,121,33,26,12,042,,20,19,306,28*74
$GPGSV,4,2,14,30,15,201,36,16,15,072,29,11,36,302,39,07,47,179,39*79
$GPGSV,4,3,14,04,51,063,46,06,52,250,38,36,35,170,40,34,31,208,*7F
$GPGSV,4,4,14,49,34,195,34,61,03,257,*78
$GLGSV,3,1,11,71,66,340,50,70,41,069,38,72,26,285,42,86,36,237,43*67
$GLGSV,3,2,11,73,32,131,45,80,38,061,51,87,39,300,41,85,01,196,*62
$GLGSV,3,3,11,74,02,164,,79,07,016,27,88,04,348,25*50
$GAGSV,3,1,11,05,70,266,43,36,33,188,28,15,24,319,40,23,11,037,*6B
$GAGSV,3,2,11,31,17,087,,03,18,252,26,06,28,066,34,09,51,061,46*6A
$GAGSV,3,3,11,34,56,261,47,24,04,134,,04,04,068,*50
$GBGSV,5,1,20,19,69,069,48,36,23,161,37,39,10,041,,05,23,128,*6E
$GBGSV,5,2,20,35,16,228,27,12,24,302,37,37,19,043,34,20,22,093,20*64
$GBGSV,5,3,20,16,20,043,30,44,25,275,37,06,23,045,33,46,42,101,*6F
$GBGSV,5,4,20,09,36,051,39,22,49,291,40,58,38,078,,48,42,090,*63
$GBGSV,5,5,20,21,00,281,,02,07,107,,34,06,324,,60,08,111,*69
$GPGGA,041442.00,,,,,0,00,,,M,,M,,*4F
$PTNL,GGK,041442.00,010125,4742.4465907,N,01617.9731689,E,1,22,1.3,EHT669.1765,M*41
$GPGGQ,041442.00,010125,4742.4465907,N,01617.9731689,E,1,22,3.498,625.9654,M*38
$GPGFA,041442.00,16.150,23.826,1.699,0.952,328.343,2.906,,VVV*03
$GPLLK,041442.00,010125,,M,,M,1,22,1.5,,M*08
$GNGMP,041442.00,,,,,DAAA,22,0.6,,,,*57
$GPGMP,041442.00,,,,,,05,,,,3.4,123*78
$GLGMP,041442.00,,,,,,07,,,,,*7F
$GAGMP,041442.00,,,,,,04,,,,,*71
$GBGMP,041442.00,,,,,,06,,,,,*70
$PSSN,SNC,[0,274500000,2347]*40
$GPZDA,041447.00,01,01,2025,,*61
$GPDTM,W84,,00.0000000,N,00.0000000,E,00.0000000,W84*5F
$GPRMC,041447.00,A,4742.4465837,N,01617.9731554,E,0.0,,010125,5.1,E,D*1C
$GPGLL,4742.4465837,N,01617.9731554,E,041447.00,A,D*6D
$GPGGA,041447.00,4742.4465837,N,01617.9731554,E,2,22,0.6,625.9527,M,43.2111,M,1.3,0123*48
$GNGNS,041447.00,4742.4465837,N,01617.9731554,E,DAAA,22,0.6,625.9527,43.2111,,*56
$GPGNS,041447.00,,,,,,04,,,,1.3,123*79
$GLGNS,041447.00,,,,,,07,,,,,*7A
$GAGNS,041447.00,,,,,,04,,,,,*74
$GBGNS,041447.00,,,,,,07,,,,,*74
$GPLLQ,041447.00,010125,,M,,M,1,22,5.631,,M*12
$GPVTG,,T,,M,0.01,N,0.01,K,D*26
$GPHDT,,T*1B
$GPTHS,,V*0E
$GPROT,,V*08
$PSSN,HRP,041447.00,010125,,,,,,,00,0,,*63
$PTNL,AVR,041447.00,,Yaw,,Tilt,,,,0,,00*35
$GPGSA,A,3,04,06,09,30,,,,,,,,,1.2,0.6,1.0*3E
$GPGSA,A,3,70,71,72,73,80,86,87,,,,,,1.2,0.6,1.0*3F
$GPGSA,A,3,05,09,15,34,,,,,,,,,1.2,0.6,1.0*39
$GPGSA,A,3,09,12,19,22,36,37,44,,,,,,1.2,0.6,1.0*35
$GPGST,041447.00,8.647,3.114,1.394,332.682,2.839,1.891,4.480*57
$GPGBS,041447.00,10.273,5.856,14.038,37,0.0001,28.461,8.691*60
$GPGRS,041447.00,1,0.2,-1.0,0.3,-2.4,,,,,,,,*4A
$GPGRS,041447.00,1,-2.6,2.4,10.1,6.8,-1.4,-5.1,-4.2,,,,,*59
$GPGRS,041447.00,1,-0.3,0.1,5.5,-0.2,,,,,,,,*4C
$GPGRS,041447.00,1,7.0,-1.3,-1.6,-1.1,-3.3,28.5,-1.1,,,,,*72
$GPGSV,4,1,14,09,80,028,47,03,22,121,26,26,12,042,,20,19,306,31*78
$GPGSV,4,2,14,30,15,201,36,16,15,072,20,11,36,302,39,07,47,179,41*7F
$GPGSV,4,3,14,04,51,063,45,06,52,250,40,36,35,170,41,34,31,208,*72
$GPGSV,4,4,14,49,34,195,35,61,03,257,*79
$GLGSV,3,1,11,71,66,340,52,70,41,069,37,72,26,285,44,86,36,237,42*6D
$GLGSV,3,2,11,73,32,131,45,80,38,061,51,87,39,300,41,85,01,196,*62
$GLGSV,3,3,11,74,02,164,,79,07,016,27,88,04,348,*57
$GAGSV,3,1,11,05,70,266,43,36,33,188,29,15,24,319,41,23,11,037,*6B
$GAGSV,3,2,11,31,17,087,,03,18,252,22,06,27,066,34,09,51,061,46*61
$GAGSV,3,3,11,34,56,261,47,24,04,134,,04,04,068,*50
$GBGSV,5,1,20,19,69,069,48,36,23,161,39,39,10,041,,05,23,128,*60
$GBGSV,5,2,20,35,16,228,28,12,24,302,39,37,19,043,36,20,21,093,27*63
$GBGSV,5,3,20,16,20,043,28,44,25,275,37,06,23,045,34,46,42,101,*61
$GBGSV,5,4,20,09,36,051,40,22,49,291,41,58,38,078,,48,42,090,*6C
$GBGSV,5,5,20,21,00,281,,02,07,107,,34,06,324,,60,08,111,*69
$GPGGA,041447.00,,,,,0,00,,,M,,M,,*4A
$PTNL,GGK,041447.00,010125,4742.4465837,N,01617.9731554,E,1,22,1.2,EHT669.1637,M*42
$GPGGQ,041447.00,010125,4742.4465837,N,01617.9731554,E,1,22,5.631,625.9527,M*3C
$GPGFA,041447.00,29.603,36.734,3.114,1.394,332.682,4.480,,VVV*04
$GPLLK,041447.00,010125,,M,,M,1,22,1.4,,M*0C
$GNGMP,041447.00,,,,,DAAA,22,0.6,,,,*52
$GPGMP,041447.00,,,,,,04,,,,1.3,123*79
$GLGMP,041447.00,,,,,,07,,,,,*7A
$GAGMP,041447.00,,,,,,04,,,,,*74
$GBGMP,041447.00,,,,,,07,,,,,*74
$PSSN,SNC,[0,274505000,2347]*45
$GPZDA,041452.00,01,01,2025,,*65
$GPDTM,W84,,00.0000000,N,00.0000000,E,00.0000000,W84*5F
$GPRMC,041452.00,A,4742.4465720,N,01617.9731493,E,0.0,,010125,5.1,E,D*1B
$GPGLL,4742.4465720,N,01617.9731493,E,041452.00,A,D*6A
$GPGGA,041452.00,4742.4465720,N,01617.9731493,E,2,22,0.6,625.9295,M,43.2111,M,2.3,0123*42
$GNGNS,041452.00,4742.4465720,N,01617.9731493,E,DAAA,22,0.6,625.9295,43.2111,,*5F
$GPGNS,041452.00,,,,,,04,,,,2.3,123*7E
$GLGNS,041452.00,,,,,,07,,,,,*7E
$GAGNS,041452.00,,,,,,04,,,,,*70
$GBGNS,041452.00,,,,,,07,,,,,*70
$GPLLQ,041452.00,010125,,M,,M,1,22,6.236,,M*16
$GPVTG,,T,,M,0.00,N,0.00,K,D*26
$GPHDT,,T*1B
$GPTHS,,V*0E
$GPROT,,V*08
$PSSN,HRP,041452.00,010125,,,,,,,00,0,,*67
$PTNL,AVR,041452.00,,Yaw,,Tilt,,,,0,,00*31
$GPGSA,A,3,04,06,09,30,,,,,,,,,1.2,0.6,1.0*3E
$GPGSA,A,3,70,71,72,73,80,86,87,,,,,,1.2,0.6,1.0*3F
$GPGSA,A,3,05,09,15,34,,,,,,,,,1.2,0.6,1.0*39
$GPGSA,A,3,09,12,19,22,36,37,44,,,,,,1.2,0.6,1.0*35
$GPGST,041452.00,8.409,3.861,1.059,335.117,3.531,1.888,4.781*50
$GPGBS,041452.00,10.406,5.884,14.082,37,0.0001,27.066,8.690*63
$GPGRS,041452.00,1,0.1,0.7,0.3,-2.8,,,,,,,,*6A
$GPGRS,041452.00,1,-2.8,2.9,10.4,6.4,-2.6,-4.0,-4.3,,,,,*57
$GPGRS,041452.00,1,-0.2,-0.1,4.9,-0.3,,,,,,,,*68
$GPGRS,041452.00,1,6.9,2.6,-2.2,0.3,-3.2,27.1,-4.2,,,,,*70
$GPGSV,4,1,14,09,80,028,46,03,22,121,34,26,12,042,,20,19,306,34*7F
$GPGSV,4,2,14,30,15,201,35,16,15,072,,11,36,301,40,07,47,179,42*70
$GPGSV,4,3,14,04,51,063,43,06,52,250,40,36,35,170,41,34,31,208,*74
$GPGSV,4,4,14,49,34,195,35,61,03,257,*79
$GLGSV,3,1,11,71,66,340,52,70,41,069,37,72,26,285,45,86,36,237,42*6C
$GLGSV,3,2,11,73,32,131,44,80,38,061,50,87,39,300,42,85,01,196,*61
$GLGSV,3,3,11,74,02,164,,79,07,015,26,88,04,348,*55
$GAGSV,3,1,11,05,70,266,43,36,33,188,28,15,24,319,41,23,11,037,*6A
$GAGSV,3,2,11,31,17,087,,03,18,253,32,06,27,066,32,09,51,061,46*67
$GAGSV,3,3,11,34,56,261,47,24,04,134,,04,04,068,*50
$GBGSV,5,1,20,19,69,069,49,36,23,161,40,39,10,041,,05,23,128,*6F
$GBGSV,5,2,20,35,16,228,28,12,24,302,40,37,19,043,37,20,21,093,30*6A
$GBGSV,5,3,20,16,20,043,29,44,25,275,36,06,23,045,33,46,42,101,*66
$GBGSV,5,4,20,09,36,051,40,22,49,291,42,58,38,078,,48,42,090,*6F
$GBGSV,5,5,20,21,01,281,,02,07,107,,34,06,324,,60,08,111,*68
$GPGGA,041452.00,,,,,0,00,,,M,,M,,*4E
$PTNL,GGK,041452.00,010125,4742.4465720,N,01617.9731493,E,1,22,1.2,EHT669.1406,M*45
$GPGGQ,041452.00,010125,4742.4465720,N,01617.9731493,E,1,22,6.236,625.9295,M*35
$GPGFA,041452.00,36.709,39.201,3.861,1.059,335.117,4.781,,VVV*0E
$GPLLK,041452.00,010125,,M,,M,1,22,1.4,,M*08
$GNGMP,041452.00,,,,,DAAA,22,0.6,,,,*56
$GPGMP,041452.00,,,,,,04,,,,2.3,123*7E
$GLGMP,041452.00,,,,,,07,,,,,*7E
$GAGMP,041452.00,,,,,,04,,,,,*70
$GBGMP,041452.00,,,,,,07,,,,,*70
$PSSN,SNC,[0,274510000,2347]*41
$GPZDA,041457.00,01,01,2025,,*60
$GPDTM,W84,,00.0000000,N,00.0000000,E,00.0000000,W84*5F
$GPRMC,041457.00,A,4742.4465605,N,01617.9731432,E,0.0,,010125,5.1,E,D*13
$GPGLL,4742.4465605,N,01617.9731432,E,041457.00,A,D*62
$GPGGA,041457.00,4742.4465605,N,01617.9731432,E,2,21,0.6,625.9147,M,43.2111,M,3.3,0123*44
$GNGNS,041457.00,4742.4465605,N,01617.9731432,E,DAAA,21,0.6,625.9147,43.2111,,*58
$GPGNS,041457.00,,,,,,04,,,,3.3,123*7A
$GLGNS,041457.00,,,,,,07,,,,,*7B
$GAGNS,041457.00,,,,,,04,,,,,*75
$GBGNS,041457.00,,,,,,06,,,,,*74
$GPLLQ,041457.00,010125,,M,,M,1,21,5.671,,M*14
$GPVTG,,T,,M,0.01,N,0.01,K,D*26
$GPHDT,,T*1B
$GPTHS,,V*0E
$GPROT,,V*08
$PSSN,HRP,041457.00,010125,,,,,,,00,0,,*62
$PTNL,AVR,041457.00,,Yaw,,Tilt,,,,0,,00*34
$GPGSA,A,3,04,06,09,30,,,,,,,,,1.2,0.6,1.0*3E
$GPGSA,A,3,70,71,72,73,80,86,87,,,,,,1.2,0.6,1.0*3F
$GPGSA,A,3,05,09,15,34,,,,,,,,,1.2,0.6,1.0*39
$GPGSA,A,3,09,12,19,22,36,37,,,,,,,1.2,0.6,1.0*35
$GPGST,041457.00,7.960,3.463,0.961,334.706,3.158,1.716,4.386*52
$GPGBS,041457.00,10.741,6.033,14.267,37,0.0001,24.130,8.690*69
$GPGRS,041457.00,1,0.6,-0.3,0.1,-2.0,,,,,,,,*4B
$GPGRS,041457.00,1,-2.8,1.9,11.9,5.2,-3.2,-2.3,-2.2,,,,,*5F
$GPGRS,041457.00,1,0.5,-0.4,4.1,-1.1,,,,,,,,*49
$GPGRS,041457.00,1,7.2,2.5,-2.9,0.6,-3.6,24.1,,,,,,*70
$GPGSV,4,1,14,09,80,028,46,03,22,121,35,26,12,042,,20,19,306,37*7D
$GPGSV,4,2,14,30,15,201,35,16,15,072,,11,36,301,38,07,47,179,44*79
$GPGSV,4,3,14,04,51,063,42,06,52,250,40,36,35,170,41,34,31,208,*75
$GPGSV,4,4,14,49,34,195,36,61,03,257,*7A
$GLGSV,3,1,11,71,66,340,51,70,41,069,37,72,26,285,46,86,36,237,43*6D
$GLGSV,3,2,11,73,32,131,43,80,38,061,49,87,39,300,42,85,00,196,*6F
$GLGSV,3,3,11,74,02,164,,79,07,015,24,88,04,348,31*55
$GAGSV,3,1,11,05,70,266,44,36,33,188,27,15,24,319,42,23,11,037,*61
$GAGSV,3,2,11,31,17,087,,03,18,253,32,06,27,066,32,09,51,061,46*67
$GAGSV,3,3,11,34,56,261,47,24,04,134,,04,04,068,*50
$GBGSV,5,1,20,19,69,069,49,36,24,161,40,39,10,041,,05,23,128,*68
$GBGSV,5,2,20,35,16,228,27,12,24,302,40,37,19,043,37,20,21,093,30*65
$GBGSV,5,3,20,16,20,043,28,44,25,275,35,06,23,045,33,46,42,101,*64
$GBGSV,5,4,20,09,36,051,40,22,49,292,43,58,38,078,,48,42,090,*6D
$GBGSV,5,5,20,21,01,281,,02,07,107,,34,06,324,,60,08,111,*68
$GPGGA,041457.00,,,,,0,00,,,M,,M,,*4B
$PTNL,GGK,041457.00,010125,4742.4465605,N,01617.9731432,E,1,21,1.2,EHT669.1258,M*43
$GPGGQ,041457.00,010125,4742.4465605,N,01617.9731432,E,1,21,5.671,625.9147,M*36
$GPGFA,041457.00,32.927,35.967,3.463,0.961,334.706,4.386,,VVV*03
$GPLLK,041457.00,010125,,M,,M,1,21,1.4,,M*0E
$GNGMP,041457.00,,,,,DAAA,21,0.6,,,,*50
$GPGMP,041457.00,,,,,,04,,,,3.3,123*7A
$GLGMP,041457.00,,,,,,07,,,,,*7B
$GAGMP,041457.00,,,,,,04,,,,,*75
$GBGMP,041457.00,,,,,,06,,,,,*74
$PSSN,SNC,[0,274515000,2347]*44
$GPZDA,041502.00,01,01,2025,,*61
$GPDTM,W84,,00.0000000,N,00.0000000,E,00.0000000,W84*5F
$GPRMC,041502.00,A,4742.4465525,N,01617.9731319,E,0.0,,010125,5.1,E,D*1D
$GPGLL,4742.4465525,N,01617.9731319,E,041502.00,A,D*6C
$GPGGA,041502.00,4742.4465525,N,01617.9731319,E,2,24,0.6,625.9075,M,43.2111,M,3.5,0123*49
$GNGNS,041502.00,4742.4465525,N,01617.9731319,E,DAAA,24,0.6,625.9075,43.2111,,*53
$GPGNS,041502.00,,,,,,06,,,,3.5,123*7F
$GLGNS,041502.00,,,,,,07,,,,,*7A
$GAGNS,041502.00,,,,,,05,,,,,*75
$GBGNS,041502.00,,,,,,06,,,,,*75
$GPLLQ,041502.00,010125,,M,,M,1,24,3.650,,M*15
$GPVTG,,T,,M,0.01,N,0.01,K,D*26
$GPHDT,,T*1B
$GPTHS,,V*0E
$GPROT,,V*08
$PSSN,HRP,041502.00,010125,,,,,,,00,0,,*63
$PTNL,AVR,041502.00,,Yaw,,Tilt,,,,0,,00*35
$GPGSA,A,3,03,04,06,07,09,30,,,,,,,1.1,0.6,1.0*39
$GPGSA,A,3,70,71,72,73,80,86,87,,,,,,1.1,0.6,1.0*3C
$GPGSA,A,3,05,09,15,34,36,,,,,,,,1.1,0.6,1.0*3F
$GPGSA,A,3,09,12,19,22,36,37,,,,,,,1.1,0.6,1.0*36
$GPGST,041502.00,5.869,1.839,0.888,334.194,1.700,1.131,3.025*54
$GPGBS,041502.00,7.129,4.016,9.956,07,0.0001,2.165,0.704*55
$GPGRS,041502.00,1,0.0,0.7,-1.0,2.2,-0.7,-1.4,,,,,,*65
$GPGRS,041502.00,1,-2.2,0.5,13.0,3.5,-3.7,-1.9,-0.9,,,,,*56
$GPGRS,041502.00,1,0.2,-0.4,3.8,-1.7,-1.5,,,,,,,*40
$GPGRS,041502.00,1,6.6,1.1,-3.5,0.1,-3.3,16.8,,,,,,*74
$GPGSV,4,1,14,09,80,028,46,03,22,121,37,26,12,042,,20,19,306,38*70
$GPGSV,4,2,14,30,15,201,36,16,15,072,,11,36,301,34,07,47,179,46*74
$GPGSV,4,3,14,04,51,063,43,06,52,249,42,36,35,170,41,34,31,208,*7E
$GPGSV,4,4,14,49,34,195,35,61,03,257,*79
$GLGSV,3,1,11,71,66,340,50,70,41,069,36,72,27,285,46,86,36,237,44*6B
$GLGSV,3,2,11,73,32,131,41,80,38,061,49,87,39,300,41,85,00,196,*6E
$GLGSV,3,3,11,74,02,164,,79,07,015,21,88,04,348,*52
$GAGSV,3,1,11,05,70,266,44,36,33,188,35,15,24,319,42,23,11,037,*62
$GAGSV,3,2,11,31,17,087,,03,18,253,33,06,27,066,30,09,51,061,46*64
$GAGSV,3,3,11,34,56,261,46,24,04,134,,04,04,069,*50
$GBGSV,5,1,20,19,69,070,48,36,24,161,41,39,10,041,,05,23,128,*60
$GBGSV,5,2,20,35,16,228,31,12,24,302,40,37,19,042,38,20,21,093,29*64
$GBGSV,5,3,20,16,20,043,28,44,25,275,34,06,23,045,34,46,42,101,*62
$GBGSV,5,4,20,09,36,051,41,22,49,292,44,58,38,078,,48,42,090,*6B
$GBGSV,5,5,20,21,01,281,,02,07,107,,34,06,324,,60,08,111,*68
$GPGGA,041502.00,,,,,0,00,,,M,,M,,*4A
$PTNL,GGK,041502.00,010125,4742.4465525,N,01617.9731319,E,1,24,1.1,EHT669.1186,M*4B
$GPGGQ,041502.00,010125,4742.4465525,N,01617.9731319,E,1,24,3.650,625.9075,M*38
$GPGFA,041502.00,17.481,24.809,1.839,0.888,334.194,3.025,,VVV*0A
$GPLLK,041502.00,010125,,M,,M,1,24,1.3,,M*0D
$GNGMP,041502.00,,,,,DAAA,24,0.6,,,,*54
$GPGMP,041502.00,,,,,,06,,,,3.5,123*7F
$GLGMP,041502.00,,,,,,07,,,,,*7A
$GAGMP,041502.00,,,,,,05,,,,,*75
$GBGMP,041502.00,,,,,,06,,,,,*75
$PSSN,SNC,[0,274520000,2347]*42
$GPZDA,041507.00,01,01,2025,,*64
$GPDTM,W84,,00.0000000,N,00.0000000,E,00.0000000,W84*5F
$GPRMC,041507.00,A,4742.4465571,N,01617.9731166,E,0.0,,010125,5.1,E,D*13
$GPGLL,4742.4465571,N,01617.9731166,E,041507.00,A,D*62
$GPGGA,041507.00,4742.4465571,N,01617.9731166,E,2,23,0.6,625.9206,M,43.2111,M,1.2,0123*43
$GNGNS,041507.00,4742.4465571,N,01617.9731166,E,DAAA,23,0.6,625.9206,43.2111,,*5C
$GPGNS,041507.00,,,,,,06,,,,1.2,123*7F
$GLGNS,041507.00,,,,,,07,,,,,*7F
$GAGNS,041507.00,,,,,,04,,,,,*71
$GBGNS,041507.00,,,,,,06,,,,,*70
$GPLLQ,041507.00,010125,,M,,M,1,23,3.313,,M*15
$GPVTG,,T,,M,0.00,N,0.01,K,D*27
$GPHDT,,T*1B
$GPTHS,,V*0E
$GPROT,,V*08
$PSSN,HRP,041507.00,010125,,,,,,,00,0,,*66
$PTNL,AVR,041507.00,,Yaw,,Tilt,,,,0,,00*30
$GPGSA,A,3,03,04,06,07,09,30,,,,,,,1.2,0.6,1.0*3A
$GPGSA,A,3,70,71,72,73,80,86,87,,,,,,1.2,0.6,1.0*3F
$GPGSA,A,3,05,09,15,34,,,,,,,,,1.2,0.6,1.0*39
$GPGSA,A,3,09,12,19,22,36,37,,,,,,,1.2,0.6,1.0*35
$GPGST,041507.00,4.790,1.677,0.805,334.024,1.548,1.031,2.741*59
$GPGBS,041507.00,6.956,3.972,9.579,07,0.0001,1.511,0.655*5D
$GPGRS,041507.00,1,1.4,0.6,-1.0,1.5,-0.9,-1.6,,,,,,*6C
$GPGRS,041507.00,1,-3.6,-0.5,12.4,1.9,-3.0,-3.6,-1.4,,,,,*76
$GPGRS,041507.00,1,-0.3,-0.2,3.4,-2.1,,,,,,,,*61
$GPGRS,041507.00,1,5.9,-0.2,-3.2,-1.0,-3.2,9.6,,,,,,*49
$GPGSV,4,1,14,09,80,028,45,03,22,121,39,26,12,042,,20,19,306,39*7C
$GPGSV,4,2,14,30,15,201,36,16,15,072,,11,36,301,29,07,48,179,48*79
$GPGSV,4,3,14,04,51,063,44,06,52,249,43,36,35,170,41,34,31,208,*78
$GPGSV,4,4,14,49,34,195,35,61,03,257,*79
$GLGSV,3,1,11,71,66,341,50,70,41,069,35,72,27,285,46,86,36,237,41*6C
$GLGSV,3,2,11,73,32,131,41,80,38,061,48,87,39,300,41,85,00,196,*6F
$GLGSV,3,3,11,74,02,164,,79,07,015,26,88,04,348,28*5F
$GAGSV,3,1,11,05,70,266,44,36,33,188,28,15,24,319,43,23,11,037,*6F
$GAGSV,3,2,11,31,17,087,30,03,18,253,33,06,27,067,29,09,51,061,46*6E
$GAGSV,3,3,11,34,56,261,46,24,04,134,,04,04,069,*50
$GBGSV,5,1,20,19,69,070,48,36,24,161,42,39,10,041,,05,23,128,*63
$GBGSV,5,2,20,35,16,228,31,12,24,302,40,37,19,042,37,20,21,093,30*63
$GBGSV,5,3,20,16,20,043,28,44,25,275,34,06,23,045,33,46,42,101,*65
$GBGSV,5,4,20,09,36,051,41,22,49,292,44,58,38,078,,48,42,090,*6B
$GBGSV,5,5,20,21,01,281,,02,07,107,,34,06,324,,60,08,111,*68
$GPGGA,041507.00,,,,,0,00,,,M,,M,,*4F
$PTNL,GGK,041507.00,010125,4742.4465571,N,01617.9731166,E,1,23,1.2,EHT669.1317,M*4B
$GPGGQ,041507.00,010125,4742.4465571,N,01617.9731166,E,1,23,3.313,625.9206,M*35
$GPGFA,041507.00,15.942,22.478,1.677,0.805,334.024,2.741,,VVV*0C
$GPLLK,041507.00,010125,,M,,M,1,23,1.3,,M*0F
$GNGMP,041507.00,,,,,DAAA,23,0.6,,,,*56
$GPGMP,041507.00,,,,,,06,,,,1.2,123*7F
$GLGMP,041507.00,,,,,,07,,,,,*7F
$GAGMP,041507.00,,,,,,04,,,,,*71
$GBGMP,041507.00,,,,,,06,,,,,*70
$PSSN,SNC,[0,274525000,2347]*47
$GPZDA,041512.00,01,01,2025,,*60
$GPDTM,W84,,00.0000000,N,00.0000000,E,00.0000000,W84*5F
$GPRMC,041512.00,A,4742.4465641,N,01617.9730942,E,0.0,,010125,5.1,E,D*18
$GPGLL,4742.4465641,N,01617.9730942,E,041512.00,A,D*69
$GPGGA,041512.00,4742.4465641,N,01617.9730942,E,2,25,0.5,625.9470,M,43.2111,M,2.0,0123*4B
$GNGNS,041512.00,4742.4465641,N,01617.9730942,E,DAAA,25,0.5,625.9470,43.2111,,*55
$GPGNS,041512.00,,,,,,07,,,,2.0,123*7B
$GLGNS,041512.00,,,,,,07,,,,,*7B
$GAGNS,041512.00,,,,,,05,,,,,*74
$GBGNS,041512.00,,,,,,06,,,,,*74
$GPLLQ,041512.00,010125,,M,,M,1,25,2.558,,M*1F
$GPVTG,,T,,M,0.00,N,0.01,K,D*27
$GPHDT,,T*1B
$GPTHS,,V*0E
$GPROT,,V*08
$PSSN,HRP,041512.00,010125,,,,,,,00,0,,*62
$PTNL,AVR,041512.00,,Yaw,,Tilt,,,,0,,00*34
$GPGSA,A,3,03,04,06,07,09,20,30,,,,,,1.1,0.5,0.9*30
$GPGSA,A,3,70,71,72,73,80,86,87,,,,,,1.1,0.5,0.9*37
$GPGSA,A,3,03,05,09,15,34,,,,,,,,1.1,0.5,0.9*32
$GPGSA,A,3,09,12,19,22,36,37,,,,,,,1.1,0.5,0.9*3D
$GPGST,041512.00,4.443,1.111,0.964,358.461,1.111,0.964,2.093*56
$GPGBS,041512.00,3.233,2.506,5.580,03,0.0001,3.527,0.911*5C
$GPGRS,041512.00,1,3.5,-0.6,0.4,1.5,-1.1,-1.9,-1.7,,,,,*6D
$GPGRS,041512.00,1,-3.8,-0.5,11.3,1.9,-3.2,-6.1,-2.0,,,,,*7F
$GPGRS,041512.00,1,-1.8,-1.3,-0.6,2.9,-2.5,,,,,,,*62
$GPGRS,041512.00,1,4.9,0.3,-3.5,-1.6,-3.3,8.0,,,,,,*67
$GPGSV,4,1,14,09,80,029,44,03,22,121,40,26,12,042,,20,19,306,39*72
$GPGSV,4,2,14,30,15,201,36,16,15,072,,11,37,301,32,07,48,179,49*73
$GPGSV,4,3,14,04,51,063,45,06,52,249,44,36,35,170,41,34,31,208,*7E
$GPGSV,4,4,14,49,34,195,35,61,03,257,*79
$GLGSV,3,1,11,71,66,341,50,70,41,069,35,72,27,285,46,86,36,237,40*6D
$GLGSV,3,2,11,73,32,131,42,80,38,061,48,87,39,300,40,85,00,196,*6D
$GLGSV,3,3,11,74,02,164,,79,07,015,28,88,04,348,27*5E
$GAGSV,3,1,11,05,70,266,44,36,33,188,29,15,24,319,43,23,11,037,*6E
$GAGSV,3,2,11,31,17,087,28,03,18,253,32,06,27,067,29,09,51,061,46*66
$GAGSV,3,3,11,34,56,261,46,24,04,134,,04,04,069,*50
$GBGSV,5,1,20,19,69,070,49,36,24,161,43,39,10,041,,05,23,128,*63
$GBGSV,5,2,20,35,16,228,31,12,24,302,41,37,19,042,37,20,21,093,29*6A
$GBGSV,5,3,20,16,20,043,29,44,25,275,34,06,23,045,34,46,42,101,*63
$GBGSV,5,4,20,09,36,051,41,22,49,292,43,58,38,078,,48,42,090,*6C
$GBGSV,5,5,20,21,01,281,,02,07,107,,34,06,324,,60,08,111,*68
$GPGGA,041512.00,,,,,0,00,,,M,,M,,*4B
$PTNL,GGK,041512.00,010125,4742.4465641,N,01617.9730942,E,1,25,1.1,EHT669.1581,M*4C
$GPGGQ,041512.00,010125,4742.4465641,N,01617.9730942,E,1,25,2.558,625.9470,M*37
$GPGFA,041512.00,10.562,17.165,1.111,0.964,358.461,2.093,,VVV*0A
$GPLLK,041512.00,010125,,M,,M,1,25,1.2,,M*0C
$GNGMP,041512.00,,,,,DAAA,25,0.5,,,,*57
$GPGMP,041512.00,,,,,,07,,,,2.0,123*7B
$GLGMP,041512.00,,,,,,07,,,,,*7B
$GAGMP,041512.00,,,,,,05,,,,,*74
$GBGMP,041512.00,,,,,,06,,,,,*74
$PSSN,SNC,[0,274530000,2347]*43
$GPZDA,041517.00,01,01,2025,,*65
$GPDTM,W84,,00.0000000,N,00.0000000,E,00.0000000,W84*5F
$GPRMC,041517.00,A,4742.4465821,N,01617.9730888,E,0.0,,010125,5.1,E,D*12
$GPGLL,4742.4465821,N,01617.9730888,E,041517.00,A,D*63
$GPGGA,041517.00,4742.4465821,N,01617.9730888,E,2,25,0.5,625.9292,M,43.2111,M,3.0,0123*4A
$GNGNS,041517.00,4742.4465821,N,01617.9730888,E,DAAA,25,0.5,625.9292,43.2111,,*55
$GPGNS,041517.00,,,,,,07,,,,3.0,123*7F
$GLGNS,041517.00,,,,,,07,,,,,*7E
$GAGNS,041517.00,,,,,,05,,,,,*71
$GBGNS,041517.00,,,,,,06,,,,,*71
$GPLLQ,041517.00,010125,,M,,M,1,25,2.692,,M*1F
$GPVTG,,T,,M,0.00,N,0.01,K,D*27
$GPHDT,,T*1B
$GPTHS,,V*0E
$GPROT,,V*08
$PSSN,HRP,041517.00,010125,,,,,,,00,0,,*67
$PTNL,AVR,041517.00,,Yaw,,Tilt,,,,0,,00*31
$GPGSA,A,3,03,04,06,07,09,20,30,,,,,,1.1,0.5,0.9*30
$GPGSA,A,3,70,71,72,73,80,86,87,,,,,,1.1,0.5,0.9*37
$GPGSA,A,3,03,05,09,15,34,,,,,,,,1.1,0.5,0.9*32
$GPGSA,A,3,09,12,19,22,36,37,,,,,,,1.1,0.5,0.9*3D
$GPGST,041517.00,4.517,1.166,1.015,1.227,1.166,1.015,2.204*54
$GPGBS,041517.00,3.279,2.558,5.640,20,0.0001,-3.221,1.007*71
$GPGRS,041517.00,1,2.8,-1.2,1.0,1.5,-0.3,-3.2,-1.9,,,,,*60
$GPGRS,041517.00,1,-2.8,-0.5,11.3,3.3,-2.9,-4.4,-5.5,,,,,*7C
$GPGRS,041517.00,1,-1.2,-1.4,-0.5,2.7,-2.3,,,,,,,*61
$GPGRS,041517.00,1,5.3,1.0,-3.7,-1.3,-2.8,8.3,,,,,,*65
$GPGSV,4,1,14,09,80,029,43,03,21,121,39,26,12,042,,20,19,306,39*78
$GPGSV,4,2,14,30,15,201,35,16,15,072,,11,37,301,35,07,48,179,49*77
$GPGSV,4,3,14,04,51,063,46,06,52,249,42,36,35,170,41,34,31,208,*7B
$GPGSV,4,4,14,49,34,195,35,61,03,257,*79
$GLGSV,3,1,11,71,66,341,51,70,41,069,36,72,27,285,46,86,36,237,38*60
$GLGSV,3,2,11,73,32,131,42,80,38,061,47,87,39,300,36,85,00,196,*63
$GLGSV,3,3,11,74,03,164,,79,07,015,28,88,04,348,27*5F
$GAGSV,3,1,11,05,70,266,44,36,33,188,29,15,24,319,43,23,11,037,*6E
$GAGSV,3,2,11,31,17,087,30,03,18,253,32,06,27,067,31,09,51,061,46*66
$GAGSV,3,3,11,34,56,261,46,24,04,134,,04,04,069,*50
$GBGSV,5,1,20,19,69,070,49,36,24,161,43,39,10,041,,05,23,128,*63
$GBGSV,5,2,20,35,16,228,31,12,24,302,40,37,19,042,36,20,21,093,28*6B
$GBGSV,5,3,20,16,20,043,29,44,25,275,33,06,23,045,34,46,42,101,*64
$GBGSV,5,4,20,09,36,051,41,22,49,292,42,58,38,078,,48,42,090,*6D
$GBGSV,5,5,20,21,01,281,,02,07,107,,34,06,324,,60,08,111,*68
$GPGGA,041517.00,,,,,0,00,,,M,,M,,*4E
$PTNL,GGK,041517.00,010125,4742.4465821,N,01617.9730888,E,1,25,1.1,EHT669.1403,M*4D
$GPGGQ,041517.00,010125,4742.4465821,N,01617.9730888,E,1,25,2.692,625.9292,M*32
$GPGFA,041517.00,11.087,18.073,1.166,1.015,1.227,2.204,,VVV*00
$GPLLK,041517.00,010125,,M,,M,1,25,1.2,,M*09
$GNGMP,041517.00,,,,,DAAA,25,0.5,,,,*52
$GPGMP,041517.00,,,,,,07,,,,3.0,123*7F
$GLGMP,041517.00,,,,,,07,,,,,*7E
$GAGMP,041517.00,,,,,,05,,,,,*71
$GBGMP,041517.00,,,,,,06,,,,,*71
$PSSN,SNC,[0,274535000,2347]*46
$GPZDA,041522.00,01,01,2025,,*63
$GPDTM,W84,,00.0000000,N,00.0000000,E,00.0000000,W84*5F
$GPRMC,041522.00,A,4742.4465887,N,01617.9730884,E,0.0,,010125,5.1,E,D*14
$GPGLL,4742.4465887,N,01617.9730884,E,041522.00,A,D*65
$GPGGA,041522.00,4742.4465887,N,01617.9730884,E,2,22,0.6,625.9187,M,43.2111,M,3.4,0123*4B
$GNGNS,041522.00,4742.4465887,N,01617.9730884,E,DAAA,22,0.6,625.9187,43.2111,,*50
$GPGNS,041522.00,,,,,,07,,,,3.4,123*7D
$GLGNS,041522.00,,,,,,05,,,,,*7A
$GAGNS,041522.00,,,,,,04,,,,,*76
$GBGNS,041522.00,,,,,,06,,,,,*77
$GPLLQ,041522.00,010125,,M,,M,1,22,2.476,,M*16
$GPVTG,,T,,M,0.01,N,0.01,K,D*26
$GPHDT,,T*1B
$GPTHS,,V*0E
$GPROT,,V*08
$PSSN,HRP,041522.00,010125,,,,,,,00,0,,*61
$PTNL,AVR,041522.00,,Yaw,,Tilt,,,,0,,00*37
$GPGSA,A,3,03,04,07,09,11,20,30,,,,,,1.1,0.6,1.0*3D
$GPGSA,A,3,71,72,73,80,86,,,,,,,,1.1,0.6,1.0*34
$GPGSA,A,3,05,09,15,34,,,,,,,,,1.1,0.6,1.0*3A
$GPGSA,A,3,09,12,19,22,36,37,,,,,,,1.1,0.6,1.0*36
$GPGST,041522.00,4.782,1.107,0.807,45.202,0.968,0.970,2.062*68
$GPGBS,041522.00,3.261,3.126,6.515,11,0.0001,2.253,0.779*56
$GPGRS,041522.00,1,-0.1,-1.4,1.0,-0.1,2.3,-1.5,-2.0,,,,,*4E
$GPGRS,041522.00,1,-0.4,12.6,2.6,-2.7,-3.7,,,,,,,*79
$GPGRS,041522.00,1,-0.5,-0.6,2.9,-2.1,,,,,,,,*68
$GPGRS,041522.00,1,5.4,0.9,-3.5,0.6,-2.2,9.0,,,,,,*4F
$GPGSV,4,1,14,09,80,029,43,03,21,121,38,26,12,042,,20,19,306,38*78
$GPGSV,4,2,14,30,15,201,35,16,15,072,,11,37,301,37,07,48,179,48*74
$GPGSV,4,3,14,04,51,063,47,06,52,249,38,36,35,170,41,34,31,208,*77
$GPGSV,4,4,14,49,34,195,35,61,03,257,*79
$GLGSV,3,1,11,71,66,341,51,70,41,069,35,72,27,285,45,86,36,237,36*6E
$GLGSV,3,2,11,73,32,131,41,80,38,061,46,87,39,300,26,85,00,196,*60
$GLGSV,3,3,11,74,03,164,,79,07,015,29,88,04,348,30*58
$GAGSV,3,1,11,05,70,267,43,36,33,188,29,15,24,319,44,23,11,037,*6F
$GAGSV,3,2,11,31,17,087,29,03,18,253,34,06,27,067,31,09,51,062,46*6B
$GAGSV,3,3,11,34,56,261,46,24,04,134,,04,03,069,*57
$GBGSV,5,1,20,19,69,070,49,36,24,161,44,39,10,041,,05,23,128,*64
$GBGSV,5,2,20,35,16,228,30,12,24,302,40,37,19,042,35,20,21,093,28*69
$GBGSV,5,3,20,16,20,043,30,44,25,275,35,06,23,045,34,46,42,101,*6A
$GBGSV,5,4,20,09,36,051,41,22,49,292,41,58,38,078,,48,42,090,*6E
$GBGSV,5,5,20,21,01,281,,02,07,107,,34,06,324,,60,08,111,*68
$GPGGA,041522.00,,,,,0,00,,,M,,M,,*48
$PTNL,GGK,041522.00,010125,4742.4465887,N,01617.9730884,E,1,22,1.1,EHT669.1298,M*48
$GPGGQ,041522.00,010125,4742.4465887,N,01617.9730884,E,1,22,2.476,625.9187,M*3C
$GPGFA,041522.00,10.529,16.909,1.107,0.807,45.202,2.062,,VVV*34
$GPLLK,041522.00,010125,,M,,M,1,22,1.3,,M*09
$GNGMP,041522.00,,,,,DAAA,22,0.6,,,,*50
$GPGMP,041522.00,,,,,,07,,,,3.4,123*7D
$GLGMP,041522.00,,,,,,05,,,,,*7A
$GAGMP,041522.00,,,,,,04,,,,,*76
$GBGMP,041522.00,,,,,,06,,,,,*77
$PSSN,SNC,[0,274540000,2347]*44
$GPZDA,041527.00,01,01,2025,,*66
$GPDTM,W84,,00.0000000,N,00.0000000,E,00.0000000,W84*5F
$GPRMC,041527.00,A,4742.4465802,N,01617.9731082,E,0.0,,010125,5.1,E,D*13
$GPGLL,4742.4465802,N,01617.9731082,E,041527.00,A,D*62
$GPGGA,041527.00,4742.4465802,N,01617.9731082,E,2,23,0.6,625.9069,M,43.2111,M,1.6,0123*4C
$GNGNS,041527.00,4742.4465802,N,01617.9731082,E,DAAA,23,0.6,625.9069,43.2111,,*57
$GPGNS,041527.00,,,,,,07,,,,1.6,123*78
$GLGNS,041527.00,,,,,,04,,,,,*7E
$GAGNS,041527.00,,,,,,05,,,,,*72
$GBGNS,041527.00,,,,,,07,,,,,*73
$GPLLQ,041527.00,010125,,M,,M,1,23,2.483,,M*18
$GPVTG,,T,,M,0.01,N,0.02,K,D*25
$GPHDT,,T*1B
$GPTHS,,V*0E
$GPROT,,V*08
$PSSN,HRP,041527.00,010125,,,,,,,00,0,,*64
$PTNL,AVR,041527.00,,Yaw,,Tilt,,,,0,,00*32
$GPGSA,A,3,03,04,07,09,11,20,30,,,,,,1.1,0.6,0.9*35
$GPGSA,A,3,71,72,73,80,,,,,,,,,1.1,0.6,0.9*32
$GPGSA,A,3,03,05,09,15,34,,,,,,,,1.1,0.6,0.9*31
$GPGSA,A,3,09,12,19,22,36,37,44,,,,,,1.1,0.6,0.9*3E
$GPGST,041527.00,5.466,1.125,0.753,42.289,0.974,0.940,2.081*6C
$GPGBS,041527.00,3.251,2.925,6.295,11,0.0001,2.268,0.730*50
$GPGRS,041527.00,1,-0.6,-1.0,-0.7,0.5,2.3,-0.7,-2.2,,,,,*4B
$GPGRS,041527.00,1,-0.9,13.4,2.7,-3.3,,,,,,,,*71
$GPGRS,041527.00,1,9.4,-0.1,-0.3,3.2,-2.1,,,,,,,*45
$GPGRS,041527.00,1,5.7,0.7,-3.1,1.6,-1.6,10.4,-2.5,,,,,*7D
$GPGSV,4,1,14,09,80,029,45,03,21,121,36,26,12,042,,20,19,306,38*70
$GPGSV,4,2,14,30,15,201,35,16,15,072,,11,37,301,40,07,48,179,47*7B
$GPGSV,4,3,14,04,51,063,47,06,52,249,39,36,35,170,41,34,31,208,*76
$GPGSV,4,4,14,49,34,195,35,61,03,257,*79
$GLGSV,3,1,11,71,66,341,50,70,41,069,34,72,27,285,44,86,36,237,34*6D
$GLGSV,3,2,11,73,32,131,43,80,38,061,44,87,39,300,26,85,00,196,*60
$GLGSV,3,3,11,74,03,164,,79,07,015,29,88,04,348,31*59
$GAGSV,3,1,11,05,70,267,43,36,33,188,28,15,24,319,43,23,11,037,*69
$GAGSV,3,2,11,31,17,087,28,03,18,253,35,06,27,067,32,09,51,062,46*68
$GAGSV,3,3,11,34,56,261,46,24,04,134,,04,03,069,*57
$GBGSV,5,1,20,19,69,070,48,36,24,161,44,39,10,041,,05,23,128,*65
$GBGSV,5,2,20,35,16,228,32,12,24,302,39,37,19,042,36,20,21,093,27*69
$GBGSV,5,3,20,16,20,043,31,44,25,275,35,06,23,045,34,46,42,101,*6B
$GBGSV,5,4,20,09,36,051,41,22,49,292,39,58,38,078,,48,42,090,*61
$GBGSV,5,5,20,21,01,281,,02,07,107,,34,06,324,,60,08,111,*68
$GPGGA,041527.00,,,,,0,00,,,M,,M,,*4D
$PTNL,GGK,041527.00,010125,4742.4465802,N,01617.9731082,E,1,23,1.1,EHT669.1179,M*42
$GPGGQ,041527.00,010125,4742.4465802,N,01617.9731082,E,1,23,2.483,625.9069,M*31
$GPGFA,041527.00,10.695,17.063,1.125,0.753,42.289,2.081,,VVV*36
$GPLLK,041527.00,010125,,M,,M,1,23,1.3,,M*0D
$GNGMP,041527.00,,,,,DAAA,23,0.6,,,,*54
$GPGMP,041527.00,,,,,,07,,,,1.6,123*78
$GLGMP,041527.00,,,,,,04,,,,,*7E
$GAGMP,041527.00,,,,,,05,,,,,*72
$GBGMP,041527.00,,,,,,07,,,,,*73
$PSSN,SNC,[0,274545000,2347]*41
$GPZDA,041532.00,01,01,2025,,*62
$GPDTM,W84,,00.0000000,N,00.0000000,E,00.0000000,W84*5F
$GPRMC,041532.00,A,4742.4465597,N,01617.9731285,E,0.0,,010125,5.1,E,D*13
$GPGLL,4742.4465597,N,01617.9731285,E,041532.00,A,D*62
$GPGGA,041532.00,4742.4465597,N,01617.9731285,E,2,23,0.6,625.8937,M,43.2111,M,2.2,0123*48
$GNGNS,041532.00,4742.4465597,N,01617.9731285,E,DAAA,23,0.6,625.8937,43.2111,,*54
$GPGNS,041532.00,,,,,,06,,,,2.2,123*7A
$GLGNS,041532.00,,,,,,05,,,,,*7B
$GAGNS,041532.00,,,,,,05,,,,,*76
$GBGNS,041532.00,,,,,,07,,,,,*77
$GPLLQ,041532.00,010125,,M,,M,1,23,3.464,,M*14
$GPVTG,,T,,M,0.00,N,0.00,K,D*26
$GPHDT,,T*1B
$GPTHS,,V*0E
$GPROT,,V*08
$PSSN,HRP,041532.00,010125,,,,,,,00,0,,*60
$PTNL,AVR,041532.00,,Yaw,,Tilt,,,,0,,00*36
$GPGSA,A,3,04,07,09,11,20,30,,,,,,,1.1,0.6,1.0*3E
$GPGSA,A,3,71,72,73,80,86,,,,,,,,1.1,0.6,1.0*34
$GPGSA,A,3,03,05,09,15,34,,,,,,,,1.1,0.6,1.0*39
$GPGSA,A,3,09,12,19,22,36,37,44,,,,,,1.1,0.6,1.0*36
$GPGST,041532.00,6.102,1.509,1.012,70.549,1.078,1.462,2.950*62
$GPGBS,041532.00,3.249,5.421,8.582,11,0.0001,2.713,0.739*5C
$GPGRS,041532.00,1,-0.8,-1.1,0.6,2.7,-0.9,-2.0,,,,,,*4F
$GPGRS,041532.00,1,-1.7,11.9,4.8,-3.2,-4.9,,,,,,,*73
$GPGRS,041532.00,1,12.8,-0.2,-0.2,3.4,-2.2,,,,,,,*70
$GPGRS,041532.00,1,4.9,-1.4,-2.3,0.9,-0.8,12.3,3.6,,,,,*71
$GPGSV,4,1,14,09,79,029,46,03,21,121,34,26,12,042,,20,19,306,38*77
$GPGSV,4,2,14,30,16,201,36,16,15,072,,11,37,301,41,07,48,179,45*78
$GPGSV,4,3,14,04,51,063,48,06,52,249,41,36,35,170,41,34,31,208,*76
$GPGSV,4,4,14,49,34,195,35,61,03,257,*79
$GLGSV,3,1,11,71,66,341,49,70,41,069,34,72,27,285,42,86,36,237,37*60
$GLGSV,3,2,11,73,32,131,44,80,38,061,44,87,39,300,33,85,00,196,*63
$GLGSV,3,3,11,74,03,164,,79,07,015,25,88,04,348,32*56
$GAGSV,3,1,11,05,70,267,43,36,33,188,27,15,24,319,43,23,11,037,*66
$GAGSV,3,2,11,31,17,087,26,03,18,253,35,06,27,067,33,09,51,062,46*67
$GAGSV,3,3,11,34,56,261,45,24,04,134,,04,03,069,*54
$GBGSV,5,1,20,19,69,070,48,36,24,161,43,39,10,041,,05,23,128,*62
$GBGSV,5,2,20,35,16,228,33,12,24,302,37,37,19,042,35,20,21,093,30*63
$GBGSV,5,3,20,16,20,043,31,44,25,275,35,06,23,045,33,46,42,101,*6C
$GBGSV,5,4,20,09,36,051,41,22,49,292,37,58,38,077,,48,42,090,*60
$GBGSV,5,5,20,21,01,281,,02,07,107,,34,06,324,,60,08,111,*68
$GPGGA,041532.00,,,,,0,00,,,M,,M,,*49
$PTNL,GGK,041532.00,010125,4742.4465597,N,01617.9731285,E,1,23,1.1,EHT669.1047,M*4E
$GPGGQ,041532.00,010125,4742.4465597,N,01617.9731285,E,1,23,3.464,625.8937,M*3A
$GPGFA,041532.00,14.347,24.188,1.509,1.012,70.549,2.950,,VVV*3E
$GPLLK,041532.00,010125,,M,,M,1,23,1.3,,M*09
$GNGMP,041532.00,,,,,DAAA,23,0.6,,,,*50
$GPGMP,041532.00,,,,,,06,,,,2.2,123*7A
$GLGMP,041532.00,,,,,,05,,,,,*7B
$GAGMP,041532.00,,,,,,05,,,,,*76
$GBGMP,041532.00,,,,,,07,,,,,*77
$PSSN,SNC,[0,274550000,2347]*45
$GPZDA,041537.00,01,01,2025,,*67
$GPDTM,W84,,00.0000000,N,00.0000000,E,00.0000000,W84*5F
$GPRMC,041537.00,A,4742.4465498,N,01617.9731274,E,0.0,,010125,5.1,E,D*16
$GPGLL,4742.4465498,N,01617.9731274,E,041537.00,A,D*67
$GPGGA,041537.00,4742.4465498,N,01617.9731274,E,2,23,0.6,625.8872,M,43.2111,M,2.5,0123*4A
$GNGNS,041537.00,4742.4465498,N,01617.9731274,E,DAAA,23,0.6,625.8872,43.2111,,*51
$GPGNS,041537.00,,,,,,06,,,,2.5,123*78
$GLGNS,041537.00,,,,,,06,,,,,*7D
$GAGNS,041537.00,,,,,,05,,,,,*73
$GBGNS,041537.00,,,,,,06,,,,,*73
$GPLLQ,041537.00,010125,,M,,M,1,23,1.996,,M*13
$GPVTG,,T,,M,0.00,N,0.01,K,D*27
$GPHDT,,T*1B
$GPTHS,,V*0E
$GPROT,,V*08
$PSSN,HRP,041537.00,010125,,,,,,,00,0,,*65
$PTNL,AVR,041537.00,,Yaw,,Tilt,,,,0,,00*33
$GPGSA,A,3,04,06,07,09,20,30,,,,,,,1.2,0.6,1.0*3B
$GPGSA,A,3,71,72,73,80,86,87,,,,,,,1.2,0.6,1.0*38
$GPGSA,A,3,03,05,09,15,34,,,,,,,,1.2,0.6,1.0*3A
$GPGSA,A,3,09,12,19,22,35,36,,,,,,,1.2,0.6,1.0*37
$GPGST,041537.00,5.339,0.849,0.723,291.448,0.741,0.833,1.655*53
$GPGBS,041537.00,3.429,4.063,6.356,03,0.0001,14.119,6.199*69
$GPGRS,041537.00,1,-0.3,-0.1,0.1,0.4,-0.3,-0.4,,,,,,*4A
$GPGRS,041537.00,1,-1.5,11.6,5.8,-2.2,-2.1,-3.1,,,,,,*74
$GPGRS,041537.00,1,14.1,-0.0,0.3,2.8,-1.2,,,,,,,*5A
$GPGRS,041537.00,1,4.9,-4.1,-1.1,0.4,3.8,0.1,,,,,,*4C
$GPGSV,4,1,14,09,79,029,46,03,21,121,32,26,12,042,,20,19,306,37*7E
$GPGSV,4,2,14,30,16,201,36,16,15,072,,11,37,301,42,07,48,179,45*7B
$GPGSV,4,3,14,04,51,063,48,06,52,249,43,36,35,170,40,34,31,208,*75
$GPGSV,4,4,14,49,34,195,35,61,03,257,*79
$GLGSV,3,1,11,71,66,341,48,70,41,069,34,72,27,285,44,86,35,237,40*64
$GLGSV,3,2,11,73,32,131,44,80,38,061,45,87,39,300,37,85,00,195,*65
$GLGSV,3,3,11,74,03,164,,79,07,015,,88,04,348,31*52
$GAGSV,3,1,11,05,70,267,44,36,33,188,29,15,24,319,43,23,11,037,*6F
$GAGSV,3,2,11,31,17,086,24,03,18,253,36,06,27,067,34,09,51,062,46*60
$GAGSV,3,3,11,34,56,260,46,24,04,134,,04,03,069,*56
$GBGSV,5,1,20,19,69,070,49,36,24,161,43,35,15,228,36,05,23,128,*62
$GBGSV,5,2,20,37,19,042,35,12,24,302,35,16,20,043,31,20,21,093,32*6A
$GBGSV,5,3,20,06,23,045,34,44,25,275,35,09,36,051,41,46,42,101,*66
$GBGSV,5,4,20,58,38,077,,22,49,292,36,48,42,090,,02,07,107,*6F
$GBGSV,5,5,20,21,01,281,,39,10,041,,34,06,324,,60,08,111,*65
$GPGGA,041537.00,,,,,0,00,,,M,,M,,*4C
$PTNL,GGK,041537.00,010125,4742.4465498,N,01617.9731274,E,1,23,1.2,EHT669.0983,M*48
$GPGGQ,041537.00,010125,4742.4465498,N,01617.9731274,E,1,23,1.996,625.8872,M*3D
$GPGFA,041537.00,8.073,13.574,0.849,0.723,291.448,1.655,,VVV*39
$GPLLK,041537.00,010125,,M,,M,1,23,1.4,,M*0B
$GNGMP,041537.00,,,,,DAAA,23,0.6,,,,*55
$GPGMP,041537.00,,,,,,06,,,,2.5,123*78
$GLGMP,041537.00,,,,,,06,,,,,*7D
$GAGMP,041537.00,,,,,,05,,,,,*73
$GBGMP,041537.00,,,,,,06,,,,,*73
$PSSN,SNC,[0,274555000,2347]*40
$GPZDA,041542.00,01,01,2025,,*65
$GPDTM,W84,,00.0000000,N,00.0000000,E,00.0000000,W84*5F
$GPRMC,041542.00,A,4742.4465447,N,01617.9731406,E,0.0,,010125,5.1,E,D*15
$GPGLL,4742.4465447,N,01617.9731406,E,041542.00,A,D*64
$GPGGA,041542.00,4742.4465447,N,01617.9731406,E,2,25,0.6,625.8907,M,43.2111,M,3.6,0123*4E
$GNGNS,041542.00,4742.4465447,N,01617.9731406,E,DAAA,25,0.6,625.8907,43.2111,,*57
$GPGNS,041542.00,,,,,,07,,,,3.6,123*79
$GLGNS,041542.00,,,,,,06,,,,,*7F
$GAGNS,041542.00,,,,,,05,,,,,*71
$GBGNS,041542.00,,,,,,07,,,,,*70
$GPLLQ,041542.00,010125,,M,,M,1,25,2.390,,M*18
$GPVTG,,T,,M,0.00,N,0.01,K,D*27
$GPHDT,,T*1B
$GPTHS,,V*0E
$GPROT,,V*08
$PSSN,HRP,041542.00,010125,,,,,,,00,0,,*67
$PTNL,AVR,041542.00,,Yaw,,Tilt,,,,0,,00*31
$GPGSA,A,3,04,06,07,09,11,20,30,,,,,,1.2,0.6,1.0*3B
$GPGSA,A,3,71,72,73,80,86,87,,,,,,,1.2,0.6,1.0*38
$GPGSA,A,3,03,05,09,15,34,,,,,,,,1.2,0.6,1.0*3A
$GPGSA,A,3,09,12,19,22,35,36,44,,,,,,1.2,0.6,1.0*37
$GPGST,041542.00,4.544,0.960,0.801,71.876,0.818,0.945,2.036*67
$GPGBS,041542.00,2.713,4.149,6.471,11,0.0001,2.386,0.772*5E
$GPGRS,041542.00,1,-0.8,-1.0,0.2,0.1,2.4,-0.6,0.5,,,,,*44
$GPGRS,041542.00,1,-1.5,8.3,5.0,-2.4,-2.3,-4.1,,,,,,*40
$GPGRS,041542.00,1,12.2,-0.8,-0.6,0.7,-1.9,,,,,,,*7B
$GPGRS,041542.00,1,3.9,-5.0,-1.4,0.1,2.7,-0.3,-5.9,,,,,*67
$GPGSV,4,1,14,09,79,029,46,03,21,121,31,26,12,042,,20,19,307,36*7D
$GPGSV,4,2,14,30,16,201,36,16,15,072,,11,37,301,42,07,48,179,45*7B
$GPGSV,4,3,14,04,51,063,47,06,52,249,43,36,35,170,41,34,31,208,*7B
$GPGSV,4,4,14,49,34,195,35,61,03,257,*79
$GLGSV,3,1,11,71,66,341,48,70,41,069,34,72,27,285,39,86,35,237,42*6C
$GLGSV,3,2,11,73,32,131,44,80,38,061,46,87,39,300,39,85,00,195,*68
$GLGSV,3,3,11,74,03,164,,79,07,015,29,88,04,348,28*51
$GAGSV,3,1,11,05,70,267,44,36,33,188,29,15,24,319,42,23,11,037,*6E
$GAGSV,3,2,11,31,17,086,,03,18,253,36,06,27,067,34,09,51,062,46*66
$GAGSV,3,3,11,34,56,260,46,24,04,134,,04,03,069,*56
$GBGSV,5,1,20,19,69,070,49,36,24,161,42,35,15,228,36,05,23,128,*63
$GBGSV,5,2,20,37,19,042,33,12,24,302,35,16,20,043,31,20,21,093,32*6C
$GBGSV,5,3,20,06,23,045,33,44,25,275,36,09,36,051,40,46,43,101,*62
$GBGSV,5,4,20,58,38,077,,22,49,292,37,48,42,090,,02,07,107,*6E
$GBGSV,5,5,20,21,01,281,,39,10,041,,34,06,324,,60,08,111,*65
$GPGGA,041542.00,,,,,0,00,,,M,,M,,*4E
$PTNL,GGK,041542.00,010125,4742.4465447,N,01617.9731406,E,1,25,1.2,EHT669.1018,M*47
$GPGGQ,041542.00,010125,4742.4465447,N,01617.9731406,E,1,25,2.390,625.8907,M*34
$GPGFA,041542.00,9.124,16.699,0.960,0.801,71.876,2.036,,VVV*04
$GPLLK,041542.00,010125,,M,,M,1,25,1.4,,M*0F
$GNGMP,041542.00,,,,,DAAA,25,0.6,,,,*51
$GPGMP,041542.00,,,,,,07,,,,3.6,123*79
$GLGMP,041542.00,,,,,,06,,,,,*7F
$GAGMP,041542.00,,,,,,05,,,,,*71
$GBGMP,041542.00,,,,,,07,,,,,*70
$PSSN,SNC,[0,274560000,2347]*46
$GPZDA,041547.00,01,01,2025,,*60
$GPDTM,W84,,00.0000000,N,00.0000000,E,00.0000000,W84*5F
$GPRMC,041547.00,A,4742.4465423,N,01617.9731479,E,0.0,,010125,5.1,E,D*1A
$GPGLL,4742.4465423,N,01617.9731479,E,041547.00,A,D*6B
$GPGGA,041547.00,4742.4465423,N,01617.9731479,E,2,24,0.6,625.9062,M,43.2111,M,1.7,0123*48
$GNGNS,041547.00,4742.4465423,N,01617.9731479,E,DAAA,24,0.6,625.9062,43.2111,,*52
$GPGNS,041547.00,,,,,,07,,,,1.7,123*7F
$GLGNS,041547.00,,,,,,05,,,,,*79
$GAGNS,041547.00,,,,,,06,,,,,*77
$GBGNS,041547.00,,,,,,06,,,,,*74
$GPLLQ,041547.00,010125,,M,,M,1,24,2.872,,M*1B
$GPVTG,,T,,M,0.01,N,0.01,K,D*26
$GPHDT,,T*1B
$GPTHS,,V*0E
$GPROT,,V*08
$PSSN,HRP,041547.00,010125,,,,,,,00,0,,*62
$PTNL,AVR,041547.00,,Yaw,,Tilt,,,,0,,00*34
$GPGSA,A,3,04,06,07,09,11,20,30,,,,,,1.2,0.6,1.0*3B
$GPGSA,A,3,71,73,80,86,87,,,,,,,,1.2,0.6,1.0*3D
$GPGSA,A,3,03,05,06,09,15,34,,,,,,,1.2,0.6,1.0*3C
$GPGSA,A,3,09,19,22,35,36,44,,,,,,,1.2,0.6,1.0*34
$GPGST,041547.00,4.167,1.135,0.972,72.288,0.988,1.121,2.453*67
$GPGBS,041547.00,2.724,3.846,6.269,11,0.0001,2.770,0.728*53
$GPGRS,041547.00,1,-0.6,-2.3,0.4,0.2,2.8,-0.2,1.1,,,,,*47
$GPGRS,041547.00,1,-0.8,3.3,-2.5,-2.8,-7.0,,,,,,,*61
$GPGRS,041547.00,1,10.0,-1.2,-0.7,-1.0,-0.6,-2.3,,,,,,*53
$GPGRS,041547.00,1,2.9,-1.8,6.2,5.0,-0.3,-4.6,,,,,,*62
$GPGSV,4,1,14,09,79,030,46,03,21,121,31,26,12,042,,20,19,307,37*74
$GPGSV,4,2,14,30,16,201,35,16,15,071,,11,37,301,42,07,48,179,47*79
$GPGSV,4,3,14,04,50,063,47,06,52,249,42,36,35,170,41,34,31,208,*7B
$GPGSV,4,4,14,49,34,195,34,61,03,257,*78
$GLGSV,3,1,11,71,66,341,48,70,41,069,33,72,27,285,43,86,35,237,42*66
$GLGSV,3,2,11,73,32,131,43,80,38,061,47,87,39,300,35,85,00,195,*62
$GLGSV,3,3,11,74,03,164,,79,07,015,31,88,04,348,27*57
$GAGSV,3,1,11,05,70,267,45,36,33,188,30,15,24,319,41,23,11,037,*64
$GAGSV,3,2,11,31,17,086,,03,18,253,37,06,27,067,35,09,51,062,46*66
$GAGSV,3,3,11,34,56,260,47,24,04,134,,04,03,069,*57
$GBGSV,5,1,20,19,69,070,49,36,24,161,42,35,15,228,37,05,23,128,*62
$GBGSV,5,2,20,37,19,042,32,12,24,302,34,16,20,043,32,20,21,093,30*6D
$GBGSV,5,3,20,06,23,045,33,44,25,275,38,09,36,051,40,46,43,101,*6C
$GBGSV,5,4,20,58,38,077,,22,49,292,35,48,42,090,,02,07,107,*6C
$GBGSV,5,5,20,21,01,281,,39,10,041,,34,06,324,,60,08,111,*65
$GPGGA,041547.00,,,,,0,00,,,M,,M,,*4B
$PTNL,GGK,041547.00,010125,4742.4465423,N,01617.9731479,E,1,24,1.2,EHT669.1172,M*44
$GPGGQ,041547.00,010125,4742.4465423,N,01617.9731479,E,1,24,2.872,625.9062,M*36
$GPGFA,041547.00,10.790,20.115,1.135,0.972,72.288,2.453,,VVV*35
$GPLLK,041547.00,010125,,M,,M,1,24,1.3,,M*0C
$GNGMP,041547.00,,,,,DAAA,24,0.6,,,,*55
$GPGMP,041547.00,,,,,,07,,,,1.7,123*7F
$GLGMP,041547.00,,,,,,05,,,,,*79
$GAGMP,041547.00,,,,,,06,,,,,*77
$GBGMP,041547.00,,,,,,06,,,,,*74
$PSSN,SNC,[0,274565000,2347]*43
$GPZDA,041552.00,01,01,2025,,*64
$GPDTM,W84,,00.0000000,N,00.0000000,E,00.0000000,W84*5F
$GPRMC,041552.00,A,4742.4465406,N,01617.9731615,E,0.0,,010125,5.1,E,D*11
$GPGLL,4742.4465406,N,01617.9731615,E,041552.00,A,D*60
$GPGGA,041552.00,4742.4465406,N,01617.9731615,E,2,20,0.6,625.9171,M,43.2111,M,1.8,0123*4B
$GNGNS,041552.00,4742.4465406,N,01617.9731615,E,DAAA,20,0.6,625.9171,43.2111,,*5E
$GPGNS,041552.00,,,,,,05,,,,1.8,123*76
$GLGNS,041552.00,,,,,,04,,,,,*7C
$GAGNS,041552.00,,,,,,06,,,,,*73
$GBGNS,041552.00,,,,,,05,,,,,*73
$GPLLQ,041552.00,010125,,M,,M,1,20,2.383,,M*1E
$GPVTG,,T,,M,0.00,N,0.00,K,D*26
$GPHDT,,T*1B
$GPTHS,,V*0E
$GPROT,,V*08
$PSSN,HRP,041552.00,010125,,,,,,,00,0,,*66
$PTNL,AVR,041552.00,,Yaw,,Tilt,,,,0,,00*30
$GPGSA,A,3,04,07,09,11,20,,,,,,,,1.2,0.6,1.1*3F
$GPGSA,A,3,71,73,80,86,,,,,,,,,1.2,0.6,1.1*33
$GPGSA,A,3,03,05,06,09,15,34,,,,,,,1.2,0.6,1.1*3D
$GPGSA,A,3,09,19,22,35,36,,,,,,,,1.2,0.6,1.1*35
$GPGST,041552.00,5.510,0.858,0.736,70.373,0.750,0.845,2.098*6E
$GPGBS,041552.00,5.392,5.421,12.669,22,0.0001,14.631,8.535*56
$GPGRS,041552.00,1,-0.4,0.1,-0.6,0.8,0.4,,,,,,,*68
$GPGRS,041552.00,1,-0.9,1.5,-3.2,-4.7,,,,,,,,*6B
$GPGRS,041552.00,1,9.2,-1.3,-1.9,-1.9,-2.1,-2.6,,,,,,*6A
$GPGRS,041552.00,1,1.5,-2.4,14.6,5.4,-0.8,,,,,,,*5F
$GPGSV,4,1,14,09,79,030,47,03,21,121,31,26,12,041,,20,19,307,38*79
$GPGSV,4,2,14,30,16,201,34,16,15,071,,11,37,301,41,07,48,179,47*7B
$GPGSV,4,3,14,04,50,063,48,06,52,249,42,36,35,170,40,34,31,208,*75
$GPGSV,4,4,14,49,34,195,34,61,03,257,*78
$GLGSV,3,1,11,71,66,342,49,70,41,069,31,72,27,285,38,86,35,237,42*6A
$GLGSV,3,2,11,73,32,131,41,80,38,061,47,87,39,300,34,85,00,195,*61
$GLGSV,3,3,11,74,03,164,,79,07,015,32,88,04,348,29*5A
$GAGSV,3,1,11,05,70,267,45,36,32,188,32,15,24,319,40,23,11,037,*66
$GAGSV,3,2,11,31,17,086,,03,18,253,38,06,27,067,36,09,51,062,46*6A
$GAGSV,3,3,11,34,56,260,47,24,04,134,,04,03,069,*57
$GBGSV,5,1,20,19,69,070,49,36,24,161,41,35,15,228,36,05,23,128,*60
$GBGSV,5,2,20,37,19,042,30,12,24,302,34,16,20,043,31,20,21,094,27*6D
$GBGSV,5,3,20,06,23,045,33,44,25,275,31,09,36,051,40,46,43,101,*65
$GBGSV,5,4,20,58,38,077,,22,49,292,38,48,42,090,,02,07,107,*61
$GBGSV,5,5,20,21,01,281,,39,10,041,,34,06,323,,60,08,111,*62
$GPGGA,041552.00,,,,,0,00,,,M,,M,,*4F
$PTNL,GGK,041552.00,010125,4742.4465406,N,01617.9731615,E,1,20,1.2,EHT669.1282,M*47
$GPGGQ,041552.00,010125,4742.4465406,N,01617.9731615,E,1,20,2.383,625.9171,M*3F
$GPGFA,041552.00,8.157,17.207,0.858,0.736,70.373,2.098,,VVV*08
$GPLLK,041552.00,010125,,M,,M,1,20,1.4,,M*0B
$GNGMP,041552.00,,,,,DAAA,20,0.6,,,,*55
$GPGMP,041552.00,,,,,,05,,,,1.8,123*76
$GLGMP,041552.00,,,,,,04,,,,,*7C
$GAGMP,041552.00,,,,,,06,,,,,*73
$GBGMP,041552.00,,,,,,05,,,,,*73
$PSSN,SNC,[0,274570000,2347]*47
$GPZDA,041557.00,01,01,2025,,*61
$GPDTM,W84,,00.0000000,N,00.0000000,E,00.0000000,W84*5F
$GPRMC,041557.00,A,4742.4465370,N,01617.9731628,E,0.0,,010125,5.1,E,D*1C
$GPGLL,4742.4465370,N,01617.9731628,E,041557.00,A,D*6D
$GPGGA,041557.00,4742.4465370,N,01617.9731628,E,2,23,0.6,625.9362,M,43.2111,M,2.8,0123*46
$GNGNS,041557.00,4742.4465370,N,01617.9731628,E,DAAA,23,0.6,625.9362,43.2111,,*50
$GPGNS,041557.00,,,,,,06,,,,2.8,123*73
$GLGNS,041557.00,,,,,,05,,,,,*78
$GAGNS,041557.00,,,,,,06,,,,,*76
$GBGNS,041557.00,,,,,,06,,,,,*75
$GPLLQ,041557.00,010125,,M,,M,1,23,3.366,,M*12
$GPVTG,,T,,M,0.01,N,0.02,K,D*25
$GPHDT,,T*1B
$GPTHS,,V*0E
$GPROT,,V*08
$PSSN,HRP,041557.00,010125,,,,,,,00,0,,*63
$PTNL,AVR,041557.00,,Yaw,,Tilt,,,,0,,00*35
$GPGSA,A,3,04,06,07,09,11,20,,,,,,,1.2,0.6,1.0*38
$GPGSA,A,3,71,73,80,86,87,,,,,,,,1.2,0.6,1.0*3D
$GPGSA,A,3,03,05,06,09,15,34,,,,,,,1.2,0.6,1.0*3C
$GPGSA,A,3,09,19,22,35,36,44,,,,,,,1.2,0.6,1.0*34
$GPGST,041557.00,6.419,1.130,1.030,326.733,1.101,1.061,2.999*52
$GPGBS,041557.00,4.764,4.112,10.691,06,0.0001,-1.720,0.671*4B
$GPGRS,041557.00,1,0.4,-1.7,0.3,0.2,-0.6,2.6,,,,,,*4D
$GPGRS,041557.00,1,0.7,0.2,-3.6,-5.1,-8.6,,,,,,,*45
$GPGRS,041557.00,1,10.9,-1.0,-1.2,-1.3,-2.1,-1.7,,,,,,*5C
$GPGRS,041557.00,1,0.7,-1.9,13.6,3.8,-0.8,14.2,,,,,,*43
$GPGSV,4,1,14,09,79,030,48,03,21,121,31,26,12,041,,20,19,307,39*77
$GPGSV,4,2,14,30,16,201,32,16,15,071,,11,37,301,38,07,48,179,48*7C
$GPGSV,4,3,14,04,50,063,48,06,52,249,43,36,35,170,40,34,31,208,*74
$GPGSV,4,4,14,49,34,195,34,61,03,257,*78
$GLGSV,3,1,11,71,66,342,49,70,41,069,29,72,27,285,32,86,35,237,41*6A
$GLGSV,3,2,11,73,32,131,39,80,38,061,45,87,39,300,37,85,00,195,*6F
$GLGSV,3,3,11,74,03,164,,79,07,015,34,88,04,348,31*55
$GAGSV,3,1,11,05,70,267,45,36,32,188,32,15,24,319,39,23,11,037,*68
$GAGSV,3,2,11,31,17,086,,03,18,253,38,06,27,067,37,09,51,062,46*6B
$GAGSV,3,3,11,34,56,260,48,24,04,134,,04,03,069,*58
$GBGSV,5,1,20,19,69,070,49,36,24,161,40,35,15,228,36,05,23,128,*61
$GBGSV,5,2,20,37,19,042,31,12,24,302,34,16,20,043,30,20,21,094,27*6D
$GBGSV,5,3,20,06,23,045,33,44,25,275,40,09,36,051,39,46,43,101,*6D
$GBGSV,5,4,20,58,38,077,,22,49,292,37,48,42,090,,02,07,107,*6E
$GBGSV,5,5,20,21,01,281,,39,10,041,,34,06,323,,60,08,111,*62
$GPGGA,041557.00,,,,,0,00,,,M,,M,,*4A
$PTNL,GGK,041557.00,010125,4742.4465370,N,01617.9731628,E,1,23,1.2,EHT669.1472,M*40
$GPGGQ,041557.00,010125,4742.4465370,N,01617.9731628,E,1,23,3.366,625.9362,M*3B
$GPGFA,041557.00,10.747,24.591,1.130,1.030,326.733,2.999,,VVV*05
$GPLLK,041557.00,010125,,M,,M,1,23,1.4,,M*0D
$GNGMP,041557.00,,,,,DAAA,23,0.6,,,,*53
$GPGMP,041557.00,,,,,,06,,,,2.8,123*73
$GLGMP,041557.00,,,,,,05,,,,,*78
$GAGMP,041557.00,,,,,,06,,,,,*76
$GBGMP,041557.00,,,,,,06,,,,,*75
$PSSN,SNC,[0,274575000,2347]*42
$GPZDA,041602.00,01,01,2025,,*62
$GPDTM,W84,,00.0000000,N,00.0000000,E,00.0000000,W84*5F
$GPRMC,041602.00,A,4742.4465356,N,01617.9731477,E,0.0,,010125,5.1,E,D*13
$GPGLL,4742.4465356,N,01617.9731477,E,041602.00,A,D*62
$GPGGA,041602.00,4742.4465356,N,01617.9731477,E,2,23,0.6,625.9486,M,43.2111,M,3.8,0123*45
$GNGNS,041602.00,4742.4465356,N,01617.9731477,E,DAAA,23,0.6,625.9486,43.2111,,*52
$GPGNS,041602.00,,,,,,05,,,,3.8,123*72
$GLGNS,041602.00,,,,,,05,,,,,*7B
$GAGNS,041602.00,,,,,,06,,,,,*75
$GBGNS,041602.00,,,,,,07,,,,,*77
$GPLLQ,041602.00,010125,,M,,M,1,23,3.098,,M*13
$GPVTG,,T,,M,0.01,N,0.01,K,D*26
$GPHDT,,T*1B
$GPTHS,,V*0E
$GPROT,,V*08
$PSSN,HRP,041602.00,010125,,,,,,,00,0,,*60
$PTNL,AVR,041602.00,,Yaw,,Tilt,,,,0,,00*36
$GPGSA,A,3,04,06,07,09,20,,,,,,,,1.2,0.6,1.0*38
$GPGSA,A,3,71,73,80,86,87,,,,,,,,1.2,0.6,1.0*3D
$GPGSA,A,3,03,05,06,09,15,34,,,,,,,1.2,0.6,1.0*3C
$GPGSA,A,3,09,12,19,22,35,36,44,,,,,,1.2,0.6,1.0*37
$GPGST,041602.00,5.596,1.097,0.943,322.333,1.042,1.003,2.739*52
$GPGBS,041602.00,5.280,4.181,10.793,03,0.0001,11.653,6.237*53
$GPGRS,041602.00,1,0.7,-1.2,0.4,0.3,1.8,,,,,,,*46
$GPGRS,041602.00,1,-0.4,-0.4,-3.6,-5.5,-4.7,,,,,,,*4A
$GPGRS,041602.00,1,11.7,-1.4,-1.5,-1.4,-2.4,-1.9,,,,,,*5F
$GPGRS,041602.00,1,0.6,2.0,-1.9,10.6,-0.2,-2.3,12.4,,,,,*43
$GPGSV,4,1,14,09,79,030,48,03,21,121,31,26,12,041,,20,19,307,40*79
$GPGSV,4,2,14,30,16,201,28,16,15,071,,11,37,301,34,07,48,179,48*7B
$GPGSV,4,3,14,04,50,063,48,06,52,249,42,36,35,170,40,34,31,208,*75
$GPGSV,4,4,14,49,34,195,34,61,03,257,*78
$GLGSV,3,1,10,71,66,342,48,70,41,069,29,72,27,285,36,86,35,237,40*6F
$GLGSV,3,2,10,73,32,131,37,80,38,060,44,87,39,300,40,74,03,164,*63
$GLGSV,3,3,10,79,07,015,35,88,04,348,*64
$GAGSV,3,1,11,05,70,267,45,36,32,188,34,15,24,319,38,23,11,037,*6F
$GAGSV,3,2,11,31,17,086,,03,18,253,37,06,27,067,37,09,51,062,46*64
$GAGSV,3,3,11,34,56,260,48,24,04,134,,04,03,069,*58
$GBGSV,5,1,20,19,69,070,49,36,24,161,39,35,15,227,36,05,23,128,*60
$GBGSV,5,2,20,37,19,042,32,12,24,302,36,16,20,043,30,20,21,094,26*6D
$GBGSV,5,3,20,06,22,045,33,44,25,275,39,09,36,051,39,46,43,100,*63
$GBGSV,5,4,20,58,38,077,,22,49,292,37,48,42,090,,02,07,107,*6E
$GBGSV,5,5,20,21,01,281,,39,10,041,,34,06,323,,60,08,111,*62
$GPGGA,041602.00,,,,,0,00,,,M,,M,,*49
$PTNL,GGK,041602.00,010125,4742.4465356,N,01617.9731477,E,1,23,1.2,EHT669.1597,M*45
$GPGGQ,041602.00,010125,4742.4465356,N,01617.9731477,E,1,23,3.098,625.9486,M*3B
$GPGFA,041602.00,10.427,22.463,1.097,0.943,322.333,2.739,,VVV*0D
$GPLLK,041602.00,010125,,M,,M,1,23,1.4,,M*0E
$GNGMP,041602.00,,,,,DAAA,23,0.6,,,,*50
$GPGMP,041602.00,,,,,,05,,,,3.8,123*72
$GLGMP,041602.00,,,,,,05,,,,,*7B
$GAGMP,041602.00,,,,,,06,,,,,*75
$GBGMP,041602.00,,,,,,07,,,,,*77
$PSSN,SNC,[0,274580000,2347]*48
$GPZDA,041607.00,01,01,2025,,*67
$GPDTM,W84,,00.0000000,N,00.0000000,E,00.0000000,W84*5F
$GPRMC,041607.00,A,4742.4465261,N,01617.9731420,E,0.0,,010125,5.1,E,D*11
$GPGLL,4742.4465261,N,01617.9731420,E,041607.00,A,D*60
$GPGGA,041607.00,4742.4465261,N,01617.9731420,E,2,23,0.6,625.9628,M,43.2111,M,1.6,0123*4D
$GNGNS,041607.00,4742.4465261,N,01617.9731420,E,DAAA,23,0.6,625.9628,43.2111,,*56
$GPGNS,041607.00,,,,,,05,,,,1.6,123*7B
$GLGNS,041607.00,,,,,,06,,,,,*7D
$GAGNS,041607.00,,,,,,06,,,,,*70
$GBGNS,041607.00,,,,,,06,,,,,*73
$GPLLQ,041607.00,010125,,M,,M,1,23,3.670,,M*16
$GPVTG,,T,,M,0.01,N,0.02,K,D*25
$GPHDT,,T*1B
$GPTHS,,V*0E
$GPROT,,V*08
$PSSN,HRP,041607.00,010125,,,,,,,00,0,,*65
$PTNL,AVR,041607.00,,Yaw,,Tilt,,,,0,,00*33
$GPGSA,A,3,04,06,07,09,20,,,,,,,,1.2,0.6,1.0*38
$GPGSA,A,3,71,72,73,80,86,87,,,,,,,1.2,0.6,1.0*38
$GPGSA,A,3,03,05,06,09,15,34,,,,,,,1.2,0.6,1.0*3C
$GPGSA,A,3,09,12,19,22,36,44,,,,,,,1.2,0.6,1.0*31
$GPGST,041607.00,6.964,1.384,1.095,319.582,1.271,1.225,3.217*5F
$GPGBS,041607.00,5.059,3.932,10.510,06,0.0001,-1.999,0.638*43
$GPGRS,041607.00,1,0.4,-2.0,-0.1,0.4,1.8,,,,,,,*6E
$GPGRS,041607.00,1,-2.1,18.1,2.4,-3.4,-5.0,-0.9,,,,,,*7C
$GPGRS,041607.00,1,11.6,-0.8,-1.5,-1.1,-2.2,-1.8,,,,,,*54
$GPGRS,041607.00,1,0.1,3.5,-1.8,12.8,-3.4,7.2,,,,,,*7D
$GPGSV,4,1,14,09,79,030,49,03,21,121,29,26,12,041,,20,19,307,40*71
$GPGSV,4,2,14,30,16,201,23,16,15,071,,11,37,301,25,07,48,179,48*70
$GPGSV,4,3,14,04,50,063,49,06,52,249,42,36,35,170,40,34,31,208,*74
$GPGSV,4,4,14,49,34,195,34,61,03,257,*78
$GLGSV,3,1,10,71,66,342,47,70,41,070,28,72,27,285,37,86,35,237,40*68
$GLGSV,3,2,10,73,32,131,38,80,38,060,44,87,39,299,41,74,03,164,*6C
$GLGSV,3,3,10,79,07,015,33,88,04,348,33*62
$GAGSV,3,1,11,05,70,267,45,36,32,188,35,15,24,319,37,23,11,037,*61
$GAGSV,3,2,11,31,17,086,,03,18,253,35,06,27,067,37,09,51,062,45*65
$GAGSV,3,3,11,34,56,260,48,24,04,134,,04,03,069,*58
$GBGSV,5,1,20,19,69,070,49,36,24,161,38,35,15,227,34,05,23,128,*63
$GBGSV,5,2,20,37,19,042,33,12,24,302,36,16,20,043,30,20,21,094,23*69
$GBGSV,5,3,20,06,22,045,32,44,25,275,39,09,36,051,38,46,43,100,*63
$GBGSV,5,4,20,58,38,077,,22,49,292,38,48,42,090,,02,07,107,*61
$GBGSV,5,5,20,21,01,281,,39,10,041,,34,06,323,,60,08,111,*62
$GPGGA,041607.00,,,,,0,00,,,M,,M,,*4C
$PTNL,GGK,041607.00,010125,4742.4465261,N,01617.9731420,E,1,23,1.2,EHT669.1738,M*40
$GPGGQ,041607.00,010125,4742.4465261,N,01617.9731420,E,1,23,3.670,625.9628,M*3F
$GPGFA,041607.00,13.161,26.381,1.384,1.095,319.582,3.217,,VVV*0D
$GPLLK,041607.00,010125,,M,,M,1,23,1.4,,M*0B
$GNGMP,041607.00,,,,,DAAA,23,0.6,,,,*55
$GPGMP,041607.00,,,,,,05,,,,1.6,123*7B
$GLGMP,041607.00,,,,,,06,,,,,*7D
$GAGMP,041607.00,,,,,,06,,,,,*70
$GBGMP,041607.00,,,,,,06,,,,,*73
$PSSN,SNC,[0,274585000,2347]*4D
$GPZDA,041612.00,01,01,2025,,*63
$GPDTM,W84,,00.0000000,N,00.0000000,E,00.0000000,W84*5F
$GPRMC,041612.00,A,4742.4465196,N,01617.9731368,E,0.0,,010125,5.1,E,D*15
$GPGLL,4742.4465196,N,01617.9731368,E,041612.00,A,D*64
$GPGGA,041612.00,4742.4465196,N,01617.9731368,E,2,22,0.6,625.9792,M,43.2111,M,1.8,0123*46
$GNGNS,041612.00,4742.4465196,N,01617.9731368,E,DAAA,22,0.6,625.9792,43.2111,,*53
$GPGNS,041612.00,,,,,,05,,,,1.8,123*71
$GLGNS,041612.00,,,,,,06,,,,,*79
$GAGNS,041612.00,,,,,,05,,,,,*77
$GBGNS,041612.00,,,,,,06,,,,,*77
$GPLLQ,041612.00,010125,,M,,M,1,22,2.477,,M*17
$GPVTG,,T,,M,0.01,N,0.01,K,D*26
$GPHDT,,T*1B
$GPTHS,,V*0E
$GPROT,,V*08
$PSSN,HRP,041612.00,010125,,,,,,,00,0,,*61
$PTNL,AVR,041612.00,,Yaw,,Tilt,,,,0,,00*37
$GPGSA,A,3,04,06,07,09,20,,,,,,,,1.3,0.6,1.1*38
$GPGSA,A,3,71,72,73,80,86,87,,,,,,,1.3,0.6,1.1*38
$GPGSA,A,3,05,06,09,15,34,,,,,,,,1.3,0.6,1.1*3F
$GPGSA,A,3,09,12,19,22,36,44,,,,,,,1.3,0.6,1.1*31
$GPGST,041612.00,4.790,0.931,0.738,319.410,0.855,0.825,2.173*54
$GPGBS,041612.00,5.134,4.019,10.651,06,0.0001,-1.351,0.652*4E
$GPGRS,041612.00,1,0.2,-1.4,0.1,0.4,1.4,,,,,,,*4A
$GPGRS,041612.00,1,-1.0,7.5,6.2,-1.7,-3.6,-1.3,,,,,,*48
$GPGRS,041612.00,1,-0.2,-1.0,-0.8,-1.8,-1.3,,,,,,,*4D
$GPGRS,041612.00,1,-1.1,0.9,-1.7,13.4,-3.7,4.8,,,,,,*52
$GPGSV,4,1,14,09,79,030,49,03,21,121,26,26,12,041,,20,19,307,41*7F
$GPGSV,4,2,14,30,16,201,26,16,15,071,,11,37,301,40,07,48,179,49*77
$GPGSV,4,3,14,04,50,063,49,06,52,249,42,36,35,170,40,34,31,208,*74
$GPGSV,4,4,14,49,34,195,34,61,03,257,*78
$GLGSV,3,1,10,71,66,342,48,70,41,070,26,72,27,286,36,86,35,237,42*69
$GLGSV,3,2,10,73,32,131,41,80,38,060,43,87,39,299,42,74,03,164,*66
$GLGSV,3,3,10,79,07,015,27,88,04,348,34*60
$GAGSV,3,1,11,05,70,267,45,36,32,188,35,15,24,319,36,23,11,037,*60
$GAGSV,3,2,11,31,17,086,,03,18,253,34,06,27,067,38,09,51,062,45*6B
$GAGSV,3,3,11,34,56,260,48,24,04,134,,04,03,069,*58
$GBGSV,5,1,20,19,69,070,49,36,24,160,38,35,15,227,23,05,23,128,*64
$GBGSV,5,2,20,37,19,042,31,12,24,302,37,16,20,043,29,20,21,094,26*67
$GBGSV,5,3,20,06,22,045,32,44,25,275,38,09,36,051,38,46,43,100,*62
$GBGSV,5,4,20,58,38,077,,22,49,292,37,48,42,090,,02,07,107,*6E
$GBGSV,5,5,20,21,01,281,,39,10,041,,34,06,323,,60,08,111,*62
$GPGGA,041612.00,,,,,0,00,,,M,,M,,*48
$PTNL,GGK,041612.00,010125,4742.4465196,N,01617.9731368,E,1,22,1.3,EHT669.1903,M*42
$GPGGQ,041612.00,010125,4742.4465196,N,01617.9731368,E,1,22,2.477,625.9792,M*3E
$GPGFA,041612.00,8.855,17.820,0.931,0.738,319.410,2.173,,VVV*31
$GPLLK,041612.00,010125,,M,,M,1,22,1.5,,M*0F
$GNGMP,041612.00,,,,,DAAA,22,0.6,,,,*50
$GPGMP,041612.00,,,,,,05,,,,1.8,123*71
$GLGMP,041612.00,,,,,,06,,,,,*79
$GAGMP,041612.00,,,,,,05,,,,,*77
$GBGMP,041612.00,,,,,,06,,,,,*77
$PSSN,SNC,[0,274590000,2347]*49
$GPZDA,041617.00,01,01,2025,,*66
$GPDTM,W84,,00.0000000,N,00.0000000,E,00.0000000,W84*5F
$GPRMC,041617.00,A,4742.4465154,N,01617.9731315,E,0.0,,010125,5.1,E,D*14
$GPGLL,4742.4465154,N,01617.9731315,E,041617.00,A,D*65
$GPGGA,041617.00,4742.4465154,N,01617.9731315,E,2,21,0.7,625.9814,M,43.2111,M,2.8,0123*47
$GNGNS,041617.00,4742.4465154,N,01617.9731315,E,DAAA,21,0.7,625.9814,43.2111,,*51
$GPGNS,041617.00,,,,,,05,,,,2.8,123*77
$GLGNS,041617.00,,,,,,06,,,,,*7C
$GAGNS,041617.00,,,,,,04,,,,,*73
$GBGNS,041617.00,,,,,,06,,,,,*72
$GPLLQ,041617.00,010125,,M,,M,1,21,1.997,,M*11
$GPVTG,,T,,M,0.00,N,0.00,K,D*26
$GPHDT,,T*1B
$GPTHS,,V*0E
$GPROT,,V*08
$PSSN,HRP,041617.00,010125,,,,,,,00,0,,*64
$PTNL,AVR,041617.00,,Yaw,,Tilt,,,,0,,00*32
$GPGSA,A,3,04,06,07,09,20,,,,,,,,1.3,0.7,1.1*39
$GPGSA,A,3,71,72,73,80,86,87,,,,,,,1.3,0.7,1.1*39
$GPGSA,A,3,05,06,09,34,,,,,,,,,1.3,0.7,1.1*3A
$GPGSA,A,3,09,12,19,22,36,44,,,,,,,1.3,0.7,1.1*30
$GPGST,041617.00,4.669,0.753,0.597,319.507,0.692,0.667,1.751*54
$GPGBS,041617.00,5.248,4.100,10.878,22,0.0001,13.662,8.536*5B
$GPGRS,041617.00,1,0.2,-0.8,0.0,0.3,0.9,,,,,,,*48
$GPGRS,041617.00,1,0.3,-2.4,6.6,-1.8,-2.7,-4.2,,,,,,*44
$GPGRS,041617.00,1,-0.2,-1.0,-1.3,-1.5,,,,,,,,*4E
$GPGRS,041617.00,1,-2.1,3.5,-2.0,13.7,-3.6,0.1,,,,,,*50
$GPGSV,4,1,14,09,79,030,49,03,21,121,23,26,12,041,,20,19,307,42*79
$GPGSV,4,2,14,30,16,201,28,16,15,071,,11,37,301,41,07,48,179,49*78
$GPGSV,4,3,14,04,50,063,48,06,52,249,41,36,35,170,40,34,31,208,*76
$GPGSV,4,4,14,49,34,195,34,61,03,257,*78
$GLGSV,3,1,10,71,66,342,49,70,41,070,23,72,27,286,41,86,35,237,42*6D
$GLGSV,3,2,10,73,32,131,42,80,38,060,44,87,39,299,42,74,03,164,*62
$GLGSV,3,3,10,79,07,015,28,88,04,348,33*68
$GAGSV,3,1,11,05,70,267,45,36,32,188,34,15,24,319,34,23,11,037,*63
$GAGSV,3,2,11,31,17,086,,03,18,253,31,06,27,067,38,09,51,062,44*6F
$GAGSV,3,3,11,34,56,260,47,24,04,134,,04,03,069,*57
$GBGSV,5,1,20,19,69,071,48,36,24,160,38,35,15,227,31,05,23,128,*67
$GBGSV,5,2,20,37,19,042,29,12,24,302,39,16,20,043,28,20,21,094,28*6F
$GBGSV,5,3,20,06,22,045,32,44,25,275,33,09,36,051,37,46,43,100,*66
$GBGSV,5,4,20,58,38,077,,22,50,292,36,48,42,090,,02,07,107,*67
$GBGSV,5,5,20,21,01,281,,39,10,041,,34,06,323,,60,08,111,*62
$GPGGA,041617.00,,,,,0,00,,,M,,M,,*4D
$PTNL,GGK,041617.00,010125,4742.4465154,N,01617.9731315,E,1,21,1.3,EHT669.1924,M*45
$GPGGQ,041617.00,010125,4742.4465154,N,01617.9731315,E,1,21,1.997,625.9814,M*3D
$GPGFA,041617.00,7.164,14.356,0.753,0.597,319.507,1.751,,VVV*36
$GPLLK,041617.00,010125,,M,,M,1,21,1.5,,M*09
$GNGMP,041617.00,,,,,DAAA,21,0.7,,,,*57
$GPGMP,041617.00,,,,,,05,,,,2.8,123*77
$GLGMP,041617.00,,,,,,06,,,,,*7C
$GAGMP,041617.00,,,,,,04,,,,,*73
$GBGMP,041617.00,,,,,,06,,,,,*72
$PSSN,SNC,[0,274595000,2347]*4C
$GPZDA,041622.00,01,01,2025,,*60
$GPDTM,W84,,00.0000000,N,00.0000000,E,00.0000000,W84*5F
$GPRMC,041622.00,A,4742.4465103,N,01617.9731276,E,0.0,,010125,5.1,E,D*14
$GPGLL,4742.4465103,N,01617.9731276,E,041622.00,A,D*65
$GPGGA,041622.00,4742.4465103,N,01617.9731276,E,2,19,0.7,625.9881,M,43.2111,M,3.8,0123*41
$GNGNS,041622.00,4742.4465103,N,01617.9731276,E,DAAA,19,0.7,625.9881,43.2111,,*56
$GPGNS,041622.00,,,,,,05,,,,3.8,123*70
$GLGNS,041622.00,,,,,,05,,,,,*79
$GAGNS,041622.00,,,,,,04,,,,,*75
$GBGNS,041622.00,,,,,,05,,,,,*77
$GPLLQ,041622.00,010125,,M,,M,1,19,2.447,,M*1F
$GPVTG,,T,,M,0.00,N,0.00,K,D*26
$GPHDT,,T*1B
$GPTHS,,V*0E
$GPROT,,V*08
$PSSN,HRP,041622.00,010125,,,,,,,00,0,,*62
$PTNL,AVR,041622.00,,Yaw,,Tilt,,,,0,,00*34
$GPGSA,A,3,04,06,07,09,20,,,,,,,,1.4,0.7,1.2*3D
$GPGSA,A,3,71,73,80,86,87,,,,,,,,1.4,0.7,1.2*38
$GPGSA,A,3,05,06,09,34,,,,,,,,,1.4,0.7,1.2*3E
$GPGSA,A,3,09,12,19,22,36,,,,,,,,1.4,0.7,1.2*34
$GPGST,041622.00,5.953,0.925,0.733,319.187,0.848,0.821,2.144*5E
$GPGBS,041622.00,5.368,4.221,11.118,22,0.0001,15.843,8.537*5A
$GPGRS,041622.00,1,0.1,-0.9,-0.0,0.4,1.1,,,,,,,*6F
$GPGRS,041622.00,1,0.4,4.6,-1.3,-3.2,-4.5,,,,,,,*4A
$GPGRS,041622.00,1,0.1,-0.8,-1.6,-1.5,,,,,,,,*6A
$GPGRS,041622.00,1,-3.1,8.9,-1.9,15.8,-4.5,,,,,,,*78
$GPGSV,4,1,14,09,79,031,50,03,21,121,23,26,12,041,,20,19,307,42*70
$GPGSV,4,2,14,30,16,201,30,16,15,071,,11,37,301,25,07,48,179,49*73
$GPGSV,4,3,14,04,50,063,47,06,52,248,42,36,35,170,40,34,31,208,*7B
$GPGSV,4,4,14,49,34,195,34,61,03,257,*78
$GLGSV,3,1,10,71,66,342,50,70,41,070,28,72,27,286,29,86,35,236,41*62
$GLGSV,3,2,10,73,32,131,41,80,38,060,46,87,39,299,43,74,03,164,*62
$GLGSV,3,3,10,79,07,015,26,88,04,348,33*66
$GAGSV,3,1,11,05,70,267,45,36,32,188,33,15,24,319,32,23,11,037,*62
$GAGSV,3,2,11,31,17,086,,03,18,253,26,06,27,067,38,09,51,062,44*69
$GAGSV,3,3,11,34,56,260,48,24,04,134,,04,03,069,*58
$GBGSV,5,1,20,19,69,071,48,36,24,160,39,35,15,227,30,05,23,128,*67
$GBGSV,5,2,20,37,19,042,28,12,24,302,40,16,20,043,27,20,21,094,30*66
$GBGSV,5,3,20,06,22,045,32,44,25,275,34,09,36,051,37,46,43,100,*61
$GBGSV,5,4,20,58,38,077,,22,50,292,35,48,42,090,,02,07,107,*64
$GBGSV,5,5,20,21,01,281,,39,10,041,,34,06,323,,60,08,111,*62
$GPGGA,041622.00,,,,,0,00,,,M,,M,,*4B
$PTNL,GGK,041622.00,010125,4742.4465103,N,01617.9731276,E,1,19,1.4,EHT669.1992,M*44
$GPGGQ,041622.00,010125,4742.4465103,N,01617.9731276,E,1,19,2.447,625.9881,M*39
$GPGFA,041622.00,8.795,17.580,0.925,0.733,319.187,2.144,,VVV*37
$GPLLK,041622.00,010125,,M,,M,1,19,1.6,,M*07
$GNGMP,041622.00,,,,,DAAA,19,0.7,,,,*5A
$GPGMP,041622.00,,,,,,05,,,,3.8,123*70
$GLGMP,041622.00,,,,,,05,,,,,*79
$GAGMP,041622.00,,,,,,04,,,,,*75
$GBGMP,041622.00,,,,,,05,,,,,*77
$PSSN,SNC,[0,274600000,2347]*43
$GPZDA,041627.00,01,01,2025,,*65
$GPDTM,W84,,00.0000000,N,00.0000000,E,00.0000000,W84*5F
$GPRMC,041627.00,A,4742.4465059,N,01617.9731268,E,0.0,,010125,5.1,E,D*10
$GPGLL,4742.4465059,N,01617.9731268,E,041627.00,A,D*61
$GPGGA,041627.00,4742.4465059,N,01617.9731268,E,2,20,0.7,625.9987,M,43.2111,M,1.6,0123*44
$GNGNS,041627.00,4742.4465059,N,01617.9731268,E,DAAA,20,0.7,625.9987,43.2111,,*5F
$GPGNS,041627.00,,,,,,05,,,,1.6,123*79
$GLGNS,041627.00,,,,,,06,,,,,*7F
$GAGNS,041627.00,,,,,,04,,,,,*70
$GBGNS,041627.00,,,,,,05,,,,,*72
$GPLLQ,041627.00,010125,,M,,M,1,20,2.996,,M*11
$GPVTG,,T,,M,0.01,N,0.01,K,D*26
$GPHDT,,T*1B
$GPTHS,,V*0E
$GPROT,,V*08
$PSSN,HRP,041627.00,010125,,,,,,,00,0,,*67
$PTNL,AVR,041627.00,,Yaw,,Tilt,,,,0,,00*31
$GPGSA,A,3,04,06,07,09,20,,,,,,,,1.3,0.7,1.1*39
$GPGSA,A,3,71,72,73,80,86,87,,,,,,,1.3,0.7,1.1*39
$GPGSA,A,3,05,06,09,34,,,,,,,,,1.3,0.7,1.1*3A
$GPGSA,A,3,09,12,19,36,44,,,,,,,,1.3,0.7,1.1*30
$GPGST,041627.00,7.286,1.128,0.888,319.542,1.034,0.996,2.630*57
$GPGBS,041627.00,5.109,3.963,10.769,72,0.0001,18.972,6.161*53
$GPGRS,041627.00,1,-0.2,-0.5,-0.0,0.3,1.1,,,,,,,*4F
$GPGRS,041627.00,1,0.2,19.0,4.7,-1.0,-6.3,-4.7,,,,,,*5B
$GPGRS,041627.00,1,0.1,-1.2,-2.1,-1.1,,,,,,,,*64
$GPGRS,041627.00,1,-3.6,11.0,-1.7,-5.4,-8.4,,,,,,,*58
$GPGSV,4,1,14,09,79,031,51,03,21,121,25,26,12,041,,20,19,307,41*74
$GPGSV,4,2,14,30,16,201,31,16,15,071,,11,37,301,28,07,48,179,49*7F
$GPGSV,4,3,14,04,50,063,46,06,52,248,43,36,35,170,40,34,31,208,*7B
$GPGSV,4,4,14,49,34,195,34,61,03,257,*78
$GLGSV,3,1,10,71,66,342,50,70,41,070,31,72,27,286,38,86,35,236,38*64
$GLGSV,3,2,10,73,33,131,40,80,38,060,46,87,39,299,41,74,03,164,*60
$GLGSV,3,3,10,79,07,015,24,88,04,348,32*65
$GAGSV,3,1,11,05,70,267,46,36,32,188,31,15,24,319,29,23,11,037,*69
$GAGSV,3,2,11,31,17,086,,03,18,253,22,06,27,067,38,09,51,062,44*6D
$GAGSV,3,3,11,34,56,260,48,24,04,134,,04,03,069,*58
$GBGSV,5,1,20,19,69,071,48,36,24,160,39,35,15,227,30,05,23,128,*67
$GBGSV,5,2,20,37,18,042,22,12,24,302,40,16,20,043,27,20,21,094,31*6C
$GBGSV,5,3,20,06,22,045,31,44,24,275,35,09,36,051,37,46,43,100,*62
$GBGSV,5,4,20,58,38,077,,22,50,292,31,48,42,090,,02,07,107,*60
$GBGSV,5,5,20,21,01,281,,39,10,041,,34,06,323,,60,08,111,*62
$GPGGA,041627.00,,,,,0,00,,,M,,M,,*4E
$PTNL,GGK,041627.00,010125,4742.4465059,N,01617.9731268,E,1,20,1.3,EHT669.2098,M*4D
$GPGGQ,041627.00,010125,4742.4465059,N,01617.9731268,E,1,20,2.996,625.9987,M*31
$GPGFA,041627.00,10.726,21.562,1.128,0.888,319.542,2.630,,VVV*08
$GPLLK,041627.00,010125,,M,,M,1,20,1.5,,M*0B
$GNGMP,041627.00,,,,,DAAA,20,0.7,,,,*55
