$GPZDA,014442.00,01,01,2025,,*64
$GPDTM,W84,,00.0000000,N,00.0000000,E,00.0000000,W84*5F
$GPRMC,014442.00,A,4742.4464612,N,01617.9730687,E,0.0,,010125,5.1,E,D*1D
$GPGLL,4742.4464612,N,01617.9730687,E,014442.00,A,D*6C
$GPGGA,014442.00,4742.4464612,N,01617.9730687,E,2,25,0.6,624.9770,M,43.2111,M,1.9,0123*45
$GNGNS,014442.00,4742.4464612,N,01617.9730687,E,DAAA,25,0.6,624.9770,43.2111,,*51
$GPGNS,014442.00,,,,,,07,,,,1.9,123*75
$GLGNS,014442.00,,,,,,04,,,,,*7C
$GAGNS,014442.00,,,,,,07,,,,,*72
$GBGNS,014442.00,,,,,,07,,,,,*71
$GPLLQ,014442.00,010125,,M,,M,1,25,1.617,,M*10
$GPVTG,,T,,M,0.00,N,0.01,K,D*27
$GPHDT,,T*1B
$GPTHS,,V*0E
$GPROT,,V*08
$PSSN,HRP,014442.00,010125,,,,,,,00,0,,*66
$PTNL,AVR,014442.00,,Yaw,,Tilt,,,,0,,00*30
$GPGSA,A,3,03,04,06,09,17,19,31,,,,,,1.2,0.6,1.0*32
$GPGSA,A,3,69,70,85,86,,,,,,,,,1.2,0.6,1.0*3D
$GPGSA,A,3,04,05,06,09,11,34,36,,,,,,1.2,0.6,1.0*3A
$GPGSA,A,3,06,09,16,19,20,29,35,,,,,,1.2,0.6,1.0*39
$GPGST,014442.00,1.880,0.699,0.542,338.463,0.680,0.566,1.354*55
$GPGBS,014442.00,3.533,4.125,7.464,31,0.0001,1.784,0.843*5B
$GPGRS,014442.00,1,-0.4,-0.5,1.5,0.2,-1.0,0.5,1.8,,,,,*40
$GPGRS,014442.00,1,-1.2,0.1,1.5,-0.9,,,,,,,,*46
$GPGRS,014442.00,1,-1.8,-0.1,-0.2,-0.4,-1.1,-0.5,-1.5,,,,,*45
$GPGRS,014442.00,1,-1.7,-0.5,2.1,-1.2,-2.9,4.8,-2.0,,,,,*4C
$GPGSV,4,1,15,03,77,026,47,06,16,313,36,28,25,052,35,19,30,297,43*75
$GPGSV,4,2,15,21,26,151,33,09,29,221,41,31,33,083,43,17,35,262,43*70
$GPGSV,4,3,15,02,44,158,31,01,49,146,,04,58,206,40,36,35,170,41*70
$GPGSV,4,4,15,34,31,208,,49,34,195,36,61,03,257,*44
$GLGSV,2,1,08,85,72,268,51,84,37,169,32,78,14,034,29,86,24,326,41*65
$GLGSV,2,2,08,71,14,241,27,69,44,041,48,70,60,263,36,79,09,083,*65
$GAGSV,3,1,10,36,75,288,36,05,19,217,36,10,21,139,32,18,19,302,*6F
$GAGSV,3,2,10,04,50,058,43,34,23,312,43,11,48,144,39,09,70,187,45*64
$GAGSV,3,3,10,06,74,093,49,27,01,349,*61
$GBGSV,5,1,18,48,79,278,,23,12,050,,05,24,128,,39,27,045,31*6A
$GBGSV,5,2,18,37,12,099,,29,44,204,44,32,18,065,33,35,42,293,41*69
$GBGSV,5,3,18,16,32,055,39,06,33,059,40,09,38,075,42,19,51,256,49*60
$GBGSV,5,4,18,20,74,044,48,22,00,249,,30,03,166,,44,07,326,35*66
$GBGSV,5,5,18,02,08,105,,60,09,110,*63
$GPGGA,014442.00,,,,,0,00,,,M,,M,,*4F
$PTNL,GGK,014442.00,010125,4742.4464612,N,01617.9730687,E,1,25,1.2,EHT668.1880,M*47
$GPGGQ,014442.00,010125,4742.4464612,N,01617.9730687,E,1,25,1.617,624.9770,M*3B
$GPGFA,014442.00,6.650,11.099,0.699,0.542,338.463,1.354,,VVV*3E
$GPLLK,014442.00,010125,,M,,M,1,25,1.4,,M*0E
$GNGMP,014442.00,,,,,DAAA,25,0.6,,,,*50
$GPGMP,014442.00,,,,,,07,,,,1.9,123*75
$GLGMP,014442.00,,,,,,04,,,,,*7C
$GAGMP,014442.00,,,,,,07,,,,,*72
$GBGMP,014442.00,,,,,,07,,,,,*71
$PSSN,SNC,[0,265500000,2347]*40
$GPZDA,014447.00,01,01,2025,,*61
$GPDTM,W84,,00.0000000,N,00.0000000,E,00.0000000,W84*5F
$GPRMC,014447.00,A,4742.4464559,N,01617.9730576,E,0.0,,010125,5.1,E,D*19
$GPGLL,4742.4464559,N,01617.9730576,E,014447.00,A,D*68
$GPGGA,014447.00,4742.4464559,N,01617.9730576,E,2,25,0.6,625.0062,M,43.2111,M,2.9,0123*4E
$GNGNS,014447.00,4742.4464559,N,01617.9730576,E,DAAA,25,0.6,625.0062,43.2111,,*59
$GPGNS,014447.00,,,,,,07,,,,2.9,123*73
$GLGNS,014447.00,,,,,,04,,,,,*79
$GAGNS,014447.00,,,,,,07,,,,,*77
$GBGNS,014447.00,,,,,,07,,,,,*74
$GPLLQ,014447.00,010125,,M,,M,1,25,1.940,,M*18
$GPVTG,,T,,M,0.00,N,0.00,K,D*26
$GPHDT,,T*1B
$GPTHS,,V*0E
$GPROT,,V*08
$PSSN,HRP,014447.00,010125,,,,,,,00,0,,*63
$PTNL,AVR,014447.00,,Yaw,,Tilt,,,,0,,00*35
$GPGSA,A,3,03,04,06,09,17,19,31,,,,,,1.2,0.6,1.0*32
$GPGSA,A,3,69,70,85,86,,,,,,,,,1.2,0.6,1.0*3D
$GPGSA,A,3,04,05,06,09,11,34,36,,,,,,1.2,0.6,1.0*3A
$GPGSA,A,3,06,09,16,19,20,29,35,,,,,,1.2,0.6,1.0*39
$GPGST,014447.00,1.997,0.832,0.645,339.346,0.811,0.671,1.629*51
$GPGBS,014447.00,3.612,4.207,7.626,09,0.0001,1.843,0.762*5A
$GPGRS,014447.00,1,-0.1,-1.2,1.7,1.8,-1.5,0.5,0.6,,,,,*45
$GPGRS,014447.00,1,-0.8,-1.6,1.4,-1.7,,,,,,,,*6D
$GPGRS,014447.00,1,-1.8,-0.7,-0.2,-0.3,-1.6,-0.2,-0.6,,,,,*43
$GPGRS,014447.00,1,-2.1,-0.4,2.4,-0.9,-2.7,4.5,-2.7,,,,,*46
$GPGSV,4,1,15,03,77,026,47,06,16,313,36,28,25,052,35,19,30,297,42*74
$GPGSV,4,2,15,21,26,151,32,09,29,221,41,31,33,083,41,17,35,262,42*72
$GPGSV,4,3,15,02,44,158,31,01,49,146,,04,58,206,41,36,35,170,41*71
$GPGSV,4,4,15,34,31,208,,49,34,195,36,61,03,257,*44
$GLGSV,2,1,08,85,72,268,51,84,37,169,34,78,14,034,30,86,24,326,42*68
$GLGSV,2,2,08,71,14,241,32,69,44,041,47,70,60,263,36,79,09,083,*6E
$GAGSV,3,1,10,36,75,288,36,05,19,217,37,10,21,139,32,18,19,302,*6E
$GAGSV,3,2,10,04,50,058,42,34,23,312,43,11,48,144,39,09,70,187,46*66
$GAGSV,3,3,10,06,74,092,49,27,01,349,*60
$GBGSV,5,1,18,48,79,278,,23,12,050,,05,24,128,,39,27,045,30*6B
$GBGSV,5,2,18,37,12,099,,29,44,204,45,32,18,065,34,35,42,293,41*6F
$GBGSV,5,3,18,16,32,055,39,06,33,059,40,09,38,075,42,19,51,256,50*68
$GBGSV,5,4,18,20,74,044,47,22,00,249,,30,03,166,,44,07,326,35*69
$GBGSV,5,5,18,02,08,105,,60,09,110,*63
$GPGGA,014447.00,,,,,0,00,,,M,,M,,*4A
$PTNL,GGK,014447.00,010125,4742.4464559,N,01617.9730576,E,1,25,1.2,EHT668.2172,M*44
$GPGGQ,014447.00,010125,4742.4464559,N,01617.9730576,E,1,25,1.940,625.0062,M*3E
$GPGFA,014447.00,7.909,13.360,0.832,0.645,339.346,1.629,,VVV*3B
$GPLLK,014447.00,010125,,M,,M,1,25,1.4,,M*0B
$GNGMP,014447.00,,,,,DAAA,25,0.6,,,,*55
$GPGMP,014447.00,,,,,,07,,,,2.9,123*73
$GLGMP,014447.00,,,,,,04,,,,,*79
$GAGMP,014447.00,,,,,,07,,,,,*77
$GBGMP,014447.00,,,,,,07,,,,,*74
$PSSN,SNC,[0,265505000,2347]*45
$GPZDA,014452.00,01,01,2025,,*65
$GPDTM,W84,,00.0000000,N,00.0000000,E,00.0000000,W84*5F
$GPRMC,014452.00,A,4742.4464583,N,01617.9730560,E,0.0,,010125,5.1,E,D*1D
$GPGLL,4742.4464583,N,01617.9730560,E,014452.00,A,D*6C
$GPGGA,014452.00,4742.4464583,N,01617.9730560,E,2,26,0.6,625.0341,M,43.2111,M,3.3,0123*40
$GNGNS,014452.00,4742.4464583,N,01617.9730560,E,DAAA,26,0.6,625.0341,43.2111,,*5C
$GPGNS,014452.00,,,,,,07,,,,3.3,123*7C
$GLGNS,014452.00,,,,,,04,,,,,*7D
$GAGNS,014452.00,,,,,,07,,,,,*73
$GBGNS,014452.00,,,,,,08,,,,,*7F
$GPLLQ,014452.00,010125,,M,,M,1,26,2.699,,M*17
$GPVTG,,T,,M,0.00,N,0.00,K,D*26
$GPHDT,,T*1B
$GPTHS,,V*0E
$GPROT,,V*08
$PSSN,HRP,014452.00,010125,,,,,,,00,0,,*67
$PTNL,AVR,014452.00,,Yaw,,Tilt,,,,0,,00*31
$GPGSA,A,3,03,04,06,09,17,19,31,,,,,,1.1,0.6,0.9*39
$GPGSA,A,3,69,70,85,86,,,,,,,,,1.1,0.6,0.9*36
$GPGSA,A,3,04,05,06,09,11,34,36,,,,,,1.1,0.6,0.9*31
$GPGSA,A,3,06,09,16,19,20,29,32,35,,,,,1.1,0.6,0.9*33
$GPGST,014452.00,6.653,1.160,0.889,338.717,1.128,0.929,2.268*57
$GPGBS,014452.00,3.509,4.031,7.603,09,0.0001,2.777,0.779*56
$GPGRS,014452.00,1,-0.1,-1.0,0.2,2.8,-1.7,0.6,-0.5,,,,,*6B
$GPGRS,014452.00,1,-2.0,-0.8,0.9,-2.8,,,,,,,,*6C
$GPGRS,014452.00,1,-1.1,-0.0,0.1,-0.2,-1.8,-0.6,0.3,,,,,*44
$GPGRS,014452.00,1,-1.9,-0.1,1.1,-0.5,-2.2,4.5,27.8,-3.2,,,,*54
$GPGSV,4,1,15,03,77,026,47,06,16,313,36,28,25,052,36,19,30,297,41*74
$GPGSV,4,2,15,21,26,151,31,09,29,221,41,31,33,083,40,17,35,262,41*73
$GPGSV,4,3,15,02,44,158,33,01,49,146,,04,58,206,41,36,35,170,41*73
$GPGSV,4,4,15,34,31,208,,49,34,195,37,61,03,257,*45
$GLGSV,2,1,08,85,72,267,51,84,37,169,35,78,14,034,25,86,24,326,42*62
$GLGSV,2,2,08,71,14,241,29,69,44,041,46,70,60,263,35,79,09,083,*66
$GAGSV,3,1,10,36,75,288,36,05,19,217,37,10,21,139,31,18,19,301,*6E
$GAGSV,3,2,10,04,50,058,41,34,23,312,43,11,48,144,39,09,70,187,45*66
$GAGSV,3,3,10,06,74,092,49,27,01,349,*60
$GBGSV,5,1,18,48,79,278,,23,12,050,,05,24,128,,39,27,045,30*6B
$GBGSV,5,2,18,37,12,099,,29,44,204,46,32,18,065,36,35,42,293,41*6E
$GBGSV,5,3,18,16,32,055,40,06,33,059,40,09,38,075,42,19,51,256,50*66
$GBGSV,5,4,18,20,74,044,47,22,00,249,,30,03,166,,44,07,326,35*69
$GBGSV,5,5,18,02,08,105,,60,09,110,*63
$GPGGA,014452.00,,,,,0,00,,,M,,M,,*4E
$PTNL,GGK,014452.00,010125,4742.4464583,N,01617.9730560,E,1,26,1.1,EHT668.2452,M*47
$GPGGQ,014452.00,010125,4742.4464583,N,01617.9730560,E,1,26,2.699,625.0341,M*33
$GPGFA,014452.00,11.033,18.602,1.160,0.889,338.717,2.268,,VVV*00
$GPLLK,014452.00,010125,,M,,M,1,26,1.3,,M*0B
$GNGMP,014452.00,,,,,DAAA,26,0.6,,,,*52
$GPGMP,014452.00,,,,,,07,,,,3.3,123*7C
$GLGMP,014452.00,,,,,,04,,,,,*7D
$GAGMP,014452.00,,,,,,07,,,,,*73
$GBGMP,014452.00,,,,,,08,,,,,*7F
$PSSN,SNC,[0,265510000,2347]*41
$GPZDA,014457.00,01,01,2025,,*60
$GPDTM,W84,,00.0000000,N,00.0000000,E,00.0000000,W84*5F
$GPRMC,014457.00,A,4742.4464637,N,01617.9730553,E,0.0,,010125,5.1,E,D*14
$GPGLL,4742.4464637,N,01617.9730553,E,014457.00,A,D*65
$GPGGA,014457.00,4742.4464637,N,01617.9730553,E,2,25,0.6,625.0429,M,43.2111,M,2.0,0123*41
$GNGNS,014457.00,4742.4464637,N,01617.9730553,E,DAAA,25,0.6,625.0429,43.2111,,*5F
$GPGNS,014457.00,,,,,,07,,,,2.0,123*7B
$GLGNS,014457.00,,,,,,04,,,,,*78
$GAGNS,014457.00,,,,,,06,,,,,*77
$GBGNS,014457.00,,,,,,08,,,,,*7A
$GPLLQ,014457.00,010125,,M,,M,1,25,2.429,,M*18
$GPVTG,,T,,M,0.00,N,0.01,K,D*27
$GPHDT,,T*1B
$GPTHS,,V*0E
$GPROT,,V*08
$PSSN,HRP,014457.00,010125,,,,,,,00,0,,*62
$PTNL,AVR,014457.00,,Yaw,,Tilt,,,,0,,00*34
$GPGSA,A,3,03,04,06,09,17,19,31,,,,,,1.2,0.6,1.0*32
$GPGSA,A,3,69,70,85,86,,,,,,,,,1.2,0.6,1.0*3D
$GPGSA,A,3,04,05,06,09,11,34,,,,,,,1.2,0.6,1.0*3F
$GPGSA,A,3,06,09,16,19,20,29,32,35,,,,,1.2,0.6,1.0*38
$GPGST,014457.00,6.784,1.054,0.798,338.103,1.022,0.839,2.038*5F
$GPGBS,014457.00,3.298,4.106,7.094,32,0.0001,27.607,8.680*67
$GPGRS,014457.00,1,-0.3,-0.2,-1.3,2.2,-1.4,1.0,0.4,,,,,*60
$GPGRS,014457.00,1,-1.8,0.3,1.8,-3.3,,,,,,,,*4E
$GPGRS,014457.00,1,-0.6,0.4,0.3,-0.3,-1.7,-1.4,,,,,,*4C
$GPGRS,014457.00,1,-2.2,0.3,2.2,-0.2,-1.6,3.4,27.6,-3.2,,,,*7E
$GPGSV,4,1,15,03,77,026,48,06,16,313,36,28,25,052,37,19,30,297,41*7A
$GPGSV,4,2,15,21,26,151,29,09,29,221,41,31,33,083,41,17,35,262,41*7B
$GPGSV,4,3,15,02,44,158,34,01,49,146,,04,58,206,39,36,35,170,41*7B
$GPGSV,4,4,15,34,31,208,,49,34,195,36,61,03,257,*44
$GLGSV,2,1,08,85,72,267,51,84,37,169,35,78,14,034,30,86,24,326,43*67
$GLGSV,2,2,08,71,14,241,31,69,44,041,46,70,60,263,35,79,09,083,*6F
$GAGSV,3,1,10,36,75,287,35,05,19,217,36,10,21,139,31,18,19,301,*63
$GAGSV,3,2,10,04,50,058,41,34,23,312,42,11,48,144,39,09,70,187,46*64
$GAGSV,3,3,10,06,74,092,49,27,01,349,*60
$GBGSV,5,1,18,48,79,278,,23,12,050,,05,24,128,,39,27,045,30*6B
$GBGSV,5,2,18,37,12,099,,29,44,204,46,32,18,065,36,35,42,293,42*6D
$GBGSV,5,3,18,16,32,055,39,06,33,059,39,09,38,075,42,19,51,256,50*66
$GBGSV,5,4,18,20,74,044,48,22,00,249,,30,03,166,,44,07,326,33*60
$GBGSV,5,5,18,02,08,105,,60,09,110,*63
$GPGGA,014457.00,,,,,0,00,,,M,,M,,*4B
$PTNL,GGK,014457.00,010125,4742.4464637,N,01617.9730553,E,1,25,1.2,EHT668.2539,M*42
$GPGGQ,014457.00,010125,4742.4464637,N,01617.9730553,E,1,25,2.429,625.0429,M*39
$GPGFA,014457.00,10.018,16.709,1.054,0.798,338.103,2.038,,VVV*04
$GPLLK,014457.00,010125,,M,,M,1,25,1.4,,M*0A
$GNGMP,014457.00,,,,,DAAA,25,0.6,,,,*54
$GPGMP,014457.00,,,,,,07,,,,2.0,123*7B
$GLGMP,014457.00,,,,,,04,,,,,*78
$GAGMP,014457.00,,,,,,06,,,,,*77
$GBGMP,014457.00,,,,,,08,,,,,*7A
$PSSN,SNC,[0,265515000,2347]*44
$GPZDA,014502.00,01,01,2025,,*61
$GPDTM,W84,,00.0000000,N,00.0000000,E,00.0000000,W84*5F
$GPRMC,014502.00,A,4742.4464686,N,01617.9730453,E,0.0,,010125,5.1,E,D*1E
$GPGLL,4742.4464686,N,01617.9730453,E,014502.00,A,D*6F
$GPGGA,014502.00,4742.4464686,N,01617.9730453,E,2,25,0.6,625.0688,M,43.2111,M,1.9,0123*48
$GNGNS,014502.00,4742.4464686,N,01617.9730453,E,DAAA,25,0.6,625.0688,43.2111,,*5C
$GPGNS,014502.00,,,,,,07,,,,1.9,123*70
$GLGNS,014502.00,,,,,,04,,,,,*79
$GAGNS,014502.00,,,,,,06,,,,,*76
$GBGNS,014502.00,,,,,,08,,,,,*7B
$GPLLQ,014502.00,010125,,M,,M,1,25,2.552,,M*14
$GPVTG,,T,,M,0.00,N,0.00,K,D*26
$GPHDT,,T*1B
$GPTHS,,V*0E
$GPROT,,V*08
$PSSN,HRP,014502.00,010125,,,,,,,00,0,,*63
$PTNL,AVR,014502.00,,Yaw,,Tilt,,,,0,,00*35
$GPGSA,A,3,03,04,06,09,17,19,31,,,,,,1.2,0.6,1.0*32
$GPGSA,A,3,69,70,85,86,,,,,,,,,1.2,0.6,1.0*3D
$GPGSA,A,3,04,05,06,09,11,34,,,,,,,1.2,0.6,1.0*3F
$GPGSA,A,3,06,09,16,19,20,29,32,35,,,,,1.2,0.6,1.0*38
$GPGST,014502.00,6.693,1.103,0.856,335.659,1.065,0.903,2.137*57
$GPGBS,014502.00,3.365,4.119,7.237,32,0.0001,27.196,8.681*6E
$GPGRS,014502.00,1,-0.7,0.1,-0.5,1.2,-2.0,2.0,1.2,,,,,*4C
$GPGRS,014502.00,1,-1.7,-0.4,1.6,-2.9,,,,,,,,*6F
$GPGRS,014502.00,1,-0.7,0.2,-0.2,-0.7,-2.0,-3.4,,,,,,*64
$GPGRS,014502.00,1,-2.0,0.3,2.4,-0.3,-1.6,1.7,27.2,-3.1,,,,*7C
$GPGSV,4,1,15,03,77,026,48,06,16,313,36,28,25,052,37,19,30,297,42*79
$GPGSV,4,2,15,21,26,151,25,09,29,221,41,31,33,083,41,17,35,262,39*78
$GPGSV,4,3,15,02,44,158,33,01,49,146,,04,58,206,38,36,35,170,41*7D
$GPGSV,4,4,15,34,31,208,,49,34,195,37,61,03,257,*45
$GLGSV,2,1,08,85,72,267,50,84,37,169,33,78,14,034,34,86,24,326,45*62
$GLGSV,2,2,08,71,14,241,34,69,44,041,46,70,60,264,36,79,10,083,*66
$GAGSV,3,1,10,36,76,287,33,05,19,217,36,10,21,139,23,18,19,301,*65
$GAGSV,3,2,10,04,50,058,41,34,23,312,41,11,48,144,39,09,70,187,46*67
$GAGSV,3,3,10,06,74,092,49,27,01,349,*60
$GBGSV,5,1,19,48,79,278,,23,12,050,,05,24,128,,39,27,045,31*6B
$GBGSV,5,2,19,37,12,099,,29,44,204,47,32,18,065,35,35,42,293,42*6E
$GBGSV,5,3,19,16,32,055,40,06,33,059,39,09,38,074,42,19,51,256,50*68
$GBGSV,5,4,19,20,74,044,48,22,00,249,,30,03,166,,44,07,326,31*63
$GBGSV,5,5,19,02,08,105,,58,00,131,,60,09,110,*5C
$GPGGA,014502.00,,,,,0,00,,,M,,M,,*4A
$PTNL,GGK,014502.00,010125,4742.4464686,N,01617.9730453,E,1,25,1.2,EHT668.2798,M*41
$GPGGQ,014502.00,010125,4742.4464686,N,01617.9730453,E,1,25,2.552,625.0688,M*37
$GPGFA,014502.00,10.483,17.523,1.103,0.856,335.659,2.137,,VVV*0D
$GPLLK,014502.00,010125,,M,,M,1,25,1.4,,M*0B
$GNGMP,014502.00,,,,,DAAA,25,0.6,,,,*55
$GPGMP,014502.00,,,,,,07,,,,1.9,123*70
$GLGMP,014502.00,,,,,,04,,,,,*79
$GAGMP,014502.00,,,,,,06,,,,,*76
$GBGMP,014502.00,,,,,,08,,,,,*7B
$PSSN,SNC,[0,265520000,2347]*42
$GPZDA,014507.00,01,01,2025,,*64
$GPDTM,W84,,00.0000000,N,00.0000000,E,00.0000000,W84*5F
$GPRMC,014507.00,A,4742.4464705,N,01617.9730356,E,0.0,,010125,5.1,E,D*13
$GPGLL,4742.4464705,N,01617.9730356,E,014507.00,A,D*62
$GPGGA,014507.00,4742.4464705,N,01617.9730356,E,2,22,0.7,625.0897,M,43.2111,M,3.0,0123*48
$GNGNS,014507.00,4742.4464705,N,01617.9730356,E,DAAA,22,0.7,625.0897,43.2111,,*57
$GPGNS,014507.00,,,,,,06,,,,3.0,123*7F
$GLGNS,014507.00,,,,,,04,,,,,*7C
$GAGNS,014507.00,,,,,,05,,,,,*70
$GBGNS,014507.00,,,,,,07,,,,,*71
$GPLLQ,014507.00,010125,,M,,M,1,22,2.171,,M*13
$GPVTG,,T,,M,0.00,N,0.01,K,D*27
$GPHDT,,T*1B
$GPTHS,,V*0E
$GPROT,,V*08
$PSSN,HRP,014507.00,010125,,,,,,,00,0,,*66
$PTNL,AVR,014507.00,,Yaw,,Tilt,,,,0,,00*30
$GPGSA,A,3,03,04,06,09,17,31,,,,,,,1.4,0.7,1.2*3F
$GPGSA,A,3,69,70,85,86,,,,,,,,,1.4,0.7,1.2*38
$GPGSA,A,3,04,06,09,11,34,,,,,,,,1.4,0.7,1.2*3F
$GPGSA,A,3,06,09,16,19,20,29,35,,,,,,1.4,0.7,1.2*3C
$GPGST,014507.00,2.176,1.052,0.698,332.329,0.987,0.788,1.766*5E
$GPGBS,014507.00,3.787,4.381,7.380,17,0.0001,-1.883,0.710*7F
$GPGRS,014507.00,1,-0.7,-0.1,2.0,1.5,-1.9,0.7,,,,,,*6B
$GPGRS,014507.00,1,-1.5,-2.4,-0.2,-1.9,,,,,,,,*41
$GPGRS,014507.00,1,-0.2,0.3,-0.4,-1.7,-3.9,,,,,,,*6E
$GPGRS,014507.00,1,-2.1,0.5,3.0,0.4,-1.8,2.0,-2.9,,,,,*4B
$GPGSV,4,1,15,03,77,027,48,06,16,313,37,28,25,052,22,19,30,297,43*7C
$GPGSV,4,2,15,21,25,151,20,09,30,221,40,31,33,083,41,17,35,262,37*79
$GPGSV,4,3,15,02,44,158,33,01,49,146,,04,58,206,37,36,35,170,41*72
$GPGSV,4,4,15,34,31,208,,49,34,195,36,61,03,257,*44
$GLGSV,2,1,08,85,72,267,48,84,37,169,31,78,14,034,34,86,24,326,45*69
$GLGSV,2,2,08,71,15,241,32,69,44,041,47,70,60,264,36,79,10,083,*60
$GAGSV,3,1,10,36,76,287,33,05,19,217,35,10,21,139,25,18,19,301,*60
$GAGSV,3,2,10,04,50,058,41,34,23,312,40,11,48,144,39,09,70,186,46*67
$GAGSV,3,3,10,06,74,092,48,27,01,349,*61
$GBGSV,5,1,19,48,79,278,,23,12,050,,05,24,128,,39,27,045,31*6B
$GBGSV,5,2,19,37,12,099,,29,44,204,47,32,18,065,34,35,42,293,41*6C
$GBGSV,5,3,19,16,32,055,40,06,33,059,39,09,38,074,42,19,51,256,50*68
$GBGSV,5,4,19,20,74,044,48,22,00,249,,30,03,166,,44,07,326,29*6A
$GBGSV,5,5,19,02,08,105,,58,00,131,,60,09,110,*5C
$GPGGA,014507.00,,,,,0,00,,,M,,M,,*4F
$PTNL,GGK,014507.00,010125,4742.4464705,N,01617.9730356,E,1,22,1.4,EHT668.3008,M*42
$GPGGQ,014507.00,010125,4742.4464705,N,01617.9730356,E,1,22,2.171,625.0897,M*38
$GPGFA,014507.00,10.003,14.481,1.052,0.698,332.329,1.766,,VVV*03
$GPLLK,014507.00,010125,,M,,M,1,22,1.7,,M*0A
$GNGMP,014507.00,,,,,DAAA,22,0.7,,,,*56
$GPGMP,014507.00,,,,,,06,,,,3.0,123*7F
$GLGMP,014507.00,,,,,,04,,,,,*7C
$GAGMP,014507.00,,,,,,05,,,,,*70
$GBGMP,014507.00,,,,,,07,,,,,*71
$PSSN,SNC,[0,265525000,2347]*47
$GPZDA,014512.00,01,01,2025,,*60
$GPDTM,W84,,00.0000000,N,00.0000000,E,00.0000000,W84*5F
$GPRMC,014512.00,A,4742.4464721,N,01617.9730310,E,0.0,,010125,5.1,E,D*13
$GPGLL,4742.4464721,N,01617.9730310,E,014512.00,A,D*62
$GPGGA,014512.00,4742.4464721,N,01617.9730310,E,2,22,0.7,625.1175,M,43.2111,M,3.5,0123*49
$GNGNS,014512.00,4742.4464721,N,01617.9730310,E,DAAA,22,0.7,625.1175,43.2111,,*53
$GPGNS,014512.00,,,,,,06,,,,3.5,123*7E
$GLGNS,014512.00,,,,,,04,,,,,*78
$GAGNS,014512.00,,,,,,05,,,,,*74
$GBGNS,014512.00,,,,,,07,,,,,*75
$GPLLQ,014512.00,010125,,M,,M,1,22,2.444,,M*14
$GPVTG,,T,,M,0.00,N,0.01,K,D*27
$GPHDT,,T*1B
$GPTHS,,V*0E
$GPROT,,V*08
$PSSN,HRP,014512.00,010125,,,,,,,00,0,,*62
$PTNL,AVR,014512.00,,Yaw,,Tilt,,,,0,,00*34
$GPGSA,A,3,03,04,06,09,17,31,,,,,,,1.4,0.7,1.2*3F
$GPGSA,A,3,69,70,85,86,,,,,,,,,1.4,0.7,1.2*38
$GPGSA,A,3,04,06,09,11,34,,,,,,,,1.4,0.7,1.2*3F
$GPGSA,A,3,06,09,16,19,20,29,35,,,,,,1.4,0.7,1.2*3C
$GPGST,014512.00,2.174,1.191,0.768,334.324,1.124,0.863,1.991*5F
$GPGBS,014512.00,3.857,4.268,7.628,06,0.0001,3.811,1.225*5E
$GPGRS,014512.00,1,-0.7,0.5,3.8,1.1,-1.9,0.2,,,,,,*4E
$GPGRS,014512.00,1,-0.6,-0.4,0.1,-2.2,,,,,,,,*63
$GPGRS,014512.00,1,-0.4,0.6,-0.1,-1.6,-3.3,,,,,,,*67
$GPGRS,014512.00,1,-2.2,0.3,2.9,1.2,-1.9,2.7,-2.4,,,,,*4E
$GPGSV,4,1,15,03,77,027,48,06,16,313,38,28,25,052,29,19,30,297,43*78
$GPGSV,4,2,15,21,25,151,,09,30,221,39,31,33,083,42,17,35,262,36*77
$GPGSV,4,3,15,02,44,158,34,01,49,146,,04,58,206,40,36,35,170,41*75
$GPGSV,4,4,15,34,31,208,,49,34,195,37,61,03,257,*45
$GLGSV,2,1,08,85,72,267,47,84,37,169,29,78,14,034,33,86,24,326,45*68
$GLGSV,2,2,08,71,15,242,30,69,44,041,47,70,60,264,36,79,10,083,*61
$GAGSV,3,1,10,36,76,287,34,05,19,217,33,10,21,139,28,18,20,301,*66
$GAGSV,3,2,10,04,50,058,41,34,23,312,39,11,48,144,39,09,70,186,46*69
$GAGSV,3,3,10,06,74,092,48,27,01,349,*61
$GBGSV,5,1,19,48,79,279,,23,12,050,,05,24,128,,39,27,045,32*69
$GBGSV,5,2,19,37,12,099,,29,44,204,47,32,18,065,35,35,42,293,40*6C
$GBGSV,5,3,19,16,32,055,40,06,33,059,39,09,38,074,41,19,51,256,49*63
$GBGSV,5,4,19,20,74,044,47,22,01,249,,30,03,166,,44,07,326,30*6C
$GBGSV,5,5,19,02,08,105,,58,00,131,,60,09,110,*5C
$GPGGA,014512.00,,,,,0,00,,,M,,M,,*4B
$PTNL,GGK,014512.00,010125,4742.4464721,N,01617.9730310,E,1,22,1.4,EHT668.3285,M*45
$GPGGQ,014512.00,010125,4742.4464721,N,01617.9730310,E,1,22,2.444,625.1175,M*3F
$GPGFA,014512.00,11.327,16.328,1.191,0.768,334.324,1.991,,VVV*08
$GPLLK,014512.00,010125,,M,,M,1,22,1.7,,M*0E
$GNGMP,014512.00,,,,,DAAA,22,0.7,,,,*52
$GPGMP,014512.00,,,,,,06,,,,3.5,123*7E
$GLGMP,014512.00,,,,,,04,,,,,*78
$GAGMP,014512.00,,,,,,05,,,,,*74
$GBGMP,014512.00,,,,,,07,,,,,*75
$PSSN,SNC,[0,265530000,2347]*43
$GPZDA,014517.00,01,01,2025,,*65
$GPDTM,W84,,00.0000000,N,00.0000000,E,00.0000000,W84*5F
$GPRMC,014517.00,A,4742.4464649,N,01617.9730375,E,0.0,,010125,5.1,E,D*1A
$GPGLL,4742.4464649,N,01617.9730375,E,014517.00,A,D*6B
$GPGGA,014517.00,4742.4464649,N,01617.9730375,E,2,24,0.7,625.1414,M,43.2111,M,2.1,0123*41
$GNGNS,014517.00,4742.4464649,N,01617.9730375,E,DAAA,24,0.7,625.1414,43.2111,,*5E
$GPGNS,014517.00,,,,,,07,,,,2.1,123*7F
$GLGNS,014517.00,,,,,,04,,,,,*7D
$GAGNS,014517.00,,,,,,06,,,,,*72
$GBGNS,014517.00,,,,,,07,,,,,*70
$GPLLQ,014517.00,010125,,M,,M,1,24,2.475,,M*15
$GPVTG,,T,,M,0.00,N,0.00,K,D*26
$GPHDT,,T*1B
$GPTHS,,V*0E
$GPROT,,V*08
$PSSN,HRP,014517.00,010125,,,,,,,00,0,,*67
$PTNL,AVR,014517.00,,Yaw,,Tilt,,,,0,,00*31
$GPGSA,A,3,03,04,06,09,17,19,31,,,,,,1.3,0.7,1.1*33
$GPGSA,A,3,69,70,85,86,,,,,,,,,1.3,0.7,1.1*3C
$GPGSA,A,3,04,06,09,11,34,36,,,,,,,1.3,0.7,1.1*3E
$GPGSA,A,3,06,09,16,19,20,29,35,,,,,,1.3,0.7,1.1*38
$GPGST,014517.00,2.174,1.070,0.819,337.187,1.036,0.862,2.076*55
$GPGBS,014517.00,3.343,4.180,7.175,06,0.0001,4.196,1.189*5B
$GPGRS,014517.00,1,-0.9,1.1,4.2,0.1,-1.7,1.0,-0.1,,,,,*43
$GPGRS,014517.00,1,-0.9,-0.8,0.5,-2.7,,,,,,,,*64
$GPGRS,014517.00,1,-1.1,-0.1,-0.7,-1.8,-3.6,0.4,,,,,,*6B
$GPGRS,014517.00,1,-2.2,-0.5,1.8,0.6,-2.8,2.6,-2.7,,,,,*67
$GPGSV,4,1,15,03,77,027,48,06,16,313,39,28,25,052,30,19,30,297,44*76
$GPGSV,4,2,15,21,25,151,,09,30,221,37,31,33,082,42,17,35,262,36*78
$GPGSV,4,3,15,02,44,158,34,01,49,146,,04,58,206,41,36,35,170,41*74
$GPGSV,4,4,15,34,31,208,,49,34,195,37,61,03,257,*45
$GLGSV,2,1,08,85,72,267,48,84,37,169,28,78,14,034,33,86,24,326,46*65
$GLGSV,2,2,08,71,15,242,30,69,44,041,47,70,60,264,35,79,10,083,*62
$GAGSV,3,1,10,36,76,287,36,05,19,217,32,10,21,139,31,18,20,301,*6D
$GAGSV,3,2,10,04,50,058,42,34,23,312,38,11,48,144,39,09,70,186,46*6B
$GAGSV,3,3,10,06,74,092,47,27,01,349,*6E
$GBGSV,5,1,19,48,79,279,,23,12,050,,05,24,128,,39,27,045,33*68
$GBGSV,5,2,19,37,12,099,,29,44,204,47,32,18,065,33,35,42,293,38*65
$GBGSV,5,3,19,16,32,055,40,06,33,059,39,09,38,074,41,19,51,256,48*62
$GBGSV,5,4,19,20,74,044,47,22,01,249,,30,03,166,,44,07,326,30*6C
$GBGSV,5,5,19,02,08,105,,58,00,131,,60,09,110,*5C
$GPGGA,014517.00,,,,,0,00,,,M,,M,,*4E
$PTNL,GGK,014517.00,010125,4742.4464649,N,01617.9730375,E,1,24,1.3,EHT668.3525,M*40
$GPGGQ,014517.00,010125,4742.4464649,N,01617.9730375,E,1,24,2.475,625.1414,M*30
$GPGFA,014517.00,10.176,17.025,1.070,0.819,337.187,2.076,,VVV*09
$GPLLK,014517.00,010125,,M,,M,1,24,1.6,,M*0C
$GNGMP,014517.00,,,,,DAAA,24,0.7,,,,*51
$GPGMP,014517.00,,,,,,07,,,,2.1,123*7F
$GLGMP,014517.00,,,,,,04,,,,,*7D
$GAGMP,014517.00,,,,,,06,,,,,*72
$GBGMP,014517.00,,,,,,07,,,,,*70
$PSSN,SNC,[0,265535000,2347]*46
$GPZDA,014522.00,01,01,2025,,*63
$GPDTM,W84,,00.0000000,N,00.0000000,E,00.0000000,W84*5F
$GPRMC,014522.00,A,4742.4464609,N,01617.9730467,E,0.0,,010125,5.1,E,D*1C
$GPGLL,4742.4464609,N,01617.9730467,E,014522.00,A,D*6D
$GPGGA,014522.00,4742.4464609,N,01617.9730467,E,2,21,0.8,625.1593,M,43.2111,M,2.0,0123*42
$GNGNS,014522.00,4742.4464609,N,01617.9730467,E,DAAA,21,0.8,625.1593,43.2111,,*5C
$GPGNS,014522.00,,,,,,06,,,,2.0,123*79
$GLGNS,014522.00,,,,,,03,,,,,*7C
$GAGNS,014522.00,,,,,,06,,,,,*74
$GBGNS,014522.00,,,,,,06,,,,,*77
$GPLLQ,014522.00,010125,,M,,M,1,21,3.507,,M*13
$GPVTG,,T,,M,0.00,N,0.00,K,D*26
$GPHDT,,T*1B
$GPTHS,,V*0E
$GPROT,,V*08
$PSSN,HRP,014522.00,010125,,,,,,,00,0,,*61
$PTNL,AVR,014522.00,,Yaw,,Tilt,,,,0,,00*37
$GPGSA,A,3,03,04,06,17,19,31,,,,,,,1.5,0.8,1.3*31
$GPGSA,A,3,69,85,86,,,,,,,,,,1.5,0.8,1.3*30
$GPGSA,A,3,04,06,09,11,34,36,,,,,,,1.5,0.8,1.3*35
$GPGSA,A,3,06,09,16,19,20,29,,,,,,,1.5,0.8,1.3*35
$GPGST,014522.00,2.405,1.766,1.036,352.457,1.756,1.053,2.847*5F
$GPGBS,014522.00,5.198,4.275,10.176,06,0.0001,4.409,1.195*6D
$GPGRS,014522.00,1,-1.6,1.6,4.4,-1.5,1.5,-0.5,,,,,,*66
$GPGRS,014522.00,1,-1.6,1.5,-2.3,,,,,,,,,*62
$GPGRS,014522.00,1,-1.5,0.0,-0.7,-2.6,-2.8,0.2,,,,,,*41
$GPGRS,014522.00,1,-2.0,-0.8,1.1,0.3,-3.3,2.7,,,,,,*6F
$GPGSV,4,1,15,03,77,027,48,06,16,313,40,28,25,052,29,19,30,297,45*71
$GPGSV,4,2,15,21,25,151,,09,30,221,33,31,33,082,42,02,44,158,36*74
$GPGSV,4,3,15,17,35,262,38,01,49,147,,04,58,207,43,36,35,170,42*71
$GPGSV,4,4,15,34,31,208,,49,34,195,37,61,03,257,*45
$GLGSV,2,1,08,85,72,266,50,84,37,169,27,78,14,034,32,86,24,326,46*63
$GLGSV,2,2,08,71,15,242,25,69,44,041,46,70,60,264,35,79,10,083,*67
$GAGSV,3,1,10,36,76,287,38,05,19,217,30,10,21,139,33,18,20,301,*63
$GAGSV,3,2,10,04,50,058,43,34,24,312,37,11,48,144,39,09,70,186,47*63
$GAGSV,3,3,10,06,74,092,47,27,01,349,*6E
$GBGSV,5,1,19,48,79,279,,23,12,050,,05,24,128,,39,27,045,34*6F
$GBGSV,5,2,19,37,12,099,,29,44,204,47,32,18,065,33,35,42,293,35*68
$GBGSV,5,3,19,16,32,055,39,06,33,058,39,09,38,074,41,19,51,256,47*62
$GBGSV,5,4,19,20,74,044,48,22,01,249,,30,03,166,,44,07,326,30*63
$GBGSV,5,5,19,02,08,105,,58,00,131,,60,09,110,*5C
$GPGGA,014522.00,,,,,0,00,,,M,,M,,*48
$PTNL,GGK,014522.00,010125,4742.4464609,N,01617.9730467,E,1,21,1.5,EHT668.3704,M*44
$GPGGQ,014522.00,010125,4742.4464609,N,01617.9730467,E,1,21,3.507,625.1593,M*38
$GPGFA,014522.00,16.786,23.349,1.766,1.036,352.457,2.847,,VVV*0B
$GPLLK,014522.00,010125,,M,,M,1,21,1.8,,M*01
$GNGMP,014522.00,,,,,DAAA,21,0.8,,,,*5D
$GPGMP,014522.00,,,,,,06,,,,2.0,123*79
$GLGMP,014522.00,,,,,,03,,,,,*7C
$GAGMP,014522.00,,,,,,06,,,,,*74
$GBGMP,014522.00,,,,,,06,,,,,*77
$PSSN,SNC,[0,265540000,2347]*44
$GPZDA,014527.00,01,01,2025,,*66
$GPDTM,W84,,00.0000000,N,00.0000000,E,00.0000000,W84*5F
$GPRMC,014527.00,A,4742.4464511,N,01617.9730738,E,0.0,,010125,5.1,E,D*1A
$GPGLL,4742.4464511,N,01617.9730738,E,014527.00,A,D*6B
$GPGGA,014527.00,4742.4464511,N,01617.9730738,E,2,22,0.7,625.1827,M,43.2111,M,2.4,0123*4E
$GNGNS,014527.00,4742.4464511,N,01617.9730738,E,DAAA,22,0.7,625.1827,43.2111,,*54
$GPGNS,014527.00,,,,,,07,,,,2.4,123*79
$GLGNS,014527.00,,,,,,03,,,,,*79
$GAGNS,014527.00,,,,,,06,,,,,*71
$GBGNS,014527.00,,,,,,06,,,,,*72
$GPLLQ,014527.00,010125,,M,,M,1,22,2.975,,M*1D
$GPVTG,,T,,M,0.00,N,0.00,K,D*26
$GPHDT,,T*1B
$GPTHS,,V*0E
$GPROT,,V*08
$PSSN,HRP,014527.00,010125,,,,,,,00,0,,*64
$PTNL,AVR,014527.00,,Yaw,,Tilt,,,,0,,00*32
$GPGSA,A,3,02,03,04,06,17,19,31,,,,,,1.4,0.7,1.2*3C
$GPGSA,A,3,69,85,86,,,,,,,,,,1.4,0.7,1.2*3F
$GPGSA,A,3,04,06,09,11,34,36,,,,,,,1.4,0.7,1.2*3A
$GPGSA,A,3,06,09,16,19,20,29,,,,,,,1.4,0.7,1.2*3A
$GPGST,014527.00,2.271,1.241,0.900,16.553,1.217,0.932,2.550*60
$GPGBS,014527.00,3.626,3.370,9.208,06,0.0001,4.077,1.207*58
$GPGRS,014527.00,1,-0.5,-1.5,1.4,4.1,-0.9,1.9,-0.9,,,,,*6C
$GPGRS,014527.00,1,-2.1,2.9,-1.5,,,,,,,,,*69
$GPGRS,014527.00,1,-1.2,0.5,-0.4,-2.8,-1.8,0.0,,,,,,*4A
$GPGRS,014527.00,1,-2.0,-0.6,1.3,0.8,-3.2,2.5,,,,,,*6E
$GPGSV,4,1,15,03,77,027,47,06,16,313,40,28,25,052,32,19,30,297,44*75
$GPGSV,4,2,15,21,25,151,,09,30,221,27,31,33,082,40,02,44,158,37*72
$GPGSV,4,3,15,17,35,262,36,01,49,147,,04,58,207,44,36,35,170,42*78
$GPGSV,4,4,15,34,31,208,,49,34,195,37,61,03,257,*45
$GLGSV,2,1,08,85,72,266,50,84,37,169,27,78,14,034,29,86,24,326,46*69
$GLGSV,2,2,08,71,15,242,29,69,44,041,45,70,60,264,34,79,10,083,*69
$GAGSV,3,1,10,36,76,287,39,05,20,217,30,10,21,139,34,18,20,301,*6F
$GAGSV,3,2,10,04,50,058,43,34,24,312,37,11,48,144,38,09,70,186,47*62
$GAGSV,3,3,10,06,74,092,47,27,01,349,*6E
$GBGSV,5,1,19,48,79,279,,23,12,050,,05,24,128,,39,26,045,35*6F
$GBGSV,5,2,19,37,12,099,,29,44,204,45,32,18,065,33,35,42,293,31*6E
$GBGSV,5,3,19,16,32,055,39,06,33,058,39,09,38,074,40,19,51,256,46*62
$GBGSV,5,4,19,20,74,044,48,22,01,249,,30,03,166,,44,07,326,29*6B
$GBGSV,5,5,19,02,08,105,,58,00,131,,60,09,110,*5C
$GPGGA,014527.00,,,,,0,00,,,M,,M,,*4D
$PTNL,GGK,014527.00,010125,4742.4464511,N,01617.9730738,E,1,22,1.4,EHT668.3938,M*41
$GPGGQ,014527.00,010125,4742.4464511,N,01617.9730738,E,1,22,2.975,625.1827,M*37
$GPGFA,014527.00,11.795,20.907,1.241,0.900,16.553,2.550,,VVV*38
$GPLLK,014527.00,010125,,M,,M,1,22,1.7,,M*08
$GNGMP,014527.00,,,,,DAAA,22,0.7,,,,*54
$GPGMP,014527.00,,,,,,07,,,,2.4,123*79
$GLGMP,014527.00,,,,,,03,,,,,*79
$GAGMP,014527.00,,,,,,06,,,,,*71
$GBGMP,014527.00,,,,,,06,,,,,*72
$PSSN,SNC,[0,265545000,2347]*41
$GPZDA,014532.00,01,01,2025,,*62
$GPDTM,W84,,00.0000000,N,00.0000000,E,00.0000000,W84*5F
$GPRMC,014532.00,A,4742.4464446,N,01617.9730865,E,0.0,,010125,5.1,E,D*1A
$GPGLL,4742.4464446,N,01617.9730865,E,014532.00,A,D*6B
$GPGGA,014532.00,4742.4464446,N,01617.9730865,E,2,22,0.7,625.1962,M,43.2111,M,3.5,0123*4E
$GNGNS,014532.00,4742.4464446,N,01617.9730865,E,DAAA,22,0.7,625.1962,43.2111,,*54
$GPGNS,014532.00,,,,,,06,,,,3.5,123*7C
$GLGNS,014532.00,,,,,,03,,,,,*7D
$GAGNS,014532.00,,,,,,06,,,,,*75
$GBGNS,014532.00,,,,,,07,,,,,*77
$GPLLQ,014532.00,010125,,M,,M,1,22,2.680,,M*1C
$GPVTG,,T,,M,0.01,N,0.01,K,D*26
$GPHDT,,T*1B
$GPTHS,,V*0E
$GPROT,,V*08
$PSSN,HRP,014532.00,010125,,,,,,,00,0,,*60
$PTNL,AVR,014532.00,,Yaw,,Tilt,,,,0,,00*36
$GPGSA,A,3,02,03,04,06,19,31,,,,,,,1.4,0.7,1.2*3A
$GPGSA,A,3,69,85,86,,,,,,,,,,1.4,0.7,1.2*3F
$GPGSA,A,3,04,06,09,11,34,36,,,,,,,1.4,0.7,1.2*3A
$GPGSA,A,3,06,09,16,19,20,29,39,,,,,,1.4,0.7,1.2*30
$GPGST,014532.00,2.137,1.140,0.823,21.297,1.104,0.872,2.281*63
$GPGBS,014532.00,4.042,4.079,9.653,06,0.0001,4.352,1.218*52
$GPGRS,014532.00,1,-0.1,-0.7,1.1,4.4,0.5,-1.2,,,,,,*62
$GPGRS,014532.00,1,-1.3,2.6,-1.5,,,,,,,,,*63
$GPGRS,014532.00,1,-0.7,0.7,-0.1,-2.9,-0.1,0.2,,,,,,*46
$GPGRS,014532.00,1,-1.4,-0.5,0.7,1.2,-3.3,1.0,3.3,,,,,*49
$GPGSV,4,1,15,03,77,027,46,06,16,313,39,28,25,052,31,19,30,297,44*79
$GPGSV,4,2,15,21,25,151,,09,30,221,20,31,33,082,40,02,44,158,38*7A
$GPGSV,4,3,15,17,35,262,35,01,49,147,,04,58,207,45,36,35,170,42*7A
$GPGSV,4,4,15,34,31,208,,49,34,195,37,61,03,257,*45
$GLGSV,2,1,08,85,72,266,49,84,37,169,29,78,14,034,28,86,24,326,46*6E
$GLGSV,2,2,08,71,15,242,29,69,44,041,45,70,60,264,33,79,10,083,*6E
$GAGSV,3,1,10,36,76,287,39,05,20,217,29,10,21,139,34,18,20,301,*67
$GAGSV,3,2,10,04,50,058,43,34,24,312,38,11,48,144,38,09,70,186,47*6D
$GAGSV,3,3,10,06,74,092,46,27,01,349,*6F
$GBGSV,5,1,19,48,79,279,,23,12,050,,05,24,128,,39,26,045,36*6C
$GBGSV,5,2,19,37,13,099,,29,44,204,44,32,18,065,34,35,42,293,29*60
$GBGSV,5,3,19,16,32,055,39,06,33,058,39,09,38,074,39,19,51,256,46*6C
$GBGSV,5,4,19,20,74,044,48,22,01,249,,30,03,166,,44,07,326,29*6B
$GBGSV,5,5,19,02,08,105,,58,00,131,,60,09,110,*5C
$GPGGA,014532.00,,,,,0,00,,,M,,M,,*49
$PTNL,GGK,014532.00,010125,4742.4464446,N,01617.9730865,E,1,22,1.4,EHT668.4072,M*41
$GPGGQ,014532.00,010125,4742.4464446,N,01617.9730865,E,1,22,2.680,625.1962,M*32
$GPGFA,014532.00,10.842,18.704,1.140,0.823,21.297,2.281,,VVV*3C
$GPLLK,014532.00,010125,,M,,M,1,22,1.7,,M*0C
$GNGMP,014532.00,,,,,DAAA,22,0.7,,,,*50
$GPGMP,014532.00,,,,,,06,,,,3.5,123*7C
$GLGMP,014532.00,,,,,,03,,,,,*7D
$GAGMP,014532.00,,,,,,06,,,,,*75
$GBGMP,014532.00,,,,,,07,,,,,*77
$PSSN,SNC,[0,265550000,2347]*45
$GPZDA,014537.00,01,01,2025,,*67
$GPDTM,W84,,00.0000000,N,00.0000000,E,00.0000000,W84*5F
$GPRMC,014537.00,A,4742.4464392,N,01617.9730978,E,0.0,,010125,5.1,E,D*1C
$GPGLL,4742.4464392,N,01617.9730978,E,014537.00,A,D*6D
$GPGGA,014537.00,4742.4464392,N,01617.9730978,E,2,24,0.7,625.2191,M,43.2111,M,2.1,0123*4C
$GNGNS,014537.00,4742.4464392,N,01617.9730978,E,DAAA,24,0.7,625.2191,43.2111,,*53
$GPGNS,014537.00,,,,,,07,,,,2.1,123*7D
$GLGNS,014537.00,,,,,,03,,,,,*78
$GAGNS,014537.00,,,,,,06,,,,,*70
$GBGNS,014537.00,,,,,,08,,,,,*7D
$GPLLQ,014537.00,010125,,M,,M,1,24,2.555,,M*14
$GPVTG,,T,,M,0.00,N,0.00,K,D*26
$GPHDT,,T*1B
$GPTHS,,V*0E
$GPROT,,V*08
$PSSN,HRP,014537.00,010125,,,,,,,00,0,,*65
$PTNL,AVR,014537.00,,Yaw,,Tilt,,,,0,,00*33
$GPGSA,A,3,02,03,04,06,17,19,31,,,,,,1.3,0.7,1.1*38
$GPGSA,A,3,69,85,86,,,,,,,,,,1.3,0.7,1.1*3B
$GPGSA,A,3,04,06,09,11,34,36,,,,,,,1.3,0.7,1.1*3E
$GPGSA,A,3,06,09,16,19,20,29,32,39,,,,,1.3,0.7,1.1*35
$GPGST,014537.00,5.784,1.094,0.801,24.847,1.048,0.860,2.166*65
$GPGBS,014537.00,3.483,3.376,8.703,17,0.0001,-2.888,0.742*7B
$GPGRS,014537.00,1,0.2,-0.8,0.5,2.9,-2.9,1.0,0.1,,,,,*6B
$GPGRS,014537.00,1,-0.7,0.5,-2.0,,,,,,,,,*64
$GPGRS,014537.00,1,-0.9,0.4,-0.3,-2.5,0.5,-0.3,,,,,,*45
$GPGRS,014537.00,1,-1.6,-0.9,-1.1,0.4,-3.6,-0.8,22.5,3.6,,,,*50
$GPGSV,4,1,15,03,77,028,47,06,16,313,40,28,25,052,29,19,30,297,43*77
$GPGSV,4,2,15,21,25,151,22,09,30,221,34,31,33,082,40,02,44,158,40*70
$GPGSV,4,3,15,17,35,262,36,01,49,147,,04,58,207,46,36,35,170,42*7A
$GPGSV,4,4,15,34,31,208,,49,34,195,36,61,03,257,*44
$GLGSV,2,1,08,85,72,266,49,84,37,169,31,78,14,034,30,86,24,326,47*6F
$GLGSV,2,2,08,71,15,242,27,69,43,041,46,70,60,264,32,79,10,083,*65
$GAGSV,3,1,10,36,76,287,40,05,20,217,28,10,21,139,34,18,20,301,*68
$GAGSV,3,2,10,04,50,058,43,34,24,312,40,11,48,144,39,09,71,186,48*6D
$GAGSV,3,3,10,06,74,091,47,27,01,349,*6D
$GBGSV,5,1,19,48,79,279,,23,12,050,,05,24,128,,39,26,045,36*6C
$GBGSV,5,2,19,37,13,099,,29,44,204,43,32,18,065,35,35,43,293,22*6C
$GBGSV,5,3,19,16,32,055,39,06,33,058,39,09,38,074,38,19,51,256,45*6E
$GBGSV,5,4,19,20,74,044,48,22,01,249,,30,03,166,,44,07,326,29*6B
$GBGSV,5,5,19,02,08,105,,58,00,131,,60,09,110,*5C
$GPGGA,014537.00,,,,,0,00,,,M,,M,,*4C
$PTNL,GGK,014537.00,010125,4742.4464392,N,01617.9730978,E,1,24,1.3,EHT668.4301,M*41
$GPGGQ,014537.00,010125,4742.4464392,N,01617.9730978,E,1,24,2.555,625.2191,M*3E
$GPGFA,014537.00,10.399,17.758,1.094,0.801,24.847,2.166,,VVV*32
$GPLLK,014537.00,010125,,M,,M,1,24,1.6,,M*0E
$GNGMP,014537.00,,,,,DAAA,24,0.7,,,,*53
$GPGMP,014537.00,,,,,,07,,,,2.1,123*7D
$GLGMP,014537.00,,,,,,03,,,,,*78
$GAGMP,014537.00,,,,,,06,,,,,*70
$GBGMP,014537.00,,,,,,08,,,,,*7D
$PSSN,SNC,[0,265555000,2347]*40
$GPZDA,014542.00,01,01,2025,,*65
$GPDTM,W84,,00.0000000,N,00.0000000,E,00.0000000,W84*5F
$GPRMC,014542.00,A,4742.4464312,N,01617.9731021,E,0.0,,010125,5.1,E,D*12
$GPGLL,4742.4464312,N,01617.9731021,E,014542.00,A,D*63
$GPGGA,014542.00,4742.4464312,N,01617.9731021,E,2,22,0.7,625.2507,M,43.2111,M,2.2,0123*4C
$GNGNS,014542.00,4742.4464312,N,01617.9731021,E,DAAA,22,0.7,625.2507,43.2111,,*50
$GPGNS,014542.00,,,,,,06,,,,2.2,123*7D
$GLGNS,014542.00,,,,,,03,,,,,*7A
$GAGNS,014542.00,,,,,,06,,,,,*72
$GBGNS,014542.00,,,,,,07,,,,,*70
$GPLLQ,014542.00,010125,,M,,M,1,22,2.113,,M*16
$GPVTG,,T,,M,0.00,N,0.00,K,D*26
$GPHDT,,T*1B
$GPTHS,,V*0E
$GPROT,,V*08
$PSSN,HRP,014542.00,010125,,,,,,,00,0,,*67
$PTNL,AVR,014542.00,,Yaw,,Tilt,,,,0,,00*31
$GPGSA,A,3,02,03,04,06,19,31,,,,,,,1.4,0.7,1.2*3A
$GPGSA,A,3,69,85,86,,,,,,,,,,1.4,0.7,1.2*3F
$GPGSA,A,3,04,06,09,11,34,36,,,,,,,1.4,0.7,1.2*3A
$GPGSA,A,3,06,09,16,19,20,29,39,,,,,,1.4,0.7,1.2*30
$GPGST,014542.00,2.035,0.930,0.687,35.551,0.856,0.778,1.769*6B
$GPGBS,014542.00,3.797,4.077,9.091,06,0.0001,2.495,1.191*53
$GPGRS,014542.00,1,-0.0,-1.2,-0.5,2.5,0.8,0.8,,,,,,*64
$GPGRS,014542.00,1,-0.9,1.0,-1.8,,,,,,,,,*67
$GPGRS,014542.00,1,-1.0,0.2,-0.4,-2.7,0.4,-0.1,,,,,,*4F
$GPGRS,014542.00,1,-1.7,-1.3,-1.4,-0.6,-3.9,-1.6,3.8,,,,,*67
$GPGSV,4,1,15,03,77,028,47,06,16,313,40,28,25,052,28,19,30,297,41*74
$GPGSV,4,2,15,21,25,151,24,09,30,221,23,31,33,082,41,02,44,158,42*73
$GPGSV,4,3,15,17,35,262,37,01,49,147,,04,58,207,46,36,35,170,41*78
$GPGSV,4,4,15,34,31,208,,49,34,195,36,61,03,257,*44
$GLGSV,2,1,08,85,72,266,49,84,37,169,32,78,14,034,34,86,24,326,47*68
$GLGSV,2,2,08,71,15,242,30,69,43,041,46,70,60,264,31,79,10,083,*60
$GAGSV,3,1,10,36,76,287,39,05,20,217,29,10,21,139,32,18,20,301,*61
$GAGSV,3,2,10,04,50,058,42,34,24,312,41,11,48,144,39,09,71,186,48*6D
$GAGSV,3,3,10,06,74,091,46,27,01,349,*6C
$GBGSV,5,1,19,48,79,279,,23,12,050,,05,24,128,,39,26,045,36*6C
$GBGSV,5,2,19,37,13,099,,29,44,204,42,32,18,065,35,35,43,293,24*6B
$GBGSV,5,3,19,16,32,055,39,06,33,058,38,09,38,074,38,19,51,256,44*6E
$GBGSV,5,4,19,20,74,044,49,22,01,249,,30,03,166,,44,07,326,33*61
$GBGSV,5,5,19,02,08,105,,58,00,131,,60,09,110,*5C
$GPGGA,014542.00,,,,,0,00,,,M,,M,,*4E
$PTNL,GGK,014542.00,010125,4742.4464312,N,01617.9731021,E,1,22,1.4,EHT668.4618,M*43
$GPGGQ,014542.00,010125,4742.4464312,N,01617.9731021,E,1,22,2.113,625.2507,M*3B
$GPGFA,014542.00,8.843,14.503,0.930,0.687,35.551,1.769,,VVV*0C
$GPLLK,014542.00,010125,,M,,M,1,22,1.7,,M*0B
$GNGMP,014542.00,,,,,DAAA,22,0.7,,,,*57
$GPGMP,014542.00,,,,,,06,,,,2.2,123*7D
$GLGMP,014542.00,,,,,,03,,,,,*7A
$GAGMP,014542.00,,,,,,06,,,,,*72
$GBGMP,014542.00,,,,,,07,,,,,*70
$PSSN,SNC,[0,265560000,2347]*46
$GPZDA,014547.00,01,01,2025,,*60
$GPDTM,W84,,00.0000000,N,00.0000000,E,00.0000000,W84*5F
$GPRMC,014547.00,A,4742.4464249,N,01617.9730987,E,0.0,,010125,5.1,E,D*1C
$GPGLL,4742.4464249,N,01617.9730987,E,014547.00,A,D*6D
$GPGGA,014547.00,4742.4464249,N,01617.9730987,E,2,24,0.7,625.2868,M,43.2111,M,2.4,0123*46
$GNGNS,014547.00,4742.4464249,N,01617.9730987,E,DAAA,24,0.7,625.2868,43.2111,,*5C
$GPGNS,014547.00,,,,,,07,,,,2.4,123*7F
$GLGNS,014547.00,,,,,,03,,,,,*7F
$GAGNS,014547.00,,,,,,06,,,,,*77
$GBGNS,014547.00,,,,,,08,,,,,*7A
$GPLLQ,014547.00,010125,,M,,M,1,24,2.671,,M*16
$GPVTG,,T,,M,0.01,N,0.01,K,D*26
$GPHDT,,T*1B
$GPTHS,,V*0E
$GPROT,,V*08
$PSSN,HRP,014547.00,010125,,,,,,,00,0,,*62
$PTNL,AVR,014547.00,,Yaw,,Tilt,,,,0,,00*34
$GPGSA,A,3,02,03,04,06,17,19,31,,,,,,1.4,0.7,1.2*3C
$GPGSA,A,3,69,85,86,,,,,,,,,,1.4,0.7,1.2*3F
$GPGSA,A,3,04,06,09,11,34,36,,,,,,,1.4,0.7,1.2*3A
$GPGSA,A,3,06,09,16,19,20,29,35,39,,,,,1.4,0.7,1.2*36
$GPGST,014547.00,2.658,1.111,0.809,16.581,1.089,0.837,2.290*62
$GPGBS,014547.00,3.618,3.329,9.156,17,0.0001,-2.535,0.705*79
$GPGRS,014547.00,1,0.0,-0.4,0.2,3.5,-2.5,0.7,0.9,,,,,*6A
$GPGRS,014547.00,1,-1.4,3.3,-0.8,,,,,,,,,*6E
$GPGRS,014547.00,1,-1.2,0.5,0.3,-2.3,0.6,0.1,,,,,,*4E
$GPGRS,014547.00,1,-2.0,-1.0,-1.2,-0.7,-3.5,-1.4,-6.5,4.0,,,,*63
$GPGSV,4,1,15,03,77,028,46,06,16,313,40,28,25,052,25,19,30,297,41*78
$GPGSV,4,2,15,21,25,151,26,09,30,221,28,31,33,082,41,02,44,158,41*79
$GPGSV,4,3,15,17,35,262,38,01,48,147,,04,58,207,46,36,35,170,41*76
$GPGSV,4,4,15,34,31,208,,49,34,195,36,61,03,257,*44
$GLGSV,2,1,08,85,72,266,50,84,37,169,33,78,14,034,35,86,24,326,47*60
$GLGSV,2,2,08,71,15,242,24,69,43,041,46,70,60,264,31,79,10,083,*65
$GAGSV,3,1,10,36,76,287,39,05,20,217,29,10,20,139,31,18,20,301,*63
$GAGSV,3,2,10,04,50,058,42,34,24,312,42,11,48,144,38,09,71,186,48*6F
$GAGSV,3,3,10,06,74,091,46,27,01,349,*6C
$GBGSV,5,1,19,48,79,280,,23,12,050,,05,24,128,,39,26,045,36*6A
$GBGSV,5,2,19,37,13,099,,29,44,204,41,32,18,065,35,35,43,293,42*68
$GBGSV,5,3,19,16,32,055,39,06,33,058,38,09,38,074,38,19,51,256,43*69
$GBGSV,5,4,19,20,74,044,49,22,01,249,,30,03,166,,44,08,326,34*69
$GBGSV,5,5,19,02,08,105,,58,00,131,,60,09,110,*5C
$GPGGA,014547.00,,,,,0,00,,,M,,M,,*4B
$PTNL,GGK,014547.00,010125,4742.4464249,N,01617.9730987,E,1,24,1.4,EHT668.4979,M*43
$GPGGQ,014547.00,010125,4742.4464249,N,01617.9730987,E,1,24,2.671,625.2868,M*34
$GPGFA,014547.00,10.562,18.781,1.111,0.809,16.581,2.290,,VVV*34
$GPLLK,014547.00,010125,,M,,M,1,24,1.7,,M*08
$GNGMP,014547.00,,,,,DAAA,24,0.7,,,,*54
$GPGMP,014547.00,,,,,,07,,,,2.4,123*7F
$GLGMP,014547.00,,,,,,03,,,,,*7F
$GAGMP,014547.00,,,,,,06,,,,,*77
$GBGMP,014547.00,,,,,,08,,,,,*7A
$PSSN,SNC,[0,265565000,2347]*43
$GPZDA,014552.00,01,01,2025,,*64
$GPDTM,W84,,00.0000000,N,00.0000000,E,00.0000000,W84*5F
$GPRMC,014552.00,A,4742.4464181,N,01617.9730928,E,0.0,,010125,5.1,E,D*1A
$GPGLL,4742.4464181,N,01617.9730928,E,014552.00,A,D*6B
$GPGGA,014552.00,4742.4464181,N,01617.9730928,E,2,25,0.7,625.3026,M,43.2111,M,3.4,0123*43
$GNGNS,014552.00,4742.4464181,N,01617.9730928,E,DAAA,25,0.7,625.3026,43.2111,,*58
$GPGNS,014552.00,,,,,,07,,,,3.4,123*7A
$GLGNS,014552.00,,,,,,03,,,,,*7B
$GAGNS,014552.00,,,,,,06,,,,,*73
$GBGNS,014552.00,,,,,,09,,,,,*7F
$GPLLQ,014552.00,010125,,M,,M,1,25,1.513,,M*17
$GPVTG,,T,,M,0.01,N,0.01,K,D*26
$GPHDT,,T*1B
$GPTHS,,V*0E
$GPROT,,V*08
$PSSN,HRP,014552.00,010125,,,,,,,00,0,,*66
$PTNL,AVR,014552.00,,Yaw,,Tilt,,,,0,,00*30
$GPGSA,A,3,02,03,04,06,17,19,31,,,,,,1.3,0.7,1.1*38
$GPGSA,A,3,69,85,86,,,,,,,,,,1.3,0.7,1.1*3B
$GPGSA,A,3,04,06,09,11,34,36,,,,,,,1.3,0.7,1.1*3E
$GPGSA,A,3,06,09,16,19,20,29,35,39,44,,,,1.3,0.7,1.1*32
$GPGST,014552.00,2.262,0.631,0.450,14.398,0.621,0.464,1.299*66
$GPGBS,014552.00,3.710,3.396,9.375,06,0.0001,1.721,1.214*5E
$GPGRS,014552.00,1,0.2,-0.7,0.4,1.7,-0.9,0.8,0.2,,,,,*63
$GPGRS,014552.00,1,-1.0,4.1,-1.0,,,,,,,,,*62
$GPGRS,014552.00,1,-1.4,0.4,0.4,-1.8,0.1,-0.4,,,,,,*6D
$GPGRS,014552.00,1,-1.5,-1.6,-0.8,-0.9,-2.7,-2.4,-4.5,4.7,-0.5,,,*61
$GPGSV,4,1,15,03,77,028,46,06,16,313,39,28,25,052,26,19,30,297,40*74
$GPGSV,4,2,15,21,25,151,,09,30,221,29,31,33,082,40,02,44,158,40*7C
$GPGSV,4,3,15,17,35,262,39,01,48,147,,04,58,207,46,36,35,170,41*77
$GPGSV,4,4,15,34,31,208,,49,34,195,36,61,03,257,*44
$GLGSV,2,1,08,85,72,265,50,84,36,169,32,78,14,034,31,86,24,326,46*66
$GLGSV,2,2,08,71,15,242,21,69,43,041,46,70,60,264,30,79,10,083,*61
$GAGSV,3,1,10,36,76,286,39,05,20,217,30,10,20,139,31,18,20,301,*6A
$GAGSV,3,2,10,04,50,058,41,34,24,312,42,11,48,144,39,09,71,186,48*6D
$GAGSV,3,3,10,06,74,091,46,27,01,349,*6C
$GBGSV,5,1,19,48,79,280,,23,12,050,,05,24,128,,39,26,045,37*6B
$GBGSV,5,2,19,37,13,099,,29,43,204,40,32,18,065,34,35,43,293,37*6D
$GBGSV,5,3,19,16,32,055,38,06,33,058,38,09,38,074,37,19,51,256,43*67
$GBGSV,5,4,19,20,74,044,49,22,01,249,,30,03,166,,44,08,326,35*68
$GBGSV,5,5,19,02,08,105,,58,00,131,,60,09,110,*5C
$GPGGA,014552.00,,,,,0,00,,,M,,M,,*4F
$PTNL,GGK,014552.00,010125,4742.4464181,N,01617.9730928,E,1,25,1.3,EHT668.5137,M*40
$GPGGQ,014552.00,010125,4742.4464181,N,01617.9730928,E,1,25,1.513,625.3026,M*34
$GPGFA,014552.00,5.998,10.654,0.631,0.450,14.398,1.299,,VVV*0E
$GPLLK,014552.00,010125,,M,,M,1,25,1.6,,M*0C
$GNGMP,014552.00,,,,,DAAA,25,0.7,,,,*51
$GPGMP,014552.00,,,,,,07,,,,3.4,123*7A
$GLGMP,014552.00,,,,,,03,,,,,*7B
$GAGMP,014552.00,,,,,,06,,,,,*73
$GBGMP,014552.00,,,,,,09,,,,,*7F
$PSSN,SNC,[0,265570000,2347]*47
$GPZDA,014557.00,01,01,2025,,*61
$GPDTM,W84,,00.0000000,N,00.0000000,E,00.0000000,W84*5F
$GPRMC,014557.00,A,4742.4464169,N,01617.9730984,E,0.0,,010125,5.1,E,D*1F
$GPGLL,4742.4464169,N,01617.9730984,E,014557.00,A,D*6E
$GPGGA,014557.00,4742.4464169,N,01617.9730984,E,2,25,0.7,625.3162,M,43.2111,M,2.1,0123*43
$GNGNS,014557.00,4742.4464169,N,01617.9730984,E,DAAA,25,0.7,625.3162,43.2111,,*5C
$GPGNS,014557.00,,,,,,07,,,,2.1,123*7B
$GLGNS,014557.00,,,,,,03,,,,,*7E
$GAGNS,014557.00,,,,,,06,,,,,*76
$GBGNS,014557.00,,,,,,09,,,,,*7A
$GPLLQ,014557.00,010125,,M,,M,1,25,1.411,,M*11
$GPVTG,,T,,M,0.00,N,0.01,K,D*27
$GPHDT,,T*1B
$GPTHS,,V*0E
$GPROT,,V*08
$PSSN,HRP,014557.00,010125,,,,,,,00,0,,*63
$PTNL,AVR,014557.00,,Yaw,,Tilt,,,,0,,00*35
$GPGSA,A,3,02,03,04,06,17,19,31,,,,,,1.3,0.7,1.1*38
$GPGSA,A,3,69,85,86,,,,,,,,,,1.3,0.7,1.1*3B
$GPGSA,A,3,04,06,09,11,34,36,,,,,,,1.3,0.7,1.1*3E
$GPGSA,A,3,06,09,16,19,20,29,35,39,44,,,,1.3,0.7,1.1*32
$GPGST,014557.00,2.319,0.588,0.429,16.188,0.577,0.443,1.209*6C
$GPGBS,014557.00,3.478,3.365,8.641,03,0.0001,-0.940,0.576*7B
$GPGRS,014557.00,1,0.0,-0.9,0.1,0.3,1.1,1.1,-0.0,,,,,*69
$GPGRS,014557.00,1,-1.5,2.9,-3.0,,,,,,,,,*6E
$GPGRS,014557.00,1,-1.7,0.1,-0.3,-1.5,-0.1,-0.5,,,,,,*65
$GPGRS,014557.00,1,-2.0,-2.2,-1.9,-1.4,-2.7,-4.0,-1.6,5.2,0.7,,,*46
$GPGSV,4,1,15,03,77,028,47,06,16,313,39,28,25,052,29,19,30,297,40*7A
$GPGSV,4,2,15,21,25,151,28,09,30,221,27,31,33,082,39,02,44,158,40*76
$GPGSV,4,3,15,17,35,262,41,01,48,147,,04,58,207,47,36,35,170,41*79
$GPGSV,4,4,15,34,31,208,,49,34,195,36,61,03,257,*44
$GLGSV,2,1,08,85,72,265,49,84,36,169,31,78,14,034,26,86,24,326,45*68
$GLGSV,2,2,08,71,15,242,27,69,43,041,46,70,60,264,31,79,10,083,*66
$GAGSV,3,1,10,36,76,286,39,05,20,217,30,10,20,139,30,18,20,301,*6B
$GAGSV,3,2,10,04,50,058,40,34,24,312,43,11,48,144,40,09,71,186,48*63
$GAGSV,3,3,10,06,74,091,46,27,01,349,*6C
$GBGSV,5,1,19,48,79,280,,23,12,050,,05,24,128,,39,26,045,37*6B
$GBGSV,5,2,19,37,13,099,,29,43,204,37,32,18,065,32,35,43,293,41*6A
$GBGSV,5,3,19,16,32,055,38,06,33,058,38,09,38,074,37,19,51,256,44*60
$GBGSV,5,4,19,20,74,044,49,22,01,249,,30,03,166,,44,08,326,36*6B
$GBGSV,5,5,19,02,08,105,,58,00,131,,60,09,110,*5C
$GPGGA,014557.00,,,,,0,00,,,M,,M,,*4A
$PTNL,GGK,014557.00,010125,4742.4464169,N,01617.9730984,E,1,25,1.3,EHT668.5272,M*47
$GPGGQ,014557.00,010125,4742.4464169,N,01617.9730984,E,1,25,1.411,625.3162,M*33
$GPGFA,014557.00,5.588,9.917,0.588,0.429,16.188,1.209,,VVV*31
$GPLLK,014557.00,010125,,M,,M,1,25,1.6,,M*09
$GNGMP,014557.00,,,,,DAAA,25,0.7,,,,*54
$GPGMP,014557.00,,,,,,07,,,,2.1,123*7B
$GLGMP,014557.00,,,,,,03,,,,,*7E
$GAGMP,014557.00,,,,,,06,,,,,*76
$GBGMP,014557.00,,,,,,09,,,,,*7A
$PSSN,SNC,[0,265575000,2347]*42
$GPZDA,014602.00,01,01,2025,,*62
$GPDTM,W84,,00.0000000,N,00.0000000,E,00.0000000,W84*5F
$GPRMC,014602.00,A,4742.4464181,N,01617.9731213,E,0.0,,010125,5.1,E,D*1E
$GPGLL,4742.4464181,N,01617.9731213,E,014602.00,A,D*6F
$GPGGA,014602.00,4742.4464181,N,01617.9731213,E,2,24,0.8,625.3315,M,43.2111,M,2.0,0123*4F
$GNGNS,014602.00,4742.4464181,N,01617.9731213,E,DAAA,24,0.8,625.3315,43.2111,,*51
$GPGNS,014602.00,,,,,,07,,,,2.0,123*79
$GLGNS,014602.00,,,,,,03,,,,,*7D
$GAGNS,014602.00,,,,,,06,,,,,*75
$GBGNS,014602.00,,,,,,08,,,,,*78
$GPLLQ,014602.00,010125,,M,,M,1,24,2.208,,M*1E
$GPVTG,,T,,M,0.00,N,0.01,K,D*27
$GPHDT,,T*1B
$GPTHS,,V*0E
$GPROT,,V*08
$PSSN,HRP,014602.00,010125,,,,,,,00,0,,*60
$PTNL,AVR,014602.00,,Yaw,,Tilt,,,,0,,00*36
$GPGSA,A,3,02,03,04,06,17,19,31,,,,,,1.4,0.8,1.2*33
$GPGSA,A,3,69,85,86,,,,,,,,,,1.4,0.8,1.2*30
$GPGSA,A,3,04,06,09,11,34,36,,,,,,,1.4,0.8,1.2*35
$GPGSA,A,3,06,09,16,19,20,35,39,44,,,,,1.4,0.8,1.2*32
$GPGST,014602.00,2.607,0.911,0.690,17.781,0.892,0.713,1.889*65
$GPGBS,014602.00,3.337,3.334,8.608,17,0.0001,2.260,0.691*54
$GPGRS,014602.00,1,-0.4,-1.0,-0.3,-0.8,2.3,1.1,-0.5,,,,,*46
$GPGRS,014602.00,1,-1.8,1.7,-4.7,,,,,,,,,*6D
$GPGRS,014602.00,1,-1.7,-0.3,-0.5,-1.6,-0.8,-0.1,,,,,,*41
$GPGRS,014602.00,1,-2.5,-3.7,-2.9,-2.1,-2.5,1.3,5.6,1.0,,,,*6E
$GPGSV,4,1,15,03,77,028,47,06,16,313,38,28,25,052,30,19,30,297,40*73
$GPGSV,4,2,15,21,25,151,28,09,30,221,31,31,34,082,37,02,44,158,40*78
$GPGSV,4,3,15,17,35,262,41,01,48,147,,04,58,207,47,36,35,170,41*79
$GPGSV,4,4,15,34,31,208,,49,34,195,36,61,03,257,*44
$GLGSV,2,1,08,85,72,265,49,84,36,169,30,78,14,034,28,86,25,326,44*67
$GLGSV,2,2,08,71,15,242,28,69,43,041,45,70,60,264,30,79,10,083,*6B
$GAGSV,3,1,10,36,76,286,39,05,20,217,29,10,20,139,30,18,20,301,*63
$GAGSV,3,2,10,04,50,058,40,34,24,312,43,11,48,144,41,09,71,186,48*62
$GAGSV,3,3,10,06,74,091,46,27,01,349,*6C
$GBGSV,5,1,19,48,79,280,,23,12,050,,05,24,128,,39,26,045,37*6B
$GBGSV,5,2,19,37,13,099,,29,43,204,33,32,18,065,32,35,43,293,43*6C
$GBGSV,5,3,19,16,32,055,37,06,33,058,38,09,38,074,37,19,51,256,44*6F
$GBGSV,5,4,19,20,74,044,50,22,01,249,,30,03,166,,44,08,326,36*63
$GBGSV,5,5,19,02,08,105,,58,00,130,,60,09,110,*5D
$GPGGA,014602.00,,,,,0,00,,,M,,M,,*49
$PTNL,GGK,014602.00,010125,4742.4464181,N,01617.9731213,E,1,24,1.4,EHT668.5425,M*44
$GPGGQ,014602.00,010125,4742.4464181,N,01617.9731213,E,1,24,2.208,625.3315,M*3C
$GPGFA,014602.00,8.658,15.493,0.911,0.690,17.781,1.889,,VVV*0D
$GPLLK,014602.00,010125,,M,,M,1,24,1.7,,M*0A
$GNGMP,014602.00,,,,,DAAA,24,0.8,,,,*59
$GPGMP,014602.00,,,,,,07,,,,2.0,123*79
$GLGMP,014602.00,,,,,,03,,,,,*7D
$GAGMP,014602.00,,,,,,06,,,,,*75
$GBGMP,014602.00,,,,,,08,,,,,*78
$PSSN,SNC,[0,265580000,2347]*48
$GPZDA,014607.00,01,01,2025,,*67
$GPDTM,W84,,00.0000000,N,00.0000000,E,00.0000000,W84*5F
$GPRMC,014607.00,A,4742.4464260,N,01617.9731389,E,0.0,,010125,5.1,E,D*15
$GPGLL,4742.4464260,N,01617.9731389,E,014607.00,A,D*64
$GPGGA,014607.00,4742.4464260,N,01617.9731389,E,2,24,0.8,625.3390,M,43.2111,M,2.4,0123*4D
$GNGNS,014607.00,4742.4464260,N,01617.9731389,E,DAAA,24,0.8,625.3390,43.2111,,*57
$GPGNS,014607.00,,,,,,07,,,,2.4,123*78
$GLGNS,014607.00,,,,,,03,,,,,*78
$GAGNS,014607.00,,,,,,06,,,,,*70
$GBGNS,014607.00,,,,,,08,,,,,*7D
$GPLLQ,014607.00,010125,,M,,M,1,24,1.810,,M*1B
$GPVTG,,T,,M,0.01,N,0.01,K,D*26
$GPHDT,,T*1B
$GPTHS,,V*0E
$GPROT,,V*08
$PSSN,HRP,014607.00,010125,,,,,,,00,0,,*65
$PTNL,AVR,014607.00,,Yaw,,Tilt,,,,0,,00*33
$GPGSA,A,3,02,03,04,06,17,19,31,,,,,,1.4,0.8,1.2*33
$GPGSA,A,3,69,85,86,,,,,,,,,,1.4,0.8,1.2*30
$GPGSA,A,3,04,06,09,11,34,36,,,,,,,1.4,0.8,1.2*35
$GPGSA,A,3,06,09,16,19,20,35,39,44,,,,,1.4,0.8,1.2*32
$GPGST,014607.00,2.829,0.749,0.556,16.267,0.735,0.574,1.551*6D
$GPGBS,014607.00,3.443,3.322,8.853,03,0.0001,-1.121,0.611*77
$GPGRS,014607.00,1,1.1,-1.1,-0.3,-1.4,0.7,0.5,-0.2,,,,,*62
$GPGRS,014607.00,1,-3.0,1.3,-5.7,,,,,,,,,*67
$GPGRS,014607.00,1,-0.8,-0.5,0.2,-0.9,-0.4,0.5,,,,,,*4D
$GPGRS,014607.00,1,-1.2,-3.1,-2.6,-2.3,-1.9,4.1,6.4,0.4,,,,*68
$GPGSV,4,1,15,03,77,029,46,06,16,313,37,28,25,052,31,19,30,297,38*72
$GPGSV,4,2,15,21,25,151,30,09,30,221,34,31,34,082,36,02,43,158,41*73
$GPGSV,4,3,15,17,35,262,39,01,48,147,,04,58,207,47,36,35,170,41*76
$GPGSV,4,4,15,34,31,208,,49,34,195,36,61,03,257,*44
$GLGSV,2,1,08,85,72,265,48,84,36,169,27,78,14,034,27,86,25,326,42*69
$GLGSV,2,2,08,71,15,242,30,69,43,042,45,70,60,264,31,79,10,083,*60
$GAGSV,3,1,10,36,76,286,39,05,20,217,28,10,20,139,28,18,20,301,*6B
$GAGSV,3,2,10,04,50,058,40,34,24,312,43,11,48,144,41,09,71,186,48*62
$GAGSV,3,3,10,06,74,091,45,27,01,349,*6F
$GBGSV,5,1,19,48,80,280,,23,12,050,,05,24,128,,39,26,045,38*62
$GBGSV,5,2,19,37,13,099,,29,43,204,28,32,18,065,31,35,43,293,43*65
$GBGSV,5,3,19,16,32,054,37,06,33,058,38,09,38,074,37,19,51,256,45*6F
$GBGSV,5,4,19,20,74,044,51,22,01,249,,30,03,166,,44,08,326,37*63
$GBGSV,5,5,19,02,08,105,,58,00,130,,60,09,110,*5D
$GPGGA,014607.00,,,,,0,00,,,M,,M,,*4C
$PTNL,GGK,014607.00,010125,4742.4464260,N,01617.9731389,E,1,24,1.4,EHT668.5501,M*48
$GPGGQ,014607.00,010125,4742.4464260,N,01617.9731389,E,1,24,1.810,625.3390,M*3A
$GPGFA,014607.00,7.118,12.722,0.749,0.556,16.267,1.551,,VVV*04
$GPLLK,014607.00,010125,,M,,M,1,24,1.7,,M*0F
$GNGMP,014607.00,,,,,DAAA,24,0.8,,,,*5C
$GPGMP,014607.00,,,,,,07,,,,2.4,123*78
$GLGMP,014607.00,,,,,,03,,,,,*78
$GAGMP,014607.00,,,,,,06,,,,,*70
$GBGMP,014607.00,,,,,,08,,,,,*7D
$PSSN,SNC,[0,265585000,2347]*4D
$GPZDA,014612.00,01,01,2025,,*63
$GPDTM,W84,,00.0000000,N,00.0000000,E,00.0000000,W84*5F
$GPRMC,014612.00,A,4742.4464378,N,01617.9731239,E,0.0,,010125,5.1,E,D*13
$GPGLL,4742.4464378,N,01617.9731239,E,014612.00,A,D*62
$GPGGA,014612.00,4742.4464378,N,01617.9731239,E,2,24,0.7,625.3510,M,43.2111,M,1.4,0123*49
$GNGNS,014612.00,4742.4464378,N,01617.9731239,E,DAAA,24,0.7,625.3510,43.2111,,*50
$GPGNS,014612.00,,,,,,07,,,,1.4,123*7F
$GLGNS,014612.00,,,,,,03,,,,,*7C
$GAGNS,014612.00,,,,,,06,,,,,*74
$GBGNS,014612.00,,,,,,08,,,,,*79
$GPLLQ,014612.00,010125,,M,,M,1,24,1.805,,M*1B
$GPVTG,,T,,M,0.01,N,0.01,K,D*26
$GPHDT,,T*1B
$GPTHS,,V*0E
$GPROT,,V*08
$PSSN,HRP,014612.00,010125,,,,,,,00,0,,*61
$PTNL,AVR,014612.00,,Yaw,,Tilt,,,,0,,00*37
$GPGSA,A,3,02,03,04,06,09,19,31,,,,,,1.3,0.7,1.1*37
$GPGSA,A,3,69,85,86,,,,,,,,,,1.3,0.7,1.1*3B
$GPGSA,A,3,04,06,09,11,34,36,,,,,,,1.3,0.7,1.1*3E
$GPGSA,A,3,06,09,16,19,20,35,39,44,,,,,1.3,0.7,1.1*39
$GPGST,014612.00,3.035,0.730,0.605,30.834,0.699,0.640,1.536*6C
$GPGBS,014612.00,2.807,3.707,7.776,02,0.0001,1.332,0.635*50
$GPGRS,014612.00,1,1.3,-0.9,-0.1,-1.0,1.3,0.3,0.6,,,,,*41
$GPGRS,014612.00,1,-2.7,0.6,-6.1,,,,,,,,,*64
$GPGRS,014612.00,1,0.0,-0.4,0.7,-1.0,0.2,0.4,,,,,,*4A
$GPGRS,014612.00,1,-1.1,-3.3,-1.5,-1.9,-1.8,3.9,8.2,-0.8,,,,*43
$GPGSV,4,1,15,03,77,029,46,06,16,313,35,28,25,052,32,19,30,296,38*72
$GPGSV,4,2,15,21,25,151,30,09,30,221,36,31,34,082,36,02,43,158,43*73
$GPGSV,4,3,15,17,35,262,37,01,48,147,,04,58,207,47,36,35,170,41*78
$GPGSV,4,4,15,34,31,208,,49,34,195,36,61,03,257,*44
$GLGSV,2,1,08,85,72,265,48,84,36,169,25,78,14,034,25,86,25,326,42*69
$GLGSV,2,2,08,71,15,242,30,69,43,042,45,70,60,265,33,79,10,083,*63
$GAGSV,3,1,10,36,76,286,38,05,20,217,28,10,20,139,33,18,20,301,*60
$GAGSV,3,2,10,04,50,058,41,34,24,312,43,11,48,144,41,09,71,186,48*63
$GAGSV,3,3,10,06,74,091,45,27,01,349,*6F
$GBGSV,5,1,19,48,80,280,,23,12,050,,05,24,128,,39,26,045,38*62
$GBGSV,5,2,19,37,13,099,,29,43,204,30,32,18,065,30,35,43,293,43*6D
$GBGSV,5,3,19,16,32,054,37,06,33,058,38,09,38,074,37,19,51,256,46*6C
$GBGSV,5,4,19,20,74,044,51,22,01,249,,30,03,166,,44,08,326,37*63
$GBGSV,5,5,19,02,08,105,,58,00,130,,60,09,110,*5D
$GPGGA,014612.00,,,,,0,00,,,M,,M,,*48
$PTNL,GGK,014612.00,010125,4742.4464378,N,01617.9731239,E,1,24,1.3,EHT668.5620,M*49
$GPGGQ,014612.00,010125,4742.4464378,N,01617.9731239,E,1,24,1.805,625.3510,M*36
$GPGFA,014612.00,6.936,12.594,0.730,0.605,30.834,1.536,,VVV*08
$GPLLK,014612.00,010125,,M,,M,1,24,1.5,,M*09
$GNGMP,014612.00,,,,,DAAA,24,0.7,,,,*57
$GPGMP,014612.00,,,,,,07,,,,1.4,123*7F
$GLGMP,014612.00,,,,,,03,,,,,*7C
$GAGMP,014612.00,,,,,,06,,,,,*74
$GBGMP,014612.00,,,,,,08,,,,,*79
$PSSN,SNC,[0,265590000,2347]*49
$GPZDA,014617.00,01,01,2025,,*66
$GPDTM,W84,,00.0000000,N,00.0000000,E,00.0000000,W84*5F
$GPRMC,014617.00,A,4742.4464480,N,01617.9731326,E,0.0,,010125,5.1,E,D*19
$GPGLL,4742.4464480,N,01617.9731326,E,014617.00,A,D*68
$GPGGA,014617.00,4742.4464480,N,01617.9731326,E,2,21,0.8,625.3662,M,43.2111,M,1.8,0123*43
$GNGNS,014617.00,4742.4464480,N,01617.9731326,E,DAAA,21,0.8,625.3662,43.2111,,*56
$GPGNS,014617.00,,,,,,04,,,,1.8,123*75
$GLGNS,014617.00,,,,,,03,,,,,*79
$GAGNS,014617.00,,,,,,06,,,,,*71
$GBGNS,014617.00,,,,,,08,,,,,*7C
$GPLLQ,014617.00,010125,,M,,M,1,21,2.557,,M*12
$GPVTG,,T,,M,0.01,N,0.01,K,D*26
$GPHDT,,T*1B
$GPTHS,,V*0E
$GPROT,,V*08
$PSSN,HRP,014617.00,010125,,,,,,,00,0,,*64
$PTNL,AVR,014617.00,,Yaw,,Tilt,,,,0,,00*32
$GPGSA,A,3,02,03,04,19,,,,,,,,,1.5,0.8,1.3*31
$GPGSA,A,3,69,85,86,,,,,,,,,,1.5,0.8,1.3*30
$GPGSA,A,3,04,06,09,11,34,36,,,,,,,1.5,0.8,1.3*35
$GPGSA,A,3,06,09,16,19,20,35,39,44,,,,,1.5,0.8,1.3*32
$GPGST,014617.00,3.977,1.240,0.581,58.294,0.818,1.099,2.159*6E
$GPGBS,014617.00,4.949,6.588,10.570,19,0.0001,1.463,0.809*62
$GPGRS,014617.00,1,-0.1,-0.8,-0.2,1.5,,,,,,,,*69
$GPGRS,014617.00,1,-1.9,0.1,-4.6,,,,,,,,,*6E
$GPGRS,014617.00,1,-0.1,-0.5,0.3,-1.4,-0.3,-1.4,,,,,,*62
$GPGRS,014617.00,1,-1.6,-3.5,-0.8,-2.2,-2.8,1.7,12.6,-0.8,,,,*73
$GPGSV,4,1,15,03,77,029,47,06,16,313,34,28,25,052,32,19,30,296,39*73
$GPGSV,4,2,15,21,25,151,29,09,30,221,38,31,34,082,34,02,43,158,44*70
$GPGSV,4,3,15,17,35,262,38,01,48,147,,04,58,207,47,36,35,170,41*77
$GPGSV,4,4,15,34,31,208,,49,34,195,36,61,03,257,*44
$GLGSV,2,1,08,85,72,265,48,84,36,169,24,78,14,033,32,86,25,326,43*68
$GLGSV,2,2,08,71,15,242,30,69,43,042,46,70,61,265,34,79,10,083,*66
$GAGSV,3,1,10,36,76,286,37,05,20,217,28,10,20,139,23,18,20,301,*6E
$GAGSV,3,2,10,04,50,058,41,34,24,312,43,11,48,144,41,09,71,186,47*6C
$GAGSV,3,3,10,06,73,091,44,27,01,349,*69
$GBGSV,5,1,19,48,80,280,,23,12,050,,05,24,128,,39,26,045,37*6D
$GBGSV,5,2,19,37,13,099,,29,43,204,33,32,18,065,29,35,43,293,42*67
$GBGSV,5,3,19,16,32,054,38,06,33,058,39,09,38,074,38,19,51,257,47*6D
$GBGSV,5,4,19,20,74,044,51,22,01,249,,30,02,166,,44,08,326,37*62
$GBGSV,5,5,19,02,08,105,,58,00,130,,60,09,110,*5D
$GPGGA,014617.00,,,,,0,00,,,M,,M,,*4D
$PTNL,GGK,014617.00,010125,4742.4464480,N,01617.9731326,E,1,21,1.5,EHT668.5772,M*46
$GPGGQ,014617.00,010125,4742.4464480,N,01617.9731326,E,1,21,2.557,625.3662,M*36
$GPGFA,014617.00,11.794,17.701,1.240,0.581,58.294,2.159,,VVV*3A
$GPLLK,014617.00,010125,,M,,M,1,21,1.8,,M*04
$GNGMP,014617.00,,,,,DAAA,21,0.8,,,,*58
$GPGMP,014617.00,,,,,,04,,,,1.8,123*75
$GLGMP,014617.00,,,,,,03,,,,,*79
$GAGMP,014617.00,,,,,,06,,,,,*71
$GBGMP,014617.00,,,,,,08,,,,,*7C
$PSSN,SNC,[0,265595000,2347]*4C
$GPZDA,014622.00,01,01,2025,,*60
$GPDTM,W84,,00.0000000,N,00.0000000,E,00.0000000,W84*5F
$GPRMC,014622.00,A,4742.4464479,N,01617.9731357,E,0.0,,010125,5.1,E,D*1F
$GPGLL,4742.4464479,N,01617.9731357,E,014622.00,A,D*6E
$GPGGA,014622.00,4742.4464479,N,01617.9731357,E,2,22,0.7,625.3795,M,43.2111,M,2.8,0123*43
$GNGNS,014622.00,4742.4464479,N,01617.9731357,E,DAAA,22,0.7,625.3795,43.2111,,*55
$GPGNS,014622.00,,,,,,04,,,,2.8,123*70
$GLGNS,014622.00,,,,,,04,,,,,*78
$GAGNS,014622.00,,,,,,06,,,,,*77
$GBGNS,014622.00,,,,,,08,,,,,*7A
$GPLLQ,014622.00,010125,,M,,M,1,22,4.164,,M*15
$GPVTG,,T,,M,0.00,N,0.00,K,D*26
$GPHDT,,T*1B
$GPTHS,,V*0E
$GPROT,,V*08
$PSSN,HRP,014622.00,010125,,,,,,,00,0,,*62
$PTNL,AVR,014622.00,,Yaw,,Tilt,,,,0,,00*34
$GPGSA,A,3,02,03,04,17,,,,,,,,,1.3,0.7,1.1*34
$GPGSA,A,3,69,84,85,86,,,,,,,,,1.3,0.7,1.1*37
$GPGSA,A,3,04,06,09,11,34,36,,,,,,,1.3,0.7,1.1*3E
$GPGSA,A,3,06,09,16,19,20,35,39,44,,,,,1.3,0.7,1.1*39
$GPGST,014622.00,5.390,1.653,1.061,41.401,1.425,1.352,3.672*6B
$GPGBS,014622.00,6.155,5.222,15.417,17,0.0001,-2.273,0.701*42
$GPGRS,014622.00,1,0.5,-0.1,0.5,-2.3,,,,,,,,*4D
$GPGRS,014622.00,1,-0.4,-1.5,1.2,-3.7,,,,,,,,*67
$GPGRS,014622.00,1,0.4,0.1,0.8,-0.3,0.3,-0.5,,,,,,*45
$GPGRS,014622.00,1,-0.2,-2.8,0.1,-1.0,-3.1,1.0,19.8,-0.3,,,,*58
$GPGSV,4,1,15,03,77,029,48,06,17,313,32,28,25,051,30,21,25,151,26*73
$GPGSV,4,2,15,19,30,296,40,09,30,221,40,31,34,082,33,02,43,158,44*70
$GPGSV,4,3,15,17,35,262,39,01,48,147,,04,58,207,47,36,35,170,41*76
$GPGSV,4,4,15,34,31,208,,49,34,195,36,61,03,257,*44
$GLGSV,2,1,08,85,72,264,49,84,36,169,24,78,14,033,25,86,25,326,44*69
$GLGSV,2,2,08,71,15,242,32,69,43,042,47,70,61,265,34,79,10,083,*65
$GAGSV,3,1,10,36,76,286,37,05,20,217,30,10,20,139,21,18,20,301,*65
$GAGSV,3,2,10,04,49,058,41,34,24,312,43,11,48,144,42,09,71,186,47*67
$GAGSV,3,3,10,06,73,091,43,27,01,348,*6F
$GBGSV,5,1,19,48,80,281,,23,12,050,,05,24,128,,39,26,045,37*6C
$GBGSV,5,2,19,37,13,099,,29,43,204,35,32,18,065,28,35,43,293,41*63
$GBGSV,5,3,19,16,32,054,38,06,33,058,39,09,38,074,38,19,51,257,47*6D
$GBGSV,5,4,19,20,74,045,51,22,01,249,,30,02,166,,44,08,326,36*62
$GBGSV,5,5,19,02,08,105,,58,00,130,,60,09,110,*5D
$GPGGA,014622.00,,,,,0,00,,,M,,M,,*4B
$PTNL,GGK,014622.00,010125,4742.4464479,N,01617.9731357,E,1,22,1.3,EHT668.5905,M*4B
$GPGGQ,014622.00,010125,4742.4464479,N,01617.9731357,E,1,22,4.164,625.3795,M*38
$GPGFA,014622.00,15.713,30.109,1.653,1.061,41.401,3.672,,VVV*3D
$GPLLK,014622.00,010125,,M,,M,1,22,1.6,,M*0F
$GNGMP,014622.00,,,,,DAAA,22,0.7,,,,*52
$GPGMP,014622.00,,,,,,04,,,,2.8,123*70
$GLGMP,014622.00,,,,,,04,,,,,*78
$GAGMP,014622.00,,,,,,06,,,,,*77
$GBGMP,014622.00,,,,,,08,,,,,*7A
$PSSN,SNC,[0,265600000,2347]*43
$GPZDA,014627.00,01,01,2025,,*65
$GPDTM,W84,,00.0000000,N,00.0000000,E,00.0000000,W84*5F
$GPRMC,014627.00,A,4742.4464539,N,01617.9731254,E,0.0,,010125,5.1,E,D*1D
$GPGLL,4742.4464539,N,01617.9731254,E,014627.00,A,D*6C
$GPGGA,014627.00,4742.4464539,N,01617.9731254,E,2,23,0.7,625.3712,M,43.2111,M,3.8,0123*4E
$GNGNS,014627.00,4742.4464539,N,01617.9731254,E,DAAA,23,0.7,625.3712,43.2111,,*59
$GPGNS,014627.00,,,,,,05,,,,3.8,123*75
$GLGNS,014627.00,,,,,,03,,,,,*7A
$GAGNS,014627.00,,,,,,06,,,,,*72
$GBGNS,014627.00,,,,,,09,,,,,*7E
$GPLLQ,014627.00,010125,,M,,M,1,23,2.631,,M*10
$GPVTG,,T,,M,0.00,N,0.01,K,D*27
$GPHDT,,T*1B
$GPTHS,,V*0E
$GPROT,,V*08
$PSSN,HRP,014627.00,010125,,,,,,,00,0,,*67
$PTNL,AVR,014627.00,,Yaw,,Tilt,,,,0,,00*31
$GPGSA,A,3,02,03,04,06,17,,,,,,,,1.4,0.7,1.2*36
$GPGSA,A,3,69,85,86,,,,,,,,,,1.4,0.7,1.2*3F
$GPGSA,A,3,04,06,09,11,34,36,,,,,,,1.4,0.7,1.2*3A
$GPGSA,A,3,06,09,16,19,20,29,35,39,44,,,,1.4,0.7,1.2*36
$GPGST,014627.00,6.311,1.184,0.827,61.998,0.918,1.115,2.199*6D
$GPGBS,014627.00,4.106,4.822,8.903,39,0.0001,23.964,8.628*61
$GPGRS,014627.00,1,0.3,-0.2,0.8,-2.0,-0.5,,,,,,,*45
$GPGRS,014627.00,1,0.0,2.0,-3.8,,,,,,,,,*42
$GPGRS,014627.00,1,-0.4,-0.3,1.0,0.1,0.8,1.1,,,,,,*47
$GPGRS,014627.00,1,0.4,-2.3,-0.4,-0.6,-3.2,4.5,0.0,24.0,-0.4,,,*7E
$GPGSV,4,1,15,03,77,029,48,06,17,313,29,28,25,051,,19,30,296,38*72
$GPGSV,4,2,15,21,25,151,21,09,30,221,40,31,34,082,33,02,43,158,44*70
$GPGSV,4,3,15,17,35,262,39,01,48,147,,04,58,207,46,36,35,170,41*77
$GPGSV,4,4,15,34,31,208,,49,34,195,36,61,03,257,*44
$GLGSV,2,1,08,85,72,264,49,84,36,169,25,78,14,033,22,86,25,326,45*6E
$GLGSV,2,2,08,71,15,242,33,69,43,042,48,70,61,265,35,79,10,083,*6A
$GAGSV,3,1,10,36,76,286,37,05,20,217,32,10,20,139,23,18,20,301,*65
$GAGSV,3,2,10,04,49,058,41,34,24,312,43,11,48,144,42,09,71,186,47*67
$GAGSV,3,3,10,06,73,090,42,27,01,348,*6F
$GBGSV,5,1,19,48,80,281,,23,12,050,,05,24,128,,39,26,045,37*6C
$GBGSV,5,2,19,37,13,099,,29,43,204,36,32,18,065,26,35,43,293,39*61
$GBGSV,5,3,19,16,32,054,38,06,33,058,39,09,38,074,39,19,51,257,46*6D
$GBGSV,5,4,19,20,74,045,50,22,01,249,,30,02,166,,44,08,326,35*60
$GBGSV,5,5,19,02,08,105,,58,00,130,,60,09,110,*5D
$GPGGA,014627.00,,,,,0,00,,,M,,M,,*4E
$PTNL,GGK,014627.00,010125,4742.4464539,N,01617.9731254,E,1,23,1.4,EHT668.5822,M*4B
$GPGGQ,014627.00,010125,4742.4464539,N,01617.9731254,E,1,23,2.631,625.3712,M*35
$GPGFA,014627.00,11.254,18.034,1.184,0.827,61.998,2.199,,VVV*35
$GPLLK,014627.00,010125,,M,,M,1,23,1.6,,M*0B
$GNGMP,014627.00,,,,,DAAA,23,0.7,,,,*56
$GPGMP,014627.00,,,,,,05,,,,3.8,123*75
$GLGMP,014627.00,,,,,,03,,,,,*7A
$GAGMP,014627.00,,,,,,06,,,,,*72
$GBGMP,014627.00,,,,,,09,,,,,*7E
$PSSN,SNC,[0,265605000,2347]*46
$GPZDA,014632.00,01,01,2025,,*61
$GPDTM,W84,,00.0000000,N,00.0000000,E,00.0000000,W84*5F
$GPRMC,014632.00,A,4742.4464572,N,01617.9731256,E,0.0,,010125,5.1,E,D*14
$GPGLL,4742.4464572,N,01617.9731256,E,014632.00,A,D*65
$GPGGA,014632.00,4742.4464572,N,01617.9731256,E,2,21,0.8,625.3731,M,43.2111,M,1.8,0123*49
$GNGNS,014632.00,4742.4464572,N,01617.9731256,E,DAAA,21,0.8,625.3731,43.2111,,*5C
$GPGNS,014632.00,,,,,,04,,,,1.8,123*72
$GLGNS,014632.00,,,,,,03,,,,,*7E
$GAGNS,014632.00,,,,,,06,,,,,*76
$GBGNS,014632.00,,,,,,08,,,,,*7B
$GPLLQ,014632.00,010125,,M,,M,1,21,3.217,,M*17
$GPVTG,,T,,M,0.00,N,0.01,K,D*27
$GPHDT,,T*1B
$GPTHS,,V*0E
$GPROT,,V*08
$PSSN,HRP,014632.00,010125,,,,,,,00,0,,*63
$PTNL,AVR,014632.00,,Yaw,,Tilt,,,,0,,00*35
$GPGSA,A,3,02,03,04,17,,,,,,,,,1.5,0.8,1.2*3E
$GPGSA,A,3,69,85,86,,,,,,,,,,1.5,0.8,1.2*31
$GPGSA,A,3,04,06,09,11,34,36,,,,,,,1.5,0.8,1.2*34
$GPGSA,A,3,06,09,16,19,20,35,39,44,,,,,1.5,0.8,1.2*33
$GPGST,014632.00,6.565,1.301,0.784,38.756,1.127,1.018,2.837*61
$GPGBS,014632.00,6.119,5.047,15.128,39,0.0001,23.687,8.628*5C
