$GPZDA,224442.00,01,01,2025,,*65
$GPDTM,W84,,00.0000000,N,00.0000000,E,00.0000000,W84*5F
$GPRMC,224442.00,A,4742.4457708,N,01617.9732147,E,0.0,,010125,5.1,E,D*1F
$GPGLL,4742.4457708,N,01617.9732147,E,224442.00,A,D*6E
$GPGGA,224442.00,4742.4457708,N,01617.9732147,E,2,16,0.8,624.1059,M,43.2110,M,3.2,0123*45
$GNGNS,224442.00,4742.4457708,N,01617.9732147,E,DAAA,16,0.8,624.1059,43.2110,,*58
$GPGNS,224442.00,,,,,,05,,,,3.2,123*7F
$GLGNS,224442.00,,,,,,02,,,,,*7B
$GAGNS,224442.00,,,,,,06,,,,,*72
$GBGNS,224442.00,,,,,,03,,,,,*74
$GPLLQ,224442.00,010125,,M,,M,1,16,3.470,,M*10
$GPVTG,,T,,M,0.00,N,0.01,K,D*27
$GPHDT,,T*1B
$GPTHS,,V*0E
$GPROT,,V*08
$PSSN,HRP,224442.00,010125,,,,,,,00,0,,*67
$PTNL,AVR,224442.00,,Yaw,,Tilt,,,,0,,00*31
$GPGSA,A,3,02,08,10,21,32,,,,,,,,1.5,0.8,1.3*35
$GPGSA,A,3,69,85,,,,,,,,,,,1.5,0.8,1.3*3E
$GPGSA,A,3,07,08,26,29,31,33,,,,,,,1.5,0.8,1.3*3E
$GPGSA,A,3,27,30,33,,,,,,,,,,1.5,0.8,1.3*3A
$GPGST,224442.00,2.888,0.952,0.836,16.551,0.944,0.846,3.230*6F
$GPGBS,224442.00,6.077,4.600,18.059,32,0.0001,1.182,0.677*64
$GPGRS,224442.00,1,0.5,-0.1,-0.9,-0.6,1.2,,,,,,,*43
$GPGRS,224442.00,1,-3.9,-0.3,,,,,,,,,,*41
$GPGRS,224442.00,1,1.2,5.9,-1.0,-1.0,-3.2,-0.6,,,,,,*40
$GPGRS,224442.00,1,-1.3,0.6,2.5,,,,,,,,,*48
$GPGSV,4,1,16,21,76,316,39,03,20,236,32,22,10,327,,10,34,055,41*74
$GPGSV,4,2,16,14,16,307,34,27,27,164,33,32,48,091,47,08,55,193,52*78
$GPGSV,4,3,16,01,49,292,,02,54,299,44,24,01,021,,17,02,321,26*79
$GPGSV,4,4,16,36,35,170,42,34,31,208,,49,34,195,35,61,03,257,*77
$GLGSV,3,1,09,69,72,095,46,70,26,195,31,83,11,118,,76,13,329,29*65
$GLGSV,3,2,09,68,29,034,29,85,43,319,48,84,70,076,27,75,07,274,34*65
$GLGSV,3,3,09,77,02,011,*5E
$GAGSV,3,1,10,26,72,066,48,24,11,328,28,23,15,226,,14,23,158,*68
$GAGSV,3,2,10,13,21,096,25,29,22,167,40,08,24,045,36,31,26,278,39*65
$GAGSV,3,3,10,07,46,106,40,33,50,295,40*60
$GBGSV,5,1,18,27,85,236,49,05,24,128,,14,15,043,31,60,10,109,*67
$GBGSV,5,2,18,32,26,206,34,06,10,083,,30,35,305,47,13,13,059,*63
$GBGSV,5,3,18,16,11,079,,28,43,132,33,39,15,070,,33,39,052,38*6F
$GBGSV,5,4,18,41,72,144,46,57,68,280,,09,06,095,,45,01,335,*60
$GBGSV,5,5,18,02,09,105,,08,04,057,*63
$GPGGA,224442.00,,,,,0,00,,,M,,M,,*4E
$PTNL,GGK,224442.00,010125,4742.4457708,N,01617.9732147,E,1,16,1.5,EHT667.3169,M*41
$GPGGQ,224442.00,010125,4742.4457708,N,01617.9732147,E,1,16,3.470,624.1059,M*3C
$GPGFA,224442.00,9.055,26.489,0.952,0.836,16.551,3.230,,VVV*0A
$GPLLK,224442.00,010125,,M,,M,1,16,1.8,,M*03
$GNGMP,224442.00,,,,,DAAA,16,0.8,,,,*5F
$GPGMP,224442.00,,,,,,05,,,,3.2,123*7F
$GLGMP,224442.00,,,,,,02,,,,,*7B
$GAGMP,224442.00,,,,,,06,,,,,*72
$GBGMP,224442.00,,,,,,03,,,,,*74
$PSSN,SNC,[0,341100000,2347]*43
$GPZDA,224447.00,01,01,2025,,*60
$GPDTM,W84,,00.0000000,N,00.0000000,E,00.0000000,W84*5F
$GPRMC,224447.00,A,4742.4457711,N,01617.9732137,E,0.0,,010125,5.1,E,D*15
$GPGLL,4742.4457711,N,01617.9732137,E,224447.00,A,D*64
$GPGGA,224447.00,4742.4457711,N,01617.9732137,E,2,17,0.8,624.1020,M,43.2110,M,1.7,0123*47
$GNGNS,224447.00,4742.4457711,N,01617.9732137,E,DAAA,17,0.8,624.1020,43.2110,,*5D
$GPGNS,224447.00,,,,,,06,,,,1.7,123*7E
$GLGNS,224447.00,,,,,,02,,,,,*7E
$GAGNS,224447.00,,,,,,05,,,,,*74
$GBGNS,224447.00,,,,,,04,,,,,*76
$GPLLQ,224447.00,010125,,M,,M,1,17,2.027,,M*13
$GPVTG,,T,,M,0.01,N,0.01,K,D*26
$GPHDT,,T*1B
$GPTHS,,V*0E
$GPROT,,V*08
$PSSN,HRP,224447.00,010125,,,,,,,00,0,,*62
$PTNL,AVR,224447.00,,Yaw,,Tilt,,,,0,,00*34
$GPGSA,A,3,02,08,10,14,21,32,,,,,,,1.5,0.8,1.2*31
$GPGSA,A,3,69,85,,,,,,,,,,,1.5,0.8,1.2*3F
$GPGSA,A,3,07,26,29,31,33,,,,,,,,1.5,0.8,1.2*37
$GPGSA,A,3,27,28,30,33,,,,,,,,,1.5,0.8,1.2*31
$GPGST,224447.00,5.243,0.918,0.583,8.017,0.913,0.591,1.710*55
$GPGBS,224447.00,5.802,2.603,8.631,28,0.0001,14.946,8.549*6D
$GPGRS,224447.00,1,0.8,-0.6,-0.7,-0.3,0.1,0.7,,,,,,*6C
$GPGRS,224447.00,1,-3.8,0.1,,,,,,,,,,*6A
$GPGRS,224447.00,1,0.4,-1.4,-1.6,-4.1,-0.6,,,,,,,*66
$GPGRS,224447.00,1,-1.9,14.9,-0.3,3.1,,,,,,,,*78
$GPGSV,4,1,16,21,76,316,39,03,20,236,32,22,10,327,,10,34,055,42*77
$GPGSV,4,2,16,14,16,307,36,27,27,164,32,32,48,091,47,08,55,193,52*7B
$GPGSV,4,3,16,01,49,292,,02,54,299,45,24,01,021,,17,02,321,24*7A
$GPGSV,4,4,16,36,35,170,41,34,31,208,,49,34,195,35,61,03,257,*74
$GLGSV,3,1,09,69,72,095,46,70,26,195,33,83,11,118,,76,13,329,*6C
$GLGSV,3,2,09,68,29,034,34,85,43,319,49,84,70,076,29,75,07,274,33*61
$GLGSV,3,3,09,77,02,011,*5E
$GAGSV,3,1,10,26,72,066,48,24,11,328,29,23,15,226,,14,23,158,*69
$GAGSV,3,2,10,13,21,096,29,29,22,167,40,08,24,045,32,31,26,278,39*6D
$GAGSV,3,3,10,07,46,106,40,33,50,295,39*6E
$GBGSV,5,1,18,27,85,235,49,05,24,128,,14,15,043,28,60,10,109,*6C
$GBGSV,5,2,18,32,26,206,34,06,10,083,,30,35,305,46,13,13,059,*62
$GBGSV,5,3,18,16,11,079,,28,43,132,35,39,15,070,,33,39,052,40*66
$GBGSV,5,4,18,41,72,144,26,57,68,280,,09,06,095,,45,01,335,*66
$GBGSV,5,5,18,02,09,105,,08,04,057,*63
$GPGGA,224447.00,,,,,0,00,,,M,,M,,*4B
$PTNL,GGK,224447.00,010125,4742.4457711,N,01617.9732137,E,1,17,1.5,EHT667.3131,M*47
$GPGGQ,224447.00,010125,4742.4457711,N,01617.9732137,E,1,17,2.027,624.1020,M*3E
$GPGFA,224447.00,8.728,14.025,0.918,0.583,8.017,1.710,,VVV*30
$GPLLK,224447.00,010125,,M,,M,1,17,1.7,,M*08
$GNGMP,224447.00,,,,,DAAA,17,0.8,,,,*5B
$GPGMP,224447.00,,,,,,06,,,,1.7,123*7E
$GLGMP,224447.00,,,,,,02,,,,,*7E
$GAGMP,224447.00,,,,,,05,,,,,*74
$GBGMP,224447.00,,,,,,04,,,,,*76
$PSSN,SNC,[0,341105000,2347]*46
$GPZDA,224452.00,01,01,2025,,*64
$GPDTM,W84,,00.0000000,N,00.0000000,E,00.0000000,W84*5F
$GPRMC,224452.00,A,4742.4457681,N,01617.9732191,E,0.0,,010125,5.1,E,D*15
$GPGLL,4742.4457681,N,01617.9732191,E,224452.00,A,D*64
$GPGGA,224452.00,4742.4457681,N,01617.9732191,E,2,17,0.8,624.0834,M,43.2110,M,2.0,0123*4F
$GNGNS,224452.00,4742.4457681,N,01617.9732191,E,DAAA,17,0.8,624.0834,43.2110,,*51
$GPGNS,224452.00,,,,,,06,,,,2.0,123*7E
$GLGNS,224452.00,,,,,,03,,,,,*7B
$GAGNS,224452.00,,,,,,05,,,,,*70
$GBGNS,224452.00,,,,,,03,,,,,*75
$GPLLQ,224452.00,010125,,M,,M,1,17,2.496,,M*19
$GPVTG,,T,,M,0.00,N,0.01,K,D*27
$GPHDT,,T*1B
$GPTHS,,V*0E
$GPROT,,V*08
$PSSN,HRP,224452.00,010125,,,,,,,00,0,,*66
$PTNL,AVR,224452.00,,Yaw,,Tilt,,,,0,,00*30
$GPGSA,A,3,02,08,10,14,21,32,,,,,,,1.4,0.8,1.1*33
$GPGSA,A,3,69,76,85,,,,,,,,,,1.4,0.8,1.1*3C
$GPGSA,A,3,07,26,29,31,33,,,,,,,,1.4,0.8,1.1*35
$GPGSA,A,3,27,30,33,,,,,,,,,,1.4,0.8,1.1*39
$GPGST,224452.00,4.294,1.132,0.726,7.841,1.126,0.736,2.102*54
$GPGBS,224452.00,5.922,2.631,8.272,10,0.0001,-1.519,0.820*76
$GPGRS,224452.00,1,0.6,-0.8,-1.5,-0.5,0.6,1.0,,,,,,*6C
$GPGRS,224452.00,1,-3.4,-11.6,-0.6,,,,,,,,,*7D
$GPGRS,224452.00,1,0.3,-1.4,-1.8,-3.8,0.3,,,,,,,*4D
$GPGRS,224452.00,1,-1.6,-0.7,3.2,,,,,,,,,*66
$GPGSV,4,1,16,21,76,316,40,03,20,236,36,22,10,327,,10,34,055,44*7B
$GPGSV,4,2,16,14,16,307,36,27,27,164,32,32,48,091,47,08,55,193,51*78
$GPGSV,4,3,16,01,49,292,,02,54,299,46,24,01,021,,17,02,321,28*75
$GPGSV,4,4,16,36,35,170,40,34,31,208,,49,34,195,36,61,03,257,*76
$GLGSV,3,1,09,69,72,095,47,70,26,195,33,83,11,118,,76,13,329,36*68
$GLGSV,3,2,09,68,29,034,34,85,43,319,49,84,69,076,30,75,07,274,32*60
$GLGSV,3,3,09,77,02,011,*5E
$GAGSV,3,1,10,26,72,066,47,24,11,328,30,23,15,226,,14,23,158,*6E
$GAGSV,3,2,10,13,21,096,25,29,22,167,39,08,24,045,29,31,26,278,39*65
$GAGSV,3,3,10,07,46,106,40,33,50,295,40*60
$GBGSV,5,1,18,27,85,235,48,05,24,128,,14,14,043,26,60,10,109,*62
$GBGSV,5,2,18,32,26,206,35,06,10,083,,30,35,305,46,13,13,059,*63
$GBGSV,5,3,18,16,11,079,,28,43,133,31,39,15,070,,33,39,052,42*61
$GBGSV,5,4,18,41,72,144,23,57,68,280,,09,06,095,,45,01,335,*63
$GBGSV,5,5,18,02,09,105,,08,04,057,*63
$GPGGA,224452.00,,,,,0,00,,,M,,M,,*4F
$PTNL,GGK,224452.00,010125,4742.4457681,N,01617.9732191,E,1,17,1.4,EHT667.2945,M*4C
$GPGGQ,224452.00,010125,4742.4457681,N,01617.9732191,E,1,17,2.496,624.0834,M*3C
$GPGFA,224452.00,10.764,17.240,1.132,0.726,7.841,2.102,,VVV*09
$GPLLK,224452.00,010125,,M,,M,1,17,1.6,,M*0D
$GNGMP,224452.00,,,,,DAAA,17,0.8,,,,*5F
$GPGMP,224452.00,,,,,,06,,,,2.0,123*7E
$GLGMP,224452.00,,,,,,03,,,,,*7B
$GAGMP,224452.00,,,,,,05,,,,,*70
$GBGMP,224452.00,,,,,,03,,,,,*75
$PSSN,SNC,[0,341110000,2347]*42
$GPZDA,224457.00,01,01,2025,,*61
$GPDTM,W84,,00.0000000,N,00.0000000,E,00.0000000,W84*5F
$GPRMC,224457.00,A,4742.4457686,N,01617.9732196,E,0.0,,010125,5.1,E,D*10
$GPGLL,4742.4457686,N,01617.9732196,E,224457.00,A,D*61
$GPGGA,224457.00,4742.4457686,N,01617.9732196,E,2,19,0.7,624.0671,M,43.2110,M,2.5,0123*41
$GNGNS,224457.00,4742.4457686,N,01617.9732196,E,DAAA,19,0.7,624.0671,43.2110,,*5A
$GPGNS,224457.00,,,,,,06,,,,2.5,123*7E
$GLGNS,224457.00,,,,,,04,,,,,*79
$GAGNS,224457.00,,,,,,05,,,,,*75
$GBGNS,224457.00,,,,,,04,,,,,*77
$GPLLQ,224457.00,010125,,M,,M,1,19,2.846,,M*13
$GPVTG,,T,,M,0.01,N,0.01,K,D*26
$GPHDT,,T*1B
$GPTHS,,V*0E
$GPROT,,V*08
$PSSN,HRP,224457.00,010125,,,,,,,00,0,,*63
$PTNL,AVR,224457.00,,Yaw,,Tilt,,,,0,,00*35
$GPGSA,A,3,02,08,10,14,21,32,,,,,,,1.3,0.7,1.1*3B
$GPGSA,A,3,68,69,76,85,,,,,,,,,1.3,0.7,1.1*3A
$GPGSA,A,3,07,26,29,31,33,,,,,,,,1.3,0.7,1.1*3D
$GPGSA,A,3,27,28,30,33,,,,,,,,,1.3,0.7,1.1*3B
$GPGST,224457.00,7.673,1.307,0.839,8.164,1.300,0.851,2.385*5E
$GPGBS,224457.00,5.988,2.659,8.356,28,0.0001,24.607,8.549*6D
$GPGRS,224457.00,1,0.3,-0.8,-2.0,-0.2,0.8,1.0,,,,,,*63
$GPGRS,224457.00,1,5.5,-2.1,-4.2,-1.6,,,,,,,,*63
$GPGRS,224457.00,1,-0.5,-1.0,-1.8,-3.9,-0.1,,,,,,,*49
$GPGRS,224457.00,1,-1.8,24.6,-0.1,4.1,,,,,,,,*71
$GPGSV,4,1,16,21,76,316,41,03,20,236,30,22,10,327,,10,34,055,45*7D
$GPGSV,4,2,16,14,16,307,38,27,27,164,34,32,48,091,47,08,55,193,51*70
$GPGSV,4,3,16,01,49,292,,02,54,299,48,24,01,021,,17,02,321,24*77
$GPGSV,4,4,16,36,35,170,39,34,31,208,,49,34,195,36,61,03,257,*78
$GLGSV,3,1,09,69,72,095,47,70,26,195,33,83,10,118,,76,13,329,40*68
$GLGSV,3,2,09,68,29,034,39,85,43,319,50,84,69,076,32,75,07,274,*66
$GLGSV,3,3,09,77,02,011,*5E
$GAGSV,3,1,10,26,72,066,47,24,11,328,27,23,15,226,,14,23,158,*68
$GAGSV,3,2,10,13,21,096,27,29,22,167,39,08,24,045,26,31,26,278,39*68
$GAGSV,3,3,10,07,46,106,41,33,50,295,39*6F
$GBGSV,5,1,18,27,85,235,49,05,24,128,,14,14,043,23,60,10,109,*66
$GBGSV,5,2,18,32,26,206,35,06,10,083,,30,35,305,45,13,13,059,*60
$GBGSV,5,3,18,16,11,079,,28,43,133,34,39,15,070,,33,39,052,41*67
$GBGSV,5,4,18,41,72,144,27,57,69,280,,09,06,095,,45,01,335,*66
$GBGSV,5,5,18,02,09,105,,08,04,057,*63
$GPGGA,224457.00,,,,,0,00,,,M,,M,,*4A
$PTNL,GGK,224457.00,010125,4742.4457686,N,01617.9732196,E,1,19,1.3,EHT667.2782,M*45
$GPGGQ,224457.00,010125,4742.4457686,N,01617.9732196,E,1,19,2.846,624.0671,M*39
$GPGFA,224457.00,12.430,19.558,1.307,0.839,8.164,2.385,,VVV*05
$GPLLK,224457.00,010125,,M,,M,1,19,1.5,,M*05
$GNGMP,224457.00,,,,,DAAA,19,0.7,,,,*5B
$GPGMP,224457.00,,,,,,06,,,,2.5,123*7E
$GLGMP,224457.00,,,,,,04,,,,,*79
$GAGMP,224457.00,,,,,,05,,,,,*75
$GBGMP,224457.00,,,,,,04,,,,,*77
$PSSN,SNC,[0,341115000,2347]*47
$GPZDA,224502.00,01,01,2025,,*60
$GPDTM,W84,,00.0000000,N,00.0000000,E,00.0000000,W84*5F
$GPRMC,224502.00,A,4742.4457687,N,01617.9732240,E,0.0,,010125,5.1,E,D*18
$GPGLL,4742.4457687,N,01617.9732240,E,224502.00,A,D*69
$GPGGA,224502.00,4742.4457687,N,01617.9732240,E,2,18,0.7,624.0555,M,43.2110,M,3.5,0123*4C
$GNGNS,224502.00,4742.4457687,N,01617.9732240,E,DAAA,18,0.7,624.0555,43.2110,,*56
$GPGNS,224502.00,,,,,,06,,,,3.5,123*7E
$GLGNS,224502.00,,,,,,04,,,,,*78
$GAGNS,224502.00,,,,,,05,,,,,*74
$GBGNS,224502.00,,,,,,03,,,,,*71
$GPLLQ,224502.00,010125,,M,,M,1,18,2.596,,M*13
$GPVTG,,T,,M,0.01,N,0.01,K,D*26
$GPHDT,,T*1B
$GPTHS,,V*0E
$GPROT,,V*08
$PSSN,HRP,224502.00,010125,,,,,,,00,0,,*62
$PTNL,AVR,224502.00,,Yaw,,Tilt,,,,0,,00*34
$GPGSA,A,3,02,08,10,14,21,32,,,,,,,1.3,0.7,1.1*3B
$GPGSA,A,3,68,69,76,85,,,,,,,,,1.3,0.7,1.1*3A
$GPGSA,A,3,07,26,29,31,33,,,,,,,,1.3,0.7,1.1*3D
$GPGSA,A,3,27,30,33,,,,,,,,,,1.3,0.7,1.1*31
$GPGST,224502.00,4.272,1.201,0.755,7.910,1.194,0.766,2.174*57
$GPGBS,224502.00,6.154,2.703,8.515,10,0.0001,-2.056,0.849*7C
$GPGRS,224502.00,1,0.4,-0.8,-2.1,0.2,0.8,0.9,,,,,,*41
$GPGRS,224502.00,1,11.6,-2.9,-4.4,-2.0,,,,,,,,*5F
$GPGRS,224502.00,1,-0.5,-1.2,-1.8,-4.1,-1.5,,,,,,,*40
$GPGRS,224502.00,1,-1.7,-0.0,0.1,,,,,,,,,*64
$GPGSV,4,1,16,21,77,316,42,03,20,236,31,22,10,327,,10,34,055,45*7E
$GPGSV,4,2,16,14,16,307,38,27,27,164,34,32,48,091,45,08,55,193,51*72
$GPGSV,4,3,16,01,49,292,,02,54,299,48,24,01,021,,17,02,321,27*74
$GPGSV,4,4,16,36,35,170,39,34,31,208,,49,34,195,38,61,03,257,*76
$GLGSV,3,1,09,69,72,094,48,70,26,195,34,83,10,118,,76,13,329,40*61
$GLGSV,3,2,09,68,29,034,37,85,43,319,49,84,69,076,33,75,07,274,*61
$GLGSV,3,3,09,77,02,011,*5E
$GAGSV,3,1,10,26,72,066,47,24,11,328,27,23,15,226,,14,23,158,*68
$GAGSV,3,2,10,13,21,096,21,29,22,167,39,08,24,045,29,31,26,278,39*61
$GAGSV,3,3,10,07,46,106,42,33,50,295,38*6D
$GBGSV,5,1,18,27,85,234,50,05,24,128,,14,14,043,27,60,10,109,*6B
$GBGSV,5,2,18,32,26,206,34,06,10,083,,30,35,305,45,13,13,059,*61
$GBGSV,5,3,18,16,11,079,,28,43,133,28,39,15,070,,33,39,052,42*69
$GBGSV,5,4,18,41,72,144,31,57,69,280,,09,06,095,,45,01,335,*61
$GBGSV,5,5,18,02,09,105,,08,04,057,*63
$GPGGA,224502.00,,,,,0,00,,,M,,M,,*4B
$PTNL,GGK,224502.00,010125,4742.4457687,N,01617.9732240,E,1,18,1.3,EHT667.2665,M*44
$GPGGQ,224502.00,010125,4742.4457687,N,01617.9732240,E,1,18,2.596,624.0555,M*35
$GPGFA,224502.00,11.418,17.825,1.201,0.755,7.910,2.174,,VVV*0E
$GPLLK,224502.00,010125,,M,,M,1,18,1.5,,M*05
$GNGMP,224502.00,,,,,DAAA,18,0.7,,,,*5B
$GPGMP,224502.00,,,,,,06,,,,3.5,123*7E
$GLGMP,224502.00,,,,,,04,,,,,*78
$GAGMP,224502.00,,,,,,05,,,,,*74
$GBGMP,224502.00,,,,,,03,,,,,*71
$PSSN,SNC,[0,341120000,2347]*41
$GPZDA,224507.00,01,01,2025,,*65
$GPDTM,W84,,00.0000000,N,00.0000000,E,00.0000000,W84*5F
$GPRMC,224507.00,A,4742.4457666,N,01617.9732253,E,0.0,,010125,5.1,E,D*10
$GPGLL,4742.4457666,N,01617.9732253,E,224507.00,A,D*61
$GPGGA,224507.00,4742.4457666,N,01617.9732253,E,2,18,0.7,624.0259,M,43.2110,M,1.8,0123*40
$GNGNS,224507.00,4742.4457666,N,01617.9732253,E,DAAA,18,0.7,624.0259,43.2110,,*55
$GPGNS,224507.00,,,,,,06,,,,1.8,123*74
$GLGNS,224507.00,,,,,,04,,,,,*7D
$GAGNS,224507.00,,,,,,05,,,,,*71
$GBGNS,224507.00,,,,,,03,,,,,*74
$GPLLQ,224507.00,010125,,M,,M,1,18,2.617,,M*1C
$GPVTG,,T,,M,0.01,N,0.01,K,D*26
$GPHDT,,T*1B
$GPTHS,,V*0E
$GPROT,,V*08
$PSSN,HRP,224507.00,010125,,,,,,,00,0,,*67
$PTNL,AVR,224507.00,,Yaw,,Tilt,,,,0,,00*31
$GPGSA,A,3,02,08,10,14,21,32,,,,,,,1.3,0.7,1.1*3B
$GPGSA,A,3,68,69,76,85,,,,,,,,,1.3,0.7,1.1*3A
$GPGSA,A,3,07,26,29,31,33,,,,,,,,1.3,0.7,1.1*3D
$GPGSA,A,3,27,30,33,,,,,,,,,,1.3,0.7,1.1*31
$GPGST,224507.00,5.011,1.196,0.760,7.677,1.190,0.770,2.200*52
$GPGBS,224507.00,5.824,2.588,8.409,68,0.0001,14.076,6.172*69
$GPGRS,224507.00,1,0.3,-0.6,-1.5,-1.4,0.8,1.1,,,,,,*69
$GPGRS,224507.00,1,14.1,-2.8,-6.8,-1.8,,,,,,,,*5C
$GPGRS,224507.00,1,-0.2,-0.7,-1.3,-2.5,-1.1,,,,,,,*4B
$GPGRS,224507.00,1,-1.2,0.7,-1.5,,,,,,,,,*66
$GPGSV,4,1,16,21,77,316,42,03,20,236,36,22,10,327,,10,34,055,44*78
$GPGSV,4,2,16,14,16,307,37,27,27,164,33,32,48,091,45,08,55,193,50*7B
$GPGSV,4,3,16,01,49,292,,02,54,299,49,24,01,021,,17,02,321,*70
$GPGSV,4,4,16,36,35,170,40,34,31,208,,49,34,195,37,61,03,257,*77
$GLGSV,3,1,09,69,72,094,48,70,26,195,33,83,10,118,,76,13,329,39*68
$GLGSV,3,2,09,68,29,034,37,85,43,319,49,84,69,076,30,75,07,274,28*68
$GLGSV,3,3,09,77,02,011,*5E
$GAGSV,3,1,10,26,72,066,47,24,11,328,26,23,15,226,,14,23,158,*69
$GAGSV,3,2,10,13,21,096,28,29,22,167,39,08,24,045,31,31,26,278,39*61
$GAGSV,3,3,10,07,46,106,42,33,50,295,40*62
$GBGSV,5,1,18,27,85,234,50,05,24,128,,14,14,043,29,60,10,109,*65
$GBGSV,5,2,18,32,26,206,26,06,10,083,,30,35,305,44,13,13,059,*63
$GBGSV,5,3,18,16,11,079,,28,42,133,35,39,15,070,,33,39,052,42*64
$GBGSV,5,4,18,41,72,143,34,57,69,280,,09,06,095,,45,01,335,*63
$GBGSV,5,5,18,02,09,105,,08,04,057,*63
$GPGGA,224507.00,,,,,0,00,,,M,,M,,*4E
$PTNL,GGK,224507.00,010125,4742.4457666,N,01617.9732253,E,1,18,1.3,EHT667.2370,M*4D
$GPGGQ,224507.00,010125,4742.4457666,N,01617.9732253,E,1,18,2.617,624.0259,M*3C
$GPGFA,224507.00,11.373,18.042,1.196,0.760,7.677,2.200,,VVV*02
$GPLLK,224507.00,010125,,M,,M,1,18,1.5,,M*00
$GNGMP,224507.00,,,,,DAAA,18,0.7,,,,*5E
$GPGMP,224507.00,,,,,,06,,,,1.8,123*74
$GLGMP,224507.00,,,,,,04,,,,,*7D
$GAGMP,224507.00,,,,,,05,,,,,*71
$GBGMP,224507.00,,,,,,03,,,,,*74
$PSSN,SNC,[0,341125000,2347]*44
$GPZDA,224512.00,01,01,2025,,*61
$GPDTM,W84,,00.0000000,N,00.0000000,E,00.0000000,W84*5F
$GPRMC,224512.00,A,4742.4457747,N,01617.9732288,E,0.0,,010125,5.1,E,D*10
$GPGLL,4742.4457747,N,01617.9732288,E,224512.00,A,D*61
$GPGGA,224512.00,4742.4457747,N,01617.9732288,E,2,20,0.7,624.0180,M,43.2110,M,2.2,0123*45
$GNGNS,224512.00,4742.4457747,N,01617.9732288,E,DAAA,20,0.7,624.0180,43.2110,,*59
$GPGNS,224512.00,,,,,,06,,,,2.2,123*79
$GLGNS,224512.00,,,,,,04,,,,,*79
$GAGNS,224512.00,,,,,,05,,,,,*75
$GBGNS,224512.00,,,,,,05,,,,,*76
$GPLLQ,224512.00,010125,,M,,M,1,20,2.805,,M*1E
$GPVTG,,T,,M,0.00,N,0.01,K,D*27
$GPHDT,,T*1B
$GPTHS,,V*0E
$GPROT,,V*08
$PSSN,HRP,224512.00,010125,,,,,,,00,0,,*63
$PTNL,AVR,224512.00,,Yaw,,Tilt,,,,0,,00*35
$GPGSA,A,3,02,08,10,14,21,32,,,,,,,1.3,0.7,1.1*3B
$GPGSA,A,3,68,69,76,85,,,,,,,,,1.3,0.7,1.1*3A
$GPGSA,A,3,07,26,29,31,33,,,,,,,,1.3,0.7,1.1*3D
$GPGSA,A,3,27,28,30,33,41,,,,,,,,1.3,0.7,1.1*3E
$GPGST,224512.00,6.903,1.269,0.825,8.889,1.260,0.838,2.361*5B
$GPGBS,224512.00,5.887,2.616,8.207,68,0.0001,16.429,6.174*62
$GPGRS,224512.00,1,0.5,-0.4,-1.7,-1.2,0.3,1.0,,,,,,*67
$GPGRS,224512.00,1,16.4,-2.1,-5.9,-1.1,,,,,,,,*5D
$GPGRS,224512.00,1,0.4,-0.2,-1.4,-2.6,0.2,,,,,,,*4A
$GPGRS,224512.00,1,-1.3,-5.8,0.1,-2.0,16.0,,,,,,,*74
$GPGSV,4,1,16,21,77,316,42,03,20,236,34,22,10,327,,10,34,055,43*7D
$GPGSV,4,2,16,14,16,307,37,27,27,164,34,32,48,091,45,08,55,193,50*7C
$GPGSV,4,3,16,01,49,292,,02,55,299,49,24,01,021,,17,02,321,26*75
$GPGSV,4,4,16,36,35,170,41,34,31,208,,49,34,195,36,61,03,257,*77
$GLGSV,3,1,09,69,72,094,48,70,26,195,33,83,10,118,,76,13,329,41*67
$GLGSV,3,2,09,68,29,034,37,85,44,319,50,84,69,076,32,75,07,274,28*65
$GLGSV,3,3,09,77,02,011,*5E
$GAGSV,3,1,10,26,72,066,48,24,11,328,23,23,15,226,,14,23,158,*63
$GAGSV,3,2,10,13,21,096,29,29,22,167,38,08,24,045,33,31,26,278,38*62
$GAGSV,3,3,10,07,46,106,42,33,50,295,42*60
$GBGSV,5,1,18,27,85,233,50,05,24,128,,14,14,043,31,60,10,109,*6B
$GBGSV,5,2,18,32,26,206,27,06,10,083,,30,35,305,44,13,13,059,*62
$GBGSV,5,3,18,16,11,079,,28,42,133,35,39,15,070,,33,39,052,42*64
$GBGSV,5,4,18,41,72,143,38,57,69,280,,09,06,095,,45,01,335,*6F
$GBGSV,5,5,18,02,09,105,,08,04,057,*63
$GPGGA,224512.00,,,,,0,00,,,M,,M,,*4A
$PTNL,GGK,224512.00,010125,4742.4457747,N,01617.9732288,E,1,20,1.3,EHT667.2291,M*48
$GPGGQ,224512.00,010125,4742.4457747,N,01617.9732288,E,1,20,2.805,624.0180,M*3D
$GPGFA,224512.00,12.064,19.364,1.269,0.825,8.889,2.361,,VVV*0D
$GPLLK,224512.00,010125,,M,,M,1,20,1.5,,M*0F
$GNGMP,224512.00,,,,,DAAA,20,0.7,,,,*51
$GPGMP,224512.00,,,,,,06,,,,2.2,123*79
$GLGMP,224512.00,,,,,,04,,,,,*79
$GAGMP,224512.00,,,,,,05,,,,,*75
$GBGMP,224512.00,,,,,,05,,,,,*76
$PSSN,SNC,[0,341130000,2347]*40
$GPZDA,224517.00,01,01,2025,,*64
$GPDTM,W84,,00.0000000,N,00.0000000,E,00.0000000,W84*5F
$GPRMC,224517.00,A,4742.4457757,N,01617.9732325,E,0.0,,010125,5.1,E,D*12
$GPGLL,4742.4457757,N,01617.9732325,E,224517.00,A,D*63
$GPGGA,224517.00,4742.4457757,N,01617.9732325,E,2,21,0.7,624.0152,M,43.2110,M,2.5,0123*4E
$GNGNS,224517.00,4742.4457757,N,01617.9732325,E,DAAA,21,0.7,624.0152,43.2110,,*55
$GPGNS,224517.00,,,,,,06,,,,2.5,123*7B
$GLGNS,224517.00,,,,,,04,,,,,*7C
$GAGNS,224517.00,,,,,,07,,,,,*72
$GBGNS,224517.00,,,,,,04,,,,,*72
$GPLLQ,224517.00,010125,,M,,M,1,21,3.080,,M*1E
$GPVTG,,T,,M,0.01,N,0.02,K,D*25
$GPHDT,,T*1B
$GPTHS,,V*0E
$GPROT,,V*08
$PSSN,HRP,224517.00,010125,,,,,,,00,0,,*66
$PTNL,AVR,224517.00,,Yaw,,Tilt,,,,0,,00*30
$GPGSA,A,3,02,08,10,14,21,32,,,,,,,1.2,0.7,1.0*3B
$GPGSA,A,3,68,69,76,85,,,,,,,,,1.2,0.7,1.0*3A
$GPGSA,A,3,07,08,24,26,29,31,33,,,,,,1.2,0.7,1.0*33
$GPGSA,A,3,27,30,33,41,,,,,,,,,1.2,0.7,1.0*34
$GPGST,224517.00,6.787,1.416,0.911,7.858,1.408,0.923,2.580*5D
$GPGBS,224517.00,5.942,2.648,8.285,14,0.0001,3.145,0.953*55
$GPGRS,224517.00,1,0.6,-0.7,-1.7,3.1,-0.3,0.4,,,,,,*66
$GPGRS,224517.00,1,18.2,-1.6,-6.6,-1.4,,,,,,,,*5D
$GPGRS,224517.00,1,0.2,4.1,-7.1,-0.3,-1.9,-3.0,-0.1,,,,,*42
$GPGRS,224517.00,1,-1.6,-1.2,-1.6,12.9,,,,,,,,*5D
$GPGSV,4,1,16,21,77,316,43,03,20,236,35,22,10,327,,10,34,055,43*7D
$GPGSV,4,2,16,14,16,307,39,27,27,164,34,32,48,091,44,08,55,193,50*73
$GPGSV,4,3,16,01,49,292,,02,55,299,49,24,01,021,,17,02,321,27*74
$GPGSV,4,4,16,36,35,170,41,34,31,208,,49,34,195,37,61,03,257,*76
$GLGSV,3,1,09,69,72,094,47,70,26,195,33,83,10,118,,76,13,329,40*69
$GLGSV,3,2,09,68,29,034,37,85,44,319,50,84,69,076,32,75,07,274,27*6A
$GLGSV,3,3,09,77,02,010,*5F
$GAGSV,3,1,10,26,72,066,49,24,11,328,24,23,15,226,,14,23,158,*65
$GAGSV,3,2,10,13,21,096,27,29,22,167,36,08,24,045,36,31,26,278,39*66
$GAGSV,3,3,10,07,46,106,42,33,50,295,42*60
$GBGSV,5,1,18,27,85,233,50,05,24,128,,14,14,043,30,60,10,109,*6A
$GBGSV,5,2,18,32,26,206,22,06,10,083,,30,36,305,45,13,13,059,*65
$GBGSV,5,3,18,16,11,079,,28,42,133,27,39,15,070,,33,39,052,42*67
$GBGSV,5,4,18,41,72,143,39,57,69,280,,09,06,095,,45,01,335,*6E
$GBGSV,5,5,18,02,09,105,,08,04,057,*63
$GPGGA,224517.00,,,,,0,00,,,M,,M,,*4F
$PTNL,GGK,224517.00,010125,4742.4457757,N,01617.9732325,E,1,21,1.2,EHT667.2262,M*46
$GPGGQ,224517.00,010125,4742.4457757,N,01617.9732325,E,1,21,3.080,624.0152,M*35
$GPGFA,224517.00,13.462,21.153,1.416,0.911,7.858,2.580,,VVV*04
$GPLLK,224517.00,010125,,M,,M,1,21,1.4,,M*0A
$GNGMP,224517.00,,,,,DAAA,21,0.7,,,,*55
$GPGMP,224517.00,,,,,,06,,,,2.5,123*7B
$GLGMP,224517.00,,,,,,04,,,,,*7C
$GAGMP,224517.00,,,,,,07,,,,,*72
$GBGMP,224517.00,,,,,,04,,,,,*72
$PSSN,SNC,[0,341135000,2347]*45
$GPZDA,224522.00,01,01,2025,,*62
$GPDTM,W84,,00.0000000,N,00.0000000,E,00.0000000,W84*5F
$GPRMC,224522.00,A,4742.4457766,N,01617.9732423,E,0.0,,010125,5.1,E,D*17
$GPGLL,4742.4457766,N,01617.9732423,E,224522.00,A,D*66
$GPGGA,224522.00,4742.4457766,N,01617.9732423,E,2,19,0.9,624.0237,M,43.2111,M,3.4,0123*4F
$GNGNS,224522.00,4742.4457766,N,01617.9732423,E,DAAA,19,0.9,624.0237,43.2111,,*54
$GPGNS,224522.00,,,,,,05,,,,3.4,123*7E
$GLGNS,224522.00,,,,,,04,,,,,*7A
$GAGNS,224522.00,,,,,,05,,,,,*76
$GBGNS,224522.00,,,,,,05,,,,,*75
$GPLLQ,224522.00,010125,,M,,M,1,19,3.954,,M*13
$GPVTG,,T,,M,0.00,N,0.01,K,D*27
$GPHDT,,T*1B
$GPTHS,,V*0E
$GPROT,,V*08
$PSSN,HRP,224522.00,010125,,,,,,,00,0,,*60
$PTNL,AVR,224522.00,,Yaw,,Tilt,,,,0,,00*36
$GPGSA,A,3,02,08,10,21,32,,,,,,,,1.6,0.9,1.4*30
$GPGSA,A,3,68,69,76,85,,,,,,,,,1.6,0.9,1.4*34
$GPGSA,A,3,07,08,26,31,33,,,,,,,,1.6,0.9,1.4*30
$GPGSA,A,3,27,28,30,33,41,,,,,,,,1.6,0.9,1.4*30
$GPGST,224522.00,6.022,1.119,0.999,14.603,1.112,1.007,3.658*6C
$GPGBS,224522.00,6.227,4.407,17.093,68,0.0001,17.770,6.178*55
$GPGRS,224522.00,1,0.7,-0.4,-0.7,-0.1,0.4,,,,,,,*4D
$GPGRS,224522.00,1,17.8,-2.7,-5.1,-1.6,,,,,,,,*5A
$GPGRS,224522.00,1,-0.8,5.1,-0.4,-2.4,-0.0,,,,,,,*6F
$GPGRS,224522.00,1,-1.4,-4.8,-0.9,-2.0,-4.5,,,,,,,*4F
$GPGSV,4,1,16,21,77,316,44,03,20,236,36,22,10,327,,10,34,055,44*7E
$GPGSV,4,2,16,14,16,307,39,27,26,164,34,32,48,091,43,08,55,193,49*7D
$GPGSV,4,3,16,01,49,292,,02,55,299,50,24,01,021,,17,02,321,23*78
$GPGSV,4,4,16,36,35,170,41,34,31,208,,49,34,195,37,61,03,257,*76
$GLGSV,3,1,09,69,72,094,46,70,26,195,33,83,10,118,,76,13,329,41*69
$GLGSV,3,2,09,68,29,034,35,85,44,319,50,84,69,077,32,75,07,274,*6C
$GLGSV,3,3,09,77,03,010,*5E
$GAGSV,3,1,10,26,72,066,48,24,11,328,29,23,15,226,,14,23,158,*69
$GAGSV,3,2,10,13,21,096,29,29,22,167,34,08,24,045,37,31,25,278,39*68
$GAGSV,3,3,10,07,46,106,41,33,50,295,42*63
$GBGSV,5,1,18,27,85,232,50,05,24,128,,14,14,043,31,60,10,109,*6A
$GBGSV,5,2,18,32,26,206,23,06,10,083,,30,36,305,46,13,13,059,25*60
$GBGSV,5,3,18,16,11,079,,28,42,133,37,39,15,070,,33,39,052,39*6A
$GBGSV,5,4,18,41,72,143,46,57,69,280,,09,06,095,,45,01,335,*66
$GBGSV,5,5,18,02,09,105,,08,04,057,*63
$GPGGA,224522.00,,,,,0,00,,,M,,M,,*49
$PTNL,GGK,224522.00,010125,4742.4457766,N,01617.9732423,E,1,19,1.6,EHT667.2347,M*4A
$GPGGQ,224522.00,010125,4742.4457766,N,01617.9732423,E,1,19,3.954,624.0237,M*3B
$GPGFA,224522.00,10.640,29.995,1.119,0.999,14.603,3.658,,VVV*36
$GPLLK,224522.00,010125,,M,,M,1,19,2.0,,M*00
$GNGMP,224522.00,,,,,DAAA,19,0.9,,,,*56
$GPGMP,224522.00,,,,,,05,,,,3.4,123*7E
$GLGMP,224522.00,,,,,,04,,,,,*7A
$GAGMP,224522.00,,,,,,05,,,,,*76
$GBGMP,224522.00,,,,,,05,,,,,*75
$PSSN,SNC,[0,341140000,2347]*47
$GPZDA,224527.00,01,01,2025,,*67
$GPDTM,W84,,00.0000000,N,00.0000000,E,00.0000000,W84*5F
$GPRMC,224527.00,A,4742.4457722,N,01617.9732400,E,0.0,,010125,5.1,E,D*13
$GPGLL,4742.4457722,N,01617.9732400,E,224527.00,A,D*62
$GPGGA,224527.00,4742.4457722,N,01617.9732400,E,2,19,0.9,624.0166,M,43.2111,M,2.0,0123*49
$GNGNS,224527.00,4742.4457722,N,01617.9732400,E,DAAA,19,0.9,624.0166,43.2111,,*57
$GPGNS,224527.00,,,,,,05,,,,2.0,123*7E
$GLGNS,224527.00,,,,,,04,,,,,*7F
$GAGNS,224527.00,,,,,,05,,,,,*73
$GBGNS,224527.00,,,,,,05,,,,,*70
$GPLLQ,224527.00,010125,,M,,M,1,19,2.514,,M*1F
$GPVTG,,T,,M,0.01,N,0.01,K,D*26
$GPHDT,,T*1B
$GPTHS,,V*0E
$GPROT,,V*08
$PSSN,HRP,224527.00,010125,,,,,,,00,0,,*65
$PTNL,AVR,224527.00,,Yaw,,Tilt,,,,0,,00*33
$GPGSA,A,3,02,08,10,21,32,,,,,,,,1.6,0.9,1.4*30
$GPGSA,A,3,68,69,76,85,,,,,,,,,1.6,0.9,1.4*34
$GPGSA,A,3,07,08,26,31,33,,,,,,,,1.6,0.9,1.4*30
$GPGSA,A,3,27,28,30,33,41,,,,,,,,1.6,0.9,1.4*30
$GPGST,224527.00,3.107,0.709,0.609,15.168,0.703,0.616,2.334*6F
$GPGBS,224527.00,5.907,4.278,17.360,32,0.0001,0.909,0.709*64
$GPGRS,224527.00,1,0.4,-0.5,-0.2,-0.3,0.9,,,,,,,*40
$GPGRS,224527.00,1,1.5,-3.6,-1.8,-1.1,,,,,,,,*6F
$GPGRS,224527.00,1,-0.7,7.7,-0.4,-2.2,-1.0,,,,,,,*66
$GPGRS,224527.00,1,-1.4,-4.4,-1.3,-2.3,-1.1,,,,,,,*4F
$GPGSV,4,1,16,21,77,316,43,03,20,236,35,22,10,327,,10,34,055,46*78
$GPGSV,4,2,16,14,16,307,38,27,26,164,35,32,48,091,43,08,55,193,49*7D
$GPGSV,4,3,16,01,50,292,,02,55,299,49,24,01,021,,17,02,321,25*7E
$GPGSV,4,4,16,36,35,170,41,34,31,208,,49,34,195,37,61,03,257,*76
$GLGSV,3,1,09,69,72,094,47,70,26,195,31,83,10,118,,76,13,329,44*6F
$GLGSV,3,2,09,68,29,034,36,85,44,319,50,84,69,077,31,75,07,274,25*6B
$GLGSV,3,3,09,77,03,010,*5E
$GAGSV,3,1,10,26,72,066,48,24,11,328,30,23,15,226,,14,23,158,*61
$GAGSV,3,2,10,13,21,096,28,29,22,167,34,08,24,045,37,31,25,278,38*68
$GAGSV,3,3,10,07,46,106,39,33,50,295,41*6F
$GBGSV,5,1,18,27,85,232,51,05,24,128,,14,14,043,31,60,10,109,*6B
$GBGSV,5,2,18,32,26,206,28,06,10,083,,30,36,305,47,13,13,059,26*69
$GBGSV,5,3,18,16,11,079,,28,42,133,39,39,15,070,,33,39,052,36*6B
$GBGSV,5,4,18,41,72,143,39,57,69,280,,09,06,095,,45,01,335,*6E
$GBGSV,5,5,18,02,09,105,,08,04,057,*63
$GPGGA,224527.00,,,,,0,00,,,M,,M,,*4C
$PTNL,GGK,224527.00,010125,4742.4457722,N,01617.9732400,E,1,19,1.6,EHT667.2277,M*4C
$GPGGQ,224527.00,010125,4742.4457722,N,01617.9732400,E,1,19,2.514,624.0166,M*31
$GPGFA,224527.00,6.744,19.138,0.709,0.609,15.168,2.334,,VVV*08
$GPLLK,224527.00,010125,,M,,M,1,19,2.0,,M*05
$GNGMP,224527.00,,,,,DAAA,19,0.9,,,,*53
$GPGMP,224527.00,,,,,,05,,,,2.0,123*7E
$GLGMP,224527.00,,,,,,04,,,,,*7F
$GAGMP,224527.00,,,,,,05,,,,,*73
$GBGMP,224527.00,,,,,,05,,,,,*70
$PSSN,SNC,[0,341145000,2347]*42
$GPZDA,224532.00,01,01,2025,,*63
$GPDTM,W84,,00.0000000,N,00.0000000,E,00.0000000,W84*5F
$GPRMC,224532.00,A,4742.4457658,N,01617.9732339,E,0.0,,010125,5.1,E,D*16
$GPGLL,4742.4457658,N,01617.9732339,E,224532.00,A,D*67
$GPGGA,224532.00,4742.4457658,N,01617.9732339,E,2,19,0.7,624.0113,M,43.2110,M,2.0,0123*41
$GNGNS,224532.00,4742.4457658,N,01617.9732339,E,DAAA,19,0.7,624.0113,43.2110,,*5F
$GPGNS,224532.00,,,,,,06,,,,2.0,123*79
$GLGNS,224532.00,,,,,,03,,,,,*7C
$GAGNS,224532.00,,,,,,06,,,,,*74
$GBGNS,224532.00,,,,,,04,,,,,*75
$GPLLQ,224532.00,010125,,M,,M,1,19,2.832,,M*12
$GPVTG,,T,,M,0.01,N,0.01,K,D*26
$GPHDT,,T*1B
$GPTHS,,V*0E
$GPROT,,V*08
$PSSN,HRP,224532.00,010125,,,,,,,00,0,,*61
$PTNL,AVR,224532.00,,Yaw,,Tilt,,,,0,,00*37
$GPGSA,A,3,02,08,10,21,27,32,,,,,,,1.2,0.7,1.0*3B
$GPGSA,A,3,69,76,85,,,,,,,,,,1.2,0.7,1.0*34
$GPGSA,A,3,07,08,26,29,31,33,,,,,,,1.2,0.7,1.0*35
$GPGSA,A,3,27,28,30,41,,,,,,,,,1.2,0.7,1.0*3E
$GPGST,224532.00,5.558,0.953,0.764,297.425,0.808,0.917,2.554*56
$GPGBS,224532.00,3.167,4.269,8.679,08,0.0001,11.550,6.205*6D
$GPGRS,224532.00,1,0.5,-0.2,-0.2,-0.8,-0.7,1.3,,,,,,*46
$GPGRS,224532.00,1,-3.3,4.2,-0.6,,,,,,,,,*60
$GPGRS,224532.00,1,-0.4,11.5,-0.4,0.3,-2.6,-1.4,,,,,,*79
$GPGRS,224532.00,1,-1.4,13.7,-1.3,2.0,,,,,,,,*7E
$GPGSV,4,1,16,21,77,317,43,03,20,236,36,22,10,326,,10,34,055,45*78
$GPGSV,4,2,16,14,16,307,33,27,26,164,35,32,48,091,43,08,55,193,50*7E
$GPGSV,4,3,16,01,50,292,,02,55,299,49,24,01,021,,17,02,321,*79
$GPGSV,4,4,16,36,35,170,40,34,31,208,,49,34,195,38,61,03,257,*78
$GLGSV,3,1,09,69,72,093,47,70,26,195,30,83,10,118,,76,13,329,43*6E
$GLGSV,3,2,09,68,29,034,33,85,44,319,50,84,69,077,30,75,07,274,23*69
$GLGSV,3,3,09,77,03,010,*5E
$GAGSV,3,1,10,26,72,066,48,24,11,328,33,23,15,226,,14,22,158,*63
$GAGSV,3,2,10,13,21,096,29,29,22,167,35,08,24,045,37,31,25,278,38*68
$GAGSV,3,3,10,07,46,106,39,33,50,295,41*6F
$GBGSV,5,1,18,27,85,231,51,05,24,128,,14,14,043,31,60,10,109,*68
$GBGSV,5,2,18,32,26,206,26,06,10,083,,30,36,305,46,13,13,059,26*66
$GBGSV,5,3,18,16,11,079,,28,42,133,37,39,15,070,,33,39,052,33*60
$GBGSV,5,4,18,41,72,143,39,57,69,280,,09,06,095,,45,01,335,*6E
$GBGSV,5,5,18,02,09,105,,08,04,057,*63
$GPGGA,224532.00,,,,,0,00,,,M,,M,,*48
$PTNL,GGK,224532.00,010125,4742.4457658,N,01617.9732339,E,1,19,1.2,EHT667.2223,M*4C
$GPGGQ,224532.00,010125,4742.4457658,N,01617.9732339,E,1,19,2.832,624.0113,M*3F
$GPGFA,224532.00,9.065,20.947,0.953,0.764,297.425,2.554,,VVV*32
$GPLLK,224532.00,010125,,M,,M,1,19,1.5,,M*07
$GNGMP,224532.00,,,,,DAAA,19,0.7,,,,*59
$GPGMP,224532.00,,,,,,06,,,,2.0,123*79
$GLGMP,224532.00,,,,,,03,,,,,*7C
$GAGMP,224532.00,,,,,,06,,,,,*74
$GBGMP,224532.00,,,,,,04,,,,,*75
$PSSN,SNC,[0,341150000,2347]*46
$GPZDA,224537.00,01,01,2025,,*66
$GPDTM,W84,,00.0000000,N,00.0000000,E,00.0000000,W84*5F
$GPRMC,224537.00,A,4742.4457620,N,01617.9732368,E,0.0,,010125,5.1,E,D*18
$GPGLL,4742.4457620,N,01617.9732368,E,224537.00,A,D*69
$GPGGA,224537.00,4742.4457620,N,01617.9732368,E,2,20,0.7,624.0245,M,43.2110,M,2.4,0123*41
$GNGNS,224537.00,4742.4457620,N,01617.9732368,E,DAAA,20,0.7,624.0245,43.2110,,*5B
$GPGNS,224537.00,,,,,,07,,,,2.4,123*79
$GLGNS,224537.00,,,,,,03,,,,,*79
$GAGNS,224537.00,,,,,,06,,,,,*71
$GBGNS,224537.00,,,,,,04,,,,,*70
$GPLLQ,224537.00,010125,,M,,M,1,20,3.363,,M*13
$GPVTG,,T,,M,0.01,N,0.01,K,D*26
$GPHDT,,T*1B
$GPTHS,,V*0E
$GPROT,,V*08
$PSSN,HRP,224537.00,010125,,,,,,,00,0,,*64
$PTNL,AVR,224537.00,,Yaw,,Tilt,,,,0,,00*32
$GPGSA,A,3,02,03,08,10,21,27,32,,,,,,1.2,0.7,1.0*38
$GPGSA,A,3,69,76,85,,,,,,,,,,1.2,0.7,1.0*34
$GPGSA,A,3,07,08,26,29,31,33,,,,,,,1.2,0.7,1.0*35
$GPGSA,A,3,27,28,30,41,,,,,,,,,1.2,0.7,1.0*3E
$GPGST,224537.00,5.258,1.356,1.034,335.083,1.305,1.098,2.899*5C
$GPGBS,224537.00,3.218,2.490,6.817,03,0.0001,3.189,0.884*50
$GPGRS,224537.00,1,0.6,3.2,-0.6,-0.7,-0.5,-3.0,1.5,,,,,*61
$GPGRS,224537.00,1,-2.6,6.4,-1.6,,,,,,,,,*64
$GPGRS,224537.00,1,-0.3,14.1,-0.9,0.9,-3.0,-1.5,,,,,,*7B
$GPGRS,224537.00,1,-1.5,7.8,-2.2,2.8,,,,,,,,*4A
$GPGSV,4,1,16,21,77,317,43,03,20,236,37,22,10,326,,10,34,055,46*7A
$GPGSV,4,2,16,14,16,307,30,27,26,164,37,32,48,091,43,08,54,192,50*7F
$GPGSV,4,3,16,01,50,292,,02,55,299,49,24,01,021,,17,02,321,25*7E
$GPGSV,4,4,16,36,35,170,40,34,31,208,,49,34,195,38,61,03,257,*78
$GLGSV,3,1,09,69,72,093,48,70,26,195,28,83,10,118,,76,13,329,41*6A
$GLGSV,3,2,09,68,29,034,34,85,44,319,49,84,69,077,28,75,07,274,24*68
$GLGSV,3,3,09,77,03,010,*5E
$GAGSV,3,1,10,26,72,066,47,24,11,328,34,23,14,226,,14,22,158,*6A
$GAGSV,3,2,10,13,21,096,31,29,22,167,36,08,24,045,39,31,25,277,39*62
$GAGSV,3,3,10,07,46,106,39,33,50,295,40*6E
$GBGSV,5,1,18,27,85,231,51,05,24,128,,14,14,043,28,60,10,109,*60
$GBGSV,5,2,18,32,26,206,29,06,10,083,,30,36,305,47,13,13,059,25*6B
$GBGSV,5,3,18,16,11,079,,28,42,133,37,39,15,070,,33,39,052,33*60
$GBGSV,5,4,18,41,72,143,39,57,69,281,,09,06,095,,45,01,335,*6F
$GBGSV,5,5,18,02,09,105,,08,04,057,*63
$GPGGA,224537.00,,,,,0,00,,,M,,M,,*4D
$PTNL,GGK,224537.00,010125,4742.4457620,N,01617.9732368,E,1,20,1.2,EHT667.2355,M*48
$GPGGQ,224537.00,010125,4742.4457620,N,01617.9732368,E,1,20,3.363,624.0245,M*35
$GPGFA,224537.00,12.894,23.771,1.356,1.034,335.083,2.899,,VVV*03
$GPLLK,224537.00,010125,,M,,M,1,20,1.4,,M*09
$GNGMP,224537.00,,,,,DAAA,20,0.7,,,,*56
$GPGMP,224537.00,,,,,,07,,,,2.4,123*79
$GLGMP,224537.00,,,,,,03,,,,,*79
$GAGMP,224537.00,,,,,,06,,,,,*71
$GBGMP,224537.00,,,,,,04,,,,,*70
$PSSN,SNC,[0,341155000,2347]*43
$GPZDA,224542.00,01,01,2025,,*64
$GPDTM,W84,,00.0000000,N,00.0000000,E,00.0000000,W84*5F
$GPRMC,224542.00,A,4742.4457552,N,01617.9732325,E,0.0,,010125,5.1,E,D*15
$GPGLL,4742.4457552,N,01617.9732325,E,224542.00,A,D*64
$GPGGA,224542.00,4742.4457552,N,01617.9732325,E,2,18,0.8,624.0225,M,43.2110,M,3.4,0123*4F
$GNGNS,224542.00,4742.4457552,N,01617.9732325,E,DAAA,18,0.8,624.0225,43.2110,,*54
$GPGNS,224542.00,,,,,,05,,,,3.4,123*78
$GLGNS,224542.00,,,,,,03,,,,,*7B
$GAGNS,224542.00,,,,,,06,,,,,*73
$GBGNS,224542.00,,,,,,04,,,,,*72
$GPLLQ,224542.00,010125,,M,,M,1,18,4.549,,M*13
$GPVTG,,T,,M,0.00,N,0.01,K,D*27
$GPHDT,,T*1B
$GPTHS,,V*0E
$GPROT,,V*08
$PSSN,HRP,224542.00,010125,,,,,,,00,0,,*66
$PTNL,AVR,224542.00,,Yaw,,Tilt,,,,0,,00*30
$GPGSA,A,3,02,08,10,21,32,,,,,,,,1.3,0.8,1.1*31
$GPGSA,A,3,69,76,85,,,,,,,,,,1.3,0.8,1.1*3B
$GPGSA,A,3,07,08,26,29,31,33,,,,,,,1.3,0.8,1.1*3A
$GPGSA,A,3,27,28,30,41,,,,,,,,,1.3,0.8,1.1*31
$GPGST,224542.00,5.045,1.282,1.172,13.637,1.276,1.178,4.205*66
$GPGBS,224542.00,6.036,4.428,16.491,08,0.0001,15.295,6.206*5B
$GPGRS,224542.00,1,0.5,-0.8,-1.5,-0.5,1.7,,,,,,,*40
$GPGRS,224542.00,1,-0.9,0.9,-2.1,,,,,,,,,*64
$GPGRS,224542.00,1,0.3,15.3,-1.2,-0.2,-2.4,-1.7,,,,,,*7C
$GPGRS,224542.00,1,-1.3,-3.2,-2.5,2.3,,,,,,,,*61
$GPGSV,4,1,16,21,77,317,43,03,20,236,36,22,10,326,,10,34,056,45*7B
$GPGSV,4,2,16,14,16,307,32,27,26,164,35,32,48,091,44,08,54,192,50*78
$GPGSV,4,3,16,01,50,292,,02,55,299,48,24,01,021,,17,02,321,*78
$GPGSV,4,4,16,36,35,170,40,34,31,208,,49,34,195,38,61,03,257,*78
$GLGSV,3,1,09,69,72,093,49,70,26,195,29,83,10,118,,76,13,329,39*65
$GLGSV,3,2,09,68,29,034,35,85,44,319,49,84,69,077,28,75,07,274,26*6B
$GLGSV,3,3,09,77,03,010,*5E
$GAGSV,3,1,10,26,72,066,47,24,11,328,34,23,14,226,,14,22,158,*6A
$GAGSV,3,2,10,13,21,096,33,29,22,167,36,08,24,045,38,31,25,277,39*61
$GAGSV,3,3,10,07,46,106,40,33,50,295,40*60
$GBGSV,5,1,18,27,85,231,51,05,24,128,,14,14,043,24,60,10,109,*6C
$GBGSV,5,2,18,32,26,206,29,06,10,083,,30,36,305,47,13,13,059,28*66
$GBGSV,5,3,18,16,11,079,,28,42,133,42,39,15,070,,33,39,052,30*61
$GBGSV,5,4,18,41,72,143,39,57,69,281,,09,06,095,,45,01,335,*6F
$GBGSV,5,5,18,02,09,105,,08,04,057,*63
$GPGGA,224542.00,,,,,0,00,,,M,,M,,*4F
$PTNL,GGK,224542.00,010125,4742.4457552,N,01617.9732325,E,1,18,1.3,EHT667.2336,M*4A
$GPGGQ,224542.00,010125,4742.4457552,N,01617.9732325,E,1,18,4.549,624.0225,M*3C
$GPGFA,224542.00,12.188,34.479,1.282,1.172,13.637,4.205,,VVV*34
$GPLLK,224542.00,010125,,M,,M,1,18,1.6,,M*02
$GNGMP,224542.00,,,,,DAAA,18,0.8,,,,*50
$GPGMP,224542.00,,,,,,05,,,,3.4,123*78
$GLGMP,224542.00,,,,,,03,,,,,*7B
$GAGMP,224542.00,,,,,,06,,,,,*73
$GBGMP,224542.00,,,,,,04,,,,,*72
$PSSN,SNC,[0,341160000,2347]*45
$GPZDA,224547.00,01,01,2025,,*61
$GPDTM,W84,,00.0000000,N,00.0000000,E,00.0000000,W84*5F
$GPRMC,224547.00,A,4742.4457468,N,01617.9732249,E,0.0,,010125,5.1,E,D*13
$GPGLL,4742.4457468,N,01617.9732249,E,224547.00,A,D*62
$GPGGA,224547.00,4742.4457468,N,01617.9732249,E,2,19,0.7,624.0168,M,43.2111,M,2.0,0123*49
$GNGNS,224547.00,4742.4457468,N,01617.9732249,E,DAAA,19,0.7,624.0168,43.2111,,*57
$GPGNS,224547.00,,,,,,05,,,,2.0,123*78
$GLGNS,224547.00,,,,,,04,,,,,*79
$GAGNS,224547.00,,,,,,06,,,,,*76
$GBGNS,224547.00,,,,,,04,,,,,*77
$GPLLQ,224547.00,010125,,M,,M,1,19,5.251,,M*18
$GPVTG,,T,,M,0.00,N,0.01,K,D*27
$GPHDT,,T*1B
$GPTHS,,V*0E
$GPROT,,V*08
$PSSN,HRP,224547.00,010125,,,,,,,00,0,,*63
$PTNL,AVR,224547.00,,Yaw,,Tilt,,,,0,,00*35
$GPGSA,A,3,02,08,10,21,32,,,,,,,,1.3,0.7,1.1*3E
$GPGSA,A,3,68,69,76,85,,,,,,,,,1.3,0.7,1.1*3A
$GPGSA,A,3,07,08,26,29,31,33,,,,,,,1.3,0.7,1.1*35
$GPGSA,A,3,27,28,30,41,,,,,,,,,1.3,0.7,1.1*3E
$GPGST,224547.00,5.378,1.459,1.326,14.459,1.451,1.335,4.867*66
$GPGBS,224547.00,5.733,4.294,16.752,32,0.0001,2.472,0.708*6F
$GPGRS,224547.00,1,-0.1,-0.7,-1.8,-0.3,2.5,,,,,,,*69
$GPGRS,224547.00,1,0.9,-0.2,-5.6,-0.6,,,,,,,,*6F
$GPGRS,224547.00,1,0.4,16.7,-1.4,-0.1,-2.4,-1.7,,,,,,*7C
$GPGRS,224547.00,1,-0.9,-2.9,-2.5,0.4,,,,,,,,*60
$GPGSV,4,1,16,21,77,317,43,03,20,237,33,22,10,326,,10,34,056,44*7E
$GPGSV,4,2,16,14,16,307,32,27,26,164,34,32,48,091,43,08,54,192,50*7E
$GPGSV,4,3,16,01,50,292,,02,55,299,46,24,01,021,,17,02,321,31*74
$GPGSV,4,4,16,36,35,170,40,34,31,208,,49,34,195,37,61,03,257,*77
$GLGSV,3,1,09,69,72,093,49,70,26,195,32,83,10,118,,76,13,329,39*6F
$GLGSV,3,2,09,68,29,034,38,85,44,319,49,84,69,077,26,75,07,274,22*6C
$GLGSV,3,3,09,77,03,010,*5E
$GAGSV,3,1,10,26,72,067,47,24,11,327,33,23,14,226,,14,22,158,*63
$GAGSV,3,2,10,13,21,096,34,29,23,167,37,08,24,045,37,31,25,277,40*67
$GAGSV,3,3,10,07,46,106,40,33,50,296,40*63
$GBGSV,5,1,18,27,85,230,50,05,24,128,,14,14,043,24,60,10,109,*6C
$GBGSV,5,2,18,32,26,206,31,06,10,083,,30,36,305,47,13,13,059,27*60
$GBGSV,5,3,18,16,11,079,,28,42,133,42,39,15,070,,33,39,052,33*62
$GBGSV,5,4,18,41,72,143,40,57,69,281,,09,06,095,,45,01,335,*61
$GBGSV,5,5,18,02,09,105,,08,04,057,*63
$GPGGA,224547.00,,,,,0,00,,,M,,M,,*4A
$PTNL,GGK,224547.00,010125,4742.4457468,N,01617.9732249,E,1,19,1.3,EHT667.2278,M*46
$GPGGQ,224547.00,010125,4742.4457468,N,01617.9732249,E,1,19,5.251,624.0168,M*3E
$GPGFA,224547.00,13.875,39.908,1.459,1.326,14.459,4.867,,VVV*3D
$GPLLK,224547.00,010125,,M,,M,1,19,1.5,,M*05
$GNGMP,224547.00,,,,,DAAA,19,0.7,,,,*5B
$GPGMP,224547.00,,,,,,05,,,,2.0,123*78
$GLGMP,224547.00,,,,,,04,,,,,*79
$GAGMP,224547.00,,,,,,06,,,,,*76
$GBGMP,224547.00,,,,,,04,,,,,*77
$PSSN,SNC,[0,341165000,2347]*40
$GPZDA,224552.00,01,01,2025,,*65
$GPDTM,W84,,00.0000000,N,00.0000000,E,00.0000000,W84*5F
$GPRMC,224552.00,A,4742.4457509,N,01617.9732236,E,0.0,,010125,5.1,E,D*19
$GPGLL,4742.4457509,N,01617.9732236,E,224552.00,A,D*68
$GPGGA,224552.00,4742.4457509,N,01617.9732236,E,2,18,0.7,624.0049,M,43.2110,M,1.8,0123*4A
$GNGNS,224552.00,4742.4457509,N,01617.9732236,E,DAAA,18,0.7,624.0049,43.2110,,*5F
$GPGNS,224552.00,,,,,,04,,,,1.8,123*76
$GLGNS,224552.00,,,,,,04,,,,,*7D
$GAGNS,224552.00,,,,,,05,,,,,*71
$GBGNS,224552.00,,,,,,05,,,,,*72
$GPLLQ,224552.00,010125,,M,,M,1,18,3.311,,M*1E
$GPVTG,,T,,M,0.00,N,0.00,K,D*26
$GPHDT,,T*1B
$GPTHS,,V*0E
$GPROT,,V*08
$PSSN,HRP,224552.00,010125,,,,,,,00,0,,*67
$PTNL,AVR,224552.00,,Yaw,,Tilt,,,,0,,00*31
$GPGSA,A,3,02,08,10,21,,,,,,,,,1.3,0.7,1.1*3F
$GPGSA,A,3,68,69,76,85,,,,,,,,,1.3,0.7,1.1*3A
$GPGSA,A,3,07,26,29,31,33,,,,,,,,1.3,0.7,1.1*3D
$GPGSA,A,3,27,28,30,33,41,,,,,,,,1.3,0.7,1.1*3E
$GPGST,224552.00,2.402,1.068,0.862,276.165,0.865,1.065,3.013*5F
$GPGBS,224552.00,6.076,6.262,17.921,10,0.0001,-1.611,0.820*42
$GPGRS,224552.00,1,0.3,0.1,-1.6,0.4,,,,,,,,*64
$GPGRS,224552.00,1,2.8,-0.4,-4.6,-0.0,,,,,,,,*69
$GPGRS,224552.00,1,1.0,-0.8,0.0,-2.4,-0.3,,,,,,,*47
$GPGRS,224552.00,1,-0.0,-2.2,-1.8,-4.0,-0.2,,,,,,,*44
$GPGSV,4,1,16,21,77,317,43,03,20,237,29,22,10,326,,10,33,056,44*72
$GPGSV,4,2,16,14,16,307,32,27,26,164,34,32,48,091,44,08,54,192,51*78
$GPGSV,4,3,16,01,50,292,,02,55,299,45,24,01,021,,17,02,321,31*77
$GPGSV,4,4,16,36,35,170,40,34,31,208,,49,34,195,36,61,03,257,*76
$GLGSV,3,1,09,69,72,093,48,70,26,195,32,83,10,118,,76,13,329,36*61
$GLGSV,3,2,09,68,29,034,39,85,44,319,49,84,69,077,25,75,07,274,33*6E
$GLGSV,3,3,09,77,03,010,*5E
$GAGSV,3,1,10,26,72,067,47,24,11,327,34,23,14,226,,14,22,158,*64
$GAGSV,3,2,10,13,21,096,34,29,23,167,37,08,24,045,34,31,25,277,40*64
$GAGSV,3,3,10,07,46,106,39,33,50,296,41*6C
$GBGSV,5,1,18,27,85,230,50,05,24,128,,14,14,043,33,60,10,109,*6A
$GBGSV,5,2,18,32,26,206,30,06,10,083,,30,36,305,47,13,13,059,24*62
$GBGSV,5,3,18,16,11,079,,28,42,133,42,39,15,070,,33,39,052,43*65
$GBGSV,5,4,18,41,72,143,42,57,69,281,,09,06,095,,45,01,335,*63
$GBGSV,5,5,18,02,09,105,,08,04,057,*63
$GPGGA,224552.00,,,,,0,00,,,M,,M,,*4E
$PTNL,GGK,224552.00,010125,4742.4457509,N,01617.9732236,E,1,18,1.3,EHT667.2160,M*47
$GPGGQ,224552.00,010125,4742.4457509,N,01617.9732236,E,1,18,3.311,624.0049,M*34
$GPGFA,224552.00,10.150,24.710,1.068,0.862,276.165,3.013,,VVV*03
$GPLLK,224552.00,010125,,M,,M,1,18,1.6,,M*03
$GNGMP,224552.00,,,,,DAAA,18,0.7,,,,*5E
$GPGMP,224552.00,,,,,,04,,,,1.8,123*76
$GLGMP,224552.00,,,,,,04,,,,,*7D
$GAGMP,224552.00,,,,,,05,,,,,*71
$GBGMP,224552.00,,,,,,05,,,,,*72
$PSSN,SNC,[0,341170000,2347]*44
$GPZDA,224557.00,01,01,2025,,*60
$GPDTM,W84,,00.0000000,N,00.0000000,E,00.0000000,W84*5F
$GPRMC,224557.00,A,4742.4457532,N,01617.9732373,E,0.0,,010125,5.1,E,D*14
$GPGLL,4742.4457532,N,01617.9732373,E,224557.00,A,D*65
$GPGGA,224557.00,4742.4457532,N,01617.9732373,E,2,17,0.8,623.9890,M,43.2110,M,3.5,0123*4A
$GNGNS,224557.00,4742.4457532,N,01617.9732373,E,DAAA,17,0.8,623.9890,43.2110,,*50
$GPGNS,224557.00,,,,,,04,,,,3.5,123*7C
$GLGNS,224557.00,,,,,,04,,,,,*78
$GAGNS,224557.00,,,,,,05,,,,,*74
$GBGNS,224557.00,,,,,,04,,,,,*76
$GPLLQ,224557.00,010125,,M,,M,1,17,4.714,,M*12
$GPVTG,,T,,M,0.00,N,0.01,K,D*27
$GPHDT,,T*1B
$GPTHS,,V*0E
$GPROT,,V*08
$PSSN,HRP,224557.00,010125,,,,,,,00,0,,*62
$PTNL,AVR,224557.00,,Yaw,,Tilt,,,,0,,00*34
$GPGSA,A,3,02,08,10,21,,,,,,,,,1.5,0.8,1.2*35
$GPGSA,A,3,68,69,84,85,,,,,,,,,1.5,0.8,1.2*3D
$GPGSA,A,3,07,26,29,31,33,,,,,,,,1.5,0.8,1.2*37
$GPGSA,A,3,27,30,33,41,,,,,,,,,1.5,0.8,1.2*3E
$GPGST,224557.00,5.589,1.566,1.240,279.327,1.250,1.558,4.270*52
$GPGBS,224557.00,6.373,6.784,19.079,10,0.0001,-2.677,0.850*42
$GPGRS,224557.00,1,0.6,0.2,-2.7,0.7,,,,,,,,*66
$GPGRS,224557.00,1,3.5,-0.1,-3.7,0.2,,,,,,,,*4C
$GPGRS,224557.00,1,0.8,-0.6,-0.2,-3.9,1.7,,,,,,,*4E
$GPGRS,224557.00,1,0.4,-1.5,16.0,0.6,,,,,,,,*51
$GPGSV,4,1,16,21,77,317,43,03,21,237,,22,10,326,,10,33,056,41*7D
$GPGSV,4,2,16,14,16,307,35,27,26,164,34,32,48,090,44,08,54,192,51*7E
$GPGSV,4,3,16,01,50,292,,02,55,299,44,24,01,021,,17,02,321,31*76
$GPGSV,4,4,16,36,35,170,40,34,31,208,,49,34,195,35,61,03,257,*75
$GLGSV,3,1,09,69,72,093,48,70,27,195,31,83,10,118,,76,13,329,32*67
$GLGSV,3,2,09,68,29,034,37,85,44,319,49,84,69,077,38,75,07,274,27*69
$GLGSV,3,3,09,77,03,010,*5E
$GAGSV,3,1,10,26,72,067,46,24,11,327,34,23,14,226,,14,22,158,*65
$GAGSV,3,2,10,13,21,096,35,29,23,167,37,08,24,045,33,31,25,277,36*63
$GAGSV,3,3,10,07,46,106,39,33,50,296,41*6C
$GBGSV,5,1,18,27,85,229,50,05,24,128,,14,14,043,31,60,10,109,*60
$GBGSV,5,2,18,32,26,206,32,06,10,083,,30,36,305,47,13,13,059,22*66
$GBGSV,5,3,18,16,11,079,,28,42,133,32,39,15,070,,33,39,052,36*60
$GBGSV,5,4,18,41,72,143,44,57,69,281,,09,06,095,,45,01,335,*65
$GBGSV,5,5,18,02,09,105,,08,04,057,*63
$GPGGA,224557.00,,,,,0,00,,,M,,M,,*4B
$PTNL,GGK,224557.00,010125,4742.4457532,N,01617.9732373,E,1,17,1.5,EHT667.2001,M*45
$GPGGQ,224557.00,010125,4742.4457532,N,01617.9732373,E,1,17,4.714,623.9890,M*32
$GPGFA,224557.00,14.891,35.016,1.566,1.240,279.327,4.270,,VVV*0C
$GPLLK,224557.00,010125,,M,,M,1,17,1.7,,M*08
$GNGMP,224557.00,,,,,DAAA,17,0.8,,,,*5B
$GPGMP,224557.00,,,,,,04,,,,3.5,123*7C
$GLGMP,224557.00,,,,,,04,,,,,*78
$GAGMP,224557.00,,,,,,05,,,,,*74
$GBGMP,224557.00,,,,,,04,,,,,*76
$PSSN,SNC,[0,341175000,2347]*41
$GPZDA,224602.00,01,01,2025,,*63
$GPDTM,W84,,00.0000000,N,00.0000000,E,00.0000000,W84*5F
$GPRMC,224602.00,A,4742.4457618,N,01617.9732538,E,0.0,,010125,5.1,E,D*15
$GPGLL,4742.4457618,N,01617.9732538,E,224602.00,A,D*64
$GPGGA,224602.00,4742.4457618,N,01617.9732538,E,2,18,0.7,623.9675,M,43.2110,M,1.4,0123*4D
$GNGNS,224602.00,4742.4457618,N,01617.9732538,E,DAAA,18,0.7,623.9675,43.2110,,*54
$GPGNS,224602.00,,,,,,05,,,,1.4,123*7D
$GLGNS,224602.00,,,,,,03,,,,,*7C
$GAGNS,224602.00,,,,,,05,,,,,*77
$GBGNS,224602.00,,,,,,05,,,,,*74
$GPLLQ,224602.00,010125,,M,,M,1,18,2.747,,M*1E
$GPVTG,,T,,M,0.00,N,0.01,K,D*27
$GPHDT,,T*1B
$GPTHS,,V*0E
$GPROT,,V*08
$PSSN,HRP,224602.00,010125,,,,,,,00,0,,*61
$PTNL,AVR,224602.00,,Yaw,,Tilt,,,,0,,00*37
$GPGSA,A,3,02,08,10,14,21,,,,,,,,1.4,0.7,1.1*3D
$GPGSA,A,3,68,69,85,,,,,,,,,,1.4,0.7,1.1*3C
$GPGSA,A,3,07,26,29,31,33,,,,,,,,1.4,0.7,1.1*3A
$GPGSA,A,3,27,28,30,33,41,,,,,,,,1.4,0.7,1.1*39
$GPGST,224602.00,4.968,1.203,1.025,6.055,1.201,1.028,2.246*5F
$GPGBS,224602.00,5.966,4.695,8.214,10,0.0001,-2.849,0.813*72
$GPGRS,224602.00,1,-0.2,0.5,-2.8,0.1,1.0,,,,,,,*6D
$GPGRS,224602.00,1,3.4,-0.2,0.7,,,,,,,,,*4F
$GPGRS,224602.00,1,1.0,-0.3,0.2,-3.3,1.8,,,,,,,*69
$GPGRS,224602.00,1,0.6,-1.6,-1.1,15.1,1.7,,,,,,,*52
$GPGSV,4,1,16,21,77,317,43,03,21,237,24,22,10,326,,10,33,056,41*7B
$GPGSV,4,2,16,14,16,307,35,27,26,164,33,32,48,090,45,08,54,192,51*78
$GPGSV,4,3,16,01,50,292,,02,55,299,40,24,01,021,,17,02,321,29*7B
$GPGSV,4,4,16,36,35,170,40,34,31,208,,49,34,195,36,61,03,257,*76
$GLGSV,3,1,09,69,72,093,46,70,27,195,32,83,10,118,,76,13,328,35*6C
$GLGSV,3,2,09,68,29,034,36,85,44,319,50,84,69,078,24,75,06,274,30*65
$GLGSV,3,3,09,77,03,010,*5E
$GAGSV,3,1,10,26,72,067,45,24,11,327,34,23,14,226,,14,22,158,*66
$GAGSV,3,2,10,13,21,096,34,29,23,167,37,08,24,045,28,31,25,277,36*68
$GAGSV,3,3,10,07,46,106,39,33,50,296,42*6F
$GBGSV,5,1,18,27,85,229,50,05,24,128,,14,14,043,32,60,10,109,*63
$GBGSV,5,2,18,32,26,206,34,06,10,083,,30,36,305,47,13,13,059,26*64
$GBGSV,5,3,18,16,11,079,,28,42,133,43,39,15,070,,33,39,052,36*66
$GBGSV,5,4,18,41,72,142,43,57,69,281,,09,06,095,,45,01,335,*63
$GBGSV,5,5,18,02,09,105,,08,04,057,*63
$GPGGA,224602.00,,,,,0,00,,,M,,M,,*48
$PTNL,GGK,224602.00,010125,4742.4457618,N,01617.9732538,E,1,18,1.4,EHT667.1785,M*42
$GPGGQ,224602.00,010125,4742.4457618,N,01617.9732538,E,1,18,2.747,623.9675,M*39
$GPGFA,224602.00,11.440,18.420,1.203,1.025,6.055,2.246,,VVV*0E
$GPLLK,224602.00,010125,,M,,M,1,18,1.6,,M*05
$GNGMP,224602.00,,,,,DAAA,18,0.7,,,,*58
$GPGMP,224602.00,,,,,,05,,,,1.4,123*7D
$GLGMP,224602.00,,,,,,03,,,,,*7C
$GAGMP,224602.00,,,,,,05,,,,,*77
$GBGMP,224602.00,,,,,,05,,,,,*74
$PSSN,SNC,[0,341180000,2347]*4B
$GPZDA,224607.00,01,01,2025,,*66
$GPDTM,W84,,00.0000000,N,00.0000000,E,00.0000000,W84*5F
$GPRMC,224607.00,A,4742.4457718,N,01617.9732686,E,0.0,,010125,5.1,E,D*17
$GPGLL,4742.4457718,N,01617.9732686,E,224607.00,A,D*66
$GPGGA,224607.00,4742.4457718,N,01617.9732686,E,2,16,0.8,623.9421,M,43.2110,M,1.8,0123*41
$GNGNS,224607.00,4742.4457718,N,01617.9732686,E,DAAA,16,0.8,623.9421,43.2110,,*54
$GPGNS,224607.00,,,,,,04,,,,1.8,123*75
$GLGNS,224607.00,,,,,,04,,,,,*7E
$GAGNS,224607.00,,,,,,04,,,,,*73
$GBGNS,224607.00,,,,,,04,,,,,*70
$GPLLQ,224607.00,010125,,M,,M,1,16,4.575,,M*10
$GPVTG,,T,,M,0.01,N,0.01,K,D*26
$GPHDT,,T*1B
$GPTHS,,V*0E
$GPROT,,V*08
$PSSN,HRP,224607.00,010125,,,,,,,00,0,,*64
$PTNL,AVR,224607.00,,Yaw,,Tilt,,,,0,,00*32
$GPGSA,A,3,02,08,10,21,,,,,,,,,1.4,0.8,1.2*34
$GPGSA,A,3,68,69,76,85,,,,,,,,,1.4,0.8,1.2*31
$GPGSA,A,3,07,26,29,33,,,,,,,,,1.4,0.8,1.2*34
$GPGSA,A,3,27,28,30,41,,,,,,,,,1.4,0.8,1.2*35
$GPGST,224607.00,3.844,1.514,1.154,277.296,1.161,1.509,4.160*5F
$GPGBS,224607.00,6.078,6.786,18.693,10,0.0001,-2.391,0.824*43
$GPGRS,224607.00,1,-0.0,0.4,-2.4,1.2,,,,,,,,*4A
$GPGRS,224607.00,1,4.3,-2.5,-9.5,0.8,,,,,,,,*4F
$GPGRS,224607.00,1,1.2,-0.4,0.7,0.7,,,,,,,,*61
$GPGRS,224607.00,1,0.4,-1.9,-1.6,-0.8,,,,,,,,*65
$GPGSV,4,1,16,21,77,317,43,03,21,237,34,22,10,326,,10,33,056,40*7B
$GPGSV,4,2,16,14,16,307,34,27,26,164,29,32,48,090,45,08,54,192,51*72
$GPGSV,4,3,16,01,50,292,,02,55,299,37,24,01,021,,17,02,321,30*73
$GPGSV,4,4,16,36,35,170,41,34,31,208,,49,34,195,36,61,03,257,*77
$GLGSV,3,1,09,69,72,092,44,70,27,195,33,83,10,118,,76,13,328,40*6C
$GLGSV,3,2,09,68,29,034,35,85,44,319,51,84,69,078,26,75,06,274,31*64
$GLGSV,3,3,09,77,03,010,*5E
$GAGSV,3,1,10,26,72,067,45,24,11,327,34,23,14,226,,14,22,158,*66
$GAGSV,3,2,10,13,21,096,33,29,23,167,38,08,24,045,20,31,25,277,35*6B
$GAGSV,3,3,10,07,46,105,39,33,50,296,41*6F
$GBGSV,5,1,18,27,85,228,50,05,24,128,,14,14,043,23,60,10,109,*62
$GBGSV,5,2,18,32,26,206,35,06,10,083,,30,36,305,47,13,13,059,26*65
$GBGSV,5,3,18,16,11,079,,28,42,133,43,39,15,070,,33,39,052,35*65
$GBGSV,5,4,18,41,72,142,42,57,69,281,,09,06,095,,45,01,335,*62
$GBGSV,5,5,18,02,09,105,,08,04,057,*63
$GPGGA,224607.00,,,,,0,00,,,M,,M,,*4D
$PTNL,GGK,224607.00,010125,4742.4457718,N,01617.9732686,E,1,16,1.4,EHT667.1532,M*40
$GPGGQ,224607.00,010125,4742.4457718,N,01617.9732686,E,1,16,4.575,623.9421,M*33
$GPGFA,224607.00,14.399,34.116,1.514,1.154,277.296,4.160,,VVV*0D
$GPLLK,224607.00,010125,,M,,M,1,16,1.7,,M*0F
$GNGMP,224607.00,,,,,DAAA,16,0.8,,,,*5C
$GPGMP,224607.00,,,,,,04,,,,1.8,123*75
$GLGMP,224607.00,,,,,,04,,,,,*7E
$GAGMP,224607.00,,,,,,04,,,,,*73
$GBGMP,224607.00,,,,,,04,,,,,*70
$PSSN,SNC,[0,341185000,2347]*4E
$GPZDA,224612.00,01,01,2025,,*62
$GPDTM,W84,,00.0000000,N,00.0000000,E,00.0000000,W84*5F
$GPRMC,224612.00,A,4742.4457781,N,01617.9732826,E,0.0,,010125,5.1,E,D*17
$GPGLL,4742.4457781,N,01617.9732826,E,224612.00,A,D*66
$GPGGA,224612.00,4742.4457781,N,01617.9732826,E,2,15,0.9,623.9185,M,43.2110,M,2.8,0123*4B
$GNGNS,224612.00,4742.4457781,N,01617.9732826,E,DAAA,15,0.9,623.9185,43.2110,,*5D
$GPGNS,224612.00,,,,,,04,,,,2.8,123*72
$GLGNS,224612.00,,,,,,03,,,,,*7D
$GAGNS,224612.00,,,,,,04,,,,,*77
$GBGNS,224612.00,,,,,,04,,,,,*74
$GPLLQ,224612.00,010125,,M,,M,1,15,3.075,,M*15
$GPVTG,,T,,M,0.01,N,0.01,K,D*26
$GPHDT,,T*1B
$GPTHS,,V*0E
$GPROT,,V*08
$PSSN,HRP,224612.00,010125,,,,,,,00,0,,*60
$PTNL,AVR,224612.00,,Yaw,,Tilt,,,,0,,00*36
$GPGSA,A,3,08,10,14,21,,,,,,,,,1.4,0.9,1.1*31
$GPGSA,A,3,69,75,85,,,,,,,,,,1.4,0.9,1.1*3E
$GPGSA,A,3,07,26,29,33,,,,,,,,,1.4,0.9,1.1*36
$GPGSA,A,3,27,28,30,41,,,,,,,,,1.4,0.9,1.1*37
$GPGST,224612.00,5.033,1.402,1.175,335.184,1.365,1.218,2.471*55
$GPGBS,224612.00,6.244,5.362,10.763,10,0.0001,-2.202,0.835*4A
$GPGRS,224612.00,1,-0.0,-2.2,-1.4,1.4,,,,,,,,*62
$GPGRS,224612.00,1,-2.7,13.2,1.4,,,,,,,,,*7C
$GPGRS,224612.00,1,1.5,-0.3,0.8,-0.0,,,,,,,,*40
$GPGRS,224612.00,1,0.3,-2.1,-1.8,-1.2,,,,,,,,*68
$GPGSV,4,1,16,21,77,317,43,03,21,237,36,22,10,326,,10,33,056,40*79
$GPGSV,4,2,16,14,16,307,36,27,26,164,25,32,48,090,44,08,54,192,51*7D
$GPGSV,4,3,16,01,50,292,,02,55,299,34,24,01,021,,17,02,321,28*79
$GPGSV,4,4,16,36,35,170,40,34,31,208,,49,34,195,36,61,03,257,*76
$GLGSV,3,1,09,69,72,092,40,70,27,195,33,83,10,118,,76,13,328,30*6F
$GLGSV,3,2,09,68,29,034,28,85,44,319,51,84,69,078,30,75,06,274,34*6A
$GLGSV,3,3,09,77,03,010,*5E
$GAGSV,3,1,10,26,72,067,44,24,11,327,32,23,14,226,,14,22,158,*61
$GAGSV,3,2,10,13,20,096,31,29,23,167,39,08,24,045,26,31,25,277,35*6F
$GAGSV,3,3,10,07,46,105,39,33,50,296,41*6F
$GBGSV,5,1,18,27,85,228,50,05,24,128,,14,14,043,21,60,10,109,*60
$GBGSV,5,2,18,32,26,206,35,06,10,083,,30,36,305,48,13,13,059,*6E
$GBGSV,5,3,18,16,11,079,,28,42,133,37,39,15,070,,33,39,052,33*60
$GBGSV,5,4,18,41,72,142,44,57,69,281,,09,06,095,,45,01,335,*64
$GBGSV,5,5,18,02,09,105,,08,04,057,*63
$GPGGA,224612.00,,,,,0,00,,,M,,M,,*49
$PTNL,GGK,224612.00,010125,4742.4457781,N,01617.9732826,E,1,15,1.4,EHT667.1296,M*4A
$GPGGQ,224612.00,010125,4742.4457781,N,01617.9732826,E,1,15,3.075,623.9185,M*39
$GPGFA,224612.00,13.331,20.261,1.402,1.175,335.184,2.471,,VVV*0B
$GPLLK,224612.00,010125,,M,,M,1,15,1.7,,M*08
$GNGMP,224612.00,,,,,DAAA,15,0.9,,,,*5A
$GPGMP,224612.00,,,,,,04,,,,2.8,123*72
$GLGMP,224612.00,,,,,,03,,,,,*7D
$GAGMP,224612.00,,,,,,04,,,,,*77
$GBGMP,224612.00,,,,,,04,,,,,*74
$PSSN,SNC,[0,341190000,2347]*4A
$GPZDA,224617.00,01,01,2025,,*67
$GPDTM,W84,,00.0000000,N,00.0000000,E,00.0000000,W84*5F
$GPRMC,224617.00,A,4742.4457767,N,01617.9732952,E,0.0,,010125,5.1,E,D*18
$GPGLL,4742.4457767,N,01617.9732952,E,224617.00,A,D*69
$GPGGA,224617.00,4742.4457767,N,01617.9732952,E,2,15,0.9,623.9158,M,43.2110,M,3.8,0123*45
$GNGNS,224617.00,4742.4457767,N,01617.9732952,E,DAAA,15,0.9,623.9158,43.2110,,*52
$GPGNS,224617.00,,,,,,04,,,,3.8,123*76
$GLGNS,224617.00,,,,,,03,,,,,*78
$GAGNS,224617.00,,,,,,04,,,,,*72
$GBGNS,224617.00,,,,,,04,,,,,*71
$GPLLQ,224617.00,010125,,M,,M,1,15,2.468,,M*19
$GPVTG,,T,,M,0.00,N,0.01,K,D*27
$GPHDT,,T*1B
$GPTHS,,V*0E
$GPROT,,V*08
$PSSN,HRP,224617.00,010125,,,,,,,00,0,,*65
$PTNL,AVR,224617.00,,Yaw,,Tilt,,,,0,,00*33
$GPGSA,A,3,08,10,14,21,,,,,,,,,1.4,0.9,1.0*30
$GPGSA,A,3,75,76,85,,,,,,,,,,1.4,0.9,1.0*31
$GPGSA,A,3,07,26,29,33,,,,,,,,,1.4,0.9,1.0*37
$GPGSA,A,3,27,28,30,41,,,,,,,,,1.4,0.9,1.0*36
$GPGST,224617.00,4.187,1.126,0.942,334.901,1.096,0.978,1.983*55
$GPGBS,224617.00,6.362,5.479,11.021,10,0.0001,-1.982,0.851*45
$GPGRS,224617.00,1,-0.1,-2.0,1.4,0.6,,,,,,,,*4A
$GPGRS,224617.00,1,3.2,9.5,1.2,,,,,,,,,*6A
$GPGRS,224617.00,1,2.1,-0.2,-0.3,-0.2,,,,,,,,*67
$GPGRS,224617.00,1,-0.2,4.7,-2.6,0.1,,,,,,,,*4E
$GPGSV,4,1,16,21,77,317,44,03,21,237,28,22,10,326,,10,33,056,40*71
$GPGSV,4,2,16,14,16,307,37,27,26,164,24,32,48,090,45,08,54,192,50*7D
$GPGSV,4,3,16,01,50,292,,02,55,299,29,24,01,020,,17,02,321,*7E
$GPGSV,4,4,16,36,35,170,41,34,31,208,,49,34,195,35,61,03,257,*74
$GLGSV,3,1,09,69,72,092,32,70,27,195,33,76,13,328,36,68,29,034,28*66
$GLGSV,3,2,09,85,44,319,52,84,69,078,30,83,10,118,,77,03,010,*63
$GLGSV,3,3,09,75,06,274,35*5F
$GAGSV,3,1,10,26,72,067,45,24,11,327,30,23,14,226,,14,22,158,*62
$GAGSV,3,2,10,13,20,096,28,29,23,167,38,08,24,045,29,31,25,277,35*69
$GAGSV,3,3,10,07,46,105,39,33,50,296,40*6E
$GBGSV,5,1,18,27,85,228,51,05,24,128,,14,14,043,24,60,10,109,*64
$GBGSV,5,2,18,32,26,206,34,06,10,083,,30,36,305,47,13,13,059,*60
$GBGSV,5,3,18,16,11,079,,28,42,133,38,39,15,070,,33,38,052,33*6E
$GBGSV,5,4,18,41,72,142,46,57,69,281,,09,06,095,,45,01,335,*66
$GBGSV,5,5,18,02,09,105,,08,04,057,*63
$GPGGA,224617.00,,,,,0,00,,,M,,M,,*4C
$PTNL,GGK,224617.00,010125,4742.4457767,N,01617.9732952,E,1,15,1.4,EHT667.1268,M*44
$GPGGQ,224617.00,010125,4742.4457767,N,01617.9732952,E,1,15,2.468,623.9158,M*3F
$GPGFA,224617.00,10.709,16.260,1.126,0.942,334.901,1.983,,VVV*0F
$GPLLK,224617.00,010125,,M,,M,1,15,1.6,,M*0C
$GNGMP,224617.00,,,,,DAAA,15,0.9,,,,*5F
$GPGMP,224617.00,,,,,,04,,,,3.8,123*76
$GLGMP,224617.00,,,,,,03,,,,,*78
$GAGMP,224617.00,,,,,,04,,,,,*72
$GBGMP,224617.00,,,,,,04,,,,,*71
$PSSN,SNC,[0,341195000,2347]*4F
$GPZDA,224622.00,01,01,2025,,*61
$GPDTM,W84,,00.0000000,N,00.0000000,E,00.0000000,W84*5F
$GPRMC,224622.00,A,4742.4457731,N,01617.9733124,E,0.0,,010125,5.1,E,D*15
$GPGLL,4742.4457731,N,01617.9733124,E,224622.00,A,D*64
$GPGGA,224622.00,4742.4457731,N,01617.9733124,E,2,15,0.8,623.9241,M,43.2110,M,1.8,0123*40
$GNGNS,224622.00,4742.4457731,N,01617.9733124,E,DAAA,15,0.8,623.9241,43.2110,,*55
$GPGNS,224622.00,,,,,,04,,,,1.8,123*72
$GLGNS,224622.00,,,,,,02,,,,,*7F
$GAGNS,224622.00,,,,,,04,,,,,*74
$GBGNS,224622.00,,,,,,05,,,,,*76
$GPLLQ,224622.00,010125,,M,,M,1,15,3.007,,M*13
$GPVTG,,T,,M,0.00,N,0.00,K,D*26
$GPHDT,,T*1B
$GPTHS,,V*0E
$GPROT,,V*08
$PSSN,HRP,224622.00,010125,,,,,,,00,0,,*63
$PTNL,AVR,224622.00,,Yaw,,Tilt,,,,0,,00*35
$GPGSA,A,3,08,10,14,21,,,,,,,,,1.4,0.8,1.1*30
$GPGSA,A,3,76,85,,,,,,,,,,,1.4,0.8,1.1*33
$GPGSA,A,3,07,26,29,33,,,,,,,,,1.4,0.8,1.1*37
$GPGSA,A,3,27,28,30,32,41,,,,,,,,1.4,0.8,1.1*37
$GPGST,224622.00,6.273,1.362,1.130,334.875,1.323,1.175,2.431*5B
$GPGBS,224622.00,6.000,5.263,11.321,10,0.0001,-1.850,0.811*40
$GPGRS,224622.00,1,-0.6,-1.9,1.7,0.7,,,,,,,,*43
$GPGRS,224622.00,1,9.7,1.1,,,,,,,,,,*42
$GPGRS,224622.00,1,1.5,-0.8,-0.9,-0.6,,,,,,,,*62
$GPGRS,224622.00,1,-0.3,6.5,-2.6,12.6,1.1,,,,,,,*53
$GPGSV,4,1,16,21,77,317,44,03,21,237,27,22,10,326,,10,33,056,39*70
$GPGSV,4,2,16,14,16,306,39,27,26,164,30,32,48,090,42,08,54,192,50*70
$GPGSV,4,3,16,01,50,292,,02,55,299,,24,01,020,,17,02,321,*75
$GPGSV,4,4,16,36,35,170,41,34,31,208,,49,34,195,35,61,03,257,*74
$GLGSV,3,1,09,69,72,092,35,70,27,195,32,76,13,328,36,68,29,034,24*6C
$GLGSV,3,2,09,85,44,319,52,84,69,078,31,83,10,118,,77,03,010,*62
$GLGSV,3,3,09,75,06,273,32*5F
$GAGSV,3,1,10,26,72,067,44,24,11,327,27,23,14,226,,14,22,158,*65
$GAGSV,3,2,10,13,20,096,28,29,23,167,37,08,24,045,31,31,25,277,33*69
$GAGSV,3,3,10,07,46,105,40,33,50,296,40*60
$GBGSV,5,1,18,27,85,227,52,05,24,128,,14,14,043,25,60,10,109,*69
$GBGSV,5,2,18,32,26,206,34,06,10,083,,30,36,305,48,13,13,059,*6F
$GBGSV,5,3,18,16,11,079,,28,42,133,37,39,15,070,,33,38,052,35*67
$GBGSV,5,4,18,41,72,142,46,57,69,281,,09,06,095,,45,01,335,*66
$GBGSV,5,5,18,02,09,105,,08,04,057,*63
$GPGGA,224622.00,,,,,0,00,,,M,,M,,*4A
$PTNL,GGK,224622.00,010125,4742.4457731,N,01617.9733124,E,1,15,1.4,EHT667.1351,M*42
$GPGGQ,224622.00,010125,4742.4457731,N,01617.9733124,E,1,15,3.007,623.9241,M*35
$GPGFA,224622.00,12.952,19.936,1.362,1.130,334.875,2.431,,VVV*07
$GPLLK,224622.00,010125,,M,,M,1,15,1.6,,M*0A
$GNGMP,224622.00,,,,,DAAA,15,0.8,,,,*58
$GPGMP,224622.00,,,,,,04,,,,1.8,123*72
$GLGMP,224622.00,,,,,,02,,,,,*7F
$GAGMP,224622.00,,,,,,04,,,,,*74
$GBGMP,224622.00,,,,,,05,,,,,*76
$PSSN,SNC,[0,341200000,2347]*40
$GPZDA,224627.00,01,01,2025,,*64
$GPDTM,W84,,00.0000000,N,00.0000000,E,00.0000000,W84*5F
$GPRMC,224627.00,A,4742.4457715,N,01617.9733311,E,0.0,,010125,5.1,E,D*12
$GPGLL,4742.4457715,N,01617.9733311,E,224627.00,A,D*63
$GPGGA,224627.00,4742.4457715,N,01617.9733311,E,2,17,0.8,623.9304,M,43.2111,M,1.8,0123*44
$GNGNS,224627.00,4742.4457715,N,01617.9733311,E,DAAA,17,0.8,623.9304,43.2111,,*51
$GPGNS,224627.00,,,,,,04,,,,1.8,123*77
$GLGNS,224627.00,,,,,,02,,,,,*7A
$GAGNS,224627.00,,,,,,05,,,,,*70
$GBGNS,224627.00,,,,,,06,,,,,*70
$GPLLQ,224627.00,010125,,M,,M,1,17,3.549,,M*1B
$GPVTG,,T,,M,0.00,N,0.00,K,D*26
$GPHDT,,T*1B
$GPTHS,,V*0E
$GPROT,,V*08
$PSSN,HRP,224627.00,010125,,,,,,,00,0,,*66
$PTNL,AVR,224627.00,,Yaw,,Tilt,,,,0,,00*30
$GPGSA,A,3,08,10,14,21,,,,,,,,,1.3,0.8,1.0*36
$GPGSA,A,3,69,85,,,,,,,,,,,1.3,0.8,1.0*3B
$GPGSA,A,3,07,24,26,29,33,,,,,,,,1.3,0.8,1.0*37
$GPGSA,A,3,14,27,28,30,33,41,,,,,,,1.3,0.8,1.0*35
$GPGST,224627.00,10.138,1.592,1.331,334.539,1.547,1.383,2.879*65
$GPGBS,224627.00,6.096,5.253,10.718,33,0.0001,26.014,8.575*50
$GPGRS,224627.00,1,-0.6,-1.9,2.4,0.3,,,,,,,,*42
$GPGRS,224627.00,1,-1.6,0.9,,,,,,,,,,*6A
$GPGRS,224627.00,1,1.5,-4.9,-0.9,-0.7,0.7,,,,,,,*4A
$GPGRS,224627.00,1,16.5,-0.2,5.4,-2.6,26.0,-0.2,,,,,,*67
$GPGSV,4,1,16,21,77,317,45,03,21,237,,22,10,326,,10,33,056,40*7A
$GPGSV,4,2,16,14,16,306,39,27,26,164,32,32,48,090,39,08,54,192,50*7E
$GPGSV,4,3,16,01,50,292,,02,55,299,36,24,01,020,,17,02,321,*70
$GPGSV,4,4,16,36,35,170,41,34,31,208,,49,34,195,37,61,03,257,*76
$GLGSV,3,1,09,69,72,092,41,70,27,195,32,76,13,328,35,68,29,034,26*6E
$GLGSV,3,2,09,85,44,319,52,84,69,078,31,83,10,118,,77,03,010,*62
$GLGSV,3,3,09,75,06,273,30*5D
$GAGSV,3,1,10,26,72,067,46,24,11,327,25,23,14,226,,14,22,158,*65
$GAGSV,3,2,10,13,20,096,23,29,23,167,36,08,24,045,31,31,25,277,35*65
$GAGSV,3,3,10,07,46,105,40,33,50,296,41*61
$GBGSV,5,1,18,27,85,227,53,05,24,128,,14,14,043,25,60,10,109,*68
$GBGSV,5,2,18,32,26,206,33,06,10,083,,30,36,305,48,13,13,059,26*6C
$GBGSV,5,3,18,16,11,079,,28,42,133,37,39,15,070,,33,38,052,35*67
$GBGSV,5,4,18,41,72,142,47,57,69,281,,09,07,095,,45,01,335,*66
$GBGSV,5,5,18,02,09,105,,08,04,057,*63
$GPGGA,224627.00,,,,,0,00,,,M,,M,,*4F
$PTNL,GGK,224627.00,010125,4742.4457715,N,01617.9733311,E,1,17,1.3,EHT667.1414,M*46
$GPGGQ,224627.00,010125,4742.4457715,N,01617.9733311,E,1,17,3.549,623.9304,M*3F
$GPGFA,224627.00,15.135,23.604,1.592,1.331,334.539,2.879,,VVV*04
$GPLLK,224627.00,010125,,M,,M,1,17,1.5,,M*0E
$GNGMP,224627.00,,,,,DAAA,17,0.8,,,,*5F
$GPGMP,224627.00,,,,,,04,,,,1.8,123*77
$GLGMP,224627.00,,,,,,02,,,,,*7A
$GAGMP,224627.00,,,,,,05,,,,,*70
$GBGMP,224627.00,,,,,,06,,,,,*70
$PSSN,SNC,[0,341205000,2347]*45
$GPZDA,224632.00,01,01,2025,,*60
$GPDTM,W84,,00.0000000,N,00.0000000,E,00.0000000,W84*5F
$GPRMC,224632.00,A,4742.4457664,N,01617.9733473,E,0.0,,010125,5.1,E,D*12
$GPGLL,4742.4457664,N,01617.9733473,E,224632.00,A,D*63
$GPGGA,224632.00,4742.4457664,N,01617.9733473,E,2,15,0.9,623.9532,M,43.2111,M,2.6,0123*49
$GNGNS,224632.00,4742.4457664,N,01617.9733473,E,DAAA,15,0.9,623.9532,43.2111,,*51
$GPGNS,224632.00,,,,,,05,,,,2.6,123*7F
$GLGNS,224632.00,,,,,,02,,,,,*7E
$GAGNS,224632.00,,,,,,04,,,,,*75
$GBGNS,224632.00,,,,,,04,,,,,*76
$GPLLQ,224632.00,010125,,M,,M,1,15,2.205,,M*13
$GPVTG,,T,,M,0.01,N,0.01,K,D*26
$GPHDT,,T*1B
$GPTHS,,V*0E
$GPROT,,V*08
$PSSN,HRP,224632.00,010125,,,,,,,00,0,,*62
$PTNL,AVR,224632.00,,Yaw,,Tilt,,,,0,,00*34
$GPGSA,A,3,08,10,14,21,27,,,,,,,,1.5,0.9,1.2*36
$GPGSA,A,3,69,85,,,,,,,,,,,1.5,0.9,1.2*3E
$GPGSA,A,3,07,26,29,33,,,,,,,,,1.5,0.9,1.2*34
$GPGSA,A,3,27,28,30,41,,,,,,,,,1.5,0.9,1.2*35
$GPGST,224632.00,2.594,0.956,0.902,327.493,0.941,0.918,1.771*5B
$GPGBS,224632.00,3.536,4.994,8.141,14,0.0001,2.267,0.946*5D
$GPGRS,224632.00,1,-0.6,-1.3,2.3,0.1,-0.6,,,,,,,*4C
$GPGRS,224632.00,1,0.7,0.1,,,,,,,,,,*4B
$GPGRS,224632.00,1,1.6,-0.5,-0.3,1.4,,,,,,,,*49
$GPGRS,224632.00,1,-0.0,5.9,-2.5,-0.5,,,,,,,,*6E
