$GPZDA,044442.00,01,01,2025,,*61
$GPDTM,W84,,00.0000000,N,00.0000000,E,00.0000000,W84*5F
$GPRMC,044442.00,A,4742.4463560,N,01617.9728748,E,0.0,,010125,5.1,E,D*12
$GPGLL,4742.4463560,N,01617.9728748,E,044442.00,A,D*63
$GPGGA,044442.00,4742.4463560,N,01617.9728748,E,2,20,0.8,625.3095,M,43.2111,M,2.8,0123*44
$GNGNS,044442.00,4742.4463560,N,01617.9728748,E,DAAA,20,0.8,625.3095,43.2111,,*52
$GPGNS,044442.00,,,,,,05,,,,2.8,123*70
$GLGNS,044442.00,,,,,,05,,,,,*78
$GAGNS,044442.00,,,,,,05,,,,,*75
$GBGNS,044442.00,,,,,,05,,,,,*76
$GPLLQ,044442.00,010125,,M,,M,1,20,7.406,,M*14
$GPVTG,,T,,M,0.00,N,0.01,K,D*27
$GPHDT,,T*1B
$GPTHS,,V*0E
$GPROT,,V*08
$PSSN,HRP,044442.00,010125,,,,,,,00,0,,*63
$PTNL,AVR,044442.00,,Yaw,,Tilt,,,,0,,00*35
$GPGSA,A,3,04,06,07,11,20,,,,,,,,1.5,0.8,1.3*3B
$GPGSA,A,3,71,72,80,87,88,,,,,,,,1.5,0.8,1.3*38
$GPGSA,A,3,03,05,09,15,34,,,,,,,,1.5,0.8,1.3*30
$GPGSA,A,3,12,19,21,22,36,,,,,,,,1.5,0.8,1.3*31
$GPGST,044442.00,6.314,2.168,0.953,350.178,2.142,1.009,7.017*53
$GPGBS,044442.00,8.482,4.296,21.165,11,0.0001,1.854,0.718*64
$GPGRS,044442.00,1,-1.4,-0.7,-0.3,1.9,1.1,,,,,,,*46
$GPGRS,044442.00,1,-6.1,10.8,-9.1,-11.7,6.5,,,,,,,*4D
$GPGRS,044442.00,1,1.9,1.7,0.3,-1.0,0.4,,,,,,,*47
$GPGRS,044442.00,1,8.8,-1.1,1.2,2.8,0.8,,,,,,,*4E
$GPGSV,4,1,15,09,68,058,41,03,10,128,,30,28,203,27,20,31,307,45*76
$GPGSV,4,2,15,16,18,059,33,11,41,286,44,06,43,232,47,04,39,070,37*7C
$GPGSV,4,3,15,07,61,174,44,29,02,344,,26,07,031,,36,35,170,42*70
$GPGSV,4,4,15,34,31,208,,49,34,195,35,61,03,257,*47
$GLGSV,3,1,09,71,67,022,35,72,38,298,38,86,22,227,30,88,14,339,38*64
$GLGSV,3,2,09,70,30,083,29,74,17,161,,87,37,280,38,80,33,043,42*69
$GLGSV,3,3,09,73,45,118,33*51
$GAGSV,3,1,11,05,78,295,45,36,21,187,31,06,19,072,32,24,13,128,*60
$GAGSV,3,2,11,31,22,077,33,15,31,311,44,03,26,261,35,09,42,068,45*6A
$GAGSV,3,3,11,34,50,243,45,16,03,150,,23,09,028,*5C
$GBGSV,6,1,22,22,60,301,44,37,11,036,,20,12,102,,16,17,044,25*6D
$GBGSV,6,2,22,05,22,129,,06,19,046,24,36,36,156,43,44,19,264,32*66
$GBGSV,6,3,22,12,22,290,35,09,33,050,31,58,37,063,,48,32,099,*6F
$GBGSV,6,4,22,46,45,084,,19,59,089,48,11,02,335,,39,06,044,*64
$GBGSV,6,5,22,21,10,288,35,45,00,189,,35,06,221,,34,08,314,*67
$GBGSV,6,6,22,02,06,107,,60,08,111,*66
$GPGGA,044442.00,,,,,0,00,,,M,,M,,*4A
$PTNL,GGK,044442.00,010125,4742.4463560,N,01617.9728748,E,1,20,1.5,EHT668.5205,M*49
$GPGGQ,044442.00,010125,4742.4463560,N,01617.9728748,E,1,20,7.406,625.3095,M*32
$GPGFA,044442.00,20.612,57.541,2.168,0.953,350.178,7.017,,VVV*0F
$GPLLK,044442.00,010125,,M,,M,1,20,1.7,,M*0D
$GNGMP,044442.00,,,,,DAAA,20,0.8,,,,*5E
$GPGMP,044442.00,,,,,,05,,,,2.8,123*70
$GLGMP,044442.00,,,,,,05,,,,,*78
$GAGMP,044442.00,,,,,,05,,,,,*75
$GBGMP,044442.00,,,,,,05,,,,,*76
$PSSN,SNC,[0,276300000,2347]*44
$GPZDA,044447.00,01,01,2025,,*64
$GPDTM,W84,,00.0000000,N,00.0000000,E,00.0000000,W84*5F
$GPRMC,044447.00,A,4742.4463495,N,01617.9728965,E,0.0,,010125,5.1,E,D*1D
$GPGLL,4742.4463495,N,01617.9728965,E,044447.00,A,D*6C
$GPGGA,044447.00,4742.4463495,N,01617.9728965,E,2,18,0.8,625.3038,M,43.2111,M,3.8,0123*46
$GNGNS,044447.00,4742.4463495,N,01617.9728965,E,DAAA,18,0.8,625.3038,43.2111,,*51
$GPGNS,044447.00,,,,,,05,,,,3.8,123*74
$GLGNS,044447.00,,,,,,05,,,,,*7D
$GAGNS,044447.00,,,,,,04,,,,,*71
$GBGNS,044447.00,,,,,,04,,,,,*72
$GPLLQ,044447.00,010125,,M,,M,1,18,6.728,,M*14
$GPVTG,,T,,M,0.01,N,0.01,K,D*26
$GPHDT,,T*1B
$GPTHS,,V*0E
$GPROT,,V*08
$PSSN,HRP,044447.00,010125,,,,,,,00,0,,*66
$PTNL,AVR,044447.00,,Yaw,,Tilt,,,,0,,00*30
$GPGSA,A,3,04,06,07,11,20,,,,,,,,1.6,0.8,1.4*3F
$GPGSA,A,3,71,73,80,87,88,,,,,,,,1.6,0.8,1.4*3D
$GPGSA,A,3,05,09,15,34,,,,,,,,,1.6,0.8,1.4*37
$GPGSA,A,3,12,19,22,36,,,,,,,,,1.6,0.8,1.4*36
$GPGST,044447.00,5.583,1.948,0.838,350.721,1.927,0.885,6.385*5E
$GPGBS,044447.00,9.090,4.386,23.352,11,0.0001,1.752,0.735*65
$GPGRS,044447.00,1,-1.1,-1.0,-0.0,1.8,0.4,,,,,,,*46
$GPGRS,044447.00,1,-5.1,2.6,-7.9,-9.0,1.8,,,,,,,*44
$GPGRS,044447.00,1,1.4,-0.2,-1.6,-0.0,,,,,,,,*64
$GPGRS,044447.00,1,11.9,-2.3,2.5,0.1,,,,,,,,*5A
$GPGSV,4,1,15,09,68,058,42,03,10,128,,30,28,203,25,20,31,307,46*74
$GPGSV,4,2,15,16,18,059,33,11,41,286,43,06,43,232,47,04,39,070,37*7B
$GPGSV,4,3,15,07,61,174,43,29,02,344,,26,07,031,,36,35,170,41*74
$GPGSV,4,4,15,34,31,208,,49,34,195,35,61,03,257,*47
$GLGSV,3,1,09,71,67,022,37,72,38,298,34,86,22,227,34,88,14,339,38*6E
$GLGSV,3,2,09,70,30,083,30,74,17,161,,87,37,280,40,80,33,043,44*68
$GLGSV,3,3,09,73,45,118,40*55
$GAGSV,3,1,11,05,78,295,45,36,21,187,31,06,19,072,33,24,13,128,*61
$GAGSV,3,2,11,31,22,077,33,15,31,311,44,03,27,261,34,09,42,068,45*6A
$GAGSV,3,3,11,34,50,243,45,16,03,150,,23,09,028,*5C
$GBGSV,6,1,22,22,60,301,44,37,11,036,,20,12,102,,16,16,044,27*6E
$GBGSV,6,2,22,05,22,129,,06,19,046,23,36,36,156,42,44,19,264,33*61
$GBGSV,6,3,22,12,22,290,36,09,33,050,31,58,37,063,,48,32,099,*6C
$GBGSV,6,4,22,46,45,084,,19,59,089,47,11,02,335,,39,06,044,*6B
$GBGSV,6,5,22,21,10,288,35,45,01,189,,35,06,221,,34,08,314,*66
$GBGSV,6,6,22,02,06,107,,60,08,111,*66
$GPGGA,044447.00,,,,,0,00,,,M,,M,,*4F
$PTNL,GGK,044447.00,010125,4742.4463495,N,01617.9728965,E,1,18,1.6,EHT668.5148,M*44
$GPGGQ,044447.00,010125,4742.4463495,N,01617.9728965,E,1,18,6.728,625.3038,M*3F
$GPGFA,044447.00,18.517,52.355,1.948,0.838,350.721,6.385,,VVV*07
$GPLLK,044447.00,010125,,M,,M,1,18,1.9,,M*0D
$GNGMP,044447.00,,,,,DAAA,18,0.8,,,,*50
$GPGMP,044447.00,,,,,,05,,,,3.8,123*74
$GLGMP,044447.00,,,,,,05,,,,,*7D
$GAGMP,044447.00,,,,,,04,,,,,*71
$GBGMP,044447.00,,,,,,04,,,,,*72
$PSSN,SNC,[0,276305000,2347]*41
$GPZDA,044452.00,01,01,2025,,*60
$GPDTM,W84,,00.0000000,N,00.0000000,E,00.0000000,W84*5F
$GPRMC,044452.00,A,4742.4463457,N,01617.9729170,E,0.0,,010125,5.1,E,D*1A
$GPGLL,4742.4463457,N,01617.9729170,E,044452.00,A,D*6B
$GPGGA,044452.00,4742.4463457,N,01617.9729170,E,2,21,0.7,625.3008,M,43.2111,M,1.5,0123*48
$GNGNS,044452.00,4742.4463457,N,01617.9729170,E,DAAA,21,0.7,625.3008,43.2111,,*50
$GPGNS,044452.00,,,,,,06,,,,1.5,123*7C
$GLGNS,044452.00,,,,,,06,,,,,*7A
$GAGNS,044452.00,,,,,,04,,,,,*75
$GBGNS,044452.00,,,,,,05,,,,,*77
$GPLLQ,044452.00,010125,,M,,M,1,21,4.266,,M*17
$GPVTG,,T,,M,0.00,N,0.01,K,D*27
$GPHDT,,T*1B
$GPTHS,,V*0E
$GPROT,,V*08
$PSSN,HRP,044452.00,010125,,,,,,,00,0,,*62
$PTNL,AVR,044452.00,,Yaw,,Tilt,,,,0,,00*34
$GPGSA,A,3,04,06,07,09,11,20,,,,,,,1.4,0.7,1.2*3D
$GPGSA,A,3,71,72,80,86,87,88,,,,,,,1.4,0.7,1.2*39
$GPGSA,A,3,05,09,15,34,,,,,,,,,1.4,0.7,1.2*3C
$GPGSA,A,3,12,19,22,36,44,,,,,,,,1.4,0.7,1.2*3D
$GPGST,044452.00,5.924,1.428,0.904,337.823,1.366,0.995,3.917*59
$GPGBS,044452.00,3.795,4.194,12.998,11,0.0001,2.347,0.695*6E
$GPGRS,044452.00,1,-1.1,-1.0,-0.1,-0.1,2.3,0.3,,,,,,*4E
$GPGRS,044452.00,1,-2.3,8.0,-6.0,4.2,-8.7,-0.9,,,,,,*42
$GPGRS,044452.00,1,1.7,-0.2,-1.6,-0.1,,,,,,,,*62
$GPGRS,044452.00,1,14.4,-2.6,2.3,0.4,-7.7,,,,,,,*53
$GPGSV,4,1,15,09,68,058,43,03,10,128,,30,28,203,25,20,31,307,46*75
$GPGSV,4,2,15,16,18,058,28,11,41,286,42,06,43,232,47,04,39,070,38*7E
$GPGSV,4,3,15,07,62,173,43,29,02,344,,26,07,031,,36,35,170,41*70
$GPGSV,4,4,15,34,31,208,,49,34,195,35,61,03,257,*47
$GLGSV,3,1,09,71,67,022,41,72,38,298,35,86,22,227,37,88,14,339,38*6D
$GLGSV,3,2,09,70,30,083,30,74,17,161,,87,37,280,39,80,33,043,45*67
$GLGSV,3,3,09,73,45,118,31*53
$GAGSV,3,1,11,05,78,295,45,36,21,187,30,06,19,072,33,24,13,128,*60
$GAGSV,3,2,11,31,22,077,23,15,31,311,43,03,27,261,33,09,42,068,45*6B
$GAGSV,3,3,11,34,50,243,44,16,03,150,,23,09,028,*5D
$GBGSV,6,1,22,22,60,301,42,37,11,036,,20,12,102,,16,16,044,33*6D
$GBGSV,6,2,22,05,22,129,,06,19,046,25,36,36,156,41,44,18,264,35*63
$GBGSV,6,3,22,12,22,290,36,09,33,050,31,58,37,063,,48,32,099,*6C
$GBGSV,6,4,22,46,45,084,,19,59,089,47,11,02,335,,39,06,044,*6B
$GBGSV,6,5,22,21,10,288,35,45,01,189,,35,06,221,,34,09,314,*67
$GBGSV,6,6,22,02,06,107,,60,08,111,*66
$GPGGA,044452.00,,,,,0,00,,,M,,M,,*4B
$PTNL,GGK,044452.00,010125,4742.4463457,N,01617.9729170,E,1,21,1.4,EHT668.5118,M*4E
$GPGGQ,044452.00,010125,4742.4463457,N,01617.9729170,E,1,21,4.266,625.3008,M*3C
$GPGFA,044452.00,13.580,32.117,1.428,0.904,337.823,3.917,,VVV*09
$GPLLK,044452.00,010125,,M,,M,1,21,1.6,,M*0C
$GNGMP,044452.00,,,,,DAAA,21,0.7,,,,*51
$GPGMP,044452.00,,,,,,06,,,,1.5,123*7C
$GLGMP,044452.00,,,,,,06,,,,,*7A
$GAGMP,044452.00,,,,,,04,,,,,*75
$GBGMP,044452.00,,,,,,05,,,,,*77
$PSSN,SNC,[0,276310000,2347]*45
$GPZDA,044457.00,01,01,2025,,*65
$GPDTM,W84,,00.0000000,N,00.0000000,E,00.0000000,W84*5F
$GPRMC,044457.00,A,4742.4463376,N,01617.9729398,E,0.0,,010125,5.1,E,D*1F
$GPGLL,4742.4463376,N,01617.9729398,E,044457.00,A,D*6E
$GPGGA,044457.00,4742.4463376,N,01617.9729398,E,2,19,0.7,625.2776,M,43.2111,M,2.7,0123*48
$GNGNS,044457.00,4742.4463376,N,01617.9729398,E,DAAA,19,0.7,625.2776,43.2111,,*51
$GPGNS,044457.00,,,,,,06,,,,2.7,123*78
$GLGNS,044457.00,,,,,,05,,,,,*7C
$GAGNS,044457.00,,,,,,04,,,,,*70
$GBGNS,044457.00,,,,,,04,,,,,*73
$GPLLQ,044457.00,010125,,M,,M,1,19,4.589,,M*1F
$GPVTG,,T,,M,0.00,N,0.00,K,D*26
$GPHDT,,T*1B
$GPTHS,,V*0E
$GPROT,,V*08
$PSSN,HRP,044457.00,010125,,,,,,,00,0,,*67
$PTNL,AVR,044457.00,,Yaw,,Tilt,,,,0,,00*31
$GPGSA,A,3,04,06,07,09,11,20,,,,,,,1.6,0.7,1.4*39
$GPGSA,A,3,71,72,80,86,87,,,,,,,,1.6,0.7,1.4*3D
$GPGSA,A,3,05,09,15,34,,,,,,,,,1.6,0.7,1.4*38
$GPGSA,A,3,12,19,22,36,,,,,,,,,1.6,0.7,1.4*39
$GPGST,044457.00,4.922,1.528,0.969,337.939,1.462,1.066,4.217*50
$GPGBS,044457.00,4.012,4.345,13.599,11,0.0001,2.592,0.723*64
$GPGRS,044457.00,1,-1.6,-1.2,0.1,0.3,2.6,-0.2,,,,,,*65
$GPGRS,044457.00,1,-2.5,8.3,-5.8,0.5,-11.5,,,,,,,*7A
$GPGRS,044457.00,1,1.1,-0.6,-1.6,-0.1,,,,,,,,*65
$GPGRS,044457.00,1,-4.7,-3.0,1.9,0.3,,,,,,,,*43
$GPGSV,4,1,15,09,68,058,44,03,10,128,19,30,28,203,22,20,31,307,46*7D
$GPGSV,4,2,15,16,18,058,20,11,41,285,43,06,43,232,48,04,39,070,39*7A
$GPGSV,4,3,15,07,62,173,41,29,02,344,,26,07,031,,36,35,170,41*72
$GPGSV,4,4,15,34,31,208,,49,34,195,35,61,03,257,*47
$GLGSV,3,1,09,71,67,022,44,72,38,298,39,86,22,227,41,88,14,339,28*64
$GLGSV,3,2,09,70,30,083,29,74,17,161,,87,37,280,42,80,33,043,46*60
$GLGSV,3,3,09,73,45,118,34*56
$GAGSV,3,1,11,05,78,295,45,36,21,187,30,06,19,072,32,24,13,128,*61
$GAGSV,3,2,11,31,22,077,26,15,31,311,42,03,27,261,29,09,42,068,45*64
$GAGSV,3,3,11,34,50,243,45,16,03,150,,23,09,028,*5C
$GBGSV,6,1,22,22,60,301,41,37,11,036,,20,12,102,,16,16,044,33*6E
$GBGSV,6,2,22,05,22,129,,06,19,046,26,36,36,156,40,44,18,264,35*61
$GBGSV,6,3,22,12,22,290,37,09,33,050,31,58,37,063,,48,32,099,*6D
$GBGSV,6,4,22,46,45,084,,19,59,089,47,11,02,335,,39,06,044,*6B
$GBGSV,6,5,22,21,10,288,29,45,01,189,,35,06,221,,34,09,314,*6A
$GBGSV,6,6,22,02,06,107,,60,08,111,*66
$GPGGA,044457.00,,,,,0,00,,,M,,M,,*4E
$PTNL,GGK,044457.00,010125,4742.4463376,N,01617.9729398,E,1,19,1.6,EHT668.4886,M*4D
$GPGGQ,044457.00,010125,4742.4463376,N,01617.9729398,E,1,19,4.589,625.2776,M*3B
$GPGFA,044457.00,14.525,34.579,1.528,0.969,337.939,4.217,,VVV*02
$GPLLK,044457.00,010125,,M,,M,1,19,1.9,,M*0D
$GNGMP,044457.00,,,,,DAAA,19,0.7,,,,*5F
$GPGMP,044457.00,,,,,,06,,,,2.7,123*78
$GLGMP,044457.00,,,,,,05,,,,,*7C
$GAGMP,044457.00,,,,,,04,,,,,*70
$GBGMP,044457.00,,,,,,04,,,,,*73
$PSSN,SNC,[0,276315000,2347]*40
$GPZDA,044502.00,01,01,2025,,*64
$GPDTM,W84,,00.0000000,N,00.0000000,E,00.0000000,W84*5F
$GPRMC,044502.00,A,4742.4463338,N,01617.9729577,E,0.0,,010125,5.1,E,D*13
$GPGLL,4742.4463338,N,01617.9729577,E,044502.00,A,D*62
$GPGGA,044502.00,4742.4463338,N,01617.9729577,E,2,20,0.7,625.2640,M,43.2111,M,3.7,0123*4B
$GNGNS,044502.00,4742.4463338,N,01617.9729577,E,DAAA,20,0.7,625.2640,43.2111,,*53
$GPGNS,044502.00,,,,,,06,,,,3.7,123*78
$GLGNS,044502.00,,,,,,06,,,,,*7E
$GAGNS,044502.00,,,,,,04,,,,,*71
$GBGNS,044502.00,,,,,,04,,,,,*72
$GPLLQ,044502.00,010125,,M,,M,1,20,3.973,,M*1A
$GPVTG,,T,,M,0.00,N,0.00,K,D*26
$GPHDT,,T*1B
$GPTHS,,V*0E
$GPROT,,V*08
$PSSN,HRP,044502.00,010125,,,,,,,00,0,,*66
$PTNL,AVR,044502.00,,Yaw,,Tilt,,,,0,,00*30
$GPGSA,A,3,04,06,07,09,11,20,,,,,,,1.5,0.7,1.4*3A
$GPGSA,A,3,71,72,73,80,86,87,,,,,,,1.5,0.7,1.4*3A
$GPGSA,A,3,05,09,15,34,,,,,,,,,1.5,0.7,1.4*3B
$GPGSA,A,3,12,19,22,36,,,,,,,,,1.5,0.7,1.4*3A
$GPGST,044502.00,4.618,1.318,0.840,338.677,1.265,0.917,3.652*5F
$GPGBS,044502.00,4.139,4.384,13.864,11,0.0001,2.053,0.739*6C
$GPGRS,044502.00,1,-1.7,-0.8,-0.1,0.4,2.1,-0.2,,,,,,*43
$GPGRS,044502.00,1,-1.3,11.8,1.5,-4.2,2.5,-8.6,,,,,,*55
$GPGRS,044502.00,1,0.8,-0.7,-1.3,0.1,,,,,,,,*45
$GPGRS,044502.00,1,-3.6,-3.4,0.8,0.3,,,,,,,,*40
$GPGSV,4,1,15,09,68,058,44,03,10,128,,30,28,203,28,20,31,307,45*7C
$GPGSV,4,2,15,16,18,058,,11,41,285,43,06,43,232,49,04,39,070,40*77
$GPGSV,4,3,15,07,62,173,37,29,02,343,,26,07,031,,36,35,170,41*74
$GPGSV,4,4,15,34,31,208,,49,34,195,35,61,03,257,*47
$GLGSV,3,1,09,71,67,023,46,72,38,298,40,86,22,227,42,88,14,339,39*6A
$GLGSV,3,2,09,70,30,083,30,74,17,161,,87,37,280,43,80,33,043,47*68
$GLGSV,3,3,09,73,45,118,36*54
$GAGSV,3,1,11,05,78,295,45,36,21,187,27,06,19,072,30,24,13,128,*65
$GAGSV,3,2,11,31,22,077,34,15,31,311,41,03,27,261,27,09,42,068,45*6A
$GAGSV,3,3,11,34,50,243,45,16,03,150,,23,09,028,*5C
$GBGSV,6,1,22,22,60,301,40,37,11,036,,20,12,102,,16,16,044,29*64
$GBGSV,6,2,22,05,22,129,,06,19,046,25,36,36,156,39,44,18,264,34*6D
$GBGSV,6,3,22,12,22,290,36,09,33,050,31,58,37,063,,48,32,099,*6C
$GBGSV,6,4,22,46,45,084,,19,59,089,46,11,02,335,,39,06,044,*6A
$GBGSV,6,5,22,21,10,288,30,45,01,189,,35,06,221,,34,09,314,*62
$GBGSV,6,6,22,02,06,107,,60,08,111,*66
$GPGGA,044502.00,,,,,0,00,,,M,,M,,*4F
$PTNL,GGK,044502.00,010125,4742.4463338,N,01617.9729577,E,1,20,1.5,EHT668.4751,M*4D
$GPGGQ,044502.00,010125,4742.4463338,N,01617.9729577,E,1,20,3.973,625.2640,M*37
$GPGFA,044502.00,12.532,29.948,1.318,0.840,338.677,3.652,,VVV*06
$GPLLK,044502.00,010125,,M,,M,1,20,1.8,,M*07
$GNGMP,044502.00,,,,,DAAA,20,0.7,,,,*54
$GPGMP,044502.00,,,,,,06,,,,3.7,123*78
$GLGMP,044502.00,,,,,,06,,,,,*7E
$GAGMP,044502.00,,,,,,04,,,,,*71
$GBGMP,044502.00,,,,,,04,,,,,*72
$PSSN,SNC,[0,276320000,2347]*46
$GPZDA,044507.00,01,01,2025,,*61
$GPDTM,W84,,00.0000000,N,00.0000000,E,00.0000000,W84*5F
$GPRMC,044507.00,A,4742.4463246,N,01617.9729788,E,0.0,,010125,5.1,E,D*1C
$GPGLL,4742.4463246,N,01617.9729788,E,044507.00,A,D*6D
$GPGGA,044507.00,4742.4463246,N,01617.9729788,E,2,21,0.7,625.2426,M,43.2111,M,1.3,0123*41
$GNGNS,044507.00,4742.4463246,N,01617.9729788,E,DAAA,21,0.7,625.2426,43.2111,,*5F
$GPGNS,044507.00,,,,,,06,,,,1.3,123*7B
$GLGNS,044507.00,,,,,,06,,,,,*7B
$GAGNS,044507.00,,,,,,04,,,,,*74
$GBGNS,044507.00,,,,,,05,,,,,*76
$GPLLQ,044507.00,010125,,M,,M,1,21,4.172,,M*10
$GPVTG,,T,,M,0.00,N,0.00,K,D*26
$GPHDT,,T*1B
$GPTHS,,V*0E
$GPROT,,V*08
$PSSN,HRP,044507.00,010125,,,,,,,00,0,,*63
$PTNL,AVR,044507.00,,Yaw,,Tilt,,,,0,,00*35
$GPGSA,A,3,04,06,07,09,11,20,,,,,,,1.5,0.7,1.3*3D
$GPGSA,A,3,71,72,73,80,86,87,,,,,,,1.5,0.7,1.3*3D
$GPGSA,A,3,05,09,15,34,,,,,,,,,1.5,0.7,1.3*3C
$GPGSA,A,3,12,19,22,36,44,,,,,,,,1.5,0.7,1.3*3D
$GPGST,044507.00,4.386,1.390,0.883,338.632,1.334,0.966,3.833*5C
$GPGBS,044507.00,3.892,4.165,12.998,11,0.0001,2.148,0.693*62
$GPGRS,044507.00,1,-1.5,-0.4,-1.8,0.8,2.1,0.0,,,,,,*63
$GPGRS,044507.00,1,-0.4,12.5,2.3,-2.3,3.2,-6.8,,,,,,*5C
$GPGRS,044507.00,1,1.0,-0.4,-0.7,0.0,,,,,,,,*4E
$GPGRS,044507.00,1,-4.1,-3.7,0.2,-0.6,-1.4,,,,,,,*62
$GPGSV,4,1,15,09,68,058,45,20,31,307,46,30,28,203,32,16,18,058,26*7B
$GPGSV,4,2,15,11,41,285,45,04,38,070,41,07,62,173,35,06,43,232,49*72
$GPGSV,4,3,15,26,07,031,,29,02,343,,03,10,128,,36,35,170,41*7F
$GPGSV,4,4,15,34,31,208,,49,34,195,35,61,03,257,*47
$GLGSV,3,1,09,71,67,023,47,72,38,298,41,86,22,227,41,88,14,339,38*68
$GLGSV,3,2,09,70,30,083,31,74,17,161,,87,37,280,43,80,33,043,47*69
$GLGSV,3,3,09,73,45,118,38*5A
$GAGSV,3,1,11,05,78,296,45,36,21,187,26,06,19,072,29,24,13,128,*6F
$GAGSV,3,2,11,31,22,077,31,15,31,311,41,03,27,261,28,09,42,068,45*60
$GAGSV,3,3,11,34,50,243,45,16,03,150,,23,09,028,*5C
$GBGSV,6,1,22,22,60,301,41,37,11,036,,20,12,102,,16,16,044,33*6E
$GBGSV,6,2,22,05,22,129,,06,19,046,26,36,36,156,37,44,18,264,35*61
$GBGSV,6,3,22,12,22,290,36,09,33,050,31,58,37,062,,48,32,099,*6D
$GBGSV,6,4,22,46,45,084,,19,59,089,45,11,02,335,,39,06,044,*69
$GBGSV,6,5,22,21,10,288,37,45,01,189,,35,06,221,,34,09,314,*65
$GBGSV,6,6,22,02,06,107,,60,08,111,*66
$GPGGA,044507.00,,,,,0,00,,,M,,M,,*4A
$PTNL,GGK,044507.00,010125,4742.4463246,N,01617.9729788,E,1,21,1.5,EHT668.4536,M*40
$GPGGQ,044507.00,010125,4742.4463246,N,01617.9729788,E,1,21,4.172,625.2426,M*35
$GPGFA,044507.00,13.218,31.433,1.390,0.883,338.632,3.833,,VVV*02
$GPLLK,044507.00,010125,,M,,M,1,21,1.7,,M*0C
$GNGMP,044507.00,,,,,DAAA,21,0.7,,,,*50
$GPGMP,044507.00,,,,,,06,,,,1.3,123*7B
$GLGMP,044507.00,,,,,,06,,,,,*7B
$GAGMP,044507.00,,,,,,04,,,,,*74
$GBGMP,044507.00,,,,,,05,,,,,*76
$PSSN,SNC,[0,276325000,2347]*43
$GPZDA,044512.00,01,01,2025,,*65
$GPDTM,W84,,00.0000000,N,00.0000000,E,00.0000000,W84*5F
$GPRMC,044512.00,A,4742.4463170,N,01617.9729968,E,0.0,,010125,5.1,E,D*1E
$GPGLL,4742.4463170,N,01617.9729968,E,044512.00,A,D*6F
$GPGGA,044512.00,4742.4463170,N,01617.9729968,E,2,21,0.7,625.2294,M,43.2111,M,2.3,0123*4F
$GNGNS,044512.00,4742.4463170,N,01617.9729968,E,DAAA,21,0.7,625.2294,43.2111,,*52
$GPGNS,044512.00,,,,,,06,,,,2.3,123*7C
$GLGNS,044512.00,,,,,,06,,,,,*7F
$GAGNS,044512.00,,,,,,04,,,,,*70
$GBGNS,044512.00,,,,,,05,,,,,*72
$GPLLQ,044512.00,010125,,M,,M,1,21,3.872,,M*1A
$GPVTG,,T,,M,0.00,N,0.00,K,D*26
$GPHDT,,T*1B
$GPTHS,,V*0E
$GPROT,,V*08
$PSSN,HRP,044512.00,010125,,,,,,,00,0,,*67
$PTNL,AVR,044512.00,,Yaw,,Tilt,,,,0,,00*31
$GPGSA,A,3,04,06,07,09,11,20,,,,,,,1.5,0.7,1.3*3D
$GPGSA,A,3,71,72,73,80,86,87,,,,,,,1.5,0.7,1.3*3D
$GPGSA,A,3,05,09,15,34,,,,,,,,,1.5,0.7,1.3*3C
$GPGSA,A,3,12,19,22,36,44,,,,,,,,1.5,0.7,1.3*3D
$GPGST,044512.00,4.600,1.297,0.818,338.286,1.243,0.899,3.555*51
$GPGBS,044512.00,3.971,4.209,13.176,11,0.0001,1.858,0.705*6F
$GPGRS,044512.00,1,-1.7,-1.0,-0.3,0.7,1.9,0.1,,,,,,*6F
$GPGRS,044512.00,1,-3.2,12.9,3.5,-2.6,0.2,-8.8,,,,,,*5E
$GPGRS,044512.00,1,1.5,-0.3,-0.0,0.1,,,,,,,,*4E
$GPGRS,044512.00,1,0.6,-3.1,-1.1,-1.0,-1.1,,,,,,,*63
$GPGSV,4,1,15,09,68,058,45,20,31,307,46,30,29,203,35,16,18,058,28*73
$GPGSV,4,2,15,11,41,285,45,04,38,070,42,07,62,173,36,06,43,232,48*73
$GPGSV,4,3,15,26,07,031,,29,02,343,,03,10,128,,36,35,170,41*7F
$GPGSV,4,4,15,34,31,208,,49,34,195,34,61,03,257,*46
$GLGSV,3,1,09,71,67,023,46,72,38,298,43,86,22,227,40,88,14,339,38*6A
$GLGSV,3,2,09,70,30,083,32,74,17,161,,87,37,280,42,80,33,043,45*69
$GLGSV,3,3,09,73,45,118,40*55
$GAGSV,3,1,11,05,78,296,44,36,21,187,25,06,19,072,26,24,13,128,*62
$GAGSV,3,2,11,31,22,077,32,15,31,311,41,03,27,261,31,09,42,068,45*6B
$GAGSV,3,3,11,34,50,243,45,16,03,150,,23,09,028,*5C
$GBGSV,6,1,22,22,60,301,41,37,11,036,30,20,12,102,,16,16,044,31*6F
$GBGSV,6,2,22,05,22,129,,06,19,046,27,36,36,156,36,44,18,264,37*63
$GBGSV,6,3,22,12,22,289,36,09,33,050,30,58,37,062,,48,32,099,*64
$GBGSV,6,4,22,46,45,084,,19,59,089,43,11,02,335,,39,06,044,*6F
$GBGSV,6,5,22,21,10,288,37,45,01,189,,35,06,221,,34,09,314,*65
$GBGSV,6,6,22,02,06,107,,60,08,111,*66
$GPGGA,044512.00,,,,,0,00,,,M,,M,,*4E
$PTNL,GGK,044512.00,010125,4742.4463170,N,01617.9729968,E,1,21,1.5,EHT668.4405,M*43
$GPGGQ,044512.00,010125,4742.4463170,N,01617.9729968,E,1,21,3.872,625.2294,M*36
$GPGFA,044512.00,12.334,29.152,1.297,0.818,338.286,3.555,,VVV*01
$GPLLK,044512.00,010125,,M,,M,1,21,1.7,,M*08
$GNGMP,044512.00,,,,,DAAA,21,0.7,,,,*54
$GPGMP,044512.00,,,,,,06,,,,2.3,123*7C
$GLGMP,044512.00,,,,,,06,,,,,*7F
$GAGMP,044512.00,,,,,,04,,,,,*70
$GBGMP,044512.00,,,,,,05,,,,,*72
$PSSN,SNC,[0,276330000,2347]*47
$GPZDA,044517.00,01,01,2025,,*60
$GPDTM,W84,,00.0000000,N,00.0000000,E,00.0000000,W84*5F
$GPRMC,044517.00,A,4742.4463176,N,01617.9730144,E,0.0,,010125,5.1,E,D*13
$GPGLL,4742.4463176,N,01617.9730144,E,044517.00,A,D*62
$GPGGA,044517.00,4742.4463176,N,01617.9730144,E,2,21,0.7,625.2204,M,43.2111,M,2.9,0123*41
$GNGNS,044517.00,4742.4463176,N,01617.9730144,E,DAAA,21,0.7,625.2204,43.2111,,*56
$GPGNS,044517.00,,,,,,07,,,,2.9,123*72
$GLGNS,044517.00,,,,,,06,,,,,*7A
$GAGNS,044517.00,,,,,,04,,,,,*75
$GBGNS,044517.00,,,,,,04,,,,,*76
$GPLLQ,044517.00,010125,,M,,M,1,21,4.374,,M*15
$GPVTG,,T,,M,0.00,N,0.01,K,D*27
$GPHDT,,T*1B
$GPTHS,,V*0E
$GPROT,,V*08
$PSSN,HRP,044517.00,010125,,,,,,,00,0,,*62
$PTNL,AVR,044517.00,,Yaw,,Tilt,,,,0,,00*34
$GPGSA,A,3,04,06,07,09,11,20,30,,,,,,1.4,0.7,1.2*3E
$GPGSA,A,3,71,72,73,80,86,87,,,,,,,1.4,0.7,1.2*3D
$GPGSA,A,3,05,09,15,34,,,,,,,,,1.4,0.7,1.2*3C
$GPGSA,A,3,19,21,22,44,,,,,,,,,1.4,0.7,1.2*38
$GPGST,044517.00,9.671,1.376,1.194,323.013,1.313,1.263,3.976*5E
$GPGBS,044517.00,2.949,3.763,8.159,21,0.0001,31.039,8.753*6D
$GPGRS,044517.00,1,-2.3,-1.6,0.6,0.1,1.2,-0.2,2.9,,,,,*45
$GPGRS,044517.00,1,-4.3,11.8,3.9,-2.9,-2.0,-10.5,,,,,,*45
$GPGRS,044517.00,1,0.9,-0.8,-0.7,-0.4,,,,,,,,*62
$GPGRS,044517.00,1,-2.6,31.0,-4.4,-1.9,,,,,,,,*5E
$GPGSV,4,1,15,09,68,058,44,20,31,307,47,30,29,203,36,16,18,058,30*79
$GPGSV,4,2,15,11,41,285,45,04,38,070,42,07,62,173,39,06,43,232,47*73
$GPGSV,4,3,15,26,07,031,,29,02,343,,03,10,128,,36,35,170,41*7F
$GPGSV,4,4,15,34,31,208,,49,34,195,34,61,03,257,*46
$GLGSV,3,1,09,71,67,023,47,72,38,298,44,86,22,227,40,88,14,339,37*63
$GLGSV,3,2,09,70,30,083,32,74,17,161,,87,37,279,42,80,33,043,43*69
$GLGSV,3,3,09,73,45,118,42*57
$GAGSV,3,1,11,05,78,296,44,36,21,187,27,06,19,073,26,24,13,128,*61
$GAGSV,3,2,11,31,22,077,33,15,31,311,42,03,27,261,34,09,42,068,45*6C
$GAGSV,3,3,11,34,50,243,46,16,03,150,,23,09,028,*5F
$GBGSV,6,1,22,22,60,301,41,37,11,036,31,20,12,102,,16,16,044,32*6D
$GBGSV,6,2,22,05,22,129,,06,19,046,26,36,36,156,34,44,18,264,38*6F
$GBGSV,6,3,22,12,22,289,34,09,33,050,30,58,37,062,,48,32,099,*66
$GBGSV,6,4,22,46,45,084,,19,59,089,43,11,02,335,,39,06,044,*6F
$GBGSV,6,5,22,21,10,288,37,45,01,189,,35,06,221,,34,09,314,*65
$GBGSV,6,6,22,02,06,107,,60,08,111,*66
$GPGGA,044517.00,,,,,0,00,,,M,,M,,*4B
$PTNL,GGK,044517.00,010125,4742.4463176,N,01617.9730144,E,1,21,1.4,EHT668.4315,M*49
$GPGGQ,044517.00,010125,4742.4463176,N,01617.9730144,E,1,21,4.374,625.2204,M*38
$GPGFA,044517.00,13.084,32.607,1.376,1.194,323.013,3.976,,VVV*0B
$GPLLK,044517.00,010125,,M,,M,1,21,1.6,,M*0C
$GNGMP,044517.00,,,,,DAAA,21,0.7,,,,*51
$GPGMP,044517.00,,,,,,07,,,,2.9,123*72
$GLGMP,044517.00,,,,,,06,,,,,*7A
$GAGMP,044517.00,,,,,,04,,,,,*75
$GBGMP,044517.00,,,,,,04,,,,,*76
$PSSN,SNC,[0,276335000,2347]*42
$GPZDA,044522.00,01,01,2025,,*66
$GPDTM,W84,,00.0000000,N,00.0000000,E,00.0000000,W84*5F
$GPRMC,044522.00,A,4742.4463325,N,01617.9730128,E,0.0,,010125,5.1,E,D*1B
$GPGLL,4742.4463325,N,01617.9730128,E,044522.00,A,D*6A
$GPGGA,044522.00,4742.4463325,N,01617.9730128,E,2,21,0.7,625.2384,M,43.2111,M,3.2,0123*4A
$GNGNS,044522.00,4742.4463325,N,01617.9730128,E,DAAA,21,0.7,625.2384,43.2111,,*57
$GPGNS,044522.00,,,,,,06,,,,3.2,123*7F
$GLGNS,044522.00,,,,,,06,,,,,*7C
$GAGNS,044522.00,,,,,,05,,,,,*72
$GBGNS,044522.00,,,,,,04,,,,,*70
$GPLLQ,044522.00,010125,,M,,M,1,21,6.635,,M*11
$GPVTG,,T,,M,0.01,N,0.01,K,D*26
$GPHDT,,T*1B
$GPTHS,,V*0E
$GPROT,,V*08
$PSSN,HRP,044522.00,010125,,,,,,,00,0,,*64
$PTNL,AVR,044522.00,,Yaw,,Tilt,,,,0,,00*32
$GPGSA,A,3,06,07,09,11,20,30,,,,,,,1.4,0.7,1.2*3A
$GPGSA,A,3,71,72,73,80,86,87,,,,,,,1.4,0.7,1.2*3D
$GPGSA,A,3,03,05,09,15,34,,,,,,,,1.4,0.7,1.2*3F
$GPGSA,A,3,19,21,22,44,,,,,,,,,1.4,0.7,1.2*38
$GPGST,044522.00,9.346,2.490,1.318,78.998,1.379,2.457,6.007*60
$GPGBS,044522.00,3.238,4.643,15.248,30,0.0001,3.025,0.812*62
$GPGRS,044522.00,1,-2.1,1.4,-0.8,-0.3,-0.8,3.0,,,,,,*4D
$GPGRS,044522.00,1,-3.1,8.4,5.0,-3.2,-2.6,-11.1,,,,,,*74
$GPGRS,044522.00,1,1.8,0.5,-1.5,-1.5,-1.0,,,,,,,*45
$GPGRS,044522.00,1,-2.2,29.7,-7.2,-3.2,,,,,,,,*5E
$GPGSV,4,1,15,09,68,058,43,20,31,307,48,30,29,203,36,16,18,058,30*71
$GPGSV,4,2,15,11,41,285,44,04,38,070,43,07,62,173,41,06,43,232,47*7C
$GPGSV,4,3,15,26,07,031,,29,02,343,,03,10,128,,36,35,170,41*7F
$GPGSV,4,4,15,34,31,208,,49,34,195,34,61,03,257,*46
$GLGSV,3,1,09,71,67,023,48,72,38,298,42,86,22,227,37,88,14,339,33*6E
$GLGSV,3,2,09,70,30,083,31,74,17,161,,87,37,279,43,80,33,043,41*69
$GLGSV,3,3,09,73,45,118,44*51
$GAGSV,3,1,11,05,78,296,45,36,21,187,28,06,19,073,24,24,13,128,*6D
$GAGSV,3,2,11,31,22,077,32,15,31,311,43,03,27,261,37,09,42,068,45*6F
$GAGSV,3,3,11,34,50,243,46,16,03,150,,23,09,028,*5F
$GBGSV,6,1,22,22,60,301,42,37,11,036,31,20,12,102,,16,16,044,32*6E
$GBGSV,6,2,22,05,22,129,,06,19,046,27,36,36,156,32,44,18,264,38*68
$GBGSV,6,3,22,12,22,289,32,09,33,050,30,58,37,062,,48,32,099,*60
$GBGSV,6,4,22,46,45,084,,19,59,089,43,11,02,335,,39,06,044,*6F
$GBGSV,6,5,22,21,10,288,36,45,01,189,,35,06,221,,34,09,314,*64
$GBGSV,6,6,22,02,06,107,,60,08,111,*66
$GPGGA,044522.00,,,,,0,00,,,M,,M,,*4D
$PTNL,GGK,044522.00,010125,4742.4463325,N,01617.9730128,E,1,21,1.4,EHT668.4495,M*4E
$GPGGQ,044522.00,010125,4742.4463325,N,01617.9730128,E,1,21,6.635,625.2384,M*3B
$GPGFA,044522.00,23.671,49.256,2.490,1.318,78.998,6.007,,VVV*39
$GPLLK,044522.00,010125,,M,,M,1,21,1.7,,M*0B
$GNGMP,044522.00,,,,,DAAA,21,0.7,,,,*57
$GPGMP,044522.00,,,,,,06,,,,3.2,123*7F
$GLGMP,044522.00,,,,,,06,,,,,*7C
$GAGMP,044522.00,,,,,,05,,,,,*72
$GBGMP,044522.00,,,,,,04,,,,,*70
$PSSN,SNC,[0,276340000,2347]*40
$GPZDA,044527.00,01,01,2025,,*63
$GPDTM,W84,,00.0000000,N,00.0000000,E,00.0000000,W84*5F
$GPRMC,044527.00,A,4742.4463393,N,01617.9730185,E,0.0,,010125,5.1,E,D*14
$GPGLL,4742.4463393,N,01617.9730185,E,044527.00,A,D*65
$GPGGA,044527.00,4742.4463393,N,01617.9730185,E,2,20,0.8,625.2177,M,43.2111,M,1.3,0123*46
$GNGNS,044527.00,4742.4463393,N,01617.9730185,E,DAAA,20,0.8,625.2177,43.2111,,*58
$GPGNS,044527.00,,,,,,06,,,,1.3,123*79
$GLGNS,044527.00,,,,,,06,,,,,*79
$GAGNS,044527.00,,,,,,05,,,,,*77
$GBGNS,044527.00,,,,,,03,,,,,*72
$GPLLQ,044527.00,010125,,M,,M,1,20,4.056,,M*14
$GPVTG,,T,,M,0.00,N,0.00,K,D*26
$GPHDT,,T*1B
$GPTHS,,V*0E
$GPROT,,V*08
$PSSN,HRP,044527.00,010125,,,,,,,00,0,,*61
$PTNL,AVR,044527.00,,Yaw,,Tilt,,,,0,,00*37
$GPGSA,A,3,04,06,07,09,11,20,,,,,,,1.6,0.8,1.4*36
$GPGSA,A,3,71,72,73,80,86,87,,,,,,,1.6,0.8,1.4*36
$GPGSA,A,3,03,05,09,15,34,,,,,,,,1.6,0.8,1.4*34
$GPGSA,A,3,19,22,44,,,,,,,,,,1.6,0.8,1.4*30
$GPGST,044527.00,5.345,1.355,0.859,338.244,1.298,0.943,3.725*53
$GPGBS,044527.00,3.852,4.167,12.800,07,0.0001,1.496,0.613*64
$GPGRS,044527.00,1,-1.7,-0.9,1.5,0.8,-0.5,-0.2,,,,,,*4A
$GPGRS,044527.00,1,-1.5,4.8,6.0,-3.7,-2.6,-9.6,,,,,,*4F
$GPGRS,044527.00,1,11.0,1.5,-0.9,-0.7,-0.0,,,,,,,*77
$GPGRS,044527.00,1,-0.6,-7.0,-4.3,,,,,,,,,*4B
$GPGSV,4,1,15,09,68,058,43,20,31,307,48,30,29,203,36,16,18,058,31*70
$GPGSV,4,2,15,11,41,285,44,04,38,070,43,07,62,173,43,06,43,232,46*7F
$GPGSV,4,3,15,26,07,031,,29,02,343,,03,10,128,,36,35,170,41*7F
$GPGSV,4,4,15,34,31,208,,49,34,195,34,61,03,257,*46
$GLGSV,3,1,09,71,67,023,49,72,38,298,39,86,22,227,35,88,14,339,30*62
$GLGSV,3,2,09,70,30,084,30,74,17,161,,87,37,279,44,80,33,043,38*66
$GLGSV,3,3,09,73,45,118,43*56
$GAGSV,3,1,11,05,78,296,45,36,21,187,29,06,19,073,22,24,13,128,*6A
$GAGSV,3,2,11,31,22,077,31,15,31,311,44,03,27,261,39,09,42,068,45*65
$GAGSV,3,3,11,34,50,243,46,16,03,150,,23,09,028,*5F
$GBGSV,6,1,22,22,60,301,43,37,11,036,30,20,12,102,,16,16,044,33*6F
$GBGSV,6,2,22,05,22,129,,06,19,046,26,36,36,156,31,44,18,264,39*6B
$GBGSV,6,3,22,12,22,289,29,09,33,050,30,58,37,062,,48,32,099,*6A
$GBGSV,6,4,22,46,45,084,,19,59,089,43,11,02,335,,39,06,044,*6F
$GBGSV,6,5,22,21,10,288,36,45,01,189,,35,06,221,,34,09,314,*64
$GBGSV,6,6,22,02,06,107,,60,08,111,*66
$GPGGA,044527.00,,,,,0,00,,,M,,M,,*48
$PTNL,GGK,044527.00,010125,4742.4463393,N,01617.9730185,E,1,20,1.6,EHT668.4287,M*47
$GPGGQ,044527.00,010125,4742.4463393,N,01617.9730185,E,1,20,4.056,625.2177,M*3A
$GPGFA,044527.00,12.883,30.546,1.355,0.859,338.244,3.725,,VVV*08
$GPLLK,044527.00,010125,,M,,M,1,20,1.8,,M*00
$GNGMP,044527.00,,,,,DAAA,20,0.8,,,,*5C
$GPGMP,044527.00,,,,,,06,,,,1.3,123*79
$GLGMP,044527.00,,,,,,06,,,,,*79
$GAGMP,044527.00,,,,,,05,,,,,*77
$GBGMP,044527.00,,,,,,03,,,,,*72
$PSSN,SNC,[0,276345000,2347]*45
$GPZDA,044532.00,01,01,2025,,*67
$GPDTM,W84,,00.0000000,N,00.0000000,E,00.0000000,W84*5F
$GPRMC,044532.00,A,4742.4463439,N,01617.9730193,E,0.0,,010125,5.1,E,D*10
$GPGLL,4742.4463439,N,01617.9730193,E,044532.00,A,D*61
$GPGGA,044532.00,4742.4463439,N,01617.9730193,E,2,20,0.8,625.1832,M,43.2111,M,2.3,0123*4A
$GNGNS,044532.00,4742.4463439,N,01617.9730193,E,DAAA,20,0.8,625.1832,43.2111,,*57
$GPGNS,044532.00,,,,,,06,,,,2.3,123*7E
$GLGNS,044532.00,,,,,,06,,,,,*7D
$GAGNS,044532.00,,,,,,05,,,,,*73
$GBGNS,044532.00,,,,,,03,,,,,*76
$GPLLQ,044532.00,010125,,M,,M,1,20,4.549,,M*1B
$GPVTG,,T,,M,0.01,N,0.01,K,D*26
$GPHDT,,T*1B
$GPTHS,,V*0E
$GPROT,,V*08
$PSSN,HRP,044532.00,010125,,,,,,,00,0,,*65
$PTNL,AVR,044532.00,,Yaw,,Tilt,,,,0,,00*33
$GPGSA,A,3,04,06,07,09,11,20,,,,,,,1.6,0.8,1.4*36
$GPGSA,A,3,71,72,73,80,86,87,,,,,,,1.6,0.8,1.4*36
$GPGSA,A,3,03,05,09,15,34,,,,,,,,1.6,0.8,1.4*34
$GPGSA,A,3,19,22,44,,,,,,,,,,1.6,0.8,1.4*30
$GPGST,044532.00,6.366,1.527,0.961,338.069,1.461,1.058,4.176*54
$GPGBS,044532.00,3.933,4.215,12.980,03,0.0001,18.201,6.150*5B
$GPGRS,044532.00,1,-1.8,-1.3,1.6,0.9,0.4,-0.7,,,,,,*61
$GPGRS,044532.00,1,-1.9,-0.7,3.7,-5.5,-1.7,-8.4,,,,,,*66
$GPGRS,044532.00,1,18.2,1.6,-1.1,-0.6,0.1,,,,,,,*5F
$GPGRS,044532.00,1,0.2,-6.1,-5.0,,,,,,,,,*64
$GPGSV,4,1,15,09,68,058,43,20,31,307,47,30,29,203,36,16,18,058,30*7E
$GPGSV,4,2,15,11,41,285,44,04,38,070,43,07,62,173,43,06,43,232,45*7C
$GPGSV,4,3,15,26,07,031,,29,02,343,,03,10,128,,36,35,170,41*7F
$GPGSV,4,4,15,34,31,208,,49,34,195,35,61,03,257,*47
$GLGSV,3,1,09,71,67,023,49,72,38,298,40,86,21,227,36,88,14,339,28*65
$GLGSV,3,2,09,70,30,084,29,74,17,161,,87,37,279,46,80,33,043,39*6D
$GLGSV,3,3,09,73,45,118,42*57
$GAGSV,3,1,11,05,78,296,46,36,21,187,30,06,19,073,28,24,13,128,*6B
$GAGSV,3,2,11,31,22,077,28,15,31,311,45,03,27,261,39,09,42,068,45*6C
$GAGSV,3,3,11,34,50,243,47,16,03,150,,23,09,028,*5E
$GBGSV,6,1,22,22,60,301,43,37,11,036,29,20,12,102,,16,16,044,33*67
$GBGSV,6,2,22,05,22,129,,06,19,046,26,36,36,156,31,44,18,264,40*65
$GBGSV,6,3,22,12,22,289,26,09,33,050,29,58,37,062,,48,32,100,*6C
$GBGSV,6,4,22,46,45,084,,19,59,089,44,11,02,335,,39,06,044,*68
$GBGSV,6,5,22,21,10,288,35,45,01,189,,35,06,221,,34,09,314,*67
$GBGSV,6,6,22,02,06,107,,60,08,111,*66
$GPGGA,044532.00,,,,,0,00,,,M,,M,,*4C
$PTNL,GGK,044532.00,010125,4742.4463439,N,01617.9730193,E,1,20,1.6,EHT668.3943,M*47
$GPGGQ,044532.00,010125,4742.4463439,N,01617.9730193,E,1,20,4.549,625.1832,M*3E
$GPGFA,044532.00,14.514,34.242,1.527,0.961,338.069,4.176,,VVV*0D
$GPLLK,044532.00,010125,,M,,M,1,20,1.8,,M*04
$GNGMP,044532.00,,,,,DAAA,20,0.8,,,,*58
$GPGMP,044532.00,,,,,,06,,,,2.3,123*7E
$GLGMP,044532.00,,,,,,06,,,,,*7D
$GAGMP,044532.00,,,,,,05,,,,,*73
$GBGMP,044532.00,,,,,,03,,,,,*76
$PSSN,SNC,[0,276350000,2347]*41
$GPZDA,044537.00,01,01,2025,,*62
$GPDTM,W84,,00.0000000,N,00.0000000,E,00.0000000,W84*5F
$GPRMC,044537.00,A,4742.4463470,N,01617.9730205,E,0.0,,010125,5.1,E,D*14
$GPGLL,4742.4463470,N,01617.9730205,E,044537.00,A,D*65
$GPGGA,044537.00,4742.4463470,N,01617.9730205,E,2,19,0.9,625.1544,M,43.2111,M,2.7,0123*4D
$GNGNS,044537.00,4742.4463470,N,01617.9730205,E,DAAA,19,0.9,625.1544,43.2111,,*54
$GPGNS,044537.00,,,,,,06,,,,2.7,123*7F
$GLGNS,044537.00,,,,,,05,,,,,*7B
$GAGNS,044537.00,,,,,,05,,,,,*76
$GBGNS,044537.00,,,,,,03,,,,,*73
$GPLLQ,044537.00,010125,,M,,M,1,19,4.664,,M*18
$GPVTG,,T,,M,0.01,N,0.02,K,D*25
$GPHDT,,T*1B
$GPTHS,,V*0E
$GPROT,,V*08
$PSSN,HRP,044537.00,010125,,,,,,,00,0,,*60
$PTNL,AVR,044537.00,,Yaw,,Tilt,,,,0,,00*36
$GPGSA,A,3,04,06,07,09,11,20,,,,,,,1.7,0.9,1.5*37
$GPGSA,A,3,71,72,73,80,87,,,,,,,,1.7,0.9,1.5*39
$GPGSA,A,3,03,05,09,15,34,,,,,,,,1.7,0.9,1.5*35
$GPGSA,A,3,19,22,44,,,,,,,,,,1.7,0.9,1.5*31
$GPGST,044537.00,6.592,1.566,0.975,338.923,1.503,1.070,4.284*5A
$GPGBS,044537.00,4.177,4.305,13.611,03,0.0001,19.042,6.149*5B
$GPGRS,044537.00,1,-1.2,-1.7,1.1,0.6,1.0,-0.6,,,,,,*66
$GPGRS,044537.00,1,-4.0,0.7,4.1,-4.6,-7.1,,,,,,,*4E
$GPGRS,044537.00,1,19.0,1.4,-0.9,-0.6,0.2,,,,,,,*51
$GPGRS,044537.00,1,0.7,-6.3,-1.3,,,,,,,,,*61
$GPGSV,4,1,15,09,68,058,43,20,31,307,47,30,29,203,35,16,18,058,33*7E
$GPGSV,4,2,15,11,41,285,46,04,38,070,43,07,62,173,43,06,43,232,44*7F
$GPGSV,4,3,15,26,07,031,,29,02,343,,03,10,128,,36,35,170,41*7F
$GPGSV,4,4,15,34,31,208,,49,34,195,34,61,03,257,*46
$GLGSV,3,1,09,71,67,023,49,72,38,298,39,86,21,227,34,88,14,339,28*69
$GLGSV,3,2,09,70,30,084,28,74,17,161,,87,36,279,46,80,33,043,40*63
$GLGSV,3,3,09,73,45,118,44*51
$GAGSV,3,1,11,05,78,296,46,36,21,187,30,06,18,073,27,24,14,128,*62
$GAGSV,3,2,11,31,22,077,25,15,31,311,45,03,27,261,39,09,42,068,45*61
$GAGSV,3,3,11,34,50,243,47,16,03,150,,23,09,028,*5E
$GBGSV,6,1,22,22,60,301,42,37,11,036,29,20,12,102,,16,16,044,33*66
$GBGSV,6,2,22,05,22,129,,06,19,046,26,36,36,156,33,44,18,264,40*67
$GBGSV,6,3,22,12,22,289,23,09,33,050,29,58,37,062,,48,32,100,*69
$GBGSV,6,4,22,46,45,083,,19,59,089,45,11,02,335,,39,06,044,*6E
$GBGSV,6,5,22,21,10,288,31,45,01,189,,35,05,221,,34,09,314,*60
$GBGSV,6,6,22,02,06,107,,60,08,111,*66
$GPGGA,044537.00,,,,,0,00,,,M,,M,,*49
$PTNL,GGK,044537.00,010125,4742.4463470,N,01617.9730205,E,1,19,1.7,EHT668.3655,M*40
$GPGGQ,044537.00,010125,4742.4463470,N,01617.9730205,E,1,19,4.664,625.1544,M*30
$GPGFA,044537.00,14.887,35.130,1.566,0.975,338.923,4.284,,VVV*01
$GPLLK,044537.00,010125,,M,,M,1,19,2.0,,M*00
$GNGMP,044537.00,,,,,DAAA,19,0.9,,,,*56
$GPGMP,044537.00,,,,,,06,,,,2.7,123*7F
$GLGMP,044537.00,,,,,,05,,,,,*7B
$GAGMP,044537.00,,,,,,05,,,,,*76
$GBGMP,044537.00,,,,,,03,,,,,*73
$PSSN,SNC,[0,276355000,2347]*44
$GPZDA,044542.00,01,01,2025,,*60
$GPDTM,W84,,00.0000000,N,00.0000000,E,00.0000000,W84*5F
$GPRMC,044542.00,A,4742.4463427,N,01617.9730260,E,0.0,,010125,5.1,E,D*17
$GPGLL,4742.4463427,N,01617.9730260,E,044542.00,A,D*66
$GPGGA,044542.00,4742.4463427,N,01617.9730260,E,2,20,0.9,625.1301,M,43.2111,M,3.7,0123*42
$GNGNS,044542.00,4742.4463427,N,01617.9730260,E,DAAA,20,0.9,625.1301,43.2111,,*5A
$GPGNS,044542.00,,,,,,06,,,,3.7,123*7C
$GLGNS,044542.00,,,,,,05,,,,,*79
$GAGNS,044542.00,,,,,,05,,,,,*74
$GBGNS,044542.00,,,,,,04,,,,,*76
$GPLLQ,044542.00,010125,,M,,M,1,20,4.604,,M*16
$GPVTG,,T,,M,0.00,N,0.01,K,D*27
$GPHDT,,T*1B
$GPTHS,,V*0E
$GPROT,,V*08
$PSSN,HRP,044542.00,010125,,,,,,,00,0,,*62
$PTNL,AVR,044542.00,,Yaw,,Tilt,,,,0,,00*34
$GPGSA,A,3,04,06,07,09,11,20,,,,,,,1.7,0.9,1.4*36
$GPGSA,A,3,71,72,73,80,87,,,,,,,,1.7,0.9,1.4*38
$GPGSA,A,3,03,05,09,15,34,,,,,,,,1.7,0.9,1.4*34
$GPGSA,A,3,12,19,22,44,,,,,,,,,1.7,0.9,1.4*33
$GPGST,044542.00,5.624,1.549,0.961,339.665,1.491,1.050,4.227*50
$GPGBS,044542.00,4.293,4.319,13.861,11,0.0001,2.403,0.738*6A
$GPGRS,044542.00,1,-1.1,-1.4,-0.1,0.8,2.4,-0.9,,,,,,*4E
$GPGRS,044542.00,1,-4.1,-1.3,7.0,-4.7,-7.7,,,,,,,*60
$GPGRS,044542.00,1,13.0,1.3,-0.9,-1.0,0.0,,,,,,,*5B
$GPGRS,044542.00,1,-6.2,0.4,-5.9,2.0,,,,,,,,*43
$GPGSV,4,1,15,09,68,058,44,20,31,307,47,30,29,203,33,16,18,058,34*78
$GPGSV,4,2,15,11,41,285,46,04,38,070,42,07,62,173,44,06,43,232,43*7E
$GPGSV,4,3,15,26,07,031,,29,02,343,,03,10,128,,36,35,170,41*7F
$GPGSV,4,4,15,34,31,208,,49,34,195,34,61,03,257,*46
$GLGSV,3,1,09,71,67,023,49,72,38,298,38,86,21,227,31,88,14,339,*67
$GLGSV,3,2,09,70,30,084,28,74,17,161,,87,36,279,46,80,33,043,39*6D
$GLGSV,3,3,09,73,45,118,44*51
$GAGSV,3,1,11,05,78,296,46,36,21,187,32,06,18,073,26,24,14,128,*61
$GAGSV,3,2,11,31,22,077,24,15,31,311,45,03,27,261,38,09,42,068,45*61
$GAGSV,3,3,11,34,50,243,48,16,03,150,,23,09,028,*51
$GBGSV,6,1,22,22,60,302,41,37,11,036,30,20,12,102,,16,16,044,33*6E
$GBGSV,6,2,22,05,22,129,,06,19,046,26,36,36,156,35,44,18,264,41*60
$GBGSV,6,3,22,12,22,289,39,09,33,050,29,58,37,062,,48,32,100,*62
$GBGSV,6,4,22,46,45,083,,19,59,089,45,11,02,335,,39,06,044,*6E
$GBGSV,6,5,22,21,10,288,23,45,01,189,,35,05,221,,34,09,314,*63
$GBGSV,6,6,22,02,06,107,,60,08,111,*66
$GPGGA,044542.00,,,,,0,00,,,M,,M,,*4B
$PTNL,GGK,044542.00,010125,4742.4463427,N,01617.9730260,E,1,20,1.7,EHT668.3412,M*48
$GPGGQ,044542.00,010125,4742.4463427,N,01617.9730260,E,1,20,4.604,625.1301,M*38
$GPGFA,044542.00,14.730,34.663,1.549,0.961,339.665,4.227,,VVV*0D
$GPLLK,044542.00,010125,,M,,M,1,20,2.0,,M*08
$GNGMP,044542.00,,,,,DAAA,20,0.9,,,,*5E
$GPGMP,044542.00,,,,,,06,,,,3.7,123*7C
$GLGMP,044542.00,,,,,,05,,,,,*79
$GAGMP,044542.00,,,,,,05,,,,,*74
$GBGMP,044542.00,,,,,,04,,,,,*76
$PSSN,SNC,[0,276360000,2347]*42
$GPZDA,044547.00,01,01,2025,,*65
$GPDTM,W84,,00.0000000,N,00.0000000,E,00.0000000,W84*5F
$GPRMC,044547.00,A,4742.4463407,N,01617.9730315,E,0.0,,010125,5.1,E,D*13
$GPGLL,4742.4463407,N,01617.9730315,E,044547.00,A,D*62
$GPGGA,044547.00,4742.4463407,N,01617.9730315,E,2,21,0.7,625.1147,M,43.2111,M,1.3,0123*4F
$GNGNS,044547.00,4742.4463407,N,01617.9730315,E,DAAA,21,0.7,625.1147,43.2111,,*51
$GPGNS,044547.00,,,,,,06,,,,1.3,123*7F
$GLGNS,044547.00,,,,,,05,,,,,*7C
$GAGNS,044547.00,,,,,,05,,,,,*71
$GBGNS,044547.00,,,,,,05,,,,,*72
$GPLLQ,044547.00,010125,,M,,M,1,21,3.561,,M*15
$GPVTG,,T,,M,0.01,N,0.01,K,D*26
$GPHDT,,T*1B
$GPTHS,,V*0E
$GPROT,,V*08
$PSSN,HRP,044547.00,010125,,,,,,,00,0,,*67
$PTNL,AVR,044547.00,,Yaw,,Tilt,,,,0,,00*31
$GPGSA,A,3,04,06,07,09,11,20,,,,,,,1.5,0.7,1.3*3D
$GPGSA,A,3,71,72,73,80,87,,,,,,,,1.5,0.7,1.3*33
$GPGSA,A,3,03,05,09,15,34,,,,,,,,1.5,0.7,1.3*3F
$GPGSA,A,3,12,19,22,36,44,,,,,,,,1.5,0.7,1.3*3D
$GPGST,044547.00,4.790,1.211,0.745,340.186,1.167,0.812,3.264*5F
$GPGBS,044547.00,3.920,3.967,12.853,11,0.0001,1.428,0.693*65
$GPGRS,044547.00,1,-1.0,-1.2,0.1,0.9,1.4,-0.9,,,,,,*63
$GPGRS,044547.00,1,-3.6,-2.8,9.2,-8.6,-5.6,,,,,,,*6F
$GPGRS,044547.00,1,0.7,1.4,-0.7,-1.3,0.2,,,,,,,*63
$GPGRS,044547.00,1,-5.6,-0.1,-5.5,5.7,2.5,,,,,,,*4C
$GPGSV,4,1,15,09,68,058,45,20,31,307,47,30,29,203,30,16,18,058,34*7A
$GPGSV,4,2,15,11,41,285,45,04,38,070,41,07,62,173,43,06,43,232,42*78
$GPGSV,4,3,15,26,07,031,,29,02,343,,03,10,128,,36,35,170,41*7F
$GPGSV,4,4,15,34,31,208,,49,34,195,34,61,03,257,*46
$GLGSV,3,1,09,71,67,024,49,72,38,298,39,86,21,227,26,88,14,339,33*67
$GLGSV,3,2,09,70,30,084,27,74,17,161,,87,36,279,46,80,33,043,40*6C
$GLGSV,3,3,09,73,45,118,44*51
$GAGSV,3,1,11,05,78,296,46,36,21,187,32,06,18,073,24,24,14,128,*63
$GAGSV,3,2,11,31,22,077,21,15,31,311,44,03,27,261,37,09,42,068,45*6A
$GAGSV,3,3,11,34,50,243,48,16,03,150,,23,09,028,*51
$GBGSV,6,1,22,22,60,302,40,37,11,035,31,20,12,102,,16,16,044,33*6D
$GBGSV,6,2,22,05,22,129,,06,19,046,25,36,36,156,36,44,18,264,41*60
$GBGSV,6,3,22,12,22,289,38,09,33,050,29,58,37,062,,48,32,100,*63
$GBGSV,6,4,22,46,45,083,,19,59,089,45,11,02,335,,39,06,044,*6E
$GBGSV,6,5,22,21,10,288,28,45,01,189,,35,05,221,,34,09,314,*68
$GBGSV,6,6,22,02,06,107,,60,08,111,*66
$GPGGA,044547.00,,,,,0,00,,,M,,M,,*4E
$PTNL,GGK,044547.00,010125,4742.4463407,N,01617.9730315,E,1,21,1.5,EHT668.3258,M*47
$GPGGQ,044547.00,010125,4742.4463407,N,01617.9730315,E,1,21,3.561,625.1147,M*3A
$GPGFA,044547.00,11.510,26.768,1.211,0.745,340.186,3.264,,VVV*02
$GPLLK,044547.00,010125,,M,,M,1,21,1.8,,M*07
$GNGMP,044547.00,,,,,DAAA,21,0.7,,,,*54
$GPGMP,044547.00,,,,,,06,,,,1.3,123*7F
$GLGMP,044547.00,,,,,,05,,,,,*7C
$GAGMP,044547.00,,,,,,05,,,,,*71
$GBGMP,044547.00,,,,,,05,,,,,*72
$PSSN,SNC,[0,276365000,2347]*47
$GPZDA,044552.00,01,01,2025,,*61
$GPDTM,W84,,00.0000000,N,00.0000000,E,00.0000000,W84*5F
$GPRMC,044552.00,A,4742.4463379,N,01617.9730261,E,0.0,,010125,5.1,E,D*1B
$GPGLL,4742.4463379,N,01617.9730261,E,044552.00,A,D*6A
$GPGGA,044552.00,4742.4463379,N,01617.9730261,E,2,20,0.7,625.1038,M,43.2111,M,2.3,0123*4C
$GNGNS,044552.00,4742.4463379,N,01617.9730261,E,DAAA,20,0.7,625.1038,43.2111,,*51
$GPGNS,044552.00,,,,,,06,,,,2.3,123*78
$GLGNS,044552.00,,,,,,05,,,,,*78
$GAGNS,044552.00,,,,,,05,,,,,*75
$GBGNS,044552.00,,,,,,04,,,,,*77
$GPLLQ,044552.00,010125,,M,,M,1,20,2.872,,M*1E
$GPVTG,,T,,M,0.01,N,0.02,K,D*25
$GPHDT,,T*1B
$GPTHS,,V*0E
$GPROT,,V*08
$PSSN,HRP,044552.00,010125,,,,,,,00,0,,*63
$PTNL,AVR,044552.00,,Yaw,,Tilt,,,,0,,00*35
$GPGSA,A,3,04,06,07,09,11,20,,,,,,,1.6,0.7,1.4*39
$GPGSA,A,3,71,72,73,80,87,,,,,,,,1.6,0.7,1.4*37
$GPGSA,A,3,03,05,09,15,34,,,,,,,,1.6,0.7,1.4*3B
$GPGSA,A,3,19,22,36,44,,,,,,,,,1.6,0.7,1.4*3A
$GPGST,044552.00,4.971,0.982,0.600,339.916,0.945,0.657,2.632*55
$GPGBS,044552.00,4.013,4.024,13.058,06,0.0001,-1.027,0.699*4E
$GPGRS,044552.00,1,-0.1,-1.0,0.3,0.8,0.1,-0.5,,,,,,*6E
$GPGRS,044552.00,1,-3.1,1.0,8.7,-7.6,-4.6,,,,,,,*40
$GPGRS,044552.00,1,-1.1,1.7,-0.4,-1.3,0.7,,,,,,,*48
$GPGRS,044552.00,1,0.4,-4.5,11.2,1.5,,,,,,,,*52
$GPGSV,4,1,15,09,68,058,45,20,31,307,47,30,29,203,25,16,18,058,33*79
$GPGSV,4,2,15,11,41,285,45,04,38,070,40,07,62,173,41,06,43,232,41*78
$GPGSV,4,3,15,26,07,031,,29,02,343,,03,10,128,,36,35,170,41*7F
$GPGSV,4,4,15,34,31,208,,49,34,195,34,61,03,257,*46
$GLGSV,3,1,09,71,67,024,48,72,38,298,41,86,21,227,32,88,14,339,32*6D
$GLGSV,3,2,09,70,30,084,22,74,17,161,,87,36,279,46,80,33,043,41*68
$GLGSV,3,3,09,73,46,118,42*54
$GAGSV,3,1,11,05,78,297,46,36,21,187,33,06,18,073,25,24,14,128,*62
$GAGSV,3,2,11,31,22,077,24,15,31,311,44,03,27,261,35,09,42,068,45*6D
$GAGSV,3,3,11,34,50,243,49,16,03,150,,23,09,028,*50
$GBGSV,6,1,22,22,60,302,41,37,11,035,31,20,12,102,,16,16,044,32*6D
$GBGSV,6,2,22,05,22,129,,06,19,046,24,36,36,156,36,44,18,264,40*60
$GBGSV,6,3,22,12,22,289,22,09,33,050,29,58,37,062,,48,32,100,*68
$GBGSV,6,4,22,46,45,083,,19,59,089,44,11,02,335,,39,06,044,*6F
$GBGSV,6,5,22,21,10,288,27,45,01,189,,35,05,221,,34,09,314,*67
$GBGSV,6,6,22,02,06,107,,60,08,111,*66
$GPGGA,044552.00,,,,,0,00,,,M,,M,,*4A
$PTNL,GGK,044552.00,010125,4742.4463379,N,01617.9730261,E,1,20,1.6,EHT668.3148,M*4F
$GPGGQ,044552.00,010125,4742.4463379,N,01617.9730261,E,1,20,2.872,625.1038,M*34
$GPGFA,044552.00,9.333,21.581,0.982,0.600,339.916,2.632,,VVV*33
$GPLLK,044552.00,010125,,M,,M,1,20,1.9,,M*03
$GNGMP,044552.00,,,,,DAAA,20,0.7,,,,*51
$GPGMP,044552.00,,,,,,06,,,,2.3,123*78
$GLGMP,044552.00,,,,,,05,,,,,*78
$GAGMP,044552.00,,,,,,05,,,,,*75
$GBGMP,044552.00,,,,,,04,,,,,*77
$PSSN,SNC,[0,276370000,2347]*43
$GPZDA,044557.00,01,01,2025,,*64
$GPDTM,W84,,00.0000000,N,00.0000000,E,00.0000000,W84*5F
$GPRMC,044557.00,A,4742.4463348,N,01617.9730150,E,0.0,,010125,5.1,E,D*1D
$GPGLL,4742.4463348,N,01617.9730150,E,044557.00,A,D*6C
$GPGGA,044557.00,4742.4463348,N,01617.9730150,E,2,19,0.8,625.0917,M,43.2111,M,2.8,0123*41
$GNGNS,044557.00,4742.4463348,N,01617.9730150,E,DAAA,19,0.8,625.0917,43.2111,,*57
$GPGNS,044557.00,,,,,,06,,,,2.8,123*76
$GLGNS,044557.00,,,,,,05,,,,,*7D
$GAGNS,044557.00,,,,,,04,,,,,*71
$GBGNS,044557.00,,,,,,04,,,,,*72
$GPLLQ,044557.00,010125,,M,,M,1,19,3.250,,M*1A
$GPVTG,,T,,M,0.00,N,0.01,K,D*27
$GPHDT,,T*1B
$GPTHS,,V*0E
$GPROT,,V*08
$PSSN,HRP,044557.00,010125,,,,,,,00,0,,*66
$PTNL,AVR,044557.00,,Yaw,,Tilt,,,,0,,00*30
$GPGSA,A,3,04,06,07,09,11,20,,,,,,,1.6,0.8,1.4*36
$GPGSA,A,3,71,72,73,80,87,,,,,,,,1.6,0.8,1.4*38
$GPGSA,A,3,05,09,15,34,,,,,,,,,1.6,0.8,1.4*37
$GPGSA,A,3,19,22,36,44,,,,,,,,,1.6,0.8,1.4*35
$GPGST,044557.00,3.902,1.098,0.678,339.696,1.056,0.741,2.983*51
$GPGBS,044557.00,4.098,4.104,13.310,06,0.0001,-1.675,0.696*4A
$GPGRS,044557.00,1,0.1,-1.7,0.2,0.9,0.8,-0.6,,,,,,*4B
$GPGRS,044557.00,1,-3.1,2.6,5.6,-7.6,-6.4,,,,,,,*4C
$GPGRS,044557.00,1,1.8,-0.8,-1.1,1.0,,,,,,,,*49
$GPGRS,044557.00,1,0.7,-2.8,4.2,0.2,,,,,,,,*6D
$GPGSV,4,1,15,09,67,058,46,20,31,307,47,30,29,203,32,16,18,058,*73
$GPGSV,4,2,15,11,41,285,45,04,38,070,39,07,62,173,39,06,43,232,40*78
$GPGSV,4,3,15,26,07,031,,29,02,343,,03,10,128,,36,35,170,41*7F
$GPGSV,4,4,15,34,31,208,,49,34,195,34,61,03,257,*46
$GLGSV,3,1,09,71,67,024,47,72,38,298,42,86,21,227,29,88,14,339,32*6B
$GLGSV,3,2,09,70,30,084,24,74,17,161,,87,36,279,46,80,33,042,41*6F
$GLGSV,3,3,09,73,46,118,40*56
$GAGSV,3,1,11,05,78,297,46,36,21,187,32,06,18,073,24,24,14,128,*62
$GAGSV,3,2,11,31,22,076,20,15,31,311,44,03,27,261,34,09,41,068,44*6B
$GAGSV,3,3,11,34,50,243,49,16,03,150,,23,09,028,*50
$GBGSV,6,1,22,22,60,302,42,37,11,035,31,20,12,102,,16,16,044,32*6E
$GBGSV,6,2,22,05,22,129,,06,19,046,24,36,36,156,36,44,18,264,40*60
$GBGSV,6,3,22,12,22,289,25,09,33,050,29,58,37,062,,48,32,100,*6F
$GBGSV,6,4,22,46,45,083,,19,59,089,44,11,02,335,,39,06,044,*6F
$GBGSV,6,5,22,21,10,288,25,45,01,189,,35,05,221,,34,09,314,*65
$GBGSV,6,6,22,02,06,107,,60,08,111,*66
$GPGGA,044557.00,,,,,0,00,,,M,,M,,*4F
$PTNL,GGK,044557.00,010125,4742.4463348,N,01617.9730150,E,1,19,1.6,EHT668.3027,M*4B
$GPGGQ,044557.00,010125,4742.4463348,N,01617.9730150,E,1,19,3.250,625.0917,M*36
$GPGFA,044557.00,10.438,24.464,1.098,0.678,339.696,2.983,,VVV*03
$GPLLK,044557.00,010125,,M,,M,1,19,1.9,,M*0C
$GNGMP,044557.00,,,,,DAAA,19,0.8,,,,*51
$GPGMP,044557.00,,,,,,06,,,,2.8,123*76
$GLGMP,044557.00,,,,,,05,,,,,*7D
$GAGMP,044557.00,,,,,,04,,,,,*71
$GBGMP,044557.00,,,,,,04,,,,,*72
$PSSN,SNC,[0,276375000,2347]*46
$GPZDA,044602.00,01,01,2025,,*67
$GPDTM,W84,,00.0000000,N,00.0000000,E,00.0000000,W84*5F
$GPRMC,044602.00,A,4742.4463267,N,01617.9730108,E,0.0,,010125,5.1,E,D*1F
$GPGLL,4742.4463267,N,01617.9730108,E,044602.00,A,D*6E
$GPGGA,044602.00,4742.4463267,N,01617.9730108,E,2,21,0.7,625.0688,M,43.2111,M,3.6,0123*41
$GNGNS,044602.00,4742.4463267,N,01617.9730108,E,DAAA,21,0.7,625.0688,43.2111,,*58
$GPGNS,044602.00,,,,,,07,,,,3.6,123*7B
$GLGNS,044602.00,,,,,,06,,,,,*7D
$GAGNS,044602.00,,,,,,04,,,,,*72
$GBGNS,044602.00,,,,,,04,,,,,*71
$GPLLQ,044602.00,010125,,M,,M,1,21,3.218,,M*1E
$GPVTG,,T,,M,0.01,N,0.01,K,D*26
$GPHDT,,T*1B
$GPTHS,,V*0E
$GPROT,,V*08
$PSSN,HRP,044602.00,010125,,,,,,,00,0,,*65
$PTNL,AVR,044602.00,,Yaw,,Tilt,,,,0,,00*33
$GPGSA,A,3,04,06,07,09,11,20,30,,,,,,1.4,0.7,1.2*3E
$GPGSA,A,3,71,72,73,80,87,88,,,,,,,1.4,0.7,1.2*33
$GPGSA,A,3,05,09,15,34,,,,,,,,,1.4,0.7,1.2*3C
$GPGSA,A,3,19,22,36,44,,,,,,,,,1.4,0.7,1.2*3E
$GPGST,044602.00,4.337,1.013,0.910,317.266,0.967,0.959,2.915*5E
$GPGBS,044602.00,2.955,3.672,7.929,30,0.0001,-1.946,0.795*7B
$GPGRS,044602.00,1,0.1,-1.1,0.7,1.1,1.4,-0.6,-1.9,,,,,*44
$GPGRS,044602.00,1,-1.9,3.5,4.2,-7.4,-6.5,-6.3,,,,,,*47
$GPGRS,044602.00,1,1.7,-1.1,-0.8,1.0,,,,,,,,*45
$GPGRS,044602.00,1,1.2,-2.4,-8.3,-1.4,,,,,,,,*6C
$GPGSV,4,1,15,09,67,058,46,20,31,307,47,30,29,203,36,16,18,058,25*70
$GPGSV,4,2,15,11,41,285,45,04,38,070,39,07,62,173,39,06,43,232,38*77
$GPGSV,4,3,15,26,07,031,,29,02,343,,03,10,129,,36,35,170,41*7E
$GPGSV,4,4,15,34,31,208,,49,34,195,34,61,03,257,*46
$GLGSV,3,1,09,71,67,024,47,72,38,298,43,86,21,227,30,88,14,339,35*65
$GLGSV,3,2,09,70,29,084,,74,18,161,,80,33,042,42,87,36,279,46*6D
$GLGSV,3,3,09,73,46,118,39*58
$GAGSV,3,1,11,05,78,297,46,36,21,187,31,06,18,073,24,24,14,128,*61
$GAGSV,3,2,11,31,22,076,26,15,31,311,44,03,27,261,33,09,41,068,44*6A
$GAGSV,3,3,11,34,50,243,49,16,03,150,,23,09,028,*50
$GBGSV,6,1,22,22,60,302,43,37,11,035,31,21,10,288,24,16,16,044,31*68
$GBGSV,6,2,22,05,22,129,,06,19,046,24,20,12,102,,36,36,156,35*6C
$GBGSV,6,3,22,44,18,264,40,09,33,050,29,12,22,289,24,58,37,062,*6F
$GBGSV,6,4,22,48,32,100,,46,45,083,,19,59,089,44,39,06,044,*64
$GBGSV,6,5,22,02,06,107,,45,01,189,,11,02,335,,35,05,221,*6F
$GBGSV,6,6,22,34,09,314,,60,08,111,*6C
$GPGGA,044602.00,,,,,0,00,,,M,,M,,*4C
$PTNL,GGK,044602.00,010125,4742.4463267,N,01617.9730108,E,1,21,1.4,EHT668.2799,M*43
$GPGGQ,044602.00,010125,4742.4463267,N,01617.9730108,E,1,21,3.218,625.0688,M*3A
$GPGFA,044602.00,9.635,23.905,1.013,0.910,317.266,2.915,,VVV*30
$GPLLK,044602.00,010125,,M,,M,1,21,1.6,,M*0B
$GNGMP,044602.00,,,,,DAAA,21,0.7,,,,*56
$GPGMP,044602.00,,,,,,07,,,,3.6,123*7B
$GLGMP,044602.00,,,,,,06,,,,,*7D
$GAGMP,044602.00,,,,,,04,,,,,*72
$GBGMP,044602.00,,,,,,04,,,,,*71
$PSSN,SNC,[0,276380000,2347]*4C
$GPZDA,044607.00,01,01,2025,,*62
$GPDTM,W84,,00.0000000,N,00.0000000,E,00.0000000,W84*5F
$GPRMC,044607.00,A,4742.4463323,N,01617.9730048,E,0.0,,010125,5.1,E,D*1E
$GPGLL,4742.4463323,N,01617.9730048,E,044607.00,A,D*6F
$GPGGA,044607.00,4742.4463323,N,01617.9730048,E,2,22,0.7,625.0571,M,43.2111,M,1.7,0123*45
$GNGNS,044607.00,4742.4463323,N,01617.9730048,E,DAAA,22,0.7,625.0571,43.2111,,*5F
$GPGNS,044607.00,,,,,,07,,,,1.7,123*7D
$GLGNS,044607.00,,,,,,06,,,,,*78
$GAGNS,044607.00,,,,,,04,,,,,*77
$GBGNS,044607.00,,,,,,05,,,,,*75
$GPLLQ,044607.00,010125,,M,,M,1,22,3.578,,M*19
$GPVTG,,T,,M,0.00,N,0.00,K,D*26
$GPHDT,,T*1B
$GPTHS,,V*0E
$GPROT,,V*08
$PSSN,HRP,044607.00,010125,,,,,,,00,0,,*60
$PTNL,AVR,044607.00,,Yaw,,Tilt,,,,0,,00*36
$GPGSA,A,3,04,06,07,09,11,20,30,,,,,,1.3,0.7,1.1*3A
$GPGSA,A,3,71,72,73,80,87,88,,,,,,,1.3,0.7,1.1*37
$GPGSA,A,3,05,09,15,34,,,,,,,,,1.3,0.7,1.1*38
$GPGSA,A,3,19,21,22,36,44,,,,,,,,1.3,0.7,1.1*39
$GPGST,044607.00,5.693,1.140,0.972,324.350,1.086,1.032,3.249*57
$GPGBS,044607.00,2.833,3.478,7.834,06,0.0001,-2.313,0.678*74
$GPGRS,044607.00,1,-0.8,-2.3,1.0,0.1,0.6,-1.1,2.5,,,,,*44
$GPGRS,044607.00,1,-2.2,2.7,7.2,-6.4,-7.0,-6.9,,,,,,*45
$GPGRS,044607.00,1,0.9,-1.8,-1.3,0.1,,,,,,,,*4C
$GPGRS,044607.00,1,0.4,14.5,-3.2,-6.5,-1.0,,,,,,,*7B
$GPGSV,4,1,15,09,67,059,47,20,31,307,47,30,29,203,38,16,18,058,27*7C
$GPGSV,4,2,15,11,41,285,44,04,38,070,39,07,62,173,39,06,43,231,35*78
$GPGSV,4,3,15,26,07,031,,29,02,343,,03,10,129,,36,35,170,41*7E
$GPGSV,4,4,15,34,31,208,,49,34,195,34,61,03,257,*46
$GLGSV,3,1,09,71,67,024,47,72,38,299,43,86,21,227,33,88,14,339,24*67
$GLGSV,3,2,09,70,29,084,29,74,18,161,,80,33,042,44,87,36,279,45*63
$GLGSV,3,3,09,73,46,117,38*56
$GAGSV,3,1,11,05,78,297,46,36,20,187,30,06,18,073,24,24,14,128,*61
$GAGSV,3,2,11,31,22,076,,15,31,311,43,03,27,261,33,09,41,068,43*6E
$GAGSV,3,3,11,34,50,243,49,16,03,150,,23,09,028,*50
$GBGSV,6,1,22,22,60,302,44,37,11,035,30,21,10,288,36,16,16,044,31*6D
$GBGSV,6,2,22,05,22,129,,06,19,046,24,20,12,102,,36,36,156,36*6F
$GBGSV,6,3,22,44,18,264,39,09,33,050,29,12,22,289,28,58,37,062,*6D
$GBGSV,6,4,22,48,32,100,,46,45,083,,19,59,090,44,39,06,044,*6C
$GBGSV,6,5,22,02,06,107,,45,01,189,,11,02,334,,35,05,221,*6E
$GBGSV,6,6,22,34,09,314,,60,08,111,*6C
$GPGGA,044607.00,,,,,0,00,,,M,,M,,*49
$PTNL,GGK,044607.00,010125,4742.4463323,N,01617.9730048,E,1,22,1.3,EHT668.2682,M*4D
$GPGGQ,044607.00,010125,4742.4463323,N,01617.9730048,E,1,22,3.578,625.0571,M*3C
$GPGFA,044607.00,10.840,26.644,1.140,0.972,324.350,3.249,,VVV*0A
$GPLLK,044607.00,010125,,M,,M,1,22,1.5,,M*0E
$GNGMP,044607.00,,,,,DAAA,22,0.7,,,,*50
$GPGMP,044607.00,,,,,,07,,,,1.7,123*7D
$GLGMP,044607.00,,,,,,06,,,,,*78
$GAGMP,044607.00,,,,,,04,,,,,*77
$GBGMP,044607.00,,,,,,05,,,,,*75
$PSSN,SNC,[0,276385000,2347]*49
$GPZDA,044612.00,01,01,2025,,*66
$GPDTM,W84,,00.0000000,N,00.0000000,E,00.0000000,W84*5F
$GPRMC,044612.00,A,4742.4463561,N,01617.9730169,E,0.0,,010125,5.1,E,D*18
$GPGLL,4742.4463561,N,01617.9730169,E,044612.00,A,D*69
$GPGGA,044612.00,4742.4463561,N,01617.9730169,E,2,21,0.7,625.0642,M,43.2111,M,2.2,0123*45
$GNGNS,044612.00,4742.4463561,N,01617.9730169,E,DAAA,21,0.7,625.0642,43.2111,,*59
$GPGNS,044612.00,,,,,,06,,,,2.2,123*7E
$GLGNS,044612.00,,,,,,06,,,,,*7C
$GAGNS,044612.00,,,,,,04,,,,,*73
$GBGNS,044612.00,,,,,,05,,,,,*71
$GPLLQ,044612.00,010125,,M,,M,1,21,3.880,,M*14
$GPVTG,,T,,M,0.01,N,0.01,K,D*26
$GPHDT,,T*1B
$GPTHS,,V*0E
$GPROT,,V*08
$PSSN,HRP,044612.00,010125,,,,,,,00,0,,*64
$PTNL,AVR,044612.00,,Yaw,,Tilt,,,,0,,00*32
$GPGSA,A,3,04,07,09,11,20,30,,,,,,,1.3,0.7,1.1*3C
$GPGSA,A,3,71,72,73,80,87,88,,,,,,,1.3,0.7,1.1*37
$GPGSA,A,3,05,09,15,34,,,,,,,,,1.3,0.7,1.1*38
$GPGSA,A,3,19,21,22,36,44,,,,,,,,1.3,0.7,1.1*39
$GPGST,044612.00,7.143,1.248,1.154,344.775,1.241,1.161,3.488*5D
$GPGBS,044612.00,3.550,3.851,8.064,04,0.0001,-2.512,0.746*75
$GPGRS,044612.00,1,-2.5,0.7,-0.3,0.9,-1.3,2.3,,,,,,*6F
$GPGRS,044612.00,1,-3.2,1.6,16.8,-5.8,-8.0,-8.1,,,,,,*7E
$GPGRS,044612.00,1,0.6,-1.5,-1.1,-0.7,,,,,,,,*63
$GPGRS,044612.00,1,-0.0,14.9,-3.5,-1.7,0.4,,,,,,,*70
$GPGSV,4,1,15,09,67,059,47,20,31,307,46,30,29,203,40,16,18,058,26*73
$GPGSV,4,2,15,11,41,285,43,04,38,070,38,07,62,173,39,06,43,231,34*7F
$GPGSV,4,3,15,26,07,031,,29,02,343,,03,10,129,,36,35,170,41*7E
$GPGSV,4,4,15,34,31,208,,49,34,195,34,61,03,257,*46
$GLGSV,3,1,09,71,67,024,47,72,38,299,43,86,21,227,34,88,14,339,35*60
$GLGSV,3,2,09,70,29,084,28,74,18,161,,87,36,279,44,80,33,042,44*63
$GLGSV,3,3,09,73,46,117,36*58
$GAGSV,3,1,11,05,78,297,46,36,20,187,29,06,18,073,24,24,14,128,*69
$GAGSV,3,2,11,31,22,076,30,15,31,311,42,03,27,261,33,09,41,068,42*6D
$GAGSV,3,3,11,34,50,243,48,16,03,150,,23,09,028,*51
$GBGSV,6,1,22,22,60,302,45,37,11,035,28,21,10,288,37,16,16,044,31*64
$GBGSV,6,2,22,05,22,129,,06,19,046,22,20,12,102,,36,36,156,37*68
$GBGSV,6,3,22,44,18,264,38,09,33,050,30,12,22,289,33,58,37,062,*6E
$GBGSV,6,4,22,48,32,100,,46,45,083,,19,59,090,44,39,06,044,*6C
$GBGSV,6,5,22,02,06,107,,45,01,189,,11,02,334,,35,05,221,*6E
$GBGSV,6,6,22,34,09,314,,60,08,111,*6C
$GPGGA,044612.00,,,,,0,00,,,M,,M,,*4D
$PTNL,GGK,044612.00,010125,4742.4463561,N,01617.9730169,E,1,21,1.3,EHT668.2752,M*44
$GPGGQ,044612.00,010125,4742.4463561,N,01617.9730169,E,1,21,3.880,625.0642,M*30
$GPGFA,044612.00,11.862,28.601,1.248,1.154,344.775,3.488,,VVV*08
$GPLLK,044612.00,010125,,M,,M,1,21,1.5,,M*09
$GNGMP,044612.00,,,,,DAAA,21,0.7,,,,*57
$GPGMP,044612.00,,,,,,06,,,,2.2,123*7E
$GLGMP,044612.00,,,,,,06,,,,,*7C
$GAGMP,044612.00,,,,,,04,,,,,*73
$GBGMP,044612.00,,,,,,05,,,,,*71
$PSSN,SNC,[0,276390000,2347]*4D
$GPZDA,044617.00,01,01,2025,,*63
$GPDTM,W84,,00.0000000,N,00.0000000,E,00.0000000,W84*5F
$GPRMC,044617.00,A,4742.4463773,N,01617.9730291,E,0.0,,010125,5.1,E,D*18
$GPGLL,4742.4463773,N,01617.9730291,E,044617.00,A,D*69
$GPGGA,044617.00,4742.4463773,N,01617.9730291,E,2,20,0.7,625.0725,M,43.2111,M,2.4,0123*42
$GNGNS,044617.00,4742.4463773,N,01617.9730291,E,DAAA,20,0.7,625.0725,43.2111,,*58
$GPGNS,044617.00,,,,,,05,,,,2.4,123*7E
$GLGNS,044617.00,,,,,,05,,,,,*7A
$GAGNS,044617.00,,,,,,04,,,,,*76
$GBGNS,044617.00,,,,,,06,,,,,*77
$GPLLQ,044617.00,010125,,M,,M,1,20,5.794,,M*1C
$GPVTG,,T,,M,0.01,N,0.01,K,D*26
$GPHDT,,T*1B
$GPTHS,,V*0E
$GPROT,,V*08
$PSSN,HRP,044617.00,010125,,,,,,,00,0,,*61
$PTNL,AVR,044617.00,,Yaw,,Tilt,,,,0,,00*37
$GPGSA,A,3,07,09,11,20,30,,,,,,,,1.4,0.7,1.2*3C
$GPGSA,A,3,71,72,80,87,88,,,,,,,,1.4,0.7,1.2*37
$GPGSA,A,3,05,09,15,34,,,,,,,,,1.4,0.7,1.2*3C
$GPGSA,A,3,12,19,21,22,36,44,,,,,,,1.4,0.7,1.2*3E
$GPGST,044617.00,7.248,2.330,1.083,73.658,1.229,2.257,5.193*6D
$GPGBS,044617.00,3.207,6.900,12.931,30,0.0001,2.298,0.766*6A
$GPGRS,044617.00,1,0.2,-0.9,1.2,-1.9,2.3,,,,,,,*61
$GPGRS,044617.00,1,-4.6,1.5,-7.4,-8.3,-9.2,,,,,,,*65
$GPGRS,044617.00,1,-0.5,-1.6,-1.7,-1.7,,,,,,,,*4C
$GPGRS,044617.00,1,8.5,-1.6,18.3,-4.2,1.0,0.2,,,,,,*7B
$GPGSV,4,1,15,09,67,059,47,20,31,307,46,30,29,203,41,16,18,058,25*71
$GPGSV,4,2,15,11,41,285,40,04,38,070,38,07,62,173,39,06,42,231,35*7C
$GPGSV,4,3,15,26,07,031,,29,02,343,,03,10,129,,36,35,170,42*7D
$GPGSV,4,4,15,34,31,208,,49,34,195,35,61,03,257,*47
$GLGSV,3,1,09,71,67,024,47,72,38,299,44,88,14,339,35,86,21,227,34*67
$GLGSV,3,2,09,70,29,084,,74,18,161,,80,33,042,43,87,36,279,43*69
$GLGSV,3,3,09,73,46,117,33*5D
$GAGSV,3,1,11,05,78,297,46,36,20,187,27,06,18,073,25,24,14,128,*66
$GAGSV,3,2,11,31,22,076,32,15,31,311,42,03,27,261,35,09,41,068,42*69
$GAGSV,3,3,11,34,50,243,48,16,03,150,,23,09,028,*51
$GBGSV,6,1,22,22,60,302,46,37,11,035,25,21,10,288,36,16,16,044,31*6B
$GBGSV,6,2,22,05,22,129,,06,19,046,22,20,12,102,,36,36,156,38*67
$GBGSV,6,3,22,44,18,263,38,09,33,050,29,12,22,289,36,58,37,062,*64
$GBGSV,6,4,22,48,32,100,,46,45,083,,19,59,090,44,39,06,044,*6C
$GBGSV,6,5,22,02,06,107,,45,01,189,,11,02,334,,35,05,221,*6E
$GBGSV,6,6,22,34,09,314,,60,08,111,*6C
$GPGGA,044617.00,,,,,0,00,,,M,,M,,*48
$PTNL,GGK,044617.00,010125,4742.4463773,N,01617.9730291,E,1,20,1.4,EHT668.2835,M*4C
$GPGGQ,044617.00,010125,4742.4463773,N,01617.9730291,E,1,20,5.794,625.0725,M*3D
$GPGFA,044617.00,22.156,42.584,2.330,1.083,73.658,5.193,,VVV*37
$GPLLK,044617.00,010125,,M,,M,1,20,1.6,,M*0E
$GNGMP,044617.00,,,,,DAAA,20,0.7,,,,*53
$GPGMP,044617.00,,,,,,05,,,,2.4,123*7E
$GLGMP,044617.00,,,,,,05,,,,,*7A
$GAGMP,044617.00,,,,,,04,,,,,*76
$GBGMP,044617.00,,,,,,06,,,,,*77
$PSSN,SNC,[0,276395000,2347]*48
$GPZDA,044622.00,01,01,2025,,*65
$GPDTM,W84,,00.0000000,N,00.0000000,E,00.0000000,W84*5F
$GPRMC,044622.00,A,4742.4463858,N,01617.9730278,E,0.0,,010125,5.1,E,D*1F
$GPGLL,4742.4463858,N,01617.9730278,E,044622.00,A,D*6E
$GPGGA,044622.00,4742.4463858,N,01617.9730278,E,2,20,0.8,625.0851,M,43.2111,M,3.8,0123*4B
$GNGNS,044622.00,4742.4463858,N,01617.9730278,E,DAAA,20,0.8,625.0851,43.2111,,*5C
$GPGNS,044622.00,,,,,,05,,,,3.8,123*75
$GLGNS,044622.00,,,,,,05,,,,,*7C
$GAGNS,044622.00,,,,,,04,,,,,*70
$GBGNS,044622.00,,,,,,06,,,,,*71
$GPLLQ,044622.00,010125,,M,,M,1,20,8.967,,M*15
$GPVTG,,T,,M,0.00,N,0.01,K,D*27
$GPHDT,,T*1B
$GPTHS,,V*0E
$GPROT,,V*08
$PSSN,HRP,044622.00,010125,,,,,,,00,0,,*67
$PTNL,AVR,044622.00,,Yaw,,Tilt,,,,0,,00*31
$GPGSA,A,3,06,07,09,11,20,,,,,,,,1.4,0.8,1.2*36
$GPGSA,A,3,71,72,80,87,88,,,,,,,,1.4,0.8,1.2*38
$GPGSA,A,3,05,09,15,34,,,,,,,,,1.4,0.8,1.2*33
$GPGSA,A,3,12,19,21,22,36,44,,,,,,,1.4,0.8,1.2*31
$GPGST,044622.00,7.572,2.807,1.226,286.588,1.422,2.713,8.427*5E
$GPGBS,044622.00,4.551,9.525,23.943,21,0.0001,20.263,8.749*5D
$GPGRS,044622.00,1,-1.1,0.5,-0.1,1.6,-1.2,,,,,,,*4B
$GPGRS,044622.00,1,-3.5,4.6,-7.3,-6.7,-9.2,,,,,,,*6C
$GPGRS,044622.00,1,0.3,-0.3,-1.1,-0.9,,,,,,,,*6C
$GPGRS,044622.00,1,9.4,-1.2,20.3,-3.4,3.1,-0.4,,,,,,*5B
$GPGSV,4,1,15,09,67,059,47,20,31,307,47,30,29,203,42,16,18,058,*74
$GPGSV,4,2,15,11,41,285,39,04,38,070,38,07,62,173,38,06,42,231,37*71
$GPGSV,4,3,15,26,07,031,,29,02,343,,03,09,129,,36,35,170,41*76
$GPGSV,4,4,15,34,31,208,,49,34,195,34,61,03,257,*46
$GLGSV,3,1,09,71,67,024,47,72,38,299,45,86,21,227,32,88,14,339,35*60
$GLGSV,3,2,09,70,29,084,20,74,18,161,,80,33,042,42,87,36,279,43*6A
$GLGSV,3,3,09,73,46,117,29*56
$GAGSV,3,1,11,05,78,297,45,36,20,187,26,06,18,073,25,24,14,128,*64
$GAGSV,3,2,11,31,23,076,34,15,31,311,42,03,27,261,35,09,41,068,43*6F
$GAGSV,3,3,11,34,50,243,48,16,03,150,,23,09,028,*51
$GBGSV,6,1,22,22,60,302,46,37,11,035,,21,10,288,36,16,16,044,30*6D
$GBGSV,6,2,22,05,22,129,,06,19,046,24,20,12,102,,36,36,156,39*60
$GBGSV,6,3,22,44,18,263,37,09,33,050,29,12,22,289,38,58,37,062,*65
$GBGSV,6,4,22,48,32,100,,46,45,083,,19,59,090,45,39,06,044,*6D
$GBGSV,6,5,22,02,06,107,,45,01,189,,11,02,334,,35,05,221,*6E
$GBGSV,6,6,22,34,09,314,,60,08,111,*6C
$GPGGA,044622.00,,,,,0,00,,,M,,M,,*4E
$PTNL,GGK,044622.00,010125,4742.4463858,N,01617.9730278,E,1,20,1.4,EHT668.2962,M*48
$GPGGQ,044622.00,010125,4742.4463858,N,01617.9730278,E,1,20,8.967,625.0851,M*39
$GPGFA,044622.00,26.693,69.103,2.807,1.226,286.588,8.427,,VVV*0A
$GPLLK,044622.00,010125,,M,,M,1,20,1.7,,M*09
$GNGMP,044622.00,,,,,DAAA,20,0.8,,,,*5A
$GPGMP,044622.00,,,,,,05,,,,3.8,123*75
$GLGMP,044622.00,,,,,,05,,,,,*7C
$GAGMP,044622.00,,,,,,04,,,,,*70
$GBGMP,044622.00,,,,,,06,,,,,*71
$PSSN,SNC,[0,276400000,2347]*43
$GPZDA,044627.00,01,01,2025,,*60
$GPDTM,W84,,00.0000000,N,00.0000000,E,00.0000000,W84*5F
$GPRMC,044627.00,A,4742.4463936,N,01617.9730335,E,0.0,,010125,5.1,E,D*1B
$GPGLL,4742.4463936,N,01617.9730335,E,044627.00,A,D*6A
$GPGGA,044627.00,4742.4463936,N,01617.9730335,E,2,20,0.7,625.0839,M,43.2111,M,1.8,0123*4C
$GNGNS,044627.00,4742.4463936,N,01617.9730335,E,DAAA,20,0.7,625.0839,43.2111,,*59
$GPGNS,044627.00,,,,,,06,,,,1.8,123*71
$GLGNS,044627.00,,,,,,04,,,,,*78
$GAGNS,044627.00,,,,,,04,,,,,*75
$GBGNS,044627.00,,,,,,06,,,,,*74
$GPLLQ,044627.00,010125,,M,,M,1,20,5.923,,M*1D
$GPVTG,,T,,M,0.00,N,0.01,K,D*27
$GPHDT,,T*1B
$GPTHS,,V*0E
$GPROT,,V*08
$PSSN,HRP,044627.00,010125,,,,,,,00,0,,*62
$PTNL,AVR,044627.00,,Yaw,,Tilt,,,,0,,00*34
$GPGSA,A,3,06,07,09,11,20,30,,,,,,,1.4,0.7,1.2*3A
$GPGSA,A,3,71,72,80,87,,,,,,,,,1.4,0.7,1.2*37
$GPGSA,A,3,05,09,15,34,,,,,,,,,1.4,0.7,1.2*3C
$GPGSA,A,3,12,19,21,22,36,44,,,,,,,1.4,0.7,1.2*3E
$GPGST,044627.00,6.716,2.062,1.144,83.466,1.161,2.052,5.433*68
$GPGBS,044627.00,3.073,4.533,15.724,30,0.0001,2.823,0.794*6C
$GPGRS,044627.00,1,0.4,0.3,-1.2,1.1,-1.5,2.8,,,,,,*47
$GPGRS,044627.00,1,-3.3,6.3,-7.9,-7.0,,,,,,,,*6C
$GPGRS,044627.00,1,-0.3,-0.9,-1.4,-1.5,,,,,,,,*46
$GPGRS,044627.00,1,10.5,-1.4,16.2,-3.9,2.2,-3.7,,,,,,*6A
$GPGSV,4,1,15,09,67,059,46,20,31,307,46,30,29,203,41,16,18,058,*77
$GPGSV,4,2,15,11,41,285,37,04,38,070,39,07,62,173,38,06,42,231,38*71
$GPGSV,4,3,15,26,07,031,,29,02,343,,03,09,129,,36,35,170,42*75
$GPGSV,4,4,15,34,31,208,,49,34,195,34,61,03,257,*46
$GLGSV,3,1,09,71,67,024,48,72,38,299,47,86,21,227,33,88,14,339,35*6C
$GLGSV,3,2,09,70,29,084,,74,18,161,,80,33,042,40,87,36,279,42*6B
$GLGSV,3,3,09,73,46,117,32*5C
$GAGSV,3,1,11,05,78,297,45,36,20,187,27,06,18,073,24,24,14,128,*64
$GAGSV,3,2,11,31,23,076,33,15,31,311,43,03,27,261,33,09,41,068,43*6F
$GAGSV,3,3,11,34,50,242,47,16,03,150,,23,09,028,*5F
$GBGSV,6,1,22,22,61,302,47,37,11,035,,21,10,288,36,16,16,044,30*6D
$GBGSV,6,2,22,05,22,129,,06,19,046,22,20,12,102,,36,36,156,39*66
$GBGSV,6,3,22,44,18,263,36,09,33,050,28,12,22,289,38,58,37,062,*65
$GBGSV,6,4,22,48,32,100,,46,45,083,,19,59,090,45,39,06,044,*6D
$GBGSV,6,5,22,02,06,107,,45,01,189,,11,02,334,,35,05,221,*6E
$GBGSV,6,6,22,34,09,314,,60,08,111,*6C
