$GPZDA,085942.00,01,01,2025,,*61
$GPDTM,W84,,00.0000000,N,00.0000000,E,00.0000000,W84*5F
$GPRMC,085942.00,A,4742.4457076,N,01617.9742266,E,0.0,,010125,5.1,E,D*12
$GPGLL,4742.4457076,N,01617.9742266,E,085942.00,A,D*63
$GPGGA,085942.00,4742.4457076,N,01617.9742266,E,2,18,1.0,623.5601,M,43.2110,M,3.2,0123*47
$GNGNS,085942.00,4742.4457076,N,01617.9742266,E,DAAA,18,1.0,623.5601,43.2110,,*5A
$GPGNS,085942.00,,,,,,05,,,,3.2,123*7B
$GLGNS,085942.00,,,,,,04,,,,,*79
$GAGNS,085942.00,,,,,,04,,,,,*74
$GBGNS,085942.00,,,,,,05,,,,,*76
$GPLLQ,085942.00,010125,,M,,M,1,18,7.483,,M*12
$GPVTG,,T,,M,0.00,N,0.00,K,D*26
$GPHDT,,T*1B
$GPTHS,,V*0E
$GPROT,,V*08
$PSSN,HRP,085942.00,010125,,,,,,,00,0,,*63
$PTNL,AVR,085942.00,,Yaw,,Tilt,,,,0,,00*35
$GPGSA,A,3,13,14,15,23,30,,,,,,,,1.8,1.0,1.5*3F
$GPGSA,A,3,65,66,75,76,,,,,,,,,1.8,1.0,1.5*3E
$GPGSA,A,3,03,08,24,25,,,,,,,,,1.8,1.0,1.5*34
$GPGSA,A,3,14,21,26,40,45,,,,,,,,1.8,1.0,1.5*39
$GPGST,085942.00,4.041,5.496,0.743,10.313,5.409,1.226,5.023*61
$GPGBS,085942.00,19.868,4.390,17.245,15,0.0001,1.321,0.672*5F
$GPGRS,085942.00,1,-1.0,-0.5,1.3,-1.0,0.2,,,,,,,*4A
$GPGRS,085942.00,1,0.2,-3.0,-1.1,-2.8,,,,,,,,*6A
$GPGRS,085942.00,1,-3.2,-2.3,10.4,-1.0,,,,,,,,*55
$GPGRS,085942.00,1,0.7,-2.5,-4.1,0.4,-2.8,,,,,,,*44
$GPGSV,5,1,17,13,89,246,49,23,16,323,44,05,30,219,35,17,19,124,*72
$GPGSV,5,2,17,24,16,271,30,30,36,077,44,15,52,297,41,22,69,137,*78
$GPGSV,5,3,17,14,63,081,41,19,04,149,,07,03,081,,20,06,196,20*70
$GPGSV,5,4,17,08,01,021,,36,35,170,38,34,31,208,,49,34,195,*72
$GPGSV,5,5,17,61,03,257,*4B
$GLGSV,3,1,10,65,68,179,49,74,10,046,22,72,13,153,26,76,51,236,48*63
$GLGSV,3,2,10,66,52,318,52,75,62,034,40,67,02,328,37,77,06,230,*63
$GLGSV,3,3,10,83,08,354,,84,06,053,*69
$GAGSV,3,1,11,03,70,135,37,24,20,045,36,05,18,128,29,16,45,057,*65
$GAGSV,3,2,11,02,45,193,34,08,54,303,44,25,65,086,41,13,01,275,*63
$GAGSV,3,3,11,07,04,306,26,26,05,322,28,33,00,007,*55
$GBGSV,5,1,19,45,67,060,43,22,12,160,24,05,20,130,,36,17,060,*64
$GBGSV,5,2,19,14,27,314,46,40,28,053,43,56,26,086,,10,35,071,*67
$GBGSV,5,3,19,21,56,195,48,42,51,295,29,26,53,242,37,50,64,247,*67
$GBGSV,5,4,19,24,04,240,,30,08,052,,29,04,102,,02,04,109,*68
$GBGSV,5,5,19,33,05,324,34,09,05,082,,60,07,112,*51
$GPGGA,085942.00,,,,,0,00,,,M,,M,,*4A
$PTNL,GGK,085942.00,010125,4742.4457076,N,01617.9742266,E,1,18,1.8,EHT666.7711,M*43
$GPGGQ,085942.00,010125,4742.4457076,N,01617.9742266,E,1,18,7.483,623.5601,M*3F
$GPGFA,085942.00,52.254,41.192,5.496,0.743,10.313,5.023,,VVV*30
$GPLLK,085942.00,010125,,M,,M,1,18,2.2,,M*00
$GNGMP,085942.00,,,,,DAAA,18,1.0,,,,*5C
$GPGMP,085942.00,,,,,,05,,,,3.2,123*7B
$GLGMP,085942.00,,,,,,04,,,,,*79
$GAGMP,085942.00,,,,,,04,,,,,*74
$GBGMP,085942.00,,,,,,05,,,,,*76
$PSSN,SNC,[0,291600000,2347]*48
$GPZDA,085947.00,01,01,2025,,*64
$GPDTM,W84,,00.0000000,N,00.0000000,E,00.0000000,W84*5F
$GPRMC,085947.00,A,4742.4457091,N,01617.9742154,E,0.0,,010125,5.1,E,D*1C
$GPGLL,4742.4457091,N,01617.9742154,E,085947.00,A,D*6D
$GPGGA,085947.00,4742.4457091,N,01617.9742154,E,2,19,0.8,623.5646,M,43.2110,M,2.6,0123*47
$GNGNS,085947.00,4742.4457091,N,01617.9742154,E,DAAA,19,0.8,623.5646,43.2110,,*5F
$GPGNS,085947.00,,,,,,05,,,,2.6,123*7B
$GLGNS,085947.00,,,,,,04,,,,,*7C
$GAGNS,085947.00,,,,,,05,,,,,*70
$GBGNS,085947.00,,,,,,05,,,,,*73
$GPLLQ,085947.00,010125,,M,,M,1,19,6.354,,M*1A
$GPVTG,,T,,M,0.01,N,0.01,K,D*26
$GPHDT,,T*1B
$GPTHS,,V*0E
$GPROT,,V*08
$PSSN,HRP,085947.00,010125,,,,,,,00,0,,*66
$PTNL,AVR,085947.00,,Yaw,,Tilt,,,,0,,00*30
$GPGSA,A,3,13,14,15,23,30,,,,,,,,1.6,0.8,1.4*39
$GPGSA,A,3,65,66,75,76,,,,,,,,,1.6,0.8,1.4*38
$GPGSA,A,3,02,03,08,24,25,,,,,,,,1.6,0.8,1.4*30
$GPGSA,A,3,14,21,26,40,45,,,,,,,,1.6,0.8,1.4*3F
$GPGST,085947.00,3.888,4.589,0.772,10.129,4.519,1.109,4.326*61
$GPGBS,085947.00,19.552,3.619,17.239,15,0.0001,-1.810,0.692*7C
$GPGRS,085947.00,1,-0.1,1.0,-1.8,-0.6,0.5,,,,,,,*40
$GPGRS,085947.00,1,1.4,-1.7,0.9,-1.3,,,,,,,,*41
$GPGRS,085947.00,1,2.6,-2.3,-1.6,11.8,0.1,,,,,,,*5C
$GPGRS,085947.00,1,1.3,-1.2,-1.9,2.1,-2.3,,,,,,,*41
$GPGSV,5,1,17,13,89,243,48,23,16,323,44,05,30,219,36,17,19,124,27*70
$GPGSV,5,2,17,24,16,271,32,30,36,077,45,15,52,297,40,22,69,137,*7A
$GPGSV,5,3,17,14,63,081,43,19,04,149,,07,03,081,,20,06,196,*70
$GPGSV,5,4,17,08,01,021,,36,35,170,38,34,31,208,,49,34,195,*72
$GPGSV,5,5,17,61,03,257,*4B
$GLGSV,3,1,10,65,68,179,48,74,10,046,21,72,13,153,27,76,51,236,49*61
$GLGSV,3,2,10,66,52,318,52,75,62,034,41,67,02,328,38,77,06,230,*6D
$GLGSV,3,3,10,83,08,354,,84,06,053,*69
$GAGSV,3,1,11,03,70,135,37,24,20,045,36,05,18,128,29,16,45,057,*65
$GAGSV,3,2,11,02,45,193,37,08,54,303,44,25,65,086,42,13,01,275,*63
$GAGSV,3,3,11,07,04,306,32,26,05,322,26,33,00,007,*5E
$GBGSV,5,1,19,45,67,060,43,22,12,160,25,05,20,130,,36,16,060,*64
$GBGSV,5,2,19,14,27,314,46,40,28,053,43,56,26,086,,10,35,071,*67
$GBGSV,5,3,19,21,56,195,48,42,51,295,28,26,53,242,37,50,64,247,*66
$GBGSV,5,4,19,24,04,240,,30,08,052,,29,04,102,,02,04,109,*68
$GBGSV,5,5,19,33,05,324,35,09,05,082,,60,07,112,*50
$GPGGA,085947.00,,,,,0,00,,,M,,M,,*4F
$PTNL,GGK,085947.00,010125,4742.4457091,N,01617.9742154,E,1,19,1.6,EHT666.7756,M*41
$GPGGQ,085947.00,010125,4742.4457091,N,01617.9742154,E,1,19,6.354,623.5646,M*3F
$GPGFA,085947.00,43.628,35.477,4.589,0.772,10.129,4.326,,VVV*37
$GPLLK,085947.00,010125,,M,,M,1,19,2.0,,M*06
$GNGMP,085947.00,,,,,DAAA,19,0.8,,,,*51
$GPGMP,085947.00,,,,,,05,,,,2.6,123*7B
$GLGMP,085947.00,,,,,,04,,,,,*7C
$GAGMP,085947.00,,,,,,05,,,,,*70
$GBGMP,085947.00,,,,,,05,,,,,*73
$PSSN,SNC,[0,291605000,2347]*4D
$GPZDA,085952.00,01,01,2025,,*60
$GPDTM,W84,,00.0000000,N,00.0000000,E,00.0000000,W84*5F
$GPRMC,085952.00,A,4742.4457046,N,01617.9741912,E,0.0,,010125,5.1,E,D*1B
$GPGLL,4742.4457046,N,01617.9741912,E,085952.00,A,D*6A
$GPGGA,085952.00,4742.4457046,N,01617.9741912,E,2,19,0.8,623.5543,M,43.2110,M,3.0,0123*41
$GNGNS,085952.00,4742.4457046,N,01617.9741912,E,DAAA,19,0.8,623.5543,43.2110,,*5E
$GPGNS,085952.00,,,,,,05,,,,3.0,123*78
$GLGNS,085952.00,,,,,,04,,,,,*78
$GAGNS,085952.00,,,,,,05,,,,,*74
$GBGNS,085952.00,,,,,,05,,,,,*77
$GPLLQ,085952.00,010125,,M,,M,1,19,1.721,,M*1F
$GPVTG,,T,,M,0.01,N,0.01,K,D*26
$GPHDT,,T*1B
$GPTHS,,V*0E
$GPROT,,V*08
$PSSN,HRP,085952.00,010125,,,,,,,00,0,,*62
$PTNL,AVR,085952.00,,Yaw,,Tilt,,,,0,,00*34
$GPGSA,A,3,05,13,14,23,30,,,,,,,,1.5,0.8,1.2*3D
$GPGSA,A,3,65,66,75,76,,,,,,,,,1.5,0.8,1.2*3D
$GPGSA,A,3,02,03,08,24,25,,,,,,,,1.5,0.8,1.2*35
$GPGSA,A,3,14,21,26,40,45,,,,,,,,1.5,0.8,1.2*3A
$GPGST,085952.00,4.024,0.915,0.608,328.738,0.843,0.704,1.324*58
$GPGBS,085952.00,5.335,4.752,8.480,24,0.0001,11.590,6.295*6F
$GPGRS,085952.00,1,0.6,0.0,0.6,-0.7,0.1,,,,,,,*48
$GPGRS,085952.00,1,1.1,-0.9,0.2,-1.0,,,,,,,,*47
$GPGRS,085952.00,1,5.6,-2.6,-1.8,11.6,-0.6,,,,,,,*70
$GPGRS,085952.00,1,0.5,-1.1,-1.4,2.2,-2.4,,,,,,,*48
$GPGSV,5,1,17,13,89,239,48,23,16,323,43,24,16,271,33,05,30,219,36*73
$GPGSV,5,2,17,17,19,124,29,30,36,077,46,15,52,297,39,22,69,137,*71
$GPGSV,5,3,17,14,63,081,44,19,04,149,,07,03,081,,08,01,021,*77
$GPGSV,5,4,17,20,06,196,,36,35,170,37,34,31,208,,49,34,195,*7D
$GPGSV,5,5,17,61,03,257,*4B
$GLGSV,3,1,10,65,68,179,48,74,10,046,,72,13,153,26,76,51,236,49*63
$GLGSV,3,2,10,66,52,318,53,75,62,034,41,67,02,328,38,77,06,230,*6C
$GLGSV,3,3,10,83,08,354,,84,07,053,*68
$GAGSV,3,1,11,03,70,135,37,24,20,045,36,05,18,128,30,16,45,057,*6D
$GAGSV,3,2,11,02,45,193,38,08,54,303,44,25,65,086,41,13,01,275,*6F
$GAGSV,3,3,11,07,04,306,32,26,05,322,21,33,00,007,*59
$GBGSV,5,1,19,45,67,060,44,22,12,160,25,05,20,130,,36,16,060,*63
$GBGSV,5,2,19,14,27,314,46,40,28,053,43,56,26,086,,10,35,071,*67
$GBGSV,5,3,19,21,56,195,48,42,51,295,31,26,53,242,37,50,64,247,*6E
$GBGSV,5,4,19,24,04,240,,30,08,051,,29,04,102,,02,04,109,*6B
$GBGSV,5,5,19,33,05,324,35,09,05,082,,60,07,112,*50
$GPGGA,085952.00,,,,,0,00,,,M,,M,,*4B
$PTNL,GGK,085952.00,010125,4742.4457046,N,01617.9741912,E,1,19,1.5,EHT666.7653,M*41
$GPGGQ,085952.00,010125,4742.4457046,N,01617.9741912,E,1,19,1.721,623.5543,M*3F
$GPGFA,085952.00,8.701,10.860,0.915,0.608,328.738,1.324,,VVV*33
$GPLLK,085952.00,010125,,M,,M,1,19,1.7,,M*06
$GNGMP,085952.00,,,,,DAAA,19,0.8,,,,*55
$GPGMP,085952.00,,,,,,05,,,,3.0,123*78
$GLGMP,085952.00,,,,,,04,,,,,*78
$GAGMP,085952.00,,,,,,05,,,,,*74
$GBGMP,085952.00,,,,,,05,,,,,*77
$PSSN,SNC,[0,291610000,2347]*49
$GPZDA,085957.00,01,01,2025,,*65
$GPDTM,W84,,00.0000000,N,00.0000000,E,00.0000000,W84*5F
$GPRMC,085957.00,A,4742.4457193,N,01617.9741856,E,0.0,,010125,5.1,E,D*16
$GPGLL,4742.4457193,N,01617.9741856,E,085957.00,A,D*67
$GPGGA,085957.00,4742.4457193,N,01617.9741856,E,2,21,0.7,623.5610,M,43.2110,M,3.2,0123*4F
$GNGNS,085957.00,4742.4457193,N,01617.9741856,E,DAAA,21,0.7,623.5610,43.2110,,*52
$GPGNS,085957.00,,,,,,06,,,,3.2,123*7C
$GLGNS,085957.00,,,,,,04,,,,,*7D
$GAGNS,085957.00,,,,,,05,,,,,*71
$GBGNS,085957.00,,,,,,06,,,,,*71
$GPLLQ,085957.00,010125,,M,,M,1,21,1.934,,M*1B
$GPVTG,,T,,M,0.01,N,0.02,K,D*25
$GPHDT,,T*1B
$GPTHS,,V*0E
$GPROT,,V*08
$PSSN,HRP,085957.00,010125,,,,,,,00,0,,*67
$PTNL,AVR,085957.00,,Yaw,,Tilt,,,,0,,00*31
$GPGSA,A,3,05,13,14,15,23,30,,,,,,,1.4,0.7,1.2*37
$GPGSA,A,3,65,66,75,76,,,,,,,,,1.4,0.7,1.2*33
$GPGSA,A,3,02,03,08,24,25,,,,,,,,1.4,0.7,1.2*3B
$GPGSA,A,3,14,21,26,40,42,45,,,,,,,1.4,0.7,1.2*32
$GPGST,085957.00,4.197,0.940,0.669,351.533,0.935,0.676,1.553*56
$GPGBS,085957.00,5.439,3.503,6.460,24,0.0001,11.538,6.274*6D
$GPGRS,085957.00,1,1.4,0.2,0.1,-0.8,-1.6,-0.3,,,,,,*6F
$GPGRS,085957.00,1,1.2,-0.4,1.5,-0.5,,,,,,,,*4E
$GPGRS,085957.00,1,3.8,-2.5,-1.4,11.5,-0.5,,,,,,,*72
$GPGRS,085957.00,1,0.1,-0.9,-0.2,2.5,8.3,-2.0,,,,,,*61
$GPGSV,5,1,17,13,89,238,48,23,16,323,43,24,16,271,31,05,30,219,37*71
$GPGSV,5,2,17,17,19,124,27,30,36,077,46,15,53,297,41,22,69,137,*71
$GPGSV,5,3,17,14,63,081,45,19,04,149,,07,03,081,,08,01,021,*76
$GPGSV,5,4,17,20,06,196,,36,35,170,37,34,31,208,,49,34,195,*7D
$GPGSV,5,5,17,61,03,257,*4B
$GLGSV,3,1,10,65,68,179,47,74,10,046,,72,12,153,25,76,51,236,49*6E
$GLGSV,3,2,10,66,52,318,53,75,62,034,40,67,02,328,,77,06,230,*66
$GLGSV,3,3,10,83,08,354,30,84,07,053,*6B
$GAGSV,3,1,11,03,70,135,37,24,20,045,36,05,18,128,30,16,45,057,*6D
$GAGSV,3,2,11,02,45,193,39,08,54,303,44,25,65,086,42,13,01,275,*6D
$GAGSV,3,3,11,07,04,306,26,26,05,322,32,33,00,007,*5E
$GBGSV,5,1,19,45,67,060,45,22,12,160,27,05,20,130,,36,16,060,22*60
$GBGSV,5,2,19,14,27,314,45,40,28,053,43,56,26,086,,10,35,071,*64
$GBGSV,5,3,19,21,56,195,48,42,51,295,35,26,53,242,38,50,64,247,*65
$GBGSV,5,4,19,24,04,240,,30,08,051,,29,04,102,,02,04,109,*6B
$GBGSV,5,5,19,33,05,324,35,09,05,082,,60,07,112,*50
$GPGGA,085957.00,,,,,0,00,,,M,,M,,*4E
$PTNL,GGK,085957.00,010125,4742.4457193,N,01617.9741856,E,1,21,1.4,EHT666.7720,M*43
$GPGGQ,085957.00,010125,4742.4457193,N,01617.9741856,E,1,21,1.934,623.5610,M*36
$GPGFA,085957.00,8.933,12.731,0.940,0.669,351.533,1.553,,VVV*36
$GPLLK,085957.00,010125,,M,,M,1,21,1.7,,M*08
$GNGMP,085957.00,,,,,DAAA,21,0.7,,,,*54
$GPGMP,085957.00,,,,,,06,,,,3.2,123*7C
$GLGMP,085957.00,,,,,,04,,,,,*7D
$GAGMP,085957.00,,,,,,05,,,,,*71
$GBGMP,085957.00,,,,,,06,,,,,*71
$PSSN,SNC,[0,291615000,2347]*4C
$GPZDA,090002.00,01,01,2025,,*68
$GPDTM,W84,,00.0000000,N,00.0000000,E,00.0000000,W84*5F
$GPRMC,090002.00,A,4742.4457277,N,01617.9741794,E,0.0,,010125,5.1,E,D*13
$GPGLL,4742.4457277,N,01617.9741794,E,090002.00,A,D*62
$GPGGA,090002.00,4742.4457277,N,01617.9741794,E,2,20,0.8,623.5587,M,43.2110,M,2.2,0123*48
$GNGNS,090002.00,4742.4457277,N,01617.9741794,E,DAAA,20,0.8,623.5587,43.2110,,*54
$GPGNS,090002.00,,,,,,06,,,,2.2,123*70
$GLGNS,090002.00,,,,,,03,,,,,*77
$GAGNS,090002.00,,,,,,05,,,,,*7C
$GBGNS,090002.00,,,,,,06,,,,,*7C
$GPLLQ,090002.00,010125,,M,,M,1,20,1.524,,M*1A
$GPVTG,,T,,M,0.01,N,0.02,K,D*25
$GPHDT,,T*1B
$GPTHS,,V*0E
$GPROT,,V*08
$PSSN,HRP,090002.00,010125,,,,,,,00,0,,*6A
$PTNL,AVR,090002.00,,Yaw,,Tilt,,,,0,,00*3C
$GPGSA,A,3,05,13,14,15,23,30,,,,,,,1.4,0.8,1.2*38
$GPGSA,A,3,65,66,76,,,,,,,,,,1.4,0.8,1.2*3E
$GPGSA,A,3,02,03,08,24,25,,,,,,,,1.4,0.8,1.2*34
$GPGSA,A,3,14,21,26,40,42,45,,,,,,,1.4,0.8,1.2*3D
$GPGST,090002.00,3.848,0.746,0.525,350.665,0.741,0.532,1.220*58
$GPGBS,090002.00,5.243,3.451,6.441,24,0.0001,11.177,6.274*61
$GPGRS,090002.00,1,-0.4,0.1,0.2,0.1,-1.4,-0.0,,,,,,*6B
$GPGRS,090002.00,1,1.5,-0.5,0.2,,,,,,,,,*45
$GPGRS,090002.00,1,0.7,-2.3,-0.9,11.2,-1.0,,,,,,,*7A
$GPGRS,090002.00,1,0.3,-0.8,0.1,2.0,7.0,-1.5,,,,,,*4E
$GPGSV,5,1,17,13,89,234,48,23,16,323,43,24,16,271,27,05,30,219,36*7B
$GPGSV,5,2,17,17,19,124,26,30,36,077,45,15,53,297,41,22,69,137,*73
$GPGSV,5,3,17,14,63,080,45,19,04,149,,07,03,081,,08,01,021,*77
$GPGSV,5,4,17,20,06,196,,36,35,170,38,34,31,208,,49,34,195,*72
$GPGSV,5,5,17,61,03,257,*4B
$GLGSV,3,1,10,65,68,179,48,74,10,046,20,72,12,153,28,76,51,236,49*6E
$GLGSV,3,2,10,66,52,318,53,75,62,034,35,67,02,328,,77,06,230,*64
$GLGSV,3,3,10,83,08,354,33,84,07,053,*68
$GAGSV,3,1,11,03,70,135,38,24,20,045,35,05,18,128,30,16,45,057,*61
$GAGSV,3,2,11,02,45,193,40,08,54,303,44,25,65,086,42,13,01,275,*63
$GAGSV,3,3,11,07,04,306,27,26,05,322,27,33,00,007,*5B
$GBGSV,5,1,19,45,67,060,44,22,12,160,27,05,20,130,,36,16,060,24*67
$GBGSV,5,2,19,14,27,314,45,40,28,053,43,56,26,086,,10,35,071,*64
$GBGSV,5,3,19,21,56,195,47,42,51,295,37,26,53,242,37,50,64,247,*67
$GBGSV,5,4,19,24,04,240,,30,08,051,,29,04,102,,02,04,109,*6B
$GBGSV,5,5,19,33,05,324,36,09,05,082,,60,07,112,*53
$GPGGA,090002.00,,,,,0,00,,,M,,M,,*43
$PTNL,GGK,090002.00,010125,4742.4457277,N,01617.9741794,E,1,20,1.4,EHT666.7697,M*4A
$GPGGQ,090002.00,010125,4742.4457277,N,01617.9741794,E,1,20,1.524,623.5587,M*32
$GPGFA,090002.00,7.096,10.002,0.746,0.525,350.665,1.220,,VVV*36
$GPLLK,090002.00,010125,,M,,M,1,20,1.7,,M*04
$GNGMP,090002.00,,,,,DAAA,20,0.8,,,,*57
$GPGMP,090002.00,,,,,,06,,,,2.2,123*70
$GLGMP,090002.00,,,,,,03,,,,,*77
$GAGMP,090002.00,,,,,,05,,,,,*7C
$GBGMP,090002.00,,,,,,06,,,,,*7C
$PSSN,SNC,[0,291620000,2347]*4A
$GPZDA,090007.00,01,01,2025,,*6D
$GPDTM,W84,,00.0000000,N,00.0000000,E,00.0000000,W84*5F
$GPRMC,090007.00,A,4742.4457230,N,01617.9741755,E,0.0,,010125,5.1,E,D*18
$GPGLL,4742.4457230,N,01617.9741755,E,090007.00,A,D*69
$GPGGA,090007.00,4742.4457230,N,01617.9741755,E,2,20,0.8,623.5484,M,43.2110,M,1.8,0123*48
$GNGNS,090007.00,4742.4457230,N,01617.9741755,E,DAAA,20,0.8,623.5484,43.2110,,*5D
$GPGNS,090007.00,,,,,,06,,,,1.8,123*7C
$GLGNS,090007.00,,,,,,04,,,,,*75
$GAGNS,090007.00,,,,,,04,,,,,*78
$GBGNS,090007.00,,,,,,06,,,,,*79
$GPLLQ,090007.00,010125,,M,,M,1,20,1.232,,M*1F
$GPVTG,,T,,M,0.01,N,0.01,K,D*26
$GPHDT,,T*1B
$GPTHS,,V*0E
$GPROT,,V*08
$PSSN,HRP,090007.00,010125,,,,,,,00,0,,*6F
$PTNL,AVR,090007.00,,Yaw,,Tilt,,,,0,,00*39
$GPGSA,A,3,05,13,14,15,23,30,,,,,,,1.5,0.8,1.3*38
$GPGSA,A,3,65,66,75,76,,,,,,,,,1.5,0.8,1.3*3C
$GPGSA,A,3,02,03,08,25,,,,,,,,,1.5,0.8,1.3*32
$GPGSA,A,3,14,21,26,40,42,45,,,,,,,1.5,0.8,1.3*3D
$GPGST,090007.00,1.860,0.600,0.430,350.835,0.597,0.435,0.986*51
$GPGBS,090007.00,5.280,3.467,6.376,05,0.0001,-1.135,0.835*7D
$GPGRS,090007.00,1,-1.1,0.4,0.1,0.4,-0.8,0.2,,,,,,*4B
$GPGRS,090007.00,1,2.3,-0.8,-1.1,-0.0,,,,,,,,*64
$GPGRS,090007.00,1,-0.2,-2.8,-1.0,-0.7,,,,,,,,*4E
$GPGRS,090007.00,1,0.8,-0.2,-0.1,2.3,3.8,-2.4,,,,,,*6A
$GPGSV,5,1,17,13,89,231,48,23,16,323,41,24,16,271,29,17,19,124,*72
$GPGSV,5,2,17,05,30,219,38,30,36,077,45,15,53,297,43,22,69,137,*7B
$GPGSV,5,3,17,14,63,080,44,19,04,149,,07,03,081,,08,01,021,*76
$GPGSV,5,4,17,20,06,196,,36,35,170,37,34,31,208,,49,34,195,*7D
$GPGSV,5,5,17,61,03,257,*4B
$GLGSV,3,1,10,65,68,179,48,74,10,046,22,72,12,153,29,76,51,236,48*6C
$GLGSV,3,2,10,66,52,318,53,75,62,034,36,67,02,328,37,77,06,230,*63
$GLGSV,3,3,10,83,08,354,31,84,07,053,*6A
$GAGSV,3,1,11,03,70,135,38,24,20,045,35,05,18,128,27,16,44,057,*66
$GAGSV,3,2,11,02,45,193,41,08,54,303,43,25,65,086,42,13,00,275,*64
$GAGSV,3,3,11,07,04,306,26,26,05,322,26,33,00,007,*5B
$GBGSV,5,1,19,45,67,060,43,22,12,160,29,05,20,130,,36,16,060,26*6C
$GBGSV,5,2,19,14,27,314,46,40,28,053,43,56,26,086,,10,35,071,*67
$GBGSV,5,3,19,21,56,195,47,42,51,295,37,26,53,242,39,50,64,247,*69
$GBGSV,5,4,19,24,04,240,,30,08,051,,29,04,102,,02,04,109,*6B
$GBGSV,5,5,19,33,05,324,35,09,05,082,,60,07,112,*50
$GPGGA,090007.00,,,,,0,00,,,M,,M,,*46
$PTNL,GGK,090007.00,010125,4742.4457230,N,01617.9741755,E,1,20,1.5,EHT666.7595,M*41
$GPGGQ,090007.00,010125,4742.4457230,N,01617.9741755,E,1,20,1.232,623.5484,M*3B
$GPGFA,090007.00,5.708,8.089,0.600,0.430,350.835,0.986,,VVV*00
$GPLLK,090007.00,010125,,M,,M,1,20,1.8,,M*0E
$GNGMP,090007.00,,,,,DAAA,20,0.8,,,,*52
$GPGMP,090007.00,,,,,,06,,,,1.8,123*7C
$GLGMP,090007.00,,,,,,04,,,,,*75
$GAGMP,090007.00,,,,,,04,,,,,*78
$GBGMP,090007.00,,,,,,06,,,,,*79
$PSSN,SNC,[0,291625000,2347]*4F
$GPZDA,090012.00,01,01,2025,,*69
$GPDTM,W84,,00.0000000,N,00.0000000,E,00.0000000,W84*5F
$GPRMC,090012.00,A,4742.4457168,N,01617.9741726,E,0.0,,010125,5.1,E,D*16
$GPGLL,4742.4457168,N,01617.9741726,E,090012.00,A,D*67
$GPGGA,090012.00,4742.4457168,N,01617.9741726,E,2,20,0.8,623.5252,M,43.2110,M,2.8,0123*48
$GNGNS,090012.00,4742.4457168,N,01617.9741726,E,DAAA,20,0.8,623.5252,43.2110,,*5E
$GPGNS,090012.00,,,,,,06,,,,2.8,123*7B
$GLGNS,090012.00,,,,,,04,,,,,*71
$GAGNS,090012.00,,,,,,04,,,,,*7C
$GBGNS,090012.00,,,,,,06,,,,,*7D
$GPLLQ,090012.00,010125,,M,,M,1,20,1.211,,M*1A
$GPVTG,,T,,M,0.00,N,0.00,K,D*26
$GPHDT,,T*1B
$GPTHS,,V*0E
$GPROT,,V*08
$PSSN,HRP,090012.00,010125,,,,,,,00,0,,*6B
$PTNL,AVR,090012.00,,Yaw,,Tilt,,,,0,,00*3D
$GPGSA,A,3,05,13,14,15,23,30,,,,,,,1.5,0.8,1.3*38
$GPGSA,A,3,65,66,75,76,,,,,,,,,1.5,0.8,1.3*3C
$GPGSA,A,3,02,03,08,25,,,,,,,,,1.5,0.8,1.3*32
$GPGSA,A,3,14,21,26,40,42,45,,,,,,,1.5,0.8,1.3*3D
$GPGST,090012.00,2.005,0.586,0.421,352.532,0.584,0.425,0.972*50
$GPGBS,090012.00,5.377,3.537,6.468,05,0.0001,-0.993,0.853*79
$GPGRS,090012.00,1,-1.0,-0.0,0.1,0.8,-0.5,0.2,,,,,,*66
$GPGRS,090012.00,1,2.6,-0.4,-0.6,-1.9,,,,,,,,*67
$GPGRS,090012.00,1,-1.2,-4.0,-1.2,-0.8,,,,,,,,*48
$GPGRS,090012.00,1,1.5,-0.0,0.7,2.5,-0.8,-3.2,,,,,,*64
$GPGSV,5,1,17,13,89,229,48,23,16,323,40,24,16,271,25,17,19,123,*71
$GPGSV,5,2,17,05,30,219,37,30,36,077,45,15,53,297,43,22,69,137,*74
$GPGSV,5,3,17,14,63,080,44,19,04,149,,07,03,081,,08,01,021,*76
$GPGSV,5,4,17,20,06,196,,36,35,170,38,34,31,208,,49,34,195,*72
$GPGSV,5,5,17,61,03,257,*4B
$GLGSV,3,1,10,65,67,179,49,74,10,046,23,72,12,153,30,76,51,236,48*6B
$GLGSV,3,2,10,66,52,318,53,75,62,034,38,67,02,328,38,77,06,230,*62
$GLGSV,3,3,10,83,08,354,27,84,07,053,*6D
$GAGSV,3,1,11,03,70,135,36,24,20,045,35,05,18,128,25,16,44,057,*6A
$GAGSV,3,2,11,02,45,193,42,08,54,303,44,25,65,086,42,13,00,275,*60
$GAGSV,3,3,11,07,04,306,26,26,05,322,28,33,00,006,*54
$GBGSV,5,1,19,45,66,060,41,22,12,160,29,05,20,130,,36,16,060,28*61
$GBGSV,5,2,19,14,27,314,46,40,28,053,43,56,26,086,,10,35,071,*67
$GBGSV,5,3,19,21,56,195,48,42,51,295,36,26,53,242,41,50,64,247,*68
$GBGSV,5,4,19,24,04,240,,30,08,051,,29,04,102,,02,04,109,*6B
$GBGSV,5,5,19,33,05,324,35,09,05,082,,60,07,112,*50
$GPGGA,090012.00,,,,,0,00,,,M,,M,,*42
$PTNL,GGK,090012.00,010125,4742.4457168,N,01617.9741726,E,1,20,1.5,EHT666.7363,M*40
$GPGGQ,090012.00,010125,4742.4457168,N,01617.9741726,E,1,20,1.211,623.5252,M*39
$GPGFA,090012.00,5.572,7.973,0.586,0.421,352.532,0.972,,VVV*06
$GPLLK,090012.00,010125,,M,,M,1,20,1.8,,M*0A
$GNGMP,090012.00,,,,,DAAA,20,0.8,,,,*56
$GPGMP,090012.00,,,,,,06,,,,2.8,123*7B
$GLGMP,090012.00,,,,,,04,,,,,*71
$GAGMP,090012.00,,,,,,04,,,,,*7C
$GBGMP,090012.00,,,,,,06,,,,,*7D
$PSSN,SNC,[0,291630000,2347]*4B
$GPZDA,090017.00,01,01,2025,,*6C
$GPDTM,W84,,00.0000000,N,00.0000000,E,00.0000000,W84*5F
$GPRMC,090017.00,A,4742.4457065,N,01617.9741678,E,0.0,,010125,5.1,E,D*15
$GPGLL,4742.4457065,N,01617.9741678,E,090017.00,A,D*64
$GPGGA,090017.00,4742.4457065,N,01617.9741678,E,2,20,0.8,623.5143,M,43.2110,M,3.2,0123*43
$GNGNS,090017.00,4742.4457065,N,01617.9741678,E,DAAA,20,0.8,623.5143,43.2110,,*5E
$GPGNS,090017.00,,,,,,06,,,,3.2,123*75
$GLGNS,090017.00,,,,,,04,,,,,*74
$GAGNS,090017.00,,,,,,04,,,,,*79
$GBGNS,090017.00,,,,,,06,,,,,*78
$GPLLQ,090017.00,010125,,M,,M,1,20,1.487,,M*16
$GPVTG,,T,,M,0.00,N,0.01,K,D*27
$GPHDT,,T*1B
$GPTHS,,V*0E
$GPROT,,V*08
$PSSN,HRP,090017.00,010125,,,,,,,00,0,,*6E
$PTNL,AVR,090017.00,,Yaw,,Tilt,,,,0,,00*38
$GPGSA,A,3,05,13,14,15,23,30,,,,,,,1.5,0.8,1.3*38
$GPGSA,A,3,65,66,75,76,,,,,,,,,1.5,0.8,1.3*3C
$GPGSA,A,3,02,03,08,25,,,,,,,,,1.5,0.8,1.3*32
$GPGSA,A,3,14,21,26,40,42,45,,,,,,,1.5,0.8,1.3*3D
$GPGST,090017.00,1.735,0.723,0.514,352.525,0.720,0.518,1.194*5C
$GPGBS,090017.00,5.509,3.533,6.540,05,0.0001,-1.915,0.878*7A
$GPGRS,090017.00,1,-1.9,0.1,0.4,-0.1,0.2,0.3,,,,,,*4C
$GPGRS,090017.00,1,2.4,-0.4,-1.3,-2.1,,,,,,,,*6F
$GPGRS,090017.00,1,-0.9,-1.7,-0.7,-0.2,,,,,,,,*4B
$GPGRS,090017.00,1,2.1,1.0,1.2,3.1,-0.9,-1.2,,,,,,*48
$GPGSV,5,1,17,13,89,225,47,23,16,323,38,24,16,271,25,17,19,123,*7D
$GPGSV,5,2,17,05,30,219,35,30,35,077,45,15,53,297,40,22,69,137,*76
$GPGSV,5,3,17,14,63,080,43,19,04,149,,07,03,081,,08,01,021,*71
$GPGSV,5,4,17,20,06,196,,36,35,170,38,34,31,208,,49,34,195,*72
$GPGSV,5,5,17,61,03,257,*4B
$GLGSV,3,1,10,65,67,179,49,74,10,046,23,72,12,154,28,76,51,237,48*64
$GLGSV,3,2,10,66,52,318,53,75,62,034,40,67,02,328,37,77,06,230,*62
$GLGSV,3,3,10,83,08,354,,84,07,053,*68
$GAGSV,3,1,11,03,70,136,38,24,20,045,34,05,18,128,23,16,44,057,*60
$GAGSV,3,2,11,02,45,193,43,08,54,303,44,25,65,086,41,13,00,275,*62
$GAGSV,3,3,11,07,04,306,26,26,05,322,30,33,00,006,*5D
$GBGSV,5,1,19,45,66,060,40,22,12,160,28,05,20,130,,36,16,060,28*61
$GBGSV,5,2,19,14,27,314,46,40,28,053,44,56,26,086,,10,36,071,*63
$GBGSV,5,3,19,21,56,195,49,42,51,295,37,26,53,242,43,50,64,246,*6B
$GBGSV,5,4,19,24,04,240,,30,08,051,,29,04,102,,02,04,109,*6B
$GBGSV,5,5,19,33,05,324,35,09,05,082,,60,07,112,*50
$GPGGA,090017.00,,,,,0,00,,,M,,M,,*47
$PTNL,GGK,090017.00,010125,4742.4457065,N,01617.9741678,E,1,20,1.5,EHT666.7254,M*46
$GPGGQ,090017.00,010125,4742.4457065,N,01617.9741678,E,1,20,1.487,623.5143,M*30
$GPGFA,090017.00,6.872,9.790,0.723,0.514,352.525,1.194,,VVV*0D
$GPLLK,090017.00,010125,,M,,M,1,20,1.8,,M*0F
$GNGMP,090017.00,,,,,DAAA,20,0.8,,,,*53
$GPGMP,090017.00,,,,,,06,,,,3.2,123*75
$GLGMP,090017.00,,,,,,04,,,,,*74
$GAGMP,090017.00,,,,,,04,,,,,*79
$GBGMP,090017.00,,,,,,06,,,,,*78
$PSSN,SNC,[0,291635000,2347]*4E
$GPZDA,090022.00,01,01,2025,,*6A
$GPDTM,W84,,00.0000000,N,00.0000000,E,00.0000000,W84*5F
$GPRMC,090022.00,A,4742.4457045,N,01617.9741535,E,0.0,,010125,5.1,E,D*1B
$GPGLL,4742.4457045,N,01617.9741535,E,090022.00,A,D*6A
$GPGGA,090022.00,4742.4457045,N,01617.9741535,E,2,19,0.9,623.5190,M,43.2110,M,2.4,0123*4F
$GNGNS,090022.00,4742.4457045,N,01617.9741535,E,DAAA,19,0.9,623.5190,43.2110,,*55
$GPGNS,090022.00,,,,,,05,,,,2.4,123*77
$GLGNS,090022.00,,,,,,04,,,,,*72
$GAGNS,090022.00,,,,,,04,,,,,*7F
$GBGNS,090022.00,,,,,,06,,,,,*7E
$GPLLQ,090022.00,010125,,M,,M,1,19,4.900,,M*1D
$GPVTG,,T,,M,0.01,N,0.01,K,D*26
$GPHDT,,T*1B
$GPTHS,,V*0E
$GPROT,,V*08
$PSSN,HRP,090022.00,010125,,,,,,,00,0,,*68
$PTNL,AVR,090022.00,,Yaw,,Tilt,,,,0,,00*3E
$GPGSA,A,3,13,14,15,23,30,,,,,,,,1.7,0.9,1.5*38
$GPGSA,A,3,65,66,75,76,,,,,,,,,1.7,0.9,1.5*39
$GPGSA,A,3,02,03,08,25,,,,,,,,,1.7,0.9,1.5*37
$GPGSA,A,3,14,21,26,40,42,45,,,,,,,1.7,0.9,1.5*38
$GPGST,090022.00,1.780,3.575,0.585,10.360,3.518,0.863,3.300*6A
$GPGBS,090022.00,20.466,3.883,17.685,15,0.0001,-1.734,0.696*7D
$GPGRS,090022.00,1,0.5,0.4,-1.7,-0.1,0.6,,,,,,,*69
$GPGRS,090022.00,1,2.1,-1.0,0.6,-1.6,,,,,,,,*44
$GPGRS,090022.00,1,-0.7,-0.3,-0.5,0.4,,,,,,,,*6F
$GPGRS,090022.00,1,2.7,1.0,0.6,3.8,0.9,1.2,,,,,,*44
$GPGSV,5,1,17,13,89,222,47,23,16,323,37,24,16,271,27,17,19,123,*77
$GPGSV,5,2,17,05,30,219,35,30,35,077,45,15,53,297,36,22,69,136,*76
$GPGSV,5,3,17,14,63,080,42,19,05,149,,07,03,081,,08,01,021,*71
$GPGSV,5,4,17,20,06,196,,36,35,170,39,34,31,208,,49,34,195,*73
$GPGSV,5,5,17,61,03,257,*4B
$GLGSV,3,1,10,65,67,179,49,74,10,046,,72,12,154,26,76,51,237,48*6B
$GLGSV,3,2,10,66,52,318,53,75,62,034,42,67,02,328,36,77,06,230,*61
$GLGSV,3,3,10,83,08,354,,84,07,053,*68
$GAGSV,3,1,11,03,70,136,40,24,20,045,35,05,18,128,20,16,44,056,*6C
$GAGSV,3,2,11,02,45,193,43,08,54,303,44,25,65,086,40,13,00,275,*63
$GAGSV,3,3,11,07,04,306,25,26,05,322,33,33,00,006,*5D
$GBGSV,5,1,19,45,66,060,41,22,12,160,27,05,20,130,,36,16,060,29*6E
$GBGSV,5,2,19,14,27,314,45,40,28,053,44,56,26,086,,10,36,071,*60
$GBGSV,5,3,19,21,56,195,49,42,51,294,39,26,53,242,43,50,64,246,*64
$GBGSV,5,4,19,24,04,240,,30,08,051,,29,04,102,,02,04,109,*6B
$GBGSV,5,5,19,33,05,324,35,09,05,082,,60,07,112,*50
$GPGGA,090022.00,,,,,0,00,,,M,,M,,*41
$PTNL,GGK,090022.00,010125,4742.4457045,N,01617.9741535,E,1,19,1.7,EHT666.7300,M*40
$GPGGQ,090022.00,010125,4742.4457045,N,01617.9741535,E,1,19,4.900,623.5190,M*3D
$GPGFA,090022.00,33.990,27.059,3.575,0.585,10.360,3.300,,VVV*3B
$GPLLK,090022.00,010125,,M,,M,1,19,2.1,,M*09
$GNGMP,090022.00,,,,,DAAA,19,0.9,,,,*5E
$GPGMP,090022.00,,,,,,05,,,,2.4,123*77
$GLGMP,090022.00,,,,,,04,,,,,*72
$GAGMP,090022.00,,,,,,04,,,,,*7F
$GBGMP,090022.00,,,,,,06,,,,,*7E
$PSSN,SNC,[0,291640000,2347]*4C
$GPZDA,090027.00,01,01,2025,,*6F
$GPDTM,W84,,00.0000000,N,00.0000000,E,00.0000000,W84*5F
$GPRMC,090027.00,A,4742.4457061,N,01617.9741501,E,0.0,,010125,5.1,E,D*1F
$GPGLL,4742.4457061,N,01617.9741501,E,090027.00,A,D*6E
$GPGGA,090027.00,4742.4457061,N,01617.9741501,E,2,19,0.8,623.5101,M,43.2110,M,2.0,0123*46
$GNGNS,090027.00,4742.4457061,N,01617.9741501,E,DAAA,19,0.8,623.5101,43.2110,,*58
$GPGNS,090027.00,,,,,,05,,,,2.0,123*76
$GLGNS,090027.00,,,,,,04,,,,,*77
$GAGNS,090027.00,,,,,,04,,,,,*7A
$GBGNS,090027.00,,,,,,06,,,,,*7B
$GPLLQ,090027.00,010125,,M,,M,1,19,1.325,,M*10
$GPVTG,,T,,M,0.01,N,0.01,K,D*26
$GPHDT,,T*1B
$GPTHS,,V*0E
$GPROT,,V*08
$PSSN,HRP,090027.00,010125,,,,,,,00,0,,*6D
$PTNL,AVR,090027.00,,Yaw,,Tilt,,,,0,,00*3B
$GPGSA,A,3,05,13,14,23,30,,,,,,,,1.5,0.8,1.3*3C
$GPGSA,A,3,65,66,75,76,,,,,,,,,1.5,0.8,1.3*3C
$GPGSA,A,3,02,03,08,25,,,,,,,,,1.5,0.8,1.3*32
$GPGSA,A,3,14,21,26,40,42,45,,,,,,,1.5,0.8,1.3*3D
$GPGST,090027.00,1.689,0.713,0.468,328.805,0.656,0.545,1.014*53
$GPGBS,090027.00,5.342,4.707,8.401,05,0.0001,0.980,0.841*52
$GPGRS,090027.00,1,1.0,-0.3,0.4,-0.1,0.1,,,,,,,*6A
$GPGRS,090027.00,1,1.6,-2.0,0.5,-2.8,,,,,,,,*48
$GPGRS,090027.00,1,-1.0,-0.2,-1.1,0.8,,,,,,,,*64
$GPGRS,090027.00,1,1.4,-0.8,-2.4,2.5,1.0,0.3,,,,,,*4C
$GPGSV,5,1,17,13,89,220,47,17,19,123,24,23,16,323,39,24,16,271,29*73
$GPGSV,5,2,17,05,30,219,36,30,35,077,45,15,53,297,33,14,63,080,42*75
$GPGSV,5,3,17,22,69,136,,20,06,196,,08,01,021,,19,05,149,*73
$GPGSV,5,4,17,07,03,081,,36,35,170,39,34,31,208,,49,34,195,*74
$GPGSV,5,5,17,61,03,257,*4B
$GLGSV,3,1,10,65,67,179,50,74,10,046,,72,12,154,24,76,51,237,47*6E
$GLGSV,3,2,10,66,52,318,52,75,62,034,42,67,02,328,35,77,06,230,*63
$GLGSV,3,3,10,83,08,354,23,84,07,053,*69
$GAGSV,3,1,11,03,70,136,40,24,20,045,34,05,18,128,21,16,44,056,*6C
$GAGSV,3,2,11,02,45,193,45,08,54,303,45,25,65,086,40,13,00,275,*64
$GAGSV,3,3,11,07,04,306,25,26,05,322,33,33,01,006,*5C
$GBGSV,5,1,19,45,66,060,41,22,12,160,26,05,20,130,,36,16,060,28*6E
$GBGSV,5,2,19,14,28,314,45,40,28,053,43,56,26,086,,10,36,071,*68
$GBGSV,5,3,19,21,56,195,49,42,51,294,41,26,53,242,43,50,64,246,*6B
$GBGSV,5,4,19,24,04,240,,30,08,051,,29,04,102,,02,04,109,*6B
$GBGSV,5,5,19,33,05,324,35,09,05,082,,60,07,112,*50
$GPGGA,090027.00,,,,,0,00,,,M,,M,,*44
$PTNL,GGK,090027.00,010125,4742.4457061,N,01617.9741501,E,1,19,1.5,EHT666.7211,M*47
$GPGGQ,090027.00,010125,4742.4457061,N,01617.9741501,E,1,19,1.325,623.5101,M*39
$GPGFA,090027.00,6.778,8.317,0.713,0.468,328.805,1.014,,VVV*03
$GPLLK,090027.00,010125,,M,,M,1,19,1.9,,M*07
$GNGMP,090027.00,,,,,DAAA,19,0.8,,,,*5A
$GPGMP,090027.00,,,,,,05,,,,2.0,123*76
$GLGMP,090027.00,,,,,,04,,,,,*77
$GAGMP,090027.00,,,,,,04,,,,,*7A
$GBGMP,090027.00,,,,,,06,,,,,*7B
$PSSN,SNC,[0,291645000,2347]*49
$GPZDA,090032.00,01,01,2025,,*6B
$GPDTM,W84,,00.0000000,N,00.0000000,E,00.0000000,W84*5F
$GPRMC,090032.00,A,4742.4457096,N,01617.9741469,E,0.0,,010125,5.1,E,D*1C
$GPGLL,4742.4457096,N,01617.9741469,E,090032.00,A,D*6D
$GPGGA,090032.00,4742.4457096,N,01617.9741469,E,2,18,0.9,623.5240,M,43.2110,M,3.0,0123*42
$GNGNS,090032.00,4742.4457096,N,01617.9741469,E,DAAA,18,0.9,623.5240,43.2110,,*5D
$GPGNS,090032.00,,,,,,04,,,,3.0,123*72
$GLGNS,090032.00,,,,,,04,,,,,*73
$GAGNS,090032.00,,,,,,04,,,,,*7E
$GBGNS,090032.00,,,,,,06,,,,,*7F
$GPLLQ,090032.00,010125,,M,,M,1,18,3.766,,M*14
$GPVTG,,T,,M,0.01,N,0.02,K,D*25
$GPHDT,,T*1B
$GPTHS,,V*0E
$GPROT,,V*08
$PSSN,HRP,090032.00,010125,,,,,,,00,0,,*69
$PTNL,AVR,090032.00,,Yaw,,Tilt,,,,0,,00*3F
$GPGSA,A,3,13,14,23,30,,,,,,,,,1.8,0.9,1.5*33
$GPGSA,A,3,65,66,75,76,,,,,,,,,1.8,0.9,1.5*36
$GPGSA,A,3,02,03,08,25,,,,,,,,,1.8,0.9,1.5*38
$GPGSA,A,3,14,21,26,40,42,45,,,,,,,1.8,0.9,1.5*37
$GPGST,090032.00,2.231,2.731,0.597,10.897,2.684,0.781,2.523*66
$GPGBS,090032.00,20.707,4.214,17.843,14,0.0001,0.568,0.658*5B
$GPGRS,090032.00,1,-0.5,0.6,0.9,-0.5,,,,,,,,*49
$GPGRS,090032.00,1,2.0,-2.0,-1.6,-3.2,,,,,,,,*6D
$GPGRS,090032.00,1,-0.5,-0.4,-1.5,2.2,,,,,,,,*6E
$GPGRS,090032.00,1,0.3,-2.7,-3.7,0.8,1.5,-0.3,,,,,,*66
$GPGSV,5,1,17,13,89,217,47,17,19,123,27,23,16,323,41,24,16,271,30*73
$GPGSV,5,2,17,05,30,219,34,30,35,077,45,15,53,297,30,14,63,080,42*74
$GPGSV,5,3,17,22,69,136,,20,06,196,,08,01,021,,19,05,149,*73
$GPGSV,5,4,17,07,03,081,,36,35,170,39,34,31,208,,49,34,195,*74
$GPGSV,5,5,17,61,03,257,*4B
$GLGSV,3,1,10,65,67,179,50,74,10,046,,72,12,154,21,76,51,237,48*64
$GLGSV,3,2,10,66,53,318,52,75,62,034,41,67,02,328,36,77,06,231,*63
$GLGSV,3,3,10,83,08,354,25,84,07,053,*6F
$GAGSV,3,1,11,03,70,136,40,24,20,045,33,05,18,128,19,16,44,056,*60
$GAGSV,3,2,11,02,45,193,46,08,54,303,45,25,65,086,39,13,00,275,*69
$GAGSV,3,3,11,07,04,306,25,26,05,322,34,33,01,006,*5B
$GBGSV,5,1,19,45,66,060,41,22,12,160,24,05,20,130,34,36,16,060,27*64
$GBGSV,5,2,19,14,28,314,44,40,28,053,43,56,26,086,,10,36,071,*69
$GBGSV,5,3,19,21,56,195,48,42,51,294,41,26,53,242,42,50,64,246,*6B
$GBGSV,5,4,19,24,04,240,,30,08,051,,29,05,102,,02,04,109,*6A
$GBGSV,5,5,19,33,05,324,36,09,05,082,,60,07,112,*53
$GPGGA,090032.00,,,,,0,00,,,M,,M,,*40
$PTNL,GGK,090032.00,010125,4742.4457096,N,01617.9741469,E,1,18,1.8,EHT666.7350,M*4C
$GPGGQ,090032.00,010125,4742.4457096,N,01617.9741469,E,1,18,3.766,623.5240,M*3C
$GPGFA,090032.00,25.966,20.692,2.731,0.597,10.897,2.523,,VVV*37
$GPLLK,090032.00,010125,,M,,M,1,18,2.1,,M*09
$GNGMP,090032.00,,,,,DAAA,18,0.9,,,,*5E
$GPGMP,090032.00,,,,,,04,,,,3.0,123*72
$GLGMP,090032.00,,,,,,04,,,,,*73
$GAGMP,090032.00,,,,,,04,,,,,*7E
$GBGMP,090032.00,,,,,,06,,,,,*7F
$PSSN,SNC,[0,291650000,2347]*4D
$GPZDA,090037.00,01,01,2025,,*6E
$GPDTM,W84,,00.0000000,N,00.0000000,E,00.0000000,W84*5F
$GPRMC,090037.00,A,4742.4457041,N,01617.9741480,E,0.0,,010125,5.1,E,D*14
$GPGLL,4742.4457041,N,01617.9741480,E,090037.00,A,D*65
$GPGGA,090037.00,4742.4457041,N,01617.9741480,E,2,18,0.9,623.5333,M,43.2110,M,3.0,0123*4F
$GNGNS,090037.00,4742.4457041,N,01617.9741480,E,DAAA,18,0.9,623.5333,43.2110,,*50
$GPGNS,090037.00,,,,,,04,,,,3.0,123*77
$GLGNS,090037.00,,,,,,04,,,,,*76
$GAGNS,090037.00,,,,,,04,,,,,*7B
$GBGNS,090037.00,,,,,,06,,,,,*7A
$GPLLQ,090037.00,010125,,M,,M,1,18,5.431,,M*16
$GPVTG,,T,,M,0.01,N,0.01,K,D*26
$GPHDT,,T*1B
$GPTHS,,V*0E
$GPROT,,V*08
$PSSN,HRP,090037.00,010125,,,,,,,00,0,,*6C
$PTNL,AVR,090037.00,,Yaw,,Tilt,,,,0,,00*3A
$GPGSA,A,3,13,14,23,30,,,,,,,,,1.8,0.9,1.5*33
$GPGSA,A,3,65,66,75,76,,,,,,,,,1.8,0.9,1.5*36
$GPGSA,A,3,02,03,08,25,,,,,,,,,1.8,0.9,1.5*38
$GPGSA,A,3,14,21,26,40,42,45,,,,,,,1.8,0.9,1.5*37
$GPGST,090037.00,2.424,3.940,0.865,11.035,3.870,1.135,3.637*62
$GPGBS,090037.00,20.670,4.301,17.682,23,0.0001,2.145,1.166*5F
$GPGRS,090037.00,1,-0.7,0.9,2.1,-0.8,,,,,,,,*46
$GPGRS,090037.00,1,1.3,-1.9,-2.8,-2.8,,,,,,,,*64
$GPGRS,090037.00,1,-0.4,-1.8,-2.2,1.3,,,,,,,,*61
$GPGRS,090037.00,1,-0.7,-3.4,-3.8,-0.3,1.1,0.0,,,,,,*4B
$GPGSV,5,1,17,13,89,213,48,17,19,123,,23,16,323,42,24,16,271,29*76
$GPGSV,5,2,17,05,29,219,30,30,35,077,46,15,53,297,31,14,63,080,42*7A
$GPGSV,5,3,17,22,69,136,,20,06,196,19,08,01,021,,19,05,149,*7B
$GPGSV,5,4,17,07,03,081,,36,35,170,39,34,31,208,,49,34,195,*74
$GPGSV,5,5,17,61,03,257,*4B
$GLGSV,3,1,10,65,67,179,50,74,10,046,,72,12,154,,76,51,237,47*68
$GLGSV,3,2,10,66,53,318,53,75,62,034,40,67,03,328,35,77,06,231,*61
$GLGSV,3,3,10,83,08,354,27,84,07,053,*6D
$GAGSV,3,1,11,03,70,136,40,24,20,045,32,05,18,128,24,16,44,056,*6F
$GAGSV,3,2,11,02,45,193,46,08,54,303,44,25,65,086,40,13,00,275,*66
$GAGSV,3,3,11,07,04,306,26,26,05,322,34,33,01,006,*58
$GBGSV,5,1,19,45,66,060,42,22,12,160,24,05,20,130,34,36,16,060,26*66
$GBGSV,5,2,19,14,28,314,43,40,28,053,43,56,26,086,,10,36,071,*6E
$GBGSV,5,3,19,21,56,195,47,42,51,294,40,26,53,242,41,50,64,246,*66
$GBGSV,5,4,19,24,04,240,,30,08,051,,29,05,102,,02,04,109,*6A
$GBGSV,5,5,19,33,05,324,35,09,05,082,,60,07,112,*50
$GPGGA,090037.00,,,,,0,00,,,M,,M,,*45
$PTNL,GGK,090037.00,010125,4742.4457041,N,01617.9741480,E,1,18,1.8,EHT666.7444,M*46
$GPGGQ,090037.00,010125,4742.4457041,N,01617.9741480,E,1,18,5.431,623.5333,M*36
$GPGFA,090037.00,37.456,29.826,3.940,0.865,11.035,3.637,,VVV*38
$GPLLK,090037.00,010125,,M,,M,1,18,2.1,,M*0C
$GNGMP,090037.00,,,,,DAAA,18,0.9,,,,*5B
$GPGMP,090037.00,,,,,,04,,,,3.0,123*77
$GLGMP,090037.00,,,,,,04,,,,,*76
$GAGMP,090037.00,,,,,,04,,,,,*7B
$GBGMP,090037.00,,,,,,06,,,,,*7A
$PSSN,SNC,[0,291655000,2347]*48
$GPZDA,090042.00,01,01,2025,,*6C
$GPDTM,W84,,00.0000000,N,00.0000000,E,00.0000000,W84*5F
$GPRMC,090042.00,A,4742.4456987,N,01617.9741531,E,0.0,,010125,5.1,E,D*1F
$GPGLL,4742.4456987,N,01617.9741531,E,090042.00,A,D*6E
$GPGGA,090042.00,4742.4456987,N,01617.9741531,E,2,18,0.9,623.5332,M,43.2110,M,2.0,0123*44
$GNGNS,090042.00,4742.4456987,N,01617.9741531,E,DAAA,18,0.9,623.5332,43.2110,,*5A
$GPGNS,090042.00,,,,,,04,,,,2.0,123*74
$GLGNS,090042.00,,,,,,04,,,,,*74
$GAGNS,090042.00,,,,,,04,,,,,*79
$GBGNS,090042.00,,,,,,06,,,,,*78
$GPLLQ,090042.00,010125,,M,,M,1,18,3.997,,M*13
$GPVTG,,T,,M,0.00,N,0.01,K,D*27
$GPHDT,,T*1B
$GPTHS,,V*0E
$GPROT,,V*08
$PSSN,HRP,090042.00,010125,,,,,,,00,0,,*6E
$PTNL,AVR,090042.00,,Yaw,,Tilt,,,,0,,00*38
$GPGSA,A,3,13,14,23,30,,,,,,,,,1.8,0.9,1.5*33
$GPGSA,A,3,65,66,75,76,,,,,,,,,1.8,0.9,1.5*36
$GPGSA,A,3,02,03,08,25,,,,,,,,,1.8,0.9,1.5*38
$GPGSA,A,3,14,21,26,40,42,45,,,,,,,1.8,0.9,1.5*37
$GPGST,090042.00,2.330,2.901,0.633,10.972,2.851,0.832,2.675*6A
$GPGBS,090042.00,20.197,4.182,17.417,14,0.0001,0.684,0.630*5D
$GPGRS,090042.00,1,-0.6,0.7,1.1,-0.2,,,,,,,,*42
$GPGRS,090042.00,1,1.6,-1.6,-1.3,-2.5,,,,,,,,*69
$GPGRS,090042.00,1,-0.6,-2.6,-2.5,0.0,,,,,,,,*69
$GPGRS,090042.00,1,-1.8,-3.4,-3.0,-0.7,-2.6,-0.0,,,,,,*4F
$GPGSV,5,1,17,13,89,212,48,17,19,123,,24,16,271,27,23,16,323,42*79
$GPGSV,5,2,17,05,29,219,24,30,35,077,46,15,53,297,35,14,63,080,40*79
$GPGSV,5,3,17,22,69,136,,20,06,196,,19,05,149,,08,01,021,*73
$GPGSV,5,4,17,07,03,081,,36,35,170,39,34,31,208,,49,34,195,*74
$GPGSV,5,5,17,61,03,257,*4B
$GLGSV,3,1,10,65,67,179,51,74,10,046,23,72,12,154,,76,51,237,46*69
$GLGSV,3,2,10,66,53,318,53,75,62,034,40,67,03,328,34,77,06,231,*60
$GLGSV,3,3,10,83,08,354,,84,07,053,*68
$GAGSV,3,1,11,03,70,136,40,24,20,045,32,05,18,128,22,16,44,056,*69
$GAGSV,3,2,11,02,45,193,47,08,54,303,44,25,65,086,39,13,00,275,*69
$GAGSV,3,3,11,07,04,306,29,26,05,322,32,33,01,006,*51
$GBGSV,5,1,19,45,66,060,42,22,12,160,21,05,20,130,34,36,16,060,27*62
$GBGSV,5,2,19,14,28,314,42,40,28,053,43,56,26,086,,10,36,071,*6F
$GBGSV,5,3,19,21,56,195,47,42,51,294,38,26,53,242,42,50,64,246,*6A
$GBGSV,5,4,19,24,04,240,,30,08,051,,29,05,102,,02,04,109,*6A
$GBGSV,5,5,19,33,05,324,34,09,05,082,,60,07,112,*51
$GPGGA,090042.00,,,,,0,00,,,M,,M,,*47
$PTNL,GGK,090042.00,010125,4742.4456987,N,01617.9741531,E,1,18,1.8,EHT666.7442,M*4B
$GPGGQ,090042.00,010125,4742.4456987,N,01617.9741531,E,1,18,3.997,623.5332,M*3B
$GPGFA,090042.00,27.582,21.937,2.901,0.633,10.972,2.675,,VVV*3F
$GPLLK,090042.00,010125,,M,,M,1,18,2.1,,M*0E
$GNGMP,090042.00,,,,,DAAA,18,0.9,,,,*59
$GPGMP,090042.00,,,,,,04,,,,2.0,123*74
$GLGMP,090042.00,,,,,,04,,,,,*74
$GAGMP,090042.00,,,,,,04,,,,,*79
$GBGMP,090042.00,,,,,,06,,,,,*78
$PSSN,SNC,[0,291660000,2347]*4E
$GPZDA,090047.00,01,01,2025,,*69
$GPDTM,W84,,00.0000000,N,00.0000000,E,00.0000000,W84*5F
$GPRMC,090047.00,A,4742.4456976,N,01617.9741539,E,0.0,,010125,5.1,E,D*1C
$GPGLL,4742.4456976,N,01617.9741539,E,090047.00,A,D*6D
$GPGGA,090047.00,4742.4456976,N,01617.9741539,E,2,19,0.9,623.5425,M,43.2110,M,1.8,0123*4C
$GNGNS,090047.00,4742.4456976,N,01617.9741539,E,DAAA,19,0.9,623.5425,43.2110,,*59
$GPGNS,090047.00,,,,,,05,,,,1.8,123*7B
$GLGNS,090047.00,,,,,,04,,,,,*71
$GAGNS,090047.00,,,,,,04,,,,,*7C
$GBGNS,090047.00,,,,,,06,,,,,*7D
$GPLLQ,090047.00,010125,,M,,M,1,19,3.698,,M*17
$GPVTG,,T,,M,0.00,N,0.00,K,D*26
$GPHDT,,T*1B
$GPTHS,,V*0E
$GPROT,,V*08
$PSSN,HRP,090047.00,010125,,,,,,,00,0,,*6B
$PTNL,AVR,090047.00,,Yaw,,Tilt,,,,0,,00*3D
$GPGSA,A,3,13,14,15,23,30,,,,,,,,1.7,0.9,1.5*38
$GPGSA,A,3,65,66,75,76,,,,,,,,,1.7,0.9,1.5*39
$GPGSA,A,3,02,03,08,25,,,,,,,,,1.7,0.9,1.5*37
$GPGSA,A,3,14,21,26,40,42,45,,,,,,,1.7,0.9,1.5*38
$GPGST,090047.00,2.384,2.694,0.443,10.261,2.652,0.648,2.494*6C
$GPGBS,090047.00,20.131,3.939,17.434,15,0.0001,0.812,0.646*5B
$GPGRS,090047.00,1,-0.4,0.1,0.8,0.2,-0.2,,,,,,,*67
$GPGRS,090047.00,1,2.7,-1.1,0.7,-2.3,,,,,,,,*47
$GPGRS,090047.00,1,-0.3,-1.5,-2.5,-0.1,,,,,,,,*45
$GPGRS,090047.00,1,-3.1,-3.1,-2.4,-0.0,-4.3,1.2,,,,,,*6B
$GPGSV,5,1,17,13,89,208,48,17,19,123,31,24,17,271,22,23,16,323,43*75
$GPGSV,5,2,17,05,29,219,34,30,35,077,47,15,53,297,37,14,63,080,39*75
$GPGSV,5,3,17,22,69,136,,20,06,196,,19,05,149,,08,01,021,*73
$GPGSV,5,4,17,07,03,081,,36,35,170,39,34,31,208,,49,34,195,*74
$GPGSV,5,5,17,61,03,257,*4B
$GLGSV,3,1,10,65,67,179,51,74,10,046,24,72,12,154,,76,51,237,47*6F
$GLGSV,3,2,10,66,53,318,53,75,62,034,42,67,03,328,33,77,06,231,*65
$GLGSV,3,3,10,83,08,354,,84,07,053,*68
$GAGSV,3,1,11,03,70,136,40,24,20,045,31,05,18,128,24,16,44,056,*6C
$GAGSV,3,2,11,02,45,193,47,08,54,303,44,25,65,086,40,13,00,275,*67
$GAGSV,3,3,11,07,04,306,30,26,05,322,33,33,01,006,*58
$GBGSV,5,1,19,45,66,060,42,22,12,160,20,05,20,130,34,36,16,060,24*60
$GBGSV,5,2,19,14,28,314,41,40,28,053,43,56,26,086,,10,36,071,*6C
$GBGSV,5,3,19,21,56,195,47,42,51,294,38,26,53,242,42,50,64,246,*6A
$GBGSV,5,4,19,24,04,240,,30,08,051,,29,05,101,,02,04,109,*69
$GBGSV,5,5,19,33,05,324,32,09,05,082,,60,07,112,*57
$GPGGA,090047.00,,,,,0,00,,,M,,M,,*42
$PTNL,GGK,090047.00,010125,4742.4456976,N,01617.9741539,E,1,19,1.7,EHT666.7535,M*47
$GPGGQ,090047.00,010125,4742.4456976,N,01617.9741539,E,1,19,3.698,623.5425,M*38
$GPGFA,090047.00,25.617,20.455,2.694,0.443,10.261,2.494,,VVV*3D
$GPLLK,090047.00,010125,,M,,M,1,19,2.1,,M*0A
$GNGMP,090047.00,,,,,DAAA,19,0.9,,,,*5D
$GPGMP,090047.00,,,,,,05,,,,1.8,123*7B
$GLGMP,090047.00,,,,,,04,,,,,*71
$GAGMP,090047.00,,,,,,04,,,,,*7C
$GBGMP,090047.00,,,,,,06,,,,,*7D
$PSSN,SNC,[0,291665000,2347]*4B
$GPZDA,090052.00,01,01,2025,,*6D
$GPDTM,W84,,00.0000000,N,00.0000000,E,00.0000000,W84*5F
$GPRMC,090052.00,A,4742.4456997,N,01617.9741575,E,0.0,,010125,5.1,E,D*1F
$GPGLL,4742.4456997,N,01617.9741575,E,090052.00,A,D*6E
$GPGGA,090052.00,4742.4456997,N,01617.9741575,E,2,19,0.9,623.5435,M,43.2110,M,2.8,0123*4D
$GNGNS,090052.00,4742.4456997,N,01617.9741575,E,DAAA,19,0.9,623.5435,43.2110,,*5B
$GPGNS,090052.00,,,,,,05,,,,2.8,123*7C
$GLGNS,090052.00,,,,,,04,,,,,*75
$GAGNS,090052.00,,,,,,04,,,,,*78
$GBGNS,090052.00,,,,,,06,,,,,*79
$GPLLQ,090052.00,010125,,M,,M,1,19,4.474,,M*14
$GPVTG,,T,,M,0.01,N,0.01,K,D*26
$GPHDT,,T*1B
$GPTHS,,V*0E
$GPROT,,V*08
$PSSN,HRP,090052.00,010125,,,,,,,00,0,,*6F
$PTNL,AVR,090052.00,,Yaw,,Tilt,,,,0,,00*39
$GPGSA,A,3,13,14,15,23,30,,,,,,,,1.7,0.9,1.5*38
$GPGSA,A,3,65,66,75,76,,,,,,,,,1.7,0.9,1.5*39
$GPGSA,A,3,02,03,08,25,,,,,,,,,1.7,0.9,1.5*37
$GPGSA,A,3,14,21,26,40,42,45,,,,,,,1.7,0.9,1.5*38
$GPGST,090052.00,2.554,3.256,0.532,10.339,3.205,0.784,3.022*6D
$GPGBS,090052.00,20.212,3.949,17.505,14,0.0001,1.046,0.667*53
$GPGRS,090052.00,1,-0.8,1.0,-0.4,0.2,-0.3,,,,,,,*4F
$GPGRS,090052.00,1,2.2,-0.8,5.0,-2.3,,,,,,,,*4C
$GPGRS,090052.00,1,-0.7,-1.4,-2.4,0.0,,,,,,,,*69
$GPGRS,090052.00,1,-3.1,-3.0,-3.0,-0.7,-1.6,1.6,,,,,,*68
$GPGSV,5,1,17,13,89,205,48,17,19,123,33,24,17,271,33,23,16,323,43*7A
$GPGSV,5,2,17,05,29,219,39,30,35,077,47,15,53,297,39,14,63,080,40*78
$GPGSV,5,3,17,22,69,136,,20,06,196,,19,05,149,,08,01,021,*73
$GPGSV,5,4,17,07,03,081,,36,35,170,38,34,31,208,,49,34,195,*75
$GPGSV,5,5,17,61,03,257,*4B
$GLGSV,3,1,10,65,67,179,50,76,51,237,47,72,12,154,23,66,53,318,54*64
$GLGSV,3,2,10,75,62,034,43,74,10,046,,67,03,328,34,77,06,231,*69
$GLGSV,3,3,10,83,08,354,28,84,07,053,*62
$GAGSV,3,1,11,03,70,136,39,24,20,045,32,05,17,128,21,16,44,056,*6B
$GAGSV,3,2,11,02,45,193,46,08,54,303,44,25,65,085,40,13,00,275,*65
$GAGSV,3,3,11,07,04,306,30,26,05,322,34,33,01,006,*5F
$GBGSV,5,1,19,45,66,060,41,22,12,160,27,05,20,130,34,36,16,060,20*60
$GBGSV,5,2,19,14,28,314,41,40,28,053,43,56,26,086,,10,36,071,*6C
$GBGSV,5,3,19,21,56,195,47,42,51,294,37,26,53,242,43,50,64,246,*64
$GBGSV,5,4,19,24,04,240,,30,08,051,,29,05,101,,02,04,109,*69
$GBGSV,5,5,19,33,05,324,31,09,05,082,,60,07,112,*54
$GPGGA,090052.00,,,,,0,00,,,M,,M,,*46
$PTNL,GGK,090052.00,010125,4742.4456997,N,01617.9741575,E,1,19,1.7,EHT666.7545,M*43
$GPGGQ,090052.00,010125,4742.4456997,N,01617.9741575,E,1,19,4.474,623.5435,M*3D
$GPGFA,090052.00,30.957,24.780,3.256,0.532,10.339,3.022,,VVV*31
$GPLLK,090052.00,010125,,M,,M,1,19,2.1,,M*0E
$GNGMP,090052.00,,,,,DAAA,19,0.9,,,,*59
$GPGMP,090052.00,,,,,,05,,,,2.8,123*7C
$GLGMP,090052.00,,,,,,04,,,,,*75
$GAGMP,090052.00,,,,,,04,,,,,*78
$GBGMP,090052.00,,,,,,06,,,,,*79
$PSSN,SNC,[0,291670000,2347]*4F
$GPZDA,090057.00,01,01,2025,,*68
$GPDTM,W84,,00.0000000,N,00.0000000,E,00.0000000,W84*5F
$GPRMC,090057.00,A,4742.4457018,N,01617.9741419,E,0.0,,010125,5.1,E,D*1E
$GPGLL,4742.4457018,N,01617.9741419,E,090057.00,A,D*6F
$GPGGA,090057.00,4742.4457018,N,01617.9741419,E,2,19,0.9,623.5418,M,43.2110,M,3.0,0123*4A
$GNGNS,090057.00,4742.4457018,N,01617.9741419,E,DAAA,19,0.9,623.5418,43.2110,,*55
$GPGNS,090057.00,,,,,,05,,,,3.0,123*70
$GLGNS,090057.00,,,,,,04,,,,,*70
$GAGNS,090057.00,,,,,,04,,,,,*7D
$GBGNS,090057.00,,,,,,06,,,,,*7C
$GPLLQ,090057.00,010125,,M,,M,1,19,7.568,,M*1E
$GPVTG,,T,,M,0.01,N,0.02,K,D*25
$GPHDT,,T*1B
$GPTHS,,V*0E
$GPROT,,V*08
$PSSN,HRP,090057.00,010125,,,,,,,00,0,,*6A
$PTNL,AVR,090057.00,,Yaw,,Tilt,,,,0,,00*3C
$GPGSA,A,3,13,14,15,23,30,,,,,,,,1.7,0.9,1.5*38
$GPGSA,A,3,65,66,75,76,,,,,,,,,1.7,0.9,1.5*39
$GPGSA,A,3,02,03,08,25,,,,,,,,,1.7,0.9,1.5*37
$GPGSA,A,3,14,21,26,40,42,45,,,,,,,1.7,0.9,1.5*38
$GPGST,090057.00,3.157,5.511,0.906,10.345,5.424,1.332,5.107*67
$GPGBS,090057.00,20.123,3.892,17.296,14,0.0001,2.483,0.682*58
$GPGRS,090057.00,1,-0.7,2.5,-1.0,-0.5,-0.9,,,,,,,*66
$GPGRS,090057.00,1,1.6,-0.9,7.5,-2.4,,,,,,,,*4F
$GPGRS,090057.00,1,-1.3,-2.3,-1.9,-0.3,,,,,,,,*4D
$GPGRS,090057.00,1,-2.4,-2.8,-3.2,-1.4,2.7,1.2,,,,,,*4B
$GPGSV,5,1,17,13,89,204,49,17,19,123,34,24,17,271,28,23,16,323,43*77
$GPGSV,5,2,17,05,29,219,40,30,35,077,48,15,53,297,39,14,63,080,42*7B
$GPGSV,5,3,17,22,69,136,,20,06,196,,19,05,149,,08,01,021,*73
$GPGSV,5,4,17,07,03,081,,36,35,170,37,34,31,208,,49,34,195,*7A
$GPGSV,5,5,17,61,03,257,*4B
$GLGSV,3,1,10,65,67,179,50,76,51,237,48,72,12,154,24,66,53,318,53*6B
$GLGSV,3,2,10,75,62,034,44,74,10,046,,67,03,328,36,77,06,231,*6C
$GLGSV,3,3,10,83,08,354,,84,07,053,*68
$GAGSV,3,1,11,03,70,136,40,24,20,045,31,05,17,128,23,16,44,056,*64
$GAGSV,3,2,11,02,46,193,46,08,54,303,43,25,65,085,39,13,00,275,*6F
$GAGSV,3,3,11,07,04,306,32,26,05,322,34,33,01,006,*5D
$GBGSV,5,1,19,45,66,060,41,22,12,160,21,05,20,130,34,36,16,060,*64
$GBGSV,5,2,19,14,28,314,41,40,28,053,42,56,26,086,,10,36,071,*6D
$GBGSV,5,3,19,21,56,195,48,42,51,294,36,26,53,242,43,50,64,246,*6A
$GBGSV,5,4,19,24,04,240,,30,08,051,,29,05,101,,02,04,109,*69
$GBGSV,5,5,19,33,05,324,31,09,05,082,,60,07,112,*54
$GPGGA,090057.00,,,,,0,00,,,M,,M,,*43
$PTNL,GGK,090057.00,010125,4742.4457018,N,01617.9741419,E,1,19,1.7,EHT666.7529,M*48
$GPGGQ,090057.00,010125,4742.4457018,N,01617.9741419,E,1,19,7.568,623.5418,M*3C
$GPGFA,090057.00,52.394,41.878,5.511,0.906,10.345,5.107,,VVV*3C
$GPLLK,090057.00,010125,,M,,M,1,19,2.1,,M*0B
$GNGMP,090057.00,,,,,DAAA,19,0.9,,,,*5C
$GPGMP,090057.00,,,,,,05,,,,3.0,123*70
$GLGMP,090057.00,,,,,,04,,,,,*70
$GAGMP,090057.00,,,,,,04,,,,,*7D
$GBGMP,090057.00,,,,,,06,,,,,*7C
$PSSN,SNC,[0,291675000,2347]*4A
$GPZDA,090102.00,01,01,2025,,*69
$GPDTM,W84,,00.0000000,N,00.0000000,E,00.0000000,W84*5F
$GPRMC,090102.00,A,4742.4457032,N,01617.9741320,E,0.0,,010125,5.1,E,D*1A
$GPGLL,4742.4457032,N,01617.9741320,E,090102.00,A,D*6B
$GPGGA,090102.00,4742.4457032,N,01617.9741320,E,2,19,0.9,623.5422,M,43.2110,M,2.4,0123*42
$GNGNS,090102.00,4742.4457032,N,01617.9741320,E,DAAA,19,0.9,623.5422,43.2110,,*58
$GPGNS,090102.00,,,,,,05,,,,2.4,123*74
$GLGNS,090102.00,,,,,,04,,,,,*71
$GAGNS,090102.00,,,,,,04,,,,,*7C
$GBGNS,090102.00,,,,,,06,,,,,*7D
$GPLLQ,090102.00,010125,,M,,M,1,19,7.696,,M*1D
$GPVTG,,T,,M,0.01,N,0.01,K,D*26
$GPHDT,,T*1B
$GPTHS,,V*0E
$GPROT,,V*08
$PSSN,HRP,090102.00,010125,,,,,,,00,0,,*6B
$PTNL,AVR,090102.00,,Yaw,,Tilt,,,,0,,00*3D
$GPGSA,A,3,13,14,15,23,30,,,,,,,,1.7,0.9,1.5*38
$GPGSA,A,3,65,66,75,76,,,,,,,,,1.7,0.9,1.5*39
$GPGSA,A,3,02,03,08,25,,,,,,,,,1.7,0.9,1.5*37
$GPGSA,A,3,14,21,26,40,42,45,,,,,,,1.7,0.9,1.5*38
$GPGST,090102.00,4.270,5.610,0.930,10.367,5.521,1.363,5.186*69
$GPGBS,090102.00,19.664,3.990,16.977,14,0.0001,2.028,0.630*5D
$GPGRS,090102.00,1,-0.1,2.0,-1.4,-0.2,-0.9,,,,,,,*67
$GPGRS,090102.00,1,2.3,-0.5,11.9,-2.2,,,,,,,,*79
$GPGRS,090102.00,1,-1.4,-2.8,-1.6,0.0,,,,,,,,*61
$GPGRS,090102.00,1,-1.4,-1.8,-2.2,-1.4,5.8,0.9,,,,,,*49
$GPGSV,5,1,17,13,89,201,49,17,19,123,34,24,17,271,34,23,16,323,44*78
$GPGSV,5,2,17,05,29,219,40,30,35,077,47,15,53,297,37,14,63,080,44*7C
$GPGSV,5,3,17,22,69,136,,20,06,196,,19,05,149,,08,01,021,*73
$GPGSV,5,4,17,07,03,081,,36,35,170,37,34,31,208,,49,34,195,*7A
$GPGSV,5,5,17,61,03,257,*4B
$GLGSV,3,1,10,65,67,179,51,76,51,237,47,72,12,154,22,66,53,318,53*63
$GLGSV,3,2,10,75,62,034,44,74,10,046,,67,03,328,34,77,06,231,*6E
$GLGSV,3,3,10,83,08,354,29,84,07,053,*63
$GAGSV,3,1,11,03,69,136,39,24,20,045,30,05,17,128,25,16,44,056,*65
$GAGSV,3,2,11,02,46,193,45,08,54,303,42,25,65,085,39,13,00,275,*6D
$GAGSV,3,3,11,07,04,306,31,26,05,322,33,33,01,006,*59
$GBGSV,5,1,19,45,66,060,41,22,12,160,18,05,20,130,33,36,16,060,*69
$GBGSV,5,2,19,14,28,314,42,40,28,053,42,56,26,086,,10,36,071,*6E
$GBGSV,5,3,19,21,56,195,48,42,51,294,36,26,53,242,43,50,64,246,*6A
$GBGSV,5,4,19,24,04,240,,30,08,051,,29,05,101,,02,04,109,*69
$GBGSV,5,5,19,33,05,324,28,09,05,082,,60,07,112,*5C
$GPGGA,090102.00,,,,,0,00,,,M,,M,,*42
$PTNL,GGK,090102.00,010125,4742.4457032,N,01617.9741320,E,1,19,1.7,EHT666.7532,M*46
$GPGGQ,090102.00,010125,4742.4457032,N,01617.9741320,E,1,19,7.696,623.5422,M*33
$GPGFA,090102.00,53.337,42.522,5.610,0.930,10.367,5.186,,VVV*3A
$GPLLK,090102.00,010125,,M,,M,1,19,2.1,,M*0A
$GNGMP,090102.00,,,,,DAAA,19,0.9,,,,*5D
$GPGMP,090102.00,,,,,,05,,,,2.4,123*74
$GLGMP,090102.00,,,,,,04,,,,,*71
$GAGMP,090102.00,,,,,,04,,,,,*7C
$GBGMP,090102.00,,,,,,06,,,,,*7D
$PSSN,SNC,[0,291680000,2347]*40
$GPZDA,090107.00,01,01,2025,,*6C
$GPDTM,W84,,00.0000000,N,00.0000000,E,00.0000000,W84*5F
$GPRMC,090107.00,A,4742.4457020,N,01617.9741297,E,0.0,,010125,5.1,E,D*11
$GPGLL,4742.4457020,N,01617.9741297,E,090107.00,A,D*60
$GPGGA,090107.00,4742.4457020,N,01617.9741297,E,2,18,0.9,623.5300,M,43.2110,M,2.0,0123*4B
$GNGNS,090107.00,4742.4457020,N,01617.9741297,E,DAAA,18,0.9,623.5300,43.2110,,*55
$GPGNS,090107.00,,,,,,04,,,,2.0,123*74
$GLGNS,090107.00,,,,,,04,,,,,*74
$GAGNS,090107.00,,,,,,04,,,,,*79
$GBGNS,090107.00,,,,,,06,,,,,*78
$GPLLQ,090107.00,010125,,M,,M,1,18,6.146,,M*12
$GPVTG,,T,,M,0.01,N,0.02,K,D*25
$GPHDT,,T*1B
$GPTHS,,V*0E
$GPROT,,V*08
$PSSN,HRP,090107.00,010125,,,,,,,00,0,,*6E
$PTNL,AVR,090107.00,,Yaw,,Tilt,,,,0,,00*38
$GPGSA,A,3,13,14,23,30,,,,,,,,,1.8,0.9,1.5*33
$GPGSA,A,3,65,66,75,76,,,,,,,,,1.8,0.9,1.5*36
$GPGSA,A,3,02,03,08,25,,,,,,,,,1.8,0.9,1.5*38
$GPGSA,A,3,14,21,26,40,42,45,,,,,,,1.8,0.9,1.5*37
$GPGST,090107.00,4.974,4.454,0.982,10.795,4.379,1.275,4.120*61
$GPGBS,090107.00,19.829,4.218,17.074,75,0.0001,14.160,6.063*63
$GPGRS,090107.00,1,-0.4,1.1,0.2,-1.3,,,,,,,,*45
$GPGRS,090107.00,1,2.3,-1.0,14.2,-3.5,,,,,,,,*70
$GPGRS,090107.00,1,-1.6,-2.9,-2.6,0.1,,,,,,,,*65
$GPGRS,090107.00,1,-1.4,-0.6,-1.8,-1.2,4.7,1.8,,,,,,*42
$GPGSV,5,1,17,13,89,198,48,24,17,271,33,23,16,323,43,05,29,219,39*7D
$GPGSV,5,2,17,17,19,123,34,30,35,077,46,15,53,297,31,14,63,080,45*73
$GPGSV,5,3,17,22,69,136,,20,05,196,,08,01,021,,07,03,081,*7C
$GPGSV,5,4,17,19,05,149,,36,35,170,37,34,31,208,,49,34,195,*76
$GPGSV,5,5,17,61,03,257,*4B
$GLGSV,3,1,10,65,67,179,50,76,51,237,44,72,12,154,,66,53,318,53*61
$GLGSV,3,2,10,75,62,034,43,74,10,046,,67,03,328,35,77,06,231,*68
$GLGSV,3,3,10,83,08,354,31,84,07,053,*6A
$GAGSV,3,1,11,03,69,136,39,24,20,045,28,05,17,128,25,16,44,056,*6C
$GAGSV,3,2,11,02,46,193,44,08,54,303,41,25,65,085,40,13,00,275,*61
$GAGSV,3,3,11,07,04,306,31,26,05,322,32,33,01,006,*58
$GBGSV,5,1,19,45,66,060,43,22,12,160,28,05,20,130,33,36,16,060,*68
$GBGSV,5,2,19,14,28,314,42,40,28,053,42,56,26,086,,10,36,071,*6E
$GBGSV,5,3,19,21,56,195,49,42,51,294,37,26,53,242,43,50,64,246,*6A
$GBGSV,5,4,19,24,04,240,,30,08,051,,29,05,101,,02,04,109,*69
$GBGSV,5,5,19,33,05,324,26,09,05,082,,60,07,112,*52
$GPGGA,090107.00,,,,,0,00,,,M,,M,,*47
$PTNL,GGK,090107.00,010125,4742.4457020,N,01617.9741297,E,1,18,1.8,EHT666.7410,M*42
$GPGGQ,090107.00,010125,4742.4457020,N,01617.9741297,E,1,18,6.146,623.5300,M*35
$GPGFA,090107.00,42.345,33.780,4.454,0.982,10.795,4.120,,VVV*38
$GPLLK,090107.00,010125,,M,,M,1,18,2.1,,M*0E
$GNGMP,090107.00,,,,,DAAA,18,0.9,,,,*59
$GPGMP,090107.00,,,,,,04,,,,2.0,123*74
$GLGMP,090107.00,,,,,,04,,,,,*74
$GAGMP,090107.00,,,,,,04,,,,,*79
$GBGMP,090107.00,,,,,,06,,,,,*78
$PSSN,SNC,[0,291685000,2347]*45
$GPZDA,090112.00,01,01,2025,,*68
$GPDTM,W84,,00.0000000,N,00.0000000,E,00.0000000,W84*5F
$GPRMC,090112.00,A,4742.4457018,N,01617.9741300,E,0.0,,010125,5.1,E,D*11
$GPGLL,4742.4457018,N,01617.9741300,E,090112.00,A,D*60
$GPGGA,090112.00,4742.4457018,N,01617.9741300,E,2,18,0.9,623.5231,M,43.2110,M,3.0,0123*49
$GNGNS,090112.00,4742.4457018,N,01617.9741300,E,DAAA,18,0.9,623.5231,43.2110,,*56
$GPGNS,090112.00,,,,,,04,,,,3.0,123*71
$GLGNS,090112.00,,,,,,04,,,,,*70
$GAGNS,090112.00,,,,,,04,,,,,*7D
$GBGNS,090112.00,,,,,,06,,,,,*7C
$GPLLQ,090112.00,010125,,M,,M,1,18,5.923,,M*1E
$GPVTG,,T,,M,0.01,N,0.01,K,D*26
$GPHDT,,T*1B
$GPTHS,,V*0E
$GPROT,,V*08
$PSSN,HRP,090112.00,010125,,,,,,,00,0,,*6A
$PTNL,AVR,090112.00,,Yaw,,Tilt,,,,0,,00*3C
$GPGSA,A,3,13,14,23,30,,,,,,,,,1.8,0.9,1.5*33
$GPGSA,A,3,65,66,75,76,,,,,,,,,1.8,0.9,1.5*36
$GPGSA,A,3,02,03,08,25,,,,,,,,,1.8,0.9,1.5*38
$GPGSA,A,3,14,21,26,40,42,45,,,,,,,1.8,0.9,1.5*37
$GPGST,090112.00,4.555,4.301,0.811,11.009,4.224,1.144,3.991*68
$GPGBS,090112.00,19.928,4.216,17.148,75,0.0001,13.261,6.065*64
$GPGRS,090112.00,1,-0.2,0.9,0.2,-1.6,,,,,,,,*4B
$GPGRS,090112.00,1,1.6,-1.4,13.3,-3.3,,,,,,,,*76
$GPGRS,090112.00,1,-1.3,-2.1,-3.4,0.8,,,,,,,,*66
$GPGRS,090112.00,1,-1.4,-0.1,-0.9,-1.4,2.7,1.8,,,,,,*41
$GPGSV,5,1,17,13,89,197,49,24,17,271,30,23,16,323,42,05,29,219,39*71
$GPGSV,5,2,17,17,19,123,32,30,35,077,45,15,53,297,23,14,63,079,45*73
$GPGSV,5,3,17,22,69,135,,20,05,196,,08,01,021,,07,03,081,*7F
$GPGSV,5,4,17,19,05,149,,36,35,170,37,34,31,208,,49,34,195,*76
$GPGSV,5,5,17,61,03,257,*4B
$GLGSV,3,1,10,65,67,179,49,76,51,237,44,72,12,154,20,66,53,318,53*6B
$GLGSV,3,2,10,75,62,034,40,74,10,046,22,67,03,328,34,77,06,231,*6A
$GLGSV,3,3,10,83,08,354,,84,07,052,*69
$GAGSV,3,1,11,03,69,136,38,24,20,045,27,05,17,128,24,16,44,056,*63
$GAGSV,3,2,11,02,46,193,44,08,54,303,39,25,65,085,39,13,00,275,*60
$GAGSV,3,3,11,07,04,306,31,26,05,322,31,33,01,006,*5B
$GBGSV,5,1,19,45,66,060,44,22,12,160,28,05,20,130,33,36,16,060,*6F
$GBGSV,5,2,19,14,28,314,42,40,28,053,42,56,26,086,,10,36,071,*6E
$GBGSV,5,3,19,21,56,195,49,42,51,294,37,26,53,242,44,50,64,246,*6D
$GBGSV,5,4,19,24,04,240,,30,08,051,,29,05,101,,02,04,109,*69
$GBGSV,5,5,19,33,05,324,21,09,05,082,,60,07,112,*55
$GPGGA,090112.00,,,,,0,00,,,M,,M,,*43
$PTNL,GGK,090112.00,010125,4742.4457018,N,01617.9741300,E,1,18,1.8,EHT666.7342,M*42
$GPGGQ,090112.00,010125,4742.4457018,N,01617.9741300,E,1,18,5.923,623.5231,M*3E
$GPGFA,090112.00,40.890,32.723,4.301,0.811,11.009,3.991,,VVV*3F
$GPLLK,090112.00,010125,,M,,M,1,18,2.1,,M*0A
$GNGMP,090112.00,,,,,DAAA,18,0.9,,,,*5D
$GPGMP,090112.00,,,,,,04,,,,3.0,123*71
$GLGMP,090112.00,,,,,,04,,,,,*70
$GAGMP,090112.00,,,,,,04,,,,,*7D
$GBGMP,090112.00,,,,,,06,,,,,*7C
$PSSN,SNC,[0,291690000,2347]*41
$GPZDA,090117.00,01,01,2025,,*6D
$GPDTM,W84,,00.0000000,N,00.0000000,E,00.0000000,W84*5F
$GPRMC,090117.00,A,4742.4457029,N,01617.9741375,E,0.0,,010125,5.1,E,D*14
$GPGLL,4742.4457029,N,01617.9741375,E,090117.00,A,D*65
$GPGGA,090117.00,4742.4457029,N,01617.9741375,E,2,18,0.9,623.5073,M,43.2110,M,3.0,0123*48
$GNGNS,090117.00,4742.4457029,N,01617.9741375,E,DAAA,18,0.9,623.5073,43.2110,,*57
$GPGNS,090117.00,,,,,,04,,,,3.0,123*74
$GLGNS,090117.00,,,,,,04,,,,,*75
$GAGNS,090117.00,,,,,,04,,,,,*78
$GBGNS,090117.00,,,,,,06,,,,,*79
$GPLLQ,090117.00,010125,,M,,M,1,18,5.189,,M*13
$GPVTG,,T,,M,0.01,N,0.01,K,D*26
$GPHDT,,T*1B
$GPTHS,,V*0E
$GPROT,,V*08
$PSSN,HRP,090117.00,010125,,,,,,,00,0,,*6F
$PTNL,AVR,090117.00,,Yaw,,Tilt,,,,0,,00*39
$GPGSA,A,3,13,14,23,30,,,,,,,,,1.8,0.9,1.5*33
$GPGSA,A,3,65,66,75,76,,,,,,,,,1.8,0.9,1.5*36
$GPGSA,A,3,02,03,08,25,,,,,,,,,1.8,0.9,1.5*38
$GPGSA,A,3,14,21,26,40,42,45,,,,,,,1.8,0.9,1.5*37
$GPGST,090117.00,2.684,3.764,0.822,11.081,3.697,1.084,3.477*67
$GPGBS,090117.00,19.909,4.195,17.000,30,0.0001,-1.880,0.814*75
$GPGRS,090117.00,1,0.5,0.4,-0.3,-1.9,,,,,,,,*4A
$GPGRS,090117.00,1,0.7,-0.5,-4.7,-2.9,,,,,,,,*67
$GPGRS,090117.00,1,-0.4,-1.1,-3.1,1.0,,,,,,,,*6A
$GPGRS,090117.00,1,-0.9,0.9,-0.0,-0.6,5.3,1.3,,,,,,*6F
$GPGSV,5,1,17,13,89,195,49,24,17,271,30,23,16,323,41,05,29,219,40*7E
$GPGSV,5,2,17,17,19,123,29,30,35,078,44,15,53,297,26,14,63,079,43*74
$GPGSV,5,3,17,22,69,135,,20,05,196,,08,01,021,,07,03,081,*7F
$GPGSV,5,4,17,19,05,149,,36,35,170,37,34,31,208,,49,34,195,*76
$GPGSV,5,5,17,61,03,257,*4B
$GLGSV,3,1,10,65,67,179,47,76,51,237,45,72,12,154,,66,53,318,53*66
$GLGSV,3,2,10,75,62,034,41,74,10,046,23,67,03,328,32,77,06,231,*6C
$GLGSV,3,3,10,83,08,354,28,84,07,052,*63
$GAGSV,3,1,11,03,69,136,38,24,20,045,26,05,17,128,22,16,44,056,*64
$GAGSV,3,2,11,02,46,193,44,08,54,303,37,25,65,085,39,13,00,275,*6E
$GAGSV,3,3,11,07,04,306,31,26,05,322,30,33,01,006,*5A
$GBGSV,5,1,19,45,66,060,45,22,12,160,20,05,20,130,33,36,16,060,*66
$GBGSV,5,2,19,14,28,314,42,40,28,053,42,56,26,086,,10,36,071,*6E
$GBGSV,5,3,19,21,56,195,49,42,51,294,35,26,53,242,45,50,64,245,*6D
$GBGSV,5,4,19,24,04,240,,30,08,051,,29,05,101,,02,04,109,*69
$GBGSV,5,5,19,33,05,324,32,09,05,082,,60,07,112,*57
$GPGGA,090117.00,,,,,0,00,,,M,,M,,*46
$PTNL,GGK,090117.00,010125,4742.4457029,N,01617.9741375,E,1,18,1.8,EHT666.7184,M*4F
$GPGGQ,090117.00,010125,4742.4457029,N,01617.9741375,E,1,18,5.189,623.5073,M*37
$GPGFA,090117.00,35.784,28.511,3.764,0.822,11.081,3.477,,VVV*3F
$GPLLK,090117.00,010125,,M,,M,1,18,2.1,,M*0F
$GNGMP,090117.00,,,,,DAAA,18,0.9,,,,*58
$GPGMP,090117.00,,,,,,04,,,,3.0,123*74
$GLGMP,090117.00,,,,,,04,,,,,*75
$GAGMP,090117.00,,,,,,04,,,,,*78
$GBGMP,090117.00,,,,,,06,,,,,*79
$PSSN,SNC,[0,291695000,2347]*44
$GPZDA,090122.00,01,01,2025,,*6B
$GPDTM,W84,,00.0000000,N,00.0000000,E,00.0000000,W84*5F
$GPRMC,090122.00,A,4742.4457057,N,01617.9741445,E,0.0,,010125,5.1,E,D*1F
$GPGLL,4742.4457057,N,01617.9741445,E,090122.00,A,D*6E
$GPGGA,090122.00,4742.4457057,N,01617.9741445,E,2,17,0.9,623.4921,M,43.2110,M,2.0,0123*42
$GNGNS,090122.00,4742.4457057,N,01617.9741445,E,DAAA,17,0.9,623.4921,43.2110,,*5C
$GPGNS,090122.00,,,,,,04,,,,2.0,123*73
$GLGNS,090122.00,,,,,,04,,,,,*73
$GAGNS,090122.00,,,,,,04,,,,,*7E
$GBGNS,090122.00,,,,,,05,,,,,*7C
$GPLLQ,090122.00,010125,,M,,M,1,17,5.037,,M*1E
$GPVTG,,T,,M,0.01,N,0.01,K,D*26
$GPHDT,,T*1B
$GPTHS,,V*0E
$GPROT,,V*08
$PSSN,HRP,090122.00,010125,,,,,,,00,0,,*69
$PTNL,AVR,090122.00,,Yaw,,Tilt,,,,0,,00*3F
$GPGSA,A,3,13,14,23,30,,,,,,,,,1.8,0.9,1.5*33
$GPGSA,A,3,65,66,75,76,,,,,,,,,1.8,0.9,1.5*36
$GPGSA,A,3,02,03,08,25,,,,,,,,,1.8,0.9,1.5*38
$GPGSA,A,3,14,21,26,40,45,,,,,,,,1.8,0.9,1.5*31
$GPGST,090122.00,2.153,3.657,0.798,11.021,3.593,1.050,3.371*66
$GPGBS,090122.00,19.424,4.199,16.741,30,0.0001,-1.605,0.827*7D
$GPGRS,090122.00,1,0.6,0.6,0.3,-1.6,,,,,,,,*6F
$GPGRS,090122.00,1,0.6,-0.1,-5.4,-1.8,,,,,,,,*64
$GPGRS,090122.00,1,0.1,-0.8,-2.8,0.1,,,,,,,,*44
$GPGRS,090122.00,1,-0.1,1.0,0.2,-0.2,0.6,,,,,,,*6E
$GPGSV,5,1,17,13,89,192,49,24,17,271,29,23,16,323,40,05,29,219,41*71
$GPGSV,5,2,17,17,19,123,,30,35,078,43,15,53,297,26,14,63,079,43*78
$GPGSV,5,3,17,22,70,135,,20,05,196,,08,01,021,,07,03,081,*77
$GPGSV,5,4,17,19,05,149,,36,35,170,37,34,31,208,,49,34,195,*76
$GPGSV,5,5,17,61,03,257,*4B
$GLGSV,3,1,10,65,67,179,47,76,51,237,46,72,12,154,,66,53,318,53*65
$GLGSV,3,2,10,75,62,034,41,74,10,046,,67,03,328,31,77,06,231,*6E
$GLGSV,3,3,10,83,08,354,23,84,07,052,*68
$GAGSV,3,1,11,03,69,136,39,24,20,045,26,05,17,128,26,16,44,056,*61
$GAGSV,3,2,11,02,46,193,44,08,54,303,36,25,65,085,38,13,00,275,*6E
$GAGSV,3,3,11,07,04,306,32,26,05,322,28,33,01,006,*50
$GBGSV,5,1,19,45,66,060,47,22,12,160,21,05,20,130,32,36,16,060,*64
$GBGSV,5,2,19,14,28,314,43,40,28,053,42,56,26,086,,10,36,071,*6F
$GBGSV,5,3,19,21,56,195,50,42,51,294,33,26,53,242,47,50,64,245,*61
$GBGSV,5,4,19,24,05,240,,30,08,051,,29,05,101,,02,04,109,*68
$GBGSV,5,5,19,33,05,324,31,09,05,082,,60,07,112,*54
$GPGGA,090122.00,,,,,0,00,,,M,,M,,*40
$PTNL,GGK,090122.00,010125,4742.4457057,N,01617.9741445,E,1,17,1.8,EHT666.7031,M*44
$GPGGQ,090122.00,010125,4742.4457057,N,01617.9741445,E,1,17,5.037,623.4921,M*38
$GPGFA,090122.00,34.772,27.639,3.657,0.798,11.021,3.371,,VVV*33
$GPLLK,090122.00,010125,,M,,M,1,17,2.2,,M*05
$GNGMP,090122.00,,,,,DAAA,17,0.9,,,,*51
$GPGMP,090122.00,,,,,,04,,,,2.0,123*73
$GLGMP,090122.00,,,,,,04,,,,,*73
$GAGMP,090122.00,,,,,,04,,,,,*7E
$GBGMP,090122.00,,,,,,05,,,,,*7C
$PSSN,SNC,[0,291700000,2347]*49
$GPZDA,090127.00,01,01,2025,,*6E
$GPDTM,W84,,00.0000000,N,00.0000000,E,00.0000000,W84*5F
$GPRMC,090127.00,A,4742.4457074,N,01617.9741479,E,0.0,,010125,5.1,E,D*14
$GPGLL,4742.4457074,N,01617.9741479,E,090127.00,A,D*65
$GPGGA,090127.00,4742.4457074,N,01617.9741479,E,2,17,0.9,623.4857,M,43.2110,M,2.0,0123*49
$GNGNS,090127.00,4742.4457074,N,01617.9741479,E,DAAA,17,0.9,623.4857,43.2110,,*57
$GPGNS,090127.00,,,,,,04,,,,2.0,123*76
$GLGNS,090127.00,,,,,,04,,,,,*76
$GAGNS,090127.00,,,,,,04,,,,,*7B
$GBGNS,090127.00,,,,,,05,,,,,*79
$GPLLQ,090127.00,010125,,M,,M,1,17,3.667,,M*1E
$GPVTG,,T,,M,0.00,N,0.01,K,D*27
$GPHDT,,T*1B
$GPTHS,,V*0E
$GPROT,,V*08
$PSSN,HRP,090127.00,010125,,,,,,,00,0,,*6C
$PTNL,AVR,090127.00,,Yaw,,Tilt,,,,0,,00*3A
$GPGSA,A,3,13,14,23,30,,,,,,,,,1.8,0.9,1.5*33
$GPGSA,A,3,65,66,75,76,,,,,,,,,1.8,0.9,1.5*36
$GPGSA,A,3,02,03,08,25,,,,,,,,,1.8,0.9,1.5*38
$GPGSA,A,3,14,21,26,40,45,,,,,,,,1.8,0.9,1.5*31
$GPGST,090127.00,1.529,2.658,0.581,10.830,2.613,0.758,2.459*6C
$GPGBS,090127.00,19.505,4.206,16.803,14,0.0001,0.537,0.641*50
$GPGRS,090127.00,1,0.2,0.5,-0.2,-0.7,,,,,,,,*41
$GPGRS,090127.00,1,1.3,-0.4,-1.6,-0.7,,,,,,,,*68
$GPGRS,090127.00,1,-0.6,-1.0,-3.7,-1.1,,,,,,,,*40
$GPGRS,090127.00,1,-0.4,0.7,-0.6,-0.5,-0.5,,,,,,,*68
$GPGSV,5,1,17,13,89,191,50,24,17,271,32,23,16,323,38,05,29,219,41*7F
$GPGSV,5,2,17,17,19,123,,30,35,078,42,15,53,297,32,14,63,079,42*7D
$GPGSV,5,3,17,22,70,135,,20,05,196,,08,01,021,,07,03,081,*77
$GPGSV,5,4,17,19,05,149,,36,35,170,37,34,31,208,,49,34,195,*76
$GPGSV,5,5,17,61,03,257,*4B
$GLGSV,3,1,10,65,67,179,48,76,52,237,47,72,12,154,,66,53,318,53*68
$GLGSV,3,2,10,75,62,034,44,74,10,046,23,67,03,328,29,77,06,231,*63
$GLGSV,3,3,10,83,08,354,,84,07,052,*69
$GAGSV,3,1,11,03,69,136,40,24,20,045,27,05,17,128,23,16,44,056,*6B
$GAGSV,3,2,11,02,46,193,44,08,54,303,35,25,65,085,38,13,00,275,*6D
$GAGSV,3,3,11,07,04,306,32,26,05,322,28,33,01,006,*50
$GBGSV,5,1,19,45,66,060,47,22,12,160,21,05,20,130,33,36,16,060,25*62
$GBGSV,5,2,19,14,28,314,43,40,28,053,42,56,26,086,,10,36,071,*6F
$GBGSV,5,3,19,21,56,195,51,42,51,294,29,26,53,242,47,50,64,245,*6B
$GBGSV,5,4,19,24,05,241,,30,08,051,,29,05,101,,02,04,109,*69
$GBGSV,5,5,19,33,05,324,27,09,05,082,,60,07,112,*53
$GPGGA,090127.00,,,,,0,00,,,M,,M,,*45
$PTNL,GGK,090127.00,010125,4742.4457074,N,01617.9741479,E,1,17,1.8,EHT666.6967,M*44
$GPGGQ,090127.00,010125,4742.4457074,N,01617.9741479,E,1,17,3.667,623.4857,M*36
$GPGFA,090127.00,25.271,20.166,2.658,0.581,10.830,2.459,,VVV*3B
$GPLLK,090127.00,010125,,M,,M,1,17,2.2,,M*00
$GNGMP,090127.00,,,,,DAAA,17,0.9,,,,*54
