$GPZDA,155942.00,01,01,2025,,*6D
$GPDTM,W84,,00.0000000,N,00.0000000,E,00.0000000,W84*5F
$GPRMC,155942.00,A,4742.4455709,N,01617.9736615,E,0.0,,010125,5.1,E,D*10
$GPGLL,4742.4455709,N,01617.9736615,E,155942.00,A,D*61
$GPGGA,155942.00,4742.4455709,N,01617.9736615,E,2,23,0.7,626.2006,M,43.2110,M,2.2,0123*49
$GNGNS,155942.00,4742.4455709,N,01617.9736615,E,DAAA,23,0.7,626.2006,43.2110,,*55
$GPGNS,155942.00,,,,,,05,,,,2.2,123*76
$GLGNS,155942.00,,,,,,05,,,,,*74
$GAGNS,155942.00,,,,,,05,,,,,*79
$GBGNS,155942.00,,,,,,08,,,,,*77
$GPLLQ,155942.00,010125,,M,,M,1,23,3.141,,M*19
$GPVTG,,T,,M,0.01,N,0.02,K,D*25
$GPHDT,,T*1B
$GPTHS,,V*0E
$GPROT,,V*08
$PSSN,HRP,155942.00,010125,,,,,,,00,0,,*6F
$PTNL,AVR,155942.00,,Yaw,,Tilt,,,,0,,00*39
$GPGSA,A,3,18,25,28,29,31,,,,,,,,1.4,0.7,1.2*3E
$GPGSA,A,3,78,79,80,81,88,,,,,,,,1.4,0.7,1.2*33
$GPGSA,A,3,15,21,27,30,34,,,,,,,,1.4,0.7,1.2*35
$GPGSA,A,3,08,11,12,23,25,34,38,43,,,,,1.4,0.7,1.2*35
$GPGST,155942.00,2.228,1.309,0.652,28.771,1.190,0.851,2.780*6A
$GPGBS,155942.00,7.480,5.922,14.755,28,0.0001,1.597,0.955*6C
$GPGRS,155942.00,1,0.1,0.5,1.6,0.1,-1.3,,,,,,,*43
$GPGRS,155942.00,1,-2.9,1.2,-5.9,0.2,-2.2,,,,,,,*45
$GPGRS,155942.00,1,1.4,-2.5,-1.4,0.3,-2.3,,,,,,,*46
$GPGRS,155942.00,1,-1.4,-0.6,1.3,-0.5,-1.6,-1.3,1.2,0.0,,,,*6F
$GPGSV,4,1,15,29,83,015,49,12,16,115,30,11,16,041,,05,18,097,31*71
$GPGSV,4,2,15,18,33,186,39,26,28,300,31,20,21,061,,31,43,291,47*72
$GPGSV,4,3,15,28,51,251,41,25,55,120,44,04,04,337,23,36,35,170,37*74
$GPGSV,4,4,15,34,31,208,35,49,34,195,37,61,03,257,*43
$GLGSV,2,1,08,79,83,324,53,82,24,213,30,80,27,320,39,88,46,040,51*63
$GLGSV,2,2,08,78,40,140,43,81,74,206,48,72,03,033,,71,09,348,26*64
$GAGSV,3,1,10,27,80,317,45,13,16,192,24,19,13,293,27,34,44,057,41*6C
$GAGSV,3,2,10,21,26,298,37,30,43,112,43,15,57,147,49,04,02,346,*67
$GAGSV,3,3,10,29,07,251,28,36,01,030,*6E
$GBGSV,5,1,18,34,80,087,47,24,18,148,29,56,12,066,,05,21,129,30*63
$GBGSV,5,2,18,44,25,054,23,38,27,060,40,43,46,224,46,23,47,300,43*6B
$GBGSV,5,3,18,13,30,085,32,08,31,076,38,25,66,187,51,12,50,056,45*60
$GBGSV,5,4,18,11,69,209,44,02,06,107,,19,02,015,,37,00,317,31*68
$GBGSV,5,5,18,10,07,082,,60,10,109,*61
$GPGGA,155942.00,,,,,0,00,,,M,,M,,*46
$PTNL,GGK,155942.00,010125,4742.4455709,N,01617.9736615,E,1,23,1.4,EHT669.4116,M*48
$GPGGQ,155942.00,010125,4742.4455709,N,01617.9736615,E,1,23,3.141,626.2006,M*39
$GPGFA,155942.00,12.450,22.794,1.309,0.652,28.771,2.780,,VVV*39
$GPLLK,155942.00,010125,,M,,M,1,23,1.7,,M*02
$GNGMP,155942.00,,,,,DAAA,23,0.7,,,,*5E
$GPGMP,155942.00,,,,,,05,,,,2.2,123*76
$GLGMP,155942.00,,,,,,05,,,,,*74
$GAGMP,155942.00,,,,,,05,,,,,*79
$GBGMP,155942.00,,,,,,08,,,,,*77
$PSSN,SNC,[0,316800000,2347]*48
$GPZDA,155947.00,01,01,2025,,*68
$GPDTM,W84,,00.0000000,N,00.0000000,E,00.0000000,W84*5F
$GPRMC,155947.00,A,4742.4455784,N,01617.9736673,E,0.0,,010125,5.1,E,D*10
$GPGLL,4742.4455784,N,01617.9736673,E,155947.00,A,D*61
$GPGGA,155947.00,4742.4455784,N,01617.9736673,E,2,21,0.9,626.1974,M,43.2110,M,1.5,0123*4E
$GNGNS,155947.00,4742.4455784,N,01617.9736673,E,DAAA,21,0.9,626.1974,43.2110,,*56
$GPGNS,155947.00,,,,,,04,,,,1.5,123*76
$GLGNS,155947.00,,,,,,04,,,,,*70
$GAGNS,155947.00,,,,,,05,,,,,*7C
$GBGNS,155947.00,,,,,,08,,,,,*72
$GPLLQ,155947.00,010125,,M,,M,1,21,3.683,,M*17
$GPVTG,,T,,M,0.00,N,0.01,K,D*27
$GPHDT,,T*1B
$GPTHS,,V*0E
$GPROT,,V*08
$PSSN,HRP,155947.00,010125,,,,,,,00,0,,*6A
$PTNL,AVR,155947.00,,Yaw,,Tilt,,,,0,,00*3C
$GPGSA,A,3,25,28,29,31,,,,,,,,,1.7,0.9,1.4*3C
$GPGSA,A,3,79,80,81,88,,,,,,,,,1.7,0.9,1.4*37
$GPGSA,A,3,15,21,27,30,34,,,,,,,,1.7,0.9,1.4*3E
$GPGSA,A,3,08,11,12,23,25,34,38,43,,,,,1.7,0.9,1.4*3E
$GPGST,155947.00,1.621,1.687,0.767,18.159,1.621,0.899,3.182*66
$GPGBS,155947.00,10.274,5.935,20.469,28,0.0001,2.071,0.966*51
$GPGRS,155947.00,1,-0.3,2.1,-0.4,-0.8,,,,,,,,*64
$GPGRS,155947.00,1,0.9,-1.2,0.6,-2.6,,,,,,,,*4D
$GPGRS,155947.00,1,1.3,-0.8,-1.2,0.1,-2.4,,,,,,,*48
$GPGRS,155947.00,1,-2.3,-0.2,0.3,-1.0,-2.1,-1.0,0.4,0.4,,,,*6B
$GPGSV,4,1,15,29,83,015,49,12,16,115,32,11,16,041,24,05,18,097,31*75
$GPGSV,4,2,15,18,33,186,37,26,28,300,30,20,21,061,,31,43,291,47*7D
$GPGSV,4,3,15,28,51,251,38,25,55,120,43,04,04,337,26,36,35,170,37*78
$GPGSV,4,4,15,34,31,208,35,49,34,195,36,61,03,257,*42
$GLGSV,2,1,08,79,83,324,52,82,24,213,,80,27,320,40,88,46,040,51*6F
$GLGSV,2,2,08,78,40,140,38,81,74,206,49,72,03,033,,71,09,348,*6D
$GAGSV,3,1,10,27,80,317,45,13,16,192,21,19,13,293,24,34,44,057,42*69
$GAGSV,3,2,10,21,26,298,39,30,43,112,42,15,57,147,49,04,02,346,*68
$GAGSV,3,3,10,29,07,251,27,36,01,030,*61
$GBGSV,5,1,18,34,80,087,47,24,18,148,30,56,12,066,,05,21,129,30*6B
$GBGSV,5,2,18,44,25,054,34,38,27,060,40,43,46,224,46,23,47,300,44*6A
$GBGSV,5,3,18,13,30,085,33,08,31,076,38,25,66,187,52,12,50,056,45*62
$GBGSV,5,4,18,11,70,209,45,02,06,107,,19,02,015,,37,00,317,29*68
$GBGSV,5,5,18,10,07,082,,60,10,109,*61
$GPGGA,155947.00,,,,,0,00,,,M,,M,,*43
$PTNL,GGK,155947.00,010125,4742.4455784,N,01617.9736673,E,1,21,1.7,EHT669.4084,M*43
$GPGGQ,155947.00,010125,4742.4455784,N,01617.9736673,E,1,21,3.683,626.1974,M*3D
$GPGFA,155947.00,16.044,26.096,1.687,0.767,18.159,3.182,,VVV*36
$GPLLK,155947.00,010125,,M,,M,1,21,2.0,,M*01
$GNGMP,155947.00,,,,,DAAA,21,0.9,,,,*57
$GPGMP,155947.00,,,,,,04,,,,1.5,123*76
$GLGMP,155947.00,,,,,,04,,,,,*70
$GAGMP,155947.00,,,,,,05,,,,,*7C
$GBGMP,155947.00,,,,,,08,,,,,*72
$PSSN,SNC,[0,316805000,2347]*4D
$GPZDA,155952.00,01,01,2025,,*6C
$GPDTM,W84,,00.0000000,N,00.0000000,E,00.0000000,W84*5F
$GPRMC,155952.00,A,4742.4455819,N,01617.9736739,E,0.0,,010125,5.1,E,D*10
$GPGLL,4742.4455819,N,01617.9736739,E,155952.00,A,D*61
$GPGGA,155952.00,4742.4455819,N,01617.9736739,E,2,21,0.8,626.1913,M,43.2110,M,2.3,0123*4B
$GNGNS,155952.00,4742.4455819,N,01617.9736739,E,DAAA,21,0.8,626.1913,43.2110,,*56
$GPGNS,155952.00,,,,,,03,,,,2.3,123*70
$GLGNS,155952.00,,,,,,05,,,,,*75
$GAGNS,155952.00,,,,,,05,,,,,*78
$GBGNS,155952.00,,,,,,08,,,,,*76
$GPLLQ,155952.00,010125,,M,,M,1,21,3.875,,M*14
$GPVTG,,T,,M,0.00,N,0.00,K,D*26
$GPHDT,,T*1B
$GPTHS,,V*0E
$GPROT,,V*08
$PSSN,HRP,155952.00,010125,,,,,,,00,0,,*6E
$PTNL,AVR,155952.00,,Yaw,,Tilt,,,,0,,00*38
$GPGSA,A,3,25,29,31,,,,,,,,,,1.6,0.8,1.3*31
$GPGSA,A,3,78,79,80,81,88,,,,,,,,1.6,0.8,1.3*3F
$GPGSA,A,3,15,21,27,30,34,,,,,,,,1.6,0.8,1.3*39
$GPGSA,A,3,08,11,12,23,25,34,38,43,,,,,1.6,0.8,1.3*39
$GPGST,155952.00,1.979,2.475,0.695,26.889,2.230,1.279,2.900*68
$GPGBS,155952.00,11.081,6.177,19.954,78,0.0001,-4.610,6.222*7A
$GPGRS,155952.00,1,-0.0,-0.5,-0.3,,,,,,,,,*44
$GPGRS,155952.00,1,-4.6,0.3,0.8,0.2,-3.3,,,,,,,*64
$GPGRS,155952.00,1,1.2,0.9,-1.1,0.2,-2.2,,,,,,,*67
$GPGRS,155952.00,1,-2.1,1.0,0.3,-1.1,-2.3,-0.4,0.1,0.6,,,,*42
$GPGSV,4,1,15,29,83,015,48,12,16,115,33,11,16,041,21,05,18,097,28*78
$GPGSV,4,2,15,18,33,186,40,26,28,300,34,20,21,061,25,31,43,291,47*7E
$GPGSV,4,3,15,28,51,250,34,25,55,120,43,04,04,337,28,36,35,170,37*7B
$GPGSV,4,4,15,34,31,208,35,49,34,195,36,61,03,257,*42
$GLGSV,2,1,08,79,83,324,52,82,24,213,,80,27,320,40,88,46,040,51*6F
$GLGSV,2,2,08,78,40,140,41,81,74,206,49,72,03,033,,71,09,348,34*64
$GAGSV,3,1,10,27,80,317,44,13,16,192,19,19,13,293,22,34,44,057,41*66
$GAGSV,3,2,10,21,26,298,38,30,43,112,42,15,57,147,50,04,02,346,*61
$GAGSV,3,3,10,29,07,251,27,36,01,030,*61
$GBGSV,5,1,18,34,80,087,48,24,18,148,30,56,12,066,,05,21,129,30*64
$GBGSV,5,2,18,44,25,054,34,38,27,060,40,43,46,224,46,23,47,300,44*6A
$GBGSV,5,3,18,13,30,085,34,08,31,076,37,25,66,187,52,12,50,056,45*6A
$GBGSV,5,4,18,11,70,209,45,02,06,107,,19,02,015,,37,00,317,29*68
$GBGSV,5,5,18,10,07,082,,60,10,109,*61
$GPGGA,155952.00,,,,,0,00,,,M,,M,,*47
$PTNL,GGK,155952.00,010125,4742.4455819,N,01617.9736739,E,1,21,1.6,EHT669.4023,M*4F
$GPGGQ,155952.00,010125,4742.4455819,N,01617.9736739,E,1,21,3.875,626.1913,M*3B
$GPGFA,155952.00,23.530,23.779,2.475,0.695,26.889,2.900,,VVV*3B
$GPLLK,155952.00,010125,,M,,M,1,21,1.9,,M*0F
$GNGMP,155952.00,,,,,DAAA,21,0.8,,,,*52
$GPGMP,155952.00,,,,,,03,,,,2.3,123*70
$GLGMP,155952.00,,,,,,05,,,,,*75
$GAGMP,155952.00,,,,,,05,,,,,*78
$GBGMP,155952.00,,,,,,08,,,,,*76
$PSSN,SNC,[0,316810000,2347]*49
$GPZDA,155957.00,01,01,2025,,*69
$GPDTM,W84,,00.0000000,N,00.0000000,E,00.0000000,W84*5F
$GPRMC,155957.00,A,4742.4455990,N,01617.9736764,E,0.0,,010125,5.1,E,D*1D
$GPGLL,4742.4455990,N,01617.9736764,E,155957.00,A,D*6C
$GPGGA,155957.00,4742.4455990,N,01617.9736764,E,2,23,0.7,626.2100,M,43.2110,M,3.5,0123*45
$GNGNS,155957.00,4742.4455990,N,01617.9736764,E,DAAA,23,0.7,626.2100,43.2110,,*5F
$GPGNS,155957.00,,,,,,04,,,,3.5,123*75
$GLGNS,155957.00,,,,,,05,,,,,*70
$GAGNS,155957.00,,,,,,05,,,,,*7D
$GBGNS,155957.00,,,,,,09,,,,,*72
$GPLLQ,155957.00,010125,,M,,M,1,23,5.024,,M*19
$GPVTG,,T,,M,0.00,N,0.01,K,D*27
$GPHDT,,T*1B
$GPTHS,,V*0E
$GPROT,,V*08
$PSSN,HRP,155957.00,010125,,,,,,,00,0,,*6B
$PTNL,AVR,155957.00,,Yaw,,Tilt,,,,0,,00*3D
$GPGSA,A,3,18,25,29,31,,,,,,,,,1.4,0.7,1.2*34
$GPGSA,A,3,78,79,80,81,88,,,,,,,,1.4,0.7,1.2*33
$GPGSA,A,3,15,21,27,30,34,,,,,,,,1.4,0.7,1.2*35
$GPGSA,A,3,08,11,12,13,23,25,34,38,43,,,,1.4,0.7,1.2*37
$GPGST,155957.00,2.263,2.301,1.017,37.182,1.934,1.610,4.348*62
$GPGBS,155957.00,8.060,7.644,17.828,18,0.0001,3.548,1.153*6A
$GPGRS,155957.00,1,3.5,0.1,-1.0,-1.2,,,,,,,,*41
$GPGRS,155957.00,1,-4.4,-0.0,0.2,-0.5,-3.3,,,,,,,*6D
$GPGRS,155957.00,1,1.3,1.6,-1.2,-0.3,-2.2,,,,,,,*42
$GPGRS,155957.00,1,-3.0,1.6,-0.4,2.2,-1.4,-2.7,-0.3,-0.6,-0.1,,,*43
$GPGSV,4,1,15,29,83,016,48,12,16,115,32,11,16,041,20,05,18,097,28*7B
$GPGSV,4,2,15,18,33,186,41,26,28,300,36,20,21,061,,31,43,291,46*7B
$GPGSV,4,3,15,28,51,250,37,25,55,120,43,04,04,337,29,36,35,170,37*79
$GPGSV,4,4,15,34,31,208,35,49,34,195,36,61,03,257,*42
$GLGSV,2,1,08,79,83,324,52,82,24,213,,80,27,320,40,88,46,040,51*6F
$GLGSV,2,2,08,78,40,140,40,81,74,206,48,72,03,033,,71,09,348,33*63
$GAGSV,3,1,10,27,80,317,44,13,16,192,33,19,13,293,20,34,44,057,41*6C
$GAGSV,3,2,10,21,26,298,38,30,43,112,42,15,57,147,50,04,02,346,*61
$GAGSV,3,3,10,29,07,251,26,36,01,030,*60
$GBGSV,5,1,18,34,80,086,49,24,18,148,31,56,12,066,,05,21,129,30*65
$GBGSV,5,2,18,44,25,054,34,38,27,060,41,43,46,224,46,23,47,300,45*6A
$GBGSV,5,3,18,13,30,085,35,08,31,076,37,25,66,187,52,12,50,056,45*6B
$GBGSV,5,4,18,11,70,209,45,02,06,107,,19,02,015,,37,00,317,27*66
$GBGSV,5,5,18,10,07,082,,60,10,109,*61
$GPGGA,155957.00,,,,,0,00,,,M,,M,,*42
$PTNL,GGK,155957.00,010125,4742.4455990,N,01617.9736764,E,1,23,1.4,EHT669.4211,M*41
$GPGGQ,155957.00,010125,4742.4455990,N,01617.9736764,E,1,23,5.024,626.2100,M*37
$GPGFA,155957.00,21.881,35.657,2.301,1.017,37.182,4.348,,VVV*3A
$GPLLK,155957.00,010125,,M,,M,1,23,1.6,,M*07
$GNGMP,155957.00,,,,,DAAA,23,0.7,,,,*5A
$GPGMP,155957.00,,,,,,04,,,,3.5,123*75
$GLGMP,155957.00,,,,,,05,,,,,*70
$GAGMP,155957.00,,,,,,05,,,,,*7D
$GBGMP,155957.00,,,,,,09,,,,,*72
$PSSN,SNC,[0,316815000,2347]*4C
$GPZDA,160002.00,01,01,2025,,*66
$GPDTM,W84,,00.0000000,N,00.0000000,E,00.0000000,W84*5F
$GPRMC,160002.00,A,4742.4456094,N,01617.9736712,E,0.0,,010125,5.1,E,D*1D
$GPGLL,4742.4456094,N,01617.9736712,E,160002.00,A,D*6C
$GPGGA,160002.00,4742.4456094,N,01617.9736712,E,2,22,0.8,626.2125,M,43.2110,M,3.0,0123*49
$GNGNS,160002.00,4742.4456094,N,01617.9736712,E,DAAA,22,0.8,626.2125,43.2110,,*56
$GPGNS,160002.00,,,,,,03,,,,3.0,123*78
$GLGNS,160002.00,,,,,,05,,,,,*7F
$GAGNS,160002.00,,,,,,05,,,,,*72
$GBGNS,160002.00,,,,,,09,,,,,*7D
$GPLLQ,160002.00,010125,,M,,M,1,22,3.978,,M*11
$GPVTG,,T,,M,0.01,N,0.01,K,D*26
$GPHDT,,T*1B
$GPTHS,,V*0E
$GPROT,,V*08
$PSSN,HRP,160002.00,010125,,,,,,,00,0,,*64
$PTNL,AVR,160002.00,,Yaw,,Tilt,,,,0,,00*32
$GPGSA,A,3,25,29,31,,,,,,,,,,1.5,0.8,1.3*32
$GPGSA,A,3,78,79,80,81,88,,,,,,,,1.5,0.8,1.3*3C
$GPGSA,A,3,15,21,27,30,34,,,,,,,,1.5,0.8,1.3*3A
$GPGSA,A,3,08,11,12,13,23,25,34,38,43,,,,1.5,0.8,1.3*38
$GPGST,160002.00,2.348,2.565,0.742,26.778,2.315,1.332,2.948*67
$GPGBS,160002.00,10.666,5.834,20.094,31,0.0001,-1.466,1.066*72
$GPGRS,160002.00,1,1.0,-0.3,-1.5,,,,,,,,,*63
$GPGRS,160002.00,1,-4.2,0.5,-3.0,0.7,-1.9,,,,,,,*47
$GPGRS,160002.00,1,2.2,2.3,-0.4,0.4,-1.9,,,,,,,*6C
$GPGRS,160002.00,1,-3.0,1.8,-0.7,4.1,-0.6,-2.2,0.2,-0.3,0.3,,,*44
$GPGSV,4,1,15,29,83,016,47,12,16,115,33,11,16,041,19,05,18,097,27*70
$GPGSV,4,2,15,18,33,186,41,26,28,300,37,20,21,061,,31,43,291,46*7A
$GPGSV,4,3,15,28,51,250,33,25,55,120,43,04,04,337,27,36,35,170,37*73
$GPGSV,4,4,15,34,31,208,35,49,34,195,37,61,03,257,*43
$GLGSV,2,1,08,79,83,324,51,82,24,213,33,80,27,320,37,88,46,040,50*6D
$GLGSV,2,2,08,78,39,140,39,81,74,206,49,72,04,033,,71,09,348,30*66
$GAGSV,3,1,10,27,80,317,44,13,16,192,33,19,13,293,27,34,44,057,42*68
$GAGSV,3,2,10,21,26,298,39,30,43,112,42,15,57,147,51,04,03,346,*60
$GAGSV,3,3,10,29,07,251,27,36,01,030,*61
$GBGSV,5,1,18,34,80,086,49,24,18,148,30,56,12,066,,05,21,129,30*64
$GBGSV,5,2,18,44,25,054,33,38,27,060,41,43,46,224,45,23,47,300,46*6D
$GBGSV,5,3,18,13,30,085,36,08,31,076,37,25,66,187,51,12,50,056,44*6A
$GBGSV,5,4,18,11,70,209,46,02,06,107,,19,02,015,,37,00,317,23*61
$GBGSV,5,5,18,10,07,082,,60,10,109,*61
$GPGGA,160002.00,,,,,0,00,,,M,,M,,*4D
$PTNL,GGK,160002.00,010125,4742.4456094,N,01617.9736712,E,1,22,1.5,EHT669.4236,M*44
$GPGGQ,160002.00,010125,4742.4456094,N,01617.9736712,E,1,22,3.978,626.2125,M*37
$GPGFA,160002.00,24.392,24.176,2.565,0.742,26.778,2.948,,VVV*30
$GPLLK,160002.00,010125,,M,,M,1,22,1.8,,M*07
$GNGMP,160002.00,,,,,DAAA,22,0.8,,,,*5B
$GPGMP,160002.00,,,,,,03,,,,3.0,123*78
$GLGMP,160002.00,,,,,,05,,,,,*7F
$GAGMP,160002.00,,,,,,05,,,,,*72
$GBGMP,160002.00,,,,,,09,,,,,*7D
$PSSN,SNC,[0,316820000,2347]*4A
$GPZDA,160007.00,01,01,2025,,*63
$GPDTM,W84,,00.0000000,N,00.0000000,E,00.0000000,W84*5F
$GPRMC,160007.00,A,4742.4456125,N,01617.9736619,E,0.0,,010125,5.1,E,D*19
$GPGLL,4742.4456125,N,01617.9736619,E,160007.00,A,D*68
$GPGGA,160007.00,4742.4456125,N,01617.9736619,E,2,22,0.8,626.2122,M,43.2110,M,1.5,0123*4D
$GNGNS,160007.00,4742.4456125,N,01617.9736619,E,DAAA,22,0.8,626.2122,43.2110,,*55
$GPGNS,160007.00,,,,,,04,,,,1.5,123*7D
$GLGNS,160007.00,,,,,,04,,,,,*7B
$GAGNS,160007.00,,,,,,05,,,,,*77
$GBGNS,160007.00,,,,,,09,,,,,*78
$GPLLQ,160007.00,010125,,M,,M,1,22,4.708,,M*1A
$GPVTG,,T,,M,0.01,N,0.02,K,D*25
$GPHDT,,T*1B
$GPTHS,,V*0E
$GPROT,,V*08
$PSSN,HRP,160007.00,010125,,,,,,,00,0,,*61
$PTNL,AVR,160007.00,,Yaw,,Tilt,,,,0,,00*37
$GPGSA,A,3,25,28,29,31,,,,,,,,,1.6,0.8,1.3*3B
$GPGSA,A,3,78,79,81,88,,,,,,,,,1.6,0.8,1.3*37
$GPGSA,A,3,15,21,27,30,34,,,,,,,,1.6,0.8,1.3*39
$GPGSA,A,3,08,11,12,13,23,25,34,38,43,,,,1.6,0.8,1.3*3B
$GPGST,160007.00,3.223,2.669,0.919,23.673,2.472,1.363,3.768*60
$GPGBS,160007.00,10.129,5.882,20.215,28,0.0001,-2.766,0.962*79
$GPGRS,160007.00,1,0.8,-2.8,-0.2,-0.6,,,,,,,,*65
$GPGRS,160007.00,1,-8.7,1.3,2.6,-1.4,,,,,,,,*42
$GPGRS,160007.00,1,2.9,2.0,0.4,1.1,-1.4,,,,,,,*45
$GPGRS,160007.00,1,-2.4,2.2,-1.0,5.4,0.2,-1.8,1.2,0.4,-0.2,,,*68
$GPGSV,4,1,15,29,83,016,46,12,16,115,33,11,16,041,22,05,18,097,23*7D
$GPGSV,4,2,15,18,33,186,41,26,28,300,21,20,21,061,,31,43,291,45*7E
$GPGSV,4,3,15,28,51,250,40,25,54,120,44,04,04,337,21,36,35,170,37*77
$GPGSV,4,4,15,34,31,208,35,49,34,195,36,61,03,257,*42
$GLGSV,2,1,08,79,83,324,51,82,24,213,30,80,27,320,33,88,46,040,49*62
$GLGSV,2,2,08,78,39,140,38,81,74,207,50,72,04,033,,71,08,348,21*6F
$GAGSV,3,1,10,27,80,317,44,13,16,192,23,19,13,293,28,34,44,057,42*66
$GAGSV,3,2,10,21,26,298,38,30,43,112,42,15,57,147,51,04,03,346,*61
$GAGSV,3,3,10,29,07,251,25,36,01,030,*63
$GBGSV,5,1,18,34,80,086,50,24,18,148,28,56,12,066,,05,21,129,30*65
$GBGSV,5,2,18,44,25,054,31,38,27,060,41,43,46,224,45,23,47,300,47*6E
$GBGSV,5,3,18,13,30,085,37,08,31,076,36,25,66,187,51,12,50,056,44*6A
$GBGSV,5,4,18,11,70,209,46,02,06,107,,19,02,015,,37,00,317,23*61
$GBGSV,5,5,18,10,07,082,,60,10,109,*61
$GPGGA,160007.00,,,,,0,00,,,M,,M,,*48
$PTNL,GGK,160007.00,010125,4742.4456125,N,01617.9736619,E,1,22,1.6,EHT669.4233,M*46
$GPGGQ,160007.00,010125,4742.4456125,N,01617.9736619,E,1,22,4.708,626.2122,M*3A
$GPGFA,160007.00,25.379,30.896,2.669,0.919,23.673,3.768,,VVV*3E
$GPLLK,160007.00,010125,,M,,M,1,22,1.9,,M*03
$GNGMP,160007.00,,,,,DAAA,22,0.8,,,,*5E
$GPGMP,160007.00,,,,,,04,,,,1.5,123*7D
$GLGMP,160007.00,,,,,,04,,,,,*7B
$GAGMP,160007.00,,,,,,05,,,,,*77
$GBGMP,160007.00,,,,,,09,,,,,*78
$PSSN,SNC,[0,316825000,2347]*4F
$GPZDA,160012.00,01,01,2025,,*67
$GPDTM,W84,,00.0000000,N,00.0000000,E,00.0000000,W84*5F
$GPRMC,160012.00,A,4742.4456140,N,01617.9736496,E,0.0,,010125,5.1,E,D*1B
$GPGLL,4742.4456140,N,01617.9736496,E,160012.00,A,D*6A
$GPGGA,160012.00,4742.4456140,N,01617.9736496,E,2,23,0.7,626.2148,M,43.2110,M,2.6,0123*4D
$GNGNS,160012.00,4742.4456140,N,01617.9736496,E,DAAA,23,0.7,626.2148,43.2110,,*55
$GPGNS,160012.00,,,,,,05,,,,2.6,123*78
$GLGNS,160012.00,,,,,,04,,,,,*7F
$GAGNS,160012.00,,,,,,05,,,,,*73
$GBGNS,160012.00,,,,,,09,,,,,*7C
$GPLLQ,160012.00,010125,,M,,M,1,23,6.171,,M*15
$GPVTG,,T,,M,0.01,N,0.02,K,D*25
$GPHDT,,T*1B
$GPTHS,,V*0E
$GPROT,,V*08
$PSSN,HRP,160012.00,010125,,,,,,,00,0,,*65
$PTNL,AVR,160012.00,,Yaw,,Tilt,,,,0,,00*33
$GPGSA,A,3,18,25,28,29,31,,,,,,,,1.4,0.7,1.2*3E
$GPGSA,A,3,78,79,81,88,,,,,,,,,1.4,0.7,1.2*3B
$GPGSA,A,3,15,21,27,30,34,,,,,,,,1.4,0.7,1.2*35
$GPGSA,A,3,08,11,12,13,23,25,34,38,43,,,,1.4,0.7,1.2*37
$GPGST,160012.00,2.987,2.483,1.246,29.545,2.246,1.635,5.510*66
$GPGBS,160012.00,7.931,5.853,16.019,18,0.0001,3.842,1.143*61
$GPGRS,160012.00,1,3.8,0.3,-2.5,0.2,0.1,,,,,,,*45
$GPGRS,160012.00,1,2.1,1.3,3.5,-2.4,,,,,,,,*66
$GPGRS,160012.00,1,3.1,1.2,0.7,0.8,-1.1,,,,,,,*47
$GPGRS,160012.00,1,-3.4,3.6,-0.5,7.3,-0.1,-1.8,1.3,0.1,-0.9,,,*48
$GPGSV,4,1,15,29,83,016,46,12,16,115,33,11,16,041,24,05,18,097,*7A
$GPGSV,4,2,15,18,33,186,41,26,28,300,26,20,21,061,,31,43,291,45*79
$GPGSV,4,3,15,28,51,250,41,25,54,120,45,04,04,337,27,36,35,170,37*71
$GPGSV,4,4,15,34,31,208,35,49,34,195,36,61,03,257,*42
$GLGSV,2,1,08,79,83,324,50,82,24,213,34,80,27,320,31,88,46,040,48*64
$GLGSV,2,2,08,78,39,140,44,81,74,207,51,72,04,033,,71,08,348,33*66
$GAGSV,3,1,10,27,80,317,44,13,16,192,24,19,13,293,31,34,44,057,44*6F
$GAGSV,3,2,10,21,26,298,38,30,43,112,42,15,57,147,51,04,03,346,*61
$GAGSV,3,3,10,29,07,251,24,36,01,030,*62
$GBGSV,5,1,18,34,80,086,50,24,18,148,28,56,12,066,,05,21,129,29*6D
$GBGSV,5,2,18,44,25,054,31,38,27,060,41,43,46,224,45,23,47,300,48*61
$GBGSV,5,3,18,13,30,085,37,08,31,076,36,25,66,187,51,12,50,056,44*6A
$GBGSV,5,4,18,11,70,209,47,02,06,107,,19,02,015,,37,00,317,22*61
$GBGSV,5,5,18,10,07,082,,60,10,109,*61
$GPGGA,160012.00,,,,,0,00,,,M,,M,,*4C
$PTNL,GGK,160012.00,010125,4742.4456140,N,01617.9736496,E,1,23,1.4,EHT669.4258,M*4A
$GPGGQ,160012.00,010125,4742.4456140,N,01617.9736496,E,1,23,6.171,626.2148,M*3F
$GPGFA,160012.00,23.612,45.184,2.483,1.246,29.545,5.510,,VVV*3D
$GPLLK,160012.00,010125,,M,,M,1,23,1.7,,M*08
$GNGMP,160012.00,,,,,DAAA,23,0.7,,,,*54
$GPGMP,160012.00,,,,,,05,,,,2.6,123*78
$GLGMP,160012.00,,,,,,04,,,,,*7F
$GAGMP,160012.00,,,,,,05,,,,,*73
$GBGMP,160012.00,,,,,,09,,,,,*7C
$PSSN,SNC,[0,316830000,2347]*4B
$GPZDA,160017.00,01,01,2025,,*62
$GPDTM,W84,,00.0000000,N,00.0000000,E,00.0000000,W84*5F
$GPRMC,160017.00,A,4742.4456225,N,01617.9736410,E,0.0,,010125,5.1,E,D*10
$GPGLL,4742.4456225,N,01617.9736410,E,160017.00,A,D*61
$GPGGA,160017.00,4742.4456225,N,01617.9736410,E,2,23,0.7,626.2257,M,43.2110,M,3.5,0123*49
$GNGNS,160017.00,4742.4456225,N,01617.9736410,E,DAAA,23,0.7,626.2257,43.2110,,*53
$GPGNS,160017.00,,,,,,04,,,,3.5,123*7E
$GLGNS,160017.00,,,,,,05,,,,,*7B
$GAGNS,160017.00,,,,,,05,,,,,*76
$GBGNS,160017.00,,,,,,09,,,,,*79
$GPLLQ,160017.00,010125,,M,,M,1,23,4.388,,M*16
$GPVTG,,T,,M,0.02,N,0.03,K,D*27
$GPHDT,,T*1B
$GPTHS,,V*0E
$GPROT,,V*08
$PSSN,HRP,160017.00,010125,,,,,,,00,0,,*60
$PTNL,AVR,160017.00,,Yaw,,Tilt,,,,0,,00*36
$GPGSA,A,3,18,25,29,31,,,,,,,,,1.3,0.7,1.1*30
$GPGSA,A,3,78,79,81,82,88,,,,,,,,1.3,0.7,1.1*35
$GPGSA,A,3,15,21,27,30,34,,,,,,,,1.3,0.7,1.1*31
$GPGSA,A,3,08,11,12,13,23,25,34,38,43,,,,1.3,0.7,1.1*33
$GPGST,160017.00,2.961,1.948,0.880,35.681,1.663,1.342,3.832*6B
$GPGBS,160017.00,8.025,7.508,18.726,18,0.0001,2.537,1.152*6D
$GPGRS,160017.00,1,2.5,-0.5,0.4,0.1,,,,,,,,*65
$GPGRS,160017.00,1,3.0,0.7,2.6,2.5,-3.6,,,,,,,*4E
$GPGRS,160017.00,1,2.1,0.6,0.3,-0.7,-1.9,,,,,,,*68
$GPGRS,160017.00,1,-4.0,3.4,-0.8,7.1,-1.3,-2.1,0.6,-1.4,-1.2,,,*6D
$GPGSV,4,1,15,29,83,017,44,12,16,115,31,11,16,041,26,05,18,097,*79
$GPGSV,4,2,15,18,33,186,41,26,28,300,35,20,21,061,22,31,43,291,44*7A
$GPGSV,4,3,15,28,51,250,29,25,54,120,45,04,04,336,28,36,35,170,37*71
$GPGSV,4,4,15,34,31,208,34,49,34,195,36,61,03,257,*43
$GLGSV,2,1,08,79,84,324,50,82,24,213,36,80,27,320,35,88,46,040,49*64
$GLGSV,2,2,08,78,39,140,42,81,74,207,50,72,04,033,,71,08,348,36*64
$GAGSV,3,1,10,27,80,318,44,13,16,192,25,19,13,293,32,34,43,057,44*65
$GAGSV,3,2,10,21,26,298,37,30,43,112,41,15,57,147,51,04,03,346,*6D
$GAGSV,3,3,10,29,07,251,21,36,01,030,*67
$GBGSV,5,1,18,34,80,086,50,24,18,148,27,56,12,066,,05,21,129,30*6A
$GBGSV,5,2,18,44,25,055,31,38,27,060,40,43,46,224,45,23,47,300,48*61
$GBGSV,5,3,18,13,30,085,38,08,31,076,36,25,66,187,51,12,50,056,45*64
$GBGSV,5,4,18,11,70,209,46,02,06,107,,19,02,015,,37,00,317,24*66
$GBGSV,5,5,18,10,07,082,,60,10,109,*61
$GPGGA,160017.00,,,,,0,00,,,M,,M,,*49
$PTNL,GGK,160017.00,010125,4742.4456225,N,01617.9736410,E,1,23,1.3,EHT669.4368,M*44
$GPGGQ,160017.00,010125,4742.4456225,N,01617.9736410,E,1,23,4.388,626.2257,M*3F
$GPGFA,160017.00,18.519,31.423,1.948,0.880,35.681,3.832,,VVV*36
$GPLLK,160017.00,010125,,M,,M,1,23,1.5,,M*0F
$GNGMP,160017.00,,,,,DAAA,23,0.7,,,,*51
$GPGMP,160017.00,,,,,,04,,,,3.5,123*7E
$GLGMP,160017.00,,,,,,05,,,,,*7B
$GAGMP,160017.00,,,,,,05,,,,,*76
$GBGMP,160017.00,,,,,,09,,,,,*79
$PSSN,SNC,[0,316835000,2347]*4E
$GPZDA,160022.00,01,01,2025,,*64
$GPDTM,W84,,00.0000000,N,00.0000000,E,00.0000000,W84*5F
$GPRMC,160022.00,A,4742.4456323,N,01617.9736339,E,0.0,,010125,5.1,E,D*1D
$GPGLL,4742.4456323,N,01617.9736339,E,160022.00,A,D*6C
$GPGGA,160022.00,4742.4456323,N,01617.9736339,E,2,24,0.7,626.2179,M,43.2110,M,2.2,0123*4A
$GNGNS,160022.00,4742.4456323,N,01617.9736339,E,DAAA,24,0.7,626.2179,43.2110,,*56
$GPGNS,160022.00,,,,,,05,,,,2.2,123*7F
$GLGNS,160022.00,,,,,,05,,,,,*7D
$GAGNS,160022.00,,,,,,05,,,,,*70
$GBGNS,160022.00,,,,,,09,,,,,*7F
$GPLLQ,160022.00,010125,,M,,M,1,24,3.293,,M*1B
$GPVTG,,T,,M,0.01,N,0.02,K,D*25
$GPHDT,,T*1B
$GPTHS,,V*0E
$GPROT,,V*08
$PSSN,HRP,160022.00,010125,,,,,,,00,0,,*66
$PTNL,AVR,160022.00,,Yaw,,Tilt,,,,0,,00*30
$GPGSA,A,3,18,25,26,29,31,,,,,,,,1.3,0.7,1.1*34
$GPGSA,A,3,78,79,80,81,88,,,,,,,,1.3,0.7,1.1*37
$GPGSA,A,3,15,21,27,30,34,,,,,,,,1.3,0.7,1.1*31
$GPGSA,A,3,08,11,12,13,23,25,34,38,43,,,,1.3,0.7,1.1*33
$GPGST,160022.00,3.012,1.611,0.720,44.392,1.256,1.239,2.780*6E
$GPGBS,160022.00,7.959,7.383,15.171,18,0.0001,2.265,1.123*6C
$GPGRS,160022.00,1,2.3,-0.4,-0.4,0.6,0.5,,,,,,,*65
$GPGRS,160022.00,1,-1.2,1.2,-5.9,1.4,-3.5,,,,,,,*45
$GPGRS,160022.00,1,1.7,2.1,0.3,-1.3,-1.9,,,,,,,*6B
$GPGRS,160022.00,1,-4.3,2.3,-0.3,7.4,-1.4,-1.1,0.5,-1.5,-0.5,,,*60
$GPGSV,4,1,15,29,83,017,44,12,16,115,30,11,16,041,29,05,18,097,*77
$GPGSV,4,2,15,18,33,186,40,26,28,300,37,20,21,061,,31,43,291,43*7E
$GPGSV,4,3,15,28,51,250,32,25,54,120,46,04,04,336,29,36,35,170,37*79
$GPGSV,4,4,15,34,31,208,35,49,34,195,36,61,03,257,*42
$GLGSV,2,1,08,79,84,324,50,82,24,213,35,80,27,320,36,88,46,040,49*64
$GLGSV,2,2,08,78,39,140,40,81,74,207,49,72,04,033,,71,08,348,33*6B
$GAGSV,3,1,10,27,80,318,45,13,16,192,24,19,13,293,32,34,43,057,45*64
$GAGSV,3,2,10,21,26,298,37,30,43,112,41,15,57,147,50,04,03,346,*6C
$GAGSV,3,3,10,29,07,250,22,36,01,030,*65
$GBGSV,5,1,18,34,80,086,50,24,18,148,26,56,12,066,,05,21,129,29*63
$GBGSV,5,2,18,44,25,055,32,38,27,060,40,43,46,224,46,23,47,300,47*6E
$GBGSV,5,3,18,13,30,085,38,08,31,076,36,25,66,187,51,12,50,056,45*64
$GBGSV,5,4,18,11,70,209,46,02,06,107,,19,02,015,,37,01,317,24*67
$GBGSV,5,5,18,10,07,082,,60,10,109,*61
$GPGGA,160022.00,,,,,0,00,,,M,,M,,*4F
$PTNL,GGK,160022.00,010125,4742.4456323,N,01617.9736339,E,1,24,1.3,EHT669.4290,M*48
$GPGGQ,160022.00,010125,4742.4456323,N,01617.9736339,E,1,24,3.293,626.2179,M*36
$GPGFA,160022.00,15.313,22.799,1.611,0.720,44.392,2.780,,VVV*31
$GPLLK,160022.00,010125,,M,,M,1,24,1.6,,M*0D
$GNGMP,160022.00,,,,,DAAA,24,0.7,,,,*50
$GPGMP,160022.00,,,,,,05,,,,2.2,123*7F
$GLGMP,160022.00,,,,,,05,,,,,*7D
$GAGMP,160022.00,,,,,,05,,,,,*70
$GBGMP,160022.00,,,,,,09,,,,,*7F
$PSSN,SNC,[0,316840000,2347]*4C
$GPZDA,160027.00,01,01,2025,,*61
$GPDTM,W84,,00.0000000,N,00.0000000,E,00.0000000,W84*5F
$GPRMC,160027.00,A,4742.4456350,N,01617.9736436,E,0.0,,010125,5.1,E,D*14
$GPGLL,4742.4456350,N,01617.9736436,E,160027.00,A,D*65
$GPGGA,160027.00,4742.4456350,N,01617.9736436,E,2,25,0.6,626.2189,M,43.2110,M,1.6,0123*4B
$GNGNS,160027.00,4742.4456350,N,01617.9736436,E,DAAA,25,0.6,626.2189,43.2110,,*50
$GPGNS,160027.00,,,,,,05,,,,1.6,123*7D
$GLGNS,160027.00,,,,,,06,,,,,*7B
$GAGNS,160027.00,,,,,,05,,,,,*75
$GBGNS,160027.00,,,,,,09,,,,,*7A
$GPLLQ,160027.00,010125,,M,,M,1,25,3.700,,M*10
$GPVTG,,T,,M,0.01,N,0.03,K,D*24
$GPHDT,,T*1B
$GPTHS,,V*0E
$GPROT,,V*08
$PSSN,HRP,160027.00,010125,,,,,,,00,0,,*63
$PTNL,AVR,160027.00,,Yaw,,Tilt,,,,0,,00*35
$GPGSA,A,3,18,25,26,29,31,,,,,,,,1.2,0.6,1.0*35
$GPGSA,A,3,78,79,80,81,82,88,,,,,,,1.2,0.6,1.0*3C
$GPGSA,A,3,15,21,27,30,34,,,,,,,,1.2,0.6,1.0*30
$GPGSA,A,3,08,11,12,13,23,25,34,38,43,,,,1.2,0.6,1.0*32
$GPGST,160027.00,3.586,1.825,0.796,44.680,1.413,1.402,3.118*6E
$GPGBS,160027.00,7.663,7.313,14.879,26,0.0001,2.527,1.427*6B
$GPGRS,160027.00,1,1.0,-1.4,2.5,0.4,-0.1,,,,,,,*64
$GPGRS,160027.00,1,-3.8,0.2,-7.6,0.3,6.1,-4.8,,,,,,*61
$GPGRS,160027.00,1,0.5,0.5,-0.8,-2.6,-2.6,,,,,,,*47
$GPGRS,160027.00,1,-4.9,-0.1,-1.4,5.8,-2.5,-1.2,-0.3,-2.7,-0.8,,,*6C
$GPGSV,4,1,15,29,83,017,44,12,16,115,28,11,16,041,29,05,18,096,*7F
$GPGSV,4,2,15,18,33,186,40,26,28,300,38,20,21,061,,31,43,291,43*71
$GPGSV,4,3,15,28,51,250,41,25,54,120,46,04,04,336,27,36,35,170,37*73
$GPGSV,4,4,15,34,31,208,35,49,34,195,37,61,03,257,*43
$GLGSV,2,1,08,79,84,323,50,82,24,213,39,80,27,320,36,88,46,040,49*6F
$GLGSV,2,2,08,78,39,140,41,81,74,207,48,72,04,033,,71,08,348,31*69
$GAGSV,3,1,10,27,81,318,46,13,16,192,25,19,13,293,32,34,43,057,45*67
$GAGSV,3,2,10,21,26,298,37,30,43,112,40,15,57,147,50,04,03,346,*6D
$GAGSV,3,3,10,29,07,250,21,36,01,030,*66
$GBGSV,5,1,18,34,80,086,50,24,17,148,23,56,12,066,,05,21,129,30*61
$GBGSV,5,2,18,44,25,055,33,38,27,060,40,43,46,224,46,23,47,300,47*6F
$GBGSV,5,3,18,13,30,085,38,08,31,076,37,25,66,187,51,12,50,056,45*65
$GBGSV,5,4,18,11,70,209,45,02,06,107,,19,02,015,,37,01,317,26*66
$GBGSV,5,5,18,10,07,082,,60,10,109,*61
$GPGGA,160027.00,,,,,0,00,,,M,,M,,*4A
$PTNL,GGK,160027.00,010125,4742.4456350,N,01617.9736436,E,1,25,1.2,EHT669.4299,M*48
$GPGGQ,160027.00,010125,4742.4456350,N,01617.9736436,E,1,25,3.700,626.2189,M*3E
$GPGFA,160027.00,17.349,25.571,1.825,0.796,44.680,3.118,,VVV*3E
$GPLLK,160027.00,010125,,M,,M,1,25,1.4,,M*0B
$GNGMP,160027.00,,,,,DAAA,25,0.6,,,,*55
$GPGMP,160027.00,,,,,,05,,,,1.6,123*7D
$GLGMP,160027.00,,,,,,06,,,,,*7B
$GAGMP,160027.00,,,,,,05,,,,,*75
$GBGMP,160027.00,,,,,,09,,,,,*7A
$PSSN,SNC,[0,316845000,2347]*49
$GPZDA,160032.00,01,01,2025,,*65
$GPDTM,W84,,00.0000000,N,00.0000000,E,00.0000000,W84*5F
$GPRMC,160032.00,A,4742.4456329,N,01617.9736592,E,0.0,,010125,5.1,E,D*11
$GPGLL,4742.4456329,N,01617.9736592,E,160032.00,A,D*60
$GPGGA,160032.00,4742.4456329,N,01617.9736592,E,2,25,0.6,626.2279,M,43.2110,M,2.6,0123*41
$GNGNS,160032.00,4742.4456329,N,01617.9736592,E,DAAA,25,0.6,626.2279,43.2110,,*59
$GPGNS,160032.00,,,,,,05,,,,2.6,123*7A
$GLGNS,160032.00,,,,,,06,,,,,*7F
$GAGNS,160032.00,,,,,,05,,,,,*71
$GBGNS,160032.00,,,,,,09,,,,,*7E
$GPLLQ,160032.00,010125,,M,,M,1,25,3.782,,M*1E
$GPVTG,,T,,M,0.00,N,0.01,K,D*27
$GPHDT,,T*1B
$GPTHS,,V*0E
$GPROT,,V*08
$PSSN,HRP,160032.00,010125,,,,,,,00,0,,*67
$PTNL,AVR,160032.00,,Yaw,,Tilt,,,,0,,00*31
$GPGSA,A,3,18,25,26,29,31,,,,,,,,1.2,0.6,1.0*35
$GPGSA,A,3,78,79,80,81,82,88,,,,,,,1.2,0.6,1.0*3C
$GPGSA,A,3,15,21,27,30,34,,,,,,,,1.2,0.6,1.0*30
$GPGSA,A,3,08,11,12,13,23,25,34,38,43,,,,1.2,0.6,1.0*32
$GPGST,160032.00,3.611,1.871,0.817,44.613,1.450,1.437,3.184*6E
$GPGBS,160032.00,7.690,7.333,14.945,25,0.0001,-1.831,0.874*43
$GPGRS,160032.00,1,0.7,-1.8,1.1,0.9,0.7,,,,,,,*4B
$GPGRS,160032.00,1,-2.0,-0.6,-7.2,1.2,6.6,-5.6,,,,,,*49
$GPGRS,160032.00,1,0.2,-0.5,-0.9,-2.9,-2.7,,,,,,,*66
$GPGRS,160032.00,1,-4.0,-0.1,-1.9,6.2,-2.7,-0.8,-0.4,-3.4,-0.6,,,*67
$GPGSV,4,1,15,29,83,017,44,12,16,115,25,11,16,041,28,05,18,096,*73
$GPGSV,4,2,15,18,33,186,40,26,28,300,37,20,21,061,,31,43,291,43*7E
$GPGSV,4,3,15,28,51,250,32,25,54,120,46,04,04,336,29,36,35,170,37*79
$GPGSV,4,4,15,34,31,208,35,49,34,195,37,61,03,257,*43
$GLGSV,2,1,08,79,84,323,49,82,24,213,40,80,27,320,38,88,46,040,48*66
$GLGSV,2,2,08,78,39,140,39,81,74,207,48,72,04,033,,71,08,348,22*64
$GAGSV,3,1,10,27,81,318,47,13,16,192,26,19,13,293,32,34,43,057,45*65
$GAGSV,3,2,10,21,26,298,37,30,43,112,39,15,57,147,49,04,03,346,*6B
$GAGSV,3,3,10,29,07,250,21,36,01,030,*66
$GBGSV,5,1,18,34,80,085,49,24,17,148,19,56,12,066,,05,21,129,30*63
$GBGSV,5,2,18,44,25,055,34,38,27,060,40,43,46,224,46,23,47,300,47*68
$GBGSV,5,3,18,13,30,085,38,08,31,076,37,25,66,187,51,12,50,055,45*66
$GBGSV,5,4,18,11,70,209,45,02,06,107,,19,02,015,,37,01,317,26*66
$GBGSV,5,5,18,10,07,082,,60,10,109,*61
$GPGGA,160032.00,,,,,0,00,,,M,,M,,*4E
$PTNL,GGK,160032.00,010125,4742.4456329,N,01617.9736592,E,1,25,1.2,EHT669.4389,M*4D
$GPGGQ,160032.00,010125,4742.4456329,N,01617.9736592,E,1,25,3.782,626.2279,M*3D
$GPGFA,160032.00,17.792,26.105,1.871,0.817,44.613,3.184,,VVV*34
$GPLLK,160032.00,010125,,M,,M,1,25,1.4,,M*0F
$GNGMP,160032.00,,,,,DAAA,25,0.6,,,,*51
$GPGMP,160032.00,,,,,,05,,,,2.6,123*7A
$GLGMP,160032.00,,,,,,06,,,,,*7F
$GAGMP,160032.00,,,,,,05,,,,,*71
$GBGMP,160032.00,,,,,,09,,,,,*7E
$PSSN,SNC,[0,316850000,2347]*4D
$GPZDA,160037.00,01,01,2025,,*60
$GPDTM,W84,,00.0000000,N,00.0000000,E,00.0000000,W84*5F
$GPRMC,160037.00,A,4742.4456355,N,01617.9736740,E,0.0,,010125,5.1,E,D*12
$GPGLL,4742.4456355,N,01617.9736740,E,160037.00,A,D*63
$GPGGA,160037.00,4742.4456355,N,01617.9736740,E,2,25,0.6,626.2235,M,43.2110,M,3.6,0123*4B
$GNGNS,160037.00,4742.4456355,N,01617.9736740,E,DAAA,25,0.6,626.2235,43.2110,,*52
$GPGNS,160037.00,,,,,,05,,,,3.6,123*7E
$GLGNS,160037.00,,,,,,06,,,,,*7A
$GAGNS,160037.00,,,,,,05,,,,,*74
$GBGNS,160037.00,,,,,,09,,,,,*7B
$GPLLQ,160037.00,010125,,M,,M,1,25,3.196,,M*18
$GPVTG,,T,,M,0.00,N,0.01,K,D*27
$GPHDT,,T*1B
$GPTHS,,V*0E
$GPROT,,V*08
$PSSN,HRP,160037.00,010125,,,,,,,00,0,,*62
$PTNL,AVR,160037.00,,Yaw,,Tilt,,,,0,,00*34
$GPGSA,A,3,18,25,26,29,31,,,,,,,,1.2,0.6,1.0*35
$GPGSA,A,3,78,79,80,81,82,88,,,,,,,1.2,0.6,1.0*3C
$GPGSA,A,3,15,21,27,30,34,,,,,,,,1.2,0.6,1.0*30
$GPGSA,A,3,08,11,12,13,23,25,34,38,43,,,,1.2,0.6,1.0*32
$GPGST,160037.00,3.380,1.586,0.692,44.938,1.224,1.223,2.687*65
$GPGBS,160037.00,7.729,7.355,14.939,25,0.0001,-1.387,0.888*4B
$GPGRS,160037.00,1,1.2,-1.4,0.5,0.2,0.4,,,,,,,*4B
$GPGRS,160037.00,1,-1.4,-0.8,-4.7,2.0,7.9,-4.9,,,,,,*42
$GPGRS,160037.00,1,0.3,-1.3,-0.7,-2.0,-2.7,,,,,,,*62
$GPGRS,160037.00,1,-3.2,1.3,-2.1,6.0,-2.4,-0.6,-0.8,-3.7,0.2,,,*6B
$GPGSV,4,1,15,29,83,017,45,12,15,115,22,11,16,041,27,05,18,096,*79
$GPGSV,4,2,15,18,33,186,39,26,28,300,38,20,21,061,31,31,43,291,44*7A
$GPGSV,4,3,15,28,51,250,31,25,54,120,46,04,04,336,28,36,35,170,37*7B
$GPGSV,4,4,15,34,31,208,35,49,34,195,36,61,03,257,*42
$GLGSV,2,1,08,79,84,323,49,82,24,214,40,80,27,320,40,88,46,040,49*6F
$GLGSV,2,2,08,78,39,140,40,81,74,207,49,72,04,033,,71,08,348,20*69
$GAGSV,3,1,10,27,81,318,47,13,16,192,28,19,13,293,32,34,43,057,45*6B
$GAGSV,3,2,10,21,26,298,36,30,43,112,39,15,57,147,49,04,03,346,*6A
$GAGSV,3,3,10,29,07,250,27,36,00,030,*61
$GBGSV,5,1,18,34,80,085,49,24,17,148,,56,12,066,,05,21,129,30*6B
$GBGSV,5,2,18,44,25,055,35,38,27,060,39,43,47,224,46,23,47,300,48*69
$GBGSV,5,3,18,13,30,085,38,08,31,076,38,25,66,187,51,12,50,055,45*69
$GBGSV,5,4,18,11,70,209,46,02,06,107,,19,02,015,,37,01,317,26*65
$GBGSV,5,5,18,10,07,082,,60,10,109,*61
$GPGGA,160037.00,,,,,0,00,,,M,,M,,*4B
$PTNL,GGK,160037.00,010125,4742.4456355,N,01617.9736740,E,1,25,1.2,EHT669.4346,M*4D
$GPGGQ,160037.00,010125,4742.4456355,N,01617.9736740,E,1,25,3.196,626.2235,M*35
$GPGFA,160037.00,15.076,22.034,1.586,0.692,44.938,2.687,,VVV*3C
$GPLLK,160037.00,010125,,M,,M,1,25,1.4,,M*0A
$GNGMP,160037.00,,,,,DAAA,25,0.6,,,,*54
$GPGMP,160037.00,,,,,,05,,,,3.6,123*7E
$GLGMP,160037.00,,,,,,06,,,,,*7A
$GAGMP,160037.00,,,,,,05,,,,,*74
$GBGMP,160037.00,,,,,,09,,,,,*7B
$PSSN,SNC,[0,316855000,2347]*48
$GPZDA,160042.00,01,01,2025,,*62
$GPDTM,W84,,00.0000000,N,00.0000000,E,00.0000000,W84*5F
$GPRMC,160042.00,A,4742.4456402,N,01617.9736852,E,0.0,,010125,5.1,E,D*19
$GPGLL,4742.4456402,N,01617.9736852,E,160042.00,A,D*68
$GPGGA,160042.00,4742.4456402,N,01617.9736852,E,2,26,0.6,626.2330,M,43.2110,M,2.2,0123*42
$GNGNS,160042.00,4742.4456402,N,01617.9736852,E,DAAA,26,0.6,626.2330,43.2110,,*5E
$GPGNS,160042.00,,,,,,05,,,,2.2,123*79
$GLGNS,160042.00,,,,,,06,,,,,*78
$GAGNS,160042.00,,,,,,05,,,,,*76
$GBGNS,160042.00,,,,,,10,,,,,*71
$GPLLQ,160042.00,010125,,M,,M,1,26,4.484,,M*18
$GPVTG,,T,,M,0.01,N,0.02,K,D*25
$GPHDT,,T*1B
$GPTHS,,V*0E
$GPROT,,V*08
$PSSN,HRP,160042.00,010125,,,,,,,00,0,,*60
$PTNL,AVR,160042.00,,Yaw,,Tilt,,,,0,,00*36
$GPGSA,A,3,18,25,26,29,31,,,,,,,,1.2,0.6,1.0*35
$GPGSA,A,3,78,79,80,81,82,88,,,,,,,1.2,0.6,1.0*3C
$GPGSA,A,3,15,21,27,30,34,,,,,,,,1.2,0.6,1.0*30
$GPGSA,A,3,08,11,12,13,23,25,34,38,43,44,,,1.2,0.6,1.0*32
$GPGST,160042.00,6.978,2.206,0.989,44.788,1.714,1.705,3.777*6B
$GPGBS,160042.00,7.512,7.011,14.717,44,0.0001,27.200,8.898*5B
$GPGRS,160042.00,1,1.9,-1.4,1.0,0.1,-0.2,,,,,,,*6E
$GPGRS,160042.00,1,-2.0,-1.3,-6.5,1.9,5.5,-4.0,,,,,,*40
$GPGRS,160042.00,1,-0.2,-1.1,-0.7,-1.5,-3.0,,,,,,,*4E
$GPGRS,160042.00,1,-3.1,2.4,-2.7,4.5,-2.0,-0.5,-1.5,-4.3,0.0,27.2,,*7C
$GPGSV,4,1,15,29,83,018,45,12,15,115,20,11,16,041,26,05,18,096,*75
$GPGSV,4,2,15,18,33,186,37,26,29,300,39,20,21,060,29,31,43,290,44*7D
$GPGSV,4,3,15,28,51,250,29,25,54,120,46,04,04,336,31,36,35,170,37*7A
$GPGSV,4,4,15,34,31,208,35,49,34,195,36,61,03,257,*42
$GLGSV,2,1,08,79,84,323,48,82,24,214,39,80,27,320,40,88,46,040,49*60
$GLGSV,2,2,08,78,39,140,40,81,74,207,49,72,04,033,,71,08,348,30*68
$GAGSV,3,1,10,27,81,318,47,13,16,192,28,19,13,293,33,34,43,057,44*6B
$GAGSV,3,2,10,21,26,298,35,30,43,112,39,15,57,147,47,04,03,346,*67
$GAGSV,3,3,10,29,07,250,24,36,00,030,*62
$GBGSV,5,1,18,34,80,085,48,24,17,148,22,56,12,066,,05,21,129,30*6A
$GBGSV,5,2,18,44,25,055,36,38,27,060,39,43,47,224,45,23,47,300,48*69
$GBGSV,5,3,18,13,30,085,38,08,31,076,39,25,66,187,52,12,50,055,45*6B
$GBGSV,5,4,18,11,70,209,45,02,06,107,,19,02,015,,37,01,317,25*65
$GBGSV,5,5,18,10,07,082,,60,10,109,*61
$GPGGA,160042.00,,,,,0,00,,,M,,M,,*49
$PTNL,GGK,160042.00,010125,4742.4456402,N,01617.9736852,E,1,26,1.2,EHT669.4441,M*45
$GPGGQ,160042.00,010125,4742.4456402,N,01617.9736852,E,1,26,4.484,626.2330,M*38
$GPGFA,160042.00,20.974,30.970,2.206,0.989,44.788,3.777,,VVV*3A
$GPLLK,160042.00,010125,,M,,M,1,26,1.4,,M*0B
$GNGMP,160042.00,,,,,DAAA,26,0.6,,,,*55
$GPGMP,160042.00,,,,,,05,,,,2.2,123*79
$GLGMP,160042.00,,,,,,06,,,,,*78
$GAGMP,160042.00,,,,,,05,,,,,*76
$GBGMP,160042.00,,,,,,10,,,,,*71
$PSSN,SNC,[0,316860000,2347]*4E
$GPZDA,160047.00,01,01,2025,,*67
$GPDTM,W84,,00.0000000,N,00.0000000,E,00.0000000,W84*5F
$GPRMC,160047.00,A,4742.4456429,N,01617.9736928,E,0.0,,010125,5.1,E,D*19
$GPGLL,4742.4456429,N,01617.9736928,E,160047.00,A,D*68
$GPGGA,160047.00,4742.4456429,N,01617.9736928,E,2,24,0.7,626.2421,M,43.2110,M,1.5,0123*42
$GNGNS,160047.00,4742.4456429,N,01617.9736928,E,DAAA,24,0.7,626.2421,43.2110,,*5A
$GPGNS,160047.00,,,,,,04,,,,1.5,123*79
$GLGNS,160047.00,,,,,,06,,,,,*7D
$GAGNS,160047.00,,,,,,04,,,,,*72
$GBGNS,160047.00,,,,,,10,,,,,*74
$GPLLQ,160047.00,010125,,M,,M,1,24,4.806,,M*19
$GPVTG,,T,,M,0.00,N,0.01,K,D*27
$GPHDT,,T*1B
$GPTHS,,V*0E
$GPROT,,V*08
$PSSN,HRP,160047.00,010125,,,,,,,00,0,,*65
$PTNL,AVR,160047.00,,Yaw,,Tilt,,,,0,,00*33
$GPGSA,A,3,25,26,29,31,,,,,,,,,1.3,0.7,1.1*3D
$GPGSA,A,3,78,79,80,81,82,88,,,,,,,1.3,0.7,1.1*3D
$GPGSA,A,3,15,27,30,34,,,,,,,,,1.3,0.7,1.1*32
$GPGSA,A,3,08,11,12,13,23,25,34,38,43,44,,,1.3,0.7,1.1*33
$GPGST,160047.00,7.116,3.202,1.058,28.494,2.859,1.788,3.425*6E
$GPGBS,160047.00,8.678,6.096,16.043,44,0.0001,26.916,8.897*56
$GPGRS,160047.00,1,-0.7,0.9,0.2,-0.3,,,,,,,,*45
$GPGRS,160047.00,1,-0.8,-0.5,-6.9,1.3,1.3,-3.2,,,,,,*49
$GPGRS,160047.00,1,-0.7,-0.8,-0.5,-2.8,,,,,,,,*4A
$GPGRS,160047.00,1,-2.4,2.1,-3.1,3.8,-1.3,-0.3,-1.7,-4.9,0.7,26.9,,*76
$GPGSV,4,1,15,29,83,018,46,12,15,115,21,11,16,041,26,05,18,096,26*73
$GPGSV,4,2,15,18,34,186,34,26,29,300,38,20,21,060,,31,43,290,44*73
$GPGSV,4,3,15,28,51,250,26,25,54,120,46,04,04,336,31,36,35,170,37*75
$GPGSV,4,4,15,34,31,208,35,49,34,195,36,61,03,257,*42
$GLGSV,2,1,08,79,84,323,48,82,24,214,35,80,27,320,41,88,46,040,49*6D
$GLGSV,2,2,08,78,39,140,39,81,75,207,49,72,04,033,,71,08,348,32*65
$GAGSV,3,1,10,27,81,318,47,13,16,192,30,19,13,293,33,34,43,057,44*62
$GAGSV,3,2,10,21,26,298,33,30,43,112,39,15,57,147,47,04,03,346,*61
$GAGSV,3,3,10,29,06,250,21,36,00,030,*66
$GBGSV,5,1,18,34,80,085,48,24,17,148,26,56,12,067,,05,21,129,30*6F
$GBGSV,5,2,18,44,25,055,36,38,27,060,39,43,47,224,44,23,47,300,48*68
$GBGSV,5,3,18,13,30,085,38,08,31,076,39,25,66,187,52,12,50,055,44*6A
$GBGSV,5,4,18,11,70,209,45,02,06,107,,19,02,015,,37,01,317,*62
$GBGSV,5,5,18,10,07,082,,60,10,109,*61
$GPGGA,160047.00,,,,,0,00,,,M,,M,,*4C
$PTNL,GGK,160047.00,010125,4742.4456429,N,01617.9736928,E,1,24,1.3,EHT669.4531,M*40
$GPGGQ,160047.00,010125,4742.4456429,N,01617.9736928,E,1,24,4.806,626.2421,M*3B
$GPGFA,160047.00,30.443,28.085,3.202,1.058,28.494,3.425,,VVV*3C
$GPLLK,160047.00,010125,,M,,M,1,24,1.5,,M*0D
$GNGMP,160047.00,,,,,DAAA,24,0.7,,,,*53
$GPGMP,160047.00,,,,,,04,,,,1.5,123*79
$GLGMP,160047.00,,,,,,06,,,,,*7D
$GAGMP,160047.00,,,,,,04,,,,,*72
$GBGMP,160047.00,,,,,,10,,,,,*74
$PSSN,SNC,[0,316865000,2347]*4B
$GPZDA,160052.00,01,01,2025,,*63
$GPDTM,W84,,00.0000000,N,00.0000000,E,00.0000000,W84*5F
$GPRMC,160052.00,A,4742.4456419,N,01617.9736921,E,0.0,,010125,5.1,E,D*17
$GPGLL,4742.4456419,N,01617.9736921,E,160052.00,A,D*66
$GPGGA,160052.00,4742.4456419,N,01617.9736921,E,2,23,0.8,626.2466,M,43.2110,M,2.5,0123*44
$GNGNS,160052.00,4742.4456419,N,01617.9736921,E,DAAA,23,0.8,626.2466,43.2110,,*5F
$GPGNS,160052.00,,,,,,04,,,,2.5,123*7E
$GLGNS,160052.00,,,,,,05,,,,,*7A
$GAGNS,160052.00,,,,,,04,,,,,*76
$GBGNS,160052.00,,,,,,10,,,,,*70
$GPLLQ,160052.00,010125,,M,,M,1,23,4.932,,M*1C
$GPVTG,,T,,M,0.01,N,0.02,K,D*25
$GPHDT,,T*1B
$GPTHS,,V*0E
$GPROT,,V*08
$PSSN,HRP,160052.00,010125,,,,,,,00,0,,*61
$PTNL,AVR,160052.00,,Yaw,,Tilt,,,,0,,00*37
$GPGSA,A,3,25,26,29,31,,,,,,,,,1.5,0.8,1.3*36
$GPGSA,A,3,78,79,80,81,88,,,,,,,,1.5,0.8,1.3*3C
$GPGSA,A,3,15,27,30,34,,,,,,,,,1.5,0.8,1.3*39
$GPGSA,A,3,08,11,12,13,23,25,34,38,43,44,,,1.5,0.8,1.3*38
$GPGST,160052.00,7.460,3.446,1.048,27.821,3.086,1.856,3.370*64
$GPGBS,160052.00,8.221,6.738,16.552,44,0.0001,27.740,8.899*5E
$GPGRS,160052.00,1,-0.2,-0.1,0.4,-0.3,,,,,,,,*67
$GPGRS,160052.00,1,-2.1,-0.1,-5.6,0.9,-3.0,,,,,,,*6B
$GPGRS,160052.00,1,-0.7,-0.7,-0.1,-2.5,,,,,,,,*48
$GPGRS,160052.00,1,-1.9,2.1,-3.8,3.6,-1.3,-0.1,-1.6,-4.9,2.0,27.7,,*72
$GPGSV,4,1,15,29,83,018,47,12,15,115,,11,16,041,25,05,18,096,*76
$GPGSV,4,2,15,18,34,186,31,26,29,300,37,20,21,060,30,31,43,290,43*7D
$GPGSV,4,3,15,28,51,250,22,25,54,120,46,04,04,336,29,36,35,170,38*77
$GPGSV,4,4,15,34,31,208,35,49,34,195,37,61,03,257,*43
$GLGSV,2,1,08,79,84,323,48,82,24,214,33,80,27,320,42,88,45,040,48*6A
$GLGSV,2,2,08,78,39,140,39,81,75,207,49,72,04,033,,71,08,348,29*6F
$GAGSV,3,1,10,27,81,318,47,13,16,192,31,19,13,293,32,34,43,057,45*63
$GAGSV,3,2,10,21,26,298,33,30,43,112,40,15,57,147,46,04,03,346,*6E
$GAGSV,3,3,10,29,06,250,18,36,00,030,*6C
$GBGSV,5,1,18,34,79,085,48,24,17,148,28,56,12,067,,05,21,129,30*67
$GBGSV,5,2,18,44,25,055,35,38,27,060,39,43,47,224,43,23,47,300,48*6C
$GBGSV,5,3,18,13,30,085,38,08,31,076,40,25,66,187,52,12,50,055,45*65
$GBGSV,5,4,18,11,70,209,45,02,06,107,,19,02,015,,37,01,317,28*68
$GBGSV,5,5,18,10,07,082,,60,10,109,*61
$GPGGA,160052.00,,,,,0,00,,,M,,M,,*48
$PTNL,GGK,160052.00,010125,4742.4456419,N,01617.9736921,E,1,23,1.5,EHT669.4576,M*4C
$GPGGQ,160052.00,010125,4742.4456419,N,01617.9736921,E,1,23,4.932,626.2466,M*37
$GPGFA,160052.00,32.760,27.632,3.446,1.048,27.821,3.370,,VVV*30
$GPLLK,160052.00,010125,,M,,M,1,23,1.8,,M*03
$GNGMP,160052.00,,,,,DAAA,23,0.8,,,,*5F
$GPGMP,160052.00,,,,,,04,,,,2.5,123*7E
$GLGMP,160052.00,,,,,,05,,,,,*7A
$GAGMP,160052.00,,,,,,04,,,,,*76
$GBGMP,160052.00,,,,,,10,,,,,*70
$PSSN,SNC,[0,316870000,2347]*4F
$GPZDA,160057.00,01,01,2025,,*66
$GPDTM,W84,,00.0000000,N,00.0000000,E,00.0000000,W84*5F
$GPRMC,160057.00,A,4742.4456360,N,01617.9736790,E,0.0,,010125,5.1,E,D*1F
$GPGLL,4742.4456360,N,01617.9736790,E,160057.00,A,D*6E
$GPGGA,160057.00,4742.4456360,N,01617.9736790,E,2,23,0.8,626.2481,M,43.2110,M,3.5,0123*44
$GNGNS,160057.00,4742.4456360,N,01617.9736790,E,DAAA,23,0.8,626.2481,43.2110,,*5E
$GPGNS,160057.00,,,,,,04,,,,3.5,123*7A
$GLGNS,160057.00,,,,,,05,,,,,*7F
$GAGNS,160057.00,,,,,,04,,,,,*73
$GBGNS,160057.00,,,,,,10,,,,,*75
$GPLLQ,160057.00,010125,,M,,M,1,23,6.292,,M*1A
$GPVTG,,T,,M,0.01,N,0.02,K,D*25
$GPHDT,,T*1B
$GPTHS,,V*0E
$GPROT,,V*08
$PSSN,HRP,160057.00,010125,,,,,,,00,0,,*64
$PTNL,AVR,160057.00,,Yaw,,Tilt,,,,0,,00*32
$GPGSA,A,3,25,28,29,31,,,,,,,,,1.6,0.8,1.4*3C
$GPGSA,A,3,78,79,80,81,88,,,,,,,,1.6,0.8,1.4*38
$GPGSA,A,3,15,27,30,34,,,,,,,,,1.6,0.8,1.4*3D
$GPGSA,A,3,08,11,12,13,23,25,34,38,43,44,,,1.6,0.8,1.4*3C
$GPGST,160057.00,7.788,2.799,1.262,15.996,2.713,1.437,5.492*6E
$GPGBS,160057.00,9.422,5.605,20.001,44,0.0001,29.307,8.900*5D
$GPGRS,160057.00,1,0.5,-2.5,0.8,0.4,,,,,,,,*68
$GPGRS,160057.00,1,-1.6,0.4,-3.7,2.0,-2.8,,,,,,,*47
$GPGRS,160057.00,1,0.0,0.0,0.3,-1.6,,,,,,,,*62
$GPGRS,160057.00,1,-1.1,2.9,-3.3,3.8,-1.1,0.1,-1.6,-4.7,3.5,29.3,,*5D
$GPGSV,4,1,16,29,83,018,49,12,15,115,,11,16,041,23,05,18,096,*7D
$GPGSV,4,2,16,18,34,186,30,26,29,300,34,20,21,060,30,31,43,290,44*7B
$GPGSV,4,3,16,28,51,250,43,25,54,120,46,04,04,336,29,16,00,296,*77
$GPGSV,4,4,16,36,35,170,37,34,31,208,35,49,34,195,37,61,03,257,*71
$GLGSV,2,1,08,79,84,323,49,82,24,214,32,80,27,320,43,88,45,040,48*6B
$GLGSV,2,2,08,78,39,140,39,81,75,207,49,72,04,033,,71,08,348,*64
$GAGSV,3,1,10,27,81,318,48,13,16,192,31,19,13,293,30,34,43,057,44*6F
$GAGSV,3,2,10,21,26,298,34,30,43,112,41,15,57,147,46,04,03,346,*68
$GAGSV,3,3,10,29,06,250,24,36,00,030,*63
$GBGSV,5,1,18,34,79,085,48,24,17,148,29,56,12,067,,05,21,129,30*66
$GBGSV,5,2,18,44,25,055,35,38,27,060,39,43,47,224,42,23,47,300,47*62
$GBGSV,5,3,18,13,30,085,38,08,31,076,40,25,66,187,52,12,50,055,45*65
$GBGSV,5,4,18,11,70,209,45,02,06,107,,19,02,015,,37,01,317,29*69
$GBGSV,5,5,18,10,07,082,,60,10,109,*61
$GPGGA,160057.00,,,,,0,00,,,M,,M,,*4D
$PTNL,GGK,160057.00,010125,4742.4456360,N,01617.9736790,E,1,23,1.6,EHT669.4591,M*4E
$GPGGQ,160057.00,010125,4742.4456360,N,01617.9736790,E,1,23,6.292,626.2481,M*35
$GPGFA,160057.00,26.608,45.034,2.799,1.262,15.996,5.492,,VVV*30
$GPLLK,160057.00,010125,,M,,M,1,23,1.9,,M*07
$GNGMP,160057.00,,,,,DAAA,23,0.8,,,,*5A
$GPGMP,160057.00,,,,,,04,,,,3.5,123*7A
$GLGMP,160057.00,,,,,,05,,,,,*7F
$GAGMP,160057.00,,,,,,04,,,,,*73
$GBGMP,160057.00,,,,,,10,,,,,*75
$PSSN,SNC,[0,316875000,2347]*4A
$GPZDA,160102.00,01,01,2025,,*67
$GPDTM,W84,,00.0000000,N,00.0000000,E,00.0000000,W84*5F
$GPRMC,160102.00,A,4742.4456272,N,01617.9736625,E,0.0,,010125,5.1,E,D*13
$GPGLL,4742.4456272,N,01617.9736625,E,160102.00,A,D*62
$GPGGA,160102.00,4742.4456272,N,01617.9736625,E,2,23,0.8,626.2484,M,43.2110,M,2.5,0123*4C
$GNGNS,160102.00,4742.4456272,N,01617.9736625,E,DAAA,23,0.8,626.2484,43.2110,,*57
$GPGNS,160102.00,,,,,,04,,,,2.5,123*7A
$GLGNS,160102.00,,,,,,05,,,,,*7E
$GAGNS,160102.00,,,,,,04,,,,,*72
$GBGNS,160102.00,,,,,,10,,,,,*74
$GPLLQ,160102.00,010125,,M,,M,1,23,6.926,,M*1F
$GPVTG,,T,,M,0.01,N,0.03,K,D*24
$GPHDT,,T*1B
$GPTHS,,V*0E
$GPROT,,V*08
$PSSN,HRP,160102.00,010125,,,,,,,00,0,,*65
$PTNL,AVR,160102.00,,Yaw,,Tilt,,,,0,,00*33
$GPGSA,A,3,25,28,29,31,,,,,,,,,1.6,0.8,1.4*3C
$GPGSA,A,3,78,79,80,81,88,,,,,,,,1.6,0.8,1.4*38
$GPGSA,A,3,15,27,30,34,,,,,,,,,1.6,0.8,1.4*3D
$GPGSA,A,3,08,11,12,13,23,25,34,38,43,44,,,1.6,0.8,1.4*3C
$GPGST,160102.00,8.216,3.130,1.435,17.014,3.022,1.650,6.010*69
$GPGBS,160102.00,9.232,5.563,20.308,44,0.0001,31.178,8.900*51
$GPGRS,160102.00,1,0.5,-3.1,0.7,1.3,,,,,,,,*65
$GPGRS,160102.00,1,-1.8,0.6,-2.9,2.5,-3.3,,,,,,,*4A
$GPGRS,160102.00,1,0.2,0.3,0.5,-1.7,,,,,,,,*65
$GPGRS,160102.00,1,-1.2,3.2,-2.7,2.9,-1.2,-0.4,-2.4,-4.8,2.2,31.2,,*7B
$GPGSV,4,1,16,29,83,018,49,12,15,115,21,11,16,041,26,05,18,096,28*71
$GPGSV,4,2,16,18,34,186,30,26,29,300,32,20,21,060,24,31,43,290,44*78
$GPGSV,4,3,16,28,51,250,43,25,54,120,46,04,04,336,27,16,00,296,*79
$GPGSV,4,4,16,36,35,170,37,34,31,208,35,49,34,195,37,61,03,257,*71
$GLGSV,2,1,08,79,84,323,49,82,24,214,34,80,27,320,44,88,45,040,47*65
$GLGSV,2,2,08,78,39,140,38,81,75,207,49,72,04,033,,71,08,348,*65
$GAGSV,3,1,10,27,81,318,48,13,16,192,31,19,13,293,28,34,43,057,44*66
$GAGSV,3,2,10,21,26,298,34,30,43,112,42,15,57,147,46,04,03,346,*6B
$GAGSV,3,3,10,29,06,250,24,36,00,030,*63
$GBGSV,5,1,18,34,79,084,48,24,17,148,30,56,12,067,,05,21,129,30*6F
$GBGSV,5,2,18,44,25,055,35,38,27,060,40,13,30,085,38,43,47,224,41*6A
$GBGSV,5,3,18,23,47,300,46,08,31,076,41,25,66,187,52,12,50,055,45*60
$GBGSV,5,4,18,11,70,209,45,02,06,107,,19,02,015,,37,01,317,30*61
$GBGSV,5,5,18,10,07,082,,60,10,109,*61
$GPGGA,160102.00,,,,,0,00,,,M,,M,,*4C
$PTNL,GGK,160102.00,010125,4742.4456272,N,01617.9736625,E,1,23,1.6,EHT669.4594,M*47
$GPGGQ,160102.00,010125,4742.4456272,N,01617.9736625,E,1,23,6.926,626.2484,M*38
$GPGFA,160102.00,29.755,49.283,3.130,1.435,17.014,6.010,,VVV*39
$GPLLK,160102.00,010125,,M,,M,1,23,1.9,,M*06
$GNGMP,160102.00,,,,,DAAA,23,0.8,,,,*5B
$GPGMP,160102.00,,,,,,04,,,,2.5,123*7A
$GLGMP,160102.00,,,,,,05,,,,,*7E
$GAGMP,160102.00,,,,,,04,,,,,*72
$GBGMP,160102.00,,,,,,10,,,,,*74
$PSSN,SNC,[0,316880000,2347]*40
$GPZDA,160107.00,01,01,2025,,*62
$GPDTM,W84,,00.0000000,N,00.0000000,E,00.0000000,W84*5F
$GPRMC,160107.00,A,4742.4456224,N,01617.9736541,E,0.0,,010125,5.1,E,D*14
$GPGLL,4742.4456224,N,01617.9736541,E,160107.00,A,D*65
$GPGGA,160107.00,4742.4456224,N,01617.9736541,E,2,22,0.8,626.2503,M,43.2110,M,1.5,0123*47
$GNGNS,160107.00,4742.4456224,N,01617.9736541,E,DAAA,22,0.8,626.2503,43.2110,,*5F
$GPGNS,160107.00,,,,,,04,,,,1.5,123*7C
$GLGNS,160107.00,,,,,,05,,,,,*7B
$GAGNS,160107.00,,,,,,04,,,,,*77
$GBGNS,160107.00,,,,,,09,,,,,*79
$GPLLQ,160107.00,010125,,M,,M,1,22,5.565,,M*13
$GPVTG,,T,,M,0.01,N,0.02,K,D*25
$GPHDT,,T*1B
$GPTHS,,V*0E
$GPROT,,V*08
$PSSN,HRP,160107.00,010125,,,,,,,00,0,,*60
$PTNL,AVR,160107.00,,Yaw,,Tilt,,,,0,,00*36
$GPGSA,A,3,25,28,29,31,,,,,,,,,1.6,0.8,1.4*3C
$GPGSA,A,3,78,79,80,81,88,,,,,,,,1.6,0.8,1.4*38
$GPGSA,A,3,15,27,30,34,,,,,,,,,1.6,0.8,1.4*3D
$GPGSA,A,3,08,11,12,13,23,25,34,38,43,,,,1.6,0.8,1.4*3C
$GPGST,160107.00,2.919,2.510,1.128,17.728,2.415,1.318,4.838*6C
$GPGBS,160107.00,9.689,5.751,19.913,28,0.0001,-3.220,0.964*4B
$GPGRS,160107.00,1,0.5,-3.2,0.6,1.2,,,,,,,,*63
$GPGRS,160107.00,1,-2.9,0.5,-3.1,3.3,-3.8,,,,,,,*4B
$GPGRS,160107.00,1,0.4,0.8,0.7,-2.4,,,,,,,,*6F
$GPGRS,160107.00,1,-1.1,3.7,-1.6,3.0,-1.0,-0.5,-3.0,-5.3,-0.5,,,*48
$GPGSV,4,1,16,29,83,019,49,12,15,115,21,11,16,041,28,05,18,096,*74
$GPGSV,4,2,16,18,34,186,31,26,29,300,31,20,21,060,20,31,43,290,44*7E
$GPGSV,4,3,16,28,51,250,42,25,54,120,46,04,04,336,25,16,00,296,*7A
$GPGSV,4,4,16,36,35,170,37,34,31,208,35,49,34,195,36,61,03,257,*70
$GLGSV,2,1,08,79,84,323,49,82,24,214,35,80,27,320,44,88,45,040,47*64
$GLGSV,2,2,08,78,39,140,37,81,75,207,50,72,04,032,,71,08,348,24*65
$GAGSV,3,1,10,27,81,318,48,13,16,192,32,19,13,293,26,34,43,057,44*6B
$GAGSV,3,2,10,21,26,298,33,30,43,112,43,15,57,147,46,04,03,345,*6E
$GAGSV,3,3,10,29,06,250,25,36,00,030,*62
$GBGSV,5,1,18,34,79,084,47,24,17,148,26,56,12,067,,05,21,129,29*6F
$GBGSV,5,2,18,44,25,055,34,38,27,060,40,13,30,085,37,43,47,224,39*6B
$GBGSV,5,3,18,23,47,300,45,08,31,076,41,25,66,187,52,12,50,055,45*63
$GBGSV,5,4,18,11,70,209,45,02,06,107,,19,02,015,,37,01,317,29*69
$GBGSV,5,5,18,10,07,082,,60,10,109,*61
$GPGGA,160107.00,,,,,0,00,,,M,,M,,*49
$PTNL,GGK,160107.00,010125,4742.4456224,N,01617.9736541,E,1,22,1.6,EHT669.4613,M*4D
$GPGGQ,160107.00,010125,4742.4456224,N,01617.9736541,E,1,22,5.565,626.2503,M*38
$GPGFA,160107.00,23.860,39.668,2.510,1.128,17.728,4.838,,VVV*3F
$GPLLK,160107.00,010125,,M,,M,1,22,2.0,,M*08
$GNGMP,160107.00,,,,,DAAA,22,0.8,,,,*5F
$GPGMP,160107.00,,,,,,04,,,,1.5,123*7C
$GLGMP,160107.00,,,,,,05,,,,,*7B
$GAGMP,160107.00,,,,,,04,,,,,*77
$GBGMP,160107.00,,,,,,09,,,,,*79
$PSSN,SNC,[0,316885000,2347]*45
$GPZDA,160112.00,01,01,2025,,*66
$GPDTM,W84,,00.0000000,N,00.0000000,E,00.0000000,W84*5F
$GPRMC,160112.00,A,4742.4456208,N,01617.9736505,E,0.0,,010125,5.1,E,D*1E
$GPGLL,4742.4456208,N,01617.9736505,E,160112.00,A,D*6F
$GPGGA,160112.00,4742.4456208,N,01617.9736505,E,2,22,0.8,626.2414,M,43.2110,M,2.5,0123*49
$GNGNS,160112.00,4742.4456208,N,01617.9736505,E,DAAA,22,0.8,626.2414,43.2110,,*52
$GPGNS,160112.00,,,,,,04,,,,2.5,123*7B
$GLGNS,160112.00,,,,,,05,,,,,*7F
$GAGNS,160112.00,,,,,,04,,,,,*73
$GBGNS,160112.00,,,,,,09,,,,,*7D
$GPLLQ,160112.00,010125,,M,,M,1,22,3.380,,M*1C
$GPVTG,,T,,M,0.00,N,0.00,K,D*26
$GPHDT,,T*1B
$GPTHS,,V*0E
$GPROT,,V*08
$PSSN,HRP,160112.00,010125,,,,,,,00,0,,*64
$PTNL,AVR,160112.00,,Yaw,,Tilt,,,,0,,00*32
$GPGSA,A,3,25,28,29,31,,,,,,,,,1.6,0.8,1.4*3C
$GPGSA,A,3,78,79,80,81,88,,,,,,,,1.6,0.8,1.4*38
$GPGSA,A,3,15,27,30,34,,,,,,,,,1.6,0.8,1.4*3D
$GPGSA,A,3,08,11,12,13,23,25,34,38,43,,,,1.6,0.8,1.4*3C
$GPGST,160112.00,2.956,1.701,0.687,21.602,1.602,0.895,2.838*63
$GPGBS,160112.00,10.959,6.505,20.026,28,0.0001,-1.573,1.400*7D
$GPGRS,160112.00,1,0.4,-1.6,0.3,0.4,,,,,,,,*62
$GPGRS,160112.00,1,-2.7,0.4,-5.1,3.1,-3.6,,,,,,,*4A
$GPGRS,160112.00,1,0.4,0.8,0.5,-2.8,,,,,,,,*65
$GPGRS,160112.00,1,-0.8,3.5,-1.5,2.6,-0.1,-0.5,-3.3,-5.2,-1.8,,,*4C
$GPGSV,4,1,16,29,83,019,49,12,15,115,25,11,16,041,28,05,18,096,32*71
$GPGSV,4,2,16,18,34,186,33,26,29,300,31,20,21,060,19,31,43,290,45*77
$GPGSV,4,3,16,28,51,250,38,25,54,120,46,04,04,336,25,16,00,296,*77
$GPGSV,4,4,16,36,35,170,37,34,31,208,35,49,34,195,36,61,03,257,*70
$GLGSV,2,1,08,79,84,323,49,82,24,214,34,80,27,320,44,88,45,040,48*6A
$GLGSV,2,2,08,78,39,140,38,81,75,207,51,72,04,032,,71,08,348,29*66
$GAGSV,3,1,10,27,81,318,49,13,16,192,32,19,13,293,25,34,43,057,43*6E
$GAGSV,3,2,10,21,26,298,31,30,43,112,44,15,57,147,46,04,03,345,*6B
$GAGSV,3,3,10,29,06,250,24,36,00,030,*63
$GBGSV,5,1,18,34,79,084,47,24,17,148,32,56,12,067,,05,21,129,29*6A
$GBGSV,5,2,18,44,25,055,34,38,27,060,40,13,30,085,37,43,47,224,40*65
$GBGSV,5,3,18,23,47,300,43,08,31,076,41,25,66,187,52,12,50,055,45*65
$GBGSV,5,4,18,11,70,209,45,02,06,107,,19,02,015,,37,01,317,31*60
$GBGSV,5,5,18,10,07,082,,60,10,109,*61
$GPGGA,160112.00,,,,,0,00,,,M,,M,,*4D
$PTNL,GGK,160112.00,010125,4742.4456208,N,01617.9736505,E,1,22,1.6,EHT669.4525,M*41
$GPGGQ,160112.00,010125,4742.4456208,N,01617.9736505,E,1,22,3.380,626.2414,M*3E
$GPGFA,160112.00,16.176,23.274,1.701,0.687,21.602,2.838,,VVV*39
$GPLLK,160112.00,010125,,M,,M,1,22,2.0,,M*0C
$GNGMP,160112.00,,,,,DAAA,22,0.8,,,,*5B
$GPGMP,160112.00,,,,,,04,,,,2.5,123*7B
$GLGMP,160112.00,,,,,,05,,,,,*7F
$GAGMP,160112.00,,,,,,04,,,,,*73
$GBGMP,160112.00,,,,,,09,,,,,*7D
$PSSN,SNC,[0,316890000,2347]*41
$GPZDA,160117.00,01,01,2025,,*63
$GPDTM,W84,,00.0000000,N,00.0000000,E,00.0000000,W84*5F
$GPRMC,160117.00,A,4742.4456230,N,01617.9736468,E,0.0,,010125,5.1,E,D*1A
$GPGLL,4742.4456230,N,01617.9736468,E,160117.00,A,D*6B
$GPGGA,160117.00,4742.4456230,N,01617.9736468,E,2,22,0.8,626.2436,M,43.2110,M,3.5,0123*4C
$GNGNS,160117.00,4742.4456230,N,01617.9736468,E,DAAA,22,0.8,626.2436,43.2110,,*56
$GPGNS,160117.00,,,,,,04,,,,3.5,123*7F
$GLGNS,160117.00,,,,,,05,,,,,*7A
$GAGNS,160117.00,,,,,,04,,,,,*76
$GBGNS,160117.00,,,,,,09,,,,,*78
$GPLLQ,160117.00,010125,,M,,M,1,22,3.225,,M*17
$GPVTG,,T,,M,0.00,N,0.00,K,D*26
$GPHDT,,T*1B
$GPTHS,,V*0E
$GPROT,,V*08
$PSSN,HRP,160117.00,010125,,,,,,,00,0,,*61
$PTNL,AVR,160117.00,,Yaw,,Tilt,,,,0,,00*37
$GPGSA,A,3,25,28,29,31,,,,,,,,,1.6,0.8,1.4*3C
$GPGSA,A,3,78,79,80,81,88,,,,,,,,1.6,0.8,1.4*38
$GPGSA,A,3,15,27,30,34,,,,,,,,,1.6,0.8,1.4*3D
$GPGSA,A,3,08,11,12,13,23,25,34,38,43,,,,1.6,0.8,1.4*3C
$GPGST,160117.00,2.713,1.461,0.663,17.795,1.406,0.773,2.797*67
$GPGBS,160117.00,9.755,5.790,20.232,28,0.0001,-1.108,0.989*4D
$GPGRS,160117.00,1,0.7,-1.1,0.1,0.4,,,,,,,,*61
$GPGRS,160117.00,1,-1.4,0.7,-5.5,2.6,-2.6,,,,,,,*4F
$GPGRS,160117.00,1,0.5,0.9,0.4,-2.4,,,,,,,,*6D
$GPGRS,160117.00,1,-1.0,2.9,-2.2,2.1,0.6,-0.7,-2.8,-5.2,-1.3,,,*67
$GPGSV,4,1,16,29,83,019,48,12,15,115,27,11,15,041,28,05,18,096,30*73
$GPGSV,4,2,16,18,34,186,32,26,29,300,33,20,21,060,,31,43,290,45*7C
$GPGSV,4,3,16,28,51,249,41,25,54,120,46,04,04,336,26,16,00,296,*72
$GPGSV,4,4,16,36,35,170,37,34,31,208,35,49,34,195,36,61,03,257,*70
$GLGSV,2,1,08,79,84,323,49,82,24,214,31,80,27,320,44,88,45,040,47*60
$GLGSV,2,2,08,78,39,140,42,81,75,207,52,72,04,032,,71,08,348,32*62
$GAGSV,3,1,10,27,81,318,49,13,16,192,32,19,13,293,25,34,43,057,42*6F
$GAGSV,3,2,10,21,26,298,31,30,43,112,44,15,58,147,46,04,03,345,*64
$GAGSV,3,3,10,29,06,250,25,36,00,030,*62
$GBGSV,5,1,18,34,79,084,47,24,17,148,33,56,12,067,,05,21,129,30*63
$GBGSV,5,2,18,44,25,055,35,38,27,060,40,13,31,085,35,43,47,224,40*67
$GBGSV,5,3,18,23,47,300,42,08,31,075,41,25,66,187,51,12,50,055,45*64
$GBGSV,5,4,18,11,70,209,45,02,06,107,,19,02,015,,37,01,317,31*60
$GBGSV,5,5,18,10,07,082,,60,10,109,*61
$GPGGA,160117.00,,,,,0,00,,,M,,M,,*48
$PTNL,GGK,160117.00,010125,4742.4456230,N,01617.9736468,E,1,22,1.6,EHT669.4547,M*41
$GPGGQ,160117.00,010125,4742.4456230,N,01617.9736468,E,1,22,3.225,626.2436,M*34
$GPGFA,160117.00,13.891,22.939,1.461,0.663,17.795,2.797,,VVV*35
$GPLLK,160117.00,010125,,M,,M,1,22,2.0,,M*09
$GNGMP,160117.00,,,,,DAAA,22,0.8,,,,*5E
$GPGMP,160117.00,,,,,,04,,,,3.5,123*7F
$GLGMP,160117.00,,,,,,05,,,,,*7A
$GAGMP,160117.00,,,,,,04,,,,,*76
$GBGMP,160117.00,,,,,,09,,,,,*78
$PSSN,SNC,[0,316895000,2347]*44
$GPZDA,160122.00,01,01,2025,,*65
$GPDTM,W84,,00.0000000,N,00.0000000,E,00.0000000,W84*5F
$GPRMC,160122.00,A,4742.4456223,N,01617.9736461,E,0.0,,010125,5.1,E,D*17
$GPGLL,4742.4456223,N,01617.9736461,E,160122.00,A,D*66
$GPGGA,160122.00,4742.4456223,N,01617.9736461,E,2,24,0.8,626.2487,M,43.2110,M,4.6,0123*49
$GNGNS,160122.00,4742.4456223,N,01617.9736461,E,DAAA,24,0.8,626.2487,43.2110,,*57
$GPGNS,160122.00,,,,,,05,,,,4.6,123*7C
$GLGNS,160122.00,,,,,,06,,,,,*7F
$GAGNS,160122.00,,,,,,04,,,,,*70
$GBGNS,160122.00,,,,,,09,,,,,*7E
$GPLLQ,160122.00,010125,,M,,M,1,24,3.988,,M*1B
$GPVTG,,T,,M,0.00,N,0.01,K,D*27
$GPHDT,,T*1B
$GPTHS,,V*0E
$GPROT,,V*08
$PSSN,HRP,160122.00,010125,,,,,,,00,0,,*67
$PTNL,AVR,160122.00,,Yaw,,Tilt,,,,0,,00*31
$GPGSA,A,3,25,26,28,29,31,,,,,,,,1.4,0.8,1.2*3C
$GPGSA,A,3,71,78,79,80,81,88,,,,,,,1.4,0.8,1.2*3A
$GPGSA,A,3,15,27,30,34,,,,,,,,,1.4,0.8,1.2*39
$GPGSA,A,3,08,11,12,23,25,34,38,43,44,,,,1.4,0.8,1.2*3A
$GPGST,160122.00,6.539,1.969,1.025,19.376,1.888,1.167,3.314*6E
$GPGBS,160122.00,9.107,5.488,16.850,44,0.0001,21.662,8.903*5F
$GPGRS,160122.00,1,-0.2,-0.4,1.5,-0.3,0.1,,,,,,,*4B
$GPGRS,160122.00,1,9.8,3.6,-0.3,-6.6,2.4,-4.1,,,,,,*61
$GPGRS,160122.00,1,0.1,0.1,0.1,-2.9,,,,,,,,*6F
$GPGRS,160122.00,1,-1.9,1.5,-3.3,1.0,-1.3,-3.2,-5.7,-2.8,21.7,,,*54
$GPGSV,4,1,16,29,82,019,48,12,15,115,29,11,15,041,28,05,18,096,27*7A
$GPGSV,4,2,16,18,34,186,33,26,29,300,36,20,21,060,,31,43,290,46*7B
$GPGSV,4,3,16,28,51,249,42,25,54,120,46,04,04,336,29,16,00,296,*7E
$GPGSV,4,4,16,36,35,170,37,34,31,208,34,49,34,195,36,61,03,257,*71
$GLGSV,2,1,08,79,84,322,49,82,25,214,25,80,27,320,41,88,45,040,46*61
$GLGSV,2,2,08,78,39,140,45,81,75,207,52,72,04,032,,71,08,348,37*60
$GAGSV,3,1,10,27,81,318,50,13,16,192,32,19,13,293,25,34,43,057,41*64
$GAGSV,3,2,10,21,26,298,30,30,43,112,44,15,58,147,47,04,03,345,*64
$GAGSV,3,3,10,29,06,250,24,36,00,030,*63
$GBGSV,5,1,18,34,79,084,48,24,17,148,34,56,12,067,,05,21,129,29*63
$GBGSV,5,2,18,44,25,055,36,38,27,060,40,13,31,085,34,43,47,224,41*64
$GBGSV,5,3,18,23,47,300,40,08,31,075,42,25,65,187,51,12,50,055,45*66
$GBGSV,5,4,18,11,70,209,44,02,06,107,,19,02,015,,37,01,317,32*62
$GBGSV,5,5,18,10,07,082,,60,10,109,*61
$GPGGA,160122.00,,,,,0,00,,,M,,M,,*4E
$PTNL,GGK,160122.00,010125,4742.4456223,N,01617.9736461,E,1,24,1.4,EHT669.4598,M*4A
$GPGGQ,160122.00,010125,4742.4456223,N,01617.9736461,E,1,24,3.988,626.2487,M*39
$GPGFA,160122.00,18.718,27.171,1.969,1.025,19.376,3.314,,VVV*3E
$GPLLK,160122.00,010125,,M,,M,1,24,1.7,,M*0D
$GNGMP,160122.00,,,,,DAAA,24,0.8,,,,*5E
$GPGMP,160122.00,,,,,,05,,,,4.6,123*7C
$GLGMP,160122.00,,,,,,06,,,,,*7F
$GAGMP,160122.00,,,,,,04,,,,,*70
$GBGMP,160122.00,,,,,,09,,,,,*7E
$PSSN,SNC,[0,316900000,2347]*49
$GPZDA,160127.00,01,01,2025,,*60
$GPDTM,W84,,00.0000000,N,00.0000000,E,00.0000000,W84*5F
$GPRMC,160127.00,A,4742.4456232,N,01617.9736551,E,0.0,,010125,5.1,E,D*10
$GPGLL,4742.4456232,N,01617.9736551,E,160127.00,A,D*61
$GPGGA,160127.00,4742.4456232,N,01617.9736551,E,2,24,0.8,626.2567,M,43.2110,M,2.2,0123*43
$GNGNS,160127.00,4742.4456232,N,01617.9736551,E,DAAA,24,0.8,626.2567,43.2110,,*5F
$GPGNS,160127.00,,,,,,05,,,,2.2,123*7B
$GLGNS,160127.00,,,,,,06,,,,,*7A
$GAGNS,160127.00,,,,,,04,,,,,*75
$GBGNS,160127.00,,,,,,09,,,,,*7B
$GPLLQ,160127.00,010125,,M,,M,1,24,3.900,,M*1E
$GPVTG,,T,,M,0.00,N,0.01,K,D*27
$GPHDT,,T*1B
$GPTHS,,V*0E
$GPROT,,V*08
$PSSN,HRP,160127.00,010125,,,,,,,00,0,,*62
$PTNL,AVR,160127.00,,Yaw,,Tilt,,,,0,,00*34
$GPGSA,A,3,25,26,28,29,31,,,,,,,,1.4,0.8,1.2*3C
$GPGSA,A,3,71,78,79,80,81,88,,,,,,,1.4,0.8,1.2*3A
$GPGSA,A,3,15,27,30,34,,,,,,,,,1.4,0.8,1.2*39
$GPGSA,A,3,08,11,12,23,25,34,38,43,44,,,,1.4,0.8,1.2*3A
$GPGST,160127.00,6.245,1.921,0.994,19.155,1.844,1.131,3.245*6C
$GPGBS,160127.00,8.885,5.409,16.870,44,0.0001,16.037,8.903*51
$GPGRS,160127.00,1,-0.4,1.4,0.1,-0.4,-0.0,,,,,,,*4A
$GPGRS,160127.00,1,11.1,8.1,-1.2,-9.1,2.5,-4.6,,,,,,*56
$GPGRS,160127.00,1,-0.2,-0.2,-0.2,-3.4,,,,,,,,*48
$GPGRS,160127.00,1,-2.1,-0.4,-3.3,2.5,-1.7,-3.7,-6.1,-3.8,16.0,,,*77
$GPGSV,4,1,16,29,82,019,48,12,15,115,30,11,15,041,29,05,18,096,*76
$GPGSV,4,2,16,18,34,186,29,26,29,300,38,20,21,060,30,31,43,290,47*7C
$GPGSV,4,3,16,28,51,249,40,25,54,120,46,04,04,336,23,16,00,297,*77
$GPGSV,4,4,16,36,35,170,37,34,31,208,34,49,34,195,36,61,03,257,*71
$GLGSV,2,1,08,79,84,322,48,82,25,214,28,80,27,320,38,88,45,040,45*60
$GLGSV,2,2,08,78,39,140,44,81,75,207,52,72,04,032,,71,08,348,38*6E
$GAGSV,3,1,10,27,81,318,50,13,16,192,32,19,13,293,27,34,43,057,41*66
$GAGSV,3,2,10,21,26,298,29,30,43,112,44,15,58,147,47,04,03,345,*6C
$GAGSV,3,3,10,29,06,250,26,36,00,030,*61
$GBGSV,5,1,18,34,79,084,48,24,17,148,35,56,12,067,,05,21,129,30*6A
$GBGSV,5,2,18,44,25,055,37,38,27,060,40,13,31,085,34,43,47,224,42*66
$GBGSV,5,3,18,23,47,300,36,08,31,075,42,25,65,187,52,12,50,055,45*64
$GBGSV,5,4,18,11,70,209,43,02,06,107,,19,02,015,,37,01,317,32*65
$GBGSV,5,5,18,10,07,082,,60,10,109,*61
$GPGGA,160127.00,,,,,0,00,,,M,,M,,*4B
$PTNL,GGK,160127.00,010125,4742.4456232,N,01617.9736551,E,1,24,1.4,EHT669.4677,M*4F
$GPGGQ,160127.00,010125,4742.4456232,N,01617.9736551,E,1,24,3.900,626.2567,M*31
$GPGFA,160127.00,18.263,26.608,1.921,0.994,19.155,3.245,,VVV*32
$GPLLK,160127.00,010125,,M,,M,1,24,1.7,,M*08
$GNGMP,160127.00,,,,,DAAA,24,0.8,,,,*5B
$GPGMP,160127.00,,,,,,05,,,,2.2,123*7B
$GLGMP,160127.00,,,,,,06,,,,,*7A
$GAGMP,160127.00,,,,,,04,,,,,*75
$GBGMP,160127.00,,,,,,09,,,,,*7B
$PSSN,SNC,[0,316905000,2347]*4C
$GPZDA,160132.00,01,01,2025,,*64
$GPDTM,W84,,00.0000000,N,00.0000000,E,00.0000000,W84*5F
$GPRMC,160132.00,A,4742.4456192,N,01617.9736539,E,0.0,,010125,5.1,E,D*13
$GPGLL,4742.4456192,N,01617.9736539,E,160132.00,A,D*62
$GPGGA,160132.00,4742.4456192,N,01617.9736539,E,2,24,0.7,626.2675,M,43.2110,M,1.6,0123*48
$GNGNS,160132.00,4742.4456192,N,01617.9736539,E,DAAA,24,0.7,626.2675,43.2110,,*53
$GPGNS,160132.00,,,,,,05,,,,1.6,123*78
$GLGNS,160132.00,,,,,,06,,,,,*7E
$GAGNS,160132.00,,,,,,04,,,,,*71
$GBGNS,160132.00,,,,,,09,,,,,*7F
$GPLLQ,160132.00,010125,,M,,M,1,24,3.791,,M*1C
$GPVTG,,T,,M,0.00,N,0.00,K,D*26
$GPHDT,,T*1B
$GPTHS,,V*0E
$GPROT,,V*08
$PSSN,HRP,160132.00,010125,,,,,,,00,0,,*66
$PTNL,AVR,160132.00,,Yaw,,Tilt,,,,0,,00*30
$GPGSA,A,3,25,26,28,29,31,,,,,,,,1.2,0.7,1.0*37
$GPGSA,A,3,71,78,79,80,81,88,,,,,,,1.2,0.7,1.0*31
$GPGSA,A,3,15,27,30,34,,,,,,,,,1.2,0.7,1.0*32
$GPGSA,A,3,08,11,12,24,25,34,38,43,44,,,,1.2,0.7,1.0*36
$GPGST,160132.00,5.332,1.870,0.973,20.155,1.787,1.118,3.151*61
$GPGBS,160132.00,8.730,5.420,15.642,44,0.0001,12.816,8.903*5C
