$GPZDA,065942.00,01,01,2025,,*6F
$GPDTM,W84,,00.0000000,N,00.0000000,E,00.0000000,W84*5F
$GPRMC,065942.00,A,4742.4466781,N,01617.9728567,E,0.0,,010125,5.1,E,D*1B
$GPGLL,4742.4466781,N,01617.9728567,E,065942.00,A,D*6A
$GPGGA,065942.00,4742.4466781,N,01617.9728567,E,2,22,0.7,625.6380,M,43.2111,M,2.5,0123*4F
$GNGNS,065942.00,4742.4466781,N,01617.9728567,E,DAAA,22,0.7,625.6380,43.2111,,*54
$GPGNS,065942.00,,,,,,06,,,,2.5,123*70
$GLGNS,065942.00,,,,,,07,,,,,*74
$GAGNS,065942.00,,,,,,04,,,,,*7A
$GBGNS,065942.00,,,,,,05,,,,,*78
$GPLLQ,065942.00,010125,,M,,M,1,22,1.853,,M*12
$GPVTG,,T,,M,0.00,N,0.00,K,D*26
$GPHDT,,T*1B
$GPTHS,,V*0E
$GPROT,,V*08
$PSSN,HRP,065942.00,010125,,,,,,,00,0,,*6D
$PTNL,AVR,065942.00,,Yaw,,Tilt,,,,0,,00*3B
$GPGSA,A,3,05,07,13,14,20,30,,,,,,,1.2,0.7,1.0*33
$GPGSA,A,3,65,71,72,73,74,75,81,,,,,,1.2,0.7,1.0*3B
$GPGSA,A,3,05,13,15,24,,,,,,,,,1.2,0.7,1.0*32
$GPGSA,A,3,21,22,36,42,45,,,,,,,,1.2,0.7,1.0*36
$GPGST,065942.00,3.255,0.678,0.518,19.474,0.662,0.538,1.645*6A
$GPGBS,065942.00,3.540,3.586,9.813,20,0.0001,-0.742,0.649*7E
$GPGRS,065942.00,1,-0.6,-0.3,0.8,0.1,-0.7,0.7,,,,,,*63
$GPGRS,065942.00,1,-3.8,6.7,4.7,5.2,0.8,-0.3,2.0,,,,,*6B
$GPGRS,065942.00,1,1.2,-4.6,-1.3,-0.6,,,,,,,,*6A
$GPGRS,065942.00,1,0.4,0.4,-0.7,-3.7,-1.8,,,,,,,*4B
$GPGSV,4,1,16,30,87,082,51,14,33,162,40,09,16,106,25,07,49,060,46*7D
$GPGSV,4,2,16,13,35,289,41,20,55,230,49,05,50,292,36,15,03,295,31*73
$GPGSV,4,3,16,18,06,336,29,11,08,226,,27,05,035,,08,07,066,*7C
$GPGSV,4,4,16,36,35,170,39,34,31,208,,49,34,195,34,61,03,257,*7A
$GLGSV,3,1,09,72,70,094,42,81,13,326,44,73,24,036,39,71,21,121,35*67
$GLGSV,3,2,09,75,47,189,41,65,43,319,48,74,67,065,46,82,04,010,*66
$GLGSV,3,3,09,88,06,276,26*5D
$GAGSV,3,1,12,03,67,303,31,31,12,034,27,08,16,287,25,13,19,313,34*63
$GAGSV,3,2,12,15,23,258,35,25,36,152,33,24,45,081,41,16,47,121,*6F
$GAGSV,3,3,12,05,55,092,42,09,04,102,,02,00,188,,34,04,212,*6C
$GBGSV,5,1,18,22,64,141,48,46,11,045,,19,11,132,22,09,17,060,*6E
$GBGSV,5,2,18,40,15,071,,05,21,129,30,10,17,091,,50,34,306,*64
$GBGSV,5,3,18,45,57,190,50,36,59,071,51,21,59,303,50,06,03,062,*6A
$GBGSV,5,4,18,42,09,309,37,02,05,108,,16,00,061,,26,07,216,*6A
$GBGSV,5,5,18,56,02,096,,60,07,112,*6F
$GPGGA,065942.00,,,,,0,00,,,M,,M,,*44
$PTNL,GGK,065942.00,010125,4742.4466781,N,01617.9728567,E,1,22,1.2,EHT668.8491,M*43
$GPGGQ,065942.00,010125,4742.4466781,N,01617.9728567,E,1,22,1.853,625.6380,M*31
$GPGFA,065942.00,6.450,13.488,0.678,0.518,19.474,1.645,,VVV*02
$GPLLK,065942.00,010125,,M,,M,1,22,1.4,,M*02
$GNGMP,065942.00,,,,,DAAA,22,0.7,,,,*5D
$GPGMP,065942.00,,,,,,06,,,,2.5,123*70
$GLGMP,065942.00,,,,,,07,,,,,*74
$GAGMP,065942.00,,,,,,04,,,,,*7A
$GBGMP,065942.00,,,,,,05,,,,,*78
$PSSN,SNC,[0,284400000,2347]*4E
$GPZDA,065947.00,01,01,2025,,*6A
$GPDTM,W84,,00.0000000,N,00.0000000,E,00.0000000,W84*5F
$GPRMC,065947.00,A,4742.4466725,N,01617.9728584,E,0.0,,010125,5.1,E,D*1D
$GPGLL,4742.4466725,N,01617.9728584,E,065947.00,A,D*6C
$GPGGA,065947.00,4742.4466725,N,01617.9728584,E,2,20,0.8,625.6428,M,43.2111,M,3.5,0123*40
$GNGNS,065947.00,4742.4466725,N,01617.9728584,E,DAAA,20,0.8,625.6428,43.2111,,*5A
$GPGNS,065947.00,,,,,,06,,,,3.5,123*74
$GLGNS,065947.00,,,,,,05,,,,,*73
$GAGNS,065947.00,,,,,,04,,,,,*7F
$GBGNS,065947.00,,,,,,05,,,,,*7D
$GPLLQ,065947.00,010125,,M,,M,1,20,2.063,,M*1D
$GPVTG,,T,,M,0.00,N,0.01,K,D*27
$GPHDT,,T*1B
$GPTHS,,V*0E
$GPROT,,V*08
$PSSN,HRP,065947.00,010125,,,,,,,00,0,,*68
$PTNL,AVR,065947.00,,Yaw,,Tilt,,,,0,,00*3E
$GPGSA,A,3,05,07,13,14,20,30,,,,,,,1.5,0.8,1.3*38
$GPGSA,A,3,65,72,74,75,81,,,,,,,,1.5,0.8,1.3*32
$GPGSA,A,3,05,13,15,24,,,,,,,,,1.5,0.8,1.3*39
$GPGSA,A,3,21,22,36,42,45,,,,,,,,1.5,0.8,1.3*3D
$GPGST,065947.00,2.270,0.771,0.586,19.932,0.752,0.611,1.821*6F
$GPGBS,065947.00,3.644,3.718,10.153,13,0.0001,1.543,0.785*62
$GPGRS,065947.00,1,-0.7,-0.0,1.5,-0.6,-0.7,0.4,,,,,,*41
$GPGRS,065947.00,1,-3.8,3.7,0.7,1.5,0.8,,,,,,,*40
$GPGRS,065947.00,1,1.3,-4.8,-0.9,-0.5,,,,,,,,*68
$GPGRS,065947.00,1,0.4,0.5,-0.7,1.2,-1.8,,,,,,,*65
$GPGSV,4,1,16,30,87,082,51,14,33,162,38,09,16,106,26,07,49,060,46*71
$GPGSV,4,2,16,13,35,289,42,20,55,230,49,05,50,292,37,15,03,295,34*74
$GPGSV,4,3,16,18,06,336,26,11,08,226,,27,05,035,,08,07,066,*73
$GPGSV,4,4,16,36,35,170,39,34,31,208,,49,34,195,34,61,03,257,*7A
$GLGSV,3,1,09,72,70,094,42,81,13,326,41,73,24,036,32,71,21,122,35*6A
$GLGSV,3,2,09,75,47,189,44,65,43,319,48,74,67,065,46,82,04,010,*63
$GLGSV,3,3,09,88,06,276,27*5C
$GAGSV,3,1,12,03,67,303,30,31,12,034,27,08,16,287,23,13,19,313,33*63
$GAGSV,3,2,12,15,23,258,36,25,37,152,34,24,45,081,40,16,48,121,*64
$GAGSV,3,3,12,05,55,092,41,09,04,102,,02,00,188,,34,04,212,*6F
$GBGSV,5,1,18,22,64,141,48,46,11,045,,19,11,132,22,09,17,060,*6E
$GBGSV,5,2,18,40,15,071,,05,21,129,30,10,17,091,,50,34,306,*64
$GBGSV,5,3,18,45,57,190,50,36,59,071,51,21,59,303,50,06,03,062,*6A
$GBGSV,5,4,18,42,09,309,38,02,05,108,,16,00,061,,26,07,216,*65
$GBGSV,5,5,18,56,02,096,,60,07,112,*6F
$GPGGA,065947.00,,,,,0,00,,,M,,M,,*41
$PTNL,GGK,065947.00,010125,4742.4466725,N,01617.9728584,E,1,20,1.5,EHT668.8539,M*43
$GPGGQ,065947.00,010125,4742.4466725,N,01617.9728584,E,1,20,2.063,625.6428,M*38
$GPGFA,065947.00,7.328,14.934,0.771,0.586,19.932,1.821,,VVV*0F
$GPLLK,065947.00,010125,,M,,M,1,20,1.8,,M*09
$GNGMP,065947.00,,,,,DAAA,20,0.8,,,,*55
$GPGMP,065947.00,,,,,,06,,,,3.5,123*74
$GLGMP,065947.00,,,,,,05,,,,,*73
$GAGMP,065947.00,,,,,,04,,,,,*7F
$GBGMP,065947.00,,,,,,05,,,,,*7D
$PSSN,SNC,[0,284405000,2347]*4B
$GPZDA,065952.00,01,01,2025,,*6E
$GPDTM,W84,,00.0000000,N,00.0000000,E,00.0000000,W84*5F
$GPRMC,065952.00,A,4742.4466707,N,01617.9728573,E,0.0,,010125,5.1,E,D*11
$GPGLL,4742.4466707,N,01617.9728573,E,065952.00,A,D*60
$GPGGA,065952.00,4742.4466707,N,01617.9728573,E,2,21,0.7,625.6459,M,43.2111,M,1.8,0123*4B
$GNGNS,065952.00,4742.4466707,N,01617.9728573,E,DAAA,21,0.7,625.6459,43.2111,,*5E
$GPGNS,065952.00,,,,,,06,,,,1.8,123*7F
$GLGNS,065952.00,,,,,,06,,,,,*74
$GAGNS,065952.00,,,,,,04,,,,,*7B
$GBGNS,065952.00,,,,,,05,,,,,*79
$GPLLQ,065952.00,010125,,M,,M,1,21,1.889,,M*17
$GPVTG,,T,,M,0.01,N,0.01,K,D*26
$GPHDT,,T*1B
$GPTHS,,V*0E
$GPROT,,V*08
$PSSN,HRP,065952.00,010125,,,,,,,00,0,,*6C
$PTNL,AVR,065952.00,,Yaw,,Tilt,,,,0,,00*3A
$GPGSA,A,3,05,07,13,14,20,30,,,,,,,1.4,0.7,1.2*37
$GPGSA,A,3,65,72,73,74,75,81,,,,,,,1.4,0.7,1.2*39
$GPGSA,A,3,05,13,15,24,,,,,,,,,1.4,0.7,1.2*36
$GPGSA,A,3,21,22,36,42,45,,,,,,,,1.4,0.7,1.2*32
$GPGST,065952.00,3.694,0.699,0.531,19.505,0.682,0.552,1.672*67
$GPGBS,065952.00,3.596,3.571,10.079,13,0.0001,1.054,0.741*65
$GPGRS,065952.00,1,-0.5,-0.2,1.1,-0.2,-0.5,0.5,,,,,,*46
$GPGRS,065952.00,1,-4.4,2.8,5.9,0.8,-1.1,-2.8,,,,,,*6A
$GPGRS,065952.00,1,1.3,-5.0,-1.2,-0.3,,,,,,,,*69
$GPGRS,065952.00,1,0.5,0.1,-0.7,9.3,-1.6,,,,,,,*63
$GPGSV,4,1,16,30,87,081,51,14,33,162,37,09,16,106,26,07,49,060,46*7D
$GPGSV,4,2,16,13,35,289,43,20,55,230,50,05,50,292,36,15,03,295,33*7B
$GPGSV,4,3,16,18,06,336,26,11,08,226,,27,05,035,,08,07,066,*73
$GPGSV,4,4,16,36,35,170,39,34,31,208,,49,34,195,33,61,03,257,*7D
$GLGSV,3,1,09,72,70,094,42,81,13,326,40,73,24,036,37,71,21,122,34*6F
$GLGSV,3,2,09,75,47,189,45,65,43,319,47,74,67,065,47,82,04,010,*6C
$GLGSV,3,3,09,88,06,276,23*58
$GAGSV,3,1,12,03,67,303,30,31,12,034,26,08,16,287,27,13,19,313,32*67
$GAGSV,3,2,12,15,23,258,35,25,37,152,34,24,45,080,40,16,48,121,*66
$GAGSV,3,3,12,05,55,092,41,09,04,102,,02,00,188,,34,04,212,*6F
$GBGSV,5,1,18,22,63,141,49,46,11,045,,19,11,132,21,09,17,060,*6B
$GBGSV,5,2,18,40,15,071,,05,21,129,30,10,17,091,,50,34,306,*64
$GBGSV,5,3,18,45,57,190,51,36,59,071,51,21,59,303,49,06,03,062,*63
$GBGSV,5,4,18,42,09,309,39,02,05,108,,16,00,061,,26,07,216,*64
$GBGSV,5,5,18,56,02,096,,60,07,112,*6F
$GPGGA,065952.00,,,,,0,00,,,M,,M,,*45
$PTNL,GGK,065952.00,010125,4742.4466707,N,01617.9728573,E,1,21,1.4,EHT668.8569,M*4A
$GPGGQ,065952.00,010125,4742.4466707,N,01617.9728573,E,1,21,1.889,625.6459,M*3C
$GPGFA,065952.00,6.645,13.714,0.699,0.531,19.505,1.672,,VVV*04
$GPLLK,065952.00,010125,,M,,M,1,21,1.6,,M*02
$GNGMP,065952.00,,,,,DAAA,21,0.7,,,,*5F
$GPGMP,065952.00,,,,,,06,,,,1.8,123*7F
$GLGMP,065952.00,,,,,,06,,,,,*74
$GAGMP,065952.00,,,,,,04,,,,,*7B
$GBGMP,065952.00,,,,,,05,,,,,*79
$PSSN,SNC,[0,284410000,2347]*4F
$GPZDA,065957.00,01,01,2025,,*6B
$GPDTM,W84,,00.0000000,N,00.0000000,E,00.0000000,W84*5F
$GPRMC,065957.00,A,4742.4466677,N,01617.9728567,E,0.0,,010125,5.1,E,D*17
$GPGLL,4742.4466677,N,01617.9728567,E,065957.00,A,D*66
$GPGGA,065957.00,4742.4466677,N,01617.9728567,E,2,20,0.8,625.6549,M,43.2111,M,2.2,0123*4A
$GNGNS,065957.00,4742.4466677,N,01617.9728567,E,DAAA,20,0.8,625.6549,43.2111,,*56
$GPGNS,065957.00,,,,,,05,,,,2.2,123*70
$GLGNS,065957.00,,,,,,05,,,,,*72
$GAGNS,065957.00,,,,,,05,,,,,*7F
$GBGNS,065957.00,,,,,,05,,,,,*7C
$GPLLQ,065957.00,010125,,M,,M,1,20,1.789,,M*1C
$GPVTG,,T,,M,0.00,N,0.01,K,D*27
$GPHDT,,T*1B
$GPTHS,,V*0E
$GPROT,,V*08
$PSSN,HRP,065957.00,010125,,,,,,,00,0,,*69
$PTNL,AVR,065957.00,,Yaw,,Tilt,,,,0,,00*3F
$GPGSA,A,3,07,13,14,20,30,,,,,,,,1.4,0.8,1.2*3D
$GPGSA,A,3,65,72,74,75,81,,,,,,,,1.4,0.8,1.2*32
$GPGSA,A,3,05,13,15,24,25,,,,,,,,1.4,0.8,1.2*3E
$GPGSA,A,3,21,22,36,42,45,,,,,,,,1.4,0.8,1.2*3D
$GPGST,065957.00,4.615,0.650,0.546,8.216,0.648,0.548,1.574*54
$GPGBS,065957.00,3.855,3.473,10.285,42,0.0001,13.888,8.757*51
$GPGRS,065957.00,1,0.2,0.4,-0.3,-0.6,0.3,,,,,,,*68
$GPGRS,065957.00,1,-4.7,1.7,0.8,-3.3,-1.8,,,,,,,*41
$GPGRS,065957.00,1,1.7,-5.4,-2.3,0.1,1.6,,,,,,,*68
$GPGRS,065957.00,1,0.4,-0.6,-0.8,13.9,-1.7,,,,,,,*72
$GPGSV,4,1,16,30,87,081,50,14,33,162,36,09,16,106,25,07,48,060,46*7F
$GPGSV,4,2,16,13,35,289,42,20,55,230,49,05,50,292,34,15,03,295,31*72
$GPGSV,4,3,16,18,06,336,26,11,08,226,22,27,05,035,,08,07,066,*73
$GPGSV,4,4,16,36,35,170,39,34,31,208,,49,34,195,33,61,03,257,*7D
$GLGSV,3,1,09,72,70,094,41,81,13,326,40,73,24,036,27,71,21,122,35*6C
$GLGSV,3,2,09,75,47,189,45,65,43,319,48,74,67,065,46,82,04,010,*62
$GLGSV,3,3,09,88,06,276,27*5C
$GAGSV,3,1,12,03,67,303,31,31,12,034,25,08,16,287,29,13,19,313,31*68
$GAGSV,3,2,12,15,23,258,35,25,37,152,36,24,45,080,40,16,48,121,*64
$GAGSV,3,3,12,05,55,092,41,09,04,102,,02,00,188,,34,04,212,*6F
$GBGSV,5,1,18,22,63,141,48,46,11,045,,19,11,133,,09,17,060,*68
$GBGSV,5,2,18,40,15,071,,05,21,129,30,10,17,091,,50,34,306,*64
$GBGSV,5,3,18,45,57,190,51,36,59,071,51,21,59,303,48,06,03,062,*62
$GBGSV,5,4,18,42,09,309,38,02,05,108,,16,00,062,,26,07,216,*66
$GBGSV,5,5,18,56,02,096,,60,07,112,*6F
$GPGGA,065957.00,,,,,0,00,,,M,,M,,*40
$PTNL,GGK,065957.00,010125,4742.4466677,N,01617.9728567,E,1,20,1.4,EHT668.8660,M*47
$GPGGQ,065957.00,010125,4742.4466677,N,01617.9728567,E,1,20,1.789,625.6549,M*34
$GPGFA,065957.00,6.181,12.910,0.650,0.546,8.216,1.574,,VVV*30
$GPLLK,065957.00,010125,,M,,M,1,20,1.7,,M*07
$GNGMP,065957.00,,,,,DAAA,20,0.8,,,,*54
$GPGMP,065957.00,,,,,,05,,,,2.2,123*70
$GLGMP,065957.00,,,,,,05,,,,,*72
$GAGMP,065957.00,,,,,,05,,,,,*7F
$GBGMP,065957.00,,,,,,05,,,,,*7C
$PSSN,SNC,[0,284415000,2347]*4A
$GPZDA,070002.00,01,01,2025,,*66
$GPDTM,W84,,00.0000000,N,00.0000000,E,00.0000000,W84*5F
$GPRMC,070002.00,A,4742.4466602,N,01617.9728502,E,0.0,,010125,5.1,E,D*1B
$GPGLL,4742.4466602,N,01617.9728502,E,070002.00,A,D*6A
$GPGGA,070002.00,4742.4466602,N,01617.9728502,E,2,22,0.7,625.6462,M,43.2111,M,2.5,0123*44
$GNGNS,070002.00,4742.4466602,N,01617.9728502,E,DAAA,22,0.7,625.6462,43.2111,,*5F
$GPGNS,070002.00,,,,,,06,,,,2.5,123*79
$GLGNS,070002.00,,,,,,06,,,,,*7C
$GAGNS,070002.00,,,,,,05,,,,,*72
$GBGNS,070002.00,,,,,,05,,,,,*71
$GPLLQ,070002.00,010125,,M,,M,1,22,2.261,,M*13
$GPVTG,,T,,M,0.01,N,0.01,K,D*26
$GPHDT,,T*1B
$GPTHS,,V*0E
$GPROT,,V*08
$PSSN,HRP,070002.00,010125,,,,,,,00,0,,*64
$PTNL,AVR,070002.00,,Yaw,,Tilt,,,,0,,00*32
$GPGSA,A,3,05,07,13,14,20,30,,,,,,,1.2,0.7,1.0*33
$GPGSA,A,3,65,71,72,74,75,81,,,,,,,1.2,0.7,1.0*3F
$GPGSA,A,3,05,08,13,24,25,,,,,,,,1.2,0.7,1.0*39
$GPGSA,A,3,21,22,36,42,45,,,,,,,,1.2,0.7,1.0*36
$GPGST,070002.00,5.270,0.829,0.630,20.167,0.808,0.657,2.007*67
$GPGBS,070002.00,3.523,3.636,9.900,08,0.0001,11.503,6.262*62
$GPGRS,070002.00,1,-0.6,0.9,0.2,-0.8,-0.1,0.4,,,,,,*66
$GPGRS,070002.00,1,-3.9,1.9,2.5,1.3,-5.3,-0.5,,,,,,*62
$GPGRS,070002.00,1,2.6,11.5,-5.2,0.5,2.5,,,,,,,*7C
$GPGRS,070002.00,1,0.5,-0.7,-0.3,13.6,-1.1,,,,,,,*7D
$GPGSV,4,1,16,30,87,080,50,14,33,162,35,09,16,106,25,07,48,060,46*7D
$GPGSV,4,2,16,13,36,289,41,20,55,230,49,05,50,292,37,15,03,295,28*79
$GPGSV,4,3,16,18,06,336,26,11,08,226,,27,05,035,,08,07,066,*73
$GPGSV,4,4,16,36,35,170,39,34,31,208,,49,34,195,33,61,03,257,*7D
$GLGSV,3,1,09,72,70,094,42,81,13,326,42,73,24,036,26,71,21,122,36*6F
$GLGSV,3,2,09,75,47,189,46,65,43,319,47,74,67,064,46,82,04,010,32*6E
$GLGSV,3,3,09,88,05,276,29*51
$GAGSV,3,1,12,03,67,303,31,31,12,034,23,08,16,287,29,13,19,313,30*6F
$GAGSV,3,2,12,15,23,258,34,25,37,152,36,24,45,080,41,16,48,121,*64
$GAGSV,3,3,12,05,55,092,41,09,04,102,,02,00,188,,34,04,212,*6F
$GBGSV,5,1,18,22,63,141,47,46,11,045,,19,11,133,23,09,17,060,*66
$GBGSV,5,2,18,40,15,071,,05,21,129,30,10,17,091,,50,34,306,*64
$GBGSV,5,3,18,45,57,190,52,36,59,071,50,21,59,303,48,06,03,062,*60
$GBGSV,5,4,18,42,10,309,38,02,05,108,,16,00,062,,26,07,216,*6E
$GBGSV,5,5,18,56,02,096,,60,07,112,*6F
$GPGGA,070002.00,,,,,0,00,,,M,,M,,*4D
$PTNL,GGK,070002.00,010125,4742.4466602,N,01617.9728502,E,1,22,1.2,EHT668.8573,M*4E
$GPGGQ,070002.00,010125,4742.4466602,N,01617.9728502,E,1,22,2.261,625.6462,M*32
$GPGFA,070002.00,7.884,16.456,0.829,0.630,20.167,2.007,,VVV*04
$GPLLK,070002.00,010125,,M,,M,1,22,1.4,,M*0B
$GNGMP,070002.00,,,,,DAAA,22,0.7,,,,*54
$GPGMP,070002.00,,,,,,06,,,,2.5,123*79
$GLGMP,070002.00,,,,,,06,,,,,*7C
$GAGMP,070002.00,,,,,,05,,,,,*72
$GBGMP,070002.00,,,,,,05,,,,,*71
$PSSN,SNC,[0,284420000,2347]*4C
$GPZDA,070007.00,01,01,2025,,*63
$GPDTM,W84,,00.0000000,N,00.0000000,E,00.0000000,W84*5F
$GPRMC,070007.00,A,4742.4466540,N,01617.9728493,E,0.0,,010125,5.1,E,D*12
$GPGLL,4742.4466540,N,01617.9728493,E,070007.00,A,D*63
$GPGGA,070007.00,4742.4466540,N,01617.9728493,E,2,20,0.8,625.6518,M,43.2111,M,3.4,0123*4C
$GNGNS,070007.00,4742.4466540,N,01617.9728493,E,DAAA,20,0.8,625.6518,43.2111,,*57
$GPGNS,070007.00,,,,,,05,,,,3.4,123*7F
$GLGNS,070007.00,,,,,,06,,,,,*79
$GAGNS,070007.00,,,,,,04,,,,,*76
$GBGNS,070007.00,,,,,,05,,,,,*74
$GPLLQ,070007.00,010125,,M,,M,1,20,2.209,,M*1A
$GPVTG,,T,,M,0.00,N,0.00,K,D*26
$GPHDT,,T*1B
$GPTHS,,V*0E
$GPROT,,V*08
$PSSN,HRP,070007.00,010125,,,,,,,00,0,,*61
$PTNL,AVR,070007.00,,Yaw,,Tilt,,,,0,,00*37
$GPGSA,A,3,07,13,14,20,30,,,,,,,,1.3,0.8,1.0*38
$GPGSA,A,3,65,71,72,74,75,81,,,,,,,1.3,0.8,1.0*31
$GPGSA,A,3,05,13,24,25,,,,,,,,,1.3,0.8,1.0*3F
$GPGSA,A,3,21,22,36,42,45,,,,,,,,1.3,0.8,1.0*38
$GPGST,070007.00,4.389,0.827,0.685,10.057,0.823,0.690,1.931*68
$GPGBS,070007.00,3.905,3.617,10.246,14,0.0001,1.156,0.828*67
$GPGRS,070007.00,1,0.0,-0.2,1.2,-0.9,-0.2,,,,,,,*47
$GPGRS,070007.00,1,-4.7,6.7,1.6,1.2,-6.8,3.8,,,,,,*4D
$GPGRS,070007.00,1,3.7,-5.8,0.2,2.3,,,,,,,,*69
$GPGRS,070007.00,1,-0.2,-1.1,-0.7,7.8,-1.3,,,,,,,*68
$GPGSV,4,1,16,30,87,080,49,14,33,162,37,09,15,106,24,07,48,060,46*75
$GPGSV,4,2,16,13,36,289,41,20,55,230,49,05,50,292,38,15,03,295,22*7C
$GPGSV,4,3,16,18,06,336,,11,08,226,,27,05,035,,08,07,066,*77
$GPGSV,4,4,16,36,35,170,39,34,31,208,,49,34,195,34,61,03,257,*7A
$GLGSV,3,1,09,72,70,094,43,81,13,326,43,73,24,036,,71,21,122,37*6A
$GLGSV,3,2,09,75,47,189,45,65,43,319,47,74,67,064,46,82,04,010,28*66
$GLGSV,3,3,09,88,05,276,28*50
$GAGSV,3,1,12,03,67,303,32,31,12,034,23,08,16,287,32,13,19,313,30*66
$GAGSV,3,2,12,15,23,258,33,25,37,152,37,24,45,080,41,16,48,121,*62
$GAGSV,3,3,12,05,55,092,41,09,04,102,,02,00,188,,34,04,212,*6F
$GBGSV,5,1,18,22,63,141,47,46,11,045,,19,11,133,22,09,17,060,*67
$GBGSV,5,2,18,40,15,071,,05,21,129,30,10,17,091,,50,34,306,*64
$GBGSV,5,3,18,45,57,190,52,36,59,071,50,21,59,303,48,06,03,062,*60
$GBGSV,5,4,18,42,10,309,36,02,05,108,,16,00,062,,26,07,216,*60
$GBGSV,5,5,18,56,02,096,,60,07,112,*6F
$GPGGA,070007.00,,,,,0,00,,,M,,M,,*48
$PTNL,GGK,070007.00,010125,4742.4466540,N,01617.9728493,E,1,20,1.3,EHT668.8629,M*48
$GPGGQ,070007.00,010125,4742.4466540,N,01617.9728493,E,1,20,2.209,625.6518,M*3B
$GPGFA,070007.00,7.860,15.834,0.827,0.685,10.057,1.931,,VVV*0E
$GPLLK,070007.00,010125,,M,,M,1,20,1.5,,M*0D
$GNGMP,070007.00,,,,,DAAA,20,0.8,,,,*5C
$GPGMP,070007.00,,,,,,05,,,,3.4,123*7F
$GLGMP,070007.00,,,,,,06,,,,,*79
$GAGMP,070007.00,,,,,,04,,,,,*76
$GBGMP,070007.00,,,,,,05,,,,,*74
$PSSN,SNC,[0,284425000,2347]*49
$GPZDA,070012.00,01,01,2025,,*67
$GPDTM,W84,,00.0000000,N,00.0000000,E,00.0000000,W84*5F
$GPRMC,070012.00,A,4742.4466650,N,01617.9728363,E,0.0,,010125,5.1,E,D*1C
$GPGLL,4742.4466650,N,01617.9728363,E,070012.00,A,D*6D
$GPGGA,070012.00,4742.4466650,N,01617.9728363,E,2,18,0.8,625.6690,M,43.2111,M,2.0,0123*4F
$GNGNS,070012.00,4742.4466650,N,01617.9728363,E,DAAA,18,0.8,625.6690,43.2111,,*51
$GPGNS,070012.00,,,,,,05,,,,2.0,123*7E
$GLGNS,070012.00,,,,,,06,,,,,*7D
$GAGNS,070012.00,,,,,,03,,,,,*75
$GBGNS,070012.00,,,,,,04,,,,,*71
$GPLLQ,070012.00,010125,,M,,M,1,18,3.808,,M*1F
$GPVTG,,T,,M,0.01,N,0.01,K,D*26
$GPHDT,,T*1B
$GPTHS,,V*0E
$GPROT,,V*08
$PSSN,HRP,070012.00,010125,,,,,,,00,0,,*65
$PTNL,AVR,070012.00,,Yaw,,Tilt,,,,0,,00*33
$GPGSA,A,3,07,13,14,20,30,,,,,,,,1.4,0.8,1.2*3D
$GPGSA,A,3,65,71,72,74,75,81,,,,,,,1.4,0.8,1.2*34
$GPGSA,A,3,05,24,25,,,,,,,,,,1.4,0.8,1.2*38
$GPGSA,A,3,21,22,36,45,,,,,,,,,1.4,0.8,1.2*3B
$GPGST,070012.00,7.083,1.400,1.177,7.506,1.397,1.181,3.340*5F
$GPGBS,070012.00,3.851,3.519,10.689,14,0.0001,2.806,0.782*69
$GPGRS,070012.00,1,-0.8,-0.5,2.8,-1.3,0.1,,,,,,,*4D
$GPGRS,070012.00,1,-6.2,13.4,2.3,2.1,-7.6,14.7,,,,,,*49
$GPGRS,070012.00,1,5.8,-0.2,2.5,,,,,,,,,*41
$GPGRS,070012.00,1,-0.4,-0.8,-0.5,-1.2,,,,,,,,*40
$GPGSV,4,1,16,30,87,080,49,14,33,162,39,09,15,106,23,07,48,060,46*7C
$GPGSV,4,2,16,13,36,289,39,20,55,230,47,05,50,292,38,15,03,295,21*7E
$GPGSV,4,3,16,18,06,336,24,11,08,226,,27,05,035,,08,07,066,*71
$GPGSV,4,4,16,36,35,170,39,34,31,208,,49,34,195,34,61,03,257,*7A
$GLGSV,3,1,09,72,70,094,42,81,13,326,42,73,24,036,32,71,21,122,36*6A
$GLGSV,3,2,09,75,47,189,44,65,43,319,47,74,67,064,45,82,04,010,*6E
$GLGSV,3,3,09,88,05,276,25*5D
$GAGSV,3,1,12,03,67,303,35,31,12,034,22,08,16,287,33,13,19,313,29*69
$GAGSV,3,2,12,15,23,258,32,25,37,152,38,24,45,080,41,16,48,121,*6C
$GAGSV,3,3,12,05,55,092,42,09,04,102,,02,00,188,,34,04,212,*6C
$GBGSV,5,1,18,22,63,141,47,46,11,045,,19,11,133,23,09,17,060,*66
$GBGSV,5,2,18,40,15,071,,05,21,129,30,10,17,091,,50,34,306,*64
$GBGSV,5,3,18,45,57,190,52,36,59,071,49,21,59,303,48,06,03,062,*68
$GBGSV,5,4,18,42,10,309,35,02,05,108,,16,00,062,,26,07,216,*63
$GBGSV,5,5,18,56,02,096,,60,07,112,*6F
$GPGGA,070012.00,,,,,0,00,,,M,,M,,*4C
$PTNL,GGK,070012.00,010125,4742.4466650,N,01617.9728363,E,1,18,1.4,EHT668.8801,M*4E
$GPGGQ,070012.00,010125,4742.4466650,N,01617.9728363,E,1,18,3.808,625.6690,M*37
$GPGFA,070012.00,13.313,27.392,1.400,1.177,7.506,3.340,,VVV*0C
$GPLLK,070012.00,010125,,M,,M,1,18,1.7,,M*00
$GNGMP,070012.00,,,,,DAAA,18,0.8,,,,*53
$GPGMP,070012.00,,,,,,05,,,,2.0,123*7E
$GLGMP,070012.00,,,,,,06,,,,,*7D
$GAGMP,070012.00,,,,,,03,,,,,*75
$GBGMP,070012.00,,,,,,04,,,,,*71
$PSSN,SNC,[0,284430000,2347]*4D
$GPZDA,070017.00,01,01,2025,,*62
$GPDTM,W84,,00.0000000,N,00.0000000,E,00.0000000,W84*5F
$GPRMC,070017.00,A,4742.4466736,N,01617.9728307,E,0.0,,010125,5.1,E,D*1A
$GPGLL,4742.4466736,N,01617.9728307,E,070017.00,A,D*6B
$GPGGA,070017.00,4742.4466736,N,01617.9728307,E,2,20,0.8,625.6890,M,43.2111,M,2.2,0123*4E
$GNGNS,070017.00,4742.4466736,N,01617.9728307,E,DAAA,20,0.8,625.6890,43.2111,,*52
$GPGNS,070017.00,,,,,,06,,,,2.2,123*7A
$GLGNS,070017.00,,,,,,05,,,,,*7B
$GAGNS,070017.00,,,,,,05,,,,,*76
$GBGNS,070017.00,,,,,,04,,,,,*74
$GPLLQ,070017.00,010125,,M,,M,1,20,3.764,,M*14
$GPVTG,,T,,M,0.01,N,0.01,K,D*26
$GPHDT,,T*1B
$GPTHS,,V*0E
$GPROT,,V*08
$PSSN,HRP,070017.00,010125,,,,,,,00,0,,*60
$PTNL,AVR,070017.00,,Yaw,,Tilt,,,,0,,00*36
$GPGSA,A,3,05,07,13,14,20,30,,,,,,,1.5,0.8,1.2*39
$GPGSA,A,3,65,72,74,75,81,,,,,,,,1.5,0.8,1.2*33
$GPGSA,A,3,03,05,08,24,25,,,,,,,,1.5,0.8,1.2*32
$GPGSA,A,3,21,22,36,45,,,,,,,,,1.5,0.8,1.2*3A
$GPGST,070017.00,6.245,1.354,1.020,19.906,1.320,1.064,3.360*61
$GPGBS,070017.00,3.471,3.581,10.352,14,0.0001,2.667,0.794*6E
$GPGRS,070017.00,1,-0.4,-0.7,0.4,2.7,-1.7,-0.3,,,,,,*48
$GPGRS,070017.00,1,-7.4,0.8,1.6,-7.4,15.5,,,,,,,*5F
$GPGRS,070017.00,1,-1.8,7.5,8.9,-0.6,1.8,,,,,,,*64
$GPGRS,070017.00,1,-0.1,0.1,-0.7,-1.3,,,,,,,,*67
$GPGSV,4,1,16,30,87,079,49,14,34,162,42,09,15,106,,07,48,060,46*70
$GPGSV,4,2,16,13,36,289,38,20,55,230,46,05,50,292,37,15,03,295,31*70
$GPGSV,4,3,16,18,06,336,21,11,08,226,27,27,05,035,,08,07,066,*71
$GPGSV,4,4,16,36,35,170,39,34,31,208,,49,34,195,34,61,03,257,*7A
$GLGSV,3,1,09,72,70,095,42,81,13,326,41,73,24,036,34,71,21,122,33*6B
$GLGSV,3,2,09,75,47,189,42,65,43,319,45,74,67,064,45,82,04,009,19*6A
$GLGSV,3,3,09,88,05,276,25*5D
$GAGSV,3,1,12,03,67,303,36,31,12,034,23,08,16,287,30,13,19,313,27*66
$GAGSV,3,2,12,15,23,258,29,25,37,152,40,24,45,080,42,16,48,121,*6A
$GAGSV,3,3,12,05,55,092,42,09,04,102,,02,00,188,,34,04,212,*6C
$GBGSV,5,1,18,22,63,141,48,46,11,045,,19,11,133,23,09,17,060,*69
$GBGSV,5,2,18,40,15,071,,05,21,129,29,10,17,091,,50,34,306,*6C
$GBGSV,5,3,18,45,57,190,51,36,59,071,49,21,59,303,48,06,03,062,*6B
$GBGSV,5,4,18,42,10,309,32,02,05,108,,16,00,062,,26,07,216,*64
$GBGSV,5,5,18,56,02,096,,60,07,112,*6F
$GPGGA,070017.00,,,,,0,00,,,M,,M,,*49
$PTNL,GGK,070017.00,010125,4742.4466736,N,01617.9728307,E,1,20,1.5,EHT668.9000,M*4A
$GPGGQ,070017.00,010125,4742.4466736,N,01617.9728307,E,1,20,3.764,625.6890,M*31
$GPGFA,070017.00,12.875,27.556,1.354,1.020,19.906,3.360,,VVV*39
$GPLLK,070017.00,010125,,M,,M,1,20,1.7,,M*0E
$GNGMP,070017.00,,,,,DAAA,20,0.8,,,,*5D
$GPGMP,070017.00,,,,,,06,,,,2.2,123*7A
$GLGMP,070017.00,,,,,,05,,,,,*7B
$GAGMP,070017.00,,,,,,05,,,,,*76
$GBGMP,070017.00,,,,,,04,,,,,*74
$PSSN,SNC,[0,284435000,2347]*48
$GPZDA,070022.00,01,01,2025,,*64
$GPDTM,W84,,00.0000000,N,00.0000000,E,00.0000000,W84*5F
$GPRMC,070022.00,A,4742.4466822,N,01617.9728175,E,0.0,,010125,5.1,E,D*11
$GPGLL,4742.4466822,N,01617.9728175,E,070022.00,A,D*60
$GPGGA,070022.00,4742.4466822,N,01617.9728175,E,2,19,0.8,625.7196,M,43.2111,M,2.5,0123*46
$GNGNS,070022.00,4742.4466822,N,01617.9728175,E,DAAA,19,0.8,625.7196,43.2111,,*5D
$GPGNS,070022.00,,,,,,06,,,,2.5,123*7B
$GLGNS,070022.00,,,,,,05,,,,,*7D
$GAGNS,070022.00,,,,,,04,,,,,*71
$GBGNS,070022.00,,,,,,04,,,,,*72
$GPLLQ,070022.00,010125,,M,,M,1,19,3.710,,M*1B
$GPVTG,,T,,M,0.00,N,0.00,K,D*26
$GPHDT,,T*1B
$GPTHS,,V*0E
$GPROT,,V*08
$PSSN,HRP,070022.00,010125,,,,,,,00,0,,*66
$PTNL,AVR,070022.00,,Yaw,,Tilt,,,,0,,00*30
$GPGSA,A,3,05,07,13,14,20,30,,,,,,,1.6,0.8,1.4*3C
$GPGSA,A,3,65,72,74,75,81,,,,,,,,1.6,0.8,1.4*36
$GPGSA,A,3,03,05,24,25,,,,,,,,,1.6,0.8,1.4*3F
$GPGSA,A,3,21,22,36,45,,,,,,,,,1.6,0.8,1.4*3F
$GPGST,070022.00,5.416,1.332,1.020,19.054,1.302,1.058,3.309*6A
$GPGBS,070022.00,3.528,3.632,10.476,14,0.0001,2.369,0.807*61
$GPGRS,070022.00,1,-1.6,-0.1,1.3,2.4,-1.1,0.2,,,,,,*64
$GPGRS,070022.00,1,-9.6,1.4,2.0,-5.4,12.0,,,,,,,*5D
$GPGRS,070022.00,1,-2.0,7.7,0.1,1.5,,,,,,,,*63
$GPGRS,070022.00,1,0.3,1.1,-0.4,-0.7,,,,,,,,*49
$GPGSV,4,1,16,30,87,079,49,14,34,162,43,09,15,106,,07,48,060,46*71
$GPGSV,4,2,16,13,36,289,36,20,55,230,46,05,50,292,37,15,03,295,30*7F
$GPGSV,4,3,16,18,06,336,26,11,08,226,26,27,05,035,,08,07,066,*77
$GPGSV,4,4,16,36,35,170,39,34,31,208,,49,34,195,33,61,03,257,*7D
$GLGSV,3,1,09,72,70,095,44,81,13,326,40,73,24,036,34,71,21,122,26*68
$GLGSV,3,2,09,75,47,189,39,65,43,319,43,74,67,064,44,82,05,009,*68
$GLGSV,3,3,09,88,05,276,24*5C
$GAGSV,3,1,12,03,67,303,37,31,12,034,23,08,16,287,32,13,19,313,27*65
$GAGSV,3,2,12,15,23,258,29,25,37,152,41,24,45,080,43,16,48,120,*6B
$GAGSV,3,3,12,05,55,092,41,09,04,102,,02,00,188,,34,04,212,*6F
$GBGSV,5,1,18,22,63,141,47,46,11,045,,19,11,133,,09,17,060,*67
$GBGSV,5,2,18,40,15,071,,05,21,129,30,10,17,091,,50,34,306,*64
$GBGSV,5,3,18,45,57,190,50,36,59,070,50,21,59,303,48,06,03,062,*63
$GBGSV,5,4,18,42,10,309,31,02,05,108,,16,00,062,,26,07,216,*67
$GBGSV,5,5,18,56,02,096,,60,07,112,*6F
$GPGGA,070022.00,,,,,0,00,,,M,,M,,*4F
$PTNL,GGK,070022.00,010125,4742.4466822,N,01617.9728175,E,1,19,1.6,EHT668.9306,M*4D
$GPGGQ,070022.00,010125,4742.4466822,N,01617.9728175,E,1,19,3.710,625.7196,M*3D
$GPGFA,070022.00,12.663,27.135,1.332,1.020,19.054,3.309,,VVV*36
$GPLLK,070022.00,010125,,M,,M,1,19,1.9,,M*0C
$GNGMP,070022.00,,,,,DAAA,19,0.8,,,,*51
$GPGMP,070022.00,,,,,,06,,,,2.5,123*7B
$GLGMP,070022.00,,,,,,05,,,,,*7D
$GAGMP,070022.00,,,,,,04,,,,,*71
$GBGMP,070022.00,,,,,,04,,,,,*72
$PSSN,SNC,[0,284440000,2347]*4A
$GPZDA,070027.00,01,01,2025,,*61
$GPDTM,W84,,00.0000000,N,00.0000000,E,00.0000000,W84*5F
$GPRMC,070027.00,A,4742.4466876,N,01617.9728098,E,0.0,,010125,5.1,E,D*17
$GPGLL,4742.4466876,N,01617.9728098,E,070027.00,A,D*66
$GPGGA,070027.00,4742.4466876,N,01617.9728098,E,2,20,0.7,625.7335,M,43.2111,M,3.4,0123*4E
$GNGNS,070027.00,4742.4466876,N,01617.9728098,E,DAAA,20,0.7,625.7335,43.2111,,*55
$GPGNS,070027.00,,,,,,05,,,,3.4,123*7D
$GLGNS,070027.00,,,,,,07,,,,,*7A
$GAGNS,070027.00,,,,,,04,,,,,*74
$GBGNS,070027.00,,,,,,04,,,,,*77
$GPLLQ,070027.00,010125,,M,,M,1,20,3.401,,M*17
$GPVTG,,T,,M,0.01,N,0.01,K,D*26
$GPHDT,,T*1B
$GPTHS,,V*0E
$GPROT,,V*08
$PSSN,HRP,070027.00,010125,,,,,,,00,0,,*63
$PTNL,AVR,070027.00,,Yaw,,Tilt,,,,0,,00*35
$GPGSA,A,3,05,07,14,20,30,,,,,,,,1.3,0.7,1.0*30
$GPGSA,A,3,65,72,73,74,75,81,88,,,,,,1.3,0.7,1.0*3C
$GPGSA,A,3,03,05,24,25,,,,,,,,,1.3,0.7,1.0*31
$GPGSA,A,3,21,22,36,45,,,,,,,,,1.3,0.7,1.0*31
$GPGST,070027.00,7.019,1.152,0.937,342.632,1.134,0.958,3.059*5E
$GPGBS,070027.00,3.682,3.794,13.798,73,0.0001,17.848,6.232*5D
$GPGRS,070027.00,1,0.6,-0.5,1.2,-0.8,0.0,,,,,,,*6A
$GPGRS,070027.00,1,-10.3,2.0,17.8,1.9,-4.0,11.9,0.2,,,,,*5B
$GPGRS,070027.00,1,-2.6,6.1,0.2,1.6,,,,,,,,*67
$GPGRS,070027.00,1,0.4,1.0,-1.0,-0.5,,,,,,,,*4D
$GPGSV,4,1,16,30,87,079,49,14,34,162,44,09,15,106,,07,48,060,46*76
$GPGSV,4,2,16,13,36,289,32,20,55,230,46,05,50,292,36,15,03,295,29*72
$GPGSV,4,3,16,18,06,336,,11,08,226,23,27,05,035,,08,07,066,*76
$GPGSV,4,4,16,36,35,170,39,34,31,208,,49,34,195,33,61,03,257,*7D
$GLGSV,3,1,09,72,70,095,45,81,13,326,40,73,24,036,36,71,21,122,27*6A
$GLGSV,3,2,09,75,47,189,39,65,43,319,42,74,67,064,44,82,05,009,*69
$GLGSV,3,3,09,88,05,276,35*5C
$GAGSV,3,1,12,03,67,303,38,31,12,034,23,08,16,287,32,13,19,313,32*6E
$GAGSV,3,2,12,15,23,258,28,25,37,152,41,24,45,080,44,16,48,120,*6D
$GAGSV,3,3,12,05,55,092,40,09,04,102,,02,00,188,,34,04,212,*6E
$GBGSV,5,1,18,22,63,141,47,46,11,045,,19,11,133,23,09,17,060,*66
$GBGSV,5,2,18,40,15,071,,05,21,129,30,10,17,091,,50,34,306,*64
$GBGSV,5,3,18,45,57,190,50,36,59,070,49,21,59,303,48,06,03,062,*6B
$GBGSV,5,4,18,42,10,309,28,02,05,108,,16,00,062,,26,07,216,*6F
$GBGSV,5,5,18,56,02,096,,60,07,112,*6F
$GPGGA,070027.00,,,,,0,00,,,M,,M,,*4A
$PTNL,GGK,070027.00,010125,4742.4466876,N,01617.9728098,E,1,20,1.3,EHT668.9446,M*47
$GPGGQ,070027.00,010125,4742.4466876,N,01617.9728098,E,1,20,3.401,625.7335,M*39
$GPGFA,070027.00,10.953,25.086,1.152,0.937,342.632,3.059,,VVV*01
$GPLLK,070027.00,010125,,M,,M,1,20,1.5,,M*0F
$GNGMP,070027.00,,,,,DAAA,20,0.7,,,,*51
$GPGMP,070027.00,,,,,,05,,,,3.4,123*7D
$GLGMP,070027.00,,,,,,07,,,,,*7A
$GAGMP,070027.00,,,,,,04,,,,,*74
$GBGMP,070027.00,,,,,,04,,,,,*77
$PSSN,SNC,[0,284445000,2347]*4F
$GPZDA,070032.00,01,01,2025,,*65
$GPDTM,W84,,00.0000000,N,00.0000000,E,00.0000000,W84*5F
$GPRMC,070032.00,A,4742.4466868,N,01617.9728078,E,0.0,,010125,5.1,E,D*12
$GPGLL,4742.4466868,N,01617.9728078,E,070032.00,A,D*63
$GPGGA,070032.00,4742.4466868,N,01617.9728078,E,2,19,0.7,625.7469,M,43.2111,M,2.3,0123*49
$GNGNS,070032.00,4742.4466868,N,01617.9728078,E,DAAA,19,0.7,625.7469,43.2111,,*54
$GPGNS,070032.00,,,,,,04,,,,2.3,123*7E
$GLGNS,070032.00,,,,,,06,,,,,*7F
$GAGNS,070032.00,,,,,,05,,,,,*71
$GBGNS,070032.00,,,,,,04,,,,,*73
$GPLLQ,070032.00,010125,,M,,M,1,19,4.841,,M*16
$GPVTG,,T,,M,0.00,N,0.00,K,D*26
$GPHDT,,T*1B
$GPTHS,,V*0E
$GPROT,,V*08
$PSSN,HRP,070032.00,010125,,,,,,,00,0,,*67
$PTNL,AVR,070032.00,,Yaw,,Tilt,,,,0,,00*31
$GPGSA,A,3,07,14,20,30,,,,,,,,,1.4,0.7,1.2*30
$GPGSA,A,3,65,72,73,74,75,81,,,,,,,1.4,0.7,1.2*39
$GPGSA,A,3,03,05,08,24,25,,,,,,,,1.4,0.7,1.2*3C
$GPGSA,A,3,21,22,36,45,,,,,,,,,1.4,0.7,1.2*34
$GPGST,070032.00,7.082,2.208,1.082,316.543,1.767,1.710,4.170*5B
$GPGBS,070032.00,5.282,6.721,15.626,73,0.0001,14.471,6.226*52
$GPGRS,070032.00,1,-0.3,0.9,-1.0,0.2,,,,,,,,*41
$GPGRS,070032.00,1,-8.2,2.4,14.5,2.5,-3.2,13.0,,,,,,*40
$GPGRS,070032.00,1,-2.7,4.2,9.8,-0.1,2.3,,,,,,,*64
$GPGRS,070032.00,1,0.4,1.3,-1.7,-0.2,,,,,,,,*4A
$GPGSV,4,1,16,30,87,078,50,14,34,162,45,09,15,106,24,07,48,060,46*78
$GPGSV,4,2,16,13,36,289,28,20,55,230,45,05,50,292,30,15,03,295,29*7C
$GPGSV,4,3,16,18,06,336,,11,08,226,24,27,05,035,,08,07,066,*71
$GPGSV,4,4,16,36,35,170,39,34,31,208,,49,34,195,34,61,03,257,*7A
$GLGSV,3,1,09,72,70,095,46,73,24,036,36,81,13,326,38,71,21,122,26*67
$GLGSV,3,2,09,75,47,189,42,65,43,319,43,74,67,064,44,82,05,009,*64
$GLGSV,3,3,09,88,05,276,33*5A
$GAGSV,3,1,12,03,67,303,39,31,12,034,24,08,16,287,29,13,19,313,35*65
$GAGSV,3,2,12,15,23,258,28,25,37,152,42,24,45,080,45,16,48,120,*6F
$GAGSV,3,3,12,05,55,092,38,09,04,102,,02,00,188,,34,04,212,*61
$GBGSV,5,1,18,22,63,141,47,46,11,045,,19,11,133,22,09,17,060,*67
$GBGSV,5,2,18,40,15,071,,05,21,129,30,10,17,091,,50,34,306,*64
$GBGSV,5,3,18,45,57,190,49,36,59,070,49,21,59,303,47,06,03,062,*6C
$GBGSV,5,4,18,42,10,309,28,02,05,108,,16,00,062,,26,07,216,*6F
$GBGSV,5,5,18,56,02,096,,60,07,112,*6F
$GPGGA,070032.00,,,,,0,00,,,M,,M,,*4E
$PTNL,GGK,070032.00,010125,4742.4466868,N,01617.9728078,E,1,19,1.4,EHT668.9580,M*44
$GPGGQ,070032.00,010125,4742.4466868,N,01617.9728078,E,1,19,4.841,625.7469,M*37
$GPGFA,070032.00,20.996,34.193,2.208,1.082,316.543,4.170,,VVV*0A
$GPLLK,070032.00,010125,,M,,M,1,19,1.6,,M*02
$GNGMP,070032.00,,,,,DAAA,19,0.7,,,,*5F
$GPGMP,070032.00,,,,,,04,,,,2.3,123*7E
$GLGMP,070032.00,,,,,,06,,,,,*7F
$GAGMP,070032.00,,,,,,05,,,,,*71
$GBGMP,070032.00,,,,,,04,,,,,*73
$PSSN,SNC,[0,284450000,2347]*4B
$GPZDA,070037.00,01,01,2025,,*60
$GPDTM,W84,,00.0000000,N,00.0000000,E,00.0000000,W84*5F
$GPRMC,070037.00,A,4742.4466877,N,01617.9727978,E,0.0,,010125,5.1,E,D*1F
$GPGLL,4742.4466877,N,01617.9727978,E,070037.00,A,D*6E
$GPGGA,070037.00,4742.4466877,N,01617.9727978,E,2,21,0.7,625.7534,M,43.2111,M,2.2,0123*47
$GNGNS,070037.00,4742.4466877,N,01617.9727978,E,DAAA,21,0.7,625.7534,43.2111,,*5B
$GPGNS,070037.00,,,,,,05,,,,2.2,123*7B
$GLGNS,070037.00,,,,,,06,,,,,*7A
$GAGNS,070037.00,,,,,,06,,,,,*77
$GBGNS,070037.00,,,,,,04,,,,,*76
$GPLLQ,070037.00,010125,,M,,M,1,21,3.977,,M*1B
$GPVTG,,T,,M,0.01,N,0.01,K,D*26
$GPHDT,,T*1B
$GPTHS,,V*0E
$GPROT,,V*08
$PSSN,HRP,070037.00,010125,,,,,,,00,0,,*62
$PTNL,AVR,070037.00,,Yaw,,Tilt,,,,0,,00*34
$GPGSA,A,3,05,07,14,20,30,,,,,,,,1.3,0.7,1.1*31
$GPGSA,A,3,65,72,73,74,75,81,,,,,,,1.3,0.7,1.1*3D
$GPGSA,A,3,03,05,08,13,24,25,,,,,,,1.3,0.7,1.1*3A
$GPGSA,A,3,21,22,36,45,,,,,,,,,1.3,0.7,1.1*30
$GPGST,070037.00,5.617,1.579,1.051,316.692,1.356,1.326,3.496*58
$GPGBS,070037.00,3.485,3.529,13.659,20,0.0001,-1.286,0.632*47
$GPGRS,070037.00,1,-0.7,-0.3,0.9,-1.3,0.7,,,,,,,*46
$GPGRS,070037.00,1,-6.8,3.0,12.1,2.4,-2.7,9.9,,,,,,*71
$GPGRS,070037.00,1,-1.6,1.5,10.3,-1.0,-0.5,2.7,,,,,,*50
$GPGRS,070037.00,1,0.6,1.3,-2.0,0.2,,,,,,,,*64
$GPGSV,4,1,16,30,87,078,51,14,34,162,45,09,15,106,23,07,48,060,46*7E
$GPGSV,4,2,16,13,36,289,32,20,55,230,45,05,50,292,39,15,03,295,30*76
$GPGSV,4,3,16,18,06,336,22,11,08,226,24,27,05,035,,08,07,066,*71
$GPGSV,4,4,16,36,35,170,39,34,31,208,,49,34,195,33,61,03,257,*7D
$GLGSV,3,1,09,72,70,095,47,73,24,036,35,81,13,326,36,71,21,122,26*6B
$GLGSV,3,2,09,75,48,189,45,65,43,319,43,74,67,064,42,82,05,009,*6A
$GLGSV,3,3,09,88,05,276,22*5A
$GAGSV,3,1,12,03,67,303,41,31,12,034,25,08,16,287,33,13,19,313,37*62
$GAGSV,3,2,12,15,23,258,34,25,37,152,42,24,45,080,45,16,48,120,*62
$GAGSV,3,3,12,05,55,092,36,09,04,102,,02,00,188,,34,04,212,*6F
$GBGSV,5,1,18,22,63,141,47,46,11,045,,19,11,133,22,09,17,060,*67
$GBGSV,5,2,18,40,15,071,,05,21,129,30,10,17,091,,50,34,306,*64
$GBGSV,5,3,18,45,57,190,48,36,59,070,49,21,59,303,47,06,03,062,*6D
$GBGSV,5,4,18,42,10,309,27,02,05,108,,16,00,062,,26,07,216,*60
$GBGSV,5,5,18,56,02,096,,60,07,112,*6F
$GPGGA,070037.00,,,,,0,00,,,M,,M,,*4B
$PTNL,GGK,070037.00,010125,4742.4466877,N,01617.9727978,E,1,21,1.3,EHT668.9644,M*4E
$GPGGQ,070037.00,010125,4742.4466877,N,01617.9727978,E,1,21,3.977,625.7534,M*3B
$GPGFA,070037.00,15.011,28.667,1.579,1.051,316.692,3.496,,VVV*07
$GPLLK,070037.00,010125,,M,,M,1,21,1.6,,M*0C
$GNGMP,070037.00,,,,,DAAA,21,0.7,,,,*51
$GPGMP,070037.00,,,,,,05,,,,2.2,123*7B
$GLGMP,070037.00,,,,,,06,,,,,*7A
$GAGMP,070037.00,,,,,,06,,,,,*77
$GBGMP,070037.00,,,,,,04,,,,,*76
$PSSN,SNC,[0,284455000,2347]*4E
$GPZDA,070042.00,01,01,2025,,*62
$GPDTM,W84,,00.0000000,N,00.0000000,E,00.0000000,W84*5F
$GPRMC,070042.00,A,4742.4466905,N,01617.9727916,E,0.0,,010125,5.1,E,D*11
$GPGLL,4742.4466905,N,01617.9727916,E,070042.00,A,D*60
$GPGGA,070042.00,4742.4466905,N,01617.9727916,E,2,18,0.8,625.7584,M,43.2111,M,2.4,0123*41
$GNGNS,070042.00,4742.4466905,N,01617.9727916,E,DAAA,18,0.8,625.7584,43.2111,,*5B
$GPGNS,070042.00,,,,,,05,,,,2.4,123*7F
$GLGNS,070042.00,,,,,,05,,,,,*7B
$GAGNS,070042.00,,,,,,04,,,,,*77
$GBGNS,070042.00,,,,,,04,,,,,*74
$GPLLQ,070042.00,010125,,M,,M,1,18,2.336,,M*1D
$GPVTG,,T,,M,0.01,N,0.02,K,D*25
$GPHDT,,T*1B
$GPTHS,,V*0E
$GPROT,,V*08
$PSSN,HRP,070042.00,010125,,,,,,,00,0,,*60
$PTNL,AVR,070042.00,,Yaw,,Tilt,,,,0,,00*36
$GPGSA,A,3,07,13,14,20,30,,,,,,,,1.5,0.8,1.3*3D
$GPGSA,A,3,65,72,74,75,81,,,,,,,,1.5,0.8,1.3*32
$GPGSA,A,3,03,13,24,25,,,,,,,,,1.5,0.8,1.3*3C
$GPGSA,A,3,21,22,36,45,,,,,,,,,1.5,0.8,1.3*3B
$GPGST,070042.00,2.909,0.846,0.719,5.144,0.845,0.720,2.056*58
$GPGBS,070042.00,3.852,3.524,10.462,13,0.0001,1.496,0.774*6E
$GPGRS,070042.00,1,-0.5,1.5,0.8,-0.9,0.3,,,,,,,*62
$GPGRS,070042.00,1,-6.9,3.9,1.1,-2.6,0.6,,,,,,,*66
$GPGRS,070042.00,1,-1.2,-2.2,-1.5,2.0,,,,,,,,*67
$GPGRS,070042.00,1,0.2,0.8,-2.1,-0.2,,,,,,,,*44
$GPGSV,4,1,16,30,87,078,51,14,34,162,45,09,15,106,23,07,48,060,46*7E
$GPGSV,4,2,16,13,36,289,37,20,55,230,45,05,50,292,32,15,03,295,30*78
$GPGSV,4,3,16,18,06,336,27,11,08,226,21,27,05,035,,08,07,066,*71
$GPGSV,4,4,16,36,35,170,39,34,31,208,,49,34,195,34,61,03,257,*7A
$GLGSV,3,1,09,72,70,095,48,73,24,036,34,81,13,326,36,71,21,122,31*63
$GLGSV,3,2,09,75,48,189,48,65,43,319,42,74,67,064,42,82,05,009,21*65
$GLGSV,3,3,09,88,05,276,*5A
$GAGSV,3,1,12,03,67,303,41,31,12,034,26,08,16,287,31,13,19,313,39*6D
$GAGSV,3,2,12,15,23,258,28,25,37,152,41,24,45,080,44,16,48,120,*6D
$GAGSV,3,3,12,05,55,092,35,09,04,102,,02,01,188,,34,04,212,*6D
$GBGSV,5,1,18,22,63,141,47,46,11,045,,19,11,133,23,09,17,060,*66
$GBGSV,5,2,18,40,15,071,,05,21,129,30,10,17,091,,50,34,306,*64
$GBGSV,5,3,18,45,57,190,47,36,59,070,48,21,59,303,46,06,03,062,*62
$GBGSV,5,4,18,42,10,309,26,02,05,108,,16,00,062,,26,07,216,*61
$GBGSV,5,5,18,56,02,096,,60,07,112,*6F
$GPGGA,070042.00,,,,,0,00,,,M,,M,,*49
$PTNL,GGK,070042.00,010125,4742.4466905,N,01617.9727916,E,1,18,1.5,EHT668.9695,M*40
$GPGGQ,070042.00,010125,4742.4466905,N,01617.9727916,E,1,18,2.336,625.7584,M*3A
$GPGFA,070042.00,8.039,16.857,0.846,0.719,5.144,2.056,,VVV*3D
$GPLLK,070042.00,010125,,M,,M,1,18,1.8,,M*0A
$GNGMP,070042.00,,,,,DAAA,18,0.8,,,,*56
$GPGMP,070042.00,,,,,,05,,,,2.4,123*7F
$GLGMP,070042.00,,,,,,05,,,,,*7B
$GAGMP,070042.00,,,,,,04,,,,,*77
$GBGMP,070042.00,,,,,,04,,,,,*74
$PSSN,SNC,[0,284460000,2347]*48
$GPZDA,070047.00,01,01,2025,,*67
$GPDTM,W84,,00.0000000,N,00.0000000,E,00.0000000,W84*5F
$GPRMC,070047.00,A,4742.4466893,N,01617.9727903,E,0.0,,010125,5.1,E,D*1E
$GPGLL,4742.4466893,N,01617.9727903,E,070047.00,A,D*6F
$GPGGA,070047.00,4742.4466893,N,01617.9727903,E,2,17,0.8,625.7687,M,43.2111,M,3.4,0123*40
$GNGNS,070047.00,4742.4466893,N,01617.9727903,E,DAAA,17,0.8,625.7687,43.2111,,*5B
$GPGNS,070047.00,,,,,,05,,,,3.4,123*7B
$GLGNS,070047.00,,,,,,04,,,,,*7F
$GAGNS,070047.00,,,,,,04,,,,,*72
$GBGNS,070047.00,,,,,,04,,,,,*71
$GPLLQ,070047.00,010125,,M,,M,1,17,1.736,,M*10
$GPVTG,,T,,M,0.00,N,0.01,K,D*27
$GPHDT,,T*1B
$GPTHS,,V*0E
$GPROT,,V*08
$PSSN,HRP,070047.00,010125,,,,,,,00,0,,*65
$PTNL,AVR,070047.00,,Yaw,,Tilt,,,,0,,00*33
$GPGSA,A,3,07,13,14,20,30,,,,,,,,1.7,0.8,1.5*39
$GPGSA,A,3,65,72,74,75,,,,,,,,,1.7,0.8,1.5*3F
$GPGSA,A,3,03,13,24,25,,,,,,,,,1.7,0.8,1.5*38
$GPGSA,A,3,21,22,36,45,,,,,,,,,1.7,0.8,1.5*3F
$GPGST,070047.00,3.179,0.635,0.535,5.788,0.634,0.537,1.524*5C
$GPGBS,070047.00,3.916,3.596,10.998,20,0.0001,-0.835,0.663*45
$GPGRS,070047.00,1,-0.0,0.5,0.6,-0.8,0.1,,,,,,,*6E
$GPGRS,070047.00,1,-6.8,5.0,1.7,-1.8,,,,,,,,*4E
$GPGRS,070047.00,1,-1.9,-2.9,-2.2,0.9,,,,,,,,*6D
$GPGRS,070047.00,1,-0.0,0.6,-1.8,-0.8,,,,,,,,*60
$GPGSV,4,1,16,30,87,077,52,14,34,162,45,09,15,106,19,07,48,060,46*7B
$GPGSV,4,2,16,13,36,289,40,20,55,230,46,05,50,292,34,15,03,295,30*7D
$GPGSV,4,3,16,18,06,336,28,11,08,226,,27,05,035,,08,07,066,*7D
$GPGSV,4,4,16,36,35,170,39,34,31,208,,49,34,195,34,61,03,257,*7A
$GLGSV,3,1,09,72,70,095,49,73,24,036,33,81,13,326,33,71,21,122,34*65
$GLGSV,3,2,09,75,48,189,49,65,43,319,42,74,67,064,42,82,05,009,*67
$GLGSV,3,3,09,88,05,276,24*5C
$GAGSV,3,1,12,03,67,303,40,31,12,034,27,08,16,287,28,13,19,312,40*6A
$GAGSV,3,2,12,15,23,258,29,25,37,152,39,24,45,080,43,16,48,120,*64
$GAGSV,3,3,12,05,55,092,35,09,04,102,,02,01,188,,34,03,212,*6A
$GBGSV,5,1,18,22,63,141,47,46,11,045,,19,11,133,22,09,17,060,*67
$GBGSV,5,2,18,40,15,071,,05,21,129,30,10,17,091,,50,34,306,*64
$GBGSV,5,3,18,45,58,190,47,36,59,070,48,21,59,303,46,06,03,062,*6D
$GBGSV,5,4,18,42,10,309,27,02,05,108,,16,00,062,,26,07,216,*60
$GBGSV,5,5,18,56,02,096,,60,07,112,*6F
$GPGGA,070047.00,,,,,0,00,,,M,,M,,*4C
$PTNL,GGK,070047.00,010125,4742.4466893,N,01617.9727903,E,1,17,1.7,EHT668.9798,M*4E
$GPGGQ,070047.00,010125,4742.4466893,N,01617.9727903,E,1,17,1.736,625.7687,M*3D
$GPGFA,070047.00,6.035,12.499,0.635,0.535,5.788,1.524,,VVV*33
$GPLLK,070047.00,010125,,M,,M,1,17,2.1,,M*0A
$GNGMP,070047.00,,,,,DAAA,17,0.8,,,,*5C
$GPGMP,070047.00,,,,,,05,,,,3.4,123*7B
$GLGMP,070047.00,,,,,,04,,,,,*7F
$GAGMP,070047.00,,,,,,04,,,,,*72
$GBGMP,070047.00,,,,,,04,,,,,*71
$PSSN,SNC,[0,284465000,2347]*4D
$GPZDA,070052.00,01,01,2025,,*63
$GPDTM,W84,,00.0000000,N,00.0000000,E,00.0000000,W84*5F
$GPRMC,070052.00,A,4742.4466888,N,01617.9727918,E,0.0,,010125,5.1,E,D*1A
$GPGLL,4742.4466888,N,01617.9727918,E,070052.00,A,D*6B
$GPGGA,070052.00,4742.4466888,N,01617.9727918,E,2,19,0.8,625.7789,M,43.2111,M,2.0,0123*40
$GNGNS,070052.00,4742.4466888,N,01617.9727918,E,DAAA,19,0.8,625.7789,43.2111,,*5E
$GPGNS,070052.00,,,,,,05,,,,2.0,123*7A
$GLGNS,070052.00,,,,,,05,,,,,*7A
$GAGNS,070052.00,,,,,,05,,,,,*77
$GBGNS,070052.00,,,,,,04,,,,,*75
$GPLLQ,070052.00,010125,,M,,M,1,19,2.734,,M*1B
$GPVTG,,T,,M,0.00,N,0.00,K,D*26
$GPHDT,,T*1B
$GPTHS,,V*0E
$GPROT,,V*08
$PSSN,HRP,070052.00,010125,,,,,,,00,0,,*61
$PTNL,AVR,070052.00,,Yaw,,Tilt,,,,0,,00*37
$GPGSA,A,3,07,13,14,20,30,,,,,,,,1.5,0.8,1.3*3D
$GPGSA,A,3,65,71,72,74,75,,,,,,,,1.5,0.8,1.3*3D
$GPGSA,A,3,03,05,13,24,25,,,,,,,,1.5,0.8,1.3*39
$GPGSA,A,3,21,22,36,45,,,,,,,,,1.5,0.8,1.3*3B
$GPGST,070052.00,4.992,0.997,0.832,7.747,0.994,0.835,2.406*56
$GPGBS,070052.00,3.813,3.475,10.881,13,0.0001,1.678,0.738*64
$GPGRS,070052.00,1,-0.6,1.7,0.2,-0.8,-0.1,,,,,,,*46
$GPGRS,070052.00,1,-5.5,13.7,6.4,2.1,-2.7,,,,,,,*51
$GPGRS,070052.00,1,-2.9,-0.4,-3.0,-1.9,-0.3,,,,,,,*4A
$GPGRS,070052.00,1,0.3,0.6,-1.0,-1.3,,,,,,,,*48
$GPGSV,4,1,16,30,86,077,51,14,34,162,44,09,15,106,,07,48,060,46*70
$GPGSV,4,2,16,13,36,289,40,20,55,230,46,05,50,292,31,15,03,295,30*78
$GPGSV,4,3,16,18,06,336,30,11,08,226,,27,05,035,,08,07,066,*74
$GPGSV,4,4,16,36,35,170,39,34,31,208,,49,34,195,33,61,03,257,*7D
$GLGSV,3,1,09,72,70,095,49,73,24,036,33,81,13,325,36,71,21,122,37*60
$GLGSV,3,2,09,75,48,189,49,65,43,319,44,74,67,063,42,82,05,009,*66
$GLGSV,3,3,09,88,05,276,31*58
$GAGSV,3,1,12,03,67,303,40,31,12,034,28,08,16,287,30,13,19,312,40*6C
$GAGSV,3,2,12,15,22,258,30,25,37,152,36,24,45,080,42,16,48,120,*63
$GAGSV,3,3,12,05,55,092,35,09,04,102,,02,01,188,,34,03,212,*6A
$GBGSV,5,1,18,22,63,141,47,46,11,045,,19,11,133,21,09,17,060,*64
$GBGSV,5,2,18,40,15,071,,05,21,129,30,10,17,091,,50,34,306,*64
$GBGSV,5,3,18,45,58,190,48,36,59,070,48,21,59,303,46,06,03,062,*62
$GBGSV,5,4,18,42,10,309,29,02,05,108,,16,00,062,,26,07,216,*6E
$GBGSV,5,5,18,56,02,096,,60,07,112,*6F
$GPGGA,070052.00,,,,,0,00,,,M,,M,,*48
$PTNL,GGK,070052.00,010125,4742.4466888,N,01617.9727918,E,1,19,1.5,EHT668.9900,M*49
$GPGGQ,070052.00,010125,4742.4466888,N,01617.9727918,E,1,19,2.734,625.7789,M*39
$GPGFA,070052.00,9.481,19.730,0.997,0.832,7.747,2.406,,VVV*36
$GPLLK,070052.00,010125,,M,,M,1,19,1.8,,M*0A
$GNGMP,070052.00,,,,,DAAA,19,0.8,,,,*56
$GPGMP,070052.00,,,,,,05,,,,2.0,123*7A
$GLGMP,070052.00,,,,,,05,,,,,*7A
$GAGMP,070052.00,,,,,,05,,,,,*77
$GBGMP,070052.00,,,,,,04,,,,,*75
$PSSN,SNC,[0,284470000,2347]*49
$GPZDA,070057.00,01,01,2025,,*66
$GPDTM,W84,,00.0000000,N,00.0000000,E,00.0000000,W84*5F
$GPRMC,070057.00,A,4742.4466866,N,01617.9727985,E,0.0,,010125,5.1,E,D*1B
$GPGLL,4742.4466866,N,01617.9727985,E,070057.00,A,D*6A
$GPGGA,070057.00,4742.4466866,N,01617.9727985,E,2,19,0.8,625.7980,M,43.2111,M,2.2,0123*44
$GNGNS,070057.00,4742.4466866,N,01617.9727985,E,DAAA,19,0.8,625.7980,43.2111,,*58
$GPGNS,070057.00,,,,,,05,,,,2.2,123*7D
$GLGNS,070057.00,,,,,,06,,,,,*7C
$GAGNS,070057.00,,,,,,04,,,,,*73
$GBGNS,070057.00,,,,,,04,,,,,*70
$GPLLQ,070057.00,010125,,M,,M,1,19,2.807,,M*11
$GPVTG,,T,,M,0.01,N,0.01,K,D*26
$GPHDT,,T*1B
$GPTHS,,V*0E
$GPROT,,V*08
$PSSN,HRP,070057.00,010125,,,,,,,00,0,,*64
$PTNL,AVR,070057.00,,Yaw,,Tilt,,,,0,,00*32
$GPGSA,A,3,07,13,14,20,30,,,,,,,,1.4,0.8,1.1*3E
$GPGSA,A,3,65,71,72,74,75,81,,,,,,,1.4,0.8,1.1*37
$GPGSA,A,3,03,05,13,24,,,,,,,,,1.4,0.8,1.1*3D
$GPGSA,A,3,21,22,36,45,,,,,,,,,1.4,0.8,1.1*38
$GPGST,070057.00,5.207,1.010,0.847,7.894,1.007,0.851,2.478*58
$GPGBS,070057.00,3.815,3.435,10.572,71,0.0001,14.676,6.268*5A
$GPGRS,070057.00,1,-0.6,1.6,0.4,-0.9,-0.2,,,,,,,*46
$GPGRS,070057.00,1,-5.0,14.7,5.3,2.6,-4.4,-2.7,,,,,,*56
$GPGRS,070057.00,1,-2.5,0.5,-2.8,-1.5,,,,,,,,*6A
$GPGRS,070057.00,1,0.4,0.6,0.1,-1.5,,,,,,,,*61
$GPGSV,4,1,16,30,86,077,51,14,34,162,42,09,15,106,24,07,48,060,46*70
$GPGSV,4,2,16,13,36,289,40,20,55,230,45,05,50,292,40,15,03,295,23*7F
$GPGSV,4,3,16,18,06,336,28,11,08,226,22,27,05,035,,08,07,066,*7D
$GPGSV,4,4,16,36,35,170,39,34,31,208,,49,34,195,33,61,03,257,*7D
$GLGSV,3,1,09,72,70,095,48,73,24,036,33,81,13,325,36,71,21,122,39*6F
$GLGSV,3,2,09,75,48,189,48,65,43,319,45,74,67,063,41,82,05,009,*65
$GLGSV,3,3,09,88,05,276,22*5A
$GAGSV,3,1,12,03,67,303,41,31,12,034,30,08,16,287,32,13,19,312,41*67
$GAGSV,3,2,12,15,22,258,32,25,37,152,32,24,45,080,42,16,48,120,*65
$GAGSV,3,3,12,05,55,092,36,09,04,102,,02,01,188,,34,03,212,*69
$GBGSV,5,1,18,22,63,141,47,46,11,045,,19,11,133,20,09,17,060,*65
$GBGSV,5,2,18,40,15,071,,05,21,129,30,10,17,091,,50,34,306,*64
$GBGSV,5,3,18,45,58,190,49,36,59,070,49,21,59,303,46,06,03,062,*62
$GBGSV,5,4,18,42,10,309,29,02,05,108,,16,00,062,,26,07,216,*6E
$GBGSV,5,5,18,56,02,096,,60,07,112,*6F
$GPGGA,070057.00,,,,,0,00,,,M,,M,,*4D
$PTNL,GGK,070057.00,010125,4742.4466866,N,01617.9727985,E,1,19,1.4,EHT669.0091,M*40
$GPGGQ,070057.00,010125,4742.4466866,N,01617.9727985,E,1,19,2.807,625.7980,M*30
$GPGFA,070057.00,9.601,20.321,1.010,0.847,7.894,2.478,,VVV*3A
$GPLLK,070057.00,010125,,M,,M,1,19,1.6,,M*01
$GNGMP,070057.00,,,,,DAAA,19,0.8,,,,*53
$GPGMP,070057.00,,,,,,05,,,,2.2,123*7D
$GLGMP,070057.00,,,,,,06,,,,,*7C
$GAGMP,070057.00,,,,,,04,,,,,*73
$GBGMP,070057.00,,,,,,04,,,,,*70
$PSSN,SNC,[0,284475000,2347]*4C
$GPZDA,070102.00,01,01,2025,,*67
$GPDTM,W84,,00.0000000,N,00.0000000,E,00.0000000,W84*5F
$GPRMC,070102.00,A,4742.4466940,N,01617.9727893,E,0.0,,010125,5.1,E,D*19
$GPGLL,4742.4466940,N,01617.9727893,E,070102.00,A,D*68
$GPGGA,070102.00,4742.4466940,N,01617.9727893,E,2,20,0.8,625.8007,M,43.2111,M,2.5,0123*42
$GNGNS,070102.00,4742.4466940,N,01617.9727893,E,DAAA,20,0.8,625.8007,43.2111,,*59
$GPGNS,070102.00,,,,,,06,,,,2.5,123*78
$GLGNS,070102.00,,,,,,06,,,,,*7D
$GAGNS,070102.00,,,,,,04,,,,,*72
$GBGNS,070102.00,,,,,,04,,,,,*71
$GPLLQ,070102.00,010125,,M,,M,1,20,2.711,,M*12
$GPVTG,,T,,M,0.01,N,0.01,K,D*26
$GPHDT,,T*1B
$GPTHS,,V*0E
$GPROT,,V*08
$PSSN,HRP,070102.00,010125,,,,,,,00,0,,*65
$PTNL,AVR,070102.00,,Yaw,,Tilt,,,,0,,00*33
$GPGSA,A,3,05,07,13,14,20,30,,,,,,,1.3,0.8,1.1*3C
$GPGSA,A,3,65,71,72,74,75,81,,,,,,,1.3,0.8,1.1*30
$GPGSA,A,3,03,05,13,24,,,,,,,,,1.3,0.8,1.1*3A
$GPGSA,A,3,21,22,36,45,,,,,,,,,1.3,0.8,1.1*3F
$GPGST,070102.00,5.375,0.974,0.739,18.592,0.953,0.767,2.420*6A
$GPGBS,070102.00,3.539,3.590,10.325,71,0.0001,16.677,6.269*50
$GPGRS,070102.00,1,-0.8,-0.1,-0.5,0.9,-0.5,0.8,,,,,,*42
$GPGRS,070102.00,1,-4.7,16.7,3.8,2.6,-4.9,-3.9,,,,,,*5C
$GPGRS,070102.00,1,-0.9,1.3,-2.0,-0.4,,,,,,,,*6A
$GPGRS,070102.00,1,0.4,0.9,1.4,-1.5,,,,,,,,*6B
$GPGSV,4,1,16,30,86,076,51,14,34,162,40,09,15,106,27,07,48,060,47*71
$GPGSV,4,2,16,13,36,289,40,20,55,229,45,05,50,291,40,15,04,295,23*73
$GPGSV,4,3,16,18,06,336,29,11,08,226,24,27,05,034,,08,07,066,*7B
$GPGSV,4,4,16,36,35,170,39,34,31,208,,49,34,195,34,61,03,257,*7A
$GLGSV,3,1,09,72,70,096,48,73,24,036,32,81,13,325,35,71,21,122,39*6E
$GLGSV,3,2,09,75,48,189,48,65,43,319,46,74,67,063,41,82,05,009,*66
$GLGSV,3,3,09,88,05,276,*5A
$GAGSV,3,1,12,03,67,303,41,31,12,034,30,08,17,287,32,13,19,312,41*66
$GAGSV,3,2,12,15,22,258,34,25,37,152,30,24,45,080,42,16,48,120,*61
$GAGSV,3,3,12,05,55,092,36,09,04,102,,02,01,188,,34,03,212,*69
$GBGSV,5,1,18,22,63,141,46,46,11,045,,19,11,133,19,09,17,060,*6E
$GBGSV,5,2,18,40,15,071,,05,21,129,30,10,17,091,,50,34,306,*64
$GBGSV,5,3,18,45,58,190,50,36,59,070,50,21,59,303,45,06,03,062,*61
$GBGSV,5,4,18,42,10,309,29,02,05,108,,16,00,062,,26,07,216,*6E
$GBGSV,5,5,18,56,02,096,,60,07,112,*6F
$GPGGA,070102.00,,,,,0,00,,,M,,M,,*4C
$PTNL,GGK,070102.00,010125,4742.4466940,N,01617.9727893,E,1,20,1.3,EHT669.0118,M*4F
$GPGGQ,070102.00,010125,4742.4466940,N,01617.9727893,E,1,20,2.711,625.8007,M*39
$GPGFA,070102.00,9.264,19.842,0.974,0.739,18.592,2.420,,VVV*0C
$GPLLK,070102.00,010125,,M,,M,1,20,1.6,,M*0A
$GNGMP,070102.00,,,,,DAAA,20,0.8,,,,*58
$GPGMP,070102.00,,,,,,06,,,,2.5,123*78
$GLGMP,070102.00,,,,,,06,,,,,*7D
$GAGMP,070102.00,,,,,,04,,,,,*72
$GBGMP,070102.00,,,,,,04,,,,,*71
$PSSN,SNC,[0,284480000,2347]*46
$GPZDA,070107.00,01,01,2025,,*62
$GPDTM,W84,,00.0000000,N,00.0000000,E,00.0000000,W84*5F
$GPRMC,070107.00,A,4742.4467002,N,01617.9727739,E,0.0,,010125,5.1,E,D*1D
$GPGLL,4742.4467002,N,01617.9727739,E,070107.00,A,D*6C
$GPGGA,070107.00,4742.4467002,N,01617.9727739,E,2,22,0.7,625.7958,M,43.2111,M,3.5,0123*46
$GNGNS,070107.00,4742.4467002,N,01617.9727739,E,DAAA,22,0.7,625.7958,43.2111,,*5C
$GPGNS,070107.00,,,,,,06,,,,3.5,123*7C
$GLGNS,070107.00,,,,,,06,,,,,*78
$GAGNS,070107.00,,,,,,06,,,,,*75
$GBGNS,070107.00,,,,,,04,,,,,*74
$GPLLQ,070107.00,010125,,M,,M,1,22,2.784,,M*19
$GPVTG,,T,,M,0.01,N,0.02,K,D*25
$GPHDT,,T*1B
$GPTHS,,V*0E
$GPROT,,V*08
$PSSN,HRP,070107.00,010125,,,,,,,00,0,,*60
$PTNL,AVR,070107.00,,Yaw,,Tilt,,,,0,,00*36
$GPGSA,A,3,05,07,13,14,20,30,,,,,,,1.3,0.7,1.0*32
$GPGSA,A,3,65,71,72,74,75,81,,,,,,,1.3,0.7,1.0*3E
$GPGSA,A,3,03,05,13,15,24,25,,,,,,,1.3,0.7,1.0*37
$GPGSA,A,3,21,22,36,45,,,,,,,,,1.3,0.7,1.0*31
$GPGST,070107.00,5.143,1.022,0.824,13.418,1.012,0.835,2.456*6C
$GPGBS,070107.00,3.560,3.642,10.472,71,0.0001,17.091,6.270*57
$GPGRS,070107.00,1,-1.6,-0.4,-0.8,1.1,-0.2,0.9,,,,,,*4F
$GPGRS,070107.00,1,-5.2,17.1,3.3,2.4,-5.4,-2.8,,,,,,*5F
$GPGRS,070107.00,1,-1.2,1.2,-1.8,0.2,-0.4,2.3,,,,,,*6C
$GPGRS,070107.00,1,0.8,0.8,1.3,-2.0,,,,,,,,*62
$GPGSV,4,1,16,30,86,076,51,14,34,162,39,09,15,106,27,07,48,060,47*7F
$GPGSV,4,2,16,13,36,289,40,20,55,229,45,05,51,291,40,15,04,295,*73
$GPGSV,4,3,16,18,06,336,31,11,08,226,26,27,05,034,,08,08,066,*7F
$GPGSV,4,4,16,36,35,170,39,34,31,208,,49,34,195,33,61,03,257,*7D
$GLGSV,3,1,09,72,70,096,47,73,24,036,34,81,13,325,36,71,21,122,37*6A
$GLGSV,3,2,09,75,48,189,48,65,43,319,45,74,67,063,41,82,05,009,*65
$GLGSV,3,3,09,88,05,276,26*5E
$GAGSV,3,1,12,03,67,303,41,31,12,034,30,08,17,288,31,13,19,312,41*6A
$GAGSV,3,2,12,15,22,258,36,25,37,152,34,24,45,080,43,16,48,120,*66
$GAGSV,3,3,12,05,54,092,36,09,04,102,,02,01,188,,34,03,212,*68
$GBGSV,5,1,18,22,63,141,47,46,11,045,,19,11,133,21,09,17,060,*64
$GBGSV,5,2,18,40,15,071,,05,21,129,30,10,17,091,,50,34,306,*64
$GBGSV,5,3,18,45,58,190,50,36,59,070,50,21,59,302,43,06,03,062,*66
$GBGSV,5,4,18,42,10,309,29,02,05,108,,16,00,062,,26,07,216,*6E
$GBGSV,5,5,18,56,02,096,,60,07,112,*6F
$GPGGA,070107.00,,,,,0,00,,,M,,M,,*49
$PTNL,GGK,070107.00,010125,4742.4467002,N,01617.9727739,E,1,22,1.3,EHT669.0069,M*4E
$GPGGQ,070107.00,010125,4742.4467002,N,01617.9727739,E,1,22,2.784,625.7958,M*3F
$GPGFA,070107.00,9.713,20.138,1.022,0.824,13.418,2.456,,VVV*03
$GPLLK,070107.00,010125,,M,,M,1,22,1.5,,M*0E
$GNGMP,070107.00,,,,,DAAA,22,0.7,,,,*50
$GPGMP,070107.00,,,,,,06,,,,3.5,123*7C
$GLGMP,070107.00,,,,,,06,,,,,*78
$GAGMP,070107.00,,,,,,06,,,,,*75
$GBGMP,070107.00,,,,,,04,,,,,*74
$PSSN,SNC,[0,284485000,2347]*43
$GPZDA,070112.00,01,01,2025,,*66
$GPDTM,W84,,00.0000000,N,00.0000000,E,00.0000000,W84*5F
$GPRMC,070112.00,A,4742.4467089,N,01617.9727625,E,0.0,,010125,5.1,E,D*16
$GPGLL,4742.4467089,N,01617.9727625,E,070112.00,A,D*67
$GPGGA,070112.00,4742.4467089,N,01617.9727625,E,2,18,0.8,625.7875,M,43.2111,M,2.0,0123*41
$GNGNS,070112.00,4742.4467089,N,01617.9727625,E,DAAA,18,0.8,625.7875,43.2111,,*5F
$GPGNS,070112.00,,,,,,05,,,,2.0,123*7F
$GLGNS,070112.00,,,,,,04,,,,,*7E
$GAGNS,070112.00,,,,,,05,,,,,*72
$GBGNS,070112.00,,,,,,04,,,,,*70
$GPLLQ,070112.00,010125,,M,,M,1,18,2.275,,M*1F
$GPVTG,,T,,M,0.01,N,0.01,K,D*26
$GPHDT,,T*1B
$GPTHS,,V*0E
$GPROT,,V*08
$PSSN,HRP,070112.00,010125,,,,,,,00,0,,*64
$PTNL,AVR,070112.00,,Yaw,,Tilt,,,,0,,00*32
$GPGSA,A,3,07,13,14,20,30,,,,,,,,1.7,0.8,1.5*39
$GPGSA,A,3,65,72,74,75,,,,,,,,,1.7,0.8,1.5*3F
$GPGSA,A,3,03,05,13,15,24,,,,,,,,1.7,0.8,1.5*3E
$GPGSA,A,3,21,22,36,45,,,,,,,,,1.7,0.8,1.5*3F
$GPGST,070112.00,3.352,0.829,0.689,5.196,0.828,0.691,2.004*50
$GPGBS,070112.00,3.902,3.462,11.124,14,0.0001,0.899,0.781*64
$GPGRS,070112.00,1,-0.8,-0.2,0.9,-0.4,0.7,,,,,,,*48
$GPGRS,070112.00,1,-6.5,3.7,1.9,-6.7,,,,,,,,*45
$GPGRS,070112.00,1,-1.9,0.9,-2.0,-1.0,-0.4,,,,,,,*63
$GPGRS,070112.00,1,1.2,0.6,0.7,-2.4,,,,,,,,*62
$GPGSV,4,1,16,30,86,076,51,14,34,162,37,09,15,106,28,07,48,060,48*71
$GPGSV,4,2,16,13,36,289,41,20,55,229,44,05,51,291,27,15,04,295,26*76
$GPGSV,4,3,16,18,06,336,32,11,08,226,26,27,05,034,,08,08,066,*7C
$GPGSV,4,4,16,36,35,170,39,34,31,208,,49,34,195,34,61,03,257,*7A
$GLGSV,3,1,09,72,70,096,46,73,24,036,33,81,13,325,25,71,21,122,34*6D
$GLGSV,3,2,09,75,48,189,47,65,43,319,44,74,67,063,43,82,05,009,*69
$GLGSV,3,3,09,88,05,276,33*5A
$GAGSV,3,1,12,03,67,303,40,31,12,034,29,08,17,288,29,13,19,312,41*6A
$GAGSV,3,2,12,15,22,258,37,25,37,152,34,24,45,080,44,16,48,120,*60
$GAGSV,3,3,12,05,54,092,36,09,04,102,,02,01,188,,34,03,212,*68
$GBGSV,5,1,18,22,63,141,47,46,11,045,,19,11,133,22,09,17,060,*67
$GBGSV,5,2,18,40,15,071,,05,21,129,30,10,17,091,,50,34,306,*64
$GBGSV,5,3,18,45,58,190,51,36,59,070,50,21,59,302,42,06,03,062,*66
$GBGSV,5,4,18,42,10,309,27,02,05,108,,16,00,062,,26,07,216,*60
$GBGSV,5,5,18,56,02,096,,60,07,112,*6F
$GPGGA,070112.00,,,,,0,00,,,M,,M,,*4D
$PTNL,GGK,070112.00,010125,4742.4467089,N,01617.9727625,E,1,18,1.7,EHT668.9986,M*48
$GPGGQ,070112.00,010125,4742.4467089,N,01617.9727625,E,1,18,2.275,625.7875,M*38
$GPGFA,070112.00,7.880,16.431,0.829,0.689,5.196,2.004,,VVV*39
$GPLLK,070112.00,010125,,M,,M,1,18,2.1,,M*04
$GNGMP,070112.00,,,,,DAAA,18,0.8,,,,*52
$GPGMP,070112.00,,,,,,05,,,,2.0,123*7F
$GLGMP,070112.00,,,,,,04,,,,,*7E
$GAGMP,070112.00,,,,,,05,,,,,*72
$GBGMP,070112.00,,,,,,04,,,,,*70
$PSSN,SNC,[0,284490000,2347]*47
$GPZDA,070117.00,01,01,2025,,*63
$GPDTM,W84,,00.0000000,N,00.0000000,E,00.0000000,W84*5F
$GPRMC,070117.00,A,4742.4467149,N,01617.9727611,E,0.0,,010125,5.1,E,D*19
$GPGLL,4742.4467149,N,01617.9727611,E,070117.00,A,D*68
$GPGGA,070117.00,4742.4467149,N,01617.9727611,E,2,19,0.8,625.7880,M,43.2111,M,2.2,0123*47
$GNGNS,070117.00,4742.4467149,N,01617.9727611,E,DAAA,19,0.8,625.7880,43.2111,,*5B
$GPGNS,070117.00,,,,,,05,,,,2.2,123*78
$GLGNS,070117.00,,,,,,05,,,,,*7A
$GAGNS,070117.00,,,,,,05,,,,,*77
$GBGNS,070117.00,,,,,,04,,,,,*75
$GPLLQ,070117.00,010125,,M,,M,1,19,2.285,,M*14
$GPVTG,,T,,M,0.00,N,0.01,K,D*27
$GPHDT,,T*1B
$GPTHS,,V*0E
$GPROT,,V*08
$PSSN,HRP,070117.00,010125,,,,,,,00,0,,*61
$PTNL,AVR,070117.00,,Yaw,,Tilt,,,,0,,00*37
$GPGSA,A,3,07,13,14,20,30,,,,,,,,1.5,0.8,1.3*3D
$GPGSA,A,3,65,72,74,75,81,,,,,,,,1.5,0.8,1.3*32
$GPGSA,A,3,03,05,13,15,24,,,,,,,,1.5,0.8,1.3*3A
$GPGSA,A,3,21,22,36,45,,,,,,,,,1.5,0.8,1.3*3B
$GPGST,070117.00,3.645,0.818,0.684,5.670,0.816,0.686,2.021*5A
$GPGBS,070117.00,3.879,3.427,10.736,14,0.0001,1.396,0.796*6A
$GPGRS,070117.00,1,-0.8,-0.2,1.4,-0.6,0.6,,,,,,,*42
$GPGRS,070117.00,1,-6.6,4.2,2.2,-7.6,-3.6,,,,,,,*4F
$GPGRS,070117.00,1,-1.9,0.8,-2.6,-1.0,-0.4,,,,,,,*61
$GPGRS,070117.00,1,0.5,0.8,0.4,-2.3,,,,,,,,*6B
$GPGSV,4,1,16,30,86,075,51,14,34,162,37,09,15,106,28,07,48,060,49*73
$GPGSV,4,2,16,13,36,289,41,20,55,229,44,05,51,291,30,15,04,295,29*7F
$GPGSV,4,3,16,18,06,336,31,11,08,226,27,27,05,034,,08,08,066,*7E
$GPGSV,4,4,16,36,35,170,39,34,31,208,,49,34,195,34,61,03,257,*7A
$GLGSV,3,1,09,72,70,096,46,73,24,036,32,81,13,325,37,71,21,122,29*63
$GLGSV,3,2,09,75,48,189,46,65,43,319,44,74,67,063,44,82,05,009,*6F
$GLGSV,3,3,09,88,05,276,24*5C
$GAGSV,3,1,12,03,67,303,40,31,12,034,28,08,17,288,26,13,19,312,41*64
$GAGSV,3,2,12,15,22,258,39,25,37,152,34,24,45,080,45,16,48,120,*6F
$GAGSV,3,3,12,05,54,092,38,09,04,102,,02,01,188,,34,03,212,*66
$GBGSV,5,1,18,22,63,141,47,46,11,045,,19,11,133,,09,17,060,*67
$GBGSV,5,2,18,40,15,071,,05,21,129,30,10,17,091,,50,34,306,*64
$GBGSV,5,3,18,45,58,190,51,36,59,070,50,21,59,302,40,06,03,062,*64
$GBGSV,5,4,18,42,10,310,34,02,05,108,,16,00,062,,26,07,216,*6A
$GBGSV,5,5,18,56,02,096,,60,07,112,*6F
$GPGGA,070117.00,,,,,0,00,,,M,,M,,*48
$PTNL,GGK,070117.00,010125,4742.4467149,N,01617.9727611,E,1,19,1.5,EHT668.9991,M*42
$GPGGQ,070117.00,010125,4742.4467149,N,01617.9727611,E,1,19,2.285,625.7880,M*33
$GPGFA,070117.00,7.774,16.568,0.818,0.684,5.670,2.021,,VVV*32
$GPLLK,070117.00,010125,,M,,M,1,19,1.8,,M*0A
$GNGMP,070117.00,,,,,DAAA,19,0.8,,,,*56
$GPGMP,070117.00,,,,,,05,,,,2.2,123*78
$GLGMP,070117.00,,,,,,05,,,,,*7A
$GAGMP,070117.00,,,,,,05,,,,,*77
$GBGMP,070117.00,,,,,,04,,,,,*75
$PSSN,SNC,[0,284495000,2347]*42
$GPZDA,070122.00,01,01,2025,,*65
$GPDTM,W84,,00.0000000,N,00.0000000,E,00.0000000,W84*5F
$GPRMC,070122.00,A,4742.4467312,N,01617.9727486,E,0.0,,010125,5.1,E,D*1F
$GPGLL,4742.4467312,N,01617.9727486,E,070122.00,A,D*6E
$GPGGA,070122.00,4742.4467312,N,01617.9727486,E,2,20,0.8,625.7980,M,43.2111,M,2.4,0123*4C
$GNGNS,070122.00,4742.4467312,N,01617.9727486,E,DAAA,20,0.8,625.7980,43.2111,,*56
$GPGNS,070122.00,,,,,,05,,,,2.4,123*78
$GLGNS,070122.00,,,,,,06,,,,,*7F
$GAGNS,070122.00,,,,,,05,,,,,*71
$GBGNS,070122.00,,,,,,04,,,,,*73
$GPLLQ,070122.00,010125,,M,,M,1,20,2.985,,M*13
$GPVTG,,T,,M,0.01,N,0.02,K,D*25
$GPHDT,,T*1B
$GPTHS,,V*0E
$GPROT,,V*08
$PSSN,HRP,070122.00,010125,,,,,,,00,0,,*67
$PTNL,AVR,070122.00,,Yaw,,Tilt,,,,0,,00*31
$GPGSA,A,3,07,13,14,20,30,,,,,,,,1.4,0.8,1.2*3D
$GPGSA,A,3,65,72,74,75,81,88,,,,,,,1.4,0.8,1.2*32
$GPGSA,A,3,03,05,13,15,24,,,,,,,,1.4,0.8,1.2*3A
$GPGSA,A,3,21,22,36,45,,,,,,,,,1.4,0.8,1.2*3B
$GPGST,070122.00,3.956,1.087,0.908,3.590,1.086,0.908,2.628*58
$GPGBS,070122.00,3.939,3.479,10.271,14,0.0001,2.447,0.811*6C
$GPGRS,070122.00,1,-0.6,-1.2,2.4,-0.4,0.3,,,,,,,*4F
$GPGRS,070122.00,1,-6.1,5.0,2.5,-9.4,-4.2,1.7,,,,,,*6D
$GPGRS,070122.00,1,-1.8,0.7,-2.7,-1.3,-0.1,,,,,,,*6E
$GPGRS,070122.00,1,-1.2,0.7,0.3,-1.9,,,,,,,,*47
$GPGSV,4,1,16,30,86,075,51,14,34,162,35,09,15,106,27,07,48,060,49*7E
$GPGSV,4,2,16,13,36,289,42,20,55,229,44,05,51,291,28,15,04,295,30*7D
$GPGSV,4,3,16,18,06,336,30,11,08,226,,27,05,034,,08,08,066,*7A
$GPGSV,4,4,16,36,35,170,39,34,31,208,,49,34,195,33,61,03,257,*7D
$GLGSV,3,1,09,72,70,096,46,73,23,036,29,81,13,325,37,71,20,122,27*61
$GLGSV,3,2,09,75,48,189,43,65,43,319,45,74,67,063,45,82,05,009,27*6F
$GLGSV,3,3,09,88,05,276,36*5F
$GAGSV,3,1,12,03,67,303,40,31,12,034,28,08,17,288,25,13,19,312,41*67
$GAGSV,3,2,12,15,22,258,39,25,37,152,34,24,45,080,46,16,48,120,*6C
$GAGSV,3,3,12,05,54,092,38,09,04,102,,02,01,188,,34,03,212,*66
$GBGSV,5,1,18,22,63,141,48,46,11,045,,19,11,133,19,09,17,060,*60
$GBGSV,5,2,18,40,15,071,,05,21,129,30,10,17,091,,50,34,306,*64
$GBGSV,5,3,18,45,58,190,52,36,59,070,50,21,59,302,38,06,03,062,*68
$GBGSV,5,4,18,42,10,310,34,02,05,108,,16,00,062,,26,07,216,*6A
$GBGSV,5,5,18,56,02,096,,60,07,112,*6F
$GPGGA,070122.00,,,,,0,00,,,M,,M,,*4E
$PTNL,GGK,070122.00,010125,4742.4467312,N,01617.9727486,E,1,20,1.4,EHT669.0091,M*4E
$GPGGQ,070122.00,010125,4742.4467312,N,01617.9727486,E,1,20,2.985,625.7980,M*35
$GPGFA,070122.00,10.334,21.548,1.087,0.908,3.590,2.628,,VVV*04
$GPLLK,070122.00,010125,,M,,M,1,20,1.7,,M*09
$GNGMP,070122.00,,,,,DAAA,20,0.8,,,,*5A
$GPGMP,070122.00,,,,,,05,,,,2.4,123*78
$GLGMP,070122.00,,,,,,06,,,,,*7F
$GAGMP,070122.00,,,,,,05,,,,,*71
$GBGMP,070122.00,,,,,,04,,,,,*73
$PSSN,SNC,[0,284500000,2347]*4F
$GPZDA,070127.00,01,01,2025,,*60
$GPDTM,W84,,00.0000000,N,00.0000000,E,00.0000000,W84*5F
$GPRMC,070127.00,A,4742.4467302,N,01617.9727460,E,0.0,,010125,5.1,E,D*13
$GPGLL,4742.4467302,N,01617.9727460,E,070127.00,A,D*62
$GPGGA,070127.00,4742.4467302,N,01617.9727460,E,2,17,0.9,625.7893,M,43.2111,M,1.8,0123*49
$GNGNS,070127.00,4742.4467302,N,01617.9727460,E,DAAA,17,0.9,625.7893,43.2111,,*5C
$GPGNS,070127.00,,,,,,04,,,,1.8,123*73
$GLGNS,070127.00,,,,,,04,,,,,*78
$GAGNS,070127.00,,,,,,05,,,,,*74
$GBGNS,070127.00,,,,,,04,,,,,*76
$GPLLQ,070127.00,010125,,M,,M,1,17,3.296,,M*1A
$GPVTG,,T,,M,0.00,N,0.01,K,D*27
$GPHDT,,T*1B
$GPTHS,,V*0E
$GPROT,,V*08
$PSSN,HRP,070127.00,010125,,,,,,,00,0,,*62
$PTNL,AVR,070127.00,,Yaw,,Tilt,,,,0,,00*34
$GPGSA,A,3,07,13,20,30,,,,,,,,,1.9,0.9,1.7*31
$GPGSA,A,3,65,72,74,75,,,,,,,,,1.9,0.9,1.7*32
$GPGSA,A,3,03,05,13,15,24,,,,,,,,1.9,0.9,1.7*33
$GPGSA,A,3,21,22,36,45,,,,,,,,,1.9,0.9,1.7*32
$GPGST,070127.00,3.986,1.592,0.632,336.100,1.478,0.866,2.815*53
$GPGBS,070127.00,10.031,5.481,20.470,75,0.0001,-9.396,6.079*75
$GPGRS,070127.00,1,-0.2,0.7,-0.4,0.5,,,,,,,,*49
$GPGRS,070127.00,1,-5.4,4.1,2.6,-9.4,,,,,,,,*40
$GPGRS,070127.00,1,-1.1,0.8,-2.4,-1.0,-0.0,,,,,,,*6C
$GPGRS,070127.00,1,-2.5,1.0,0.4,-1.0,,,,,,,,*4E
$GPGSV,4,1,16,30,86,075,51,14,34,162,32,09,15,106,26,07,48,060,49*78
$GPGSV,4,2,16,13,36,289,42,20,55,229,44,05,51,291,20,15,04,295,30*75
$GPGSV,4,3,16,18,06,336,,11,08,226,25,27,05,034,,08,08,066,*7E
$GPGSV,4,4,16,36,35,170,39,34,31,208,,49,34,195,33,61,03,257,*7D
$GLGSV,3,1,09,72,70,096,46,73,23,036,29,81,13,325,36,71,20,122,27*60
$GLGSV,3,2,09,75,48,189,41,65,43,319,46,74,67,063,45,82,05,009,28*61
$GLGSV,3,3,09,88,05,276,37*5E
$GAGSV,3,1,12,03,67,303,40,31,12,034,26,08,17,288,24,13,19,312,41*68
$GAGSV,3,2,12,15,22,258,38,25,37,152,33,24,45,080,46,16,48,120,*6A
$GAGSV,3,3,12,05,54,093,39,09,04,102,,02,01,188,,34,03,212,*66
$GBGSV,5,1,18,22,63,141,49,46,11,045,,42,10,310,34,09,17,060,31*60
$GBGSV,5,2,18,19,11,133,21,40,15,071,,10,17,091,,05,21,129,30*69
$GBGSV,5,3,18,50,34,306,,45,58,190,52,36,59,070,50,21,59,302,38*6E
$GBGSV,5,4,18,06,03,062,,26,07,216,,16,00,062,,02,05,108,*69
$GBGSV,5,5,18,56,02,096,,60,07,112,*6F
$GPGGA,070127.00,,,,,0,00,,,M,,M,,*4B
$PTNL,GGK,070127.00,010125,4742.4467302,N,01617.9727460,E,1,17,1.9,EHT669.0004,M*47
$GPGGQ,070127.00,010125,4742.4467302,N,01617.9727460,E,1,17,3.296,625.7893,M*36
$GPGFA,070127.00,15.138,23.087,1.592,0.632,336.100,2.815,,VVV*01
$GPLLK,070127.00,010125,,M,,M,1,17,2.4,,M*08
$GNGMP,070127.00,,,,,DAAA,17,0.9,,,,*5A
$GPGMP,070127.00,,,,,,04,,,,1.8,123*73
$GLGMP,070127.00,,,,,,04,,,,,*78
$GAGMP,070127.00,,,,,,05,,,,,*74
$GBGMP,070127.00,,,,,,04,,,,,*76
$PSSN,SNC,[0,284505000,2347]*4A
$GPZDA,070132.00,01,01,2025,,*64
$GPDTM,W84,,00.0000000,N,00.0000000,E,00.0000000,W84*5F
$GPRMC,070132.00,A,4742.4467266,N,01617.9727464,E,0.0,,010125,5.1,E,D*10
$GPGLL,4742.4467266,N,01617.9727464,E,070132.00,A,D*61
$GPGGA,070132.00,4742.4467266,N,01617.9727464,E,2,20,0.8,625.7850,M,43.2111,M,2.2,0123*49
$GNGNS,070132.00,4742.4467266,N,01617.9727464,E,DAAA,20,0.8,625.7850,43.2111,,*55
$GPGNS,070132.00,,,,,,05,,,,2.2,123*7F
$GLGNS,070132.00,,,,,,06,,,,,*7E
$GAGNS,070132.00,,,,,,05,,,,,*70
$GBGNS,070132.00,,,,,,04,,,,,*72
$GPLLQ,070132.00,010125,,M,,M,1,20,3.665,,M*12
