$GPZDA,205942.00,01,01,2025,,*6B
$GPDTM,W84,,00.0000000,N,00.0000000,E,00.0000000,W84*5F
$GPRMC,205942.00,A,4742.4465180,N,01617.9734079,E,0.0,,010125,5.1,E,D*1C
$GPGLL,4742.4465180,N,01617.9734079,E,205942.00,A,D*6D
$GPGGA,205942.00,4742.4465180,N,01617.9734079,E,2,18,0.7,625.4309,M,43.2111,M,1.8,0123*4C
$GNGNS,205942.00,4742.4465180,N,01617.9734079,E,DAAA,18,0.7,625.4309,43.2111,,*59
$GPGNS,205942.00,,,,,,05,,,,1.8,123*79
$GLGNS,205942.00,,,,,,04,,,,,*73
$GAGNS,205942.00,,,,,,03,,,,,*79
$GBGNS,205942.00,,,,,,06,,,,,*7F
$GPLLQ,205942.00,010125,,M,,M,1,18,3.621,,M*16
$GPVTG,,T,,M,0.00,N,0.01,K,D*27
$GPHDT,,T*1B
$GPTHS,,V*0E
$GPROT,,V*08
$PSSN,HRP,205942.00,010125,,,,,,,00,0,,*69
$PTNL,AVR,205942.00,,Yaw,,Tilt,,,,0,,00*3F
$GPGSA,A,3,08,10,21,23,27,,,,,,,,1.3,0.7,1.1*39
$GPGSA,A,3,68,69,74,75,,,,,,,,,1.3,0.7,1.1*37
$GPGSA,A,3,13,26,31,,,,,,,,,,1.3,0.7,1.1*33
$GPGSA,A,3,14,27,28,33,41,42,,,,,,,1.3,0.7,1.1*3E
$GPGST,205942.00,4.470,2.021,0.790,351.980,2.004,0.831,2.898*56
$GPGBS,205942.00,9.482,3.547,13.054,23,0.0001,-2.213,0.902*42
$GPGRS,205942.00,1,0.1,0.6,-0.1,-2.2,0.3,,,,,,,*6D
$GPGRS,205942.00,1,6.6,0.5,-7.1,-6.3,,,,,,,,*40
$GPGRS,205942.00,1,0.2,-2.1,-0.2,,,,,,,,,*6B
$GPGRS,205942.00,1,-0.8,-1.2,-0.3,-1.1,-1.1,8.4,,,,,,*6F
$GPGSV,4,1,14,27,78,163,47,02,15,271,,16,23,196,34,32,17,138,34*73
$GPGSV,4,2,14,23,36,051,37,21,34,275,41,08,61,296,48,10,73,101,53*72
$GPGSV,4,3,14,18,07,079,,15,03,026,,36,35,170,40,34,31,208,*76
$GPGSV,4,4,14,49,34,195,35,61,03,257,*79
$GLGSV,3,1,10,68,50,104,44,73,10,225,28,75,22,325,38,69,22,159,43*6A
$GLGSV,3,2,10,82,13,091,,67,31,038,33,74,29,267,37,84,47,308,34*61
$GLGSV,3,3,10,83,50,067,33,85,01,286,*6B
$GAGSV,3,1,11,14,78,243,,07,14,137,,03,12,034,25,31,23,316,37*61
$GAGSV,3,2,11,33,20,264,32,21,25,197,27,08,26,084,35,23,46,258,*6E
$GAGSV,3,3,11,13,51,064,47,26,68,287,39,15,01,077,*57
$GBGSV,5,1,19,28,82,060,50,05,23,128,,08,18,041,23,60,11,108,*61
$GBGSV,5,2,19,41,27,173,41,58,19,260,,46,18,278,,13,26,045,26*60
$GBGSV,5,3,19,43,20,107,31,42,26,045,37,57,31,235,,27,46,295,47*6D
$GBGSV,5,4,19,14,45,070,38,33,53,112,49,02,08,105,,50,06,032,*6F
$GBGSV,5,5,19,38,05,044,,37,06,227,,36,08,327,34*54
$GPGGA,205942.00,,,,,0,00,,,M,,M,,*40
$PTNL,GGK,205942.00,010125,4742.4465180,N,01617.9734079,E,1,18,1.3,EHT668.6419,M*42
$GPGGQ,205942.00,010125,4742.4465180,N,01617.9734079,E,1,18,3.621,625.4309,M*35
$GPGFA,205942.00,19.214,23.766,2.021,0.790,351.980,2.898,,VVV*00
$GPLLK,205942.00,010125,,M,,M,1,18,1.5,,M*0E
$GNGMP,205942.00,,,,,DAAA,18,0.7,,,,*50
$GPGMP,205942.00,,,,,,05,,,,1.8,123*79
$GLGMP,205942.00,,,,,,04,,,,,*73
$GAGMP,205942.00,,,,,,03,,,,,*79
$GBGMP,205942.00,,,,,,06,,,,,*7F
$PSSN,SNC,[0,334800000,2347]*48
$GPZDA,205947.00,01,01,2025,,*6E
$GPDTM,W84,,00.0000000,N,00.0000000,E,00.0000000,W84*5F
$GPRMC,205947.00,A,4742.4465208,N,01617.9734123,E,0.0,,010125,5.1,E,D*14
$GPGLL,4742.4465208,N,01617.9734123,E,205947.00,A,D*65
$GPGGA,205947.00,4742.4465208,N,01617.9734123,E,2,21,0.6,625.4177,M,43.2111,M,2.7,0123*48
$GNGNS,205947.00,4742.4465208,N,01617.9734123,E,DAAA,21,0.6,625.4177,43.2111,,*51
$GPGNS,205947.00,,,,,,06,,,,2.7,123*73
$GLGNS,205947.00,,,,,,05,,,,,*77
$GAGNS,205947.00,,,,,,04,,,,,*7B
$GBGNS,205947.00,,,,,,06,,,,,*7A
$GPLLQ,205947.00,010125,,M,,M,1,21,1.848,,M*1A
$GPVTG,,T,,M,0.00,N,0.01,K,D*27
$GPHDT,,T*1B
$GPTHS,,V*0E
$GPROT,,V*08
$PSSN,HRP,205947.00,010125,,,,,,,00,0,,*6C
$PTNL,AVR,205947.00,,Yaw,,Tilt,,,,0,,00*3A
$GPGSA,A,3,08,10,16,21,23,27,,,,,,,1.2,0.6,1.0*3F
$GPGSA,A,3,67,68,69,74,75,,,,,,,,1.2,0.6,1.0*37
$GPGSA,A,3,08,13,26,31,,,,,,,,,1.2,0.6,1.0*3A
$GPGSA,A,3,14,27,28,33,41,42,,,,,,,1.2,0.6,1.0*3F
$GPGST,205947.00,4.283,0.824,0.687,354.757,0.823,0.688,1.505*59
$GPGBS,205947.00,4.176,3.491,7.002,23,0.0001,-1.327,0.912*7C
$GPGRS,205947.00,1,0.3,0.7,-0.6,-0.3,-1.3,0.4,,,,,,*69
$GPGRS,205947.00,1,4.7,2.9,0.5,-6.5,-6.6,,,,,,,*63
$GPGRS,205947.00,1,6.5,0.1,-1.9,-0.1,,,,,,,,*48
$GPGRS,205947.00,1,-1.8,-0.9,-0.3,-0.7,-0.2,9.3,,,,,,*62
$GPGSV,4,1,14,27,78,163,47,02,15,271,26,16,23,196,36,32,17,138,32*73
$GPGSV,4,2,14,23,36,051,38,21,34,275,41,08,61,296,47,10,73,101,53*72
$GPGSV,4,3,14,18,07,079,,15,03,026,,36,35,170,40,34,31,208,*76
$GPGSV,4,4,14,49,34,195,35,61,03,257,*79
$GLGSV,3,1,10,68,50,104,45,73,10,225,26,75,22,325,37,69,22,159,44*6D
$GLGSV,3,2,10,82,13,091,23,67,31,038,36,74,29,267,38,84,47,308,34*6A
$GLGSV,3,3,10,83,50,067,31,85,01,286,*69
$GAGSV,3,1,11,14,78,242,,07,14,137,,03,12,034,25,31,23,316,38*6F
$GAGSV,3,2,11,33,20,264,31,21,25,197,28,08,26,084,36,23,46,258,*61
$GAGSV,3,3,11,13,51,064,47,26,68,287,38,15,01,077,*56
$GBGSV,5,1,19,28,82,060,50,05,23,128,,08,18,041,23,60,11,108,*61
$GBGSV,5,2,19,41,27,173,41,58,19,260,,46,18,278,,42,26,045,38*6B
$GBGSV,5,3,19,43,20,107,31,13,26,045,27,57,31,235,,27,46,295,47*68
$GBGSV,5,4,19,14,45,070,37,33,53,112,49,02,08,105,,50,06,032,*60
$GBGSV,5,5,19,38,05,044,,36,08,327,33,37,06,227,*53
$GPGGA,205947.00,,,,,0,00,,,M,,M,,*45
$PTNL,GGK,205947.00,010125,4742.4465208,N,01617.9734123,E,1,21,1.2,EHT668.6288,M*4F
$GPGGQ,205947.00,010125,4742.4465208,N,01617.9734123,E,1,21,1.848,625.4177,M*3F
$GPGFA,205947.00,7.832,12.340,0.824,0.687,354.757,1.505,,VVV*35
$GPLLK,205947.00,010125,,M,,M,1,21,1.4,,M*00
$GNGMP,205947.00,,,,,DAAA,21,0.6,,,,*5E
$GPGMP,205947.00,,,,,,06,,,,2.7,123*73
$GLGMP,205947.00,,,,,,05,,,,,*77
$GAGMP,205947.00,,,,,,04,,,,,*7B
$GBGMP,205947.00,,,,,,06,,,,,*7A
$PSSN,SNC,[0,334805000,2347]*4D
$GPZDA,205952.00,01,01,2025,,*6A
$GPDTM,W84,,00.0000000,N,00.0000000,E,00.0000000,W84*5F
$GPRMC,205952.00,A,4742.4465225,N,01617.9734098,E,0.0,,010125,5.1,E,D*1E
$GPGLL,4742.4465225,N,01617.9734098,E,205952.00,A,D*6F
$GPGGA,205952.00,4742.4465225,N,01617.9734098,E,2,21,0.6,625.3935,M,43.2111,M,2.3,0123*4F
$GNGNS,205952.00,4742.4465225,N,01617.9734098,E,DAAA,21,0.6,625.3935,43.2111,,*52
$GPGNS,205952.00,,,,,,06,,,,2.3,123*73
$GLGNS,205952.00,,,,,,05,,,,,*73
$GAGNS,205952.00,,,,,,04,,,,,*7F
$GBGNS,205952.00,,,,,,06,,,,,*7E
$GPLLQ,205952.00,010125,,M,,M,1,21,1.753,,M*1B
$GPVTG,,T,,M,0.01,N,0.01,K,D*26
$GPHDT,,T*1B
$GPTHS,,V*0E
$GPROT,,V*08
$PSSN,HRP,205952.00,010125,,,,,,,00,0,,*68
$PTNL,AVR,205952.00,,Yaw,,Tilt,,,,0,,00*3E
$GPGSA,A,3,08,10,16,21,23,27,,,,,,,1.2,0.6,1.0*3F
$GPGSA,A,3,68,69,74,75,83,,,,,,,,1.2,0.6,1.0*3D
$GPGSA,A,3,08,13,26,31,,,,,,,,,1.2,0.6,1.0*3A
$GPGSA,A,3,14,27,28,33,41,42,,,,,,,1.2,0.6,1.0*3F
$GPGST,205952.00,4.675,0.783,0.652,357.565,0.783,0.652,1.426*58
$GPGBS,205952.00,4.137,3.491,7.241,83,0.0001,-7.507,6.092*77
$GPGRS,205952.00,1,-0.1,0.5,-0.9,-0.2,-1.0,0.6,,,,,,*4F
$GPGRS,205952.00,1,3.5,0.3,-5.2,-6.5,-7.5,,,,,,,*47
$GPGRS,205952.00,1,6.7,-0.0,-1.7,-0.3,,,,,,,,*6E
$GPGRS,205952.00,1,-5.6,-1.3,-0.5,-1.1,0.1,9.2,,,,,,*49
$GPGSV,4,1,14,27,78,163,47,02,15,271,29,16,23,196,37,32,17,138,30*7F
$GPGSV,4,2,14,23,36,051,39,21,34,275,41,08,61,296,47,10,73,101,53*73
$GPGSV,4,3,14,18,07,079,,15,03,026,,36,35,170,40,34,31,208,*76
$GPGSV,4,4,14,49,34,195,35,61,03,257,*79
$GLGSV,3,1,10,68,50,104,44,73,10,225,26,75,22,325,37,69,22,159,45*6D
$GLGSV,3,2,10,82,13,091,22,67,31,038,34,74,29,267,38,84,47,308,33*6E
$GLGSV,3,3,10,83,50,067,26,85,01,286,*6F
$GAGSV,3,1,11,14,78,242,,07,14,136,,03,12,034,28,31,23,316,39*62
$GAGSV,3,2,11,33,20,264,29,21,25,197,29,08,26,084,36,23,46,257,*66
$GAGSV,3,3,11,13,51,064,47,26,68,287,37,15,01,077,*59
$GBGSV,5,1,19,28,82,060,49,05,23,128,,08,18,041,23,60,11,108,*69
$GBGSV,5,2,19,41,27,173,41,58,19,260,,46,18,278,,13,26,045,28*6E
$GBGSV,5,3,19,43,20,107,29,42,26,045,37,57,31,235,,27,46,295,47*64
$GBGSV,5,4,19,14,45,070,35,33,53,112,49,02,08,105,,50,06,032,*62
$GBGSV,5,5,19,38,05,044,,37,06,227,,36,08,327,32*52
$GPGGA,205952.00,,,,,0,00,,,M,,M,,*41
$PTNL,GGK,205952.00,010125,4742.4465225,N,01617.9734098,E,1,21,1.2,EHT668.6045,M*46
$GPGGQ,205952.00,010125,4742.4465225,N,01617.9734098,E,1,21,1.753,625.3935,M*39
$GPGFA,205952.00,7.448,11.693,0.783,0.652,357.565,1.426,,VVV*32
$GPLLK,205952.00,010125,,M,,M,1,21,1.4,,M*04
$GNGMP,205952.00,,,,,DAAA,21,0.6,,,,*5A
$GPGMP,205952.00,,,,,,06,,,,2.3,123*73
$GLGMP,205952.00,,,,,,05,,,,,*73
$GAGMP,205952.00,,,,,,04,,,,,*7F
$GBGMP,205952.00,,,,,,06,,,,,*7E
$PSSN,SNC,[0,334810000,2347]*49
$GPZDA,205957.00,01,01,2025,,*6F
$GPDTM,W84,,00.0000000,N,00.0000000,E,00.0000000,W84*5F
$GPRMC,205957.00,A,4742.4465231,N,01617.9734106,E,0.0,,010125,5.1,E,D*18
$GPGLL,4742.4465231,N,01617.9734106,E,205957.00,A,D*69
$GPGGA,205957.00,4742.4465231,N,01617.9734106,E,2,19,0.6,625.3750,M,43.2111,M,3.3,0123*4E
$GNGNS,205957.00,4742.4465231,N,01617.9734106,E,DAAA,19,0.6,625.3750,43.2111,,*52
$GPGNS,205957.00,,,,,,06,,,,3.3,123*77
$GLGNS,205957.00,,,,,,04,,,,,*77
$GAGNS,205957.00,,,,,,04,,,,,*7A
$GBGNS,205957.00,,,,,,05,,,,,*78
$GPLLQ,205957.00,010125,,M,,M,1,19,1.955,,M*1D
$GPVTG,,T,,M,0.00,N,0.01,K,D*27
$GPHDT,,T*1B
$GPTHS,,V*0E
$GPROT,,V*08
$PSSN,HRP,205957.00,010125,,,,,,,00,0,,*6D
$PTNL,AVR,205957.00,,Yaw,,Tilt,,,,0,,00*3B
$GPGSA,A,3,08,10,16,21,23,27,,,,,,,1.2,0.6,1.0*3F
$GPGSA,A,3,68,69,74,75,,,,,,,,,1.2,0.6,1.0*36
$GPGSA,A,3,08,13,26,31,,,,,,,,,1.2,0.6,1.0*3A
$GPGSA,A,3,27,28,33,41,42,,,,,,,,1.2,0.6,1.0*3A
$GPGST,205957.00,4.502,0.876,0.720,1.479,0.876,0.720,1.593*5D
$GPGBS,205957.00,4.222,3.573,7.360,23,0.0001,-1.679,0.946*7A
$GPGRS,205957.00,1,0.3,0.3,-0.6,-0.3,-1.7,0.7,,,,,,*6B
$GPGRS,205957.00,1,5.4,0.6,-7.2,-5.6,,,,,,,,*43
$GPGRS,205957.00,1,6.2,-0.2,-2.0,-0.7,,,,,,,,*6C
$GPGRS,205957.00,1,-2.0,-0.6,-1.4,0.1,8.8,,,,,,,*41
$GPGSV,4,1,14,27,78,163,47,02,15,271,31,16,23,196,39,32,17,138,28*71
$GPGSV,4,2,14,23,36,051,38,21,34,275,42,08,61,296,47,10,73,101,53*71
$GPGSV,4,3,14,18,07,079,,15,03,026,,36,35,170,40,34,31,208,*76
$GPGSV,4,4,14,49,34,195,35,61,03,257,*79
$GLGSV,3,1,10,68,50,104,42,73,10,225,27,75,22,325,38,69,22,159,46*66
$GLGSV,3,2,10,82,13,091,21,67,31,038,32,74,29,267,37,84,47,308,32*65
$GLGSV,3,3,10,83,50,067,39,85,01,286,*61
$GAGSV,3,1,11,14,78,242,,07,14,136,,03,12,034,27,31,23,316,41*62
$GAGSV,3,2,11,33,20,264,23,21,25,197,30,08,26,084,37,23,46,257,*65
$GAGSV,3,3,11,13,51,064,47,26,68,287,37,15,01,077,*59
$GBGSV,5,1,19,28,82,060,49,05,23,128,,08,18,041,23,60,11,108,*69
$GBGSV,5,2,19,41,27,173,40,58,19,260,,46,18,278,,13,26,045,28*6F
$GBGSV,5,3,19,43,20,107,26,42,26,045,37,57,31,235,,27,46,295,47*6B
$GBGSV,5,4,19,14,45,070,34,33,53,112,50,02,08,105,,50,06,032,*6B
$GBGSV,5,5,19,38,05,044,,37,06,227,,36,08,327,31*51
$GPGGA,205957.00,,,,,0,00,,,M,,M,,*44
$PTNL,GGK,205957.00,010125,4742.4465231,N,01617.9734106,E,1,19,1.2,EHT668.5861,M*46
$GPGGQ,205957.00,010125,4742.4465231,N,01617.9734106,E,1,19,1.955,625.3750,M*31
$GPGFA,205957.00,8.326,13.062,0.876,0.720,1.479,1.593,,VVV*3F
$GPLLK,205957.00,010125,,M,,M,1,19,1.4,,M*0A
$GNGMP,205957.00,,,,,DAAA,19,0.6,,,,*54
$GPGMP,205957.00,,,,,,06,,,,3.3,123*77
$GLGMP,205957.00,,,,,,04,,,,,*77
$GAGMP,205957.00,,,,,,04,,,,,*7A
$GBGMP,205957.00,,,,,,05,,,,,*78
$PSSN,SNC,[0,334815000,2347]*4C
$GPZDA,210002.00,01,01,2025,,*62
$GPDTM,W84,,00.0000000,N,00.0000000,E,00.0000000,W84*5F
$GPRMC,210002.00,A,4742.4465282,N,01617.9734208,E,0.0,,010125,5.1,E,D*10
$GPGLL,4742.4465282,N,01617.9734208,E,210002.00,A,D*61
$GPGGA,210002.00,4742.4465282,N,01617.9734208,E,2,22,0.6,625.3431,M,43.2111,M,1.7,0123*4C
$GNGNS,210002.00,4742.4465282,N,01617.9734208,E,DAAA,22,0.6,625.3431,43.2111,,*56
$GPGNS,210002.00,,,,,,06,,,,1.7,123*7C
$GLGNS,210002.00,,,,,,06,,,,,*78
$GAGNS,210002.00,,,,,,04,,,,,*77
$GBGNS,210002.00,,,,,,06,,,,,*76
$GPLLQ,210002.00,010125,,M,,M,1,22,2.236,,M*15
$GPVTG,,T,,M,0.01,N,0.02,K,D*25
$GPHDT,,T*1B
$GPTHS,,V*0E
$GPROT,,V*08
$PSSN,HRP,210002.00,010125,,,,,,,00,0,,*60
$PTNL,AVR,210002.00,,Yaw,,Tilt,,,,0,,00*36
$GPGSA,A,3,08,10,16,21,23,27,,,,,,,1.2,0.6,1.0*3F
$GPGSA,A,3,67,68,69,74,75,83,,,,,,,1.2,0.6,1.0*3C
$GPGSA,A,3,08,13,26,31,,,,,,,,,1.2,0.6,1.0*3A
$GPGSA,A,3,14,27,28,33,41,42,,,,,,,1.2,0.6,1.0*3F
$GPGST,210002.00,5.175,0.998,0.828,358.970,0.998,0.828,1.822*59
$GPGBS,210002.00,4.078,3.441,6.919,23,0.0001,-2.012,0.904*71
$GPGRS,210002.00,1,0.9,0.3,-0.7,0.0,-2.0,0.4,,,,,,*44
$GPGRS,210002.00,1,3.2,6.5,0.9,-7.9,-6.6,-7.6,,,,,,*66
$GPGRS,210002.00,1,5.6,-0.6,-1.4,-0.7,,,,,,,,*65
$GPGRS,210002.00,1,-7.4,-1.9,-0.9,-1.6,-1.3,9.1,,,,,,*6D
$GPGSV,4,1,14,27,78,163,48,02,15,272,34,16,23,196,41,32,17,138,*7D
$GPGSV,4,2,14,23,36,051,36,21,34,275,41,08,61,296,47,10,73,101,53*7C
$GPGSV,4,3,14,18,07,079,,15,03,026,,36,35,170,40,34,31,208,*76
$GPGSV,4,4,14,49,34,195,35,61,03,257,*79
$GLGSV,3,1,10,68,50,104,41,73,10,225,25,75,22,325,40,69,23,159,47*68
$GLGSV,3,2,10,82,13,092,,67,31,038,37,74,29,267,37,84,47,308,30*62
$GLGSV,3,3,10,83,50,067,39,85,01,286,*61
$GAGSV,3,1,11,14,78,242,,07,14,136,,03,12,034,25,31,23,316,42*63
$GAGSV,3,2,11,33,20,264,26,21,25,197,31,08,26,084,37,23,46,257,*61
$GAGSV,3,3,11,13,51,064,46,26,68,287,36,15,01,077,*59
$GBGSV,5,1,19,28,82,061,49,05,23,128,,08,18,041,23,60,11,108,*68
$GBGSV,5,2,19,41,27,173,39,58,19,260,,46,18,278,,13,26,045,29*60
$GBGSV,5,3,19,43,20,107,21,42,26,045,36,57,31,235,,27,46,295,47*6D
$GBGSV,5,4,19,14,45,070,35,33,53,112,50,02,08,105,,50,06,032,*6A
$GBGSV,5,5,19,38,05,044,,37,06,227,,36,08,327,31*51
$GPGGA,210002.00,,,,,0,00,,,M,,M,,*49
$PTNL,GGK,210002.00,010125,4742.4465282,N,01617.9734208,E,1,22,1.2,EHT668.5542,M*4A
$GPGGQ,210002.00,010125,4742.4465282,N,01617.9734208,E,1,22,2.236,625.3431,M*38
$GPGFA,210002.00,9.489,14.937,0.998,0.828,358.970,1.822,,VVV*35
$GPLLK,210002.00,010125,,M,,M,1,22,1.4,,M*0F
$GNGMP,210002.00,,,,,DAAA,22,0.6,,,,*51
$GPGMP,210002.00,,,,,,06,,,,1.7,123*7C
$GLGMP,210002.00,,,,,,06,,,,,*78
$GAGMP,210002.00,,,,,,04,,,,,*77
$GBGMP,210002.00,,,,,,06,,,,,*76
$PSSN,SNC,[0,334820000,2347]*4A
$GPZDA,210007.00,01,01,2025,,*67
$GPDTM,W84,,00.0000000,N,00.0000000,E,00.0000000,W84*5F
$GPRMC,210007.00,A,4742.4465219,N,01617.9734244,E,0.0,,010125,5.1,E,D*1F
$GPGLL,4742.4465219,N,01617.9734244,E,210007.00,A,D*6E
$GPGGA,210007.00,4742.4465219,N,01617.9734244,E,2,21,0.6,625.3226,M,43.2111,M,2.8,0123*4C
$GNGNS,210007.00,4742.4465219,N,01617.9734244,E,DAAA,21,0.6,625.3226,43.2111,,*5A
$GPGNS,210007.00,,,,,,05,,,,2.8,123*76
$GLGNS,210007.00,,,,,,06,,,,,*7D
$GAGNS,210007.00,,,,,,04,,,,,*72
$GBGNS,210007.00,,,,,,06,,,,,*73
$GPLLQ,210007.00,010125,,M,,M,1,21,4.155,,M*13
$GPVTG,,T,,M,0.01,N,0.02,K,D*25
$GPHDT,,T*1B
$GPTHS,,V*0E
$GPROT,,V*08
$PSSN,HRP,210007.00,010125,,,,,,,00,0,,*65
$PTNL,AVR,210007.00,,Yaw,,Tilt,,,,0,,00*33
$GPGSA,A,3,08,10,16,21,27,,,,,,,,1.2,0.6,1.0*3E
$GPGSA,A,3,67,68,69,74,75,83,,,,,,,1.2,0.6,1.0*3C
$GPGSA,A,3,08,13,26,31,,,,,,,,,1.2,0.6,1.0*3A
$GPGSA,A,3,14,27,28,33,41,42,,,,,,,1.2,0.6,1.0*3F
$GPGST,210007.00,4.743,2.277,0.777,43.288,1.741,1.660,3.388*67
$GPGBS,210007.00,6.770,8.213,14.844,16,0.0001,-1.147,0.880*40
$GPGRS,210007.00,1,0.8,0.3,-1.1,-0.4,0.2,,,,,,,*69
$GPGRS,210007.00,1,4.4,6.6,0.6,-7.9,-5.7,-7.1,,,,,,*6B
$GPGRS,210007.00,1,4.4,-1.1,-1.4,-1.0,,,,,,,,*63
$GPGRS,210007.00,1,-2.7,-1.6,-1.3,-2.1,-1.9,7.8,,,,,,*63
$GPGSV,4,1,14,27,77,163,50,02,15,272,36,16,23,196,42,32,17,138,*7A
$GPGSV,4,2,14,23,36,051,34,21,34,275,41,08,61,296,48,10,73,100,52*71
$GPGSV,4,3,14,18,07,079,,15,03,026,,36,35,170,40,34,31,208,*76
$GPGSV,4,4,14,49,34,195,35,61,03,257,*79
$GLGSV,3,1,10,68,50,103,40,73,10,225,26,75,22,325,40,69,23,159,47*6D
$GLGSV,3,2,10,82,13,092,20,67,31,038,40,74,29,267,37,84,47,308,27*66
$GLGSV,3,3,10,83,50,067,38,85,01,286,*60
$GAGSV,3,1,11,14,78,241,,07,14,136,,03,12,034,21,31,23,316,42*64
$GAGSV,3,2,11,33,20,264,21,21,25,197,32,08,26,084,36,23,46,257,*64
$GAGSV,3,3,11,13,51,064,46,26,68,287,35,15,01,077,*5A
$GBGSV,5,1,19,28,82,061,49,05,23,128,,08,18,041,24,60,11,108,*6F
$GBGSV,5,2,19,41,27,173,37,58,19,260,,46,18,278,,13,26,045,30*66
$GBGSV,5,3,19,43,20,107,30,42,26,045,36,57,31,235,,27,46,295,47*6D
$GBGSV,5,4,19,14,45,070,39,33,53,112,51,02,08,105,,50,06,032,*67
$GBGSV,5,5,19,38,04,044,,37,06,227,,36,08,327,30*51
$GPGGA,210007.00,,,,,0,00,,,M,,M,,*4C
$PTNL,GGK,210007.00,010125,4742.4465219,N,01617.9734244,E,1,21,1.2,EHT668.5336,M*43
$GPGGQ,210007.00,010125,4742.4465219,N,01617.9734244,E,1,21,4.155,625.3226,M*34
$GPGFA,210007.00,21.646,27.781,2.277,0.777,43.288,3.388,,VVV*39
$GPLLK,210007.00,010125,,M,,M,1,21,1.4,,M*09
$GNGMP,210007.00,,,,,DAAA,21,0.6,,,,*57
$GPGMP,210007.00,,,,,,05,,,,2.8,123*76
$GLGMP,210007.00,,,,,,06,,,,,*7D
$GAGMP,210007.00,,,,,,04,,,,,*72
$GBGMP,210007.00,,,,,,06,,,,,*73
$PSSN,SNC,[0,334825000,2347]*4F
$GPZDA,210012.00,01,01,2025,,*63
$GPDTM,W84,,00.0000000,N,00.0000000,E,00.0000000,W84*5F
$GPRMC,210012.00,A,4742.4465151,N,01617.9734197,E,0.0,,010125,5.1,E,D*19
$GPGLL,4742.4465151,N,01617.9734197,E,210012.00,A,D*68
$GPGGA,210012.00,4742.4465151,N,01617.9734197,E,2,21,0.6,625.2996,M,43.2111,M,2.2,0123*41
$GNGNS,210012.00,4742.4465151,N,01617.9734197,E,DAAA,21,0.6,625.2996,43.2111,,*5D
$GPGNS,210012.00,,,,,,05,,,,2.2,123*78
$GLGNS,210012.00,,,,,,06,,,,,*79
$GAGNS,210012.00,,,,,,04,,,,,*76
$GBGNS,210012.00,,,,,,06,,,,,*77
$GPLLQ,210012.00,010125,,M,,M,1,21,4.224,,M*12
$GPVTG,,T,,M,0.01,N,0.01,K,D*26
$GPHDT,,T*1B
$GPTHS,,V*0E
$GPROT,,V*08
$PSSN,HRP,210012.00,010125,,,,,,,00,0,,*61
$PTNL,AVR,210012.00,,Yaw,,Tilt,,,,0,,00*37
$GPGSA,A,3,08,10,16,21,27,,,,,,,,1.2,0.6,1.0*3E
$GPGSA,A,3,67,68,69,74,75,83,,,,,,,1.2,0.6,1.0*3C
$GPGSA,A,3,08,13,26,31,,,,,,,,,1.2,0.6,1.0*3A
$GPGSA,A,3,14,27,28,33,41,42,,,,,,,1.2,0.6,1.0*3F
$GPGST,210012.00,4.069,2.303,0.789,42.833,1.772,1.669,3.452*6D
$GPGBS,210012.00,7.049,7.956,15.052,21,0.0001,-1.144,0.723*42
$GPGRS,210012.00,1,0.9,0.3,-1.3,-1.1,0.5,,,,,,,*6D
$GPGRS,210012.00,1,4.0,4.4,-0.3,-7.4,-3.8,-5.5,,,,,,*41
$GPGRS,210012.00,1,3.3,-0.9,-0.8,-1.3,,,,,,,,*60
$GPGRS,210012.00,1,3.0,-1.3,-1.8,-2.1,-2.9,7.1,,,,,,*48
$GPGSV,4,1,14,27,77,163,50,02,15,272,37,16,23,196,42,32,17,138,25*7C
$GPGSV,4,2,14,23,36,051,33,21,34,275,40,08,61,296,48,10,73,100,52*77
$GPGSV,4,3,14,18,07,079,,15,03,026,,36,35,170,40,34,31,208,*76
$GPGSV,4,4,14,49,34,195,35,61,03,257,*79
$GLGSV,3,1,10,68,50,103,42,73,10,225,26,75,22,325,42,69,23,159,47*6D
$GLGSV,3,2,10,82,13,092,,67,31,038,40,74,29,267,39,84,47,308,27*6A
$GLGSV,3,3,10,83,50,067,38,85,01,286,*60
$GAGSV,3,1,11,14,78,241,,07,14,136,,03,12,034,26,31,23,316,43*62
$GAGSV,3,2,11,33,20,264,18,21,25,197,32,08,26,084,36,23,46,257,*6E
$GAGSV,3,3,11,13,51,064,45,26,68,287,36,15,01,077,*5A
$GBGSV,5,1,19,28,82,061,48,05,23,128,,08,18,041,22,60,11,108,*68
$GBGSV,5,2,19,41,27,173,36,58,19,260,,46,18,278,,13,26,045,32*65
$GBGSV,5,3,19,43,20,107,30,42,26,045,35,57,31,235,,27,46,295,47*6E
$GBGSV,5,4,19,14,45,070,41,33,53,112,50,02,08,105,,50,06,032,*69
$GBGSV,5,5,19,38,04,044,,37,06,227,,36,08,327,30*51
$GPGGA,210012.00,,,,,0,00,,,M,,M,,*48
$PTNL,GGK,210012.00,010125,4742.4465151,N,01617.9734197,E,1,21,1.2,EHT668.5107,M*45
$GPGGQ,210012.00,010125,4742.4465151,N,01617.9734197,E,1,21,4.224,625.2996,M*36
$GPGFA,210012.00,21.896,28.310,2.303,0.789,42.833,3.452,,VVV*35
$GPLLK,210012.00,010125,,M,,M,1,21,1.4,,M*0D
$GNGMP,210012.00,,,,,DAAA,21,0.6,,,,*53
$GPGMP,210012.00,,,,,,05,,,,2.2,123*78
$GLGMP,210012.00,,,,,,06,,,,,*79
$GAGMP,210012.00,,,,,,04,,,,,*76
$GBGMP,210012.00,,,,,,06,,,,,*77
$PSSN,SNC,[0,334830000,2347]*4B
$GPZDA,210017.00,01,01,2025,,*66
$GPDTM,W84,,00.0000000,N,00.0000000,E,00.0000000,W84*5F
$GPRMC,210017.00,A,4742.4465026,N,01617.9734100,E,0.0,,010125,5.1,E,D*13
$GPGLL,4742.4465026,N,01617.9734100,E,210017.00,A,D*62
$GPGGA,210017.00,4742.4465026,N,01617.9734100,E,2,19,0.7,625.2770,M,43.2111,M,1.4,0123*42
$GNGNS,210017.00,4742.4465026,N,01617.9734100,E,DAAA,19,0.7,625.2770,43.2111,,*5B
$GPGNS,210017.00,,,,,,05,,,,1.4,123*78
$GLGNS,210017.00,,,,,,06,,,,,*7C
$GAGNS,210017.00,,,,,,04,,,,,*73
$GBGNS,210017.00,,,,,,04,,,,,*70
$GPLLQ,210017.00,010125,,M,,M,1,19,4.904,,M*15
$GPVTG,,T,,M,0.00,N,0.01,K,D*27
$GPHDT,,T*1B
$GPTHS,,V*0E
$GPROT,,V*08
$PSSN,HRP,210017.00,010125,,,,,,,00,0,,*64
$PTNL,AVR,210017.00,,Yaw,,Tilt,,,,0,,00*32
$GPGSA,A,3,08,10,16,21,27,,,,,,,,1.3,0.7,1.1*3F
$GPGSA,A,3,67,68,69,74,75,83,,,,,,,1.3,0.7,1.1*3D
$GPGSA,A,3,08,13,26,31,,,,,,,,,1.3,0.7,1.1*3B
$GPGSA,A,3,14,27,28,33,,,,,,,,,1.3,0.7,1.1*3D
$GPGST,210017.00,3.507,2.682,0.878,42.497,2.065,1.924,4.010*6C
$GPGBS,210017.00,7.529,8.685,16.067,21,0.0001,-1.764,0.698*4A
$GPGRS,210017.00,1,1.0,0.5,-1.3,-1.8,0.2,,,,,,,*68
$GPGRS,210017.00,1,2.9,3.9,-1.3,-6.4,-1.5,-6.2,,,,,,*4A
$GPGRS,210017.00,1,3.0,-0.4,0.5,-1.1,,,,,,,,*49
$GPGRS,210017.00,1,3.8,-1.0,-2.0,-2.3,,,,,,,,*6F
$GPGSV,4,1,14,27,77,163,50,02,15,272,37,16,23,196,42,32,17,138,27*7E
$GPGSV,4,2,14,23,36,051,35,21,34,275,39,08,61,296,49,10,73,100,52*7E
$GPGSV,4,3,14,18,07,079,,15,03,026,,36,35,170,40,34,31,208,*76
$GPGSV,4,4,14,49,34,195,35,61,03,257,*79
$GLGSV,3,1,10,68,50,103,44,73,10,225,25,75,22,325,43,69,23,159,46*68
$GLGSV,3,2,10,82,13,092,,67,31,038,39,74,29,267,41,84,47,309,47*6C
$GLGSV,3,3,10,83,50,067,21,85,01,286,*68
$GAGSV,3,1,11,14,78,241,,07,14,136,,03,12,034,27,31,23,316,44*64
$GAGSV,3,2,11,33,20,264,30,21,25,197,32,08,26,084,36,23,46,257,*64
$GAGSV,3,3,11,13,51,064,45,26,68,287,37,15,01,077,*5B
$GBGSV,5,1,19,28,82,061,48,05,23,128,,08,18,041,22,60,11,108,*68
$GBGSV,5,2,19,41,27,173,35,58,19,260,,46,18,278,,13,26,045,33*67
$GBGSV,5,3,19,43,20,107,29,42,26,045,34,57,31,235,,27,46,295,47*67
$GBGSV,5,4,19,14,45,070,43,33,53,112,50,02,08,105,,50,06,032,*6B
$GBGSV,5,5,19,38,04,044,,37,06,227,,36,08,327,32*53
$GPGGA,210017.00,,,,,0,00,,,M,,M,,*4D
$PTNL,GGK,210017.00,010125,4742.4465026,N,01617.9734100,E,1,19,1.3,EHT668.4880,M*42
$GPGGQ,210017.00,010125,4742.4465026,N,01617.9734100,E,1,19,4.904,625.2770,M*38
$GPGFA,210017.00,25.504,32.883,2.682,0.878,42.497,4.010,,VVV*32
$GPLLK,210017.00,010125,,M,,M,1,19,1.5,,M*02
$GNGMP,210017.00,,,,,DAAA,19,0.7,,,,*5C
$GPGMP,210017.00,,,,,,05,,,,1.4,123*78
$GLGMP,210017.00,,,,,,06,,,,,*7C
$GAGMP,210017.00,,,,,,04,,,,,*73
$GBGMP,210017.00,,,,,,04,,,,,*70
$PSSN,SNC,[0,334835000,2347]*4E
$GPZDA,210022.00,01,01,2025,,*60
$GPDTM,W84,,00.0000000,N,00.0000000,E,00.0000000,W84*5F
$GPRMC,210022.00,A,4742.4464927,N,01617.9733962,E,0.0,,010125,5.1,E,D*17
$GPGLL,4742.4464927,N,01617.9733962,E,210022.00,A,D*66
$GPGGA,210022.00,4742.4464927,N,01617.9733962,E,2,20,0.7,625.2410,M,43.2111,M,2.7,0123*49
$GNGNS,210022.00,4742.4464927,N,01617.9733962,E,DAAA,20,0.7,625.2410,43.2111,,*50
$GPGNS,210022.00,,,,,,06,,,,2.7,123*7D
$GLGNS,210022.00,,,,,,06,,,,,*7A
$GAGNS,210022.00,,,,,,03,,,,,*72
$GBGNS,210022.00,,,,,,05,,,,,*77
$GPLLQ,210022.00,010125,,M,,M,1,20,2.350,,M*14
$GPVTG,,T,,M,0.01,N,0.02,K,D*25
$GPHDT,,T*1B
$GPTHS,,V*0E
$GPROT,,V*08
$PSSN,HRP,210022.00,010125,,,,,,,00,0,,*62
$PTNL,AVR,210022.00,,Yaw,,Tilt,,,,0,,00*34
$GPGSA,A,3,08,10,16,21,23,27,,,,,,,1.3,0.7,1.1*3E
$GPGSA,A,3,67,68,69,74,75,83,,,,,,,1.3,0.7,1.1*3D
$GPGSA,A,3,13,26,31,,,,,,,,,,1.3,0.7,1.1*33
$GPGSA,A,3,14,27,28,33,41,,,,,,,,1.3,0.7,1.1*38
$GPGST,210022.00,3.242,1.046,0.880,355.864,1.046,0.881,1.912*50
$GPGBS,210022.00,4.131,3.542,7.133,21,0.0001,-2.052,0.718*79
$GPGRS,210022.00,1,1.0,1.0,-1.4,-2.1,0.7,0.1,,,,,,*4D
$GPGRS,210022.00,1,3.2,4.2,-2.5,-4.9,-0.3,-6.5,,,,,,*40
$GPGRS,210022.00,1,0.1,0.5,-1.0,,,,,,,,,*4B
$GPGRS,210022.00,1,2.8,-0.7,-2.2,-2.2,-3.0,,,,,,,*6D
$GPGSV,4,1,14,27,77,163,50,02,15,272,36,16,23,196,42,32,17,138,29*71
$GPGSV,4,2,14,23,36,051,38,21,34,275,36,08,61,296,49,10,73,100,51*7F
$GPGSV,4,3,14,18,07,080,,15,03,026,,36,35,170,40,34,31,208,*70
$GPGSV,4,4,14,49,34,195,35,61,03,257,*79
$GLGSV,3,1,10,68,50,103,45,73,10,225,26,75,22,325,43,69,23,159,44*68
$GLGSV,3,2,10,82,13,092,20,67,31,038,40,74,29,267,42,84,47,309,27*65
$GLGSV,3,3,10,83,50,067,36,85,01,286,*6E
$GAGSV,3,1,11,14,78,241,,07,14,136,,03,12,034,26,31,23,316,44*65
$GAGSV,3,2,11,33,20,264,30,21,25,197,32,08,26,084,35,23,46,257,*67
$GAGSV,3,3,11,13,51,064,45,26,68,287,38,15,01,077,*54
$GBGSV,5,1,19,28,82,061,47,05,23,128,,08,18,041,21,60,11,108,*64
$GBGSV,5,2,19,41,27,173,36,58,19,260,,46,18,278,,42,26,045,32*61
$GBGSV,5,3,19,43,20,107,22,13,26,045,34,57,31,235,,27,46,295,47*68
$GBGSV,5,4,19,14,45,070,44,33,53,112,50,02,08,105,,50,06,032,*6C
$GBGSV,5,5,19,38,04,044,,36,08,327,35,37,06,227,*54
$GPGGA,210022.00,,,,,0,00,,,M,,M,,*4B
$PTNL,GGK,210022.00,010125,4742.4464927,N,01617.9733962,E,1,20,1.3,EHT668.4520,M*4B
$GPGGQ,210022.00,010125,4742.4464927,N,01617.9733962,E,1,20,2.350,625.2410,M*3E
$GPGFA,210022.00,9.948,15.677,1.046,0.880,355.864,1.912,,VVV*3F
$GPLLK,210022.00,010125,,M,,M,1,20,1.5,,M*0E
$GNGMP,210022.00,,,,,DAAA,20,0.7,,,,*50
$GPGMP,210022.00,,,,,,06,,,,2.7,123*7D
$GLGMP,210022.00,,,,,,06,,,,,*7A
$GAGMP,210022.00,,,,,,03,,,,,*72
$GBGMP,210022.00,,,,,,05,,,,,*77
$PSSN,SNC,[0,334840000,2347]*4C
$GPZDA,210027.00,01,01,2025,,*65
$GPDTM,W84,,00.0000000,N,00.0000000,E,00.0000000,W84*5F
$GPRMC,210027.00,A,4742.4464746,N,01617.9733699,E,0.0,,010125,5.1,E,D*10
$GPGLL,4742.4464746,N,01617.9733699,E,210027.00,A,D*61
$GPGGA,210027.00,4742.4464746,N,01617.9733699,E,2,20,0.6,625.2326,M,43.2111,M,2.3,0123*49
$GNGNS,210027.00,4742.4464746,N,01617.9733699,E,DAAA,20,0.6,625.2326,43.2111,,*54
$GPGNS,210027.00,,,,,,06,,,,2.3,123*7C
$GLGNS,210027.00,,,,,,05,,,,,*7C
$GAGNS,210027.00,,,,,,03,,,,,*77
$GBGNS,210027.00,,,,,,06,,,,,*71
$GPLLQ,210027.00,010125,,M,,M,1,20,2.593,,M*18
$GPVTG,,T,,M,0.01,N,0.01,K,D*26
$GPHDT,,T*1B
$GPTHS,,V*0E
$GPROT,,V*08
$PSSN,HRP,210027.00,010125,,,,,,,00,0,,*67
$PTNL,AVR,210027.00,,Yaw,,Tilt,,,,0,,00*31
$GPGSA,A,3,08,10,16,21,23,27,,,,,,,1.2,0.6,1.0*3F
$GPGSA,A,3,67,68,69,74,75,,,,,,,,1.2,0.6,1.0*37
$GPGSA,A,3,13,26,31,,,,,,,,,,1.2,0.6,1.0*32
$GPGSA,A,3,14,27,28,33,36,41,,,,,,,1.2,0.6,1.0*3C
$GPGST,210027.00,3.867,1.154,0.968,358.087,1.154,0.968,2.110*58
$GPGBS,210027.00,4.104,3.527,7.233,21,0.0001,-2.053,0.733*72
$GPGRS,210027.00,1,0.9,0.5,-1.3,-2.1,1.9,0.1,,,,,,*4C
$GPGRS,210027.00,1,4.5,5.1,-2.7,-3.9,-3.9,,,,,,,*4B
$GPGRS,210027.00,1,0.2,-0.1,-1.0,,,,,,,,,*64
$GPGRS,210027.00,1,0.6,-0.5,-2.4,-2.2,8.6,-3.8,,,,,,*48
$GPGSV,4,1,14,27,77,163,50,02,15,272,36,16,23,196,42,32,18,138,30*76
$GPGSV,4,2,14,23,36,051,40,21,34,275,36,08,61,296,49,10,73,100,50*71
$GPGSV,4,3,14,18,07,080,,15,03,026,,36,35,170,40,34,31,208,*70
$GPGSV,4,4,14,49,34,195,35,61,03,257,*79
$GLGSV,3,1,10,68,50,103,45,73,10,225,28,75,22,325,44,69,23,159,43*66
$GLGSV,3,2,10,82,13,092,20,67,31,038,43,74,29,267,42,84,47,309,29*68
$GLGSV,3,3,10,83,50,067,28,85,01,286,*61
$GAGSV,3,1,11,14,78,240,,07,14,136,,03,12,034,26,31,23,316,44*64
$GAGSV,3,2,11,33,20,264,28,21,25,197,32,08,26,084,34,23,46,257,*6F
$GAGSV,3,3,11,13,51,064,45,26,68,287,39,15,01,077,*55
$GBGSV,5,1,19,28,82,062,48,05,23,128,,08,18,041,22,60,11,108,*6B
$GBGSV,5,2,19,41,27,173,37,58,19,260,,46,18,278,,42,26,045,30*62
$GBGSV,5,3,19,43,20,108,26,13,26,045,35,57,31,235,,27,46,295,46*63
$GBGSV,5,4,19,14,45,070,45,33,53,112,50,02,08,105,,50,05,032,*6E
$GBGSV,5,5,19,38,04,044,,36,08,327,36,37,06,227,*57
$GPGGA,210027.00,,,,,0,00,,,M,,M,,*4E
$PTNL,GGK,210027.00,010125,4742.4464746,N,01617.9733699,E,1,20,1.2,EHT668.4437,M*4A
$GPGGQ,210027.00,010125,4742.4464746,N,01617.9733699,E,1,20,2.593,625.2326,M*32
$GPGFA,210027.00,10.974,17.305,1.154,0.968,358.087,2.110,,VVV*0B
$GPLLK,210027.00,010125,,M,,M,1,20,1.4,,M*0A
$GNGMP,210027.00,,,,,DAAA,20,0.6,,,,*54
$GPGMP,210027.00,,,,,,06,,,,2.3,123*7C
$GLGMP,210027.00,,,,,,05,,,,,*7C
$GAGMP,210027.00,,,,,,03,,,,,*77
$GBGMP,210027.00,,,,,,06,,,,,*71
$PSSN,SNC,[0,334845000,2347]*49
$GPZDA,210032.00,01,01,2025,,*61
$GPDTM,W84,,00.0000000,N,00.0000000,E,00.0000000,W84*5F
$GPRMC,210032.00,A,4742.4464559,N,01617.9733493,E,0.0,,010125,5.1,E,D*10
$GPGLL,4742.4464559,N,01617.9733493,E,210032.00,A,D*61
$GPGGA,210032.00,4742.4464559,N,01617.9733493,E,2,21,0.6,625.2127,M,43.2111,M,3.3,0123*4A
$GNGNS,210032.00,4742.4464559,N,01617.9733493,E,DAAA,21,0.6,625.2127,43.2111,,*56
$GPGNS,210032.00,,,,,,06,,,,3.3,123*79
$GLGNS,210032.00,,,,,,05,,,,,*78
$GAGNS,210032.00,,,,,,03,,,,,*73
$GBGNS,210032.00,,,,,,07,,,,,*74
$GPLLQ,210032.00,010125,,M,,M,1,21,2.452,,M*11
$GPVTG,,T,,M,0.01,N,0.01,K,D*26
$GPHDT,,T*1B
$GPTHS,,V*0E
$GPROT,,V*08
$PSSN,HRP,210032.00,010125,,,,,,,00,0,,*63
$PTNL,AVR,210032.00,,Yaw,,Tilt,,,,0,,00*35
$GPGSA,A,3,08,10,16,21,23,27,,,,,,,1.1,0.6,1.0*3C
$GPGSA,A,3,67,68,69,74,75,,,,,,,,1.1,0.6,1.0*34
$GPGSA,A,3,13,26,31,,,,,,,,,,1.1,0.6,1.0*31
$GPGSA,A,3,13,14,27,28,33,36,41,,,,,,1.1,0.6,1.0*3D
$GPGST,210032.00,6.502,1.093,0.910,359.546,1.093,0.910,1.997*5A
$GPGBS,210032.00,4.168,3.555,7.290,13,0.0001,18.384,8.669*68
$GPGRS,210032.00,1,0.7,0.4,-1.5,-1.5,1.2,-0.1,,,,,,*60
$GPGRS,210032.00,1,6.3,5.3,-2.7,-6.0,-5.1,,,,,,,*4B
$GPGRS,210032.00,1,0.2,0.3,-0.6,,,,,,,,,*48
$GPGRS,210032.00,1,18.4,-0.3,-0.1,-2.3,-2.4,9.5,-2.8,,,,,*71
$GPGSV,4,1,14,27,77,163,49,02,15,272,37,16,23,196,41,32,18,138,29*74
$GPGSV,4,2,14,23,36,051,41,21,34,275,37,08,61,296,48,10,73,100,49*78
$GPGSV,4,3,14,18,07,080,,15,03,026,,36,35,170,40,34,31,208,*70
$GPGSV,4,4,14,49,34,195,35,61,03,257,*79
$GLGSV,3,1,10,68,51,103,44,73,10,225,28,75,22,325,43,69,23,159,43*61
$GLGSV,3,2,10,82,13,092,,67,31,038,45,74,29,267,42,84,47,309,30*64
$GLGSV,3,3,10,83,49,067,28,85,01,286,*69
$GAGSV,3,1,11,14,78,240,,07,14,136,,03,12,034,27,31,23,316,44*65
$GAGSV,3,2,11,33,20,264,27,21,25,197,32,08,26,084,32,23,46,257,*66
$GAGSV,3,3,11,13,51,064,45,26,68,287,40,15,01,077,*5B
$GBGSV,5,1,19,28,82,062,48,05,23,128,,08,18,041,25,60,11,108,*6C
$GBGSV,5,2,19,41,27,173,39,58,19,260,,46,18,278,,42,26,045,30*6C
$GBGSV,5,3,19,43,20,108,28,13,26,045,36,57,31,235,,27,46,295,46*6E
$GBGSV,5,4,19,14,45,070,46,33,53,112,50,02,08,105,,50,05,032,*6D
$GBGSV,5,5,19,38,04,044,,36,08,327,37,37,06,227,*56
$GPGGA,210032.00,,,,,0,00,,,M,,M,,*4A
$PTNL,GGK,210032.00,010125,4742.4464559,N,01617.9733493,E,1,21,1.1,EHT668.4237,M*4E
$GPGGQ,210032.00,010125,4742.4464559,N,01617.9733493,E,1,21,2.452,625.2127,M*3C
$GPGFA,210032.00,10.394,16.373,1.093,0.910,359.546,1.997,,VVV*03
$GPLLK,210032.00,010125,,M,,M,1,21,1.3,,M*08
$GNGMP,210032.00,,,,,DAAA,21,0.6,,,,*51
$GPGMP,210032.00,,,,,,06,,,,3.3,123*79
$GLGMP,210032.00,,,,,,05,,,,,*78
$GAGMP,210032.00,,,,,,03,,,,,*73
$GBGMP,210032.00,,,,,,07,,,,,*74
$PSSN,SNC,[0,334850000,2347]*4D
$GPZDA,210037.00,01,01,2025,,*64
$GPDTM,W84,,00.0000000,N,00.0000000,E,00.0000000,W84*5F
$GPRMC,210037.00,A,4742.4464362,N,01617.9733346,E,0.0,,010125,5.1,E,D*14
$GPGLL,4742.4464362,N,01617.9733346,E,210037.00,A,D*65
$GPGGA,210037.00,4742.4464362,N,01617.9733346,E,2,21,0.6,625.2034,M,43.2111,M,1.7,0123*4B
$GNGNS,210037.00,4742.4464362,N,01617.9733346,E,DAAA,21,0.6,625.2034,43.2111,,*51
$GPGNS,210037.00,,,,,,06,,,,1.7,123*7A
$GLGNS,210037.00,,,,,,05,,,,,*7D
$GAGNS,210037.00,,,,,,03,,,,,*76
$GBGNS,210037.00,,,,,,07,,,,,*71
$GPLLQ,210037.00,010125,,M,,M,1,21,2.489,,M*12
$GPVTG,,T,,M,0.00,N,0.01,K,D*27
$GPHDT,,T*1B
$GPTHS,,V*0E
$GPROT,,V*08
$PSSN,HRP,210037.00,010125,,,,,,,00,0,,*66
$PTNL,AVR,210037.00,,Yaw,,Tilt,,,,0,,00*30
$GPGSA,A,3,08,10,16,21,23,27,,,,,,,1.1,0.6,1.0*3C
$GPGSA,A,3,67,68,69,74,75,,,,,,,,1.1,0.6,1.0*34
$GPGSA,A,3,13,26,31,,,,,,,,,,1.1,0.6,1.0*31
$GPGSA,A,3,13,14,27,28,33,36,41,,,,,,1.1,0.6,1.0*3D
$GPGST,210037.00,6.803,1.109,0.929,357.580,1.109,0.929,2.025*54
$GPGBS,210037.00,4.066,3.461,6.895,16,0.0001,-2.376,0.875*7F
$GPGRS,210037.00,1,0.4,0.9,-2.4,-0.3,0.6,-0.3,,,,,,*69
$GPGRS,210037.00,1,10.6,4.4,-1.0,-6.5,-5.2,,,,,,,*78
$GPGRS,210037.00,1,0.4,-0.2,-0.1,,,,,,,,,*60
$GPGRS,210037.00,1,18.2,0.4,-0.2,-2.0,-2.7,9.6,-1.5,,,,,*56
$GPGSV,4,1,14,27,77,163,49,02,15,272,37,16,23,196,40,32,18,138,*7E
$GPGSV,4,2,14,23,36,051,42,21,34,276,38,08,61,296,48,10,73,100,50*7F
$GPGSV,4,3,14,18,07,080,,15,03,026,,36,35,170,40,34,31,208,*70
$GPGSV,4,4,14,49,34,195,35,61,03,257,*79
$GLGSV,3,1,10,68,51,103,44,67,30,038,46,75,22,325,43,82,13,092,*67
$GLGSV,3,2,10,69,23,159,43,74,29,267,41,83,49,067,30,84,48,309,31*63
$GLGSV,3,3,10,73,10,225,29,85,01,286,*6F
$GAGSV,3,1,11,14,78,240,,07,15,136,,03,12,034,29,31,23,316,43*6D
$GAGSV,3,2,11,33,20,265,25,21,25,197,32,08,26,084,30,23,46,257,*67
$GAGSV,3,3,11,13,51,064,45,26,68,287,40,15,01,077,*5B
$GBGSV,5,1,19,28,82,062,47,05,23,128,,08,18,041,21,60,11,108,*67
$GBGSV,5,2,19,41,27,173,41,58,19,260,,46,18,278,,42,26,045,31*62
$GBGSV,5,3,19,43,20,108,25,13,26,045,36,57,31,236,,27,46,295,45*63
$GBGSV,5,4,19,14,45,070,46,33,53,112,51,02,08,105,,50,05,032,*6C
$GBGSV,5,5,19,38,04,044,,36,08,327,37,37,06,227,*56
$GPGGA,210037.00,,,,,0,00,,,M,,M,,*4F
$PTNL,GGK,210037.00,010125,4742.4464362,N,01617.9733346,E,1,21,1.1,EHT668.4144,M*4D
$GPGGQ,210037.00,010125,4742.4464362,N,01617.9733346,E,1,21,2.489,625.2034,M*3D
$GPGFA,210037.00,10.544,16.605,1.109,0.929,357.580,2.025,,VVV*06
$GPLLK,210037.00,010125,,M,,M,1,21,1.3,,M*0D
$GNGMP,210037.00,,,,,DAAA,21,0.6,,,,*54
$GPGMP,210037.00,,,,,,06,,,,1.7,123*7A
$GLGMP,210037.00,,,,,,05,,,,,*7D
$GAGMP,210037.00,,,,,,03,,,,,*76
$GBGMP,210037.00,,,,,,07,,,,,*71
$PSSN,SNC,[0,334855000,2347]*48
$GPZDA,210042.00,01,01,2025,,*66
$GPDTM,W84,,00.0000000,N,00.0000000,E,00.0000000,W84*5F
$GPRMC,210042.00,A,4742.4464165,N,01617.9733232,E,0.0,,010125,5.1,E,D*11
$GPGLL,4742.4464165,N,01617.9733232,E,210042.00,A,D*60
$GPGGA,210042.00,4742.4464165,N,01617.9733232,E,2,21,0.6,625.1736,M,43.2111,M,2.7,0123*4B
$GNGNS,210042.00,4742.4464165,N,01617.9733232,E,DAAA,21,0.6,625.1736,43.2111,,*52
$GPGNS,210042.00,,,,,,06,,,,2.7,123*7B
$GLGNS,210042.00,,,,,,05,,,,,*7F
$GAGNS,210042.00,,,,,,03,,,,,*74
$GBGNS,210042.00,,,,,,07,,,,,*73
$GPLLQ,210042.00,010125,,M,,M,1,21,2.734,,M*15
$GPVTG,,T,,M,0.00,N,0.01,K,D*27
$GPHDT,,T*1B
$GPTHS,,V*0E
$GPROT,,V*08
$PSSN,HRP,210042.00,010125,,,,,,,00,0,,*64
$PTNL,AVR,210042.00,,Yaw,,Tilt,,,,0,,00*32
$GPGSA,A,3,08,10,16,21,23,27,,,,,,,1.1,0.6,1.0*3C
$GPGSA,A,3,67,68,69,74,75,,,,,,,,1.1,0.6,1.0*34
$GPGSA,A,3,13,26,31,,,,,,,,,,1.1,0.6,1.0*31
$GPGSA,A,3,13,14,27,28,33,36,41,,,,,,1.1,0.6,1.0*3D
$GPGST,210042.00,7.253,1.219,1.024,355.495,1.218,1.026,2.222*59
$GPGBS,210042.00,4.132,3.506,6.964,16,0.0001,-2.455,0.889*77
$GPGRS,210042.00,1,0.6,1.1,-2.5,-0.8,-0.1,0.1,,,,,,*6F
$GPGRS,210042.00,1,14.6,4.6,-0.3,-5.6,-5.6,,,,,,,*7A
$GPGRS,210042.00,1,0.5,-0.2,0.3,,,,,,,,,*4C
$GPGRS,210042.00,1,18.0,0.2,-1.3,-1.7,-3.0,9.5,-1.3,,,,,*57
$GPGSV,4,1,14,27,77,163,48,02,15,272,37,16,23,196,39,32,18,138,33*71
$GPGSV,4,2,14,23,36,051,43,21,34,276,39,08,61,296,48,10,73,099,51*7F
$GPGSV,4,3,14,18,07,080,,15,03,026,,36,35,170,40,34,31,208,*70
$GPGSV,4,4,14,49,34,195,35,61,03,257,*79
$GLGSV,3,1,10,68,51,103,45,67,30,038,45,75,22,325,42,82,13,092,*64
$GLGSV,3,2,10,69,23,159,43,74,29,267,41,83,49,067,32,84,48,309,31*61
$GLGSV,3,3,10,73,10,225,31,85,01,286,*66
$GAGSV,3,1,11,14,78,240,,07,15,136,,03,12,034,29,31,23,316,43*6D
$GAGSV,3,2,11,33,20,265,21,21,25,197,32,08,26,084,29,23,46,257,*6B
$GAGSV,3,3,11,13,51,064,45,26,68,288,41,15,01,077,*55
$GBGSV,5,1,19,28,82,062,47,05,23,128,,08,18,041,24,60,11,108,*62
$GBGSV,5,2,19,41,27,173,42,58,19,260,,46,18,278,,42,26,045,32*62
$GBGSV,5,3,19,43,20,108,34,13,26,045,37,57,31,236,,27,46,295,45*62
$GBGSV,5,4,19,14,45,070,47,33,53,112,51,02,08,105,,50,05,032,*6D
$GBGSV,5,5,19,38,04,044,,36,08,327,35,37,06,227,*54
$GPGGA,210042.00,,,,,0,00,,,M,,M,,*4D
$PTNL,GGK,210042.00,010125,4742.4464165,N,01617.9733232,E,1,21,1.1,EHT668.3846,M*44
$GPGGQ,210042.00,010125,4742.4464165,N,01617.9733232,E,1,21,2.734,625.1736,M*3B
$GPGFA,210042.00,11.590,18.223,1.219,1.024,355.495,2.222,,VVV*07
$GPLLK,210042.00,010125,,M,,M,1,21,1.3,,M*0F
$GNGMP,210042.00,,,,,DAAA,21,0.6,,,,*56
$GPGMP,210042.00,,,,,,06,,,,2.7,123*7B
$GLGMP,210042.00,,,,,,05,,,,,*7F
$GAGMP,210042.00,,,,,,03,,,,,*74
$GBGMP,210042.00,,,,,,07,,,,,*73
$PSSN,SNC,[0,334860000,2347]*4E
$GPZDA,210047.00,01,01,2025,,*63
$GPDTM,W84,,00.0000000,N,00.0000000,E,00.0000000,W84*5F
$GPRMC,210047.00,A,4742.4463973,N,01617.9733117,E,0.0,,010125,5.1,E,D*18
$GPGLL,4742.4463973,N,01617.9733117,E,210047.00,A,D*69
$GPGGA,210047.00,4742.4463973,N,01617.9733117,E,2,21,0.6,625.1463,M,43.2111,M,2.3,0123*45
$GNGNS,210047.00,4742.4463973,N,01617.9733117,E,DAAA,21,0.6,625.1463,43.2111,,*58
$GPGNS,210047.00,,,,,,06,,,,2.3,123*7A
$GLGNS,210047.00,,,,,,05,,,,,*7A
$GAGNS,210047.00,,,,,,03,,,,,*71
$GBGNS,210047.00,,,,,,07,,,,,*76
$GPLLQ,210047.00,010125,,M,,M,1,21,2.906,,M*1F
$GPVTG,,T,,M,0.01,N,0.01,K,D*26
$GPHDT,,T*1B
$GPTHS,,V*0E
$GPROT,,V*08
$PSSN,HRP,210047.00,010125,,,,,,,00,0,,*61
$PTNL,AVR,210047.00,,Yaw,,Tilt,,,,0,,00*37
$GPGSA,A,3,08,10,16,21,23,27,,,,,,,1.2,0.6,1.0*3F
$GPGSA,A,3,67,68,69,74,75,,,,,,,,1.2,0.6,1.0*37
$GPGSA,A,3,13,26,31,,,,,,,,,,1.2,0.6,1.0*32
$GPGSA,A,3,13,14,27,28,33,41,43,,,,,,1.2,0.6,1.0*3C
$GPGST,210047.00,8.995,1.299,1.082,356.521,1.299,1.083,2.364*5E
$GPGBS,210047.00,4.110,3.457,7.168,43,0.0001,22.595,8.750*63
$GPGRS,210047.00,1,0.7,0.9,-2.0,-0.9,-0.2,-0.2,,,,,,*4B
$GPGRS,210047.00,1,15.4,3.4,0.5,-6.7,-5.7,,,,,,,*51
$GPGRS,210047.00,1,0.5,0.3,0.1,,,,,,,,,*67
$GPGRS,210047.00,1,16.5,-0.2,-2.1,-1.8,-3.2,-0.9,22.6,,,,,*49
$GPGSV,4,1,14,27,77,163,48,02,15,272,36,16,23,196,39,32,18,138,35*76
$GPGSV,4,2,14,23,36,051,43,21,34,276,38,08,61,296,47,10,73,099,51*71
$GPGSV,4,3,14,18,07,080,,15,03,026,,36,35,170,40,34,31,208,*70
$GPGSV,4,4,14,49,34,195,35,61,03,257,*79
$GLGSV,3,1,10,68,51,103,43,67,30,037,44,75,22,325,43,82,13,092,*6D
$GLGSV,3,2,10,69,23,159,45,74,29,267,39,83,49,067,33,84,48,309,31*69
$GLGSV,3,3,10,73,10,225,25,85,01,286,*63
$GAGSV,3,1,11,14,78,240,,07,15,136,,03,12,034,29,31,23,316,43*6D
$GAGSV,3,2,11,33,20,265,22,21,25,197,33,08,26,084,26,23,45,257,*65
$GAGSV,3,3,11,13,51,065,45,26,68,288,42,15,01,077,*57
$GBGSV,5,1,19,28,82,062,46,05,23,128,,08,18,041,22,60,11,108,*65
$GBGSV,5,2,19,41,28,173,43,58,19,260,,46,17,278,,42,26,045,33*62
$GBGSV,5,3,19,43,20,108,36,13,26,045,37,57,31,236,,27,47,295,44*60
$GBGSV,5,4,19,14,45,070,46,33,54,111,50,02,08,105,,50,05,031,*6A
$GBGSV,5,5,19,38,04,044,,36,08,327,34,37,06,227,*55
$GPGGA,210047.00,,,,,0,00,,,M,,M,,*48
$PTNL,GGK,210047.00,010125,4742.4463973,N,01617.9733117,E,1,21,1.2,EHT668.3573,M*45
$GPGGQ,210047.00,010125,4742.4463973,N,01617.9733117,E,1,21,2.906,625.1463,M*3E
$GPGFA,210047.00,12.355,19.381,1.299,1.082,356.521,2.364,,VVV*0C
$GPLLK,210047.00,010125,,M,,M,1,21,1.3,,M*0A
$GNGMP,210047.00,,,,,DAAA,21,0.6,,,,*53
$GPGMP,210047.00,,,,,,06,,,,2.3,123*7A
$GLGMP,210047.00,,,,,,05,,,,,*7A
$GAGMP,210047.00,,,,,,03,,,,,*71
$GBGMP,210047.00,,,,,,07,,,,,*76
$PSSN,SNC,[0,334865000,2347]*4B
$GPZDA,210052.00,01,01,2025,,*67
$GPDTM,W84,,00.0000000,N,00.0000000,E,00.0000000,W84*5F
$GPRMC,210052.00,A,4742.4463829,N,01617.9732971,E,0.0,,010125,5.1,E,D*1B
$GPGLL,4742.4463829,N,01617.9732971,E,210052.00,A,D*6A
$GPGGA,210052.00,4742.4463829,N,01617.9732971,E,2,21,0.6,625.1275,M,43.2111,M,3.3,0123*46
$GNGNS,210052.00,4742.4463829,N,01617.9732971,E,DAAA,21,0.6,625.1275,43.2111,,*5A
$GPGNS,210052.00,,,,,,06,,,,3.3,123*7F
$GLGNS,210052.00,,,,,,05,,,,,*7E
$GAGNS,210052.00,,,,,,03,,,,,*75
$GBGNS,210052.00,,,,,,07,,,,,*72
$GPLLQ,210052.00,010125,,M,,M,1,21,2.845,,M*1D
$GPVTG,,T,,M,0.01,N,0.01,K,D*26
$GPHDT,,T*1B
$GPTHS,,V*0E
$GPROT,,V*08
$PSSN,HRP,210052.00,010125,,,,,,,00,0,,*65
$PTNL,AVR,210052.00,,Yaw,,Tilt,,,,0,,00*33
$GPGSA,A,3,08,10,16,21,23,27,,,,,,,1.2,0.6,1.0*3F
$GPGSA,A,3,67,68,69,74,75,,,,,,,,1.2,0.6,1.0*37
$GPGSA,A,3,13,26,31,,,,,,,,,,1.2,0.6,1.0*32
$GPGSA,A,3,13,14,27,28,33,41,43,,,,,,1.2,0.6,1.0*3C
$GPGST,210052.00,8.368,1.274,1.054,358.833,1.274,1.054,2.315*55
$GPGBS,210052.00,4.170,3.508,7.290,43,0.0001,20.918,8.750*65
$GPGRS,210052.00,1,1.1,0.4,-1.3,-1.6,0.4,-0.1,,,,,,*63
$GPGRS,210052.00,1,13.0,3.2,1.3,-7.1,-4.0,,,,,,,*57
$GPGRS,210052.00,1,0.9,0.9,0.2,,,,,,,,,*66
$GPGRS,210052.00,1,16.6,-0.6,-1.9,-1.0,-2.7,-0.7,20.9,,,,,*4E
$GPGSV,4,1,14,27,77,163,46,02,15,272,34,16,23,196,39,32,18,138,35*7A
$GPGSV,4,2,14,23,36,051,43,21,34,276,37,08,61,296,47,10,73,099,49*77
$GPGSV,4,3,14,18,06,080,,15,03,026,,36,35,170,40,34,31,208,*71
$GPGSV,4,4,14,49,34,195,35,61,03,257,*79
$GLGSV,3,1,10,68,51,103,43,67,30,037,43,75,22,325,44,82,13,092,*6D
$GLGSV,3,2,10,69,23,159,46,74,29,267,39,83,49,067,33,84,48,309,32*69
$GLGSV,3,3,10,73,10,225,22,85,01,286,*64
$GAGSV,3,1,11,14,78,239,,07,15,136,,03,12,034,29,31,23,316,43*63
$GAGSV,3,2,11,33,20,265,31,21,25,197,34,08,26,084,,23,45,257,*64
$GAGSV,3,3,11,13,51,065,45,26,68,288,42,15,01,077,*57
$GBGSV,5,1,19,28,81,063,46,05,23,128,,08,18,041,21,60,11,108,*64
$GBGSV,5,2,19,41,28,173,43,58,19,260,,46,17,277,,42,26,045,35*6B
$GBGSV,5,3,19,43,20,108,37,13,26,045,38,57,31,236,,27,47,295,44*6E
$GBGSV,5,4,19,14,45,069,46,33,54,111,50,02,08,105,,50,05,031,*62
$GBGSV,5,5,19,38,04,044,,36,08,327,33,37,06,227,*52
$GPGGA,210052.00,,,,,0,00,,,M,,M,,*4C
$PTNL,GGK,210052.00,010125,4742.4463829,N,01617.9732971,E,1,21,1.2,EHT668.3386,M*4A
$GPGGQ,210052.00,010125,4742.4463829,N,01617.9732971,E,1,21,2.845,625.1275,M*3A
$GPGFA,210052.00,12.114,18.982,1.274,1.054,358.833,2.315,,VVV*09
$GPLLK,210052.00,010125,,M,,M,1,21,1.3,,M*0E
$GNGMP,210052.00,,,,,DAAA,21,0.6,,,,*57
$GPGMP,210052.00,,,,,,06,,,,3.3,123*7F
$GLGMP,210052.00,,,,,,05,,,,,*7E
$GAGMP,210052.00,,,,,,03,,,,,*75
$GBGMP,210052.00,,,,,,07,,,,,*72
$PSSN,SNC,[0,334870000,2347]*4F
$GPZDA,210057.00,01,01,2025,,*62
$GPDTM,W84,,00.0000000,N,00.0000000,E,00.0000000,W84*5F
$GPRMC,210057.00,A,4742.4463735,N,01617.9732863,E,0.0,,010125,5.1,E,D*1E
$GPGLL,4742.4463735,N,01617.9732863,E,210057.00,A,D*6F
$GPGGA,210057.00,4742.4463735,N,01617.9732863,E,2,22,0.6,625.1152,M,43.2111,M,1.7,0123*40
$GNGNS,210057.00,4742.4463735,N,01617.9732863,E,DAAA,22,0.6,625.1152,43.2111,,*5A
$GPGNS,210057.00,,,,,,06,,,,1.7,123*7C
$GLGNS,210057.00,,,,,,05,,,,,*7B
$GAGNS,210057.00,,,,,,03,,,,,*70
$GBGNS,210057.00,,,,,,08,,,,,*78
$GPLLQ,210057.00,010125,,M,,M,1,22,2.361,,M*16
$GPVTG,,T,,M,0.00,N,0.01,K,D*27
$GPHDT,,T*1B
$GPTHS,,V*0E
$GPROT,,V*08
$PSSN,HRP,210057.00,010125,,,,,,,00,0,,*60
$PTNL,AVR,210057.00,,Yaw,,Tilt,,,,0,,00*36
$GPGSA,A,3,08,10,16,21,23,27,,,,,,,1.1,0.6,1.0*3C
$GPGSA,A,3,67,68,69,74,75,,,,,,,,1.1,0.6,1.0*34
$GPGSA,A,3,13,26,31,,,,,,,,,,1.1,0.6,1.0*31
$GPGSA,A,3,13,14,27,28,33,41,42,43,,,,,1.1,0.6,1.0*39
$GPGST,210057.00,7.674,1.056,0.879,356.849,1.055,0.879,1.920*58
$GPGBS,210057.00,4.060,3.410,6.854,43,0.0001,17.860,8.751*60
$GPGRS,210057.00,1,1.0,-0.6,-0.4,-0.7,0.4,-0.2,,,,,,*4D
$GPGRS,210057.00,1,11.8,3.2,1.4,-6.0,-3.2,,,,,,,*5A
$GPGRS,210057.00,1,1.2,0.8,-0.0,,,,,,,,,*47
$GPGRS,210057.00,1,16.1,-2.3,-1.6,-0.3,-2.0,-0.2,9.7,17.9,,,,*60
$GPGSV,4,1,14,27,77,162,45,02,15,272,32,16,23,196,40,32,18,138,34*71
$GPGSV,4,2,14,23,36,051,42,21,34,276,38,08,61,296,46,10,73,099,48*79
$GPGSV,4,3,14,18,06,080,,15,03,026,,36,35,170,40,34,31,208,*71
$GPGSV,4,4,14,49,34,195,36,61,03,257,*7A
$GLGSV,3,1,10,68,51,103,44,67,30,037,40,75,22,324,43,82,13,092,*6F
$GLGSV,3,2,10,69,23,159,47,74,28,267,41,83,49,068,33,84,48,309,34*6F
$GLGSV,3,3,10,73,10,225,20,85,01,286,*66
$GAGSV,3,1,11,14,78,239,,07,15,136,,03,12,034,29,31,23,316,44*64
$GAGSV,3,2,11,33,20,265,33,21,25,197,34,08,26,084,24,23,45,257,*60
$GAGSV,3,3,11,13,50,065,45,26,68,288,42,15,01,077,*56
$GBGSV,5,1,19,28,81,063,46,05,23,128,,08,18,041,19,60,11,108,*6F
$GBGSV,5,2,19,41,28,173,43,58,19,260,,46,17,277,,42,26,045,36*68
$GBGSV,5,3,19,43,20,108,36,13,26,045,38,57,31,236,,27,47,295,42*69
$GBGSV,5,4,19,14,45,069,45,33,54,111,50,02,08,105,,50,05,031,*61
$GBGSV,5,5,19,38,04,044,,36,08,326,32,37,06,227,*52
$GPGGA,210057.00,,,,,0,00,,,M,,M,,*49
$PTNL,GGK,210057.00,010125,4742.4463735,N,01617.9732863,E,1,22,1.1,EHT668.3262,M*44
$GPGGQ,210057.00,010125,4742.4463735,N,01617.9732863,E,1,22,2.361,625.1152,M*37
$GPGFA,210057.00,10.039,15.742,1.056,0.879,356.849,1.920,,VVV*07
$GPLLK,210057.00,010125,,M,,M,1,22,1.3,,M*08
$GNGMP,210057.00,,,,,DAAA,22,0.6,,,,*51
$GPGMP,210057.00,,,,,,06,,,,1.7,123*7C
$GLGMP,210057.00,,,,,,05,,,,,*7B
$GAGMP,210057.00,,,,,,03,,,,,*70
$GBGMP,210057.00,,,,,,08,,,,,*78
$PSSN,SNC,[0,334875000,2347]*4A
$GPZDA,210102.00,01,01,2025,,*63
$GPDTM,W84,,00.0000000,N,00.0000000,E,00.0000000,W84*5F
$GPRMC,210102.00,A,4742.4463639,N,01617.9732858,E,0.0,,010125,5.1,E,D*1A
$GPGLL,4742.4463639,N,01617.9732858,E,210102.00,A,D*6B
$GPGGA,210102.00,4742.4463639,N,01617.9732858,E,2,22,0.6,625.1302,M,43.2111,M,2.7,0123*40
$GNGNS,210102.00,4742.4463639,N,01617.9732858,E,DAAA,22,0.6,625.1302,43.2111,,*59
$GPGNS,210102.00,,,,,,06,,,,2.7,123*7E
$GLGNS,210102.00,,,,,,05,,,,,*7A
$GAGNS,210102.00,,,,,,03,,,,,*71
$GBGNS,210102.00,,,,,,08,,,,,*79
$GPLLQ,210102.00,010125,,M,,M,1,22,2.779,,M*1A
$GPVTG,,T,,M,0.00,N,0.01,K,D*27
$GPHDT,,T*1B
$GPTHS,,V*0E
$GPROT,,V*08
$PSSN,HRP,210102.00,010125,,,,,,,00,0,,*61
$PTNL,AVR,210102.00,,Yaw,,Tilt,,,,0,,00*37
$GPGSA,A,3,08,10,16,21,23,27,,,,,,,1.1,0.6,1.0*3C
$GPGSA,A,3,67,68,69,74,75,,,,,,,,1.1,0.6,1.0*34
$GPGSA,A,3,13,26,31,,,,,,,,,,1.1,0.6,1.0*31
$GPGSA,A,3,13,14,27,28,33,41,42,43,,,,,1.1,0.6,1.0*39
$GPGST,210102.00,9.082,1.242,1.040,354.684,1.241,1.042,2.258*50
$GPGBS,210102.00,4.111,3.456,6.929,67,0.0001,19.624,6.200*66
$GPGRS,210102.00,1,0.6,-0.9,-0.5,0.3,0.7,-0.2,,,,,,*6F
$GPGRS,210102.00,1,19.6,4.3,0.5,-5.2,-5.9,,,,,,,*57
$GPGRS,210102.00,1,1.0,0.1,-0.4,,,,,,,,,*49
$GPGRS,210102.00,1,15.7,-3.7,-1.2,-0.4,-2.0,-0.1,15.1,16.5,,,,*57
$GPGSV,4,1,14,27,77,162,45,02,15,272,29,16,23,196,41,32,18,138,33*7D
$GPGSV,4,2,14,23,36,051,42,21,34,276,39,08,61,296,44,10,73,099,46*74
$GPGSV,4,3,14,18,06,080,,15,03,026,,36,35,170,40,34,31,208,*71
$GPGSV,4,4,14,49,34,195,36,61,03,257,*7A
$GLGSV,3,1,10,68,51,103,43,67,30,037,36,75,22,324,41,82,13,092,23*6A
$GLGSV,3,2,10,69,23,159,47,74,28,267,41,83,49,068,33,84,48,309,34*6F
$GLGSV,3,3,10,73,10,225,,85,01,286,*64
$GAGSV,3,1,11,14,78,239,,07,15,136,,03,12,034,27,31,23,316,44*6A
$GAGSV,3,2,11,33,20,265,34,21,25,197,34,08,26,084,34,23,45,257,*66
$GAGSV,3,3,11,13,50,065,45,26,68,288,42,15,01,077,*56
$GBGSV,5,1,19,28,81,063,46,41,28,173,43,60,11,108,,08,18,041,21*66
$GBGSV,5,2,19,05,23,128,,58,19,260,,42,26,045,37,43,20,108,35*67
$GBGSV,5,3,19,46,17,277,,13,26,045,38,57,31,236,,27,47,295,41*65
$GBGSV,5,4,19,14,45,069,44,33,54,111,50,36,08,326,30,50,05,031,*67
$GBGSV,5,5,19,38,04,044,,02,08,105,,37,06,227,*57
$GPGGA,210102.00,,,,,0,00,,,M,,M,,*48
$PTNL,GGK,210102.00,010125,4742.4463639,N,01617.9732858,E,1,22,1.1,EHT668.3412,M*41
$GPGGQ,210102.00,010125,4742.4463639,N,01617.9732858,E,1,22,2.779,625.1302,M*39
$GPGFA,210102.00,11.809,18.518,1.242,1.040,354.684,2.258,,VVV*02
$GPLLK,210102.00,010125,,M,,M,1,22,1.3,,M*09
$GNGMP,210102.00,,,,,DAAA,22,0.6,,,,*50
$GPGMP,210102.00,,,,,,06,,,,2.7,123*7E
$GLGMP,210102.00,,,,,,05,,,,,*7A
$GAGMP,210102.00,,,,,,03,,,,,*71
$GBGMP,210102.00,,,,,,08,,,,,*79
$PSSN,SNC,[0,334880000,2347]*40
$GPZDA,210107.00,01,01,2025,,*66
$GPDTM,W84,,00.0000000,N,00.0000000,E,00.0000000,W84*5F
$GPRMC,210107.00,A,4742.4463525,N,01617.9732856,E,0.0,,010125,5.1,E,D*1F
$GPGLL,4742.4463525,N,01617.9732856,E,210107.00,A,D*6E
$GPGGA,210107.00,4742.4463525,N,01617.9732856,E,2,20,0.6,625.1382,M,43.2111,M,2.3,0123*4B
$GNGNS,210107.00,4742.4463525,N,01617.9732856,E,DAAA,20,0.6,625.1382,43.2111,,*56
$GPGNS,210107.00,,,,,,06,,,,2.3,123*7F
$GLGNS,210107.00,,,,,,04,,,,,*7E
$GAGNS,210107.00,,,,,,03,,,,,*74
$GBGNS,210107.00,,,,,,07,,,,,*73
$GPLLQ,210107.00,010125,,M,,M,1,20,2.101,,M*14
$GPVTG,,T,,M,0.01,N,0.02,K,D*25
$GPHDT,,T*1B
$GPTHS,,V*0E
$GPROT,,V*08
$PSSN,HRP,210107.00,010125,,,,,,,00,0,,*64
$PTNL,AVR,210107.00,,Yaw,,Tilt,,,,0,,00*32
$GPGSA,A,3,08,10,16,21,23,27,,,,,,,1.2,0.6,1.0*3F
$GPGSA,A,3,68,69,74,75,,,,,,,,,1.2,0.6,1.0*36
$GPGSA,A,3,13,26,31,,,,,,,,,,1.2,0.6,1.0*32
$GPGSA,A,3,13,14,27,28,33,41,42,,,,,,1.2,0.6,1.0*3D
$GPGST,210107.00,6.897,0.941,0.784,356.899,0.941,0.784,1.708*54
$GPGBS,210107.00,4.131,3.477,7.187,13,0.0001,16.236,8.669*61
$GPGRS,210107.00,1,0.1,-0.8,-0.6,0.5,1.0,-0.1,,,,,,*6C
$GPGRS,210107.00,1,4.5,0.1,-5.6,-7.2,,,,,,,,*4D
$GPGRS,210107.00,1,1.0,0.4,-0.1,,,,,,,,,*4C
$GPGRS,210107.00,1,16.2,-3.4,-1.3,-0.3,-2.0,0.3,15.2,,,,,*61
$GPGSV,4,1,14,27,77,162,46,02,15,272,30,16,23,196,42,32,18,138,31*77
$GPGSV,4,2,14,23,36,051,42,21,34,276,38,08,61,296,42,10,73,099,44*71
$GPGSV,4,3,14,18,06,080,,15,03,026,,36,35,170,40,34,31,208,*71
$GPGSV,4,4,14,49,34,195,35,61,03,257,*79
$GLGSV,3,1,10,68,51,103,41,67,30,037,26,75,22,324,42,82,12,092,24*6C
$GLGSV,3,2,10,69,23,159,46,74,28,267,40,83,49,068,33,84,48,309,34*6F
$GLGSV,3,3,10,73,10,225,,85,01,286,*64
$GAGSV,3,1,11,14,78,239,,07,15,136,,03,12,034,26,31,23,316,45*6A
$GAGSV,3,2,11,33,20,265,35,21,24,197,33,08,26,084,35,23,45,257,*60
$GAGSV,3,3,11,13,50,065,45,26,68,288,42,15,01,077,*56
$GBGSV,5,1,19,28,81,063,46,41,28,173,43,60,11,108,,08,18,041,21*66
$GBGSV,5,2,19,05,23,128,,58,19,260,,42,26,045,38,43,20,108,35*68
$GBGSV,5,3,19,46,17,277,,13,26,045,38,57,31,236,,27,47,295,38*6B
$GBGSV,5,4,19,14,45,069,43,33,54,111,51,36,08,326,27,50,05,031,*67
$GBGSV,5,5,19,38,04,044,,02,08,105,,37,06,227,*57
$GPGGA,210107.00,,,,,0,00,,,M,,M,,*4D
$PTNL,GGK,210107.00,010125,4742.4463525,N,01617.9732856,E,1,20,1.2,EHT668.3493,M*4C
$GPGGQ,210107.00,010125,4742.4463525,N,01617.9732856,E,1,20,2.101,625.1382,M*3F
$GPGFA,210107.00,8.946,14.002,0.941,0.784,356.899,1.708,,VVV*33
$GPLLK,210107.00,010125,,M,,M,1,20,1.4,,M*09
$GNGMP,210107.00,,,,,DAAA,20,0.6,,,,*57
$GPGMP,210107.00,,,,,,06,,,,2.3,123*7F
$GLGMP,210107.00,,,,,,04,,,,,*7E
$GAGMP,210107.00,,,,,,03,,,,,*74
$GBGMP,210107.00,,,,,,07,,,,,*73
$PSSN,SNC,[0,334885000,2347]*45
$GPZDA,210112.00,01,01,2025,,*62
$GPDTM,W84,,00.0000000,N,00.0000000,E,00.0000000,W84*5F
$GPRMC,210112.00,A,4742.4463446,N,01617.9732824,E,0.0,,010125,5.1,E,D*1A
$GPGLL,4742.4463446,N,01617.9732824,E,210112.00,A,D*6B
$GPGGA,210112.00,4742.4463446,N,01617.9732824,E,2,22,0.6,625.1418,M,43.2111,M,3.3,0123*49
$GNGNS,210112.00,4742.4463446,N,01617.9732824,E,DAAA,22,0.6,625.1418,43.2111,,*55
$GPGNS,210112.00,,,,,,06,,,,3.3,123*7A
$GLGNS,210112.00,,,,,,04,,,,,*7A
$GAGNS,210112.00,,,,,,05,,,,,*76
$GBGNS,210112.00,,,,,,07,,,,,*77
$GPLLQ,210112.00,010125,,M,,M,1,22,2.609,,M*1D
$GPVTG,,T,,M,0.00,N,0.01,K,D*27
$GPHDT,,T*1B
$GPTHS,,V*0E
$GPROT,,V*08
$PSSN,HRP,210112.00,010125,,,,,,,00,0,,*60
$PTNL,AVR,210112.00,,Yaw,,Tilt,,,,0,,00*36
$GPGSA,A,3,08,10,16,21,23,27,,,,,,,1.1,0.6,1.0*3C
$GPGSA,A,3,68,69,74,75,,,,,,,,,1.1,0.6,1.0*35
$GPGSA,A,3,08,13,26,31,33,,,,,,,,1.1,0.6,1.0*39
$GPGSA,A,3,13,14,27,28,33,41,42,,,,,,1.1,0.6,1.0*3E
$GPGST,210112.00,7.998,1.174,0.963,358.478,1.174,0.963,2.122*5F
$GPGBS,210112.00,4.177,3.452,7.239,08,0.0001,19.869,6.299*66
$GPGRS,210112.00,1,0.4,-0.5,-0.5,-0.0,0.7,-0.1,,,,,,*4D
$GPGRS,210112.00,1,4.4,-0.5,-6.2,-4.9,,,,,,,,*6E
$GPGRS,210112.00,1,19.9,0.8,1.1,-0.4,5.2,,,,,,,*76
$GPGRS,210112.00,1,16.4,-3.8,-0.9,0.1,-2.1,0.8,12.7,,,,,*43
$GPGSV,4,1,14,27,77,162,46,02,15,272,32,16,23,196,43,32,18,138,29*7D
$GPGSV,4,2,14,23,36,051,43,21,34,276,37,08,61,296,42,10,73,099,43*78
$GPGSV,4,3,14,18,06,080,,15,03,026,,36,35,170,41,34,31,208,*70
$GPGSV,4,4,14,49,34,195,36,61,03,257,*7A
$GLGSV,3,1,10,68,51,103,41,67,30,037,25,75,22,324,43,82,12,092,24*6E
$GLGSV,3,2,10,69,23,159,46,74,28,267,39,83,49,068,33,84,48,309,33*66
$GLGSV,3,3,10,73,10,225,,85,01,286,*64
$GAGSV,3,1,11,14,78,238,,07,15,136,,03,12,034,26,31,23,316,45*6B
$GAGSV,3,2,11,33,20,265,35,21,24,197,31,08,26,084,35,23,45,257,*62
$GAGSV,3,3,11,13,50,065,44,26,68,288,42,15,01,077,*57
$GBGSV,5,1,19,28,81,063,46,41,28,173,42,60,11,108,,08,18,041,22*64
$GBGSV,5,2,19,05,23,128,,58,19,260,,42,26,045,38,43,20,108,34*69
$GBGSV,5,3,19,46,17,277,,13,26,045,38,57,31,236,,27,47,295,36*65
$GBGSV,5,4,19,14,45,069,42,33,54,111,51,36,08,326,24,50,05,031,*65
$GBGSV,5,5,19,38,04,044,,02,08,105,,37,06,227,*57
$GPGGA,210112.00,,,,,0,00,,,M,,M,,*49
$PTNL,GGK,210112.00,010125,4742.4463446,N,01617.9732824,E,1,22,1.1,EHT668.3528,M*49
$GPGGQ,210112.00,010125,4742.4463446,N,01617.9732824,E,1,22,2.609,625.1418,M*33
$GPGFA,210112.00,11.164,17.402,1.174,0.963,358.478,2.122,,VVV*08
$GPLLK,210112.00,010125,,M,,M,1,22,1.3,,M*08
$GNGMP,210112.00,,,,,DAAA,22,0.6,,,,*51
$GPGMP,210112.00,,,,,,06,,,,3.3,123*7A
$GLGMP,210112.00,,,,,,04,,,,,*7A
$GAGMP,210112.00,,,,,,05,,,,,*76
$GBGMP,210112.00,,,,,,07,,,,,*77
$PSSN,SNC,[0,334890000,2347]*41
$GPZDA,210117.00,01,01,2025,,*67
$GPDTM,W84,,00.0000000,N,00.0000000,E,00.0000000,W84*5F
$GPRMC,210117.00,A,4742.4463368,N,01617.9732743,E,0.0,,010125,5.1,E,D*1A
$GPGLL,4742.4463368,N,01617.9732743,E,210117.00,A,D*6B
$GPGGA,210117.00,4742.4463368,N,01617.9732743,E,2,23,0.6,625.1485,M,43.2111,M,1.7,0123*4A
$GNGNS,210117.00,4742.4463368,N,01617.9732743,E,DAAA,23,0.6,625.1485,43.2111,,*50
$GPGNS,210117.00,,,,,,06,,,,1.7,123*79
$GLGNS,210117.00,,,,,,04,,,,,*7F
$GAGNS,210117.00,,,,,,05,,,,,*73
$GBGNS,210117.00,,,,,,08,,,,,*7D
$GPLLQ,210117.00,010125,,M,,M,1,23,2.433,,M*12
$GPVTG,,T,,M,0.00,N,0.00,K,D*26
$GPHDT,,T*1B
$GPTHS,,V*0E
$GPROT,,V*08
$PSSN,HRP,210117.00,010125,,,,,,,00,0,,*65
$PTNL,AVR,210117.00,,Yaw,,Tilt,,,,0,,00*33
$GPGSA,A,3,08,10,16,21,23,27,,,,,,,1.1,0.6,0.9*34
$GPGSA,A,3,68,69,74,75,,,,,,,,,1.1,0.6,0.9*3D
$GPGSA,A,3,08,13,26,31,33,,,,,,,,1.1,0.6,0.9*31
$GPGSA,A,3,13,14,27,28,33,36,41,42,,,,,1.1,0.6,0.9*33
$GPGST,210117.00,7.898,1.093,0.905,357.364,1.093,0.905,1.976*54
$GPGBS,210117.00,4.063,3.374,6.806,08,0.0001,19.427,6.298*64
$GPGRS,210117.00,1,0.4,-0.2,-0.7,0.1,0.5,-0.4,,,,,,*66
$GPGRS,210117.00,1,3.6,-0.5,-7.0,-2.5,,,,,,,,*67
$GPGRS,210117.00,1,19.4,0.4,0.8,-0.6,7.2,,,,,,,*7A
$GPGRS,210117.00,1,16.9,-5.0,0.3,0.2,-2.1,-6.6,0.9,11.7,,,,*60
$GPGSV,4,1,14,27,77,162,46,02,15,272,,16,23,196,43,32,18,138,28*7D
$GPGSV,4,2,14,23,36,051,44,21,34,276,36,08,61,296,42,10,73,098,42*7E
$GPGSV,4,3,14,18,06,080,,15,03,026,,36,35,170,41,34,31,208,*70
$GPGSV,4,4,14,49,34,195,36,61,03,257,*7A
$GLGSV,3,1,10,68,51,103,37,67,30,037,,75,22,324,44,82,12,092,*69
$GLGSV,3,2,10,69,23,159,45,74,28,266,37,83,49,068,31,84,48,309,34*6F
$GLGSV,3,3,10,73,10,225,,85,01,286,*64
$GAGSV,3,1,11,14,78,238,,07,15,136,,03,12,034,,31,23,315,46*6F
$GAGSV,3,2,11,33,20,265,36,21,24,197,28,08,26,084,36,23,45,257,*6A
$GAGSV,3,3,11,13,50,065,44,26,68,288,41,15,01,077,*54
$GBGSV,5,1,19,28,81,064,45,41,28,173,41,60,11,108,,08,18,041,22*63
$GBGSV,5,2,19,05,23,128,,58,19,260,,42,26,045,37,43,20,108,32*60
$GBGSV,5,3,19,46,17,277,,13,26,045,38,57,31,236,,27,47,295,35*66
$GBGSV,5,4,19,14,45,069,40,33,54,111,51,36,08,326,37,50,05,031,*65
$GBGSV,5,5,19,38,04,044,,02,08,105,,37,06,227,*57
$GPGGA,210117.00,,,,,0,00,,,M,,M,,*4C
$PTNL,GGK,210117.00,010125,4742.4463368,N,01617.9732743,E,1,23,1.1,EHT668.3596,M*4D
$GPGGQ,210117.00,010125,4742.4463368,N,01617.9732743,E,1,23,2.433,625.1485,M*3D
$GPGFA,210117.00,10.394,16.203,1.093,0.905,357.364,1.976,,VVV*00
$GPLLK,210117.00,010125,,M,,M,1,23,1.2,,M*0D
$GNGMP,210117.00,,,,,DAAA,23,0.6,,,,*55
$GPGMP,210117.00,,,,,,06,,,,1.7,123*79
$GLGMP,210117.00,,,,,,04,,,,,*7F
$GAGMP,210117.00,,,,,,05,,,,,*73
$GBGMP,210117.00,,,,,,08,,,,,*7D
$PSSN,SNC,[0,334895000,2347]*44
$GPZDA,210122.00,01,01,2025,,*61
$GPDTM,W84,,00.0000000,N,00.0000000,E,00.0000000,W84*5F
$GPRMC,210122.00,A,4742.4463288,N,01617.9732707,E,0.0,,010125,5.1,E,D*13
$GPGLL,4742.4463288,N,01617.9732707,E,210122.00,A,D*62
$GPGGA,210122.00,4742.4463288,N,01617.9732707,E,2,21,0.6,625.1463,M,43.2111,M,2.8,0123*45
$GNGNS,210122.00,4742.4463288,N,01617.9732707,E,DAAA,21,0.6,625.1463,43.2111,,*53
$GPGNS,210122.00,,,,,,05,,,,2.8,123*70
$GLGNS,210122.00,,,,,,03,,,,,*7E
$GAGNS,210122.00,,,,,,05,,,,,*75
$GBGNS,210122.00,,,,,,08,,,,,*7B
$GPLLQ,210122.00,010125,,M,,M,1,21,2.680,,M*1C
$GPVTG,,T,,M,0.00,N,0.00,K,D*26
$GPHDT,,T*1B
$GPTHS,,V*0E
$GPROT,,V*08
$PSSN,HRP,210122.00,010125,,,,,,,00,0,,*63
$PTNL,AVR,210122.00,,Yaw,,Tilt,,,,0,,00*35
$GPGSA,A,3,08,10,16,23,27,,,,,,,,1.1,0.6,0.9*37
$GPGSA,A,3,69,74,75,,,,,,,,,,1.1,0.6,0.9*33
$GPGSA,A,3,08,13,26,31,33,,,,,,,,1.1,0.6,0.9*31
$GPGSA,A,3,13,14,27,28,33,36,41,42,,,,,1.1,0.6,0.9*33
$GPGST,210122.00,8.748,1.249,1.049,321.943,1.177,1.129,2.126*56
$GPGBS,210122.00,3.731,5.589,7.260,08,0.0001,18.909,6.297*63
$GPGRS,210122.00,1,0.8,-0.4,-0.9,0.1,-0.0,,,,,,,*4B
$GPGRS,210122.00,1,-0.2,-6.9,-2.3,,,,,,,,,*43
$GPGRS,210122.00,1,18.9,-0.3,0.2,-0.9,7.0,,,,,,,*5D
$GPGRS,210122.00,1,16.2,-6.1,0.1,0.2,-2.1,-6.8,0.9,16.1,,,,*62
$GPGSV,4,1,14,27,77,162,46,02,15,272,38,16,23,196,43,32,18,138,24*7A
$GPGSV,4,2,14,23,36,051,45,21,34,276,35,08,62,296,43,10,73,098,42*7E
$GPGSV,4,3,14,18,06,080,,15,03,026,,36,35,170,41,34,31,208,*70
$GPGSV,4,4,14,49,34,195,36,61,03,257,*7A
$GLGSV,3,1,10,68,51,102,33,67,30,037,31,75,22,324,45,82,12,092,19*67
$GLGSV,3,2,10,69,23,159,45,74,28,266,37,83,49,068,29,84,48,309,34*66
$GLGSV,3,3,10,73,10,225,,85,01,286,*64
$GAGSV,3,1,11,14,78,238,,07,15,136,,03,12,034,31,31,23,315,46*6D
$GAGSV,3,2,11,33,20,265,36,21,24,197,37,08,26,084,37,23,45,257,*65
$GAGSV,3,3,11,13,50,065,44,26,68,288,41,15,01,077,*54
$GBGSV,5,1,19,28,81,064,44,41,28,173,40,60,11,108,,08,18,041,22*63
$GBGSV,5,2,19,05,23,128,,58,19,259,,42,26,045,36,43,20,108,26*6E
$GBGSV,5,3,19,46,17,277,,13,26,045,37,57,31,236,,27,47,295,35*69
$GBGSV,5,4,19,14,45,069,38,33,54,111,52,36,08,326,37,50,05,031,*69
$GBGSV,5,5,19,38,04,044,,02,08,105,,37,06,227,*57
$GPGGA,210122.00,,,,,0,00,,,M,,M,,*4A
$PTNL,GGK,210122.00,010125,4742.4463288,N,01617.9732707,E,1,21,1.1,EHT668.3573,M*4D
$GPGGQ,210122.00,010125,4742.4463288,N,01617.9732707,E,1,21,2.680,625.1463,M*34
$GPGFA,210122.00,11.872,17.435,1.249,1.049,321.943,2.126,,VVV*03
$GPLLK,210122.00,010125,,M,,M,1,21,1.2,,M*09
$GNGMP,210122.00,,,,,DAAA,21,0.6,,,,*51
$GPGMP,210122.00,,,,,,05,,,,2.8,123*70
$GLGMP,210122.00,,,,,,03,,,,,*7E
$GAGMP,210122.00,,,,,,05,,,,,*75
$GBGMP,210122.00,,,,,,08,,,,,*7B
$PSSN,SNC,[0,334900000,2347]*49
$GPZDA,210127.00,01,01,2025,,*64
$GPDTM,W84,,00.0000000,N,00.0000000,E,00.0000000,W84*5F
$GPRMC,210127.00,A,4742.4463193,N,01617.9732644,E,0.0,,010125,5.1,E,D*19
$GPGLL,4742.4463193,N,01617.9732644,E,210127.00,A,D*68
$GPGGA,210127.00,4742.4463193,N,01617.9732644,E,2,22,0.6,625.1208,M,43.2111,M,2.1,0123*4E
$GNGNS,210127.00,4742.4463193,N,01617.9732644,E,DAAA,22,0.6,625.1208,43.2111,,*51
$GPGNS,210127.00,,,,,,07,,,,2.1,123*7E
$GLGNS,210127.00,,,,,,04,,,,,*7C
$GAGNS,210127.00,,,,,,05,,,,,*70
$GBGNS,210127.00,,,,,,06,,,,,*70
$GPLLQ,210127.00,010125,,M,,M,1,22,2.220,,M*14
$GPVTG,,T,,M,0.00,N,0.00,K,D*26
$GPHDT,,T*1B
$GPTHS,,V*0E
$GPROT,,V*08
$PSSN,HRP,210127.00,010125,,,,,,,00,0,,*66
$PTNL,AVR,210127.00,,Yaw,,Tilt,,,,0,,00*30
$GPGSA,A,3,02,08,10,16,21,23,27,,,,,,1.2,0.6,1.0*3D
$GPGSA,A,3,68,69,74,75,,,,,,,,,1.2,0.6,1.0*36
$GPGSA,A,3,08,13,26,31,33,,,,,,,,1.2,0.6,1.0*3A
$GPGSA,A,3,13,14,27,28,33,41,,,,,,,1.2,0.6,1.0*3B
$GPGST,210127.00,6.205,1.069,0.867,3.555,1.068,0.868,1.742*59
$GPGBS,210127.00,4.432,3.642,6.159,08,0.0001,1.564,0.606*5E
$GPGRS,210127.00,1,0.5,1.6,0.2,-1.0,-0.6,-0.6,-0.2,,,,,*64
$GPGRS,210127.00,1,1.1,-0.7,-6.4,-2.4,,,,,,,,*67
$GPGRS,210127.00,1,13.8,-1.0,-1.0,-1.6,4.6,,,,,,,*75
$GPGRS,210127.00,1,15.4,-7.7,-1.6,-0.2,-2.6,-0.8,,,,,,*5D
$GPGSV,4,1,14,27,77,162,46,02,15,272,39,16,23,196,42,32,18,138,26*78
$GPGSV,4,2,14,23,35,051,45,21,34,276,36,08,62,296,43,10,73,098,42*7E
$GPGSV,4,3,14,18,06,080,,15,03,026,,36,35,170,41,34,31,208,*70
$GPGSV,4,4,14,49,34,195,36,61,03,257,*7A
$GLGSV,3,1,10,68,51,102,35,67,30,037,31,75,22,324,46,82,12,092,22*6A
$GLGSV,3,2,10,69,23,159,44,74,28,266,39,83,49,068,31,84,48,309,34*60
$GLGSV,3,3,10,73,10,225,24,85,01,286,*62
$GAGSV,3,1,11,14,78,238,,07,15,136,,03,12,034,24,31,23,315,45*6A
$GAGSV,3,2,11,33,20,265,36,21,24,197,26,08,26,084,36,23,45,257,*64
$GAGSV,3,3,11,13,50,065,43,26,68,288,40,15,01,077,*52
$GBGSV,5,1,19,28,81,064,44,41,28,173,39,60,11,108,,08,18,041,21*6E
$GBGSV,5,2,19,05,23,128,,58,19,259,,42,26,045,33,43,20,108,23*6E
$GBGSV,5,3,19,46,17,277,,13,26,045,37,57,31,236,,27,47,295,36*6A
$GBGSV,5,4,19,14,45,069,37,33,54,111,52,36,08,326,31,50,05,031,*60
$GBGSV,5,5,19,38,04,044,,02,08,105,,37,06,227,*57
$GPGGA,210127.00,,,,,0,00,,,M,,M,,*4F
$PTNL,GGK,210127.00,010125,4742.4463193,N,01617.9732644,E,1,22,1.2,EHT668.3318,M*4C
$GPGGQ,210127.00,010125,4742.4463193,N,01617.9732644,E,1,22,2.220,625.1208,M*38
$GPGFA,210127.00,10.165,14.283,1.069,0.867,3.555,1.742,,VVV*0A
$GPLLK,210127.00,010125,,M,,M,1,22,1.3,,M*0E
$GNGMP,210127.00,,,,,DAAA,22,0.6,,,,*57
$GPGMP,210127.00,,,,,,07,,,,2.1,123*7E
$GLGMP,210127.00,,,,,,04,,,,,*7C
$GAGMP,210127.00,,,,,,05,,,,,*70
$GBGMP,210127.00,,,,,,06,,,,,*70
$PSSN,SNC,[0,334905000,2347]*4C
$GPZDA,210132.00,01,01,2025,,*60
$GPDTM,W84,,00.0000000,N,00.0000000,E,00.0000000,W84*5F
$GPRMC,210132.00,A,4742.4463112,N,01617.9732791,E,0.0,,010125,5.1,E,D*1D
$GPGLL,4742.4463112,N,01617.9732791,E,210132.00,A,D*6C
$GPGGA,210132.00,4742.4463112,N,01617.9732791,E,2,22,0.6,625.1191,M,43.2111,M,3.1,0123*48
$GNGNS,210132.00,4742.4463112,N,01617.9732791,E,DAAA,22,0.6,625.1191,43.2111,,*56
$GPGNS,210132.00,,,,,,07,,,,3.1,123*7B
$GLGNS,210132.00,,,,,,03,,,,,*7F
$GAGNS,210132.00,,,,,,05,,,,,*74
$GBGNS,210132.00,,,,,,07,,,,,*75
