$GPZDA,051442.00,01,01,2025,,*65
$GPDTM,W84,,00.0000000,N,00.0000000,E,00.0000000,W84*5F
$GPRMC,051442.00,A,4742.4468608,N,01617.9733509,E,0.0,,010125,5.1,E,D*1D
$GPGLL,4742.4468608,N,01617.9733509,E,051442.00,A,D*6C
$GPGGA,051442.00,4742.4468608,N,01617.9733509,E,2,20,0.7,624.3902,M,43.2111,M,1.0,0123*49
$GNGNS,051442.00,4742.4468608,N,01617.9733509,E,DAAA,20,0.7,624.3902,43.2111,,*54
$GPGNS,051442.00,,,,,,04,,,,1.0,123*7E
$GLGNS,051442.00,,,,,,07,,,,,*7E
$GAGNS,051442.00,,,,,,05,,,,,*71
$GBGNS,051442.00,,,,,,04,,,,,*73
$GPLLQ,051442.00,010125,,M,,M,1,20,2.416,,M*14
$GPVTG,,T,,M,0.00,N,0.01,K,D*27
$GPHDT,,T*1B
$GPTHS,,V*0E
$GPROT,,V*08
$PSSN,HRP,051442.00,010125,,,,,,,00,0,,*67
$PTNL,AVR,051442.00,,Yaw,,Tilt,,,,0,,00*31
$GPGSA,A,3,06,07,09,11,,,,,,,,,1.4,0.7,1.2*3B
$GPGSA,A,3,71,72,73,74,80,87,88,,,,,,1.4,0.7,1.2*30
$GPGSA,A,3,03,05,09,15,34,,,,,,,,1.4,0.7,1.2*3F
$GPGSA,A,3,12,19,22,36,,,,,,,,,1.4,0.7,1.2*3D
$GPGST,051442.00,3.471,0.999,0.646,334.866,0.945,0.723,2.103*5F
$GPGBS,051442.00,5.857,5.154,15.834,15,0.0001,7.556,6.108*63
$GPGRS,051442.00,1,0.2,-0.2,-0.2,0.4,,,,,,,,*4E
$GPGRS,051442.00,1,-3.6,4.0,1.3,0.6,4.4,-5.0,2.0,,,,,*64
$GPGRS,051442.00,1,-1.2,1.0,-0.6,7.6,1.6,,,,,,,*64
$GPGRS,051442.00,1,1.5,-1.5,-1.9,-2.3,,,,,,,,*6C
$GPGSV,4,1,14,07,74,154,50,16,16,045,22,05,10,312,30,04,27,078,25*77
$GPGSV,4,2,14,06,31,221,43,20,43,304,,30,42,206,39,11,40,267,44*76
$GPGSV,4,3,14,09,56,072,47,29,01,332,,36,35,170,40,34,31,208,*71
$GPGSV,4,4,14,49,34,195,33,61,03,257,*7F
$GLGSV,3,1,09,71,61,059,48,88,21,327,44,70,19,096,,80,23,031,36*64
$GLGSV,3,2,09,74,33,157,37,87,28,263,38,72,49,313,50,73,54,096,45*67
$GLGSV,3,3,09,86,08,220,21*59
$GAGSV,3,1,12,05,81,355,47,06,11,079,,16,12,146,,31,25,066,34*68
$GAGSV,3,2,12,24,23,122,27,34,41,232,42,03,35,269,44,15,35,300,40*63
$GAGSV,3,3,12,09,33,075,43,13,01,339,,23,04,021,,36,10,187,25*66
$GBGSV,6,1,22,22,71,313,51,16,13,047,,45,12,189,,12,17,278,38*68
$GBGSV,6,2,22,44,11,255,31,34,13,306,32,06,15,048,28,05,22,129,34*62
$GBGSV,6,3,22,21,19,294,,09,29,050,24,48,22,108,,58,31,051,*65
$GBGSV,6,4,22,36,48,149,49,46,43,067,,19,49,102,45,43,00,347,*65
$GBGSV,6,5,22,11,05,326,,39,02,047,,37,02,032,,02,06,107,*64
$GBGSV,6,6,22,20,03,109,,60,07,111,*62
$GPGGA,051442.00,,,,,0,00,,,M,,M,,*4E
$PTNL,GGK,051442.00,010125,4742.4468608,N,01617.9733509,E,1,20,1.4,EHT667.6012,M*4F
$GPGGQ,051442.00,010125,4742.4468608,N,01617.9733509,E,1,20,2.416,624.3902,M*3F
$GPGFA,051442.00,9.496,17.246,0.999,0.646,334.866,2.103,,VVV*30
$GPLLK,051442.00,010125,,M,,M,1,20,1.7,,M*09
$GNGMP,051442.00,,,,,DAAA,20,0.7,,,,*55
$GPGMP,051442.00,,,,,,04,,,,1.0,123*7E
$GLGMP,051442.00,,,,,,07,,,,,*7E
$GAGMP,051442.00,,,,,,05,,,,,*71
$GBGMP,051442.00,,,,,,04,,,,,*73
$PSSN,SNC,[0,278100000,2347]*48
$GPZDA,051447.00,01,01,2025,,*60
$GPDTM,W84,,00.0000000,N,00.0000000,E,00.0000000,W84*5F
$GPRMC,051447.00,A,4742.4468616,N,01617.9733559,E,0.0,,010125,5.1,E,D*12
$GPGLL,4742.4468616,N,01617.9733559,E,051447.00,A,D*63
$GPGGA,051447.00,4742.4468616,N,01617.9733559,E,2,19,0.8,624.3987,M,43.2111,M,2.0,0123*4D
$GNGNS,051447.00,4742.4468616,N,01617.9733559,E,DAAA,19,0.8,624.3987,43.2111,,*53
$GPGNS,051447.00,,,,,,04,,,,2.0,123*78
$GLGNS,051447.00,,,,,,06,,,,,*7A
$GAGNS,051447.00,,,,,,05,,,,,*74
$GBGNS,051447.00,,,,,,04,,,,,*76
$GPLLQ,051447.00,010125,,M,,M,1,19,2.569,,M*12
$GPVTG,,T,,M,0.01,N,0.01,K,D*26
$GPHDT,,T*1B
$GPTHS,,V*0E
$GPROT,,V*08
$PSSN,HRP,051447.00,010125,,,,,,,00,0,,*62
$PTNL,AVR,051447.00,,Yaw,,Tilt,,,,0,,00*34
$GPGSA,A,3,06,07,09,11,,,,,,,,,1.6,0.8,1.4*30
$GPGSA,A,3,71,72,73,74,87,88,,,,,,,1.6,0.8,1.4*33
$GPGSA,A,3,03,05,09,15,34,,,,,,,,1.6,0.8,1.4*34
$GPGSA,A,3,12,19,22,36,,,,,,,,,1.6,0.8,1.4*36
$GPGST,051447.00,3.906,1.059,0.691,335.838,1.007,0.765,2.237*5B
$GPGBS,051447.00,5.928,5.199,16.639,15,0.0001,8.685,6.108*6C
$GPGRS,051447.00,1,0.3,-0.4,-0.2,0.3,,,,,,,,*4B
$GPGRS,051447.00,1,-3.8,4.9,1.2,1.7,-6.8,-1.3,,,,,,*6F
$GPGRS,051447.00,1,-1.2,1.4,-0.8,8.7,1.4,,,,,,,*67
$GPGRS,051447.00,1,1.2,-1.3,-1.8,-1.9,,,,,,,,*60
$GPGSV,4,1,14,07,74,154,50,16,16,045,25,05,10,312,30,04,27,078,25*70
$GPGSV,4,2,14,06,31,221,43,20,43,304,42,30,42,206,36,11,40,267,44*7F
$GPGSV,4,3,14,09,56,072,47,29,01,332,,36,35,170,40,34,31,208,*71
$GPGSV,4,4,14,49,34,195,33,61,03,257,*7F
$GLGSV,3,1,09,71,61,059,48,88,21,327,44,70,19,096,,80,23,031,35*67
$GLGSV,3,2,09,74,33,157,37,87,28,263,37,72,50,313,51,73,54,096,45*61
$GLGSV,3,3,09,86,08,220,21*59
$GAGSV,3,1,12,05,81,355,47,06,10,079,,16,12,146,,31,25,066,33*6E
$GAGSV,3,2,12,24,23,122,28,34,41,232,41,03,35,269,44,15,36,300,39*62
$GAGSV,3,3,12,09,33,075,43,13,01,339,,23,04,021,,36,10,187,24*67
$GBGSV,6,1,22,22,71,313,52,16,13,047,,45,12,189,,12,17,278,38*6B
$GBGSV,6,2,22,44,11,255,30,34,13,306,31,06,15,048,28,05,22,129,34*60
$GBGSV,6,3,22,21,19,294,,09,29,050,23,48,22,108,,58,31,051,*62
$GBGSV,6,4,22,36,48,149,49,46,43,067,,19,49,102,45,43,00,347,*65
$GBGSV,6,5,22,11,05,326,,39,02,047,,37,02,032,,02,06,107,*64
$GBGSV,6,6,22,20,03,109,,60,07,111,*62
$GPGGA,051447.00,,,,,0,00,,,M,,M,,*4B
$PTNL,GGK,051447.00,010125,4742.4468616,N,01617.9733559,E,1,19,1.6,EHT667.6097,M*45
$GPGGQ,051447.00,010125,4742.4468616,N,01617.9733559,E,1,19,2.569,624.3987,M*3E
$GPGFA,051447.00,10.073,18.341,1.059,0.691,335.838,2.237,,VVV*0B
$GPLLK,051447.00,010125,,M,,M,1,19,1.8,,M*09
$GNGMP,051447.00,,,,,DAAA,19,0.8,,,,*55
$GPGMP,051447.00,,,,,,04,,,,2.0,123*78
$GLGMP,051447.00,,,,,,06,,,,,*7A
$GAGMP,051447.00,,,,,,05,,,,,*74
$GBGMP,051447.00,,,,,,04,,,,,*76
$PSSN,SNC,[0,278105000,2347]*4D
$GPZDA,051452.00,01,01,2025,,*64
$GPDTM,W84,,00.0000000,N,00.0000000,E,00.0000000,W84*5F
$GPRMC,051452.00,A,4742.4468641,N,01617.9733611,E,0.0,,010125,5.1,E,D*1B
$GPGLL,4742.4468641,N,01617.9733611,E,051452.00,A,D*6A
$GPGGA,051452.00,4742.4468641,N,01617.9733611,E,2,19,0.7,624.4048,M,43.2111,M,3.0,0123*47
$GNGNS,051452.00,4742.4468641,N,01617.9733611,E,DAAA,19,0.7,624.4048,43.2111,,*58
$GPGNS,051452.00,,,,,,04,,,,3.0,123*7D
$GLGNS,051452.00,,,,,,05,,,,,*7D
$GAGNS,051452.00,,,,,,05,,,,,*70
$GBGNS,051452.00,,,,,,05,,,,,*73
$GPLLQ,051452.00,010125,,M,,M,1,19,2.459,,M*14
$GPVTG,,T,,M,0.00,N,0.01,K,D*27
$GPHDT,,T*1B
$GPTHS,,V*0E
$GPROT,,V*08
$PSSN,HRP,051452.00,010125,,,,,,,00,0,,*66
$PTNL,AVR,051452.00,,Yaw,,Tilt,,,,0,,00*30
$GPGSA,A,3,06,07,09,11,,,,,,,,,1.5,0.7,1.2*3A
$GPGSA,A,3,71,72,73,74,88,,,,,,,,1.5,0.7,1.2*36
$GPGSA,A,3,03,05,09,15,34,,,,,,,,1.5,0.7,1.2*3E
$GPGSA,A,3,12,19,22,34,36,,,,,,,,1.5,0.7,1.2*3B
$GPGST,051452.00,3.429,1.005,0.665,336.442,0.959,0.730,2.143*5C
$GPGBS,051452.00,6.008,5.299,16.692,72,0.0001,5.856,6.067*66
$GPGRS,051452.00,1,0.5,-0.2,-0.3,-0.3,,,,,,,,*63
$GPGRS,051452.00,1,-3.4,5.9,3.7,2.2,-1.4,,,,,,,*6D
$GPGRS,051452.00,1,-1.5,1.8,-0.7,5.7,0.3,,,,,,,*6C
$GPGRS,051452.00,1,0.1,-1.6,-1.3,-5.1,-2.1,,,,,,,*64
$GPGSV,4,1,14,07,74,154,50,16,16,045,27,05,10,312,32,04,27,078,*77
$GPGSV,4,2,14,06,31,221,43,20,43,304,44,30,42,206,29,11,40,267,44*77
$GPGSV,4,3,14,09,56,072,47,29,01,332,,36,35,170,40,34,31,208,*71
$GPGSV,4,4,14,49,34,195,33,61,03,257,*7F
$GLGSV,3,1,09,71,61,059,48,88,21,326,44,70,19,096,,80,23,031,30*63
$GLGSV,3,2,09,74,33,157,36,87,28,263,34,72,50,313,52,73,54,095,46*60
$GLGSV,3,3,09,86,08,220,20*58
$GAGSV,3,1,12,05,81,355,47,06,10,079,,16,12,146,,31,25,066,32*6F
$GAGSV,3,2,12,24,23,122,29,34,41,232,39,03,35,269,43,15,36,300,36*64
$GAGSV,3,3,12,09,33,075,43,13,01,339,,23,04,021,,36,10,187,24*67
$GBGSV,6,1,22,22,71,313,52,16,13,047,,45,12,189,,12,17,278,37*64
$GBGSV,6,2,22,44,11,255,29,34,13,306,40,06,15,048,27,05,22,129,34*61
$GBGSV,6,3,22,21,19,294,32,09,29,050,24,48,22,108,,58,31,051,*64
$GBGSV,6,4,22,36,48,149,49,46,43,067,,19,49,102,46,43,00,347,*66
$GBGSV,6,5,22,11,05,326,,39,02,047,,37,02,032,,02,06,107,*64
$GBGSV,6,6,22,20,03,109,,60,07,111,*62
$GPGGA,051452.00,,,,,0,00,,,M,,M,,*4F
$PTNL,GGK,051452.00,010125,4742.4468641,N,01617.9733611,E,1,19,1.5,EHT667.6159,M*4C
$GPGGQ,051452.00,010125,4742.4468641,N,01617.9733611,E,1,19,2.459,624.4048,M*38
$GPGFA,051452.00,9.557,17.573,1.005,0.665,336.442,2.143,,VVV*3C
$GPLLK,051452.00,010125,,M,,M,1,19,1.7,,M*02
$GNGMP,051452.00,,,,,DAAA,19,0.7,,,,*5E
$GPGMP,051452.00,,,,,,04,,,,3.0,123*7D
$GLGMP,051452.00,,,,,,05,,,,,*7D
$GAGMP,051452.00,,,,,,05,,,,,*70
$GBGMP,051452.00,,,,,,05,,,,,*73
$PSSN,SNC,[0,278110000,2347]*49
$GPZDA,051457.00,01,01,2025,,*61
$GPDTM,W84,,00.0000000,N,00.0000000,E,00.0000000,W84*5F
$GPRMC,051457.00,A,4742.4468663,N,01617.9733645,E,0.0,,010125,5.1,E,D*1F
$GPGLL,4742.4468663,N,01617.9733645,E,051457.00,A,D*6E
$GPGGA,051457.00,4742.4468663,N,01617.9733645,E,2,17,0.8,624.4062,M,43.2111,M,4.0,0123*4D
$GNGNS,051457.00,4742.4468663,N,01617.9733645,E,DAAA,17,0.8,624.4062,43.2111,,*55
$GPGNS,051457.00,,,,,,04,,,,4.0,123*7F
$GLGNS,051457.00,,,,,,04,,,,,*79
$GAGNS,051457.00,,,,,,04,,,,,*74
$GBGNS,051457.00,,,,,,05,,,,,*76
$GPLLQ,051457.00,010125,,M,,M,1,17,2.621,,M*12
$GPVTG,,T,,M,0.01,N,0.01,K,D*26
$GPHDT,,T*1B
$GPTHS,,V*0E
$GPROT,,V*08
$PSSN,HRP,051457.00,010125,,,,,,,00,0,,*63
$PTNL,AVR,051457.00,,Yaw,,Tilt,,,,0,,00*35
$GPGSA,A,3,06,07,09,11,,,,,,,,,1.6,0.8,1.3*37
$GPGSA,A,3,71,72,73,88,,,,,,,,,1.6,0.8,1.3*38
$GPGSA,A,3,03,05,09,34,,,,,,,,,1.6,0.8,1.3*37
$GPGSA,A,3,12,19,22,34,36,,,,,,,,1.6,0.8,1.3*36
$GPGST,051457.00,3.668,1.101,0.706,335.847,1.046,0.786,2.271*5C
$GPGBS,051457.00,6.650,5.692,17.016,06,0.0001,0.851,0.784*61
$GPGRS,051457.00,1,0.9,-0.1,-0.5,0.0,,,,,,,,*41
$GPGRS,051457.00,1,-2.9,6.5,6.0,-1.6,,,,,,,,*45
$GPGRS,051457.00,1,-1.7,1.6,-0.6,-0.4,,,,,,,,*62
$GPGRS,051457.00,1,-1.2,-1.1,-1.1,-5.3,-2.5,,,,,,,*4D
$GPGSV,4,1,14,07,74,154,50,16,16,045,30,05,10,312,33,04,27,078,32*71
$GPGSV,4,2,14,06,31,221,42,20,43,304,44,30,42,206,35,11,40,267,42*7D
$GPGSV,4,3,14,09,56,072,47,29,01,332,,36,35,170,41,34,31,208,*70
$GPGSV,4,4,14,49,34,195,33,61,03,257,*7F
$GLGSV,3,1,09,71,61,059,48,88,21,326,42,70,19,096,,80,23,031,31*64
$GLGSV,3,2,09,74,33,157,34,87,28,263,34,72,50,313,52,73,54,095,45*61
$GLGSV,3,3,09,86,08,220,21*59
$GAGSV,3,1,12,05,81,355,47,06,10,079,,16,12,146,,31,25,066,33*6E
$GAGSV,3,2,12,24,23,122,27,34,41,232,37,03,35,269,42,15,36,300,34*67
$GAGSV,3,3,12,09,33,075,43,13,01,339,,23,04,021,,36,10,187,24*67
$GBGSV,6,1,22,22,71,313,52,16,13,047,,45,12,189,,12,17,278,36*65
$GBGSV,6,2,22,44,11,255,28,34,13,306,31,06,15,048,27,05,22,129,34*66
$GBGSV,6,3,22,21,19,294,33,09,29,050,24,48,22,108,,58,31,051,*65
$GBGSV,6,4,22,36,48,149,48,46,43,067,,19,49,102,46,43,00,347,*67
$GBGSV,6,5,22,11,05,326,,39,02,047,,37,02,032,,02,06,107,*64
$GBGSV,6,6,22,20,03,109,,60,07,111,*62
$GPGGA,051457.00,,,,,0,00,,,M,,M,,*4A
$PTNL,GGK,051457.00,010125,4742.4468663,N,01617.9733645,E,1,17,1.6,EHT667.6173,M*4D
$GPGGQ,051457.00,010125,4742.4468663,N,01617.9733645,E,1,17,2.621,624.4062,M*37
$GPGFA,051457.00,10.471,18.623,1.101,0.706,335.847,2.271,,VVV*04
$GPLLK,051457.00,010125,,M,,M,1,17,1.9,,M*07
$GNGMP,051457.00,,,,,DAAA,17,0.8,,,,*5A
$GPGMP,051457.00,,,,,,04,,,,4.0,123*7F
$GLGMP,051457.00,,,,,,04,,,,,*79
$GAGMP,051457.00,,,,,,04,,,,,*74
$GBGMP,051457.00,,,,,,05,,,,,*76
$PSSN,SNC,[0,278115000,2347]*4C
$GPZDA,051502.00,01,01,2025,,*60
$GPDTM,W84,,00.0000000,N,00.0000000,E,00.0000000,W84*5F
$GPRMC,051502.00,A,4742.4468719,N,01617.9733626,E,0.0,,010125,5.1,E,D*17
$GPGLL,4742.4468719,N,01617.9733626,E,051502.00,A,D*66
$GPGGA,051502.00,4742.4468719,N,01617.9733626,E,2,18,0.8,624.4120,M,43.2111,M,1.8,0123*40
$GNGNS,051502.00,4742.4468719,N,01617.9733626,E,DAAA,18,0.8,624.4120,43.2111,,*55
$GPGNS,051502.00,,,,,,06,,,,1.8,123*71
$GLGNS,051502.00,,,,,,05,,,,,*79
$GAGNS,051502.00,,,,,,03,,,,,*72
$GBGNS,051502.00,,,,,,04,,,,,*76
$GPLLQ,051502.00,010125,,M,,M,1,18,3.883,,M*1B
$GPVTG,,T,,M,0.01,N,0.01,K,D*26
$GPHDT,,T*1B
$GPTHS,,V*0E
$GPROT,,V*08
$PSSN,HRP,051502.00,010125,,,,,,,00,0,,*62
$PTNL,AVR,051502.00,,Yaw,,Tilt,,,,0,,00*34
$GPGSA,A,3,06,07,09,11,20,30,,,,,,,1.6,0.8,1.4*31
$GPGSA,A,3,71,72,73,87,88,,,,,,,,1.6,0.8,1.4*30
$GPGSA,A,3,03,05,09,,,,,,,,,,1.6,0.8,1.4*37
$GPGSA,A,3,12,19,22,36,,,,,,,,,1.6,0.8,1.4*36
$GPGST,051502.00,4.178,1.107,1.028,72.010,1.036,1.100,3.577*64
$GPGBS,051502.00,3.724,5.318,16.700,30,0.0001,2.227,0.694*6D
$GPGRS,051502.00,1,1.0,-0.1,0.1,-1.1,-1.3,2.2,,,,,,*63
$GPGRS,051502.00,1,-2.4,5.4,5.8,-6.9,-6.3,,,,,,,*4E
$GPGRS,051502.00,1,-2.2,1.3,-0.6,,,,,,,,,*67
$GPGRS,051502.00,1,-2.8,-0.9,-1.2,-3.0,,,,,,,,*4E
$GPGSV,4,1,14,07,74,153,50,16,16,045,32,05,10,312,34,04,27,078,35*74
$GPGSV,4,2,14,06,31,221,42,20,43,304,44,30,42,206,36,11,40,267,41*7D
$GPGSV,4,3,14,09,56,072,47,29,01,332,,36,35,170,41,34,31,208,*70
$GPGSV,4,4,14,49,34,195,34,61,03,257,*78
$GLGSV,3,1,09,71,61,059,48,88,21,326,39,80,23,031,33,70,19,096,*6A
$GLGSV,3,2,09,74,33,157,30,87,28,263,35,72,50,313,51,73,54,095,43*61
$GLGSV,3,3,09,86,08,220,22*5A
$GAGSV,3,1,12,05,81,355,47,06,10,079,,16,12,146,,31,25,066,34*69
$GAGSV,3,2,12,24,23,122,26,34,41,232,34,03,35,269,41,15,36,300,33*61
$GAGSV,3,3,12,09,33,075,44,13,01,339,,23,04,021,,36,10,187,24*60
$GBGSV,6,1,22,22,71,313,52,16,13,047,,45,12,189,,12,17,278,36*65
$GBGSV,6,2,22,44,10,254,26,34,13,305,30,06,15,048,27,05,22,129,34*6A
$GBGSV,6,3,22,21,19,294,34,09,29,050,24,48,22,108,,58,31,050,*63
$GBGSV,6,4,22,36,48,149,48,46,43,067,,19,49,102,46,43,00,347,*67
$GBGSV,6,5,22,11,05,326,,39,02,047,,37,02,032,,02,06,107,*64
$GBGSV,6,6,22,20,03,109,,60,07,111,*62
$GPGGA,051502.00,,,,,0,00,,,M,,M,,*4B
$PTNL,GGK,051502.00,010125,4742.4468719,N,01617.9733626,E,1,18,1.6,EHT667.6230,M*4E
$GPGGQ,051502.00,010125,4742.4468719,N,01617.9733626,E,1,18,3.883,624.4120,M*30
$GPGFA,051502.00,10.524,29.329,1.107,1.028,72.010,3.577,,VVV*3F
$GPLLK,051502.00,010125,,M,,M,1,18,1.9,,M*09
$GNGMP,051502.00,,,,,DAAA,18,0.8,,,,*54
$GPGMP,051502.00,,,,,,06,,,,1.8,123*71
$GLGMP,051502.00,,,,,,05,,,,,*79
$GAGMP,051502.00,,,,,,03,,,,,*72
$GBGMP,051502.00,,,,,,04,,,,,*76
$PSSN,SNC,[0,278120000,2347]*4A
$GPZDA,051507.00,01,01,2025,,*65
$GPDTM,W84,,00.0000000,N,00.0000000,E,00.0000000,W84*5F
$GPRMC,051507.00,A,4742.4468789,N,01617.9733543,E,0.0,,010125,5.1,E,D*1B
$GPGLL,4742.4468789,N,01617.9733543,E,051507.00,A,D*6A
$GPGGA,051507.00,4742.4468789,N,01617.9733543,E,2,17,0.9,624.4374,M,43.2111,M,2.0,0123*4A
$GNGNS,051507.00,4742.4468789,N,01617.9733543,E,DAAA,17,0.9,624.4374,43.2111,,*54
$GPGNS,051507.00,,,,,,05,,,,2.0,123*7C
$GLGNS,051507.00,,,,,,05,,,,,*7C
$GAGNS,051507.00,,,,,,03,,,,,*77
$GBGNS,051507.00,,,,,,04,,,,,*73
$GPLLQ,051507.00,010125,,M,,M,1,17,2.966,,M*1A
$GPVTG,,T,,M,0.01,N,0.02,K,D*25
$GPHDT,,T*1B
$GPTHS,,V*0E
$GPROT,,V*08
$PSSN,HRP,051507.00,010125,,,,,,,00,0,,*67
$PTNL,AVR,051507.00,,Yaw,,Tilt,,,,0,,00*31
$GPGSA,A,3,04,06,07,09,11,,,,,,,,1.5,0.9,1.3*31
$GPGSA,A,3,71,72,73,87,88,,,,,,,,1.5,0.9,1.3*35
$GPGSA,A,3,03,05,09,,,,,,,,,,1.5,0.9,1.3*32
$GPGSA,A,3,12,19,22,36,,,,,,,,,1.5,0.9,1.3*33
$GPGST,051507.00,4.264,1.850,0.685,340.233,1.757,0.898,2.215*5E
$GPGBS,051507.00,6.817,4.504,8.622,04,0.0001,2.399,0.891*5E
$GPGRS,051507.00,1,2.4,1.1,-0.9,-0.6,0.1,,,,,,,*6E
$GPGRS,051507.00,1,-2.7,3.1,2.4,-5.7,-8.9,,,,,,,*49
$GPGRS,051507.00,1,-3.4,0.6,-1.1,,,,,,,,,*67
$GPGRS,051507.00,1,-2.8,-1.7,-1.8,-3.6,,,,,,,,*48
$GPGSV,4,1,14,07,74,153,49,16,16,045,33,05,11,312,32,04,27,078,36*79
$GPGSV,4,2,14,06,31,221,42,20,43,304,44,30,42,206,36,11,40,267,43*7F
$GPGSV,4,3,14,09,56,072,48,29,01,332,,36,35,170,40,34,31,208,*7E
$GPGSV,4,4,14,49,34,195,34,61,03,257,*78
$GLGSV,3,1,09,71,61,059,48,88,21,326,38,80,23,031,32,70,19,096,*6A
$GLGSV,3,2,09,74,33,157,25,87,28,263,37,72,50,313,51,73,54,095,39*6A
$GLGSV,3,3,09,86,08,220,23*5B
$GAGSV,3,1,12,05,81,356,46,06,10,079,,16,12,146,,31,25,066,34*6B
$GAGSV,3,2,12,24,23,122,22,34,41,231,31,03,35,269,40,15,36,300,31*60
$GAGSV,3,3,12,09,33,075,44,13,01,339,,23,04,021,,36,10,186,22*67
$GBGSV,6,1,22,22,72,313,52,16,13,047,,45,12,189,,12,17,278,37*67
$GBGSV,6,2,22,44,10,254,23,34,13,305,29,06,15,048,27,05,22,129,34*67
$GBGSV,6,3,22,21,19,294,34,09,29,050,25,48,22,108,,58,31,050,*62
$GBGSV,6,4,22,36,48,149,47,46,43,067,,19,49,102,46,43,00,347,*68
$GBGSV,6,5,22,11,05,326,,39,02,047,,37,02,032,,02,06,107,*64
$GBGSV,6,6,22,20,03,109,,60,07,111,*62
$GPGGA,051507.00,,,,,0,00,,,M,,M,,*4E
$PTNL,GGK,051507.00,010125,4742.4468789,N,01617.9733543,E,1,17,1.5,EHT667.6485,M*46
$GPGGQ,051507.00,010125,4742.4468789,N,01617.9733543,E,1,17,2.966,624.4374,M*3B
$GPGFA,051507.00,17.594,18.164,1.850,0.685,340.233,2.215,,VVV*07
$GPLLK,051507.00,010125,,M,,M,1,17,1.8,,M*02
$GNGMP,051507.00,,,,,DAAA,17,0.9,,,,*5F
$GPGMP,051507.00,,,,,,05,,,,2.0,123*7C
$GLGMP,051507.00,,,,,,05,,,,,*7C
$GAGMP,051507.00,,,,,,03,,,,,*77
$GBGMP,051507.00,,,,,,04,,,,,*73
$PSSN,SNC,[0,278125000,2347]*4F
$GPZDA,051512.00,01,01,2025,,*61
$GPDTM,W84,,00.0000000,N,00.0000000,E,00.0000000,W84*5F
$GPRMC,051512.00,A,4742.4468894,N,01617.9733515,E,0.0,,010125,5.1,E,D*1F
$GPGLL,4742.4468894,N,01617.9733515,E,051512.00,A,D*6E
$GPGGA,051512.00,4742.4468894,N,01617.9733515,E,2,16,1.0,624.4738,M,43.2111,M,2.8,0123*43
$GNGNS,051512.00,4742.4468894,N,01617.9733515,E,DAAA,16,1.0,624.4738,43.2111,,*55
$GPGNS,051512.00,,,,,,04,,,,2.8,123*71
$GLGNS,051512.00,,,,,,05,,,,,*78
$GAGNS,051512.00,,,,,,03,,,,,*73
$GBGNS,051512.00,,,,,,04,,,,,*77
$GPLLQ,051512.00,010125,,M,,M,1,16,5.639,,M*1D
$GPVTG,,T,,M,0.00,N,0.00,K,D*26
$GPHDT,,T*1B
$GPTHS,,V*0E
$GPROT,,V*08
$PSSN,HRP,051512.00,010125,,,,,,,00,0,,*63
$PTNL,AVR,051512.00,,Yaw,,Tilt,,,,0,,00*35
$GPGSA,A,3,07,09,11,20,,,,,,,,,1.8,1.0,1.5*32
$GPGSA,A,3,71,72,73,87,88,,,,,,,,1.8,1.0,1.5*36
$GPGSA,A,3,03,05,09,,,,,,,,,,1.8,1.0,1.5*31
$GPGSA,A,3,12,19,22,36,,,,,,,,,1.8,1.0,1.5*30
$GPGST,051512.00,3.223,2.009,0.893,342.269,1.933,1.048,5.193*5F
$GPGBS,051512.00,10.615,6.156,21.703,20,0.0001,-1.116,0.689*73
$GPGRS,051512.00,1,-0.3,-0.4,1.0,-1.1,,,,,,,,*67
$GPGRS,051512.00,1,-1.2,3.0,-3.6,-1.1,-6.7,,,,,,,*66
$GPGRS,051512.00,1,-2.6,1.5,0.0,,,,,,,,,*4F
$GPGRS,051512.00,1,0.5,-1.3,-0.9,-3.1,,,,,,,,*6D
$GPGSV,4,1,14,07,74,153,49,16,16,045,33,05,11,312,29,04,27,078,36*73
$GPGSV,4,2,14,06,31,221,42,20,43,304,43,30,42,206,35,11,40,267,45*7D
$GPGSV,4,3,14,09,56,072,48,29,01,332,,36,35,170,40,34,31,208,*7E
$GPGSV,4,4,14,49,34,195,34,61,03,257,*78
$GLGSV,3,1,09,71,61,059,48,88,21,326,38,80,23,031,31,70,19,096,*69
$GLGSV,3,2,09,74,33,157,24,87,28,263,39,72,50,313,50,73,54,095,38*65
$GLGSV,3,3,09,86,08,220,25*5D
$GAGSV,3,1,12,05,81,356,46,06,10,079,,16,12,146,,31,25,066,33*6C
$GAGSV,3,2,12,24,23,122,19,34,41,231,27,03,35,269,39,15,36,300,29*68
$GAGSV,3,3,12,09,33,075,44,13,01,339,,23,04,021,,36,10,186,22*67
$GBGSV,6,1,22,22,72,313,52,16,13,047,,45,12,189,,12,17,278,37*67
$GBGSV,6,2,22,44,10,254,,34,13,305,24,06,15,048,27,05,22,129,34*6B
$GBGSV,6,3,22,21,19,294,25,09,29,050,25,48,22,108,,58,31,050,*62
$GBGSV,6,4,22,36,48,149,47,46,43,067,,19,49,103,45,43,00,347,*6A
$GBGSV,6,5,22,11,05,326,,39,02,047,,37,02,032,,02,06,107,*64
$GBGSV,6,6,22,20,03,109,,60,07,111,*62
$GPGGA,051512.00,,,,,0,00,,,M,,M,,*4A
$PTNL,GGK,051512.00,010125,4742.4468894,N,01617.9733515,E,1,16,1.8,EHT667.6849,M*42
$GPGGQ,051512.00,010125,4742.4468894,N,01617.9733515,E,1,16,5.639,624.4738,M*30
$GPGFA,051512.00,19.104,42.582,2.009,0.893,342.269,5.193,,VVV*0A
$GPLLK,051512.00,010125,,M,,M,1,16,2.1,,M*0D
$GNGMP,051512.00,,,,,DAAA,16,1.0,,,,*52
$GPGMP,051512.00,,,,,,04,,,,2.8,123*71
$GLGMP,051512.00,,,,,,05,,,,,*78
$GAGMP,051512.00,,,,,,03,,,,,*73
$GBGMP,051512.00,,,,,,04,,,,,*77
$PSSN,SNC,[0,278130000,2347]*4B
$GPZDA,051517.00,01,01,2025,,*64
$GPDTM,W84,,00.0000000,N,00.0000000,E,00.0000000,W84*5F
$GPRMC,051517.00,A,4742.4468906,N,01617.9733609,E,0.0,,010125,5.1,E,D*1E
$GPGLL,4742.4468906,N,01617.9733609,E,051517.00,A,D*6F
$GPGGA,051517.00,4742.4468906,N,01617.9733609,E,2,18,0.9,624.4758,M,43.2111,M,3.4,0123*4F
$GNGNS,051517.00,4742.4468906,N,01617.9733609,E,DAAA,18,0.9,624.4758,43.2111,,*54
$GPGNS,051517.00,,,,,,05,,,,3.4,123*78
$GLGNS,051517.00,,,,,,05,,,,,*7D
$GAGNS,051517.00,,,,,,03,,,,,*76
$GBGNS,051517.00,,,,,,05,,,,,*73
$GPLLQ,051517.00,010125,,M,,M,1,18,3.694,,M*17
$GPVTG,,T,,M,0.01,N,0.02,K,D*25
$GPHDT,,T*1B
$GPTHS,,V*0E
$GPROT,,V*08
$PSSN,HRP,051517.00,010125,,,,,,,00,0,,*66
$PTNL,AVR,051517.00,,Yaw,,Tilt,,,,0,,00*30
$GPGSA,A,3,07,09,11,20,30,,,,,,,,1.6,0.9,1.3*31
$GPGSA,A,3,71,72,73,87,88,,,,,,,,1.6,0.9,1.3*36
$GPGSA,A,3,03,05,09,,,,,,,,,,1.6,0.9,1.3*31
$GPGSA,A,3,12,19,22,34,36,,,,,,,,1.6,0.9,1.3*37
$GPGST,051517.00,3.026,1.141,0.626,335.800,1.072,0.738,3.457*50
$GPGBS,051517.00,5.029,5.803,21.585,11,0.0001,0.818,0.738*6F
$GPGRS,051517.00,1,0.0,-0.7,0.8,0.5,-0.6,,,,,,,*6B
$GPGRS,051517.00,1,-1.1,3.1,-2.3,1.4,-4.4,,,,,,,*4C
$GPGRS,051517.00,1,-2.6,1.3,0.1,,,,,,,,,*4D
$GPGRS,051517.00,1,1.4,-1.2,-0.6,-6.2,-3.4,,,,,,,*64
$GPGSV,4,1,14,07,74,153,49,16,16,045,33,05,11,312,26,04,27,078,37*7D
$GPGSV,4,2,14,06,31,221,41,20,43,304,42,30,42,206,35,11,40,267,46*7C
$GPGSV,4,3,14,09,56,072,47,29,01,332,23,36,35,170,40,34,31,208,*70
$GPGSV,4,4,14,49,34,195,33,61,03,257,*7F
$GLGSV,3,1,09,71,61,059,48,88,21,326,38,80,23,031,26,70,19,096,*6F
$GLGSV,3,2,09,74,33,157,28,87,28,263,39,72,50,313,50,73,54,095,40*66
$GLGSV,3,3,09,86,08,220,25*5D
$GAGSV,3,1,12,05,81,356,46,06,10,079,,16,12,146,,31,25,066,31*6E
$GAGSV,3,2,12,24,23,122,,34,41,231,26,03,35,269,39,15,36,300,30*69
$GAGSV,3,3,12,09,33,075,44,13,01,339,,23,04,021,,36,10,186,24*61
$GBGSV,6,1,22,22,72,313,51,16,13,047,,45,12,189,,12,17,278,37*64
$GBGSV,6,2,22,44,10,254,,34,13,305,37,06,15,048,27,05,22,129,34*69
$GBGSV,6,3,22,21,20,294,35,09,29,050,26,48,22,108,,58,31,050,*6A
$GBGSV,6,4,22,36,48,149,46,46,43,067,,19,49,103,44,43,00,347,*6A
$GBGSV,6,5,22,11,05,326,,39,02,047,,37,02,032,,02,06,107,*64
$GBGSV,6,6,22,20,03,109,,60,07,111,*62
$GPGGA,051517.00,,,,,0,00,,,M,,M,,*4F
$PTNL,GGK,051517.00,010125,4742.4468906,N,01617.9733609,E,1,18,1.6,EHT667.6869,M*41
$GPGGQ,051517.00,010125,4742.4468906,N,01617.9733609,E,1,18,3.694,624.4758,M*38
$GPGFA,051517.00,10.852,28.349,1.141,0.626,335.800,3.457,,VVV*01
$GPLLK,051517.00,010125,,M,,M,1,18,1.9,,M*0D
$GNGMP,051517.00,,,,,DAAA,18,0.9,,,,*51
$GPGMP,051517.00,,,,,,05,,,,3.4,123*78
$GLGMP,051517.00,,,,,,05,,,,,*7D
$GAGMP,051517.00,,,,,,03,,,,,*76
$GBGMP,051517.00,,,,,,05,,,,,*73
$PSSN,SNC,[0,278135000,2347]*4E
$GPZDA,051522.00,01,01,2025,,*62
$GPDTM,W84,,00.0000000,N,00.0000000,E,00.0000000,W84*5F
$GPRMC,051522.00,A,4742.4468873,N,01617.9733741,E,0.0,,010125,5.1,E,D*16
$GPGLL,4742.4468873,N,01617.9733741,E,051522.00,A,D*67
$GPGGA,051522.00,4742.4468873,N,01617.9733741,E,2,18,0.8,624.4776,M,43.2111,M,1.8,0123*44
$GNGNS,051522.00,4742.4468873,N,01617.9733741,E,DAAA,18,0.8,624.4776,43.2111,,*51
$GPGNS,051522.00,,,,,,06,,,,1.8,123*73
$GLGNS,051522.00,,,,,,04,,,,,*7A
$GAGNS,051522.00,,,,,,04,,,,,*77
$GBGNS,051522.00,,,,,,04,,,,,*74
$GPLLQ,051522.00,010125,,M,,M,1,18,4.268,,M*11
$GPVTG,,T,,M,0.01,N,0.01,K,D*26
$GPHDT,,T*1B
$GPTHS,,V*0E
$GPROT,,V*08
$PSSN,HRP,051522.00,010125,,,,,,,00,0,,*60
$PTNL,AVR,051522.00,,Yaw,,Tilt,,,,0,,00*36
$GPGSA,A,3,06,07,09,11,20,30,,,,,,,1.6,0.8,1.4*31
$GPGSA,A,3,71,72,73,88,,,,,,,,,1.6,0.8,1.4*3F
$GPGSA,A,3,03,05,09,34,,,,,,,,,1.6,0.8,1.4*30
$GPGSA,A,3,12,19,22,36,,,,,,,,,1.6,0.8,1.4*36
$GPGST,051522.00,2.402,1.220,1.030,81.408,1.034,1.216,3.958*61
$GPGBS,051522.00,3.721,5.271,16.513,06,0.0001,2.708,0.752*62
$GPGRS,051522.00,1,2.7,0.1,-1.1,0.2,0.2,-0.8,,,,,,*43
$GPGRS,051522.00,1,-1.4,3.5,0.6,-3.4,,,,,,,,*4D
$GPGRS,051522.00,1,-2.5,1.1,0.1,-0.8,,,,,,,,*41
$GPGRS,051522.00,1,-0.9,-1.1,-0.7,-4.1,,,,,,,,*44
$GPGSV,4,1,14,07,74,153,48,16,16,045,33,05,11,312,27,04,27,078,37*7D
$GPGSV,4,2,14,06,31,221,39,20,43,304,42,30,42,206,36,11,40,267,46*70
$GPGSV,4,3,14,09,55,072,47,29,01,332,24,36,35,170,40,34,31,208,*74
$GPGSV,4,4,14,49,34,195,33,61,03,257,*7F
$GLGSV,3,1,09,71,61,059,49,88,21,326,39,80,23,031,30,70,19,096,*68
$GLGSV,3,2,09,74,33,157,31,87,28,263,33,72,50,313,50,73,54,095,40*64
$GLGSV,3,3,09,86,08,220,*5A
$GAGSV,3,1,12,05,81,356,46,06,10,079,,16,12,146,,31,25,066,28*66
$GAGSV,3,2,12,24,23,121,30,34,41,231,43,03,35,269,39,15,36,300,29*62
$GAGSV,3,3,12,09,33,075,45,13,01,339,,23,04,021,,36,10,186,22*66
$GBGSV,6,1,22,22,72,313,51,16,13,047,,45,12,189,,12,17,278,38*6B
$GBGSV,6,2,22,44,10,254,29,34,13,305,27,06,15,048,27,05,22,129,34*63
$GBGSV,6,3,22,21,20,294,24,09,29,050,27,48,22,108,,58,31,050,*6B
$GBGSV,6,4,22,36,48,149,45,46,43,067,,19,49,103,44,43,00,347,*69
$GBGSV,6,5,22,11,05,326,,39,02,047,,37,02,032,,02,06,107,*64
$GBGSV,6,6,22,20,03,110,,60,07,111,*6A
$GPGGA,051522.00,,,,,0,00,,,M,,M,,*49
$PTNL,GGK,051522.00,010125,4742.4468873,N,01617.9733741,E,1,18,1.6,EHT667.6886,M*48
$GPGGQ,051522.00,010125,4742.4468873,N,01617.9733741,E,1,18,4.268,624.4776,M*3C
$GPGFA,051522.00,11.603,32.452,1.220,1.030,81.408,3.958,,VVV*34
$GPLLK,051522.00,010125,,M,,M,1,18,1.9,,M*0B
$GNGMP,051522.00,,,,,DAAA,18,0.8,,,,*56
$GPGMP,051522.00,,,,,,06,,,,1.8,123*73
$GLGMP,051522.00,,,,,,04,,,,,*7A
$GAGMP,051522.00,,,,,,04,,,,,*77
$GBGMP,051522.00,,,,,,04,,,,,*74
$PSSN,SNC,[0,278140000,2347]*4C
$GPZDA,051527.00,01,01,2025,,*67
$GPDTM,W84,,00.0000000,N,00.0000000,E,00.0000000,W84*5F
$GPRMC,051527.00,A,4742.4468976,N,01617.9733931,E,0.0,,010125,5.1,E,D*1E
$GPGLL,4742.4468976,N,01617.9733931,E,051527.00,A,D*6F
$GPGGA,051527.00,4742.4468976,N,01617.9733931,E,2,18,0.8,624.4858,M,43.2111,M,2.2,0123*46
$GNGNS,051527.00,4742.4468976,N,01617.9733931,E,DAAA,18,0.8,624.4858,43.2111,,*5A
$GPGNS,051527.00,,,,,,06,,,,2.2,123*7F
$GLGNS,051527.00,,,,,,04,,,,,*7F
$GAGNS,051527.00,,,,,,04,,,,,*72
$GBGNS,051527.00,,,,,,04,,,,,*71
$GPLLQ,051527.00,010125,,M,,M,1,18,3.606,,M*1F
$GPVTG,,T,,M,0.01,N,0.02,K,D*25
$GPHDT,,T*1B
$GPTHS,,V*0E
$GPROT,,V*08
$PSSN,HRP,051527.00,010125,,,,,,,00,0,,*65
$PTNL,AVR,051527.00,,Yaw,,Tilt,,,,0,,00*33
$GPGSA,A,3,06,07,09,11,20,30,,,,,,,1.6,0.8,1.4*31
$GPGSA,A,3,71,72,73,88,,,,,,,,,1.6,0.8,1.4*3F
$GPGSA,A,3,03,05,09,34,,,,,,,,,1.6,0.8,1.4*30
$GPGSA,A,3,12,19,22,36,,,,,,,,,1.6,0.8,1.4*36
$GPGST,051527.00,2.462,1.027,0.885,82.041,0.888,1.024,3.341*65
$GPGBS,051527.00,3.713,5.387,16.794,06,0.0001,1.628,0.777*64
$GPGRS,051527.00,1,1.6,-0.5,-1.3,-0.3,0.9,0.5,,,,,,*68
$GPGRS,051527.00,1,-2.1,3.4,1.3,-2.2,,,,,,,,*4C
$GPGRS,051527.00,1,-2.8,0.8,-0.4,-1.3,,,,,,,,*63
$GPGRS,051527.00,1,-0.8,-1.0,-0.5,-5.1,,,,,,,,*42
$GPGSV,4,1,14,07,74,153,48,16,16,045,,05,11,312,28,04,27,078,37*72
$GPGSV,4,2,14,06,31,221,36,20,43,304,42,30,42,206,38,11,40,267,46*71
$GPGSV,4,3,14,09,55,072,48,29,01,332,,36,35,170,40,34,31,208,*7D
$GPGSV,4,4,14,49,34,195,33,61,03,257,*7F
$GLGSV,3,1,09,71,61,059,49,88,21,326,41,80,23,031,34,70,19,096,*63
$GLGSV,3,2,09,74,33,157,34,87,28,263,,72,50,313,50,73,54,095,41*60
$GLGSV,3,3,09,86,08,220,24*5C
$GAGSV,3,1,12,05,81,356,45,06,10,079,,16,12,146,,31,25,066,31*6D
$GAGSV,3,2,12,24,23,121,30,34,41,231,43,03,35,269,39,15,36,300,31*6B
$GAGSV,3,3,12,09,33,075,45,13,01,339,,23,04,021,,36,10,186,22*66
$GBGSV,6,1,22,22,72,313,51,16,13,047,,45,12,189,,12,17,278,39*6A
$GBGSV,6,2,22,44,10,254,30,34,13,305,32,06,15,048,27,05,22,129,34*6F
$GBGSV,6,3,22,21,20,294,25,09,29,050,27,48,22,108,,58,31,050,*6A
$GBGSV,6,4,22,36,48,149,45,46,43,067,,19,49,103,45,43,00,347,*68
$GBGSV,6,5,22,11,05,326,,39,02,047,,37,02,032,,02,06,107,*64
$GBGSV,6,6,22,20,03,110,,60,07,111,*6A
$GPGGA,051527.00,,,,,0,00,,,M,,M,,*4C
$PTNL,GGK,051527.00,010125,4742.4468976,N,01617.9733931,E,1,18,1.6,EHT667.6968,M*41
$GPGGQ,051527.00,010125,4742.4468976,N,01617.9733931,E,1,18,3.606,624.4858,M*3C
$GPGFA,051527.00,9.764,27.400,1.027,0.885,82.041,3.341,,VVV*01
$GPLLK,051527.00,010125,,M,,M,1,18,1.9,,M*0E
$GNGMP,051527.00,,,,,DAAA,18,0.8,,,,*53
$GPGMP,051527.00,,,,,,06,,,,2.2,123*7F
$GLGMP,051527.00,,,,,,04,,,,,*7F
$GAGMP,051527.00,,,,,,04,,,,,*72
$GBGMP,051527.00,,,,,,04,,,,,*71
$PSSN,SNC,[0,278145000,2347]*49
$GPZDA,051532.00,01,01,2025,,*63
$GPDTM,W84,,00.0000000,N,00.0000000,E,00.0000000,W84*5F
$GPRMC,051532.00,A,4742.4468994,N,01617.9734066,E,0.0,,010125,5.1,E,D*1A
$GPGLL,4742.4468994,N,01617.9734066,E,051532.00,A,D*6B
$GPGGA,051532.00,4742.4468994,N,01617.9734066,E,2,17,0.9,624.4930,M,43.2111,M,2.4,0123*45
$GNGNS,051532.00,4742.4468994,N,01617.9734066,E,DAAA,17,0.9,624.4930,43.2111,,*5F
$GPGNS,051532.00,,,,,,05,,,,2.4,123*7E
$GLGNS,051532.00,,,,,,05,,,,,*7A
$GAGNS,051532.00,,,,,,03,,,,,*71
$GBGNS,051532.00,,,,,,04,,,,,*75
$GPLLQ,051532.00,010125,,M,,M,1,17,4.065,,M*10
$GPVTG,,T,,M,0.01,N,0.01,K,D*26
$GPHDT,,T*1B
$GPTHS,,V*0E
$GPROT,,V*08
$PSSN,HRP,051532.00,010125,,,,,,,00,0,,*61
$PTNL,AVR,051532.00,,Yaw,,Tilt,,,,0,,00*37
$GPGSA,A,3,07,09,11,20,30,,,,,,,,1.7,0.9,1.4*37
$GPGSA,A,3,71,72,73,87,88,,,,,,,,1.7,0.9,1.4*30
$GPGSA,A,3,03,05,09,,,,,,,,,,1.7,0.9,1.4*37
$GPGSA,A,3,12,19,22,36,,,,,,,,,1.7,0.9,1.4*36
$GPGST,051532.00,5.470,1.016,0.911,286.490,0.920,1.008,3.830*55
$GPGBS,051532.00,4.902,5.672,21.448,87,0.0001,-14.888,6.162*70
$GPGRS,051532.00,1,-0.5,-0.8,-0.1,1.1,0.9,,,,,,,*48
$GPGRS,051532.00,1,-2.8,3.5,1.9,-14.9,-2.7,,,,,,,*70
$GPGRS,051532.00,1,-2.8,1.0,-0.3,,,,,,,,,*68
$GPGRS,051532.00,1,2.4,-1.1,-0.0,-5.2,,,,,,,,*62
$GPGSV,4,1,14,07,74,153,48,16,16,045,34,05,11,312,30,04,27,078,37*7C
$GPGSV,4,2,14,06,31,221,30,20,43,304,42,30,42,206,38,11,40,267,47*76
$GPGSV,4,3,14,09,55,072,48,29,01,332,,36,35,170,40,34,31,208,*7D
$GPGSV,4,4,14,49,34,195,34,61,03,257,*78
$GLGSV,3,1,09,71,61,060,49,88,21,326,41,80,23,031,33,70,19,096,*6E
$GLGSV,3,2,09,74,33,157,35,87,28,263,36,72,50,313,50,73,54,095,42*67
$GLGSV,3,3,09,86,08,220,*5A
$GAGSV,3,1,12,05,81,357,45,06,10,079,,16,12,145,,31,25,066,23*6C
$GAGSV,3,2,12,24,23,121,30,34,41,231,27,03,35,269,39,15,36,300,33*6B
$GAGSV,3,3,12,09,33,075,46,13,01,339,,23,04,020,,36,10,186,23*65
$GBGSV,6,1,22,22,72,313,51,16,13,047,,45,12,189,,12,17,278,39*6A
$GBGSV,6,2,22,44,10,254,31,34,13,305,34,06,15,048,27,05,22,129,33*6F
$GBGSV,6,3,22,21,20,294,34,09,29,050,28,48,22,108,,58,31,050,*65
$GBGSV,6,4,22,36,48,148,44,46,43,067,,19,49,103,46,43,00,347,*6B
$GBGSV,6,5,22,11,05,326,,39,02,047,,37,02,032,,02,06,107,*64
$GBGSV,6,6,22,20,03,110,,60,07,111,*6A
$GPGGA,051532.00,,,,,0,00,,,M,,M,,*48
$PTNL,GGK,051532.00,010125,4742.4468994,N,01617.9734066,E,1,17,1.7,EHT667.7041,M*48
$GPGGQ,051532.00,010125,4742.4468994,N,01617.9734066,E,1,17,4.065,624.4930,M*3C
$GPGFA,051532.00,9.658,31.403,1.016,0.911,286.490,3.830,,VVV*32
$GPLLK,051532.00,010125,,M,,M,1,17,2.0,,M*0F
$GNGMP,051532.00,,,,,DAAA,17,0.9,,,,*59
$GPGMP,051532.00,,,,,,05,,,,2.4,123*7E
$GLGMP,051532.00,,,,,,05,,,,,*7A
$GAGMP,051532.00,,,,,,03,,,,,*71
$GBGMP,051532.00,,,,,,04,,,,,*75
$PSSN,SNC,[0,278150000,2347]*4D
$GPZDA,051537.00,01,01,2025,,*66
$GPDTM,W84,,00.0000000,N,00.0000000,E,00.0000000,W84*5F
$GPRMC,051537.00,A,4742.4469012,N,01617.9734179,E,0.0,,010125,5.1,E,D*16
$GPGLL,4742.4469012,N,01617.9734179,E,051537.00,A,D*67
$GPGGA,051537.00,4742.4469012,N,01617.9734179,E,2,19,0.8,624.4984,M,43.2111,M,3.4,0123*48
$GNGNS,051537.00,4742.4469012,N,01617.9734179,E,DAAA,19,0.8,624.4984,43.2111,,*53
$GPGNS,051537.00,,,,,,05,,,,3.4,123*7A
$GLGNS,051537.00,,,,,,06,,,,,*7C
$GAGNS,051537.00,,,,,,04,,,,,*73
$GBGNS,051537.00,,,,,,04,,,,,*70
$GPLLQ,051537.00,010125,,M,,M,1,19,4.424,,M*1A
$GPVTG,,T,,M,0.00,N,0.01,K,D*27
$GPHDT,,T*1B
$GPTHS,,V*0E
$GPROT,,V*08
$PSSN,HRP,051537.00,010125,,,,,,,00,0,,*64
$PTNL,AVR,051537.00,,Yaw,,Tilt,,,,0,,00*32
$GPGSA,A,3,07,09,11,20,30,,,,,,,,1.6,0.8,1.4*37
$GPGSA,A,3,71,72,73,74,87,88,,,,,,,1.6,0.8,1.4*33
$GPGSA,A,3,03,05,09,34,,,,,,,,,1.6,0.8,1.4*30
$GPGSA,A,3,12,19,22,36,,,,,,,,,1.6,0.8,1.4*36
$GPGST,051537.00,4.014,1.102,0.971,278.390,0.974,1.099,4.173*53
$GPGBS,051537.00,4.850,5.724,21.726,30,0.0001,1.300,0.662*65
$GPGRS,051537.00,1,-0.4,-1.0,-0.6,1.4,1.3,,,,,,,*4C
$GPGRS,051537.00,1,-3.2,3.3,2.2,0.1,-9.1,-4.9,,,,,,*63
$GPGRS,051537.00,1,-3.9,0.7,-0.5,-2.0,,,,,,,,*6C
$GPGRS,051537.00,1,1.8,-1.6,-0.1,-5.5,,,,,,,,*69
$GPGSV,4,1,14,07,74,153,48,16,16,045,35,05,11,312,32,04,27,078,36*7E
$GPGSV,4,2,14,06,31,221,25,20,43,304,44,30,43,206,39,11,40,267,47*74
$GPGSV,4,3,14,09,55,072,47,29,01,332,,36,35,170,40,34,31,208,*72
$GPGSV,4,4,14,49,34,195,33,61,03,257,*7F
$GLGSV,3,1,09,71,61,060,49,88,21,326,41,80,23,031,30,70,19,096,*6D
$GLGSV,3,2,09,74,33,157,36,87,28,263,38,72,50,313,50,73,54,095,43*6B
$GLGSV,3,3,09,86,07,220,21*56
$GAGSV,3,1,12,05,81,357,45,06,10,079,,16,13,145,,31,25,066,30*6F
$GAGSV,3,2,12,24,23,121,29,34,41,231,44,03,35,269,38,15,36,300,33*67
$GAGSV,3,3,12,09,33,075,46,13,01,339,,23,04,020,,36,09,186,22*6C
$GBGSV,6,1,22,22,72,313,51,16,13,047,,45,12,189,,12,17,278,39*6A
$GBGSV,6,2,22,44,10,254,31,34,13,305,34,06,15,048,27,05,22,129,34*68
$GBGSV,6,3,22,21,20,294,20,09,29,050,28,48,22,108,,58,31,050,*60
$GBGSV,6,4,22,36,48,148,43,46,43,067,,19,49,103,47,43,00,347,*6D
$GBGSV,6,5,22,11,05,326,,39,02,047,,37,02,032,,02,06,107,*64
$GBGSV,6,6,22,20,03,110,,60,07,111,*6A
$GPGGA,051537.00,,,,,0,00,,,M,,M,,*4D
$PTNL,GGK,051537.00,010125,4742.4469012,N,01617.9734179,E,1,19,1.6,EHT667.7095,M*42
$GPGGQ,051537.00,010125,4742.4469012,N,01617.9734179,E,1,19,4.424,624.4984,M*30
$GPGFA,051537.00,10.478,34.222,1.102,0.971,278.390,4.173,,VVV*02
$GPLLK,051537.00,010125,,M,,M,1,19,1.8,,M*0F
$GNGMP,051537.00,,,,,DAAA,19,0.8,,,,*53
$GPGMP,051537.00,,,,,,05,,,,3.4,123*7A
$GLGMP,051537.00,,,,,,06,,,,,*7C
$GAGMP,051537.00,,,,,,04,,,,,*73
$GBGMP,051537.00,,,,,,04,,,,,*70
$PSSN,SNC,[0,278155000,2347]*48
$GPZDA,051542.00,01,01,2025,,*64
$GPDTM,W84,,00.0000000,N,00.0000000,E,00.0000000,W84*5F
$GPRMC,051542.00,A,4742.4469088,N,01617.9734249,E,0.0,,010125,5.1,E,D*17
$GPGLL,4742.4469088,N,01617.9734249,E,051542.00,A,D*66
$GPGGA,051542.00,4742.4469088,N,01617.9734249,E,2,17,0.8,624.5100,M,43.2111,M,2.0,0123*47
$GNGNS,051542.00,4742.4469088,N,01617.9734249,E,DAAA,17,0.8,624.5100,43.2111,,*59
$GPGNS,051542.00,,,,,,05,,,,2.0,123*7D
$GLGNS,051542.00,,,,,,05,,,,,*7D
$GAGNS,051542.00,,,,,,03,,,,,*76
$GBGNS,051542.00,,,,,,04,,,,,*72
$GPLLQ,051542.00,010125,,M,,M,1,17,5.250,,M*12
$GPVTG,,T,,M,0.00,N,0.01,K,D*27
$GPHDT,,T*1B
$GPTHS,,V*0E
$GPROT,,V*08
$PSSN,HRP,051542.00,010125,,,,,,,00,0,,*66
$PTNL,AVR,051542.00,,Yaw,,Tilt,,,,0,,00*30
$GPGSA,A,3,07,09,11,20,30,,,,,,,,1.6,0.8,1.4*37
$GPGSA,A,3,71,72,73,74,88,,,,,,,,1.6,0.8,1.4*3C
$GPGSA,A,3,03,05,09,,,,,,,,,,1.6,0.8,1.4*37
$GPGSA,A,3,12,19,22,36,,,,,,,,,1.6,0.8,1.4*36
$GPGST,051542.00,3.393,1.313,1.181,286.552,1.193,1.303,4.944*5B
$GPGBS,051542.00,4.995,5.420,20.483,30,0.0001,2.056,0.681*6B
$GPGRS,051542.00,1,-0.7,-0.9,-1.2,1.2,2.1,,,,,,,*47
$GPGRS,051542.00,1,-2.8,3.8,3.1,0.8,-4.9,,,,,,,*61
$GPGRS,051542.00,1,-5.0,0.6,-0.5,,,,,,,,,*61
$GPGRS,051542.00,1,-0.5,-1.9,-0.2,-5.4,,,,,,,,*47
$GPGSV,4,1,14,07,74,153,47,16,16,045,34,05,11,312,31,04,27,078,34*71
$GPGSV,4,2,14,06,31,221,34,20,43,304,45,30,43,206,38,11,40,267,47*74
$GPGSV,4,3,14,09,55,072,47,29,01,332,24,36,35,170,40,34,31,208,*74
$GPGSV,4,4,14,49,34,195,33,61,03,257,*7F
$GLGSV,3,1,09,71,61,060,48,88,21,326,42,80,23,031,27,70,19,096,*69
$GLGSV,3,2,09,74,33,157,37,87,28,263,,72,50,313,52,73,54,095,45*65
$GLGSV,3,3,09,86,07,220,21*56
$GAGSV,3,1,12,05,81,357,45,06,10,079,,16,13,145,,31,25,065,30*6C
$GAGSV,3,2,12,24,23,121,28,34,40,231,30,03,35,269,36,15,36,300,32*6B
$GAGSV,3,3,12,09,33,075,46,13,01,339,,23,04,020,,36,09,186,23*6D
$GBGSV,6,1,22,22,72,313,51,16,13,047,,45,12,189,,12,17,278,38*6B
$GBGSV,6,2,22,44,10,254,33,34,13,305,35,06,15,048,28,05,22,129,34*64
$GBGSV,6,3,22,21,20,295,32,09,29,050,29,48,22,108,,58,31,050,*63
$GBGSV,6,4,22,36,48,148,43,46,43,067,,19,49,103,47,43,00,347,*6D
$GBGSV,6,5,22,11,05,326,,39,02,047,,37,02,032,,02,06,107,*64
$GBGSV,6,6,22,20,03,110,,60,07,111,*6A
$GPGGA,051542.00,,,,,0,00,,,M,,M,,*4F
$PTNL,GGK,051542.00,010125,4742.4469088,N,01617.9734249,E,1,17,1.6,EHT667.7211,M*43
$GPGGQ,051542.00,010125,4742.4469088,N,01617.9734249,E,1,17,5.250,624.5100,M*3E
$GPGFA,051542.00,12.481,40.540,1.313,1.181,286.552,4.944,,VVV*05
$GPLLK,051542.00,010125,,M,,M,1,17,1.9,,M*02
$GNGMP,051542.00,,,,,DAAA,17,0.8,,,,*5F
$GPGMP,051542.00,,,,,,05,,,,2.0,123*7D
$GLGMP,051542.00,,,,,,05,,,,,*7D
$GAGMP,051542.00,,,,,,03,,,,,*76
$GBGMP,051542.00,,,,,,04,,,,,*72
$PSSN,SNC,[0,278160000,2347]*4E
$GPZDA,051547.00,01,01,2025,,*61
$GPDTM,W84,,00.0000000,N,00.0000000,E,00.0000000,W84*5F
$GPRMC,051547.00,A,4742.4469164,N,01617.9734352,E,0.0,,010125,5.1,E,D*1A
$GPGLL,4742.4469164,N,01617.9734352,E,051547.00,A,D*6B
$GPGGA,051547.00,4742.4469164,N,01617.9734352,E,2,20,0.8,624.5231,M,43.2111,M,2.2,0123*4D
$GNGNS,051547.00,4742.4469164,N,01617.9734352,E,DAAA,20,0.8,624.5231,43.2111,,*51
$GPGNS,051547.00,,,,,,05,,,,2.2,123*7A
$GLGNS,051547.00,,,,,,06,,,,,*7B
$GAGNS,051547.00,,,,,,04,,,,,*74
$GBGNS,051547.00,,,,,,05,,,,,*76
$GPLLQ,051547.00,010125,,M,,M,1,20,5.126,,M*11
$GPVTG,,T,,M,0.01,N,0.02,K,D*25
$GPHDT,,T*1B
$GPTHS,,V*0E
$GPROT,,V*08
$PSSN,HRP,051547.00,010125,,,,,,,00,0,,*63
$PTNL,AVR,051547.00,,Yaw,,Tilt,,,,0,,00*35
$GPGSA,A,3,07,09,11,20,30,,,,,,,,1.5,0.8,1.2*32
$GPGSA,A,3,71,72,73,74,87,88,,,,,,,1.5,0.8,1.2*36
$GPGSA,A,3,03,05,09,15,,,,,,,,,1.5,0.8,1.2*36
$GPGSA,A,3,12,19,22,34,36,,,,,,,,1.5,0.8,1.2*34
$GPGST,051547.00,4.075,1.292,1.175,296.628,1.199,1.269,4.819*50
$GPGBS,051547.00,4.974,5.514,20.458,30,0.0001,1.803,0.699*63
$GPGRS,051547.00,1,-0.8,-0.6,-1.5,1.2,1.8,,,,,,,*4F
$GPGRS,051547.00,1,-2.9,4.8,3.8,2.6,7.5,-4.6,,,,,,*44
$GPGRS,051547.00,1,-4.6,0.9,-0.5,-0.2,,,,,,,,*6D
$GPGRS,051547.00,1,-0.2,-2.2,-0.3,5.1,-4.9,,,,,,,*6A
$GPGSV,4,1,14,07,74,152,47,16,16,045,33,05,11,312,31,04,27,078,31*72
$GPGSV,4,2,14,06,31,221,27,20,43,304,46,30,43,206,39,11,40,267,47*74
$GPGSV,4,3,14,09,55,072,47,29,01,332,25,36,35,170,41,34,31,208,*74
$GPGSV,4,4,14,49,34,195,34,61,03,257,*78
$GLGSV,3,1,09,71,61,060,49,88,21,326,43,80,23,030,,70,19,096,*6D
$GLGSV,3,2,09,74,33,157,37,87,28,262,39,72,50,313,52,73,54,095,45*6E
$GLGSV,3,3,09,86,07,220,21*56
$GAGSV,3,1,12,05,81,357,45,06,10,079,,16,13,145,,31,25,065,32*6E
$GAGSV,3,2,12,24,23,121,27,34,40,231,29,03,35,269,36,15,36,300,40*69
$GAGSV,3,3,12,09,33,075,46,13,01,339,,23,04,020,,36,09,186,23*6D
$GBGSV,6,1,22,22,72,313,51,16,13,047,,45,12,189,,12,17,278,38*6B
$GBGSV,6,2,22,44,10,254,35,34,13,305,36,06,15,048,27,05,22,129,34*6E
$GBGSV,6,3,22,21,20,295,34,09,29,050,29,48,22,108,,58,31,050,*65
$GBGSV,6,4,22,36,48,148,42,46,43,067,,19,49,103,48,43,00,347,*63
$GBGSV,6,5,22,11,05,326,,39,02,047,,37,02,032,,02,06,107,*64
$GBGSV,6,6,22,20,03,110,,60,07,111,*6A
$GPGGA,051547.00,,,,,0,00,,,M,,M,,*4A
$PTNL,GGK,051547.00,010125,4742.4469164,N,01617.9734352,E,1,20,1.5,EHT667.7341,M*4D
$GPGGQ,051547.00,010125,4742.4469164,N,01617.9734352,E,1,20,5.126,624.5231,M*34
$GPGFA,051547.00,12.281,39.519,1.292,1.175,296.628,4.819,,VVV*01
$GPLLK,051547.00,010125,,M,,M,1,20,1.7,,M*0D
$GNGMP,051547.00,,,,,DAAA,20,0.8,,,,*5E
$GPGMP,051547.00,,,,,,05,,,,2.2,123*7A
$GLGMP,051547.00,,,,,,06,,,,,*7B
$GAGMP,051547.00,,,,,,04,,,,,*74
$GBGMP,051547.00,,,,,,05,,,,,*76
$PSSN,SNC,[0,278165000,2347]*4B
$GPZDA,051552.00,01,01,2025,,*65
$GPDTM,W84,,00.0000000,N,00.0000000,E,00.0000000,W84*5F
$GPRMC,051552.00,A,4742.4469215,N,01617.9734404,E,0.0,,010125,5.1,E,D*1F
$GPGLL,4742.4469215,N,01617.9734404,E,051552.00,A,D*6E
$GPGGA,051552.00,4742.4469215,N,01617.9734404,E,2,21,0.7,624.5345,M,43.2111,M,2.4,0123*42
$GNGNS,051552.00,4742.4469215,N,01617.9734404,E,DAAA,21,0.7,624.5345,43.2111,,*58
$GPGNS,051552.00,,,,,,05,,,,2.4,123*78
$GLGNS,051552.00,,,,,,06,,,,,*7F
$GAGNS,051552.00,,,,,,04,,,,,*70
$GBGNS,051552.00,,,,,,06,,,,,*71
$GPLLQ,051552.00,010125,,M,,M,1,21,5.050,,M*14
$GPVTG,,T,,M,0.00,N,0.00,K,D*26
$GPHDT,,T*1B
$GPTHS,,V*0E
$GPROT,,V*08
$PSSN,HRP,051552.00,010125,,,,,,,00,0,,*67
$PTNL,AVR,051552.00,,Yaw,,Tilt,,,,0,,00*31
$GPGSA,A,3,07,09,11,20,30,,,,,,,,1.4,0.7,1.2*3C
$GPGSA,A,3,71,72,73,74,87,88,,,,,,,1.4,0.7,1.2*38
$GPGSA,A,3,05,09,15,34,,,,,,,,,1.4,0.7,1.2*3C
$GPGSA,A,3,12,19,22,34,36,44,,,,,,,1.4,0.7,1.2*3A
$GPGST,051552.00,3.938,1.264,1.141,285.003,1.149,1.256,4.754*57
$GPGBS,051552.00,4.759,5.600,20.642,30,0.0001,2.121,0.648*6F
$GPGRS,051552.00,1,-0.8,-0.6,-1.4,1.0,2.1,,,,,,,*42
$GPGRS,051552.00,1,-3.0,3.8,3.8,1.1,1.9,-4.2,,,,,,*45
$GPGRS,051552.00,1,1.2,-0.6,0.5,-2.8,,,,,,,,*42
$GPGRS,051552.00,1,-0.6,-2.2,-0.5,6.0,-4.3,8.8,,,,,,*4A
$GPGSV,4,1,14,07,74,152,47,16,16,045,33,05,11,312,31,04,27,078,29*7B
$GPGSV,4,2,14,06,31,221,34,20,43,304,46,30,43,206,39,11,40,267,47*76
$GPGSV,4,3,14,09,55,073,47,29,01,332,,36,35,170,41,34,31,208,*72
$GPGSV,4,4,14,49,34,195,34,61,03,257,*78
$GLGSV,3,1,09,71,61,060,49,88,21,326,44,80,23,030,,70,19,096,*6A
$GLGSV,3,2,09,74,33,157,37,87,28,262,38,72,50,313,51,73,54,095,45*6C
$GLGSV,3,3,09,86,07,220,23*54
$GAGSV,3,1,12,05,81,357,45,06,10,079,,16,13,145,,31,25,065,33*6F
$GAGSV,3,2,12,24,23,121,28,34,40,231,44,03,35,269,35,15,36,300,41*6F
$GAGSV,3,3,12,09,33,075,46,13,01,339,,23,04,020,,36,09,186,21*6F
$GBGSV,6,1,22,22,72,313,52,16,13,047,,45,12,189,,12,17,278,37*67
$GBGSV,6,2,22,44,10,254,36,34,13,305,36,06,15,048,26,05,22,129,34*6C
$GBGSV,6,3,22,21,20,295,32,09,29,050,29,48,22,108,,58,31,050,*63
$GBGSV,6,4,22,36,48,148,42,46,43,067,,19,49,103,48,43,00,347,*63
$GBGSV,6,5,22,11,05,326,,39,02,047,,37,02,032,,02,06,107,*64
$GBGSV,6,6,22,20,02,110,,60,07,111,*6B
$GPGGA,051552.00,,,,,0,00,,,M,,M,,*4E
$PTNL,GGK,051552.00,010125,4742.4469215,N,01617.9734404,E,1,21,1.4,EHT667.7455,M*4A
$GPGGQ,051552.00,010125,4742.4469215,N,01617.9734404,E,1,21,5.050,624.5345,M*32
$GPGFA,051552.00,12.017,38.986,1.264,1.141,285.003,4.754,,VVV*06
$GPLLK,051552.00,010125,,M,,M,1,21,1.6,,M*09
$GNGMP,051552.00,,,,,DAAA,21,0.7,,,,*54
$GPGMP,051552.00,,,,,,05,,,,2.4,123*78
$GLGMP,051552.00,,,,,,06,,,,,*7F
$GAGMP,051552.00,,,,,,04,,,,,*70
$GBGMP,051552.00,,,,,,06,,,,,*71
$PSSN,SNC,[0,278170000,2347]*4F
$GPZDA,051557.00,01,01,2025,,*60
$GPDTM,W84,,00.0000000,N,00.0000000,E,00.0000000,W84*5F
$GPRMC,051557.00,A,4742.4469270,N,01617.9734469,E,0.0,,010125,5.1,E,D*12
$GPGLL,4742.4469270,N,01617.9734469,E,051557.00,A,D*63
$GPGGA,051557.00,4742.4469270,N,01617.9734469,E,2,20,0.8,624.5458,M,43.2111,M,3.4,0123*4B
$GNGNS,051557.00,4742.4469270,N,01617.9734469,E,DAAA,20,0.8,624.5458,43.2111,,*50
$GPGNS,051557.00,,,,,,05,,,,3.4,123*7C
$GLGNS,051557.00,,,,,,06,,,,,*7A
$GAGNS,051557.00,,,,,,03,,,,,*72
$GBGNS,051557.00,,,,,,06,,,,,*74
$GPLLQ,051557.00,010125,,M,,M,1,20,3.890,,M*12
$GPVTG,,T,,M,0.00,N,0.01,K,D*27
$GPHDT,,T*1B
$GPTHS,,V*0E
$GPROT,,V*08
$PSSN,HRP,051557.00,010125,,,,,,,00,0,,*62
$PTNL,AVR,051557.00,,Yaw,,Tilt,,,,0,,00*34
$GPGSA,A,3,07,09,11,20,30,,,,,,,,1.4,0.8,1.2*33
$GPGSA,A,3,71,72,73,74,87,88,,,,,,,1.4,0.8,1.2*37
$GPGSA,A,3,05,09,15,,,,,,,,,,1.4,0.8,1.2*34
$GPGSA,A,3,12,19,22,34,36,44,,,,,,,1.4,0.8,1.2*35
$GPGST,051557.00,3.842,0.976,0.866,277.517,0.868,0.974,3.664*53
$GPGBS,051557.00,4.882,5.750,21.075,30,0.0001,1.504,0.661*6F
$GPGRS,051557.00,1,-0.7,-0.5,-0.8,0.5,1.5,,,,,,,*45
$GPGRS,051557.00,1,-3.0,2.8,3.5,0.1,-8.4,-3.7,,,,,,*66
$GPGRS,051557.00,1,1.3,-0.7,1.1,,,,,,,,,*4B
$GPGRS,051557.00,1,-1.2,-2.3,-0.5,1.1,-3.5,7.1,,,,,,*4A
$GPGSV,4,1,14,07,74,152,47,16,16,045,32,05,11,312,31,04,27,078,27*74
$GPGSV,4,2,14,06,31,221,34,20,43,304,46,30,43,206,40,11,40,267,47*78
$GPGSV,4,3,14,09,55,073,48,29,01,332,,36,35,170,41,34,31,208,*7D
$GPGSV,4,4,14,49,34,195,34,61,03,257,*78
$GLGSV,3,1,09,71,61,060,49,88,21,326,43,80,23,030,36,70,19,096,*68
$GLGSV,3,2,09,74,33,157,35,87,28,262,40,72,50,313,50,73,54,094,44*60
$GLGSV,3,3,09,86,07,220,23*54
$GAGSV,3,1,12,05,81,358,44,06,10,079,,16,13,145,,31,25,065,33*61
$GAGSV,3,2,12,24,23,121,28,34,40,231,33,03,35,270,34,15,36,300,41*66
$GAGSV,3,3,12,09,33,075,46,13,01,339,,23,04,020,,36,09,186,21*6F
$GBGSV,6,1,22,22,72,313,52,16,12,047,,45,12,189,,12,17,278,36*67
$GBGSV,6,2,22,44,10,254,38,34,13,305,37,06,15,048,27,05,22,129,34*62
$GBGSV,6,3,22,21,20,295,34,09,29,050,30,48,22,108,,58,31,050,*6D
$GBGSV,6,4,22,36,48,148,43,46,43,067,,19,49,103,48,43,00,347,*62
$GBGSV,6,5,22,11,05,325,,39,02,047,,37,02,032,,02,06,107,*67
$GBGSV,6,6,22,20,02,110,,60,07,111,*6B
$GPGGA,051557.00,,,,,0,00,,,M,,M,,*4B
$PTNL,GGK,051557.00,010125,4742.4469270,N,01617.9734469,E,1,20,1.4,EHT667.7569,M*48
$GPGGQ,051557.00,010125,4742.4469270,N,01617.9734469,E,1,20,3.890,624.5458,M*37
$GPGFA,051557.00,9.280,30.049,0.976,0.866,277.517,3.664,,VVV*3B
$GPLLK,051557.00,010125,,M,,M,1,20,1.6,,M*0D
$GNGMP,051557.00,,,,,DAAA,20,0.8,,,,*5F
$GPGMP,051557.00,,,,,,05,,,,3.4,123*7C
$GLGMP,051557.00,,,,,,06,,,,,*7A
$GAGMP,051557.00,,,,,,03,,,,,*72
$GBGMP,051557.00,,,,,,06,,,,,*74
$PSSN,SNC,[0,278175000,2347]*4A
$GPZDA,051602.00,01,01,2025,,*63
$GPDTM,W84,,00.0000000,N,00.0000000,E,00.0000000,W84*5F
$GPRMC,051602.00,A,4742.4469362,N,01617.9734498,E,0.0,,010125,5.1,E,D*1D
$GPGLL,4742.4469362,N,01617.9734498,E,051602.00,A,D*6C
$GPGGA,051602.00,4742.4469362,N,01617.9734498,E,2,19,0.8,624.5517,M,43.2111,M,2.0,0123*41
$GNGNS,051602.00,4742.4469362,N,01617.9734498,E,DAAA,19,0.8,624.5517,43.2111,,*5F
$GPGNS,051602.00,,,,,,05,,,,2.0,123*7A
$GLGNS,051602.00,,,,,,05,,,,,*7A
$GAGNS,051602.00,,,,,,03,,,,,*71
$GBGNS,051602.00,,,,,,06,,,,,*77
$GPLLQ,051602.00,010125,,M,,M,1,19,4.331,,M*1C
$GPVTG,,T,,M,0.00,N,0.01,K,D*27
$GPHDT,,T*1B
$GPTHS,,V*0E
$GPROT,,V*08
$PSSN,HRP,051602.00,010125,,,,,,,00,0,,*61
$PTNL,AVR,051602.00,,Yaw,,Tilt,,,,0,,00*37
$GPGSA,A,3,07,09,11,20,30,,,,,,,,1.5,0.8,1.2*32
$GPGSA,A,3,71,72,73,87,88,,,,,,,,1.5,0.8,1.2*35
$GPGSA,A,3,05,09,15,,,,,,,,,,1.5,0.8,1.2*35
$GPGSA,A,3,12,19,22,34,36,44,,,,,,,1.5,0.8,1.2*34
$GPGST,051602.00,4.428,1.094,0.985,290.379,0.999,1.081,4.073*52
$GPGBS,051602.00,5.121,5.441,20.065,30,0.0001,1.634,0.677*69
$GPGRS,051602.00,1,-0.8,-0.4,-0.6,0.1,1.6,,,,,,,*41
$GPGRS,051602.00,1,-3.2,2.9,2.9,-10.0,-5.1,,,,,,,*79
$GPGRS,051602.00,1,1.4,-0.4,2.0,,,,,,,,,*4E
$GPGRS,051602.00,1,-3.3,-1.6,-0.5,-1.1,-3.2,6.9,,,,,,*6F
$GPGSV,4,1,14,07,74,152,46,16,16,045,32,05,11,312,31,04,27,078,30*73
$GPGSV,4,2,14,06,31,221,33,20,43,304,45,30,43,206,39,11,40,267,47*72
$GPGSV,4,3,14,09,55,073,48,29,01,332,,36,35,170,40,34,31,208,*7C
$GPGSV,4,4,14,49,34,195,34,61,03,257,*78
$GLGSV,3,1,09,71,61,060,49,88,21,326,42,80,23,030,34,70,18,096,*6A
$GLGSV,3,2,09,74,33,157,33,87,28,262,40,72,50,313,50,73,54,094,44*66
$GLGSV,3,3,09,86,07,220,26*51
$GAGSV,3,1,12,05,81,358,45,06,10,079,,16,13,145,,31,25,065,34*67
$GAGSV,3,2,12,24,23,121,31,34,40,231,33,03,35,270,34,15,36,300,42*6D
$GAGSV,3,3,12,09,33,075,47,13,01,339,,23,04,020,,36,09,186,21*6E
$GBGSV,6,1,22,22,72,313,51,16,12,047,,45,12,189,,12,17,278,36*64
$GBGSV,6,2,22,44,10,254,38,34,13,305,39,06,15,048,27,05,22,129,34*6C
$GBGSV,6,3,22,21,20,295,34,09,29,050,30,48,22,108,,58,31,050,*6D
$GBGSV,6,4,22,36,48,148,44,46,43,067,,19,48,103,47,43,00,347,*6B
$GBGSV,6,5,22,11,05,325,,39,02,047,,37,01,032,,02,06,107,*64
$GBGSV,6,6,22,20,02,110,,60,07,111,*6B
$GPGGA,051602.00,,,,,0,00,,,M,,M,,*48
$PTNL,GGK,051602.00,010125,4742.4469362,N,01617.9734498,E,1,19,1.5,EHT667.7628,M*4A
$GPGGQ,051602.00,010125,4742.4469362,N,01617.9734498,E,1,19,4.331,624.5517,M*3F
$GPGFA,051602.00,10.401,33.401,1.094,0.985,290.379,4.073,,VVV*0C
$GPLLK,051602.00,010125,,M,,M,1,19,1.7,,M*05
$GNGMP,051602.00,,,,,DAAA,19,0.8,,,,*56
$GPGMP,051602.00,,,,,,05,,,,2.0,123*7A
$GLGMP,051602.00,,,,,,05,,,,,*7A
$GAGMP,051602.00,,,,,,03,,,,,*71
$GBGMP,051602.00,,,,,,06,,,,,*77
$PSSN,SNC,[0,278180000,2347]*40
$GPZDA,051607.00,01,01,2025,,*66
$GPDTM,W84,,00.0000000,N,00.0000000,E,00.0000000,W84*5F
$GPRMC,051607.00,A,4742.4469438,N,01617.9734541,E,0.0,,010125,5.1,E,D*15
$GPGLL,4742.4469438,N,01617.9734541,E,051607.00,A,D*64
$GPGGA,051607.00,4742.4469438,N,01617.9734541,E,2,20,0.8,624.5628,M,43.2111,M,2.8,0123*44
$GNGNS,051607.00,4742.4469438,N,01617.9734541,E,DAAA,20,0.8,624.5628,43.2111,,*52
$GPGNS,051607.00,,,,,,05,,,,2.8,123*77
$GLGNS,051607.00,,,,,,06,,,,,*7C
$GAGNS,051607.00,,,,,,02,,,,,*75
$GBGNS,051607.00,,,,,,07,,,,,*73
$GPLLQ,051607.00,010125,,M,,M,1,20,3.114,,M*11
$GPVTG,,T,,M,0.01,N,0.01,K,D*26
$GPHDT,,T*1B
$GPTHS,,V*0E
$GPROT,,V*08
$PSSN,HRP,051607.00,010125,,,,,,,00,0,,*64
$PTNL,AVR,051607.00,,Yaw,,Tilt,,,,0,,00*32
$GPGSA,A,3,07,09,11,20,30,,,,,,,,1.4,0.8,1.1*30
$GPGSA,A,3,71,72,73,80,87,88,,,,,,,1.4,0.8,1.1*3F
$GPGSA,A,3,05,09,,,,,,,,,,,1.4,0.8,1.1*33
$GPGSA,A,3,12,19,21,22,34,36,44,,,,,,1.4,0.8,1.1*35
$GPGST,051607.00,3.992,0.795,0.719,300.986,0.740,0.775,2.924*58
$GPGBS,051607.00,5.122,5.512,19.916,30,0.0001,1.168,0.698*60
$GPGRS,051607.00,1,-0.4,-0.2,-0.4,-0.0,1.2,,,,,,,*64
$GPGRS,051607.00,1,-3.5,3.8,2.8,-4.3,-5.1,-4.9,,,,,,*42
$GPGRS,051607.00,1,1.7,-0.2,,,,,,,,,,*62
$GPGRS,051607.00,1,-4.1,-1.0,1.4,-0.5,4.3,-2.7,7.3,,,,,*67
$GPGSV,4,1,14,07,74,152,46,16,16,045,32,05,11,312,34,04,27,078,30*76
$GPGSV,4,2,14,06,31,221,28,20,43,304,43,30,43,206,39,11,40,267,47*7E
$GPGSV,4,3,14,09,55,073,48,29,01,332,26,36,35,170,41,34,31,208,*79
$GPGSV,4,4,14,49,34,195,34,61,03,257,*78
$GLGSV,3,1,09,71,61,060,49,88,21,326,42,80,23,030,36,70,18,096,*68
$GLGSV,3,2,09,74,33,157,29,87,28,262,40,72,50,313,51,73,54,094,44*6C
$GLGSV,3,3,09,86,07,220,28*5F
$GAGSV,3,1,12,05,81,358,45,06,10,079,,16,13,145,,31,25,065,34*67
$GAGSV,3,2,12,24,23,121,30,34,40,231,34,03,35,270,34,15,36,300,23*6C
$GAGSV,3,3,12,09,32,075,47,13,01,339,,23,04,020,,36,09,186,20*6E
$GBGSV,6,1,22,22,72,313,51,16,12,047,,45,12,189,,12,17,277,36*6B
$GBGSV,6,2,22,44,10,254,39,34,13,305,41,06,15,048,27,05,22,129,33*65
$GBGSV,6,3,22,21,20,295,35,09,29,050,30,48,22,108,,58,31,050,*6C
$GBGSV,6,4,22,36,48,148,45,46,43,067,,19,48,103,47,43,00,347,*6A
$GBGSV,6,5,22,11,06,325,,39,02,047,,37,01,032,,02,06,107,*67
$GBGSV,6,6,22,20,02,110,,60,07,111,*6B
$GPGGA,051607.00,,,,,0,00,,,M,,M,,*4D
$PTNL,GGK,051607.00,010125,4742.4469438,N,01617.9734541,E,1,20,1.4,EHT667.7738,M*49
$GPGGQ,051607.00,010125,4742.4469438,N,01617.9734541,E,1,20,3.114,624.5628,M*30
$GPGFA,051607.00,7.555,23.976,0.795,0.719,300.986,2.924,,VVV*30
$GPLLK,051607.00,010125,,M,,M,1,20,1.6,,M*0B
$GNGMP,051607.00,,,,,DAAA,20,0.8,,,,*59
$GPGMP,051607.00,,,,,,05,,,,2.8,123*77
$GLGMP,051607.00,,,,,,06,,,,,*7C
$GAGMP,051607.00,,,,,,02,,,,,*75
$GBGMP,051607.00,,,,,,07,,,,,*73
$PSSN,SNC,[0,278185000,2347]*45
$GPZDA,051612.00,01,01,2025,,*62
$GPDTM,W84,,00.0000000,N,00.0000000,E,00.0000000,W84*5F
$GPRMC,051612.00,A,4742.4469491,N,01617.9734592,E,0.0,,010125,5.1,E,D*1C
$GPGLL,4742.4469491,N,01617.9734592,E,051612.00,A,D*6D
$GPGGA,051612.00,4742.4469491,N,01617.9734592,E,2,21,0.7,624.5655,M,43.2111,M,3.2,0123*42
$GNGNS,051612.00,4742.4469491,N,01617.9734592,E,DAAA,21,0.7,624.5655,43.2111,,*5F
$GPGNS,051612.00,,,,,,06,,,,3.2,123*7B
$GLGNS,051612.00,,,,,,06,,,,,*78
$GAGNS,051612.00,,,,,,03,,,,,*70
$GBGNS,051612.00,,,,,,06,,,,,*76
$GPLLQ,051612.00,010125,,M,,M,1,21,2.647,,M*14
$GPVTG,,T,,M,0.01,N,0.01,K,D*26
$GPHDT,,T*1B
$GPTHS,,V*0E
$GPROT,,V*08
$PSSN,HRP,051612.00,010125,,,,,,,00,0,,*60
$PTNL,AVR,051612.00,,Yaw,,Tilt,,,,0,,00*36
$GPGSA,A,3,05,07,09,11,20,30,,,,,,,1.3,0.7,1.1*3D
$GPGSA,A,3,71,72,73,80,87,88,,,,,,,1.3,0.7,1.1*37
$GPGSA,A,3,05,09,34,,,,,,,,,,1.3,0.7,1.1*3C
$GPGSA,A,3,12,19,22,34,36,44,,,,,,,1.3,0.7,1.1*3E
$GPGST,051612.00,4.505,0.812,0.711,309.415,0.754,0.773,2.417*51
$GPGBS,051612.00,5.103,4.672,12.023,30,0.0001,1.103,0.647*68
$GPGRS,051612.00,1,1.3,-0.3,-0.6,-0.3,-0.0,1.1,,,,,,*4B
$GPGRS,051612.00,1,-2.8,4.7,2.6,-3.0,-4.6,-3.9,,,,,,*49
$GPGRS,051612.00,1,1.9,-0.3,-2.3,,,,,,,,,*6B
$GPGRS,051612.00,1,-3.0,-0.7,-0.8,9.5,-2.5,9.2,,,,,,*43
$GPGSV,4,1,14,07,74,152,45,16,16,045,31,05,11,312,35,04,27,078,26*70
$GPGSV,4,2,14,06,31,221,29,20,43,304,43,30,43,206,39,11,40,267,47*7F
$GPGSV,4,3,14,09,55,073,48,29,01,332,25,36,35,170,41,34,31,208,*7A
$GPGSV,4,4,14,49,34,195,34,61,03,257,*78
$GLGSV,3,1,09,71,61,060,49,88,21,326,42,80,23,030,36,70,18,096,*68
$GLGSV,3,2,09,74,34,157,28,87,28,262,38,72,50,313,51,73,54,094,43*62
$GLGSV,3,3,09,86,07,220,28*5F
$GAGSV,3,1,12,05,81,358,45,06,10,079,,16,13,145,,31,25,065,32*61
$GAGSV,3,2,12,24,23,121,,34,40,231,36,03,35,270,32,15,36,300,26*6E
$GAGSV,3,3,12,09,32,075,47,13,01,339,,23,04,020,,36,09,186,21*6F
$GBGSV,6,1,22,22,72,313,51,16,12,047,,45,12,189,,12,17,277,36*6B
$GBGSV,6,2,22,44,10,254,39,34,12,305,41,06,15,048,27,05,22,129,34*63
$GBGSV,6,3,22,21,20,295,35,09,29,050,30,48,22,108,,58,31,050,*6C
$GBGSV,6,4,22,36,48,148,46,46,43,067,,19,48,103,46,43,00,347,*68
$GBGSV,6,5,22,11,06,325,,39,02,047,,37,01,032,,02,06,107,*67
$GBGSV,6,6,22,20,02,110,,60,07,111,*6B
$GPGGA,051612.00,,,,,0,00,,,M,,M,,*49
$PTNL,GGK,051612.00,010125,4742.4469491,N,01617.9734592,E,1,21,1.3,EHT667.7765,M*4E
$GPGGQ,051612.00,010125,4742.4469491,N,01617.9734592,E,1,21,2.647,624.5655,M*32
$GPGFA,051612.00,7.724,19.821,0.812,0.711,309.415,2.417,,VVV*31
$GPLLK,051612.00,010125,,M,,M,1,21,1.5,,M*0D
$GNGMP,051612.00,,,,,DAAA,21,0.7,,,,*53
$GPGMP,051612.00,,,,,,06,,,,3.2,123*7B
$GLGMP,051612.00,,,,,,06,,,,,*78
$GAGMP,051612.00,,,,,,03,,,,,*70
$GBGMP,051612.00,,,,,,06,,,,,*76
$PSSN,SNC,[0,278190000,2347]*41
$GPZDA,051617.00,01,01,2025,,*67
$GPDTM,W84,,00.0000000,N,00.0000000,E,00.0000000,W84*5F
$GPRMC,051617.00,A,4742.4469544,N,01617.9734660,E,0.0,,010125,5.1,E,D*1E
$GPGLL,4742.4469544,N,01617.9734660,E,051617.00,A,D*6F
$GPGGA,051617.00,4742.4469544,N,01617.9734660,E,2,22,0.7,624.5829,M,43.2111,M,1.5,0123*43
$GNGNS,051617.00,4742.4469544,N,01617.9734660,E,DAAA,22,0.7,624.5829,43.2111,,*5B
$GPGNS,051617.00,,,,,,06,,,,1.5,123*7B
$GLGNS,051617.00,,,,,,06,,,,,*7D
$GAGNS,051617.00,,,,,,04,,,,,*72
$GBGNS,051617.00,,,,,,06,,,,,*73
$GPLLQ,051617.00,010125,,M,,M,1,22,3.323,,M*14
$GPVTG,,T,,M,0.00,N,0.01,K,D*27
$GPHDT,,T*1B
$GPTHS,,V*0E
$GPROT,,V*08
$PSSN,HRP,051617.00,010125,,,,,,,00,0,,*65
$PTNL,AVR,051617.00,,Yaw,,Tilt,,,,0,,00*33
$GPGSA,A,3,05,07,09,11,20,30,,,,,,,1.3,0.7,1.1*3D
$GPGSA,A,3,71,72,73,80,87,88,,,,,,,1.3,0.7,1.1*37
$GPGSA,A,3,05,09,15,34,,,,,,,,,1.3,0.7,1.1*38
$GPGSA,A,3,12,19,22,34,36,44,,,,,,,1.3,0.7,1.1*3E
$GPGST,051617.00,6.008,1.158,0.950,314.786,1.059,1.060,2.966*52
$GPGBS,051617.00,5.212,4.248,10.661,80,0.0001,-14.413,6.204*72
$GPGRS,051617.00,1,1.8,-0.2,-0.7,-0.8,0.2,1.0,,,,,,*60
$GPGRS,051617.00,1,-1.4,5.0,2.8,-14.4,-8.6,-4.7,,,,,,*7C
$GPGRS,051617.00,1,1.6,-0.7,3.2,-1.9,,,,,,,,*43
$GPGRS,051617.00,1,-2.9,0.1,-1.7,7.6,-2.1,10.3,,,,,,*5B
$GPGSV,4,1,14,07,74,152,45,16,16,045,30,05,11,312,36,04,27,078,31*74
$GPGSV,4,2,14,06,31,221,31,20,43,304,43,30,43,206,40,11,40,266,47*79
$GPGSV,4,3,14,09,55,073,48,29,01,332,26,36,35,170,41,34,31,208,*79
$GPGSV,4,4,14,49,34,195,34,61,03,257,*78
$GLGSV,3,1,09,71,61,060,50,88,21,326,40,80,23,030,39,70,18,096,*6D
$GLGSV,3,2,09,74,34,157,31,87,28,262,39,72,50,314,51,73,54,094,41*6E
$GLGSV,3,3,09,86,07,220,28*5F
$GAGSV,3,1,12,05,81,358,46,06,10,079,,16,13,145,,31,25,065,32*62
$GAGSV,3,2,12,24,23,121,33,34,40,231,37,03,35,270,31,15,36,300,43*6F
$GAGSV,3,3,12,09,32,075,47,13,01,339,,23,04,020,,36,09,186,20*6E
$GBGSV,6,1,22,22,72,313,51,16,12,047,,45,12,189,,12,17,277,36*6B
$GBGSV,6,2,22,44,10,254,39,34,12,305,41,06,15,048,26,05,22,129,33*65
$GBGSV,6,3,22,21,20,295,34,09,29,050,31,48,22,108,,58,31,050,*6C
$GBGSV,6,4,22,36,48,148,47,46,42,067,,19,48,103,45,43,00,347,*6B
$GBGSV,6,5,22,11,06,325,,39,02,047,,37,01,032,,02,06,107,*67
$GBGSV,6,6,22,20,02,110,,60,07,111,*6B
$GPGGA,051617.00,,,,,0,00,,,M,,M,,*4C
$PTNL,GGK,051617.00,010125,4742.4469544,N,01617.9734660,E,1,22,1.3,EHT667.7940,M*46
$GPGGQ,051617.00,010125,4742.4469544,N,01617.9734660,E,1,22,3.323,624.5829,M*30
$GPGFA,051617.00,11.013,24.321,1.158,0.950,314.786,2.966,,VVV*06
$GPLLK,051617.00,010125,,M,,M,1,22,1.5,,M*0B
$GNGMP,051617.00,,,,,DAAA,22,0.7,,,,*55
$GPGMP,051617.00,,,,,,06,,,,1.5,123*7B
$GLGMP,051617.00,,,,,,06,,,,,*7D
$GAGMP,051617.00,,,,,,04,,,,,*72
$GBGMP,051617.00,,,,,,06,,,,,*73
$PSSN,SNC,[0,278195000,2347]*44
$GPZDA,051622.00,01,01,2025,,*61
$GPDTM,W84,,00.0000000,N,00.0000000,E,00.0000000,W84*5F
$GPRMC,051622.00,A,4742.4469565,N,01617.9734753,E,0.0,,010125,5.1,E,D*1A
$GPGLL,4742.4469565,N,01617.9734753,E,051622.00,A,D*6B
$GPGGA,051622.00,4742.4469565,N,01617.9734753,E,2,21,0.7,624.6010,M,43.2111,M,2.5,0123*46
$GNGNS,051622.00,4742.4469565,N,01617.9734753,E,DAAA,21,0.7,624.6010,43.2111,,*5D
$GPGNS,051622.00,,,,,,06,,,,2.5,123*7E
$GLGNS,051622.00,,,,,,06,,,,,*7B
$GAGNS,051622.00,,,,,,03,,,,,*73
$GBGNS,051622.00,,,,,,06,,,,,*75
$GPLLQ,051622.00,010125,,M,,M,1,21,2.961,,M*1C
$GPVTG,,T,,M,0.01,N,0.02,K,D*25
$GPHDT,,T*1B
$GPTHS,,V*0E
$GPROT,,V*08
$PSSN,HRP,051622.00,010125,,,,,,,00,0,,*63
$PTNL,AVR,051622.00,,Yaw,,Tilt,,,,0,,00*35
$GPGSA,A,3,05,07,09,11,20,30,,,,,,,1.3,0.7,1.1*3D
$GPGSA,A,3,71,72,73,80,87,88,,,,,,,1.3,0.7,1.1*37
$GPGSA,A,3,05,09,34,,,,,,,,,,1.3,0.7,1.1*3C
$GPGSA,A,3,12,19,22,34,36,44,,,,,,,1.3,0.7,1.1*3E
$GPGST,051622.00,4.754,1.051,0.840,318.225,0.963,0.940,2.637*50
$GPGBS,051622.00,5.339,4.322,10.791,05,0.0001,2.158,1.158*6F
$GPGRS,051622.00,1,2.2,-0.1,-1.2,-0.7,0.2,0.9,,,,,,*6F
$GPGRS,051622.00,1,-1.2,4.6,3.4,-1.1,-6.9,-6.4,,,,,,*47
$GPGRS,051622.00,1,1.7,-1.0,-1.5,,,,,,,,,*61
$GPGRS,051622.00,1,-3.0,0.1,-1.8,5.7,-2.2,11.3,,,,,,*5B
$GPGSV,4,1,14,07,74,152,45,16,16,045,27,05,11,312,36,04,26,078,32*70
$GPGSV,4,2,14,06,31,221,33,20,43,304,43,30,43,206,40,11,40,266,47*7B
$GPGSV,4,3,14,09,55,073,47,29,01,332,,36,35,170,41,34,31,208,*72
$GPGSV,4,4,14,49,34,195,34,61,03,257,*78
$GLGSV,3,1,09,71,61,060,50,88,21,326,38,80,22,030,36,70,18,097,*6D
$GLGSV,3,2,09,74,34,157,33,87,28,262,40,72,50,314,51,73,54,094,39*6D
$GLGSV,3,3,09,86,07,220,25*52
$GAGSV,3,1,12,05,81,359,46,06,10,079,,16,13,145,,31,25,065,31*60
$GAGSV,3,2,12,24,23,121,35,34,40,231,38,03,36,270,31,15,36,300,30*61
$GAGSV,3,3,12,09,32,075,46,13,02,339,,23,04,020,,36,09,186,*6E
$GBGSV,6,1,22,22,72,313,51,16,12,047,,45,12,189,,12,17,277,37*6A
$GBGSV,6,2,22,44,10,254,38,34,12,305,41,06,15,048,26,05,22,129,33*64
$GBGSV,6,3,22,21,20,295,34,09,29,050,31,48,22,108,,58,31,050,*6C
$GBGSV,6,4,22,36,48,148,47,46,42,067,,19,48,103,44,43,00,347,*6A
$GBGSV,6,5,22,11,06,325,,39,02,047,,37,01,032,,02,06,107,*67
$GBGSV,6,6,22,20,02,110,,60,07,111,*6B
$GPGGA,051622.00,,,,,0,00,,,M,,M,,*4A
$PTNL,GGK,051622.00,010125,4742.4469565,N,01617.9734753,E,1,21,1.3,EHT667.8121,M*41
$GPGGQ,051622.00,010125,4742.4469565,N,01617.9734753,E,1,21,2.961,624.6010,M*3B
$GPGFA,051622.00,9.996,21.623,1.051,0.840,318.225,2.637,,VVV*3C
$GPLLK,051622.00,010125,,M,,M,1,21,1.5,,M*0E
$GNGMP,051622.00,,,,,DAAA,21,0.7,,,,*50
$GPGMP,051622.00,,,,,,06,,,,2.5,123*7E
$GLGMP,051622.00,,,,,,06,,,,,*7B
$GAGMP,051622.00,,,,,,03,,,,,*73
$GBGMP,051622.00,,,,,,06,,,,,*75
$PSSN,SNC,[0,278200000,2347]*4B
$GPZDA,051627.00,01,01,2025,,*64
$GPDTM,W84,,00.0000000,N,00.0000000,E,00.0000000,W84*5F
$GPRMC,051627.00,A,4742.4469610,N,01617.9734829,E,0.0,,010125,5.1,E,D*1C
$GPGLL,4742.4469610,N,01617.9734829,E,051627.00,A,D*6D
$GPGGA,051627.00,4742.4469610,N,01617.9734829,E,2,23,0.7,624.6183,M,43.2111,M,2.8,0123*44
$GNGNS,051627.00,4742.4469610,N,01617.9734829,E,DAAA,23,0.7,624.6183,43.2111,,*52
$GPGNS,051627.00,,,,,,06,,,,2.8,123*76
$GLGNS,051627.00,,,,,,06,,,,,*7E
$GAGNS,051627.00,,,,,,05,,,,,*70
$GBGNS,051627.00,,,,,,06,,,,,*70
$GPLLQ,051627.00,010125,,M,,M,1,23,3.387,,M*18
$GPVTG,,T,,M,0.01,N,0.01,K,D*26
$GPHDT,,T*1B
$GPTHS,,V*0E
$GPROT,,V*08
$PSSN,HRP,051627.00,010125,,,,,,,00,0,,*66
$PTNL,AVR,051627.00,,Yaw,,Tilt,,,,0,,00*30
$GPGSA,A,3,05,07,09,11,20,30,,,,,,,1.2,0.7,1.0*3D
$GPGSA,A,3,71,72,73,80,87,88,,,,,,,1.2,0.7,1.0*37
$GPGSA,A,3,05,09,15,24,34,,,,,,,,1.2,0.7,1.0*3E
$GPGSA,A,3,12,19,22,34,36,44,,,,,,,1.2,0.7,1.0*3E
$GPGST,051627.00,6.870,1.192,0.986,320.883,1.115,1.073,3.012*56
$GPGBS,051627.00,5.218,4.282,10.862,80,0.0001,19.629,6.204*5B
$GPGRS,051627.00,1,1.2,-0.4,-0.8,-0.5,-0.4,1.8,,,,,,*4E
$GPGRS,051627.00,1,-3.0,4.3,4.1,19.6,-7.4,-6.7,,,,,,*59
$GPGRS,051627.00,1,1.6,-1.3,2.4,2.9,-1.7,,,,,,,*69
$GPGRS,051627.00,1,-2.9,-0.7,-1.9,7.5,-2.3,11.2,,,,,,*7C
$GPGSV,4,1,14,07,74,152,44,16,16,045,,05,11,312,36,04,26,078,28*7F
$GPGSV,4,2,14,06,31,221,36,20,43,304,44,30,43,206,40,11,40,266,47*79
$GPGSV,4,3,14,09,55,073,47,29,01,332,,36,35,170,40,34,31,208,*73
$GPGSV,4,4,14,49,34,195,33,61,03,257,*7F
$GLGSV,3,1,09,71,61,060,49,88,21,326,39,80,22,030,39,70,18,097,*6B
$GLGSV,3,2,09,74,34,157,34,87,28,262,40,72,50,314,51,73,54,094,38*6B
$GLGSV,3,3,09,86,07,220,23*54
$GAGSV,3,1,12,05,81,359,46,06,10,079,,16,13,145,,31,25,065,32*63
$GAGSV,3,2,12,24,23,121,36,34,40,231,39,03,36,270,32,15,36,300,43*64
$GAGSV,3,3,12,09,32,075,46,13,02,339,,23,04,020,,36,09,186,*6E
$GBGSV,6,1,22,22,72,313,51,16,12,047,,45,12,189,,12,17,277,38*65
$GBGSV,6,2,22,44,10,254,37,34,12,305,42,06,15,048,26,05,22,129,34*6F
$GBGSV,6,3,22,21,20,295,35,09,29,050,32,48,22,108,,58,31,050,*6E
$GBGSV,6,4,22,36,48,148,47,46,42,067,,19,48,103,43,43,00,347,*6D
$GBGSV,6,5,22,11,06,325,,39,02,047,,37,01,032,,02,06,107,*67
$GBGSV,6,6,22,20,02,110,,60,07,111,*6B
$GPGGA,051627.00,,,,,0,00,,,M,,M,,*4F
$PTNL,GGK,051627.00,010125,4742.4469610,N,01617.9734829,E,1,23,1.2,EHT667.8294,M*49
