$GPZDA,042942.00,01,01,2025,,*6A
$GPDTM,W84,,00.0000000,N,00.0000000,E,00.0000000,W84*5F
$GPRMC,042942.00,A,4742.4463716,N,01617.9732146,E,0.0,,010125,5.1,E,D*19
$GPGLL,4742.4463716,N,01617.9732146,E,042942.00,A,D*68
$GPGGA,042942.00,4742.4463716,N,01617.9732146,E,2,22,0.6,625.9135,M,43.2111,M,2.8,0123*42
$GNGNS,042942.00,4742.4463716,N,01617.9732146,E,DAAA,22,0.6,625.9135,43.2111,,*54
$GPGNS,042942.00,,,,,,06,,,,2.8,123*78
$GLGNS,042942.00,,,,,,05,,,,,*73
$GAGNS,042942.00,,,,,,04,,,,,*7F
$GBGNS,042942.00,,,,,,07,,,,,*7F
$GPLLQ,042942.00,010125,,M,,M,1,22,2.763,,M*18
$GPVTG,,T,,M,0.01,N,0.02,K,D*25
$GPHDT,,T*1B
$GPTHS,,V*0E
$GPROT,,V*08
$PSSN,HRP,042942.00,010125,,,,,,,00,0,,*68
$PTNL,AVR,042942.00,,Yaw,,Tilt,,,,0,,00*3E
$GPGSA,A,3,04,06,07,09,20,30,,,,,,,1.2,0.6,1.0*3B
$GPGSA,A,3,70,71,72,73,80,,,,,,,,1.2,0.6,1.0*3E
$GPGSA,A,3,05,09,15,34,,,,,,,,,1.2,0.6,1.0*39
$GPGSA,A,3,09,19,20,22,36,37,44,,,,,,1.2,0.6,1.0*34
$GPGST,042942.00,5.908,1.097,0.858,302.999,0.936,1.032,2.385*58
$GPGBS,042942.00,3.236,3.998,7.462,07,0.0001,2.008,0.663*51
$GPGRS,042942.00,1,-0.3,-1.0,2.0,-0.1,-1.5,0.5,,,,,,*47
$GPGRS,042942.00,1,-5.5,-1.8,1.7,5.9,-0.0,,,,,,,*47
$GPGRS,042942.00,1,0.6,0.4,-1.3,0.4,,,,,,,,*6E
$GPGRS,042942.00,1,0.1,-0.5,15.0,-2.7,-2.1,6.0,13.1,,,,,*47
$GPGSV,4,1,15,09,74,047,51,03,16,125,31,30,22,202,41,20,24,307,45*72
$GPGSV,4,2,15,16,17,065,,11,39,294,32,07,54,177,41,04,45,066,46*78
$GPGSV,4,3,15,06,48,240,44,29,01,349,,26,10,036,,36,35,170,40*73
$GPGSV,4,4,15,34,31,208,,49,34,195,34,61,03,257,*46
$GLGSV,3,1,10,71,67,001,49,70,36,076,39,72,32,291,46,86,29,232,28*64
$GLGSV,3,2,10,73,39,126,37,80,36,052,36,87,39,290,,74,09,163,*65
$GLGSV,3,3,10,79,02,012,,88,09,344,31*63
$GAGSV,3,1,10,05,74,278,39,36,27,188,31,23,10,033,,15,28,316,48*6F
$GAGSV,3,2,10,31,20,082,34,06,23,069,34,03,22,256,30,09,47,064,42*65
$GAGSV,3,3,10,34,54,251,39,24,09,131,*6F
$GBGSV,6,1,21,19,64,080,43,36,29,159,39,35,11,224,,05,23,129,*6F
$GBGSV,6,2,21,37,15,039,36,20,17,097,36,16,18,043,22,12,23,296,29*61
$GBGSV,6,3,21,06,21,045,23,44,22,269,40,09,35,050,40,48,37,095,*6B
$GBGSV,6,4,21,58,38,070,,22,54,296,46,46,44,093,,39,08,042,*69
$GBGSV,6,5,21,21,05,284,,11,03,343,30,34,08,319,,02,06,107,*61
$GBGSV,6,6,21,60,08,111,*57
$GPGGA,042942.00,,,,,0,00,,,M,,M,,*41
$PTNL,GGK,042942.00,010125,4742.4463716,N,01617.9732146,E,1,22,1.2,EHT669.1246,M*45
$GPGGQ,042942.00,010125,4742.4463716,N,01617.9732146,E,1,22,2.763,625.9135,M*3F
$GPGFA,042942.00,10.433,19.561,1.097,0.858,302.999,2.385,,VVV*0B
$GPLLK,042942.00,010125,,M,,M,1,22,1.3,,M*00
$GNGMP,042942.00,,,,,DAAA,22,0.6,,,,*59
$GPGMP,042942.00,,,,,,06,,,,2.8,123*78
$GLGMP,042942.00,,,,,,05,,,,,*73
$GAGMP,042942.00,,,,,,04,,,,,*7F
$GBGMP,042942.00,,,,,,07,,,,,*7F
$PSSN,SNC,[0,275400000,2347]*40
$GPZDA,042947.00,01,01,2025,,*6F
$GPDTM,W84,,00.0000000,N,00.0000000,E,00.0000000,W84*5F
$GPRMC,042947.00,A,4742.4463861,N,01617.9732030,E,0.0,,010125,5.1,E,D*13
$GPGLL,4742.4463861,N,01617.9732030,E,042947.00,A,D*62
$GPGGA,042947.00,4742.4463861,N,01617.9732030,E,2,20,0.6,625.9109,M,43.2111,M,3.2,0123*4E
$GNGNS,042947.00,4742.4463861,N,01617.9732030,E,DAAA,20,0.6,625.9109,43.2111,,*53
$GPGNS,042947.00,,,,,,06,,,,3.2,123*76
$GLGNS,042947.00,,,,,,04,,,,,*77
$GAGNS,042947.00,,,,,,04,,,,,*7A
$GBGNS,042947.00,,,,,,06,,,,,*7B
$GPLLQ,042947.00,010125,,M,,M,1,20,2.312,,M*1D
$GPVTG,,T,,M,0.00,N,0.01,K,D*27
$GPHDT,,T*1B
$GPTHS,,V*0E
$GPROT,,V*08
$PSSN,HRP,042947.00,010125,,,,,,,00,0,,*6D
$PTNL,AVR,042947.00,,Yaw,,Tilt,,,,0,,00*3B
$GPGSA,A,3,04,06,07,09,20,30,,,,,,,1.3,0.6,1.1*3B
$GPGSA,A,3,70,71,72,73,,,,,,,,,1.3,0.6,1.1*36
$GPGSA,A,3,05,09,15,34,,,,,,,,,1.3,0.6,1.1*39
$GPGSA,A,3,09,19,22,36,37,44,,,,,,,1.3,0.6,1.1*36
$GPGST,042947.00,4.118,0.912,0.721,300.197,0.774,0.868,1.998*5E
$GPGBS,042947.00,3.321,4.122,7.508,07,0.0001,1.460,0.683*57
$GPGRS,042947.00,1,-0.7,-0.7,1.5,0.2,-1.3,0.2,,,,,,*69
$GPGRS,042947.00,1,-6.2,-0.9,1.1,4.6,,,,,,,,*4D
$GPGRS,042947.00,1,0.4,-0.0,-1.3,0.8,,,,,,,,*4C
$GPGRS,042947.00,1,0.3,-1.2,-3.0,-2.5,4.8,10.5,,,,,,*53
$GPGSV,4,1,15,09,74,047,51,03,16,125,29,30,22,202,41,20,25,307,43*7C
$GPGSV,4,2,15,16,17,065,,11,39,294,35,07,54,177,41,04,45,066,46*7F
$GPGSV,4,3,15,06,48,240,44,29,01,349,,26,10,036,,36,35,170,40*73
$GPGSV,4,4,15,34,31,208,,49,34,195,35,61,03,257,*47
$GLGSV,3,1,10,71,67,001,50,70,36,076,40,72,32,291,45,86,29,232,23*6A
$GLGSV,3,2,10,73,39,126,36,80,36,052,32,87,39,290,,74,09,163,*60
$GLGSV,3,3,10,79,02,012,24,88,09,344,29*6C
$GAGSV,3,1,10,05,74,278,38,36,27,188,29,23,10,032,,15,28,316,48*66
$GAGSV,3,2,10,31,20,082,34,06,23,069,33,03,22,256,38,09,47,064,43*6B
$GAGSV,3,3,10,34,54,251,39,24,09,131,*6F
$GBGSV,6,1,21,19,64,080,43,36,30,159,39,35,11,224,20,05,23,129,*65
$GBGSV,6,2,21,37,15,039,35,20,17,097,35,16,18,043,23,12,23,296,29*60
$GBGSV,6,3,21,06,21,045,22,44,22,269,40,09,35,050,40,48,37,095,*6A
$GBGSV,6,4,21,58,38,070,,22,54,296,46,46,44,093,,39,08,042,*69
$GBGSV,6,5,21,21,05,284,,11,03,343,29,34,08,319,,02,06,107,*69
$GBGSV,6,6,21,60,08,111,*57
$GPGGA,042947.00,,,,,0,00,,,M,,M,,*44
$PTNL,GGK,042947.00,010125,4742.4463861,N,01617.9732030,E,1,20,1.3,EHT669.1220,M*4C
$GPGGQ,042947.00,010125,4742.4463861,N,01617.9732030,E,1,20,2.312,625.9109,M*3A
$GPGFA,042947.00,8.672,16.386,0.912,0.721,300.197,1.998,,VVV*35
$GPLLK,042947.00,010125,,M,,M,1,20,1.5,,M*01
$GNGMP,042947.00,,,,,DAAA,20,0.6,,,,*5E
$GPGMP,042947.00,,,,,,06,,,,3.2,123*76
$GLGMP,042947.00,,,,,,04,,,,,*77
$GAGMP,042947.00,,,,,,04,,,,,*7A
$GBGMP,042947.00,,,,,,06,,,,,*7B
$PSSN,SNC,[0,275405000,2347]*45
$GPZDA,042952.00,01,01,2025,,*6B
$GPDTM,W84,,00.0000000,N,00.0000000,E,00.0000000,W84*5F
$GPRMC,042952.00,A,4742.4463955,N,01617.9731991,E,0.0,,010125,5.1,E,D*10
$GPGLL,4742.4463955,N,01617.9731991,E,042952.00,A,D*61
$GPGGA,042952.00,4742.4463955,N,01617.9731991,E,2,19,0.7,625.9012,M,43.2111,M,1.5,0123*48
$GNGNS,042952.00,4742.4463955,N,01617.9731991,E,DAAA,19,0.7,625.9012,43.2111,,*50
$GPGNS,042952.00,,,,,,06,,,,1.5,123*77
$GLGNS,042952.00,,,,,,04,,,,,*73
$GAGNS,042952.00,,,,,,04,,,,,*7E
$GBGNS,042952.00,,,,,,05,,,,,*7C
$GPLLQ,042952.00,010125,,M,,M,1,19,1.899,,M*18
$GPVTG,,T,,M,0.00,N,0.01,K,D*27
$GPHDT,,T*1B
$GPTHS,,V*0E
$GPROT,,V*08
$PSSN,HRP,042952.00,010125,,,,,,,00,0,,*69
$PTNL,AVR,042952.00,,Yaw,,Tilt,,,,0,,00*3F
$GPGSA,A,3,04,06,07,09,20,30,,,,,,,1.4,0.7,1.2*3E
$GPGSA,A,3,70,71,72,73,,,,,,,,,1.4,0.7,1.2*33
$GPGSA,A,3,05,09,15,34,,,,,,,,,1.4,0.7,1.2*3C
$GPGSA,A,3,09,19,22,36,44,,,,,,,,1.4,0.7,1.2*37
$GPGST,042952.00,3.768,0.753,0.592,300.481,0.637,0.715,1.640*56
$GPGBS,042952.00,3.250,3.917,7.338,07,0.0001,1.237,0.631*55
$GPGRS,042952.00,1,-0.4,-0.4,1.2,0.4,-1.1,-0.2,,,,,,*43
$GPGRS,042952.00,1,-4.9,-0.7,2.8,5.2,,,,,,,,*41
$GPGRS,042952.00,1,-0.2,-0.4,-1.4,0.2,,,,,,,,*6A
$GPGRS,042952.00,1,0.1,-1.3,-4.0,-3.0,8.9,,,,,,,*40
$GPGSV,4,1,15,09,74,047,51,03,16,125,27,30,22,202,41,20,25,307,41*70
$GPGSV,4,2,15,16,17,065,,11,39,294,35,07,55,177,42,04,45,066,45*7E
$GPGSV,4,3,15,06,48,240,44,29,01,349,,26,10,036,,36,35,170,40*73
$GPGSV,4,4,15,34,31,208,,49,34,195,34,61,03,257,*46
$GLGSV,3,1,10,71,67,001,50,70,35,076,40,72,32,291,45,86,29,232,26*6C
$GLGSV,3,2,10,73,39,126,36,80,36,052,34,87,39,290,,74,09,163,*66
$GLGSV,3,3,10,79,01,012,,88,09,344,28*68
$GAGSV,3,1,10,05,74,278,38,36,27,188,29,23,10,032,,15,28,316,48*66
$GAGSV,3,2,10,31,20,082,33,06,23,069,32,03,22,256,37,09,47,064,43*62
$GAGSV,3,3,10,34,54,251,38,24,09,131,*6E
$GBGSV,6,1,21,19,64,080,44,36,30,159,40,35,11,224,22,05,23,129,*6E
$GBGSV,6,2,21,37,15,039,34,20,17,097,34,16,18,043,25,12,23,296,30*6E
$GBGSV,6,3,21,06,21,045,21,44,22,269,41,09,35,050,40,48,37,095,*68
$GBGSV,6,4,21,58,38,070,,22,54,296,46,46,44,093,,39,08,042,*69
$GBGSV,6,5,21,21,05,284,21,11,03,343,28,34,08,319,,02,06,107,*6B
$GBGSV,6,6,21,60,08,111,*57
$GPGGA,042952.00,,,,,0,00,,,M,,M,,*40
$PTNL,GGK,042952.00,010125,4742.4463955,N,01617.9731991,E,1,19,1.4,EHT669.1123,M*42
$GPGGQ,042952.00,010125,4742.4463955,N,01617.9731991,E,1,19,1.899,625.9012,M*33
$GPGFA,042952.00,7.162,13.450,0.753,0.592,300.481,1.640,,VVV*38
$GPLLK,042952.00,010125,,M,,M,1,19,1.7,,M*0D
$GNGMP,042952.00,,,,,DAAA,19,0.7,,,,*51
$GPGMP,042952.00,,,,,,06,,,,1.5,123*77
$GLGMP,042952.00,,,,,,04,,,,,*73
$GAGMP,042952.00,,,,,,04,,,,,*7E
$GBGMP,042952.00,,,,,,05,,,,,*7C
$PSSN,SNC,[0,275410000,2347]*41
$GPZDA,042957.00,01,01,2025,,*6E
$GPDTM,W84,,00.0000000,N,00.0000000,E,00.0000000,W84*5F
$GPRMC,042957.00,A,4742.4464065,N,01617.9731925,E,0.0,,010125,5.1,E,D*17
$GPGLL,4742.4464065,N,01617.9731925,E,042957.00,A,D*66
$GPGGA,042957.00,4742.4464065,N,01617.9731925,E,2,19,0.7,625.8850,M,43.2111,M,2.5,0123*43
$GNGNS,042957.00,4742.4464065,N,01617.9731925,E,DAAA,19,0.7,625.8850,43.2111,,*58
$GPGNS,042957.00,,,,,,06,,,,2.5,123*71
$GLGNS,042957.00,,,,,,04,,,,,*76
$GAGNS,042957.00,,,,,,04,,,,,*7B
$GBGNS,042957.00,,,,,,05,,,,,*79
$GPLLQ,042957.00,010125,,M,,M,1,19,2.728,,M*1B
$GPVTG,,T,,M,0.01,N,0.01,K,D*26
$GPHDT,,T*1B
$GPTHS,,V*0E
$GPROT,,V*08
$PSSN,HRP,042957.00,010125,,,,,,,00,0,,*6C
$PTNL,AVR,042957.00,,Yaw,,Tilt,,,,0,,00*3A
$GPGSA,A,3,04,06,07,09,20,30,,,,,,,1.4,0.7,1.2*3E
$GPGSA,A,3,70,71,72,80,,,,,,,,,1.4,0.7,1.2*3F
$GPGSA,A,3,05,09,15,34,,,,,,,,,1.4,0.7,1.2*3C
$GPGSA,A,3,09,19,22,36,44,,,,,,,,1.4,0.7,1.2*37
$GPGST,042957.00,4.349,1.093,0.839,304.415,0.928,1.019,2.354*54
$GPGBS,042957.00,3.337,3.971,7.492,07,0.0001,2.100,0.644*51
$GPGRS,042957.00,1,-0.5,-0.5,2.1,0.3,-2.1,-0.1,,,,,,*41
$GPGRS,042957.00,1,-5.2,-1.3,3.7,-7.8,,,,,,,,*60
$GPGRS,042957.00,1,0.5,-0.7,-1.8,-1.2,,,,,,,,*66
$GPGRS,042957.00,1,0.7,-2.0,-4.5,-4.5,8.1,,,,,,,*4C
$GPGSV,4,1,15,09,74,047,51,03,16,125,27,30,22,202,41,20,25,307,39*7F
$GPGSV,4,2,15,16,17,065,,11,39,294,36,07,55,177,44,04,45,066,44*7A
$GPGSV,4,3,15,06,48,240,44,29,01,349,,26,10,036,,36,35,170,40*73
$GPGSV,4,4,15,34,31,208,,49,34,195,35,61,03,257,*47
$GLGSV,3,1,10,71,67,001,50,70,35,076,40,72,32,291,45,86,29,232,26*6C
$GLGSV,3,2,10,73,39,126,33,80,36,052,36,87,39,290,32,74,09,163,*60
$GLGSV,3,3,10,79,01,012,26,88,09,344,33*66
$GAGSV,3,1,10,05,74,278,38,36,27,188,29,23,10,032,,15,28,316,48*66
$GAGSV,3,2,10,31,20,082,31,06,23,069,30,03,22,257,30,09,46,064,43*65
$GAGSV,3,3,10,34,54,251,37,24,09,131,*61
$GBGSV,6,1,21,19,64,080,44,36,30,159,41,35,11,224,24,05,23,129,*69
$GBGSV,6,2,21,37,15,039,33,20,17,097,33,16,18,043,28,12,23,296,25*67
$GBGSV,6,3,21,06,21,045,35,44,22,269,41,09,35,050,40,48,37,095,*6D
$GBGSV,6,4,21,58,38,070,,22,54,296,45,46,44,093,,39,08,042,*6A
$GBGSV,6,5,21,21,05,284,,11,03,343,27,34,08,319,,02,06,107,*67
$GBGSV,6,6,21,60,08,111,*57
$GPGGA,042957.00,,,,,0,00,,,M,,M,,*45
$PTNL,GGK,042957.00,010125,4742.4464065,N,01617.9731925,E,1,19,1.4,EHT669.0960,M*4B
$GPGGQ,042957.00,010125,4742.4464065,N,01617.9731925,E,1,19,2.728,625.8850,M*3D
$GPGFA,042957.00,10.391,19.307,1.093,0.839,304.415,2.354,,VVV*06
$GPLLK,042957.00,010125,,M,,M,1,19,1.6,,M*09
$GNGMP,042957.00,,,,,DAAA,19,0.7,,,,*54
$GPGMP,042957.00,,,,,,06,,,,2.5,123*71
$GLGMP,042957.00,,,,,,04,,,,,*76
$GAGMP,042957.00,,,,,,04,,,,,*7B
$GBGMP,042957.00,,,,,,05,,,,,*79
$PSSN,SNC,[0,275415000,2347]*44
$GPZDA,043002.00,01,01,2025,,*66
$GPDTM,W84,,00.0000000,N,00.0000000,E,00.0000000,W84*5F
$GPRMC,043002.00,A,4742.4464254,N,01617.9731876,E,0.0,,010125,5.1,E,D*18
$GPGLL,4742.4464254,N,01617.9731876,E,043002.00,A,D*69
$GPGGA,043002.00,4742.4464254,N,01617.9731876,E,2,21,0.6,625.8639,M,43.2111,M,2.9,0123*4B
$GNGNS,043002.00,4742.4464254,N,01617.9731876,E,DAAA,21,0.6,625.8639,43.2111,,*5C
$GPGNS,043002.00,,,,,,07,,,,2.9,123*74
$GLGNS,043002.00,,,,,,05,,,,,*7F
$GAGNS,043002.00,,,,,,04,,,,,*73
$GBGNS,043002.00,,,,,,05,,,,,*71
$GPLLQ,043002.00,010125,,M,,M,1,21,3.033,,M*14
$GPVTG,,T,,M,0.00,N,0.01,K,D*27
$GPHDT,,T*1B
$GPTHS,,V*0E
$GPROT,,V*08
$PSSN,HRP,043002.00,010125,,,,,,,00,0,,*64
$PTNL,AVR,043002.00,,Yaw,,Tilt,,,,0,,00*32
$GPGSA,A,3,04,06,07,09,11,20,30,,,,,,1.4,0.6,1.2*3F
$GPGSA,A,3,70,71,72,80,86,,,,,,,,1.4,0.6,1.2*30
$GPGSA,A,3,05,09,15,34,,,,,,,,,1.4,0.6,1.2*3D
$GPGSA,A,3,09,19,22,36,44,,,,,,,,1.4,0.6,1.2*36
$GPGST,043002.00,3.910,1.132,0.944,300.617,0.996,1.086,2.651*5B
$GPGBS,043002.00,2.518,3.813,7.531,07,0.0001,2.443,0.662*58
$GPGRS,043002.00,1,-1.2,0.0,2.4,0.2,-1.4,-1.9,0.3,,,,,*41
$GPGRS,043002.00,1,-5.2,-1.5,3.1,-6.1,-2.8,,,,,,,*69
$GPGRS,043002.00,1,0.8,-0.8,-2.1,-1.8,,,,,,,,*6C
$GPGRS,043002.00,1,0.8,-2.7,-4.1,-5.5,7.3,,,,,,,*44
$GPGSV,4,1,15,09,74,047,51,03,16,125,28,30,22,202,40,20,25,307,39*71
$GPGSV,4,2,15,16,17,065,,11,39,294,37,07,55,177,44,04,45,066,43*7C
$GPGSV,4,3,15,06,48,240,44,29,01,349,,26,10,036,,36,35,170,40*73
$GPGSV,4,4,15,34,31,208,,49,34,195,35,61,03,257,*47
$GLGSV,3,1,10,71,67,001,50,70,35,076,39,72,32,291,45,86,29,232,25*61
$GLGSV,3,2,10,73,39,126,29,80,36,051,36,87,39,290,,74,10,163,*61
$GLGSV,3,3,10,79,01,012,26,88,09,344,*66
$GAGSV,3,1,10,05,74,278,39,36,27,188,28,23,10,032,,15,28,316,48*66
$GAGSV,3,2,10,31,20,082,30,06,23,069,28,03,22,257,29,09,46,064,44*62
$GAGSV,3,3,10,34,53,251,37,24,09,131,*66
$GBGSV,6,1,21,19,64,080,44,36,30,159,42,35,11,224,25,05,23,129,*6B
$GBGSV,6,2,21,37,15,039,32,20,17,098,33,16,18,044,26,12,23,296,29*6C
$GBGSV,6,3,21,06,21,045,35,44,22,269,40,09,35,050,40,48,37,095,*6C
$GBGSV,6,4,21,58,38,070,,22,54,296,44,46,44,093,,39,08,042,*6B
$GBGSV,6,5,21,21,05,284,,11,03,342,26,34,08,319,,02,06,107,*67
$GBGSV,6,6,21,60,08,111,*57
$GPGGA,043002.00,,,,,0,00,,,M,,M,,*4D
$PTNL,GGK,043002.00,010125,4742.4464254,N,01617.9731876,E,1,21,1.4,EHT669.0750,M*42
$GPGGQ,043002.00,010125,4742.4464254,N,01617.9731876,E,1,21,3.033,625.8639,M*34
$GPGFA,043002.00,10.763,21.737,1.132,0.944,300.617,2.651,,VVV*0E
$GPLLK,043002.00,010125,,M,,M,1,21,1.6,,M*0A
$GNGMP,043002.00,,,,,DAAA,21,0.6,,,,*56
$GPGMP,043002.00,,,,,,07,,,,2.9,123*74
$GLGMP,043002.00,,,,,,05,,,,,*7F
$GAGMP,043002.00,,,,,,04,,,,,*73
$GBGMP,043002.00,,,,,,05,,,,,*71
$PSSN,SNC,[0,275420000,2347]*42
$GPZDA,043007.00,01,01,2025,,*63
$GPDTM,W84,,00.0000000,N,00.0000000,E,00.0000000,W84*5F
$GPRMC,043007.00,A,4742.4464394,N,01617.9731997,E,0.0,,010125,5.1,E,D*1E
$GPGLL,4742.4464394,N,01617.9731997,E,043007.00,A,D*6F
$GPGGA,043007.00,4742.4464394,N,01617.9731997,E,2,20,0.7,625.8461,M,43.2111,M,3.3,0123*49
$GNGNS,043007.00,4742.4464394,N,01617.9731997,E,DAAA,20,0.7,625.8461,43.2111,,*55
$GPGNS,043007.00,,,,,,07,,,,3.3,123*7A
$GLGNS,043007.00,,,,,,04,,,,,*7B
$GAGNS,043007.00,,,,,,04,,,,,*76
$GBGNS,043007.00,,,,,,05,,,,,*74
$GPLLQ,043007.00,010125,,M,,M,1,20,2.486,,M*1B
$GPVTG,,T,,M,0.00,N,0.00,K,D*26
$GPHDT,,T*1B
$GPTHS,,V*0E
$GPROT,,V*08
$PSSN,HRP,043007.00,010125,,,,,,,00,0,,*61
$PTNL,AVR,043007.00,,Yaw,,Tilt,,,,0,,00*37
$GPGSA,A,3,04,06,07,09,11,20,30,,,,,,1.4,0.7,1.2*3E
$GPGSA,A,3,70,71,72,80,,,,,,,,,1.4,0.7,1.2*3F
$GPGSA,A,3,05,09,15,34,,,,,,,,,1.4,0.7,1.2*3C
$GPGSA,A,3,09,19,22,36,44,,,,,,,,1.4,0.7,1.2*37
$GPGST,043007.00,3.704,0.847,0.783,281.300,0.785,0.844,2.203*59
$GPGBS,043007.00,2.545,3.898,7.518,07,0.0001,1.398,0.681*52
$GPGRS,043007.00,1,-1.4,-0.2,1.4,-0.1,1.1,-1.4,-0.1,,,,,*4A
$GPGRS,043007.00,1,-6.0,-2.0,3.4,-5.0,,,,,,,,*65
$GPGRS,043007.00,1,-0.3,-0.9,-2.4,-0.6,,,,,,,,*44
$GPGRS,043007.00,1,0.8,-2.9,-4.1,-6.2,4.9,,,,,,,*42
$GPGSV,4,1,15,09,74,047,51,03,16,125,29,30,22,202,38,20,25,307,40*71
$GPGSV,4,2,15,16,17,065,,11,39,294,38,07,55,177,44,04,45,066,42*72
$GPGSV,4,3,15,06,48,240,45,29,01,349,,26,10,036,,36,35,170,40*72
$GPGSV,4,4,15,34,31,208,,49,34,195,35,61,03,257,*47
$GLGSV,3,1,10,71,67,001,49,70,35,076,39,72,32,291,47,86,29,231,28*65
$GLGSV,3,2,10,73,39,126,32,80,36,051,38,87,39,290,,74,10,163,*65
$GLGSV,3,3,10,79,01,012,26,88,09,344,33*66
$GAGSV,3,1,10,05,74,278,39,36,27,188,32,23,10,032,,15,28,316,47*62
$GAGSV,3,2,10,31,20,082,27,06,23,069,28,03,22,257,30,09,46,064,44*6C
$GAGSV,3,3,10,34,53,251,39,24,09,131,*68
$GBGSV,6,1,21,19,64,080,43,36,30,159,42,35,11,224,24,05,23,129,*6D
$GBGSV,6,2,21,37,15,039,31,20,17,098,32,16,18,044,25,12,23,296,34*61
$GBGSV,6,3,21,06,21,045,23,44,22,269,39,09,35,050,41,48,37,095,*64
$GBGSV,6,4,21,58,38,070,,22,54,296,42,46,44,093,,39,08,042,*6D
$GBGSV,6,5,21,21,05,284,,11,03,342,26,34,08,319,,02,06,107,*67
$GBGSV,6,6,21,60,08,111,*57
$GPGGA,043007.00,,,,,0,00,,,M,,M,,*48
$PTNL,GGK,043007.00,010125,4742.4464394,N,01617.9731997,E,1,20,1.4,EHT669.0572,M*47
$GPGGQ,043007.00,010125,4742.4464394,N,01617.9731997,E,1,20,2.486,625.8461,M*37
$GPGFA,043007.00,8.051,18.062,0.847,0.783,281.300,2.203,,VVV*3E
$GPLLK,043007.00,010125,,M,,M,1,20,1.6,,M*0E
$GNGMP,043007.00,,,,,DAAA,20,0.7,,,,*53
$GPGMP,043007.00,,,,,,07,,,,3.3,123*7A
$GLGMP,043007.00,,,,,,04,,,,,*7B
$GAGMP,043007.00,,,,,,04,,,,,*76
$GBGMP,043007.00,,,,,,05,,,,,*74
$PSSN,SNC,[0,275425000,2347]*47
$GPZDA,043012.00,01,01,2025,,*67
$GPDTM,W84,,00.0000000,N,00.0000000,E,00.0000000,W84*5F
$GPRMC,043012.00,A,4742.4464418,N,01617.9732152,E,0.0,,010125,5.1,E,D*1B
$GPGLL,4742.4464418,N,01617.9732152,E,043012.00,A,D*6A
$GPGGA,043012.00,4742.4464418,N,01617.9732152,E,2,20,0.7,625.8279,M,43.2111,M,1.4,0123*46
$GNGNS,043012.00,4742.4464418,N,01617.9732152,E,DAAA,20,0.7,625.8279,43.2111,,*5F
$GPGNS,043012.00,,,,,,07,,,,1.4,123*7B
$GLGNS,043012.00,,,,,,04,,,,,*7F
$GAGNS,043012.00,,,,,,04,,,,,*72
$GBGNS,043012.00,,,,,,05,,,,,*70
$GPLLQ,043012.00,010125,,M,,M,1,20,2.534,,M*17
$GPVTG,,T,,M,0.00,N,0.01,K,D*27
$GPHDT,,T*1B
$GPTHS,,V*0E
$GPROT,,V*08
$PSSN,HRP,043012.00,010125,,,,,,,00,0,,*65
$PTNL,AVR,043012.00,,Yaw,,Tilt,,,,0,,00*33
$GPGSA,A,3,04,06,07,09,11,20,30,,,,,,1.4,0.7,1.2*3E
$GPGSA,A,3,70,71,72,80,,,,,,,,,1.4,0.7,1.2*3F
$GPGSA,A,3,05,09,15,34,,,,,,,,,1.4,0.7,1.2*3C
$GPGSA,A,3,09,19,22,36,44,,,,,,,,1.4,0.7,1.2*37
$GPGST,043012.00,3.451,0.862,0.799,281.989,0.802,0.859,2.245*57
$GPGBS,043012.00,2.415,3.684,7.343,11,0.0001,2.437,0.710*56
$GPGRS,043012.00,1,-1.3,-0.6,0.6,-0.0,2.4,-0.5,-0.8,,,,,*40
$GPGRS,043012.00,1,-6.0,-2.0,4.4,-0.2,,,,,,,,*61
$GPGRS,043012.00,1,-1.1,-0.9,-2.2,0.3,,,,,,,,*6D
$GPGRS,043012.00,1,1.4,-2.7,-4.9,-5.8,3.6,,,,,,,*4C
$GPGSV,4,1,15,09,74,047,51,03,16,125,29,30,22,202,37,20,25,307,42*7C
$GPGSV,4,2,15,16,17,065,,11,39,294,40,07,55,177,44,04,44,066,41*7F
$GPGSV,4,3,15,06,48,240,46,29,01,349,,26,10,036,,36,35,170,40*71
$GPGSV,4,4,15,34,31,208,,49,34,195,35,61,03,257,*47
$GLGSV,3,1,10,71,67,001,48,70,35,076,39,72,32,291,48,86,29,231,33*61
$GLGSV,3,2,10,73,39,126,34,80,36,051,40,87,39,290,,74,10,163,*6C
$GLGSV,3,3,10,79,01,012,,88,09,344,33*62
$GAGSV,3,1,10,05,74,278,39,36,27,188,26,23,10,032,,15,28,316,47*67
$GAGSV,3,2,10,31,20,082,25,06,23,069,26,03,22,257,29,09,46,064,44*68
$GAGSV,3,3,10,34,53,251,40,24,09,131,*66
$GBGSV,6,1,21,19,64,080,43,36,30,159,42,35,11,224,,05,23,129,*6B
$GBGSV,6,2,21,37,15,039,31,20,17,098,31,16,18,044,26,12,23,296,34*61
$GBGSV,6,3,21,06,21,045,24,44,22,269,38,09,34,050,41,48,37,095,*63
$GBGSV,6,4,21,58,38,070,,22,55,296,38,46,44,093,,39,08,042,*61
$GBGSV,6,5,21,21,05,284,,11,03,342,26,34,08,319,,02,06,107,*67
$GBGSV,6,6,21,60,08,111,*57
$GPGGA,043012.00,,,,,0,00,,,M,,M,,*4C
$PTNL,GGK,043012.00,010125,4742.4464418,N,01617.9732152,E,1,20,1.4,EHT669.0390,M*48
$GPGGQ,043012.00,010125,4742.4464418,N,01617.9732152,E,1,20,2.534,625.8279,M*35
$GPGFA,043012.00,8.193,18.413,0.862,0.799,281.989,2.245,,VVV*32
$GPLLK,043012.00,010125,,M,,M,1,20,1.6,,M*0A
$GNGMP,043012.00,,,,,DAAA,20,0.7,,,,*57
$GPGMP,043012.00,,,,,,07,,,,1.4,123*7B
$GLGMP,043012.00,,,,,,04,,,,,*7F
$GAGMP,043012.00,,,,,,04,,,,,*72
$GBGMP,043012.00,,,,,,05,,,,,*70
$PSSN,SNC,[0,275430000,2347]*43
$GPZDA,043017.00,01,01,2025,,*62
$GPDTM,W84,,00.0000000,N,00.0000000,E,00.0000000,W84*5F
$GPRMC,043017.00,A,4742.4464345,N,01617.9732374,E,0.0,,010125,5.1,E,D*17
$GPGLL,4742.4464345,N,01617.9732374,E,043017.00,A,D*66
$GPGGA,043017.00,4742.4464345,N,01617.9732374,E,2,20,0.7,625.8148,M,43.2111,M,2.4,0123*48
$GNGNS,043017.00,4742.4464345,N,01617.9732374,E,DAAA,20,0.7,625.8148,43.2111,,*52
$GPGNS,043017.00,,,,,,07,,,,2.4,123*7D
$GLGNS,043017.00,,,,,,05,,,,,*7B
$GAGNS,043017.00,,,,,,04,,,,,*77
$GBGNS,043017.00,,,,,,04,,,,,*74
$GPLLQ,043017.00,010125,,M,,M,1,20,3.288,,M*13
$GPVTG,,T,,M,0.01,N,0.01,K,D*26
$GPHDT,,T*1B
$GPTHS,,V*0E
$GPROT,,V*08
$PSSN,HRP,043017.00,010125,,,,,,,00,0,,*60
$PTNL,AVR,043017.00,,Yaw,,Tilt,,,,0,,00*36
$GPGSA,A,3,04,06,07,09,11,20,30,,,,,,1.4,0.7,1.3*3F
$GPGSA,A,3,70,71,72,80,87,,,,,,,,1.4,0.7,1.3*31
$GPGSA,A,3,05,09,15,34,,,,,,,,,1.4,0.7,1.3*3D
$GPGSA,A,3,09,19,36,44,,,,,,,,,1.4,0.7,1.3*36
$GPGST,043017.00,6.863,1.105,1.031,292.686,1.042,1.094,2.920*58
$GPGBS,043017.00,2.470,3.733,7.513,87,0.0001,-21.245,6.109*46
$GPGRS,043017.00,1,-1.4,-0.7,0.7,0.0,2.3,0.1,-0.9,,,,,*40
$GPGRS,043017.00,1,-5.7,-2.7,3.8,-0.0,-21.2,,,,,,,*5C
$GPGRS,043017.00,1,-1.8,-1.4,-2.5,0.4,,,,,,,,*6D
$GPGRS,043017.00,1,1.1,-2.8,-5.1,7.2,,,,,,,,*44
$GPGSV,4,1,15,09,74,047,52,03,16,125,28,30,22,202,36,20,25,307,43*7E
$GPGSV,4,2,15,16,17,065,,11,39,294,42,07,55,177,45,04,44,066,40*7D
$GPGSV,4,3,15,06,48,240,47,29,01,349,,26,10,036,,36,35,170,40*70
$GPGSV,4,4,15,34,31,208,,49,34,195,35,61,03,257,*47
$GLGSV,3,1,10,71,67,001,48,70,35,077,39,72,32,291,47,86,29,231,34*68
$GLGSV,3,2,10,73,39,126,32,80,36,051,41,87,39,290,37,74,10,163,*6F
$GLGSV,3,3,10,79,01,012,,88,09,344,33*62
$GAGSV,3,1,10,05,74,278,38,36,27,188,28,23,10,032,,15,28,316,46*69
$GAGSV,3,2,10,31,20,082,22,06,23,069,33,03,22,257,29,09,46,065,45*6B
$GAGSV,3,3,10,34,53,251,40,24,09,131,*66
$GBGSV,6,1,21,19,64,080,43,36,30,158,42,35,11,224,,05,23,129,*6A
$GBGSV,6,2,21,37,15,039,30,20,17,098,30,16,18,044,26,12,23,296,32*67
$GBGSV,6,3,21,06,21,045,25,44,22,269,38,09,34,050,41,48,37,095,*62
$GBGSV,6,4,21,58,38,070,,22,55,296,33,46,44,092,,39,08,042,*6B
$GBGSV,6,5,21,21,05,284,,11,03,342,26,34,08,319,,02,06,107,*67
$GBGSV,6,6,21,60,08,111,*57
$GPGGA,043017.00,,,,,0,00,,,M,,M,,*49
$PTNL,GGK,043017.00,010125,4742.4464345,N,01617.9732374,E,1,20,1.4,EHT669.0259,M*40
$GPGGQ,043017.00,010125,4742.4464345,N,01617.9732374,E,1,20,3.288,625.8148,M*39
$GPGFA,043017.00,10.508,23.944,1.105,1.031,292.686,2.920,,VVV*08
$GPLLK,043017.00,010125,,M,,M,1,20,1.7,,M*0E
$GNGMP,043017.00,,,,,DAAA,20,0.7,,,,*52
$GPGMP,043017.00,,,,,,07,,,,2.4,123*7D
$GLGMP,043017.00,,,,,,05,,,,,*7B
$GAGMP,043017.00,,,,,,04,,,,,*77
$GBGMP,043017.00,,,,,,04,,,,,*74
$PSSN,SNC,[0,275435000,2347]*46
$GPZDA,043022.00,01,01,2025,,*64
$GPDTM,W84,,00.0000000,N,00.0000000,E,00.0000000,W84*5F
$GPRMC,043022.00,A,4742.4464349,N,01617.9732517,E,0.0,,010125,5.1,E,D*1E
$GPGLL,4742.4464349,N,01617.9732517,E,043022.00,A,D*6F
$GPGGA,043022.00,4742.4464349,N,01617.9732517,E,2,20,0.7,625.8128,M,43.2111,M,2.8,0123*4B
$GNGNS,043022.00,4742.4464349,N,01617.9732517,E,DAAA,20,0.7,625.8128,43.2111,,*5D
$GPGNS,043022.00,,,,,,06,,,,2.8,123*76
$GLGNS,043022.00,,,,,,06,,,,,*7E
$GAGNS,043022.00,,,,,,04,,,,,*71
$GBGNS,043022.00,,,,,,04,,,,,*72
$GPLLQ,043022.00,010125,,M,,M,1,20,4.472,,M*11
$GPVTG,,T,,M,0.00,N,0.00,K,D*26
$GPHDT,,T*1B
$GPTHS,,V*0E
$GPROT,,V*08
$PSSN,HRP,043022.00,010125,,,,,,,00,0,,*66
$PTNL,AVR,043022.00,,Yaw,,Tilt,,,,0,,00*30
$GPGSA,A,3,04,06,07,09,11,20,,,,,,,1.4,0.7,1.2*3D
$GPGSA,A,3,70,71,72,80,86,88,,,,,,,1.4,0.7,1.2*31
$GPGSA,A,3,05,09,15,34,,,,,,,,,1.4,0.7,1.2*3C
$GPGSA,A,3,09,19,36,44,,,,,,,,,1.4,0.7,1.2*37
$GPGST,043022.00,7.198,1.485,1.052,332.799,1.406,1.156,4.085*55
$GPGBS,043022.00,4.629,4.293,14.643,11,0.0001,2.238,0.733*64
$GPGRS,043022.00,1,-1.2,-1.3,1.0,-0.2,2.2,-0.5,,,,,,*4E
$GPGRS,043022.00,1,-5.8,-2.3,2.4,-2.1,16.3,1.1,,,,,,*59
$GPGRS,043022.00,1,-2.5,-1.6,-2.7,-0.1,,,,,,,,*4D
$GPGRS,043022.00,1,1.4,-3.6,-4.3,17.2,,,,,,,,*7A
$GPGSV,4,1,15,09,74,047,51,03,16,125,,30,22,202,34,20,25,307,43*75
$GPGSV,4,2,15,16,17,065,,11,39,294,44,07,55,177,46,04,44,066,38*77
$GPGSV,4,3,15,06,48,239,48,29,01,349,,26,10,036,,36,35,170,40*71
$GPGSV,4,4,15,34,31,208,,49,34,195,35,61,03,257,*47
$GLGSV,3,1,10,71,67,002,48,70,35,077,40,72,32,292,47,86,29,231,37*65
$GLGSV,3,2,10,73,39,126,29,80,36,051,41,87,39,289,,74,10,163,*69
$GLGSV,3,3,10,79,01,012,19,88,09,344,36*6F
$GAGSV,3,1,10,05,74,279,39,36,27,188,29,23,10,032,,15,28,316,46*68
$GAGSV,3,2,10,31,20,082,25,06,23,069,29,03,22,257,31,09,46,065,45*6E
$GAGSV,3,3,10,34,53,251,40,24,09,131,*66
$GBGSV,6,1,21,19,64,081,42,36,30,158,42,35,11,224,,05,23,129,*6A
$GBGSV,6,2,21,37,15,039,29,20,17,098,,16,18,044,28,12,23,296,29*68
$GBGSV,6,3,21,06,21,045,24,44,22,269,39,09,34,050,41,48,37,095,*62
$GBGSV,6,4,21,58,38,070,,22,55,296,29,46,44,092,,39,08,042,*60
$GBGSV,6,5,21,21,05,284,,11,03,342,28,34,08,319,,02,06,107,*69
$GBGSV,6,6,21,60,08,111,*57
$GPGGA,043022.00,,,,,0,00,,,M,,M,,*4F
$PTNL,GGK,043022.00,010125,4742.4464349,N,01617.9732517,E,1,20,1.4,EHT669.0239,M*4F
$GPGGQ,043022.00,010125,4742.4464349,N,01617.9732517,E,1,20,4.472,625.8128,M*32
$GPGFA,043022.00,14.122,33.497,1.485,1.052,332.799,4.085,,VVV*08
$GPLLK,043022.00,010125,,M,,M,1,20,1.6,,M*09
$GNGMP,043022.00,,,,,DAAA,20,0.7,,,,*54
$GPGMP,043022.00,,,,,,06,,,,2.8,123*76
$GLGMP,043022.00,,,,,,06,,,,,*7E
$GAGMP,043022.00,,,,,,04,,,,,*71
$GBGMP,043022.00,,,,,,04,,,,,*72
$PSSN,SNC,[0,275440000,2347]*44
$GPZDA,043027.00,01,01,2025,,*61
$GPDTM,W84,,00.0000000,N,00.0000000,E,00.0000000,W84*5F
$GPRMC,043027.00,A,4742.4464363,N,01617.9732686,E,0.0,,010125,5.1,E,D*18
$GPGLL,4742.4464363,N,01617.9732686,E,043027.00,A,D*69
$GPGGA,043027.00,4742.4464363,N,01617.9732686,E,2,22,0.6,625.8075,M,43.2111,M,3.8,0123*46
$GNGNS,043027.00,4742.4464363,N,01617.9732686,E,DAAA,22,0.6,625.8075,43.2111,,*51
$GPGNS,043027.00,,,,,,06,,,,3.8,123*72
$GLGNS,043027.00,,,,,,08,,,,,*75
$GAGNS,043027.00,,,,,,04,,,,,*74
$GBGNS,043027.00,,,,,,04,,,,,*77
$GPLLQ,043027.00,010125,,M,,M,1,22,5.449,,M*1F
$GPVTG,,T,,M,0.00,N,0.01,K,D*27
$GPHDT,,T*1B
$GPTHS,,V*0E
$GPROT,,V*08
$PSSN,HRP,043027.00,010125,,,,,,,00,0,,*63
$PTNL,AVR,043027.00,,Yaw,,Tilt,,,,0,,00*35
$GPGSA,A,3,04,06,07,09,11,20,,,,,,,1.3,0.6,1.2*3B
$GPGSA,A,3,70,71,72,73,80,86,87,88,,,,,1.3,0.6,1.2*3C
$GPGSA,A,3,05,09,15,34,,,,,,,,,1.3,0.6,1.2*3A
$GPGSA,A,3,09,19,36,44,,,,,,,,,1.3,0.6,1.2*31
$GPGST,043027.00,9.324,1.800,1.287,333.559,1.710,1.403,4.979*54
$GPGBS,043027.00,4.660,4.332,14.844,11,0.0001,2.348,0.749*64
$GPGRS,043027.00,1,-1.6,-1.5,1.0,-0.3,2.3,-0.9,,,,,,*45
$GPGRS,043027.00,1,-5.2,-1.6,2.4,18.6,-2.1,13.8,1.0,3.7,,,,*64
$GPGRS,043027.00,1,-1.1,-1.2,-2.1,-0.4,,,,,,,,*48
$GPGRS,043027.00,1,2.0,-5.0,-3.5,25.6,,,,,,,,*7C
$GPGSV,4,1,15,09,74,047,51,03,16,125,28,30,22,202,32,20,25,307,44*7E
$GPGSV,4,2,15,16,17,065,,11,39,294,45,07,55,177,46,04,44,066,37*79
$GPGSV,4,3,15,06,48,239,48,29,01,349,,26,10,036,,36,35,170,40*71
$GPGSV,4,4,15,34,31,208,,49,34,195,35,61,03,257,*47
$GLGSV,3,1,10,71,67,002,47,70,35,077,40,72,32,292,46,86,29,231,38*64
$GLGSV,3,2,10,73,39,125,35,80,36,051,42,87,39,289,35,74,10,163,*62
$GLGSV,3,3,10,79,01,012,25,88,09,344,38*6E
$GAGSV,3,1,10,05,74,279,39,36,27,188,31,23,10,032,,15,28,316,46*61
$GAGSV,3,2,10,31,20,082,26,06,23,069,30,03,22,257,32,09,46,065,45*66
$GAGSV,3,3,10,34,53,251,40,24,09,131,*66
$GBGSV,6,1,21,19,64,081,42,36,30,158,42,35,10,224,20,05,23,129,*69
$GBGSV,6,2,21,37,15,039,28,20,17,098,28,16,18,044,27,12,23,296,34*60
$GBGSV,6,3,21,06,21,045,23,44,22,269,38,09,34,050,41,48,37,095,*64
$GBGSV,6,4,21,58,38,070,,22,55,296,30,46,44,092,,39,08,042,*68
$GBGSV,6,5,21,21,05,284,33,11,03,342,29,34,08,319,,02,06,107,*68
$GBGSV,6,6,21,60,08,111,*57
$GPGGA,043027.00,,,,,0,00,,,M,,M,,*4A
$PTNL,GGK,043027.00,010125,4742.4464363,N,01617.9732686,E,1,22,1.3,EHT669.0185,M*48
$GPGGQ,043027.00,010125,4742.4464363,N,01617.9732686,E,1,22,5.449,625.8075,M*36
$GPGFA,043027.00,17.111,40.829,1.800,1.287,333.559,4.979,,VVV*0D
$GPLLK,043027.00,010125,,M,,M,1,22,1.5,,M*0D
$GNGMP,043027.00,,,,,DAAA,22,0.6,,,,*52
$GPGMP,043027.00,,,,,,06,,,,3.8,123*72
$GLGMP,043027.00,,,,,,08,,,,,*75
$GAGMP,043027.00,,,,,,04,,,,,*74
$GBGMP,043027.00,,,,,,04,,,,,*77
$PSSN,SNC,[0,275445000,2347]*41
$GPZDA,043032.00,01,01,2025,,*65
$GPDTM,W84,,00.0000000,N,00.0000000,E,00.0000000,W84*5F
$GPRMC,043032.00,A,4742.4464384,N,01617.9732876,E,0.0,,010125,5.1,E,D*14
$GPGLL,4742.4464384,N,01617.9732876,E,043032.00,A,D*65
$GPGGA,043032.00,4742.4464384,N,01617.9732876,E,2,20,0.6,625.7970,M,43.2111,M,1.5,0123*44
$GNGNS,043032.00,4742.4464384,N,01617.9732876,E,DAAA,20,0.6,625.7970,43.2111,,*5C
$GPGNS,043032.00,,,,,,06,,,,1.5,123*79
$GLGNS,043032.00,,,,,,05,,,,,*7C
$GAGNS,043032.00,,,,,,05,,,,,*71
$GBGNS,043032.00,,,,,,04,,,,,*73
$GPLLQ,043032.00,010125,,M,,M,1,20,4.963,,M*1D
$GPVTG,,T,,M,0.00,N,0.01,K,D*27
$GPHDT,,T*1B
$GPTHS,,V*0E
$GPROT,,V*08
$PSSN,HRP,043032.00,010125,,,,,,,00,0,,*67
$PTNL,AVR,043032.00,,Yaw,,Tilt,,,,0,,00*31
$GPGSA,A,3,04,06,07,09,11,20,,,,,,,1.3,0.6,1.1*38
$GPGSA,A,3,70,71,72,80,88,,,,,,,,1.3,0.6,1.1*3A
$GPGSA,A,3,05,09,15,34,36,,,,,,,,1.3,0.6,1.1*3C
$GPGSA,A,3,09,12,19,36,,,,,,,,,1.3,0.6,1.1*31
$GPGST,043032.00,3.410,1.632,1.184,333.374,1.553,1.287,4.535*57
$GPGBS,043032.00,4.364,4.128,13.869,11,0.0001,2.737,0.704*65
$GPGRS,043032.00,1,-2.0,-1.6,1.3,0.1,2.7,-0.9,,,,,,*6F
$GPGRS,043032.00,1,-4.6,-1.3,1.3,-1.6,7.4,,,,,,,*4D
$GPGRS,043032.00,1,-0.6,-0.6,-1.2,0.0,-3.2,,,,,,,*64
$GPGRS,043032.00,1,2.5,-0.6,-5.3,-2.3,,,,,,,,*63
$GPGSV,4,1,15,09,74,048,51,03,16,125,27,30,22,202,32,20,25,307,44*7E
$GPGSV,4,2,15,16,17,065,,11,39,294,45,07,55,177,46,04,44,066,37*79
$GPGSV,4,3,15,06,48,239,48,29,01,349,,26,10,036,,36,35,170,40*71
$GPGSV,4,4,15,34,31,208,,49,34,195,35,61,03,257,*47
$GLGSV,3,1,10,71,67,002,46,70,35,077,40,72,32,292,45,86,29,231,38*66
$GLGSV,3,2,10,73,39,125,34,80,36,051,41,87,39,289,34,74,10,163,*61
$GLGSV,3,3,10,79,01,012,,88,09,344,39*68
$GAGSV,3,1,10,05,74,279,38,36,27,188,33,23,10,032,,15,28,315,46*61
$GAGSV,3,2,10,31,20,082,27,06,23,069,30,03,22,257,30,09,46,065,46*66
$GAGSV,3,3,10,34,53,251,41,24,09,131,*67
$GBGSV,6,1,21,19,64,081,42,36,30,158,42,35,10,224,25,05,23,129,*6C
$GBGSV,6,2,21,37,15,039,27,20,17,098,,16,18,044,27,12,23,296,36*67
$GBGSV,6,3,21,06,21,045,24,44,22,269,34,09,34,050,41,48,37,095,*6F
$GBGSV,6,4,21,58,38,070,,22,55,296,32,46,44,092,,39,08,042,*6A
$GBGSV,6,5,21,21,05,284,35,11,03,342,30,34,08,319,,02,06,107,*66
$GBGSV,6,6,21,60,08,111,*57
$GPGGA,043032.00,,,,,0,00,,,M,,M,,*4E
$PTNL,GGK,043032.00,010125,4742.4464384,N,01617.9732876,E,1,20,1.3,EHT669.0080,M*42
$GPGGQ,043032.00,010125,4742.4464384,N,01617.9732876,E,1,20,4.963,625.7970,M*3F
$GPGFA,043032.00,15.519,37.184,1.632,1.184,333.374,4.535,,VVV*0B
$GPLLK,043032.00,010125,,M,,M,1,20,1.5,,M*0B
$GNGMP,043032.00,,,,,DAAA,20,0.6,,,,*54
$GPGMP,043032.00,,,,,,06,,,,1.5,123*79
$GLGMP,043032.00,,,,,,05,,,,,*7C
$GAGMP,043032.00,,,,,,05,,,,,*71
$GBGMP,043032.00,,,,,,04,,,,,*73
$PSSN,SNC,[0,275450000,2347]*45
$GPZDA,043037.00,01,01,2025,,*60
$GPDTM,W84,,00.0000000,N,00.0000000,E,00.0000000,W84*5F
$GPRMC,043037.00,A,4742.4464380,N,01617.9732977,E,0.0,,010125,5.1,E,D*15
$GPGLL,4742.4464380,N,01617.9732977,E,043037.00,A,D*64
$GPGGA,043037.00,4742.4464380,N,01617.9732977,E,2,23,0.6,625.7953,M,43.2111,M,1.8,0123*4A
$GNGNS,043037.00,4742.4464380,N,01617.9732977,E,DAAA,23,0.6,625.7953,43.2111,,*5F
$GPGNS,043037.00,,,,,,06,,,,1.8,123*71
$GLGNS,043037.00,,,,,,08,,,,,*74
$GAGNS,043037.00,,,,,,04,,,,,*75
$GBGNS,043037.00,,,,,,05,,,,,*77
$GPLLQ,043037.00,010125,,M,,M,1,23,4.217,,M*13
$GPVTG,,T,,M,0.00,N,0.00,K,D*26
$GPHDT,,T*1B
$GPTHS,,V*0E
$GPROT,,V*08
$PSSN,HRP,043037.00,010125,,,,,,,00,0,,*62
$PTNL,AVR,043037.00,,Yaw,,Tilt,,,,0,,00*34
$GPGSA,A,3,04,06,07,09,11,20,,,,,,,1.3,0.6,1.1*38
$GPGSA,A,3,70,71,72,73,80,86,87,88,,,,,1.3,0.6,1.1*3F
$GPGSA,A,3,05,09,15,34,,,,,,,,,1.3,0.6,1.1*39
$GPGSA,A,3,09,12,19,22,36,,,,,,,,1.3,0.6,1.1*31
$GPGST,043037.00,5.315,1.391,0.991,333.455,1.321,1.083,3.856*59
$GPGBS,043037.00,4.413,4.111,14.185,11,0.0001,2.577,0.711*63
$GPGRS,043037.00,1,-0.4,-1.7,0.7,0.1,2.6,-0.8,,,,,,*68
$GPGRS,043037.00,1,-4.7,-1.9,1.2,2.1,-4.7,-4.7,-12.2,12.3,,,,*6A
$GPGRS,043037.00,1,-1.9,-0.5,-1.2,0.2,,,,,,,,*6C
$GPGRS,043037.00,1,2.5,0.1,-4.5,-5.6,-1.4,,,,,,,*4F
$GPGSV,4,1,15,09,74,048,50,03,16,125,,30,22,202,31,20,25,307,44*79
$GPGSV,4,2,15,16,17,065,,11,39,294,44,07,55,177,45,04,44,066,39*75
$GPGSV,4,3,15,06,48,239,47,29,01,349,,26,10,036,,36,35,170,40*7E
$GPGSV,4,4,15,34,31,208,,49,34,195,35,61,03,257,*47
$GLGSV,3,1,10,71,67,002,45,70,35,077,41,72,32,292,44,86,29,231,36*6B
$GLGSV,3,2,10,73,39,125,35,80,36,051,40,87,39,289,35,74,10,163,*60
$GLGSV,3,3,10,79,01,012,24,88,09,344,39*6E
$GAGSV,3,1,10,05,74,279,37,36,27,188,34,23,10,032,,15,28,315,46*69
$GAGSV,3,2,10,31,20,082,25,06,23,069,30,03,22,257,38,09,46,065,46*6C
$GAGSV,3,3,10,34,53,251,42,24,09,131,*64
$GBGSV,6,1,21,19,64,081,42,36,30,158,43,35,10,224,27,05,23,129,*6F
$GBGSV,6,2,21,37,15,039,27,20,17,098,,16,18,044,27,12,23,296,23*63
$GBGSV,6,3,21,06,21,045,25,44,22,269,31,09,34,050,41,48,37,095,*6B
$GBGSV,6,4,21,58,38,070,,22,55,297,36,46,44,092,,39,08,042,*6F
$GBGSV,6,5,21,21,05,284,35,11,03,342,30,34,08,319,,02,06,107,*66
$GBGSV,6,6,21,60,08,111,*57
$GPGGA,043037.00,,,,,0,00,,,M,,M,,*4B
$PTNL,GGK,043037.00,010125,4742.4464380,N,01617.9732977,E,1,23,1.3,EHT669.0063,M*4D
$GPGGQ,043037.00,010125,4742.4464380,N,01617.9732977,E,1,23,4.217,625.7953,M*34
$GPGFA,043037.00,13.226,31.618,1.391,0.991,333.455,3.856,,VVV*0D
$GPLLK,043037.00,010125,,M,,M,1,23,1.5,,M*0D
$GNGMP,043037.00,,,,,DAAA,23,0.6,,,,*52
$GPGMP,043037.00,,,,,,06,,,,1.8,123*71
$GLGMP,043037.00,,,,,,08,,,,,*74
$GAGMP,043037.00,,,,,,04,,,,,*75
$GBGMP,043037.00,,,,,,05,,,,,*77
$PSSN,SNC,[0,275455000,2347]*40
$GPZDA,043042.00,01,01,2025,,*62
$GPDTM,W84,,00.0000000,N,00.0000000,E,00.0000000,W84*5F
$GPRMC,043042.00,A,4742.4464321,N,01617.9732992,E,0.0,,010125,5.1,E,D*17
$GPGLL,4742.4464321,N,01617.9732992,E,043042.00,A,D*66
$GPGGA,043042.00,4742.4464321,N,01617.9732992,E,2,21,0.7,625.7960,M,43.2111,M,2.8,0123*48
$GNGNS,043042.00,4742.4464321,N,01617.9732992,E,DAAA,21,0.7,625.7960,43.2111,,*5E
$GPGNS,043042.00,,,,,,06,,,,2.8,123*70
$GLGNS,043042.00,,,,,,06,,,,,*78
$GAGNS,043042.00,,,,,,04,,,,,*77
$GBGNS,043042.00,,,,,,05,,,,,*75
$GPLLQ,043042.00,010125,,M,,M,1,21,3.497,,M*1A
$GPVTG,,T,,M,0.00,N,0.00,K,D*26
$GPHDT,,T*1B
$GPTHS,,V*0E
$GPROT,,V*08
$PSSN,HRP,043042.00,010125,,,,,,,00,0,,*60
$PTNL,AVR,043042.00,,Yaw,,Tilt,,,,0,,00*36
$GPGSA,A,3,04,06,07,09,11,20,,,,,,,1.3,0.7,1.2*3A
$GPGSA,A,3,70,71,72,80,86,88,,,,,,,1.3,0.7,1.2*36
$GPGSA,A,3,05,09,15,34,,,,,,,,,1.3,0.7,1.2*3B
$GPGSA,A,3,09,12,19,22,36,,,,,,,,1.3,0.7,1.2*33
$GPGST,043042.00,4.945,1.158,0.819,333.433,1.099,0.897,3.197*5B
$GPGBS,043042.00,4.554,4.237,14.582,06,0.0001,-1.502,0.674*4F
$GPGRS,043042.00,1,-0.4,-1.5,0.7,0.1,1.5,-0.6,,,,,,*66
$GPGRS,043042.00,1,-4.8,-2.3,2.7,-5.6,-5.6,14.1,,,,,,*73
$GPGRS,043042.00,1,-1.6,-0.4,-1.3,0.0,,,,,,,,*63
$GPGRS,043042.00,1,2.2,0.6,-3.5,-4.2,-1.0,,,,,,,*4B
$GPGSV,4,1,15,09,74,048,50,03,16,125,,30,22,202,31,20,25,307,45*78
$GPGSV,4,2,15,16,17,065,,11,40,294,42,07,55,177,44,04,44,066,40*72
$GPGSV,4,3,15,06,48,239,48,29,01,349,,26,10,036,,36,35,170,40*71
$GPGSV,4,4,15,34,31,208,,49,34,195,35,61,03,257,*47
$GLGSV,3,1,10,71,67,002,45,70,35,077,41,72,32,292,45,86,28,231,36*6B
$GLGSV,3,2,10,73,39,125,34,80,36,051,40,87,39,289,34,74,10,163,*60
$GLGSV,3,3,10,79,01,012,,88,09,344,38*69
$GAGSV,3,1,10,05,74,279,36,36,27,188,35,23,10,032,,15,28,315,46*69
$GAGSV,3,2,10,31,20,082,26,06,23,069,30,03,23,257,27,09,46,065,45*63
$GAGSV,3,3,10,34,53,251,42,24,09,131,*64
$GBGSV,6,1,21,19,64,081,42,36,30,158,43,35,10,224,29,05,23,129,*61
$GBGSV,6,2,21,37,15,039,27,20,16,098,27,16,18,044,28,12,23,296,24*6F
$GBGSV,6,3,21,06,21,045,24,44,22,269,29,09,34,050,42,48,37,095,*60
$GBGSV,6,4,21,58,38,070,,22,55,297,40,46,44,092,,39,08,042,*6E
$GBGSV,6,5,21,21,05,284,34,11,03,342,31,34,08,319,,02,06,107,*66
$GBGSV,6,6,21,60,08,111,*57
$GPGGA,043042.00,,,,,0,00,,,M,,M,,*49
$PTNL,GGK,043042.00,010125,4742.4464321,N,01617.9732992,E,1,21,1.3,EHT669.0071,M*4E
$GPGGQ,043042.00,010125,4742.4464321,N,01617.9732992,E,1,21,3.497,625.7960,M*3D
$GPGFA,043042.00,11.013,26.214,1.158,0.819,333.433,3.197,,VVV*05
$GPLLK,043042.00,010125,,M,,M,1,21,1.6,,M*0E
$GNGMP,043042.00,,,,,DAAA,21,0.7,,,,*53
$GPGMP,043042.00,,,,,,06,,,,2.8,123*70
$GLGMP,043042.00,,,,,,06,,,,,*78
$GAGMP,043042.00,,,,,,04,,,,,*77
$GBGMP,043042.00,,,,,,05,,,,,*75
$PSSN,SNC,[0,275460000,2347]*46
$GPZDA,043047.00,01,01,2025,,*67
$GPDTM,W84,,00.0000000,N,00.0000000,E,00.0000000,W84*5F
$GPRMC,043047.00,A,4742.4464347,N,01617.9733028,E,0.0,,010125,5.1,E,D*1B
$GPGLL,4742.4464347,N,01617.9733028,E,043047.00,A,D*6A
$GPGGA,043047.00,4742.4464347,N,01617.9733028,E,2,22,0.6,625.7887,M,43.2111,M,3.8,0123*4F
$GNGNS,043047.00,4742.4464347,N,01617.9733028,E,DAAA,22,0.6,625.7887,43.2111,,*58
$GPGNS,043047.00,,,,,,06,,,,3.8,123*74
$GLGNS,043047.00,,,,,,07,,,,,*7C
$GAGNS,043047.00,,,,,,05,,,,,*73
$GBGNS,043047.00,,,,,,04,,,,,*71
$GPLLQ,043047.00,010125,,M,,M,1,22,3.430,,M*11
$GPVTG,,T,,M,0.01,N,0.01,K,D*26
$GPHDT,,T*1B
$GPTHS,,V*0E
$GPROT,,V*08
$PSSN,HRP,043047.00,010125,,,,,,,00,0,,*65
$PTNL,AVR,043047.00,,Yaw,,Tilt,,,,0,,00*33
$GPGSA,A,3,04,06,07,09,11,20,,,,,,,1.3,0.6,1.1*38
$GPGSA,A,3,70,71,72,73,80,86,88,,,,,,1.3,0.6,1.1*30
$GPGSA,A,3,05,09,15,34,36,,,,,,,,1.3,0.6,1.1*3C
$GPGSA,A,3,09,19,22,36,,,,,,,,,1.3,0.6,1.1*32
$GPGST,043047.00,4.587,1.130,0.815,333.611,1.075,0.886,3.134*57
$GPGBS,043047.00,4.453,4.278,14.331,07,0.0001,1.664,0.679*6B
$GPGRS,043047.00,1,-0.9,-1.2,1.7,0.2,0.1,-0.4,,,,,,*6C
$GPGRS,043047.00,1,-4.1,-1.8,4.5,4.6,-4.4,-2.9,13.4,,,,,*56
$GPGRS,043047.00,1,-0.3,0.0,-1.1,0.2,-1.5,,,,,,,*4C
$GPGRS,043047.00,1,2.2,-4.0,4.0,-1.3,,,,,,,,*48
$GPGSV,4,1,15,09,74,048,50,03,15,125,30,30,22,202,31,20,25,307,45*78
$GPGSV,4,2,15,16,17,065,,11,40,294,40,07,55,177,44,04,44,066,41*71
$GPGSV,4,3,15,06,48,239,47,29,01,349,,26,10,036,,36,35,170,40*7E
$GPGSV,4,4,15,34,31,208,,49,34,195,34,61,03,257,*46
$GLGSV,3,1,10,71,67,002,46,70,35,077,41,72,32,292,45,86,28,231,35*6B
$GLGSV,3,2,10,73,39,125,40,80,36,051,42,87,39,289,30,74,10,163,*65
$GLGSV,3,3,10,79,01,012,,88,09,344,37*66
$GAGSV,3,1,10,05,74,279,36,36,26,188,36,23,10,032,,15,28,315,46*6B
$GAGSV,3,2,10,31,20,082,27,06,23,070,30,03,23,257,26,09,46,065,45*6B
$GAGSV,3,3,10,34,53,251,42,24,09,131,*64
$GBGSV,6,1,21,19,64,081,42,36,30,158,42,35,10,224,31,05,23,129,*69
$GBGSV,6,2,21,37,15,039,27,20,16,098,27,16,18,044,27,12,23,296,35*60
$GBGSV,6,3,21,06,21,045,24,44,22,269,31,09,34,050,41,48,37,095,*6A
$GBGSV,6,4,21,58,38,070,,22,55,297,41,46,44,092,,39,08,042,*6F
$GBGSV,6,5,21,21,05,284,34,11,03,342,32,34,08,319,,02,06,107,*65
$GBGSV,6,6,21,60,08,111,*57
$GPGGA,043047.00,,,,,0,00,,,M,,M,,*4C
$PTNL,GGK,043047.00,010125,4742.4464347,N,01617.9733028,E,1,22,1.3,EHT668.9997,M*48
$GPGGQ,043047.00,010125,4742.4464347,N,01617.9733028,E,1,22,3.430,625.7887,M*37
$GPGFA,043047.00,10.747,25.701,1.130,0.815,333.611,3.134,,VVV*0C
$GPLLK,043047.00,010125,,M,,M,1,22,1.5,,M*0B
$GNGMP,043047.00,,,,,DAAA,22,0.6,,,,*54
$GPGMP,043047.00,,,,,,06,,,,3.8,123*74
$GLGMP,043047.00,,,,,,07,,,,,*7C
$GAGMP,043047.00,,,,,,05,,,,,*73
$GBGMP,043047.00,,,,,,04,,,,,*71
$PSSN,SNC,[0,275465000,2347]*43
$GPZDA,043052.00,01,01,2025,,*63
$GPDTM,W84,,00.0000000,N,00.0000000,E,00.0000000,W84*5F
$GPRMC,043052.00,A,4742.4464405,N,01617.9732983,E,0.0,,010125,5.1,E,D*17
$GPGLL,4742.4464405,N,01617.9732983,E,043052.00,A,D*66
$GPGGA,043052.00,4742.4464405,N,01617.9732983,E,2,22,0.6,625.7821,M,43.2111,M,1.5,0123*40
$GNGNS,043052.00,4742.4464405,N,01617.9732983,E,DAAA,22,0.6,625.7821,43.2111,,*58
$GPGNS,043052.00,,,,,,06,,,,1.5,123*7F
$GLGNS,043052.00,,,,,,06,,,,,*79
$GAGNS,043052.00,,,,,,05,,,,,*77
$GBGNS,043052.00,,,,,,05,,,,,*74
$GPLLQ,043052.00,010125,,M,,M,1,22,3.980,,M*13
$GPVTG,,T,,M,0.01,N,0.01,K,D*26
$GPHDT,,T*1B
$GPTHS,,V*0E
$GPROT,,V*08
$PSSN,HRP,043052.00,010125,,,,,,,00,0,,*61
$PTNL,AVR,043052.00,,Yaw,,Tilt,,,,0,,00*37
$GPGSA,A,3,04,06,07,09,11,20,,,,,,,1.3,0.6,1.1*38
$GPGSA,A,3,70,71,72,73,80,88,,,,,,,1.3,0.6,1.1*3E
$GPGSA,A,3,05,09,15,34,36,,,,,,,,1.3,0.6,1.1*3C
$GPGSA,A,3,09,12,19,22,36,,,,,,,,1.3,0.6,1.1*31
$GPGST,043052.00,6.704,1.311,0.945,334.186,1.250,1.024,3.637*53
$GPGBS,043052.00,4.277,4.054,13.795,07,0.0001,1.854,0.630*6E
$GPGRS,043052.00,1,-1.1,-1.3,1.9,0.4,-0.1,-0.3,,,,,,*42
$GPGRS,043052.00,1,-3.7,-1.6,4.0,9.8,-1.9,17.0,,,,,,*5B
$GPGRS,043052.00,1,0.8,0.4,-1.1,0.6,-0.8,,,,,,,*62
$GPGRS,043052.00,1,2.3,1.5,-4.5,14.6,-1.4,,,,,,,*52
$GPGSV,4,1,15,09,74,048,50,03,15,125,31,30,22,202,32,20,25,307,45*7A
$GPGSV,4,2,15,16,17,065,,11,40,294,38,07,55,177,43,04,44,067,42*7B
$GPGSV,4,3,15,06,48,239,47,29,01,349,,26,10,036,,36,35,170,40*7E
$GPGSV,4,4,15,34,31,208,,49,34,195,35,61,03,257,*47
$GLGSV,3,1,10,71,67,002,45,70,35,077,41,72,32,292,45,86,28,231,35*68
$GLGSV,3,2,10,73,39,125,42,80,36,051,43,87,39,289,28,74,10,162,*6E
$GLGSV,3,3,10,79,01,012,23,88,09,344,37*67
$GAGSV,3,1,10,05,74,279,37,36,26,188,37,23,10,032,,15,28,315,46*6B
$GAGSV,3,2,10,31,20,082,27,06,23,070,30,03,23,257,28,09,46,065,45*65
$GAGSV,3,3,10,34,53,251,42,24,09,131,*64
$GBGSV,6,1,21,19,64,081,42,36,30,158,39,35,10,224,31,05,23,129,*65
$GBGSV,6,2,21,37,15,038,29,20,16,098,,16,18,044,28,12,23,295,38*6B
$GBGSV,6,3,21,06,21,045,24,44,22,269,35,09,34,050,41,48,37,095,*6E
$GBGSV,6,4,21,58,38,069,,22,55,297,41,46,45,092,,39,08,042,*66
$GBGSV,6,5,21,21,05,285,32,11,03,342,32,34,08,319,,02,06,107,*62
$GBGSV,6,6,21,60,08,111,*57
$GPGGA,043052.00,,,,,0,00,,,M,,M,,*48
$PTNL,GGK,043052.00,010125,4742.4464405,N,01617.9732983,E,1,22,1.3,EHT668.9931,M*48
$GPGGQ,043052.00,010125,4742.4464405,N,01617.9732983,E,1,22,3.980,625.7821,M*31
$GPGFA,043052.00,12.469,29.825,1.311,0.945,334.186,3.637,,VVV*0F
$GPLLK,043052.00,010125,,M,,M,1,22,1.5,,M*0F
$GNGMP,043052.00,,,,,DAAA,22,0.6,,,,*50
$GPGMP,043052.00,,,,,,06,,,,1.5,123*7F
$GLGMP,043052.00,,,,,,06,,,,,*79
$GAGMP,043052.00,,,,,,05,,,,,*77
$GBGMP,043052.00,,,,,,05,,,,,*74
$PSSN,SNC,[0,275470000,2347]*47
$GPZDA,043057.00,01,01,2025,,*66
$GPDTM,W84,,00.0000000,N,00.0000000,E,00.0000000,W84*5F
$GPRMC,043057.00,A,4742.4464450,N,01617.9733012,E,0.0,,010125,5.1,E,D*12
$GPGLL,4742.4464450,N,01617.9733012,E,043057.00,A,D*63
$GPGGA,043057.00,4742.4464450,N,01617.9733012,E,2,21,0.6,625.7762,M,43.2111,M,1.8,0123*43
$GNGNS,043057.00,4742.4464450,N,01617.9733012,E,DAAA,21,0.6,625.7762,43.2111,,*56
$GPGNS,043057.00,,,,,,05,,,,1.8,123*74
$GLGNS,043057.00,,,,,,05,,,,,*7F
$GAGNS,043057.00,,,,,,05,,,,,*72
$GBGNS,043057.00,,,,,,06,,,,,*72
$GPLLQ,043057.00,010125,,M,,M,1,21,3.951,,M*19
$GPVTG,,T,,M,0.00,N,0.01,K,D*27
$GPHDT,,T*1B
$GPTHS,,V*0E
$GPROT,,V*08
$PSSN,HRP,043057.00,010125,,,,,,,00,0,,*64
$PTNL,AVR,043057.00,,Yaw,,Tilt,,,,0,,00*32
$GPGSA,A,3,04,06,07,09,20,,,,,,,,1.4,0.6,1.2*3C
$GPGSA,A,3,70,71,72,73,80,,,,,,,,1.4,0.6,1.2*3A
$GPGSA,A,3,05,09,15,34,36,,,,,,,,1.4,0.6,1.2*38
$GPGSA,A,3,09,12,19,22,36,44,,,,,,,1.4,0.6,1.2*35
$GPGST,043057.00,7.891,1.444,0.933,325.037,1.299,1.127,3.558*54
$GPGBS,043057.00,4.642,4.453,14.601,07,0.0001,1.437,0.642*6D
$GPGRS,043057.00,1,-0.8,-1.5,1.4,0.2,-0.4,,,,,,,*47
$GPGRS,043057.00,1,-4.5,-2.2,3.3,10.1,-1.8,,,,,,,*70
$GPGRS,043057.00,1,0.8,0.5,-1.0,0.6,1.1,,,,,,,*42
$GPGRS,043057.00,1,3.0,3.5,-4.6,18.6,-1.3,18.2,,,,,,*4A
$GPGSV,4,1,15,09,74,048,49,03,15,125,31,30,22,202,33,20,25,307,45*73
$GPGSV,4,2,15,16,17,065,,11,40,293,37,07,55,177,41,04,44,067,43*70
$GPGSV,4,3,15,06,48,239,47,29,01,349,,26,10,036,,36,35,170,40*7E
$GPGSV,4,4,15,34,31,208,,49,34,195,35,61,03,257,*47
$GLGSV,3,1,10,71,67,002,45,70,35,077,40,72,32,292,46,86,28,231,34*6B
$GLGSV,3,2,10,73,39,125,43,80,36,051,42,87,39,289,33,74,10,162,*64
$GLGSV,3,3,10,79,01,012,24,88,09,344,31*66
$GAGSV,3,1,10,05,74,279,38,36,26,188,37,23,10,032,,15,28,315,47*65
$GAGSV,3,2,10,31,20,082,28,06,23,070,32,03,23,257,28,09,46,065,44*69
$GAGSV,3,3,10,34,53,251,41,24,09,131,*67
$GBGSV,6,1,21,19,64,081,43,36,30,158,35,35,10,224,31,05,23,129,*68
$GBGSV,6,2,21,37,15,038,,20,16,098,30,16,18,044,27,12,23,295,39*6D
$GBGSV,6,3,21,06,21,045,25,44,22,269,36,09,34,050,41,48,37,095,*6C
$GBGSV,6,4,21,58,38,069,,22,55,297,40,46,45,092,,39,08,042,*67
$GBGSV,6,5,21,21,05,285,31,11,03,342,31,34,08,319,,02,06,107,*62
$GBGSV,6,6,21,60,08,111,*57
$GPGGA,043057.00,,,,,0,00,,,M,,M,,*4D
$PTNL,GGK,043057.00,010125,4742.4464450,N,01617.9733012,E,1,21,1.4,EHT668.9873,M*4E
$GPGGQ,043057.00,010125,4742.4464450,N,01617.9733012,E,1,21,3.951,625.7762,M*33
$GPGFA,043057.00,13.732,29.174,1.444,0.933,325.037,3.558,,VVV*0C
$GPLLK,043057.00,010125,,M,,M,1,21,1.6,,M*0A
$GNGMP,043057.00,,,,,DAAA,21,0.6,,,,*56
$GPGMP,043057.00,,,,,,05,,,,1.8,123*74
$GLGMP,043057.00,,,,,,05,,,,,*7F
$GAGMP,043057.00,,,,,,05,,,,,*72
$GBGMP,043057.00,,,,,,06,,,,,*72
$PSSN,SNC,[0,275475000,2347]*42
$GPZDA,043102.00,01,01,2025,,*67
$GPDTM,W84,,00.0000000,N,00.0000000,E,00.0000000,W84*5F
$GPRMC,043102.00,A,4742.4464485,N,01617.9732961,E,0.0,,010125,5.1,E,D*17
$GPGLL,4742.4464485,N,01617.9732961,E,043102.00,A,D*66
$GPGGA,043102.00,4742.4464485,N,01617.9732961,E,2,20,0.7,625.7717,M,43.2111,M,2.8,0123*47
$GNGNS,043102.00,4742.4464485,N,01617.9732961,E,DAAA,20,0.7,625.7717,43.2111,,*51
$GPGNS,043102.00,,,,,,05,,,,2.8,123*76
$GLGNS,043102.00,,,,,,06,,,,,*7D
$GAGNS,043102.00,,,,,,05,,,,,*73
$GBGNS,043102.00,,,,,,04,,,,,*71
$GPLLQ,043102.00,010125,,M,,M,1,20,2.840,,M*19
$GPVTG,,T,,M,0.00,N,0.00,K,D*26
$GPHDT,,T*1B
$GPTHS,,V*0E
$GPROT,,V*08
$PSSN,HRP,043102.00,010125,,,,,,,00,0,,*65
$PTNL,AVR,043102.00,,Yaw,,Tilt,,,,0,,00*33
$GPGSA,A,3,04,06,07,09,20,,,,,,,,1.5,0.7,1.3*3D
$GPGSA,A,3,70,71,72,73,80,87,,,,,,,1.5,0.7,1.3*34
$GPGSA,A,3,05,09,15,34,36,,,,,,,,1.5,0.7,1.3*39
$GPGSA,A,3,09,12,19,22,,,,,,,,,1.5,0.7,1.3*31
$GPGST,043102.00,4.268,1.038,0.670,325.795,0.937,0.805,2.557*5A
$GPGBS,043102.00,4.795,4.513,15.135,06,0.0001,-1.033,0.671*4F
$GPGRS,043102.00,1,-0.3,-1.0,0.8,0.4,-0.2,,,,,,,*45
$GPGRS,043102.00,1,-4.6,-1.1,5.8,6.5,-3.1,-6.1,,,,,,*43
$GPGRS,043102.00,1,0.7,0.6,-1.0,0.8,2.3,,,,,,,*40
$GPGRS,043102.00,1,2.7,5.6,-3.9,-5.2,,,,,,,,*41
$GPGSV,4,1,15,09,74,048,49,03,15,125,31,30,22,202,34,20,25,307,45*74
$GPGSV,4,2,15,16,17,065,,11,40,293,36,07,55,177,39,04,44,067,44*79
$GPGSV,4,3,15,06,48,239,47,29,01,349,,26,10,036,,36,35,170,40*7E
$GPGSV,4,4,15,34,31,208,,49,34,195,35,61,03,257,*47
$GLGSV,3,1,10,71,67,003,44,70,35,077,39,74,10,162,,72,32,292,46*61
$GLGSV,3,2,10,86,28,231,30,73,39,125,42,80,36,051,41,87,39,289,39*6C
$GLGSV,3,3,10,79,01,012,24,88,09,344,35*62
$GAGSV,3,1,10,05,74,279,40,36,26,188,38,23,10,032,,15,28,315,47*65
$GAGSV,3,2,10,31,20,082,28,06,23,070,32,03,23,257,29,09,46,065,44*68
$GAGSV,3,3,10,34,53,251,41,24,09,131,*67
$GBGSV,6,1,21,19,64,081,43,36,30,158,37,35,10,224,29,05,23,129,*63
$GBGSV,6,2,21,37,15,038,,20,16,098,30,16,18,044,27,12,23,295,40*63
$GBGSV,6,3,21,06,21,045,24,44,22,269,33,09,34,050,41,48,37,095,*68
$GBGSV,6,4,21,58,38,069,,22,55,297,38,46,45,092,,39,08,042,*68
$GBGSV,6,5,21,21,05,285,28,11,03,342,31,34,08,319,,02,06,107,*6A
$GBGSV,6,6,21,60,08,111,*57
$GPGGA,043102.00,,,,,0,00,,,M,,M,,*4C
$PTNL,GGK,043102.00,010125,4742.4464485,N,01617.9732961,E,1,20,1.5,EHT668.9828,M*45
$GPGGQ,043102.00,010125,4742.4464485,N,01617.9732961,E,1,20,2.840,625.7717,M*35
$GPGFA,043102.00,9.865,20.969,1.038,0.670,325.795,2.557,,VVV*30
$GPLLK,043102.00,010125,,M,,M,1,20,1.8,,M*04
$GNGMP,043102.00,,,,,DAAA,20,0.7,,,,*57
$GPGMP,043102.00,,,,,,05,,,,2.8,123*76
$GLGMP,043102.00,,,,,,06,,,,,*7D
$GAGMP,043102.00,,,,,,05,,,,,*73
$GBGMP,043102.00,,,,,,04,,,,,*71
$PSSN,SNC,[0,275480000,2347]*48
$GPZDA,043107.00,01,01,2025,,*62
$GPDTM,W84,,00.0000000,N,00.0000000,E,00.0000000,W84*5F
$GPRMC,043107.00,A,4742.4464459,N,01617.9732899,E,0.0,,010125,5.1,E,D*15
$GPGLL,4742.4464459,N,01617.9732899,E,043107.00,A,D*64
$GPGGA,043107.00,4742.4464459,N,01617.9732899,E,2,21,0.6,625.7654,M,43.2111,M,3.8,0123*42
$GNGNS,043107.00,4742.4464459,N,01617.9732899,E,DAAA,21,0.6,625.7654,43.2111,,*55
$GPGNS,043107.00,,,,,,05,,,,3.8,123*72
$GLGNS,043107.00,,,,,,06,,,,,*78
$GAGNS,043107.00,,,,,,05,,,,,*76
$GBGNS,043107.00,,,,,,05,,,,,*75
$GPLLQ,043107.00,010125,,M,,M,1,21,2.441,,M*10
$GPVTG,,T,,M,0.00,N,0.00,K,D*26
$GPHDT,,T*1B
$GPTHS,,V*0E
$GPROT,,V*08
$PSSN,HRP,043107.00,010125,,,,,,,00,0,,*60
$PTNL,AVR,043107.00,,Yaw,,Tilt,,,,0,,00*36
$GPGSA,A,3,04,06,07,09,20,,,,,,,,1.4,0.6,1.3*3D
$GPGSA,A,3,70,71,72,73,80,87,,,,,,,1.4,0.6,1.3*34
$GPGSA,A,3,05,09,15,34,36,,,,,,,,1.4,0.6,1.3*39
$GPGSA,A,3,09,12,19,22,36,,,,,,,,1.4,0.6,1.3*34
$GPGST,043107.00,3.988,0.888,0.580,326.036,0.805,0.691,2.198*5A
$GPGBS,043107.00,4.795,4.584,15.249,06,0.0001,-1.004,0.690*47
$GPGRS,043107.00,1,-0.0,-1.0,-0.2,0.6,0.4,,,,,,,*4D
$GPGRS,043107.00,1,-4.7,0.6,6.1,4.1,-3.8,-4.5,,,,,,*6F
$GPGRS,043107.00,1,1.1,0.7,-1.0,1.5,3.6,,,,,,,*4B
$GPGRS,043107.00,1,3.3,4.7,-3.4,-5.6,-4.0,,,,,,,*4F
$GPGSV,4,1,15,09,74,048,48,03,15,125,32,30,22,202,35,20,25,307,45*77
$GPGSV,4,2,15,16,17,065,,11,40,293,36,07,55,177,37,04,44,067,44*77
$GPGSV,4,3,15,06,48,239,46,29,01,349,,26,10,036,,36,35,170,40*7F
$GPGSV,4,4,15,34,31,208,,49,34,195,35,61,03,257,*47
$GLGSV,3,1,10,71,67,003,46,70,35,077,39,74,10,162,,72,33,292,44*60
$GLGSV,3,2,10,86,28,231,27,73,39,125,42,80,36,051,39,87,39,289,40*6B
$GLGSV,3,3,10,79,01,012,24,88,10,344,32*6D
$GAGSV,3,1,10,05,74,279,41,36,26,188,39,23,10,032,,15,28,315,47*65
$GAGSV,3,2,10,31,20,082,27,06,23,070,32,03,23,257,31,09,46,065,43*69
$GAGSV,3,3,10,34,53,251,41,24,09,131,*67
$GBGSV,6,1,21,19,64,081,43,36,30,158,36,35,10,224,28,05,23,129,*63
$GBGSV,6,2,21,37,15,038,34,20,16,098,29,16,18,044,27,12,23,295,39*62
$GBGSV,6,3,21,06,21,045,24,44,22,269,34,09,34,050,41,48,37,095,*6F
$GBGSV,6,4,21,58,38,069,,22,55,297,38,46,45,092,,39,08,042,*68
$GBGSV,6,5,21,21,05,285,,11,03,342,31,34,08,319,,02,06,107,*60
$GBGSV,6,6,21,60,08,111,*57
$GPGGA,043107.00,,,,,0,00,,,M,,M,,*49
$PTNL,GGK,043107.00,010125,4742.4464459,N,01617.9732899,E,1,21,1.4,EHT668.9765,M*41
$GPGGQ,043107.00,010125,4742.4464459,N,01617.9732899,E,1,21,2.441,625.7654,M*3D
$GPGFA,043107.00,8.447,18.027,0.888,0.580,326.036,2.198,,VVV*34
$GPLLK,043107.00,010125,,M,,M,1,21,1.7,,M*0F
$GNGMP,043107.00,,,,,DAAA,21,0.6,,,,*52
$GPGMP,043107.00,,,,,,05,,,,3.8,123*72
$GLGMP,043107.00,,,,,,06,,,,,*78
$GAGMP,043107.00,,,,,,05,,,,,*76
$GBGMP,043107.00,,,,,,05,,,,,*75
$PSSN,SNC,[0,275485000,2347]*4D
$GPZDA,043112.00,01,01,2025,,*66
$GPDTM,W84,,00.0000000,N,00.0000000,E,00.0000000,W84*5F
$GPRMC,043112.00,A,4742.4464444,N,01617.9732862,E,0.0,,010125,5.1,E,D*19
$GPGLL,4742.4464444,N,01617.9732862,E,043112.00,A,D*68
$GPGGA,043112.00,4742.4464444,N,01617.9732862,E,2,20,0.7,625.7771,M,43.2111,M,2.0,0123*41
$GNGNS,043112.00,4742.4464444,N,01617.9732862,E,DAAA,20,0.7,625.7771,43.2111,,*5F
$GPGNS,043112.00,,,,,,05,,,,2.0,123*7F
$GLGNS,043112.00,,,,,,06,,,,,*7C
$GAGNS,043112.00,,,,,,05,,,,,*72
$GBGNS,043112.00,,,,,,04,,,,,*70
$GPLLQ,043112.00,010125,,M,,M,1,20,2.170,,M*12
$GPVTG,,T,,M,0.00,N,0.01,K,D*27
$GPHDT,,T*1B
$GPTHS,,V*0E
$GPROT,,V*08
$PSSN,HRP,043112.00,010125,,,,,,,00,0,,*64
$PTNL,AVR,043112.00,,Yaw,,Tilt,,,,0,,00*32
$GPGSA,A,3,04,06,09,20,30,,,,,,,,1.4,0.7,1.2*39
$GPGSA,A,3,70,71,72,73,80,87,,,,,,,1.4,0.7,1.2*34
$GPGSA,A,3,05,09,15,34,36,,,,,,,,1.4,0.7,1.2*39
$GPGSA,A,3,09,12,19,22,,,,,,,,,1.4,0.7,1.2*31
$GPGST,043112.00,3.949,0.891,0.674,323.019,0.819,0.760,1.860*54
$GPGBS,043112.00,4.530,3.917,8.198,06,0.0001,-1.224,0.640*71
$GPGRS,043112.00,1,0.1,-1.2,0.4,0.5,1.1,,,,,,,*4B
$GPGRS,043112.00,1,-5.1,0.4,2.0,3.9,-6.8,-7.8,,,,,,*6F
$GPGRS,043112.00,1,0.8,0.6,-1.4,1.6,3.7,,,,,,,*40
$GPGRS,043112.00,1,2.5,0.0,-2.7,-3.7,,,,,,,,*4D
$GPGSV,4,1,15,09,73,048,48,03,15,125,32,30,22,202,35,20,25,307,44*71
$GPGSV,4,2,15,16,17,065,,11,40,293,33,07,55,177,34,04,44,067,44*71
$GPGSV,4,3,15,06,48,239,46,29,01,349,,26,10,036,,36,35,170,41*7E
$GPGSV,4,4,15,34,31,208,,49,34,195,35,61,03,257,*47
$GLGSV,3,1,10,71,67,003,47,70,35,077,39,74,10,162,,72,33,292,43*66
$GLGSV,3,2,10,86,28,231,28,73,39,125,42,80,36,051,35,87,39,289,39*66
$GLGSV,3,3,10,79,01,012,23,88,10,344,29*60
$GAGSV,3,1,10,05,74,279,42,36,26,188,39,23,10,032,,15,28,315,47*66
$GAGSV,3,2,10,31,20,082,24,06,23,070,30,03,23,257,32,09,46,065,42*6A
$GAGSV,3,3,10,34,53,251,41,24,09,131,*67
$GBGSV,6,1,21,19,64,081,44,36,30,158,35,35,10,224,25,05,23,129,*6A
$GBGSV,6,2,21,37,15,038,33,20,16,098,29,16,18,044,27,12,23,295,38*64
$GBGSV,6,3,21,06,21,045,25,44,22,269,31,09,34,050,41,48,37,095,*6B
$GBGSV,6,4,21,58,38,069,,22,55,297,39,46,45,092,,39,08,042,*69
$GBGSV,6,5,21,21,05,285,,11,03,342,31,34,08,319,,02,06,107,*60
$GBGSV,6,6,21,60,08,111,*57
$GPGGA,043112.00,,,,,0,00,,,M,,M,,*4D
$PTNL,GGK,043112.00,010125,4742.4464444,N,01617.9732862,E,1,20,1.4,EHT668.9882,M*4A
$GPGGQ,043112.00,010125,4742.4464444,N,01617.9732862,E,1,20,2.170,625.7771,M*31
$GPGFA,043112.00,8.469,15.253,0.891,0.674,323.019,1.860,,VVV*35
$GPLLK,043112.00,010125,,M,,M,1,20,1.6,,M*0B
$GNGMP,043112.00,,,,,DAAA,20,0.7,,,,*56
$GPGMP,043112.00,,,,,,05,,,,2.0,123*7F
$GLGMP,043112.00,,,,,,06,,,,,*7C
$GAGMP,043112.00,,,,,,05,,,,,*72
$GBGMP,043112.00,,,,,,04,,,,,*70
$PSSN,SNC,[0,275490000,2347]*49
$GPZDA,043117.00,01,01,2025,,*63
$GPDTM,W84,,00.0000000,N,00.0000000,E,00.0000000,W84*5F
$GPRMC,043117.00,A,4742.4464463,N,01617.9732756,E,0.0,,010125,5.1,E,D*11
$GPGLL,4742.4464463,N,01617.9732756,E,043117.00,A,D*60
$GPGGA,043117.00,4742.4464463,N,01617.9732756,E,2,19,0.7,625.7929,M,43.2111,M,2.2,0123*42
$GNGNS,043117.00,4742.4464463,N,01617.9732756,E,DAAA,19,0.7,625.7929,43.2111,,*5E
$GPGNS,043117.00,,,,,,05,,,,2.2,123*78
$GLGNS,043117.00,,,,,,05,,,,,*7A
$GAGNS,043117.00,,,,,,05,,,,,*77
$GBGNS,043117.00,,,,,,04,,,,,*75
$GPLLQ,043117.00,010125,,M,,M,1,19,2.782,,M*16
$GPVTG,,T,,M,0.00,N,0.00,K,D*26
$GPHDT,,T*1B
$GPTHS,,V*0E
$GPROT,,V*08
$PSSN,HRP,043117.00,010125,,,,,,,00,0,,*61
$PTNL,AVR,043117.00,,Yaw,,Tilt,,,,0,,00*37
$GPGSA,A,3,04,06,09,20,30,,,,,,,,1.4,0.7,1.3*38
$GPGSA,A,3,70,71,72,73,87,,,,,,,,1.4,0.7,1.3*3D
$GPGSA,A,3,05,09,15,34,36,,,,,,,,1.4,0.7,1.3*38
$GPGSA,A,3,09,12,19,22,,,,,,,,,1.4,0.7,1.3*30
$GPGST,043117.00,3.869,1.146,0.867,323.439,1.055,0.975,2.382*55
$GPGBS,043117.00,4.385,4.022,8.296,06,0.0001,-1.611,0.654*7E
$GPGRS,043117.00,1,0.3,-1.6,0.5,0.3,1.2,,,,,,,*4C
$GPGRS,043117.00,1,-4.5,0.3,3.9,2.7,-9.8,,,,,,,*6C
$GPGRS,043117.00,1,0.2,0.3,-1.9,1.3,3.1,,,,,,,*44
$GPGRS,043117.00,1,2.5,-3.1,-2.2,-0.5,,,,,,,,*63
$GPGSV,4,1,15,09,73,048,48,03,15,125,31,30,22,202,36,20,25,307,44*71
$GPGSV,4,2,15,16,17,065,,11,40,293,30,07,55,177,34,04,44,067,44*72
$GPGSV,4,3,15,06,48,239,45,29,01,349,,26,10,036,,36,35,170,41*7D
$GPGSV,4,4,15,34,31,208,,49,34,195,35,61,03,257,*47
$GLGSV,3,1,10,71,67,003,47,70,35,077,39,74,10,162,,72,33,292,42*67
$GLGSV,3,2,10,86,28,231,24,73,39,125,39,80,36,051,32,87,39,289,38*60
$GLGSV,3,3,10,79,01,012,23,88,10,344,*6B
$GAGSV,3,1,10,05,74,279,43,36,26,188,39,23,10,032,,15,28,315,47*67
$GAGSV,3,2,10,31,20,082,27,06,23,070,32,03,23,257,34,09,46,065,41*6E
$GAGSV,3,3,10,34,53,251,40,24,09,131,*66
$GBGSV,6,1,21,19,64,081,45,36,30,158,38,35,10,224,,05,23,129,*61
$GBGSV,6,2,21,37,15,038,33,20,16,098,27,16,18,044,27,12,23,295,37*65
$GBGSV,6,3,21,06,21,045,25,44,22,269,30,09,34,050,40,48,37,095,*6B
$GBGSV,6,4,21,58,38,069,,22,55,297,39,46,45,092,,39,08,042,*69
$GBGSV,6,5,21,21,05,285,,11,03,342,32,34,08,319,,02,06,107,*63
$GBGSV,6,6,21,60,08,111,*57
$GPGGA,043117.00,,,,,0,00,,,M,,M,,*48
$PTNL,GGK,043117.00,010125,4742.4464463,N,01617.9732756,E,1,19,1.4,EHT669.0039,M*48
$GPGGQ,043117.00,010125,4742.4464463,N,01617.9732756,E,1,19,2.782,625.7929,M*3B
$GPGFA,043117.00,10.896,19.534,1.146,0.867,323.439,2.382,,VVV*03
$GPLLK,043117.00,010125,,M,,M,1,19,1.7,,M*05
$GNGMP,043117.00,,,,,DAAA,19,0.7,,,,*59
$GPGMP,043117.00,,,,,,05,,,,2.2,123*78
$GLGMP,043117.00,,,,,,05,,,,,*7A
$GAGMP,043117.00,,,,,,05,,,,,*77
$GBGMP,043117.00,,,,,,04,,,,,*75
$PSSN,SNC,[0,275495000,2347]*4C
$GPZDA,043122.00,01,01,2025,,*65
$GPDTM,W84,,00.0000000,N,00.0000000,E,00.0000000,W84*5F
$GPRMC,043122.00,A,4742.4464454,N,01617.9732595,E,0.0,,010125,5.1,E,D*1E
$GPGLL,4742.4464454,N,01617.9732595,E,043122.00,A,D*6F
$GPGGA,043122.00,4742.4464454,N,01617.9732595,E,2,20,0.7,625.8073,M,43.2111,M,2.5,0123*49
$GNGNS,043122.00,4742.4464454,N,01617.9732595,E,DAAA,20,0.7,625.8073,43.2111,,*52
$GPGNS,043122.00,,,,,,06,,,,2.5,123*7A
$GLGNS,043122.00,,,,,,05,,,,,*7C
$GAGNS,043122.00,,,,,,05,,,,,*71
$GBGNS,043122.00,,,,,,04,,,,,*73
$GPLLQ,043122.00,010125,,M,,M,1,20,2.523,,M*13
$GPVTG,,T,,M,0.00,N,0.01,K,D*27
$GPHDT,,T*1B
$GPTHS,,V*0E
$GPROT,,V*08
$PSSN,HRP,043122.00,010125,,,,,,,00,0,,*67
$PTNL,AVR,043122.00,,Yaw,,Tilt,,,,0,,00*31
$GPGSA,A,3,04,06,09,11,20,30,,,,,,,1.4,0.7,1.3*38
$GPGSA,A,3,70,71,72,73,87,,,,,,,,1.4,0.7,1.3*3D
$GPGSA,A,3,05,09,15,34,36,,,,,,,,1.4,0.7,1.3*38
$GPGSA,A,3,09,12,19,22,,,,,,,,,1.4,0.7,1.3*30
$GPGST,043122.00,3.601,0.900,0.785,343.590,0.892,0.794,2.222*57
$GPGBS,043122.00,3.476,3.797,8.140,06,0.0001,-1.437,0.674*76
$GPGRS,043122.00,1,0.5,-1.4,0.7,-0.9,0.8,1.0,,,,,,*4F
$GPGRS,043122.00,1,-4.6,-0.4,5.4,-0.5,-8.9,,,,,,,*65
$GPGRS,043122.00,1,0.5,0.1,-1.8,0.3,2.2,,,,,,,*45
$GPGRS,043122.00,1,2.2,-3.9,-1.4,-1.7,,,,,,,,*6C
$GPGSV,4,1,15,09,73,048,49,03,15,125,31,30,22,202,36,20,25,307,43*77
$GPGSV,4,2,15,16,17,065,,11,40,293,37,07,55,177,34,04,44,067,44*75
$GPGSV,4,3,15,06,48,239,46,29,01,348,,26,10,036,,36,35,170,41*7F
$GPGSV,4,4,15,34,31,208,,49,34,195,35,61,03,257,*47
$GLGSV,3,1,10,71,67,003,47,70,35,077,40,74,10,162,,72,33,292,41*6A
$GLGSV,3,2,10,86,28,231,35,73,39,125,38,80,36,051,34,87,39,289,41*69
$GLGSV,3,3,10,79,01,012,,88,10,344,22*6A
$GAGSV,3,1,10,05,74,280,43,36,26,188,38,23,10,032,,15,28,315,47*60
$GAGSV,3,2,10,31,20,081,28,06,23,070,31,03,23,257,35,09,46,065,39*6F
$GAGSV,3,3,10,34,53,250,39,24,09,131,*69
$GBGSV,6,1,21,19,64,081,46,36,30,158,33,35,10,224,,05,23,129,*69
$GBGSV,6,2,21,37,15,038,31,20,16,098,,16,18,044,27,12,23,295,37*62
$GBGSV,6,3,21,06,21,045,26,44,22,269,32,09,34,050,40,48,37,095,*6A
$GBGSV,6,4,21,58,38,069,,22,55,297,38,46,45,092,,39,08,042,*68
$GBGSV,6,5,21,21,05,285,26,11,03,342,32,34,08,319,,02,06,107,*67
$GBGSV,6,6,21,60,08,111,*57
$GPGGA,043122.00,,,,,0,00,,,M,,M,,*4E
$PTNL,GGK,043122.00,010125,4742.4464454,N,01617.9732595,E,1,20,1.4,EHT669.0183,M*4D
$GPGGQ,043122.00,010125,4742.4464454,N,01617.9732595,E,1,20,2.523,625.8073,M*3E
$GPGFA,043122.00,8.561,18.220,0.900,0.785,343.590,2.222,,VVV*3D
$GPLLK,043122.00,010125,,M,,M,1,20,1.7,,M*09
$GNGMP,043122.00,,,,,DAAA,20,0.7,,,,*55
$GPGMP,043122.00,,,,,,06,,,,2.5,123*7A
$GLGMP,043122.00,,,,,,05,,,,,*7C
$GAGMP,043122.00,,,,,,05,,,,,*71
$GBGMP,043122.00,,,,,,04,,,,,*73
$PSSN,SNC,[0,275500000,2347]*41
$GPZDA,043127.00,01,01,2025,,*60
$GPDTM,W84,,00.0000000,N,00.0000000,E,00.0000000,W84*5F
$GPRMC,043127.00,A,4742.4464408,N,01617.9732483,E,0.0,,010125,5.1,E,D*14
$GPGLL,4742.4464408,N,01617.9732483,E,043127.00,A,D*65
$GPGGA,043127.00,4742.4464408,N,01617.9732483,E,2,22,0.6,625.8161,M,43.2111,M,3.4,0123*42
$GNGNS,043127.00,4742.4464408,N,01617.9732483,E,DAAA,22,0.6,625.8161,43.2111,,*59
$GPGNS,043127.00,,,,,,05,,,,3.4,123*7C
$GLGNS,043127.00,,,,,,06,,,,,*7A
$GAGNS,043127.00,,,,,,06,,,,,*77
$GBGNS,043127.00,,,,,,05,,,,,*77
$GPLLQ,043127.00,010125,,M,,M,1,22,2.034,,M*17
$GPVTG,,T,,M,0.00,N,0.01,K,D*27
$GPHDT,,T*1B
$GPTHS,,V*0E
$GPROT,,V*08
$PSSN,HRP,043127.00,010125,,,,,,,00,0,,*62
$PTNL,AVR,043127.00,,Yaw,,Tilt,,,,0,,00*34
$GPGSA,A,3,04,06,09,20,30,,,,,,,,1.3,0.6,1.2*3F
$GPGSA,A,3,70,71,72,73,80,87,,,,,,,1.3,0.6,1.2*32
$GPGSA,A,3,03,05,09,15,34,36,,,,,,,1.3,0.6,1.2*3C
$GPGSA,A,3,09,12,19,22,36,,,,,,,,1.3,0.6,1.2*32
$GPGST,043127.00,3.560,0.809,0.644,319.449,0.744,0.718,1.751*5A
$GPGBS,043127.00,4.413,4.104,8.412,06,0.0001,-1.179,0.690*7B
$GPGRS,043127.00,1,0.8,-1.2,0.4,0.6,-0.3,,,,,,,*69
$GPGRS,043127.00,1,-4.3,-1.1,5.6,-0.2,-6.6,-6.7,,,,,,*67
$GPGRS,043127.00,1,-0.8,0.8,-0.7,-2.0,-0.6,1.3,,,,,,*4C
$GPGRS,043127.00,1,2.0,-3.9,-0.9,-2.9,3.5,,,,,,,*42
$GPGSV,4,1,15,09,73,048,49,03,15,125,30,30,22,202,37,20,25,307,43*77
$GPGSV,4,2,15,16,17,065,,11,40,293,33,07,55,177,33,04,44,067,44*76
$GPGSV,4,3,15,06,48,239,46,29,01,348,,26,10,036,,36,35,170,41*7F
$GPGSV,4,4,15,34,31,208,,49,34,195,35,61,03,257,*47
$GLGSV,3,1,10,71,67,003,48,70,35,077,40,74,10,162,,72,33,292,42*66
$GLGSV,3,2,10,86,28,231,32,73,39,125,37,80,36,051,40,87,39,289,42*61
$GLGSV,3,3,10,79,01,012,23,88,10,344,31*69
$GAGSV,3,1,10,05,74,280,44,36,26,188,38,23,10,032,,15,28,315,47*67
$GAGSV,3,2,10,31,20,081,28,06,23,070,30,03,23,257,36,09,46,065,36*62
$GAGSV,3,3,10,34,53,250,39,24,09,131,*69
$GBGSV,6,1,21,19,64,081,46,36,30,158,42,35,10,224,22,05,23,129,*6F
$GBGSV,6,2,21,37,15,038,,20,16,098,28,16,18,044,27,12,23,295,37*6A
$GBGSV,6,3,21,06,21,045,26,44,22,269,34,09,34,050,40,48,37,095,*6C
$GBGSV,6,4,21,58,38,069,,22,55,297,40,46,45,092,,39,08,042,*67
$GBGSV,6,5,21,21,05,285,27,11,03,342,30,34,08,319,,02,06,107,*64
$GBGSV,6,6,21,60,08,111,*57
$GPGGA,043127.00,,,,,0,00,,,M,,M,,*4B
$PTNL,GGK,043127.00,010125,4742.4464408,N,01617.9732483,E,1,22,1.3,EHT669.0271,M*4C
