$GPZDA,011442.00,01,01,2025,,*61
$GPDTM,W84,,00.0000000,N,00.0000000,E,00.0000000,W84*5F
$GPRMC,011442.00,A,4742.4465485,N,01617.9737076,E,0.0,,010125,5.1,E,D*1A
$GPGLL,4742.4465485,N,01617.9737076,E,011442.00,A,D*6B
$GPGGA,011442.00,4742.4465485,N,01617.9737076,E,2,20,0.7,625.7491,M,43.2110,M,2.8,0123*46
$GNGNS,011442.00,4742.4465485,N,01617.9737076,E,DAAA,20,0.7,625.7491,43.2110,,*50
$GPGNS,011442.00,,,,,,05,,,,2.8,123*70
$GLGNS,011442.00,,,,,,02,,,,,*7F
$GAGNS,011442.00,,,,,,06,,,,,*76
$GBGNS,011442.00,,,,,,07,,,,,*74
$GPLLQ,011442.00,010125,,M,,M,1,20,6.229,,M*1E
$GPVTG,,T,,M,0.01,N,0.01,K,D*26
$GPHDT,,T*1B
$GPTHS,,V*0E
$GPROT,,V*08
$PSSN,HRP,011442.00,010125,,,,,,,00,0,,*63
$PTNL,AVR,011442.00,,Yaw,,Tilt,,,,0,,00*35
$GPGSA,A,3,02,04,17,21,28,,,,,,,,1.6,0.7,1.4*3E
$GPGSA,A,3,69,85,,,,,,,,,,,1.6,0.7,1.4*35
$GPGSA,A,3,04,06,09,10,11,36,,,,,,,1.6,0.7,1.4*38
$GPGSA,A,3,06,16,19,20,29,32,35,,,,,,1.6,0.7,1.4*30
$GPGST,011442.00,5.560,1.829,1.153,8.728,1.816,1.173,5.842*53
$GPGBS,011442.00,4.135,3.330,19.739,02,0.0001,-2.052,0.586*48
$GPGRS,011442.00,1,-2.1,-1.4,2.1,-0.3,2.8,,,,,,,*43
$GPGRS,011442.00,1,-2.0,0.4,,,,,,,,,,*67
$GPGRS,011442.00,1,1.3,-0.6,-0.3,10.0,-2.0,1.2,,,,,,*56
$GPGRS,011442.00,1,5.5,0.8,15.1,-0.6,0.6,-1.7,-3.1,,,,,*76
$GPGSV,4,1,16,03,76,320,31,09,16,216,28,28,27,066,38,19,25,311,*73
$GPGSV,4,2,16,31,29,098,33,04,43,203,38,21,39,146,43,17,39,279,40*70
$GPGSV,4,3,16,02,59,154,41,01,64,140,,06,04,311,34,32,07,045,*75
$GPGSV,4,4,16,36,35,170,41,34,31,208,,49,34,195,38,61,03,257,*79
$GLGSV,3,1,09,85,64,309,49,68,11,046,25,86,10,327,35,78,10,048,*60
$GLGSV,3,2,09,70,47,243,26,84,54,164,30,69,59,033,42,71,02,232,*67
$GLGSV,3,3,09,77,05,354,*5B
$GAGSV,4,1,13,06,72,133,36,04,59,068,49,18,13,314,,09,58,188,49*66
$GAGSV,4,2,13,34,14,309,32,10,31,132,36,11,60,135,42,36,66,304,37*62
$GAGSV,4,3,13,19,06,042,,27,00,358,,30,02,312,24,12,08,131,*61
$GAGSV,4,4,13,05,09,212,*57
$GBGSV,5,1,18,20,86,003,53,09,34,080,33,30,15,166,28,05,24,128,*6D
$GBGSV,5,2,18,39,28,049,35,32,29,060,44,35,36,305,44,06,32,064,38*69
$GBGSV,5,3,18,16,31,060,46,19,40,245,35,29,56,214,48,48,68,249,*62
$GBGSV,5,4,18,23,09,061,,25,01,015,,37,04,108,,13,00,090,*6C
$GBGSV,5,5,18,02,08,105,,60,09,110,*63
$GPGGA,011442.00,,,,,0,00,,,M,,M,,*4A
$PTNL,GGK,011442.00,010125,4742.4465485,N,01617.9737076,E,1,20,1.6,EHT668.9602,M*4D
$GPGGQ,011442.00,010125,4742.4465485,N,01617.9737076,E,1,20,6.229,625.7491,M*34
$GPGFA,011442.00,17.389,47.901,1.829,1.153,8.728,5.842,,VVV*04
$GPLLK,011442.00,010125,,M,,M,1,20,1.9,,M*03
$GNGMP,011442.00,,,,,DAAA,20,0.7,,,,*51
$GPGMP,011442.00,,,,,,05,,,,2.8,123*70
$GLGMP,011442.00,,,,,,02,,,,,*7F
$GAGMP,011442.00,,,,,,06,,,,,*76
$GBGMP,011442.00,,,,,,07,,,,,*74
$PSSN,SNC,[0,263700000,2347]*44
$GPZDA,011447.00,01,01,2025,,*64
$GPDTM,W84,,00.0000000,N,00.0000000,E,00.0000000,W84*5F
$GPRMC,011447.00,A,4742.4465247,N,01617.9737059,E,0.0,,010125,5.1,E,D*1A
$GPGLL,4742.4465247,N,01617.9737059,E,011447.00,A,D*6B
$GPGGA,011447.00,4742.4465247,N,01617.9737059,E,2,18,0.8,625.7693,M,43.2110,M,1.6,0123*4F
$GNGNS,011447.00,4742.4465247,N,01617.9737059,E,DAAA,18,0.8,625.7693,43.2110,,*54
$GPGNS,011447.00,,,,,,05,,,,1.6,123*78
$GLGNS,011447.00,,,,,,02,,,,,*7A
$GAGNS,011447.00,,,,,,05,,,,,*70
$GBGNS,011447.00,,,,,,06,,,,,*70
$GPLLQ,011447.00,010125,,M,,M,1,18,5.151,,M*1F
$GPVTG,,T,,M,0.01,N,0.01,K,D*26
$GPHDT,,T*1B
$GPTHS,,V*0E
$GPROT,,V*08
$PSSN,HRP,011447.00,010125,,,,,,,00,0,,*66
$PTNL,AVR,011447.00,,Yaw,,Tilt,,,,0,,00*30
$GPGSA,A,3,02,03,04,17,21,,,,,,,,1.7,0.8,1.5*38
$GPGSA,A,3,69,85,,,,,,,,,,,1.7,0.8,1.5*3A
$GPGSA,A,3,04,06,09,10,36,,,,,,,,1.7,0.8,1.5*37
$GPGSA,A,3,06,16,20,29,32,35,,,,,,,1.7,0.8,1.5*37
$GPGST,011447.00,5.786,2.154,1.247,27.760,1.993,1.491,4.510*65
$GPGBS,011447.00,7.333,5.456,13.015,17,0.0001,1.848,0.684*60
$GPGRS,011447.00,1,-1.6,1.3,-1.5,1.8,-0.3,,,,,,,*41
$GPGRS,011447.00,1,7.6,0.9,,,,,,,,,,*41
$GPGRS,011447.00,1,1.0,-0.5,-0.3,15.8,1.6,,,,,,,*5B
$GPGRS,011447.00,1,5.9,0.7,-0.6,0.4,-2.2,-2.7,,,,,,*68
$GPGSV,4,1,16,03,76,320,37,09,17,216,28,28,27,066,35,19,25,311,43*7E
$GPGSV,4,2,16,31,29,098,35,04,43,203,36,21,39,146,43,17,39,279,41*79
$GPGSV,4,3,16,02,59,154,41,01,64,140,,06,04,311,34,32,07,045,*75
$GPGSV,4,4,16,36,35,170,41,34,31,208,,49,34,195,38,61,03,257,*79
$GLGSV,3,1,09,85,64,309,49,68,10,046,25,86,10,327,34,78,10,048,*60
$GLGSV,3,2,09,70,47,243,30,84,54,164,28,69,59,033,44,71,03,232,*6E
$GLGSV,3,3,09,77,05,354,*5B
$GAGSV,4,1,13,06,72,133,37,04,59,068,49,18,13,314,,09,58,188,50*6F
$GAGSV,4,2,13,34,14,309,32,10,31,132,36,11,60,135,28,36,66,304,36*6F
$GAGSV,4,3,13,19,06,042,,27,00,358,,30,02,312,24,12,08,131,*61
$GAGSV,4,4,13,05,09,212,*57
$GBGSV,5,1,18,20,86,004,53,09,34,080,33,30,15,166,27,05,24,128,*65
$GBGSV,5,2,18,39,28,049,35,32,29,060,44,35,36,305,45,06,32,064,38*68
$GBGSV,5,3,18,16,31,060,46,19,40,245,33,29,56,214,48,48,68,249,*64
$GBGSV,5,4,18,23,09,061,,25,01,015,,37,04,108,,13,00,090,*6C
$GBGSV,5,5,18,02,08,105,,60,09,110,*63
$GPGGA,011447.00,,,,,0,00,,,M,,M,,*4F
$PTNL,GGK,011447.00,010125,4742.4465247,N,01617.9737059,E,1,18,1.7,EHT668.9803,M*48
$GPGGQ,011447.00,010125,4742.4465247,N,01617.9737059,E,1,18,5.151,625.7693,M*30
$GPGFA,011447.00,20.480,36.984,2.154,1.247,27.760,4.510,,VVV*3C
$GPLLK,011447.00,010125,,M,,M,1,18,2.0,,M*07
$GNGMP,011447.00,,,,,DAAA,18,0.8,,,,*50
$GPGMP,011447.00,,,,,,05,,,,1.6,123*78
$GLGMP,011447.00,,,,,,02,,,,,*7A
$GAGMP,011447.00,,,,,,05,,,,,*70
$GBGMP,011447.00,,,,,,06,,,,,*70
$PSSN,SNC,[0,263705000,2347]*41
$GPZDA,011452.00,01,01,2025,,*60
$GPDTM,W84,,00.0000000,N,00.0000000,E,00.0000000,W84*5F
$GPRMC,011452.00,A,4742.4465050,N,01617.9737177,E,0.0,,010125,5.1,E,D*17
$GPGLL,4742.4465050,N,01617.9737177,E,011452.00,A,D*66
$GPGGA,011452.00,4742.4465050,N,01617.9737177,E,2,17,0.8,625.7611,M,43.2110,M,2.6,0123*44
$GNGNS,011452.00,4742.4465050,N,01617.9737177,E,DAAA,17,0.8,625.7611,43.2110,,*5C
$GPGNS,011452.00,,,,,,05,,,,2.6,123*7F
$GLGNS,011452.00,,,,,,02,,,,,*7E
$GAGNS,011452.00,,,,,,03,,,,,*72
$GBGNS,011452.00,,,,,,07,,,,,*75
$GPLLQ,011452.00,010125,,M,,M,1,17,6.191,,M*1B
$GPVTG,,T,,M,0.00,N,0.00,K,D*26
$GPHDT,,T*1B
$GPTHS,,V*0E
$GPROT,,V*08
$PSSN,HRP,011452.00,010125,,,,,,,00,0,,*62
$PTNL,AVR,011452.00,,Yaw,,Tilt,,,,0,,00*34
$GPGSA,A,3,02,03,04,17,21,,,,,,,,1.7,0.8,1.5*38
$GPGSA,A,3,69,85,,,,,,,,,,,1.7,0.8,1.5*3A
$GPGSA,A,3,04,06,09,,,,,,,,,,1.7,0.8,1.5*33
$GPGSA,A,3,06,16,19,20,29,32,35,,,,,,1.7,0.8,1.5*3F
$GPGST,011452.00,5.394,2.919,1.152,37.418,2.422,1.996,5.337*61
$GPGBS,011452.00,7.309,5.527,13.349,17,0.0001,2.152,0.695*61
$GPGRS,011452.00,1,-1.8,1.5,-1.2,2.2,-0.3,,,,,,,*43
$GPGRS,011452.00,1,10.2,1.0,,,,,,,,,,*7F
$GPGRS,011452.00,1,0.3,-0.2,-0.7,,,,,,,,,*65
$GPGRS,011452.00,1,5.5,0.4,-11.2,-1.1,-0.1,-3.0,-3.0,,,,,*79
$GPGSV,4,1,16,03,76,320,40,09,17,216,25,28,27,066,33,19,25,311,*72
$GPGSV,4,2,16,31,29,098,34,04,43,203,36,21,39,146,43,17,39,279,42*7B
$GPGSV,4,3,16,02,58,154,41,01,63,140,,06,04,311,33,32,07,045,*74
$GPGSV,4,4,16,36,35,170,41,34,31,208,,49,34,195,38,61,03,257,*79
$GLGSV,3,1,09,85,64,309,49,68,10,046,18,86,10,327,34,78,10,048,*6E
$GLGSV,3,2,09,70,47,243,32,84,54,164,25,69,59,033,45,71,03,232,*60
$GLGSV,3,3,09,77,05,354,*5B
$GAGSV,4,1,13,06,72,133,37,04,59,068,48,18,13,314,,09,58,188,50*6E
$GAGSV,4,2,13,34,14,309,33,10,31,132,35,11,60,135,43,36,66,304,34*62
$GAGSV,4,3,13,19,06,042,,27,00,358,,30,02,312,27,12,08,131,*62
$GAGSV,4,4,13,05,09,212,*57
$GBGSV,5,1,18,20,86,004,53,09,34,080,32,30,15,166,26,05,24,128,*65
$GBGSV,5,2,18,39,28,049,34,32,29,060,43,35,36,305,46,06,32,064,38*6D
$GBGSV,5,3,18,16,31,060,46,19,40,245,38,29,56,214,48,48,68,249,*6F
$GBGSV,5,4,18,23,09,061,,25,01,015,,37,04,108,,13,00,090,*6C
$GBGSV,5,5,18,02,08,105,,60,09,110,*63
$GPGGA,011452.00,,,,,0,00,,,M,,M,,*4B
$PTNL,GGK,011452.00,010125,4742.4465050,N,01617.9737177,E,1,17,1.7,EHT668.9722,M*46
$GPGGQ,011452.00,010125,4742.4465050,N,01617.9737177,E,1,17,6.191,625.7611,M*37
$GPGFA,011452.00,27.752,43.761,2.919,1.152,37.418,5.337,,VVV*3D
$GPLLK,011452.00,010125,,M,,M,1,17,2.1,,M*0D
$GNGMP,011452.00,,,,,DAAA,17,0.8,,,,*5B
$GPGMP,011452.00,,,,,,05,,,,2.6,123*7F
$GLGMP,011452.00,,,,,,02,,,,,*7E
$GAGMP,011452.00,,,,,,03,,,,,*72
$GBGMP,011452.00,,,,,,07,,,,,*75
$PSSN,SNC,[0,263710000,2347]*45
$GPZDA,011457.00,01,01,2025,,*65
$GPDTM,W84,,00.0000000,N,00.0000000,E,00.0000000,W84*5F
$GPRMC,011457.00,A,4742.4464846,N,01617.9737365,E,0.0,,010125,5.1,E,D*1D
$GPGLL,4742.4464846,N,01617.9737365,E,011457.00,A,D*6C
$GPGGA,011457.00,4742.4464846,N,01617.9737365,E,2,18,0.8,625.7510,M,43.2110,M,3.5,0123*41
$GNGNS,011457.00,4742.4464846,N,01617.9737365,E,DAAA,18,0.8,625.7510,43.2110,,*5B
$GPGNS,011457.00,,,,,,06,,,,3.5,123*7B
$GLGNS,011457.00,,,,,,02,,,,,*7B
$GAGNS,011457.00,,,,,,03,,,,,*77
$GBGNS,011457.00,,,,,,07,,,,,*70
$GPLLQ,011457.00,010125,,M,,M,1,18,3.739,,M*10
$GPVTG,,T,,M,0.00,N,0.01,K,D*27
$GPHDT,,T*1B
$GPTHS,,V*0E
$GPROT,,V*08
$PSSN,HRP,011457.00,010125,,,,,,,00,0,,*67
$PTNL,AVR,011457.00,,Yaw,,Tilt,,,,0,,00*31
$GPGSA,A,3,02,03,04,17,21,28,,,,,,,1.6,0.8,1.4*32
$GPGSA,A,3,69,85,,,,,,,,,,,1.6,0.8,1.4*3A
$GPGSA,A,3,04,06,09,,,,,,,,,,1.6,0.8,1.4*33
$GPGSA,A,3,06,16,19,20,29,32,35,,,,,,1.6,0.8,1.4*3F
$GPGST,011457.00,2.988,1.586,0.863,32.408,1.416,1.119,3.274*68
$GPGBS,011457.00,3.004,3.527,9.450,17,0.0001,1.465,0.715*57
$GPGRS,011457.00,1,-1.3,1.1,-1.1,1.5,-0.6,1.4,,,,,,*60
$GPGRS,011457.00,1,4.3,1.3,,,,,,,,,,*4D
$GPGRS,011457.00,1,-0.1,-0.7,-1.1,,,,,,,,,*4D
$GPGRS,011457.00,1,6.1,0.2,-3.2,-1.3,-0.9,-3.0,-2.9,,,,,*4C
$GPGSV,4,1,16,03,76,321,41,09,17,216,21,28,27,066,35,19,25,311,37*74
$GPGSV,4,2,16,31,29,098,32,04,43,203,37,21,38,146,42,17,39,279,40*7E
$GPGSV,4,3,16,02,58,154,42,01,63,140,,06,04,311,33,32,07,045,*77
$GPGSV,4,4,16,36,35,170,41,34,31,208,,49,34,195,37,61,03,257,*76
$GLGSV,3,1,09,85,64,309,49,68,10,046,22,86,10,327,34,78,10,048,*67
$GLGSV,3,2,09,70,47,243,33,84,54,164,22,69,59,033,45,71,03,232,*66
$GLGSV,3,3,09,77,05,354,*5B
$GAGSV,4,1,13,06,72,133,37,04,59,068,48,18,13,314,,09,58,188,50*6E
$GAGSV,4,2,13,34,14,309,34,10,31,132,31,11,60,135,34,36,66,304,32*67
$GAGSV,4,3,13,19,06,042,,27,00,358,,30,02,312,26,12,08,131,*63
$GAGSV,4,4,13,05,09,212,*57
$GBGSV,5,1,18,20,86,004,52,09,34,080,31,30,14,166,25,05,24,128,*65
$GBGSV,5,2,18,39,28,049,34,32,29,060,43,35,36,305,47,06,32,064,39*6D
$GBGSV,5,3,18,16,31,060,46,19,40,245,38,29,56,214,48,48,68,249,*6F
$GBGSV,5,4,18,23,09,061,,25,01,015,,37,04,108,,13,00,090,*6C
$GBGSV,5,5,18,02,08,105,,60,09,110,*63
$GPGGA,011457.00,,,,,0,00,,,M,,M,,*4E
$PTNL,GGK,011457.00,010125,4742.4464846,N,01617.9737365,E,1,18,1.6,EHT668.9620,M*41
$GPGGQ,011457.00,010125,4742.4464846,N,01617.9737365,E,1,18,3.739,625.7510,M*31
$GPGFA,011457.00,15.076,26.845,1.586,0.863,32.408,3.274,,VVV*35
$GPLLK,011457.00,010125,,M,,M,1,18,2.0,,M*06
$GNGMP,011457.00,,,,,DAAA,18,0.8,,,,*51
$GPGMP,011457.00,,,,,,06,,,,3.5,123*7B
$GLGMP,011457.00,,,,,,02,,,,,*7B
$GAGMP,011457.00,,,,,,03,,,,,*77
$GBGMP,011457.00,,,,,,07,,,,,*70
$PSSN,SNC,[0,263715000,2347]*40
$GPZDA,011502.00,01,01,2025,,*64
$GPDTM,W84,,00.0000000,N,00.0000000,E,00.0000000,W84*5F
$GPRMC,011502.00,A,4742.4464696,N,01617.9737271,E,0.0,,010125,5.1,E,D*1B
$GPGLL,4742.4464696,N,01617.9737271,E,011502.00,A,D*6A
$GPGGA,011502.00,4742.4464696,N,01617.9737271,E,2,18,0.8,625.7579,M,43.2110,M,2.2,0123*4E
$GNGNS,011502.00,4742.4464696,N,01617.9737271,E,DAAA,18,0.8,625.7579,43.2110,,*52
$GPGNS,011502.00,,,,,,05,,,,2.2,123*7F
$GLGNS,011502.00,,,,,,03,,,,,*7B
$GAGNS,011502.00,,,,,,03,,,,,*76
$GBGNS,011502.00,,,,,,07,,,,,*71
$GPLLQ,011502.00,010125,,M,,M,1,18,2.219,,M*17
$GPVTG,,T,,M,0.00,N,0.01,K,D*27
$GPHDT,,T*1B
$GPTHS,,V*0E
$GPROT,,V*08
$PSSN,HRP,011502.00,010125,,,,,,,00,0,,*66
$PTNL,AVR,011502.00,,Yaw,,Tilt,,,,0,,00*30
$GPGSA,A,3,02,03,04,17,21,,,,,,,,1.7,0.8,1.5*38
$GPGSA,A,3,69,70,85,,,,,,,,,,1.7,0.8,1.5*3D
$GPGSA,A,3,04,06,09,,,,,,,,,,1.7,0.8,1.5*33
$GPGSA,A,3,06,16,19,20,29,32,35,,,,,,1.7,0.8,1.5*3F
$GPGST,011502.00,2.154,1.026,0.419,37.463,0.853,0.707,1.923*69
$GPGBS,011502.00,6.858,5.585,13.805,04,0.0001,-0.720,0.652*45
$GPGRS,011502.00,1,-0.1,0.3,-0.7,-0.1,0.0,,,,,,,*4E
$GPGRS,011502.00,1,-0.2,-1.2,1.4,,,,,,,,,*63
$GPGRS,011502.00,1,0.3,-0.3,-0.6,,,,,,,,,*61
$GPGRS,011502.00,1,5.9,0.6,-0.8,-0.7,-0.5,-2.0,-2.3,,,,,*49
$GPGSV,4,1,16,03,76,321,42,09,17,216,,28,27,066,37,19,25,311,33*72
$GPGSV,4,2,16,31,29,098,30,04,43,203,35,21,38,146,42,17,39,279,37*7E
$GPGSV,4,3,16,02,58,154,43,01,63,140,,06,04,311,33,32,07,045,*76
$GPGSV,4,4,16,36,35,170,41,34,31,208,,49,34,195,37,61,03,257,*76
$GLGSV,3,1,09,85,64,309,49,68,10,046,26,86,10,327,33,78,10,048,*64
$GLGSV,3,2,09,70,47,243,35,84,54,164,25,69,59,033,46,71,03,232,*64
$GLGSV,3,3,09,77,05,354,*5B
$GAGSV,4,1,13,06,73,133,37,04,58,068,47,18,13,314,,09,58,188,49*69
$GAGSV,4,2,13,34,14,309,35,10,31,132,26,11,60,135,35,36,66,304,30*63
$GAGSV,4,3,13,19,06,042,,27,00,358,,30,02,312,24,12,08,131,*61
$GAGSV,4,4,13,05,09,212,*57
$GBGSV,5,1,18,20,86,005,52,09,34,080,31,30,14,166,24,05,24,128,*65
$GBGSV,5,2,18,39,28,049,34,32,29,060,42,35,36,305,47,06,32,064,38*6D
$GBGSV,5,3,18,16,31,060,45,19,40,245,38,29,56,214,47,48,69,249,*62
$GBGSV,5,4,18,23,09,061,,25,01,015,,37,04,108,,13,00,090,*6C
$GBGSV,5,5,18,02,08,105,,60,09,110,*63
$GPGGA,011502.00,,,,,0,00,,,M,,M,,*4F
$PTNL,GGK,011502.00,010125,4742.4464696,N,01617.9737271,E,1,18,1.7,EHT668.9689,M*45
$GPGGQ,011502.00,010125,4742.4464696,N,01617.9737271,E,1,18,2.219,625.7579,M*3E
$GPGFA,011502.00,9.758,15.765,1.026,0.419,37.463,1.923,,VVV*02
$GPLLK,011502.00,010125,,M,,M,1,18,2.0,,M*07
$GNGMP,011502.00,,,,,DAAA,18,0.8,,,,*50
$GPGMP,011502.00,,,,,,05,,,,2.2,123*7F
$GLGMP,011502.00,,,,,,03,,,,,*7B
$GAGMP,011502.00,,,,,,03,,,,,*76
$GBGMP,011502.00,,,,,,07,,,,,*71
$PSSN,SNC,[0,263720000,2347]*46
$GPZDA,011507.00,01,01,2025,,*61
$GPDTM,W84,,00.0000000,N,00.0000000,E,00.0000000,W84*5F
$GPRMC,011507.00,A,4742.4464671,N,01617.9737290,E,0.0,,010125,5.1,E,D*18
$GPGLL,4742.4464671,N,01617.9737290,E,011507.00,A,D*69
$GPGGA,011507.00,4742.4464671,N,01617.9737290,E,2,18,0.8,625.7560,M,43.2110,M,1.5,0123*41
$GNGNS,011507.00,4742.4464671,N,01617.9737290,E,DAAA,18,0.8,625.7560,43.2110,,*59
$GPGNS,011507.00,,,,,,04,,,,1.5,123*7F
$GLGNS,011507.00,,,,,,03,,,,,*7E
$GAGNS,011507.00,,,,,,04,,,,,*74
$GBGNS,011507.00,,,,,,07,,,,,*74
$GPLLQ,011507.00,010125,,M,,M,1,18,2.880,,M*18
$GPVTG,,T,,M,0.01,N,0.01,K,D*26
$GPHDT,,T*1B
$GPTHS,,V*0E
$GPROT,,V*08
$PSSN,HRP,011507.00,010125,,,,,,,00,0,,*63
$PTNL,AVR,011507.00,,Yaw,,Tilt,,,,0,,00*35
$GPGSA,A,3,02,03,17,21,,,,,,,,,1.6,0.8,1.4*3C
$GPGSA,A,3,69,70,85,,,,,,,,,,1.6,0.8,1.4*3D
$GPGSA,A,3,04,06,09,10,,,,,,,,,1.6,0.8,1.4*32
$GPGSA,A,3,06,16,19,20,29,32,35,,,,,,1.6,0.8,1.4*3F
$GPGST,011507.00,2.444,1.817,0.423,37.093,1.472,1.147,2.194*6A
$GPGBS,011507.00,9.811,5.595,14.253,17,0.0001,1.143,0.685*6A
$GPGRS,011507.00,1,0.1,0.1,1.1,-0.5,,,,,,,,*64
$GPGRS,011507.00,1,-0.3,-1.8,0.7,,,,,,,,,*6F
$GPGRS,011507.00,1,-0.1,-1.4,-1.2,-3.0,,,,,,,,*48
$GPGRS,011507.00,1,4.9,-0.0,-3.4,-1.3,-1.2,-1.6,-2.6,,,,,*6A
$GPGSV,4,1,16,03,76,321,43,09,17,216,26,28,27,066,39,19,25,311,31*7B
$GPGSV,4,2,16,31,29,098,32,04,43,203,35,21,38,146,41,17,39,279,38*70
$GPGSV,4,3,16,02,58,154,44,01,63,140,,06,04,311,32,32,07,045,*70
$GPGSV,4,4,16,36,35,170,41,34,31,208,,49,34,195,37,61,03,257,*76
$GLGSV,3,1,09,85,64,309,50,68,10,046,27,86,10,327,35,78,10,048,*6B
$GLGSV,3,2,09,70,47,243,37,84,54,164,27,69,59,033,47,71,03,232,*65
$GLGSV,3,3,09,77,05,354,*5B
$GAGSV,4,1,13,06,73,132,37,04,58,068,46,18,13,314,,09,58,188,49*69
$GAGSV,4,2,13,34,14,309,35,10,31,132,32,11,60,135,35,36,66,304,31*67
$GAGSV,4,3,13,19,06,042,,27,00,358,,30,02,312,27,12,08,131,*62
$GAGSV,4,4,13,05,09,212,*57
$GBGSV,5,1,18,20,86,005,52,09,34,080,31,30,14,166,,05,24,128,*63
$GBGSV,5,2,18,39,28,049,34,32,29,060,41,35,36,305,48,06,32,064,39*60
$GBGSV,5,3,18,16,31,060,45,19,40,245,39,29,56,214,47,48,69,249,*63
$GBGSV,5,4,18,23,09,061,,25,01,015,,37,04,108,,13,00,090,*6C
$GBGSV,5,5,18,02,08,105,,60,09,110,*63
$GPGGA,011507.00,,,,,0,00,,,M,,M,,*4A
$PTNL,GGK,011507.00,010125,4742.4464671,N,01617.9737290,E,1,18,1.6,EHT668.9670,M*41
$GPGGQ,011507.00,010125,4742.4464671,N,01617.9737290,E,1,18,2.880,625.7560,M*3F
$GPGFA,011507.00,17.276,17.989,1.817,0.423,37.093,2.194,,VVV*30
$GPLLK,011507.00,010125,,M,,M,1,18,2.0,,M*02
$GNGMP,011507.00,,,,,DAAA,18,0.8,,,,*55
$GPGMP,011507.00,,,,,,04,,,,1.5,123*7F
$GLGMP,011507.00,,,,,,03,,,,,*7E
$GAGMP,011507.00,,,,,,04,,,,,*74
$GBGMP,011507.00,,,,,,07,,,,,*74
$PSSN,SNC,[0,263725000,2347]*43
$GPZDA,011512.00,01,01,2025,,*65
$GPDTM,W84,,00.0000000,N,00.0000000,E,00.0000000,W84*5F
$GPRMC,011512.00,A,4742.4464594,N,01617.9737442,E,0.0,,010125,5.1,E,D*1D
$GPGLL,4742.4464594,N,01617.9737442,E,011512.00,A,D*6C
$GPGGA,011512.00,4742.4464594,N,01617.9737442,E,2,20,0.7,625.7499,M,43.2110,M,2.5,0123*44
$GNGNS,011512.00,4742.4464594,N,01617.9737442,E,DAAA,20,0.7,625.7499,43.2110,,*5F
$GPGNS,011512.00,,,,,,04,,,,2.5,123*78
$GLGNS,011512.00,,,,,,04,,,,,*7D
$GAGNS,011512.00,,,,,,05,,,,,*71
$GBGNS,011512.00,,,,,,07,,,,,*70
$GPLLQ,011512.00,010125,,M,,M,1,20,3.631,,M*12
$GPVTG,,T,,M,0.00,N,0.01,K,D*27
$GPHDT,,T*1B
$GPTHS,,V*0E
$GPROT,,V*08
$PSSN,HRP,011512.00,010125,,,,,,,00,0,,*67
$PTNL,AVR,011512.00,,Yaw,,Tilt,,,,0,,00*31
$GPGSA,A,3,02,03,17,21,,,,,,,,,1.3,0.7,1.1*33
$GPGSA,A,3,69,70,85,86,,,,,,,,,1.3,0.7,1.1*3C
$GPGSA,A,3,04,06,09,10,34,,,,,,,,1.3,0.7,1.1*3A
$GPGSA,A,3,06,16,19,20,29,32,35,,,,,,1.3,0.7,1.1*30
$GPGST,011512.00,3.713,2.252,0.592,37.183,1.830,1.440,2.787*61
$GPGBS,011512.00,7.885,5.287,11.596,17,0.0001,1.423,0.697*62
$GPGRS,011512.00,1,-0.2,0.0,1.4,-0.5,,,,,,,,*4A
$GPGRS,011512.00,1,0.2,-1.4,-0.3,-10.2,,,,,,,,*52
$GPGRS,011512.00,1,-0.4,-1.5,-1.8,-3.2,2.6,,,,,,,*6A
$GPGRS,011512.00,1,4.6,-0.8,-2.8,-2.1,-1.6,-0.6,-3.1,,,,,*66
$GPGSV,4,1,16,03,76,321,45,09,17,216,,28,27,066,38,19,25,311,31*78
$GPGSV,4,2,16,31,29,098,34,04,43,203,35,21,38,146,39,17,39,279,39*78
$GPGSV,4,3,16,02,58,154,45,01,63,140,,06,04,311,33,32,07,045,*70
$GPGSV,4,4,16,36,35,170,41,34,31,208,,49,34,195,37,61,03,257,*76
$GLGSV,3,1,09,85,64,309,49,68,10,046,26,86,10,327,35,78,10,048,*62
$GLGSV,3,2,09,70,47,243,37,84,54,164,30,69,59,033,47,71,03,232,*63
$GLGSV,3,3,09,77,05,354,*5B
$GAGSV,4,1,13,06,73,132,36,04,58,068,46,18,13,314,,09,58,188,48*69
$GAGSV,4,2,13,34,14,309,35,10,31,132,30,11,59,135,34,36,66,304,33*6C
$GAGSV,4,3,13,19,06,042,,27,00,358,,30,02,312,28,12,08,131,*6D
$GAGSV,4,4,13,05,09,212,*57
$GBGSV,5,1,18,20,86,005,52,09,34,080,30,30,14,166,25,05,24,128,*65
$GBGSV,5,2,18,39,28,049,34,32,29,060,40,35,36,305,50,06,32,064,39*68
$GBGSV,5,3,18,16,31,060,45,19,40,245,41,29,56,214,47,48,69,249,*6C
$GBGSV,5,4,18,23,09,061,,25,01,015,,37,04,108,,13,00,090,*6C
$GBGSV,5,5,18,02,08,105,,60,09,110,*63
$GPGGA,011512.00,,,,,0,00,,,M,,M,,*4E
$PTNL,GGK,011512.00,010125,4742.4464594,N,01617.9737442,E,1,20,1.3,EHT668.9610,M*4C
$GPGGQ,011512.00,010125,4742.4464594,N,01617.9737442,E,1,20,3.631,625.7499,M*33
$GPGFA,011512.00,21.412,22.850,2.252,0.592,37.183,2.787,,VVV*31
$GPLLK,011512.00,010125,,M,,M,1,20,1.5,,M*0B
$GNGMP,011512.00,,,,,DAAA,20,0.7,,,,*55
$GPGMP,011512.00,,,,,,04,,,,2.5,123*78
$GLGMP,011512.00,,,,,,04,,,,,*7D
$GAGMP,011512.00,,,,,,05,,,,,*71
$GBGMP,011512.00,,,,,,07,,,,,*70
$PSSN,SNC,[0,263730000,2347]*47
$GPZDA,011517.00,01,01,2025,,*60
$GPDTM,W84,,00.0000000,N,00.0000000,E,00.0000000,W84*5F
$GPRMC,011517.00,A,4742.4464574,N,01617.9737528,E,0.0,,010125,5.1,E,D*1B
$GPGLL,4742.4464574,N,01617.9737528,E,011517.00,A,D*6A
$GPGGA,011517.00,4742.4464574,N,01617.9737528,E,2,19,0.7,625.7566,M,43.2110,M,3.5,0123*48
$GNGNS,011517.00,4742.4464574,N,01617.9737528,E,DAAA,19,0.7,625.7566,43.2110,,*52
$GPGNS,011517.00,,,,,,04,,,,3.5,123*7C
$GLGNS,011517.00,,,,,,04,,,,,*78
$GAGNS,011517.00,,,,,,04,,,,,*75
$GBGNS,011517.00,,,,,,07,,,,,*75
$GPLLQ,011517.00,010125,,M,,M,1,19,3.203,,M*18
$GPVTG,,T,,M,0.01,N,0.01,K,D*26
$GPHDT,,T*1B
$GPTHS,,V*0E
$GPROT,,V*08
$PSSN,HRP,011517.00,010125,,,,,,,00,0,,*62
$PTNL,AVR,011517.00,,Yaw,,Tilt,,,,0,,00*34
$GPGSA,A,3,02,03,17,21,,,,,,,,,1.4,0.7,1.2*37
$GPGSA,A,3,69,70,85,86,,,,,,,,,1.4,0.7,1.2*38
$GPGSA,A,3,04,06,09,10,,,,,,,,,1.4,0.7,1.2*39
$GPGSA,A,3,06,16,19,20,29,32,35,,,,,,1.4,0.7,1.2*34
$GPGST,011517.00,3.755,2.029,0.490,36.706,1.653,1.275,2.429*6D
$GPGBS,011517.00,8.457,5.028,12.160,86,0.0001,-10.980,6.596*77
$GPGRS,011517.00,1,-0.3,-0.2,0.8,0.0,,,,,,,,*44
$GPGRS,011517.00,1,-0.5,-1.9,-0.4,-11.0,,,,,,,,*74
$GPGRS,011517.00,1,-0.3,-0.8,-1.8,-2.8,,,,,,,,*45
$GPGRS,011517.00,1,3.7,-0.9,-0.6,-2.5,-1.4,0.5,-2.9,,,,,*49
$GPGSV,4,1,16,03,76,321,45,09,17,216,31,28,27,066,34,19,25,311,34*73
$GPGSV,4,2,16,31,29,098,37,04,43,203,35,21,38,146,39,17,39,278,39*7A
$GPGSV,4,3,16,02,58,154,45,01,63,140,,06,04,311,33,32,07,045,*70
$GPGSV,4,4,16,36,35,170,41,34,31,208,,49,34,195,37,61,03,257,*76
$GLGSV,3,1,09,85,64,309,49,68,10,046,27,86,10,327,37,78,10,048,*61
$GLGSV,3,2,09,70,47,243,37,84,54,164,31,69,59,033,47,71,03,232,*62
$GLGSV,3,3,09,77,05,354,*5B
$GAGSV,4,1,13,06,73,132,36,04,58,068,46,18,14,314,,09,58,188,48*6E
$GAGSV,4,2,13,34,14,309,34,10,31,132,28,11,59,135,33,36,66,304,34*64
$GAGSV,4,3,13,19,06,042,,27,00,358,,30,02,311,30,12,08,131,*67
$GAGSV,4,4,13,05,09,212,*57
$GBGSV,5,1,18,20,86,006,51,09,34,080,29,30,14,166,25,05,24,128,*6D
$GBGSV,5,2,18,39,28,049,34,32,29,060,40,35,36,305,50,06,32,064,38*69
$GBGSV,5,3,18,16,31,060,44,19,40,245,42,29,56,214,47,48,69,249,*6E
$GBGSV,5,4,18,23,09,061,,25,01,015,,37,04,108,,13,00,090,*6C
$GBGSV,5,5,18,02,08,105,,60,09,110,*63
$GPGGA,011517.00,,,,,0,00,,,M,,M,,*4B
$PTNL,GGK,011517.00,010125,4742.4464574,N,01617.9737528,E,1,19,1.4,EHT668.9677,M*46
$GPGGQ,011517.00,010125,4742.4464574,N,01617.9737528,E,1,19,3.203,625.7566,M*3B
$GPGFA,011517.00,19.288,19.921,2.029,0.490,36.706,2.429,,VVV*35
$GPLLK,011517.00,010125,,M,,M,1,19,1.6,,M*07
$GNGMP,011517.00,,,,,DAAA,19,0.7,,,,*5A
$GPGMP,011517.00,,,,,,04,,,,3.5,123*7C
$GLGMP,011517.00,,,,,,04,,,,,*78
$GAGMP,011517.00,,,,,,04,,,,,*75
$GBGMP,011517.00,,,,,,07,,,,,*75
$PSSN,SNC,[0,263735000,2347]*42
$GPZDA,011522.00,01,01,2025,,*66
$GPDTM,W84,,00.0000000,N,00.0000000,E,00.0000000,W84*5F
$GPRMC,011522.00,A,4742.4464585,N,01617.9737645,E,0.0,,010125,5.1,E,D*1B
$GPGLL,4742.4464585,N,01617.9737645,E,011522.00,A,D*6A
$GPGGA,011522.00,4742.4464585,N,01617.9737645,E,2,20,0.7,625.7560,M,43.2110,M,2.8,0123*48
$GNGNS,011522.00,4742.4464585,N,01617.9737645,E,DAAA,20,0.7,625.7560,43.2110,,*5E
$GPGNS,011522.00,,,,,,05,,,,2.8,123*77
$GLGNS,011522.00,,,,,,04,,,,,*7E
$GAGNS,011522.00,,,,,,04,,,,,*73
$GBGNS,011522.00,,,,,,07,,,,,*73
$GPLLQ,011522.00,010125,,M,,M,1,20,2.579,,M*1F
$GPVTG,,T,,M,0.00,N,0.00,K,D*26
$GPHDT,,T*1B
$GPTHS,,V*0E
$GPROT,,V*08
$PSSN,HRP,011522.00,010125,,,,,,,00,0,,*64
$PTNL,AVR,011522.00,,Yaw,,Tilt,,,,0,,00*32
$GPGSA,A,3,02,03,17,19,21,,,,,,,,1.4,0.7,1.2*3F
$GPGSA,A,3,69,70,85,86,,,,,,,,,1.4,0.7,1.2*38
$GPGSA,A,3,04,06,09,10,,,,,,,,,1.4,0.7,1.2*39
$GPGSA,A,3,06,16,19,20,29,32,35,,,,,,1.4,0.7,1.2*34
$GPGST,011522.00,3.074,1.759,0.521,43.792,1.320,1.274,1.813*6E
$GPGBS,011522.00,5.661,7.717,9.069,17,0.0001,0.992,0.710*5D
$GPGRS,011522.00,1,-0.0,-0.1,1.0,-0.0,-0.5,,,,,,,*60
$GPGRS,011522.00,1,-1.2,-1.9,-0.6,-8.8,,,,,,,,*46
$GPGRS,011522.00,1,-0.1,-1.7,-1.6,-2.8,,,,,,,,*41
$GPGRS,011522.00,1,2.8,-1.1,0.1,-2.8,-1.0,1.5,-2.6,,,,,*65
$GPGSV,4,1,16,03,76,321,46,09,17,216,33,28,27,066,26,19,26,311,37*71
$GPGSV,4,2,16,31,29,098,39,04,43,203,32,21,38,146,38,17,39,278,38*73
$GPGSV,4,3,16,02,58,154,46,01,63,140,,06,04,311,31,32,07,045,*71
$GPGSV,4,4,16,36,35,170,41,34,31,208,,49,34,195,37,61,03,257,*76
$GLGSV,3,1,09,85,64,309,49,68,10,046,26,86,10,327,37,78,11,048,*61
$GLGSV,3,2,09,70,47,243,37,84,54,164,31,69,59,033,47,71,03,232,*62
$GLGSV,3,3,09,77,05,354,*5B
$GAGSV,4,1,13,06,73,132,36,04,58,068,45,18,14,314,,09,58,188,48*6D
$GAGSV,4,2,13,34,14,309,33,10,31,132,36,11,59,135,33,36,66,304,35*6D
$GAGSV,4,3,13,19,06,042,,27,00,357,,30,02,311,29,12,08,131,*60
$GAGSV,4,4,13,05,09,212,*57
$GBGSV,5,1,18,20,86,006,51,09,34,080,29,30,14,166,26,05,24,128,*6E
$GBGSV,5,2,18,39,28,049,33,32,29,060,41,35,36,305,51,06,32,064,38*6E
$GBGSV,5,3,18,16,31,060,44,19,40,245,43,29,56,214,47,48,69,250,*67
$GBGSV,5,4,18,23,09,061,,25,01,015,,37,04,108,,13,00,090,*6C
$GBGSV,5,5,18,02,08,105,,60,09,110,*63
$GPGGA,011522.00,,,,,0,00,,,M,,M,,*4D
$PTNL,GGK,011522.00,010125,4742.4464585,N,01617.9737645,E,1,20,1.4,EHT668.9670,M*4B
$GPGGQ,011522.00,010125,4742.4464585,N,01617.9737645,E,1,20,2.579,625.7560,M*3C
$GPGFA,011522.00,16.724,14.865,1.759,0.521,43.792,1.813,,VVV*32
$GPLLK,011522.00,010125,,M,,M,1,20,1.6,,M*0B
$GNGMP,011522.00,,,,,DAAA,20,0.7,,,,*56
$GPGMP,011522.00,,,,,,05,,,,2.8,123*77
$GLGMP,011522.00,,,,,,04,,,,,*7E
$GAGMP,011522.00,,,,,,04,,,,,*73
$GBGMP,011522.00,,,,,,07,,,,,*73
$PSSN,SNC,[0,263740000,2347]*40
$GPZDA,011527.00,01,01,2025,,*63
$GPDTM,W84,,00.0000000,N,00.0000000,E,00.0000000,W84*5F
$GPRMC,011527.00,A,4742.4464560,N,01617.9737676,E,0.0,,010125,5.1,E,D*15
$GPGLL,4742.4464560,N,01617.9737676,E,011527.00,A,D*64
$GPGGA,011527.00,4742.4464560,N,01617.9737676,E,2,20,0.7,625.7419,M,43.2110,M,1.4,0123*46
$GNGNS,011527.00,4742.4464560,N,01617.9737676,E,DAAA,20,0.7,625.7419,43.2110,,*5F
$GPGNS,011527.00,,,,,,05,,,,1.4,123*7D
$GLGNS,011527.00,,,,,,04,,,,,*7B
$GAGNS,011527.00,,,,,,04,,,,,*76
$GBGNS,011527.00,,,,,,07,,,,,*76
$GPLLQ,011527.00,010125,,M,,M,1,20,1.964,,M*19
$GPVTG,,T,,M,0.00,N,0.01,K,D*27
$GPHDT,,T*1B
$GPTHS,,V*0E
$GPROT,,V*08
$PSSN,HRP,011527.00,010125,,,,,,,00,0,,*61
$PTNL,AVR,011527.00,,Yaw,,Tilt,,,,0,,00*37
$GPGSA,A,3,02,03,17,19,21,,,,,,,,1.4,0.7,1.2*3F
$GPGSA,A,3,69,70,85,86,,,,,,,,,1.4,0.7,1.2*38
$GPGSA,A,3,04,06,09,10,,,,,,,,,1.4,0.7,1.2*39
$GPGSA,A,3,06,16,19,20,29,32,35,,,,,,1.4,0.7,1.2*34
$GPGST,011527.00,3.625,1.348,0.395,44.026,1.007,0.979,1.374*60
$GPGBS,011527.00,5.660,7.529,8.734,86,0.0001,-11.459,6.601*40
$GPGRS,011527.00,1,0.1,0.3,-0.1,-1.0,0.0,,,,,,,*62
$GPGRS,011527.00,1,-1.1,-1.5,0.5,-11.5,,,,,,,,*57
$GPGRS,011527.00,1,0.1,-1.2,-1.1,-2.8,,,,,,,,*6B
$GPGRS,011527.00,1,1.3,-1.2,0.2,-2.5,-0.2,3.2,-2.2,,,,,*67
$GPGSV,4,1,16,03,76,321,47,09,17,216,34,28,27,066,,19,26,310,38*7D
$GPGSV,4,2,16,31,29,098,40,04,43,203,32,21,38,146,39,17,39,278,36*72
$GPGSV,4,3,16,02,58,154,47,01,63,140,,06,04,311,31,32,07,045,*70
$GPGSV,4,4,16,36,35,170,41,34,31,208,,49,34,195,37,61,03,257,*76
$GLGSV,3,1,09,85,64,309,49,68,10,046,,86,10,327,35,78,11,048,*67
$GLGSV,3,2,09,70,47,243,38,84,54,164,30,69,59,033,46,71,03,232,*6D
$GLGSV,3,3,09,77,05,354,*5B
$GAGSV,4,1,13,06,73,132,36,04,58,068,45,18,14,314,,09,58,188,47*62
$GAGSV,4,2,13,34,14,309,30,10,31,132,26,11,59,135,32,36,66,304,35*6E
$GAGSV,4,3,13,19,06,042,,27,00,357,,30,02,311,29,12,08,131,*60
$GAGSV,4,4,13,05,09,212,*57
$GBGSV,5,1,18,20,85,006,51,09,34,080,29,30,14,166,26,05,24,128,*6D
$GBGSV,5,2,18,39,28,049,33,32,29,060,41,35,36,305,50,06,32,064,37*60
$GBGSV,5,3,18,16,31,060,44,19,40,245,44,29,56,214,47,48,69,250,*60
$GBGSV,5,4,18,23,09,061,,25,01,015,,37,04,108,,13,00,091,*6D
$GBGSV,5,5,18,02,08,105,,60,09,110,*63
$GPGGA,011527.00,,,,,0,00,,,M,,M,,*48
$PTNL,GGK,011527.00,010125,4742.4464560,N,01617.9737676,E,1,20,1.4,EHT668.9530,M*42
$GPGGQ,011527.00,010125,4742.4464560,N,01617.9737676,E,1,20,1.964,625.7419,M*3E
$GPGFA,011527.00,12.813,11.264,1.348,0.395,44.026,1.374,,VVV*3E
$GPLLK,011527.00,010125,,M,,M,1,20,1.6,,M*0E
$GNGMP,011527.00,,,,,DAAA,20,0.7,,,,*53
$GPGMP,011527.00,,,,,,05,,,,1.4,123*7D
$GLGMP,011527.00,,,,,,04,,,,,*7B
$GAGMP,011527.00,,,,,,04,,,,,*76
$GBGMP,011527.00,,,,,,07,,,,,*76
$PSSN,SNC,[0,263745000,2347]*45
$GPZDA,011532.00,01,01,2025,,*67
$GPDTM,W84,,00.0000000,N,00.0000000,E,00.0000000,W84*5F
$GPRMC,011532.00,A,4742.4464639,N,01617.9737563,E,0.0,,010125,5.1,E,D*19
$GPGLL,4742.4464639,N,01617.9737563,E,011532.00,A,D*68
$GPGGA,011532.00,4742.4464639,N,01617.9737563,E,2,19,0.7,625.7286,M,43.2110,M,2.4,0123*43
$GNGNS,011532.00,4742.4464639,N,01617.9737563,E,DAAA,19,0.7,625.7286,43.2110,,*59
$GPGNS,011532.00,,,,,,05,,,,2.4,123*7A
$GLGNS,011532.00,,,,,,03,,,,,*78
$GAGNS,011532.00,,,,,,04,,,,,*72
$GBGNS,011532.00,,,,,,07,,,,,*72
$GPLLQ,011532.00,010125,,M,,M,1,19,2.195,,M*12
$GPVTG,,T,,M,0.00,N,0.00,K,D*26
$GPHDT,,T*1B
$GPTHS,,V*0E
$GPROT,,V*08
$PSSN,HRP,011532.00,010125,,,,,,,00,0,,*65
$PTNL,AVR,011532.00,,Yaw,,Tilt,,,,0,,00*33
$GPGSA,A,3,02,03,17,19,21,,,,,,,,1.5,0.7,1.3*3F
$GPGSA,A,3,69,70,85,,,,,,,,,,1.5,0.7,1.3*36
$GPGSA,A,3,04,06,09,10,,,,,,,,,1.5,0.7,1.3*39
$GPGSA,A,3,06,16,19,20,29,32,35,,,,,,1.5,0.7,1.3*34
$GPGST,011532.00,1.803,1.497,0.434,43.699,1.123,1.081,1.546*6F
$GPGBS,011532.00,5.934,7.615,9.226,19,0.0001,-1.856,0.908*75
$GPGRS,011532.00,1,0.3,0.5,-0.2,-1.9,0.5,,,,,,,*6D
$GPGRS,011532.00,1,-0.9,-0.0,0.6,,,,,,,,,*6B
$GPGRS,011532.00,1,-0.1,0.1,-0.8,-2.5,,,,,,,,*68
$GPGRS,011532.00,1,0.4,-1.1,0.3,-2.3,0.5,4.0,-2.0,,,,,*4C
$GPGSV,4,1,16,03,76,322,47,09,17,216,34,28,27,066,,19,26,310,40*71
$GPGSV,4,2,16,31,29,098,39,04,43,203,36,21,38,146,40,17,39,278,37*77
$GPGSV,4,3,16,02,58,154,47,01,63,140,,06,04,311,28,32,07,045,*78
$GPGSV,4,4,16,36,35,170,41,34,31,208,,49,34,195,37,61,03,257,*76
$GLGSV,3,1,09,85,64,309,49,68,10,046,21,86,10,327,30,78,11,048,*61
$GLGSV,3,2,09,70,47,243,38,84,54,164,30,69,59,033,46,71,03,232,*6D
$GLGSV,3,3,09,77,05,354,*5B
$GAGSV,4,1,13,06,73,132,36,04,58,068,45,18,14,314,,09,58,188,47*62
$GAGSV,4,2,13,34,14,309,43,10,31,132,36,11,59,135,32,36,66,304,35*6B
$GAGSV,4,3,13,19,06,042,,27,00,357,,30,02,311,27,12,08,131,*6E
$GAGSV,4,4,13,05,09,212,*57
$GBGSV,5,1,18,20,85,007,51,09,34,080,28,30,14,166,26,05,24,128,*6D
$GBGSV,5,2,18,39,28,049,33,32,29,060,42,35,36,305,50,06,32,064,37*63
$GBGSV,5,3,18,16,31,060,43,19,40,245,45,29,56,214,48,48,69,250,*69
$GBGSV,5,4,18,23,09,061,,25,01,015,,37,04,108,,13,00,091,*6D
$GBGSV,5,5,18,02,08,105,,60,09,110,*63
$GPGGA,011532.00,,,,,0,00,,,M,,M,,*4C
$PTNL,GGK,011532.00,010125,4742.4464639,N,01617.9737563,E,1,19,1.5,EHT668.9396,M*4F
$GPGGQ,011532.00,010125,4742.4464639,N,01617.9737563,E,1,19,2.195,625.7286,M*3D
$GPGFA,011532.00,14.235,12.677,1.497,0.434,43.699,1.546,,VVV*3C
$GPLLK,011532.00,010125,,M,,M,1,19,1.8,,M*0E
$GNGMP,011532.00,,,,,DAAA,19,0.7,,,,*5D
$GPGMP,011532.00,,,,,,05,,,,2.4,123*7A
$GLGMP,011532.00,,,,,,03,,,,,*78
$GAGMP,011532.00,,,,,,04,,,,,*72
$GBGMP,011532.00,,,,,,07,,,,,*72
$PSSN,SNC,[0,263750000,2347]*41
$GPZDA,011537.00,01,01,2025,,*62
$GPDTM,W84,,00.0000000,N,00.0000000,E,00.0000000,W84*5F
$GPRMC,011537.00,A,4742.4464669,N,01617.9737507,E,0.0,,010125,5.1,E,D*1B
$GPGLL,4742.4464669,N,01617.9737507,E,011537.00,A,D*6A
$GPGGA,011537.00,4742.4464669,N,01617.9737507,E,2,20,0.7,625.7106,M,43.2110,M,3.5,0123*40
$GNGNS,011537.00,4742.4464669,N,01617.9737507,E,DAAA,20,0.7,625.7106,43.2110,,*5A
$GPGNS,011537.00,,,,,,06,,,,3.5,123*7C
$GLGNS,011537.00,,,,,,03,,,,,*7D
$GAGNS,011537.00,,,,,,04,,,,,*77
$GBGNS,011537.00,,,,,,07,,,,,*77
$GPLLQ,011537.00,010125,,M,,M,1,20,2.773,,M*13
$GPVTG,,T,,M,0.01,N,0.01,K,D*26
$GPHDT,,T*1B
$GPTHS,,V*0E
$GPROT,,V*08
$PSSN,HRP,011537.00,010125,,,,,,,00,0,,*60
$PTNL,AVR,011537.00,,Yaw,,Tilt,,,,0,,00*36
$GPGSA,A,3,02,03,04,17,19,21,,,,,,,1.5,0.7,1.3*3B
$GPGSA,A,3,69,70,85,,,,,,,,,,1.5,0.7,1.3*36
$GPGSA,A,3,04,06,09,10,,,,,,,,,1.5,0.7,1.3*39
$GPGSA,A,3,06,16,19,20,29,32,35,,,,,,1.5,0.7,1.3*34
$GPGST,011537.00,1.759,1.444,0.624,49.262,1.054,1.168,2.283*67
$GPGBS,011537.00,4.939,4.330,8.758,19,0.0001,-2.233,0.922*72
$GPGRS,011537.00,1,0.5,0.5,-1.1,1.2,-2.2,0.2,,,,,,*4E
$GPGRS,011537.00,1,-0.4,0.3,-0.2,,,,,,,,,*64
$GPGRS,011537.00,1,-0.2,0.2,-0.6,-2.9,,,,,,,,*6F
$GPGRS,011537.00,1,-0.5,-0.5,0.4,-2.4,1.2,3.4,-1.8,,,,,*6E
$GPGSV,4,1,16,03,76,322,48,09,17,216,33,28,27,066,28,19,26,310,41*72
$GPGSV,4,2,16,31,29,098,34,04,43,203,39,21,38,146,40,17,39,278,39*7B
$GPGSV,4,3,16,02,58,154,47,01,63,140,,06,04,311,,32,07,045,*72
$GPGSV,4,4,16,36,35,170,41,34,31,208,,49,34,195,37,61,03,257,*76
$GLGSV,3,1,09,85,64,309,49,68,10,046,,86,10,327,33,78,11,048,*61
$GLGSV,3,2,09,70,48,243,38,84,54,164,29,69,59,033,46,71,03,232,*6A
$GLGSV,3,3,09,77,05,354,*5B
$GAGSV,4,1,13,06,73,132,36,04,58,068,44,18,14,314,,09,58,188,47*63
$GAGSV,4,2,13,34,14,309,43,10,31,132,36,11,59,135,32,36,66,304,35*6B
$GAGSV,4,3,13,19,06,042,,27,00,357,,30,02,311,32,12,08,131,*6A
$GAGSV,4,4,13,05,09,212,*57
$GBGSV,5,1,18,20,85,007,51,09,34,080,29,30,14,166,27,05,24,128,*6D
$GBGSV,5,2,18,39,28,049,32,32,29,060,43,35,36,305,49,06,32,064,35*69
$GBGSV,5,3,18,16,31,060,43,19,40,245,45,29,56,214,49,48,69,250,*68
$GBGSV,5,4,18,23,09,061,,25,01,015,,37,04,108,,13,00,091,*6D
$GBGSV,5,5,18,02,08,105,,60,09,110,*63
$GPGGA,011537.00,,,,,0,00,,,M,,M,,*49
$PTNL,GGK,011537.00,010125,4742.4464669,N,01617.9737507,E,1,20,1.5,EHT668.9216,M*4E
$GPGGQ,011537.00,010125,4742.4464669,N,01617.9737507,E,1,20,2.773,625.7106,M*30
$GPGFA,011537.00,13.732,18.724,1.444,0.624,49.262,2.283,,VVV*3B
$GPLLK,011537.00,010125,,M,,M,1,20,1.8,,M*01
$GNGMP,011537.00,,,,,DAAA,20,0.7,,,,*52
$GPGMP,011537.00,,,,,,06,,,,3.5,123*7C
$GLGMP,011537.00,,,,,,03,,,,,*7D
$GAGMP,011537.00,,,,,,04,,,,,*77
$GBGMP,011537.00,,,,,,07,,,,,*77
$PSSN,SNC,[0,263755000,2347]*44
$GPZDA,011542.00,01,01,2025,,*60
$GPDTM,W84,,00.0000000,N,00.0000000,E,00.0000000,W84*5F
$GPRMC,011542.00,A,4742.4464764,N,01617.9737608,E,0.0,,010125,5.1,E,D*19
$GPGLL,4742.4464764,N,01617.9737608,E,011542.00,A,D*68
$GPGGA,011542.00,4742.4464764,N,01617.9737608,E,2,19,0.7,625.6999,M,43.2111,M,2.5,0123*47
$GNGNS,011542.00,4742.4464764,N,01617.9737608,E,DAAA,19,0.7,625.6999,43.2111,,*5C
$GPGNS,011542.00,,,,,,06,,,,2.5,123*7F
$GLGNS,011542.00,,,,,,03,,,,,*7F
$GAGNS,011542.00,,,,,,04,,,,,*75
$GBGNS,011542.00,,,,,,06,,,,,*74
$GPLLQ,011542.00,010125,,M,,M,1,19,3.039,,M*13
$GPVTG,,T,,M,0.01,N,0.01,K,D*26
$GPHDT,,T*1B
$GPTHS,,V*0E
$GPROT,,V*08
$PSSN,HRP,011542.00,010125,,,,,,,00,0,,*62
$PTNL,AVR,011542.00,,Yaw,,Tilt,,,,0,,00*34
$GPGSA,A,3,02,03,04,17,19,21,,,,,,,1.5,0.7,1.3*3B
$GPGSA,A,3,69,70,85,,,,,,,,,,1.5,0.7,1.3*36
$GPGSA,A,3,04,06,09,10,,,,,,,,,1.5,0.7,1.3*39
$GPGSA,A,3,16,19,20,29,32,35,,,,,,,1.5,0.7,1.3*32
$GPGST,011542.00,2.031,1.597,0.692,49.436,1.164,1.294,2.492*6E
$GPGBS,011542.00,4.833,4.436,8.725,04,0.0001,1.758,0.637*51
$GPGRS,011542.00,1,0.3,-0.4,1.8,0.8,-2.5,-1.0,,,,,,*60
$GPGRS,011542.00,1,-1.4,-1.3,-0.4,,,,,,,,,*4D
$GPGRS,011542.00,1,-0.6,-1.2,-0.8,-3.5,,,,,,,,*46
$GPGRS,011542.00,1,-1.2,-0.4,-2.9,0.7,2.3,-2.1,,,,,,*44
$GPGSV,4,1,16,03,76,322,49,09,17,216,32,28,27,066,29,19,26,310,42*70
$GPGSV,4,2,16,31,29,098,30,04,43,203,42,21,38,146,40,17,39,278,40*7D
$GPGSV,4,3,16,02,58,154,47,01,63,140,,06,05,311,,32,07,045,*73
$GPGSV,4,4,16,36,35,170,41,34,31,208,,49,34,195,37,61,03,257,*76
$GLGSV,3,1,09,85,64,309,48,68,10,046,,86,10,327,31,78,11,048,*62
$GLGSV,3,2,09,70,48,243,38,84,54,164,26,69,59,033,47,71,03,232,*64
$GLGSV,3,3,09,77,05,354,*5B
$GAGSV,4,1,13,06,73,132,36,04,58,068,43,18,14,314,,09,58,188,48*6B
$GAGSV,4,2,13,34,14,309,43,10,31,132,22,11,59,135,32,36,66,304,34*6F
$GAGSV,4,3,13,19,06,042,,27,00,357,,30,02,311,29,12,08,131,*60
$GAGSV,4,4,13,05,09,212,*57
$GBGSV,5,1,18,20,85,007,52,09,34,080,29,30,14,166,28,05,24,128,*61
$GBGSV,5,2,18,39,28,049,32,32,29,060,44,35,36,305,49,06,32,064,34*6F
$GBGSV,5,3,18,16,31,060,43,19,40,245,45,29,56,214,50,48,69,250,*60
$GBGSV,5,4,18,23,09,061,,25,01,015,,37,04,108,,13,00,091,*6D
$GBGSV,5,5,18,02,08,105,,60,09,110,*63
$GPGGA,011542.00,,,,,0,00,,,M,,M,,*4B
$PTNL,GGK,011542.00,010125,4742.4464764,N,01617.9737608,E,1,19,1.5,EHT668.9110,M*43
$GPGGQ,011542.00,010125,4742.4464764,N,01617.9737608,E,1,19,3.039,625.6999,M*3F
$GPGFA,011542.00,15.181,20.432,1.597,0.692,49.436,2.492,,VVV*3D
$GPLLK,011542.00,010125,,M,,M,1,19,1.8,,M*09
$GNGMP,011542.00,,,,,DAAA,19,0.7,,,,*5A
$GPGMP,011542.00,,,,,,06,,,,2.5,123*7F
$GLGMP,011542.00,,,,,,03,,,,,*7F
$GAGMP,011542.00,,,,,,04,,,,,*75
$GBGMP,011542.00,,,,,,06,,,,,*74
$PSSN,SNC,[0,263760000,2347]*42
$GPZDA,011547.00,01,01,2025,,*65
$GPDTM,W84,,00.0000000,N,00.0000000,E,00.0000000,W84*5F
$GPRMC,011547.00,A,4742.4464902,N,01617.9737727,E,0.0,,010125,5.1,E,D*1E
$GPGLL,4742.4464902,N,01617.9737727,E,011547.00,A,D*6F
$GPGGA,011547.00,4742.4464902,N,01617.9737727,E,2,19,0.7,625.6808,M,43.2110,M,1.4,0123*4A
$GNGNS,011547.00,4742.4464902,N,01617.9737727,E,DAAA,19,0.7,625.6808,43.2110,,*53
$GPGNS,011547.00,,,,,,05,,,,1.4,123*7B
$GLGNS,011547.00,,,,,,04,,,,,*7D
$GAGNS,011547.00,,,,,,04,,,,,*70
$GBGNS,011547.00,,,,,,06,,,,,*71
$GPLLQ,011547.00,010125,,M,,M,1,19,3.855,,M*14
$GPVTG,,T,,M,0.00,N,0.00,K,D*26
$GPHDT,,T*1B
$GPTHS,,V*0E
$GPROT,,V*08
$PSSN,HRP,011547.00,010125,,,,,,,00,0,,*67
$PTNL,AVR,011547.00,,Yaw,,Tilt,,,,0,,00*31
$GPGSA,A,3,02,03,17,19,21,,,,,,,,1.4,0.7,1.2*3F
$GPGSA,A,3,69,70,85,86,,,,,,,,,1.4,0.7,1.2*38
$GPGSA,A,3,04,06,09,10,,,,,,,,,1.4,0.7,1.2*39
$GPGSA,A,3,16,19,20,29,32,35,,,,,,,1.4,0.7,1.2*32
$GPGST,011547.00,6.810,2.649,0.764,44.362,1.968,1.931,2.694*60
$GPGBS,011547.00,5.785,7.621,8.862,86,0.0001,22.785,6.885*66
$GPGRS,011547.00,1,0.7,-0.3,0.7,-1.9,-1.0,,,,,,,*41
$GPGRS,011547.00,1,0.3,-1.4,0.4,22.8,,,,,,,,*5F
$GPGRS,011547.00,1,-0.6,0.6,-0.5,-3.6,,,,,,,,*65
$GPGRS,011547.00,1,-0.9,-0.4,-2.6,1.2,1.9,-1.9,,,,,,*42
$GPGSV,4,1,16,03,76,322,49,09,17,216,31,28,27,066,29,19,26,310,43*72
$GPGSV,4,2,16,31,29,098,32,04,43,203,42,21,38,146,39,17,39,278,39*7F
$GPGSV,4,3,16,02,58,154,47,01,63,140,,06,05,311,,32,07,045,*73
$GPGSV,4,4,16,36,35,170,41,34,31,208,,49,34,195,37,61,03,257,*76
$GLGSV,3,1,09,85,64,309,47,68,10,046,25,86,11,327,36,78,11,048,*6C
$GLGSV,3,2,09,70,48,244,37,84,54,164,25,69,59,033,47,71,03,232,*6F
$GLGSV,3,3,09,77,05,354,*5B
$GAGSV,4,1,13,06,73,132,37,04,58,068,41,18,14,314,,09,58,188,49*69
$GAGSV,4,2,13,34,14,309,43,10,31,132,20,11,59,135,31,36,66,304,33*69
$GAGSV,4,3,13,19,06,042,,27,00,357,,30,02,311,30,12,08,131,*68
$GAGSV,4,4,13,05,09,212,*57
$GBGSV,5,1,18,20,85,008,52,09,34,080,29,30,14,166,28,05,24,128,*6E
$GBGSV,5,2,18,39,28,049,32,32,28,060,44,35,36,305,48,06,32,064,34*6F
$GBGSV,5,3,18,16,31,060,43,19,40,245,44,29,56,214,50,48,69,250,*61
$GBGSV,5,4,18,23,09,061,,25,01,015,,37,04,108,,13,00,091,*6D
$GBGSV,5,5,18,02,08,105,,60,09,110,*63
$GPGGA,011547.00,,,,,0,00,,,M,,M,,*4E
$PTNL,GGK,011547.00,010125,4742.4464902,N,01617.9737727,E,1,19,1.4,EHT668.8918,M*44
$GPGGQ,011547.00,010125,4742.4464902,N,01617.9737727,E,1,19,3.855,625.6808,M*33
$GPGFA,011547.00,25.187,22.094,2.649,0.764,44.362,2.694,,VVV*33
$GPLLK,011547.00,010125,,M,,M,1,19,1.6,,M*02
$GNGMP,011547.00,,,,,DAAA,19,0.7,,,,*5F
$GPGMP,011547.00,,,,,,05,,,,1.4,123*7B
$GLGMP,011547.00,,,,,,04,,,,,*7D
$GAGMP,011547.00,,,,,,04,,,,,*70
$GBGMP,011547.00,,,,,,06,,,,,*71
$PSSN,SNC,[0,263765000,2347]*47
$GPZDA,011552.00,01,01,2025,,*61
$GPDTM,W84,,00.0000000,N,00.0000000,E,00.0000000,W84*5F
$GPRMC,011552.00,A,4742.4465049,N,01617.9737806,E,0.0,,010125,5.1,E,D*11
$GPGLL,4742.4465049,N,01617.9737806,E,011552.00,A,D*60
$GPGGA,011552.00,4742.4465049,N,01617.9737806,E,2,20,0.7,625.6768,M,43.2111,M,2.5,0123*45
$GNGNS,011552.00,4742.4465049,N,01617.9737806,E,DAAA,20,0.7,625.6768,43.2111,,*5E
$GPGNS,011552.00,,,,,,06,,,,2.5,123*7E
$GLGNS,011552.00,,,,,,04,,,,,*79
$GAGNS,011552.00,,,,,,04,,,,,*74
$GBGNS,011552.00,,,,,,06,,,,,*75
$GPLLQ,011552.00,010125,,M,,M,1,20,3.031,,M*10
$GPVTG,,T,,M,0.01,N,0.01,K,D*26
$GPHDT,,T*1B
$GPTHS,,V*0E
$GPROT,,V*08
$PSSN,HRP,011552.00,010125,,,,,,,00,0,,*63
$PTNL,AVR,011552.00,,Yaw,,Tilt,,,,0,,00*35
$GPGSA,A,3,02,03,04,17,19,21,,,,,,,1.3,0.7,1.2*3C
$GPGSA,A,3,69,70,85,86,,,,,,,,,1.3,0.7,1.2*3F
$GPGSA,A,3,04,06,09,10,,,,,,,,,1.3,0.7,1.2*3E
$GPGSA,A,3,16,19,20,29,32,35,,,,,,,1.3,0.7,1.2*35
$GPGST,011552.00,5.619,1.607,0.693,49.009,1.177,1.295,2.474*6C
$GPGBS,011552.00,4.842,4.276,8.351,86,0.0001,19.289,6.581*61
$GPGRS,011552.00,1,0.6,-0.4,1.2,0.4,-1.6,-1.2,,,,,,*60
$GPGRS,011552.00,1,0.8,-0.5,0.1,19.3,,,,,,,,*56
$GPGRS,011552.00,1,-0.5,2.0,-0.4,-3.4,,,,,,,,*65
$GPGRS,011552.00,1,-0.4,-0.5,-2.7,0.6,1.6,-2.3,,,,,,*48
$GPGSV,4,1,16,03,76,322,48,09,17,216,30,28,27,065,29,19,26,310,43*71
$GPGSV,4,2,16,31,29,098,33,04,43,203,42,21,38,146,39,17,39,278,38*7F
$GPGSV,4,3,16,02,58,154,46,01,63,140,,06,05,311,,32,07,045,*72
$GPGSV,4,4,16,36,35,170,41,34,31,208,,49,34,195,37,61,03,257,*76
$GLGSV,3,1,09,85,64,309,49,78,11,048,,86,11,327,39,70,48,244,37*6A
$GLGSV,3,2,09,84,54,164,25,69,59,033,47,77,05,354,,68,10,046,*6E
$GLGSV,3,3,09,71,03,232,*5A
$GAGSV,4,1,13,06,73,132,38,04,58,068,39,18,14,314,,09,58,188,49*69
$GAGSV,4,2,13,34,14,309,43,10,31,132,38,11,59,135,32,36,66,304,30*60
$GAGSV,4,3,13,19,05,042,,27,00,357,,30,02,311,31,12,08,131,*6A
$GAGSV,4,4,13,05,09,212,*57
$GBGSV,5,1,18,20,85,008,51,05,24,128,,39,28,049,33,30,14,166,27*62
$GBGSV,5,2,18,09,34,080,30,32,28,060,45,35,36,305,46,06,32,064,33*6E
$GBGSV,5,3,18,16,31,060,42,19,40,245,44,29,56,214,51,48,69,250,*61
$GBGSV,5,4,18,23,09,061,,25,01,015,,37,04,108,,02,08,105,*69
$GBGSV,5,5,18,13,00,091,,60,09,110,*67
$GPGGA,011552.00,,,,,0,00,,,M,,M,,*4A
$PTNL,GGK,011552.00,010125,4742.4465049,N,01617.9737806,E,1,20,1.3,EHT668.8879,M*40
$GPGGQ,011552.00,010125,4742.4465049,N,01617.9737806,E,1,20,3.031,625.6768,M*35
$GPGFA,011552.00,15.282,20.287,1.607,0.693,49.009,2.474,,VVV*3F
$GPLLK,011552.00,010125,,M,,M,1,20,1.6,,M*0C
$GNGMP,011552.00,,,,,DAAA,20,0.7,,,,*51
$GPGMP,011552.00,,,,,,06,,,,2.5,123*7E
$GLGMP,011552.00,,,,,,04,,,,,*79
$GAGMP,011552.00,,,,,,04,,,,,*74
$GBGMP,011552.00,,,,,,06,,,,,*75
$PSSN,SNC,[0,263770000,2347]*43
$GPZDA,011557.00,01,01,2025,,*64
$GPDTM,W84,,00.0000000,N,00.0000000,E,00.0000000,W84*5F
$GPRMC,011557.00,A,4742.4465100,N,01617.9737933,E,0.0,,010125,5.1,E,D*1F
$GPGLL,4742.4465100,N,01617.9737933,E,011557.00,A,D*6E
$GPGGA,011557.00,4742.4465100,N,01617.9737933,E,2,21,0.7,625.6700,M,43.2110,M,3.5,0123*44
$GNGNS,011557.00,4742.4465100,N,01617.9737933,E,DAAA,21,0.7,625.6700,43.2110,,*5E
$GPGNS,011557.00,,,,,,06,,,,3.5,123*7A
$GLGNS,011557.00,,,,,,04,,,,,*7C
$GAGNS,011557.00,,,,,,05,,,,,*70
$GBGNS,011557.00,,,,,,06,,,,,*70
$GPLLQ,011557.00,010125,,M,,M,1,21,2.550,,M*17
$GPVTG,,T,,M,0.00,N,0.01,K,D*27
$GPHDT,,T*1B
$GPTHS,,V*0E
$GPROT,,V*08
$PSSN,HRP,011557.00,010125,,,,,,,00,0,,*66
$PTNL,AVR,011557.00,,Yaw,,Tilt,,,,0,,00*30
$GPGSA,A,3,02,03,04,17,19,21,,,,,,,1.3,0.7,1.1*3F
$GPGSA,A,3,69,70,85,86,,,,,,,,,1.3,0.7,1.1*3C
$GPGSA,A,3,04,06,09,10,36,,,,,,,,1.3,0.7,1.1*38
$GPGSA,A,3,16,19,20,29,32,35,,,,,,,1.3,0.7,1.1*36
$GPGST,011557.00,4.573,1.352,0.584,48.822,0.993,1.088,2.082*67
$GPGBS,011557.00,4.930,4.302,8.540,86,0.0001,16.286,6.577*6D
$GPGRS,011557.00,1,0.0,0.0,1.0,0.7,-1.2,-1.1,,,,,,*4C
$GPGRS,011557.00,1,-0.0,0.2,0.2,16.3,,,,,,,,*50
$GPGRS,011557.00,1,-0.2,1.4,-0.4,-2.4,-1.5,,,,,,,*66
$GPGRS,011557.00,1,-0.3,-0.7,-2.1,0.0,1.4,-2.4,,,,,,*4D
$GPGSV,4,1,16,03,76,322,48,09,17,216,29,28,27,065,28,19,26,310,43*78
$GPGSV,4,2,16,31,29,098,33,04,43,203,43,21,38,146,39,17,39,278,37*71
$GPGSV,4,3,16,02,58,154,44,01,63,141,,06,05,311,20,32,07,045,*73
$GPGSV,4,4,16,36,35,170,41,34,31,208,,49,34,195,37,61,03,257,*76
$GLGSV,3,1,09,85,64,309,49,78,11,048,,86,11,327,40,70,48,244,37*64
$GLGSV,3,2,09,84,54,164,26,69,58,033,46,77,05,354,,68,10,046,23*6C
$GLGSV,3,3,09,71,03,232,*5A
$GAGSV,4,1,13,06,73,132,39,04,58,068,36,18,14,314,,09,58,188,50*6F
$GAGSV,4,2,13,34,14,309,42,10,31,132,39,11,59,135,32,36,66,304,48*6F
$GAGSV,4,3,13,19,05,042,,27,00,357,,30,02,311,32,12,08,131,*69
$GAGSV,4,4,13,05,10,212,*5F
$GBGSV,5,1,18,20,85,008,51,05,24,128,,39,28,049,32,30,14,166,26*62
$GBGSV,5,2,18,09,34,080,31,32,28,060,45,35,36,305,46,16,31,060,42*6F
$GBGSV,5,3,18,06,32,064,32,19,40,245,44,29,56,214,51,48,69,250,*60
$GBGSV,5,4,18,02,08,105,,25,01,015,,37,04,108,,23,09,061,*69
$GBGSV,5,5,18,13,00,091,,60,09,110,*67
$GPGGA,011557.00,,,,,0,00,,,M,,M,,*4F
$PTNL,GGK,011557.00,010125,4742.4465100,N,01617.9737933,E,1,21,1.3,EHT668.8811,M*41
$GPGGQ,011557.00,010125,4742.4465100,N,01617.9737933,E,1,21,2.550,625.6700,M*37
$GPGFA,011557.00,12.857,17.070,1.352,0.584,48.822,2.082,,VVV*3C
$GPLLK,011557.00,010125,,M,,M,1,21,1.5,,M*0B
$GNGMP,011557.00,,,,,DAAA,21,0.7,,,,*55
$GPGMP,011557.00,,,,,,06,,,,3.5,123*7A
$GLGMP,011557.00,,,,,,04,,,,,*7C
$GAGMP,011557.00,,,,,,05,,,,,*70
$GBGMP,011557.00,,,,,,06,,,,,*70
$PSSN,SNC,[0,263775000,2347]*46
$GPZDA,011602.00,01,01,2025,,*67
$GPDTM,W84,,00.0000000,N,00.0000000,E,00.0000000,W84*5F
$GPRMC,011602.00,A,4742.4465162,N,01617.9738059,E,0.0,,010125,5.1,E,D*12
$GPGLL,4742.4465162,N,01617.9738059,E,011602.00,A,D*63
$GPGGA,011602.00,4742.4465162,N,01617.9738059,E,2,20,0.7,625.6624,M,43.2110,M,2.5,0123*4E
$GNGNS,011602.00,4742.4465162,N,01617.9738059,E,DAAA,20,0.7,625.6624,43.2110,,*55
$GPGNS,011602.00,,,,,,06,,,,2.5,123*78
$GLGNS,011602.00,,,,,,04,,,,,*7F
$GAGNS,011602.00,,,,,,04,,,,,*72
$GBGNS,011602.00,,,,,,06,,,,,*73
$GPLLQ,011602.00,010125,,M,,M,1,20,3.049,,M*19
$GPVTG,,T,,M,0.00,N,0.01,K,D*27
$GPHDT,,T*1B
$GPTHS,,V*0E
$GPROT,,V*08
$PSSN,HRP,011602.00,010125,,,,,,,00,0,,*65
$PTNL,AVR,011602.00,,Yaw,,Tilt,,,,0,,00*33
$GPGSA,A,3,02,03,04,17,19,21,,,,,,,1.3,0.7,1.1*3F
$GPGSA,A,3,69,70,85,86,,,,,,,,,1.3,0.7,1.1*3C
$GPGSA,A,3,06,09,10,36,,,,,,,,,1.3,0.7,1.1*3C
$GPGSA,A,3,16,19,20,29,32,35,,,,,,,1.3,0.7,1.1*36
$GPGST,011602.00,3.406,1.616,0.702,49.423,1.179,1.310,2.488*64
$GPGBS,011602.00,4.835,4.383,8.412,04,0.0001,2.167,0.635*55
$GPGRS,011602.00,1,-1.0,0.3,2.2,0.1,-1.0,-1.2,,,,,,*66
$GPGRS,011602.00,1,0.1,-0.9,-0.2,11.1,,,,,,,,*71
$GPGRS,011602.00,1,1.2,-0.2,-1.9,-1.5,,,,,,,,*6A
$GPGRS,011602.00,1,-0.1,-0.6,-1.8,-0.1,1.3,-2.4,,,,,,*6C
$GPGSV,4,1,16,03,76,323,48,09,17,216,,28,27,065,31,19,26,310,43*7A
$GPGSV,4,2,16,31,29,098,33,04,43,203,43,21,38,146,39,17,39,278,37*71
$GPGSV,4,3,16,02,58,154,42,01,63,141,,06,05,311,,32,07,045,*77
$GPGSV,4,4,16,36,35,170,41,34,31,208,,49,34,195,37,61,03,257,*76
$GLGSV,3,1,09,85,64,308,49,78,11,048,,86,11,327,41,70,48,244,37*64
$GLGSV,3,2,09,84,54,164,27,69,58,033,45,77,05,354,31,68,10,046,23*6C
$GLGSV,3,3,09,71,03,232,*5A
$GAGSV,4,1,13,06,73,131,39,04,58,068,32,18,14,314,,09,58,188,50*68
$GAGSV,4,2,13,34,14,309,41,10,31,132,40,11,59,135,32,36,66,304,48*62
$GAGSV,4,3,13,19,05,042,,27,00,357,,30,02,311,30,12,08,131,*6B
$GAGSV,4,4,13,05,10,212,*5F
$GBGSV,5,1,18,20,85,008,51,05,24,128,,39,28,049,33,30,14,166,26*63
$GBGSV,5,2,18,09,34,080,32,32,28,060,45,35,36,305,45,06,32,064,32*6E
$GBGSV,5,3,18,16,31,060,42,19,40,245,44,29,55,213,51,48,69,250,*65
$GBGSV,5,4,18,23,09,061,,25,01,015,,37,04,108,,02,08,105,*69
$GBGSV,5,5,18,13,00,091,,60,09,110,*67
$GPGGA,011602.00,,,,,0,00,,,M,,M,,*4C
$PTNL,GGK,011602.00,010125,4742.4465162,N,01617.9738059,E,1,20,1.3,EHT668.8734,M*45
$GPGGQ,011602.00,010125,4742.4465162,N,01617.9738059,E,1,20,3.049,625.6624,M*30
$GPGFA,011602.00,15.367,20.400,1.616,0.702,49.423,2.488,,VVV*3C
$GPLLK,011602.00,010125,,M,,M,1,20,1.6,,M*0A
$GNGMP,011602.00,,,,,DAAA,20,0.7,,,,*57
$GPGMP,011602.00,,,,,,06,,,,2.5,123*78
$GLGMP,011602.00,,,,,,04,,,,,*7F
$GAGMP,011602.00,,,,,,04,,,,,*72
$GBGMP,011602.00,,,,,,06,,,,,*73
$PSSN,SNC,[0,263780000,2347]*4C
$GPZDA,011607.00,01,01,2025,,*62
$GPDTM,W84,,00.0000000,N,00.0000000,E,00.0000000,W84*5F
$GPRMC,011607.00,A,4742.4465206,N,01617.9738310,E,0.0,,010125,5.1,E,D*18
$GPGLL,4742.4465206,N,01617.9738310,E,011607.00,A,D*69
$GPGGA,011607.00,4742.4465206,N,01617.9738310,E,2,20,0.7,625.6600,M,43.2111,M,1.5,0123*40
$GNGNS,011607.00,4742.4465206,N,01617.9738310,E,DAAA,20,0.7,625.6600,43.2111,,*58
$GPGNS,011607.00,,,,,,06,,,,1.5,123*7E
$GLGNS,011607.00,,,,,,04,,,,,*7A
$GAGNS,011607.00,,,,,,04,,,,,*77
$GBGNS,011607.00,,,,,,06,,,,,*76
$GPLLQ,011607.00,010125,,M,,M,1,20,3.476,,M*14
$GPVTG,,T,,M,0.01,N,0.01,K,D*26
$GPHDT,,T*1B
$GPTHS,,V*0E
$GPROT,,V*08
$PSSN,HRP,011607.00,010125,,,,,,,00,0,,*60
$PTNL,AVR,011607.00,,Yaw,,Tilt,,,,0,,00*36
$GPGSA,A,3,02,03,04,17,19,21,,,,,,,1.3,0.7,1.1*3F
$GPGSA,A,3,69,70,85,86,,,,,,,,,1.3,0.7,1.1*3C
$GPGSA,A,3,06,09,10,36,,,,,,,,,1.3,0.7,1.1*3C
$GPGSA,A,3,16,19,20,29,32,35,,,,,,,1.3,0.7,1.1*36
$GPGST,011607.00,2.693,1.843,0.801,49.489,1.343,1.495,2.836*64
$GPGBS,011607.00,4.797,4.190,8.102,21,0.0001,-2.079,0.671*77
$GPGRS,011607.00,1,-1.3,0.5,2.0,1.3,-0.6,-2.1,,,,,,*60
$GPGRS,011607.00,1,-0.4,-2.0,-0.1,7.8,,,,,,,,*6A
$GPGRS,011607.00,1,1.1,0.1,-1.9,-1.6,,,,,,,,*41
$GPGRS,011607.00,1,-0.0,-0.9,-1.8,-0.3,0.9,-2.0,,,,,,*6A
$GPGSV,4,1,16,03,76,323,48,09,17,216,29,28,27,065,32,19,26,310,44*75
$GPGSV,4,2,16,31,29,098,31,04,44,203,44,21,38,146,39,17,39,278,37*73
$GPGSV,4,3,16,02,58,154,42,01,63,141,,06,05,311,,32,07,045,*77
$GPGSV,4,4,16,36,35,170,41,34,31,208,,49,34,195,37,61,03,257,*76
$GLGSV,3,1,09,85,64,308,49,78,11,048,,86,11,327,42,70,48,244,36*66
$GLGSV,3,2,09,84,54,164,27,69,58,034,44,77,05,354,29,68,10,046,23*63
$GLGSV,3,3,09,71,03,232,*5A
$GAGSV,4,1,13,06,73,131,38,04,58,068,29,18,14,314,,09,58,188,51*62
$GAGSV,4,2,13,34,14,309,34,10,31,132,40,11,59,135,32,36,66,304,48*60
$GAGSV,4,3,13,19,05,042,,27,00,357,,30,02,311,30,12,08,131,*6B
$GAGSV,4,4,13,05,10,212,*5F
$GBGSV,5,1,18,20,85,009,52,05,24,128,,39,28,049,32,30,14,166,24*62
$GBGSV,5,2,18,09,35,080,32,32,28,060,45,35,36,305,44,06,32,064,32*6E
$GBGSV,5,3,18,16,31,060,42,19,40,245,45,29,55,213,50,48,69,250,*65
$GBGSV,5,4,18,23,09,061,,25,01,015,,37,04,108,,02,08,105,*69
$GBGSV,5,5,18,13,00,091,,60,09,110,*67
$GPGGA,011607.00,,,,,0,00,,,M,,M,,*49
$PTNL,GGK,011607.00,010125,4742.4465206,N,01617.9738310,E,1,20,1.3,EHT668.8710,M*49
$GPGGQ,011607.00,010125,4742.4465206,N,01617.9738310,E,1,20,3.476,625.6600,M*34
$GPGFA,011607.00,17.521,23.257,1.843,0.801,49.489,2.836,,VVV*33
$GPLLK,011607.00,010125,,M,,M,1,20,1.6,,M*0F
$GNGMP,011607.00,,,,,DAAA,20,0.7,,,,*52
$GPGMP,011607.00,,,,,,06,,,,1.5,123*7E
$GLGMP,011607.00,,,,,,04,,,,,*7A
$GAGMP,011607.00,,,,,,04,,,,,*77
$GBGMP,011607.00,,,,,,06,,,,,*76
$PSSN,SNC,[0,263785000,2347]*49
$GPZDA,011612.00,01,01,2025,,*66
$GPDTM,W84,,00.0000000,N,00.0000000,E,00.0000000,W84*5F
$GPRMC,011612.00,A,4742.4465209,N,01617.9738641,E,0.0,,010125,5.1,E,D*12
$GPGLL,4742.4465209,N,01617.9738641,E,011612.00,A,D*63
$GPGGA,011612.00,4742.4465209,N,01617.9738641,E,2,20,0.7,625.6537,M,43.2111,M,2.6,0123*4D
$GNGNS,011612.00,4742.4465209,N,01617.9738641,E,DAAA,20,0.7,625.6537,43.2111,,*55
$GPGNS,011612.00,,,,,,05,,,,2.6,123*79
$GLGNS,011612.00,,,,,,04,,,,,*7E
$GAGNS,011612.00,,,,,,05,,,,,*72
$GBGNS,011612.00,,,,,,06,,,,,*72
$GPLLQ,011612.00,010125,,M,,M,1,20,3.714,,M*17
$GPVTG,,T,,M,0.00,N,0.01,K,D*27
$GPHDT,,T*1B
$GPTHS,,V*0E
$GPROT,,V*08
$PSSN,HRP,011612.00,010125,,,,,,,00,0,,*64
$PTNL,AVR,011612.00,,Yaw,,Tilt,,,,0,,00*32
$GPGSA,A,3,02,03,04,19,21,,,,,,,,1.3,0.7,1.1*39
$GPGSA,A,3,69,70,85,86,,,,,,,,,1.3,0.7,1.1*3C
$GPGSA,A,3,06,09,10,34,36,,,,,,,,1.3,0.7,1.1*3B
$GPGSA,A,3,16,19,20,29,32,35,,,,,,,1.3,0.7,1.1*36
$GPGST,011612.00,3.076,2.137,0.919,56.143,1.414,1.847,2.896*6C
$GPGBS,011612.00,5.487,6.695,8.195,04,0.0001,2.361,0.663*5D
$GPGRS,011612.00,1,-1.3,0.7,2.4,0.1,-2.1,,,,,,,*64
$GPGRS,011612.00,1,-0.0,-0.0,1.2,8.0,,,,,,,,*40
$GPGRS,011612.00,1,0.4,0.4,-1.6,-5.7,-1.2,,,,,,,*4E
$GPGRS,011612.00,1,-0.0,-1.3,-1.5,-0.6,0.4,-2.0,,,,,,*60
$GPGSV,4,1,16,03,76,323,48,09,17,216,29,28,27,065,33,19,26,310,44*74
$GPGSV,4,2,16,31,29,098,29,04,44,203,43,21,38,146,39,17,39,278,36*7C
$GPGSV,4,3,16,02,58,154,42,01,63,141,,06,05,311,,32,07,045,*77
$GPGSV,4,4,16,36,35,170,41,34,31,208,,49,34,195,37,61,03,257,*76
$GLGSV,3,1,09,85,64,308,50,78,11,048,,86,11,327,41,70,48,244,36*6D
$GLGSV,3,2,09,84,54,164,28,69,58,034,45,77,05,354,28,68,10,046,*6D
$GLGSV,3,3,09,71,03,232,*5A
$GAGSV,4,1,13,06,73,131,37,04,58,068,28,18,14,314,,09,58,188,51*6C
$GAGSV,4,2,13,34,14,309,40,10,31,132,41,11,59,135,33,36,66,304,48*63
$GAGSV,4,3,13,19,05,042,,27,00,357,,30,02,311,30,12,08,131,*6B
$GAGSV,4,4,13,05,10,212,*5F
$GBGSV,5,1,18,20,85,009,52,05,24,128,,39,28,049,32,30,14,166,*64
$GBGSV,5,2,18,09,35,080,32,32,28,060,44,35,36,305,44,06,32,064,31*6C
$GBGSV,5,3,18,16,31,060,41,19,40,245,45,29,55,213,50,48,69,250,*66
$GBGSV,5,4,18,23,09,061,,25,01,015,,37,04,108,,02,08,105,*69
$GBGSV,5,5,18,13,00,091,,60,09,110,*67
$GPGGA,011612.00,,,,,0,00,,,M,,M,,*4D
$PTNL,GGK,011612.00,010125,4742.4465209,N,01617.9738641,E,1,20,1.3,EHT668.8648,M*4F
$GPGGQ,011612.00,010125,4742.4465209,N,01617.9738641,E,1,20,3.714,625.6537,M*3E
$GPGFA,011612.00,20.316,23.748,2.137,0.919,56.143,2.896,,VVV*3C
$GPLLK,011612.00,010125,,M,,M,1,20,1.5,,M*08
$GNGMP,011612.00,,,,,DAAA,20,0.7,,,,*56
$GPGMP,011612.00,,,,,,05,,,,2.6,123*79
$GLGMP,011612.00,,,,,,04,,,,,*7E
$GAGMP,011612.00,,,,,,05,,,,,*72
$GBGMP,011612.00,,,,,,06,,,,,*72
$PSSN,SNC,[0,263790000,2347]*4D
$GPZDA,011617.00,01,01,2025,,*63
$GPDTM,W84,,00.0000000,N,00.0000000,E,00.0000000,W84*5F
$GPRMC,011617.00,A,4742.4465197,N,01617.9738877,E,0.0,,010125,5.1,E,D*18
$GPGLL,4742.4465197,N,01617.9738877,E,011617.00,A,D*69
$GPGGA,011617.00,4742.4465197,N,01617.9738877,E,2,20,0.7,625.6369,M,43.2110,M,3.6,0123*4A
$GNGNS,011617.00,4742.4465197,N,01617.9738877,E,DAAA,20,0.7,625.6369,43.2110,,*53
$GPGNS,011617.00,,,,,,05,,,,3.6,123*7D
$GLGNS,011617.00,,,,,,04,,,,,*7B
$GAGNS,011617.00,,,,,,05,,,,,*77
$GBGNS,011617.00,,,,,,06,,,,,*77
$GPLLQ,011617.00,010125,,M,,M,1,20,3.401,,M*15
$GPVTG,,T,,M,0.01,N,0.01,K,D*26
$GPHDT,,T*1B
$GPTHS,,V*0E
$GPROT,,V*08
$PSSN,HRP,011617.00,010125,,,,,,,00,0,,*61
$PTNL,AVR,011617.00,,Yaw,,Tilt,,,,0,,00*37
$GPGSA,A,3,02,03,04,19,21,,,,,,,,1.3,0.7,1.1*39
$GPGSA,A,3,69,70,85,86,,,,,,,,,1.3,0.7,1.1*3C
$GPGSA,A,3,06,09,10,34,36,,,,,,,,1.3,0.7,1.1*3B
$GPGSA,A,3,16,19,20,29,32,35,,,,,,,1.3,0.7,1.1*36
$GPGST,011617.00,5.015,1.959,0.843,56.126,1.297,1.693,2.649*62
$GPGBS,011617.00,5.610,6.828,8.426,04,0.0001,1.591,0.682*54
$GPGRS,011617.00,1,-0.7,1.0,1.6,-0.5,-1.6,,,,,,,*4E
$GPGRS,011617.00,1,-0.9,-1.0,1.9,10.6,,,,,,,,*79
$GPGRS,011617.00,1,0.5,0.2,-1.3,-13.5,-1.3,,,,,,,*7D
$GPGRS,011617.00,1,-0.2,-1.9,-1.9,-1.6,-0.5,-2.5,,,,,,*49
$GPGSV,4,1,16,03,76,323,49,09,17,216,30,28,27,065,35,19,26,310,44*7B
$GPGSV,4,2,16,31,29,097,26,04,44,203,42,21,38,146,39,17,39,278,32*79
$GPGSV,4,3,16,02,58,154,42,01,63,141,,06,05,311,,32,07,045,*77
$GPGSV,4,4,16,36,35,170,41,34,31,208,,49,34,195,37,61,03,257,*76
$GLGSV,3,1,09,85,64,308,49,78,11,048,,86,11,327,41,70,48,244,35*66
$GLGSV,3,2,09,84,54,164,28,69,58,034,45,77,05,354,28,68,10,046,23*6C
$GLGSV,3,3,09,71,03,232,*5A
$GAGSV,4,1,13,06,73,131,36,04,58,068,28,18,14,314,,09,58,188,51*6D
$GAGSV,4,2,13,34,14,309,35,10,30,132,40,11,59,135,33,36,66,304,47*6E
$GAGSV,4,3,13,19,05,042,,27,00,357,,30,02,311,31,12,08,131,*6A
$GAGSV,4,4,13,05,10,212,*5F
$GBGSV,5,1,18,20,85,009,52,05,24,128,,39,28,049,31,30,14,166,22*67
$GBGSV,5,2,18,09,35,080,33,32,28,060,43,35,36,305,43,06,32,064,31*6D
$GBGSV,5,3,18,16,31,059,41,19,40,246,45,29,55,213,49,48,69,250,*67
$GBGSV,5,4,18,23,09,061,,25,01,015,,37,05,108,,02,08,105,*68
$GBGSV,5,5,18,13,00,091,,60,09,110,*67
$GPGGA,011617.00,,,,,0,00,,,M,,M,,*48
$PTNL,GGK,011617.00,010125,4742.4465197,N,01617.9738877,E,1,20,1.3,EHT668.8480,M*43
$GPGGQ,011617.00,010125,4742.4465197,N,01617.9738877,E,1,20,3.401,625.6369,M*3E
$GPGFA,011617.00,18.625,21.725,1.959,0.843,56.126,2.649,,VVV*3C
$GPLLK,011617.00,010125,,M,,M,1,20,1.5,,M*0D
$GNGMP,011617.00,,,,,DAAA,20,0.7,,,,*53
$GPGMP,011617.00,,,,,,05,,,,3.6,123*7D
$GLGMP,011617.00,,,,,,04,,,,,*7B
$GAGMP,011617.00,,,,,,05,,,,,*77
$GBGMP,011617.00,,,,,,06,,,,,*77
$PSSN,SNC,[0,263795000,2347]*48
$GPZDA,011622.00,01,01,2025,,*65
$GPDTM,W84,,00.0000000,N,00.0000000,E,00.0000000,W84*5F
$GPRMC,011622.00,A,4742.4465174,N,01617.9739028,E,0.0,,010125,5.1,E,D*10
$GPGLL,4742.4465174,N,01617.9739028,E,011622.00,A,D*61
$GPGGA,011622.00,4742.4465174,N,01617.9739028,E,2,19,0.7,625.6130,M,43.2110,M,2.8,0123*49
$GNGNS,011622.00,4742.4465174,N,01617.9739028,E,DAAA,19,0.7,625.6130,43.2110,,*5F
$GPGNS,011622.00,,,,,,05,,,,2.8,123*74
$GLGNS,011622.00,,,,,,03,,,,,*7A
$GAGNS,011622.00,,,,,,05,,,,,*71
$GBGNS,011622.00,,,,,,06,,,,,*71
$GPLLQ,011622.00,010125,,M,,M,1,19,3.374,,M*1C
$GPVTG,,T,,M,0.01,N,0.01,K,D*26
$GPHDT,,T*1B
$GPTHS,,V*0E
$GPROT,,V*08
$PSSN,HRP,011622.00,010125,,,,,,,00,0,,*67
$PTNL,AVR,011622.00,,Yaw,,Tilt,,,,0,,00*31
$GPGSA,A,3,02,03,04,19,21,,,,,,,,1.3,0.7,1.1*39
$GPGSA,A,3,69,85,86,,,,,,,,,,1.3,0.7,1.1*3B
$GPGSA,A,3,06,09,10,34,36,,,,,,,,1.3,0.7,1.1*3B
$GPGSA,A,3,16,19,20,29,32,35,,,,,,,1.3,0.7,1.1*36
$GPGST,011622.00,4.679,1.932,0.838,56.676,1.271,1.679,2.636*6E
$GPGBS,011622.00,5.520,6.795,8.490,04,0.0001,1.804,0.647*5E
$GPGRS,011622.00,1,-0.9,0.8,1.8,-0.9,-1.3,,,,,,,*48
$GPGRS,011622.00,1,-0.3,1.6,12.6,,,,,,,,,*7A
$GPGRS,011622.00,1,1.7,0.2,-0.7,-8.3,-1.1,,,,,,,*43
$GPGRS,011622.00,1,-0.6,-2.2,-1.9,-2.0,-0.8,-2.6,,,,,,*48
$GPGSV,4,1,16,03,76,323,50,09,17,216,30,28,27,065,39,19,26,310,45*7E
$GPGSV,4,2,16,31,29,097,28,04,44,203,41,21,38,146,39,17,39,278,36*70
$GPGSV,4,3,16,02,58,154,43,01,63,141,,06,05,311,27,32,07,045,*73
$GPGSV,4,4,16,36,35,170,41,34,31,208,,49,34,195,37,61,03,257,*76
$GLGSV,3,1,09,85,64,308,49,78,11,048,,86,11,327,39,70,48,244,34*68
$GLGSV,3,2,09,84,53,164,28,69,58,034,45,77,05,353,,68,10,046,21*64
$GLGSV,3,3,09,71,03,232,*5A
$GAGSV,4,1,13,06,73,131,36,04,58,067,32,18,14,314,,09,58,188,51*69
$GAGSV,4,2,13,34,14,309,35,10,30,132,40,11,59,135,34,36,66,304,47*69
$GAGSV,4,3,13,19,05,042,,27,00,357,,30,02,311,32,12,08,131,*69
$GAGSV,4,4,13,05,10,212,*5F
$GBGSV,5,1,18,20,85,010,52,05,24,128,,39,28,049,31,30,14,166,23*6E
$GBGSV,5,2,18,09,35,080,33,32,28,060,42,35,36,305,43,16,31,059,41*67
$GBGSV,5,3,18,06,32,063,32,19,40,246,45,29,55,213,48,48,69,250,*69
$GBGSV,5,4,18,02,08,105,,25,01,014,,37,05,108,,23,09,061,*69
$GBGSV,5,5,18,13,00,091,,60,09,110,*67
$GPGGA,011622.00,,,,,0,00,,,M,,M,,*4E
$PTNL,GGK,011622.00,010125,4742.4465174,N,01617.9739028,E,1,19,1.3,EHT668.8241,M*4A
$GPGGQ,011622.00,010125,4742.4465174,N,01617.9739028,E,1,19,3.374,625.6130,M*37
$GPGFA,011622.00,18.368,21.613,1.932,0.838,56.676,2.636,,VVV*39
$GPLLK,011622.00,010125,,M,,M,1,19,1.5,,M*01
$GNGMP,011622.00,,,,,DAAA,19,0.7,,,,*5F
$GPGMP,011622.00,,,,,,05,,,,2.8,123*74
$GLGMP,011622.00,,,,,,03,,,,,*7A
$GAGMP,011622.00,,,,,,05,,,,,*71
$GBGMP,011622.00,,,,,,06,,,,,*71
$PSSN,SNC,[0,263800000,2347]*4B
$GPZDA,011627.00,01,01,2025,,*60
$GPDTM,W84,,00.0000000,N,00.0000000,E,00.0000000,W84*5F
$GPRMC,011627.00,A,4742.4465221,N,01617.9739176,E,0.0,,010125,5.1,E,D*1C
$GPGLL,4742.4465221,N,01617.9739176,E,011627.00,A,D*6D
$GPGGA,011627.00,4742.4465221,N,01617.9739176,E,2,17,0.8,625.6097,M,43.2110,M,2.2,0123*42
$GNGNS,011627.00,4742.4465221,N,01617.9739176,E,DAAA,17,0.8,625.6097,43.2110,,*5E
$GPGNS,011627.00,,,,,,05,,,,2.2,123*7B
$GLGNS,011627.00,,,,,,03,,,,,*7F
$GAGNS,011627.00,,,,,,03,,,,,*72
$GBGNS,011627.00,,,,,,06,,,,,*74
$GPLLQ,011627.00,010125,,M,,M,1,17,3.495,,M*1F
$GPVTG,,T,,M,0.00,N,0.01,K,D*27
$GPHDT,,T*1B
$GPTHS,,V*0E
$GPROT,,V*08
$PSSN,HRP,011627.00,010125,,,,,,,00,0,,*62
$PTNL,AVR,011627.00,,Yaw,,Tilt,,,,0,,00*34
$GPGSA,A,3,02,03,04,19,21,,,,,,,,1.4,0.8,1.2*32
$GPGSA,A,3,69,85,86,,,,,,,,,,1.4,0.8,1.2*30
$GPGSA,A,3,06,09,10,,,,,,,,,,1.4,0.8,1.2*32
$GPGSA,A,3,16,19,20,29,32,35,,,,,,,1.4,0.8,1.2*3D
$GPGST,011627.00,4.200,2.006,0.866,56.283,1.326,1.737,2.728*6F
$GPGBS,011627.00,5.655,6.906,8.339,04,0.0001,2.447,0.665*52
$GPGRS,011627.00,1,-0.7,0.3,2.4,-0.9,-1.3,,,,,,,*47
$GPGRS,011627.00,1,-0.5,0.6,11.4,,,,,,,,,*79
$GPGRS,011627.00,1,1.6,-0.3,-0.4,,,,,,,,,*63
$GPGRS,011627.00,1,-0.8,-2.6,-2.0,-2.6,-2.5,-3.0,,,,,,*43
$GPGSV,4,1,16,03,76,323,51,09,17,216,28,28,27,065,39,19,26,310,46*75
$GPGSV,4,2,16,31,29,097,31,04,44,203,41,21,38,146,39,17,39,278,31*7F
$GPGSV,4,3,16,02,58,154,43,01,63,141,,06,05,311,31,32,07,045,*74
$GPGSV,4,4,16,36,35,170,41,34,31,208,,49,34,195,37,61,03,257,*76
$GLGSV,3,1,09,85,64,308,48,78,11,048,,86,11,327,36,70,48,244,32*60
$GLGSV,3,2,09,84,53,164,29,69,58,034,46,77,05,353,21,68,10,046,*66
$GLGSV,3,3,09,71,03,232,*5A
$GAGSV,4,1,13,06,73,131,36,04,58,067,33,18,14,314,,09,59,188,51*69
$GAGSV,4,2,13,34,14,309,35,10,30,132,40,11,59,135,35,36,66,304,47*68
$GAGSV,4,3,13,19,05,042,,27,01,357,,30,02,311,32,12,08,131,*68
$GAGSV,4,4,13,05,10,212,*5F
$GBGSV,5,1,18,20,85,010,52,05,24,128,,39,28,049,30,30,14,166,23*6F
$GBGSV,5,2,18,09,35,080,34,32,28,060,41,35,36,305,43,06,32,063,32*6C
$GBGSV,5,3,18,16,31,059,41,19,40,246,44,29,55,213,46,48,69,250,*69
$GBGSV,5,4,18,23,09,061,,25,01,014,,37,05,108,,02,08,105,*69
$GBGSV,5,5,18,13,00,091,,60,09,110,*67
$GPGGA,011627.00,,,,,0,00,,,M,,M,,*4B
$PTNL,GGK,011627.00,010125,4742.4465221,N,01617.9739176,E,1,17,1.4,EHT668.8208,M*42
$GPGGQ,011627.00,010125,4742.4465221,N,01617.9739176,E,1,17,3.495,625.6097,M*31
$GPGFA,011627.00,19.075,22.372,2.006,0.866,56.283,2.728,,VVV*35
$GPLLK,011627.00,010125,,M,,M,1,17,1.6,,M*09
$GNGMP,011627.00,,,,,DAAA,17,0.8,,,,*5B
$GPGMP,011627.00,,,,,,05,,,,2.2,123*7B
$GLGMP,011627.00,,,,,,03,,,,,*7F
