$GPZDA,222942.00,01,01,2025,,*6E
$GPDTM,W84,,00.0000000,N,00.0000000,E,00.0000000,W84*5F
$GPRMC,222942.00,A,4742.4458405,N,01617.9733622,E,0.0,,010125,5.1,E,D*10
$GPGLL,4742.4458405,N,01617.9733622,E,222942.00,A,D*61
$GPGGA,222942.00,4742.4458405,N,01617.9733622,E,2,17,1.0,625.1641,M,43.2110,M,2.8,0123*47
$GNGNS,222942.00,4742.4458405,N,01617.9733622,E,DAAA,17,1.0,625.1641,43.2110,,*51
$GPGNS,222942.00,,,,,,04,,,,2.8,123*7E
$GLGNS,222942.00,,,,,,04,,,,,*76
$GAGNS,222942.00,,,,,,04,,,,,*7B
$GBGNS,222942.00,,,,,,05,,,,,*79
$GPLLQ,222942.00,010125,,M,,M,1,17,4.478,,M*15
$GPVTG,,T,,M,0.02,N,0.03,K,D*27
$GPHDT,,T*1B
$GPTHS,,V*0E
$GPROT,,V*08
$PSSN,HRP,222942.00,010125,,,,,,,00,0,,*6C
$PTNL,AVR,222942.00,,Yaw,,Tilt,,,,0,,00*3A
$GPGSA,A,3,02,10,21,32,,,,,,,,,2.0,1.0,1.7*36
$GPGSA,A,3,68,69,84,85,,,,,,,,,2.0,1.0,1.7*37
$GPGSA,A,3,07,26,31,33,,,,,,,,,2.0,1.0,1.7*36
$GPGSA,A,3,27,28,30,33,41,,,,,,,,2.0,1.0,1.7*3E
$GPGST,222942.00,2.609,2.089,0.752,13.594,2.038,0.880,3.889*6D
$GPGBS,222942.00,11.082,5.420,22.604,02,0.0001,1.428,0.719*5A
$GPGRS,222942.00,1,1.4,-0.7,-1.1,0.5,,,,,,,,*44
$GPGRS,222942.00,1,3.5,-2.9,-4.0,-0.9,,,,,,,,*6E
$GPGRS,222942.00,1,-1.2,-1.9,-1.3,0.5,,,,,,,,*62
$GPGRS,222942.00,1,-1.0,-2.7,-3.0,1.0,-1.0,,,,,,,*6A
$GPGSV,4,1,16,21,70,307,41,03,14,233,,14,15,313,37,10,40,054,40*7E
$GPGSV,4,2,16,27,34,163,33,01,43,287,,32,46,101,42,08,62,199,35*7B
$GPGSV,4,3,16,02,48,295,42,24,02,027,,22,08,332,,23,00,055,*75
$GPGSV,4,4,16,36,35,170,42,34,31,208,,49,34,195,38,61,03,257,*7A
$GLGSV,2,1,08,84,72,050,38,76,13,336,27,75,12,280,35,70,18,193,*61
$GLGSV,2,2,08,83,16,112,,68,36,038,45,85,36,314,47,69,69,121,39*67
$GAGSV,3,1,10,26,75,049,47,29,17,168,26,13,25,091,32,14,32,159,*60
$GAGSV,3,2,10,23,20,229,,31,28,283,41,08,27,050,32,07,43,113,36*69
$GAGSV,3,3,10,33,45,291,41,24,09,332,32*6B
$GBGSV,5,1,19,27,82,287,47,32,19,204,28,60,11,109,,14,20,044,24*6C
$GBGSV,5,2,19,05,24,128,,13,15,056,28,39,12,072,,30,30,304,43*6F
$GBGSV,5,3,19,33,44,056,40,28,49,128,37,41,67,156,48,57,63,270,*62
$GBGSV,5,4,19,02,09,105,,36,02,296,37,08,06,054,,16,08,081,*6A
$GBGSV,5,5,19,45,01,340,,09,03,096,,06,07,084,*5C
$GPGGA,222942.00,,,,,0,00,,,M,,M,,*45
$PTNL,GGK,222942.00,010125,4742.4458405,N,01617.9733622,E,1,17,2.0,EHT668.3751,M*4B
$GPGGQ,222942.00,010125,4742.4458405,N,01617.9733622,E,1,17,4.478,625.1641,M*33
$GPGFA,222942.00,19.861,31.894,2.089,0.752,13.594,3.889,,VVV*3D
$GPLLK,222942.00,010125,,M,,M,1,17,2.4,,M*06
$GNGMP,222942.00,,,,,DAAA,17,1.0,,,,*5C
$GPGMP,222942.00,,,,,,04,,,,2.8,123*7E
$GLGMP,222942.00,,,,,,04,,,,,*76
$GAGMP,222942.00,,,,,,04,,,,,*7B
$GBGMP,222942.00,,,,,,05,,,,,*79
$PSSN,SNC,[0,340200000,2347]*41
$GPZDA,222947.00,01,01,2025,,*6B
$GPDTM,W84,,00.0000000,N,00.0000000,E,00.0000000,W84*5F
$GPRMC,222947.00,A,4742.4458436,N,01617.9733732,E,0.0,,010125,5.1,E,D*15
$GPGLL,4742.4458436,N,01617.9733732,E,222947.00,A,D*64
$GPGGA,222947.00,4742.4458436,N,01617.9733732,E,2,17,1.0,625.1713,M,43.2111,M,1.8,0123*46
$GNGNS,222947.00,4742.4458436,N,01617.9733732,E,DAAA,17,1.0,625.1713,43.2111,,*53
$GPGNS,222947.00,,,,,,04,,,,1.8,123*78
$GLGNS,222947.00,,,,,,04,,,,,*73
$GAGNS,222947.00,,,,,,04,,,,,*7E
$GBGNS,222947.00,,,,,,05,,,,,*7C
$GPLLQ,222947.00,010125,,M,,M,1,17,5.150,,M*1E
$GPVTG,,T,,M,0.00,N,0.01,K,D*27
$GPHDT,,T*1B
$GPTHS,,V*0E
$GPROT,,V*08
$PSSN,HRP,222947.00,010125,,,,,,,00,0,,*69
$PTNL,AVR,222947.00,,Yaw,,Tilt,,,,0,,00*3F
$GPGSA,A,3,02,10,21,32,,,,,,,,,2.0,1.0,1.7*36
$GPGSA,A,3,68,69,84,85,,,,,,,,,2.0,1.0,1.7*37
$GPGSA,A,3,07,26,31,33,,,,,,,,,2.0,1.0,1.7*36
$GPGSA,A,3,27,28,30,33,41,,,,,,,,2.0,1.0,1.7*3E
$GPGST,222947.00,3.060,2.331,0.853,13.394,2.276,0.990,4.512*68
$GPGBS,222947.00,10.389,5.171,23.163,02,0.0001,1.995,0.669*5D
$GPGRS,222947.00,1,2.0,-1.3,-0.7,0.3,,,,,,,,*42
$GPGRS,222947.00,1,-2.6,-2.7,-5.6,-0.1,,,,,,,,*45
$GPGRS,222947.00,1,-0.3,-2.0,-2.2,-0.3,,,,,,,,*44
$GPGRS,222947.00,1,-1.4,-2.4,-4.8,-0.5,-1.5,,,,,,,*4B
$GPGSV,4,1,16,21,70,307,42,03,14,233,,14,15,313,37,10,40,054,41*7C
$GPGSV,4,2,16,27,34,163,31,01,43,287,,32,46,101,39,08,62,199,42*75
$GPGSV,4,3,16,02,48,295,45,24,02,027,,22,08,332,,23,00,055,*72
$GPGSV,4,4,16,36,35,170,41,34,31,208,,49,34,195,37,61,03,257,*76
$GLGSV,2,1,08,84,72,050,37,76,13,336,32,75,12,280,34,70,18,193,*6B
$GLGSV,2,2,08,83,16,112,,68,36,038,43,85,36,314,46,69,69,121,39*60
$GAGSV,3,1,10,26,75,049,47,29,17,168,27,13,25,091,30,14,32,159,*63
$GAGSV,3,2,10,23,20,229,,31,28,283,41,08,27,050,35,07,43,113,36*6E
$GAGSV,3,3,10,33,45,291,41,24,09,332,33*6A
$GBGSV,5,1,19,27,82,287,49,32,19,204,29,60,11,109,,14,20,044,24*63
$GBGSV,5,2,19,05,24,128,,13,15,056,24,39,12,072,,30,30,304,43*63
$GBGSV,5,3,19,33,44,056,40,28,49,128,38,41,67,156,48,57,63,270,*6D
$GBGSV,5,4,19,02,09,105,,36,02,296,34,08,06,054,,16,08,081,*69
$GBGSV,5,5,19,45,01,340,,09,03,096,,06,07,084,*5C
$GPGGA,222947.00,,,,,0,00,,,M,,M,,*40
$PTNL,GGK,222947.00,010125,4742.4458436,N,01617.9733732,E,1,17,2.0,EHT668.3824,M*43
$GPGGQ,222947.00,010125,4742.4458436,N,01617.9733732,E,1,17,5.150,625.1713,M*3E
$GPGFA,222947.00,22.161,36.999,2.331,0.853,13.394,4.512,,VVV*32
$GPLLK,222947.00,010125,,M,,M,1,17,2.4,,M*03
$GNGMP,222947.00,,,,,DAAA,17,1.0,,,,*59
$GPGMP,222947.00,,,,,,04,,,,1.8,123*78
$GLGMP,222947.00,,,,,,04,,,,,*73
$GAGMP,222947.00,,,,,,04,,,,,*7E
$GBGMP,222947.00,,,,,,05,,,,,*7C
$PSSN,SNC,[0,340205000,2347]*44
$GPZDA,222952.00,01,01,2025,,*6F
$GPDTM,W84,,00.0000000,N,00.0000000,E,00.0000000,W84*5F
$GPRMC,222952.00,A,4742.4458427,N,01617.9733836,E,0.0,,010125,5.1,E,D*1A
$GPGLL,4742.4458427,N,01617.9733836,E,222952.00,A,D*6B
$GPGGA,222952.00,4742.4458427,N,01617.9733836,E,2,17,1.0,625.1711,M,43.2111,M,3.0,0123*41
$GNGNS,222952.00,4742.4458427,N,01617.9733836,E,DAAA,17,1.0,625.1711,43.2111,,*5E
$GPGNS,222952.00,,,,,,03,,,,3.0,123*71
$GLGNS,222952.00,,,,,,05,,,,,*76
$GAGNS,222952.00,,,,,,04,,,,,*7A
$GBGNS,222952.00,,,,,,05,,,,,*78
$GPLLQ,222952.00,010125,,M,,M,1,17,4.936,,M*13
$GPVTG,,T,,M,0.01,N,0.02,K,D*25
$GPHDT,,T*1B
$GPTHS,,V*0E
$GPROT,,V*08
$PSSN,HRP,222952.00,010125,,,,,,,00,0,,*6D
$PTNL,AVR,222952.00,,Yaw,,Tilt,,,,0,,00*3B
$GPGSA,A,3,10,21,32,,,,,,,,,,1.8,1.0,1.5*3D
$GPGSA,A,3,68,69,76,84,85,,,,,,,,1.8,1.0,1.5*3F
$GPGSA,A,3,07,26,31,33,,,,,,,,,1.8,1.0,1.5*3F
$GPGSA,A,3,27,28,30,33,41,,,,,,,,1.8,1.0,1.5*37
$GPGST,222952.00,3.047,1.835,0.946,37.667,1.563,1.348,4.483*68
$GPGBS,222952.00,11.340,9.947,32.901,84,0.0001,-5.494,6.066*74
$GPGRS,222952.00,1,0.5,0.5,-0.6,,,,,,,,,*47
$GPGRS,222952.00,1,-1.4,-1.4,-5.6,-5.5,0.3,,,,,,,*6C
$GPGRS,222952.00,1,2.2,-0.7,-1.6,-0.4,,,,,,,,*6B
$GPGRS,222952.00,1,-0.5,-0.4,-3.7,-2.0,-0.8,,,,,,,*4E
$GPGSV,4,1,16,21,70,307,41,03,14,233,,14,15,313,38,10,40,054,41*70
$GPGSV,4,2,16,27,34,163,33,01,43,287,,32,46,101,38,08,62,198,39*7B
$GPGSV,4,3,16,02,48,295,44,24,02,027,,22,08,332,,23,00,055,*73
$GPGSV,4,4,16,36,35,170,40,34,31,208,,49,34,195,40,61,03,257,*77
$GLGSV,2,1,08,84,72,050,38,76,13,336,36,75,12,280,33,70,18,193,*67
$GLGSV,2,2,08,83,16,112,,68,36,038,45,85,36,314,46,69,69,121,38*67
$GAGSV,3,1,10,26,75,049,47,29,17,168,28,13,25,091,24,14,32,159,*69
$GAGSV,3,2,10,23,20,229,,31,28,283,42,08,27,050,29,07,43,113,39*6F
$GAGSV,3,3,10,33,45,291,39,24,09,332,34*62
$GBGSV,5,1,19,27,82,286,49,32,19,204,28,60,11,109,,14,20,044,23*64
$GBGSV,5,2,19,05,24,128,,13,15,056,26,39,12,072,,30,30,304,42*60
$GBGSV,5,3,19,33,44,056,38,28,49,128,38,41,67,156,46,57,63,270,*6C
$GBGSV,5,4,19,02,09,105,,36,02,296,32,08,06,054,,16,08,081,*6F
$GBGSV,5,5,19,45,01,340,,09,03,096,,06,07,084,*5C
$GPGGA,222952.00,,,,,0,00,,,M,,M,,*44
$PTNL,GGK,222952.00,010125,4742.4458427,N,01617.9733836,E,1,17,1.8,EHT668.3822,M*41
$GPGGQ,222952.00,010125,4742.4458427,N,01617.9733836,E,1,17,4.936,625.1711,M*3A
$GPGFA,222952.00,17.446,36.762,1.835,0.946,37.667,4.483,,VVV*35
$GPLLK,222952.00,010125,,M,,M,1,17,2.2,,M*01
$GNGMP,222952.00,,,,,DAAA,17,1.0,,,,*5D
$GPGMP,222952.00,,,,,,03,,,,3.0,123*71
$GLGMP,222952.00,,,,,,05,,,,,*76
$GAGMP,222952.00,,,,,,04,,,,,*7A
$GBGMP,222952.00,,,,,,05,,,,,*78
$PSSN,SNC,[0,340210000,2347]*40
$GPZDA,222957.00,01,01,2025,,*6A
$GPDTM,W84,,00.0000000,N,00.0000000,E,00.0000000,W84*5F
$GPRMC,222957.00,A,4742.4458428,N,01617.9734011,E,0.0,,010125,5.1,E,D*1A
$GPGLL,4742.4458428,N,01617.9734011,E,222957.00,A,D*6B
$GPGGA,222957.00,4742.4458428,N,01617.9734011,E,2,19,0.9,625.1714,M,43.2110,M,2.8,0123*4A
$GNGNS,222957.00,4742.4458428,N,01617.9734011,E,DAAA,19,0.9,625.1714,43.2110,,*5C
$GPGNS,222957.00,,,,,,04,,,,2.8,123*7A
$GLGNS,222957.00,,,,,,06,,,,,*70
$GAGNS,222957.00,,,,,,04,,,,,*7F
$GBGNS,222957.00,,,,,,05,,,,,*7D
$GPLLQ,222957.00,010125,,M,,M,1,19,4.302,,M*15
$GPVTG,,T,,M,0.00,N,0.01,K,D*27
$GPHDT,,T*1B
$GPTHS,,V*0E
$GPROT,,V*08
$PSSN,HRP,222957.00,010125,,,,,,,00,0,,*68
$PTNL,AVR,222957.00,,Yaw,,Tilt,,,,0,,00*3E
$GPGSA,A,3,02,10,21,32,,,,,,,,,1.6,0.9,1.3*3F
$GPGSA,A,3,68,69,75,76,84,85,,,,,,,1.6,0.9,1.3*3D
$GPGSA,A,3,07,26,31,33,,,,,,,,,1.6,0.9,1.3*3F
$GPGSA,A,3,27,28,30,33,41,,,,,,,,1.6,0.9,1.3*37
$GPGST,222957.00,3.020,2.087,0.733,12.065,2.047,0.839,3.689*62
$GPGBS,222957.00,10.463,4.646,18.527,10,0.0001,-1.957,0.788*7F
$GPGRS,222957.00,1,1.1,-2.0,-0.4,0.1,,,,,,,,*40
$GPGRS,222957.00,1,0.8,-1.4,-6.3,-0.5,-3.7,0.5,,,,,,*4B
$GPGRS,222957.00,1,1.6,-0.5,-0.2,0.1,,,,,,,,*46
$GPGRS,222957.00,1,0.1,-1.0,-3.3,-5.6,-0.8,,,,,,,*62
$GPGSV,4,1,16,21,70,307,40,03,14,233,,14,15,313,35,10,40,054,37*7D
$GPGSV,4,2,16,27,34,163,32,01,43,287,,32,46,101,37,08,62,198,44*7F
$GPGSV,4,3,16,02,48,295,43,24,02,027,,22,08,332,,23,00,055,*74
$GPGSV,4,4,16,36,35,170,39,34,31,208,,49,34,195,38,61,03,257,*76
$GLGSV,2,1,08,84,72,050,37,76,13,336,37,75,12,280,35,70,18,193,*6F
$GLGSV,2,2,08,83,16,112,,68,36,038,45,85,36,314,47,69,69,121,36*68
$GAGSV,3,1,10,26,75,049,46,29,17,168,29,13,25,091,23,14,32,159,*6E
$GAGSV,3,2,10,23,20,229,,31,28,283,41,08,27,050,34,07,43,113,39*60
$GAGSV,3,3,10,33,45,291,37,24,09,332,33*6B
$GBGSV,5,1,19,27,82,286,50,32,20,204,28,60,11,109,,14,20,044,30*64
$GBGSV,5,2,19,05,24,128,,13,15,056,25,39,12,072,,30,30,304,42*63
$GBGSV,5,3,19,33,44,056,37,28,49,128,39,41,67,156,46,57,63,270,*62
$GBGSV,5,4,19,02,09,105,,36,02,296,36,08,06,054,,16,08,081,*6B
$GBGSV,5,5,19,45,01,340,,09,03,096,,06,07,084,*5C
$GPGGA,222957.00,,,,,0,00,,,M,,M,,*41
$PTNL,GGK,222957.00,010125,4742.4458428,N,01617.9734011,E,1,19,1.6,EHT668.3824,M*47
$GPGGQ,222957.00,010125,4742.4458428,N,01617.9734011,E,1,19,4.302,625.1714,M*3C
$GPGFA,222957.00,19.841,30.253,2.087,0.733,12.065,3.689,,VVV*36
$GPLLK,222957.00,010125,,M,,M,1,19,1.8,,M*03
$GNGMP,222957.00,,,,,DAAA,19,0.9,,,,*5E
$GPGMP,222957.00,,,,,,04,,,,2.8,123*7A
$GLGMP,222957.00,,,,,,06,,,,,*70
$GAGMP,222957.00,,,,,,04,,,,,*7F
$GBGMP,222957.00,,,,,,05,,,,,*7D
$PSSN,SNC,[0,340215000,2347]*45
$GPZDA,223002.00,01,01,2025,,*62
$GPDTM,W84,,00.0000000,N,00.0000000,E,00.0000000,W84*5F
$GPRMC,223002.00,A,4742.4458521,N,01617.9734130,E,0.0,,010125,5.1,E,D*18
$GPGLL,4742.4458521,N,01617.9734130,E,223002.00,A,D*69
$GPGGA,223002.00,4742.4458521,N,01617.9734130,E,2,18,1.0,625.1710,M,43.2111,M,3.5,0123*48
$GNGNS,223002.00,4742.4458521,N,01617.9734130,E,DAAA,18,1.0,625.1710,43.2111,,*52
$GPGNS,223002.00,,,,,,04,,,,3.5,123*7E
$GLGNS,223002.00,,,,,,05,,,,,*7B
$GAGNS,223002.00,,,,,,04,,,,,*77
$GBGNS,223002.00,,,,,,05,,,,,*75
$GPLLQ,223002.00,010125,,M,,M,1,18,4.351,,M*1A
$GPVTG,,T,,M,0.01,N,0.02,K,D*25
$GPHDT,,T*1B
$GPTHS,,V*0E
$GPROT,,V*08
$PSSN,HRP,223002.00,010125,,,,,,,00,0,,*60
$PTNL,AVR,223002.00,,Yaw,,Tilt,,,,0,,00*36
$GPGSA,A,3,02,08,10,21,,,,,,,,,1.8,1.0,1.5*36
$GPGSA,A,3,68,69,76,84,85,,,,,,,,1.8,1.0,1.5*3F
$GPGSA,A,3,07,26,31,33,,,,,,,,,1.8,1.0,1.5*3F
$GPGSA,A,3,27,28,30,33,41,,,,,,,,1.8,1.0,1.5*37
$GPGST,223002.00,2.685,1.301,1.010,6.217,1.298,1.014,4.028*56
$GPGBS,223002.00,7.739,5.210,21.832,08,0.0001,1.571,0.658*68
$GPGRS,223002.00,1,-0.2,1.6,-1.3,-0.1,,,,,,,,*64
$GPGRS,223002.00,1,1.8,1.6,1.0,-4.6,1.5,,,,,,,*45
$GPGRS,223002.00,1,2.4,0.7,-0.8,2.5,,,,,,,,*6C
$GPGRS,223002.00,1,1.4,-0.3,-2.3,-4.9,0.3,,,,,,,*45
$GPGSV,4,1,16,21,70,307,40,03,14,233,,14,15,313,34,10,40,054,36*7D
$GPGSV,4,2,16,27,34,163,31,01,43,287,,32,46,101,34,08,61,198,47*7F
$GPGSV,4,3,16,02,48,295,40,24,02,027,,22,08,332,,23,00,055,*77
$GPGSV,4,4,16,36,35,170,40,34,31,208,,49,34,195,39,61,03,257,*79
$GLGSV,2,1,08,84,72,050,36,76,13,336,37,75,12,280,29,70,18,193,*63
$GLGSV,2,2,08,83,16,112,,68,36,038,44,85,36,315,48,69,69,120,40*67
$GAGSV,3,1,10,26,75,050,46,29,17,168,31,13,25,091,27,14,31,159,*68
$GAGSV,3,2,10,23,20,229,,31,28,283,41,08,27,050,22,07,43,113,40*69
$GAGSV,3,3,10,33,45,291,36,24,09,332,31*68
$GBGSV,5,1,19,27,82,286,49,32,20,204,31,60,11,109,,14,20,044,30*64
$GBGSV,5,2,19,05,24,128,,13,15,056,24,39,12,072,,30,30,304,43*63
$GBGSV,5,3,19,33,44,056,37,28,49,128,38,41,67,156,46,57,64,270,*64
$GBGSV,5,4,19,02,09,105,,36,02,296,31,08,06,054,,16,08,081,*6C
$GBGSV,5,5,19,45,01,340,,09,03,096,,06,07,084,*5C
$GPGGA,223002.00,,,,,0,00,,,M,,M,,*49
$PTNL,GGK,223002.00,010125,4742.4458521,N,01617.9734130,E,1,18,1.8,EHT668.3821,M*4F
$GPGGQ,223002.00,010125,4742.4458521,N,01617.9734130,E,1,18,4.351,625.1710,M*3D
$GPGFA,223002.00,12.367,33.028,1.301,1.010,6.217,4.028,,VVV*06
$GPLLK,223002.00,010125,,M,,M,1,18,2.2,,M*03
$GNGMP,223002.00,,,,,DAAA,18,1.0,,,,*5F
$GPGMP,223002.00,,,,,,04,,,,3.5,123*7E
$GLGMP,223002.00,,,,,,05,,,,,*7B
$GAGMP,223002.00,,,,,,04,,,,,*77
$GBGMP,223002.00,,,,,,05,,,,,*75
$PSSN,SNC,[0,340220000,2347]*43
$GPZDA,223007.00,01,01,2025,,*67
$GPDTM,W84,,00.0000000,N,00.0000000,E,00.0000000,W84*5F
$GPRMC,223007.00,A,4742.4458689,N,01617.9734110,E,0.0,,010125,5.1,E,D*1E
$GPGLL,4742.4458689,N,01617.9734110,E,223007.00,A,D*6F
$GPGGA,223007.00,4742.4458689,N,01617.9734110,E,2,19,0.7,625.1737,M,43.2111,M,1.8,0123*43
$GNGNS,223007.00,4742.4458689,N,01617.9734110,E,DAAA,19,0.7,625.1737,43.2111,,*56
$GPGNS,223007.00,,,,,,05,,,,1.8,123*75
$GLGNS,223007.00,,,,,,05,,,,,*7E
$GAGNS,223007.00,,,,,,03,,,,,*75
$GBGNS,223007.00,,,,,,06,,,,,*73
$GPLLQ,223007.00,010125,,M,,M,1,19,3.187,,M*10
$GPVTG,,T,,M,0.01,N,0.02,K,D*25
$GPHDT,,T*1B
$GPTHS,,V*0E
$GPROT,,V*08
$PSSN,HRP,223007.00,010125,,,,,,,00,0,,*65
$PTNL,AVR,223007.00,,Yaw,,Tilt,,,,0,,00*33
$GPGSA,A,3,02,08,10,21,27,,,,,,,,1.3,0.7,1.1*3A
$GPGSA,A,3,68,69,75,76,85,,,,,,,,1.3,0.7,1.1*38
$GPGSA,A,3,07,26,31,,,,,,,,,,1.3,0.7,1.1*36
$GPGSA,A,3,27,28,30,32,33,41,,,,,,,1.3,0.7,1.1*3F
$GPGST,223007.00,3.725,0.997,0.804,74.092,0.820,0.984,2.919*6F
$GPGBS,223007.00,3.049,4.836,9.652,10,0.0001,-1.779,0.765*75
$GPGRS,223007.00,1,0.1,0.4,-1.8,0.1,1.0,,,,,,,*45
$GPGRS,223007.00,1,2.1,7.2,-7.0,5.0,0.5,,,,,,,*48
$GPGRS,223007.00,1,1.9,0.7,-1.8,,,,,,,,,*4F
$GPGRS,223007.00,1,1.9,1.5,-0.5,1.7,-3.9,0.4,,,,,,*4B
$GPGSV,4,1,16,21,70,307,41,03,14,233,,14,15,313,29,10,40,054,37*71
$GPGSV,4,2,16,27,33,163,36,01,43,288,,32,46,101,36,08,61,198,47*72
$GPGSV,4,3,16,02,48,295,39,24,02,027,,22,08,332,,23,00,055,*79
$GPGSV,4,4,16,36,35,170,39,34,31,208,,49,34,195,39,61,03,257,*77
$GLGSV,2,1,08,84,72,051,35,76,13,336,35,75,12,280,37,70,18,193,*6C
$GLGSV,2,2,08,83,16,112,,68,36,038,44,85,36,315,48,69,69,120,37*67
$GAGSV,3,1,10,26,75,050,47,29,17,168,22,13,25,091,27,14,31,159,*6B
$GAGSV,3,2,10,23,20,229,,31,28,283,42,08,27,050,31,07,43,113,42*6A
$GAGSV,3,3,10,33,45,291,33,24,09,332,29*64
$GBGSV,5,1,19,27,82,286,49,32,20,204,36,60,11,109,,14,20,044,32*61
$GBGSV,5,2,19,05,24,128,,13,15,056,,39,12,072,,30,30,304,45*63
$GBGSV,5,3,19,28,49,129,40,33,44,055,43,41,67,156,46,57,64,270,*6A
$GBGSV,5,4,19,02,09,105,,36,02,296,,08,06,054,,16,08,081,*6E
$GBGSV,5,5,19,45,01,340,,09,03,096,,06,07,084,*5C
$GPGGA,223007.00,,,,,0,00,,,M,,M,,*4C
$PTNL,GGK,223007.00,010125,4742.4458689,N,01617.9734110,E,1,19,1.3,EHT668.3847,M*43
$GPGGQ,223007.00,010125,4742.4458689,N,01617.9734110,E,1,19,3.187,625.1737,M*31
$GPGFA,223007.00,9.477,23.934,0.997,0.804,74.092,2.919,,VVV*05
$GPLLK,223007.00,010125,,M,,M,1,19,1.5,,M*03
$GNGMP,223007.00,,,,,DAAA,19,0.7,,,,*5D
$GPGMP,223007.00,,,,,,05,,,,1.8,123*75
$GLGMP,223007.00,,,,,,05,,,,,*7E
$GAGMP,223007.00,,,,,,03,,,,,*75
$GBGMP,223007.00,,,,,,06,,,,,*73
$PSSN,SNC,[0,340225000,2347]*46
$GPZDA,223012.00,01,01,2025,,*63
$GPDTM,W84,,00.0000000,N,00.0000000,E,00.0000000,W84*5F
$GPRMC,223012.00,A,4742.4458778,N,01617.9734027,E,0.0,,010125,5.1,E,D*10
$GPGLL,4742.4458778,N,01617.9734027,E,223012.00,A,D*61
$GPGGA,223012.00,4742.4458778,N,01617.9734027,E,2,18,0.8,625.1902,M,43.2111,M,3.0,0123*41
$GNGNS,223012.00,4742.4458778,N,01617.9734027,E,DAAA,18,0.8,625.1902,43.2111,,*5E
$GPGNS,223012.00,,,,,,05,,,,3.0,123*7B
$GLGNS,223012.00,,,,,,05,,,,,*7A
$GAGNS,223012.00,,,,,,03,,,,,*71
$GBGNS,223012.00,,,,,,05,,,,,*74
$GPLLQ,223012.00,010125,,M,,M,1,18,4.097,,M*12
$GPVTG,,T,,M,0.01,N,0.02,K,D*25
$GPHDT,,T*1B
$GPTHS,,V*0E
$GPROT,,V*08
$PSSN,HRP,223012.00,010125,,,,,,,00,0,,*61
$PTNL,AVR,223012.00,,Yaw,,Tilt,,,,0,,00*37
$GPGSA,A,3,02,08,21,27,32,,,,,,,,1.5,0.8,1.3*31
$GPGSA,A,3,68,69,76,84,85,,,,,,,,1.5,0.8,1.3*3D
$GPGSA,A,3,07,26,31,,,,,,,,,,1.5,0.8,1.3*3D
$GPGSA,A,3,27,28,30,33,41,,,,,,,,1.5,0.8,1.3*35
$GPGST,223012.00,6.243,1.542,0.957,36.690,1.362,1.199,3.673*60
$GPGBS,223012.00,5.041,5.648,10.307,27,0.0001,1.836,0.826*61
$GPGRS,223012.00,1,-0.8,-1.4,-0.2,1.8,0.4,,,,,,,*4F
$GPGRS,223012.00,1,1.0,8.1,-5.4,-6.1,-2.3,,,,,,,*42
$GPGRS,223012.00,1,0.7,0.1,-1.5,,,,,,,,,*4F
$GPGRS,223012.00,1,2.1,2.0,3.5,16.2,0.0,,,,,,,*52
$GPGSV,4,1,16,21,70,307,41,03,14,233,,14,15,313,32,10,40,054,37*7B
$GPGSV,4,2,16,27,33,163,39,01,43,288,,32,46,101,39,08,61,198,46*73
$GPGSV,4,3,16,02,48,295,40,24,02,027,,22,08,331,,23,00,055,*74
$GPGSV,4,4,16,36,35,170,40,34,31,208,,49,34,195,40,61,03,257,*77
$GLGSV,2,1,08,84,72,051,36,76,13,336,33,75,12,280,30,70,18,193,*6E
$GLGSV,2,2,08,83,16,112,,68,36,038,42,85,36,315,48,69,69,120,37*61
$GAGSV,3,1,10,26,75,050,47,29,17,168,22,13,25,091,27,14,31,159,*6B
$GAGSV,3,2,10,23,20,229,,31,28,283,42,08,27,050,32,07,43,113,44*6F
$GAGSV,3,3,10,33,45,291,25,24,09,332,28*62
$GBGSV,5,1,19,27,82,286,50,32,20,204,33,60,11,109,,14,20,044,32*6C
$GBGSV,5,2,19,05,24,128,,13,15,056,22,39,12,072,,30,30,304,44*62
$GBGSV,5,3,19,28,48,129,41,33,44,055,37,41,67,156,46,57,64,270,*69
$GBGSV,5,4,19,02,09,105,,36,02,296,,08,06,054,,16,08,081,*6E
$GBGSV,5,5,19,45,01,340,,09,03,096,,06,07,084,*5C
$GPGGA,223012.00,,,,,0,00,,,M,,M,,*48
$PTNL,GGK,223012.00,010125,4742.4458778,N,01617.9734027,E,1,18,1.5,EHT668.4012,M*45
$GPGGQ,223012.00,010125,4742.4458778,N,01617.9734027,E,1,18,4.097,625.1902,M*31
$GPGFA,223012.00,14.658,30.118,1.542,0.957,36.690,3.673,,VVV*34
$GPLLK,223012.00,010125,,M,,M,1,18,1.8,,M*0B
$GNGMP,223012.00,,,,,DAAA,18,0.8,,,,*57
$GPGMP,223012.00,,,,,,05,,,,3.0,123*7B
$GLGMP,223012.00,,,,,,05,,,,,*7A
$GAGMP,223012.00,,,,,,03,,,,,*71
$GBGMP,223012.00,,,,,,05,,,,,*74
$PSSN,SNC,[0,340230000,2347]*42
$GPZDA,223017.00,01,01,2025,,*66
$GPDTM,W84,,00.0000000,N,00.0000000,E,00.0000000,W84*5F
$GPRMC,223017.00,A,4742.4458776,N,01617.9733920,E,0.0,,010125,5.1,E,D*12
$GPGLL,4742.4458776,N,01617.9733920,E,223017.00,A,D*63
$GPGGA,223017.00,4742.4458776,N,01617.9733920,E,2,19,0.8,625.2065,M,43.2111,M,2.4,0123*4C
$GNGNS,223017.00,4742.4458776,N,01617.9733920,E,DAAA,19,0.8,625.2065,43.2111,,*56
$GPGNS,223017.00,,,,,,05,,,,2.4,123*7B
$GLGNS,223017.00,,,,,,05,,,,,*7F
$GAGNS,223017.00,,,,,,03,,,,,*74
$GBGNS,223017.00,,,,,,06,,,,,*72
$GPLLQ,223017.00,010125,,M,,M,1,19,4.978,,M*1E
$GPVTG,,T,,M,0.01,N,0.01,K,D*26
$GPHDT,,T*1B
$GPTHS,,V*0E
$GPROT,,V*08
$PSSN,HRP,223017.00,010125,,,,,,,00,0,,*64
$PTNL,AVR,223017.00,,Yaw,,Tilt,,,,0,,00*32
$GPGSA,A,3,02,08,21,27,32,,,,,,,,1.4,0.8,1.2*31
$GPGSA,A,3,68,69,76,84,85,,,,,,,,1.4,0.8,1.2*3D
$GPGSA,A,3,07,26,31,,,,,,,,,,1.4,0.8,1.2*3D
$GPGSA,A,3,14,27,28,30,33,41,,,,,,,1.4,0.8,1.2*30
$GPGST,223017.00,10.067,1.888,1.182,37.288,1.664,1.481,4.452*59
$GPGBS,223017.00,5.007,5.721,10.367,14,0.0001,26.195,8.910*57
$GPGRS,223017.00,1,1.0,-1.4,-0.5,-0.3,1.2,,,,,,,*49
$GPGRS,223017.00,1,1.3,6.8,-12.6,-4.1,-3.2,,,,,,,*75
$GPGRS,223017.00,1,1.9,0.1,-1.8,,,,,,,,,*48
$GPGRS,223017.00,1,26.2,1.6,-0.1,5.4,15.9,-0.1,,,,,,*46
$GPGSV,4,1,16,21,70,307,40,03,14,233,,14,15,313,35,10,40,054,35*7F
$GPGSV,4,2,16,27,33,163,37,01,43,288,,32,46,101,40,08,61,198,46*73
$GPGSV,4,3,16,02,48,295,40,24,02,027,,22,08,331,,23,00,055,*74
$GPGSV,4,4,16,36,35,170,41,34,31,208,,49,34,195,39,61,03,257,*78
$GLGSV,2,1,08,84,72,051,38,76,13,336,37,75,12,280,,70,18,193,*67
$GLGSV,2,2,08,83,16,112,,68,36,038,39,85,37,315,48,69,69,120,38*63
$GAGSV,3,1,10,26,75,050,48,29,17,168,32,13,25,091,29,14,31,159,*6B
$GAGSV,3,2,10,23,20,229,,31,28,283,43,08,27,049,33,07,43,113,43*60
$GAGSV,3,3,10,33,45,291,25,24,09,332,25*6F
$GBGSV,5,1,19,27,82,286,48,32,20,204,34,60,11,109,,14,20,044,37*67
$GBGSV,5,2,19,05,24,128,,13,15,056,27,39,12,072,,30,30,304,43*60
$GBGSV,5,3,19,28,48,129,41,33,44,055,36,41,67,156,46,57,64,270,*68
$GBGSV,5,4,19,02,09,105,,36,02,296,19,08,06,054,,16,08,081,*66
$GBGSV,5,5,19,45,01,340,,09,03,096,,06,07,084,*5C
$GPGGA,223017.00,,,,,0,00,,,M,,M,,*4D
$PTNL,GGK,223017.00,010125,4742.4458776,N,01617.9733920,E,1,19,1.4,EHT668.4176,M*44
$GPGGQ,223017.00,010125,4742.4458776,N,01617.9733920,E,1,19,4.978,625.2065,M*31
$GPGFA,223017.00,17.951,36.509,1.888,1.182,37.288,4.452,,VVV*36
$GPLLK,223017.00,010125,,M,,M,1,19,1.7,,M*00
$GNGMP,223017.00,,,,,DAAA,19,0.8,,,,*53
$GPGMP,223017.00,,,,,,05,,,,2.4,123*7B
$GLGMP,223017.00,,,,,,05,,,,,*7F
$GAGMP,223017.00,,,,,,03,,,,,*74
$GBGMP,223017.00,,,,,,06,,,,,*72
$PSSN,SNC,[0,340235000,2347]*47
$GPZDA,223022.00,01,01,2025,,*60
$GPDTM,W84,,00.0000000,N,00.0000000,E,00.0000000,W84*5F
$GPRMC,223022.00,A,4742.4458688,N,01617.9733848,E,0.0,,010125,5.1,E,D*1B
$GPGLL,4742.4458688,N,01617.9733848,E,223022.00,A,D*6A
$GPGGA,223022.00,4742.4458688,N,01617.9733848,E,2,16,0.9,625.2076,M,43.2111,M,2.6,0123*4B
$GNGNS,223022.00,4742.4458688,N,01617.9733848,E,DAAA,16,0.9,625.2076,43.2111,,*53
$GPGNS,223022.00,,,,,,05,,,,2.6,123*7F
$GLGNS,223022.00,,,,,,03,,,,,*7F
$GAGNS,223022.00,,,,,,04,,,,,*75
$GBGNS,223022.00,,,,,,04,,,,,*76
$GPLLQ,223022.00,010125,,M,,M,1,16,3.319,,M*1D
$GPVTG,,T,,M,0.00,N,0.01,K,D*27
$GPHDT,,T*1B
$GPTHS,,V*0E
$GPROT,,V*08
$PSSN,HRP,223022.00,010125,,,,,,,00,0,,*62
$PTNL,AVR,223022.00,,Yaw,,Tilt,,,,0,,00*34
$GPGSA,A,3,02,08,21,27,32,,,,,,,,1.8,0.9,1.5*3B
$GPGSA,A,3,68,84,85,,,,,,,,,,1.8,0.9,1.5*39
$GPGSA,A,3,07,26,31,33,,,,,,,,,1.8,0.9,1.5*37
$GPGSA,A,3,27,28,30,41,,,,,,,,,1.8,0.9,1.5*3F
$GPGST,223022.00,2.691,1.213,0.782,34.349,1.094,0.941,2.989*67
$GPGBS,223022.00,5.457,5.554,12.030,32,0.0001,1.810,0.715*65
$GPGRS,223022.00,1,0.4,-0.9,-0.3,-0.8,1.8,,,,,,,*41
$GPGRS,223022.00,1,-0.4,-3.7,-3.1,,,,,,,,,*4C
$GPGRS,223022.00,1,1.8,0.1,-1.6,-1.6,,,,,,,,*45
$GPGRS,223022.00,1,0.9,-2.1,4.8,-0.6,,,,,,,,*4D
$GPGSV,4,1,16,21,70,307,40,03,14,233,,14,15,313,35,10,40,054,38*72
$GPGSV,4,2,16,27,33,163,36,01,43,288,,32,46,101,40,08,61,198,48*7C
$GPGSV,4,3,16,02,48,295,37,24,02,027,,22,08,331,,23,00,055,*74
$GPGSV,4,4,16,36,35,170,41,34,31,208,,49,34,195,36,61,03,257,34*70
$GLGSV,2,1,08,84,72,051,38,76,13,336,29,75,12,280,32,70,18,193,*69
$GLGSV,2,2,08,83,16,112,,68,36,038,38,85,37,315,47,69,69,120,34*61
$GAGSV,3,1,10,26,75,050,49,29,17,168,31,13,25,091,28,14,31,159,*68
$GAGSV,3,2,10,23,20,229,,31,28,283,44,08,27,049,31,07,43,113,43*65
$GAGSV,3,3,10,33,45,291,36,24,09,332,23*6B
$GBGSV,5,1,19,27,82,286,48,32,20,204,35,60,11,109,,14,20,044,26*66
$GBGSV,5,2,19,05,24,128,,13,15,056,25,39,12,072,,30,30,304,44*65
$GBGSV,5,3,19,28,48,129,39,33,44,055,35,41,67,156,46,57,64,270,*64
$GBGSV,5,4,19,02,09,105,,36,02,296,24,08,06,054,,16,08,081,*68
$GBGSV,5,5,19,45,01,340,,09,03,095,,06,07,084,*5F
$GPGGA,223022.00,,,,,0,00,,,M,,M,,*4B
$PTNL,GGK,223022.00,010125,4742.4458688,N,01617.9733848,E,1,16,1.8,EHT668.4187,M*40
$GPGGQ,223022.00,010125,4742.4458688,N,01617.9733848,E,1,16,3.319,625.2076,M*3F
$GPGFA,223022.00,11.531,24.509,1.213,0.782,34.349,2.989,,VVV*32
$GPLLK,223022.00,010125,,M,,M,1,16,2.1,,M*0C
$GNGMP,223022.00,,,,,DAAA,16,0.9,,,,*5B
$GPGMP,223022.00,,,,,,05,,,,2.6,123*7F
$GLGMP,223022.00,,,,,,03,,,,,*7F
$GAGMP,223022.00,,,,,,04,,,,,*75
$GBGMP,223022.00,,,,,,04,,,,,*76
$PSSN,SNC,[0,340240000,2347]*45
$GPZDA,223027.00,01,01,2025,,*65
$GPDTM,W84,,00.0000000,N,00.0000000,E,00.0000000,W84*5F
$GPRMC,223027.00,A,4742.4458606,N,01617.9733764,E,0.0,,010125,5.1,E,D*19
$GPGLL,4742.4458606,N,01617.9733764,E,223027.00,A,D*68
$GPGGA,223027.00,4742.4458606,N,01617.9733764,E,2,16,0.9,625.2078,M,43.2111,M,2.3,0123*42
$GNGNS,223027.00,4742.4458606,N,01617.9733764,E,DAAA,16,0.9,625.2078,43.2111,,*5F
$GPGNS,223027.00,,,,,,04,,,,2.3,123*7E
$GLGNS,223027.00,,,,,,05,,,,,*7C
$GAGNS,223027.00,,,,,,03,,,,,*77
$GBGNS,223027.00,,,,,,04,,,,,*73
$GPLLQ,223027.00,010125,,M,,M,1,16,4.536,,M*14
$GPVTG,,T,,M,0.01,N,0.02,K,D*25
$GPHDT,,T*1B
$GPTHS,,V*0E
$GPROT,,V*08
$PSSN,HRP,223027.00,010125,,,,,,,00,0,,*67
$PTNL,AVR,223027.00,,Yaw,,Tilt,,,,0,,00*31
$GPGSA,A,3,08,21,27,32,,,,,,,,,1.6,0.9,1.3*31
$GPGSA,A,3,68,69,76,84,85,,,,,,,,1.6,0.9,1.3*3F
$GPGSA,A,3,07,26,31,,,,,,,,,,1.6,0.9,1.3*3F
$GPGSA,A,3,27,28,30,41,,,,,,,,,1.6,0.9,1.3*37
$GPGST,223027.00,3.976,1.484,1.097,323.562,1.361,1.248,4.144*50
$GPGBS,223027.00,6.274,6.669,17.192,32,0.0001,1.308,0.720*62
$GPGRS,223027.00,1,-0.1,-0.2,-1.0,1.3,,,,,,,,*65
$GPGRS,223027.00,1,0.7,-4.8,-7.7,-2.3,-3.7,,,,,,,*68
$GPGRS,223027.00,1,0.9,0.6,-0.1,,,,,,,,,*45
$GPGRS,223027.00,1,1.5,0.2,5.7,-0.6,,,,,,,,*67
$GPGSV,4,1,16,21,70,307,39,03,14,233,,14,15,313,34,10,40,054,41*73
$GPGSV,4,2,16,27,33,163,39,01,43,288,,32,46,101,42,08,61,198,48*71
$GPGSV,4,3,16,02,48,295,34,24,02,026,,22,08,331,,23,00,055,*76
$GPGSV,4,4,16,36,35,170,41,34,31,208,,49,34,195,37,61,03,257,35*70
$GLGSV,2,1,08,84,72,051,39,76,13,336,36,75,12,280,32,70,18,193,*66
$GLGSV,2,2,08,83,16,112,,68,36,037,40,85,37,315,46,69,69,120,36*62
$GAGSV,3,1,10,26,75,050,50,29,17,168,31,13,25,091,24,14,31,159,*6C
$GAGSV,3,2,10,23,20,229,,31,28,283,43,08,27,049,30,07,43,113,42*62
$GAGSV,3,3,10,33,45,291,24,24,09,332,23*68
$GBGSV,5,1,19,27,82,286,47,32,20,204,34,60,11,109,,14,20,044,31*6E
$GBGSV,5,2,19,05,24,128,,13,15,056,26,39,12,072,,30,30,304,42*60
$GBGSV,5,3,19,28,48,129,41,33,44,055,32,41,67,156,46,57,64,270,*6C
$GBGSV,5,4,19,02,09,105,,36,02,296,24,08,06,054,,16,08,081,*68
$GBGSV,5,5,19,45,01,340,,09,03,095,,06,07,084,*5F
$GPGGA,223027.00,,,,,0,00,,,M,,M,,*4E
$PTNL,GGK,223027.00,010125,4742.4458606,N,01617.9733764,E,1,16,1.6,EHT668.4188,M*43
$GPGGQ,223027.00,010125,4742.4458606,N,01617.9733764,E,1,16,4.536,625.2078,M*3F
$GPGFA,223027.00,14.114,33.979,1.484,1.097,323.562,4.144,,VVV*03
$GPLLK,223027.00,010125,,M,,M,1,16,1.9,,M*02
$GNGMP,223027.00,,,,,DAAA,16,0.9,,,,*5E
$GPGMP,223027.00,,,,,,04,,,,2.3,123*7E
$GLGMP,223027.00,,,,,,05,,,,,*7C
$GAGMP,223027.00,,,,,,03,,,,,*77
$GBGMP,223027.00,,,,,,04,,,,,*73
$PSSN,SNC,[0,340245000,2347]*40
$GPZDA,223032.00,01,01,2025,,*61
$GPDTM,W84,,00.0000000,N,00.0000000,E,00.0000000,W84*5F
$GPRMC,223032.00,A,4742.4458619,N,01617.9733631,E,0.0,,010125,5.1,E,D*12
$GPGLL,4742.4458619,N,01617.9733631,E,223032.00,A,D*63
$GPGGA,223032.00,4742.4458619,N,01617.9733631,E,2,16,0.9,625.2106,M,43.2111,M,3.3,0123*40
$GNGNS,223032.00,4742.4458619,N,01617.9733631,E,DAAA,16,0.9,625.2106,43.2111,,*5C
$GPGNS,223032.00,,,,,,04,,,,3.3,123*7B
$GLGNS,223032.00,,,,,,05,,,,,*78
$GAGNS,223032.00,,,,,,03,,,,,*73
$GBGNS,223032.00,,,,,,04,,,,,*77
$GPLLQ,223032.00,010125,,M,,M,1,16,4.223,,M*13
$GPVTG,,T,,M,0.00,N,0.01,K,D*27
$GPHDT,,T*1B
$GPTHS,,V*0E
$GPROT,,V*08
$PSSN,HRP,223032.00,010125,,,,,,,00,0,,*63
$PTNL,AVR,223032.00,,Yaw,,Tilt,,,,0,,00*35
$GPGSA,A,3,08,21,27,32,,,,,,,,,1.6,0.9,1.3*31
$GPGSA,A,3,68,69,76,84,85,,,,,,,,1.6,0.9,1.3*3F
$GPGSA,A,3,07,26,31,,,,,,,,,,1.6,0.9,1.3*3F
$GPGSA,A,3,27,28,30,41,,,,,,,,,1.6,0.9,1.3*37
$GPGST,223032.00,4.550,1.384,1.066,320.377,1.264,1.205,3.845*51
$GPGBS,223032.00,6.311,6.741,17.526,32,0.0001,1.128,0.735*60
$GPGRS,223032.00,1,-0.2,-0.9,0.0,1.1,,,,,,,,*47
$GPGRS,223032.00,1,-0.9,3.7,-9.1,-2.3,-3.7,,,,,,,*62
$GPGRS,223032.00,1,0.2,0.4,0.2,,,,,,,,,*66
$GPGRS,223032.00,1,0.7,1.4,8.0,-0.9,,,,,,,,*62
$GPGSV,4,1,16,21,71,307,39,03,14,233,,14,15,313,32,10,40,054,42*77
$GPGSV,4,2,16,27,33,163,38,01,44,288,,32,46,101,42,08,61,198,47*78
$GPGSV,4,3,16,02,49,295,29,24,02,026,,22,08,331,,23,00,055,*7B
$GPGSV,4,4,16,36,35,170,41,34,31,208,,49,34,195,38,61,03,257,34*7E
$GLGSV,2,1,08,84,72,051,38,76,13,336,37,75,12,279,34,70,18,193,*66
$GLGSV,2,2,08,83,16,112,,68,36,037,42,85,37,315,45,69,69,120,39*6C
$GAGSV,3,1,10,26,75,050,50,29,17,168,32,13,25,091,31,14,31,159,*6B
$GAGSV,3,2,10,23,19,229,,31,28,283,43,08,27,049,32,07,43,113,42*6A
$GAGSV,3,3,10,33,45,291,29,24,09,332,26*60
$GBGSV,5,1,19,27,82,285,47,32,20,204,32,60,11,109,,14,20,044,30*6A
$GBGSV,5,2,19,05,24,128,,13,15,056,26,39,12,072,,30,30,304,40*62
$GBGSV,5,3,19,28,48,129,42,33,44,055,40,41,67,156,48,57,64,270,*64
$GBGSV,5,4,19,02,09,105,,36,02,296,24,08,06,054,,16,08,081,*68
$GBGSV,5,5,19,45,01,340,,09,03,095,,06,07,084,*5F
$GPGGA,223032.00,,,,,0,00,,,M,,M,,*4A
$PTNL,GGK,223032.00,010125,4742.4458619,N,01617.9733631,E,1,16,1.6,EHT668.4216,M*4C
$GPGGQ,223032.00,010125,4742.4458619,N,01617.9733631,E,1,16,4.223,625.2106,M*3F
$GPGFA,223032.00,13.161,31.525,1.384,1.066,320.377,3.845,,VVV*02
$GPLLK,223032.00,010125,,M,,M,1,16,1.9,,M*06
$GNGMP,223032.00,,,,,DAAA,16,0.9,,,,*5A
$GPGMP,223032.00,,,,,,04,,,,3.3,123*7B
$GLGMP,223032.00,,,,,,05,,,,,*78
$GAGMP,223032.00,,,,,,03,,,,,*73
$GBGMP,223032.00,,,,,,04,,,,,*77
$PSSN,SNC,[0,340250000,2347]*44
$GPZDA,223037.00,01,01,2025,,*64
$GPDTM,W84,,00.0000000,N,00.0000000,E,00.0000000,W84*5F
$GPRMC,223037.00,A,4742.4458624,N,01617.9733465,E,0.0,,010125,5.1,E,D*1A
$GPGLL,4742.4458624,N,01617.9733465,E,223037.00,A,D*6B
$GPGGA,223037.00,4742.4458624,N,01617.9733465,E,2,19,0.7,625.2264,M,43.2111,M,2.4,0123*48
$GNGNS,223037.00,4742.4458624,N,01617.9733465,E,DAAA,19,0.7,625.2264,43.2111,,*52
$GPGNS,223037.00,,,,,,05,,,,2.4,123*79
$GLGNS,223037.00,,,,,,06,,,,,*7E
$GAGNS,223037.00,,,,,,03,,,,,*76
$GBGNS,223037.00,,,,,,05,,,,,*73
$GPLLQ,223037.00,010125,,M,,M,1,19,3.815,,M*11
$GPVTG,,T,,M,0.00,N,0.01,K,D*27
$GPHDT,,T*1B
$GPTHS,,V*0E
$GPROT,,V*08
$PSSN,HRP,223037.00,010125,,,,,,,00,0,,*66
$PTNL,AVR,223037.00,,Yaw,,Tilt,,,,0,,00*30
$GPGSA,A,3,08,10,21,27,32,,,,,,,,1.3,0.7,1.1*39
$GPGSA,A,3,68,69,75,76,84,85,,,,,,,1.3,0.7,1.1*34
$GPGSA,A,3,07,26,31,,,,,,,,,,1.3,0.7,1.1*36
$GPGSA,A,3,27,28,30,32,41,,,,,,,,1.3,0.7,1.1*3F
$GPGST,223037.00,5.515,1.373,0.807,295.980,0.942,1.284,3.467*54
$GPGBS,223037.00,3.971,5.833,11.649,30,0.0001,13.364,8.581*57
$GPGRS,223037.00,1,-0.6,0.4,-0.7,0.8,0.8,,,,,,,*62
$GPGRS,223037.00,1,-0.1,8.9,-1.8,-7.3,-3.7,-2.2,,,,,,*6D
$GPGRS,223037.00,1,-0.1,0.6,-0.6,,,,,,,,,*66
$GPGRS,223037.00,1,-0.0,1.8,13.4,5.0,0.0,,,,,,,*70
$GPGSV,4,1,16,21,71,307,40,03,14,233,,14,15,313,31,10,40,054,42*7A
$GPGSV,4,2,16,27,33,163,39,01,44,288,,32,46,101,43,08,61,198,47*78
$GPGSV,4,3,16,02,49,295,28,24,02,026,,22,08,331,,23,00,055,*7A
$GPGSV,4,4,16,36,35,170,42,34,31,208,,49,34,195,38,61,03,257,32*7B
$GLGSV,2,1,08,84,72,052,38,76,13,336,38,75,12,279,36,70,18,193,*68
$GLGSV,2,2,08,83,16,112,,68,36,037,42,85,37,315,46,69,69,119,41*6A
$GAGSV,3,1,10,26,75,050,50,29,17,168,32,13,25,091,28,14,31,159,*63
$GAGSV,3,2,10,23,19,229,,31,28,283,44,08,27,049,32,07,43,113,41*6E
$GAGSV,3,3,10,33,45,291,29,24,09,332,28*6E
$GBGSV,5,1,19,27,82,285,47,32,20,204,35,60,11,109,,14,20,044,28*64
$GBGSV,5,2,19,05,24,128,,13,15,056,25,39,12,072,,30,30,304,40*61
$GBGSV,5,3,19,28,48,129,41,33,44,055,32,41,67,156,49,57,64,270,*63
$GBGSV,5,4,19,02,09,105,,36,02,296,27,08,06,054,,16,08,081,*6B
$GBGSV,5,5,19,45,01,340,,09,03,095,,06,07,084,*5F
$GPGGA,223037.00,,,,,0,00,,,M,,M,,*4F
$PTNL,GGK,223037.00,010125,4742.4458624,N,01617.9733465,E,1,19,1.3,EHT668.4374,M*4B
$GPGGQ,223037.00,010125,4742.4458624,N,01617.9733465,E,1,19,3.815,625.2264,M*37
$GPGFA,223037.00,13.059,28.426,1.373,0.807,295.980,3.467,,VVV*00
$GPLLK,223037.00,010125,,M,,M,1,19,1.5,,M*00
$GNGMP,223037.00,,,,,DAAA,19,0.7,,,,*5E
$GPGMP,223037.00,,,,,,05,,,,2.4,123*79
$GLGMP,223037.00,,,,,,06,,,,,*7E
$GAGMP,223037.00,,,,,,03,,,,,*76
$GBGMP,223037.00,,,,,,05,,,,,*73
$PSSN,SNC,[0,340255000,2347]*41
$GPZDA,223042.00,01,01,2025,,*66
$GPDTM,W84,,00.0000000,N,00.0000000,E,00.0000000,W84*5F
$GPRMC,223042.00,A,4742.4458708,N,01617.9733453,E,0.0,,010125,5.1,E,D*12
$GPGLL,4742.4458708,N,01617.9733453,E,223042.00,A,D*63
$GPGGA,223042.00,4742.4458708,N,01617.9733453,E,2,19,0.8,625.2376,M,43.2110,M,2.6,0123*4E
$GNGNS,223042.00,4742.4458708,N,01617.9733453,E,DAAA,19,0.8,625.2376,43.2110,,*56
$GPGNS,223042.00,,,,,,05,,,,2.6,123*79
$GLGNS,223042.00,,,,,,06,,,,,*7C
$GAGNS,223042.00,,,,,,03,,,,,*74
$GBGNS,223042.00,,,,,,05,,,,,*71
$GPLLQ,223042.00,010125,,M,,M,1,19,4.943,,M*16
$GPVTG,,T,,M,0.00,N,0.01,K,D*27
$GPHDT,,T*1B
$GPTHS,,V*0E
$GPROT,,V*08
$PSSN,HRP,223042.00,010125,,,,,,,00,0,,*64
$PTNL,AVR,223042.00,,Yaw,,Tilt,,,,0,,00*32
$GPGSA,A,3,08,10,21,27,32,,,,,,,,1.4,0.8,1.2*32
$GPGSA,A,3,68,69,75,76,84,85,,,,,,,1.4,0.8,1.2*3F
$GPGSA,A,3,07,26,31,,,,,,,,,,1.4,0.8,1.2*3D
$GPGSA,A,3,27,28,30,33,41,,,,,,,,1.4,0.8,1.2*35
$GPGST,223042.00,6.940,1.761,1.048,295.951,1.217,1.649,4.498*58
$GPGBS,223042.00,4.096,5.860,12.112,76,0.0001,21.389,6.331*5D
$GPGRS,223042.00,1,0.1,-1.4,-0.5,0.9,1.1,,,,,,,*6D
$GPGRS,223042.00,1,1.4,6.5,1.6,21.4,-4.4,0.0,,,,,,*50
$GPGRS,223042.00,1,-0.0,0.3,-1.0,,,,,,,,,*67
$GPGRS,223042.00,1,-0.6,0.6,-3.5,-6.0,-0.2,,,,,,,*67
$GPGSV,4,1,16,21,71,307,41,03,14,233,,14,15,313,30,10,40,054,42*7A
$GPGSV,4,2,16,27,33,163,40,01,44,288,,32,46,101,45,08,61,198,47*70
$GPGSV,4,3,16,02,49,295,29,24,02,026,,22,08,331,,23,00,055,*7B
$GPGSV,4,4,16,36,35,170,41,34,31,208,,49,34,195,39,61,03,257,34*7F
$GLGSV,2,1,08,84,72,052,37,76,13,336,36,75,12,279,36,70,18,193,*69
$GLGSV,2,2,08,83,16,112,,68,36,037,45,85,37,315,49,69,69,119,42*61
$GAGSV,3,1,10,26,75,050,50,29,17,168,27,13,25,092,26,14,31,159,*6A
$GAGSV,3,2,10,23,19,229,,31,28,283,44,08,27,049,32,07,43,113,38*60
$GAGSV,3,3,10,33,45,291,29,24,09,332,31*66
$GBGSV,5,1,19,27,82,285,47,32,20,204,34,60,11,109,,14,19,044,30*66
$GBGSV,5,2,19,05,24,128,,13,15,056,27,39,12,072,,30,30,304,43*60
$GBGSV,5,3,19,28,48,129,43,33,44,055,35,41,67,156,50,57,64,270,*6E
$GBGSV,5,4,19,02,09,105,,36,02,296,29,08,06,054,,16,08,081,*65
$GBGSV,5,5,19,45,01,340,,09,03,095,,06,07,084,*5F
$GPGGA,223042.00,,,,,0,00,,,M,,M,,*4D
$PTNL,GGK,223042.00,010125,4742.4458708,N,01617.9733453,E,1,19,1.4,EHT668.4487,M*4F
$GPGGQ,223042.00,010125,4742.4458708,N,01617.9733453,E,1,19,4.943,625.2376,M*38
$GPGFA,223042.00,16.745,36.883,1.761,1.048,295.951,4.498,,VVV*0F
$GPLLK,223042.00,010125,,M,,M,1,19,1.6,,M*01
$GNGMP,223042.00,,,,,DAAA,19,0.8,,,,*53
$GPGMP,223042.00,,,,,,05,,,,2.6,123*79
$GLGMP,223042.00,,,,,,06,,,,,*7C
$GAGMP,223042.00,,,,,,03,,,,,*74
$GBGMP,223042.00,,,,,,05,,,,,*71
$PSSN,SNC,[0,340260000,2347]*47
$GPZDA,223047.00,01,01,2025,,*63
$GPDTM,W84,,00.0000000,N,00.0000000,E,00.0000000,W84*5F
$GPRMC,223047.00,A,4742.4458780,N,01617.9733416,E,0.0,,010125,5.1,E,D*16
$GPGLL,4742.4458780,N,01617.9733416,E,223047.00,A,D*67
$GPGGA,223047.00,4742.4458780,N,01617.9733416,E,2,19,0.8,625.2495,M,43.2110,M,2.0,0123*46
$GNGNS,223047.00,4742.4458780,N,01617.9733416,E,DAAA,19,0.8,625.2495,43.2110,,*58
$GPGNS,223047.00,,,,,,05,,,,2.0,123*7A
$GLGNS,223047.00,,,,,,06,,,,,*79
$GAGNS,223047.00,,,,,,04,,,,,*76
$GBGNS,223047.00,,,,,,04,,,,,*75
$GPLLQ,223047.00,010125,,M,,M,1,19,7.077,,M*1E
$GPVTG,,T,,M,0.01,N,0.02,K,D*25
$GPHDT,,T*1B
$GPTHS,,V*0E
$GPROT,,V*08
$PSSN,HRP,223047.00,010125,,,,,,,00,0,,*61
$PTNL,AVR,223047.00,,Yaw,,Tilt,,,,0,,00*37
$GPGSA,A,3,08,10,21,27,32,,,,,,,,1.4,0.8,1.1*31
$GPGSA,A,3,68,69,75,76,84,85,,,,,,,1.4,0.8,1.1*3C
$GPGSA,A,3,07,26,31,33,,,,,,,,,1.4,0.8,1.1*3E
$GPGSA,A,3,27,28,33,41,,,,,,,,,1.4,0.8,1.1*35
$GPGST,223047.00,6.534,2.509,1.487,296.340,1.736,2.343,6.448*56
$GPGBS,223047.00,3.984,6.075,12.736,32,0.0001,2.663,0.722*6A
$GPGRS,223047.00,1,-0.4,-2.2,-0.5,-0.3,2.7,,,,,,,*67
$GPGRS,223047.00,1,5.4,-0.4,1.6,21.0,-4.0,1.0,,,,,,*7A
$GPGRS,223047.00,1,-0.0,0.1,-1.0,2.0,,,,,,,,*4C
$GPGRS,223047.00,1,-1.7,0.4,-1.7,-0.5,,,,,,,,*62
$GPGSV,4,1,16,21,71,307,42,03,15,233,,14,15,313,26,10,40,054,44*79
$GPGSV,4,2,16,27,33,163,41,01,44,288,,32,46,101,44,08,61,198,47*70
$GPGSV,4,3,16,02,49,295,29,24,02,026,,22,08,331,,23,00,055,*7B
$GPGSV,4,4,16,36,35,170,42,34,31,208,,49,34,195,37,61,03,257,33*75
$GLGSV,2,1,08,84,72,052,36,76,13,336,39,75,12,279,36,70,19,193,*66
$GLGSV,2,2,08,83,16,112,,68,36,037,46,85,37,315,50,69,69,119,39*66
$GAGSV,3,1,10,26,75,051,50,29,17,168,28,13,25,092,25,14,31,159,*67
$GAGSV,3,2,10,23,19,229,,31,28,283,45,08,27,049,34,07,43,112,38*66
$GAGSV,3,3,10,33,45,291,37,24,09,332,33*6B
$GBGSV,5,1,19,27,82,285,47,32,20,204,34,60,11,109,,14,19,044,30*66
$GBGSV,5,2,19,05,24,128,,13,15,056,27,39,12,072,,30,30,304,32*66
$GBGSV,5,3,19,28,48,129,43,33,44,055,40,41,67,156,50,57,64,270,*6C
$GBGSV,5,4,19,02,09,105,,36,02,296,23,08,06,054,,16,08,081,*6F
$GBGSV,5,5,19,45,01,340,,09,03,095,,06,07,084,*5F
$GPGGA,223047.00,,,,,0,00,,,M,,M,,*48
$PTNL,GGK,223047.00,010125,4742.4458780,N,01617.9733416,E,1,19,1.4,EHT668.4605,M*43
$GPGGQ,223047.00,010125,4742.4458780,N,01617.9733416,E,1,19,7.077,625.2495,M*3B
$GPGFA,223047.00,23.852,52.876,2.509,1.487,296.340,6.448,,VVV*03
$GPLLK,223047.00,010125,,M,,M,1,19,1.6,,M*04
$GNGMP,223047.00,,,,,DAAA,19,0.8,,,,*56
$GPGMP,223047.00,,,,,,05,,,,2.0,123*7A
$GLGMP,223047.00,,,,,,06,,,,,*79
$GAGMP,223047.00,,,,,,04,,,,,*76
$GBGMP,223047.00,,,,,,04,,,,,*75
$PSSN,SNC,[0,340265000,2347]*42
$GPZDA,223052.00,01,01,2025,,*67
$GPDTM,W84,,00.0000000,N,00.0000000,E,00.0000000,W84*5F
$GPRMC,223052.00,A,4742.4458839,N,01617.9733417,E,0.0,,010125,5.1,E,D*1E
$GPGLL,4742.4458839,N,01617.9733417,E,223052.00,A,D*6F
$GPGGA,223052.00,4742.4458839,N,01617.9733417,E,2,17,0.8,625.2564,M,43.2110,M,3.0,0123*4E
$GNGNS,223052.00,4742.4458839,N,01617.9733417,E,DAAA,17,0.8,625.2564,43.2110,,*51
$GPGNS,223052.00,,,,,,05,,,,3.0,123*7F
$GLGNS,223052.00,,,,,,05,,,,,*7E
$GAGNS,223052.00,,,,,,03,,,,,*75
$GBGNS,223052.00,,,,,,04,,,,,*71
$GPLLQ,223052.00,010125,,M,,M,1,17,4.536,,M*17
$GPVTG,,T,,M,0.00,N,0.01,K,D*27
$GPHDT,,T*1B
$GPTHS,,V*0E
$GPROT,,V*08
$PSSN,HRP,223052.00,010125,,,,,,,00,0,,*65
$PTNL,AVR,223052.00,,Yaw,,Tilt,,,,0,,00*33
$GPGSA,A,3,08,10,21,27,32,,,,,,,,1.5,0.8,1.3*32
$GPGSA,A,3,68,69,76,84,85,,,,,,,,1.5,0.8,1.3*3D
$GPGSA,A,3,07,26,31,,,,,,,,,,1.5,0.8,1.3*3D
$GPGSA,A,3,27,28,33,41,,,,,,,,,1.5,0.8,1.3*36
$GPGST,223052.00,7.005,1.630,0.881,294.783,1.052,1.526,4.141*51
$GPGBS,223052.00,4.103,6.882,14.490,76,0.0001,18.233,6.319*57
$GPGRS,223052.00,1,0.1,-0.5,-0.4,0.3,0.0,,,,,,,*67
$GPGRS,223052.00,1,11.4,-0.3,18.2,-4.0,0.6,,,,,,,*6A
$GPGRS,223052.00,1,-0.0,0.1,-1.6,,,,,,,,,*62
$GPGRS,223052.00,1,-2.0,0.5,2.0,-0.5,,,,,,,,*4A
$GPGSV,4,1,16,21,71,308,42,03,15,233,,14,15,313,27,10,40,054,44*77
$GPGSV,4,2,16,27,33,163,38,01,44,288,,32,46,101,42,08,61,198,48*77
$GPGSV,4,3,16,02,49,295,,24,02,026,,22,08,331,,23,00,055,*70
$GPGSV,4,4,16,36,35,170,42,34,31,208,,49,34,195,36,61,03,257,29*7F
$GLGSV,2,1,08,84,72,052,36,76,13,336,41,75,12,279,32,70,19,193,*6D
$GLGSV,2,2,08,83,16,113,,68,36,037,47,85,37,315,51,69,69,119,37*69
$GAGSV,3,1,10,26,75,051,50,29,17,168,29,13,25,092,25,14,31,159,*66
$GAGSV,3,2,10,23,19,229,,31,28,283,45,08,27,049,32,07,43,112,38*60
$GAGSV,3,3,10,33,45,291,34,24,09,331,34*6C
$GBGSV,5,1,19,27,82,285,47,32,20,204,35,60,11,109,,14,19,044,29*6F
$GBGSV,5,2,19,05,24,128,,13,15,056,28,39,12,071,,30,30,304,32*6A
$GBGSV,5,3,19,28,48,129,43,33,44,055,42,41,67,156,50,57,64,271,*6F
$GBGSV,5,4,19,02,09,105,,36,02,296,28,08,06,054,,16,08,081,*64
$GBGSV,5,5,19,45,01,340,,09,03,095,,06,07,084,*5F
$GPGGA,223052.00,,,,,0,00,,,M,,M,,*4C
$PTNL,GGK,223052.00,010125,4742.4458839,N,01617.9733417,E,1,17,1.5,EHT668.4674,M*42
$GPGGQ,223052.00,010125,4742.4458839,N,01617.9733417,E,1,17,4.536,625.2564,M*31
$GPGFA,223052.00,15.500,33.953,1.630,0.881,294.783,4.141,,VVV*0F
$GPLLK,223052.00,010125,,M,,M,1,17,1.8,,M*00
$GNGMP,223052.00,,,,,DAAA,17,0.8,,,,*5C
$GPGMP,223052.00,,,,,,05,,,,3.0,123*7F
$GLGMP,223052.00,,,,,,05,,,,,*7E
$GAGMP,223052.00,,,,,,03,,,,,*75
$GBGMP,223052.00,,,,,,04,,,,,*71
$PSSN,SNC,[0,340270000,2347]*46
$GPZDA,223057.00,01,01,2025,,*62
$GPDTM,W84,,00.0000000,N,00.0000000,E,00.0000000,W84*5F
$GPRMC,223057.00,A,4742.4458819,N,01617.9733450,E,0.0,,010125,5.1,E,D*1A
$GPGLL,4742.4458819,N,01617.9733450,E,223057.00,A,D*6B
$GPGGA,223057.00,4742.4458819,N,01617.9733450,E,2,17,0.8,625.2591,M,43.2110,M,2.4,0123*45
$GNGNS,223057.00,4742.4458819,N,01617.9733450,E,DAAA,17,0.8,625.2591,43.2110,,*5F
$GPGNS,223057.00,,,,,,05,,,,2.4,123*7F
$GLGNS,223057.00,,,,,,05,,,,,*7B
$GAGNS,223057.00,,,,,,03,,,,,*70
$GBGNS,223057.00,,,,,,04,,,,,*74
$GPLLQ,223057.00,010125,,M,,M,1,17,5.340,,M*14
$GPVTG,,T,,M,0.00,N,0.00,K,D*26
$GPHDT,,T*1B
$GPTHS,,V*0E
$GPROT,,V*08
$PSSN,HRP,223057.00,010125,,,,,,,00,0,,*60
$PTNL,AVR,223057.00,,Yaw,,Tilt,,,,0,,00*36
$GPGSA,A,3,08,10,21,27,32,,,,,,,,1.5,0.8,1.3*32
$GPGSA,A,3,68,69,76,84,85,,,,,,,,1.5,0.8,1.3*3D
$GPGSA,A,3,07,26,31,,,,,,,,,,1.5,0.8,1.3*3D
$GPGSA,A,3,27,28,33,41,,,,,,,,,1.5,0.8,1.3*36
$GPGST,223057.00,7.673,1.917,1.038,294.241,1.231,1.799,4.875*56
$GPGBS,223057.00,4.080,6.886,14.034,76,0.0001,18.506,6.320*5D
$GPGRS,223057.00,1,0.5,0.0,-0.1,-1.4,0.1,,,,,,,*61
$GPGRS,223057.00,1,14.5,2.9,18.5,-4.1,-1.1,,,,,,,*63
$GPGRS,223057.00,1,-0.4,0.7,-1.6,,,,,,,,,*65
$GPGRS,223057.00,1,-1.8,0.7,0.9,-0.4,,,,,,,,*4C
$GPGSV,4,1,16,21,71,308,42,03,15,233,,14,15,313,29,10,40,054,43*7E
$GPGSV,4,2,16,27,33,163,35,01,44,288,,32,46,101,41,08,61,198,48*79
$GPGSV,4,3,16,02,49,295,,24,02,026,,22,08,331,,23,00,055,*70
$GPGSV,4,4,16,36,35,170,42,34,31,208,,49,34,195,38,61,03,257,30*79
$GLGSV,2,1,08,84,72,052,36,76,13,336,41,75,12,279,23,70,19,193,*6D
$GLGSV,2,2,08,83,16,113,,68,36,037,46,85,37,315,51,69,69,119,40*68
$GAGSV,3,1,10,26,75,051,50,29,17,168,28,13,25,092,34,14,31,159,*67
$GAGSV,3,2,10,23,19,229,,31,28,283,44,08,27,049,33,07,43,112,38*60
$GAGSV,3,3,10,33,45,291,32,24,09,331,35*6B
$GBGSV,5,1,19,27,82,285,47,32,20,204,34,60,11,109,,14,19,044,28*6F
$GBGSV,5,2,19,05,24,128,,13,15,056,26,39,12,071,,30,30,304,31*67
$GBGSV,5,3,19,28,48,129,44,33,44,055,44,41,67,156,49,57,64,271,*66
$GBGSV,5,4,19,02,09,105,,36,02,296,,08,06,054,,16,08,081,*6E
$GBGSV,5,5,19,45,01,340,,09,03,095,,06,07,084,*5F
$GPGGA,223057.00,,,,,0,00,,,M,,M,,*49
$PTNL,GGK,223057.00,010125,4742.4458819,N,01617.9733450,E,1,17,1.5,EHT668.4701,M*45
$GPGGQ,223057.00,010125,4742.4458819,N,01617.9733450,E,1,17,5.340,625.2591,M*39
$GPGFA,223057.00,18.223,39.975,1.917,1.038,294.241,4.875,,VVV*0B
$GPLLK,223057.00,010125,,M,,M,1,17,1.8,,M*05
$GNGMP,223057.00,,,,,DAAA,17,0.8,,,,*59
$GPGMP,223057.00,,,,,,05,,,,2.4,123*7F
$GLGMP,223057.00,,,,,,05,,,,,*7B
$GAGMP,223057.00,,,,,,03,,,,,*70
$GBGMP,223057.00,,,,,,04,,,,,*74
$PSSN,SNC,[0,340275000,2347]*43
$GPZDA,223102.00,01,01,2025,,*63
$GPDTM,W84,,00.0000000,N,00.0000000,E,00.0000000,W84*5F
$GPRMC,223102.00,A,4742.4458795,N,01617.9733435,E,0.0,,010125,5.1,E,D*13
$GPGLL,4742.4458795,N,01617.9733435,E,223102.00,A,D*62
$GPGGA,223102.00,4742.4458795,N,01617.9733435,E,2,20,0.7,625.2570,M,43.2110,M,2.8,0123*44
$GNGNS,223102.00,4742.4458795,N,01617.9733435,E,DAAA,20,0.7,625.2570,43.2110,,*52
$GPGNS,223102.00,,,,,,04,,,,2.8,123*73
$GLGNS,223102.00,,,,,,05,,,,,*7A
$GAGNS,223102.00,,,,,,05,,,,,*77
$GBGNS,223102.00,,,,,,06,,,,,*77
$GPLLQ,223102.00,010125,,M,,M,1,20,7.630,,M*11
$GPVTG,,T,,M,0.00,N,0.01,K,D*27
$GPHDT,,T*1B
$GPTHS,,V*0E
$GPROT,,V*08
$PSSN,HRP,223102.00,010125,,,,,,,00,0,,*61
$PTNL,AVR,223102.00,,Yaw,,Tilt,,,,0,,00*37
$GPGSA,A,3,08,10,21,32,,,,,,,,,1.3,0.7,1.1*3C
$GPGSA,A,3,68,69,76,84,85,,,,,,,,1.3,0.7,1.1*36
$GPGSA,A,3,07,24,26,31,33,,,,,,,,1.3,0.7,1.1*30
$GPGSA,A,3,27,28,30,32,33,41,,,,,,,1.3,0.7,1.1*3F
$GPGST,223102.00,10.180,2.067,1.676,83.433,1.681,2.062,7.151*5F
$GPGBS,223102.00,5.867,5.053,19.383,30,0.0001,31.183,8.582*5D
$GPGRS,223102.00,1,-0.3,-0.9,-0.2,0.7,,,,,,,,*6C
$GPGRS,223102.00,1,6.9,-0.6,13.9,-5.1,-2.7,,,,,,,*7E
$GPGRS,223102.00,1,0.1,-1.6,0.3,-2.0,2.5,,,,,,,*60
$GPGRS,223102.00,1,-1.5,0.7,31.2,9.1,0.4,-0.3,,,,,,*72
$GPGSV,4,1,15,21,71,308,43,03,15,233,,14,15,313,28,10,40,054,41*7F
$GPGSV,4,2,15,27,33,163,32,01,44,288,,32,46,100,41,08,61,198,48*7C
$GPGSV,4,3,15,02,49,295,32,22,08,331,,24,02,026,,36,35,170,41*73
$GPGSV,4,4,15,34,31,208,,49,34,195,38,61,03,257,*4A
$GLGSV,2,1,08,84,72,052,36,76,13,336,37,75,12,279,32,70,19,193,*6C
$GLGSV,2,2,08,83,16,113,,68,36,037,45,85,37,315,50,69,70,119,39*6C
$GAGSV,3,1,10,26,75,051,50,29,17,168,31,13,25,092,35,14,31,159,*6E
$GAGSV,3,2,10,23,19,229,,31,28,283,43,08,27,049,31,07,43,112,39*64
$GAGSV,3,3,10,33,45,291,39,24,09,331,35*60
$GBGSV,5,1,19,27,82,284,46,32,20,204,36,60,11,109,,14,19,044,31*65
$GBGSV,5,2,19,05,24,128,,13,15,056,28,39,12,071,,30,30,304,36*6E
$GBGSV,5,3,19,28,48,129,44,33,44,055,45,41,67,156,49,57,64,271,*67
$GBGSV,5,4,19,02,09,105,,36,02,296,,08,06,054,,16,08,081,*6E
$GBGSV,5,5,19,45,01,340,,09,03,095,,06,07,084,*5F
$GPGGA,223102.00,,,,,0,00,,,M,,M,,*48
$PTNL,GGK,223102.00,010125,4742.4458795,N,01617.9733435,E,1,20,1.3,EHT668.4681,M*47
$GPGGQ,223102.00,010125,4742.4458795,N,01617.9733435,E,1,20,7.630,625.2570,M*3B
$GPGFA,223102.00,19.649,58.636,2.067,1.676,83.433,7.151,,VVV*36
$GPLLK,223102.00,010125,,M,,M,1,20,1.5,,M*0D
$GNGMP,223102.00,,,,,DAAA,20,0.7,,,,*53
$GPGMP,223102.00,,,,,,04,,,,2.8,123*73
$GLGMP,223102.00,,,,,,05,,,,,*7A
$GAGMP,223102.00,,,,,,05,,,,,*77
$GBGMP,223102.00,,,,,,06,,,,,*77
$PSSN,SNC,[0,340280000,2347]*49
$GPZDA,223107.00,01,01,2025,,*66
$GPDTM,W84,,00.0000000,N,00.0000000,E,00.0000000,W84*5F
$GPRMC,223107.00,A,4742.4458832,N,01617.9733521,E,0.0,,010125,5.1,E,D*10
$GPGLL,4742.4458832,N,01617.9733521,E,223107.00,A,D*61
$GPGGA,223107.00,4742.4458832,N,01617.9733521,E,2,17,0.8,625.2499,M,43.2110,M,1.8,0123*49
$GNGNS,223107.00,4742.4458832,N,01617.9733521,E,DAAA,17,0.8,625.2499,43.2110,,*5C
$GPGNS,223107.00,,,,,,04,,,,1.8,123*75
$GLGNS,223107.00,,,,,,04,,,,,*7E
$GAGNS,223107.00,,,,,,03,,,,,*74
$GBGNS,223107.00,,,,,,06,,,,,*72
$GPLLQ,223107.00,010125,,M,,M,1,17,7.441,,M*14
$GPVTG,,T,,M,0.01,N,0.01,K,D*26
$GPHDT,,T*1B
$GPTHS,,V*0E
$GPROT,,V*08
$PSSN,HRP,223107.00,010125,,,,,,,00,0,,*64
$PTNL,AVR,223107.00,,Yaw,,Tilt,,,,0,,00*32
$GPGSA,A,3,08,10,21,32,,,,,,,,,1.5,0.8,1.3*37
$GPGSA,A,3,68,69,84,85,,,,,,,,,1.5,0.8,1.3*3C
$GPGSA,A,3,07,26,31,,,,,,,,,,1.5,0.8,1.3*3D
$GPGSA,A,3,27,28,30,32,33,41,,,,,,,1.5,0.8,1.3*34
$GPGST,223107.00,7.506,1.965,1.348,88.992,1.348,1.965,7.049*6E
$GPGBS,223107.00,5.529,6.536,23.364,30,0.0001,22.637,8.580*52
$GPGRS,223107.00,1,-0.1,-1.3,0.9,0.5,,,,,,,,*44
$GPGRS,223107.00,1,2.0,-0.7,-4.9,-1.7,,,,,,,,*68
$GPGRS,223107.00,1,-0.8,0.6,-2.3,,,,,,,,,*6A
$GPGRS,223107.00,1,-0.7,1.0,22.6,-3.1,0.5,-0.2,,,,,,*53
$GPGSV,4,1,15,21,71,308,43,03,15,233,,14,15,313,25,10,40,054,39*7D
$GPGSV,4,2,15,27,33,163,33,01,44,288,,32,46,100,40,08,61,198,48*7C
$GPGSV,4,3,15,02,49,296,34,22,08,331,,24,02,026,,36,35,170,41*76
$GPGSV,4,4,15,34,31,208,,49,34,195,37,61,03,257,*45
$GLGSV,2,1,08,84,72,052,36,76,13,336,35,75,11,279,28,70,19,193,*66
$GLGSV,2,2,08,83,16,113,,68,36,037,45,85,37,315,51,69,70,119,38*6C
$GAGSV,3,1,10,26,75,051,50,29,17,168,32,13,25,092,34,14,31,159,*6C
$GAGSV,3,2,10,23,19,228,,31,28,283,43,08,27,049,31,07,43,112,38*64
$GAGSV,3,3,10,33,45,291,32,24,09,331,35*6B
$GBGSV,5,1,19,27,82,284,47,32,20,204,42,60,11,109,,14,19,044,30*66
$GBGSV,5,2,19,05,24,128,,13,15,056,27,39,12,071,,30,30,304,37*60
$GBGSV,5,3,19,28,48,129,44,33,44,055,45,41,67,156,49,57,64,271,*67
$GBGSV,5,4,19,02,09,105,,36,02,295,,08,06,054,,16,08,081,*6D
$GBGSV,5,5,19,45,01,340,,09,03,095,,06,07,084,*5F
$GPGGA,223107.00,,,,,0,00,,,M,,M,,*4D
$PTNL,GGK,223107.00,010125,4742.4458832,N,01617.9733521,E,1,17,1.5,EHT668.4610,M*4E
$GPGGQ,223107.00,010125,4742.4458832,N,01617.9733521,E,1,17,7.441,625.2499,M*3E
$GPGFA,223107.00,18.680,57.801,1.965,1.348,88.992,7.049,,VVV*37
$GPLLK,223107.00,010125,,M,,M,1,17,1.8,,M*01
$GNGMP,223107.00,,,,,DAAA,17,0.8,,,,*5D
$GPGMP,223107.00,,,,,,04,,,,1.8,123*75
$GLGMP,223107.00,,,,,,04,,,,,*7E
$GAGMP,223107.00,,,,,,03,,,,,*74
$GBGMP,223107.00,,,,,,06,,,,,*72
$PSSN,SNC,[0,340285000,2347]*4C
$GPZDA,223112.00,01,01,2025,,*62
$GPDTM,W84,,00.0000000,N,00.0000000,E,00.0000000,W84*5F
$GPRMC,223112.00,A,4742.4458849,N,01617.9733613,E,0.0,,010125,5.1,E,D*1A
$GPGLL,4742.4458849,N,01617.9733613,E,223112.00,A,D*6B
$GPGGA,223112.00,4742.4458849,N,01617.9733613,E,2,19,0.8,625.2438,M,43.2110,M,2.8,0123*45
$GNGNS,223112.00,4742.4458849,N,01617.9733613,E,DAAA,19,0.8,625.2438,43.2110,,*53
$GPGNS,223112.00,,,,,,04,,,,2.8,123*72
$GLGNS,223112.00,,,,,,05,,,,,*7B
$GAGNS,223112.00,,,,,,04,,,,,*77
$GBGNS,223112.00,,,,,,06,,,,,*76
$GPLLQ,223112.00,010125,,M,,M,1,19,6.510,,M*1A
$GPVTG,,T,,M,0.01,N,0.01,K,D*26
$GPHDT,,T*1B
$GPTHS,,V*0E
$GPROT,,V*08
$PSSN,HRP,223112.00,010125,,,,,,,00,0,,*60
$PTNL,AVR,223112.00,,Yaw,,Tilt,,,,0,,00*36
$GPGSA,A,3,08,10,21,32,,,,,,,,,1.3,0.8,1.1*33
$GPGSA,A,3,68,69,76,84,85,,,,,,,,1.3,0.8,1.1*39
$GPGSA,A,3,07,24,26,31,,,,,,,,,1.3,0.8,1.1*3F
$GPGSA,A,3,27,28,30,32,33,41,,,,,,,1.3,0.8,1.1*30
$GPGST,223112.00,8.087,1.772,1.431,87.111,1.432,1.771,6.098*68
$GPGBS,223112.00,5.825,5.122,19.175,32,0.0001,26.395,8.628*54
$GPGRS,223112.00,1,-0.2,-1.4,1.2,0.2,,,,,,,,*49
$GPGRS,223112.00,1,3.5,0.9,-5.0,-4.3,-1.4,,,,,,,*44
$GPGRS,223112.00,1,-1.2,-2.2,0.6,-1.8,,,,,,,,*6E
$GPGRS,223112.00,1,0.2,1.5,-3.7,26.4,-0.4,-0.2,,,,,,*56
$GPGSV,4,1,15,21,71,308,44,03,15,233,,14,15,313,28,10,40,054,40*79
$GPGSV,4,2,15,27,33,163,31,01,44,288,,32,46,100,41,08,61,198,48*7F
$GPGSV,4,3,15,02,49,296,37,22,08,331,,24,02,026,,36,35,170,41*75
$GPGSV,4,4,15,34,31,208,,49,34,195,36,61,03,257,*44
$GLGSV,2,1,08,84,72,053,36,76,13,336,39,75,11,279,31,70,19,193,*63
$GLGSV,2,2,08,83,16,113,,68,36,037,44,85,37,315,50,69,70,119,37*63
$GAGSV,3,1,10,26,75,051,50,29,17,168,32,13,25,092,34,14,31,159,*6C
$GAGSV,3,2,10,23,19,228,,31,28,283,43,08,27,049,34,07,43,112,36*6F
$GAGSV,3,3,10,33,45,291,35,24,09,331,36*6F
$GBGSV,5,1,19,27,82,284,47,32,20,204,35,60,11,109,,14,19,044,28*6F
$GBGSV,5,2,19,05,24,128,,13,15,056,23,39,12,071,,30,30,304,45*61
$GBGSV,5,3,19,28,48,129,44,33,44,055,45,41,67,156,49,57,64,271,*67
$GBGSV,5,4,19,02,09,105,,36,02,295,33,08,06,054,,16,08,081,*6D
$GBGSV,5,5,19,45,01,340,,09,03,095,,06,07,084,*5F
$GPGGA,223112.00,,,,,0,00,,,M,,M,,*49
$PTNL,GGK,223112.00,010125,4742.4458849,N,01617.9733613,E,1,19,1.3,EHT668.4548,M*42
$GPGGQ,223112.00,010125,4742.4458849,N,01617.9733613,E,1,19,6.510,625.2438,M*35
$GPGFA,223112.00,16.847,50.004,1.772,1.431,87.111,6.098,,VVV*32
$GPLLK,223112.00,010125,,M,,M,1,19,1.6,,M*05
$GNGMP,223112.00,,,,,DAAA,19,0.8,,,,*57
$GPGMP,223112.00,,,,,,04,,,,2.8,123*72
$GLGMP,223112.00,,,,,,05,,,,,*7B
$GAGMP,223112.00,,,,,,04,,,,,*77
$GBGMP,223112.00,,,,,,06,,,,,*76
$PSSN,SNC,[0,340290000,2347]*48
$GPZDA,223117.00,01,01,2025,,*67
$GPDTM,W84,,00.0000000,N,00.0000000,E,00.0000000,W84*5F
$GPRMC,223117.00,A,4742.4458878,N,01617.9733692,E,0.0,,010125,5.1,E,D*14
$GPGLL,4742.4458878,N,01617.9733692,E,223117.00,A,D*65
$GPGGA,223117.00,4742.4458878,N,01617.9733692,E,2,19,0.7,625.2373,M,43.2110,M,2.8,0123*4C
$GNGNS,223117.00,4742.4458878,N,01617.9733692,E,DAAA,19,0.7,625.2373,43.2110,,*5A
$GPGNS,223117.00,,,,,,04,,,,2.8,123*77
$GLGNS,223117.00,,,,,,04,,,,,*7F
$GAGNS,223117.00,,,,,,05,,,,,*73
$GBGNS,223117.00,,,,,,06,,,,,*73
$GPLLQ,223117.00,010125,,M,,M,1,19,7.260,,M*1E
$GPVTG,,T,,M,0.00,N,0.01,K,D*27
$GPHDT,,T*1B
$GPTHS,,V*0E
$GPROT,,V*08
$PSSN,HRP,223117.00,010125,,,,,,,00,0,,*65
$PTNL,AVR,223117.00,,Yaw,,Tilt,,,,0,,00*33
$GPGSA,A,3,08,10,21,32,,,,,,,,,1.4,0.7,1.1*3B
$GPGSA,A,3,68,69,84,85,,,,,,,,,1.4,0.7,1.1*30
$GPGSA,A,3,07,24,26,31,33,,,,,,,,1.4,0.7,1.1*37
$GPGSA,A,3,27,28,30,32,33,41,,,,,,,1.4,0.7,1.1*38
$GPGST,223117.00,7.773,1.943,1.396,87.991,1.397,1.943,6.855*66
$GPGBS,223117.00,5.882,6.210,23.741,32,0.0001,25.580,8.628*54
$GPGRS,223117.00,1,-0.4,-1.7,0.8,0.8,,,,,,,,*48
$GPGRS,223117.00,1,2.9,-0.4,-4.0,-1.9,,,,,,,,*64
$GPGRS,223117.00,1,-1.5,-2.0,0.2,-2.1,1.3,,,,,,,*4C
$GPGRS,223117.00,1,-0.0,2.8,-4.1,25.6,-1.1,-0.2,,,,,,*76
$GPGSV,4,1,15,21,71,308,45,03,15,233,,14,15,313,25,10,40,054,38*7A
$GPGSV,4,2,15,27,33,163,33,01,44,288,,32,46,100,38,08,61,198,48*73
$GPGSV,4,3,15,02,49,296,41,22,08,331,,24,02,026,,36,35,170,41*74
$GPGSV,4,4,15,34,31,208,,49,34,195,37,61,03,257,*45
$GLGSV,2,1,08,84,72,053,35,76,13,336,27,75,11,279,31,70,19,193,*6F
$GLGSV,2,2,08,83,16,113,,68,36,037,44,85,37,315,50,69,70,119,39*6D
$GAGSV,3,1,10,26,75,051,50,29,17,168,32,13,25,092,33,14,31,159,*6B
$GAGSV,3,2,10,23,19,228,,31,27,283,42,08,27,049,33,07,43,112,38*68
$GAGSV,3,3,10,33,45,291,37,24,09,331,35*6E
$GBGSV,5,1,19,27,82,284,48,32,20,204,35,60,10,109,,14,19,044,24*6D
$GBGSV,5,2,19,05,24,128,,13,15,056,25,39,12,071,,30,30,304,37*62
$GBGSV,5,3,19,28,48,129,44,33,44,055,44,41,67,155,48,57,64,271,*64
$GBGSV,5,4,19,02,09,105,,36,02,295,19,08,06,054,,16,08,081,*65
$GBGSV,5,5,19,45,01,340,,09,03,095,,06,07,084,*5F
$GPGGA,223117.00,,,,,0,00,,,M,,M,,*4C
$PTNL,GGK,223117.00,010125,4742.4458878,N,01617.9733692,E,1,19,1.4,EHT668.4483,M*4D
$GPGGQ,223117.00,010125,4742.4458878,N,01617.9733692,E,1,19,7.260,625.2373,M*32
$GPGFA,223117.00,18.476,56.210,1.943,1.396,87.991,6.855,,VVV*39
$GPLLK,223117.00,010125,,M,,M,1,19,1.6,,M*00
$GNGMP,223117.00,,,,,DAAA,19,0.7,,,,*5D
$GPGMP,223117.00,,,,,,04,,,,2.8,123*77
$GLGMP,223117.00,,,,,,04,,,,,*7F
$GAGMP,223117.00,,,,,,05,,,,,*73
$GBGMP,223117.00,,,,,,06,,,,,*73
$PSSN,SNC,[0,340295000,2347]*4D
$GPZDA,223122.00,01,01,2025,,*61
$GPDTM,W84,,00.0000000,N,00.0000000,E,00.0000000,W84*5F
$GPRMC,223122.00,A,4742.4458892,N,01617.9733747,E,0.0,,010125,5.1,E,D*1F
$GPGLL,4742.4458892,N,01617.9733747,E,223122.00,A,D*6E
$GPGGA,223122.00,4742.4458892,N,01617.9733747,E,2,17,1.0,625.2255,M,43.2111,M,1.8,0123*48
$GNGNS,223122.00,4742.4458892,N,01617.9733747,E,DAAA,17,1.0,625.2255,43.2111,,*5D
$GPGNS,223122.00,,,,,,04,,,,1.8,123*72
$GLGNS,223122.00,,,,,,03,,,,,*7E
$GAGNS,223122.00,,,,,,05,,,,,*75
$GBGNS,223122.00,,,,,,05,,,,,*76
$GPLLQ,223122.00,010125,,M,,M,1,17,4.953,,M*1E
$GPVTG,,T,,M,0.00,N,0.01,K,D*27
$GPHDT,,T*1B
$GPTHS,,V*0E
$GPROT,,V*08
$PSSN,HRP,223122.00,010125,,,,,,,00,0,,*63
$PTNL,AVR,223122.00,,Yaw,,Tilt,,,,0,,00*35
$GPGSA,A,3,08,10,21,32,,,,,,,,,1.8,1.0,1.5*35
$GPGSA,A,3,68,69,85,,,,,,,,,,1.8,1.0,1.5*32
$GPGSA,A,3,07,24,26,31,33,,,,,,,,1.8,1.0,1.5*39
$GPGSA,A,3,27,28,30,33,41,,,,,,,,1.8,1.0,1.5*37
$GPGST,223122.00,4.185,1.311,0.937,83.859,0.943,1.307,4.684*68
$GPGBS,223122.00,5.763,7.016,26.792,21,0.0001,0.943,0.618*61
$GPGRS,223122.00,1,-0.5,-0.6,0.9,0.0,,,,,,,,*46
$GPGRS,223122.00,1,2.2,0.6,-1.6,,,,,,,,,*4E
$GPGRS,223122.00,1,0.1,-1.5,0.2,-2.7,2.5,,,,,,,*67
$GPGRS,223122.00,1,-0.4,4.2,-11.4,-1.2,0.5,,,,,,,*7F
$GPGSV,4,1,15,21,71,308,46,03,15,233,,14,15,313,31,10,40,054,41*72
$GPGSV,4,2,15,27,33,163,29,01,44,288,,32,46,100,38,08,61,198,47*77
$GPGSV,4,3,15,02,49,296,41,22,08,331,,24,02,026,,36,35,170,40*75
$GPGSV,4,4,15,34,31,208,,49,34,195,37,61,03,257,*45
$GLGSV,2,1,08,84,72,053,35,76,13,335,31,75,11,279,31,70,19,193,*6B
$GLGSV,2,2,08,83,16,113,,68,36,037,45,85,37,315,50,69,70,118,41*62
$GAGSV,3,1,10,26,75,051,50,29,17,168,34,13,25,092,25,14,31,159,*6A
$GAGSV,3,2,10,23,19,228,,31,27,283,40,08,27,049,34,07,43,112,38*6D
$GAGSV,3,3,10,33,45,291,38,24,09,331,35*61
$GBGSV,5,1,19,27,82,284,48,32,20,204,34,60,10,109,,14,19,044,34*6D
$GBGSV,5,2,19,05,24,128,,13,15,056,19,39,12,071,,30,30,304,40*6D
$GBGSV,5,3,19,28,48,129,43,33,44,055,44,41,67,155,49,57,64,271,*62
$GBGSV,5,4,19,02,09,105,,36,02,295,25,08,06,054,,16,08,081,*6A
$GBGSV,5,5,19,45,01,340,,09,03,095,,06,07,084,*5F
$GPGGA,223122.00,,,,,0,00,,,M,,M,,*4A
$PTNL,GGK,223122.00,010125,4742.4458892,N,01617.9733747,E,1,17,1.8,EHT668.4366,M*48
$GPGGQ,223122.00,010125,4742.4458892,N,01617.9733747,E,1,17,4.953,625.2255,M*3A
$GPGFA,223122.00,12.463,38.408,1.311,0.937,83.859,4.684,,VVV*3A
$GPLLK,223122.00,010125,,M,,M,1,17,2.2,,M*0F
$GNGMP,223122.00,,,,,DAAA,17,1.0,,,,*53
$GPGMP,223122.00,,,,,,04,,,,1.8,123*72
$GLGMP,223122.00,,,,,,03,,,,,*7E
$GAGMP,223122.00,,,,,,05,,,,,*75
$GBGMP,223122.00,,,,,,05,,,,,*76
$PSSN,SNC,[0,340300000,2347]*40
$GPZDA,223127.00,01,01,2025,,*64
$GPDTM,W84,,00.0000000,N,00.0000000,E,00.0000000,W84*5F
$GPRMC,223127.00,A,4742.4458846,N,01617.9733803,E,0.0,,010125,5.1,E,D*1C
$GPGLL,4742.4458846,N,01617.9733803,E,223127.00,A,D*6D
$GPGGA,223127.00,4742.4458846,N,01617.9733803,E,2,19,0.9,625.2271,M,43.2111,M,2.6,0123*46
$GNGNS,223127.00,4742.4458846,N,01617.9733803,E,DAAA,19,0.9,625.2271,43.2111,,*5E
$GPGNS,223127.00,,,,,,05,,,,2.6,123*7B
$GLGNS,223127.00,,,,,,04,,,,,*7C
$GAGNS,223127.00,,,,,,05,,,,,*70
$GBGNS,223127.00,,,,,,05,,,,,*73
$GPLLQ,223127.00,010125,,M,,M,1,19,4.396,,M*16
$GPVTG,,T,,M,0.01,N,0.01,K,D*26
$GPHDT,,T*1B
$GPTHS,,V*0E
$GPROT,,V*08
$PSSN,HRP,223127.00,010125,,,,,,,00,0,,*66
$PTNL,AVR,223127.00,,Yaw,,Tilt,,,,0,,00*30
$GPGSA,A,3,02,08,10,21,32,,,,,,,,1.6,0.9,1.3*37
$GPGSA,A,3,68,69,75,85,,,,,,,,,1.6,0.9,1.3*30
$GPGSA,A,3,07,08,26,31,33,,,,,,,,1.6,0.9,1.3*37
$GPGSA,A,3,27,28,30,33,41,,,,,,,,1.6,0.9,1.3*37
$GPGST,223127.00,4.560,1.257,0.820,19.056,1.218,0.877,4.132*61
$GPGBS,223127.00,5.944,4.285,21.243,08,0.0001,-1.426,0.627*4F
$GPGRS,223127.00,1,0.5,-1.4,-0.5,0.6,0.5,,,,,,,*61
$GPGRS,223127.00,1,2.0,1.6,12.5,-2.5,,,,,,,,*50
$GPGRS,223127.00,1,-1.1,4.8,-0.5,-3.1,1.8,,,,,,,*48
$GPGRS,223127.00,1,-1.2,3.6,-4.7,-1.5,-0.9,,,,,,,*6F
$GPGSV,4,1,15,21,71,308,45,03,15,233,,14,15,313,23,10,40,054,43*70
$GPGSV,4,2,15,27,33,163,22,01,44,288,,32,46,100,38,08,61,198,46*7D
$GPGSV,4,3,15,02,49,296,39,22,08,331,,24,02,026,,36,35,170,41*7B
$GPGSV,4,4,15,34,31,208,,49,34,195,37,61,03,257,*45
$GLGSV,2,1,08,84,72,053,34,76,13,335,34,75,11,279,39,70,19,193,*67
$GLGSV,2,2,08,83,16,113,,68,36,037,44,85,37,315,49,69,70,118,41*6B
$GAGSV,3,1,10,26,75,051,49,29,17,168,32,13,25,092,20,14,31,159,*61
$GAGSV,3,2,10,23,19,228,,31,27,283,41,08,27,049,36,07,43,112,37*61
$GAGSV,3,3,10,33,45,291,38,24,09,331,35*61
$GBGSV,5,1,19,27,82,284,49,32,20,204,34,60,10,109,,14,19,044,34*6C
$GBGSV,5,2,19,05,24,128,,13,15,056,24,39,12,071,,30,30,304,41*62
$GBGSV,5,3,19,28,48,129,43,33,44,055,44,41,67,155,48,57,64,271,*63
$GBGSV,5,4,19,02,09,105,,36,02,295,26,08,06,054,,16,08,081,*69
$GBGSV,5,5,19,45,01,340,,09,03,095,,06,07,084,*5F
$GPGGA,223127.00,,,,,0,00,,,M,,M,,*4F
$PTNL,GGK,223127.00,010125,4742.4458846,N,01617.9733803,E,1,19,1.6,EHT668.4382,M*41
$GPGGQ,223127.00,010125,4742.4458846,N,01617.9733803,E,1,19,4.396,625.2271,M*32
$GPGFA,223127.00,11.949,33.881,1.257,0.820,19.056,4.132,,VVV*35
$GPLLK,223127.00,010125,,M,,M,1,19,1.9,,M*0C
$GNGMP,223127.00,,,,,DAAA,19,0.9,,,,*50
$GPGMP,223127.00,,,,,,05,,,,2.6,123*7B
$GLGMP,223127.00,,,,,,04,,,,,*7C
$GAGMP,223127.00,,,,,,05,,,,,*70
$GBGMP,223127.00,,,,,,05,,,,,*73
$PSSN,SNC,[0,340305000,2347]*45
$GPZDA,223132.00,01,01,2025,,*60
$GPDTM,W84,,00.0000000,N,00.0000000,E,00.0000000,W84*5F
$GPRMC,223132.00,A,4742.4458761,N,01617.9733649,E,0.0,,010125,5.1,E,D*12
$GPGLL,4742.4458761,N,01617.9733649,E,223132.00,A,D*63
$GPGGA,223132.00,4742.4458761,N,01617.9733649,E,2,19,0.9,625.2229,M,43.2110,M,2.8,0123*4A
$GNGNS,223132.00,4742.4458761,N,01617.9733649,E,DAAA,19,0.9,625.2229,43.2110,,*5C
$GPGNS,223132.00,,,,,,05,,,,2.8,123*71
$GLGNS,223132.00,,,,,,05,,,,,*79
$GAGNS,223132.00,,,,,,04,,,,,*75
$GBGNS,223132.00,,,,,,05,,,,,*77
$GPLLQ,223132.00,010125,,M,,M,1,19,4.598,,M*1A
$GPVTG,,T,,M,0.01,N,0.02,K,D*25
$GPHDT,,T*1B
$GPTHS,,V*0E
$GPROT,,V*08
$PSSN,HRP,223132.00,010125,,,,,,,00,0,,*62
$PTNL,AVR,223132.00,,Yaw,,Tilt,,,,0,,00*34
$GPGSA,A,3,02,08,10,21,32,,,,,,,,1.5,0.9,1.3*34
$GPGSA,A,3,68,69,75,76,85,,,,,,,,1.5,0.9,1.3*32
$GPGSA,A,3,07,08,26,31,,,,,,,,,1.5,0.9,1.3*34
$GPGSA,A,3,27,28,30,33,41,,,,,,,,1.5,0.9,1.3*34
$GPGST,223132.00,5.690,1.326,0.884,19.032,1.287,0.941,4.313*60
$GPGBS,223132.00,6.111,4.350,19.727,75,0.0001,11.164,6.321*55
$GPGRS,223132.00,1,-0.1,-0.8,1.3,0.5,-0.7,,,,,,,*47
$GPGRS,223132.00,1,4.4,5.1,11.2,-10.7,-1.6,,,,,,,*64
$GPGRS,223132.00,1,-0.4,7.8,-0.2,-2.2,,,,,,,,*69
$GPGRS,223132.00,1,-0.4,3.3,-4.3,0.3,-1.6,,,,,,,*49
$GPGSV,4,1,15,21,71,308,44,03,15,233,,14,15,313,,10,39,054,42*7F
$GPGSV,4,2,15,27,33,163,26,01,44,288,,32,46,100,35,08,61,198,46*74
$GPGSV,4,3,15,02,49,296,35,22,08,331,,24,02,026,,36,35,170,41*77
$GPGSV,4,4,15,34,31,208,,49,34,195,35,61,03,257,*47
$GLGSV,2,1,08,84,72,053,32,76,13,335,36,75,11,279,38,70,19,193,*62
$GLGSV,2,2,08,83,16,113,,68,36,037,45,85,37,315,50,69,70,118,40*63
$GAGSV,3,1,10,26,75,051,49,29,17,168,32,13,24,092,27,14,31,159,*67
