$GPZDA,232942.00,01,01,2025,,*6F
$GPDTM,W84,,00.0000000,N,00.0000000,E,00.0000000,W84*5F
$GPRMC,232942.00,A,4742.4462951,N,01617.9739592,E,0.0,,010125,5.1,E,D*16
$GPGLL,4742.4462951,N,01617.9739592,E,232942.00,A,D*67
$GPGGA,232942.00,4742.4462951,N,01617.9739592,E,2,16,0.9,624.7819,M,43.2110,M,2.8,0123*4C
$GNGNS,232942.00,4742.4462951,N,01617.9739592,E,DAAA,16,0.9,624.7819,43.2110,,*5A
$GPGNS,232942.00,,,,,,04,,,,2.8,123*7F
$GLGNS,232942.00,,,,,,03,,,,,*70
$GAGNS,232942.00,,,,,,05,,,,,*7B
$GBGNS,232942.00,,,,,,04,,,,,*79
$GPLLQ,232942.00,010125,,M,,M,1,16,3.688,,M*1F
$GPVTG,,T,,M,0.00,N,0.01,K,D*27
$GPHDT,,T*1B
$GPTHS,,V*0E
$GPROT,,V*08
$PSSN,HRP,232942.00,010125,,,,,,,00,0,,*6D
$PTNL,AVR,232942.00,,Yaw,,Tilt,,,,0,,00*3B
$GPGSA,A,3,02,03,21,32,,,,,,,,,1.6,0.9,1.3*3D
$GPGSA,A,3,69,85,86,,,,,,,,,,1.6,0.9,1.3*32
$GPGSA,A,3,07,24,26,29,33,,,,,,,,1.6,0.9,1.3*30
$GPGSA,A,3,27,30,32,41,,,,,,,,,1.6,0.9,1.3*3C
$GPGST,232942.00,4.045,2.708,0.785,340.018,2.559,1.183,2.378*59
$GPGBS,232942.00,10.940,5.212,9.205,03,0.0001,1.689,0.728*6C
$GPGRS,232942.00,1,0.0,1.7,-0.9,-0.2,,,,,,,,*4F
$GPGRS,232942.00,1,-0.6,1.8,-9.4,,,,,,,,,*6E
$GPGRS,232942.00,1,-0.4,-1.0,-1.0,6.6,-0.5,,,,,,,*6D
$GPGRS,232942.00,1,-0.7,-2.0,1.2,-0.3,,,,,,,,*6A
$GPGSV,4,1,16,21,82,101,42,08,34,185,33,10,16,062,,22,13,310,*75
$GPGSV,4,2,16,17,18,318,33,14,13,288,33,03,38,250,43,32,43,063,47*70
$GPGSV,4,3,16,01,68,305,,02,74,307,40,28,08,108,,27,08,165,*75
$GPGSV,4,4,16,36,35,170,42,34,31,208,,49,34,195,35,61,03,257,*77
$GLGSV,3,1,09,85,66,331,42,69,57,044,46,86,12,315,39,70,51,203,33*69
$GLGSV,3,2,09,84,52,119,33,77,08,351,32,76,06,309,30,68,08,033,27*6C
$GLGSV,3,3,09,71,05,209,*54
$GAGSV,4,1,13,33,64,309,49,08,14,036,25,12,11,293,30,31,16,263,32*6E
$GAGSV,4,2,13,24,14,314,36,29,40,163,40,07,50,081,43,26,60,096,44*62
$GAGSV,4,3,13,14,01,156,,23,01,218,,16,06,337,,13,09,108,*64
$GAGSV,4,4,13,19,04,192,*5C
$GBGSV,4,1,16,57,79,342,,16,19,075,,60,10,109,,33,23,049,29*65
$GBGSV,4,2,16,28,25,142,29,39,21,064,24,05,24,128,,06,19,079,25*69
$GBGSV,4,3,16,09,16,092,,32,45,213,36,30,52,300,44,27,69,166,48*6B
$GBGSV,4,4,16,41,72,076,39,29,01,315,,02,09,105,,13,09,067,*6F
$GPGGA,232942.00,,,,,0,00,,,M,,M,,*44
$PTNL,GGK,232942.00,010125,4742.4462951,N,01617.9739592,E,1,16,1.6,EHT667.9930,M*45
$GPGGQ,232942.00,010125,4742.4462951,N,01617.9739592,E,1,16,3.688,624.7819,M*3A
$GPGFA,232942.00,25.747,19.501,2.708,0.785,340.018,2.378,,VVV*07
$GPLLK,232942.00,010125,,M,,M,1,16,1.9,,M*08
$GNGMP,232942.00,,,,,DAAA,16,0.9,,,,*54
$GPGMP,232942.00,,,,,,04,,,,2.8,123*7F
$GLGMP,232942.00,,,,,,03,,,,,*70
$GAGMP,232942.00,,,,,,05,,,,,*7B
$GBGMP,232942.00,,,,,,04,,,,,*79
$PSSN,SNC,[0,343800000,2347]*48
$GPZDA,232947.00,01,01,2025,,*6A
$GPDTM,W84,,00.0000000,N,00.0000000,E,00.0000000,W84*5F
$GPRMC,232947.00,A,4742.4462969,N,01617.9739717,E,0.0,,010125,5.1,E,D*17
$GPGLL,4742.4462969,N,01617.9739717,E,232947.00,A,D*66
$GPGGA,232947.00,4742.4462969,N,01617.9739717,E,2,17,0.8,624.7771,M,43.2110,M,2.8,0123*4C
$GNGNS,232947.00,4742.4462969,N,01617.9739717,E,DAAA,17,0.8,624.7771,43.2110,,*5A
$GPGNS,232947.00,,,,,,04,,,,2.8,123*7A
$GLGNS,232947.00,,,,,,03,,,,,*75
$GAGNS,232947.00,,,,,,05,,,,,*7E
$GBGNS,232947.00,,,,,,05,,,,,*7D
$GPLLQ,232947.00,010125,,M,,M,1,17,3.344,,M*1E
$GPVTG,,T,,M,0.00,N,0.00,K,D*26
$GPHDT,,T*1B
$GPTHS,,V*0E
$GPROT,,V*08
$PSSN,HRP,232947.00,010125,,,,,,,00,0,,*68
$PTNL,AVR,232947.00,,Yaw,,Tilt,,,,0,,00*3E
$GPGSA,A,3,02,03,21,32,,,,,,,,,1.4,0.8,1.1*3C
$GPGSA,A,3,69,85,86,,,,,,,,,,1.4,0.8,1.1*33
$GPGSA,A,3,07,24,26,29,33,,,,,,,,1.4,0.8,1.1*31
$GPGSA,A,3,27,28,30,32,41,,,,,,,,1.4,0.8,1.1*37
$GPGST,232947.00,3.579,2.456,0.714,339.992,2.321,1.075,2.153*5E
$GPGBS,232947.00,10.541,5.036,8.624,21,0.0001,-0.978,0.594*4E
$GPGRS,232947.00,1,0.9,0.9,-1.0,-0.3,,,,,,,,*45
$GPGRS,232947.00,1,-0.5,2.8,-6.2,,,,,,,,,*62
$GPGRS,232947.00,1,-1.1,-2.0,-1.6,6.4,-1.0,,,,,,,*6F
$GPGRS,232947.00,1,-1.0,-4.7,-2.1,1.0,1.0,,,,,,,*45
$GPGSV,4,1,16,21,82,101,42,08,34,185,33,10,16,062,,22,13,310,*75
$GPGSV,4,2,16,17,18,318,37,14,13,288,37,03,38,250,44,32,43,063,47*77
$GPGSV,4,3,16,01,68,305,,02,74,307,39,28,08,108,,27,07,165,*74
$GPGSV,4,4,16,36,35,170,42,34,31,208,,49,34,195,36,61,03,257,*74
$GLGSV,3,1,09,85,67,331,42,69,57,044,46,86,12,315,39,70,51,203,34*6F
$GLGSV,3,2,09,84,52,120,33,77,08,351,26,76,06,309,,68,08,033,*65
$GLGSV,3,3,09,71,05,209,*54
$GAGSV,4,1,13,33,64,309,49,08,13,036,24,12,11,293,28,31,16,263,33*60
$GAGSV,4,2,13,24,14,314,36,29,40,163,38,07,50,081,43,26,60,096,44*6D
$GAGSV,4,3,13,14,01,156,,23,01,218,,16,06,337,,13,09,108,*64
$GAGSV,4,4,13,19,04,192,*5C
$GBGSV,4,1,16,57,79,342,,16,19,075,,60,10,109,,33,23,049,27*6B
$GBGSV,4,2,16,28,25,142,36,39,22,064,21,05,24,128,,06,19,079,24*60
$GBGSV,4,3,16,09,16,092,,32,45,213,38,30,52,300,44,27,69,166,48*65
$GBGSV,4,4,16,41,72,076,41,29,01,315,,02,09,105,,13,09,067,*60
$GPGGA,232947.00,,,,,0,00,,,M,,M,,*41
$PTNL,GGK,232947.00,010125,4742.4462969,N,01617.9739717,E,1,17,1.4,EHT667.9881,M*4C
$GPGGQ,232947.00,010125,4742.4462969,N,01617.9739717,E,1,17,3.344,624.7771,M*3E
$GPGFA,232947.00,23.353,17.657,2.456,0.714,339.992,2.153,,VVV*05
$GPLLK,232947.00,010125,,M,,M,1,17,1.6,,M*03
$GNGMP,232947.00,,,,,DAAA,17,0.8,,,,*51
$GPGMP,232947.00,,,,,,04,,,,2.8,123*7A
$GLGMP,232947.00,,,,,,03,,,,,*75
$GAGMP,232947.00,,,,,,05,,,,,*7E
$GBGMP,232947.00,,,,,,05,,,,,*7D
$PSSN,SNC,[0,343805000,2347]*4D
$GPZDA,232952.00,01,01,2025,,*6E
$GPDTM,W84,,00.0000000,N,00.0000000,E,00.0000000,W84*5F
$GPRMC,232952.00,A,4742.4462957,N,01617.9739925,E,0.0,,010125,5.1,E,D*11
$GPGLL,4742.4462957,N,01617.9739925,E,232952.00,A,D*60
$GPGGA,232952.00,4742.4462957,N,01617.9739925,E,2,17,0.9,624.7932,M,43.2110,M,1.6,0123*4F
$GNGNS,232952.00,4742.4462957,N,01617.9739925,E,DAAA,17,0.9,624.7932,43.2110,,*54
$GPGNS,232952.00,,,,,,05,,,,1.6,123*72
$GLGNS,232952.00,,,,,,03,,,,,*71
$GAGNS,232952.00,,,,,,05,,,,,*7A
$GBGNS,232952.00,,,,,,04,,,,,*78
$GPLLQ,232952.00,010125,,M,,M,1,17,2.771,,M*19
$GPVTG,,T,,M,0.01,N,0.01,K,D*26
$GPHDT,,T*1B
$GPTHS,,V*0E
$GPROT,,V*08
$PSSN,HRP,232952.00,010125,,,,,,,00,0,,*6C
$PTNL,AVR,232952.00,,Yaw,,Tilt,,,,0,,00*3A
$GPGSA,A,3,02,03,14,21,32,,,,,,,,1.5,0.9,1.2*3A
$GPGSA,A,3,69,85,86,,,,,,,,,,1.5,0.9,1.2*30
$GPGSA,A,3,07,24,26,29,33,,,,,,,,1.5,0.9,1.2*32
$GPGSA,A,3,27,30,32,41,,,,,,,,,1.5,0.9,1.2*3E
$GPGST,232952.00,1.984,1.993,0.701,342.800,1.915,0.892,1.793*54
$GPGBS,232952.00,8.633,4.511,8.996,14,0.0001,2.596,1.011*5E
$GPGRS,232952.00,1,-0.6,0.8,2.6,-0.5,-0.6,,,,,,,*49
$GPGRS,232952.00,1,-0.1,3.1,-3.2,,,,,,,,,*6F
$GPGRS,232952.00,1,-1.3,-0.9,-1.8,1.8,-0.6,,,,,,,*60
$GPGRS,232952.00,1,-0.6,-0.8,0.9,-0.6,,,,,,,,*6F
$GPGSV,4,1,16,21,82,101,42,08,34,185,31,10,16,062,,22,13,310,*77
$GPGSV,4,2,16,17,18,318,37,14,13,288,36,03,38,250,43,32,43,063,48*7E
$GPGSV,4,3,16,01,68,305,,02,74,307,38,28,08,108,,27,07,165,*75
$GPGSV,4,4,16,36,35,170,42,34,31,208,,49,34,195,36,61,03,257,*74
$GLGSV,3,1,09,85,67,331,44,69,57,044,46,86,12,315,40,70,51,203,32*61
$GLGSV,3,2,09,84,52,120,34,77,08,351,,76,06,309,32,68,08,033,*67
$GLGSV,3,3,09,71,05,209,*54
$GAGSV,4,1,13,33,64,309,49,08,13,036,25,12,11,293,27,31,16,263,33*6E
$GAGSV,4,2,13,24,14,314,36,29,40,163,36,07,50,081,43,26,60,096,43*64
$GAGSV,4,3,13,14,01,156,,23,01,218,,16,06,337,,13,09,108,*64
$GAGSV,4,4,13,19,04,192,*5C
$GBGSV,4,1,16,57,79,343,,16,19,075,,60,10,109,,33,23,049,*6F
$GBGSV,4,2,16,28,25,142,26,39,22,064,,05,24,128,,06,19,079,21*67
$GBGSV,4,3,16,09,16,092,,32,45,213,37,30,52,299,44,27,69,166,48*6B
$GBGSV,4,4,16,41,72,076,41,29,01,315,,02,09,105,,13,09,067,*60
$GPGGA,232952.00,,,,,0,00,,,M,,M,,*45
$PTNL,GGK,232952.00,010125,4742.4462957,N,01617.9739925,E,1,17,1.5,EHT668.0042,M*4A
$GPGGQ,232952.00,010125,4742.4462957,N,01617.9739925,E,1,17,2.771,624.7932,M*32
$GPGFA,232952.00,18.950,14.701,1.993,0.701,342.800,1.793,,VVV*0D
$GPLLK,232952.00,010125,,M,,M,1,17,1.8,,M*09
$GNGMP,232952.00,,,,,DAAA,17,0.9,,,,*54
$GPGMP,232952.00,,,,,,05,,,,1.6,123*72
$GLGMP,232952.00,,,,,,03,,,,,*71
$GAGMP,232952.00,,,,,,05,,,,,*7A
$GBGMP,232952.00,,,,,,04,,,,,*78
$PSSN,SNC,[0,343810000,2347]*49
$GPZDA,232957.00,01,01,2025,,*6B
$GPDTM,W84,,00.0000000,N,00.0000000,E,00.0000000,W84*5F
$GPRMC,232957.00,A,4742.4462929,N,01617.9740106,E,0.0,,010125,5.1,E,D*1A
$GPGLL,4742.4462929,N,01617.9740106,E,232957.00,A,D*6B
$GPGGA,232957.00,4742.4462929,N,01617.9740106,E,2,15,1.1,624.8300,M,43.2110,M,2.8,0123*46
$GNGNS,232957.00,4742.4462929,N,01617.9740106,E,DAAA,15,1.1,624.8300,43.2110,,*50
$GPGNS,232957.00,,,,,,04,,,,2.8,123*7B
$GLGNS,232957.00,,,,,,03,,,,,*74
$GAGNS,232957.00,,,,,,04,,,,,*7E
$GBGNS,232957.00,,,,,,04,,,,,*7D
$GPLLQ,232957.00,010125,,M,,M,1,15,5.755,,M*1F
$GPVTG,,T,,M,0.00,N,0.00,K,D*26
$GPHDT,,T*1B
$GPTHS,,V*0E
$GPROT,,V*08
$PSSN,HRP,232957.00,010125,,,,,,,00,0,,*69
$PTNL,AVR,232957.00,,Yaw,,Tilt,,,,0,,00*3F
$GPGSA,A,3,03,14,21,32,,,,,,,,,1.8,1.1,1.5*3B
$GPGSA,A,3,69,85,86,,,,,,,,,,1.8,1.1,1.5*33
$GPGSA,A,3,07,24,26,33,,,,,,,,,1.8,1.1,1.5*3A
$GPGSA,A,3,27,30,32,41,,,,,,,,,1.8,1.1,1.5*3D
$GPGST,232957.00,2.422,4.076,0.838,336.906,3.764,1.775,3.976*5F
$GPGBS,232957.00,15.151,6.803,18.388,14,0.0001,3.274,1.011*56
$GPGRS,232957.00,1,-0.3,3.3,-0.5,-0.4,,,,,,,,*69
$GPGRS,232957.00,1,-0.3,1.8,-3.1,,,,,,,,,*60
$GPGRS,232957.00,1,-1.4,-1.8,-2.2,-0.8,,,,,,,,*42
$GPGRS,232957.00,1,-0.9,-0.7,-1.6,-2.8,,,,,,,,*45
$GPGSV,4,1,16,21,82,101,43,08,34,185,,10,16,062,20,22,13,310,*76
$GPGSV,4,2,16,17,18,318,23,14,13,288,36,03,38,250,44,32,43,063,48*7C
$GPGSV,4,3,16,01,68,305,,02,74,307,33,28,08,108,,27,07,165,*7E
$GPGSV,4,4,16,36,35,170,41,34,31,208,,49,34,195,36,61,03,257,*77
$GLGSV,3,1,09,85,67,331,44,69,57,044,48,86,12,315,41,70,51,203,33*6F
$GLGSV,3,2,09,84,52,120,32,77,08,351,,76,06,309,35,68,08,033,*66
$GLGSV,3,3,09,71,05,209,*54
$GAGSV,4,1,13,33,64,309,49,08,13,036,,12,11,293,25,31,16,263,33*6B
$GAGSV,4,2,13,24,14,314,35,29,40,163,33,07,50,081,43,26,60,096,43*62
$GAGSV,4,3,13,14,01,156,,23,01,218,,16,06,337,,13,09,108,*64
$GAGSV,4,4,13,19,04,192,*5C
$GBGSV,4,1,16,57,79,343,,16,19,075,,60,10,109,,33,23,049,*6F
$GBGSV,4,2,16,28,25,142,32,39,22,064,24,05,24,128,,06,19,078,27*63
$GBGSV,4,3,16,09,16,092,,32,45,213,35,30,52,299,44,27,69,166,48*69
$GBGSV,4,4,16,41,72,076,43,29,01,315,,02,09,105,,13,09,067,*62
$GPGGA,232957.00,,,,,0,00,,,M,,M,,*40
$PTNL,GGK,232957.00,010125,4742.4462929,N,01617.9740106,E,1,15,1.8,EHT668.0410,M*4D
$GPGGQ,232957.00,010125,4742.4462929,N,01617.9740106,E,1,15,5.755,624.8300,M*3E
$GPGFA,232957.00,38.753,32.601,4.076,0.838,336.906,3.976,,VVV*03
$GPLLK,232957.00,010125,,M,,M,1,15,2.2,,M*07
$GNGMP,232957.00,,,,,DAAA,15,1.1,,,,*5A
$GPGMP,232957.00,,,,,,04,,,,2.8,123*7B
$GLGMP,232957.00,,,,,,03,,,,,*74
$GAGMP,232957.00,,,,,,04,,,,,*7E
$GBGMP,232957.00,,,,,,04,,,,,*7D
$PSSN,SNC,[0,343815000,2347]*4C
$GPZDA,233002.00,01,01,2025,,*63
$GPDTM,W84,,00.0000000,N,00.0000000,E,00.0000000,W84*5F
$GPRMC,233002.00,A,4742.4462935,N,01617.9740193,E,0.0,,010125,5.1,E,D*13
$GPGLL,4742.4462935,N,01617.9740193,E,233002.00,A,D*62
$GPGGA,233002.00,4742.4462935,N,01617.9740193,E,2,16,0.9,624.8446,M,43.2110,M,2.8,0123*40
$GNGNS,233002.00,4742.4462935,N,01617.9740193,E,DAAA,16,0.9,624.8446,43.2110,,*56
$GPGNS,233002.00,,,,,,04,,,,2.8,123*73
$GLGNS,233002.00,,,,,,04,,,,,*7B
$GAGNS,233002.00,,,,,,03,,,,,*71
$GBGNS,233002.00,,,,,,05,,,,,*74
$GPLLQ,233002.00,010125,,M,,M,1,16,2.222,,M*16
$GPVTG,,T,,M,0.01,N,0.03,K,D*24
$GPHDT,,T*1B
$GPTHS,,V*0E
$GPROT,,V*08
$PSSN,HRP,233002.00,010125,,,,,,,00,0,,*61
$PTNL,AVR,233002.00,,Yaw,,Tilt,,,,0,,00*37
$GPGSA,A,3,02,03,21,32,,,,,,,,,1.5,0.9,1.3*3E
$GPGSA,A,3,69,84,85,86,,,,,,,,,1.5,0.9,1.3*3D
$GPGSA,A,3,07,26,33,,,,,,,,,,1.5,0.9,1.3*3E
$GPGSA,A,3,27,28,30,32,41,,,,,,,,1.5,0.9,1.3*35
$GPGST,233002.00,2.865,1.651,0.460,339.965,1.559,0.712,1.415*51
$GPGBS,233002.00,11.360,5.300,9.308,03,0.0001,0.894,0.726*6A
$GPGRS,233002.00,1,0.2,0.9,-0.0,-0.6,,,,,,,,*43
$GPGRS,233002.00,1,1.0,-1.5,1.9,-4.8,,,,,,,,*4F
$GPGRS,233002.00,1,-0.8,-1.3,-0.7,,,,,,,,,*40
$GPGRS,233002.00,1,-0.8,2.9,0.1,-4.8,-2.7,,,,,,,*46
$GPGSV,4,1,16,21,82,102,43,08,34,185,35,10,16,062,,22,13,310,*71
$GPGSV,4,2,16,17,18,318,,14,13,288,36,03,38,250,44,32,43,063,48*7D
$GPGSV,4,3,16,01,69,305,,02,74,307,37,28,08,108,,27,07,165,*7B
$GPGSV,4,4,16,36,35,170,40,34,31,208,,49,34,195,33,61,03,257,*73
$GLGSV,3,1,09,85,67,331,44,69,57,044,49,86,12,315,40,70,51,203,34*68
$GLGSV,3,2,09,84,52,120,45,77,08,351,24,76,06,308,35,68,08,033,20*63
$GLGSV,3,3,09,71,05,209,*54
$GAGSV,4,1,13,33,64,309,49,08,13,036,25,12,11,293,23,31,16,263,30*69
$GAGSV,4,2,13,24,14,314,35,29,40,163,29,07,50,081,43,26,60,096,42*68
$GAGSV,4,3,13,14,00,156,,23,01,218,,16,06,337,,13,09,108,*65
$GAGSV,4,4,13,19,05,192,*5D
$GBGSV,4,1,16,57,79,343,,16,20,075,,60,10,109,,33,23,049,29*6E
$GBGSV,4,2,16,28,25,142,37,39,22,064,30,05,24,128,,06,19,078,21*65
$GBGSV,4,3,16,09,16,092,,32,45,213,36,30,52,299,42,27,69,166,48*6C
$GBGSV,4,4,16,41,72,076,45,29,01,315,,02,09,105,,13,09,067,*64
$GPGGA,233002.00,,,,,0,00,,,M,,M,,*48
$PTNL,GGK,233002.00,010125,4742.4462935,N,01617.9740193,E,1,16,1.5,EHT668.0556,M*49
$GPGGQ,233002.00,010125,4742.4462935,N,01617.9740193,E,1,16,2.222,624.8446,M*33
$GPGFA,233002.00,15.695,11.601,1.651,0.460,339.965,1.415,,VVV*09
$GPLLK,233002.00,010125,,M,,M,1,16,1.8,,M*05
$GNGMP,233002.00,,,,,DAAA,16,0.9,,,,*58
$GPGMP,233002.00,,,,,,04,,,,2.8,123*73
$GLGMP,233002.00,,,,,,04,,,,,*7B
$GAGMP,233002.00,,,,,,03,,,,,*71
$GBGMP,233002.00,,,,,,05,,,,,*74
$PSSN,SNC,[0,343820000,2347]*4A
$GPZDA,233007.00,01,01,2025,,*66
$GPDTM,W84,,00.0000000,N,00.0000000,E,00.0000000,W84*5F
$GPRMC,233007.00,A,4742.4462936,N,01617.9740367,E,0.0,,010125,5.1,E,D*1C
$GPGLL,4742.4462936,N,01617.9740367,E,233007.00,A,D*6D
$GPGGA,233007.00,4742.4462936,N,01617.9740367,E,2,17,0.8,624.8400,M,43.2110,M,2.8,0123*4D
$GNGNS,233007.00,4742.4462936,N,01617.9740367,E,DAAA,17,0.8,624.8400,43.2110,,*5B
$GPGNS,233007.00,,,,,,04,,,,2.8,123*76
$GLGNS,233007.00,,,,,,05,,,,,*7F
$GAGNS,233007.00,,,,,,03,,,,,*74
$GBGNS,233007.00,,,,,,05,,,,,*71
$GPLLQ,233007.00,010125,,M,,M,1,17,2.719,,M*1F
$GPVTG,,T,,M,0.00,N,0.01,K,D*27
$GPHDT,,T*1B
$GPTHS,,V*0E
$GPROT,,V*08
$PSSN,HRP,233007.00,010125,,,,,,,00,0,,*64
$PTNL,AVR,233007.00,,Yaw,,Tilt,,,,0,,00*32
$GPGSA,A,3,02,03,21,32,,,,,,,,,1.5,0.8,1.3*3F
$GPGSA,A,3,69,70,84,85,86,,,,,,,,1.5,0.8,1.3*3B
$GPGSA,A,3,07,26,33,,,,,,,,,,1.5,0.8,1.3*3F
$GPGSA,A,3,27,28,30,32,41,,,,,,,,1.5,0.8,1.3*34
$GPGST,233007.00,3.300,2.011,0.569,339.701,1.896,0.878,1.740*56
$GPGBS,233007.00,10.741,5.130,8.767,02,0.0001,0.805,0.641*6D
$GPGRS,233007.00,1,0.8,0.5,-0.7,-0.5,,,,,,,,*44
$GPGRS,233007.00,1,0.8,-2.3,-1.6,1.6,-4.7,,,,,,,*42
$GPGRS,233007.00,1,-1.2,-1.0,-1.5,,,,,,,,,*4E
$GPGRS,233007.00,1,-2.2,4.2,0.4,-6.1,-3.1,,,,,,,*4F
$GPGSV,4,1,16,21,82,102,44,08,34,185,34,10,16,062,,22,13,310,*77
$GPGSV,4,2,16,17,18,318,36,14,13,288,35,03,38,250,44,32,43,063,47*74
$GPGSV,4,3,16,01,69,305,,02,74,307,40,28,08,108,,27,07,165,*7B
$GPGSV,4,4,16,36,35,170,41,34,31,208,,49,34,195,33,61,03,257,*72
$GLGSV,3,1,09,85,67,331,45,69,57,044,50,86,12,315,40,70,51,203,35*60
$GLGSV,3,2,09,84,52,120,45,77,08,351,,76,06,308,,68,08,033,24*67
$GLGSV,3,3,09,71,05,209,*54
$GAGSV,4,1,13,33,64,309,48,08,13,036,24,12,11,293,26,31,16,263,28*65
$GAGSV,4,2,13,24,14,314,32,29,40,163,26,07,50,081,42,26,60,096,43*60
$GAGSV,4,3,13,14,00,156,,23,01,218,,16,06,337,,13,09,108,*65
$GAGSV,4,4,13,19,05,192,*5D
$GBGSV,4,1,16,57,79,343,,16,20,075,,60,10,109,,33,22,049,29*6F
$GBGSV,4,2,16,28,25,142,37,39,22,064,28,05,24,128,,06,19,078,*6F
$GBGSV,4,3,16,09,16,092,,32,45,213,37,30,52,299,44,27,69,166,46*65
$GBGSV,4,4,16,41,72,076,44,29,01,315,,02,09,105,,13,09,067,*65
$GPGGA,233007.00,,,,,0,00,,,M,,M,,*4D
$PTNL,GGK,233007.00,010125,4742.4462936,N,01617.9740367,E,1,17,1.5,EHT668.0511,M*44
$GPGGQ,233007.00,010125,4742.4462936,N,01617.9740367,E,1,17,2.719,624.8400,M*32
$GPGFA,233007.00,19.120,14.264,2.011,0.569,339.701,1.740,,VVV*0D
$GPLLK,233007.00,010125,,M,,M,1,17,1.8,,M*01
$GNGMP,233007.00,,,,,DAAA,17,0.8,,,,*5D
$GPGMP,233007.00,,,,,,04,,,,2.8,123*76
$GLGMP,233007.00,,,,,,05,,,,,*7F
$GAGMP,233007.00,,,,,,03,,,,,*74
$GBGMP,233007.00,,,,,,05,,,,,*71
$PSSN,SNC,[0,343825000,2347]*4F
$GPZDA,233012.00,01,01,2025,,*62
$GPDTM,W84,,00.0000000,N,00.0000000,E,00.0000000,W84*5F
$GPRMC,233012.00,A,4742.4462948,N,01617.9740473,E,0.0,,010125,5.1,E,D*13
$GPGLL,4742.4462948,N,01617.9740473,E,233012.00,A,D*62
$GPGGA,233012.00,4742.4462948,N,01617.9740473,E,2,16,0.8,624.8309,M,43.2110,M,1.8,0123*4E
$GNGNS,233012.00,4742.4462948,N,01617.9740473,E,DAAA,16,0.8,624.8309,43.2110,,*5B
$GPGNS,233012.00,,,,,,04,,,,1.8,123*71
$GLGNS,233012.00,,,,,,04,,,,,*7A
$GAGNS,233012.00,,,,,,03,,,,,*70
$GBGNS,233012.00,,,,,,05,,,,,*75
$GPLLQ,233012.00,010125,,M,,M,1,16,2.938,,M*17
$GPVTG,,T,,M,0.01,N,0.01,K,D*26
$GPHDT,,T*1B
$GPTHS,,V*0E
$GPROT,,V*08
$PSSN,HRP,233012.00,010125,,,,,,,00,0,,*60
$PTNL,AVR,233012.00,,Yaw,,Tilt,,,,0,,00*36
$GPGSA,A,3,02,03,21,32,,,,,,,,,1.5,0.8,1.3*3F
$GPGSA,A,3,69,70,85,86,,,,,,,,,1.5,0.8,1.3*37
$GPGSA,A,3,07,26,33,,,,,,,,,,1.5,0.8,1.3*3F
$GPGSA,A,3,27,28,30,32,41,,,,,,,,1.5,0.8,1.3*34
$GPGST,233012.00,3.499,2.179,0.606,339.659,2.054,0.947,1.875*5D
$GPGBS,233012.00,10.918,5.172,8.860,02,0.0001,1.173,0.588*6A
$GPGRS,233012.00,1,1.2,0.0,-0.8,-0.2,,,,,,,,*46
$GPGRS,233012.00,1,0.6,-4.8,1.3,-3.7,,,,,,,,*43
$GPGRS,233012.00,1,-1.4,-0.9,-1.4,,,,,,,,,*45
$GPGRS,233012.00,1,-2.8,3.1,0.5,-5.8,-3.7,,,,,,,*48
$GPGSV,4,1,16,21,82,102,43,08,34,185,27,10,16,062,,22,13,310,*72
$GPGSV,4,2,16,17,18,318,,14,13,288,30,03,38,250,42,32,43,063,47*72
$GPGSV,4,3,16,01,69,305,,02,74,307,40,28,08,108,,27,07,165,*7B
$GPGSV,4,4,16,36,35,170,41,34,31,208,,49,34,195,35,61,03,257,*74
$GLGSV,3,1,09,85,67,331,45,69,57,043,49,86,12,315,40,70,51,203,36*6C
$GLGSV,3,2,09,84,52,120,22,77,08,351,,76,06,308,29,68,08,033,*6B
$GLGSV,3,3,09,71,05,209,*54
$GAGSV,4,1,13,33,64,309,47,08,13,036,20,12,11,293,26,31,16,263,36*61
$GAGSV,4,2,13,24,14,314,30,29,40,163,22,07,50,081,41,26,60,096,43*65
$GAGSV,4,3,13,14,00,156,,23,01,218,,16,06,337,,13,09,108,*65
$GAGSV,4,4,13,19,05,192,*5D
$GBGSV,4,1,16,57,79,343,,16,20,075,,60,10,109,,33,22,049,31*66
$GBGSV,4,2,16,28,25,142,38,39,22,064,28,05,24,128,,06,19,078,21*63
$GBGSV,4,3,16,09,16,092,,32,45,213,35,30,52,299,44,27,69,166,47*66
$GBGSV,4,4,16,41,72,075,44,29,01,315,,02,09,105,,13,09,067,*66
$GPGGA,233012.00,,,,,0,00,,,M,,M,,*49
$PTNL,GGK,233012.00,010125,4742.4462948,N,01617.9740473,E,1,16,1.5,EHT668.0420,M*49
$GPGGQ,233012.00,010125,4742.4462948,N,01617.9740473,E,1,16,2.938,624.8309,M*3F
$GPGFA,233012.00,20.718,15.372,2.179,0.606,339.659,1.875,,VVV*09
$GPLLK,233012.00,010125,,M,,M,1,16,1.8,,M*04
$GNGMP,233012.00,,,,,DAAA,16,0.8,,,,*58
$GPGMP,233012.00,,,,,,04,,,,1.8,123*71
$GLGMP,233012.00,,,,,,04,,,,,*7A
$GAGMP,233012.00,,,,,,03,,,,,*70
$GBGMP,233012.00,,,,,,05,,,,,*75
$PSSN,SNC,[0,343830000,2347]*4B
$GPZDA,233017.00,01,01,2025,,*67
$GPDTM,W84,,00.0000000,N,00.0000000,E,00.0000000,W84*5F
$GPRMC,233017.00,A,4742.4462909,N,01617.9740463,E,0.0,,010125,5.1,E,D*12
$GPGLL,4742.4462909,N,01617.9740463,E,233017.00,A,D*63
$GPGGA,233017.00,4742.4462909,N,01617.9740463,E,2,16,0.8,624.8349,M,43.2110,M,2.8,0123*48
$GNGNS,233017.00,4742.4462909,N,01617.9740463,E,DAAA,16,0.8,624.8349,43.2110,,*5E
$GPGNS,233017.00,,,,,,04,,,,2.8,123*77
$GLGNS,233017.00,,,,,,04,,,,,*7F
$GAGNS,233017.00,,,,,,03,,,,,*75
$GBGNS,233017.00,,,,,,05,,,,,*70
$GPLLQ,233017.00,010125,,M,,M,1,16,2.154,,M*10
$GPVTG,,T,,M,0.00,N,0.01,K,D*27
$GPHDT,,T*1B
$GPTHS,,V*0E
$GPROT,,V*08
$PSSN,HRP,233017.00,010125,,,,,,,00,0,,*65
$PTNL,AVR,233017.00,,Yaw,,Tilt,,,,0,,00*33
$GPGSA,A,3,02,03,21,32,,,,,,,,,1.5,0.8,1.3*3F
$GPGSA,A,3,69,70,85,86,,,,,,,,,1.5,0.8,1.3*37
$GPGSA,A,3,07,26,33,,,,,,,,,,1.5,0.8,1.3*3F
$GPGSA,A,3,27,28,30,32,41,,,,,,,,1.5,0.8,1.3*34
$GPGST,233017.00,3.096,1.605,0.441,339.566,1.511,0.696,1.367*5E
$GPGBS,233017.00,10.998,5.220,9.003,70,0.0001,-4.867,6.081*44
$GPGRS,233017.00,1,-0.1,0.4,-0.5,0.4,,,,,,,,*4E
$GPGRS,233017.00,1,0.3,-4.9,1.5,-4.0,,,,,,,,*44
$GPGRS,233017.00,1,-1.5,-1.2,-0.5,,,,,,,,,*4B
$GPGRS,233017.00,1,-2.5,3.2,0.1,-2.9,-3.8,,,,,,,*4E
$GPGSV,4,1,16,21,82,102,43,08,34,185,21,10,16,062,25,22,13,309,*7B
$GPGSV,4,2,16,17,18,318,33,14,13,288,29,03,38,250,42,32,43,063,48*75
$GPGSV,4,3,16,01,69,305,,02,74,307,40,28,08,108,,27,07,165,*7B
$GPGSV,4,4,16,36,35,170,41,34,31,208,,49,34,195,35,61,03,257,*74
$GLGSV,3,1,09,85,67,331,46,69,57,043,49,86,12,315,39,70,51,203,36*61
$GLGSV,3,2,09,84,52,120,27,77,08,351,,76,06,308,37,68,08,033,*61
$GLGSV,3,3,09,71,05,209,*54
$GAGSV,4,1,13,33,64,309,46,08,13,036,20,12,11,293,26,31,16,263,36*60
$GAGSV,4,2,13,24,14,314,31,29,40,163,27,07,50,081,40,26,60,096,42*61
$GAGSV,4,3,13,14,00,156,,23,01,218,,16,06,337,,13,09,108,*65
$GAGSV,4,4,13,19,05,192,*5D
$GBGSV,4,1,16,57,79,343,,16,20,075,,60,10,109,,33,22,049,32*65
$GBGSV,4,2,16,28,25,142,38,39,22,064,29,05,24,128,,06,19,078,20*63
$GBGSV,4,3,16,09,16,092,,32,45,213,37,30,52,299,43,27,69,166,47*63
$GBGSV,4,4,16,41,72,075,44,29,01,315,30,02,09,105,,13,09,067,*65
$GPGGA,233017.00,,,,,0,00,,,M,,M,,*4C
$PTNL,GGK,233017.00,010125,4742.4462909,N,01617.9740463,E,1,16,1.5,EHT668.0459,M*46
$GPGGQ,233017.00,010125,4742.4462909,N,01617.9740463,E,1,16,2.154,624.8349,M*38
$GPGFA,233017.00,15.256,11.212,1.605,0.441,339.566,1.367,,VVV*0F
$GPLLK,233017.00,010125,,M,,M,1,16,1.8,,M*01
$GNGMP,233017.00,,,,,DAAA,16,0.8,,,,*5D
$GPGMP,233017.00,,,,,,04,,,,2.8,123*77
$GLGMP,233017.00,,,,,,04,,,,,*7F
$GAGMP,233017.00,,,,,,03,,,,,*75
$GBGMP,233017.00,,,,,,05,,,,,*70
$PSSN,SNC,[0,343835000,2347]*4E
$GPZDA,233022.00,01,01,2025,,*61
$GPDTM,W84,,00.0000000,N,00.0000000,E,00.0000000,W84*5F
$GPRMC,233022.00,A,4742.4462938,N,01617.9740495,E,0.0,,010125,5.1,E,D*1F
$GPGLL,4742.4462938,N,01617.9740495,E,233022.00,A,D*6E
$GPGGA,233022.00,4742.4462938,N,01617.9740495,E,2,17,0.8,624.8441,M,43.2110,M,2.8,0123*4B
$GNGNS,233022.00,4742.4462938,N,01617.9740495,E,DAAA,17,0.8,624.8441,43.2110,,*5D
$GPGNS,233022.00,,,,,,04,,,,2.8,123*71
$GLGNS,233022.00,,,,,,05,,,,,*78
$GAGNS,233022.00,,,,,,03,,,,,*73
$GBGNS,233022.00,,,,,,05,,,,,*76
$GPLLQ,233022.00,010125,,M,,M,1,17,3.872,,M*1B
$GPVTG,,T,,M,0.01,N,0.01,K,D*26
$GPHDT,,T*1B
$GPTHS,,V*0E
$GPROT,,V*08
$PSSN,HRP,233022.00,010125,,,,,,,00,0,,*63
$PTNL,AVR,233022.00,,Yaw,,Tilt,,,,0,,00*35
$GPGSA,A,3,02,03,21,32,,,,,,,,,1.3,0.8,1.1*3B
$GPGSA,A,3,69,70,76,85,86,,,,,,,,1.3,0.8,1.1*32
$GPGSA,A,3,07,26,33,,,,,,,,,,1.3,0.8,1.1*3B
$GPGSA,A,3,27,28,30,32,41,,,,,,,,1.3,0.8,1.1*30
$GPGST,233022.00,5.520,2.865,0.817,339.677,2.701,1.256,2.473*59
$GPGBS,233022.00,11.082,5.275,8.998,76,0.0001,-14.231,6.381*76
$GPGRS,233022.00,1,0.3,1.3,-0.9,0.4,,,,,,,,*6D
$GPGRS,233022.00,1,-0.8,-4.1,-14.2,3.1,-5.6,,,,,,,*59
$GPGRS,233022.00,1,-1.8,-1.8,-0.7,,,,,,,,,*48
$GPGRS,233022.00,1,-2.8,2.1,-1.0,-2.8,-3.7,,,,,,,*64
$GPGSV,4,1,16,21,82,102,43,08,34,185,30,10,16,062,22,22,13,309,*7C
$GPGSV,4,2,16,17,18,318,26,14,12,288,33,03,38,250,43,32,43,063,49*7B
$GPGSV,4,3,16,01,69,305,,02,74,307,41,28,08,108,,27,07,165,*7A
$GPGSV,4,4,16,36,35,170,41,34,31,208,,49,34,195,36,61,03,257,*77
$GLGSV,3,1,09,85,67,331,48,69,56,043,49,86,12,315,39,70,51,203,37*6F
$GLGSV,3,2,09,84,52,120,30,77,08,351,33,76,06,308,24,68,08,033,23*64
$GLGSV,3,3,09,71,05,209,*54
$GAGSV,4,1,13,33,64,309,46,08,13,036,23,12,11,293,25,31,16,263,36*60
$GAGSV,4,2,13,24,14,314,28,29,40,163,32,07,50,081,38,26,60,097,42*63
$GAGSV,4,3,13,14,00,156,,23,00,218,,16,06,337,,13,08,108,*65
$GAGSV,4,4,13,19,05,192,*5D
$GBGSV,4,1,16,57,79,344,,16,20,075,,60,10,109,,33,22,049,32*62
$GBGSV,4,2,16,28,24,142,39,39,22,064,25,05,24,128,,06,19,078,23*6C
$GBGSV,4,3,16,09,16,092,,32,45,213,40,30,52,299,44,27,68,166,47*65
$GBGSV,4,4,16,41,72,075,43,29,01,315,31,02,09,105,,13,09,068,*6C
$GPGGA,233022.00,,,,,0,00,,,M,,M,,*4A
$PTNL,GGK,233022.00,010125,4742.4462938,N,01617.9740495,E,1,17,1.3,EHT668.0551,M*45
$GPGGQ,233022.00,010125,4742.4462938,N,01617.9740495,E,1,17,3.872,624.8441,M*37
$GPGFA,233022.00,27.237,20.282,2.865,0.817,339.677,2.473,,VVV*02
$GPLLK,233022.00,010125,,M,,M,1,17,1.6,,M*08
$GNGMP,233022.00,,,,,DAAA,17,0.8,,,,*5A
$GPGMP,233022.00,,,,,,04,,,,2.8,123*71
$GLGMP,233022.00,,,,,,05,,,,,*78
$GAGMP,233022.00,,,,,,03,,,,,*73
$GBGMP,233022.00,,,,,,05,,,,,*76
$PSSN,SNC,[0,343840000,2347]*4C
$GPZDA,233027.00,01,01,2025,,*64
$GPDTM,W84,,00.0000000,N,00.0000000,E,00.0000000,W84*5F
$GPRMC,233027.00,A,4742.4462903,N,01617.9740620,E,0.0,,010125,5.1,E,D*1E
$GPGLL,4742.4462903,N,01617.9740620,E,233027.00,A,D*6F
$GPGGA,233027.00,4742.4462903,N,01617.9740620,E,2,17,0.8,624.8550,M,43.2110,M,2.8,0123*4B
$GNGNS,233027.00,4742.4462903,N,01617.9740620,E,DAAA,17,0.8,624.8550,43.2110,,*5D
$GPGNS,233027.00,,,,,,04,,,,2.8,123*74
$GLGNS,233027.00,,,,,,05,,,,,*7D
$GAGNS,233027.00,,,,,,03,,,,,*76
$GBGNS,233027.00,,,,,,05,,,,,*73
$GPLLQ,233027.00,010125,,M,,M,1,17,3.951,,M*1E
$GPVTG,,T,,M,0.01,N,0.01,K,D*26
$GPHDT,,T*1B
$GPTHS,,V*0E
$GPROT,,V*08
$PSSN,HRP,233027.00,010125,,,,,,,00,0,,*66
$PTNL,AVR,233027.00,,Yaw,,Tilt,,,,0,,00*30
$GPGSA,A,3,02,03,21,32,,,,,,,,,1.3,0.8,1.1*3B
$GPGSA,A,3,69,70,76,85,86,,,,,,,,1.3,0.8,1.1*32
$GPGSA,A,3,07,26,33,,,,,,,,,,1.3,0.8,1.1*3B
$GPGSA,A,3,27,28,30,32,41,,,,,,,,1.3,0.8,1.1*30
$GPGST,233027.00,3.558,2.593,0.964,338.512,2.439,1.307,2.821*53
$GPGBS,233027.00,11.199,5.328,8.513,03,0.0001,1.776,0.744*68
$GPGRS,233027.00,1,0.5,1.8,-1.3,0.6,,,,,,,,*6C
$GPGRS,233027.00,1,-0.9,-3.6,-5.5,3.7,-5.6,,,,,,,*6C
$GPGRS,233027.00,1,-2.4,-1.5,-0.8,,,,,,,,,*40
$GPGRS,233027.00,1,-2.3,-0.9,-2.1,-1.9,-3.1,,,,,,,*4B
$GPGSV,4,1,16,21,82,102,42,08,34,185,27,10,16,062,20,22,13,309,*79
$GPGSV,4,2,16,17,18,318,33,14,12,288,36,03,38,250,42,32,43,063,50*73
$GPGSV,4,3,16,01,69,305,,02,74,307,43,28,08,108,,27,07,165,*78
$GPGSV,4,4,16,36,35,170,41,34,31,208,,49,34,195,37,61,03,257,*76
$GLGSV,3,1,09,85,67,331,49,69,56,043,49,86,12,315,37,70,51,203,37*60
$GLGSV,3,2,09,84,52,120,32,77,08,351,35,76,06,308,38,68,08,033,*6C
$GLGSV,3,3,09,71,05,209,*54
$GAGSV,4,1,13,33,64,309,46,08,13,036,26,12,11,293,26,31,16,263,36*66
$GAGSV,4,2,13,24,14,314,30,29,40,163,34,07,50,081,37,26,59,097,41*6A
$GAGSV,4,3,13,14,00,156,,23,00,218,,16,06,337,,13,08,108,*65
$GAGSV,4,4,13,19,05,192,*5D
$GBGSV,4,1,16,57,79,344,,16,20,075,,60,10,109,,33,22,049,28*69
$GBGSV,4,2,16,28,24,142,40,39,22,064,31,05,24,128,,06,19,078,25*61
$GBGSV,4,3,16,09,16,092,,32,45,213,43,30,52,299,43,27,68,166,48*6E
$GBGSV,4,4,16,41,72,075,43,29,01,315,32,02,09,105,,13,09,068,*6F
$GPGGA,233027.00,,,,,0,00,,,M,,M,,*4F
$PTNL,GGK,233027.00,010125,4742.4462903,N,01617.9740620,E,1,17,1.3,EHT668.0660,M*45
$GPGGQ,233027.00,010125,4742.4462903,N,01617.9740620,E,1,17,3.951,624.8550,M*37
$GPGFA,233027.00,24.656,23.129,2.593,0.964,338.512,2.821,,VVV*0D
$GPLLK,233027.00,010125,,M,,M,1,17,1.6,,M*0D
$GNGMP,233027.00,,,,,DAAA,17,0.8,,,,*5F
$GPGMP,233027.00,,,,,,04,,,,2.8,123*74
$GLGMP,233027.00,,,,,,05,,,,,*7D
$GAGMP,233027.00,,,,,,03,,,,,*76
$GBGMP,233027.00,,,,,,05,,,,,*73
$PSSN,SNC,[0,343845000,2347]*49
$GPZDA,233032.00,01,01,2025,,*60
$GPDTM,W84,,00.0000000,N,00.0000000,E,00.0000000,W84*5F
$GPRMC,233032.00,A,4742.4462824,N,01617.9740774,E,0.0,,010125,5.1,E,D*1E
$GPGLL,4742.4462824,N,01617.9740774,E,233032.00,A,D*6F
$GPGGA,233032.00,4742.4462824,N,01617.9740774,E,2,17,0.8,624.8659,M,43.2110,M,1.6,0123*4C
$GNGNS,233032.00,4742.4462824,N,01617.9740774,E,DAAA,17,0.8,624.8659,43.2110,,*57
$GPGNS,233032.00,,,,,,05,,,,1.6,123*7C
$GLGNS,233032.00,,,,,,04,,,,,*78
$GAGNS,233032.00,,,,,,03,,,,,*72
$GBGNS,233032.00,,,,,,05,,,,,*77
$GPLLQ,233032.00,010125,,M,,M,1,17,3.006,,M*11
$GPVTG,,T,,M,0.01,N,0.01,K,D*26
$GPHDT,,T*1B
$GPTHS,,V*0E
$GPROT,,V*08
$PSSN,HRP,233032.00,010125,,,,,,,00,0,,*62
$PTNL,AVR,233032.00,,Yaw,,Tilt,,,,0,,00*34
$GPGSA,A,3,02,03,08,21,32,,,,,,,,1.5,0.8,1.2*36
$GPGSA,A,3,69,70,85,86,,,,,,,,,1.5,0.8,1.2*36
$GPGSA,A,3,07,26,33,,,,,,,,,,1.5,0.8,1.2*3E
$GPGSA,A,3,27,28,30,32,41,,,,,,,,1.5,0.8,1.2*35
$GPGST,233032.00,2.832,1.452,0.811,332.541,1.341,0.983,2.504*51
$GPGBS,233032.00,5.683,4.275,9.941,21,0.0001,-1.396,0.615*75
$GPGRS,233032.00,1,1.3,1.1,-0.7,-1.4,0.1,,,,,,,*62
$GPGRS,233032.00,1,-1.0,-3.1,2.3,-6.0,,,,,,,,*64
$GPGRS,233032.00,1,-1.8,-1.3,-0.5,,,,,,,,,*40
$GPGRS,233032.00,1,-2.3,-0.9,-2.0,-0.4,-2.7,,,,,,,*45
$GPGSV,4,1,16,21,82,102,42,08,34,185,37,10,16,062,,22,13,309,*7A
$GPGSV,4,2,16,17,18,318,34,14,12,288,37,03,38,250,44,32,43,063,50*73
$GPGSV,4,3,16,01,69,305,,02,74,307,43,28,09,108,,27,07,165,*79
$GPGSV,4,4,16,36,35,170,40,34,31,208,,49,34,195,36,61,03,257,*76
$GLGSV,3,1,09,85,67,331,48,69,56,043,49,86,12,315,38,70,51,204,39*67
$GLGSV,3,2,09,84,52,120,33,77,08,351,33,76,06,308,31,68,08,033,26*66
$GLGSV,3,3,09,71,05,209,*54
$GAGSV,4,1,13,33,64,309,46,08,13,036,23,12,11,293,23,31,16,263,31*61
$GAGSV,4,2,13,24,14,314,32,29,40,163,33,07,50,081,36,26,59,097,42*6D
$GAGSV,4,3,13,14,00,156,,23,00,218,,16,06,337,,13,08,108,*65
$GAGSV,4,4,13,19,05,192,*5D
$GBGSV,4,1,16,57,79,344,,16,20,075,,60,10,109,,33,22,049,34*64
$GBGSV,4,2,16,28,24,142,41,39,22,064,30,05,24,128,,06,19,078,26*62
$GBGSV,4,3,16,09,16,092,,32,45,214,45,30,52,299,43,27,68,166,46*61
$GBGSV,4,4,16,41,72,075,41,29,01,315,32,02,09,105,,13,09,068,*6D
$GPGGA,233032.00,,,,,0,00,,,M,,M,,*4B
$PTNL,GGK,233032.00,010125,4742.4462824,N,01617.9740774,E,1,17,1.5,EHT668.0770,M*43
$GPGGQ,233032.00,010125,4742.4462824,N,01617.9740774,E,1,17,3.006,624.8659,M*36
$GPGFA,233032.00,13.801,20.536,1.452,0.811,332.541,2.504,,VVV*02
$GPLLK,233032.00,010125,,M,,M,1,17,1.8,,M*07
$GNGMP,233032.00,,,,,DAAA,17,0.8,,,,*5B
$GPGMP,233032.00,,,,,,05,,,,1.6,123*7C
$GLGMP,233032.00,,,,,,04,,,,,*78
$GAGMP,233032.00,,,,,,03,,,,,*72
$GBGMP,233032.00,,,,,,05,,,,,*77
$PSSN,SNC,[0,343850000,2347]*4D
$GPZDA,233037.00,01,01,2025,,*65
$GPDTM,W84,,00.0000000,N,00.0000000,E,00.0000000,W84*5F
$GPRMC,233037.00,A,4742.4462815,N,01617.9740929,E,0.0,,010125,5.1,E,D*1F
$GPGLL,4742.4462815,N,01617.9740929,E,233037.00,A,D*6E
$GPGGA,233037.00,4742.4462815,N,01617.9740929,E,2,17,0.8,624.8704,M,43.2110,M,2.6,0123*47
$GNGNS,233037.00,4742.4462815,N,01617.9740929,E,DAAA,17,0.8,624.8704,43.2110,,*5F
$GPGNS,233037.00,,,,,,05,,,,2.6,123*7A
$GLGNS,233037.00,,,,,,03,,,,,*7A
$GAGNS,233037.00,,,,,,04,,,,,*70
$GBGNS,233037.00,,,,,,05,,,,,*72
$GPLLQ,233037.00,010125,,M,,M,1,17,2.604,,M*11
$GPVTG,,T,,M,0.01,N,0.02,K,D*25
$GPHDT,,T*1B
$GPTHS,,V*0E
$GPROT,,V*08
$PSSN,HRP,233037.00,010125,,,,,,,00,0,,*67
$PTNL,AVR,233037.00,,Yaw,,Tilt,,,,0,,00*31
$GPGSA,A,3,02,03,08,21,32,,,,,,,,1.5,0.8,1.2*36
$GPGSA,A,3,69,70,85,,,,,,,,,,1.5,0.8,1.2*38
$GPGSA,A,3,07,24,26,33,,,,,,,,,1.5,0.8,1.2*38
$GPGSA,A,3,27,28,30,32,41,,,,,,,,1.5,0.8,1.2*35
$GPGST,233037.00,2.600,1.232,0.704,333.552,1.146,0.836,2.183*52
$GPGBS,233037.00,5.744,4.314,10.121,03,0.0001,1.588,0.712*68
$GPGRS,233037.00,1,0.7,1.6,-0.3,-1.1,-0.3,,,,,,,*4B
$GPGRS,233037.00,1,-1.1,-3.4,1.0,,,,,,,,,*60
$GPGRS,233037.00,1,-0.4,-4.3,-1.5,-0.9,,,,,,,,*46
$GPGRS,233037.00,1,-2.2,-1.0,-2.0,0.2,-4.2,,,,,,,*61
$GPGSV,4,1,16,21,82,103,41,08,33,185,39,10,16,062,22,22,13,309,*71
$GPGSV,4,2,16,17,19,318,33,14,12,288,33,03,39,250,44,32,43,063,50*70
$GPGSV,4,3,16,01,69,305,,02,74,307,44,28,09,108,,27,07,165,*7E
$GPGSV,4,4,16,36,35,170,39,34,31,208,,49,34,195,31,61,03,257,*7F
$GLGSV,3,1,09,85,67,331,48,69,56,043,49,86,12,315,36,70,51,204,38*68
$GLGSV,3,2,09,84,52,120,30,77,08,351,28,76,06,308,32,68,08,033,*68
$GLGSV,3,3,09,71,05,209,*54
$GAGSV,4,1,13,33,64,309,47,08,13,036,26,12,11,293,,31,16,263,34*61
$GAGSV,4,2,13,24,14,314,36,29,40,163,35,07,50,081,37,26,59,097,41*6D
$GAGSV,4,3,13,14,00,156,,23,00,218,,16,06,337,,13,08,108,*65
$GAGSV,4,4,13,19,05,192,*5D
$GBGSV,4,1,16,57,79,344,,16,20,075,,60,10,109,,33,22,049,32*62
$GBGSV,4,2,16,28,24,142,40,39,22,064,27,05,24,128,,06,19,078,24*67
$GBGSV,4,3,16,09,16,092,,32,45,214,46,30,52,299,44,27,68,166,48*6B
$GBGSV,4,4,16,41,72,075,41,29,01,315,30,02,09,105,,13,09,068,*6F
$GPGGA,233037.00,,,,,0,00,,,M,,M,,*4E
$PTNL,GGK,233037.00,010125,4742.4462815,N,01617.9740929,E,1,17,1.5,EHT668.0815,M*4E
$GPGGQ,233037.00,010125,4742.4462815,N,01617.9740929,E,1,17,2.604,624.8704,M*3B
$GPGFA,233037.00,11.710,17.902,1.232,0.704,333.552,2.183,,VVV*06
$GPLLK,233037.00,010125,,M,,M,1,17,1.8,,M*02
$GNGMP,233037.00,,,,,DAAA,17,0.8,,,,*5E
$GPGMP,233037.00,,,,,,05,,,,2.6,123*7A
$GLGMP,233037.00,,,,,,03,,,,,*7A
$GAGMP,233037.00,,,,,,04,,,,,*70
$GBGMP,233037.00,,,,,,05,,,,,*72
$PSSN,SNC,[0,343855000,2347]*48
$GPZDA,233042.00,01,01,2025,,*67
$GPDTM,W84,,00.0000000,N,00.0000000,E,00.0000000,W84*5F
$GPRMC,233042.00,A,4742.4462852,N,01617.9741095,E,0.0,,010125,5.1,E,D*11
$GPGLL,4742.4462852,N,01617.9741095,E,233042.00,A,D*60
$GPGGA,233042.00,4742.4462852,N,01617.9741095,E,2,19,0.8,624.8771,M,43.2110,M,2.5,0123*46
$GNGNS,233042.00,4742.4462852,N,01617.9741095,E,DAAA,19,0.8,624.8771,43.2110,,*5D
$GPGNS,233042.00,,,,,,06,,,,2.5,123*78
$GLGNS,233042.00,,,,,,04,,,,,*7F
$GAGNS,233042.00,,,,,,04,,,,,*72
$GBGNS,233042.00,,,,,,05,,,,,*70
$GPLLQ,233042.00,010125,,M,,M,1,19,1.447,,M*1B
$GPVTG,,T,,M,0.01,N,0.01,K,D*26
$GPHDT,,T*1B
$GPTHS,,V*0E
$GPROT,,V*08
$PSSN,HRP,233042.00,010125,,,,,,,00,0,,*65
$PTNL,AVR,233042.00,,Yaw,,Tilt,,,,0,,00*33
$GPGSA,A,3,02,03,08,17,21,32,,,,,,,1.2,0.8,1.0*35
$GPGSA,A,3,69,76,85,86,,,,,,,,,1.2,0.8,1.0*35
$GPGSA,A,3,07,26,29,33,,,,,,,,,1.2,0.8,1.0*30
$GPGSA,A,3,27,28,30,32,41,,,,,,,,1.2,0.8,1.0*30
$GPGST,233042.00,2.627,0.648,0.498,325.537,0.604,0.551,1.194*56
$GPGBS,233042.00,4.115,4.118,5.705,76,0.0001,-7.656,6.387*74
$GPGRS,233042.00,1,0.1,0.4,-0.1,0.0,-0.4,-0.3,,,,,,*64
$GPGRS,233042.00,1,0.9,-7.7,1.9,-2.3,,,,,,,,*4A
$GPGRS,233042.00,1,-0.2,-0.1,-0.8,-0.1,,,,,,,,*40
$GPGRS,233042.00,1,-1.8,-2.4,-1.0,1.0,-1.4,,,,,,,*6E
$GPGSV,4,1,16,21,82,103,41,08,33,185,37,10,16,062,28,22,13,309,*75
$GPGSV,4,2,16,17,19,318,37,14,12,288,34,03,39,250,43,32,43,063,51*75
$GPGSV,4,3,16,01,69,305,,02,74,308,45,28,09,108,,27,07,165,*70
$GPGSV,4,4,16,36,35,170,40,34,31,208,,49,34,195,35,61,03,257,*75
$GLGSV,3,1,09,85,67,331,48,69,56,043,50,86,13,315,41,70,51,204,35*6C
$GLGSV,3,2,09,84,52,120,31,77,08,351,21,76,06,308,38,68,08,033,19*62
$GLGSV,3,3,09,71,05,209,*54
$GAGSV,4,1,13,33,64,309,46,08,13,036,25,12,11,293,,31,16,263,30*67
$GAGSV,4,2,13,24,14,313,34,29,40,163,38,07,50,081,37,26,59,097,40*64
$GAGSV,4,3,13,14,00,156,,23,00,218,,16,06,337,,13,08,108,*65
$GAGSV,4,4,13,19,05,192,*5D
$GBGSV,4,1,16,57,79,344,,16,20,075,,60,10,109,,33,22,049,34*64
$GBGSV,4,2,16,28,24,142,38,39,22,064,30,05,24,128,,06,19,078,22*68
$GBGSV,4,3,16,09,16,092,,32,45,214,48,30,52,299,41,27,68,166,47*6F
$GBGSV,4,4,16,41,72,075,42,29,01,315,33,02,09,105,,13,09,068,*6F
$GPGGA,233042.00,,,,,0,00,,,M,,M,,*4C
$PTNL,GGK,233042.00,010125,4742.4462852,N,01617.9741095,E,1,19,1.2,EHT668.0881,M*44
$GPGGQ,233042.00,010125,4742.4462852,N,01617.9741095,E,1,19,1.447,624.8771,M*3F
$GPGFA,233042.00,6.164,9.789,0.648,0.498,325.537,1.194,,VVV*0A
$GPLLK,233042.00,010125,,M,,M,1,19,1.4,,M*02
$GNGMP,233042.00,,,,,DAAA,19,0.8,,,,*52
$GPGMP,233042.00,,,,,,06,,,,2.5,123*78
$GLGMP,233042.00,,,,,,04,,,,,*7F
$GAGMP,233042.00,,,,,,04,,,,,*72
$GBGMP,233042.00,,,,,,05,,,,,*70
$PSSN,SNC,[0,343860000,2347]*4E
$GPZDA,233047.00,01,01,2025,,*62
$GPDTM,W84,,00.0000000,N,00.0000000,E,00.0000000,W84*5F
$GPRMC,233047.00,A,4742.4462783,N,01617.9741133,E,0.0,,010125,5.1,E,D*1A
$GPGLL,4742.4462783,N,01617.9741133,E,233047.00,A,D*6B
$GPGGA,233047.00,4742.4462783,N,01617.9741133,E,2,20,0.7,624.8954,M,43.2110,M,3.0,0123*45
$GNGNS,233047.00,4742.4462783,N,01617.9741133,E,DAAA,20,0.7,624.8954,43.2110,,*5A
$GPGNS,233047.00,,,,,,07,,,,3.0,123*78
$GLGNS,233047.00,,,,,,04,,,,,*7A
$GAGNS,233047.00,,,,,,04,,,,,*77
$GBGNS,233047.00,,,,,,05,,,,,*75
$GPLLQ,233047.00,010125,,M,,M,1,20,1.561,,M*11
$GPVTG,,T,,M,0.01,N,0.02,K,D*25
$GPHDT,,T*1B
$GPTHS,,V*0E
$GPROT,,V*08
$PSSN,HRP,233047.00,010125,,,,,,,00,0,,*60
$PTNL,AVR,233047.00,,Yaw,,Tilt,,,,0,,00*36
$GPGSA,A,3,02,03,08,14,17,21,32,,,,,,1.3,0.7,1.0*3E
$GPGSA,A,3,69,70,85,86,,,,,,,,,1.3,0.7,1.0*3D
$GPGSA,A,3,07,26,29,33,,,,,,,,,1.3,0.7,1.0*3E
$GPGSA,A,3,27,28,30,32,41,,,,,,,,1.3,0.7,1.0*3E
$GPGST,233047.00,2.204,0.689,0.632,320.424,0.666,0.656,1.250*54
$GPGBS,233047.00,4.228,4.023,5.748,17,0.0001,2.458,0.948*50
$GPGRS,233047.00,1,-0.4,-0.7,0.2,-0.3,2.5,-0.5,0.2,,,,,*63
$GPGRS,233047.00,1,1.6,-4.3,2.1,-1.5,,,,,,,,*48
$GPGRS,233047.00,1,-2.3,-0.9,-0.1,-0.2,,,,,,,,*44
$GPGRS,233047.00,1,-2.5,-2.4,-2.0,-0.2,-2.6,,,,,,,*49
$GPGSV,4,1,16,21,82,103,42,08,33,185,39,10,16,062,21,22,13,309,*71
$GPGSV,4,2,16,17,19,318,38,14,12,288,39,03,39,250,42,32,43,063,48*7E
$GPGSV,4,3,16,01,69,305,,02,74,308,42,28,09,108,,27,07,165,*77
$GPGSV,4,4,16,36,35,170,35,34,31,208,,49,34,195,37,61,03,257,*75
$GLGSV,3,1,09,85,67,331,49,69,56,043,51,86,13,315,41,70,51,204,36*6F
$GLGSV,3,2,09,84,52,120,32,77,08,351,26,76,06,308,30,68,08,033,*66
$GLGSV,3,3,09,71,05,209,*54
$GAGSV,4,1,13,33,64,309,45,08,13,036,,12,11,293,26,31,16,263,27*61
$GAGSV,4,2,13,24,14,313,30,29,40,163,37,07,50,081,37,26,59,097,40*6F
$GAGSV,4,3,13,14,00,156,,23,00,218,,16,06,337,,13,08,108,*65
$GAGSV,4,4,13,19,05,192,*5D
$GBGSV,4,1,16,57,79,345,,16,20,075,,60,10,109,,33,22,049,32*63
$GBGSV,4,2,16,28,24,142,35,39,22,064,28,05,24,128,,06,19,078,27*69
$GBGSV,4,3,16,09,16,092,,32,45,214,47,30,52,299,44,27,68,166,48*6A
$GBGSV,4,4,16,41,72,075,46,29,01,315,,02,09,105,,13,09,068,*6B
$GPGGA,233047.00,,,,,0,00,,,M,,M,,*49
$PTNL,GGK,233047.00,010125,4742.4462783,N,01617.9741133,E,1,20,1.3,EHT668.1064,M*46
$GPGGQ,233047.00,010125,4742.4462783,N,01617.9741133,E,1,20,1.561,624.8954,M*32
$GPGFA,233047.00,6.552,10.249,0.689,0.632,320.424,1.250,,VVV*3D
$GPLLK,233047.00,010125,,M,,M,1,20,1.5,,M*0C
$GNGMP,233047.00,,,,,DAAA,20,0.7,,,,*52
$GPGMP,233047.00,,,,,,07,,,,3.0,123*78
$GLGMP,233047.00,,,,,,04,,,,,*7A
$GAGMP,233047.00,,,,,,04,,,,,*77
$GBGMP,233047.00,,,,,,05,,,,,*75
$PSSN,SNC,[0,343865000,2347]*4B
$GPZDA,233052.00,01,01,2025,,*66
$GPDTM,W84,,00.0000000,N,00.0000000,E,00.0000000,W84*5F
$GPRMC,233052.00,A,4742.4462633,N,01617.9741187,E,0.0,,010125,5.1,E,D*1B
$GPGLL,4742.4462633,N,01617.9741187,E,233052.00,A,D*6A
$GPGGA,233052.00,4742.4462633,N,01617.9741187,E,2,18,0.8,624.9322,M,43.2110,M,1.8,0123*40
$GNGNS,233052.00,4742.4462633,N,01617.9741187,E,DAAA,18,0.8,624.9322,43.2110,,*55
$GPGNS,233052.00,,,,,,06,,,,1.8,123*77
$GLGNS,233052.00,,,,,,03,,,,,*79
$GAGNS,233052.00,,,,,,04,,,,,*73
$GBGNS,233052.00,,,,,,05,,,,,*71
$GPLLQ,233052.00,010125,,M,,M,1,18,2.346,,M*1E
$GPVTG,,T,,M,0.00,N,0.01,K,D*27
$GPHDT,,T*1B
$GPTHS,,V*0E
$GPROT,,V*08
$PSSN,HRP,233052.00,010125,,,,,,,00,0,,*64
$PTNL,AVR,233052.00,,Yaw,,Tilt,,,,0,,00*32
$GPGSA,A,3,02,03,08,17,21,32,,,,,,,1.4,0.8,1.1*32
$GPGSA,A,3,69,85,86,,,,,,,,,,1.4,0.8,1.1*33
$GPGSA,A,3,07,26,29,33,,,,,,,,,1.4,0.8,1.1*37
$GPGSA,A,3,27,28,30,32,41,,,,,,,,1.4,0.8,1.1*37
$GPGST,233052.00,2.631,1.013,0.886,316.475,0.955,0.948,1.922*57
$GPGBS,233052.00,4.000,3.950,5.888,17,0.0001,3.542,0.952*55
$GPGRS,233052.00,1,-0.5,-1.2,-0.2,3.5,-0.0,-0.1,,,,,,*65
$GPGRS,233052.00,1,0.7,1.5,-5.0,,,,,,,,,*4E
$GPGRS,233052.00,1,-1.1,0.2,-1.1,-0.6,,,,,,,,*62
$GPGRS,233052.00,1,-1.9,-2.5,-2.7,-0.7,-3.7,,,,,,,*41
$GPGSV,4,1,16,21,82,103,41,08,33,185,40,10,16,062,,22,13,309,*7F
$GPGSV,4,2,16,17,19,318,42,14,12,288,34,03,39,250,45,32,43,063,49*78
$GPGSV,4,3,16,01,69,306,,02,74,308,40,28,09,108,,27,07,165,*76
$GPGSV,4,4,16,36,35,170,37,34,31,208,,49,34,195,36,61,03,257,*76
$GLGSV,3,1,09,85,67,332,47,69,56,043,49,86,13,315,40,70,51,204,35*69
$GLGSV,3,2,09,84,52,120,31,77,08,351,27,76,06,308,19,68,08,033,*6F
$GLGSV,3,3,09,71,05,209,*54
$GAGSV,4,1,13,33,64,309,45,08,13,036,28,12,11,293,,31,16,263,30*69
$GAGSV,4,2,13,24,14,313,27,29,40,163,38,07,50,080,39,26,59,097,42*6B
$GAGSV,4,3,13,14,00,156,,23,00,218,,16,06,337,,13,08,108,*65
$GAGSV,4,4,13,19,05,192,*5D
$GBGSV,4,1,16,57,79,345,,16,20,075,,60,10,109,,33,22,049,25*65
$GBGSV,4,2,16,28,24,142,38,39,22,064,29,05,24,128,,06,19,078,25*67
$GBGSV,4,3,16,09,16,092,,32,45,214,48,30,52,299,40,27,68,166,48*61
$GBGSV,4,4,16,41,72,075,40,29,01,315,,02,09,105,,13,09,068,*6D
$GPGGA,233052.00,,,,,0,00,,,M,,M,,*4D
$PTNL,GGK,233052.00,010125,4742.4462633,N,01617.9741187,E,1,18,1.4,EHT668.1432,M*4C
$GPGGQ,233052.00,010125,4742.4462633,N,01617.9741187,E,1,18,2.346,624.9322,M*32
$GPGFA,233052.00,9.634,15.760,1.013,0.886,316.475,1.922,,VVV*34
$GPLLK,233052.00,010125,,M,,M,1,18,1.6,,M*00
$GNGMP,233052.00,,,,,DAAA,18,0.8,,,,*52
$GPGMP,233052.00,,,,,,06,,,,1.8,123*77
$GLGMP,233052.00,,,,,,03,,,,,*79
$GAGMP,233052.00,,,,,,04,,,,,*73
$GBGMP,233052.00,,,,,,05,,,,,*71
$PSSN,SNC,[0,343870000,2347]*4F
$GPZDA,233057.00,01,01,2025,,*63
$GPDTM,W84,,00.0000000,N,00.0000000,E,00.0000000,W84*5F
$GPRMC,233057.00,A,4742.4462659,N,01617.9741157,E,0.0,,010125,5.1,E,D*1F
$GPGLL,4742.4462659,N,01617.9741157,E,233057.00,A,D*6E
$GPGGA,233057.00,4742.4462659,N,01617.9741157,E,2,18,0.8,624.9473,M,43.2110,M,2.6,0123*4A
$GNGNS,233057.00,4742.4462659,N,01617.9741157,E,DAAA,18,0.8,624.9473,43.2110,,*52
$GPGNS,233057.00,,,,,,05,,,,2.6,123*7C
$GLGNS,233057.00,,,,,,04,,,,,*7B
$GAGNS,233057.00,,,,,,04,,,,,*76
$GBGNS,233057.00,,,,,,05,,,,,*74
$GPLLQ,233057.00,010125,,M,,M,1,18,2.210,,M*19
$GPVTG,,T,,M,0.01,N,0.02,K,D*25
$GPHDT,,T*1B
$GPTHS,,V*0E
$GPROT,,V*08
$PSSN,HRP,233057.00,010125,,,,,,,00,0,,*61
$PTNL,AVR,233057.00,,Yaw,,Tilt,,,,0,,00*37
$GPGSA,A,3,02,03,08,21,32,,,,,,,,1.4,0.8,1.2*37
$GPGSA,A,3,69,70,85,86,,,,,,,,,1.4,0.8,1.2*37
$GPGSA,A,3,07,26,29,33,,,,,,,,,1.4,0.8,1.2*34
$GPGSA,A,3,27,28,30,32,41,,,,,,,,1.4,0.8,1.2*34
$GPGST,233057.00,3.075,1.045,0.599,332.883,0.970,0.715,1.853*50
$GPGBS,233057.00,5.652,4.391,10.114,08,0.0001,1.390,0.766*64
$GPGRS,233057.00,1,-0.6,0.4,1.4,-0.6,0.6,,,,,,,*67
$GPGRS,233057.00,1,0.9,-5.4,2.4,-5.5,,,,,,,,*40
$GPGRS,233057.00,1,-0.7,0.2,-0.5,-0.6,,,,,,,,*65
$GPGRS,233057.00,1,-1.8,-1.1,-1.5,-1.7,-5.0,,,,,,,*43
$GPGSV,4,1,16,21,82,103,41,08,33,185,40,10,16,062,23,22,13,309,*7E
$GPGSV,4,2,16,17,19,318,39,14,12,288,30,03,39,250,44,32,43,063,47*7F
$GPGSV,4,3,16,01,69,306,,02,74,308,39,28,09,108,,27,07,165,*78
$GPGSV,4,4,16,36,35,170,39,34,31,208,,49,34,195,38,61,03,257,*76
$GLGSV,3,1,09,85,67,332,47,69,56,043,51,86,13,315,40,70,51,204,36*63
$GLGSV,3,2,09,84,52,120,32,77,08,351,,76,06,308,32,68,08,033,19*68
$GLGSV,3,3,09,71,05,209,*54
$GAGSV,4,1,13,33,64,309,46,08,13,036,26,12,11,294,25,31,16,263,35*61
$GAGSV,4,2,13,24,14,313,30,29,40,163,40,07,50,080,41,26,59,097,44*6B
$GAGSV,4,3,13,14,00,156,,23,00,218,,16,06,337,,13,08,108,*65
$GAGSV,4,4,13,19,05,192,*5D
$GBGSV,4,1,16,57,79,345,,16,20,075,,60,10,109,,33,22,049,34*65
$GBGSV,4,2,16,28,24,142,37,39,22,064,,05,24,128,,06,19,078,20*66
$GBGSV,4,3,16,09,16,092,,32,45,214,49,30,52,299,42,27,68,166,48*62
$GBGSV,4,4,16,41,72,075,42,29,01,315,36,02,09,105,,13,09,068,*6A
$GPGGA,233057.00,,,,,0,00,,,M,,M,,*48
$PTNL,GGK,233057.00,010125,4742.4462659,N,01617.9741157,E,1,18,1.4,EHT668.1583,M*43
$GPGGQ,233057.00,010125,4742.4462659,N,01617.9741157,E,1,18,2.210,624.9473,M*37
$GPGFA,233057.00,9.938,15.195,1.045,0.599,332.883,1.853,,VVV*3A
$GPLLK,233057.00,010125,,M,,M,1,18,1.7,,M*04
$GNGMP,233057.00,,,,,DAAA,18,0.8,,,,*57
$GPGMP,233057.00,,,,,,05,,,,2.6,123*7C
$GLGMP,233057.00,,,,,,04,,,,,*7B
$GAGMP,233057.00,,,,,,04,,,,,*76
$GBGMP,233057.00,,,,,,05,,,,,*74
$PSSN,SNC,[0,343875000,2347]*4A
$GPZDA,233102.00,01,01,2025,,*62
$GPDTM,W84,,00.0000000,N,00.0000000,E,00.0000000,W84*5F
$GPRMC,233102.00,A,4742.4462782,N,01617.9741174,E,0.0,,010125,5.1,E,D*18
$GPGLL,4742.4462782,N,01617.9741174,E,233102.00,A,D*69
$GPGGA,233102.00,4742.4462782,N,01617.9741174,E,2,20,0.7,624.9726,M,43.2110,M,2.5,0123*49
$GNGNS,233102.00,4742.4462782,N,01617.9741174,E,DAAA,20,0.7,624.9726,43.2110,,*52
$GPGNS,233102.00,,,,,,06,,,,2.5,123*7D
$GLGNS,233102.00,,,,,,04,,,,,*7A
$GAGNS,233102.00,,,,,,04,,,,,*77
$GBGNS,233102.00,,,,,,06,,,,,*76
$GPLLQ,233102.00,010125,,M,,M,1,20,2.694,,M*1B
$GPVTG,,T,,M,0.00,N,0.01,K,D*27
$GPHDT,,T*1B
$GPTHS,,V*0E
$GPROT,,V*08
$PSSN,HRP,233102.00,010125,,,,,,,00,0,,*60
$PTNL,AVR,233102.00,,Yaw,,Tilt,,,,0,,00*36
$GPGSA,A,3,02,03,08,17,21,32,,,,,,,1.2,0.7,1.0*3A
$GPGSA,A,3,69,70,85,86,,,,,,,,,1.2,0.7,1.0*3C
$GPGSA,A,3,07,26,29,33,,,,,,,,,1.2,0.7,1.0*3F
$GPGSA,A,3,27,28,30,32,39,41,,,,,,,1.2,0.7,1.0*35
$GPGST,233102.00,3.210,1.164,1.029,313.009,1.094,1.103,2.202*5B
$GPGBS,233102.00,4.053,4.075,5.681,17,0.0001,2.854,0.932*54
$GPGRS,233102.00,1,-0.8,0.2,1.8,2.9,-1.3,-0.4,,,,,,*6C
$GPGRS,233102.00,1,0.3,-4.5,2.1,-5.1,,,,,,,,*4A
$GPGRS,233102.00,1,-1.2,-0.5,0.6,-1.4,,,,,,,,*67
$GPGRS,233102.00,1,-2.1,-2.2,-2.3,-3.2,5.4,-3.4,,,,,,*67
$GPGSV,4,1,16,21,82,103,44,08,33,185,38,10,16,062,,22,13,309,*75
$GPGSV,4,2,16,17,19,318,40,14,12,288,33,03,39,250,42,32,43,063,49*7A
$GPGSV,4,3,16,01,69,306,,02,74,308,39,28,09,108,,27,07,165,*78
$GPGSV,4,4,16,36,35,170,38,34,31,208,,49,34,195,34,61,03,257,*7B
$GLGSV,3,1,09,85,67,332,49,69,56,043,50,86,13,315,36,70,51,204,36*6D
$GLGSV,3,2,09,84,52,120,34,77,08,351,,76,06,308,35,68,08,033,22*61
$GLGSV,3,3,09,71,05,209,*54
$GAGSV,4,1,13,33,64,309,47,08,13,036,26,12,11,294,24,31,16,263,28*6D
$GAGSV,4,2,13,24,14,313,33,29,40,163,41,07,50,080,41,26,59,097,43*6E
$GAGSV,4,3,13,14,00,156,,23,00,218,,16,06,337,,13,08,108,*65
$GAGSV,4,4,13,19,05,192,*5D
$GBGSV,4,1,16,57,79,345,,16,20,075,,60,10,109,,33,22,049,29*69
$GBGSV,4,2,16,28,24,142,37,39,22,064,35,05,24,128,,06,19,078,26*66
$GBGSV,4,3,16,09,16,092,,32,45,214,47,30,52,299,46,27,68,166,50*61
$GBGSV,4,4,16,41,72,075,46,29,01,315,36,02,09,105,,13,08,068,*6F
$GPGGA,233102.00,,,,,0,00,,,M,,M,,*49
$PTNL,GGK,233102.00,010125,4742.4462782,N,01617.9741174,E,1,20,1.2,EHT668.1837,M*4B
$GPGGQ,233102.00,010125,4742.4462782,N,01617.9741174,E,1,20,2.694,624.9726,M*30
$GPGFA,233102.00,11.063,18.053,1.164,1.029,313.009,2.202,,VVV*0A
$GPLLK,233102.00,010125,,M,,M,1,20,1.4,,M*0D
$GNGMP,233102.00,,,,,DAAA,20,0.7,,,,*52
$GPGMP,233102.00,,,,,,06,,,,2.5,123*7D
$GLGMP,233102.00,,,,,,04,,,,,*7A
$GAGMP,233102.00,,,,,,04,,,,,*77
$GBGMP,233102.00,,,,,,06,,,,,*76
$PSSN,SNC,[0,343880000,2347]*40
$GPZDA,233107.00,01,01,2025,,*67
$GPDTM,W84,,00.0000000,N,00.0000000,E,00.0000000,W84*5F
$GPRMC,233107.00,A,4742.4462868,N,01617.9741165,E,0.0,,010125,5.1,E,D*16
$GPGLL,4742.4462868,N,01617.9741165,E,233107.00,A,D*67
$GPGGA,233107.00,4742.4462868,N,01617.9741165,E,2,19,0.8,624.9906,M,43.2110,M,3.0,0123*4A
$GNGNS,233107.00,4742.4462868,N,01617.9741165,E,DAAA,19,0.8,624.9906,43.2110,,*55
$GPGNS,233107.00,,,,,,07,,,,3.0,123*7D
$GLGNS,233107.00,,,,,,03,,,,,*78
$GAGNS,233107.00,,,,,,04,,,,,*72
$GBGNS,233107.00,,,,,,05,,,,,*70
$GPLLQ,233107.00,010125,,M,,M,1,19,1.284,,M*12
$GPVTG,,T,,M,0.02,N,0.04,K,D*20
$GPHDT,,T*1B
$GPTHS,,V*0E
$GPROT,,V*08
$PSSN,HRP,233107.00,010125,,,,,,,00,0,,*65
$PTNL,AVR,233107.00,,Yaw,,Tilt,,,,0,,00*33
$GPGSA,A,3,02,03,08,14,17,21,32,,,,,,1.3,0.8,1.0*31
$GPGSA,A,3,69,85,86,,,,,,,,,,1.3,0.8,1.0*35
$GPGSA,A,3,07,26,29,33,,,,,,,,,1.3,0.8,1.0*31
$GPGSA,A,3,27,28,30,32,41,,,,,,,,1.3,0.8,1.0*31
$GPGST,233107.00,2.105,0.569,0.523,321.927,0.552,0.541,1.025*53
$GPGBS,233107.00,4.290,4.026,5.738,08,0.0001,0.817,0.809*5B
$GPGRS,233107.00,1,-0.6,-0.3,0.8,0.0,0.6,-0.3,0.3,,,,,*42
$GPGRS,233107.00,1,-0.1,3.0,-5.2,,,,,,,,,*61
$GPGRS,233107.00,1,-0.2,-0.6,0.9,-0.7,,,,,,,,*6D
$GPGRS,233107.00,1,-1.3,-0.6,-0.4,-3.1,-1.3,,,,,,,*49
$GPGSV,4,1,16,21,82,104,45,08,33,185,37,10,16,062,28,22,13,309,*76
$GPGSV,4,2,16,17,19,318,39,14,12,288,41,03,39,250,39,32,43,063,50*75
$GPGSV,4,3,16,01,69,306,,02,74,308,41,28,09,108,,27,07,165,*77
$GPGSV,4,4,16,36,35,170,39,34,31,208,,49,34,195,38,61,03,257,*76
$GLGSV,3,1,09,85,67,332,50,69,56,043,51,86,13,315,35,70,51,204,*62
$GLGSV,3,2,09,84,52,120,34,77,08,351,22,76,06,308,35,68,08,033,29*6A
$GLGSV,3,3,09,71,05,209,*54
$GAGSV,3,1,12,33,64,309,47,08,13,036,28,12,11,294,29,31,16,263,28*68
$GAGSV,3,2,12,24,14,313,28,29,40,163,39,07,50,080,39,26,59,097,41*60
$GAGSV,3,3,12,16,06,337,,19,05,192,,13,08,108,,23,00,218,*63
$GBGSV,4,1,16,57,79,345,,16,20,075,,60,10,109,,33,22,049,24*64
$GBGSV,4,2,16,28,24,142,37,39,22,064,26,05,24,128,,06,19,078,29*6B
$GBGSV,4,3,16,09,16,091,,32,45,214,47,30,53,299,46,27,68,166,50*63
$GBGSV,4,4,16,41,72,075,46,29,01,315,39,02,09,105,,13,08,068,*60
$GPGGA,233107.00,,,,,0,00,,,M,,M,,*4C
$PTNL,GGK,233107.00,010125,4742.4462868,N,01617.9741165,E,1,19,1.3,EHT668.2016,M*46
$GPGGQ,233107.00,010125,4742.4462868,N,01617.9741165,E,1,19,1.284,624.9906,M*3E
$GPGFA,233107.00,5.412,8.407,0.569,0.523,321.927,1.025,,VVV*0A
$GPLLK,233107.00,010125,,M,,M,1,19,1.5,,M*03
$GNGMP,233107.00,,,,,DAAA,19,0.8,,,,*52
$GPGMP,233107.00,,,,,,07,,,,3.0,123*7D
$GLGMP,233107.00,,,,,,03,,,,,*78
$GAGMP,233107.00,,,,,,04,,,,,*72
$GBGMP,233107.00,,,,,,05,,,,,*70
$PSSN,SNC,[0,343885000,2347]*45
$GPZDA,233112.00,01,01,2025,,*63
$GPDTM,W84,,00.0000000,N,00.0000000,E,00.0000000,W84*5F
$GPRMC,233112.00,A,4742.4462735,N,01617.9741112,E,0.0,,010125,5.1,E,D*15
$GPGLL,4742.4462735,N,01617.9741112,E,233112.00,A,D*64
$GPGGA,233112.00,4742.4462735,N,01617.9741112,E,2,18,0.8,625.0019,M,43.2110,M,1.8,0123*4D
$GNGNS,233112.00,4742.4462735,N,01617.9741112,E,DAAA,18,0.8,625.0019,43.2110,,*58
$GPGNS,233112.00,,,,,,06,,,,1.8,123*72
$GLGNS,233112.00,,,,,,03,,,,,*7C
$GAGNS,233112.00,,,,,,04,,,,,*76
$GBGNS,233112.00,,,,,,05,,,,,*74
$GPLLQ,233112.00,010125,,M,,M,1,18,2.340,,M*1D
$GPVTG,,T,,M,0.00,N,0.01,K,D*27
$GPHDT,,T*1B
$GPTHS,,V*0E
$GPROT,,V*08
$PSSN,HRP,233112.00,010125,,,,,,,00,0,,*61
$PTNL,AVR,233112.00,,Yaw,,Tilt,,,,0,,00*37
$GPGSA,A,3,02,03,08,17,21,32,,,,,,,1.4,0.8,1.1*32
$GPGSA,A,3,69,85,86,,,,,,,,,,1.4,0.8,1.1*33
$GPGSA,A,3,07,26,29,33,,,,,,,,,1.4,0.8,1.1*37
$GPGSA,A,3,27,28,30,32,41,,,,,,,,1.4,0.8,1.1*37
$GPGST,233112.00,2.221,1.017,0.884,318.359,0.960,0.945,1.914*58
$GPGBS,233112.00,4.044,3.964,5.864,03,0.0001,-2.578,0.716*7B
$GPGRS,233112.00,1,0.3,-2.6,0.7,1.9,-0.2,0.8,,,,,,*4C
$GPGRS,233112.00,1,-1.3,3.2,-4.6,,,,,,,,,*61
$GPGRS,233112.00,1,-0.1,-0.3,1.1,-1.6,,,,,,,,*66
$GPGRS,233112.00,1,-0.7,-0.2,-0.2,-1.8,-1.5,,,,,,,*47
$GPGSV,4,1,16,21,82,104,45,08,33,185,36,10,16,062,28,22,13,309,*77
$GPGSV,4,2,16,17,19,318,37,14,12,288,41,03,39,250,35,32,43,063,49*7F
$GPGSV,4,3,16,01,69,306,,02,74,308,43,28,09,108,,27,07,165,*75
$GPGSV,4,4,16,36,35,170,40,34,31,208,,49,34,195,37,61,03,257,*77
$GLGSV,3,1,09,85,67,332,51,69,56,043,49,86,13,315,36,70,51,204,34*6E
$GLGSV,3,2,09,84,52,120,34,77,08,351,,76,06,308,36,68,08,033,21*61
$GLGSV,3,3,09,71,05,209,*54
$GAGSV,3,1,12,33,64,309,46,08,13,036,25,12,11,294,30,31,16,263,27*63
$GAGSV,3,2,12,24,14,313,31,29,40,163,40,07,50,080,42,26,59,097,41*6A
$GAGSV,3,3,12,16,06,337,,19,05,192,,13,08,108,,23,00,218,*63
$GBGSV,4,1,16,57,79,345,,16,20,075,,60,10,109,,33,22,049,30*61
$GBGSV,4,2,16,28,24,142,38,39,22,064,,05,24,128,,06,19,078,22*6B
$GBGSV,4,3,16,09,16,091,,32,45,214,47,30,53,299,46,27,68,166,51*62
$GBGSV,4,4,16,41,72,074,44,29,01,315,39,02,09,105,,13,08,068,*63
$GPGGA,233112.00,,,,,0,00,,,M,,M,,*48
$PTNL,GGK,233112.00,010125,4742.4462735,N,01617.9741112,E,1,18,1.4,EHT668.2129,M*4E
$GPGGQ,233112.00,010125,4742.4462735,N,01617.9741112,E,1,18,2.340,625.0019,M*39
$GPGFA,233112.00,9.665,15.693,1.017,0.884,318.359,1.914,,VVV*3C
$GPLLK,233112.00,010125,,M,,M,1,18,1.6,,M*05
$GNGMP,233112.00,,,,,DAAA,18,0.8,,,,*57
$GPGMP,233112.00,,,,,,06,,,,1.8,123*72
$GLGMP,233112.00,,,,,,03,,,,,*7C
$GAGMP,233112.00,,,,,,04,,,,,*76
$GBGMP,233112.00,,,,,,05,,,,,*74
$PSSN,SNC,[0,343890000,2347]*41
$GPZDA,233117.00,01,01,2025,,*66
$GPDTM,W84,,00.0000000,N,00.0000000,E,00.0000000,W84*5F
$GPRMC,233117.00,A,4742.4462619,N,01617.9741031,E,0.0,,010125,5.1,E,D*1F
$GPGLL,4742.4462619,N,01617.9741031,E,233117.00,A,D*6E
$GPGGA,233117.00,4742.4462619,N,01617.9741031,E,2,16,0.8,625.0166,M,43.2110,M,2.8,0123*43
$GNGNS,233117.00,4742.4462619,N,01617.9741031,E,DAAA,16,0.8,625.0166,43.2110,,*55
$GPGNS,233117.00,,,,,,04,,,,2.8,123*76
$GLGNS,233117.00,,,,,,03,,,,,*79
$GAGNS,233117.00,,,,,,04,,,,,*73
$GBGNS,233117.00,,,,,,05,,,,,*71
$GPLLQ,233117.00,010125,,M,,M,1,16,2.620,,M*15
$GPVTG,,T,,M,0.01,N,0.02,K,D*25
$GPHDT,,T*1B
$GPTHS,,V*0E
$GPROT,,V*08
$PSSN,HRP,233117.00,010125,,,,,,,00,0,,*64
$PTNL,AVR,233117.00,,Yaw,,Tilt,,,,0,,00*32
$GPGSA,A,3,02,03,21,32,,,,,,,,,1.5,0.8,1.2*3E
$GPGSA,A,3,69,85,86,,,,,,,,,,1.5,0.8,1.2*31
$GPGSA,A,3,07,26,29,33,,,,,,,,,1.5,0.8,1.2*35
$GPGSA,A,3,27,28,30,32,41,,,,,,,,1.5,0.8,1.2*35
$GPGST,233117.00,1.686,1.976,0.472,339.153,1.854,0.830,1.655*59
$GPGBS,233117.00,11.306,5.259,9.076,03,0.0001,-1.050,0.714*45
$GPGRS,233117.00,1,0.0,-1.0,0.1,0.6,,,,,,,,*60
$GPGRS,233117.00,1,-0.9,3.3,0.1,,,,,,,,,*40
$GPGRS,233117.00,1,-0.1,-0.5,1.6,-1.2,,,,,,,,*66
$GPGRS,233117.00,1,0.2,-1.8,0.1,-0.5,-2.2,,,,,,,*47
$GPGSV,4,1,16,21,82,104,44,08,33,185,34,10,16,062,,22,13,309,*7E
$GPGSV,4,2,16,17,19,318,40,14,12,288,40,03,39,250,38,32,43,062,49*72
$GPGSV,4,3,16,01,69,306,,02,74,308,42,28,09,108,,27,07,165,*74
$GPGSV,4,4,16,36,35,170,42,34,31,208,,49,34,195,39,61,03,257,*7B
$GLGSV,3,1,09,85,67,332,50,69,56,043,50,86,13,315,36,70,52,204,31*61
$GLGSV,3,2,09,84,51,120,33,77,08,351,26,76,06,308,25,68,08,033,29*6B
$GLGSV,3,3,09,71,05,209,*54
$GAGSV,3,1,12,33,64,309,45,08,13,036,30,12,11,294,31,31,16,263,28*6A
$GAGSV,3,2,12,24,14,313,34,29,40,163,38,07,50,080,42,26,59,097,40*61
$GAGSV,3,3,12,16,06,337,,19,05,192,,13,08,108,,23,00,218,*63
$GBGSV,4,1,16,57,79,346,,16,20,075,,60,10,109,,33,22,049,30*62
$GBGSV,4,2,16,28,24,142,39,39,22,064,,05,24,128,,06,19,078,*6A
$GBGSV,4,3,16,09,16,091,,32,45,214,45,30,53,299,46,27,68,166,52*63
$GBGSV,4,4,16,41,72,074,44,29,01,315,39,02,09,105,,13,08,068,*63
$GPGGA,233117.00,,,,,0,00,,,M,,M,,*4D
$PTNL,GGK,233117.00,010125,4742.4462619,N,01617.9741031,E,1,16,1.5,EHT668.2277,M*43
$GPGGQ,233117.00,010125,4742.4462619,N,01617.9741031,E,1,16,2.620,625.0166,M*37
$GPGFA,233117.00,18.784,13.573,1.976,0.472,339.153,1.655,,VVV*06
$GPLLK,233117.00,010125,,M,,M,1,16,1.8,,M*00
$GNGMP,233117.00,,,,,DAAA,16,0.8,,,,*5C
$GPGMP,233117.00,,,,,,04,,,,2.8,123*76
$GLGMP,233117.00,,,,,,03,,,,,*79
$GAGMP,233117.00,,,,,,04,,,,,*73
$GBGMP,233117.00,,,,,,05,,,,,*71
$PSSN,SNC,[0,343895000,2347]*44
$GPZDA,233122.00,01,01,2025,,*60
$GPDTM,W84,,00.0000000,N,00.0000000,E,00.0000000,W84*5F
$GPRMC,233122.00,A,4742.4462566,N,01617.9740993,E,0.0,,010125,5.1,E,D*12
$GPGLL,4742.4462566,N,01617.9740993,E,233122.00,A,D*63
$GPGGA,233122.00,4742.4462566,N,01617.9740993,E,2,16,0.8,625.0167,M,43.2110,M,2.8,0123*4F
$GNGNS,233122.00,4742.4462566,N,01617.9740993,E,DAAA,16,0.8,625.0167,43.2110,,*59
$GPGNS,233122.00,,,,,,04,,,,2.8,123*70
$GLGNS,233122.00,,,,,,03,,,,,*7F
$GAGNS,233122.00,,,,,,04,,,,,*75
$GBGNS,233122.00,,,,,,05,,,,,*77
$GPLLQ,233122.00,010125,,M,,M,1,16,2.269,,M*1A
$GPVTG,,T,,M,0.00,N,0.01,K,D*27
$GPHDT,,T*1B
$GPTHS,,V*0E
$GPROT,,V*08
$PSSN,HRP,233122.00,010125,,,,,,,00,0,,*62
$PTNL,AVR,233122.00,,Yaw,,Tilt,,,,0,,00*34
$GPGSA,A,3,02,03,21,32,,,,,,,,,1.5,0.8,1.2*3E
$GPGSA,A,3,69,85,86,,,,,,,,,,1.5,0.8,1.2*31
$GPGSA,A,3,07,26,29,33,,,,,,,,,1.5,0.8,1.2*35
$GPGSA,A,3,27,28,30,32,41,,,,,,,,1.5,0.8,1.2*35
$GPGST,233122.00,1.775,1.700,0.467,339.579,1.601,0.737,1.428*5B
$GPGBS,233122.00,11.545,5.417,9.281,03,0.0001,0.962,0.727*60
$GPGRS,233122.00,1,-0.3,1.0,-0.3,0.3,,,,,,,,*4F
$GPGRS,233122.00,1,-0.2,2.9,-1.0,,,,,,,,,*6B
$GPGRS,233122.00,1,-0.3,-1.2,1.1,-1.7,,,,,,,,*66
$GPGRS,233122.00,1,0.4,-2.4,0.3,0.2,-2.4,,,,,,,*66
$GPGSV,4,1,16,21,82,104,43,08,33,185,30,10,16,062,30,22,13,309,*7E
$GPGSV,4,2,16,17,19,318,41,14,12,288,37,03,39,250,39,32,43,062,51*7B
$GPGSV,4,3,16,01,69,306,,02,74,308,43,28,09,108,,27,07,165,*75
$GPGSV,4,4,16,36,35,170,41,34,31,208,,49,34,195,38,61,03,257,*79
$GLGSV,3,1,09,85,67,332,49,69,56,043,51,86,13,315,37,70,52,204,32*6A
$GLGSV,3,2,09,84,51,121,32,77,08,350,20,76,06,308,,68,08,033,*60
$GLGSV,3,3,09,71,06,209,*57
$GAGSV,3,1,12,33,64,309,46,08,13,036,23,12,11,294,32,31,16,263,29*69
$GAGSV,3,2,12,24,14,313,33,29,40,163,39,07,50,080,44,26,59,097,36*60
$GAGSV,3,3,12,16,06,337,,19,05,192,,13,08,108,,23,00,218,*63
$GBGSV,4,1,16,57,79,346,,16,20,075,,60,10,109,,33,22,049,33*61
$GBGSV,4,2,16,28,24,142,38,39,22,064,,05,24,128,,06,19,078,*6B
$GBGSV,4,3,16,09,16,091,,32,45,214,44,30,53,299,46,27,68,166,53*63
$GBGSV,4,4,16,41,72,074,46,29,01,315,38,02,09,105,,13,08,068,*60
$GPGGA,233122.00,,,,,0,00,,,M,,M,,*4B
$PTNL,GGK,233122.00,010125,4742.4462566,N,01617.9740993,E,1,16,1.5,EHT668.2278,M*41
$GPGGQ,233122.00,010125,4742.4462566,N,01617.9740993,E,1,16,2.269,625.0167,M*32
$GPGFA,233122.00,16.160,11.713,1.700,0.467,339.579,1.428,,VVV*0B
$GPLLK,233122.00,010125,,M,,M,1,16,1.8,,M*06
$GNGMP,233122.00,,,,,DAAA,16,0.8,,,,*5A
$GPGMP,233122.00,,,,,,04,,,,2.8,123*70
$GLGMP,233122.00,,,,,,03,,,,,*7F
$GAGMP,233122.00,,,,,,04,,,,,*75
$GBGMP,233122.00,,,,,,05,,,,,*77
$PSSN,SNC,[0,343900000,2347]*49
$GPZDA,233127.00,01,01,2025,,*65
$GPDTM,W84,,00.0000000,N,00.0000000,E,00.0000000,W84*5F
$GPRMC,233127.00,A,4742.4462603,N,01617.9741047,E,0.0,,010125,5.1,E,D*16
$GPGLL,4742.4462603,N,01617.9741047,E,233127.00,A,D*67
$GPGGA,233127.00,4742.4462603,N,01617.9741047,E,2,16,0.8,625.0262,M,43.2110,M,2.8,0123*4D
$GNGNS,233127.00,4742.4462603,N,01617.9741047,E,DAAA,16,0.8,625.0262,43.2110,,*5B
$GPGNS,233127.00,,,,,,04,,,,2.8,123*75
$GLGNS,233127.00,,,,,,03,,,,,*7A
$GAGNS,233127.00,,,,,,04,,,,,*70
$GBGNS,233127.00,,,,,,05,,,,,*72
$GPLLQ,233127.00,010125,,M,,M,1,16,2.186,,M*1D
$GPVTG,,T,,M,0.01,N,0.03,K,D*24
$GPHDT,,T*1B
$GPTHS,,V*0E
$GPROT,,V*08
$PSSN,HRP,233127.00,010125,,,,,,,00,0,,*67
$PTNL,AVR,233127.00,,Yaw,,Tilt,,,,0,,00*31
$GPGSA,A,3,02,03,21,32,,,,,,,,,1.5,0.8,1.2*3E
$GPGSA,A,3,69,85,86,,,,,,,,,,1.5,0.8,1.2*31
$GPGSA,A,3,07,26,29,33,,,,,,,,,1.5,0.8,1.2*35
$GPGSA,A,3,27,28,30,32,41,,,,,,,,1.5,0.8,1.2*35
$GPGST,233127.00,1.433,1.639,0.450,339.530,1.544,0.712,1.374*56
$GPGBS,233127.00,11.685,5.492,8.780,03,0.0001,0.340,0.743*6A
$GPGRS,233127.00,1,-0.2,0.3,-0.3,0.3,,,,,,,,*49
$GPGRS,233127.00,1,0.6,1.3,0.9,,,,,,,,,*6B
$GPGRS,233127.00,1,-0.1,-1.3,1.3,-1.5,,,,,,,,*60
$GPGRS,233127.00,1,0.1,-2.0,0.8,0.9,-2.0,,,,,,,*66
$GPGSV,4,1,16,21,82,104,43,08,33,185,25,10,15,062,29,22,13,309,*71
$GPGSV,4,2,16,17,19,318,37,14,12,288,35,03,39,250,40,32,43,062,50*77
$GPGSV,4,3,16,01,69,306,,02,74,308,44,28,09,108,,27,07,165,*72
$GPGSV,4,4,16,36,35,170,40,34,31,208,,49,34,195,38,61,03,257,*78
$GLGSV,3,1,09,85,67,332,47,69,56,043,52,86,13,315,41,70,52,204,32*66
$GLGSV,3,2,09,84,51,121,31,77,08,350,,76,06,308,,68,08,033,24*67
$GLGSV,3,3,09,71,06,209,*57
$GAGSV,3,1,12,33,65,309,45,08,13,036,21,12,11,294,29,31,16,263,30*6B
$GAGSV,3,2,12,24,14,313,34,29,40,163,34,07,50,080,43,26,59,097,37*6C
$GAGSV,3,3,12,16,06,337,,19,05,192,,13,08,108,,23,00,218,*63
$GBGSV,4,1,16,57,79,346,,16,20,075,,60,10,109,,33,22,049,*61
$GBGSV,4,2,16,28,24,142,36,39,22,064,30,05,24,128,,06,19,078,*66
$GBGSV,4,3,16,09,16,091,,32,45,214,45,30,53,299,46,27,68,166,53*62
$GBGSV,4,4,16,41,72,074,46,29,01,315,34,02,09,105,,13,08,068,*6C
$GPGGA,233127.00,,,,,0,00,,,M,,M,,*4E
$PTNL,GGK,233127.00,010125,4742.4462603,N,01617.9741047,E,1,16,1.5,EHT668.2373,M*4F
$GPGGQ,233127.00,010125,4742.4462603,N,01617.9741047,E,1,16,2.186,625.0262,M*32
$GPGFA,233127.00,15.586,11.270,1.639,0.450,339.530,1.374,,VVV*0D
$GPLLK,233127.00,010125,,M,,M,1,16,1.8,,M*03
$GNGMP,233127.00,,,,,DAAA,16,0.8,,,,*5F
$GPGMP,233127.00,,,,,,04,,,,2.8,123*75
$GLGMP,233127.00,,,,,,03,,,,,*7A
$GAGMP,233127.00,,,,,,04,,,,,*70
$GBGMP,233127.00,,,,,,05,,,,,*72
$PSSN,SNC,[0,343905000,2347]*4C
$GPZDA,233132.00,01,01,2025,,*61
$GPDTM,W84,,00.0000000,N,00.0000000,E,00.0000000,W84*5F
$GPRMC,233132.00,A,4742.4462566,N,01617.9741216,E,0.0,,010125,5.1,E,D*14
$GPGLL,4742.4462566,N,01617.9741216,E,233132.00,A,D*65
$GPGGA,233132.00,4742.4462566,N,01617.9741216,E,2,17,0.8,625.0523,M,43.2110,M,1.6,0123*41
$GNGNS,233132.00,4742.4462566,N,01617.9741216,E,DAAA,17,0.8,625.0523,43.2110,,*5A
$GPGNS,233132.00,,,,,,05,,,,1.6,123*7D
$GLGNS,233132.00,,,,,,03,,,,,*7E
$GAGNS,233132.00,,,,,,04,,,,,*74
$GBGNS,233132.00,,,,,,05,,,,,*76
$GPLLQ,233132.00,010125,,M,,M,1,17,2.318,,M*1D
$GPVTG,,T,,M,0.01,N,0.02,K,D*25
$GPHDT,,T*1B
$GPTHS,,V*0E
$GPROT,,V*08
$PSSN,HRP,233132.00,010125,,,,,,,00,0,,*63
$PTNL,AVR,233132.00,,Yaw,,Tilt,,,,0,,00*35
$GPGSA,A,3,02,03,14,21,32,,,,,,,,1.4,0.8,1.1*39
$GPGSA,A,3,69,85,86,,,,,,,,,,1.4,0.8,1.1*33
$GPGSA,A,3,07,26,29,33,,,,,,,,,1.4,0.8,1.1*37
$GPGSA,A,3,27,28,30,32,41,,,,,,,,1.4,0.8,1.1*37
$GPGST,233132.00,1.685,1.687,0.571,342.613,1.619,0.742,1.483*55
$GPGBS,233132.00,8.617,4.370,9.074,03,0.0001,1.472,0.697*55
$GPGRS,233132.00,1,-0.6,1.5,0.5,-0.7,-0.1,,,,,,,*4E
$GPGRS,233132.00,1,0.9,-1.7,2.3,,,,,,,,,*41
$GPGRS,233132.00,1,0.2,-1.6,0.1,-0.9,,,,,,,,*41
$GPGRS,233132.00,1,-1.1,-1.3,0.0,-0.3,-3.2,,,,,,,*62
