$GPZDA,171442.00,01,01,2025,,*66
$GPDTM,W84,,00.0000000,N,00.0000000,E,00.0000000,W84*5F
$GPRMC,171442.00,A,4742.4466920,N,01617.9729984,E,0.0,,010125,5.1,E,D*17
$GPGLL,4742.4466920,N,01617.9729984,E,171442.00,A,D*66
$GPGGA,171442.00,4742.4466920,N,01617.9729984,E,2,20,0.8,625.3505,M,43.2111,M,3.4,0123*40
$GNGNS,171442.00,4742.4466920,N,01617.9729984,E,DAAA,20,0.8,625.3505,43.2111,,*5B
$GPGNS,171442.00,,,,,,05,,,,3.4,123*7A
$GLGNS,171442.00,,,,,,03,,,,,*79
$GAGNS,171442.00,,,,,,03,,,,,*74
$GBGNS,171442.00,,,,,,09,,,,,*7D
$GPLLQ,171442.00,010125,,M,,M,1,20,4.953,,M*1D
$GPVTG,,T,,M,0.01,N,0.01,K,D*26
$GPHDT,,T*1B
$GPTHS,,V*0E
$GPROT,,V*08
$PSSN,HRP,171442.00,010125,,,,,,,00,0,,*64
$PTNL,AVR,171442.00,,Yaw,,Tilt,,,,0,,00*32
$GPGSA,A,3,05,16,18,26,29,,,,,,,,1.6,0.8,1.4*3C
$GPGSA,A,3,79,81,82,,,,,,,,,,1.6,0.8,1.4*35
$GPGSA,A,3,15,21,27,,,,,,,,,,1.6,0.8,1.4*3A
$GPGSA,A,3,08,11,13,23,25,34,37,38,43,,,,1.6,0.8,1.4*3B
$GPGST,171442.00,3.256,2.423,0.847,4.232,2.417,0.863,4.236*55
$GPGBS,171442.00,9.990,3.168,12.667,16,0.0001,-3.207,0.979*41
$GPGRS,171442.00,1,2.1,-3.2,0.4,-0.0,0.1,,,,,,,*62
$GPGRS,171442.00,1,-2.1,-1.9,-4.8,,,,,,,,,*4F
$GPGRS,171442.00,1,1.3,-4.3,0.1,,,,,,,,,*4C
$GPGRS,171442.00,1,2.0,0.2,-0.2,-1.1,-3.9,-0.2,-1.3,7.0,1.0,,,*46
$GPGSV,4,1,15,18,70,177,49,05,28,062,36,25,22,138,21,20,10,033,29*72
$GPGSV,4,2,15,16,29,306,41,28,25,217,29,31,38,246,36,26,59,291,41*7E
$GPGSV,4,3,15,29,52,069,46,23,10,157,,27,04,269,32,36,35,170,39*7A
$GPGSV,4,4,15,34,31,208,34,49,34,195,37,61,03,257,*42
$GLGSV,3,1,10,80,63,305,37,88,11,047,25,73,11,328,32,65,11,053,*64
$GLGSV,3,2,10,83,18,232,,79,52,171,42,82,60,247,41,81,63,030,40*6F
$GLGSV,3,3,10,78,03,156,,72,08,000,30*64
$GAGSV,3,1,09,27,71,145,41,34,22,044,31,30,19,132,31,13,45,200,43*6F
$GAGSV,3,2,09,21,50,303,42,15,70,082,41,04,02,324,33,23,01,309,*65
$GAGSV,3,3,09,06,01,347,*56
$GBGSV,5,1,20,11,77,047,50,05,21,129,,60,10,109,,28,14,244,21*66
$GBGSV,5,2,20,25,33,178,35,37,25,313,44,12,22,059,29,38,30,047,38*67
$GBGSV,5,3,20,13,42,071,43,08,40,060,40,34,51,061,47,23,60,253,45*61
$GBGSV,5,4,20,43,77,256,49,22,08,037,,21,09,085,,02,06,107,*6A
$GBGSV,5,5,20,44,00,064,,50,05,107,,56,05,080,,10,01,096,*6C
$GPGGA,171442.00,,,,,0,00,,,M,,M,,*4D
$PTNL,GGK,171442.00,010125,4742.4466920,N,01617.9729984,E,1,20,1.6,EHT668.5616,M*49
$GPGGQ,171442.00,010125,4742.4466920,N,01617.9729984,E,1,20,4.953,625.3505,M*35
$GPGFA,171442.00,23.035,34.738,2.423,0.847,4.232,4.236,,VVV*02
$GPLLK,171442.00,010125,,M,,M,1,20,1.9,,M*04
$GNGMP,171442.00,,,,,DAAA,20,0.8,,,,*59
$GPGMP,171442.00,,,,,,05,,,,3.4,123*7A
$GLGMP,171442.00,,,,,,03,,,,,*79
$GAGMP,171442.00,,,,,,03,,,,,*74
$GBGMP,171442.00,,,,,,09,,,,,*7D
$PSSN,SNC,[0,321300000,2347]*47
$GPZDA,171447.00,01,01,2025,,*63
$GPDTM,W84,,00.0000000,N,00.0000000,E,00.0000000,W84*5F
$GPRMC,171447.00,A,4742.4466960,N,01617.9729754,E,0.0,,010125,5.1,E,D*15
$GPGLL,4742.4466960,N,01617.9729754,E,171447.00,A,D*64
$GPGGA,171447.00,4742.4466960,N,01617.9729754,E,2,19,1.1,625.3539,M,43.2111,M,2.0,0123*4A
$GNGNS,171447.00,4742.4466960,N,01617.9729754,E,DAAA,19,1.1,625.3539,43.2111,,*54
$GPGNS,171447.00,,,,,,05,,,,2.0,123*7A
$GLGNS,171447.00,,,,,,03,,,,,*7C
$GAGNS,171447.00,,,,,,03,,,,,*71
$GBGNS,171447.00,,,,,,08,,,,,*79
$GPLLQ,171447.00,010125,,M,,M,1,19,4.860,,M*13
$GPVTG,,T,,M,0.01,N,0.01,K,D*26
$GPHDT,,T*1B
$GPTHS,,V*0E
$GPROT,,V*08
$PSSN,HRP,171447.00,010125,,,,,,,00,0,,*61
$PTNL,AVR,171447.00,,Yaw,,Tilt,,,,0,,00*37
$GPGSA,A,3,05,16,18,26,29,,,,,,,,2.0,1.1,1.8*3D
$GPGSA,A,3,79,81,82,,,,,,,,,,2.0,1.1,1.8*34
$GPGSA,A,3,15,21,27,,,,,,,,,,2.0,1.1,1.8*3B
$GPGSA,A,3,08,11,13,23,34,37,38,43,,,,,2.0,1.1,1.8*3D
$GPGST,171447.00,3.337,2.393,0.792,4.664,2.386,0.813,4.155*54
$GPGBS,171447.00,10.258,3.258,13.905,16,0.0001,-2.448,0.936*7E
$GPGRS,171447.00,1,2.3,-2.4,0.5,-0.4,0.0,,,,,,,*66
$GPGRS,171447.00,1,-3.7,-3.8,-5.7,,,,,,,,,*40
$GPGRS,171447.00,1,1.1,-4.2,0.8,,,,,,,,,*43
$GPGRS,171447.00,1,1.4,0.2,-0.2,-1.1,-0.5,-1.2,6.1,0.2,,,,*48
$GPGSV,4,1,15,18,70,177,49,05,28,062,38,25,22,138,27,20,10,033,27*74
$GPGSV,4,2,15,16,29,306,41,28,25,217,33,31,38,246,36,26,59,291,39*7A
$GPGSV,4,3,15,29,52,069,47,23,10,157,,27,04,269,,36,35,170,38*7B
$GPGSV,4,4,15,34,31,208,34,49,34,195,37,61,03,257,*42
$GLGSV,3,1,10,80,64,305,38,88,10,047,25,73,11,328,,65,11,053,*6C
$GLGSV,3,2,10,83,18,232,,79,52,171,39,82,60,247,40,81,63,030,40*62
$GLGSV,3,3,10,78,03,156,,72,08,000,20*65
$GAGSV,3,1,09,27,71,145,41,34,22,044,30,30,19,132,31,13,45,200,26*6D
$GAGSV,3,2,09,21,50,303,43,15,70,082,41,04,02,324,33,23,01,309,*64
$GAGSV,3,3,09,06,01,347,*56
$GBGSV,5,1,19,11,77,047,50,05,21,129,,60,10,109,,28,14,244,25*68
$GBGSV,5,2,19,25,33,178,35,37,25,313,44,12,22,060,29,38,30,047,38*67
$GBGSV,5,3,19,13,42,071,43,08,40,060,40,34,51,061,47,23,60,253,45*6B
$GBGSV,5,4,19,43,77,256,48,22,08,036,,21,09,085,,02,06,107,*60
$GBGSV,5,5,19,50,05,106,,56,05,080,,10,01,096,*55
$GPGGA,171447.00,,,,,0,00,,,M,,M,,*48
$PTNL,GGK,171447.00,010125,4742.4466960,N,01617.9729754,E,1,19,2.0,EHT668.5650,M*46
$GPGGQ,171447.00,010125,4742.4466960,N,01617.9729754,E,1,19,4.860,625.3539,M*33
$GPGFA,171447.00,22.751,34.072,2.393,0.792,4.664,4.155,,VVV*00
$GPLLK,171447.00,010125,,M,,M,1,19,2.5,,M*04
$GNGMP,171447.00,,,,,DAAA,19,1.1,,,,*5E
$GPGMP,171447.00,,,,,,05,,,,2.0,123*7A
$GLGMP,171447.00,,,,,,03,,,,,*7C
$GAGMP,171447.00,,,,,,03,,,,,*71
$GBGMP,171447.00,,,,,,08,,,,,*79
$PSSN,SNC,[0,321305000,2347]*42
$GPZDA,171452.00,01,01,2025,,*67
$GPDTM,W84,,00.0000000,N,00.0000000,E,00.0000000,W84*5F
$GPRMC,171452.00,A,4742.4466982,N,01617.9729521,E,0.0,,010125,5.1,E,D*1D
$GPGLL,4742.4466982,N,01617.9729521,E,171452.00,A,D*6C
$GPGGA,171452.00,4742.4466982,N,01617.9729521,E,2,19,0.8,625.3740,M,43.2111,M,2.2,0123*44
$GNGNS,171452.00,4742.4466982,N,01617.9729521,E,DAAA,19,0.8,625.3740,43.2111,,*58
$GPGNS,171452.00,,,,,,05,,,,2.2,123*7C
$GLGNS,171452.00,,,,,,03,,,,,*78
$GAGNS,171452.00,,,,,,02,,,,,*74
$GBGNS,171452.00,,,,,,09,,,,,*7C
$GPLLQ,171452.00,010125,,M,,M,1,19,4.539,,M*16
$GPVTG,,T,,M,0.01,N,0.01,K,D*26
$GPHDT,,T*1B
$GPTHS,,V*0E
$GPROT,,V*08
$PSSN,HRP,171452.00,010125,,,,,,,00,0,,*65
$PTNL,AVR,171452.00,,Yaw,,Tilt,,,,0,,00*33
$GPGSA,A,3,05,16,18,26,29,,,,,,,,1.6,0.8,1.4*3C
$GPGSA,A,3,79,81,82,,,,,,,,,,1.6,0.8,1.4*35
$GPGSA,A,3,15,27,,,,,,,,,,,1.6,0.8,1.4*39
$GPGSA,A,3,08,11,13,23,25,34,37,38,43,,,,1.6,0.8,1.4*3B
$GPGST,171452.00,2.457,2.204,0.767,4.566,2.198,0.784,3.893*5C
$GPGBS,171452.00,9.710,3.167,12.707,05,0.0001,3.226,0.977*6C
$GPGRS,171452.00,1,3.2,-0.7,0.4,-0.8,-0.8,,,,,,,*4B
$GPGRS,171452.00,1,-3.5,-1.7,-1.9,,,,,,,,,*41
$GPGRS,171452.00,1,0.5,0.3,,,,,,,,,,*4C
$GPGRS,171452.00,1,0.9,0.3,-0.3,-0.6,2.3,-0.6,-0.8,5.6,-1.1,,,*4A
$GPGSV,4,1,15,18,70,177,49,05,28,062,38,25,22,138,28,20,10,033,26*7A
$GPGSV,4,2,15,16,29,306,41,28,25,217,34,31,37,246,36,26,59,291,39*72
$GPGSV,4,3,15,29,52,069,47,23,10,157,,27,04,269,35,36,35,170,39*7C
$GPGSV,4,4,15,34,31,208,34,49,34,195,37,61,03,257,*42
$GLGSV,3,1,10,80,64,305,35,88,10,047,24,73,11,328,28,65,11,053,*6A
$GLGSV,3,2,10,83,18,232,,79,52,171,40,82,60,247,43,81,63,030,42*6D
$GLGSV,3,3,10,78,03,156,,72,08,000,21*64
$GAGSV,3,1,09,27,71,145,40,34,22,044,30,30,19,132,30,13,45,200,44*69
$GAGSV,3,2,09,21,50,303,33,15,69,081,41,04,02,324,32,23,01,309,*69
$GAGSV,3,3,09,06,01,347,*56
$GBGSV,5,1,19,11,77,047,49,05,21,129,,60,10,109,,28,14,244,28*6D
$GBGSV,5,2,19,25,33,178,36,37,25,313,42,12,22,060,28,38,30,047,37*6C
$GBGSV,5,3,19,13,42,071,42,08,40,060,40,34,51,061,47,23,60,253,44*6B
$GBGSV,5,4,19,43,77,256,47,22,08,036,,21,09,085,,02,06,107,*6F
$GBGSV,5,5,19,50,05,106,,56,05,080,,10,00,096,*54
$GPGGA,171452.00,,,,,0,00,,,M,,M,,*4C
$PTNL,GGK,171452.00,010125,4742.4466982,N,01617.9729521,E,1,19,1.6,EHT668.5851,M*44
$GPGGQ,171452.00,010125,4742.4466982,N,01617.9729521,E,1,19,4.539,625.3740,M*36
$GPGFA,171452.00,20.956,31.920,2.204,0.767,4.566,3.893,,VVV*04
$GPLLK,171452.00,010125,,M,,M,1,19,1.9,,M*0F
$GNGMP,171452.00,,,,,DAAA,19,0.8,,,,*52
$GPGMP,171452.00,,,,,,05,,,,2.2,123*7C
$GLGMP,171452.00,,,,,,03,,,,,*78
$GAGMP,171452.00,,,,,,02,,,,,*74
$GBGMP,171452.00,,,,,,09,,,,,*7C
$PSSN,SNC,[0,321310000,2347]*46
$GPZDA,171457.00,01,01,2025,,*62
$GPDTM,W84,,00.0000000,N,00.0000000,E,00.0000000,W84*5F
$GPRMC,171457.00,A,4742.4466993,N,01617.9729393,E,0.0,,010125,5.1,E,D*17
$GPGLL,4742.4466993,N,01617.9729393,E,171457.00,A,D*66
$GPGGA,171457.00,4742.4466993,N,01617.9729393,E,2,21,0.8,625.3935,M,43.2111,M,2.4,0123*4F
$GNGNS,171457.00,4742.4466993,N,01617.9729393,E,DAAA,21,0.8,625.3935,43.2111,,*55
$GPGNS,171457.00,,,,,,05,,,,2.4,123*7F
$GLGNS,171457.00,,,,,,04,,,,,*7A
$GAGNS,171457.00,,,,,,03,,,,,*70
$GBGNS,171457.00,,,,,,09,,,,,*79
$GPLLQ,171457.00,010125,,M,,M,1,21,4.614,,M*14
$GPVTG,,T,,M,0.01,N,0.01,K,D*26
$GPHDT,,T*1B
$GPTHS,,V*0E
$GPROT,,V*08
$PSSN,HRP,171457.00,010125,,,,,,,00,0,,*60
$PTNL,AVR,171457.00,,Yaw,,Tilt,,,,0,,00*36
$GPGSA,A,3,05,16,18,26,29,,,,,,,,1.5,0.8,1.3*38
$GPGSA,A,3,79,80,81,82,,,,,,,,,1.5,0.8,1.3*39
$GPGSA,A,3,15,21,27,,,,,,,,,,1.5,0.8,1.3*3E
$GPGSA,A,3,08,11,13,23,25,34,37,38,43,,,,1.5,0.8,1.3*3F
$GPGST,171457.00,2.353,2.251,0.789,4.263,2.245,0.804,3.950*52
$GPGBS,171457.00,9.723,3.145,12.431,05,0.0001,2.264,0.945*69
$GPGRS,171457.00,1,2.3,-1.4,0.4,0.6,-1.4,,,,,,,*62
$GPGRS,171457.00,1,-0.9,-0.3,-0.9,0.1,,,,,,,,*60
$GPGRS,171457.00,1,0.4,-3.7,0.0,,,,,,,,,*4C
$GPGRS,171457.00,1,1.0,0.2,-0.8,-0.2,4.4,-0.4,-1.3,5.3,-1.4,,,*40
$GPGSV,4,1,15,18,70,177,49,05,28,062,37,25,22,138,28,20,10,033,26*75
$GPGSV,4,2,15,16,29,306,42,28,25,217,33,31,37,246,36,26,59,291,41*79
$GPGSV,4,3,15,29,52,069,47,23,10,157,,27,04,269,35,36,35,170,39*7C
$GPGSV,4,4,15,34,31,208,34,49,34,195,37,61,03,257,*42
$GLGSV,3,1,10,80,64,305,36,88,10,047,24,73,11,328,35,65,11,053,*65
$GLGSV,3,2,10,83,18,232,,79,52,171,42,82,60,247,46,81,63,030,40*68
$GLGSV,3,3,10,78,03,156,,72,08,000,22*67
$GAGSV,3,1,09,27,71,145,40,34,22,044,30,30,19,132,29,13,45,200,21*62
$GAGSV,3,2,09,21,50,303,44,15,69,081,41,04,02,324,32,23,01,309,*69
$GAGSV,3,3,09,06,01,347,*56
$GBGSV,5,1,19,11,77,047,49,05,21,129,,60,10,109,,28,14,244,31*65
$GBGSV,5,2,19,25,33,178,38,37,25,313,41,12,22,060,29,38,30,047,38*6F
$GBGSV,5,3,19,13,42,071,41,08,40,060,40,34,51,061,46,23,60,253,45*68
$GBGSV,5,4,19,43,77,256,47,22,08,036,,21,09,085,,02,06,107,*6F
$GBGSV,5,5,19,50,05,106,,56,05,080,,10,00,096,*54
$GPGGA,171457.00,,,,,0,00,,,M,,M,,*49
$PTNL,GGK,171457.00,010125,4742.4466993,N,01617.9729393,E,1,21,1.5,EHT668.6046,M*4B
$GPGGQ,171457.00,010125,4742.4466993,N,01617.9729393,E,1,21,4.614,625.3935,M*37
$GPGFA,171457.00,21.399,32.387,2.251,0.789,4.263,3.950,,VVV*01
$GPLLK,171457.00,010125,,M,,M,1,21,1.9,,M*01
$GNGMP,171457.00,,,,,DAAA,21,0.8,,,,*5C
$GPGMP,171457.00,,,,,,05,,,,2.4,123*7F
$GLGMP,171457.00,,,,,,04,,,,,*7A
$GAGMP,171457.00,,,,,,03,,,,,*70
$GBGMP,171457.00,,,,,,09,,,,,*79
$PSSN,SNC,[0,321315000,2347]*43
$GPZDA,171502.00,01,01,2025,,*63
$GPDTM,W84,,00.0000000,N,00.0000000,E,00.0000000,W84*5F
$GPRMC,171502.00,A,4742.4467044,N,01617.9729473,E,0.0,,010125,5.1,E,D*1D
$GPGLL,4742.4467044,N,01617.9729473,E,171502.00,A,D*6C
$GPGGA,171502.00,4742.4467044,N,01617.9729473,E,2,20,0.8,625.3831,M,43.2111,M,3.4,0123*40
$GNGNS,171502.00,4742.4467044,N,01617.9729473,E,DAAA,20,0.8,625.3831,43.2111,,*5B
$GPGNS,171502.00,,,,,,05,,,,3.4,123*7F
$GLGNS,171502.00,,,,,,04,,,,,*7B
$GAGNS,171502.00,,,,,,02,,,,,*70
$GBGNS,171502.00,,,,,,09,,,,,*78
$GPLLQ,171502.00,010125,,M,,M,1,20,4.679,,M*1F
$GPVTG,,T,,M,0.00,N,0.01,K,D*27
$GPHDT,,T*1B
$GPTHS,,V*0E
$GPROT,,V*08
$PSSN,HRP,171502.00,010125,,,,,,,00,0,,*61
$PTNL,AVR,171502.00,,Yaw,,Tilt,,,,0,,00*37
$GPGSA,A,3,05,16,18,26,29,,,,,,,,1.5,0.8,1.3*38
$GPGSA,A,3,79,80,81,82,,,,,,,,,1.5,0.8,1.3*39
$GPGSA,A,3,15,27,,,,,,,,,,,1.5,0.8,1.3*3D
$GPGSA,A,3,08,11,13,23,25,34,37,38,43,,,,1.5,0.8,1.3*3F
$GPGST,171502.00,3.517,2.294,0.789,4.457,2.288,0.806,4.002*56
$GPGBS,171502.00,9.952,3.200,12.629,29,0.0001,-1.461,0.690*4D
$GPGRS,171502.00,1,0.1,-1.8,0.4,1.4,-1.5,,,,,,,*6D
$GPGRS,171502.00,1,0.3,8.6,0.6,0.3,,,,,,,,*46
$GPGRS,171502.00,1,1.0,0.2,,,,,,,,,,*4D
$GPGRS,171502.00,1,0.9,-0.0,-0.8,0.1,6.1,0.2,-1.6,6.0,-0.7,,,*63
$GPGSV,4,1,15,18,70,177,49,05,28,062,36,25,22,138,29,20,10,033,*71
$GPGSV,4,2,15,16,29,306,42,28,25,217,31,31,37,245,37,26,60,291,42*70
$GPGSV,4,3,15,29,52,069,47,23,10,157,,27,04,269,34,36,35,170,39*7D
$GPGSV,4,4,15,34,31,208,34,49,34,195,37,61,03,257,*42
$GLGSV,3,1,10,80,64,305,37,88,10,047,24,73,11,328,,65,11,053,*62
$GLGSV,3,2,10,83,18,232,,79,52,171,43,82,60,247,47,81,63,030,42*6A
$GLGSV,3,3,10,78,03,156,,72,08,000,24*61
$GAGSV,3,1,09,27,71,145,41,34,22,044,30,30,19,132,27,13,45,200,29*65
$GAGSV,3,2,09,21,50,303,34,15,69,081,42,04,02,324,31,23,01,309,*6E
$GAGSV,3,3,09,06,01,347,*56
$GBGSV,5,1,19,11,77,047,49,05,21,129,,60,10,109,,28,14,244,32*66
$GBGSV,5,2,19,25,33,178,40,37,26,313,41,12,22,060,29,38,30,047,38*63
$GBGSV,5,3,19,13,42,071,39,08,40,060,40,34,51,061,45,23,59,253,46*6D
$GBGSV,5,4,19,43,77,256,48,22,08,036,,21,09,085,,02,06,107,*60
$GBGSV,5,5,19,50,05,106,,56,05,080,,10,00,096,*54
$GPGGA,171502.00,,,,,0,00,,,M,,M,,*48
$PTNL,GGK,171502.00,010125,4742.4467044,N,01617.9729473,E,1,20,1.5,EHT668.5942,M*4E
$GPGGQ,171502.00,010125,4742.4467044,N,01617.9729473,E,1,20,4.679,625.3831,M*32
$GPGFA,171502.00,21.809,32.814,2.294,0.789,4.457,4.002,,VVV*02
$GPLLK,171502.00,010125,,M,,M,1,20,1.9,,M*01
$GNGMP,171502.00,,,,,DAAA,20,0.8,,,,*5C
$GPGMP,171502.00,,,,,,05,,,,3.4,123*7F
$GLGMP,171502.00,,,,,,04,,,,,*7B
$GAGMP,171502.00,,,,,,02,,,,,*70
$GBGMP,171502.00,,,,,,09,,,,,*78
$PSSN,SNC,[0,321320000,2347]*45
$GPZDA,171507.00,01,01,2025,,*66
$GPDTM,W84,,00.0000000,N,00.0000000,E,00.0000000,W84*5F
$GPRMC,171507.00,A,4742.4467082,N,01617.9729522,E,0.0,,010125,5.1,E,D*17
$GPGLL,4742.4467082,N,01617.9729522,E,171507.00,A,D*66
$GPGGA,171507.00,4742.4467082,N,01617.9729522,E,2,21,0.8,625.3767,M,43.2111,M,2.0,0123*42
$GNGNS,171507.00,4742.4467082,N,01617.9729522,E,DAAA,21,0.8,625.3767,43.2111,,*5C
$GPGNS,171507.00,,,,,,05,,,,2.0,123*7F
$GLGNS,171507.00,,,,,,05,,,,,*7F
$GAGNS,171507.00,,,,,,02,,,,,*75
$GBGNS,171507.00,,,,,,09,,,,,*7D
$GPLLQ,171507.00,010125,,M,,M,1,21,6.148,,M*1C
$GPVTG,,T,,M,0.01,N,0.02,K,D*25
$GPHDT,,T*1B
$GPTHS,,V*0E
$GPROT,,V*08
$PSSN,HRP,171507.00,010125,,,,,,,00,0,,*64
$PTNL,AVR,171507.00,,Yaw,,Tilt,,,,0,,00*32
$GPGSA,A,3,05,16,18,26,29,,,,,,,,1.4,0.8,1.2*38
$GPGSA,A,3,73,79,80,81,82,,,,,,,,1.4,0.8,1.2*3D
$GPGSA,A,3,15,27,,,,,,,,,,,1.4,0.8,1.2*3D
$GPGSA,A,3,08,11,13,23,25,34,37,38,43,,,,1.4,0.8,1.2*3F
$GPGST,171507.00,8.116,3.027,1.042,4.679,3.018,1.068,5.248*5F
$GPGBS,171507.00,9.526,3.216,12.746,73,0.0001,25.090,6.687*56
$GPGRS,171507.00,1,1.7,-1.3,0.1,0.4,-1.1,,,,,,,*64
$GPGRS,171507.00,1,25.1,-0.6,14.4,3.1,0.0,,,,,,,*4B
$GPGRS,171507.00,1,0.4,0.0,,,,,,,,,,*4F
$GPGRS,171507.00,1,-0.1,0.2,-1.9,-0.3,6.0,0.7,-2.5,4.7,-0.2,,,*47
$GPGSV,4,1,15,18,70,177,49,05,28,062,36,25,22,138,30,28,25,217,29*78
$GPGSV,4,2,15,16,29,306,42,31,37,245,40,29,52,069,46,26,60,291,43*7B
$GPGSV,4,3,15,20,10,033,,27,04,269,30,23,10,157,,36,35,170,39*7A
$GPGSV,4,4,15,34,31,208,34,49,34,195,37,61,03,257,*42
$GLGSV,3,1,10,80,64,304,36,88,10,047,24,73,11,328,37,65,11,053,*66
$GLGSV,3,2,10,83,19,232,,79,51,171,43,82,61,247,47,81,63,030,43*68
$GLGSV,3,3,10,78,03,156,,72,07,000,22*68
$GAGSV,3,1,09,27,71,145,41,34,22,044,31,30,19,132,25,13,45,200,34*6A
$GAGSV,3,2,09,21,51,303,34,15,69,081,42,04,02,324,27,23,01,309,*68
$GAGSV,3,3,09,06,01,347,*56
$GBGSV,5,1,19,11,77,047,49,05,21,129,,60,10,109,,28,14,244,33*67
$GBGSV,5,2,19,25,33,178,40,37,26,312,41,12,22,060,28,38,30,047,37*6C
$GBGSV,5,3,19,13,42,071,37,08,40,060,40,34,51,061,44,23,59,253,47*63
$GBGSV,5,4,19,43,77,256,48,22,08,036,,21,09,085,,02,06,107,*60
$GBGSV,5,5,19,50,05,106,,56,05,080,,10,00,096,*54
$GPGGA,171507.00,,,,,0,00,,,M,,M,,*4D
$PTNL,GGK,171507.00,010125,4742.4467082,N,01617.9729522,E,1,21,1.4,EHT668.5878,M*4C
$GPGGQ,171507.00,010125,4742.4467082,N,01617.9729522,E,1,21,6.148,625.3767,M*32
$GPGFA,171507.00,28.783,43.037,3.027,1.042,4.679,5.248,,VVV*05
$GPLLK,171507.00,010125,,M,,M,1,21,1.7,,M*0B
$GNGMP,171507.00,,,,,DAAA,21,0.8,,,,*58
$GPGMP,171507.00,,,,,,05,,,,2.0,123*7F
$GLGMP,171507.00,,,,,,05,,,,,*7F
$GAGMP,171507.00,,,,,,02,,,,,*75
$GBGMP,171507.00,,,,,,09,,,,,*7D
$PSSN,SNC,[0,321325000,2347]*40
$GPZDA,171512.00,01,01,2025,,*62
$GPDTM,W84,,00.0000000,N,00.0000000,E,00.0000000,W84*5F
$GPRMC,171512.00,A,4742.4467082,N,01617.9729518,E,0.0,,010125,5.1,E,D*1A
$GPGLL,4742.4467082,N,01617.9729518,E,171512.00,A,D*6B
$GPGGA,171512.00,4742.4467082,N,01617.9729518,E,2,19,0.8,625.3818,M,43.2111,M,2.2,0123*41
$GNGNS,171512.00,4742.4467082,N,01617.9729518,E,DAAA,19,0.8,625.3818,43.2111,,*5D
$GPGNS,171512.00,,,,,,05,,,,2.2,123*79
$GLGNS,171512.00,,,,,,03,,,,,*7D
$GAGNS,171512.00,,,,,,03,,,,,*70
$GBGNS,171512.00,,,,,,08,,,,,*78
$GPLLQ,171512.00,010125,,M,,M,1,19,2.956,,M*10
$GPVTG,,T,,M,0.00,N,0.01,K,D*27
$GPHDT,,T*1B
$GPTHS,,V*0E
$GPROT,,V*08
$PSSN,HRP,171512.00,010125,,,,,,,00,0,,*60
$PTNL,AVR,171512.00,,Yaw,,Tilt,,,,0,,00*36
$GPGSA,A,3,05,16,18,26,29,,,,,,,,1.5,0.8,1.3*38
$GPGSA,A,3,79,81,82,,,,,,,,,,1.5,0.8,1.3*31
$GPGSA,A,3,13,15,27,,,,,,,,,,1.5,0.8,1.3*3F
$GPGSA,A,3,08,11,23,25,34,37,38,43,,,,,1.5,0.8,1.3*3D
$GPGST,171512.00,2.275,1.436,0.507,4.464,1.432,0.518,2.533*5B
$GPGBS,171512.00,9.388,3.132,12.245,29,0.0001,-0.902,0.662*49
$GPGRS,171512.00,1,1.0,-0.7,-0.2,0.9,-0.9,,,,,,,*48
$GPGRS,171512.00,1,0.2,2.9,0.6,,,,,,,,,*6E
$GPGRS,171512.00,1,0.8,0.6,0.1,,,,,,,,,*6E
$GPGRS,171512.00,1,-0.3,1.2,-0.8,6.1,1.0,-1.5,2.5,-0.4,,,,*46
$GPGSV,4,1,15,18,70,177,48,05,28,062,37,25,22,138,31,28,25,217,30*71
$GPGSV,4,2,15,16,30,306,42,31,37,245,41,29,52,069,46,26,60,291,45*74
$GPGSV,4,3,15,20,10,033,22,27,04,269,27,23,10,157,,36,35,170,39*7C
$GPGSV,4,4,15,34,31,208,34,49,34,195,37,61,03,257,*42
$GLGSV,3,1,10,80,64,304,31,88,10,047,25,73,11,328,38,65,11,053,*6F
$GLGSV,3,2,10,83,19,232,,79,51,171,45,82,61,247,49,81,63,030,45*66
$GLGSV,3,3,10,78,03,156,,72,07,000,28*62
$GAGSV,3,1,09,27,71,145,41,34,22,044,31,30,19,132,26,13,45,200,37*6A
$GAGSV,3,2,09,21,51,303,34,15,69,081,42,04,02,324,30,23,01,309,*6E
$GAGSV,3,3,09,06,01,347,*56
$GBGSV,5,1,19,11,77,047,49,05,21,129,,60,10,109,,28,14,244,33*67
$GBGSV,5,2,19,25,33,178,40,37,26,312,42,12,22,060,27,38,30,047,37*60
$GBGSV,5,3,19,13,42,071,35,08,40,060,40,34,51,061,44,23,59,253,47*61
$GBGSV,5,4,19,43,77,256,47,22,08,036,,21,09,085,,02,06,107,*6F
$GBGSV,5,5,19,50,05,106,,56,05,080,,10,00,096,*54
$GPGGA,171512.00,,,,,0,00,,,M,,M,,*49
$PTNL,GGK,171512.00,010125,4742.4467082,N,01617.9729518,E,1,19,1.5,EHT668.5928,M*4F
$GPGGQ,171512.00,010125,4742.4467082,N,01617.9729518,E,1,19,2.956,625.3818,M*30
$GPGFA,171512.00,13.655,20.773,1.436,0.507,4.464,2.533,,VVV*00
$GPLLK,171512.00,010125,,M,,M,1,19,1.9,,M*0A
$GNGMP,171512.00,,,,,DAAA,19,0.8,,,,*57
$GPGMP,171512.00,,,,,,05,,,,2.2,123*79
$GLGMP,171512.00,,,,,,03,,,,,*7D
$GAGMP,171512.00,,,,,,03,,,,,*70
$GBGMP,171512.00,,,,,,08,,,,,*78
$PSSN,SNC,[0,321330000,2347]*44
$GPZDA,171517.00,01,01,2025,,*67
$GPDTM,W84,,00.0000000,N,00.0000000,E,00.0000000,W84*5F
$GPRMC,171517.00,A,4742.4467062,N,01617.9729541,E,0.0,,010125,5.1,E,D*1D
$GPGLL,4742.4467062,N,01617.9729541,E,171517.00,A,D*6C
$GPGGA,171517.00,4742.4467062,N,01617.9729541,E,2,20,0.8,625.3800,M,43.2111,M,2.4,0123*43
$GNGNS,171517.00,4742.4467062,N,01617.9729541,E,DAAA,20,0.8,625.3800,43.2111,,*59
$GPGNS,171517.00,,,,,,05,,,,2.4,123*7A
$GLGNS,171517.00,,,,,,04,,,,,*7F
$GAGNS,171517.00,,,,,,03,,,,,*75
$GBGNS,171517.00,,,,,,08,,,,,*7D
$GPLLQ,171517.00,010125,,M,,M,1,20,5.874,,M*19
$GPVTG,,T,,M,0.01,N,0.01,K,D*26
$GPHDT,,T*1B
$GPTHS,,V*0E
$GPROT,,V*08
$PSSN,HRP,171517.00,010125,,,,,,,00,0,,*65
$PTNL,AVR,171517.00,,Yaw,,Tilt,,,,0,,00*33
$GPGSA,A,3,05,16,18,26,29,,,,,,,,1.4,0.8,1.2*38
$GPGSA,A,3,73,79,81,82,,,,,,,,,1.4,0.8,1.2*35
$GPGSA,A,3,13,15,27,,,,,,,,,,1.4,0.8,1.2*3F
$GPGSA,A,3,08,11,23,25,34,37,38,43,,,,,1.4,0.8,1.2*3D
$GPGST,171517.00,7.317,2.885,1.006,4.148,2.878,1.025,5.017*58
$GPGBS,171517.00,9.537,3.095,12.097,73,0.0001,25.063,6.677*56
$GPGRS,171517.00,1,1.5,-1.4,-0.7,1.4,-0.9,,,,,,,*43
$GPGRS,171517.00,1,25.1,2.9,1.9,0.8,,,,,,,,*77
$GPGRS,171517.00,1,2.3,-0.2,-0.7,,,,,,,,,*60
$GPGRS,171517.00,1,-0.8,1.1,-1.0,5.5,1.2,-2.2,1.1,-0.9,,,,*49
$GPGSV,4,1,15,18,70,177,48,05,28,062,39,25,22,138,31,28,25,217,31*7E
$GPGSV,4,2,15,16,30,306,42,31,37,245,42,29,52,069,46,26,60,291,47*75
$GPGSV,4,3,15,20,10,033,,27,04,269,25,23,10,157,,36,35,170,39*7E
$GPGSV,4,4,15,34,31,208,34,49,34,195,37,61,03,257,*42
$GLGSV,3,1,10,80,64,304,37,88,10,047,22,73,11,328,38,65,12,053,*6D
$GLGSV,3,2,10,83,19,232,,79,51,171,46,82,61,247,50,81,63,030,45*6D
$GLGSV,3,3,10,78,03,156,,72,07,000,27*6D
$GAGSV,3,1,09,27,71,145,41,34,22,044,31,30,19,132,26,13,45,200,39*64
$GAGSV,3,2,09,21,51,303,35,15,69,081,40,04,02,324,30,23,01,309,*6D
$GAGSV,3,3,09,06,01,347,*56
$GBGSV,5,1,19,11,77,047,49,05,21,129,,60,10,109,,28,14,244,33*67
$GBGSV,5,2,19,25,33,178,39,37,26,312,44,12,22,060,27,38,30,047,37*68
$GBGSV,5,3,19,13,42,071,33,08,40,060,40,34,51,061,45,23,59,252,48*68
$GBGSV,5,4,19,43,77,256,47,22,08,036,,21,09,085,,02,06,107,*6F
$GBGSV,5,5,19,50,05,106,,56,05,080,,10,00,096,*54
$GPGGA,171517.00,,,,,0,00,,,M,,M,,*4C
$PTNL,GGK,171517.00,010125,4742.4467062,N,01617.9729541,E,1,20,1.4,EHT668.5910,M*48
$GPGGQ,171517.00,010125,4742.4467062,N,01617.9729541,E,1,20,5.874,625.3800,M*32
$GPGFA,171517.00,27.427,41.140,2.885,1.006,4.148,5.017,,VVV*09
$GPLLK,171517.00,010125,,M,,M,1,20,1.7,,M*0B
$GNGMP,171517.00,,,,,DAAA,20,0.8,,,,*58
$GPGMP,171517.00,,,,,,05,,,,2.4,123*7A
$GLGMP,171517.00,,,,,,04,,,,,*7F
$GAGMP,171517.00,,,,,,03,,,,,*75
$GBGMP,171517.00,,,,,,08,,,,,*7D
$PSSN,SNC,[0,321335000,2347]*41
$GPZDA,171522.00,01,01,2025,,*61
$GPDTM,W84,,00.0000000,N,00.0000000,E,00.0000000,W84*5F
$GPRMC,171522.00,A,4742.4467006,N,01617.9729459,E,0.0,,010125,5.1,E,D*11
$GPGLL,4742.4467006,N,01617.9729459,E,171522.00,A,D*60
$GPGGA,171522.00,4742.4467006,N,01617.9729459,E,2,22,0.7,625.3929,M,43.2111,M,3.4,0123*49
$GNGNS,171522.00,4742.4467006,N,01617.9729459,E,DAAA,22,0.7,625.3929,43.2111,,*52
$GPGNS,171522.00,,,,,,05,,,,3.4,123*7D
$GLGNS,171522.00,,,,,,05,,,,,*78
$GAGNS,171522.00,,,,,,04,,,,,*74
$GBGNS,171522.00,,,,,,08,,,,,*7B
$GPLLQ,171522.00,010125,,M,,M,1,22,5.932,,M*1E
$GPVTG,,T,,M,0.00,N,0.01,K,D*27
$GPHDT,,T*1B
$GPTHS,,V*0E
$GPROT,,V*08
$PSSN,HRP,171522.00,010125,,,,,,,00,0,,*63
$PTNL,AVR,171522.00,,Yaw,,Tilt,,,,0,,00*35
$GPGSA,A,3,05,16,18,26,29,,,,,,,,1.3,0.7,1.1*33
$GPGSA,A,3,73,79,80,81,82,,,,,,,,1.3,0.7,1.1*36
$GPGSA,A,3,13,15,21,27,,,,,,,,,1.3,0.7,1.1*37
$GPGSA,A,3,08,11,23,25,34,37,38,43,,,,,1.3,0.7,1.1*36
$GPGST,171522.00,6.081,2.924,1.024,4.362,2.917,1.045,5.058*56
$GPGBS,171522.00,9.434,3.130,11.852,73,0.0001,21.341,6.679*57
$GPGRS,171522.00,1,2.5,-2.1,-1.0,1.2,-0.3,,,,,,,*4A
$GPGRS,171522.00,1,21.3,4.0,-4.5,1.3,-0.0,,,,,,,*55
$GPGRS,171522.00,1,2.5,-2.6,-0.6,-1.2,,,,,,,,*67
$GPGRS,171522.00,1,-1.3,-0.3,-1.2,4.2,1.6,-2.8,-0.2,-1.1,,,,*47
$GPGSV,4,1,15,18,70,177,47,05,28,062,39,25,22,138,27,28,25,217,29*7F
$GPGSV,4,2,15,16,30,306,42,31,37,245,43,29,52,070,46,26,60,291,47*7C
$GPGSV,4,3,15,20,10,033,,27,04,269,28,23,10,157,,36,35,170,39*73
$GPGSV,4,4,15,34,31,208,34,49,34,195,37,61,03,257,*42
$GLGSV,3,1,10,80,64,304,37,88,10,047,24,73,11,328,37,65,12,053,*64
$GLGSV,3,2,10,83,19,232,,79,51,171,45,82,61,248,51,81,62,030,45*61
$GLGSV,3,3,10,78,03,156,,72,07,000,29*63
$GAGSV,3,1,09,27,71,145,41,34,21,044,31,30,19,132,27,13,45,200,41*69
$GAGSV,3,2,09,21,51,303,35,15,69,081,38,04,02,324,29,23,01,309,*6A
$GAGSV,3,3,09,06,01,347,*56
$GBGSV,5,1,19,11,77,047,49,05,21,129,,60,10,109,,28,14,244,33*67
$GBGSV,5,2,19,25,33,178,37,37,26,312,44,12,22,060,28,38,30,047,37*69
$GBGSV,5,3,19,13,42,071,30,08,40,060,40,34,51,061,46,23,59,252,48*68
$GBGSV,5,4,19,43,77,256,47,22,08,036,,21,10,085,,02,06,107,*67
$GBGSV,5,5,19,50,05,106,,56,05,080,,10,00,096,*54
$GPGGA,171522.00,,,,,0,00,,,M,,M,,*4A
$PTNL,GGK,171522.00,010125,4742.4467006,N,01617.9729459,E,1,22,1.3,EHT668.6040,M*4E
$GPGGQ,171522.00,010125,4742.4467006,N,01617.9729459,E,1,22,5.932,625.3929,M*35
$GPGFA,171522.00,27.805,41.478,2.924,1.024,4.362,5.058,,VVV*06
$GPLLK,171522.00,010125,,M,,M,1,22,1.6,,M*0E
$GNGMP,171522.00,,,,,DAAA,22,0.7,,,,*53
$GPGMP,171522.00,,,,,,05,,,,3.4,123*7D
$GLGMP,171522.00,,,,,,05,,,,,*78
$GAGMP,171522.00,,,,,,04,,,,,*74
$GBGMP,171522.00,,,,,,08,,,,,*7B
$PSSN,SNC,[0,321340000,2347]*43
$GPZDA,171527.00,01,01,2025,,*64
$GPDTM,W84,,00.0000000,N,00.0000000,E,00.0000000,W84*5F
$GPRMC,171527.00,A,4742.4466921,N,01617.9729342,E,0.0,,010125,5.1,E,D*14
$GPGLL,4742.4466921,N,01617.9729342,E,171527.00,A,D*65
$GPGGA,171527.00,4742.4466921,N,01617.9729342,E,2,22,0.7,625.4189,M,43.2111,M,2.0,0123*4C
$GNGNS,171527.00,4742.4466921,N,01617.9729342,E,DAAA,22,0.7,625.4189,43.2111,,*52
$GPGNS,171527.00,,,,,,05,,,,2.0,123*7D
$GLGNS,171527.00,,,,,,05,,,,,*7D
$GAGNS,171527.00,,,,,,04,,,,,*71
$GBGNS,171527.00,,,,,,08,,,,,*7E
$GPLLQ,171527.00,010125,,M,,M,1,22,4.696,,M*1B
$GPVTG,,T,,M,0.01,N,0.02,K,D*25
$GPHDT,,T*1B
$GPTHS,,V*0E
$GPROT,,V*08
$PSSN,HRP,171527.00,010125,,,,,,,00,0,,*66
$PTNL,AVR,171527.00,,Yaw,,Tilt,,,,0,,00*30
$GPGSA,A,3,05,16,18,26,29,,,,,,,,1.3,0.7,1.1*33
$GPGSA,A,3,73,79,80,81,82,,,,,,,,1.3,0.7,1.1*36
$GPGSA,A,3,13,15,21,27,,,,,,,,,1.3,0.7,1.1*37
$GPGSA,A,3,08,11,23,25,34,37,38,43,,,,,1.3,0.7,1.1*36
$GPGST,171527.00,4.899,2.345,0.725,6.433,2.332,0.767,4.003*5F
$GPGBS,171527.00,9.043,3.165,12.116,73,0.0001,16.838,6.678*5C
$GPGRS,171527.00,1,1.7,-1.0,-1.0,0.1,0.5,,,,,,,*65
$GPGRS,171527.00,1,16.8,2.9,-5.6,1.2,-0.2,,,,,,,*51
$GPGRS,171527.00,1,2.2,-2.4,-1.1,-1.0,,,,,,,,*63
$GPGRS,171527.00,1,-0.8,-0.8,-0.7,1.3,1.6,-3.2,-0.2,-0.9,,,,*41
$GPGSV,4,1,15,18,70,177,46,05,28,061,39,25,22,139,28,28,25,217,25*7F
$GPGSV,4,2,15,16,30,306,43,31,37,245,42,29,52,070,47,26,60,291,46*7C
$GPGSV,4,3,15,20,10,033,,27,04,269,30,23,10,157,,36,35,170,38*7B
$GPGSV,4,4,15,34,31,208,34,49,34,195,36,61,03,257,*43
$GLGSV,3,1,10,80,64,304,37,88,10,047,,73,11,328,36,65,12,053,*63
$GLGSV,3,2,10,83,19,232,,79,51,171,43,82,61,248,52,81,62,030,44*65
$GLGSV,3,3,10,78,03,156,,72,07,000,27*6D
$GAGSV,3,1,09,27,71,145,41,34,21,044,32,30,19,132,29,13,45,200,41*64
$GAGSV,3,2,09,21,51,303,35,15,69,081,36,04,02,324,28,23,02,309,*66
$GAGSV,3,3,09,06,01,347,*56
$GBGSV,5,1,19,11,77,047,48,05,21,129,,60,10,109,,28,14,244,33*66
$GBGSV,5,2,19,25,33,178,37,37,26,312,45,12,22,060,28,38,30,047,36*69
$GBGSV,5,3,19,13,42,071,26,08,40,060,40,34,51,061,47,23,59,252,48*6E
$GBGSV,5,4,19,43,77,256,47,22,08,036,,21,10,085,,02,06,107,*67
$GBGSV,5,5,19,50,05,106,,56,05,080,,10,00,096,*54
$GPGGA,171527.00,,,,,0,00,,,M,,M,,*4F
$PTNL,GGK,171527.00,010125,4742.4466921,N,01617.9729342,E,1,22,1.3,EHT668.6300,M*4C
$GPGGQ,171527.00,010125,4742.4466921,N,01617.9729342,E,1,22,4.696,625.4189,M*35
$GPGFA,171527.00,22.298,32.822,2.345,0.725,6.433,4.003,,VVV*0B
$GPLLK,171527.00,010125,,M,,M,1,22,1.6,,M*0B
$GNGMP,171527.00,,,,,DAAA,22,0.7,,,,*56
$GPGMP,171527.00,,,,,,05,,,,2.0,123*7D
$GLGMP,171527.00,,,,,,05,,,,,*7D
$GAGMP,171527.00,,,,,,04,,,,,*71
$GBGMP,171527.00,,,,,,08,,,,,*7E
$PSSN,SNC,[0,321345000,2347]*46
$GPZDA,171532.00,01,01,2025,,*60
$GPDTM,W84,,00.0000000,N,00.0000000,E,00.0000000,W84*5F
$GPRMC,171532.00,A,4742.4466864,N,01617.9729113,E,0.0,,010125,5.1,E,D*16
$GPGLL,4742.4466864,N,01617.9729113,E,171532.00,A,D*67
$GPGGA,171532.00,4742.4466864,N,01617.9729113,E,2,22,0.7,625.4352,M,43.2111,M,2.2,0123*48
$GNGNS,171532.00,4742.4466864,N,01617.9729113,E,DAAA,22,0.7,625.4352,43.2111,,*54
$GPGNS,171532.00,,,,,,05,,,,2.2,123*7B
$GLGNS,171532.00,,,,,,05,,,,,*79
$GAGNS,171532.00,,,,,,03,,,,,*72
$GBGNS,171532.00,,,,,,09,,,,,*7B
$GPLLQ,171532.00,010125,,M,,M,1,22,4.375,,M*17
$GPVTG,,T,,M,0.00,N,0.01,K,D*27
$GPHDT,,T*1B
$GPTHS,,V*0E
$GPROT,,V*08
$PSSN,HRP,171532.00,010125,,,,,,,00,0,,*62
$PTNL,AVR,171532.00,,Yaw,,Tilt,,,,0,,00*34
$GPGSA,A,3,05,16,18,26,29,,,,,,,,1.4,0.7,1.2*37
$GPGSA,A,3,73,79,80,81,82,,,,,,,,1.4,0.7,1.2*32
$GPGSA,A,3,13,21,27,,,,,,,,,,1.4,0.7,1.2*37
$GPGSA,A,3,08,11,13,23,25,34,37,38,43,,,,1.4,0.7,1.2*30
$GPGST,171532.00,3.574,2.138,0.745,4.910,2.131,0.765,3.743*55
$GPGBS,171532.00,9.300,3.161,12.062,05,0.0001,2.888,0.975*61
$GPGRS,171532.00,1,2.9,-0.8,-0.5,-0.9,0.5,,,,,,,*44
$GPGRS,171532.00,1,10.4,-2.2,-3.6,1.7,-0.4,,,,,,,*7C
$GPGRS,171532.00,1,1.8,-1.5,-1.0,,,,,,,,,*6F
$GPGRS,171532.00,1,-0.6,-1.2,-4.7,-0.1,1.7,1.4,-3.8,-1.3,-0.9,,,*4A
$GPGSV,4,1,15,18,70,177,46,05,28,061,40,25,22,139,26,28,25,217,26*7C
$GPGSV,4,2,15,16,30,306,43,31,37,245,40,29,52,070,48,26,60,291,45*72
$GPGSV,4,3,15,20,10,033,,27,04,269,31,23,10,157,,36,35,170,39*7B
$GPGSV,4,4,15,34,31,208,34,49,34,195,37,61,03,257,*42
$GLGSV,3,1,10,80,64,304,30,88,10,047,24,73,11,328,36,65,12,053,*62
$GLGSV,3,2,10,83,19,232,,79,51,171,39,82,61,248,52,81,62,030,43*6F
$GLGSV,3,3,10,78,03,156,,72,07,359,28*6D
$GAGSV,3,1,09,27,71,145,41,34,21,044,32,30,19,132,30,13,45,200,41*6C
$GAGSV,3,2,09,21,51,303,36,15,69,081,33,04,02,324,27,23,02,309,*6F
$GAGSV,3,3,09,06,01,347,*56
$GBGSV,5,1,19,11,77,047,48,05,21,129,,60,10,109,,28,14,244,33*66
$GBGSV,5,2,19,25,33,178,40,37,26,312,45,12,22,060,29,38,30,047,36*68
$GBGSV,5,3,19,13,42,071,46,08,40,060,40,34,51,061,47,23,59,252,49*69
$GBGSV,5,4,19,43,77,256,47,22,08,036,,21,10,085,,02,06,107,*67
$GBGSV,5,5,19,50,05,106,,56,05,080,,10,00,096,*54
$GPGGA,171532.00,,,,,0,00,,,M,,M,,*4B
$PTNL,GGK,171532.00,010125,4742.4466864,N,01617.9729113,E,1,22,1.4,EHT668.6463,M*4B
$GPGGQ,171532.00,010125,4742.4466864,N,01617.9729113,E,1,22,4.375,625.4352,M*3B
$GPGFA,171532.00,20.329,30.696,2.138,0.745,4.910,3.743,,VVV*01
$GPLLK,171532.00,010125,,M,,M,1,22,1.6,,M*0F
$GNGMP,171532.00,,,,,DAAA,22,0.7,,,,*52
$GPGMP,171532.00,,,,,,05,,,,2.2,123*7B
$GLGMP,171532.00,,,,,,05,,,,,*79
$GAGMP,171532.00,,,,,,03,,,,,*72
$GBGMP,171532.00,,,,,,09,,,,,*7B
$PSSN,SNC,[0,321350000,2347]*42
$GPZDA,171537.00,01,01,2025,,*65
$GPDTM,W84,,00.0000000,N,00.0000000,E,00.0000000,W84*5F
$GPRMC,171537.00,A,4742.4466799,N,01617.9728861,E,0.0,,010125,5.1,E,D*13
$GPGLL,4742.4466799,N,01617.9728861,E,171537.00,A,D*62
$GPGGA,171537.00,4742.4466799,N,01617.9728861,E,2,20,0.7,625.4719,M,43.2111,M,2.4,0123*42
$GNGNS,171537.00,4742.4466799,N,01617.9728861,E,DAAA,20,0.7,625.4719,43.2111,,*58
$GPGNS,171537.00,,,,,,05,,,,2.4,123*78
$GLGNS,171537.00,,,,,,04,,,,,*7D
$GAGNS,171537.00,,,,,,03,,,,,*77
$GBGNS,171537.00,,,,,,08,,,,,*7F
$GPLLQ,171537.00,010125,,M,,M,1,20,5.108,,M*19
$GPVTG,,T,,M,0.01,N,0.01,K,D*26
$GPHDT,,T*1B
$GPTHS,,V*0E
$GPROT,,V*08
$PSSN,HRP,171537.00,010125,,,,,,,00,0,,*67
$PTNL,AVR,171537.00,,Yaw,,Tilt,,,,0,,00*31
$GPGSA,A,3,05,16,18,26,29,,,,,,,,1.4,0.7,1.2*37
$GPGSA,A,3,73,79,81,82,,,,,,,,,1.4,0.7,1.2*3A
$GPGSA,A,3,13,21,27,,,,,,,,,,1.4,0.7,1.2*37
$GPGSA,A,3,08,11,23,25,34,37,38,43,,,,,1.4,0.7,1.2*32
$GPGST,171537.00,2.918,2.505,0.863,4.498,2.499,0.883,4.366*5F
$GPGBS,171537.00,9.534,3.147,12.192,05,0.0001,3.239,0.940*68
$GPGRS,171537.00,1,3.2,-1.5,-0.7,-0.8,0.6,,,,,,,*47
$GPGRS,171537.00,1,6.0,-2.6,1.4,-0.3,,,,,,,,*4C
$GPGRS,171537.00,1,1.5,-0.6,-1.0,,,,,,,,,*65
$GPGRS,171537.00,1,-0.2,-1.1,0.3,5.0,0.9,-4.1,-1.7,-0.6,,,,*6D
$GPGSV,4,1,15,18,70,176,46,05,28,061,40,23,10,157,,25,22,139,24*71
$GPGSV,4,2,15,28,25,217,33,16,30,306,42,31,37,245,39,29,52,070,48*7D
$GPGSV,4,3,15,26,60,290,44,27,04,269,30,20,10,033,,36,35,170,38*71
$GPGSV,4,4,15,34,31,208,34,49,34,195,37,61,03,257,*42
$GLGSV,3,1,10,80,64,304,30,88,10,047,24,73,11,328,35,65,12,053,*61
$GLGSV,3,2,10,83,19,232,,79,51,171,35,82,61,248,52,81,62,030,44*64
$GLGSV,3,3,10,78,03,156,,72,07,359,*67
$GAGSV,3,1,09,27,71,145,41,34,21,044,33,30,19,132,31,13,46,200,41*6F
$GAGSV,3,2,09,21,51,303,36,15,69,081,33,04,02,324,27,23,02,309,*6F
$GAGSV,3,3,09,06,01,347,*56
$GBGSV,5,1,19,11,77,047,48,05,21,129,,60,10,109,,28,14,244,33*66
$GBGSV,5,2,19,25,33,178,41,37,26,312,45,12,22,060,28,38,30,047,36*68
$GBGSV,5,3,19,13,42,071,23,08,40,060,40,34,51,061,48,23,59,252,49*65
$GBGSV,5,4,19,43,77,256,47,22,08,036,,21,10,085,,02,06,107,*67
$GBGSV,5,5,19,50,05,106,,56,05,080,,10,00,096,*54
$GPGGA,171537.00,,,,,0,00,,,M,,M,,*4E
$PTNL,GGK,171537.00,010125,4742.4466799,N,01617.9728861,E,1,20,1.4,EHT668.6830,M*46
$GPGGQ,171537.00,010125,4742.4466799,N,01617.9728861,E,1,20,5.108,625.4719,M*3E
$GPGFA,171537.00,23.821,35.804,2.505,0.863,4.498,4.366,,VVV*0C
$GPLLK,171537.00,010125,,M,,M,1,20,1.7,,M*09
$GNGMP,171537.00,,,,,DAAA,20,0.7,,,,*55
$GPGMP,171537.00,,,,,,05,,,,2.4,123*78
$GLGMP,171537.00,,,,,,04,,,,,*7D
$GAGMP,171537.00,,,,,,03,,,,,*77
$GBGMP,171537.00,,,,,,08,,,,,*7F
$PSSN,SNC,[0,321355000,2347]*47
$GPZDA,171542.00,01,01,2025,,*67
$GPDTM,W84,,00.0000000,N,00.0000000,E,00.0000000,W84*5F
$GPRMC,171542.00,A,4742.4466755,N,01617.9728591,E,0.0,,010125,5.1,E,D*13
$GPGLL,4742.4466755,N,01617.9728591,E,171542.00,A,D*62
$GPGGA,171542.00,4742.4466755,N,01617.9728591,E,2,18,0.8,625.4898,M,43.2111,M,3.4,0123*41
$GNGNS,171542.00,4742.4466755,N,01617.9728591,E,DAAA,18,0.8,625.4898,43.2111,,*5A
$GPGNS,171542.00,,,,,,05,,,,3.4,123*7B
$GLGNS,171542.00,,,,,,02,,,,,*79
$GAGNS,171542.00,,,,,,03,,,,,*75
$GBGNS,171542.00,,,,,,08,,,,,*7D
$GPLLQ,171542.00,010125,,M,,M,1,18,4.873,,M*14
$GPVTG,,T,,M,0.01,N,0.01,K,D*26
$GPHDT,,T*1B
$GPTHS,,V*0E
$GPROT,,V*08
$PSSN,HRP,171542.00,010125,,,,,,,00,0,,*65
$PTNL,AVR,171542.00,,Yaw,,Tilt,,,,0,,00*33
$GPGSA,A,3,05,16,18,26,29,,,,,,,,1.6,0.8,1.4*3C
$GPGSA,A,3,81,82,,,,,,,,,,,1.6,0.8,1.4*3B
$GPGSA,A,3,13,21,27,,,,,,,,,,1.6,0.8,1.4*3C
$GPGSA,A,3,08,11,23,25,34,37,38,43,,,,,1.6,0.8,1.4*39
$GPGST,171542.00,2.677,2.410,0.805,4.409,2.404,0.824,4.158*50
$GPGBS,171542.00,10.180,3.226,12.995,05,0.0001,2.843,0.950*55
$GPGRS,171542.00,1,2.8,-1.6,-0.7,0.3,-0.1,,,,,,,*41
$GPGRS,171542.00,1,0.6,-0.3,,,,,,,,,,*62
$GPGRS,171542.00,1,0.7,-0.7,-1.2,,,,,,,,,*67
$GPGRS,171542.00,1,-0.2,-1.2,0.3,6.4,-0.1,-4.0,-2.4,-0.8,,,,*41
$GPGSV,4,1,15,18,70,176,46,05,28,061,39,23,10,157,,25,22,139,27*7C
$GPGSV,4,2,15,28,25,217,33,16,30,306,41,31,37,245,38,29,52,070,49*7E
$GPGSV,4,3,15,26,60,290,43,27,04,269,28,20,10,033,,36,35,170,38*7F
$GPGSV,4,4,15,34,31,208,34,49,34,195,37,61,03,257,*42
$GLGSV,3,1,10,80,64,304,35,88,10,047,25,73,11,328,33,65,12,053,*63
$GLGSV,3,2,10,83,19,232,,79,51,171,33,82,61,248,52,81,62,030,45*63
$GLGSV,3,3,10,78,03,156,,72,07,359,31*65
$GAGSV,3,1,09,27,71,145,41,34,21,044,34,30,19,132,32,13,46,200,41*6B
$GAGSV,3,2,09,21,51,303,37,15,69,081,34,04,02,324,29,23,02,309,*67
$GAGSV,3,3,09,06,01,347,*56
$GBGSV,5,1,19,43,77,256,47,25,33,178,42,60,10,109,,28,14,244,32*6E
$GBGSV,5,2,19,05,21,129,,38,30,047,35,37,26,312,44,12,22,060,25*67
$GBGSV,5,3,19,08,40,060,41,13,42,071,24,34,51,061,48,23,59,252,49*63
$GBGSV,5,4,19,11,77,047,47,10,00,096,,21,10,085,,02,06,107,*61
$GBGSV,5,5,19,50,05,106,,56,05,080,,22,08,036,*57
$GPGGA,171542.00,,,,,0,00,,,M,,M,,*4C
$PTNL,GGK,171542.00,010125,4742.4466755,N,01617.9728591,E,1,18,1.6,EHT668.7009,M*4C
$GPGGQ,171542.00,010125,4742.4466755,N,01617.9728591,E,1,18,4.873,625.4898,M*37
$GPGFA,171542.00,22.916,34.095,2.410,0.805,4.409,4.158,,VVV*09
$GPLLK,171542.00,010125,,M,,M,1,18,1.9,,M*0E
$GNGMP,171542.00,,,,,DAAA,18,0.8,,,,*53
$GPGMP,171542.00,,,,,,05,,,,3.4,123*7B
$GLGMP,171542.00,,,,,,02,,,,,*79
$GAGMP,171542.00,,,,,,03,,,,,*75
$GBGMP,171542.00,,,,,,08,,,,,*7D
$PSSN,SNC,[0,321360000,2347]*41
$GPZDA,171547.00,01,01,2025,,*62
$GPDTM,W84,,00.0000000,N,00.0000000,E,00.0000000,W84*5F
$GPRMC,171547.00,A,4742.4466709,N,01617.9728492,E,0.0,,010125,5.1,E,D*1D
$GPGLL,4742.4466709,N,01617.9728492,E,171547.00,A,D*6C
$GPGGA,171547.00,4742.4466709,N,01617.9728492,E,2,20,0.8,625.5038,M,43.2111,M,2.0,0123*42
$GNGNS,171547.00,4742.4466709,N,01617.9728492,E,DAAA,20,0.8,625.5038,43.2111,,*5C
$GPGNS,171547.00,,,,,,05,,,,2.0,123*7B
$GLGNS,171547.00,,,,,,03,,,,,*7D
$GAGNS,171547.00,,,,,,04,,,,,*77
$GBGNS,171547.00,,,,,,08,,,,,*78
$GPLLQ,171547.00,010125,,M,,M,1,20,3.321,,M*11
$GPVTG,,T,,M,0.00,N,0.00,K,D*26
$GPHDT,,T*1B
$GPTHS,,V*0E
$GPROT,,V*08
$PSSN,HRP,171547.00,010125,,,,,,,00,0,,*60
$PTNL,AVR,171547.00,,Yaw,,Tilt,,,,0,,00*36
$GPGSA,A,3,05,16,18,26,29,,,,,,,,1.5,0.8,1.3*38
$GPGSA,A,3,80,81,82,,,,,,,,,,1.5,0.8,1.3*37
$GPGSA,A,3,13,15,21,27,,,,,,,,,1.5,0.8,1.3*3C
$GPGSA,A,3,08,11,23,25,34,37,38,43,,,,,1.5,0.8,1.3*3D
$GPGST,171547.00,2.186,1.622,0.557,4.635,1.617,0.570,2.844*56
$GPGBS,171547.00,9.727,3.161,12.762,05,0.0001,1.880,0.964*6E
$GPGRS,171547.00,1,1.9,-0.8,-0.7,0.5,-0.2,,,,,,,*4C
$GPGRS,171547.00,1,-1.5,0.6,-0.3,,,,,,,,,*60
$GPGRS,171547.00,1,0.7,0.7,-0.8,-1.1,,,,,,,,*47
$GPGRS,171547.00,1,-0.2,-1.1,0.4,5.6,-0.4,-3.7,-2.2,-0.9,,,,*43
$GPGSV,4,1,15,18,70,176,46,05,28,061,38,23,10,157,,25,22,139,31*7A
$GPGSV,4,2,15,28,25,217,35,16,30,306,40,31,37,245,37,29,52,070,49*76
$GPGSV,4,3,15,26,60,290,44,27,04,269,26,20,10,033,,36,35,170,38*76
$GPGSV,4,4,15,34,31,208,34,49,34,195,37,61,03,257,*42
$GLGSV,3,1,10,80,64,304,38,88,10,047,25,73,11,328,30,65,12,052,*6C
$GLGSV,3,2,10,83,19,232,,79,51,171,39,82,61,248,52,81,62,030,45*69
$GLGSV,3,3,10,78,03,156,,72,07,359,31*65
$GAGSV,3,1,09,27,71,145,40,34,21,044,35,30,19,132,31,13,46,200,42*6B
$GAGSV,3,2,09,21,51,303,37,15,69,081,36,04,02,324,25,23,02,309,*69
$GAGSV,3,3,09,06,01,347,*56
$GBGSV,5,1,19,43,77,257,47,25,33,178,42,60,10,109,,28,14,244,31*6C
$GBGSV,5,2,19,05,21,129,,38,30,047,35,37,26,312,44,12,22,060,25*67
$GBGSV,5,3,19,08,40,060,41,13,42,071,25,34,51,061,48,23,59,252,48*63
$GBGSV,5,4,19,11,77,047,48,10,00,096,,21,10,084,,02,06,107,*6F
$GBGSV,5,5,19,50,05,106,,56,05,080,,22,08,036,*57
$GPGGA,171547.00,,,,,0,00,,,M,,M,,*49
$PTNL,GGK,171547.00,010125,4742.4466709,N,01617.9728492,E,1,20,1.5,EHT668.7149,M*4F
$GPGGQ,171547.00,010125,4742.4466709,N,01617.9728492,E,1,20,3.321,625.5038,M*3A
$GPGFA,171547.00,15.421,23.321,1.622,0.557,4.635,2.844,,VVV*0E
$GPLLK,171547.00,010125,,M,,M,1,20,1.8,,M*01
$GNGMP,171547.00,,,,,DAAA,20,0.8,,,,*5D
$GPGMP,171547.00,,,,,,05,,,,2.0,123*7B
$GLGMP,171547.00,,,,,,03,,,,,*7D
$GAGMP,171547.00,,,,,,04,,,,,*77
$GBGMP,171547.00,,,,,,08,,,,,*78
$PSSN,SNC,[0,321365000,2347]*44
$GPZDA,171552.00,01,01,2025,,*66
$GPDTM,W84,,00.0000000,N,00.0000000,E,00.0000000,W84*5F
$GPRMC,171552.00,A,4742.4466621,N,01617.9728421,E,0.0,,010125,5.1,E,D*1A
$GPGLL,4742.4466621,N,01617.9728421,E,171552.00,A,D*6B
$GPGGA,171552.00,4742.4466621,N,01617.9728421,E,2,20,0.8,625.5145,M,43.2111,M,2.8,0123*46
$GNGNS,171552.00,4742.4466621,N,01617.9728421,E,DAAA,20,0.8,625.5145,43.2111,,*50
$GPGNS,171552.00,,,,,,04,,,,2.8,123*76
$GLGNS,171552.00,,,,,,04,,,,,*7E
$GAGNS,171552.00,,,,,,04,,,,,*73
$GBGNS,171552.00,,,,,,08,,,,,*7C
$GPLLQ,171552.00,010125,,M,,M,1,20,4.473,,M*12
$GPVTG,,T,,M,0.01,N,0.01,K,D*26
$GPHDT,,T*1B
$GPTHS,,V*0E
$GPROT,,V*08
$PSSN,HRP,171552.00,010125,,,,,,,00,0,,*64
$PTNL,AVR,171552.00,,Yaw,,Tilt,,,,0,,00*32
$GPGSA,A,3,16,18,26,29,,,,,,,,,1.6,0.8,1.4*39
$GPGSA,A,3,79,80,81,82,,,,,,,,,1.6,0.8,1.4*3D
$GPGSA,A,3,13,15,21,27,,,,,,,,,1.6,0.8,1.4*38
$GPGSA,A,3,08,11,23,25,34,37,38,43,,,,,1.6,0.8,1.4*39
$GPGST,171552.00,2.683,2.059,0.776,2.836,2.057,0.781,3.895*53
$GPGBS,171552.00,9.350,5.095,20.819,18,0.0001,-0.899,0.629*4E
$GPGRS,171552.00,1,-0.2,-0.9,0.8,-0.4,,,,,,,,*61
$GPGRS,171552.00,1,-5.8,3.0,-0.3,-1.3,,,,,,,,*69
$GPGRS,171552.00,1,-1.8,-0.2,-0.4,-1.8,,,,,,,,*4D
$GPGRS,171552.00,1,-0.6,-1.5,-0.1,4.1,-0.9,-3.8,-2.3,-0.7,,,,*64
$GPGSV,4,1,15,18,70,176,46,05,28,061,36,23,10,157,,25,22,139,32*77
$GPGSV,4,2,15,28,25,217,36,16,30,306,38,31,37,245,40,29,51,070,50*71
$GPGSV,4,3,15,26,60,290,46,27,04,269,24,20,10,032,21,36,35,170,38*74
$GPGSV,4,4,15,34,31,208,34,49,34,195,37,61,03,257,*42
$GLGSV,3,1,10,80,64,304,42,88,10,047,,73,11,328,29,65,12,052,*6E
$GLGSV,3,2,10,83,19,232,,79,51,171,39,82,61,248,50,81,62,030,44*6A
$GLGSV,3,3,10,78,02,156,,72,07,359,30*65
$GAGSV,3,1,09,27,71,145,39,34,21,044,35,30,19,132,31,13,46,200,41*66
$GAGSV,3,2,09,21,51,303,38,15,69,080,37,04,02,324,26,23,02,309,*65
$GAGSV,3,3,09,06,01,347,*56
$GBGSV,5,1,19,43,77,257,48,25,33,178,41,60,10,109,,28,14,244,28*68
$GBGSV,5,2,19,05,21,129,,38,30,047,35,37,26,312,44,12,22,060,26*64
$GBGSV,5,3,19,08,40,060,41,13,42,071,25,34,51,061,48,23,59,252,48*63
$GBGSV,5,4,19,11,77,047,48,10,00,096,,21,10,084,,02,06,107,*6F
$GBGSV,5,5,19,50,05,106,,56,05,080,,22,08,036,*57
$GPGGA,171552.00,,,,,0,00,,,M,,M,,*4D
$PTNL,GGK,171552.00,010125,4742.4466621,N,01617.9728421,E,1,20,1.6,EHT668.7255,M*45
$GPGGQ,171552.00,010125,4742.4466621,N,01617.9728421,E,1,20,4.473,625.5145,M*31
$GPGFA,171552.00,19.581,31.935,2.059,0.776,2.836,3.895,,VVV*0F
$GPLLK,171552.00,010125,,M,,M,1,20,1.9,,M*04
$GNGMP,171552.00,,,,,DAAA,20,0.8,,,,*59
$GPGMP,171552.00,,,,,,04,,,,2.8,123*76
$GLGMP,171552.00,,,,,,04,,,,,*7E
$GAGMP,171552.00,,,,,,04,,,,,*73
$GBGMP,171552.00,,,,,,08,,,,,*7C
$PSSN,SNC,[0,321370000,2347]*40
$GPZDA,171557.00,01,01,2025,,*63
$GPDTM,W84,,00.0000000,N,00.0000000,E,00.0000000,W84*5F
$GPRMC,171557.00,A,4742.4466632,N,01617.9728427,E,0.0,,010125,5.1,E,D*1B
$GPGLL,4742.4466632,N,01617.9728427,E,171557.00,A,D*6A
$GPGGA,171557.00,4742.4466632,N,01617.9728427,E,2,19,0.8,625.5036,M,43.2111,M,3.8,0123*49
$GNGNS,171557.00,4742.4466632,N,01617.9728427,E,DAAA,19,0.8,625.5036,43.2111,,*5E
$GPGNS,171557.00,,,,,,04,,,,3.8,123*72
$GLGNS,171557.00,,,,,,03,,,,,*7C
$GAGNS,171557.00,,,,,,04,,,,,*76
$GBGNS,171557.00,,,,,,08,,,,,*79
$GPLLQ,171557.00,010125,,M,,M,1,19,4.495,,M*15
$GPVTG,,T,,M,0.01,N,0.02,K,D*25
$GPHDT,,T*1B
$GPTHS,,V*0E
$GPROT,,V*08
$PSSN,HRP,171557.00,010125,,,,,,,00,0,,*61
$PTNL,AVR,171557.00,,Yaw,,Tilt,,,,0,,00*37
$GPGSA,A,3,16,18,26,29,,,,,,,,,1.6,0.8,1.4*39
$GPGSA,A,3,80,81,82,,,,,,,,,,1.6,0.8,1.4*33
$GPGSA,A,3,13,15,21,27,,,,,,,,,1.6,0.8,1.4*38
$GPGSA,A,3,08,11,23,25,34,37,38,43,,,,,1.6,0.8,1.4*39
$GPGST,171557.00,1.948,1.883,0.744,359.933,1.883,0.744,4.013*53
$GPGBS,171557.00,10.188,5.193,22.708,16,0.0001,-2.222,0.980*74
$GPGRS,171557.00,1,-2.2,-0.3,1.1,0.0,,,,,,,,*4D
$GPGRS,171557.00,1,2.8,-0.5,-1.8,,,,,,,,,*66
$GPGRS,171557.00,1,-2.6,0.2,0.8,-0.7,,,,,,,,*47
$GPGRS,171557.00,1,0.2,-0.7,0.5,2.6,-1.0,-3.1,-1.4,0.0,,,,*4C
$GPGSV,4,1,15,18,70,176,45,05,28,061,34,23,10,157,,25,22,139,33*77
$GPGSV,4,2,15,28,25,217,38,16,30,306,36,31,37,245,41,29,51,070,50*70
$GPGSV,4,3,15,26,60,290,46,27,04,269,20,20,10,032,,36,35,170,38*73
$GPGSV,4,4,15,34,31,208,34,49,34,195,37,61,03,257,*42
$GLGSV,3,1,10,80,64,304,45,65,12,052,,73,11,328,26,83,19,232,*64
$GLGSV,3,2,10,79,51,171,35,82,61,248,49,81,62,030,44,72,07,359,30*60
$GLGSV,3,3,10,78,02,156,,88,10,048,*66
$GAGSV,3,1,09,27,71,145,39,34,21,044,35,30,19,132,30,13,46,200,40*66
$GAGSV,3,2,09,21,51,303,39,15,69,080,38,04,02,324,30,23,02,309,*6C
$GAGSV,3,3,09,06,01,347,*56
$GBGSV,5,1,19,43,77,257,49,25,33,178,37,60,10,109,,28,14,244,22*62
$GBGSV,5,2,19,05,21,129,,38,30,047,36,37,26,312,45,12,22,060,27*67
$GBGSV,5,3,19,08,40,060,41,13,42,071,25,34,51,061,48,23,59,252,47*6C
$GBGSV,5,4,19,11,77,047,48,10,00,096,,21,10,084,,02,06,107,*6F
$GBGSV,5,5,19,50,05,106,,56,05,080,,22,08,036,*57
$GPGGA,171557.00,,,,,0,00,,,M,,M,,*48
$PTNL,GGK,171557.00,010125,4742.4466632,N,01617.9728427,E,1,19,1.6,EHT668.7146,M*4F
$GPGGQ,171557.00,010125,4742.4466632,N,01617.9728427,E,1,19,4.495,625.5036,M*37
$GPGFA,171557.00,17.902,32.909,1.883,0.744,359.933,4.013,,VVV*0A
$GPLLK,171557.00,010125,,M,,M,1,19,2.0,,M*01
$GNGMP,171557.00,,,,,DAAA,19,0.8,,,,*56
$GPGMP,171557.00,,,,,,04,,,,3.8,123*72
$GLGMP,171557.00,,,,,,03,,,,,*7C
$GAGMP,171557.00,,,,,,04,,,,,*76
$GBGMP,171557.00,,,,,,08,,,,,*79
$PSSN,SNC,[0,321375000,2347]*45
$GPZDA,171602.00,01,01,2025,,*60
$GPDTM,W84,,00.0000000,N,00.0000000,E,00.0000000,W84*5F
$GPRMC,171602.00,A,4742.4466651,N,01617.9728355,E,0.0,,010125,5.1,E,D*1F
$GPGLL,4742.4466651,N,01617.9728355,E,171602.00,A,D*6E
$GPGGA,171602.00,4742.4466651,N,01617.9728355,E,2,20,0.8,625.4846,M,43.2111,M,1.8,0123*4B
$GNGNS,171602.00,4742.4466651,N,01617.9728355,E,DAAA,20,0.8,625.4846,43.2111,,*5E
$GPGNS,171602.00,,,,,,04,,,,1.8,123*73
$GLGNS,171602.00,,,,,,04,,,,,*78
$GAGNS,171602.00,,,,,,04,,,,,*75
$GBGNS,171602.00,,,,,,08,,,,,*7A
$GPLLQ,171602.00,010125,,M,,M,1,20,5.062,,M*11
$GPVTG,,T,,M,0.01,N,0.01,K,D*26
$GPHDT,,T*1B
$GPTHS,,V*0E
$GPROT,,V*08
$PSSN,HRP,171602.00,010125,,,,,,,00,0,,*62
$PTNL,AVR,171602.00,,Yaw,,Tilt,,,,0,,00*34
$GPGSA,A,3,16,18,26,29,,,,,,,,,1.6,0.8,1.4*39
$GPGSA,A,3,79,80,81,82,,,,,,,,,1.6,0.8,1.4*3D
$GPGSA,A,3,13,15,21,27,,,,,,,,,1.6,0.8,1.4*38
$GPGSA,A,3,08,11,23,25,34,37,38,43,,,,,1.6,0.8,1.4*39
$GPGST,171602.00,2.619,2.103,0.883,0.934,2.103,0.884,4.519*58
$GPGBS,171602.00,9.161,5.290,20.432,16,0.0001,-2.846,0.938*4B
$GPGRS,171602.00,1,-2.8,0.1,0.9,0.4,,,,,,,,*66
$GPGRS,171602.00,1,0.8,5.2,-0.6,-1.8,,,,,,,,*4D
$GPGRS,171602.00,1,-2.4,0.5,1.0,0.2,,,,,,,,*60
$GPGRS,171602.00,1,0.8,-0.4,1.2,-5.4,-1.6,-2.5,-1.2,0.6,,,,*6B
$GPGSV,4,1,15,18,70,176,45,05,28,061,34,23,10,157,,25,22,139,34*70
$GPGSV,4,2,15,28,25,217,39,16,30,306,36,31,37,245,40,29,51,070,50*70
$GPGSV,4,3,15,26,60,290,46,27,04,269,,20,10,032,,36,35,170,39*70
$GPGSV,4,4,15,34,31,208,34,49,34,195,37,61,03,257,*42
$GLGSV,3,1,10,80,64,304,45,65,12,052,,73,11,328,27,83,19,232,*65
$GLGSV,3,2,10,79,51,171,37,82,61,248,49,81,62,031,46,72,07,359,*62
$GLGSV,3,3,10,78,02,156,,88,10,048,*66
$GAGSV,3,1,09,27,71,145,39,34,21,044,35,30,19,132,26,13,46,200,38*6E
$GAGSV,3,2,09,21,51,303,39,15,69,080,39,04,02,323,30,23,02,309,*6A
$GAGSV,3,3,09,06,01,347,*56
$GBGSV,5,1,19,43,77,257,50,25,32,178,38,60,10,109,,28,14,244,22*64
$GBGSV,5,2,19,05,21,129,,38,30,047,35,37,26,312,45,12,22,060,29*6A
$GBGSV,5,3,19,08,40,060,41,13,42,071,25,34,51,061,47,23,59,252,47*63
$GBGSV,5,4,19,11,77,047,48,10,00,096,,21,10,084,,02,06,107,*6F
$GBGSV,5,5,19,50,05,106,,56,05,080,,22,08,036,*57
$GPGGA,171602.00,,,,,0,00,,,M,,M,,*4B
$PTNL,GGK,171602.00,010125,4742.4466651,N,01617.9728355,E,1,20,1.6,EHT668.6956,M*49
$GPGGQ,171602.00,010125,4742.4466651,N,01617.9728355,E,1,20,5.062,625.4846,M*3A
$GPGFA,171602.00,19.998,37.054,2.103,0.883,0.934,4.519,,VVV*01
$GPLLK,171602.00,010125,,M,,M,1,20,1.9,,M*02
$GNGMP,171602.00,,,,,DAAA,20,0.8,,,,*5F
$GPGMP,171602.00,,,,,,04,,,,1.8,123*73
$GLGMP,171602.00,,,,,,04,,,,,*78
$GAGMP,171602.00,,,,,,04,,,,,*75
$GBGMP,171602.00,,,,,,08,,,,,*7A
$PSSN,SNC,[0,321380000,2347]*4F
$GPZDA,171607.00,01,01,2025,,*65
$GPDTM,W84,,00.0000000,N,00.0000000,E,00.0000000,W84*5F
$GPRMC,171607.00,A,4742.4466688,N,01617.9728314,E,0.0,,010125,5.1,E,D*1B
$GPGLL,4742.4466688,N,01617.9728314,E,171607.00,A,D*6A
$GPGGA,171607.00,4742.4466688,N,01617.9728314,E,2,19,0.9,625.4756,M,43.2111,M,1.8,0123*4A
$GNGNS,171607.00,4742.4466688,N,01617.9728314,E,DAAA,19,0.9,625.4756,43.2111,,*5F
$GPGNS,171607.00,,,,,,04,,,,1.8,123*76
$GLGNS,171607.00,,,,,,04,,,,,*7D
$GAGNS,171607.00,,,,,,04,,,,,*70
$GBGNS,171607.00,,,,,,07,,,,,*70
$GPLLQ,171607.00,010125,,M,,M,1,19,3.828,,M*1E
$GPVTG,,T,,M,0.01,N,0.02,K,D*25
$GPHDT,,T*1B
$GPTHS,,V*0E
$GPROT,,V*08
$PSSN,HRP,171607.00,010125,,,,,,,00,0,,*67
$PTNL,AVR,171607.00,,Yaw,,Tilt,,,,0,,00*31
$GPGSA,A,3,16,18,26,29,,,,,,,,,1.9,0.9,1.7*34
$GPGSA,A,3,79,80,81,82,,,,,,,,,1.9,0.9,1.7*30
$GPGSA,A,3,13,15,21,27,,,,,,,,,1.9,0.9,1.7*35
$GPGSA,A,3,08,11,23,34,37,38,43,,,,,,1.9,0.9,1.7*33
$GPGST,171607.00,2.075,1.608,0.641,1.015,1.608,0.641,3.414*56
$GPGBS,171607.00,10.117,5.014,22.476,80,0.0001,3.838,6.063*50
$GPGRS,171607.00,1,-0.1,0.2,-0.2,0.2,,,,,,,,*4B
$GPGRS,171607.00,1,0.9,3.8,3.0,-2.2,,,,,,,,*64
$GPGRS,171607.00,1,-2.0,0.0,-0.1,-0.1,,,,,,,,*67
$GPGRS,171607.00,1,1.1,-0.7,1.5,-2.5,-2.7,-0.7,0.1,,,,,*61
$GPGSV,4,1,15,18,70,176,45,05,28,061,32,23,10,157,,25,22,139,35*77
$GPGSV,4,2,15,28,25,217,38,16,30,306,39,31,37,245,38,29,51,070,50*71
$GPGSV,4,3,15,26,60,290,43,27,04,269,,20,10,032,,36,35,170,39*75
$GPGSV,4,4,15,34,31,208,34,49,34,195,37,61,03,257,*42
$GLGSV,3,1,10,80,64,304,43,65,12,052,,73,11,328,29,83,19,232,*6D
$GLGSV,3,2,10,79,51,171,37,82,61,248,48,81,62,031,46,72,07,359,27*66
$GLGSV,3,3,10,78,02,156,,88,10,048,29*6D
$GAGSV,3,1,09,27,71,145,39,34,21,044,36,30,19,132,25,13,46,200,35*63
$GAGSV,3,2,09,21,51,303,39,15,69,080,39,04,02,323,29,23,02,309,*62
$GAGSV,3,3,09,06,01,347,*56
$GBGSV,5,1,19,43,77,257,50,25,32,178,28,60,10,109,,28,14,244,26*61
$GBGSV,5,2,19,05,21,129,,38,30,047,35,37,26,312,45,12,22,060,31*63
$GBGSV,5,3,19,08,40,060,42,13,42,071,25,34,51,061,47,23,59,252,46*61
$GBGSV,5,4,19,11,77,047,49,10,00,096,,21,10,084,,02,06,107,*6E
$GBGSV,5,5,19,50,06,106,,56,05,080,,22,08,036,*54
$GPGGA,171607.00,,,,,0,00,,,M,,M,,*4E
$PTNL,GGK,171607.00,010125,4742.4466688,N,01617.9728314,E,1,19,1.9,EHT668.6866,M*4A
$GPGGQ,171607.00,010125,4742.4466688,N,01617.9728314,E,1,19,3.828,625.4756,M*3A
$GPGFA,171607.00,15.290,27.993,1.608,0.641,1.015,3.414,,VVV*07
$GPLLK,171607.00,010125,,M,,M,1,19,2.3,,M*04
$GNGMP,171607.00,,,,,DAAA,19,0.9,,,,*51
$GPGMP,171607.00,,,,,,04,,,,1.8,123*76
$GLGMP,171607.00,,,,,,04,,,,,*7D
$GAGMP,171607.00,,,,,,04,,,,,*70
$GBGMP,171607.00,,,,,,07,,,,,*70
$PSSN,SNC,[0,321385000,2347]*4A
$GPZDA,171612.00,01,01,2025,,*61
$GPDTM,W84,,00.0000000,N,00.0000000,E,00.0000000,W84*5F
$GPRMC,171612.00,A,4742.4466650,N,01617.9728354,E,0.0,,010125,5.1,E,D*1E
$GPGLL,4742.4466650,N,01617.9728354,E,171612.00,A,D*6F
$GPGGA,171612.00,4742.4466650,N,01617.9728354,E,2,18,0.9,625.4756,M,43.2111,M,2.8,0123*4D
$GNGNS,171612.00,4742.4466650,N,01617.9728354,E,DAAA,18,0.9,625.4756,43.2111,,*5B
$GPGNS,171612.00,,,,,,05,,,,2.8,123*70
$GLGNS,171612.00,,,,,,04,,,,,*79
$GAGNS,171612.00,,,,,,03,,,,,*73
$GBGNS,171612.00,,,,,,06,,,,,*75
$GPLLQ,171612.00,010125,,M,,M,1,18,2.098,,M*19
$GPVTG,,T,,M,0.01,N,0.02,K,D*25
$GPHDT,,T*1B
$GPTHS,,V*0E
$GPROT,,V*08
$PSSN,HRP,171612.00,010125,,,,,,,00,0,,*63
$PTNL,AVR,171612.00,,Yaw,,Tilt,,,,0,,00*35
$GPGSA,A,3,16,18,25,26,29,,,,,,,,1.6,0.9,1.3*38
$GPGSA,A,3,79,80,81,82,,,,,,,,,1.6,0.9,1.3*3B
$GPGSA,A,3,15,21,27,,,,,,,,,,1.6,0.9,1.3*3C
$GPGSA,A,3,08,11,23,34,37,43,,,,,,,1.6,0.9,1.3*33
$GPGST,171612.00,2.595,1.075,0.606,28.492,0.988,0.740,1.697*6B
$GPGBS,171612.00,5.275,5.064,9.158,16,0.0001,2.259,0.953*5F
$GPGRS,171612.00,1,2.3,0.2,-0.8,-0.6,-0.3,,,,,,,*41
$GPGRS,171612.00,1,-0.7,1.0,5.7,-3.7,,,,,,,,*4C
$GPGRS,171612.00,1,0.8,-0.4,-0.3,,,,,,,,,*6D
$GPGRS,171612.00,1,0.7,-0.7,2.0,-2.4,-3.0,-0.4,,,,,,*4F
$GPGSV,4,1,15,18,70,176,47,05,28,061,28,23,10,157,,25,22,139,36*7D
$GPGSV,4,2,15,28,25,217,38,16,30,306,42,31,37,245,35,29,51,070,49*78
$GPGSV,4,3,15,26,60,290,42,27,04,269,,20,10,032,26,36,35,170,39*70
$GPGSV,4,4,15,34,31,208,34,49,34,195,37,61,03,257,*42
$GLGSV,3,1,10,80,64,304,42,65,12,052,,73,11,328,32,83,19,232,*66
$GLGSV,3,2,10,79,51,171,40,82,61,248,47,81,62,031,45,72,07,359,*6F
$GLGSV,3,3,10,78,02,156,,88,10,048,29*6D
$GAGSV,3,1,09,27,71,145,39,34,21,044,36,30,19,132,23,13,46,200,34*64
$GAGSV,3,2,09,21,51,303,39,15,69,080,41,04,02,323,28,23,02,309,*6C
$GAGSV,3,3,09,06,01,347,*56
$GBGSV,5,1,19,43,77,257,50,25,32,178,34,60,10,109,,28,14,244,30*6B
$GBGSV,5,2,19,05,21,129,,38,30,047,35,37,26,312,45,12,22,060,31*63
$GBGSV,5,3,19,08,40,060,41,13,42,071,25,34,50,061,47,23,59,252,44*61
$GBGSV,5,4,19,11,77,047,49,10,00,097,,21,10,084,,02,06,107,*6F
$GBGSV,5,5,19,50,06,106,,56,05,080,,22,08,036,*54
$GPGGA,171612.00,,,,,0,00,,,M,,M,,*4A
$PTNL,GGK,171612.00,010125,4742.4466650,N,01617.9728354,E,1,18,1.6,EHT668.6866,M*41
$GPGGQ,171612.00,010125,4742.4466650,N,01617.9728354,E,1,18,2.098,625.4756,M*3C
$GPGFA,171612.00,10.220,13.915,1.075,0.606,28.492,1.697,,VVV*30
$GPLLK,171612.00,010125,,M,,M,1,18,1.9,,M*08
$GNGMP,171612.00,,,,,DAAA,18,0.9,,,,*54
$GPGMP,171612.00,,,,,,05,,,,2.8,123*70
$GLGMP,171612.00,,,,,,04,,,,,*79
$GAGMP,171612.00,,,,,,03,,,,,*73
$GBGMP,171612.00,,,,,,06,,,,,*75
$PSSN,SNC,[0,321390000,2347]*4E
$GPZDA,171617.00,01,01,2025,,*64
$GPDTM,W84,,00.0000000,N,00.0000000,E,00.0000000,W84*5F
$GPRMC,171617.00,A,4742.4466556,N,01617.9728472,E,0.0,,010125,5.1,E,D*1D
$GPGLL,4742.4466556,N,01617.9728472,E,171617.00,A,D*6C
$GPGGA,171617.00,4742.4466556,N,01617.9728472,E,2,20,0.8,625.4797,M,43.2111,M,3.8,0123*48
$GNGNS,171617.00,4742.4466556,N,01617.9728472,E,DAAA,20,0.8,625.4797,43.2111,,*5F
$GPGNS,171617.00,,,,,,05,,,,3.8,123*74
$GLGNS,171617.00,,,,,,05,,,,,*7D
$GAGNS,171617.00,,,,,,03,,,,,*76
$GBGNS,171617.00,,,,,,07,,,,,*71
$GPLLQ,171617.00,010125,,M,,M,1,20,3.084,,M*1B
$GPVTG,,T,,M,0.01,N,0.02,K,D*25
$GPHDT,,T*1B
$GPTHS,,V*0E
$GPROT,,V*08
$PSSN,HRP,171617.00,010125,,,,,,,00,0,,*66
$PTNL,AVR,171617.00,,Yaw,,Tilt,,,,0,,00*30
$GPGSA,A,3,16,18,25,26,29,,,,,,,,1.3,0.8,1.0*3F
$GPGSA,A,3,73,79,80,81,82,,,,,,,,1.3,0.8,1.0*38
$GPGSA,A,3,15,21,27,,,,,,,,,,1.3,0.8,1.0*3B
$GPGSA,A,3,08,11,23,25,34,37,43,,,,,,1.3,0.8,1.0*33
$GPGST,171617.00,6.832,1.590,0.901,29.228,1.455,1.105,2.485*62
$GPGBS,171617.00,5.274,5.132,9.106,73,0.0001,22.254,6.662*65
$GPGRS,171617.00,1,2.2,-0.1,-0.8,0.0,-0.4,,,,,,,*47
$GPGRS,171617.00,1,22.3,-1.8,-1.0,0.8,-4.5,,,,,,,*78
$GPGRS,171617.00,1,1.3,-0.3,-0.2,,,,,,,,,*64
$GPGRS,171617.00,1,0.9,-0.7,0.9,8.0,-2.0,-2.9,-0.5,,,,,*64
$GPGSV,4,1,15,18,71,176,48,05,28,061,28,23,10,157,,25,22,139,37*72
$GPGSV,4,2,15,28,25,217,38,16,30,306,44,31,37,245,33,29,51,070,49*78
$GPGSV,4,3,15,26,60,290,41,27,04,269,24,20,10,032,,36,35,170,38*70
$GPGSV,4,4,15,34,31,208,34,49,34,195,37,61,03,257,*42
$GLGSV,3,1,10,80,64,303,40,65,12,052,,73,12,328,36,83,19,232,*64
$GLGSV,3,2,10,79,51,171,43,82,61,248,46,81,62,031,44,72,07,359,27*69
$GLGSV,3,3,10,78,02,156,,88,10,048,29*6D
$GAGSV,3,1,09,27,71,145,40,34,21,044,37,30,19,132,26,13,46,200,32*68
$GAGSV,3,2,09,21,51,303,39,15,69,080,42,04,02,323,30,23,02,309,*66
$GAGSV,3,3,09,06,01,347,*56
$GBGSV,5,1,19,43,77,257,51,25,32,178,38,60,10,109,,28,14,244,31*67
$GBGSV,5,2,19,05,21,129,,38,30,047,34,37,26,312,45,12,22,060,32*61
$GBGSV,5,3,19,08,40,060,41,13,42,071,26,34,50,061,46,23,59,252,43*64
$GBGSV,5,4,19,11,77,047,49,10,00,097,,21,10,084,,02,06,107,*6F
$GBGSV,5,5,19,50,06,106,,56,05,080,,22,08,036,*54
$GPGGA,171617.00,,,,,0,00,,,M,,M,,*4F
$PTNL,GGK,171617.00,010125,4742.4466556,N,01617.9728472,E,1,20,1.3,EHT668.6908,M*45
$GPGGQ,171617.00,010125,4742.4466556,N,01617.9728472,E,1,20,3.084,625.4797,M*35
$GPGFA,171617.00,15.114,20.375,1.590,0.901,29.228,2.485,,VVV*3A
$GPLLK,171617.00,010125,,M,,M,1,20,1.5,,M*0A
$GNGMP,171617.00,,,,,DAAA,20,0.8,,,,*5B
$GPGMP,171617.00,,,,,,05,,,,3.8,123*74
$GLGMP,171617.00,,,,,,05,,,,,*7D
$GAGMP,171617.00,,,,,,03,,,,,*76
$GBGMP,171617.00,,,,,,07,,,,,*71
$PSSN,SNC,[0,321395000,2347]*4B
$GPZDA,171622.00,01,01,2025,,*62
$GPDTM,W84,,00.0000000,N,00.0000000,E,00.0000000,W84*5F
$GPRMC,171622.00,A,4742.4466460,N,01617.9728598,E,0.0,,010125,5.1,E,D*1A
$GPGLL,4742.4466460,N,01617.9728598,E,171622.00,A,D*6B
$GPGGA,171622.00,4742.4466460,N,01617.9728598,E,2,20,0.8,625.4916,M,43.2111,M,1.6,0123*44
$GNGNS,171622.00,4742.4466460,N,01617.9728598,E,DAAA,20,0.8,625.4916,43.2111,,*5F
$GPGNS,171622.00,,,,,,05,,,,1.6,123*7E
$GLGNS,171622.00,,,,,,05,,,,,*7B
$GAGNS,171622.00,,,,,,03,,,,,*70
$GBGNS,171622.00,,,,,,07,,,,,*77
$GPLLQ,171622.00,010125,,M,,M,1,20,2.379,,M*1D
$GPVTG,,T,,M,0.01,N,0.01,K,D*26
$GPHDT,,T*1B
$GPTHS,,V*0E
$GPROT,,V*08
$PSSN,HRP,171622.00,010125,,,,,,,00,0,,*60
$PTNL,AVR,171622.00,,Yaw,,Tilt,,,,0,,00*36
$GPGSA,A,3,16,18,25,26,29,,,,,,,,1.3,0.8,1.0*3F
$GPGSA,A,3,73,79,80,81,82,,,,,,,,1.3,0.8,1.0*38
$GPGSA,A,3,15,21,27,,,,,,,,,,1.3,0.8,1.0*3B
$GPGSA,A,3,08,11,23,25,34,37,43,,,,,,1.3,0.8,1.0*33
$GPGST,171622.00,5.603,1.245,0.695,30.176,1.132,0.867,1.904*69
$GPGBS,171622.00,5.392,5.239,8.809,73,0.0001,18.113,6.654*69
$GPGRS,171622.00,1,1.3,-0.2,-0.6,0.5,-0.7,,,,,,,*48
$GPGRS,171622.00,1,18.1,-0.3,-2.8,-2.7,-3.8,,,,,,,*5E
$GPGRS,171622.00,1,1.8,-0.1,-0.6,,,,,,,,,*6F
$GPGRS,171622.00,1,0.4,-0.3,0.8,5.8,-1.5,-2.8,-0.6,,,,,*6B
$GPGSV,4,1,15,18,71,176,48,05,28,061,31,23,10,157,,25,22,139,37*7A
$GPGSV,4,2,15,28,25,217,37,16,30,306,45,31,37,245,36,29,51,070,48*72
$GPGSV,4,3,15,26,60,290,41,27,04,270,24,20,10,032,,36,35,170,38*78
$GPGSV,4,4,15,34,31,208,34,49,34,195,37,61,03,257,*42
$GLGSV,3,1,10,80,64,303,39,65,12,052,,73,12,328,37,83,19,233,*6A
$GLGSV,3,2,10,79,51,171,46,82,61,248,46,81,62,031,43,72,07,359,*6E
$GLGSV,3,3,10,78,02,156,,88,10,048,28*6C
$GAGSV,3,1,09,27,71,145,41,34,21,044,37,30,19,132,25,13,46,200,30*68
$GAGSV,3,2,09,21,51,303,40,15,69,080,43,04,02,323,30,23,02,309,*69
$GAGSV,3,3,09,06,01,347,*56
$GBGSV,5,1,19,43,77,257,51,25,32,178,41,60,10,109,,28,14,244,32*6A
$GBGSV,5,2,19,05,21,129,,38,30,047,34,37,26,312,45,12,22,060,32*61
$GBGSV,5,3,19,08,40,060,41,13,42,071,28,34,50,061,46,23,59,252,43*6A
$GBGSV,5,4,19,11,77,047,49,10,00,097,,21,10,084,,02,06,107,*6F
$GBGSV,5,5,19,50,06,106,,56,05,080,,22,08,036,*54
$GPGGA,171622.00,,,,,0,00,,,M,,M,,*49
$PTNL,GGK,171622.00,010125,4742.4466460,N,01617.9728598,E,1,20,1.3,EHT668.7026,M*46
$GPGGQ,171622.00,010125,4742.4466460,N,01617.9728598,E,1,20,2.379,625.4916,M*35
$GPGFA,171622.00,11.838,15.614,1.245,0.695,30.176,1.904,,VVV*31
$GPLLK,171622.00,010125,,M,,M,1,20,1.5,,M*0C
$GNGMP,171622.00,,,,,DAAA,20,0.8,,,,*5D
$GPGMP,171622.00,,,,,,05,,,,1.6,123*7E
$GLGMP,171622.00,,,,,,05,,,,,*7B
$GAGMP,171622.00,,,,,,03,,,,,*70
$GBGMP,171622.00,,,,,,07,,,,,*77
$PSSN,SNC,[0,321400000,2347]*40
$GPZDA,171627.00,01,01,2025,,*67
$GPDTM,W84,,00.0000000,N,00.0000000,E,00.0000000,W84*5F
$GPRMC,171627.00,A,4742.4466376,N,01617.9728723,E,0.0,,010125,5.1,E,D*1D
$GPGLL,4742.4466376,N,01617.9728723,E,171627.00,A,D*6C
$GPGGA,171627.00,4742.4466376,N,01617.9728723,E,2,22,0.7,625.4871,M,43.2111,M,2.2,0123*49
$GNGNS,171627.00,4742.4466376,N,01617.9728723,E,DAAA,22,0.7,625.4871,43.2111,,*55
$GPGNS,171627.00,,,,,,06,,,,2.2,123*7F
$GLGNS,171627.00,,,,,,05,,,,,*7E
$GAGNS,171627.00,,,,,,03,,,,,*75
$GBGNS,171627.00,,,,,,08,,,,,*7D
$GPLLQ,171627.00,010125,,M,,M,1,22,1.875,,M*1E
$GPVTG,,T,,M,0.00,N,0.01,K,D*27
$GPHDT,,T*1B
$GPTHS,,V*0E
$GPROT,,V*08
$PSSN,HRP,171627.00,010125,,,,,,,00,0,,*65
$PTNL,AVR,171627.00,,Yaw,,Tilt,,,,0,,00*33
$GPGSA,A,3,05,16,18,25,26,29,,,,,,,1.2,0.7,1.0*34
$GPGSA,A,3,73,79,80,81,82,,,,,,,,1.2,0.7,1.0*36
$GPGSA,A,3,15,21,27,,,,,,,,,,1.2,0.7,1.0*35
$GPGSA,A,3,08,11,13,23,25,34,37,43,,,,,1.2,0.7,1.0*3F
$GPGST,171627.00,4.431,0.955,0.556,28.498,0.880,0.668,1.514*68
$GPGBS,171627.00,4.530,3.686,8.371,73,0.0001,14.471,6.648*61
$GPGRS,171627.00,1,0.9,-0.3,-0.6,-0.4,0.7,-0.2,,,,,,*47
$GPGRS,171627.00,1,14.5,1.4,-2.1,-1.2,-2.6,,,,,,,*78
$GPGRS,171627.00,1,2.1,0.2,-0.4,,,,,,,,,*4C
$GPGRS,171627.00,1,0.3,-0.1,-4.5,1.0,5.9,-0.7,-2.8,-0.1,,,,*65
$GPGSV,4,1,15,18,71,176,48,05,28,061,36,23,10,157,,25,22,139,37*7D
$GPGSV,4,2,15,28,25,217,35,16,30,306,44,31,37,245,37,29,51,070,47*7F
$GPGSV,4,3,15,26,60,290,42,27,04,270,25,20,10,032,22,36,35,170,39*7B
$GPGSV,4,4,15,34,31,208,34,49,34,195,37,61,03,257,*42
$GLGSV,3,1,10,80,64,303,38,65,12,052,,73,12,328,39,83,19,233,*65
$GLGSV,3,2,10,79,51,171,47,82,61,248,47,81,62,031,45,72,07,359,26*6C
$GLGSV,3,3,10,78,02,156,,88,10,048,28*6C
$GAGSV,3,1,09,27,71,145,42,34,21,044,37,30,19,132,25,13,46,200,29*63
$GAGSV,3,2,09,21,51,303,40,15,69,080,43,04,02,323,32,23,02,309,*6B
$GAGSV,3,3,09,06,01,347,*56
$GBGSV,5,1,19,43,77,257,51,25,32,178,42,60,10,109,,28,14,244,32*69
$GBGSV,5,2,19,05,21,129,,38,30,047,34,37,26,312,45,12,22,060,33*60
$GBGSV,5,3,19,08,40,060,41,13,42,071,46,34,50,061,46,23,59,251,43*61
$GBGSV,5,4,19,11,77,047,49,10,00,097,,21,10,084,,02,06,107,*6F
$GBGSV,5,5,19,50,06,106,,56,05,080,,22,08,036,*54
$GPGGA,171627.00,,,,,0,00,,,M,,M,,*4C
$PTNL,GGK,171627.00,010125,4742.4466376,N,01617.9728723,E,1,22,1.2,EHT668.6981,M*47
$GPGGQ,171627.00,010125,4742.4466376,N,01617.9728723,E,1,22,1.875,625.4871,M*34
$GPGFA,171627.00,9.076,12.419,0.955,0.556,28.498,1.514,,VVV*01
$GPLLK,171627.00,010125,,M,,M,1,22,1.4,,M*0A
$GNGMP,171627.00,,,,,DAAA,22,0.7,,,,*55
$GPGMP,171627.00,,,,,,06,,,,2.2,123*7F
$GLGMP,171627.00,,,,,,05,,,,,*7E
$GAGMP,171627.00,,,,,,03,,,,,*75
$GBGMP,171627.00,,,,,,08,,,,,*7D
$PSSN,SNC,[0,321405000,2347]*45
$GPZDA,171632.00,01,01,2025,,*63
$GPDTM,W84,,00.0000000,N,00.0000000,E,00.0000000,W84*5F
$GPRMC,171632.00,A,4742.4466392,N,01617.9728745,E,0.0,,010125,5.1,E,D*13
$GPGLL,4742.4466392,N,01617.9728745,E,171632.00,A,D*62
$GPGGA,171632.00,4742.4466392,N,01617.9728745,E,2,21,0.7,625.4885,M,43.2111,M,2.5,0123*48
$GNGNS,171632.00,4742.4466392,N,01617.9728745,E,DAAA,21,0.7,625.4885,43.2111,,*53
$GPGNS,171632.00,,,,,,06,,,,2.5,123*7C
$GLGNS,171632.00,,,,,,05,,,,,*7A
$GAGNS,171632.00,,,,,,03,,,,,*71
$GBGNS,171632.00,,,,,,07,,,,,*76
$GPLLQ,171632.00,010125,,M,,M,1,21,2.022,,M*10
$GPVTG,,T,,M,0.00,N,0.01,K,D*27
$GPHDT,,T*1B
$GPTHS,,V*0E
$GPROT,,V*08
$PSSN,HRP,171632.00,010125,,,,,,,00,0,,*61
$PTNL,AVR,171632.00,,Yaw,,Tilt,,,,0,,00*37
$GPGSA,A,3,05,16,18,25,26,29,,,,,,,1.2,0.7,1.0*34
$GPGSA,A,3,73,79,80,81,82,,,,,,,,1.2,0.7,1.0*36
$GPGSA,A,3,15,21,27,,,,,,,,,,1.2,0.7,1.0*35
