$GPZDA,125942.00,01,01,2025,,*6A
$GPDTM,W84,,00.0000000,N,00.0000000,E,00.0000000,W84*5F
$GPRMC,125942.00,A,4742.4459832,N,01617.9730316,E,0.0,,010125,5.1,E,D*1C
$GPGLL,4742.4459832,N,01617.9730316,E,125942.00,A,D*6D
$GPGGA,125942.00,4742.4459832,N,01617.9730316,E,2,20,0.7,625.6265,M,43.2111,M,3.4,0123*40
$GNGNS,125942.00,4742.4459832,N,01617.9730316,E,DAAA,20,0.7,625.6265,43.2111,,*5B
$GPGNS,125942.00,,,,,,05,,,,3.4,123*76
$GLGNS,125942.00,,,,,,05,,,,,*73
$GAGNS,125942.00,,,,,,05,,,,,*7E
$GBGNS,125942.00,,,,,,05,,,,,*7D
$GPLLQ,125942.00,010125,,M,,M,1,20,3.153,,M*1E
$GPVTG,,T,,M,0.00,N,0.00,K,D*26
$GPHDT,,T*1B
$GPTHS,,V*0E
$GPROT,,V*08
$PSSN,HRP,125942.00,010125,,,,,,,00,0,,*68
$PTNL,AVR,125942.00,,Yaw,,Tilt,,,,0,,00*3E
$GPGSA,A,3,12,19,24,25,32,,,,,,,,1.3,0.7,1.1*3C
$GPGSA,A,3,68,69,77,78,87,,,,,,,,1.3,0.7,1.1*36
$GPGSA,A,3,02,08,29,30,36,,,,,,,,1.3,0.7,1.1*30
$GPGSA,A,3,10,24,26,35,44,,,,,,,,1.3,0.7,1.1*32
$GPGST,125942.00,5.115,1.432,0.943,18.321,1.391,1.002,2.646*62
$GPGBS,125942.00,6.556,4.661,14.010,19,0.0001,3.211,1.414*6F
$GPGRS,125942.00,1,-0.3,3.2,-0.5,0.6,1.1,,,,,,,*68
$GPGRS,125942.00,1,-1.0,0.8,-8.0,-6.5,3.9,,,,,,,*4C
$GPGRS,125942.00,1,-2.1,-3.8,-2.1,-1.3,9.0,,,,,,,*69
$GPGRS,125942.00,1,-2.7,-1.2,-3.1,-8.9,-1.2,,,,,,,*42
$GPGSV,4,1,14,12,81,343,48,06,27,077,34,29,12,208,28,11,22,118,27*7A
$GPGSV,4,2,14,19,27,048,36,32,31,301,41,25,44,273,39,24,55,150,43*74
$GPGSV,4,3,14,17,01,040,,28,03,310,29,36,35,170,34,34,31,208,35*73
$GPGSV,4,4,14,49,34,195,36,61,03,257,*7A
$GLGSV,3,1,10,77,57,065,47,69,21,330,44,67,14,226,,88,19,163,29*6D
$GLGSV,3,2,10,76,16,092,28,86,29,037,31,68,32,275,37,78,46,306,43*65
$GLGSV,3,3,10,87,50,098,39,79,00,286,*67
$GAGSV,3,1,10,30,76,294,45,11,12,029,,34,16,131,,08,19,191,36*60
$GAGSV,3,2,10,27,24,264,33,36,27,078,35,29,26,311,44,07,45,246,32*69
$GAGSV,3,3,10,02,44,070,48,18,61,097,*60
$GBGSV,5,1,20,24,85,015,51,41,18,294,32,43,10,242,,05,20,130,*63
$GBGSV,5,2,20,34,14,186,32,07,12,055,,33,13,245,29,12,34,164,35*6D
$GBGSV,5,3,20,25,28,292,,11,21,220,,26,36,105,41,10,25,058,35*65
$GBGSV,5,4,20,56,32,052,,44,50,137,41,35,41,065,31,14,04,222,*69
$GBGSV,5,5,20,02,04,109,,40,06,044,,32,03,343,32,60,08,111,*6D
$GPGGA,125942.00,,,,,0,00,,,M,,M,,*41
$PTNL,GGK,125942.00,010125,4742.4459832,N,01617.9730316,E,1,20,1.3,EHT668.8376,M*49
$GPGGQ,125942.00,010125,4742.4459832,N,01617.9730316,E,1,20,3.153,625.6265,M*35
$GPGFA,125942.00,13.612,21.701,1.432,0.943,18.321,2.646,,VVV*3D
$GPLLK,125942.00,010125,,M,,M,1,20,1.5,,M*04
$GNGMP,125942.00,,,,,DAAA,20,0.7,,,,*5A
$GPGMP,125942.00,,,,,,05,,,,3.4,123*76
$GLGMP,125942.00,,,,,,05,,,,,*73
$GAGMP,125942.00,,,,,,05,,,,,*7E
$GBGMP,125942.00,,,,,,05,,,,,*7D
$PSSN,SNC,[0,306000000,2347]*41
$GPZDA,125947.00,01,01,2025,,*6F
$GPDTM,W84,,00.0000000,N,00.0000000,E,00.0000000,W84*5F
$GPRMC,125947.00,A,4742.4459674,N,01617.9730209,E,0.0,,010125,5.1,E,D*1A
$GPGLL,4742.4459674,N,01617.9730209,E,125947.00,A,D*6B
$GPGGA,125947.00,4742.4459674,N,01617.9730209,E,2,18,0.7,625.6465,M,43.2111,M,1.5,0123*48
$GNGNS,125947.00,4742.4459674,N,01617.9730209,E,DAAA,18,0.7,625.6465,43.2111,,*50
$GPGNS,125947.00,,,,,,04,,,,1.5,123*71
$GLGNS,125947.00,,,,,,05,,,,,*76
$GAGNS,125947.00,,,,,,05,,,,,*7B
$GBGNS,125947.00,,,,,,04,,,,,*79
$GPLLQ,125947.00,010125,,M,,M,1,18,4.196,,M*1E
$GPVTG,,T,,M,0.01,N,0.02,K,D*25
$GPHDT,,T*1B
$GPTHS,,V*0E
$GPROT,,V*08
$PSSN,HRP,125947.00,010125,,,,,,,00,0,,*6D
$PTNL,AVR,125947.00,,Yaw,,Tilt,,,,0,,00*3B
$GPGSA,A,3,12,19,24,25,,,,,,,,,1.4,0.7,1.2*39
$GPGSA,A,3,68,69,77,78,87,,,,,,,,1.4,0.7,1.2*32
$GPGSA,A,3,02,07,08,29,30,,,,,,,,1.4,0.7,1.2*36
$GPGSA,A,3,10,24,26,44,,,,,,,,,1.4,0.7,1.2*30
$GPGST,125947.00,4.642,1.732,1.286,14.434,1.708,1.318,3.599*60
$GPGBS,125947.00,6.626,5.615,14.823,19,0.0001,4.270,1.392*6D
$GPGRS,125947.00,1,-0.1,4.3,-0.5,-1.0,,,,,,,,*6D
$GPGRS,125947.00,1,0.7,2.2,-8.2,-7.3,5.0,,,,,,,*60
$GPGRS,125947.00,1,-2.1,-3.9,-3.2,-2.6,-1.4,,,,,,,*48
$GPGRS,125947.00,1,-2.0,-1.1,-3.7,2.9,,,,,,,,*62
$GPGSV,4,1,14,12,81,343,48,06,27,077,35,29,12,208,26,11,22,118,30*73
$GPGSV,4,2,14,19,27,048,36,32,31,301,28,25,44,273,38,24,55,150,43*7A
$GPGSV,4,3,14,17,01,040,,28,03,310,28,36,35,170,35,34,31,208,35*73
$GPGSV,4,4,14,49,34,195,36,61,03,257,*7A
$GLGSV,3,1,10,77,57,065,46,69,21,330,44,67,14,226,,88,19,163,30*64
$GLGSV,3,2,10,76,16,092,28,86,29,037,34,68,32,275,40,78,46,306,42*61
$GLGSV,3,3,10,87,50,098,38,79,00,286,*66
$GAGSV,3,1,10,30,76,294,45,11,12,029,,34,16,131,,08,19,191,37*61
$GAGSV,3,2,10,27,24,264,30,36,27,078,35,29,26,311,44,07,45,246,35*6D
$GAGSV,3,3,10,02,44,070,48,18,61,097,*60
$GBGSV,5,1,20,24,85,015,51,41,18,294,34,43,10,242,,05,20,130,*65
$GBGSV,5,2,20,34,14,186,32,07,12,055,,33,13,245,30,12,34,164,35*65
$GBGSV,5,3,20,25,28,292,,11,21,220,,26,36,105,41,10,25,058,35*65
$GBGSV,5,4,20,56,32,052,,44,50,137,41,35,41,065,31,14,04,222,*69
$GBGSV,5,5,20,02,04,109,,40,06,044,,32,03,343,31,60,08,111,*6E
$GPGGA,125947.00,,,,,0,00,,,M,,M,,*44
$PTNL,GGK,125947.00,010125,4742.4459674,N,01617.9730209,E,1,18,1.4,EHT668.8576,M*45
$GPGGQ,125947.00,010125,4742.4459674,N,01617.9730209,E,1,18,4.196,625.6465,M*30
$GPGFA,125947.00,16.466,29.511,1.732,1.286,14.434,3.599,,VVV*38
$GPLLK,125947.00,010125,,M,,M,1,18,1.6,,M*09
$GNGMP,125947.00,,,,,DAAA,18,0.7,,,,*54
$GPGMP,125947.00,,,,,,04,,,,1.5,123*71
$GLGMP,125947.00,,,,,,05,,,,,*76
$GAGMP,125947.00,,,,,,05,,,,,*7B
$GBGMP,125947.00,,,,,,04,,,,,*79
$PSSN,SNC,[0,306005000,2347]*44
$GPZDA,125952.00,01,01,2025,,*6B
$GPDTM,W84,,00.0000000,N,00.0000000,E,00.0000000,W84*5F
$GPRMC,125952.00,A,4742.4459584,N,01617.9730092,E,0.0,,010125,5.1,E,D*12
$GPGLL,4742.4459584,N,01617.9730092,E,125952.00,A,D*63
$GPGGA,125952.00,4742.4459584,N,01617.9730092,E,2,20,0.7,625.6544,M,43.2111,M,2.7,0123*48
$GNGNS,125952.00,4742.4459584,N,01617.9730092,E,DAAA,20,0.7,625.6544,43.2111,,*51
$GPGNS,125952.00,,,,,,03,,,,2.7,123*73
$GLGNS,125952.00,,,,,,05,,,,,*72
$GAGNS,125952.00,,,,,,05,,,,,*7F
$GBGNS,125952.00,,,,,,07,,,,,*7E
$GPLLQ,125952.00,010125,,M,,M,1,20,6.949,,M*19
$GPVTG,,T,,M,0.01,N,0.02,K,D*25
$GPHDT,,T*1B
$GPTHS,,V*0E
$GPROT,,V*08
$PSSN,HRP,125952.00,010125,,,,,,,00,0,,*69
$PTNL,AVR,125952.00,,Yaw,,Tilt,,,,0,,00*3F
$GPGSA,A,3,12,24,25,,,,,,,,,,1.3,0.7,1.1*35
$GPGSA,A,3,68,69,77,78,87,,,,,,,,1.3,0.7,1.1*36
$GPGSA,A,3,02,07,08,29,30,,,,,,,,1.3,0.7,1.1*32
$GPGSA,A,3,10,12,24,26,35,41,44,,,,,,1.3,0.7,1.1*34
$GPGST,125952.00,4.908,3.320,0.901,37.804,2.680,2.156,6.037*66
$GPGBS,125952.00,13.926,11.343,32.384,87,0.0001,10.703,6.163*5B
$GPGRS,125952.00,1,0.3,-0.6,0.2,,,,,,,,,*42
$GPGRS,125952.00,1,4.4,2.5,-8.4,-6.5,10.7,,,,,,,*56
$GPGRS,125952.00,1,-1.9,-0.1,-2.2,-2.0,-1.1,,,,,,,*4E
$GPGRS,125952.00,1,-0.9,1.8,-0.7,-3.9,-4.1,2.4,2.1,,,,,*65
$GPGSV,4,1,14,12,81,344,48,06,27,077,34,29,12,208,26,11,22,118,31*74
$GPGSV,4,2,14,19,27,048,34,32,31,301,23,25,44,273,40,24,55,150,44*7B
$GPGSV,4,3,14,17,01,040,,28,03,310,29,36,35,170,34,34,31,208,35*73
$GPGSV,4,4,14,49,34,195,36,61,03,257,*7A
$GLGSV,3,1,10,77,57,065,45,69,21,330,45,67,13,226,28,88,19,163,31*6A
$GLGSV,3,2,10,76,15,092,27,86,29,037,35,68,32,275,43,78,46,306,42*6F
$GLGSV,3,3,10,87,50,098,35,79,00,286,*6B
$GAGSV,3,1,10,30,76,294,45,11,12,029,,34,16,131,,08,19,191,37*61
$GAGSV,3,2,10,27,24,264,32,36,27,078,34,29,26,311,44,07,45,246,39*62
$GAGSV,3,3,10,02,44,070,48,18,61,097,*60
$GBGSV,5,1,20,24,85,016,51,41,18,294,36,43,10,242,,05,20,130,*64
$GBGSV,5,2,20,34,14,186,32,07,12,055,,33,13,245,31,12,34,164,36*67
$GBGSV,5,3,20,25,28,292,,11,21,220,,26,36,105,40,10,25,058,35*64
$GBGSV,5,4,20,56,32,052,,44,50,137,41,35,41,065,36,14,04,222,*6E
$GBGSV,5,5,20,02,04,109,,40,06,044,,32,03,343,30,60,08,111,*6F
$GPGGA,125952.00,,,,,0,00,,,M,,M,,*40
$PTNL,GGK,125952.00,010125,4742.4459584,N,01617.9730092,E,1,20,1.3,EHT668.8655,M*43
$GPGGQ,125952.00,010125,4742.4459584,N,01617.9730092,E,1,20,6.949,625.6544,M*39
$GPGFA,125952.00,31.561,49.506,3.320,0.901,37.804,6.037,,VVV*35
$GPLLK,125952.00,010125,,M,,M,1,20,1.5,,M*05
$GNGMP,125952.00,,,,,DAAA,20,0.7,,,,*5B
$GPGMP,125952.00,,,,,,03,,,,2.7,123*73
$GLGMP,125952.00,,,,,,05,,,,,*72
$GAGMP,125952.00,,,,,,05,,,,,*7F
$GBGMP,125952.00,,,,,,07,,,,,*7E
$PSSN,SNC,[0,306010000,2347]*40
$GPZDA,125957.00,01,01,2025,,*6E
$GPDTM,W84,,00.0000000,N,00.0000000,E,00.0000000,W84*5F
$GPRMC,125957.00,A,4742.4459541,N,01617.9730183,E,0.0,,010125,5.1,E,D*1F
$GPGLL,4742.4459541,N,01617.9730183,E,125957.00,A,D*6E
$GPGGA,125957.00,4742.4459541,N,01617.9730183,E,2,18,0.7,625.6504,M,43.2111,M,2.3,0123*4E
$GNGNS,125957.00,4742.4459541,N,01617.9730183,E,DAAA,18,0.7,625.6504,43.2111,,*53
$GPGNS,125957.00,,,,,,03,,,,2.3,123*72
$GLGNS,125957.00,,,,,,04,,,,,*76
$GAGNS,125957.00,,,,,,05,,,,,*7A
$GBGNS,125957.00,,,,,,06,,,,,*7A
$GPLLQ,125957.00,010125,,M,,M,1,18,7.217,,M*16
$GPVTG,,T,,M,0.01,N,0.02,K,D*25
$GPHDT,,T*1B
$GPTHS,,V*0E
$GPROT,,V*08
$PSSN,HRP,125957.00,010125,,,,,,,00,0,,*6C
$PTNL,AVR,125957.00,,Yaw,,Tilt,,,,0,,00*3A
$GPGSA,A,3,12,24,25,,,,,,,,,,1.4,0.7,1.2*31
$GPGSA,A,3,68,69,77,78,,,,,,,,,1.4,0.7,1.2*3D
$GPGSA,A,3,02,07,08,29,30,,,,,,,,1.4,0.7,1.2*36
$GPGSA,A,3,10,12,24,26,35,44,,,,,,,1.4,0.7,1.2*35
$GPGST,125957.00,4.910,3.425,0.966,37.725,2.773,2.231,6.279*62
$GPGBS,125957.00,14.017,11.348,32.691,68,0.0001,9.771,6.247*61
$GPGRS,125957.00,1,0.2,-0.9,1.0,,,,,,,,,*4A
$GPGRS,125957.00,1,9.8,4.2,-8.5,-5.8,,,,,,,,*44
$GPGRS,125957.00,1,-2.0,0.8,-1.7,-1.9,-0.3,,,,,,,*6A
$GPGRS,125957.00,1,0.6,3.2,-0.5,-4.6,0.4,-0.0,,,,,,*6A
$GPGSV,4,1,14,12,81,344,48,06,27,077,35,29,12,208,26,11,22,118,31*75
$GPGSV,4,2,14,19,27,048,32,32,31,301,34,25,44,273,41,24,55,150,45*7B
$GPGSV,4,3,14,17,01,040,,28,03,310,29,36,35,170,34,34,31,208,35*73
$GPGSV,4,4,14,49,34,195,36,61,03,257,*7A
$GLGSV,3,1,10,77,57,065,45,69,21,330,46,67,13,226,30,88,19,163,31*60
$GLGSV,3,2,10,76,15,092,28,86,29,037,30,68,32,275,43,78,46,306,42*65
$GLGSV,3,3,10,87,50,098,31,79,00,286,*6F
$GAGSV,3,1,10,30,76,294,45,11,12,029,,34,16,131,,08,19,191,38*6E
$GAGSV,3,2,10,27,24,264,25,36,27,078,32,29,26,311,43,07,45,246,41*6A
$GAGSV,3,3,10,02,44,070,48,18,61,097,*60
$GBGSV,5,1,20,24,85,016,52,41,18,294,35,43,10,242,,05,20,130,*64
$GBGSV,5,2,20,34,14,186,31,07,12,055,,33,13,245,31,12,34,164,37*65
$GBGSV,5,3,20,25,28,292,,11,21,220,,26,36,105,40,10,25,058,35*64
$GBGSV,5,4,20,56,32,052,,44,50,137,40,35,41,065,40,14,04,222,*6E
$GBGSV,5,5,20,02,04,109,,40,06,044,,32,03,343,,60,08,111,*6C
$GPGGA,125957.00,,,,,0,00,,,M,,M,,*45
$PTNL,GGK,125957.00,010125,4742.4459541,N,01617.9730183,E,1,18,1.4,EHT668.8614,M*47
$GPGGQ,125957.00,010125,4742.4459541,N,01617.9730183,E,1,18,7.217,625.6504,M*3A
$GPGFA,125957.00,32.566,51.488,3.425,0.966,37.725,6.279,,VVV*3D
$GPLLK,125957.00,010125,,M,,M,1,18,1.6,,M*08
$GNGMP,125957.00,,,,,DAAA,18,0.7,,,,*55
$GPGMP,125957.00,,,,,,03,,,,2.3,123*72
$GLGMP,125957.00,,,,,,04,,,,,*76
$GAGMP,125957.00,,,,,,05,,,,,*7A
$GBGMP,125957.00,,,,,,06,,,,,*7A
$PSSN,SNC,[0,306015000,2347]*45
$GPZDA,130002.00,01,01,2025,,*63
$GPDTM,W84,,00.0000000,N,00.0000000,E,00.0000000,W84*5F
$GPRMC,130002.00,A,4742.4459512,N,01617.9730261,E,0.0,,010125,5.1,E,D*1B
$GPGLL,4742.4459512,N,01617.9730261,E,130002.00,A,D*6A
$GPGGA,130002.00,4742.4459512,N,01617.9730261,E,2,18,0.7,625.6636,M,43.2111,M,3.3,0123*49
$GNGNS,130002.00,4742.4459512,N,01617.9730261,E,DAAA,18,0.7,625.6636,43.2111,,*55
$GPGNS,130002.00,,,,,,03,,,,3.3,123*7E
$GLGNS,130002.00,,,,,,04,,,,,*7B
$GAGNS,130002.00,,,,,,05,,,,,*77
$GBGNS,130002.00,,,,,,06,,,,,*77
$GPLLQ,130002.00,010125,,M,,M,1,18,6.658,,M*15
$GPVTG,,T,,M,0.01,N,0.01,K,D*26
$GPHDT,,T*1B
$GPTHS,,V*0E
$GPROT,,V*08
$PSSN,HRP,130002.00,010125,,,,,,,00,0,,*61
$PTNL,AVR,130002.00,,Yaw,,Tilt,,,,0,,00*37
$GPGSA,A,3,12,24,25,,,,,,,,,,1.4,0.7,1.2*31
$GPGSA,A,3,68,69,77,78,,,,,,,,,1.4,0.7,1.2*3D
$GPGSA,A,3,02,07,08,29,30,,,,,,,,1.4,0.7,1.2*36
$GPGSA,A,3,10,12,24,26,35,44,,,,,,,1.4,0.7,1.2*35
$GPGST,130002.00,4.962,3.165,0.885,37.574,2.566,2.053,5.791*61
$GPGBS,130002.00,14.016,11.344,32.769,68,0.0001,8.976,6.247*6F
$GPGRS,130002.00,1,0.4,-0.5,-0.3,,,,,,,,,*62
$GPGRS,130002.00,1,9.0,7.4,-7.7,-5.2,,,,,,,,*43
$GPGRS,130002.00,1,-2.1,1.4,-1.4,-1.8,0.3,,,,,,,*44
$GPGRS,130002.00,1,0.9,2.1,0.0,-4.7,2.8,-0.6,,,,,,*4B
$GPGSV,4,1,14,12,81,344,48,06,27,077,35,29,12,208,28,11,22,118,31*7B
$GPGSV,4,2,14,19,27,048,27,32,31,300,30,25,44,273,40,24,55,150,46*78
$GPGSV,4,3,14,17,01,040,,28,03,310,28,36,35,170,34,34,31,208,35*72
$GPGSV,4,4,14,49,34,195,36,61,03,257,*7A
$GLGSV,3,1,10,77,57,065,45,69,21,330,45,67,13,226,32,88,19,163,35*65
$GLGSV,3,2,10,76,15,092,,86,29,037,31,68,32,275,43,78,46,306,44*68
$GLGSV,3,3,10,87,50,097,,79,00,286,*62
$GAGSV,3,1,10,30,76,294,45,11,12,029,,34,16,131,,08,19,191,39*6F
$GAGSV,3,2,10,27,24,264,29,36,27,078,30,29,26,311,43,07,45,246,43*66
$GAGSV,3,3,10,02,44,070,47,18,61,096,*6E
$GBGSV,5,1,20,24,85,016,52,41,18,294,32,43,10,242,,05,20,130,*63
$GBGSV,5,2,20,34,14,186,31,07,12,055,22,33,13,245,31,12,34,164,38*6A
$GBGSV,5,3,20,25,28,292,,11,21,220,,26,36,105,40,10,25,058,35*64
$GBGSV,5,4,20,56,32,052,,44,50,137,40,35,41,065,43,14,04,222,*6D
$GBGSV,5,5,20,02,04,109,,40,06,044,,32,03,343,29,60,08,111,*67
$GPGGA,130002.00,,,,,0,00,,,M,,M,,*48
$PTNL,GGK,130002.00,010125,4742.4459512,N,01617.9730261,E,1,18,1.4,EHT668.8746,M*45
$GPGGQ,130002.00,010125,4742.4459512,N,01617.9730261,E,1,18,6.658,625.6636,M*32
$GPGFA,130002.00,30.089,47.485,3.165,0.885,37.574,5.791,,VVV*37
$GPLLK,130002.00,010125,,M,,M,1,18,1.6,,M*05
$GNGMP,130002.00,,,,,DAAA,18,0.7,,,,*58
$GPGMP,130002.00,,,,,,03,,,,3.3,123*7E
$GLGMP,130002.00,,,,,,04,,,,,*7B
$GAGMP,130002.00,,,,,,05,,,,,*77
$GBGMP,130002.00,,,,,,06,,,,,*77
$PSSN,SNC,[0,306020000,2347]*43
$GPZDA,130007.00,01,01,2025,,*66
$GPDTM,W84,,00.0000000,N,00.0000000,E,00.0000000,W84*5F
$GPRMC,130007.00,A,4742.4459482,N,01617.9730208,E,0.0,,010125,5.1,E,D*19
$GPGLL,4742.4459482,N,01617.9730208,E,130007.00,A,D*68
$GPGGA,130007.00,4742.4459482,N,01617.9730208,E,2,18,0.7,625.6565,M,43.2111,M,1.7,0123*48
$GNGNS,130007.00,4742.4459482,N,01617.9730208,E,DAAA,18,0.7,625.6565,43.2111,,*52
$GPGNS,130007.00,,,,,,03,,,,1.7,123*7D
$GLGNS,130007.00,,,,,,05,,,,,*7F
$GAGNS,130007.00,,,,,,05,,,,,*72
$GBGNS,130007.00,,,,,,05,,,,,*71
$GPLLQ,130007.00,010125,,M,,M,1,18,9.536,,M*14
$GPVTG,,T,,M,0.01,N,0.02,K,D*25
$GPHDT,,T*1B
$GPTHS,,V*0E
$GPROT,,V*08
$PSSN,HRP,130007.00,010125,,,,,,,00,0,,*64
$PTNL,AVR,130007.00,,Yaw,,Tilt,,,,0,,00*32
$GPGSA,A,3,12,24,25,,,,,,,,,,1.4,0.7,1.2*31
$GPGSA,A,3,68,69,77,78,88,,,,,,,,1.4,0.7,1.2*3D
$GPGSA,A,3,02,07,08,29,30,,,,,,,,1.4,0.7,1.2*36
$GPGSA,A,3,12,24,26,35,44,,,,,,,,1.4,0.7,1.2*34
$GPGST,130007.00,5.810,4.531,1.169,37.756,3.653,2.924,8.309*6E
$GPGBS,130007.00,17.525,12.989,40.898,88,0.0001,15.904,6.341*50
$GPGRS,130007.00,1,1.1,-0.5,-1.4,,,,,,,,,*65
$GPGRS,130007.00,1,3.1,3.6,-7.3,-3.3,15.9,,,,,,,*5B
$GPGRS,130007.00,1,-2.0,1.2,-1.4,-1.8,0.6,,,,,,,*43
$GPGRS,130007.00,1,-0.9,0.4,-3.1,2.6,0.2,,,,,,,*6C
$GPGSV,4,1,14,12,81,344,48,06,27,077,35,29,12,208,30,11,22,117,30*7C
$GPGSV,4,2,14,19,27,048,,32,31,300,27,25,44,273,39,24,54,150,46*74
$GPGSV,4,3,14,17,01,040,,28,03,310,27,36,35,170,35,34,31,208,35*7C
$GPGSV,4,4,14,49,34,195,36,61,03,257,*7A
$GLGSV,3,1,10,77,57,065,45,69,21,330,42,67,13,226,31,88,19,163,37*63
$GLGSV,3,2,10,76,15,092,24,86,29,037,33,68,32,275,44,78,46,306,47*68
$GLGSV,3,3,10,87,50,097,,79,00,286,*62
$GAGSV,3,1,10,30,76,294,45,11,12,029,,34,16,131,,08,19,191,39*6F
$GAGSV,3,2,10,27,24,264,36,36,27,077,31,29,26,311,42,07,45,246,44*60
$GAGSV,3,3,10,02,44,070,46,18,61,096,*6F
$GBGSV,5,1,20,24,85,017,52,41,18,294,26,43,10,242,,05,20,130,*67
$GBGSV,5,2,20,34,14,186,30,07,12,055,21,33,13,245,30,12,34,164,38*69
$GBGSV,5,3,20,25,28,293,,11,21,220,,26,36,105,40,10,25,058,35*65
$GBGSV,5,4,20,56,32,052,,44,50,137,41,35,41,065,45,14,04,222,*6A
$GBGSV,5,5,20,02,04,109,,40,06,044,,32,03,343,30,60,08,111,*6F
$GPGGA,130007.00,,,,,0,00,,,M,,M,,*4D
$PTNL,GGK,130007.00,010125,4742.4459482,N,01617.9730208,E,1,18,1.4,EHT668.8676,M*45
$GPGGQ,130007.00,010125,4742.4459482,N,01617.9730208,E,1,18,9.536,625.6565,M*31
$GPGFA,130007.00,43.080,68.135,4.531,1.169,37.756,8.309,,VVV*3E
$GPLLK,130007.00,010125,,M,,M,1,18,1.6,,M*00
$GNGMP,130007.00,,,,,DAAA,18,0.7,,,,*5D
$GPGMP,130007.00,,,,,,03,,,,1.7,123*7D
$GLGMP,130007.00,,,,,,05,,,,,*7F
$GAGMP,130007.00,,,,,,05,,,,,*72
$GBGMP,130007.00,,,,,,05,,,,,*71
$PSSN,SNC,[0,306025000,2347]*46
$GPZDA,130012.00,01,01,2025,,*62
$GPDTM,W84,,00.0000000,N,00.0000000,E,00.0000000,W84*5F
$GPRMC,130012.00,A,4742.4459449,N,01617.9730146,E,0.0,,010125,5.1,E,D*13
$GPGLL,4742.4459449,N,01617.9730146,E,130012.00,A,D*62
$GPGGA,130012.00,4742.4459449,N,01617.9730146,E,2,20,0.6,625.6461,M,43.2111,M,2.7,0123*4E
$GNGNS,130012.00,4742.4459449,N,01617.9730146,E,DAAA,20,0.6,625.6461,43.2111,,*57
$GPGNS,130012.00,,,,,,03,,,,2.7,123*7A
$GLGNS,130012.00,,,,,,06,,,,,*78
$GAGNS,130012.00,,,,,,05,,,,,*76
$GBGNS,130012.00,,,,,,06,,,,,*76
$GPLLQ,130012.00,010125,,M,,M,1,20,9.468,,M*11
$GPVTG,,T,,M,0.01,N,0.02,K,D*25
$GPHDT,,T*1B
$GPTHS,,V*0E
$GPROT,,V*08
$PSSN,HRP,130012.00,010125,,,,,,,00,0,,*60
$PTNL,AVR,130012.00,,Yaw,,Tilt,,,,0,,00*36
$GPGSA,A,3,12,24,25,,,,,,,,,,1.2,0.6,1.1*35
$GPGSA,A,3,68,69,77,78,86,88,,,,,,,1.2,0.6,1.1*37
$GPGSA,A,3,02,07,08,29,30,,,,,,,,1.2,0.6,1.1*32
$GPGSA,A,3,12,24,26,35,41,44,,,,,,,1.2,0.6,1.1*35
$GPGST,130012.00,6.080,4.427,1.243,37.853,3.578,2.888,8.277*6A
$GPGBS,130012.00,16.241,12.947,37.365,88,0.0001,17.695,6.342*5D
$GPGRS,130012.00,1,1.5,-0.9,-0.9,,,,,,,,,*65
$GPGRS,130012.00,1,4.1,-3.2,-8.9,-3.6,-1.0,17.7,,,,,,*7F
$GPGRS,130012.00,1,-1.6,1.0,-1.5,-1.2,0.6,,,,,,,*4B
$GPGRS,130012.00,1,-3.2,0.2,-4.1,1.7,-2.1,0.7,,,,,,*66
$GPGSV,4,1,14,12,81,344,48,06,27,077,35,29,12,208,32,11,22,117,31*7F
$GPGSV,4,2,14,19,27,048,,32,31,300,29,25,44,273,39,24,54,150,46*7A
$GPGSV,4,3,14,17,01,040,,28,03,310,30,36,35,170,35,34,31,208,35*7A
$GPGSV,4,4,14,49,34,195,36,61,03,257,*7A
$GLGSV,3,1,10,77,57,065,44,69,21,330,40,67,13,226,28,88,19,163,37*68
$GLGSV,3,2,10,76,15,092,22,86,29,037,35,68,32,275,46,78,46,306,46*6B
$GLGSV,3,3,10,87,50,097,,79,00,286,*62
$GAGSV,3,1,10,30,76,294,45,11,12,029,,34,16,131,,08,19,191,40*61
$GAGSV,3,2,10,27,24,264,36,36,27,077,32,29,26,311,42,07,45,246,44*63
$GAGSV,3,3,10,02,44,070,45,18,61,096,*6C
$GBGSV,5,1,20,24,85,017,52,41,18,294,36,43,10,242,,05,20,130,*66
$GBGSV,5,2,20,34,14,186,29,07,12,055,21,33,13,245,28,12,34,164,38*68
$GBGSV,5,3,20,25,28,293,,11,21,220,,26,36,105,38,10,25,058,35*6A
$GBGSV,5,4,20,56,32,052,,44,50,137,41,35,41,065,46,14,04,222,*69
$GBGSV,5,5,20,02,04,109,,40,06,044,,32,03,343,31,60,08,111,*6E
$GPGGA,130012.00,,,,,0,00,,,M,,M,,*49
$PTNL,GGK,130012.00,010125,4742.4459449,N,01617.9730146,E,1,20,1.2,EHT668.8572,M*45
$GPGGQ,130012.00,010125,4742.4459449,N,01617.9730146,E,1,20,9.468,625.6461,M*3F
$GPGFA,130012.00,42.090,67.867,4.427,1.243,37.853,8.277,,VVV*34
$GPLLK,130012.00,010125,,M,,M,1,20,1.4,,M*0D
$GNGMP,130012.00,,,,,DAAA,20,0.6,,,,*53
$GPGMP,130012.00,,,,,,03,,,,2.7,123*7A
$GLGMP,130012.00,,,,,,06,,,,,*78
$GAGMP,130012.00,,,,,,05,,,,,*76
$GBGMP,130012.00,,,,,,06,,,,,*76
$PSSN,SNC,[0,306030000,2347]*42
$GPZDA,130017.00,01,01,2025,,*67
$GPDTM,W84,,00.0000000,N,00.0000000,E,00.0000000,W84*5F
$GPRMC,130017.00,A,4742.4459395,N,01617.9730161,E,0.0,,010125,5.1,E,D*15
$GPGLL,4742.4459395,N,01617.9730161,E,130017.00,A,D*64
$GPGGA,130017.00,4742.4459395,N,01617.9730161,E,2,21,0.6,625.6287,M,43.2111,M,2.3,0123*43
$GNGNS,130017.00,4742.4459395,N,01617.9730161,E,DAAA,21,0.6,625.6287,43.2111,,*5E
$GPGNS,130017.00,,,,,,03,,,,2.3,123*7B
$GLGNS,130017.00,,,,,,07,,,,,*7C
$GAGNS,130017.00,,,,,,05,,,,,*73
$GBGNS,130017.00,,,,,,06,,,,,*73
$GPLLQ,130017.00,010125,,M,,M,1,21,9.426,,M*1F
$GPVTG,,T,,M,0.00,N,0.01,K,D*27
$GPHDT,,T*1B
$GPTHS,,V*0E
$GPROT,,V*08
$PSSN,HRP,130017.00,010125,,,,,,,00,0,,*65
$PTNL,AVR,130017.00,,Yaw,,Tilt,,,,0,,00*33
$GPGSA,A,3,12,24,25,,,,,,,,,,1.2,0.6,1.1*35
$GPGSA,A,3,68,69,77,78,86,87,88,,,,,,1.2,0.6,1.1*38
$GPGSA,A,3,02,07,08,29,30,,,,,,,,1.2,0.6,1.1*32
$GPGSA,A,3,12,24,26,35,41,44,,,,,,,1.2,0.6,1.1*35
$GPGST,130017.00,6.591,4.409,1.261,37.933,3.563,2.887,8.236*61
$GPGBS,130017.00,16.564,13.252,38.197,88,0.0001,17.353,6.341*5A
$GPGRS,130017.00,1,1.1,-1.1,-0.5,,,,,,,,,*61
$GPGRS,130017.00,1,10.0,-2.9,-9.3,-5.4,-1.6,-5.3,17.4,,,,,*4B
$GPGRS,130017.00,1,-1.3,1.3,-1.7,-0.6,0.6,,,,,,,*4F
$GPGRS,130017.00,1,-3.2,-0.8,-5.3,1.3,-1.6,0.5,,,,,,*45
$GPGSV,4,1,14,12,81,345,47,06,27,077,36,29,12,208,34,11,22,117,31*74
$GPGSV,4,2,14,19,27,048,32,32,31,300,28,25,44,273,38,24,54,150,45*78
$GPGSV,4,3,14,17,01,040,,28,03,310,31,36,35,170,35,34,31,208,35*7B
$GPGSV,4,4,14,49,34,195,36,61,03,257,*7A
$GLGSV,3,1,10,77,57,065,44,69,21,330,42,67,13,226,28,88,19,163,37*6A
$GLGSV,3,2,10,76,15,092,23,86,29,037,36,68,32,275,47,78,46,306,45*6B
$GLGSV,3,3,10,87,50,097,43,79,00,286,*65
$GAGSV,3,1,10,30,76,294,45,11,12,029,,34,16,131,34,08,19,191,40*66
$GAGSV,3,2,10,27,25,264,30,36,27,077,32,29,26,311,42,07,45,246,44*64
$GAGSV,3,3,10,02,44,070,44,18,61,096,*6D
$GBGSV,5,1,20,24,85,018,52,41,18,294,22,43,10,241,,05,20,130,*6F
$GBGSV,5,2,20,34,14,186,27,07,12,055,21,33,13,245,26,12,34,164,38*68
$GBGSV,5,3,20,25,28,293,,11,21,220,,26,36,105,37,10,25,058,35*65
$GBGSV,5,4,20,56,32,052,,44,50,137,41,35,41,065,46,14,04,222,*69
$GBGSV,5,5,20,02,04,109,,40,06,044,,32,03,343,31,60,08,111,*6E
$GPGGA,130017.00,,,,,0,00,,,M,,M,,*4C
$PTNL,GGK,130017.00,010125,4742.4459395,N,01617.9730161,E,1,21,1.2,EHT668.8397,M*4F
$GPGGQ,130017.00,010125,4742.4459395,N,01617.9730161,E,1,21,9.426,625.6287,M*3C
$GPGFA,130017.00,41.923,67.532,4.409,1.261,37.933,8.236,,VVV*30
$GPLLK,130017.00,010125,,M,,M,1,21,1.4,,M*09
$GNGMP,130017.00,,,,,DAAA,21,0.6,,,,*57
$GPGMP,130017.00,,,,,,03,,,,2.3,123*7B
$GLGMP,130017.00,,,,,,07,,,,,*7C
$GAGMP,130017.00,,,,,,05,,,,,*73
$GBGMP,130017.00,,,,,,06,,,,,*73
$PSSN,SNC,[0,306035000,2347]*47
$GPZDA,130022.00,01,01,2025,,*61
$GPDTM,W84,,00.0000000,N,00.0000000,E,00.0000000,W84*5F
$GPRMC,130022.00,A,4742.4459362,N,01617.9730196,E,0.0,,010125,5.1,E,D*13
$GPGLL,4742.4459362,N,01617.9730196,E,130022.00,A,D*62
$GPGGA,130022.00,4742.4459362,N,01617.9730196,E,2,20,0.6,625.6173,M,43.2111,M,3.3,0123*4D
$GNGNS,130022.00,4742.4459362,N,01617.9730196,E,DAAA,20,0.6,625.6173,43.2111,,*51
$GPGNS,130022.00,,,,,,03,,,,3.3,123*7C
$GLGNS,130022.00,,,,,,07,,,,,*7A
$GAGNS,130022.00,,,,,,05,,,,,*75
$GBGNS,130022.00,,,,,,05,,,,,*76
$GPLLQ,130022.00,010125,,M,,M,1,20,9.579,,M*13
$GPVTG,,T,,M,0.00,N,0.01,K,D*27
$GPHDT,,T*1B
$GPTHS,,V*0E
$GPROT,,V*08
$PSSN,HRP,130022.00,010125,,,,,,,00,0,,*63
$PTNL,AVR,130022.00,,Yaw,,Tilt,,,,0,,00*35
$GPGSA,A,3,12,24,25,,,,,,,,,,1.3,0.6,1.1*34
$GPGSA,A,3,68,69,77,78,86,87,88,,,,,,1.3,0.6,1.1*39
$GPGSA,A,3,02,07,08,29,30,,,,,,,,1.3,0.6,1.1*33
$GPGSA,A,3,12,24,26,35,44,,,,,,,,1.3,0.6,1.1*31
$GPGST,130022.00,6.313,4.459,1.298,37.750,3.614,2.916,8.378*62
$GPGBS,130022.00,16.850,13.350,39.078,88,0.0001,14.868,6.347*52
$GPGRS,130022.00,1,1.4,-0.9,-0.8,,,,,,,,,*66
$GPGRS,130022.00,1,11.9,0.0,-9.1,-6.0,-1.1,-0.2,14.9,,,,,*6B
$GPGRS,130022.00,1,-1.2,1.5,-2.2,-0.4,0.2,,,,,,,*4E
$GPGRS,130022.00,1,-1.6,-0.8,-4.4,-0.7,-0.6,,,,,,,*41
$GPGSV,4,1,14,12,81,345,46,06,27,077,36,29,12,208,35,11,22,117,31*74
$GPGSV,4,2,14,19,27,048,31,32,31,300,,25,44,273,38,24,54,150,45*71
$GPGSV,4,3,14,17,01,040,,28,03,310,33,36,35,170,35,34,31,208,35*79
$GPGSV,4,4,14,49,34,195,36,61,03,257,*7A
$GLGSV,3,1,10,77,57,065,43,69,21,330,42,67,13,226,27,88,20,163,36*69
$GLGSV,3,2,10,76,15,092,21,86,29,037,39,68,32,275,45,78,46,306,45*64
$GLGSV,3,3,10,87,50,097,44,79,00,286,*62
$GAGSV,3,1,10,30,76,294,44,11,12,029,,34,16,131,34,08,19,191,40*67
$GAGSV,3,2,10,27,25,264,28,36,27,077,28,29,26,311,42,07,45,246,44*66
$GAGSV,3,3,10,02,44,070,44,18,61,096,*6D
$GBGSV,5,1,20,24,85,018,52,41,18,294,27,43,10,241,,05,20,130,*6A
$GBGSV,5,2,20,34,14,186,25,07,12,055,,33,13,245,26,12,34,164,38*69
$GBGSV,5,3,20,25,28,293,,11,21,220,,26,36,105,36,10,25,058,34*65
$GBGSV,5,4,20,56,32,052,,44,50,137,40,35,41,065,44,14,04,222,*6A
$GBGSV,5,5,20,02,04,109,,40,06,044,,32,03,343,31,60,08,111,*6E
$GPGGA,130022.00,,,,,0,00,,,M,,M,,*4A
$PTNL,GGK,130022.00,010125,4742.4459362,N,01617.9730196,E,1,20,1.3,EHT668.8284,M*4A
$GPGGQ,130022.00,010125,4742.4459362,N,01617.9730196,E,1,20,9.579,625.6173,M*38
$GPGFA,130022.00,42.392,68.699,4.459,1.298,37.750,8.378,,VVV*3B
$GPLLK,130022.00,010125,,M,,M,1,20,1.5,,M*0F
$GNGMP,130022.00,,,,,DAAA,20,0.6,,,,*50
$GPGMP,130022.00,,,,,,03,,,,3.3,123*7C
$GLGMP,130022.00,,,,,,07,,,,,*7A
$GAGMP,130022.00,,,,,,05,,,,,*75
$GBGMP,130022.00,,,,,,05,,,,,*76
$PSSN,SNC,[0,306040000,2347]*45
$GPZDA,130027.00,01,01,2025,,*64
$GPDTM,W84,,00.0000000,N,00.0000000,E,00.0000000,W84*5F
$GPRMC,130027.00,A,4742.4459363,N,01617.9730284,E,0.0,,010125,5.1,E,D*17
$GPGLL,4742.4459363,N,01617.9730284,E,130027.00,A,D*66
$GPGGA,130027.00,4742.4459363,N,01617.9730284,E,2,20,0.6,625.6305,M,43.2111,M,2.3,0123*4B
$GNGNS,130027.00,4742.4459363,N,01617.9730284,E,DAAA,20,0.6,625.6305,43.2111,,*56
$GPGNS,130027.00,,,,,,04,,,,2.3,123*7F
$GLGNS,130027.00,,,,,,06,,,,,*7E
$GAGNS,130027.00,,,,,,05,,,,,*70
$GBGNS,130027.00,,,,,,05,,,,,*73
$GPLLQ,130027.00,010125,,M,,M,1,20,5.705,,M*13
$GPVTG,,T,,M,0.00,N,0.01,K,D*27
$GPHDT,,T*1B
$GPTHS,,V*0E
$GPROT,,V*08
$PSSN,HRP,130027.00,010125,,,,,,,00,0,,*66
$PTNL,AVR,130027.00,,Yaw,,Tilt,,,,0,,00*30
$GPGSA,A,3,12,24,25,29,,,,,,,,,1.3,0.6,1.1*3F
$GPGSA,A,3,68,69,77,78,86,87,,,,,,,1.3,0.6,1.1*39
$GPGSA,A,3,02,07,08,29,30,,,,,,,,1.3,0.6,1.1*33
$GPGSA,A,3,12,24,26,35,44,,,,,,,,1.3,0.6,1.1*31
$GPGST,130027.00,3.527,3.155,0.903,36.413,2.595,2.009,4.667*6B
$GPGBS,130027.00,16.233,12.033,28.882,24,0.0001,-1.046,0.697*47
$GPGRS,130027.00,1,0.3,-1.0,1.0,1.9,,,,,,,,*6F
$GPGRS,130027.00,1,4.3,0.3,-8.5,-5.0,-0.9,0.5,,,,,,*64
$GPGRS,130027.00,1,-1.5,0.9,-2.9,-1.0,-0.4,,,,,,,*64
$GPGRS,130027.00,1,-1.3,-1.4,-2.3,-3.8,-1.7,,,,,,,*41
$GPGSV,4,1,14,12,81,345,45,06,27,077,34,29,12,208,36,11,22,117,33*74
$GPGSV,4,2,14,19,27,048,28,32,31,300,34,25,44,273,39,24,54,150,46*7C
$GPGSV,4,3,14,17,01,040,,28,03,310,32,36,35,170,35,34,31,208,35*78
$GPGSV,4,4,14,49,34,195,36,61,03,257,*7A
$GLGSV,3,1,10,77,57,065,44,69,21,330,43,67,13,226,27,88,20,163,33*6A
$GLGSV,3,2,10,76,15,092,19,86,29,037,41,68,32,275,44,78,46,306,46*62
$GLGSV,3,3,10,87,50,097,44,79,00,286,*62
$GAGSV,3,1,10,30,76,294,45,11,12,029,,34,16,131,34,08,19,191,40*66
$GAGSV,3,2,10,27,25,264,27,36,27,077,35,29,26,311,42,07,45,246,44*65
$GAGSV,3,3,10,02,44,070,44,18,61,096,*6D
$GBGSV,5,1,20,24,85,018,52,41,18,294,32,43,10,241,,05,20,130,*6E
$GBGSV,5,2,20,34,14,186,23,07,12,055,,33,13,245,27,12,34,164,38*6E
$GBGSV,5,3,20,25,28,293,,11,21,220,,26,36,105,35,10,25,058,34*66
$GBGSV,5,4,20,56,32,052,,44,50,137,39,35,41,065,43,14,04,222,*63
$GBGSV,5,5,20,02,04,109,,40,06,044,,32,03,343,30,60,08,111,*6F
$GPGGA,130027.00,,,,,0,00,,,M,,M,,*4F
$PTNL,GGK,130027.00,010125,4742.4459363,N,01617.9730284,E,1,20,1.3,EHT668.8416,M*43
$GPGGQ,130027.00,010125,4742.4459363,N,01617.9730284,E,1,20,5.705,625.6305,M*3A
$GPGFA,130027.00,29.993,38.272,3.155,0.903,36.413,4.667,,VVV*38
$GPLLK,130027.00,010125,,M,,M,1,20,1.5,,M*0A
$GNGMP,130027.00,,,,,DAAA,20,0.6,,,,*55
$GPGMP,130027.00,,,,,,04,,,,2.3,123*7F
$GLGMP,130027.00,,,,,,06,,,,,*7E
$GAGMP,130027.00,,,,,,05,,,,,*70
$GBGMP,130027.00,,,,,,05,,,,,*73
$PSSN,SNC,[0,306045000,2347]*40
$GPZDA,130032.00,01,01,2025,,*60
$GPDTM,W84,,00.0000000,N,00.0000000,E,00.0000000,W84*5F
$GPRMC,130032.00,A,4742.4459382,N,01617.9730407,E,0.0,,010125,5.1,E,D*11
$GPGLL,4742.4459382,N,01617.9730407,E,130032.00,A,D*60
$GPGGA,130032.00,4742.4459382,N,01617.9730407,E,2,21,0.6,625.6364,M,43.2111,M,2.3,0123*4B
$GNGNS,130032.00,4742.4459382,N,01617.9730407,E,DAAA,21,0.6,625.6364,43.2111,,*56
$GPGNS,130032.00,,,,,,03,,,,2.3,123*7C
$GLGNS,130032.00,,,,,,06,,,,,*7A
$GAGNS,130032.00,,,,,,06,,,,,*77
$GBGNS,130032.00,,,,,,06,,,,,*74
$GPLLQ,130032.00,010125,,M,,M,1,21,4.408,,M*19
$GPVTG,,T,,M,0.00,N,0.01,K,D*27
$GPHDT,,T*1B
$GPTHS,,V*0E
$GPROT,,V*08
$PSSN,HRP,130032.00,010125,,,,,,,00,0,,*62
$PTNL,AVR,130032.00,,Yaw,,Tilt,,,,0,,00*34
$GPGSA,A,3,12,24,29,,,,,,,,,,1.2,0.6,1.0*38
$GPGSA,A,3,68,69,77,78,86,87,,,,,,,1.2,0.6,1.0*39
$GPGSA,A,3,02,07,08,29,30,36,,,,,,,1.2,0.6,1.0*36
$GPGSA,A,3,12,24,26,35,41,44,,,,,,,1.2,0.6,1.0*34
$GPGST,130032.00,4.400,2.385,1.168,39.677,1.981,1.768,3.518*6C
$GPGBS,130032.00,12.685,10.393,22.549,77,0.0001,-8.194,6.119*43
$GPGRS,130032.00,1,-0.0,-0.5,1.2,,,,,,,,,*65
$GPGRS,130032.00,1,1.6,2.0,-8.2,-2.9,0.8,-1.2,,,,,,*6F
$GPGRS,130032.00,1,-1.2,0.8,-2.9,-1.1,0.6,4.7,,,,,,*65
$GPGRS,130032.00,1,-1.1,-1.2,-1.0,-3.4,11.7,-0.7,,,,,,*55
$GPGSV,4,1,14,12,81,346,44,06,27,077,31,29,12,208,37,11,22,117,33*72
$GPGSV,4,2,14,19,27,048,,32,31,300,29,25,45,273,40,24,54,150,47*74
$GPGSV,4,3,14,17,01,040,,28,03,310,31,36,35,170,35,34,31,208,35*7B
$GPGSV,4,4,14,49,34,195,36,61,03,257,*7A
$GLGSV,3,1,10,77,57,065,43,69,21,330,44,67,13,226,27,88,20,163,29*61
$GLGSV,3,2,10,76,15,092,22,86,29,037,44,68,32,275,44,78,46,306,49*60
$GLGSV,3,3,10,87,50,097,42,79,00,286,*64
$GAGSV,3,1,10,30,76,294,45,11,12,029,,34,16,131,34,08,19,191,39*68
$GAGSV,3,2,10,27,25,264,28,36,27,077,36,29,26,311,42,07,45,246,43*6E
$GAGSV,3,3,10,02,44,070,44,18,61,096,*6D
$GBGSV,5,1,20,24,85,019,52,41,18,294,36,43,10,241,,05,20,130,*6B
$GBGSV,5,2,20,34,14,186,24,07,12,055,21,33,13,245,29,12,34,164,37*6B
$GBGSV,5,3,20,25,28,293,,11,21,220,,26,36,105,36,10,25,058,33*62
$GBGSV,5,4,20,56,32,052,,44,50,137,40,35,41,064,42,14,04,222,*6D
$GBGSV,5,5,20,02,04,109,,40,06,044,,32,03,343,30,60,08,111,*6F
$GPGGA,130032.00,,,,,0,00,,,M,,M,,*4B
$PTNL,GGK,130032.00,010125,4742.4459382,N,01617.9730407,E,1,21,1.2,EHT668.8475,M*40
$GPGGQ,130032.00,010125,4742.4459382,N,01617.9730407,E,1,21,4.408,625.6364,M*35
$GPGFA,130032.00,22.677,28.845,2.385,1.168,39.677,3.518,,VVV*34
$GPLLK,130032.00,010125,,M,,M,1,21,1.4,,M*0E
$GNGMP,130032.00,,,,,DAAA,21,0.6,,,,*50
$GPGMP,130032.00,,,,,,03,,,,2.3,123*7C
$GLGMP,130032.00,,,,,,06,,,,,*7A
$GAGMP,130032.00,,,,,,06,,,,,*77
$GBGMP,130032.00,,,,,,06,,,,,*74
$PSSN,SNC,[0,306050000,2347]*44
$GPZDA,130037.00,01,01,2025,,*65
$GPDTM,W84,,00.0000000,N,00.0000000,E,00.0000000,W84*5F
$GPRMC,130037.00,A,4742.4459411,N,01617.9730472,E,0.0,,010125,5.1,E,D*1B
$GPGLL,4742.4459411,N,01617.9730472,E,130037.00,A,D*6A
$GPGGA,130037.00,4742.4459411,N,01617.9730472,E,2,22,0.6,625.6471,M,43.2111,M,2.0,0123*42
$GNGNS,130037.00,4742.4459411,N,01617.9730472,E,DAAA,22,0.6,625.6471,43.2111,,*5C
$GPGNS,130037.00,,,,,,04,,,,2.0,123*7D
$GLGNS,130037.00,,,,,,06,,,,,*7F
$GAGNS,130037.00,,,,,,06,,,,,*72
$GBGNS,130037.00,,,,,,06,,,,,*71
$GPLLQ,130037.00,010125,,M,,M,1,22,3.979,,M*13
$GPVTG,,T,,M,0.01,N,0.02,K,D*25
$GPHDT,,T*1B
$GPTHS,,V*0E
$GPROT,,V*08
$PSSN,HRP,130037.00,010125,,,,,,,00,0,,*67
$PTNL,AVR,130037.00,,Yaw,,Tilt,,,,0,,00*31
$GPGSA,A,3,12,24,29,32,,,,,,,,,1.2,0.6,1.0*39
$GPGSA,A,3,68,69,77,78,86,87,,,,,,,1.2,0.6,1.0*39
$GPGSA,A,3,02,07,08,29,30,36,,,,,,,1.2,0.6,1.0*36
$GPGSA,A,3,12,24,26,35,41,44,,,,,,,1.2,0.6,1.0*34
$GPGST,130037.00,5.247,2.419,0.780,54.194,1.550,2.014,3.062*68
$GPGBS,130037.00,7.107,9.891,14.241,41,0.0001,15.156,9.040*5C
$GPGRS,130037.00,1,-0.2,-0.0,1.2,-0.8,,,,,,,,*6C
$GPGRS,130037.00,1,4.5,1.9,-8.7,-1.8,3.5,-2.9,,,,,,*67
$GPGRS,130037.00,1,-0.7,1.1,-2.3,-0.8,1.2,6.5,,,,,,*6B
$GPGRS,130037.00,1,-1.8,-1.0,1.3,-0.4,15.2,0.6,,,,,,*5B
$GPGSV,4,1,14,12,81,346,43,06,28,077,21,29,13,208,37,11,22,117,33*7A
$GPGSV,4,2,14,19,27,048,,32,31,300,38,25,45,273,40,24,54,150,48*7B
$GPGSV,4,3,14,17,00,040,,28,03,310,30,36,35,170,35,34,31,208,35*7B
$GPGSV,4,4,14,49,34,195,36,61,03,257,*7A
$GLGSV,3,1,10,77,57,065,41,88,20,163,30,76,15,092,21,69,21,330,43*61
$GLGSV,3,2,10,67,13,226,29,86,29,037,45,68,32,275,44,78,46,307,50*68
$GLGSV,3,3,10,87,50,097,42,79,00,286,*64
$GAGSV,3,1,10,30,76,295,45,11,12,029,,34,17,131,33,08,19,191,39*6F
$GAGSV,3,2,10,27,25,264,30,36,27,077,36,29,26,311,43,07,45,246,43*66
$GAGSV,3,3,10,02,44,070,44,18,61,096,*6D
$GBGSV,5,1,20,24,85,019,51,41,18,294,37,43,10,241,,05,20,130,*69
$GBGSV,5,2,20,34,14,186,26,07,12,055,22,33,13,245,30,12,34,164,35*60
$GBGSV,5,3,20,25,28,293,,11,21,220,,26,36,105,37,10,25,058,33*63
$GBGSV,5,4,20,56,32,052,,44,50,137,41,35,41,064,41,14,04,222,*6F
$GBGSV,5,5,20,02,04,109,,40,06,044,,32,04,343,29,60,08,111,*60
$GPGGA,130037.00,,,,,0,00,,,M,,M,,*4E
$PTNL,GGK,130037.00,010125,4742.4459411,N,01617.9730472,E,1,22,1.2,EHT668.8582,M*40
$GPGGQ,130037.00,010125,4742.4459411,N,01617.9730472,E,1,22,3.979,625.6471,M*33
$GPGFA,130037.00,22.998,25.108,2.419,0.780,54.194,3.062,,VVV*38
$GPLLK,130037.00,010125,,M,,M,1,22,1.4,,M*08
$GNGMP,130037.00,,,,,DAAA,22,0.6,,,,*56
$GPGMP,130037.00,,,,,,04,,,,2.0,123*7D
$GLGMP,130037.00,,,,,,06,,,,,*7F
$GAGMP,130037.00,,,,,,06,,,,,*72
$GBGMP,130037.00,,,,,,06,,,,,*71
$PSSN,SNC,[0,306055000,2347]*41
$GPZDA,130042.00,01,01,2025,,*67
$GPDTM,W84,,00.0000000,N,00.0000000,E,00.0000000,W84*5F
$GPRMC,130042.00,A,4742.4459453,N,01617.9730518,E,0.0,,010125,5.1,E,D*12
$GPGLL,4742.4459453,N,01617.9730518,E,130042.00,A,D*63
$GPGGA,130042.00,4742.4459453,N,01617.9730518,E,2,22,0.6,625.6614,M,43.2111,M,3.2,0123*49
$GNGNS,130042.00,4742.4459453,N,01617.9730518,E,DAAA,22,0.6,625.6614,43.2111,,*54
$GPGNS,130042.00,,,,,,05,,,,3.2,123*7D
$GLGNS,130042.00,,,,,,06,,,,,*7D
$GAGNS,130042.00,,,,,,06,,,,,*70
$GBGNS,130042.00,,,,,,05,,,,,*70
$GPLLQ,130042.00,010125,,M,,M,1,22,4.835,,M*1F
$GPVTG,,T,,M,0.00,N,0.01,K,D*27
$GPHDT,,T*1B
$GPTHS,,V*0E
$GPROT,,V*08
$PSSN,HRP,130042.00,010125,,,,,,,00,0,,*65
$PTNL,AVR,130042.00,,Yaw,,Tilt,,,,0,,00*33
$GPGSA,A,3,12,24,25,29,32,,,,,,,,1.2,0.6,1.0*3E
$GPGSA,A,3,68,69,77,78,86,87,,,,,,,1.2,0.6,1.0*39
$GPGSA,A,3,02,07,08,29,30,36,,,,,,,1.2,0.6,1.0*36
$GPGSA,A,3,24,26,35,41,44,,,,,,,,1.2,0.6,1.0*37
$GPGST,130042.00,5.980,2.839,1.003,50.670,1.960,2.286,3.783*6E
$GPGBS,130042.00,7.830,7.884,13.406,25,0.0001,3.294,0.854*67
$GPGRS,130042.00,1,-0.5,-0.6,3.3,0.3,0.2,,,,,,,*66
$GPGRS,130042.00,1,5.3,0.4,-8.6,-1.8,4.4,-2.3,,,,,,*63
$GPGRS,130042.00,1,-1.1,1.1,-2.6,-0.7,0.2,7.0,,,,,,*61
$GPGRS,130042.00,1,-1.6,3.0,0.1,18.0,0.2,,,,,,,*77
$GPGSV,4,1,14,12,81,346,42,06,28,077,32,29,13,208,37,11,22,117,32*78
$GPGSV,4,2,14,19,27,048,,32,31,300,39,25,45,273,38,24,54,150,48*75
$GPGSV,4,3,14,17,00,040,,28,03,310,30,36,35,170,35,34,31,208,35*7B
$GPGSV,4,4,14,49,34,195,36,61,03,257,*7A
$GLGSV,3,1,10,77,57,066,39,88,20,163,30,76,15,092,,69,21,329,42*67
$GLGSV,3,2,10,67,13,226,30,86,29,037,46,68,32,275,44,78,46,307,52*61
$GLGSV,3,3,10,87,50,097,42,79,00,286,*64
$GAGSV,3,1,10,30,76,295,45,11,12,029,,34,17,131,32,08,19,191,39*6E
$GAGSV,3,2,10,27,25,264,32,36,27,077,37,29,26,311,43,07,45,246,43*65
$GAGSV,3,3,10,02,44,070,44,18,61,096,*6D
$GBGSV,5,1,20,24,85,019,51,41,18,294,36,43,10,241,,05,20,130,*68
$GBGSV,5,2,20,34,14,186,26,07,12,055,,33,13,245,30,12,34,164,34*61
$GBGSV,5,3,20,25,28,293,,11,21,220,,26,36,105,38,10,25,058,31*6E
$GBGSV,5,4,20,56,32,052,,44,50,137,42,35,41,064,40,14,04,222,*6D
$GBGSV,5,5,20,02,04,109,,40,06,044,,32,04,343,25,60,08,111,*6C
$GPGGA,130042.00,,,,,0,00,,,M,,M,,*4C
$PTNL,GGK,130042.00,010125,4742.4459453,N,01617.9730518,E,1,22,1.2,EHT668.8725,M*46
$GPGGQ,130042.00,010125,4742.4459453,N,01617.9730518,E,1,22,4.835,625.6614,M*35
$GPGFA,130042.00,26.994,31.023,2.839,1.003,50.670,3.783,,VVV*3D
$GPLLK,130042.00,010125,,M,,M,1,22,1.4,,M*0A
$GNGMP,130042.00,,,,,DAAA,22,0.6,,,,*54
$GPGMP,130042.00,,,,,,05,,,,3.2,123*7D
$GLGMP,130042.00,,,,,,06,,,,,*7D
$GAGMP,130042.00,,,,,,06,,,,,*70
$GBGMP,130042.00,,,,,,05,,,,,*70
$PSSN,SNC,[0,306060000,2347]*47
$GPZDA,130047.00,01,01,2025,,*62
$GPDTM,W84,,00.0000000,N,00.0000000,E,00.0000000,W84*5F
$GPRMC,130047.00,A,4742.4459460,N,01617.9730548,E,0.0,,010125,5.1,E,D*12
$GPGLL,4742.4459460,N,01617.9730548,E,130047.00,A,D*63
$GPGGA,130047.00,4742.4459460,N,01617.9730548,E,2,21,0.6,625.6836,M,43.2111,M,2.6,0123*41
$GNGNS,130047.00,4742.4459460,N,01617.9730548,E,DAAA,21,0.6,625.6836,43.2111,,*59
$GPGNS,130047.00,,,,,,05,,,,2.6,123*7D
$GLGNS,130047.00,,,,,,06,,,,,*78
$GAGNS,130047.00,,,,,,06,,,,,*75
$GBGNS,130047.00,,,,,,04,,,,,*74
$GPLLQ,130047.00,010125,,M,,M,1,21,5.231,,M*16
$GPVTG,,T,,M,0.01,N,0.01,K,D*26
$GPHDT,,T*1B
$GPTHS,,V*0E
$GPROT,,V*08
$PSSN,HRP,130047.00,010125,,,,,,,00,0,,*60
$PTNL,AVR,130047.00,,Yaw,,Tilt,,,,0,,00*36
$GPGSA,A,3,12,24,25,29,32,,,,,,,,1.2,0.6,1.0*3E
$GPGSA,A,3,68,69,77,78,86,87,,,,,,,1.2,0.6,1.0*39
$GPGSA,A,3,02,07,08,29,30,36,,,,,,,1.2,0.6,1.0*36
$GPGSA,A,3,24,26,35,44,,,,,,,,,1.2,0.6,1.0*32
$GPGST,130047.00,4.433,2.966,1.106,45.247,2.231,2.245,4.165*6E
$GPGBS,130047.00,7.871,7.810,13.583,25,0.0001,-2.513,0.817*45
$GPGRS,130047.00,1,-0.2,0.3,-2.5,1.2,2.1,,,,,,,*67
$GPGRS,130047.00,1,7.1,0.7,-8.4,-1.1,4.8,-2.1,,,,,,*60
$GPGRS,130047.00,1,-0.6,1.9,-1.5,1.0,1.1,8.6,,,,,,*4A
$GPGRS,130047.00,1,-1.2,4.6,-2.2,1.2,,,,,,,,*4D
$GPGSV,4,1,14,12,81,346,40,06,28,077,33,29,13,208,37,11,22,117,32*7B
$GPGSV,4,2,14,19,27,048,,32,31,300,39,25,45,273,37,24,54,150,48*7A
$GPGSV,4,3,14,17,00,040,,28,03,310,31,36,35,170,35,34,31,208,35*7A
$GPGSV,4,4,14,49,34,195,36,61,03,257,*7A
$GLGSV,3,1,10,77,57,066,40,88,20,163,30,76,15,092,,69,21,329,41*6A
$GLGSV,3,2,10,67,13,226,31,86,29,037,46,68,32,275,44,78,46,307,52*60
$GLGSV,3,3,10,87,50,097,41,79,00,286,*67
$GAGSV,3,1,10,30,76,295,45,11,12,029,,34,17,131,31,08,19,191,39*6D
$GAGSV,3,2,10,27,25,264,34,36,27,077,38,29,26,311,43,07,45,246,43*6C
$GAGSV,3,3,10,02,44,070,44,18,61,096,*6D
$GBGSV,5,1,20,24,85,020,50,41,18,294,34,43,10,241,,05,20,130,*61
$GBGSV,5,2,20,34,14,186,29,07,12,055,22,33,13,245,30,12,34,164,34*6E
$GBGSV,5,3,20,25,28,293,,11,21,220,,26,36,105,37,10,25,058,30*60
$GBGSV,5,4,20,56,32,052,,44,50,137,42,35,41,064,39,14,03,222,*64
$GBGSV,5,5,20,02,04,109,,40,06,044,,32,04,343,22,60,08,111,*6B
$GPGGA,130047.00,,,,,0,00,,,M,,M,,*49
$PTNL,GGK,130047.00,010125,4742.4459460,N,01617.9730548,E,1,21,1.2,EHT668.8947,M*4F
$GPGGQ,130047.00,010125,4742.4459460,N,01617.9730548,E,1,21,5.231,625.6836,M*37
$GPGFA,130047.00,28.196,34.150,2.966,1.106,45.247,4.165,,VVV*3E
$GPLLK,130047.00,010125,,M,,M,1,21,1.4,,M*0C
$GNGMP,130047.00,,,,,DAAA,21,0.6,,,,*52
$GPGMP,130047.00,,,,,,05,,,,2.6,123*7D
$GLGMP,130047.00,,,,,,06,,,,,*78
$GAGMP,130047.00,,,,,,06,,,,,*75
$GBGMP,130047.00,,,,,,04,,,,,*74
$PSSN,SNC,[0,306065000,2347]*42
$GPZDA,130052.00,01,01,2025,,*66
$GPDTM,W84,,00.0000000,N,00.0000000,E,00.0000000,W84*5F
$GPRMC,130052.00,A,4742.4459473,N,01617.9730455,E,0.0,,010125,5.1,E,D*19
$GPGLL,4742.4459473,N,01617.9730455,E,130052.00,A,D*68
$GPGGA,130052.00,4742.4459473,N,01617.9730455,E,2,22,0.6,625.6901,M,43.2111,M,2.0,0123*4A
$GNGNS,130052.00,4742.4459473,N,01617.9730455,E,DAAA,22,0.6,625.6901,43.2111,,*54
$GPGNS,130052.00,,,,,,05,,,,2.0,123*7F
$GLGNS,130052.00,,,,,,06,,,,,*7C
$GAGNS,130052.00,,,,,,06,,,,,*71
$GBGNS,130052.00,,,,,,05,,,,,*71
$GPLLQ,130052.00,010125,,M,,M,1,22,4.205,,M*17
$GPVTG,,T,,M,0.01,N,0.01,K,D*26
$GPHDT,,T*1B
$GPTHS,,V*0E
$GPROT,,V*08
$PSSN,HRP,130052.00,010125,,,,,,,00,0,,*64
$PTNL,AVR,130052.00,,Yaw,,Tilt,,,,0,,00*32
$GPGSA,A,3,12,24,25,29,32,,,,,,,,1.2,0.6,1.0*3E
$GPGSA,A,3,68,69,77,78,86,87,,,,,,,1.2,0.6,1.0*39
$GPGSA,A,3,02,07,08,29,30,36,,,,,,,1.2,0.6,1.0*36
$GPGSA,A,3,12,24,26,35,44,,,,,,,,1.2,0.6,1.0*31
$GPGST,130052.00,4.546,2.378,0.888,46.230,1.765,1.824,3.352*69
$GPGBS,130052.00,7.716,7.819,13.238,32,0.0001,1.961,1.103*6D
$GPGRS,130052.00,1,-0.2,0.3,-1.4,1.1,2.0,,,,,,,*63
$GPGRS,130052.00,1,6.7,1.2,-7.2,-1.7,4.0,-3.4,,,,,,*64
$GPGRS,130052.00,1,-0.6,2.8,-1.4,1.3,1.5,9.4,,,,,,*49
$GPGRS,130052.00,1,-4.2,-1.1,5.1,-4.9,1.7,,,,,,,*41
$GPGSV,4,1,14,12,81,347,39,06,28,077,32,29,13,208,36,11,22,117,30*76
$GPGSV,4,2,14,19,26,048,29,32,31,300,39,25,45,273,36,24,54,150,47*7E
$GPGSV,4,3,14,17,00,040,,28,04,310,32,36,35,170,35,34,31,208,35*7E
$GPGSV,4,4,14,49,34,195,36,61,03,257,*7A
$GLGSV,3,1,10,77,57,066,42,88,20,163,33,76,15,093,22,69,21,329,41*6A
$GLGSV,3,2,10,67,13,226,32,86,29,037,45,68,32,275,45,78,46,307,50*63
$GLGSV,3,3,10,87,50,097,40,79,00,286,*66
$GAGSV,3,1,10,30,76,295,46,11,12,029,,34,17,131,30,08,19,191,39*6F
$GAGSV,3,2,10,27,25,264,34,36,27,077,39,29,27,311,44,07,45,246,43*6B
$GAGSV,3,3,10,02,44,070,44,18,61,096,*6D
$GBGSV,5,1,20,24,85,020,50,41,18,294,34,43,10,241,,05,20,130,*61
$GBGSV,5,2,20,34,14,186,30,07,12,055,23,33,12,245,29,12,34,164,36*6C
$GBGSV,5,3,20,25,28,293,,11,21,220,,26,36,105,37,10,25,058,30*60
$GBGSV,5,4,20,56,32,052,,44,50,137,42,35,41,064,38,14,03,222,*65
$GBGSV,5,5,20,02,04,109,,40,06,044,,32,04,343,21,60,08,111,*68
$GPGGA,130052.00,,,,,0,00,,,M,,M,,*4D
$PTNL,GGK,130052.00,010125,4742.4459473,N,01617.9730455,E,1,22,1.2,EHT668.9012,M*4F
$GPGGQ,130052.00,010125,4742.4459473,N,01617.9730455,E,1,22,4.205,625.6901,M*3C
$GPGFA,130052.00,22.606,27.487,2.378,0.888,46.230,3.352,,VVV*3A
$GPLLK,130052.00,010125,,M,,M,1,22,1.4,,M*0B
$GNGMP,130052.00,,,,,DAAA,22,0.6,,,,*55
$GPGMP,130052.00,,,,,,05,,,,2.0,123*7F
$GLGMP,130052.00,,,,,,06,,,,,*7C
$GAGMP,130052.00,,,,,,06,,,,,*71
$GBGMP,130052.00,,,,,,05,,,,,*71
$PSSN,SNC,[0,306070000,2347]*46
$GPZDA,130057.00,01,01,2025,,*63
$GPDTM,W84,,00.0000000,N,00.0000000,E,00.0000000,W84*5F
$GPRMC,130057.00,A,4742.4459461,N,01617.9730450,E,0.0,,010125,5.1,E,D*1A
$GPGLL,4742.4459461,N,01617.9730450,E,130057.00,A,D*6B
$GPGGA,130057.00,4742.4459461,N,01617.9730450,E,2,21,0.6,625.6997,M,43.2111,M,2.3,0123*46
$GNGNS,130057.00,4742.4459461,N,01617.9730450,E,DAAA,21,0.6,625.6997,43.2111,,*5B
$GPGNS,130057.00,,,,,,04,,,,2.3,123*78
$GLGNS,130057.00,,,,,,06,,,,,*79
$GAGNS,130057.00,,,,,,06,,,,,*74
$GBGNS,130057.00,,,,,,05,,,,,*74
$GPLLQ,130057.00,010125,,M,,M,1,21,3.558,,M*19
$GPVTG,,T,,M,0.00,N,0.01,K,D*27
$GPHDT,,T*1B
$GPTHS,,V*0E
$GPROT,,V*08
$PSSN,HRP,130057.00,010125,,,,,,,00,0,,*61
$PTNL,AVR,130057.00,,Yaw,,Tilt,,,,0,,00*37
$GPGSA,A,3,12,24,25,32,,,,,,,,,1.3,0.6,1.1*35
$GPGSA,A,3,68,69,77,78,86,87,,,,,,,1.3,0.6,1.1*39
$GPGSA,A,3,02,07,08,29,30,36,,,,,,,1.3,0.6,1.1*36
$GPGSA,A,3,12,24,26,35,44,,,,,,,,1.3,0.6,1.1*31
$GPGST,130057.00,4.398,1.889,0.776,42.899,1.481,1.406,2.914*60
$GPGBS,130057.00,6.403,8.080,16.325,36,0.0001,9.593,6.431*6F
$GPGRS,130057.00,1,0.7,-0.1,-0.3,0.1,,,,,,,,*4A
$GPGRS,130057.00,1,6.5,1.2,-7.6,-3.5,1.9,-4.3,,,,,,*6B
$GPGRS,130057.00,1,-0.9,2.3,-1.9,0.3,1.4,9.6,,,,,,*47
$GPGRS,130057.00,1,-1.8,-1.1,3.9,-3.1,1.4,,,,,,,*49
$GPGSV,4,1,14,12,81,347,42,06,28,077,23,29,13,208,34,11,22,117,25*7C
$GPGSV,4,2,14,19,26,048,,32,31,300,39,25,45,273,35,24,54,150,47*76
$GPGSV,4,3,14,17,00,040,,28,04,310,33,36,35,170,35,34,31,208,35*7F
$GPGSV,4,4,14,49,34,195,36,61,03,257,*7A
$GLGSV,3,1,10,77,57,066,43,88,20,163,34,76,15,093,,69,21,329,42*6F
$GLGSV,3,2,10,67,13,226,32,86,29,037,45,68,32,275,46,78,46,307,49*68
$GLGSV,3,3,10,87,50,097,39,79,01,286,*69
$GAGSV,3,1,10,30,76,295,46,11,12,029,,34,17,131,28,08,19,191,39*66
$GAGSV,3,2,10,27,25,264,34,36,27,077,38,29,27,311,44,07,45,246,43*6A
$GAGSV,3,3,10,02,44,070,44,18,61,096,*6D
$GBGSV,5,1,20,24,85,021,50,41,18,294,34,43,10,241,,05,20,130,*60
$GBGSV,5,2,20,34,14,186,32,07,12,055,23,33,12,245,28,12,34,164,37*6E
$GBGSV,5,3,20,25,28,293,,11,21,220,,26,36,105,38,10,25,058,28*66
$GBGSV,5,4,20,56,32,052,,44,50,137,43,35,41,064,37,14,03,222,*6B
$GBGSV,5,5,20,02,04,109,,40,06,044,,32,04,343,20,60,08,111,*69
$GPGGA,130057.00,,,,,0,00,,,M,,M,,*48
$PTNL,GGK,130057.00,010125,4742.4459461,N,01617.9730450,E,1,21,1.3,EHT668.9108,M*44
$GPGGQ,130057.00,010125,4742.4459461,N,01617.9730450,E,1,21,3.558,625.6997,M*3B
$GPGFA,130057.00,17.956,23.896,1.889,0.776,42.899,2.914,,VVV*37
$GPLLK,130057.00,010125,,M,,M,1,21,1.5,,M*0C
$GNGMP,130057.00,,,,,DAAA,21,0.6,,,,*53
$GPGMP,130057.00,,,,,,04,,,,2.3,123*78
$GLGMP,130057.00,,,,,,06,,,,,*79
$GAGMP,130057.00,,,,,,06,,,,,*74
$GBGMP,130057.00,,,,,,05,,,,,*74
$PSSN,SNC,[0,306075000,2347]*43
$GPZDA,130102.00,01,01,2025,,*62
$GPDTM,W84,,00.0000000,N,00.0000000,E,00.0000000,W84*5F
$GPRMC,130102.00,A,4742.4459430,N,01617.9730468,E,0.0,,010125,5.1,E,D*14
$GPGLL,4742.4459430,N,01617.9730468,E,130102.00,A,D*65
$GPGGA,130102.00,4742.4459430,N,01617.9730468,E,2,20,0.6,625.6934,M,43.2111,M,3.0,0123*42
$GNGNS,130102.00,4742.4459430,N,01617.9730468,E,DAAA,20,0.6,625.6934,43.2111,,*5D
$GPGNS,130102.00,,,,,,02,,,,3.0,123*7D
$GLGNS,130102.00,,,,,,07,,,,,*79
$GAGNS,130102.00,,,,,,06,,,,,*75
$GBGNS,130102.00,,,,,,05,,,,,*75
$GPLLQ,130102.00,010125,,M,,M,1,20,9.185,,M*17
$GPVTG,,T,,M,0.01,N,0.01,K,D*26
$GPHDT,,T*1B
$GPTHS,,V*0E
$GPROT,,V*08
$PSSN,HRP,130102.00,010125,,,,,,,00,0,,*60
$PTNL,AVR,130102.00,,Yaw,,Tilt,,,,0,,00*36
$GPGSA,A,3,12,24,,,,,,,,,,,1.3,0.6,1.1*33
$GPGSA,A,3,68,69,77,78,86,87,88,,,,,,1.3,0.6,1.1*39
$GPGSA,A,3,02,07,08,29,30,36,,,,,,,1.3,0.6,1.1*36
$GPGSA,A,3,12,24,26,35,44,,,,,,,,1.3,0.6,1.1*31
$GPGST,130102.00,5.490,3.294,2.210,52.122,2.671,2.933,8.284*6A
$GPGBS,130102.00,14.325,9.315,52.234,88,0.0001,9.947,6.332*55
$GPGRS,130102.00,1,0.6,-0.6,,,,,,,,,,*62
$GPGRS,130102.00,1,6.8,1.8,-8.0,-5.1,1.5,-5.4,9.9,,,,,*42
$GPGRS,130102.00,1,-1.4,1.9,-2.2,-0.5,1.0,9.8,,,,,,*6A
$GPGRS,130102.00,1,0.3,-1.4,3.3,-0.0,1.3,,,,,,,*65
$GPGSV,4,1,14,12,81,347,42,06,28,077,29,29,13,208,32,11,22,117,22*77
$GPGSV,4,2,14,19,26,048,26,32,31,300,40,25,45,273,34,24,54,150,47*7D
$GPGSV,4,3,14,17,00,040,,28,04,310,34,36,35,170,35,34,31,208,35*78
$GPGSV,4,4,14,49,34,195,36,61,03,257,*7A
$GLGSV,3,1,10,77,57,066,42,88,20,163,36,76,15,093,29,69,21,329,44*61
$GLGSV,3,2,10,67,13,226,31,86,28,037,43,68,32,275,46,78,47,307,48*6C
$GLGSV,3,3,10,87,50,097,40,79,01,286,*67
$GAGSV,3,1,10,30,76,295,46,11,12,029,,34,17,131,,08,19,191,40*62
$GAGSV,3,2,10,27,25,264,35,36,27,077,37,29,27,311,44,07,45,246,43*64
$GAGSV,3,3,10,02,44,070,45,18,61,096,*6C
$GBGSV,5,1,20,24,85,021,49,41,18,294,35,43,10,241,,05,20,130,*69
$GBGSV,5,2,20,34,14,186,33,07,12,055,23,25,28,293,,11,21,220,*60
$GBGSV,5,3,20,33,12,245,28,12,34,164,38,26,36,105,39,10,25,058,27*68
$GBGSV,5,4,20,56,32,052,,44,51,137,44,35,41,064,38,14,03,222,*62
$GBGSV,5,5,20,32,04,343,30,40,06,044,,02,04,109,,60,08,111,*68
$GPGGA,130102.00,,,,,0,00,,,M,,M,,*49
$PTNL,GGK,130102.00,010125,4742.4459430,N,01617.9730468,E,1,20,1.3,EHT668.9045,M*43
$GPGGQ,130102.00,010125,4742.4459430,N,01617.9730468,E,1,20,9.185,625.6934,M*33
$GPGFA,130102.00,31.320,67.929,3.294,2.210,52.122,8.284,,VVV*3F
$GPLLK,130102.00,010125,,M,,M,1,20,1.5,,M*0C
$GNGMP,130102.00,,,,,DAAA,20,0.6,,,,*53
$GPGMP,130102.00,,,,,,02,,,,3.0,123*7D
$GLGMP,130102.00,,,,,,07,,,,,*79
$GAGMP,130102.00,,,,,,06,,,,,*75
$GBGMP,130102.00,,,,,,05,,,,,*75
$PSSN,SNC,[0,306080000,2347]*49
$GPZDA,130107.00,01,01,2025,,*67
$GPDTM,W84,,00.0000000,N,00.0000000,E,00.0000000,W84*5F
$GPRMC,130107.00,A,4742.4459440,N,01617.9730422,E,0.0,,010125,5.1,E,D*18
$GPGLL,4742.4459440,N,01617.9730422,E,130107.00,A,D*69
$GPGGA,130107.00,4742.4459440,N,01617.9730422,E,2,22,0.6,625.6892,M,43.2111,M,2.7,0123*47
$GNGNS,130107.00,4742.4459440,N,01617.9730422,E,DAAA,22,0.6,625.6892,43.2111,,*5E
$GPGNS,130107.00,,,,,,03,,,,2.7,123*7F
$GLGNS,130107.00,,,,,,07,,,,,*7C
$GAGNS,130107.00,,,,,,06,,,,,*70
$GBGNS,130107.00,,,,,,06,,,,,*73
$GPLLQ,130107.00,010125,,M,,M,1,22,5.124,,M*17
$GPVTG,,T,,M,0.01,N,0.01,K,D*26
$GPHDT,,T*1B
$GPTHS,,V*0E
$GPROT,,V*08
$PSSN,HRP,130107.00,010125,,,,,,,00,0,,*65
$PTNL,AVR,130107.00,,Yaw,,Tilt,,,,0,,00*33
$GPGSA,A,3,12,24,32,,,,,,,,,,1.2,0.6,1.1*33
$GPGSA,A,3,68,69,77,78,86,87,88,,,,,,1.2,0.6,1.1*38
$GPGSA,A,3,02,07,08,27,29,30,,,,,,,1.2,0.6,1.1*37
$GPGSA,A,3,12,24,26,35,41,44,,,,,,,1.2,0.6,1.1*35
$GPGST,130107.00,4.967,3.263,0.975,50.930,2.191,2.607,3.828*66
$GPGBS,130107.00,10.604,13.463,16.847,32,0.0001,-1.454,1.069*40
$GPGRS,130107.00,1,0.4,0.2,-1.5,,,,,,,,,*4B
$GPGRS,130107.00,1,5.4,3.4,-7.9,-5.1,-0.4,-3.4,8.1,,,,,*62
$GPGRS,130107.00,1,-1.1,2.3,-2.1,5.7,-0.1,1.0,,,,,,*67
$GPGRS,130107.00,1,0.6,-1.0,3.0,2.5,9.8,2.1,,,,,,*66
$GPGSV,4,1,14,12,81,347,44,06,28,077,29,29,13,208,29,11,22,117,22*7B
$GPGSV,4,2,14,19,26,048,27,32,31,300,40,25,45,274,32,24,54,150,46*7C
$GPGSV,4,3,14,17,00,040,,28,04,310,34,36,35,170,35,34,31,208,35*78
$GPGSV,4,4,14,49,34,195,36,61,03,257,*7A
$GLGSV,3,1,10,77,57,066,41,88,20,163,37,76,15,093,31,69,21,329,44*6A
$GLGSV,3,2,10,67,13,226,28,86,28,037,41,68,32,275,46,78,47,307,47*69
$GLGSV,3,3,10,87,50,097,42,79,01,286,*65
$GAGSV,3,1,10,30,76,295,46,11,12,029,,34,17,131,22,08,19,191,40*62
$GAGSV,3,2,10,27,25,264,36,36,27,077,35,29,27,311,44,07,45,246,43*65
$GAGSV,3,3,10,02,44,070,45,18,61,096,*6C
$GBGSV,5,1,20,24,85,021,49,41,18,294,37,43,10,241,,05,20,130,*6B
$GBGSV,5,2,20,34,14,186,33,07,12,055,23,25,28,293,,11,21,220,*60
$GBGSV,5,3,20,33,12,244,28,12,34,164,38,26,36,105,40,10,25,058,26*66
$GBGSV,5,4,20,56,32,052,,44,51,137,45,35,41,064,40,14,03,222,*6C
$GBGSV,5,5,20,32,04,343,29,40,06,044,,02,04,109,,60,08,111,*60
$GPGGA,130107.00,,,,,0,00,,,M,,M,,*4C
$PTNL,GGK,130107.00,010125,4742.4459440,N,01617.9730422,E,1,22,1.2,EHT668.9003,M*4E
$GPGGQ,130107.00,010125,4742.4459440,N,01617.9730422,E,1,22,5.124,625.6892,M*37
$GPGFA,130107.00,31.025,31.390,3.263,0.975,50.930,3.828,,VVV*3B
$GPLLK,130107.00,010125,,M,,M,1,22,1.4,,M*0A
$GNGMP,130107.00,,,,,DAAA,22,0.6,,,,*54
$GPGMP,130107.00,,,,,,03,,,,2.7,123*7F
$GLGMP,130107.00,,,,,,07,,,,,*7C
$GAGMP,130107.00,,,,,,06,,,,,*70
$GBGMP,130107.00,,,,,,06,,,,,*73
$PSSN,SNC,[0,306085000,2347]*4C
$GPZDA,130112.00,01,01,2025,,*63
$GPDTM,W84,,00.0000000,N,00.0000000,E,00.0000000,W84*5F
$GPRMC,130112.00,A,4742.4459419,N,01617.9730496,E,0.0,,010125,5.1,E,D*1F
$GPGLL,4742.4459419,N,01617.9730496,E,130112.00,A,D*6E
$GPGGA,130112.00,4742.4459419,N,01617.9730496,E,2,22,0.6,625.6905,M,43.2111,M,2.3,0123*4B
$GNGNS,130112.00,4742.4459419,N,01617.9730496,E,DAAA,22,0.6,625.6905,43.2111,,*56
$GPGNS,130112.00,,,,,,03,,,,2.3,123*7F
$GLGNS,130112.00,,,,,,07,,,,,*78
$GAGNS,130112.00,,,,,,06,,,,,*74
$GBGNS,130112.00,,,,,,06,,,,,*77
$GPLLQ,130112.00,010125,,M,,M,1,22,5.372,,M*12
$GPVTG,,T,,M,0.01,N,0.01,K,D*26
$GPHDT,,T*1B
$GPTHS,,V*0E
$GPROT,,V*08
$PSSN,HRP,130112.00,010125,,,,,,,00,0,,*61
$PTNL,AVR,130112.00,,Yaw,,Tilt,,,,0,,00*37
$GPGSA,A,3,12,24,32,,,,,,,,,,1.2,0.6,1.1*33
$GPGSA,A,3,68,69,77,78,86,87,88,,,,,,1.2,0.6,1.1*38
$GPGSA,A,3,02,07,08,27,29,30,,,,,,,1.2,0.6,1.1*37
$GPGSA,A,3,12,24,26,35,41,44,,,,,,,1.2,0.6,1.1*35
$GPGST,130112.00,5.442,3.469,0.944,51.374,2.288,2.774,3.992*62
$GPGBS,130112.00,10.608,13.451,16.988,77,0.0001,-9.528,6.121*42
$GPGRS,130112.00,1,-0.1,-0.4,1.5,,,,,,,,,*61
$GPGRS,130112.00,1,3.0,2.5,-9.5,-5.6,-1.6,-2.1,9.6,,,,,*60
$GPGRS,130112.00,1,-1.7,1.2,-2.6,6.9,-0.5,0.1,,,,,,*69
$GPGRS,130112.00,1,-2.2,-1.8,1.1,1.7,11.5,1.4,,,,,,*71
$GPGSV,4,1,14,12,81,348,45,06,28,077,29,29,13,208,25,11,22,117,23*78
$GPGSV,4,2,14,19,26,048,,32,31,300,40,25,45,274,30,24,54,150,45*78
$GPGSV,4,3,14,17,00,040,,28,04,310,34,36,35,170,35,34,31,208,35*78
$GPGSV,4,4,14,49,34,195,36,61,03,257,*7A
$GLGSV,3,1,10,77,57,066,41,88,20,163,37,76,15,093,31,69,21,329,44*6A
$GLGSV,3,2,10,67,13,226,29,86,28,037,38,68,32,275,46,78,47,307,47*66
$GLGSV,3,3,10,87,50,097,43,79,01,286,*64
$GAGSV,3,1,10,30,76,295,47,11,12,029,,34,17,131,23,08,19,191,40*62
$GAGSV,3,2,10,27,25,264,36,36,27,077,33,29,27,311,45,07,45,246,43*62
$GAGSV,3,3,10,02,44,070,46,18,61,096,*6F
$GBGSV,5,1,20,24,85,022,49,41,18,294,39,43,10,241,,05,20,130,*66
$GBGSV,5,2,20,34,14,186,33,07,12,055,23,25,28,293,,11,21,220,*60
$GBGSV,5,3,20,33,12,244,29,12,34,164,38,26,36,105,40,10,25,058,24*65
$GBGSV,5,4,20,56,32,052,,44,51,137,45,35,41,064,42,14,03,222,*6E
$GBGSV,5,5,20,32,04,343,29,40,06,044,,02,04,109,,60,08,111,*60
$GPGGA,130112.00,,,,,0,00,,,M,,M,,*48
$PTNL,GGK,130112.00,010125,4742.4459419,N,01617.9730496,E,1,22,1.2,EHT668.9015,M*4E
$GPGGQ,130112.00,010125,4742.4459419,N,01617.9730496,E,1,22,5.372,625.6905,M*3E
$GPGFA,130112.00,32.985,32.731,3.469,0.944,51.374,3.992,,VVV*36
$GPLLK,130112.00,010125,,M,,M,1,22,1.4,,M*0E
$GNGMP,130112.00,,,,,DAAA,22,0.6,,,,*50
$GPGMP,130112.00,,,,,,03,,,,2.3,123*7F
$GLGMP,130112.00,,,,,,07,,,,,*78
$GAGMP,130112.00,,,,,,06,,,,,*74
$GBGMP,130112.00,,,,,,06,,,,,*77
$PSSN,SNC,[0,306090000,2347]*48
$GPZDA,130117.00,01,01,2025,,*66
$GPDTM,W84,,00.0000000,N,00.0000000,E,00.0000000,W84*5F
$GPRMC,130117.00,A,4742.4459384,N,01617.9730597,E,0.0,,010125,5.1,E,D*19
$GPGLL,4742.4459384,N,01617.9730597,E,130117.00,A,D*68
$GPGGA,130117.00,4742.4459384,N,01617.9730597,E,2,21,0.6,625.7090,M,43.2111,M,2.0,0123*49
$GNGNS,130117.00,4742.4459384,N,01617.9730597,E,DAAA,21,0.6,625.7090,43.2111,,*57
$GPGNS,130117.00,,,,,,03,,,,2.0,123*79
$GLGNS,130117.00,,,,,,06,,,,,*7C
$GAGNS,130117.00,,,,,,05,,,,,*72
$GBGNS,130117.00,,,,,,07,,,,,*73
$GPLLQ,130117.00,010125,,M,,M,1,21,6.476,,M*14
$GPVTG,,T,,M,0.01,N,0.02,K,D*25
$GPHDT,,T*1B
$GPTHS,,V*0E
$GPROT,,V*08
$PSSN,HRP,130117.00,010125,,,,,,,00,0,,*64
$PTNL,AVR,130117.00,,Yaw,,Tilt,,,,0,,00*32
$GPGSA,A,3,12,24,32,,,,,,,,,,1.2,0.6,1.1*33
$GPGSA,A,3,68,69,77,78,87,88,,,,,,,1.2,0.6,1.1*36
$GPGSA,A,3,02,07,08,29,30,,,,,,,,1.2,0.6,1.1*32
$GPGSA,A,3,10,12,24,26,35,41,44,,,,,,1.2,0.6,1.1*34
$GPGST,130117.00,5.873,4.303,1.064,51.566,2.802,3.435,4.721*64
$GPGBS,130117.00,9.507,12.506,15.507,88,0.0001,12.230,6.331*63
$GPGRS,130117.00,1,-0.5,-0.3,2.0,,,,,,,,,*61
$GPGRS,130117.00,1,2.5,1.9,-9.6,-5.3,-2.8,12.2,,,,,,*5B
$GPGRS,130117.00,1,-2.0,0.5,-3.1,-1.2,-0.1,,,,,,,*62
$GPGRS,130117.00,1,2.0,-3.5,-2.3,0.2,-0.3,12.4,-0.0,,,,,*56
$GPGSV,4,1,14,12,81,348,46,06,28,077,29,29,13,208,20,11,22,117,20*7D
$GPGSV,4,2,14,19,26,048,26,32,31,300,42,25,45,274,33,24,54,150,45*7D
$GPGSV,4,3,14,17,00,040,,28,04,310,34,36,35,170,35,34,31,208,35*78
$GPGSV,4,4,14,49,34,195,36,61,03,257,*7A
$GLGSV,3,1,10,77,57,066,42,88,20,163,37,76,15,093,29,69,21,329,44*60
$GLGSV,3,2,10,67,13,226,27,86,28,037,33,68,32,275,45,78,47,307,47*60
$GLGSV,3,3,10,87,50,096,43,79,01,286,*65
$GAGSV,3,1,10,30,76,295,47,11,12,029,,34,17,130,23,08,19,191,41*62
$GAGSV,3,2,10,27,25,264,35,36,27,077,33,29,27,311,45,07,45,246,43*61
$GAGSV,3,3,10,02,44,070,46,18,61,095,*6C
$GBGSV,5,1,20,24,85,022,49,41,18,294,39,43,10,241,,05,20,130,*66
$GBGSV,5,2,20,34,14,186,33,07,12,055,22,25,28,293,,11,21,220,*61
$GBGSV,5,3,20,33,12,244,30,12,34,164,37,26,36,105,41,10,25,058,36*60
$GBGSV,5,4,20,56,32,052,,44,51,137,45,35,41,064,42,14,03,222,*6E
$GBGSV,5,5,20,32,04,343,27,40,06,044,,02,04,109,,60,08,111,*6E
$GPGGA,130117.00,,,,,0,00,,,M,,M,,*4D
$PTNL,GGK,130117.00,010125,4742.4459384,N,01617.9730597,E,1,21,1.2,EHT668.9200,M*4D
$GPGGQ,130117.00,010125,4742.4459384,N,01617.9730597,E,1,21,6.476,625.7090,M*3F
$GPGFA,130117.00,40.915,38.709,4.303,1.064,51.566,4.721,,VVV*3C
$GPLLK,130117.00,010125,,M,,M,1,21,1.4,,M*08
$GNGMP,130117.00,,,,,DAAA,21,0.6,,,,*56
$GPGMP,130117.00,,,,,,03,,,,2.0,123*79
$GLGMP,130117.00,,,,,,06,,,,,*7C
$GAGMP,130117.00,,,,,,05,,,,,*72
$GBGMP,130117.00,,,,,,07,,,,,*73
$PSSN,SNC,[0,306095000,2347]*4D
$GPZDA,130122.00,01,01,2025,,*60
$GPDTM,W84,,00.0000000,N,00.0000000,E,00.0000000,W84*5F
$GPRMC,130122.00,A,4742.4459374,N,01617.9730721,E,0.0,,010125,5.1,E,D*1F
$GPGLL,4742.4459374,N,01617.9730721,E,130122.00,A,D*6E
$GPGGA,130122.00,4742.4459374,N,01617.9730721,E,2,20,0.7,625.7272,M,43.2111,M,2.0,0123*41
$GNGNS,130122.00,4742.4459374,N,01617.9730721,E,DAAA,20,0.7,625.7272,43.2111,,*5F
$GPGNS,130122.00,,,,,,03,,,,2.0,123*7F
$GLGNS,130122.00,,,,,,06,,,,,*7A
$GAGNS,130122.00,,,,,,05,,,,,*74
$GBGNS,130122.00,,,,,,06,,,,,*74
$GPLLQ,130122.00,010125,,M,,M,1,20,7.834,,M*18
$GPVTG,,T,,M,0.01,N,0.01,K,D*26
$GPHDT,,T*1B
$GPTHS,,V*0E
$GPROT,,V*08
$PSSN,HRP,130122.00,010125,,,,,,,00,0,,*62
$PTNL,AVR,130122.00,,Yaw,,Tilt,,,,0,,00*34
$GPGSA,A,3,12,24,32,,,,,,,,,,1.3,0.7,1.1*33
$GPGSA,A,3,68,69,77,78,87,88,,,,,,,1.3,0.7,1.1*36
$GPGSA,A,3,02,07,08,29,30,,,,,,,,1.3,0.7,1.1*32
$GPGSA,A,3,12,24,26,35,41,44,,,,,,,1.3,0.7,1.1*35
$GPGST,130122.00,6.482,5.271,1.226,51.473,3.420,4.193,5.664*65
$GPGBS,130122.00,10.733,14.035,16.213,32,0.0001,2.881,1.115*69
$GPGRS,130122.00,1,-0.6,-0.4,2.9,,,,,,,,,*6A
$GPGRS,130122.00,1,4.1,1.7,-8.5,-4.4,-4.3,15.0,,,,,,*5D
$GPGRS,130122.00,1,-2.1,1.0,-3.1,-1.6,-0.4,,,,,,,*60
$GPGRS,130122.00,1,-3.2,-2.5,0.3,-0.8,12.1,-0.8,,,,,,*7A
$GPGSV,4,1,14,12,81,348,46,06,28,077,27,29,13,208,23,11,22,117,24*74
$GPGSV,4,2,14,19,26,048,,32,31,300,42,25,45,274,32,24,54,150,46*7B
$GPGSV,4,3,14,17,00,040,,28,04,310,34,36,35,170,35,34,31,208,35*78
$GPGSV,4,4,14,49,34,195,36,61,03,257,*7A
$GLGSV,3,1,10,77,57,066,42,88,20,163,36,76,15,093,27,69,21,329,46*6D
$GLGSV,3,2,10,67,13,226,22,86,28,037,34,68,32,275,47,78,47,307,47*60
$GLGSV,3,3,10,87,50,096,43,79,01,286,*65
$GAGSV,3,1,10,30,76,295,47,11,12,029,,34,17,130,24,08,19,191,41*65
$GAGSV,3,2,10,27,25,264,34,36,27,077,33,29,27,311,45,07,45,246,43*60
$GAGSV,3,3,10,02,44,070,47,18,61,095,*6D
$GBGSV,5,1,20,24,85,023,48,41,18,293,37,43,10,241,,05,20,130,*6F
$GBGSV,5,2,20,34,15,186,33,07,12,055,22,25,28,293,,11,21,220,*60
$GBGSV,5,3,20,33,12,244,30,12,34,164,37,26,36,105,41,10,25,058,20*67
$GBGSV,5,4,20,56,32,052,,44,51,137,44,35,41,064,42,14,03,222,*6F
$GBGSV,5,5,20,32,04,343,26,40,06,044,,02,04,109,,60,08,111,*6F
$GPGGA,130122.00,,,,,0,00,,,M,,M,,*4B
$PTNL,GGK,130122.00,010125,4742.4459374,N,01617.9730721,E,1,20,1.3,EHT668.9383,M*41
$GPGGQ,130122.00,010125,4742.4459374,N,01617.9730721,E,1,20,7.834,625.7272,M*3D
$GPGFA,130122.00,50.111,46.446,5.271,1.226,51.473,5.664,,VVV*33
$GPLLK,130122.00,010125,,M,,M,1,20,1.5,,M*0E
$GNGMP,130122.00,,,,,DAAA,20,0.7,,,,*50
$GPGMP,130122.00,,,,,,03,,,,2.0,123*7F
$GLGMP,130122.00,,,,,,06,,,,,*7A
$GAGMP,130122.00,,,,,,05,,,,,*74
$GBGMP,130122.00,,,,,,06,,,,,*74
$PSSN,SNC,[0,306100000,2347]*40
$GPZDA,130127.00,01,01,2025,,*65
$GPDTM,W84,,00.0000000,N,00.0000000,E,00.0000000,W84*5F
$GPRMC,130127.00,A,4742.4459344,N,01617.9730851,E,0.0,,010125,5.1,E,D*11
$GPGLL,4742.4459344,N,01617.9730851,E,130127.00,A,D*60
$GPGGA,130127.00,4742.4459344,N,01617.9730851,E,2,20,0.6,625.7519,M,43.2111,M,3.0,0123*45
$GNGNS,130127.00,4742.4459344,N,01617.9730851,E,DAAA,20,0.6,625.7519,43.2111,,*5A
$GPGNS,130127.00,,,,,,03,,,,3.0,123*7B
$GLGNS,130127.00,,,,,,06,,,,,*7F
$GAGNS,130127.00,,,,,,05,,,,,*71
$GBGNS,130127.00,,,,,,06,,,,,*71
$GPLLQ,130127.00,010125,,M,,M,1,20,6.698,,M*14
$GPVTG,,T,,M,0.01,N,0.01,K,D*26
$GPHDT,,T*1B
$GPTHS,,V*0E
$GPROT,,V*08
$PSSN,HRP,130127.00,010125,,,,,,,00,0,,*67
$PTNL,AVR,130127.00,,Yaw,,Tilt,,,,0,,00*31
$GPGSA,A,3,12,24,32,,,,,,,,,,1.3,0.6,1.1*32
$GPGSA,A,3,68,69,77,78,87,88,,,,,,,1.3,0.6,1.1*37
$GPGSA,A,3,02,07,08,29,30,,,,,,,,1.3,0.6,1.1*33
$GPGSA,A,3,10,12,24,26,35,44,,,,,,,1.3,0.6,1.1*30
$GPGST,130127.00,6.136,4.464,1.109,51.652,2.903,3.568,4.869*6E
$GPGBS,130127.00,9.798,12.936,15.948,88,0.0001,16.668,6.334*64
$GPGRS,130127.00,1,-0.2,-0.6,1.8,,,,,,,,,*6B
$GPGRS,130127.00,1,7.3,2.5,-7.3,-4.2,-3.3,16.7,,,,,,*54
$GPGRS,130127.00,1,-2.3,1.5,-3.4,-1.6,-1.2,,,,,,,*60
$GPGRS,130127.00,1,3.2,-3.9,-3.2,0.7,-1.5,-2.0,,,,,,*43
$GPGSV,4,1,14,12,81,348,45,06,28,076,27,29,13,208,25,11,22,117,24*70
$GPGSV,4,2,14,19,26,048,25,32,31,300,42,25,45,274,34,24,54,150,48*74
$GPGSV,4,3,14,17,00,040,,28,04,310,34,36,35,170,35,34,31,208,36*7B
$GPGSV,4,4,14,49,34,195,36,61,03,257,*7A
$GLGSV,3,1,10,77,57,066,43,88,20,163,35,76,15,093,26,69,21,329,47*6F
$GLGSV,3,2,10,67,13,226,26,86,28,037,31,68,32,274,47,78,47,307,47*60
$GLGSV,3,3,10,87,50,096,44,79,01,286,*62
$GAGSV,3,1,10,30,76,295,46,11,12,029,,34,17,130,25,08,19,191,42*66
$GAGSV,3,2,10,27,25,264,34,36,27,077,33,29,27,311,45,07,45,246,43*60
$GAGSV,3,3,10,02,44,070,47,18,61,095,*6D
$GBGSV,5,1,20,24,85,023,48,41,18,293,31,43,10,241,,05,20,130,*69
$GBGSV,5,2,20,34,15,186,32,07,12,055,,25,28,293,,11,21,220,*61
$GBGSV,5,3,20,33,12,244,32,12,34,164,37,26,36,105,41,10,25,058,36*62
$GBGSV,5,4,20,56,32,052,,44,51,137,44,35,41,064,40,14,03,222,*6D
$GBGSV,5,5,20,32,04,343,28,40,06,044,,02,04,109,,60,08,111,*61
$GPGGA,130127.00,,,,,0,00,,,M,,M,,*4E
$PTNL,GGK,130127.00,010125,4742.4459344,N,01617.9730851,E,1,20,1.3,EHT668.9629,M*4A
$GPGGQ,130127.00,010125,4742.4459344,N,01617.9730851,E,1,20,6.698,625.7519,M*30
$GPGFA,130127.00,42.443,39.922,4.464,1.109,51.652,4.869,,VVV*3E
$GPLLK,130127.00,010125,,M,,M,1,20,1.5,,M*0B
$GNGMP,130127.00,,,,,DAAA,20,0.6,,,,*54
$GPGMP,130127.00,,,,,,03,,,,3.0,123*7B
$GLGMP,130127.00,,,,,,06,,,,,*7F
$GAGMP,130127.00,,,,,,05,,,,,*71
$GBGMP,130127.00,,,,,,06,,,,,*71
$PSSN,SNC,[0,306105000,2347]*45
$GPZDA,130132.00,01,01,2025,,*61
$GPDTM,W84,,00.0000000,N,00.0000000,E,00.0000000,W84*5F
$GPRMC,130132.00,A,4742.4459358,N,01617.9731094,E,0.0,,010125,5.1,E,D*18
$GPGLL,4742.4459358,N,01617.9731094,E,130132.00,A,D*69
$GPGGA,130132.00,4742.4459358,N,01617.9731094,E,2,20,0.6,625.7350,M,43.2111,M,3.0,0123*47
$GNGNS,130132.00,4742.4459358,N,01617.9731094,E,DAAA,20,0.6,625.7350,43.2111,,*58
$GPGNS,130132.00,,,,,,04,,,,3.0,123*78
$GLGNS,130132.00,,,,,,05,,,,,*78
