$GPZDA,192942.00,01,01,2025,,*66
$GPDTM,W84,,00.0000000,N,00.0000000,E,00.0000000,W84*5F
$GPRMC,192942.00,A,4742.4466990,N,01617.9730038,E,0.0,,010125,5.1,E,D*1A
$GPGLL,4742.4466990,N,01617.9730038,E,192942.00,A,D*6B
$GPGGA,192942.00,4742.4466990,N,01617.9730038,E,2,21,0.6,626.9970,M,43.2111,M,3.0,0123*41
$GNGNS,192942.00,4742.4466990,N,01617.9730038,E,DAAA,21,0.6,626.9970,43.2111,,*5E
$GPGNS,192942.00,,,,,,04,,,,3.0,123*7F
$GLGNS,192942.00,,,,,,05,,,,,*7F
$GAGNS,192942.00,,,,,,05,,,,,*72
$GBGNS,192942.00,,,,,,07,,,,,*73
$GPLLQ,192942.00,010125,,M,,M,1,21,3.841,,M*19
$GPVTG,,T,,M,0.01,N,0.01,K,D*26
$GPHDT,,T*1B
$GPTHS,,V*0E
$GPROT,,V*08
$PSSN,HRP,192942.00,010125,,,,,,,00,0,,*64
$PTNL,AVR,192942.00,,Yaw,,Tilt,,,,0,,00*32
$GPGSA,A,3,16,18,23,27,,,,,,,,,1.4,0.6,1.2*38
$GPGSA,A,3,66,73,74,80,82,,,,,,,,1.4,0.6,1.2*37
$GPGSA,A,3,13,15,21,26,27,,,,,,,,1.4,0.6,1.2*36
$GPGSA,A,3,13,14,28,33,37,42,43,,,,,,1.4,0.6,1.2*3A
$GPGST,192942.00,3.636,0.929,0.553,7.097,0.925,0.560,3.685*5F
$GPGBS,192942.00,6.253,4.706,22.602,14,0.0001,7.716,8.571*61
$GPGRS,192942.00,1,-0.2,-0.2,0.6,0.0,,,,,,,,*4D
$GPGRS,192942.00,1,4.4,5.1,1.4,-1.8,-1.1,,,,,,,*6D
$GPGRS,192942.00,1,1.0,-0.5,-0.5,3.2,1.4,,,,,,,*60
$GPGRS,192942.00,1,-0.9,7.7,1.4,-0.7,-6.0,1.5,4.4,,,,,*41
$GPGSV,4,1,15,16,61,226,50,08,22,297,30,26,37,193,33,15,15,060,28*7B
$GPGSV,4,2,15,10,41,168,26,18,41,060,47,27,57,301,41,23,59,102,43*74
$GPGSV,4,3,15,13,05,030,,07,09,319,30,29,02,109,,36,35,170,40*78
$GPGSV,4,4,15,34,31,208,,49,34,195,37,61,03,257,*45
$GLGSV,3,1,10,83,66,327,35,84,14,267,,80,21,201,43,68,10,140,*62
$GLGSV,3,2,10,66,23,034,40,67,32,093,30,74,30,321,35,82,46,052,46*65
$GLGSV,3,3,10,73,47,264,49,81,04,074,*60
$GAGSV,3,1,10,13,81,031,43,23,42,303,,03,10,063,,27,19,165,35*6C
$GAGSV,3,2,10,15,27,058,38,14,40,288,,26,41,245,39,21,60,213,40*65
$GAGSV,3,3,10,05,03,016,,08,04,110,*64
$GBGSV,5,1,20,28,60,286,47,23,14,203,34,60,11,108,,21,14,035,38*68
$GBGSV,5,2,20,46,20,313,,38,17,037,,05,22,128,,27,16,274,34*6C
$GBGSV,5,3,20,33,22,145,42,50,26,056,,08,32,038,34,58,31,298,*62
$GBGSV,5,4,20,11,28,081,29,13,38,045,36,14,33,118,41,37,34,254,37*61
$GBGSV,5,5,20,42,35,084,38,43,50,080,41,34,05,089,,02,08,106,*6F
$GPGGA,192942.00,,,,,0,00,,,M,,M,,*4D
$PTNL,GGK,192942.00,010125,4742.4466990,N,01617.9730038,E,1,21,1.4,EHT670.2080,M*40
$GPGGQ,192942.00,010125,4742.4466990,N,01617.9730038,E,1,21,3.841,626.9970,M*3B
$GPGFA,192942.00,8.837,30.221,0.929,0.553,7.097,3.685,,VVV*30
$GPLLK,192942.00,010125,,M,,M,1,21,1.6,,M*0A
$GNGMP,192942.00,,,,,DAAA,21,0.6,,,,*56
$GPGMP,192942.00,,,,,,04,,,,3.0,123*7F
$GLGMP,192942.00,,,,,,05,,,,,*7F
$GAGMP,192942.00,,,,,,05,,,,,*72
$GBGMP,192942.00,,,,,,07,,,,,*73
$PSSN,SNC,[0,329400000,2347]*48
$GPZDA,192947.00,01,01,2025,,*63
$GPDTM,W84,,00.0000000,N,00.0000000,E,00.0000000,W84*5F
$GPRMC,192947.00,A,4742.4466975,N,01617.9730111,E,0.0,,010125,5.1,E,D*1E
$GPGLL,4742.4466975,N,01617.9730111,E,192947.00,A,D*6F
$GPGGA,192947.00,4742.4466975,N,01617.9730111,E,2,19,0.8,626.9963,M,43.2111,M,4.0,0123*45
$GNGNS,192947.00,4742.4466975,N,01617.9730111,E,DAAA,19,0.8,626.9963,43.2111,,*5D
$GPGNS,192947.00,,,,,,03,,,,4.0,123*7A
$GLGNS,192947.00,,,,,,05,,,,,*7A
$GAGNS,192947.00,,,,,,04,,,,,*76
$GBGNS,192947.00,,,,,,07,,,,,*76
$GPLLQ,192947.00,010125,,M,,M,1,19,5.195,,M*11
$GPVTG,,T,,M,0.00,N,0.01,K,D*27
$GPHDT,,T*1B
$GPTHS,,V*0E
$GPROT,,V*08
$PSSN,HRP,192947.00,010125,,,,,,,00,0,,*61
$PTNL,AVR,192947.00,,Yaw,,Tilt,,,,0,,00*37
$GPGSA,A,3,16,18,23,,,,,,,,,,1.6,0.8,1.4*37
$GPGSA,A,3,66,67,73,80,82,,,,,,,,1.6,0.8,1.4*3F
$GPGSA,A,3,13,15,21,26,,,,,,,,,1.6,0.8,1.4*39
$GPGSA,A,3,13,14,28,33,37,42,43,,,,,,1.6,0.8,1.4*30
$GPGST,192947.00,3.973,2.089,0.707,341.150,1.990,0.951,4.704*53
$GPGBS,192947.00,14.875,7.675,40.742,73,0.0001,5.200,6.064*50
$GPGRS,192947.00,1,-0.3,-0.4,-0.2,,,,,,,,,*48
$GPGRS,192947.00,1,4.8,5.0,5.2,-2.6,-0.2,,,,,,,*68
$GPGRS,192947.00,1,1.0,-0.4,-0.3,3.3,,,,,,,,*48
$GPGRS,192947.00,1,-0.5,5.6,1.0,-0.6,-5.6,2.9,4.7,,,,,*47
$GPGSV,4,1,15,16,61,226,49,08,22,297,29,26,37,193,30,15,15,060,31*70
$GPGSV,4,2,15,10,41,168,25,18,41,060,47,27,57,301,41,23,59,102,43*77
$GPGSV,4,3,15,13,05,030,,07,09,319,29,29,02,109,,36,35,170,40*70
$GPGSV,4,4,15,34,31,208,,49,34,195,37,61,03,257,*45
$GLGSV,3,1,10,83,66,327,34,84,14,267,,80,21,201,42,68,10,140,*62
$GLGSV,3,2,10,66,23,034,39,67,32,093,38,74,30,321,32,82,46,052,45*67
$GLGSV,3,3,10,73,47,264,49,81,04,074,*60
$GAGSV,3,1,10,13,81,031,43,23,42,303,,03,10,063,,27,19,165,34*6D
$GAGSV,3,2,10,15,27,058,37,14,40,288,,26,41,245,39,21,60,213,40*6A
$GAGSV,3,3,10,05,03,016,,08,04,110,*64
$GBGSV,5,1,20,28,60,286,47,23,14,203,34,60,11,108,,21,14,035,38*68
$GBGSV,5,2,20,46,20,313,,38,17,037,,05,22,128,,27,16,274,34*6C
$GBGSV,5,3,20,33,22,145,42,50,26,056,,08,31,038,34,58,31,298,*61
$GBGSV,5,4,20,11,28,081,27,13,38,045,35,14,33,118,40,37,34,254,36*6C
$GBGSV,5,5,20,42,35,084,37,43,50,080,42,34,05,089,,02,08,106,*63
$GPGGA,192947.00,,,,,0,00,,,M,,M,,*48
$PTNL,GGK,192947.00,010125,4742.4466975,N,01617.9730111,E,1,19,1.6,EHT670.2074,M*46
$GPGGQ,192947.00,010125,4742.4466975,N,01617.9730111,E,1,19,5.195,626.9963,M*30
$GPGFA,192947.00,19.862,38.570,2.089,0.707,341.150,4.704,,VVV*08
$GPLLK,192947.00,010125,,M,,M,1,19,1.8,,M*0A
$GNGMP,192947.00,,,,,DAAA,19,0.8,,,,*56
$GPGMP,192947.00,,,,,,03,,,,4.0,123*7A
$GLGMP,192947.00,,,,,,05,,,,,*7A
$GAGMP,192947.00,,,,,,04,,,,,*76
$GBGMP,192947.00,,,,,,07,,,,,*76
$PSSN,SNC,[0,329405000,2347]*4D
$GPZDA,192952.00,01,01,2025,,*67
$GPDTM,W84,,00.0000000,N,00.0000000,E,00.0000000,W84*5F
$GPRMC,192952.00,A,4742.4466991,N,01617.9730069,E,0.0,,010125,5.1,E,D*1E
$GPGLL,4742.4466991,N,01617.9730069,E,192952.00,A,D*6F
$GPGGA,192952.00,4742.4466991,N,01617.9730069,E,2,18,0.8,626.9906,M,43.2111,M,1.0,0123*42
$GNGNS,192952.00,4742.4466991,N,01617.9730069,E,DAAA,18,0.8,626.9906,43.2111,,*5F
$GPGNS,192952.00,,,,,,03,,,,1.0,123*7B
$GLGNS,192952.00,,,,,,05,,,,,*7E
$GAGNS,192952.00,,,,,,04,,,,,*72
$GBGNS,192952.00,,,,,,06,,,,,*73
$GPLLQ,192952.00,010125,,M,,M,1,18,11.462,,M*2C
$GPVTG,,T,,M,0.01,N,0.02,K,D*25
$GPHDT,,T*1B
$GPTHS,,V*0E
$GPROT,,V*08
$PSSN,HRP,192952.00,010125,,,,,,,00,0,,*65
$PTNL,AVR,192952.00,,Yaw,,Tilt,,,,0,,00*33
$GPGSA,A,3,16,18,23,,,,,,,,,,1.5,0.8,1.2*32
$GPGSA,A,3,66,67,73,80,82,,,,,,,,1.5,0.8,1.2*3A
$GPGSA,A,3,13,15,21,26,,,,,,,,,1.5,0.8,1.2*3C
$GPGSA,A,3,14,21,28,33,42,43,,,,,,,1.5,0.8,1.2*30
$GPGST,192952.00,10.996,4.638,1.557,341.220,4.420,2.098,10.365*5D
$GPGBS,192952.00,15.774,7.390,41.717,21,0.0001,32.982,8.697*62
$GPGRS,192952.00,1,0.2,-0.3,-0.3,,,,,,,,,*66
$GPGRS,192952.00,1,7.4,9.5,4.6,-2.9,0.2,,,,,,,*4D
$GPGRS,192952.00,1,1.7,-0.0,0.5,3.8,,,,,,,,*6F
$GPGRS,192952.00,1,3.2,33.0,0.9,-0.4,4.7,4.0,,,,,,*5C
$GPGSV,4,1,15,16,61,226,48,08,23,297,23,26,37,193,29,15,15,060,30*73
$GPGSV,4,2,15,10,41,168,26,18,41,060,46,27,57,301,40,23,59,102,41*76
$GPGSV,4,3,15,13,05,030,,07,09,319,30,29,02,109,,36,35,170,40*78
$GPGSV,4,4,15,34,31,208,,49,34,195,37,61,03,257,*45
$GLGSV,3,1,10,83,66,327,32,84,14,267,22,80,21,201,42,68,10,139,*6A
$GLGSV,3,2,10,66,23,034,37,67,32,093,38,74,30,321,31,82,46,052,46*69
$GLGSV,3,3,10,73,47,264,49,81,04,074,*60
$GAGSV,3,1,10,13,81,031,43,23,42,302,,03,10,063,,27,19,165,32*6A
$GAGSV,3,2,10,15,27,058,36,14,40,288,,26,41,245,39,21,60,213,41*6A
$GAGSV,3,3,10,05,03,016,,08,04,110,*64
$GBGSV,5,1,20,28,60,286,47,23,14,203,34,60,11,108,,21,14,035,37*67
$GBGSV,5,2,20,46,20,313,,38,17,037,,05,22,128,,27,16,274,31*69
$GBGSV,5,3,20,33,22,145,42,50,26,056,,08,31,038,34,58,31,298,*61
$GBGSV,5,4,20,11,28,081,26,13,38,045,35,14,33,118,39,37,34,254,37*62
$GBGSV,5,5,20,42,35,084,37,43,50,080,43,34,05,089,,02,08,106,*62
$GPGGA,192952.00,,,,,0,00,,,M,,M,,*4C
$PTNL,GGK,192952.00,010125,4742.4466991,N,01617.9730069,E,1,18,1.5,EHT670.2017,M*41
$GPGGQ,192952.00,010125,4742.4466991,N,01617.9730069,E,1,18,11.462,626.9906,M*0A
$GPGFA,192952.00,44.097,84.995,4.638,1.557,341.220,10.365,,VVV*38
$GPLLK,192952.00,010125,,M,,M,1,18,1.7,,M*00
$GNGMP,192952.00,,,,,DAAA,18,0.8,,,,*53
$GPGMP,192952.00,,,,,,03,,,,1.0,123*7B
$GLGMP,192952.00,,,,,,05,,,,,*7E
$GAGMP,192952.00,,,,,,04,,,,,*72
$GBGMP,192952.00,,,,,,06,,,,,*73
$PSSN,SNC,[0,329410000,2347]*49
$GPZDA,192957.00,01,01,2025,,*62
$GPDTM,W84,,00.0000000,N,00.0000000,E,00.0000000,W84*5F
$GPRMC,192957.00,A,4742.4466972,N,01617.9730122,E,0.0,,010125,5.1,E,D*18
$GPGLL,4742.4466972,N,01617.9730122,E,192957.00,A,D*69
$GPGGA,192957.00,4742.4466972,N,01617.9730122,E,2,19,0.9,626.9965,M,43.2111,M,2.0,0123*42
$GNGNS,192957.00,4742.4466972,N,01617.9730122,E,DAAA,19,0.9,626.9965,43.2111,,*5C
$GPGNS,192957.00,,,,,,04,,,,2.0,123*7A
$GLGNS,192957.00,,,,,,04,,,,,*7A
$GAGNS,192957.00,,,,,,04,,,,,*77
$GBGNS,192957.00,,,,,,07,,,,,*77
$GPLLQ,192957.00,010125,,M,,M,1,19,6.969,,M*18
$GPVTG,,T,,M,0.01,N,0.01,K,D*26
$GPHDT,,T*1B
$GPTHS,,V*0E
$GPROT,,V*08
$PSSN,HRP,192957.00,010125,,,,,,,00,0,,*60
$PTNL,AVR,192957.00,,Yaw,,Tilt,,,,0,,00*36
$GPGSA,A,3,16,18,23,27,,,,,,,,,1.7,0.9,1.5*33
$GPGSA,A,3,67,73,80,82,,,,,,,,,1.7,0.9,1.5*3E
$GPGSA,A,3,13,15,21,26,,,,,,,,,1.7,0.9,1.5*38
$GPGSA,A,3,14,23,28,33,37,42,43,,,,,,1.7,0.9,1.5*32
$GPGST,192957.00,4.978,1.696,0.945,7.485,1.686,0.963,6.693*55
$GPGBS,192957.00,6.782,4.671,24.125,27,0.0001,-1.435,0.631*4F
$GPGRS,192957.00,1,0.8,-0.4,0.3,-1.4,,,,,,,,*45
$GPGRS,192957.00,1,13.3,4.7,-3.6,1.3,,,,,,,,*57
$GPGRS,192957.00,1,2.3,0.5,1.0,4.2,,,,,,,,*4C
$GPGRS,192957.00,1,1.0,0.4,1.4,-0.3,-4.3,5.2,2.8,,,,,*68
$GPGSV,4,1,15,16,61,226,49,08,23,297,28,26,37,193,32,15,15,060,30*73
$GPGSV,4,2,15,10,41,168,25,18,41,060,46,27,57,301,39,23,59,102,40*7A
$GPGSV,4,3,15,13,05,030,,07,09,319,29,29,02,109,,36,35,170,40*70
$GPGSV,4,4,15,34,31,208,,49,34,195,37,61,03,257,*45
$GLGSV,3,1,10,83,66,327,33,84,14,267,20,80,21,201,43,68,10,139,*68
$GLGSV,3,2,10,66,23,034,34,67,32,093,37,74,30,321,34,82,46,052,46*60
$GLGSV,3,3,10,73,47,264,49,81,04,074,*60
$GAGSV,3,1,10,13,81,031,44,23,42,302,,03,10,063,,27,19,165,29*67
$GAGSV,3,2,10,15,27,058,36,14,40,288,,26,41,245,37,21,60,213,42*67
$GAGSV,3,3,10,05,03,016,,08,04,110,*64
$GBGSV,5,1,20,28,60,286,48,23,14,203,35,60,11,108,,21,14,035,33*6D
$GBGSV,5,2,20,46,20,313,,38,17,037,,05,22,128,,27,16,274,27*6E
$GBGSV,5,3,20,33,22,145,42,50,26,056,,08,31,038,34,58,31,298,*61
$GBGSV,5,4,20,11,28,081,27,13,38,045,34,14,33,118,37,37,34,254,37*6C
$GBGSV,5,5,20,42,35,084,36,43,50,081,44,34,05,089,,02,08,106,*65
$GPGGA,192957.00,,,,,0,00,,,M,,M,,*49
$PTNL,GGK,192957.00,010125,4742.4466972,N,01617.9730122,E,1,19,1.7,EHT670.2076,M*43
$GPGGQ,192957.00,010125,4742.4466972,N,01617.9730122,E,1,19,6.969,626.9965,M*38
$GPGFA,192957.00,16.123,54.886,1.696,0.945,7.485,6.693,,VVV*06
$GPLLK,192957.00,010125,,M,,M,1,19,2.0,,M*00
$GNGMP,192957.00,,,,,DAAA,19,0.9,,,,*56
$GPGMP,192957.00,,,,,,04,,,,2.0,123*7A
$GLGMP,192957.00,,,,,,04,,,,,*7A
$GAGMP,192957.00,,,,,,04,,,,,*77
$GBGMP,192957.00,,,,,,07,,,,,*77
$PSSN,SNC,[0,329415000,2347]*4C
$GPZDA,193002.00,01,01,2025,,*6A
$GPDTM,W84,,00.0000000,N,00.0000000,E,00.0000000,W84*5F
$GPRMC,193002.00,A,4742.4467108,N,01617.9730040,E,0.0,,010125,5.1,E,D*11
$GPGLL,4742.4467108,N,01617.9730040,E,193002.00,A,D*60
$GPGGA,193002.00,4742.4467108,N,01617.9730040,E,2,19,0.8,626.9940,M,43.2111,M,3.0,0123*4C
$GNGNS,193002.00,4742.4467108,N,01617.9730040,E,DAAA,19,0.8,626.9940,43.2111,,*53
$GPGNS,193002.00,,,,,,04,,,,3.0,123*73
$GLGNS,193002.00,,,,,,05,,,,,*73
$GAGNS,193002.00,,,,,,03,,,,,*78
$GBGNS,193002.00,,,,,,07,,,,,*7F
$GPLLQ,193002.00,010125,,M,,M,1,19,8.694,,M*13
$GPVTG,,T,,M,0.01,N,0.02,K,D*25
$GPHDT,,T*1B
$GPTHS,,V*0E
$GPROT,,V*08
$PSSN,HRP,193002.00,010125,,,,,,,00,0,,*68
$PTNL,AVR,193002.00,,Yaw,,Tilt,,,,0,,00*3E
$GPGSA,A,3,16,18,23,27,,,,,,,,,1.5,0.8,1.3*36
$GPGSA,A,3,67,73,74,80,82,,,,,,,,1.5,0.8,1.3*38
$GPGSA,A,3,13,21,26,,,,,,,,,,1.5,0.8,1.3*39
$GPGSA,A,3,14,23,28,33,37,42,43,,,,,,1.5,0.8,1.3*37
$GPGST,193002.00,5.685,2.098,1.195,7.450,2.086,1.216,8.352*5D
$GPGBS,193002.00,6.756,4.678,24.896,67,0.0001,16.750,6.148*56
$GPGRS,193002.00,1,0.8,-1.2,1.7,-1.2,,,,,,,,*49
$GPGRS,193002.00,1,16.7,4.3,-1.8,-3.2,1.0,,,,,,,*57
$GPGRS,193002.00,1,1.6,0.8,4.1,,,,,,,,,*63
$GPGRS,193002.00,1,-3.3,0.3,1.4,-0.5,-4.1,4.2,0.8,,,,,*4C
$GPGSV,4,1,15,16,61,226,49,08,23,297,32,26,37,193,35,15,15,060,29*77
$GPGSV,4,2,15,10,41,168,29,18,41,060,45,27,57,301,39,23,59,102,39*7B
$GPGSV,4,3,15,13,05,030,,07,09,319,30,29,02,109,,36,35,170,39*76
$GPGSV,4,4,15,34,31,208,,49,34,195,37,61,03,257,*45
$GLGSV,3,1,10,83,66,327,33,84,14,267,27,80,21,201,44,68,10,139,*68
$GLGSV,3,2,10,66,23,034,27,67,32,093,35,74,30,321,35,82,46,052,46*61
$GLGSV,3,3,10,73,47,264,49,81,04,074,*60
$GAGSV,3,1,10,13,81,031,45,23,42,302,,03,10,063,,27,19,165,27*68
$GAGSV,3,2,10,15,27,058,35,14,40,288,,26,41,245,37,21,59,213,43*6F
$GAGSV,3,3,10,05,03,016,,08,04,110,*64
$GBGSV,5,1,20,28,60,286,49,23,14,203,36,60,11,108,,21,14,035,29*64
$GBGSV,5,2,20,46,20,313,,38,17,037,,05,22,128,,27,16,274,24*6D
$GBGSV,5,3,20,33,22,145,42,50,26,056,,08,31,038,34,58,31,298,*61
$GBGSV,5,4,20,11,28,081,29,13,38,045,33,14,33,118,35,37,34,254,38*68
$GBGSV,5,5,20,42,35,084,36,43,50,081,45,34,05,089,,02,08,106,*64
$GPGGA,193002.00,,,,,0,00,,,M,,M,,*41
$PTNL,GGK,193002.00,010125,4742.4467108,N,01617.9730040,E,1,19,1.5,EHT670.2051,M*4D
$GPGGQ,193002.00,010125,4742.4467108,N,01617.9730040,E,1,19,8.694,626.9940,M*35
$GPGFA,193002.00,19.949,68.483,2.098,1.195,7.450,8.352,,VVV*02
$GPLLK,193002.00,010125,,M,,M,1,19,1.8,,M*03
$GNGMP,193002.00,,,,,DAAA,19,0.8,,,,*5F
$GPGMP,193002.00,,,,,,04,,,,3.0,123*73
$GLGMP,193002.00,,,,,,05,,,,,*73
$GAGMP,193002.00,,,,,,03,,,,,*78
$GBGMP,193002.00,,,,,,07,,,,,*7F
$PSSN,SNC,[0,329420000,2347]*4A
$GPZDA,193007.00,01,01,2025,,*6F
$GPDTM,W84,,00.0000000,N,00.0000000,E,00.0000000,W84*5F
$GPRMC,193007.00,A,4742.4467224,N,01617.9729935,E,0.0,,010125,5.1,E,D*1A
$GPGLL,4742.4467224,N,01617.9729935,E,193007.00,A,D*6B
$GPGGA,193007.00,4742.4467224,N,01617.9729935,E,2,17,1.0,626.9843,M,43.2111,M,4.0,0123*45
$GNGNS,193007.00,4742.4467224,N,01617.9729935,E,DAAA,17,1.0,626.9843,43.2111,,*5D
$GPGNS,193007.00,,,,,,05,,,,4.0,123*70
$GLGNS,193007.00,,,,,,04,,,,,*77
$GAGNS,193007.00,,,,,,03,,,,,*7D
$GBGNS,193007.00,,,,,,05,,,,,*78
$GPLLQ,193007.00,010125,,M,,M,1,17,5.183,,M*14
$GPVTG,,T,,M,0.01,N,0.02,K,D*25
$GPHDT,,T*1B
$GPTHS,,V*0E
$GPROT,,V*08
$PSSN,HRP,193007.00,010125,,,,,,,00,0,,*6D
$PTNL,AVR,193007.00,,Yaw,,Tilt,,,,0,,00*3B
$GPGSA,A,3,16,18,23,26,27,,,,,,,,1.9,1.0,1.7*33
$GPGSA,A,3,67,73,80,82,,,,,,,,,1.9,1.0,1.7*3A
$GPGSA,A,3,13,21,26,,,,,,,,,,1.9,1.0,1.7*38
$GPGSA,A,3,23,28,33,37,43,,,,,,,,1.9,1.0,1.7*35
$GPGST,193007.00,7.597,1.532,0.994,324.871,1.377,1.199,4.851*57
$GPGBS,193007.00,4.230,4.237,13.663,67,0.0001,22.778,6.144*5A
$GPGRS,193007.00,1,-0.0,-1.5,1.7,-0.0,-0.5,,,,,,,*6B
$GPGRS,193007.00,1,22.8,3.2,-3.2,0.3,,,,,,,,*54
$GPGRS,193007.00,1,1.1,0.6,2.8,,,,,,,,,*60
$GPGRS,193007.00,1,0.3,0.9,-0.9,-4.5,-0.4,,,,,,,*47
$GPGSV,4,1,15,16,61,226,49,08,23,297,35,26,36,193,36,15,15,060,*79
$GPGSV,4,2,15,10,41,168,32,18,41,060,44,27,57,301,40,23,59,102,39*7E
$GPGSV,4,3,15,13,05,030,,07,09,319,29,29,02,109,,36,35,170,39*7E
$GPGSV,4,4,15,34,31,208,,49,34,195,37,61,03,257,*45
$GLGSV,3,1,10,83,66,328,34,84,14,267,27,80,21,201,44,68,10,139,*60
$GLGSV,3,2,10,66,23,034,28,67,32,093,38,74,30,321,35,82,46,052,44*61
$GLGSV,3,3,10,73,47,264,48,81,04,074,*61
$GAGSV,3,1,10,13,81,032,45,23,42,302,,03,10,063,,27,19,165,38*65
$GAGSV,3,2,10,15,27,058,35,14,41,288,,26,41,245,38,21,59,213,44*66
$GAGSV,3,3,10,05,03,016,,08,04,110,*64
$GBGSV,5,1,20,28,60,287,49,23,14,203,37,60,11,108,,21,14,035,24*69
$GBGSV,5,2,20,46,20,313,,38,17,037,,05,22,128,,27,16,274,27*6E
$GBGSV,5,3,20,33,22,145,43,50,26,056,,08,31,038,34,58,31,298,*60
$GBGSV,5,4,20,11,27,081,30,13,38,045,33,14,33,118,35,37,34,254,39*6E
$GBGSV,5,5,20,42,35,084,35,43,50,081,45,34,05,089,,02,08,106,*67
$GPGGA,193007.00,,,,,0,00,,,M,,M,,*44
$PTNL,GGK,193007.00,010125,4742.4467224,N,01617.9729935,E,1,17,1.9,EHT670.1954,M*4B
$GPGGQ,193007.00,010125,4742.4467224,N,01617.9729935,E,1,17,5.183,626.9843,M*3E
$GPGFA,193007.00,14.563,39.774,1.532,0.994,324.871,4.851,,VVV*06
$GPLLK,193007.00,010125,,M,,M,1,17,2.3,,M*00
$GNGMP,193007.00,,,,,DAAA,17,1.0,,,,*5D
$GPGMP,193007.00,,,,,,05,,,,4.0,123*70
$GLGMP,193007.00,,,,,,04,,,,,*77
$GAGMP,193007.00,,,,,,03,,,,,*7D
$GBGMP,193007.00,,,,,,05,,,,,*78
$PSSN,SNC,[0,329425000,2347]*4F
$GPZDA,193012.00,01,01,2025,,*6B
$GPDTM,W84,,00.0000000,N,00.0000000,E,00.0000000,W84*5F
$GPRMC,193012.00,A,4742.4467179,N,01617.9729995,E,0.0,,010125,5.1,E,D*1F
$GPGLL,4742.4467179,N,01617.9729995,E,193012.00,A,D*6E
$GPGGA,193012.00,4742.4467179,N,01617.9729995,E,2,17,0.8,626.9667,M,43.2111,M,1.0,0123*44
$GNGNS,193012.00,4742.4467179,N,01617.9729995,E,DAAA,17,0.8,626.9667,43.2111,,*59
$GPGNS,193012.00,,,,,,05,,,,1.0,123*71
$GLGNS,193012.00,,,,,,04,,,,,*73
$GAGNS,193012.00,,,,,,03,,,,,*79
$GBGNS,193012.00,,,,,,05,,,,,*7C
$GPLLQ,193012.00,010125,,M,,M,1,17,4.365,,M*1B
$GPVTG,,T,,M,0.01,N,0.01,K,D*26
$GPHDT,,T*1B
$GPTHS,,V*0E
$GPROT,,V*08
$PSSN,HRP,193012.00,010125,,,,,,,00,0,,*69
$PTNL,AVR,193012.00,,Yaw,,Tilt,,,,0,,00*3F
$GPGSA,A,3,16,18,23,26,27,,,,,,,,1.6,0.8,1.4*36
$GPGSA,A,3,73,74,80,82,,,,,,,,,1.6,0.8,1.4*3D
$GPGSA,A,3,13,21,26,,,,,,,,,,1.6,0.8,1.4*3D
$GPGSA,A,3,14,23,28,33,43,,,,,,,,1.6,0.8,1.4*31
$GPGST,193012.00,2.170,1.290,0.844,324.272,1.158,1.018,4.084*56
$GPGBS,193012.00,3.911,3.984,12.651,18,0.0001,-1.931,0.699*43
$GPGRS,193012.00,1,0.0,-1.9,1.4,-1.1,1.1,,,,,,,*65
$GPGRS,193012.00,1,1.4,-4.1,-2.3,0.2,,,,,,,,*45
$GPGRS,193012.00,1,1.5,0.7,1.6,,,,,,,,,*6C
$GPGRS,193012.00,1,-3.0,-0.2,0.6,-0.4,-0.4,,,,,,,*6F
$GPGSV,4,1,15,16,61,226,49,08,23,297,34,26,36,193,38,15,15,060,*76
$GPGSV,4,2,15,10,41,168,34,18,41,060,43,27,58,301,40,23,59,102,39*70
$GPGSV,4,3,15,13,05,030,,07,09,319,35,29,02,109,,36,35,170,40*7D
$GPGSV,4,4,15,34,31,208,,49,34,195,38,61,03,257,*4A
$GLGSV,3,1,10,83,66,328,35,84,14,267,29,80,21,201,44,68,10,139,*6F
$GLGSV,3,2,10,66,22,034,,67,32,093,37,74,30,321,38,82,46,052,42*6E
$GLGSV,3,3,10,73,47,264,48,81,04,074,*61
$GAGSV,3,1,10,13,81,032,45,23,42,302,,03,10,063,,27,18,165,22*6F
$GAGSV,3,2,10,15,27,058,34,14,41,288,,26,41,245,38,21,59,213,45*66
$GAGSV,3,3,10,05,03,016,,08,04,110,*64
$GBGSV,5,1,20,28,60,287,48,23,14,203,37,60,11,108,,21,14,035,22*6E
$GBGSV,5,2,20,46,20,313,,38,17,037,,05,22,128,,27,16,274,26*6F
$GBGSV,5,3,20,33,22,145,42,50,26,056,,08,31,038,33,58,31,298,*66
$GBGSV,5,4,20,11,27,081,30,13,38,045,33,14,33,118,36,37,34,254,27*62
$GBGSV,5,5,20,42,35,084,33,43,50,081,46,34,05,089,,02,08,106,*62
$GPGGA,193012.00,,,,,0,00,,,M,,M,,*40
$PTNL,GGK,193012.00,010125,4742.4467179,N,01617.9729995,E,1,17,1.6,EHT670.1777,M*4E
$GPGGQ,193012.00,010125,4742.4467179,N,01617.9729995,E,1,17,4.365,626.9667,M*38
$GPGFA,193012.00,12.266,33.486,1.290,0.844,324.272,4.084,,VVV*08
$GPLLK,193012.00,010125,,M,,M,1,17,1.9,,M*0D
$GNGMP,193012.00,,,,,DAAA,17,0.8,,,,*50
$GPGMP,193012.00,,,,,,05,,,,1.0,123*71
$GLGMP,193012.00,,,,,,04,,,,,*73
$GAGMP,193012.00,,,,,,03,,,,,*79
$GBGMP,193012.00,,,,,,05,,,,,*7C
$PSSN,SNC,[0,329430000,2347]*4B
$GPZDA,193017.00,01,01,2025,,*6E
$GPDTM,W84,,00.0000000,N,00.0000000,E,00.0000000,W84*5F
$GPRMC,193017.00,A,4742.4467124,N,01617.9730100,E,0.0,,010125,5.1,E,D*1E
$GPGLL,4742.4467124,N,01617.9730100,E,193017.00,A,D*6F
$GPGGA,193017.00,4742.4467124,N,01617.9730100,E,2,18,0.8,626.9284,M,43.2111,M,2.2,0123*42
$GNGNS,193017.00,4742.4467124,N,01617.9730100,E,DAAA,18,0.8,626.9284,43.2111,,*5E
$GPGNS,193017.00,,,,,,05,,,,2.2,123*75
$GLGNS,193017.00,,,,,,05,,,,,*77
$GAGNS,193017.00,,,,,,03,,,,,*7C
$GBGNS,193017.00,,,,,,05,,,,,*79
$GPLLQ,193017.00,010125,,M,,M,1,18,6.812,,M*18
$GPVTG,,T,,M,0.00,N,0.01,K,D*27
$GPHDT,,T*1B
$GPTHS,,V*0E
$GPROT,,V*08
$PSSN,HRP,193017.00,010125,,,,,,,00,0,,*6C
$PTNL,AVR,193017.00,,Yaw,,Tilt,,,,0,,00*3A
$GPGSA,A,3,10,16,18,26,27,,,,,,,,1.6,0.8,1.4*36
$GPGSA,A,3,73,74,80,82,83,,,,,,,,1.6,0.8,1.4*36
$GPGSA,A,3,13,21,26,,,,,,,,,,1.6,0.8,1.4*3D
$GPGSA,A,3,14,23,28,33,43,,,,,,,,1.6,0.8,1.4*31
$GPGST,193017.00,2.002,1.993,0.837,299.099,1.214,1.789,6.460*53
$GPGBS,193017.00,3.989,4.990,21.425,18,0.0001,-2.232,0.713*4C
$GPGRS,193017.00,1,-1.1,0.3,-2.2,-1.1,1.8,,,,,,,*4A
$GPGRS,193017.00,1,2.2,-2.3,-2.3,-0.7,-3.0,,,,,,,*69
$GPGRS,193017.00,1,1.7,0.9,1.9,,,,,,,,,*6A
$GPGRS,193017.00,1,-0.9,0.2,0.8,0.3,-0.2,,,,,,,*6F
$GPGSV,4,1,16,16,61,226,48,08,23,297,31,26,36,193,40,15,15,060,32*7F
$GPGSV,4,2,16,10,42,168,35,18,41,060,42,27,58,301,41,23,59,102,41*7E
$GPGSV,4,3,16,21,00,251,,13,05,030,,07,09,318,34,29,02,109,*7A
$GPGSV,4,4,16,36,35,170,40,34,31,208,,49,34,195,37,61,03,257,*77
$GLGSV,3,1,10,83,66,328,35,84,14,267,,80,21,201,44,68,11,139,*65
$GLGSV,3,2,10,66,22,034,34,67,32,093,30,74,30,321,39,82,46,052,41*6C
$GLGSV,3,3,10,73,47,264,47,81,04,074,*6E
$GAGSV,3,1,10,13,81,032,46,23,42,302,,03,10,063,,27,18,165,26*68
$GAGSV,3,2,10,15,27,058,34,14,41,288,,26,41,245,37,21,59,213,46*6A
$GAGSV,3,3,10,05,03,016,,08,04,109,*6C
$GBGSV,5,1,20,28,60,287,48,23,14,203,38,60,11,108,,21,14,035,22*61
$GBGSV,5,2,20,46,20,313,,38,17,037,,05,22,128,,27,16,274,25*6C
$GBGSV,5,3,20,33,22,145,42,50,26,056,,08,31,038,33,58,31,298,*66
$GBGSV,5,4,20,11,27,081,33,13,38,045,33,14,33,118,37,37,34,254,29*6E
$GBGSV,5,5,20,42,35,084,32,43,50,081,46,34,05,089,,02,08,106,*63
$GPGGA,193017.00,,,,,0,00,,,M,,M,,*45
$PTNL,GGK,193017.00,010125,4742.4467124,N,01617.9730100,E,1,18,1.6,EHT670.1395,M*48
$GPGGQ,193017.00,010125,4742.4467124,N,01617.9730100,E,1,18,6.812,626.9284,M*36
$GPGFA,193017.00,18.953,52.968,1.993,0.837,299.099,6.460,,VVV*00
$GPLLK,193017.00,010125,,M,,M,1,18,1.9,,M*07
$GNGMP,193017.00,,,,,DAAA,18,0.8,,,,*5A
$GPGMP,193017.00,,,,,,05,,,,2.2,123*75
$GLGMP,193017.00,,,,,,05,,,,,*77
$GAGMP,193017.00,,,,,,03,,,,,*7C
$GBGMP,193017.00,,,,,,05,,,,,*79
$PSSN,SNC,[0,329435000,2347]*4E
$GPZDA,193022.00,01,01,2025,,*68
$GPDTM,W84,,00.0000000,N,00.0000000,E,00.0000000,W84*5F
$GPRMC,193022.00,A,4742.4467052,N,01617.9730358,E,0.0,,010125,5.1,E,D*17
$GPGLL,4742.4467052,N,01617.9730358,E,193022.00,A,D*66
$GPGGA,193022.00,4742.4467052,N,01617.9730358,E,2,20,0.7,626.9045,M,43.2111,M,3.2,0123*41
$GNGNS,193022.00,4742.4467052,N,01617.9730358,E,DAAA,20,0.7,626.9045,43.2111,,*5C
$GPGNS,193022.00,,,,,,06,,,,3.2,123*71
$GLGNS,193022.00,,,,,,05,,,,,*71
$GAGNS,193022.00,,,,,,03,,,,,*7A
$GBGNS,193022.00,,,,,,06,,,,,*7C
$GPLLQ,193022.00,010125,,M,,M,1,20,5.457,,M*1B
$GPVTG,,T,,M,0.01,N,0.01,K,D*26
$GPHDT,,T*1B
$GPTHS,,V*0E
$GPROT,,V*08
$PSSN,HRP,193022.00,010125,,,,,,,00,0,,*6A
$PTNL,AVR,193022.00,,Yaw,,Tilt,,,,0,,00*3C
$GPGSA,A,3,10,16,18,23,26,27,,,,,,,1.5,0.7,1.3*3C
$GPGSA,A,3,73,74,80,82,83,,,,,,,,1.5,0.7,1.3*3D
$GPGSA,A,3,13,21,26,,,,,,,,,,1.5,0.7,1.3*36
$GPGSA,A,3,14,23,28,33,42,43,,,,,,,1.5,0.7,1.3*3C
$GPGST,193022.00,3.339,1.587,1.048,316.837,1.362,1.328,5.115*56
$GPGBS,193022.00,3.439,3.835,13.367,23,0.0001,2.081,0.646*6B
$GPGRS,193022.00,1,-1.9,-0.5,-2.1,2.1,1.0,1.3,,,,,,*66
$GPGRS,193022.00,1,1.4,1.2,-2.8,-1.6,-4.7,,,,,,,*4E
$GPGRS,193022.00,1,0.9,0.0,1.7,,,,,,,,,*64
$GPGRS,193022.00,1,0.5,-1.0,0.1,-0.0,9.3,-1.7,,,,,,*61
$GPGSV,4,1,16,16,61,226,49,08,23,297,28,26,36,193,42,15,15,060,*75
$GPGSV,4,2,16,10,42,168,36,18,41,060,41,27,58,301,41,23,59,102,43*7C
$GPGSV,4,3,16,21,00,251,,13,05,030,,07,09,318,32,29,02,109,*7C
$GPGSV,4,4,16,36,35,170,40,34,31,208,,49,34,195,37,61,03,257,*77
$GLGSV,3,1,10,83,66,328,36,84,14,267,33,80,21,201,43,68,11,139,*61
$GLGSV,3,2,10,66,22,034,32,67,32,093,33,74,30,321,38,82,46,052,39*67
$GLGSV,3,3,10,73,47,264,46,81,04,074,*6F
$GAGSV,3,1,10,13,81,032,46,23,42,302,,03,10,063,,27,18,165,30*6F
$GAGSV,3,2,10,15,27,058,33,14,41,288,,26,41,245,36,21,59,213,46*6C
$GAGSV,3,3,10,05,03,016,,08,04,109,*6C
$GBGSV,5,1,20,28,60,287,48,23,14,203,39,60,11,108,,21,14,035,25*67
$GBGSV,5,2,20,46,20,313,,38,17,037,,05,22,128,,27,16,274,33*6B
$GBGSV,5,3,20,33,22,145,42,50,26,056,,08,31,038,34,58,31,298,*61
$GBGSV,5,4,20,11,27,081,25,13,38,045,34,14,33,118,39,37,34,254,33*6B
$GBGSV,5,5,20,42,35,084,39,43,50,081,45,34,05,089,,02,08,106,*6B
$GPGGA,193022.00,,,,,0,00,,,M,,M,,*43
$PTNL,GGK,193022.00,010125,4742.4467052,N,01617.9730358,E,1,20,1.5,EHT670.1156,M*44
$GPGGQ,193022.00,010125,4742.4467052,N,01617.9730358,E,1,20,5.457,626.9045,M*35
$GPGFA,193022.00,15.087,41.941,1.587,1.048,316.837,5.115,,VVV*04
$GPLLK,193022.00,010125,,M,,M,1,20,1.8,,M*0B
$GNGMP,193022.00,,,,,DAAA,20,0.7,,,,*58
$GPGMP,193022.00,,,,,,06,,,,3.2,123*71
$GLGMP,193022.00,,,,,,05,,,,,*71
$GAGMP,193022.00,,,,,,03,,,,,*7A
$GBGMP,193022.00,,,,,,06,,,,,*7C
$PSSN,SNC,[0,329440000,2347]*4C
$GPZDA,193027.00,01,01,2025,,*6D
$GPDTM,W84,,00.0000000,N,00.0000000,E,00.0000000,W84*5F
$GPRMC,193027.00,A,4742.4467071,N,01617.9730475,E,0.0,,010125,5.1,E,D*1B
$GPGLL,4742.4467071,N,01617.9730475,E,193027.00,A,D*6A
$GPGGA,193027.00,4742.4467071,N,01617.9730475,E,2,20,0.7,626.8931,M,43.2111,M,3.5,0123*41
$GNGNS,193027.00,4742.4467071,N,01617.9730475,E,DAAA,20,0.7,626.8931,43.2111,,*5B
$GPGNS,193027.00,,,,,,06,,,,3.5,123*73
$GLGNS,193027.00,,,,,,05,,,,,*74
$GAGNS,193027.00,,,,,,02,,,,,*7E
$GBGNS,193027.00,,,,,,07,,,,,*78
$GPLLQ,193027.00,010125,,M,,M,1,20,4.751,,M*1A
$GPVTG,,T,,M,0.00,N,0.01,K,D*27
$GPHDT,,T*1B
$GPTHS,,V*0E
$GPROT,,V*08
$PSSN,HRP,193027.00,010125,,,,,,,00,0,,*6F
$PTNL,AVR,193027.00,,Yaw,,Tilt,,,,0,,00*39
$GPGSA,A,3,10,16,18,23,26,27,,,,,,,1.5,0.7,1.3*3C
$GPGSA,A,3,73,74,80,82,83,,,,,,,,1.5,0.7,1.3*3D
$GPGSA,A,3,13,21,,,,,,,,,,,1.5,0.7,1.3*32
$GPGSA,A,3,11,14,23,28,33,42,43,,,,,,1.5,0.7,1.3*3C
$GPGST,193027.00,3.025,1.308,0.914,316.774,1.141,1.117,4.475*5A
$GPGBS,193027.00,3.537,3.942,13.945,18,0.0001,-1.937,0.751*4F
$GPGRS,193027.00,1,-1.3,-0.7,-1.9,0.8,1.5,1.5,,,,,,*68
$GPGRS,193027.00,1,0.3,-3.1,-3.1,-2.9,-4.8,,,,,,,*6A
$GPGRS,193027.00,1,0.4,-0.5,,,,,,,,,,*6C
$GPGRS,193027.00,1,0.2,2.9,-2.1,-0.5,-0.2,6.3,-2.0,,,,,*64
$GPGSV,4,1,16,16,61,226,49,08,23,297,26,26,36,193,41,15,15,060,31*7A
$GPGSV,4,2,16,10,42,168,36,18,41,060,39,27,58,301,42,23,59,102,44*77
$GPGSV,4,3,16,21,00,251,,13,05,030,,07,09,318,34,29,02,109,*7A
$GPGSV,4,4,16,36,35,170,40,34,31,208,,49,34,195,37,61,03,257,*77
$GLGSV,3,1,10,83,66,328,37,84,14,267,34,80,21,201,43,68,11,139,*67
$GLGSV,3,2,10,66,22,034,35,67,32,093,36,74,30,321,36,82,46,052,38*6A
$GLGSV,3,3,10,73,46,264,47,81,04,074,*6F
$GAGSV,3,1,10,13,81,032,47,23,42,302,,03,10,063,,27,18,165,33*6D
$GAGSV,3,2,10,15,27,058,34,14,41,288,,26,41,245,33,21,59,212,47*6E
$GAGSV,3,3,10,05,03,016,,08,04,109,*6C
$GBGSV,5,1,20,28,60,287,47,23,14,203,39,60,11,108,,21,14,035,26*6B
$GBGSV,5,2,20,46,20,313,,38,17,037,,05,22,128,,27,16,274,24*6D
$GBGSV,5,3,20,33,22,145,42,50,26,056,,08,31,038,34,58,31,298,*61
$GBGSV,5,4,20,11,27,081,35,13,38,045,33,14,33,118,40,37,34,254,34*64
$GBGSV,5,5,20,42,35,084,39,43,50,081,46,34,05,089,,02,08,106,*68
$GPGGA,193027.00,,,,,0,00,,,M,,M,,*46
$PTNL,GGK,193027.00,010125,4742.4467071,N,01617.9730475,E,1,20,1.5,EHT670.1041,M*4F
$GPGGQ,193027.00,010125,4742.4467071,N,01617.9730475,E,1,20,4.751,626.8931,M*36
$GPGFA,193027.00,12.438,36.695,1.308,0.914,316.774,4.475,,VVV*0A
$GPLLK,193027.00,010125,,M,,M,1,20,1.7,,M*01
$GNGMP,193027.00,,,,,DAAA,20,0.7,,,,*5D
$GPGMP,193027.00,,,,,,06,,,,3.5,123*73
$GLGMP,193027.00,,,,,,05,,,,,*74
$GAGMP,193027.00,,,,,,02,,,,,*7E
$GBGMP,193027.00,,,,,,07,,,,,*78
$PSSN,SNC,[0,329445000,2347]*49
$GPZDA,193032.00,01,01,2025,,*69
$GPDTM,W84,,00.0000000,N,00.0000000,E,00.0000000,W84*5F
$GPRMC,193032.00,A,4742.4467024,N,01617.9730589,E,0.0,,010125,5.1,E,D*1D
$GPGLL,4742.4467024,N,01617.9730589,E,193032.00,A,D*6C
$GPGGA,193032.00,4742.4467024,N,01617.9730589,E,2,19,0.7,626.8715,M,43.2111,M,1.0,0123*42
$GNGNS,193032.00,4742.4467024,N,01617.9730589,E,DAAA,19,0.7,626.8715,43.2111,,*5F
$GPGNS,193032.00,,,,,,05,,,,1.0,123*73
$GLGNS,193032.00,,,,,,06,,,,,*73
$GAGNS,193032.00,,,,,,02,,,,,*7A
$GBGNS,193032.00,,,,,,06,,,,,*7D
$GPLLQ,193032.00,010125,,M,,M,1,19,5.201,,M*15
$GPVTG,,T,,M,0.00,N,0.01,K,D*27
$GPHDT,,T*1B
$GPTHS,,V*0E
$GPROT,,V*08
$PSSN,HRP,193032.00,010125,,,,,,,00,0,,*6B
$PTNL,AVR,193032.00,,Yaw,,Tilt,,,,0,,00*3D
$GPGSA,A,3,16,18,23,26,27,,,,,,,,1.4,0.7,1.2*3D
$GPGSA,A,3,66,73,74,80,82,83,,,,,,,1.4,0.7,1.2*3D
$GPGSA,A,3,13,21,,,,,,,,,,,1.4,0.7,1.2*32
$GPGSA,A,3,14,23,28,33,42,43,,,,,,,1.4,0.7,1.2*3C
$GPGST,193032.00,5.540,1.554,1.016,323.893,1.391,1.230,4.858*51
$GPGBS,193032.00,3.909,4.012,12.506,26,0.0001,-2.607,0.720*4F
$GPGRS,193032.00,1,-0.0,-1.7,0.5,-2.6,1.7,,,,,,,*46
$GPGRS,193032.00,1,12.4,1.0,-9.7,-2.1,-3.3,-1.8,,,,,,*76
$GPGRS,193032.00,1,0.7,-0.1,,,,,,,,,,*6F
$GPGRS,193032.00,1,7.6,-2.1,-0.2,0.3,4.9,-0.6,,,,,,*61
$GPGSV,4,1,16,16,61,226,50,08,23,297,29,26,36,193,39,15,15,060,*70
$GPGSV,4,2,16,10,42,168,35,18,41,060,38,27,58,301,43,23,59,102,44*74
$GPGSV,4,3,16,21,00,251,,13,05,030,,07,09,318,36,29,02,109,*78
$GPGSV,4,4,16,36,35,170,40,34,31,208,,49,34,195,37,61,03,257,*77
$GLGSV,3,1,10,83,66,328,37,84,14,267,34,80,21,201,42,68,11,139,*66
$GLGSV,3,2,10,66,22,034,35,67,32,093,35,74,30,321,37,82,46,052,37*67
$GLGSV,3,3,10,73,46,264,46,81,04,074,*6E
$GAGSV,3,1,10,13,81,032,47,23,42,302,,03,10,063,,27,18,165,34*6A
$GAGSV,3,2,10,15,27,058,34,14,41,288,,26,41,245,33,21,59,212,47*6E
$GAGSV,3,3,10,05,03,016,,08,04,109,*6C
$GBGSV,5,1,20,28,60,287,47,23,14,203,39,60,11,108,,21,14,035,24*69
$GBGSV,5,2,20,46,20,313,,38,17,037,,05,22,128,,27,16,274,21*68
$GBGSV,5,3,20,33,22,145,42,50,26,056,,08,31,038,34,58,31,298,*61
$GBGSV,5,4,20,11,27,081,26,13,38,045,34,14,33,118,40,37,34,254,34*61
$GBGSV,5,5,20,42,35,084,39,43,50,081,46,34,05,089,,02,08,106,*68
$GPGGA,193032.00,,,,,0,00,,,M,,M,,*42
$PTNL,GGK,193032.00,010125,4742.4467024,N,01617.9730589,E,1,19,1.4,EHT670.0825,M*49
$GPGGQ,193032.00,010125,4742.4467024,N,01617.9730589,E,1,19,5.201,626.8715,M*33
$GPGFA,193032.00,14.775,39.840,1.554,1.016,323.893,4.858,,VVV*0D
$GPLLK,193032.00,010125,,M,,M,1,19,1.6,,M*0E
$GNGMP,193032.00,,,,,DAAA,19,0.7,,,,*53
$GPGMP,193032.00,,,,,,05,,,,1.0,123*73
$GLGMP,193032.00,,,,,,06,,,,,*73
$GAGMP,193032.00,,,,,,02,,,,,*7A
$GBGMP,193032.00,,,,,,06,,,,,*7D
$PSSN,SNC,[0,329450000,2347]*4D
$GPZDA,193037.00,01,01,2025,,*6C
$GPDTM,W84,,00.0000000,N,00.0000000,E,00.0000000,W84*5F
$GPRMC,193037.00,A,4742.4466993,N,01617.9730796,E,0.0,,010125,5.1,E,D*10
$GPGLL,4742.4466993,N,01617.9730796,E,193037.00,A,D*61
$GPGGA,193037.00,4742.4466993,N,01617.9730796,E,2,18,0.8,626.8638,M,43.2111,M,3.0,0123*4D
$GNGNS,193037.00,4742.4466993,N,01617.9730796,E,DAAA,18,0.8,626.8638,43.2111,,*52
$GPGNS,193037.00,,,,,,04,,,,3.0,123*75
$GLGNS,193037.00,,,,,,05,,,,,*75
$GAGNS,193037.00,,,,,,03,,,,,*7E
$GBGNS,193037.00,,,,,,06,,,,,*78
$GPLLQ,193037.00,010125,,M,,M,1,18,6.318,,M*1B
$GPVTG,,T,,M,0.01,N,0.01,K,D*26
$GPHDT,,T*1B
$GPTHS,,V*0E
$GPROT,,V*08
$PSSN,HRP,193037.00,010125,,,,,,,00,0,,*6E
$PTNL,AVR,193037.00,,Yaw,,Tilt,,,,0,,00*38
$GPGSA,A,3,16,18,23,27,,,,,,,,,1.5,0.8,1.3*36
$GPGSA,A,3,73,74,80,82,83,,,,,,,,1.5,0.8,1.3*32
$GPGSA,A,3,13,21,27,,,,,,,,,,1.5,0.8,1.3*38
$GPGSA,A,3,11,14,23,28,33,43,,,,,,,1.5,0.8,1.3*35
$GPGST,193037.00,4.946,1.593,1.002,3.898,1.590,1.006,6.031*5E
$GPGBS,193037.00,6.126,4.635,18.244,27,0.0001,1.746,0.621*69
$GPGRS,193037.00,1,-0.2,-1.1,-0.5,1.7,,,,,,,,*6D
$GPGRS,193037.00,1,1.0,-7.9,-2.2,-3.8,-0.4,,,,,,,*6F
$GPGRS,193037.00,1,0.4,-0.5,3.9,,,,,,,,,*49
$GPGRS,193037.00,1,7.1,10.3,-3.1,-0.5,-0.0,0.0,,,,,,*5F
$GPGSV,4,1,16,16,61,226,50,08,23,297,33,26,36,193,37,15,15,060,*75
$GPGSV,4,2,16,10,42,168,40,18,41,060,41,27,58,301,44,23,59,102,43*78
$GPGSV,4,3,16,21,00,251,,13,05,030,,07,09,318,22,29,02,109,*7D
$GPGSV,4,4,16,36,35,170,40,34,31,208,,49,34,195,38,61,03,257,*78
$GLGSV,3,1,10,83,66,328,37,84,14,267,33,80,21,201,42,68,11,139,*61
$GLGSV,3,2,10,66,22,034,34,67,32,093,34,74,30,321,37,82,46,052,37*67
$GLGSV,3,3,10,73,46,264,47,81,04,074,*6F
$GAGSV,3,1,10,13,81,032,47,23,42,302,,03,10,063,,27,18,165,35*6B
$GAGSV,3,2,10,15,27,058,34,14,41,288,,26,41,245,33,21,59,212,47*6E
$GAGSV,3,3,10,05,03,016,,08,04,109,*6C
$GBGSV,5,1,20,28,60,287,47,23,14,203,39,60,11,108,,21,14,035,29*64
$GBGSV,5,2,20,46,20,313,,38,17,037,,05,22,128,,27,16,274,*6B
$GBGSV,5,3,20,33,22,145,41,50,26,056,,08,31,038,34,58,31,298,*62
$GBGSV,5,4,20,11,27,081,36,13,38,045,34,14,33,118,39,37,34,254,34*6E
$GBGSV,5,5,20,42,35,084,29,43,50,081,46,34,05,089,,02,08,106,*69
$GPGGA,193037.00,,,,,0,00,,,M,,M,,*47
$PTNL,GGK,193037.00,010125,4742.4466993,N,01617.9730796,E,1,18,1.5,EHT670.0748,M*40
$GPGGQ,193037.00,010125,4742.4466993,N,01617.9730796,E,1,18,6.318,626.8638,M*3B
$GPGFA,193037.00,15.142,49.453,1.593,1.002,3.898,6.031,,VVV*03
$GPLLK,193037.00,010125,,M,,M,1,18,1.8,,M*04
$GNGMP,193037.00,,,,,DAAA,18,0.8,,,,*58
$GPGMP,193037.00,,,,,,04,,,,3.0,123*75
$GLGMP,193037.00,,,,,,05,,,,,*75
$GAGMP,193037.00,,,,,,03,,,,,*7E
$GBGMP,193037.00,,,,,,06,,,,,*78
$PSSN,SNC,[0,329455000,2347]*48
$GPZDA,193042.00,01,01,2025,,*6E
$GPDTM,W84,,00.0000000,N,00.0000000,E,00.0000000,W84*5F
$GPRMC,193042.00,A,4742.4466937,N,01617.9730873,E,0.0,,010125,5.1,E,D*18
$GPGLL,4742.4466937,N,01617.9730873,E,193042.00,A,D*69
$GPGGA,193042.00,4742.4466937,N,01617.9730873,E,2,22,0.6,626.8643,M,43.2111,M,4.0,0123*49
$GNGNS,193042.00,4742.4466937,N,01617.9730873,E,DAAA,22,0.6,626.8643,43.2111,,*51
$GPGNS,193042.00,,,,,,04,,,,4.0,123*70
$GLGNS,193042.00,,,,,,07,,,,,*75
$GAGNS,193042.00,,,,,,03,,,,,*7C
$GBGNS,193042.00,,,,,,08,,,,,*74
$GPLLQ,193042.00,010125,,M,,M,1,22,6.161,,M*1C
$GPVTG,,T,,M,0.00,N,0.00,K,D*26
$GPHDT,,T*1B
$GPTHS,,V*0E
$GPROT,,V*08
$PSSN,HRP,193042.00,010125,,,,,,,00,0,,*6C
$PTNL,AVR,193042.00,,Yaw,,Tilt,,,,0,,00*3A
$GPGSA,A,3,16,18,23,27,,,,,,,,,1.2,0.6,1.0*3C
$GPGSA,A,3,66,67,73,74,80,82,83,,,,,,1.2,0.6,1.0*39
$GPGSA,A,3,13,21,27,,,,,,,,,,1.2,0.6,1.0*32
$GPGSA,A,3,14,23,27,28,33,37,42,43,,,,,1.2,0.6,1.0*38
$GPGST,193042.00,5.736,1.594,0.987,3.012,1.593,0.989,5.868*57
$GPGBS,193042.00,6.127,4.453,17.699,27,0.0001,1.357,0.641*61
$GPGRS,193042.00,1,-1.0,0.8,-0.7,1.4,,,,,,,,*48
$GPGRS,193042.00,1,-4.4,8.8,1.1,-7.6,-3.1,-2.9,0.1,,,,,*64
$GPGRS,193042.00,1,0.1,-1.0,3.1,,,,,,,,,*42
$GPGRS,193042.00,1,12.4,-4.7,-11.0,-1.5,-1.2,-0.4,1.9,-0.8,,,,*44
$GPGSV,4,1,16,16,61,226,50,08,23,297,34,26,36,193,36,15,15,060,*73
$GPGSV,4,2,16,10,42,168,39,18,41,060,43,27,58,301,42,23,59,102,43*72
$GPGSV,4,3,16,21,00,251,,13,05,030,,07,09,318,25,29,02,109,*7A
$GPGSV,4,4,16,36,35,170,40,34,31,208,,49,34,195,37,61,03,257,*77
$GLGSV,3,1,10,83,66,328,37,84,14,267,33,80,21,201,40,68,11,139,*63
$GLGSV,3,2,10,66,22,034,32,67,32,093,41,74,30,321,36,82,46,052,42*60
$GLGSV,3,3,10,73,46,264,48,81,04,074,*60
$GAGSV,3,1,10,13,81,032,47,23,42,302,,03,10,063,,27,18,165,36*68
$GAGSV,3,2,10,15,27,058,33,14,41,288,,26,41,245,33,21,59,212,47*69
$GAGSV,3,3,10,05,03,016,,08,04,109,*6C
$GBGSV,5,1,20,28,60,287,47,23,14,203,38,60,11,108,,21,14,035,31*6C
$GBGSV,5,2,20,46,20,313,,38,17,037,,05,22,128,,27,16,274,35*6D
$GBGSV,5,3,20,33,22,145,40,50,26,055,,08,31,038,34,58,31,298,*60
$GBGSV,5,4,20,11,27,081,25,13,38,045,34,14,33,118,37,37,34,254,37*61
$GBGSV,5,5,20,42,35,084,37,43,50,081,46,34,05,089,,02,08,106,*66
$GPGGA,193042.00,,,,,0,00,,,M,,M,,*45
$PTNL,GGK,193042.00,010125,4742.4466937,N,01617.9730873,E,1,22,1.2,EHT670.0753,M*4C
$GPGGQ,193042.00,010125,4742.4466937,N,01617.9730873,E,1,22,6.161,626.8643,M*3A
$GPGFA,193042.00,15.160,48.120,1.594,0.987,3.012,5.868,,VVV*0E
$GPLLK,193042.00,010125,,M,,M,1,22,1.4,,M*03
$GNGMP,193042.00,,,,,DAAA,22,0.6,,,,*5D
$GPGMP,193042.00,,,,,,04,,,,4.0,123*70
$GLGMP,193042.00,,,,,,07,,,,,*75
$GAGMP,193042.00,,,,,,03,,,,,*7C
$GBGMP,193042.00,,,,,,08,,,,,*74
$PSSN,SNC,[0,329460000,2347]*4E
$GPZDA,193047.00,01,01,2025,,*6B
$GPDTM,W84,,00.0000000,N,00.0000000,E,00.0000000,W84*5F
$GPRMC,193047.00,A,4742.4466821,N,01617.9730723,E,0.0,,010125,5.1,E,D*11
$GPGLL,4742.4466821,N,01617.9730723,E,193047.00,A,D*60
$GPGGA,193047.00,4742.4466821,N,01617.9730723,E,2,24,0.5,626.8192,M,43.2111,M,1.2,0123*49
$GNGNS,193047.00,4742.4466821,N,01617.9730723,E,DAAA,24,0.5,626.8192,43.2111,,*56
$GPGNS,193047.00,,,,,,06,,,,1.2,123*70
$GLGNS,193047.00,,,,,,07,,,,,*70
$GAGNS,193047.00,,,,,,03,,,,,*79
$GBGNS,193047.00,,,,,,08,,,,,*71
$GPLLQ,193047.00,010125,,M,,M,1,24,2.848,,M*19
$GPVTG,,T,,M,0.00,N,0.00,K,D*26
$GPHDT,,T*1B
$GPTHS,,V*0E
$GPROT,,V*08
$PSSN,HRP,193047.00,010125,,,,,,,00,0,,*69
$PTNL,AVR,193047.00,,Yaw,,Tilt,,,,0,,00*3F
$GPGSA,A,3,07,16,18,23,26,27,,,,,,,1.0,0.5,0.9*36
$GPGSA,A,3,66,67,73,74,80,82,83,,,,,,1.0,0.5,0.9*30
$GPGSA,A,3,13,21,27,,,,,,,,,,1.0,0.5,0.9*3B
$GPGSA,A,3,14,23,27,28,33,37,42,43,,,,,1.0,0.5,0.9*31
$GPGST,193047.00,4.504,1.094,0.949,336.217,1.072,0.974,2.452*5F
$GPGBS,193047.00,3.879,2.705,7.747,27,0.0001,1.943,0.599*5F
$GPGRS,193047.00,1,-2.3,-0.8,1.1,0.5,-1.9,1.9,,,,,,*67
$GPGRS,193047.00,1,-3.6,10.7,3.3,-6.0,-3.6,1.2,-2.1,,,,,*58
$GPGRS,193047.00,1,0.4,-0.4,2.1,,,,,,,,,*46
$GPGRS,193047.00,1,9.2,-4.6,-4.7,-1.2,-1.2,0.7,-0.5,-0.9,,,,*47
$GPGSV,4,1,16,16,61,226,50,08,23,297,35,26,36,193,37,15,15,060,*73
$GPGSV,4,2,16,10,42,168,36,18,41,060,45,27,58,301,39,23,59,101,42*75
$GPGSV,4,3,16,21,00,251,,13,05,030,,07,09,318,38,29,02,109,*76
$GPGSV,4,4,16,36,35,170,40,34,31,208,,49,34,195,37,61,03,257,*77
$GLGSV,3,1,10,83,66,328,37,84,14,267,35,80,21,201,40,68,11,139,*65
$GLGSV,3,2,10,66,22,034,37,67,32,093,43,74,30,320,36,82,46,052,44*60
$GLGSV,3,3,10,73,46,264,48,81,04,074,*60
$GAGSV,3,1,10,13,81,032,47,23,42,302,,03,10,063,,27,18,165,37*69
$GAGSV,3,2,10,15,27,058,33,14,41,288,,26,41,245,33,21,59,212,47*69
$GAGSV,3,3,10,05,03,016,,08,04,109,*6C
$GBGSV,5,1,20,28,60,287,47,23,14,203,38,60,11,108,,21,14,034,31*6D
$GBGSV,5,2,20,46,20,313,,38,17,037,,05,22,128,,27,16,274,36*6E
$GBGSV,5,3,20,33,22,145,39,50,26,055,,08,31,038,35,58,31,298,*6F
$GBGSV,5,4,20,11,27,081,27,13,38,045,35,14,33,117,35,37,34,254,38*60
$GBGSV,5,5,20,42,35,084,36,43,50,081,45,34,05,089,,02,08,106,*64
$GPGGA,193047.00,,,,,0,00,,,M,,M,,*40
$PTNL,GGK,193047.00,010125,4742.4466821,N,01617.9730723,E,1,24,1.0,EHT670.0302,M*41
$GPGGQ,193047.00,010125,4742.4466821,N,01617.9730723,E,1,24,2.848,626.8192,M*38
$GPGFA,193047.00,10.405,20.104,1.094,0.949,336.217,2.452,,VVV*07
$GPLLK,193047.00,010125,,M,,M,1,24,1.2,,M*06
$GNGMP,193047.00,,,,,DAAA,24,0.5,,,,*5D
$GPGMP,193047.00,,,,,,06,,,,1.2,123*70
$GLGMP,193047.00,,,,,,07,,,,,*70
$GAGMP,193047.00,,,,,,03,,,,,*79
$GBGMP,193047.00,,,,,,08,,,,,*71
$PSSN,SNC,[0,329465000,2347]*4B
$GPZDA,193052.00,01,01,2025,,*6F
$GPDTM,W84,,00.0000000,N,00.0000000,E,00.0000000,W84*5F
$GPRMC,193052.00,A,4742.4466627,N,01617.9730804,E,0.0,,010125,5.1,E,D*17
$GPGLL,4742.4466627,N,01617.9730804,E,193052.00,A,D*66
$GPGGA,193052.00,4742.4466627,N,01617.9730804,E,2,24,0.6,626.8346,M,43.2111,M,2.2,0123*44
$GNGNS,193052.00,4742.4466627,N,01617.9730804,E,DAAA,24,0.6,626.8346,43.2111,,*58
$GPGNS,193052.00,,,,,,06,,,,2.2,123*77
$GLGNS,193052.00,,,,,,06,,,,,*75
$GAGNS,193052.00,,,,,,03,,,,,*7D
$GBGNS,193052.00,,,,,,09,,,,,*74
$GPLLQ,193052.00,010125,,M,,M,1,24,2.638,,M*14
$GPVTG,,T,,M,0.01,N,0.02,K,D*25
$GPHDT,,T*1B
$GPTHS,,V*0E
$GPROT,,V*08
$PSSN,HRP,193052.00,010125,,,,,,,00,0,,*6D
$PTNL,AVR,193052.00,,Yaw,,Tilt,,,,0,,00*3B
$GPGSA,A,3,07,16,18,23,26,27,,,,,,,1.1,0.6,0.9*34
$GPGSA,A,3,67,73,80,82,83,84,,,,,,,1.1,0.6,0.9*3D
$GPGSA,A,3,13,21,27,,,,,,,,,,1.1,0.6,0.9*39
$GPGSA,A,3,08,14,23,27,28,33,37,42,43,,,,1.1,0.6,0.9*3B
$GPGST,193052.00,5.868,1.018,0.868,346.449,1.010,0.877,2.273*52
$GPGBS,193052.00,3.949,2.758,7.738,67,0.0001,13.263,6.135*63
$GPGRS,193052.00,1,2.1,-1.3,-0.3,0.2,-0.9,0.6,,,,,,*60
$GPGRS,193052.00,1,13.3,3.4,-4.5,-0.5,-3.9,9.0,,,,,,*5E
$GPGRS,193052.00,1,-0.0,-1.1,0.4,,,,,,,,,*68
$GPGRS,193052.00,1,-0.5,-1.8,-5.3,-2.9,-1.6,-3.1,0.5,-14.7,-2.2,,,*5F
$GPGSV,4,1,16,16,61,226,50,08,23,297,36,26,36,193,36,15,15,060,*71
$GPGSV,4,2,16,10,42,168,33,18,41,060,47,27,58,301,36,23,59,101,41*7E
$GPGSV,4,3,16,21,00,251,,13,05,030,,07,09,318,37,29,02,109,*79
$GPGSV,4,4,16,36,35,170,40,34,31,208,,49,34,195,37,61,03,257,*77
$GLGSV,3,1,10,83,66,329,36,84,14,267,37,80,21,201,39,68,11,139,*69
$GLGSV,3,2,10,66,22,034,35,67,32,092,44,74,30,320,35,82,46,052,44*67
$GLGSV,3,3,10,73,46,263,48,81,04,074,*67
$GAGSV,3,1,10,13,81,032,47,23,42,302,,03,10,063,,27,18,165,37*69
$GAGSV,3,2,10,15,27,058,32,14,41,288,,26,41,245,32,21,59,212,47*69
$GAGSV,3,3,10,05,03,016,,08,04,109,*6C
$GBGSV,5,1,20,28,60,287,48,23,14,203,37,60,11,108,,21,14,034,31*6D
$GBGSV,5,2,20,46,20,313,,38,17,037,,05,22,128,,27,16,274,35*6D
$GBGSV,5,3,20,33,22,145,38,50,26,055,,08,31,038,35,58,31,298,*6E
$GBGSV,5,4,20,11,27,081,26,13,38,045,35,14,33,117,38,37,34,254,38*6C
$GBGSV,5,5,20,42,35,084,41,43,50,081,44,34,05,089,,02,08,106,*65
$GPGGA,193052.00,,,,,0,00,,,M,,M,,*44
$PTNL,GGK,193052.00,010125,4742.4466627,N,01617.9730804,E,1,24,1.1,EHT670.0457,M*41
$GPGGQ,193052.00,010125,4742.4466627,N,01617.9730804,E,1,24,2.638,626.8346,M*3C
$GPGFA,193052.00,9.677,18.641,1.018,0.868,346.449,2.273,,VVV*38
$GPLLK,193052.00,010125,,M,,M,1,24,1.2,,M*02
$GNGMP,193052.00,,,,,DAAA,24,0.6,,,,*5A
$GPGMP,193052.00,,,,,,06,,,,2.2,123*77
$GLGMP,193052.00,,,,,,06,,,,,*75
$GAGMP,193052.00,,,,,,03,,,,,*7D
$GBGMP,193052.00,,,,,,09,,,,,*74
$PSSN,SNC,[0,329470000,2347]*4F
$GPZDA,193057.00,01,01,2025,,*6A
$GPDTM,W84,,00.0000000,N,00.0000000,E,00.0000000,W84*5F
$GPRMC,193057.00,A,4742.4466514,N,01617.9730785,E,0.0,,010125,5.1,E,D*17
$GPGLL,4742.4466514,N,01617.9730785,E,193057.00,A,D*66
$GPGGA,193057.00,4742.4466514,N,01617.9730785,E,2,21,0.7,626.8495,M,43.2111,M,3.0,0123*4A
$GNGNS,193057.00,4742.4466514,N,01617.9730785,E,DAAA,21,0.7,626.8495,43.2111,,*55
$GPGNS,193057.00,,,,,,05,,,,3.0,123*72
$GLGNS,193057.00,,,,,,06,,,,,*70
$GAGNS,193057.00,,,,,,03,,,,,*78
$GBGNS,193057.00,,,,,,07,,,,,*7F
$GPLLQ,193057.00,010125,,M,,M,1,21,3.818,,M*19
$GPVTG,,T,,M,0.00,N,0.01,K,D*27
$GPHDT,,T*1B
$GPTHS,,V*0E
$GPROT,,V*08
$PSSN,HRP,193057.00,010125,,,,,,,00,0,,*68
$PTNL,AVR,193057.00,,Yaw,,Tilt,,,,0,,00*3E
$GPGSA,A,3,16,18,23,26,27,,,,,,,,1.3,0.7,1.1*39
$GPGSA,A,3,67,73,80,82,83,84,,,,,,,1.3,0.7,1.1*37
$GPGSA,A,3,13,21,27,,,,,,,,,,1.3,0.7,1.1*33
$GPGSA,A,3,08,13,23,28,33,37,43,,,,,,1.3,0.7,1.1*35
$GPGST,193057.00,5.673,1.703,0.739,319.634,1.383,1.238,3.336*5F
$GPGBS,193057.00,4.119,4.088,12.324,67,0.0001,14.199,6.135*5C
$GPGRS,193057.00,1,-0.6,-0.1,0.8,-0.9,-0.0,,,,,,,*6F
$GPGRS,193057.00,1,14.2,3.5,-4.4,-0.8,-4.8,11.8,,,,,,*67
$GPGRS,193057.00,1,0.9,-0.2,0.4,,,,,,,,,*4B
$GPGRS,193057.00,1,2.1,-0.3,-5.7,-0.8,-3.1,-0.0,-2.0,,,,,*63
$GPGSV,4,1,16,16,61,225,50,08,23,297,37,26,36,193,36,15,15,060,29*78
$GPGSV,4,2,16,10,42,168,33,18,41,060,48,27,58,301,36,23,59,101,40*70
$GPGSV,4,3,16,21,00,251,,13,05,030,,07,09,318,37,29,01,109,*7A
$GPGSV,4,4,16,36,35,170,40,34,31,208,,49,34,195,37,61,03,257,*77
$GLGSV,3,1,10,83,66,329,36,84,15,267,37,80,21,201,39,68,11,139,*68
$GLGSV,3,2,10,66,22,034,30,67,32,092,43,74,30,320,34,82,46,052,45*65
$GLGSV,3,3,10,73,46,263,47,81,04,074,*68
$GAGSV,3,1,10,13,81,032,47,23,42,302,,03,10,063,,27,18,165,37*69
$GAGSV,3,2,10,15,27,058,31,14,41,288,,26,41,245,32,21,59,212,47*6A
$GAGSV,3,3,10,05,03,016,,08,04,109,*6C
$GBGSV,5,1,20,28,60,287,47,23,14,203,37,60,11,108,,21,14,034,31*62
$GBGSV,5,2,20,46,20,313,,38,17,037,,05,22,128,,27,16,274,33*6B
$GBGSV,5,3,20,33,22,145,39,50,26,055,,08,31,038,36,58,31,298,*6C
$GBGSV,5,4,20,11,27,081,31,13,38,045,35,14,33,117,31,37,34,254,38*63
$GBGSV,5,5,20,42,35,084,34,43,50,081,44,34,05,089,,02,08,106,*67
$GPGGA,193057.00,,,,,0,00,,,M,,M,,*41
$PTNL,GGK,193057.00,010125,4742.4466514,N,01617.9730785,E,1,21,1.3,EHT670.0606,M*40
$GPGGQ,193057.00,010125,4742.4466514,N,01617.9730785,E,1,21,3.818,626.8495,M*3D
$GPGFA,193057.00,16.191,27.358,1.703,0.739,319.634,3.336,,VVV*08
$GPLLK,193057.00,010125,,M,,M,1,21,1.5,,M*05
$GNGMP,193057.00,,,,,DAAA,21,0.7,,,,*5B
$GPGMP,193057.00,,,,,,05,,,,3.0,123*72
$GLGMP,193057.00,,,,,,06,,,,,*70
$GAGMP,193057.00,,,,,,03,,,,,*78
$GBGMP,193057.00,,,,,,07,,,,,*7F
$PSSN,SNC,[0,329475000,2347]*4A
$GPZDA,193102.00,01,01,2025,,*6B
$GPDTM,W84,,00.0000000,N,00.0000000,E,00.0000000,W84*5F
$GPRMC,193102.00,A,4742.4466281,N,01617.9731001,E,0.0,,010125,5.1,E,D*17
$GPGLL,4742.4466281,N,01617.9731001,E,193102.00,A,D*66
$GPGGA,193102.00,4742.4466281,N,01617.9731001,E,2,24,0.5,626.8764,M,43.2111,M,3.0,0123*40
$GNGNS,193102.00,4742.4466281,N,01617.9731001,E,DAAA,24,0.5,626.8764,43.2111,,*5F
$GPGNS,193102.00,,,,,,06,,,,3.0,123*70
$GLGNS,193102.00,,,,,,07,,,,,*70
$GAGNS,193102.00,,,,,,03,,,,,*79
$GBGNS,193102.00,,,,,,08,,,,,*71
$GPLLQ,193102.00,010125,,M,,M,1,24,3.374,,M*1C
$GPVTG,,T,,M,0.00,N,0.01,K,D*27
$GPHDT,,T*1B
$GPTHS,,V*0E
$GPROT,,V*08
$PSSN,HRP,193102.00,010125,,,,,,,00,0,,*69
$PTNL,AVR,193102.00,,Yaw,,Tilt,,,,0,,00*3F
$GPGSA,A,3,07,08,16,18,23,26,,,,,,,1.1,0.5,0.9*3A
$GPGSA,A,3,67,73,74,80,82,83,84,,,,,,1.1,0.5,0.9*3D
$GPGSA,A,3,13,21,27,,,,,,,,,,1.1,0.5,0.9*3A
$GPGSA,A,3,08,13,23,28,33,37,42,43,,,,,1.1,0.5,0.9*3A
$GPGST,193102.00,5.838,1.295,0.916,323.462,1.175,1.066,2.978*5D
$GPGBS,193102.00,5.406,3.233,9.750,26,0.0001,-2.322,0.775*76
$GPGRS,193102.00,1,2.2,1.1,-0.7,-0.4,-0.4,-2.3,,,,,,*40
$GPGRS,193102.00,1,11.8,1.0,-5.7,-5.5,-1.1,-4.5,13.1,,,,,*61
$GPGRS,193102.00,1,0.7,-0.1,-0.9,,,,,,,,,*67
$GPGRS,193102.00,1,2.5,-1.0,-6.1,-1.3,-3.4,-1.4,10.2,-1.9,,,,*7C
$GPGSV,4,1,16,16,61,225,50,08,23,297,38,26,36,193,35,15,15,060,*7F
$GPGSV,4,2,16,10,42,168,34,18,41,060,48,27,58,301,39,23,59,101,40*78
$GPGSV,4,3,16,21,00,251,,13,05,030,,07,09,318,36,29,01,109,*7B
$GPGSV,4,4,16,36,35,170,40,34,31,208,,49,34,195,37,61,03,257,*77
$GLGSV,3,1,10,83,66,329,35,84,15,267,32,80,21,201,39,68,11,139,*6E
$GLGSV,3,2,10,66,22,034,24,67,32,092,42,74,30,320,36,82,46,052,45*63
$GLGSV,3,3,10,73,46,263,46,81,04,074,*69
$GAGSV,3,1,10,13,81,032,47,23,42,302,,03,10,063,,27,18,165,37*69
$GAGSV,3,2,10,15,27,058,32,14,41,288,,26,42,245,31,21,59,212,47*69
$GAGSV,3,3,10,05,03,016,,08,04,109,*6C
$GBGSV,5,1,20,28,60,287,47,23,14,203,36,60,11,108,,21,14,034,30*62
$GBGSV,5,2,20,46,20,313,,38,17,037,,05,22,128,,27,16,274,30*68
$GBGSV,5,3,20,33,23,145,40,50,26,055,,08,31,038,36,58,31,298,*63
$GBGSV,5,4,20,11,27,081,24,13,38,045,35,14,33,117,31,37,34,254,37*68
$GBGSV,5,5,20,42,35,084,42,43,50,081,43,34,05,090,,02,08,106,*69
$GPGGA,193102.00,,,,,0,00,,,M,,M,,*40
$PTNL,GGK,193102.00,010125,4742.4466281,N,01617.9731001,E,1,24,1.1,EHT670.0874,M*4C
$GPGGQ,193102.00,010125,4742.4466281,N,01617.9731001,E,1,24,3.374,626.8764,M*34
$GPGFA,193102.00,12.315,24.417,1.295,0.916,323.462,2.978,,VVV*0C
$GPLLK,193102.00,010125,,M,,M,1,24,1.2,,M*06
$GNGMP,193102.00,,,,,DAAA,24,0.5,,,,*5D
$GPGMP,193102.00,,,,,,06,,,,3.0,123*70
$GLGMP,193102.00,,,,,,07,,,,,*70
$GAGMP,193102.00,,,,,,03,,,,,*79
$GBGMP,193102.00,,,,,,08,,,,,*71
$PSSN,SNC,[0,329480000,2347]*40
$GPZDA,193107.00,01,01,2025,,*6E
$GPDTM,W84,,00.0000000,N,00.0000000,E,00.0000000,W84*5F
$GPRMC,193107.00,A,4742.4466135,N,01617.9731008,E,0.0,,010125,5.1,E,D*17
$GPGLL,4742.4466135,N,01617.9731008,E,193107.00,A,D*66
$GPGGA,193107.00,4742.4466135,N,01617.9731008,E,2,23,0.6,626.8905,M,43.2111,M,1.3,0123*4C
$GNGNS,193107.00,4742.4466135,N,01617.9731008,E,DAAA,23,0.6,626.8905,43.2111,,*52
$GPGNS,193107.00,,,,,,06,,,,1.3,123*74
$GLGNS,193107.00,,,,,,06,,,,,*74
$GAGNS,193107.00,,,,,,03,,,,,*7C
$GBGNS,193107.00,,,,,,08,,,,,*74
$GPLLQ,193107.00,010125,,M,,M,1,23,2.444,,M*1B
$GPVTG,,T,,M,0.01,N,0.01,K,D*26
$GPHDT,,T*1B
$GPTHS,,V*0E
$GPROT,,V*08
$PSSN,HRP,193107.00,010125,,,,,,,00,0,,*6C
$PTNL,AVR,193107.00,,Yaw,,Tilt,,,,0,,00*3A
$GPGSA,A,3,07,08,16,18,23,26,,,,,,,1.1,0.6,0.9*39
$GPGSA,A,3,67,73,74,80,82,83,,,,,,,1.1,0.6,0.9*32
$GPGSA,A,3,13,21,27,,,,,,,,,,1.1,0.6,0.9*39
$GPGSA,A,3,08,13,23,28,33,37,42,43,,,,,1.1,0.6,0.9*39
$GPGST,193107.00,4.961,0.956,0.662,326.684,0.878,0.763,2.149*5E
$GPGBS,193107.00,5.199,3.140,9.366,23,0.0001,1.382,0.614*51
$GPGRS,193107.00,1,0.5,0.5,-0.5,-0.3,1.4,-0.7,,,,,,*6A
$GPGRS,193107.00,1,11.9,-0.6,-4.4,-4.7,-0.1,-4.3,,,,,,*54
$GPGRS,193107.00,1,0.9,0.4,-2.2,,,,,,,,,*4D
$GPGRS,193107.00,1,3.4,-1.4,-5.5,-1.3,-2.8,-2.6,10.9,-2.1,,,,*76
$GPGSV,4,1,16,16,61,225,49,08,23,297,39,26,36,193,37,15,15,059,*7E
$GPGSV,4,2,16,10,42,168,35,18,41,060,48,27,58,301,38,23,59,101,42*7A
$GPGSV,4,3,16,21,00,251,,13,05,030,,07,09,318,35,29,01,109,*78
$GPGSV,4,4,16,36,35,170,40,34,31,208,,49,34,195,37,61,03,257,*77
$GLGSV,3,1,10,83,66,329,36,84,15,267,31,80,21,201,39,68,11,139,*6E
$GLGSV,3,2,10,66,22,033,28,67,32,092,39,74,30,320,38,82,46,052,46*69
$GLGSV,3,3,10,73,46,263,45,81,04,074,*6A
$GAGSV,3,1,10,13,80,032,47,23,42,302,,03,10,062,,27,18,165,36*68
$GAGSV,3,2,10,15,27,058,31,14,41,288,,26,42,245,30,21,59,212,48*64
$GAGSV,3,3,10,05,03,016,,08,04,109,*6C
$GBGSV,5,1,20,28,60,287,47,23,14,203,35,60,11,108,,21,14,034,32*63
$GBGSV,5,2,20,46,20,313,,38,17,037,,05,22,128,,27,16,274,28*61
$GBGSV,5,3,20,33,23,145,41,50,26,055,,08,31,038,36,58,31,298,*62
$GBGSV,5,4,20,11,27,081,26,13,38,045,36,14,33,117,31,37,33,254,37*6E
$GBGSV,5,5,20,42,35,084,43,43,50,081,43,34,05,090,,02,08,106,*68
$GPGGA,193107.00,,,,,0,00,,,M,,M,,*45
$PTNL,GGK,193107.00,010125,4742.4466135,N,01617.9731008,E,1,23,1.1,EHT670.1016,M*46
$GPGGQ,193107.00,010125,4742.4466135,N,01617.9731008,E,1,23,2.444,626.8905,M*3F
$GPGFA,193107.00,9.089,17.624,0.956,0.662,326.684,2.149,,VVV*3B
$GPLLK,193107.00,010125,,M,,M,1,23,1.3,,M*05
$GNGMP,193107.00,,,,,DAAA,23,0.6,,,,*5C
$GPGMP,193107.00,,,,,,06,,,,1.3,123*74
$GLGMP,193107.00,,,,,,06,,,,,*74
$GAGMP,193107.00,,,,,,03,,,,,*7C
$GBGMP,193107.00,,,,,,08,,,,,*74
$PSSN,SNC,[0,329485000,2347]*45
$GPZDA,193112.00,01,01,2025,,*6A
$GPDTM,W84,,00.0000000,N,00.0000000,E,00.0000000,W84*5F
$GPRMC,193112.00,A,4742.4466163,N,01617.9730968,E,0.0,,010125,5.1,E,D*1E
$GPGLL,4742.4466163,N,01617.9730968,E,193112.00,A,D*6F
$GPGGA,193112.00,4742.4466163,N,01617.9730968,E,2,20,0.6,626.8802,M,43.2111,M,2.3,0123*43
$GNGNS,193112.00,4742.4466163,N,01617.9730968,E,DAAA,20,0.6,626.8802,43.2111,,*5E
$GPGNS,193112.00,,,,,,06,,,,2.3,123*73
$GLGNS,193112.00,,,,,,05,,,,,*73
$GAGNS,193112.00,,,,,,02,,,,,*79
$GBGNS,193112.00,,,,,,07,,,,,*7F
$GPLLQ,193112.00,010125,,M,,M,1,20,1.767,,M*1D
$GPVTG,,T,,M,0.01,N,0.01,K,D*26
$GPHDT,,T*1B
$GPTHS,,V*0E
$GPROT,,V*08
$PSSN,HRP,193112.00,010125,,,,,,,00,0,,*68
$PTNL,AVR,193112.00,,Yaw,,Tilt,,,,0,,00*3E
$GPGSA,A,3,07,08,16,18,26,27,,,,,,,1.2,0.6,1.0*36
$GPGSA,A,3,73,74,80,82,83,,,,,,,,1.2,0.6,1.0*38
$GPGSA,A,3,13,21,,,,,,,,,,,1.2,0.6,1.0*37
$GPGSA,A,3,08,13,28,33,37,42,43,,,,,,1.2,0.6,1.0*33
$GPGST,193112.00,2.915,0.673,0.645,314.904,0.659,0.659,1.501*5A
$GPGBS,193112.00,4.150,4.414,6.875,16,0.0001,-1.050,0.612*75
$GPGRS,193112.00,1,-1.0,1.2,-1.1,-0.7,0.9,0.2,,,,,,*64
$GPGRS,193112.00,1,-1.1,-2.5,-5.1,-0.3,-2.3,,,,,,,*45
$GPGRS,193112.00,1,0.4,0.4,,,,,,,,,,*47
$GPGRS,193112.00,1,3.6,-0.9,-1.1,-2.9,-3.0,5.5,-1.9,,,,,*48
$GPGSV,4,1,16,16,61,225,49,08,23,297,40,26,36,193,38,15,15,059,*7F
$GPGSV,4,2,16,10,42,168,35,18,41,060,48,27,58,301,38,23,59,101,42*7A
$GPGSV,4,3,16,21,00,251,,13,05,029,,07,09,318,36,29,01,109,*73
$GPGSV,4,4,16,36,35,170,40,34,31,208,,49,34,195,37,61,03,257,*77
$GLGSV,3,1,10,83,66,329,36,84,15,267,29,80,21,201,39,68,11,139,*67
$GLGSV,3,2,10,66,22,033,35,67,32,092,33,74,30,320,40,82,46,052,46*60
$GLGSV,3,3,10,73,46,263,45,81,04,074,*6A
$GAGSV,3,1,10,13,80,032,47,23,42,302,,03,10,062,,27,18,165,35*6B
$GAGSV,3,2,10,15,27,058,31,14,41,288,,26,42,245,31,21,59,212,48*65
$GAGSV,3,3,10,05,03,016,,08,04,109,*6C
$GBGSV,5,1,20,28,60,287,47,23,14,203,34,60,11,108,,21,14,034,33*63
$GBGSV,5,2,20,46,20,313,,38,17,037,,05,22,128,,27,16,274,29*60
$GBGSV,5,3,20,33,23,145,41,50,26,055,,08,31,038,37,58,31,298,*63
$GBGSV,5,4,20,11,27,081,26,13,38,045,35,14,33,117,32,37,33,254,38*61
$GBGSV,5,5,20,42,35,084,42,43,50,081,42,34,05,090,,02,08,106,*68
$GPGGA,193112.00,,,,,0,00,,,M,,M,,*41
$PTNL,GGK,193112.00,010125,4742.4466163,N,01617.9730968,E,1,20,1.2,EHT670.0912,M*43
$GPGGQ,193112.00,010125,4742.4466163,N,01617.9730968,E,1,20,1.767,626.8802,M*32
$GPGFA,193112.00,6.402,12.306,0.673,0.645,314.904,1.501,,VVV*37
$GPLLK,193112.00,010125,,M,,M,1,20,1.4,,M*05
$GNGMP,193112.00,,,,,DAAA,20,0.6,,,,*5B
$GPGMP,193112.00,,,,,,06,,,,2.3,123*73
$GLGMP,193112.00,,,,,,05,,,,,*73
$GAGMP,193112.00,,,,,,02,,,,,*79
$GBGMP,193112.00,,,,,,07,,,,,*7F
$PSSN,SNC,[0,329490000,2347]*41
$GPZDA,193117.00,01,01,2025,,*6F
$GPDTM,W84,,00.0000000,N,00.0000000,E,00.0000000,W84*5F
$GPRMC,193117.00,A,4742.4466186,N,01617.9731057,E,0.0,,010125,5.1,E,D*14
$GPGLL,4742.4466186,N,01617.9731057,E,193117.00,A,D*65
$GPGGA,193117.00,4742.4466186,N,01617.9731057,E,2,20,0.6,626.8986,M,43.2111,M,3.3,0123*45
$GNGNS,193117.00,4742.4466186,N,01617.9731057,E,DAAA,20,0.6,626.8986,43.2111,,*59
$GPGNS,193117.00,,,,,,06,,,,3.3,123*77
$GLGNS,193117.00,,,,,,05,,,,,*76
$GAGNS,193117.00,,,,,,02,,,,,*7C
$GBGNS,193117.00,,,,,,07,,,,,*7A
$GPLLQ,193117.00,010125,,M,,M,1,20,1.948,,M*1B
$GPVTG,,T,,M,0.00,N,0.01,K,D*27
$GPHDT,,T*1B
$GPTHS,,V*0E
$GPROT,,V*08
$PSSN,HRP,193117.00,010125,,,,,,,00,0,,*6D
$PTNL,AVR,193117.00,,Yaw,,Tilt,,,,0,,00*3B
$GPGSA,A,3,07,08,16,18,26,27,,,,,,,1.2,0.6,1.0*36
$GPGSA,A,3,73,74,80,82,83,,,,,,,,1.2,0.6,1.0*38
$GPGSA,A,3,13,21,,,,,,,,,,,1.2,0.6,1.0*37
$GPGSA,A,3,08,13,28,33,37,42,43,,,,,,1.2,0.6,1.0*33
$GPGST,193117.00,2.396,0.745,0.712,313.498,0.728,0.730,1.653*5B
$GPGBS,193117.00,4.229,4.492,7.031,08,0.0001,1.715,0.850*56
$GPGRS,193117.00,1,-1.1,1.7,-1.0,-0.7,0.8,1.0,,,,,,*66
$GPGRS,193117.00,1,-0.5,-0.0,-5.4,-0.2,-2.0,,,,,,,*45
$GPGRS,193117.00,1,0.5,0.2,,,,,,,,,,*45
$GPGRS,193117.00,1,3.8,-1.6,-0.6,-2.3,-1.7,-2.1,-1.9,,,,,*6A
$GPGSV,4,1,16,16,60,225,49,08,23,297,40,26,36,193,39,15,15,059,*7F
$GPGSV,4,2,16,10,42,168,33,18,40,060,48,27,58,301,38,23,59,101,43*7C
$GPGSV,4,3,16,21,00,251,,13,05,029,,07,09,318,36,29,01,109,*73
$GPGSV,4,4,16,36,35,170,40,34,31,208,,49,34,195,37,61,03,257,*77
$GLGSV,3,1,10,83,66,329,35,84,15,267,29,80,20,201,38,68,11,139,*64
$GLGSV,3,2,10,66,22,033,34,67,32,092,31,74,30,320,41,82,46,052,46*62
$GLGSV,3,3,10,73,46,263,46,81,04,074,*69
$GAGSV,3,1,10,13,80,032,47,23,42,302,,03,10,062,,27,18,165,33*6D
$GAGSV,3,2,10,15,27,058,30,14,41,288,,26,42,245,30,21,59,212,48*65
$GAGSV,3,3,10,05,03,016,,08,04,109,*6C
$GBGSV,5,1,20,28,60,287,46,23,14,203,33,60,11,108,,21,14,034,34*62
$GBGSV,5,2,20,46,20,313,,38,17,037,,05,22,128,,27,16,274,29*60
$GBGSV,5,3,20,33,23,145,42,50,26,055,,08,31,038,37,58,31,298,*60
$GBGSV,5,4,20,11,27,081,27,13,38,045,35,14,33,117,34,37,33,254,40*69
$GBGSV,5,5,20,42,35,084,41,43,50,081,43,34,05,090,,02,08,106,*6A
$GPGGA,193117.00,,,,,0,00,,,M,,M,,*44
$PTNL,GGK,193117.00,010125,4742.4466186,N,01617.9731057,E,1,20,1.2,EHT670.1097,M*4C
$GPGGQ,193117.00,010125,4742.4466186,N,01617.9731057,E,1,20,1.948,626.8986,M*36
$GPGFA,193117.00,7.085,13.554,0.745,0.712,313.498,1.653,,VVV*34
$GPLLK,193117.00,010125,,M,,M,1,20,1.4,,M*00
$GNGMP,193117.00,,,,,DAAA,20,0.6,,,,*5E
$GPGMP,193117.00,,,,,,06,,,,3.3,123*77
$GLGMP,193117.00,,,,,,05,,,,,*76
$GAGMP,193117.00,,,,,,02,,,,,*7C
$GBGMP,193117.00,,,,,,07,,,,,*7A
$PSSN,SNC,[0,329495000,2347]*44
$GPZDA,193122.00,01,01,2025,,*69
$GPDTM,W84,,00.0000000,N,00.0000000,E,00.0000000,W84*5F
$GPRMC,193122.00,A,4742.4466148,N,01617.9731119,E,0.0,,010125,5.1,E,D*1B
$GPGLL,4742.4466148,N,01617.9731119,E,193122.00,A,D*6A
$GPGGA,193122.00,4742.4466148,N,01617.9731119,E,2,22,0.6,626.9025,M,43.2111,M,3.0,0123*4A
$GNGNS,193122.00,4742.4466148,N,01617.9731119,E,DAAA,22,0.6,626.9025,43.2111,,*55
$GPGNS,193122.00,,,,,,06,,,,3.0,123*72
$GLGNS,193122.00,,,,,,05,,,,,*70
$GAGNS,193122.00,,,,,,02,,,,,*7A
$GBGNS,193122.00,,,,,,09,,,,,*72
$GPLLQ,193122.00,010125,,M,,M,1,22,4.230,,M*1E
$GPVTG,,T,,M,0.00,N,0.01,K,D*27
$GPHDT,,T*1B
$GPTHS,,V*0E
$GPROT,,V*08
$PSSN,HRP,193122.00,010125,,,,,,,00,0,,*6B
$PTNL,AVR,193122.00,,Yaw,,Tilt,,,,0,,00*3D
$GPGSA,A,3,07,08,16,18,23,26,,,,,,,1.1,0.6,1.0*31
$GPGSA,A,3,73,74,80,82,83,,,,,,,,1.1,0.6,1.0*3B
$GPGSA,A,3,13,21,,,,,,,,,,,1.1,0.6,1.0*34
$GPGSA,A,3,08,13,14,21,28,33,37,42,43,,,,1.1,0.6,1.0*36
$GPGST,193122.00,9.006,1.652,1.119,325.568,1.502,1.313,3.730*54
$GPGBS,193122.00,5.685,3.382,10.361,21,0.0001,32.892,8.928*5F
$GPGRS,193122.00,1,-2.0,2.1,-1.1,-1.0,1.7,-0.4,,,,,,*46
$GPGRS,193122.00,1,-0.7,-0.4,-6.9,-0.1,-2.7,,,,,,,*4F
$GPGRS,193122.00,1,0.0,-0.2,,,,,,,,,,*6B
$GPGRS,193122.00,1,3.5,-2.8,1.4,32.9,-2.2,-1.3,-3.2,-4.8,-1.6,,,*53
$GPGSV,4,1,16,16,60,225,49,08,23,297,40,26,36,193,38,15,15,059,*7E
$GPGSV,4,2,16,10,42,168,34,18,40,060,49,27,58,301,38,23,59,101,44*7D
$GPGSV,4,3,16,21,00,251,,13,05,029,,07,09,318,37,29,01,109,*72
$GPGSV,4,4,16,36,35,170,40,34,31,208,,49,34,195,37,61,03,257,*77
$GLGSV,3,1,10,83,66,329,36,84,15,267,28,80,20,201,38,68,11,139,*66
$GLGSV,3,2,10,66,22,033,31,67,32,092,37,74,30,320,39,82,46,052,45*6D
$GLGSV,3,3,10,73,46,263,45,81,04,074,*6A
$GAGSV,3,1,10,13,80,032,47,23,42,302,,03,10,062,,27,18,165,31*6F
$GAGSV,3,2,10,15,26,058,29,14,41,288,,26,42,245,31,21,59,212,49*6C
$GAGSV,3,3,10,05,03,016,,08,04,109,*6C
$GBGSV,5,1,20,28,60,287,46,23,14,203,33,60,11,108,,21,14,034,35*63
$GBGSV,5,2,20,46,20,313,,38,17,037,,05,22,128,,27,16,274,29*60
$GBGSV,5,3,20,33,23,145,42,50,26,055,,08,31,038,38,58,31,298,*6F
$GBGSV,5,4,20,11,27,082,27,13,38,045,35,14,33,117,35,37,33,254,41*6A
$GBGSV,5,5,20,42,35,084,41,43,50,081,42,34,05,090,,02,08,106,*6B
$GPGGA,193122.00,,,,,0,00,,,M,,M,,*42
$PTNL,GGK,193122.00,010125,4742.4466148,N,01617.9731119,E,1,22,1.1,EHT670.1135,M*4B
$GPGGQ,193122.00,010125,4742.4466148,N,01617.9731119,E,1,22,4.230,626.9025,M*3B
$GPGFA,193122.00,15.707,30.586,1.652,1.119,325.568,3.730,,VVV*05
$GPLLK,193122.00,010125,,M,,M,1,22,1.3,,M*03
$GNGMP,193122.00,,,,,DAAA,22,0.6,,,,*5A
$GPGMP,193122.00,,,,,,06,,,,3.0,123*72
$GLGMP,193122.00,,,,,,05,,,,,*70
$GAGMP,193122.00,,,,,,02,,,,,*7A
$GBGMP,193122.00,,,,,,09,,,,,*72
$PSSN,SNC,[0,329500000,2347]*49
$GPZDA,193127.00,01,01,2025,,*6C
$GPDTM,W84,,00.0000000,N,00.0000000,E,00.0000000,W84*5F
$GPRMC,193127.00,A,4742.4466071,N,01617.9731107,E,0.0,,010125,5.1,E,D*1A
$GPGLL,4742.4466071,N,01617.9731107,E,193127.00,A,D*6B
$GPGGA,193127.00,4742.4466071,N,01617.9731107,E,2,20,0.6,626.9012,M,43.2111,M,1.2,0123*4D
$GNGNS,193127.00,4742.4466071,N,01617.9731107,E,DAAA,20,0.6,626.9012,43.2111,,*52
$GPGNS,193127.00,,,,,,05,,,,1.2,123*74
$GLGNS,193127.00,,,,,,05,,,,,*75
$GAGNS,193127.00,,,,,,02,,,,,*7F
$GBGNS,193127.00,,,,,,08,,,,,*76
$GPLLQ,193127.00,010125,,M,,M,1,20,3.947,,M*15
$GPVTG,,T,,M,0.00,N,0.00,K,D*26
$GPHDT,,T*1B
$GPTHS,,V*0E
$GPROT,,V*08
$PSSN,HRP,193127.00,010125,,,,,,,00,0,,*6E
$PTNL,AVR,193127.00,,Yaw,,Tilt,,,,0,,00*38
$GPGSA,A,3,08,16,18,23,26,,,,,,,,1.3,0.6,1.1*35
$GPGSA,A,3,73,74,80,82,83,,,,,,,,1.3,0.6,1.1*38
$GPGSA,A,3,13,21,,,,,,,,,,,1.3,0.6,1.1*37
$GPGSA,A,3,08,14,21,28,33,37,42,43,,,,,1.3,0.6,1.1*37
$GPGST,193127.00,9.393,1.492,1.013,326.195,1.361,1.182,3.511*56
$GPGBS,193127.00,5.333,3.196,11.264,21,0.0001,31.901,8.701*5D
$GPGRS,193127.00,1,2.4,-0.8,-0.8,0.7,-0.7,,,,,,,*44
$GPGRS,193127.00,1,-0.9,-4.9,-4.8,-1.5,-2.6,,,,,,,*4A
$GPGRS,193127.00,1,-0.1,-0.3,,,,,,,,,,*43
$GPGRS,193127.00,1,4.3,3.2,31.9,-2.8,-1.0,-4.1,-3.2,-0.6,,,,*58
$GPGSV,4,1,16,16,60,225,50,08,23,297,40,26,36,193,38,15,15,059,*76
$GPGSV,4,2,16,10,42,168,38,18,40,060,49,27,58,301,35,23,59,101,44*7C
$GPGSV,4,3,16,21,00,251,,13,05,029,,07,09,318,34,29,01,109,*71
$GPGSV,4,4,16,36,35,170,40,34,31,208,,49,34,195,36,61,03,257,*76
$GLGSV,3,1,10,83,66,329,35,84,15,267,27,80,20,201,38,68,11,139,*6A
$GLGSV,3,2,10,66,22,033,30,67,32,092,,74,30,320,37,82,46,052,44*67
$GLGSV,3,3,10,73,46,263,45,81,04,074,*6A
$GAGSV,3,1,10,13,80,032,47,23,42,302,,03,10,062,,27,18,165,30*6E
$GAGSV,3,2,10,15,26,058,28,14,41,288,,26,42,245,32,21,59,212,49*6E
$GAGSV,3,3,10,05,03,016,,08,04,109,*6C
$GBGSV,5,1,20,28,60,287,45,23,14,203,31,60,11,108,,21,14,034,36*61
$GBGSV,5,2,20,46,20,313,,38,17,037,,05,22,128,,27,16,274,31*69
$GBGSV,5,3,20,33,23,145,42,50,26,055,,08,31,038,38,58,31,298,*6F
$GBGSV,5,4,20,11,27,082,27,13,38,045,34,14,33,117,36,37,33,254,41*68
$GBGSV,5,5,20,42,35,084,42,43,50,081,42,34,05,090,,02,08,106,*68
$GPGGA,193127.00,,,,,0,00,,,M,,M,,*47
$PTNL,GGK,193127.00,010125,4742.4466071,N,01617.9731107,E,1,20,1.3,EHT670.1123,M*4D
$GPGGQ,193127.00,010125,4742.4466071,N,01617.9731107,E,1,20,3.947,626.9012,M*30
$GPGFA,193127.00,14.182,28.790,1.492,1.013,326.195,3.511,,VVV*07
$GPLLK,193127.00,010125,,M,,M,1,20,1.5,,M*02
$GNGMP,193127.00,,,,,DAAA,20,0.6,,,,*5D
$GPGMP,193127.00,,,,,,05,,,,1.2,123*74
$GLGMP,193127.00,,,,,,05,,,,,*75
$GAGMP,193127.00,,,,,,02,,,,,*7F
$GBGMP,193127.00,,,,,,08,,,,,*76
$PSSN,SNC,[0,329505000,2347]*4C
$GPZDA,193132.00,01,01,2025,,*68
$GPDTM,W84,,00.0000000,N,00.0000000,E,00.0000000,W84*5F
$GPRMC,193132.00,A,4742.4465964,N,01617.9731200,E,0.0,,010125,5.1,E,D*14
$GPGLL,4742.4465964,N,01617.9731200,E,193132.00,A,D*65
