$GPZDA,025942.00,01,01,2025,,*6B
$GPDTM,W84,,00.0000000,N,00.0000000,E,00.0000000,W84*5F
$GPRMC,025942.00,A,4742.4466324,N,01617.9728867,E,0.0,,010125,5.1,E,D*19
$GPGLL,4742.4466324,N,01617.9728867,E,025942.00,A,D*68
$GPGGA,025942.00,4742.4466324,N,01617.9728867,E,2,20,0.8,625.1550,M,43.2111,M,1.0,0123*4A
$GNGNS,025942.00,4742.4466324,N,01617.9728867,E,DAAA,20,0.8,625.1550,43.2111,,*57
$GPGNS,025942.00,,,,,,03,,,,1.0,123*77
$GLGNS,025942.00,,,,,,04,,,,,*73
$GAGNS,025942.00,,,,,,05,,,,,*7F
$GBGNS,025942.00,,,,,,08,,,,,*71
$GPLLQ,025942.00,010125,,M,,M,1,20,6.760,,M*1C
$GPVTG,,T,,M,0.00,N,0.00,K,D*26
$GPHDT,,T*1B
$GPTHS,,V*0E
$GPROT,,V*08
$PSSN,HRP,025942.00,010125,,,,,,,00,0,,*69
$PTNL,AVR,025942.00,,Yaw,,Tilt,,,,0,,00*3F
$GPGSA,A,3,03,04,09,,,,,,,,,,1.4,0.8,1.1*31
$GPGSA,A,3,70,71,85,86,,,,,,,,,1.4,0.8,1.1*3D
$GPGSA,A,3,05,06,09,34,36,,,,,,,,1.4,0.8,1.1*37
$GPGSA,A,3,09,12,19,20,22,23,35,44,,,,,1.4,0.8,1.1*38
$GPGST,025942.00,15.573,3.972,0.870,346.069,3.861,1.276,5.401*6A
$GPGBS,025942.00,24.686,7.335,34.886,35,0.0001,22.232,8.545*62
$GPGRS,025942.00,1,0.3,-0.1,0.3,,,,,,,,,*44
$GPGRS,025942.00,1,-3.2,-1.3,-0.7,-4.4,,,,,,,,*42
$GPGRS,025942.00,1,-0.3,-1.7,-0.3,0.2,-1.5,,,,,,,*68
$GPGRS,025942.00,1,-3.4,-0.7,-1.3,-2.0,4.5,50.8,22.2,-2.2,,,,*65
$GPGSV,5,1,17,04,85,058,49,11,11,319,33,02,10,163,,17,13,234,26*7B
$GPGSV,5,2,17,01,15,156,,19,22,260,33,07,13,183,,31,24,047,21*78
$GPGSV,5,3,17,06,45,303,33,03,51,095,46,09,63,242,51,28,04,031,*77
$GPGSV,5,4,17,26,08,073,,36,35,170,41,34,31,208,,49,34,195,36*7B
$GPGSV,5,5,17,61,03,257,*4B
$GLGSV,3,1,09,70,67,011,38,80,21,104,31,69,12,064,29,87,17,334,32*66
$GLGSV,3,2,09,79,24,047,35,71,44,275,44,85,40,204,42,86,52,293,42*68
$GLGSV,3,3,09,78,02,003,29*59
$GAGSV,3,1,11,09,78,061,46,11,20,157,29,18,16,258,,04,26,056,27*64
$GAGSV,3,2,11,34,47,304,38,05,45,234,40,36,64,195,39,06,52,058,41*6D
$GAGSV,3,3,11,23,05,061,,15,01,324,,21,02,014,*5F
$GBGSV,5,1,19,19,75,308,46,39,20,039,33,12,12,328,34,37,26,071,30*6D
$GBGSV,5,2,19,29,13,194,33,58,24,111,,16,29,045,33,46,21,129,*6D
$GBGSV,5,3,19,22,24,269,40,05,23,128,,06,30,048,27,44,26,307,48*65
$GBGSV,5,4,19,09,41,060,39,35,39,252,38,20,46,071,49,48,68,058,*64
$GBGSV,5,5,19,23,05,026,23,02,07,106,,60,08,110,*5E
$GPGGA,025942.00,,,,,0,00,,,M,,M,,*40
$PTNL,GGK,025942.00,010125,4742.4466324,N,01617.9728867,E,1,20,1.4,EHT668.3661,M*43
$GPGGQ,025942.00,010125,4742.4466324,N,01617.9728867,E,1,20,6.760,625.1550,M*35
$GPGFA,025942.00,37.766,44.286,3.972,0.870,346.069,5.401,,VVV*0A
$GPLLK,025942.00,010125,,M,,M,1,20,1.7,,M*07
$GNGMP,025942.00,,,,,DAAA,20,0.8,,,,*54
$GPGMP,025942.00,,,,,,03,,,,1.0,123*77
$GLGMP,025942.00,,,,,,04,,,,,*73
$GAGMP,025942.00,,,,,,05,,,,,*7F
$GBGMP,025942.00,,,,,,08,,,,,*71
$PSSN,SNC,[0,270000000,2347]*41
$GPZDA,025947.00,01,01,2025,,*6E
$GPDTM,W84,,00.0000000,N,00.0000000,E,00.0000000,W84*5F
$GPRMC,025947.00,A,4742.4466334,N,01617.9728877,E,0.0,,010125,5.1,E,D*1C
$GPGLL,4742.4466334,N,01617.9728877,E,025947.00,A,D*6D
$GPGGA,025947.00,4742.4466334,N,01617.9728877,E,2,20,0.8,625.1541,M,43.2111,M,2.0,0123*4C
$GNGNS,025947.00,4742.4466334,N,01617.9728877,E,DAAA,20,0.8,625.1541,43.2111,,*52
$GPGNS,025947.00,,,,,,03,,,,2.0,123*71
$GLGNS,025947.00,,,,,,05,,,,,*77
$GAGNS,025947.00,,,,,,05,,,,,*7A
$GBGNS,025947.00,,,,,,07,,,,,*7B
$GPLLQ,025947.00,010125,,M,,M,1,20,4.942,,M*15
$GPVTG,,T,,M,0.01,N,0.02,K,D*25
$GPHDT,,T*1B
$GPTHS,,V*0E
$GPROT,,V*08
$PSSN,HRP,025947.00,010125,,,,,,,00,0,,*6C
$PTNL,AVR,025947.00,,Yaw,,Tilt,,,,0,,00*3A
$GPGSA,A,3,03,04,09,,,,,,,,,,1.3,0.8,1.1*36
$GPGSA,A,3,70,71,80,85,86,,,,,,,,1.3,0.8,1.1*32
$GPGSA,A,3,05,06,09,34,36,,,,,,,,1.3,0.8,1.1*30
$GPGSA,A,3,09,12,19,20,22,35,44,,,,,,1.3,0.8,1.1*3E
$GPGST,025947.00,3.441,2.887,0.642,346.201,2.808,0.929,3.959*59
$GPGBS,025947.00,24.641,7.339,35.255,80,0.0001,-8.184,6.225*7F
$GPGRS,025947.00,1,0.3,-0.5,0.3,,,,,,,,,*45
$GPGRS,025947.00,1,-2.0,-0.4,-8.2,0.9,-4.6,,,,,,,*6A
$GPGRS,025947.00,1,-0.2,-2.3,-0.6,0.7,-1.3,,,,,,,*6D
$GPGRS,025947.00,1,-2.6,3.2,-1.1,-2.9,1.1,-4.3,-2.5,,,,,*4E
$GPGSV,5,1,17,04,85,058,47,11,11,319,28,02,10,163,21,17,13,234,25*7F
$GPGSV,5,2,17,01,15,156,,19,22,260,32,07,13,183,,31,24,047,27*7F
$GPGSV,5,3,17,06,45,302,32,03,51,095,45,09,63,242,51,28,04,031,*74
$GPGSV,5,4,17,26,08,073,,36,35,170,41,34,31,208,,49,34,195,35*78
$GPGSV,5,5,17,61,03,257,*4B
$GLGSV,3,1,09,70,67,011,39,80,21,104,37,69,12,064,25,87,17,334,*6C
$GLGSV,3,2,09,79,24,047,33,71,44,275,44,85,40,204,44,86,52,293,42*68
$GLGSV,3,3,09,78,02,003,30*51
$GAGSV,3,1,11,09,77,061,46,11,20,157,28,18,16,258,,04,26,056,25*68
$GAGSV,3,2,11,34,47,304,37,05,45,234,40,36,64,195,38,06,52,058,40*62
$GAGSV,3,3,11,23,05,061,,15,01,324,,21,02,014,*5F
$GBGSV,5,1,19,19,75,308,47,39,20,039,33,12,12,328,36,37,26,071,30*6E
$GBGSV,5,2,19,29,13,194,32,58,24,111,,16,29,045,31,46,21,129,*6E
$GBGSV,5,3,19,22,24,269,41,05,23,128,,06,30,048,33,44,26,307,49*60
$GBGSV,5,4,19,09,41,060,39,35,39,252,39,20,46,071,49,48,68,058,*65
$GBGSV,5,5,19,23,05,026,21,02,07,106,,60,08,110,*5C
$GPGGA,025947.00,,,,,0,00,,,M,,M,,*45
$PTNL,GGK,025947.00,010125,4742.4466334,N,01617.9728877,E,1,20,1.3,EHT668.3651,M*42
$GPGGQ,025947.00,010125,4742.4466334,N,01617.9728877,E,1,20,4.942,625.1541,M*3C
$GPGFA,025947.00,27.452,32.464,2.887,0.642,346.201,3.959,,VVV*0E
$GPLLK,025947.00,010125,,M,,M,1,20,1.6,,M*03
$GNGMP,025947.00,,,,,DAAA,20,0.8,,,,*51
$GPGMP,025947.00,,,,,,03,,,,2.0,123*71
$GLGMP,025947.00,,,,,,05,,,,,*77
$GAGMP,025947.00,,,,,,05,,,,,*7A
$GBGMP,025947.00,,,,,,07,,,,,*7B
$PSSN,SNC,[0,270005000,2347]*44
$GPZDA,025952.00,01,01,2025,,*6A
$GPDTM,W84,,00.0000000,N,00.0000000,E,00.0000000,W84*5F
$GPRMC,025952.00,A,4742.4466358,N,01617.9728928,E,0.0,,010125,5.1,E,D*19
$GPGLL,4742.4466358,N,01617.9728928,E,025952.00,A,D*68
$GPGGA,025952.00,4742.4466358,N,01617.9728928,E,2,20,0.8,625.1532,M,43.2111,M,3.0,0123*4C
$GNGNS,025952.00,4742.4466358,N,01617.9728928,E,DAAA,20,0.8,625.1532,43.2111,,*53
$GPGNS,025952.00,,,,,,03,,,,3.0,123*74
$GLGNS,025952.00,,,,,,04,,,,,*72
$GAGNS,025952.00,,,,,,05,,,,,*7E
$GBGNS,025952.00,,,,,,08,,,,,*70
$GPLLQ,025952.00,010125,,M,,M,1,20,4.873,,M*12
$GPVTG,,T,,M,0.00,N,0.01,K,D*27
$GPHDT,,T*1B
$GPTHS,,V*0E
$GPROT,,V*08
$PSSN,HRP,025952.00,010125,,,,,,,00,0,,*68
$PTNL,AVR,025952.00,,Yaw,,Tilt,,,,0,,00*3E
$GPGSA,A,3,03,04,09,,,,,,,,,,1.4,0.8,1.1*31
$GPGSA,A,3,70,71,85,86,,,,,,,,,1.4,0.8,1.1*3D
$GPGSA,A,3,05,06,09,34,36,,,,,,,,1.4,0.8,1.1*37
$GPGSA,A,3,09,12,19,20,22,23,35,44,,,,,1.4,0.8,1.1*38
$GPGST,025952.00,11.972,2.850,0.638,346.087,2.771,0.924,3.901*69
$GPGBS,025952.00,24.611,7.368,35.413,85,0.0001,5.652,6.074*51
$GPGRS,025952.00,1,-0.4,-0.3,0.6,,,,,,,,,*68
$GPGRS,025952.00,1,-1.3,1.1,5.7,-2.6,,,,,,,,*43
$GPGRS,025952.00,1,0.7,-2.0,-0.1,0.5,-0.8,,,,,,,*4D
$GPGRS,025952.00,1,-2.5,6.4,-0.5,-2.9,2.6,41.7,-3.6,-2.3,,,,*53
$GPGSV,5,1,17,04,85,058,48,11,12,319,27,02,10,163,21,17,13,234,27*7E
$GPGSV,5,2,17,01,15,156,,19,22,260,33,07,13,183,,31,24,047,23*7A
$GPGSV,5,3,17,06,45,302,31,03,51,095,45,09,63,242,51,28,04,031,*77
$GPGSV,5,4,17,26,08,072,,36,35,170,40,34,31,208,,49,34,195,35*78
$GPGSV,5,5,17,61,03,257,*4B
$GLGSV,3,1,09,70,67,011,40,80,21,104,33,69,12,064,23,87,17,334,*60
$GLGSV,3,2,09,79,24,047,29,71,44,275,43,85,39,204,42,86,52,293,44*6A
$GLGSV,3,3,09,78,02,003,21*51
$GAGSV,3,1,11,09,77,061,45,11,20,157,29,18,16,258,,04,26,056,26*69
$GAGSV,3,2,11,34,47,304,36,05,45,234,40,36,64,195,35,06,52,058,39*60
$GAGSV,3,3,11,23,05,061,,15,01,324,,21,02,014,*5F
$GBGSV,5,1,19,19,75,308,47,39,20,039,33,12,12,327,35,37,26,071,30*62
$GBGSV,5,2,19,29,13,194,34,58,24,111,,16,29,045,32,46,21,129,*6B
$GBGSV,5,3,19,22,24,269,40,06,30,048,33,05,23,128,,44,26,307,48*60
$GBGSV,5,4,19,09,41,060,39,35,39,252,38,20,46,071,49,48,68,058,*64
$GBGSV,5,5,19,23,05,026,21,02,07,106,,60,08,110,*5C
$GPGGA,025952.00,,,,,0,00,,,M,,M,,*41
$PTNL,GGK,025952.00,010125,4742.4466358,N,01617.9728928,E,1,20,1.4,EHT668.3642,M*42
$GPGGQ,025952.00,010125,4742.4466358,N,01617.9728928,E,1,20,4.873,625.1532,M*3E
$GPGFA,025952.00,27.098,31.991,2.850,0.638,346.087,3.901,,VVV*0A
$GPLLK,025952.00,010125,,M,,M,1,20,1.7,,M*06
$GNGMP,025952.00,,,,,DAAA,20,0.8,,,,*55
$GPGMP,025952.00,,,,,,03,,,,3.0,123*74
$GLGMP,025952.00,,,,,,04,,,,,*72
$GAGMP,025952.00,,,,,,05,,,,,*7E
$GBGMP,025952.00,,,,,,08,,,,,*70
$PSSN,SNC,[0,270010000,2347]*40
$GPZDA,025957.00,01,01,2025,,*6F
$GPDTM,W84,,00.0000000,N,00.0000000,E,00.0000000,W84*5F
$GPRMC,025957.00,A,4742.4466425,N,01617.9729109,E,0.0,,010125,5.1,E,D*1B
$GPGLL,4742.4466425,N,01617.9729109,E,025957.00,A,D*6A
$GPGGA,025957.00,4742.4466425,N,01617.9729109,E,2,19,0.9,625.1688,M,43.2111,M,3.8,0123*4F
$GNGNS,025957.00,4742.4466425,N,01617.9729109,E,DAAA,19,0.9,625.1688,43.2111,,*58
$GPGNS,025957.00,,,,,,04,,,,3.8,123*7E
$GLGNS,025957.00,,,,,,04,,,,,*77
$GAGNS,025957.00,,,,,,04,,,,,*7A
$GBGNS,025957.00,,,,,,07,,,,,*7A
$GPLLQ,025957.00,010125,,M,,M,1,19,4.827,,M*1C
$GPVTG,,T,,M,0.01,N,0.02,K,D*25
$GPHDT,,T*1B
$GPTHS,,V*0E
$GPROT,,V*08
$PSSN,HRP,025957.00,010125,,,,,,,00,0,,*6D
$PTNL,AVR,025957.00,,Yaw,,Tilt,,,,0,,00*3B
$GPGSA,A,3,03,04,09,19,,,,,,,,,1.4,0.9,1.1*38
$GPGSA,A,3,70,71,85,86,,,,,,,,,1.4,0.9,1.1*3C
$GPGSA,A,3,05,06,09,34,,,,,,,,,1.4,0.9,1.1*33
$GPGSA,A,3,09,12,19,20,22,23,44,,,,,,1.4,0.9,1.1*3F
$GPGST,025957.00,10.625,4.104,0.925,354.049,4.083,1.013,2.367*67
$GPGBS,025957.00,14.408,5.628,9.862,19,0.0001,2.631,0.877*61
$GPGRS,025957.00,1,-1.0,-0.8,0.3,2.6,,,,,,,,*4C
$GPGRS,025957.00,1,-2.4,1.9,5.3,-1.8,,,,,,,,*43
$GPGRS,025957.00,1,0.8,-2.3,-0.2,-0.9,,,,,,,,*6D
$GPGRS,025957.00,1,-2.6,6.6,-0.8,-3.5,4.2,34.8,-2.8,,,,,*55
$GPGSV,5,1,17,04,85,058,47,11,12,319,27,02,10,163,20,17,13,234,26*71
$GPGSV,5,2,17,01,15,156,,19,22,260,36,07,13,183,,31,24,047,25*79
$GPGSV,5,3,17,06,45,302,34,03,51,095,44,09,63,242,51,28,04,031,*73
$GPGSV,5,4,17,26,08,072,,36,35,170,40,34,31,208,,49,34,195,36*7B
$GPGSV,5,5,17,61,03,257,*4B
$GLGSV,3,1,09,70,67,011,40,80,21,104,31,69,12,064,23,87,17,334,*62
$GLGSV,3,2,09,79,24,047,28,71,44,275,46,85,39,204,42,86,52,293,44*6E
$GLGSV,3,3,09,78,02,003,29*59
$GAGSV,3,1,11,09,77,061,45,11,20,157,27,18,16,258,,04,26,056,30*60
$GAGSV,3,2,11,34,47,304,36,05,45,234,40,36,64,195,29,06,52,058,39*6D
$GAGSV,3,3,11,23,05,060,,15,01,324,,21,02,014,*5E
$GBGSV,5,1,19,19,75,308,48,39,20,039,32,12,12,327,34,37,26,071,31*6C
$GBGSV,5,2,19,29,13,194,33,58,24,111,,16,29,045,33,46,21,129,*6D
$GBGSV,5,3,19,22,24,269,38,06,30,048,23,05,23,128,,44,26,307,48*6E
$GBGSV,5,4,19,09,41,060,39,35,39,252,37,20,46,071,49,48,68,058,*6B
$GBGSV,5,5,19,23,05,026,22,02,07,106,,60,08,110,*5F
$GPGGA,025957.00,,,,,0,00,,,M,,M,,*44
$PTNL,GGK,025957.00,010125,4742.4466425,N,01617.9729109,E,1,19,1.4,EHT668.3799,M*4D
$GPGGQ,025957.00,010125,4742.4466425,N,01617.9729109,E,1,19,4.827,625.1688,M*35
$GPGFA,025957.00,39.022,19.407,4.104,0.925,354.049,2.367,,VVV*0E
$GPLLK,025957.00,010125,,M,,M,1,19,1.6,,M*08
$GNGMP,025957.00,,,,,DAAA,19,0.9,,,,*5B
$GPGMP,025957.00,,,,,,04,,,,3.8,123*7E
$GLGMP,025957.00,,,,,,04,,,,,*77
$GAGMP,025957.00,,,,,,04,,,,,*7A
$GBGMP,025957.00,,,,,,07,,,,,*7A
$PSSN,SNC,[0,270015000,2347]*45
$GPZDA,030002.00,01,01,2025,,*62
$GPDTM,W84,,00.0000000,N,00.0000000,E,00.0000000,W84*5F
$GPRMC,030002.00,A,4742.4466528,N,01617.9729402,E,0.0,,010125,5.1,E,D*14
$GPGLL,4742.4466528,N,01617.9729402,E,030002.00,A,D*65
$GPGGA,030002.00,4742.4466528,N,01617.9729402,E,2,19,0.9,625.1888,M,43.2111,M,1.8,0123*4C
$GNGNS,030002.00,4742.4466528,N,01617.9729402,E,DAAA,19,0.9,625.1888,43.2111,,*59
$GPGNS,030002.00,,,,,,04,,,,1.8,123*71
$GLGNS,030002.00,,,,,,05,,,,,*7B
$GAGNS,030002.00,,,,,,04,,,,,*77
$GBGNS,030002.00,,,,,,06,,,,,*76
$GPLLQ,030002.00,010125,,M,,M,1,19,5.384,,M*12
$GPVTG,,T,,M,0.01,N,0.02,K,D*25
$GPHDT,,T*1B
$GPTHS,,V*0E
$GPROT,,V*08
$PSSN,HRP,030002.00,010125,,,,,,,00,0,,*60
$PTNL,AVR,030002.00,,Yaw,,Tilt,,,,0,,00*36
$GPGSA,A,3,03,04,09,19,,,,,,,,,1.5,0.9,1.2*3A
$GPGSA,A,3,70,71,80,85,86,,,,,,,,1.5,0.9,1.2*36
$GPGSA,A,3,05,06,09,34,,,,,,,,,1.5,0.9,1.2*31
$GPGSA,A,3,09,19,20,22,35,44,,,,,,,1.5,0.9,1.2*39
$GPGST,030002.00,2.999,4.552,1.022,354.248,4.530,1.114,2.689*54
$GPGBS,030002.00,14.046,5.059,10.190,19,0.0001,3.112,0.896*56
$GPGRS,030002.00,1,-1.8,-0.4,0.6,3.1,,,,,,,,*46
$GPGRS,030002.00,1,-2.2,2.9,-4.0,-0.3,-2.3,,,,,,,*6C
$GPGRS,030002.00,1,1.6,-1.0,0.1,-0.8,,,,,,,,*40
$GPGRS,030002.00,1,-2.5,-0.1,-2.9,2.6,-5.3,-2.5,,,,,,*6A
$GPGSV,5,1,17,04,85,058,48,11,12,319,28,07,13,183,,19,22,260,36*77
$GPGSV,5,2,17,01,14,156,,17,13,234,30,31,24,047,29,06,45,302,23*77
$GPGSV,5,3,17,03,51,095,44,09,63,242,53,26,08,072,,28,04,031,20*7B
$GPGSV,5,4,17,02,10,163,20,36,35,170,39,34,31,208,,49,34,195,36*79
$GPGSV,5,5,17,61,03,257,*4B
$GLGSV,3,1,10,70,67,011,39,80,21,104,36,69,12,064,29,87,17,334,33*69
$GLGSV,3,2,10,79,24,047,31,71,44,275,46,85,39,204,40,86,52,293,45*6D
$GLGSV,3,3,10,78,02,003,,72,00,257,*6F
$GAGSV,3,1,11,09,77,061,44,11,20,158,27,18,16,258,,04,26,056,30*6E
$GAGSV,3,2,11,34,47,304,37,05,45,234,41,36,64,195,29,06,52,058,40*63
$GAGSV,3,3,11,23,05,060,,15,01,324,,21,02,014,*5E
$GBGSV,5,1,19,19,75,308,47,39,20,039,32,12,12,327,34,37,26,071,35*67
$GBGSV,5,2,19,29,13,194,35,58,24,111,,16,29,045,32,46,21,129,*6A
$GBGSV,5,3,19,22,24,269,37,06,30,048,30,05,23,128,,44,26,307,48*63
$GBGSV,5,4,19,09,41,060,40,35,39,252,35,20,46,071,48,48,68,058,*66
$GBGSV,5,5,19,23,05,026,20,02,07,106,,60,08,110,*5D
$GPGGA,030002.00,,,,,0,00,,,M,,M,,*49
$PTNL,GGK,030002.00,010125,4742.4466528,N,01617.9729402,E,1,19,1.5,EHT668.3999,M*4D
$GPGGQ,030002.00,010125,4742.4466528,N,01617.9729402,E,1,19,5.384,625.1888,M*37
$GPGFA,030002.00,43.277,22.047,4.552,1.022,354.248,2.689,,VVV*0A
$GPLLK,030002.00,010125,,M,,M,1,19,1.7,,M*04
$GNGMP,030002.00,,,,,DAAA,19,0.9,,,,*56
$GPGMP,030002.00,,,,,,04,,,,1.8,123*71
$GLGMP,030002.00,,,,,,05,,,,,*7B
$GAGMP,030002.00,,,,,,04,,,,,*77
$GBGMP,030002.00,,,,,,06,,,,,*76
$PSSN,SNC,[0,270020000,2347]*43
$GPZDA,030007.00,01,01,2025,,*67
$GPDTM,W84,,00.0000000,N,00.0000000,E,00.0000000,W84*5F
$GPRMC,030007.00,A,4742.4466529,N,01617.9729603,E,0.0,,010125,5.1,E,D*13
$GPGLL,4742.4466529,N,01617.9729603,E,030007.00,A,D*62
$GPGGA,030007.00,4742.4466529,N,01617.9729603,E,2,19,0.8,625.1911,M,43.2111,M,2.0,0123*40
$GNGNS,030007.00,4742.4466529,N,01617.9729603,E,DAAA,19,0.8,625.1911,43.2111,,*5E
$GPGNS,030007.00,,,,,,03,,,,2.0,123*78
$GLGNS,030007.00,,,,,,07,,,,,*7C
$GAGNS,030007.00,,,,,,03,,,,,*75
$GBGNS,030007.00,,,,,,06,,,,,*73
$GPLLQ,030007.00,010125,,M,,M,1,19,7.630,,M*1F
$GPVTG,,T,,M,0.00,N,0.01,K,D*27
$GPHDT,,T*1B
$GPTHS,,V*0E
$GPROT,,V*08
$PSSN,HRP,030007.00,010125,,,,,,,00,0,,*65
$PTNL,AVR,030007.00,,Yaw,,Tilt,,,,0,,00*33
$GPGSA,A,3,03,04,09,,,,,,,,,,1.3,0.8,1.1*36
$GPGSA,A,3,70,71,79,80,85,86,87,,,,,,1.3,0.8,1.1*33
$GPGSA,A,3,05,06,09,,,,,,,,,,1.3,0.8,1.1*32
$GPGSA,A,3,09,19,20,22,37,44,,,,,,,1.3,0.8,1.1*3F
$GPGST,030007.00,2.894,4.518,0.944,345.259,4.376,1.468,6.076*53
$GPGBS,030007.00,26.039,7.980,36.639,03,0.0001,-1.247,0.650*76
$GPGRS,030007.00,1,-1.2,0.0,1.1,,,,,,,,,*4A
$GPGRS,030007.00,1,-2.4,1.8,5.4,-2.9,0.8,-2.9,-0.7,,,,,*65
$GPGRS,030007.00,1,0.9,-0.4,0.8,,,,,,,,,*4C
$GPGRS,030007.00,1,-3.9,0.6,-2.7,1.4,2.9,-2.5,,,,,,*67
$GPGSV,5,1,17,04,85,058,49,11,12,319,27,07,13,183,,19,22,260,36*79
$GPGSV,5,2,17,01,14,156,,17,13,234,31,31,24,047,19,06,45,302,36*71
$GPGSV,5,3,17,03,51,095,42,09,63,243,53,26,08,072,,28,04,031,18*77
$GPGSV,5,4,17,02,10,163,20,36,35,170,39,34,31,208,,49,34,195,38*77
$GPGSV,5,5,17,61,03,257,*4B
$GLGSV,3,1,10,70,67,011,39,80,21,104,38,69,12,064,20,87,17,334,36*6B
$GLGSV,3,2,10,79,24,047,37,71,44,275,46,85,39,204,37,86,52,293,45*6B
$GLGSV,3,3,10,78,02,003,24,72,00,257,*69
$GAGSV,3,1,11,09,77,061,44,11,20,158,35,18,16,258,,04,26,056,33*6E
$GAGSV,3,2,11,34,47,304,33,05,45,234,41,36,64,195,33,06,52,058,42*6E
$GAGSV,3,3,11,23,05,060,,15,01,324,,21,02,014,*5E
$GBGSV,5,1,19,19,75,309,47,39,20,039,29,12,12,327,34,37,26,071,35*6C
$GBGSV,5,2,19,29,13,194,34,58,24,111,,16,29,045,28,46,21,129,*60
$GBGSV,5,3,19,22,24,269,41,06,30,048,30,05,23,128,,44,26,307,48*62
$GBGSV,5,4,19,09,41,060,39,35,39,252,32,20,46,071,46,48,68,059,*60
$GBGSV,5,5,19,23,05,026,19,02,07,106,,60,08,110,*57
$GPGGA,030007.00,,,,,0,00,,,M,,M,,*4C
$PTNL,GGK,030007.00,010125,4742.4466529,N,01617.9729603,E,1,19,1.3,EHT668.4022,M*42
$GPGGQ,030007.00,010125,4742.4466529,N,01617.9729603,E,1,19,7.630,625.1911,M*39
$GPGFA,030007.00,42.955,49.823,4.518,0.944,345.259,6.076,,VVV*06
$GPLLK,030007.00,010125,,M,,M,1,19,1.5,,M*03
$GNGMP,030007.00,,,,,DAAA,19,0.8,,,,*52
$GPGMP,030007.00,,,,,,03,,,,2.0,123*78
$GLGMP,030007.00,,,,,,07,,,,,*7C
$GAGMP,030007.00,,,,,,03,,,,,*75
$GBGMP,030007.00,,,,,,06,,,,,*73
$PSSN,SNC,[0,270025000,2347]*46
$GPZDA,030012.00,01,01,2025,,*63
$GPDTM,W84,,00.0000000,N,00.0000000,E,00.0000000,W84*5F
$GPRMC,030012.00,A,4742.4466578,N,01617.9729712,E,0.0,,010125,5.1,E,D*12
$GPGLL,4742.4466578,N,01617.9729712,E,030012.00,A,D*63
$GPGGA,030012.00,4742.4466578,N,01617.9729712,E,2,19,0.9,625.1837,M,43.2111,M,3.0,0123*44
$GNGNS,030012.00,4742.4466578,N,01617.9729712,E,DAAA,19,0.9,625.1837,43.2111,,*5B
$GPGNS,030012.00,,,,,,04,,,,3.0,123*7A
$GLGNS,030012.00,,,,,,04,,,,,*7B
$GAGNS,030012.00,,,,,,05,,,,,*77
$GBGNS,030012.00,,,,,,06,,,,,*77
$GPLLQ,030012.00,010125,,M,,M,1,19,3.701,,M*1C
$GPVTG,,T,,M,0.01,N,0.01,K,D*26
$GPHDT,,T*1B
$GPTHS,,V*0E
$GPROT,,V*08
$PSSN,HRP,030012.00,010125,,,,,,,00,0,,*61
$PTNL,AVR,030012.00,,Yaw,,Tilt,,,,0,,00*37
$GPGSA,A,3,03,04,06,09,,,,,,,,,1.6,0.9,1.4*31
$GPGSA,A,3,70,71,85,86,,,,,,,,,1.6,0.9,1.4*3B
$GPGSA,A,3,04,05,06,09,36,,,,,,,,1.6,0.9,1.4*32
$GPGSA,A,3,09,19,20,22,35,44,,,,,,,1.6,0.9,1.4*3C
$GPGST,030012.00,3.686,1.719,0.702,7.047,1.708,0.727,3.202*5C
$GPGBS,030012.00,9.321,4.271,20.513,06,0.0001,-1.075,0.728*47
$GPGRS,030012.00,1,-0.6,0.3,-1.1,0.9,,,,,,,,*42
$GPGRS,030012.00,1,-2.4,2.9,0.1,-2.5,,,,,,,,*45
$GPGRS,030012.00,1,6.7,1.7,0.6,0.9,2.2,,,,,,,*68
$GPGRS,030012.00,1,-3.3,1.0,-1.8,3.5,-7.3,-2.1,,,,,,*47
$GPGSV,5,1,17,04,85,058,49,11,12,319,23,07,13,183,,19,22,260,*78
$GPGSV,5,2,17,01,14,156,,17,13,234,33,31,24,047,,06,45,302,34*79
$GPGSV,5,3,17,03,51,096,39,09,63,243,53,26,08,072,,28,04,031,*71
$GPGSV,5,4,17,02,10,163,,36,35,170,36,34,31,208,,49,34,195,34*76
$GPGSV,5,5,17,61,03,257,*4B
$GLGSV,3,1,10,70,67,011,39,80,22,104,34,69,12,064,,87,17,334,35*65
$GLGSV,3,2,10,79,24,047,33,71,44,275,47,85,39,204,42,86,52,293,45*6C
$GLGSV,3,3,10,78,02,003,28,72,00,257,*65
$GAGSV,3,1,11,09,77,060,44,11,20,158,25,18,16,258,,04,26,056,35*68
$GAGSV,3,2,11,34,47,304,34,05,45,234,42,36,64,195,35,06,52,058,39*60
$GAGSV,3,3,11,23,05,060,,15,01,324,,21,02,014,*5E
$GBGSV,5,1,19,19,75,309,48,39,20,039,28,12,12,327,34,37,26,071,32*65
$GBGSV,5,2,19,29,13,194,33,58,24,111,,16,29,045,26,46,21,129,*69
$GBGSV,5,3,19,22,24,269,41,06,30,048,33,05,23,128,,44,26,307,47*6E
$GBGSV,5,4,19,09,41,060,40,35,39,252,39,20,46,071,47,48,68,059,*64
$GBGSV,5,5,19,23,05,026,,02,07,106,,60,08,110,*5F
$GPGGA,030012.00,,,,,0,00,,,M,,M,,*48
$PTNL,GGK,030012.00,010125,4742.4466578,N,01617.9729712,E,1,19,1.6,EHT668.3948,M*44
$GPGGQ,030012.00,010125,4742.4466578,N,01617.9729712,E,1,19,3.701,625.1837,M*3A
$GPGFA,030012.00,16.342,26.256,1.719,0.702,7.047,3.202,,VVV*08
$GPLLK,030012.00,010125,,M,,M,1,19,1.9,,M*0B
$GNGMP,030012.00,,,,,DAAA,19,0.9,,,,*57
$GPGMP,030012.00,,,,,,04,,,,3.0,123*7A
$GLGMP,030012.00,,,,,,04,,,,,*7B
$GAGMP,030012.00,,,,,,05,,,,,*77
$GBGMP,030012.00,,,,,,06,,,,,*77
$PSSN,SNC,[0,270030000,2347]*42
$GPZDA,030017.00,01,01,2025,,*66
$GPDTM,W84,,00.0000000,N,00.0000000,E,00.0000000,W84*5F
$GPRMC,030017.00,A,4742.4466593,N,01617.9729808,E,0.0,,010125,5.1,E,D*16
$GPGLL,4742.4466593,N,01617.9729808,E,030017.00,A,D*67
$GPGGA,030017.00,4742.4466593,N,01617.9729808,E,2,21,0.7,625.1782,M,43.2111,M,4.0,0123*43
$GNGNS,030017.00,4742.4466593,N,01617.9729808,E,DAAA,21,0.7,625.1782,43.2111,,*5B
$GPGNS,030017.00,,,,,,04,,,,4.0,123*78
$GLGNS,030017.00,,,,,,06,,,,,*7C
$GAGNS,030017.00,,,,,,05,,,,,*72
$GBGNS,030017.00,,,,,,06,,,,,*72
$GPLLQ,030017.00,010125,,M,,M,1,21,3.100,,M*15
$GPVTG,,T,,M,0.01,N,0.01,K,D*26
$GPHDT,,T*1B
$GPTHS,,V*0E
$GPROT,,V*08
$PSSN,HRP,030017.00,010125,,,,,,,00,0,,*64
$PTNL,AVR,030017.00,,Yaw,,Tilt,,,,0,,00*32
$GPGSA,A,3,03,04,06,09,,,,,,,,,1.3,0.7,1.0*3E
$GPGSA,A,3,70,71,79,80,85,86,,,,,,,1.3,0.7,1.0*32
$GPGSA,A,3,04,05,06,09,36,,,,,,,,1.3,0.7,1.0*3D
$GPGSA,A,3,09,12,19,20,22,44,,,,,,,1.3,0.7,1.0*36
$GPGST,030017.00,3.467,1.459,0.592,7.360,1.449,0.616,2.670*5B
$GPGBS,030017.00,9.326,4.139,19.920,79,0.0001,9.132,6.300*6B
$GPGRS,030017.00,1,-0.4,-0.3,-0.1,0.6,,,,,,,,*66
$GPGRS,030017.00,1,-1.7,1.4,9.1,3.7,1.6,-2.9,,,,,,*48
$GPGRS,030017.00,1,4.8,0.6,1.9,0.4,1.4,,,,,,,*66
$GPGRS,030017.00,1,-2.3,0.7,-0.1,0.1,3.7,-2.5,,,,,,*63
$GPGSV,5,1,17,04,85,058,49,11,12,319,34,07,13,183,,19,22,260,29*75
$GPGSV,5,2,17,01,14,156,,17,13,234,27,31,24,047,31,06,45,302,36*7C
$GPGSV,5,3,17,03,51,096,40,09,63,243,52,26,08,072,,28,04,031,*7E
$GPGSV,5,4,17,02,10,163,,36,35,170,36,34,31,208,,49,34,195,35*77
$GPGSV,5,5,17,61,03,257,*4B
$GLGSV,3,1,10,70,67,011,38,80,22,104,37,69,12,064,21,87,17,334,30*61
$GLGSV,3,2,10,79,24,047,35,71,44,275,43,85,39,204,44,86,52,293,44*69
$GLGSV,3,3,10,78,02,002,19,72,00,257,*66
$GAGSV,3,1,11,09,77,060,42,11,20,158,24,18,16,258,,04,25,056,35*6C
$GAGSV,3,2,11,34,47,304,30,05,45,234,43,36,64,195,36,06,51,058,42*69
$GAGSV,3,3,11,23,05,060,,15,01,324,,21,02,014,*5E
$GBGSV,5,1,19,19,75,309,48,39,20,039,,12,12,327,36,37,26,071,33*6C
$GBGSV,5,2,19,29,13,194,33,58,24,111,,16,29,045,28,46,21,129,*67
$GBGSV,5,3,19,22,24,269,42,05,23,128,,06,30,048,32,44,26,307,47*6C
$GBGSV,5,4,19,09,41,060,40,35,39,252,32,20,46,071,46,48,68,059,*6E
$GBGSV,5,5,19,23,05,025,,02,07,106,,60,08,110,*5C
$GPGGA,030017.00,,,,,0,00,,,M,,M,,*4D
$PTNL,GGK,030017.00,010125,4742.4466593,N,01617.9729808,E,1,21,1.3,EHT668.3892,M*48
$GPGGQ,030017.00,010125,4742.4466593,N,01617.9729808,E,1,21,3.100,625.1782,M*33
$GPGFA,030017.00,13.875,21.892,1.459,0.592,7.360,2.670,,VVV*08
$GPLLK,030017.00,010125,,M,,M,1,21,1.5,,M*09
$GNGMP,030017.00,,,,,DAAA,21,0.7,,,,*57
$GPGMP,030017.00,,,,,,04,,,,4.0,123*78
$GLGMP,030017.00,,,,,,06,,,,,*7C
$GAGMP,030017.00,,,,,,05,,,,,*72
$GBGMP,030017.00,,,,,,06,,,,,*72
$PSSN,SNC,[0,270035000,2347]*47
$GPZDA,030022.00,01,01,2025,,*60
$GPDTM,W84,,00.0000000,N,00.0000000,E,00.0000000,W84*5F
$GPRMC,030022.00,A,4742.4466600,N,01617.9729848,E,0.0,,010125,5.1,E,D*1D
$GPGLL,4742.4466600,N,01617.9729848,E,030022.00,A,D*6C
$GPGGA,030022.00,4742.4466600,N,01617.9729848,E,2,22,0.7,625.1874,M,43.2111,M,1.0,0123*48
$GNGNS,030022.00,4742.4466600,N,01617.9729848,E,DAAA,22,0.7,625.1874,43.2111,,*55
$GPGNS,030022.00,,,,,,03,,,,1.0,123*7C
$GLGNS,030022.00,,,,,,06,,,,,*7A
$GAGNS,030022.00,,,,,,05,,,,,*74
$GBGNS,030022.00,,,,,,08,,,,,*7A
$GPLLQ,030022.00,010125,,M,,M,1,22,4.545,,M*12
$GPVTG,,T,,M,0.00,N,0.01,K,D*27
$GPHDT,,T*1B
$GPTHS,,V*0E
$GPROT,,V*08
$PSSN,HRP,030022.00,010125,,,,,,,00,0,,*62
$PTNL,AVR,030022.00,,Yaw,,Tilt,,,,0,,00*34
$GPGSA,A,3,03,04,09,,,,,,,,,,1.2,0.7,1.0*39
$GPGSA,A,3,70,71,80,85,86,87,,,,,,,1.2,0.7,1.0*32
$GPGSA,A,3,04,05,06,09,36,,,,,,,,1.2,0.7,1.0*3C
$GPGSA,A,3,09,12,19,20,22,35,37,44,,,,,1.2,0.7,1.0*35
$GPGST,030022.00,4.091,2.565,0.722,346.716,2.502,0.917,3.682*5F
$GPGBS,030022.00,18.271,5.776,26.108,87,0.0001,-8.186,6.399*7E
$GPGRS,030022.00,1,0.0,-0.4,0.3,,,,,,,,,*49
$GPGRS,030022.00,1,-3.4,0.2,5.6,2.4,-3.3,-8.2,,,,,,*6A
$GPGRS,030022.00,1,3.2,-0.2,1.0,0.4,0.0,,,,,,,*48
$GPGRS,030022.00,1,-2.5,1.8,-0.9,-0.8,4.4,-6.0,6.6,-1.7,,,,*6F
$GPGSV,5,1,17,04,85,057,49,11,12,319,33,07,13,183,34,19,22,260,*71
$GPGSV,5,2,17,01,14,156,,17,13,234,30,31,24,047,,06,45,302,37*79
$GPGSV,5,3,17,03,51,096,39,09,63,243,51,26,08,072,,28,04,031,*73
$GPGSV,5,4,17,02,10,163,,36,35,170,39,34,31,208,,49,34,195,36*7B
$GPGSV,5,5,17,61,03,257,*4B
$GLGSV,3,1,10,70,67,012,39,80,22,104,40,69,12,064,22,87,17,334,36*66
$GLGSV,3,2,10,79,24,047,32,71,44,275,42,85,39,204,42,86,52,293,44*69
$GLGSV,3,3,10,78,02,002,24,72,00,257,*68
$GAGSV,3,1,11,09,77,060,44,11,20,158,26,18,16,258,,04,25,056,36*6B
$GAGSV,3,2,11,34,47,304,32,05,45,234,43,36,64,195,38,06,51,058,42*65
$GAGSV,3,3,11,23,05,060,,15,01,324,,21,02,014,*5E
$GBGSV,5,1,19,19,75,309,48,39,20,039,32,12,12,327,37,37,26,071,37*68
$GBGSV,5,2,19,29,13,194,35,58,24,111,,16,29,045,30,46,21,129,*68
$GBGSV,5,3,19,22,24,269,37,05,23,128,,06,30,048,21,44,26,307,47*6C
$GBGSV,5,4,19,09,41,060,41,35,39,252,37,20,46,071,46,48,68,059,*6A
$GBGSV,5,5,19,23,05,025,,02,07,106,,60,08,110,*5C
$GPGGA,030022.00,,,,,0,00,,,M,,M,,*4B
$PTNL,GGK,030022.00,010125,4742.4466600,N,01617.9729848,E,1,22,1.2,EHT668.3984,M*47
$GPGGQ,030022.00,010125,4742.4466600,N,01617.9729848,E,1,22,4.545,625.1874,M*3F
$GPGFA,030022.00,24.389,30.190,2.565,0.722,346.716,3.682,,VVV*02
$GPLLK,030022.00,010125,,M,,M,1,22,1.4,,M*0D
$GNGMP,030022.00,,,,,DAAA,22,0.7,,,,*52
$GPGMP,030022.00,,,,,,03,,,,1.0,123*7C
$GLGMP,030022.00,,,,,,06,,,,,*7A
$GAGMP,030022.00,,,,,,05,,,,,*74
$GBGMP,030022.00,,,,,,08,,,,,*7A
$PSSN,SNC,[0,270040000,2347]*45
$GPZDA,030027.00,01,01,2025,,*65
$GPDTM,W84,,00.0000000,N,00.0000000,E,00.0000000,W84*5F
$GPRMC,030027.00,A,4742.4466589,N,01617.9729827,E,0.0,,010125,5.1,E,D*13
$GPGLL,4742.4466589,N,01617.9729827,E,030027.00,A,D*62
$GPGGA,030027.00,4742.4466589,N,01617.9729827,E,2,21,0.7,625.1956,M,43.2111,M,2.0,0123*47
$GNGNS,030027.00,4742.4466589,N,01617.9729827,E,DAAA,21,0.7,625.1956,43.2111,,*59
$GPGNS,030027.00,,,,,,04,,,,2.0,123*7D
$GLGNS,030027.00,,,,,,06,,,,,*7F
$GAGNS,030027.00,,,,,,04,,,,,*70
$GBGNS,030027.00,,,,,,07,,,,,*70
$GPLLQ,030027.00,010125,,M,,M,1,21,2.621,,M*13
$GPVTG,,T,,M,0.01,N,0.03,K,D*24
$GPHDT,,T*1B
$GPTHS,,V*0E
$GPROT,,V*08
$PSSN,HRP,030027.00,010125,,,,,,,00,0,,*67
$PTNL,AVR,030027.00,,Yaw,,Tilt,,,,0,,00*31
$GPGSA,A,3,03,04,06,09,,,,,,,,,1.3,0.7,1.1*3F
$GPGSA,A,3,70,71,80,85,86,87,,,,,,,1.3,0.7,1.1*32
$GPGSA,A,3,05,06,09,36,,,,,,,,,1.3,0.7,1.1*38
$GPGSA,A,3,09,12,19,20,22,35,44,,,,,,1.3,0.7,1.1*31
$GPGST,030027.00,2.977,1.232,0.500,8.029,1.222,0.524,2.259*52
$GPGBS,030027.00,9.130,4.087,19.304,80,0.0001,7.105,6.220*6A
$GPGRS,030027.00,1,0.6,-0.4,0.1,-0.0,,,,,,,,*4B
$GPGRS,030027.00,1,-4.3,0.5,7.1,-1.1,-3.8,-1.0,,,,,,*46
$GPGRS,030027.00,1,-0.2,0.1,0.2,-0.5,,,,,,,,*4C
$GPGRS,030027.00,1,-2.3,2.0,-1.7,-0.9,0.3,-4.4,-2.1,,,,,*47
$GPGSV,5,1,17,04,85,057,49,11,12,319,23,07,13,183,34,19,22,260,30*73
$GPGSV,5,2,17,01,14,156,,17,13,234,31,31,24,047,24,06,45,302,41*7F
$GPGSV,5,3,17,03,51,096,41,09,63,243,51,26,08,072,,28,04,031,*7C
$GPGSV,5,4,17,02,10,163,,36,35,170,39,34,31,208,,49,34,195,38*75
$GPGSV,5,5,17,61,03,257,*4B
$GLGSV,3,1,10,70,67,012,39,80,22,104,38,69,12,064,20,87,17,334,36*6B
$GLGSV,3,2,10,79,24,047,,71,44,275,45,85,39,204,39,86,52,293,45*62
$GLGSV,3,3,10,78,02,002,30,72,00,257,*6D
$GAGSV,3,1,11,09,77,060,46,11,20,158,29,18,16,258,,04,25,056,33*63
$GAGSV,3,2,11,34,47,304,34,05,45,234,44,36,64,195,40,06,51,058,43*6A
$GAGSV,3,3,11,23,05,060,,15,01,324,,21,02,014,*5E
$GBGSV,5,1,19,19,75,309,49,39,20,039,31,12,12,327,37,37,26,071,35*68
$GBGSV,5,2,19,29,13,194,34,58,24,111,,16,29,045,26,46,21,129,*6E
$GBGSV,5,3,19,22,24,269,34,05,23,128,,06,30,048,28,44,26,307,46*67
$GBGSV,5,4,19,09,41,060,40,35,39,252,37,20,46,071,45,48,68,059,*68
$GBGSV,5,5,19,23,05,025,,02,07,106,,60,08,110,*5C
$GPGGA,030027.00,,,,,0,00,,,M,,M,,*4E
$PTNL,GGK,030027.00,010125,4742.4466589,N,01617.9729827,E,1,21,1.3,EHT668.4067,M*48
$GPGGQ,030027.00,010125,4742.4466589,N,01617.9729827,E,1,21,2.621,625.1956,M*34
$GPGFA,030027.00,11.717,18.525,1.232,0.500,8.029,2.259,,VVV*07
$GPLLK,030027.00,010125,,M,,M,1,21,1.5,,M*0A
$GNGMP,030027.00,,,,,DAAA,21,0.7,,,,*54
$GPGMP,030027.00,,,,,,04,,,,2.0,123*7D
$GLGMP,030027.00,,,,,,06,,,,,*7F
$GAGMP,030027.00,,,,,,04,,,,,*70
$GBGMP,030027.00,,,,,,07,,,,,*70
$PSSN,SNC,[0,270045000,2347]*40
$GPZDA,030032.00,01,01,2025,,*61
$GPDTM,W84,,00.0000000,N,00.0000000,E,00.0000000,W84*5F
$GPRMC,030032.00,A,4742.4466540,N,01617.9729733,E,0.0,,010125,5.1,E,D*18
$GPGLL,4742.4466540,N,01617.9729733,E,030032.00,A,D*69
$GPGGA,030032.00,4742.4466540,N,01617.9729733,E,2,22,0.7,625.2281,M,43.2111,M,2.6,0123*4B
$GNGNS,030032.00,4742.4466540,N,01617.9729733,E,DAAA,22,0.7,625.2281,43.2111,,*53
$GPGNS,030032.00,,,,,,05,,,,2.6,123*7E
$GLGNS,030032.00,,,,,,06,,,,,*7B
$GAGNS,030032.00,,,,,,04,,,,,*74
$GBGNS,030032.00,,,,,,07,,,,,*74
$GPLLQ,030032.00,010125,,M,,M,1,22,2.924,,M*1E
$GPVTG,,T,,M,0.01,N,0.03,K,D*24
$GPHDT,,T*1B
$GPTHS,,V*0E
$GPROT,,V*08
$PSSN,HRP,030032.00,010125,,,,,,,00,0,,*63
$PTNL,AVR,030032.00,,Yaw,,Tilt,,,,0,,00*35
$GPGSA,A,3,03,04,06,09,31,,,,,,,,1.3,0.7,1.1*3D
$GPGSA,A,3,70,71,80,85,86,87,,,,,,,1.3,0.7,1.1*32
$GPGSA,A,3,05,06,09,36,,,,,,,,,1.3,0.7,1.1*38
$GPGSA,A,3,09,19,20,35,37,39,44,,,,,,1.3,0.7,1.1*3C
$GPGST,030032.00,4.730,1.562,0.684,358.939,1.562,0.684,2.375*5B
$GPGBS,030032.00,7.726,3.121,17.388,80,0.0001,8.821,6.217*65
$GPGRS,030032.00,1,0.4,-0.6,0.1,-0.4,0.9,,,,,,,*6C
$GPGRS,030032.00,1,-4.1,0.3,8.8,-4.5,-2.6,2.4,,,,,,*64
$GPGRS,030032.00,1,0.0,-0.9,-0.4,-2.5,,,,,,,,*6B
$GPGRS,030032.00,1,-2.9,-2.6,-0.1,-3.3,5.7,11.7,-2.2,,,,,*74
$GPGSV,5,1,17,04,85,057,47,11,12,319,23,07,14,183,33,19,21,260,34*7A
$GPGSV,5,2,17,01,14,156,,17,13,234,22,31,24,047,40,06,45,302,42*7C
$GPGSV,5,3,17,03,51,096,41,09,63,243,53,26,08,072,,28,04,031,*7E
$GPGSV,5,4,17,02,10,163,,36,35,170,40,34,31,208,,49,34,195,38*7B
$GPGSV,5,5,17,61,03,257,*4B
$GLGSV,3,1,10,70,67,012,38,80,22,104,40,69,12,064,23,87,17,334,34*64
$GLGSV,3,2,10,79,24,047,,71,44,275,45,85,39,204,37,86,52,293,47*6E
$GLGSV,3,3,10,78,02,002,30,72,00,257,*6D
$GAGSV,3,1,11,09,77,060,46,11,20,158,26,18,15,258,,04,25,056,33*6F
$GAGSV,3,2,11,34,47,304,33,05,45,234,44,36,64,195,41,06,51,058,44*6B
$GAGSV,3,3,11,23,05,060,,15,02,324,,21,02,014,*5D
$GBGSV,5,1,19,19,75,309,49,39,20,039,36,12,12,327,34,37,26,071,39*60
$GBGSV,5,2,19,29,13,194,33,58,24,111,,16,29,045,30,46,21,129,*6E
$GBGSV,5,3,19,22,24,269,32,05,23,128,,06,30,048,32,44,26,307,47*6B
$GBGSV,5,4,19,09,41,060,41,35,39,252,36,20,46,071,44,48,68,059,*69
$GBGSV,5,5,19,23,05,025,,02,07,106,,60,08,110,*5C
$GPGGA,030032.00,,,,,0,00,,,M,,M,,*4A
$PTNL,GGK,030032.00,010125,4742.4466540,N,01617.9729733,E,1,22,1.3,EHT668.4392,M*49
$GPGGQ,030032.00,010125,4742.4466540,N,01617.9729733,E,1,22,2.924,625.2281,M*34
$GPGFA,030032.00,14.851,19.475,1.562,0.684,358.939,2.375,,VVV*02
$GPLLK,030032.00,010125,,M,,M,1,22,1.5,,M*0D
$GNGMP,030032.00,,,,,DAAA,22,0.7,,,,*53
$GPGMP,030032.00,,,,,,05,,,,2.6,123*7E
$GLGMP,030032.00,,,,,,06,,,,,*7B
$GAGMP,030032.00,,,,,,04,,,,,*74
$GBGMP,030032.00,,,,,,07,,,,,*74
$PSSN,SNC,[0,270050000,2347]*44
$GPZDA,030037.00,01,01,2025,,*64
$GPDTM,W84,,00.0000000,N,00.0000000,E,00.0000000,W84*5F
$GPRMC,030037.00,A,4742.4466577,N,01617.9729676,E,0.0,,010125,5.1,E,D*19
$GPGLL,4742.4466577,N,01617.9729676,E,030037.00,A,D*68
$GPGGA,030037.00,4742.4466577,N,01617.9729676,E,2,22,0.8,625.2658,M,43.2111,M,3.6,0123*44
$GNGNS,030037.00,4742.4466577,N,01617.9729676,E,DAAA,22,0.8,625.2658,43.2111,,*5D
$GPGNS,030037.00,,,,,,05,,,,3.6,123*7A
$GLGNS,030037.00,,,,,,05,,,,,*7D
$GAGNS,030037.00,,,,,,05,,,,,*70
$GBGNS,030037.00,,,,,,07,,,,,*71
$GPLLQ,030037.00,010125,,M,,M,1,22,3.205,,M*12
$GPVTG,,T,,M,0.00,N,0.01,K,D*27
$GPHDT,,T*1B
$GPTHS,,V*0E
$GPROT,,V*08
$PSSN,HRP,030037.00,010125,,,,,,,00,0,,*66
$PTNL,AVR,030037.00,,Yaw,,Tilt,,,,0,,00*30
$GPGSA,A,3,03,04,06,09,31,,,,,,,,1.4,0.8,1.2*36
$GPGSA,A,3,70,71,80,86,87,,,,,,,,1.4,0.8,1.2*34
$GPGSA,A,3,05,06,09,34,36,,,,,,,,1.4,0.8,1.2*34
$GPGSA,A,3,09,19,20,35,37,39,44,,,,,,1.4,0.8,1.2*37
$GPGST,030037.00,5.646,1.793,0.758,355.663,1.788,0.768,2.546*5D
$GPGBS,030037.00,8.330,3.152,18.262,39,0.0001,16.778,8.772*54
$GPGRS,030037.00,1,0.3,-0.6,-1.0,-0.1,1.1,,,,,,,*4F
$GPGRS,030037.00,1,-4.3,0.0,10.4,-2.1,1.4,,,,,,,*53
$GPGRS,030037.00,1,-0.9,-1.4,-1.1,-2.8,-1.9,,,,,,,*44
$GPGRS,030037.00,1,-3.1,-3.2,0.3,-2.9,3.6,16.8,-1.8,,,,,*5F
$GPGSV,5,1,17,04,85,057,48,11,12,319,32,07,14,183,33,19,21,260,38*79
$GPGSV,5,2,17,01,14,156,,17,13,234,27,31,24,047,40,06,45,302,42*79
$GPGSV,5,3,17,03,51,096,43,09,63,243,52,26,08,072,,28,04,031,*7D
$GPGSV,5,4,17,02,10,163,,36,35,170,40,34,31,208,,49,34,195,35*76
$GPGSV,5,5,17,61,03,257,*4B
$GLGSV,3,1,10,70,67,012,37,80,22,104,38,69,12,064,22,87,17,334,36*67
$GLGSV,3,2,10,79,24,047,,71,44,275,44,85,39,204,36,86,52,293,46*6F
$GLGSV,3,3,10,78,02,002,28,72,00,257,*64
$GAGSV,3,1,11,09,77,060,46,11,20,158,26,18,15,258,,04,25,056,30*6C
$GAGSV,3,2,11,34,47,304,36,05,45,234,43,36,64,195,40,06,51,058,44*68
$GAGSV,3,3,11,23,05,060,,15,02,324,,21,02,014,*5D
$GBGSV,5,1,19,19,75,309,50,39,20,039,37,12,12,327,33,37,26,071,38*6F
$GBGSV,5,2,19,29,13,194,32,58,24,111,,16,29,045,28,46,21,129,*66
$GBGSV,5,3,19,22,24,269,24,05,23,128,,06,30,048,28,44,26,307,48*68
$GBGSV,5,4,19,09,41,060,41,35,39,252,36,20,46,071,44,48,68,059,*69
$GBGSV,5,5,19,23,05,025,21,02,07,106,,60,08,110,*5F
$GPGGA,030037.00,,,,,0,00,,,M,,M,,*4F
$PTNL,GGK,030037.00,010125,4742.4466577,N,01617.9729676,E,1,22,1.4,EHT668.4769,M*4F
$GPGGQ,030037.00,010125,4742.4466577,N,01617.9729676,E,1,22,3.205,625.2658,M*3C
$GPGFA,030037.00,17.044,20.879,1.793,0.758,355.663,2.546,,VVV*05
$GPLLK,030037.00,010125,,M,,M,1,22,1.7,,M*0A
$GNGMP,030037.00,,,,,DAAA,22,0.8,,,,*59
$GPGMP,030037.00,,,,,,05,,,,3.6,123*7A
$GLGMP,030037.00,,,,,,05,,,,,*7D
$GAGMP,030037.00,,,,,,05,,,,,*70
$GBGMP,030037.00,,,,,,07,,,,,*71
$PSSN,SNC,[0,270055000,2347]*41
$GPZDA,030042.00,01,01,2025,,*66
$GPDTM,W84,,00.0000000,N,00.0000000,E,00.0000000,W84*5F
$GPRMC,030042.00,A,4742.4466552,N,01617.9729483,E,0.0,,010125,5.1,E,D*14
$GPGLL,4742.4466552,N,01617.9729483,E,030042.00,A,D*65
$GPGGA,030042.00,4742.4466552,N,01617.9729483,E,2,21,0.7,625.2777,M,43.2111,M,1.4,0123*49
$GNGNS,030042.00,4742.4466552,N,01617.9729483,E,DAAA,21,0.7,625.2777,43.2111,,*50
$GPGNS,030042.00,,,,,,05,,,,1.4,123*78
$GLGNS,030042.00,,,,,,06,,,,,*7C
$GAGNS,030042.00,,,,,,05,,,,,*72
$GBGNS,030042.00,,,,,,05,,,,,*71
$GPLLQ,030042.00,010125,,M,,M,1,21,3.097,,M*1A
$GPVTG,,T,,M,0.00,N,0.00,K,D*26
$GPHDT,,T*1B
$GPTHS,,V*0E
$GPROT,,V*08
$PSSN,HRP,030042.00,010125,,,,,,,00,0,,*64
$PTNL,AVR,030042.00,,Yaw,,Tilt,,,,0,,00*32
$GPGSA,A,3,03,04,06,09,31,,,,,,,,1.4,0.7,1.1*3A
$GPGSA,A,3,70,71,80,85,86,87,,,,,,,1.4,0.7,1.1*35
$GPGSA,A,3,05,06,09,34,36,,,,,,,,1.4,0.7,1.1*38
$GPGSA,A,3,09,19,20,37,44,,,,,,,,1.4,0.7,1.1*37
$GPGST,030042.00,2.726,1.562,0.621,5.626,1.556,0.636,2.601*50
$GPGBS,030042.00,7.689,2.948,17.124,31,0.0001,2.324,1.056*6A
$GPGRS,030042.00,1,0.6,-0.3,-0.7,-0.3,2.3,,,,,,,*48
$GPGRS,030042.00,1,-3.6,0.3,3.2,-4.6,-3.1,-3.1,,,,,,*4E
$GPGRS,030042.00,1,-0.9,-0.3,-0.8,-2.7,-1.4,,,,,,,*4A
$GPGRS,030042.00,1,-3.5,-2.7,1.4,0.4,-1.5,,,,,,,*4E
$GPGSV,5,1,17,04,85,057,49,11,12,319,33,07,14,183,32,19,21,260,34*74
$GPGSV,5,2,17,01,14,156,,17,12,234,25,31,24,047,39,06,45,302,44*72
$GPGSV,5,3,17,03,51,096,43,09,63,243,52,26,08,072,,28,04,031,*7D
$GPGSV,5,4,17,02,10,163,,36,35,170,39,34,31,208,,49,34,195,34*79
$GPGSV,5,5,17,61,03,257,*4B
$GLGSV,3,1,10,70,67,012,36,80,22,104,37,69,12,064,20,87,17,334,36*6B
$GLGSV,3,2,10,79,24,047,,71,44,275,45,85,39,204,35,86,52,292,44*6E
$GLGSV,3,3,10,78,02,002,24,72,00,257,*68
$GAGSV,3,1,11,09,77,060,46,11,20,158,25,18,15,258,,04,25,056,27*69
$GAGSV,3,2,11,34,48,304,36,05,45,234,44,36,64,195,42,06,51,058,45*63
$GAGSV,3,3,11,23,05,060,,15,02,324,,21,02,014,*5D
$GBGSV,5,1,19,19,75,309,51,39,20,039,33,12,12,327,30,37,26,071,38*69
$GBGSV,5,2,19,29,13,194,29,58,24,111,,16,29,045,34,46,21,129,*61
$GBGSV,5,3,19,22,24,269,34,05,23,128,,06,30,048,23,44,26,307,47*6D
$GBGSV,5,4,19,09,41,060,41,35,39,252,35,20,46,071,44,48,68,059,*6A
$GBGSV,5,5,19,23,05,025,,02,07,106,,60,08,110,*5C
$GPGGA,030042.00,,,,,0,00,,,M,,M,,*4D
$PTNL,GGK,030042.00,010125,4742.4466552,N,01617.9729483,E,1,21,1.4,EHT668.4887,M*4E
$GPGGQ,030042.00,010125,4742.4466552,N,01617.9729483,E,1,21,3.097,625.2777,M*37
$GPGFA,030042.00,14.853,21.328,1.562,0.621,5.626,2.601,,VVV*00
$GPLLK,030042.00,010125,,M,,M,1,21,1.6,,M*0A
$GNGMP,030042.00,,,,,DAAA,21,0.7,,,,*57
$GPGMP,030042.00,,,,,,05,,,,1.4,123*78
$GLGMP,030042.00,,,,,,06,,,,,*7C
$GAGMP,030042.00,,,,,,05,,,,,*72
$GBGMP,030042.00,,,,,,05,,,,,*71
$PSSN,SNC,[0,270060000,2347]*47
$GPZDA,030047.00,01,01,2025,,*63
$GPDTM,W84,,00.0000000,N,00.0000000,E,00.0000000,W84*5F
$GPRMC,030047.00,A,4742.4466517,N,01617.9729367,E,0.0,,010125,5.1,E,D*1D
$GPGLL,4742.4466517,N,01617.9729367,E,030047.00,A,D*6C
$GPGGA,030047.00,4742.4466517,N,01617.9729367,E,2,19,0.9,625.3090,M,43.2111,M,2.4,0123*49
$GNGNS,030047.00,4742.4466517,N,01617.9729367,E,DAAA,19,0.9,625.3090,43.2111,,*53
$GPGNS,030047.00,,,,,,05,,,,2.4,123*7E
$GLGNS,030047.00,,,,,,04,,,,,*7B
$GAGNS,030047.00,,,,,,05,,,,,*77
$GBGNS,030047.00,,,,,,05,,,,,*74
$GPLLQ,030047.00,010125,,M,,M,1,19,2.634,,M*1A
$GPVTG,,T,,M,0.00,N,0.01,K,D*27
$GPHDT,,T*1B
$GPTHS,,V*0E
$GPROT,,V*08
$PSSN,HRP,030047.00,010125,,,,,,,00,0,,*61
$PTNL,AVR,030047.00,,Yaw,,Tilt,,,,0,,00*37
$GPGSA,A,3,03,04,06,09,31,,,,,,,,1.5,0.9,1.2*36
$GPGSA,A,3,70,71,80,86,,,,,,,,,1.5,0.9,1.2*3B
$GPGSA,A,3,05,06,09,34,36,,,,,,,,1.5,0.9,1.2*34
$GPGSA,A,3,09,19,20,22,44,,,,,,,,1.5,0.9,1.2*3F
$GPGST,030047.00,2.979,1.345,0.523,5.312,1.340,0.535,2.204*51
$GPGBS,030047.00,8.128,2.990,17.582,31,0.0001,1.317,1.069*6E
$GPGRS,030047.00,1,0.5,-0.4,-0.1,-0.3,1.3,,,,,,,*4C
$GPGRS,030047.00,1,-5.2,1.7,-2.3,-3.5,,,,,,,,*65
$GPGRS,030047.00,1,-0.4,-0.3,-1.0,-2.5,-0.3,,,,,,,*4F
$GPGRS,030047.00,1,-3.2,-3.0,2.2,-4.7,-1.7,,,,,,,*67
$GPGSV,5,1,17,04,84,057,48,11,12,319,32,07,14,183,32,19,21,260,36*77
$GPGSV,5,2,17,01,14,156,,17,12,234,27,31,24,047,39,06,45,302,44*70
$GPGSV,5,3,17,03,51,096,44,09,63,243,52,26,08,072,,28,04,031,*7A
$GPGSV,5,4,17,02,10,163,19,36,35,170,38,34,31,208,,49,34,195,37*73
$GPGSV,5,5,17,61,03,257,*4B
$GLGSV,3,1,10,70,67,012,36,80,22,104,36,69,12,064,,87,17,334,32*6C
$GLGSV,3,2,10,79,24,047,26,71,44,275,46,85,39,204,32,86,52,292,46*6C
$GLGSV,3,3,10,78,02,002,,72,00,257,*6E
$GAGSV,3,1,11,09,77,060,46,11,20,158,25,18,15,258,,04,25,057,25*6A
$GAGSV,3,2,11,34,48,304,38,05,46,234,43,36,64,195,43,06,51,058,45*68
$GAGSV,3,3,11,23,05,060,,15,02,324,,21,02,014,*5D
$GBGSV,5,1,19,19,75,309,51,39,20,039,33,12,12,327,30,37,26,071,35*64
$GBGSV,5,2,19,29,13,194,27,58,24,111,,16,29,045,34,46,21,129,*6F
$GBGSV,5,3,19,22,24,269,19,05,23,128,,06,30,048,33,44,26,307,47*63
$GBGSV,5,4,19,09,41,060,41,35,39,252,33,20,46,071,44,48,68,059,*6C
$GBGSV,5,5,19,23,05,025,,02,07,106,,60,08,110,*5C
$GPGGA,030047.00,,,,,0,00,,,M,,M,,*48
$PTNL,GGK,030047.00,010125,4742.4466517,N,01617.9729367,E,1,19,1.5,EHT668.5201,M*48
$GPGGQ,030047.00,010125,4742.4466517,N,01617.9729367,E,1,19,2.634,625.3090,M*34
$GPGFA,030047.00,12.785,18.075,1.345,0.523,5.312,2.204,,VVV*07
$GPLLK,030047.00,010125,,M,,M,1,19,1.8,,M*0A
$GNGMP,030047.00,,,,,DAAA,19,0.9,,,,*57
$GPGMP,030047.00,,,,,,05,,,,2.4,123*7E
$GLGMP,030047.00,,,,,,04,,,,,*7B
$GAGMP,030047.00,,,,,,05,,,,,*77
$GBGMP,030047.00,,,,,,05,,,,,*74
$PSSN,SNC,[0,270065000,2347]*42
$GPZDA,030052.00,01,01,2025,,*67
$GPDTM,W84,,00.0000000,N,00.0000000,E,00.0000000,W84*5F
$GPRMC,030052.00,A,4742.4466467,N,01617.9729273,E,0.0,,010125,5.1,E,D*1B
$GPGLL,4742.4466467,N,01617.9729273,E,030052.00,A,D*6A
$GPGGA,030052.00,4742.4466467,N,01617.9729273,E,2,19,0.8,625.3238,M,43.2111,M,2.6,0123*4C
$GNGNS,030052.00,4742.4466467,N,01617.9729273,E,DAAA,19,0.8,625.3238,43.2111,,*54
$GPGNS,030052.00,,,,,,05,,,,2.6,123*78
$GLGNS,030052.00,,,,,,05,,,,,*7E
$GAGNS,030052.00,,,,,,05,,,,,*73
$GBGNS,030052.00,,,,,,04,,,,,*71
$GPLLQ,030052.00,010125,,M,,M,1,19,2.821,,M*14
$GPVTG,,T,,M,0.01,N,0.02,K,D*25
$GPHDT,,T*1B
$GPTHS,,V*0E
$GPROT,,V*08
$PSSN,HRP,030052.00,010125,,,,,,,00,0,,*65
$PTNL,AVR,030052.00,,Yaw,,Tilt,,,,0,,00*33
$GPGSA,A,3,03,04,06,09,31,,,,,,,,1.5,0.8,1.3*36
$GPGSA,A,3,70,71,80,85,86,,,,,,,,1.5,0.8,1.3*36
$GPGSA,A,3,05,06,09,34,36,,,,,,,,1.5,0.8,1.3*34
$GPGSA,A,3,09,19,20,44,,,,,,,,,1.5,0.8,1.3*3F
$GPGST,030052.00,2.926,1.429,0.568,5.399,1.423,0.581,2.365*55
$GPGBS,030052.00,7.911,3.124,17.659,31,0.0001,1.534,1.038*67
$GPGRS,030052.00,1,0.6,-0.5,-0.2,-0.2,1.5,,,,,,,*4E
$GPGRS,030052.00,1,-4.6,3.8,-3.9,-5.0,-0.2,,,,,,,*60
$GPGRS,030052.00,1,-0.9,-0.4,-0.5,-2.0,-0.0,,,,,,,*43
$GPGRS,030052.00,1,-2.3,-2.7,1.5,-1.8,,,,,,,,*6E
$GPGSV,5,1,17,04,84,057,49,11,12,319,33,07,14,183,31,19,21,260,36*74
$GPGSV,5,2,17,01,14,156,,17,12,234,28,31,24,047,39,06,45,302,44*7F
$GPGSV,5,3,17,03,51,096,45,09,63,243,52,26,08,072,,28,04,031,*7B
$GPGSV,5,4,17,02,10,163,20,36,35,170,38,34,31,208,,49,34,195,35*7B
$GPGSV,5,5,17,61,03,257,*4B
$GLGSV,3,1,10,70,67,012,36,80,22,104,37,69,11,064,,87,17,334,*6F
$GLGSV,3,2,10,79,24,047,,71,44,275,46,85,39,204,37,86,52,292,45*6E
$GLGSV,3,3,10,78,02,002,,72,00,257,*6E
$GAGSV,3,1,11,09,77,060,46,11,20,158,24,18,15,258,,04,25,057,25*6B
$GAGSV,3,2,11,34,48,304,39,05,46,234,42,36,64,194,44,06,51,058,46*6D
$GAGSV,3,3,11,23,05,060,,15,02,324,,21,02,014,*5D
$GBGSV,5,1,19,19,75,310,51,39,20,039,32,12,12,327,30,37,26,071,35*6D
$GBGSV,5,2,19,29,13,194,28,58,24,111,,16,29,045,32,46,21,129,*66
$GBGSV,5,3,19,22,24,269,29,05,23,128,,06,30,048,33,44,26,307,47*60
$GBGSV,5,4,19,09,41,060,41,35,39,252,33,20,46,071,44,48,68,059,*6C
$GBGSV,5,5,19,23,05,025,,02,07,106,,60,08,110,*5C
$GPGGA,030052.00,,,,,0,00,,,M,,M,,*4C
$PTNL,GGK,030052.00,010125,4742.4466467,N,01617.9729273,E,1,19,1.5,EHT668.5348,M*42
$GPGGQ,030052.00,010125,4742.4466467,N,01617.9729273,E,1,19,2.821,625.3238,M*38
$GPGFA,030052.00,13.582,19.395,1.429,0.568,5.399,2.365,,VVV*0C
$GPLLK,030052.00,010125,,M,,M,1,19,1.8,,M*0E
$GNGMP,030052.00,,,,,DAAA,19,0.8,,,,*52
$GPGMP,030052.00,,,,,,05,,,,2.6,123*78
$GLGMP,030052.00,,,,,,05,,,,,*7E
$GAGMP,030052.00,,,,,,05,,,,,*73
$GBGMP,030052.00,,,,,,04,,,,,*71
$PSSN,SNC,[0,270070000,2347]*46
$GPZDA,030057.00,01,01,2025,,*62
$GPDTM,W84,,00.0000000,N,00.0000000,E,00.0000000,W84*5F
$GPRMC,030057.00,A,4742.4466454,N,01617.9729100,E,0.0,,010125,5.1,E,D*19
$GPGLL,4742.4466454,N,01617.9729100,E,030057.00,A,D*68
$GPGGA,030057.00,4742.4466454,N,01617.9729100,E,2,18,0.9,625.3420,M,43.2111,M,3.6,0123*40
$GNGNS,030057.00,4742.4466454,N,01617.9729100,E,DAAA,18,0.9,625.3420,43.2111,,*59
$GPGNS,030057.00,,,,,,05,,,,3.6,123*7C
$GLGNS,030057.00,,,,,,04,,,,,*7A
$GAGNS,030057.00,,,,,,05,,,,,*76
$GBGNS,030057.00,,,,,,04,,,,,*74
$GPLLQ,030057.00,010125,,M,,M,1,18,2.977,,M*12
$GPVTG,,T,,M,0.01,N,0.01,K,D*26
$GPHDT,,T*1B
$GPTHS,,V*0E
$GPROT,,V*08
$PSSN,HRP,030057.00,010125,,,,,,,00,0,,*60
$PTNL,AVR,030057.00,,Yaw,,Tilt,,,,0,,00*36
$GPGSA,A,3,03,04,06,09,31,,,,,,,,1.8,0.9,1.5*3C
$GPGSA,A,3,70,71,85,86,,,,,,,,,1.8,0.9,1.5*34
$GPGSA,A,3,05,06,09,34,36,,,,,,,,1.8,0.9,1.5*3E
$GPGSA,A,3,09,19,20,44,,,,,,,,,1.8,0.9,1.5*35
$GPGST,030057.00,2.225,1.508,0.595,5.122,1.503,0.608,2.496*50
$GPGBS,030057.00,8.064,3.243,18.396,03,0.0001,0.976,0.689*6A
$GPGRS,030057.00,1,1.0,-0.4,-0.8,-0.1,1.1,,,,,,,*40
$GPGRS,030057.00,1,-3.1,5.2,0.5,-1.4,,,,,,,,*4A
$GPGRS,030057.00,1,-0.4,-1.0,-0.2,-1.4,-0.4,,,,,,,*4A
$GPGRS,030057.00,1,-1.8,-2.0,0.0,-1.4,,,,,,,,*6C
$GPGSV,5,1,17,04,84,057,48,11,12,319,35,01,14,156,,17,12,234,32*74
$GPGSV,5,2,17,07,14,183,29,19,21,260,32,31,24,047,39,06,46,302,43*7A
$GPGSV,5,3,17,03,51,096,45,09,63,243,52,26,08,072,,28,04,031,*7B
$GPGSV,5,4,17,02,10,163,22,36,35,170,37,34,31,208,,49,34,195,34*77
$GPGSV,5,5,17,61,03,257,*4B
$GLGSV,3,1,10,70,67,012,37,80,22,104,34,69,11,064,,87,17,334,*6D
$GLGSV,3,2,10,79,24,047,,71,44,275,46,85,39,204,40,86,52,292,45*6E
$GLGSV,3,3,10,78,01,002,28,72,00,257,*67
$GAGSV,3,1,11,09,77,060,46,11,20,158,24,18,15,258,,04,25,057,26*68
$GAGSV,3,2,11,34,48,304,38,05,46,234,41,36,64,194,44,06,51,058,45*6C
$GAGSV,3,3,11,23,05,060,,15,02,324,,21,02,014,*5D
$GBGSV,5,1,19,19,75,310,50,39,20,039,30,12,12,327,30,37,26,071,35*6E
$GBGSV,5,2,19,29,13,194,31,58,24,111,,16,29,045,33,46,21,129,*6F
$GBGSV,5,3,19,22,24,269,24,05,23,128,,06,30,048,33,44,26,307,47*6D
$GBGSV,5,4,19,09,41,060,41,35,39,252,29,20,46,071,44,48,68,059,*67
$GBGSV,5,5,19,23,05,025,19,02,07,106,,60,08,110,*54
$GPGGA,030057.00,,,,,0,00,,,M,,M,,*49
$PTNL,GGK,030057.00,010125,4742.4466454,N,01617.9729100,E,1,18,1.8,EHT668.5530,M*45
$GPGGQ,030057.00,010125,4742.4466454,N,01617.9729100,E,1,18,2.977,625.3420,M*36
$GPGFA,030057.00,14.341,20.470,1.508,0.595,5.122,2.496,,VVV*08
$GPLLK,030057.00,010125,,M,,M,1,18,2.1,,M*00
$GNGMP,030057.00,,,,,DAAA,18,0.9,,,,*57
$GPGMP,030057.00,,,,,,05,,,,3.6,123*7C
$GLGMP,030057.00,,,,,,04,,,,,*7A
$GAGMP,030057.00,,,,,,05,,,,,*76
$GBGMP,030057.00,,,,,,04,,,,,*74
$PSSN,SNC,[0,270075000,2347]*43
$GPZDA,030102.00,01,01,2025,,*63
$GPDTM,W84,,00.0000000,N,00.0000000,E,00.0000000,W84*5F
$GPRMC,030102.00,A,4742.4466468,N,01617.9728921,E,0.0,,010125,5.1,E,D*1D
$GPGLL,4742.4466468,N,01617.9728921,E,030102.00,A,D*6C
$GPGGA,030102.00,4742.4466468,N,01617.9728921,E,2,18,0.9,625.3576,M,43.2111,M,1.4,0123*46
$GNGNS,030102.00,4742.4466468,N,01617.9728921,E,DAAA,18,0.9,625.3576,43.2111,,*5F
$GPGNS,030102.00,,,,,,05,,,,1.4,123*7D
$GLGNS,030102.00,,,,,,04,,,,,*7B
$GAGNS,030102.00,,,,,,05,,,,,*77
$GBGNS,030102.00,,,,,,04,,,,,*75
$GPLLQ,030102.00,010125,,M,,M,1,18,2.889,,M*13
$GPVTG,,T,,M,0.01,N,0.02,K,D*25
$GPHDT,,T*1B
$GPTHS,,V*0E
$GPROT,,V*08
$PSSN,HRP,030102.00,010125,,,,,,,00,0,,*61
$PTNL,AVR,030102.00,,Yaw,,Tilt,,,,0,,00*37
$GPGSA,A,3,03,04,06,09,31,,,,,,,,1.8,0.9,1.5*3C
$GPGSA,A,3,70,71,85,86,,,,,,,,,1.8,0.9,1.5*34
$GPGSA,A,3,05,06,09,34,36,,,,,,,,1.8,0.9,1.5*3E
$GPGSA,A,3,09,19,20,44,,,,,,,,,1.8,0.9,1.5*35
$GPGST,030102.00,3.612,1.461,0.576,5.168,1.456,0.589,2.424*5F
$GPGBS,030102.00,7.767,2.999,17.546,85,0.0001,9.018,6.075*6C
$GPGRS,030102.00,1,0.7,-0.3,-0.6,-0.2,1.1,,,,,,,*4D
$GPGRS,030102.00,1,-3.4,4.4,9.0,-2.8,,,,,,,,*4A
$GPGRS,030102.00,1,0.1,-1.1,-0.0,-2.1,-0.6,,,,,,,*64
$GPGRS,030102.00,1,-2.0,-2.0,-0.3,-2.4,,,,,,,,*4B
$GPGSV,5,1,17,04,84,057,48,11,12,319,37,01,14,156,,17,12,234,35*71
$GPGSV,5,2,17,07,14,183,23,19,21,260,31,31,24,047,39,06,46,302,44*74
$GPGSV,5,3,17,03,51,096,44,09,64,243,51,26,08,072,,28,04,031,*7E
$GPGSV,5,4,17,02,10,163,21,36,35,170,37,34,31,208,,49,34,195,34*74
$GPGSV,5,5,17,61,03,257,*4B
$GLGSV,3,1,10,70,67,012,39,80,22,104,32,69,11,064,20,87,17,334,*67
$GLGSV,3,2,10,79,24,047,27,71,44,275,47,85,39,204,42,86,52,292,45*68
$GLGSV,3,3,10,78,01,002,,72,00,257,*6D
$GAGSV,3,1,11,09,77,060,45,11,20,158,22,18,15,258,,04,25,057,34*6E
$GAGSV,3,2,11,34,48,304,38,05,46,234,40,36,64,194,44,06,51,058,44*6C
$GAGSV,3,3,11,23,05,060,,15,02,324,,21,02,014,*5D
$GBGSV,5,1,19,19,75,310,49,39,20,039,33,12,12,327,29,37,26,071,34*6C
$GBGSV,5,2,19,29,13,194,32,58,24,111,,16,29,045,32,46,21,129,*6D
$GBGSV,5,3,19,22,24,269,36,05,23,128,,06,30,048,35,44,26,307,47*68
$GBGSV,5,4,19,09,41,060,40,35,39,252,31,20,46,071,45,48,68,059,*6E
$GBGSV,5,5,19,23,05,025,19,02,07,106,,60,08,110,*54
$GPGGA,030102.00,,,,,0,00,,,M,,M,,*48
$PTNL,GGK,030102.00,010125,4742.4466468,N,01617.9728921,E,1,18,1.8,EHT668.5687,M*4E
$GPGGQ,030102.00,010125,4742.4466468,N,01617.9728921,E,1,18,2.889,625.3576,M*30
$GPGFA,030102.00,13.894,19.879,1.461,0.576,5.168,2.424,,VVV*06
$GPLLK,030102.00,010125,,M,,M,1,18,2.1,,M*01
$GNGMP,030102.00,,,,,DAAA,18,0.9,,,,*56
$GPGMP,030102.00,,,,,,05,,,,1.4,123*7D
$GLGMP,030102.00,,,,,,04,,,,,*7B
$GAGMP,030102.00,,,,,,05,,,,,*77
$GBGMP,030102.00,,,,,,04,,,,,*75
$PSSN,SNC,[0,270080000,2347]*49
$GPZDA,030107.00,01,01,2025,,*66
$GPDTM,W84,,00.0000000,N,00.0000000,E,00.0000000,W84*5F
$GPRMC,030107.00,A,4742.4466423,N,01617.9728772,E,0.0,,010125,5.1,E,D*1F
$GPGLL,4742.4466423,N,01617.9728772,E,030107.00,A,D*6E
$GPGGA,030107.00,4742.4466423,N,01617.9728772,E,2,19,0.8,625.3748,M,43.2111,M,2.4,0123*48
$GNGNS,030107.00,4742.4466423,N,01617.9728772,E,DAAA,19,0.8,625.3748,43.2111,,*52
$GPGNS,030107.00,,,,,,05,,,,2.4,123*7B
$GLGNS,030107.00,,,,,,05,,,,,*7F
$GAGNS,030107.00,,,,,,05,,,,,*72
$GBGNS,030107.00,,,,,,04,,,,,*70
$GPLLQ,030107.00,010125,,M,,M,1,19,3.779,,M*16
$GPVTG,,T,,M,0.01,N,0.01,K,D*26
$GPHDT,,T*1B
$GPTHS,,V*0E
$GPROT,,V*08
$PSSN,HRP,030107.00,010125,,,,,,,00,0,,*64
$PTNL,AVR,030107.00,,Yaw,,Tilt,,,,0,,00*32
$GPGSA,A,3,03,04,06,09,31,,,,,,,,1.5,0.8,1.3*36
$GPGSA,A,3,70,71,80,85,86,,,,,,,,1.5,0.8,1.3*36
$GPGSA,A,3,05,06,09,34,36,,,,,,,,1.5,0.8,1.3*34
$GPGSA,A,3,09,19,20,44,,,,,,,,,1.5,0.8,1.3*3F
$GPGST,030107.00,4.511,1.916,0.758,5.640,1.908,0.777,3.167*55
$GPGBS,030107.00,7.804,3.031,17.423,31,0.0001,2.674,1.072*63
$GPGRS,030107.00,1,0.1,-0.5,-0.3,-0.4,2.7,,,,,,,*4E
$GPGRS,030107.00,1,-4.0,3.3,1.6,13.2,-3.2,,,,,,,*57
$GPGRS,030107.00,1,0.4,-0.9,0.1,-0.9,-0.6,,,,,,,*4B
$GPGRS,030107.00,1,-2.9,-1.9,-1.2,-2.9,,,,,,,,*40
$GPGSV,5,1,17,04,84,057,49,11,12,319,35,07,14,183,20,19,21,260,*77
$GPGSV,5,2,17,01,14,156,,17,12,234,33,31,24,047,40,06,46,302,44*78
$GPGSV,5,3,17,03,51,096,46,09,64,243,51,26,08,072,,28,04,031,*7C
$GPGSV,5,4,17,02,10,163,20,36,35,170,38,34,31,208,,49,34,195,34*7A
$GPGSV,5,5,17,61,03,257,*4B
$GLGSV,3,1,10,70,67,013,39,80,22,103,37,69,11,064,,87,17,334,29*6D
$GLGSV,3,2,10,79,24,046,,71,44,276,46,85,39,204,43,86,52,292,44*6E
$GLGSV,3,3,10,78,01,002,23,72,00,257,*6C
$GAGSV,3,1,11,09,77,060,46,11,19,158,33,18,15,257,,04,25,057,26*6B
$GAGSV,3,2,11,34,48,304,38,05,46,234,41,36,64,194,43,06,51,058,45*6B
$GAGSV,3,3,11,23,05,060,,15,02,324,,21,02,014,*5D
$GBGSV,5,1,19,19,75,310,49,39,20,039,34,12,12,327,30,37,26,071,33*64
$GBGSV,5,2,19,29,13,194,32,58,24,111,,16,29,045,33,46,21,129,*6C
$GBGSV,5,3,19,22,24,269,34,05,23,128,,06,30,048,35,44,26,307,47*6A
$GBGSV,5,4,19,09,41,060,40,35,39,252,30,20,46,071,45,48,68,059,*6F
$GBGSV,5,5,19,23,05,025,,02,07,106,,60,08,110,*5C
$GPGGA,030107.00,,,,,0,00,,,M,,M,,*4D
$PTNL,GGK,030107.00,010125,4742.4466423,N,01617.9728772,E,1,19,1.5,EHT668.5859,M*4D
$GPGGQ,030107.00,010125,4742.4466423,N,01617.9728772,E,1,19,3.779,625.3748,M*3D
$GPGFA,030107.00,18.216,25.973,1.916,0.758,5.640,3.167,,VVV*01
$GPLLK,030107.00,010125,,M,,M,1,19,1.8,,M*0F
$GNGMP,030107.00,,,,,DAAA,19,0.8,,,,*53
$GPGMP,030107.00,,,,,,05,,,,2.4,123*7B
$GLGMP,030107.00,,,,,,05,,,,,*7F
$GAGMP,030107.00,,,,,,05,,,,,*72
$GBGMP,030107.00,,,,,,04,,,,,*70
$PSSN,SNC,[0,270085000,2347]*4C
$GPZDA,030112.00,01,01,2025,,*62
$GPDTM,W84,,00.0000000,N,00.0000000,E,00.0000000,W84*5F
$GPRMC,030112.00,A,4742.4466396,N,01617.9728637,E,0.0,,010125,5.1,E,D*12
$GPGLL,4742.4466396,N,01617.9728637,E,030112.00,A,D*63
$GPGGA,030112.00,4742.4466396,N,01617.9728637,E,2,19,0.8,625.4030,M,43.2111,M,4.0,0123*48
$GNGNS,030112.00,4742.4466396,N,01617.9728637,E,DAAA,19,0.8,625.4030,43.2111,,*50
$GPGNS,030112.00,,,,,,04,,,,4.0,123*7C
$GLGNS,030112.00,,,,,,05,,,,,*7B
$GAGNS,030112.00,,,,,,05,,,,,*76
$GBGNS,030112.00,,,,,,05,,,,,*75
$GPLLQ,030112.00,010125,,M,,M,1,19,3.668,,M*13
$GPVTG,,T,,M,0.01,N,0.01,K,D*26
$GPHDT,,T*1B
$GPTHS,,V*0E
$GPROT,,V*08
$PSSN,HRP,030112.00,010125,,,,,,,00,0,,*60
$PTNL,AVR,030112.00,,Yaw,,Tilt,,,,0,,00*36
$GPGSA,A,3,03,04,06,09,,,,,,,,,1.6,0.8,1.4*30
$GPGSA,A,3,70,71,80,85,86,,,,,,,,1.6,0.8,1.4*32
$GPGSA,A,3,05,06,09,34,36,,,,,,,,1.6,0.8,1.4*30
$GPGSA,A,3,06,09,19,20,44,,,,,,,,1.6,0.8,1.4*3D
$GPGST,030112.00,7.034,1.751,0.685,9.046,1.732,0.730,3.150*50
$GPGBS,030112.00,10.050,4.160,20.607,06,0.0001,19.345,8.621*6A
$GPGRS,030112.00,1,0.4,-0.4,0.2,-0.2,,,,,,,,*4F
$GPGRS,030112.00,1,-4.2,0.2,4.1,12.1,-2.2,,,,,,,*52
$GPGRS,030112.00,1,0.5,-0.9,-0.1,-2.7,-0.3,,,,,,,*6A
$GPGRS,030112.00,1,19.3,-2.7,-1.8,-1.7,-3.5,,,,,,,*56
$GPGSV,5,1,17,04,84,057,50,11,12,319,34,07,14,183,,19,21,260,24*7A
$GPGSV,5,2,17,01,14,156,,17,12,234,29,31,24,047,40,06,46,302,44*73
$GPGSV,5,3,17,03,51,096,46,09,64,243,51,26,08,072,,28,04,031,*7C
$GPGSV,5,4,17,02,10,163,,36,35,170,38,34,31,208,,49,34,195,35*79
$GPGSV,5,5,17,61,03,257,*4B
$GLGSV,3,1,10,70,67,013,40,80,22,103,36,69,11,064,22,87,17,334,34*6E
$GLGSV,3,2,10,79,24,046,,71,44,276,42,85,39,204,38,86,52,292,43*61
$GLGSV,3,3,10,78,01,002,23,72,00,257,*6C
$GAGSV,3,1,11,09,77,060,45,11,19,158,33,18,15,257,,04,25,057,28*66
$GAGSV,3,2,11,34,48,304,39,05,46,234,41,36,64,194,44,06,51,058,45*6D
$GAGSV,3,3,11,23,05,060,,15,02,324,,21,02,014,*5D
$GBGSV,5,1,19,19,75,310,50,39,20,039,35,12,12,327,34,37,26,071,30*6A
$GBGSV,5,2,19,29,13,194,31,58,24,111,,16,29,045,33,46,21,129,*6F
$GBGSV,5,3,19,22,24,269,36,05,23,128,,06,30,048,35,44,26,307,46*69
$GBGSV,5,4,19,09,41,060,41,35,39,252,29,20,46,071,46,48,68,059,*65
$GBGSV,5,5,19,23,05,025,22,02,07,106,,60,08,110,*5C
$GPGGA,030112.00,,,,,0,00,,,M,,M,,*49
$PTNL,GGK,030112.00,010125,4742.4466396,N,01617.9728637,E,1,19,1.6,EHT668.6141,M*40
$GPGGQ,030112.00,010125,4742.4466396,N,01617.9728637,E,1,19,3.668,625.4030,M*3E
$GPGFA,030112.00,16.645,25.830,1.751,0.685,9.046,3.150,,VVV*0B
$GPLLK,030112.00,010125,,M,,M,1,19,1.9,,M*0A
$GNGMP,030112.00,,,,,DAAA,19,0.8,,,,*57
$GPGMP,030112.00,,,,,,04,,,,4.0,123*7C
$GLGMP,030112.00,,,,,,05,,,,,*7B
$GAGMP,030112.00,,,,,,05,,,,,*76
$GBGMP,030112.00,,,,,,05,,,,,*75
$PSSN,SNC,[0,270090000,2347]*48
$GPZDA,030117.00,01,01,2025,,*67
$GPDTM,W84,,00.0000000,N,00.0000000,E,00.0000000,W84*5F
$GPRMC,030117.00,A,4742.4466422,N,01617.9728652,E,0.0,,010125,5.1,E,D*1C
$GPGLL,4742.4466422,N,01617.9728652,E,030117.00,A,D*6D
$GPGGA,030117.00,4742.4466422,N,01617.9728652,E,2,18,0.9,625.4159,M,43.2111,M,1.0,0123*4D
$GNGNS,030117.00,4742.4466422,N,01617.9728652,E,DAAA,18,0.9,625.4159,43.2111,,*50
$GPGNS,030117.00,,,,,,04,,,,1.0,123*7C
$GLGNS,030117.00,,,,,,05,,,,,*7E
$GAGNS,030117.00,,,,,,05,,,,,*73
$GBGNS,030117.00,,,,,,04,,,,,*71
$GPLLQ,030117.00,010125,,M,,M,1,18,4.286,,M*14
$GPVTG,,T,,M,0.01,N,0.01,K,D*26
$GPHDT,,T*1B
$GPTHS,,V*0E
$GPROT,,V*08
$PSSN,HRP,030117.00,010125,,,,,,,00,0,,*65
$PTNL,AVR,030117.00,,Yaw,,Tilt,,,,0,,00*33
$GPGSA,A,3,03,04,06,09,,,,,,,,,1.7,0.9,1.4*30
$GPGSA,A,3,70,71,79,80,86,,,,,,,,1.7,0.9,1.4*31
$GPGSA,A,3,05,06,09,34,36,,,,,,,,1.7,0.9,1.4*30
$GPGSA,A,3,09,19,20,44,,,,,,,,,1.7,0.9,1.4*3B
$GPGST,030117.00,6.373,2.080,0.793,8.843,2.059,0.846,3.662*57
$GPGBS,030117.00,10.013,3.853,19.904,79,0.0001,18.855,6.300*6B
$GPGRS,030117.00,1,0.3,-0.4,0.2,0.0,,,,,,,,*62
$GPGRS,030117.00,1,-3.8,-6.5,18.9,-1.4,-0.3,,,,,,,*5A
$GPGRS,030117.00,1,0.9,-0.9,0.2,-3.0,-0.0,,,,,,,*48
$GPGRS,030117.00,1,-1.2,-1.5,-1.6,-3.9,,,,,,,,*40
$GPGSV,5,1,17,04,84,057,50,11,12,319,32,01,14,156,,17,12,234,*7B
$GPGSV,5,2,17,07,14,183,,19,21,260,21,31,24,047,37,06,46,302,46*78
$GPGSV,5,3,17,03,51,096,45,09,64,243,51,26,08,072,,28,04,031,*7F
$GPGSV,5,4,17,02,09,163,23,36,35,170,38,34,31,208,,49,34,195,36*73
$GPGSV,5,5,17,61,03,257,*4B
$GLGSV,3,1,10,70,67,013,40,80,22,103,35,69,11,064,,87,17,334,*6A
$GLGSV,3,2,10,79,24,046,37,71,44,276,35,85,39,204,27,86,52,292,43*6B
$GLGSV,3,3,10,78,01,002,26,72,00,257,*69
$GAGSV,3,1,11,09,77,060,44,11,19,158,33,18,15,257,,04,25,057,27*68
$GAGSV,3,2,11,34,48,304,40,05,46,234,42,36,63,194,45,06,51,058,46*65
$GAGSV,3,3,11,23,05,060,,15,02,324,,21,02,014,*5D
$GBGSV,5,1,19,19,75,310,50,39,20,039,32,12,12,327,35,37,26,071,28*65
$GBGSV,5,2,19,29,13,193,32,58,24,111,,16,28,045,34,46,21,129,*6D
$GBGSV,5,3,19,22,24,269,36,05,23,128,,06,30,048,34,44,26,307,47*69
$GBGSV,5,4,19,09,41,060,41,35,39,252,34,20,46,071,45,48,68,059,*6A
$GBGSV,5,5,19,23,05,025,25,02,07,106,,60,08,110,*5B
$GPGGA,030117.00,,,,,0,00,,,M,,M,,*4C
$PTNL,GGK,030117.00,010125,4742.4466422,N,01617.9728652,E,1,18,1.7,EHT668.6270,M*4F
$GPGGQ,030117.00,010125,4742.4466422,N,01617.9728652,E,1,18,4.286,625.4159,M*3C
$GPGFA,030117.00,19.780,30.028,2.080,0.793,8.843,3.662,,VVV*08
$GPLLK,030117.00,010125,,M,,M,1,18,2.0,,M*04
$GNGMP,030117.00,,,,,DAAA,18,0.9,,,,*52
$GPGMP,030117.00,,,,,,04,,,,1.0,123*7C
$GLGMP,030117.00,,,,,,05,,,,,*7E
$GAGMP,030117.00,,,,,,05,,,,,*73
$GBGMP,030117.00,,,,,,04,,,,,*71
$PSSN,SNC,[0,270095000,2347]*4D
$GPZDA,030122.00,01,01,2025,,*61
$GPDTM,W84,,00.0000000,N,00.0000000,E,00.0000000,W84*5F
$GPRMC,030122.00,A,4742.4466371,N,01617.9728674,E,0.0,,010125,5.1,E,D*1F
$GPGLL,4742.4466371,N,01617.9728674,E,030122.00,A,D*6E
$GPGGA,030122.00,4742.4466371,N,01617.9728674,E,2,19,0.9,625.4115,M,43.2111,M,2.0,0123*44
$GNGNS,030122.00,4742.4466371,N,01617.9728674,E,DAAA,19,0.9,625.4115,43.2111,,*5A
$GPGNS,030122.00,,,,,,04,,,,2.0,123*79
$GLGNS,030122.00,,,,,,04,,,,,*79
$GAGNS,030122.00,,,,,,05,,,,,*75
$GBGNS,030122.00,,,,,,06,,,,,*75
$GPLLQ,030122.00,010125,,M,,M,1,19,3.132,,M*18
$GPVTG,,T,,M,0.01,N,0.01,K,D*26
$GPHDT,,T*1B
$GPTHS,,V*0E
$GPROT,,V*08
$PSSN,HRP,030122.00,010125,,,,,,,00,0,,*63
$PTNL,AVR,030122.00,,Yaw,,Tilt,,,,0,,00*35
$GPGSA,A,3,03,04,06,09,,,,,,,,,1.7,0.9,1.4*30
$GPGSA,A,3,70,71,85,86,,,,,,,,,1.7,0.9,1.4*3A
$GPGSA,A,3,05,06,09,34,36,,,,,,,,1.7,0.9,1.4*30
$GPGSA,A,3,09,12,19,20,35,44,,,,,,,1.7,0.9,1.4*3E
$GPGST,030122.00,4.339,1.479,0.586,8.542,1.466,0.620,2.698*57
$GPGBS,030122.00,9.460,4.107,20.096,35,0.0001,10.020,8.547*53
$GPGRS,030122.00,1,-0.5,-0.3,0.8,0.1,,,,,,,,*43
$GPGRS,030122.00,1,-3.1,-5.4,-5.6,5.4,,,,,,,,*60
$GPGRS,030122.00,1,1.2,-0.5,0.4,-2.5,0.3,,,,,,,*64
$GPGRS,030122.00,1,-0.5,-0.8,-1.1,-1.7,10.0,-3.4,,,,,,*5C
$GPGSV,5,1,17,04,84,056,49,11,12,319,31,01,14,156,,17,12,234,23*70
$GPGSV,5,2,17,07,14,183,,19,21,260,22,31,24,046,34,06,46,302,46*79
$GPGSV,5,3,17,03,51,096,45,09,64,243,52,26,08,072,,28,04,031,*7C
$GPGSV,5,4,17,02,09,163,23,36,35,170,38,34,31,208,,49,34,195,35*70
$GPGSV,5,5,17,61,03,257,*4B
$GLGSV,3,1,10,70,67,013,40,80,22,103,32,69,11,064,23,87,17,334,*6C
$GLGSV,3,2,10,79,24,046,33,71,44,276,39,85,39,204,42,86,52,292,42*61
$GLGSV,3,3,10,78,01,002,20,72,00,257,*6F
$GAGSV,3,1,11,09,77,060,44,11,19,158,33,18,15,257,,04,25,057,25*6A
$GAGSV,3,2,11,34,48,304,39,05,46,234,42,36,63,194,46,06,51,058,45*6B
$GAGSV,3,3,11,23,05,060,,15,02,324,,21,02,013,*5A
$GBGSV,5,1,19,19,75,310,51,39,20,039,33,12,12,327,37,37,26,071,31*6F
$GBGSV,5,2,19,29,13,193,32,58,24,111,,16,28,045,33,46,21,129,*6A
$GBGSV,5,3,19,22,24,269,34,05,23,128,,06,30,048,35,44,26,307,47*6A
$GBGSV,5,4,19,09,41,060,41,35,39,252,34,20,46,071,45,48,68,059,*6A
$GBGSV,5,5,19,23,05,025,21,02,07,106,,60,08,110,*5F
$GPGGA,030122.00,,,,,0,00,,,M,,M,,*4A
$PTNL,GGK,030122.00,010125,4742.4466371,N,01617.9728674,E,1,19,1.7,EHT668.6226,M*4E
$GPGGQ,030122.00,010125,4742.4466371,N,01617.9728674,E,1,19,3.132,625.4115,M*3D
$GPGFA,030122.00,14.066,22.121,1.479,0.586,8.542,2.698,,VVV*08
$GPLLK,030122.00,010125,,M,,M,1,19,2.0,,M*03
$GNGMP,030122.00,,,,,DAAA,19,0.9,,,,*55
$GPGMP,030122.00,,,,,,04,,,,2.0,123*79
$GLGMP,030122.00,,,,,,04,,,,,*79
$GAGMP,030122.00,,,,,,05,,,,,*75
$GBGMP,030122.00,,,,,,06,,,,,*75
$PSSN,SNC,[0,270100000,2347]*40
$GPZDA,030127.00,01,01,2025,,*64
$GPDTM,W84,,00.0000000,N,00.0000000,E,00.0000000,W84*5F
$GPRMC,030127.00,A,4742.4466311,N,01617.9728821,E,0.0,,010125,5.1,E,D*12
$GPGLL,4742.4466311,N,01617.9728821,E,030127.00,A,D*63
$GPGGA,030127.00,4742.4466311,N,01617.9728821,E,2,21,0.8,625.4101,M,43.2111,M,3.0,0123*47
$GNGNS,030127.00,4742.4466311,N,01617.9728821,E,DAAA,21,0.8,625.4101,43.2111,,*58
$GPGNS,030127.00,,,,,,04,,,,3.0,123*7D
$GLGNS,030127.00,,,,,,04,,,,,*7C
$GAGNS,030127.00,,,,,,05,,,,,*70
$GBGNS,030127.00,,,,,,08,,,,,*7E
$GPLLQ,030127.00,010125,,M,,M,1,21,4.509,,M*1D
$GPVTG,,T,,M,0.00,N,0.01,K,D*27
$GPHDT,,T*1B
$GPTHS,,V*0E
$GPROT,,V*08
$PSSN,HRP,030127.00,010125,,,,,,,00,0,,*66
$PTNL,AVR,030127.00,,Yaw,,Tilt,,,,0,,00*30
$GPGSA,A,3,03,04,06,09,,,,,,,,,1.5,0.8,1.3*34
$GPGSA,A,3,70,71,85,86,,,,,,,,,1.5,0.8,1.3*3E
$GPGSA,A,3,05,06,09,34,36,,,,,,,,1.5,0.8,1.3*34
$GPGSA,A,3,06,09,12,16,19,20,22,44,,,,,1.5,0.8,1.3*3D
$GPGST,030127.00,6.658,2.140,0.843,8.620,2.119,0.893,3.879*55
$GPGBS,030127.00,9.564,4.158,20.248,03,0.0001,-1.484,0.670*45
$GPGRS,030127.00,1,-1.5,0.1,1.2,-0.0,,,,,,,,*4F
$GPGRS,030127.00,1,-3.3,-2.1,-1.7,6.7,,,,,,,,*60
$GPGRS,030127.00,1,1.2,0.1,-0.1,-1.5,0.5,,,,,,,*65
$GPGRS,030127.00,1,17.8,-0.8,-0.1,2.3,-1.0,-1.8,-14.6,-2.9,,,,*4F
$GPGSV,5,1,17,04,84,056,50,11,12,319,29,01,14,156,,17,12,234,*70
$GPGSV,5,2,17,07,14,183,,19,21,260,28,31,24,046,31,06,46,302,47*77
$GPGSV,5,3,17,03,51,096,44,09,64,243,52,26,08,072,,28,04,031,*7D
$GPGSV,5,4,17,02,09,163,21,36,35,170,39,34,31,208,,49,34,195,35*73
$GPGSV,5,5,17,61,03,257,*4B
$GLGSV,3,1,10,70,67,013,39,80,22,103,30,69,11,064,25,87,18,334,*69
$GLGSV,3,2,10,79,24,046,,71,44,276,42,85,39,204,41,86,52,292,42*6E
$GLGSV,3,3,10,78,01,002,27,72,01,257,*69
$GAGSV,3,1,11,09,77,060,43,11,19,158,33,18,15,257,,04,25,057,27*6F
$GAGSV,3,2,11,34,48,304,39,05,46,234,43,36,63,194,45,06,51,058,45*69
$GAGSV,3,3,11,23,05,060,,15,02,324,,21,02,013,*5A
$GBGSV,5,1,19,19,76,310,51,39,20,039,34,12,12,327,38,37,26,070,33*67
$GBGSV,5,2,19,29,13,193,31,58,24,111,,16,28,045,35,46,21,129,*6F
$GBGSV,5,3,19,22,24,269,39,05,23,128,,06,30,048,35,44,26,307,48*68
$GBGSV,5,4,19,09,41,060,42,35,39,252,34,20,46,071,46,48,68,059,*6A
$GBGSV,5,5,19,23,05,025,19,02,07,106,,60,08,110,*54
