$GPZDA,214442.00,01,01,2025,,*66
$GPDTM,W84,,00.0000000,N,00.0000000,E,00.0000000,W84*5F
$GPRMC,214442.00,A,4742.4461005,N,01617.9729770,E,0.0,,010125,5.1,E,D*1B
$GPGLL,4742.4461005,N,01617.9729770,E,214442.00,A,D*6A
$GPGGA,214442.00,4742.4461005,N,01617.9729770,E,2,18,0.8,626.7293,M,43.2111,M,2.8,0123*45
$GNGNS,214442.00,4742.4461005,N,01617.9729770,E,DAAA,18,0.8,626.7293,43.2111,,*53
$GPGNS,214442.00,,,,,,04,,,,2.8,123*76
$GLGNS,214442.00,,,,,,05,,,,,*7F
$GAGNS,214442.00,,,,,,04,,,,,*73
$GBGNS,214442.00,,,,,,05,,,,,*71
$GPLLQ,214442.00,010125,,M,,M,1,18,3.664,,M*1A
$GPVTG,,T,,M,0.01,N,0.02,K,D*25
$GPHDT,,T*1B
$GPTHS,,V*0E
$GPROT,,V*08
$PSSN,HRP,214442.00,010125,,,,,,,00,0,,*64
$PTNL,AVR,214442.00,,Yaw,,Tilt,,,,0,,00*32
$GPGSA,A,3,08,10,21,32,,,,,,,,,1.4,0.8,1.2*37
$GPGSA,A,3,68,69,75,84,85,,,,,,,,1.4,0.8,1.2*3E
$GPGSA,A,3,07,08,13,26,,,,,,,,,1.4,0.8,1.2*35
$GPGSA,A,3,14,27,28,33,41,,,,,,,,1.4,0.8,1.2*33
$GPGST,214442.00,5.068,1.589,0.844,7.961,1.578,0.865,3.191*57
$GPGBS,214442.00,6.678,4.283,14.770,75,0.0001,14.103,6.150*5B
$GPGRS,214442.00,1,0.4,-0.9,0.8,-0.5,,,,,,,,*4B
$GPGRS,214442.00,1,4.0,-0.8,14.1,-5.8,-4.2,,,,,,,*7B
$GPGRS,214442.00,1,0.6,-0.6,-1.2,1.4,,,,,,,,*4D
$GPGRS,214442.00,1,2.1,-2.1,-0.3,-0.8,0.1,,,,,,,*42
$GPGSV,4,1,14,08,74,250,50,27,55,159,35,23,18,050,29,32,34,124,37*7D
$GPGSV,4,2,14,01,26,275,,02,31,284,25,10,60,059,50,21,52,289,40*7B
$GPGSV,4,3,14,16,05,191,,14,08,329,29,36,35,170,41,34,31,208,*71
$GPGSV,4,4,14,49,34,195,36,61,03,257,*7A
$GLGSV,3,1,09,84,64,341,38,74,12,249,30,67,13,025,29,85,17,301,40*63
$GLGSV,3,2,09,75,22,301,42,83,34,093,33,69,47,152,41,68,53,062,48*62
$GLGSV,3,3,09,76,05,355,*5B
$GAGSV,3,1,11,26,77,335,49,08,30,067,38,07,29,127,39,23,34,240,*65
$GAGSV,3,2,11,31,29,301,32,13,38,078,42,33,32,277,31,14,60,167,*61
$GAGSV,3,3,11,29,01,171,,03,04,023,,21,09,193,22*52
$GBGSV,5,1,19,28,67,111,53,42,12,038,28,05,23,128,34,08,12,046,25*69
$GBGSV,5,2,19,30,14,299,34,13,20,049,32,60,11,108,,41,47,170,39*6E
$GBGSV,5,3,19,14,35,051,44,57,47,249,,33,55,078,47,27,64,302,42*60
$GBGSV,5,4,19,32,02,201,,39,03,075,,43,05,118,,46,07,263,*61
$GBGSV,5,5,19,36,08,311,31,58,06,247,,02,08,105,*5B
$GPGGA,214442.00,,,,,0,00,,,M,,M,,*4D
$PTNL,GGK,214442.00,010125,4742.4461005,N,01617.9729770,E,1,18,1.4,EHT669.9404,M*40
$GPGGQ,214442.00,010125,4742.4461005,N,01617.9729770,E,1,18,3.664,626.7293,M*31
$GPGFA,214442.00,15.109,26.170,1.589,0.844,7.961,3.191,,VVV*06
$GPLLK,214442.00,010125,,M,,M,1,18,1.7,,M*01
$GNGMP,214442.00,,,,,DAAA,18,0.8,,,,*52
$GPGMP,214442.00,,,,,,04,,,,2.8,123*76
$GLGMP,214442.00,,,,,,05,,,,,*7F
$GAGMP,214442.00,,,,,,04,,,,,*73
$GBGMP,214442.00,,,,,,05,,,,,*71
$PSSN,SNC,[0,337500000,2347]*46
$GPZDA,214447.00,01,01,2025,,*63
$GPDTM,W84,,00.0000000,N,00.0000000,E,00.0000000,W84*5F
$GPRMC,214447.00,A,4742.4461076,N,01617.9729831,E,0.0,,010125,5.1,E,D*10
$GPGLL,4742.4461076,N,01617.9729831,E,214447.00,A,D*61
$GPGGA,214447.00,4742.4461076,N,01617.9729831,E,2,18,0.8,626.7415,M,43.2111,M,3.0,0123*4F
$GNGNS,214447.00,4742.4461076,N,01617.9729831,E,DAAA,18,0.8,626.7415,43.2111,,*50
$GPGNS,214447.00,,,,,,04,,,,3.0,123*7A
$GLGNS,214447.00,,,,,,05,,,,,*7A
$GAGNS,214447.00,,,,,,04,,,,,*76
$GBGNS,214447.00,,,,,,05,,,,,*74
$GPLLQ,214447.00,010125,,M,,M,1,18,4.903,,M*16
$GPVTG,,T,,M,0.01,N,0.01,K,D*26
$GPHDT,,T*1B
$GPTHS,,V*0E
$GPROT,,V*08
$PSSN,HRP,214447.00,010125,,,,,,,00,0,,*61
$PTNL,AVR,214447.00,,Yaw,,Tilt,,,,0,,00*37
$GPGSA,A,3,08,10,21,32,,,,,,,,,1.4,0.8,1.2*37
$GPGSA,A,3,68,69,75,84,85,,,,,,,,1.4,0.8,1.2*3E
$GPGSA,A,3,07,08,13,26,,,,,,,,,1.4,0.8,1.2*35
$GPGSA,A,3,14,27,28,33,41,,,,,,,,1.4,0.8,1.2*33
$GPGST,214447.00,4.896,2.154,1.124,9.764,2.131,1.167,4.259*56
$GPGBS,214447.00,6.801,4.374,15.140,10,0.0001,-1.489,0.639*40
$GPGRS,214447.00,1,0.0,-1.5,0.6,1.5,,,,,,,,*65
$GPGRS,214447.00,1,4.6,-2.1,12.4,-6.4,4.3,,,,,,,*53
$GPGRS,214447.00,1,0.0,-1.7,-1.6,0.8,,,,,,,,*47
$GPGRS,214447.00,1,1.6,-1.9,-0.5,-1.3,-2.1,,,,,,,*6B
$GPGSV,4,1,14,08,74,250,50,27,55,159,35,23,18,050,30,32,34,124,38*7A
$GPGSV,4,2,14,01,26,275,,02,31,284,29,10,60,059,49,21,52,289,38*70
$GPGSV,4,3,14,16,05,191,,14,08,329,,36,35,170,41,34,31,208,*7A
$GPGSV,4,4,14,49,34,195,36,61,03,257,*7A
$GLGSV,3,1,09,84,64,341,38,74,12,249,29,67,13,025,34,85,17,301,41*66
$GLGSV,3,2,09,75,22,301,43,83,34,093,34,69,47,152,42,68,53,062,49*66
$GLGSV,3,3,09,76,05,355,38*50
$GAGSV,3,1,11,26,77,336,49,08,30,067,39,07,29,127,39,23,34,240,*67
$GAGSV,3,2,11,31,29,301,31,13,38,078,41,33,32,277,30,14,60,167,*60
$GAGSV,3,3,11,29,01,171,,03,04,023,,21,09,193,20*50
$GBGSV,5,1,19,28,67,111,53,42,12,037,28,05,23,128,34,08,12,046,*61
$GBGSV,5,2,19,30,14,299,33,13,20,049,32,60,11,108,,41,47,170,38*68
$GBGSV,5,3,19,14,35,051,44,57,47,249,,33,55,078,46,27,64,302,42*61
$GBGSV,5,4,19,32,02,201,,39,03,075,,43,05,118,,46,07,263,*61
$GBGSV,5,5,19,36,08,311,34,58,06,247,,02,08,105,*5E
$GPGGA,214447.00,,,,,0,00,,,M,,M,,*48
$PTNL,GGK,214447.00,010125,4742.4461076,N,01617.9729831,E,1,18,1.4,EHT669.9526,M*4A
$GPGGQ,214447.00,010125,4742.4461076,N,01617.9729831,E,1,18,4.903,626.7415,M*3B
$GPGFA,214447.00,20.477,34.924,2.154,1.124,9.764,4.259,,VVV*0F
$GPLLK,214447.00,010125,,M,,M,1,18,1.7,,M*04
$GNGMP,214447.00,,,,,DAAA,18,0.8,,,,*57
$GPGMP,214447.00,,,,,,04,,,,3.0,123*7A
$GLGMP,214447.00,,,,,,05,,,,,*7A
$GAGMP,214447.00,,,,,,04,,,,,*76
$GBGMP,214447.00,,,,,,05,,,,,*74
$PSSN,SNC,[0,337505000,2347]*43
$GPZDA,214452.00,01,01,2025,,*67
$GPDTM,W84,,00.0000000,N,00.0000000,E,00.0000000,W84*5F
$GPRMC,214452.00,A,4742.4461177,N,01617.9729903,E,0.0,,010125,5.1,E,D*14
$GPGLL,4742.4461177,N,01617.9729903,E,214452.00,A,D*65
$GPGGA,214452.00,4742.4461177,N,01617.9729903,E,2,18,0.8,626.7497,M,43.2111,M,3.0,0123*41
$GNGNS,214452.00,4742.4461177,N,01617.9729903,E,DAAA,18,0.8,626.7497,43.2111,,*5E
$GPGNS,214452.00,,,,,,04,,,,3.0,123*7E
$GLGNS,214452.00,,,,,,05,,,,,*7E
$GAGNS,214452.00,,,,,,04,,,,,*72
$GBGNS,214452.00,,,,,,05,,,,,*70
$GPLLQ,214452.00,010125,,M,,M,1,18,4.466,,M*1C
$GPVTG,,T,,M,0.01,N,0.02,K,D*25
$GPHDT,,T*1B
$GPTHS,,V*0E
$GPROT,,V*08
$PSSN,HRP,214452.00,010125,,,,,,,00,0,,*65
$PTNL,AVR,214452.00,,Yaw,,Tilt,,,,0,,00*33
$GPGSA,A,3,08,10,21,32,,,,,,,,,1.4,0.8,1.2*37
$GPGSA,A,3,68,69,75,84,85,,,,,,,,1.4,0.8,1.2*3E
$GPGSA,A,3,07,08,13,26,,,,,,,,,1.4,0.8,1.2*35
$GPGSA,A,3,14,27,28,33,41,,,,,,,,1.4,0.8,1.2*33
$GPGST,214452.00,5.309,1.958,1.014,9.653,1.937,1.052,3.884*59
$GPGBS,214452.00,6.963,4.473,15.442,10,0.0001,-1.566,0.658*41
$GPGRS,214452.00,1,0.1,-1.6,0.3,1.6,,,,,,,,*65
$GPGRS,214452.00,1,5.1,-1.8,8.5,-5.4,12.6,,,,,,,*50
$GPGRS,214452.00,1,-0.1,-0.5,-1.5,0.7,,,,,,,,*60
$GPGRS,214452.00,1,0.4,-0.7,-0.2,-1.6,-3.2,,,,,,,*63
$GPGSV,4,1,14,08,74,250,51,27,55,159,34,23,18,050,31,32,34,124,40*74
$GPGSV,4,2,14,01,26,275,,02,31,284,32,10,60,059,49,21,52,290,37*7D
$GPGSV,4,3,14,16,05,191,,14,08,329,34,36,35,170,41,34,31,208,*7D
$GPGSV,4,4,14,49,34,195,37,61,03,257,*7B
$GLGSV,3,1,09,84,64,341,38,74,12,249,30,67,13,025,34,85,17,301,42*6D
$GLGSV,3,2,09,75,22,301,43,83,33,093,33,69,47,152,45,68,53,062,49*61
$GLGSV,3,3,09,76,05,355,37*5F
$GAGSV,3,1,11,26,77,336,48,08,30,066,40,07,29,127,40,23,34,240,*67
$GAGSV,3,2,11,31,29,301,29,13,38,078,41,33,32,277,30,14,60,167,*69
$GAGSV,3,3,11,29,01,171,,03,04,023,20,21,09,193,22*50
$GBGSV,5,1,19,28,66,111,53,42,12,037,25,05,23,128,34,08,12,046,*6D
$GBGSV,5,2,19,30,14,299,29,13,20,049,32,60,11,108,,41,47,170,37*6C
$GBGSV,5,3,19,14,35,051,44,57,47,249,,33,55,078,46,27,64,302,42*61
$GBGSV,5,4,19,32,02,201,,39,03,075,,43,05,118,,46,07,263,*61
$GBGSV,5,5,19,36,08,311,28,58,06,247,,02,08,105,*53
$GPGGA,214452.00,,,,,0,00,,,M,,M,,*4C
$PTNL,GGK,214452.00,010125,4742.4461177,N,01617.9729903,E,1,18,1.4,EHT669.9607,M*4E
$GPGGQ,214452.00,010125,4742.4461177,N,01617.9729903,E,1,18,4.466,626.7497,M*3B
$GPGFA,214452.00,18.612,31.851,1.958,1.014,9.653,3.884,,VVV*0A
$GPLLK,214452.00,010125,,M,,M,1,18,1.7,,M*00
$GNGMP,214452.00,,,,,DAAA,18,0.8,,,,*53
$GPGMP,214452.00,,,,,,04,,,,3.0,123*7E
$GLGMP,214452.00,,,,,,05,,,,,*7E
$GAGMP,214452.00,,,,,,04,,,,,*72
$GBGMP,214452.00,,,,,,05,,,,,*70
$PSSN,SNC,[0,337510000,2347]*47
$GPZDA,214457.00,01,01,2025,,*62
$GPDTM,W84,,00.0000000,N,00.0000000,E,00.0000000,W84*5F
$GPRMC,214457.00,A,4742.4461230,N,01617.9729968,E,0.0,,010125,5.1,E,D*1C
$GPGLL,4742.4461230,N,01617.9729968,E,214457.00,A,D*6D
$GPGGA,214457.00,4742.4461230,N,01617.9729968,E,2,18,0.8,626.7758,M,43.2111,M,2.0,0123*48
$GNGNS,214457.00,4742.4461230,N,01617.9729968,E,DAAA,18,0.8,626.7758,43.2111,,*56
$GPGNS,214457.00,,,,,,04,,,,2.0,123*7A
$GLGNS,214457.00,,,,,,05,,,,,*7B
$GAGNS,214457.00,,,,,,04,,,,,*77
$GBGNS,214457.00,,,,,,05,,,,,*75
$GPLLQ,214457.00,010125,,M,,M,1,18,4.934,,M*13
$GPVTG,,T,,M,0.00,N,0.01,K,D*27
$GPHDT,,T*1B
$GPTHS,,V*0E
$GPROT,,V*08
$PSSN,HRP,214457.00,010125,,,,,,,00,0,,*60
$PTNL,AVR,214457.00,,Yaw,,Tilt,,,,0,,00*36
$GPGSA,A,3,08,10,21,32,,,,,,,,,1.4,0.8,1.2*37
$GPGSA,A,3,68,69,75,84,85,,,,,,,,1.4,0.8,1.2*3E
$GPGSA,A,3,07,08,13,26,,,,,,,,,1.4,0.8,1.2*35
$GPGSA,A,3,14,27,28,33,41,,,,,,,,1.4,0.8,1.2*33
$GPGST,214457.00,4.774,2.147,1.158,9.530,2.126,1.196,4.289*5B
$GPGBS,214457.00,6.559,4.268,14.526,10,0.0001,-1.497,0.607*4A
$GPGRS,214457.00,1,-0.5,-1.5,1.1,1.3,,,,,,,,*4C
$GPGRS,214457.00,1,3.1,-1.9,1.1,-5.3,13.8,,,,,,,*57
$GPGRS,214457.00,1,-0.3,0.3,-1.4,0.5,,,,,,,,*4F
$GPGRS,214457.00,1,-1.4,-0.8,-0.4,-2.1,-1.9,,,,,,,*4E
$GPGSV,4,1,14,08,74,250,51,27,55,159,34,23,18,050,31,32,34,124,41*75
$GPGSV,4,2,14,01,26,275,,02,31,284,35,10,60,059,48,21,52,290,36*7A
$GPGSV,4,3,14,16,05,191,,14,08,329,,36,35,170,41,34,31,208,*7A
$GPGSV,4,4,14,49,34,195,37,61,03,257,*7B
$GLGSV,3,1,09,84,64,341,39,74,12,249,30,67,13,025,34,85,17,301,43*6D
$GLGSV,3,2,09,75,22,301,42,83,33,093,32,69,47,152,46,68,53,062,49*62
$GLGSV,3,3,09,76,05,355,35*5D
$GAGSV,3,1,11,26,77,336,48,08,30,066,42,07,29,127,40,23,34,240,*65
$GAGSV,3,2,11,31,29,301,25,13,37,078,42,33,32,277,29,14,60,167,*61
$GAGSV,3,3,11,29,01,171,,03,04,023,21,21,09,193,21*52
$GBGSV,5,1,19,28,66,111,53,42,12,037,21,05,23,128,35,08,12,046,*68
$GBGSV,5,2,19,30,14,299,25,13,20,049,33,60,11,108,,41,47,170,36*60
$GBGSV,5,3,19,14,35,051,43,57,47,249,,33,55,078,46,27,64,302,42*66
$GBGSV,5,4,19,32,02,201,,39,03,075,,43,05,118,,46,07,263,*61
$GBGSV,5,5,19,36,08,311,29,58,06,247,,02,08,105,*52
$GPGGA,214457.00,,,,,0,00,,,M,,M,,*49
$PTNL,GGK,214457.00,010125,4742.4461230,N,01617.9729968,E,1,18,1.4,EHT669.9869,M*40
$GPGGQ,214457.00,010125,4742.4461230,N,01617.9729968,E,1,18,4.934,626.7758,M*39
$GPGFA,214457.00,20.413,35.173,2.147,1.158,9.530,4.289,,VVV*00
$GPLLK,214457.00,010125,,M,,M,1,18,1.7,,M*05
$GNGMP,214457.00,,,,,DAAA,18,0.8,,,,*56
$GPGMP,214457.00,,,,,,04,,,,2.0,123*7A
$GLGMP,214457.00,,,,,,05,,,,,*7B
$GAGMP,214457.00,,,,,,04,,,,,*77
$GBGMP,214457.00,,,,,,05,,,,,*75
$PSSN,SNC,[0,337515000,2347]*42
$GPZDA,214502.00,01,01,2025,,*63
$GPDTM,W84,,00.0000000,N,00.0000000,E,00.0000000,W84*5F
$GPRMC,214502.00,A,4742.4461258,N,01617.9730051,E,0.0,,010125,5.1,E,D*18
$GPGLL,4742.4461258,N,01617.9730051,E,214502.00,A,D*69
$GPGGA,214502.00,4742.4461258,N,01617.9730051,E,2,18,0.9,626.8088,M,43.2111,M,2.0,0123*48
$GNGNS,214502.00,4742.4461258,N,01617.9730051,E,DAAA,18,0.9,626.8088,43.2111,,*56
$GPGNS,214502.00,,,,,,05,,,,2.0,123*7A
$GLGNS,214502.00,,,,,,05,,,,,*7A
$GAGNS,214502.00,,,,,,04,,,,,*76
$GBGNS,214502.00,,,,,,04,,,,,*75
$GPLLQ,214502.00,010125,,M,,M,1,18,2.331,,M*1B
$GPVTG,,T,,M,0.00,N,0.01,K,D*27
$GPHDT,,T*1B
$GPTHS,,V*0E
$GPROT,,V*08
$PSSN,HRP,214502.00,010125,,,,,,,00,0,,*61
$PTNL,AVR,214502.00,,Yaw,,Tilt,,,,0,,00*37
$GPGSA,A,3,08,10,14,21,32,,,,,,,,1.4,0.9,1.0*31
$GPGSA,A,3,68,69,75,84,85,,,,,,,,1.4,0.9,1.0*3D
$GPGSA,A,3,07,08,13,26,,,,,,,,,1.4,0.9,1.0*36
$GPGSA,A,3,14,27,28,33,,,,,,,,,1.4,0.9,1.0*35
$GPGST,214502.00,5.169,1.382,0.699,24.670,1.289,0.858,1.742*62
$GPGBS,214502.00,6.101,4.455,7.346,85,0.0001,14.468,6.194*66
$GPGRS,214502.00,1,-0.7,-0.7,0.7,0.8,0.6,,,,,,,*69
$GPGRS,214502.00,1,0.7,-1.8,-4.8,-6.2,14.5,,,,,,,*7B
$GPGRS,214502.00,1,0.9,0.6,-1.4,0.6,,,,,,,,*6F
$GPGRS,214502.00,1,-2.7,-0.2,-0.7,-2.3,,,,,,,,*4F
$GPGSV,4,1,14,08,74,250,51,27,55,159,35,23,18,050,31,32,34,124,40*75
$GPGSV,4,2,14,01,26,275,,02,31,284,37,10,59,059,48,21,52,290,37*73
$GPGSV,4,3,14,16,05,191,,14,08,329,38,36,35,170,41,34,31,208,*71
$GPGSV,4,4,14,49,34,195,37,61,03,257,*7B
$GLGSV,3,1,09,84,64,342,38,74,12,249,30,67,13,025,34,85,17,301,43*6F
$GLGSV,3,2,09,75,22,301,40,83,33,093,30,69,47,152,47,68,53,062,49*63
$GLGSV,3,3,09,76,05,355,33*5B
$GAGSV,3,1,11,26,77,336,48,08,30,066,42,31,29,301,24,23,34,240,*64
$GAGSV,3,2,11,07,29,127,41,13,37,078,42,33,32,277,31,14,60,167,*69
$GAGSV,3,3,11,29,01,171,,03,04,023,20,21,09,193,21*53
$GBGSV,5,1,19,28,66,111,52,42,12,037,21,05,23,128,34,08,12,046,*68
$GBGSV,5,2,19,30,14,299,31,13,20,049,32,60,11,108,,41,47,170,34*66
$GBGSV,5,3,19,14,35,051,42,57,47,249,,33,55,078,45,27,64,302,42*64
$GBGSV,5,4,19,32,02,201,,39,03,075,,43,05,118,,46,07,263,*61
$GBGSV,5,5,19,36,08,311,28,58,06,247,,02,08,105,*53
$GPGGA,214502.00,,,,,0,00,,,M,,M,,*48
$PTNL,GGK,214502.00,010125,4742.4461258,N,01617.9730051,E,1,18,1.4,EHT670.0198,M*42
$GPGGQ,214502.00,010125,4742.4461258,N,01617.9730051,E,1,18,2.331,626.8088,M*31
$GPGFA,214502.00,13.140,14.285,1.382,0.699,24.670,1.742,,VVV*37
$GPLLK,214502.00,010125,,M,,M,1,18,1.6,,M*05
$GNGMP,214502.00,,,,,DAAA,18,0.9,,,,*56
$GPGMP,214502.00,,,,,,05,,,,2.0,123*7A
$GLGMP,214502.00,,,,,,05,,,,,*7A
$GAGMP,214502.00,,,,,,04,,,,,*76
$GBGMP,214502.00,,,,,,04,,,,,*75
$PSSN,SNC,[0,337520000,2347]*44
$GPZDA,214507.00,01,01,2025,,*66
$GPDTM,W84,,00.0000000,N,00.0000000,E,00.0000000,W84*5F
$GPRMC,214507.00,A,4742.4461274,N,01617.9730105,E,0.0,,010125,5.1,E,D*13
$GPGLL,4742.4461274,N,01617.9730105,E,214507.00,A,D*62
$GPGGA,214507.00,4742.4461274,N,01617.9730105,E,2,20,0.8,626.8127,M,43.2111,M,2.9,0123*44
$GNGNS,214507.00,4742.4461274,N,01617.9730105,E,DAAA,20,0.8,626.8127,43.2111,,*53
$GPGNS,214507.00,,,,,,07,,,,2.9,123*74
$GLGNS,214507.00,,,,,,05,,,,,*7F
$GAGNS,214507.00,,,,,,04,,,,,*73
$GBGNS,214507.00,,,,,,04,,,,,*70
$GPLLQ,214507.00,010125,,M,,M,1,20,2.450,,M*15
$GPVTG,,T,,M,0.00,N,0.01,K,D*27
$GPHDT,,T*1B
$GPTHS,,V*0E
$GPROT,,V*08
$PSSN,HRP,214507.00,010125,,,,,,,00,0,,*64
$PTNL,AVR,214507.00,,Yaw,,Tilt,,,,0,,00*32
$GPGSA,A,3,02,08,10,14,21,27,32,,,,,,1.3,0.8,1.0*30
$GPGSA,A,3,68,69,75,84,85,,,,,,,,1.3,0.8,1.0*3B
$GPGSA,A,3,07,08,13,26,,,,,,,,,1.3,0.8,1.0*30
$GPGSA,A,3,14,27,28,33,,,,,,,,,1.3,0.8,1.0*33
$GPGST,214507.00,4.933,1.321,0.706,26.192,1.226,0.861,1.939*6B
$GPGBS,214507.00,4.823,3.308,5.690,02,0.0001,1.721,0.752*53
$GPGRS,214507.00,1,1.7,-0.3,-0.2,-2.3,0.2,-0.8,0.7,,,,,*6E
$GPGRS,214507.00,1,1.1,-1.9,-6.4,-6.7,13.9,,,,,,,*78
$GPGRS,214507.00,1,2.2,0.4,-1.0,1.0,,,,,,,,*62
$GPGRS,214507.00,1,-3.3,0.4,-0.4,-1.9,,,,,,,,*6E
$GPGSV,4,1,14,08,74,250,51,27,55,159,38,23,18,050,30,32,34,124,39*77
$GPGSV,4,2,14,01,26,275,,02,31,284,40,10,59,059,47,21,52,290,37*7C
$GPGSV,4,3,14,16,05,191,,14,08,329,38,36,35,170,41,34,31,208,*71
$GPGSV,4,4,14,49,34,195,36,61,03,257,*7A
$GLGSV,3,1,09,84,64,342,37,74,12,249,,67,13,025,29,85,17,301,40*6C
$GLGSV,3,2,09,75,22,301,38,83,33,093,29,69,47,152,48,68,53,062,49*6B
$GLGSV,3,3,09,76,05,355,29*50
$GAGSV,3,1,11,26,77,336,49,08,30,066,42,07,29,127,41,23,34,240,*65
$GAGSV,3,2,11,31,29,301,25,13,37,078,42,33,32,277,33,14,60,167,*6A
$GAGSV,3,3,11,29,01,171,,03,04,023,20,21,09,193,23*51
$GBGSV,5,1,19,28,66,111,52,42,12,037,21,05,23,128,34,08,12,046,27*6D
$GBGSV,5,2,19,30,14,299,31,13,20,049,32,60,11,108,,41,47,170,33*61
$GBGSV,5,3,19,14,35,051,41,57,47,249,,33,55,078,43,27,64,302,42*61
$GBGSV,5,4,19,32,02,201,,39,03,075,,43,05,118,,46,07,263,*61
$GBGSV,5,5,19,36,08,311,31,58,06,247,,02,08,105,*5B
$GPGGA,214507.00,,,,,0,00,,,M,,M,,*4D
$PTNL,GGK,214507.00,010125,4742.4461274,N,01617.9730105,E,1,20,1.3,EHT670.0238,M*4C
$GPGGQ,214507.00,010125,4742.4461274,N,01617.9730105,E,1,20,2.450,626.8127,M*35
$GPGFA,214507.00,12.562,15.899,1.321,0.706,26.192,1.939,,VVV*34
$GPLLK,214507.00,010125,,M,,M,1,20,1.5,,M*08
$GNGMP,214507.00,,,,,DAAA,20,0.8,,,,*59
$GPGMP,214507.00,,,,,,07,,,,2.9,123*74
$GLGMP,214507.00,,,,,,05,,,,,*7F
$GAGMP,214507.00,,,,,,04,,,,,*73
$GBGMP,214507.00,,,,,,04,,,,,*70
$PSSN,SNC,[0,337525000,2347]*41
$GPZDA,214512.00,01,01,2025,,*62
$GPDTM,W84,,00.0000000,N,00.0000000,E,00.0000000,W84*5F
$GPRMC,214512.00,A,4742.4461315,N,01617.9730194,E,0.0,,010125,5.1,E,D*19
$GPGLL,4742.4461315,N,01617.9730194,E,214512.00,A,D*68
$GPGGA,214512.00,4742.4461315,N,01617.9730194,E,2,19,0.8,626.8096,M,43.2111,M,3.3,0123*44
$GNGNS,214512.00,4742.4461315,N,01617.9730194,E,DAAA,19,0.8,626.8096,43.2111,,*58
$GPGNS,214512.00,,,,,,07,,,,3.3,123*7B
$GLGNS,214512.00,,,,,,03,,,,,*7D
$GAGNS,214512.00,,,,,,04,,,,,*77
$GBGNS,214512.00,,,,,,05,,,,,*75
$GPLLQ,214512.00,010125,,M,,M,1,19,1.824,,M*17
$GPVTG,,T,,M,0.01,N,0.01,K,D*26
$GPHDT,,T*1B
$GPTHS,,V*0E
$GPROT,,V*08
$PSSN,HRP,214512.00,010125,,,,,,,00,0,,*60
$PTNL,AVR,214512.00,,Yaw,,Tilt,,,,0,,00*36
$GPGSA,A,3,02,08,10,14,21,27,32,,,,,,1.3,0.8,1.0*30
$GPGSA,A,3,68,69,84,,,,,,,,,,1.3,0.8,1.0*34
$GPGSA,A,3,07,08,13,26,,,,,,,,,1.3,0.8,1.0*30
$GPGSA,A,3,14,27,28,33,36,,,,,,,,1.3,0.8,1.0*36
$GPGST,214512.00,3.507,0.989,0.522,26.729,0.914,0.644,1.441*68
$GPGBS,214512.00,4.952,3.367,5.709,02,0.0001,1.626,0.765*5A
$GPGRS,214512.00,1,1.6,-0.1,-0.1,-1.6,-0.5,0.2,-0.3,,,,,*48
$GPGRS,214512.00,1,1.5,-2.4,-5.9,,,,,,,,,*6F
$GPGRS,214512.00,1,2.2,-0.1,-0.7,1.1,,,,,,,,*49
$GPGRS,214512.00,1,-4.3,-0.4,-0.3,0.7,-8.6,,,,,,,*68
$GPGSV,4,1,14,08,74,249,51,27,55,159,40,23,18,050,30,32,34,124,38*71
$GPGSV,4,2,14,01,26,275,,02,31,284,42,10,59,059,48,21,52,290,36*70
$GPGSV,4,3,14,16,05,191,,14,08,329,39,36,35,170,41,34,31,208,*70
$GPGSV,4,4,14,49,34,195,37,61,03,257,*7B
$GLGSV,3,1,09,84,64,342,37,74,12,249,26,67,13,025,31,85,17,301,32*64
$GLGSV,3,2,09,75,22,301,34,83,33,093,29,69,47,152,48,68,53,062,49*67
$GLGSV,3,3,09,76,05,355,25*5C
$GAGSV,3,1,11,26,77,336,49,08,30,066,42,07,29,127,40,23,34,240,*64
$GAGSV,3,2,11,31,29,301,35,13,37,078,42,33,32,277,34,14,60,167,*6C
$GAGSV,3,3,11,29,01,171,,03,04,023,19,21,09,193,22*5A
$GBGSV,5,1,19,28,66,111,51,42,12,037,23,05,23,128,34,08,12,046,27*6C
$GBGSV,5,2,19,30,14,299,31,13,20,049,32,60,11,108,,41,47,170,32*60
$GBGSV,5,3,19,14,35,051,40,57,47,249,,33,55,078,43,27,64,302,42*60
$GBGSV,5,4,19,32,02,201,,39,03,075,,43,05,118,,46,07,263,*61
$GBGSV,5,5,19,36,08,311,29,58,06,247,,02,08,105,*52
$GPGGA,214512.00,,,,,0,00,,,M,,M,,*49
$PTNL,GGK,214512.00,010125,4742.4461315,N,01617.9730194,E,1,19,1.3,EHT670.0207,M*40
$GPGGQ,214512.00,010125,4742.4461315,N,01617.9730194,E,1,19,1.824,626.8096,M*32
$GPGFA,214512.00,9.400,11.820,0.989,0.522,26.729,1.441,,VVV*00
$GPLLK,214512.00,010125,,M,,M,1,19,1.5,,M*06
$GNGMP,214512.00,,,,,DAAA,19,0.8,,,,*57
$GPGMP,214512.00,,,,,,07,,,,3.3,123*7B
$GLGMP,214512.00,,,,,,03,,,,,*7D
$GAGMP,214512.00,,,,,,04,,,,,*77
$GBGMP,214512.00,,,,,,05,,,,,*75
$PSSN,SNC,[0,337530000,2347]*45
$GPZDA,214517.00,01,01,2025,,*67
$GPDTM,W84,,00.0000000,N,00.0000000,E,00.0000000,W84*5F
$GPRMC,214517.00,A,4742.4461351,N,01617.9730186,E,0.0,,010125,5.1,E,D*1F
$GPGLL,4742.4461351,N,01617.9730186,E,214517.00,A,D*6E
$GPGGA,214517.00,4742.4461351,N,01617.9730186,E,2,20,0.8,626.8076,M,43.2111,M,2.2,0123*46
$GNGNS,214517.00,4742.4461351,N,01617.9730186,E,DAAA,20,0.8,626.8076,43.2111,,*5A
$GPGNS,214517.00,,,,,,06,,,,2.2,123*7F
$GLGNS,214517.00,,,,,,05,,,,,*7E
$GAGNS,214517.00,,,,,,05,,,,,*73
$GBGNS,214517.00,,,,,,04,,,,,*71
$GPLLQ,214517.00,010125,,M,,M,1,20,1.574,,M*10
$GPVTG,,T,,M,0.00,N,0.00,K,D*26
$GPHDT,,T*1B
$GPTHS,,V*0E
$GPROT,,V*08
$PSSN,HRP,214517.00,010125,,,,,,,00,0,,*65
$PTNL,AVR,214517.00,,Yaw,,Tilt,,,,0,,00*33
$GPGSA,A,3,08,10,14,21,27,32,,,,,,,1.3,0.8,1.0*32
$GPGSA,A,3,68,69,75,84,85,,,,,,,,1.3,0.8,1.0*3B
$GPGSA,A,3,07,08,13,26,33,,,,,,,,1.3,0.8,1.0*30
$GPGSA,A,3,14,27,28,33,,,,,,,,,1.3,0.8,1.0*33
$GPGST,214517.00,3.813,0.843,0.467,34.124,0.746,0.611,1.244*60
$GPGBS,214517.00,5.167,4.145,7.561,84,0.0001,-7.550,6.066*7E
$GPGRS,214517.00,1,0.1,0.5,-0.1,-0.7,0.4,-0.4,,,,,,*65
$GPGRS,214517.00,1,2.1,-2.8,-5.2,-7.6,-7.4,,,,,,,*68
$GPGRS,214517.00,1,2.2,-0.3,-0.2,1.2,0.1,,,,,,,*67
$GPGRS,214517.00,1,-4.6,0.2,-0.4,3.0,,,,,,,,*4D
$GPGSV,4,1,14,08,74,249,51,27,55,159,43,23,18,050,30,32,34,124,36*7C
$GPGSV,4,2,14,01,26,275,,02,31,284,43,10,59,059,48,21,52,290,36*71
$GPGSV,4,3,14,16,05,191,,14,08,329,39,36,35,170,41,34,31,208,*70
$GPGSV,4,4,14,49,34,195,37,61,03,257,*7B
$GLGSV,3,1,09,84,64,342,36,74,12,249,23,67,13,025,31,85,18,301,36*6B
$GLGSV,3,2,09,75,22,301,39,83,33,093,24,69,47,152,48,68,53,062,50*6F
$GLGSV,3,3,09,76,05,355,*5B
$GAGSV,3,1,11,26,77,336,49,08,30,066,43,31,29,301,31,23,34,240,*60
$GAGSV,3,2,11,07,29,127,39,13,37,078,42,33,32,278,35,14,60,167,*6D
$GAGSV,3,3,11,29,01,171,,03,04,023,,21,09,193,23*53
$GBGSV,5,1,19,28,66,111,51,42,12,037,24,05,23,128,34,08,12,046,27*6B
$GBGSV,5,2,19,30,14,299,28,13,20,049,32,60,11,108,,41,47,170,32*68
$GBGSV,5,3,19,14,35,051,39,57,47,250,,33,55,078,45,27,64,302,43*61
$GBGSV,5,4,19,32,02,201,,39,03,075,,43,05,118,,46,07,263,*61
$GBGSV,5,5,19,36,08,311,27,58,06,247,,02,08,105,*5C
$GPGGA,214517.00,,,,,0,00,,,M,,M,,*4C
$PTNL,GGK,214517.00,010125,4742.4461351,N,01617.9730186,E,1,20,1.3,EHT670.0186,M*46
$GPGGQ,214517.00,010125,4742.4461351,N,01617.9730186,E,1,20,1.574,626.8076,M*38
$GPGFA,214517.00,8.020,10.199,0.843,0.467,34.124,1.244,,VVV*04
$GPLLK,214517.00,010125,,M,,M,1,20,1.5,,M*09
$GNGMP,214517.00,,,,,DAAA,20,0.8,,,,*58
$GPGMP,214517.00,,,,,,06,,,,2.2,123*7F
$GLGMP,214517.00,,,,,,05,,,,,*7E
$GAGMP,214517.00,,,,,,05,,,,,*73
$GBGMP,214517.00,,,,,,04,,,,,*71
$PSSN,SNC,[0,337535000,2347]*40
$GPZDA,214522.00,01,01,2025,,*61
$GPDTM,W84,,00.0000000,N,00.0000000,E,00.0000000,W84*5F
$GPRMC,214522.00,A,4742.4461364,N,01617.9730184,E,0.0,,010125,5.1,E,D*1D
$GPGLL,4742.4461364,N,01617.9730184,E,214522.00,A,D*6C
$GPGGA,214522.00,4742.4461364,N,01617.9730184,E,2,19,0.8,626.8006,M,43.2111,M,1.8,0123*40
$GNGNS,214522.00,4742.4461364,N,01617.9730184,E,DAAA,19,0.8,626.8006,43.2111,,*55
$GPGNS,214522.00,,,,,,06,,,,1.8,123*70
$GLGNS,214522.00,,,,,,04,,,,,*79
$GAGNS,214522.00,,,,,,05,,,,,*75
$GBGNS,214522.00,,,,,,04,,,,,*77
$GPLLQ,214522.00,010125,,M,,M,1,19,1.612,,M*1F
$GPVTG,,T,,M,0.01,N,0.01,K,D*26
$GPHDT,,T*1B
$GPTHS,,V*0E
$GPROT,,V*08
$PSSN,HRP,214522.00,010125,,,,,,,00,0,,*63
$PTNL,AVR,214522.00,,Yaw,,Tilt,,,,0,,00*35
$GPGSA,A,3,08,10,14,21,27,32,,,,,,,1.4,0.8,1.1*34
$GPGSA,A,3,68,69,75,85,,,,,,,,,1.4,0.8,1.1*31
$GPGSA,A,3,07,08,13,26,33,,,,,,,,1.4,0.8,1.1*36
$GPGSA,A,3,14,27,28,33,,,,,,,,,1.4,0.8,1.1*35
$GPGST,214522.00,2.884,0.785,0.529,28.058,0.736,0.595,1.306*6F
$GPGBS,214522.00,5.217,4.203,7.748,32,0.0001,-1.690,0.801*7F
$GPGRS,214522.00,1,0.0,0.2,0.2,0.4,-0.1,-1.7,,,,,,*4F
$GPGRS,214522.00,1,2.3,-2.0,-4.6,-4.1,,,,,,,,*65
$GPGRS,214522.00,1,1.4,0.3,-0.4,1.0,-1.1,,,,,,,*61
$GPGRS,214522.00,1,-5.7,0.7,-0.5,3.3,,,,,,,,*4C
$GPGSV,4,1,14,08,74,249,51,27,55,159,44,23,18,050,29,32,34,124,35*70
$GPGSV,4,2,14,01,26,275,,02,31,284,43,10,59,059,48,21,52,290,38*7F
$GPGSV,4,3,14,16,05,191,,14,08,329,38,36,35,170,41,34,31,208,*71
$GPGSV,4,4,14,49,34,195,37,61,03,257,*7B
$GLGSV,3,1,09,84,64,342,34,74,12,249,,85,18,301,26,67,13,025,30*68
$GLGSV,3,2,09,75,22,301,40,83,33,093,22,69,47,152,47,68,53,062,51*69
$GLGSV,3,3,09,76,05,355,24*5D
$GAGSV,3,1,11,26,77,337,49,08,30,066,43,07,29,127,38,23,34,240,*6B
$GAGSV,3,2,11,31,29,301,33,13,37,078,42,33,32,278,36,14,60,167,*67
$GAGSV,3,3,11,29,02,171,,03,04,023,,21,09,193,20*53
$GBGSV,5,1,19,28,66,112,51,42,12,037,26,05,23,128,34,08,12,046,28*65
$GBGSV,5,2,19,30,14,299,24,13,20,049,31,60,11,108,,41,47,170,34*61
$GBGSV,5,3,19,14,35,051,38,57,48,250,,33,55,078,47,27,64,302,43*6D
$GBGSV,5,4,19,32,02,201,,39,03,075,,43,05,118,,46,07,263,*61
$GBGSV,5,5,19,36,08,311,28,58,06,247,,02,08,105,*53
$GPGGA,214522.00,,,,,0,00,,,M,,M,,*4A
$PTNL,GGK,214522.00,010125,4742.4461364,N,01617.9730184,E,1,19,1.4,EHT670.0116,M*40
$GPGGQ,214522.00,010125,4742.4461364,N,01617.9730184,E,1,19,1.612,626.8006,M*34
$GPGFA,214522.00,7.460,10.705,0.785,0.529,28.058,1.306,,VVV*00
$GPLLK,214522.00,010125,,M,,M,1,19,1.6,,M*06
$GNGMP,214522.00,,,,,DAAA,19,0.8,,,,*54
$GPGMP,214522.00,,,,,,06,,,,1.8,123*70
$GLGMP,214522.00,,,,,,04,,,,,*79
$GAGMP,214522.00,,,,,,05,,,,,*75
$GBGMP,214522.00,,,,,,04,,,,,*77
$PSSN,SNC,[0,337540000,2347]*42
$GPZDA,214527.00,01,01,2025,,*64
$GPDTM,W84,,00.0000000,N,00.0000000,E,00.0000000,W84*5F
$GPRMC,214527.00,A,4742.4461291,N,01617.9730201,E,0.0,,010125,5.1,E,D*1D
$GPGLL,4742.4461291,N,01617.9730201,E,214527.00,A,D*6C
$GPGGA,214527.00,4742.4461291,N,01617.9730201,E,2,17,0.9,626.8033,M,43.2111,M,2.6,0123*44
$GNGNS,214527.00,4742.4461291,N,01617.9730201,E,DAAA,17,0.9,626.8033,43.2111,,*5C
$GPGNS,214527.00,,,,,,05,,,,2.6,123*7B
$GLGNS,214527.00,,,,,,03,,,,,*7B
$GAGNS,214527.00,,,,,,05,,,,,*70
$GBGNS,214527.00,,,,,,04,,,,,*72
$GPLLQ,214527.00,010125,,M,,M,1,17,2.176,,M*12
$GPVTG,,T,,M,0.00,N,0.01,K,D*27
$GPHDT,,T*1B
$GPTHS,,V*0E
$GPROT,,V*08
$PSSN,HRP,214527.00,010125,,,,,,,00,0,,*66
$PTNL,AVR,214527.00,,Yaw,,Tilt,,,,0,,00*30
$GPGSA,A,3,08,10,14,21,27,,,,,,,,1.5,0.9,1.2*36
$GPGSA,A,3,68,69,75,,,,,,,,,,1.5,0.9,1.2*3F
$GPGSA,A,3,07,08,13,26,33,,,,,,,,1.5,0.9,1.2*35
$GPGSA,A,3,14,27,28,33,,,,,,,,,1.5,0.9,1.2*36
$GPGST,214527.00,3.358,0.975,0.730,21.954,0.945,0.769,1.803*63
$GPGBS,214527.00,6.359,4.720,10.422,21,0.0001,1.072,0.640*61
$GPGRS,214527.00,1,0.1,0.0,-0.5,1.1,-1.0,,,,,,,*62
$GPGRS,214527.00,1,3.0,-2.1,-6.3,,,,,,,,,*62
$GPGRS,214527.00,1,0.8,0.3,-0.6,0.9,-1.6,,,,,,,*64
$GPGRS,214527.00,1,-6.7,0.4,-0.3,2.7,,,,,,,,*4A
$GPGSV,4,1,14,08,74,249,51,27,55,159,45,23,17,050,28,32,34,124,33*79
$GPGSV,4,2,14,01,26,275,,02,31,284,42,10,59,059,46,21,52,290,39*71
$GPGSV,4,3,14,16,05,191,,14,08,329,37,36,35,170,41,34,31,208,*7E
$GPGSV,4,4,14,49,34,195,37,61,03,257,*7B
$GLGSV,3,1,09,84,64,342,34,74,12,249,,85,18,301,26,67,13,025,27*6E
$GLGSV,3,2,09,75,22,301,40,83,33,093,28,69,47,152,46,68,52,062,51*63
$GLGSV,3,3,09,76,05,355,29*50
$GAGSV,3,1,11,26,77,337,49,08,30,066,42,07,29,127,37,23,34,240,*65
$GAGSV,3,2,11,31,29,301,34,13,37,078,42,33,32,278,35,14,60,167,*63
$GAGSV,3,3,11,29,02,171,,03,04,023,,21,08,193,22*50
$GBGSV,5,1,19,28,66,112,51,42,12,037,,05,23,128,34,08,12,047,28*60
$GBGSV,5,2,19,30,14,299,24,13,20,049,31,60,11,108,,41,47,170,35*60
$GBGSV,5,3,19,14,35,051,37,57,48,250,,33,55,078,48,27,64,302,42*6C
$GBGSV,5,4,19,32,02,201,,39,03,075,,43,05,118,,46,07,263,*61
$GBGSV,5,5,19,36,08,311,27,58,06,247,,02,08,105,*5C
$GPGGA,214527.00,,,,,0,00,,,M,,M,,*4F
$PTNL,GGK,214527.00,010125,4742.4461291,N,01617.9730201,E,1,17,1.5,EHT670.0144,M*48
$GPGGQ,214527.00,010125,4742.4461291,N,01617.9730201,E,1,17,2.176,626.8033,M*3A
$GPGFA,214527.00,9.274,14.788,0.975,0.730,21.954,1.803,,VVV*00
$GPLLK,214527.00,010125,,M,,M,1,17,1.7,,M*0C
$GNGMP,214527.00,,,,,DAAA,17,0.9,,,,*5E
$GPGMP,214527.00,,,,,,05,,,,2.6,123*7B
$GLGMP,214527.00,,,,,,03,,,,,*7B
$GAGMP,214527.00,,,,,,05,,,,,*70
$GBGMP,214527.00,,,,,,04,,,,,*72
$PSSN,SNC,[0,337545000,2347]*47
$GPZDA,214532.00,01,01,2025,,*60
$GPDTM,W84,,00.0000000,N,00.0000000,E,00.0000000,W84*5F
$GPRMC,214532.00,A,4742.4461243,N,01617.9730383,E,0.0,,010125,5.1,E,D*1D
$GPGLL,4742.4461243,N,01617.9730383,E,214532.00,A,D*6C
$GPGGA,214532.00,4742.4461243,N,01617.9730383,E,2,18,0.8,626.7861,M,43.2111,M,3.7,0123*4A
$GNGNS,214532.00,4742.4461243,N,01617.9730383,E,DAAA,18,0.8,626.7861,43.2111,,*52
$GPGNS,214532.00,,,,,,06,,,,3.7,123*7C
$GLGNS,214532.00,,,,,,03,,,,,*7F
$GAGNS,214532.00,,,,,,04,,,,,*75
$GBGNS,214532.00,,,,,,05,,,,,*77
$GPLLQ,214532.00,010125,,M,,M,1,18,3.208,,M*12
$GPVTG,,T,,M,0.01,N,0.01,K,D*26
$GPHDT,,T*1B
$GPTHS,,V*0E
$GPROT,,V*08
$PSSN,HRP,214532.00,010125,,,,,,,00,0,,*62
$PTNL,AVR,214532.00,,Yaw,,Tilt,,,,0,,00*34
$GPGSA,A,3,02,08,10,14,21,27,,,,,,,1.4,0.8,1.2*34
$GPGSA,A,3,68,69,75,,,,,,,,,,1.4,0.8,1.2*3F
$GPGSA,A,3,07,08,13,26,,,,,,,,,1.4,0.8,1.2*35
$GPGSA,A,3,14,27,28,33,41,,,,,,,,1.4,0.8,1.2*33
$GPGST,214532.00,3.151,1.458,1.068,10.457,1.447,1.083,2.651*6E
$GPGBS,214532.00,6.110,3.905,8.183,21,0.0001,2.081,0.661*5F
$GPGRS,214532.00,1,-0.2,-0.0,0.1,-2.9,2.1,-1.2,,,,,,*45
$GPGRS,214532.00,1,2.9,-2.5,-5.6,,,,,,,,,*6C
$GPGRS,214532.00,1,3.7,-0.2,-0.5,0.7,,,,,,,,*49
$GPGRS,214532.00,1,-5.2,0.5,-0.1,1.4,-2.3,,,,,,,*49
$GPGSV,4,1,14,08,74,249,51,27,55,159,46,23,17,050,27,32,34,124,27*70
$GPGSV,4,2,14,01,26,275,,02,31,284,40,10,59,059,45,21,52,290,39*70
$GPGSV,4,3,14,16,05,191,,14,08,329,37,36,35,170,41,34,31,208,*7E
$GPGSV,4,4,14,49,34,195,37,61,03,257,*7B
$GLGSV,3,1,09,84,64,342,33,74,12,249,,85,18,301,23,67,13,025,19*61
$GLGSV,3,2,09,75,22,301,40,83,33,093,32,69,48,152,45,68,52,062,50*65
$GLGSV,3,3,09,76,05,355,28*51
$GAGSV,3,1,11,26,77,337,48,08,30,066,41,07,29,127,37,23,34,239,*69
$GAGSV,3,2,11,31,29,301,34,13,37,078,42,33,32,278,35,14,60,167,*63
$GAGSV,3,3,11,29,02,171,,03,04,023,,21,08,193,21*53
$GBGSV,5,1,19,28,66,112,51,42,12,037,,05,23,128,34,08,12,047,28*60
$GBGSV,5,2,19,30,14,299,33,13,20,049,31,60,11,108,,41,47,170,36*65
$GBGSV,5,3,19,14,35,051,36,57,48,250,,33,55,078,48,27,64,302,41*6E
$GBGSV,5,4,19,32,02,201,,39,03,075,,43,05,118,,46,07,263,*61
$GBGSV,5,5,19,36,08,311,27,58,06,247,,02,08,105,*5C
$GPGGA,214532.00,,,,,0,00,,,M,,M,,*4B
$PTNL,GGK,214532.00,010125,4742.4461243,N,01617.9730383,E,1,18,1.4,EHT669.9971,M*49
$GPGGQ,214532.00,010125,4742.4461243,N,01617.9730383,E,1,18,3.208,626.7861,M*3E
$GPGFA,214532.00,13.861,21.737,1.458,1.068,10.457,2.651,,VVV*3D
$GPLLK,214532.00,010125,,M,,M,1,18,1.7,,M*07
$GNGMP,214532.00,,,,,DAAA,18,0.8,,,,*54
$GPGMP,214532.00,,,,,,06,,,,3.7,123*7C
$GLGMP,214532.00,,,,,,03,,,,,*7F
$GAGMP,214532.00,,,,,,04,,,,,*75
$GBGMP,214532.00,,,,,,05,,,,,*77
$PSSN,SNC,[0,337550000,2347]*43
$GPZDA,214537.00,01,01,2025,,*65
$GPDTM,W84,,00.0000000,N,00.0000000,E,00.0000000,W84*5F
$GPRMC,214537.00,A,4742.4461260,N,01617.9730387,E,0.0,,010125,5.1,E,D*1D
$GPGLL,4742.4461260,N,01617.9730387,E,214537.00,A,D*6C
$GPGGA,214537.00,4742.4461260,N,01617.9730387,E,2,18,0.8,626.7558,M,43.2111,M,2.0,0123*4B
$GNGNS,214537.00,4742.4461260,N,01617.9730387,E,DAAA,18,0.8,626.7558,43.2111,,*55
$GPGNS,214537.00,,,,,,06,,,,2.0,123*7F
$GLGNS,214537.00,,,,,,03,,,,,*7A
$GAGNS,214537.00,,,,,,04,,,,,*70
$GBGNS,214537.00,,,,,,05,,,,,*72
$GPLLQ,214537.00,010125,,M,,M,1,18,2.857,,M*16
$GPVTG,,T,,M,0.01,N,0.01,K,D*26
$GPHDT,,T*1B
$GPTHS,,V*0E
$GPROT,,V*08
$PSSN,HRP,214537.00,010125,,,,,,,00,0,,*67
$PTNL,AVR,214537.00,,Yaw,,Tilt,,,,0,,00*31
$GPGSA,A,3,02,08,10,14,21,27,,,,,,,1.4,0.8,1.2*34
$GPGSA,A,3,68,69,75,,,,,,,,,,1.4,0.8,1.2*3F
$GPGSA,A,3,07,08,13,26,,,,,,,,,1.4,0.8,1.2*35
$GPGSA,A,3,14,27,28,33,41,,,,,,,,1.4,0.8,1.2*33
$GPGST,214537.00,4.281,1.303,0.950,7.480,1.298,0.957,2.359*5C
$GPGBS,214537.00,6.254,3.695,7.768,14,0.0001,-2.708,1.132*7E
$GPGRS,214537.00,1,-0.4,0.1,0.6,-2.7,1.3,-0.7,,,,,,*66
$GPGRS,214537.00,1,3.0,-4.5,-5.3,,,,,,,,,*62
$GPGRS,214537.00,1,11.0,-0.8,-0.2,0.6,,,,,,,,*74
$GPGRS,214537.00,1,-2.0,0.9,0.2,0.3,-2.7,,,,,,,*69
$GPGSV,4,1,14,08,74,249,50,27,55,159,46,23,17,050,24,32,34,124,19*7F
$GPGSV,4,2,14,01,26,275,,02,31,284,40,10,59,059,45,21,52,290,39*70
$GPGSV,4,3,14,16,05,191,,14,08,329,36,36,35,170,41,34,31,208,*7F
$GPGSV,4,4,14,49,34,195,37,61,03,257,*7B
$GLGSV,3,1,09,84,64,342,34,74,12,249,25,85,18,301,,67,13,025,*68
$GLGSV,3,2,09,75,22,301,41,83,33,093,31,69,48,152,44,68,52,061,50*65
$GLGSV,3,3,09,76,05,355,31*59
$GAGSV,3,1,11,26,77,337,48,08,30,066,40,31,29,301,34,23,34,239,*68
$GAGSV,3,2,11,07,29,127,36,13,37,078,42,33,32,278,34,14,60,167,*63
$GAGSV,3,3,11,29,02,171,,03,04,023,,21,08,193,20*52
$GBGSV,5,1,19,28,66,112,51,42,12,037,27,05,23,128,34,08,12,047,28*65
$GBGSV,5,2,19,30,14,299,26,13,20,049,30,60,11,108,,41,47,170,36*60
$GBGSV,5,3,19,14,35,051,37,57,48,250,,33,55,078,48,27,64,302,40*6E
$GBGSV,5,4,19,32,02,201,,39,03,075,,43,05,118,,46,07,263,*61
$GBGSV,5,5,19,36,08,311,27,58,06,247,,02,08,105,*5C
$GPGGA,214537.00,,,,,0,00,,,M,,M,,*4E
$PTNL,GGK,214537.00,010125,4742.4461260,N,01617.9730387,E,1,18,1.4,EHT669.9668,M*4E
$GPGGQ,214537.00,010125,4742.4461260,N,01617.9730387,E,1,18,2.857,626.7558,M*38
$GPGFA,214537.00,12.386,19.342,1.303,0.950,7.480,2.359,,VVV*0D
$GPLLK,214537.00,010125,,M,,M,1,18,1.7,,M*02
$GNGMP,214537.00,,,,,DAAA,18,0.8,,,,*51
$GPGMP,214537.00,,,,,,06,,,,2.0,123*7F
$GLGMP,214537.00,,,,,,03,,,,,*7A
$GAGMP,214537.00,,,,,,04,,,,,*70
$GBGMP,214537.00,,,,,,05,,,,,*72
$PSSN,SNC,[0,337555000,2347]*46
$GPZDA,214542.00,01,01,2025,,*67
$GPDTM,W84,,00.0000000,N,00.0000000,E,00.0000000,W84*5F
$GPRMC,214542.00,A,4742.4461254,N,01617.9730434,E,0.0,,010125,5.1,E,D*17
$GPGLL,4742.4461254,N,01617.9730434,E,214542.00,A,D*66
$GPGGA,214542.00,4742.4461254,N,01617.9730434,E,2,17,0.9,626.7358,M,43.2111,M,1.7,0123*4D
$GNGNS,214542.00,4742.4461254,N,01617.9730434,E,DAAA,17,0.9,626.7358,43.2111,,*57
$GPGNS,214542.00,,,,,,06,,,,1.7,123*79
$GLGNS,214542.00,,,,,,03,,,,,*78
$GAGNS,214542.00,,,,,,03,,,,,*75
$GBGNS,214542.00,,,,,,05,,,,,*70
$GPLLQ,214542.00,010125,,M,,M,1,17,2.611,,M*17
$GPVTG,,T,,M,0.01,N,0.01,K,D*26
$GPHDT,,T*1B
$GPTHS,,V*0E
$GPROT,,V*08
$PSSN,HRP,214542.00,010125,,,,,,,00,0,,*65
$PTNL,AVR,214542.00,,Yaw,,Tilt,,,,0,,00*33
$GPGSA,A,3,02,08,10,14,21,27,,,,,,,1.6,0.9,1.3*36
$GPGSA,A,3,68,69,75,,,,,,,,,,1.6,0.9,1.3*3D
$GPGSA,A,3,08,13,26,,,,,,,,,,1.6,0.9,1.3*30
$GPGSA,A,3,14,27,28,33,41,,,,,,,,1.6,0.9,1.3*31
$GPGST,214542.00,2.835,1.190,0.859,5.984,1.187,0.864,2.159*58
$GPGBS,214542.00,5.989,3.758,7.964,14,0.0001,-2.685,1.141*76
$GPGRS,214542.00,1,1.2,0.3,0.3,-2.7,0.5,-1.0,,,,,,*48
$GPGRS,214542.00,1,3.3,-5.7,-3.4,,,,,,,,,*61
$GPGRS,214542.00,1,-1.4,-0.2,0.2,,,,,,,,,*61
$GPGRS,214542.00,1,-1.3,2.1,-0.4,-0.7,-2.6,,,,,,,*62
$GPGSV,4,1,14,08,74,249,50,27,55,159,46,23,17,050,20,32,34,124,26*77
$GPGSV,4,2,14,01,26,275,,02,31,284,38,10,59,059,45,21,52,290,40*71
$GPGSV,4,3,14,16,05,191,,14,08,329,35,36,35,170,41,34,31,208,*7C
$GPGSV,4,4,14,49,34,195,37,61,03,257,*7B
$GLGSV,3,1,09,84,64,342,32,74,12,249,,85,18,301,35,67,13,025,*6F
$GLGSV,3,2,09,75,22,301,40,83,33,093,30,69,48,152,42,68,52,061,50*63
$GLGSV,3,3,09,76,05,355,30*58
$GAGSV,3,1,11,26,77,337,47,08,30,066,39,07,29,127,33,23,34,239,*6D
$GAGSV,3,2,11,31,29,301,34,13,37,078,42,33,32,278,33,14,60,167,*65
$GAGSV,3,3,11,29,02,171,,03,04,023,19,21,08,193,19*50
$GBGSV,5,1,19,28,66,112,51,42,12,037,26,05,23,128,34,08,12,047,27*6B
$GBGSV,5,2,19,30,14,299,26,13,20,049,28,60,11,108,,41,47,170,38*67
$GBGSV,5,3,19,14,35,051,38,57,48,250,,33,55,078,48,27,64,302,38*6E
$GBGSV,5,4,19,32,02,201,,39,03,075,,43,05,118,,46,07,263,*61
$GBGSV,5,5,19,36,08,311,33,58,06,247,,02,08,105,*59
$GPGGA,214542.00,,,,,0,00,,,M,,M,,*4C
$PTNL,GGK,214542.00,010125,4742.4461254,N,01617.9730434,E,1,17,1.6,EHT669.9468,M*4B
$GPGGQ,214542.00,010125,4742.4461254,N,01617.9730434,E,1,17,2.611,626.7358,M*37
$GPGFA,214542.00,11.313,17.703,1.190,0.859,5.984,2.159,,VVV*06
$GPLLK,214542.00,010125,,M,,M,1,17,1.9,,M*01
$GNGMP,214542.00,,,,,DAAA,17,0.9,,,,*5D
$GPGMP,214542.00,,,,,,06,,,,1.7,123*79
$GLGMP,214542.00,,,,,,03,,,,,*78
$GAGMP,214542.00,,,,,,03,,,,,*75
$GBGMP,214542.00,,,,,,05,,,,,*70
$PSSN,SNC,[0,337560000,2347]*40
$GPZDA,214547.00,01,01,2025,,*62
$GPDTM,W84,,00.0000000,N,00.0000000,E,00.0000000,W84*5F
$GPRMC,214547.00,A,4742.4461256,N,01617.9730487,E,0.0,,010125,5.1,E,D*18
$GPGLL,4742.4461256,N,01617.9730487,E,214547.00,A,D*69
$GPGGA,214547.00,4742.4461256,N,01617.9730487,E,2,17,0.9,626.7142,M,43.2111,M,2.6,0123*49
$GNGNS,214547.00,4742.4461256,N,01617.9730487,E,DAAA,17,0.9,626.7142,43.2111,,*51
$GPGNS,214547.00,,,,,,05,,,,2.6,123*7D
$GLGNS,214547.00,,,,,,03,,,,,*7D
$GAGNS,214547.00,,,,,,03,,,,,*70
$GBGNS,214547.00,,,,,,06,,,,,*76
$GPLLQ,214547.00,010125,,M,,M,1,17,2.951,,M*19
$GPVTG,,T,,M,0.01,N,0.02,K,D*25
$GPHDT,,T*1B
$GPTHS,,V*0E
$GPROT,,V*08
$PSSN,HRP,214547.00,010125,,,,,,,00,0,,*60
$PTNL,AVR,214547.00,,Yaw,,Tilt,,,,0,,00*36
$GPGSA,A,3,08,10,14,21,27,,,,,,,,1.5,0.9,1.2*36
$GPGSA,A,3,68,69,75,,,,,,,,,,1.5,0.9,1.2*3F
$GPGSA,A,3,08,13,26,,,,,,,,,,1.5,0.9,1.2*32
$GPGSA,A,3,14,27,28,33,36,41,,,,,,,1.5,0.9,1.2*36
$GPGST,214547.00,5.779,1.321,0.989,24.952,1.269,1.056,2.446*61
$GPGBS,214547.00,6.380,4.823,10.379,14,0.0001,-2.348,1.146*44
$GPGRS,214547.00,1,0.6,0.4,-2.3,1.0,-1.0,,,,,,,*62
$GPGRS,214547.00,1,3.2,-6.0,-5.9,,,,,,,,,*6A
$GPGRS,214547.00,1,-1.9,-0.4,0.3,,,,,,,,,*6E
$GPGRS,214547.00,1,-1.2,2.1,-0.5,-1.3,15.1,-2.0,,,,,,*7F
$GPGSV,4,1,14,08,74,248,49,27,55,159,46,23,17,050,,32,34,124,33*78
$GPGSV,4,2,14,01,26,275,,02,31,284,34,10,59,059,45,21,52,290,41*7C
$GPGSV,4,3,14,16,05,191,,14,08,329,36,36,35,170,41,34,31,208,*7F
$GPGSV,4,4,14,49,34,195,37,61,03,257,*7B
$GLGSV,3,1,09,84,64,342,32,74,12,249,,85,18,301,27,67,13,025,25*6B
$GLGSV,3,2,09,75,22,300,37,83,33,093,30,69,48,152,41,68,52,061,50*61
$GLGSV,3,3,09,76,05,355,28*51
$GAGSV,3,1,11,26,77,337,47,08,30,066,37,07,30,127,31,23,34,239,*69
$GAGSV,3,2,11,31,29,301,35,13,37,078,42,33,32,278,33,14,59,167,*6E
$GAGSV,3,3,11,29,02,171,,03,04,023,19,21,08,193,20*5A
$GBGSV,5,1,19,28,66,112,51,42,12,037,25,05,23,128,34,08,12,047,27*68
$GBGSV,5,2,19,30,14,299,28,13,20,049,29,60,11,108,,41,48,170,40*68
$GBGSV,5,3,19,14,35,051,39,57,48,250,,33,55,077,48,27,64,302,36*6E
$GBGSV,5,4,19,32,02,201,,39,03,075,,43,05,118,,46,07,263,*61
$GBGSV,5,5,19,36,08,311,35,58,06,247,,02,08,105,*5F
$GPGGA,214547.00,,,,,0,00,,,M,,M,,*49
$PTNL,GGK,214547.00,010125,4742.4461256,N,01617.9730487,E,1,17,1.5,EHT669.9253,M*49
$GPGGQ,214547.00,010125,4742.4461256,N,01617.9730487,E,1,17,2.951,626.7142,M*3A
$GPGFA,214547.00,12.564,20.055,1.321,0.989,24.952,2.446,,VVV*31
$GPLLK,214547.00,010125,,M,,M,1,17,1.8,,M*05
$GNGMP,214547.00,,,,,DAAA,17,0.9,,,,*58
$GPGMP,214547.00,,,,,,05,,,,2.6,123*7D
$GLGMP,214547.00,,,,,,03,,,,,*7D
$GAGMP,214547.00,,,,,,03,,,,,*70
$GBGMP,214547.00,,,,,,06,,,,,*76
$PSSN,SNC,[0,337565000,2347]*45
$GPZDA,214552.00,01,01,2025,,*66
$GPDTM,W84,,00.0000000,N,00.0000000,E,00.0000000,W84*5F
$GPRMC,214552.00,A,4742.4461225,N,01617.9730669,E,0.0,,010125,5.1,E,D*1A
$GPGLL,4742.4461225,N,01617.9730669,E,214552.00,A,D*6B
$GPGGA,214552.00,4742.4461225,N,01617.9730669,E,2,18,0.8,626.6856,M,43.2111,M,1.8,0123*45
$GNGNS,214552.00,4742.4461225,N,01617.9730669,E,DAAA,18,0.8,626.6856,43.2111,,*50
$GPGNS,214552.00,,,,,,06,,,,1.8,123*77
$GLGNS,214552.00,,,,,,03,,,,,*79
$GAGNS,214552.00,,,,,,04,,,,,*73
$GBGNS,214552.00,,,,,,05,,,,,*71
$GPLLQ,214552.00,010125,,M,,M,1,18,4.051,,M*1D
$GPVTG,,T,,M,0.00,N,0.00,K,D*26
$GPHDT,,T*1B
$GPTHS,,V*0E
$GPROT,,V*08
$PSSN,HRP,214552.00,010125,,,,,,,00,0,,*64
$PTNL,AVR,214552.00,,Yaw,,Tilt,,,,0,,00*32
$GPGSA,A,3,08,10,14,21,27,32,,,,,,,1.5,0.8,1.2*36
$GPGSA,A,3,68,69,75,,,,,,,,,,1.5,0.8,1.2*3E
$GPGSA,A,3,08,13,26,31,,,,,,,,,1.5,0.8,1.2*31
$GPGSA,A,3,14,28,33,36,41,,,,,,,,1.5,0.8,1.2*32
$GPGST,214552.00,7.356,2.005,1.276,30.708,1.843,1.501,3.280*6E
$GPGBS,214552.00,5.010,4.311,8.516,21,0.0001,2.216,0.656*53
$GPGRS,214552.00,1,0.5,-0.1,-2.7,2.2,-0.8,-3.4,,,,,,*45
$GPGRS,214552.00,1,2.9,-5.2,-7.1,,,,,,,,,*6F
$GPGRS,214552.00,1,-1.6,-0.9,-0.1,15.1,,,,,,,,*5C
$GPGRS,214552.00,1,-0.9,-0.8,-1.5,15.7,-1.8,,,,,,,*5A
$GPGSV,4,1,14,08,74,248,49,27,55,160,46,23,17,050,23,32,34,124,37*77
$GPGSV,4,2,14,01,27,275,,02,31,284,35,10,59,058,45,21,52,290,41*7D
$GPGSV,4,3,14,16,05,190,,14,08,329,36,36,35,170,41,34,31,208,*7E
$GPGSV,4,4,14,49,34,195,36,61,03,257,*7A
$GLGSV,3,1,09,84,64,342,33,74,12,249,,85,18,301,25,67,13,025,*6F
$GLGSV,3,2,09,75,22,300,38,83,33,093,30,69,48,152,40,68,52,061,50*6F
$GLGSV,3,3,09,76,06,355,31*5A
$GAGSV,3,1,11,26,77,337,46,08,30,066,37,31,29,301,36,23,34,239,*64
$GAGSV,3,2,11,07,30,127,26,13,37,078,42,33,32,278,31,14,59,167,*65
$GAGSV,3,3,11,29,02,171,,03,04,023,,21,08,193,*50
$GBGSV,5,1,19,28,66,112,50,42,12,037,26,05,23,128,34,08,12,047,26*6B
$GBGSV,5,2,19,30,14,299,31,13,20,049,26,60,11,108,,41,48,170,42*6D
$GBGSV,5,3,19,14,34,051,40,57,48,250,,33,55,077,49,27,64,302,33*65
$GBGSV,5,4,19,32,02,201,,39,03,075,,43,05,118,,46,07,263,*61
$GBGSV,5,5,19,36,08,311,36,58,06,247,,02,08,105,*5C
$GPGGA,214552.00,,,,,0,00,,,M,,M,,*4D
$PTNL,GGK,214552.00,010125,4742.4461225,N,01617.9730669,E,1,18,1.5,EHT669.8967,M*49
$GPGGQ,214552.00,010125,4742.4461225,N,01617.9730669,E,1,18,4.051,626.6856,M*35
$GPGFA,214552.00,19.067,26.900,2.005,1.276,30.708,3.280,,VVV*32
$GPLLK,214552.00,010125,,M,,M,1,18,1.7,,M*01
$GNGMP,214552.00,,,,,DAAA,18,0.8,,,,*52
$GPGMP,214552.00,,,,,,06,,,,1.8,123*77
$GLGMP,214552.00,,,,,,03,,,,,*79
$GAGMP,214552.00,,,,,,04,,,,,*73
$GBGMP,214552.00,,,,,,05,,,,,*71
$PSSN,SNC,[0,337570000,2347]*41
$GPZDA,214557.00,01,01,2025,,*63
$GPDTM,W84,,00.0000000,N,00.0000000,E,00.0000000,W84*5F
$GPRMC,214557.00,A,4742.4461314,N,01617.9730621,E,0.0,,010125,5.1,E,D*10
$GPGLL,4742.4461314,N,01617.9730621,E,214557.00,A,D*61
$GPGGA,214557.00,4742.4461314,N,01617.9730621,E,2,20,0.8,626.6447,M,43.2111,M,2.7,0123*44
$GNGNS,214557.00,4742.4461314,N,01617.9730621,E,DAAA,20,0.8,626.6447,43.2111,,*5D
$GPGNS,214557.00,,,,,,07,,,,2.7,123*7F
$GLGNS,214557.00,,,,,,03,,,,,*7C
$GAGNS,214557.00,,,,,,05,,,,,*77
$GBGNS,214557.00,,,,,,05,,,,,*74
$GPLLQ,214557.00,010125,,M,,M,1,20,3.630,,M*15
$GPVTG,,T,,M,0.00,N,0.00,K,D*26
$GPHDT,,T*1B
$GPTHS,,V*0E
$GPROT,,V*08
$PSSN,HRP,214557.00,010125,,,,,,,00,0,,*61
$PTNL,AVR,214557.00,,Yaw,,Tilt,,,,0,,00*37
$GPGSA,A,3,02,08,10,14,21,27,32,,,,,,1.3,0.8,1.1*31
$GPGSA,A,3,68,69,75,,,,,,,,,,1.3,0.8,1.1*3B
$GPGSA,A,3,07,08,13,26,31,,,,,,,,1.3,0.8,1.1*33
$GPGSA,A,3,14,28,33,36,41,,,,,,,,1.3,0.8,1.1*37
$GPGST,214557.00,7.149,1.938,1.031,25.663,1.803,1.252,2.891*64
$GPGBS,214557.00,4.748,3.208,5.660,14,0.0001,-4.071,1.140*73
$GPGRS,214557.00,1,-1.7,0.5,-0.1,-4.1,2.4,-0.1,0.7,,,,,*67
$GPGRS,214557.00,1,3.9,-3.0,11.3,,,,,,,,,*77
$GPGRS,214557.00,1,4.3,-0.8,-1.1,-0.2,14.9,,,,,,,*7C
$GPGRS,214557.00,1,-0.6,-0.8,-1.4,15.4,-1.5,,,,,,,*5F
$GPGSV,4,1,14,08,74,248,49,27,55,160,46,23,17,050,,32,34,124,39*78
$GPGSV,4,2,14,01,27,275,,02,31,284,37,10,59,058,45,21,52,290,40*7E
$GPGSV,4,3,14,16,05,190,,14,08,329,35,36,35,170,41,34,31,208,*7D
$GPGSV,4,4,14,49,34,195,37,61,03,257,*7B
$GLGSV,3,1,09,84,64,343,33,74,12,249,21,85,18,301,26,67,13,025,28*64
$GLGSV,3,2,09,75,22,300,39,83,33,093,30,69,48,152,42,68,52,061,50*6C
$GLGSV,3,3,09,76,06,355,31*5A
$GAGSV,3,1,11,26,77,337,46,08,30,066,38,31,29,301,37,23,34,239,*6A
$GAGSV,3,2,11,07,30,127,38,13,37,078,42,33,32,278,29,14,59,167,*63
$GAGSV,3,3,11,29,02,171,,03,04,023,,21,08,193,*50
$GBGSV,5,1,19,28,66,112,50,42,12,037,,05,23,128,34,08,12,047,26*6F
$GBGSV,5,2,19,30,14,299,30,13,20,049,27,60,11,108,,41,48,170,44*6B
$GBGSV,5,3,19,14,34,051,41,57,48,250,,33,55,077,50,27,64,302,33*6C
$GBGSV,5,4,19,32,02,201,,39,03,075,,43,05,118,,46,07,263,*61
$GBGSV,5,5,19,36,08,311,36,58,06,247,,02,08,105,*5C
$GPGGA,214557.00,,,,,0,00,,,M,,M,,*48
$PTNL,GGK,214557.00,010125,4742.4461314,N,01617.9730621,E,1,20,1.3,EHT669.8557,M*41
$GPGGQ,214557.00,010125,4742.4461314,N,01617.9730621,E,1,20,3.630,626.6447,M*3E
$GPGFA,214557.00,18.422,23.709,1.938,1.031,25.663,2.891,,VVV*37
$GPLLK,214557.00,010125,,M,,M,1,20,1.5,,M*0D
$GNGMP,214557.00,,,,,DAAA,20,0.8,,,,*5C
$GPGMP,214557.00,,,,,,07,,,,2.7,123*7F
$GLGMP,214557.00,,,,,,03,,,,,*7C
$GAGMP,214557.00,,,,,,05,,,,,*77
$GBGMP,214557.00,,,,,,05,,,,,*74
$PSSN,SNC,[0,337575000,2347]*44
$GPZDA,214602.00,01,01,2025,,*60
$GPDTM,W84,,00.0000000,N,00.0000000,E,00.0000000,W84*5F
$GPRMC,214602.00,A,4742.4461384,N,01617.9730629,E,0.0,,010125,5.1,E,D*12
$GPGLL,4742.4461384,N,01617.9730629,E,214602.00,A,D*63
$GPGGA,214602.00,4742.4461384,N,01617.9730629,E,2,21,0.8,626.6112,M,43.2111,M,2.6,0123*43
$GNGNS,214602.00,4742.4461384,N,01617.9730629,E,DAAA,21,0.8,626.6112,43.2111,,*5B
$GPGNS,214602.00,,,,,,07,,,,2.6,123*7D
$GLGNS,214602.00,,,,,,04,,,,,*78
$GAGNS,214602.00,,,,,,05,,,,,*74
$GBGNS,214602.00,,,,,,05,,,,,*77
$GPLLQ,214602.00,010125,,M,,M,1,21,3.273,,M*14
$GPVTG,,T,,M,0.01,N,0.01,K,D*26
$GPHDT,,T*1B
$GPTHS,,V*0E
$GPROT,,V*08
$PSSN,HRP,214602.00,010125,,,,,,,00,0,,*62
$PTNL,AVR,214602.00,,Yaw,,Tilt,,,,0,,00*34
$GPGSA,A,3,02,08,10,14,21,27,32,,,,,,1.3,0.8,1.1*31
$GPGSA,A,3,68,69,75,85,,,,,,,,,1.3,0.8,1.1*36
$GPGSA,A,3,07,08,13,26,31,,,,,,,,1.3,0.8,1.1*33
$GPGSA,A,3,14,28,33,36,41,,,,,,,,1.3,0.8,1.1*37
$GPGST,214602.00,8.421,1.760,0.931,26.429,1.629,1.144,2.598*61
$GPGBS,214602.00,4.838,3.328,5.768,85,0.0001,-22.388,6.193*42
$GPGRS,214602.00,1,-1.4,0.5,-0.1,-3.9,1.5,-0.1,0.8,,,,,*65
$GPGRS,214602.00,1,4.2,-1.2,9.0,-22.4,,,,,,,,*75
$GPGRS,214602.00,1,4.3,-0.8,-1.9,-0.5,12.2,,,,,,,*7D
$GPGRS,214602.00,1,-0.8,-1.0,-1.5,14.0,0.1,,,,,,,*77
$GPGSV,4,1,14,08,74,248,49,27,55,160,47,23,17,050,,32,34,124,42*75
$GPGSV,4,2,14,01,27,275,,02,31,284,38,10,59,058,45,21,52,290,40*71
$GPGSV,4,3,14,16,05,190,,14,08,329,35,36,35,170,41,34,31,208,*7D
$GPGSV,4,4,14,49,34,195,37,61,03,257,*7B
$GLGSV,3,1,09,84,64,343,33,74,12,249,,85,18,301,41,67,13,025,28*66
$GLGSV,3,2,09,75,22,300,40,83,33,093,28,69,48,152,44,68,52,061,49*65
$GLGSV,3,3,09,76,06,355,30*5B
$GAGSV,3,1,11,26,77,338,46,08,30,066,40,07,30,127,37,23,34,239,*61
$GAGSV,3,2,11,31,29,301,36,13,37,078,40,33,32,278,31,14,59,167,*6D
$GAGSV,3,3,11,29,02,171,,03,04,023,,21,08,193,20*52
$GBGSV,5,1,19,28,66,112,49,42,12,037,26,05,23,128,34,08,12,047,25*60
$GBGSV,5,2,19,30,14,299,28,13,20,049,27,60,11,108,,41,48,170,45*63
$GBGSV,5,3,19,14,34,051,40,57,48,250,,33,55,077,50,27,64,302,34*6A
$GBGSV,5,4,19,32,02,201,,39,03,075,,43,05,118,,46,07,263,*61
$GBGSV,5,5,19,36,08,311,36,58,06,247,,02,08,105,*5C
$GPGGA,214602.00,,,,,0,00,,,M,,M,,*4B
$PTNL,GGK,214602.00,010125,4742.4461384,N,01617.9730629,E,1,21,1.3,EHT669.8222,M*47
$GPGGQ,214602.00,010125,4742.4461384,N,01617.9730629,E,1,21,3.273,626.6112,M*3B
$GPGFA,214602.00,16.732,21.301,1.760,0.931,26.429,2.598,,VVV*36
$GPLLK,214602.00,010125,,M,,M,1,21,1.5,,M*0F
$GNGMP,214602.00,,,,,DAAA,21,0.8,,,,*5E
$GPGMP,214602.00,,,,,,07,,,,2.6,123*7D
$GLGMP,214602.00,,,,,,04,,,,,*78
$GAGMP,214602.00,,,,,,05,,,,,*74
$GBGMP,214602.00,,,,,,05,,,,,*77
$PSSN,SNC,[0,337580000,2347]*4E
$GPZDA,214607.00,01,01,2025,,*65
$GPDTM,W84,,00.0000000,N,00.0000000,E,00.0000000,W84*5F
$GPRMC,214607.00,A,4742.4461452,N,01617.9730564,E,0.0,,010125,5.1,E,D*11
$GPGLL,4742.4461452,N,01617.9730564,E,214607.00,A,D*60
$GPGGA,214607.00,4742.4461452,N,01617.9730564,E,2,17,0.8,626.6062,M,43.2111,M,3.0,0123*44
$GNGNS,214607.00,4742.4461452,N,01617.9730564,E,DAAA,17,0.8,626.6062,43.2111,,*5B
$GPGNS,214607.00,,,,,,05,,,,3.0,123*7D
$GLGNS,214607.00,,,,,,03,,,,,*7A
$GAGNS,214607.00,,,,,,04,,,,,*70
$GBGNS,214607.00,,,,,,05,,,,,*72
$GPLLQ,214607.00,010125,,M,,M,1,17,2.836,,M*1E
$GPVTG,,T,,M,0.00,N,0.01,K,D*27
$GPHDT,,T*1B
$GPTHS,,V*0E
$GPROT,,V*08
$PSSN,HRP,214607.00,010125,,,,,,,00,0,,*67
$PTNL,AVR,214607.00,,Yaw,,Tilt,,,,0,,00*31
$GPGSA,A,3,02,08,10,27,32,,,,,,,,1.6,0.8,1.3*30
$GPGSA,A,3,68,69,75,,,,,,,,,,1.6,0.8,1.3*3C
$GPGSA,A,3,08,13,26,31,,,,,,,,,1.6,0.8,1.3*33
$GPGSA,A,3,14,28,33,36,41,,,,,,,,1.6,0.8,1.3*30
$GPGST,214607.00,5.113,1.366,0.747,21.647,1.299,0.858,2.370*67
$GPGBS,214607.00,6.233,3.251,9.077,02,0.0001,-1.630,0.763*79
$GPGRS,214607.00,1,-1.6,0.4,-0.7,0.4,1.6,,,,,,,*61
$GPGRS,214607.00,1,2.5,-1.5,4.6,,,,,,,,,*4A
$GPGRS,214607.00,1,-0.8,-2.6,-0.6,4.5,,,,,,,,*6E
$GPGRS,214607.00,1,-2.7,-1.0,-1.7,13.6,1.4,,,,,,,*78
$GPGSV,4,1,14,08,74,248,49,27,55,160,47,23,17,050,,32,34,124,43*74
$GPGSV,4,2,14,01,27,275,,02,31,284,39,10,59,058,44,21,52,290,38*7E
$GPGSV,4,3,14,16,05,190,,14,08,329,34,36,35,170,41,34,31,208,*7C
$GPGSV,4,4,14,49,34,195,36,61,03,257,*7A
$GLGSV,3,1,09,84,64,343,34,74,12,249,,85,18,301,,67,12,025,30*6C
$GLGSV,3,2,09,75,22,300,42,83,33,093,25,69,48,152,46,68,52,061,48*69
$GLGSV,3,3,09,76,06,355,30*5B
$GAGSV,3,1,11,26,77,338,46,08,30,066,40,31,29,301,35,23,34,239,*68
$GAGSV,3,2,11,07,30,127,21,13,37,078,39,33,32,278,34,14,59,167,*6B
$GAGSV,3,3,11,29,02,171,,03,04,023,,21,08,193,20*52
$GBGSV,5,1,19,28,66,112,48,42,12,037,27,05,23,128,34,08,12,047,24*61
$GBGSV,5,2,19,30,14,299,29,13,20,049,26,60,11,108,,41,48,170,46*60
$GBGSV,5,3,19,14,34,051,39,57,48,250,,33,55,077,50,27,64,302,35*65
$GBGSV,5,4,19,32,02,201,,39,03,075,,43,05,118,,46,07,263,*61
$GBGSV,5,5,19,36,08,311,36,58,06,247,,02,08,105,*5C
$GPGGA,214607.00,,,,,0,00,,,M,,M,,*4E
$PTNL,GGK,214607.00,010125,4742.4461452,N,01617.9730564,E,1,17,1.6,EHT669.8173,M*43
$GPGGQ,214607.00,010125,4742.4461452,N,01617.9730564,E,1,17,2.836,626.6062,M*31
$GPGFA,214607.00,12.989,19.438,1.366,0.747,21.647,2.370,,VVV*3F
$GPLLK,214607.00,010125,,M,,M,1,17,1.8,,M*02
$GNGMP,214607.00,,,,,DAAA,17,0.8,,,,*5E
$GPGMP,214607.00,,,,,,05,,,,3.0,123*7D
$GLGMP,214607.00,,,,,,03,,,,,*7A
$GAGMP,214607.00,,,,,,04,,,,,*70
$GBGMP,214607.00,,,,,,05,,,,,*72
$PSSN,SNC,[0,337585000,2347]*4B
$GPZDA,214612.00,01,01,2025,,*61
$GPDTM,W84,,00.0000000,N,00.0000000,E,00.0000000,W84*5F
$GPRMC,214612.00,A,4742.4461601,N,01617.9730414,E,0.0,,010125,5.1,E,D*17
$GPGLL,4742.4461601,N,01617.9730414,E,214612.00,A,D*66
$GPGGA,214612.00,4742.4461601,N,01617.9730414,E,2,19,0.8,626.6122,M,43.2111,M,1.6,0123*4D
$GNGNS,214612.00,4742.4461601,N,01617.9730414,E,DAAA,19,0.8,626.6122,43.2111,,*56
$GPGNS,214612.00,,,,,,05,,,,1.6,123*7D
$GLGNS,214612.00,,,,,,03,,,,,*7E
$GAGNS,214612.00,,,,,,05,,,,,*75
$GBGNS,214612.00,,,,,,06,,,,,*75
$GPLLQ,214612.00,010125,,M,,M,1,19,3.136,,M*1C
$GPVTG,,T,,M,0.00,N,0.01,K,D*27
$GPHDT,,T*1B
$GPTHS,,V*0E
$GPROT,,V*08
$PSSN,HRP,214612.00,010125,,,,,,,00,0,,*63
$PTNL,AVR,214612.00,,Yaw,,Tilt,,,,0,,00*35
$GPGSA,A,3,02,08,10,27,32,,,,,,,,1.5,0.8,1.2*32
$GPGSA,A,3,68,69,75,,,,,,,,,,1.5,0.8,1.2*3E
$GPGSA,A,3,08,13,26,31,33,,,,,,,,1.5,0.8,1.2*31
$GPGSA,A,3,14,27,28,33,36,41,,,,,,,1.5,0.8,1.2*37
$GPGST,214612.00,5.249,1.520,0.825,20.800,1.451,0.941,2.616*62
$GPGBS,214612.00,5.918,3.086,8.962,32,0.0001,2.160,0.773*56
$GPGRS,214612.00,1,-1.6,0.4,-1.1,0.4,2.2,,,,,,,*65
$GPGRS,214612.00,1,1.5,-1.1,3.8,,,,,,,,,*40
$GPGRS,214612.00,1,-0.3,-3.1,-0.4,-4.5,1.6,,,,,,,*61
$GPGRS,214612.00,1,-5.9,-1.4,-0.7,-1.7,15.1,2.1,,,,,,*72
$GPGSV,4,1,14,08,74,248,50,27,55,160,48,23,17,050,33,32,34,124,43*73
$GPGSV,4,2,14,01,27,275,,02,31,284,40,10,59,058,44,21,52,290,33*7B
$GPGSV,4,3,14,16,05,190,,14,08,329,34,36,35,170,41,34,31,208,*7C
$GPGSV,4,4,14,49,34,195,37,61,03,257,*7B
$GLGSV,3,1,09,84,64,343,33,74,12,249,,85,18,301,,67,12,025,31*6A
$GLGSV,3,2,09,75,22,300,42,83,33,093,22,69,48,152,47,68,52,061,48*6F
$GLGSV,3,3,09,76,06,355,29*53
$GAGSV,3,1,11,26,77,338,45,08,30,066,40,31,29,301,36,23,34,239,*68
$GAGSV,3,2,11,07,30,127,23,13,37,078,37,33,32,278,37,14,59,167,*64
$GAGSV,3,3,11,29,02,171,,03,04,023,,21,08,193,20*52
$GBGSV,5,1,19,28,66,112,48,42,12,037,26,05,23,128,34,08,12,047,24*60
$GBGSV,5,2,19,30,14,299,30,13,20,049,26,60,11,108,,41,48,170,46*68
$GBGSV,5,3,19,14,34,051,38,57,48,250,,33,55,077,50,27,64,302,36*67
$GBGSV,5,4,19,32,02,201,,39,03,075,,43,05,118,,46,07,263,*61
$GBGSV,5,5,19,36,08,311,36,58,06,246,,02,08,105,*5D
$GPGGA,214612.00,,,,,0,00,,,M,,M,,*4A
$PTNL,GGK,214612.00,010125,4742.4461601,N,01617.9730414,E,1,19,1.5,EHT669.8232,M*4E
$GPGGQ,214612.00,010125,4742.4461601,N,01617.9730414,E,1,19,3.136,626.6122,M*34
$GPGFA,214612.00,14.456,21.455,1.520,0.825,20.800,2.616,,VVV*34
$GPLLK,214612.00,010125,,M,,M,1,19,1.7,,M*07
$GNGMP,214612.00,,,,,DAAA,19,0.8,,,,*54
$GPGMP,214612.00,,,,,,05,,,,1.6,123*7D
$GLGMP,214612.00,,,,,,03,,,,,*7E
$GAGMP,214612.00,,,,,,05,,,,,*75
$GBGMP,214612.00,,,,,,06,,,,,*75
$PSSN,SNC,[0,337590000,2347]*4F
$GPZDA,214617.00,01,01,2025,,*64
$GPDTM,W84,,00.0000000,N,00.0000000,E,00.0000000,W84*5F
$GPRMC,214617.00,A,4742.4461740,N,01617.9730284,E,0.0,,010125,5.1,E,D*19
$GPGLL,4742.4461740,N,01617.9730284,E,214617.00,A,D*68
$GPGGA,214617.00,4742.4461740,N,01617.9730284,E,2,20,0.8,626.6172,M,43.2111,M,2.6,0123*4F
$GNGNS,214617.00,4742.4461740,N,01617.9730284,E,DAAA,20,0.8,626.6172,43.2111,,*57
$GPGNS,214617.00,,,,,,05,,,,2.6,123*7B
$GLGNS,214617.00,,,,,,04,,,,,*7C
$GAGNS,214617.00,,,,,,05,,,,,*70
$GBGNS,214617.00,,,,,,06,,,,,*70
$GPLLQ,214617.00,010125,,M,,M,1,20,3.614,,M*14
$GPVTG,,T,,M,0.01,N,0.02,K,D*25
$GPHDT,,T*1B
$GPTHS,,V*0E
$GPROT,,V*08
$PSSN,HRP,214617.00,010125,,,,,,,00,0,,*66
$PTNL,AVR,214617.00,,Yaw,,Tilt,,,,0,,00*30
$GPGSA,A,3,02,08,10,27,32,,,,,,,,1.4,0.8,1.2*33
$GPGSA,A,3,68,69,75,85,,,,,,,,,1.4,0.8,1.2*32
$GPGSA,A,3,08,13,26,31,33,,,,,,,,1.4,0.8,1.2*30
$GPGSA,A,3,14,27,28,33,36,41,,,,,,,1.4,0.8,1.2*36
$GPGST,214617.00,7.339,1.755,0.955,20.073,1.681,1.080,3.012*60
$GPGBS,214617.00,6.023,3.126,9.105,85,0.0001,19.126,6.194*6F
$GPGRS,214617.00,1,-1.9,0.4,-0.7,0.2,2.0,,,,,,,*6C
$GPGRS,214617.00,1,2.1,-1.3,2.2,19.1,,,,,,,,*5C
$GPGRS,214617.00,1,-1.4,-2.8,-0.0,-4.2,2.4,,,,,,,*68
$GPGRS,214617.00,1,-6.3,-3.3,-0.5,-1.7,15.0,1.9,,,,,,*73
$GPGSV,4,1,14,08,74,248,50,27,55,160,48,23,17,050,34,32,34,124,43*74
$GPGSV,4,2,14,01,27,275,,02,31,284,39,10,59,058,45,21,52,290,*74
$GPGSV,4,3,14,16,04,190,,14,08,329,34,36,35,170,41,34,31,208,*7D
$GPGSV,4,4,14,49,34,195,37,61,03,257,*7B
$GLGSV,3,1,09,84,64,343,33,74,12,249,,85,18,301,39,67,12,025,32*63
$GLGSV,3,2,09,75,22,300,40,83,33,093,19,69,48,152,48,68,52,061,48*6A
$GLGSV,3,3,09,76,06,355,29*53
$GAGSV,3,1,11,26,77,338,45,08,30,066,40,31,29,301,36,23,34,239,*68
$GAGSV,3,2,11,07,30,127,21,13,37,078,36,33,32,278,38,14,59,167,*68
$GAGSV,3,3,11,29,02,171,,03,04,023,,21,08,193,20*52
$GBGSV,5,1,19,28,66,112,49,42,12,037,26,05,23,128,34,08,12,047,24*61
$GBGSV,5,2,19,30,14,299,28,13,20,049,27,60,11,108,,41,48,170,45*63
$GBGSV,5,3,19,14,34,051,37,57,48,250,,33,55,077,50,27,64,302,37*69
$GBGSV,5,4,19,32,02,201,,39,03,075,,43,05,119,,46,07,263,*60
$GBGSV,5,5,19,36,08,311,37,58,06,246,,02,08,105,*5C
$GPGGA,214617.00,,,,,0,00,,,M,,M,,*4F
$PTNL,GGK,214617.00,010125,4742.4461740,N,01617.9730284,E,1,20,1.4,EHT669.8283,M*41
$GPGGQ,214617.00,010125,4742.4461740,N,01617.9730284,E,1,20,3.614,626.6172,M*32
$GPGFA,214617.00,16.685,24.700,1.755,0.955,20.073,3.012,,VVV*30
$GPLLK,214617.00,010125,,M,,M,1,20,1.7,,M*08
$GNGMP,214617.00,,,,,DAAA,20,0.8,,,,*5B
$GPGMP,214617.00,,,,,,05,,,,2.6,123*7B
$GLGMP,214617.00,,,,,,04,,,,,*7C
$GAGMP,214617.00,,,,,,05,,,,,*70
$GBGMP,214617.00,,,,,,06,,,,,*70
$PSSN,SNC,[0,337595000,2347]*4A
$GPZDA,214622.00,01,01,2025,,*62
$GPDTM,W84,,00.0000000,N,00.0000000,E,00.0000000,W84*5F
$GPRMC,214622.00,A,4742.4461815,N,01617.9730099,E,0.0,,010125,5.1,E,D*1E
$GPGLL,4742.4461815,N,01617.9730099,E,214622.00,A,D*6F
$GPGGA,214622.00,4742.4461815,N,01617.9730099,E,2,18,0.8,626.6301,M,43.2111,M,2.8,0123*4B
$GNGNS,214622.00,4742.4461815,N,01617.9730099,E,DAAA,18,0.8,626.6301,43.2111,,*5D
$GPGNS,214622.00,,,,,,04,,,,2.8,123*72
$GLGNS,214622.00,,,,,,04,,,,,*7A
$GAGNS,214622.00,,,,,,04,,,,,*77
$GBGNS,214622.00,,,,,,06,,,,,*76
$GPLLQ,214622.00,010125,,M,,M,1,18,5.549,,M*14
$GPVTG,,T,,M,0.01,N,0.01,K,D*26
$GPHDT,,T*1B
$GPTHS,,V*0E
$GPROT,,V*08
$PSSN,HRP,214622.00,010125,,,,,,,00,0,,*60
$PTNL,AVR,214622.00,,Yaw,,Tilt,,,,0,,00*36
$GPGSA,A,3,08,10,27,32,,,,,,,,,1.5,0.8,1.2*30
$GPGSA,A,3,68,69,75,85,,,,,,,,,1.5,0.8,1.2*33
$GPGSA,A,3,08,26,31,33,,,,,,,,,1.5,0.8,1.2*33
$GPGSA,A,3,14,27,28,33,36,41,,,,,,,1.5,0.8,1.2*37
$GPGST,214622.00,6.320,1.930,1.301,302.390,1.509,1.773,5.037*5C
$GPGBS,214622.00,6.109,6.172,19.036,32,0.0001,1.863,0.802*69
$GPGRS,214622.00,1,-0.2,-0.4,-0.2,1.9,,,,,,,,*6E
$GPGRS,214622.00,1,1.3,-1.8,-3.1,12.8,,,,,,,,*7D
$GPGRS,214622.00,1,-2.5,-0.1,-3.9,1.6,,,,,,,,*69
$GPGRS,214622.00,1,-3.6,-4.9,-1.0,-2.4,13.6,1.7,,,,,,*72
$GPGSV,4,1,14,08,74,247,50,27,54,160,48,23,17,050,34,32,34,124,41*78
$GPGSV,4,2,14,01,27,275,,02,31,284,39,10,59,058,45,21,52,290,*74
$GPGSV,4,3,14,16,04,190,,14,08,329,35,36,35,170,41,34,31,208,*7C
$GPGSV,4,4,14,49,34,195,37,61,03,257,*7B
$GLGSV,3,1,09,84,64,343,34,74,12,249,,85,18,301,39,67,12,025,25*62
$GLGSV,3,2,09,75,22,300,38,83,33,093,22,69,48,152,48,68,52,061,47*62
$GLGSV,3,3,09,76,06,355,25*5F
$GAGSV,3,1,11,26,77,338,45,08,30,066,40,31,29,301,37,23,34,239,*69
$GAGSV,3,2,11,07,30,127,35,13,37,078,35,33,32,278,39,14,59,167,*6F
$GAGSV,3,3,11,29,02,171,,03,04,023,20,21,08,193,*52
$GBGSV,5,1,19,28,66,112,49,42,12,037,27,05,23,128,34,08,12,047,23*67
$GBGSV,5,2,19,30,14,299,24,13,20,049,28,60,11,108,,14,34,051,38*63
$GBGSV,5,3,19,41,48,170,43,57,48,250,,33,55,077,50,27,64,302,36*62
$GBGSV,5,4,19,32,02,201,,39,03,075,,43,05,119,,46,07,263,*60
$GBGSV,5,5,19,36,08,311,37,58,06,246,,02,08,105,*5C
$GPGGA,214622.00,,,,,0,00,,,M,,M,,*49
$PTNL,GGK,214622.00,010125,4742.4461815,N,01617.9730099,E,1,18,1.5,EHT669.8412,M*42
$GPGGQ,214622.00,010125,4742.4461815,N,01617.9730099,E,1,18,5.549,626.6301,M*35
$GPGFA,214622.00,18.354,41.301,1.930,1.301,302.390,5.037,,VVV*0C
$GPLLK,214622.00,010125,,M,,M,1,18,1.7,,M*05
$GNGMP,214622.00,,,,,DAAA,18,0.8,,,,*56
$GPGMP,214622.00,,,,,,04,,,,2.8,123*72
$GLGMP,214622.00,,,,,,04,,,,,*7A
$GAGMP,214622.00,,,,,,04,,,,,*77
$GBGMP,214622.00,,,,,,06,,,,,*76
$PSSN,SNC,[0,337600000,2347]*45
$GPZDA,214627.00,01,01,2025,,*67
$GPDTM,W84,,00.0000000,N,00.0000000,E,00.0000000,W84*5F
$GPRMC,214627.00,A,4742.4461888,N,01617.9730014,E,0.0,,010125,5.1,E,D*1A
$GPGLL,4742.4461888,N,01617.9730014,E,214627.00,A,D*6B
$GPGGA,214627.00,4742.4461888,N,01617.9730014,E,2,19,0.8,626.6332,M,43.2111,M,3.0,0123*47
$GNGNS,214627.00,4742.4461888,N,01617.9730014,E,DAAA,19,0.8,626.6332,43.2111,,*58
$GPGNS,214627.00,,,,,,05,,,,3.0,123*7F
$GLGNS,214627.00,,,,,,04,,,,,*7F
$GAGNS,214627.00,,,,,,04,,,,,*72
$GBGNS,214627.00,,,,,,06,,,,,*73
$GPLLQ,214627.00,010125,,M,,M,1,19,2.747,,M*1B
$GPVTG,,T,,M,0.01,N,0.01,K,D*26
$GPHDT,,T*1B
$GPTHS,,V*0E
$GPROT,,V*08
$PSSN,HRP,214627.00,010125,,,,,,,00,0,,*65
$PTNL,AVR,214627.00,,Yaw,,Tilt,,,,0,,00*33
$GPGSA,A,3,02,08,10,27,32,,,,,,,,1.5,0.8,1.2*32
$GPGSA,A,3,68,69,75,85,,,,,,,,,1.5,0.8,1.2*33
$GPGSA,A,3,08,26,31,33,,,,,,,,,1.5,0.8,1.2*33
$GPGSA,A,3,14,27,28,33,36,41,,,,,,,1.5,0.8,1.2*37
$GPGST,214627.00,5.252,1.315,0.725,21.572,1.252,0.829,2.300*60
$GPGBS,214627.00,6.173,3.210,9.125,02,0.0001,-1.817,0.761*76
$GPGRS,214627.00,1,-1.8,0.4,-0.8,0.4,1.0,,,,,,,*64
$GPGRS,214627.00,1,2.1,-1.5,-2.9,6.8,,,,,,,,*48
$GPGRS,214627.00,1,-1.3,0.7,-2.5,3.1,,,,,,,,*4A
$GPGRS,214627.00,1,-1.2,-3.7,-0.8,-1.9,14.6,3.8,,,,,,*75
$GPGSV,4,1,14,08,74,247,50,27,54,160,48,23,17,050,35,32,34,124,38*77
$GPGSV,4,2,14,01,27,275,,02,31,284,39,10,59,058,43,21,52,290,37*76
$GPGSV,4,3,14,16,04,190,,14,08,329,34,36,35,170,41,34,31,208,*7D
$GPGSV,4,4,14,49,34,195,37,61,03,257,*7B
$GLGSV,3,1,09,84,64,343,34,74,12,249,,85,18,301,40,67,12,025,27*6E
$GLGSV,3,2,09,75,22,300,38,83,33,093,24,69,48,152,48,68,52,061,47*64
$GLGSV,3,3,09,76,06,355,30*5B
$GAGSV,3,1,11,26,77,338,45,08,30,066,40,31,29,301,36,23,34,239,*68
$GAGSV,3,2,11,07,30,127,35,13,37,078,33,33,32,278,40,14,59,166,*66
$GAGSV,3,3,11,29,02,171,,03,04,023,20,21,08,193,19*5A
$GBGSV,5,1,19,28,66,112,49,42,12,037,27,05,23,128,34,08,12,047,21*65
$GBGSV,5,2,19,30,14,299,20,13,20,049,29,60,11,108,,14,34,051,38*66
$GBGSV,5,3,19,41,48,170,42,57,48,250,,33,55,077,50,27,64,302,37*62
$GBGSV,5,4,19,32,02,201,,39,03,075,,43,05,119,,46,07,263,*60
$GBGSV,5,5,19,36,08,311,39,58,06,246,,02,08,105,*52
$GPGGA,214627.00,,,,,0,00,,,M,,M,,*4C
$PTNL,GGK,214627.00,010125,4742.4461888,N,01617.9730014,E,1,19,1.5,EHT669.8443,M*43
$GPGGQ,214627.00,010125,4742.4461888,N,01617.9730014,E,1,19,2.747,626.6332,M*3B
$GPGFA,214627.00,12.505,18.858,1.315,0.725,21.572,2.300,,VVV*3C
$GPLLK,214627.00,010125,,M,,M,1,19,1.7,,M*01
$GNGMP,214627.00,,,,,DAAA,19,0.8,,,,*52
$GPGMP,214627.00,,,,,,05,,,,3.0,123*7F
$GLGMP,214627.00,,,,,,04,,,,,*7F
$GAGMP,214627.00,,,,,,04,,,,,*72
$GBGMP,214627.00,,,,,,06,,,,,*73
$PSSN,SNC,[0,337605000,2347]*40
$GPZDA,214632.00,01,01,2025,,*63
$GPDTM,W84,,00.0000000,N,00.0000000,E,00.0000000,W84*5F
$GPRMC,214632.00,A,4742.4461991,N,01617.9730053,E,0.0,,010125,5.1,E,D*14
$GPGLL,4742.4461991,N,01617.9730053,E,214632.00,A,D*65
$GPGGA,214632.00,4742.4461991,N,01617.9730053,E,2,19,0.8,626.6335,M,43.2111,M,1.6,0123*4A
$GNGNS,214632.00,4742.4461991,N,01617.9730053,E,DAAA,19,0.8,626.6335,43.2111,,*51
$GPGNS,214632.00,,,,,,05,,,,1.6,123*7F
$GLGNS,214632.00,,,,,,04,,,,,*7B
$GAGNS,214632.00,,,,,,04,,,,,*76
$GBGNS,214632.00,,,,,,06,,,,,*77
$GPLLQ,214632.00,010125,,M,,M,1,19,2.645,,M*1C
$GPVTG,,T,,M,0.00,N,0.01,K,D*27
$GPHDT,,T*1B
$GPTHS,,V*0E
$GPROT,,V*08
$PSSN,HRP,214632.00,010125,,,,,,,00,0,,*61
$PTNL,AVR,214632.00,,Yaw,,Tilt,,,,0,,00*37
$GPGSA,A,3,02,08,10,27,32,,,,,,,,1.5,0.8,1.2*32
$GPGSA,A,3,68,69,75,85,,,,,,,,,1.5,0.8,1.2*33
$GPGSA,A,3,08,26,31,33,,,,,,,,,1.5,0.8,1.2*33
$GPGSA,A,3,14,27,28,33,36,41,,,,,,,1.5,0.8,1.2*37
$GPGST,214632.00,5.785,1.275,0.697,21.004,1.216,0.795,2.211*69
$GPGBS,214632.00,5.911,3.107,9.081,10,0.0001,-1.699,0.635*7C
$GPGRS,214632.00,1,0.2,0.8,-1.7,0.5,-0.2,,,,,,,*6B
