$GPZDA,094442.00,01,01,2025,,*6C
$GPDTM,W84,,00.0000000,N,00.0000000,E,00.0000000,W84*5F
$GPRMC,094442.00,A,4742.4460970,N,01617.9728630,E,0.0,,010125,5.1,E,D*1F
$GPGLL,4742.4460970,N,01617.9728630,E,094442.00,A,D*6E
$GPGGA,094442.00,4742.4460970,N,01617.9728630,E,2,21,0.8,624.9855,M,43.2111,M,3.0,0123*4E
$GNGNS,094442.00,4742.4460970,N,01617.9728630,E,DAAA,21,0.8,624.9855,43.2111,,*51
$GPGNS,094442.00,,,,,,06,,,,3.0,123*77
$GLGNS,094442.00,,,,,,05,,,,,*75
$GAGNS,094442.00,,,,,,04,,,,,*79
$GBGNS,094442.00,,,,,,06,,,,,*78
$GPLLQ,094442.00,010125,,M,,M,1,21,2.599,,M*1A
$GPVTG,,T,,M,0.00,N,0.01,K,D*27
$GPHDT,,T*1B
$GPTHS,,V*0E
$GPROT,,V*08
$PSSN,HRP,094442.00,010125,,,,,,,00,0,,*6E
$PTNL,AVR,094442.00,,Yaw,,Tilt,,,,0,,00*38
$GPGSA,A,3,13,14,15,17,23,24,,,,,,,1.6,0.8,1.3*3D
$GPGSA,A,3,65,66,67,75,76,,,,,,,,1.6,0.8,1.3*3E
$GPGSA,A,3,02,03,08,25,,,,,,,,,1.6,0.8,1.3*31
$GPGSA,A,3,07,14,26,33,42,45,,,,,,,1.6,0.8,1.3*3E
$GPGST,094442.00,5.058,1.409,0.567,9.199,1.393,0.604,2.109*50
$GPGBS,094442.00,7.628,2.961,10.501,14,0.0001,13.076,8.568*56
$GPGRS,094442.00,1,-0.2,-0.4,0.5,1.2,-1.2,-0.6,,,,,,*44
$GPGRS,094442.00,1,5.2,-4.4,8.9,-4.9,-3.8,,,,,,,*42
$GPGRS,094442.00,1,0.7,-0.4,-0.3,0.1,,,,,,,,*40
$GPGRS,094442.00,1,0.3,13.1,-2.4,-1.2,-1.5,-3.2,,,,,,*71
$GPGSV,5,1,17,22,68,077,,19,21,139,30,05,12,209,33,23,24,306,43*7E
$GPGSV,5,2,17,30,19,089,,17,33,107,44,14,47,059,39,24,33,282,44*7C
$GPGSV,5,3,17,13,68,150,51,15,66,264,44,21,00,030,,10,03,340,*74
$GPGSV,5,4,17,12,05,220,,36,35,170,36,34,31,208,,49,34,195,*70
$GPGSV,5,5,17,61,03,257,*4B
$GLGSV,2,1,08,76,70,275,49,84,14,033,,67,23,328,42,77,24,245,*66
$GLGSV,2,2,08,65,41,179,41,75,40,045,43,66,70,279,41,85,09,083,*60
$GAGSV,3,1,10,08,69,291,45,30,13,218,26,07,17,310,28,16,31,051,*61
$GAGSV,3,2,10,03,53,148,42,25,55,061,47,02,63,196,49,05,04,137,*65
$GAGSV,3,3,10,24,06,046,,33,03,353,*6D
$GBGSV,5,1,20,26,70,262,50,33,20,320,42,40,28,046,33,05,20,130,*61
$GBGSV,5,2,20,21,36,189,33,29,16,088,,24,19,251,29,07,28,058,40*63
$GBGSV,5,3,20,14,40,301,38,56,33,080,,50,51,217,,10,36,070,35*6C
$GBGSV,5,4,20,45,49,063,40,42,55,264,50,09,02,091,,36,02,068,*6C
$GBGSV,5,5,20,35,01,140,,30,09,036,,02,04,109,,60,07,112,*69
$GPGGA,094442.00,,,,,0,00,,,M,,M,,*47
$PTNL,GGK,094442.00,010125,4742.4460970,N,01617.9728630,E,1,21,1.6,EHT668.1966,M*4C
$GPGGQ,094442.00,010125,4742.4460970,N,01617.9728630,E,1,21,2.599,624.9855,M*33
$GPGFA,094442.00,13.393,17.292,1.409,0.567,9.199,2.109,,VVV*02
$GPLLK,094442.00,010125,,M,,M,1,21,1.9,,M*0F
$GNGMP,094442.00,,,,,DAAA,21,0.8,,,,*52
$GPGMP,094442.00,,,,,,06,,,,3.0,123*77
$GLGMP,094442.00,,,,,,05,,,,,*75
$GAGMP,094442.00,,,,,,04,,,,,*79
$GBGMP,094442.00,,,,,,06,,,,,*78
$PSSN,SNC,[0,294300000,2347]*48
$GPZDA,094447.00,01,01,2025,,*69
$GPDTM,W84,,00.0000000,N,00.0000000,E,00.0000000,W84*5F
$GPRMC,094447.00,A,4742.4461036,N,01617.9728567,E,0.0,,010125,5.1,E,D*11
$GPGLL,4742.4461036,N,01617.9728567,E,094447.00,A,D*60
$GPGGA,094447.00,4742.4461036,N,01617.9728567,E,2,21,0.8,624.9834,M,43.2111,M,1.3,0123*46
$GNGNS,094447.00,4742.4461036,N,01617.9728567,E,DAAA,21,0.8,624.9834,43.2111,,*58
$GPGNS,094447.00,,,,,,06,,,,1.3,123*73
$GLGNS,094447.00,,,,,,05,,,,,*70
$GAGNS,094447.00,,,,,,04,,,,,*7C
$GBGNS,094447.00,,,,,,06,,,,,*7D
$GPLLQ,094447.00,010125,,M,,M,1,21,2.160,,M*1D
$GPVTG,,T,,M,0.00,N,0.01,K,D*27
$GPHDT,,T*1B
$GPTHS,,V*0E
$GPROT,,V*08
$PSSN,HRP,094447.00,010125,,,,,,,00,0,,*6B
$PTNL,AVR,094447.00,,Yaw,,Tilt,,,,0,,00*3D
$GPGSA,A,3,13,14,15,17,23,24,,,,,,,1.6,0.8,1.3*3D
$GPGSA,A,3,65,66,67,75,76,,,,,,,,1.6,0.8,1.3*3E
$GPGSA,A,3,02,03,08,25,,,,,,,,,1.6,0.8,1.3*31
$GPGSA,A,3,07,14,26,33,42,45,,,,,,,1.6,0.8,1.3*3E
$GPGST,094447.00,4.071,1.162,0.473,9.034,1.150,0.502,1.758*5C
$GPGBS,094447.00,7.660,2.968,9.915,14,0.0001,11.095,8.569*69
$GPGRS,094447.00,1,0.1,-0.7,0.6,0.7,-0.9,-0.2,,,,,,*65
$GPGRS,094447.00,1,0.6,-4.5,7.3,0.2,-3.5,,,,,,,*6D
$GPGRS,094447.00,1,1.0,0.2,-0.0,0.1,,,,,,,,*6B
$GPGRS,094447.00,1,0.7,11.1,-2.4,-1.2,-1.3,-3.2,,,,,,*74
$GPGSV,5,1,17,22,68,076,,19,21,139,30,05,12,209,32,23,24,306,42*7F
$GPGSV,5,2,17,30,19,089,,17,33,107,44,14,47,059,39,24,33,282,44*7C
$GPGSV,5,3,17,13,67,150,51,15,66,264,45,21,00,030,,10,03,340,*7A
$GPGSV,5,4,17,12,05,220,,36,35,170,36,34,31,208,,49,34,195,*70
$GPGSV,5,5,17,61,03,257,*4B
$GLGSV,2,1,08,76,70,275,49,84,14,032,,67,23,328,43,77,24,245,*66
$GLGSV,2,2,08,65,41,179,39,75,40,045,42,66,70,279,38,85,09,083,*60
$GAGSV,3,1,10,08,69,291,45,30,13,218,35,07,17,310,28,16,31,051,*63
$GAGSV,3,2,10,03,53,148,41,25,55,061,46,02,63,196,49,05,04,137,*67
$GAGSV,3,3,10,24,06,046,,33,03,353,*6D
$GBGSV,5,1,20,26,70,262,49,33,20,320,41,40,28,046,33,05,20,130,*6A
$GBGSV,5,2,20,21,36,189,29,29,16,088,,24,19,251,34,07,28,058,40*64
$GBGSV,5,3,20,14,40,301,35,56,33,080,,50,51,217,,10,36,070,34*60
$GBGSV,5,4,20,45,49,063,41,42,55,264,51,09,02,091,,36,02,068,*6C
$GBGSV,5,5,20,35,01,140,,30,09,035,,02,04,109,,60,07,112,*6A
$GPGGA,094447.00,,,,,0,00,,,M,,M,,*42
$PTNL,GGK,094447.00,010125,4742.4461036,N,01617.9728567,E,1,21,1.6,EHT668.1945,M*43
$GPGGQ,094447.00,010125,4742.4461036,N,01617.9728567,E,1,21,2.160,624.9834,M*38
$GPGFA,094447.00,11.049,14.413,1.162,0.473,9.034,1.758,,VVV*06
$GPLLK,094447.00,010125,,M,,M,1,21,1.9,,M*0A
$GNGMP,094447.00,,,,,DAAA,21,0.8,,,,*57
$GPGMP,094447.00,,,,,,06,,,,1.3,123*73
$GLGMP,094447.00,,,,,,05,,,,,*70
$GAGMP,094447.00,,,,,,04,,,,,*7C
$GBGMP,094447.00,,,,,,06,,,,,*7D
$PSSN,SNC,[0,294305000,2347]*4D
$GPZDA,094452.00,01,01,2025,,*6D
$GPDTM,W84,,00.0000000,N,00.0000000,E,00.0000000,W84*5F
$GPRMC,094452.00,A,4742.4461071,N,01617.9728526,E,0.0,,010125,5.1,E,D*13
$GPGLL,4742.4461071,N,01617.9728526,E,094452.00,A,D*62
$GPGGA,094452.00,4742.4461071,N,01617.9728526,E,2,20,0.8,624.9794,M,43.2111,M,2.3,0123*43
$GNGNS,094452.00,4742.4461071,N,01617.9728526,E,DAAA,20,0.8,624.9794,43.2111,,*5E
$GPGNS,094452.00,,,,,,06,,,,2.3,123*74
$GLGNS,094452.00,,,,,,05,,,,,*74
$GAGNS,094452.00,,,,,,04,,,,,*78
$GBGNS,094452.00,,,,,,05,,,,,*7A
$GPLLQ,094452.00,010125,,M,,M,1,20,1.785,,M*16
$GPVTG,,T,,M,0.01,N,0.02,K,D*25
$GPHDT,,T*1B
$GPTHS,,V*0E
$GPROT,,V*08
$PSSN,HRP,094452.00,010125,,,,,,,00,0,,*6F
$PTNL,AVR,094452.00,,Yaw,,Tilt,,,,0,,00*39
$GPGSA,A,3,13,14,15,17,23,24,,,,,,,1.6,0.8,1.3*3D
$GPGSA,A,3,65,66,67,75,76,,,,,,,,1.6,0.8,1.3*3E
$GPGSA,A,3,02,03,08,25,,,,,,,,,1.6,0.8,1.3*31
$GPGSA,A,3,07,26,33,42,45,,,,,,,,1.6,0.8,1.3*3B
$GPGST,094452.00,2.584,0.974,0.389,9.570,0.963,0.416,1.444*5B
$GPGBS,094452.00,7.794,3.019,10.040,17,0.0001,0.825,0.863*67
$GPGRS,094452.00,1,-0.1,0.6,0.2,0.8,-0.5,-0.6,,,,,,*63
$GPGRS,094452.00,1,-1.7,-3.7,5.4,-1.5,-3.3,,,,,,,*69
$GPGRS,094452.00,1,0.6,0.4,0.1,-0.1,,,,,,,,*6F
$GPGRS,094452.00,1,-0.0,-2.0,-1.8,-1.4,-4.1,,,,,,,*48
$GPGSV,5,1,17,22,68,076,,19,21,139,28,05,12,209,30,23,24,306,41*77
$GPGSV,5,2,17,30,19,089,22,17,33,106,44,14,47,059,38,24,34,282,44*7B
$GPGSV,5,3,17,13,67,150,50,15,66,264,45,21,00,030,,10,03,340,*7B
$GPGSV,5,4,17,12,05,220,,36,35,170,36,34,31,208,,49,34,195,*70
$GPGSV,5,5,17,61,03,257,*4B
$GLGSV,2,1,08,76,70,275,49,84,14,032,32,67,23,328,42,77,24,245,*66
$GLGSV,2,2,08,65,41,179,37,75,40,045,42,66,70,279,37,85,10,083,*69
$GAGSV,3,1,10,08,69,290,45,30,13,218,35,07,17,310,28,16,31,051,*62
$GAGSV,3,2,10,03,53,148,42,25,55,061,46,02,64,196,49,05,04,137,*63
$GAGSV,3,3,10,24,06,046,,33,03,353,*6D
$GBGSV,5,1,20,26,70,262,48,33,20,320,39,40,28,046,33,05,20,130,*64
$GBGSV,5,2,20,21,36,189,40,29,16,088,,24,19,251,34,07,28,058,41*6A
$GBGSV,5,3,20,14,40,301,34,56,33,080,,50,51,217,,10,36,070,34*61
$GBGSV,5,4,20,45,49,063,42,42,55,264,52,09,02,092,,36,02,068,*6F
$GBGSV,5,5,20,35,01,140,,30,09,035,,02,04,109,,60,07,112,*6A
$GPGGA,094452.00,,,,,0,00,,,M,,M,,*46
$PTNL,GGK,094452.00,010125,4742.4461071,N,01617.9728526,E,1,20,1.6,EHT668.1904,M*45
$GPGGQ,094452.00,010125,4742.4461071,N,01617.9728526,E,1,20,1.785,624.9794,M*30
$GPGFA,094452.00,9.260,11.845,0.974,0.389,9.570,1.444,,VVV*3F
$GPLLK,094452.00,010125,,M,,M,1,20,1.9,,M*0F
$GNGMP,094452.00,,,,,DAAA,20,0.8,,,,*52
$GPGMP,094452.00,,,,,,06,,,,2.3,123*74
$GLGMP,094452.00,,,,,,05,,,,,*74
$GAGMP,094452.00,,,,,,04,,,,,*78
$GBGMP,094452.00,,,,,,05,,,,,*7A
$PSSN,SNC,[0,294310000,2347]*49
$GPZDA,094457.00,01,01,2025,,*68
$GPDTM,W84,,00.0000000,N,00.0000000,E,00.0000000,W84*5F
$GPRMC,094457.00,A,4742.4461083,N,01617.9728436,E,0.0,,010125,5.1,E,D*1B
$GPGLL,4742.4461083,N,01617.9728436,E,094457.00,A,D*6A
$GPGGA,094457.00,4742.4461083,N,01617.9728436,E,2,19,1.0,624.9856,M,43.2111,M,3.3,0123*48
$GNGNS,094457.00,4742.4461083,N,01617.9728436,E,DAAA,19,1.0,624.9856,43.2111,,*54
$GPGNS,094457.00,,,,,,06,,,,3.3,123*70
$GLGNS,094457.00,,,,,,04,,,,,*70
$GAGNS,094457.00,,,,,,04,,,,,*7D
$GBGNS,094457.00,,,,,,05,,,,,*7F
$GPLLQ,094457.00,010125,,M,,M,1,19,2.398,,M*12
$GPVTG,,T,,M,0.01,N,0.01,K,D*26
$GPHDT,,T*1B
$GPTHS,,V*0E
$GPROT,,V*08
$PSSN,HRP,094457.00,010125,,,,,,,00,0,,*6A
$PTNL,AVR,094457.00,,Yaw,,Tilt,,,,0,,00*3C
$GPGSA,A,3,13,14,15,17,23,24,,,,,,,1.8,1.0,1.5*3C
$GPGSA,A,3,66,67,75,76,,,,,,,,,1.8,1.0,1.5*3C
$GPGSA,A,3,02,03,08,25,,,,,,,,,1.8,1.0,1.5*30
$GPGSA,A,3,07,26,33,42,45,,,,,,,,1.8,1.0,1.5*3A
$GPGST,094457.00,2.577,1.330,0.511,9.438,1.315,0.549,1.929*54
$GPGBS,094457.00,8.395,3.128,10.512,17,0.0001,1.559,0.874*68
$GPGRS,094457.00,1,0.0,-1.3,0.1,1.6,0.3,-1.1,,,,,,*42
$GPGRS,094457.00,1,-2.9,5.4,-2.4,-3.0,,,,,,,,*67
$GPGRS,094457.00,1,0.8,1.1,0.7,0.3,,,,,,,,*49
$GPGRS,094457.00,1,0.2,-0.9,-1.2,-1.1,-4.0,,,,,,,*67
$GPGSV,5,1,17,22,68,076,,19,21,139,24,05,12,209,29,23,24,306,42*70
$GPGSV,5,2,17,30,19,089,25,17,33,106,45,14,47,059,35,24,34,282,43*77
$GPGSV,5,3,17,13,67,150,50,15,66,264,44,21,00,030,,10,03,340,*7A
$GPGSV,5,4,17,12,05,220,,36,35,170,36,34,31,208,,49,34,195,*70
$GPGSV,5,5,17,61,03,257,*4B
$GLGSV,2,1,08,76,70,275,48,84,14,032,32,67,23,328,42,77,24,245,36*62
$GLGSV,2,2,08,65,41,179,34,75,40,045,42,66,70,278,38,85,10,083,*64
$GAGSV,3,1,10,08,69,290,45,30,13,218,25,07,17,310,27,16,31,051,*6C
$GAGSV,3,2,10,03,53,148,42,25,55,061,45,02,64,196,49,05,04,137,*60
$GAGSV,3,3,10,24,06,046,,33,03,353,*6D
$GBGSV,5,1,20,26,70,262,48,33,20,320,36,40,28,046,32,05,20,130,*6A
$GBGSV,5,2,20,21,36,189,34,29,16,088,,24,19,251,34,07,28,058,41*69
$GBGSV,5,3,20,14,40,301,34,56,33,080,,50,51,217,,10,36,070,34*61
$GBGSV,5,4,20,45,49,063,43,42,55,264,52,09,02,092,,36,02,068,*6E
$GBGSV,5,5,20,35,01,140,,30,09,035,,02,04,109,,60,07,112,*6A
$GPGGA,094457.00,,,,,0,00,,,M,,M,,*43
$PTNL,GGK,094457.00,010125,4742.4461083,N,01617.9728436,E,1,19,1.8,EHT668.1967,M*4C
$GPGGQ,094457.00,010125,4742.4461083,N,01617.9728436,E,1,19,2.398,624.9856,M*38
$GPGFA,094457.00,12.647,15.815,1.330,0.511,9.438,1.929,,VVV*07
$GPLLK,094457.00,010125,,M,,M,1,19,2.2,,M*08
$GNGMP,094457.00,,,,,DAAA,19,1.0,,,,*54
$GPGMP,094457.00,,,,,,06,,,,3.3,123*70
$GLGMP,094457.00,,,,,,04,,,,,*70
$GAGMP,094457.00,,,,,,04,,,,,*7D
$GBGMP,094457.00,,,,,,05,,,,,*7F
$PSSN,SNC,[0,294315000,2347]*4C
$GPZDA,094502.00,01,01,2025,,*69
$GPDTM,W84,,00.0000000,N,00.0000000,E,00.0000000,W84*5F
$GPRMC,094502.00,A,4742.4461111,N,01617.9728316,E,0.0,,010125,5.1,E,D*15
$GPGLL,4742.4461111,N,01617.9728316,E,094502.00,A,D*64
$GPGGA,094502.00,4742.4461111,N,01617.9728316,E,2,19,0.8,624.9922,M,43.2111,M,3.4,0123*4A
$GNGNS,094502.00,4742.4461111,N,01617.9728316,E,DAAA,19,0.8,624.9922,43.2111,,*51
$GPGNS,094502.00,,,,,,05,,,,3.4,123*75
$GLGNS,094502.00,,,,,,04,,,,,*71
$GAGNS,094502.00,,,,,,04,,,,,*7C
$GBGNS,094502.00,,,,,,06,,,,,*7D
$GPLLQ,094502.00,010125,,M,,M,1,19,5.043,,M*11
$GPVTG,,T,,M,0.01,N,0.02,K,D*25
$GPHDT,,T*1B
$GPTHS,,V*0E
$GPROT,,V*08
$PSSN,HRP,094502.00,010125,,,,,,,00,0,,*6B
$PTNL,AVR,094502.00,,Yaw,,Tilt,,,,0,,00*3D
$GPGSA,A,3,13,15,17,23,24,,,,,,,,1.6,0.8,1.4*3F
$GPGSA,A,3,66,67,75,76,,,,,,,,,1.6,0.8,1.4*3A
$GPGSA,A,3,02,03,08,25,,,,,,,,,1.6,0.8,1.4*36
$GPGSA,A,3,07,14,21,26,42,45,,,,,,,1.6,0.8,1.4*3A
$GPGST,094502.00,3.328,3.780,0.636,19.056,3.578,1.372,3.277*6C
$GPGBS,094502.00,13.264,6.634,13.921,24,0.0001,-1.756,0.849*72
$GPGRS,094502.00,1,-0.2,0.5,1.7,0.3,-1.8,,,,,,,*61
$GPGRS,094502.00,1,-2.9,5.9,-2.3,-2.6,,,,,,,,*6B
$GPGRS,094502.00,1,0.9,0.9,0.9,0.5,,,,,,,,*48
$GPGRS,094502.00,1,0.9,6.9,2.3,-0.5,-1.0,-3.7,,,,,,*6E
$GPGSV,5,1,17,22,68,076,,19,21,139,,05,12,209,28,23,24,306,43*76
$GPGSV,5,2,17,30,19,089,29,17,33,106,46,14,47,059,30,24,34,282,41*7F
$GPGSV,5,3,17,13,67,150,49,15,66,264,43,21,00,030,,10,03,340,*75
$GPGSV,5,4,17,12,05,220,,36,35,170,37,34,31,208,,49,34,195,*71
$GPGSV,5,5,17,61,03,257,*4B
$GLGSV,2,1,08,76,70,276,48,84,14,032,32,67,23,328,42,77,24,245,34*63
$GLGSV,2,2,08,65,41,179,33,75,40,045,41,66,70,278,41,85,10,083,*6E
$GAGSV,3,1,10,08,69,290,46,30,13,218,26,07,17,310,27,16,31,051,*6C
$GAGSV,3,2,10,03,53,148,43,25,55,061,45,02,64,196,49,05,04,137,*61
$GAGSV,3,3,10,24,06,046,,33,03,353,*6D
$GBGSV,5,1,20,26,70,262,48,33,20,320,33,40,28,046,32,05,20,130,*6F
$GBGSV,5,2,20,21,36,189,35,29,16,088,,24,19,251,35,07,28,058,41*69
$GBGSV,5,3,20,14,40,301,36,50,51,217,,56,33,080,,10,36,070,34*63
$GBGSV,5,4,20,45,49,063,43,42,55,264,52,09,02,092,,36,02,068,*6E
$GBGSV,5,5,20,35,01,140,,02,04,109,,30,09,035,,60,07,112,*6A
$GPGGA,094502.00,,,,,0,00,,,M,,M,,*42
$PTNL,GGK,094502.00,010125,4742.4461111,N,01617.9728316,E,1,19,1.6,EHT668.2032,M*46
$GPGGQ,094502.00,010125,4742.4461111,N,01617.9728316,E,1,19,5.043,624.9922,M*36
$GPGFA,094502.00,35.935,26.872,3.780,0.636,19.056,3.277,,VVV*3C
$GPLLK,094502.00,010125,,M,,M,1,19,1.9,,M*01
$GNGMP,094502.00,,,,,DAAA,19,0.8,,,,*5C
$GPGMP,094502.00,,,,,,05,,,,3.4,123*75
$GLGMP,094502.00,,,,,,04,,,,,*71
$GAGMP,094502.00,,,,,,04,,,,,*7C
$GBGMP,094502.00,,,,,,06,,,,,*7D
$PSSN,SNC,[0,294320000,2347]*4A
$GPZDA,094507.00,01,01,2025,,*6C
$GPDTM,W84,,00.0000000,N,00.0000000,E,00.0000000,W84*5F
$GPRMC,094507.00,A,4742.4461131,N,01617.9728182,E,0.0,,010125,5.1,E,D*1D
$GPGLL,4742.4461131,N,01617.9728182,E,094507.00,A,D*6C
$GPGGA,094507.00,4742.4461131,N,01617.9728182,E,2,20,0.7,624.9927,M,43.2111,M,1.2,0123*46
$GNGNS,094507.00,4742.4461131,N,01617.9728182,E,DAAA,20,0.7,624.9927,43.2111,,*59
$GPGNS,094507.00,,,,,,05,,,,1.2,123*74
$GLGNS,094507.00,,,,,,04,,,,,*74
$GAGNS,094507.00,,,,,,04,,,,,*79
$GBGNS,094507.00,,,,,,07,,,,,*79
$GPLLQ,094507.00,010125,,M,,M,1,20,5.276,,M*1A
$GPVTG,,T,,M,0.01,N,0.01,K,D*26
$GPHDT,,T*1B
$GPTHS,,V*0E
$GPROT,,V*08
$PSSN,HRP,094507.00,010125,,,,,,,00,0,,*6E
$PTNL,AVR,094507.00,,Yaw,,Tilt,,,,0,,00*38
$GPGSA,A,3,13,15,17,23,24,,,,,,,,1.4,0.7,1.2*34
$GPGSA,A,3,66,67,75,76,,,,,,,,,1.4,0.7,1.2*31
$GPGSA,A,3,02,03,08,25,,,,,,,,,1.4,0.7,1.2*3D
$GPGSA,A,3,07,14,21,24,26,42,45,,,,,,1.4,0.7,1.2*37
$GPGST,094507.00,4.829,3.924,0.696,19.142,3.714,1.445,3.457*65
$GPGBS,094507.00,11.728,5.997,12.482,24,0.0001,-1.970,0.812*7C
$GPGRS,094507.00,1,-0.3,0.6,1.8,-0.2,-2.0,,,,,,,*4E
$GPGRS,094507.00,1,-0.9,6.8,-3.5,-3.0,,,,,,,,*6E
$GPGRS,094507.00,1,0.7,0.8,0.9,0.5,,,,,,,,*42
$GPGRS,094507.00,1,0.2,12.0,-0.8,8.0,-0.6,-1.4,-3.8,,,,,*56
$GPGSV,5,1,17,22,68,076,,19,21,139,27,05,11,209,29,23,24,306,44*76
$GPGSV,5,2,17,30,19,089,31,17,33,106,47,14,47,059,23,24,34,282,39*7A
$GPGSV,5,3,17,13,67,150,49,15,66,264,44,21,00,029,,10,03,340,*7A
$GPGSV,5,4,17,12,05,220,,36,35,170,36,34,31,208,,49,34,195,*70
$GPGSV,5,5,17,61,03,257,*4B
$GLGSV,2,1,08,76,70,276,48,84,14,032,31,67,23,328,44,77,24,245,34*66
$GLGSV,2,2,08,65,41,179,30,75,40,045,41,66,70,278,43,85,10,083,*6F
$GAGSV,3,1,10,08,69,290,46,30,13,218,25,07,17,310,27,16,31,051,*6F
$GAGSV,3,2,10,03,52,148,44,25,55,061,44,02,64,196,50,05,04,137,*6E
$GAGSV,3,3,10,24,06,046,,33,03,353,*6D
$GBGSV,5,1,20,26,70,262,48,33,20,320,32,40,28,046,33,05,20,130,*6F
$GBGSV,5,2,20,21,36,189,36,29,16,088,,24,19,251,35,07,28,057,41*65
$GBGSV,5,3,20,14,40,301,37,50,51,216,,56,33,080,,10,36,070,34*63
$GBGSV,5,4,20,45,49,063,44,42,55,264,52,09,02,092,,36,02,068,*69
$GBGSV,5,5,20,35,01,140,,02,04,109,,30,09,035,,60,07,112,*6A
$GPGGA,094507.00,,,,,0,00,,,M,,M,,*47
$PTNL,GGK,094507.00,010125,4742.4461131,N,01617.9728182,E,1,20,1.4,EHT668.2038,M*4C
$GPGGQ,094507.00,010125,4742.4461131,N,01617.9728182,E,1,20,5.276,624.9927,M*35
$GPGFA,094507.00,37.305,28.347,3.924,0.696,19.142,3.457,,VVV*3B
$GPLLK,094507.00,010125,,M,,M,1,20,1.6,,M*01
$GNGMP,094507.00,,,,,DAAA,20,0.7,,,,*5C
$GPGMP,094507.00,,,,,,05,,,,1.2,123*74
$GLGMP,094507.00,,,,,,04,,,,,*74
$GAGMP,094507.00,,,,,,04,,,,,*79
$GBGMP,094507.00,,,,,,07,,,,,*79
$PSSN,SNC,[0,294325000,2347]*4F
$GPZDA,094512.00,01,01,2025,,*68
$GPDTM,W84,,00.0000000,N,00.0000000,E,00.0000000,W84*5F
$GPRMC,094512.00,A,4742.4461163,N,01617.9728061,E,0.0,,010125,5.1,E,D*12
$GPGLL,4742.4461163,N,01617.9728061,E,094512.00,A,D*63
$GPGGA,094512.00,4742.4461163,N,01617.9728061,E,2,20,0.7,624.9963,M,43.2111,M,2.2,0123*4A
$GNGNS,094512.00,4742.4461163,N,01617.9728061,E,DAAA,20,0.7,624.9963,43.2111,,*56
$GPGNS,094512.00,,,,,,05,,,,2.2,123*73
$GLGNS,094512.00,,,,,,04,,,,,*70
$GAGNS,094512.00,,,,,,04,,,,,*7D
$GBGNS,094512.00,,,,,,07,,,,,*7D
$GPLLQ,094512.00,010125,,M,,M,1,20,4.564,,M*1B
$GPVTG,,T,,M,0.00,N,0.01,K,D*27
$GPHDT,,T*1B
$GPTHS,,V*0E
$GPROT,,V*08
$PSSN,HRP,094512.00,010125,,,,,,,00,0,,*6A
$PTNL,AVR,094512.00,,Yaw,,Tilt,,,,0,,00*3C
$GPGSA,A,3,13,15,17,23,24,,,,,,,,1.4,0.7,1.2*34
$GPGSA,A,3,66,67,75,76,,,,,,,,,1.4,0.7,1.2*31
$GPGSA,A,3,02,03,08,25,,,,,,,,,1.4,0.7,1.2*3D
$GPGSA,A,3,07,14,21,24,26,42,45,,,,,,1.4,0.7,1.2*37
$GPGST,094512.00,4.965,3.394,0.618,19.051,3.214,1.252,2.987*68
$GPGBS,094512.00,11.721,6.014,12.538,17,0.0001,1.369,0.858*51
$GPGRS,094512.00,1,-0.4,0.6,1.4,-0.6,-1.1,,,,,,,*47
$GPGRS,094512.00,1,-1.6,7.4,-3.5,-3.2,,,,,,,,*6B
$GPGRS,094512.00,1,0.6,0.5,0.9,0.4,,,,,,,,*4B
$GPGRS,094512.00,1,-0.2,12.1,0.4,8.4,-1.3,-1.5,-3.8,,,,,*5E
$GPGSV,5,1,17,22,68,076,,19,21,139,32,05,11,209,30,23,24,306,44*7A
$GPGSV,5,2,17,30,19,089,31,17,33,106,46,14,47,059,28,24,34,282,37*7E
$GPGSV,5,3,17,13,67,150,50,15,66,264,46,21,00,029,,10,03,340,*70
$GPGSV,5,4,17,12,05,220,,36,35,170,36,34,31,208,,49,34,195,*70
$GPGSV,5,5,17,61,03,257,*4B
$GLGSV,2,1,08,76,70,276,47,84,14,032,26,67,23,328,45,77,25,245,34*6F
$GLGSV,2,2,08,65,41,179,34,75,39,045,43,66,70,278,42,85,10,083,*66
$GAGSV,3,1,10,08,69,290,46,30,13,218,26,07,17,310,28,16,31,051,*63
$GAGSV,3,2,10,03,52,148,45,25,55,061,44,02,64,196,50,05,04,137,*6F
$GAGSV,3,3,10,24,06,046,,33,03,353,*6D
$GBGSV,5,1,20,26,70,262,48,33,20,320,32,40,28,046,34,05,20,130,*68
$GBGSV,5,2,20,21,36,189,37,29,16,088,,24,19,251,36,07,28,057,41*67
$GBGSV,5,3,20,14,40,301,37,50,51,216,,56,33,080,,10,36,070,35*62
$GBGSV,5,4,20,45,49,063,45,42,55,264,51,09,02,092,,36,02,068,*6B
$GBGSV,5,5,20,35,01,140,,02,04,109,,30,09,035,,60,07,112,*6A
$GPGGA,094512.00,,,,,0,00,,,M,,M,,*43
$PTNL,GGK,094512.00,010125,4742.4461163,N,01617.9728061,E,1,20,1.4,EHT668.2074,M*4B
$GPGGQ,094512.00,010125,4742.4461163,N,01617.9728061,E,1,20,4.564,624.9963,M*3F
$GPGFA,094512.00,32.269,24.497,3.394,0.618,19.051,2.987,,VVV*32
$GPLLK,094512.00,010125,,M,,M,1,20,1.6,,M*05
$GNGMP,094512.00,,,,,DAAA,20,0.7,,,,*58
$GPGMP,094512.00,,,,,,05,,,,2.2,123*73
$GLGMP,094512.00,,,,,,04,,,,,*70
$GAGMP,094512.00,,,,,,04,,,,,*7D
$GBGMP,094512.00,,,,,,07,,,,,*7D
$PSSN,SNC,[0,294330000,2347]*4B
$GPZDA,094517.00,01,01,2025,,*6D
$GPDTM,W84,,00.0000000,N,00.0000000,E,00.0000000,W84*5F
$GPRMC,094517.00,A,4742.4461181,N,01617.9727984,E,0.0,,010125,5.1,E,D*16
$GPGLL,4742.4461181,N,01617.9727984,E,094517.00,A,D*67
$GPGGA,094517.00,4742.4461181,N,01617.9727984,E,2,21,0.7,624.9903,M,43.2111,M,3.3,0123*49
$GNGNS,094517.00,4742.4461181,N,01617.9727984,E,DAAA,21,0.7,624.9903,43.2111,,*55
$GPGNS,094517.00,,,,,,04,,,,3.3,123*77
$GLGNS,094517.00,,,,,,05,,,,,*74
$GAGNS,094517.00,,,,,,05,,,,,*79
$GBGNS,094517.00,,,,,,07,,,,,*78
$GPLLQ,094517.00,010125,,M,,M,1,21,4.556,,M*1E
$GPVTG,,T,,M,0.00,N,0.01,K,D*27
$GPHDT,,T*1B
$GPTHS,,V*0E
$GPROT,,V*08
$PSSN,HRP,094517.00,010125,,,,,,,00,0,,*6F
$PTNL,AVR,094517.00,,Yaw,,Tilt,,,,0,,00*39
$GPGSA,A,3,13,15,17,23,,,,,,,,,1.3,0.7,1.1*36
$GPGSA,A,3,65,66,67,75,76,,,,,,,,1.3,0.7,1.1*36
$GPGSA,A,3,02,03,07,08,25,,,,,,,,1.3,0.7,1.1*3E
$GPGSA,A,3,07,14,21,24,26,42,45,,,,,,1.3,0.7,1.1*33
$GPGST,094517.00,4.484,3.276,0.561,23.907,3.004,1.423,3.116*6E
$GPGBS,094517.00,11.276,4.945,10.427,67,0.0001,8.571,6.208*59
$GPGRS,094517.00,1,-0.4,0.6,0.8,-0.9,,,,,,,,*43
$GPGRS,094517.00,1,-2.7,-3.7,8.6,-3.2,-3.4,,,,,,,*67
$GPGRS,094517.00,1,0.6,0.4,-1.8,0.9,-0.2,,,,,,,*6E
$GPGRS,094517.00,1,0.1,6.7,1.8,9.6,-1.8,-1.5,-3.6,,,,,*4D
$GPGSV,5,1,17,22,68,076,,19,21,139,35,05,11,209,30,23,24,306,44*7D
$GPGSV,5,2,17,30,19,089,29,17,33,106,45,14,47,059,34,24,34,283,34*7B
$GPGSV,5,3,17,13,67,150,50,15,66,264,47,21,00,029,,10,03,339,*7F
$GPGSV,5,4,17,12,05,220,,36,35,170,37,34,31,208,,49,34,195,*71
$GPGSV,5,5,17,61,03,257,*4B
$GLGSV,2,1,08,76,70,276,47,84,14,032,,67,23,328,45,77,25,245,34*6B
$GLGSV,2,2,08,65,41,179,38,75,39,045,42,66,70,278,42,85,10,083,*6B
$GAGSV,3,1,10,08,69,290,47,30,13,218,28,07,17,310,43,16,30,051,*60
$GAGSV,3,2,10,03,52,148,46,25,55,061,44,02,64,196,50,05,04,137,*6C
$GAGSV,3,3,10,24,06,046,,33,03,353,*6D
$GBGSV,5,1,20,26,70,263,48,33,20,320,34,40,28,046,33,05,20,130,*68
$GBGSV,5,2,20,21,36,189,38,29,16,088,,24,19,251,36,07,28,057,41*68
$GBGSV,5,3,20,14,40,301,36,50,51,216,,56,33,080,,10,36,070,34*62
$GBGSV,5,4,20,45,49,063,46,42,55,264,50,09,02,092,,36,02,068,*69
$GBGSV,5,5,20,35,01,140,,02,04,109,,30,09,035,,60,07,112,*6A
$GPGGA,094517.00,,,,,0,00,,,M,,M,,*46
$PTNL,GGK,094517.00,010125,4742.4461181,N,01617.9727984,E,1,21,1.3,EHT668.2013,M*48
$GPGGQ,094517.00,010125,4742.4461181,N,01617.9727984,E,1,21,4.556,624.9903,M*3D
$GPGFA,094517.00,31.151,25.554,3.276,0.561,23.907,3.116,,VVV*31
$GPLLK,094517.00,010125,,M,,M,1,21,1.5,,M*02
$GNGMP,094517.00,,,,,DAAA,21,0.7,,,,*5C
$GPGMP,094517.00,,,,,,04,,,,3.3,123*77
$GLGMP,094517.00,,,,,,05,,,,,*74
$GAGMP,094517.00,,,,,,05,,,,,*79
$GBGMP,094517.00,,,,,,07,,,,,*78
$PSSN,SNC,[0,294335000,2347]*4E
$GPZDA,094522.00,01,01,2025,,*6B
$GPDTM,W84,,00.0000000,N,00.0000000,E,00.0000000,W84*5F
$GPRMC,094522.00,A,4742.4461193,N,01617.9727886,E,0.0,,010125,5.1,E,D*10
$GPGLL,4742.4461193,N,01617.9727886,E,094522.00,A,D*61
$GPGGA,094522.00,4742.4461193,N,01617.9727886,E,2,23,0.6,624.9978,M,43.2111,M,2.8,0123*4A
$GNGNS,094522.00,4742.4461193,N,01617.9727886,E,DAAA,23,0.6,624.9978,43.2111,,*5C
$GPGNS,094522.00,,,,,,05,,,,2.8,123*7A
$GLGNS,094522.00,,,,,,06,,,,,*71
$GAGNS,094522.00,,,,,,05,,,,,*7F
$GBGNS,094522.00,,,,,,07,,,,,*7E
$GPLLQ,094522.00,010125,,M,,M,1,23,3.330,,M*1B
$GPVTG,,T,,M,0.01,N,0.01,K,D*26
$GPHDT,,T*1B
$GPTHS,,V*0E
$GPROT,,V*08
$PSSN,HRP,094522.00,010125,,,,,,,00,0,,*69
$PTNL,AVR,094522.00,,Yaw,,Tilt,,,,0,,00*3F
$GPGSA,A,3,13,14,15,17,23,,,,,,,,1.2,0.6,1.0*32
$GPGSA,A,3,65,66,67,75,76,77,,,,,,,1.2,0.6,1.0*37
$GPGSA,A,3,02,03,07,08,25,,,,,,,,1.2,0.6,1.0*3F
$GPGSA,A,3,07,21,24,26,33,42,45,,,,,,1.2,0.6,1.0*37
$GPGST,094522.00,5.106,1.853,0.762,16.702,1.789,0.903,2.659*66
$GPGBS,094522.00,7.554,3.452,10.808,77,0.0001,-8.356,6.235*43
$GPGRS,094522.00,1,-0.7,0.6,0.1,0.9,-1.3,,,,,,,*63
$GPGRS,094522.00,1,-1.6,-2.8,8.3,-4.4,-3.3,-8.4,,,,,,*61
$GPGRS,094522.00,1,0.4,-0.0,-2.2,0.7,-0.6,,,,,,,*40
$GPGRS,094522.00,1,-0.3,2.5,9.3,-2.5,-10.6,-1.5,-3.8,,,,,*74
$GPGSV,5,1,17,22,67,076,,19,21,139,36,05,11,209,30,23,24,306,43*76
$GPGSV,5,2,17,30,19,089,26,17,33,106,45,14,47,059,38,24,34,283,32*7E
$GPGSV,5,3,17,13,67,150,50,15,66,264,47,21,00,029,,10,03,339,*7F
$GPGSV,5,4,17,12,05,220,,36,35,170,37,34,31,208,,49,34,195,*71
$GPGSV,5,5,17,61,03,257,*4B
$GLGSV,2,1,08,76,70,276,47,84,14,032,,67,23,328,45,77,25,245,35*6A
$GLGSV,2,2,08,65,41,179,40,75,39,045,41,66,70,278,44,85,10,083,*61
$GAGSV,3,1,10,08,69,290,47,30,13,218,30,07,18,310,43,16,30,051,*66
$GAGSV,3,2,10,03,52,148,46,25,55,061,44,02,64,196,50,05,04,137,*6C
$GAGSV,3,3,10,24,06,046,,33,03,353,*6D
$GBGSV,5,1,20,26,70,263,48,33,20,320,35,40,28,046,34,05,20,130,*6E
$GBGSV,5,2,20,21,36,189,38,29,16,088,,24,19,251,36,07,28,057,41*68
$GBGSV,5,3,20,14,40,301,35,50,51,216,,56,33,080,,10,36,070,34*61
$GBGSV,5,4,20,45,49,063,46,42,55,264,51,09,02,092,,36,02,068,*68
$GBGSV,5,5,20,35,01,140,,02,04,109,,30,09,035,,60,07,112,*6A
$GPGGA,094522.00,,,,,0,00,,,M,,M,,*40
$PTNL,GGK,094522.00,010125,4742.4461193,N,01617.9727886,E,1,23,1.2,EHT668.2089,M*4E
$GPGGQ,094522.00,010125,4742.4461193,N,01617.9727886,E,1,23,3.330,624.9978,M*34
$GPGFA,094522.00,17.621,21.805,1.853,0.762,16.702,2.659,,VVV*30
$GPLLK,094522.00,010125,,M,,M,1,23,1.4,,M*07
$GNGMP,094522.00,,,,,DAAA,23,0.6,,,,*59
$GPGMP,094522.00,,,,,,05,,,,2.8,123*7A
$GLGMP,094522.00,,,,,,06,,,,,*71
$GAGMP,094522.00,,,,,,05,,,,,*7F
$GBGMP,094522.00,,,,,,07,,,,,*7E
$PSSN,SNC,[0,294340000,2347]*4C
$GPZDA,094527.00,01,01,2025,,*6E
$GPDTM,W84,,00.0000000,N,00.0000000,E,00.0000000,W84*5F
$GPRMC,094527.00,A,4742.4461156,N,01617.9727785,E,0.0,,010125,5.1,E,D*10
$GPGLL,4742.4461156,N,01617.9727785,E,094527.00,A,D*61
$GPGGA,094527.00,4742.4461156,N,01617.9727785,E,2,22,0.7,624.9977,M,43.2111,M,1.4,0123*4A
$GNGNS,094527.00,4742.4461156,N,01617.9727785,E,DAAA,22,0.7,624.9977,43.2111,,*53
$GPGNS,094527.00,,,,,,05,,,,1.4,123*70
$GLGNS,094527.00,,,,,,06,,,,,*74
$GAGNS,094527.00,,,,,,04,,,,,*7B
$GBGNS,094527.00,,,,,,07,,,,,*7B
$GPLLQ,094527.00,010125,,M,,M,1,22,2.421,,M*19
$GPVTG,,T,,M,0.00,N,0.01,K,D*27
$GPHDT,,T*1B
$GPTHS,,V*0E
$GPROT,,V*08
$PSSN,HRP,094527.00,010125,,,,,,,00,0,,*6C
$PTNL,AVR,094527.00,,Yaw,,Tilt,,,,0,,00*3A
$GPGSA,A,3,13,14,15,17,23,,,,,,,,1.2,0.7,1.0*33
$GPGSA,A,3,65,66,67,75,76,77,,,,,,,1.2,0.7,1.0*36
$GPGSA,A,3,02,03,08,25,,,,,,,,,1.2,0.7,1.0*39
$GPGSA,A,3,07,21,24,26,33,42,45,,,,,,1.2,0.7,1.0*36
$GPGST,094527.00,4.276,1.228,0.576,13.245,1.203,0.628,2.006*69
$GPGBS,094527.00,7.611,3.469,10.314,13,0.0001,-0.762,0.643*40
$GPGRS,094527.00,1,-0.8,0.8,0.2,0.8,-0.8,,,,,,,*6F
$GPGRS,094527.00,1,1.0,-0.6,6.7,-2.9,-3.0,-6.3,,,,,,*48
$GPGRS,094527.00,1,0.5,0.0,0.5,-0.6,,,,,,,,*68
$GPGRS,094527.00,1,-0.7,2.7,8.9,-2.4,-7.7,-1.1,-3.7,,,,,*41
$GPGSV,5,1,17,22,67,076,,19,21,139,36,05,11,209,30,23,24,306,42*77
$GPGSV,5,2,17,30,19,089,26,17,33,106,43,14,47,059,41,24,34,283,31*75
$GPGSV,5,3,17,13,67,150,50,15,66,264,48,21,00,029,,10,03,339,*70
$GPGSV,5,4,17,12,05,220,,36,35,170,36,34,31,208,,49,34,195,*70
$GPGSV,5,5,17,61,03,257,*4B
$GLGSV,2,1,08,76,70,276,46,84,14,032,,67,23,328,45,77,25,245,35*6B
$GLGSV,2,2,08,65,41,179,42,75,39,045,42,66,70,278,45,85,10,082,*60
$GAGSV,3,1,10,08,69,290,46,30,13,218,31,07,18,310,27,16,30,051,*64
$GAGSV,3,2,10,03,52,148,45,25,55,061,44,02,64,196,50,05,04,137,*6F
$GAGSV,3,3,10,24,06,046,,33,03,353,*6D
$GBGSV,5,1,20,26,70,263,47,33,20,320,36,40,28,046,34,05,20,130,*62
$GBGSV,5,2,20,21,36,189,39,29,16,088,,24,19,251,37,07,28,057,41*68
$GBGSV,5,3,20,14,40,301,34,50,51,216,,56,33,080,,10,36,070,33*67
$GBGSV,5,4,20,45,49,063,47,42,55,264,51,09,02,092,,36,02,068,*69
$GBGSV,5,5,20,35,01,140,,02,04,109,,30,09,035,,60,07,112,*6A
$GPGGA,094527.00,,,,,0,00,,,M,,M,,*45
$PTNL,GGK,094527.00,010125,4742.4461156,N,01617.9727785,E,1,22,1.2,EHT668.2087,M*41
$GPGGQ,094527.00,010125,4742.4461156,N,01617.9727785,E,1,22,2.421,624.9977,M*3C
$GPGFA,094527.00,11.678,16.446,1.228,0.576,13.245,2.006,,VVV*3E
$GPLLK,094527.00,010125,,M,,M,1,22,1.5,,M*02
$GNGMP,094527.00,,,,,DAAA,22,0.7,,,,*5C
$GPGMP,094527.00,,,,,,05,,,,1.4,123*70
$GLGMP,094527.00,,,,,,06,,,,,*74
$GAGMP,094527.00,,,,,,04,,,,,*7B
$GBGMP,094527.00,,,,,,07,,,,,*7B
$PSSN,SNC,[0,294345000,2347]*49
$GPZDA,094532.00,01,01,2025,,*6A
$GPDTM,W84,,00.0000000,N,00.0000000,E,00.0000000,W84*5F
$GPRMC,094532.00,A,4742.4461120,N,01617.9727718,E,0.0,,010125,5.1,E,D*11
$GPGLL,4742.4461120,N,01617.9727718,E,094532.00,A,D*60
$GPGGA,094532.00,4742.4461120,N,01617.9727718,E,2,21,0.7,625.0028,M,43.2111,M,2.4,0123*40
$GNGNS,094532.00,4742.4461120,N,01617.9727718,E,DAAA,21,0.7,625.0028,43.2111,,*5A
$GPGNS,094532.00,,,,,,05,,,,2.4,123*77
$GLGNS,094532.00,,,,,,05,,,,,*73
$GAGNS,094532.00,,,,,,04,,,,,*7F
$GBGNS,094532.00,,,,,,07,,,,,*7F
$GPLLQ,094532.00,010125,,M,,M,1,21,2.241,,M*1E
$GPVTG,,T,,M,0.01,N,0.01,K,D*26
$GPHDT,,T*1B
$GPTHS,,V*0E
$GPROT,,V*08
$PSSN,HRP,094532.00,010125,,,,,,,00,0,,*68
$PTNL,AVR,094532.00,,Yaw,,Tilt,,,,0,,00*3E
$GPGSA,A,3,13,14,15,17,23,,,,,,,,1.3,0.7,1.1*33
$GPGSA,A,3,65,66,67,75,76,,,,,,,,1.3,0.7,1.1*36
$GPGSA,A,3,02,03,08,25,,,,,,,,,1.3,0.7,1.1*39
$GPGSA,A,3,07,21,24,26,33,42,45,,,,,,1.3,0.7,1.1*36
$GPGST,094532.00,3.181,1.153,0.525,13.708,1.127,0.578,1.849*67
$GPGBS,094532.00,7.999,3.621,10.682,14,0.0001,1.187,0.764*6D
$GPGRS,094532.00,1,-0.9,1.2,0.3,-0.2,-0.6,,,,,,,*49
$GPGRS,094532.00,1,1.8,-1.3,4.8,-2.3,-3.7,,,,,,,*46
$GPGRS,094532.00,1,0.5,-0.2,0.1,-0.8,,,,,,,,*49
$GPGRS,094532.00,1,-1.1,2.5,7.6,-2.5,0.4,-1.6,-4.1,,,,,*6E
$GPGSV,5,1,17,22,67,076,,19,21,139,36,05,11,209,30,23,24,306,42*77
$GPGSV,5,2,17,30,19,089,28,17,33,106,40,14,47,059,43,24,34,283,35*7E
$GPGSV,5,3,17,13,67,150,50,15,66,263,49,21,00,029,,10,03,339,*76
$GPGSV,5,4,17,12,05,220,,36,35,170,36,34,31,208,,49,34,195,*70
$GPGSV,5,5,17,61,03,257,*4B
$GLGSV,2,1,08,76,70,276,45,84,14,032,,67,23,328,44,77,25,245,35*69
$GLGSV,2,2,08,65,41,179,42,75,39,045,40,66,70,278,46,85,10,082,*61
$GAGSV,3,1,10,08,69,290,46,30,13,218,32,07,18,311,27,16,30,051,*66
$GAGSV,3,2,10,03,52,148,45,25,55,061,44,02,64,196,51,05,03,137,*69
$GAGSV,3,3,10,24,06,046,,33,03,353,*6D
$GBGSV,5,1,20,26,70,263,47,21,36,189,41,05,20,130,,40,28,046,34*67
$GBGSV,5,2,20,33,20,320,33,29,16,088,,24,19,251,36,07,28,057,41*66
$GBGSV,5,3,20,14,40,301,31,50,51,216,,56,33,080,,10,36,070,33*62
$GBGSV,5,4,20,45,49,063,47,42,55,263,51,09,02,092,,36,02,068,*6E
$GBGSV,5,5,20,35,01,140,,02,04,109,,30,09,035,,60,07,112,*6A
$GPGGA,094532.00,,,,,0,00,,,M,,M,,*41
$PTNL,GGK,094532.00,010125,4742.4461120,N,01617.9727718,E,1,21,1.3,EHT668.2138,M*47
$GPGGQ,094532.00,010125,4742.4461120,N,01617.9727718,E,1,21,2.241,625.0028,M*35
$GPGFA,094532.00,10.964,15.158,1.153,0.525,13.708,1.849,,VVV*35
$GPLLK,094532.00,010125,,M,,M,1,21,1.5,,M*05
$GNGMP,094532.00,,,,,DAAA,21,0.7,,,,*5B
$GPGMP,094532.00,,,,,,05,,,,2.4,123*77
$GLGMP,094532.00,,,,,,05,,,,,*73
$GAGMP,094532.00,,,,,,04,,,,,*7F
$GBGMP,094532.00,,,,,,07,,,,,*7F
$PSSN,SNC,[0,294350000,2347]*4D
$GPZDA,094537.00,01,01,2025,,*6F
$GPDTM,W84,,00.0000000,N,00.0000000,E,00.0000000,W84*5F
$GPRMC,094537.00,A,4742.4461001,N,01617.9727666,E,0.0,,010125,5.1,E,D*1E
$GPGLL,4742.4461001,N,01617.9727666,E,094537.00,A,D*6F
$GPGGA,094537.00,4742.4461001,N,01617.9727666,E,2,22,0.7,624.9983,M,43.2111,M,3.3,0123*4A
$GNGNS,094537.00,4742.4461001,N,01617.9727666,E,DAAA,22,0.7,624.9983,43.2111,,*56
$GPGNS,094537.00,,,,,,06,,,,3.3,123*77
$GLGNS,094537.00,,,,,,06,,,,,*75
$GAGNS,094537.00,,,,,,04,,,,,*7A
$GBGNS,094537.00,,,,,,06,,,,,*7B
$GPLLQ,094537.00,010125,,M,,M,1,22,3.149,,M*12
$GPVTG,,T,,M,0.01,N,0.01,K,D*26
$GPHDT,,T*1B
$GPTHS,,V*0E
$GPROT,,V*08
$PSSN,HRP,094537.00,010125,,,,,,,00,0,,*6D
$PTNL,AVR,094537.00,,Yaw,,Tilt,,,,0,,00*3B
$GPGSA,A,3,13,14,15,17,23,24,,,,,,,1.3,0.7,1.1*35
$GPGSA,A,3,65,66,67,75,76,77,,,,,,,1.3,0.7,1.1*36
$GPGSA,A,3,02,03,08,25,,,,,,,,,1.3,0.7,1.1*39
$GPGSA,A,3,07,21,26,33,42,45,,,,,,,1.3,0.7,1.1*30
$GPGST,094537.00,4.819,1.687,0.690,9.061,1.670,0.732,2.568*59
$GPGBS,094537.00,7.435,2.950,10.017,14,0.0001,2.246,0.782*64
$GPGRS,094537.00,1,-1.0,2.2,0.2,-1.4,-1.0,1.0,,,,,,*69
$GPGRS,094537.00,1,-1.1,-2.1,3.8,-2.9,-3.7,-7.1,,,,,,*6E
$GPGRS,094537.00,1,0.5,-0.2,-0.0,-1.6,,,,,,,,*6F
$GPGRS,094537.00,1,-2.4,2.4,-2.3,14.1,-1.9,-4.9,,,,,,*72
$GPGSV,5,1,17,22,67,076,,19,21,139,35,05,11,209,30,23,24,306,41*77
$GPGSV,5,2,17,30,19,089,30,17,33,106,36,14,47,059,43,24,34,283,38*7B
$GPGSV,5,3,17,13,67,150,49,15,66,263,49,21,00,029,,10,03,339,*7E
$GPGSV,5,4,17,12,05,220,,36,35,170,36,34,31,208,,49,34,195,*70
$GPGSV,5,5,17,61,03,257,*4B
$GLGSV,2,1,08,76,70,276,45,84,14,032,26,67,23,328,43,77,25,245,36*69
$GLGSV,2,2,08,65,40,179,41,75,39,045,35,66,70,277,46,85,10,082,*6E
$GAGSV,3,1,10,08,69,290,45,30,13,218,32,07,18,311,43,16,30,051,*67
$GAGSV,3,2,10,03,52,148,45,25,55,061,44,02,64,196,50,05,03,137,*68
$GAGSV,3,3,10,24,06,046,,33,03,353,*6D
$GBGSV,5,1,20,26,70,263,47,21,36,189,42,05,20,130,,40,28,046,35*65
$GBGSV,5,2,20,33,20,320,37,29,16,088,,24,19,251,35,07,28,057,41*61
$GBGSV,5,3,20,14,41,301,33,50,51,216,,56,33,080,,10,36,070,33*61
$GBGSV,5,4,20,45,49,063,46,42,55,263,51,09,02,092,,36,02,068,*6F
$GBGSV,5,5,20,35,01,140,,02,04,109,,30,09,035,,60,07,112,*6A
$GPGGA,094537.00,,,,,0,00,,,M,,M,,*44
$PTNL,GGK,094537.00,010125,4742.4461001,N,01617.9727666,E,1,22,1.3,EHT668.2094,M*4C
$GPGGQ,094537.00,010125,4742.4461001,N,01617.9727666,E,1,22,3.149,624.9983,M*33
$GPGFA,094537.00,16.043,21.058,1.687,0.690,9.061,2.568,,VVV*01
$GPLLK,094537.00,010125,,M,,M,1,22,1.6,,M*00
$GNGMP,094537.00,,,,,DAAA,22,0.7,,,,*5D
$GPGMP,094537.00,,,,,,06,,,,3.3,123*77
$GLGMP,094537.00,,,,,,06,,,,,*75
$GAGMP,094537.00,,,,,,04,,,,,*7A
$GBGMP,094537.00,,,,,,06,,,,,*7B
$PSSN,SNC,[0,294355000,2347]*48
$GPZDA,094542.00,01,01,2025,,*6D
$GPDTM,W84,,00.0000000,N,00.0000000,E,00.0000000,W84*5F
$GPRMC,094542.00,A,4742.4460898,N,01617.9727713,E,0.0,,010125,5.1,E,D*16
$GPGLL,4742.4460898,N,01617.9727713,E,094542.00,A,D*67
$GPGGA,094542.00,4742.4460898,N,01617.9727713,E,2,21,0.7,624.9975,M,43.2111,M,2.8,0123*42
$GNGNS,094542.00,4742.4460898,N,01617.9727713,E,DAAA,21,0.7,624.9975,43.2111,,*54
$GPGNS,094542.00,,,,,,05,,,,2.8,123*7C
$GLGNS,094542.00,,,,,,05,,,,,*74
$GAGNS,094542.00,,,,,,04,,,,,*78
$GBGNS,094542.00,,,,,,07,,,,,*78
$GPLLQ,094542.00,010125,,M,,M,1,21,5.164,,M*1A
$GPVTG,,T,,M,0.01,N,0.03,K,D*24
$GPHDT,,T*1B
$GPTHS,,V*0E
$GPROT,,V*08
$PSSN,HRP,094542.00,010125,,,,,,,00,0,,*6F
$PTNL,AVR,094542.00,,Yaw,,Tilt,,,,0,,00*39
$GPGSA,A,3,13,14,15,23,24,,,,,,,,1.4,0.7,1.2*37
$GPGSA,A,3,65,66,67,76,77,,,,,,,,1.4,0.7,1.2*30
$GPGSA,A,3,02,03,08,25,,,,,,,,,1.4,0.7,1.2*3D
$GPGSA,A,3,07,14,21,26,33,42,45,,,,,,1.4,0.7,1.2*31
$GPGST,094542.00,5.546,2.432,0.951,350.712,2.405,1.017,4.455*57
$GPGBS,094542.00,8.994,3.940,20.050,24,0.0001,1.970,0.848*68
$GPGRS,094542.00,1,-1.2,0.8,0.0,-1.3,2.0,,,,,,,*65
$GPGRS,094542.00,1,-4.2,-2.8,3.0,-2.5,-4.4,,,,,,,*66
$GPGRS,094542.00,1,0.1,-0.1,-0.0,-2.2,,,,,,,,*6D
$GPGRS,094542.00,1,-2.6,-6.7,3.0,-2.6,15.9,-2.1,-5.6,,,,,*7C
$GPGSV,5,1,17,22,67,076,,19,21,139,33,05,11,209,31,23,24,306,40*71
$GPGSV,5,2,17,30,19,089,30,17,33,106,34,14,47,059,42,24,34,283,40*77
$GPGSV,5,3,17,13,67,150,49,15,66,263,50,21,00,029,,10,03,339,*76
$GPGSV,5,4,17,12,05,220,,36,35,170,36,34,31,208,,49,34,195,*70
$GPGSV,5,5,17,61,03,257,*4B
$GLGSV,2,1,08,76,70,276,45,84,14,032,,67,23,328,40,77,25,245,37*6F
$GLGSV,2,2,08,65,40,179,40,75,39,045,35,66,70,277,46,85,10,082,*6F
$GAGSV,3,1,10,08,69,290,44,30,13,218,31,07,18,311,21,16,30,051,*61
$GAGSV,3,2,10,03,52,148,45,25,55,061,44,02,64,196,50,05,03,137,*68
$GAGSV,3,3,10,24,06,046,,33,03,353,*6D
$GBGSV,5,1,20,26,70,263,47,21,36,189,43,05,20,130,,40,28,046,34*65
$GBGSV,5,2,20,33,20,320,35,29,16,088,,24,19,251,33,07,28,057,40*64
$GBGSV,5,3,20,14,41,301,37,50,51,216,,56,33,079,,10,36,070,32*62
$GBGSV,5,4,20,45,49,063,45,42,55,263,51,09,02,092,,36,02,068,*6C
$GBGSV,5,5,20,35,01,140,,02,04,109,,30,09,035,,60,07,112,*6A
$GPGGA,094542.00,,,,,0,00,,,M,,M,,*46
$PTNL,GGK,094542.00,010125,4742.4460898,N,01617.9727713,E,1,21,1.4,EHT668.2086,M*43
$GPGGQ,094542.00,010125,4742.4460898,N,01617.9727713,E,1,21,5.164,624.9975,M*38
$GPGFA,094542.00,23.124,36.529,2.432,0.951,350.712,4.455,,VVV*08
$GPLLK,094542.00,010125,,M,,M,1,21,1.6,,M*01
$GNGMP,094542.00,,,,,DAAA,21,0.7,,,,*5C
$GPGMP,094542.00,,,,,,05,,,,2.8,123*7C
$GLGMP,094542.00,,,,,,05,,,,,*74
$GAGMP,094542.00,,,,,,04,,,,,*78
$GBGMP,094542.00,,,,,,07,,,,,*78
$PSSN,SNC,[0,294360000,2347]*4E
$GPZDA,094547.00,01,01,2025,,*68
$GPDTM,W84,,00.0000000,N,00.0000000,E,00.0000000,W84*5F
$GPRMC,094547.00,A,4742.4460861,N,01617.9727776,E,0.0,,010125,5.1,E,D*16
$GPGLL,4742.4460861,N,01617.9727776,E,094547.00,A,D*67
$GPGGA,094547.00,4742.4460861,N,01617.9727776,E,2,21,0.7,625.0049,M,43.2111,M,1.4,0123*43
$GNGNS,094547.00,4742.4460861,N,01617.9727776,E,DAAA,21,0.7,625.0049,43.2111,,*5A
$GPGNS,094547.00,,,,,,05,,,,1.4,123*76
$GLGNS,094547.00,,,,,,06,,,,,*72
$GAGNS,094547.00,,,,,,04,,,,,*7D
$GBGNS,094547.00,,,,,,06,,,,,*7C
$GPLLQ,094547.00,010125,,M,,M,1,21,3.570,,M*18
$GPVTG,,T,,M,0.01,N,0.01,K,D*26
$GPHDT,,T*1B
$GPTHS,,V*0E
$GPROT,,V*08
$PSSN,HRP,094547.00,010125,,,,,,,00,0,,*6A
$PTNL,AVR,094547.00,,Yaw,,Tilt,,,,0,,00*3C
$GPGSA,A,3,13,14,15,23,24,,,,,,,,1.4,0.7,1.2*37
$GPGSA,A,3,65,66,67,75,76,77,,,,,,,1.4,0.7,1.2*32
$GPGSA,A,3,02,03,08,25,,,,,,,,,1.4,0.7,1.2*3D
$GPGSA,A,3,07,14,21,26,42,45,,,,,,,1.4,0.7,1.2*31
$GPGST,094547.00,3.213,1.678,0.650,350.523,1.659,0.698,3.083*52
$GPGBS,094547.00,9.070,3.739,19.241,24,0.0001,1.322,0.806*60
$GPGRS,094547.00,1,-0.9,0.1,0.4,-0.9,1.3,,,,,,,*6C
$GPGRS,094547.00,1,-3.6,-1.9,1.9,-7.0,-1.9,1.0,,,,,,*4E
$GPGRS,094547.00,1,0.2,0.5,0.2,-1.8,,,,,,,,*64
$GPGRS,094547.00,1,-1.9,1.1,4.1,-2.5,-2.3,-5.6,,,,,,*4D
$GPGSV,5,1,17,22,67,076,,19,21,139,31,05,11,209,31,23,24,306,39*7D
$GPGSV,5,2,17,30,19,089,31,17,33,106,33,14,47,059,41,24,34,283,42*70
$GPGSV,5,3,17,13,67,150,48,15,66,263,50,21,00,029,,10,03,339,*77
$GPGSV,5,4,17,12,05,220,,36,35,170,36,34,31,208,,49,34,195,*70
$GPGSV,5,5,17,61,03,257,*4B
$GLGSV,2,1,08,76,70,277,44,84,14,032,,67,23,328,39,77,25,245,37*61
$GLGSV,2,2,08,65,40,179,41,75,39,045,40,66,70,277,47,85,10,082,*6D
$GAGSV,3,1,10,08,69,290,43,30,13,218,31,07,18,311,19,16,30,051,*6D
$GAGSV,3,2,10,03,52,148,46,25,55,061,43,02,64,196,49,05,03,137,*64
$GAGSV,3,3,10,24,06,046,,33,03,353,*6D
$GBGSV,5,1,20,26,70,263,47,21,36,189,44,33,20,320,33,24,19,251,31*65
$GBGSV,5,2,20,05,20,130,,40,28,046,34,29,16,088,,07,28,057,40*67
$GBGSV,5,3,20,14,41,301,39,50,51,216,,56,33,079,,10,36,070,32*6C
$GBGSV,5,4,20,45,49,063,44,42,55,263,50,02,04,109,,36,02,068,*62
$GBGSV,5,5,20,35,01,140,,09,02,092,,30,09,035,,60,07,112,*64
$GPGGA,094547.00,,,,,0,00,,,M,,M,,*43
$PTNL,GGK,094547.00,010125,4742.4460861,N,01617.9727776,E,1,21,1.4,EHT668.2160,M*4A
$GPGGQ,094547.00,010125,4742.4460861,N,01617.9727776,E,1,21,3.570,625.0049,M*31
$GPGFA,094547.00,15.958,25.281,1.678,0.650,350.523,3.083,,VVV*05
$GPLLK,094547.00,010125,,M,,M,1,21,1.7,,M*05
$GNGMP,094547.00,,,,,DAAA,21,0.7,,,,*59
$GPGMP,094547.00,,,,,,05,,,,1.4,123*76
$GLGMP,094547.00,,,,,,06,,,,,*72
$GAGMP,094547.00,,,,,,04,,,,,*7D
$GBGMP,094547.00,,,,,,06,,,,,*7C
$PSSN,SNC,[0,294365000,2347]*4B
$GPZDA,094552.00,01,01,2025,,*6C
$GPDTM,W84,,00.0000000,N,00.0000000,E,00.0000000,W84*5F
$GPRMC,094552.00,A,4742.4460890,N,01617.9727858,E,0.0,,010125,5.1,E,D*1F
$GPGLL,4742.4460890,N,01617.9727858,E,094552.00,A,D*6E
$GPGGA,094552.00,4742.4460890,N,01617.9727858,E,2,21,0.7,625.0006,M,43.2111,M,2.4,0123*42
$GNGNS,094552.00,4742.4460890,N,01617.9727858,E,DAAA,21,0.7,625.0006,43.2111,,*58
$GPGNS,094552.00,,,,,,05,,,,2.4,123*71
$GLGNS,094552.00,,,,,,05,,,,,*75
$GAGNS,094552.00,,,,,,05,,,,,*78
$GBGNS,094552.00,,,,,,06,,,,,*78
$GPLLQ,094552.00,010125,,M,,M,1,21,3.673,,M*1C
$GPVTG,,T,,M,0.00,N,0.00,K,D*26
$GPHDT,,T*1B
$GPTHS,,V*0E
$GPROT,,V*08
$PSSN,HRP,094552.00,010125,,,,,,,00,0,,*6E
$PTNL,AVR,094552.00,,Yaw,,Tilt,,,,0,,00*38
$GPGSA,A,3,13,14,15,23,24,,,,,,,,1.5,0.7,1.3*37
$GPGSA,A,3,65,66,67,75,76,,,,,,,,1.5,0.7,1.3*32
$GPGSA,A,3,02,03,07,08,25,,,,,,,,1.5,0.7,1.3*3A
$GPGSA,A,3,07,14,21,26,42,45,,,,,,,1.5,0.7,1.3*31
$GPGST,094552.00,3.140,1.752,0.663,351.219,1.734,0.708,3.159*51
$GPGBS,094552.00,9.524,3.810,20.082,23,0.0001,-1.640,0.997*41
$GPGRS,094552.00,1,-0.1,-0.8,0.7,-1.6,1.1,,,,,,,*4B
$GPGRS,094552.00,1,-3.0,-0.7,4.7,-2.3,-2.0,,,,,,,*6B
$GPGRS,094552.00,1,0.8,1.1,-3.2,0.3,-0.8,,,,,,,*6D
$GPGRS,094552.00,1,-1.2,4.2,5.7,-2.2,-2.2,-4.1,,,,,,*43
$GPGSV,5,1,17,22,67,075,,19,21,139,30,05,11,209,32,23,24,306,36*73
$GPGSV,5,2,17,30,18,089,29,17,33,106,28,14,47,059,41,24,34,283,42*72
$GPGSV,5,3,17,13,67,150,47,15,67,263,50,21,00,029,,10,03,339,*79
$GPGSV,5,4,17,12,05,220,,36,35,170,36,34,31,208,,49,34,195,*70
$GPGSV,5,5,17,61,03,257,*4B
$GLGSV,2,1,08,76,70,277,43,84,14,032,,67,23,328,38,77,25,245,34*64
$GLGSV,2,2,08,65,40,179,40,75,39,045,42,66,70,277,48,85,10,082,*61
$GAGSV,3,1,10,08,69,290,43,30,13,218,31,07,18,311,42,16,30,051,*63
$GAGSV,3,2,10,03,52,148,46,25,55,061,43,02,64,196,50,05,03,137,*6C
$GAGSV,3,3,10,24,06,046,,33,03,353,*6D
$GBGSV,5,1,20,26,70,263,46,21,36,189,45,05,20,130,,40,28,046,34*62
$GBGSV,5,2,20,33,20,320,29,29,16,087,,24,19,251,29,07,28,057,40*6D
$GBGSV,5,3,20,14,41,301,40,50,51,216,,56,33,079,,10,36,070,32*62
$GBGSV,5,4,20,45,49,063,44,42,55,263,51,09,02,092,,36,01,068,*6E
$GBGSV,5,5,20,35,01,140,,02,04,109,,30,09,035,,60,07,112,*6A
$GPGGA,094552.00,,,,,0,00,,,M,,M,,*47
$PTNL,GGK,094552.00,010125,4742.4460890,N,01617.9727858,E,1,21,1.5,EHT668.2116,M*43
$GPGGQ,094552.00,010125,4742.4460890,N,01617.9727858,E,1,21,3.673,625.0006,M*33
$GPGFA,094552.00,16.657,25.904,1.752,0.663,351.219,3.159,,VVV*04
$GPLLK,094552.00,010125,,M,,M,1,21,1.7,,M*01
$GNGMP,094552.00,,,,,DAAA,21,0.7,,,,*5D
$GPGMP,094552.00,,,,,,05,,,,2.4,123*71
$GLGMP,094552.00,,,,,,05,,,,,*75
$GAGMP,094552.00,,,,,,05,,,,,*78
$GBGMP,094552.00,,,,,,06,,,,,*78
$PSSN,SNC,[0,294370000,2347]*4F
$GPZDA,094557.00,01,01,2025,,*69
$GPDTM,W84,,00.0000000,N,00.0000000,E,00.0000000,W84*5F
$GPRMC,094557.00,A,4742.4460971,N,01617.9727888,E,0.0,,010125,5.1,E,D*19
$GPGLL,4742.4460971,N,01617.9727888,E,094557.00,A,D*68
$GPGGA,094557.00,4742.4460971,N,01617.9727888,E,2,22,0.7,624.9877,M,43.2111,M,3.4,0123*40
$GNGNS,094557.00,4742.4460971,N,01617.9727888,E,DAAA,22,0.7,624.9877,43.2111,,*5B
$GPGNS,094557.00,,,,,,05,,,,3.4,123*75
$GLGNS,094557.00,,,,,,05,,,,,*70
$GAGNS,094557.00,,,,,,05,,,,,*7D
$GBGNS,094557.00,,,,,,07,,,,,*7C
$GPLLQ,094557.00,010125,,M,,M,1,22,3.550,,M*18
$GPVTG,,T,,M,0.01,N,0.02,K,D*25
$GPHDT,,T*1B
$GPTHS,,V*0E
$GPROT,,V*08
$PSSN,HRP,094557.00,010125,,,,,,,00,0,,*6B
$PTNL,AVR,094557.00,,Yaw,,Tilt,,,,0,,00*3D
$GPGSA,A,3,13,14,15,23,24,,,,,,,,1.4,0.7,1.2*37
$GPGSA,A,3,65,66,67,75,76,,,,,,,,1.4,0.7,1.2*32
$GPGSA,A,3,02,03,07,08,25,,,,,,,,1.4,0.7,1.2*3A
$GPGSA,A,3,07,14,21,26,33,42,45,,,,,,1.4,0.7,1.2*31
$GPGST,094557.00,3.592,1.693,0.641,351.172,1.676,0.684,3.054*53
$GPGBS,094557.00,9.593,3.857,20.339,23,0.0001,-1.991,1.012*4E
$GPGRS,094557.00,1,0.6,0.0,0.3,-2.0,0.2,,,,,,,*42
$GPGRS,094557.00,1,-3.2,-1.6,4.5,-5.6,-2.4,,,,,,,*68
$GPGRS,094557.00,1,0.9,1.1,-3.5,-0.1,-1.0,,,,,,,*48
$GPGRS,094557.00,1,-1.2,1.3,6.1,-2.4,6.1,-2.7,-3.5,,,,,*6E
$GPGSV,5,1,17,22,67,075,,19,21,139,27,05,11,209,33,23,24,306,36*74
$GPGSV,5,2,17,30,18,089,27,17,34,106,32,14,47,059,41,24,34,283,42*70
$GPGSV,5,3,17,13,67,150,47,15,67,263,49,21,00,029,,10,03,339,*71
$GPGSV,5,4,17,12,05,220,,36,35,170,37,34,31,208,,49,34,195,*71
$GPGSV,5,5,17,61,03,257,*4B
$GLGSV,2,1,08,76,70,277,43,84,14,032,,67,23,328,38,77,25,246,31*62
$GLGSV,2,2,08,65,40,179,38,75,39,045,42,66,70,277,47,85,10,082,*61
$GAGSV,3,1,10,08,69,290,42,30,13,218,28,07,18,311,42,16,30,051,*6A
$GAGSV,3,2,10,03,52,148,46,25,55,060,44,02,64,196,49,05,03,137,*62
$GAGSV,3,3,10,24,06,046,,33,03,353,*6D
$GBGSV,5,1,20,26,70,263,45,21,36,189,45,05,20,130,,40,28,046,33*66
$GBGSV,5,2,20,33,20,320,36,29,16,087,,24,19,251,31,07,28,057,40*6A
$GBGSV,5,3,20,14,41,300,39,50,51,216,,56,33,079,,10,36,070,33*6C
$GBGSV,5,4,20,45,49,063,44,42,55,263,51,09,02,092,,36,01,068,*6E
$GBGSV,5,5,20,35,01,140,,02,04,109,,30,09,035,,60,07,112,*6A
$GPGGA,094557.00,,,,,0,00,,,M,,M,,*42
$PTNL,GGK,094557.00,010125,4742.4460971,N,01617.9727888,E,1,22,1.4,EHT668.1987,M*44
$GPGGQ,094557.00,010125,4742.4460971,N,01617.9727888,E,1,22,3.550,624.9877,M*32
$GPGFA,094557.00,16.096,25.040,1.693,0.641,351.172,3.054,,VVV*0D
$GPLLK,094557.00,010125,,M,,M,1,22,1.7,,M*07
$GNGMP,094557.00,,,,,DAAA,22,0.7,,,,*5B
$GPGMP,094557.00,,,,,,05,,,,3.4,123*75
$GLGMP,094557.00,,,,,,05,,,,,*70
$GAGMP,094557.00,,,,,,05,,,,,*7D
$GBGMP,094557.00,,,,,,07,,,,,*7C
$PSSN,SNC,[0,294375000,2347]*4A
$GPZDA,094602.00,01,01,2025,,*6A
$GPDTM,W84,,00.0000000,N,00.0000000,E,00.0000000,W84*5F
$GPRMC,094602.00,A,4742.4461027,N,01617.9727788,E,0.0,,010125,5.1,E,D*1E
$GPGLL,4742.4461027,N,01617.9727788,E,094602.00,A,D*6F
$GPGGA,094602.00,4742.4461027,N,01617.9727788,E,2,21,0.7,624.9786,M,43.2111,M,2.8,0123*48
$GNGNS,094602.00,4742.4461027,N,01617.9727788,E,DAAA,21,0.7,624.9786,43.2111,,*5E
$GPGNS,094602.00,,,,,,05,,,,2.8,123*7B
$GLGNS,094602.00,,,,,,05,,,,,*73
$GAGNS,094602.00,,,,,,05,,,,,*7E
$GBGNS,094602.00,,,,,,06,,,,,*7E
$GPLLQ,094602.00,010125,,M,,M,1,21,4.760,,M*1E
$GPVTG,,T,,M,0.00,N,0.01,K,D*27
$GPHDT,,T*1B
$GPTHS,,V*0E
$GPROT,,V*08
$PSSN,HRP,094602.00,010125,,,,,,,00,0,,*68
$PTNL,AVR,094602.00,,Yaw,,Tilt,,,,0,,00*3E
$GPGSA,A,3,13,14,15,23,24,,,,,,,,1.5,0.7,1.3*37
$GPGSA,A,3,65,66,67,75,76,,,,,,,,1.5,0.7,1.3*32
$GPGSA,A,3,02,03,07,08,25,,,,,,,,1.5,0.7,1.3*3A
$GPGSA,A,3,07,14,21,26,42,45,,,,,,,1.5,0.7,1.3*31
$GPGST,094602.00,5.697,2.245,0.849,350.956,2.221,0.910,4.110*54
$GPGBS,094602.00,9.301,3.941,20.765,75,0.0001,17.875,6.148*50
$GPGRS,094602.00,1,0.9,-0.3,-0.0,-0.9,-0.6,,,,,,,*6C
$GPGRS,094602.00,1,-4.6,-2.8,3.3,17.9,-2.9,,,,,,,*78
$GPGRS,094602.00,1,0.8,0.8,-3.7,-0.6,-1.2,,,,,,,*45
$GPGRS,094602.00,1,-1.1,-2.5,6.1,-2.1,-3.0,-3.1,,,,,,*68
$GPGSV,5,1,17,22,67,075,,19,21,139,25,05,11,209,33,23,24,306,39*79
$GPGSV,5,2,17,30,18,089,27,17,34,106,29,14,47,059,40,24,34,283,41*78
$GPGSV,5,3,17,13,67,150,48,15,67,263,49,21,00,029,,10,03,339,*7E
$GPGSV,5,4,17,12,05,220,,36,35,170,37,34,31,208,,49,34,195,*71
$GPGSV,5,5,17,61,03,257,*4B
$GLGSV,2,1,08,76,70,277,41,84,14,032,,67,23,327,36,77,25,246,29*68
$GLGSV,2,2,08,65,40,179,37,75,39,045,43,66,70,277,47,85,10,082,*6F
$GAGSV,3,1,10,08,69,290,42,30,14,218,28,07,18,311,42,16,30,051,*6D
$GAGSV,3,2,10,03,52,148,46,25,55,060,44,02,64,196,48,05,03,137,*63
$GAGSV,3,3,10,24,06,046,,33,03,353,*6D
$GBGSV,5,1,20,26,70,263,43,21,36,189,44,05,20,130,,40,28,046,33*61
$GBGSV,5,2,20,33,20,320,22,29,16,087,,24,19,251,32,07,28,057,40*6C
$GBGSV,5,3,20,14,41,300,39,50,51,216,,56,33,079,,10,36,070,34*6B
$GBGSV,5,4,20,45,48,063,44,42,55,263,50,09,02,092,,36,01,068,*6E
$GBGSV,5,5,20,35,01,140,,02,04,109,,30,09,035,,60,07,112,*6A
$GPGGA,094602.00,,,,,0,00,,,M,,M,,*41
$PTNL,GGK,094602.00,010125,4742.4461027,N,01617.9727788,E,1,21,1.5,EHT668.1897,M*41
$GPGGQ,094602.00,010125,4742.4461027,N,01617.9727788,E,1,21,4.760,624.9786,M*31
$GPGFA,094602.00,21.341,33.706,2.245,0.849,350.956,4.110,,VVV*02
$GPLLK,094602.00,010125,,M,,M,1,21,1.7,,M*07
$GNGMP,094602.00,,,,,DAAA,21,0.7,,,,*5B
$GPGMP,094602.00,,,,,,05,,,,2.8,123*7B
$GLGMP,094602.00,,,,,,05,,,,,*73
$GAGMP,094602.00,,,,,,05,,,,,*7E
$GBGMP,094602.00,,,,,,06,,,,,*7E
$PSSN,SNC,[0,294380000,2347]*40
$GPZDA,094607.00,01,01,2025,,*6F
$GPDTM,W84,,00.0000000,N,00.0000000,E,00.0000000,W84*5F
$GPRMC,094607.00,A,4742.4461115,N,01617.9727832,E,0.0,,010125,5.1,E,D*15
$GPGLL,4742.4461115,N,01617.9727832,E,094607.00,A,D*64
$GPGGA,094607.00,4742.4461115,N,01617.9727832,E,2,21,0.7,624.9743,M,43.2111,M,1.4,0123*45
$GNGNS,094607.00,4742.4461115,N,01617.9727832,E,DAAA,21,0.7,624.9743,43.2111,,*5C
$GPGNS,094607.00,,,,,,05,,,,1.4,123*71
$GLGNS,094607.00,,,,,,05,,,,,*76
$GAGNS,094607.00,,,,,,05,,,,,*7B
$GBGNS,094607.00,,,,,,06,,,,,*7B
$GPLLQ,094607.00,010125,,M,,M,1,21,5.915,,M*16
$GPVTG,,T,,M,0.01,N,0.02,K,D*25
$GPHDT,,T*1B
$GPTHS,,V*0E
$GPROT,,V*08
$PSSN,HRP,094607.00,010125,,,,,,,00,0,,*6D
$PTNL,AVR,094607.00,,Yaw,,Tilt,,,,0,,00*3B
$GPGSA,A,3,13,14,15,23,24,,,,,,,,1.5,0.7,1.3*37
$GPGSA,A,3,65,66,67,75,76,,,,,,,,1.5,0.7,1.3*32
$GPGSA,A,3,02,03,07,08,25,,,,,,,,1.5,0.7,1.3*3A
$GPGSA,A,3,07,14,21,26,42,45,,,,,,,1.5,0.7,1.3*31
$GPGST,094607.00,4.965,2.785,1.061,351.121,2.757,1.133,5.109*54
$GPGBS,094607.00,9.416,3.742,19.880,14,0.0001,-2.579,0.767*45
$GPGRS,094607.00,1,1.3,-2.6,0.3,0.6,-0.1,,,,,,,*6E
$GPGRS,094607.00,1,-3.1,-3.1,5.0,14.1,-5.4,,,,,,,*71
$GPGRS,094607.00,1,1.3,1.1,-3.3,-0.1,-0.5,,,,,,,*47
$GPGRS,094607.00,1,-0.7,-1.2,5.7,-1.6,-2.7,-2.5,,,,,,*6C
$GPGSV,5,1,17,22,67,075,,19,22,139,26,05,11,209,32,23,24,305,40*75
$GPGSV,5,2,17,30,18,089,26,17,34,106,32,14,47,059,37,24,34,283,40*72
$GPGSV,5,3,17,13,67,150,48,15,67,263,48,21,00,029,,10,03,339,35*79
$GPGSV,5,4,17,12,05,220,,36,35,170,37,34,31,208,,49,34,195,*71
$GPGSV,5,5,17,61,03,257,*4B
$GLGSV,2,1,08,76,70,277,40,84,14,032,,67,23,327,35,77,25,246,30*62
$GLGSV,2,2,08,65,40,179,37,75,39,045,43,66,70,277,46,85,10,082,*6E
$GAGSV,3,1,10,08,69,290,41,30,14,218,26,07,18,311,41,16,30,051,*63
$GAGSV,3,2,10,03,52,148,45,25,55,060,45,02,64,196,48,05,03,137,*61
$GAGSV,3,3,10,24,06,046,,33,03,353,*6D
$GBGSV,5,1,20,26,70,263,42,21,35,189,41,05,20,130,,40,28,046,32*67
$GBGSV,5,2,20,33,20,320,19,29,16,087,,24,19,251,32,07,28,057,40*64
$GBGSV,5,3,20,14,41,300,41,50,51,216,,56,33,079,,10,36,070,34*64
$GBGSV,5,4,20,45,48,063,43,42,55,263,49,09,02,092,,36,01,068,*61
$GBGSV,5,5,20,35,01,140,,02,04,109,,30,09,035,,60,07,112,*6A
$GPGGA,094607.00,,,,,0,00,,,M,,M,,*44
$PTNL,GGK,094607.00,010125,4742.4461115,N,01617.9727832,E,1,21,1.5,EHT668.1854,M*45
$GPGGQ,094607.00,010125,4742.4461115,N,01617.9727832,E,1,21,5.915,624.9743,M*3E
$GPGFA,094607.00,26.482,41.893,2.785,1.061,351.121,5.109,,VVV*04
$GPLLK,094607.00,010125,,M,,M,1,21,1.7,,M*02
$GNGMP,094607.00,,,,,DAAA,21,0.7,,,,*5E
$GPGMP,094607.00,,,,,,05,,,,1.4,123*71
$GLGMP,094607.00,,,,,,05,,,,,*76
$GAGMP,094607.00,,,,,,05,,,,,*7B
$GBGMP,094607.00,,,,,,06,,,,,*7B
$PSSN,SNC,[0,294385000,2347]*45
$GPZDA,094612.00,01,01,2025,,*6B
$GPDTM,W84,,00.0000000,N,00.0000000,E,00.0000000,W84*5F
$GPRMC,094612.00,A,4742.4461191,N,01617.9727883,E,0.0,,010125,5.1,E,D*17
$GPGLL,4742.4461191,N,01617.9727883,E,094612.00,A,D*66
$GPGGA,094612.00,4742.4461191,N,01617.9727883,E,2,21,0.7,624.9710,M,43.2111,M,2.3,0123*45
$GNGNS,094612.00,4742.4461191,N,01617.9727883,E,DAAA,21,0.7,624.9710,43.2111,,*58
$GPGNS,094612.00,,,,,,04,,,,2.3,123*70
$GLGNS,094612.00,,,,,,05,,,,,*72
$GAGNS,094612.00,,,,,,05,,,,,*7F
$GBGNS,094612.00,,,,,,07,,,,,*7E
$GPLLQ,094612.00,010125,,M,,M,1,21,4.144,,M*1F
$GPVTG,,T,,M,0.00,N,0.01,K,D*27
$GPHDT,,T*1B
$GPTHS,,V*0E
$GPROT,,V*08
$PSSN,HRP,094612.00,010125,,,,,,,00,0,,*69
$PTNL,AVR,094612.00,,Yaw,,Tilt,,,,0,,00*3F
$GPGSA,A,3,13,15,23,24,,,,,,,,,1.4,0.7,1.2*32
$GPGSA,A,3,65,66,67,75,76,,,,,,,,1.4,0.7,1.2*32
$GPGSA,A,3,02,03,07,08,25,,,,,,,,1.4,0.7,1.2*3A
$GPGSA,A,3,07,14,21,26,33,42,45,,,,,,1.4,0.7,1.2*31
$GPGST,094612.00,3.982,2.614,1.089,21.669,2.462,1.399,3.026*63
$GPGBS,094612.00,10.163,6.118,20.128,23,0.0001,1.323,0.985*52
$GPGRS,094612.00,1,0.4,-0.2,1.3,-0.7,,,,,,,,*45
$GPGRS,094612.00,1,-1.9,-3.7,6.9,-5.3,-5.1,,,,,,,*69
$GPGRS,094612.00,1,0.7,0.5,-3.3,-0.3,-0.6,,,,,,,*42
$GPGRS,094612.00,1,-1.1,3.6,3.9,-1.5,-6.6,-2.9,-2.4,,,,,*43
$GPGSV,5,1,17,22,67,075,,19,22,139,30,05,11,209,31,23,24,305,41*70
$GPGSV,5,2,17,30,18,089,27,17,34,106,25,14,47,059,35,24,34,283,40*77
$GPGSV,5,3,17,13,67,150,48,15,67,263,47,21,00,029,,10,03,339,34*77
$GPGSV,5,4,17,12,05,220,,36,35,170,37,34,31,208,,49,34,195,*71
$GPGSV,5,5,17,61,03,257,*4B
$GLGSV,2,1,08,76,70,277,42,84,14,032,,67,23,327,38,77,25,246,31*6C
$GLGSV,2,2,08,65,40,179,37,75,39,045,42,66,70,276,45,85,10,082,*6D
$GAGSV,3,1,10,08,69,290,40,30,14,218,25,07,18,311,41,16,30,051,*61
$GAGSV,3,2,10,03,52,148,45,25,55,060,45,02,64,196,48,05,03,137,*61
$GAGSV,3,3,10,24,06,046,,33,03,353,*6D
$GBGSV,5,1,20,26,70,263,40,21,35,189,36,05,20,130,,40,28,046,31*66
$GBGSV,5,2,20,33,20,320,36,29,16,087,,24,19,251,31,07,28,057,39*64
$GBGSV,5,3,20,14,41,300,41,50,51,216,,56,33,079,,10,37,070,34*65
$GBGSV,5,4,20,45,48,063,43,42,55,263,48,09,02,092,,36,01,068,*60
$GBGSV,5,5,20,35,01,140,,02,04,109,,30,09,035,,60,07,112,*6A
$GPGGA,094612.00,,,,,0,00,,,M,,M,,*40
$PTNL,GGK,094612.00,010125,4742.4461191,N,01617.9727883,E,1,21,1.4,EHT668.1821,M*44
$GPGGQ,094612.00,010125,4742.4461191,N,01617.9727883,E,1,21,4.144,624.9710,M*37
$GPGFA,094612.00,24.853,24.813,2.614,1.089,21.669,3.026,,VVV*33
$GPLLK,094612.00,010125,,M,,M,1,21,1.7,,M*06
$GNGMP,094612.00,,,,,DAAA,21,0.7,,,,*5A
$GPGMP,094612.00,,,,,,04,,,,2.3,123*70
$GLGMP,094612.00,,,,,,05,,,,,*72
$GAGMP,094612.00,,,,,,05,,,,,*7F
$GBGMP,094612.00,,,,,,07,,,,,*7E
$PSSN,SNC,[0,294390000,2347]*41
$GPZDA,094617.00,01,01,2025,,*6E
$GPDTM,W84,,00.0000000,N,00.0000000,E,00.0000000,W84*5F
$GPRMC,094617.00,A,4742.4461164,N,01617.9727903,E,0.0,,010125,5.1,E,D*11
$GPGLL,4742.4461164,N,01617.9727903,E,094617.00,A,D*60
$GPGGA,094617.00,4742.4461164,N,01617.9727903,E,2,20,0.7,624.9767,M,43.2111,M,3.3,0123*43
$GNGNS,094617.00,4742.4461164,N,01617.9727903,E,DAAA,20,0.7,624.9767,43.2111,,*5F
$GPGNS,094617.00,,,,,,04,,,,3.3,123*74
$GLGNS,094617.00,,,,,,05,,,,,*77
$GAGNS,094617.00,,,,,,05,,,,,*7A
$GBGNS,094617.00,,,,,,06,,,,,*7A
$GPLLQ,094617.00,010125,,M,,M,1,20,4.177,,M*1B
$GPVTG,,T,,M,0.01,N,0.01,K,D*26
$GPHDT,,T*1B
$GPTHS,,V*0E
$GPROT,,V*08
$PSSN,HRP,094617.00,010125,,,,,,,00,0,,*6C
$PTNL,AVR,094617.00,,Yaw,,Tilt,,,,0,,00*3A
$GPGSA,A,3,13,15,23,24,,,,,,,,,1.5,0.7,1.3*32
$GPGSA,A,3,65,66,67,75,76,,,,,,,,1.5,0.7,1.3*32
$GPGSA,A,3,02,03,07,08,25,,,,,,,,1.5,0.7,1.3*3A
$GPGSA,A,3,07,14,21,26,42,45,,,,,,,1.5,0.7,1.3*31
$GPGST,094617.00,4.320,2.655,1.081,21.134,2.507,1.391,3.037*6B
$GPGBS,094617.00,10.093,6.212,20.386,67,0.0001,10.387,6.208*60
$GPGRS,094617.00,1,0.1,-0.3,1.1,0.2,,,,,,,,*6E
$GPGRS,094617.00,1,-2.2,-3.4,10.4,-5.9,-1.2,,,,,,,*50
$GPGRS,094617.00,1,0.4,-0.2,-3.2,-0.2,-0.8,,,,,,,*60
$GPGRS,094617.00,1,-1.2,6.2,-3.2,-2.5,-2.6,-2.6,,,,,,*6F
$GPGSV,5,1,17,22,67,075,,19,22,139,33,05,11,209,29,23,24,305,44*7F
$GPGSV,5,2,17,30,18,089,26,17,34,106,35,14,47,059,35,24,34,283,40*77
$GPGSV,5,3,17,13,67,150,48,15,67,263,46,21,00,029,,10,03,339,32*70
$GPGSV,5,4,17,12,05,220,,36,35,170,37,34,31,208,,49,34,195,*71
$GPGSV,5,5,17,61,03,257,*4B
$GLGSV,2,1,08,76,70,277,40,84,14,032,,67,23,327,41,77,25,246,31*60
$GLGSV,2,2,08,65,40,179,37,75,39,045,42,66,70,276,46,85,10,082,*6E
$GAGSV,3,1,10,08,69,290,39,30,14,218,22,07,18,311,41,16,30,051,*68
$GAGSV,3,2,10,03,52,148,45,25,55,060,45,02,64,196,47,05,03,137,*6E
$GAGSV,3,3,10,24,06,046,,33,03,353,*6D
$GBGSV,5,1,20,26,70,263,39,21,35,189,37,05,20,130,,40,28,046,31*69
$GBGSV,5,2,20,33,20,319,26,29,16,087,,24,19,251,28,07,28,057,39*67
$GBGSV,5,3,20,14,41,300,41,50,51,216,,56,33,079,,10,37,070,34*65
$GBGSV,5,4,20,45,48,063,44,42,55,263,48,09,02,092,,36,01,068,*67
$GBGSV,5,5,20,35,01,140,,02,04,109,,30,09,035,,60,07,112,*6A
$GPGGA,094617.00,,,,,0,00,,,M,,M,,*45
$PTNL,GGK,094617.00,010125,4742.4461164,N,01617.9727903,E,1,20,1.5,EHT668.1878,M*4E
$GPGGQ,094617.00,010125,4742.4461164,N,01617.9727903,E,1,20,4.177,624.9767,M*30
$GPGFA,094617.00,25.244,24.907,2.655,1.081,21.134,3.037,,VVV*3D
$GPLLK,094617.00,010125,,M,,M,1,20,1.7,,M*02
$GNGMP,094617.00,,,,,DAAA,20,0.7,,,,*5E
$GPGMP,094617.00,,,,,,04,,,,3.3,123*74
$GLGMP,094617.00,,,,,,05,,,,,*77
$GAGMP,094617.00,,,,,,05,,,,,*7A
$GBGMP,094617.00,,,,,,06,,,,,*7A
$PSSN,SNC,[0,294395000,2347]*44
$GPZDA,094622.00,01,01,2025,,*68
$GPDTM,W84,,00.0000000,N,00.0000000,E,00.0000000,W84*5F
$GPRMC,094622.00,A,4742.4461184,N,01617.9728020,E,0.0,,010125,5.1,E,D*1E
$GPGLL,4742.4461184,N,01617.9728020,E,094622.00,A,D*6F
$GPGGA,094622.00,4742.4461184,N,01617.9728020,E,2,21,0.7,624.9864,M,43.2111,M,2.8,0123*4B
$GNGNS,094622.00,4742.4461184,N,01617.9728020,E,DAAA,21,0.7,624.9864,43.2111,,*5D
$GPGNS,094622.00,,,,,,05,,,,2.8,123*79
$GLGNS,094622.00,,,,,,05,,,,,*71
$GAGNS,094622.00,,,,,,05,,,,,*7C
$GBGNS,094622.00,,,,,,06,,,,,*7C
$GPLLQ,094622.00,010125,,M,,M,1,21,4.520,,M*1A
$GPVTG,,T,,M,0.01,N,0.01,K,D*26
$GPHDT,,T*1B
$GPTHS,,V*0E
$GPROT,,V*08
$PSSN,HRP,094622.00,010125,,,,,,,00,0,,*6A
$PTNL,AVR,094622.00,,Yaw,,Tilt,,,,0,,00*3C
$GPGSA,A,3,13,14,15,23,24,,,,,,,,1.4,0.7,1.3*36
$GPGSA,A,3,65,66,67,75,76,,,,,,,,1.4,0.7,1.3*33
$GPGSA,A,3,02,03,07,08,25,,,,,,,,1.4,0.7,1.3*3B
$GPGSA,A,3,07,14,21,26,42,45,,,,,,,1.4,0.7,1.3*30
$GPGST,094622.00,5.795,2.127,0.808,351.079,2.105,0.864,3.905*5E
$GPGBS,094622.00,9.299,3.906,20.774,67,0.0001,19.049,6.206*52
$GPGRS,094622.00,1,0.1,-0.4,0.0,0.4,0.3,,,,,,,*44
$GPGRS,094622.00,1,-1.9,-3.0,19.0,-5.8,-2.2,,,,,,,*55
$GPGRS,094622.00,1,0.3,-0.4,-2.8,0.5,-0.7,,,,,,,*49
$GPGRS,094622.00,1,-0.9,3.9,-3.3,-3.0,-1.9,-2.5,,,,,,*67
$GPGSV,5,1,17,22,67,075,,19,22,139,35,05,11,209,28,23,24,305,44*78
$GPGSV,5,2,17,30,18,089,26,17,34,106,28,14,47,059,39,24,34,283,40*77
$GPGSV,5,3,17,13,67,150,48,15,67,262,46,21,00,029,,10,03,339,29*7B
$GPGSV,5,4,17,12,05,220,,36,35,170,37,34,31,208,,49,34,195,*71
$GPGSV,5,5,17,61,03,257,*4B
$GLGSV,2,1,08,76,70,277,41,84,14,032,,67,23,327,43,85,10,082,*60
$GLGSV,2,2,08,65,40,179,37,77,25,246,32,75,39,045,41,66,70,276,46*6D
$GAGSV,3,1,10,08,69,289,38,30,14,218,21,07,18,311,40,16,30,051,*63
$GAGSV,3,2,10,03,52,148,45,25,55,060,45,02,64,196,46,05,03,137,*6F
$GAGSV,3,3,10,24,06,046,,33,03,353,*6D
$GBGSV,5,1,20,26,70,263,40,21,35,189,37,05,20,130,,40,28,046,31*67
$GBGSV,5,2,20,33,20,319,28,29,16,087,,24,19,251,30,07,28,057,39*60
$GBGSV,5,3,20,14,41,300,41,50,51,216,,56,33,079,,10,37,070,35*64
$GBGSV,5,4,20,45,48,063,44,42,55,263,47,09,02,092,,36,01,068,*68
$GBGSV,5,5,20,35,01,140,,02,04,109,,30,09,035,,60,07,112,*6A
$GPGGA,094622.00,,,,,0,00,,,M,,M,,*43
$PTNL,GGK,094622.00,010125,4742.4461184,N,01617.9728020,E,1,21,1.4,EHT668.1975,M*4D
$GPGGQ,094622.00,010125,4742.4461184,N,01617.9728020,E,1,21,4.520,624.9864,M*34
$GPGFA,094622.00,20.224,32.024,2.127,0.808,351.079,3.905,,VVV*09
$GPLLK,094622.00,010125,,M,,M,1,21,1.7,,M*05
$GNGMP,094622.00,,,,,DAAA,21,0.7,,,,*59
$GPGMP,094622.00,,,,,,05,,,,2.8,123*79
$GLGMP,094622.00,,,,,,05,,,,,*71
$GAGMP,094622.00,,,,,,05,,,,,*7C
$GBGMP,094622.00,,,,,,06,,,,,*7C
$PSSN,SNC,[0,294400000,2347]*4F
$GPZDA,094627.00,01,01,2025,,*6D
$GPDTM,W84,,00.0000000,N,00.0000000,E,00.0000000,W84*5F
$GPRMC,094627.00,A,4742.4461174,N,01617.9728032,E,0.0,,010125,5.1,E,D*17
$GPGLL,4742.4461174,N,01617.9728032,E,094627.00,A,D*66
$GPGGA,094627.00,4742.4461174,N,01617.9728032,E,2,20,1.1,624.9922,M,43.2111,M,1.4,0123*48
$GNGNS,094627.00,4742.4461174,N,01617.9728032,E,DAAA,20,1.1,624.9922,43.2111,,*51
$GPGNS,094627.00,,,,,,05,,,,1.4,123*73
$GLGNS,094627.00,,,,,,04,,,,,*75
$GAGNS,094627.00,,,,,,05,,,,,*79
$GBGNS,094627.00,,,,,,06,,,,,*79
$GPLLQ,094627.00,010125,,M,,M,1,20,5.676,,M*1F
$GPVTG,,T,,M,0.01,N,0.01,K,D*26
$GPHDT,,T*1B
$GPTHS,,V*0E
$GPROT,,V*08
$PSSN,HRP,094627.00,010125,,,,,,,00,0,,*6F
$PTNL,AVR,094627.00,,Yaw,,Tilt,,,,0,,00*39
$GPGSA,A,3,13,14,15,23,24,,,,,,,,2.1,1.1,1.7*33
$GPGSA,A,3,66,67,75,76,,,,,,,,,2.1,1.1,1.7*35
$GPGSA,A,3,02,03,07,08,25,,,,,,,,2.1,1.1,1.7*3E
$GPGSA,A,3,07,10,14,26,42,45,,,,,,,2.1,1.1,1.7*37
$GPGST,094627.00,7.102,2.710,0.928,351.076,2.681,1.009,4.900*54
$GPGBS,094627.00,11.529,3.947,22.640,67,0.0001,24.098,6.205*62
$GPGRS,094627.00,1,-0.2,0.3,0.1,-0.8,0.1,,,,,,,*67
$GPGRS,094627.00,1,-3.7,24.1,-2.2,-4.3,,,,,,,,*59
$GPGRS,094627.00,1,-0.2,-0.3,-2.5,0.8,-0.8,,,,,,,*68
$GPGRS,094627.00,1,-1.2,-1.0,2.1,-3.1,-2.1,-3.0,,,,,,*6E
$GPGSV,5,1,17,22,67,075,,19,22,139,36,05,11,209,28,23,24,305,44*7B
$GPGSV,5,2,17,30,18,089,28,17,34,106,32,14,47,059,42,24,34,283,39*70
$GPGSV,5,3,17,13,67,150,49,15,67,262,45,21,00,029,,10,03,339,27*77
$GPGSV,5,4,17,12,05,220,,36,35,170,37,34,31,208,,49,34,195,*71
$GPGSV,5,5,17,61,03,257,*4B
$GLGSV,2,1,08,76,70,278,41,84,14,032,30,67,23,327,44,85,10,082,*6B
$GLGSV,2,2,08,65,40,179,34,77,25,246,34,75,39,045,42,66,70,276,47*6A
$GAGSV,3,1,10,08,69,289,39,30,14,218,21,07,18,311,40,16,30,051,*62
$GAGSV,3,2,10,03,52,148,45,25,55,060,45,02,64,196,45,05,03,137,*6C
$GAGSV,3,3,10,24,06,046,,33,03,353,*6D
$GBGSV,5,1,20,26,70,263,41,21,35,189,32,05,20,130,,40,28,046,30*62
$GBGSV,5,2,20,33,20,319,29,29,16,087,,24,19,251,29,07,28,057,38*68
$GBGSV,5,3,20,14,41,300,39,50,51,216,,56,33,079,,10,37,070,35*6B
$GBGSV,5,4,20,45,48,063,45,42,55,263,48,09,02,092,,36,01,068,*66
$GBGSV,5,5,20,35,01,140,,02,04,109,,30,09,035,,60,07,112,*6A
$GPGGA,094627.00,,,,,0,00,,,M,,M,,*46
$PTNL,GGK,094627.00,010125,4742.4461174,N,01617.9728032,E,1,20,2.1,EHT668.2033,M*4B
$GPGGQ,094627.00,010125,4742.4461174,N,01617.9728032,E,1,20,5.676,624.9922,M*3E
$GPGFA,094627.00,25.768,40.179,2.710,0.928,351.076,4.900,,VVV*04
$GPLLK,094627.00,010125,,M,,M,1,20,2.5,,M*00
$GNGMP,094627.00,,,,,DAAA,20,1.1,,,,*5A
$GPGMP,094627.00,,,,,,05,,,,1.4,123*73
$GLGMP,094627.00,,,,,,04,,,,,*75
$GAGMP,094627.00,,,,,,05,,,,,*79
$GBGMP,094627.00,,,,,,06,,,,,*79
$PSSN,SNC,[0,294405000,2347]*4A
$GPZDA,094632.00,01,01,2025,,*69
$GPDTM,W84,,00.0000000,N,00.0000000,E,00.0000000,W84*5F
$GPRMC,094632.00,A,4742.4461245,N,01617.9727892,E,0.0,,010125,5.1,E,D*1F
$GPGLL,4742.4461245,N,01617.9727892,E,094632.00,A,D*6E
$GPGGA,094632.00,4742.4461245,N,01617.9727892,E,2,22,0.7,625.0100,M,43.2111,M,2.3,0123*41
$GNGNS,094632.00,4742.4461245,N,01617.9727892,E,DAAA,22,0.7,625.0100,43.2111,,*5C
$GPGNS,094632.00,,,,,,06,,,,2.3,123*70
