$GPZDA,015942.00,01,01,2025,,*68
$GPDTM,W84,,00.0000000,N,00.0000000,E,00.0000000,W84*5F
$GPRMC,015942.00,A,4742.4465270,N,01617.9727141,E,0.0,,010125,5.1,E,D*1B
$GPGLL,4742.4465270,N,01617.9727141,E,015942.00,A,D*6A
$GPGGA,015942.00,4742.4465270,N,01617.9727141,E,2,21,0.7,625.2831,M,43.2111,M,2.5,0123*49
$GNGNS,015942.00,4742.4465270,N,01617.9727141,E,DAAA,21,0.7,625.2831,43.2111,,*52
$GPGNS,015942.00,,,,,,06,,,,2.5,123*77
$GLGNS,015942.00,,,,,,03,,,,,*77
$GAGNS,015942.00,,,,,,06,,,,,*7F
$GBGNS,015942.00,,,,,,06,,,,,*7C
$GPLLQ,015942.00,010125,,M,,M,1,21,1.905,,M*14
$GPVTG,,T,,M,0.00,N,0.01,K,D*27
$GPHDT,,T*1B
$GPTHS,,V*0E
$GPROT,,V*08
$PSSN,HRP,015942.00,010125,,,,,,,00,0,,*6A
$PTNL,AVR,015942.00,,Yaw,,Tilt,,,,0,,00*3C
$GPGSA,A,3,02,03,04,06,17,31,,,,,,,1.4,0.7,1.2*34
$GPGSA,A,3,69,85,86,,,,,,,,,,1.4,0.7,1.2*3F
$GPGSA,A,3,04,06,09,11,34,36,,,,,,,1.4,0.7,1.2*3A
$GPGSA,A,3,06,09,19,20,29,35,,,,,,,1.4,0.7,1.2*3B
$GPGST,015942.00,1.888,0.768,0.669,2.154,0.767,0.669,1.610*5E
$GPGBS,015942.00,3.717,3.159,6.611,04,0.0001,1.512,0.607*5B
$GPGRS,015942.00,1,-1.2,-0.8,1.5,1.1,0.6,0.4,,,,,,*48
$GPGRS,015942.00,1,-1.0,2.6,-2.0,,,,,,,,,*6C
$GPGRS,015942.00,1,1.1,1.2,1.8,-0.6,-0.2,1.2,,,,,,*48
$GPGRS,015942.00,1,-0.7,-1.1,0.1,-1.7,4.1,-1.8,,,,,,*49
$GPGSV,4,1,15,03,74,051,43,06,22,313,41,21,19,153,28,28,22,046,28*7D
$GPGSV,4,2,15,19,31,289,29,17,32,255,43,02,37,159,43,09,36,224,33*7F
$GPGSV,4,3,15,31,34,075,47,01,42,149,,04,65,208,36,36,35,170,42*7E
$GPGSV,4,4,15,34,31,208,,49,34,195,36,61,03,257,*44
$GLGSV,2,1,08,85,70,241,53,86,31,324,49,78,14,027,21,79,14,077,*66
$GLGSV,2,2,08,84,29,171,31,71,20,247,30,69,37,045,38,70,65,278,33*61
$GAGSV,3,1,09,36,78,266,43,10,16,142,26,05,24,219,29,18,21,294,*6E
$GAGSV,3,2,09,34,28,312,44,04,45,056,44,11,43,147,42,06,71,077,45*69
$GAGSV,3,3,09,09,76,182,50*57
$GBGSV,5,1,19,48,83,313,,23,12,045,25,44,12,324,25,32,14,068,25*69
$GBGSV,5,2,19,39,26,043,22,05,24,128,,37,16,095,,29,38,201,39*63
$GBGSV,5,3,19,16,32,052,32,06,33,056,39,35,44,286,40,09,39,072,40*66
$GBGSV,5,4,19,19,56,262,49,20,68,050,52,22,05,252,,46,01,143,*69
$GBGSV,5,5,19,02,08,105,,58,05,127,,60,09,110,*5E
$GPGGA,015942.00,,,,,0,00,,,M,,M,,*43
$PTNL,GGK,015942.00,010125,4742.4465270,N,01617.9727141,E,1,21,1.4,EHT668.4942,M*49
$GPGGQ,015942.00,010125,4742.4465270,N,01617.9727141,E,1,21,1.905,625.2831,M*35
$GPGFA,015942.00,7.298,13.200,0.768,0.669,2.154,1.610,,VVV*38
$GPLLK,015942.00,010125,,M,,M,1,21,1.7,,M*05
$GNGMP,015942.00,,,,,DAAA,21,0.7,,,,*59
$GPGMP,015942.00,,,,,,06,,,,2.5,123*77
$GLGMP,015942.00,,,,,,03,,,,,*77
$GAGMP,015942.00,,,,,,06,,,,,*7F
$GBGMP,015942.00,,,,,,06,,,,,*7C
$PSSN,SNC,[0,266400000,2347]*42
$GPZDA,015947.00,01,01,2025,,*6D
$GPDTM,W84,,00.0000000,N,00.0000000,E,00.0000000,W84*5F
$GPRMC,015947.00,A,4742.4465197,N,01617.9727238,E,0.0,,010125,5.1,E,D*19
$GPGLL,4742.4465197,N,01617.9727238,E,015947.00,A,D*68
$GPGGA,015947.00,4742.4465197,N,01617.9727238,E,2,21,0.7,625.2780,M,43.2111,M,2.8,0123*43
$GNGNS,015947.00,4742.4465197,N,01617.9727238,E,DAAA,21,0.7,625.2780,43.2111,,*55
$GPGNS,015947.00,,,,,,06,,,,2.8,123*7F
$GLGNS,015947.00,,,,,,03,,,,,*72
$GAGNS,015947.00,,,,,,06,,,,,*7A
$GBGNS,015947.00,,,,,,06,,,,,*79
$GPLLQ,015947.00,010125,,M,,M,1,21,1.637,,M*1F
$GPVTG,,T,,M,0.00,N,0.00,K,D*26
$GPHDT,,T*1B
$GPTHS,,V*0E
$GPROT,,V*08
$PSSN,HRP,015947.00,010125,,,,,,,00,0,,*6F
$PTNL,AVR,015947.00,,Yaw,,Tilt,,,,0,,00*39
$GPGSA,A,3,02,03,04,06,17,31,,,,,,,1.4,0.7,1.2*34
$GPGSA,A,3,69,85,86,,,,,,,,,,1.4,0.7,1.2*3F
$GPGSA,A,3,04,06,09,11,34,36,,,,,,,1.4,0.7,1.2*3A
$GPGSA,A,3,06,09,19,20,29,35,,,,,,,1.4,0.7,1.2*3B
$GPGST,015947.00,1.606,0.657,0.567,2.617,0.657,0.567,1.388*58
$GPGBS,015947.00,3.770,3.168,6.737,02,0.0001,-1.358,0.700*7D
$GPGRS,015947.00,1,-1.4,-0.6,0.5,1.3,0.6,0.6,,,,,,*44
$GPGRS,015947.00,1,-0.2,2.4,-2.3,,,,,,,,,*6B
$GPGRS,015947.00,1,1.3,1.4,2.0,-0.6,0.0,1.0,,,,,,*6F
$GPGRS,015947.00,1,-1.1,-1.4,0.5,-1.7,-1.9,-1.0,,,,,,*62
$GPGSV,4,1,15,03,74,051,45,06,22,313,41,21,19,153,25,28,22,046,26*78
$GPGSV,4,2,15,19,31,289,24,17,32,255,43,02,37,159,42,09,36,224,33*73
$GPGSV,4,3,15,31,34,074,46,01,42,149,,04,65,208,37,36,35,170,42*7F
$GPGSV,4,4,15,34,31,208,,49,34,195,37,61,03,257,*45
$GLGSV,2,1,08,85,70,240,53,86,31,324,47,78,14,027,,79,14,077,*6A
$GLGSV,2,2,08,84,29,171,29,71,20,247,35,69,37,045,39,70,65,278,33*6C
$GAGSV,3,1,09,36,78,265,42,10,16,142,25,05,24,219,20,18,21,294,*66
$GAGSV,3,2,09,34,28,312,45,04,45,056,44,11,43,147,42,06,71,077,44*69
$GAGSV,3,3,09,09,76,182,51*56
$GBGSV,5,1,19,48,83,313,,23,12,045,25,44,12,324,27,32,13,068,23*6A
$GBGSV,5,2,19,39,26,043,20,05,24,128,,37,16,095,,29,38,201,38*60
$GBGSV,5,3,19,16,32,052,35,06,33,056,39,35,44,286,40,09,39,072,40*61
$GBGSV,5,4,19,19,56,262,48,20,68,050,51,22,05,252,,46,01,143,*6B
$GBGSV,5,5,19,02,08,105,,58,05,127,,60,09,110,*5E
$GPGGA,015947.00,,,,,0,00,,,M,,M,,*46
$PTNL,GGK,015947.00,010125,4742.4465197,N,01617.9727238,E,1,21,1.4,EHT668.4891,M*44
$GPGGQ,015947.00,010125,4742.4465197,N,01617.9727238,E,1,21,1.637,625.2780,M*3C
$GPGFA,015947.00,6.250,11.380,0.657,0.567,2.617,1.388,,VVV*37
$GPLLK,015947.00,010125,,M,,M,1,21,1.7,,M*00
$GNGMP,015947.00,,,,,DAAA,21,0.7,,,,*5C
$GPGMP,015947.00,,,,,,06,,,,2.8,123*7F
$GLGMP,015947.00,,,,,,03,,,,,*72
$GAGMP,015947.00,,,,,,06,,,,,*7A
$GBGMP,015947.00,,,,,,06,,,,,*79
$PSSN,SNC,[0,266405000,2347]*47
$GPZDA,015952.00,01,01,2025,,*69
$GPDTM,W84,,00.0000000,N,00.0000000,E,00.0000000,W84*5F
$GPRMC,015952.00,A,4742.4465108,N,01617.9727301,E,0.0,,010125,5.1,E,D*10
$GPGLL,4742.4465108,N,01617.9727301,E,015952.00,A,D*61
$GPGGA,015952.00,4742.4465108,N,01617.9727301,E,2,24,0.6,625.2781,M,43.2111,M,3.3,0123*45
$GNGNS,015952.00,4742.4465108,N,01617.9727301,E,DAAA,24,0.6,625.2781,43.2111,,*59
$GPGNS,015952.00,,,,,,07,,,,3.3,123*70
$GLGNS,015952.00,,,,,,04,,,,,*71
$GAGNS,015952.00,,,,,,07,,,,,*7F
$GBGNS,015952.00,,,,,,06,,,,,*7D
$GPLLQ,015952.00,010125,,M,,M,1,24,1.735,,M*1D
$GPVTG,,T,,M,0.00,N,0.01,K,D*27
$GPHDT,,T*1B
$GPTHS,,V*0E
$GPROT,,V*08
$PSSN,HRP,015952.00,010125,,,,,,,00,0,,*6B
$PTNL,AVR,015952.00,,Yaw,,Tilt,,,,0,,00*3D
$GPGSA,A,3,02,03,04,06,09,17,31,,,,,,1.2,0.6,1.1*39
$GPGSA,A,3,69,71,85,86,,,,,,,,,1.2,0.6,1.1*3D
$GPGSA,A,3,04,05,06,09,11,34,36,,,,,,1.2,0.6,1.1*3B
$GPGSA,A,3,06,09,19,20,29,35,,,,,,,1.2,0.6,1.1*3F
$GPGST,015952.00,3.002,0.636,0.530,346.200,0.630,0.537,1.525*5D
$GPGBS,015952.00,3.116,2.985,6.699,02,0.0001,-1.286,0.720*70
$GPGRS,015952.00,1,-1.3,0.1,0.0,1.2,0.0,0.3,0.3,,,,,*47
$GPGRS,015952.00,1,1.2,1.7,2.2,-3.4,,,,,,,,*6B
$GPGRS,015952.00,1,0.6,9.4,1.8,1.6,-0.7,-0.6,0.6,,,,,*68
$GPGRS,015952.00,1,-1.5,-1.2,0.1,-2.4,-4.7,-0.9,,,,,,*63
$GPGSV,4,1,15,03,73,051,45,06,22,313,41,21,19,153,,28,22,046,26*78
$GPGSV,4,2,15,19,31,289,29,17,32,255,44,02,37,159,42,09,36,224,35*7F
$GPGSV,4,3,15,31,34,074,46,01,42,149,,04,65,208,36,36,35,170,42*7E
$GPGSV,4,4,15,34,31,208,,49,34,195,37,61,03,257,*45
$GLGSV,2,1,08,85,70,240,53,86,31,324,47,78,14,027,27,79,14,077,*6F
$GLGSV,2,2,08,84,29,171,27,71,20,247,37,69,37,045,39,70,65,278,32*61
$GAGSV,3,1,09,36,78,265,42,10,16,142,25,05,24,219,26,18,21,294,*60
$GAGSV,3,2,09,34,28,312,44,04,45,056,43,11,43,147,43,06,71,077,44*6E
$GAGSV,3,3,09,09,76,182,51*56
$GBGSV,5,1,19,48,83,313,,23,12,045,,44,12,324,,32,13,068,21*6A
$GBGSV,5,2,19,39,26,043,24,05,24,128,,37,16,095,,29,38,201,37*6B
$GBGSV,5,3,19,16,32,052,34,06,33,056,40,35,44,286,40,09,39,072,39*60
$GBGSV,5,4,19,19,56,262,48,20,68,051,52,22,05,252,,46,01,143,*69
$GBGSV,5,5,19,02,08,105,,58,05,127,,60,09,110,*5E
$GPGGA,015952.00,,,,,0,00,,,M,,M,,*42
$PTNL,GGK,015952.00,010125,4742.4465108,N,01617.9727301,E,1,24,1.2,EHT668.4891,M*4E
$GPGGQ,015952.00,010125,4742.4465108,N,01617.9727301,E,1,24,1.735,625.2781,M*32
$GPGFA,015952.00,6.044,12.502,0.636,0.530,346.200,1.525,,VVV*3E
$GPLLK,015952.00,010125,,M,,M,1,24,1.5,,M*03
$GNGMP,015952.00,,,,,DAAA,24,0.6,,,,*5C
$GPGMP,015952.00,,,,,,07,,,,3.3,123*70
$GLGMP,015952.00,,,,,,04,,,,,*71
$GAGMP,015952.00,,,,,,07,,,,,*7F
$GBGMP,015952.00,,,,,,06,,,,,*7D
$PSSN,SNC,[0,266410000,2347]*43
$GPZDA,015957.00,01,01,2025,,*6C
$GPDTM,W84,,00.0000000,N,00.0000000,E,00.0000000,W84*5F
$GPRMC,015957.00,A,4742.4465051,N,01617.9727401,E,0.0,,010125,5.1,E,D*1F
$GPGLL,4742.4465051,N,01617.9727401,E,015957.00,A,D*6E
$GPGGA,015957.00,4742.4465051,N,01617.9727401,E,2,20,0.7,625.2690,M,43.2111,M,1.5,0123*4A
$GNGNS,015957.00,4742.4465051,N,01617.9727401,E,DAAA,20,0.7,625.2690,43.2111,,*52
$GPGNS,015957.00,,,,,,06,,,,1.5,123*70
$GLGNS,015957.00,,,,,,03,,,,,*73
$GAGNS,015957.00,,,,,,06,,,,,*7B
$GBGNS,015957.00,,,,,,05,,,,,*7B
$GPLLQ,015957.00,010125,,M,,M,1,20,1.843,,M*12
$GPVTG,,T,,M,0.00,N,0.00,K,D*26
$GPHDT,,T*1B
$GPTHS,,V*0E
$GPROT,,V*08
$PSSN,HRP,015957.00,010125,,,,,,,00,0,,*6E
$PTNL,AVR,015957.00,,Yaw,,Tilt,,,,0,,00*38
$GPGSA,A,3,02,03,04,06,17,31,,,,,,,1.5,0.7,1.3*34
$GPGSA,A,3,69,85,86,,,,,,,,,,1.5,0.7,1.3*3F
$GPGSA,A,3,04,06,09,11,34,36,,,,,,,1.5,0.7,1.3*3A
$GPGSA,A,3,06,09,19,20,35,,,,,,,,1.5,0.7,1.3*30
$GPGST,015957.00,1.937,0.754,0.629,359.703,0.754,0.629,1.559*57
$GPGBS,015957.00,3.669,3.094,6.410,02,0.0001,-1.930,0.671*72
$GPGRS,015957.00,1,-1.9,0.0,1.0,1.2,-0.1,0.3,,,,,,*49
$GPGRS,015957.00,1,2.2,1.8,-3.6,,,,,,,,,*4E
$GPGRS,015957.00,1,-0.0,1.3,1.2,-1.4,-1.0,0.3,,,,,,*6A
$GPGRS,015957.00,1,-0.8,-1.8,-0.7,-3.2,-0.9,,,,,,,*4C
$GPGSV,4,1,15,03,73,051,46,06,22,313,42,21,19,153,30,28,22,046,30*7C
$GPGSV,4,2,15,19,31,289,30,17,32,255,43,02,37,159,42,09,36,224,33*76
$GPGSV,4,3,15,31,34,074,46,01,42,149,,04,65,208,39,36,35,170,42*71
$GPGSV,4,4,15,34,31,208,,49,34,195,38,61,03,257,*4A
$GLGSV,2,1,08,85,70,240,53,86,31,324,45,78,14,027,22,79,14,077,*68
$GLGSV,2,2,08,84,29,171,29,71,20,247,34,69,37,045,38,70,65,279,30*6E
$GAGSV,3,1,09,36,78,265,42,10,16,142,25,05,25,219,26,18,21,294,*61
$GAGSV,3,2,09,34,28,312,44,04,45,056,42,11,43,147,43,06,71,077,44*6F
$GAGSV,3,3,09,09,76,182,51*56
$GBGSV,5,1,19,48,83,314,,23,12,045,,44,12,324,24,32,13,068,*68
$GBGSV,5,2,19,39,26,043,26,05,24,128,,37,16,095,,29,38,201,31*6F
$GBGSV,5,3,19,16,32,052,34,06,33,056,41,35,44,286,39,09,39,072,39*6F
$GBGSV,5,4,19,19,56,262,48,20,68,051,51,22,05,252,,46,01,143,*6A
$GBGSV,5,5,19,02,08,105,,58,05,127,,60,09,110,*5E
$GPGGA,015957.00,,,,,0,00,,,M,,M,,*47
$PTNL,GGK,015957.00,010125,4742.4465051,N,01617.9727401,E,1,20,1.5,EHT668.4800,M*4A
$GPGGQ,015957.00,010125,4742.4465051,N,01617.9727401,E,1,20,1.843,625.2690,M*36
$GPGFA,015957.00,7.171,12.784,0.754,0.629,359.703,1.559,,VVV*3C
$GPLLK,015957.00,010125,,M,,M,1,20,1.8,,M*0F
$GNGMP,015957.00,,,,,DAAA,20,0.7,,,,*5C
$GPGMP,015957.00,,,,,,06,,,,1.5,123*70
$GLGMP,015957.00,,,,,,03,,,,,*73
$GAGMP,015957.00,,,,,,06,,,,,*7B
$GBGMP,015957.00,,,,,,05,,,,,*7B
$PSSN,SNC,[0,266415000,2347]*46
$GPZDA,020002.00,01,01,2025,,*63
$GPDTM,W84,,00.0000000,N,00.0000000,E,00.0000000,W84*5F
$GPRMC,020002.00,A,4742.4464918,N,01617.9727452,E,0.0,,010125,5.1,E,D*13
$GPGLL,4742.4464918,N,01617.9727452,E,020002.00,A,D*62
$GPGGA,020002.00,4742.4464918,N,01617.9727452,E,2,19,0.8,625.2575,M,43.2111,M,2.6,0123*4B
$GNGNS,020002.00,4742.4464918,N,01617.9727452,E,DAAA,19,0.8,625.2575,43.2111,,*53
$GPGNS,020002.00,,,,,,05,,,,2.6,123*7C
$GLGNS,020002.00,,,,,,03,,,,,*7C
$GAGNS,020002.00,,,,,,06,,,,,*74
$GBGNS,020002.00,,,,,,05,,,,,*74
$GPLLQ,020002.00,010125,,M,,M,1,19,2.492,,M*14
$GPVTG,,T,,M,0.00,N,0.00,K,D*26
$GPHDT,,T*1B
$GPTHS,,V*0E
$GPROT,,V*08
$PSSN,HRP,020002.00,010125,,,,,,,00,0,,*61
$PTNL,AVR,020002.00,,Yaw,,Tilt,,,,0,,00*37
$GPGSA,A,3,02,03,06,17,31,,,,,,,,1.5,0.8,1.3*3F
$GPGSA,A,3,69,85,86,,,,,,,,,,1.5,0.8,1.3*30
$GPGSA,A,3,04,06,09,11,34,36,,,,,,,1.5,0.8,1.3*35
$GPGSA,A,3,06,09,19,20,35,,,,,,,,1.5,0.8,1.3*3F
$GPGST,020002.00,1.996,0.944,0.776,23.641,0.919,0.806,2.171*67
$GPGBS,020002.00,4.245,3.747,10.797,02,0.0001,-2.079,0.680*4B
$GPGRS,020002.00,1,-2.1,0.4,1.7,-0.9,1.2,,,,,,,*6B
$GPGRS,020002.00,1,0.7,2.0,-3.8,,,,,,,,,*43
$GPGRS,020002.00,1,0.6,1.7,1.8,-0.6,-0.2,1.0,,,,,,*42
$GPGRS,020002.00,1,-0.1,-1.7,-0.3,-2.9,0.7,,,,,,,*68
$GPGSV,4,1,15,03,73,051,47,06,22,313,42,21,19,153,29,28,22,046,30*75
$GPGSV,4,2,15,19,31,289,29,17,32,255,42,02,37,159,42,09,36,224,33*7F
$GPGSV,4,3,15,31,34,074,45,01,42,149,,04,65,208,41,36,35,170,42*7D
$GPGSV,4,4,15,34,31,208,,49,34,195,37,61,03,257,*45
$GLGSV,2,1,08,85,70,240,53,86,31,324,45,78,14,027,24,79,14,077,*6E
$GLGSV,2,2,08,84,29,171,30,71,20,247,28,69,37,045,37,70,65,279,29*6C
$GAGSV,3,1,09,36,79,265,42,10,16,142,25,05,25,219,31,18,21,293,*61
$GAGSV,3,2,09,34,28,312,44,04,45,056,42,11,42,147,43,06,71,076,44*6F
$GAGSV,3,3,09,09,76,182,51*56
$GBGSV,5,1,19,48,83,314,,23,12,045,29,44,12,324,29,32,13,068,22*6E
$GBGSV,5,2,19,39,26,043,26,05,24,128,,37,16,095,,29,38,201,26*69
$GBGSV,5,3,19,16,32,052,35,06,33,056,41,35,44,285,40,09,39,072,38*62
$GBGSV,5,4,19,19,56,263,48,20,68,051,51,22,05,253,,46,01,143,*6A
$GBGSV,5,5,19,02,08,105,,58,05,127,,60,09,110,*5E
$GPGGA,020002.00,,,,,0,00,,,M,,M,,*48
$PTNL,GGK,020002.00,010125,4742.4464918,N,01617.9727452,E,1,19,1.5,EHT668.4686,M*4C
$GPGGQ,020002.00,010125,4742.4464918,N,01617.9727452,E,1,19,2.492,625.2575,M*3B
$GPGFA,020002.00,8.974,17.804,0.944,0.776,23.641,2.171,,VVV*03
$GPLLK,020002.00,010125,,M,,M,1,19,1.8,,M*0A
$GNGMP,020002.00,,,,,DAAA,19,0.8,,,,*56
$GPGMP,020002.00,,,,,,05,,,,2.6,123*7C
$GLGMP,020002.00,,,,,,03,,,,,*7C
$GAGMP,020002.00,,,,,,06,,,,,*74
$GBGMP,020002.00,,,,,,05,,,,,*74
$PSSN,SNC,[0,266420000,2347]*40
$GPZDA,020007.00,01,01,2025,,*66
$GPDTM,W84,,00.0000000,N,00.0000000,E,00.0000000,W84*5F
$GPRMC,020007.00,A,4742.4464712,N,01617.9727415,E,0.0,,010125,5.1,E,D*11
$GPGLL,4742.4464712,N,01617.9727415,E,020007.00,A,D*60
$GPGGA,020007.00,4742.4464712,N,01617.9727415,E,2,20,0.7,625.2532,M,43.2111,M,2.8,0123*41
$GNGNS,020007.00,4742.4464712,N,01617.9727415,E,DAAA,20,0.7,625.2532,43.2111,,*57
$GPGNS,020007.00,,,,,,05,,,,2.8,123*77
$GLGNS,020007.00,,,,,,03,,,,,*79
$GAGNS,020007.00,,,,,,06,,,,,*71
$GBGNS,020007.00,,,,,,06,,,,,*72
$GPLLQ,020007.00,010125,,M,,M,1,20,3.017,,M*13
$GPVTG,,T,,M,0.00,N,0.00,K,D*26
$GPHDT,,T*1B
$GPTHS,,V*0E
$GPROT,,V*08
$PSSN,HRP,020007.00,010125,,,,,,,00,0,,*64
$PTNL,AVR,020007.00,,Yaw,,Tilt,,,,0,,00*32
$GPGSA,A,3,02,03,06,17,31,,,,,,,,1.4,0.7,1.3*31
$GPGSA,A,3,69,85,86,,,,,,,,,,1.4,0.7,1.3*3E
$GPGSA,A,3,04,06,09,11,34,36,,,,,,,1.4,0.7,1.3*3B
$GPGSA,A,3,06,09,19,20,29,35,,,,,,,1.4,0.7,1.3*3A
$GPGST,020007.00,2.292,1.134,0.935,22.219,1.108,0.966,2.635*68
$GPGBS,020007.00,4.242,3.706,11.051,02,0.0001,-2.593,0.696*46
$GPGRS,020007.00,1,-2.6,1.1,1.2,-0.8,1.7,,,,,,,*6C
$GPGRS,020007.00,1,1.0,2.3,-4.1,,,,,,,,,*4D
$GPGRS,020007.00,1,1.1,1.9,1.9,-0.3,0.2,1.3,,,,,,*65
$GPGRS,020007.00,1,0.8,-2.0,0.2,-2.4,-2.8,1.8,,,,,,*6B
$GPGSV,4,1,15,03,73,051,48,06,22,313,42,21,19,153,29,28,22,046,26*7D
$GPGSV,4,2,15,19,31,289,,17,32,255,38,02,37,159,42,09,36,224,34*7E
$GPGSV,4,3,15,31,34,074,45,01,42,149,,04,65,208,44,36,35,170,41*7B
$GPGSV,4,4,15,34,31,208,,49,34,195,36,61,03,257,*44
$GLGSV,2,1,08,85,70,240,54,86,31,324,43,78,14,027,,79,14,077,*69
$GLGSV,2,2,08,84,29,171,33,71,21,247,20,69,37,045,38,70,65,279,28*68
$GAGSV,3,1,09,36,79,265,42,10,16,142,26,05,25,219,32,18,21,293,*61
$GAGSV,3,2,09,34,28,312,44,04,45,056,41,11,42,147,43,06,71,076,44*6C
$GAGSV,3,3,09,09,76,182,51*56
$GBGSV,5,1,19,48,83,314,,23,12,045,,44,12,324,29,32,13,068,21*66
$GBGSV,5,2,19,39,26,043,27,05,24,128,,37,16,094,,29,37,201,21*61
$GBGSV,5,3,19,16,32,052,32,06,33,056,41,35,44,285,39,09,39,072,38*6B
$GBGSV,5,4,19,19,56,263,48,20,68,051,51,22,05,253,,46,01,143,*6A
$GBGSV,5,5,19,02,08,105,,58,05,127,,60,09,110,*5E
$GPGGA,020007.00,,,,,0,00,,,M,,M,,*4D
$PTNL,GGK,020007.00,010125,4742.4464712,N,01617.9727415,E,1,20,1.4,EHT668.4643,M*4C
$GPGGQ,020007.00,010125,4742.4464712,N,01617.9727415,E,1,20,3.017,625.2532,M*38
$GPGFA,020007.00,10.786,21.604,1.134,0.935,22.219,2.635,,VVV*3F
$GPLLK,020007.00,010125,,M,,M,1,20,1.7,,M*0A
$GNGMP,020007.00,,,,,DAAA,20,0.7,,,,*56
$GPGMP,020007.00,,,,,,05,,,,2.8,123*77
$GLGMP,020007.00,,,,,,03,,,,,*79
$GAGMP,020007.00,,,,,,06,,,,,*71
$GBGMP,020007.00,,,,,,06,,,,,*72
$PSSN,SNC,[0,266425000,2347]*45
$GPZDA,020012.00,01,01,2025,,*62
$GPDTM,W84,,00.0000000,N,00.0000000,E,00.0000000,W84*5F
$GPRMC,020012.00,A,4742.4464720,N,01617.9727398,E,0.0,,010125,5.1,E,D*16
$GPGLL,4742.4464720,N,01617.9727398,E,020012.00,A,D*67
$GPGGA,020012.00,4742.4464720,N,01617.9727398,E,2,23,0.6,625.2419,M,43.2111,M,3.3,0123*46
$GNGNS,020012.00,4742.4464720,N,01617.9727398,E,DAAA,23,0.6,625.2419,43.2111,,*5A
$GPGNS,020012.00,,,,,,07,,,,3.3,123*7B
$GLGNS,020012.00,,,,,,03,,,,,*7D
$GAGNS,020012.00,,,,,,06,,,,,*75
$GBGNS,020012.00,,,,,,07,,,,,*77
$GPLLQ,020012.00,010125,,M,,M,1,23,3.259,,M*1C
$GPVTG,,T,,M,0.00,N,0.01,K,D*27
$GPHDT,,T*1B
$GPTHS,,V*0E
$GPROT,,V*08
$PSSN,HRP,020012.00,010125,,,,,,,00,0,,*60
$PTNL,AVR,020012.00,,Yaw,,Tilt,,,,0,,00*36
$GPGSA,A,3,02,03,04,06,09,17,31,,,,,,1.4,0.6,1.2*3C
$GPGSA,A,3,69,85,86,,,,,,,,,,1.4,0.6,1.2*3E
$GPGSA,A,3,04,06,09,11,34,36,,,,,,,1.4,0.6,1.2*3B
$GPGSA,A,3,06,09,16,19,20,29,35,,,,,,1.4,0.6,1.2*3D
$GPGST,020012.00,2.635,1.476,0.981,329.657,1.367,1.128,2.735*56
$GPGBS,020012.00,3.139,2.972,6.653,02,0.0001,-2.541,0.720*77
$GPGRS,020012.00,1,-2.5,-0.7,1.2,-0.8,2.6,-2.4,0.9,,,,,*61
$GPGRS,020012.00,1,-0.0,0.4,-6.2,,,,,,,,,*61
$GPGRS,020012.00,1,-0.5,0.3,0.2,-2.1,-1.2,-0.3,,,,,,*48
$GPGRS,020012.00,1,-0.4,-2.3,-1.5,-1.6,-3.7,-4.1,1.7,,,,,*60
$GPGSV,4,1,15,03,73,051,48,06,22,313,42,21,19,153,30,28,22,046,29*7A
$GPGSV,4,2,15,19,31,289,25,17,32,255,35,02,37,159,43,09,36,224,37*76
$GPGSV,4,3,15,31,34,074,45,01,42,149,,04,65,208,45,36,35,170,41*7A
$GPGSV,4,4,15,34,31,208,,49,34,195,37,61,03,257,*45
$GLGSV,2,1,08,85,70,240,54,86,31,324,41,78,14,027,21,79,14,077,*68
$GLGSV,2,2,08,84,29,171,33,71,21,247,27,69,37,045,36,70,65,279,26*6F
$GAGSV,3,1,09,36,79,265,43,10,16,142,26,05,25,219,32,18,21,293,*60
$GAGSV,3,2,09,34,28,312,44,04,45,056,41,11,42,147,44,06,71,076,44*6B
$GAGSV,3,3,09,09,76,182,51*56
$GBGSV,5,1,19,48,83,314,,23,12,045,,44,12,323,32,32,13,068,22*68
$GBGSV,5,2,19,39,26,043,29,05,24,128,,37,16,094,,29,37,201,32*6D
$GBGSV,5,3,19,16,32,052,35,06,33,056,40,35,44,285,39,09,39,072,37*62
$GBGSV,5,4,19,19,56,263,48,20,68,051,50,22,05,253,,46,01,143,*6B
$GBGSV,5,5,19,02,08,105,,58,05,127,,60,09,110,*5E
$GPGGA,020012.00,,,,,0,00,,,M,,M,,*49
$PTNL,GGK,020012.00,010125,4742.4464720,N,01617.9727398,E,1,23,1.4,EHT668.4529,M*47
$GPGGQ,020012.00,010125,4742.4464720,N,01617.9727398,E,1,23,3.259,625.2419,M*3C
$GPGFA,020012.00,14.034,22.429,1.476,0.981,329.657,2.735,,VVV*04
$GPLLK,020012.00,010125,,M,,M,1,23,1.6,,M*0C
$GNGMP,020012.00,,,,,DAAA,23,0.6,,,,*50
$GPGMP,020012.00,,,,,,07,,,,3.3,123*7B
$GLGMP,020012.00,,,,,,03,,,,,*7D
$GAGMP,020012.00,,,,,,06,,,,,*75
$GBGMP,020012.00,,,,,,07,,,,,*77
$PSSN,SNC,[0,266430000,2347]*41
$GPZDA,020017.00,01,01,2025,,*67
$GPDTM,W84,,00.0000000,N,00.0000000,E,00.0000000,W84*5F
$GPRMC,020017.00,A,4742.4464791,N,01617.9727540,E,0.0,,010125,5.1,E,D*1A
$GPGLL,4742.4464791,N,01617.9727540,E,020017.00,A,D*6B
$GPGGA,020017.00,4742.4464791,N,01617.9727540,E,2,20,0.7,625.2333,M,43.2111,M,1.2,0123*44
$GNGNS,020017.00,4742.4464791,N,01617.9727540,E,DAAA,20,0.7,625.2333,43.2111,,*5B
$GPGNS,020017.00,,,,,,05,,,,1.2,123*7F
$GLGNS,020017.00,,,,,,03,,,,,*78
$GAGNS,020017.00,,,,,,06,,,,,*70
$GBGNS,020017.00,,,,,,06,,,,,*73
$GPLLQ,020017.00,010125,,M,,M,1,20,2.330,,M*15
$GPVTG,,T,,M,0.01,N,0.01,K,D*26
$GPHDT,,T*1B
$GPTHS,,V*0E
$GPROT,,V*08
$PSSN,HRP,020017.00,010125,,,,,,,00,0,,*65
$PTNL,AVR,020017.00,,Yaw,,Tilt,,,,0,,00*33
$GPGSA,A,3,02,03,04,06,31,,,,,,,,1.5,0.7,1.3*32
$GPGSA,A,3,69,85,86,,,,,,,,,,1.5,0.7,1.3*3F
$GPGSA,A,3,04,06,09,11,34,36,,,,,,,1.5,0.7,1.3*3A
$GPGSA,A,3,06,09,16,19,20,29,,,,,,,1.5,0.7,1.3*3A
$GPGST,020017.00,2.977,0.898,0.888,291.059,0.889,0.897,1.958*55
$GPGBS,020017.00,3.881,3.956,7.003,02,0.0001,-1.385,0.670*74
$GPGRS,020017.00,1,-1.4,-0.6,0.5,-0.8,0.8,,,,,,,*4F
$GPGRS,020017.00,1,-5.0,0.4,-5.7,,,,,,,,,*67
$GPGRS,020017.00,1,-0.6,0.2,0.2,-1.8,-1.5,-0.2,,,,,,*43
$GPGRS,020017.00,1,-1.0,-2.1,1.9,-2.6,-3.3,-4.5,,,,,,*68
$GPGSV,4,1,15,03,73,052,48,21,19,153,29,06,22,313,40,28,22,046,33*78
$GPGSV,4,2,15,19,31,289,,17,32,255,32,02,37,159,43,09,36,224,39*78
$GPGSV,4,3,15,31,34,074,46,01,42,149,,04,65,208,45,36,35,170,40*78
$GPGSV,4,4,15,34,31,208,,49,34,195,36,61,03,257,*44
$GLGSV,2,1,08,85,70,240,53,86,31,324,41,78,14,027,23,79,14,077,*6D
$GLGSV,2,2,08,84,28,171,34,71,21,247,31,69,37,046,35,70,65,279,28*60
$GAGSV,3,1,09,36,79,264,43,10,16,142,25,05,25,220,33,18,21,293,*69
$GAGSV,3,2,09,34,28,312,43,04,45,056,40,11,42,147,45,06,71,076,43*6B
$GAGSV,3,3,09,09,76,182,51*56
$GBGSV,5,1,19,48,83,315,,23,12,045,,44,12,323,33,32,13,068,*68
$GBGSV,5,2,19,39,26,043,26,05,24,128,,37,16,094,,29,37,201,38*68
$GBGSV,5,3,19,16,32,052,36,06,33,056,40,35,44,285,33,09,39,072,36*6A
$GBGSV,5,4,19,19,56,263,48,20,68,051,49,22,05,253,,46,01,143,*63
$GBGSV,5,5,19,02,08,105,,58,05,127,,60,09,110,*5E
$GPGGA,020017.00,,,,,0,00,,,M,,M,,*4C
$PTNL,GGK,020017.00,010125,4742.4464791,N,01617.9727540,E,1,20,1.5,EHT668.4444,M*43
$GPGGQ,020017.00,010125,4742.4464791,N,01617.9727540,E,1,20,2.330,625.2333,M*33
$GPGFA,020017.00,8.539,16.056,0.898,0.888,291.059,1.958,,VVV*36
$GPLLK,020017.00,010125,,M,,M,1,20,1.7,,M*0B
$GNGMP,020017.00,,,,,DAAA,20,0.7,,,,*57
$GPGMP,020017.00,,,,,,05,,,,1.2,123*7F
$GLGMP,020017.00,,,,,,03,,,,,*78
$GAGMP,020017.00,,,,,,06,,,,,*70
$GBGMP,020017.00,,,,,,06,,,,,*73
$PSSN,SNC,[0,266435000,2347]*44
$GPZDA,020022.00,01,01,2025,,*61
$GPDTM,W84,,00.0000000,N,00.0000000,E,00.0000000,W84*5F
$GPRMC,020022.00,A,4742.4464704,N,01617.9727496,E,0.0,,010125,5.1,E,D*1A
$GPGLL,4742.4464704,N,01617.9727496,E,020022.00,A,D*6B
$GPGGA,020022.00,4742.4464704,N,01617.9727496,E,2,21,0.7,625.2190,M,43.2111,M,2.5,0123*4A
$GNGNS,020022.00,4742.4464704,N,01617.9727496,E,DAAA,21,0.7,625.2190,43.2111,,*51
$GPGNS,020022.00,,,,,,06,,,,2.5,123*7E
$GLGNS,020022.00,,,,,,03,,,,,*7E
$GAGNS,020022.00,,,,,,06,,,,,*76
$GBGNS,020022.00,,,,,,06,,,,,*75
$GPLLQ,020022.00,010125,,M,,M,1,21,2.510,,M*16
$GPVTG,,T,,M,0.01,N,0.01,K,D*26
$GPHDT,,T*1B
$GPTHS,,V*0E
$GPROT,,V*08
$PSSN,HRP,020022.00,010125,,,,,,,00,0,,*63
$PTNL,AVR,020022.00,,Yaw,,Tilt,,,,0,,00*35
$GPGSA,A,3,02,03,04,06,17,31,,,,,,,1.4,0.7,1.2*34
$GPGSA,A,3,69,85,86,,,,,,,,,,1.4,0.7,1.2*3F
$GPGSA,A,3,04,06,09,11,34,36,,,,,,,1.4,0.7,1.2*3A
$GPGSA,A,3,06,09,16,19,20,29,,,,,,,1.4,0.7,1.2*3A
$GPGST,020022.00,2.858,1.022,0.857,6.868,1.020,0.859,2.127*58
$GPGBS,020022.00,3.714,3.150,6.444,02,0.0001,-1.837,0.690*75
$GPGRS,020022.00,1,-1.8,0.4,1.0,-0.8,-1.8,1.7,,,,,,*6A
$GPGRS,020022.00,1,-2.9,0.7,-2.5,,,,,,,,,*69
$GPGRS,020022.00,1,0.1,0.9,1.1,-1.0,-0.6,0.7,,,,,,*44
$GPGRS,020022.00,1,-1.0,-1.9,8.3,-1.7,-2.1,-1.6,,,,,,*61
$GPGSV,4,1,15,03,73,052,49,21,19,153,30,06,22,313,40,28,22,046,34*76
$GPGSV,4,2,15,19,31,289,34,17,32,255,37,02,37,159,39,09,36,224,39*77
$GPGSV,4,3,15,31,34,074,47,01,42,149,,04,65,208,45,36,35,170,39*77
$GPGSV,4,4,15,34,31,208,,49,34,195,37,61,03,257,*45
$GLGSV,2,1,08,85,70,240,53,86,31,324,42,78,14,027,21,79,14,077,*6C
$GLGSV,2,2,08,84,28,171,35,71,21,247,28,69,37,046,38,70,65,279,28*64
$GAGSV,3,1,09,36,79,264,43,10,16,142,22,05,25,220,32,18,21,293,*6F
$GAGSV,3,2,09,34,28,312,42,04,45,056,39,11,42,147,45,06,71,076,43*64
$GAGSV,3,3,09,09,76,182,51*56
$GBGSV,5,1,19,48,83,315,,23,12,045,25,44,12,323,33,32,13,068,*6F
$GBGSV,5,2,19,39,26,043,28,05,24,128,,37,16,094,,29,37,201,41*68
$GBGSV,5,3,19,16,32,052,38,06,33,056,40,35,44,285,24,09,39,072,37*63
$GBGSV,5,4,19,19,56,263,47,20,68,051,49,22,05,253,,46,01,143,*6C
$GBGSV,5,5,19,02,08,105,,58,05,127,,60,09,110,*5E
$GPGGA,020022.00,,,,,0,00,,,M,,M,,*4A
$PTNL,GGK,020022.00,010125,4742.4464704,N,01617.9727496,E,1,21,1.4,EHT668.4301,M*45
$GPGGQ,020022.00,010125,4742.4464704,N,01617.9727496,E,1,21,2.510,625.2190,M*3D
$GPGFA,020022.00,9.716,17.441,1.022,0.857,6.868,2.127,,VVV*32
$GPLLK,020022.00,010125,,M,,M,1,21,1.7,,M*0C
$GNGMP,020022.00,,,,,DAAA,21,0.7,,,,*50
$GPGMP,020022.00,,,,,,06,,,,2.5,123*7E
$GLGMP,020022.00,,,,,,03,,,,,*7E
$GAGMP,020022.00,,,,,,06,,,,,*76
$GBGMP,020022.00,,,,,,06,,,,,*75
$PSSN,SNC,[0,266440000,2347]*46
$GPZDA,020027.00,01,01,2025,,*64
$GPDTM,W84,,00.0000000,N,00.0000000,E,00.0000000,W84*5F
$GPRMC,020027.00,A,4742.4464760,N,01617.9727444,E,0.0,,010125,5.1,E,D*12
$GPGLL,4742.4464760,N,01617.9727444,E,020027.00,A,D*63
$GPGGA,020027.00,4742.4464760,N,01617.9727444,E,2,24,0.7,625.2101,M,43.2111,M,2.6,0123*4C
$GNGNS,020027.00,4742.4464760,N,01617.9727444,E,DAAA,24,0.7,625.2101,43.2111,,*54
$GPGNS,020027.00,,,,,,07,,,,2.6,123*79
$GLGNS,020027.00,,,,,,04,,,,,*7C
$GAGNS,020027.00,,,,,,06,,,,,*73
$GBGNS,020027.00,,,,,,07,,,,,*71
$GPLLQ,020027.00,010125,,M,,M,1,24,2.620,,M*16
$GPVTG,,T,,M,0.01,N,0.02,K,D*25
$GPHDT,,T*1B
$GPTHS,,V*0E
$GPROT,,V*08
$PSSN,HRP,020027.00,010125,,,,,,,00,0,,*66
$PTNL,AVR,020027.00,,Yaw,,Tilt,,,,0,,00*30
$GPGSA,A,3,03,04,06,09,17,19,31,,,,,,1.3,0.7,1.1*33
$GPGSA,A,3,69,78,85,86,,,,,,,,,1.3,0.7,1.1*34
$GPGSA,A,3,04,06,09,11,34,36,,,,,,,1.3,0.7,1.1*3E
$GPGSA,A,3,06,09,16,19,20,29,44,,,,,,1.3,0.7,1.1*3E
$GPGST,020027.00,4.924,1.188,0.731,329.776,1.091,0.870,2.218*5F
$GPGBS,020027.00,4.082,4.486,8.131,06,0.0001,-2.687,0.997*75
$GPGRS,020027.00,1,-0.4,-0.1,-2.7,1.7,0.5,-0.4,0.5,,,,,*65
$GPGRS,020027.00,1,0.8,14.6,-0.3,-0.5,,,,,,,,*74
$GPGRS,020027.00,1,-1.7,-0.0,0.4,-1.5,-1.7,-0.4,,,,,,*60
$GPGRS,020027.00,1,-2.3,-1.7,12.5,-1.9,-2.6,-1.3,1.5,,,,,*71
$GPGSV,4,1,15,03,73,052,49,21,19,153,29,06,22,313,36,28,22,046,34*7F
$GPGSV,4,2,15,19,31,289,37,17,32,255,38,02,37,159,35,09,36,224,41*78
$GPGSV,4,3,15,31,34,074,47,01,42,149,,04,65,208,44,36,35,170,38*77
$GPGSV,4,4,15,34,31,208,,49,34,195,37,61,03,257,*45
$GLGSV,2,1,08,85,70,239,52,86,31,324,46,78,14,027,37,79,14,077,*60
$GLGSV,2,2,08,84,28,171,34,71,21,247,29,69,37,046,38,70,66,279,28*67
$GAGSV,3,1,09,36,79,264,44,10,16,142,21,05,25,220,32,18,21,293,*6B
$GAGSV,3,2,09,34,28,312,40,04,45,056,39,11,42,147,45,06,71,076,41*64
$GAGSV,3,3,09,09,76,182,51*56
$GBGSV,5,1,19,48,83,315,,23,12,045,,44,12,323,36,32,13,068,*6D
$GBGSV,5,2,19,39,26,043,27,05,24,128,,37,16,094,,29,37,201,43*65
$GBGSV,5,3,19,16,32,052,36,06,33,056,39,35,44,285,22,09,39,072,36*64
$GBGSV,5,4,19,19,56,263,47,20,68,051,49,22,05,253,,46,01,143,*6C
$GBGSV,5,5,19,02,08,105,,58,05,127,,60,09,110,*5E
$GPGGA,020027.00,,,,,0,00,,,M,,M,,*4F
$PTNL,GGK,020027.00,010125,4742.4464760,N,01617.9727444,E,1,24,1.3,EHT668.4211,M*4F
$GPGGQ,020027.00,010125,4742.4464760,N,01617.9727444,E,1,24,2.620,625.2101,M*38
$GPGFA,020027.00,11.299,18.186,1.188,0.731,329.776,2.218,,VVV*02
$GPLLK,020027.00,010125,,M,,M,1,24,1.5,,M*0E
$GNGMP,020027.00,,,,,DAAA,24,0.7,,,,*50
$GPGMP,020027.00,,,,,,07,,,,2.6,123*79
$GLGMP,020027.00,,,,,,04,,,,,*7C
$GAGMP,020027.00,,,,,,06,,,,,*73
$GBGMP,020027.00,,,,,,07,,,,,*71
$PSSN,SNC,[0,266445000,2347]*43
$GPZDA,020032.00,01,01,2025,,*60
$GPDTM,W84,,00.0000000,N,00.0000000,E,00.0000000,W84*5F
$GPRMC,020032.00,A,4742.4464868,N,01617.9727441,E,0.0,,010125,5.1,E,D*14
$GPGLL,4742.4464868,N,01617.9727441,E,020032.00,A,D*65
$GPGGA,020032.00,4742.4464868,N,01617.9727441,E,2,18,0.8,625.2124,M,43.2111,M,2.6,0123*4D
$GNGNS,020032.00,4742.4464868,N,01617.9727441,E,DAAA,18,0.8,625.2124,43.2111,,*55
$GPGNS,020032.00,,,,,,05,,,,2.6,123*7F
$GLGNS,020032.00,,,,,,02,,,,,*7E
$GAGNS,020032.00,,,,,,06,,,,,*77
$GBGNS,020032.00,,,,,,05,,,,,*77
$GPLLQ,020032.00,010125,,M,,M,1,18,2.234,,M*1C
$GPVTG,,T,,M,0.01,N,0.02,K,D*25
$GPHDT,,T*1B
$GPTHS,,V*0E
$GPROT,,V*08
$PSSN,HRP,020032.00,010125,,,,,,,00,0,,*62
$PTNL,AVR,020032.00,,Yaw,,Tilt,,,,0,,00*34
$GPGSA,A,3,03,04,17,19,31,,,,,,,,1.5,0.8,1.3*37
$GPGSA,A,3,85,86,,,,,,,,,,,1.5,0.8,1.3*3F
$GPGSA,A,3,04,06,09,11,34,36,,,,,,,1.5,0.8,1.3*35
$GPGSA,A,3,06,19,20,29,44,,,,,,,,1.5,0.8,1.3*3B
$GPGST,020032.00,2.044,1.112,0.563,336.206,1.042,0.683,1.854*55
$GPGBS,020032.00,5.686,4.419,9.680,17,0.0001,0.627,0.748*51
$GPGRS,020032.00,1,-0.3,-0.1,0.6,0.4,-0.2,,,,,,,*4C
$GPGRS,020032.00,1,0.2,1.5,,,,,,,,,,*4B
$GPGRS,020032.00,1,-1.8,0.3,0.3,-2.1,-1.6,-0.5,,,,,,*45
$GPGRS,020032.00,1,-2.7,-3.1,-3.0,-0.4,-2.5,,,,,,,*49
$GPGSV,4,1,15,03,73,052,49,21,19,153,25,06,22,313,33,28,22,046,36*74
$GPGSV,4,2,15,19,31,289,40,17,32,255,36,02,37,159,35,09,36,224,35*75
$GPGSV,4,3,15,31,34,074,47,01,41,149,,04,65,208,45,36,35,170,37*7A
$GPGSV,4,4,15,34,31,208,,49,34,195,39,61,03,257,*4B
$GLGSV,2,1,08,85,70,239,53,86,31,324,47,78,14,027,31,79,14,077,*66
$GLGSV,2,2,08,84,28,171,35,71,21,247,20,69,36,046,35,70,66,279,31*6B
$GAGSV,3,1,09,36,79,264,45,10,15,142,28,05,25,220,29,18,21,293,*6A
$GAGSV,3,2,09,34,28,312,41,04,45,056,39,11,42,147,44,06,71,076,44*61
$GAGSV,3,3,09,09,76,182,51*56
$GBGSV,5,1,19,48,83,315,,23,12,045,21,32,13,068,21,44,12,323,38*63
$GBGSV,5,2,19,39,26,043,34,05,24,128,,37,16,094,,29,37,201,44*60
$GBGSV,5,3,19,16,32,052,28,06,33,056,37,35,44,285,30,09,39,072,35*65
$GBGSV,5,4,19,19,56,263,47,20,68,051,50,22,05,253,,46,01,143,*64
$GBGSV,5,5,19,02,08,105,,58,05,127,,60,09,110,*5E
$GPGGA,020032.00,,,,,0,00,,,M,,M,,*4B
$PTNL,GGK,020032.00,010125,4742.4464868,N,01617.9727441,E,1,18,1.5,EHT668.4235,M*46
$GPGGQ,020032.00,010125,4742.4464868,N,01617.9727441,E,1,18,2.234,625.2124,M*37
$GPGFA,020032.00,10.571,15.206,1.112,0.563,336.206,1.854,,VVV*0B
$GPLLK,020032.00,010125,,M,,M,1,18,1.8,,M*08
$GNGMP,020032.00,,,,,DAAA,18,0.8,,,,*54
$GPGMP,020032.00,,,,,,05,,,,2.6,123*7F
$GLGMP,020032.00,,,,,,02,,,,,*7E
$GAGMP,020032.00,,,,,,06,,,,,*77
$GBGMP,020032.00,,,,,,05,,,,,*77
$PSSN,SNC,[0,266450000,2347]*47
$GPZDA,020037.00,01,01,2025,,*65
$GPDTM,W84,,00.0000000,N,00.0000000,E,00.0000000,W84*5F
$GPRMC,020037.00,A,4742.4464889,N,01617.9727452,E,0.0,,010125,5.1,E,D*1C
$GPGLL,4742.4464889,N,01617.9727452,E,020037.00,A,D*6D
$GPGGA,020037.00,4742.4464889,N,01617.9727452,E,2,23,0.6,625.2130,M,43.2111,M,1.7,0123*44
$GNGNS,020037.00,4742.4464889,N,01617.9727452,E,DAAA,23,0.6,625.2130,43.2111,,*5E
$GPGNS,020037.00,,,,,,07,,,,1.7,123*7A
$GLGNS,020037.00,,,,,,03,,,,,*7A
$GAGNS,020037.00,,,,,,07,,,,,*73
$GBGNS,020037.00,,,,,,06,,,,,*71
$GPLLQ,020037.00,010125,,M,,M,1,23,1.226,,M*11
$GPVTG,,T,,M,0.00,N,0.00,K,D*26
$GPHDT,,T*1B
$GPTHS,,V*0E
$GPROT,,V*08
$PSSN,HRP,020037.00,010125,,,,,,,00,0,,*67
$PTNL,AVR,020037.00,,Yaw,,Tilt,,,,0,,00*31
$GPGSA,A,3,02,03,04,06,17,19,31,,,,,,1.2,0.6,1.1*38
$GPGSA,A,3,69,85,86,,,,,,,,,,1.2,0.6,1.1*3B
$GPGSA,A,3,04,05,06,09,11,34,36,,,,,,1.2,0.6,1.1*3B
$GPGSA,A,3,06,09,19,20,29,44,,,,,,,1.2,0.6,1.1*39
$GPGST,020037.00,2.272,0.512,0.381,4.284,0.512,0.381,1.047*5C
$GPGBS,020037.00,3.476,3.058,6.228,06,0.0001,-1.285,0.979*7C
$GPGRS,020037.00,1,0.1,-0.3,0.3,-1.3,0.2,0.1,-0.1,,,,,*4A
$GPGRS,020037.00,1,-4.1,0.8,0.8,,,,,,,,,*4E
$GPGRS,020037.00,1,-2.9,3.9,1.3,1.2,-2.2,-1.3,0.4,,,,,*4D
$GPGRS,020037.00,1,-2.2,-0.4,-2.8,-2.0,-2.4,2.5,,,,,,*68
$GPGSV,4,1,15,03,73,052,48,21,19,153,24,06,22,313,36,28,22,046,31*76
$GPGSV,4,2,15,19,31,289,41,17,32,255,40,02,37,159,37,09,36,224,36*74
$GPGSV,4,3,15,31,34,074,42,01,41,149,,04,65,208,43,36,35,170,40*79
$GPGSV,4,4,15,34,31,208,,49,34,195,36,61,03,257,*44
$GLGSV,2,1,08,85,70,239,53,86,31,324,46,78,14,027,29,79,14,077,*6E
$GLGSV,2,2,08,84,28,171,32,71,21,247,30,69,36,046,38,70,66,279,29*69
$GAGSV,3,1,09,36,79,264,45,10,15,142,29,05,25,220,35,18,21,293,*66
$GAGSV,3,2,09,34,29,312,41,04,45,056,40,11,42,147,44,06,71,076,45*6F
$GAGSV,3,3,09,09,76,182,51*56
$GBGSV,5,1,19,48,83,316,,23,12,045,,32,13,068,,44,12,323,41*6E
$GBGSV,5,2,19,39,26,043,33,05,24,128,,37,16,094,,29,37,201,42*61
$GBGSV,5,3,19,16,32,052,33,06,33,056,38,35,44,285,29,09,39,072,36*6B
$GBGSV,5,4,19,19,56,263,46,20,68,051,50,22,05,253,,46,01,143,*65
$GBGSV,5,5,19,02,08,105,,58,05,127,,60,09,110,*5E
$GPGGA,020037.00,,,,,0,00,,,M,,M,,*4E
$PTNL,GGK,020037.00,010125,4742.4464889,N,01617.9727452,E,1,23,1.2,EHT668.4241,M*42
$GPGGQ,020037.00,010125,4742.4464889,N,01617.9727452,E,1,23,1.226,625.2130,M*32
$GPGFA,020037.00,4.870,8.583,0.512,0.381,4.284,1.047,,VVV*0C
$GPLLK,020037.00,010125,,M,,M,1,23,1.5,,M*08
$GNGMP,020037.00,,,,,DAAA,23,0.6,,,,*57
$GPGMP,020037.00,,,,,,07,,,,1.7,123*7A
$GLGMP,020037.00,,,,,,03,,,,,*7A
$GAGMP,020037.00,,,,,,07,,,,,*73
$GBGMP,020037.00,,,,,,06,,,,,*71
$PSSN,SNC,[0,266455000,2347]*42
$GPZDA,020042.00,01,01,2025,,*67
$GPDTM,W84,,00.0000000,N,00.0000000,E,00.0000000,W84*5F
$GPRMC,020042.00,A,4742.4464898,N,01617.9727618,E,0.0,,010125,5.1,E,D*12
$GPGLL,4742.4464898,N,01617.9727618,E,020042.00,A,D*63
$GPGGA,020042.00,4742.4464898,N,01617.9727618,E,2,20,0.7,625.2158,M,43.2111,M,2.8,0123*4A
$GNGNS,020042.00,4742.4464898,N,01617.9727618,E,DAAA,20,0.7,625.2158,43.2111,,*5C
$GPGNS,020042.00,,,,,,06,,,,2.8,123*75
$GLGNS,020042.00,,,,,,02,,,,,*79
$GAGNS,020042.00,,,,,,06,,,,,*70
$GBGNS,020042.00,,,,,,06,,,,,*73
$GPLLQ,020042.00,010125,,M,,M,1,20,2.411,,M*11
$GPVTG,,T,,M,0.01,N,0.03,K,D*24
$GPHDT,,T*1B
$GPTHS,,V*0E
$GPROT,,V*08
$PSSN,HRP,020042.00,010125,,,,,,,00,0,,*65
$PTNL,AVR,020042.00,,Yaw,,Tilt,,,,0,,00*33
$GPGSA,A,3,02,03,04,17,19,31,,,,,,,1.4,0.7,1.2*3A
$GPGSA,A,3,85,86,,,,,,,,,,,1.4,0.7,1.2*30
$GPGSA,A,3,04,06,09,11,34,36,,,,,,,1.4,0.7,1.2*3A
$GPGSA,A,3,06,09,19,20,29,44,,,,,,,1.4,0.7,1.2*3D
$GPGST,020042.00,2.950,1.003,0.731,354.806,1.001,0.734,2.067*55
$GPGBS,020042.00,4.045,2.993,6.522,02,0.0001,-1.741,0.694*7A
$GPGRS,020042.00,1,-1.7,-0.1,0.2,1.8,1.2,-1.5,,,,,,*6C
$GPGRS,020042.00,1,1.3,-2.4,,,,,,,,,,*63
$GPGRS,020042.00,1,-0.7,1.5,1.2,-1.5,-0.6,1.0,,,,,,*64
$GPGRS,020042.00,1,0.2,2.2,-2.2,-1.7,-3.5,8.0,,,,,,*6D
$GPGSV,4,1,15,03,73,052,48,21,19,153,25,06,22,313,32,28,22,046,*71
$GPGSV,4,2,15,19,31,289,43,17,32,255,42,02,37,159,38,09,36,224,33*7E
$GPGSV,4,3,15,31,34,074,41,01,41,149,,04,66,208,42,36,35,170,42*7A
$GPGSV,4,4,15,34,31,208,,49,34,195,40,61,03,257,*45
$GLGSV,2,1,08,85,70,239,52,86,31,324,47,78,14,027,21,79,14,077,*66
$GLGSV,2,2,08,84,28,171,30,71,21,247,34,69,36,046,29,70,66,279,30*67
$GAGSV,3,1,09,36,79,264,46,10,15,142,27,05,25,220,33,18,21,293,*6D
$GAGSV,3,2,09,34,29,312,42,04,45,056,36,11,42,147,43,06,71,076,45*6A
$GAGSV,3,3,09,09,76,182,51*56
$GBGSV,5,1,19,48,83,316,,23,12,045,29,32,13,068,,44,12,323,40*64
$GBGSV,5,2,19,39,26,043,32,05,24,128,,37,16,094,,29,37,201,41*63
$GBGSV,5,3,19,16,32,052,34,06,33,056,40,35,44,285,32,09,39,072,38*67
$GBGSV,5,4,19,19,56,263,48,20,68,051,51,22,05,253,,46,01,143,*6A
$GBGSV,5,5,19,02,08,105,,58,05,127,,60,09,110,*5E
$GPGGA,020042.00,,,,,0,00,,,M,,M,,*4C
$PTNL,GGK,020042.00,010125,4742.4464898,N,01617.9727618,E,1,20,1.4,EHT668.4268,M*42
$GPGGQ,020042.00,010125,4742.4464898,N,01617.9727618,E,1,20,2.411,625.2158,M*30
$GPGFA,020042.00,9.536,16.949,1.003,0.731,354.806,2.067,,VVV*35
$GPLLK,020042.00,010125,,M,,M,1,20,1.6,,M*0A
$GNGMP,020042.00,,,,,DAAA,20,0.7,,,,*57
$GPGMP,020042.00,,,,,,06,,,,2.8,123*75
$GLGMP,020042.00,,,,,,02,,,,,*79
$GAGMP,020042.00,,,,,,06,,,,,*70
$GBGMP,020042.00,,,,,,06,,,,,*73
$PSSN,SNC,[0,266460000,2347]*44
$GPZDA,020047.00,01,01,2025,,*62
$GPDTM,W84,,00.0000000,N,00.0000000,E,00.0000000,W84*5F
$GPRMC,020047.00,A,4742.4464839,N,01617.9727934,E,0.0,,010125,5.1,E,D*1D
$GPGLL,4742.4464839,N,01617.9727934,E,020047.00,A,D*6C
$GPGGA,020047.00,4742.4464839,N,01617.9727934,E,2,22,0.7,625.2030,M,43.2111,M,2.9,0123*49
$GNGNS,020047.00,4742.4464839,N,01617.9727934,E,DAAA,22,0.7,625.2030,43.2111,,*5E
$GPGNS,020047.00,,,,,,08,,,,2.9,123*7F
$GLGNS,020047.00,,,,,,02,,,,,*7C
$GAGNS,020047.00,,,,,,06,,,,,*75
$GBGNS,020047.00,,,,,,06,,,,,*76
$GPLLQ,020047.00,010125,,M,,M,1,22,2.662,,M*10
$GPVTG,,T,,M,0.00,N,0.00,K,D*26
$GPHDT,,T*1B
$GPTHS,,V*0E
$GPROT,,V*08
$PSSN,HRP,020047.00,010125,,,,,,,00,0,,*60
$PTNL,AVR,020047.00,,Yaw,,Tilt,,,,0,,00*36
$GPGSA,A,3,02,03,04,06,09,17,19,31,,,,,1.3,0.7,1.1*31
$GPGSA,A,3,85,86,,,,,,,,,,,1.3,0.7,1.1*34
$GPGSA,A,3,04,06,09,11,34,36,,,,,,,1.3,0.7,1.1*3E
$GPGSA,A,3,06,09,19,20,29,44,,,,,,,1.3,0.7,1.1*39
$GPGST,020047.00,3.952,0.989,0.868,0.234,0.989,0.868,2.314*5A
$GPGBS,020047.00,2.727,3.018,6.314,02,0.0001,-2.227,0.711*78
$GPGRS,020047.00,1,-2.2,-0.2,0.1,-2.5,1.1,0.7,2.2,0.2,,,,*63
$GPGRS,020047.00,1,0.4,-2.7,,,,,,,,,,*63
$GPGRS,020047.00,1,-1.6,0.4,0.4,-1.5,-1.0,1.1,,,,,,*60
$GPGRS,020047.00,1,1.5,-2.4,-1.2,-2.1,-4.0,13.1,,,,,,*7A
$GPGSV,4,1,15,03,73,052,48,21,19,153,21,06,22,313,35,28,22,046,27*77
$GPGSV,4,2,15,19,31,289,39,17,32,255,42,02,37,159,39,09,36,224,37*76
$GPGSV,4,3,15,31,34,074,42,01,41,149,,04,66,208,44,36,35,170,42*7F
$GPGSV,4,4,15,34,31,208,,49,34,195,38,61,03,257,*4A
$GLGSV,2,1,08,85,70,239,52,86,31,324,48,78,14,026,26,79,14,077,*6F
$GLGSV,2,2,08,84,28,171,30,71,21,247,38,69,36,046,30,70,66,280,28*6C
$GAGSV,3,1,09,36,79,263,46,10,15,142,22,05,25,220,29,18,21,293,*64
$GAGSV,3,2,09,34,29,312,41,04,45,056,36,11,42,147,39,06,71,076,44*65
$GAGSV,3,3,09,09,77,182,50*56
$GBGSV,5,1,19,48,83,316,,23,12,045,32,32,13,068,20,44,12,323,41*6D
$GBGSV,5,2,19,39,26,043,31,05,24,128,,37,16,094,,29,37,201,41*60
$GBGSV,5,3,19,16,32,052,32,06,33,056,37,35,44,285,36,09,39,072,36*6B
$GBGSV,5,4,19,19,56,263,48,20,68,051,50,22,05,253,,46,01,143,*6B
$GBGSV,5,5,19,02,08,105,,58,05,127,,60,09,110,*5E
$GPGGA,020047.00,,,,,0,00,,,M,,M,,*49
$PTNL,GGK,020047.00,010125,4742.4464839,N,01617.9727934,E,1,22,1.3,EHT668.4140,M*41
$GPGGQ,020047.00,010125,4742.4464839,N,01617.9727934,E,1,22,2.662,625.2030,M*34
$GPGFA,020047.00,9.406,18.972,0.989,0.868,0.234,2.314,,VVV*33
$GPLLK,020047.00,010125,,M,,M,1,22,1.5,,M*0E
$GNGMP,020047.00,,,,,DAAA,22,0.7,,,,*50
$GPGMP,020047.00,,,,,,08,,,,2.9,123*7F
$GLGMP,020047.00,,,,,,02,,,,,*7C
$GAGMP,020047.00,,,,,,06,,,,,*75
$GBGMP,020047.00,,,,,,06,,,,,*76
$PSSN,SNC,[0,266465000,2347]*41
$GPZDA,020052.00,01,01,2025,,*66
$GPDTM,W84,,00.0000000,N,00.0000000,E,00.0000000,W84*5F
$GPRMC,020052.00,A,4742.4464786,N,01617.9728040,E,0.0,,010125,5.1,E,D*17
$GPGLL,4742.4464786,N,01617.9728040,E,020052.00,A,D*66
$GPGGA,020052.00,4742.4464786,N,01617.9728040,E,2,26,0.6,625.2027,M,43.2111,M,3.4,0123*4C
$GNGNS,020052.00,4742.4464786,N,01617.9728040,E,DAAA,26,0.6,625.2027,43.2111,,*57
$GPGNS,020052.00,,,,,,08,,,,3.4,123*77
$GLGNS,020052.00,,,,,,03,,,,,*79
$GAGNS,020052.00,,,,,,06,,,,,*71
$GBGNS,020052.00,,,,,,09,,,,,*7D
$GPLLQ,020052.00,010125,,M,,M,1,26,2.440,,M*12
$GPVTG,,T,,M,0.00,N,0.01,K,D*27
$GPHDT,,T*1B
$GPTHS,,V*0E
$GPROT,,V*08
$PSSN,HRP,020052.00,010125,,,,,,,00,0,,*64
$PTNL,AVR,020052.00,,Yaw,,Tilt,,,,0,,00*32
$GPGSA,A,3,02,03,04,06,09,17,19,31,,,,,1.2,0.6,1.1*31
$GPGSA,A,3,69,85,86,,,,,,,,,,1.2,0.6,1.1*3B
$GPGSA,A,3,04,06,09,11,34,36,,,,,,,1.2,0.6,1.1*3E
$GPGSA,A,3,06,09,16,19,20,29,35,39,44,,,,1.2,0.6,1.1*32
$GPGST,020052.00,8.380,0.909,0.782,358.468,0.909,0.782,2.125*51
$GPGBS,020052.00,2.841,2.965,6.630,35,0.0001,30.392,8.540*6B
$GPGRS,020052.00,1,-1.1,-0.1,0.0,-0.6,0.3,-0.2,0.9,1.1,,,,*44
$GPGRS,020052.00,1,-3.3,1.1,-0.3,,,,,,,,,*66
$GPGRS,020052.00,1,-0.9,0.4,0.7,-1.3,-0.3,0.7,,,,,,*6A
$GPGRS,020052.00,1,-0.5,-2.9,5.5,-0.6,-2.4,-1.1,30.4,14.2,11.9,,,*7F
$GPGSV,4,1,15,03,73,052,47,21,19,153,25,06,22,313,33,28,22,046,24*79
$GPGSV,4,2,15,19,31,289,43,17,32,255,42,02,37,159,38,09,36,224,41*7B
$GPGSV,4,3,15,31,34,074,42,01,41,149,,04,66,208,44,36,35,170,43*7E
$GPGSV,4,4,15,34,31,208,,49,34,195,38,61,03,257,*4A
$GLGSV,2,1,08,85,70,239,52,86,31,324,48,78,14,026,26,79,14,077,*6F
$GLGSV,2,2,08,84,28,171,32,71,21,247,35,69,36,046,35,70,66,280,28*66
$GAGSV,3,1,09,36,79,263,47,10,15,142,30,05,25,220,26,18,21,293,*69
$GAGSV,3,2,09,34,29,312,41,04,45,056,35,11,42,147,41,06,71,076,42*6F
$GAGSV,3,3,09,09,77,182,50*56
$GBGSV,5,1,19,48,83,317,,23,12,044,30,32,13,068,,44,12,323,39*62
$GBGSV,5,2,19,39,26,043,36,05,24,128,,37,16,094,,29,37,201,44*62
$GBGSV,5,3,19,16,32,052,39,06,33,056,38,35,44,285,36,09,39,071,37*6D
$GBGSV,5,4,19,19,56,263,48,20,68,051,49,22,05,253,,46,01,143,*63
$GBGSV,5,5,19,02,08,105,,58,05,127,,60,09,110,*5E
$GPGGA,020052.00,,,,,0,00,,,M,,M,,*4D
$PTNL,GGK,020052.00,010125,4742.4464786,N,01617.9728040,E,1,26,1.2,EHT668.4138,M*41
$GPGGQ,020052.00,010125,4742.4464786,N,01617.9728040,E,1,26,2.440,625.2027,M*3E
$GPGFA,020052.00,8.646,17.426,0.909,0.782,358.468,2.125,,VVV*31
$GPLLK,020052.00,010125,,M,,M,1,26,1.5,,M*0E
$GNGMP,020052.00,,,,,DAAA,26,0.6,,,,*51
$GPGMP,020052.00,,,,,,08,,,,3.4,123*77
$GLGMP,020052.00,,,,,,03,,,,,*79
$GAGMP,020052.00,,,,,,06,,,,,*71
$GBGMP,020052.00,,,,,,09,,,,,*7D
$PSSN,SNC,[0,266470000,2347]*45
$GPZDA,020057.00,01,01,2025,,*63
$GPDTM,W84,,00.0000000,N,00.0000000,E,00.0000000,W84*5F
$GPRMC,020057.00,A,4742.4464709,N,01617.9728101,E,0.0,,010125,5.1,E,D*11
$GPGLL,4742.4464709,N,01617.9728101,E,020057.00,A,D*60
$GPGGA,020057.00,4742.4464709,N,01617.9728101,E,2,22,0.7,625.1991,M,43.2111,M,2.0,0123*4D
$GNGNS,020057.00,4742.4464709,N,01617.9728101,E,DAAA,22,0.7,625.1991,43.2111,,*53
$GPGNS,020057.00,,,,,,07,,,,2.0,123*78
$GLGNS,020057.00,,,,,,03,,,,,*7C
$GAGNS,020057.00,,,,,,05,,,,,*77
$GBGNS,020057.00,,,,,,07,,,,,*76
$GPLLQ,020057.00,010125,,M,,M,1,22,2.500,,M*16
$GPVTG,,T,,M,0.00,N,0.01,K,D*27
$GPHDT,,T*1B
$GPTHS,,V*0E
$GPROT,,V*08
$PSSN,HRP,020057.00,010125,,,,,,,00,0,,*61
$PTNL,AVR,020057.00,,Yaw,,Tilt,,,,0,,00*37
$GPGSA,A,3,03,04,06,09,17,19,31,,,,,,1.4,0.7,1.2*37
$GPGSA,A,3,69,85,86,,,,,,,,,,1.4,0.7,1.2*3F
$GPGSA,A,3,06,09,11,34,36,,,,,,,,1.4,0.7,1.2*3E
$GPGSA,A,3,06,09,16,19,20,29,44,,,,,,1.4,0.7,1.2*3A
$GPGST,020057.00,2.366,1.007,0.781,337.758,0.978,0.817,2.151*5C
$GPGBS,020057.00,4.003,4.446,8.103,09,0.0001,1.983,0.679*53
$GPGRS,020057.00,1,-0.3,-0.1,-1.2,2.0,-1.1,1.3,0.7,,,,,*66
$GPGRS,020057.00,1,0.2,2.0,1.7,,,,,,,,,*66
$GPGRS,020057.00,1,0.4,0.9,-1.3,0.3,1.0,,,,,,,*40
$GPGRS,020057.00,1,-3.2,-1.7,5.1,-0.1,-2.5,0.2,4.3,,,,,*60
$GPGSV,4,1,15,03,73,052,47,21,19,153,24,06,22,313,36,28,22,046,30*78
$GPGSV,4,2,15,19,31,289,41,17,32,255,44,02,36,159,40,09,36,224,40*70
$GPGSV,4,3,15,31,34,074,40,01,41,149,,04,66,208,43,36,35,170,43*7B
$GPGSV,4,4,15,34,31,208,,49,34,195,38,61,03,257,*4A
$GLGSV,2,1,08,85,70,239,53,86,31,324,45,78,14,026,26,79,14,077,*63
$GLGSV,2,2,08,84,28,171,34,71,21,247,38,69,36,046,37,70,66,280,26*61
$GAGSV,3,1,09,36,79,263,46,10,15,142,28,05,25,220,27,18,21,293,*60
$GAGSV,3,2,09,34,29,312,42,04,45,055,33,11,42,147,40,06,71,076,40*6A
$GAGSV,3,3,09,09,77,182,51*57
$GBGSV,5,1,19,48,83,317,,23,12,044,30,32,13,068,,44,12,323,39*62
$GBGSV,5,2,19,39,26,043,32,05,24,128,,37,16,094,,29,37,201,44*66
$GBGSV,5,3,19,16,32,052,36,06,33,056,36,35,44,285,33,09,39,071,40*69
$GBGSV,5,4,19,19,56,263,49,20,68,051,51,22,05,253,,46,01,143,*6B
$GBGSV,5,5,19,02,08,105,,58,05,127,,60,09,110,*5E
$GPGGA,020057.00,,,,,0,00,,,M,,M,,*48
$PTNL,GGK,020057.00,010125,4742.4464709,N,01617.9728101,E,1,22,1.4,EHT668.4102,M*4C
$GPGGQ,020057.00,010125,4742.4464709,N,01617.9728101,E,1,22,2.500,625.1991,M*3E
$GPGFA,020057.00,9.576,17.635,1.007,0.781,337.758,2.151,,VVV*3A
$GPLLK,020057.00,010125,,M,,M,1,22,1.6,,M*0C
$GNGMP,020057.00,,,,,DAAA,22,0.7,,,,*51
$GPGMP,020057.00,,,,,,07,,,,2.0,123*78
$GLGMP,020057.00,,,,,,03,,,,,*7C
$GAGMP,020057.00,,,,,,05,,,,,*77
$GBGMP,020057.00,,,,,,07,,,,,*76
$PSSN,SNC,[0,266475000,2347]*40
$GPZDA,020102.00,01,01,2025,,*62
$GPDTM,W84,,00.0000000,N,00.0000000,E,00.0000000,W84*5F
$GPRMC,020102.00,A,4742.4464676,N,01617.9728221,E,0.0,,010125,5.1,E,D*18
$GPGLL,4742.4464676,N,01617.9728221,E,020102.00,A,D*69
$GPGGA,020102.00,4742.4464676,N,01617.9728221,E,2,23,0.6,625.1959,M,43.2111,M,1.9,0123*4A
$GNGNS,020102.00,4742.4464676,N,01617.9728221,E,DAAA,23,0.6,625.1959,43.2111,,*5E
$GPGNS,020102.00,,,,,,07,,,,1.9,123*73
$GLGNS,020102.00,,,,,,04,,,,,*7A
$GAGNS,020102.00,,,,,,05,,,,,*76
$GBGNS,020102.00,,,,,,07,,,,,*77
$GPLLQ,020102.00,010125,,M,,M,1,23,2.372,,M*15
$GPVTG,,T,,M,0.01,N,0.01,K,D*26
$GPHDT,,T*1B
$GPTHS,,V*0E
$GPROT,,V*08
$PSSN,HRP,020102.00,010125,,,,,,,00,0,,*60
$PTNL,AVR,020102.00,,Yaw,,Tilt,,,,0,,00*36
$GPGSA,A,3,02,03,04,09,17,19,31,,,,,,1.2,0.6,1.0*36
$GPGSA,A,3,69,84,85,86,,,,,,,,,1.2,0.6,1.0*36
$GPGSA,A,3,06,09,11,34,36,,,,,,,,1.2,0.6,1.0*3B
$GPGSA,A,3,06,09,16,19,20,29,44,,,,,,1.2,0.6,1.0*3F
$GPGST,020102.00,2.667,0.958,0.724,352.817,0.954,0.729,2.045*5B
$GPGBS,020102.00,3.096,2.822,6.861,02,0.0001,-1.899,0.702*73
$GPGRS,020102.00,1,-1.9,-0.2,1.1,1.4,-1.5,0.6,0.2,,,,,*43
$GPGRS,020102.00,1,3.0,-3.1,2.2,-7.3,,,,,,,,*4A
$GPGRS,020102.00,1,0.3,1.1,-1.4,0.3,0.7,,,,,,,*4E
$GPGRS,020102.00,1,-3.5,-0.7,1.0,0.0,-2.0,-0.0,-2.4,,,,,*48
$GPGSV,4,1,15,03,73,053,47,21,19,153,26,06,22,313,33,28,22,046,26*79
$GPGSV,4,2,15,19,31,289,39,17,32,255,40,02,36,159,37,09,37,224,41*7B
$GPGSV,4,3,15,31,34,074,40,01,41,149,,04,66,208,43,36,35,170,42*7A
$GPGSV,4,4,15,34,31,208,,49,34,195,37,61,03,257,*45
$GLGSV,2,1,08,85,70,239,53,86,31,324,45,78,14,026,34,79,15,077,*61
$GLGSV,2,2,08,84,28,171,36,71,21,247,33,69,36,046,40,70,66,280,27*69
$GAGSV,3,1,09,36,79,263,46,10,15,142,29,05,25,220,29,18,21,293,*6F
$GAGSV,3,2,09,34,29,312,43,04,45,055,33,11,42,147,40,06,70,076,40*6A
$GAGSV,3,3,09,09,77,182,51*57
$GBGSV,5,1,19,48,83,317,,23,12,044,30,32,13,068,19,44,12,323,38*6B
$GBGSV,5,2,19,39,26,043,32,05,24,128,,37,16,094,,29,37,201,45*67
$GBGSV,5,3,19,16,32,052,38,06,33,056,36,35,44,285,32,09,39,071,41*67
$GBGSV,5,4,19,19,56,263,47,20,68,051,50,22,05,253,,46,01,143,*64
$GBGSV,5,5,19,02,08,105,,58,05,127,,60,09,110,*5E
$GPGGA,020102.00,,,,,0,00,,,M,,M,,*49
$PTNL,GGK,020102.00,010125,4742.4464676,N,01617.9728221,E,1,23,1.2,EHT668.4070,M*46
$GPGGQ,020102.00,010125,4742.4464676,N,01617.9728221,E,1,23,2.372,625.1959,M*31
$GPGFA,020102.00,9.104,16.771,0.958,0.724,352.817,2.045,,VVV*34
$GPLLK,020102.00,010125,,M,,M,1,23,1.4,,M*0E
$GNGMP,020102.00,,,,,DAAA,23,0.6,,,,*50
$GPGMP,020102.00,,,,,,07,,,,1.9,123*73
$GLGMP,020102.00,,,,,,04,,,,,*7A
$GAGMP,020102.00,,,,,,05,,,,,*76
$GBGMP,020102.00,,,,,,07,,,,,*77
$PSSN,SNC,[0,266480000,2347]*4A
$GPZDA,020107.00,01,01,2025,,*67
$GPDTM,W84,,00.0000000,N,00.0000000,E,00.0000000,W84*5F
$GPRMC,020107.00,A,4742.4464634,N,01617.9728277,E,0.0,,010125,5.1,E,D*18
$GPGLL,4742.4464634,N,01617.9728277,E,020107.00,A,D*69
$GPGGA,020107.00,4742.4464634,N,01617.9728277,E,2,24,0.6,625.1781,M,43.2111,M,2.9,0123*45
$GNGNS,020107.00,4742.4464634,N,01617.9728277,E,DAAA,24,0.6,625.1781,43.2111,,*52
$GPGNS,020107.00,,,,,,07,,,,2.9,123*75
$GLGNS,020107.00,,,,,,04,,,,,*7F
$GAGNS,020107.00,,,,,,06,,,,,*70
$GBGNS,020107.00,,,,,,07,,,,,*72
$GPLLQ,020107.00,010125,,M,,M,1,24,2.874,,M*1A
$GPVTG,,T,,M,0.00,N,0.01,K,D*27
$GPHDT,,T*1B
$GPTHS,,V*0E
$GPROT,,V*08
$PSSN,HRP,020107.00,010125,,,,,,,00,0,,*65
$PTNL,AVR,020107.00,,Yaw,,Tilt,,,,0,,00*33
$GPGSA,A,3,02,03,04,09,17,19,31,,,,,,1.2,0.6,1.0*36
$GPGSA,A,3,69,84,85,86,,,,,,,,,1.2,0.6,1.0*36
$GPGSA,A,3,05,06,09,11,34,36,,,,,,,1.2,0.6,1.0*3E
$GPGSA,A,3,06,09,16,19,20,29,44,,,,,,1.2,0.6,1.0*3F
$GPGST,020107.00,2.551,1.248,0.860,343.136,1.220,0.899,2.443*59
$GPGBS,020107.00,3.143,2.868,6.983,02,0.0001,-2.650,0.712*75
$GPGRS,020107.00,1,-2.6,-0.2,1.0,1.8,-2.0,1.1,0.3,,,,,*46
$GPGRS,020107.00,1,2.7,-2.4,2.4,-5.8,,,,,,,,*42
$GPGRS,020107.00,1,5.3,1.1,0.7,-0.9,0.0,1.1,,,,,,*6F
$GPGRS,020107.00,1,-1.8,0.7,-0.5,-0.6,-1.9,0.3,-1.3,,,,,*4D
$GPGSV,4,1,15,03,73,053,48,21,19,153,26,06,22,313,27,28,22,046,28*7D
$GPGSV,4,2,15,19,31,289,40,17,32,255,39,02,36,159,38,09,37,224,40*75
$GPGSV,4,3,15,31,34,074,42,01,41,149,,04,66,208,42,36,35,170,42*79
$GPGSV,4,4,15,34,31,208,,49,34,195,37,61,03,257,*45
$GLGSV,2,1,08,85,70,238,53,86,32,324,41,78,14,026,35,79,15,077,*66
$GLGSV,2,2,08,84,28,171,36,71,21,247,,69,36,046,39,70,66,280,25*65
$GAGSV,3,1,09,36,79,263,45,10,15,142,29,05,25,220,37,18,21,293,*63
$GAGSV,3,2,09,34,29,312,43,04,45,055,29,11,42,147,40,06,70,076,41*60
$GAGSV,3,3,09,09,77,181,51*54
$GBGSV,5,1,19,48,83,317,,23,12,044,30,32,13,068,22,44,12,323,35*6E
$GBGSV,5,2,19,37,16,094,,39,26,043,33,05,24,128,,29,37,201,46*65
$GBGSV,5,3,19,16,32,052,38,06,33,056,37,35,44,285,35,09,39,071,39*6E
$GBGSV,5,4,19,19,56,263,46,20,68,051,52,22,05,253,,46,01,143,*67
$GBGSV,5,5,19,02,08,105,,58,05,127,,60,09,110,*5E
$GPGGA,020107.00,,,,,0,00,,,M,,M,,*4C
$PTNL,GGK,020107.00,010125,4742.4464634,N,01617.9728277,E,1,24,1.2,EHT668.3891,M*41
$GPGGQ,020107.00,010125,4742.4464634,N,01617.9728277,E,1,24,2.874,625.1781,M*30
$GPGFA,020107.00,11.865,20.029,1.248,0.860,343.136,2.443,,VVV*05
$GPLLK,020107.00,010125,,M,,M,1,24,1.4,,M*0C
$GNGMP,020107.00,,,,,DAAA,24,0.6,,,,*52
$GPGMP,020107.00,,,,,,07,,,,2.9,123*75
$GLGMP,020107.00,,,,,,04,,,,,*7F
$GAGMP,020107.00,,,,,,06,,,,,*70
$GBGMP,020107.00,,,,,,07,,,,,*72
$PSSN,SNC,[0,266485000,2347]*4F
$GPZDA,020112.00,01,01,2025,,*63
$GPDTM,W84,,00.0000000,N,00.0000000,E,00.0000000,W84*5F
$GPRMC,020112.00,A,4742.4464633,N,01617.9728352,E,0.0,,010125,5.1,E,D*1D
$GPGLL,4742.4464633,N,01617.9728352,E,020112.00,A,D*6C
$GPGGA,020112.00,4742.4464633,N,01617.9728352,E,2,27,0.6,625.1674,M,43.2111,M,3.3,0123*43
$GNGNS,020112.00,4742.4464633,N,01617.9728352,E,DAAA,27,0.6,625.1674,43.2111,,*5F
$GPGNS,020112.00,,,,,,07,,,,3.3,123*7A
$GLGNS,020112.00,,,,,,05,,,,,*7A
$GAGNS,020112.00,,,,,,06,,,,,*74
$GBGNS,020112.00,,,,,,09,,,,,*78
$GPLLQ,020112.00,010125,,M,,M,1,27,2.973,,M*1B
$GPVTG,,T,,M,0.01,N,0.01,K,D*26
$GPHDT,,T*1B
$GPTHS,,V*0E
$GPROT,,V*08
$PSSN,HRP,020112.00,010125,,,,,,,00,0,,*61
$PTNL,AVR,020112.00,,Yaw,,Tilt,,,,0,,00*37
$GPGSA,A,3,02,03,04,09,17,19,31,,,,,,1.1,0.6,1.0*35
$GPGSA,A,3,69,71,84,85,86,,,,,,,,1.1,0.6,1.0*33
$GPGSA,A,3,04,06,09,11,34,36,,,,,,,1.1,0.6,1.0*3C
$GPGSA,A,3,06,09,16,19,20,29,35,39,44,,,,1.1,0.6,1.0*30
$GPGST,020112.00,4.882,1.147,0.883,356.649,1.146,0.885,2.597*54
$GPGBS,020112.00,3.297,2.802,6.939,17,0.0001,-2.672,0.761*76
$GPGRS,020112.00,1,-2.0,-0.1,0.6,2.0,-2.7,1.7,-0.3,,,,,*67
$GPGRS,020112.00,1,-0.4,-2.7,-1.2,1.7,-0.4,,,,,,,*60
$GPGRS,020112.00,1,-3.7,0.4,0.3,-1.5,-0.6,1.3,,,,,,*60
$GPGRS,020112.00,1,1.1,-0.1,-0.2,-1.6,-1.7,1.1,-6.3,19.5,0.2,,,*75
$GPGSV,4,1,15,03,73,053,49,21,19,153,23,06,22,313,33,28,22,046,28*7C
$GPGSV,4,2,15,19,31,289,42,17,32,255,41,02,36,159,37,09,37,224,38*78
$GPGSV,4,3,15,31,34,074,42,01,41,149,,04,66,208,44,36,35,170,43*7E
$GPGSV,4,4,15,34,31,208,,49,34,195,38,61,03,257,*4A
$GLGSV,2,1,08,85,69,238,53,86,32,324,44,78,14,026,,79,15,077,*6D
$GLGSV,2,2,08,84,28,171,35,71,21,247,34,69,36,046,41,70,66,280,28*63
$GAGSV,3,1,09,36,79,263,45,10,15,142,28,05,25,220,27,18,21,293,*63
$GAGSV,3,2,09,34,29,312,43,04,45,055,45,11,42,147,40,06,70,076,42*69
$GAGSV,3,3,09,09,77,181,51*54
$GBGSV,5,1,19,48,83,318,,23,12,044,30,32,13,068,,44,12,323,34*60
$GBGSV,5,2,19,39,26,043,36,05,24,128,,37,16,094,,29,37,201,45*63
$GBGSV,5,3,19,16,32,052,39,06,33,056,38,35,44,285,35,09,39,071,38*61
$GBGSV,5,4,19,19,56,263,46,20,68,051,52,22,05,253,,46,01,143,*67
$GBGSV,5,5,19,02,08,105,,58,05,127,,60,09,110,*5E
$GPGGA,020112.00,,,,,0,00,,,M,,M,,*48
$PTNL,GGK,020112.00,010125,4742.4464633,N,01617.9728352,E,1,27,1.1,EHT668.3784,M*4F
$GPGGQ,020112.00,010125,4742.4464633,N,01617.9728352,E,1,27,2.973,625.1674,M*3B
$GPGFA,020112.00,10.903,21.295,1.147,0.883,356.649,2.597,,VVV*07
$GPLLK,020112.00,010125,,M,,M,1,27,1.3,,M*0C
$GNGMP,020112.00,,,,,DAAA,27,0.6,,,,*55
$GPGMP,020112.00,,,,,,07,,,,3.3,123*7A
$GLGMP,020112.00,,,,,,05,,,,,*7A
$GAGMP,020112.00,,,,,,06,,,,,*74
$GBGMP,020112.00,,,,,,09,,,,,*78
$PSSN,SNC,[0,266490000,2347]*4B
$GPZDA,020117.00,01,01,2025,,*66
$GPDTM,W84,,00.0000000,N,00.0000000,E,00.0000000,W84*5F
$GPRMC,020117.00,A,4742.4464571,N,01617.9728465,E,0.0,,010125,5.1,E,D*1E
$GPGLL,4742.4464571,N,01617.9728465,E,020117.00,A,D*6F
$GPGGA,020117.00,4742.4464571,N,01617.9728465,E,2,23,0.6,625.1558,M,43.2111,M,2.0,0123*4B
$GNGNS,020117.00,4742.4464571,N,01617.9728465,E,DAAA,23,0.6,625.1558,43.2111,,*55
$GPGNS,020117.00,,,,,,07,,,,2.0,123*7D
$GLGNS,020117.00,,,,,,03,,,,,*79
$GAGNS,020117.00,,,,,,05,,,,,*72
$GBGNS,020117.00,,,,,,08,,,,,*7C
$GPLLQ,020117.00,010125,,M,,M,1,23,2.062,,M*13
$GPVTG,,T,,M,0.01,N,0.02,K,D*25
$GPHDT,,T*1B
$GPTHS,,V*0E
$GPROT,,V*08
$PSSN,HRP,020117.00,010125,,,,,,,00,0,,*64
$PTNL,AVR,020117.00,,Yaw,,Tilt,,,,0,,00*32
$GPGSA,A,3,02,03,04,09,17,19,31,,,,,,1.3,0.6,1.1*36
$GPGSA,A,3,69,85,86,,,,,,,,,,1.3,0.6,1.1*3A
$GPGSA,A,3,06,09,11,34,36,,,,,,,,1.3,0.6,1.1*3B
$GPGSA,A,3,06,09,16,19,20,29,35,44,,,,,1.3,0.6,1.1*39
$GPGST,020117.00,1.549,0.840,0.619,351.614,0.835,0.625,1.778*5B
$GPGBS,020117.00,3.189,2.721,6.739,19,0.0001,2.201,0.816*53
$GPGRS,020117.00,1,-0.7,-0.1,0.8,0.5,-2.0,2.2,-0.5,,,,,*69
$GPGRS,020117.00,1,-0.9,1.3,0.1,,,,,,,,,*42
$GPGRS,020117.00,1,0.3,0.4,-1.8,-0.9,1.4,,,,,,,*67
$GPGRS,020117.00,1,0.5,-0.4,2.8,-2.0,-1.5,0.3,-1.7,-1.4,,,,*6B
$GPGSV,4,1,15,03,73,053,49,21,19,153,,06,22,313,36,28,22,046,31*70
$GPGSV,4,2,15,19,31,289,41,17,32,255,41,02,36,159,39,09,37,224,39*74
$GPGSV,4,3,15,31,34,074,42,01,41,149,,04,66,208,45,36,35,170,41*7D
$GPGSV,4,4,15,34,31,208,,49,34,195,39,61,03,257,*4B
$GLGSV,2,1,08,85,69,238,52,86,32,324,45,78,14,026,23,79,15,077,*6C
$GLGSV,2,2,08,84,28,171,34,71,21,247,29,69,36,046,41,70,66,280,30*67
$GAGSV,3,1,09,36,79,262,46,10,15,142,28,05,25,220,25,18,21,293,*63
$GAGSV,3,2,09,34,29,312,43,04,45,055,31,11,42,148,40,06,70,075,41*65
$GAGSV,3,3,09,09,77,181,51*54
$GBGSV,5,1,19,48,83,318,,23,12,044,23,32,13,068,,44,12,323,36*60
$GBGSV,5,2,19,37,16,094,,39,26,043,33,05,24,128,,29,37,201,42*61
$GBGSV,5,3,19,16,32,052,39,06,33,056,38,35,44,285,40,09,39,071,39*62
$GBGSV,5,4,19,19,56,263,45,20,68,051,52,22,05,253,,46,01,143,*64
$GBGSV,5,5,19,02,08,105,,58,05,127,,60,09,110,*5E
$GPGGA,020117.00,,,,,0,00,,,M,,M,,*4D
$PTNL,GGK,020117.00,010125,4742.4464571,N,01617.9728465,E,1,23,1.3,EHT668.3668,M*49
$GPGGQ,020117.00,010125,4742.4464571,N,01617.9728465,E,1,23,2.062,625.1558,M*38
$GPGFA,020117.00,7.982,14.583,0.840,0.619,351.614,1.778,,VVV*36
$GPLLK,020117.00,010125,,M,,M,1,23,1.5,,M*0B
$GNGMP,020117.00,,,,,DAAA,23,0.6,,,,*54
$GPGMP,020117.00,,,,,,07,,,,2.0,123*7D
$GLGMP,020117.00,,,,,,03,,,,,*79
$GAGMP,020117.00,,,,,,05,,,,,*72
$GBGMP,020117.00,,,,,,08,,,,,*7C
$PSSN,SNC,[0,266495000,2347]*4E
$GPZDA,020122.00,01,01,2025,,*60
$GPDTM,W84,,00.0000000,N,00.0000000,E,00.0000000,W84*5F
$GPRMC,020122.00,A,4742.4464530,N,01617.9728495,E,0.0,,010125,5.1,E,D*12
$GPGLL,4742.4464530,N,01617.9728495,E,020122.00,A,D*63
$GPGGA,020122.00,4742.4464530,N,01617.9728495,E,2,23,0.6,625.1532,M,43.2111,M,1.9,0123*41
$GNGNS,020122.00,4742.4464530,N,01617.9728495,E,DAAA,23,0.6,625.1532,43.2111,,*55
$GPGNS,020122.00,,,,,,07,,,,1.9,123*71
$GLGNS,020122.00,,,,,,04,,,,,*78
$GAGNS,020122.00,,,,,,05,,,,,*74
$GBGNS,020122.00,,,,,,07,,,,,*75
$GPLLQ,020122.00,010125,,M,,M,1,23,1.369,,M*1E
$GPVTG,,T,,M,0.01,N,0.02,K,D*25
$GPHDT,,T*1B
$GPTHS,,V*0E
$GPROT,,V*08
$PSSN,HRP,020122.00,010125,,,,,,,00,0,,*62
$PTNL,AVR,020122.00,,Yaw,,Tilt,,,,0,,00*34
$GPGSA,A,3,02,03,04,06,17,19,31,,,,,,1.3,0.6,1.1*39
$GPGSA,A,3,69,84,85,86,,,,,,,,,1.3,0.6,1.1*36
$GPGSA,A,3,06,09,11,34,36,,,,,,,,1.3,0.6,1.1*3B
$GPGSA,A,3,06,09,16,19,20,29,35,,,,,,1.3,0.6,1.1*39
$GPGST,020122.00,2.003,0.559,0.448,14.904,0.552,0.456,1.167*68
$GPGBS,020122.00,3.464,3.074,6.235,17,0.0001,-0.882,0.733*74
$GPGRS,020122.00,1,-0.3,-0.4,0.3,-0.1,-0.9,0.9,-0.1,,,,,*4A
$GPGRS,020122.00,1,-0.8,-2.9,1.1,-0.3,,,,,,,,*60
$GPGRS,020122.00,1,0.6,0.1,-2.4,-1.4,0.5,,,,,,,*62
$GPGRS,020122.00,1,0.4,-1.1,5.4,-2.4,-2.2,-1.5,-0.1,,,,,*48
$GPGSV,4,1,15,03,73,053,50,21,19,153,21,06,23,313,37,28,22,046,25*7E
$GPGSV,4,2,15,19,31,289,39,17,32,255,41,02,36,159,38,09,37,224,36*75
$GPGSV,4,3,15,31,34,074,41,01,41,149,,04,66,208,44,36,35,170,40*7E
$GPGSV,4,4,15,34,31,208,,49,34,195,39,61,03,257,*4B
$GLGSV,2,1,08,85,69,238,52,86,32,324,47,78,13,026,,79,15,077,*68
$GLGSV,2,2,08,84,28,171,36,71,21,247,34,69,36,046,41,70,66,280,32*6B
$GAGSV,3,1,09,36,79,262,45,10,15,142,28,05,25,220,30,18,21,293,*64
$GAGSV,3,2,09,34,29,312,43,04,45,055,29,11,42,148,40,06,70,075,43*6E
$GAGSV,3,3,09,09,77,181,51*54
$GBGSV,5,1,19,48,83,318,,23,12,044,28,32,13,068,,44,12,323,35*68
$GBGSV,5,2,19,37,17,094,,39,25,043,34,05,24,128,,29,37,201,42*64
$GBGSV,5,3,19,16,32,052,38,06,33,056,37,35,44,285,41,09,39,071,39*6D
$GBGSV,5,4,19,19,57,263,44,20,68,051,51,22,06,253,,46,01,143,*64
$GBGSV,5,5,19,02,08,105,,58,05,127,,60,09,110,*5E
$GPGGA,020122.00,,,,,0,00,,,M,,M,,*4B
$PTNL,GGK,020122.00,010125,4742.4464530,N,01617.9728495,E,1,23,1.3,EHT668.3643,M*4C
$GPGGQ,020122.00,010125,4742.4464530,N,01617.9728495,E,1,23,1.369,625.1532,M*33
$GPGFA,020122.00,5.311,9.570,0.559,0.448,14.904,1.167,,VVV*35
$GPLLK,020122.00,010125,,M,,M,1,23,1.5,,M*0D
$GNGMP,020122.00,,,,,DAAA,23,0.6,,,,*52
$GPGMP,020122.00,,,,,,07,,,,1.9,123*71
$GLGMP,020122.00,,,,,,04,,,,,*78
$GAGMP,020122.00,,,,,,05,,,,,*74
$GBGMP,020122.00,,,,,,07,,,,,*75
$PSSN,SNC,[0,266500000,2347]*43
$GPZDA,020127.00,01,01,2025,,*65
$GPDTM,W84,,00.0000000,N,00.0000000,E,00.0000000,W84*5F
$GPRMC,020127.00,A,4742.4464534,N,01617.9728427,E,0.0,,010125,5.1,E,D*1A
$GPGLL,4742.4464534,N,01617.9728427,E,020127.00,A,D*6B
$GPGGA,020127.00,4742.4464534,N,01617.9728427,E,2,23,0.7,625.1478,M,43.2111,M,2.9,0123*44
$GNGNS,020127.00,4742.4464534,N,01617.9728427,E,DAAA,23,0.7,625.1478,43.2111,,*53
$GPGNS,020127.00,,,,,,07,,,,2.9,123*77
$GLGNS,020127.00,,,,,,03,,,,,*7A
$GAGNS,020127.00,,,,,,05,,,,,*71
$GBGNS,020127.00,,,,,,08,,,,,*7F
$GPLLQ,020127.00,010125,,M,,M,1,23,1.634,,M*16
$GPVTG,,T,,M,0.01,N,0.01,K,D*26
$GPHDT,,T*1B
$GPTHS,,V*0E
$GPROT,,V*08
$PSSN,HRP,020127.00,010125,,,,,,,00,0,,*67
$PTNL,AVR,020127.00,,Yaw,,Tilt,,,,0,,00*31
$GPGSA,A,3,02,03,04,06,17,19,31,,,,,,1.3,0.7,1.1*38
$GPGSA,A,3,69,85,86,,,,,,,,,,1.3,0.7,1.1*3B
$GPGSA,A,3,06,09,11,34,36,,,,,,,,1.3,0.7,1.1*3A
$GPGSA,A,3,06,09,16,19,20,29,35,44,,,,,1.3,0.7,1.1*38
$GPGST,020127.00,2.062,0.669,0.528,14.100,0.661,0.538,1.394*65
$GPGBS,020127.00,3.593,3.137,6.418,19,0.0001,-2.028,0.798*72
$GPGRS,020127.00,1,-0.2,0.3,0.4,-0.8,0.5,-2.0,1.0,,,,,*40
$GPGRS,020127.00,1,0.1,1.4,0.8,,,,,,,,,*6A
$GPGRS,020127.00,1,0.9,0.8,-2.0,-1.0,1.6,,,,,,,*63
$GPGRS,020127.00,1,1.2,0.2,4.7,-3.2,-1.6,-1.9,-3.1,-0.9,,,,*62
$GPGSV,4,1,15,03,73,053,51,21,19,153,24,06,23,313,39,28,22,046,27*76
$GPGSV,4,2,15,19,31,289,34,17,31,255,39,02,36,159,39,09,37,224,31*72
$GPGSV,4,3,15,31,34,074,39,01,41,149,,04,66,208,43,36,35,170,40*76
$GPGSV,4,4,15,34,31,208,,49,34,195,39,61,03,257,*4B
$GLGSV,2,1,08,85,69,238,51,86,32,324,49,78,13,026,24,79,15,077,*63
$GLGSV,2,2,08,84,28,171,34,71,21,247,20,69,36,046,44,70,66,280,34*6F
$GAGSV,3,1,09,36,79,262,46,10,15,142,25,05,25,220,31,18,21,293,*6B
$GAGSV,3,2,09,34,29,312,43,04,45,055,32,11,42,148,40,06,70,075,43*64
$GAGSV,3,3,09,09,77,181,50*55
$GBGSV,5,1,19,48,83,318,,23,12,044,28,32,13,068,,44,12,323,37*6A
$GBGSV,5,2,19,37,17,094,,39,25,043,34,05,24,128,,29,37,201,40*66
$GBGSV,5,3,19,16,32,052,38,06,33,056,37,35,44,285,43,09,39,071,39*6F
$GBGSV,5,4,19,19,57,263,44,20,68,051,51,22,06,253,,46,01,143,*64
$GBGSV,5,5,19,02,08,105,,58,05,127,,60,09,110,*5E
$GPGGA,020127.00,,,,,0,00,,,M,,M,,*4E
$PTNL,GGK,020127.00,010125,4742.4464534,N,01617.9728427,E,1,23,1.3,EHT668.3588,M*40
$GPGGQ,020127.00,010125,4742.4464534,N,01617.9728427,E,1,23,1.634,625.1478,M*39
$GPGFA,020127.00,6.356,11.429,0.669,0.528,14.100,1.394,,VVV*01
$GPLLK,020127.00,010125,,M,,M,1,23,1.5,,M*08
$GNGMP,020127.00,,,,,DAAA,23,0.7,,,,*56
$GPGMP,020127.00,,,,,,07,,,,2.9,123*77
$GLGMP,020127.00,,,,,,03,,,,,*7A
$GAGMP,020127.00,,,,,,05,,,,,*71
$GBGMP,020127.00,,,,,,08,,,,,*7F
$PSSN,SNC,[0,266505000,2347]*46
$GPZDA,020132.00,01,01,2025,,*61
$GPDTM,W84,,00.0000000,N,00.0000000,E,00.0000000,W84*5F
$GPRMC,020132.00,A,4742.4464523,N,01617.9728355,E,0.0,,010125,5.1,E,D*1A
$GPGLL,4742.4464523,N,01617.9728355,E,020132.00,A,D*6B
$GPGGA,020132.00,4742.4464523,N,01617.9728355,E,2,22,0.7,625.1301,M,43.2111,M,3.3,0123*47
$GNGNS,020132.00,4742.4464523,N,01617.9728355,E,DAAA,22,0.7,625.1301,43.2111,,*5B
$GPGNS,020132.00,,,,,,06,,,,3.3,123*79
$GLGNS,020132.00,,,,,,03,,,,,*7E
$GAGNS,020132.00,,,,,,05,,,,,*75
$GBGNS,020132.00,,,,,,08,,,,,*7B
$GPLLQ,020132.00,010125,,M,,M,1,22,1.409,,M*1F
$GPVTG,,T,,M,0.00,N,0.01,K,D*27
$GPHDT,,T*1B
$GPTHS,,V*0E
$GPROT,,V*08
$PSSN,HRP,020132.00,010125,,,,,,,00,0,,*63
$PTNL,AVR,020132.00,,Yaw,,Tilt,,,,0,,00*35
$GPGSA,A,3,02,03,04,06,17,31,,,,,,,1.3,0.7,1.1*30
$GPGSA,A,3,69,85,86,,,,,,,,,,1.3,0.7,1.1*3B
$GPGSA,A,3,06,09,11,34,36,,,,,,,,1.3,0.7,1.1*3A
$GPGSA,A,3,06,09,16,19,20,29,35,44,,,,,1.3,0.7,1.1*38
$GPGST,020132.00,1.911,0.576,0.486,359.175,0.576,0.486,1.191*59
$GPGBS,020132.00,3.881,3.155,6.685,02,0.0001,-0.931,0.725*75
$GPGRS,020132.00,1,-0.9,0.6,0.8,-1.2,-0.6,0.5,,,,,,*66
$GPGRS,020132.00,1,0.3,0.5,1.6,,,,,,,,,*63
$GPGRS,020132.00,1,0.9,0.7,-1.5,-0.9,1.7,,,,,,,*67
$GPGRS,020132.00,1,0.5,0.8,3.0,-4.2,-1.3,-2.1,-2.5,1.0,,,,*43
$GPGSV,4,1,15,03,73,053,52,21,19,153,26,06,23,313,40,28,22,046,34*7B
$GPGSV,4,2,15,19,31,289,32,17,31,254,39,02,36,159,40,09,37,224,31*7B
$GPGSV,4,3,15,31,34,073,41,01,41,149,,04,66,208,43,36,35,170,37*7E
