$GPZDA,052942.00,01,01,2025,,*6B
$GPDTM,W84,,00.0000000,N,00.0000000,E,00.0000000,W84*5F
$GPRMC,052942.00,A,4742.4468114,N,01617.9732011,E,0.0,,010125,5.1,E,D*14
$GPGLL,4742.4468114,N,01617.9732011,E,052942.00,A,D*65
$GPGGA,052942.00,4742.4468114,N,01617.9732011,E,2,18,0.8,624.0849,M,43.2111,M,1.8,0123*41
$GNGNS,052942.00,4742.4468114,N,01617.9732011,E,DAAA,18,0.8,624.0849,43.2111,,*54
$GPGNS,052942.00,,,,,,05,,,,1.8,123*79
$GLGNS,052942.00,,,,,,05,,,,,*72
$GAGNS,052942.00,,,,,,04,,,,,*7E
$GBGNS,052942.00,,,,,,04,,,,,*7D
$GPLLQ,052942.00,010125,,M,,M,1,18,3.635,,M*13
$GPVTG,,T,,M,0.01,N,0.01,K,D*26
$GPHDT,,T*1B
$GPTHS,,V*0E
$GPROT,,V*08
$PSSN,HRP,052942.00,010125,,,,,,,00,0,,*69
$PTNL,AVR,052942.00,,Yaw,,Tilt,,,,0,,00*3F
$GPGSA,A,3,07,09,11,20,30,,,,,,,,1.5,0.8,1.3*33
$GPGSA,A,3,71,72,73,74,88,,,,,,,,1.5,0.8,1.3*38
$GPGSA,A,3,03,05,24,31,,,,,,,,,1.5,0.8,1.3*3E
$GPGSA,A,3,19,21,22,36,,,,,,,,,1.5,0.8,1.3*32
$GPGST,052942.00,6.010,1.128,0.772,345.714,1.109,0.798,3.369*50
$GPGBS,052942.00,5.466,4.328,15.669,20,0.0001,1.249,0.677*6D
$GPGRS,052942.00,1,0.4,-0.4,-0.1,1.2,-0.8,,,,,,,*4F
$GPGRS,052942.00,1,-1.6,8.7,1.2,0.2,-6.5,,,,,,,*62
$GPGRS,052942.00,1,-2.4,-1.0,-0.7,-0.5,,,,,,,,*43
$GPGRS,052942.00,1,-2.8,15.6,-2.6,-2.7,,,,,,,,*52
$GPGSV,4,1,14,07,77,129,50,16,14,039,,05,16,312,32,06,25,217,34*78
$GPGSV,4,2,14,04,22,082,30,11,37,259,44,30,49,207,40,20,48,300,46*7D
$GPGSV,4,3,14,09,50,078,42,13,03,264,,36,35,170,41,34,31,208,*70
$GPGSV,4,4,14,49,34,195,34,61,03,257,*78
$GLGSV,3,1,10,71,57,073,49,88,22,319,42,80,17,027,34,70,13,102,*6C
$GLGSV,3,2,10,74,41,154,39,87,23,256,,72,56,321,45,73,55,081,48*60
$GLGSV,3,3,10,86,01,217,,65,04,294,33*67
$GAGSV,4,1,13,05,79,025,49,24,27,118,38,16,17,143,,31,26,060,37*6D
$GAGSV,4,2,13,09,29,079,33,34,36,227,40,15,36,294,33,03,39,274,37*63
$GAGSV,4,3,13,23,01,018,,25,04,163,,13,05,337,30,06,07,083,*6A
$GAGSV,4,4,13,36,05,186,*55
$GBGSV,6,1,21,22,77,321,49,16,11,048,,34,11,300,33,06,13,049,28*6E
$GBGSV,6,2,21,45,18,189,34,12,14,273,25,48,17,112,,05,22,129,33*63
$GBGSV,6,3,21,58,27,046,,09,28,051,32,21,24,297,38,46,40,061,*62
$GBGSV,6,4,21,36,53,143,48,19,44,108,47,44,06,250,27,11,06,321,*63
$GBGSV,6,5,21,39,00,049,,43,02,342,,50,03,295,,02,06,107,*66
$GBGSV,6,6,21,60,07,111,*58
$GPGGA,052942.00,,,,,0,00,,,M,,M,,*40
$PTNL,GGK,052942.00,010125,4742.4468114,N,01617.9732011,E,1,18,1.5,EHT667.2960,M*44
$GPGGQ,052942.00,010125,4742.4468114,N,01617.9732011,E,1,18,3.635,624.0849,M*32
$GPGFA,052942.00,10.721,27.624,1.128,0.772,345.714,3.369,,VVV*0C
$GPLLK,052942.00,010125,,M,,M,1,18,1.8,,M*03
$GNGMP,052942.00,,,,,DAAA,18,0.8,,,,*5F
$GPGMP,052942.00,,,,,,05,,,,1.8,123*79
$GLGMP,052942.00,,,,,,05,,,,,*72
$GAGMP,052942.00,,,,,,04,,,,,*7E
$GBGMP,052942.00,,,,,,04,,,,,*7D
$PSSN,SNC,[0,279000000,2347]*48
$GPZDA,052947.00,01,01,2025,,*6E
$GPDTM,W84,,00.0000000,N,00.0000000,E,00.0000000,W84*5F
$GPRMC,052947.00,A,4742.4468031,N,01617.9732139,E,0.0,,010125,5.1,E,D*1C
$GPGLL,4742.4468031,N,01617.9732139,E,052947.00,A,D*6D
$GPGGA,052947.00,4742.4468031,N,01617.9732139,E,2,20,0.7,624.0755,M,43.2111,M,2.0,0123*44
$GNGNS,052947.00,4742.4468031,N,01617.9732139,E,DAAA,20,0.7,624.0755,43.2111,,*5A
$GPGNS,052947.00,,,,,,05,,,,2.0,123*77
$GLGNS,052947.00,,,,,,06,,,,,*74
$GAGNS,052947.00,,,,,,05,,,,,*7A
$GBGNS,052947.00,,,,,,04,,,,,*78
$GPLLQ,052947.00,010125,,M,,M,1,20,3.763,,M*1F
$GPVTG,,T,,M,0.00,N,0.01,K,D*27
$GPHDT,,T*1B
$GPTHS,,V*0E
$GPROT,,V*08
$PSSN,HRP,052947.00,010125,,,,,,,00,0,,*6C
$PTNL,AVR,052947.00,,Yaw,,Tilt,,,,0,,00*3A
$GPGSA,A,3,07,09,11,20,30,,,,,,,,1.4,0.7,1.2*3C
$GPGSA,A,3,71,72,73,74,80,88,,,,,,,1.4,0.7,1.2*3F
$GPGSA,A,3,03,05,24,31,34,,,,,,,,1.4,0.7,1.2*36
$GPGSA,A,3,19,21,22,36,,,,,,,,,1.4,0.7,1.2*3D
$GPGST,052947.00,5.838,1.227,0.831,346.686,1.209,0.857,3.459*52
$GPGBS,052947.00,5.311,4.314,15.299,30,0.0001,-1.207,0.646*4F
$GPGRS,052947.00,1,0.3,-0.8,0.8,1.0,-1.2,,,,,,,*6C
$GPGRS,052947.00,1,-1.4,6.0,1.9,0.9,10.8,-4.2,,,,,,*7E
$GPGRS,052947.00,1,-4.6,-1.2,-0.3,0.5,-0.6,,,,,,,*6C
$GPGRS,052947.00,1,-1.9,14.9,-2.6,-2.2,,,,,,,,*5E
$GPGSV,4,1,14,07,77,129,50,16,14,039,22,05,16,312,33,06,25,217,32*7F
$GPGSV,4,2,14,04,22,082,31,11,37,259,45,30,49,207,41,20,49,300,47*7C
$GPGSV,4,3,14,09,50,078,41,13,03,264,,36,35,170,41,34,31,208,*73
$GPGSV,4,4,14,49,34,195,34,61,03,257,*78
$GLGSV,3,1,10,71,57,073,49,88,22,319,43,80,17,027,36,70,13,102,*6F
$GLGSV,3,2,10,74,41,154,38,87,23,256,27,72,56,321,46,73,55,081,49*66
$GLGSV,3,3,10,86,01,217,,65,04,294,30*64
$GAGSV,4,1,13,05,79,025,49,24,27,118,39,16,17,143,,31,26,060,36*6D
$GAGSV,4,2,13,09,29,079,34,34,36,227,39,15,36,294,35,03,39,274,36*6D
$GAGSV,4,3,13,23,01,018,,25,04,163,,13,05,337,26,06,07,083,*6D
$GAGSV,4,4,13,36,04,186,*54
$GBGSV,6,1,21,22,77,321,49,16,11,048,,34,11,300,31,06,13,049,27*63
$GBGSV,6,2,21,45,18,189,35,12,14,273,23,48,17,112,,05,22,129,33*64
$GBGSV,6,3,21,58,27,046,,09,28,051,32,21,24,297,38,46,40,061,*62
$GBGSV,6,4,21,36,53,143,48,19,44,108,47,44,06,250,22,11,06,321,*66
$GBGSV,6,5,21,39,00,049,,43,02,342,,50,03,295,,02,06,107,*66
$GBGSV,6,6,21,60,07,111,*58
$GPGGA,052947.00,,,,,0,00,,,M,,M,,*45
$PTNL,GGK,052947.00,010125,4742.4468031,N,01617.9732139,E,1,20,1.4,EHT667.2866,M*41
$GPGGQ,052947.00,010125,4742.4468031,N,01617.9732139,E,1,20,3.763,624.0755,M*31
$GPGFA,052947.00,11.663,28.361,1.227,0.831,346.686,3.459,,VVV*0D
$GPLLK,052947.00,010125,,M,,M,1,20,1.6,,M*03
$GNGMP,052947.00,,,,,DAAA,20,0.7,,,,*5E
$GPGMP,052947.00,,,,,,05,,,,2.0,123*77
$GLGMP,052947.00,,,,,,06,,,,,*74
$GAGMP,052947.00,,,,,,05,,,,,*7A
$GBGMP,052947.00,,,,,,04,,,,,*78
$PSSN,SNC,[0,279005000,2347]*4D
$GPZDA,052952.00,01,01,2025,,*6A
$GPDTM,W84,,00.0000000,N,00.0000000,E,00.0000000,W84*5F
$GPRMC,052952.00,A,4742.4467938,N,01617.9732273,E,0.0,,010125,5.1,E,D*1A
$GPGLL,4742.4467938,N,01617.9732273,E,052952.00,A,D*6B
$GPGGA,052952.00,4742.4467938,N,01617.9732273,E,2,20,0.7,624.0722,M,43.2111,M,3.0,0123*43
$GNGNS,052952.00,4742.4467938,N,01617.9732273,E,DAAA,20,0.7,624.0722,43.2111,,*5C
$GPGNS,052952.00,,,,,,05,,,,3.0,123*72
$GLGNS,052952.00,,,,,,05,,,,,*73
$GAGNS,052952.00,,,,,,05,,,,,*7E
$GBGNS,052952.00,,,,,,05,,,,,*7D
$GPLLQ,052952.00,010125,,M,,M,1,20,3.141,,M*1D
$GPVTG,,T,,M,0.01,N,0.01,K,D*26
$GPHDT,,T*1B
$GPTHS,,V*0E
$GPROT,,V*08
$PSSN,HRP,052952.00,010125,,,,,,,00,0,,*68
$PTNL,AVR,052952.00,,Yaw,,Tilt,,,,0,,00*3E
$GPGSA,A,3,07,09,11,20,30,,,,,,,,1.3,0.7,1.2*3B
$GPGSA,A,3,71,72,73,74,88,,,,,,,,1.3,0.7,1.2*30
$GPGSA,A,3,03,05,15,24,31,,,,,,,,1.3,0.7,1.2*32
$GPGSA,A,3,19,21,22,36,45,,,,,,,,1.3,0.7,1.2*3B
$GPGST,052952.00,4.176,0.988,0.695,350.560,0.981,0.705,2.899*54
$GPGBS,052952.00,5.422,4.457,15.835,30,0.0001,-1.051,0.664*41
$GPGRS,052952.00,1,0.1,-0.4,1.0,0.7,-1.1,,,,,,,*6A
$GPGRS,052952.00,1,-2.5,4.2,2.1,0.9,-2.9,,,,,,,*69
$GPGRS,052952.00,1,-4.5,-1.2,0.1,0.1,0.2,,,,,,,*69
$GPGRS,052952.00,1,-1.3,12.2,-2.7,-2.6,-0.5,,,,,,,*5E
$GPGSV,4,1,14,07,77,129,50,16,14,039,23,05,16,312,34,06,25,217,30*7B
$GPGSV,4,2,14,04,22,082,31,11,37,259,45,30,49,207,42,20,49,300,47*7F
$GPGSV,4,3,14,09,50,078,40,13,03,264,,36,35,170,41,34,31,208,*72
$GPGSV,4,4,14,49,34,195,34,61,03,257,*78
$GLGSV,3,1,10,71,56,073,48,88,22,319,44,80,17,027,35,70,13,102,*6B
$GLGSV,3,2,10,74,41,154,38,87,22,256,30,72,56,322,46,73,55,081,49*62
$GLGSV,3,3,10,86,01,217,,65,04,294,28*6D
$GAGSV,4,1,13,05,79,025,49,24,27,118,39,16,17,143,,31,26,060,35*6E
$GAGSV,4,2,13,09,29,079,35,34,36,227,33,15,36,294,35,03,39,274,36*66
$GAGSV,4,3,13,23,01,018,,25,04,162,,13,05,337,25,06,06,083,*6E
$GAGSV,4,4,13,36,04,186,*54
$GBGSV,6,1,21,22,77,321,48,16,11,048,,34,11,300,30,06,13,049,27*63
$GBGSV,6,2,21,45,18,189,36,12,14,273,24,48,17,112,,05,22,129,34*67
$GBGSV,6,3,21,58,27,046,,09,28,051,33,21,24,297,39,46,40,061,*62
$GBGSV,6,4,21,36,54,143,48,19,44,108,48,44,06,250,,11,06,321,*6E
$GBGSV,6,5,21,39,00,049,,43,02,342,,50,03,295,,02,06,107,*66
$GBGSV,6,6,21,60,07,111,*58
$GPGGA,052952.00,,,,,0,00,,,M,,M,,*41
$PTNL,GGK,052952.00,010125,4742.4467938,N,01617.9732273,E,1,20,1.3,EHT667.2832,M*41
$GPGGQ,052952.00,010125,4742.4467938,N,01617.9732273,E,1,20,3.141,624.0722,M*31
$GPGFA,052952.00,9.390,23.773,0.988,0.695,350.560,2.899,,VVV*37
$GPLLK,052952.00,010125,,M,,M,1,20,1.6,,M*07
$GNGMP,052952.00,,,,,DAAA,20,0.7,,,,*5A
$GPGMP,052952.00,,,,,,05,,,,3.0,123*72
$GLGMP,052952.00,,,,,,05,,,,,*73
$GAGMP,052952.00,,,,,,05,,,,,*7E
$GBGMP,052952.00,,,,,,05,,,,,*7D
$PSSN,SNC,[0,279010000,2347]*49
$GPZDA,052957.00,01,01,2025,,*6F
$GPDTM,W84,,00.0000000,N,00.0000000,E,00.0000000,W84*5F
$GPRMC,052957.00,A,4742.4467817,N,01617.9732322,E,0.0,,010125,5.1,E,D*16
$GPGLL,4742.4467817,N,01617.9732322,E,052957.00,A,D*67
$GPGGA,052957.00,4742.4467817,N,01617.9732322,E,2,19,0.7,624.0794,M,43.2111,M,3.2,0123*4A
$GNGNS,052957.00,4742.4467817,N,01617.9732322,E,DAAA,19,0.7,624.0794,43.2111,,*57
$GPGNS,052957.00,,,,,,05,,,,3.2,123*75
$GLGNS,052957.00,,,,,,06,,,,,*75
$GAGNS,052957.00,,,,,,03,,,,,*7D
$GBGNS,052957.00,,,,,,05,,,,,*78
$GPLLQ,052957.00,010125,,M,,M,1,19,3.872,,M*1B
$GPVTG,,T,,M,0.01,N,0.02,K,D*25
$GPHDT,,T*1B
$GPTHS,,V*0E
$GPROT,,V*08
$PSSN,HRP,052957.00,010125,,,,,,,00,0,,*6D
$PTNL,AVR,052957.00,,Yaw,,Tilt,,,,0,,00*3B
$GPGSA,A,3,07,09,11,20,30,,,,,,,,1.3,0.7,1.1*38
$GPGSA,A,3,71,72,73,74,80,88,,,,,,,1.3,0.7,1.1*3B
$GPGSA,A,3,03,05,24,,,,,,,,,,1.3,0.7,1.1*37
$GPGSA,A,3,19,21,22,36,45,,,,,,,,1.3,0.7,1.1*38
$GPGST,052957.00,5.398,1.212,0.865,348.756,1.200,0.881,3.575*5A
$GPGBS,052957.00,5.332,4.589,15.938,30,0.0001,-1.596,0.610*41
$GPGRS,052957.00,1,-0.1,0.4,0.8,0.7,-1.6,,,,,,,*61
$GPGRS,052957.00,1,-3.6,4.5,2.2,0.4,13.3,-2.9,,,,,,*78
$GPGRS,052957.00,1,-4.9,-0.9,-0.4,,,,,,,,,*41
$GPGRS,052957.00,1,-1.5,8.9,-2.8,-2.5,-1.0,,,,,,,*65
$GPGSV,4,1,14,07,77,129,49,16,14,039,,05,16,312,37,06,25,217,32*73
$GPGSV,4,2,14,04,22,082,32,11,37,259,45,30,49,207,43,20,49,300,47*7D
$GPGSV,4,3,14,09,50,078,40,13,03,264,,36,35,170,41,34,31,208,*72
$GPGSV,4,4,14,49,34,195,34,61,03,257,*78
$GLGSV,3,1,10,71,56,073,47,88,22,319,45,80,17,027,35,70,13,102,*65
$GLGSV,3,2,10,74,41,154,38,87,22,256,22,72,56,322,46,73,55,081,49*61
$GLGSV,3,3,10,86,01,217,,65,04,294,*67
$GAGSV,4,1,13,05,79,025,49,24,27,118,40,16,17,143,,31,26,060,34*61
$GAGSV,4,2,13,09,29,079,35,34,36,227,33,15,36,294,34,03,39,274,35*64
$GAGSV,4,3,13,23,01,018,,25,04,162,,13,05,337,28,06,06,083,*63
$GAGSV,4,4,13,36,04,186,*54
$GBGSV,6,1,21,22,77,321,47,16,11,048,,34,11,300,28,06,13,049,27*65
$GBGSV,6,2,21,45,18,189,36,12,14,273,26,48,17,112,,05,22,129,33*62
$GBGSV,6,3,21,58,27,046,,09,28,051,32,21,24,297,40,46,40,061,*6D
$GBGSV,6,4,21,36,54,143,48,19,44,108,48,44,06,250,,11,06,321,*6E
$GBGSV,6,5,21,39,00,049,,43,02,342,,50,03,295,,02,06,107,*66
$GBGSV,6,6,21,60,07,111,*58
$GPGGA,052957.00,,,,,0,00,,,M,,M,,*44
$PTNL,GGK,052957.00,010125,4742.4467817,N,01617.9732322,E,1,19,1.3,EHT667.2905,M*42
$GPGGQ,052957.00,010125,4742.4467817,N,01617.9732322,E,1,19,3.872,624.0794,M*33
$GPGFA,052957.00,11.521,29.313,1.212,0.865,348.756,3.575,,VVV*07
$GPLLK,052957.00,010125,,M,,M,1,19,1.5,,M*0B
$GNGMP,052957.00,,,,,DAAA,19,0.7,,,,*55
$GPGMP,052957.00,,,,,,05,,,,3.2,123*75
$GLGMP,052957.00,,,,,,06,,,,,*75
$GAGMP,052957.00,,,,,,03,,,,,*7D
$GBGMP,052957.00,,,,,,05,,,,,*78
$PSSN,SNC,[0,279015000,2347]*4C
$GPZDA,053002.00,01,01,2025,,*67
$GPDTM,W84,,00.0000000,N,00.0000000,E,00.0000000,W84*5F
$GPRMC,053002.00,A,4742.4467680,N,01617.9732308,E,0.0,,010125,5.1,E,D*16
$GPGLL,4742.4467680,N,01617.9732308,E,053002.00,A,D*67
$GPGGA,053002.00,4742.4467680,N,01617.9732308,E,2,18,0.8,624.0903,M,43.2111,M,1.8,0123*4C
$GNGNS,053002.00,4742.4467680,N,01617.9732308,E,DAAA,18,0.8,624.0903,43.2111,,*59
$GPGNS,053002.00,,,,,,05,,,,1.8,123*75
$GLGNS,053002.00,,,,,,05,,,,,*7E
$GAGNS,053002.00,,,,,,03,,,,,*75
$GBGNS,053002.00,,,,,,05,,,,,*70
$GPLLQ,053002.00,010125,,M,,M,1,18,3.755,,M*18
$GPVTG,,T,,M,0.01,N,0.01,K,D*26
$GPHDT,,T*1B
$GPTHS,,V*0E
$GPROT,,V*08
$PSSN,HRP,053002.00,010125,,,,,,,00,0,,*65
$PTNL,AVR,053002.00,,Yaw,,Tilt,,,,0,,00*33
$GPGSA,A,3,07,09,11,20,30,,,,,,,,1.5,0.8,1.3*33
$GPGSA,A,3,71,72,73,74,88,,,,,,,,1.5,0.8,1.3*38
$GPGSA,A,3,03,05,24,,,,,,,,,,1.5,0.8,1.3*3C
$GPGSA,A,3,19,21,22,36,45,,,,,,,,1.5,0.8,1.3*33
$GPGST,053002.00,3.997,1.184,0.833,347.556,1.170,0.853,3.465*58
$GPGBS,053002.00,5.422,4.386,15.573,30,0.0001,-1.638,0.625*44
$GPGRS,053002.00,1,-0.4,1.3,0.7,0.5,-1.6,,,,,,,*67
$GPGRS,053002.00,1,-4.0,4.3,2.1,-0.2,-3.8,,,,,,,*40
$GPGRS,053002.00,1,-6.4,-1.0,-0.6,,,,,,,,,*4C
$GPGRS,053002.00,1,-2.1,7.3,-2.8,-2.8,-1.2,,,,,,,*60
$GPGSV,4,1,14,07,77,128,49,16,14,039,,05,16,312,37,06,25,217,24*75
$GPGSV,4,2,14,04,21,082,32,11,37,259,45,30,49,207,44,20,49,300,48*76
$GPGSV,4,3,14,09,50,078,40,13,03,264,,36,35,170,41,34,31,208,*72
$GPGSV,4,4,14,49,34,195,34,61,03,257,*78
$GLGSV,3,1,10,71,56,073,46,88,22,319,45,80,17,027,33,70,13,102,*62
$GLGSV,3,2,10,74,41,154,37,87,22,256,,72,56,322,47,73,55,081,48*6E
$GLGSV,3,3,10,86,01,217,,65,04,295,*66
$GAGSV,4,1,13,05,79,025,49,24,27,118,40,16,17,143,,31,26,060,34*61
$GAGSV,4,2,13,09,28,079,35,34,35,227,32,15,36,294,35,03,39,274,35*66
$GAGSV,4,3,13,23,01,018,,25,04,162,,13,05,337,28,06,06,083,*63
$GAGSV,4,4,13,36,04,186,*54
$GBGSV,6,1,21,22,77,321,46,16,11,048,,34,11,300,29,06,13,049,28*6A
$GBGSV,6,2,21,45,18,189,36,12,14,273,28,48,17,112,,05,22,129,33*6C
$GBGSV,6,3,21,58,27,046,,09,28,051,33,21,25,297,40,46,40,060,*6C
$GBGSV,6,4,21,36,54,143,48,19,43,108,48,44,06,250,22,11,06,321,*69
$GBGSV,6,5,21,39,00,049,,43,02,342,,50,03,295,,02,06,107,*66
$GBGSV,6,6,21,60,07,111,*58
$GPGGA,053002.00,,,,,0,00,,,M,,M,,*4C
$PTNL,GGK,053002.00,010125,4742.4467680,N,01617.9732308,E,1,18,1.5,EHT667.3014,M*4D
$GPGGQ,053002.00,010125,4742.4467680,N,01617.9732308,E,1,18,3.755,624.0903,M*38
$GPGFA,053002.00,11.258,28.410,1.184,0.833,347.556,3.465,,VVV*01
$GPLLK,053002.00,010125,,M,,M,1,18,1.8,,M*0F
$GNGMP,053002.00,,,,,DAAA,18,0.8,,,,*53
$GPGMP,053002.00,,,,,,05,,,,1.8,123*75
$GLGMP,053002.00,,,,,,05,,,,,*7E
$GAGMP,053002.00,,,,,,03,,,,,*75
$GBGMP,053002.00,,,,,,05,,,,,*70
$PSSN,SNC,[0,279020000,2347]*4A
$GPZDA,053007.00,01,01,2025,,*62
$GPDTM,W84,,00.0000000,N,00.0000000,E,00.0000000,W84*5F
$GPRMC,053007.00,A,4742.4467596,N,01617.9732261,E,0.0,,010125,5.1,E,D*19
$GPGLL,4742.4467596,N,01617.9732261,E,053007.00,A,D*68
$GPGGA,053007.00,4742.4467596,N,01617.9732261,E,2,20,0.7,624.1077,M,43.2111,M,2.0,0123*47
$GNGNS,053007.00,4742.4467596,N,01617.9732261,E,DAAA,20,0.7,624.1077,43.2111,,*59
$GPGNS,053007.00,,,,,,05,,,,2.0,123*7B
$GLGNS,053007.00,,,,,,05,,,,,*7B
$GAGNS,053007.00,,,,,,04,,,,,*77
$GBGNS,053007.00,,,,,,06,,,,,*76
$GPLLQ,053007.00,010125,,M,,M,1,20,2.684,,M*1A
$GPVTG,,T,,M,0.01,N,0.02,K,D*25
$GPHDT,,T*1B
$GPTHS,,V*0E
$GPROT,,V*08
$PSSN,HRP,053007.00,010125,,,,,,,00,0,,*60
$PTNL,AVR,053007.00,,Yaw,,Tilt,,,,0,,00*36
$GPGSA,A,3,07,09,11,20,30,,,,,,,,1.3,0.7,1.1*38
$GPGSA,A,3,71,72,73,74,88,,,,,,,,1.3,0.7,1.1*33
$GPGSA,A,3,05,09,15,24,,,,,,,,,1.3,0.7,1.1*39
$GPGSA,A,3,12,19,21,22,36,45,,,,,,,1.3,0.7,1.1*3B
$GPGST,053007.00,3.458,0.870,0.597,348.804,0.862,0.609,2.468*50
$GPGBS,053007.00,5.325,4.400,15.384,09,0.0001,1.036,0.627*6B
$GPGRS,053007.00,1,-0.5,1.0,0.3,0.2,-0.8,,,,,,,*6C
$GPGRS,053007.00,1,-4.4,3.7,1.6,0.1,-5.2,,,,,,,*64
$GPGRS,053007.00,1,-1.2,-1.3,-1.1,-1.0,,,,,,,,*4F
$GPGRS,053007.00,1,2.4,-3.3,6.7,-3.0,-3.4,-1.7,,,,,,*4A
$GPGSV,4,1,14,07,77,128,48,16,14,039,30,05,17,312,37,06,25,217,*70
$GPGSV,4,2,14,04,21,082,31,11,37,259,45,30,49,207,44,20,49,300,47*7A
$GPGSV,4,3,14,09,50,078,41,13,03,264,,36,35,170,41,34,31,208,*73
$GPGSV,4,4,14,49,34,195,34,61,03,257,*78
$GLGSV,3,1,10,71,56,073,45,88,22,319,45,80,17,027,,70,13,102,*61
$GLGSV,3,2,10,74,41,154,36,87,22,256,,72,56,322,48,73,55,081,47*6F
$GLGSV,3,3,10,86,01,217,,65,04,295,29*6D
$GAGSV,4,1,13,05,79,026,50,24,27,118,40,16,17,143,,31,26,060,33*6D
$GAGSV,4,2,13,09,28,079,35,34,35,227,33,15,36,294,36,03,39,274,33*62
$GAGSV,4,3,13,23,01,018,,25,04,162,,13,05,337,28,06,06,083,*63
$GAGSV,4,4,13,36,04,186,*54
$GBGSV,6,1,21,22,77,321,45,16,11,048,,34,11,300,32,06,13,049,29*62
$GBGSV,6,2,21,45,18,189,36,12,14,273,36,48,17,112,,05,22,129,33*63
$GBGSV,6,3,21,58,27,046,,09,28,051,33,21,25,297,39,46,40,060,*62
$GBGSV,6,4,21,36,54,143,48,19,43,108,47,44,06,250,20,11,06,321,*64
$GBGSV,6,5,21,39,00,049,,43,02,342,,50,03,295,,02,06,107,*66
$GBGSV,6,6,21,60,07,111,*58
$GPGGA,053007.00,,,,,0,00,,,M,,M,,*49
$PTNL,GGK,053007.00,010125,4742.4467596,N,01617.9732261,E,1,20,1.3,EHT667.3188,M*4B
$GPGGQ,053007.00,010125,4742.4467596,N,01617.9732261,E,1,20,2.684,624.1077,M*3B
$GPGFA,053007.00,8.274,20.236,0.870,0.597,348.804,2.468,,VVV*31
$GPLLK,053007.00,010125,,M,,M,1,20,1.5,,M*0C
$GNGMP,053007.00,,,,,DAAA,20,0.7,,,,*52
$GPGMP,053007.00,,,,,,05,,,,2.0,123*7B
$GLGMP,053007.00,,,,,,05,,,,,*7B
$GAGMP,053007.00,,,,,,04,,,,,*77
$GBGMP,053007.00,,,,,,06,,,,,*76
$PSSN,SNC,[0,279025000,2347]*4F
$GPZDA,053012.00,01,01,2025,,*66
$GPDTM,W84,,00.0000000,N,00.0000000,E,00.0000000,W84*5F
$GPRMC,053012.00,A,4742.4467459,N,01617.9732196,E,0.0,,010125,5.1,E,D*14
$GPGLL,4742.4467459,N,01617.9732196,E,053012.00,A,D*65
$GPGGA,053012.00,4742.4467459,N,01617.9732196,E,2,19,0.8,624.1163,M,43.2111,M,3.0,0123*4A
$GNGNS,053012.00,4742.4467459,N,01617.9732196,E,DAAA,19,0.8,624.1163,43.2111,,*55
$GPGNS,053012.00,,,,,,05,,,,3.0,123*7E
$GLGNS,053012.00,,,,,,04,,,,,*7E
$GAGNS,053012.00,,,,,,04,,,,,*73
$GBGNS,053012.00,,,,,,06,,,,,*72
$GPLLQ,053012.00,010125,,M,,M,1,19,3.290,,M*14
$GPVTG,,T,,M,0.00,N,0.01,K,D*27
$GPHDT,,T*1B
$GPTHS,,V*0E
$GPROT,,V*08
$PSSN,HRP,053012.00,010125,,,,,,,00,0,,*64
$PTNL,AVR,053012.00,,Yaw,,Tilt,,,,0,,00*32
$GPGSA,A,3,07,09,11,20,30,,,,,,,,1.3,0.8,1.1*37
$GPGSA,A,3,71,72,73,88,,,,,,,,,1.3,0.8,1.1*3F
$GPGSA,A,3,05,09,15,24,,,,,,,,,1.3,0.8,1.1*36
$GPGSA,A,3,12,19,21,22,36,45,,,,,,,1.3,0.8,1.1*34
$GPGST,053012.00,4.234,1.059,0.730,350.184,1.051,0.742,3.028*5C
$GPGBS,053012.00,5.567,4.485,15.662,30,0.0001,-1.828,0.662*4E
$GPGRS,053012.00,1,0.2,0.6,0.3,0.5,-1.8,,,,,,,*43
$GPGRS,053012.00,1,-3.3,4.3,0.3,-4.9,,,,,,,,*42
$GPGRS,053012.00,1,-0.7,0.1,1.2,-1.2,,,,,,,,*4D
$GPGRS,053012.00,1,0.4,-3.9,10.8,-3.1,-3.0,-1.8,,,,,,*74
$GPGSV,4,1,14,07,77,128,48,16,14,039,,05,17,312,36,06,25,217,*72
$GPGSV,4,2,14,04,21,082,28,11,37,259,46,30,49,207,43,20,49,300,47*76
$GPGSV,4,3,14,09,50,078,41,13,03,264,,36,35,170,41,34,31,208,*73
$GPGSV,4,4,14,49,34,195,34,61,03,257,*78
$GLGSV,3,1,10,71,56,073,44,88,22,319,46,80,17,027,28,70,13,102,*69
$GLGSV,3,2,10,74,41,154,34,87,22,256,,72,56,322,48,73,55,081,46*6C
$GLGSV,3,3,10,86,01,217,,65,04,295,30*65
$GAGSV,4,1,13,05,79,026,50,24,27,118,39,16,17,143,,31,26,060,33*63
$GAGSV,4,2,13,09,28,079,35,34,35,227,33,15,36,294,38,03,40,274,32*63
$GAGSV,4,3,13,23,01,017,,25,04,162,,13,05,337,28,06,06,083,*6C
$GAGSV,4,4,13,36,04,186,*54
$GBGSV,6,1,21,22,77,321,45,16,11,048,,34,11,300,35,06,13,049,29*65
$GBGSV,6,2,21,45,18,189,35,12,14,273,36,48,17,112,,05,22,129,33*60
$GBGSV,6,3,21,58,27,046,,09,28,051,33,21,25,297,39,46,40,060,*62
$GBGSV,6,4,21,36,54,143,48,19,43,108,46,44,06,250,19,11,06,321,*6F
$GBGSV,6,5,21,39,00,049,,43,02,342,,50,03,295,,02,06,107,*66
$GBGSV,6,6,21,60,07,111,*58
$GPGGA,053012.00,,,,,0,00,,,M,,M,,*4D
$PTNL,GGK,053012.00,010125,4742.4467459,N,01617.9732196,E,1,19,1.3,EHT667.3274,M*4C
$GPGGQ,053012.00,010125,4742.4467459,N,01617.9732196,E,1,19,3.290,624.1163,M*38
$GPGFA,053012.00,10.067,24.832,1.059,0.730,350.184,3.028,,VVV*02
$GPLLK,053012.00,010125,,M,,M,1,19,1.5,,M*02
$GNGMP,053012.00,,,,,DAAA,19,0.8,,,,*53
$GPGMP,053012.00,,,,,,05,,,,3.0,123*7E
$GLGMP,053012.00,,,,,,04,,,,,*7E
$GAGMP,053012.00,,,,,,04,,,,,*73
$GBGMP,053012.00,,,,,,06,,,,,*72
$PSSN,SNC,[0,279030000,2347]*4B
$GPZDA,053017.00,01,01,2025,,*63
$GPDTM,W84,,00.0000000,N,00.0000000,E,00.0000000,W84*5F
$GPRMC,053017.00,A,4742.4467449,N,01617.9732179,E,0.0,,010125,5.1,E,D*11
$GPGLL,4742.4467449,N,01617.9732179,E,053017.00,A,D*60
$GPGGA,053017.00,4742.4467449,N,01617.9732179,E,2,17,1.0,624.1167,M,43.2111,M,3.5,0123*49
$GNGNS,053017.00,4742.4467449,N,01617.9732179,E,DAAA,17,1.0,624.1167,43.2111,,*53
$GPGNS,053017.00,,,,,,04,,,,3.5,123*7F
$GLGNS,053017.00,,,,,,04,,,,,*7B
$GAGNS,053017.00,,,,,,04,,,,,*76
$GBGNS,053017.00,,,,,,05,,,,,*74
$GPLLQ,053017.00,010125,,M,,M,1,17,2.386,,M*18
$GPVTG,,T,,M,0.01,N,0.01,K,D*26
$GPHDT,,T*1B
$GPTHS,,V*0E
$GPROT,,V*08
$PSSN,HRP,053017.00,010125,,,,,,,00,0,,*61
$PTNL,AVR,053017.00,,Yaw,,Tilt,,,,0,,00*37
$GPGSA,A,3,07,09,11,20,,,,,,,,,1.6,1.0,1.2*3B
$GPGSA,A,3,71,72,73,88,,,,,,,,,1.6,1.0,1.2*30
$GPGSA,A,3,05,09,15,24,,,,,,,,,1.6,1.0,1.2*39
$GPGSA,A,3,12,19,21,22,36,,,,,,,,1.6,1.0,1.2*3A
$GPGST,053017.00,3.783,1.155,0.486,358.988,1.155,0.487,2.031*5E
$GPGBS,053017.00,9.389,4.636,14.801,88,0.0001,-4.621,6.194*48
$GPGRS,053017.00,1,-0.0,0.5,0.1,-0.2,,,,,,,,*48
$GPGRS,053017.00,1,-3.6,2.5,-0.3,-4.6,,,,,,,,*60
$GPGRS,053017.00,1,-1.1,0.1,2.6,-1.9,,,,,,,,*43
$GPGRS,053017.00,1,-1.8,-4.8,-6.3,-3.3,-3.7,,,,,,,*49
$GPGSV,4,1,14,07,77,128,48,16,14,039,27,05,17,312,33,06,25,217,28*78
$GPGSV,4,2,14,04,21,082,26,11,37,259,45,30,49,207,40,20,49,300,47*78
$GPGSV,4,3,14,09,50,078,42,13,03,265,31,36,35,170,41,34,31,208,*73
$GPGSV,4,4,14,49,34,195,34,61,03,257,*78
$GLGSV,3,1,10,71,56,073,44,88,22,319,46,80,17,027,29,70,13,102,*68
$GLGSV,3,2,10,74,41,154,34,87,22,256,32,72,56,322,48,73,55,081,45*6E
$GLGSV,3,3,10,86,01,217,,65,05,295,29*6C
$GAGSV,4,1,13,05,79,026,50,24,28,118,38,16,17,143,,31,26,060,34*6A
$GAGSV,4,2,13,09,28,079,37,34,35,227,32,15,36,294,40,03,40,274,31*6C
$GAGSV,4,3,13,23,01,017,,25,04,162,,13,05,337,27,06,06,083,*63
$GAGSV,4,4,13,36,04,186,*54
$GBGSV,6,1,21,22,77,321,45,16,11,048,,34,11,300,35,06,13,049,29*65
$GBGSV,6,2,21,45,18,189,34,12,14,273,28,48,17,112,,05,22,129,33*6E
$GBGSV,6,3,21,58,27,046,,09,28,051,33,21,25,297,36,46,40,060,*6D
$GBGSV,6,4,21,36,54,143,48,19,43,108,46,44,06,250,,11,06,321,*67
$GBGSV,6,5,21,39,00,049,,43,02,342,,50,03,295,,02,06,107,*66
$GBGSV,6,6,21,60,07,111,*58
$GPGGA,053017.00,,,,,0,00,,,M,,M,,*48
$PTNL,GGK,053017.00,010125,4742.4467449,N,01617.9732179,E,1,17,1.6,EHT667.3278,M*4E
$GPGGQ,053017.00,010125,4742.4467449,N,01617.9732179,E,1,17,2.386,624.1167,M*30
$GPGFA,053017.00,10.986,16.651,1.155,0.486,358.988,2.031,,VVV*0D
$GPLLK,053017.00,010125,,M,,M,1,17,1.8,,M*04
$GNGMP,053017.00,,,,,DAAA,17,1.0,,,,*51
$GPGMP,053017.00,,,,,,04,,,,3.5,123*7F
$GLGMP,053017.00,,,,,,04,,,,,*7B
$GAGMP,053017.00,,,,,,04,,,,,*76
$GBGMP,053017.00,,,,,,05,,,,,*74
$PSSN,SNC,[0,279035000,2347]*4E
$GPZDA,053022.00,01,01,2025,,*65
$GPDTM,W84,,00.0000000,N,00.0000000,E,00.0000000,W84*5F
$GPRMC,053022.00,A,4742.4467446,N,01617.9732126,E,0.0,,010125,5.1,E,D*12
$GPGLL,4742.4467446,N,01617.9732126,E,053022.00,A,D*63
$GPGGA,053022.00,4742.4467446,N,01617.9732126,E,2,16,1.1,624.1232,M,43.2111,M,1.5,0123*4B
$GNGNS,053022.00,4742.4467446,N,01617.9732126,E,DAAA,16,1.1,624.1232,43.2111,,*53
$GPGNS,053022.00,,,,,,04,,,,1.5,123*7B
$GLGNS,053022.00,,,,,,04,,,,,*7D
$GAGNS,053022.00,,,,,,04,,,,,*70
$GBGNS,053022.00,,,,,,04,,,,,*73
$GPLLQ,053022.00,010125,,M,,M,1,16,2.329,,M*1A
$GPVTG,,T,,M,0.00,N,0.00,K,D*26
$GPHDT,,T*1B
$GPTHS,,V*0E
$GPROT,,V*08
$PSSN,HRP,053022.00,010125,,,,,,,00,0,,*67
$PTNL,AVR,053022.00,,Yaw,,Tilt,,,,0,,00*31
$GPGSA,A,3,07,09,11,20,,,,,,,,,1.7,1.1,1.3*3A
$GPGSA,A,3,71,72,73,88,,,,,,,,,1.7,1.1,1.3*31
$GPGSA,A,3,05,09,15,24,,,,,,,,,1.7,1.1,1.3*38
$GPGSA,A,3,19,21,22,36,,,,,,,,,1.7,1.1,1.3*38
$GPGST,053022.00,4.109,1.146,0.474,358.236,1.146,0.475,1.971*5B
$GPGBS,053022.00,9.571,4.351,14.067,88,0.0001,-4.593,6.194*49
$GPGRS,053022.00,1,0.0,0.2,0.1,-0.2,,,,,,,,*64
$GPGRS,053022.00,1,-4.1,1.6,-0.2,-4.6,,,,,,,,*67
$GPGRS,053022.00,1,-1.1,0.0,3.9,-2.1,,,,,,,,*41
$GPGRS,053022.00,1,-5.4,-6.0,-3.0,-3.9,,,,,,,,*46
$GPGSV,4,1,14,07,77,128,48,16,14,039,,05,17,312,29,06,25,217,*7C
$GPGSV,4,2,14,04,21,082,21,11,37,259,44,30,49,207,38,20,49,300,47*71
$GPGSV,4,3,14,09,49,078,41,13,03,265,30,36,35,170,41,34,31,208,*79
$GPGSV,4,4,14,49,34,195,34,61,03,257,*78
$GLGSV,3,1,10,71,56,073,45,88,22,319,45,80,17,027,,70,13,102,*61
$GLGSV,3,2,10,74,41,154,35,87,22,256,,72,56,322,48,73,55,080,43*69
$GLGSV,3,3,10,86,01,217,,65,05,295,29*6C
$GAGSV,4,1,13,05,79,026,51,24,28,118,36,16,18,143,,31,26,060,34*6A
$GAGSV,4,2,13,09,28,079,37,34,35,227,31,15,36,294,40,03,40,274,30*6E
$GAGSV,4,3,13,23,01,017,,25,04,162,,13,05,337,28,06,06,083,*6C
$GAGSV,4,4,13,36,04,186,*54
$GBGSV,6,1,21,22,78,321,45,16,11,048,,34,11,300,35,06,13,049,29*6A
$GBGSV,6,2,21,45,18,189,33,12,14,273,26,48,17,112,,05,22,129,34*60
$GBGSV,6,3,21,58,27,046,,09,28,051,33,21,25,297,37,46,40,060,*6C
$GBGSV,6,4,21,36,54,143,48,19,43,108,45,44,06,250,,11,06,321,*64
$GBGSV,6,5,21,39,00,049,,43,02,342,,50,03,295,,02,06,107,*66
$GBGSV,6,6,21,60,07,111,*58
$GPGGA,053022.00,,,,,0,00,,,M,,M,,*4E
$PTNL,GGK,053022.00,010125,4742.4467446,N,01617.9732126,E,1,16,1.7,EHT667.3342,M*45
$GPGGQ,053022.00,010125,4742.4467446,N,01617.9732126,E,1,16,2.329,624.1232,M*34
$GPGFA,053022.00,10.897,16.164,1.146,0.474,358.236,1.971,,VVV*04
$GPLLK,053022.00,010125,,M,,M,1,16,2.0,,M*08
$GNGMP,053022.00,,,,,DAAA,16,1.1,,,,*57
$GPGMP,053022.00,,,,,,04,,,,1.5,123*7B
$GLGMP,053022.00,,,,,,04,,,,,*7D
$GAGMP,053022.00,,,,,,04,,,,,*70
$GBGMP,053022.00,,,,,,04,,,,,*73
$PSSN,SNC,[0,279040000,2347]*4C
$GPZDA,053027.00,01,01,2025,,*60
$GPDTM,W84,,00.0000000,N,00.0000000,E,00.0000000,W84*5F
$GPRMC,053027.00,A,4742.4467409,N,01617.9732044,E,0.0,,010125,5.1,E,D*19
$GPGLL,4742.4467409,N,01617.9732044,E,053027.00,A,D*68
$GPGGA,053027.00,4742.4467409,N,01617.9732044,E,2,21,0.8,624.1122,M,43.2111,M,2.5,0123*4D
$GNGNS,053027.00,4742.4467409,N,01617.9732044,E,DAAA,21,0.8,624.1122,43.2111,,*56
$GPGNS,053027.00,,,,,,06,,,,2.5,123*7F
$GLGNS,053027.00,,,,,,05,,,,,*79
$GAGNS,053027.00,,,,,,05,,,,,*74
$GBGNS,053027.00,,,,,,05,,,,,*77
$GPLLQ,053027.00,010125,,M,,M,1,21,2.869,,M*14
$GPVTG,,T,,M,0.00,N,0.00,K,D*26
$GPHDT,,T*1B
$GPTHS,,V*0E
$GPROT,,V*08
$PSSN,HRP,053027.00,010125,,,,,,,00,0,,*62
$PTNL,AVR,053027.00,,Yaw,,Tilt,,,,0,,00*34
$GPGSA,A,3,05,07,09,11,20,30,,,,,,,1.3,0.8,1.1*32
$GPGSA,A,3,71,72,73,74,88,,,,,,,,1.3,0.8,1.1*3C
$GPGSA,A,3,05,09,15,24,31,,,,,,,,1.3,0.8,1.1*34
$GPGSA,A,3,19,21,22,34,36,,,,,,,,1.3,0.8,1.1*31
$GPGST,053027.00,3.606,1.112,0.753,342.364,1.084,0.793,2.534*51
$GPGBS,053027.00,5.165,4.109,9.187,30,0.0001,-1.368,0.656*76
$GPGRS,053027.00,1,-2.1,0.8,0.5,0.1,0.3,-1.4,,,,,,*44
$GPGRS,053027.00,1,-3.2,2.1,0.3,2.6,-5.9,,,,,,,*6A
$GPGRS,053027.00,1,-0.6,1.2,5.2,-0.7,3.7,,,,,,,*62
$GPGRS,053027.00,1,-4.1,-5.2,-2.6,-3.6,-3.5,,,,,,,*4B
$GPGSV,4,1,14,07,78,128,47,16,14,039,,05,17,312,36,06,25,217,34*75
$GPGSV,4,2,14,04,21,082,23,11,37,259,43,30,49,208,36,20,49,300,46*74
$GPGSV,4,3,14,09,49,078,40,13,03,265,29,36,35,170,41,34,31,208,*70
$GPGSV,4,4,14,49,34,195,34,61,03,257,*78
$GLGSV,3,1,10,71,56,073,45,88,22,319,44,80,17,027,,70,13,102,*60
$GLGSV,3,2,10,74,41,154,38,87,22,256,,72,56,322,46,73,55,080,42*6B
$GLGSV,3,3,10,86,01,217,,65,05,295,27*62
$GAGSV,4,1,13,05,79,026,51,24,28,118,35,16,18,143,,31,26,060,35*68
$GAGSV,4,2,13,09,28,079,38,34,35,227,31,15,36,294,40,03,40,274,29*69
$GAGSV,4,3,13,23,01,017,,25,04,162,,13,05,337,26,06,06,083,*62
$GAGSV,4,4,13,36,04,186,*54
$GBGSV,6,1,21,22,78,321,44,16,11,048,,34,11,300,36,06,13,049,29*68
$GBGSV,6,2,21,45,18,189,32,12,14,272,22,48,17,112,,05,22,129,33*63
$GBGSV,6,3,21,58,27,046,,09,28,051,33,21,25,297,36,46,40,060,*6D
$GBGSV,6,4,21,36,54,143,47,19,43,108,44,44,06,250,,11,06,321,*6A
$GBGSV,6,5,21,39,00,049,,43,02,342,,50,03,295,,02,06,107,*66
$GBGSV,6,6,21,60,07,111,*58
$GPGGA,053027.00,,,,,0,00,,,M,,M,,*4B
$PTNL,GGK,053027.00,010125,4742.4467409,N,01617.9732044,E,1,21,1.3,EHT667.3232,M*48
$GPGGQ,053027.00,010125,4742.4467409,N,01617.9732044,E,1,21,2.869,624.1122,M*36
$GPGFA,053027.00,10.577,20.783,1.112,0.753,342.364,2.534,,VVV*0C
$GPLLK,053027.00,010125,,M,,M,1,21,1.5,,M*0F
$GNGMP,053027.00,,,,,DAAA,21,0.8,,,,*5E
$GPGMP,053027.00,,,,,,06,,,,2.5,123*7F
$GLGMP,053027.00,,,,,,05,,,,,*79
$GAGMP,053027.00,,,,,,05,,,,,*74
$GBGMP,053027.00,,,,,,05,,,,,*77
$PSSN,SNC,[0,279045000,2347]*49
$GPZDA,053032.00,01,01,2025,,*64
$GPDTM,W84,,00.0000000,N,00.0000000,E,00.0000000,W84*5F
$GPRMC,053032.00,A,4742.4467432,N,01617.9732069,E,0.0,,010125,5.1,E,D*1A
$GPGLL,4742.4467432,N,01617.9732069,E,053032.00,A,D*6B
$GPGGA,053032.00,4742.4467432,N,01617.9732069,E,2,20,0.8,624.0813,M,43.2111,M,2.8,0123*48
$GNGNS,053032.00,4742.4467432,N,01617.9732069,E,DAAA,20,0.8,624.0813,43.2111,,*5E
$GPGNS,053032.00,,,,,,06,,,,2.8,123*76
$GLGNS,053032.00,,,,,,05,,,,,*7D
$GAGNS,053032.00,,,,,,04,,,,,*71
$GBGNS,053032.00,,,,,,05,,,,,*73
$GPLLQ,053032.00,010125,,M,,M,1,20,3.427,,M*16
$GPVTG,,T,,M,0.00,N,0.00,K,D*26
$GPHDT,,T*1B
$GPTHS,,V*0E
$GPROT,,V*08
$PSSN,HRP,053032.00,010125,,,,,,,00,0,,*66
$PTNL,AVR,053032.00,,Yaw,,Tilt,,,,0,,00*30
$GPGSA,A,3,05,07,09,11,20,30,,,,,,,1.4,0.8,1.2*36
$GPGSA,A,3,71,72,73,74,88,,,,,,,,1.4,0.8,1.2*38
$GPGSA,A,3,05,09,15,31,,,,,,,,,1.4,0.8,1.2*36
$GPGSA,A,3,19,21,22,34,36,,,,,,,,1.4,0.8,1.2*35
$GPGST,053032.00,3.735,1.326,0.902,342.599,1.293,0.947,3.029*54
$GPGBS,053032.00,5.189,4.158,8.933,05,0.0001,-2.253,1.034*7D
$GPGRS,053032.00,1,-2.3,1.1,-0.9,1.4,0.3,-0.8,,,,,,*62
$GPGRS,053032.00,1,-1.0,2.8,-0.7,3.7,-5.8,,,,,,,*4F
$GPGRS,053032.00,1,-0.3,1.4,5.4,3.2,,,,,,,,*62
$GPGRS,053032.00,1,-4.1,-4.8,-2.5,-3.8,-3.7,,,,,,,*4B
$GPGSV,4,1,14,07,78,127,47,16,14,039,,05,17,312,36,06,25,217,34*7A
$GPGSV,4,2,14,04,21,082,21,11,37,259,43,30,50,208,39,20,49,300,44*73
$GPGSV,4,3,14,09,49,078,41,13,03,265,26,36,35,170,41,34,31,208,*7E
$GPGSV,4,4,14,49,34,195,34,61,03,257,*78
$GLGSV,3,1,10,71,56,073,45,88,22,318,43,80,17,027,26,70,13,102,*62
$GLGSV,3,2,10,74,41,154,39,87,22,256,,72,56,322,46,73,55,080,42*6A
$GLGSV,3,3,10,86,01,217,,65,05,295,*67
$GAGSV,4,1,13,05,79,026,51,24,28,118,34,16,18,143,,31,26,060,36*6A
$GAGSV,4,2,13,09,28,079,37,34,35,227,32,15,36,294,40,03,40,274,30*6D
$GAGSV,4,3,13,23,01,017,,25,04,162,,13,05,337,25,06,06,083,*61
$GAGSV,4,4,13,36,04,186,*54
$GBGSV,6,1,21,22,78,321,45,16,11,048,,34,11,300,38,06,13,049,29*67
$GBGSV,6,2,21,45,18,189,29,12,14,272,25,48,17,112,,05,22,129,33*6E
$GBGSV,6,3,21,58,27,046,,09,27,051,33,21,25,297,37,46,40,060,*63
$GBGSV,6,4,21,36,54,143,46,19,43,108,43,44,06,250,,11,06,321,*6C
$GBGSV,6,5,21,39,00,049,,43,02,342,,50,03,295,,02,06,107,*66
$GBGSV,6,6,21,60,07,111,*58
$GPGGA,053032.00,,,,,0,00,,,M,,M,,*4F
$PTNL,GGK,053032.00,010125,4742.4467432,N,01617.9732069,E,1,20,1.4,EHT667.2923,M*47
$GPGGQ,053032.00,010125,4742.4467432,N,01617.9732069,E,1,20,3.427,624.0813,M*39
$GPGFA,053032.00,12.604,24.840,1.326,0.902,342.599,3.029,,VVV*0A
$GPLLK,053032.00,010125,,M,,M,1,20,1.6,,M*09
$GNGMP,053032.00,,,,,DAAA,20,0.8,,,,*5B
$GPGMP,053032.00,,,,,,06,,,,2.8,123*76
$GLGMP,053032.00,,,,,,05,,,,,*7D
$GAGMP,053032.00,,,,,,04,,,,,*71
$GBGMP,053032.00,,,,,,05,,,,,*73
$PSSN,SNC,[0,279050000,2347]*4D
$GPZDA,053037.00,01,01,2025,,*61
$GPDTM,W84,,00.0000000,N,00.0000000,E,00.0000000,W84*5F
$GPRMC,053037.00,A,4742.4467629,N,01617.9732168,E,0.0,,010125,5.1,E,D*17
$GPGLL,4742.4467629,N,01617.9732168,E,053037.00,A,D*66
$GPGGA,053037.00,4742.4467629,N,01617.9732168,E,2,21,0.8,624.0454,M,43.2111,M,3.6,0123*44
$GNGNS,053037.00,4742.4467629,N,01617.9732168,E,DAAA,21,0.8,624.0454,43.2111,,*5D
$GPGNS,053037.00,,,,,,05,,,,3.6,123*7F
$GLGNS,053037.00,,,,,,06,,,,,*7B
$GAGNS,053037.00,,,,,,04,,,,,*74
$GBGNS,053037.00,,,,,,06,,,,,*75
$GPLLQ,053037.00,010125,,M,,M,1,21,4.414,,M*15
$GPVTG,,T,,M,0.00,N,0.01,K,D*27
$GPHDT,,T*1B
$GPTHS,,V*0E
$GPROT,,V*08
$PSSN,HRP,053037.00,010125,,,,,,,00,0,,*63
$PTNL,AVR,053037.00,,Yaw,,Tilt,,,,0,,00*35
$GPGSA,A,3,05,07,09,11,20,,,,,,,,1.3,0.8,1.0*30
$GPGSA,A,3,71,72,73,74,80,88,,,,,,,1.3,0.8,1.0*35
$GPGSA,A,3,05,09,15,31,,,,,,,,,1.3,0.8,1.0*33
$GPGSA,A,3,12,19,21,22,34,36,,,,,,,1.3,0.8,1.0*33
$GPGST,053037.00,6.136,1.991,1.126,352.298,1.979,1.147,3.775*57
$GPGBS,053037.00,8.482,4.219,10.597,80,0.0001,-18.680,6.267*79
$GPGRS,053037.00,1,-2.6,0.8,-1.0,1.4,-0.7,,,,,,,*40
$GPGRS,053037.00,1,-0.6,3.6,-0.3,2.0,-18.7,-5.5,,,,,,*70
$GPGRS,053037.00,1,-0.8,0.5,5.9,3.0,,,,,,,,*63
$GPGRS,053037.00,1,-1.3,-4.5,-5.3,-2.5,-0.8,-4.2,,,,,,*40
$GPGSV,4,1,14,07,78,127,47,16,14,039,,05,17,312,36,06,25,217,33*7D
$GPGSV,4,2,14,04,21,082,28,11,37,258,45,30,50,208,43,20,49,300,42*76
$GPGSV,4,3,14,09,49,078,42,13,03,265,24,36,35,170,41,34,31,208,*7F
$GPGSV,4,4,14,49,34,195,34,61,03,257,*78
$GLGSV,3,1,10,71,56,073,44,88,22,318,43,80,17,027,36,70,13,102,*62
$GLGSV,3,2,10,74,41,154,40,87,22,256,23,72,56,322,45,73,55,080,41*65
$GLGSV,3,3,10,86,01,217,,65,05,295,24*61
$GAGSV,4,1,13,05,79,026,51,24,28,118,35,16,18,143,,31,26,060,37*6A
$GAGSV,4,2,13,09,28,079,37,34,35,227,30,15,36,294,39,03,40,274,32*63
$GAGSV,4,3,13,23,01,017,,25,04,162,,13,05,337,23,06,06,083,*67
$GAGSV,4,4,13,36,04,186,*54
$GBGSV,6,1,21,22,78,321,45,16,11,048,,34,11,300,38,06,13,049,29*67
$GBGSV,6,2,21,45,18,189,26,12,14,272,37,48,17,112,,05,22,129,34*65
$GBGSV,6,3,21,58,27,046,,09,27,051,33,21,25,297,37,46,40,060,*63
$GBGSV,6,4,21,36,54,143,46,19,43,108,41,44,06,250,,11,06,321,*6E
$GBGSV,6,5,21,39,00,049,,43,02,342,,50,03,295,,02,06,107,*66
$GBGSV,6,6,21,60,07,111,*58
$GPGGA,053037.00,,,,,0,00,,,M,,M,,*4A
$PTNL,GGK,053037.00,010125,4742.4467629,N,01617.9732168,E,1,21,1.3,EHT667.2564,M*43
$GPGGQ,053037.00,010125,4742.4467629,N,01617.9732168,E,1,21,4.414,624.0454,M*3D
$GPGFA,053037.00,18.929,30.956,1.991,1.126,352.298,3.775,,VVV*06
$GPLLK,053037.00,010125,,M,,M,1,21,1.5,,M*0E
$GNGMP,053037.00,,,,,DAAA,21,0.8,,,,*5F
$GPGMP,053037.00,,,,,,05,,,,3.6,123*7F
$GLGMP,053037.00,,,,,,06,,,,,*7B
$GAGMP,053037.00,,,,,,04,,,,,*74
$GBGMP,053037.00,,,,,,06,,,,,*75
$PSSN,SNC,[0,279055000,2347]*48
$GPZDA,053042.00,01,01,2025,,*63
$GPDTM,W84,,00.0000000,N,00.0000000,E,00.0000000,W84*5F
$GPRMC,053042.00,A,4742.4467779,N,01617.9732161,E,0.0,,010125,5.1,E,D*18
$GPGLL,4742.4467779,N,01617.9732161,E,053042.00,A,D*69
$GPGGA,053042.00,4742.4467779,N,01617.9732161,E,2,21,0.7,624.0052,M,43.2111,M,1.4,0123*46
$GNGNS,053042.00,4742.4467779,N,01617.9732161,E,DAAA,21,0.7,624.0052,43.2111,,*5F
$GPGNS,053042.00,,,,,,05,,,,1.4,123*7D
$GLGNS,053042.00,,,,,,05,,,,,*7A
$GAGNS,053042.00,,,,,,04,,,,,*76
$GBGNS,053042.00,,,,,,07,,,,,*76
$GPLLQ,053042.00,010125,,M,,M,1,21,3.739,,M*1C
$GPVTG,,T,,M,0.00,N,0.00,K,D*26
$GPHDT,,T*1B
$GPTHS,,V*0E
$GPROT,,V*08
$PSSN,HRP,053042.00,010125,,,,,,,00,0,,*61
$PTNL,AVR,053042.00,,Yaw,,Tilt,,,,0,,00*37
$GPGSA,A,3,05,07,09,11,20,,,,,,,,1.2,0.7,1.0*3E
$GPGSA,A,3,71,72,73,74,88,,,,,,,,1.2,0.7,1.0*33
$GPGSA,A,3,05,09,15,31,,,,,,,,,1.2,0.7,1.0*3D
$GPGSA,A,3,12,19,21,22,34,36,45,,,,,,1.2,0.7,1.0*3C
$GPGST,053042.00,4.535,1.941,0.890,355.641,1.937,0.900,3.069*55
$GPGBS,053042.00,7.857,4.080,9.955,07,0.0001,1.326,0.553*5D
$GPGRS,053042.00,1,-2.4,1.3,-0.5,0.8,-1.0,,,,,,,*45
$GPGRS,053042.00,1,-4.1,5.0,-1.1,2.3,-4.5,,,,,,,*4D
$GPGRS,053042.00,1,-0.7,1.1,8.3,3.8,,,,,,,,*64
$GPGRS,053042.00,1,-1.5,-4.0,-5.2,-2.3,0.6,-3.4,-7.9,,,,,*69
$GPGSV,4,1,14,07,78,127,47,16,14,039,27,05,17,312,35,06,25,217,34*7C
$GPGSV,4,2,14,04,21,082,30,11,37,258,46,30,50,208,45,20,49,300,41*79
$GPGSV,4,3,14,09,49,078,42,13,03,265,,36,35,170,41,34,31,208,*79
$GPGSV,4,4,14,49,34,195,34,61,03,257,*78
$GLGSV,3,1,10,71,56,073,41,88,22,318,44,80,17,027,28,70,13,102,*6F
$GLGSV,3,2,10,74,41,154,41,87,22,256,,72,56,322,46,73,55,080,37*67
$GLGSV,3,3,10,86,01,217,,65,05,295,*67
$GAGSV,4,1,13,05,79,026,51,24,28,118,34,16,18,143,,31,26,060,37*6B
$GAGSV,4,2,13,09,28,079,36,34,35,227,26,15,36,293,38,03,40,274,33*62
$GAGSV,4,3,13,23,01,017,,25,04,162,,13,05,337,29,06,06,083,*6D
$GAGSV,4,4,13,36,04,186,*54
$GBGSV,6,1,21,22,78,321,46,16,11,048,,34,11,300,38,06,13,049,30*6C
$GBGSV,6,2,21,45,18,189,38,12,14,272,36,48,17,112,,05,22,129,33*6C
$GBGSV,6,3,21,58,27,046,,09,27,051,32,21,25,297,36,46,40,060,*63
$GBGSV,6,4,21,36,54,143,45,19,43,108,41,44,06,250,20,11,06,321,*6F
$GBGSV,6,5,21,39,00,049,,43,02,342,,50,03,295,,02,06,107,*66
$GBGSV,6,6,21,60,07,111,*58
$GPGGA,053042.00,,,,,0,00,,,M,,M,,*48
$PTNL,GGK,053042.00,010125,4742.4467779,N,01617.9732161,E,1,21,1.2,EHT667.2162,M*4F
$GPGGQ,053042.00,010125,4742.4467779,N,01617.9732161,E,1,21,3.739,624.0052,M*3B
$GPGFA,053042.00,18.457,25.168,1.941,0.890,355.641,3.069,,VVV*04
$GPLLK,053042.00,010125,,M,,M,1,21,1.4,,M*0D
$GNGMP,053042.00,,,,,DAAA,21,0.7,,,,*52
$GPGMP,053042.00,,,,,,05,,,,1.4,123*7D
$GLGMP,053042.00,,,,,,05,,,,,*7A
$GAGMP,053042.00,,,,,,04,,,,,*76
$GBGMP,053042.00,,,,,,07,,,,,*76
$PSSN,SNC,[0,279060000,2347]*4E
$GPZDA,053047.00,01,01,2025,,*66
$GPDTM,W84,,00.0000000,N,00.0000000,E,00.0000000,W84*5F
$GPRMC,053047.00,A,4742.4467858,N,01617.9732181,E,0.0,,010125,5.1,E,D*1F
$GPGLL,4742.4467858,N,01617.9732181,E,053047.00,A,D*6E
$GPGGA,053047.00,4742.4467858,N,01617.9732181,E,2,17,0.8,623.9737,M,43.2111,M,2.5,0123*43
$GNGNS,053047.00,4742.4467858,N,01617.9732181,E,DAAA,17,0.8,623.9737,43.2111,,*58
$GPGNS,053047.00,,,,,,04,,,,2.5,123*7B
$GLGNS,053047.00,,,,,,05,,,,,*7F
$GAGNS,053047.00,,,,,,03,,,,,*74
$GBGNS,053047.00,,,,,,05,,,,,*71
$GPLLQ,053047.00,010125,,M,,M,1,17,4.205,,M*11
$GPVTG,,T,,M,0.01,N,0.01,K,D*26
$GPHDT,,T*1B
$GPTHS,,V*0E
$GPROT,,V*08
$PSSN,HRP,053047.00,010125,,,,,,,00,0,,*64
$PTNL,AVR,053047.00,,Yaw,,Tilt,,,,0,,00*32
$GPGSA,A,3,07,09,11,20,,,,,,,,,1.4,0.8,1.1*33
$GPGSA,A,3,71,72,74,80,88,,,,,,,,1.4,0.8,1.1*37
$GPGSA,A,3,05,15,31,,,,,,,,,,1.4,0.8,1.1*3C
$GPGSA,A,3,12,19,22,34,36,,,,,,,,1.4,0.8,1.1*36
$GPGST,053047.00,6.046,2.107,0.859,356.330,2.103,0.868,3.536*53
$GPGBS,053047.00,9.515,4.370,13.551,15,0.0001,12.736,6.099*53
$GPGRS,053047.00,1,1.0,-1.2,0.1,-0.4,,,,,,,,*4C
$GPGRS,053047.00,1,-4.5,5.2,3.0,8.5,-5.1,,,,,,,*69
$GPGRS,053047.00,1,-0.7,12.7,4.4,,,,,,,,,*7B
$GPGRS,053047.00,1,-1.4,-3.3,-2.0,1.4,-2.5,,,,,,,*60
$GPGSV,4,1,14,07,78,127,47,16,14,039,,05,17,312,35,06,25,217,35*78
$GPGSV,4,2,14,04,21,082,31,11,37,258,47,30,50,208,46,20,49,300,40*7B
$GPGSV,4,3,14,09,49,078,42,13,03,265,18,36,35,170,41,34,31,208,*70
$GPGSV,4,4,14,49,34,195,34,61,03,257,*78
$GLGSV,3,1,11,71,56,073,39,88,22,318,45,80,17,027,36,70,13,102,*6F
$GLGSV,3,2,11,74,42,154,40,87,22,256,,72,56,322,46,73,55,080,34*67
$GLGSV,3,3,11,86,01,217,,65,05,295,33,75,00,184,*59
$GAGSV,4,1,13,05,79,027,51,24,28,118,34,16,18,143,,31,26,060,37*6A
$GAGSV,4,2,13,09,28,079,34,34,35,227,20,15,36,293,35,03,40,274,32*6A
$GAGSV,4,3,13,23,01,017,,25,04,162,,13,05,337,29,06,06,083,*6D
$GAGSV,4,4,13,36,04,186,*54
$GBGSV,6,1,21,22,78,321,47,16,11,048,,34,11,300,39,06,13,049,30*6C
$GBGSV,6,2,21,45,18,189,22,12,14,272,35,48,17,112,,05,22,129,34*63
$GBGSV,6,3,21,58,27,046,,09,27,051,32,21,25,297,23,46,40,060,*67
$GBGSV,6,4,21,36,54,143,46,19,43,108,41,44,06,250,21,11,06,321,*6D
$GBGSV,6,5,21,39,00,049,,43,02,342,,50,03,295,,02,06,107,*66
$GBGSV,6,6,21,60,07,111,*58
$GPGGA,053047.00,,,,,0,00,,,M,,M,,*4D
$PTNL,GGK,053047.00,010125,4742.4467858,N,01617.9732181,E,1,17,1.4,EHT667.1847,M*46
$GPGGQ,053047.00,010125,4742.4467858,N,01617.9732181,E,1,17,4.205,623.9737,M*3E
$GPGFA,053047.00,20.034,28.999,2.107,0.859,356.330,3.536,,VVV*03
$GPLLK,053047.00,010125,,M,,M,1,17,1.6,,M*0F
$GNGMP,053047.00,,,,,DAAA,17,0.8,,,,*5D
$GPGMP,053047.00,,,,,,04,,,,2.5,123*7B
$GLGMP,053047.00,,,,,,05,,,,,*7F
$GAGMP,053047.00,,,,,,03,,,,,*74
$GBGMP,053047.00,,,,,,05,,,,,*71
$PSSN,SNC,[0,279065000,2347]*4B
$GPZDA,053052.00,01,01,2025,,*62
$GPDTM,W84,,00.0000000,N,00.0000000,E,00.0000000,W84*5F
$GPRMC,053052.00,A,4742.4468045,N,01617.9732275,E,0.0,,010125,5.1,E,D*18
$GPGLL,4742.4468045,N,01617.9732275,E,053052.00,A,D*69
$GPGGA,053052.00,4742.4468045,N,01617.9732275,E,2,18,0.7,623.9774,M,43.2111,M,2.8,0123*4E
$GNGNS,053052.00,4742.4468045,N,01617.9732275,E,DAAA,18,0.7,623.9774,43.2111,,*58
$GPGNS,053052.00,,,,,,06,,,,2.8,123*70
$GLGNS,053052.00,,,,,,05,,,,,*7B
$GAGNS,053052.00,,,,,,02,,,,,*71
$GBGNS,053052.00,,,,,,05,,,,,*75
$GPLLQ,053052.00,010125,,M,,M,1,18,5.371,,M*19
$GPVTG,,T,,M,0.00,N,0.01,K,D*27
$GPHDT,,T*1B
$GPTHS,,V*0E
$GPROT,,V*08
$PSSN,HRP,053052.00,010125,,,,,,,00,0,,*60
$PTNL,AVR,053052.00,,Yaw,,Tilt,,,,0,,00*36
$GPGSA,A,3,06,07,09,11,20,30,,,,,,,1.3,0.7,1.1*3E
$GPGSA,A,3,71,72,74,80,88,,,,,,,,1.3,0.7,1.1*3F
$GPGSA,A,3,05,31,,,,,,,,,,,1.3,0.7,1.1*30
$GPGSA,A,3,19,21,22,34,36,,,,,,,,1.3,0.7,1.1*3E
$GPGST,053052.00,4.438,1.841,1.545,347.245,1.828,1.561,4.803*58
$GPGBS,053052.00,4.147,4.182,10.067,06,0.0001,3.134,0.826*69
$GPGRS,053052.00,1,3.1,1.0,-2.0,-0.6,-1.7,2.2,,,,,,*63
$GPGRS,053052.00,1,-4.3,4.1,1.7,6.7,-4.9,,,,,,,*69
$GPGRS,053052.00,1,-0.9,5.3,,,,,,,,,,*6D
$GPGRS,053052.00,1,-2.6,-5.3,-2.2,3.4,-2.5,,,,,,,*63
$GPGSV,4,1,14,07,78,127,48,16,14,039,,05,17,312,34,06,25,217,35*76
$GPGSV,4,2,14,04,21,082,31,11,37,258,47,30,50,208,47,20,49,299,39*75
$GPGSV,4,3,14,09,49,078,42,13,03,265,,36,35,170,41,34,31,208,*79
$GPGSV,4,4,14,49,34,195,34,61,03,257,*78
$GLGSV,3,1,11,71,56,074,40,88,22,318,46,80,17,027,35,70,13,102,*66
$GLGSV,3,2,11,74,42,154,39,87,22,256,32,72,56,322,46,73,55,080,34*68
$GLGSV,3,3,11,86,01,217,,65,05,295,34,75,00,184,*5E
$GAGSV,4,1,13,05,79,027,51,24,28,117,33,16,18,143,,31,26,060,38*6D
$GAGSV,4,2,13,09,28,079,41,34,35,227,22,15,36,293,32,03,40,274,31*6E
$GAGSV,4,3,13,23,01,017,,25,04,162,,13,05,337,27,06,06,083,*63
$GAGSV,4,4,13,36,04,186,*54
$GBGSV,6,1,21,22,78,321,48,16,11,048,,34,11,300,39,06,13,049,30*63
$GBGSV,6,2,21,45,18,189,25,12,14,272,27,48,17,112,,05,22,129,34*67
$GBGSV,6,3,21,58,27,046,,09,27,051,32,21,25,297,35,46,40,060,*60
$GBGSV,6,4,21,36,54,142,46,19,43,108,40,44,06,250,21,11,06,321,*6D
$GBGSV,6,5,21,39,00,049,,43,02,342,,50,03,295,,02,06,107,*66
$GBGSV,6,6,21,60,07,111,*58
$GPGGA,053052.00,,,,,0,00,,,M,,M,,*49
$PTNL,GGK,053052.00,010125,4742.4468045,N,01617.9732275,E,1,18,1.3,EHT667.1885,M*47
$GPGGQ,053052.00,010125,4742.4468045,N,01617.9732275,E,1,18,5.371,623.9774,M*32
$GPGFA,053052.00,17.506,39.386,1.841,1.545,347.245,4.803,,VVV*05
$GPLLK,053052.00,010125,,M,,M,1,18,1.5,,M*07
$GNGMP,053052.00,,,,,DAAA,18,0.7,,,,*59
$GPGMP,053052.00,,,,,,06,,,,2.8,123*70
$GLGMP,053052.00,,,,,,05,,,,,*7B
$GAGMP,053052.00,,,,,,02,,,,,*71
$GBGMP,053052.00,,,,,,05,,,,,*75
$PSSN,SNC,[0,279070000,2347]*4F
$GPZDA,053057.00,01,01,2025,,*67
$GPDTM,W84,,00.0000000,N,00.0000000,E,00.0000000,W84*5F
$GPRMC,053057.00,A,4742.4468276,N,01617.9732281,E,0.0,,010125,5.1,E,D*14
$GPGLL,4742.4468276,N,01617.9732281,E,053057.00,A,D*65
$GPGGA,053057.00,4742.4468276,N,01617.9732281,E,2,17,0.8,623.9620,M,43.2111,M,3.0,0123*4B
$GNGNS,053057.00,4742.4468276,N,01617.9732281,E,DAAA,17,0.8,623.9620,43.2111,,*54
$GPGNS,053057.00,,,,,,05,,,,3.0,123*7F
$GLGNS,053057.00,,,,,,06,,,,,*7D
$GAGNS,053057.00,,,,,,02,,,,,*74
$GBGNS,053057.00,,,,,,04,,,,,*71
$GPLLQ,053057.00,010125,,M,,M,1,17,4.540,,M*16
$GPVTG,,T,,M,0.01,N,0.01,K,D*26
$GPHDT,,T*1B
$GPTHS,,V*0E
$GPROT,,V*08
$PSSN,HRP,053057.00,010125,,,,,,,00,0,,*65
$PTNL,AVR,053057.00,,Yaw,,Tilt,,,,0,,00*33
$GPGSA,A,3,07,09,11,20,30,,,,,,,,1.5,0.8,1.2*32
$GPGSA,A,3,71,72,73,74,80,88,,,,,,,1.5,0.8,1.2*31
$GPGSA,A,3,05,31,,,,,,,,,,,1.5,0.8,1.2*3A
$GPGSA,A,3,19,22,34,36,,,,,,,,,1.5,0.8,1.2*37
$GPGST,053057.00,3.950,1.448,1.007,348.262,1.432,1.029,4.184*5D
$GPGBS,053057.00,5.445,4.551,15.474,30,0.0001,1.667,0.605*6A
$GPGRS,053057.00,1,1.1,-1.1,-0.9,-1.1,1.7,,,,,,,*46
$GPGRS,053057.00,1,-3.3,4.7,-1.5,0.1,3.4,-3.1,,,,,,*64
$GPGRS,053057.00,1,-1.1,7.0,,,,,,,,,,*60
$GPGRS,053057.00,1,-2.7,-1.8,5.1,-2.5,,,,,,,,*68
$GPGSV,4,1,14,07,78,127,48,16,14,039,,05,17,312,33,06,25,217,35*71
$GPGSV,4,2,14,04,21,082,30,11,37,258,46,30,50,208,48,20,49,299,38*7B
$GPGSV,4,3,14,09,49,078,42,13,03,265,,36,35,170,41,34,31,208,*79
$GPGSV,4,4,14,49,34,195,34,61,03,257,*78
$GLGSV,3,1,11,71,56,074,40,88,22,318,47,80,17,027,35,70,13,102,*67
$GLGSV,3,2,11,74,42,154,39,87,22,256,31,72,56,322,47,73,55,080,38*66
$GLGSV,3,3,11,86,01,217,,65,05,295,35,75,00,184,*5F
$GAGSV,4,1,13,05,79,027,50,24,28,117,33,16,18,143,,31,26,060,37*63
$GAGSV,4,2,13,09,28,079,41,34,35,227,23,15,36,293,29,03,40,274,31*65
$GAGSV,4,3,13,23,01,017,,25,04,162,,13,05,337,28,06,06,083,*6C
$GAGSV,4,4,13,36,04,186,*54
$GBGSV,6,1,21,22,78,322,49,16,11,048,,34,11,300,38,06,13,049,30*60
$GBGSV,6,2,21,45,18,189,28,12,14,272,33,48,17,112,,05,22,129,34*6F
$GBGSV,6,3,21,58,27,046,,09,27,051,31,21,25,297,26,46,40,060,*61
$GBGSV,6,4,21,36,54,142,46,19,43,108,40,44,06,250,,11,06,321,*6E
$GBGSV,6,5,21,39,00,049,,43,02,342,,50,03,295,,02,06,107,*66
$GBGSV,6,6,21,60,07,111,*58
$GPGGA,053057.00,,,,,0,00,,,M,,M,,*4C
$PTNL,GGK,053057.00,010125,4742.4468276,N,01617.9732281,E,1,17,1.5,EHT667.1730,M*43
$GPGGQ,053057.00,010125,4742.4468276,N,01617.9732281,E,1,17,4.540,623.9620,M*34
$GPGFA,053057.00,13.765,34.306,1.448,1.007,348.262,4.184,,VVV*0C
$GPLLK,053057.00,010125,,M,,M,1,17,1.7,,M*0F
$GNGMP,053057.00,,,,,DAAA,17,0.8,,,,*5C
$GPGMP,053057.00,,,,,,05,,,,3.0,123*7F
$GLGMP,053057.00,,,,,,06,,,,,*7D
$GAGMP,053057.00,,,,,,02,,,,,*74
$GBGMP,053057.00,,,,,,04,,,,,*71
$PSSN,SNC,[0,279075000,2347]*4A
$GPZDA,053102.00,01,01,2025,,*66
$GPDTM,W84,,00.0000000,N,00.0000000,E,00.0000000,W84*5F
$GPRMC,053102.00,A,4742.4468385,N,01617.9732212,E,0.0,,010125,5.1,E,D*12
$GPGLL,4742.4468385,N,01617.9732212,E,053102.00,A,D*63
$GPGGA,053102.00,4742.4468385,N,01617.9732212,E,2,18,0.7,623.9490,M,43.2111,M,1.6,0123*40
$GNGNS,053102.00,4742.4468385,N,01617.9732212,E,DAAA,18,0.7,623.9490,43.2111,,*5B
$GPGNS,053102.00,,,,,,05,,,,1.6,123*7A
$GLGNS,053102.00,,,,,,06,,,,,*7C
$GAGNS,053102.00,,,,,,02,,,,,*75
$GBGNS,053102.00,,,,,,05,,,,,*71
$GPLLQ,053102.00,010125,,M,,M,1,18,3.959,,M*1B
$GPVTG,,T,,M,0.00,N,0.00,K,D*26
$GPHDT,,T*1B
$GPTHS,,V*0E
$GPROT,,V*08
$PSSN,HRP,053102.00,010125,,,,,,,00,0,,*64
$PTNL,AVR,053102.00,,Yaw,,Tilt,,,,0,,00*32
$GPGSA,A,3,07,09,11,20,30,,,,,,,,1.2,0.7,1.0*38
$GPGSA,A,3,71,72,73,74,80,88,,,,,,,1.2,0.7,1.0*3B
$GPGSA,A,3,05,31,,,,,,,,,,,1.2,0.7,1.0*30
$GPGSA,A,3,19,22,34,36,45,,,,,,,,1.2,0.7,1.0*3C
$GPGST,053102.00,4.791,1.291,0.885,346.660,1.273,0.912,3.636*5B
$GPGBS,053102.00,5.440,4.268,14.541,30,0.0001,1.469,0.621*6F
$GPGRS,053102.00,1,0.5,-0.0,-1.6,-0.7,1.5,,,,,,,*49
$GPGRS,053102.00,1,-3.4,4.3,1.8,-0.0,4.8,-2.0,,,,,,*61
$GPGRS,053102.00,1,-2.0,8.0,,,,,,,,,,*6C
$GPGRS,053102.00,1,-3.1,-2.5,4.1,-3.1,-8.8,,,,,,,*67
$GPGSV,4,1,14,07,78,126,49,16,14,039,25,05,17,312,32,06,25,217,35*77
$GPGSV,4,2,14,04,21,082,28,11,37,258,45,30,50,208,49,20,49,299,39*71
$GPGSV,4,3,14,09,49,078,42,13,03,265,,36,35,170,41,34,31,208,*79
$GPGSV,4,4,14,49,34,195,34,61,03,257,*78
$GLGSV,3,1,11,71,56,074,41,88,22,318,46,80,17,027,36,70,13,102,*64
$GLGSV,3,2,11,74,42,154,39,87,22,256,32,72,56,322,48,73,55,080,41*64
$GLGSV,3,3,11,86,01,217,,65,05,295,36,75,00,184,*5C
$GAGSV,4,1,13,05,79,027,50,24,28,117,33,16,18,143,,31,26,060,37*63
$GAGSV,4,2,13,09,28,079,40,34,35,227,26,15,36,293,26,03,40,274,33*6C
$GAGSV,4,3,13,23,01,017,,25,04,162,,13,05,337,29,06,06,083,*6D
$GAGSV,4,4,13,36,04,186,*54
$GBGSV,6,1,21,22,78,322,49,16,11,048,,34,11,300,37,06,13,049,29*67
$GBGSV,6,2,21,45,18,189,39,12,14,272,32,48,17,112,,05,22,129,34*6E
$GBGSV,6,3,21,58,27,046,,09,27,051,30,21,25,297,30,46,39,060,*69
$GBGSV,6,4,21,36,54,142,46,19,43,108,39,44,06,250,24,11,06,321,*66
$GBGSV,6,5,21,39,00,049,,43,02,342,,50,03,295,,02,06,107,*66
$GBGSV,6,6,21,60,07,111,*58
$GPGGA,053102.00,,,,,0,00,,,M,,M,,*4D
$PTNL,GGK,053102.00,010125,4742.4468385,N,01617.9732212,E,1,18,1.2,EHT667.1600,M*4F
$GPGGQ,053102.00,010125,4742.4468385,N,01617.9732212,E,1,18,3.959,623.9490,M*37
$GPGFA,053102.00,12.277,29.818,1.291,0.885,346.660,3.636,,VVV*02
$GPLLK,053102.00,010125,,M,,M,1,18,1.4,,M*02
$GNGMP,053102.00,,,,,DAAA,18,0.7,,,,*5D
$GPGMP,053102.00,,,,,,05,,,,1.6,123*7A
$GLGMP,053102.00,,,,,,06,,,,,*7C
$GAGMP,053102.00,,,,,,02,,,,,*75
$GBGMP,053102.00,,,,,,05,,,,,*71
$PSSN,SNC,[0,279080000,2347]*40
$GPZDA,053107.00,01,01,2025,,*63
$GPDTM,W84,,00.0000000,N,00.0000000,E,00.0000000,W84*5F
$GPRMC,053107.00,A,4742.4468476,N,01617.9732079,E,0.0,,010125,5.1,E,D*13
$GPGLL,4742.4468476,N,01617.9732079,E,053107.00,A,D*62
$GPGGA,053107.00,4742.4468476,N,01617.9732079,E,2,19,0.8,623.9487,M,43.2111,M,2.6,0123*4A
$GNGNS,053107.00,4742.4468476,N,01617.9732079,E,DAAA,19,0.8,623.9487,43.2111,,*52
$GPGNS,053107.00,,,,,,05,,,,2.6,123*7C
$GLGNS,053107.00,,,,,,06,,,,,*79
$GAGNS,053107.00,,,,,,04,,,,,*76
$GBGNS,053107.00,,,,,,04,,,,,*75
$GPLLQ,053107.00,010125,,M,,M,1,19,3.709,,M*14
$GPVTG,,T,,M,0.00,N,0.01,K,D*27
$GPHDT,,T*1B
$GPTHS,,V*0E
$GPROT,,V*08
$PSSN,HRP,053107.00,010125,,,,,,,00,0,,*61
$PTNL,AVR,053107.00,,Yaw,,Tilt,,,,0,,00*37
$GPGSA,A,3,07,09,11,20,30,,,,,,,,1.4,0.8,1.2*33
$GPGSA,A,3,71,72,73,74,80,88,,,,,,,1.4,0.8,1.2*30
$GPGSA,A,3,03,05,15,31,,,,,,,,,1.4,0.8,1.2*3C
$GPGSA,A,3,19,22,34,36,,,,,,,,,1.4,0.8,1.2*36
$GPGST,053107.00,4.503,1.266,0.820,346.182,1.244,0.852,3.388*5A
$GPGBS,053107.00,5.616,4.302,14.898,30,0.0001,1.274,0.639*6C
$GPGRS,053107.00,1,0.5,0.2,-1.3,-1.0,1.3,,,,,,,*66
$GPGRS,053107.00,1,-2.8,4.9,0.4,-0.3,6.4,-5.0,,,,,,*64
$GPGRS,053107.00,1,-2.0,-2.3,2.8,9.8,,,,,,,,*46
$GPGRS,053107.00,1,-2.8,-2.9,0.9,-3.0,,,,,,,,*68
$GPGSV,4,1,14,07,78,126,49,16,14,039,,05,17,312,32,06,24,217,34*70
$GPGSV,4,2,14,04,21,082,27,11,37,258,44,30,50,208,47,20,49,299,40*7F
$GPGSV,4,3,14,09,49,078,42,13,03,265,,36,35,170,40,34,31,208,*78
$GPGSV,4,4,14,49,34,195,34,61,03,257,*78
$GLGSV,3,1,11,72,56,322,48,80,16,027,37,70,13,102,,87,22,256,34*6F
$GLGSV,3,2,11,88,22,318,46,74,42,154,39,71,56,074,43,73,55,080,42*68
$GLGSV,3,3,11,86,01,217,,65,05,295,34,75,00,184,*5E
$GAGSV,4,1,13,05,79,027,50,24,28,117,34,16,18,143,,31,26,060,36*65
$GAGSV,4,2,13,09,28,079,40,34,35,227,38,15,36,293,25,03,40,274,35*66
$GAGSV,4,3,13,23,01,017,,25,05,162,,13,05,337,28,06,06,083,*6D
$GAGSV,4,4,13,36,04,186,*54
$GBGSV,6,1,21,22,78,322,49,16,11,048,,34,11,300,35,06,13,049,29*65
$GBGSV,6,2,21,45,18,189,32,12,14,272,31,48,17,112,,05,22,129,33*61
$GBGSV,6,3,21,58,27,046,,09,27,051,29,21,25,297,31,46,39,060,*60
$GBGSV,6,4,21,36,54,142,45,19,43,108,38,44,06,250,26,11,06,321,*66
$GBGSV,6,5,21,39,00,049,,43,02,342,,50,03,295,,02,06,107,*66
$GBGSV,6,6,21,60,07,111,*58
$GPGGA,053107.00,,,,,0,00,,,M,,M,,*48
$PTNL,GGK,053107.00,010125,4742.4468476,N,01617.9732079,E,1,19,1.4,EHT667.1597,M*44
$GPGGQ,053107.00,010125,4742.4468476,N,01617.9732079,E,1,19,3.709,623.9487,M*3A
$GPGFA,053107.00,12.032,27.784,1.266,0.820,346.182,3.388,,VVV*0C
$GPLLK,053107.00,010125,,M,,M,1,19,1.7,,M*05
$GNGMP,053107.00,,,,,DAAA,19,0.8,,,,*56
$GPGMP,053107.00,,,,,,05,,,,2.6,123*7C
$GLGMP,053107.00,,,,,,06,,,,,*79
$GAGMP,053107.00,,,,,,04,,,,,*76
$GBGMP,053107.00,,,,,,04,,,,,*75
$PSSN,SNC,[0,279085000,2347]*45
$GPZDA,053112.00,01,01,2025,,*67
$GPDTM,W84,,00.0000000,N,00.0000000,E,00.0000000,W84*5F
$GPRMC,053112.00,A,4742.4468547,N,01617.9731943,E,0.0,,010125,5.1,E,D*17
$GPGLL,4742.4468547,N,01617.9731943,E,053112.00,A,D*66
$GPGGA,053112.00,4742.4468547,N,01617.9731943,E,2,17,0.8,623.9460,M,43.2111,M,2.8,0123*47
$GNGNS,053112.00,4742.4468547,N,01617.9731943,E,DAAA,17,0.8,623.9460,43.2111,,*51
$GPGNS,053112.00,,,,,,05,,,,2.8,123*76
$GLGNS,053112.00,,,,,,06,,,,,*7D
$GAGNS,053112.00,,,,,,03,,,,,*75
$GBGNS,053112.00,,,,,,03,,,,,*76
$GPLLQ,053112.00,010125,,M,,M,1,17,3.198,,M*10
$GPVTG,,T,,M,0.00,N,0.01,K,D*27
$GPHDT,,T*1B
$GPTHS,,V*0E
$GPROT,,V*08
$PSSN,HRP,053112.00,010125,,,,,,,00,0,,*65
$PTNL,AVR,053112.00,,Yaw,,Tilt,,,,0,,00*33
$GPGSA,A,3,07,09,11,20,30,,,,,,,,1.6,0.8,1.4*37
$GPGSA,A,3,71,72,73,74,80,88,,,,,,,1.6,0.8,1.4*34
$GPGSA,A,3,03,05,31,,,,,,,,,,1.6,0.8,1.4*3C
$GPGSA,A,3,19,22,36,,,,,,,,,,1.6,0.8,1.4*35
$GPGST,053112.00,5.421,1.072,0.703,347.067,1.056,0.726,2.930*59
$GPGBS,053112.00,5.554,4.391,15.323,31,0.0001,13.463,6.158*59
$GPGRS,053112.00,1,0.4,0.4,-0.9,-0.7,0.3,,,,,,,*69
$GPGRS,053112.00,1,-2.7,3.7,-0.6,-1.5,4.2,-6.8,,,,,,*41
$GPGRS,053112.00,1,-0.4,-2.2,13.5,,,,,,,,,*57
$GPGRS,053112.00,1,-1.9,-3.1,-2.3,,,,,,,,,*42
$GPGSV,4,1,14,07,78,126,50,16,14,039,,05,17,312,32,06,24,217,32*7E
$GPGSV,4,2,14,04,21,082,,11,37,258,42,30,50,208,45,20,49,299,39*70
$GPGSV,4,3,14,09,49,078,42,13,03,265,,36,35,170,40,34,31,208,*78
$GPGSV,4,4,14,49,34,195,33,61,03,257,*7F
$GLGSV,3,1,11,72,56,322,47,80,16,027,36,70,13,102,,87,22,256,35*60
$GLGSV,3,2,11,88,22,318,44,74,42,154,39,71,56,074,45,73,55,080,40*6E
$GLGSV,3,3,11,86,01,217,,65,05,295,32,75,00,184,*58
$GAGSV,4,1,13,05,79,027,50,24,28,117,35,16,18,143,,31,26,060,36*64
$GAGSV,4,2,13,09,28,079,38,34,35,227,21,15,36,293,29,03,40,274,37*6F
$GAGSV,4,3,13,23,01,017,,25,05,162,,13,05,337,31,06,06,083,*65
$GAGSV,4,4,13,36,04,186,*54
$GBGSV,6,1,21,22,78,322,49,16,11,048,,34,11,300,34,06,13,049,29*64
$GBGSV,6,2,21,45,18,189,33,12,14,272,33,48,17,112,,05,22,129,34*65
$GBGSV,6,3,21,58,27,046,,09,27,051,28,21,25,297,30,46,39,060,*60
$GBGSV,6,4,21,36,54,142,45,19,43,108,37,44,06,250,27,11,06,321,*68
$GBGSV,6,5,21,39,00,049,,43,02,342,,50,03,295,,02,06,107,*66
$GBGSV,6,6,21,60,07,111,*58
$GPGGA,053112.00,,,,,0,00,,,M,,M,,*4C
$PTNL,GGK,053112.00,010125,4742.4468547,N,01617.9731943,E,1,17,1.6,EHT667.1570,M*45
$GPGGQ,053112.00,010125,4742.4468547,N,01617.9731943,E,1,17,3.198,623.9460,M*37
$GPGFA,053112.00,10.187,24.024,1.072,0.703,347.067,2.930,,VVV*01
$GPLLK,053112.00,010125,,M,,M,1,17,1.9,,M*01
$GNGMP,053112.00,,,,,DAAA,17,0.8,,,,*5C
$GPGMP,053112.00,,,,,,05,,,,2.8,123*76
$GLGMP,053112.00,,,,,,06,,,,,*7D
$GAGMP,053112.00,,,,,,03,,,,,*75
$GBGMP,053112.00,,,,,,03,,,,,*76
$PSSN,SNC,[0,279090000,2347]*41
$GPZDA,053117.00,01,01,2025,,*62
$GPDTM,W84,,00.0000000,N,00.0000000,E,00.0000000,W84*5F
$GPRMC,053117.00,A,4742.4468541,N,01617.9731745,E,0.0,,010125,5.1,E,D*1C
$GPGLL,4742.4468541,N,01617.9731745,E,053117.00,A,D*6D
$GPGGA,053117.00,4742.4468541,N,01617.9731745,E,2,18,0.8,623.9516,M,43.2111,M,3.0,0123*4A
$GNGNS,053117.00,4742.4468541,N,01617.9731745,E,DAAA,18,0.8,623.9516,43.2111,,*55
$GPGNS,053117.00,,,,,,05,,,,3.0,123*7A
$GLGNS,053117.00,,,,,,06,,,,,*78
$GAGNS,053117.00,,,,,,03,,,,,*70
$GBGNS,053117.00,,,,,,04,,,,,*74
$GPLLQ,053117.00,010125,,M,,M,1,18,3.711,,M*1D
$GPVTG,,T,,M,0.01,N,0.01,K,D*26
$GPHDT,,T*1B
$GPTHS,,V*0E
$GPROT,,V*08
$PSSN,HRP,053117.00,010125,,,,,,,00,0,,*60
$PTNL,AVR,053117.00,,Yaw,,Tilt,,,,0,,00*36
$GPGSA,A,3,07,09,11,20,30,,,,,,,,1.4,0.8,1.1*30
$GPGSA,A,3,71,72,73,74,80,88,,,,,,,1.4,0.8,1.1*33
$GPGSA,A,3,03,05,24,,,,,,,,,,1.4,0.8,1.1*3F
$GPGSA,A,3,12,19,22,36,,,,,,,,,1.4,0.8,1.1*31
$GPGST,053117.00,3.916,1.197,0.822,349.335,1.186,0.838,3.415*58
$GPGBS,053117.00,5.446,4.493,15.440,09,0.0001,1.550,0.662*68
$GPGRS,053117.00,1,0.4,1.5,-0.3,-1.4,-0.5,,,,,,,*4F
$GPGRS,053117.00,1,-1.7,2.1,1.2,0.0,5.6,-6.2,,,,,,*4E
$GPGRS,053117.00,1,0.5,-1.7,-3.0,,,,,,,,,*61
$GPGRS,053117.00,1,7.9,-0.8,-2.3,-1.7,,,,,,,,*63
$GPGSV,4,1,14,07,78,126,49,16,14,039,29,05,17,312,32,06,24,217,30*7F
$GPGSV,4,2,14,04,21,082,,11,37,258,43,30,50,208,42,20,49,299,37*78
$GPGSV,4,3,14,09,49,078,43,13,03,265,,36,35,170,41,34,31,208,*78
$GPGSV,4,4,14,49,34,195,34,61,03,257,*78
$GLGSV,3,1,11,72,56,322,47,80,16,027,36,70,13,102,,87,22,256,33*66
$GLGSV,3,2,11,88,22,318,44,74,42,154,38,71,56,074,47,73,55,080,39*63
$GLGSV,3,3,11,86,01,217,,65,05,295,32,75,00,184,*58
$GAGSV,4,1,13,05,79,027,50,24,28,117,36,16,18,143,,31,26,060,35*64
$GAGSV,4,2,13,09,28,079,37,34,35,227,23,15,36,293,31,03,40,274,37*6B
$GAGSV,4,3,13,23,01,017,,25,05,162,,13,05,337,30,06,06,083,*64
$GAGSV,4,4,13,36,04,186,*54
$GBGSV,6,1,21,22,78,322,48,16,11,048,,34,11,300,34,06,13,049,28*64
$GBGSV,6,2,21,45,18,189,34,12,14,272,35,48,17,112,,05,22,129,34*64
$GBGSV,6,3,21,58,27,046,,09,27,051,27,21,25,298,28,46,39,060,*69
$GBGSV,6,4,21,36,54,142,45,19,43,108,36,44,06,250,27,11,06,320,*68
$GBGSV,6,5,21,39,00,049,,43,02,342,,50,03,295,,02,06,107,*66
$GBGSV,6,6,21,60,07,111,*58
$GPGGA,053117.00,,,,,0,00,,,M,,M,,*49
$PTNL,GGK,053117.00,010125,4742.4468541,N,01617.9731745,E,1,18,1.4,EHT667.1627,M*42
$GPGGQ,053117.00,010125,4742.4468541,N,01617.9731745,E,1,18,3.711,623.9516,M*34
$GPGFA,053117.00,11.378,28.001,1.197,0.822,349.335,3.415,,VVV*0B
$GPLLK,053117.00,010125,,M,,M,1,18,1.6,,M*04
$GNGMP,053117.00,,,,,DAAA,18,0.8,,,,*56
$GPGMP,053117.00,,,,,,05,,,,3.0,123*7A
$GLGMP,053117.00,,,,,,06,,,,,*78
$GAGMP,053117.00,,,,,,03,,,,,*70
$GBGMP,053117.00,,,,,,04,,,,,*74
$PSSN,SNC,[0,279095000,2347]*44
$GPZDA,053122.00,01,01,2025,,*64
$GPDTM,W84,,00.0000000,N,00.0000000,E,00.0000000,W84*5F
$GPRMC,053122.00,A,4742.4468563,N,01617.9731555,E,0.0,,010125,5.1,E,D*19
$GPGLL,4742.4468563,N,01617.9731555,E,053122.00,A,D*68
$GPGGA,053122.00,4742.4468563,N,01617.9731555,E,2,18,0.9,623.9645,M,43.2111,M,1.6,0123*4F
$GNGNS,053122.00,4742.4468563,N,01617.9731555,E,DAAA,18,0.9,623.9645,43.2111,,*54
$GPGNS,053122.00,,,,,,05,,,,1.6,123*78
$GLGNS,053122.00,,,,,,05,,,,,*7D
$GAGNS,053122.00,,,,,,03,,,,,*76
$GBGNS,053122.00,,,,,,05,,,,,*73
$GPLLQ,053122.00,010125,,M,,M,1,18,3.758,,M*16
$GPVTG,,T,,M,0.01,N,0.02,K,D*25
$GPHDT,,T*1B
$GPTHS,,V*0E
$GPROT,,V*08
$PSSN,HRP,053122.00,010125,,,,,,,00,0,,*66
$PTNL,AVR,053122.00,,Yaw,,Tilt,,,,0,,00*30
$GPGSA,A,3,07,09,11,20,30,,,,,,,,1.5,0.9,1.2*33
$GPGSA,A,3,71,72,73,74,88,,,,,,,,1.5,0.9,1.2*38
$GPGSA,A,3,03,05,24,,,,,,,,,,1.5,0.9,1.2*3C
$GPGSA,A,3,12,19,22,36,44,,,,,,,,1.5,0.9,1.2*32
$GPGST,053122.00,3.496,1.219,0.829,348.102,1.205,0.849,3.456*5B
$GPGBS,053122.00,5.555,4.296,15.086,20,0.0001,-2.192,0.668*45
$GPGRS,053122.00,1,0.3,1.1,0.9,-2.2,-0.2,,,,,,,*6F
$GPGRS,053122.00,1,-0.0,1.7,1.8,2.3,-5.3,,,,,,,*6F
$GPGRS,053122.00,1,0.3,-1.4,-2.5,,,,,,,,,*66
$GPGRS,053122.00,1,6.9,3.6,-1.8,-1.8,-3.6,,,,,,,*45
$GPGSV,4,1,14,07,78,126,49,16,14,039,28,05,17,312,32,06,24,217,26*79
$GPGSV,4,2,14,04,21,082,27,11,37,258,44,30,50,208,41,20,49,299,36*78
$GPGSV,4,3,14,09,49,078,43,13,03,265,,36,35,170,41,34,31,208,*78
$GPGSV,4,4,14,49,34,195,34,61,03,257,*78
$GLGSV,3,1,11,72,56,323,45,80,16,027,35,70,13,102,,87,22,256,31*64
$GLGSV,3,2,11,88,22,318,44,74,42,154,38,71,56,074,48,73,55,079,40*64
$GLGSV,3,3,11,86,01,217,,65,05,295,31,75,00,184,*5B
$GAGSV,4,1,13,05,79,028,49,24,28,117,37,16,18,143,,31,26,060,32*65
$GAGSV,4,2,13,09,28,079,36,34,35,227,25,15,36,293,33,03,40,274,37*6E
$GAGSV,4,3,13,23,01,017,,25,05,162,,13,06,337,30,06,06,083,*67
$GAGSV,4,4,13,36,04,186,*54
$GBGSV,6,1,21,22,78,322,48,16,11,048,,34,11,299,32,06,13,049,29*62
$GBGSV,6,2,21,45,18,189,34,12,14,272,36,48,17,112,,05,22,129,34*67
$GBGSV,6,3,21,58,27,046,,09,27,051,26,21,25,298,31,46,39,060,*60
$GBGSV,6,4,21,36,54,142,46,19,43,109,37,44,06,250,28,11,06,320,*64
$GBGSV,6,5,21,39,00,049,,43,02,342,,50,03,295,,02,06,107,*66
$GBGSV,6,6,21,60,07,111,*58
$GPGGA,053122.00,,,,,0,00,,,M,,M,,*4F
$PTNL,GGK,053122.00,010125,4742.4468563,N,01617.9731555,E,1,18,1.5,EHT667.1756,M*41
$GPGGQ,053122.00,010125,4742.4468563,N,01617.9731555,E,1,18,3.758,623.9645,M*39
$GPGFA,053122.00,11.591,28.341,1.219,0.829,348.102,3.456,,VVV*05
$GPLLK,053122.00,010125,,M,,M,1,18,1.7,,M*03
$GNGMP,053122.00,,,,,DAAA,18,0.9,,,,*51
$GPGMP,053122.00,,,,,,05,,,,1.6,123*78
$GLGMP,053122.00,,,,,,05,,,,,*7D
$GAGMP,053122.00,,,,,,03,,,,,*76
$GBGMP,053122.00,,,,,,05,,,,,*73
$PSSN,SNC,[0,279100000,2347]*49
$GPZDA,053127.00,01,01,2025,,*61
$GPDTM,W84,,00.0000000,N,00.0000000,E,00.0000000,W84*5F
$GPRMC,053127.00,A,4742.4468645,N,01617.9731394,E,0.0,,010125,5.1,E,D*10
$GPGLL,4742.4468645,N,01617.9731394,E,053127.00,A,D*61
$GPGGA,053127.00,4742.4468645,N,01617.9731394,E,2,16,0.9,623.9774,M,43.2111,M,2.6,0123*48
$GNGNS,053127.00,4742.4468645,N,01617.9731394,E,DAAA,16,0.9,623.9774,43.2111,,*50
$GPGNS,053127.00,,,,,,05,,,,2.6,123*7E
$GLGNS,053127.00,,,,,,05,,,,,*78
$GAGNS,053127.00,,,,,,03,,,,,*73
$GBGNS,053127.00,,,,,,03,,,,,*70
$GPLLQ,053127.00,010125,,M,,M,1,16,2.454,,M*13
$GPVTG,,T,,M,0.00,N,0.01,K,D*27
$GPHDT,,T*1B
$GPTHS,,V*0E
$GPROT,,V*08
$PSSN,HRP,053127.00,010125,,,,,,,00,0,,*63
$PTNL,AVR,053127.00,,Yaw,,Tilt,,,,0,,00*35
$GPGSA,A,3,07,09,11,20,30,,,,,,,,1.8,0.9,1.5*39
$GPGSA,A,3,71,72,73,74,88,,,,,,,,1.8,0.9,1.5*32
$GPGSA,A,3,03,05,24,,,,,,,,,,1.8,0.9,1.5*36
$GPGSA,A,3,19,22,36,,,,,,,,,,1.8,0.9,1.5*3B
$GPGST,053127.00,3.076,0.830,0.538,347.705,0.820,0.555,2.245*5E
$GPGBS,053127.00,5.667,4.379,15.585,30,0.0001,0.811,0.642*60
$GPGRS,053127.00,1,-0.0,0.6,-0.2,-0.6,0.8,,,,,,,*45
$GPGRS,053127.00,1,0.6,1.7,1.9,0.3,-6.1,,,,,,,*43
$GPGRS,053127.00,1,-1.4,-1.6,-2.1,,,,,,,,,*4E
$GPGRS,053127.00,1,4.6,-2.1,-2.4,,,,,,,,,*65
$GPGSV,4,1,14,07,78,125,48,16,14,039,,05,17,312,33,06,24,217,33*74
$GPGSV,4,2,14,04,21,082,28,11,37,258,44,30,50,208,41,20,49,299,37*76
$GPGSV,4,3,14,09,49,078,42,13,03,265,,36,35,170,41,34,31,208,*79
$GPGSV,4,4,14,49,34,195,34,61,03,257,*78
$GLGSV,3,1,11,72,56,323,45,80,16,027,33,70,13,102,,87,22,256,29*6B
$GLGSV,3,2,11,88,22,318,44,74,42,154,36,71,56,074,49,73,55,079,44*6F
$GLGSV,3,3,11,86,01,217,,65,05,295,32,75,00,184,*58
