$GPZDA,002942.00,01,01,2025,,*6E
$GPDTM,W84,,00.0000000,N,00.0000000,E,00.0000000,W84*5F
$GPRMC,002942.00,A,4742.4461599,N,01617.9724698,E,0.0,,010125,5.1,E,D*19
$GPGLL,4742.4461599,N,01617.9724698,E,002942.00,A,D*68
$GPGGA,002942.00,4742.4461599,N,01617.9724698,E,2,17,0.9,623.9475,M,43.2111,M,3.3,0123*46
$GNGNS,002942.00,4742.4461599,N,01617.9724698,E,DAAA,17,0.9,623.9475,43.2111,,*5A
$GPGNS,002942.00,,,,,,03,,,,3.3,123*73
$GLGNS,002942.00,,,,,,03,,,,,*71
$GAGNS,002942.00,,,,,,05,,,,,*7A
$GBGNS,002942.00,,,,,,06,,,,,*7A
$GPLLQ,002942.00,010125,,M,,M,1,17,8.439,,M*1C
$GPVTG,,T,,M,0.00,N,0.00,K,D*26
$GPHDT,,T*1B
$GPTHS,,V*0E
$GPROT,,V*08
$PSSN,HRP,002942.00,010125,,,,,,,00,0,,*6C
$PTNL,AVR,002942.00,,Yaw,,Tilt,,,,0,,00*3A
$GPGSA,A,3,02,03,17,,,,,,,,,,1.6,0.9,1.3*39
$GPGSA,A,3,68,69,85,,,,,,,,,,1.6,0.9,1.3*32
$GPGSA,A,3,04,06,10,11,36,,,,,,,,1.6,0.9,1.3*38
$GPGSA,A,3,16,19,20,29,32,35,,,,,,,1.6,0.9,1.3*3F
$GPGST,002942.00,2.286,4.825,1.646,6.023,4.802,1.713,6.725*51
$GPGBS,002942.00,37.313,10.504,49.614,03,0.0001,1.204,0.672*6F
$GPGRS,002942.00,1,-0.5,1.2,-0.7,,,,,,,,,*6C
$GPGRS,002942.00,1,3.9,-0.8,-0.3,,,,,,,,,*6C
$GPGRS,002942.00,1,0.8,1.4,0.7,0.1,2.1,,,,,,,*65
$GPGRS,002942.00,1,-3.5,2.7,0.6,1.8,-0.1,-1.8,,,,,,*6A
$GPGSV,5,1,17,01,85,116,,04,22,199,33,28,23,087,34,19,12,324,*79
$GPGSV,5,2,17,32,25,047,35,31,16,116,,17,35,302,40,21,58,136,35*71
$GPGSV,5,3,17,03,61,274,50,02,80,151,39,22,06,288,,14,00,268,20*73
$GPGSV,5,4,17,08,10,181,,36,35,170,41,34,31,208,,49,34,195,37*73
$GPGSV,5,5,17,61,03,257,*4B
$GLGSV,2,1,08,69,84,021,45,83,15,143,,70,26,225,,85,41,322,50*6E
$GLGSV,2,2,08,68,31,039,41,84,81,144,28,77,08,014,,76,04,332,33*6A
$GAGSV,3,1,11,11,76,110,45,19,20,043,27,12,22,120,22,09,39,186,32*6F
$GAGSV,3,2,11,10,46,118,42,06,58,161,42,36,50,306,44,04,64,102,45*6E
$GAGSV,3,3,11,30,07,325,23,34,00,302,,02,07,277,33*58
$GBGSV,5,1,18,20,73,228,50,35,21,314,47,57,11,094,,30,33,164,32*63
$GBGSV,5,2,18,19,23,232,38,05,24,128,,39,27,056,33,06,27,071,29*6E
$GBGSV,5,3,18,09,27,086,27,16,28,067,40,32,46,055,41,48,50,231,*64
$GBGSV,5,4,18,29,67,250,44,25,02,030,,13,04,080,,23,01,076,*67
$GBGSV,5,5,18,02,08,105,,60,10,109,*63
$GPGGA,002942.00,,,,,0,00,,,M,,M,,*45
$PTNL,GGK,002942.00,010125,4742.4461599,N,01617.9724698,E,1,17,1.6,EHT667.1585,M*41
$GPGGQ,002942.00,010125,4742.4461599,N,01617.9724698,E,1,17,8.439,623.9475,M*38
$GPGFA,002942.00,45.879,55.147,4.825,1.646,6.023,6.725,,VVV*04
$GPLLK,002942.00,010125,,M,,M,1,17,1.9,,M*08
$GNGMP,002942.00,,,,,DAAA,17,0.9,,,,*54
$GPGMP,002942.00,,,,,,03,,,,3.3,123*73
$GLGMP,002942.00,,,,,,03,,,,,*71
$GAGMP,002942.00,,,,,,05,,,,,*7A
$GBGMP,002942.00,,,,,,06,,,,,*7A
$PSSN,SNC,[0,261000000,2347]*41
$GPZDA,002947.00,01,01,2025,,*6B
$GPDTM,W84,,00.0000000,N,00.0000000,E,00.0000000,W84*5F
$GPRMC,002947.00,A,4742.4461623,N,01617.9724795,E,0.0,,010125,5.1,E,D*12
$GPGLL,4742.4461623,N,01617.9724795,E,002947.00,A,D*63
$GPGGA,002947.00,4742.4461623,N,01617.9724795,E,2,17,0.9,623.9432,M,43.2111,M,2.0,0123*4C
$GNGNS,002947.00,4742.4461623,N,01617.9724795,E,DAAA,17,0.9,623.9432,43.2111,,*52
$GPGNS,002947.00,,,,,,04,,,,2.0,123*73
$GLGNS,002947.00,,,,,,03,,,,,*74
$GAGNS,002947.00,,,,,,05,,,,,*7F
$GBGNS,002947.00,,,,,,05,,,,,*7C
$GPLLQ,002947.00,010125,,M,,M,1,17,6.954,,M*11
$GPVTG,,T,,M,0.01,N,0.02,K,D*25
$GPHDT,,T*1B
$GPTHS,,V*0E
$GPROT,,V*08
$PSSN,HRP,002947.00,010125,,,,,,,00,0,,*69
$PTNL,AVR,002947.00,,Yaw,,Tilt,,,,0,,00*3F
$GPGSA,A,3,02,03,17,21,,,,,,,,,1.7,0.9,1.4*3C
$GPGSA,A,3,68,69,85,,,,,,,,,,1.7,0.9,1.4*34
$GPGSA,A,3,04,06,10,11,36,,,,,,,,1.7,0.9,1.4*3E
$GPGSA,A,3,19,20,29,32,35,,,,,,,,1.7,0.9,1.4*3E
$GPGST,002947.00,2.819,5.057,1.191,28.102,4.496,2.604,4.621*65
$GPGBS,002947.00,14.070,10.475,18.366,02,0.0001,-1.928,0.623*43
$GPGRS,002947.00,1,-1.9,1.6,-0.2,0.3,,,,,,,,*48
$GPGRS,002947.00,1,7.1,-0.8,-0.4,,,,,,,,,*62
$GPGRS,002947.00,1,1.0,1.5,1.0,0.3,2.3,,,,,,,*6E
$GPGRS,002947.00,1,-1.5,0.5,1.9,-0.5,-2.3,,,,,,,*48
$GPGSV,5,1,17,01,85,117,,04,22,199,31,28,23,087,33,19,12,324,33*7D
$GPGSV,5,2,17,32,25,047,33,31,16,116,,17,35,302,39,21,58,136,36*7A
$GPGSV,5,3,17,03,61,274,50,02,80,151,37,22,06,288,,14,00,268,*7F
$GPGSV,5,4,17,08,10,181,,36,35,170,41,34,31,208,,49,34,195,37*73
$GPGSV,5,5,17,61,03,257,*4B
$GLGSV,2,1,08,69,84,021,44,83,15,143,22,70,26,225,,85,41,322,50*6F
$GLGSV,2,2,08,68,31,039,42,84,81,144,27,77,08,014,,76,04,332,27*63
$GAGSV,3,1,11,11,76,110,45,19,20,043,26,12,22,120,24,09,39,186,35*6F
$GAGSV,3,2,11,10,46,118,42,06,58,160,43,36,50,306,44,04,64,102,45*6E
$GAGSV,3,3,11,30,07,325,23,34,00,302,,02,07,277,33*58
$GBGSV,5,1,18,20,73,228,50,35,21,314,47,57,11,094,,30,33,164,32*63
$GBGSV,5,2,18,19,23,232,37,05,24,128,,39,27,056,33,06,27,071,28*60
$GBGSV,5,3,18,09,27,086,27,16,28,067,21,32,46,055,41,48,50,231,*63
$GBGSV,5,4,18,29,67,250,44,25,02,030,,13,04,080,,23,01,076,*67
$GBGSV,5,5,18,02,08,105,,60,10,109,*63
$GPGGA,002947.00,,,,,0,00,,,M,,M,,*40
$PTNL,GGK,002947.00,010125,4742.4461623,N,01617.9724795,E,1,17,1.7,EHT667.1543,M*41
$GPGGQ,002947.00,010125,4742.4461623,N,01617.9724795,E,1,17,6.954,623.9432,M*38
$GPGFA,002947.00,48.085,37.894,5.057,1.191,28.102,4.621,,VVV*3C
$GPLLK,002947.00,010125,,M,,M,1,17,2.0,,M*07
$GNGMP,002947.00,,,,,DAAA,17,0.9,,,,*51
$GPGMP,002947.00,,,,,,04,,,,2.0,123*73
$GLGMP,002947.00,,,,,,03,,,,,*74
$GAGMP,002947.00,,,,,,05,,,,,*7F
$GBGMP,002947.00,,,,,,05,,,,,*7C
$PSSN,SNC,[0,261005000,2347]*44
$GPZDA,002952.00,01,01,2025,,*6F
$GPDTM,W84,,00.0000000,N,00.0000000,E,00.0000000,W84*5F
$GPRMC,002952.00,A,4742.4461608,N,01617.9724855,E,0.0,,010125,5.1,E,D*1C
$GPGLL,4742.4461608,N,01617.9724855,E,002952.00,A,D*6D
$GPGGA,002952.00,4742.4461608,N,01617.9724855,E,2,17,0.8,623.9439,M,43.2111,M,3.3,0123*4A
$GNGNS,002952.00,4742.4461608,N,01617.9724855,E,DAAA,17,0.8,623.9439,43.2111,,*56
$GPGNS,002952.00,,,,,,03,,,,3.3,123*72
$GLGNS,002952.00,,,,,,03,,,,,*70
$GAGNS,002952.00,,,,,,06,,,,,*78
$GBGNS,002952.00,,,,,,05,,,,,*78
$GPLLQ,002952.00,010125,,M,,M,1,17,6.093,,M*17
$GPVTG,,T,,M,0.01,N,0.01,K,D*26
$GPHDT,,T*1B
$GPTHS,,V*0E
$GPROT,,V*08
$PSSN,HRP,002952.00,010125,,,,,,,00,0,,*6D
$PTNL,AVR,002952.00,,Yaw,,Tilt,,,,0,,00*3B
$GPGSA,A,3,03,17,21,,,,,,,,,,1.6,0.8,1.4*3E
$GPGSA,A,3,68,69,85,,,,,,,,,,1.6,0.8,1.4*34
$GPGSA,A,3,04,06,09,10,11,36,,,,,,,1.6,0.8,1.4*37
$GPGSA,A,3,19,20,29,32,35,,,,,,,,1.6,0.8,1.4*3E
$GPGST,002952.00,2.934,3.991,0.819,27.576,3.558,1.985,4.531*69
$GPGBS,002952.00,18.350,10.427,20.724,03,0.0001,1.214,0.634*6A
$GPGRS,002952.00,1,1.2,-0.9,-0.2,,,,,,,,,*64
$GPGRS,002952.00,1,6.1,-1.6,-0.5,,,,,,,,,*69
$GPGRS,002952.00,1,0.5,1.1,2.9,0.8,-0.3,1.5,,,,,,*6E
$GPGRS,002952.00,1,-3.8,-0.3,1.5,-1.3,-3.5,,,,,,,*64
$GPGSV,5,1,17,01,85,117,,04,22,199,29,28,23,087,33,19,12,324,35*72
$GPGSV,5,2,17,32,25,047,34,31,16,116,,17,35,302,37,21,58,136,36*73
$GPGSV,5,3,17,03,61,274,50,02,80,151,35,22,06,288,,14,00,268,*7D
$GPGSV,5,4,17,08,10,181,,36,35,170,41,34,31,208,,49,34,195,37*73
$GPGSV,5,5,17,61,03,257,*4B
$GLGSV,2,1,08,69,84,021,45,83,15,143,26,70,26,225,,85,41,322,51*6B
$GLGSV,2,2,08,68,31,039,42,84,81,144,45,77,08,014,,76,04,332,32*63
$GAGSV,3,1,11,11,76,110,45,19,20,043,25,12,22,120,25,09,39,186,37*6F
$GAGSV,3,2,11,10,46,118,42,06,58,160,43,36,50,306,45,04,64,102,46*6C
$GAGSV,3,3,11,30,07,325,24,34,00,302,,02,07,277,33*5F
$GBGSV,5,1,18,20,73,228,50,35,21,314,46,57,11,094,,30,33,164,33*63
$GBGSV,5,2,18,19,23,232,35,05,24,128,,39,27,056,33,06,27,071,27*6D
$GBGSV,5,3,18,09,27,086,26,16,28,067,24,32,46,055,42,48,50,231,*64
$GBGSV,5,4,18,29,67,250,44,25,02,030,,13,04,080,,23,01,076,*67
$GBGSV,5,5,18,02,08,105,,60,10,109,*63
$GPGGA,002952.00,,,,,0,00,,,M,,M,,*44
$PTNL,GGK,002952.00,010125,4742.4461608,N,01617.9724855,E,1,17,1.6,EHT667.1549,M*44
$GPGGQ,002952.00,010125,4742.4461608,N,01617.9724855,E,1,17,6.093,623.9439,M*3F
$GPGFA,002952.00,37.941,37.153,3.991,0.819,27.576,4.531,,VVV*34
$GPLLK,002952.00,010125,,M,,M,1,17,1.9,,M*09
$GNGMP,002952.00,,,,,DAAA,17,0.8,,,,*54
$GPGMP,002952.00,,,,,,03,,,,3.3,123*72
$GLGMP,002952.00,,,,,,03,,,,,*70
$GAGMP,002952.00,,,,,,06,,,,,*78
$GBGMP,002952.00,,,,,,05,,,,,*78
$PSSN,SNC,[0,261010000,2347]*40
$GPZDA,002957.00,01,01,2025,,*6A
$GPDTM,W84,,00.0000000,N,00.0000000,E,00.0000000,W84*5F
$GPRMC,002957.00,A,4742.4461674,N,01617.9724729,E,0.0,,010125,5.1,E,D*16
$GPGLL,4742.4461674,N,01617.9724729,E,002957.00,A,D*67
$GPGGA,002957.00,4742.4461674,N,01617.9724729,E,2,18,0.9,623.9416,M,43.2111,M,2.3,0123*42
$GNGNS,002957.00,4742.4461674,N,01617.9724729,E,DAAA,18,0.9,623.9416,43.2111,,*5F
$GPGNS,002957.00,,,,,,04,,,,2.3,123*71
$GLGNS,002957.00,,,,,,04,,,,,*72
$GAGNS,002957.00,,,,,,06,,,,,*7D
$GBGNS,002957.00,,,,,,04,,,,,*7C
$GPLLQ,002957.00,010125,,M,,M,1,18,9.930,,M*12
$GPVTG,,T,,M,0.01,N,0.01,K,D*26
$GPHDT,,T*1B
$GPTHS,,V*0E
$GPROT,,V*08
$PSSN,HRP,002957.00,010125,,,,,,,00,0,,*68
$PTNL,AVR,002957.00,,Yaw,,Tilt,,,,0,,00*3E
$GPGSA,A,3,03,17,21,32,,,,,,,,,1.8,0.9,1.5*31
$GPGSA,A,3,68,69,84,85,,,,,,,,,1.8,0.9,1.5*36
$GPGSA,A,3,04,06,09,10,11,36,,,,,,,1.8,0.9,1.5*39
$GPGSA,A,3,20,29,32,35,,,,,,,,,1.8,0.9,1.5*38
$GPGST,002957.00,3.051,5.723,1.225,23.801,5.259,2.567,8.022*63
$GPGBS,002957.00,10.261,5.736,26.870,21,0.0001,2.330,0.675*5A
$GPGRS,002957.00,1,-0.1,-1.9,2.3,2.5,,,,,,,,*48
$GPGRS,002957.00,1,5.0,-1.8,-3.3,-1.6,,,,,,,,*61
$GPGRS,002957.00,1,-1.1,-0.4,2.1,-0.2,-1.5,-0.2,,,,,,*69
$GPGRS,002957.00,1,-1.6,-0.8,-3.1,-5.0,,,,,,,,*4F
$GPGSV,5,1,17,01,85,117,,04,22,199,30,28,23,087,33,19,12,324,35*7A
$GPGSV,5,2,17,32,25,047,36,31,16,116,,17,35,302,38,21,58,136,35*7D
$GPGSV,5,3,17,03,61,274,51,02,80,151,34,22,06,288,,14,00,268,*7D
$GPGSV,5,4,17,08,10,181,,36,35,170,41,34,31,208,,49,34,195,37*73
$GPGSV,5,5,17,61,03,257,*4B
$GLGSV,2,1,08,69,84,021,45,83,15,143,26,70,26,225,,85,41,322,51*6B
$GLGSV,2,2,08,68,31,039,41,84,81,144,45,77,08,014,,76,04,332,32*60
$GAGSV,3,1,11,11,76,110,45,19,20,043,22,12,22,120,26,09,39,186,38*64
$GAGSV,3,2,11,10,46,118,42,06,58,160,43,36,50,306,45,04,64,101,46*6F
$GAGSV,3,3,11,30,07,325,25,34,00,302,,02,07,277,32*5F
$GBGSV,5,1,18,20,73,228,50,35,21,314,45,57,11,094,,30,33,164,33*60
$GBGSV,5,2,18,19,23,232,35,05,24,128,,39,27,056,33,06,27,071,27*6D
$GBGSV,5,3,18,09,27,086,26,16,28,067,26,32,46,055,41,48,50,231,*65
$GBGSV,5,4,18,29,67,250,43,25,02,030,,13,04,080,,23,01,076,*60
$GBGSV,5,5,18,02,08,105,,60,10,109,*63
$GPGGA,002957.00,,,,,0,00,,,M,,M,,*41
$PTNL,GGK,002957.00,010125,4742.4461674,N,01617.9724729,E,1,18,1.8,EHT667.1527,M*47
$GPGGQ,002957.00,010125,4742.4461674,N,01617.9724729,E,1,18,9.930,623.9416,M*38
$GPGFA,002957.00,54.411,65.782,5.723,1.225,23.801,8.022,,VVV*36
$GPLLK,002957.00,010125,,M,,M,1,18,2.1,,M*08
$GNGMP,002957.00,,,,,DAAA,18,0.9,,,,*5F
$GPGMP,002957.00,,,,,,04,,,,2.3,123*71
$GLGMP,002957.00,,,,,,04,,,,,*72
$GAGMP,002957.00,,,,,,06,,,,,*7D
$GBGMP,002957.00,,,,,,04,,,,,*7C
$PSSN,SNC,[0,261015000,2347]*45
$GPZDA,003002.00,01,01,2025,,*62
$GPDTM,W84,,00.0000000,N,00.0000000,E,00.0000000,W84*5F
$GPRMC,003002.00,A,4742.4461566,N,01617.9724489,E,0.0,,010125,5.1,E,D*17
$GPGLL,4742.4461566,N,01617.9724489,E,003002.00,A,D*66
$GPGGA,003002.00,4742.4461566,N,01617.9724489,E,2,17,0.9,623.9577,M,43.2111,M,2.8,0123*41
$GNGNS,003002.00,4742.4461566,N,01617.9724489,E,DAAA,17,0.9,623.9577,43.2111,,*57
$GPGNS,003002.00,,,,,,04,,,,2.8,123*72
$GLGNS,003002.00,,,,,,03,,,,,*7D
$GAGNS,003002.00,,,,,,06,,,,,*75
$GBGNS,003002.00,,,,,,04,,,,,*74
$GPLLQ,003002.00,010125,,M,,M,1,17,10.949,,M*23
$GPVTG,,T,,M,0.00,N,0.01,K,D*27
$GPHDT,,T*1B
$GPTHS,,V*0E
$GPROT,,V*08
$PSSN,HRP,003002.00,010125,,,,,,,00,0,,*60
$PTNL,AVR,003002.00,,Yaw,,Tilt,,,,0,,00*36
$GPGSA,A,3,02,03,17,32,,,,,,,,,1.8,0.9,1.5*30
$GPGSA,A,3,68,69,85,,,,,,,,,,1.8,0.9,1.5*3A
$GPGSA,A,3,04,06,09,10,11,36,,,,,,,1.8,0.9,1.5*39
$GPGSA,A,3,20,29,32,35,,,,,,,,,1.8,0.9,1.5*38
$GPGST,003002.00,2.818,6.363,1.046,2.063,6.359,1.070,8.849*53
$GPGBS,003002.00,41.558,4.911,56.625,32,0.0001,3.971,1.225*54
$GPGRS,003002.00,1,-0.7,0.2,-0.4,4.0,,,,,,,,*4A
$GPGRS,003002.00,1,5.0,-1.2,-1.3,,,,,,,,,*65
$GPGRS,003002.00,1,-1.1,-0.2,2.2,-0.4,-1.1,-0.0,,,,,,*64
$GPGRS,003002.00,1,-1.1,-1.2,-2.7,-4.2,,,,,,,,*4F
$GPGSV,5,1,17,01,85,117,,04,22,199,31,28,23,087,31,19,12,324,35*79
$GPGSV,5,2,17,32,25,047,36,31,16,116,,17,35,302,39,21,58,136,34*7D
$GPGSV,5,3,17,03,61,275,51,02,80,151,36,22,06,288,,14,00,268,*7E
$GPGSV,5,4,17,08,10,181,21,36,35,170,41,34,31,208,,49,34,195,37*70
$GPGSV,5,5,17,61,03,257,*4B
$GLGSV,2,1,08,69,84,021,45,83,15,143,25,70,26,225,,85,41,322,52*6B
$GLGSV,2,2,08,68,31,039,38,84,81,144,22,77,08,014,,76,04,332,32*6F
$GAGSV,3,1,11,11,76,110,45,19,20,043,,12,22,120,27,09,39,186,38*65
$GAGSV,3,2,11,10,46,118,42,06,58,160,43,36,50,306,44,04,64,101,46*6E
$GAGSV,3,3,11,30,07,325,27,34,00,302,,02,07,277,32*5D
$GBGSV,5,1,18,20,74,228,50,35,21,314,45,57,11,094,,30,33,164,32*66
$GBGSV,5,2,18,19,23,232,34,05,24,128,,39,27,056,34,06,27,071,27*6B
$GBGSV,5,3,18,09,27,086,29,16,28,067,27,32,46,055,41,48,51,231,*6A
$GBGSV,5,4,18,29,67,250,43,25,02,030,,13,04,080,,23,01,076,*60
$GBGSV,5,5,18,02,08,105,,60,10,109,*63
$GPGGA,003002.00,,,,,0,00,,,M,,M,,*49
$PTNL,GGK,003002.00,010125,4742.4461566,N,01617.9724489,E,1,17,1.8,EHT667.1688,M*4F
$GPGGQ,003002.00,010125,4742.4461566,N,01617.9724489,E,1,17,10.949,623.9577,M*06
$GPGFA,003002.00,60.497,72.559,6.363,1.046,2.063,8.849,,VVV*0B
$GPLLK,003002.00,010125,,M,,M,1,17,2.1,,M*0F
$GNGMP,003002.00,,,,,DAAA,17,0.9,,,,*58
$GPGMP,003002.00,,,,,,04,,,,2.8,123*72
$GLGMP,003002.00,,,,,,03,,,,,*7D
$GAGMP,003002.00,,,,,,06,,,,,*75
$GBGMP,003002.00,,,,,,04,,,,,*74
$PSSN,SNC,[0,261020000,2347]*43
$GPZDA,003007.00,01,01,2025,,*67
$GPDTM,W84,,00.0000000,N,00.0000000,E,00.0000000,W84*5F
$GPRMC,003007.00,A,4742.4461421,N,01617.9724251,E,0.0,,010125,5.1,E,D*13
$GPGLL,4742.4461421,N,01617.9724251,E,003007.00,A,D*62
$GPGGA,003007.00,4742.4461421,N,01617.9724251,E,2,17,0.9,623.9785,M,43.2111,M,1.8,0123*49
$GNGNS,003007.00,4742.4461421,N,01617.9724251,E,DAAA,17,0.9,623.9785,43.2111,,*5C
$GPGNS,003007.00,,,,,,04,,,,1.8,123*74
$GLGNS,003007.00,,,,,,03,,,,,*78
$GAGNS,003007.00,,,,,,06,,,,,*70
$GBGNS,003007.00,,,,,,04,,,,,*71
$GPLLQ,003007.00,010125,,M,,M,1,17,13.178,,M*2F
$GPVTG,,T,,M,0.00,N,0.00,K,D*26
$GPHDT,,T*1B
$GPTHS,,V*0E
$GPROT,,V*08
$PSSN,HRP,003007.00,010125,,,,,,,00,0,,*65
$PTNL,AVR,003007.00,,Yaw,,Tilt,,,,0,,00*33
$GPGSA,A,3,02,03,17,32,,,,,,,,,1.8,0.9,1.5*30
$GPGSA,A,3,69,84,85,,,,,,,,,,1.8,0.9,1.5*38
$GPGSA,A,3,04,06,09,10,11,36,,,,,,,1.8,0.9,1.5*39
$GPGSA,A,3,20,29,32,35,,,,,,,,,1.8,0.9,1.5*38
$GPGST,003007.00,2.610,7.632,1.276,2.147,7.627,1.307,10.667*63
$GPGBS,003007.00,40.229,4.873,55.114,32,0.0001,4.376,1.235*59
$GPGRS,003007.00,1,-1.8,0.1,0.1,4.4,,,,,,,,*6E
$GPGRS,003007.00,1,-2.2,-3.7,-1.1,,,,,,,,,*4D
$GPGRS,003007.00,1,-1.4,-0.1,1.5,-0.9,-1.3,-0.4,,,,,,*68
$GPGRS,003007.00,1,-1.3,-1.9,-1.3,-3.5,,,,,,,,*44
$GPGSV,5,1,17,01,85,117,,04,22,199,31,28,23,087,28,19,12,324,*77
$GPGSV,5,2,17,32,25,047,36,31,16,116,,17,35,302,39,21,58,136,30*79
$GPGSV,5,3,17,03,61,275,50,02,80,151,36,22,06,288,,14,00,268,*7F
$GPGSV,5,4,17,08,09,181,,36,35,170,41,34,31,208,,49,34,195,37*7B
$GPGSV,5,5,17,61,03,257,*4B
$GLGSV,2,1,08,69,84,021,44,83,15,143,25,70,26,225,,85,41,322,51*69
$GLGSV,2,2,08,68,31,039,34,84,81,144,26,77,08,014,,76,03,332,30*62
$GAGSV,3,1,11,11,76,110,46,19,20,043,,12,22,120,27,09,39,186,39*67
$GAGSV,3,2,11,10,46,118,42,06,58,160,44,36,50,306,44,04,64,101,46*69
$GAGSV,3,3,11,30,07,325,26,34,00,302,,02,07,277,32*5C
$GBGSV,5,1,18,20,74,228,50,35,21,314,45,57,11,094,,30,33,164,32*66
$GBGSV,5,2,18,19,23,232,34,05,24,128,,39,27,056,34,06,27,071,27*6B
$GBGSV,5,3,18,09,27,086,,16,28,067,27,32,46,055,41,48,51,231,*61
$GBGSV,5,4,18,29,67,250,44,25,02,030,,13,04,080,,23,01,076,*67
$GBGSV,5,5,18,02,08,105,,60,10,109,*63
$GPGGA,003007.00,,,,,0,00,,,M,,M,,*4C
$PTNL,GGK,003007.00,010125,4742.4461421,N,01617.9724251,E,1,17,1.8,EHT667.1896,M*4A
$GPGGQ,003007.00,010125,4742.4461421,N,01617.9724251,E,1,17,13.178,623.9785,M*04
$GPGFA,003007.00,72.564,87.466,7.632,1.276,2.147,10.667,,VVV*3A
$GPLLK,003007.00,010125,,M,,M,1,17,2.1,,M*0A
$GNGMP,003007.00,,,,,DAAA,17,0.9,,,,*5D
$GPGMP,003007.00,,,,,,04,,,,1.8,123*74
$GLGMP,003007.00,,,,,,03,,,,,*78
$GAGMP,003007.00,,,,,,06,,,,,*70
$GBGMP,003007.00,,,,,,04,,,,,*71
$PSSN,SNC,[0,261025000,2347]*46
$GPZDA,003012.00,01,01,2025,,*63
$GPDTM,W84,,00.0000000,N,00.0000000,E,00.0000000,W84*5F
$GPRMC,003012.00,A,4742.4461402,N,01617.9724251,E,0.0,,010125,5.1,E,D*16
$GPGLL,4742.4461402,N,01617.9724251,E,003012.00,A,D*67
$GPGGA,003012.00,4742.4461402,N,01617.9724251,E,2,14,1.1,623.9862,M,43.2111,M,3.0,0123*4A
$GNGNS,003012.00,4742.4461402,N,01617.9724251,E,DAAA,14,1.1,623.9862,43.2111,,*55
$GPGNS,003012.00,,,,,,02,,,,3.0,123*7C
$GLGNS,003012.00,,,,,,02,,,,,*7D
$GAGNS,003012.00,,,,,,06,,,,,*74
$GBGNS,003012.00,,,,,,04,,,,,*75
$GPLLQ,003012.00,010125,,M,,M,1,14,7.522,,M*16
$GPVTG,,T,,M,0.00,N,0.00,K,D*26
$GPHDT,,T*1B
$GPTHS,,V*0E
$GPROT,,V*08
$PSSN,HRP,003012.00,010125,,,,,,,00,0,,*61
$PTNL,AVR,003012.00,,Yaw,,Tilt,,,,0,,00*37
$GPGSA,A,3,03,17,,,,,,,,,,,2.0,1.1,1.8*3C
$GPGSA,A,3,69,85,,,,,,,,,,,2.0,1.1,1.8*3B
$GPGSA,A,3,04,06,09,10,11,36,,,,,,,2.0,1.1,1.8*36
$GPGSA,A,3,20,29,32,35,,,,,,,,,2.0,1.1,1.8*37
$GPGST,003012.00,1.731,4.099,3.311,45.224,3.723,3.729,5.368*60
$GPGBS,003012.00,40.456,44.577,62.525,17,0.0001,-0.512,0.767*45
$GPGRS,003012.00,1,0.2,-0.5,,,,,,,,,,*64
$GPGRS,003012.00,1,-2.2,-1.5,,,,,,,,,,*4A
$GPGRS,003012.00,1,-1.0,1.2,1.3,-0.1,-0.6,-0.4,,,,,,*4D
$GPGRS,003012.00,1,-1.0,-0.8,1.3,-2.4,,,,,,,,*6E
$GPGSV,5,1,17,01,85,117,,04,22,199,32,28,23,087,35,19,12,324,*78
$GPGSV,5,2,17,32,25,047,36,31,16,116,,17,35,302,40,21,58,136,*74
$GPGSV,5,3,17,03,61,275,49,02,80,151,38,22,06,288,,14,00,268,*79
$GPGSV,5,4,17,08,09,181,19,36,35,170,41,34,31,208,,49,34,195,37*73
$GPGSV,5,5,17,61,03,257,*4B
$GLGSV,2,1,08,69,84,021,45,83,15,143,23,70,26,225,,85,41,322,50*6F
$GLGSV,2,2,08,68,31,039,32,84,81,144,27,77,08,014,,76,03,332,21*65
$GAGSV,3,1,11,11,76,110,46,19,19,043,22,12,22,120,27,09,39,186,38*6C
$GAGSV,3,2,11,10,46,118,42,06,58,160,44,36,50,306,44,04,64,101,45*6A
$GAGSV,3,3,11,30,07,325,28,34,01,302,,02,07,277,31*50
$GBGSV,5,1,18,20,74,228,50,35,21,314,46,57,11,094,,30,33,164,31*66
$GBGSV,5,2,18,19,23,232,34,05,24,128,,39,27,056,34,06,27,071,27*6B
$GBGSV,5,3,18,09,27,086,27,16,28,067,28,32,46,055,42,48,51,231,*68
$GBGSV,5,4,18,29,67,250,45,25,02,030,,13,04,080,,23,01,076,*66
$GBGSV,5,5,18,02,08,105,,60,10,109,*63
$GPGGA,003012.00,,,,,0,00,,,M,,M,,*48
$PTNL,GGK,003012.00,010125,4742.4461402,N,01617.9724251,E,1,14,2.0,EHT667.1973,M*4D
$GPGGQ,003012.00,010125,4742.4461402,N,01617.9724251,E,1,14,7.522,623.9862,M*3A
$GPGFA,003012.00,38.974,44.015,4.099,3.311,45.224,5.368,,VVV*3F
$GPLLK,003012.00,010125,,M,,M,1,14,2.5,,M*09
$GNGMP,003012.00,,,,,DAAA,14,1.1,,,,*53
$GPGMP,003012.00,,,,,,02,,,,3.0,123*7C
$GLGMP,003012.00,,,,,,02,,,,,*7D
$GAGMP,003012.00,,,,,,06,,,,,*74
$GBGMP,003012.00,,,,,,04,,,,,*75
$PSSN,SNC,[0,261030000,2347]*42
$GPZDA,003017.00,01,01,2025,,*66
$GPDTM,W84,,00.0000000,N,00.0000000,E,00.0000000,W84*5F
$GPRMC,003017.00,A,4742.4461392,N,01617.9724370,E,0.0,,010125,5.1,E,D*1F
$GPGLL,4742.4461392,N,01617.9724370,E,003017.00,A,D*6E
$GPGGA,003017.00,4742.4461392,N,01617.9724370,E,2,16,1.0,624.0047,M,43.2111,M,2.0,0123*40
$GNGNS,003017.00,4742.4461392,N,01617.9724370,E,DAAA,16,1.0,624.0047,43.2111,,*5E
$GPGNS,003017.00,,,,,,04,,,,2.0,123*7E
$GLGNS,003017.00,,,,,,02,,,,,*78
$GAGNS,003017.00,,,,,,06,,,,,*71
$GBGNS,003017.00,,,,,,04,,,,,*70
$GPLLQ,003017.00,010125,,M,,M,1,16,7.942,,M*1B
$GPVTG,,T,,M,0.01,N,0.01,K,D*26
$GPHDT,,T*1B
$GPTHS,,V*0E
$GPROT,,V*08
$PSSN,HRP,003017.00,010125,,,,,,,00,0,,*64
$PTNL,AVR,003017.00,,Yaw,,Tilt,,,,0,,00*32
$GPGSA,A,3,02,03,17,28,,,,,,,,,1.7,1.0,1.4*3D
$GPGSA,A,3,69,85,,,,,,,,,,,1.7,1.0,1.4*32
$GPGSA,A,3,04,06,09,10,11,36,,,,,,,1.7,1.0,1.4*3F
$GPGSA,A,3,20,29,32,35,,,,,,,,,1.7,1.0,1.4*3E
$GPGST,003017.00,1.943,5.928,0.857,17.143,5.670,1.930,5.215*6D
$GPGBS,003017.00,31.226,9.340,26.834,02,0.0001,-1.918,0.651*76
$GPGRS,003017.00,1,-1.9,0.8,1.0,1.4,,,,,,,,*62
$GPGRS,003017.00,1,0.1,-2.9,,,,,,,,,,*6C
$GPGRS,003017.00,1,-0.3,2.1,0.7,0.7,0.3,-0.3,,,,,,*4B
$GPGRS,003017.00,1,-0.2,0.2,3.3,-1.3,,,,,,,,*49
$GPGSV,5,1,17,01,85,118,,04,22,199,31,28,23,087,35,19,12,324,33*74
$GPGSV,5,2,17,32,24,047,35,31,16,116,,17,35,302,41,21,58,136,30*74
$GPGSV,5,3,17,03,61,275,49,02,80,151,38,22,06,288,,14,00,268,*79
$GPGSV,5,4,17,08,09,181,,36,35,170,41,34,31,208,,49,34,195,37*7B
$GPGSV,5,5,17,61,03,257,*4B
$GLGSV,2,1,08,69,84,021,47,83,15,143,22,70,26,225,,85,41,322,49*64
$GLGSV,2,2,08,68,31,039,33,84,81,144,28,77,08,014,,76,03,332,26*6C
$GAGSV,3,1,11,11,76,110,46,19,19,042,21,12,22,120,26,09,40,186,37*6E
$GAGSV,3,2,11,10,46,118,42,06,58,160,45,36,50,306,44,04,64,101,44*6A
$GAGSV,3,3,11,30,07,325,28,34,01,302,,02,07,277,30*51
$GBGSV,5,1,18,20,74,228,51,35,21,314,46,57,11,094,,30,33,164,31*67
$GBGSV,5,2,18,19,23,232,35,05,24,128,,39,27,056,34,06,27,071,28*65
$GBGSV,5,3,18,09,27,086,27,16,28,067,29,32,46,055,43,48,51,231,*68
$GBGSV,5,4,18,29,67,250,45,25,02,030,,13,04,080,,23,01,076,*66
$GBGSV,5,5,18,02,08,105,,60,10,109,*63
$GPGGA,003017.00,,,,,0,00,,,M,,M,,*4D
$PTNL,GGK,003017.00,010125,4742.4461392,N,01617.9724370,E,1,16,1.7,EHT667.2158,M*40
$GPGGQ,003017.00,010125,4742.4461392,N,01617.9724370,E,1,16,7.942,624.0047,M*3A
$GPGFA,003017.00,56.364,42.764,5.928,0.857,17.143,5.215,,VVV*38
$GPLLK,003017.00,010125,,M,,M,1,16,2.0,,M*0B
$GNGMP,003017.00,,,,,DAAA,16,1.0,,,,*55
$GPGMP,003017.00,,,,,,04,,,,2.0,123*7E
$GLGMP,003017.00,,,,,,02,,,,,*78
$GAGMP,003017.00,,,,,,06,,,,,*71
$GBGMP,003017.00,,,,,,04,,,,,*70
$PSSN,SNC,[0,261035000,2347]*47
$GPZDA,003022.00,01,01,2025,,*60
$GPDTM,W84,,00.0000000,N,00.0000000,E,00.0000000,W84*5F
$GPRMC,003022.00,A,4742.4461326,N,01617.9724468,E,0.0,,010125,5.1,E,D*18
$GPGLL,4742.4461326,N,01617.9724468,E,003022.00,A,D*69
$GPGGA,003022.00,4742.4461326,N,01617.9724468,E,2,17,0.9,624.0122,M,43.2111,M,3.3,0123*4E
$GNGNS,003022.00,4742.4461326,N,01617.9724468,E,DAAA,17,0.9,624.0122,43.2111,,*52
$GPGNS,003022.00,,,,,,03,,,,3.3,123*7D
$GLGNS,003022.00,,,,,,02,,,,,*7E
$GAGNS,003022.00,,,,,,06,,,,,*77
$GBGNS,003022.00,,,,,,06,,,,,*74
$GPLLQ,003022.00,010125,,M,,M,1,17,11.480,,M*28
$GPVTG,,T,,M,0.01,N,0.02,K,D*25
$GPHDT,,T*1B
$GPTHS,,V*0E
$GPROT,,V*08
$PSSN,HRP,003022.00,010125,,,,,,,00,0,,*62
$PTNL,AVR,003022.00,,Yaw,,Tilt,,,,0,,00*34
$GPGSA,A,3,02,03,17,,,,,,,,,,1.6,0.9,1.3*39
$GPGSA,A,3,69,85,,,,,,,,,,,1.6,0.9,1.3*3C
$GPGSA,A,3,04,06,09,10,11,36,,,,,,,1.6,0.9,1.3*31
$GPGSA,A,3,09,20,29,30,32,35,,,,,,,1.6,0.9,1.3*3A
$GPGST,003022.00,4.796,6.514,2.833,13.122,6.377,3.130,9.018*63
$GPGBS,003022.00,28.023,12.315,36.247,02,0.0001,-2.181,0.670*42
$GPGRS,003022.00,1,-2.2,1.1,0.7,,,,,,,,,*49
$GPGRS,003022.00,1,1.9,-3.4,,,,,,,,,,*6F
$GPGRS,003022.00,1,0.3,2.7,0.1,2.2,0.9,0.4,,,,,,*47
$GPGRS,003022.00,1,10.9,0.2,0.7,7.9,3.7,-0.9,,,,,,*5E
$GPGSV,5,1,17,01,85,118,,04,22,199,31,28,23,087,24,19,12,324,33*74
$GPGSV,5,2,17,32,24,047,34,31,16,116,,17,35,302,41,21,58,136,33*76
$GPGSV,5,3,17,03,61,275,48,02,80,151,37,22,06,288,,14,00,268,*77
$GPGSV,5,4,17,08,09,181,,36,35,170,41,34,31,208,,49,34,195,37*7B
$GPGSV,5,5,17,61,03,257,*4B
$GLGSV,2,1,08,69,84,022,48,83,15,143,21,70,26,225,,85,41,322,47*65
$GLGSV,2,2,08,68,31,039,34,84,81,145,28,77,08,014,,76,03,332,30*6D
$GAGSV,3,1,11,11,75,110,46,19,19,042,23,12,22,120,27,09,40,186,37*6E
$GAGSV,3,2,11,10,46,118,42,06,58,160,46,36,50,306,44,04,64,101,44*69
$GAGSV,3,3,11,30,07,325,31,34,01,302,,02,07,277,29*51
$GBGSV,5,1,18,20,74,228,51,35,21,314,47,57,11,094,,30,33,164,31*66
$GBGSV,5,2,18,19,23,232,35,05,24,128,,39,27,056,34,06,27,071,30*6C
$GBGSV,5,3,18,09,27,086,28,16,28,067,30,32,46,055,44,48,51,231,*68
$GBGSV,5,4,18,29,67,250,44,25,02,030,,13,04,080,,23,01,076,*67
$GBGSV,5,5,18,02,08,105,,60,10,109,*63
$GPGGA,003022.00,,,,,0,00,,,M,,M,,*4B
$PTNL,GGK,003022.00,010125,4742.4461326,N,01617.9724468,E,1,17,1.6,EHT667.2233,M*49
$GPGGQ,003022.00,010125,4742.4461326,N,01617.9724468,E,1,17,11.480,624.0122,M*0A
$GPGFA,003022.00,61.936,73.948,6.514,2.833,13.122,9.018,,VVV*35
$GPLLK,003022.00,010125,,M,,M,1,17,1.9,,M*06
$GNGMP,003022.00,,,,,DAAA,17,0.9,,,,*5A
$GPGMP,003022.00,,,,,,03,,,,3.3,123*7D
$GLGMP,003022.00,,,,,,02,,,,,*7E
$GAGMP,003022.00,,,,,,06,,,,,*77
$GBGMP,003022.00,,,,,,06,,,,,*74
$PSSN,SNC,[0,261040000,2347]*45
$GPZDA,003027.00,01,01,2025,,*65
$GPDTM,W84,,00.0000000,N,00.0000000,E,00.0000000,W84*5F
$GPRMC,003027.00,A,4742.4461313,N,01617.9724667,E,0.0,,010125,5.1,E,D*16
$GPGLL,4742.4461313,N,01617.9724667,E,003027.00,A,D*67
$GPGGA,003027.00,4742.4461313,N,01617.9724667,E,2,18,0.8,624.0435,M,43.2111,M,1.7,0123*4B
$GNGNS,003027.00,4742.4461313,N,01617.9724667,E,DAAA,18,0.8,624.0435,43.2111,,*51
$GPGNS,003027.00,,,,,,03,,,,1.7,123*7E
$GLGNS,003027.00,,,,,,02,,,,,*7B
$GAGNS,003027.00,,,,,,06,,,,,*72
$GBGNS,003027.00,,,,,,07,,,,,*70
$GPLLQ,003027.00,010125,,M,,M,1,18,11.522,,M*2B
$GPVTG,,T,,M,0.00,N,0.00,K,D*26
$GPHDT,,T*1B
$GPTHS,,V*0E
$GPROT,,V*08
$PSSN,HRP,003027.00,010125,,,,,,,00,0,,*67
$PTNL,AVR,003027.00,,Yaw,,Tilt,,,,0,,00*31
$GPGSA,A,3,02,03,17,,,,,,,,,,1.5,0.8,1.3*3B
$GPGSA,A,3,69,85,,,,,,,,,,,1.5,0.8,1.3*3E
$GPGSA,A,3,04,06,09,10,11,36,,,,,,,1.5,0.8,1.3*33
$GPGSA,A,3,09,16,20,29,30,32,35,,,,,,1.5,0.8,1.3*3F
$GPGST,003027.00,6.366,6.642,2.813,12.786,6.507,3.112,8.985*69
$GPGBS,003027.00,28.023,11.949,36.154,02,0.0001,-2.087,0.616*41
$GPGRS,003027.00,1,-2.1,0.6,1.4,,,,,,,,,*4B
$GPGRS,003027.00,1,0.6,-1.3,,,,,,,,,,*61
$GPGRS,003027.00,1,0.9,2.8,0.1,3.2,1.1,1.0,,,,,,*4A
$GPGRS,003027.00,1,10.4,-0.3,0.4,1.6,17.2,2.9,-0.9,,,,,*65
$GPGSV,5,1,17,01,85,118,,04,22,199,31,28,23,087,31,19,13,324,35*77
$GPGSV,5,2,17,32,24,047,32,31,16,116,,17,35,302,42,21,58,136,35*75
$GPGSV,5,3,17,03,61,275,46,02,80,151,38,22,06,288,,14,00,268,*76
$GPGSV,5,4,17,08,09,181,20,36,35,170,42,34,31,208,,49,34,195,37*7A
$GPGSV,5,5,17,61,03,257,*4B
$GLGSV,2,1,08,69,84,022,47,83,15,143,27,70,27,225,,85,41,322,46*6C
$GLGSV,2,2,08,68,31,039,35,84,81,145,27,77,08,014,,76,03,332,33*60
$GAGSV,3,1,11,11,75,110,47,19,19,042,20,12,22,120,28,09,40,186,36*62
$GAGSV,3,2,11,10,46,118,41,06,58,160,46,36,50,306,44,04,64,101,44*6A
$GAGSV,3,3,11,30,07,325,32,34,01,302,,02,07,277,25*5E
$GBGSV,5,1,18,20,74,228,51,35,21,314,47,57,11,094,,30,33,164,32*65
$GBGSV,5,2,18,19,23,233,34,05,24,128,,39,27,056,34,06,27,071,30*6C
$GBGSV,5,3,18,09,27,086,27,16,28,067,30,32,45,055,44,48,51,231,*64
$GBGSV,5,4,18,29,67,250,45,25,02,030,,13,04,080,,23,01,076,*66
$GBGSV,5,5,18,02,08,105,,60,10,109,*63
$GPGGA,003027.00,,,,,0,00,,,M,,M,,*4E
$PTNL,GGK,003027.00,010125,4742.4461313,N,01617.9724667,E,1,18,1.5,EHT667.2545,M*4D
$GPGGQ,003027.00,010125,4742.4461313,N,01617.9724667,E,1,18,11.522,624.0435,M*01
$GPGFA,003027.00,63.148,73.674,6.642,2.813,12.786,8.985,,VVV*34
$GPLLK,003027.00,010125,,M,,M,1,18,1.8,,M*0D
$GNGMP,003027.00,,,,,DAAA,18,0.8,,,,*51
$GPGMP,003027.00,,,,,,03,,,,1.7,123*7E
$GLGMP,003027.00,,,,,,02,,,,,*7B
$GAGMP,003027.00,,,,,,06,,,,,*72
$GBGMP,003027.00,,,,,,07,,,,,*70
$PSSN,SNC,[0,261045000,2347]*40
$GPZDA,003032.00,01,01,2025,,*61
$GPDTM,W84,,00.0000000,N,00.0000000,E,00.0000000,W84*5F
$GPRMC,003032.00,A,4742.4461253,N,01617.9724795,E,0.0,,010125,5.1,E,D*1B
$GPGLL,4742.4461253,N,01617.9724795,E,003032.00,A,D*6A
$GPGGA,003032.00,4742.4461253,N,01617.9724795,E,2,18,0.9,624.0601,M,43.2111,M,3.2,0123*45
$GNGNS,003032.00,4742.4461253,N,01617.9724795,E,DAAA,18,0.9,624.0601,43.2111,,*58
$GPGNS,003032.00,,,,,,05,,,,3.2,123*7B
$GLGNS,003032.00,,,,,,02,,,,,*7F
$GAGNS,003032.00,,,,,,06,,,,,*76
$GBGNS,003032.00,,,,,,05,,,,,*76
$GPLLQ,003032.00,010125,,M,,M,1,18,6.433,,M*18
$GPVTG,,T,,M,0.00,N,0.00,K,D*26
$GPHDT,,T*1B
$GPTHS,,V*0E
$GPROT,,V*08
$PSSN,HRP,003032.00,010125,,,,,,,00,0,,*63
$PTNL,AVR,003032.00,,Yaw,,Tilt,,,,0,,00*35
$GPGSA,A,3,02,03,17,19,21,,,,,,,,1.7,0.9,1.4*34
$GPGSA,A,3,69,85,,,,,,,,,,,1.7,0.9,1.4*3A
$GPGSA,A,3,04,06,09,10,11,36,,,,,,,1.7,0.9,1.4*37
$GPGSA,A,3,20,29,32,35,39,,,,,,,,1.7,0.9,1.4*3C
$GPGST,003032.00,2.135,4.669,1.161,27.450,4.177,2.386,4.270*65
$GPGBS,003032.00,14.558,8.236,17.430,19,0.0001,4.959,1.622*51
$GPGRS,003032.00,1,-1.1,0.2,0.4,5.0,-0.7,,,,,,,*66
$GPGRS,003032.00,1,-2.0,-0.4,,,,,,,,,,*4A
$GPGRS,003032.00,1,0.6,2.3,-0.2,1.5,0.3,0.8,,,,,,*6B
$GPGRS,003032.00,1,0.4,2.1,1.0,-1.7,1.5,,,,,,,*4B
$GPGSV,5,1,17,01,85,118,,04,22,199,31,28,23,087,27,19,13,323,36*74
$GPGSV,5,2,17,32,24,047,29,31,16,116,,17,35,302,43,21,58,136,37*7C
$GPGSV,5,3,17,03,61,275,45,02,80,151,38,22,06,288,,14,00,268,*75
$GPGSV,5,4,17,08,09,181,,36,35,170,42,34,31,208,,49,34,195,37*78
$GPGSV,5,5,17,61,03,257,*4B
$GLGSV,2,1,08,69,84,022,45,83,15,143,27,70,27,225,,85,41,322,47*6F
$GLGSV,2,2,08,68,31,039,35,84,81,145,25,77,08,014,,76,03,332,32*63
$GAGSV,3,1,11,11,75,110,46,19,19,042,27,12,22,120,29,09,40,186,36*65
$GAGSV,3,2,11,10,46,119,40,06,58,160,46,36,50,306,44,04,64,101,44*6A
$GAGSV,3,3,11,30,07,325,33,34,01,302,,02,07,277,26*5C
$GBGSV,5,1,18,20,74,228,52,35,21,314,47,57,11,094,,30,33,164,34*60
$GBGSV,5,2,18,19,23,233,34,05,24,128,,39,27,056,35,06,28,071,31*63
$GBGSV,5,3,18,09,27,086,28,16,28,067,30,32,45,055,44,48,51,231,*6B
$GBGSV,5,4,18,29,67,249,45,25,02,030,,13,04,080,,23,01,076,*6E
$GBGSV,5,5,18,02,08,105,,60,10,109,*63
$GPGGA,003032.00,,,,,0,00,,,M,,M,,*4A
$PTNL,GGK,003032.00,010125,4742.4461253,N,01617.9724795,E,1,18,1.7,EHT667.2711,M*41
$GPGGQ,003032.00,010125,4742.4461253,N,01617.9724795,E,1,18,6.433,624.0601,M*3E
$GPGFA,003032.00,44.387,35.016,4.669,1.161,27.450,4.270,,VVV*33
$GPLLK,003032.00,010125,,M,,M,1,18,2.0,,M*02
$GNGMP,003032.00,,,,,DAAA,18,0.9,,,,*54
$GPGMP,003032.00,,,,,,05,,,,3.2,123*7B
$GLGMP,003032.00,,,,,,02,,,,,*7F
$GAGMP,003032.00,,,,,,06,,,,,*76
$GBGMP,003032.00,,,,,,05,,,,,*76
$PSSN,SNC,[0,261050000,2347]*44
$GPZDA,003037.00,01,01,2025,,*64
$GPDTM,W84,,00.0000000,N,00.0000000,E,00.0000000,W84*5F
$GPRMC,003037.00,A,4742.4461138,N,01617.9724880,E,0.0,,010125,5.1,E,D*1B
$GPGLL,4742.4461138,N,01617.9724880,E,003037.00,A,D*6A
$GPGGA,003037.00,4742.4461138,N,01617.9724880,E,2,19,0.9,624.0832,M,43.2111,M,1.8,0123*42
$GNGNS,003037.00,4742.4461138,N,01617.9724880,E,DAAA,19,0.9,624.0832,43.2111,,*57
$GPGNS,003037.00,,,,,,05,,,,1.8,123*76
$GLGNS,003037.00,,,,,,03,,,,,*7B
$GAGNS,003037.00,,,,,,06,,,,,*73
$GBGNS,003037.00,,,,,,05,,,,,*73
$GPLLQ,003037.00,010125,,M,,M,1,19,7.087,,M*16
$GPVTG,,T,,M,0.00,N,0.01,K,D*27
$GPHDT,,T*1B
$GPTHS,,V*0E
$GPROT,,V*08
$PSSN,HRP,003037.00,010125,,,,,,,00,0,,*66
$PTNL,AVR,003037.00,,Yaw,,Tilt,,,,0,,00*30
$GPGSA,A,3,02,03,17,19,21,,,,,,,,1.6,0.9,1.4*35
$GPGSA,A,3,68,69,85,,,,,,,,,,1.6,0.9,1.4*35
$GPGSA,A,3,04,06,09,10,11,36,,,,,,,1.6,0.9,1.4*36
$GPGSA,A,3,20,29,32,35,39,,,,,,,,1.6,0.9,1.4*3D
$GPGST,003037.00,5.259,5.101,1.249,27.005,4.580,2.569,4.758*6F
$GPGBS,003037.00,14.448,7.554,17.702,19,0.0001,5.209,1.592*5D
$GPGRS,003037.00,1,-0.7,0.3,-0.2,5.2,-0.1,,,,,,,*4A
$GPGRS,003037.00,1,16.4,-3.3,-0.2,,,,,,,,,*56
$GPGRS,003037.00,1,0.3,1.8,-1.0,-2.0,-0.0,0.3,,,,,,*6E
$GPGRS,003037.00,1,0.2,3.0,-1.2,-2.0,1.3,,,,,,,*65
$GPGSV,4,1,16,01,85,118,,04,22,199,30,28,23,087,24,19,13,323,37*77
$GPGSV,4,2,16,32,24,047,27,31,16,116,,17,35,302,43,21,58,136,39*7C
$GPGSV,4,3,16,03,61,275,44,02,80,151,38,22,06,288,,08,09,181,19*7C
$GPGSV,4,4,16,36,35,170,42,34,31,208,,49,34,195,37,61,03,257,*75
$GLGSV,2,1,08,69,84,022,44,83,15,143,27,70,27,225,,85,41,322,48*61
$GLGSV,2,2,08,68,31,039,35,84,81,145,26,77,08,014,,76,03,332,30*62
$GAGSV,3,1,11,11,75,110,46,19,19,042,28,12,22,120,24,09,40,186,35*64
$GAGSV,3,2,11,10,46,119,38,06,58,160,47,36,50,306,43,04,64,101,44*63
$GAGSV,3,3,11,30,07,325,34,34,01,302,,02,07,277,31*5D
$GBGSV,5,1,18,20,74,228,52,35,21,314,48,57,11,094,,30,33,164,35*6E
$GBGSV,5,2,18,19,24,233,35,05,24,128,,39,27,056,36,06,28,071,31*66
$GBGSV,5,3,18,09,27,086,28,16,28,067,31,32,45,055,44,48,51,231,*6A
$GBGSV,5,4,18,29,67,249,45,25,02,029,,13,04,080,,23,01,076,*66
$GBGSV,5,5,18,02,08,105,,60,10,109,*63
$GPGGA,003037.00,,,,,0,00,,,M,,M,,*4F
$PTNL,GGK,003037.00,010125,4742.4461138,N,01617.9724880,E,1,19,1.6,EHT667.2943,M*48
$GPGGQ,003037.00,010125,4742.4461138,N,01617.9724880,E,1,19,7.087,624.0832,M*3B
$GPGFA,003037.00,48.498,39.019,5.101,1.249,27.005,4.758,,VVV*3A
$GPLLK,003037.00,010125,,M,,M,1,19,1.9,,M*0C
$GNGMP,003037.00,,,,,DAAA,19,0.9,,,,*50
$GPGMP,003037.00,,,,,,05,,,,1.8,123*76
$GLGMP,003037.00,,,,,,03,,,,,*7B
$GAGMP,003037.00,,,,,,06,,,,,*73
$GBGMP,003037.00,,,,,,05,,,,,*73
$PSSN,SNC,[0,261055000,2347]*41
$GPZDA,003042.00,01,01,2025,,*66
$GPDTM,W84,,00.0000000,N,00.0000000,E,00.0000000,W84*5F
$GPRMC,003042.00,A,4742.4461055,N,01617.9724831,E,0.0,,010125,5.1,E,D*19
$GPGLL,4742.4461055,N,01617.9724831,E,003042.00,A,D*68
$GPGGA,003042.00,4742.4461055,N,01617.9724831,E,2,17,1.2,624.0969,M,43.2111,M,3.0,0123*41
$GNGNS,003042.00,4742.4461055,N,01617.9724831,E,DAAA,17,1.2,624.0969,43.2111,,*5E
$GPGNS,003042.00,,,,,,04,,,,3.0,123*7F
$GLGNS,003042.00,,,,,,03,,,,,*79
$GAGNS,003042.00,,,,,,05,,,,,*72
$GBGNS,003042.00,,,,,,05,,,,,*71
$GPLLQ,003042.00,010125,,M,,M,1,17,5.116,,M*11
$GPVTG,,T,,M,0.00,N,0.00,K,D*26
$GPHDT,,T*1B
$GPTHS,,V*0E
$GPROT,,V*08
$PSSN,HRP,003042.00,010125,,,,,,,00,0,,*64
$PTNL,AVR,003042.00,,Yaw,,Tilt,,,,0,,00*32
$GPGSA,A,3,02,03,17,21,,,,,,,,,2.3,1.2,2.0*36
$GPGSA,A,3,68,69,85,,,,,,,,,,2.3,1.2,2.0*3E
$GPGSA,A,3,04,06,10,11,36,,,,,,,,2.3,1.2,2.0*34
$GPGSA,A,3,20,29,32,35,39,,,,,,,,2.3,1.2,2.0*36
$GPGST,003042.00,4.293,3.849,0.745,28.448,3.403,1.947,3.286*6C
$GPGBS,003042.00,18.630,10.972,22.066,68,0.0001,11.693,6.293*56
$GPGRS,003042.00,1,-0.1,0.2,-0.5,0.3,,,,,,,,*4E
$GPGRS,003042.00,1,11.7,-3.5,-0.8,,,,,,,,,*5C
$GPGRS,003042.00,1,0.3,1.2,-1.9,-0.8,0.1,,,,,,,*64
$GPGRS,003042.00,1,-0.7,4.1,-2.2,-2.4,1.1,,,,,,,*4C
$GPGSV,4,1,16,01,85,118,,04,22,199,31,28,23,087,,19,13,323,37*70
$GPGSV,4,2,16,32,24,047,25,31,16,116,,17,35,302,43,21,58,136,40*70
$GPGSV,4,3,16,03,61,275,43,02,80,151,38,22,06,288,,08,09,181,*73
$GPGSV,4,4,16,36,35,170,42,34,31,208,,49,34,195,37,61,03,257,*75
$GLGSV,2,1,08,69,84,022,45,83,15,143,27,70,27,225,,85,41,322,49*61
$GLGSV,2,2,08,68,31,039,37,84,81,145,26,77,08,014,,76,03,332,27*66
$GAGSV,3,1,11,11,75,110,46,19,19,042,28,12,22,120,,09,40,186,35*62
$GAGSV,3,2,11,10,46,119,36,06,58,160,46,36,50,306,43,04,64,101,44*6C
$GAGSV,3,3,11,30,07,325,33,34,01,302,,02,07,276,25*5E
$GBGSV,5,1,18,20,74,228,51,35,22,314,48,57,11,094,,30,33,164,35*6E
$GBGSV,5,2,18,19,24,233,35,05,24,128,,39,27,056,36,06,28,071,32*65
$GBGSV,5,3,18,09,27,086,28,16,28,067,32,32,45,055,45,48,51,231,*68
$GBGSV,5,4,18,29,67,249,43,25,02,029,,13,04,080,,23,01,076,*60
$GBGSV,5,5,18,02,08,105,,60,10,109,*63
$GPGGA,003042.00,,,,,0,00,,,M,,M,,*4D
$PTNL,GGK,003042.00,010125,4742.4461055,N,01617.9724831,E,1,17,2.3,EHT667.3080,M*45
$GPGGQ,003042.00,010125,4742.4461055,N,01617.9724831,E,1,17,5.116,624.0969,M*33
$GPGFA,003042.00,36.598,26.945,3.849,0.745,28.448,3.286,,VVV*36
$GPLLK,003042.00,010125,,M,,M,1,17,2.8,,M*02
$GNGMP,003042.00,,,,,DAAA,17,1.2,,,,*56
$GPGMP,003042.00,,,,,,04,,,,3.0,123*7F
$GLGMP,003042.00,,,,,,03,,,,,*79
$GAGMP,003042.00,,,,,,05,,,,,*72
$GBGMP,003042.00,,,,,,05,,,,,*71
$PSSN,SNC,[0,261060000,2347]*47
$GPZDA,003047.00,01,01,2025,,*63
$GPDTM,W84,,00.0000000,N,00.0000000,E,00.0000000,W84*5F
$GPRMC,003047.00,A,4742.4461118,N,01617.9724839,E,0.0,,010125,5.1,E,D*1C
$GPGLL,4742.4461118,N,01617.9724839,E,003047.00,A,D*6D
$GPGGA,003047.00,4742.4461118,N,01617.9724839,E,2,20,0.7,624.0986,M,43.2111,M,2.2,0123*46
$GNGNS,003047.00,4742.4461118,N,01617.9724839,E,DAAA,20,0.7,624.0986,43.2111,,*5A
$GPGNS,003047.00,,,,,,05,,,,2.2,123*78
$GLGNS,003047.00,,,,,,03,,,,,*7C
$GAGNS,003047.00,,,,,,05,,,,,*77
$GBGNS,003047.00,,,,,,07,,,,,*76
$GPLLQ,003047.00,010125,,M,,M,1,20,3.590,,M*1C
$GPVTG,,T,,M,0.01,N,0.01,K,D*26
$GPHDT,,T*1B
$GPTHS,,V*0E
$GPROT,,V*08
$PSSN,HRP,003047.00,010125,,,,,,,00,0,,*61
$PTNL,AVR,003047.00,,Yaw,,Tilt,,,,0,,00*37
$GPGSA,A,3,02,03,17,21,28,,,,,,,,1.3,0.7,1.1*39
$GPGSA,A,3,68,69,85,,,,,,,,,,1.3,0.7,1.1*3B
$GPGSA,A,3,04,06,10,11,36,,,,,,,,1.3,0.7,1.1*31
$GPGSA,A,3,19,20,29,30,32,35,39,,,,,,1.3,0.7,1.1*38
$GPGST,003047.00,3.741,2.468,0.483,22.074,2.295,1.030,2.561*6C
$GPGBS,003047.00,14.005,5.217,17.444,68,0.0001,10.751,6.286*6B
$GPGRS,003047.00,1,0.5,0.2,-0.8,-0.1,0.2,,,,,,,*6C
$GPGRS,003047.00,1,10.8,-2.4,-1.3,,,,,,,,,*5D
$GPGRS,003047.00,1,0.1,0.6,-0.2,-0.9,-0.1,,,,,,,*40
$GPGRS,003047.00,1,3.3,-1.1,4.2,-4.3,-1.7,-2.1,0.7,,,,,*63
$GPGSV,4,1,16,01,85,118,,04,22,199,31,28,23,087,38,19,13,323,37*7B
$GPGSV,4,2,16,32,24,047,28,31,16,116,,17,35,302,41,21,58,136,41*7E
$GPGSV,4,3,16,03,61,275,43,02,80,151,39,22,06,288,,08,09,181,*72
$GPGSV,4,4,16,36,35,170,42,34,31,208,,49,34,195,37,61,03,257,*75
$GLGSV,2,1,08,69,84,022,45,83,15,143,25,70,27,225,,85,41,322,49*63
$GLGSV,2,2,08,68,31,039,40,84,80,145,26,77,08,014,,76,03,332,30*61
$GAGSV,3,1,11,11,75,111,46,19,19,042,28,12,22,120,,09,40,186,34*62
$GAGSV,3,2,11,10,46,119,36,06,58,160,46,36,50,306,43,04,64,101,45*6D
$GAGSV,3,3,11,30,07,325,33,34,01,302,,02,06,276,27*5D
$GBGSV,5,1,18,20,74,228,51,35,22,314,48,57,11,094,,30,33,164,37*6C
$GBGSV,5,2,18,19,24,233,36,05,24,128,,39,27,056,36,06,28,071,33*67
$GBGSV,5,3,18,09,27,086,28,16,28,067,33,32,45,055,45,48,51,231,*69
$GBGSV,5,4,18,29,67,249,42,25,02,029,,13,04,080,,23,01,076,*61
$GBGSV,5,5,18,02,08,105,,60,10,109,*63
$GPGGA,003047.00,,,,,0,00,,,M,,M,,*48
$PTNL,GGK,003047.00,010125,4742.4461118,N,01617.9724839,E,1,20,1.3,EHT667.3097,M*41
$GPGGQ,003047.00,010125,4742.4461118,N,01617.9724839,E,1,20,3.590,624.0986,M*3F
$GPGFA,003047.00,23.468,21.000,2.468,0.483,22.074,2.561,,VVV*3F
$GPLLK,003047.00,010125,,M,,M,1,20,1.6,,M*0E
$GNGMP,003047.00,,,,,DAAA,20,0.7,,,,*53
$GPGMP,003047.00,,,,,,05,,,,2.2,123*78
$GLGMP,003047.00,,,,,,03,,,,,*7C
$GAGMP,003047.00,,,,,,05,,,,,*77
$GBGMP,003047.00,,,,,,07,,,,,*76
$PSSN,SNC,[0,261065000,2347]*42
$GPZDA,003052.00,01,01,2025,,*67
$GPDTM,W84,,00.0000000,N,00.0000000,E,00.0000000,W84*5F
$GPRMC,003052.00,A,4742.4461075,N,01617.9724560,E,0.0,,010125,5.1,E,D*13
$GPGLL,4742.4461075,N,01617.9724560,E,003052.00,A,D*62
$GPGGA,003052.00,4742.4461075,N,01617.9724560,E,2,19,0.8,624.1019,M,43.2111,M,3.2,0123*43
$GNGNS,003052.00,4742.4461075,N,01617.9724560,E,DAAA,19,0.8,624.1019,43.2111,,*5E
$GPGNS,003052.00,,,,,,05,,,,3.2,123*7D
$GLGNS,003052.00,,,,,,03,,,,,*78
$GAGNS,003052.00,,,,,,05,,,,,*73
$GBGNS,003052.00,,,,,,06,,,,,*73
$GPLLQ,003052.00,010125,,M,,M,1,19,6.265,,M*1A
$GPVTG,,T,,M,0.01,N,0.03,K,D*24
$GPHDT,,T*1B
$GPTHS,,V*0E
$GPROT,,V*08
$PSSN,HRP,003052.00,010125,,,,,,,00,0,,*65
$PTNL,AVR,003052.00,,Yaw,,Tilt,,,,0,,00*33
$GPGSA,A,3,02,03,17,21,28,,,,,,,,1.4,0.8,1.2*32
$GPGSA,A,3,68,69,85,,,,,,,,,,1.4,0.8,1.2*30
$GPGSA,A,3,04,06,10,11,36,,,,,,,,1.4,0.8,1.2*3A
$GPGSA,A,3,19,20,29,32,35,39,,,,,,,1.4,0.8,1.2*30
$GPGST,003052.00,3.700,4.349,0.825,21.728,4.052,1.783,4.433*62
$GPGBS,003052.00,15.431,5.573,18.464,28,0.0001,3.112,1.167*59
$GPGRS,003052.00,1,1.3,-0.4,-1.5,-0.8,3.1,,,,,,,*41
$GPGRS,003052.00,1,10.3,-3.1,-1.1,,,,,,,,,*54
$GPGRS,003052.00,1,-0.3,-0.3,-0.2,-1.7,-0.3,,,,,,,*4E
$GPGRS,003052.00,1,3.4,-1.2,3.1,-2.1,-1.9,0.4,,,,,,*6E
$GPGSV,4,1,16,01,85,119,,04,22,199,30,28,23,087,37,19,13,323,37*74
$GPGSV,4,2,16,32,24,047,31,31,16,116,,17,35,302,39,21,58,136,42*7A
$GPGSV,4,3,16,03,61,275,45,02,80,151,42,22,06,288,,08,09,181,19*70
$GPGSV,4,4,16,36,35,170,42,34,31,208,,49,34,195,38,61,03,257,*7A
$GLGSV,2,1,08,69,84,022,44,83,14,143,19,70,27,225,,85,41,322,49*6C
$GLGSV,2,2,08,68,31,039,41,84,80,145,25,77,08,014,,76,03,332,30*63
$GAGSV,3,1,11,11,75,111,45,19,19,042,27,12,22,120,24,09,40,186,32*6E
$GAGSV,3,2,11,10,46,119,38,06,58,160,45,36,50,306,43,04,64,101,45*60
$GAGSV,3,3,11,30,07,325,34,34,01,302,,02,06,276,28*55
$GBGSV,5,1,18,20,74,228,51,35,22,314,49,57,10,094,,30,33,164,33*68
$GBGSV,5,2,18,19,24,233,36,05,24,128,,39,27,056,37,06,28,071,33*66
$GBGSV,5,3,18,09,27,086,29,16,28,067,33,32,45,055,45,48,51,231,*68
$GBGSV,5,4,18,29,67,249,42,25,02,029,,13,04,080,,23,01,075,*62
$GBGSV,5,5,18,02,08,105,,60,10,109,*63
$GPGGA,003052.00,,,,,0,00,,,M,,M,,*4C
$PTNL,GGK,003052.00,010125,4742.4461075,N,01617.9724560,E,1,19,1.4,EHT667.3129,M*47
$GPGGQ,003052.00,010125,4742.4461075,N,01617.9724560,E,1,19,6.265,624.1019,M*3C
$GPGFA,003052.00,41.350,36.352,4.349,0.825,21.728,4.433,,VVV*3E
$GPLLK,003052.00,010125,,M,,M,1,19,1.7,,M*01
$GNGMP,003052.00,,,,,DAAA,19,0.8,,,,*52
$GPGMP,003052.00,,,,,,05,,,,3.2,123*7D
$GLGMP,003052.00,,,,,,03,,,,,*78
$GAGMP,003052.00,,,,,,05,,,,,*73
$GBGMP,003052.00,,,,,,06,,,,,*73
$PSSN,SNC,[0,261070000,2347]*46
$GPZDA,003057.00,01,01,2025,,*62
$GPDTM,W84,,00.0000000,N,00.0000000,E,00.0000000,W84*5F
$GPRMC,003057.00,A,4742.4461045,N,01617.9724176,E,0.0,,010125,5.1,E,D*16
$GPGLL,4742.4461045,N,01617.9724176,E,003057.00,A,D*67
$GPGGA,003057.00,4742.4461045,N,01617.9724176,E,2,19,0.8,624.1200,M,43.2111,M,1.8,0123*44
$GNGNS,003057.00,4742.4461045,N,01617.9724176,E,DAAA,19,0.8,624.1200,43.2111,,*51
$GPGNS,003057.00,,,,,,05,,,,1.8,123*70
$GLGNS,003057.00,,,,,,03,,,,,*7D
$GAGNS,003057.00,,,,,,05,,,,,*76
$GBGNS,003057.00,,,,,,06,,,,,*76
$GPLLQ,003057.00,010125,,M,,M,1,19,7.714,,M*1D
$GPVTG,,T,,M,0.01,N,0.03,K,D*24
$GPHDT,,T*1B
$GPTHS,,V*0E
$GPROT,,V*08
$PSSN,HRP,003057.00,010125,,,,,,,00,0,,*60
$PTNL,AVR,003057.00,,Yaw,,Tilt,,,,0,,00*36
$GPGSA,A,3,02,03,17,21,28,,,,,,,,1.4,0.8,1.2*32
$GPGSA,A,3,68,69,85,,,,,,,,,,1.4,0.8,1.2*30
$GPGSA,A,3,04,06,10,11,36,,,,,,,,1.4,0.8,1.2*3A
$GPGSA,A,3,19,20,29,32,35,39,,,,,,,1.4,0.8,1.2*30
$GPGST,003057.00,3.625,5.346,1.008,21.846,4.976,2.198,5.469*60
$GPGBS,003057.00,14.996,5.575,18.653,28,0.0001,3.496,1.142*53
$GPGRS,003057.00,1,1.4,0.0,-1.9,-1.3,3.5,,,,,,,*68
$GPGRS,003057.00,1,8.7,-4.5,-1.3,,,,,,,,,*6D
$GPGRS,003057.00,1,-0.5,-1.2,-0.5,-1.9,0.0,,,,,,,*6A
$GPGRS,003057.00,1,2.9,-1.1,3.4,-3.0,-2.0,0.2,,,,,,*6D
$GPGSV,4,1,16,01,85,119,,04,22,199,29,28,23,087,35,19,13,323,36*7F
$GPGSV,4,2,16,32,24,047,34,31,16,116,,17,35,302,39,21,58,136,41*7C
$GPGSV,4,3,16,03,61,275,46,02,80,151,43,22,06,288,,08,09,181,20*78
$GPGSV,4,4,16,36,35,170,42,34,31,208,,49,34,195,38,61,03,257,*7A
$GLGSV,2,1,08,69,84,022,43,83,14,143,23,70,27,225,,85,41,322,49*62
$GLGSV,2,2,08,68,30,039,42,84,80,145,27,77,08,014,,76,03,332,31*62
$GAGSV,3,1,11,11,75,111,44,19,19,042,27,12,22,120,26,09,40,186,31*6E
$GAGSV,3,2,11,10,46,119,40,06,58,160,44,36,50,306,43,04,64,101,45*6E
$GAGSV,3,3,11,30,07,325,34,34,01,303,,02,06,276,27*5B
$GBGSV,5,1,18,20,74,228,51,35,22,314,48,57,10,094,,30,33,164,33*69
$GBGSV,5,2,18,19,24,233,36,05,24,128,,39,27,056,37,06,28,071,34*61
$GBGSV,5,3,18,09,27,086,30,16,28,067,34,32,45,055,45,48,51,231,*67
$GBGSV,5,4,18,29,67,249,43,25,02,029,,13,04,080,,23,01,075,*63
$GBGSV,5,5,18,02,08,105,,60,10,109,*63
$GPGGA,003057.00,,,,,0,00,,,M,,M,,*49
$PTNL,GGK,003057.00,010125,4742.4461045,N,01617.9724176,E,1,19,1.4,EHT667.3310,M*4A
$GPGGQ,003057.00,010125,4742.4461045,N,01617.9724176,E,1,19,7.714,624.1200,M*31
$GPGFA,003057.00,50.825,44.846,5.346,1.008,21.846,5.469,,VVV*38
$GPLLK,003057.00,010125,,M,,M,1,19,1.7,,M*04
$GNGMP,003057.00,,,,,DAAA,19,0.8,,,,*57
$GPGMP,003057.00,,,,,,05,,,,1.8,123*70
$GLGMP,003057.00,,,,,,03,,,,,*7D
$GAGMP,003057.00,,,,,,05,,,,,*76
$GBGMP,003057.00,,,,,,06,,,,,*76
$PSSN,SNC,[0,261075000,2347]*43
$GPZDA,003102.00,01,01,2025,,*63
$GPDTM,W84,,00.0000000,N,00.0000000,E,00.0000000,W84*5F
$GPRMC,003102.00,A,4742.4461050,N,01617.9724043,E,0.0,,010125,5.1,E,D*14
$GPGLL,4742.4461050,N,01617.9724043,E,003102.00,A,D*65
$GPGGA,003102.00,4742.4461050,N,01617.9724043,E,2,19,0.8,624.1035,M,43.2111,M,3.0,0123*48
$GNGNS,003102.00,4742.4461050,N,01617.9724043,E,DAAA,19,0.8,624.1035,43.2111,,*57
$GPGNS,003102.00,,,,,,05,,,,3.0,123*7B
$GLGNS,003102.00,,,,,,03,,,,,*7C
$GAGNS,003102.00,,,,,,05,,,,,*77
$GBGNS,003102.00,,,,,,06,,,,,*77
$GPLLQ,003102.00,010125,,M,,M,1,19,5.341,,M*1A
$GPVTG,,T,,M,0.00,N,0.01,K,D*27
$GPHDT,,T*1B
$GPTHS,,V*0E
$GPROT,,V*08
$PSSN,HRP,003102.00,010125,,,,,,,00,0,,*61
$PTNL,AVR,003102.00,,Yaw,,Tilt,,,,0,,00*37
$GPGSA,A,3,02,03,17,21,32,,,,,,,,1.5,0.8,1.3*39
$GPGSA,A,3,68,69,85,,,,,,,,,,1.5,0.8,1.3*30
$GPGSA,A,3,04,06,10,11,36,,,,,,,,1.5,0.8,1.3*3A
$GPGSA,A,3,19,20,29,32,35,39,,,,,,,1.5,0.8,1.3*30
$GPGST,003102.00,3.148,2.658,0.945,18.765,2.535,1.238,4.535*6B
$GPGBS,003102.00,11.754,5.749,17.833,02,0.0001,1.295,0.667*53
$GPGRS,003102.00,1,1.3,0.7,-1.3,-1.3,1.5,,,,,,,*61
$GPGRS,003102.00,1,6.7,-3.7,-1.5,,,,,,,,,*61
$GPGRS,003102.00,1,-0.2,-1.4,-0.2,-1.6,0.4,,,,,,,*66
$GPGRS,003102.00,1,2.2,-1.2,4.7,-3.5,-2.1,0.7,,,,,,*61
$GPGSV,4,1,16,01,85,119,,04,22,199,29,28,23,087,33,19,13,323,36*79
$GPGSV,4,2,16,32,24,047,36,31,16,116,,17,35,302,40,21,58,136,41*70
$GPGSV,4,3,16,03,61,275,47,02,80,151,45,22,06,288,,08,09,181,*7D
$GPGSV,4,4,16,36,35,170,42,34,31,208,,49,34,195,38,61,03,257,*7A
$GLGSV,2,1,08,69,84,022,43,83,14,143,22,70,27,225,,85,41,322,49*63
$GLGSV,2,2,08,68,30,039,43,84,80,145,26,77,08,014,,76,03,332,31*62
$GAGSV,3,1,11,11,75,111,44,19,19,042,28,12,22,120,24,09,40,186,31*63
$GAGSV,3,2,11,10,46,119,42,06,59,160,42,36,50,306,44,04,64,101,45*6C
$GAGSV,3,3,11,30,07,325,34,34,01,303,,02,06,276,27*5B
$GBGSV,5,1,18,20,74,228,51,35,22,314,48,57,10,094,,30,33,164,34*6E
$GBGSV,5,2,18,19,24,233,36,05,24,128,,39,27,056,37,06,28,071,34*61
$GBGSV,5,3,18,09,27,086,30,16,28,067,34,32,45,055,44,48,51,231,*66
$GBGSV,5,4,18,29,67,249,43,25,02,029,,13,04,080,,23,01,075,*63
$GBGSV,5,5,18,02,08,105,,60,10,109,*63
$GPGGA,003102.00,,,,,0,00,,,M,,M,,*48
$PTNL,GGK,003102.00,010125,4742.4461050,N,01617.9724043,E,1,19,1.5,EHT667.3145,M*4B
$GPGGQ,003102.00,010125,4742.4461050,N,01617.9724043,E,1,19,5.341,624.1035,M*31
$GPGFA,003102.00,25.275,37.190,2.658,0.945,18.765,4.535,,VVV*33
$GPLLK,003102.00,010125,,M,,M,1,19,1.8,,M*0A
$GNGMP,003102.00,,,,,DAAA,19,0.8,,,,*56
$GPGMP,003102.00,,,,,,05,,,,3.0,123*7B
$GLGMP,003102.00,,,,,,03,,,,,*7C
$GAGMP,003102.00,,,,,,05,,,,,*77
$GBGMP,003102.00,,,,,,06,,,,,*77
$PSSN,SNC,[0,261080000,2347]*49
$GPZDA,003107.00,01,01,2025,,*66
$GPDTM,W84,,00.0000000,N,00.0000000,E,00.0000000,W84*5F
$GPRMC,003107.00,A,4742.4460964,N,01617.9723973,E,0.0,,010125,5.1,E,D*13
$GPGLL,4742.4460964,N,01617.9723973,E,003107.00,A,D*62
$GPGGA,003107.00,4742.4460964,N,01617.9723973,E,2,20,0.7,624.0927,M,43.2111,M,3.0,0123*41
$GNGNS,003107.00,4742.4460964,N,01617.9723973,E,DAAA,20,0.7,624.0927,43.2111,,*5E
$GPGNS,003107.00,,,,,,05,,,,3.0,123*7E
$GLGNS,003107.00,,,,,,03,,,,,*79
$GAGNS,003107.00,,,,,,05,,,,,*72
$GBGNS,003107.00,,,,,,07,,,,,*73
$GPLLQ,003107.00,010125,,M,,M,1,20,3.755,,M*12
$GPVTG,,T,,M,0.00,N,0.01,K,D*27
$GPHDT,,T*1B
$GPTHS,,V*0E
$GPROT,,V*08
$PSSN,HRP,003107.00,010125,,,,,,,00,0,,*64
$PTNL,AVR,003107.00,,Yaw,,Tilt,,,,0,,00*32
$GPGSA,A,3,02,03,17,21,32,,,,,,,,1.3,0.7,1.1*32
$GPGSA,A,3,68,69,85,,,,,,,,,,1.3,0.7,1.1*3B
$GPGSA,A,3,04,06,10,11,36,,,,,,,,1.3,0.7,1.1*31
$GPGSA,A,3,19,20,29,30,32,35,39,,,,,,1.3,0.7,1.1*38
$GPGST,003107.00,2.589,1.964,0.647,15.492,1.901,0.815,3.134*60
$GPGBS,003107.00,11.447,4.764,16.665,21,0.0001,-1.238,0.718*77
$GPGRS,003107.00,1,0.6,-0.1,-0.0,-1.2,2.1,,,,,,,*4F
$GPGRS,003107.00,1,4.8,-2.7,-1.8,,,,,,,,,*65
$GPGRS,003107.00,1,-0.4,-1.3,-0.2,-1.5,0.2,,,,,,,*67
$GPGRS,003107.00,1,0.2,-1.7,3.5,3.5,-3.0,-2.5,0.7,,,,,*4F
$GPGSV,4,1,16,01,85,119,,04,23,199,29,28,23,087,29,19,13,323,34*71
$GPGSV,4,2,16,32,24,047,37,31,16,116,,17,35,302,42,21,58,136,40*72
$GPGSV,4,3,16,03,61,275,46,02,80,151,45,22,06,288,,08,09,181,*7C
$GPGSV,4,4,16,36,35,170,42,34,31,208,,49,34,195,37,61,03,257,*75
$GLGSV,2,1,08,69,84,022,43,83,14,143,,70,27,225,,85,41,322,50*6B
$GLGSV,2,2,08,68,30,039,44,84,80,145,39,77,08,014,,76,03,332,26*6D
$GAGSV,3,1,11,11,75,111,43,19,19,042,28,12,22,120,24,09,40,186,33*66
$GAGSV,3,2,11,10,46,119,43,06,59,160,41,36,50,306,44,04,64,100,45*6F
$GAGSV,3,3,11,30,06,325,34,34,01,303,,02,06,276,27*5A
$GBGSV,5,1,18,20,74,228,50,35,22,314,47,57,10,094,,30,33,164,36*62
$GBGSV,5,2,18,19,24,233,36,05,24,128,,39,27,056,37,06,28,071,34*61
$GBGSV,5,3,18,09,27,086,30,16,28,067,34,32,45,055,44,48,51,231,*66
$GBGSV,5,4,18,29,67,249,43,25,02,029,,13,04,080,,23,01,075,*63
$GBGSV,5,5,18,02,08,105,,60,10,109,*63
$GPGGA,003107.00,,,,,0,00,,,M,,M,,*4D
$PTNL,GGK,003107.00,010125,4742.4460964,N,01617.9723973,E,1,20,1.3,EHT667.3038,M*4B
$GPGGQ,003107.00,010125,4742.4460964,N,01617.9723973,E,1,20,3.755,624.0927,M*30
$GPGFA,003107.00,18.675,25.696,1.964,0.647,15.492,3.134,,VVV*34
$GPLLK,003107.00,010125,,M,,M,1,20,1.6,,M*0B
$GNGMP,003107.00,,,,,DAAA,20,0.7,,,,*56
$GPGMP,003107.00,,,,,,05,,,,3.0,123*7E
$GLGMP,003107.00,,,,,,03,,,,,*79
$GAGMP,003107.00,,,,,,05,,,,,*72
$GBGMP,003107.00,,,,,,07,,,,,*73
$PSSN,SNC,[0,261085000,2347]*4C
$GPZDA,003112.00,01,01,2025,,*62
$GPDTM,W84,,00.0000000,N,00.0000000,E,00.0000000,W84*5F
$GPRMC,003112.00,A,4742.4460856,N,01617.9723932,E,0.0,,010125,5.1,E,D*12
$GPGLL,4742.4460856,N,01617.9723932,E,003112.00,A,D*63
$GPGGA,003112.00,4742.4460856,N,01617.9723932,E,2,21,0.7,624.0988,M,43.2111,M,2.4,0123*41
$GNGNS,003112.00,4742.4460856,N,01617.9723932,E,DAAA,21,0.7,624.0988,43.2111,,*5B
$GPGNS,003112.00,,,,,,05,,,,2.4,123*7F
$GLGNS,003112.00,,,,,,03,,,,,*7D
$GAGNS,003112.00,,,,,,06,,,,,*75
$GBGNS,003112.00,,,,,,07,,,,,*77
$GPLLQ,003112.00,010125,,M,,M,1,21,2.675,,M*15
$GPVTG,,T,,M,0.00,N,0.00,K,D*26
$GPHDT,,T*1B
$GPTHS,,V*0E
$GPROT,,V*08
$PSSN,HRP,003112.00,010125,,,,,,,00,0,,*60
$PTNL,AVR,003112.00,,Yaw,,Tilt,,,,0,,00*36
$GPGSA,A,3,02,03,17,21,32,,,,,,,,1.3,0.7,1.1*32
$GPGSA,A,3,68,69,85,,,,,,,,,,1.3,0.7,1.1*3B
$GPGSA,A,3,04,06,09,10,11,36,,,,,,,1.3,0.7,1.1*38
$GPGSA,A,3,19,20,29,30,32,35,39,,,,,,1.3,0.7,1.1*38
$GPGST,003112.00,2.566,1.387,0.479,15.840,1.341,0.596,2.236*66
$GPGBS,003112.00,10.040,4.723,15.660,68,0.0001,6.306,6.286*5B
$GPGRS,003112.00,1,0.5,-0.4,0.3,-0.4,1.0,,,,,,,*66
$GPGRS,003112.00,1,6.3,-2.0,-1.6,,,,,,,,,*61
$GPGRS,003112.00,1,-0.4,-0.4,-1.4,0.1,-1.5,0.0,,,,,,*4F
$GPGRS,003112.00,1,-1.2,-1.7,1.4,4.2,-2.5,-2.9,1.1,,,,,*6B
$GPGSV,4,1,16,01,85,119,,04,23,199,27,28,23,087,24,19,13,323,31*77
$GPGSV,4,2,16,32,24,047,38,31,16,116,,17,35,302,43,21,58,136,40*7C
$GPGSV,4,3,16,03,61,275,46,02,80,151,45,22,06,288,,08,09,181,*7C
$GPGSV,4,4,16,36,35,170,42,34,31,208,,49,34,195,37,61,03,257,*75
$GLGSV,2,1,08,69,84,022,43,83,14,143,,70,27,225,,85,41,322,51*6A
$GLGSV,2,2,08,68,30,039,44,84,80,145,26,77,08,014,,76,03,332,26*63
$GAGSV,3,1,11,11,75,111,43,19,19,042,28,12,22,120,23,09,40,186,35*67
$GAGSV,3,2,11,10,46,119,43,06,59,160,42,36,50,306,45,04,64,100,45*6D
$GAGSV,3,3,11,30,06,325,35,34,01,303,,02,06,276,19*56
$GBGSV,5,1,18,20,74,228,50,35,22,314,47,57,10,094,,30,33,164,38*6C
$GBGSV,5,2,18,19,24,233,36,05,24,128,,39,27,056,38,06,28,071,34*6E
$GBGSV,5,3,18,09,27,086,30,16,28,067,35,32,45,055,43,48,51,231,*60
$GBGSV,5,4,18,29,67,249,43,25,02,029,,13,04,080,,23,01,075,*63
$GBGSV,5,5,18,02,08,105,,60,10,109,*63
$GPGGA,003112.00,,,,,0,00,,,M,,M,,*49
$PTNL,GGK,003112.00,010125,4742.4460856,N,01617.9723932,E,1,21,1.3,EHT667.3099,M*40
$GPGGQ,003112.00,010125,4742.4460856,N,01617.9723932,E,1,21,2.675,624.0988,M*37
$GPGFA,003112.00,13.191,18.337,1.387,0.479,15.840,2.236,,VVV*3D
$GPLLK,003112.00,010125,,M,,M,1,21,1.5,,M*0D
$GNGMP,003112.00,,,,,DAAA,21,0.7,,,,*53
$GPGMP,003112.00,,,,,,05,,,,2.4,123*7F
$GLGMP,003112.00,,,,,,03,,,,,*7D
$GAGMP,003112.00,,,,,,06,,,,,*75
$GBGMP,003112.00,,,,,,07,,,,,*77
$PSSN,SNC,[0,261090000,2347]*48
$GPZDA,003117.00,01,01,2025,,*67
$GPDTM,W84,,00.0000000,N,00.0000000,E,00.0000000,W84*5F
$GPRMC,003117.00,A,4742.4460762,N,01617.9723748,E,0.0,,010125,5.1,E,D*1C
$GPGLL,4742.4460762,N,01617.9723748,E,003117.00,A,D*6D
$GPGGA,003117.00,4742.4460762,N,01617.9723748,E,2,22,0.7,624.0967,M,43.2111,M,2.6,0123*4F
$GNGNS,003117.00,4742.4460762,N,01617.9723748,E,DAAA,22,0.7,624.0967,43.2111,,*57
$GPGNS,003117.00,,,,,,05,,,,2.6,123*78
$GLGNS,003117.00,,,,,,03,,,,,*78
$GAGNS,003117.00,,,,,,07,,,,,*71
$GBGNS,003117.00,,,,,,07,,,,,*72
$GPLLQ,003117.00,010125,,M,,M,1,22,2.806,,M*19
$GPVTG,,T,,M,0.01,N,0.02,K,D*25
$GPHDT,,T*1B
$GPTHS,,V*0E
$GPROT,,V*08
$PSSN,HRP,003117.00,010125,,,,,,,00,0,,*65
$PTNL,AVR,003117.00,,Yaw,,Tilt,,,,0,,00*33
$GPGSA,A,3,02,03,17,21,32,,,,,,,,1.2,0.7,1.0*32
$GPGSA,A,3,68,69,85,,,,,,,,,,1.2,0.7,1.0*3B
$GPGSA,A,3,04,06,09,10,11,30,36,,,,,,1.2,0.7,1.0*3B
$GPGSA,A,3,19,20,29,30,32,35,39,,,,,,1.2,0.7,1.0*38
$GPGST,003117.00,1.821,1.455,0.501,16.135,1.404,0.628,2.346*66
$GPGBS,003117.00,10.134,4.696,15.490,32,0.0001,1.916,1.243*53
$GPGRS,003117.00,1,0.4,-0.3,-0.6,-0.5,1.9,,,,,,,*45
$GPGRS,003117.00,1,4.1,-1.6,-1.2,,,,,,,,,*65
$GPGRS,003117.00,1,-0.6,-0.2,-0.2,-0.2,-1.4,0.0,-0.0,,,,,*65
$GPGRS,003117.00,1,-1.3,-1.3,0.6,2.3,-2.0,-3.0,0.4,,,,,*66
$GPGSV,4,1,16,01,85,119,,04,23,199,25,28,23,087,35,19,13,323,27*72
$GPGSV,4,2,16,32,24,047,40,31,16,116,,17,35,302,42,21,58,136,39*7C
$GPGSV,4,3,16,03,61,275,45,02,79,151,45,22,06,288,,08,09,181,*79
$GPGSV,4,4,16,36,35,170,42,34,31,208,,49,34,195,37,61,03,257,*75
$GLGSV,2,1,08,69,83,022,45,83,14,143,,70,27,225,,85,42,322,51*68
$GLGSV,2,2,08,68,30,039,43,84,80,146,28,77,08,014,,76,03,332,29*66
$GAGSV,3,1,11,11,75,111,43,19,19,042,29,12,22,120,21,09,40,186,37*66
$GAGSV,3,2,11,10,46,119,43,06,59,160,42,36,50,306,45,04,64,100,44*6C
$GAGSV,3,3,11,30,06,325,35,34,01,303,,02,06,276,23*5F
$GBGSV,5,1,18,20,74,228,51,35,22,314,47,57,10,094,,30,33,164,39*6C
$GBGSV,5,2,18,19,24,233,37,05,24,128,,39,27,056,37,06,28,071,34*60
$GBGSV,5,3,18,09,27,086,30,16,28,067,35,32,45,055,43,48,51,231,*60
$GBGSV,5,4,18,29,67,249,42,25,02,029,,13,04,080,,23,01,075,*62
$GBGSV,5,5,18,02,08,105,,60,10,109,*63
$GPGGA,003117.00,,,,,0,00,,,M,,M,,*4C
$PTNL,GGK,003117.00,010125,4742.4460762,N,01617.9723748,E,1,22,1.2,EHT667.3078,M*43
$GPGGQ,003117.00,010125,4742.4460762,N,01617.9723748,E,1,22,2.806,624.0967,M*31
$GPGFA,003117.00,13.832,19.237,1.455,0.501,16.135,2.346,,VVV*30
$GPLLK,003117.00,010125,,M,,M,1,22,1.4,,M*0A
$GNGMP,003117.00,,,,,DAAA,22,0.7,,,,*55
$GPGMP,003117.00,,,,,,05,,,,2.6,123*78
$GLGMP,003117.00,,,,,,03,,,,,*78
$GAGMP,003117.00,,,,,,07,,,,,*71
$GBGMP,003117.00,,,,,,07,,,,,*72
$PSSN,SNC,[0,261095000,2347]*4D
$GPZDA,003122.00,01,01,2025,,*61
$GPDTM,W84,,00.0000000,N,00.0000000,E,00.0000000,W84*5F
$GPRMC,003122.00,A,4742.4460713,N,01617.9723560,E,0.0,,010125,5.1,E,D*14
$GPGLL,4742.4460713,N,01617.9723560,E,003122.00,A,D*65
$GPGGA,003122.00,4742.4460713,N,01617.9723560,E,2,22,0.7,624.0963,M,43.2111,M,2.0,0123*45
$GNGNS,003122.00,4742.4460713,N,01617.9723560,E,DAAA,22,0.7,624.0963,43.2111,,*5B
$GPGNS,003122.00,,,,,,05,,,,2.0,123*78
$GLGNS,003122.00,,,,,,03,,,,,*7E
$GAGNS,003122.00,,,,,,07,,,,,*77
$GBGNS,003122.00,,,,,,07,,,,,*74
$GPLLQ,003122.00,010125,,M,,M,1,22,3.896,,M*17
$GPVTG,,T,,M,0.00,N,0.00,K,D*26
$GPHDT,,T*1B
$GPTHS,,V*0E
$GPROT,,V*08
$PSSN,HRP,003122.00,010125,,,,,,,00,0,,*63
$PTNL,AVR,003122.00,,Yaw,,Tilt,,,,0,,00*35
$GPGSA,A,3,02,03,17,21,32,,,,,,,,1.2,0.7,1.0*32
$GPGSA,A,3,68,69,85,,,,,,,,,,1.2,0.7,1.0*3B
$GPGSA,A,3,04,06,09,10,11,30,36,,,,,,1.2,0.7,1.0*3B
$GPGSA,A,3,19,20,29,30,32,35,39,,,,,,1.2,0.7,1.0*38
$GPGST,003122.00,1.408,2.024,0.698,15.873,1.956,0.870,3.255*66
$GPGBS,003122.00,10.353,4.632,14.910,17,0.0001,-1.830,0.763*75
$GPGRS,003122.00,1,0.7,0.4,-1.8,-0.4,2.2,,,,,,,*6C
$GPGRS,003122.00,1,1.1,-1.1,-1.3,,,,,,,,,*60
$GPGRS,003122.00,1,-0.7,0.1,0.7,-0.5,-1.0,0.2,0.4,,,,,*4C
$GPGRS,003122.00,1,0.7,-1.5,-0.9,1.3,-1.5,-2.5,0.8,,,,,*61
$GPGSV,4,1,16,01,85,119,,04,23,199,20,28,23,087,34,19,13,323,22*73
$GPGSV,4,2,16,32,24,047,40,31,16,115,,17,35,302,42,21,58,136,40*71
$GPGSV,4,3,16,03,61,275,45,02,79,151,44,22,06,288,,08,09,181,*78
$GPGSV,4,4,16,36,35,170,42,34,31,208,,49,34,195,37,61,03,257,*75
$GLGSV,2,1,08,69,83,022,46,83,14,143,,70,27,225,,85,42,322,51*6B
$GLGSV,2,2,08,68,30,039,41,84,80,146,31,77,08,014,,76,03,332,31*65
$GAGSV,3,1,11,11,75,111,43,19,19,042,30,12,22,120,19,09,40,186,39*6B
$GAGSV,3,2,11,10,45,119,43,06,59,160,43,36,50,306,45,04,64,100,44*6E
$GAGSV,3,3,11,30,06,325,36,34,01,303,,02,06,276,23*5C
$GBGSV,5,1,18,20,74,228,51,35,22,314,47,57,10,094,,30,33,164,40*62
$GBGSV,5,2,18,19,24,233,38,05,24,128,,39,27,056,37,06,28,071,34*6F
$GBGSV,5,3,18,09,27,086,30,16,28,067,35,32,45,055,43,48,51,231,*60
$GBGSV,5,4,18,29,67,248,40,25,02,029,,13,04,080,,23,01,075,*61
$GBGSV,5,5,18,02,08,105,,60,10,109,*63
$GPGGA,003122.00,,,,,0,00,,,M,,M,,*4A
$PTNL,GGK,003122.00,010125,4742.4460713,N,01617.9723560,E,1,22,1.2,EHT667.3073,M*40
$GPGGQ,003122.00,010125,4742.4460713,N,01617.9723560,E,1,22,3.896,624.0963,M*35
$GPGFA,003122.00,19.244,26.694,2.024,0.698,15.873,3.255,,VVV*3E
$GPLLK,003122.00,010125,,M,,M,1,22,1.4,,M*0C
$GNGMP,003122.00,,,,,DAAA,22,0.7,,,,*53
$GPGMP,003122.00,,,,,,05,,,,2.0,123*78
$GLGMP,003122.00,,,,,,03,,,,,*7E
$GAGMP,003122.00,,,,,,07,,,,,*77
$GBGMP,003122.00,,,,,,07,,,,,*74
$PSSN,SNC,[0,261100000,2347]*40
$GPZDA,003127.00,01,01,2025,,*64
$GPDTM,W84,,00.0000000,N,00.0000000,E,00.0000000,W84*5F
$GPRMC,003127.00,A,4742.4460624,N,01617.9723330,E,0.0,,010125,5.1,E,D*17
$GPGLL,4742.4460624,N,01617.9723330,E,003127.00,A,D*66
$GPGGA,003127.00,4742.4460624,N,01617.9723330,E,2,23,0.6,624.0725,M,43.2111,M,2.8,0123*42
$GNGNS,003127.00,4742.4460624,N,01617.9723330,E,DAAA,23,0.6,624.0725,43.2111,,*54
$GPGNS,003127.00,,,,,,06,,,,2.8,123*76
$GLGNS,003127.00,,,,,,03,,,,,*7B
$GAGNS,003127.00,,,,,,07,,,,,*72
$GBGNS,003127.00,,,,,,07,,,,,*71
$GPLLQ,003127.00,010125,,M,,M,1,23,1.817,,M*18
$GPVTG,,T,,M,0.01,N,0.01,K,D*26
$GPHDT,,T*1B
$GPTHS,,V*0E
$GPROT,,V*08
$PSSN,HRP,003127.00,010125,,,,,,,00,0,,*66
$PTNL,AVR,003127.00,,Yaw,,Tilt,,,,0,,00*30
$GPGSA,A,3,02,03,04,17,21,32,,,,,,,1.1,0.6,0.9*3C
$GPGSA,A,3,68,69,85,,,,,,,,,,1.1,0.6,0.9*31
$GPGSA,A,3,04,06,09,10,11,30,36,,,,,,1.1,0.6,0.9*31
$GPGSA,A,3,19,20,29,30,32,35,39,,,,,,1.1,0.6,0.9*32
$GPGST,003127.00,1.792,0.836,0.673,39.679,0.774,0.744,1.466*66
$GPGBS,003127.00,4.323,3.820,6.941,17,0.0001,-1.756,0.784*79
$GPGRS,003127.00,1,0.9,0.4,-1.3,-1.8,-0.0,1.1,,,,,,*62
$GPGRS,003127.00,1,1.3,-1.0,-2.7,,,,,,,,,*61
$GPGRS,003127.00,1,-0.4,0.9,0.7,0.0,-0.7,1.0,0.6,,,,,*6D
$GPGRS,003127.00,1,3.1,-1.8,-3.3,0.4,-1.5,-1.9,0.9,,,,,*6D
$GPGSV,4,1,16,01,84,119,,04,23,199,37,28,23,087,26,19,13,323,*77
$GPGSV,4,2,16,32,24,047,40,31,16,115,,17,35,302,40,21,58,136,41*72
$GPGSV,4,3,16,03,61,275,44,02,79,151,45,22,06,288,,08,09,181,*78
$GPGSV,4,4,16,36,35,170,42,34,31,208,,49,34,195,37,61,03,257,*75
$GLGSV,2,1,08,69,83,022,45,83,14,143,20,70,27,225,,85,42,322,50*6B
$GLGSV,2,2,08,68,30,039,40,84,80,146,31,77,08,014,,76,03,331,28*6F
$GAGSV,3,1,11,11,75,111,43,19,19,042,31,12,22,120,27,09,40,186,40*69
$GAGSV,3,2,11,10,45,119,43,06,59,160,44,36,50,306,45,04,64,100,44*69
$GAGSV,3,3,11,30,06,325,36,34,01,303,,02,06,276,25*5A
$GBGSV,5,1,18,20,74,228,51,35,22,314,47,57,10,094,,30,33,164,42*60
$GBGSV,5,2,18,19,24,233,39,05,24,128,,39,27,056,37,06,28,071,34*6E
$GBGSV,5,3,18,09,27,086,30,16,28,067,34,32,45,055,42,48,51,231,*60
$GBGSV,5,4,18,29,67,248,41,25,02,029,,13,04,080,,23,01,075,*60
$GBGSV,5,5,18,02,08,105,,60,10,109,*63
$GPGGA,003127.00,,,,,0,00,,,M,,M,,*4F
$PTNL,GGK,003127.00,010125,4742.4460624,N,01617.9723330,E,1,23,1.1,EHT667.2836,M*49
$GPGGQ,003127.00,010125,4742.4460624,N,01617.9723330,E,1,23,1.817,624.0725,M*30
$GPGFA,003127.00,7.947,12.020,0.836,0.673,39.679,1.466,,VVV*00
$GPLLK,003127.00,010125,,M,,M,1,23,1.3,,M*0F
$GNGMP,003127.00,,,,,DAAA,23,0.6,,,,*56
$GPGMP,003127.00,,,,,,06,,,,2.8,123*76
$GLGMP,003127.00,,,,,,03,,,,,*7B
$GAGMP,003127.00,,,,,,07,,,,,*72
$GBGMP,003127.00,,,,,,07,,,,,*71
$PSSN,SNC,[0,261105000,2347]*45
$GPZDA,003132.00,01,01,2025,,*60
$GPDTM,W84,,00.0000000,N,00.0000000,E,00.0000000,W84*5F
$GPRMC,003132.00,A,4742.4460629,N,01617.9723142,E,0.0,,010125,5.1,E,D*19
$GPGLL,4742.4460629,N,01617.9723142,E,003132.00,A,D*68
$GPGGA,003132.00,4742.4460629,N,01617.9723142,E,2,22,0.7,624.0601,M,43.2111,M,2.4,0123*47
$GNGNS,003132.00,4742.4460629,N,01617.9723142,E,DAAA,22,0.7,624.0601,43.2111,,*5D
$GPGNS,003132.00,,,,,,05,,,,2.4,123*7D
$GLGNS,003132.00,,,,,,03,,,,,*7F
$GAGNS,003132.00,,,,,,07,,,,,*76
$GBGNS,003132.00,,,,,,07,,,,,*75
$GPLLQ,003132.00,010125,,M,,M,1,22,3.991,,M*10
$GPVTG,,T,,M,0.00,N,0.00,K,D*26
$GPHDT,,T*1B
$GPTHS,,V*0E
$GPROT,,V*08
$PSSN,HRP,003132.00,010125,,,,,,,00,0,,*62
$PTNL,AVR,003132.00,,Yaw,,Tilt,,,,0,,00*34
$GPGSA,A,3,02,03,17,21,32,,,,,,,,1.2,0.7,1.0*32
$GPGSA,A,3,68,69,85,,,,,,,,,,1.2,0.7,1.0*3B
$GPGSA,A,3,04,06,09,10,11,30,36,,,,,,1.2,0.7,1.0*3B
$GPGSA,A,3,19,20,29,30,32,35,39,,,,,,1.2,0.7,1.0*38
$GPGST,003132.00,2.383,2.077,0.719,16.159,2.005,0.901,3.331*64
$GPGBS,003132.00,9.941,4.699,15.162,17,0.0001,-1.809,0.751*43
$GPGRS,003132.00,1,1.1,-0.2,-1.8,0.4,0.9,,,,,,,*65
$GPGRS,003132.00,1,0.9,-2.5,-3.3,,,,,,,,,*6D
