$GPZDA,165942.00,01,01,2025,,*6E
$GPDTM,W84,,00.0000000,N,00.0000000,E,00.0000000,W84*5F
$GPRMC,165942.00,A,4742.4464326,N,01617.9727129,E,0.0,,010125,5.1,E,D*10
$GPGLL,4742.4464326,N,01617.9727129,E,165942.00,A,D*61
$GPGGA,165942.00,4742.4464326,N,01617.9727129,E,2,20,0.8,625.6497,M,43.2111,M,2.6,0123*4B
$GNGNS,165942.00,4742.4464326,N,01617.9727129,E,DAAA,20,0.8,625.6497,43.2111,,*53
$GPGNS,165942.00,,,,,,05,,,,2.6,123*71
$GLGNS,165942.00,,,,,,04,,,,,*76
$GAGNS,165942.00,,,,,,04,,,,,*7B
$GBGNS,165942.00,,,,,,07,,,,,*7B
$GPLLQ,165942.00,010125,,M,,M,1,20,2.978,,M*1A
$GPVTG,,T,,M,0.01,N,0.01,K,D*26
$GPHDT,,T*1B
$GPTHS,,V*0E
$GPROT,,V*08
$PSSN,HRP,165942.00,010125,,,,,,,00,0,,*6C
$PTNL,AVR,165942.00,,Yaw,,Tilt,,,,0,,00*3A
$GPGSA,A,3,16,18,28,29,31,,,,,,,,1.5,0.8,1.3*31
$GPGSA,A,3,79,80,81,82,,,,,,,,,1.5,0.8,1.3*39
$GPGSA,A,3,13,15,21,27,,,,,,,,,1.5,0.8,1.3*3C
$GPGSA,A,3,11,12,13,23,34,37,43,,,,,,1.5,0.8,1.3*38
$GPGST,165942.00,2.487,1.129,0.584,303.822,0.794,0.992,2.693*5F
$GPGBS,165942.00,6.088,7.581,20.789,28,0.0001,1.281,0.864*60
$GPGRS,165942.00,1,-0.8,-0.4,1.3,0.1,-0.5,,,,,,,*4A
$GPGRS,165942.00,1,-0.2,-2.6,1.9,0.8,,,,,,,,*45
$GPGRS,165942.00,1,0.2,-0.4,-0.0,0.4,,,,,,,,*41
$GPGRS,165942.00,1,1.1,-2.6,-4.2,4.1,-1.5,-4.5,0.8,,,,,*67
$GPGSV,4,1,15,18,62,182,51,05,28,069,34,16,23,305,41,20,14,037,30*78
$GPGSV,4,2,15,25,29,136,34,28,32,221,39,31,41,253,42,26,53,297,31*7D
$GPGSV,4,3,15,29,58,064,46,23,04,159,,04,01,314,31,36,35,170,38*7B
$GPGSV,4,4,15,34,31,208,36,49,34,195,37,61,03,257,*40
$GLGSV,3,1,10,81,71,024,45,78,10,154,22,83,12,227,,88,17,044,31*6B
$GLGSV,3,2,10,80,57,314,49,82,53,237,47,79,61,170,49,65,08,059,*68
$GLGSV,3,3,10,73,04,328,32,72,09,007,22*67
$GAGSV,3,1,09,27,77,140,45,34,27,045,30,30,24,128,28,13,39,198,38*65
$GAGSV,3,2,09,21,45,303,41,15,71,099,45,04,04,328,29,19,00,277,*6C
$GAGSV,3,3,09,06,01,351,*51
$GBGSV,5,1,20,11,84,045,45,37,21,315,42,60,10,109,,38,30,049,33*6D
$GBGSV,5,2,20,05,21,129,,12,28,057,43,25,40,179,33,13,40,075,41*63
$GBGSV,5,3,20,08,39,064,34,23,60,266,51,34,57,060,42,43,71,245,48*62
$GBGSV,5,4,20,21,06,089,,02,06,107,,10,02,093,,28,09,240,*62
$GBGSV,5,5,20,44,05,061,,50,01,111,,56,06,077,,22,08,042,*65
$GPGGA,165942.00,,,,,0,00,,,M,,M,,*45
$PTNL,GGK,165942.00,010125,4742.4464326,N,01617.9727129,E,1,20,1.5,EHT668.8608,M*4F
$GPGGQ,165942.00,010125,4742.4464326,N,01617.9727129,E,1,20,2.978,625.6497,M*32
$GPGFA,165942.00,10.731,22.083,1.129,0.584,303.822,2.693,,VVV*05
$GPLLK,165942.00,010125,,M,,M,1,20,1.8,,M*0D
$GNGMP,165942.00,,,,,DAAA,20,0.8,,,,*51
$GPGMP,165942.00,,,,,,05,,,,2.6,123*71
$GLGMP,165942.00,,,,,,04,,,,,*76
$GAGMP,165942.00,,,,,,04,,,,,*7B
$GBGMP,165942.00,,,,,,07,,,,,*7B
$PSSN,SNC,[0,320400000,2347]*41
$GPZDA,165947.00,01,01,2025,,*6B
$GPDTM,W84,,00.0000000,N,00.0000000,E,00.0000000,W84*5F
$GPRMC,165947.00,A,4742.4464370,N,01617.9727162,E,0.0,,010125,5.1,E,D*19
$GPGLL,4742.4464370,N,01617.9727162,E,165947.00,A,D*68
$GPGGA,165947.00,4742.4464370,N,01617.9727162,E,2,20,0.8,625.6479,M,43.2111,M,3.6,0123*43
$GNGNS,165947.00,4742.4464370,N,01617.9727162,E,DAAA,20,0.8,625.6479,43.2111,,*5A
$GPGNS,165947.00,,,,,,05,,,,3.6,123*75
$GLGNS,165947.00,,,,,,04,,,,,*73
$GAGNS,165947.00,,,,,,04,,,,,*7E
$GBGNS,165947.00,,,,,,07,,,,,*7E
$GPLLQ,165947.00,010125,,M,,M,1,20,2.875,,M*13
$GPVTG,,T,,M,0.00,N,0.01,K,D*27
$GPHDT,,T*1B
$GPTHS,,V*0E
$GPROT,,V*08
$PSSN,HRP,165947.00,010125,,,,,,,00,0,,*69
$PTNL,AVR,165947.00,,Yaw,,Tilt,,,,0,,00*3F
$GPGSA,A,3,16,18,28,29,31,,,,,,,,1.5,0.8,1.3*31
$GPGSA,A,3,79,80,81,82,,,,,,,,,1.5,0.8,1.3*39
$GPGSA,A,3,13,15,21,27,,,,,,,,,1.5,0.8,1.3*3C
$GPGSA,A,3,11,12,13,23,34,37,43,,,,,,1.5,0.8,1.3*38
$GPGST,165947.00,2.100,1.089,0.567,303.643,0.766,0.960,2.599*56
$GPGBS,165947.00,6.173,7.650,20.952,28,0.0001,0.968,0.878*67
$GPGRS,165947.00,1,-0.6,0.2,1.0,-0.6,-0.2,,,,,,,*44
$GPGRS,165947.00,1,1.3,-2.7,1.7,-0.0,,,,,,,,*47
$GPGRS,165947.00,1,-1.2,0.4,0.4,0.5,,,,,,,,*6D
$GPGRS,165947.00,1,1.1,-2.4,-3.4,-2.4,-0.4,-4.0,1.1,,,,,*42
$GPGSV,4,1,15,18,63,182,51,05,28,069,35,16,23,305,43,20,14,037,28*73
$GPGSV,4,2,15,25,28,136,33,28,31,221,40,31,41,253,39,26,53,297,32*79
$GPGSV,4,3,15,29,58,064,46,23,04,159,,04,01,314,31,36,35,170,38*7B
$GPGSV,4,4,15,34,31,208,35,49,34,195,37,61,03,257,*43
$GLGSV,3,1,10,81,71,024,45,80,57,314,49,83,12,227,,88,17,044,32*67
$GLGSV,3,2,10,79,61,170,50,82,53,237,47,65,08,059,,72,09,007,26*6E
$GLGSV,3,3,10,73,04,328,31,78,10,154,21*62
$GAGSV,3,1,09,27,77,140,44,34,26,045,31,30,24,128,27,13,39,198,36*65
$GAGSV,3,2,09,21,45,303,40,15,71,098,46,04,04,328,29,19,00,277,*6F
$GAGSV,3,3,09,06,01,351,*51
$GBGSV,5,1,20,11,84,045,44,37,21,315,41,60,10,109,,38,30,049,33*6F
$GBGSV,5,2,20,05,21,129,,12,28,057,43,25,40,179,30,13,40,075,41*60
$GBGSV,5,3,20,08,39,064,34,23,60,266,37,34,57,060,42,43,71,245,48*62
$GBGSV,5,4,20,21,06,089,,02,06,107,,10,02,093,,28,09,240,*62
$GBGSV,5,5,20,44,05,061,,50,01,110,,56,06,077,,22,08,042,*64
$GPGGA,165947.00,,,,,0,00,,,M,,M,,*40
$PTNL,GGK,165947.00,010125,4742.4464370,N,01617.9727162,E,1,20,1.5,EHT668.8590,M*44
$GPGGQ,165947.00,010125,4742.4464370,N,01617.9727162,E,1,20,2.875,625.6479,M*37
$GPGFA,165947.00,10.357,21.315,1.089,0.567,303.643,2.599,,VVV*0D
$GPLLK,165947.00,010125,,M,,M,1,20,1.8,,M*08
$GNGMP,165947.00,,,,,DAAA,20,0.8,,,,*54
$GPGMP,165947.00,,,,,,05,,,,3.6,123*75
$GLGMP,165947.00,,,,,,04,,,,,*73
$GAGMP,165947.00,,,,,,04,,,,,*7E
$GBGMP,165947.00,,,,,,07,,,,,*7E
$PSSN,SNC,[0,320405000,2347]*44
$GPZDA,165952.00,01,01,2025,,*6F
$GPDTM,W84,,00.0000000,N,00.0000000,E,00.0000000,W84*5F
$GPRMC,165952.00,A,4742.4464381,N,01617.9727045,E,0.0,,010125,5.1,E,D*17
$GPGLL,4742.4464381,N,01617.9727045,E,165952.00,A,D*66
$GPGGA,165952.00,4742.4464381,N,01617.9727045,E,2,21,0.8,625.6807,M,43.2111,M,2.3,0123*4D
$GNGNS,165952.00,4742.4464381,N,01617.9727045,E,DAAA,21,0.8,625.6807,43.2111,,*50
$GPGNS,165952.00,,,,,,06,,,,2.3,123*76
$GLGNS,165952.00,,,,,,04,,,,,*77
$GAGNS,165952.00,,,,,,03,,,,,*7D
$GBGNS,165952.00,,,,,,08,,,,,*75
$GPLLQ,165952.00,010125,,M,,M,1,21,2.934,,M*12
$GPVTG,,T,,M,0.01,N,0.01,K,D*26
$GPHDT,,T*1B
$GPTHS,,V*0E
$GPROT,,V*08
$PSSN,HRP,165952.00,010125,,,,,,,00,0,,*6D
$PTNL,AVR,165952.00,,Yaw,,Tilt,,,,0,,00*3B
$GPGSA,A,3,05,16,18,28,29,31,,,,,,,1.5,0.8,1.2*35
$GPGSA,A,3,79,80,81,82,,,,,,,,,1.5,0.8,1.2*38
$GPGSA,A,3,15,21,27,,,,,,,,,,1.5,0.8,1.2*3F
$GPGSA,A,3,08,11,12,13,23,34,37,43,,,,,1.5,0.8,1.2*31
$GPGST,165952.00,2.970,1.416,0.656,330.612,1.275,0.900,2.484*57
$GPGBS,165952.00,4.940,4.013,10.443,05,0.0001,2.896,0.974*65
$GPGRS,165952.00,1,2.9,-0.3,0.0,0.7,-1.4,-0.5,,,,,,*60
$GPGRS,165952.00,1,0.9,-2.0,0.2,-1.0,,,,,,,,*4A
$GPGRS,165952.00,1,0.4,-0.5,-0.4,,,,,,,,,*69
$GPGRS,165952.00,1,-2.3,0.8,-2.3,-3.2,-8.4,0.0,-3.7,0.6,,,,*68
$GPGSV,4,1,15,18,63,182,51,05,28,069,37,16,23,305,45,20,14,037,*7D
$GPGSV,4,2,15,25,28,136,29,28,31,221,42,31,41,253,37,26,54,297,33*78
$GPGSV,4,3,15,29,58,064,47,23,04,159,,04,01,314,30,36,35,170,38*7B
$GPGSV,4,4,15,34,31,208,35,49,34,195,36,61,03,257,*42
$GLGSV,3,1,10,81,71,024,45,80,57,314,50,83,12,227,,88,17,044,32*6F
$GLGSV,3,2,10,79,61,170,50,82,53,237,47,65,08,059,,72,09,006,23*6A
$GLGSV,3,3,10,73,04,328,32,78,10,154,22*62
$GAGSV,3,1,09,27,77,140,44,34,26,045,33,30,24,128,27,13,39,198,34*65
$GAGSV,3,2,09,21,45,303,40,15,71,098,47,04,04,328,29,19,00,277,*6E
$GAGSV,3,3,09,06,01,351,*51
$GBGSV,5,1,20,11,84,045,44,37,21,315,40,60,10,109,,38,30,049,32*6F
$GBGSV,5,2,20,05,21,129,,12,28,057,44,25,40,179,30,13,40,075,41*67
$GBGSV,5,3,20,08,39,064,36,23,60,266,37,34,57,060,43,43,71,245,49*60
$GBGSV,5,4,20,21,06,089,,02,06,107,,10,02,093,,28,09,240,*62
$GBGSV,5,5,20,44,05,061,,50,01,110,,56,06,077,,22,08,042,*64
$GPGGA,165952.00,,,,,0,00,,,M,,M,,*44
$PTNL,GGK,165952.00,010125,4742.4464381,N,01617.9727045,E,1,21,1.5,EHT668.8917,M*48
$GPGGQ,165952.00,010125,4742.4464381,N,01617.9727045,E,1,21,2.934,625.6807,M*39
$GPGFA,165952.00,13.463,20.369,1.416,0.656,330.612,2.484,,VVV*0A
$GPLLK,165952.00,010125,,M,,M,1,21,1.8,,M*0D
$GNGMP,165952.00,,,,,DAAA,21,0.8,,,,*51
$GPGMP,165952.00,,,,,,06,,,,2.3,123*76
$GLGMP,165952.00,,,,,,04,,,,,*77
$GAGMP,165952.00,,,,,,03,,,,,*7D
$GBGMP,165952.00,,,,,,08,,,,,*75
$PSSN,SNC,[0,320410000,2347]*40
$GPZDA,165957.00,01,01,2025,,*6A
$GPDTM,W84,,00.0000000,N,00.0000000,E,00.0000000,W84*5F
$GPRMC,165957.00,A,4742.4464372,N,01617.9726911,E,0.0,,010125,5.1,E,D*17
$GPGLL,4742.4464372,N,01617.9726911,E,165957.00,A,D*66
$GPGGA,165957.00,4742.4464372,N,01617.9726911,E,2,22,0.8,625.7252,M,43.2111,M,2.0,0123*46
$GNGNS,165957.00,4742.4464372,N,01617.9726911,E,DAAA,22,0.8,625.7252,43.2111,,*58
$GPGNS,165957.00,,,,,,07,,,,2.0,123*71
$GLGNS,165957.00,,,,,,04,,,,,*72
$GAGNS,165957.00,,,,,,03,,,,,*78
$GBGNS,165957.00,,,,,,08,,,,,*70
$GPLLQ,165957.00,010125,,M,,M,1,22,3.412,,M*1C
$GPVTG,,T,,M,0.01,N,0.01,K,D*26
$GPHDT,,T*1B
$GPTHS,,V*0E
$GPROT,,V*08
$PSSN,HRP,165957.00,010125,,,,,,,00,0,,*68
$PTNL,AVR,165957.00,,Yaw,,Tilt,,,,0,,00*3E
$GPGSA,A,3,05,16,18,26,28,29,31,,,,,,1.5,0.8,1.2*31
$GPGSA,A,3,79,80,81,82,,,,,,,,,1.5,0.8,1.2*38
$GPGSA,A,3,15,21,27,,,,,,,,,,1.5,0.8,1.2*3F
$GPGSA,A,3,08,11,12,13,23,34,37,43,,,,,1.5,0.8,1.2*31
$GPGST,165957.00,2.658,1.524,0.832,332.753,1.408,1.017,2.937*5A
$GPGBS,165957.00,4.163,3.370,9.407,05,0.0001,3.413,0.987*5C
$GPGRS,165957.00,1,3.4,-0.7,-0.4,2.6,0.7,-1.6,-1.1,,,,,*69
$GPGRS,165957.00,1,-0.2,-2.2,-0.2,-2.1,,,,,,,,*44
$GPGRS,165957.00,1,-0.0,-1.1,-0.6,,,,,,,,,*42
$GPGRS,165957.00,1,-1.4,0.7,-2.8,-3.1,-5.9,0.0,-4.1,-0.2,,,,*46
$GPGSV,4,1,15,18,63,182,51,05,28,069,39,16,23,305,46,20,14,037,*70
$GPGSV,4,2,15,25,28,136,21,28,31,221,41,31,41,253,36,26,54,297,36*77
$GPGSV,4,3,15,29,58,064,47,23,04,159,,04,01,314,30,36,35,170,38*7B
$GPGSV,4,4,15,34,31,208,35,49,34,195,36,61,03,257,*42
$GLGSV,3,1,10,81,71,024,46,80,57,314,51,83,12,227,,88,17,044,32*6D
$GLGSV,3,2,10,79,60,170,49,82,53,237,47,65,08,059,,72,09,006,21*61
$GLGSV,3,3,10,73,04,328,33,78,10,154,20*61
$GAGSV,3,1,09,27,77,140,43,34,26,045,34,30,24,128,27,13,39,198,31*60
$GAGSV,3,2,09,21,45,303,40,15,71,098,47,04,04,328,22,19,00,277,*65
$GAGSV,3,3,09,06,01,351,*51
$GBGSV,5,1,20,11,84,045,44,37,21,315,40,60,10,109,,38,30,049,31*6C
$GBGSV,5,2,20,05,21,129,,12,28,057,44,25,40,179,31,13,40,075,41*66
$GBGSV,5,3,20,08,39,064,37,23,60,266,39,34,57,060,44,43,71,245,49*68
$GBGSV,5,4,20,21,06,089,,02,06,107,,10,02,093,,28,09,240,*62
$GBGSV,5,5,20,44,05,061,,50,01,110,,56,06,077,,22,08,042,*64
$GPGGA,165957.00,,,,,0,00,,,M,,M,,*41
$PTNL,GGK,165957.00,010125,4742.4464372,N,01617.9726911,E,1,22,1.5,EHT668.9363,M*43
$GPGGQ,165957.00,010125,4742.4464372,N,01617.9726911,E,1,22,3.412,625.7252,M*39
$GPGFA,165957.00,14.494,24.080,1.524,0.832,332.753,2.937,,VVV*0F
$GPLLK,165957.00,010125,,M,,M,1,22,1.7,,M*04
$GNGMP,165957.00,,,,,DAAA,22,0.8,,,,*57
$GPGMP,165957.00,,,,,,07,,,,2.0,123*71
$GLGMP,165957.00,,,,,,04,,,,,*72
$GAGMP,165957.00,,,,,,03,,,,,*78
$GBGMP,165957.00,,,,,,08,,,,,*70
$PSSN,SNC,[0,320415000,2347]*45
$GPZDA,170002.00,01,01,2025,,*67
$GPDTM,W84,,00.0000000,N,00.0000000,E,00.0000000,W84*5F
$GPRMC,170002.00,A,4742.4464383,N,01617.9726822,E,0.0,,010125,5.1,E,D*15
$GPGLL,4742.4464383,N,01617.9726822,E,170002.00,A,D*64
$GPGGA,170002.00,4742.4464383,N,01617.9726822,E,2,20,0.8,625.7550,M,43.2111,M,2.4,0123*47
$GNGNS,170002.00,4742.4464383,N,01617.9726822,E,DAAA,20,0.8,625.7550,43.2111,,*5D
$GPGNS,170002.00,,,,,,05,,,,2.4,123*7A
$GLGNS,170002.00,,,,,,04,,,,,*7F
$GAGNS,170002.00,,,,,,04,,,,,*72
$GBGNS,170002.00,,,,,,07,,,,,*72
$GPLLQ,170002.00,010125,,M,,M,1,20,3.884,,M*10
$GPVTG,,T,,M,0.01,N,0.01,K,D*26
$GPHDT,,T*1B
$GPTHS,,V*0E
$GPROT,,V*08
$PSSN,HRP,170002.00,010125,,,,,,,00,0,,*65
$PTNL,AVR,170002.00,,Yaw,,Tilt,,,,0,,00*33
$GPGSA,A,3,05,16,18,28,29,,,,,,,,1.5,0.8,1.3*36
$GPGSA,A,3,79,80,81,82,,,,,,,,,1.5,0.8,1.3*39
$GPGSA,A,3,15,21,27,34,,,,,,,,,1.5,0.8,1.3*39
$GPGSA,A,3,08,11,13,23,34,37,43,,,,,,1.5,0.8,1.3*33
$GPGST,170002.00,5.920,1.998,0.935,323.061,1.693,1.414,3.197*5F
$GPGBS,170002.00,6.232,5.325,11.088,34,0.0001,19.769,6.247*5E
$GPGRS,170002.00,1,2.1,-1.0,0.3,0.0,-1.5,,,,,,,*61
$GPGRS,170002.00,1,-0.8,-2.2,-0.3,-2.3,,,,,,,,*40
$GPGRS,170002.00,1,-0.1,-0.9,-0.3,19.8,,,,,,,,*5C
$GPGRS,170002.00,1,0.6,1.7,-2.3,-5.3,0.1,-2.8,-0.5,,,,,*6D
$GPGSV,4,1,15,18,63,182,50,05,28,069,39,16,23,305,46,20,14,037,*71
$GPGSV,4,2,15,25,28,136,34,28,31,221,41,31,41,253,33,26,54,297,39*79
$GPGSV,4,3,15,29,58,064,46,23,04,159,,04,01,314,25,36,35,170,38*7E
$GPGSV,4,4,15,34,31,208,35,49,34,195,37,61,03,257,*43
$GLGSV,3,1,10,81,71,025,45,80,57,314,51,83,12,227,,88,17,044,31*6C
$GLGSV,3,2,10,79,60,170,49,82,54,237,47,65,08,059,,72,09,006,*65
$GLGSV,3,3,10,73,04,328,35,78,10,154,*65
$GAGSV,3,1,09,27,77,140,43,34,26,045,35,30,24,128,28,13,39,198,29*67
$GAGSV,3,2,09,21,45,303,40,15,71,098,48,04,04,328,32,19,00,276,*6A
$GAGSV,3,3,09,06,01,351,*51
$GBGSV,5,1,20,11,84,045,43,37,21,315,39,60,10,109,,38,30,049,30*64
$GBGSV,5,2,20,05,21,129,,12,28,057,27,25,39,179,32,13,40,075,42*6D
$GBGSV,5,3,20,08,39,064,37,23,60,265,40,34,57,060,44,43,71,245,50*6D
$GBGSV,5,4,20,21,06,089,,02,06,107,,10,02,093,,28,09,240,*62
$GBGSV,5,5,20,44,05,061,,50,01,110,,56,06,077,,22,08,042,*64
$GPGGA,170002.00,,,,,0,00,,,M,,M,,*4C
$PTNL,GGK,170002.00,010125,4742.4464383,N,01617.9726822,E,1,20,1.5,EHT668.9660,M*45
$GPGGQ,170002.00,010125,4742.4464383,N,01617.9726822,E,1,20,3.884,625.7550,M*3F
$GPGFA,170002.00,18.996,26.217,1.998,0.935,323.061,3.197,,VVV*07
$GPLLK,170002.00,010125,,M,,M,1,20,1.8,,M*04
$GNGMP,170002.00,,,,,DAAA,20,0.8,,,,*58
$GPGMP,170002.00,,,,,,05,,,,2.4,123*7A
$GLGMP,170002.00,,,,,,04,,,,,*7F
$GAGMP,170002.00,,,,,,04,,,,,*72
$GBGMP,170002.00,,,,,,07,,,,,*72
$PSSN,SNC,[0,320420000,2347]*43
$GPZDA,170007.00,01,01,2025,,*62
$GPDTM,W84,,00.0000000,N,00.0000000,E,00.0000000,W84*5F
$GPRMC,170007.00,A,4742.4464412,N,01617.9726703,E,0.0,,010125,5.1,E,D*13
$GPGLL,4742.4464412,N,01617.9726703,E,170007.00,A,D*62
$GPGGA,170007.00,4742.4464412,N,01617.9726703,E,2,21,0.8,625.7804,M,43.2111,M,3.3,0123*4A
$GNGNS,170007.00,4742.4464412,N,01617.9726703,E,DAAA,21,0.8,625.7804,43.2111,,*56
$GPGNS,170007.00,,,,,,06,,,,3.3,123*7A
$GLGNS,170007.00,,,,,,04,,,,,*7A
$GAGNS,170007.00,,,,,,04,,,,,*77
$GBGNS,170007.00,,,,,,07,,,,,*77
$GPLLQ,170007.00,010125,,M,,M,1,21,3.489,,M*15
$GPVTG,,T,,M,0.01,N,0.01,K,D*26
$GPHDT,,T*1B
$GPTHS,,V*0E
$GPROT,,V*08
$PSSN,HRP,170007.00,010125,,,,,,,00,0,,*60
$PTNL,AVR,170007.00,,Yaw,,Tilt,,,,0,,00*36
$GPGSA,A,3,05,16,18,28,29,31,,,,,,,1.5,0.8,1.2*35
$GPGSA,A,3,79,80,81,82,,,,,,,,,1.5,0.8,1.2*38
$GPGSA,A,3,15,21,27,34,,,,,,,,,1.5,0.8,1.2*38
$GPGSA,A,3,08,11,13,23,34,37,43,,,,,,1.5,0.8,1.2*32
$GPGST,170007.00,5.744,1.698,0.773,330.981,1.532,1.066,2.949*53
$GPGBS,170007.00,5.070,3.920,10.446,34,0.0001,20.415,6.246*51
$GPGRS,170007.00,1,2.0,-1.4,0.8,-0.1,-1.3,-0.3,,,,,,*40
$GPGRS,170007.00,1,-0.4,-2.0,-0.1,-2.0,,,,,,,,*4A
$GPGRS,170007.00,1,0.3,-0.5,0.0,20.4,,,,,,,,*52
$GPGRS,170007.00,1,0.1,2.0,-2.2,-3.5,0.2,-2.6,-0.2,,,,,*60
$GPGSV,4,1,15,18,63,182,51,05,28,069,40,16,23,305,46,20,14,037,25*79
$GPGSV,4,2,15,25,28,136,28,28,31,221,42,31,41,253,37,26,54,297,40*7D
$GPGSV,4,3,15,29,58,064,46,23,04,159,,04,01,314,,36,35,170,38*79
$GPGSV,4,4,15,34,31,208,35,49,34,195,37,61,03,257,*43
$GLGSV,3,1,10,81,71,025,46,80,57,314,50,83,12,227,,88,17,044,31*6E
$GLGSV,3,2,10,79,60,170,50,82,54,237,46,65,08,059,,72,09,006,*6C
$GLGSV,3,3,10,73,04,328,35,78,10,154,*65
$GAGSV,3,1,09,27,77,140,43,34,26,045,36,30,24,128,27,13,39,198,28*6A
$GAGSV,3,2,09,21,45,303,41,15,71,098,48,04,03,328,33,19,00,276,*6D
$GAGSV,3,3,09,06,01,351,*51
$GBGSV,5,1,20,11,84,045,43,37,21,315,40,60,10,109,,38,30,049,30*6A
$GBGSV,5,2,20,05,21,129,,12,28,057,27,25,39,179,35,13,40,075,42*6A
$GBGSV,5,3,20,08,39,064,37,23,60,265,42,34,57,060,44,43,71,245,50*6F
$GBGSV,5,4,20,21,06,089,,02,06,107,,10,02,093,,28,09,240,*62
$GBGSV,5,5,20,44,05,061,,50,01,110,,56,06,077,,22,08,042,*64
$GPGGA,170007.00,,,,,0,00,,,M,,M,,*49
$PTNL,GGK,170007.00,010125,4742.4464412,N,01617.9726703,E,1,21,1.5,EHT668.9914,M*4E
$GPGGQ,170007.00,010125,4742.4464412,N,01617.9726703,E,1,21,3.489,625.7804,M*35
$GPGFA,170007.00,16.145,24.179,1.698,0.773,330.981,2.949,,VVV*0F
$GPLLK,170007.00,010125,,M,,M,1,21,1.8,,M*00
$GNGMP,170007.00,,,,,DAAA,21,0.8,,,,*5C
$GPGMP,170007.00,,,,,,06,,,,3.3,123*7A
$GLGMP,170007.00,,,,,,04,,,,,*7A
$GAGMP,170007.00,,,,,,04,,,,,*77
$GBGMP,170007.00,,,,,,07,,,,,*77
$PSSN,SNC,[0,320425000,2347]*46
$GPZDA,170012.00,01,01,2025,,*66
$GPDTM,W84,,00.0000000,N,00.0000000,E,00.0000000,W84*5F
$GPRMC,170012.00,A,4742.4464423,N,01617.9726799,E,0.0,,010125,5.1,E,D*16
$GPGLL,4742.4464423,N,01617.9726799,E,170012.00,A,D*67
$GPGGA,170012.00,4742.4464423,N,01617.9726799,E,2,23,0.7,625.7799,M,43.2111,M,2.1,0123*4A
$GNGNS,170012.00,4742.4464423,N,01617.9726799,E,DAAA,23,0.7,625.7799,43.2111,,*55
$GPGNS,170012.00,,,,,,07,,,,2.1,123*7C
$GLGNS,170012.00,,,,,,04,,,,,*7E
$GAGNS,170012.00,,,,,,04,,,,,*73
$GBGNS,170012.00,,,,,,08,,,,,*7C
$GPLLQ,170012.00,010125,,M,,M,1,23,3.561,,M*14
$GPVTG,,T,,M,0.00,N,0.01,K,D*27
$GPHDT,,T*1B
$GPTHS,,V*0E
$GPROT,,V*08
$PSSN,HRP,170012.00,010125,,,,,,,00,0,,*64
$PTNL,AVR,170012.00,,Yaw,,Tilt,,,,0,,00*32
$GPGSA,A,3,05,16,18,26,28,29,31,,,,,,1.4,0.7,1.2*3F
$GPGSA,A,3,79,80,81,82,,,,,,,,,1.4,0.7,1.2*36
$GPGSA,A,3,15,21,27,34,,,,,,,,,1.4,0.7,1.2*36
$GPGSA,A,3,08,11,13,23,25,34,37,43,,,,,1.4,0.7,1.2*3B
$GPGST,170012.00,5.372,1.489,0.919,337.477,1.419,1.023,3.102*5A
$GPGBS,170012.00,3.614,2.959,8.034,34,0.0001,19.295,6.248*6A
$GPGRS,170012.00,1,0.5,-2.8,-0.3,1.3,0.0,-1.9,2.1,,,,,*4D
$GPGRS,170012.00,1,-1.7,-3.0,-0.0,-1.9,,,,,,,,*46
$GPGRS,170012.00,1,-0.7,-1.3,-1.0,19.3,,,,,,,,*59
$GPGRS,170012.00,1,-1.9,-0.2,-3.0,-0.8,5.1,-1.4,-3.0,-1.6,,,,*62
$GPGSV,4,1,15,18,63,182,51,05,28,069,40,16,23,305,45,20,14,037,19*75
$GPGSV,4,2,15,25,28,136,32,28,31,221,43,31,41,253,40,26,54,297,40*77
$GPGSV,4,3,15,29,58,064,46,23,04,159,,04,01,314,,36,35,170,38*79
$GPGSV,4,4,15,34,31,208,35,49,34,195,37,61,03,257,*43
$GLGSV,3,1,10,81,71,025,47,80,57,314,49,83,12,227,,88,17,044,30*66
$GLGSV,3,2,10,79,60,170,50,82,54,237,45,65,08,059,,72,09,006,*6F
$GLGSV,3,3,10,73,04,328,35,78,10,154,*65
$GAGSV,2,1,08,27,77,140,43,34,26,045,35,30,24,128,28,13,39,198,26*68
$GAGSV,2,2,08,21,45,303,43,15,71,098,48,04,03,328,27,06,01,351,*61
$GBGSV,5,1,20,11,84,045,42,37,21,315,40,60,10,109,,38,30,049,30*6B
$GBGSV,5,2,20,05,21,129,,12,28,057,27,25,39,179,36,13,40,074,43*69
$GBGSV,5,3,20,08,39,064,38,23,60,265,42,34,57,060,43,43,71,245,50*67
$GBGSV,5,4,20,21,06,089,,02,06,107,,10,02,093,,28,09,240,*62
$GBGSV,5,5,20,44,05,061,,50,01,110,,56,06,077,,22,08,042,*64
$GPGGA,170012.00,,,,,0,00,,,M,,M,,*4D
$PTNL,GGK,170012.00,010125,4742.4464423,N,01617.9726799,E,1,23,1.4,EHT668.9910,M*4C
$GPGGQ,170012.00,010125,4742.4464423,N,01617.9726799,E,1,23,3.561,625.7799,M*3E
$GPGFA,170012.00,14.153,25.436,1.489,0.919,337.477,3.102,,VVV*04
$GPLLK,170012.00,010125,,M,,M,1,23,1.6,,M*08
$GNGMP,170012.00,,,,,DAAA,23,0.7,,,,*55
$GPGMP,170012.00,,,,,,07,,,,2.1,123*7C
$GLGMP,170012.00,,,,,,04,,,,,*7E
$GAGMP,170012.00,,,,,,04,,,,,*73
$GBGMP,170012.00,,,,,,08,,,,,*7C
$PSSN,SNC,[0,320430000,2347]*42
$GPZDA,170017.00,01,01,2025,,*63
$GPDTM,W84,,00.0000000,N,00.0000000,E,00.0000000,W84*5F
$GPRMC,170017.00,A,4742.4464484,N,01617.9726945,E,0.0,,010125,5.1,E,D*11
$GPGLL,4742.4464484,N,01617.9726945,E,170017.00,A,D*60
$GPGGA,170017.00,4742.4464484,N,01617.9726945,E,2,23,0.7,625.7808,M,43.2111,M,2.0,0123*4B
$GNGNS,170017.00,4742.4464484,N,01617.9726945,E,DAAA,23,0.7,625.7808,43.2111,,*55
$GPGNS,170017.00,,,,,,07,,,,2.0,123*78
$GLGNS,170017.00,,,,,,04,,,,,*7B
$GAGNS,170017.00,,,,,,03,,,,,*71
$GBGNS,170017.00,,,,,,09,,,,,*78
$GPLLQ,170017.00,010125,,M,,M,1,23,2.839,,M*10
$GPVTG,,T,,M,0.00,N,0.00,K,D*26
$GPHDT,,T*1B
$GPTHS,,V*0E
$GPROT,,V*08
$PSSN,HRP,170017.00,010125,,,,,,,00,0,,*61
$PTNL,AVR,170017.00,,Yaw,,Tilt,,,,0,,00*37
$GPGSA,A,3,05,16,18,26,28,29,31,,,,,,1.4,0.7,1.2*3F
$GPGSA,A,3,79,80,81,82,,,,,,,,,1.4,0.7,1.2*36
$GPGSA,A,3,15,21,27,,,,,,,,,,1.4,0.7,1.2*31
$GPGSA,A,3,08,11,12,13,23,25,34,37,43,,,,1.4,0.7,1.2*38
$GPGST,170017.00,2.425,1.176,0.737,336.999,1.120,0.819,2.477*5F
$GPGBS,170017.00,3.613,2.920,8.420,16,0.0001,-3.205,1.363*77
$GPGRS,170017.00,1,0.6,-3.2,-0.4,1.4,0.9,-1.4,0.5,,,,,*42
$GPGRS,170017.00,1,-1.6,-3.1,1.1,-1.6,,,,,,,,*61
$GPGRS,170017.00,1,-0.6,-0.6,-0.9,,,,,,,,,*44
$GPGRS,170017.00,1,-1.1,-2.4,-3.0,-2.4,3.1,4.4,-0.6,-2.7,-1.6,,,*48
$GPGSV,4,1,15,18,63,182,51,05,28,069,42,16,23,305,44,20,14,037,24*78
$GPGSV,4,2,15,25,28,136,35,28,31,221,43,31,41,253,42,26,54,297,39*7C
$GPGSV,4,3,15,29,58,064,47,23,04,159,,04,01,314,25,36,35,170,37*70
$GPGSV,4,4,15,34,31,208,35,49,34,195,36,61,03,257,*42
$GLGSV,3,1,10,81,71,025,48,80,57,314,49,83,12,227,,88,17,044,31*68
$GLGSV,3,2,10,79,60,170,50,82,54,237,44,65,08,059,,72,09,006,31*6C
$GLGSV,3,3,10,73,04,328,34,78,10,154,*64
$GAGSV,2,1,08,27,77,140,43,34,26,045,35,30,24,128,28,13,39,198,28*66
$GAGSV,2,2,08,21,46,303,44,15,71,098,48,04,03,328,29,06,01,351,*6B
$GBGSV,5,1,20,11,84,045,42,37,21,315,42,60,10,109,,38,30,049,32*6B
$GBGSV,5,2,20,05,21,129,,12,28,057,43,25,39,179,39,13,40,074,44*63
$GBGSV,5,3,20,08,39,064,38,23,60,265,42,34,57,060,43,43,71,245,49*6F
$GBGSV,5,4,20,21,06,089,,02,06,107,,10,02,093,,28,09,240,*62
$GBGSV,5,5,20,44,05,062,,50,01,110,,56,06,077,,22,08,042,*67
$GPGGA,170017.00,,,,,0,00,,,M,,M,,*48
$PTNL,GGK,170017.00,010125,4742.4464484,N,01617.9726945,E,1,23,1.4,EHT668.9919,M*42
$GPGGQ,170017.00,010125,4742.4464484,N,01617.9726945,E,1,23,2.839,625.7808,M*3F
$GPGFA,170017.00,11.178,20.309,1.176,0.737,336.999,2.477,,VVV*0E
$GPLLK,170017.00,010125,,M,,M,1,23,1.6,,M*0D
$GNGMP,170017.00,,,,,DAAA,23,0.7,,,,*50
$GPGMP,170017.00,,,,,,07,,,,2.0,123*78
$GLGMP,170017.00,,,,,,04,,,,,*7B
$GAGMP,170017.00,,,,,,03,,,,,*71
$GBGMP,170017.00,,,,,,09,,,,,*78
$PSSN,SNC,[0,320435000,2347]*47
$GPZDA,170022.00,01,01,2025,,*65
$GPDTM,W84,,00.0000000,N,00.0000000,E,00.0000000,W84*5F
$GPRMC,170022.00,A,4742.4464538,N,01617.9727021,E,0.0,,010125,5.1,E,D*1B
$GPGLL,4742.4464538,N,01617.9727021,E,170022.00,A,D*6A
$GPGGA,170022.00,4742.4464538,N,01617.9727021,E,2,24,0.7,625.7845,M,43.2111,M,2.5,0123*4A
$GNGNS,170022.00,4742.4464538,N,01617.9727021,E,DAAA,24,0.7,625.7845,43.2111,,*51
$GPGNS,170022.00,,,,,,08,,,,2.5,123*74
$GLGNS,170022.00,,,,,,04,,,,,*7D
$GAGNS,170022.00,,,,,,03,,,,,*77
$GBGNS,170022.00,,,,,,09,,,,,*7E
$GPLLQ,170022.00,010125,,M,,M,1,24,2.244,,M*11
$GPVTG,,T,,M,0.00,N,0.01,K,D*27
$GPHDT,,T*1B
$GPTHS,,V*0E
$GPROT,,V*08
$PSSN,HRP,170022.00,010125,,,,,,,00,0,,*67
$PTNL,AVR,170022.00,,Yaw,,Tilt,,,,0,,00*31
$GPGSA,A,3,05,16,18,25,26,28,29,31,,,,,1.2,0.7,1.1*3D
$GPGSA,A,3,79,80,81,82,,,,,,,,,1.2,0.7,1.1*33
$GPGSA,A,3,15,21,27,,,,,,,,,,1.2,0.7,1.1*34
$GPGSA,A,3,08,11,12,13,23,25,34,37,43,,,,1.2,0.7,1.1*3D
$GPGST,170022.00,2.063,0.868,0.613,352.669,0.865,0.618,1.977*55
$GPGBS,170022.00,2.445,1.795,7.127,26,0.0001,1.706,0.759*59
$GPGRS,170022.00,1,0.9,-2.9,-0.2,-0.0,1.7,1.0,-1.5,-0.4,,,,*62
$GPGRS,170022.00,1,-1.3,-2.9,2.5,-1.0,,,,,,,,*6A
$GPGRS,170022.00,1,-0.5,-0.4,-1.2,,,,,,,,,*49
$GPGRS,170022.00,1,-0.4,-1.9,-2.7,-1.3,0.1,4.1,-0.4,-2.5,-1.2,,,*44
$GPGSV,4,1,15,18,63,182,51,05,28,069,41,16,23,305,42,20,14,037,25*7C
$GPGSV,4,2,15,25,28,136,36,28,31,221,43,31,41,253,42,26,54,297,39*7F
$GPGSV,4,3,15,29,58,064,47,23,04,159,,04,01,314,32,36,35,170,37*76
$GPGSV,4,4,15,34,31,208,35,49,34,195,36,61,03,257,*42
$GLGSV,3,1,10,81,71,025,49,80,57,314,48,83,12,227,,88,17,044,32*6B
$GLGSV,3,2,10,79,60,170,50,82,54,237,44,65,08,059,,72,09,006,31*6C
$GLGSV,3,3,10,73,04,328,33,78,10,154,*63
$GAGSV,2,1,08,27,77,141,43,34,26,045,34,30,24,128,28,13,39,198,31*6E
$GAGSV,2,2,08,21,46,303,44,15,71,098,48,04,03,328,29,06,01,351,*6B
$GBGSV,5,1,20,11,83,045,41,37,21,315,43,60,10,109,,38,30,049,33*6F
$GBGSV,5,2,20,05,21,129,,12,27,057,43,25,39,179,41,13,40,074,44*63
$GBGSV,5,3,20,08,39,064,39,23,60,265,42,34,57,060,42,43,71,245,49*6F
$GBGSV,5,4,20,21,06,089,,02,06,107,,10,02,093,,28,09,240,*62
$GBGSV,5,5,20,44,05,062,,50,01,110,,56,06,077,,22,08,042,*67
$GPGGA,170022.00,,,,,0,00,,,M,,M,,*4E
$PTNL,GGK,170022.00,010125,4742.4464538,N,01617.9727021,E,1,24,1.2,EHT668.9956,M*42
$GPGGQ,170022.00,010125,4742.4464538,N,01617.9727021,E,1,24,2.244,625.7845,M*3B
$GPGFA,170022.00,8.254,16.209,0.868,0.613,352.669,1.977,,VVV*35
$GPLLK,170022.00,010125,,M,,M,1,24,1.5,,M*0F
$GNGMP,170022.00,,,,,DAAA,24,0.7,,,,*51
$GPGMP,170022.00,,,,,,08,,,,2.5,123*74
$GLGMP,170022.00,,,,,,04,,,,,*7D
$GAGMP,170022.00,,,,,,03,,,,,*77
$GBGMP,170022.00,,,,,,09,,,,,*7E
$PSSN,SNC,[0,320440000,2347]*45
$GPZDA,170027.00,01,01,2025,,*60
$GPDTM,W84,,00.0000000,N,00.0000000,E,00.0000000,W84*5F
$GPRMC,170027.00,A,4742.4464592,N,01617.9727071,E,0.0,,010125,5.1,E,D*1B
$GPGLL,4742.4464592,N,01617.9727071,E,170027.00,A,D*6A
$GPGGA,170027.00,4742.4464592,N,01617.9727071,E,2,24,0.7,625.7975,M,43.2111,M,3.5,0123*49
$GNGNS,170027.00,4742.4464592,N,01617.9727071,E,DAAA,24,0.7,625.7975,43.2111,,*53
$GPGNS,170027.00,,,,,,08,,,,3.5,123*70
$GLGNS,170027.00,,,,,,04,,,,,*78
$GAGNS,170027.00,,,,,,03,,,,,*72
$GBGNS,170027.00,,,,,,09,,,,,*7B
$GPLLQ,170027.00,010125,,M,,M,1,24,2.438,,M*19
$GPVTG,,T,,M,0.00,N,0.00,K,D*26
$GPHDT,,T*1B
$GPTHS,,V*0E
$GPROT,,V*08
$PSSN,HRP,170027.00,010125,,,,,,,00,0,,*62
$PTNL,AVR,170027.00,,Yaw,,Tilt,,,,0,,00*34
$GPGSA,A,3,05,16,18,25,26,28,29,31,,,,,1.2,0.7,1.1*3D
$GPGSA,A,3,79,80,81,82,,,,,,,,,1.2,0.7,1.1*33
$GPGSA,A,3,15,21,27,,,,,,,,,,1.2,0.7,1.1*34
$GPGSA,A,3,08,11,12,13,23,25,34,37,43,,,,1.2,0.7,1.1*3D
$GPGST,170027.00,2.563,0.944,0.664,352.048,0.940,0.671,2.147*5E
$GPGBS,170027.00,2.461,1.814,7.221,28,0.0001,2.010,0.886*59
$GPGRS,170027.00,1,0.9,-1.5,-0.3,0.6,1.5,2.0,-1.4,-1.6,,,,*41
$GPGRS,170027.00,1,-0.4,-2.3,2.4,0.3,,,,,,,,*4D
$GPGRS,170027.00,1,-0.5,-0.9,-1.4,,,,,,,,,*47
$GPGRS,170027.00,1,-0.4,-2.5,-2.1,-0.9,-6.4,4.6,-0.4,-2.7,-0.6,,,*6D
$GPGSV,4,1,15,18,63,182,51,05,28,069,42,16,23,305,41,20,14,037,25*7C
$GPGSV,4,2,15,25,28,136,36,28,31,221,43,31,41,253,40,26,54,297,39*7D
$GPGSV,4,3,15,29,58,064,47,23,04,159,,04,01,314,35,36,35,170,38*7E
$GPGSV,4,4,15,34,31,208,35,49,34,195,36,61,03,257,*42
$GLGSV,3,1,10,81,71,025,48,80,57,314,48,83,12,227,,88,17,044,34*6C
$GLGSV,3,2,10,79,60,170,50,82,54,237,46,65,08,059,,72,09,006,30*6F
$GLGSV,3,3,10,73,04,328,32,78,10,154,*62
$GAGSV,2,1,08,27,77,141,42,34,26,045,33,30,24,128,29,13,39,198,34*6C
$GAGSV,2,2,08,21,46,303,45,15,71,098,48,04,03,328,29,06,01,351,*6A
$GBGSV,5,1,20,11,83,045,40,37,21,315,44,60,10,109,,38,30,049,34*6E
$GBGSV,5,2,20,05,21,129,,12,27,057,42,25,39,179,43,13,40,074,44*60
$GBGSV,5,3,20,08,39,064,39,23,60,265,42,34,57,060,43,43,71,245,49*6E
$GBGSV,5,4,20,21,06,089,,02,06,107,,10,02,093,,28,09,240,*62
$GBGSV,5,5,20,44,05,062,,50,01,110,,56,06,077,,22,08,042,*67
$GPGGA,170027.00,,,,,0,00,,,M,,M,,*4B
$PTNL,GGK,170027.00,010125,4742.4464592,N,01617.9727071,E,1,24,1.2,EHT669.0086,M*4E
$GPGGQ,170027.00,010125,4742.4464592,N,01617.9727071,E,1,24,2.438,625.7975,M*34
$GPGFA,170027.00,8.977,17.607,0.944,0.664,352.048,2.147,,VVV*33
$GPLLK,170027.00,010125,,M,,M,1,24,1.5,,M*0A
$GNGMP,170027.00,,,,,DAAA,24,0.7,,,,*54
$GPGMP,170027.00,,,,,,08,,,,3.5,123*70
$GLGMP,170027.00,,,,,,04,,,,,*78
$GAGMP,170027.00,,,,,,03,,,,,*72
$GBGMP,170027.00,,,,,,09,,,,,*7B
$PSSN,SNC,[0,320445000,2347]*40
$GPZDA,170032.00,01,01,2025,,*64
$GPDTM,W84,,00.0000000,N,00.0000000,E,00.0000000,W84*5F
$GPRMC,170032.00,A,4742.4464661,N,01617.9727094,E,0.0,,010125,5.1,E,D*1B
$GPGLL,4742.4464661,N,01617.9727094,E,170032.00,A,D*6A
$GPGGA,170032.00,4742.4464661,N,01617.9727094,E,2,23,0.7,625.8273,M,43.2111,M,1.7,0123*4C
$GNGNS,170032.00,4742.4464661,N,01617.9727094,E,DAAA,23,0.7,625.8273,43.2111,,*56
$GPGNS,170032.00,,,,,,07,,,,1.7,123*7B
$GLGNS,170032.00,,,,,,04,,,,,*7C
$GAGNS,170032.00,,,,,,04,,,,,*71
$GBGNS,170032.00,,,,,,08,,,,,*7E
$GPLLQ,170032.00,010125,,M,,M,1,23,2.582,,M*1A
$GPVTG,,T,,M,0.01,N,0.01,K,D*26
$GPHDT,,T*1B
$GPTHS,,V*0E
$GPROT,,V*08
$PSSN,HRP,170032.00,010125,,,,,,,00,0,,*66
$PTNL,AVR,170032.00,,Yaw,,Tilt,,,,0,,00*30
$GPGSA,A,3,05,16,18,25,26,28,29,,,,,,1.3,0.7,1.1*3E
$GPGSA,A,3,79,80,81,82,,,,,,,,,1.3,0.7,1.1*32
$GPGSA,A,3,13,15,21,27,,,,,,,,,1.3,0.7,1.1*37
$GPGSA,A,3,08,11,13,23,25,34,37,43,,,,,1.3,0.7,1.1*3F
$GPGST,170032.00,2.913,0.982,0.791,353.868,0.980,0.794,2.253*5B
$GPGBS,170032.00,2.433,2.046,7.113,29,0.0001,-1.780,0.728*7E
$GPGRS,170032.00,1,1.5,-1.6,-1.0,0.9,1.7,1.7,-1.8,,,,,*48
$GPGRS,170032.00,1,-0.7,-3.8,1.3,-0.5,,,,,,,,*6F
$GPGRS,170032.00,1,-1.7,-1.2,-1.9,-1.9,,,,,,,,*4C
$GPGRS,170032.00,1,-0.9,-4.7,-1.5,-5.6,4.7,-0.8,-3.6,-0.7,,,,*60
$GPGSV,4,1,15,18,63,182,50,05,28,069,43,16,23,305,41,20,14,037,22*7B
$GPGSV,4,2,15,25,28,136,36,28,31,221,42,31,41,253,35,26,54,297,42*72
$GPGSV,4,3,15,29,58,064,47,23,04,159,,04,01,314,35,36,35,170,38*7E
$GPGSV,4,4,15,34,31,208,34,49,34,195,36,61,03,257,*43
$GLGSV,3,1,10,81,70,025,48,80,57,314,47,83,12,227,,88,17,044,35*63
$GLGSV,3,2,10,79,60,170,50,82,54,237,47,65,08,059,,72,09,006,21*6E
$GLGSV,3,3,10,73,04,328,30,78,10,154,*60
$GAGSV,2,1,08,27,77,141,41,34,26,045,30,30,24,128,29,13,39,198,36*6E
$GAGSV,2,2,08,21,46,303,45,15,71,098,48,04,03,328,29,06,01,351,*6A
$GBGSV,5,1,20,11,83,045,38,37,21,315,44,60,10,109,,38,30,049,35*60
$GBGSV,5,2,20,05,21,129,,12,27,057,33,25,39,179,44,13,40,074,45*60
$GBGSV,5,3,20,08,39,064,39,23,60,265,42,34,57,060,43,43,71,245,49*6E
$GBGSV,5,4,20,21,06,089,,02,06,107,,10,02,094,,28,09,240,*65
$GBGSV,5,5,20,44,05,062,,50,01,110,,56,06,077,,22,08,042,*67
$GPGGA,170032.00,,,,,0,00,,,M,,M,,*4F
$PTNL,GGK,170032.00,010125,4742.4464661,N,01617.9727094,E,1,23,1.3,EHT669.0383,M*4E
$GPGGQ,170032.00,010125,4742.4464661,N,01617.9727094,E,1,23,2.582,625.8273,M*31
$GPGFA,170032.00,9.339,18.477,0.982,0.791,353.868,2.253,,VVV*30
$GPLLK,170032.00,010125,,M,,M,1,23,1.5,,M*09
$GNGMP,170032.00,,,,,DAAA,23,0.7,,,,*57
$GPGMP,170032.00,,,,,,07,,,,1.7,123*7B
$GLGMP,170032.00,,,,,,04,,,,,*7C
$GAGMP,170032.00,,,,,,04,,,,,*71
$GBGMP,170032.00,,,,,,08,,,,,*7E
$PSSN,SNC,[0,320450000,2347]*44
$GPZDA,170037.00,01,01,2025,,*61
$GPDTM,W84,,00.0000000,N,00.0000000,E,00.0000000,W84*5F
$GPRMC,170037.00,A,4742.4464705,N,01617.9727067,E,0.0,,010125,5.1,E,D*11
$GPGLL,4742.4464705,N,01617.9727067,E,170037.00,A,D*60
$GPGGA,170037.00,4742.4464705,N,01617.9727067,E,2,26,0.6,625.8693,M,43.2111,M,2.1,0123*4D
$GNGNS,170037.00,4742.4464705,N,01617.9727067,E,DAAA,26,0.6,625.8693,43.2111,,*52
$GPGNS,170037.00,,,,,,07,,,,2.1,123*7B
$GLGNS,170037.00,,,,,,05,,,,,*78
$GAGNS,170037.00,,,,,,04,,,,,*74
$GBGNS,170037.00,,,,,,10,,,,,*72
$GPLLQ,170037.00,010125,,M,,M,1,26,2.501,,M*11
$GPVTG,,T,,M,0.01,N,0.01,K,D*26
$GPHDT,,T*1B
$GPTHS,,V*0E
$GPROT,,V*08
$PSSN,HRP,170037.00,010125,,,,,,,00,0,,*63
$PTNL,AVR,170037.00,,Yaw,,Tilt,,,,0,,00*35
$GPGSA,A,3,05,16,18,25,26,28,29,,,,,,1.2,0.6,1.0*3F
$GPGSA,A,3,79,80,81,82,88,,,,,,,,1.2,0.6,1.0*33
$GPGSA,A,3,13,15,21,27,,,,,,,,,1.2,0.6,1.0*36
$GPGSA,A,3,08,11,12,13,23,25,34,37,38,43,,,1.2,0.6,1.0*36
$GPGST,170037.00,5.240,0.955,0.774,353.906,0.953,0.776,2.178*54
$GPGBS,170037.00,2.449,2.108,6.776,88,0.0001,19.242,6.432*63
$GPGRS,170037.00,1,1.2,-1.1,-1.0,0.7,0.8,1.3,-1.4,,,,,*45
$GPGRS,170037.00,1,-1.4,-5.2,0.5,-0.8,19.2,,,,,,,*7A
$GPGRS,170037.00,1,-1.2,-1.3,-1.8,-1.9,,,,,,,,*4C
$GPGRS,170037.00,1,-0.8,-5.9,-2.5,-1.3,-3.4,4.3,-1.3,-3.6,-3.9,-0.6,,*6B
$GPGSV,4,1,15,18,63,182,50,05,28,069,43,16,23,305,41,20,14,037,*7B
$GPGSV,4,2,15,25,28,136,36,28,31,221,41,31,41,253,35,26,54,296,43*71
$GPGSV,4,3,15,29,58,064,46,23,04,159,,04,01,314,32,36,35,170,38*78
$GPGSV,4,4,15,34,31,208,35,49,34,195,36,61,03,257,*42
$GLGSV,3,1,10,81,70,025,47,80,57,314,45,83,12,227,,88,17,045,36*6C
$GLGSV,3,2,10,79,60,170,49,82,54,237,47,65,08,059,,72,09,006,24*63
$GLGSV,3,3,10,73,05,328,30,78,10,154,20*63
$GAGSV,2,1,08,27,77,141,41,34,26,045,27,30,24,129,29,13,39,198,37*68
$GAGSV,2,2,08,21,46,303,45,15,71,097,48,04,03,328,28,06,01,351,*64
$GBGSV,5,1,20,11,83,045,37,37,21,315,44,60,10,109,,38,30,049,36*6C
$GBGSV,5,2,20,05,21,129,,12,27,057,41,25,39,179,45,13,40,074,45*64
$GBGSV,5,3,20,08,39,064,40,23,60,265,41,34,57,060,44,43,71,245,49*64
$GBGSV,5,4,20,21,06,089,,02,06,107,,10,02,094,,28,09,240,*65
$GBGSV,5,5,20,44,04,062,,50,01,110,,56,06,077,,22,08,042,*66
$GPGGA,170037.00,,,,,0,00,,,M,,M,,*4A
$PTNL,GGK,170037.00,010125,4742.4464705,N,01617.9727067,E,1,26,1.2,EHT669.0803,M*43
$GPGGQ,170037.00,010125,4742.4464705,N,01617.9727067,E,1,26,2.501,625.8693,M*3F
$GPGFA,170037.00,9.082,17.859,0.955,0.774,353.906,2.178,,VVV*3B
$GPLLK,170037.00,010125,,M,,M,1,26,1.4,,M*08
$GNGMP,170037.00,,,,,DAAA,26,0.6,,,,*56
$GPGMP,170037.00,,,,,,07,,,,2.1,123*7B
$GLGMP,170037.00,,,,,,05,,,,,*78
$GAGMP,170037.00,,,,,,04,,,,,*74
$GBGMP,170037.00,,,,,,10,,,,,*72
$PSSN,SNC,[0,320455000,2347]*41
$GPZDA,170042.00,01,01,2025,,*63
$GPDTM,W84,,00.0000000,N,00.0000000,E,00.0000000,W84*5F
$GPRMC,170042.00,A,4742.4464712,N,01617.9726994,E,0.0,,010125,5.1,E,D*11
$GPGLL,4742.4464712,N,01617.9726994,E,170042.00,A,D*60
$GPGGA,170042.00,4742.4464712,N,01617.9726994,E,2,27,0.6,625.8979,M,43.2111,M,2.5,0123*43
$GNGNS,170042.00,4742.4464712,N,01617.9726994,E,DAAA,27,0.6,625.8979,43.2111,,*58
$GPGNS,170042.00,,,,,,08,,,,2.5,123*72
$GLGNS,170042.00,,,,,,05,,,,,*7A
$GAGNS,170042.00,,,,,,04,,,,,*76
$GBGNS,170042.00,,,,,,10,,,,,*70
$GPLLQ,170042.00,010125,,M,,M,1,27,2.719,,M*19
$GPVTG,,T,,M,0.00,N,0.00,K,D*26
$GPHDT,,T*1B
$GPTHS,,V*0E
$GPROT,,V*08
$PSSN,HRP,170042.00,010125,,,,,,,00,0,,*61
$PTNL,AVR,170042.00,,Yaw,,Tilt,,,,0,,00*37
$GPGSA,A,3,05,16,18,25,26,28,29,31,,,,,1.1,0.6,1.0*3E
$GPGSA,A,3,79,80,81,82,88,,,,,,,,1.1,0.6,1.0*30
$GPGSA,A,3,13,15,21,27,,,,,,,,,1.1,0.6,1.0*35
$GPGSA,A,3,08,11,12,13,23,25,34,37,38,43,,,1.1,0.6,1.0*35
$GPGST,170042.00,5.230,1.057,0.752,352.151,1.052,0.759,2.390*54
$GPGBS,170042.00,2.383,1.774,6.938,88,0.0001,19.754,6.436*6C
$GPGRS,170042.00,1,1.2,-0.8,-0.5,-0.3,0.2,2.7,-0.3,-2.0,,,,*68
$GPGRS,170042.00,1,-1.9,-6.5,0.8,-0.7,19.8,,,,,,,*79
$GPGRS,170042.00,1,-0.7,-0.7,-1.0,-1.7,,,,,,,,*49
$GPGRS,170042.00,1,0.3,-4.0,6.0,-0.9,-0.5,3.2,-0.9,-3.4,-4.0,-0.7,,*62
$GPGSV,4,1,15,18,63,182,50,05,28,069,42,16,23,305,42,20,14,037,21*7A
$GPGSV,4,2,15,25,28,136,36,28,31,221,42,31,41,253,37,26,54,296,43*70
$GPGSV,4,3,15,29,58,064,46,23,04,159,,04,01,314,31,36,35,170,38*7B
$GPGSV,4,4,15,34,31,208,34,49,34,195,36,61,03,257,*43
$GLGSV,3,1,10,81,70,025,45,80,57,314,44,83,12,227,,88,17,045,36*6F
$GLGSV,3,2,10,79,60,170,48,82,54,237,49,65,08,059,,72,09,006,24*6C
$GLGSV,3,3,10,73,05,328,32,78,10,154,*63
$GAGSV,2,1,08,27,77,141,40,34,26,045,34,30,24,129,30,13,39,198,37*63
$GAGSV,2,2,08,21,46,303,46,15,71,097,47,04,03,328,27,06,01,351,*67
$GBGSV,5,1,20,11,83,045,38,37,21,315,43,60,10,109,,38,30,049,36*64
$GBGSV,5,2,20,05,21,129,,12,27,057,35,25,39,179,45,13,40,074,45*67
$GBGSV,5,3,20,08,39,064,40,23,60,265,40,34,57,060,44,43,71,246,48*67
$GBGSV,5,4,20,21,06,089,,02,06,107,,10,02,094,,28,09,240,*65
$GBGSV,5,5,20,44,04,062,,50,01,110,,56,06,077,,22,08,042,*66
$GPGGA,170042.00,,,,,0,00,,,M,,M,,*48
$PTNL,GGK,170042.00,010125,4742.4464712,N,01617.9726994,E,1,27,1.1,EHT669.1089,M*4A
$GPGGQ,170042.00,010125,4742.4464712,N,01617.9726994,E,1,27,2.719,625.8979,M*3E
$GPGFA,170042.00,10.050,19.597,1.057,0.752,352.151,2.390,,VVV*0E
$GPLLK,170042.00,010125,,M,,M,1,27,1.3,,M*0C
$GNGMP,170042.00,,,,,DAAA,27,0.6,,,,*55
$GPGMP,170042.00,,,,,,08,,,,2.5,123*72
$GLGMP,170042.00,,,,,,05,,,,,*7A
$GAGMP,170042.00,,,,,,04,,,,,*76
$GBGMP,170042.00,,,,,,10,,,,,*70
$PSSN,SNC,[0,320460000,2347]*47
$GPZDA,170047.00,01,01,2025,,*66
$GPDTM,W84,,00.0000000,N,00.0000000,E,00.0000000,W84*5F
$GPRMC,170047.00,A,4742.4464701,N,01617.9726775,E,0.0,,010125,5.1,E,D*17
$GPGLL,4742.4464701,N,01617.9726775,E,170047.00,A,D*66
$GPGGA,170047.00,4742.4464701,N,01617.9726775,E,2,26,0.6,625.9307,M,43.2111,M,3.4,0123*46
$GNGNS,170047.00,4742.4464701,N,01617.9726775,E,DAAA,26,0.6,625.9307,43.2111,,*5D
$GPGNS,170047.00,,,,,,07,,,,3.4,123*78
$GLGNS,170047.00,,,,,,05,,,,,*7F
$GAGNS,170047.00,,,,,,04,,,,,*73
$GBGNS,170047.00,,,,,,10,,,,,*75
$GPLLQ,170047.00,010125,,M,,M,1,26,2.581,,M*1E
$GPVTG,,T,,M,0.00,N,0.01,K,D*27
$GPHDT,,T*1B
$GPTHS,,V*0E
$GPROT,,V*08
$PSSN,HRP,170047.00,010125,,,,,,,00,0,,*64
$PTNL,AVR,170047.00,,Yaw,,Tilt,,,,0,,00*32
$GPGSA,A,3,05,16,18,25,26,29,31,,,,,,1.2,0.6,1.0*37
$GPGSA,A,3,79,80,81,82,88,,,,,,,,1.2,0.6,1.0*33
$GPGSA,A,3,13,15,21,27,,,,,,,,,1.2,0.6,1.0*36
$GPGSA,A,3,08,11,12,13,23,25,34,37,38,43,,,1.2,0.6,1.0*36
$GPGST,170047.00,5.487,1.037,0.707,5.518,1.034,0.710,2.256*53
$GPGBS,170047.00,3.527,2.464,6.309,88,0.0001,20.923,6.435*6E
$GPGRS,170047.00,1,1.7,-0.9,-0.5,1.4,-0.8,0.4,-0.8,,,,,*6E
$GPGRS,170047.00,1,-2.1,-7.4,0.4,-0.5,20.9,,,,,,,*72
$GPGRS,170047.00,1,0.1,-0.5,-0.5,-1.3,,,,,,,,*65
$GPGRS,170047.00,1,0.2,-2.2,5.4,-0.7,1.0,2.2,-0.6,-3.0,-3.9,-0.4,,*45
$GPGSV,4,1,15,18,63,182,50,05,28,069,42,16,23,305,43,20,14,037,22*78
$GPGSV,4,2,15,25,28,136,36,28,31,221,43,31,41,253,40,26,54,296,43*71
$GPGSV,4,3,15,29,58,064,47,23,04,159,,04,01,314,28,36,35,170,38*72
$GPGSV,4,4,15,34,31,208,35,49,34,195,36,61,03,257,*42
$GLGSV,3,1,10,81,70,025,45,80,57,314,42,83,12,228,,88,17,045,36*66
$GLGSV,3,2,10,79,60,170,48,82,54,237,49,65,08,059,,72,09,006,25*6D
$GLGSV,3,3,10,73,05,328,32,78,10,154,*63
$GAGSV,2,1,08,27,77,141,39,34,26,045,35,30,24,129,30,13,40,198,37*62
$GAGSV,2,2,08,21,46,303,46,15,71,097,47,04,03,328,24,06,01,351,*64
$GBGSV,5,1,20,11,83,045,39,37,21,315,42,60,10,109,,38,30,049,36*64
$GBGSV,5,2,20,05,21,129,,12,27,058,36,25,39,179,45,13,40,074,45*6B
$GBGSV,5,3,20,08,39,064,40,23,60,265,40,34,56,060,44,43,71,246,49*67
$GBGSV,5,4,20,21,06,089,,02,06,107,,10,02,094,,28,09,240,*65
$GBGSV,5,5,20,44,04,062,,50,01,110,,56,06,077,,22,08,042,*66
$GPGGA,170047.00,,,,,0,00,,,M,,M,,*4D
$PTNL,GGK,170047.00,010125,4742.4464701,N,01617.9726775,E,1,26,1.2,EHT669.1418,M*42
$GPGGQ,170047.00,010125,4742.4464701,N,01617.9726775,E,1,26,2.581,625.9307,M*38
$GPGFA,170047.00,9.858,18.496,1.037,0.707,5.518,2.256,,VVV*37
$GPLLK,170047.00,010125,,M,,M,1,26,1.4,,M*0F
$GNGMP,170047.00,,,,,DAAA,26,0.6,,,,*51
$GPGMP,170047.00,,,,,,07,,,,3.4,123*78
$GLGMP,170047.00,,,,,,05,,,,,*7F
$GAGMP,170047.00,,,,,,04,,,,,*73
$GBGMP,170047.00,,,,,,10,,,,,*75
$PSSN,SNC,[0,320465000,2347]*42
$GPZDA,170052.00,01,01,2025,,*62
$GPDTM,W84,,00.0000000,N,00.0000000,E,00.0000000,W84*5F
$GPRMC,170052.00,A,4742.4464770,N,01617.9726438,E,0.0,,010125,5.1,E,D*1F
$GPGLL,4742.4464770,N,01617.9726438,E,170052.00,A,D*6E
$GPGGA,170052.00,4742.4464770,N,01617.9726438,E,2,26,0.6,625.9740,M,43.2111,M,2.1,0123*4D
$GNGNS,170052.00,4742.4464770,N,01617.9726438,E,DAAA,26,0.6,625.9740,43.2111,,*52
$GPGNS,170052.00,,,,,,07,,,,2.1,123*78
$GLGNS,170052.00,,,,,,05,,,,,*7B
$GAGNS,170052.00,,,,,,04,,,,,*77
$GBGNS,170052.00,,,,,,10,,,,,*71
$GPLLQ,170052.00,010125,,M,,M,1,26,3.005,,M*12
$GPVTG,,T,,M,0.00,N,0.01,K,D*27
$GPHDT,,T*1B
$GPTHS,,V*0E
$GPROT,,V*08
$PSSN,HRP,170052.00,010125,,,,,,,00,0,,*60
$PTNL,AVR,170052.00,,Yaw,,Tilt,,,,0,,00*36
$GPGSA,A,3,05,16,18,25,26,29,31,,,,,,1.2,0.6,1.0*37
$GPGSA,A,3,79,80,81,82,88,,,,,,,,1.2,0.6,1.0*33
$GPGSA,A,3,13,15,21,27,,,,,,,,,1.2,0.6,1.0*36
$GPGSA,A,3,08,11,12,13,23,25,34,37,38,43,,,1.2,0.6,1.0*36
$GPGST,170052.00,5.809,1.207,0.827,7.155,1.202,0.834,2.625*50
$GPGBS,170052.00,3.355,2.433,6.360,88,0.0001,22.648,6.434*65
$GPGRS,170052.00,1,1.0,-1.7,-0.6,2.5,-1.1,0.4,-0.3,,,,,*60
$GPGRS,170052.00,1,-2.6,-8.2,0.9,-1.1,22.6,,,,,,,*7D
$GPGRS,170052.00,1,0.4,-1.0,-0.6,-1.6,,,,,,,,*66
$GPGRS,170052.00,1,0.3,-1.8,0.0,-1.2,1.9,1.3,-0.9,-2.8,-4.1,-0.1,,*4B
$GPGSV,4,1,15,18,63,182,50,05,28,069,42,16,23,305,44,20,14,037,23*7E
$GPGSV,4,2,15,25,28,136,35,28,31,221,42,31,41,253,42,26,54,296,43*71
$GPGSV,4,3,15,29,58,064,48,23,04,159,,04,01,314,27,36,35,170,37*7D
$GPGSV,4,4,15,34,31,208,35,49,34,195,36,61,03,257,*42
$GLGSV,3,1,10,81,70,025,45,80,57,314,39,83,12,228,,88,16,045,36*6B
$GLGSV,3,2,10,79,60,170,49,82,54,237,49,65,08,059,,72,09,006,22*6B
$GLGSV,3,3,10,73,05,328,35,78,09,154,*6C
$GAGSV,2,1,08,27,77,141,37,34,26,045,26,30,24,129,30,13,40,198,36*6F
$GAGSV,2,2,08,21,46,303,45,15,71,097,47,04,03,328,35,06,01,351,*67
$GBGSV,5,1,20,11,83,045,41,37,21,315,41,60,10,109,,38,30,049,37*69
$GBGSV,5,2,20,05,21,129,,12,27,058,36,25,39,179,45,13,40,074,45*6B
$GBGSV,5,3,20,08,39,063,40,23,60,265,41,34,56,060,45,43,71,246,49*60
$GBGSV,5,4,20,21,06,089,,02,06,107,,10,02,094,,28,09,240,*65
$GBGSV,5,5,20,44,04,062,,50,01,110,,56,06,077,,22,08,041,*65
$GPGGA,170052.00,,,,,0,00,,,M,,M,,*49
$PTNL,GGK,170052.00,010125,4742.4464770,N,01617.9726438,E,1,26,1.2,EHT669.1850,M*4A
$GPGGQ,170052.00,010125,4742.4464770,N,01617.9726438,E,1,26,3.005,625.9740,M*3F
$GPGFA,170052.00,11.476,21.524,1.207,0.827,7.155,2.625,,VVV*0B
$GPLLK,170052.00,010125,,M,,M,1,26,1.4,,M*0B
$GNGMP,170052.00,,,,,DAAA,26,0.6,,,,*55
$GPGMP,170052.00,,,,,,07,,,,2.1,123*78
$GLGMP,170052.00,,,,,,05,,,,,*7B
$GAGMP,170052.00,,,,,,04,,,,,*77
$GBGMP,170052.00,,,,,,10,,,,,*71
$PSSN,SNC,[0,320470000,2347]*46
$GPZDA,170057.00,01,01,2025,,*67
$GPDTM,W84,,00.0000000,N,00.0000000,E,00.0000000,W84*5F
$GPRMC,170057.00,A,4742.4464774,N,01617.9726255,E,0.0,,010125,5.1,E,D*13
$GPGLL,4742.4464774,N,01617.9726255,E,170057.00,A,D*62
$GPGGA,170057.00,4742.4464774,N,01617.9726255,E,2,24,0.8,625.9962,M,43.2111,M,2.0,0123*42
$GNGNS,170057.00,4742.4464774,N,01617.9726255,E,DAAA,24,0.8,625.9962,43.2111,,*5C
$GPGNS,170057.00,,,,,,06,,,,2.0,123*7D
$GLGNS,170057.00,,,,,,05,,,,,*7E
$GAGNS,170057.00,,,,,,03,,,,,*75
$GBGNS,170057.00,,,,,,10,,,,,*74
$GPLLQ,170057.00,010125,,M,,M,1,24,3.249,,M*1F
$GPVTG,,T,,M,0.00,N,0.01,K,D*27
$GPHDT,,T*1B
$GPTHS,,V*0E
$GPROT,,V*08
$PSSN,HRP,170057.00,010125,,,,,,,00,0,,*65
$PTNL,AVR,170057.00,,Yaw,,Tilt,,,,0,,00*33
$GPGSA,A,3,05,16,18,26,29,31,,,,,,,1.4,0.8,1.2*3A
$GPGSA,A,3,79,80,81,82,88,,,,,,,,1.4,0.8,1.2*39
$GPGSA,A,3,15,21,27,,,,,,,,,,1.4,0.8,1.2*3E
$GPGSA,A,3,08,11,12,13,23,25,34,37,38,43,,,1.4,0.8,1.2*3C
$GPGST,170057.00,5.971,1.406,0.725,350.864,1.393,0.750,2.838*5D
$GPGBS,170057.00,5.258,2.809,10.589,88,0.0001,22.484,6.440*58
$GPGRS,170057.00,1,1.4,-1.7,-0.5,-0.4,0.3,0.1,,,,,,*67
$GPGRS,170057.00,1,-2.7,-6.1,2.9,-1.5,22.5,,,,,,,*71
$GPGRS,170057.00,1,-1.2,-0.3,-1.3,,,,,,,,,*4B
$GPGRS,170057.00,1,0.7,-1.1,-0.9,-1.1,3.7,1.2,-0.9,-2.0,-3.6,0.2,,*4F
$GPGSV,4,1,15,18,63,182,51,05,28,069,42,16,23,305,45,20,14,037,23*7E
$GPGSV,4,2,15,25,28,136,33,28,31,221,40,31,41,253,43,26,54,296,43*74
$GPGSV,4,3,15,29,58,064,49,23,04,159,,04,01,314,29,36,35,170,37*72
$GPGSV,4,4,15,34,31,208,35,49,34,195,36,61,03,257,*42
$GLGSV,3,1,10,81,70,025,45,80,57,314,40,83,12,228,,88,16,045,36*65
$GLGSV,3,2,10,79,60,170,49,82,54,237,49,65,08,059,,72,09,006,23*6A
$GLGSV,3,3,10,73,05,328,35,78,09,154,*6C
$GAGSV,2,1,08,27,77,141,36,34,26,045,35,30,24,129,28,13,40,198,34*67
$GAGSV,2,2,08,21,46,303,45,15,71,097,46,04,03,328,36,06,01,351,*65
$GBGSV,5,1,20,11,83,045,41,37,21,315,40,60,10,109,,38,30,049,38*67
$GBGSV,5,2,20,05,21,129,,12,27,058,37,25,39,179,44,13,40,074,46*68
$GBGSV,5,3,20,08,39,063,40,34,56,060,44,23,60,265,43,43,71,246,49*63
$GBGSV,5,4,20,21,06,089,,02,06,107,,10,02,094,,28,09,240,*65
$GBGSV,5,5,20,44,04,062,,50,01,110,,56,06,077,,22,08,041,*65
$GPGGA,170057.00,,,,,0,00,,,M,,M,,*4C
$PTNL,GGK,170057.00,010125,4742.4464774,N,01617.9726255,E,1,24,1.4,EHT669.2073,M*48
$GPGGQ,170057.00,010125,4742.4464774,N,01617.9726255,E,1,24,3.249,625.9962,M*35
$GPGFA,170057.00,13.364,23.273,1.406,0.725,350.864,2.838,,VVV*0D
$GPLLK,170057.00,010125,,M,,M,1,24,1.7,,M*0F
$GNGMP,170057.00,,,,,DAAA,24,0.8,,,,*5C
$GPGMP,170057.00,,,,,,06,,,,2.0,123*7D
$GLGMP,170057.00,,,,,,05,,,,,*7E
$GAGMP,170057.00,,,,,,03,,,,,*75
$GBGMP,170057.00,,,,,,10,,,,,*74
$PSSN,SNC,[0,320475000,2347]*43
$GPZDA,170102.00,01,01,2025,,*66
$GPDTM,W84,,00.0000000,N,00.0000000,E,00.0000000,W84*5F
$GPRMC,170102.00,A,4742.4464828,N,01617.9726172,E,0.0,,010125,5.1,E,D*12
$GPGLL,4742.4464828,N,01617.9726172,E,170102.00,A,D*63
$GPGGA,170102.00,4742.4464828,N,01617.9726172,E,2,25,0.7,626.0322,M,43.2111,M,2.4,0123*4D
$GNGNS,170102.00,4742.4464828,N,01617.9726172,E,DAAA,25,0.7,626.0322,43.2111,,*57
$GPGNS,170102.00,,,,,,07,,,,2.4,123*79
$GLGNS,170102.00,,,,,,05,,,,,*7F
$GAGNS,170102.00,,,,,,03,,,,,*74
$GBGNS,170102.00,,,,,,10,,,,,*75
$GPLLQ,170102.00,010125,,M,,M,1,25,3.283,,M*19
$GPVTG,,T,,M,0.00,N,0.00,K,D*26
$GPHDT,,T*1B
$GPTHS,,V*0E
$GPROT,,V*08
$PSSN,HRP,170102.00,010125,,,,,,,00,0,,*64
$PTNL,AVR,170102.00,,Yaw,,Tilt,,,,0,,00*32
$GPGSA,A,3,05,16,18,26,28,29,31,,,,,,1.3,0.7,1.1*3B
$GPGSA,A,3,79,80,81,82,88,,,,,,,,1.3,0.7,1.1*32
$GPGSA,A,3,15,21,27,,,,,,,,,,1.3,0.7,1.1*35
$GPGSA,A,3,08,11,12,13,23,25,34,37,38,43,,,1.3,0.7,1.1*37
$GPGST,170102.00,5.957,1.392,0.844,337.295,1.324,0.946,2.851*55
$GPGBS,170102.00,3.716,2.815,7.897,88,0.0001,22.386,6.439*62
$GPGRS,170102.00,1,1.4,-2.4,-1.2,-0.5,2.5,-0.3,0.1,,,,,*65
$GPGRS,170102.00,1,-2.7,-4.5,6.5,-1.6,22.4,,,,,,,*7C
$GPGRS,170102.00,1,-1.7,-0.7,-0.7,,,,,,,,,*4E
$GPGRS,170102.00,1,-0.3,-1.1,-0.7,-1.7,2.8,-0.1,-1.9,-4.1,-3.6,0.3,,*49
$GPGSV,4,1,15,18,63,182,51,05,28,069,42,16,24,305,45,20,14,037,23*79
$GPGSV,4,2,15,25,28,136,32,28,31,221,36,31,41,253,44,26,54,296,42*72
$GPGSV,4,3,15,29,58,064,49,23,04,159,,04,01,313,32,36,35,170,37*7F
$GPGSV,4,4,15,34,31,208,35,49,34,195,37,61,03,257,*43
$GLGSV,3,1,10,81,70,025,44,80,57,314,41,83,12,228,,88,16,045,35*66
$GLGSV,3,2,10,79,60,170,50,82,54,237,49,65,08,059,,72,09,006,29*68
$GLGSV,3,3,10,73,05,328,35,78,09,154,*6C
$GAGSV,2,1,08,27,77,141,36,34,26,045,35,30,24,129,27,13,40,198,33*6F
$GAGSV,2,2,08,21,46,303,44,15,71,097,46,04,03,328,36,06,01,351,*64
$GBGSV,5,1,20,11,83,045,41,37,21,315,39,60,10,109,,38,30,049,38*69
$GBGSV,5,2,20,05,21,129,,12,27,058,37,25,39,179,44,13,40,074,46*68
$GBGSV,5,3,20,08,39,063,40,34,56,060,44,23,60,265,45,43,71,246,50*6D
$GBGSV,5,4,20,21,06,089,,02,06,107,,10,02,094,,28,09,240,*65
$GBGSV,5,5,20,44,04,062,,50,01,110,,56,06,077,,22,08,041,*65
$GPGGA,170102.00,,,,,0,00,,,M,,M,,*4D
$PTNL,GGK,170102.00,010125,4742.4464828,N,01617.9726172,E,1,25,1.3,EHT669.2433,M*4F
$GPGGQ,170102.00,010125,4742.4464828,N,01617.9726172,E,1,25,3.283,626.0322,M*37
$GPGFA,170102.00,13.230,23.376,1.392,0.844,337.295,2.851,,VVV*00
$GPLLK,170102.00,010125,,M,,M,1,25,1.5,,M*0D
$GNGMP,170102.00,,,,,DAAA,25,0.7,,,,*53
$GPGMP,170102.00,,,,,,07,,,,2.4,123*79
$GLGMP,170102.00,,,,,,05,,,,,*7F
$GAGMP,170102.00,,,,,,03,,,,,*74
$GBGMP,170102.00,,,,,,10,,,,,*75
$PSSN,SNC,[0,320480000,2347]*49
$GPZDA,170107.00,01,01,2025,,*63
$GPDTM,W84,,00.0000000,N,00.0000000,E,00.0000000,W84*5F
$GPRMC,170107.00,A,4742.4464823,N,01617.9726131,E,0.0,,010125,5.1,E,D*1B
$GPGLL,4742.4464823,N,01617.9726131,E,170107.00,A,D*6A
$GPGGA,170107.00,4742.4464823,N,01617.9726131,E,2,23,0.8,626.0472,M,43.2111,M,3.3,0123*49
$GNGNS,170107.00,4742.4464823,N,01617.9726131,E,DAAA,23,0.8,626.0472,43.2111,,*55
$GPGNS,170107.00,,,,,,06,,,,3.3,123*7B
$GLGNS,170107.00,,,,,,04,,,,,*7B
$GAGNS,170107.00,,,,,,03,,,,,*71
$GBGNS,170107.00,,,,,,10,,,,,*70
$GPLLQ,170107.00,010125,,M,,M,1,23,3.314,,M*15
$GPVTG,,T,,M,0.00,N,0.01,K,D*27
$GPHDT,,T*1B
$GPTHS,,V*0E
$GPROT,,V*08
$PSSN,HRP,170107.00,010125,,,,,,,00,0,,*61
$PTNL,AVR,170107.00,,Yaw,,Tilt,,,,0,,00*37
$GPGSA,A,3,05,16,18,26,29,31,,,,,,,1.5,0.8,1.2*3B
$GPGSA,A,3,79,80,81,82,,,,,,,,,1.5,0.8,1.2*38
$GPGSA,A,3,15,21,27,,,,,,,,,,1.5,0.8,1.2*3F
$GPGSA,A,3,08,11,12,13,23,25,34,37,38,43,,,1.5,0.8,1.2*3D
$GPGST,170107.00,3.023,1.455,0.728,350.216,1.439,0.759,2.887*5F
$GPGBS,170107.00,5.401,2.878,10.900,31,0.0001,1.929,0.807*6D
$GPGRS,170107.00,1,1.3,-2.7,-1.3,-0.1,0.0,1.9,,,,,,*6F
$GPGRS,170107.00,1,-1.2,-3.1,8.6,-1.0,,,,,,,,*6D
$GPGRS,170107.00,1,-1.3,0.1,-0.0,,,,,,,,,*63
$GPGRS,170107.00,1,-0.1,-1.3,0.3,-1.2,2.0,-1.0,-1.9,-5.1,-2.6,0.3,,*68
$GPGSV,4,1,15,18,63,182,51,05,28,069,40,16,24,305,45,20,14,037,22*7A
$GPGSV,4,2,15,25,28,136,31,28,31,221,28,31,41,253,45,26,54,296,42*7F
$GPGSV,4,3,15,29,58,064,50,23,04,159,,04,01,313,32,36,35,170,38*78
$GPGSV,4,4,15,34,31,208,34,49,34,195,36,61,03,257,*43
$GLGSV,3,1,10,81,70,025,42,80,57,314,42,83,13,228,,88,16,045,33*64
$GLGSV,3,2,10,79,60,170,51,82,54,238,49,65,08,059,,72,09,006,22*6D
$GLGSV,3,3,10,73,05,328,34,78,09,154,19*65
$GAGSV,2,1,08,27,77,141,37,34,26,045,35,30,24,129,28,13,40,198,33*61
$GAGSV,2,2,08,21,46,303,44,15,71,097,45,04,03,328,24,06,01,351,*64
$GBGSV,5,1,20,11,83,045,41,37,21,315,38,60,10,109,,38,30,049,39*69
$GBGSV,5,2,20,05,21,129,,12,27,058,37,25,39,179,43,13,40,074,46*6F
$GBGSV,5,3,20,08,39,063,40,34,56,060,44,23,60,265,46,43,71,246,50*6E
$GBGSV,5,4,20,21,06,089,,02,06,107,,10,02,094,,28,09,240,*65
$GBGSV,5,5,20,44,04,062,,50,01,110,,56,06,077,,22,08,041,*65
$GPGGA,170107.00,,,,,0,00,,,M,,M,,*48
$PTNL,GGK,170107.00,010125,4742.4464823,N,01617.9726131,E,1,23,1.5,EHT669.2583,M*4C
$GPGGQ,170107.00,010125,4742.4464823,N,01617.9726131,E,1,23,3.314,626.0472,M*35
$GPGFA,170107.00,13.834,23.674,1.455,0.728,350.216,2.887,,VVV*04
$GPLLK,170107.00,010125,,M,,M,1,23,1.8,,M*03
$GNGMP,170107.00,,,,,DAAA,23,0.8,,,,*5F
$GPGMP,170107.00,,,,,,06,,,,3.3,123*7B
$GLGMP,170107.00,,,,,,04,,,,,*7B
$GAGMP,170107.00,,,,,,03,,,,,*71
$GBGMP,170107.00,,,,,,10,,,,,*70
$PSSN,SNC,[0,320485000,2347]*4C
$GPZDA,170112.00,01,01,2025,,*67
$GPDTM,W84,,00.0000000,N,00.0000000,E,00.0000000,W84*5F
$GPRMC,170112.00,A,4742.4464792,N,01617.9726089,E,0.0,,010125,5.1,E,D*18
$GPGLL,4742.4464792,N,01617.9726089,E,170112.00,A,D*69
$GPGGA,170112.00,4742.4464792,N,01617.9726089,E,2,23,0.8,626.0551,M,43.2111,M,2.3,0123*4B
$GNGNS,170112.00,4742.4464792,N,01617.9726089,E,DAAA,23,0.8,626.0551,43.2111,,*56
$GPGNS,170112.00,,,,,,06,,,,2.3,123*7E
$GLGNS,170112.00,,,,,,04,,,,,*7F
$GAGNS,170112.00,,,,,,03,,,,,*75
$GBGNS,170112.00,,,,,,10,,,,,*74
$GPLLQ,170112.00,010125,,M,,M,1,23,2.988,,M*1F
$GPVTG,,T,,M,0.01,N,0.01,K,D*26
$GPHDT,,T*1B
$GPTHS,,V*0E
$GPROT,,V*08
$PSSN,HRP,170112.00,010125,,,,,,,00,0,,*65
$PTNL,AVR,170112.00,,Yaw,,Tilt,,,,0,,00*33
$GPGSA,A,3,05,16,18,26,29,31,,,,,,,1.5,0.8,1.2*3B
$GPGSA,A,3,79,80,81,82,,,,,,,,,1.5,0.8,1.2*38
$GPGSA,A,3,15,21,27,,,,,,,,,,1.5,0.8,1.2*3F
$GPGSA,A,3,08,11,12,13,23,25,34,37,38,43,,,1.5,0.8,1.2*3D
$GPGST,170112.00,1.994,1.294,0.662,351.033,1.282,0.685,2.610*5A
$GPGBS,170112.00,5.225,2.882,10.694,18,0.0001,-1.341,0.642*43
$GPGRS,170112.00,1,1.2,-2.7,-1.3,0.5,0.0,1.6,,,,,,*4C
$GPGRS,170112.00,1,-0.8,-0.2,-1.7,-0.9,,,,,,,,*4F
$GPGRS,170112.00,1,-1.0,0.6,0.4,,,,,,,,,*4A
$GPGRS,170112.00,1,-0.2,-0.7,0.3,-1.0,2.0,-2.7,-2.0,-4.6,-2.5,0.4,,*64
$GPGSV,4,1,15,18,63,182,50,05,28,069,35,16,24,305,44,20,14,037,*78
$GPGSV,4,2,15,25,28,136,32,28,31,221,34,31,41,253,45,26,54,296,43*70
$GPGSV,4,3,15,29,58,064,50,23,04,159,,04,01,313,33,36,35,170,38*79
$GPGSV,4,4,15,34,31,208,34,49,34,195,36,61,03,257,*43
$GLGSV,3,1,10,81,70,025,42,80,57,314,44,83,13,228,,88,16,045,29*69
$GLGSV,3,2,10,79,60,170,51,82,54,238,50,65,08,059,,72,09,006,28*6F
$GLGSV,3,3,10,73,05,328,33,78,09,154,21*69
$GAGSV,2,1,08,27,77,141,37,34,26,045,28,30,24,129,27,13,40,198,33*62
$GAGSV,2,2,08,21,46,303,43,15,71,097,45,04,03,328,26,06,01,351,*61
$GBGSV,5,1,20,11,83,045,42,37,21,315,39,60,10,109,,38,30,049,39*6B
$GBGSV,5,2,20,05,21,129,,12,27,058,38,25,39,179,41,13,40,074,46*62
$GBGSV,5,3,20,08,39,063,40,23,60,264,45,34,56,060,44,43,71,246,50*6C
$GBGSV,5,4,20,21,06,089,,02,06,107,,10,02,094,,28,09,240,*65
$GBGSV,5,5,20,44,04,062,,50,01,110,,56,06,077,,22,08,041,*65
$GPGGA,170112.00,,,,,0,00,,,M,,M,,*4C
$PTNL,GGK,170112.00,010125,4742.4464792,N,01617.9726089,E,1,23,1.5,EHT669.2662,M*43
$GPGGQ,170112.00,010125,4742.4464792,N,01617.9726089,E,1,23,2.988,626.0551,M*38
$GPGFA,170112.00,12.301,21.404,1.294,0.662,351.033,2.610,,VVV*0B
$GPLLK,170112.00,010125,,M,,M,1,23,1.8,,M*07
$GNGMP,170112.00,,,,,DAAA,23,0.8,,,,*5B
$GPGMP,170112.00,,,,,,06,,,,2.3,123*7E
$GLGMP,170112.00,,,,,,04,,,,,*7F
$GAGMP,170112.00,,,,,,03,,,,,*75
$GBGMP,170112.00,,,,,,10,,,,,*74
$PSSN,SNC,[0,320490000,2347]*48
$GPZDA,170117.00,01,01,2025,,*62
$GPDTM,W84,,00.0000000,N,00.0000000,E,00.0000000,W84*5F
$GPRMC,170117.00,A,4742.4464742,N,01617.9726159,E,0.0,,010125,5.1,E,D*1C
$GPGLL,4742.4464742,N,01617.9726159,E,170117.00,A,D*6D
$GPGGA,170117.00,4742.4464742,N,01617.9726159,E,2,22,0.8,626.0514,M,43.2111,M,1.6,0123*49
$GNGNS,170117.00,4742.4464742,N,01617.9726159,E,DAAA,22,0.8,626.0514,43.2111,,*52
$GPGNS,170117.00,,,,,,05,,,,1.6,123*7E
$GLGNS,170117.00,,,,,,04,,,,,*7A
$GAGNS,170117.00,,,,,,03,,,,,*70
$GBGNS,170117.00,,,,,,10,,,,,*71
$GPLLQ,170117.00,010125,,M,,M,1,22,4.497,,M*1E
$GPVTG,,T,,M,0.01,N,0.01,K,D*26
$GPHDT,,T*1B
$GPTHS,,V*0E
$GPROT,,V*08
$PSSN,HRP,170117.00,010125,,,,,,,00,0,,*60
$PTNL,AVR,170117.00,,Yaw,,Tilt,,,,0,,00*36
$GPGSA,A,3,16,18,26,29,31,,,,,,,,1.5,0.8,1.3*3F
$GPGSA,A,3,79,80,81,82,,,,,,,,,1.5,0.8,1.3*39
$GPGSA,A,3,15,21,27,,,,,,,,,,1.5,0.8,1.3*3E
$GPGSA,A,3,08,11,12,13,23,25,34,37,38,43,,,1.5,0.8,1.3*3C
$GPGST,170117.00,2.105,1.391,0.961,327.448,1.282,1.103,4.167*54
$GPGBS,170117.00,6.274,5.714,20.749,26,0.0001,1.693,0.728*63
$GPGRS,170117.00,1,-2.8,-1.2,1.7,0.3,0.6,,,,,,,*6B
$GPGRS,170117.00,1,-0.6,0.8,-3.2,-1.2,,,,,,,,*6E
$GPGRS,170117.00,1,-0.8,0.5,0.8,,,,,,,,,*49
$GPGRS,170117.00,1,0.3,-0.3,0.7,-0.9,2.4,-3.8,-2.2,-3.0,-1.9,1.0,,*46
$GPGSV,4,1,15,18,63,182,48,05,28,069,34,16,24,305,44,20,14,037,25*77
$GPGSV,4,2,15,25,28,136,33,28,31,221,26,31,41,253,46,26,54,296,44*76
$GPGSV,4,3,15,29,57,064,50,23,04,159,,04,01,313,31,36,35,170,38*74
$GPGSV,4,4,15,34,31,208,34,49,34,195,36,61,03,257,*43
$GLGSV,3,1,10,81,70,025,36,80,57,313,47,83,13,228,,88,16,045,26*61
$GLGSV,3,2,10,79,60,170,51,82,54,238,48,65,08,059,,72,09,006,28*66
$GLGSV,3,3,10,73,05,328,35,78,09,154,*6C
$GAGSV,2,1,08,27,77,141,39,34,26,045,30,30,24,129,28,13,40,198,34*6D
$GAGSV,2,2,08,21,46,303,43,15,71,097,45,04,03,328,28,06,01,351,*6F
$GBGSV,5,1,20,11,83,045,43,37,21,315,41,60,10,109,,38,30,049,39*65
$GBGSV,5,2,20,05,21,129,,12,27,058,38,25,39,179,39,13,40,074,46*6D
$GBGSV,5,3,20,08,39,063,39,23,60,264,45,34,56,060,45,43,71,246,50*63
$GBGSV,5,4,20,21,06,089,,02,06,107,,10,02,094,,28,09,240,*65
$GBGSV,5,5,20,44,04,062,,50,01,110,,56,06,077,,22,08,041,*65
$GPGGA,170117.00,,,,,0,00,,,M,,M,,*49
$PTNL,GGK,170117.00,010125,4742.4464742,N,01617.9726159,E,1,22,1.5,EHT669.2625,M*45
$GPGGQ,170117.00,010125,4742.4464742,N,01617.9726159,E,1,22,4.497,626.0514,M*39
$GPGFA,170117.00,13.226,34.173,1.391,0.961,327.448,4.167,,VVV*0A
$GPLLK,170117.00,010125,,M,,M,1,22,1.8,,M*03
$GNGMP,170117.00,,,,,DAAA,22,0.8,,,,*5F
$GPGMP,170117.00,,,,,,05,,,,1.6,123*7E
$GLGMP,170117.00,,,,,,04,,,,,*7A
$GAGMP,170117.00,,,,,,03,,,,,*70
$GBGMP,170117.00,,,,,,10,,,,,*71
$PSSN,SNC,[0,320495000,2347]*4D
$GPZDA,170122.00,01,01,2025,,*64
$GPDTM,W84,,00.0000000,N,00.0000000,E,00.0000000,W84*5F
$GPRMC,170122.00,A,4742.4464665,N,01617.9726159,E,0.0,,010125,5.1,E,D*1E
$GPGLL,4742.4464665,N,01617.9726159,E,170122.00,A,D*6F
$GPGGA,170122.00,4742.4464665,N,01617.9726159,E,2,23,0.7,626.0394,M,43.2111,M,2.7,0123*49
$GNGNS,170122.00,4742.4464665,N,01617.9726159,E,DAAA,23,0.7,626.0394,43.2111,,*50
$GPGNS,170122.00,,,,,,06,,,,2.7,123*79
$GLGNS,170122.00,,,,,,04,,,,,*7C
$GAGNS,170122.00,,,,,,03,,,,,*76
$GBGNS,170122.00,,,,,,10,,,,,*77
$GPLLQ,170122.00,010125,,M,,M,1,23,4.268,,M*1F
$GPVTG,,T,,M,0.00,N,0.01,K,D*27
$GPHDT,,T*1B
$GPTHS,,V*0E
$GPROT,,V*08
$PSSN,HRP,170122.00,010125,,,,,,,00,0,,*66
$PTNL,AVR,170122.00,,Yaw,,Tilt,,,,0,,00*30
$GPGSA,A,3,16,18,26,28,29,31,,,,,,,1.4,0.7,1.2*3A
$GPGSA,A,3,79,80,81,82,,,,,,,,,1.4,0.7,1.2*36
$GPGSA,A,3,15,21,27,,,,,,,,,,1.4,0.7,1.2*31
$GPGSA,A,3,08,11,12,13,23,25,34,37,38,43,,,1.4,0.7,1.2*33
$GPGST,170122.00,1.931,1.283,0.848,312.228,1.066,1.108,3.982*57
$GPGBS,170122.00,3.533,5.103,11.560,26,0.0001,1.830,0.745*63
$GPGRS,170122.00,1,-3.3,-1.0,1.8,0.4,-0.1,-0.1,,,,,,*45
$GPGRS,170122.00,1,-0.6,-0.2,-0.2,-1.7,,,,,,,,*49
$GPGRS,170122.00,1,-0.9,0.3,0.4,,,,,,,,,*44
$GPGRS,170122.00,1,0.4,-0.4,1.0,-1.2,1.9,-4.4,-1.3,-2.5,-2.1,1.3,,*47
$GPGSV,4,1,15,18,63,182,47,05,28,069,36,16,24,305,43,20,13,037,*7D
$GPGSV,4,2,15,25,28,136,34,28,31,221,35,31,41,252,45,26,54,296,44*71
$GPGSV,4,3,15,29,57,064,50,23,04,159,,04,01,313,34,36,35,170,38*71
$GPGSV,4,4,15,34,31,208,34,49,34,195,36,61,03,257,*43
$GLGSV,3,1,10,81,70,025,38,80,57,313,49,83,13,228,,88,16,045,26*61
$GLGSV,3,2,10,79,60,170,50,82,54,238,48,65,08,059,,72,09,006,26*69
$GLGSV,3,3,10,73,05,328,28,78,09,154,*60
$GAGSV,2,1,08,27,77,141,39,34,26,045,31,30,24,129,27,13,40,198,34*63
$GAGSV,2,2,08,21,46,303,42,15,71,097,45,04,03,328,28,06,01,351,*6E
$GBGSV,5,1,20,11,83,045,44,37,21,315,42,60,10,109,,38,30,049,39*61
$GBGSV,5,2,20,05,21,129,,12,27,058,38,25,39,179,38,13,40,074,46*6C
$GBGSV,5,3,20,08,39,063,39,23,60,264,45,34,56,060,46,43,71,246,51*61
$GBGSV,5,4,20,21,06,089,,02,06,107,,10,02,094,,28,09,240,*65
$GBGSV,5,5,20,44,04,062,,50,01,110,,56,06,077,,22,08,041,*65
$GPGGA,170122.00,,,,,0,00,,,M,,M,,*4F
$PTNL,GGK,170122.00,010125,4742.4464665,N,01617.9726159,E,1,23,1.4,EHT669.2505,M*46
$GPGGQ,170122.00,010125,4742.4464665,N,01617.9726159,E,1,23,4.268,626.0394,M*32
$GPGFA,170122.00,12.196,32.652,1.283,0.848,312.228,3.982,,VVV*0D
$GPLLK,170122.00,010125,,M,,M,1,23,1.7,,M*0B
$GNGMP,170122.00,,,,,DAAA,23,0.7,,,,*57
$GPGMP,170122.00,,,,,,06,,,,2.7,123*79
$GLGMP,170122.00,,,,,,04,,,,,*7C
$GAGMP,170122.00,,,,,,03,,,,,*76
$GBGMP,170122.00,,,,,,10,,,,,*77
$PSSN,SNC,[0,320500000,2347]*40
$GPZDA,170127.00,01,01,2025,,*61
$GPDTM,W84,,00.0000000,N,00.0000000,E,00.0000000,W84*5F
$GPRMC,170127.00,A,4742.4464666,N,01617.9726132,E,0.0,,010125,5.1,E,D*15
$GPGLL,4742.4464666,N,01617.9726132,E,170127.00,A,D*64
$GPGGA,170127.00,4742.4464666,N,01617.9726132,E,2,23,0.7,626.0264,M,43.2111,M,3.7,0123*4D
$GNGNS,170127.00,4742.4464666,N,01617.9726132,E,DAAA,23,0.7,626.0264,43.2111,,*55
$GPGNS,170127.00,,,,,,06,,,,3.7,123*7D
$GLGNS,170127.00,,,,,,04,,,,,*79
$GAGNS,170127.00,,,,,,03,,,,,*73
$GBGNS,170127.00,,,,,,10,,,,,*72
$GPLLQ,170127.00,010125,,M,,M,1,23,2.479,,M*1A
$GPVTG,,T,,M,0.01,N,0.01,K,D*26
$GPHDT,,T*1B
$GPTHS,,V*0E
$GPROT,,V*08
$PSSN,HRP,170127.00,010125,,,,,,,00,0,,*63
$PTNL,AVR,170127.00,,Yaw,,Tilt,,,,0,,00*35
$GPGSA,A,3,16,18,25,26,29,31,,,,,,,1.3,0.7,1.1*33
$GPGSA,A,3,79,80,81,82,,,,,,,,,1.3,0.7,1.1*32
$GPGSA,A,3,15,21,27,,,,,,,,,,1.3,0.7,1.1*35
$GPGSA,A,3,08,11,12,13,23,25,34,37,38,43,,,1.3,0.7,1.1*37
$GPGST,170127.00,1.924,1.022,0.651,20.938,0.983,0.709,2.163*62
$GPGBS,170127.00,3.996,3.356,9.498,16,0.0001,-3.757,1.364*7A
$GPGRS,170127.00,1,-3.8,-0.2,0.8,1.4,0.1,-0.9,,,,,,*6D
$GPGRS,170127.00,1,-1.3,-0.8,1.7,-1.2,,,,,,,,*6E
$GPGRS,170127.00,1,-0.5,0.9,0.7,,,,,,,,,*44
$GPGRS,170127.00,1,1.2,0.5,1.5,-1.0,1.5,-3.8,0.6,-2.7,-1.0,1.8,,*4B
$GPGSV,4,1,15,18,63,182,47,05,28,068,38,16,24,305,41,20,13,037,21*73
$GPGSV,4,2,15,25,28,136,36,28,31,221,28,31,41,252,45,26,54,296,44*7F
$GPGSV,4,3,15,29,57,064,50,23,05,159,,04,01,313,33,36,35,170,38*77
$GPGSV,4,4,15,34,31,208,34,49,34,195,36,61,03,257,*43
$GLGSV,3,1,10,81,70,025,40,80,57,313,50,83,13,228,,88,16,045,31*60
$GLGSV,3,2,10,79,60,170,47,82,54,238,49,65,08,059,,72,09,006,18*63
$GLGSV,3,3,10,73,05,328,24,78,09,154,*6C
$GAGSV,2,1,08,27,77,141,40,34,26,045,32,30,24,129,28,13,40,198,34*61
$GAGSV,2,2,08,21,46,303,42,15,71,096,46,04,03,328,29,06,01,351,*6D
$GBGSV,5,1,20,11,83,045,44,37,21,315,43,60,10,109,,38,30,049,39*60
$GBGSV,5,2,20,05,21,129,,12,27,058,39,25,39,179,39,13,40,074,46*6C
$GBGSV,5,3,20,08,39,063,40,23,60,264,46,34,56,060,46,43,71,246,51*6C
$GBGSV,5,4,20,21,06,089,,02,06,107,,10,02,094,,28,09,240,*65
$GBGSV,5,5,20,44,04,062,,50,01,110,,56,06,077,,22,08,041,*65
$GPGGA,170127.00,,,,,0,00,,,M,,M,,*4A
$PTNL,GGK,170127.00,010125,4742.4464666,N,01617.9726132,E,1,23,1.3,EHT669.2375,M*4B
$GPGGQ,170127.00,010125,4742.4464666,N,01617.9726132,E,1,23,2.479,626.0264,M*37
$GPGFA,170127.00,9.720,17.735,1.022,0.651,20.938,2.163,,VVV*0F
$GPLLK,170127.00,010125,,M,,M,1,23,1.6,,M*0F
$GNGMP,170127.00,,,,,DAAA,23,0.7,,,,*52
$GPGMP,170127.00,,,,,,06,,,,3.7,123*7D
$GLGMP,170127.00,,,,,,04,,,,,*79
$GAGMP,170127.00,,,,,,03,,,,,*73
$GBGMP,170127.00,,,,,,10,,,,,*72
$PSSN,SNC,[0,320505000,2347]*45
$GPZDA,170132.00,01,01,2025,,*65
$GPDTM,W84,,00.0000000,N,00.0000000,E,00.0000000,W84*5F
$GPRMC,170132.00,A,4742.4464692,N,01617.9726099,E,0.0,,010125,5.1,E,D*1A
$GPGLL,4742.4464692,N,01617.9726099,E,170132.00,A,D*6B
$GPGGA,170132.00,4742.4464692,N,01617.9726099,E,2,23,0.7,626.0071,M,43.2111,M,2.0,0123*42
$GNGNS,170132.00,4742.4464692,N,01617.9726099,E,DAAA,23,0.7,626.0071,43.2111,,*5C
$GPGNS,170132.00,,,,,,06,,,,2.0,123*7F
$GLGNS,170132.00,,,,,,04,,,,,*7D
$GAGNS,170132.00,,,,,,03,,,,,*77
$GBGNS,170132.00,,,,,,10,,,,,*76
$GPLLQ,170132.00,010125,,M,,M,1,23,2.148,,M*19
$GPVTG,,T,,M,0.01,N,0.01,K,D*26
$GPHDT,,T*1B
