$GPZDA,124442.00,01,01,2025,,*66
$GPDTM,W84,,00.0000000,N,00.0000000,E,00.0000000,W84*5F
$GPRMC,124442.00,A,4742.4463814,N,01617.9733555,E,0.0,,010125,5.1,E,D*1F
$GPGLL,4742.4463814,N,01617.9733555,E,124442.00,A,D*6E
$GPGGA,124442.00,4742.4463814,N,01617.9733555,E,2,17,0.7,625.5059,M,43.2111,M,2.4,0123*48
$GNGNS,124442.00,4742.4463814,N,01617.9733555,E,DAAA,17,0.7,625.5059,43.2111,,*52
$GPGNS,124442.00,,,,,,05,,,,2.4,123*7B
$GLGNS,124442.00,,,,,,04,,,,,*7E
$GAGNS,124442.00,,,,,,04,,,,,*73
$GBGNS,124442.00,,,,,,04,,,,,*70
$GPLLQ,124442.00,010125,,M,,M,1,17,2.997,,M*17
$GPVTG,,T,,M,0.01,N,0.01,K,D*26
$GPHDT,,T*1B
$GPTHS,,V*0E
$GPROT,,V*08
$PSSN,HRP,124442.00,010125,,,,,,,00,0,,*64
$PTNL,AVR,124442.00,,Yaw,,Tilt,,,,0,,00*32
$GPGSA,A,3,12,19,24,25,32,,,,,,,,1.4,0.7,1.2*38
$GPGSA,A,3,68,69,77,86,,,,,,,,,1.4,0.7,1.2*3C
$GPGSA,A,3,02,08,29,30,,,,,,,,,1.4,0.7,1.2*31
$GPGSA,A,3,24,33,35,44,,,,,,,,,1.4,0.7,1.2*33
$GPGST,124442.00,5.775,1.383,0.833,358.103,1.383,0.834,2.525*59
$GPGBS,124442.00,6.766,4.337,15.147,69,0.0001,12.649,6.831*54
$GPGRS,124442.00,1,-0.0,-0.8,-0.0,0.8,-0.6,,,,,,,*63
$GPGRS,124442.00,1,9.7,12.6,-7.8,1.9,,,,,,,,*5A
$GPGRS,124442.00,1,0.8,-1.2,-0.2,-0.6,,,,,,,,*69
$GPGRS,124442.00,1,0.3,3.0,-1.4,-0.6,,,,,,,,*48
$GPGSV,4,1,14,12,79,302,48,19,33,051,35,11,17,122,,06,25,085,34*7F
$GPGSV,4,2,14,32,28,307,48,25,38,268,43,24,62,148,50,15,03,186,*7C
$GPGSV,4,3,14,29,06,207,,17,06,040,24,36,35,170,34,34,31,208,34*7B
$GPGSV,4,4,14,49,34,195,35,61,03,257,*79
$GLGSV,3,1,09,77,62,051,47,69,17,336,37,76,21,086,28,88,12,164,*60
$GLGSV,3,2,09,67,21,230,25,68,35,285,45,86,33,045,37,78,40,299,32*6C
$GLGSV,3,3,09,87,45,109,31*58
$GAGSV,3,1,12,30,72,280,46,08,25,192,38,34,11,134,,11,14,034,*6A
$GAGSV,3,2,12,27,20,260,28,29,23,315,46,36,24,083,24,02,49,066,40*69
$GAGSV,3,3,12,07,49,253,34,18,62,109,,10,01,011,,25,00,074,*63
$GBGSV,6,1,21,24,81,330,53,07,13,054,26,33,18,249,35,05,20,130,*63
$GBGSV,6,2,21,11,19,223,,41,20,300,22,12,27,165,33,10,26,058,31*6D
$GBGSV,6,3,21,25,23,289,,56,34,053,,44,45,143,46,35,43,072,48*67
$GBGSV,6,4,21,26,41,100,33,34,08,186,,32,01,347,,40,08,042,26*64
$GBGSV,6,5,21,14,09,225,24,43,08,244,,29,02,029,,02,04,109,*65
$GBGSV,6,6,21,60,08,111,*57
$GPGGA,124442.00,,,,,0,00,,,M,,M,,*4D
$PTNL,GGK,124442.00,010125,4742.4463814,N,01617.9733555,E,1,17,1.4,EHT668.7169,M*4A
$GPGGQ,124442.00,010125,4742.4463814,N,01617.9733555,E,1,17,2.997,625.5059,M*3D
$GPGFA,124442.00,13.149,20.707,1.383,0.833,358.103,2.525,,VVV*07
$GPLLK,124442.00,010125,,M,,M,1,17,1.6,,M*0F
$GNGMP,124442.00,,,,,DAAA,17,0.7,,,,*52
$GPGMP,124442.00,,,,,,05,,,,2.4,123*7B
$GLGMP,124442.00,,,,,,04,,,,,*7E
$GAGMP,124442.00,,,,,,04,,,,,*73
$GBGMP,124442.00,,,,,,04,,,,,*70
$PSSN,SNC,[0,305100000,2347]*43
$GPALM,1,1,20,2347,00,1F59,63,093B,FD26,A10CEE,9F48D4,D767F6,9828A6,181,000*0D
$GPZDA,124447.00,01,01,2025,,*63
$GPDTM,W84,,00.0000000,N,00.0000000,E,00.0000000,W84*5F
$GPRMC,124447.00,A,4742.4463860,N,01617.9733698,E,0.0,,010125,5.1,E,D*1B
$GPGLL,4742.4463860,N,01617.9733698,E,124447.00,A,D*6A
$GPGGA,124447.00,4742.4463860,N,01617.9733698,E,2,18,0.7,625.5030,M,43.2111,M,3.4,0123*4D
$GNGNS,124447.00,4742.4463860,N,01617.9733698,E,DAAA,18,0.7,625.5030,43.2111,,*56
$GPGNS,124447.00,,,,,,05,,,,3.4,123*7F
$GLGNS,124447.00,,,,,,05,,,,,*7A
$GAGNS,124447.00,,,,,,04,,,,,*76
$GBGNS,124447.00,,,,,,04,,,,,*75
$GPLLQ,124447.00,010125,,M,,M,1,18,3.473,,M*1B
$GPVTG,,T,,M,0.01,N,0.02,K,D*25
$GPHDT,,T*1B
$GPTHS,,V*0E
$GPROT,,V*08
$PSSN,HRP,124447.00,010125,,,,,,,00,0,,*61
$PTNL,AVR,124447.00,,Yaw,,Tilt,,,,0,,00*37
$GPGSA,A,3,12,19,24,25,32,,,,,,,,1.5,0.7,1.3*38
$GPGSA,A,3,68,69,77,78,86,,,,,,,,1.5,0.7,1.3*33
$GPGSA,A,3,02,08,29,30,,,,,,,,,1.5,0.7,1.3*31
$GPGSA,A,3,24,26,35,44,,,,,,,,,1.5,0.7,1.3*37
$GPGST,124447.00,6.515,1.621,0.980,358.716,1.621,0.980,2.911*55
$GPGBS,124447.00,6.877,4.374,15.505,69,0.0001,13.773,6.832*51
$GPGRS,124447.00,1,0.3,-1.3,0.0,0.9,-0.6,,,,,,,*6E
$GPGRS,124447.00,1,11.1,13.8,-8.3,-7.2,-4.3,,,,,,,*4F
$GPGRS,124447.00,1,0.8,-0.6,-0.0,-0.4,,,,,,,,*69
$GPGRS,124447.00,1,0.6,-3.3,-0.7,-0.1,,,,,,,,*63
$GPGSV,4,1,14,12,79,303,48,19,33,051,36,11,17,122,,06,25,084,32*7A
$GPGSV,4,2,14,32,28,307,48,25,38,268,44,24,62,148,50,15,03,186,*7B
$GPGSV,4,3,14,29,06,207,,17,06,040,24,36,35,170,34,34,31,208,34*7B
$GPGSV,4,4,14,49,34,195,35,61,03,257,*79
$GLGSV,3,1,09,77,62,051,46,69,17,336,36,76,21,086,29,88,12,164,*61
$GLGSV,3,2,09,67,21,230,23,68,35,285,45,86,33,045,36,78,40,299,36*6F
$GLGSV,3,3,09,87,45,109,29*51
$GAGSV,3,1,12,30,72,280,45,08,25,192,38,34,11,133,,11,14,034,*6E
$GAGSV,3,2,12,27,20,260,29,29,23,315,46,36,24,083,24,02,49,066,41*69
$GAGSV,3,3,12,07,49,253,33,18,62,109,,10,01,011,,25,00,074,*64
$GBGSV,6,1,21,24,81,330,53,07,13,054,25,33,18,249,35,05,20,130,*60
$GBGSV,6,2,21,11,19,223,,41,20,300,21,12,27,165,31,10,26,058,31*6C
$GBGSV,6,3,21,25,23,289,,56,34,053,,44,45,143,45,35,43,072,48*64
$GBGSV,6,4,21,26,41,100,41,34,08,186,,32,01,347,,40,08,042,25*62
$GBGSV,6,5,21,14,09,225,21,43,08,244,,29,02,029,,02,04,109,*60
$GBGSV,6,6,21,60,08,111,*57
$GPGGA,124447.00,,,,,0,00,,,M,,M,,*48
$PTNL,GGK,124447.00,010125,4742.4463860,N,01617.9733698,E,1,18,1.5,EHT668.7141,M*4A
$GPGGQ,124447.00,010125,4742.4463860,N,01617.9733698,E,1,18,3.473,625.5030,M*3F
$GPGFA,124447.00,15.414,23.871,1.621,0.980,358.716,2.911,,VVV*09
$GPLLK,124447.00,010125,,M,,M,1,18,1.7,,M*04
$GNGMP,124447.00,,,,,DAAA,18,0.7,,,,*58
$GPGMP,124447.00,,,,,,05,,,,3.4,123*7F
$GLGMP,124447.00,,,,,,05,,,,,*7A
$GAGMP,124447.00,,,,,,04,,,,,*76
$GBGMP,124447.00,,,,,,04,,,,,*75
$PSSN,SNC,[0,305105000,2347]*46
$GPZDA,124452.00,01,01,2025,,*67
$GPDTM,W84,,00.0000000,N,00.0000000,E,00.0000000,W84*5F
$GPRMC,124452.00,A,4742.4463888,N,01617.9733774,E,0.0,,010125,5.1,E,D*1A
$GPGLL,4742.4463888,N,01617.9733774,E,124452.00,A,D*6B
$GPGGA,124452.00,4742.4463888,N,01617.9733774,E,2,18,0.7,625.4957,M,43.2111,M,2.0,0123*40
$GNGNS,124452.00,4742.4463888,N,01617.9733774,E,DAAA,18,0.7,625.4957,43.2111,,*5E
$GPGNS,124452.00,,,,,,05,,,,2.0,123*7E
$GLGNS,124452.00,,,,,,05,,,,,*7E
$GAGNS,124452.00,,,,,,04,,,,,*72
$GBGNS,124452.00,,,,,,04,,,,,*71
$GPLLQ,124452.00,010125,,M,,M,1,18,3.105,,M*1B
$GPVTG,,T,,M,0.00,N,0.01,K,D*27
$GPHDT,,T*1B
$GPTHS,,V*0E
$GPROT,,V*08
$PSSN,HRP,124452.00,010125,,,,,,,00,0,,*65
$PTNL,AVR,124452.00,,Yaw,,Tilt,,,,0,,00*33
$GPGSA,A,3,12,19,24,25,32,,,,,,,,1.5,0.7,1.3*38
$GPGSA,A,3,68,77,78,86,87,,,,,,,,1.5,0.7,1.3*33
$GPGSA,A,3,02,08,29,30,,,,,,,,,1.5,0.7,1.3*31
$GPGSA,A,3,24,26,35,44,,,,,,,,,1.5,0.7,1.3*37
$GPGST,124452.00,5.275,1.433,0.856,359.172,1.433,0.857,2.618*51
$GPGBS,124452.00,6.479,4.182,15.699,68,0.0001,10.353,6.221*56
$GPGRS,124452.00,1,0.8,-0.9,-0.1,-0.0,-0.4,,,,,,,*60
$GPGRS,124452.00,1,10.4,-9.9,-4.4,-7.2,-2.3,,,,,,,*55
$GPGRS,124452.00,1,0.7,-1.0,-0.3,-0.5,,,,,,,,*67
$GPGRS,124452.00,1,0.4,4.4,-0.4,-0.4,,,,,,,,*4E
$GPGSV,4,1,14,12,79,303,49,19,33,051,37,11,17,122,,06,25,084,31*79
$GPGSV,4,2,14,32,28,307,48,25,38,268,44,24,62,148,50,15,03,186,*7B
$GPGSV,4,3,14,29,06,207,,17,06,040,24,36,35,170,34,34,31,208,34*7B
$GPGSV,4,4,14,49,34,195,35,61,03,257,*79
$GLGSV,3,1,09,77,62,051,45,69,17,336,34,76,21,086,29,88,12,164,*60
$GLGSV,3,2,09,67,20,230,29,68,35,284,46,86,33,045,40,78,40,299,37*66
$GLGSV,3,3,09,87,45,109,37*5E
$GAGSV,3,1,12,30,72,280,45,08,25,192,38,34,11,133,,11,14,034,*6E
$GAGSV,3,2,12,27,20,260,29,29,23,315,45,36,24,083,25,02,49,066,41*6B
$GAGSV,3,3,12,07,49,253,32,18,62,109,,10,01,011,,25,00,074,*65
$GBGSV,6,1,21,24,81,330,53,07,13,054,26,33,18,249,34,05,20,130,*62
$GBGSV,6,2,21,11,19,223,,41,20,300,22,12,27,165,29,10,26,058,31*66
$GBGSV,6,3,21,25,23,289,,56,34,053,,44,45,143,45,35,43,072,49*65
$GBGSV,6,4,21,26,41,100,40,34,08,186,,32,01,347,,40,08,042,25*63
$GBGSV,6,5,21,14,09,225,,43,08,244,,29,02,029,,02,04,109,*63
$GBGSV,6,6,21,60,08,111,*57
$GPGGA,124452.00,,,,,0,00,,,M,,M,,*4C
$PTNL,GGK,124452.00,010125,4742.4463888,N,01617.9733774,E,1,18,1.5,EHT668.7067,M*4E
$GPGGQ,124452.00,010125,4742.4463888,N,01617.9733774,E,1,18,3.105,625.4957,M*33
$GPGFA,124452.00,13.628,21.467,1.433,0.856,359.172,2.618,,VVV*07
$GPLLK,124452.00,010125,,M,,M,1,18,1.8,,M*0F
$GNGMP,124452.00,,,,,DAAA,18,0.7,,,,*5C
$GPGMP,124452.00,,,,,,05,,,,2.0,123*7E
$GLGMP,124452.00,,,,,,05,,,,,*7E
$GAGMP,124452.00,,,,,,04,,,,,*72
$GBGMP,124452.00,,,,,,04,,,,,*71
$PSSN,SNC,[0,305110000,2347]*42
$GPZDA,124457.00,01,01,2025,,*62
$GPDTM,W84,,00.0000000,N,00.0000000,E,00.0000000,W84*5F
$GPRMC,124457.00,A,4742.4463881,N,01617.9733825,E,0.0,,010125,5.1,E,D*1D
$GPGLL,4742.4463881,N,01617.9733825,E,124457.00,A,D*6C
$GPGGA,124457.00,4742.4463881,N,01617.9733825,E,2,19,0.7,625.4867,M,43.2111,M,2.2,0123*46
$GNGNS,124457.00,4742.4463881,N,01617.9733825,E,DAAA,19,0.7,625.4867,43.2111,,*5A
$GPGNS,124457.00,,,,,,05,,,,2.2,123*79
$GLGNS,124457.00,,,,,,06,,,,,*78
$GAGNS,124457.00,,,,,,04,,,,,*77
$GBGNS,124457.00,,,,,,04,,,,,*74
$GPLLQ,124457.00,010125,,M,,M,1,19,4.425,,M*1F
$GPVTG,,T,,M,0.01,N,0.01,K,D*26
$GPHDT,,T*1B
$GPTHS,,V*0E
$GPROT,,V*08
$PSSN,HRP,124457.00,010125,,,,,,,00,0,,*60
$PTNL,AVR,124457.00,,Yaw,,Tilt,,,,0,,00*36
$GPGSA,A,3,12,19,24,25,32,,,,,,,,1.4,0.7,1.3*39
$GPGSA,A,3,68,69,77,78,86,87,,,,,,,1.4,0.7,1.3*3D
$GPGSA,A,3,02,08,29,30,,,,,,,,,1.4,0.7,1.3*30
$GPGSA,A,3,24,26,35,44,,,,,,,,,1.4,0.7,1.3*36
$GPGST,124457.00,9.013,2.014,1.204,358.970,2.014,1.204,3.752*5E
$GPGBS,124457.00,6.486,4.253,15.952,69,0.0001,26.061,6.827*5E
$GPGRS,124457.00,1,0.5,-1.1,-0.2,-0.1,-0.2,,,,,,,*65
$GPGRS,124457.00,1,12.0,26.1,-9.7,-5.3,-2.9,-0.9,,,,,,*43
$GPGRS,124457.00,1,0.6,-2.2,-0.6,-0.3,,,,,,,,*61
$GPGRS,124457.00,1,0.5,3.1,-0.5,-1.1,,,,,,,,*4D
$GPGSV,4,1,14,12,79,303,49,19,33,051,37,11,17,122,,06,25,084,30*78
$GPGSV,4,2,14,32,28,307,48,25,38,268,45,24,62,148,49,15,03,186,*72
$GPGSV,4,3,14,29,06,207,,17,06,040,23,36,35,170,34,34,31,208,34*7C
$GPGSV,4,4,14,49,34,195,35,61,03,257,*79
$GLGSV,3,1,09,77,62,051,45,69,17,336,36,76,21,086,27,88,12,164,*6C
$GLGSV,3,2,09,67,20,230,31,68,35,284,46,86,33,045,44,78,40,299,39*65
$GLGSV,3,3,09,87,45,109,40*5E
$GAGSV,3,1,12,30,72,280,44,08,25,192,38,34,11,133,,11,14,034,*6F
$GAGSV,3,2,12,27,20,260,30,29,23,315,45,36,24,083,24,02,49,066,41*62
$GAGSV,3,3,12,07,49,253,31,18,62,109,,10,01,011,,25,00,074,*66
$GBGSV,6,1,21,24,81,330,53,07,13,054,26,33,17,249,34,05,20,130,*6D
$GBGSV,6,2,21,11,19,223,,41,20,300,21,12,27,165,27,10,26,058,31*6B
$GBGSV,6,3,21,25,23,289,,56,34,053,,44,45,143,44,35,43,072,50*6C
$GBGSV,6,4,21,26,41,100,41,34,08,186,,32,01,347,,40,08,042,24*63
$GBGSV,6,5,21,14,09,225,,43,08,244,,29,02,029,,02,04,109,*63
$GBGSV,6,6,21,60,08,111,*57
$GPGGA,124457.00,,,,,0,00,,,M,,M,,*49
$PTNL,GGK,124457.00,010125,4742.4463881,N,01617.9733825,E,1,19,1.4,EHT668.6978,M*4F
$GPGGQ,124457.00,010125,4742.4463881,N,01617.9733825,E,1,19,4.425,625.4867,M*37
$GPGFA,124457.00,19.153,30.767,2.014,1.204,358.970,3.752,,VVV*0B
$GPLLK,124457.00,010125,,M,,M,1,19,1.7,,M*04
$GNGMP,124457.00,,,,,DAAA,19,0.7,,,,*58
$GPGMP,124457.00,,,,,,05,,,,2.2,123*79
$GLGMP,124457.00,,,,,,06,,,,,*78
$GAGMP,124457.00,,,,,,04,,,,,*77
$GBGMP,124457.00,,,,,,04,,,,,*74
$PSSN,SNC,[0,305115000,2347]*47
$GPZDA,124502.00,01,01,2025,,*63
$GPDTM,W84,,00.0000000,N,00.0000000,E,00.0000000,W84*5F
$GPRMC,124502.00,A,4742.4463876,N,01617.9733885,E,0.0,,010125,5.1,E,D*1E
$GPGLL,4742.4463876,N,01617.9733885,E,124502.00,A,D*6F
$GPGGA,124502.00,4742.4463876,N,01617.9733885,E,2,19,0.7,625.4778,M,43.2111,M,2.4,0123*42
$GNGNS,124502.00,4742.4463876,N,01617.9733885,E,DAAA,19,0.7,625.4778,43.2111,,*58
$GPGNS,124502.00,,,,,,05,,,,2.4,123*7E
$GLGNS,124502.00,,,,,,05,,,,,*7A
$GAGNS,124502.00,,,,,,04,,,,,*76
$GBGNS,124502.00,,,,,,05,,,,,*74
$GPLLQ,124502.00,010125,,M,,M,1,19,2.842,,M*15
$GPVTG,,T,,M,0.00,N,0.01,K,D*27
$GPHDT,,T*1B
$GPTHS,,V*0E
$GPROT,,V*08
$PSSN,HRP,124502.00,010125,,,,,,,00,0,,*61
$PTNL,AVR,124502.00,,Yaw,,Tilt,,,,0,,00*37
$GPGSA,A,3,12,19,24,25,32,,,,,,,,1.5,0.7,1.3*38
$GPGSA,A,3,68,77,78,86,87,,,,,,,,1.5,0.7,1.3*33
$GPGSA,A,3,02,08,29,30,,,,,,,,,1.5,0.7,1.3*31
$GPGSA,A,3,24,26,35,41,44,,,,,,,,1.5,0.7,1.3*32
$GPGST,124502.00,5.812,1.306,0.778,359.263,1.306,0.778,2.401*56
$GPGBS,124502.00,6.654,4.274,15.233,68,0.0001,13.237,6.223*53
$GPGRS,124502.00,1,0.1,-0.1,-0.0,-0.2,0.0,,,,,,,*4F
$GPGRS,124502.00,1,13.2,-8.9,-6.6,0.6,-1.8,,,,,,,*73
$GPGRS,124502.00,1,0.6,-2.1,-0.5,0.4,,,,,,,,*4A
$GPGRS,124502.00,1,0.7,2.3,-0.1,9.5,-1.5,,,,,,,*6F
$GPGSV,4,1,14,12,79,303,48,19,33,051,38,11,17,122,,06,25,084,30*76
$GPGSV,4,2,14,32,28,307,48,25,38,268,45,24,62,148,49,15,03,186,*72
$GPGSV,4,3,14,29,06,207,,17,06,040,21,36,35,170,35,34,31,208,34*7F
$GPGSV,4,4,14,49,34,195,35,61,03,257,*79
$GLGSV,3,1,09,77,62,051,45,69,17,336,25,76,21,086,23,88,12,164,*6A
$GLGSV,3,2,09,67,20,230,30,68,35,284,43,86,33,044,45,78,40,299,39*61
$GLGSV,3,3,09,87,45,108,42*5D
$GAGSV,3,1,12,30,72,280,44,08,25,192,38,34,11,133,,11,14,034,*6F
$GAGSV,3,2,12,27,20,260,30,29,23,315,45,36,24,083,24,02,49,066,41*62
$GAGSV,3,3,12,07,49,253,32,18,62,109,,10,01,011,,25,00,074,*65
$GBGSV,6,1,21,24,81,331,52,07,13,054,25,33,17,249,34,05,20,130,*6E
$GBGSV,6,2,21,11,19,223,,41,20,300,35,12,27,165,27,10,26,058,30*6F
$GBGSV,6,3,21,25,23,289,,56,34,053,,44,45,143,43,35,43,072,50*6B
$GBGSV,6,4,21,26,41,100,41,34,08,186,,32,01,347,,40,08,042,24*63
$GBGSV,6,5,21,14,09,225,31,43,08,244,,29,02,029,,02,04,109,*61
$GBGSV,6,6,21,60,08,111,*57
$GPGGA,124502.00,,,,,0,00,,,M,,M,,*48
$PTNL,GGK,124502.00,010125,4742.4463876,N,01617.9733885,E,1,19,1.5,EHT668.6888,M*43
$GPGGQ,124502.00,010125,4742.4463876,N,01617.9733885,E,1,19,2.842,625.4778,M*3E
$GPGFA,124502.00,12.416,19.688,1.306,0.778,359.263,2.401,,VVV*0E
$GPLLK,124502.00,010125,,M,,M,1,19,1.7,,M*05
$GNGMP,124502.00,,,,,DAAA,19,0.7,,,,*59
$GPGMP,124502.00,,,,,,05,,,,2.4,123*7E
$GLGMP,124502.00,,,,,,05,,,,,*7A
$GAGMP,124502.00,,,,,,04,,,,,*76
$GBGMP,124502.00,,,,,,05,,,,,*74
$PSSN,SNC,[0,305120000,2347]*41
$GPZDA,124507.00,01,01,2025,,*66
$GPDTM,W84,,00.0000000,N,00.0000000,E,00.0000000,W84*5F
$GPRMC,124507.00,A,4742.4463908,N,01617.9733906,E,0.0,,010125,5.1,E,D*19
$GPGLL,4742.4463908,N,01617.9733906,E,124507.00,A,D*68
$GPGGA,124507.00,4742.4463908,N,01617.9733906,E,2,19,0.7,625.4787,M,43.2111,M,3.4,0123*44
$GNGNS,124507.00,4742.4463908,N,01617.9733906,E,DAAA,19,0.7,625.4787,43.2111,,*5F
$GPGNS,124507.00,,,,,,05,,,,3.4,123*7A
$GLGNS,124507.00,,,,,,05,,,,,*7F
$GAGNS,124507.00,,,,,,05,,,,,*72
$GBGNS,124507.00,,,,,,04,,,,,*70
$GPLLQ,124507.00,010125,,M,,M,1,19,2.323,,M*1C
$GPVTG,,T,,M,0.00,N,0.00,K,D*26
$GPHDT,,T*1B
$GPTHS,,V*0E
$GPROT,,V*08
$PSSN,HRP,124507.00,010125,,,,,,,00,0,,*64
$PTNL,AVR,124507.00,,Yaw,,Tilt,,,,0,,00*32
$GPGSA,A,3,12,19,24,25,32,,,,,,,,1.5,0.7,1.3*38
$GPGSA,A,3,68,77,78,86,87,,,,,,,,1.5,0.7,1.3*33
$GPGSA,A,3,02,07,08,29,30,,,,,,,,1.5,0.7,1.3*36
$GPGSA,A,3,24,26,35,44,,,,,,,,,1.5,0.7,1.3*37
$GPGST,124507.00,4.040,1.079,0.653,359.511,1.079,0.653,1.951*54
$GPGBS,124507.00,6.771,4.303,15.440,77,0.0001,-8.651,6.107*4B
$GPGRS,124507.00,1,-0.2,-0.1,0.5,0.0,-0.4,,,,,,,*4A
$GPGRS,124507.00,1,7.3,-8.7,-6.9,0.1,-2.3,,,,,,,*4C
$GPGRS,124507.00,1,0.9,1.3,-2.1,-0.4,0.9,,,,,,,*60
$GPGRS,124507.00,1,0.7,1.6,-0.3,-1.9,,,,,,,,*40
$GPGSV,4,1,14,12,79,303,47,19,33,051,38,11,17,122,,06,25,084,29*71
$GPGSV,4,2,14,32,28,307,47,25,38,268,45,24,62,148,49,15,03,186,*7D
$GPGSV,4,3,14,29,06,207,,17,06,040,21,36,35,170,34,34,31,208,34*7E
$GPGSV,4,4,14,49,34,195,35,61,03,257,*79
$GLGSV,3,1,09,77,62,051,45,69,17,336,33,76,21,086,,88,12,164,*6C
$GLGSV,3,2,09,67,20,230,30,68,35,284,42,86,33,044,46,78,40,299,40*6D
$GLGSV,3,3,09,87,45,108,44*5B
$GAGSV,3,1,11,30,72,280,43,08,25,192,37,34,11,133,,11,14,034,*64
$GAGSV,3,2,11,27,20,260,30,29,23,315,44,36,24,083,22,02,49,066,41*66
$GAGSV,3,3,11,07,49,253,36,18,62,108,,10,01,011,*57
$GBGSV,6,1,21,24,81,331,52,07,13,054,25,33,17,249,35,05,20,130,*6F
$GBGSV,6,2,21,11,19,223,,41,20,300,34,12,27,165,31,10,26,058,31*68
$GBGSV,6,3,21,25,23,289,,56,34,053,,44,45,143,43,35,43,072,50*6B
$GBGSV,6,4,21,26,41,100,41,34,08,186,,32,01,347,,40,08,042,24*63
$GBGSV,6,5,21,14,09,225,32,43,08,244,,29,02,029,,02,04,109,*62
$GBGSV,6,6,21,60,08,111,*57
$GPGGA,124507.00,,,,,0,00,,,M,,M,,*4D
$PTNL,GGK,124507.00,010125,4742.4463908,N,01617.9733906,E,1,19,1.5,EHT668.6897,M*4A
$GPGGQ,124507.00,010125,4742.4463908,N,01617.9733906,E,1,19,2.323,625.4787,M*35
$GPGFA,124507.00,10.256,16.001,1.079,0.653,359.511,1.951,,VVV*09
$GPLLK,124507.00,010125,,M,,M,1,19,1.8,,M*0F
$GNGMP,124507.00,,,,,DAAA,19,0.7,,,,*5C
$GPGMP,124507.00,,,,,,05,,,,3.4,123*7A
$GLGMP,124507.00,,,,,,05,,,,,*7F
$GAGMP,124507.00,,,,,,05,,,,,*72
$GBGMP,124507.00,,,,,,04,,,,,*70
$PSSN,SNC,[0,305125000,2347]*44
$GPZDA,124512.00,01,01,2025,,*62
$GPDTM,W84,,00.0000000,N,00.0000000,E,00.0000000,W84*5F
$GPRMC,124512.00,A,4742.4463941,N,01617.9733893,E,0.0,,010125,5.1,E,D*1D
$GPGLL,4742.4463941,N,01617.9733893,E,124512.00,A,D*6C
$GPGGA,124512.00,4742.4463941,N,01617.9733893,E,2,20,0.7,625.4806,M,43.2111,M,2.0,0123*49
$GNGNS,124512.00,4742.4463941,N,01617.9733893,E,DAAA,20,0.7,625.4806,43.2111,,*57
$GPGNS,124512.00,,,,,,05,,,,2.0,123*7B
$GLGNS,124512.00,,,,,,05,,,,,*7B
$GAGNS,124512.00,,,,,,05,,,,,*76
$GBGNS,124512.00,,,,,,05,,,,,*75
$GPLLQ,124512.00,010125,,M,,M,1,20,2.739,,M*1D
$GPVTG,,T,,M,0.01,N,0.02,K,D*25
$GPHDT,,T*1B
$GPTHS,,V*0E
$GPROT,,V*08
$PSSN,HRP,124512.00,010125,,,,,,,00,0,,*60
$PTNL,AVR,124512.00,,Yaw,,Tilt,,,,0,,00*36
$GPGSA,A,3,12,19,24,25,32,,,,,,,,1.4,0.7,1.2*38
$GPGSA,A,3,68,77,78,86,87,,,,,,,,1.4,0.7,1.2*33
$GPGSA,A,3,02,07,08,29,30,,,,,,,,1.4,0.7,1.2*36
$GPGSA,A,3,24,26,33,35,44,,,,,,,,1.4,0.7,1.2*37
$GPGST,124512.00,3.514,1.264,0.761,358.783,1.263,0.761,2.308*59
$GPGBS,124512.00,6.475,4.119,15.487,77,0.0001,-8.839,6.107*4A
$GPGRS,124512.00,1,-0.0,0.6,0.5,-0.2,-0.5,,,,,,,*48
$GPGRS,124512.00,1,1.7,-8.8,-5.5,-1.0,-2.6,,,,,,,*62
$GPGRS,124512.00,1,0.4,1.8,-1.7,-0.4,0.8,,,,,,,*66
$GPGRS,124512.00,1,0.3,1.1,5.1,-1.2,-2.1,,,,,,,*66
$GPGSV,4,1,14,12,79,303,47,19,33,051,39,11,17,122,,06,25,084,31*79
$GPGSV,4,2,14,32,28,307,47,25,38,268,44,24,62,148,49,15,03,186,*7C
$GPGSV,4,3,14,29,06,207,,17,06,040,23,36,35,170,35,34,31,208,35*7C
$GPGSV,4,4,14,49,34,195,35,61,03,257,*79
$GLGSV,3,1,09,77,62,051,45,69,17,336,35,76,21,086,29,88,12,164,*61
$GLGSV,3,2,09,67,20,230,33,68,35,284,42,86,33,044,45,78,40,299,40*6D
$GLGSV,3,3,09,87,45,108,43*5C
$GAGSV,3,1,11,30,72,280,43,08,25,192,37,34,11,133,,11,14,034,*64
$GAGSV,3,2,11,27,20,260,27,29,23,315,44,36,24,083,22,02,49,066,42*63
$GAGSV,3,3,11,07,49,253,37,18,62,108,,10,01,011,*56
$GBGSV,6,1,21,24,81,331,52,07,13,054,31,33,17,249,35,05,20,130,*6A
$GBGSV,6,2,21,11,19,223,,41,20,300,34,12,27,165,33,10,26,058,31*6A
$GBGSV,6,3,21,25,23,289,,56,34,053,,44,45,143,43,35,43,072,50*6B
$GBGSV,6,4,21,26,41,100,41,34,08,186,,32,01,347,,40,08,042,23*64
$GBGSV,6,5,21,14,09,225,32,43,08,244,,29,02,029,,02,04,109,*62
$GBGSV,6,6,21,60,08,111,*57
$GPGGA,124512.00,,,,,0,00,,,M,,M,,*49
$PTNL,GGK,124512.00,010125,4742.4463941,N,01617.9733893,E,1,20,1.4,EHT668.6917,M*4C
$GPGGQ,124512.00,010125,4742.4463941,N,01617.9733893,E,1,20,2.739,625.4806,M*32
$GPGFA,124512.00,12.014,18.924,1.264,0.761,358.783,2.308,,VVV*08
$GPLLK,124512.00,010125,,M,,M,1,20,1.6,,M*0F
$GNGMP,124512.00,,,,,DAAA,20,0.7,,,,*52
$GPGMP,124512.00,,,,,,05,,,,2.0,123*7B
$GLGMP,124512.00,,,,,,05,,,,,*7B
$GAGMP,124512.00,,,,,,05,,,,,*76
$GBGMP,124512.00,,,,,,05,,,,,*75
$PSSN,SNC,[0,305130000,2347]*40
$GPALM,1,1,21,2347,00,D3F3,63,0BDA,FD53,A10C9F,ECF66D,B03FB7,D48B9F,069,001*7F
$GPZDA,124517.00,01,01,2025,,*67
$GPDTM,W84,,00.0000000,N,00.0000000,E,00.0000000,W84*5F
$GPRMC,124517.00,A,4742.4463952,N,01617.9733832,E,0.0,,010125,5.1,E,D*11
$GPGLL,4742.4463952,N,01617.9733832,E,124517.00,A,D*60
$GPGGA,124517.00,4742.4463952,N,01617.9733832,E,2,23,0.6,625.4878,M,43.2111,M,2.2,0123*4C
$GNGNS,124517.00,4742.4463952,N,01617.9733832,E,DAAA,23,0.6,625.4878,43.2111,,*50
$GPGNS,124517.00,,,,,,05,,,,2.2,123*7C
$GLGNS,124517.00,,,,,,06,,,,,*7D
$GAGNS,124517.00,,,,,,05,,,,,*73
$GBGNS,124517.00,,,,,,07,,,,,*72
$GPLLQ,124517.00,010125,,M,,M,1,23,2.230,,M*17
$GPVTG,,T,,M,0.01,N,0.01,K,D*26
$GPHDT,,T*1B
$GPTHS,,V*0E
$GPROT,,V*08
$PSSN,HRP,124517.00,010125,,,,,,,00,0,,*65
$PTNL,AVR,124517.00,,Yaw,,Tilt,,,,0,,00*33
$GPGSA,A,3,12,19,24,25,32,,,,,,,,1.3,0.6,1.1*3D
$GPGSA,A,3,67,68,77,78,86,87,,,,,,,1.3,0.6,1.1*37
$GPGSA,A,3,02,07,08,29,30,,,,,,,,1.3,0.6,1.1*33
$GPGSA,A,3,12,24,26,33,35,41,44,,,,,,1.3,0.6,1.1*34
$GPGST,124517.00,3.921,1.006,0.615,358.122,1.006,0.616,1.893*55
$GPGBS,124517.00,6.177,4.157,15.027,77,0.0001,-9.445,6.107*4A
$GPGRS,124517.00,1,-0.2,1.0,0.2,-0.1,0.0,,,,,,,*64
$GPGRS,124517.00,1,3.9,2.9,-9.4,-6.4,-2.4,-3.0,,,,,,*41
$GPGRS,124517.00,1,0.2,0.3,-2.2,-0.4,0.4,,,,,,,*65
$GPGRS,124517.00,1,-4.6,-0.2,0.3,4.2,-1.8,4.7,-2.8,,,,,*61
$GPGSV,4,1,14,12,79,304,47,19,33,051,41,11,17,122,,06,25,084,32*72
$GPGSV,4,2,14,32,28,307,46,25,38,268,44,24,62,148,49,15,02,186,*7C
$GPGSV,4,3,14,29,06,207,,17,06,040,22,36,35,170,35,34,31,208,34*7C
$GPGSV,4,4,14,49,34,195,35,61,03,257,*79
$GLGSV,3,1,09,77,62,051,45,69,17,336,34,76,21,086,29,88,12,164,*60
$GLGSV,3,2,09,67,20,230,37,68,35,284,42,86,33,044,44,78,40,299,38*67
$GLGSV,3,3,09,87,45,108,44*5B
$GAGSV,3,1,11,30,72,280,44,08,25,192,37,34,11,133,,11,14,034,*63
$GAGSV,3,2,11,27,20,260,28,29,23,315,44,36,24,083,26,02,49,066,42*68
$GAGSV,3,3,11,07,49,253,39,18,62,108,,10,01,011,*58
$GBGSV,6,1,21,24,81,331,52,07,13,054,24,33,17,249,35,05,20,130,*6E
$GBGSV,6,2,21,11,19,223,,41,20,300,29,12,27,165,35,10,26,058,31*60
$GBGSV,6,3,21,25,23,289,,56,34,053,,44,45,143,44,35,43,072,50*6C
$GBGSV,6,4,21,26,41,100,40,34,08,186,,32,01,347,,40,08,042,25*63
$GBGSV,6,5,21,14,09,225,32,43,08,244,,29,02,029,,02,04,109,*62
$GBGSV,6,6,21,60,08,111,*57
$GPGGA,124517.00,,,,,0,00,,,M,,M,,*4C
$PTNL,GGK,124517.00,010125,4742.4463952,N,01617.9733832,E,1,23,1.3,EHT668.6989,M*43
$GPGGQ,124517.00,010125,4742.4463952,N,01617.9733832,E,1,23,2.230,625.4878,M*38
$GPGFA,124517.00,9.564,15.522,1.006,0.615,358.122,1.893,,VVV*31
$GPLLK,124517.00,010125,,M,,M,1,23,1.5,,M*0A
$GNGMP,124517.00,,,,,DAAA,23,0.6,,,,*55
$GPGMP,124517.00,,,,,,05,,,,2.2,123*7C
$GLGMP,124517.00,,,,,,06,,,,,*7D
$GAGMP,124517.00,,,,,,05,,,,,*73
$GBGMP,124517.00,,,,,,07,,,,,*72
$PSSN,SNC,[0,305135000,2347]*45
$GPZDA,124522.00,01,01,2025,,*61
$GPDTM,W84,,00.0000000,N,00.0000000,E,00.0000000,W84*5F
$GPRMC,124522.00,A,4742.4463904,N,01617.9733761,E,0.0,,010125,5.1,E,D*1D
$GPGLL,4742.4463904,N,01617.9733761,E,124522.00,A,D*6C
$GPGGA,124522.00,4742.4463904,N,01617.9733761,E,2,23,0.6,625.4890,M,43.2111,M,2.4,0123*40
$GNGNS,124522.00,4742.4463904,N,01617.9733761,E,DAAA,23,0.6,625.4890,43.2111,,*5A
$GPGNS,124522.00,,,,,,05,,,,2.4,123*7C
$GLGNS,124522.00,,,,,,07,,,,,*7A
$GAGNS,124522.00,,,,,,05,,,,,*75
$GBGNS,124522.00,,,,,,06,,,,,*75
$GPLLQ,124522.00,010125,,M,,M,1,23,3.010,,M*10
$GPVTG,,T,,M,0.01,N,0.02,K,D*25
$GPHDT,,T*1B
$GPTHS,,V*0E
$GPROT,,V*08
$PSSN,HRP,124522.00,010125,,,,,,,00,0,,*63
$PTNL,AVR,124522.00,,Yaw,,Tilt,,,,0,,00*35
$GPGSA,A,3,12,19,24,25,32,,,,,,,,1.2,0.6,1.1*3C
$GPGSA,A,3,67,68,69,77,78,86,87,,,,,,1.2,0.6,1.1*39
$GPGSA,A,3,02,07,08,29,30,,,,,,,,1.2,0.6,1.1*32
$GPGSA,A,3,12,24,26,35,41,44,,,,,,,1.2,0.6,1.1*35
$GPGST,124522.00,6.372,1.363,0.843,358.799,1.363,0.843,2.548*57
$GPGBS,124522.00,6.247,4.210,14.442,41,0.0001,15.931,8.864*53
$GPGRS,124522.00,1,-0.0,1.0,-0.0,-0.3,-0.0,,,,,,,*60
$GPGRS,124522.00,1,5.8,8.7,11.4,-9.1,-4.3,-2.4,-3.0,,,,,*5E
$GPGRS,124522.00,1,-0.0,-0.4,-1.5,-0.4,0.3,,,,,,,*65
$GPGRS,124522.00,1,-4.2,-0.4,-0.8,-2.3,15.9,-3.6,,,,,,*52
$GPGSV,4,1,14,12,79,304,47,19,32,051,42,11,17,122,,06,25,084,34*76
$GPGSV,4,2,14,32,28,307,45,25,38,268,44,24,62,148,49,15,02,186,*7F
$GPGSV,4,3,14,29,06,207,,17,06,040,21,36,35,170,35,34,31,208,34*7F
$GPGSV,4,4,14,49,34,195,35,61,03,257,*79
$GLGSV,3,1,09,77,62,051,46,69,17,336,37,76,21,087,29,88,12,164,*61
$GLGSV,3,2,09,67,20,230,38,68,35,284,44,86,33,044,45,78,40,299,40*60
$GLGSV,3,3,09,87,45,108,44*5B
$GAGSV,3,1,11,30,72,280,44,08,25,192,36,34,11,133,,11,14,034,*62
$GAGSV,3,2,11,27,20,260,29,29,23,315,44,36,24,083,27,02,49,066,43*69
$GAGSV,3,3,11,07,49,253,40,18,62,108,,10,01,011,*56
$GBGSV,6,1,21,24,81,331,52,07,13,054,23,33,17,249,34,05,20,130,*68
$GBGSV,6,2,21,11,19,223,,41,20,300,39,12,27,165,38,10,26,058,31*6C
$GBGSV,6,3,21,25,23,289,,56,34,053,,44,45,143,43,35,43,072,50*6B
$GBGSV,6,4,21,26,41,100,39,34,08,186,,32,01,347,,40,08,042,25*6D
$GBGSV,6,5,21,14,09,225,31,43,08,244,,29,02,029,,02,04,109,*61
$GBGSV,6,6,21,60,08,111,*57
$GPGGA,124522.00,,,,,0,00,,,M,,M,,*4A
$PTNL,GGK,124522.00,010125,4742.4463904,N,01617.9733761,E,1,23,1.2,EHT668.7001,M*46
$GPGGQ,124522.00,010125,4742.4463904,N,01617.9733761,E,1,23,3.010,625.4890,M*33
$GPGFA,124522.00,12.956,20.891,1.363,0.843,358.799,2.548,,VVV*00
$GPLLK,124522.00,010125,,M,,M,1,23,1.4,,M*0D
$GNGMP,124522.00,,,,,DAAA,23,0.6,,,,*53
$GPGMP,124522.00,,,,,,05,,,,2.4,123*7C
$GLGMP,124522.00,,,,,,07,,,,,*7A
$GAGMP,124522.00,,,,,,05,,,,,*75
$GBGMP,124522.00,,,,,,06,,,,,*75
$PSSN,SNC,[0,305140000,2347]*47
$GPZDA,124527.00,01,01,2025,,*64
$GPDTM,W84,,00.0000000,N,00.0000000,E,00.0000000,W84*5F
$GPRMC,124527.00,A,4742.4463867,N,01617.9733757,E,0.0,,010125,5.1,E,D*19
$GPGLL,4742.4463867,N,01617.9733757,E,124527.00,A,D*68
$GPGGA,124527.00,4742.4463867,N,01617.9733757,E,2,24,0.6,625.5023,M,43.2111,M,3.4,0123*43
$GNGNS,124527.00,4742.4463867,N,01617.9733757,E,DAAA,24,0.6,625.5023,43.2111,,*58
$GPGNS,124527.00,,,,,,05,,,,3.4,123*78
$GLGNS,124527.00,,,,,,07,,,,,*7F
$GAGNS,124527.00,,,,,,06,,,,,*73
$GBGNS,124527.00,,,,,,06,,,,,*70
$GPLLQ,124527.00,010125,,M,,M,1,24,3.535,,M*10
$GPVTG,,T,,M,0.00,N,0.01,K,D*27
$GPHDT,,T*1B
$GPTHS,,V*0E
$GPROT,,V*08
$PSSN,HRP,124527.00,010125,,,,,,,00,0,,*66
$PTNL,AVR,124527.00,,Yaw,,Tilt,,,,0,,00*30
$GPGSA,A,3,12,19,24,25,32,,,,,,,,1.2,0.6,1.0*3D
$GPGSA,A,3,67,68,69,77,78,86,87,,,,,,1.2,0.6,1.0*38
$GPGSA,A,3,02,07,08,29,30,36,,,,,,,1.2,0.6,1.0*36
$GPGSA,A,3,12,24,26,35,41,44,,,,,,,1.2,0.6,1.0*34
$GPGST,124527.00,7.460,1.625,1.005,359.240,1.624,1.005,2.975*54
$GPGBS,124527.00,6.322,4.152,14.470,68,0.0001,12.799,6.225*51
$GPGRS,124527.00,1,-0.3,1.0,-0.3,-0.1,-0.2,,,,,,,*65
$GPGRS,124527.00,1,8.5,12.8,12.8,-9.3,-3.5,-2.2,-1.5,,,,,*62
$GPGRS,124527.00,1,-0.4,-0.8,-1.9,-0.5,0.2,9.3,,,,,,*40
$GPGRS,124527.00,1,-2.7,-0.9,-2.2,-3.3,17.6,-4.1,,,,,,*5D
$GPGSV,4,1,14,12,79,304,46,19,32,051,42,11,17,122,,06,25,084,32*71
$GPGSV,4,2,14,32,28,307,45,25,38,268,45,24,62,148,49,15,02,186,*7E
$GPGSV,4,3,14,29,06,207,,17,06,040,21,36,35,170,35,34,31,208,35*7E
$GPGSV,4,4,14,49,34,195,36,61,03,257,*7A
$GLGSV,3,1,09,77,62,051,46,69,17,336,38,76,21,087,26,88,12,164,*61
$GLGSV,3,2,09,67,20,230,38,68,35,284,40,86,33,044,46,78,40,299,42*65
$GLGSV,3,3,09,87,46,108,45*59
$GAGSV,3,1,11,30,72,280,45,08,25,192,36,34,11,133,,11,14,034,*63
$GAGSV,3,2,11,27,20,260,29,29,23,315,44,36,24,083,27,02,49,066,42*68
$GAGSV,3,3,11,07,49,253,41,18,62,108,,10,01,011,*57
$GBGSV,6,1,21,24,81,331,51,07,13,054,22,33,17,249,32,05,20,130,*6C
$GBGSV,6,2,21,11,19,223,,41,20,300,39,12,27,165,40,10,26,058,31*63
$GBGSV,6,3,21,25,23,289,,56,34,053,,44,45,143,43,35,43,072,50*6B
$GBGSV,6,4,21,26,41,100,39,34,08,186,,32,01,347,,40,08,042,25*6D
$GBGSV,6,5,21,14,09,225,30,43,08,244,,29,02,029,,02,04,109,*60
$GBGSV,6,6,21,60,08,111,*57
$GPGGA,124527.00,,,,,0,00,,,M,,M,,*4F
$PTNL,GGK,124527.00,010125,4742.4463867,N,01617.9733757,E,1,24,1.2,EHT668.7133,M*45
$GPGGQ,124527.00,010125,4742.4463867,N,01617.9733757,E,1,24,3.535,625.5023,M*33
$GPGFA,124527.00,15.446,24.395,1.625,1.005,359.240,2.975,,VVV*0B
$GPLLK,124527.00,010125,,M,,M,1,24,1.3,,M*08
$GNGMP,124527.00,,,,,DAAA,24,0.6,,,,*51
$GPGMP,124527.00,,,,,,05,,,,3.4,123*78
$GLGMP,124527.00,,,,,,07,,,,,*7F
$GAGMP,124527.00,,,,,,06,,,,,*73
$GBGMP,124527.00,,,,,,06,,,,,*70
$PSSN,SNC,[0,305145000,2347]*42
$GPZDA,124532.00,01,01,2025,,*60
$GPDTM,W84,,00.0000000,N,00.0000000,E,00.0000000,W84*5F
$GPRMC,124532.00,A,4742.4463853,N,01617.9733760,E,0.0,,010125,5.1,E,D*1E
$GPGLL,4742.4463853,N,01617.9733760,E,124532.00,A,D*6F
$GPGGA,124532.00,4742.4463853,N,01617.9733760,E,2,22,0.6,625.5111,M,43.2111,M,2.0,0123*47
$GNGNS,124532.00,4742.4463853,N,01617.9733760,E,DAAA,22,0.6,625.5111,43.2111,,*59
$GPGNS,124532.00,,,,,,05,,,,2.0,123*79
$GLGNS,124532.00,,,,,,07,,,,,*7B
$GAGNS,124532.00,,,,,,04,,,,,*75
$GBGNS,124532.00,,,,,,06,,,,,*74
$GPLLQ,124532.00,010125,,M,,M,1,22,3.304,,M*16
$GPVTG,,T,,M,0.01,N,0.01,K,D*26
$GPHDT,,T*1B
$GPTHS,,V*0E
$GPROT,,V*08
$PSSN,HRP,124532.00,010125,,,,,,,00,0,,*62
$PTNL,AVR,124532.00,,Yaw,,Tilt,,,,0,,00*34
$GPGSA,A,3,12,19,24,25,32,,,,,,,,1.3,0.6,1.1*3D
$GPGSA,A,3,67,68,69,77,78,86,87,,,,,,1.3,0.6,1.1*38
$GPGSA,A,3,02,07,29,30,,,,,,,,,1.3,0.6,1.1*3B
$GPGSA,A,3,12,24,26,35,41,44,,,,,,,1.3,0.6,1.1*34
$GPGST,124532.00,6.903,1.507,0.924,358.753,1.507,0.924,2.792*59
$GPGBS,124532.00,6.448,4.106,15.623,69,0.0001,18.255,6.813*5B
$GPGRS,124532.00,1,-0.4,0.8,-0.3,0.1,-0.1,,,,,,,*41
$GPGRS,124532.00,1,11.0,0.0,18.3,-9.4,-2.5,-1.6,-1.5,,,,,*60
$GPGRS,124532.00,1,-0.5,-0.3,-0.3,0.6,,,,,,,,*63
$GPGRS,124532.00,1,-0.8,-1.1,0.4,-4.2,11.3,-3.5,,,,,,*72
$GPGSV,4,1,14,12,79,304,46,19,32,050,42,11,17,122,,06,25,084,30*72
$GPGSV,4,2,14,32,28,307,45,25,38,268,45,24,62,148,50,15,02,186,*76
$GPGSV,4,3,14,29,06,207,,17,06,040,20,36,35,170,35,34,31,208,35*7F
$GPGSV,4,4,14,49,34,195,35,61,03,257,*79
$GLGSV,3,1,09,77,62,052,46,69,17,336,39,76,21,087,25,88,12,164,*60
$GLGSV,3,2,09,67,20,230,35,68,35,284,37,86,33,044,46,78,40,299,43*69
$GLGSV,3,3,09,87,46,108,45*59
$GAGSV,3,1,11,30,72,280,46,08,25,192,35,34,11,133,,11,14,034,*63
$GAGSV,3,2,11,27,20,260,28,29,23,315,44,36,24,083,29,02,49,066,42*67
$GAGSV,3,3,11,07,49,253,41,18,62,108,,10,01,011,*57
$GBGSV,6,1,21,24,82,332,51,07,13,054,22,33,17,249,29,05,20,130,*66
$GBGSV,6,2,21,11,19,223,,41,20,300,38,12,27,165,41,10,26,058,30*62
$GBGSV,6,3,21,25,23,289,,56,34,053,,44,45,143,43,35,43,072,49*63
$GBGSV,6,4,21,26,41,100,41,34,08,186,,32,01,347,,40,08,042,25*62
$GBGSV,6,5,21,14,09,225,29,43,08,244,,29,02,029,,02,04,109,*68
$GBGSV,6,6,21,60,08,111,*57
$GPGGA,124532.00,,,,,0,00,,,M,,M,,*4B
$PTNL,GGK,124532.00,010125,4742.4463853,N,01617.9733760,E,1,22,1.3,EHT668.7222,M*46
$GPGGQ,124532.00,010125,4742.4463853,N,01617.9733760,E,1,22,3.304,625.5111,M*36
$GPGFA,124532.00,14.329,22.891,1.507,0.924,358.753,2.792,,VVV*00
$GPLLK,124532.00,010125,,M,,M,1,22,1.5,,M*0C
$GNGMP,124532.00,,,,,DAAA,22,0.6,,,,*53
$GPGMP,124532.00,,,,,,05,,,,2.0,123*79
$GLGMP,124532.00,,,,,,07,,,,,*7B
$GAGMP,124532.00,,,,,,04,,,,,*75
$GBGMP,124532.00,,,,,,06,,,,,*74
$PSSN,SNC,[0,305150000,2347]*46
$GPZDA,124537.00,01,01,2025,,*65
$GPDTM,W84,,00.0000000,N,00.0000000,E,00.0000000,W84*5F
$GPRMC,124537.00,A,4742.4463796,N,01617.9733745,E,0.0,,010125,5.1,E,D*1A
$GPGLL,4742.4463796,N,01617.9733745,E,124537.00,A,D*6B
$GPGGA,124537.00,4742.4463796,N,01617.9733745,E,2,20,0.7,625.5264,M,43.2111,M,2.2,0123*43
$GNGNS,124537.00,4742.4463796,N,01617.9733745,E,DAAA,20,0.7,625.5264,43.2111,,*5F
$GPGNS,124537.00,,,,,,05,,,,2.2,123*7E
$GLGNS,124537.00,,,,,,05,,,,,*7C
$GAGNS,124537.00,,,,,,04,,,,,*70
$GBGNS,124537.00,,,,,,06,,,,,*71
$GPLLQ,124537.00,010125,,M,,M,1,20,3.432,,M*13
$GPVTG,,T,,M,0.00,N,0.01,K,D*27
$GPHDT,,T*1B
$GPTHS,,V*0E
$GPROT,,V*08
$PSSN,HRP,124537.00,010125,,,,,,,00,0,,*67
$PTNL,AVR,124537.00,,Yaw,,Tilt,,,,0,,00*31
$GPGSA,A,3,12,19,24,25,32,,,,,,,,1.5,0.7,1.3*38
$GPGSA,A,3,68,77,78,86,87,,,,,,,,1.5,0.7,1.3*33
$GPGSA,A,3,02,07,29,30,,,,,,,,,1.5,0.7,1.3*3E
$GPGSA,A,3,12,24,26,35,41,44,,,,,,,1.5,0.7,1.3*31
$GPGST,124537.00,4.266,1.567,0.916,359.160,1.566,0.916,2.912*56
$GPGBS,124537.00,6.794,4.187,16.586,77,0.0001,-8.792,6.107*4B
$GPGRS,124537.00,1,-0.3,1.5,-0.3,0.1,-0.1,,,,,,,*4F
$GPGRS,124537.00,1,-3.3,-8.8,-1.3,-1.7,-3.7,,,,,,,*4B
$GPGRS,124537.00,1,-1.1,-0.4,-0.7,0.3,,,,,,,,*65
$GPGRS,124537.00,1,-0.4,-1.1,7.8,-5.0,5.8,-2.1,,,,,,*48
$GPGSV,4,1,14,12,79,304,46,19,32,050,42,11,17,122,,06,25,084,29*7A
$GPGSV,4,2,14,32,28,307,46,25,39,268,46,24,62,148,50,15,02,186,*77
$GPGSV,4,3,14,29,06,207,,17,06,040,,36,35,170,35,34,31,208,35*7D
$GPGSV,4,4,14,49,34,195,35,61,03,257,*79
$GLGSV,3,1,09,77,62,052,46,69,17,336,,76,21,087,,88,12,164,*6D
$GLGSV,3,2,09,67,20,230,34,68,35,284,36,86,33,044,47,78,40,299,45*6E
$GLGSV,3,3,09,87,46,108,45*59
$GAGSV,3,1,11,30,72,280,47,08,25,192,35,34,11,133,,11,13,033,*62
$GAGSV,3,2,11,27,20,260,26,29,24,315,43,36,24,083,29,02,49,066,40*6B
$GAGSV,3,3,11,07,49,253,41,18,62,108,,10,01,011,*57
$GBGSV,6,1,21,24,82,332,50,07,13,054,22,33,17,249,31,05,20,130,*6E
$GBGSV,6,2,21,11,19,223,,41,20,300,37,12,27,165,41,10,26,058,30*6D
$GBGSV,6,3,21,25,23,289,,56,34,053,,44,45,143,44,35,43,072,48*65
$GBGSV,6,4,21,26,41,100,41,34,08,186,,32,01,347,,40,08,042,25*62
$GBGSV,6,5,21,14,09,225,28,43,08,244,,29,02,029,,02,04,109,*69
$GBGSV,6,6,21,60,08,111,*57
$GPGGA,124537.00,,,,,0,00,,,M,,M,,*4E
$PTNL,GGK,124537.00,010125,4742.4463796,N,01617.9733745,E,1,20,1.5,EHT668.7374,M*44
$GPGGQ,124537.00,010125,4742.4463796,N,01617.9733745,E,1,20,3.432,625.5264,M*33
$GPGFA,124537.00,14.894,23.882,1.567,0.916,359.160,2.912,,VVV*0D
$GPLLK,124537.00,010125,,M,,M,1,20,1.7,,M*09
$GNGMP,124537.00,,,,,DAAA,20,0.7,,,,*55
$GPGMP,124537.00,,,,,,05,,,,2.2,123*7E
$GLGMP,124537.00,,,,,,05,,,,,*7C
$GAGMP,124537.00,,,,,,04,,,,,*70
$GBGMP,124537.00,,,,,,06,,,,,*71
$PSSN,SNC,[0,305155000,2347]*43
$GPZDA,124542.00,01,01,2025,,*67
$GPDTM,W84,,00.0000000,N,00.0000000,E,00.0000000,W84*5F
$GPRMC,124542.00,A,4742.4463758,N,01617.9733712,E,0.0,,010125,5.1,E,D*18
$GPGLL,4742.4463758,N,01617.9733712,E,124542.00,A,D*69
$GPGGA,124542.00,4742.4463758,N,01617.9733712,E,2,19,0.7,625.5402,M,43.2111,M,2.4,0123*4B
$GNGNS,124542.00,4742.4463758,N,01617.9733712,E,DAAA,19,0.7,625.5402,43.2111,,*51
$GPGNS,124542.00,,,,,,05,,,,2.4,123*7A
$GLGNS,124542.00,,,,,,05,,,,,*7E
$GAGNS,124542.00,,,,,,04,,,,,*72
$GBGNS,124542.00,,,,,,05,,,,,*70
$GPLLQ,124542.00,010125,,M,,M,1,19,2.392,,M*17
$GPVTG,,T,,M,0.00,N,0.01,K,D*27
$GPHDT,,T*1B
$GPTHS,,V*0E
$GPROT,,V*08
$PSSN,HRP,124542.00,010125,,,,,,,00,0,,*65
$PTNL,AVR,124542.00,,Yaw,,Tilt,,,,0,,00*33
$GPGSA,A,3,12,19,24,25,32,,,,,,,,1.5,0.7,1.4*3F
$GPGSA,A,3,68,77,78,86,87,,,,,,,,1.5,0.7,1.4*34
$GPGSA,A,3,02,07,29,30,,,,,,,,,1.5,0.7,1.4*39
$GPGSA,A,3,12,24,26,35,44,,,,,,,,1.5,0.7,1.4*33
$GPGST,124542.00,3.825,1.101,0.648,359.369,1.101,0.648,2.023*5F
$GPGBS,124542.00,6.979,4.231,15.773,19,0.0001,1.665,1.055*65
$GPGRS,124542.00,1,-0.1,1.7,-0.1,-0.4,0.1,,,,,,,*4A
$GPGRS,124542.00,1,-0.1,-9.0,0.8,-0.6,-5.7,,,,,,,*60
$GPGRS,124542.00,1,-1.1,-1.3,-1.4,-0.0,,,,,,,,*4D
$GPGRS,124542.00,1,-0.6,-0.8,-4.5,-5.7,-0.3,,,,,,,*47
$GPGSV,4,1,14,12,79,304,45,19,32,050,43,11,17,122,,06,25,084,30*70
$GPGSV,4,2,14,32,28,307,47,25,39,268,47,24,62,148,51,15,02,186,*76
$GPGSV,4,3,14,29,06,207,,17,06,040,,36,35,170,35,34,31,208,34*7C
$GPGSV,4,4,14,49,34,195,35,61,03,257,*79
$GLGSV,3,1,09,77,62,052,45,69,17,336,37,76,21,087,,88,12,164,*6A
$GLGSV,3,2,09,67,20,230,35,68,35,284,35,86,33,044,47,78,40,299,46*6F
$GLGSV,3,3,09,87,46,108,45*59
$GAGSV,3,1,11,30,72,280,47,08,25,192,34,34,11,133,,11,13,033,*63
$GAGSV,3,2,11,27,20,260,23,29,24,315,43,36,24,083,28,02,49,066,39*61
$GAGSV,3,3,11,07,48,253,40,18,62,108,,10,01,011,*57
$GBGSV,6,1,21,24,82,332,50,07,13,054,22,33,17,249,31,05,20,130,*6E
$GBGSV,6,2,21,11,19,223,,41,20,300,35,12,28,165,41,10,26,058,30*60
$GBGSV,6,3,21,25,23,289,,56,34,053,,44,45,143,45,35,43,072,47*6B
$GBGSV,6,4,21,26,41,100,41,34,08,186,,32,01,347,,40,08,042,25*62
$GBGSV,6,5,21,14,09,225,27,43,08,244,,29,02,029,,02,04,109,*66
$GBGSV,6,6,21,60,08,111,*57
$GPGGA,124542.00,,,,,0,00,,,M,,M,,*4C
$PTNL,GGK,124542.00,010125,4742.4463758,N,01617.9733712,E,1,19,1.5,EHT668.7512,M*4A
$GPGGQ,124542.00,010125,4742.4463758,N,01617.9733712,E,1,19,2.392,625.5402,M*31
$GPGFA,124542.00,10.467,16.585,1.101,0.648,359.369,2.023,,VVV*07
$GPLLK,124542.00,010125,,M,,M,1,19,1.8,,M*0E
$GNGMP,124542.00,,,,,DAAA,19,0.7,,,,*5D
$GPGMP,124542.00,,,,,,05,,,,2.4,123*7A
$GLGMP,124542.00,,,,,,05,,,,,*7E
$GAGMP,124542.00,,,,,,04,,,,,*72
$GBGMP,124542.00,,,,,,05,,,,,*70
$PSSN,SNC,[0,305160000,2347]*45
$GPZDA,124547.00,01,01,2025,,*62
$GPDTM,W84,,00.0000000,N,00.0000000,E,00.0000000,W84*5F
$GPRMC,124547.00,A,4742.4463713,N,01617.9733569,E,0.0,,010125,5.1,E,D*1C
$GPGLL,4742.4463713,N,01617.9733569,E,124547.00,A,D*6D
$GPGGA,124547.00,4742.4463713,N,01617.9733569,E,2,19,0.7,625.5504,M,43.2111,M,1.6,0123*49
$GNGNS,124547.00,4742.4463713,N,01617.9733569,E,DAAA,19,0.7,625.5504,43.2111,,*52
$GPGNS,124547.00,,,,,,05,,,,1.6,123*7E
$GLGNS,124547.00,,,,,,05,,,,,*7B
$GAGNS,124547.00,,,,,,04,,,,,*77
$GBGNS,124547.00,,,,,,05,,,,,*75
$GPLLQ,124547.00,010125,,M,,M,1,19,3.935,,M*14
$GPVTG,,T,,M,0.00,N,0.01,K,D*27
$GPHDT,,T*1B
$GPTHS,,V*0E
$GPROT,,V*08
$PSSN,HRP,124547.00,010125,,,,,,,00,0,,*60
$PTNL,AVR,124547.00,,Yaw,,Tilt,,,,0,,00*36
$GPGSA,A,3,12,19,24,25,32,,,,,,,,1.5,0.7,1.4*3F
$GPGSA,A,3,68,77,78,86,87,,,,,,,,1.5,0.7,1.4*34
$GPGSA,A,3,02,07,29,30,,,,,,,,,1.5,0.7,1.4*39
$GPGSA,A,3,12,24,26,35,44,,,,,,,,1.5,0.7,1.4*33
$GPGST,124547.00,8.231,1.820,1.076,359.710,1.820,1.076,3.319*5F
$GPGBS,124547.00,6.776,4.134,16.005,26,0.0001,24.456,8.592*5C
$GPGRS,124547.00,1,-0.4,2.5,-0.2,-0.3,-0.5,,,,,,,*66
$GPGRS,124547.00,1,3.9,-9.9,-2.3,-0.0,-6.4,,,,,,,*68
$GPGRS,124547.00,1,-0.7,-1.4,-1.7,-0.3,,,,,,,,*48
$GPGRS,124547.00,1,-1.9,-0.4,24.5,-6.4,0.3,,,,,,,*72
$GPGSV,4,1,14,12,79,305,43,19,32,050,42,11,17,122,,06,25,084,27*70
$GPGSV,4,2,14,32,28,307,47,25,39,268,48,24,61,148,51,15,02,186,*7A
$GPGSV,4,3,14,29,06,207,,17,06,040,,36,35,170,35,34,31,208,34*7C
$GPGSV,4,4,14,49,34,195,35,61,03,257,*79
$GLGSV,3,1,09,77,62,052,45,69,17,336,31,76,21,087,26,88,12,164,*68
$GLGSV,3,2,09,67,20,230,34,68,35,284,37,86,33,044,46,78,40,299,45*6E
$GLGSV,3,3,09,87,46,108,45*59
$GAGSV,3,1,11,30,72,280,47,08,25,192,34,34,12,133,,11,13,033,*60
$GAGSV,3,2,11,27,20,260,23,29,24,315,42,36,24,083,28,02,49,066,38*61
$GAGSV,3,3,11,07,48,253,40,18,62,108,,10,01,011,*57
$GBGSV,6,1,21,24,82,332,50,07,13,054,21,33,17,249,34,05,20,130,*68
$GBGSV,6,2,21,11,19,223,,41,20,300,32,12,28,165,41,10,26,058,29*6F
$GBGSV,6,3,21,25,23,289,,56,34,053,,44,45,143,45,35,43,072,46*6A
$GBGSV,6,4,21,26,41,101,39,34,08,186,,32,01,347,,40,08,042,26*6F
$GBGSV,6,5,21,14,08,225,26,43,08,244,,29,02,029,,02,04,109,*66
$GBGSV,6,6,21,60,08,111,*57
$GPGGA,124547.00,,,,,0,00,,,M,,M,,*49
$PTNL,GGK,124547.00,010125,4742.4463713,N,01617.9733569,E,1,19,1.5,EHT668.7615,M*4A
$GPGGQ,124547.00,010125,4742.4463713,N,01617.9733569,E,1,19,3.935,625.5504,M*34
$GPGFA,124547.00,17.302,27.212,1.820,1.076,359.710,3.319,,VVV*0B
$GPLLK,124547.00,010125,,M,,M,1,19,1.8,,M*0B
$GNGMP,124547.00,,,,,DAAA,19,0.7,,,,*58
$GPGMP,124547.00,,,,,,05,,,,1.6,123*7E
$GLGMP,124547.00,,,,,,05,,,,,*7B
$GAGMP,124547.00,,,,,,04,,,,,*77
$GBGMP,124547.00,,,,,,05,,,,,*75
$PSSN,SNC,[0,305165000,2347]*40
$GPZDA,124552.00,01,01,2025,,*66
$GPDTM,W84,,00.0000000,N,00.0000000,E,00.0000000,W84*5F
$GPRMC,124552.00,A,4742.4463618,N,01617.9733425,E,0.0,,010125,5.1,E,D*1B
$GPGLL,4742.4463618,N,01617.9733425,E,124552.00,A,D*6A
$GPGGA,124552.00,4742.4463618,N,01617.9733425,E,2,19,0.7,625.5586,M,43.2111,M,2.6,0123*47
$GNGNS,124552.00,4742.4463618,N,01617.9733425,E,DAAA,19,0.7,625.5586,43.2111,,*5F
$GPGNS,124552.00,,,,,,05,,,,2.6,123*79
$GLGNS,124552.00,,,,,,05,,,,,*7F
$GAGNS,124552.00,,,,,,04,,,,,*73
$GBGNS,124552.00,,,,,,05,,,,,*71
$GPLLQ,124552.00,010125,,M,,M,1,19,4.464,,M*1E
$GPVTG,,T,,M,0.01,N,0.01,K,D*26
$GPHDT,,T*1B
$GPTHS,,V*0E
$GPROT,,V*08
$PSSN,HRP,124552.00,010125,,,,,,,00,0,,*64
$PTNL,AVR,124552.00,,Yaw,,Tilt,,,,0,,00*32
$GPGSA,A,3,12,19,24,25,32,,,,,,,,1.5,0.7,1.4*3F
$GPGSA,A,3,68,77,78,86,87,,,,,,,,1.5,0.7,1.4*34
$GPGSA,A,3,02,07,29,30,,,,,,,,,1.5,0.7,1.4*39
$GPGSA,A,3,12,24,26,35,44,,,,,,,,1.5,0.7,1.4*33
$GPGST,124552.00,8.080,2.047,1.205,359.411,2.047,1.205,3.780*55
$GPGBS,124552.00,6.864,4.172,16.269,19,0.0001,3.194,1.047*68
$GPGRS,124552.00,1,-0.0,3.2,-0.6,-0.5,-0.7,,,,,,,*60
$GPGRS,124552.00,1,9.2,-9.7,-5.1,-1.7,-6.7,,,,,,,*63
$GPGRS,124552.00,1,-0.4,-0.3,-1.8,-0.7,,,,,,,,*42
$GPGRS,124552.00,1,-2.0,-0.2,21.6,-6.8,-0.2,,,,,,,*5C
$GPGSV,4,1,14,12,79,305,44,19,32,050,41,11,17,122,,06,25,084,26*75
$GPGSV,4,2,14,32,28,307,47,25,39,268,47,24,61,148,51,15,02,186,*75
$GPGSV,4,3,14,29,06,207,,17,06,040,,36,35,170,35,34,31,208,34*7C
$GPGSV,4,4,14,49,34,195,35,61,03,257,*79
$GLGSV,3,1,09,77,61,052,45,69,17,336,33,76,21,087,27,88,12,164,*68
$GLGSV,3,2,09,67,20,230,28,68,35,284,40,86,33,044,43,78,40,300,45*67
$GLGSV,3,3,09,87,46,108,44*58
$GAGSV,3,1,11,30,72,281,46,08,25,192,35,34,12,133,,11,13,033,*61
$GAGSV,3,2,11,27,21,260,25,29,24,315,42,36,24,083,28,02,49,066,37*69
$GAGSV,3,3,11,07,48,253,40,18,62,108,,10,01,011,*57
$GBGSV,6,1,21,24,82,332,50,07,13,054,21,33,17,249,34,05,20,130,*68
$GBGSV,6,2,21,11,19,223,,41,20,300,29,12,28,165,41,10,26,058,30*6D
$GBGSV,6,3,21,25,23,289,,56,34,053,,44,45,143,45,35,43,072,46*6A
$GBGSV,6,4,21,26,41,101,37,34,08,186,,32,01,347,,40,08,042,26*61
$GBGSV,6,5,21,14,08,225,25,43,08,244,,29,02,029,,02,04,109,*65
$GBGSV,6,6,21,60,08,111,*57
$GPGGA,124552.00,,,,,0,00,,,M,,M,,*4D
$PTNL,GGK,124552.00,010125,4742.4463618,N,01617.9733425,E,1,19,1.5,EHT668.7697,M*47
$GPGGQ,124552.00,010125,4742.4463618,N,01617.9733425,E,1,19,4.464,625.5586,M*37
$GPGFA,124552.00,19.461,30.992,2.047,1.205,359.411,3.780,,VVV*0C
$GPLLK,124552.00,010125,,M,,M,1,19,1.8,,M*0F
$GNGMP,124552.00,,,,,DAAA,19,0.7,,,,*5C
$GPGMP,124552.00,,,,,,05,,,,2.6,123*79
$GLGMP,124552.00,,,,,,05,,,,,*7F
$GAGMP,124552.00,,,,,,04,,,,,*73
$GBGMP,124552.00,,,,,,05,,,,,*71
$PSSN,SNC,[0,305170000,2347]*44
$GPZDA,124557.00,01,01,2025,,*63
$GPDTM,W84,,00.0000000,N,00.0000000,E,00.0000000,W84*5F
$GPRMC,124557.00,A,4742.4463522,N,01617.9733297,E,0.0,,010125,5.1,E,D*1B
$GPGLL,4742.4463522,N,01617.9733297,E,124557.00,A,D*6A
$GPGGA,124557.00,4742.4463522,N,01617.9733297,E,2,20,0.7,625.5632,M,43.2111,M,2.8,0123*4F
$GNGNS,124557.00,4742.4463522,N,01617.9733297,E,DAAA,20,0.7,625.5632,43.2111,,*59
$GPGNS,124557.00,,,,,,05,,,,2.8,123*72
$GLGNS,124557.00,,,,,,05,,,,,*7A
$GAGNS,124557.00,,,,,,05,,,,,*77
$GBGNS,124557.00,,,,,,05,,,,,*74
$GPLLQ,124557.00,010125,,M,,M,1,20,3.880,,M*10
$GPVTG,,T,,M,0.01,N,0.01,K,D*26
$GPHDT,,T*1B
$GPTHS,,V*0E
$GPROT,,V*08
$PSSN,HRP,124557.00,010125,,,,,,,00,0,,*61
$PTNL,AVR,124557.00,,Yaw,,Tilt,,,,0,,00*37
$GPGSA,A,3,12,19,24,25,32,,,,,,,,1.4,0.7,1.3*39
$GPGSA,A,3,68,77,78,86,87,,,,,,,,1.4,0.7,1.3*32
$GPGSA,A,3,02,07,08,29,30,,,,,,,,1.4,0.7,1.3*37
$GPGSA,A,3,12,24,26,35,44,,,,,,,,1.4,0.7,1.3*35
$GPGST,124557.00,5.607,1.763,1.070,359.659,1.763,1.070,3.287*58
$GPGBS,124557.00,6.492,4.250,15.661,68,0.0001,13.150,6.227*58
$GPGRS,124557.00,1,1.1,2.0,-0.7,-1.4,-0.7,,,,,,,*4A
$GPGRS,124557.00,1,13.1,-8.8,-3.8,-4.1,-6.8,,,,,,,*53
$GPGRS,124557.00,1,0.2,0.3,-1.8,-1.7,-0.5,,,,,,,*46
$GPGRS,124557.00,1,-0.7,0.5,-4.5,-6.7,-0.3,,,,,,,*61
$GPGSV,4,1,14,12,79,305,45,19,32,050,40,11,17,122,,06,25,084,29*7A
$GPGSV,4,2,14,32,28,307,46,25,39,268,46,24,61,148,50,15,02,186,*74
$GPGSV,4,3,14,29,06,207,,17,06,040,,36,35,170,35,34,31,208,34*7C
$GPGSV,4,4,14,49,34,195,35,61,03,257,*79
$GLGSV,3,1,09,77,61,052,44,69,17,336,34,76,21,087,27,88,12,164,*6E
$GLGSV,3,2,09,67,20,230,32,68,35,284,39,86,33,044,42,78,40,300,45*63
$GLGSV,3,3,09,87,46,108,44*58
$GAGSV,3,1,11,30,72,281,46,08,25,192,35,34,12,133,,11,13,033,*61
$GAGSV,3,2,11,27,21,260,27,29,24,315,41,36,24,083,27,02,49,066,37*67
$GAGSV,3,3,11,07,48,253,40,18,62,108,,10,01,011,*57
$GBGSV,6,1,21,24,82,332,49,07,13,054,21,33,17,249,34,05,20,130,*60
$GBGSV,6,2,21,11,19,223,,41,20,300,32,12,28,165,41,10,26,058,30*67
$GBGSV,6,3,21,25,23,289,,56,34,053,,44,45,143,44,35,43,072,45*68
$GBGSV,6,4,21,26,41,101,42,34,08,186,,32,01,347,,40,08,042,26*63
$GBGSV,6,5,21,14,08,225,23,43,08,244,,29,02,029,,02,04,109,*63
$GBGSV,6,6,21,60,08,111,*57
$GPGGA,124557.00,,,,,0,00,,,M,,M,,*48
$PTNL,GGK,124557.00,010125,4742.4463522,N,01617.9733297,E,1,20,1.4,EHT668.7742,M*45
$GPGGQ,124557.00,010125,4742.4463522,N,01617.9733297,E,1,20,3.880,625.5632,M*30
$GPGFA,124557.00,16.758,26.956,1.763,1.070,359.659,3.287,,VVV*0E
$GPLLK,124557.00,010125,,M,,M,1,20,1.7,,M*0F
$GNGMP,124557.00,,,,,DAAA,20,0.7,,,,*53
$GPGMP,124557.00,,,,,,05,,,,2.8,123*72
$GLGMP,124557.00,,,,,,05,,,,,*7A
$GAGMP,124557.00,,,,,,05,,,,,*77
$GBGMP,124557.00,,,,,,05,,,,,*74
$PSSN,SNC,[0,305175000,2347]*41
$GPZDA,124602.00,01,01,2025,,*60
$GPDTM,W84,,00.0000000,N,00.0000000,E,00.0000000,W84*5F
$GPRMC,124602.00,A,4742.4463416,N,01617.9733164,E,0.0,,010125,5.1,E,D*11
$GPGLL,4742.4463416,N,01617.9733164,E,124602.00,A,D*60
$GPGGA,124602.00,4742.4463416,N,01617.9733164,E,2,21,0.6,625.5550,M,43.2111,M,3.0,0123*4B
$GNGNS,124602.00,4742.4463416,N,01617.9733164,E,DAAA,21,0.6,625.5550,43.2111,,*54
$GPGNS,124602.00,,,,,,05,,,,3.0,123*78
$GLGNS,124602.00,,,,,,05,,,,,*79
$GAGNS,124602.00,,,,,,05,,,,,*74
$GBGNS,124602.00,,,,,,06,,,,,*74
$GPLLQ,124602.00,010125,,M,,M,1,21,4.122,,M*14
$GPVTG,,T,,M,0.00,N,0.00,K,D*26
$GPHDT,,T*1B
$GPTHS,,V*0E
$GPROT,,V*08
$PSSN,HRP,124602.00,010125,,,,,,,00,0,,*62
$PTNL,AVR,124602.00,,Yaw,,Tilt,,,,0,,00*34
$GPGSA,A,3,12,19,24,25,32,,,,,,,,1.3,0.6,1.1*3D
$GPGSA,A,3,69,77,78,86,87,,,,,,,,1.3,0.6,1.1*37
$GPGSA,A,3,02,07,08,29,30,,,,,,,,1.3,0.6,1.1*33
$GPGSA,A,3,12,24,26,35,41,44,,,,,,,1.3,0.6,1.1*34
$GPGST,124602.00,7.086,1.889,1.150,0.416,1.889,1.150,3.479*57
$GPGBS,124602.00,6.580,4.357,14.922,41,0.0001,18.740,8.865*53
$GPGRS,124602.00,1,0.9,2.1,-0.6,-1.7,-0.3,,,,,,,*47
$GPGRS,124602.00,1,10.3,-9.6,-3.4,-4.5,-7.3,,,,,,,*5C
$GPGRS,124602.00,1,1.1,0.6,-1.4,-1.4,0.2,,,,,,,*67
$GPGRS,124602.00,1,0.8,1.4,-4.4,-5.8,18.7,0.5,,,,,,*76
$GPGSV,4,1,14,12,79,305,45,19,32,050,38,11,17,122,,06,25,084,29*75
$GPGSV,4,2,14,32,28,307,46,25,39,268,45,24,61,148,50,15,02,186,*77
$GPGSV,4,3,14,29,06,207,,17,06,040,,36,35,170,35,34,31,208,35*7D
$GPGSV,4,4,14,49,34,195,35,61,03,257,*79
$GLGSV,3,1,09,77,61,052,44,69,17,336,35,76,21,087,27,88,12,164,*6F
$GLGSV,3,2,09,67,20,230,33,68,35,284,30,86,33,044,41,78,40,300,43*6E
$GLGSV,3,3,09,87,46,108,43*5F
$GAGSV,3,1,11,30,72,281,45,08,25,192,36,34,12,133,,11,13,033,*61
$GAGSV,3,2,11,27,21,260,26,29,24,315,40,36,24,083,31,02,49,066,38*6F
$GAGSV,3,3,11,07,48,253,39,18,62,108,,10,01,011,*59
$GBGSV,6,1,21,24,82,332,49,07,13,054,20,33,17,249,35,05,20,130,*60
$GBGSV,6,2,21,11,19,223,,41,20,300,36,12,28,165,40,10,26,058,30*62
$GBGSV,6,3,21,25,23,289,,56,34,053,,44,45,143,43,35,43,072,45*6F
$GBGSV,6,4,21,26,41,101,35,34,09,186,,32,01,347,,40,08,042,26*62
$GBGSV,6,5,21,14,08,225,22,43,08,244,,29,02,029,,02,04,109,*62
$GBGSV,6,6,21,60,08,111,*57
$GPGGA,124602.00,,,,,0,00,,,M,,M,,*4B
$PTNL,GGK,124602.00,010125,4742.4463416,N,01617.9733164,E,1,21,1.3,EHT668.7661,M*49
$GPGGQ,124602.00,010125,4742.4463416,N,01617.9733164,E,1,21,4.122,625.5550,M*3A
$GPGFA,124602.00,17.961,28.527,1.889,1.150,0.416,3.479,,VVV*05
$GPLLK,124602.00,010125,,M,,M,1,21,1.5,,M*0F
$GNGMP,124602.00,,,,,DAAA,21,0.6,,,,*50
$GPGMP,124602.00,,,,,,05,,,,3.0,123*78
$GLGMP,124602.00,,,,,,05,,,,,*79
$GAGMP,124602.00,,,,,,05,,,,,*74
$GBGMP,124602.00,,,,,,06,,,,,*74
$PSSN,SNC,[0,305180000,2347]*4B
$GPZDA,124607.00,01,01,2025,,*65
$GPDTM,W84,,00.0000000,N,00.0000000,E,00.0000000,W84*5F
$GPRMC,124607.00,A,4742.4463293,N,01617.9733035,E,0.0,,010125,5.1,E,D*1A
$GPGLL,4742.4463293,N,01617.9733035,E,124607.00,A,D*6B
$GPGGA,124607.00,4742.4463293,N,01617.9733035,E,2,22,0.6,625.5543,M,43.2111,M,1.6,0123*45
$GNGNS,124607.00,4742.4463293,N,01617.9733035,E,DAAA,22,0.6,625.5543,43.2111,,*5E
$GPGNS,124607.00,,,,,,05,,,,1.6,123*79
$GLGNS,124607.00,,,,,,05,,,,,*7C
$GAGNS,124607.00,,,,,,05,,,,,*71
$GBGNS,124607.00,,,,,,07,,,,,*70
$GPLLQ,124607.00,010125,,M,,M,1,22,4.043,,M*14
$GPVTG,,T,,M,0.00,N,0.01,K,D*27
$GPHDT,,T*1B
$GPTHS,,V*0E
$GPROT,,V*08
$PSSN,HRP,124607.00,010125,,,,,,,00,0,,*67
$PTNL,AVR,124607.00,,Yaw,,Tilt,,,,0,,00*31
$GPGSA,A,3,12,19,24,25,32,,,,,,,,1.2,0.6,1.1*3C
$GPGSA,A,3,69,77,78,86,87,,,,,,,,1.2,0.6,1.1*36
$GPGSA,A,3,02,07,08,29,30,,,,,,,,1.2,0.6,1.1*32
$GPGSA,A,3,12,24,26,33,35,41,44,,,,,,1.2,0.6,1.1*35
$GPGST,124607.00,7.296,1.857,1.146,0.583,1.857,1.146,3.404*56
$GPGBS,124607.00,6.299,4.180,15.002,19,0.0001,2.879,1.044*6A
$GPGRS,124607.00,1,0.5,2.9,-0.5,-1.2,-0.3,,,,,,,*40
$GPGRS,124607.00,1,11.6,-10.0,-4.6,-4.8,-7.1,,,,,,,*69
$GPGRS,124607.00,1,0.4,-0.6,-1.7,-1.8,0.3,,,,,,,*45
$GPGRS,124607.00,1,1.9,1.4,-6.3,19.1,-5.3,3.5,0.9,,,,,*5E
$GPGSV,4,1,14,12,79,305,46,19,32,050,37,11,17,122,,06,25,084,29*79
$GPGSV,4,2,14,32,28,307,45,25,39,269,45,24,61,148,50,15,02,186,*75
$GPGSV,4,3,14,29,07,207,,17,06,040,,36,35,170,35,34,31,208,34*7D
$GPGSV,4,4,14,49,34,195,35,61,03,257,*79
$GLGSV,3,1,09,77,61,052,45,69,17,336,38,76,20,087,30,88,12,164,*64
$GLGSV,3,2,09,67,20,230,27,68,35,284,,86,33,044,39,78,41,300,43*66
$GLGSV,3,3,09,87,46,108,44*58
$GAGSV,3,1,11,30,72,281,46,08,25,192,38,34,12,133,,11,13,033,*6C
$GAGSV,3,2,11,27,21,260,27,29,24,315,40,36,24,083,32,02,49,066,40*62
$GAGSV,3,3,11,07,48,253,39,18,62,108,,10,01,011,*59
$GBGSV,6,1,21,24,82,333,50,07,13,054,31,33,17,249,36,05,20,130,*6A
$GBGSV,6,2,21,11,19,223,,41,20,300,37,12,28,165,40,10,26,058,29*6B
$GBGSV,6,3,21,25,23,289,,56,34,053,,44,45,143,43,35,43,072,45*6F
$GBGSV,6,4,21,26,41,101,36,34,09,186,,32,01,347,,40,08,042,26*61
$GBGSV,6,5,21,14,08,225,21,43,08,244,,29,02,029,,02,04,109,*61
$GBGSV,6,6,21,60,08,111,*57
$GPGGA,124607.00,,,,,0,00,,,M,,M,,*4E
$PTNL,GGK,124607.00,010125,4742.4463293,N,01617.9733035,E,1,22,1.2,EHT668.7653,M*41
$GPGGQ,124607.00,010125,4742.4463293,N,01617.9733035,E,1,22,4.043,625.5543,M*36
$GPGFA,124607.00,17.660,27.911,1.857,1.146,0.583,3.404,,VVV*0B
$GPLLK,124607.00,010125,,M,,M,1,22,1.4,,M*08
$GNGMP,124607.00,,,,,DAAA,22,0.6,,,,*56
$GPGMP,124607.00,,,,,,05,,,,1.6,123*79
$GLGMP,124607.00,,,,,,05,,,,,*7C
$GAGMP,124607.00,,,,,,05,,,,,*71
$GBGMP,124607.00,,,,,,07,,,,,*70
$PSSN,SNC,[0,305185000,2347]*4E
$GPZDA,124612.00,01,01,2025,,*61
$GPDTM,W84,,00.0000000,N,00.0000000,E,00.0000000,W84*5F
$GPRMC,124612.00,A,4742.4463144,N,01617.9732908,E,0.0,,010125,5.1,E,D*11
$GPGLL,4742.4463144,N,01617.9732908,E,124612.00,A,D*60
$GPGGA,124612.00,4742.4463144,N,01617.9732908,E,2,22,0.6,625.5684,M,43.2110,M,2.6,0123*44
$GNGNS,124612.00,4742.4463144,N,01617.9732908,E,DAAA,22,0.6,625.5684,43.2110,,*5C
$GPGNS,124612.00,,,,,,05,,,,2.6,123*7E
$GLGNS,124612.00,,,,,,05,,,,,*78
$GAGNS,124612.00,,,,,,05,,,,,*75
$GBGNS,124612.00,,,,,,07,,,,,*74
$GPLLQ,124612.00,010125,,M,,M,1,22,5.287,,M*1B
$GPVTG,,T,,M,0.01,N,0.01,K,D*26
$GPHDT,,T*1B
$GPTHS,,V*0E
$GPROT,,V*08
$PSSN,HRP,124612.00,010125,,,,,,,00,0,,*63
$PTNL,AVR,124612.00,,Yaw,,Tilt,,,,0,,00*35
$GPGSA,A,3,12,19,24,25,32,,,,,,,,1.2,0.6,1.1*3C
$GPGSA,A,3,69,77,78,86,87,,,,,,,,1.2,0.6,1.1*36
$GPGSA,A,3,02,07,08,29,30,,,,,,,,1.2,0.6,1.1*32
$GPGSA,A,3,12,24,26,33,35,41,44,,,,,,1.2,0.6,1.1*35
$GPGST,124612.00,11.257,2.398,1.483,0.833,2.398,1.483,4.473*69
$GPGBS,124612.00,6.357,4.266,15.215,41,0.0001,30.331,8.864*5A
$GPGRS,124612.00,1,0.3,3.4,-0.8,-0.9,-0.6,,,,,,,*4C
$GPGRS,124612.00,1,13.2,-9.5,-4.5,-6.6,-5.3,,,,,,,*59
$GPGRS,124612.00,1,-0.7,-2.2,-2.2,-2.3,0.3,,,,,,,*67
$GPGRS,124612.00,1,2.1,0.8,-3.0,23.4,-5.5,30.3,0.7,,,,,*68
$GPGSV,4,1,14,12,79,306,48,19,32,050,35,11,17,122,,06,25,084,29*76
$GPGSV,4,2,14,32,28,307,44,25,39,269,45,24,61,148,50,15,02,186,*74
$GPGSV,4,3,14,29,07,207,,17,06,040,,36,35,170,35,34,31,208,35*7C
$GPGSV,4,4,14,49,34,195,36,61,03,257,*7A
$GLGSV,3,1,09,77,61,052,45,69,17,336,41,76,20,087,33,88,12,164,*69
$GLGSV,3,2,09,67,20,230,19,68,35,284,,86,33,044,39,78,41,300,40*68
$GLGSV,3,3,09,87,46,108,46*5A
$GAGSV,3,1,11,30,72,281,46,08,25,192,39,34,12,133,,11,13,033,*6D
$GAGSV,3,2,11,27,21,260,23,29,24,315,41,36,24,083,20,02,49,066,40*64
$GAGSV,3,3,11,07,48,253,38,18,62,108,,10,01,011,*58
$GBGSV,6,1,21,24,82,333,50,07,13,054,32,33,17,249,35,05,20,130,*6A
$GBGSV,6,2,21,11,19,223,,41,20,300,37,12,28,165,39,10,26,058,29*65
$GBGSV,6,3,21,25,23,289,,56,34,053,,44,45,143,43,35,43,072,45*6F
$GBGSV,6,4,21,26,41,101,38,34,09,186,,32,01,347,,40,08,042,26*6F
$GBGSV,6,5,21,14,08,225,21,43,08,244,,29,02,029,,02,04,109,*61
$GBGSV,6,6,21,60,08,111,*57
$GPGGA,124612.00,,,,,0,00,,,M,,M,,*4A
$PTNL,GGK,124612.00,010125,4742.4463144,N,01617.9732908,E,1,22,1.2,EHT668.7794,M*40
$GPGGQ,124612.00,010125,4742.4463144,N,01617.9732908,E,1,22,5.287,625.5684,M*3E
$GPGFA,124612.00,22.796,36.680,2.398,1.483,0.833,4.473,,VVV*00
$GPLLK,124612.00,010125,,M,,M,1,22,1.4,,M*0C
$GNGMP,124612.00,,,,,DAAA,22,0.6,,,,*52
$GPGMP,124612.00,,,,,,05,,,,2.6,123*7E
$GLGMP,124612.00,,,,,,05,,,,,*78
$GAGMP,124612.00,,,,,,05,,,,,*75
$GBGMP,124612.00,,,,,,07,,,,,*74
$PSSN,SNC,[0,305190000,2347]*4A
$GPZDA,124617.00,01,01,2025,,*64
$GPDTM,W84,,00.0000000,N,00.0000000,E,00.0000000,W84*5F
$GPRMC,124617.00,A,4742.4463105,N,01617.9732939,E,0.0,,010125,5.1,E,D*13
$GPGLL,4742.4463105,N,01617.9732939,E,124617.00,A,D*62
$GPGGA,124617.00,4742.4463105,N,01617.9732939,E,2,21,0.6,625.5675,M,43.2111,M,2.8,0123*44
$GNGNS,124617.00,4742.4463105,N,01617.9732939,E,DAAA,21,0.6,625.5675,43.2111,,*52
$GPGNS,124617.00,,,,,,04,,,,2.8,123*74
$GLGNS,124617.00,,,,,,05,,,,,*7D
$GAGNS,124617.00,,,,,,06,,,,,*73
$GBGNS,124617.00,,,,,,06,,,,,*70
$GPLLQ,124617.00,010125,,M,,M,1,21,4.529,,M*1F
$GPVTG,,T,,M,0.00,N,0.01,K,D*27
$GPHDT,,T*1B
$GPTHS,,V*0E
$GPROT,,V*08
$PSSN,HRP,124617.00,010125,,,,,,,00,0,,*66
$PTNL,AVR,124617.00,,Yaw,,Tilt,,,,0,,00*30
$GPGSA,A,3,12,24,25,32,,,,,,,,,1.3,0.6,1.1*35
$GPGSA,A,3,69,77,78,86,87,,,,,,,,1.3,0.6,1.1*37
$GPGSA,A,3,02,07,08,27,29,30,,,,,,,1.3,0.6,1.1*36
$GPGSA,A,3,12,24,26,35,41,44,,,,,,,1.3,0.6,1.1*34
$GPGST,124617.00,6.442,2.439,1.227,44.699,1.937,1.925,3.614*6B
$GPGBS,124617.00,7.613,8.686,16.733,69,0.0001,19.013,6.799*5E
$GPGRS,124617.00,1,0.5,-0.2,-0.2,0.0,,,,,,,,*4C
$GPGRS,124617.00,1,19.0,-9.0,-8.1,-4.0,-2.9,,,,,,,*50
$GPGRS,124617.00,1,-0.4,-2.1,-1.8,-0.2,-1.6,0.9,,,,,,*66
$GPGRS,124617.00,1,1.9,0.6,-1.9,-4.8,2.5,1.1,,,,,,*44
$GPGSV,4,1,14,12,79,306,49,19,32,050,32,11,17,122,,06,25,084,29*70
$GPGSV,4,2,14,32,28,307,44,25,39,269,45,24,61,148,50,15,02,186,*74
$GPGSV,4,3,14,29,07,207,,17,06,040,,36,35,170,34,34,31,208,34*7C
$GPGSV,4,4,14,49,34,195,35,61,03,257,*79
$GLGSV,3,1,09,77,61,052,45,69,17,336,40,76,20,087,33,88,12,164,*68
$GLGSV,3,2,09,67,20,230,34,68,35,284,38,86,33,044,41,78,41,300,35*61
$GLGSV,3,3,09,87,46,108,47*5B
$GAGSV,3,1,11,30,72,281,46,08,25,192,41,34,12,133,,11,13,033,*62
$GAGSV,3,2,11,27,21,260,32,29,24,315,41,36,24,083,34,02,49,066,41*60
$GAGSV,3,3,11,07,48,253,35,18,62,108,,10,01,011,*55
$GBGSV,6,1,21,24,82,333,50,07,13,054,31,33,17,249,33,05,20,130,*6F
$GBGSV,6,2,21,11,19,223,,41,20,299,35,12,28,165,38,10,26,058,29*67
$GBGSV,6,3,21,25,23,289,,56,34,053,,44,45,143,43,35,43,072,45*6F
$GBGSV,6,4,21,26,41,101,38,34,09,186,,32,01,347,,40,08,042,26*6F
$GBGSV,6,5,21,14,08,225,,43,08,244,,29,02,029,,02,04,109,*62
$GBGSV,6,6,21,60,08,111,*57
$GPGGA,124617.00,,,,,0,00,,,M,,M,,*4F
$PTNL,GGK,124617.00,010125,4742.4463105,N,01617.9732939,E,1,21,1.3,EHT668.7785,M*40
$GPGGQ,124617.00,010125,4742.4463105,N,01617.9732939,E,1,21,4.529,625.5675,M*33
$GPGFA,124617.00,23.188,29.635,2.439,1.227,44.699,3.614,,VVV*33
$GPLLK,124617.00,010125,,M,,M,1,21,1.5,,M*0B
$GNGMP,124617.00,,,,,DAAA,21,0.6,,,,*54
$GPGMP,124617.00,,,,,,04,,,,2.8,123*74
$GLGMP,124617.00,,,,,,05,,,,,*7D
$GAGMP,124617.00,,,,,,06,,,,,*73
$GBGMP,124617.00,,,,,,06,,,,,*70
$PSSN,SNC,[0,305195000,2347]*4F
$GPZDA,124622.00,01,01,2025,,*62
$GPDTM,W84,,00.0000000,N,00.0000000,E,00.0000000,W84*5F
$GPRMC,124622.00,A,4742.4463061,N,01617.9732999,E,0.0,,010125,5.1,E,D*1C
$GPGLL,4742.4463061,N,01617.9732999,E,124622.00,A,D*6D
$GPGGA,124622.00,4742.4463061,N,01617.9732999,E,2,18,0.7,625.5584,M,43.2111,M,2.8,0123*4D
$GNGNS,124622.00,4742.4463061,N,01617.9732999,E,DAAA,18,0.7,625.5584,43.2111,,*5B
$GPGNS,124622.00,,,,,,04,,,,2.8,123*72
$GLGNS,124622.00,,,,,,05,,,,,*7B
$GAGNS,124622.00,,,,,,04,,,,,*77
$GBGNS,124622.00,,,,,,05,,,,,*75
$GPLLQ,124622.00,010125,,M,,M,1,18,5.245,,M*1F
$GPVTG,,T,,M,0.01,N,0.02,K,D*25
$GPHDT,,T*1B
$GPTHS,,V*0E
$GPROT,,V*08
$PSSN,HRP,124622.00,010125,,,,,,,00,0,,*60
$PTNL,AVR,124622.00,,Yaw,,Tilt,,,,0,,00*36
$GPGSA,A,3,12,24,25,32,,,,,,,,,1.4,0.7,1.2*30
$GPGSA,A,3,69,77,78,86,87,,,,,,,,1.4,0.7,1.2*32
$GPGSA,A,3,02,08,29,30,,,,,,,,,1.4,0.7,1.2*31
$GPGSA,A,3,12,24,26,35,44,,,,,,,,1.4,0.7,1.2*34
$GPGST,124622.00,7.693,2.888,1.409,46.074,2.246,2.298,4.145*6D
$GPGBS,124622.00,7.865,9.335,16.138,69,0.0001,21.381,6.798*54
$GPGRS,124622.00,1,0.3,-0.6,-0.1,0.5,,,,,,,,*4E
$GPGRS,124622.00,1,21.4,-9.0,-8.3,-3.1,-2.5,,,,,,,*51
$GPGRS,124622.00,1,-0.3,-1.5,-1.6,0.9,,,,,,,,*6B
$GPGRS,124622.00,1,1.2,0.1,-1.8,-4.2,0.4,,,,,,,*68
$GPGSV,4,1,14,12,79,306,49,19,32,050,30,11,17,122,,06,25,084,29*72
$GPGSV,4,2,14,32,28,307,44,25,39,269,45,24,61,148,50,15,02,186,*74
$GPGSV,4,3,14,29,07,207,,17,06,040,,36,35,170,34,34,31,208,34*7C
$GPGSV,4,4,14,49,34,195,35,61,03,257,*79
$GLGSV,3,1,09,77,61,052,45,69,17,336,39,76,20,087,32,88,12,164,*67
$GLGSV,3,2,09,67,20,230,28,68,35,284,39,86,33,044,41,78,41,300,36*6E
$GLGSV,3,3,09,87,46,108,47*5B
$GAGSV,3,1,11,30,72,281,46,08,24,192,41,34,12,133,,11,13,033,*63
$GAGSV,3,2,11,27,21,260,30,29,24,315,41,36,24,083,25,02,48,066,41*63
$GAGSV,3,3,11,07,48,253,34,18,62,107,,10,01,011,*5B
$GBGSV,6,1,21,24,82,333,50,07,13,054,32,33,17,249,32,05,20,130,*6D
$GBGSV,6,2,21,11,19,223,,41,19,299,34,12,28,165,37,10,26,058,30*6B
$GBGSV,6,3,21,25,23,289,,56,34,053,,44,45,142,44,35,43,072,46*6A
$GBGSV,6,4,21,26,41,101,38,34,09,186,,32,01,347,,40,08,042,27*6E
$GBGSV,6,5,21,14,08,225,,43,08,244,,29,02,029,,02,04,109,*62
$GBGSV,6,6,21,60,08,111,*57
$GPGGA,124622.00,,,,,0,00,,,M,,M,,*49
$PTNL,GGK,124622.00,010125,4742.4463061,N,01617.9732999,E,1,18,1.4,EHT668.7694,M*43
$GPGGQ,124622.00,010125,4742.4463061,N,01617.9732999,E,1,18,5.245,625.5584,M*37
$GPGFA,124622.00,27.461,33.992,2.888,1.409,46.074,4.145,,VVV*35
$GPLLK,124622.00,010125,,M,,M,1,18,1.6,,M*04
$GNGMP,124622.00,,,,,DAAA,18,0.7,,,,*59
$GPGMP,124622.00,,,,,,04,,,,2.8,123*72
$GLGMP,124622.00,,,,,,05,,,,,*7B
$GAGMP,124622.00,,,,,,04,,,,,*77
$GBGMP,124622.00,,,,,,05,,,,,*75
$PSSN,SNC,[0,305200000,2347]*40
$GPZDA,124627.00,01,01,2025,,*67
$GPDTM,W84,,00.0000000,N,00.0000000,E,00.0000000,W84*5F
$GPRMC,124627.00,A,4742.4462987,N,01617.9733051,E,0.0,,010125,5.1,E,D*15
$GPGLL,4742.4462987,N,01617.9733051,E,124627.00,A,D*64
$GPGGA,124627.00,4742.4462987,N,01617.9733051,E,2,19,0.7,625.5552,M,43.2111,M,1.8,0123*4D
$GNGNS,124627.00,4742.4462987,N,01617.9733051,E,DAAA,19,0.7,625.5552,43.2111,,*58
$GPGNS,124627.00,,,,,,04,,,,1.8,123*74
$GLGNS,124627.00,,,,,,05,,,,,*7E
$GAGNS,124627.00,,,,,,05,,,,,*73
$GBGNS,124627.00,,,,,,05,,,,,*70
$GPLLQ,124627.00,010125,,M,,M,1,19,5.115,,M*1D
$GPVTG,,T,,M,0.00,N,0.00,K,D*26
$GPHDT,,T*1B
$GPTHS,,V*0E
$GPROT,,V*08
$PSSN,HRP,124627.00,010125,,,,,,,00,0,,*65
$PTNL,AVR,124627.00,,Yaw,,Tilt,,,,0,,00*33
$GPGSA,A,3,12,24,25,32,,,,,,,,,1.3,0.7,1.2*37
$GPGSA,A,3,69,77,78,86,87,,,,,,,,1.3,0.7,1.2*35
$GPGSA,A,3,02,08,27,29,30,,,,,,,,1.3,0.7,1.2*33
$GPGSA,A,3,12,24,26,35,44,,,,,,,,1.3,0.7,1.2*33
$GPGST,124627.00,7.360,2.795,1.373,45.310,2.195,2.209,4.057*6D
$GPGBS,124627.00,7.909,8.837,16.387,69,0.0001,23.226,6.808*5C
$GPGRS,124627.00,1,0.1,-0.5,0.4,0.6,,,,,,,,*61
$GPGRS,124627.00,1,23.2,-8.3,-2.4,-3.4,-2.2,,,,,,,*5D
$GPGRS,124627.00,1,0.3,-1.7,-0.0,-1.1,1.2,,,,,,,*4F
$GPGRS,124627.00,1,-0.5,0.2,-1.3,-3.3,0.1,,,,,,,*4D
$GPGSV,4,1,14,12,79,306,50,19,32,050,,11,17,122,,06,25,084,30*71
$GPGSV,4,2,14,32,28,307,43,25,39,269,45,24,61,148,49,15,02,186,*7B
$GPGSV,4,3,14,29,07,207,,17,06,040,,36,35,170,35,34,31,208,34*7D
$GPGSV,4,4,14,49,34,195,35,61,03,257,*79
$GLGSV,3,1,09,77,61,052,45,69,17,336,35,76,20,087,31,88,13,164,*69
$GLGSV,3,2,09,67,20,230,28,68,35,283,38,86,33,044,42,78,41,300,39*64
$GLGSV,3,3,09,87,46,108,47*5B
$GAGSV,3,1,11,30,72,281,47,08,24,192,42,34,12,133,,11,13,033,*61
$GAGSV,3,2,11,27,21,260,29,29,24,315,42,36,24,083,32,02,48,066,41*6E
$GAGSV,3,3,11,07,48,253,34,18,62,107,,10,01,011,*5B
$GBGSV,6,1,21,24,82,333,50,07,13,054,32,33,17,249,31,05,20,130,*6E
$GBGSV,6,2,21,11,19,223,,41,19,299,34,12,28,165,35,10,26,058,29*61
$GBGSV,6,3,21,25,23,289,,56,34,053,,44,45,142,45,35,43,072,47*6A
$GBGSV,6,4,21,26,41,101,38,34,09,186,,32,01,347,,40,08,042,27*6E
$GBGSV,6,5,21,14,08,225,,43,08,244,,29,02,029,,02,04,109,*62
$GBGSV,6,6,21,60,08,111,*57
$GPGGA,124627.00,,,,,0,00,,,M,,M,,*4C
$PTNL,GGK,124627.00,010125,4742.4462987,N,01617.9733051,E,1,19,1.3,EHT668.7662,M*45
$GPGGQ,124627.00,010125,4742.4462987,N,01617.9733051,E,1,19,5.115,625.5552,M*32
$GPGFA,124627.00,26.575,33.269,2.795,1.373,45.310,4.057,,VVV*33
