$GPZDA,005942.00,01,01,2025,,*69
$GPDTM,W84,,00.0000000,N,00.0000000,E,00.0000000,W84*5F
$GPRMC,005942.00,A,4742.4462301,N,01617.9733397,E,0.0,,010125,5.1,E,D*16
$GPGLL,4742.4462301,N,01617.9733397,E,005942.00,A,D*67
$GPGGA,005942.00,4742.4462301,N,01617.9733397,E,2,19,0.8,626.8131,M,43.2111,M,3.5,0123*41
$GNGNS,005942.00,4742.4462301,N,01617.9733397,E,DAAA,19,0.8,626.8131,43.2111,,*5B
$GPGNS,005942.00,,,,,,04,,,,3.5,123*75
$GLGNS,005942.00,,,,,,04,,,,,*71
$GAGNS,005942.00,,,,,,06,,,,,*7E
$GBGNS,005942.00,,,,,,05,,,,,*7E
$GPLLQ,005942.00,010125,,M,,M,1,19,4.548,,M*1E
$GPVTG,,T,,M,0.00,N,0.00,K,D*26
$GPHDT,,T*1B
$GPTHS,,V*0E
$GPROT,,V*08
$PSSN,HRP,005942.00,010125,,,,,,,00,0,,*6B
$PTNL,AVR,005942.00,,Yaw,,Tilt,,,,0,,00*3D
$GPGSA,A,3,02,17,19,21,,,,,,,,,1.7,0.8,1.4*36
$GPGSA,A,3,69,70,84,85,,,,,,,,,1.7,0.8,1.4*30
$GPGSA,A,3,04,06,09,10,11,36,,,,,,,1.7,0.8,1.4*36
$GPGSA,A,3,19,20,29,32,35,,,,,,,,1.7,0.8,1.4*3F
$GPGST,005942.00,1.987,2.980,0.847,35.428,2.478,1.860,3.330*6F
$GPGBS,005942.00,8.745,9.161,17.115,17,0.0001,1.438,0.734*6E
$GPGRS,005942.00,1,0.2,1.4,-2.0,-0.8,,,,,,,,*49
$GPGRS,005942.00,1,4.1,-0.8,-0.5,-1.0,,,,,,,,*60
$GPGRS,005942.00,1,1.3,-0.2,0.5,-0.7,-0.5,0.4,,,,,,*6A
$GPGRS,005942.00,1,-0.7,1.1,2.0,-0.8,-3.5,,,,,,,*4C
$GPGSV,4,1,15,03,72,299,25,09,10,214,,32,13,045,25,19,22,316,42*7B
$GPGSV,4,2,15,31,25,105,20,04,36,201,31,28,27,073,26,21,45,143,42*75
$GPGSV,4,3,15,17,39,287,46,02,66,152,49,01,71,136,,36,35,170,41*73
$GPGSV,4,4,15,34,31,208,,49,34,195,37,61,03,257,*45
$GLGSV,3,1,09,69,67,029,40,85,56,317,53,68,17,043,26,70,40,236,37*69
$GLGSV,3,2,09,84,63,160,37,83,01,150,,78,07,055,,77,07,001,*67
$GLGSV,3,3,09,86,03,326,33*56
$GAGSV,3,1,11,06,69,147,46,19,10,041,21,12,13,127,,10,36,128,37*62
$GAGSV,3,2,11,09,52,188,47,04,62,077,43,36,60,306,42,11,65,129,40*6F
$GAGSV,3,3,11,30,04,316,30,34,09,307,29,05,04,210,*5B
$GBGSV,5,1,18,20,86,266,51,30,21,165,28,39,28,051,34,05,24,128,*6F
$GBGSV,5,2,18,16,30,062,31,35,31,309,47,06,31,066,27,32,34,057,40*6B
$GBGSV,5,3,18,09,32,082,34,19,34,240,36,29,61,223,47,48,62,242,*6D
$GBGSV,5,4,18,02,08,105,,13,01,087,,25,02,020,,23,07,066,*60
$GBGSV,5,5,18,57,02,101,,60,09,109,*65
$GPGGA,005942.00,,,,,0,00,,,M,,M,,*42
$PTNL,GGK,005942.00,010125,4742.4462301,N,01617.9733397,E,1,19,1.7,EHT670.0242,M*4A
$GPGGQ,005942.00,010125,4742.4462301,N,01617.9733397,E,1,19,4.548,626.8131,M*33
$GPGFA,005942.00,28.337,27.305,2.980,0.847,35.428,3.330,,VVV*34
$GPLLK,005942.00,010125,,M,,M,1,19,2.0,,M*0B
$GNGMP,005942.00,,,,,DAAA,19,0.8,,,,*5C
$GPGMP,005942.00,,,,,,04,,,,3.5,123*75
$GLGMP,005942.00,,,,,,04,,,,,*71
$GAGMP,005942.00,,,,,,06,,,,,*7E
$GBGMP,005942.00,,,,,,05,,,,,*7E
$PSSN,SNC,[0,262800000,2347]*4A
$GPZDA,005947.00,01,01,2025,,*6C
$GPDTM,W84,,00.0000000,N,00.0000000,E,00.0000000,W84*5F
$GPRMC,005947.00,A,4742.4462321,N,01617.9733489,E,0.0,,010125,5.1,E,D*19
$GPGLL,4742.4462321,N,01617.9733489,E,005947.00,A,D*68
$GPGGA,005947.00,4742.4462321,N,01617.9733489,E,2,20,0.8,626.8178,M,43.2111,M,1.8,0123*46
$GNGNS,005947.00,4742.4462321,N,01617.9733489,E,DAAA,20,0.8,626.8178,43.2111,,*53
$GPGNS,005947.00,,,,,,05,,,,1.8,123*7E
$GLGNS,005947.00,,,,,,04,,,,,*74
$GAGNS,005947.00,,,,,,06,,,,,*7B
$GBGNS,005947.00,,,,,,05,,,,,*7B
$GPLLQ,005947.00,010125,,M,,M,1,20,4.280,,M*12
$GPVTG,,T,,M,0.00,N,0.00,K,D*26
$GPHDT,,T*1B
$GPTHS,,V*0E
$GPROT,,V*08
$PSSN,HRP,005947.00,010125,,,,,,,00,0,,*6E
$PTNL,AVR,005947.00,,Yaw,,Tilt,,,,0,,00*38
$GPGSA,A,3,02,03,17,19,21,,,,,,,,1.6,0.8,1.4*34
$GPGSA,A,3,69,70,84,85,,,,,,,,,1.6,0.8,1.4*31
$GPGSA,A,3,04,06,09,10,11,36,,,,,,,1.6,0.8,1.4*37
$GPGSA,A,3,19,20,29,32,35,,,,,,,,1.6,0.8,1.4*3E
$GPGST,005947.00,2.304,3.021,0.802,39.442,2.388,2.017,2.924*67
$GPGBS,005947.00,7.788,9.330,10.055,03,0.0001,-2.317,0.624*40
$GPGRS,005947.00,1,-0.0,-2.3,2.1,-1.0,-0.4,,,,,,,*68
$GPGRS,005947.00,1,5.3,-1.4,0.4,-0.3,,,,,,,,*45
$GPGRS,005947.00,1,0.8,0.4,0.5,-0.7,-0.4,0.1,,,,,,*4A
$GPGRS,005947.00,1,2.0,1.1,2.7,-0.1,-3.7,,,,,,,*6D
$GPGSV,4,1,15,03,72,299,39,09,10,214,,32,13,045,,19,22,316,43*70
$GPGSV,4,2,15,31,25,105,25,04,36,201,30,28,27,073,25,21,45,143,42*72
$GPGSV,4,3,15,17,39,287,46,02,66,152,48,01,71,136,,36,35,170,41*72
$GPGSV,4,4,15,34,31,208,,49,34,195,37,61,03,257,*45
$GLGSV,3,1,09,69,67,029,40,85,56,317,54,68,17,043,30,70,40,236,37*69
$GLGSV,3,2,09,84,63,160,37,83,01,150,,78,07,055,,77,07,000,*66
$GLGSV,3,3,09,86,03,326,35*50
$GAGSV,3,1,11,06,69,147,46,19,10,041,20,12,13,127,,10,36,128,37*63
$GAGSV,3,2,11,09,52,188,47,04,62,077,43,36,60,306,41,11,65,129,39*62
$GAGSV,3,3,11,30,04,316,31,34,09,307,30,05,04,210,*52
$GBGSV,5,1,18,20,86,266,51,30,21,165,26,39,28,051,34,05,24,128,*61
$GBGSV,5,2,18,16,30,062,32,35,31,309,46,06,31,066,29,32,34,057,41*66
$GBGSV,5,3,18,09,32,082,35,19,34,240,39,29,61,223,47,48,63,242,*62
$GBGSV,5,4,18,02,08,105,,13,01,087,,25,02,020,,23,07,066,*60
$GBGSV,5,5,18,57,02,102,,60,09,109,*66
$GPGGA,005947.00,,,,,0,00,,,M,,M,,*47
$PTNL,GGK,005947.00,010125,4742.4462321,N,01617.9733489,E,1,20,1.6,EHT670.0289,M*49
$GPGGQ,005947.00,010125,4742.4462321,N,01617.9733489,E,1,20,4.280,626.8178,M*38
$GPGFA,005947.00,28.720,23.973,3.021,0.802,39.442,2.924,,VVV*30
$GPLLK,005947.00,010125,,M,,M,1,20,1.9,,M*0E
$GNGMP,005947.00,,,,,DAAA,20,0.8,,,,*53
$GPGMP,005947.00,,,,,,05,,,,1.8,123*7E
$GLGMP,005947.00,,,,,,04,,,,,*74
$GAGMP,005947.00,,,,,,06,,,,,*7B
$GBGMP,005947.00,,,,,,05,,,,,*7B
$PSSN,SNC,[0,262805000,2347]*4F
$GPZDA,005952.00,01,01,2025,,*68
$GPDTM,W84,,00.0000000,N,00.0000000,E,00.0000000,W84*5F
$GPRMC,005952.00,A,4742.4462419,N,01617.9733637,E,0.0,,010125,5.1,E,D*16
$GPGLL,4742.4462419,N,01617.9733637,E,005952.00,A,D*67
$GPGGA,005952.00,4742.4462419,N,01617.9733637,E,2,20,0.8,626.8376,M,43.2110,M,2.8,0123*47
$GNGNS,005952.00,4742.4462419,N,01617.9733637,E,DAAA,20,0.8,626.8376,43.2110,,*51
$GPGNS,005952.00,,,,,,05,,,,2.8,123*79
$GLGNS,005952.00,,,,,,04,,,,,*70
$GAGNS,005952.00,,,,,,06,,,,,*7F
$GBGNS,005952.00,,,,,,05,,,,,*7F
$GPLLQ,005952.00,010125,,M,,M,1,20,5.098,,M*1C
$GPVTG,,T,,M,0.00,N,0.01,K,D*27
$GPHDT,,T*1B
$GPTHS,,V*0E
$GPROT,,V*08
$PSSN,HRP,005952.00,010125,,,,,,,00,0,,*6A
$PTNL,AVR,005952.00,,Yaw,,Tilt,,,,0,,00*3C
$GPGSA,A,3,02,03,17,19,21,,,,,,,,1.6,0.8,1.4*34
$GPGSA,A,3,69,70,84,85,,,,,,,,,1.6,0.8,1.4*31
$GPGSA,A,3,04,06,09,10,11,36,,,,,,,1.6,0.8,1.4*37
$GPGSA,A,3,19,20,29,32,35,,,,,,,,1.6,0.8,1.4*3E
$GPGST,005952.00,1.831,3.902,0.982,41.410,2.997,2.684,3.131*61
$GPGBS,005952.00,7.776,9.354,10.267,17,0.0001,2.727,0.703*6F
$GPGRS,005952.00,1,-0.1,-2.5,2.7,-0.9,0.5,,,,,,,*49
$GPGRS,005952.00,1,1.5,0.8,0.4,-0.1,,,,,,,,*61
$GPGRS,005952.00,1,-0.4,0.6,0.7,-0.1,-0.4,0.9,,,,,,*61
$GPGRS,005952.00,1,2.3,1.2,1.5,0.0,-3.8,,,,,,,*4B
$GPGSV,4,1,15,03,72,299,38,09,10,214,,32,13,045,27,19,22,316,44*73
$GPGSV,4,2,15,31,25,105,30,04,36,201,30,28,27,073,30,21,45,143,43*73
$GPGSV,4,3,15,17,39,287,47,02,66,152,48,01,71,136,,36,35,170,41*73
$GPGSV,4,4,15,34,31,208,,49,34,195,37,61,03,257,*45
$GLGSV,3,1,09,69,67,029,41,85,56,317,54,68,17,043,31,70,40,236,38*66
$GLGSV,3,2,09,84,63,160,37,83,01,150,,78,07,055,,77,07,000,*66
$GLGSV,3,3,09,86,03,326,35*50
$GAGSV,3,1,11,06,69,147,46,19,10,041,21,12,13,127,,10,36,128,37*62
$GAGSV,3,2,11,09,52,188,48,04,62,077,42,36,60,306,41,11,65,129,40*62
$GAGSV,3,3,11,30,04,316,30,34,09,307,29,05,04,210,*5B
$GBGSV,5,1,18,20,86,266,51,30,21,165,26,39,28,051,34,05,24,128,*61
$GBGSV,5,2,18,16,30,062,32,35,31,309,46,06,31,066,29,32,34,057,40*67
$GBGSV,5,3,18,09,32,082,34,19,34,240,40,29,61,222,47,48,63,242,*6C
$GBGSV,5,4,18,02,08,105,,13,01,087,,25,02,020,,23,07,066,*60
$GBGSV,5,5,18,57,02,102,,60,09,109,*66
$GPGGA,005952.00,,,,,0,00,,,M,,M,,*43
$PTNL,GGK,005952.00,010125,4742.4462419,N,01617.9733637,E,1,20,1.6,EHT670.0487,M*4E
$GPGGQ,005952.00,010125,4742.4462419,N,01617.9733637,E,1,20,5.098,626.8376,M*31
$GPGFA,005952.00,37.095,25.672,3.902,0.982,41.410,3.131,,VVV*3F
$GPLLK,005952.00,010125,,M,,M,1,20,1.9,,M*0A
$GNGMP,005952.00,,,,,DAAA,20,0.8,,,,*57
$GPGMP,005952.00,,,,,,05,,,,2.8,123*79
$GLGMP,005952.00,,,,,,04,,,,,*70
$GAGMP,005952.00,,,,,,06,,,,,*7F
$GBGMP,005952.00,,,,,,05,,,,,*7F
$PSSN,SNC,[0,262810000,2347]*4B
$GPZDA,005957.00,01,01,2025,,*6D
$GPDTM,W84,,00.0000000,N,00.0000000,E,00.0000000,W84*5F
$GPRMC,005957.00,A,4742.4462449,N,01617.9733744,E,0.0,,010125,5.1,E,D*13
$GPGLL,4742.4462449,N,01617.9733744,E,005957.00,A,D*62
$GPGGA,005957.00,4742.4462449,N,01617.9733744,E,2,20,0.8,626.8454,M,43.2110,M,2.2,0123*4F
$GNGNS,005957.00,4742.4462449,N,01617.9733744,E,DAAA,20,0.8,626.8454,43.2110,,*53
$GPGNS,005957.00,,,,,,05,,,,2.2,123*76
$GLGNS,005957.00,,,,,,04,,,,,*75
$GAGNS,005957.00,,,,,,06,,,,,*7A
$GBGNS,005957.00,,,,,,05,,,,,*7A
$GPLLQ,005957.00,010125,,M,,M,1,20,5.260,,M*1C
$GPVTG,,T,,M,0.01,N,0.01,K,D*26
$GPHDT,,T*1B
$GPTHS,,V*0E
$GPROT,,V*08
$PSSN,HRP,005957.00,010125,,,,,,,00,0,,*6F
$PTNL,AVR,005957.00,,Yaw,,Tilt,,,,0,,00*39
$GPGSA,A,3,02,03,17,19,21,,,,,,,,1.6,0.8,1.4*34
$GPGSA,A,3,69,70,84,85,,,,,,,,,1.6,0.8,1.4*31
$GPGSA,A,3,04,06,09,10,11,36,,,,,,,1.6,0.8,1.4*37
$GPGSA,A,3,19,20,29,32,35,,,,,,,,1.6,0.8,1.4*3E
$GPGST,005957.00,1.670,4.013,0.996,41.348,3.083,2.754,3.251*6A
$GPGBS,005957.00,7.894,9.468,9.666,17,0.0001,2.681,0.719*5A
$GPGRS,005957.00,1,-0.1,-2.2,2.7,-1.9,-0.1,,,,,,,*63
$GPGRS,005957.00,1,0.9,0.1,0.2,-0.6,,,,,,,,*61
$GPGRS,005957.00,1,-1.2,0.5,0.5,-0.2,-0.6,1.1,,,,,,*6A
$GPGRS,005957.00,1,0.9,0.8,-0.1,0.3,-3.8,,,,,,,*66
$GPGSV,4,1,15,03,72,299,38,09,10,214,,32,13,045,28,19,22,316,43*7B
$GPGSV,4,2,15,31,25,105,34,04,36,201,32,28,27,073,35,21,45,143,42*71
$GPGSV,4,3,15,17,39,287,45,02,66,152,47,01,71,136,,36,35,170,41*7E
$GPGSV,4,4,15,34,31,208,,49,34,195,37,61,03,257,*45
$GLGSV,3,1,09,69,67,029,41,85,56,317,53,68,17,043,33,70,40,236,37*6C
$GLGSV,3,2,09,84,63,160,36,83,01,150,,78,07,055,,77,07,000,*67
$GLGSV,3,3,09,86,03,326,35*50
$GAGSV,3,1,11,06,69,147,46,19,10,041,21,12,13,127,,10,36,128,37*62
$GAGSV,3,2,11,09,52,188,48,04,62,077,42,36,60,306,41,11,65,129,40*62
$GAGSV,3,3,11,30,04,316,29,34,09,307,29,05,04,210,*53
$GBGSV,5,1,18,20,86,267,50,30,21,165,27,39,28,051,34,05,24,128,*60
$GBGSV,5,2,18,16,30,062,33,35,31,309,46,06,31,066,30,32,34,057,40*6E
$GBGSV,5,3,18,09,32,082,35,19,34,240,41,29,61,222,46,48,63,242,*6D
$GBGSV,5,4,18,02,08,105,,13,01,087,,25,02,020,,23,07,066,*60
$GBGSV,5,5,18,57,02,102,,60,09,109,*66
$GPGGA,005957.00,,,,,0,00,,,M,,M,,*46
$PTNL,GGK,005957.00,010125,4742.4462449,N,01617.9733744,E,1,20,1.6,EHT670.0565,M*46
$GPGGQ,005957.00,010125,4742.4462449,N,01617.9733744,E,1,20,5.260,626.8454,M*36
$GPGFA,005957.00,38.151,26.662,4.013,0.996,41.348,3.251,,VVV*3A
$GPLLK,005957.00,010125,,M,,M,1,20,1.9,,M*0F
$GNGMP,005957.00,,,,,DAAA,20,0.8,,,,*52
$GPGMP,005957.00,,,,,,05,,,,2.2,123*76
$GLGMP,005957.00,,,,,,04,,,,,*75
$GAGMP,005957.00,,,,,,06,,,,,*7A
$GBGMP,005957.00,,,,,,05,,,,,*7A
$PSSN,SNC,[0,262815000,2347]*4E
$GPZDA,010002.00,01,01,2025,,*60
$GPDTM,W84,,00.0000000,N,00.0000000,E,00.0000000,W84*5F
$GPRMC,010002.00,A,4742.4462516,N,01617.9733881,E,0.0,,010125,5.1,E,D*13
$GPGLL,4742.4462516,N,01617.9733881,E,010002.00,A,D*62
$GPGGA,010002.00,4742.4462516,N,01617.9733881,E,2,21,0.8,626.8429,M,43.2110,M,3.2,0123*45
$GNGNS,010002.00,4742.4462516,N,01617.9733881,E,DAAA,21,0.8,626.8429,43.2110,,*58
$GPGNS,010002.00,,,,,,06,,,,3.2,123*79
$GLGNS,010002.00,,,,,,04,,,,,*78
$GAGNS,010002.00,,,,,,06,,,,,*77
$GBGNS,010002.00,,,,,,05,,,,,*77
$GPLLQ,010002.00,010125,,M,,M,1,21,3.884,,M*16
$GPVTG,,T,,M,0.00,N,0.01,K,D*27
$GPHDT,,T*1B
$GPTHS,,V*0E
$GPROT,,V*08
$PSSN,HRP,010002.00,010125,,,,,,,00,0,,*62
$PTNL,AVR,010002.00,,Yaw,,Tilt,,,,0,,00*34
$GPGSA,A,3,02,03,17,19,21,31,,,,,,,1.4,0.8,1.2*32
$GPGSA,A,3,69,70,84,85,,,,,,,,,1.4,0.8,1.2*35
$GPGSA,A,3,04,06,09,10,11,36,,,,,,,1.4,0.8,1.2*33
$GPGSA,A,3,19,20,29,32,35,,,,,,,,1.4,0.8,1.2*3A
$GPGST,010002.00,1.609,2.809,0.781,34.912,2.346,1.731,2.566*6A
$GPGBS,010002.00,6.196,5.135,9.182,17,0.0001,2.092,0.739*57
$GPGRS,010002.00,1,0.5,-1.5,2.1,-2.2,-0.8,2.1,,,,,,*69
$GPGRS,010002.00,1,1.5,0.1,-0.0,-0.4,,,,,,,,*4C
$GPGRS,010002.00,1,-0.9,0.9,0.5,0.1,-0.1,0.3,,,,,,*4B
$GPGRS,010002.00,1,0.0,0.9,0.1,0.7,-3.7,,,,,,,*45
$GPGSV,4,1,15,03,72,299,38,09,10,214,,32,13,045,30,19,22,316,43*72
$GPGSV,4,2,15,31,25,105,36,04,36,201,35,28,27,073,35,21,45,143,41*77
$GPGSV,4,3,15,17,39,287,44,02,66,152,47,01,71,136,,36,35,170,41*7F
$GPGSV,4,4,15,34,31,208,,49,34,195,37,61,03,257,*45
$GLGSV,3,1,09,69,67,029,40,85,56,317,53,68,17,043,34,70,40,236,37*6A
$GLGSV,3,2,09,84,63,160,35,83,01,150,,78,07,055,,77,07,000,*64
$GLGSV,3,3,09,86,03,326,32*57
$GAGSV,3,1,11,06,69,146,46,19,10,041,21,12,13,127,,10,36,128,37*63
$GAGSV,3,2,11,09,52,188,48,04,62,077,42,36,60,306,40,11,65,129,40*63
$GAGSV,3,3,11,30,04,316,30,34,09,307,30,05,04,211,*52
$GBGSV,5,1,18,20,86,267,51,30,21,165,29,39,28,051,35,05,24,128,*6E
$GBGSV,5,2,18,16,30,062,34,35,31,309,45,06,31,066,31,32,34,057,40*6B
$GBGSV,5,3,18,09,32,082,34,19,34,240,40,29,61,222,46,48,63,242,*6D
$GBGSV,5,4,18,02,08,105,,13,01,087,,25,02,020,,23,07,066,*60
$GBGSV,5,5,18,57,02,102,,60,09,109,*66
$GPGGA,010002.00,,,,,0,00,,,M,,M,,*4B
$PTNL,GGK,010002.00,010125,4742.4462516,N,01617.9733881,E,1,21,1.4,EHT670.0540,M*42
$GPGGQ,010002.00,010125,4742.4462516,N,01617.9733881,E,1,21,3.884,626.8429,M*3B
$GPGFA,010002.00,26.708,21.042,2.809,0.781,34.912,2.566,,VVV*39
$GPLLK,010002.00,010125,,M,,M,1,21,1.7,,M*0D
$GNGMP,010002.00,,,,,DAAA,21,0.8,,,,*5E
$GPGMP,010002.00,,,,,,06,,,,3.2,123*79
$GLGMP,010002.00,,,,,,04,,,,,*78
$GAGMP,010002.00,,,,,,06,,,,,*77
$GBGMP,010002.00,,,,,,05,,,,,*77
$PSSN,SNC,[0,262820000,2347]*48
$GPZDA,010007.00,01,01,2025,,*65
$GPDTM,W84,,00.0000000,N,00.0000000,E,00.0000000,W84*5F
$GPRMC,010007.00,A,4742.4462500,N,01617.9733802,E,0.0,,010125,5.1,E,D*1A
$GPGLL,4742.4462500,N,01617.9733802,E,010007.00,A,D*6B
$GPGGA,010007.00,4742.4462500,N,01617.9733802,E,2,20,0.8,626.8491,M,43.2110,M,2.0,0123*4D
$GNGNS,010007.00,4742.4462500,N,01617.9733802,E,DAAA,20,0.8,626.8491,43.2110,,*53
$GPGNS,010007.00,,,,,,06,,,,2.0,123*7F
$GLGNS,010007.00,,,,,,03,,,,,*7A
$GAGNS,010007.00,,,,,,06,,,,,*72
$GBGNS,010007.00,,,,,,05,,,,,*72
$GPLLQ,010007.00,010125,,M,,M,1,20,2.186,,M*18
$GPVTG,,T,,M,0.00,N,0.01,K,D*27
$GPHDT,,T*1B
$GPTHS,,V*0E
$GPROT,,V*08
$PSSN,HRP,010007.00,010125,,,,,,,00,0,,*67
$PTNL,AVR,010007.00,,Yaw,,Tilt,,,,0,,00*31
$GPGSA,A,3,02,03,04,17,19,21,,,,,,,1.5,0.8,1.3*34
$GPGSA,A,3,69,70,85,,,,,,,,,,1.5,0.8,1.3*39
$GPGSA,A,3,04,06,09,10,11,36,,,,,,,1.5,0.8,1.3*33
$GPGSA,A,3,19,20,29,32,35,,,,,,,,1.5,0.8,1.3*3A
$GPGST,010007.00,1.549,1.216,0.512,52.306,0.847,1.012,1.743*60
$GPGBS,010007.00,5.375,5.161,8.965,21,0.0001,-1.151,0.664*73
$GPGRS,010007.00,1,0.8,0.1,-0.3,1.1,-1.0,-1.2,,,,,,*6D
$GPGRS,010007.00,1,1.8,2.0,0.5,,,,,,,,,*68
$GPGRS,010007.00,1,-0.3,1.4,0.8,0.5,0.8,-0.8,,,,,,*43
$GPGRS,010007.00,1,0.0,1.1,1.1,1.0,-3.4,,,,,,,*4D
$GPGSV,4,1,15,03,72,299,38,09,10,214,,32,13,045,24,19,22,316,42*76
$GPGSV,4,2,15,31,25,105,37,04,36,201,38,28,27,073,35,21,45,143,41*7B
$GPGSV,4,3,15,17,39,287,44,02,66,152,46,01,71,136,,36,35,170,41*7E
$GPGSV,4,4,15,34,31,208,,49,34,195,37,61,03,257,*45
$GLGSV,3,1,09,69,67,029,41,85,56,317,53,68,17,043,34,70,40,236,37*6B
$GLGSV,3,2,09,84,63,160,35,83,01,150,,78,07,055,,77,07,000,*64
$GLGSV,3,3,09,86,04,326,29*5A
$GAGSV,3,1,11,06,69,146,46,19,10,041,20,12,13,127,,10,36,128,38*6D
$GAGSV,3,2,11,09,52,188,48,04,62,077,42,36,60,306,39,11,65,129,40*6D
$GAGSV,3,3,11,30,04,316,29,34,09,307,31,05,04,211,*5B
$GBGSV,5,1,18,20,86,267,51,30,20,165,30,39,28,051,35,05,24,128,*67
$GBGSV,5,2,18,16,30,062,34,35,31,309,45,06,31,066,31,32,34,057,41*6A
$GBGSV,5,3,18,09,32,082,34,19,34,240,39,29,61,222,46,48,63,242,*63
$GBGSV,5,4,18,02,08,105,,13,01,087,,25,02,020,,23,07,066,*60
$GBGSV,5,5,18,57,02,102,,60,09,109,*66
$GPGGA,010007.00,,,,,0,00,,,M,,M,,*4E
$PTNL,GGK,010007.00,010125,4742.4462500,N,01617.9733802,E,1,20,1.5,EHT670.0602,M*4E
$GPGGQ,010007.00,010125,4742.4462500,N,01617.9733802,E,1,20,2.186,626.8491,M*3A
$GPGFA,010007.00,11.561,14.295,1.216,0.512,52.306,1.743,,VVV*3D
$GPLLK,010007.00,010125,,M,,M,1,20,1.9,,M*07
$GNGMP,010007.00,,,,,DAAA,20,0.8,,,,*5A
$GPGMP,010007.00,,,,,,06,,,,2.0,123*7F
$GLGMP,010007.00,,,,,,03,,,,,*7A
$GAGMP,010007.00,,,,,,06,,,,,*72
$GBGMP,010007.00,,,,,,05,,,,,*72
$PSSN,SNC,[0,262825000,2347]*4D
$GPZDA,010012.00,01,01,2025,,*61
$GPDTM,W84,,00.0000000,N,00.0000000,E,00.0000000,W84*5F
$GPRMC,010012.00,A,4742.4462416,N,01617.9733796,E,0.0,,010125,5.1,E,D*1A
$GPGLL,4742.4462416,N,01617.9733796,E,010012.00,A,D*6B
$GPGGA,010012.00,4742.4462416,N,01617.9733796,E,2,23,0.7,626.8254,M,43.2110,M,3.0,0123*4F
$GNGNS,010012.00,4742.4462416,N,01617.9733796,E,DAAA,23,0.7,626.8254,43.2110,,*50
$GPGNS,010012.00,,,,,,06,,,,3.0,123*7A
$GLGNS,010012.00,,,,,,04,,,,,*79
$GAGNS,010012.00,,,,,,06,,,,,*76
$GBGNS,010012.00,,,,,,07,,,,,*74
$GPLLQ,010012.00,010125,,M,,M,1,23,2.033,,M*10
$GPVTG,,T,,M,0.00,N,0.01,K,D*27
$GPHDT,,T*1B
$GPTHS,,V*0E
$GPROT,,V*08
$PSSN,HRP,010012.00,010125,,,,,,,00,0,,*63
$PTNL,AVR,010012.00,,Yaw,,Tilt,,,,0,,00*35
$GPGSA,A,3,02,03,04,17,19,21,,,,,,,1.4,0.7,1.2*3B
$GPGSA,A,3,69,70,84,85,,,,,,,,,1.4,0.7,1.2*3A
$GPGSA,A,3,04,06,09,10,11,36,,,,,,,1.4,0.7,1.2*3C
$GPGSA,A,3,16,19,20,29,32,35,39,,,,,,1.4,0.7,1.2*38
$GPGST,010012.00,1.784,1.121,0.484,51.932,0.789,0.931,1.626*66
$GPGBS,010012.00,5.323,5.038,8.861,03,0.0001,1.307,0.640*56
$GPGRS,010012.00,1,0.5,1.3,-0.5,-0.6,-1.0,-0.9,,,,,,*40
$GPGRS,010012.00,1,1.5,-0.4,0.0,0.6,,,,,,,,*67
$GPGRS,010012.00,1,-0.2,1.3,1.0,0.3,0.5,-2.4,,,,,,*4D
$GPGRS,010012.00,1,-1.5,0.6,0.7,0.8,1.5,-3.0,4.5,,,,,*69
$GPGSV,4,1,15,03,72,299,39,09,10,214,,32,13,045,25,19,22,316,42*76
$GPGSV,4,2,15,31,25,105,38,04,36,201,39,28,27,073,36,21,45,143,40*77
$GPGSV,4,3,15,17,39,287,41,02,66,152,46,01,71,136,,36,35,170,41*7B
$GPGSV,4,4,15,34,31,208,,49,34,195,37,61,03,257,*45
$GLGSV,3,1,09,69,67,030,42,85,57,317,53,68,17,043,33,70,40,236,37*66
$GLGSV,3,2,09,84,63,160,36,83,01,150,,78,07,055,,77,07,000,*67
$GLGSV,3,3,09,86,04,326,20*53
$GAGSV,3,1,11,06,69,146,46,19,10,041,21,12,13,127,,10,36,128,38*6C
$GAGSV,3,2,11,09,52,188,49,04,62,077,41,36,60,306,37,11,65,129,41*60
$GAGSV,3,3,11,30,04,316,29,34,09,307,32,05,04,211,*58
$GBGSV,5,1,18,20,86,268,51,30,20,165,31,39,28,051,35,05,24,128,*69
$GBGSV,5,2,18,16,30,062,36,35,31,309,46,06,31,066,32,32,34,058,42*64
$GBGSV,5,3,18,09,32,082,34,19,34,241,38,29,61,222,45,48,63,242,*60
$GBGSV,5,4,18,02,08,105,,13,01,087,,25,02,020,,23,07,066,*60
$GBGSV,5,5,18,57,02,102,,60,09,109,*66
$GPGGA,010012.00,,,,,0,00,,,M,,M,,*4A
$PTNL,GGK,010012.00,010125,4742.4462416,N,01617.9733796,E,1,23,1.4,EHT670.0365,M*48
$GPGGQ,010012.00,010125,4742.4462416,N,01617.9733796,E,1,23,2.033,626.8254,M*39
$GPGFA,010012.00,10.656,13.336,1.121,0.484,51.932,1.626,,VVV*35
$GPLLK,010012.00,010125,,M,,M,1,23,1.6,,M*0F
$GNGMP,010012.00,,,,,DAAA,23,0.7,,,,*52
$GPGMP,010012.00,,,,,,06,,,,3.0,123*7A
$GLGMP,010012.00,,,,,,04,,,,,*79
$GAGMP,010012.00,,,,,,06,,,,,*76
$GBGMP,010012.00,,,,,,07,,,,,*74
$PSSN,SNC,[0,262830000,2347]*49
$GPZDA,010017.00,01,01,2025,,*64
$GPDTM,W84,,00.0000000,N,00.0000000,E,00.0000000,W84*5F
$GPRMC,010017.00,A,4742.4462451,N,01617.9733724,E,0.0,,010125,5.1,E,D*15
$GPGLL,4742.4462451,N,01617.9733724,E,010017.00,A,D*64
$GPGGA,010017.00,4742.4462451,N,01617.9733724,E,2,22,0.7,626.8019,M,43.2111,M,2.0,0123*4A
$GNGNS,010017.00,4742.4462451,N,01617.9733724,E,DAAA,22,0.7,626.8019,43.2111,,*54
$GPGNS,010017.00,,,,,,06,,,,2.0,123*7E
$GLGNS,010017.00,,,,,,04,,,,,*7C
$GAGNS,010017.00,,,,,,05,,,,,*70
$GBGNS,010017.00,,,,,,07,,,,,*71
$GPLLQ,010017.00,010125,,M,,M,1,22,2.898,,M*1D
$GPVTG,,T,,M,0.00,N,0.01,K,D*27
$GPHDT,,T*1B
$GPTHS,,V*0E
$GPROT,,V*08
$PSSN,HRP,010017.00,010125,,,,,,,00,0,,*66
$PTNL,AVR,010017.00,,Yaw,,Tilt,,,,0,,00*30
$GPGSA,A,3,02,03,04,17,19,21,,,,,,,1.4,0.7,1.2*3B
$GPGSA,A,3,69,70,84,85,,,,,,,,,1.4,0.7,1.2*3A
$GPGSA,A,3,04,06,09,10,11,,,,,,,,1.4,0.7,1.2*39
$GPGSA,A,3,16,19,20,29,32,35,39,,,,,,1.4,0.7,1.2*38
$GPGST,010017.00,1.891,1.599,0.697,52.683,1.117,1.340,2.314*63
$GPGBS,010017.00,5.107,5.098,8.838,17,0.0001,-2.243,0.729*75
$GPGRS,010017.00,1,1.0,1.0,0.8,-2.2,-0.7,-0.7,,,,,,*6C
$GPGRS,010017.00,1,1.1,-2.1,1.2,0.6,,,,,,,,*62
$GPGRS,010017.00,1,0.0,1.5,1.5,0.3,1.0,,,,,,,*65
$GPGRS,010017.00,1,-1.0,1.9,-0.6,-0.4,2.4,-2.2,4.0,,,,,*6E
$GPGSV,4,1,15,03,72,300,41,09,11,214,,32,13,045,32,19,22,316,43*7E
$GPGSV,4,2,15,31,25,105,38,04,36,201,40,28,27,073,35,21,45,143,38*75
$GPGSV,4,3,15,17,39,287,38,02,66,152,45,01,71,136,,36,35,170,41*76
$GPGSV,4,4,15,34,31,208,,49,34,195,37,61,03,257,*45
$GLGSV,3,1,09,69,67,030,42,85,57,317,52,68,17,043,33,70,41,236,36*67
$GLGSV,3,2,09,84,63,160,37,83,01,150,,78,07,055,,77,07,000,*66
$GLGSV,3,3,09,86,04,326,28*5B
$GAGSV,3,1,11,06,69,146,47,19,10,041,21,12,13,127,,10,36,128,39*6C
$GAGSV,3,2,11,09,52,188,49,04,62,077,41,36,60,306,35,11,65,129,41*62
$GAGSV,3,3,11,30,04,316,27,34,09,307,33,05,04,211,*57
$GBGSV,5,1,19,20,86,268,52,30,20,165,32,39,28,051,35,05,24,128,*68
$GBGSV,5,2,19,16,30,062,36,35,31,309,46,06,31,066,32,32,34,058,43*64
$GBGSV,5,3,19,09,32,082,33,19,34,241,37,29,61,222,44,48,63,242,*68
$GBGSV,5,4,19,02,08,105,,13,01,087,,37,00,112,,25,02,020,*61
$GBGSV,5,5,19,23,07,066,,57,02,102,,60,09,109,*51
$GPGGA,010017.00,,,,,0,00,,,M,,M,,*4F
$PTNL,GGK,010017.00,010125,4742.4462451,N,01617.9733724,E,1,22,1.4,EHT670.0130,M*44
$GPGGQ,010017.00,010125,4742.4462451,N,01617.9733724,E,1,22,2.898,626.8019,M*35
$GPGFA,010017.00,15.201,18.974,1.599,0.697,52.683,2.314,,VVV*32
$GPLLK,010017.00,010125,,M,,M,1,22,1.7,,M*0A
$GNGMP,010017.00,,,,,DAAA,22,0.7,,,,*56
$GPGMP,010017.00,,,,,,06,,,,2.0,123*7E
$GLGMP,010017.00,,,,,,04,,,,,*7C
$GAGMP,010017.00,,,,,,05,,,,,*70
$GBGMP,010017.00,,,,,,07,,,,,*71
$PSSN,SNC,[0,262835000,2347]*4C
$GPZDA,010022.00,01,01,2025,,*62
$GPDTM,W84,,00.0000000,N,00.0000000,E,00.0000000,W84*5F
$GPRMC,010022.00,A,4742.4462531,N,01617.9733658,E,0.0,,010125,5.1,E,D*1E
$GPGLL,4742.4462531,N,01617.9733658,E,010022.00,A,D*6F
$GPGGA,010022.00,4742.4462531,N,01617.9733658,E,2,21,0.7,626.7851,M,43.2111,M,3.0,0123*48
$GNGNS,010022.00,4742.4462531,N,01617.9733658,E,DAAA,21,0.7,626.7851,43.2111,,*57
$GPGNS,010022.00,,,,,,06,,,,3.0,123*79
$GLGNS,010022.00,,,,,,03,,,,,*7D
$GAGNS,010022.00,,,,,,05,,,,,*76
$GBGNS,010022.00,,,,,,07,,,,,*77
$GPLLQ,010022.00,010125,,M,,M,1,21,2.584,,M*18
$GPVTG,,T,,M,0.00,N,0.01,K,D*27
$GPHDT,,T*1B
$GPTHS,,V*0E
$GPROT,,V*08
$PSSN,HRP,010022.00,010125,,,,,,,00,0,,*60
$PTNL,AVR,010022.00,,Yaw,,Tilt,,,,0,,00*36
$GPGSA,A,3,02,03,04,17,19,21,,,,,,,1.4,0.7,1.2*3B
$GPGSA,A,3,69,84,85,,,,,,,,,,1.4,0.7,1.2*3D
$GPGSA,A,3,04,06,09,10,11,,,,,,,,1.4,0.7,1.2*39
$GPGSA,A,3,16,19,20,29,32,35,39,,,,,,1.4,0.7,1.2*38
$GPGST,010022.00,1.942,1.439,0.622,53.405,0.993,1.214,2.054*60
$GPGBS,010022.00,5.258,5.232,8.976,17,0.0001,-2.040,0.754*78
$GPGRS,010022.00,1,0.4,1.0,0.9,-2.0,-1.0,-0.4,,,,,,*69
$GPGRS,010022.00,1,0.9,2.7,0.3,,,,,,,,,*6E
$GPGRS,010022.00,1,-0.1,1.2,1.0,-0.0,0.3,,,,,,,*61
$GPGRS,010022.00,1,-1.6,2.3,-1.2,-1.5,1.8,-2.6,3.7,,,,,*69
$GPGSV,4,1,15,03,72,300,43,09,11,214,,32,13,045,32,19,22,316,44*7B
$GPGSV,4,2,15,31,25,105,38,04,36,201,40,28,27,073,34,21,45,143,38*74
$GPGSV,4,3,15,17,39,287,37,02,65,152,46,01,71,136,,36,35,170,41*79
$GPGSV,4,4,15,34,31,208,,49,34,195,37,61,03,257,*45
$GLGSV,3,1,09,69,67,030,41,85,57,317,53,68,17,043,33,70,41,236,33*60
$GLGSV,3,2,09,84,63,160,36,83,01,150,,78,07,055,,77,07,000,*67
$GLGSV,3,3,09,86,04,326,31*53
$GAGSV,3,1,11,06,69,146,48,19,10,041,19,12,13,128,,10,36,128,38*66
$GAGSV,3,2,11,09,52,188,49,04,62,077,40,36,61,306,32,11,65,129,42*66
$GAGSV,3,3,11,30,04,316,27,34,09,307,34,05,04,211,*50
$GBGSV,5,1,19,20,86,269,52,30,20,166,32,39,28,051,35,05,24,128,*6A
$GBGSV,5,2,19,16,30,062,37,35,31,309,46,06,31,066,32,32,34,058,44*62
$GBGSV,5,3,19,09,32,082,33,19,34,241,37,29,61,222,42,48,63,242,*6E
$GBGSV,5,4,19,02,08,105,,13,01,087,,37,00,112,,25,02,020,*61
$GBGSV,5,5,19,23,07,066,,57,02,102,,60,09,109,*51
$GPGGA,010022.00,,,,,0,00,,,M,,M,,*49
$PTNL,GGK,010022.00,010125,4742.4462531,N,01617.9733658,E,1,21,1.4,EHT669.9961,M*41
$GPGGQ,010022.00,010125,4742.4462531,N,01617.9733658,E,1,21,2.584,626.7851,M*36
$GPGFA,010022.00,13.684,16.847,1.439,0.622,53.405,2.054,,VVV*3B
$GPLLK,010022.00,010125,,M,,M,1,21,1.7,,M*0F
$GNGMP,010022.00,,,,,DAAA,21,0.7,,,,*53
$GPGMP,010022.00,,,,,,06,,,,3.0,123*79
$GLGMP,010022.00,,,,,,03,,,,,*7D
$GAGMP,010022.00,,,,,,05,,,,,*76
$GBGMP,010022.00,,,,,,07,,,,,*77
$PSSN,SNC,[0,262840000,2347]*4E
$GPZDA,010027.00,01,01,2025,,*67
$GPDTM,W84,,00.0000000,N,00.0000000,E,00.0000000,W84*5F
$GPRMC,010027.00,A,4742.4462574,N,01617.9733553,E,0.0,,010125,5.1,E,D*12
$GPGLL,4742.4462574,N,01617.9733553,E,010027.00,A,D*63
$GPGGA,010027.00,4742.4462574,N,01617.9733553,E,2,21,0.7,626.7629,M,43.2111,M,2.0,0123*44
$GNGNS,010027.00,4742.4462574,N,01617.9733553,E,DAAA,21,0.7,626.7629,43.2111,,*5A
$GPGNS,010027.00,,,,,,06,,,,2.0,123*7D
$GLGNS,010027.00,,,,,,03,,,,,*78
$GAGNS,010027.00,,,,,,05,,,,,*73
$GBGNS,010027.00,,,,,,07,,,,,*72
$GPLLQ,010027.00,010125,,M,,M,1,21,1.925,,M*19
$GPVTG,,T,,M,0.00,N,0.01,K,D*27
$GPHDT,,T*1B
$GPTHS,,V*0E
$GPROT,,V*08
$PSSN,HRP,010027.00,010125,,,,,,,00,0,,*65
$PTNL,AVR,010027.00,,Yaw,,Tilt,,,,0,,00*33
$GPGSA,A,3,02,03,04,17,19,21,,,,,,,1.4,0.7,1.2*3B
$GPGSA,A,3,69,84,85,,,,,,,,,,1.4,0.7,1.2*3D
$GPGSA,A,3,04,06,09,10,11,,,,,,,,1.4,0.7,1.2*39
$GPGSA,A,3,16,19,20,29,32,35,39,,,,,,1.4,0.7,1.2*38
$GPGST,010027.00,1.574,1.072,0.461,52.818,0.744,0.898,1.531*6D
$GPGBS,010027.00,5.322,5.040,8.740,17,0.0001,-1.259,0.701*74
$GPGRS,010027.00,1,0.2,0.7,-0.3,-1.3,-1.2,0.7,,,,,,*67
$GPGRS,010027.00,1,-0.2,1.2,1.0,,,,,,,,,*49
$GPGRS,010027.00,1,0.6,1.9,0.8,0.9,0.3,,,,,,,*68
$GPGRS,010027.00,1,-0.5,2.1,-0.8,-0.5,1.5,-2.8,2.5,,,,,*66
$GPGSV,4,1,15,03,72,300,44,09,11,214,,32,13,045,32,19,22,316,43*7B
$GPGSV,4,2,15,31,25,105,37,04,36,201,38,28,27,073,31,21,45,143,38*71
$GPGSV,4,3,15,17,39,287,38,02,65,152,47,01,71,136,,36,35,170,41*77
$GPGSV,4,4,15,34,31,208,,49,34,195,37,61,03,257,*45
$GLGSV,3,1,09,69,67,030,41,85,57,317,53,68,17,043,34,70,41,236,31*65
$GLGSV,3,2,09,84,63,160,35,83,01,150,,78,07,055,,77,07,000,*64
$GLGSV,3,3,09,86,04,326,32*50
$GAGSV,3,1,11,06,69,146,48,19,10,041,21,12,13,128,,10,36,128,38*6D
$GAGSV,3,2,11,09,52,188,49,04,62,077,39,36,61,306,30,11,65,129,42*6A
$GAGSV,3,3,11,30,04,316,25,34,09,307,35,05,04,211,*53
$GBGSV,5,1,19,20,86,269,52,30,20,166,32,39,28,051,35,05,24,128,*6A
$GBGSV,5,2,19,16,30,062,37,35,31,309,46,06,31,066,32,32,34,058,44*62
$GBGSV,5,3,19,09,32,082,33,19,34,241,35,29,61,222,41,48,63,242,*6F
$GBGSV,5,4,19,02,08,105,,13,01,087,,37,00,112,,25,02,020,*61
$GBGSV,5,5,19,23,07,066,,57,02,102,,60,09,109,*51
$GPGGA,010027.00,,,,,0,00,,,M,,M,,*4C
$PTNL,GGK,010027.00,010125,4742.4462574,N,01617.9733553,E,1,21,1.4,EHT669.9740,M*40
$GPGGQ,010027.00,010125,4742.4462574,N,01617.9733553,E,1,21,1.925,626.7629,M*3F
$GPGFA,010027.00,10.188,12.554,1.072,0.461,52.818,1.531,,VVV*37
$GPLLK,010027.00,010125,,M,,M,1,21,1.7,,M*0A
$GNGMP,010027.00,,,,,DAAA,21,0.7,,,,*56
$GPGMP,010027.00,,,,,,06,,,,2.0,123*7D
$GLGMP,010027.00,,,,,,03,,,,,*78
$GAGMP,010027.00,,,,,,05,,,,,*73
$GBGMP,010027.00,,,,,,07,,,,,*72
$PSSN,SNC,[0,262845000,2347]*4B
$GPZDA,010032.00,01,01,2025,,*63
$GPDTM,W84,,00.0000000,N,00.0000000,E,00.0000000,W84*5F
$GPRMC,010032.00,A,4742.4462592,N,01617.9733449,E,0.0,,010125,5.1,E,D*14
$GPGLL,4742.4462592,N,01617.9733449,E,010032.00,A,D*65
$GPGGA,010032.00,4742.4462592,N,01617.9733449,E,2,20,0.7,626.7316,M,43.2111,M,2.9,0123*43
$GNGNS,010032.00,4742.4462592,N,01617.9733449,E,DAAA,20,0.7,626.7316,43.2111,,*54
$GPGNS,010032.00,,,,,,07,,,,2.9,123*71
$GLGNS,010032.00,,,,,,02,,,,,*7D
$GAGNS,010032.00,,,,,,05,,,,,*77
$GBGNS,010032.00,,,,,,06,,,,,*77
$GPLLQ,010032.00,010125,,M,,M,1,20,2.433,,M*15
$GPVTG,,T,,M,0.01,N,0.01,K,D*26
$GPHDT,,T*1B
$GPTHS,,V*0E
$GPROT,,V*08
$PSSN,HRP,010032.00,010125,,,,,,,00,0,,*61
$PTNL,AVR,010032.00,,Yaw,,Tilt,,,,0,,00*37
$GPGSA,A,3,02,03,04,17,19,21,28,,,,,,1.5,0.7,1.3*31
$GPGSA,A,3,69,85,,,,,,,,,,,1.5,0.7,1.3*31
$GPGSA,A,3,04,06,09,10,11,,,,,,,,1.5,0.7,1.3*39
$GPGSA,A,3,16,20,29,32,35,39,,,,,,,1.5,0.7,1.3*30
$GPGST,010032.00,1.766,1.031,0.707,30.568,0.958,0.804,2.087*6F
$GPGBS,010032.00,3.844,3.205,7.574,03,0.0001,1.568,0.638*54
$GPGRS,010032.00,1,0.4,1.6,-1.4,-1.0,-0.9,1.4,-1.7,,,,,*6D
$GPGRS,010032.00,1,0.8,0.7,,,,,,,,,,*41
$GPGRS,010032.00,1,0.9,2.3,0.5,1.1,0.6,,,,,,,*6B
$GPGRS,010032.00,1,-0.4,-0.8,2.1,0.8,-2.6,2.6,,,,,,*64
$GPGSV,4,1,15,03,72,300,44,09,11,214,,32,13,045,31,19,22,316,43*78
$GPGSV,4,2,15,31,25,105,37,04,36,201,36,28,27,073,39,21,45,143,40*78
$GPGSV,4,3,15,17,39,287,39,02,65,152,47,01,70,136,,36,35,170,41*77
$GPGSV,4,4,15,34,31,208,,49,34,195,37,61,03,257,*45
$GLGSV,3,1,09,69,67,030,42,85,57,317,53,68,17,043,35,70,41,236,30*66
$GLGSV,3,2,09,84,63,160,35,83,01,150,,78,07,055,,77,07,000,*64
$GLGSV,3,3,09,86,04,326,32*50
$GAGSV,3,1,11,06,69,146,48,19,10,041,19,12,13,128,,10,36,128,37*69
$GAGSV,3,2,11,09,52,188,48,04,62,077,38,36,61,306,26,11,65,129,43*6C
$GAGSV,3,3,11,30,04,316,25,34,09,307,35,05,04,211,*53
$GBGSV,5,1,19,20,86,269,52,30,20,166,32,39,28,051,35,05,24,128,*6A
$GBGSV,5,2,19,16,30,062,38,35,31,309,46,06,31,066,32,32,34,058,44*6D
$GBGSV,5,3,19,09,32,082,34,19,34,241,33,29,61,222,42,48,63,242,*6D
$GBGSV,5,4,19,02,08,105,,13,01,087,,37,00,112,,25,02,020,*61
$GBGSV,5,5,19,23,07,066,,57,02,102,,60,09,109,*51
$GPGGA,010032.00,,,,,0,00,,,M,,M,,*48
$PTNL,GGK,010032.00,010125,4742.4462592,N,01617.9733449,E,1,20,1.5,EHT669.9427,M*44
$GPGGQ,010032.00,010125,4742.4462592,N,01617.9733449,E,1,20,2.433,626.7316,M*38
$GPGFA,010032.00,9.803,17.112,1.031,0.707,30.568,2.087,,VVV*03
$GPLLK,010032.00,010125,,M,,M,1,20,1.7,,M*0F
$GNGMP,010032.00,,,,,DAAA,20,0.7,,,,*53
$GPGMP,010032.00,,,,,,07,,,,2.9,123*71
$GLGMP,010032.00,,,,,,02,,,,,*7D
$GAGMP,010032.00,,,,,,05,,,,,*77
$GBGMP,010032.00,,,,,,06,,,,,*77
$PSSN,SNC,[0,262850000,2347]*4F
$GPZDA,010037.00,01,01,2025,,*66
$GPDTM,W84,,00.0000000,N,00.0000000,E,00.0000000,W84*5F
$GPRMC,010037.00,A,4742.4462568,N,01617.9733338,E,0.0,,010125,5.1,E,D*15
$GPGLL,4742.4462568,N,01617.9733338,E,010037.00,A,D*64
$GPGGA,010037.00,4742.4462568,N,01617.9733338,E,2,21,0.7,626.6867,M,43.2111,M,2.1,0123*47
$GNGNS,010037.00,4742.4462568,N,01617.9733338,E,DAAA,21,0.7,626.6867,43.2111,,*58
$GPGNS,010037.00,,,,,,07,,,,2.1,123*7C
$GLGNS,010037.00,,,,,,03,,,,,*79
$GAGNS,010037.00,,,,,,05,,,,,*72
$GBGNS,010037.00,,,,,,06,,,,,*72
$GPLLQ,010037.00,010125,,M,,M,1,21,2.883,,M*16
$GPVTG,,T,,M,0.01,N,0.01,K,D*26
$GPHDT,,T*1B
$GPTHS,,V*0E
$GPROT,,V*08
$PSSN,HRP,010037.00,010125,,,,,,,00,0,,*64
$PTNL,AVR,010037.00,,Yaw,,Tilt,,,,0,,00*32
$GPGSA,A,3,02,03,04,17,19,21,28,,,,,,1.4,0.7,1.2*31
$GPGSA,A,3,68,69,85,,,,,,,,,,1.4,0.7,1.2*3F
$GPGSA,A,3,04,06,09,10,11,,,,,,,,1.4,0.7,1.2*39
$GPGSA,A,3,16,20,29,32,35,39,,,,,,,1.4,0.7,1.2*30
$GPGST,010037.00,6.810,1.233,0.863,32.707,1.138,0.986,2.459*64
$GPGBS,010037.00,3.717,3.178,6.991,68,0.0001,24.176,6.489*68
$GPGRS,010037.00,1,0.2,1.5,-0.9,-1.2,-0.9,1.1,-1.8,,,,,*69
$GPGRS,010037.00,1,24.2,3.0,-0.8,,,,,,,,,*77
$GPGRS,010037.00,1,1.1,1.8,0.2,1.5,0.6,,,,,,,*6C
$GPGRS,010037.00,1,0.7,-0.8,3.9,0.3,-2.2,4.1,,,,,,*48
$GPGSV,4,1,15,03,72,300,43,09,11,214,,32,13,045,31,19,22,316,43*7F
$GPGSV,4,2,15,31,25,104,38,04,36,201,35,28,27,073,38,21,45,143,41*75
$GPGSV,4,3,15,17,39,287,40,02,65,152,47,01,70,136,,36,35,170,41*79
$GPGSV,4,4,15,34,31,208,,49,34,195,37,61,03,257,*45
$GLGSV,3,1,09,69,67,030,43,85,57,317,52,68,17,043,35,70,41,236,32*64
$GLGSV,3,2,09,84,63,160,34,83,01,150,,78,07,054,,77,07,000,*64
$GLGSV,3,3,09,86,04,326,32*50
$GAGSV,3,1,11,06,69,146,47,19,10,041,20,12,13,128,,10,36,128,36*6D
$GAGSV,3,2,11,09,52,188,47,04,62,077,36,36,61,306,25,11,65,129,43*6E
$GAGSV,3,3,11,30,04,316,26,34,09,307,34,05,04,211,*51
$GBGSV,5,1,19,20,86,270,51,30,20,166,31,39,28,051,35,05,24,128,*62
$GBGSV,5,2,19,16,30,062,38,35,31,309,46,06,31,066,32,32,34,058,44*6D
$GBGSV,5,3,19,09,32,082,35,19,35,241,31,29,61,222,43,48,63,242,*6E
$GBGSV,5,4,19,02,08,105,,13,01,087,,37,00,112,,25,02,019,*6B
$GBGSV,5,5,19,23,07,066,,57,02,102,,60,09,109,*51
$GPGGA,010037.00,,,,,0,00,,,M,,M,,*4D
$PTNL,GGK,010037.00,010125,4742.4462568,N,01617.9733338,E,1,21,1.4,EHT669.8977,M*4C
$GPGGQ,010037.00,010125,4742.4462568,N,01617.9733338,E,1,21,2.883,626.6867,M*33
$GPGFA,010037.00,11.726,20.162,1.233,0.863,32.707,2.459,,VVV*37
$GPLLK,010037.00,010125,,M,,M,1,21,1.7,,M*0B
$GNGMP,010037.00,,,,,DAAA,21,0.7,,,,*57
$GPGMP,010037.00,,,,,,07,,,,2.1,123*7C
$GLGMP,010037.00,,,,,,03,,,,,*79
$GAGMP,010037.00,,,,,,05,,,,,*72
$GBGMP,010037.00,,,,,,06,,,,,*72
$PSSN,SNC,[0,262855000,2347]*4A
$GPZDA,010042.00,01,01,2025,,*64
$GPDTM,W84,,00.0000000,N,00.0000000,E,00.0000000,W84*5F
$GPRMC,010042.00,A,4742.4462727,N,01617.9733430,E,0.0,,010125,5.1,E,D*11
$GPGLL,4742.4462727,N,01617.9733430,E,010042.00,A,D*60
$GPGGA,010042.00,4742.4462727,N,01617.9733430,E,2,20,0.7,626.6634,M,43.2111,M,3.1,0123*4B
$GNGNS,010042.00,4742.4462727,N,01617.9733430,E,DAAA,20,0.7,626.6634,43.2111,,*55
$GPGNS,010042.00,,,,,,07,,,,3.1,123*7F
$GLGNS,010042.00,,,,,,02,,,,,*7A
$GAGNS,010042.00,,,,,,06,,,,,*73
$GBGNS,010042.00,,,,,,05,,,,,*73
$GPLLQ,010042.00,010125,,M,,M,1,20,2.455,,M*12
$GPVTG,,T,,M,0.00,N,0.01,K,D*27
$GPHDT,,T*1B
$GPTHS,,V*0E
$GPROT,,V*08
$PSSN,HRP,010042.00,010125,,,,,,,00,0,,*66
$PTNL,AVR,010042.00,,Yaw,,Tilt,,,,0,,00*30
$GPGSA,A,3,02,03,04,17,19,21,28,,,,,,1.3,0.7,1.1*35
$GPGSA,A,3,69,85,,,,,,,,,,,1.3,0.7,1.1*35
$GPGSA,A,3,04,06,09,10,11,34,,,,,,,1.3,0.7,1.1*3A
$GPGSA,A,3,16,20,29,32,35,,,,,,,,1.3,0.7,1.1*3E
$GPGST,010042.00,2.415,1.061,0.749,33.767,0.975,0.858,2.083*6F
$GPGBS,010042.00,3.796,3.287,7.169,28,0.0001,-2.600,0.877*7E
$GPGRS,010042.00,1,-0.3,1.3,1.4,-1.5,-0.8,0.7,-2.6,,,,,*6C
$GPGRS,010042.00,1,2.7,-2.0,,,,,,,,,,*63
$GPGRS,010042.00,1,1.2,0.6,0.3,4.9,0.3,-3.3,,,,,,*6C
$GPGRS,010042.00,1,0.9,-1.1,2.7,-0.3,-1.8,,,,,,,*4C
$GPGSV,4,1,15,03,72,300,43,09,11,214,,32,13,045,31,19,22,316,43*7F
$GPGSV,4,2,15,31,25,104,37,04,36,201,36,28,27,073,37,21,45,143,43*74
$GPGSV,4,3,15,17,39,287,40,02,65,152,47,01,70,136,,36,35,170,41*79
$GPGSV,4,4,15,34,31,208,,49,34,195,37,61,03,257,*45
$GLGSV,3,1,09,69,67,030,41,85,57,317,51,68,17,043,35,70,41,236,33*64
$GLGSV,3,2,09,84,63,160,34,83,01,150,,78,07,054,,77,07,000,*64
$GLGSV,3,3,09,86,04,326,30*52
$GAGSV,3,1,11,06,69,146,46,19,10,041,,12,13,128,,10,36,128,35*6D
$GAGSV,3,2,11,09,52,188,47,04,62,077,37,36,61,306,30,11,65,129,43*6B
$GAGSV,3,3,11,30,04,316,28,34,09,307,35,05,04,211,*5E
$GBGSV,5,1,19,20,86,270,51,30,20,166,32,39,28,051,35,05,24,128,*61
$GBGSV,5,2,19,16,30,062,38,35,31,309,46,06,31,066,32,32,34,058,44*6D
$GBGSV,5,3,19,09,32,082,35,19,35,241,32,29,61,222,44,48,63,242,*6A
$GBGSV,5,4,19,02,08,105,,13,01,087,,37,00,112,,25,02,019,*6B
$GBGSV,5,5,19,23,07,066,,57,01,102,,60,09,109,*52
$GPGGA,010042.00,,,,,0,00,,,M,,M,,*4F
$PTNL,GGK,010042.00,010125,4742.4462727,N,01617.9733430,E,1,20,1.3,EHT669.8745,M*41
$GPGGQ,010042.00,010125,4742.4462727,N,01617.9733430,E,1,20,2.455,626.6634,M*39
$GPGFA,010042.00,10.087,17.084,1.061,0.749,33.767,2.083,,VVV*33
$GPLLK,010042.00,010125,,M,,M,1,20,1.6,,M*09
$GNGMP,010042.00,,,,,DAAA,20,0.7,,,,*54
$GPGMP,010042.00,,,,,,07,,,,3.1,123*7F
$GLGMP,010042.00,,,,,,02,,,,,*7A
$GAGMP,010042.00,,,,,,06,,,,,*73
$GBGMP,010042.00,,,,,,05,,,,,*73
$PSSN,SNC,[0,262860000,2347]*4C
$GPZDA,010047.00,01,01,2025,,*61
$GPDTM,W84,,00.0000000,N,00.0000000,E,00.0000000,W84*5F
$GPRMC,010047.00,A,4742.4462852,N,01617.9733452,E,0.0,,010125,5.1,E,D*1D
$GPGLL,4742.4462852,N,01617.9733452,E,010047.00,A,D*6C
$GPGGA,010047.00,4742.4462852,N,01617.9733452,E,2,19,0.8,626.6513,M,43.2111,M,2.0,0123*44
$GNGNS,010047.00,4742.4462852,N,01617.9733452,E,DAAA,19,0.8,626.6513,43.2111,,*5A
$GPGNS,010047.00,,,,,,06,,,,2.0,123*7B
$GLGNS,010047.00,,,,,,02,,,,,*7F
$GAGNS,010047.00,,,,,,05,,,,,*75
$GBGNS,010047.00,,,,,,06,,,,,*75
$GPLLQ,010047.00,010125,,M,,M,1,19,2.994,,M*1D
$GPVTG,,T,,M,0.00,N,0.01,K,D*27
$GPHDT,,T*1B
$GPTHS,,V*0E
$GPROT,,V*08
$PSSN,HRP,010047.00,010125,,,,,,,00,0,,*63
$PTNL,AVR,010047.00,,Yaw,,Tilt,,,,0,,00*35
$GPGSA,A,3,02,03,04,17,19,21,,,,,,,1.4,0.8,1.2*34
$GPGSA,A,3,69,85,,,,,,,,,,,1.4,0.8,1.2*3E
$GPGSA,A,3,04,06,09,11,34,,,,,,,,1.4,0.8,1.2*30
$GPGSA,A,3,09,16,20,29,32,35,,,,,,,1.4,0.8,1.2*3C
$GPGST,010047.00,1.629,1.684,0.714,52.570,1.170,1.406,2.370*67
$GPGBS,010047.00,5.494,5.136,8.642,03,0.0001,1.521,0.617*5D
$GPGRS,010047.00,1,-0.6,1.5,1.5,-1.5,-1.4,-0.3,,,,,,*48
$GPGRS,010047.00,1,-2.2,-2.1,,,,,,,,,,*4F
$GPGRS,010047.00,1,0.6,-0.0,0.2,-0.2,-2.0,,,,,,,*4B
$GPGRS,010047.00,1,-0.5,0.4,-1.4,1.4,-1.1,-1.8,,,,,,*44
$GPGSV,4,1,15,03,72,300,42,09,11,214,,32,13,045,30,19,22,316,43*7F
$GPGSV,4,2,15,31,25,104,36,04,36,202,36,28,27,073,29,21,45,143,43*79
$GPGSV,4,3,15,17,39,287,40,02,65,152,47,01,70,137,,36,35,170,41*78
$GPGSV,4,4,15,34,31,208,,49,34,195,37,61,03,257,*45
$GLGSV,3,1,09,69,67,030,40,85,57,317,51,68,17,043,33,70,41,236,34*64
$GLGSV,3,2,09,84,63,160,35,83,01,150,,78,07,054,,77,07,000,*65
$GLGSV,3,3,09,86,04,326,28*5B
$GAGSV,3,1,11,06,69,146,45,19,10,041,20,12,13,128,,10,36,128,34*6D
$GAGSV,3,2,11,09,52,188,46,04,62,076,38,36,61,306,33,11,65,129,43*67
$GAGSV,3,3,11,30,04,316,29,34,09,307,37,05,04,211,*5D
$GBGSV,5,1,19,20,86,270,51,30,20,166,31,39,28,051,35,05,24,128,*62
$GBGSV,5,2,19,16,30,062,39,35,31,309,46,06,31,066,32,32,34,058,44*6C
$GBGSV,5,3,19,09,32,082,36,19,35,241,33,29,61,222,45,48,63,242,*69
$GBGSV,5,4,19,02,08,105,,13,01,087,,37,00,112,,25,02,019,*6B
$GBGSV,5,5,19,23,07,066,,57,01,102,,60,09,109,*52
$GPGGA,010047.00,,,,,0,00,,,M,,M,,*4A
$PTNL,GGK,010047.00,010125,4742.4462852,N,01617.9733452,E,1,19,1.4,EHT669.8624,M*46
$GPGGQ,010047.00,010125,4742.4462852,N,01617.9733452,E,1,19,2.994,626.6513,M*39
$GPGFA,010047.00,16.014,19.437,1.684,0.714,52.570,2.370,,VVV*31
$GPLLK,010047.00,010125,,M,,M,1,19,1.7,,M*07
$GNGMP,010047.00,,,,,DAAA,19,0.8,,,,*54
$GPGMP,010047.00,,,,,,06,,,,2.0,123*7B
$GLGMP,010047.00,,,,,,02,,,,,*7F
$GAGMP,010047.00,,,,,,05,,,,,*75
$GBGMP,010047.00,,,,,,06,,,,,*75
$PSSN,SNC,[0,262865000,2347]*49
$GPZDA,010052.00,01,01,2025,,*65
$GPDTM,W84,,00.0000000,N,00.0000000,E,00.0000000,W84*5F
$GPRMC,010052.00,A,4742.4462890,N,01617.9733542,E,0.0,,010125,5.1,E,D*17
$GPGLL,4742.4462890,N,01617.9733542,E,010052.00,A,D*66
$GPGGA,010052.00,4742.4462890,N,01617.9733542,E,2,19,0.9,626.6214,M,43.2111,M,2.8,0123*47
$GNGNS,010052.00,4742.4462890,N,01617.9733542,E,DAAA,19,0.9,626.6214,43.2111,,*51
$GPGNS,010052.00,,,,,,05,,,,2.8,123*74
$GLGNS,010052.00,,,,,,03,,,,,*7A
$GAGNS,010052.00,,,,,,05,,,,,*71
$GBGNS,010052.00,,,,,,06,,,,,*71
$GPLLQ,010052.00,010125,,M,,M,1,19,3.455,,M*18
$GPVTG,,T,,M,0.01,N,0.01,K,D*26
$GPHDT,,T*1B
$GPTHS,,V*0E
$GPROT,,V*08
$PSSN,HRP,010052.00,010125,,,,,,,00,0,,*67
$PTNL,AVR,010052.00,,Yaw,,Tilt,,,,0,,00*31
$GPGSA,A,3,02,03,17,19,21,,,,,,,,1.6,0.9,1.3*32
$GPGSA,A,3,69,84,85,,,,,,,,,,1.6,0.9,1.3*30
$GPGSA,A,3,04,06,09,11,34,,,,,,,,1.6,0.9,1.3*32
$GPGSA,A,3,09,16,20,29,32,35,,,,,,,1.6,0.9,1.3*3E
$GPGST,010052.00,1.746,2.221,0.813,36.447,1.851,1.473,2.519*6D
$GPGBS,010052.00,8.484,9.952,10.102,03,0.0001,2.081,0.634*64
$GPGRS,010052.00,1,-0.2,2.1,-0.8,-1.2,-0.1,,,,,,,*6D
$GPGRS,010052.00,1,-4.5,-0.4,-1.4,,,,,,,,,*4B
$GPGRS,010052.00,1,0.6,-0.1,0.3,-0.2,-0.7,,,,,,,*4A
$GPGRS,010052.00,1,0.5,1.0,-1.0,1.2,-0.9,-1.4,,,,,,*6F
$GPGSV,4,1,15,03,72,300,42,09,11,214,,32,13,045,28,19,22,316,43*76
$GPGSV,4,2,15,31,25,104,33,04,36,202,34,28,27,073,28,21,45,143,44*78
$GPGSV,4,3,15,17,39,287,41,02,65,152,47,01,70,137,,36,35,170,41*79
$GPGSV,4,4,15,34,31,208,,49,34,195,37,61,03,257,*45
$GLGSV,3,1,09,69,67,030,39,85,57,317,51,68,17,043,31,70,41,236,34*68
$GLGSV,3,2,09,84,63,160,35,83,01,150,,78,07,054,,77,07,000,*65
$GLGSV,3,3,09,86,04,326,23*50
$GAGSV,3,1,11,06,69,146,45,19,10,041,20,12,13,128,,10,36,128,33*6A
$GAGSV,3,2,11,09,52,188,46,04,62,076,40,36,61,306,35,11,65,129,43*6E
$GAGSV,3,3,11,30,04,316,30,34,10,307,38,05,05,211,*53
$GBGSV,5,1,19,20,86,271,51,30,20,166,30,39,28,051,35,05,24,128,*62
$GBGSV,5,2,19,16,30,062,39,35,31,309,47,06,31,066,33,32,34,058,44*6C
$GBGSV,5,3,19,09,32,082,37,19,35,241,35,29,61,222,46,48,63,242,*6D
$GBGSV,5,4,19,02,08,105,,13,01,087,,37,00,112,,25,02,019,*6B
$GBGSV,5,5,19,23,07,066,,57,01,102,,60,09,109,*52
$GPGGA,010052.00,,,,,0,00,,,M,,M,,*4E
$PTNL,GGK,010052.00,010125,4742.4462890,N,01617.9733542,E,1,19,1.6,EHT669.8324,M*4B
$GPGGQ,010052.00,010125,4742.4462890,N,01617.9733542,E,1,19,3.455,626.6214,M*32
$GPGFA,010052.00,21.117,20.655,2.221,0.813,36.447,2.519,,VVV*31
$GPLLK,010052.00,010125,,M,,M,1,19,1.9,,M*0D
$GNGMP,010052.00,,,,,DAAA,19,0.9,,,,*51
$GPGMP,010052.00,,,,,,05,,,,2.8,123*74
$GLGMP,010052.00,,,,,,03,,,,,*7A
$GAGMP,010052.00,,,,,,05,,,,,*71
$GBGMP,010052.00,,,,,,06,,,,,*71
$PSSN,SNC,[0,262870000,2347]*4D
$GPZDA,010057.00,01,01,2025,,*60
$GPDTM,W84,,00.0000000,N,00.0000000,E,00.0000000,W84*5F
$GPRMC,010057.00,A,4742.4462951,N,01617.9733567,E,0.0,,010125,5.1,E,D*19
$GPGLL,4742.4462951,N,01617.9733567,E,010057.00,A,D*68
$GPGGA,010057.00,4742.4462951,N,01617.9733567,E,2,21,0.7,626.6085,M,43.2111,M,2.5,0123*4B
$GNGNS,010057.00,4742.4462951,N,01617.9733567,E,DAAA,21,0.7,626.6085,43.2111,,*50
$GPGNS,010057.00,,,,,,04,,,,2.5,123*7D
$GLGNS,010057.00,,,,,,03,,,,,*7F
$GAGNS,010057.00,,,,,,06,,,,,*77
$GBGNS,010057.00,,,,,,08,,,,,*7A
$GPLLQ,010057.00,010125,,M,,M,1,21,2.865,,M*18
$GPVTG,,T,,M,0.00,N,0.00,K,D*26
$GPHDT,,T*1B
$GPTHS,,V*0E
$GPROT,,V*08
$PSSN,HRP,010057.00,010125,,,,,,,00,0,,*62
$PTNL,AVR,010057.00,,Yaw,,Tilt,,,,0,,00*34
$GPGSA,A,3,02,17,19,21,,,,,,,,,1.2,0.7,1.0*38
$GPGSA,A,3,69,84,85,,,,,,,,,,1.2,0.7,1.0*39
$GPGSA,A,3,04,06,09,11,34,36,,,,,,,1.2,0.7,1.0*3E
$GPGSA,A,3,09,16,19,20,29,30,32,35,,,,,1.2,0.7,1.0*3C
$GPGST,010057.00,2.168,1.854,0.517,34.861,1.550,1.141,2.123*6C
$GPGBS,010057.00,8.619,8.761,16.322,19,0.0001,-1.000,0.995*46
$GPGRS,010057.00,1,0.3,0.4,-1.0,0.1,,,,,,,,*67
$GPGRS,010057.00,1,-3.9,-0.9,-0.8,,,,,,,,,*45
$GPGRS,010057.00,1,0.6,-0.6,0.2,0.0,0.2,2.2,,,,,,*60
$GPGRS,010057.00,1,1.4,2.0,2.5,-0.6,0.9,-5.2,-0.5,-0.9,,,,*49
$GPGSV,4,1,15,03,72,300,44,09,11,214,,32,13,045,27,19,22,316,42*7E
$GPGSV,4,2,15,31,25,104,27,04,36,202,33,28,27,073,30,21,45,143,44*73
$GPGSV,4,3,15,17,39,287,43,02,65,152,47,01,70,137,,36,35,170,41*7B
$GPGSV,4,4,15,34,31,208,,49,34,195,37,61,03,257,*45
$GLGSV,3,1,09,69,67,030,40,85,57,317,50,68,16,043,28,70,41,236,33*69
$GLGSV,3,2,09,84,63,160,36,83,01,150,,78,07,054,,77,07,000,*66
$GLGSV,3,3,09,86,04,326,25*56
$GAGSV,3,1,11,06,69,146,44,19,10,041,20,12,13,128,,10,36,128,32*6A
$GAGSV,3,2,11,09,52,188,46,04,62,076,42,36,61,306,36,11,65,129,43*6F
$GAGSV,3,3,11,30,04,316,31,34,10,307,38,05,05,211,*52
$GBGSV,5,1,19,20,86,271,51,30,20,166,37,39,28,051,34,05,24,128,*64
$GBGSV,5,2,19,16,30,062,39,35,31,309,47,06,31,066,33,32,34,058,44*6C
$GBGSV,5,3,19,09,32,082,37,19,35,241,37,29,61,222,46,48,63,242,*6F
$GBGSV,5,4,19,02,08,105,,13,01,087,,37,00,112,,25,02,019,*6B
$GBGSV,5,5,19,23,07,066,,57,01,102,,60,09,109,*52
$GPGGA,010057.00,,,,,0,00,,,M,,M,,*4B
$PTNL,GGK,010057.00,010125,4742.4462951,N,01617.9733567,E,1,21,1.2,EHT669.8196,M*41
$GPGGQ,010057.00,010125,4742.4462951,N,01617.9733567,E,1,21,2.865,626.6085,M*33
$GPGFA,010057.00,17.625,17.408,1.854,0.517,34.861,2.123,,VVV*3C
$GPLLK,010057.00,010125,,M,,M,1,21,1.4,,M*0E
$GNGMP,010057.00,,,,,DAAA,21,0.7,,,,*51
$GPGMP,010057.00,,,,,,04,,,,2.5,123*7D
$GLGMP,010057.00,,,,,,03,,,,,*7F
$GAGMP,010057.00,,,,,,06,,,,,*77
$GBGMP,010057.00,,,,,,08,,,,,*7A
$PSSN,SNC,[0,262875000,2347]*48
$GPZDA,010102.00,01,01,2025,,*61
$GPDTM,W84,,00.0000000,N,00.0000000,E,00.0000000,W84*5F
$GPRMC,010102.00,A,4742.4462970,N,01617.9733616,E,0.0,,010125,5.1,E,D*1E
$GPGLL,4742.4462970,N,01617.9733616,E,010102.00,A,D*6F
$GPGGA,010102.00,4742.4462970,N,01617.9733616,E,2,21,0.7,626.5989,M,43.2111,M,3.5,0123*4B
$GNGNS,010102.00,4742.4462970,N,01617.9733616,E,DAAA,21,0.7,626.5989,43.2111,,*51
$GPGNS,010102.00,,,,,,04,,,,3.5,123*7D
$GLGNS,010102.00,,,,,,03,,,,,*7E
$GAGNS,010102.00,,,,,,06,,,,,*76
$GBGNS,010102.00,,,,,,08,,,,,*7B
$GPLLQ,010102.00,010125,,M,,M,1,21,2.827,,M*1F
$GPVTG,,T,,M,0.00,N,0.01,K,D*27
$GPHDT,,T*1B
$GPTHS,,V*0E
$GPROT,,V*08
$PSSN,HRP,010102.00,010125,,,,,,,00,0,,*63
$PTNL,AVR,010102.00,,Yaw,,Tilt,,,,0,,00*35
$GPGSA,A,3,02,17,19,21,,,,,,,,,1.2,0.7,1.0*38
$GPGSA,A,3,69,84,85,,,,,,,,,,1.2,0.7,1.0*39
$GPGSA,A,3,04,06,09,11,34,36,,,,,,,1.2,0.7,1.0*3E
$GPGSA,A,3,09,16,19,20,29,30,32,35,,,,,1.2,0.7,1.0*3C
$GPGST,010102.00,2.349,1.835,0.527,35.318,1.528,1.144,2.085*6B
$GPGBS,010102.00,8.603,8.836,16.510,17,0.0001,0.931,0.732*6C
$GPGRS,010102.00,1,0.1,0.9,-1.0,-0.3,,,,,,,,*46
$GPGRS,010102.00,1,-3.3,-1.5,-0.6,,,,,,,,,*4D
$GPGRS,010102.00,1,-0.2,-1.6,-0.5,-0.1,-1.4,-3.0,,,,,,*4B
$GPGRS,010102.00,1,1.5,1.5,3.5,-0.7,-0.2,-5.5,-0.9,-0.8,,,,*63
$GPGSV,4,1,15,03,72,300,45,09,11,214,,32,13,045,26,19,22,316,43*7F
$GPGSV,4,2,15,31,25,104,30,04,36,202,34,28,27,073,32,21,45,143,43*77
$GPGSV,4,3,15,17,39,287,44,02,65,152,47,01,70,137,,36,35,170,41*7C
$GPGSV,4,4,15,34,31,208,,49,34,195,37,61,03,257,*45
$GLGSV,3,1,09,69,67,030,42,85,57,317,50,68,16,043,26,70,41,236,33*65
$GLGSV,3,2,09,84,63,160,37,83,01,150,,78,07,054,,77,07,000,*67
$GLGSV,3,3,09,86,04,326,25*56
$GAGSV,3,1,11,06,69,146,42,19,10,041,,12,13,128,,10,36,128,30*6C
$GAGSV,3,2,11,09,52,188,46,04,62,076,42,36,61,306,38,11,65,129,43*61
$GAGSV,3,3,11,30,04,316,32,34,10,307,38,05,05,211,*51
$GBGSV,5,1,19,20,86,271,51,30,20,166,37,39,28,051,35,05,24,128,*65
$GBGSV,5,2,19,16,30,062,39,35,31,309,47,06,31,066,34,32,34,058,44*6B
$GBGSV,5,3,19,09,32,082,37,19,35,241,38,29,61,222,46,48,63,242,*60
$GBGSV,5,4,19,02,08,105,,13,01,087,,37,00,112,,25,02,019,*6B
$GBGSV,5,5,19,23,07,066,,57,01,102,,60,09,109,*52
$GPGGA,010102.00,,,,,0,00,,,M,,M,,*4A
$PTNL,GGK,010102.00,010125,4742.4462970,N,01617.9733616,E,1,21,1.2,EHT669.8100,M*49
$GPGGQ,010102.00,010125,4742.4462970,N,01617.9733616,E,1,21,2.827,626.5989,M*34
$GPGFA,010102.00,17.442,17.099,1.835,0.527,35.318,2.085,,VVV*3F
$GPLLK,010102.00,010125,,M,,M,1,21,1.4,,M*0F
$GNGMP,010102.00,,,,,DAAA,21,0.7,,,,*50
$GPGMP,010102.00,,,,,,04,,,,3.5,123*7D
$GLGMP,010102.00,,,,,,03,,,,,*7E
$GAGMP,010102.00,,,,,,06,,,,,*76
$GBGMP,010102.00,,,,,,08,,,,,*7B
$PSSN,SNC,[0,262880000,2347]*42
$GPZDA,010107.00,01,01,2025,,*64
$GPDTM,W84,,00.0000000,N,00.0000000,E,00.0000000,W84*5F
$GPRMC,010107.00,A,4742.4462974,N,01617.9733757,E,0.0,,010125,5.1,E,D*1B
$GPGLL,4742.4462974,N,01617.9733757,E,010107.00,A,D*6A
$GPGGA,010107.00,4742.4462974,N,01617.9733757,E,2,22,0.7,626.5810,M,43.2111,M,2.0,0123*48
$GNGNS,010107.00,4742.4462974,N,01617.9733757,E,DAAA,22,0.7,626.5810,43.2111,,*56
$GPGNS,010107.00,,,,,,06,,,,2.0,123*7E
$GLGNS,010107.00,,,,,,03,,,,,*7B
$GAGNS,010107.00,,,,,,06,,,,,*73
$GBGNS,010107.00,,,,,,07,,,,,*71
$GPLLQ,010107.00,010125,,M,,M,1,22,3.021,,M*16
$GPVTG,,T,,M,0.00,N,0.01,K,D*27
$GPHDT,,T*1B
$GPTHS,,V*0E
$GPROT,,V*08
$PSSN,HRP,010107.00,010125,,,,,,,00,0,,*66
$PTNL,AVR,010107.00,,Yaw,,Tilt,,,,0,,00*30
$GPGSA,A,3,02,03,04,17,19,21,,,,,,,1.3,0.7,1.1*3F
$GPGSA,A,3,69,84,85,,,,,,,,,,1.3,0.7,1.1*39
$GPGSA,A,3,04,06,09,11,34,36,,,,,,,1.3,0.7,1.1*3E
$GPGSA,A,3,09,16,19,20,29,32,35,,,,,,1.3,0.7,1.1*3F
$GPGST,010107.00,2.409,1.684,0.721,52.563,1.173,1.407,2.403*64
$GPGBS,010107.00,5.350,5.030,8.600,21,0.0001,-1.640,0.665*7A
$GPGRS,010107.00,1,-0.5,1.4,1.5,0.6,-1.8,-1.6,,,,,,*68
$GPGRS,010107.00,1,-2.3,-1.7,-1.7,,,,,,,,,*4B
$GPGRS,010107.00,1,-2.2,-2.3,-1.6,-1.1,-2.8,-4.9,,,,,,*48
$GPGRS,010107.00,1,0.4,0.8,3.4,-1.4,-1.2,-1.6,-1.5,,,,,*69
$GPGSV,4,1,15,03,72,301,44,09,11,214,,32,13,045,25,19,22,316,43*7C
$GPGSV,4,2,15,31,25,104,27,04,36,202,38,28,27,073,31,21,45,143,42*7F
$GPGSV,4,3,15,17,39,287,44,02,65,152,46,01,70,137,,36,35,170,41*7D
$GPGSV,4,4,15,34,31,208,,49,34,195,37,61,03,257,*45
$GLGSV,3,1,09,69,66,030,43,85,57,317,50,68,16,043,24,70,41,236,34*60
$GLGSV,3,2,09,84,62,160,38,83,01,150,,78,08,054,,77,07,000,*66
$GLGSV,3,3,09,86,04,326,*51
$GAGSV,3,1,11,06,69,146,42,19,10,041,,12,13,128,,10,36,128,29*64
$GAGSV,3,2,11,09,52,188,45,04,61,076,42,36,61,306,38,11,65,129,43*61
$GAGSV,3,3,11,30,04,316,34,34,10,307,37,05,05,211,*58
$GBGSV,5,1,19,20,86,272,51,30,20,166,24,39,28,051,34,05,24,128,*65
$GBGSV,5,2,19,16,30,062,39,35,32,309,47,06,31,066,34,32,34,058,44*68
$GBGSV,5,3,19,09,32,082,38,19,35,241,37,29,61,222,46,48,63,242,*60
$GBGSV,5,4,19,02,08,105,,13,01,087,,37,00,112,,25,02,019,*6B
$GBGSV,5,5,19,23,07,066,,57,01,102,,60,09,109,*52
$GPGGA,010107.00,,,,,0,00,,,M,,M,,*4F
$PTNL,GGK,010107.00,010125,4742.4462974,N,01617.9733757,E,1,22,1.3,EHT669.7921,M*4A
$GPGGQ,010107.00,010125,4742.4462974,N,01617.9733757,E,1,22,3.021,626.5810,M*3C
$GPGFA,010107.00,16.008,19.704,1.684,0.721,52.563,2.403,,VVV*3D
$GPLLK,010107.00,010125,,M,,M,1,22,1.6,,M*0B
$GNGMP,010107.00,,,,,DAAA,22,0.7,,,,*56
$GPGMP,010107.00,,,,,,06,,,,2.0,123*7E
$GLGMP,010107.00,,,,,,03,,,,,*7B
$GAGMP,010107.00,,,,,,06,,,,,*73
$GBGMP,010107.00,,,,,,07,,,,,*71
$PSSN,SNC,[0,262885000,2347]*47
$GPZDA,010112.00,01,01,2025,,*60
$GPDTM,W84,,00.0000000,N,00.0000000,E,00.0000000,W84*5F
$GPRMC,010112.00,A,4742.4463112,N,01617.9733984,E,0.0,,010125,5.1,E,D*16
$GPGLL,4742.4463112,N,01617.9733984,E,010112.00,A,D*67
$GPGGA,010112.00,4742.4463112,N,01617.9733984,E,2,22,0.7,626.5836,M,43.2111,M,3.0,0123*40
$GNGNS,010112.00,4742.4463112,N,01617.9733984,E,DAAA,22,0.7,626.5836,43.2111,,*5F
$GPGNS,010112.00,,,,,,06,,,,3.0,123*7B
$GLGNS,010112.00,,,,,,03,,,,,*7F
$GAGNS,010112.00,,,,,,06,,,,,*77
$GBGNS,010112.00,,,,,,07,,,,,*75
$GPLLQ,010112.00,010125,,M,,M,1,22,3.041,,M*14
$GPVTG,,T,,M,0.00,N,0.00,K,D*26
$GPHDT,,T*1B
$GPTHS,,V*0E
$GPROT,,V*08
$PSSN,HRP,010112.00,010125,,,,,,,00,0,,*62
$PTNL,AVR,010112.00,,Yaw,,Tilt,,,,0,,00*34
$GPGSA,A,3,02,03,04,17,19,21,,,,,,,1.3,0.7,1.1*3F
$GPGSA,A,3,69,84,85,,,,,,,,,,1.3,0.7,1.1*39
$GPGSA,A,3,04,06,09,11,34,36,,,,,,,1.3,0.7,1.1*3E
$GPGSA,A,3,09,16,19,20,29,32,35,,,,,,1.3,0.7,1.1*3F
$GPGST,010112.00,2.077,1.689,0.720,51.878,1.187,1.401,2.424*6D
$GPGBS,010112.00,5.419,5.110,8.714,04,0.0001,2.469,0.732*50
$GPGRS,010112.00,1,-0.1,0.3,2.5,0.3,-1.4,-1.7,,,,,,*65
$GPGRS,010112.00,1,-2.1,-1.3,-1.6,,,,,,,,,*48
$GPGRS,010112.00,1,-1.9,-1.8,-1.6,-1.0,-2.6,-3.3,,,,,,*4E
$GPGRS,010112.00,1,1.2,1.9,2.4,-1.2,-0.5,-1.7,-1.1,,,,,*6E
$GPGSV,4,1,15,03,72,301,44,09,11,214,,32,13,045,25,19,22,316,44*7B
$GPGSV,4,2,15,31,25,104,30,04,36,202,41,28,27,073,31,21,44,143,41*75
$GPGSV,4,3,15,17,39,286,43,02,65,152,46,01,70,137,,36,35,170,41*7B
$GPGSV,4,4,15,34,31,208,,49,34,195,37,61,03,257,*45
$GLGSV,3,1,09,69,66,030,43,85,57,317,50,68,16,043,27,70,41,236,35*62
$GLGSV,3,2,09,84,62,160,37,83,01,150,,78,08,054,,77,07,000,*69
$GLGSV,3,3,09,86,04,326,25*56
$GAGSV,3,1,11,06,69,146,42,19,10,041,,12,13,128,,10,36,128,31*6D
$GAGSV,3,2,11,09,52,188,45,04,61,076,42,36,61,306,39,11,65,129,43*60
$GAGSV,3,3,11,30,04,316,35,34,10,307,37,05,05,211,*59
$GBGSV,5,1,19,20,86,272,51,30,20,166,19,39,28,051,35,05,24,128,*6A
$GBGSV,5,2,19,16,30,062,39,35,32,309,47,06,31,066,34,32,34,058,44*68
$GBGSV,5,3,19,09,32,082,38,19,35,241,36,29,61,222,47,48,63,242,*60
$GBGSV,5,4,19,02,08,105,,13,01,087,,37,00,112,,25,02,019,*6B
$GBGSV,5,5,19,23,07,066,,57,01,102,,60,09,109,*52
$GPGGA,010112.00,,,,,0,00,,,M,,M,,*4B
$PTNL,GGK,010112.00,010125,4742.4463112,N,01617.9733984,E,1,22,1.3,EHT669.7946,M*46
$GPGGQ,010112.00,010125,4742.4463112,N,01617.9733984,E,1,22,3.041,626.5836,M*33
$GPGFA,010112.00,16.063,19.877,1.689,0.720,51.878,2.424,,VVV*32
$GPLLK,010112.00,010125,,M,,M,1,22,1.6,,M*0F
$GNGMP,010112.00,,,,,DAAA,22,0.7,,,,*52
$GPGMP,010112.00,,,,,,06,,,,3.0,123*7B
$GLGMP,010112.00,,,,,,03,,,,,*7F
$GAGMP,010112.00,,,,,,06,,,,,*77
$GBGMP,010112.00,,,,,,07,,,,,*75
$PSSN,SNC,[0,262890000,2347]*43
$GPZDA,010117.00,01,01,2025,,*65
$GPDTM,W84,,00.0000000,N,00.0000000,E,00.0000000,W84*5F
$GPRMC,010117.00,A,4742.4463272,N,01617.9734175,E,0.0,,010125,5.1,E,D*17
$GPGLL,4742.4463272,N,01617.9734175,E,010117.00,A,D*66
$GPGGA,010117.00,4742.4463272,N,01617.9734175,E,2,23,0.7,626.5818,M,43.2111,M,2.2,0123*4F
$GNGNS,010117.00,4742.4463272,N,01617.9734175,E,DAAA,23,0.7,626.5818,43.2111,,*53
$GPGNS,010117.00,,,,,,05,,,,2.2,123*7E
$GLGNS,010117.00,,,,,,04,,,,,*7D
$GAGNS,010117.00,,,,,,06,,,,,*72
$GBGNS,010117.00,,,,,,08,,,,,*7F
$GPLLQ,010117.00,010125,,M,,M,1,23,2.781,,M*1A
$GPVTG,,T,,M,0.00,N,0.01,K,D*27
$GPHDT,,T*1B
$GPTHS,,V*0E
$GPROT,,V*08
$PSSN,HRP,010117.00,010125,,,,,,,00,0,,*67
$PTNL,AVR,010117.00,,Yaw,,Tilt,,,,0,,00*31
$GPGSA,A,3,02,03,17,19,21,,,,,,,,1.2,0.7,1.0*3B
$GPGSA,A,3,69,70,84,85,,,,,,,,,1.2,0.7,1.0*3E
$GPGSA,A,3,04,06,09,11,34,36,,,,,,,1.2,0.7,1.0*3E
$GPGSA,A,3,09,16,19,20,29,30,32,35,,,,,1.2,0.7,1.0*3C
$GPGST,010117.00,2.418,1.805,0.649,45.096,1.355,1.358,2.014*6D
$GPGBS,010117.00,6.861,8.577,9.286,21,0.0001,-1.241,0.696*78
$GPGRS,010117.00,1,0.4,0.3,0.1,-1.5,-1.2,,,,,,,*67
$GPGRS,010117.00,1,-1.9,-2.5,-0.8,-1.2,,,,,,,,*4C
$GPGRS,010117.00,1,-1.4,-2.0,-1.4,-1.0,-2.6,-2.2,,,,,,*4F
$GPGRS,010117.00,1,1.7,2.2,1.3,-1.4,0.3,-6.4,-1.7,-1.0,,,,*4F
$GPGSV,4,1,15,03,72,301,43,09,11,214,,32,13,045,27,19,22,316,44*7E
$GPGSV,4,2,15,31,25,104,28,04,36,202,43,28,27,073,35,21,44,143,40*7B
$GPGSV,4,3,15,17,39,286,44,02,65,152,46,01,70,137,,36,35,170,41*7C
$GPGSV,4,4,15,34,31,208,,49,34,195,37,61,03,257,*45
$GLGSV,3,1,09,69,66,030,44,85,57,317,51,68,16,043,27,70,41,236,36*67
$GLGSV,3,2,09,84,62,160,37,83,01,150,,78,08,054,,77,07,000,*69
$GLGSV,3,3,09,86,04,326,23*50
$GAGSV,3,1,11,06,69,146,42,04,61,076,42,12,13,128,,09,52,188,45*66
$GAGSV,3,2,11,10,36,128,34,36,61,306,39,11,65,129,42,19,10,041,*6F
$GAGSV,3,3,11,30,04,316,35,34,10,307,36,05,05,211,*58
$GBGSV,5,1,19,20,86,273,50,30,20,166,21,39,28,051,35,05,24,128,*61
$GBGSV,5,2,19,16,30,062,40,35,32,309,47,06,31,066,34,32,34,058,44*66
$GBGSV,5,3,19,09,32,082,38,19,35,241,36,29,61,222,48,48,63,242,*6F
$GBGSV,5,4,19,02,08,105,,13,01,087,,37,00,112,,25,02,019,*6B
$GBGSV,5,5,19,23,07,066,,57,01,102,,60,09,109,*52
$GPGGA,010117.00,,,,,0,00,,,M,,M,,*4E
$PTNL,GGK,010117.00,010125,4742.4463272,N,01617.9734175,E,1,23,1.2,EHT669.7929,M*4E
$GPGGQ,010117.00,010125,4742.4463272,N,01617.9734175,E,1,23,2.781,626.5818,M*35
$GPGFA,010117.00,17.160,16.513,1.805,0.649,45.096,2.014,,VVV*3A
$GPLLK,010117.00,010125,,M,,M,1,23,1.4,,M*09
$GNGMP,010117.00,,,,,DAAA,23,0.7,,,,*56
$GPGMP,010117.00,,,,,,05,,,,2.2,123*7E
$GLGMP,010117.00,,,,,,04,,,,,*7D
$GAGMP,010117.00,,,,,,06,,,,,*72
$GBGMP,010117.00,,,,,,08,,,,,*7F
$PSSN,SNC,[0,262895000,2347]*46
$GPZDA,010122.00,01,01,2025,,*63
$GPDTM,W84,,00.0000000,N,00.0000000,E,00.0000000,W84*5F
$GPRMC,010122.00,A,4742.4463346,N,01617.9734280,E,0.0,,010125,5.1,E,D*1E
$GPGLL,4742.4463346,N,01617.9734280,E,010122.00,A,D*6F
$GPGGA,010122.00,4742.4463346,N,01617.9734280,E,2,25,0.7,626.5597,M,43.2111,M,3.3,0123*4A
$GNGNS,010122.00,4742.4463346,N,01617.9734280,E,DAAA,25,0.7,626.5597,43.2111,,*56
$GPGNS,010122.00,,,,,,06,,,,3.3,123*7B
$GLGNS,010122.00,,,,,,04,,,,,*7B
$GAGNS,010122.00,,,,,,07,,,,,*75
$GBGNS,010122.00,,,,,,08,,,,,*79
$GPLLQ,010122.00,010125,,M,,M,1,25,2.214,,M*13
$GPVTG,,T,,M,0.00,N,0.01,K,D*27
$GPHDT,,T*1B
$GPTHS,,V*0E
$GPROT,,V*08
$PSSN,HRP,010122.00,010125,,,,,,,00,0,,*61
$PTNL,AVR,010122.00,,Yaw,,Tilt,,,,0,,00*37
$GPGSA,A,3,02,03,17,19,21,28,,,,,,,1.3,0.7,1.1*31
$GPGSA,A,3,69,70,84,85,,,,,,,,,1.3,0.7,1.1*3E
$GPGSA,A,3,04,06,09,10,11,34,36,,,,,,1.3,0.7,1.1*3F
$GPGSA,A,3,06,09,16,19,20,29,32,35,,,,,1.3,0.7,1.1*39
$GPGST,010122.00,3.691,1.198,0.528,27.530,1.090,0.725,1.785*64
$GPGBS,010122.00,5.260,4.128,9.927,10,0.0001,13.999,6.111*68
$GPGRS,010122.00,1,0.6,0.1,1.0,-1.8,-0.5,-0.1,,,,,,*68
$GPGRS,010122.00,1,-1.0,-1.4,-1.6,-0.3,,,,,,,,*4E
$GPGRS,010122.00,1,-0.6,-2.3,-1.1,14.0,-0.7,-2.6,-2.6,,,,,*55
$GPGRS,010122.00,1,-0.0,2.2,2.8,0.5,-1.3,1.1,-1.2,-1.2,,,,*43
$GPGSV,4,1,15,03,72,301,43,09,11,214,,32,13,045,28,19,22,316,45*70
$GPGSV,4,2,15,31,25,104,31,04,36,202,44,28,27,073,35,21,44,143,40*74
$GPGSV,4,3,15,17,39,286,44,02,65,152,46,01,70,137,,36,35,170,41*7C
$GPGSV,4,4,15,34,31,208,,49,34,195,37,61,03,257,*45
$GLGSV,3,1,09,69,66,030,46,85,57,317,52,68,16,043,27,70,41,236,36*66
$GLGSV,3,2,09,84,62,160,35,83,01,150,,78,08,054,,77,07,000,*6B
$GLGSV,3,3,09,86,04,326,30*52
$GAGSV,3,1,11,06,69,145,42,04,61,076,42,12,12,128,,09,52,188,45*64
$GAGSV,3,2,11,10,36,128,36,36,61,306,39,11,65,129,41,19,10,041,*6E
$GAGSV,3,3,11,30,04,315,35,34,10,307,36,05,05,211,*5B
$GBGSV,5,1,19,20,86,273,50,30,20,166,26,39,28,051,35,05,24,128,*66
$GBGSV,5,2,19,16,30,062,40,35,32,309,46,06,31,066,35,32,34,058,43*61
$GBGSV,5,3,19,09,32,082,38,19,35,241,36,29,61,221,49,48,63,242,*6D
$GBGSV,5,4,19,02,08,105,,13,01,087,,37,00,112,,25,02,019,*6B
$GBGSV,5,5,19,23,07,066,,57,01,102,,60,09,109,*52
$GPGGA,010122.00,,,,,0,00,,,M,,M,,*48
$PTNL,GGK,010122.00,010125,4742.4463346,N,01617.9734280,E,1,25,1.3,EHT669.7708,M*4D
$GPGGQ,010122.00,010125,4742.4463346,N,01617.9734280,E,1,25,2.214,626.5597,M*39
$GPGFA,010122.00,11.394,14.636,1.198,0.528,27.530,1.785,,VVV*3D
$GPLLK,010122.00,010125,,M,,M,1,25,1.5,,M*08
$GNGMP,010122.00,,,,,DAAA,25,0.7,,,,*56
$GPGMP,010122.00,,,,,,06,,,,3.3,123*7B
$GLGMP,010122.00,,,,,,04,,,,,*7B
$GAGMP,010122.00,,,,,,07,,,,,*75
$GBGMP,010122.00,,,,,,08,,,,,*79
$PSSN,SNC,[0,262900000,2347]*4B
$GPZDA,010127.00,01,01,2025,,*66
$GPDTM,W84,,00.0000000,N,00.0000000,E,00.0000000,W84*5F
$GPRMC,010127.00,A,4742.4463382,N,01617.9734289,E,0.0,,010125,5.1,E,D*1A
$GPGLL,4742.4463382,N,01617.9734289,E,010127.00,A,D*6B
$GPGGA,010127.00,4742.4463382,N,01617.9734289,E,2,25,0.7,626.5563,M,43.2111,M,1.7,0123*43
$GNGNS,010127.00,4742.4463382,N,01617.9734289,E,DAAA,25,0.7,626.5563,43.2111,,*59
$GPGNS,010127.00,,,,,,06,,,,1.7,123*78
$GLGNS,010127.00,,,,,,03,,,,,*79
$GAGNS,010127.00,,,,,,07,,,,,*70
$GBGNS,010127.00,,,,,,09,,,,,*7D
$GPLLQ,010127.00,010125,,M,,M,1,25,2.986,,M*16
$GPVTG,,T,,M,0.01,N,0.01,K,D*26
$GPHDT,,T*1B
$GPTHS,,V*0E
$GPROT,,V*08
$PSSN,HRP,010127.00,010125,,,,,,,00,0,,*64
$PTNL,AVR,010127.00,,Yaw,,Tilt,,,,0,,00*32
$GPGSA,A,3,02,03,17,19,21,28,,,,,,,1.2,0.7,1.1*30
$GPGSA,A,3,69,70,85,,,,,,,,,,1.2,0.7,1.1*33
$GPGSA,A,3,04,06,09,10,11,34,36,,,,,,1.2,0.7,1.1*3E
$GPGSA,A,3,06,09,16,19,20,29,32,35,39,,,,1.2,0.7,1.1*32
$GPGST,010127.00,4.372,1.499,0.694,25.130,1.389,0.894,2.488*6B
$GPGBS,010127.00,5.242,3.935,10.007,28,0.0001,-2.804,0.835*47
$GPGRS,010127.00,1,0.5,0.2,1.2,-1.6,-0.2,-2.8,,,,,,*6D
$GPGRS,010127.00,1,0.7,-3.1,0.8,,,,,,,,,*45
$GPGRS,010127.00,1,-0.1,-1.5,-0.8,12.9,-0.8,-3.4,-2.3,,,,,*5C
$GPGRS,010127.00,1,0.4,3.2,3.3,0.6,-1.1,1.7,-0.5,-1.7,10.2,,,*7D
$GPGSV,4,1,15,03,72,301,44,09,11,214,,32,13,045,28,19,22,316,45*77
$GPGSV,4,2,15,31,25,104,32,04,37,202,44,28,27,073,37,21,44,143,39*7A
$GPGSV,4,3,15,17,39,286,44,02,65,152,45,01,70,137,,36,35,170,41*7F
$GPGSV,4,4,15,34,31,208,,49,34,195,37,61,03,257,*45
$GLGSV,3,1,09,69,66,030,47,85,57,317,53,68,16,043,26,70,41,236,36*67
$GLGSV,3,2,09,84,62,160,34,83,01,150,,78,08,054,,77,07,000,*6A
$GLGSV,3,3,09,86,04,326,*51
$GAGSV,3,1,11,06,69,145,42,04,61,076,42,12,12,128,,09,52,188,45*64
$GAGSV,3,2,11,10,35,128,36,36,61,306,37,11,65,129,40,19,10,041,*62
$GAGSV,3,3,11,30,04,315,35,34,10,307,36,05,05,211,*5B
$GBGSV,5,1,19,20,86,273,50,30,20,166,29,39,28,051,36,05,24,128,*6A
$GBGSV,5,2,19,16,30,062,40,35,32,309,46,06,31,066,36,32,34,058,43*62
$GBGSV,5,3,19,09,32,082,38,19,35,241,35,29,61,221,49,48,63,242,*6E
$GBGSV,5,4,19,02,08,105,,13,01,087,,37,00,112,,25,02,019,*6B
$GBGSV,5,5,19,23,07,066,,57,01,102,,60,09,109,*52
$GPGGA,010127.00,,,,,0,00,,,M,,M,,*4D
$PTNL,GGK,010127.00,010125,4742.4463382,N,01617.9734289,E,1,25,1.2,EHT669.7674,M*42
$GPGGQ,010127.00,010125,4742.4463382,N,01617.9734289,E,1,25,2.986,626.5563,M*36
$GPGFA,010127.00,14.252,20.401,1.499,0.694,25.130,2.488,,VVV*3C
$GPLLK,010127.00,010125,,M,,M,1,25,1.5,,M*0D
$GNGMP,010127.00,,,,,DAAA,25,0.7,,,,*53
$GPGMP,010127.00,,,,,,06,,,,1.7,123*78
$GLGMP,010127.00,,,,,,03,,,,,*79
$GAGMP,010127.00,,,,,,07,,,,,*70
$GBGMP,010127.00,,,,,,09,,,,,*7D
$PSSN,SNC,[0,262905000,2347]*4E
$GPZDA,010132.00,01,01,2025,,*62
$GPDTM,W84,,00.0000000,N,00.0000000,E,00.0000000,W84*5F
$GPRMC,010132.00,A,4742.4463551,N,01617.9734554,E,0.0,,010125,5.1,E,D*11
$GPGLL,4742.4463551,N,01617.9734554,E,010132.00,A,D*60
$GPGGA,010132.00,4742.4463551,N,01617.9734554,E,2,25,0.6,626.5293,M,43.2111,M,3.0,0123*44
$GNGNS,010132.00,4742.4463551,N,01617.9734554,E,DAAA,25,0.6,626.5293,43.2111,,*5B
$GPGNS,010132.00,,,,,,06,,,,3.0,123*79
$GLGNS,010132.00,,,,,,03,,,,,*7D
$GAGNS,010132.00,,,,,,07,,,,,*74
$GBGNS,010132.00,,,,,,09,,,,,*79
$GPLLQ,010132.00,010125,,M,,M,1,25,3.074,,M*17
$GPVTG,,T,,M,0.00,N,0.01,K,D*27
$GPHDT,,T*1B
$GPTHS,,V*0E
$GPROT,,V*08
