$GPZDA,194442.00,01,01,2025,,*6D
$GPDTM,W84,,00.0000000,N,00.0000000,E,00.0000000,W84*5F
$GPRMC,194442.00,A,4742.4467482,N,01617.9732552,E,0.0,,010125,5.1,E,D*15
$GPGLL,4742.4467482,N,01617.9732552,E,194442.00,A,D*64
$GPGGA,194442.00,4742.4467482,N,01617.9732552,E,2,20,0.7,625.3560,M,43.2111,M,2.0,0123*4B
$GNGNS,194442.00,4742.4467482,N,01617.9732552,E,DAAA,20,0.7,625.3560,43.2111,,*55
$GPGNS,194442.00,,,,,,06,,,,2.0,123*77
$GLGNS,194442.00,,,,,,04,,,,,*75
$GAGNS,194442.00,,,,,,02,,,,,*7E
$GBGNS,194442.00,,,,,,08,,,,,*77
$GPLLQ,194442.00,010125,,M,,M,1,20,3.293,,M*16
$GPVTG,,T,,M,0.01,N,0.02,K,D*25
$GPHDT,,T*1B
$GPTHS,,V*0E
$GPROT,,V*08
$PSSN,HRP,194442.00,010125,,,,,,,00,0,,*6F
$PTNL,AVR,194442.00,,Yaw,,Tilt,,,,0,,00*39
$GPGSA,A,3,07,08,10,16,18,27,,,,,,,1.3,0.7,1.1*32
$GPGSA,A,3,73,74,82,83,,,,,,,,,1.3,0.7,1.1*31
$GPGSA,A,3,13,21,,,,,,,,,,,1.3,0.7,1.1*36
$GPGSA,A,3,13,14,27,28,33,37,42,43,,,,,1.3,0.7,1.1*3A
$GPGST,194442.00,4.195,1.328,1.025,17.697,1.303,1.056,2.833*69
$GPGBS,194442.00,3.886,4.127,10.242,16,0.0001,-2.061,0.653*4F
$GPGRS,194442.00,1,1.2,0.6,0.7,-2.1,-1.6,1.9,,,,,,*4E
$GPGRS,194442.00,1,3.9,-4.3,-5.0,-3.0,,,,,,,,*66
$GPGRS,194442.00,1,-1.3,-5.0,,,,,,,,,,*47
$GPGRS,194442.00,1,-0.5,1.5,0.9,0.4,-4.4,-3.6,-0.8,9.2,,,,*4A
$GPGSV,4,1,16,27,64,303,40,15,15,054,32,26,30,191,32,08,28,299,41*72
$GPGSV,4,2,16,18,35,062,46,10,48,166,41,16,56,216,49,23,59,088,37*7D
$GPGSV,4,3,16,21,05,254,,13,04,024,,07,08,313,41,30,00,343,*70
$GPGSV,4,4,16,36,35,170,40,34,31,208,,49,34,195,37,61,03,257,*77
$GLGSV,3,1,09,83,67,348,36,84,19,273,24,80,14,200,31,68,17,136,30*68
$GLGSV,3,2,09,66,19,027,21,67,36,085,30,74,34,313,44,82,40,059,43*69
$GLGSV,3,3,09,73,42,254,47*5E
$GAGSV,3,1,11,13,76,039,50,27,13,166,30,03,12,058,,23,45,297,*62
$GAGSV,3,2,11,15,22,060,32,14,46,289,,21,54,208,37,26,46,250,28*69
$GAGSV,3,3,11,08,08,106,,05,02,012,,31,03,327,32*5D
$GBGSV,6,1,21,28,65,293,48,21,11,031,27,46,22,308,,38,15,037,25*63
$GBGSV,6,2,21,60,11,108,,50,24,050,,05,23,128,,08,29,037,34*6A
$GBGSV,6,3,21,33,28,142,40,27,20,277,37,11,23,085,25,13,37,044,39*62
$GBGSV,6,4,21,37,30,248,37,58,31,291,,14,37,112,44,42,36,077,43*65
$GBGSV,6,5,21,43,45,085,42,23,09,201,29,57,03,220,,02,08,105,*69
$GBGSV,6,6,21,34,01,093,*54
$GPGGA,194442.00,,,,,0,00,,,M,,M,,*46
$PTNL,GGK,194442.00,010125,4742.4467482,N,01617.9732552,E,1,20,1.3,EHT668.5670,M*4E
$GPGGQ,194442.00,010125,4742.4467482,N,01617.9732552,E,1,20,3.293,625.3560,M*34
$GPGFA,194442.00,12.624,23.233,1.328,1.025,17.697,2.833,,VVV*37
$GPLLK,194442.00,010125,,M,,M,1,20,1.5,,M*03
$GNGMP,194442.00,,,,,DAAA,20,0.7,,,,*5D
$GPGMP,194442.00,,,,,,06,,,,2.0,123*77
$GLGMP,194442.00,,,,,,04,,,,,*75
$GAGMP,194442.00,,,,,,02,,,,,*7E
$GBGMP,194442.00,,,,,,08,,,,,*77
$PSSN,SNC,[0,330300000,2347]*47
$GPZDA,194447.00,01,01,2025,,*68
$GPDTM,W84,,00.0000000,N,00.0000000,E,00.0000000,W84*5F
$GPRMC,194447.00,A,4742.4467421,N,01617.9732667,E,0.0,,010125,5.1,E,D*1C
$GPGLL,4742.4467421,N,01617.9732667,E,194447.00,A,D*6D
$GPGGA,194447.00,4742.4467421,N,01617.9732667,E,2,22,0.6,625.3532,M,43.2111,M,3.0,0123*47
$GNGNS,194447.00,4742.4467421,N,01617.9732667,E,DAAA,22,0.6,625.3532,43.2111,,*58
$GPGNS,194447.00,,,,,,06,,,,3.0,123*73
$GLGNS,194447.00,,,,,,04,,,,,*70
$GAGNS,194447.00,,,,,,03,,,,,*7A
$GBGNS,194447.00,,,,,,09,,,,,*73
$GPLLQ,194447.00,010125,,M,,M,1,22,2.554,,M*1C
$GPVTG,,T,,M,0.00,N,0.01,K,D*27
$GPHDT,,T*1B
$GPTHS,,V*0E
$GPROT,,V*08
$PSSN,HRP,194447.00,010125,,,,,,,00,0,,*6A
$PTNL,AVR,194447.00,,Yaw,,Tilt,,,,0,,00*3C
$GPGSA,A,3,07,08,10,16,18,27,,,,,,,1.3,0.6,1.1*33
$GPGSA,A,3,73,74,82,83,,,,,,,,,1.3,0.6,1.1*30
$GPGSA,A,3,13,21,26,,,,,,,,,,1.3,0.6,1.1*33
$GPGSA,A,3,11,13,14,27,28,33,37,42,43,,,,1.3,0.6,1.1*3B
$GPGST,194447.00,6.102,1.032,0.789,19.014,1.009,0.818,2.199*68
$GPGBS,194447.00,3.970,4.175,10.406,16,0.0001,-1.298,0.672*47
$GPGRS,194447.00,1,0.2,0.1,0.2,-1.3,-0.7,1.0,,,,,,*40
$GPGRS,194447.00,1,3.8,-5.3,-4.9,-2.6,,,,,,,,*6C
$GPGRS,194447.00,1,-1.1,-3.2,-2.3,,,,,,,,,*46
$GPGRS,194447.00,1,15.4,-0.3,2.9,10.2,0.6,-4.4,-3.8,-1.1,8.9,,,*6C
$GPGSV,4,1,16,27,64,303,41,15,15,053,31,26,30,191,28,08,29,299,39*72
$GPGSV,4,2,16,18,35,062,45,10,48,166,40,16,56,216,49,23,59,088,32*7A
$GPGSV,4,3,16,21,05,254,,13,04,024,,07,08,313,40,30,00,343,*71
$GPGSV,4,4,16,36,35,170,41,34,31,208,,49,34,195,37,61,03,257,*76
$GLGSV,3,1,09,83,67,348,36,84,19,273,25,80,14,200,33,68,17,136,29*63
$GLGSV,3,2,09,66,19,027,32,67,36,084,27,74,34,313,44,82,40,059,42*6D
$GLGSV,3,3,09,73,42,254,47*5E
$GAGSV,3,1,11,13,76,039,50,27,13,166,30,03,12,058,,23,45,297,*62
$GAGSV,3,2,11,15,22,060,32,14,46,289,,21,54,207,39,26,46,250,36*67
$GAGSV,3,3,11,08,08,106,,05,02,012,,31,03,327,32*5D
$GBGSV,6,1,21,28,65,293,47,21,11,031,27,46,22,308,,38,15,037,25*6C
$GBGSV,6,2,21,60,11,108,,50,24,050,,05,23,128,,08,29,037,34*6A
$GBGSV,6,3,21,33,28,142,40,27,20,277,37,11,23,085,37,13,37,044,39*61
$GBGSV,6,4,21,37,30,248,37,58,31,291,,14,37,112,44,42,36,077,44*62
$GBGSV,6,5,21,43,45,085,43,23,09,201,28,57,03,220,,02,08,105,*69
$GBGSV,6,6,21,34,01,093,*54
$GPGGA,194447.00,,,,,0,00,,,M,,M,,*43
$PTNL,GGK,194447.00,010125,4742.4467421,N,01617.9732667,E,1,22,1.3,EHT668.5642,M*44
$GPGGQ,194447.00,010125,4742.4467421,N,01617.9732667,E,1,22,2.554,625.3532,M*35
$GPGFA,194447.00,9.810,18.029,1.032,0.789,19.014,2.199,,VVV*02
$GPLLK,194447.00,010125,,M,,M,1,22,1.5,,M*04
$GNGMP,194447.00,,,,,DAAA,22,0.6,,,,*5B
$GPGMP,194447.00,,,,,,06,,,,3.0,123*73
$GLGMP,194447.00,,,,,,04,,,,,*70
$GAGMP,194447.00,,,,,,03,,,,,*7A
$GBGMP,194447.00,,,,,,09,,,,,*73
$PSSN,SNC,[0,330305000,2347]*42
$GPZDA,194452.00,01,01,2025,,*6C
$GPDTM,W84,,00.0000000,N,00.0000000,E,00.0000000,W84*5F
$GPRMC,194452.00,A,4742.4467395,N,01617.9732666,E,0.0,,010125,5.1,E,D*11
$GPGLL,4742.4467395,N,01617.9732666,E,194452.00,A,D*60
$GPGGA,194452.00,4742.4467395,N,01617.9732666,E,2,20,0.7,625.3401,M,43.2111,M,2.0,0123*49
$GNGNS,194452.00,4742.4467395,N,01617.9732666,E,DAAA,20,0.7,625.3401,43.2111,,*57
$GPGNS,194452.00,,,,,,06,,,,2.0,123*76
$GLGNS,194452.00,,,,,,04,,,,,*74
$GAGNS,194452.00,,,,,,02,,,,,*7F
$GBGNS,194452.00,,,,,,08,,,,,*76
$GPLLQ,194452.00,010125,,M,,M,1,20,2.624,,M*1E
$GPVTG,,T,,M,0.00,N,0.01,K,D*27
$GPHDT,,T*1B
$GPTHS,,V*0E
$GPROT,,V*08
$PSSN,HRP,194452.00,010125,,,,,,,00,0,,*6E
$PTNL,AVR,194452.00,,Yaw,,Tilt,,,,0,,00*38
$GPGSA,A,3,07,08,10,16,18,27,,,,,,,1.4,0.7,1.1*35
$GPGSA,A,3,73,74,82,83,,,,,,,,,1.4,0.7,1.1*36
$GPGSA,A,3,13,21,,,,,,,,,,,1.4,0.7,1.1*31
$GPGSA,A,3,11,13,14,27,28,37,42,43,,,,,1.4,0.7,1.1*3D
$GPGST,194452.00,7.725,1.061,0.814,17.856,1.040,0.840,2.258*6D
$GPGBS,194452.00,3.814,4.026,10.023,27,0.0001,1.312,0.601*6C
$GPGRS,194452.00,1,-0.5,-0.9,-0.3,-0.5,-0.3,1.3,,,,,,*67
$GPGRS,194452.00,1,4.5,-5.5,-4.1,-3.0,,,,,,,,*6B
$GPGRS,194452.00,1,-0.9,-1.7,,,,,,,,,,*4E
$GPGRS,194452.00,1,16.4,0.9,3.5,17.8,0.6,-3.6,-1.2,8.9,,,,*42
$GPGSV,4,1,16,27,64,303,42,15,15,053,28,26,30,191,25,08,29,299,36*7B
$GPGSV,4,2,16,18,35,062,45,10,49,166,42,16,56,216,49,23,59,088,29*73
$GPGSV,4,3,16,21,05,254,,13,04,024,,07,08,313,40,30,00,343,*71
$GPGSV,4,4,16,36,35,170,41,34,31,208,,49,34,195,37,61,03,257,*76
$GLGSV,3,1,09,83,67,348,36,84,20,273,25,80,14,200,35,68,17,136,31*66
$GLGSV,3,2,09,66,19,027,34,67,36,084,29,74,34,313,43,82,40,059,42*62
$GLGSV,3,3,09,73,42,254,46*5F
$GAGSV,3,1,11,13,76,039,50,27,13,166,29,03,12,058,,23,45,297,*6A
$GAGSV,3,2,11,15,22,060,31,14,46,289,,21,54,207,41,26,46,250,32*6F
$GAGSV,3,3,11,08,08,106,,05,02,012,,31,03,327,32*5D
$GBGSV,6,1,21,28,65,293,47,21,11,031,28,46,22,308,,38,15,037,24*62
$GBGSV,6,2,21,60,11,108,,50,24,050,,05,23,128,,08,29,037,34*6A
$GBGSV,6,3,21,33,28,142,26,27,20,277,36,11,23,085,36,13,37,044,39*61
$GBGSV,6,4,21,37,30,248,37,58,31,291,,14,37,112,44,42,36,077,45*63
$GBGSV,6,5,21,43,45,085,43,23,09,201,27,57,03,220,,02,08,105,*66
$GBGSV,6,6,21,34,01,093,*54
$GPGGA,194452.00,,,,,0,00,,,M,,M,,*47
$PTNL,GGK,194452.00,010125,4742.4467395,N,01617.9732666,E,1,20,1.4,EHT668.5511,M*49
$GPGGQ,194452.00,010125,4742.4467395,N,01617.9732666,E,1,20,2.624,625.3401,M*3F
$GPGFA,194452.00,10.084,18.518,1.061,0.814,17.856,2.258,,VVV*3F
$GPLLK,194452.00,010125,,M,,M,1,20,1.6,,M*01
$GNGMP,194452.00,,,,,DAAA,20,0.7,,,,*5C
$GPGMP,194452.00,,,,,,06,,,,2.0,123*76
$GLGMP,194452.00,,,,,,04,,,,,*74
$GAGMP,194452.00,,,,,,02,,,,,*7F
$GBGMP,194452.00,,,,,,08,,,,,*76
$PSSN,SNC,[0,330310000,2347]*46
$GPZDA,194457.00,01,01,2025,,*69
$GPDTM,W84,,00.0000000,N,00.0000000,E,00.0000000,W84*5F
$GPRMC,194457.00,A,4742.4467413,N,01617.9732728,E,0.0,,010125,5.1,E,D*16
$GPGLL,4742.4467413,N,01617.9732728,E,194457.00,A,D*67
$GPGGA,194457.00,4742.4467413,N,01617.9732728,E,2,20,0.7,625.3313,M,43.2111,M,2.9,0123*43
$GNGNS,194457.00,4742.4467413,N,01617.9732728,E,DAAA,20,0.7,625.3313,43.2111,,*54
$GPGNS,194457.00,,,,,,07,,,,2.9,123*7B
$GLGNS,194457.00,,,,,,05,,,,,*70
$GAGNS,194457.00,,,,,,02,,,,,*7A
$GBGNS,194457.00,,,,,,06,,,,,*7D
$GPLLQ,194457.00,010125,,M,,M,1,20,3.093,,M*10
$GPVTG,,T,,M,0.00,N,0.01,K,D*27
$GPHDT,,T*1B
$GPTHS,,V*0E
$GPROT,,V*08
$PSSN,HRP,194457.00,010125,,,,,,,00,0,,*6B
$PTNL,AVR,194457.00,,Yaw,,Tilt,,,,0,,00*3D
$GPGSA,A,3,07,08,10,16,18,23,27,,,,,,1.3,0.7,1.1*33
$GPGSA,A,3,73,74,80,82,83,,,,,,,,1.3,0.7,1.1*39
$GPGSA,A,3,13,21,,,,,,,,,,,1.3,0.7,1.1*36
$GPGSA,A,3,13,14,28,37,42,43,,,,,,,1.3,0.7,1.1*3F
$GPGST,194457.00,6.173,1.251,0.928,2.110,1.250,0.928,2.672*5C
$GPGBS,194457.00,3.981,2.812,8.475,80,0.0001,17.939,6.333*68
$GPGRS,194457.00,1,0.3,-1.1,1.3,-0.4,-0.4,-1.7,1.7,,,,,*6B
$GPGRS,194457.00,1,4.7,-5.6,17.9,-2.6,-4.5,,,,,,,*7D
$GPGRS,194457.00,1,-1.0,-1.4,,,,,,,,,,*40
$GPGRS,194457.00,1,0.3,2.8,-0.4,-4.0,-2.1,7.2,,,,,,*66
$GPGSV,4,1,16,27,64,303,43,15,15,053,,26,30,191,20,08,29,299,35*76
$GPGSV,4,2,16,18,35,062,46,10,49,165,43,16,56,216,50,23,59,088,36*74
$GPGSV,4,3,16,21,05,254,,13,04,024,,07,08,313,39,30,00,343,*7F
$GPGSV,4,4,16,36,35,170,41,34,31,208,,49,34,195,37,61,03,257,*76
$GLGSV,3,1,09,83,67,348,36,84,20,273,25,80,14,200,35,68,17,136,32*65
$GLGSV,3,2,09,66,19,027,35,67,36,084,28,74,34,313,43,82,40,059,43*63
$GLGSV,3,3,09,73,42,254,46*5F
$GAGSV,3,1,11,13,76,040,50,27,13,166,30,03,12,058,,23,45,297,*6C
$GAGSV,3,2,11,15,22,060,31,14,46,289,,21,54,207,42,26,46,250,34*6A
$GAGSV,3,3,11,08,08,106,,05,02,012,,31,03,327,31*5E
$GBGSV,6,1,21,28,65,293,46,21,11,031,29,46,22,308,,38,15,037,25*63
$GBGSV,6,2,21,60,11,108,,50,24,050,,05,23,128,,08,29,037,34*6A
$GBGSV,6,3,21,33,28,142,26,27,20,277,34,11,23,085,30,13,37,044,39*65
$GBGSV,6,4,21,37,30,248,35,58,31,291,,14,37,112,44,42,36,077,45*61
$GBGSV,6,5,21,43,45,085,43,23,09,201,26,57,03,220,,02,08,105,*67
$GBGSV,6,6,21,34,01,093,*54
$GPGGA,194457.00,,,,,0,00,,,M,,M,,*42
$PTNL,GGK,194457.00,010125,4742.4467413,N,01617.9732728,E,1,20,1.3,EHT668.5424,M*4E
$GPGGQ,194457.00,010125,4742.4467413,N,01617.9732728,E,1,20,3.093,625.3313,M*37
$GPGFA,194457.00,11.892,21.912,1.251,0.928,2.110,2.672,,VVV*04
$GPLLK,194457.00,010125,,M,,M,1,20,1.5,,M*07
$GNGMP,194457.00,,,,,DAAA,20,0.7,,,,*59
$GPGMP,194457.00,,,,,,07,,,,2.9,123*7B
$GLGMP,194457.00,,,,,,05,,,,,*70
$GAGMP,194457.00,,,,,,02,,,,,*7A
$GBGMP,194457.00,,,,,,06,,,,,*7D
$PSSN,SNC,[0,330315000,2347]*43
$GPZDA,194502.00,01,01,2025,,*68
$GPDTM,W84,,00.0000000,N,00.0000000,E,00.0000000,W84*5F
$GPRMC,194502.00,A,4742.4467497,N,01617.9732831,E,0.0,,010125,5.1,E,D*1C
$GPGLL,4742.4467497,N,01617.9732831,E,194502.00,A,D*6D
$GPGGA,194502.00,4742.4467497,N,01617.9732831,E,2,20,0.7,625.3371,M,43.2111,M,2.1,0123*45
$GNGNS,194502.00,4742.4467497,N,01617.9732831,E,DAAA,20,0.7,625.3371,43.2111,,*5A
$GPGNS,194502.00,,,,,,07,,,,2.1,123*72
$GLGNS,194502.00,,,,,,05,,,,,*71
$GAGNS,194502.00,,,,,,03,,,,,*7A
$GBGNS,194502.00,,,,,,05,,,,,*7F
$GPLLQ,194502.00,010125,,M,,M,1,20,3.032,,M*1A
$GPVTG,,T,,M,0.00,N,0.01,K,D*27
$GPHDT,,T*1B
$GPTHS,,V*0E
$GPROT,,V*08
$PSSN,HRP,194502.00,010125,,,,,,,00,0,,*6A
$PTNL,AVR,194502.00,,Yaw,,Tilt,,,,0,,00*3C
$GPGSA,A,3,07,08,10,16,18,23,27,,,,,,1.3,0.7,1.1*33
$GPGSA,A,3,73,74,80,82,83,,,,,,,,1.3,0.7,1.1*39
$GPGSA,A,3,13,21,26,,,,,,,,,,1.3,0.7,1.1*32
$GPGSA,A,3,13,14,28,42,43,,,,,,,,1.3,0.7,1.1*3B
$GPGST,194502.00,5.805,1.223,0.914,3.030,1.222,0.915,2.619*58
$GPGBS,194502.00,3.999,2.881,8.520,80,0.0001,16.661,6.336*6D
$GPGRS,194502.00,1,1.2,-1.1,1.5,-0.5,-0.4,-1.6,1.0,,,,,*6B
$GPGRS,194502.00,1,5.7,-6.3,16.7,-3.4,-5.0,,,,,,,*73
$GPGRS,194502.00,1,-1.0,-0.3,-0.5,,,,,,,,,*41
$GPGRS,194502.00,1,-0.2,2.2,-1.2,-2.6,5.4,,,,,,,*42
$GPGSV,4,1,16,27,64,303,43,15,15,053,,26,30,191,29,08,29,299,37*7D
$GPGSV,4,2,16,18,35,063,46,10,49,165,43,16,56,216,50,23,59,088,37*74
$GPGSV,4,3,16,21,05,254,,13,04,024,,07,08,313,39,30,00,343,*7F
$GPGSV,4,4,16,36,35,170,41,34,31,208,,49,34,195,37,61,03,257,*76
$GLGSV,3,1,09,83,67,348,36,84,20,273,28,80,13,200,35,68,17,136,28*64
$GLGSV,3,2,09,66,19,027,,67,36,084,32,74,34,313,42,82,40,059,43*6F
$GLGSV,3,3,09,73,42,254,46*5F
$GAGSV,3,1,11,13,76,040,50,27,13,166,30,03,12,058,,23,45,297,*6C
$GAGSV,3,2,11,15,22,060,30,14,46,289,,21,54,207,42,26,46,250,37*68
$GAGSV,3,3,11,08,08,106,,05,02,012,,31,03,327,31*5E
$GBGSV,6,1,21,28,65,294,45,21,11,031,28,46,22,308,,38,15,037,24*67
$GBGSV,6,2,21,60,11,108,,50,24,050,,05,23,128,,08,29,037,34*6A
$GBGSV,6,3,21,33,28,142,26,27,21,278,33,11,23,085,33,13,37,044,39*6F
$GBGSV,6,4,21,37,30,248,30,58,31,291,,14,37,112,43,42,36,077,45*63
$GBGSV,6,5,21,43,45,086,43,23,09,201,25,57,03,220,,02,08,105,*67
$GBGSV,6,6,21,34,01,093,*54
$GPGGA,194502.00,,,,,0,00,,,M,,M,,*43
$PTNL,GGK,194502.00,010125,4742.4467497,N,01617.9732831,E,1,20,1.3,EHT668.5482,M*48
$GPGGQ,194502.00,010125,4742.4467497,N,01617.9732831,E,1,20,3.032,625.3371,M*32
$GPGFA,194502.00,11.630,21.478,1.223,0.914,3.030,2.619,,VVV*07
$GPLLK,194502.00,010125,,M,,M,1,20,1.5,,M*06
$GNGMP,194502.00,,,,,DAAA,20,0.7,,,,*58
$GPGMP,194502.00,,,,,,07,,,,2.1,123*72
$GLGMP,194502.00,,,,,,05,,,,,*71
$GAGMP,194502.00,,,,,,03,,,,,*7A
$GBGMP,194502.00,,,,,,05,,,,,*7F
$PSSN,SNC,[0,330320000,2347]*45
$GPZDA,194507.00,01,01,2025,,*6D
$GPDTM,W84,,00.0000000,N,00.0000000,E,00.0000000,W84*5F
$GPRMC,194507.00,A,4742.4467525,N,01617.9732904,E,0.0,,010125,5.1,E,D*16
$GPGLL,4742.4467525,N,01617.9732904,E,194507.00,A,D*67
$GPGGA,194507.00,4742.4467525,N,01617.9732904,E,2,20,0.7,625.3413,M,43.2111,M,3.1,0123*4D
$GNGNS,194507.00,4742.4467525,N,01617.9732904,E,DAAA,20,0.7,625.3413,43.2111,,*53
$GPGNS,194507.00,,,,,,07,,,,3.1,123*76
$GLGNS,194507.00,,,,,,04,,,,,*75
$GAGNS,194507.00,,,,,,03,,,,,*7F
$GBGNS,194507.00,,,,,,06,,,,,*79
$GPLLQ,194507.00,010125,,M,,M,1,20,2.501,,M*1B
$GPVTG,,T,,M,0.00,N,0.01,K,D*27
$GPHDT,,T*1B
$GPTHS,,V*0E
$GPROT,,V*08
$PSSN,HRP,194507.00,010125,,,,,,,00,0,,*6F
$PTNL,AVR,194507.00,,Yaw,,Tilt,,,,0,,00*39
$GPGSA,A,3,07,08,10,16,18,23,27,,,,,,1.5,0.7,1.3*37
$GPGSA,A,3,73,74,82,83,,,,,,,,,1.5,0.7,1.3*35
$GPGSA,A,3,13,21,26,,,,,,,,,,1.5,0.7,1.3*36
$GPGSA,A,3,13,14,28,37,42,43,,,,,,,1.5,0.7,1.3*3B
$GPGST,194507.00,3.628,1.005,0.745,3.773,1.004,0.747,2.165*55
$GPGBS,194507.00,4.226,2.932,9.013,23,0.0001,-1.703,0.678*73
$GPGRS,194507.00,1,0.7,-0.9,1.1,-0.5,-0.1,-1.7,1.0,,,,,*63
$GPGRS,194507.00,1,5.8,-6.3,-4.3,-3.9,,,,,,,,*68
$GPGRS,194507.00,1,-0.8,1.1,0.6,,,,,,,,,*4D
$GPGRS,194507.00,1,0.2,2.1,-1.0,-3.6,-2.3,5.6,,,,,,*6A
$GPGSV,4,1,16,27,64,303,43,15,15,053,,26,30,191,30,08,29,299,37*75
$GPGSV,4,2,16,18,35,063,46,10,49,165,43,16,56,216,49,23,59,088,37*7C
$GPGSV,4,3,16,21,05,254,,13,04,024,,07,08,313,39,30,00,343,*7F
$GPGSV,4,4,16,36,35,170,41,34,31,208,,49,34,195,37,61,03,257,*76
$GLGSV,3,1,09,83,67,349,35,84,20,273,29,80,13,200,35,68,17,136,32*6C
$GLGSV,3,2,09,66,19,027,34,67,36,084,35,74,34,313,41,82,40,059,43*6C
$GLGSV,3,3,09,73,42,254,46*5F
$GAGSV,3,1,11,13,75,040,50,27,13,166,30,03,12,058,,23,45,297,*6F
$GAGSV,3,2,11,15,22,060,29,14,46,289,,21,54,207,42,26,46,250,38*6F
$GAGSV,3,3,11,08,08,106,,05,02,012,,31,03,327,30*5F
$GBGSV,6,1,21,28,65,294,44,21,11,031,26,46,22,308,,38,15,037,24*68
$GBGSV,6,2,21,60,11,108,,50,24,050,,05,23,128,,08,29,037,20*6F
$GBGSV,6,3,21,33,28,142,24,27,21,278,33,11,23,085,28,13,37,044,39*67
$GBGSV,6,4,21,37,30,248,26,58,31,291,,14,37,112,43,42,36,077,44*65
$GBGSV,6,5,21,43,45,086,42,23,09,201,24,57,03,220,,02,08,105,*67
$GBGSV,6,6,21,34,01,093,*54
$GPGGA,194507.00,,,,,0,00,,,M,,M,,*46
$PTNL,GGK,194507.00,010125,4742.4467525,N,01617.9732904,E,1,20,1.5,EHT668.5523,M*4E
$GPGGQ,194507.00,010125,4742.4467525,N,01617.9732904,E,1,20,2.501,625.3413,M*3F
$GPGFA,194507.00,9.560,17.753,1.005,0.745,3.773,2.165,,VVV*32
$GPLLK,194507.00,010125,,M,,M,1,20,1.7,,M*01
$GNGMP,194507.00,,,,,DAAA,20,0.7,,,,*5D
$GPGMP,194507.00,,,,,,07,,,,3.1,123*76
$GLGMP,194507.00,,,,,,04,,,,,*75
$GAGMP,194507.00,,,,,,03,,,,,*7F
$GBGMP,194507.00,,,,,,06,,,,,*79
$PSSN,SNC,[0,330325000,2347]*40
$GPZDA,194512.00,01,01,2025,,*69
$GPDTM,W84,,00.0000000,N,00.0000000,E,00.0000000,W84*5F
$GPRMC,194512.00,A,4742.4467555,N,01617.9732953,E,0.0,,010125,5.1,E,D*17
$GPGLL,4742.4467555,N,01617.9732953,E,194512.00,A,D*66
$GPGGA,194512.00,4742.4467555,N,01617.9732953,E,2,20,0.8,625.3425,M,43.2111,M,1.9,0123*4C
$GNGNS,194512.00,4742.4467555,N,01617.9732953,E,DAAA,20,0.8,625.3425,43.2111,,*58
$GPGNS,194512.00,,,,,,07,,,,1.9,123*78
$GLGNS,194512.00,,,,,,04,,,,,*71
$GAGNS,194512.00,,,,,,03,,,,,*7B
$GBGNS,194512.00,,,,,,06,,,,,*7D
$GPLLQ,194512.00,010125,,M,,M,1,20,2.725,,M*1B
$GPVTG,,T,,M,0.01,N,0.01,K,D*26
$GPHDT,,T*1B
$GPTHS,,V*0E
$GPROT,,V*08
$PSSN,HRP,194512.00,010125,,,,,,,00,0,,*6B
$PTNL,AVR,194512.00,,Yaw,,Tilt,,,,0,,00*3D
$GPGSA,A,3,07,08,10,16,18,23,27,,,,,,1.6,0.8,1.4*3C
$GPGSA,A,3,67,73,74,82,,,,,,,,,1.6,0.8,1.4*34
$GPGSA,A,3,13,21,26,,,,,,,,,,1.6,0.8,1.4*3D
$GPGSA,A,3,08,13,14,28,42,43,,,,,,,1.6,0.8,1.4*3C
$GPGST,194512.00,3.939,1.103,0.800,3.924,1.102,0.801,2.360*56
$GPGBS,194512.00,4.030,2.764,8.787,23,0.0001,-2.325,0.637*7C
$GPGRS,194512.00,1,1.4,-0.8,1.0,0.2,0.2,-2.3,0.5,,,,,*62
$GPGRS,194512.00,1,9.0,5.4,-4.4,-3.4,,,,,,,,*4B
$GPGRS,194512.00,1,-0.3,1.6,0.5,,,,,,,,,*46
$GPGRS,194512.00,1,-1.3,1.5,2.5,-1.2,-1.3,5.9,,,,,,*65
$GPGSV,4,1,16,27,64,303,41,15,15,053,,26,30,191,34,08,29,299,38*7C
$GPGSV,4,2,16,18,35,063,46,10,49,165,42,16,56,216,50,23,59,088,36*74
$GPGSV,4,3,16,21,05,254,,13,04,024,,07,08,313,39,30,00,343,*7F
$GPGSV,4,4,16,36,35,170,41,34,31,208,,49,34,195,37,61,03,257,*76
$GLGSV,3,1,09,83,67,349,32,84,20,273,28,80,13,200,33,68,17,136,30*6E
$GLGSV,3,2,09,66,19,027,35,67,36,084,37,74,34,313,41,82,40,059,43*6F
$GLGSV,3,3,09,73,42,254,46*5F
$GAGSV,3,1,11,13,75,040,49,27,13,166,30,03,12,058,,23,45,297,*67
$GAGSV,3,2,11,15,22,060,28,14,46,289,,21,54,207,42,26,46,250,39*6F
$GAGSV,3,3,11,08,08,106,,05,02,012,,31,03,327,30*5F
$GBGSV,6,1,21,28,65,294,43,21,11,031,22,46,22,308,,38,15,037,24*6B
$GBGSV,6,2,21,60,11,108,,50,24,050,,05,23,128,,08,29,037,35*6B
$GBGSV,6,3,21,33,28,142,26,11,23,085,35,27,21,278,32,13,37,044,39*68
$GBGSV,6,4,21,37,30,248,30,58,31,291,,14,37,112,42,42,36,077,44*63
$GBGSV,6,5,21,43,45,086,42,23,09,201,21,57,03,220,,02,08,105,*62
$GBGSV,6,6,21,34,01,093,*54
$GPGGA,194512.00,,,,,0,00,,,M,,M,,*42
$PTNL,GGK,194512.00,010125,4742.4467555,N,01617.9732953,E,1,20,1.6,EHT668.5535,M*4B
$GPGGQ,194512.00,010125,4742.4467555,N,01617.9732953,E,1,20,2.725,625.3425,M*3F
$GPGFA,194512.00,10.492,19.355,1.103,0.800,3.924,2.360,,VVV*0C
$GPLLK,194512.00,010125,,M,,M,1,20,1.9,,M*0B
$GNGMP,194512.00,,,,,DAAA,20,0.8,,,,*56
$GPGMP,194512.00,,,,,,07,,,,1.9,123*78
$GLGMP,194512.00,,,,,,04,,,,,*71
$GAGMP,194512.00,,,,,,03,,,,,*7B
$GBGMP,194512.00,,,,,,06,,,,,*7D
$PSSN,SNC,[0,330330000,2347]*44
$GPZDA,194517.00,01,01,2025,,*6C
$GPDTM,W84,,00.0000000,N,00.0000000,E,00.0000000,W84*5F
$GPRMC,194517.00,A,4742.4467646,N,01617.9733041,E,0.0,,010125,5.1,E,D*18
$GPGLL,4742.4467646,N,01617.9733041,E,194517.00,A,D*69
$GPGGA,194517.00,4742.4467646,N,01617.9733041,E,2,19,0.7,625.3664,M,43.2111,M,3.4,0123*4E
$GNGNS,194517.00,4742.4467646,N,01617.9733041,E,DAAA,19,0.7,625.3664,43.2111,,*55
$GPGNS,194517.00,,,,,,07,,,,3.4,123*72
$GLGNS,194517.00,,,,,,03,,,,,*73
$GAGNS,194517.00,,,,,,03,,,,,*7E
$GBGNS,194517.00,,,,,,06,,,,,*78
$GPLLQ,194517.00,010125,,M,,M,1,19,3.119,,M*1C
$GPVTG,,T,,M,0.01,N,0.02,K,D*25
$GPHDT,,T*1B
$GPTHS,,V*0E
$GPROT,,V*08
$PSSN,HRP,194517.00,010125,,,,,,,00,0,,*6E
$PTNL,AVR,194517.00,,Yaw,,Tilt,,,,0,,00*38
$GPGSA,A,3,07,08,10,16,18,23,27,,,,,,1.3,0.7,1.1*33
$GPGSA,A,3,73,74,82,,,,,,,,,,1.3,0.7,1.1*3A
$GPGSA,A,3,13,21,26,,,,,,,,,,1.3,0.7,1.1*32
$GPGSA,A,3,13,14,23,28,42,43,,,,,,,1.3,0.7,1.1*3A
$GPGST,194517.00,6.422,1.270,0.912,2.872,1.269,0.913,2.699*58
$GPGBS,194517.00,4.195,2.888,9.099,10,0.0001,2.311,0.706*5A
$GPGRS,194517.00,1,1.4,-0.4,2.3,0.4,0.3,-2.1,-0.8,,,,,*4E
$GPGRS,194517.00,1,5.4,-4.8,-1.8,,,,,,,,,*6B
$GPGRS,194517.00,1,-0.2,1.2,0.2,,,,,,,,,*41
$GPGRS,194517.00,1,2.1,3.2,20.0,-1.8,-0.5,2.9,,,,,,*76
$GPGSV,4,1,16,27,65,303,41,15,15,053,32,26,30,191,37,08,29,299,37*70
$GPGSV,4,2,16,18,35,063,46,10,49,165,40,16,56,216,50,23,59,088,36*76
$GPGSV,4,3,16,21,06,254,,13,04,024,,07,08,313,37,30,00,343,*72
$GPGSV,4,4,16,36,35,170,41,34,31,208,,49,34,195,37,61,03,257,*76
$GLGSV,3,1,09,83,67,349,31,84,20,273,25,80,13,200,32,68,17,136,30*61
$GLGSV,3,2,09,66,19,027,34,67,36,084,35,74,34,313,42,82,40,059,44*68
$GLGSV,3,3,09,73,42,254,45*5C
$GAGSV,3,1,11,13,75,040,49,27,13,166,29,03,12,058,,23,45,297,*6F
$GAGSV,3,2,11,15,22,060,28,14,46,289,,21,54,207,42,26,46,250,40*61
$GAGSV,3,3,11,08,08,106,,05,02,012,,31,03,327,29*57
$GBGSV,6,1,21,28,65,294,43,21,11,031,,46,22,308,,38,15,037,23*6C
$GBGSV,6,2,21,60,11,108,,50,24,050,,05,23,128,,08,29,037,23*6C
$GBGSV,6,3,21,33,28,142,31,11,23,085,34,27,21,278,32,13,37,044,38*6E
$GBGSV,6,4,21,37,30,248,32,58,31,291,,14,37,112,42,42,36,077,44*61
$GBGSV,6,5,21,43,45,086,41,23,09,201,20,57,03,220,,02,08,105,*60
$GBGSV,6,6,21,34,01,093,*54
$GPGGA,194517.00,,,,,0,00,,,M,,M,,*47
$PTNL,GGK,194517.00,010125,4742.4467646,N,01617.9733041,E,1,19,1.3,EHT668.5775,M*4D
$GPGGQ,194517.00,010125,4742.4467646,N,01617.9733041,E,1,19,3.119,625.3664,M*35
$GPGFA,194517.00,12.073,22.132,1.270,0.912,2.872,2.699,,VVV*0E
$GPLLK,194517.00,010125,,M,,M,1,19,1.5,,M*08
$GNGMP,194517.00,,,,,DAAA,19,0.7,,,,*56
$GPGMP,194517.00,,,,,,07,,,,3.4,123*72
$GLGMP,194517.00,,,,,,03,,,,,*73
$GAGMP,194517.00,,,,,,03,,,,,*7E
$GBGMP,194517.00,,,,,,06,,,,,*78
$PSSN,SNC,[0,330335000,2347]*41
$GPZDA,194522.00,01,01,2025,,*6A
$GPDTM,W84,,00.0000000,N,00.0000000,E,00.0000000,W84*5F
$GPRMC,194522.00,A,4742.4467785,N,01617.9733027,E,0.0,,010125,5.1,E,D*10
$GPGLL,4742.4467785,N,01617.9733027,E,194522.00,A,D*61
$GPGGA,194522.00,4742.4467785,N,01617.9733027,E,2,16,0.8,625.3829,M,43.2111,M,2.8,0123*4C
$GNGNS,194522.00,4742.4467785,N,01617.9733027,E,DAAA,16,0.8,625.3829,43.2111,,*5A
$GPGNS,194522.00,,,,,,05,,,,2.8,123*7B
$GLGNS,194522.00,,,,,,03,,,,,*75
$GAGNS,194522.00,,,,,,03,,,,,*78
$GBGNS,194522.00,,,,,,05,,,,,*7D
$GPLLQ,194522.00,010125,,M,,M,1,16,2.920,,M*16
$GPVTG,,T,,M,0.00,N,0.00,K,D*26
$GPHDT,,T*1B
$GPTHS,,V*0E
$GPROT,,V*08
$PSSN,HRP,194522.00,010125,,,,,,,00,0,,*68
$PTNL,AVR,194522.00,,Yaw,,Tilt,,,,0,,00*3E
$GPGSA,A,3,08,10,16,18,27,,,,,,,,2.1,0.8,2.0*39
$GPGSA,A,3,73,74,82,,,,,,,,,,2.1,0.8,2.0*36
$GPGSA,A,3,13,21,26,,,,,,,,,,2.1,0.8,2.0*3E
$GPGSA,A,3,13,14,28,42,43,,,,,,,,2.1,0.8,2.0*37
$GPGST,194522.00,3.212,0.912,0.693,9.511,0.906,0.700,2.686*54
$GPGBS,194522.00,3.949,4.030,14.292,10,0.0001,1.470,0.656*6D
$GPGRS,194522.00,1,-1.4,1.5,0.2,0.1,0.1,,,,,,,*47
$GPGRS,194522.00,1,5.1,-4.8,-1.4,,,,,,,,,*64
$GPGRS,194522.00,1,-0.4,0.8,0.2,,,,,,,,,*4A
$GPGRS,194522.00,1,2.8,2.5,-2.2,-1.2,-4.0,,,,,,,*4E
$GPGSV,4,1,16,27,65,303,43,15,15,053,30,26,30,191,38,08,29,299,36*7E
$GPGSV,4,2,16,18,35,063,46,10,49,165,37,16,55,216,50,23,59,088,39*7A
$GPGSV,4,3,16,21,06,254,,13,04,024,,07,08,313,34,30,00,343,*71
$GPGSV,4,4,16,36,35,170,41,34,31,208,,49,34,195,37,61,03,257,*76
$GLGSV,3,1,09,83,67,349,32,84,20,273,23,80,13,200,29,68,18,136,26*66
$GLGSV,3,2,09,66,19,027,27,67,36,084,29,74,34,313,43,82,40,060,44*6C
$GLGSV,3,3,09,73,42,254,44*5D
$GAGSV,3,1,11,13,75,040,49,27,13,166,29,03,12,058,,23,45,297,*6F
$GAGSV,3,2,11,15,22,060,28,14,46,289,,21,54,207,42,26,46,250,40*61
$GAGSV,3,3,11,08,08,106,,05,02,012,,31,03,327,29*57
$GBGSV,6,1,21,28,65,294,43,21,11,031,28,46,22,308,,38,15,037,22*67
$GBGSV,6,2,21,60,11,108,,50,24,050,,05,23,128,,08,29,037,24*6B
$GBGSV,6,3,21,33,28,142,33,11,23,085,33,27,21,278,33,13,37,044,38*6A
$GBGSV,6,4,21,37,30,248,35,58,31,291,,14,38,112,42,42,36,077,44*69
$GBGSV,6,5,21,43,45,086,40,23,09,201,,57,03,220,,02,08,105,*63
$GBGSV,6,6,21,34,01,093,*54
$GPGGA,194522.00,,,,,0,00,,,M,,M,,*41
$PTNL,GGK,194522.00,010125,4742.4467785,N,01617.9733027,E,1,16,2.1,EHT668.5940,M*43
$GPGGQ,194522.00,010125,4742.4467785,N,01617.9733027,E,1,16,2.920,625.3829,M*36
$GPGFA,194522.00,8.667,22.026,0.912,0.693,9.511,2.686,,VVV*31
$GPLLK,194522.00,010125,,M,,M,1,16,2.6,,M*01
$GNGMP,194522.00,,,,,DAAA,16,0.8,,,,*50
$GPGMP,194522.00,,,,,,05,,,,2.8,123*7B
$GLGMP,194522.00,,,,,,03,,,,,*75
$GAGMP,194522.00,,,,,,03,,,,,*78
$GBGMP,194522.00,,,,,,05,,,,,*7D
$PSSN,SNC,[0,330340000,2347]*43
$GPZDA,194527.00,01,01,2025,,*6F
$GPDTM,W84,,00.0000000,N,00.0000000,E,00.0000000,W84*5F
$GPRMC,194527.00,A,4742.4467923,N,01617.9732999,E,0.0,,010125,5.1,E,D*1A
$GPGLL,4742.4467923,N,01617.9732999,E,194527.00,A,D*6B
$GPGGA,194527.00,4742.4467923,N,01617.9732999,E,2,19,0.7,625.3925,M,43.2111,M,1.3,0123*43
$GNGNS,194527.00,4742.4467923,N,01617.9732999,E,DAAA,19,0.7,625.3925,43.2111,,*5D
$GPGNS,194527.00,,,,,,07,,,,1.3,123*74
$GLGNS,194527.00,,,,,,03,,,,,*70
$GAGNS,194527.00,,,,,,03,,,,,*7D
$GBGNS,194527.00,,,,,,06,,,,,*7B
$GPLLQ,194527.00,010125,,M,,M,1,19,2.992,,M*15
$GPVTG,,T,,M,0.01,N,0.01,K,D*26
$GPHDT,,T*1B
$GPTHS,,V*0E
$GPROT,,V*08
$PSSN,HRP,194527.00,010125,,,,,,,00,0,,*6D
$PTNL,AVR,194527.00,,Yaw,,Tilt,,,,0,,00*3B
$GPGSA,A,3,08,10,16,18,23,26,27,,,,,,1.7,0.7,1.6*33
$GPGSA,A,3,73,74,82,,,,,,,,,,1.7,0.7,1.6*39
$GPGSA,A,3,13,21,26,,,,,,,,,,1.7,0.7,1.6*31
$GPGSA,A,3,13,14,28,37,42,43,,,,,,,1.7,0.7,1.6*3C
$GPGST,194527.00,9.065,0.940,0.906,1.449,0.940,0.906,2.692*56
$GPGBS,194527.00,2.417,2.523,6.559,37,0.0001,29.312,8.581*60
$GPGRS,194527.00,1,-1.4,-0.3,0.4,0.3,-1.1,1.5,0.7,,,,,*43
$GPGRS,194527.00,1,4.7,-4.1,-2.1,,,,,,,,,*69
$GPGRS,194527.00,1,-0.4,0.8,0.1,,,,,,,,,*4C
$GPGRS,194527.00,1,3.3,1.2,-1.8,29.3,-1.8,-7.6,,,,,,*55
$GPGSV,4,1,16,27,65,303,44,15,15,053,26,26,30,191,39,08,29,299,35*7C
$GPGSV,4,2,16,18,35,063,46,10,49,165,36,16,55,216,50,23,59,088,40*75
$GPGSV,4,3,16,21,06,254,,13,04,024,,07,08,313,32,30,00,343,*77
$GPGSV,4,4,16,36,35,170,41,34,31,208,,49,34,195,37,61,03,257,*76
$GLGSV,3,1,09,83,67,349,35,84,20,273,27,80,13,200,25,68,18,136,26*69
$GLGSV,3,2,09,66,19,027,,67,36,084,30,74,34,313,44,82,40,060,46*64
$GLGSV,3,3,09,73,42,254,42*5B
$GAGSV,3,1,11,13,75,040,49,27,13,166,27,03,12,058,,23,45,297,*61
$GAGSV,3,2,11,15,22,060,28,14,46,289,,21,54,207,43,26,46,250,41*61
$GAGSV,3,3,11,08,08,106,,05,02,012,,31,03,327,29*57
$GBGSV,6,1,21,28,65,294,43,21,11,031,28,46,22,308,,38,15,037,22*67
$GBGSV,6,2,21,60,11,108,,50,24,050,,05,23,128,,08,29,037,23*6C
$GBGSV,6,3,21,33,28,142,34,11,23,085,30,27,21,278,34,13,37,044,38*69
$GBGSV,6,4,21,37,30,248,36,58,31,291,,14,38,112,42,42,36,077,44*6A
$GBGSV,6,5,21,43,45,086,39,23,09,201,,57,03,220,,02,08,105,*6D
$GBGSV,6,6,21,34,01,093,*54
$GPGGA,194527.00,,,,,0,00,,,M,,M,,*44
$PTNL,GGK,194527.00,010125,4742.4467923,N,01617.9732999,E,1,19,1.7,EHT668.6036,M*48
$GPGGQ,194527.00,010125,4742.4467923,N,01617.9732999,E,1,19,2.992,625.3925,M*37
$GPGFA,194527.00,8.937,22.072,0.940,0.906,1.449,2.692,,VVV*3A
$GPLLK,194527.00,010125,,M,,M,1,19,2.0,,M*0D
$GNGMP,194527.00,,,,,DAAA,19,0.7,,,,*55
$GPGMP,194527.00,,,,,,07,,,,1.3,123*74
$GLGMP,194527.00,,,,,,03,,,,,*70
$GAGMP,194527.00,,,,,,03,,,,,*7D
$GBGMP,194527.00,,,,,,06,,,,,*7B
$PSSN,SNC,[0,330345000,2347]*46
$GPZDA,194532.00,01,01,2025,,*6B
$GPDTM,W84,,00.0000000,N,00.0000000,E,00.0000000,W84*5F
$GPRMC,194532.00,A,4742.4467987,N,01617.9733027,E,0.0,,010125,5.1,E,D*1D
$GPGLL,4742.4467987,N,01617.9733027,E,194532.00,A,D*6C
$GPGGA,194532.00,4742.4467987,N,01617.9733027,E,2,19,0.7,625.3948,M,43.2111,M,2.2,0123*4D
$GNGNS,194532.00,4742.4467987,N,01617.9733027,E,DAAA,19,0.7,625.3948,43.2111,,*51
$GPGNS,194532.00,,,,,,05,,,,2.2,123*70
$GLGNS,194532.00,,,,,,05,,,,,*72
$GAGNS,194532.00,,,,,,03,,,,,*79
$GBGNS,194532.00,,,,,,06,,,,,*7F
$GPLLQ,194532.00,010125,,M,,M,1,19,2.804,,M*1F
$GPVTG,,T,,M,0.01,N,0.01,K,D*26
$GPHDT,,T*1B
$GPTHS,,V*0E
$GPROT,,V*08
$PSSN,HRP,194532.00,010125,,,,,,,00,0,,*69
$PTNL,AVR,194532.00,,Yaw,,Tilt,,,,0,,00*3F
$GPGSA,A,3,10,16,18,26,27,,,,,,,,1.9,0.7,1.8*3A
$GPGSA,A,3,67,73,74,82,83,,,,,,,,1.9,0.7,1.8*33
$GPGSA,A,3,13,21,26,,,,,,,,,,1.9,0.7,1.8*31
$GPGSA,A,3,13,14,28,33,42,43,,,,,,,1.9,0.7,1.8*38
$GPGST,194532.00,4.693,1.057,0.569,306.668,0.779,0.913,2.535*50
$GPGBS,194532.00,4.538,5.702,16.516,33,0.0001,10.176,8.595*59
$GPGRS,194532.00,1,-0.7,0.3,0.3,0.8,0.1,,,,,,,*4B
$GPGRS,194532.00,1,5.2,4.9,-4.7,-1.3,-3.1,,,,,,,*4C
$GPGRS,194532.00,1,-0.5,0.5,-0.1,,,,,,,,,*69
$GPGRS,194532.00,1,2.1,0.6,-0.7,10.2,-2.7,-6.6,,,,,,*5F
$GPGSV,4,1,16,27,65,303,44,15,15,053,22,26,30,191,39,08,29,299,33*7E
$GPGSV,4,2,16,18,35,063,46,10,49,165,36,16,55,216,49,23,59,088,40*7D
$GPGSV,4,3,16,21,06,254,,13,04,024,,07,08,313,33,30,00,343,*76
$GPGSV,4,4,16,36,35,170,41,34,31,208,,49,34,195,37,61,03,257,*76
$GLGSV,3,1,09,83,67,349,36,84,20,273,36,80,13,200,23,68,18,136,30*6B
$GLGSV,3,2,09,66,19,027,,67,36,084,36,74,34,313,45,82,40,060,47*62
$GLGSV,3,3,09,73,42,253,43*5D
$GAGSV,3,1,11,13,75,040,48,27,13,166,26,03,12,058,,23,45,297,*61
$GAGSV,3,2,11,15,22,060,30,14,46,289,,21,54,207,42,26,46,250,41*69
$GAGSV,3,3,11,08,08,106,,05,02,012,,31,03,327,30*5F
$GBGSV,6,1,21,28,65,294,44,21,11,031,29,46,22,308,,38,15,037,22*61
$GBGSV,6,2,21,60,11,108,,50,24,050,,05,23,128,,08,29,037,25*6A
$GBGSV,6,3,21,33,28,142,36,11,23,085,25,27,21,278,35,13,37,044,37*61
$GBGSV,6,4,21,37,30,248,31,58,31,291,,14,38,112,41,42,36,077,44*6E
$GBGSV,6,5,21,43,45,086,38,23,09,201,,57,03,220,,02,08,105,*6C
$GBGSV,6,6,21,34,01,093,*54
$GPGGA,194532.00,,,,,0,00,,,M,,M,,*40
$PTNL,GGK,194532.00,010125,4742.4467987,N,01617.9733027,E,1,19,1.9,EHT668.6059,M*48
$GPGGQ,194532.00,010125,4742.4467987,N,01617.9733027,E,1,19,2.804,625.3948,M*35
$GPGFA,194532.00,10.046,20.785,1.057,0.569,306.668,2.535,,VVV*05
$GPLLK,194532.00,010125,,M,,M,1,19,2.3,,M*0A
$GNGMP,194532.00,,,,,DAAA,19,0.7,,,,*51
$GPGMP,194532.00,,,,,,05,,,,2.2,123*70
$GLGMP,194532.00,,,,,,05,,,,,*72
$GAGMP,194532.00,,,,,,03,,,,,*79
$GBGMP,194532.00,,,,,,06,,,,,*7F
$PSSN,SNC,[0,330350000,2347]*42
$GPZDA,194537.00,01,01,2025,,*6E
$GPDTM,W84,,00.0000000,N,00.0000000,E,00.0000000,W84*5F
$GPRMC,194537.00,A,4742.4468031,N,01617.9733017,E,0.0,,010125,5.1,E,D*10
$GPGLL,4742.4468031,N,01617.9733017,E,194537.00,A,D*61
$GPGGA,194537.00,4742.4468031,N,01617.9733017,E,2,18,0.8,625.4073,M,43.2111,M,3.2,0123*49
$GNGNS,194537.00,4742.4468031,N,01617.9733017,E,DAAA,18,0.8,625.4073,43.2111,,*54
$GPGNS,194537.00,,,,,,05,,,,3.2,123*74
$GLGNS,194537.00,,,,,,05,,,,,*77
$GAGNS,194537.00,,,,,,03,,,,,*7C
$GBGNS,194537.00,,,,,,05,,,,,*79
$GPLLQ,194537.00,010125,,M,,M,1,18,3.290,,M*1D
$GPVTG,,T,,M,0.00,N,0.01,K,D*27
$GPHDT,,T*1B
$GPTHS,,V*0E
$GPROT,,V*08
$PSSN,HRP,194537.00,010125,,,,,,,00,0,,*6C
$PTNL,AVR,194537.00,,Yaw,,Tilt,,,,0,,00*3A
$GPGSA,A,3,10,16,18,26,27,,,,,,,,2.0,0.8,1.8*3F
$GPGSA,A,3,67,73,74,82,83,,,,,,,,2.0,0.8,1.8*36
$GPGSA,A,3,13,21,26,,,,,,,,,,2.0,0.8,1.8*34
$GPGSA,A,3,13,14,28,42,43,,,,,,,,2.0,0.8,1.8*3D
$GPGST,194537.00,3.664,1.235,0.615,299.879,0.814,1.114,2.987*52
$GPGBS,194537.00,4.829,6.243,17.963,73,0.0001,6.178,6.083*6C
$GPGRS,194537.00,1,0.2,-0.0,0.2,0.7,-0.5,,,,,,,*6F
$GPGRS,194537.00,1,3.9,6.2,-4.6,-1.2,-3.1,,,,,,,*4D
$GPGRS,194537.00,1,-0.9,-0.2,-0.3,,,,,,,,,*48
$GPGRS,194537.00,1,0.6,0.1,-0.8,-4.4,-6.3,,,,,,,*4A
$GPGSV,4,1,16,27,65,303,44,15,15,053,,26,30,191,38,08,29,299,29*74
$GPGSV,4,2,16,18,35,063,46,10,49,165,38,16,55,216,49,23,59,088,36*72
$GPGSV,4,3,16,21,06,254,,13,04,024,,07,08,313,35,30,00,343,*70
$GPGSV,4,4,16,36,35,170,41,34,31,208,,49,34,195,37,61,03,257,*76
$GLGSV,3,1,09,83,67,349,36,84,20,273,30,80,13,200,19,68,18,136,31*65
$GLGSV,3,2,09,66,19,027,30,67,36,084,37,74,34,313,45,82,40,060,48*6F
$GLGSV,3,3,09,73,42,253,44*5A
$GAGSV,3,1,11,13,75,040,48,27,13,166,25,03,12,058,,23,45,297,*62
$GAGSV,3,2,11,15,22,061,31,14,46,289,,21,54,207,41,26,46,250,42*69
$GAGSV,3,3,11,08,08,106,,05,02,012,,31,04,327,29*50
$GBGSV,6,1,21,28,65,294,44,21,11,031,28,46,22,308,,38,15,037,19*68
$GBGSV,6,2,21,60,11,108,,50,24,050,,05,23,128,,08,29,037,23*6C
$GBGSV,6,3,21,33,28,142,28,11,23,085,32,27,21,278,33,13,37,044,36*6F
$GBGSV,6,4,21,37,30,248,31,58,31,291,,14,38,112,41,42,36,076,44*6F
$GBGSV,6,5,21,43,45,086,38,23,09,201,21,57,03,220,,02,08,105,*6F
$GBGSV,6,6,21,34,01,093,*54
$GPGGA,194537.00,,,,,0,00,,,M,,M,,*45
$PTNL,GGK,194537.00,010125,4742.4468031,N,01617.9733017,E,1,18,2.0,EHT668.6183,M*48
$GPGGQ,194537.00,010125,4742.4468031,N,01617.9733017,E,1,18,3.290,625.4073,M*39
$GPGFA,194537.00,11.743,24.496,1.235,0.615,299.879,2.987,,VVV*04
$GPLLK,194537.00,010125,,M,,M,1,18,2.4,,M*09
$GNGMP,194537.00,,,,,DAAA,18,0.8,,,,*5A
$GPGMP,194537.00,,,,,,05,,,,3.2,123*74
$GLGMP,194537.00,,,,,,05,,,,,*77
$GAGMP,194537.00,,,,,,03,,,,,*7C
$GBGMP,194537.00,,,,,,05,,,,,*79
$PSSN,SNC,[0,330355000,2347]*47
$GPZDA,194542.00,01,01,2025,,*6C
$GPDTM,W84,,00.0000000,N,00.0000000,E,00.0000000,W84*5F
$GPRMC,194542.00,A,4742.4468053,N,01617.9732969,E,0.0,,010125,5.1,E,D*17
$GPGLL,4742.4468053,N,01617.9732969,E,194542.00,A,D*66
$GPGGA,194542.00,4742.4468053,N,01617.9732969,E,2,21,0.6,625.4148,M,43.2111,M,3.0,0123*41
$GNGNS,194542.00,4742.4468053,N,01617.9732969,E,DAAA,21,0.6,625.4148,43.2111,,*5E
$GPGNS,194542.00,,,,,,06,,,,3.0,123*77
$GLGNS,194542.00,,,,,,05,,,,,*75
$GAGNS,194542.00,,,,,,03,,,,,*7E
$GBGNS,194542.00,,,,,,07,,,,,*79
$GPLLQ,194542.00,010125,,M,,M,1,21,2.115,,M*1A
$GPVTG,,T,,M,0.00,N,0.01,K,D*27
$GPHDT,,T*1B
$GPTHS,,V*0E
$GPROT,,V*08
$PSSN,HRP,194542.00,010125,,,,,,,00,0,,*6E
$PTNL,AVR,194542.00,,Yaw,,Tilt,,,,0,,00*38
$GPGSA,A,3,07,10,16,18,26,27,,,,,,,1.3,0.6,1.2*3C
$GPGSA,A,3,67,73,74,82,83,,,,,,,,1.3,0.6,1.2*32
$GPGSA,A,3,13,21,26,,,,,,,,,,1.3,0.6,1.2*30
$GPGSA,A,3,13,14,28,33,37,42,43,,,,,,1.3,0.6,1.2*3D
$GPGST,194542.00,4.579,0.869,0.741,89.982,0.741,0.869,1.781*6A
$GPGBS,194542.00,2.759,4.265,7.533,10,0.0001,1.899,0.651*55
$GPGRS,194542.00,1,1.1,1.9,-0.6,-0.3,-0.5,-0.5,,,,,,*4C
$GPGRS,194542.00,1,3.5,7.8,-5.5,-1.9,-4.6,,,,,,,*41
$GPGRS,194542.00,1,-1.0,-0.6,-1.0,,,,,,,,,*44
$GPGRS,194542.00,1,-2.0,-0.7,-1.9,-6.3,-6.8,-6.1,-5.2,,,,,*44
$GPGSV,4,1,16,27,65,303,45,15,15,053,19,26,30,191,37,08,29,299,27*7C
$GPGSV,4,2,16,18,35,063,46,10,49,165,41,16,55,216,47,23,59,088,34*70
$GPGSV,4,3,16,21,06,254,,13,04,024,,07,08,313,37,30,00,343,*72
$GPGSV,4,4,16,36,35,170,41,34,31,208,,49,34,195,37,61,03,257,*76
$GLGSV,3,1,09,83,67,349,36,84,20,273,28,80,13,200,24,68,18,136,32*61
$GLGSV,3,2,09,66,19,027,34,67,36,084,38,74,34,313,44,82,40,060,48*65
$GLGSV,3,3,09,73,42,253,43*5D
$GAGSV,3,1,11,13,75,040,47,27,13,166,24,03,12,058,,23,45,297,*6C
$GAGSV,3,2,11,15,22,061,29,14,46,289,,21,54,207,40,26,46,250,41*62
$GAGSV,3,3,11,08,08,106,,05,02,012,,31,04,327,29*50
$GBGSV,6,1,21,28,65,294,44,21,11,030,27,46,22,308,,38,15,037,18*67
$GBGSV,6,2,21,60,11,108,,50,24,050,,05,23,128,,08,29,037,24*6B
$GBGSV,6,3,21,33,28,142,39,11,22,085,34,27,21,278,34,13,37,044,35*6C
$GBGSV,6,4,21,37,30,248,36,58,31,291,,14,38,112,41,42,36,076,44*68
$GBGSV,6,5,21,43,45,086,38,23,08,201,23,57,03,220,,02,08,105,*6C
$GBGSV,6,6,21,34,01,093,*54
$GPGGA,194542.00,,,,,0,00,,,M,,M,,*47
$PTNL,GGK,194542.00,010125,4742.4468053,N,01617.9732969,E,1,21,1.3,EHT668.6259,M*41
$GPGGQ,194542.00,010125,4742.4468053,N,01617.9732969,E,1,21,2.115,625.4148,M*32
$GPGFA,194542.00,8.261,14.600,0.869,0.741,89.982,1.781,,VVV*0A
$GPLLK,194542.00,010125,,M,,M,1,21,1.5,,M*03
$GNGMP,194542.00,,,,,DAAA,21,0.6,,,,*5C
$GPGMP,194542.00,,,,,,06,,,,3.0,123*77
$GLGMP,194542.00,,,,,,05,,,,,*75
$GAGMP,194542.00,,,,,,03,,,,,*7E
$GBGMP,194542.00,,,,,,07,,,,,*79
$PSSN,SNC,[0,330360000,2347]*41
$GPZDA,194547.00,01,01,2025,,*69
$GPDTM,W84,,00.0000000,N,00.0000000,E,00.0000000,W84*5F
$GPRMC,194547.00,A,4742.4468081,N,01617.9733008,E,0.0,,010125,5.1,E,D*12
$GPGLL,4742.4468081,N,01617.9733008,E,194547.00,A,D*63
$GPGGA,194547.00,4742.4468081,N,01617.9733008,E,2,23,0.6,625.4151,M,43.2111,M,1.3,0123*4F
$GNGNS,194547.00,4742.4468081,N,01617.9733008,E,DAAA,23,0.6,625.4151,43.2111,,*51
$GPGNS,194547.00,,,,,,07,,,,1.3,123*72
$GLGNS,194547.00,,,,,,06,,,,,*73
$GAGNS,194547.00,,,,,,03,,,,,*7B
$GBGNS,194547.00,,,,,,07,,,,,*7C
$GPLLQ,194547.00,010125,,M,,M,1,23,1.999,,M*12
$GPVTG,,T,,M,0.00,N,0.00,K,D*26
$GPHDT,,T*1B
$GPTHS,,V*0E
$GPROT,,V*08
$PSSN,HRP,194547.00,010125,,,,,,,00,0,,*6B
$PTNL,AVR,194547.00,,Yaw,,Tilt,,,,0,,00*3D
$GPGSA,A,3,07,10,16,18,23,26,27,,,,,,1.2,0.6,1.0*3E
$GPGSA,A,3,66,67,73,74,82,83,,,,,,,1.2,0.6,1.0*31
$GPGSA,A,3,13,21,26,,,,,,,,,,1.2,0.6,1.0*33
$GPGSA,A,3,14,27,28,33,37,42,43,,,,,,1.2,0.6,1.0*39
$GPGST,194547.00,5.058,0.785,0.703,302.992,0.728,0.761,1.699*52
$GPGBS,194547.00,2.546,2.655,6.550,23,0.0001,-1.464,0.635*78
$GPGRS,194547.00,1,0.9,1.3,0.1,-0.0,-1.5,-0.7,0.5,,,,,*4B
$GPGRS,194547.00,1,11.4,4.7,5.7,-5.6,-2.7,-3.5,,,,,,*5C
$GPGRS,194547.00,1,-0.7,-0.6,-0.4,,,,,,,,,*42
$GPGRS,194547.00,1,0.1,-10.0,-1.8,-2.8,-2.0,-5.7,-4.4,,,,,*59
$GPGSV,4,1,16,27,65,303,46,15,15,053,,26,30,191,36,08,29,299,24*75
$GPGSV,4,2,16,18,35,063,47,10,49,165,43,16,55,216,46,23,59,087,36*7F
$GPGSV,4,3,16,21,06,255,,13,04,024,,07,08,313,40,30,00,343,*73
$GPGSV,4,4,16,36,35,170,41,34,31,208,,49,34,195,37,61,03,257,*76
$GLGSV,3,1,09,83,67,350,37,84,20,273,26,80,13,200,25,68,18,136,34*61
$GLGSV,3,2,09,66,19,027,36,67,36,084,40,74,34,313,44,82,40,060,49*69
$GLGSV,3,3,09,73,42,253,42*5C
$GAGSV,3,1,11,13,75,040,47,27,13,166,22,03,12,058,,23,45,297,*6A
$GAGSV,3,2,11,15,22,061,33,14,46,289,,21,54,207,40,26,46,250,41*69
$GAGSV,3,3,11,08,08,106,,05,02,012,,31,04,327,31*59
$GBGSV,6,1,21,28,65,294,43,21,11,030,25,60,11,108,,38,15,037,27*68
$GBGSV,6,2,21,46,22,307,,50,24,050,,05,23,128,,08,29,037,23*65
$GBGSV,6,3,21,33,28,142,40,11,22,086,27,27,21,278,36,13,36,044,34*61
$GBGSV,6,4,21,37,30,248,36,58,31,291,,14,38,111,40,42,36,076,44*6A
$GBGSV,6,5,21,43,45,086,39,34,01,093,,57,04,220,,02,08,105,*6D
$GBGSV,6,6,21,23,08,201,24*54
$GPGGA,194547.00,,,,,0,00,,,M,,M,,*42
$PTNL,GGK,194547.00,010125,4742.4468081,N,01617.9733008,E,1,23,1.2,EHT668.6262,M*4F
$GPGGQ,194547.00,010125,4742.4468081,N,01617.9733008,E,1,23,1.999,625.4151,M*32
$GPGFA,194547.00,7.462,13.935,0.785,0.703,302.992,1.699,,VVV*39
$GPLLK,194547.00,010125,,M,,M,1,23,1.4,,M*05
$GNGMP,194547.00,,,,,DAAA,23,0.6,,,,*5B
$GPGMP,194547.00,,,,,,07,,,,1.3,123*72
$GLGMP,194547.00,,,,,,06,,,,,*73
$GAGMP,194547.00,,,,,,03,,,,,*7B
$GBGMP,194547.00,,,,,,07,,,,,*7C
$PSSN,SNC,[0,330365000,2347]*44
$GPZDA,194552.00,01,01,2025,,*6D
$GPDTM,W84,,00.0000000,N,00.0000000,E,00.0000000,W84*5F
$GPRMC,194552.00,A,4742.4468065,N,01617.9733131,E,0.0,,010125,5.1,E,D*17
$GPGLL,4742.4468065,N,01617.9733131,E,194552.00,A,D*66
$GPGGA,194552.00,4742.4468065,N,01617.9733131,E,2,23,0.6,625.4270,M,43.2111,M,2.3,0123*49
$GNGNS,194552.00,4742.4468065,N,01617.9733131,E,DAAA,23,0.6,625.4270,43.2111,,*54
$GPGNS,194552.00,,,,,,07,,,,2.3,123*75
$GLGNS,194552.00,,,,,,06,,,,,*77
$GAGNS,194552.00,,,,,,03,,,,,*7F
$GBGNS,194552.00,,,,,,07,,,,,*78
$GPLLQ,194552.00,010125,,M,,M,1,23,2.126,,M*19
$GPVTG,,T,,M,0.00,N,0.00,K,D*26
$GPHDT,,T*1B
$GPTHS,,V*0E
$GPROT,,V*08
$PSSN,HRP,194552.00,010125,,,,,,,00,0,,*6F
$PTNL,AVR,194552.00,,Yaw,,Tilt,,,,0,,00*39
$GPGSA,A,3,07,10,16,18,23,26,27,,,,,,1.2,0.6,1.0*3E
$GPGSA,A,3,66,67,73,74,82,83,,,,,,,1.2,0.6,1.0*31
$GPGSA,A,3,13,21,26,,,,,,,,,,1.2,0.6,1.0*33
$GPGSA,A,3,14,27,28,33,37,42,43,,,,,,1.2,0.6,1.0*39
$GPGST,194552.00,3.998,0.837,0.743,306.705,0.778,0.805,1.807*52
$GPGBS,194552.00,2.606,2.705,6.602,07,0.0001,3.772,1.139*5C
$GPGRS,194552.00,1,3.8,1.0,-0.3,-1.3,-0.3,-0.2,-0.0,,,,,*49
$GPGRS,194552.00,1,7.5,7.8,1.5,-5.7,-3.3,-3.1,,,,,,*64
$GPGRS,194552.00,1,-1.3,-0.7,-1.3,,,,,,,,,*44
$GPGRS,194552.00,1,-0.2,-3.0,-1.8,-1.2,-1.7,-5.7,-3.5,,,,,*4A
$GPGSV,4,1,16,27,65,303,46,15,15,053,,26,29,191,36,08,29,299,*7B
$GPGSV,4,2,16,18,34,063,47,10,49,165,44,16,55,216,44,23,59,087,37*7A
$GPGSV,4,3,16,21,06,255,,13,04,024,,07,08,312,41,30,00,343,*73
$GPGSV,4,4,16,36,35,170,41,34,31,208,,49,34,195,37,61,03,257,*76
$GLGSV,3,1,09,83,67,350,36,84,20,273,31,80,13,200,20,68,18,136,34*63
$GLGSV,3,2,09,66,19,027,37,67,36,084,42,74,34,313,44,82,40,060,49*6A
$GLGSV,3,3,09,73,42,253,41*5F
$GAGSV,3,1,11,13,75,040,47,27,13,166,21,03,12,058,,23,45,297,*69
$GAGSV,3,2,11,15,22,061,33,14,46,289,,21,54,207,41,26,46,250,40*69
$GAGSV,3,3,11,08,08,106,,05,02,012,,31,04,327,32*5A
$GBGSV,6,1,21,28,65,294,44,21,11,030,22,60,11,108,,38,15,037,25*6A
$GBGSV,6,2,21,46,22,307,,50,24,050,,05,23,128,,08,29,037,22*64
$GBGSV,6,3,21,33,28,142,41,11,22,086,28,27,21,278,38,13,36,044,33*66
$GBGSV,6,4,21,37,30,248,39,58,31,291,,14,38,111,40,42,36,076,44*65
$GBGSV,6,5,21,43,45,086,41,34,01,093,,57,04,220,,02,08,105,*62
$GBGSV,6,6,21,23,08,201,24*54
$GPGGA,194552.00,,,,,0,00,,,M,,M,,*46
$PTNL,GGK,194552.00,010125,4742.4468065,N,01617.9733131,E,1,23,1.2,EHT668.6380,M*47
$GPGGQ,194552.00,010125,4742.4468065,N,01617.9733131,E,1,23,2.126,625.4270,M*38
$GPGFA,194552.00,7.962,14.821,0.837,0.743,306.705,1.807,,VVV*3C
$GPLLK,194552.00,010125,,M,,M,1,23,1.4,,M*01
$GNGMP,194552.00,,,,,DAAA,23,0.6,,,,*5F
$GPGMP,194552.00,,,,,,07,,,,2.3,123*75
$GLGMP,194552.00,,,,,,06,,,,,*77
$GAGMP,194552.00,,,,,,03,,,,,*7F
$GBGMP,194552.00,,,,,,07,,,,,*78
$PSSN,SNC,[0,330370000,2347]*40
$GPZDA,194557.00,01,01,2025,,*68
$GPDTM,W84,,00.0000000,N,00.0000000,E,00.0000000,W84*5F
$GPRMC,194557.00,A,4742.4468242,N,01617.9733267,E,0.0,,010125,5.1,E,D*15
$GPGLL,4742.4468242,N,01617.9733267,E,194557.00,A,D*64
$GPGGA,194557.00,4742.4468242,N,01617.9733267,E,2,22,0.6,625.4407,M,43.2111,M,3.2,0123*4C
$GNGNS,194557.00,4742.4468242,N,01617.9733267,E,DAAA,22,0.6,625.4407,43.2111,,*51
$GPGNS,194557.00,,,,,,06,,,,3.2,123*71
$GLGNS,194557.00,,,,,,06,,,,,*72
$GAGNS,194557.00,,,,,,03,,,,,*7A
$GBGNS,194557.00,,,,,,07,,,,,*7D
$GPLLQ,194557.00,010125,,M,,M,1,22,4.121,,M*1C
$GPVTG,,T,,M,0.01,N,0.01,K,D*26
$GPHDT,,T*1B
$GPTHS,,V*0E
$GPROT,,V*08
$PSSN,HRP,194557.00,010125,,,,,,,00,0,,*6A
$PTNL,AVR,194557.00,,Yaw,,Tilt,,,,0,,00*3C
$GPGSA,A,3,10,16,18,23,26,27,,,,,,,1.3,0.6,1.2*3A
$GPGSA,A,3,66,67,73,74,82,83,,,,,,,1.3,0.6,1.2*32
$GPGSA,A,3,13,21,26,,,,,,,,,,1.3,0.6,1.2*30
$GPGSA,A,3,14,27,28,33,37,42,43,,,,,,1.3,0.6,1.2*3A
$GPGST,194557.00,4.467,1.547,0.903,313.749,1.253,1.280,3.711*51
$GPGBS,194557.00,3.562,3.864,10.856,26,0.0001,2.929,0.830*6B
$GPGRS,194557.00,1,0.6,0.7,-1.7,-1.6,2.9,0.1,,,,,,*4F
$GPGRS,194557.00,1,8.2,10.4,0.4,-6.2,-2.7,-4.5,,,,,,*53
$GPGRS,194557.00,1,-1.4,-0.3,-1.2,,,,,,,,,*43
$GPGRS,194557.00,1,-0.5,-1.1,-1.8,-0.3,0.7,-5.2,-2.4,,,,,*62
$GPGSV,4,1,16,27,65,303,45,15,15,053,,26,29,191,37,08,29,299,*79
$GPGSV,4,2,16,18,34,063,46,10,49,165,44,16,55,216,44,23,59,087,36*7A
$GPGSV,4,3,16,21,06,255,,13,04,024,,07,08,312,42,30,00,343,*70
$GPGSV,4,4,16,36,35,170,41,34,31,208,,49,34,195,37,61,03,257,*76
$GLGSV,3,1,09,83,67,350,36,84,20,273,29,80,13,200,25,68,18,136,33*68
$GLGSV,3,2,09,66,19,027,38,67,36,084,40,74,34,313,43,82,40,060,50*68
$GLGSV,3,3,09,73,42,253,40*5E
$GAGSV,3,1,11,13,75,040,46,27,13,166,20,03,12,058,,23,45,297,*69
$GAGSV,3,2,11,15,22,061,33,14,46,289,,21,54,207,41,26,46,250,39*67
$GAGSV,3,3,11,08,08,106,,05,02,012,,31,04,327,31*59
$GBGSV,6,1,21,28,65,294,45,21,11,030,,60,11,108,,38,15,037,26*68
$GBGSV,6,2,21,46,22,307,,50,24,050,,05,23,128,,08,29,037,23*65
$GBGSV,6,3,21,33,28,142,41,11,22,086,29,27,21,278,40,13,36,044,32*69
$GBGSV,6,4,21,37,30,248,42,58,31,291,,14,38,111,40,42,36,076,44*69
$GBGSV,6,5,21,43,45,086,42,34,01,093,,57,04,220,,02,08,105,*61
$GBGSV,6,6,21,23,08,201,24*54
$GPGGA,194557.00,,,,,0,00,,,M,,M,,*43
$PTNL,GGK,194557.00,010125,4742.4468242,N,01617.9733267,E,1,22,1.3,EHT668.6517,M*4D
$GPGGQ,194557.00,010125,4742.4468242,N,01617.9733267,E,1,22,4.121,625.4407,M*3C
$GPGFA,194557.00,14.707,30.431,1.547,0.903,313.749,3.711,,VVV*0A
$GPLLK,194557.00,010125,,M,,M,1,22,1.6,,M*07
$GNGMP,194557.00,,,,,DAAA,22,0.6,,,,*5B
$GPGMP,194557.00,,,,,,06,,,,3.2,123*71
$GLGMP,194557.00,,,,,,06,,,,,*72
$GAGMP,194557.00,,,,,,03,,,,,*7A
$GBGMP,194557.00,,,,,,07,,,,,*7D
$PSSN,SNC,[0,330375000,2347]*45
$GPZDA,194602.00,01,01,2025,,*6B
$GPDTM,W84,,00.0000000,N,00.0000000,E,00.0000000,W84*5F
$GPRMC,194602.00,A,4742.4468377,N,01617.9733521,E,0.0,,010125,5.1,E,D*14
$GPGLL,4742.4468377,N,01617.9733521,E,194602.00,A,D*65
$GPGGA,194602.00,4742.4468377,N,01617.9733521,E,2,21,0.6,625.4552,M,43.2111,M,3.4,0123*49
$GNGNS,194602.00,4742.4468377,N,01617.9733521,E,DAAA,21,0.6,625.4552,43.2111,,*52
$GPGNS,194602.00,,,,,,05,,,,3.4,123*77
$GLGNS,194602.00,,,,,,06,,,,,*71
$GAGNS,194602.00,,,,,,03,,,,,*79
$GBGNS,194602.00,,,,,,07,,,,,*7E
$GPLLQ,194602.00,010125,,M,,M,1,21,5.756,,M*1B
$GPVTG,,T,,M,0.01,N,0.02,K,D*25
$GPHDT,,T*1B
$GPTHS,,V*0E
$GPROT,,V*08
$PSSN,HRP,194602.00,010125,,,,,,,00,0,,*69
$PTNL,AVR,194602.00,,Yaw,,Tilt,,,,0,,00*3F
$GPGSA,A,3,10,16,18,26,27,,,,,,,,1.4,0.6,1.2*3C
$GPGSA,A,3,66,67,73,74,82,83,,,,,,,1.4,0.6,1.2*35
$GPGSA,A,3,13,21,26,,,,,,,,,,1.4,0.6,1.2*37
$GPGSA,A,3,14,27,28,33,37,42,43,,,,,,1.4,0.6,1.2*3D
$GPGST,194602.00,3.812,2.165,1.134,299.652,1.455,1.963,5.212*5F
$GPGBS,194602.00,4.408,5.469,16.496,16,0.0001,2.622,0.675*6B
$GPGRS,194602.00,1,-2.2,2.6,-2.1,1.0,0.0,,,,,,,*6E
$GPGRS,194602.00,1,4.6,5.2,-0.8,-6.9,-2.3,-4.9,,,,,,*48
$GPGRS,194602.00,1,-1.6,-0.6,-1.6,,,,,,,,,*43
$GPGRS,194602.00,1,-1.3,-0.3,-2.2,-0.5,4.0,-5.4,-1.8,,,,,*60
$GPGSV,4,1,16,27,65,303,46,15,15,053,28,26,29,191,37,08,29,299,28*7A
$GPGSV,4,2,16,18,34,063,46,10,49,165,42,16,55,216,43,23,59,087,33*7E
$GPGSV,4,3,16,21,06,255,,13,04,024,,07,08,312,42,30,00,343,*70
$GPGSV,4,4,16,36,35,170,41,34,31,208,,49,34,195,37,61,03,257,*76
$GLGSV,3,1,09,83,67,350,37,84,20,273,23,80,13,200,26,68,18,136,32*61
$GLGSV,3,2,09,66,19,027,37,67,36,084,37,74,34,313,43,82,40,060,50*67
$GLGSV,3,3,09,73,42,253,38*51
$GAGSV,3,1,11,13,75,040,46,27,13,166,26,03,12,058,,23,45,296,*6E
$GAGSV,3,2,11,15,22,061,33,14,47,289,,21,54,207,41,26,46,250,39*66
$GAGSV,3,3,11,08,08,106,,05,02,012,,31,04,327,31*59
$GBGSV,6,1,21,28,65,294,45,21,11,030,,60,11,108,,38,15,037,22*6C
$GBGSV,6,2,21,46,22,307,,50,24,050,,05,23,128,,08,29,037,22*64
$GBGSV,6,3,21,33,28,142,40,11,22,086,29,27,21,278,41,13,36,044,31*6A
$GBGSV,6,4,21,37,30,248,44,58,31,291,,14,38,111,39,42,36,076,43*66
$GBGSV,6,5,21,43,45,086,43,34,01,093,,57,04,220,,02,08,105,*60
$GBGSV,6,6,21,23,08,201,25*55
$GPGGA,194602.00,,,,,0,00,,,M,,M,,*40
$PTNL,GGK,194602.00,010125,4742.4468377,N,01617.9733521,E,1,21,1.4,EHT668.6663,M*48
$GPGGQ,194602.00,010125,4742.4468377,N,01617.9733521,E,1,21,5.756,625.4552,M*38
$GPGFA,194602.00,20.583,42.738,2.165,1.134,299.652,5.212,,VVV*0D
$GPLLK,194602.00,010125,,M,,M,1,21,1.6,,M*07
$GNGMP,194602.00,,,,,DAAA,21,0.6,,,,*5B
$GPGMP,194602.00,,,,,,05,,,,3.4,123*77
$GLGMP,194602.00,,,,,,06,,,,,*71
$GAGMP,194602.00,,,,,,03,,,,,*79
$GBGMP,194602.00,,,,,,07,,,,,*7E
$PSSN,SNC,[0,330380000,2347]*4F
$GPZDA,194607.00,01,01,2025,,*6E
$GPDTM,W84,,00.0000000,N,00.0000000,E,00.0000000,W84*5F
$GPRMC,194607.00,A,4742.4468403,N,01617.9733708,E,0.0,,010125,5.1,E,D*1C
$GPGLL,4742.4468403,N,01617.9733708,E,194607.00,A,D*6D
$GPGGA,194607.00,4742.4468403,N,01617.9733708,E,2,20,0.7,625.4438,M,43.2111,M,1.0,0123*4A
$GNGNS,194607.00,4742.4468403,N,01617.9733708,E,DAAA,20,0.7,625.4438,43.2111,,*57
$GPGNS,194607.00,,,,,,04,,,,1.0,123*75
$GLGNS,194607.00,,,,,,06,,,,,*74
$GAGNS,194607.00,,,,,,03,,,,,*7C
$GBGNS,194607.00,,,,,,07,,,,,*7B
$GPLLQ,194607.00,010125,,M,,M,1,20,6.101,,M*18
$GPVTG,,T,,M,0.01,N,0.02,K,D*25
$GPHDT,,T*1B
$GPTHS,,V*0E
$GPROT,,V*08
$PSSN,HRP,194607.00,010125,,,,,,,00,0,,*6C
$PTNL,AVR,194607.00,,Yaw,,Tilt,,,,0,,00*3A
$GPGSA,A,3,16,18,26,27,,,,,,,,,1.4,0.7,1.2*3C
$GPGSA,A,3,66,67,73,74,82,83,,,,,,,1.4,0.7,1.2*34
$GPGSA,A,3,13,21,26,,,,,,,,,,1.4,0.7,1.2*36
$GPGSA,A,3,14,27,28,33,37,42,43,,,,,,1.4,0.7,1.2*3C
$GPGST,194607.00,3.273,2.696,0.786,306.549,1.725,2.216,5.417*51
$GPGBS,194607.00,6.620,5.739,19.274,16,0.0001,1.691,0.620*6C
$GPGRS,194607.00,1,1.7,-1.9,0.3,0.6,,,,,,,,*65
$GPGRS,194607.00,1,-2.0,0.1,-1.1,-6.5,-1.9,-3.9,,,,,,*6C
$GPGRS,194607.00,1,-1.8,-0.9,-1.8,,,,,,,,,*49
$GPGRS,194607.00,1,-2.2,1.7,-2.3,0.5,5.0,-3.6,-2.7,,,,,*6A
$GPGSV,4,1,16,27,65,303,48,15,15,053,,26,29,191,37,08,29,299,26*70
$GPGSV,4,2,16,18,34,063,46,10,49,165,40,16,55,215,41,23,59,087,35*7B
$GPGSV,4,3,16,21,06,255,,13,04,024,,07,08,312,41,30,00,343,*73
$GPGSV,4,4,16,36,35,170,41,34,31,208,,49,34,195,37,61,03,257,*76
$GLGSV,3,1,09,83,67,350,37,84,20,273,23,80,13,199,29,68,18,136,29*67
$GLGSV,3,2,09,66,19,027,36,67,36,084,39,74,34,313,44,82,40,060,50*6F
$GLGSV,3,3,09,73,42,253,39*50
$GAGSV,3,1,11,13,75,040,46,27,13,166,26,03,12,058,,23,45,296,*6E
$GAGSV,3,2,11,15,22,061,32,14,47,289,,21,54,207,40,26,46,250,38*67
$GAGSV,3,3,11,08,08,106,,05,02,012,,31,04,327,31*59
$GBGSV,6,1,21,28,66,294,45,21,11,030,26,60,11,108,,38,15,037,21*68
$GBGSV,6,2,21,46,22,307,,50,24,049,,05,23,128,,08,29,037,21*6F
$GBGSV,6,3,21,33,28,142,38,11,22,086,28,27,21,278,41,13,36,044,30*65
$GBGSV,6,4,21,37,30,248,45,58,31,291,,14,38,111,39,42,36,076,44*60
$GBGSV,6,5,21,43,45,086,42,34,01,093,,57,04,220,,02,08,105,*61
$GBGSV,6,6,21,23,08,201,25*55
$GPGGA,194607.00,,,,,0,00,,,M,,M,,*45
$PTNL,GGK,194607.00,010125,4742.4468403,N,01617.9733708,E,1,20,1.4,EHT668.6549,M*4A
$GPGGQ,194607.00,010125,4742.4468403,N,01617.9733708,E,1,20,6.101,625.4438,M*3B
$GPGFA,194607.00,25.631,44.418,2.696,0.786,306.549,5.417,,VVV*08
$GPLLK,194607.00,010125,,M,,M,1,20,1.6,,M*03
$GNGMP,194607.00,,,,,DAAA,20,0.7,,,,*5E
$GPGMP,194607.00,,,,,,04,,,,1.0,123*75
$GLGMP,194607.00,,,,,,06,,,,,*74
$GAGMP,194607.00,,,,,,03,,,,,*7C
$GBGMP,194607.00,,,,,,07,,,,,*7B
$PSSN,SNC,[0,330385000,2347]*4A
$GPZDA,194612.00,01,01,2025,,*6A
$GPDTM,W84,,00.0000000,N,00.0000000,E,00.0000000,W84*5F
$GPRMC,194612.00,A,4742.4468472,N,01617.9733863,E,0.0,,010125,5.1,E,D*1C
$GPGLL,4742.4468472,N,01617.9733863,E,194612.00,A,D*6D
$GPGGA,194612.00,4742.4468472,N,01617.9733863,E,2,22,0.6,625.4387,M,43.2111,M,2.2,0123*4B
$GNGNS,194612.00,4742.4468472,N,01617.9733863,E,DAAA,22,0.6,625.4387,43.2111,,*57
$GPGNS,194612.00,,,,,,06,,,,2.2,123*72
$GLGNS,194612.00,,,,,,06,,,,,*70
$GAGNS,194612.00,,,,,,03,,,,,*78
$GBGNS,194612.00,,,,,,07,,,,,*7F
$GPLLQ,194612.00,010125,,M,,M,1,22,4.372,,M*1A
$GPVTG,,T,,M,0.00,N,0.01,K,D*27
$GPHDT,,T*1B
$GPTHS,,V*0E
$GPROT,,V*08
$PSSN,HRP,194612.00,010125,,,,,,,00,0,,*68
$PTNL,AVR,194612.00,,Yaw,,Tilt,,,,0,,00*3E
$GPGSA,A,3,07,16,18,23,26,27,,,,,,,1.2,0.6,1.0*3F
$GPGSA,A,3,66,67,73,74,82,83,,,,,,,1.2,0.6,1.0*31
$GPGSA,A,3,13,21,26,,,,,,,,,,1.2,0.6,1.0*33
$GPGSA,A,3,14,27,28,33,37,42,43,,,,,,1.2,0.6,1.0*39
$GPGST,194612.00,3.937,1.860,1.306,315.345,1.610,1.604,3.735*59
$GPGBS,194612.00,3.679,2.796,6.572,23,0.0001,2.445,0.639*5A
$GPGRS,194612.00,1,3.0,-1.7,-2.6,2.4,1.8,0.5,,,,,,*4C
$GPGRS,194612.00,1,-4.1,2.0,0.4,-7.4,-2.5,-4.9,,,,,,*4D
$GPGRS,194612.00,1,-2.7,-2.2,-2.8,,,,,,,,,*4B
$GPGRS,194612.00,1,-3.1,4.5,-3.9,1.0,1.1,-2.6,-4.8,,,,,*69
$GPGSV,4,1,16,27,65,303,49,15,15,053,,26,29,191,37,08,29,299,27*70
$GPGSV,4,2,16,18,34,063,46,10,49,165,38,16,55,215,38,23,59,087,38*77
$GPGSV,4,3,16,21,06,255,,13,04,024,,07,08,312,39,30,00,343,*7C
$GPGSV,4,4,16,36,35,170,41,34,31,208,,49,34,195,37,61,03,257,*76
$GLGSV,3,1,09,83,67,350,38,84,20,273,,80,13,199,31,68,18,136,29*60
$GLGSV,3,2,09,66,19,027,36,67,36,084,42,74,34,313,44,82,40,060,49*6B
$GLGSV,3,3,09,73,42,253,41*5F
$GAGSV,3,1,11,13,75,040,45,27,13,166,21,03,12,058,,23,45,296,*6A
$GAGSV,3,2,11,15,22,061,31,14,47,289,,21,54,207,38,26,46,250,38*6B
$GAGSV,3,3,11,08,08,106,,05,02,012,,31,04,327,32*5A
$GBGSV,6,1,21,28,66,294,45,21,11,030,,60,11,108,,38,15,037,22*6F
$GBGSV,6,2,21,46,22,307,,50,24,049,,05,23,128,,08,29,037,22*6C
$GBGSV,6,3,21,33,28,142,37,11,22,086,27,27,21,278,39,13,36,044,30*6A
$GBGSV,6,4,21,37,29,248,44,58,31,291,,14,38,111,39,42,36,076,45*68
$GBGSV,6,5,21,43,45,086,41,34,01,093,,57,04,220,,02,08,105,*62
$GBGSV,6,6,21,23,08,201,26*56
$GPGGA,194612.00,,,,,0,00,,,M,,M,,*41
$PTNL,GGK,194612.00,010125,4742.4468472,N,01617.9733863,E,1,22,1.2,EHT668.6498,M*43
$GPGGQ,194612.00,010125,4742.4468472,N,01617.9733863,E,1,22,4.372,625.4387,M*3E
$GPGFA,194612.00,17.682,30.631,1.860,1.306,315.345,3.735,,VVV*0B
$GPLLK,194612.00,010125,,M,,M,1,22,1.4,,M*07
$GNGMP,194612.00,,,,,DAAA,22,0.6,,,,*59
$GPGMP,194612.00,,,,,,06,,,,2.2,123*72
$GLGMP,194612.00,,,,,,06,,,,,*70
$GAGMP,194612.00,,,,,,03,,,,,*78
$GBGMP,194612.00,,,,,,07,,,,,*7F
$PSSN,SNC,[0,330390000,2347]*4E
$GPZDA,194617.00,01,01,2025,,*6F
$GPDTM,W84,,00.0000000,N,00.0000000,E,00.0000000,W84*5F
$GPRMC,194617.00,A,4742.4468392,N,01617.9734000,E,0.0,,010125,5.1,E,D*1A
$GPGLL,4742.4468392,N,01617.9734000,E,194617.00,A,D*6B
$GPGGA,194617.00,4742.4468392,N,01617.9734000,E,2,19,0.8,625.4278,M,43.2111,M,3.5,0123*4C
$GNGNS,194617.00,4742.4468392,N,01617.9734000,E,DAAA,19,0.8,625.4278,43.2111,,*56
$GPGNS,194617.00,,,,,,04,,,,3.5,123*73
$GLGNS,194617.00,,,,,,06,,,,,*75
$GAGNS,194617.00,,,,,,03,,,,,*7D
$GBGNS,194617.00,,,,,,06,,,,,*7B
$GPLLQ,194617.00,010125,,M,,M,1,19,3.057,,M*14
$GPVTG,,T,,M,0.01,N,0.01,K,D*26
$GPHDT,,T*1B
$GPTHS,,V*0E
$GPROT,,V*08
$PSSN,HRP,194617.00,010125,,,,,,,00,0,,*6D
$PTNL,AVR,194617.00,,Yaw,,Tilt,,,,0,,00*3B
$GPGSA,A,3,07,10,18,27,,,,,,,,,1.4,0.8,1.2*36
$GPGSA,A,3,66,67,73,74,82,83,,,,,,,1.4,0.8,1.2*3B
$GPGSA,A,3,13,21,26,,,,,,,,,,1.4,0.8,1.2*39
$GPGSA,A,3,14,27,28,37,42,43,,,,,,,1.4,0.8,1.2*33
$GPGST,194617.00,5.324,1.378,1.026,25.854,1.318,1.102,2.528*69
$GPGBS,194617.00,6.152,4.841,9.978,27,0.0001,1.828,0.620*56
$GPGRS,194617.00,1,-1.6,-1.3,-0.7,1.8,,,,,,,,*64
$GPGRS,194617.00,1,3.1,12.8,2.5,-6.0,-1.4,-2.9,,,,,,*59
$GPGRS,194617.00,1,-0.7,-0.6,-1.4,,,,,,,,,*45
$GPGRS,194617.00,1,-1.0,9.5,-2.0,0.7,-0.4,-2.8,,,,,,*44
$GPGSV,4,1,16,27,65,303,50,15,15,053,28,26,29,191,37,08,29,299,*77
$GPGSV,4,2,16,18,34,063,46,10,49,165,37,16,55,215,34,23,59,087,41*7A
$GPGSV,4,3,16,21,06,255,,13,04,024,,07,08,312,39,30,00,343,*7C
$GPGSV,4,4,16,36,35,170,41,34,31,208,,49,34,195,37,61,03,257,*76
$GLGSV,3,1,09,83,67,350,39,84,20,273,26,80,13,199,32,68,18,136,32*6C
$GLGSV,3,2,09,66,19,027,37,67,36,084,42,74,34,312,44,82,40,060,49*6B
$GLGSV,3,3,09,73,42,253,40*5E
$GAGSV,3,1,11,13,75,040,45,27,13,166,21,03,12,058,,23,45,296,*6A
$GAGSV,3,2,11,15,22,061,27,14,47,289,,21,54,207,37,26,46,250,38*63
$GAGSV,3,3,11,08,08,106,,05,01,012,,31,04,327,30*5B
$GBGSV,6,1,21,28,66,294,46,21,11,030,27,60,11,108,,38,15,037,26*6D
$GBGSV,6,2,21,46,22,307,,50,24,049,,05,23,128,,08,29,037,22*6C
$GBGSV,6,3,21,33,28,142,34,11,22,086,26,27,21,278,37,13,36,044,30*66
$GBGSV,6,4,21,37,29,248,43,58,31,291,,42,36,076,47,14,38,111,38*6C
$GBGSV,6,5,21,43,45,086,41,34,01,093,,57,04,220,,02,08,105,*62
$GBGSV,6,6,21,23,08,201,26*56
$GPGGA,194617.00,,,,,0,00,,,M,,M,,*44
$PTNL,GGK,194617.00,010125,4742.4468392,N,01617.9734000,E,1,19,1.4,EHT668.6388,M*4D
$GPGGQ,194617.00,010125,4742.4468392,N,01617.9734000,E,1,19,3.057,625.4278,M*32
$GPGFA,194617.00,13.100,20.732,1.378,1.026,25.854,2.528,,VVV*33
$GPLLK,194617.00,010125,,M,,M,1,19,1.6,,M*08
$GNGMP,194617.00,,,,,DAAA,19,0.8,,,,*5A
$GPGMP,194617.00,,,,,,04,,,,3.5,123*73
$GLGMP,194617.00,,,,,,06,,,,,*75
$GAGMP,194617.00,,,,,,03,,,,,*7D
$GBGMP,194617.00,,,,,,06,,,,,*7B
$PSSN,SNC,[0,330395000,2347]*4B
$GPZDA,194622.00,01,01,2025,,*69
$GPDTM,W84,,00.0000000,N,00.0000000,E,00.0000000,W84*5F
$GPRMC,194622.00,A,4742.4468335,N,01617.9734074,E,0.0,,010125,5.1,E,D*12
$GPGLL,4742.4468335,N,01617.9734074,E,194622.00,A,D*63
$GPGGA,194622.00,4742.4468335,N,01617.9734074,E,2,20,0.7,625.4107,M,43.2111,M,2.8,0123*46
$GNGNS,194622.00,4742.4468335,N,01617.9734074,E,DAAA,20,0.7,625.4107,43.2111,,*50
$GPGNS,194622.00,,,,,,05,,,,2.8,123*78
$GLGNS,194622.00,,,,,,06,,,,,*73
$GAGNS,194622.00,,,,,,03,,,,,*7B
$GBGNS,194622.00,,,,,,06,,,,,*7D
$GPLLQ,194622.00,010125,,M,,M,1,20,3.128,,M*11
$GPVTG,,T,,M,0.01,N,0.02,K,D*25
$GPHDT,,T*1B
$GPTHS,,V*0E
$GPROT,,V*08
$PSSN,HRP,194622.00,010125,,,,,,,00,0,,*6B
$PTNL,AVR,194622.00,,Yaw,,Tilt,,,,0,,00*3D
$GPGSA,A,3,07,10,16,18,27,,,,,,,,1.4,0.7,1.2*3E
$GPGSA,A,3,66,67,73,74,82,83,,,,,,,1.4,0.7,1.2*34
$GPGSA,A,3,13,21,26,,,,,,,,,,1.4,0.7,1.2*36
$GPGSA,A,3,14,27,28,37,42,43,,,,,,,1.4,0.7,1.2*3C
$GPGST,194622.00,6.122,1.340,1.061,22.561,1.302,1.106,2.620*68
$GPGBS,194622.00,4.094,4.320,9.823,16,0.0001,-2.441,0.680*7F
$GPGRS,194622.00,1,1.3,-0.9,-2.4,-0.4,1.5,,,,,,,*4A
$GPGRS,194622.00,1,6.2,15.6,0.5,-5.2,-2.2,-2.9,,,,,,*56
$GPGRS,194622.00,1,-0.7,0.2,-1.4,,,,,,,,,*6A
$GPGRS,194622.00,1,-3.1,11.6,-1.5,1.0,-0.5,-2.0,,,,,,*72
$GPGSV,4,1,16,27,65,303,50,15,15,053,26,26,29,191,35,08,29,299,41*7E
$GPGSV,4,2,16,18,34,063,46,10,49,165,36,16,55,215,37,23,59,087,41*78
$GPGSV,4,3,16,21,06,255,,13,04,024,,07,08,312,37,30,00,343,*72
$GPGSV,4,4,16,36,35,170,41,34,31,208,,49,34,195,37,61,03,257,*76
$GLGSV,3,1,09,83,67,350,39,84,20,273,23,80,13,199,31,68,18,136,28*61
$GLGSV,3,2,09,66,19,027,38,67,36,083,43,74,34,312,45,82,40,060,48*62
$GLGSV,3,3,09,73,42,253,41*5F
$GAGSV,3,1,11,13,75,040,44,27,13,166,22,03,12,058,,23,45,296,*68
$GAGSV,3,2,11,15,22,061,25,14,47,289,,21,54,207,35,26,46,250,38*63
$GAGSV,3,3,11,08,08,106,,05,01,011,,31,04,327,29*50
$GBGSV,6,1,21,28,66,294,46,21,11,030,28,60,11,108,,38,15,037,23*67
$GBGSV,6,2,21,46,22,307,,50,24,049,,05,23,128,,08,29,037,23*6D
$GBGSV,6,3,21,33,29,142,32,11,22,086,24,27,21,278,36,13,36,044,31*63
$GBGSV,6,4,21,37,29,248,40,58,31,291,,42,36,076,48,14,38,111,38*60
$GBGSV,6,5,21,43,45,086,41,34,00,093,,57,04,220,,02,08,105,*63
$GBGSV,6,6,21,23,08,200,26*57
$GPGGA,194622.00,,,,,0,00,,,M,,M,,*42
$PTNL,GGK,194622.00,010125,4742.4468335,N,01617.9734074,E,1,20,1.4,EHT668.6217,M*48
$GPGGQ,194622.00,010125,4742.4468335,N,01617.9734074,E,1,20,3.128,625.4107,M*32
$GPGFA,194622.00,12.736,21.486,1.340,1.061,22.561,2.620,,VVV*35
$GPLLK,194622.00,010125,,M,,M,1,20,1.6,,M*04
$GNGMP,194622.00,,,,,DAAA,20,0.7,,,,*59
$GPGMP,194622.00,,,,,,05,,,,2.8,123*78
$GLGMP,194622.00,,,,,,06,,,,,*73
$GAGMP,194622.00,,,,,,03,,,,,*7B
$GBGMP,194622.00,,,,,,06,,,,,*7D
$PSSN,SNC,[0,330400000,2347]*40
$GPZDA,194627.00,01,01,2025,,*6C
$GPDTM,W84,,00.0000000,N,00.0000000,E,00.0000000,W84*5F
$GPRMC,194627.00,A,4742.4468198,N,01617.9734149,E,0.0,,010125,5.1,E,D*1D
$GPGLL,4742.4468198,N,01617.9734149,E,194627.00,A,D*6C
$GPGGA,194627.00,4742.4468198,N,01617.9734149,E,2,19,0.7,625.4150,M,43.2111,M,1.4,0123*4E
$GNGNS,194627.00,4742.4468198,N,01617.9734149,E,DAAA,19,0.7,625.4150,43.2111,,*57
$GPGNS,194627.00,,,,,,05,,,,1.4,123*72
$GLGNS,194627.00,,,,,,06,,,,,*76
$GAGNS,194627.00,,,,,,02,,,,,*7F
$GBGNS,194627.00,,,,,,06,,,,,*78
$GPLLQ,194627.00,010125,,M,,M,1,19,4.399,,M*11
$GPVTG,,T,,M,0.01,N,0.01,K,D*26
$GPHDT,,T*1B
$GPTHS,,V*0E
$GPROT,,V*08
$PSSN,HRP,194627.00,010125,,,,,,,00,0,,*6E
$PTNL,AVR,194627.00,,Yaw,,Tilt,,,,0,,00*38
$GPGSA,A,3,08,10,16,18,27,,,,,,,,1.3,0.7,1.1*35
$GPGSA,A,3,66,67,73,74,82,83,,,,,,,1.3,0.7,1.1*30
$GPGSA,A,3,13,26,,,,,,,,,,,1.3,0.7,1.1*31
$GPGSA,A,3,14,23,28,37,42,43,,,,,,,1.3,0.7,1.1*3C
$GPGST,194627.00,5.374,1.394,1.041,24.054,1.342,1.108,4.041*6C
$GPGBS,194627.00,3.809,3.772,13.441,27,0.0001,1.793,0.595*61
$GPGRS,194627.00,1,-2.3,-0.7,0.3,-0.2,1.8,,,,,,,*4C
$GPGRS,194627.00,1,12.2,11.4,1.2,-5.0,-1.9,-2.6,,,,,,*63
$GPGRS,194627.00,1,-0.9,-1.4,,,,,,,,,,*4D
$GPGRS,194627.00,1,-0.9,3.7,-1.2,0.4,-0.8,-1.1,,,,,,*43
$GPGSV,4,1,16,27,65,303,50,15,15,053,22,26,29,191,30,08,29,299,40*7E
$GPGSV,4,2,16,18,34,063,46,10,49,165,36,16,55,215,40,23,59,087,40*79
$GPGSV,4,3,16,21,06,255,,13,04,024,,07,08,312,35,30,00,343,*70
$GPGSV,4,4,16,36,35,170,41,34,31,208,,49,34,195,36,61,03,257,*77
$GLGSV,3,1,09,83,67,350,40,84,20,273,19,80,13,199,31,68,18,136,26*68
$GLGSV,3,2,09,66,19,027,37,67,36,083,44,74,34,312,44,82,40,060,48*6B
$GLGSV,3,3,09,73,42,253,41*5F
$GAGSV,3,1,11,13,75,040,44,27,13,166,24,03,12,058,,23,45,296,*6E
$GAGSV,3,2,11,15,22,061,22,14,47,289,,21,54,207,33,26,46,250,39*63
$GAGSV,3,3,11,08,08,106,,05,01,011,,31,04,327,29*50
$GBGSV,6,1,21,28,66,294,47,21,11,030,28,60,11,108,,38,15,037,28*6D
$GBGSV,6,2,21,46,22,307,,50,24,049,,05,23,128,,08,29,037,24*6A
$GBGSV,6,3,21,33,29,142,32,11,22,086,20,27,21,278,34,13,36,044,32*66
$GBGSV,6,4,21,37,29,248,37,58,31,291,,42,36,076,48,14,38,111,37*6F
$GBGSV,6,5,21,43,45,086,41,34,00,093,,57,04,220,,02,08,105,*63
