$GPZDA,142942.00,01,01,2025,,*6B
$GPDTM,W84,,00.0000000,N,00.0000000,E,00.0000000,W84*5F
$GPRMC,142942.00,A,4742.4462129,N,01617.9738330,E,0.0,,010125,5.1,E,D*1A
$GPGLL,4742.4462129,N,01617.9738330,E,142942.00,A,D*6B
$GPGGA,142942.00,4742.4462129,N,01617.9738330,E,2,21,0.8,626.3011,M,43.2110,M,2.3,0123*48
$GNGNS,142942.00,4742.4462129,N,01617.9738330,E,DAAA,21,0.8,626.3011,43.2110,,*55
$GPGNS,142942.00,,,,,,06,,,,2.3,123*72
$GLGNS,142942.00,,,,,,04,,,,,*73
$GAGNS,142942.00,,,,,,05,,,,,*7F
$GBGNS,142942.00,,,,,,06,,,,,*7F
$GPLLQ,142942.00,010125,,M,,M,1,21,2.400,,M*1C
$GPVTG,,T,,M,0.00,N,0.01,K,D*27
$GPHDT,,T*1B
$GPTHS,,V*0E
$GPROT,,V*08
$PSSN,HRP,142942.00,010125,,,,,,,00,0,,*69
$PTNL,AVR,142942.00,,Yaw,,Tilt,,,,0,,00*3F
$GPGSA,A,3,11,12,25,28,29,32,,,,,,,1.5,0.8,1.2*39
$GPGSA,A,3,69,78,79,88,,,,,,,,,1.5,0.8,1.2*33
$GPGSA,A,3,19,29,30,34,36,,,,,,,,1.5,0.8,1.2*3F
$GPGSA,A,3,12,23,24,25,34,44,,,,,,,1.5,0.8,1.2*39
$GPGST,142942.00,4.626,1.215,0.618,351.271,1.205,0.638,1.975*53
$GPGBS,142942.00,7.621,3.331,13.410,69,0.0001,14.589,6.925*57
$GPGRS,142942.00,1,-0.9,-0.3,0.2,-0.0,-0.2,-0.2,,,,,,*63
$GPGRS,142942.00,1,14.6,-2.6,1.1,-3.2,,,,,,,,*70
$GPGRS,142942.00,1,-3.6,0.4,-0.2,1.0,1.3,,,,,,,*68
$GPGRS,142942.00,1,-5.9,0.4,-1.3,-3.4,1.8,-1.1,,,,,,*42
$GPGSV,4,1,14,25,81,335,51,32,22,257,36,06,18,038,29,31,13,316,33*79
$GPGSV,4,2,14,24,14,158,24,11,39,074,48,28,38,306,48,29,52,224,43*71
$GPGSV,4,3,14,12,51,086,39,20,05,097,,36,35,170,36,34,31,208,35*78
$GPGSV,4,4,14,49,34,195,36,61,03,257,*7A
$GLGSV,2,1,08,78,76,048,48,70,11,346,,69,15,284,38,81,22,188,34*67
$GLGSV,2,2,08,77,23,114,,87,33,035,27,79,36,313,48,88,67,134,41*60
$GAGSV,3,1,11,30,70,071,48,15,21,161,33,19,15,323,38,07,17,222,33*63
$GAGSV,3,2,11,02,19,093,25,36,25,043,35,29,28,277,40,18,29,062,*6C
$GAGSV,3,3,11,34,44,104,40,27,50,289,31,21,01,279,*51
$GBGSV,5,1,20,12,69,126,37,35,14,044,24,08,11,086,,11,30,197,*6F
$GBGSV,5,2,20,23,15,303,38,43,21,223,,05,20,130,31,38,13,072,*6C
$GBGSV,5,3,20,10,15,067,,56,22,055,,34,53,186,43,24,54,130,47*67
$GBGSV,5,4,20,44,57,071,49,25,66,296,44,02,05,108,,13,10,094,*6B
$GBGSV,5,5,20,07,02,066,,32,05,313,33,26,05,127,,60,09,110,*63
$GPGGA,142942.00,,,,,0,00,,,M,,M,,*40
$PTNL,GGK,142942.00,010125,4742.4462129,N,01617.9738330,E,1,21,1.5,EHT669.5122,M*47
$GPGGQ,142942.00,010125,4742.4462129,N,01617.9738330,E,1,21,2.400,626.3011,M*37
$GPGFA,142942.00,11.554,16.196,1.215,0.618,351.271,1.975,,VVV*07
$GPLLK,142942.00,010125,,M,,M,1,21,1.7,,M*06
$GNGMP,142942.00,,,,,DAAA,21,0.8,,,,*55
$GPGMP,142942.00,,,,,,06,,,,2.3,123*72
$GLGMP,142942.00,,,,,,04,,,,,*73
$GAGMP,142942.00,,,,,,05,,,,,*7F
$GBGMP,142942.00,,,,,,06,,,,,*7F
$PSSN,SNC,[0,311400000,2347]*43
$GPZDA,142947.00,01,01,2025,,*6E
$GPDTM,W84,,00.0000000,N,00.0000000,E,00.0000000,W84*5F
$GPRMC,142947.00,A,4742.4462094,N,01617.9738341,E,0.0,,010125,5.1,E,D*1E
$GPGLL,4742.4462094,N,01617.9738341,E,142947.00,A,D*6F
$GPGGA,142947.00,4742.4462094,N,01617.9738341,E,2,20,0.9,626.2816,M,43.2110,M,2.0,0123*41
$GNGNS,142947.00,4742.4462094,N,01617.9738341,E,DAAA,20,0.9,626.2816,43.2110,,*5F
$GPGNS,142947.00,,,,,,06,,,,2.0,123*74
$GLGNS,142947.00,,,,,,04,,,,,*76
$GAGNS,142947.00,,,,,,04,,,,,*7B
$GBGNS,142947.00,,,,,,06,,,,,*7A
$GPLLQ,142947.00,010125,,M,,M,1,20,5.205,,M*1C
$GPVTG,,T,,M,0.00,N,0.01,K,D*27
$GPHDT,,T*1B
$GPTHS,,V*0E
$GPROT,,V*08
$PSSN,HRP,142947.00,010125,,,,,,,00,0,,*6C
$PTNL,AVR,142947.00,,Yaw,,Tilt,,,,0,,00*3A
$GPGSA,A,3,11,12,25,28,29,32,,,,,,,1.6,0.9,1.3*3A
$GPGSA,A,3,69,78,79,88,,,,,,,,,1.6,0.9,1.3*30
$GPGSA,A,3,19,29,30,34,,,,,,,,,1.6,0.9,1.3*39
$GPGSA,A,3,12,23,24,25,34,44,,,,,,,1.6,0.9,1.3*3A
$GPGST,142947.00,6.372,2.652,1.329,352.167,2.633,1.365,4.277*57
$GPGBS,142947.00,7.742,3.389,13.238,32,0.0001,-5.557,1.530*46
$GPGRS,142947.00,1,0.1,-2.2,1.3,0.9,1.0,-5.6,,,,,,*4B
$GPGRS,142947.00,1,20.5,-1.8,1.8,1.8,,,,,,,,*50
$GPGRS,142947.00,1,-2.8,0.9,1.0,2.5,,,,,,,,*6B
$GPGRS,142947.00,1,-5.0,1.7,0.1,-2.2,3.4,-0.0,,,,,,*6B
$GPGSV,4,1,14,25,81,335,51,32,22,257,37,06,18,038,,31,13,316,33*73
$GPGSV,4,2,14,24,14,158,25,11,39,074,48,28,38,306,48,29,53,224,42*70
$GPGSV,4,3,14,12,51,087,41,20,05,096,,36,35,170,35,34,31,208,35*74
$GPGSV,4,4,14,49,34,195,36,61,03,257,*7A
$GLGSV,2,1,08,78,76,048,48,70,11,345,,69,15,284,36,81,22,189,32*6D
$GLGSV,2,2,08,77,23,115,,87,33,035,31,79,36,313,48,88,67,134,43*64
$GAGSV,3,1,11,30,70,071,48,15,21,161,35,19,15,323,37,07,17,222,31*68
$GAGSV,3,2,11,02,19,093,25,36,25,043,34,29,28,277,40,18,29,062,*6D
$GAGSV,3,3,11,34,44,104,39,27,50,289,31,21,01,279,*5F
$GBGSV,5,1,20,12,69,126,39,35,14,044,27,08,11,086,,11,30,197,*62
$GBGSV,5,2,20,23,15,303,39,43,21,223,,05,20,130,31,38,13,072,*6D
$GBGSV,5,3,20,10,15,067,,56,22,055,,34,53,186,44,24,54,130,46*61
$GBGSV,5,4,20,44,57,071,49,25,66,296,44,02,05,108,,13,10,094,*6B
$GBGSV,5,5,20,07,02,066,,32,05,313,32,26,05,127,,60,09,110,*62
$GPGGA,142947.00,,,,,0,00,,,M,,M,,*45
$PTNL,GGK,142947.00,010125,4742.4462094,N,01617.9738341,E,1,20,1.6,EHT669.4926,M*4C
$GPGGQ,142947.00,010125,4742.4462094,N,01617.9738341,E,1,20,5.205,626.2816,M*38
$GPGFA,142947.00,25.213,35.073,2.652,1.329,352.167,4.277,,VVV*03
$GPLLK,142947.00,010125,,M,,M,1,20,1.9,,M*0C
$GNGMP,142947.00,,,,,DAAA,20,0.9,,,,*50
$GPGMP,142947.00,,,,,,06,,,,2.0,123*74
$GLGMP,142947.00,,,,,,04,,,,,*76
$GAGMP,142947.00,,,,,,04,,,,,*7B
$GBGMP,142947.00,,,,,,06,,,,,*7A
$PSSN,SNC,[0,311405000,2347]*46
$GPZDA,142952.00,01,01,2025,,*6A
$GPDTM,W84,,00.0000000,N,00.0000000,E,00.0000000,W84*5F
$GPRMC,142952.00,A,4742.4462065,N,01617.9738241,E,0.0,,010125,5.1,E,D*15
$GPGLL,4742.4462065,N,01617.9738241,E,142952.00,A,D*64
$GPGGA,142952.00,4742.4462065,N,01617.9738241,E,2,19,0.9,626.2619,M,43.2110,M,3.0,0123*40
$GNGNS,142952.00,4742.4462065,N,01617.9738241,E,DAAA,19,0.9,626.2619,43.2110,,*5F
$GPGNS,142952.00,,,,,,06,,,,3.0,123*71
$GLGNS,142952.00,,,,,,03,,,,,*75
$GAGNS,142952.00,,,,,,04,,,,,*7F
$GBGNS,142952.00,,,,,,06,,,,,*7E
$GPLLQ,142952.00,010125,,M,,M,1,19,4.164,,M*17
$GPVTG,,T,,M,0.01,N,0.01,K,D*26
$GPHDT,,T*1B
$GPTHS,,V*0E
$GPROT,,V*08
$PSSN,HRP,142952.00,010125,,,,,,,00,0,,*68
$PTNL,AVR,142952.00,,Yaw,,Tilt,,,,0,,00*3E
$GPGSA,A,3,11,12,25,28,29,32,,,,,,,1.6,0.9,1.4*3D
$GPGSA,A,3,78,79,88,,,,,,,,,,1.6,0.9,1.4*38
$GPGSA,A,3,19,29,30,34,,,,,,,,,1.6,0.9,1.4*3E
$GPGSA,A,3,12,23,24,25,34,44,,,,,,,1.6,0.9,1.4*3D
$GPGST,142952.00,3.191,2.113,1.074,352.405,2.099,1.100,3.424*51
$GPGBS,142952.00,7.799,3.420,13.633,32,0.0001,-4.665,1.540*4B
$GPGRS,142952.00,1,-0.8,2.7,0.3,-0.2,0.6,-4.7,,,,,,*63
$GPGRS,142952.00,1,-3.8,0.2,6.2,,,,,,,,,*49
$GPGRS,142952.00,1,-3.4,0.5,-0.2,1.7,,,,,,,,*41
$GPGRS,142952.00,1,-3.4,1.1,-1.3,-2.6,1.0,-1.1,,,,,,*47
$GPGSV,4,1,14,25,81,335,50,32,22,257,37,06,18,038,31,31,13,316,33*70
$GPGSV,4,2,14,24,14,158,25,11,39,073,47,28,38,306,48,29,53,224,41*7B
$GPGSV,4,3,14,12,51,087,42,20,05,096,,36,35,170,35,34,31,208,35*77
$GPGSV,4,4,14,49,34,195,36,61,03,257,*7A
$GLGSV,2,1,08,78,76,048,47,70,11,345,,69,15,284,,81,22,189,30*65
$GLGSV,2,2,08,77,23,115,27,87,33,035,34,79,36,313,48,88,67,134,44*63
$GAGSV,3,1,11,30,70,071,48,15,21,161,35,19,15,323,38,07,17,222,29*6E
$GAGSV,3,2,11,02,19,093,24,36,25,043,34,29,28,277,40,18,29,062,*6C
$GAGSV,3,3,11,34,44,104,39,27,51,289,33,21,01,279,*5C
$GBGSV,5,1,20,12,69,126,42,35,14,044,29,08,11,086,,11,30,197,*60
$GBGSV,5,2,20,23,15,304,40,43,21,223,,05,20,130,31,38,14,072,*63
$GBGSV,5,3,20,10,15,067,,56,22,055,,34,53,186,45,24,54,130,45*63
$GBGSV,5,4,20,44,57,071,49,25,66,296,45,02,05,108,,13,10,094,*6A
$GBGSV,5,5,20,07,02,066,,32,05,313,31,26,05,127,,60,09,110,*61
$GPGGA,142952.00,,,,,0,00,,,M,,M,,*41
$PTNL,GGK,142952.00,010125,4742.4462065,N,01617.9738241,E,1,19,1.6,EHT669.4729,M*4C
$GPGGQ,142952.00,010125,4742.4462065,N,01617.9738241,E,1,19,4.164,626.2619,M*3D
$GPGFA,142952.00,20.090,28.075,2.113,1.074,352.405,3.424,,VVV*0E
$GPLLK,142952.00,010125,,M,,M,1,19,1.9,,M*02
$GNGMP,142952.00,,,,,DAAA,19,0.9,,,,*5E
$GPGMP,142952.00,,,,,,06,,,,3.0,123*71
$GLGMP,142952.00,,,,,,03,,,,,*75
$GAGMP,142952.00,,,,,,04,,,,,*7F
$GBGMP,142952.00,,,,,,06,,,,,*7E
$PSSN,SNC,[0,311410000,2347]*42
$GPZDA,142957.00,01,01,2025,,*6F
$GPDTM,W84,,00.0000000,N,00.0000000,E,00.0000000,W84*5F
$GPRMC,142957.00,A,4742.4462076,N,01617.9738143,E,0.0,,010125,5.1,E,D*13
$GPGLL,4742.4462076,N,01617.9738143,E,142957.00,A,D*62
$GPGGA,142957.00,4742.4462076,N,01617.9738143,E,2,20,0.8,626.2442,M,43.2110,M,2.4,0123*44
$GNGNS,142957.00,4742.4462076,N,01617.9738143,E,DAAA,20,0.8,626.2442,43.2110,,*5E
$GPGNS,142957.00,,,,,,05,,,,2.4,123*72
$GLGNS,142957.00,,,,,,04,,,,,*77
$GAGNS,142957.00,,,,,,05,,,,,*7B
$GBGNS,142957.00,,,,,,06,,,,,*7B
$GPLLQ,142957.00,010125,,M,,M,1,20,2.748,,M*16
$GPVTG,,T,,M,0.00,N,0.01,K,D*27
$GPHDT,,T*1B
$GPTHS,,V*0E
$GPROT,,V*08
$PSSN,HRP,142957.00,010125,,,,,,,00,0,,*6D
$PTNL,AVR,142957.00,,Yaw,,Tilt,,,,0,,00*3B
$GPGSA,A,3,11,25,28,29,32,,,,,,,,1.6,0.8,1.3*38
$GPGSA,A,3,78,79,87,88,,,,,,,,,1.6,0.8,1.3*31
$GPGSA,A,3,19,27,29,30,34,,,,,,,,1.6,0.8,1.3*3D
$GPGSA,A,3,12,23,24,25,34,44,,,,,,,1.6,0.8,1.3*3B
$GPGST,142957.00,3.825,1.382,0.843,344.999,1.353,0.889,2.221*54
$GPGBS,142957.00,7.861,6.428,13.048,32,0.0001,-2.357,1.519*4F
$GPGRS,142957.00,1,-0.4,0.4,-0.1,0.6,-2.4,,,,,,,*40
$GPGRS,142957.00,1,-3.9,0.2,-3.3,9.0,,,,,,,,*43
$GPGRS,142957.00,1,-2.8,7.1,0.3,-0.3,2.5,,,,,,,*67
$GPGRS,142957.00,1,0.0,0.8,-1.8,-2.5,0.4,-1.2,,,,,,*6E
$GPGSV,4,1,14,25,81,335,50,32,22,257,36,06,18,038,31,31,13,316,35*77
$GPGSV,4,2,14,24,14,158,25,11,39,073,47,28,38,306,48,29,53,224,42*78
$GPGSV,4,3,14,12,51,087,42,20,05,096,,36,35,170,36,34,31,208,35*74
$GPGSV,4,4,14,49,34,195,36,61,03,257,*7A
$GLGSV,2,1,08,78,76,048,46,70,11,345,,69,15,284,32,81,22,189,26*62
$GLGSV,2,2,08,77,23,115,31,87,33,035,37,79,36,313,49,88,67,134,43*61
$GAGSV,3,1,11,30,70,071,48,15,21,161,35,19,15,323,38,07,17,222,28*6F
$GAGSV,3,2,11,02,19,093,20,36,25,043,34,29,28,277,40,18,29,062,*68
$GAGSV,3,3,11,34,44,104,40,27,51,289,36,21,01,279,*57
$GBGSV,5,1,20,12,69,126,43,35,14,044,31,08,11,086,,11,30,197,*68
$GBGSV,5,2,20,23,15,304,40,43,21,223,,05,20,130,31,38,14,072,*63
$GBGSV,5,3,20,10,15,067,,56,22,055,,34,53,186,45,24,54,130,44*62
$GBGSV,5,4,20,44,56,071,49,25,66,296,44,02,05,108,,13,10,094,*6A
$GBGSV,5,5,20,07,02,066,,32,05,313,29,26,05,127,,60,09,110,*68
$GPGGA,142957.00,,,,,0,00,,,M,,M,,*44
$PTNL,GGK,142957.00,010125,4742.4462076,N,01617.9738143,E,1,20,1.6,EHT669.4553,M*4F
$GPGGQ,142957.00,010125,4742.4462076,N,01617.9738143,E,1,20,2.748,626.2442,M*33
$GPGFA,142957.00,13.139,18.211,1.382,0.843,344.999,2.221,,VVV*03
$GPLLK,142957.00,010125,,M,,M,1,20,1.8,,M*0C
$GNGMP,142957.00,,,,,DAAA,20,0.8,,,,*50
$GPGMP,142957.00,,,,,,05,,,,2.4,123*72
$GLGMP,142957.00,,,,,,04,,,,,*77
$GAGMP,142957.00,,,,,,05,,,,,*7B
$GBGMP,142957.00,,,,,,06,,,,,*7B
$PSSN,SNC,[0,311415000,2347]*47
$GPZDA,143002.00,01,01,2025,,*67
$GPDTM,W84,,00.0000000,N,00.0000000,E,00.0000000,W84*5F
$GPRMC,143002.00,A,4742.4462144,N,01617.9738179,E,0.0,,010125,5.1,E,D*12
$GPGLL,4742.4462144,N,01617.9738179,E,143002.00,A,D*63
$GPGGA,143002.00,4742.4462144,N,01617.9738179,E,2,19,1.0,626.2350,M,43.2110,M,2.6,0123*40
$GNGNS,143002.00,4742.4462144,N,01617.9738179,E,DAAA,19,1.0,626.2350,43.2110,,*58
$GPGNS,143002.00,,,,,,05,,,,2.6,123*78
$GLGNS,143002.00,,,,,,03,,,,,*78
$GAGNS,143002.00,,,,,,05,,,,,*73
$GBGNS,143002.00,,,,,,06,,,,,*73
$GPLLQ,143002.00,010125,,M,,M,1,19,3.026,,M*1A
$GPVTG,,T,,M,0.00,N,0.01,K,D*27
$GPHDT,,T*1B
$GPTHS,,V*0E
$GPROT,,V*08
$PSSN,HRP,143002.00,010125,,,,,,,00,0,,*65
$PTNL,AVR,143002.00,,Yaw,,Tilt,,,,0,,00*33
$GPGSA,A,3,11,25,28,29,31,,,,,,,,1.7,1.0,1.4*34
$GPGSA,A,3,78,79,88,,,,,,,,,,1.7,1.0,1.4*31
$GPGSA,A,3,19,27,29,30,34,,,,,,,,1.7,1.0,1.4*32
$GPGSA,A,3,12,23,24,25,34,44,,,,,,,1.7,1.0,1.4*34
$GPGST,143002.00,4.145,1.415,0.912,353.869,1.411,0.920,2.514*52
$GPGBS,143002.00,9.816,6.450,16.496,27,0.0001,11.016,6.237*55
$GPGRS,143002.00,1,-0.6,-0.1,-0.6,1.7,-1.0,,,,,,,*62
$GPGRS,143002.00,1,-3.3,-0.5,3.3,,,,,,,,,*61
$GPGRS,143002.00,1,-3.9,11.0,1.0,-1.0,3.1,,,,,,,*5C
$GPGRS,143002.00,1,0.2,0.1,-3.6,-3.6,-0.9,-2.0,,,,,,*42
$GPGSV,4,1,14,25,81,336,51,32,22,257,33,06,18,038,31,31,13,316,36*73
$GPGSV,4,2,14,24,14,158,25,11,39,073,47,28,38,306,47,29,53,224,44*71
$GPGSV,4,3,14,12,51,087,43,20,05,096,,36,35,170,35,34,31,208,35*76
$GPGSV,4,4,14,49,34,195,36,61,03,257,*7A
$GLGSV,2,1,08,78,76,049,47,70,11,345,,69,15,284,27,81,23,189,26*67
$GLGSV,2,2,08,77,23,115,31,87,33,035,,79,36,313,49,88,68,134,42*6B
$GAGSV,3,1,11,30,70,071,49,15,21,161,34,19,15,323,38,07,17,222,25*62
$GAGSV,3,2,11,02,18,093,32,36,25,043,33,29,28,277,39,18,29,062,*63
$GAGSV,3,3,11,34,44,104,41,27,51,289,38,21,01,279,*58
$GBGSV,5,1,20,12,69,126,45,35,14,044,32,08,11,086,,11,30,197,*6D
$GBGSV,5,2,20,23,15,304,40,43,21,223,,05,20,130,31,38,14,072,*63
$GBGSV,5,3,20,10,15,068,,56,22,055,,34,53,186,45,24,54,130,42*6B
$GBGSV,5,4,20,44,56,071,49,25,67,296,44,02,05,108,,13,10,094,*6B
$GBGSV,5,5,20,07,02,067,,32,05,313,32,26,05,127,,60,09,110,*63
$GPGGA,143002.00,,,,,0,00,,,M,,M,,*4C
$PTNL,GGK,143002.00,010125,4742.4462144,N,01617.9738179,E,1,19,1.7,EHT669.4461,M*45
$GPGGQ,143002.00,010125,4742.4462144,N,01617.9738179,E,1,19,3.026,626.2350,M*32
$GPGFA,143002.00,13.456,20.611,1.415,0.912,353.869,2.514,,VVV*0D
$GPLLK,143002.00,010125,,M,,M,1,19,2.0,,M*05
$GNGMP,143002.00,,,,,DAAA,19,1.0,,,,*5B
$GPGMP,143002.00,,,,,,05,,,,2.6,123*78
$GLGMP,143002.00,,,,,,03,,,,,*78
$GAGMP,143002.00,,,,,,05,,,,,*73
$GBGMP,143002.00,,,,,,06,,,,,*73
$PSSN,SNC,[0,311420000,2347]*41
$GPZDA,143007.00,01,01,2025,,*62
$GPDTM,W84,,00.0000000,N,00.0000000,E,00.0000000,W84*5F
$GPRMC,143007.00,A,4742.4462223,N,01617.9738227,E,0.0,,010125,5.1,E,D*1D
$GPGLL,4742.4462223,N,01617.9738227,E,143007.00,A,D*6C
$GPGGA,143007.00,4742.4462223,N,01617.9738227,E,2,21,0.9,626.2302,M,43.2110,M,2.0,0123*4D
$GNGNS,143007.00,4742.4462223,N,01617.9738227,E,DAAA,21,0.9,626.2302,43.2110,,*53
$GPGNS,143007.00,,,,,,05,,,,2.0,123*7B
$GLGNS,143007.00,,,,,,05,,,,,*7B
$GAGNS,143007.00,,,,,,05,,,,,*76
$GBGNS,143007.00,,,,,,06,,,,,*76
$GPLLQ,143007.00,010125,,M,,M,1,21,4.665,,M*12
$GPVTG,,T,,M,0.01,N,0.01,K,D*26
$GPHDT,,T*1B
$GPTHS,,V*0E
$GPROT,,V*08
$PSSN,HRP,143007.00,010125,,,,,,,00,0,,*60
$PTNL,AVR,143007.00,,Yaw,,Tilt,,,,0,,00*36
$GPGSA,A,3,11,25,28,29,31,,,,,,,,1.5,0.9,1.3*39
$GPGSA,A,3,69,78,79,87,88,,,,,,,,1.5,0.9,1.3*3C
$GPGSA,A,3,19,27,29,30,34,,,,,,,,1.5,0.9,1.3*3F
$GPGSA,A,3,12,23,24,25,34,44,,,,,,,1.5,0.9,1.3*39
$GPGST,143007.00,7.714,2.222,1.405,353.796,2.214,1.417,3.853*55
$GPGBS,143007.00,9.778,6.392,15.489,87,0.0001,18.462,6.417*53
$GPGRS,143007.00,1,-1.1,-0.1,-0.6,1.4,-1.1,,,,,,,*63
$GPGRS,143007.00,1,7.0,-3.2,-1.5,18.5,-7.3,,,,,,,*76
$GPGRS,143007.00,1,-4.4,17.0,3.1,-1.6,3.6,,,,,,,*57
$GPGRS,143007.00,1,0.2,-0.4,-4.2,-3.9,-1.4,-2.4,,,,,,*6B
$GPGSV,4,1,14,25,81,336,51,32,22,257,31,06,18,038,30,31,13,316,38*7E
$GPGSV,4,2,14,24,14,158,24,11,39,073,47,28,38,306,47,29,53,224,45*71
$GPGSV,4,3,14,12,50,087,42,20,05,096,,36,35,170,36,34,31,208,35*75
$GPGSV,4,4,14,49,34,195,36,61,03,257,*7A
$GLGSV,2,1,08,78,76,049,49,70,11,345,,69,15,284,36,81,23,189,32*6C
$GLGSV,2,2,08,77,23,115,31,87,33,035,38,79,36,313,48,88,68,133,43*67
$GAGSV,3,1,11,30,70,071,49,15,21,161,34,19,15,323,38,07,17,222,22*65
$GAGSV,3,2,11,02,18,093,32,36,25,043,32,29,28,277,38,18,29,062,*63
$GAGSV,3,3,11,34,44,104,41,27,51,289,37,21,01,279,*57
$GBGSV,5,1,20,12,69,126,46,35,14,044,33,08,11,086,,11,30,197,*6F
$GBGSV,5,2,20,23,15,304,41,43,21,223,,05,20,130,31,38,14,072,*62
$GBGSV,5,3,20,10,15,068,,56,22,055,,34,53,186,45,24,54,130,42*6B
$GBGSV,5,4,20,44,56,071,49,25,67,296,43,02,05,108,,13,10,094,*6C
$GBGSV,5,5,20,07,02,067,,32,05,312,35,26,05,127,,60,09,110,*65
$GPGGA,143007.00,,,,,0,00,,,M,,M,,*49
$PTNL,GGK,143007.00,010125,4742.4462223,N,01617.9738227,E,1,21,1.5,EHT669.4412,M*47
$GPGGQ,143007.00,010125,4742.4462223,N,01617.9738227,E,1,21,4.665,626.2302,M*37
$GPGFA,143007.00,21.125,31.599,2.222,1.405,353.796,3.853,,VVV*00
$GPLLK,143007.00,010125,,M,,M,1,21,1.8,,M*00
$GNGMP,143007.00,,,,,DAAA,21,0.9,,,,*5D
$GPGMP,143007.00,,,,,,05,,,,2.0,123*7B
$GLGMP,143007.00,,,,,,05,,,,,*7B
$GAGMP,143007.00,,,,,,05,,,,,*76
$GBGMP,143007.00,,,,,,06,,,,,*76
$PSSN,SNC,[0,311425000,2347]*44
$GPZDA,143012.00,01,01,2025,,*66
$GPDTM,W84,,00.0000000,N,00.0000000,E,00.0000000,W84*5F
$GPRMC,143012.00,A,4742.4462288,N,01617.9738267,E,0.0,,010125,5.1,E,D*1C
$GPGLL,4742.4462288,N,01617.9738267,E,143012.00,A,D*6D
$GPGGA,143012.00,4742.4462288,N,01617.9738267,E,2,20,0.9,626.2318,M,43.2110,M,1.8,0123*4D
$GNGNS,143012.00,4742.4462288,N,01617.9738267,E,DAAA,20,0.9,626.2318,43.2110,,*58
$GPGNS,143012.00,,,,,,05,,,,1.8,123*74
$GLGNS,143012.00,,,,,,04,,,,,*7E
$GAGNS,143012.00,,,,,,05,,,,,*72
$GBGNS,143012.00,,,,,,06,,,,,*72
$GPLLQ,143012.00,010125,,M,,M,1,20,4.978,,M*14
$GPVTG,,T,,M,0.00,N,0.01,K,D*27
$GPHDT,,T*1B
$GPTHS,,V*0E
$GPROT,,V*08
$PSSN,HRP,143012.00,010125,,,,,,,00,0,,*64
$PTNL,AVR,143012.00,,Yaw,,Tilt,,,,0,,00*32
$GPGSA,A,3,11,25,28,29,31,,,,,,,,1.6,0.9,1.3*3A
$GPGSA,A,3,78,79,87,88,,,,,,,,,1.6,0.9,1.3*30
$GPGSA,A,3,19,27,29,30,34,,,,,,,,1.6,0.9,1.3*3C
$GPGSA,A,3,12,23,24,25,34,44,,,,,,,1.6,0.9,1.3*3A
$GPGST,143012.00,8.697,2.373,1.515,353.502,2.364,1.529,4.105*59
$GPGBS,143012.00,9.606,6.447,15.596,27,0.0001,21.382,6.236*53
$GPGRS,143012.00,1,-0.8,-0.3,-0.4,0.6,-0.6,,,,,,,*6A
$GPGRS,143012.00,1,-3.0,-2.4,17.8,-7.0,,,,,,,,*5A
$GPGRS,143012.00,1,-4.2,21.4,2.9,-1.5,4.3,,,,,,,*5C
$GPGRS,143012.00,1,0.2,-0.5,-4.4,-3.1,-1.2,-2.8,,,,,,*6A
$GPGSV,4,1,14,25,81,336,51,32,22,257,32,06,18,038,29,31,13,316,39*74
$GPGSV,4,2,14,24,14,158,24,11,39,073,47,28,38,306,47,29,53,224,46*72
$GPGSV,4,3,14,12,50,087,41,20,05,096,,36,35,170,35,34,31,208,35*75
$GPGSV,4,4,14,49,34,195,36,61,03,257,*7A
$GLGSV,2,1,08,78,76,049,49,70,11,345,,69,15,283,,81,23,189,*6F
$GLGSV,2,2,08,77,23,115,31,87,33,035,39,79,36,313,48,88,68,133,44*61
$GAGSV,3,1,11,30,70,071,49,15,22,161,33,19,15,323,38,07,17,222,28*6B
$GAGSV,3,2,11,02,18,093,31,36,25,043,32,29,28,277,38,18,29,062,*60
$GAGSV,3,3,11,34,44,104,41,27,51,289,37,21,01,279,*57
$GBGSV,5,1,20,12,69,126,46,35,14,044,32,08,11,086,,11,30,197,*6E
$GBGSV,5,2,20,23,15,304,41,43,21,223,,05,20,130,31,38,14,072,*62
$GBGSV,5,3,20,10,15,068,,56,22,055,,34,53,186,45,24,54,130,42*6B
$GBGSV,5,4,20,44,56,071,48,25,67,296,42,02,05,108,,13,10,094,*6C
$GBGSV,5,5,20,07,02,067,,32,05,312,35,26,05,127,,60,09,110,*65
$GPGGA,143012.00,,,,,0,00,,,M,,M,,*4D
$PTNL,GGK,143012.00,010125,4742.4462288,N,01617.9738267,E,1,20,1.6,EHT669.4428,M*4D
$GPGGQ,143012.00,010125,4742.4462288,N,01617.9738267,E,1,20,4.978,626.2318,M*3F
$GPGFA,143012.00,22.561,33.664,2.373,1.515,353.502,4.105,,VVV*07
$GPLLK,143012.00,010125,,M,,M,1,20,1.9,,M*04
$GNGMP,143012.00,,,,,DAAA,20,0.9,,,,*58
$GPGMP,143012.00,,,,,,05,,,,1.8,123*74
$GLGMP,143012.00,,,,,,04,,,,,*7E
$GAGMP,143012.00,,,,,,05,,,,,*72
$GBGMP,143012.00,,,,,,06,,,,,*72
$PSSN,SNC,[0,311430000,2347]*40
$GPZDA,143017.00,01,01,2025,,*63
$GPDTM,W84,,00.0000000,N,00.0000000,E,00.0000000,W84*5F
$GPRMC,143017.00,A,4742.4462259,N,01617.9738311,E,0.0,,010125,5.1,E,D*15
$GPGLL,4742.4462259,N,01617.9738311,E,143017.00,A,D*64
$GPGGA,143017.00,4742.4462259,N,01617.9738311,E,2,19,0.9,626.2183,M,43.2110,M,2.8,0123*4D
$GNGNS,143017.00,4742.4462259,N,01617.9738311,E,DAAA,19,0.9,626.2183,43.2110,,*5B
$GPGNS,143017.00,,,,,,05,,,,2.8,123*72
$GLGNS,143017.00,,,,,,04,,,,,*7B
$GAGNS,143017.00,,,,,,05,,,,,*77
$GBGNS,143017.00,,,,,,05,,,,,*74
$GPLLQ,143017.00,010125,,M,,M,1,19,4.577,,M*18
$GPVTG,,T,,M,0.00,N,0.01,K,D*27
$GPHDT,,T*1B
$GPTHS,,V*0E
$GPROT,,V*08
$PSSN,HRP,143017.00,010125,,,,,,,00,0,,*61
$PTNL,AVR,143017.00,,Yaw,,Tilt,,,,0,,00*37
$GPGSA,A,3,11,25,28,29,31,,,,,,,,1.7,0.9,1.4*3C
$GPGSA,A,3,78,79,87,88,,,,,,,,,1.7,0.9,1.4*36
$GPGSA,A,3,19,27,29,30,34,,,,,,,,1.7,0.9,1.4*3A
$GPGSA,A,3,12,24,25,34,44,,,,,,,,1.7,0.9,1.4*3D
$GPGST,143017.00,7.883,2.142,1.387,353.236,2.133,1.401,3.800*55
$GPGBS,143017.00,9.789,6.560,16.425,27,0.0001,23.052,6.236*52
$GPGRS,143017.00,1,-0.2,-0.4,-0.0,0.3,-1.1,,,,,,,*65
$GPGRS,143017.00,1,-2.9,-2.2,11.6,-3.3,,,,,,,,*5E
$GPGRS,143017.00,1,-3.6,23.1,1.9,-1.3,2.7,,,,,,,*5A
$GPGRS,143017.00,1,-0.8,-3.3,-2.4,-1.2,-3.1,,,,,,,*42
$GPGSV,4,1,14,25,81,336,51,32,22,257,35,06,18,038,29,31,13,316,39*73
$GPGSV,4,2,14,24,14,158,23,11,39,073,47,28,38,306,47,29,53,224,46*75
$GPGSV,4,3,14,12,50,087,39,20,05,096,,36,35,170,36,34,31,208,35*79
$GPGSV,4,4,14,49,34,195,36,61,03,257,*7A
$GLGSV,2,1,08,78,76,049,49,70,11,345,,69,15,283,36,81,23,189,22*6A
$GLGSV,2,2,08,77,23,115,31,87,33,035,39,79,36,313,47,88,68,133,44*6E
$GAGSV,3,1,11,30,70,071,49,15,22,161,31,19,15,323,37,07,17,222,26*68
$GAGSV,3,2,11,02,18,093,30,36,25,043,31,29,28,277,37,18,29,062,*6D
$GAGSV,3,3,11,34,44,104,41,27,51,289,36,21,01,279,*56
$GBGSV,5,1,20,12,69,126,46,35,14,044,33,08,11,086,,11,30,197,*6F
$GBGSV,5,2,20,23,15,304,32,43,21,223,,05,20,130,31,38,14,072,*66
$GBGSV,5,3,20,10,15,068,,56,22,055,,34,53,186,44,24,54,130,42*6A
$GBGSV,5,4,20,44,56,071,48,25,67,296,43,02,05,108,,13,10,094,*6D
$GBGSV,5,5,20,07,02,067,,32,05,312,35,26,05,127,,60,09,110,*65
$GPGGA,143017.00,,,,,0,00,,,M,,M,,*48
$PTNL,GGK,143017.00,010125,4742.4462259,N,01617.9738311,E,1,19,1.7,EHT669.4293,M*49
$GPGGQ,143017.00,010125,4742.4462259,N,01617.9738311,E,1,19,4.577,626.2183,M*3F
$GPGFA,143017.00,20.361,31.157,2.142,1.387,353.236,3.800,,VVV*05
$GPLLK,143017.00,010125,,M,,M,1,19,2.0,,M*01
$GNGMP,143017.00,,,,,DAAA,19,0.9,,,,*57
$GPGMP,143017.00,,,,,,05,,,,2.8,123*72
$GLGMP,143017.00,,,,,,04,,,,,*7B
$GAGMP,143017.00,,,,,,05,,,,,*77
$GBGMP,143017.00,,,,,,05,,,,,*74
$PSSN,SNC,[0,311435000,2347]*45
$GPZDA,143022.00,01,01,2025,,*65
$GPDTM,W84,,00.0000000,N,00.0000000,E,00.0000000,W84*5F
$GPRMC,143022.00,A,4742.4462291,N,01617.9738290,E,0.0,,010125,5.1,E,D*1F
$GPGLL,4742.4462291,N,01617.9738290,E,143022.00,A,D*6E
$GPGGA,143022.00,4742.4462291,N,01617.9738290,E,2,19,0.9,626.2249,M,43.2110,M,3.0,0123*4B
$GNGNS,143022.00,4742.4462291,N,01617.9738290,E,DAAA,19,0.9,626.2249,43.2110,,*54
$GPGNS,143022.00,,,,,,06,,,,3.0,123*7E
$GLGNS,143022.00,,,,,,03,,,,,*7A
$GAGNS,143022.00,,,,,,05,,,,,*71
$GBGNS,143022.00,,,,,,05,,,,,*72
$GPLLQ,143022.00,010125,,M,,M,1,19,1.912,,M*14
$GPVTG,,T,,M,0.01,N,0.02,K,D*25
$GPHDT,,T*1B
$GPTHS,,V*0E
$GPROT,,V*08
$PSSN,HRP,143022.00,010125,,,,,,,00,0,,*67
$PTNL,AVR,143022.00,,Yaw,,Tilt,,,,0,,00*31
$GPGSA,A,3,11,25,28,29,31,32,,,,,,,1.5,0.9,1.3*38
$GPGSA,A,3,78,79,88,,,,,,,,,,1.5,0.9,1.3*3C
$GPGSA,A,3,19,29,30,34,36,,,,,,,,1.5,0.9,1.3*3F
$GPGSA,A,3,12,24,25,34,44,,,,,,,,1.5,0.9,1.3*38
$GPGST,143022.00,2.960,0.966,0.615,343.938,0.944,0.648,1.531*54
$GPGBS,143022.00,7.313,6.478,12.580,36,0.0001,5.647,6.577*6B
$GPGRS,143022.00,1,-0.2,0.1,0.1,0.2,-0.5,-1.1,,,,,,*60
$GPGRS,143022.00,1,-2.8,-2.5,-1.8,,,,,,,,,*4F
$GPGRS,143022.00,1,-3.1,3.6,-1.0,2.0,5.6,,,,,,,*61
$GPGRS,143022.00,1,-1.2,-3.2,-1.2,-2.9,-2.6,,,,,,,*45
$GPGSV,4,1,14,25,81,336,51,32,22,257,37,06,18,038,28,31,13,316,40*7E
$GPGSV,4,2,14,24,14,158,22,11,38,073,47,28,38,306,47,29,53,224,46*75
$GPGSV,4,3,14,12,50,087,38,20,05,096,,36,35,170,36,34,31,208,35*78
$GPGSV,4,4,14,49,34,195,36,61,03,257,*7A
$GLGSV,2,1,08,78,76,050,50,70,11,345,,69,15,283,35,81,23,189,38*62
$GLGSV,2,2,08,77,23,115,29,87,33,035,,79,36,313,46,88,68,133,45*6D
$GAGSV,3,1,11,30,70,071,49,15,22,161,30,19,15,323,37,07,17,222,27*68
$GAGSV,3,2,11,02,18,093,30,36,25,043,30,29,28,277,36,18,29,062,*6D
$GAGSV,3,3,11,34,44,104,41,27,51,289,34,21,01,279,*54
$GBGSV,5,1,20,12,69,126,46,35,14,044,32,13,10,094,,11,30,197,*66
$GBGSV,5,2,20,23,15,304,31,43,21,223,,05,20,130,31,38,14,072,*65
$GBGSV,5,3,20,08,11,086,,56,22,055,,10,15,068,,34,53,186,43*68
$GBGSV,5,4,20,24,54,130,41,44,56,071,48,25,67,296,44,07,02,067,*6E
$GBGSV,5,5,20,02,05,108,,26,05,127,,32,05,312,35,60,09,110,*6F
$GPGGA,143022.00,,,,,0,00,,,M,,M,,*4E
$PTNL,GGK,143022.00,010125,4742.4462291,N,01617.9738290,E,1,19,1.5,EHT669.4359,M*46
$GPGGQ,143022.00,010125,4742.4462291,N,01617.9738290,E,1,19,1.912,626.2249,M*3A
$GPGFA,143022.00,9.183,12.558,0.966,0.615,343.938,1.531,,VVV*36
$GPLLK,143022.00,010125,,M,,M,1,19,1.8,,M*0C
$GNGMP,143022.00,,,,,DAAA,19,0.9,,,,*51
$GPGMP,143022.00,,,,,,06,,,,3.0,123*7E
$GLGMP,143022.00,,,,,,03,,,,,*7A
$GAGMP,143022.00,,,,,,05,,,,,*71
$GBGMP,143022.00,,,,,,05,,,,,*72
$PSSN,SNC,[0,311440000,2347]*47
$GPZDA,143027.00,01,01,2025,,*60
$GPDTM,W84,,00.0000000,N,00.0000000,E,00.0000000,W84*5F
$GPRMC,143027.00,A,4742.4462289,N,01617.9738305,E,0.0,,010125,5.1,E,D*1E
$GPGLL,4742.4462289,N,01617.9738305,E,143027.00,A,D*6F
$GPGGA,143027.00,4742.4462289,N,01617.9738305,E,2,19,0.9,626.2200,M,43.2110,M,2.7,0123*41
$GNGNS,143027.00,4742.4462289,N,01617.9738305,E,DAAA,19,0.9,626.2200,43.2110,,*58
$GPGNS,143027.00,,,,,,06,,,,2.7,123*7D
$GLGNS,143027.00,,,,,,04,,,,,*78
$GAGNS,143027.00,,,,,,04,,,,,*75
$GBGNS,143027.00,,,,,,05,,,,,*77
$GPLLQ,143027.00,010125,,M,,M,1,19,1.935,,M*14
$GPVTG,,T,,M,0.01,N,0.01,K,D*26
$GPHDT,,T*1B
$GPTHS,,V*0E
$GPROT,,V*08
$PSSN,HRP,143027.00,010125,,,,,,,00,0,,*62
$PTNL,AVR,143027.00,,Yaw,,Tilt,,,,0,,00*34
$GPGSA,A,3,11,25,28,29,31,32,,,,,,,1.6,0.9,1.3*3B
$GPGSA,A,3,78,79,87,88,,,,,,,,,1.6,0.9,1.3*30
$GPGSA,A,3,19,29,30,34,,,,,,,,,1.6,0.9,1.3*39
$GPGSA,A,3,12,24,25,34,44,,,,,,,,1.6,0.9,1.3*3B
$GPGST,143027.00,3.403,0.984,0.621,344.651,0.963,0.653,1.545*58
$GPGBS,143027.00,7.375,6.530,12.271,87,0.0001,-6.801,6.416*44
$GPGRS,143027.00,1,-0.1,0.2,0.1,0.6,0.4,-1.4,,,,,,*48
$GPGRS,143027.00,1,-2.0,-2.6,-6.8,-0.9,,,,,,,,*4C
$GPGRS,143027.00,1,-3.0,4.2,-0.8,1.7,,,,,,,,*46
$GPGRS,143027.00,1,-0.6,-5.2,0.2,-3.7,-2.6,,,,,,,*60
$GPGSV,4,1,14,25,81,337,51,32,22,257,38,06,18,038,29,31,13,316,40*71
$GPGSV,4,2,14,24,14,158,21,11,38,073,48,28,38,306,47,29,53,224,46*79
$GPGSV,4,3,14,12,50,087,34,20,05,096,,36,35,170,35,34,31,208,35*77
$GPGSV,4,4,14,49,34,195,36,61,03,257,*7A
$GLGSV,2,1,08,78,76,050,51,70,11,345,,69,15,283,34,81,23,189,37*6D
$GLGSV,2,2,08,77,23,115,24,87,33,035,40,79,36,313,46,88,68,133,47*66
$GAGSV,3,1,11,30,70,071,49,15,22,161,32,19,15,323,37,07,17,222,27*6A
$GAGSV,3,2,11,02,18,093,29,36,25,043,31,29,28,277,36,18,29,062,*64
$GAGSV,3,3,11,34,44,104,41,27,51,290,33,21,01,279,*5B
$GBGSV,5,1,20,12,69,125,46,35,14,044,31,13,10,094,,11,30,197,*66
$GBGSV,5,2,20,23,15,304,30,43,21,223,,05,20,130,31,38,14,072,*64
$GBGSV,5,3,20,08,11,086,,56,22,055,,10,15,068,,34,53,186,42*69
$GBGSV,5,4,20,24,54,130,38,44,56,071,48,25,67,296,44,07,02,067,*60
$GBGSV,5,5,20,02,05,108,,26,05,127,,32,05,312,34,60,09,110,*6E
$GPGGA,143027.00,,,,,0,00,,,M,,M,,*4B
$PTNL,GGK,143027.00,010125,4742.4462289,N,01617.9738305,E,1,19,1.6,EHT669.4310,M*49
$GPGGQ,143027.00,010125,4742.4462289,N,01617.9738305,E,1,19,1.935,626.2200,M*33
$GPGFA,143027.00,9.358,12.672,0.984,0.621,344.651,1.545,,VVV*33
$GPLLK,143027.00,010125,,M,,M,1,19,1.9,,M*08
$GNGMP,143027.00,,,,,DAAA,19,0.9,,,,*54
$GPGMP,143027.00,,,,,,06,,,,2.7,123*7D
$GLGMP,143027.00,,,,,,04,,,,,*78
$GAGMP,143027.00,,,,,,04,,,,,*75
$GBGMP,143027.00,,,,,,05,,,,,*77
$PSSN,SNC,[0,311445000,2347]*42
$GPZDA,143032.00,01,01,2025,,*64
$GPDTM,W84,,00.0000000,N,00.0000000,E,00.0000000,W84*5F
$GPRMC,143032.00,A,4742.4462311,N,01617.9738310,E,0.0,,010125,5.1,E,D*1E
$GPGLL,4742.4462311,N,01617.9738310,E,143032.00,A,D*6F
$GPGGA,143032.00,4742.4462311,N,01617.9738310,E,2,21,0.8,626.2057,M,43.2110,M,1.7,0123*48
$GNGNS,143032.00,4742.4462311,N,01617.9738310,E,DAAA,21,0.8,626.2057,43.2110,,*52
$GPGNS,143032.00,,,,,,06,,,,1.7,123*7A
$GLGNS,143032.00,,,,,,05,,,,,*7D
$GAGNS,143032.00,,,,,,05,,,,,*70
$GBGNS,143032.00,,,,,,05,,,,,*73
$GPLLQ,143032.00,010125,,M,,M,1,21,3.462,,M*16
$GPVTG,,T,,M,0.01,N,0.01,K,D*26
$GPHDT,,T*1B
$GPTHS,,V*0E
$GPROT,,V*08
$PSSN,HRP,143032.00,010125,,,,,,,00,0,,*66
$PTNL,AVR,143032.00,,Yaw,,Tilt,,,,0,,00*30
$GPGSA,A,3,11,25,28,29,31,32,,,,,,,1.5,0.8,1.2*38
$GPGSA,A,3,69,78,79,87,88,,,,,,,,1.5,0.8,1.2*3C
$GPGSA,A,3,19,27,29,30,34,,,,,,,,1.5,0.8,1.2*3F
$GPGSA,A,3,12,24,25,34,44,,,,,,,,1.5,0.8,1.2*38
$GPGST,143032.00,7.148,1.768,1.126,344.314,1.729,1.185,2.755*56
$GPGBS,143032.00,7.225,6.496,12.010,69,0.0001,23.459,6.941*58
$GPGRS,143032.00,1,0.0,0.2,-0.3,0.7,0.1,-1.2,,,,,,*4D
$GPGRS,143032.00,1,23.5,-1.4,-1.8,-6.4,0.1,,,,,,,*71
$GPGRS,143032.00,1,-3.3,-2.4,2.9,-1.1,1.2,,,,,,,*44
$GPGRS,143032.00,1,0.4,-7.9,0.6,-4.1,-3.2,,,,,,,*42
$GPGSV,4,1,14,25,81,337,51,32,22,257,39,06,18,038,29,31,13,316,42*72
$GPGSV,4,2,14,24,14,158,21,11,38,073,48,28,38,306,48,29,53,224,47*77
$GPGSV,4,3,14,12,50,087,23,20,05,096,,36,35,170,35,34,31,208,35*71
$GPGSV,4,4,14,49,34,195,36,61,03,257,*7A
$GLGSV,2,1,08,78,76,050,52,70,11,345,,69,15,283,35,81,23,189,36*6E
$GLGSV,2,2,08,77,23,115,,87,33,035,40,79,36,313,46,88,68,133,47*60
$GAGSV,3,1,11,30,70,071,49,15,22,161,33,19,15,323,36,07,16,222,26*6A
$GAGSV,3,2,11,02,18,093,24,36,25,043,30,29,28,277,35,18,29,062,*6B
$GAGSV,3,3,11,34,44,104,42,27,51,290,44,21,01,279,*58
$GBGSV,5,1,20,12,69,125,46,35,14,044,30,13,10,094,,11,30,197,*67
$GBGSV,5,2,20,23,15,304,29,43,21,223,,05,20,130,31,38,14,072,*6C
$GBGSV,5,3,20,08,11,086,,56,22,055,,10,15,068,,34,53,186,43*68
$GBGSV,5,4,20,24,54,130,36,44,56,071,47,25,67,296,45,07,02,067,*60
$GBGSV,5,5,20,02,05,108,,26,05,127,,32,05,312,31,60,09,110,*6B
$GPGGA,143032.00,,,,,0,00,,,M,,M,,*4F
$PTNL,GGK,143032.00,010125,4742.4462311,N,01617.9738310,E,1,21,1.5,EHT669.4167,M*43
$GPGGQ,143032.00,010125,4742.4462311,N,01617.9738310,E,1,21,3.462,626.2057,M*35
$GPGFA,143032.00,16.809,22.593,1.768,1.126,344.314,2.755,,VVV*01
$GPLLK,143032.00,010125,,M,,M,1,21,1.8,,M*06
$GNGMP,143032.00,,,,,DAAA,21,0.8,,,,*5A
$GPGMP,143032.00,,,,,,06,,,,1.7,123*7A
$GLGMP,143032.00,,,,,,05,,,,,*7D
$GAGMP,143032.00,,,,,,05,,,,,*70
$GBGMP,143032.00,,,,,,05,,,,,*73
$PSSN,SNC,[0,311450000,2347]*46
$GPZDA,143037.00,01,01,2025,,*61
$GPDTM,W84,,00.0000000,N,00.0000000,E,00.0000000,W84*5F
$GPRMC,143037.00,A,4742.4462340,N,01617.9738306,E,0.0,,010125,5.1,E,D*18
$GPGLL,4742.4462340,N,01617.9738306,E,143037.00,A,D*69
$GPGGA,143037.00,4742.4462340,N,01617.9738306,E,2,17,0.9,626.2070,M,43.2110,M,2.7,0123*4C
$GNGNS,143037.00,4742.4462340,N,01617.9738306,E,DAAA,17,0.9,626.2070,43.2110,,*55
$GPGNS,143037.00,,,,,,06,,,,2.7,123*7C
$GLGNS,143037.00,,,,,,04,,,,,*79
$GAGNS,143037.00,,,,,,02,,,,,*72
$GBGNS,143037.00,,,,,,05,,,,,*76
$GPLLQ,143037.00,010125,,M,,M,1,17,1.901,,M*1C
$GPVTG,,T,,M,0.01,N,0.02,K,D*25
$GPHDT,,T*1B
$GPTHS,,V*0E
$GPROT,,V*08
$PSSN,HRP,143037.00,010125,,,,,,,00,0,,*63
$PTNL,AVR,143037.00,,Yaw,,Tilt,,,,0,,00*35
$GPGSA,A,3,11,25,28,29,31,32,,,,,,,1.7,0.9,1.4*3D
$GPGSA,A,3,78,79,87,88,,,,,,,,,1.7,0.9,1.4*36
$GPGSA,A,3,30,34,,,,,,,,,,,1.7,0.9,1.4*3C
$GPGSA,A,3,12,24,25,34,44,,,,,,,,1.7,0.9,1.4*3D
$GPGST,143037.00,3.053,0.962,0.621,343.118,0.938,0.657,1.517*50
$GPGBS,143037.00,7.365,6.787,12.426,24,0.0001,-7.347,8.613*46
$GPGRS,143037.00,1,0.1,0.1,-0.5,0.5,0.9,-0.6,,,,,,*43
$GPGRS,143037.00,1,-1.2,-1.8,-3.9,-0.4,,,,,,,,*48
$GPGRS,143037.00,1,-1.1,1.5,,,,,,,,,,*65
$GPGRS,143037.00,1,0.7,-7.3,-0.1,-1.9,-3.2,,,,,,,*69
$GPGSV,4,1,14,25,81,337,51,32,22,257,40,06,18,038,27,31,14,316,43*74
$GPGSV,4,2,14,24,14,158,22,11,38,073,48,28,38,306,47,29,53,224,47*7B
$GPGSV,4,3,14,12,50,087,33,20,05,096,,36,35,170,36,34,31,208,35*73
$GPGSV,4,4,14,49,34,195,36,61,03,257,*7A
$GLGSV,2,1,08,78,76,050,51,70,11,345,,69,14,283,35,81,23,189,33*69
$GLGSV,2,2,08,77,22,115,,87,33,035,41,79,36,313,46,88,68,133,46*61
$GAGSV,3,1,11,30,70,071,49,15,22,161,35,19,15,323,35,07,16,222,26*6F
$GAGSV,3,2,11,02,18,093,24,36,25,043,30,29,28,277,34,18,29,062,*6A
$GAGSV,3,3,11,34,44,104,43,27,51,290,32,21,01,279,*58
$GBGSV,5,1,20,12,69,125,46,35,14,044,28,13,10,094,,11,30,197,*6E
$GBGSV,5,2,20,23,15,304,42,43,21,223,,05,20,130,31,38,14,072,*61
$GBGSV,5,3,20,08,11,086,,56,22,055,,10,15,068,,34,53,186,43*68
$GBGSV,5,4,20,24,54,130,35,44,56,070,47,25,67,296,44,07,02,067,*63
$GBGSV,5,5,20,02,05,108,,26,05,127,,32,05,312,31,60,09,110,*6B
$GPGGA,143037.00,,,,,0,00,,,M,,M,,*4A
$PTNL,GGK,143037.00,010125,4742.4462340,N,01617.9738306,E,1,17,1.7,EHT669.4180,M*4B
$GPGGQ,143037.00,010125,4742.4462340,N,01617.9738306,E,1,17,1.901,626.2070,M*39
$GPGFA,143037.00,9.148,12.442,0.962,0.621,343.118,1.517,,VVV*32
$GPLLK,143037.00,010125,,M,,M,1,17,2.0,,M*0D
$GNGMP,143037.00,,,,,DAAA,17,0.9,,,,*5B
$GPGMP,143037.00,,,,,,06,,,,2.7,123*7C
$GLGMP,143037.00,,,,,,04,,,,,*79
$GAGMP,143037.00,,,,,,02,,,,,*72
$GBGMP,143037.00,,,,,,05,,,,,*76
$PSSN,SNC,[0,311455000,2347]*43
$GPZDA,143042.00,01,01,2025,,*63
$GPDTM,W84,,00.0000000,N,00.0000000,E,00.0000000,W84*5F
$GPRMC,143042.00,A,4742.4462335,N,01617.9738307,E,0.0,,010125,5.1,E,D*19
$GPGLL,4742.4462335,N,01617.9738307,E,143042.00,A,D*68
$GPGGA,143042.00,4742.4462335,N,01617.9738307,E,2,20,0.7,626.2093,M,43.2110,M,3.0,0123*4C
$GNGNS,143042.00,4742.4462335,N,01617.9738307,E,DAAA,20,0.7,626.2093,43.2110,,*53
$GPGNS,143042.00,,,,,,06,,,,3.0,123*78
$GLGNS,143042.00,,,,,,05,,,,,*7A
$GAGNS,143042.00,,,,,,03,,,,,*71
$GBGNS,143042.00,,,,,,06,,,,,*77
$GPLLQ,143042.00,010125,,M,,M,1,20,1.881,,M*13
$GPVTG,,T,,M,0.00,N,0.01,K,D*27
$GPHDT,,T*1B
$GPTHS,,V*0E
$GPROT,,V*08
$PSSN,HRP,143042.00,010125,,,,,,,00,0,,*61
$PTNL,AVR,143042.00,,Yaw,,Tilt,,,,0,,00*37
$GPGSA,A,3,11,25,28,29,31,32,,,,,,,1.3,0.7,1.1*32
$GPGSA,A,3,69,78,79,87,88,,,,,,,,1.3,0.7,1.1*36
$GPGSA,A,3,15,30,34,,,,,,,,,,1.3,0.7,1.1*37
$GPGSA,A,3,12,23,24,25,34,44,,,,,,,1.3,0.7,1.1*33
$GPGST,143042.00,3.042,0.956,0.618,343.018,0.932,0.654,1.497*5E
$GPGBS,143042.00,7.123,6.556,11.888,24,0.0001,-7.483,8.612*4F
$GPGRS,143042.00,1,-0.2,-0.1,-0.4,0.5,0.8,0.9,,,,,,*60
$GPGRS,143042.00,1,-4.5,-1.5,-1.8,-3.2,-1.1,,,,,,,*40
$GPGRS,143042.00,1,-2.9,-1.0,2.0,,,,,,,,,*68
$GPGRS,143042.00,1,0.5,0.7,-7.5,-1.7,1.6,-2.4,,,,,,*64
$GPGSV,4,1,14,25,81,337,51,32,22,257,41,06,18,038,23,31,14,316,44*76
$GPGSV,4,2,14,24,14,158,22,11,38,073,49,28,38,306,47,29,53,224,47*7A
$GPGSV,4,3,14,12,50,087,38,20,05,096,,36,35,170,35,34,31,208,35*7B
$GPGSV,4,4,14,49,34,195,36,61,03,257,*7A
$GLGSV,2,1,08,78,76,050,51,70,11,345,,69,14,283,36,81,23,189,28*60
$GLGSV,2,2,08,77,22,115,25,87,33,035,42,79,36,313,46,88,68,133,45*66
$GAGSV,3,1,11,30,70,071,49,15,22,161,36,19,15,323,33,07,16,222,23*6F
$GAGSV,3,2,11,02,18,093,24,36,25,043,27,29,28,277,33,18,29,062,*6B
$GAGSV,3,3,11,34,44,104,44,27,51,290,33,21,01,279,*5E
$GBGSV,5,1,20,12,69,125,46,35,14,044,26,13,10,094,,11,30,197,*60
$GBGSV,5,2,20,23,15,304,42,43,21,223,,05,20,130,31,38,14,072,*61
$GBGSV,5,3,20,08,11,086,,56,22,055,,10,15,068,,34,53,186,44*6F
$GBGSV,5,4,20,24,54,130,37,44,56,070,47,25,67,296,43,07,02,067,*66
$GBGSV,5,5,20,02,05,108,,26,05,127,,32,05,312,33,60,09,110,*69
$GPGGA,143042.00,,,,,0,00,,,M,,M,,*48
$PTNL,GGK,143042.00,010125,4742.4462335,N,01617.9738307,E,1,20,1.3,EHT669.4203,M*42
$GPGGQ,143042.00,010125,4742.4462335,N,01617.9738307,E,1,20,1.881,626.2093,M*38
$GPGFA,143042.00,9.091,12.278,0.956,0.618,343.018,1.497,,VVV*3F
$GPLLK,143042.00,010125,,M,,M,1,20,1.5,,M*0D
$GNGMP,143042.00,,,,,DAAA,20,0.7,,,,*53
$GPGMP,143042.00,,,,,,06,,,,3.0,123*78
$GLGMP,143042.00,,,,,,05,,,,,*7A
$GAGMP,143042.00,,,,,,03,,,,,*71
$GBGMP,143042.00,,,,,,06,,,,,*77
$PSSN,SNC,[0,311460000,2347]*45
$GPZDA,143047.00,01,01,2025,,*66
$GPDTM,W84,,00.0000000,N,00.0000000,E,00.0000000,W84*5F
$GPRMC,143047.00,A,4742.4462355,N,01617.9738360,E,0.0,,010125,5.1,E,D*1B
$GPGLL,4742.4462355,N,01617.9738360,E,143047.00,A,D*6A
$GPGGA,143047.00,4742.4462355,N,01617.9738360,E,2,20,0.7,626.2095,M,43.2110,M,2.7,0123*4E
$GNGNS,143047.00,4742.4462355,N,01617.9738360,E,DAAA,20,0.7,626.2095,43.2110,,*57
$GPGNS,143047.00,,,,,,06,,,,2.7,123*7B
$GLGNS,143047.00,,,,,,05,,,,,*7F
$GAGNS,143047.00,,,,,,03,,,,,*74
$GBGNS,143047.00,,,,,,06,,,,,*72
$GPLLQ,143047.00,010125,,M,,M,1,20,1.883,,M*14
$GPVTG,,T,,M,0.01,N,0.02,K,D*25
$GPHDT,,T*1B
$GPTHS,,V*0E
$GPROT,,V*08
$PSSN,HRP,143047.00,010125,,,,,,,00,0,,*64
$PTNL,AVR,143047.00,,Yaw,,Tilt,,,,0,,00*32
$GPGSA,A,3,11,25,28,29,31,32,,,,,,,1.3,0.7,1.1*32
$GPGSA,A,3,69,78,79,87,88,,,,,,,,1.3,0.7,1.1*36
$GPGSA,A,3,15,30,34,,,,,,,,,,1.3,0.7,1.1*37
$GPGSA,A,3,12,23,24,25,34,44,,,,,,,1.3,0.7,1.1*33
$GPGST,143047.00,2.697,0.963,0.616,343.830,0.941,0.650,1.496*5F
$GPGBS,143047.00,7.207,6.592,11.670,32,0.0001,2.269,1.542*6C
$GPGRS,143047.00,1,-0.1,-0.5,-0.3,0.3,0.5,2.3,,,,,,*66
$GPGRS,143047.00,1,-0.3,-1.4,-1.8,-4.4,-1.3,,,,,,,*45
$GPGRS,143047.00,1,-2.7,-1.0,2.3,,,,,,,,,*60
$GPGRS,143047.00,1,0.2,0.7,-5.1,-3.6,2.3,-2.1,,,,,,*60
$GPGSV,4,1,14,25,81,337,50,32,21,257,42,06,18,038,20,31,14,316,44*74
$GPGSV,4,2,14,24,14,158,22,11,38,073,49,28,38,306,47,29,53,224,47*7A
$GPGSV,4,3,14,12,50,087,40,20,05,096,,36,35,170,35,34,31,208,35*74
$GPGSV,4,4,14,49,34,195,36,61,03,257,*7A
$GLGSV,2,1,08,78,76,050,51,70,11,345,,69,14,283,36,81,23,189,19*62
$GLGSV,2,2,08,77,22,115,28,87,33,035,41,79,36,313,44,88,68,133,45*6A
$GAGSV,3,1,11,30,70,072,49,15,22,161,36,19,15,323,31,07,16,222,21*6C
$GAGSV,3,2,11,02,18,093,27,36,25,043,26,29,28,277,31,18,29,062,*6B
$GAGSV,3,3,11,34,44,104,45,27,51,290,34,21,01,279,*58
$GBGSV,5,1,20,12,69,125,45,35,14,044,24,13,10,094,,11,30,197,*61
$GBGSV,5,2,20,23,15,304,31,43,21,223,,05,20,130,31,38,14,072,*65
$GBGSV,5,3,20,08,11,086,,56,22,055,,10,15,068,,34,53,186,44*6F
$GBGSV,5,4,20,24,54,130,38,44,56,070,47,25,67,296,41,07,02,067,*6B
$GBGSV,5,5,20,02,05,108,,26,05,127,,32,05,312,33,60,09,110,*69
$GPGGA,143047.00,,,,,0,00,,,M,,M,,*4D
$PTNL,GGK,143047.00,010125,4742.4462355,N,01617.9738360,E,1,20,1.3,EHT669.4205,M*46
$GPGGQ,143047.00,010125,4742.4462355,N,01617.9738360,E,1,20,1.883,626.2095,M*3E
$GPGFA,143047.00,9.158,12.264,0.963,0.616,343.830,1.496,,VVV*38
$GPLLK,143047.00,010125,,M,,M,1,20,1.5,,M*08
$GNGMP,143047.00,,,,,DAAA,20,0.7,,,,*56
$GPGMP,143047.00,,,,,,06,,,,2.7,123*7B
$GLGMP,143047.00,,,,,,05,,,,,*7F
$GAGMP,143047.00,,,,,,03,,,,,*74
$GBGMP,143047.00,,,,,,06,,,,,*72
$PSSN,SNC,[0,311465000,2347]*40
$GPZDA,143052.00,01,01,2025,,*62
$GPDTM,W84,,00.0000000,N,00.0000000,E,00.0000000,W84*5F
$GPRMC,143052.00,A,4742.4462429,N,01617.9738413,E,0.0,,010125,5.1,E,D*10
$GPGLL,4742.4462429,N,01617.9738413,E,143052.00,A,D*61
$GPGGA,143052.00,4742.4462429,N,01617.9738413,E,2,19,0.8,626.2316,M,43.2110,M,1.7,0123*4B
$GNGNS,143052.00,4742.4462429,N,01617.9738413,E,DAAA,19,0.8,626.2316,43.2110,,*51
$GPGNS,143052.00,,,,,,06,,,,1.7,123*7C
$GLGNS,143052.00,,,,,,05,,,,,*7B
$GAGNS,143052.00,,,,,,03,,,,,*70
$GBGNS,143052.00,,,,,,05,,,,,*75
$GPLLQ,143052.00,010125,,M,,M,1,19,1.965,,M*13
$GPVTG,,T,,M,0.01,N,0.01,K,D*26
$GPHDT,,T*1B
$GPTHS,,V*0E
$GPROT,,V*08
$PSSN,HRP,143052.00,010125,,,,,,,00,0,,*60
$PTNL,AVR,143052.00,,Yaw,,Tilt,,,,0,,00*36
$GPGSA,A,3,11,25,28,29,31,32,,,,,,,1.3,0.8,1.1*3D
$GPGSA,A,3,69,78,79,87,88,,,,,,,,1.3,0.8,1.1*39
$GPGSA,A,3,15,30,34,,,,,,,,,,1.3,0.8,1.1*38
$GPGSA,A,3,12,24,25,34,44,,,,,,,,1.3,0.8,1.1*3D
$GPGST,143052.00,3.257,1.006,0.649,343.231,0.981,0.685,1.558*5F
$GPGBS,143052.00,7.128,6.665,11.725,32,0.0001,1.627,1.522*67
$GPGRS,143052.00,1,0.1,-0.6,0.0,0.2,0.2,1.6,,,,,,*62
$GPGRS,143052.00,1,4.7,-1.1,-2.9,-6.3,-0.0,,,,,,,*6C
$GPGRS,143052.00,1,-2.4,-0.9,2.5,,,,,,,,,*69
$GPGRS,143052.00,1,-0.5,-4.5,-4.0,-0.1,-2.2,,,,,,,*4D
$GPGSV,4,1,14,25,81,338,49,32,21,257,41,06,18,038,23,31,14,316,44*73
$GPGSV,4,2,14,24,14,158,21,11,38,073,49,28,39,306,47,29,53,224,46*79
$GPGSV,4,3,14,12,50,087,40,20,05,096,,36,35,170,35,34,31,208,35*74
$GPGSV,4,4,14,49,34,195,36,61,03,257,*7A
$GLGSV,2,1,08,78,76,051,51,70,11,345,,69,14,283,36,81,23,189,30*68
$GLGSV,2,2,08,77,22,115,29,87,33,035,42,79,36,313,41,88,68,133,45*6D
$GAGSV,3,1,11,30,70,072,48,15,22,161,37,19,15,323,30,07,16,222,35*68
$GAGSV,3,2,11,02,18,093,27,36,25,043,27,29,28,277,31,18,29,062,*6A
$GAGSV,3,3,11,34,44,104,45,27,51,290,34,21,01,279,*58
$GBGSV,5,1,20,12,69,125,45,35,14,044,23,13,10,094,,11,30,197,*66
$GBGSV,5,2,20,23,15,304,34,43,21,223,,05,20,130,31,38,14,072,*60
$GBGSV,5,3,20,08,11,086,,56,22,055,,10,15,068,20,34,53,186,44*6D
$GBGSV,5,4,20,24,54,130,39,44,56,070,48,25,67,296,41,07,02,067,*65
$GBGSV,5,5,20,02,05,108,,26,05,127,,32,05,312,32,60,09,110,*68
$GPGGA,143052.00,,,,,0,00,,,M,,M,,*49
$PTNL,GGK,143052.00,010125,4742.4462429,N,01617.9738413,E,1,19,1.3,EHT669.4426,M*40
$GPGGQ,143052.00,010125,4742.4462429,N,01617.9738413,E,1,19,1.965,626.2316,M*3E
$GPGFA,143052.00,9.560,12.778,1.006,0.649,343.231,1.558,,VVV*32
$GPLLK,143052.00,010125,,M,,M,1,19,1.5,,M*06
$GNGMP,143052.00,,,,,DAAA,19,0.8,,,,*57
$GPGMP,143052.00,,,,,,06,,,,1.7,123*7C
$GLGMP,143052.00,,,,,,05,,,,,*7B
$GAGMP,143052.00,,,,,,03,,,,,*70
$GBGMP,143052.00,,,,,,05,,,,,*75
$PSSN,SNC,[0,311470000,2347]*44
$GPZDA,143057.00,01,01,2025,,*67
$GPDTM,W84,,00.0000000,N,00.0000000,E,00.0000000,W84*5F
$GPRMC,143057.00,A,4742.4462466,N,01617.9738365,E,0.0,,010125,5.1,E,D*18
$GPGLL,4742.4462466,N,01617.9738365,E,143057.00,A,D*69
$GPGGA,143057.00,4742.4462466,N,01617.9738365,E,2,22,0.7,626.2424,M,43.2110,M,2.9,0123*4F
$GNGNS,143057.00,4742.4462466,N,01617.9738365,E,DAAA,22,0.7,626.2424,43.2110,,*58
$GPGNS,143057.00,,,,,,07,,,,2.9,123*75
$GLGNS,143057.00,,,,,,04,,,,,*7F
$GAGNS,143057.00,,,,,,05,,,,,*73
$GBGNS,143057.00,,,,,,06,,,,,*73
$GPLLQ,143057.00,010125,,M,,M,1,22,2.223,,M*14
$GPVTG,,T,,M,0.01,N,0.02,K,D*25
$GPHDT,,T*1B
$GPTHS,,V*0E
$GPROT,,V*08
$PSSN,HRP,143057.00,010125,,,,,,,00,0,,*65
$PTNL,AVR,143057.00,,Yaw,,Tilt,,,,0,,00*33
$GPGSA,A,3,11,12,25,28,29,31,32,,,,,,1.2,0.7,1.0*31
$GPGSA,A,3,78,79,87,88,,,,,,,,,1.2,0.7,1.0*39
$GPGSA,A,3,07,15,29,30,34,,,,,,,,1.2,0.7,1.0*3B
$GPGSA,A,3,12,23,24,25,34,44,,,,,,,1.2,0.7,1.0*33
$GPGST,143057.00,4.522,1.126,0.619,352.100,1.119,0.633,1.814*5F
$GPGBS,143057.00,6.712,3.493,12.222,07,0.0001,12.975,6.640*5F
$GPGRS,143057.00,1,-0.4,0.7,-0.7,-0.1,0.4,-0.1,-0.4,,,,,*4D
$GPGRS,143057.00,1,-1.8,-3.2,-5.7,1.5,,,,,,,,*69
$GPGRS,143057.00,1,13.0,-2.5,-0.6,-1.2,2.0,,,,,,,*7B
$GPGRS,143057.00,1,0.0,0.6,-6.6,-4.3,-2.9,-2.2,,,,,,*40
$GPGSV,4,1,14,25,81,338,48,32,21,257,39,06,18,038,22,31,14,316,43*7B
$GPGSV,4,2,14,24,14,158,22,11,38,073,49,28,39,306,46,29,53,224,46*7B
$GPGSV,4,3,14,12,50,087,39,20,05,096,,36,35,170,35,34,31,208,35*7A
$GPGSV,4,4,14,49,34,195,36,61,03,257,*7A
$GLGSV,2,1,08,78,76,051,50,70,11,345,,69,14,283,34,81,23,189,27*6D
$GLGSV,2,2,08,77,22,115,29,87,33,035,41,79,36,313,38,88,68,133,45*60
$GAGSV,3,1,11,30,70,072,48,15,22,161,37,19,15,323,30,07,16,222,35*68
$GAGSV,3,2,11,02,18,093,29,36,25,043,30,29,28,277,38,18,29,062,*6B
$GAGSV,3,3,11,34,44,104,45,27,51,290,35,21,01,280,*5F
$GBGSV,5,1,20,12,69,125,45,35,14,044,20,13,10,094,,11,30,197,*65
$GBGSV,5,2,20,23,15,304,41,43,21,223,,05,20,130,31,38,14,072,*62
$GBGSV,5,3,20,08,11,086,,56,22,055,,10,15,068,22,34,53,186,44*6F
$GBGSV,5,4,20,24,54,130,39,44,56,070,48,25,67,296,40,07,02,067,*64
$GBGSV,5,5,20,02,05,108,,26,05,127,,32,05,312,28,60,09,110,*63
$GPGGA,143057.00,,,,,0,00,,,M,,M,,*4C
$PTNL,GGK,143057.00,010125,4742.4462466,N,01617.9738365,E,1,22,1.2,EHT669.4535,M*42
$GPGGQ,143057.00,010125,4742.4462466,N,01617.9738365,E,1,22,2.223,626.2424,M*32
$GPGFA,143057.00,10.707,14.875,1.126,0.619,352.100,1.814,,VVV*0A
$GPLLK,143057.00,010125,,M,,M,1,22,1.4,,M*0A
$GNGMP,143057.00,,,,,DAAA,22,0.7,,,,*55
$GPGMP,143057.00,,,,,,07,,,,2.9,123*75
$GLGMP,143057.00,,,,,,04,,,,,*7F
$GAGMP,143057.00,,,,,,05,,,,,*73
$GBGMP,143057.00,,,,,,06,,,,,*73
$PSSN,SNC,[0,311475000,2347]*41
$GPZDA,143102.00,01,01,2025,,*66
$GPDTM,W84,,00.0000000,N,00.0000000,E,00.0000000,W84*5F
$GPRMC,143102.00,A,4742.4462482,N,01617.9738467,E,0.0,,010125,5.1,E,D*16
$GPGLL,4742.4462482,N,01617.9738467,E,143102.00,A,D*67
$GPGGA,143102.00,4742.4462482,N,01617.9738467,E,2,21,0.7,626.2303,M,43.2110,M,2.7,0123*4E
$GNGNS,143102.00,4742.4462482,N,01617.9738467,E,DAAA,21,0.7,626.2303,43.2110,,*57
$GPGNS,143102.00,,,,,,07,,,,2.7,123*7A
$GLGNS,143102.00,,,,,,04,,,,,*7E
$GAGNS,143102.00,,,,,,04,,,,,*73
$GBGNS,143102.00,,,,,,06,,,,,*72
$GPLLQ,143102.00,010125,,M,,M,1,21,3.255,,M*16
$GPVTG,,T,,M,0.01,N,0.01,K,D*26
$GPHDT,,T*1B
$GPTHS,,V*0E
$GPROT,,V*08
$PSSN,HRP,143102.00,010125,,,,,,,00,0,,*64
$PTNL,AVR,143102.00,,Yaw,,Tilt,,,,0,,00*32
$GPGSA,A,3,11,12,25,28,29,31,32,,,,,,1.3,0.7,1.1*31
$GPGSA,A,3,78,79,87,88,,,,,,,,,1.3,0.7,1.1*39
$GPGSA,A,3,15,29,30,34,,,,,,,,,1.3,0.7,1.1*3C
$GPGSA,A,3,12,23,24,25,34,44,,,,,,,1.3,0.7,1.1*33
$GPGST,143102.00,6.081,1.651,0.895,352.381,1.641,0.914,2.658*53
$GPGBS,143102.00,6.809,3.383,12.484,29,0.0001,20.809,6.505*52
$GPGRS,143102.00,1,-0.0,-1.3,0.2,0.3,1.0,0.3,-1.1,,,,,*49
$GPGRS,143102.00,1,-2.0,0.5,-4.6,1.9,,,,,,,,*46
$GPGRS,143102.00,1,-2.2,20.8,-0.7,1.7,,,,,,,,*70
$GPGRS,143102.00,1,0.6,1.2,-4.0,-4.4,-1.8,-1.7,,,,,,*45
$GPGSV,4,1,14,25,81,338,47,32,21,257,37,06,18,038,21,31,14,316,42*78
$GPGSV,4,2,14,24,13,158,22,11,38,073,49,28,39,306,46,29,53,224,47*7D
$GPGSV,4,3,14,12,50,087,38,20,05,096,,36,35,170,35,34,31,208,35*7B
$GPGSV,4,4,14,49,34,195,36,61,03,257,*7A
$GLGSV,2,1,08,78,76,051,49,70,11,345,,69,14,283,34,81,23,189,28*6A
$GLGSV,2,2,08,77,22,115,31,87,32,035,40,79,37,313,41,88,68,132,44*66
$GAGSV,3,1,11,30,70,072,48,15,22,161,37,19,15,323,29,07,16,222,20*64
$GAGSV,3,2,11,02,18,093,30,36,25,043,31,29,28,277,35,18,29,062,*6F
$GAGSV,3,3,11,34,44,104,45,27,51,290,35,21,01,280,*5F
$GBGSV,5,1,20,12,69,125,44,35,14,044,19,13,10,094,,11,30,197,*6E
$GBGSV,5,2,20,23,15,304,40,43,21,223,,05,20,130,31,38,14,072,*63
$GBGSV,5,3,20,08,11,086,,56,22,055,,10,15,068,22,34,53,186,44*6F
$GBGSV,5,4,20,24,53,130,40,44,56,070,48,25,67,296,41,07,02,067,*6C
$GBGSV,5,5,20,02,05,108,,26,05,127,,32,05,312,25,60,09,110,*6E
$GPGGA,143102.00,,,,,0,00,,,M,,M,,*4D
$PTNL,GGK,143102.00,010125,4742.4462482,N,01617.9738467,E,1,21,1.3,EHT669.4413,M*4B
$GPGGQ,143102.00,010125,4742.4462482,N,01617.9738467,E,1,21,3.255,626.2303,M*3D
$GPGFA,143102.00,15.701,21.793,1.651,0.895,352.381,2.658,,VVV*0A
$GPLLK,143102.00,010125,,M,,M,1,21,1.5,,M*09
$GNGMP,143102.00,,,,,DAAA,21,0.7,,,,*57
$GPGMP,143102.00,,,,,,07,,,,2.7,123*7A
$GLGMP,143102.00,,,,,,04,,,,,*7E
$GAGMP,143102.00,,,,,,04,,,,,*73
$GBGMP,143102.00,,,,,,06,,,,,*72
$PSSN,SNC,[0,311480000,2347]*4B
$GPZDA,143107.00,01,01,2025,,*63
$GPDTM,W84,,00.0000000,N,00.0000000,E,00.0000000,W84*5F
$GPRMC,143107.00,A,4742.4462483,N,01617.9738617,E,0.0,,010125,5.1,E,D*17
$GPGLL,4742.4462483,N,01617.9738617,E,143107.00,A,D*66
$GPGGA,143107.00,4742.4462483,N,01617.9738617,E,2,22,0.7,626.2228,M,43.2110,M,2.6,0123*45
$GNGNS,143107.00,4742.4462483,N,01617.9738617,E,DAAA,22,0.7,626.2228,43.2110,,*5D
$GPGNS,143107.00,,,,,,07,,,,2.6,123*7E
$GLGNS,143107.00,,,,,,04,,,,,*7B
$GAGNS,143107.00,,,,,,05,,,,,*77
$GBGNS,143107.00,,,,,,06,,,,,*77
$GPLLQ,143107.00,010125,,M,,M,1,22,3.821,,M*19
$GPVTG,,T,,M,0.01,N,0.01,K,D*26
$GPHDT,,T*1B
$GPTHS,,V*0E
$GPROT,,V*08
$PSSN,HRP,143107.00,010125,,,,,,,00,0,,*61
$PTNL,AVR,143107.00,,Yaw,,Tilt,,,,0,,00*37
$GPGSA,A,3,11,12,25,28,29,31,32,,,,,,1.3,0.7,1.1*31
$GPGSA,A,3,78,79,87,88,,,,,,,,,1.3,0.7,1.1*39
$GPGSA,A,3,15,27,29,30,34,,,,,,,,1.3,0.7,1.1*39
$GPGSA,A,3,12,23,24,25,34,44,,,,,,,1.3,0.7,1.1*33
$GPGST,143107.00,6.739,1.949,1.047,353.165,1.939,1.066,3.116*5A
$GPGBS,143107.00,6.856,3.385,12.166,29,0.0001,23.557,6.505*57
$GPGRS,143107.00,1,-0.1,-2.0,0.3,0.7,1.3,-0.5,-0.7,,,,,*67
$GPGRS,143107.00,1,-2.4,1.1,-5.1,-0.3,,,,,,,,*62
$GPGRS,143107.00,1,-2.0,6.2,23.6,-0.7,1.1,,,,,,,*56
$GPGRS,143107.00,1,0.4,1.4,-2.6,-5.3,-0.1,-1.9,,,,,,*44
$GPGSV,4,1,14,25,81,338,46,32,21,257,36,06,17,038,28,31,14,316,41*7D
$GPGSV,4,2,14,24,13,158,22,11,38,073,49,28,39,306,46,29,53,224,47*7D
$GPGSV,4,3,14,12,50,087,36,20,05,096,,36,35,170,35,34,31,208,35*75
$GPGSV,4,4,14,49,34,195,36,61,03,257,*7A
$GLGSV,2,1,08,78,76,051,47,70,11,345,,69,14,283,33,81,23,189,32*68
$GLGSV,2,2,08,77,22,115,33,87,32,035,39,79,37,313,43,88,68,132,44*68
$GAGSV,3,1,11,30,70,072,48,15,22,161,38,07,16,222,34,19,15,323,29*6E
$GAGSV,3,2,11,02,18,093,29,36,25,043,31,29,28,277,36,18,29,062,*64
$GAGSV,3,3,11,34,44,104,44,27,51,290,36,21,01,280,*5D
$GBGSV,5,1,20,12,69,125,44,35,14,044,20,13,10,094,,11,30,197,*64
$GBGSV,5,2,20,23,15,304,40,43,21,223,,05,20,130,31,38,14,072,*63
$GBGSV,5,3,20,08,11,086,,56,22,055,,10,15,068,23,34,53,186,45*6F
$GBGSV,5,4,20,24,53,130,41,44,56,070,48,25,67,296,42,07,02,067,*6E
$GBGSV,5,5,20,02,05,108,,26,05,127,,32,05,312,22,60,09,110,*69
$GPGGA,143107.00,,,,,0,00,,,M,,M,,*48
$PTNL,GGK,143107.00,010125,4742.4462483,N,01617.9738617,E,1,22,1.3,EHT669.4339,M*46
$GPGGQ,143107.00,010125,4742.4462483,N,01617.9738617,E,1,22,3.821,626.2228,M*3E
$GPGFA,143107.00,18.528,25.548,1.949,1.047,353.165,3.116,,VVV*0E
$GPLLK,143107.00,010125,,M,,M,1,22,1.5,,M*0F
$GNGMP,143107.00,,,,,DAAA,22,0.7,,,,*51
$GPGMP,143107.00,,,,,,07,,,,2.6,123*7E
$GLGMP,143107.00,,,,,,04,,,,,*7B
$GAGMP,143107.00,,,,,,05,,,,,*77
$GBGMP,143107.00,,,,,,06,,,,,*77
$PSSN,SNC,[0,311485000,2347]*4E
$GPZDA,143112.00,01,01,2025,,*67
$GPDTM,W84,,00.0000000,N,00.0000000,E,00.0000000,W84*5F
$GPRMC,143112.00,A,4742.4462507,N,01617.9738763,E,0.0,,010125,5.1,E,D*1C
$GPGLL,4742.4462507,N,01617.9738763,E,143112.00,A,D*6D
$GPGGA,143112.00,4742.4462507,N,01617.9738763,E,2,21,0.7,626.2288,M,43.2110,M,1.7,0123*45
$GNGNS,143112.00,4742.4462507,N,01617.9738763,E,DAAA,21,0.7,626.2288,43.2110,,*5F
$GPGNS,143112.00,,,,,,06,,,,1.7,123*79
$GLGNS,143112.00,,,,,,04,,,,,*7F
$GAGNS,143112.00,,,,,,05,,,,,*73
$GBGNS,143112.00,,,,,,06,,,,,*73
$GPLLQ,143112.00,010125,,M,,M,1,21,3.542,,M*16
$GPVTG,,T,,M,0.01,N,0.01,K,D*26
$GPHDT,,T*1B
$GPTHS,,V*0E
$GPROT,,V*08
$PSSN,HRP,143112.00,010125,,,,,,,00,0,,*65
$PTNL,AVR,143112.00,,Yaw,,Tilt,,,,0,,00*33
$GPGSA,A,3,11,25,28,29,31,32,,,,,,,1.3,0.7,1.1*32
$GPGSA,A,3,78,79,87,88,,,,,,,,,1.3,0.7,1.1*39
$GPGSA,A,3,15,27,29,30,34,,,,,,,,1.3,0.7,1.1*39
$GPGSA,A,3,12,23,24,25,34,44,,,,,,,1.3,0.7,1.1*33
$GPGST,143112.00,10.602,1.794,1.175,344.408,1.757,1.230,2.818*67
$GPGBS,143112.00,6.977,6.394,11.681,29,0.0001,23.425,6.504*5C
$GPGRS,143112.00,1,-0.4,-0.3,0.1,1.2,-0.1,-0.2,,,,,,*4C
$GPGRS,143112.00,1,-2.8,-0.1,-6.4,-1.9,,,,,,,,*4B
$GPGRS,143112.00,1,-2.4,6.0,23.4,-1.1,0.4,,,,,,,*55
$GPGRS,143112.00,1,-0.5,29.8,-2.8,-5.0,0.6,-3.0,,,,,,*76
$GPGSV,4,1,14,25,81,338,46,32,21,257,35,06,17,038,26,31,14,316,40*71
$GPGSV,4,2,14,24,13,158,23,11,38,073,48,28,39,305,46,29,53,224,45*7C
$GPGSV,4,3,14,12,50,087,34,20,05,096,,36,35,170,35,34,31,208,35*77
$GPGSV,4,4,14,49,34,195,36,61,03,257,*7A
$GLGSV,2,1,08,78,76,051,47,70,11,345,,69,14,283,30,81,23,189,35*6C
$GLGSV,2,2,08,77,22,115,34,87,32,035,36,79,37,313,44,88,68,132,44*67
$GAGSV,3,1,11,30,70,072,48,15,22,161,37,07,16,222,34,19,15,323,29*61
$GAGSV,3,2,11,02,18,093,27,36,25,043,30,29,28,277,35,18,29,062,*68
$GAGSV,3,3,11,34,44,104,44,27,51,290,36,21,01,280,*5D
$GBGSV,5,1,20,12,69,125,44,35,14,044,21,13,10,094,,11,30,197,*65
$GBGSV,5,2,20,23,15,304,35,43,21,223,,05,20,130,31,38,14,072,*61
$GBGSV,5,3,20,08,11,086,,56,22,055,,10,15,068,23,34,53,186,45*6F
$GBGSV,5,4,20,24,53,130,42,44,56,070,47,25,67,296,43,07,02,067,*63
$GBGSV,5,5,20,02,05,108,,26,05,127,,32,05,312,31,60,09,110,*6B
$GPGGA,143112.00,,,,,0,00,,,M,,M,,*4C
$PTNL,GGK,143112.00,010125,4742.4462507,N,01617.9738763,E,1,21,1.3,EHT669.4398,M*45
$GPGGQ,143112.00,010125,4742.4462507,N,01617.9738763,E,1,21,3.542,626.2288,M*34
$GPGFA,143112.00,17.058,23.111,1.794,1.175,344.408,2.818,,VVV*09
$GPLLK,143112.00,010125,,M,,M,1,21,1.5,,M*08
$GNGMP,143112.00,,,,,DAAA,21,0.7,,,,*56
$GPGMP,143112.00,,,,,,06,,,,1.7,123*79
$GLGMP,143112.00,,,,,,04,,,,,*7F
$GAGMP,143112.00,,,,,,05,,,,,*73
$GBGMP,143112.00,,,,,,06,,,,,*73
$PSSN,SNC,[0,311490000,2347]*4A
$GPZDA,143117.00,01,01,2025,,*62
$GPDTM,W84,,00.0000000,N,00.0000000,E,00.0000000,W84*5F
$GPRMC,143117.00,A,4742.4462578,N,01617.9738822,E,0.0,,010125,5.1,E,D*1B
$GPGLL,4742.4462578,N,01617.9738822,E,143117.00,A,D*6A
$GPGGA,143117.00,4742.4462578,N,01617.9738822,E,2,20,0.7,626.2292,M,43.2110,M,2.2,0123*4E
$GNGNS,143117.00,4742.4462578,N,01617.9738822,E,DAAA,20,0.7,626.2292,43.2110,,*52
$GPGNS,143117.00,,,,,,05,,,,2.2,123*79
$GLGNS,143117.00,,,,,,05,,,,,*7B
$GAGNS,143117.00,,,,,,04,,,,,*77
$GBGNS,143117.00,,,,,,06,,,,,*76
$GPLLQ,143117.00,010125,,M,,M,1,20,3.402,,M*17
$GPVTG,,T,,M,0.01,N,0.01,K,D*26
$GPHDT,,T*1B
$GPTHS,,V*0E
$GPROT,,V*08
$PSSN,HRP,143117.00,010125,,,,,,,00,0,,*60
$PTNL,AVR,143117.00,,Yaw,,Tilt,,,,0,,00*36
$GPGSA,A,3,11,25,28,29,31,,,,,,,,1.3,0.7,1.0*32
$GPGSA,A,3,78,79,81,87,88,,,,,,,,1.3,0.7,1.0*31
$GPGSA,A,3,15,27,30,34,,,,,,,,,1.3,0.7,1.0*33
$GPGSA,A,3,12,23,24,25,34,44,,,,,,,1.3,0.7,1.0*32
$GPGST,143117.00,5.958,1.562,1.078,352.598,1.555,1.088,2.824*50
$GPGBS,143117.00,8.531,6.395,14.718,81,0.0001,17.756,6.483*50
$GPGRS,143117.00,1,-0.3,-0.0,-0.3,0.7,0.6,,,,,,,*4D
$GPGRS,143117.00,1,-2.6,-1.2,17.8,-7.7,-1.4,,,,,,,*5D
$GPGRS,143117.00,1,-2.9,5.3,-1.6,-0.3,,,,,,,,*6B
$GPGRS,143117.00,1,-0.8,0.4,-3.0,-3.8,0.6,-3.6,,,,,,*48
$GPGSV,4,1,14,25,81,339,45,32,21,257,33,06,17,038,36,31,14,316,39*7A
$GPGSV,4,2,14,24,13,158,22,11,38,073,49,28,39,305,46,29,53,224,45*7C
$GPGSV,4,3,14,12,50,087,33,20,06,096,,36,35,170,35,34,31,208,35*73
$GPGSV,4,4,14,49,34,195,36,61,03,257,*7A
$GLGSV,2,1,08,78,76,052,46,70,11,345,,69,14,283,31,81,23,189,36*6C
$GLGSV,2,2,08,77,22,115,33,87,32,035,36,79,37,313,45,88,68,132,46*63
$GAGSV,3,1,11,30,70,072,48,15,22,161,37,07,16,222,33,19,15,323,28*67
$GAGSV,3,2,11,02,18,093,25,36,24,043,27,29,28,277,34,18,28,062,*6D
$GAGSV,3,3,11,34,44,104,43,27,51,290,36,21,01,280,*5A
$GBGSV,5,1,20,12,69,124,44,35,14,044,23,13,10,094,,11,30,197,*66
$GBGSV,5,2,20,23,15,304,33,43,21,223,,05,20,130,31,38,14,072,*67
$GBGSV,5,3,20,08,11,086,,56,22,055,,10,15,068,22,34,53,186,45*6E
$GBGSV,5,4,20,24,53,130,43,44,56,070,47,25,67,296,44,07,02,067,*65
$GBGSV,5,5,20,02,05,108,,26,05,127,,32,05,312,31,60,09,110,*6B
$GPGGA,143117.00,,,,,0,00,,,M,,M,,*49
$PTNL,GGK,143117.00,010125,4742.4462578,N,01617.9738822,E,1,20,1.3,EHT669.4402,M*47
$GPGGQ,143117.00,010125,4742.4462578,N,01617.9738822,E,1,20,3.402,626.2292,M*3C
$GPGFA,143117.00,14.848,23.153,1.562,1.078,352.598,2.824,,VVV*07
$GPLLK,143117.00,010125,,M,,M,1,20,1.5,,M*0C
$GNGMP,143117.00,,,,,DAAA,20,0.7,,,,*52
$GPGMP,143117.00,,,,,,05,,,,2.2,123*79
$GLGMP,143117.00,,,,,,05,,,,,*7B
$GAGMP,143117.00,,,,,,04,,,,,*77
$GBGMP,143117.00,,,,,,06,,,,,*76
$PSSN,SNC,[0,311495000,2347]*4F
$GPZDA,143122.00,01,01,2025,,*64
$GPDTM,W84,,00.0000000,N,00.0000000,E,00.0000000,W84*5F
$GPRMC,143122.00,A,4742.4462662,N,01617.9738893,E,0.0,,010125,5.1,E,D*1F
$GPGLL,4742.4462662,N,01617.9738893,E,143122.00,A,D*6E
$GPGGA,143122.00,4742.4462662,N,01617.9738893,E,2,19,0.7,626.2400,M,43.2110,M,3.2,0123*4C
$GNGNS,143122.00,4742.4462662,N,01617.9738893,E,DAAA,19,0.7,626.2400,43.2110,,*51
$GPGNS,143122.00,,,,,,05,,,,3.2,123*7E
$GLGNS,143122.00,,,,,,05,,,,,*7D
$GAGNS,143122.00,,,,,,04,,,,,*71
$GBGNS,143122.00,,,,,,05,,,,,*73
$GPLLQ,143122.00,010125,,M,,M,1,19,3.580,,M*10
$GPVTG,,T,,M,0.01,N,0.02,K,D*25
$GPHDT,,T*1B
$GPTHS,,V*0E
$GPROT,,V*08
$PSSN,HRP,143122.00,010125,,,,,,,00,0,,*66
$PTNL,AVR,143122.00,,Yaw,,Tilt,,,,0,,00*30
$GPGSA,A,3,11,25,28,29,31,,,,,,,,1.3,0.7,1.1*33
$GPGSA,A,3,78,79,81,87,88,,,,,,,,1.3,0.7,1.1*30
$GPGSA,A,3,15,27,30,34,,,,,,,,,1.3,0.7,1.1*32
$GPGSA,A,3,12,24,25,34,44,,,,,,,,1.3,0.7,1.1*32
$GPGST,143122.00,6.355,1.646,1.123,352.797,1.639,1.133,2.974*59
$GPGBS,143122.00,8.604,6.467,14.992,81,0.0001,17.880,6.480*52
$GPGRS,143122.00,1,-0.8,-0.2,-0.3,0.9,-0.2,,,,,,,*65
$GPGRS,143122.00,1,-3.3,-0.2,17.9,-8.9,-0.3,,,,,,,*58
$GPGRS,143122.00,1,-2.9,5.6,-1.7,-0.6,,,,,,,,*6C
$GPGRS,143122.00,1,-0.9,-3.3,-1.0,1.3,-3.9,,,,,,,*67
$GPGSV,4,1,14,25,81,339,45,32,21,257,29,06,17,038,37,31,14,316,37*7E
$GPGSV,4,2,14,24,13,158,22,11,38,073,48,28,39,305,47,29,53,224,45*7C
$GPGSV,4,3,14,12,50,087,34,20,06,096,,36,35,170,35,34,31,208,35*74
$GPGSV,4,4,14,49,34,195,36,61,03,257,*7A
$GLGSV,2,1,08,78,76,052,44,70,11,345,,69,14,283,27,81,23,189,36*69
$GLGSV,2,2,08,77,22,115,33,87,32,035,38,79,37,313,46,88,68,132,45*6D
$GAGSV,3,1,11,30,70,072,48,15,22,161,37,07,16,222,32,19,15,323,27*69
$GAGSV,3,2,11,02,18,094,22,36,24,043,23,29,28,277,33,18,28,062,*6E
$GAGSV,3,3,11,34,44,103,42,27,51,290,37,21,01,280,*5D
$GBGSV,5,1,20,12,69,124,44,35,14,044,24,13,10,094,,11,30,197,*61
$GBGSV,5,2,20,23,15,304,30,43,21,223,,05,20,130,31,38,14,072,*64
$GBGSV,5,3,20,08,11,086,,56,22,055,,10,15,068,23,34,53,186,45*6F
$GBGSV,5,4,20,24,53,130,44,44,56,070,48,25,67,296,45,07,02,067,*6C
$GBGSV,5,5,20,02,05,108,,26,05,127,,32,05,312,31,60,09,110,*6B
$GPGGA,143122.00,,,,,0,00,,,M,,M,,*4F
$PTNL,GGK,143122.00,010125,4742.4462662,N,01617.9738893,E,1,19,1.3,EHT669.4510,M*4B
$GPGGQ,143122.00,010125,4742.4462662,N,01617.9738893,E,1,19,3.580,626.2400,M*34
$GPGFA,143122.00,15.652,24.389,1.646,1.123,352.797,2.974,,VVV*04
$GPLLK,143122.00,010125,,M,,M,1,19,1.6,,M*03
$GNGMP,143122.00,,,,,DAAA,19,0.7,,,,*5E
$GPGMP,143122.00,,,,,,05,,,,3.2,123*7E
$GLGMP,143122.00,,,,,,05,,,,,*7D
$GAGMP,143122.00,,,,,,04,,,,,*71
$GBGMP,143122.00,,,,,,05,,,,,*73
$PSSN,SNC,[0,311500000,2347]*42
$GPZDA,143127.00,01,01,2025,,*61
$GPDTM,W84,,00.0000000,N,00.0000000,E,00.0000000,W84*5F
$GPRMC,143127.00,A,4742.4462743,N,01617.9738938,E,0.0,,010125,5.1,E,D*18
$GPGLL,4742.4462743,N,01617.9738938,E,143127.00,A,D*69
$GPGGA,143127.00,4742.4462743,N,01617.9738938,E,2,19,0.7,626.2360,M,43.2110,M,2.3,0123*4A
$GNGNS,143127.00,4742.4462743,N,01617.9738938,E,DAAA,19,0.7,626.2360,43.2110,,*57
$GPGNS,143127.00,,,,,,04,,,,2.3,123*7A
$GLGNS,143127.00,,,,,,05,,,,,*78
$GAGNS,143127.00,,,,,,04,,,,,*74
$GBGNS,143127.00,,,,,,06,,,,,*75
$GPLLQ,143127.00,010125,,M,,M,1,19,4.432,,M*1A
$GPVTG,,T,,M,0.00,N,0.01,K,D*27
$GPHDT,,T*1B
$GPTHS,,V*0E
$GPROT,,V*08
$PSSN,HRP,143127.00,010125,,,,,,,00,0,,*63
$PTNL,AVR,143127.00,,Yaw,,Tilt,,,,0,,00*35
$GPGSA,A,3,11,25,28,29,,,,,,,,,1.3,0.7,1.1*31
$GPGSA,A,3,78,79,81,87,88,,,,,,,,1.3,0.7,1.1*30
$GPGSA,A,3,15,27,30,34,,,,,,,,,1.3,0.7,1.1*32
$GPGSA,A,3,12,23,24,25,34,44,,,,,,,1.3,0.7,1.1*33
$GPGST,143127.00,6.753,1.880,1.270,349.330,1.862,1.296,3.808*5B
$GPGBS,143127.00,8.735,6.158,17.513,81,0.0001,20.068,6.488*59
$GPGRS,143127.00,1,-0.9,-0.5,-0.2,0.9,,,,,,,,*66
$GPGRS,143127.00,1,-3.1,2.6,20.1,-6.9,-2.2,,,,,,,*75
$GPGRS,143127.00,1,-2.9,6.3,-1.5,-1.0,,,,,,,,*6A
$GPGRS,143127.00,1,0.0,-0.6,-3.0,-0.3,1.3,-3.3,,,,,,*48
$GPGSV,4,1,14,25,81,339,44,32,21,257,33,06,17,038,37,31,14,316,34*77
$GPGSV,4,2,14,24,13,158,22,11,38,073,47,28,39,305,48,29,53,224,46*7F
$GPGSV,4,3,14,12,50,087,35,20,06,096,,36,35,170,36,34,31,208,35*76
$GPGSV,4,4,14,49,34,195,36,61,03,257,*7A
$GLGSV,2,1,08,78,76,052,44,70,11,345,,69,14,283,29,81,23,189,35*64
$GLGSV,2,2,08,77,22,115,33,87,32,035,39,79,37,313,46,88,68,132,44*6D
$GAGSV,3,1,11,30,70,072,48,15,22,161,36,07,16,222,31,19,15,322,27*6A
$GAGSV,3,2,11,02,18,094,23,36,24,043,32,29,28,277,31,18,28,062,*6D
$GAGSV,3,3,11,34,44,103,42,27,51,290,37,21,01,280,*5D
$GBGSV,5,1,20,12,69,124,44,35,14,044,25,13,10,094,,11,30,197,*60
$GBGSV,5,2,20,23,15,304,26,43,21,223,,05,20,130,31,38,14,072,*63
$GBGSV,5,3,20,08,11,086,,56,22,055,,10,15,068,21,34,54,186,44*6B
$GBGSV,5,4,20,24,53,130,43,44,56,070,48,25,67,296,44,07,02,067,*6A
$GBGSV,5,5,20,02,05,108,,26,05,127,,32,05,312,30,60,09,110,*6A
$GPGGA,143127.00,,,,,0,00,,,M,,M,,*4A
$PTNL,GGK,143127.00,010125,4742.4462743,N,01617.9738938,E,1,19,1.3,EHT669.4470,M*4B
$GPGGQ,143127.00,010125,4742.4462743,N,01617.9738938,E,1,19,4.432,626.2360,M*3D
$GPGFA,143127.00,17.875,31.222,1.880,1.270,349.330,3.808,,VVV*05
$GPLLK,143127.00,010125,,M,,M,1,19,1.6,,M*06
$GNGMP,143127.00,,,,,DAAA,19,0.7,,,,*5B
$GPGMP,143127.00,,,,,,04,,,,2.3,123*7A
$GLGMP,143127.00,,,,,,05,,,,,*78
$GAGMP,143127.00,,,,,,04,,,,,*74
$GBGMP,143127.00,,,,,,06,,,,,*75
$PSSN,SNC,[0,311505000,2347]*47
$GPZDA,143132.00,01,01,2025,,*65
$GPDTM,W84,,00.0000000,N,00.0000000,E,00.0000000,W84*5F
$GPRMC,143132.00,A,4742.4462782,N,01617.9739024,E,0.0,,010125,5.1,E,D*14
$GPGLL,4742.4462782,N,01617.9739024,E,143132.00,A,D*65
$GPGGA,143132.00,4742.4462782,N,01617.9739024,E,2,19,0.8,626.2325,M,43.2110,M,2.0,0123*4B
$GNGNS,143132.00,4742.4462782,N,01617.9739024,E,DAAA,19,0.8,626.2325,43.2110,,*55
$GPGNS,143132.00,,,,,,05,,,,2.0,123*7C
$GLGNS,143132.00,,,,,,04,,,,,*7D
$GAGNS,143132.00,,,,,,04,,,,,*70
$GBGNS,143132.00,,,,,,06,,,,,*71
$GPLLQ,143132.00,010125,,M,,M,1,19,2.738,,M*11
$GPVTG,,T,,M,0.01,N,0.02,K,D*25
$GPHDT,,T*1B
$GPTHS,,V*0E
$GPROT,,V*08
$PSSN,HRP,143132.00,010125,,,,,,,00,0,,*67
$PTNL,AVR,143132.00,,Yaw,,Tilt,,,,0,,00*31
$GPGSA,A,3,11,25,28,29,32,,,,,,,,1.4,0.8,1.1*38
$GPGSA,A,3,78,79,87,88,,,,,,,,,1.4,0.8,1.1*31
$GPGSA,A,3,15,27,30,34,,,,,,,,,1.4,0.8,1.1*3A
$GPGSA,A,3,12,23,24,25,34,44,,,,,,,1.4,0.8,1.1*3B
$GPGST,143132.00,3.967,1.390,0.853,344.396,1.358,0.902,2.200*54
$GPGBS,143132.00,7.729,6.386,12.464,32,0.0001,2.649,1.532*60
$GPGRS,143132.00,1,-0.9,-0.2,-0.2,0.7,2.6,,,,,,,*41
$GPGRS,143132.00,1,-2.3,5.1,-7.0,-3.8,,,,,,,,*6C
