$GPZDA,211442.00,01,01,2025,,*63
$GPDTM,W84,,00.0000000,N,00.0000000,E,00.0000000,W84*5F
$GPRMC,211442.00,A,4742.4458781,N,01617.9732872,E,0.0,,010125,5.1,E,D*18
$GPGLL,4742.4458781,N,01617.9732872,E,211442.00,A,D*69
$GPGGA,211442.00,4742.4458781,N,01617.9732872,E,2,20,0.7,625.2047,M,43.2110,M,2.5,0123*43
$GNGNS,211442.00,4742.4458781,N,01617.9732872,E,DAAA,20,0.7,625.2047,43.2110,,*58
$GPGNS,211442.00,,,,,,06,,,,2.5,123*7C
$GLGNS,211442.00,,,,,,04,,,,,*7B
$GAGNS,211442.00,,,,,,04,,,,,*76
$GBGNS,211442.00,,,,,,06,,,,,*77
$GPLLQ,211442.00,010125,,M,,M,1,20,4.025,,M*10
$GPVTG,,T,,M,0.01,N,0.01,K,D*26
$GPHDT,,T*1B
$GPTHS,,V*0E
$GPROT,,V*08
$PSSN,HRP,211442.00,010125,,,,,,,00,0,,*61
$PTNL,AVR,211442.00,,Yaw,,Tilt,,,,0,,00*37
$GPGSA,A,3,08,10,16,21,27,32,,,,,,,1.4,0.7,1.2*3A
$GPGSA,A,3,68,75,83,84,,,,,,,,,1.4,0.7,1.2*38
$GPGSA,A,3,13,21,31,33,,,,,,,,,1.4,0.7,1.2*30
$GPGSA,A,3,05,14,27,28,33,41,,,,,,,1.4,0.7,1.2*39
$GPGST,211442.00,3.958,2.388,0.978,25.086,2.202,1.345,3.090*65
$GPGBS,211442.00,6.780,4.104,10.525,32,0.0001,3.186,1.005*6C
$GPGRS,211442.00,1,-1.5,-0.3,0.7,1.6,-0.9,3.2,,,,,,*6C
$GPGRS,211442.00,1,6.8,7.6,0.4,-5.4,,,,,,,,*69
$GPGRS,211442.00,1,-1.5,-0.1,-2.4,2.8,,,,,,,,*6A
$GPGRS,211442.00,1,0.4,-1.5,-3.3,-0.4,0.1,4.9,,,,,,*6B
$GPGSV,4,1,13,10,71,079,51,16,17,194,36,32,23,134,36,02,20,275,30*7B
$GPGSV,4,2,13,23,30,050,36,21,40,280,36,27,70,159,49,08,67,288,46*7C
$GPGSV,4,3,13,18,02,083,,36,35,170,41,34,31,208,,49,34,195,36*71
$GPGSV,4,4,13,61,03,257,*4F
$GLGSV,3,1,10,68,54,091,46,69,30,158,31,67,25,032,34,75,23,317,41*62
$GLGSV,3,2,10,74,24,260,,83,45,076,37,84,53,317,42,73,04,222,*60
$GLGSV,3,3,10,82,08,097,,85,06,291,23*68
$GAGSV,3,1,10,14,76,201,,07,19,134,25,33,24,269,38,03,10,030,22*63
$GAGSV,3,2,10,31,26,312,36,21,19,196,37,08,28,079,25,23,43,251,*61
$GAGSV,3,3,10,13,46,069,38,26,72,299,32*6F
$GBGSV,5,1,20,28,78,087,50,41,34,172,40,58,15,255,,08,16,042,25*65
$GBGSV,5,2,20,05,23,128,36,60,11,108,,42,22,042,29,43,15,111,*62
$GBGSV,5,3,20,13,24,046,20,46,15,273,,57,36,239,,27,52,298,42*63
$GBGSV,5,4,20,14,43,062,47,33,56,101,48,30,04,294,35,36,09,322,32*62
$GBGSV,5,5,20,50,01,030,,37,02,224,,02,08,105,,38,03,046,*68
$GPGGA,211442.00,,,,,0,00,,,M,,M,,*48
$PTNL,GGK,211442.00,010125,4742.4458781,N,01617.9732872,E,1,20,1.4,EHT668.4157,M*47
$GPGGQ,211442.00,010125,4742.4458781,N,01617.9732872,E,1,20,4.025,625.2047,M*30
$GPGFA,211442.00,22.701,25.336,2.388,0.978,25.086,3.090,,VVV*30
$GPLLK,211442.00,010125,,M,,M,1,20,1.6,,M*0E
$GNGMP,211442.00,,,,,DAAA,20,0.7,,,,*53
$GPGMP,211442.00,,,,,,06,,,,2.5,123*7C
$GLGMP,211442.00,,,,,,04,,,,,*7B
$GAGMP,211442.00,,,,,,04,,,,,*76
$GBGMP,211442.00,,,,,,06,,,,,*77
$PSSN,SNC,[0,335700000,2347]*46
$GPZDA,211447.00,01,01,2025,,*66
$GPDTM,W84,,00.0000000,N,00.0000000,E,00.0000000,W84*5F
$GPRMC,211447.00,A,4742.4458861,N,01617.9732804,E,0.0,,010125,5.1,E,D*1D
$GPGLL,4742.4458861,N,01617.9732804,E,211447.00,A,D*6C
$GPGGA,211447.00,4742.4458861,N,01617.9732804,E,2,19,0.7,625.2486,M,43.2110,M,2.2,0123*42
$GNGNS,211447.00,4742.4458861,N,01617.9732804,E,DAAA,19,0.7,625.2486,43.2110,,*5E
$GPGNS,211447.00,,,,,,05,,,,2.2,123*7D
$GLGNS,211447.00,,,,,,04,,,,,*7E
$GAGNS,211447.00,,,,,,04,,,,,*73
$GBGNS,211447.00,,,,,,06,,,,,*72
$GPLLQ,211447.00,010125,,M,,M,1,19,3.978,,M*19
$GPVTG,,T,,M,0.00,N,0.01,K,D*27
$GPHDT,,T*1B
$GPTHS,,V*0E
$GPROT,,V*08
$PSSN,HRP,211447.00,010125,,,,,,,00,0,,*64
$PTNL,AVR,211447.00,,Yaw,,Tilt,,,,0,,00*32
$GPGSA,A,3,08,10,16,21,27,,,,,,,,1.4,0.7,1.2*3B
$GPGSA,A,3,68,75,83,84,,,,,,,,,1.4,0.7,1.2*38
$GPGSA,A,3,13,21,31,33,,,,,,,,,1.4,0.7,1.2*30
$GPGSA,A,3,05,14,27,28,33,41,,,,,,,1.4,0.7,1.2*39
$GPGST,211447.00,3.207,2.120,0.852,36.159,1.784,1.428,3.256*65
$GPGBS,211447.00,7.904,7.616,13.270,21,0.0001,1.593,0.706*6C
$GPGRS,211447.00,1,-1.3,0.2,-0.1,1.6,-0.5,,,,,,,*4B
$GPGRS,211447.00,1,6.6,2.6,-1.6,-4.3,,,,,,,,*4F
$GPGRS,211447.00,1,-0.7,0.4,-1.4,2.3,,,,,,,,*4C
$GPGRS,211447.00,1,0.9,-1.8,-2.7,0.6,-0.2,5.2,,,,,,*60
$GPGSV,4,1,13,10,71,079,51,16,17,194,37,32,23,134,36,02,20,275,20*7B
$GPGSV,4,2,13,23,30,050,35,21,40,280,36,27,70,159,49,08,67,288,45*7C
$GPGSV,4,3,13,18,02,083,,36,35,170,41,34,31,208,,49,34,195,36*71
$GPGSV,4,4,13,61,03,257,*4F
$GLGSV,3,1,10,68,54,091,47,69,30,158,28,67,25,032,,75,23,317,40*6D
$GLGSV,3,2,10,74,24,260,,83,45,076,36,84,53,317,42,73,04,222,*61
$GLGSV,3,3,10,82,08,097,,85,06,291,*69
$GAGSV,3,1,10,14,76,201,,07,19,134,23,33,24,269,38,03,10,030,31*67
$GAGSV,3,2,10,31,26,312,37,21,19,196,37,08,28,079,25,23,43,251,*60
$GAGSV,3,3,10,13,46,069,39,26,72,299,35*69
$GBGSV,5,1,20,28,78,087,49,41,34,172,39,58,15,255,,08,16,042,24*62
$GBGSV,5,2,20,05,23,128,36,60,11,108,,42,22,042,28,43,15,111,*63
$GBGSV,5,3,20,13,24,046,21,46,15,273,,57,36,239,,27,52,298,43*63
$GBGSV,5,4,20,14,42,062,47,33,56,101,47,30,04,294,35,36,09,322,28*67
$GBGSV,5,5,20,50,01,030,,37,02,224,,02,08,105,,38,03,046,*68
$GPGGA,211447.00,,,,,0,00,,,M,,M,,*4D
$PTNL,GGK,211447.00,010125,4742.4458861,N,01617.9732804,E,1,19,1.4,EHT668.4597,M*40
$GPGGQ,211447.00,010125,4742.4458861,N,01617.9732804,E,1,19,3.978,625.2486,M*30
$GPGFA,211447.00,20.161,26.699,2.120,0.852,36.159,3.256,,VVV*34
$GPLLK,211447.00,010125,,M,,M,1,19,1.6,,M*01
$GNGMP,211447.00,,,,,DAAA,19,0.7,,,,*5C
$GPGMP,211447.00,,,,,,05,,,,2.2,123*7D
$GLGMP,211447.00,,,,,,04,,,,,*7E
$GAGMP,211447.00,,,,,,04,,,,,*73
$GBGMP,211447.00,,,,,,06,,,,,*72
$PSSN,SNC,[0,335705000,2347]*43
$GPZDA,211452.00,01,01,2025,,*62
$GPDTM,W84,,00.0000000,N,00.0000000,E,00.0000000,W84*5F
$GPRMC,211452.00,A,4742.4458882,N,01617.9732784,E,0.0,,010125,5.1,E,D*13
$GPGLL,4742.4458882,N,01617.9732784,E,211452.00,A,D*62
$GPGGA,211452.00,4742.4458882,N,01617.9732784,E,2,19,0.7,625.2565,M,43.2111,M,3.0,0123*42
$GNGNS,211452.00,4742.4458882,N,01617.9732784,E,DAAA,19,0.7,625.2565,43.2111,,*5D
$GPGNS,211452.00,,,,,,04,,,,3.0,123*7B
$GLGNS,211452.00,,,,,,04,,,,,*7A
$GAGNS,211452.00,,,,,,05,,,,,*76
$GBGNS,211452.00,,,,,,06,,,,,*76
$GPLLQ,211452.00,010125,,M,,M,1,19,3.797,,M*12
$GPVTG,,T,,M,0.01,N,0.02,K,D*25
$GPHDT,,T*1B
$GPTHS,,V*0E
$GPROT,,V*08
$PSSN,HRP,211452.00,010125,,,,,,,00,0,,*60
$PTNL,AVR,211452.00,,Yaw,,Tilt,,,,0,,00*36
$GPGSA,A,3,08,10,16,27,,,,,,,,,1.2,0.7,1.0*3C
$GPGSA,A,3,68,75,83,84,,,,,,,,,1.2,0.7,1.0*3C
$GPGSA,A,3,13,21,26,31,33,,,,,,,,1.2,0.7,1.0*30
$GPGSA,A,3,05,14,27,28,33,42,,,,,,,1.2,0.7,1.0*3E
$GPGST,211452.00,3.736,1.892,1.105,24.179,1.784,1.272,3.101*66
$GPGBS,211452.00,10.323,7.393,16.879,08,0.0001,-1.072,0.604*70
$GPGRS,211452.00,1,-1.1,0.7,1.1,-0.2,,,,,,,,*4A
$GPGRS,211452.00,1,7.1,-6.5,-1.9,-3.4,,,,,,,,*68
$GPGRS,211452.00,1,0.3,0.2,-0.0,-1.1,3.0,,,,,,,*63
$GPGRS,211452.00,1,0.5,-1.9,-1.2,1.0,-1.5,6.2,,,,,,*6D
$GPGSV,4,1,13,10,71,079,51,16,17,194,37,32,23,134,34,02,20,276,*78
$GPGSV,4,2,13,23,30,050,35,21,40,280,35,27,70,159,50,08,67,288,45*77
$GPGSV,4,3,13,18,02,083,,36,35,170,41,34,31,208,,49,34,195,36*71
$GPGSV,4,4,13,61,03,257,*4F
$GLGSV,3,1,10,68,54,091,47,69,31,158,24,67,25,032,21,75,23,317,40*63
$GLGSV,3,2,10,74,24,260,29,83,44,076,35,84,53,317,42,73,04,222,*68
$GLGSV,3,3,10,82,08,097,,85,06,291,27*6C
$GAGSV,3,1,10,14,76,200,,07,19,134,24,33,24,269,38,03,10,030,31*61
$GAGSV,3,2,10,31,26,312,38,21,19,196,38,08,28,079,31,23,43,251,*65
$GAGSV,3,3,10,13,46,069,39,26,72,299,36*6A
$GBGSV,5,1,20,28,77,087,49,41,34,172,33,58,15,255,,08,16,042,23*60
$GBGSV,5,2,20,05,23,128,36,60,11,108,,42,22,042,36,43,15,111,*6C
$GBGSV,5,3,20,13,24,046,20,46,15,273,,57,36,240,,27,52,298,42*6D
$GBGSV,5,4,20,14,42,062,46,33,56,101,46,30,04,294,34,36,09,322,31*6E
$GBGSV,5,5,20,50,01,030,,37,02,224,,02,08,105,,38,03,046,*68
$GPGGA,211452.00,,,,,0,00,,,M,,M,,*49
$PTNL,GGK,211452.00,010125,4742.4458882,N,01617.9732784,E,1,19,1.2,EHT668.4675,M*47
$GPGGQ,211452.00,010125,4742.4458882,N,01617.9732784,E,1,19,3.797,625.2565,M*3D
$GPGFA,211452.00,17.984,25.428,1.892,1.105,24.179,3.101,,VVV*35
$GPLLK,211452.00,010125,,M,,M,1,19,1.4,,M*07
$GNGMP,211452.00,,,,,DAAA,19,0.7,,,,*58
$GPGMP,211452.00,,,,,,04,,,,3.0,123*7B
$GLGMP,211452.00,,,,,,04,,,,,*7A
$GAGMP,211452.00,,,,,,05,,,,,*76
$GBGMP,211452.00,,,,,,06,,,,,*76
$PSSN,SNC,[0,335710000,2347]*47
$GPZDA,211457.00,01,01,2025,,*67
$GPDTM,W84,,00.0000000,N,00.0000000,E,00.0000000,W84*5F
$GPRMC,211457.00,A,4742.4458957,N,01617.9732669,E,0.0,,010125,5.1,E,D*1D
$GPGLL,4742.4458957,N,01617.9732669,E,211457.00,A,D*6C
$GPGGA,211457.00,4742.4458957,N,01617.9732669,E,2,20,0.7,625.2780,M,43.2111,M,2.0,0123*4E
$GNGNS,211457.00,4742.4458957,N,01617.9732669,E,DAAA,20,0.7,625.2780,43.2111,,*50
$GPGNS,211457.00,,,,,,04,,,,2.0,123*7F
$GLGNS,211457.00,,,,,,04,,,,,*7F
$GAGNS,211457.00,,,,,,05,,,,,*73
$GBGNS,211457.00,,,,,,07,,,,,*72
$GPLLQ,211457.00,010125,,M,,M,1,20,3.843,,M*1B
$GPVTG,,T,,M,0.00,N,0.01,K,D*27
$GPHDT,,T*1B
$GPTHS,,V*0E
$GPROT,,V*08
$PSSN,HRP,211457.00,010125,,,,,,,00,0,,*65
$PTNL,AVR,211457.00,,Yaw,,Tilt,,,,0,,00*33
$GPGSA,A,3,08,10,16,27,,,,,,,,,1.2,0.7,1.0*3C
$GPGSA,A,3,68,75,83,84,,,,,,,,,1.2,0.7,1.0*3C
$GPGSA,A,3,13,21,26,31,33,,,,,,,,1.2,0.7,1.0*30
$GPGSA,A,3,05,14,27,28,33,41,42,,,,,,1.2,0.7,1.0*3B
$GPGST,211457.00,4.389,1.913,1.151,25.216,1.799,1.323,3.127*6B
$GPGBS,211457.00,9.607,7.422,15.800,75,0.0001,-10.066,6.159*78
$GPGRS,211457.00,1,-0.8,0.4,1.5,0.0,,,,,,,,*6F
$GPGRS,211457.00,1,6.6,-10.1,-1.7,-4.2,,,,,,,,*57
$GPGRS,211457.00,1,0.1,-0.1,0.7,-2.2,5.2,,,,,,,*64
$GPGRS,211457.00,1,0.4,-1.8,-1.4,1.0,-2.7,-2.5,5.4,,,,,*6E
$GPGSV,4,1,13,10,70,079,51,16,17,194,37,32,23,134,34,02,20,276,31*7B
$GPGSV,4,2,13,23,30,050,35,21,40,280,33,27,70,159,50,08,67,288,46*72
$GPGSV,4,3,13,18,02,083,,36,35,170,40,34,31,208,,49,34,195,36*70
$GPGSV,4,4,13,61,03,257,*4F
$GLGSV,3,1,10,68,54,091,47,69,31,158,20,67,25,032,25,75,23,317,41*62
$GLGSV,3,2,10,74,24,260,,83,44,076,35,84,53,317,42,73,04,222,*63
$GLGSV,3,3,10,82,08,097,,85,06,291,28*63
$GAGSV,3,1,10,14,76,200,,07,19,134,23,33,24,269,39,03,10,030,30*66
$GAGSV,3,2,10,31,26,312,38,21,19,196,39,08,28,079,33,23,42,251,*67
$GAGSV,3,3,10,13,46,069,40,26,72,299,38*6A
$GBGSV,5,1,20,28,77,088,49,41,34,172,36,58,15,255,,08,16,042,*6B
$GBGSV,5,2,20,05,23,128,35,60,11,108,,42,22,042,36,43,15,111,*6F
$GBGSV,5,3,20,13,24,046,20,46,15,273,,57,36,240,,27,52,298,42*6D
$GBGSV,5,4,20,14,42,062,46,33,56,101,44,30,04,294,35,36,09,322,32*6E
$GBGSV,5,5,20,50,01,030,,37,02,224,,02,08,105,,38,03,046,*68
$GPGGA,211457.00,,,,,0,00,,,M,,M,,*4C
$PTNL,GGK,211457.00,010125,4742.4458957,N,01617.9732669,E,1,20,1.2,EHT668.4891,M*47
$GPGGQ,211457.00,010125,4742.4458957,N,01617.9732669,E,1,20,3.843,625.2780,M*36
$GPGFA,211457.00,18.191,25.642,1.913,1.151,25.216,3.127,,VVV*3B
$GPLLK,211457.00,010125,,M,,M,1,20,1.4,,M*08
$GNGMP,211457.00,,,,,DAAA,20,0.7,,,,*57
$GPGMP,211457.00,,,,,,04,,,,2.0,123*7F
$GLGMP,211457.00,,,,,,04,,,,,*7F
$GAGMP,211457.00,,,,,,05,,,,,*73
$GBGMP,211457.00,,,,,,07,,,,,*72
$PSSN,SNC,[0,335715000,2347]*42
$GPZDA,211502.00,01,01,2025,,*66
$GPDTM,W84,,00.0000000,N,00.0000000,E,00.0000000,W84*5F
$GPRMC,211502.00,A,4742.4459018,N,01617.9732617,E,0.0,,010125,5.1,E,D*16
$GPGLL,4742.4459018,N,01617.9732617,E,211502.00,A,D*67
$GPGGA,211502.00,4742.4459018,N,01617.9732617,E,2,20,0.6,625.2806,M,43.2111,M,3.0,0123*44
$GNGNS,211502.00,4742.4459018,N,01617.9732617,E,DAAA,20,0.6,625.2806,43.2111,,*5B
$GPGNS,211502.00,,,,,,04,,,,3.0,123*7F
$GLGNS,211502.00,,,,,,04,,,,,*7E
$GAGNS,211502.00,,,,,,05,,,,,*72
$GBGNS,211502.00,,,,,,07,,,,,*73
$GPLLQ,211502.00,010125,,M,,M,1,20,3.192,,M*1F
$GPVTG,,T,,M,0.01,N,0.02,K,D*25
$GPHDT,,T*1B
$GPTHS,,V*0E
$GPROT,,V*08
$PSSN,HRP,211502.00,010125,,,,,,,00,0,,*64
$PTNL,AVR,211502.00,,Yaw,,Tilt,,,,0,,00*32
$GPGSA,A,3,08,10,16,27,,,,,,,,,1.2,0.6,1.0*3D
$GPGSA,A,3,68,69,75,84,,,,,,,,,1.2,0.6,1.0*39
$GPGSA,A,3,13,21,26,31,33,,,,,,,,1.2,0.6,1.0*31
$GPGSA,A,3,05,14,27,28,33,41,42,,,,,,1.2,0.6,1.0*3A
$GPGST,211502.00,4.336,1.591,0.989,28.469,1.476,1.154,2.584*6B
$GPGBS,211502.00,9.282,7.663,15.472,75,0.0001,-8.243,6.159*42
$GPGRS,211502.00,1,-0.1,0.2,0.3,-0.1,,,,,,,,*4A
$GPGRS,211502.00,1,7.7,1.2,-8.2,-4.1,,,,,,,,*47
$GPGRS,211502.00,1,0.6,-0.4,-0.1,-3.1,6.8,,,,,,,*47
$GPGRS,211502.00,1,0.3,-2.4,-1.7,0.7,-2.8,-1.1,4.8,,,,,*67
$GPGSV,4,1,13,10,70,079,50,16,17,194,37,32,23,134,34,02,20,276,*78
$GPGSV,4,2,13,23,30,050,34,21,40,280,28,27,70,159,51,08,67,288,47*79
$GPGSV,4,3,13,18,02,083,,36,35,170,41,34,31,208,,49,34,195,36*71
$GPGSV,4,4,13,61,03,257,*4F
$GLGSV,3,1,10,68,54,090,47,69,31,158,35,67,25,032,,75,23,317,40*61
$GLGSV,3,2,10,74,24,260,,83,44,077,34,84,53,318,43,73,04,222,*6D
$GLGSV,3,3,10,82,08,097,,85,06,291,30*6A
$GAGSV,3,1,10,14,76,200,,07,19,134,20,33,24,269,38,03,10,030,29*6C
$GAGSV,3,2,10,31,26,312,38,21,19,196,39,08,28,078,35,23,42,251,*60
$GAGSV,3,3,10,13,46,069,40,26,72,299,37*65
$GBGSV,5,1,20,28,77,088,50,41,34,172,39,58,15,255,,08,16,042,*6C
$GBGSV,5,2,20,05,23,128,36,60,11,108,,42,22,042,36,43,15,111,*6C
$GBGSV,5,3,20,13,24,046,20,46,15,273,,57,36,240,,27,52,298,42*6D
$GBGSV,5,4,20,14,42,062,45,33,56,101,43,30,04,294,34,36,09,322,32*6B
$GBGSV,5,5,20,50,01,030,,37,02,224,,02,08,105,,38,03,046,*68
$GPGGA,211502.00,,,,,0,00,,,M,,M,,*4D
$PTNL,GGK,211502.00,010125,4742.4459018,N,01617.9732617,E,1,20,1.2,EHT668.4916,M*42
$GPGGQ,211502.00,010125,4742.4459018,N,01617.9732617,E,1,20,3.192,625.2806,M*39
$GPGFA,211502.00,15.131,21.186,1.591,0.989,28.469,2.584,,VVV*33
$GPLLK,211502.00,010125,,M,,M,1,20,1.4,,M*09
$GNGMP,211502.00,,,,,DAAA,20,0.6,,,,*57
$GPGMP,211502.00,,,,,,04,,,,3.0,123*7F
$GLGMP,211502.00,,,,,,04,,,,,*7E
$GAGMP,211502.00,,,,,,05,,,,,*72
$GBGMP,211502.00,,,,,,07,,,,,*73
$PSSN,SNC,[0,335720000,2347]*44
$GPZDA,211507.00,01,01,2025,,*63
$GPDTM,W84,,00.0000000,N,00.0000000,E,00.0000000,W84*5F
$GPRMC,211507.00,A,4742.4459043,N,01617.9732622,E,0.0,,010125,5.1,E,D*1B
$GPGLL,4742.4459043,N,01617.9732622,E,211507.00,A,D*6A
$GPGGA,211507.00,4742.4459043,N,01617.9732622,E,2,20,0.7,625.2908,M,43.2111,M,2.0,0123*46
$GNGNS,211507.00,4742.4459043,N,01617.9732622,E,DAAA,20,0.7,625.2908,43.2111,,*58
$GPGNS,211507.00,,,,,,04,,,,2.0,123*7B
$GLGNS,211507.00,,,,,,03,,,,,*7C
$GAGNS,211507.00,,,,,,06,,,,,*74
$GBGNS,211507.00,,,,,,07,,,,,*76
$GPLLQ,211507.00,010125,,M,,M,1,20,4.533,,M*12
$GPVTG,,T,,M,0.01,N,0.01,K,D*26
$GPHDT,,T*1B
$GPTHS,,V*0E
$GPROT,,V*08
$PSSN,HRP,211507.00,010125,,,,,,,00,0,,*61
$PTNL,AVR,211507.00,,Yaw,,Tilt,,,,0,,00*37
$GPGSA,A,3,08,10,16,27,,,,,,,,,1.1,0.7,0.9*37
$GPGSA,A,3,68,75,84,,,,,,,,,,1.1,0.7,0.9*3C
$GPGSA,A,3,08,13,21,26,31,33,,,,,,,1.1,0.7,0.9*33
$GPGSA,A,3,05,14,27,28,33,36,41,,,,,,1.1,0.7,0.9*33
$GPGST,211507.00,7.708,2.265,1.375,25.718,2.126,1.581,3.678*65
$GPGBS,211507.00,9.594,7.016,15.624,36,0.0001,20.334,8.718*5E
$GPGRS,211507.00,1,0.2,0.0,0.1,-0.5,,,,,,,,*65
$GPGRS,211507.00,1,13.4,-6.9,-4.1,,,,,,,,,*5C
$GPGRS,211507.00,1,7.5,0.5,-0.8,-0.7,-3.3,5.4,,,,,,*6A
$GPGRS,211507.00,1,0.3,-3.4,-1.8,0.4,-1.5,20.3,-0.4,,,,,*58
$GPGSV,4,1,13,10,70,079,50,16,17,194,37,32,23,134,33,02,20,276,36*7A
$GPGSV,4,2,13,23,30,050,34,21,40,280,27,27,70,159,51,08,67,288,48*79
$GPGSV,4,3,13,18,02,083,,36,35,170,41,34,31,208,,49,34,195,36*71
$GPGSV,4,4,13,61,03,257,*4F
$GLGSV,3,1,10,68,54,090,47,69,31,158,26,67,25,032,,75,23,317,42*61
$GLGSV,3,2,10,74,24,260,,83,44,077,34,84,53,318,43,73,04,222,*6D
$GLGSV,3,3,10,82,08,097,,85,06,291,33*69
$GAGSV,3,1,10,14,76,200,,07,19,134,19,33,24,269,36,03,10,030,29*68
$GAGSV,3,2,10,31,26,311,38,21,19,196,38,08,28,078,37,23,42,250,*61
$GAGSV,3,3,10,13,46,069,40,26,72,299,37*65
$GBGSV,5,1,20,28,77,088,49,41,34,172,39,58,15,255,,08,16,042,24*62
$GBGSV,5,2,20,05,23,128,35,60,11,108,,42,22,042,32,43,15,111,*6B
$GBGSV,5,3,20,13,24,046,20,46,15,272,,57,36,240,,27,52,298,42*6C
$GBGSV,5,4,20,14,42,062,44,33,56,101,41,30,04,294,31,36,09,322,37*68
$GBGSV,5,5,20,50,01,030,,37,02,224,,02,08,105,,38,03,046,*68
$GPGGA,211507.00,,,,,0,00,,,M,,M,,*48
$PTNL,GGK,211507.00,010125,4742.4459043,N,01617.9732622,E,1,20,1.1,EHT668.5019,M*4B
$GPGGQ,211507.00,010125,4742.4459043,N,01617.9732622,E,1,20,4.533,625.2908,M*33
$GPGFA,211507.00,21.538,30.163,2.265,1.375,25.718,3.678,,VVV*39
$GPLLK,211507.00,010125,,M,,M,1,20,1.3,,M*0B
$GNGMP,211507.00,,,,,DAAA,20,0.7,,,,*53
$GPGMP,211507.00,,,,,,04,,,,2.0,123*7B
$GLGMP,211507.00,,,,,,03,,,,,*7C
$GAGMP,211507.00,,,,,,06,,,,,*74
$GBGMP,211507.00,,,,,,07,,,,,*76
$PSSN,SNC,[0,335725000,2347]*41
$GPZDA,211512.00,01,01,2025,,*67
$GPDTM,W84,,00.0000000,N,00.0000000,E,00.0000000,W84*5F
$GPRMC,211512.00,A,4742.4459006,N,01617.9732585,E,0.0,,010125,5.1,E,D*10
$GPGLL,4742.4459006,N,01617.9732585,E,211512.00,A,D*61
$GPGGA,211512.00,4742.4459006,N,01617.9732585,E,2,19,0.7,625.2950,M,43.2111,M,1.5,0123*4C
$GNGNS,211512.00,4742.4459006,N,01617.9732585,E,DAAA,19,0.7,625.2950,43.2111,,*54
$GPGNS,211512.00,,,,,,04,,,,1.5,123*79
$GLGNS,211512.00,,,,,,03,,,,,*78
$GAGNS,211512.00,,,,,,05,,,,,*73
$GBGNS,211512.00,,,,,,07,,,,,*72
$GPLLQ,211512.00,010125,,M,,M,1,19,5.763,,M*1A
$GPVTG,,T,,M,0.00,N,0.00,K,D*26
$GPHDT,,T*1B
$GPTHS,,V*0E
$GPROT,,V*08
$PSSN,HRP,211512.00,010125,,,,,,,00,0,,*65
$PTNL,AVR,211512.00,,Yaw,,Tilt,,,,0,,00*33
$GPGSA,A,3,08,10,16,27,,,,,,,,,1.2,0.7,0.9*34
$GPGSA,A,3,68,75,84,,,,,,,,,,1.2,0.7,0.9*3F
$GPGSA,A,3,08,13,21,26,31,,,,,,,,1.2,0.7,0.9*30
$GPGSA,A,3,05,14,27,28,33,36,41,,,,,,1.2,0.7,0.9*30
$GPGST,211512.00,10.004,2.870,1.738,25.583,2.695,1.998,4.686*52
$GPGBS,211512.00,9.297,7.266,15.166,68,0.0001,23.079,6.071*5E
$GPGRS,211512.00,1,0.1,-0.2,0.3,-0.4,,,,,,,,*4E
$GPGRS,211512.00,1,23.1,-5.2,-3.7,,,,,,,,,*57
$GPGRS,211512.00,1,12.9,0.4,-1.0,0.1,-2.7,,,,,,,*5F
$GPGRS,211512.00,1,0.5,-4.3,-1.4,-0.3,0.9,20.8,0.1,,,,,*7F
$GPGSV,4,1,13,10,70,079,49,16,17,194,36,32,23,134,31,02,20,276,38*7F
$GPGSV,4,2,13,23,30,050,35,21,40,280,35,27,70,159,52,08,67,288,47*77
$GPGSV,4,3,13,18,02,083,,36,35,170,41,34,31,208,,49,34,195,35*72
$GPGSV,4,4,13,61,03,257,*4F
$GLGSV,3,1,10,68,54,090,45,69,31,158,35,67,25,032,34,75,23,317,44*60
$GLGSV,3,2,10,74,24,260,,83,44,077,33,84,53,318,43,73,04,222,*6A
$GLGSV,3,3,10,82,08,097,,85,06,291,31*6B
$GAGSV,3,1,10,14,76,200,,07,19,134,21,33,24,269,33,03,10,030,29*66
$GAGSV,3,2,10,31,26,311,39,21,19,196,38,08,28,078,38,23,42,250,*6F
$GAGSV,3,3,10,13,46,069,40,26,72,299,37*65
$GBGSV,5,1,20,28,77,088,49,41,34,172,39,58,15,255,,08,16,042,*64
$GBGSV,5,2,20,05,23,128,35,60,11,108,,42,22,042,34,43,15,111,*6D
$GBGSV,5,3,20,13,24,046,22,46,15,272,,57,36,240,,27,52,298,43*6F
$GBGSV,5,4,20,14,42,062,43,33,56,101,40,30,04,294,29,36,09,322,37*67
$GBGSV,5,5,20,50,01,030,,37,02,224,,02,08,105,,38,03,046,*68
$GPGGA,211512.00,,,,,0,00,,,M,,M,,*4C
$PTNL,GGK,211512.00,010125,4742.4459006,N,01617.9732585,E,1,19,1.2,EHT668.5061,M*46
$GPGGQ,211512.00,010125,4742.4459006,N,01617.9732585,E,1,19,5.763,625.2950,M*39
$GPGFA,211512.00,27.290,38.426,2.870,1.738,25.583,4.686,,VVV*37
$GPLLK,211512.00,010125,,M,,M,1,19,1.3,,M*05
$GNGMP,211512.00,,,,,DAAA,19,0.7,,,,*5D
$GPGMP,211512.00,,,,,,04,,,,1.5,123*79
$GLGMP,211512.00,,,,,,03,,,,,*78
$GAGMP,211512.00,,,,,,05,,,,,*73
$GBGMP,211512.00,,,,,,07,,,,,*72
$PSSN,SNC,[0,335730000,2347]*45
$GPZDA,211517.00,01,01,2025,,*62
$GPDTM,W84,,00.0000000,N,00.0000000,E,00.0000000,W84*5F
$GPRMC,211517.00,A,4742.4458988,N,01617.9732542,E,0.0,,010125,5.1,E,D*10
$GPGLL,4742.4458988,N,01617.9732542,E,211517.00,A,D*61
$GPGGA,211517.00,4742.4458988,N,01617.9732542,E,2,19,0.7,625.3101,M,43.2111,M,2.5,0123*42
$GNGNS,211517.00,4742.4458988,N,01617.9732542,E,DAAA,19,0.7,625.3101,43.2111,,*59
$GPGNS,211517.00,,,,,,04,,,,2.5,123*7F
$GLGNS,211517.00,,,,,,03,,,,,*7D
$GAGNS,211517.00,,,,,,05,,,,,*76
$GBGNS,211517.00,,,,,,07,,,,,*77
$GPLLQ,211517.00,010125,,M,,M,1,19,4.822,,M*14
$GPVTG,,T,,M,0.00,N,0.01,K,D*27
$GPHDT,,T*1B
$GPTHS,,V*0E
$GPROT,,V*08
$PSSN,HRP,211517.00,010125,,,,,,,00,0,,*60
$PTNL,AVR,211517.00,,Yaw,,Tilt,,,,0,,00*36
$GPGSA,A,3,08,10,16,27,,,,,,,,,1.2,0.7,0.9*34
$GPGSA,A,3,69,75,84,,,,,,,,,,1.2,0.7,0.9*3E
$GPGSA,A,3,08,13,21,26,31,,,,,,,,1.2,0.7,0.9*30
$GPGSA,A,3,05,14,27,28,33,36,41,,,,,,1.2,0.7,0.9*30
$GPGST,211517.00,8.068,2.398,1.480,27.788,2.231,1.722,3.913*63
$GPGBS,211517.00,9.042,7.432,14.951,08,0.0001,17.301,6.254*53
$GPGRS,211517.00,1,-1.0,-0.2,1.2,-0.2,,,,,,,,*60
$GPGRS,211517.00,1,3.2,-4.5,-4.0,,,,,,,,,*65
$GPGRS,211517.00,1,17.3,0.6,-1.1,0.5,-2.0,,,,,,,*55
$GPGRS,211517.00,1,0.3,-4.4,-0.7,-0.7,2.1,20.0,-1.6,,,,,*54
$GPGSV,4,1,13,10,70,079,48,16,17,194,35,32,23,134,28,02,20,276,37*7A
$GPGSV,4,2,13,23,30,050,35,21,40,280,39,27,70,159,52,08,67,288,46*7A
$GPGSV,4,3,13,18,02,083,,36,35,170,41,34,31,208,,49,34,195,35*72
$GPGSV,4,4,13,61,03,257,*4F
$GLGSV,3,1,10,68,54,090,42,69,31,158,38,67,25,032,,75,23,317,43*6A
$GLGSV,3,2,10,74,24,260,,83,44,077,32,84,53,318,43,73,04,222,*6B
$GLGSV,3,3,10,82,07,097,,85,06,291,30*65
$GAGSV,3,1,10,14,76,200,,07,19,134,22,33,24,269,30,03,10,030,29*66
$GAGSV,3,2,10,31,26,311,39,21,19,196,37,08,28,078,38,23,42,250,*60
$GAGSV,3,3,10,13,46,069,40,26,72,299,37*65
$GBGSV,5,1,20,28,77,088,49,41,34,172,39,58,15,255,,08,16,042,*64
$GBGSV,5,2,20,05,23,128,35,60,11,108,,42,22,042,35,43,15,111,*6C
$GBGSV,5,3,20,13,24,046,21,46,14,272,,57,36,240,,27,52,298,44*6A
$GBGSV,5,4,20,14,42,062,43,33,56,101,41,30,04,294,29,36,09,322,36*67
$GBGSV,5,5,20,50,01,030,,37,02,224,,02,08,105,,38,02,046,*69
$GPGGA,211517.00,,,,,0,00,,,M,,M,,*49
$PTNL,GGK,211517.00,010125,4742.4458988,N,01617.9732542,E,1,19,1.2,EHT668.5211,M*43
$GPGGQ,211517.00,010125,4742.4458988,N,01617.9732542,E,1,19,4.822,625.3101,M*3F
$GPGFA,211517.00,22.800,32.085,2.398,1.480,27.788,3.913,,VVV*31
$GPLLK,211517.00,010125,,M,,M,1,19,1.3,,M*00
$GNGMP,211517.00,,,,,DAAA,19,0.7,,,,*58
$GPGMP,211517.00,,,,,,04,,,,2.5,123*7F
$GLGMP,211517.00,,,,,,03,,,,,*7D
$GAGMP,211517.00,,,,,,05,,,,,*76
$GBGMP,211517.00,,,,,,07,,,,,*77
$PSSN,SNC,[0,335735000,2347]*40
$GPZDA,211522.00,01,01,2025,,*64
$GPDTM,W84,,00.0000000,N,00.0000000,E,00.0000000,W84*5F
$GPRMC,211522.00,A,4742.4458945,N,01617.9732388,E,0.0,,010125,5.1,E,D*17
$GPGLL,4742.4458945,N,01617.9732388,E,211522.00,A,D*66
$GPGGA,211522.00,4742.4458945,N,01617.9732388,E,2,19,0.6,625.3406,M,43.2110,M,2.0,0123*42
$GNGNS,211522.00,4742.4458945,N,01617.9732388,E,DAAA,19,0.6,625.3406,43.2110,,*5C
$GPGNS,211522.00,,,,,,04,,,,2.0,123*7C
$GLGNS,211522.00,,,,,,05,,,,,*7D
$GAGNS,211522.00,,,,,,05,,,,,*70
$GBGNS,211522.00,,,,,,05,,,,,*73
$GPLLQ,211522.00,010125,,M,,M,1,19,6.344,,M*1B
$GPVTG,,T,,M,0.00,N,0.01,K,D*27
$GPHDT,,T*1B
$GPTHS,,V*0E
$GPROT,,V*08
$PSSN,HRP,211522.00,010125,,,,,,,00,0,,*66
$PTNL,AVR,211522.00,,Yaw,,Tilt,,,,0,,00*30
$GPGSA,A,3,08,10,23,27,,,,,,,,,1.2,0.6,1.0*3B
$GPGSA,A,3,67,69,74,75,84,,,,,,,,1.2,0.6,1.0*35
$GPGSA,A,3,08,13,21,26,31,,,,,,,,1.2,0.6,1.0*39
$GPGSA,A,3,14,27,28,33,41,,,,,,,,1.2,0.6,1.0*39
$GPGST,211522.00,6.216,2.562,1.735,12.183,2.531,1.780,5.538*69
$GPGBS,211522.00,8.744,6.200,16.978,23,0.0001,3.151,0.966*6D
$GPGRS,211522.00,1,-0.8,-0.5,3.2,-0.0,,,,,,,,*68
$GPGRS,211522.00,1,-0.8,3.6,-4.7,-6.5,-5.0,,,,,,,*6F
$GPGRS,211522.00,1,17.8,1.0,-0.7,0.2,-2.1,,,,,,,*5E
$GPGRS,211522.00,1,-4.0,0.5,-0.4,0.9,-2.9,,,,,,,*4D
$GPGSV,4,1,13,10,70,079,46,16,17,194,34,32,23,134,27,02,20,276,*7E
$GPGSV,4,2,13,23,30,050,36,21,40,280,40,27,70,159,52,08,67,288,45*74
$GPGSV,4,3,13,18,02,083,,36,35,170,41,34,31,208,,49,34,195,36*71
$GPGSV,4,4,13,61,03,257,*4F
$GLGSV,3,1,10,68,54,090,39,69,31,158,40,67,25,032,36,75,23,317,42*6D
$GLGSV,3,2,10,74,24,260,35,83,44,077,32,84,53,318,42,73,03,222,*6B
$GLGSV,3,3,10,82,07,097,,85,06,291,26*62
$GAGSV,3,1,10,14,76,199,,07,19,134,27,33,24,269,29,03,10,030,30*60
$GAGSV,3,2,10,31,26,311,39,21,19,196,37,08,28,078,37,23,42,250,*6F
$GAGSV,3,3,10,13,46,069,40,26,72,300,38*6B
$GBGSV,5,1,20,28,77,088,48,41,34,172,39,58,15,255,,08,16,042,*65
$GBGSV,5,2,20,05,23,128,35,60,11,108,,42,22,042,34,43,15,111,*6D
$GBGSV,5,3,20,13,24,046,23,46,14,272,,57,36,240,,27,52,298,45*69
$GBGSV,5,4,20,14,42,062,43,33,56,101,42,30,04,294,30,36,09,322,34*6E
$GBGSV,5,5,20,50,01,030,,37,01,224,,02,08,105,,38,02,046,*6A
$GPGGA,211522.00,,,,,0,00,,,M,,M,,*4F
$PTNL,GGK,211522.00,010125,4742.4458945,N,01617.9732388,E,1,19,1.2,EHT668.5516,M*44
$GPGGQ,211522.00,010125,4742.4458945,N,01617.9732388,E,1,19,6.344,625.3406,M*33
$GPGFA,211522.00,24.358,45.415,2.562,1.735,12.183,5.538,,VVV*3C
$GPLLK,211522.00,010125,,M,,M,1,19,1.4,,M*01
$GNGMP,211522.00,,,,,DAAA,19,0.6,,,,*5F
$GPGMP,211522.00,,,,,,04,,,,2.0,123*7C
$GLGMP,211522.00,,,,,,05,,,,,*7D
$GAGMP,211522.00,,,,,,05,,,,,*70
$GBGMP,211522.00,,,,,,05,,,,,*73
$PSSN,SNC,[0,335740000,2347]*42
$GPZDA,211527.00,01,01,2025,,*61
$GPDTM,W84,,00.0000000,N,00.0000000,E,00.0000000,W84*5F
$GPRMC,211527.00,A,4742.4458859,N,01617.9732190,E,0.0,,010125,5.1,E,D*15
$GPGLL,4742.4458859,N,01617.9732190,E,211527.00,A,D*64
$GPGGA,211527.00,4742.4458859,N,01617.9732190,E,2,18,0.7,625.3649,M,43.2111,M,3.0,0123*49
$GNGNS,211527.00,4742.4458859,N,01617.9732190,E,DAAA,18,0.7,625.3649,43.2111,,*56
$GPGNS,211527.00,,,,,,04,,,,3.0,123*78
$GLGNS,211527.00,,,,,,04,,,,,*79
$GAGNS,211527.00,,,,,,04,,,,,*74
$GBGNS,211527.00,,,,,,06,,,,,*75
$GPLLQ,211527.00,010125,,M,,M,1,18,4.151,,M*1B
$GPVTG,,T,,M,0.01,N,0.01,K,D*26
$GPHDT,,T*1B
$GPTHS,,V*0E
$GPROT,,V*08
$PSSN,HRP,211527.00,010125,,,,,,,00,0,,*63
$PTNL,AVR,211527.00,,Yaw,,Tilt,,,,0,,00*35
$GPGSA,A,3,08,10,23,27,,,,,,,,,1.3,0.7,1.1*3A
$GPGSA,A,3,67,69,75,84,,,,,,,,,1.3,0.7,1.1*37
$GPGSA,A,3,13,21,26,31,,,,,,,,,1.3,0.7,1.1*30
$GPGSA,A,3,05,14,27,28,33,41,,,,,,,1.3,0.7,1.1*3D
$GPGST,211527.00,3.517,1.677,1.117,13.522,1.652,1.155,3.629*6D
$GPGBS,211527.00,8.787,6.583,17.712,23,0.0001,1.543,0.977*6D
$GPGRS,211527.00,1,-0.1,-0.2,1.5,0.1,,,,,,,,*4A
$GPGRS,211527.00,1,3.6,2.9,-7.6,-5.0,,,,,,,,*46
$GPGRS,211527.00,1,0.5,-1.0,0.5,-3.1,,,,,,,,*4F
$GPGRS,211527.00,1,-0.3,-2.4,0.6,-0.5,-1.5,-3.0,,,,,,*60
$GPGSV,4,1,14,10,70,079,45,16,17,194,34,32,23,134,28,02,20,276,*75
$GPGSV,4,2,14,23,30,050,37,21,40,280,41,27,70,159,53,08,67,288,45*72
$GPGSV,4,3,14,18,02,083,,14,00,336,,36,35,170,41,34,31,208,*77
$GPGSV,4,4,14,49,34,195,36,61,03,257,*7A
$GLGSV,3,1,10,68,54,090,33,69,31,158,41,67,25,032,29,75,23,317,44*6E
$GLGSV,3,2,10,74,24,260,,83,44,077,31,84,53,318,41,73,03,222,*6D
$GLGSV,3,3,10,82,07,097,,85,06,291,23*67
$GAGSV,3,1,10,14,76,199,,07,19,134,28,33,24,269,31,03,10,030,20*67
$GAGSV,3,2,10,31,26,311,39,21,19,196,36,08,28,078,35,23,42,250,*6C
$GAGSV,3,3,10,13,46,069,41,26,72,300,40*65
$GBGSV,5,1,20,28,77,088,48,41,34,172,39,58,15,255,,08,16,042,*65
$GBGSV,5,2,20,05,23,128,35,60,11,108,,42,22,042,33,43,15,111,*6A
$GBGSV,5,3,20,13,24,046,21,46,14,272,,57,36,240,,27,52,298,46*68
$GBGSV,5,4,20,14,42,062,43,33,56,101,42,30,04,294,30,36,09,322,32*68
$GBGSV,5,5,20,50,01,030,,37,01,224,,02,08,105,,38,02,046,*6A
$GPGGA,211527.00,,,,,0,00,,,M,,M,,*4A
$PTNL,GGK,211527.00,010125,4742.4458859,N,01617.9732190,E,1,18,1.3,EHT668.5760,M*45
$GPGGQ,211527.00,010125,4742.4458859,N,01617.9732190,E,1,18,4.151,625.3649,M*3D
$GPGFA,211527.00,15.948,29.759,1.677,1.117,13.522,3.629,,VVV*38
$GPLLK,211527.00,010125,,M,,M,1,18,1.5,,M*04
$GNGMP,211527.00,,,,,DAAA,18,0.7,,,,*5A
$GPGMP,211527.00,,,,,,04,,,,3.0,123*78
$GLGMP,211527.00,,,,,,04,,,,,*79
$GAGMP,211527.00,,,,,,04,,,,,*74
$GBGMP,211527.00,,,,,,06,,,,,*75
$PSSN,SNC,[0,335745000,2347]*47
$GPZDA,211532.00,01,01,2025,,*65
$GPDTM,W84,,00.0000000,N,00.0000000,E,00.0000000,W84*5F
$GPRMC,211532.00,A,4742.4458825,N,01617.9732023,E,0.0,,010125,5.1,E,D*13
$GPGLL,4742.4458825,N,01617.9732023,E,211532.00,A,D*62
$GPGGA,211532.00,4742.4458825,N,01617.9732023,E,2,21,0.7,625.3688,M,43.2111,M,2.0,0123*49
$GNGNS,211532.00,4742.4458825,N,01617.9732023,E,DAAA,21,0.7,625.3688,43.2111,,*57
$GPGNS,211532.00,,,,,,06,,,,2.0,123*7F
$GLGNS,211532.00,,,,,,04,,,,,*7D
$GAGNS,211532.00,,,,,,05,,,,,*71
$GBGNS,211532.00,,,,,,06,,,,,*71
$GPLLQ,211532.00,010125,,M,,M,1,21,2.766,,M*11
$GPVTG,,T,,M,0.01,N,0.01,K,D*26
$GPHDT,,T*1B
$GPTHS,,V*0E
$GPROT,,V*08
$PSSN,HRP,211532.00,010125,,,,,,,00,0,,*67
$PTNL,AVR,211532.00,,Yaw,,Tilt,,,,0,,00*31
$GPGSA,A,3,02,08,10,21,23,27,,,,,,,1.3,0.7,1.1*3B
$GPGSA,A,3,68,69,75,84,,,,,,,,,1.3,0.7,1.1*38
$GPGSA,A,3,13,21,26,31,33,,,,,,,,1.3,0.7,1.1*30
$GPGSA,A,3,05,14,27,28,33,41,,,,,,,1.3,0.7,1.1*3D
$GPGST,211532.00,3.219,1.657,0.727,351.129,1.641,0.762,2.093*5B
$GPGBS,211532.00,7.258,3.135,8.329,21,0.0001,1.644,0.669*59
$GPGRS,211532.00,1,-0.2,-0.1,0.1,1.6,1.1,-0.5,,,,,,*65
$GPGRS,211532.00,1,4.5,0.9,-5.5,-5.3,,,,,,,,*46
$GPGRS,211532.00,1,-0.0,-1.5,0.9,-4.0,3.9,,,,,,,*48
$GPGRS,211532.00,1,-0.4,-1.4,0.1,-1.2,-3.6,3.3,,,,,,*4E
$GPGSV,4,1,14,10,70,079,45,16,17,194,33,32,23,134,31,02,20,276,41*7F
$GPGSV,4,2,14,23,30,050,37,21,40,280,39,27,70,159,53,08,67,288,45*7D
$GPGSV,4,3,14,18,02,083,,14,00,336,,36,35,170,41,34,31,208,*77
$GPGSV,4,4,14,49,34,195,36,61,03,257,*7A
$GLGSV,3,1,10,68,54,090,37,69,31,158,41,67,25,032,34,75,23,317,45*67
$GLGSV,3,2,10,74,24,260,31,83,44,077,33,84,53,318,41,73,03,222,*6D
$GLGSV,3,3,10,82,07,097,,85,06,291,28*6C
$GAGSV,3,1,10,14,76,199,,07,19,134,21,33,24,269,37,03,10,030,23*6B
$GAGSV,3,2,10,31,26,311,38,21,19,196,36,08,28,078,33,23,42,250,*6B
$GAGSV,3,3,10,13,46,069,42,26,72,300,41*67
$GBGSV,5,1,20,28,77,088,48,41,34,172,39,58,15,255,,08,16,043,20*66
$GBGSV,5,2,20,05,23,128,36,60,11,108,,42,22,042,33,43,15,111,*69
$GBGSV,5,3,20,13,24,046,20,46,14,272,,57,36,240,,27,52,298,47*68
$GBGSV,5,4,20,14,42,062,43,33,56,101,43,30,04,294,30,36,09,321,34*6C
$GBGSV,5,5,20,50,01,030,,37,01,224,,02,08,105,,38,02,046,*6A
$GPGGA,211532.00,,,,,0,00,,,M,,M,,*4E
$PTNL,GGK,211532.00,010125,4742.4458825,N,01617.9732023,E,1,21,1.3,EHT668.5798,M*4E
$GPGGQ,211532.00,010125,4742.4458825,N,01617.9732023,E,1,21,2.766,625.3688,M*38
$GPGFA,211532.00,15.751,17.162,1.657,0.727,351.129,2.093,,VVV*03
$GPLLK,211532.00,010125,,M,,M,1,21,1.5,,M*0A
$GNGMP,211532.00,,,,,DAAA,21,0.7,,,,*54
$GPGMP,211532.00,,,,,,06,,,,2.0,123*7F
$GLGMP,211532.00,,,,,,04,,,,,*7D
$GAGMP,211532.00,,,,,,05,,,,,*71
$GBGMP,211532.00,,,,,,06,,,,,*71
$PSSN,SNC,[0,335750000,2347]*43
$GPZDA,211537.00,01,01,2025,,*60
$GPDTM,W84,,00.0000000,N,00.0000000,E,00.0000000,W84*5F
$GPRMC,211537.00,A,4742.4458753,N,01617.9731964,E,0.0,,010125,5.1,E,D*11
$GPGLL,4742.4458753,N,01617.9731964,E,211537.00,A,D*60
$GPGGA,211537.00,4742.4458753,N,01617.9731964,E,2,18,0.7,625.3768,M,43.2111,M,2.8,0123*46
$GNGNS,211537.00,4742.4458753,N,01617.9731964,E,DAAA,18,0.7,625.3768,43.2111,,*50
$GPGNS,211537.00,,,,,,05,,,,2.8,123*71
$GLGNS,211537.00,,,,,,04,,,,,*78
$GAGNS,211537.00,,,,,,04,,,,,*75
$GBGNS,211537.00,,,,,,05,,,,,*77
$GPLLQ,211537.00,010125,,M,,M,1,18,3.351,,M*1F
$GPVTG,,T,,M,0.01,N,0.01,K,D*26
$GPHDT,,T*1B
$GPTHS,,V*0E
$GPROT,,V*08
$PSSN,HRP,211537.00,010125,,,,,,,00,0,,*62
$PTNL,AVR,211537.00,,Yaw,,Tilt,,,,0,,00*34
$GPGSA,A,3,08,10,21,23,27,,,,,,,,1.3,0.7,1.1*39
$GPGSA,A,3,68,69,75,84,,,,,,,,,1.3,0.7,1.1*38
$GPGSA,A,3,13,21,26,31,,,,,,,,,1.3,0.7,1.1*30
$GPGSA,A,3,05,14,27,28,33,,,,,,,,1.3,0.7,1.1*38
$GPGST,211537.00,3.022,1.713,0.741,355.462,1.709,0.751,2.783*50
$GPGBS,211537.00,8.121,3.167,10.387,21,0.0001,-1.390,0.680*42
$GPGRS,211537.00,1,0.8,1.0,-1.4,0.7,-0.8,,,,,,,*60
$GPGRS,211537.00,1,-4.6,0.4,-4.7,-4.9,,,,,,,,*68
$GPGRS,211537.00,1,0.2,-1.0,0.9,-3.7,,,,,,,,*43
$GPGRS,211537.00,1,-0.0,-0.0,0.2,-1.4,-3.3,,,,,,,*64
$GPGSV,4,1,14,10,70,078,45,16,17,194,32,32,23,134,30,02,20,276,42*7D
$GPGSV,4,2,14,23,30,050,38,21,40,280,38,27,70,159,52,08,67,288,45*72
$GPGSV,4,3,14,18,01,083,,14,00,336,,36,35,170,41,34,31,208,*74
$GPGSV,4,4,14,49,34,195,36,61,03,257,*7A
$GLGSV,3,1,10,68,54,090,35,69,31,158,41,67,25,032,29,75,23,317,45*69
$GLGSV,3,2,10,74,23,260,,83,44,077,35,84,53,318,41,73,03,222,*6E
$GLGSV,3,3,10,82,07,098,,85,06,291,29*62
$GAGSV,3,1,10,14,76,199,,33,24,269,34,07,19,134,22,03,10,030,23*6B
$GAGSV,3,2,10,31,26,311,38,21,19,196,36,08,28,078,32,23,42,250,*6A
$GAGSV,3,3,10,13,46,069,43,26,72,300,42*65
$GBGSV,5,1,20,28,77,088,48,41,34,172,24,58,15,255,,08,16,043,*68
$GBGSV,5,2,20,05,23,128,36,60,11,108,,42,22,042,32,43,15,111,*68
$GBGSV,5,3,20,13,24,046,29,46,14,272,,57,37,240,,27,52,298,47*60
$GBGSV,5,4,20,14,42,062,43,33,56,101,43,30,04,294,30,36,09,321,29*60
$GBGSV,5,5,20,50,01,030,,37,01,224,,02,08,105,,38,02,046,*6A
$GPGGA,211537.00,,,,,0,00,,,M,,M,,*4B
$PTNL,GGK,211537.00,010125,4742.4458753,N,01617.9731964,E,1,18,1.3,EHT668.5878,M*47
$GPGGQ,211537.00,010125,4742.4458753,N,01617.9731964,E,1,18,3.351,625.3768,M*3E
$GPGFA,211537.00,16.287,22.817,1.713,0.741,355.462,2.783,,VVV*0F
$GPLLK,211537.00,010125,,M,,M,1,18,1.6,,M*06
$GNGMP,211537.00,,,,,DAAA,18,0.7,,,,*5B
$GPGMP,211537.00,,,,,,05,,,,2.8,123*71
$GLGMP,211537.00,,,,,,04,,,,,*78
$GAGMP,211537.00,,,,,,04,,,,,*75
$GBGMP,211537.00,,,,,,05,,,,,*77
$PSSN,SNC,[0,335755000,2347]*46
$GPZDA,211542.00,01,01,2025,,*62
$GPDTM,W84,,00.0000000,N,00.0000000,E,00.0000000,W84*5F
$GPRMC,211542.00,A,4742.4458682,N,01617.9731743,E,0.0,,010125,5.1,E,D*15
$GPGLL,4742.4458682,N,01617.9731743,E,211542.00,A,D*64
$GPGGA,211542.00,4742.4458682,N,01617.9731743,E,2,19,0.7,625.3812,M,43.2111,M,2.2,0123*4B
$GNGNS,211542.00,4742.4458682,N,01617.9731743,E,DAAA,19,0.7,625.3812,43.2111,,*57
$GPGNS,211542.00,,,,,,05,,,,2.2,123*79
$GLGNS,211542.00,,,,,,04,,,,,*7A
$GAGNS,211542.00,,,,,,04,,,,,*77
$GBGNS,211542.00,,,,,,06,,,,,*76
$GPLLQ,211542.00,010125,,M,,M,1,19,4.232,,M*1F
$GPVTG,,T,,M,0.00,N,0.01,K,D*27
$GPHDT,,T*1B
$GPTHS,,V*0E
$GPROT,,V*08
$PSSN,HRP,211542.00,010125,,,,,,,00,0,,*60
$PTNL,AVR,211542.00,,Yaw,,Tilt,,,,0,,00*36
$GPGSA,A,3,08,10,21,23,27,,,,,,,,1.3,0.7,1.1*39
$GPGSA,A,3,68,69,75,84,,,,,,,,,1.3,0.7,1.1*38
$GPGSA,A,3,13,21,26,31,,,,,,,,,1.3,0.7,1.1*30
$GPGSA,A,3,05,14,27,28,33,41,,,,,,,1.3,0.7,1.1*3D
$GPGST,211542.00,7.199,2.162,0.955,355.573,2.156,0.967,3.511*52
$GPGBS,211542.00,8.141,3.074,9.677,41,0.0001,22.961,8.567*6B
$GPGRS,211542.00,1,0.5,1.3,-1.6,0.7,-0.8,,,,,,,*6E
$GPGRS,211542.00,1,3.8,0.8,-5.7,-4.4,,,,,,,,*4E
$GPGRS,211542.00,1,0.5,-0.2,-0.2,-2.9,,,,,,,,*6C
$GPGRS,211542.00,1,-0.1,0.3,-0.3,-1.8,-3.2,23.0,,,,,,*77
$GPGSV,4,1,14,10,70,078,45,16,17,194,30,32,23,134,33,02,20,276,42*7C
$GPGSV,4,2,14,23,30,050,38,21,40,280,37,27,70,159,52,08,67,288,46*7E
$GPGSV,4,3,14,18,01,083,,14,00,336,,36,35,170,41,34,31,208,*74
$GPGSV,4,4,14,49,34,195,36,61,03,257,*7A
$GLGSV,3,1,10,68,54,090,41,69,31,158,42,67,25,032,32,75,23,317,45*63
$GLGSV,3,2,10,74,23,260,,83,44,077,35,84,53,318,42,73,03,222,*6D
$GLGSV,3,3,10,82,07,098,,85,06,291,31*6B
$GAGSV,3,1,10,14,76,199,,33,24,269,35,07,20,134,22,03,10,030,22*61
$GAGSV,3,2,10,31,26,311,37,21,19,196,35,08,28,078,32,23,42,250,*66
$GAGSV,3,3,10,13,46,069,43,26,72,300,42*65
$GBGSV,5,1,20,28,77,088,48,41,34,172,38,58,15,255,,08,16,043,22*65
$GBGSV,5,2,20,05,23,128,36,60,11,108,,42,21,042,34,43,15,111,*6D
$GBGSV,5,3,20,13,24,046,30,46,14,272,,57,37,240,,27,52,298,47*68
$GBGSV,5,4,20,14,42,062,43,33,56,101,44,30,04,294,26,36,09,321,29*60
$GBGSV,5,5,20,50,01,030,,37,01,224,,02,08,105,,38,02,046,*6A
$GPGGA,211542.00,,,,,0,00,,,M,,M,,*49
$PTNL,GGK,211542.00,010125,4742.4458682,N,01617.9731743,E,1,19,1.3,EHT668.5922,M*4C
$GPGGQ,211542.00,010125,4742.4458682,N,01617.9731743,E,1,19,4.232,625.3812,M*3A
$GPGFA,211542.00,20.551,28.787,2.162,0.955,355.573,3.511,,VVV*09
$GPLLK,211542.00,010125,,M,,M,1,19,1.5,,M*06
$GNGMP,211542.00,,,,,DAAA,19,0.7,,,,*58
$GPGMP,211542.00,,,,,,05,,,,2.2,123*79
$GLGMP,211542.00,,,,,,04,,,,,*7A
$GAGMP,211542.00,,,,,,04,,,,,*77
$GBGMP,211542.00,,,,,,06,,,,,*76
$PSSN,SNC,[0,335760000,2347]*40
$GPZDA,211547.00,01,01,2025,,*67
$GPDTM,W84,,00.0000000,N,00.0000000,E,00.0000000,W84*5F
$GPRMC,211547.00,A,4742.4458670,N,01617.9731483,E,0.0,,010125,5.1,E,D*12
$GPGLL,4742.4458670,N,01617.9731483,E,211547.00,A,D*63
$GPGGA,211547.00,4742.4458670,N,01617.9731483,E,2,20,0.7,625.3697,M,43.2111,M,3.2,0123*44
$GNGNS,211547.00,4742.4458670,N,01617.9731483,E,DAAA,20,0.7,625.3697,43.2111,,*59
$GPGNS,211547.00,,,,,,05,,,,3.2,123*7D
$GLGNS,211547.00,,,,,,05,,,,,*7E
$GAGNS,211547.00,,,,,,05,,,,,*73
$GBGNS,211547.00,,,,,,05,,,,,*70
$GPLLQ,211547.00,010125,,M,,M,1,20,3.525,,M*16
$GPVTG,,T,,M,0.01,N,0.01,K,D*26
$GPHDT,,T*1B
$GPTHS,,V*0E
$GPROT,,V*08
$PSSN,HRP,211547.00,010125,,,,,,,00,0,,*65
$PTNL,AVR,211547.00,,Yaw,,Tilt,,,,0,,00*33
$GPGSA,A,3,08,10,21,23,27,,,,,,,,1.3,0.7,1.1*39
$GPGSA,A,3,68,69,75,83,84,,,,,,,,1.3,0.7,1.1*33
$GPGSA,A,3,13,21,26,31,33,,,,,,,,1.3,0.7,1.1*30
$GPGSA,A,3,05,14,27,28,33,,,,,,,,1.3,0.7,1.1*38
$GPGST,211547.00,3.538,1.820,0.793,355.728,1.816,0.803,2.912*5B
$GPGBS,211547.00,8.443,3.121,9.842,21,0.0001,-1.857,0.730*76
$GPGRS,211547.00,1,-0.2,1.3,-1.9,0.7,-0.2,,,,,,,*44
$GPGRS,211547.00,1,10.1,2.8,-4.5,-0.2,-3.6,,,,,,,*75
$GPGRS,211547.00,1,0.6,0.1,0.1,-2.3,-0.2,,,,,,,*61
$GPGRS,211547.00,1,0.7,0.6,-0.3,-1.0,-2.7,,,,,,,*4F
$GPGSV,4,1,14,10,70,078,46,16,16,194,29,32,23,134,34,02,20,276,42*71
$GPGSV,4,2,14,23,30,049,38,21,40,280,36,27,70,159,52,08,67,288,47*76
$GPGSV,4,3,14,18,01,083,,14,00,336,,36,35,170,41,34,31,208,*74
$GPGSV,4,4,14,49,34,195,36,61,03,257,*7A
$GLGSV,3,1,10,68,54,090,44,69,31,158,42,67,25,032,36,75,24,317,45*65
$GLGSV,3,2,10,74,23,260,31,83,44,077,36,84,53,318,42,73,03,222,*6C
$GLGSV,3,3,10,82,07,098,,85,06,291,34*6E
$GAGSV,3,1,10,14,76,198,,33,24,269,36,07,20,134,21,03,10,030,28*6A
$GAGSV,3,2,10,31,26,311,39,21,19,196,36,08,28,078,33,23,42,250,*6A
$GAGSV,3,3,10,13,46,069,43,26,72,300,42*65
$GBGSV,5,1,20,28,77,089,48,41,34,172,29,58,15,255,,08,16,043,24*62
$GBGSV,5,2,20,05,23,128,35,60,11,108,,42,21,042,33,43,15,111,*69
$GBGSV,5,3,20,13,24,046,29,46,14,272,,57,37,240,,27,52,298,46*61
$GBGSV,5,4,20,14,42,062,43,33,56,101,45,30,04,294,24,36,09,321,30*6B
$GBGSV,5,5,20,50,01,030,,37,01,224,,02,08,105,,38,02,046,*6A
$GPGGA,211547.00,,,,,0,00,,,M,,M,,*4C
$PTNL,GGK,211547.00,010125,4742.4458670,N,01617.9731483,E,1,20,1.3,EHT668.5808,M*48
$GPGGQ,211547.00,010125,4742.4458670,N,01617.9731483,E,1,20,3.525,625.3697,M*32
$GPGFA,211547.00,17.305,23.881,1.820,0.793,355.728,2.912,,VVV*07
$GPLLK,211547.00,010125,,M,,M,1,20,1.5,,M*09
$GNGMP,211547.00,,,,,DAAA,20,0.7,,,,*57
$GPGMP,211547.00,,,,,,05,,,,3.2,123*7D
$GLGMP,211547.00,,,,,,05,,,,,*7E
$GAGMP,211547.00,,,,,,05,,,,,*73
$GBGMP,211547.00,,,,,,05,,,,,*70
$PSSN,SNC,[0,335765000,2347]*45
$GPZDA,211552.00,01,01,2025,,*63
$GPDTM,W84,,00.0000000,N,00.0000000,E,00.0000000,W84*5F
$GPRMC,211552.00,A,4742.4458654,N,01617.9731290,E,0.0,,010125,5.1,E,D*14
$GPGLL,4742.4458654,N,01617.9731290,E,211552.00,A,D*65
$GPGGA,211552.00,4742.4458654,N,01617.9731290,E,2,20,0.7,625.3688,M,43.2111,M,2.0,0123*4F
$GNGNS,211552.00,4742.4458654,N,01617.9731290,E,DAAA,20,0.7,625.3688,43.2111,,*51
$GPGNS,211552.00,,,,,,04,,,,2.0,123*7B
$GLGNS,211552.00,,,,,,06,,,,,*79
$GAGNS,211552.00,,,,,,05,,,,,*77
$GBGNS,211552.00,,,,,,05,,,,,*74
$GPLLQ,211552.00,010125,,M,,M,1,20,5.012,,M*15
$GPVTG,,T,,M,0.01,N,0.02,K,D*25
$GPHDT,,T*1B
$GPTHS,,V*0E
$GPROT,,V*08
$PSSN,HRP,211552.00,010125,,,,,,,00,0,,*61
$PTNL,AVR,211552.00,,Yaw,,Tilt,,,,0,,00*37
$GPGSA,A,3,08,10,23,27,,,,,,,,,1.2,0.7,1.0*3A
$GPGSA,A,3,67,68,69,75,83,84,,,,,,,1.2,0.7,1.0*32
$GPGSA,A,3,13,21,26,31,33,,,,,,,,1.2,0.7,1.0*30
$GPGSA,A,3,05,14,27,28,33,,,,,,,,1.2,0.7,1.0*38
$GPGST,211552.00,6.533,2.050,1.370,12.339,2.024,1.409,4.364*61
$GPGBS,211552.00,8.617,6.289,17.042,67,0.0001,18.368,6.225*55
$GPGRS,211552.00,1,-0.7,0.4,0.2,-0.1,,,,,,,,*4E
$GPGRS,211552.00,1,18.4,12.6,2.1,-5.0,-0.0,-3.4,,,,,,*6A
$GPGRS,211552.00,1,0.6,0.0,0.1,-1.9,1.7,,,,,,,*44
$GPGRS,211552.00,1,0.1,-0.1,-0.3,-1.2,-2.7,,,,,,,*65
$GPGSV,4,1,14,10,70,078,46,16,16,194,29,32,23,134,29,02,20,276,42*7D
$GPGSV,4,2,14,23,30,049,38,21,40,280,34,27,70,159,52,08,67,287,47*7B
$GPGSV,4,3,14,18,01,083,,14,00,336,,36,35,170,41,34,31,208,*74
$GPGSV,4,4,14,49,34,195,36,61,03,257,*7A
$GLGSV,3,1,10,68,54,090,42,69,31,158,40,67,25,032,38,75,24,317,46*6C
$GLGSV,3,2,10,74,23,260,33,83,44,077,38,84,53,318,43,73,03,222,*61
$GLGSV,3,3,10,82,07,098,,85,06,291,35*6F
$GAGSV,3,1,10,14,76,198,,33,24,269,37,07,20,134,23,03,10,030,28*69
$GAGSV,3,2,10,31,26,311,39,21,19,196,36,08,28,078,34,23,42,250,*6D
$GAGSV,3,3,10,13,46,069,43,26,72,300,42*65
$GBGSV,5,1,20,28,77,089,47,41,34,172,34,58,15,255,,08,16,043,24*61
$GBGSV,5,2,20,05,23,128,36,60,11,108,,42,21,042,32,43,15,111,*6B
$GBGSV,5,3,20,13,24,046,29,46,14,272,,57,37,240,,27,52,298,46*61
$GBGSV,5,4,20,14,42,062,44,33,56,100,45,30,04,294,27,36,09,321,30*6E
$GBGSV,5,5,20,50,00,030,,37,01,224,,02,08,105,,38,02,046,*6B
$GPGGA,211552.00,,,,,0,00,,,M,,M,,*48
$PTNL,GGK,211552.00,010125,4742.4458654,N,01617.9731290,E,1,20,1.2,EHT668.5799,M*48
$GPGGQ,211552.00,010125,4742.4458654,N,01617.9731290,E,1,20,5.012,625.3688,M*3D
$GPGFA,211552.00,19.492,35.782,2.050,1.370,12.339,4.364,,VVV*32
$GPLLK,211552.00,010125,,M,,M,1,20,1.4,,M*0C
$GNGMP,211552.00,,,,,DAAA,20,0.7,,,,*53
$GPGMP,211552.00,,,,,,04,,,,2.0,123*7B
$GLGMP,211552.00,,,,,,06,,,,,*79
$GAGMP,211552.00,,,,,,05,,,,,*77
$GBGMP,211552.00,,,,,,05,,,,,*74
$PSSN,SNC,[0,335770000,2347]*41
$GPZDA,211557.00,01,01,2025,,*66
$GPDTM,W84,,00.0000000,N,00.0000000,E,00.0000000,W84*5F
$GPRMC,211557.00,A,4742.4458632,N,01617.9731143,E,0.0,,010125,5.1,E,D*1C
$GPGLL,4742.4458632,N,01617.9731143,E,211557.00,A,D*6D
$GPGGA,211557.00,4742.4458632,N,01617.9731143,E,2,21,0.6,625.3809,M,43.2111,M,3.0,0123*41
$GNGNS,211557.00,4742.4458632,N,01617.9731143,E,DAAA,21,0.6,625.3809,43.2111,,*5E
$GPGNS,211557.00,,,,,,04,,,,3.0,123*7F
$GLGNS,211557.00,,,,,,06,,,,,*7C
$GAGNS,211557.00,,,,,,05,,,,,*72
$GBGNS,211557.00,,,,,,06,,,,,*72
$GPLLQ,211557.00,010125,,M,,M,1,21,3.849,,M*11
$GPVTG,,T,,M,0.00,N,0.00,K,D*26
$GPHDT,,T*1B
$GPTHS,,V*0E
$GPROT,,V*08
$PSSN,HRP,211557.00,010125,,,,,,,00,0,,*64
$PTNL,AVR,211557.00,,Yaw,,Tilt,,,,0,,00*32
$GPGSA,A,3,08,10,23,27,,,,,,,,,1.2,0.6,1.0*3B
$GPGSA,A,3,67,68,69,75,83,84,,,,,,,1.2,0.6,1.0*33
$GPGSA,A,3,13,21,26,31,33,,,,,,,,1.2,0.6,1.0*31
$GPGSA,A,3,05,14,27,28,33,41,,,,,,,1.2,0.6,1.0*3C
$GPGST,211557.00,4.643,1.546,1.085,13.387,1.525,1.115,3.354*65
$GPGBS,211557.00,8.403,6.423,16.633,67,0.0001,10.228,6.223*5B
$GPGRS,211557.00,1,-1.0,0.2,0.7,0.1,,,,,,,,*63
$GPGRS,211557.00,1,10.2,5.7,0.3,-5.2,1.7,-3.3,,,,,,*78
$GPGRS,211557.00,1,0.8,-0.2,0.5,-1.2,8.3,,,,,,,*62
$GPGRS,211557.00,1,0.4,1.8,-0.6,-0.7,-1.4,-6.7,,,,,,*43
$GPGSV,4,1,14,10,70,078,44,16,16,194,30,32,23,134,23,02,20,276,41*7E
$GPGSV,4,2,14,23,30,049,38,21,40,280,34,27,70,159,52,08,67,287,47*7B
$GPGSV,4,3,14,18,01,083,,14,00,336,,36,35,170,41,34,31,208,*74
$GPGSV,4,4,14,49,34,195,36,61,03,257,*7A
$GLGSV,3,1,10,68,54,090,42,69,31,158,40,67,25,032,39,75,24,317,45*6E
$GLGSV,3,2,10,74,23,260,31,83,44,077,37,84,53,318,43,73,03,222,*6C
$GLGSV,3,3,10,82,07,098,,85,06,291,20*6B
$GAGSV,3,1,10,14,76,198,,33,24,269,38,07,20,134,24,03,10,030,27*6E
$GAGSV,3,2,10,31,26,311,40,21,19,196,36,08,28,078,34,23,42,250,*63
$GAGSV,3,3,10,13,46,069,43,26,72,300,41*66
$GBGSV,5,1,20,28,77,089,47,41,34,172,41,58,15,255,,08,16,043,25*62
$GBGSV,5,2,20,05,23,128,35,60,11,108,,42,21,042,33,43,15,111,*69
$GBGSV,5,3,20,13,24,046,31,46,14,272,,57,37,240,,27,52,298,45*6B
$GBGSV,5,4,20,14,42,062,45,33,56,100,45,30,04,294,26,36,09,321,31*6F
$GBGSV,5,5,20,50,00,030,,37,01,224,,02,08,105,,38,02,046,*6B
$GPGGA,211557.00,,,,,0,00,,,M,,M,,*4D
$PTNL,GGK,211557.00,010125,4742.4458632,N,01617.9731143,E,1,21,1.2,EHT668.5919,M*47
$GPGGQ,211557.00,010125,4742.4458632,N,01617.9731143,E,1,21,3.849,625.3809,M*33
$GPGFA,211557.00,14.703,27.499,1.546,1.085,13.387,3.354,,VVV*33
$GPLLK,211557.00,010125,,M,,M,1,21,1.4,,M*08
$GNGMP,211557.00,,,,,DAAA,21,0.6,,,,*56
$GPGMP,211557.00,,,,,,04,,,,3.0,123*7F
$GLGMP,211557.00,,,,,,06,,,,,*7C
$GAGMP,211557.00,,,,,,05,,,,,*72
$GBGMP,211557.00,,,,,,06,,,,,*72
$PSSN,SNC,[0,335775000,2347]*44
$GPZDA,211602.00,01,01,2025,,*65
$GPDTM,W84,,00.0000000,N,00.0000000,E,00.0000000,W84*5F
$GPRMC,211602.00,A,4742.4458616,N,01617.9731123,E,0.0,,010125,5.1,E,D*1F
$GPGLL,4742.4458616,N,01617.9731123,E,211602.00,A,D*6E
$GPGGA,211602.00,4742.4458616,N,01617.9731123,E,2,22,0.6,625.4113,M,43.2111,M,1.8,0123*4E
$GNGNS,211602.00,4742.4458616,N,01617.9731123,E,DAAA,22,0.6,625.4113,43.2111,,*5B
$GPGNS,211602.00,,,,,,05,,,,1.8,123*77
$GLGNS,211602.00,,,,,,06,,,,,*7F
$GAGNS,211602.00,,,,,,05,,,,,*71
$GBGNS,211602.00,,,,,,06,,,,,*71
$GPLLQ,211602.00,010125,,M,,M,1,22,3.025,,M*13
$GPVTG,,T,,M,0.00,N,0.01,K,D*27
$GPHDT,,T*1B
$GPTHS,,V*0E
$GPROT,,V*08
$PSSN,HRP,211602.00,010125,,,,,,,00,0,,*67
$PTNL,AVR,211602.00,,Yaw,,Tilt,,,,0,,00*31
$GPGSA,A,3,02,08,10,23,27,,,,,,,,1.2,0.6,1.0*39
$GPGSA,A,3,67,68,69,75,83,84,,,,,,,1.2,0.6,1.0*33
$GPGSA,A,3,13,21,26,31,33,,,,,,,,1.2,0.6,1.0*31
$GPGSA,A,3,05,14,27,28,33,41,,,,,,,1.2,0.6,1.0*3C
$GPGST,211602.00,3.990,1.805,0.878,347.271,1.771,0.944,2.263*51
$GPGBS,211602.00,7.502,3.514,8.398,10,0.0001,-1.398,0.605*7D
$GPGRS,211602.00,1,1.7,-0.9,-1.4,1.1,0.3,,,,,,,*6F
$GPGRS,211602.00,1,7.2,2.8,0.1,-4.3,-0.1,-3.5,,,,,,*6B
$GPGRS,211602.00,1,0.7,-0.3,1.1,-1.0,11.0,,,,,,,*53
$GPGRS,211602.00,1,0.8,3.5,-0.5,0.2,-0.9,-1.6,,,,,,*62
$GPGSV,4,1,14,10,70,078,40,16,16,194,31,32,23,134,34,02,20,276,41*7D
$GPGSV,4,2,14,23,29,049,37,21,40,280,32,27,70,159,53,08,67,287,47*7B
$GPGSV,4,3,14,18,01,083,,14,00,336,,36,35,170,41,34,31,208,*74
$GPGSV,4,4,14,49,34,195,36,61,03,257,*7A
$GLGSV,3,1,10,68,54,090,42,69,31,158,41,67,25,032,39,75,24,317,45*6F
$GLGSV,3,2,10,74,23,260,30,83,44,077,36,84,53,318,43,73,03,222,*6C
$GLGSV,3,3,10,82,07,098,,85,07,291,24*6E
$GAGSV,3,1,10,14,76,198,,33,24,269,39,07,20,134,24,21,19,196,37*6A
$GAGSV,3,2,10,08,29,078,34,31,26,311,40,23,42,250,,13,46,069,43*6A
$GAGSV,3,3,10,26,72,300,41,03,10,030,26*6B
$GBGSV,5,1,20,28,77,089,46,41,34,172,42,58,15,255,,08,16,043,*67
$GBGSV,5,2,20,05,23,128,35,60,11,108,,42,21,042,33,43,15,111,*69
$GBGSV,5,3,20,13,24,046,32,46,14,272,,57,37,240,,27,52,298,45*68
$GBGSV,5,4,20,14,42,062,46,33,56,100,45,30,04,294,24,36,09,321,33*6C
$GBGSV,5,5,20,50,00,030,,37,01,224,,02,08,105,,38,02,046,*6B
$GPGGA,211602.00,,,,,0,00,,,M,,M,,*4E
$PTNL,GGK,211602.00,010125,4742.4458616,N,01617.9731123,E,1,22,1.2,EHT668.6224,M*41
$GPGGQ,211602.00,010125,4742.4458616,N,01617.9731123,E,1,22,3.025,625.4113,M*34
$GPGFA,211602.00,17.159,18.558,1.805,0.878,347.271,2.263,,VVV*05
$GPLLK,211602.00,010125,,M,,M,1,22,1.4,,M*08
$GNGMP,211602.00,,,,,DAAA,22,0.6,,,,*56
$GPGMP,211602.00,,,,,,05,,,,1.8,123*77
$GLGMP,211602.00,,,,,,06,,,,,*7F
$GAGMP,211602.00,,,,,,05,,,,,*71
$GBGMP,211602.00,,,,,,06,,,,,*71
$PSSN,SNC,[0,335780000,2347]*4E
$GPZDA,211607.00,01,01,2025,,*60
$GPDTM,W84,,00.0000000,N,00.0000000,E,00.0000000,W84*5F
$GPRMC,211607.00,A,4742.4458599,N,01617.9731131,E,0.0,,010125,5.1,E,D*1D
$GPGLL,4742.4458599,N,01617.9731131,E,211607.00,A,D*6C
$GPGGA,211607.00,4742.4458599,N,01617.9731131,E,2,23,0.6,625.4325,M,43.2111,M,2.8,0123*49
$GNGNS,211607.00,4742.4458599,N,01617.9731131,E,DAAA,23,0.6,625.4325,43.2111,,*5F
$GPGNS,211607.00,,,,,,05,,,,2.8,123*71
$GLGNS,211607.00,,,,,,06,,,,,*7A
$GAGNS,211607.00,,,,,,05,,,,,*74
$GBGNS,211607.00,,,,,,07,,,,,*75
$GPLLQ,211607.00,010125,,M,,M,1,23,2.527,,M*11
$GPVTG,,T,,M,0.01,N,0.01,K,D*26
$GPHDT,,T*1B
$GPTHS,,V*0E
$GPROT,,V*08
$PSSN,HRP,211607.00,010125,,,,,,,00,0,,*62
$PTNL,AVR,211607.00,,Yaw,,Tilt,,,,0,,00*34
$GPGSA,A,3,02,08,10,23,27,,,,,,,,1.1,0.6,0.9*32
$GPGSA,A,3,67,68,69,75,83,84,,,,,,,1.1,0.6,0.9*38
$GPGSA,A,3,13,21,26,31,33,,,,,,,,1.1,0.6,0.9*3A
$GPGSA,A,3,05,14,27,28,33,36,41,,,,,,1.1,0.6,0.9*32
$GPGST,211607.00,4.566,1.520,0.735,347.842,1.494,0.787,1.880*5D
$GPGBS,211607.00,7.480,3.523,8.516,67,0.0001,10.904,6.225*65
$GPGRS,211607.00,1,0.1,-0.2,-1.1,1.1,0.7,,,,,,,*67
$GPGRS,211607.00,1,10.9,3.8,3.5,-4.7,-0.8,-2.9,,,,,,*55
$GPGRS,211607.00,1,1.2,-0.4,2.1,-0.7,10.4,,,,,,,*55
$GPGRS,211607.00,1,1.6,2.1,0.1,0.2,-2.2,-2.9,4.4,,,,,*6F
$GPGSV,4,1,14,10,70,078,38,16,16,194,30,32,23,134,33,02,20,276,41*74
$GPGSV,4,2,14,23,29,049,38,21,40,280,30,27,70,159,53,08,67,287,48*79
$GPGSV,4,3,14,18,01,083,,14,00,336,,36,35,170,41,34,31,208,*74
$GPGSV,4,4,14,49,34,195,36,61,03,257,*7A
$GLGSV,3,1,10,68,54,089,42,69,31,158,40,67,25,032,39,75,24,317,44*67
$GLGSV,3,2,10,74,23,260,29,83,44,077,35,84,53,318,43,73,03,222,*67
$GLGSV,3,3,10,82,07,098,,85,07,291,33*68
$GAGSV,3,1,10,14,76,198,,33,24,269,39,07,20,134,20,21,19,196,37*6E
$GAGSV,3,2,10,08,29,078,35,31,26,311,40,23,42,250,,13,46,069,43*6B
$GAGSV,3,3,10,26,72,300,42,03,10,030,25*6B
$GBGSV,5,1,20,28,77,089,45,41,34,172,43,58,15,255,,08,16,043,26*61
$GBGSV,5,2,20,05,23,128,36,60,11,108,,42,21,042,36,43,15,111,*6F
$GBGSV,5,3,20,13,24,046,30,46,14,272,,57,37,240,,27,52,298,45*6A
$GBGSV,5,4,20,14,42,062,46,33,56,100,44,30,05,294,23,36,09,321,36*6E
$GBGSV,5,5,20,50,00,030,,37,01,224,,02,08,105,,38,02,046,*6B
$GPGGA,211607.00,,,,,0,00,,,M,,M,,*4B
$PTNL,GGK,211607.00,010125,4742.4458599,N,01617.9731131,E,1,23,1.1,EHT668.6435,M*47
$GPGGQ,211607.00,010125,4742.4458599,N,01617.9731131,E,1,23,2.527,625.4325,M*36
$GPGFA,211607.00,14.450,15.420,1.520,0.735,347.842,1.880,,VVV*0E
$GPLLK,211607.00,010125,,M,,M,1,23,1.3,,M*0B
$GNGMP,211607.00,,,,,DAAA,23,0.6,,,,*52
$GPGMP,211607.00,,,,,,05,,,,2.8,123*71
$GLGMP,211607.00,,,,,,06,,,,,*7A
$GAGMP,211607.00,,,,,,05,,,,,*74
$GBGMP,211607.00,,,,,,07,,,,,*75
$PSSN,SNC,[0,335785000,2347]*4B
$GPZDA,211612.00,01,01,2025,,*64
$GPDTM,W84,,00.0000000,N,00.0000000,E,00.0000000,W84*5F
$GPRMC,211612.00,A,4742.4458576,N,01617.9731051,E,0.0,,010125,5.1,E,D*1F
$GPGLL,4742.4458576,N,01617.9731051,E,211612.00,A,D*6E
$GPGGA,211612.00,4742.4458576,N,01617.9731051,E,2,23,0.6,625.4431,M,43.2111,M,2.2,0123*43
$GNGNS,211612.00,4742.4458576,N,01617.9731051,E,DAAA,23,0.6,625.4431,43.2111,,*5F
$GPGNS,211612.00,,,,,,05,,,,2.2,123*7F
$GLGNS,211612.00,,,,,,04,,,,,*7C
$GAGNS,211612.00,,,,,,06,,,,,*73
$GBGNS,211612.00,,,,,,08,,,,,*7E
$GPLLQ,211612.00,010125,,M,,M,1,23,2.269,,M*18
$GPVTG,,T,,M,0.00,N,0.00,K,D*26
$GPHDT,,T*1B
$GPTHS,,V*0E
$GPROT,,V*08
$PSSN,HRP,211612.00,010125,,,,,,,00,0,,*66
$PTNL,AVR,211612.00,,Yaw,,Tilt,,,,0,,00*30
$GPGSA,A,3,02,08,10,23,27,,,,,,,,1.1,0.6,0.9*32
$GPGSA,A,3,67,68,75,84,,,,,,,,,1.1,0.6,0.9*3C
$GPGSA,A,3,08,13,21,26,31,33,,,,,,,1.1,0.6,0.9*32
$GPGSA,A,3,05,14,27,28,33,36,41,42,,,,,1.1,0.6,0.9*34
$GPGST,211612.00,4.822,1.375,0.637,347.399,1.349,0.691,1.689*5A
$GPGBS,211612.00,7.754,3.586,8.955,67,0.0001,10.720,6.229*6B
$GPGRS,211612.00,1,-0.2,0.0,0.2,0.6,-0.2,,,,,,,*63
$GPGRS,211612.00,1,10.7,3.8,-6.4,-4.4,,,,,,,,*76
$GPGRS,211612.00,1,0.1,0.3,-1.3,1.1,-1.9,8.2,,,,,,*4B
$GPGRS,211612.00,1,0.8,-2.0,-0.6,-1.2,-3.7,-6.3,5.8,3.8,,,,*6C
$GPGSV,4,1,14,10,70,078,35,16,16,194,29,32,23,134,32,02,20,276,40*71
$GPGSV,4,2,14,23,29,049,40,21,40,280,27,27,70,159,53,08,67,287,48*70
$GPGSV,4,3,14,18,01,084,,14,00,336,,36,35,170,42,34,31,208,*70
$GPGSV,4,4,14,49,34,195,36,61,03,257,*7A
$GLGSV,3,1,10,68,54,089,45,69,31,158,19,67,25,032,36,75,24,317,45*62
$GLGSV,3,2,10,74,23,260,28,83,44,077,34,84,53,318,43,73,03,222,*67
$GLGSV,3,3,10,82,07,098,,85,07,291,*68
$GAGSV,3,1,10,14,76,198,,33,24,269,39,07,20,133,28,21,19,196,38*6E
$GAGSV,3,2,10,08,29,078,35,31,26,311,39,23,42,250,,13,46,069,43*65
$GAGSV,3,3,10,26,72,300,42,03,10,030,23*6D
$GBGSV,5,1,20,28,77,089,44,41,34,172,43,58,15,255,,08,16,043,27*61
$GBGSV,5,2,20,05,23,128,36,60,11,108,,42,21,042,36,43,15,112,*6C
$GBGSV,5,3,20,13,24,046,29,46,14,272,,57,37,240,,27,52,298,46*61
$GBGSV,5,4,20,14,42,062,45,33,56,100,42,30,05,294,26,36,09,321,38*60
$GBGSV,5,5,20,50,00,030,,37,01,224,,02,08,105,,38,02,046,*6B
$GPGGA,211612.00,,,,,0,00,,,M,,M,,*4F
$PTNL,GGK,211612.00,010125,4742.4458576,N,01617.9731051,E,1,23,1.1,EHT668.6542,M*44
$GPGGQ,211612.00,010125,4742.4458576,N,01617.9731051,E,1,23,2.269,625.4431,M*3B
$GPGFA,211612.00,13.074,13.847,1.375,0.637,347.399,1.689,,VVV*0B
$GPLLK,211612.00,010125,,M,,M,1,23,1.2,,M*0E
$GNGMP,211612.00,,,,,DAAA,23,0.6,,,,*56
$GPGMP,211612.00,,,,,,05,,,,2.2,123*7F
$GLGMP,211612.00,,,,,,04,,,,,*7C
$GAGMP,211612.00,,,,,,06,,,,,*73
$GBGMP,211612.00,,,,,,08,,,,,*7E
$PSSN,SNC,[0,335790000,2347]*4F
$GPZDA,211617.00,01,01,2025,,*61
$GPDTM,W84,,00.0000000,N,00.0000000,E,00.0000000,W84*5F
$GPRMC,211617.00,A,4742.4458550,N,01617.9731070,E,0.0,,010125,5.1,E,D*1D
$GPGLL,4742.4458550,N,01617.9731070,E,211617.00,A,D*6C
$GPGGA,211617.00,4742.4458550,N,01617.9731070,E,2,22,0.6,625.4605,M,43.2111,M,3.0,0123*46
$GNGNS,211617.00,4742.4458550,N,01617.9731070,E,DAAA,22,0.6,625.4605,43.2111,,*59
$GPGNS,211617.00,,,,,,04,,,,3.0,123*78
$GLGNS,211617.00,,,,,,05,,,,,*78
$GAGNS,211617.00,,,,,,06,,,,,*76
$GBGNS,211617.00,,,,,,07,,,,,*74
$GPLLQ,211617.00,010125,,M,,M,1,22,3.400,,M*14
$GPVTG,,T,,M,0.00,N,0.00,K,D*26
$GPHDT,,T*1B
$GPTHS,,V*0E
$GPROT,,V*08
$PSSN,HRP,211617.00,010125,,,,,,,00,0,,*63
$PTNL,AVR,211617.00,,Yaw,,Tilt,,,,0,,00*35
$GPGSA,A,3,02,08,23,27,,,,,,,,,1.1,0.6,0.9*33
$GPGSA,A,3,67,68,75,84,85,,,,,,,,1.1,0.6,0.9*31
$GPGSA,A,3,08,13,21,26,31,33,,,,,,,1.1,0.6,0.9*32
$GPGSA,A,3,05,14,27,28,33,36,41,,,,,,1.1,0.6,0.9*32
$GPGST,211617.00,7.869,1.993,0.990,349.475,1.968,1.039,2.571*53
$GPGBS,211617.00,7.179,3.709,10.694,85,0.0001,21.113,6.377*5B
$GPGRS,211617.00,1,0.7,-0.1,0.8,-0.6,,,,,,,,*44
$GPGRS,211617.00,1,4.5,6.0,-6.5,-4.3,21.1,,,,,,,*53
$GPGRS,211617.00,1,0.6,-0.1,-2.2,0.2,-2.5,7.4,,,,,,*60
$GPGRS,211617.00,1,-0.4,-3.3,-1.0,-1.9,-3.3,16.1,3.3,,,,,*74
$GPGSV,4,1,14,10,70,078,35,16,16,194,29,32,23,134,35,02,20,276,40*76
$GPGSV,4,2,14,23,29,049,40,21,40,280,31,27,69,159,52,08,67,287,49*7F
$GPGSV,4,3,14,18,01,084,,14,00,336,,36,35,170,42,34,31,208,*70
$GPGSV,4,4,14,49,34,195,36,61,03,257,*7A
$GLGSV,3,1,10,68,54,089,45,69,31,158,,67,25,032,37,75,24,317,43*6D
$GLGSV,3,2,10,74,23,260,24,83,44,077,34,84,53,318,43,73,03,222,*6B
$GLGSV,3,3,10,82,07,098,,85,07,291,35*6E
$GAGSV,3,1,10,14,76,197,,33,24,269,38,07,20,133,24,21,19,196,38*6C
$GAGSV,3,2,10,08,29,078,36,31,26,311,40,23,42,250,,13,46,069,42*69
$GAGSV,3,3,10,26,72,300,42,03,10,030,22*6C
$GBGSV,5,1,20,28,77,089,43,41,34,172,43,58,15,255,,08,16,043,27*66
$GBGSV,5,2,20,05,23,128,36,60,11,108,,42,21,041,27,43,15,112,*6F
$GBGSV,5,3,20,13,24,046,28,46,14,272,,57,37,240,,27,52,298,46*60
$GBGSV,5,4,20,14,42,062,45,33,56,100,42,30,05,294,,36,09,321,39*65
$GBGSV,5,5,20,50,00,030,,37,01,224,,02,08,105,,38,02,046,*6B
$GPGGA,211617.00,,,,,0,00,,,M,,M,,*4A
$PTNL,GGK,211617.00,010125,4742.4458550,N,01617.9731070,E,1,22,1.1,EHT668.6715,M*47
$GPGGQ,211617.00,010125,4742.4458550,N,01617.9731070,E,1,22,3.400,625.4605,M*35
$GPGFA,211617.00,18.952,21.079,1.993,0.990,349.475,2.571,,VVV*00
$GPLLK,211617.00,010125,,M,,M,1,22,1.2,,M*0A
$GNGMP,211617.00,,,,,DAAA,22,0.6,,,,*52
$GPGMP,211617.00,,,,,,04,,,,3.0,123*78
$GLGMP,211617.00,,,,,,05,,,,,*78
$GAGMP,211617.00,,,,,,06,,,,,*76
$GBGMP,211617.00,,,,,,07,,,,,*74
$PSSN,SNC,[0,335795000,2347]*4A
$GPZDA,211622.00,01,01,2025,,*67
$GPDTM,W84,,00.0000000,N,00.0000000,E,00.0000000,W84*5F
$GPRMC,211622.00,A,4742.4458451,N,01617.9731126,E,0.0,,010125,5.1,E,D*19
$GPGLL,4742.4458451,N,01617.9731126,E,211622.00,A,D*68
$GPGGA,211622.00,4742.4458451,N,01617.9731126,E,2,24,0.6,625.4884,M,43.2111,M,2.0,0123*42
$GNGNS,211622.00,4742.4458451,N,01617.9731126,E,DAAA,24,0.6,625.4884,43.2111,,*5C
$GPGNS,211622.00,,,,,,06,,,,2.0,123*7D
$GLGNS,211622.00,,,,,,05,,,,,*7E
$GAGNS,211622.00,,,,,,06,,,,,*70
$GBGNS,211622.00,,,,,,07,,,,,*72
$GPLLQ,211622.00,010125,,M,,M,1,24,3.645,,M*17
$GPVTG,,T,,M,0.00,N,0.01,K,D*27
$GPHDT,,T*1B
$GPTHS,,V*0E
$GPROT,,V*08
$PSSN,HRP,211622.00,010125,,,,,,,00,0,,*65
$PTNL,AVR,211622.00,,Yaw,,Tilt,,,,0,,00*33
$GPGSA,A,3,02,08,10,21,23,27,,,,,,,1.0,0.6,0.9*30
$GPGSA,A,3,67,68,75,84,85,,,,,,,,1.0,0.6,0.9*30
$GPGSA,A,3,08,13,21,26,31,33,,,,,,,1.0,0.6,0.9*33
$GPGSA,A,3,05,14,27,28,33,36,41,,,,,,1.0,0.6,0.9*33
$GPGST,211622.00,7.667,2.194,0.955,349.960,2.167,1.015,2.750*52
$GPGBS,211622.00,7.914,3.023,8.454,85,0.0001,19.804,6.374*61
$GPGRS,211622.00,1,0.6,-0.1,-0.8,1.0,1.3,-0.7,,,,,,*6C
$GPGRS,211622.00,1,6.1,6.8,-8.4,-4.0,19.8,,,,,,,*55
$GPGRS,211622.00,1,1.1,-0.4,-2.7,0.8,-2.5,10.1,,,,,,*59
$GPGRS,211622.00,1,0.1,-4.2,-1.1,-1.3,-2.6,17.0,-0.1,,,,,*7F
$GPGSV,4,1,14,10,70,078,37,16,16,194,28,32,24,134,37,02,20,276,40*70
$GPGSV,4,2,14,23,29,049,40,21,40,280,36,27,69,159,52,08,67,287,49*78
$GPGSV,4,3,14,18,01,084,,14,00,336,,36,35,170,41,34,31,208,*73
$GPGSV,4,4,14,49,34,195,36,61,03,257,*7A
$GLGSV,3,1,10,68,54,089,44,69,31,157,25,67,25,032,38,75,24,316,41*68
$GLGSV,3,2,10,74,23,260,,83,44,077,35,84,54,318,43,73,03,222,*6B
$GLGSV,3,3,10,82,07,098,,85,07,291,36*6D
$GAGSV,3,1,10,14,76,197,,33,24,269,39,07,20,133,23,21,19,196,38*6A
$GAGSV,3,2,10,08,29,078,37,31,26,311,40,23,42,250,,13,46,069,42*68
$GAGSV,3,3,10,26,72,300,42,03,10,030,21*6F
$GBGSV,5,1,20,28,77,089,42,41,34,172,42,58,15,255,,08,16,043,27*66
$GBGSV,5,2,20,05,23,128,36,60,11,108,,42,21,041,34,43,15,112,*6D
$GBGSV,5,3,20,13,24,046,27,46,14,272,,57,37,240,,27,52,298,47*6E
$GBGSV,5,4,20,14,42,062,44,33,56,100,41,30,05,294,31,36,09,321,40*6B
$GBGSV,5,5,20,50,00,030,,37,01,224,,02,08,105,,38,02,046,*6B
$GPGGA,211622.00,,,,,0,00,,,M,,M,,*4C
$PTNL,GGK,211622.00,010125,4742.4458451,N,01617.9731126,E,1,24,1.0,EHT668.6994,M*43
$GPGGQ,211622.00,010125,4742.4458451,N,01617.9731126,E,1,24,3.645,625.4884,M*33
$GPGFA,211622.00,20.861,22.546,2.194,0.955,349.960,2.750,,VVV*0B
$GPLLK,211622.00,010125,,M,,M,1,24,1.2,,M*0A
$GNGMP,211622.00,,,,,DAAA,24,0.6,,,,*52
$GPGMP,211622.00,,,,,,06,,,,2.0,123*7D
$GLGMP,211622.00,,,,,,05,,,,,*7E
$GAGMP,211622.00,,,,,,06,,,,,*70
$GBGMP,211622.00,,,,,,07,,,,,*72
$PSSN,SNC,[0,335800000,2347]*49
$GPZDA,211627.00,01,01,2025,,*62
$GPDTM,W84,,00.0000000,N,00.0000000,E,00.0000000,W84*5F
$GPRMC,211627.00,A,4742.4458263,N,01617.9731257,E,0.0,,010125,5.1,E,D*1E
$GPGLL,4742.4458263,N,01617.9731257,E,211627.00,A,D*6F
$GPGGA,211627.00,4742.4458263,N,01617.9731257,E,2,24,0.6,625.5349,M,43.2111,M,3.0,0123*4F
$GNGNS,211627.00,4742.4458263,N,01617.9731257,E,DAAA,24,0.6,625.5349,43.2111,,*50
$GPGNS,211627.00,,,,,,06,,,,3.0,123*79
$GLGNS,211627.00,,,,,,05,,,,,*7B
$GAGNS,211627.00,,,,,,06,,,,,*75
$GBGNS,211627.00,,,,,,07,,,,,*77
$GPLLQ,211627.00,010125,,M,,M,1,24,4.551,,M*13
$GPVTG,,T,,M,0.01,N,0.02,K,D*25
$GPHDT,,T*1B
$GPTHS,,V*0E
$GPROT,,V*08
$PSSN,HRP,211627.00,010125,,,,,,,00,0,,*60
$PTNL,AVR,211627.00,,Yaw,,Tilt,,,,0,,00*36
$GPGSA,A,3,02,08,10,21,23,27,,,,,,,1.0,0.6,0.9*30
$GPGSA,A,3,67,68,75,84,85,,,,,,,,1.0,0.6,0.9*30
$GPGSA,A,3,08,13,21,26,31,33,,,,,,,1.0,0.6,0.9*33
$GPGSA,A,3,05,14,27,28,33,36,41,,,,,,1.0,0.6,0.9*33
$GPGST,211627.00,6.782,2.775,1.179,350.647,2.745,1.248,3.409*52
$GPGBS,211627.00,8.040,3.055,8.523,21,0.0001,2.271,0.721*5D
$GPGRS,211627.00,1,0.4,-1.0,-1.0,2.3,3.1,-1.6,,,,,,*62
$GPGRS,211627.00,1,10.5,5.3,-8.4,-4.8,14.7,,,,,,,*61
$GPGRS,211627.00,1,0.7,-1.0,-3.6,-0.1,-3.4,13.0,,,,,,*78
$GPGRS,211627.00,1,-0.4,-5.7,-1.9,-1.3,-2.1,-8.7,-1.4,,,,,*49
$GPGSV,4,1,14,10,70,078,39,16,16,194,28,32,24,134,37,02,20,276,38*71
$GPGSV,4,2,14,23,29,049,40,21,40,280,38,27,69,159,52,08,67,287,48*77
$GPGSV,4,3,14,18,01,084,,14,00,336,,36,35,170,41,34,31,208,*73
$GPGSV,4,4,14,49,34,195,36,61,03,257,*7A
$GLGSV,3,1,10,68,54,089,44,69,31,157,,67,25,032,38,75,24,316,44*6A
$GLGSV,3,2,10,74,23,260,,83,44,077,34,84,54,318,43,73,03,222,*6A
$GLGSV,3,3,10,82,07,098,,85,07,291,36*6D
$GAGSV,3,1,10,14,76,197,,33,24,269,38,07,20,133,25,21,19,196,38*6D
$GAGSV,3,2,10,08,29,078,38,31,26,311,40,23,42,250,,13,46,069,42*67
$GAGSV,3,3,10,26,72,301,41,03,10,030,20*6C
$GBGSV,5,1,20,28,77,089,42,41,34,172,41,58,15,255,,08,16,043,28*6A
$GBGSV,5,2,20,05,23,128,36,60,11,108,,42,21,041,34,43,15,112,*6D
$GBGSV,5,3,20,13,24,046,21,46,14,272,,57,37,240,,27,52,298,47*68
$GBGSV,5,4,20,14,42,062,44,33,56,100,40,30,05,294,33,36,09,321,37*68
$GBGSV,5,5,20,50,00,030,,37,01,224,,02,08,105,,38,02,046,*6B
$GPGGA,211627.00,,,,,0,00,,,M,,M,,*49
$PTNL,GGK,211627.00,010125,4742.4458263,N,01617.9731257,E,1,24,1.0,EHT668.7459,M*49
$GPGGQ,211627.00,010125,4742.4458263,N,01617.9731257,E,1,24,4.551,625.5349,M*3E
$GPGFA,211627.00,26.384,27.958,2.775,1.179,350.647,3.409,,VVV*0C
$GPLLK,211627.00,010125,,M,,M,1,24,1.2,,M*0F
$GNGMP,211627.00,,,,,DAAA,24,0.6,,,,*57
$GPGMP,211627.00,,,,,,06,,,,3.0,123*79
$GLGMP,211627.00,,,,,,05,,,,,*7B
$GAGMP,211627.00,,,,,,06,,,,,*75
$GBGMP,211627.00,,,,,,07,,,,,*77
$PSSN,SNC,[0,335805000,2347]*4C
$GPZDA,211632.00,01,01,2025,,*66
$GPDTM,W84,,00.0000000,N,00.0000000,E,00.0000000,W84*5F
$GPRMC,211632.00,A,4742.4458176,N,01617.9731456,E,0.0,,010125,5.1,E,D*1A
$GPGLL,4742.4458176,N,01617.9731456,E,211632.00,A,D*6B
$GPGGA,211632.00,4742.4458176,N,01617.9731456,E,2,24,0.6,625.5844,M,43.2110,M,2.2,0123*4F
$GNGNS,211632.00,4742.4458176,N,01617.9731456,E,DAAA,24,0.6,625.5844,43.2110,,*53
$GPGNS,211632.00,,,,,,05,,,,2.2,123*7D
$GLGNS,211632.00,,,,,,06,,,,,*7C
$GAGNS,211632.00,,,,,,06,,,,,*71
$GBGNS,211632.00,,,,,,07,,,,,*73
$GPLLQ,211632.00,010125,,M,,M,1,24,5.209,,M*1C
$GPVTG,,T,,M,0.00,N,0.00,K,D*26
$GPHDT,,T*1B
$GPTHS,,V*0E
$GPROT,,V*08
$PSSN,HRP,211632.00,010125,,,,,,,00,0,,*64
