$GPZDA,055942.00,01,01,2025,,*6C
$GPDTM,W84,,00.0000000,N,00.0000000,E,00.0000000,W84*5F
$GPRMC,055942.00,A,4742.4463533,N,01617.9728997,E,0.0,,010125,5.1,E,D*15
$GPGLL,4742.4463533,N,01617.9728997,E,055942.00,A,D*64
$GPGGA,055942.00,4742.4463533,N,01617.9728997,E,2,18,1.1,624.0020,M,43.2111,M,2.8,0123*4C
$GNGNS,055942.00,4742.4463533,N,01617.9728997,E,DAAA,18,1.1,624.0020,43.2111,,*5A
$GPGNS,055942.00,,,,,,04,,,,2.8,123*7C
$GLGNS,055942.00,,,,,,05,,,,,*75
$GAGNS,055942.00,,,,,,04,,,,,*79
$GBGNS,055942.00,,,,,,05,,,,,*7B
$GPLLQ,055942.00,010125,,M,,M,1,18,3.704,,M*17
$GPVTG,,T,,M,0.01,N,0.01,K,D*26
$GPHDT,,T*1B
$GPTHS,,V*0E
$GPROT,,V*08
$PSSN,HRP,055942.00,010125,,,,,,,00,0,,*6E
$PTNL,AVR,055942.00,,Yaw,,Tilt,,,,0,,00*38
$GPGSA,A,3,05,07,20,30,,,,,,,,,1.6,1.1,1.2*35
$GPGSA,A,3,71,72,73,74,88,,,,,,,,1.6,1.1,1.2*32
$GPGSA,A,3,03,05,15,24,,,,,,,,,1.6,1.1,1.2*32
$GPGSA,A,3,05,19,21,22,36,,,,,,,,1.6,1.1,1.2*3D
$GPGST,055942.00,3.914,1.340,1.002,330.222,1.265,1.095,3.304*59
$GPGBS,055942.00,9.219,7.096,18.312,88,0.0001,-8.206,6.216*41
$GPGRS,055942.00,1,1.0,0.2,-0.5,-0.3,,,,,,,,*44
$GPGRS,055942.00,1,-7.8,3.5,0.3,-0.2,-8.2,,,,,,,*40
$GPGRS,055942.00,1,-1.9,-2.1,0.4,-1.4,,,,,,,,*66
$GPGRS,055942.00,1,0.1,-1.9,-1.3,-3.2,1.0,,,,,,,*49
$GPGSV,4,1,15,07,73,076,49,06,13,211,35,05,29,311,44,04,11,090,*77
$GPGSV,4,2,15,13,13,272,36,11,29,245,44,30,64,211,46,09,38,088,29*79
$GPGSV,4,3,15,20,58,284,42,16,08,029,,14,08,170,,36,35,170,41*72
$GPGSV,4,4,15,34,31,208,,49,34,195,33,61,03,257,*41
$GLGSV,3,1,11,72,67,346,50,87,10,246,,65,16,303,30,75,14,184,28*6E
$GLGSV,3,2,11,88,21,303,37,71,46,094,36,73,50,055,48,74,57,144,46*60
$GLGSV,3,3,11,81,08,354,32,70,02,112,,80,04,023,*5D
$GAGSV,3,1,11,05,72,059,44,13,12,331,29,25,14,159,,09,20,086,19*6F
$GAGSV,3,2,11,31,24,049,32,16,28,138,,34,25,221,35,24,36,108,41*6E
$GAGSV,3,3,11,15,35,280,38,03,48,283,44,08,00,273,*53
$GBGSV,5,1,20,22,87,046,49,50,12,300,,45,30,189,34,05,22,129,35*64
$GBGSV,5,2,20,58,18,041,,09,24,053,34,19,33,118,41,21,35,302,45*61
$GBGSV,5,3,20,46,32,051,,36,62,124,39,02,06,108,,34,07,290,25*65
$GBGSV,5,4,20,16,07,052,,40,03,076,,06,10,053,,12,06,263,24*6C
$GBGSV,5,5,20,48,07,119,,11,05,311,,10,05,096,,60,07,111,*66
$GPGGA,055942.00,,,,,0,00,,,M,,M,,*47
$PTNL,GGK,055942.00,010125,4742.4463533,N,01617.9728997,E,1,18,1.6,EHT667.2131,M*4A
$GPGGQ,055942.00,010125,4742.4463533,N,01617.9728997,E,1,18,3.704,624.0020,M*37
$GPGFA,055942.00,12.742,27.095,1.340,1.002,330.222,3.304,,VVV*04
$GPLLK,055942.00,010125,,M,,M,1,18,1.8,,M*04
$GNGMP,055942.00,,,,,DAAA,18,1.1,,,,*50
$GPGMP,055942.00,,,,,,04,,,,2.8,123*7C
$GLGMP,055942.00,,,,,,05,,,,,*75
$GAGMP,055942.00,,,,,,04,,,,,*79
$GBGMP,055942.00,,,,,,05,,,,,*7B
$PSSN,SNC,[0,280800000,2347]*46
$GPZDA,055947.00,01,01,2025,,*69
$GPDTM,W84,,00.0000000,N,00.0000000,E,00.0000000,W84*5F
$GPRMC,055947.00,A,4742.4463484,N,01617.9729008,E,0.0,,010125,5.1,E,D*13
$GPGLL,4742.4463484,N,01617.9729008,E,055947.00,A,D*62
$GPGGA,055947.00,4742.4463484,N,01617.9729008,E,2,19,0.8,623.9940,M,43.2111,M,2.8,0123*42
$GNGNS,055947.00,4742.4463484,N,01617.9729008,E,DAAA,19,0.8,623.9940,43.2111,,*54
$GPGNS,055947.00,,,,,,06,,,,2.8,123*7B
$GLGNS,055947.00,,,,,,04,,,,,*71
$GAGNS,055947.00,,,,,,04,,,,,*7C
$GBGNS,055947.00,,,,,,05,,,,,*7E
$GPLLQ,055947.00,010125,,M,,M,1,19,2.228,,M*19
$GPVTG,,T,,M,0.01,N,0.01,K,D*26
$GPHDT,,T*1B
$GPTHS,,V*0E
$GPROT,,V*08
$PSSN,HRP,055947.00,010125,,,,,,,00,0,,*6B
$PTNL,AVR,055947.00,,Yaw,,Tilt,,,,0,,00*3D
$GPGSA,A,3,05,06,07,11,20,30,,,,,,,1.4,0.8,1.1*3A
$GPGSA,A,3,72,73,74,88,,,,,,,,,1.4,0.8,1.1*3D
$GPGSA,A,3,03,05,15,24,,,,,,,,,1.4,0.8,1.1*3B
$GPGSA,A,3,05,19,21,22,36,,,,,,,,1.4,0.8,1.1*34
$GPGST,055947.00,2.441,1.119,0.787,68.122,0.841,1.079,1.758*68
$GPGBS,055947.00,4.836,5.738,7.880,11,0.0001,2.878,0.766*51
$GPGRS,055947.00,1,-0.2,-1.0,0.3,2.9,-0.1,-0.7,,,,,,*49
$GPGRS,055947.00,1,4.3,0.9,0.3,-4.8,,,,,,,,*68
$GPGRS,055947.00,1,-1.7,-1.3,0.6,-0.7,,,,,,,,*6C
$GPGRS,055947.00,1,1.0,-0.8,-1.5,-2.8,1.4,,,,,,,*45
$GPGSV,4,1,15,07,73,076,49,06,13,211,35,05,29,311,44,04,11,090,*77
$GPGSV,4,2,15,13,13,272,35,11,29,245,43,30,64,211,46,09,38,088,27*73
$GPGSV,4,3,15,20,58,284,42,16,08,029,,14,08,170,,36,35,170,41*72
$GPGSV,4,4,15,34,31,208,,49,34,195,33,61,03,257,*41
$GLGSV,3,1,11,72,67,346,50,87,10,246,23,65,16,303,31,75,14,184,27*61
$GLGSV,3,2,11,88,21,303,40,71,46,094,34,73,50,055,47,74,57,143,46*6A
$GLGSV,3,3,11,81,08,354,34,70,02,112,,80,04,023,*5B
$GAGSV,3,1,11,05,72,059,44,13,12,331,29,25,14,159,,09,20,086,29*6C
$GAGSV,3,2,11,31,24,049,31,16,28,138,,34,25,221,35,24,36,108,41*6D
$GAGSV,3,3,11,15,35,280,38,03,48,283,43,08,00,273,*54
$GBGSV,5,1,20,22,87,047,49,50,12,300,,45,30,189,33,05,22,129,35*62
$GBGSV,5,2,20,58,18,041,,09,24,053,33,19,33,118,41,21,35,302,45*66
$GBGSV,5,3,20,46,32,051,,36,62,124,39,02,06,108,,34,07,290,26*66
$GBGSV,5,4,20,16,07,052,,40,03,076,,06,10,053,,12,06,263,23*6B
$GBGSV,5,5,20,48,07,119,,11,05,311,,10,05,096,,60,07,111,*66
$GPGGA,055947.00,,,,,0,00,,,M,,M,,*42
$PTNL,GGK,055947.00,010125,4742.4463484,N,01617.9729008,E,1,19,1.4,EHT667.2050,M*49
$GPGGQ,055947.00,010125,4742.4463484,N,01617.9729008,E,1,19,2.228,623.9940,M*3B
$GPGFA,055947.00,10.636,14.418,1.119,0.787,68.122,1.758,,VVV*37
$GPLLK,055947.00,010125,,M,,M,1,19,1.6,,M*0E
$GNGMP,055947.00,,,,,DAAA,19,0.8,,,,*5C
$GPGMP,055947.00,,,,,,06,,,,2.8,123*7B
$GLGMP,055947.00,,,,,,04,,,,,*71
$GAGMP,055947.00,,,,,,04,,,,,*7C
$GBGMP,055947.00,,,,,,05,,,,,*7E
$PSSN,SNC,[0,280805000,2347]*43
$GPZDA,055952.00,01,01,2025,,*6D
$GPDTM,W84,,00.0000000,N,00.0000000,E,00.0000000,W84*5F
$GPRMC,055952.00,A,4742.4463481,N,01617.9729010,E,0.0,,010125,5.1,E,D*1B
$GPGLL,4742.4463481,N,01617.9729010,E,055952.00,A,D*6A
$GPGGA,055952.00,4742.4463481,N,01617.9729010,E,2,23,0.6,624.0011,M,43.2111,M,3.2,0123*45
$GNGNS,055952.00,4742.4463481,N,01617.9729010,E,DAAA,23,0.6,624.0011,43.2111,,*58
$GPGNS,055952.00,,,,,,06,,,,3.2,123*74
$GLGNS,055952.00,,,,,,06,,,,,*77
$GAGNS,055952.00,,,,,,06,,,,,*7A
$GBGNS,055952.00,,,,,,05,,,,,*7A
$GPLLQ,055952.00,010125,,M,,M,1,23,2.241,,M*1B
$GPVTG,,T,,M,0.00,N,0.00,K,D*26
$GPHDT,,T*1B
$GPTHS,,V*0E
$GPROT,,V*08
$PSSN,HRP,055952.00,010125,,,,,,,00,0,,*6F
$PTNL,AVR,055952.00,,Yaw,,Tilt,,,,0,,00*39
$GPGSA,A,3,05,06,07,11,20,30,,,,,,,1.0,0.6,0.9*39
$GPGSA,A,3,71,72,73,74,81,88,,,,,,,1.0,0.6,0.9*31
$GPGSA,A,3,03,05,13,15,24,34,,,,,,,1.0,0.6,0.9*3D
$GPGSA,A,3,05,19,21,22,36,,,,,,,,1.0,0.6,0.9*37
$GPGST,055952.00,4.475,1.108,0.809,72.800,0.839,1.085,1.773*63
$GPGBS,055952.00,4.460,5.795,7.911,81,0.0001,12.062,6.428*60
$GPGRS,055952.00,1,0.1,-0.9,0.6,0.6,-1.0,0.2,,,,,,*4B
$GPGRS,055952.00,1,-7.9,4.0,0.4,-0.0,12.1,1.9,,,,,,*74
$GPGRS,055952.00,1,-2.1,-1.0,7.7,-0.2,-0.7,3.3,,,,,,*47
$GPGRS,055952.00,1,1.7,-1.0,-1.6,-2.3,1.2,,,,,,,*41
$GPGSV,4,1,15,07,73,076,49,06,13,211,35,05,29,311,45,04,11,090,*76
$GPGSV,4,2,15,13,13,272,,11,29,245,42,09,38,088,29,30,64,211,47*7B
$GPGSV,4,3,15,20,58,284,42,16,08,029,,14,08,170,,36,35,170,41*72
$GPGSV,4,4,15,34,31,208,,49,34,195,34,61,03,257,*46
$GLGSV,3,1,11,72,67,346,50,87,10,246,24,65,16,303,28,75,14,184,27*6E
$GLGSV,3,2,11,88,21,303,42,71,46,094,36,73,50,055,46,74,57,143,46*6B
$GLGSV,3,3,11,81,08,354,36,70,02,112,,80,04,023,26*5D
$GAGSV,3,1,11,05,72,059,44,13,12,331,32,25,14,159,,09,20,086,26*69
$GAGSV,3,2,11,31,24,049,30,16,28,138,,34,25,221,35,24,36,108,41*6C
$GAGSV,3,3,11,15,35,280,39,03,48,283,42,08,00,273,*54
$GBGSV,5,1,20,22,87,048,49,50,12,300,,45,30,189,32,05,22,129,36*6F
$GBGSV,5,2,20,58,18,041,,09,24,053,33,19,33,118,42,21,35,302,46*66
$GBGSV,5,3,20,46,32,051,,36,62,124,41,02,06,108,,34,06,290,21*6F
$GBGSV,5,4,20,16,07,052,,40,03,076,,06,10,053,,12,06,263,26*6E
$GBGSV,5,5,20,48,07,119,,11,05,311,,10,05,096,,60,07,111,*66
$GPGGA,055952.00,,,,,0,00,,,M,,M,,*46
$PTNL,GGK,055952.00,010125,4742.4463481,N,01617.9729010,E,1,23,1.0,EHT667.2122,M*48
$GPGGQ,055952.00,010125,4742.4463481,N,01617.9729010,E,1,23,2.241,624.0011,M*36
$GPGFA,055952.00,10.534,14.536,1.108,0.809,72.800,1.773,,VVV*3D
$GPLLK,055952.00,010125,,M,,M,1,23,1.2,,M*07
$GNGMP,055952.00,,,,,DAAA,23,0.6,,,,*5F
$GPGMP,055952.00,,,,,,06,,,,3.2,123*74
$GLGMP,055952.00,,,,,,06,,,,,*77
$GAGMP,055952.00,,,,,,06,,,,,*7A
$GBGMP,055952.00,,,,,,05,,,,,*7A
$PSSN,SNC,[0,280810000,2347]*47
$GPZDA,055957.00,01,01,2025,,*68
$GPDTM,W84,,00.0000000,N,00.0000000,E,00.0000000,W84*5F
$GPRMC,055957.00,A,4742.4463456,N,01617.9728990,E,0.0,,010125,5.1,E,D*14
$GPGLL,4742.4463456,N,01617.9728990,E,055957.00,A,D*65
$GPGGA,055957.00,4742.4463456,N,01617.9728990,E,2,21,0.7,624.0027,M,43.2111,M,1.5,0123*49
$GNGNS,055957.00,4742.4463456,N,01617.9728990,E,DAAA,21,0.7,624.0027,43.2111,,*51
$GPGNS,055957.00,,,,,,06,,,,1.5,123*74
$GLGNS,055957.00,,,,,,05,,,,,*71
$GAGNS,055957.00,,,,,,05,,,,,*7C
$GBGNS,055957.00,,,,,,05,,,,,*7F
$GPLLQ,055957.00,010125,,M,,M,1,21,2.591,,M*16
$GPVTG,,T,,M,0.00,N,0.00,K,D*26
$GPHDT,,T*1B
$GPTHS,,V*0E
$GPROT,,V*08
$PSSN,HRP,055957.00,010125,,,,,,,00,0,,*6A
$PTNL,AVR,055957.00,,Yaw,,Tilt,,,,0,,00*3C
$GPGSA,A,3,05,06,07,11,20,30,,,,,,,1.1,0.7,0.9*39
$GPGSA,A,3,72,73,74,81,88,,,,,,,,1.1,0.7,0.9*37
$GPGSA,A,3,03,05,15,24,34,,,,,,,,1.1,0.7,0.9*3F
$GPGSA,A,3,05,19,21,22,36,,,,,,,,1.1,0.7,0.9*37
$GPGST,055957.00,4.986,1.275,0.936,73.993,0.966,1.253,2.053*6D
$GPGBS,055957.00,4.543,5.476,7.810,81,0.0001,13.186,6.428*61
$GPGRS,055957.00,1,0.4,-1.3,0.3,1.2,-1.1,0.3,,,,,,*40
$GPGRS,055957.00,1,3.3,-0.4,-0.1,13.2,10.5,,,,,,,*6A
$GPGRS,055957.00,1,-2.4,-1.2,-1.9,-1.4,4.6,,,,,,,*61
$GPGRS,055957.00,1,1.5,-1.3,-1.6,-2.6,0.9,,,,,,,*4A
$GPGSV,4,1,15,07,73,076,49,06,13,211,36,05,29,311,45,04,11,090,*75
$GPGSV,4,2,15,13,13,272,29,11,29,245,42,09,38,088,33,30,64,211,47*7B
$GPGSV,4,3,15,20,58,284,43,16,08,029,,14,08,170,,36,35,170,41*73
$GPGSV,4,4,15,34,31,208,,49,34,195,34,61,03,257,*46
$GLGSV,3,1,11,72,67,346,50,87,10,246,,65,16,304,32,75,14,184,27*64
$GLGSV,3,2,11,88,21,303,43,71,46,094,30,73,50,055,45,74,57,143,46*6F
$GLGSV,3,3,11,81,08,354,36,70,02,112,,80,04,023,26*5D
$GAGSV,3,1,11,05,72,060,43,13,12,331,31,25,14,159,,09,20,086,29*68
$GAGSV,3,2,11,31,24,049,31,16,28,138,,34,25,221,35,24,36,108,41*6D
$GAGSV,3,3,11,15,35,280,39,03,48,283,40,08,00,273,*56
$GBGSV,5,1,20,22,87,048,48,50,12,300,,45,30,189,31,05,22,129,35*6E
$GBGSV,5,2,20,58,18,041,,09,24,053,33,19,33,118,43,21,35,302,46*67
$GBGSV,5,3,20,46,32,051,,36,62,124,42,02,06,108,,34,06,290,25*68
$GBGSV,5,4,20,16,07,052,,40,03,076,,06,10,053,,12,06,263,28*60
$GBGSV,5,5,20,48,07,119,,11,05,311,,10,05,096,,60,07,111,*66
$GPGGA,055957.00,,,,,0,00,,,M,,M,,*43
$PTNL,GGK,055957.00,010125,4742.4463456,N,01617.9728990,E,1,21,1.1,EHT667.2137,M*40
$GPGGQ,055957.00,010125,4742.4463456,N,01617.9728990,E,1,21,2.591,624.0027,M*34
$GPGFA,055957.00,12.125,16.831,1.275,0.936,73.993,2.053,,VVV*3E
$GPLLK,055957.00,010125,,M,,M,1,21,1.3,,M*01
$GNGMP,055957.00,,,,,DAAA,21,0.7,,,,*59
$GPGMP,055957.00,,,,,,06,,,,1.5,123*74
$GLGMP,055957.00,,,,,,05,,,,,*71
$GAGMP,055957.00,,,,,,05,,,,,*7C
$GBGMP,055957.00,,,,,,05,,,,,*7F
$PSSN,SNC,[0,280815000,2347]*42
$GPZDA,060002.00,01,01,2025,,*67
$GPDTM,W84,,00.0000000,N,00.0000000,E,00.0000000,W84*5F
$GPRMC,060002.00,A,4742.4463392,N,01617.9728923,E,0.0,,010125,5.1,E,D*1C
$GPGLL,4742.4463392,N,01617.9728923,E,060002.00,A,D*6D
$GPGGA,060002.00,4742.4463392,N,01617.9728923,E,2,20,0.7,624.0103,M,43.2111,M,2.5,0123*44
$GNGNS,060002.00,4742.4463392,N,01617.9728923,E,DAAA,20,0.7,624.0103,43.2111,,*5F
$GPGNS,060002.00,,,,,,06,,,,2.5,123*78
$GLGNS,060002.00,,,,,,05,,,,,*7E
$GAGNS,060002.00,,,,,,04,,,,,*72
$GBGNS,060002.00,,,,,,05,,,,,*70
$GPLLQ,060002.00,010125,,M,,M,1,20,2.921,,M*1F
$GPVTG,,T,,M,0.01,N,0.01,K,D*26
$GPHDT,,T*1B
$GPTHS,,V*0E
$GPROT,,V*08
$PSSN,HRP,060002.00,010125,,,,,,,00,0,,*65
$PTNL,AVR,060002.00,,Yaw,,Tilt,,,,0,,00*33
$GPGSA,A,3,05,06,07,09,20,30,,,,,,,1.2,0.7,0.9*33
$GPGSA,A,3,72,73,74,81,88,,,,,,,,1.2,0.7,0.9*34
$GPGSA,A,3,03,05,15,24,,,,,,,,,1.2,0.7,0.9*3B
$GPGSA,A,3,05,19,21,22,36,,,,,,,,1.2,0.7,0.9*34
$GPGST,060002.00,5.770,1.349,1.193,32.293,1.306,1.239,2.300*66
$GPGBS,060002.00,4.137,4.222,6.406,09,0.0001,4.140,1.239*58
$GPGRS,060002.00,1,1.0,-2.0,-0.0,4.1,-1.0,-0.2,,,,,,*4F
$GPGRS,060002.00,1,2.5,-0.1,-0.8,11.9,14.9,,,,,,,*6F
$GPGRS,060002.00,1,-2.3,-1.1,-3.7,-1.6,,,,,,,,*48
$GPGRS,060002.00,1,0.8,-1.9,-1.3,-3.1,0.4,,,,,,,*4D
$GPGSV,4,1,15,07,73,076,48,06,13,211,36,05,29,311,46,04,11,090,*77
$GPGSV,4,2,15,13,13,272,,11,29,245,42,09,38,088,37,30,64,211,46*75
$GPGSV,4,3,15,20,58,284,42,16,08,029,,14,08,170,,36,35,170,41*72
$GPGSV,4,4,15,34,31,208,,49,34,195,34,61,03,257,*46
$GLGSV,3,1,11,72,67,346,50,87,10,246,,65,16,304,32,75,14,184,28*6B
$GLGSV,3,2,11,88,21,303,41,71,46,094,35,73,50,055,45,74,57,143,46*68
$GLGSV,3,3,11,81,08,353,37,70,02,112,,80,04,023,26*5B
$GAGSV,3,1,11,05,72,060,43,13,12,331,30,25,14,159,,09,20,086,30*61
$GAGSV,3,2,11,31,24,049,29,16,28,138,,34,25,221,35,24,36,108,41*64
$GAGSV,3,3,11,15,35,280,38,03,48,283,38,08,00,273,*58
$GBGSV,5,1,20,22,87,049,48,50,12,300,,45,30,189,32,05,22,129,35*6C
$GBGSV,5,2,20,58,18,041,,09,24,053,33,19,33,118,43,21,35,302,47*66
$GBGSV,5,3,20,46,31,051,,36,62,124,41,02,06,108,,34,06,290,*6F
$GBGSV,5,4,20,16,07,052,,40,03,076,,06,10,053,,12,06,263,29*61
$GBGSV,5,5,20,48,07,119,,11,05,311,,10,05,096,,60,07,111,*66
$GPGGA,060002.00,,,,,0,00,,,M,,M,,*4C
$PTNL,GGK,060002.00,010125,4742.4463392,N,01617.9728923,E,1,20,1.2,EHT667.2214,M*48
$GPGGQ,060002.00,010125,4742.4463392,N,01617.9728923,E,1,20,2.921,624.0103,M*3D
$GPGFA,060002.00,12.826,18.862,1.349,1.193,32.293,2.300,,VVV*30
$GPLLK,060002.00,010125,,M,,M,1,20,1.3,,M*0F
$GNGMP,060002.00,,,,,DAAA,20,0.7,,,,*57
$GPGMP,060002.00,,,,,,06,,,,2.5,123*78
$GLGMP,060002.00,,,,,,05,,,,,*7E
$GAGMP,060002.00,,,,,,04,,,,,*72
$GBGMP,060002.00,,,,,,05,,,,,*70
$PSSN,SNC,[0,280820000,2347]*44
$GPZDA,060007.00,01,01,2025,,*62
$GPDTM,W84,,00.0000000,N,00.0000000,E,00.0000000,W84*5F
$GPRMC,060007.00,A,4742.4463295,N,01617.9728938,E,0.0,,010125,5.1,E,D*15
$GPGLL,4742.4463295,N,01617.9728938,E,060007.00,A,D*64
$GPGGA,060007.00,4742.4463295,N,01617.9728938,E,2,19,0.7,624.0068,M,43.2111,M,2.8,0123*46
$GNGNS,060007.00,4742.4463295,N,01617.9728938,E,DAAA,19,0.7,624.0068,43.2111,,*50
$GPGNS,060007.00,,,,,,05,,,,2.8,123*73
$GLGNS,060007.00,,,,,,05,,,,,*7B
$GAGNS,060007.00,,,,,,04,,,,,*77
$GBGNS,060007.00,,,,,,05,,,,,*75
$GPLLQ,060007.00,010125,,M,,M,1,19,2.333,,M*19
$GPVTG,,T,,M,0.00,N,0.01,K,D*27
$GPHDT,,T*1B
$GPTHS,,V*0E
$GPROT,,V*08
$PSSN,HRP,060007.00,010125,,,,,,,00,0,,*60
$PTNL,AVR,060007.00,,Yaw,,Tilt,,,,0,,00*36
$GPGSA,A,3,05,06,07,20,30,,,,,,,,1.2,0.7,0.9*3A
$GPGSA,A,3,72,73,74,81,88,,,,,,,,1.2,0.7,0.9*34
$GPGSA,A,3,03,05,15,24,,,,,,,,,1.2,0.7,0.9*3B
$GPGSA,A,3,05,19,21,22,36,,,,,,,,1.2,0.7,0.9*34
$GPGST,060007.00,4.364,1.215,0.829,68.995,0.888,1.172,1.811*68
$GPGBS,060007.00,4.437,6.573,8.029,81,0.0001,12.409,6.427*6F
$GPGRS,060007.00,1,1.0,-0.8,0.0,-0.0,-0.5,,,,,,,*40
$GPGRS,060007.00,1,3.0,1.4,-0.6,12.4,-5.6,,,,,,,*55
$GPGRS,060007.00,1,-2.8,-0.1,-3.3,-1.1,,,,,,,,*44
$GPGRS,060007.00,1,0.7,-2.0,-0.5,-2.0,1.1,,,,,,,*4E
$GPGSV,4,1,15,07,73,076,48,06,13,211,36,05,29,311,46,04,11,090,*77
$GPGSV,4,2,15,13,13,273,,11,29,245,42,09,38,088,40,30,64,211,46*74
$GPGSV,4,3,15,20,58,283,41,16,07,029,26,14,08,170,,36,35,170,41*7D
$GPGSV,4,4,15,34,31,208,,49,34,195,34,61,03,257,*46
$GLGSV,3,1,11,72,67,346,50,87,10,246,,65,16,304,32,75,14,184,20*63
$GLGSV,3,2,11,88,21,303,40,71,46,094,34,73,50,055,45,74,57,143,46*68
$GLGSV,3,3,11,81,08,353,37,70,02,112,,80,04,023,25*58
$GAGSV,3,1,11,05,72,060,42,13,12,331,29,25,14,159,,09,20,086,30*68
$GAGSV,3,2,11,31,24,049,27,16,28,138,,34,25,221,35,24,36,108,42*69
$GAGSV,3,3,11,15,35,280,39,03,48,283,36,08,00,273,*57
$GBGSV,5,1,20,22,87,050,48,50,13,300,,45,30,189,35,05,22,129,35*62
$GBGSV,5,2,20,58,17,040,,09,24,053,33,19,33,118,43,21,35,302,47*68
$GBGSV,5,3,20,46,31,051,,36,62,124,41,02,06,108,,34,06,290,30*6C
$GBGSV,5,4,20,16,07,052,,40,03,076,,06,10,053,,12,06,263,30*69
$GBGSV,5,5,20,48,07,119,,11,05,311,,10,05,096,,60,07,111,*66
$GPGGA,060007.00,,,,,0,00,,,M,,M,,*49
$PTNL,GGK,060007.00,010125,4742.4463295,N,01617.9728938,E,1,19,1.2,EHT667.2178,M*42
$GPGGQ,060007.00,010125,4742.4463295,N,01617.9728938,E,1,19,2.333,624.0068,M*3B
$GPGFA,060007.00,11.551,14.848,1.215,0.829,68.995,1.811,,VVV*34
$GPLLK,060007.00,010125,,M,,M,1,19,1.3,,M*00
$GNGMP,060007.00,,,,,DAAA,19,0.7,,,,*58
$GPGMP,060007.00,,,,,,05,,,,2.8,123*73
$GLGMP,060007.00,,,,,,05,,,,,*7B
$GAGMP,060007.00,,,,,,04,,,,,*77
$GBGMP,060007.00,,,,,,05,,,,,*75
$PSSN,SNC,[0,280825000,2347]*41
$GPZDA,060012.00,01,01,2025,,*66
$GPDTM,W84,,00.0000000,N,00.0000000,E,00.0000000,W84*5F
$GPRMC,060012.00,A,4742.4463213,N,01617.9729008,E,0.0,,010125,5.1,E,D*14
$GPGLL,4742.4463213,N,01617.9729008,E,060012.00,A,D*65
$GPGGA,060012.00,4742.4463213,N,01617.9729008,E,2,20,0.7,624.0144,M,43.2111,M,3.0,0123*4B
$GNGNS,060012.00,4742.4463213,N,01617.9729008,E,DAAA,20,0.7,624.0144,43.2111,,*54
$GPGNS,060012.00,,,,,,05,,,,3.0,123*7E
$GLGNS,060012.00,,,,,,05,,,,,*7F
$GAGNS,060012.00,,,,,,04,,,,,*73
$GBGNS,060012.00,,,,,,06,,,,,*72
$GPLLQ,060012.00,010125,,M,,M,1,20,3.152,,M*13
$GPVTG,,T,,M,0.01,N,0.02,K,D*25
$GPHDT,,T*1B
$GPTHS,,V*0E
$GPROT,,V*08
$PSSN,HRP,060012.00,010125,,,,,,,00,0,,*64
$PTNL,AVR,060012.00,,Yaw,,Tilt,,,,0,,00*32
$GPGSA,A,3,05,06,07,20,30,,,,,,,,1.1,0.7,0.9*39
$GPGSA,A,3,72,73,74,81,88,,,,,,,,1.1,0.7,0.9*37
$GPGSA,A,3,05,15,24,34,,,,,,,,,1.1,0.7,0.9*3C
$GPGSA,A,3,05,19,21,22,36,45,,,,,,,1.1,0.7,0.9*36
$GPGST,060012.00,7.425,1.648,1.120,69.663,1.196,1.593,2.442*62
$GPGBS,060012.00,4.306,6.780,8.413,34,0.0001,19.405,6.137*60
$GPGRS,060012.00,1,1.3,-0.9,-0.4,1.1,-0.9,,,,,,,*4E
$GPGRS,060012.00,1,2.9,1.8,-0.3,12.3,-6.8,,,,,,,*5A
$GPGRS,060012.00,1,-0.4,-2.8,-1.5,19.4,,,,,,,,*50
$GPGRS,060012.00,1,1.0,-2.3,-0.9,-1.6,2.7,9.8,,,,,,*6C
$GPGSV,4,1,15,07,73,076,47,06,13,211,36,05,29,311,47,04,11,090,*79
$GPGSV,4,2,15,13,13,273,34,11,29,245,41,09,38,088,41,30,64,211,46*71
$GPGSV,4,3,15,20,58,283,40,16,07,029,,14,08,170,,36,35,170,41*78
$GPGSV,4,4,15,34,31,208,,49,34,195,34,61,03,257,*46
$GLGSV,3,1,11,72,67,346,49,87,10,246,,65,16,304,31,75,14,184,32*6B
$GLGSV,3,2,11,88,21,303,35,71,46,094,33,73,50,055,46,74,57,143,46*6E
$GLGSV,3,3,11,81,08,353,37,70,02,112,,80,04,023,24*59
$GAGSV,3,1,11,05,72,060,42,13,12,331,28,25,14,159,,09,20,086,30*69
$GAGSV,3,2,11,31,24,049,24,16,28,138,,34,25,221,35,24,36,108,43*6B
$GAGSV,3,3,11,15,35,280,40,03,48,283,35,08,00,273,*5A
$GBGSV,5,1,20,22,87,050,48,50,13,300,,45,30,189,37,05,22,129,35*60
$GBGSV,5,2,20,58,17,040,,09,24,053,32,19,33,118,42,21,35,302,47*68
$GBGSV,5,3,20,46,31,051,,36,63,124,41,02,06,108,,34,06,290,31*6C
$GBGSV,5,4,20,16,07,052,,40,03,076,,06,10,053,,12,06,263,30*69
$GBGSV,5,5,20,48,07,119,,11,05,311,,10,05,096,,60,07,111,*66
$GPGGA,060012.00,,,,,0,00,,,M,,M,,*4D
$PTNL,GGK,060012.00,010125,4742.4463213,N,01617.9729008,E,1,20,1.1,EHT667.2255,M*46
$GPGGQ,060012.00,010125,4742.4463213,N,01617.9729008,E,1,20,3.152,624.0144,M*3B
$GPGFA,060012.00,15.664,20.026,1.648,1.120,69.663,2.442,,VVV*35
$GPLLK,060012.00,010125,,M,,M,1,20,1.3,,M*0E
$GNGMP,060012.00,,,,,DAAA,20,0.7,,,,*56
$GPGMP,060012.00,,,,,,05,,,,3.0,123*7E
$GLGMP,060012.00,,,,,,05,,,,,*7F
$GAGMP,060012.00,,,,,,04,,,,,*73
$GBGMP,060012.00,,,,,,06,,,,,*72
$PSSN,SNC,[0,280830000,2347]*45
$GPZDA,060017.00,01,01,2025,,*63
$GPDTM,W84,,00.0000000,N,00.0000000,E,00.0000000,W84*5F
$GPRMC,060017.00,A,4742.4463048,N,01617.9729143,E,0.0,,010125,5.1,E,D*13
$GPGLL,4742.4463048,N,01617.9729143,E,060017.00,A,D*62
$GPGGA,060017.00,4742.4463048,N,01617.9729143,E,2,22,0.6,624.0214,M,43.2111,M,1.5,0123*4E
$GNGNS,060017.00,4742.4463048,N,01617.9729143,E,DAAA,22,0.6,624.0214,43.2111,,*56
$GPGNS,060017.00,,,,,,06,,,,1.5,123*7F
$GLGNS,060017.00,,,,,,05,,,,,*7A
$GAGNS,060017.00,,,,,,05,,,,,*77
$GBGNS,060017.00,,,,,,06,,,,,*77
$GPLLQ,060017.00,010125,,M,,M,1,22,3.700,,M*15
$GPVTG,,T,,M,0.01,N,0.01,K,D*26
$GPHDT,,T*1B
$GPTHS,,V*0E
$GPROT,,V*08
$PSSN,HRP,060017.00,010125,,,,,,,00,0,,*61
$PTNL,AVR,060017.00,,Yaw,,Tilt,,,,0,,00*37
$GPGSA,A,3,05,06,07,13,20,30,,,,,,,1.1,0.6,0.9*3A
$GPGSA,A,3,71,72,73,74,81,,,,,,,,1.1,0.6,0.9*30
$GPGSA,A,3,03,05,15,24,34,,,,,,,,1.1,0.6,0.9*3E
$GPGSA,A,3,05,19,21,22,36,45,,,,,,,1.1,0.6,0.9*37
$GPGST,060017.00,7.020,2.000,1.350,69.052,1.450,1.930,2.805*6B
$GPGBS,060017.00,3.895,6.167,6.480,34,0.0001,19.085,6.136*65
$GPGRS,060017.00,1,1.5,-1.5,-1.0,2.3,0.9,-1.1,,,,,,*6A
$GPGRS,060017.00,1,12.6,2.0,1.3,-0.9,11.2,,,,,,,*43
$GPGRS,060017.00,1,-2.7,-0.5,-2.5,-1.7,19.1,,,,,,,*58
$GPGRS,060017.00,1,0.9,-2.5,-0.8,-1.3,4.9,4.5,,,,,,*6B
$GPGSV,4,1,15,07,73,076,45,06,13,211,35,05,29,311,47,04,11,090,*78
$GPGSV,4,2,15,13,13,273,36,11,29,245,39,09,38,088,42,30,64,211,45*7C
$GPGSV,4,3,15,20,58,283,42,16,07,029,,14,08,170,,36,35,170,41*7A
$GPGSV,4,4,15,34,31,208,,49,34,195,34,61,03,257,*46
$GLGSV,3,1,11,72,67,346,49,71,46,094,36,75,14,184,33,65,16,304,29*61
$GLGSV,3,2,11,88,21,303,30,73,50,055,46,74,58,143,45,80,04,023,*63
$GLGSV,3,3,11,81,08,353,37,87,10,246,21,70,02,112,*5F
$GAGSV,3,1,11,05,72,060,43,13,12,331,29,25,14,159,,09,20,086,32*6B
$GAGSV,3,2,11,31,24,049,23,16,28,138,,34,25,221,35,24,36,108,43*6C
$GAGSV,3,3,11,15,35,280,41,03,48,283,36,08,00,273,*58
$GBGSV,5,1,20,22,87,051,48,50,13,300,,45,31,189,38,05,22,129,35*6F
$GBGSV,5,2,20,58,17,040,,09,24,053,32,19,33,118,42,21,35,302,46*69
$GBGSV,5,3,20,46,31,051,,36,63,123,42,02,06,108,,34,06,290,31*68
$GBGSV,5,4,20,16,07,052,,40,03,076,,06,09,053,,12,06,263,31*60
$GBGSV,5,5,20,48,07,119,,11,05,311,,10,05,096,,60,07,111,*66
$GPGGA,060017.00,,,,,0,00,,,M,,M,,*48
$PTNL,GGK,060017.00,010125,4742.4463048,N,01617.9729143,E,1,22,1.1,EHT667.2324,M*44
$GPGGQ,060017.00,010125,4742.4463048,N,01617.9729143,E,1,22,3.700,624.0214,M*39
$GPGFA,060017.00,19.019,22.997,2.000,1.350,69.052,2.805,,VVV*36
$GPLLK,060017.00,010125,,M,,M,1,22,1.3,,M*09
$GNGMP,060017.00,,,,,DAAA,22,0.6,,,,*50
$GPGMP,060017.00,,,,,,06,,,,1.5,123*7F
$GLGMP,060017.00,,,,,,05,,,,,*7A
$GAGMP,060017.00,,,,,,05,,,,,*77
$GBGMP,060017.00,,,,,,06,,,,,*77
$PSSN,SNC,[0,280835000,2347]*40
$GPZDA,060022.00,01,01,2025,,*65
$GPDTM,W84,,00.0000000,N,00.0000000,E,00.0000000,W84*5F
$GPRMC,060022.00,A,4742.4462983,N,01617.9729342,E,0.0,,010125,5.1,E,D*19
$GPGLL,4742.4462983,N,01617.9729342,E,060022.00,A,D*68
$GPGGA,060022.00,4742.4462983,N,01617.9729342,E,2,20,0.7,624.0492,M,43.2111,M,2.6,0123*4F
$GNGNS,060022.00,4742.4462983,N,01617.9729342,E,DAAA,20,0.7,624.0492,43.2111,,*57
$GPGNS,060022.00,,,,,,05,,,,2.6,123*7A
$GLGNS,060022.00,,,,,,04,,,,,*7D
$GAGNS,060022.00,,,,,,05,,,,,*71
$GBGNS,060022.00,,,,,,06,,,,,*71
$GPLLQ,060022.00,010125,,M,,M,1,20,3.956,,M*1C
$GPVTG,,T,,M,0.00,N,0.01,K,D*27
$GPHDT,,T*1B
$GPTHS,,V*0E
$GPROT,,V*08
$PSSN,HRP,060022.00,010125,,,,,,,00,0,,*67
$PTNL,AVR,060022.00,,Yaw,,Tilt,,,,0,,00*31
$GPGSA,A,3,05,07,11,20,30,,,,,,,,1.2,0.7,1.0*34
$GPGSA,A,3,72,73,74,81,,,,,,,,,1.2,0.7,1.0*3C
$GPGSA,A,3,03,05,15,24,31,,,,,,,,1.2,0.7,1.0*31
$GPGSA,A,3,05,19,21,22,36,45,,,,,,,1.2,0.7,1.0*3D
$GPGST,060022.00,4.517,1.672,1.233,290.448,1.294,1.625,3.367*5B
$GPGBS,060022.00,4.370,6.367,12.756,07,0.0001,-1.318,0.591*47
$GPGRS,060022.00,1,1.0,-1.3,1.3,0.6,-1.0,,,,,,,*60
$GPGRS,060022.00,1,1.7,0.4,-1.9,12.9,,,,,,,,*55
$GPGRS,060022.00,1,-1.7,0.1,-2.3,-1.3,-0.7,,,,,,,*65
$GPGRS,060022.00,1,0.9,-2.4,-1.1,-0.8,8.2,-0.6,,,,,,*43
$GPGSV,4,1,15,07,73,075,43,06,13,211,34,05,29,311,47,04,11,090,*7C
$GPGSV,4,2,15,13,13,273,37,11,29,245,36,09,38,088,42,30,64,211,45*72
$GPGSV,4,3,15,20,58,283,44,16,07,029,30,14,08,170,,36,35,170,41*7F
$GPGSV,4,4,15,34,31,208,,49,34,195,34,61,03,257,*46
$GLGSV,3,1,11,72,68,347,48,71,45,094,34,75,14,184,33,65,16,304,27*61
$GLGSV,3,2,11,88,21,303,27,73,50,055,47,74,58,143,44,80,04,023,*65
$GLGSV,3,3,11,81,08,353,35,87,10,246,23,70,02,112,*5F
$GAGSV,3,1,11,05,72,060,42,13,12,331,29,25,14,159,,09,20,086,31*69
$GAGSV,3,2,11,31,24,049,33,16,28,138,,34,24,221,35,24,36,108,42*6D
$GAGSV,3,3,11,15,35,280,42,03,48,283,38,08,00,273,*55
$GBGSV,5,1,20,22,87,052,48,50,13,300,,45,31,189,38,05,22,129,36*6F
$GBGSV,5,2,20,58,17,040,,09,24,053,31,19,33,118,42,21,35,302,45*69
$GBGSV,5,3,20,46,31,051,,36,63,123,41,02,06,108,,34,06,290,29*62
$GBGSV,5,4,20,16,07,052,,40,03,076,,06,09,053,,12,06,263,29*69
$GBGSV,5,5,20,48,07,119,,11,05,311,,10,05,096,,60,07,111,*66
$GPGGA,060022.00,,,,,0,00,,,M,,M,,*4E
$PTNL,GGK,060022.00,010125,4742.4462983,N,01617.9729342,E,1,20,1.2,EHT667.2603,M*4F
$GPGGQ,060022.00,010125,4742.4462983,N,01617.9729342,E,1,20,3.956,624.0492,M*34
$GPGFA,060022.00,15.898,27.606,1.672,1.233,290.448,3.367,,VVV*0E
$GPLLK,060022.00,010125,,M,,M,1,20,1.4,,M*0A
$GNGMP,060022.00,,,,,DAAA,20,0.7,,,,*55
$GPGMP,060022.00,,,,,,05,,,,2.6,123*7A
$GLGMP,060022.00,,,,,,04,,,,,*7D
$GAGMP,060022.00,,,,,,05,,,,,*71
$GBGMP,060022.00,,,,,,06,,,,,*71
$PSSN,SNC,[0,280840000,2347]*42
$GPZDA,060027.00,01,01,2025,,*60
$GPDTM,W84,,00.0000000,N,00.0000000,E,00.0000000,W84*5F
$GPRMC,060027.00,A,4742.4462900,N,01617.9729482,E,0.0,,010125,5.1,E,D*1C
$GPGLL,4742.4462900,N,01617.9729482,E,060027.00,A,D*6D
$GPGGA,060027.00,4742.4462900,N,01617.9729482,E,2,17,0.9,624.0540,M,43.2111,M,2.8,0123*40
$GNGNS,060027.00,4742.4462900,N,01617.9729482,E,DAAA,17,0.9,624.0540,43.2111,,*56
$GPGNS,060027.00,,,,,,04,,,,2.8,123*70
$GLGNS,060027.00,,,,,,03,,,,,*7F
$GAGNS,060027.00,,,,,,04,,,,,*75
$GBGNS,060027.00,,,,,,06,,,,,*74
$GPLLQ,060027.00,010125,,M,,M,1,17,4.355,,M*13
$GPVTG,,T,,M,0.00,N,0.01,K,D*27
$GPHDT,,T*1B
$GPTHS,,V*0E
$GPROT,,V*08
$PSSN,HRP,060027.00,010125,,,,,,,00,0,,*62
$PTNL,AVR,060027.00,,Yaw,,Tilt,,,,0,,00*34
$GPGSA,A,3,05,07,20,30,,,,,,,,,1.6,0.9,1.3*3D
$GPGSA,A,3,72,73,74,,,,,,,,,,1.6,0.9,1.3*3C
$GPGSA,A,3,03,05,15,24,,,,,,,,,1.6,0.9,1.3*3A
$GPGSA,A,3,05,19,21,22,36,45,,,,,,,1.6,0.9,1.3*34
$GPGST,060027.00,4.179,1.588,1.172,332.703,1.510,1.271,3.882*59
$GPGBS,060027.00,9.511,6.971,18.029,07,0.0001,-0.921,0.606*4A
$GPGRS,060027.00,1,1.1,-0.9,0.8,-0.6,,,,,,,,*4A
$GPGRS,060027.00,1,2.7,1.6,-0.7,,,,,,,,,*4B
$GPGRS,060027.00,1,1.2,0.9,-1.0,0.3,,,,,,,,*68
$GPGRS,060027.00,1,1.1,-2.0,-1.0,0.1,12.0,2.9,,,,,,*77
$GPGSV,4,1,15,07,73,075,43,06,13,211,34,05,29,311,46,04,11,090,*7D
$GPGSV,4,2,15,13,13,273,36,11,29,245,30,09,38,088,41,30,64,211,45*76
$GPGSV,4,3,15,20,58,283,45,16,07,029,30,14,08,170,,36,35,170,41*7E
$GPGSV,4,4,15,34,31,208,,49,34,195,34,61,03,257,*46
$GLGSV,3,1,11,72,68,347,48,71,45,094,33,75,14,184,33,65,16,304,27*66
$GLGSV,3,2,11,88,21,303,29,73,50,055,48,74,58,143,45,80,04,023,22*65
$GLGSV,3,3,11,81,08,353,32,87,10,246,29,70,02,112,*52
$GAGSV,3,1,11,05,72,060,42,13,12,331,30,25,14,159,,09,20,086,30*60
$GAGSV,3,2,11,31,24,049,25,16,28,138,,34,24,221,34,24,36,108,42*6B
$GAGSV,3,3,11,15,35,280,42,03,48,283,40,08,00,273,*5A
$GBGSV,5,1,20,22,87,052,49,50,13,300,,45,31,189,36,05,22,129,36*60
$GBGSV,5,2,20,58,17,040,,09,24,053,32,19,33,118,41,21,35,302,44*68
$GBGSV,5,3,20,46,31,051,,36,63,123,38,02,06,108,,34,06,289,*6F
$GBGSV,5,4,20,16,07,052,,40,03,076,,06,09,053,,12,06,263,28*68
$GBGSV,5,5,20,48,07,119,,11,05,311,,10,05,096,,60,07,111,*66
$GPGGA,060027.00,,,,,0,00,,,M,,M,,*4B
$PTNL,GGK,060027.00,010125,4742.4462900,N,01617.9729482,E,1,17,1.6,EHT667.2650,M*4C
$GPGGQ,060027.00,010125,4742.4462900,N,01617.9729482,E,1,17,4.355,624.0540,M*35
$GPGFA,060027.00,15.098,31.833,1.588,1.172,332.703,3.882,,VVV*09
$GPLLK,060027.00,010125,,M,,M,1,17,1.9,,M*06
$GNGMP,060027.00,,,,,DAAA,17,0.9,,,,*5A
$GPGMP,060027.00,,,,,,04,,,,2.8,123*70
$GLGMP,060027.00,,,,,,03,,,,,*7F
$GAGMP,060027.00,,,,,,04,,,,,*75
$GBGMP,060027.00,,,,,,06,,,,,*74
$PSSN,SNC,[0,280845000,2347]*47
$GPZDA,060032.00,01,01,2025,,*64
$GPDTM,W84,,00.0000000,N,00.0000000,E,00.0000000,W84*5F
$GPRMC,060032.00,A,4742.4462843,N,01617.9729539,E,0.0,,010125,5.1,E,D*1F
$GPGLL,4742.4462843,N,01617.9729539,E,060032.00,A,D*6E
$GPGGA,060032.00,4742.4462843,N,01617.9729539,E,2,18,0.9,624.0562,M,43.2111,M,2.8,0123*4C
$GNGNS,060032.00,4742.4462843,N,01617.9729539,E,DAAA,18,0.9,624.0562,43.2111,,*5A
$GPGNS,060032.00,,,,,,04,,,,2.8,123*74
$GLGNS,060032.00,,,,,,04,,,,,*7C
$GAGNS,060032.00,,,,,,05,,,,,*70
$GBGNS,060032.00,,,,,,05,,,,,*73
$GPLLQ,060032.00,010125,,M,,M,1,18,3.169,,M*12
$GPVTG,,T,,M,0.01,N,0.01,K,D*26
$GPHDT,,T*1B
$GPTHS,,V*0E
$GPROT,,V*08
$PSSN,HRP,060032.00,010125,,,,,,,00,0,,*66
$PTNL,AVR,060032.00,,Yaw,,Tilt,,,,0,,00*30
$GPGSA,A,3,05,07,20,30,,,,,,,,,1.5,0.9,1.2*3F
$GPGSA,A,3,71,72,73,74,,,,,,,,,1.5,0.9,1.2*38
$GPGSA,A,3,03,05,15,24,31,,,,,,,,1.5,0.9,1.2*3A
$GPGSA,A,3,05,19,21,22,36,,,,,,,,1.5,0.9,1.2*37
$GPGST,060032.00,2.955,1.161,0.858,337.630,1.122,0.908,2.821*53
$GPGBS,060032.00,9.076,6.528,17.128,71,0.0001,-7.800,6.081*4E
$GPGRS,060032.00,1,0.7,0.1,0.1,-0.4,,,,,,,,*67
$GPGRS,060032.00,1,-7.8,2.8,2.2,-0.0,,,,,,,,*4C
$GPGRS,060032.00,1,1.0,0.6,-0.8,0.3,-0.2,,,,,,,*69
$GPGRS,060032.00,1,0.8,-1.3,-1.3,-0.5,-4.0,,,,,,,*6E
$GPGSV,4,1,15,07,73,075,43,06,13,211,34,05,29,311,46,04,11,090,*7D
$GPGSV,4,2,15,13,13,273,33,11,29,245,33,09,38,088,41,30,64,211,46*73
$GPGSV,4,3,15,20,58,283,45,16,07,029,29,14,08,170,,36,35,170,41*76
$GPGSV,4,4,15,34,31,208,,49,34,195,34,61,03,257,*46
$GLGSV,3,1,11,72,68,347,49,71,45,094,42,75,15,184,21,65,16,304,28*6C
$GLGSV,3,2,11,88,21,302,32,73,50,055,48,74,58,143,45,80,04,023,*6E
$GLGSV,3,3,11,81,08,353,29,87,10,246,,70,02,113,*52
$GAGSV,3,1,11,05,72,060,42,13,12,331,31,25,14,159,,09,20,087,30*60
$GAGSV,3,2,11,31,24,049,33,16,28,138,,34,24,221,33,24,36,108,43*6A
$GAGSV,3,3,11,15,35,280,42,03,48,283,43,08,00,273,*59
$GBGSV,5,1,20,22,87,053,49,50,13,300,,58,17,040,,05,22,129,35*6B
$GBGSV,5,2,20,45,31,189,33,09,24,053,31,19,33,118,40,21,35,302,41*63
$GBGSV,5,3,20,46,31,051,,36,63,123,36,02,06,108,,34,06,289,28*6B
$GBGSV,5,4,20,16,07,052,,40,03,076,,10,05,096,,12,06,263,28*6A
$GBGSV,5,5,20,48,07,119,,11,05,311,,06,09,053,,60,07,111,*64
$GPGGA,060032.00,,,,,0,00,,,M,,M,,*4F
$PTNL,GGK,060032.00,010125,4742.4462843,N,01617.9729539,E,1,18,1.5,EHT667.2673,M*42
$GPGGQ,060032.00,010125,4742.4462843,N,01617.9729539,E,1,18,3.169,624.0562,M*33
$GPGFA,060032.00,11.037,23.132,1.161,0.858,337.630,2.821,,VVV*08
$GPLLK,060032.00,010125,,M,,M,1,18,1.8,,M*0C
$GNGMP,060032.00,,,,,DAAA,18,0.9,,,,*51
$GPGMP,060032.00,,,,,,04,,,,2.8,123*74
$GLGMP,060032.00,,,,,,04,,,,,*7C
$GAGMP,060032.00,,,,,,05,,,,,*70
$GBGMP,060032.00,,,,,,05,,,,,*73
$PSSN,SNC,[0,280850000,2347]*43
$GPZDA,060037.00,01,01,2025,,*61
$GPDTM,W84,,00.0000000,N,00.0000000,E,00.0000000,W84*5F
$GPRMC,060037.00,A,4742.4462827,N,01617.9729527,E,0.0,,010125,5.1,E,D*17
$GPGLL,4742.4462827,N,01617.9729527,E,060037.00,A,D*66
$GPGGA,060037.00,4742.4462827,N,01617.9729527,E,2,18,1.0,624.0603,M,43.2111,M,1.8,0123*4B
$GNGNS,060037.00,4742.4462827,N,01617.9729527,E,DAAA,18,1.0,624.0603,43.2111,,*5E
$GPGNS,060037.00,,,,,,04,,,,1.8,123*72
$GLGNS,060037.00,,,,,,05,,,,,*78
$GAGNS,060037.00,,,,,,04,,,,,*74
$GBGNS,060037.00,,,,,,05,,,,,*76
$GPLLQ,060037.00,010125,,M,,M,1,18,3.067,,M*18
$GPVTG,,T,,M,0.01,N,0.02,K,D*25
$GPHDT,,T*1B
$GPTHS,,V*0E
$GPROT,,V*08
$PSSN,HRP,060037.00,010125,,,,,,,00,0,,*63
$PTNL,AVR,060037.00,,Yaw,,Tilt,,,,0,,00*35
$GPGSA,A,3,05,07,20,30,,,,,,,,,1.5,1.0,1.1*34
$GPGSA,A,3,71,72,73,74,88,,,,,,,,1.5,1.0,1.1*33
$GPGSA,A,3,03,05,15,24,,,,,,,,,1.5,1.0,1.1*33
$GPGSA,A,3,05,12,19,21,22,,,,,,,,1.5,1.0,1.1*3A
$GPGST,060037.00,3.218,1.101,0.822,331.670,1.045,0.893,2.741*56
$GPGBS,060037.00,9.137,6.999,18.416,07,0.0001,0.788,0.573*64
$GPGRS,060037.00,1,0.4,0.8,-0.3,-0.4,,,,,,,,*47
$GPGRS,060037.00,1,-0.0,2.7,1.5,-0.8,-8.4,,,,,,,*4A
$GPGRS,060037.00,1,-0.2,0.2,-0.6,-0.2,,,,,,,,*65
$GPGRS,060037.00,1,1.4,-3.3,-1.5,-3.7,-1.6,,,,,,,*60
$GPGSV,4,1,15,07,73,075,43,06,12,211,34,05,29,311,45,04,11,090,*7F
$GPGSV,4,2,15,13,13,273,,11,29,245,34,09,38,088,39,30,64,211,46*7B
$GPGSV,4,3,15,20,58,283,46,16,07,029,29,14,08,170,,36,35,170,42*76
$GPGSV,4,4,15,34,31,208,,49,34,195,34,61,03,257,*46
$GLGSV,3,1,11,72,68,347,48,71,45,094,42,75,15,184,24,65,16,304,35*64
$GLGSV,3,2,11,88,21,302,36,73,50,055,47,74,58,143,44,80,04,023,22*64
$GLGSV,3,3,11,81,08,353,,87,10,246,,70,02,113,*59
$GAGSV,3,1,11,05,72,060,41,13,12,331,32,25,15,159,,09,20,087,29*69
$GAGSV,3,2,11,31,24,049,33,16,28,138,,34,24,221,32,24,36,108,43*6B
$GAGSV,3,3,11,15,35,280,42,03,48,283,44,08,00,273,*5E
$GBGSV,5,1,20,22,87,054,49,50,13,300,,58,17,040,,05,22,129,35*6C
$GBGSV,5,2,20,45,31,189,29,09,24,053,30,19,32,118,40,21,36,302,39*64
$GBGSV,5,3,20,46,31,051,,36,63,123,32,02,06,108,,34,06,289,*65
$GBGSV,5,4,20,16,07,052,,40,03,076,,10,05,096,,12,06,263,28*6A
$GBGSV,5,5,20,48,07,119,,11,05,311,,06,09,053,,60,07,111,*64
$GPGGA,060037.00,,,,,0,00,,,M,,M,,*4A
$PTNL,GGK,060037.00,010125,4742.4462827,N,01617.9729527,E,1,18,1.5,EHT667.2714,M*4A
$GPGGQ,060037.00,010125,4742.4462827,N,01617.9729527,E,1,18,3.067,624.0603,M*30
$GPGFA,060037.00,10.470,22.480,1.101,0.822,331.670,2.741,,VVV*06
$GPLLK,060037.00,010125,,M,,M,1,18,1.6,,M*07
$GNGMP,060037.00,,,,,DAAA,18,1.0,,,,*5C
$GPGMP,060037.00,,,,,,04,,,,1.8,123*72
$GLGMP,060037.00,,,,,,05,,,,,*78
$GAGMP,060037.00,,,,,,04,,,,,*74
$GBGMP,060037.00,,,,,,05,,,,,*76
$PSSN,SNC,[0,280855000,2347]*46
$GPZDA,060042.00,01,01,2025,,*63
$GPDTM,W84,,00.0000000,N,00.0000000,E,00.0000000,W84*5F
$GPRMC,060042.00,A,4742.4462755,N,01617.9729471,E,0.0,,010125,5.1,E,D*1D
$GPGLL,4742.4462755,N,01617.9729471,E,060042.00,A,D*6C
$GPGGA,060042.00,4742.4462755,N,01617.9729471,E,2,19,0.8,624.0590,M,43.2111,M,2.6,0123*4D
$GNGNS,060042.00,4742.4462755,N,01617.9729471,E,DAAA,19,0.8,624.0590,43.2111,,*55
$GPGNS,060042.00,,,,,,05,,,,2.6,123*7C
$GLGNS,060042.00,,,,,,06,,,,,*79
$GAGNS,060042.00,,,,,,04,,,,,*76
$GBGNS,060042.00,,,,,,04,,,,,*75
$GPLLQ,060042.00,010125,,M,,M,1,19,1.532,,M*1C
$GPVTG,,T,,M,0.00,N,0.01,K,D*27
$GPHDT,,T*1B
$GPTHS,,V*0E
$GPROT,,V*08
$PSSN,HRP,060042.00,010125,,,,,,,00,0,,*61
$PTNL,AVR,060042.00,,Yaw,,Tilt,,,,0,,00*37
$GPGSA,A,3,05,06,07,20,30,,,,,,,,1.3,0.8,1.0*3C
$GPGSA,A,3,65,71,72,73,74,88,,,,,,,1.3,0.8,1.0*3E
$GPGSA,A,3,03,05,15,24,,,,,,,,,1.3,0.8,1.0*3D
$GPGSA,A,3,05,19,21,22,,,,,,,,,1.3,0.8,1.0*37
$GPGST,060042.00,2.796,0.793,0.542,68.328,0.583,0.764,1.194*62
$GPGBS,060042.00,4.478,6.450,8.229,88,0.0001,-7.624,6.214*7C
$GPGRS,060042.00,1,0.9,-0.9,-0.0,-0.1,-0.2,,,,,,,*63
$GPGRS,060042.00,1,0.8,1.7,1.7,1.4,-0.6,-7.6,,,,,,*44
$GPGRS,060042.00,1,-0.2,0.3,-0.1,-0.2,,,,,,,,*61
$GPGRS,060042.00,1,1.5,-0.5,-4.4,-1.9,,,,,,,,*6A
$GPGSV,4,1,15,07,73,075,42,06,12,211,35,05,29,311,46,04,11,090,*7C
$GPGSV,4,2,15,13,13,273,,11,29,245,35,09,38,088,38,30,64,211,46*7B
$GPGSV,4,3,15,20,58,283,46,16,07,029,29,14,08,170,,36,35,170,42*76
$GPGSV,4,4,15,34,31,208,,49,34,195,34,61,03,257,*46
$GLGSV,3,1,11,72,68,347,48,71,45,094,39,75,15,184,27,65,16,304,36*68
$GLGSV,3,2,11,88,21,302,38,73,50,055,47,74,58,143,45,80,04,023,*6B
$GLGSV,3,3,11,81,08,353,25,87,10,246,,70,02,113,*5E
$GAGSV,3,1,11,05,72,060,41,13,12,331,33,25,15,159,,09,20,087,28*69
$GAGSV,3,2,11,31,24,049,33,16,28,138,,34,24,221,32,24,36,108,43*6B
$GAGSV,3,3,11,15,35,280,43,03,48,283,45,08,01,273,*5F
$GBGSV,5,1,20,22,87,054,49,50,13,300,,58,17,040,,05,22,129,35*6C
$GBGSV,5,2,20,45,31,189,33,09,24,053,30,19,32,118,41,21,36,302,39*6E
$GBGSV,5,3,20,46,31,051,,36,63,123,35,02,06,108,,34,06,289,29*69
$GBGSV,5,4,20,16,07,052,,40,03,076,,10,05,096,,12,06,263,26*64
$GBGSV,5,5,20,48,07,119,,11,05,311,,06,09,053,,60,07,111,*64
$GPGGA,060042.00,,,,,0,00,,,M,,M,,*48
$PTNL,GGK,060042.00,010125,4742.4462755,N,01617.9729471,E,1,19,1.3,EHT667.2700,M*42
$GPGGQ,060042.00,010125,4742.4462755,N,01617.9729471,E,1,19,1.532,624.0590,M*35
$GPGFA,060042.00,7.540,9.789,0.793,0.542,68.328,1.194,,VVV*3E
$GPLLK,060042.00,010125,,M,,M,1,19,1.5,,M*07
$GNGMP,060042.00,,,,,DAAA,19,0.8,,,,*56
$GPGMP,060042.00,,,,,,05,,,,2.6,123*7C
$GLGMP,060042.00,,,,,,06,,,,,*79
$GAGMP,060042.00,,,,,,04,,,,,*76
$GBGMP,060042.00,,,,,,04,,,,,*75
$PSSN,SNC,[0,280860000,2347]*40
$GPZDA,060047.00,01,01,2025,,*66
$GPDTM,W84,,00.0000000,N,00.0000000,E,00.0000000,W84*5F
$GPRMC,060047.00,A,4742.4462719,N,01617.9729491,E,0.0,,010125,5.1,E,D*1E
$GPGLL,4742.4462719,N,01617.9729491,E,060047.00,A,D*6F
$GPGGA,060047.00,4742.4462719,N,01617.9729491,E,2,19,0.9,624.0665,M,43.2111,M,3.6,0123*47
$GNGNS,060047.00,4742.4462719,N,01617.9729491,E,DAAA,19,0.9,624.0665,43.2111,,*5E
$GPGNS,060047.00,,,,,,05,,,,3.6,123*78
$GLGNS,060047.00,,,,,,05,,,,,*7F
$GAGNS,060047.00,,,,,,04,,,,,*73
$GBGNS,060047.00,,,,,,05,,,,,*71
$GPLLQ,060047.00,010125,,M,,M,1,19,1.694,,M*16
$GPVTG,,T,,M,0.00,N,0.01,K,D*27
$GPHDT,,T*1B
$GPTHS,,V*0E
$GPROT,,V*08
$PSSN,HRP,060047.00,010125,,,,,,,00,0,,*64
$PTNL,AVR,060047.00,,Yaw,,Tilt,,,,0,,00*32
$GPGSA,A,3,05,06,07,20,30,,,,,,,,1.3,0.9,1.0*3D
$GPGSA,A,3,65,72,73,74,88,,,,,,,,1.3,0.9,1.0*39
$GPGSA,A,3,03,05,15,24,,,,,,,,,1.3,0.9,1.0*3C
$GPGSA,A,3,05,19,21,22,36,,,,,,,,1.3,0.9,1.0*33
$GPGST,060047.00,3.270,0.885,0.599,68.957,0.643,0.853,1.315*68
$GPGBS,060047.00,4.588,6.693,8.298,88,0.0001,-8.707,6.217*7C
$GPGRS,060047.00,1,1.1,-0.1,-0.0,-0.3,-0.2,,,,,,,*65
$GPGRS,060047.00,1,0.3,1.8,2.0,-0.2,-8.7,,,,,,,*60
$GPGRS,060047.00,1,0.1,0.3,1.0,0.0,,,,,,,,*48
$GPGRS,060047.00,1,1.4,0.1,-4.6,-2.2,-3.9,,,,,,,*44
$GPGSV,4,1,15,07,73,075,40,06,12,211,36,05,29,311,46,04,11,090,*7D
$GPGSV,4,2,15,13,13,273,23,11,29,245,33,09,38,088,34,30,64,211,46*70
$GPGSV,4,3,15,20,58,283,47,16,07,029,28,14,08,170,,36,35,170,41*75
$GPGSV,4,4,15,34,31,208,,49,34,195,34,61,03,257,*46
$GLGSV,3,1,11,72,68,347,47,71,45,094,33,75,15,184,29,65,16,304,37*62
$GLGSV,3,2,11,88,21,302,36,73,50,055,48,74,58,143,44,80,04,023,*6B
$GLGSV,3,3,11,81,08,353,,87,10,246,30,70,02,113,*5A
$GAGSV,3,1,11,05,72,060,41,13,12,331,32,25,15,159,,09,20,087,28*68
$GAGSV,3,2,11,31,24,049,33,16,28,138,,34,24,221,33,24,36,108,43*6A
$GAGSV,3,3,11,15,35,280,45,03,48,283,46,08,01,273,*5A
$GBGSV,5,1,20,22,87,055,49,50,13,300,,58,17,040,,05,22,129,35*6D
$GBGSV,5,2,20,45,31,189,32,09,24,053,30,19,32,118,43,21,36,302,39*6D
$GBGSV,5,3,20,46,31,051,,36,63,123,37,02,06,108,,34,06,289,29*6B
$GBGSV,5,4,20,16,07,052,,40,03,076,,10,06,096,,12,06,263,25*64
$GBGSV,5,5,20,48,07,119,,11,05,311,,06,09,053,,60,07,111,*64
$GPGGA,060047.00,,,,,0,00,,,M,,M,,*4D
$PTNL,GGK,060047.00,010125,4742.4462719,N,01617.9729491,E,1,19,1.3,EHT667.2775,M*43
$GPGGQ,060047.00,010125,4742.4462719,N,01617.9729491,E,1,19,1.694,624.0665,M*30
$GPGFA,060047.00,8.411,10.783,0.885,0.599,68.957,1.315,,VVV*04
$GPLLK,060047.00,010125,,M,,M,1,19,1.5,,M*02
$GNGMP,060047.00,,,,,DAAA,19,0.9,,,,*52
$GPGMP,060047.00,,,,,,05,,,,3.6,123*78
$GLGMP,060047.00,,,,,,05,,,,,*7F
$GAGMP,060047.00,,,,,,04,,,,,*73
$GBGMP,060047.00,,,,,,05,,,,,*71
$PSSN,SNC,[0,280865000,2347]*45
$GPZDA,060052.00,01,01,2025,,*62
$GPDTM,W84,,00.0000000,N,00.0000000,E,00.0000000,W84*5F
$GPRMC,060052.00,A,4742.4462692,N,01617.9729503,E,0.0,,010125,5.1,E,D*12
$GPGLL,4742.4462692,N,01617.9729503,E,060052.00,A,D*63
$GPGGA,060052.00,4742.4462692,N,01617.9729503,E,2,19,0.9,624.0809,M,43.2111,M,2.8,0123*40
$GNGNS,060052.00,4742.4462692,N,01617.9729503,E,DAAA,19,0.9,624.0809,43.2111,,*56
$GPGNS,060052.00,,,,,,05,,,,2.8,123*73
$GLGNS,060052.00,,,,,,05,,,,,*7B
$GAGNS,060052.00,,,,,,04,,,,,*77
$GBGNS,060052.00,,,,,,05,,,,,*75
$GPLLQ,060052.00,010125,,M,,M,1,19,1.765,,M*1D
$GPVTG,,T,,M,0.01,N,0.01,K,D*26
$GPHDT,,T*1B
$GPTHS,,V*0E
$GPROT,,V*08
$PSSN,HRP,060052.00,010125,,,,,,,00,0,,*60
$PTNL,AVR,060052.00,,Yaw,,Tilt,,,,0,,00*36
$GPGSA,A,3,05,06,07,20,30,,,,,,,,1.3,0.9,1.0*3D
$GPGSA,A,3,65,72,73,74,88,,,,,,,,1.3,0.9,1.0*39
$GPGSA,A,3,03,05,15,24,,,,,,,,,1.3,0.9,1.0*3C
$GPGSA,A,3,05,19,21,22,36,,,,,,,,1.3,0.9,1.0*33
$GPGST,060052.00,3.573,0.922,0.626,67.790,0.676,0.886,1.369*6C
$GPGBS,060052.00,4.577,6.666,8.098,88,0.0001,-10.016,6.215*4C
$GPGRS,060052.00,1,1.1,-0.0,-0.5,0.1,-0.1,,,,,,,*49
$GPGRS,060052.00,1,-0.4,1.9,2.2,-0.8,-10.0,,,,,,,*79
$GPGRS,060052.00,1,-0.4,0.4,1.2,-0.3,,,,,,,,*4F
$GPGRS,060052.00,1,1.6,0.2,-3.5,-2.3,-4.5,,,,,,,*4F
$GPGSV,4,1,15,07,73,075,38,06,12,211,37,05,29,311,46,04,11,090,19*7B
$GPGSV,4,2,15,13,13,273,26,11,29,245,35,09,38,088,31,30,64,211,45*75
$GPGSV,4,3,15,20,58,283,47,16,07,029,27,14,08,170,,36,35,170,41*7A
$GPGSV,4,4,15,34,31,208,,49,34,195,33,61,03,257,*41
$GLGSV,3,1,11,72,68,347,45,71,45,094,34,75,15,184,31,65,16,304,37*6E
$GLGSV,3,2,11,88,21,302,38,73,49,055,47,74,58,143,44,80,04,023,20*60
$GLGSV,3,3,11,81,08,353,,87,10,246,31,70,02,113,*5B
$GAGSV,3,1,11,05,72,060,42,13,12,331,32,25,15,159,,09,20,087,28*6B
$GAGSV,3,2,11,31,24,049,34,16,28,138,,34,24,221,34,24,36,108,43*6A
$GAGSV,3,3,11,15,35,280,46,03,49,283,46,08,01,273,*58
$GBGSV,5,1,20,22,87,056,49,05,22,129,35,58,17,040,,50,13,300,*6E
$GBGSV,5,2,20,45,31,189,33,09,24,053,30,19,32,118,44,21,36,302,40*65
$GBGSV,5,3,20,46,31,051,,36,63,123,40,02,06,108,,34,06,289,28*6A
$GBGSV,5,4,20,16,07,052,,40,03,076,,10,06,096,,12,06,263,25*64
$GBGSV,5,5,20,48,07,119,,11,05,311,,06,09,053,,60,07,111,*64
$GPGGA,060052.00,,,,,0,00,,,M,,M,,*49
$PTNL,GGK,060052.00,010125,4742.4462692,N,01617.9729503,E,1,19,1.3,EHT667.2919,M*4B
$GPGGQ,060052.00,010125,4742.4462692,N,01617.9729503,E,1,19,1.765,624.0809,M*37
$GPGFA,060052.00,8.765,11.225,0.922,0.626,67.790,1.369,,VVV*02
$GPLLK,060052.00,010125,,M,,M,1,19,1.5,,M*06
$GNGMP,060052.00,,,,,DAAA,19,0.9,,,,*56
$GPGMP,060052.00,,,,,,05,,,,2.8,123*73
$GLGMP,060052.00,,,,,,05,,,,,*7B
$GAGMP,060052.00,,,,,,04,,,,,*77
$GBGMP,060052.00,,,,,,05,,,,,*75
$PSSN,SNC,[0,280870000,2347]*41
$GPZDA,060057.00,01,01,2025,,*67
$GPDTM,W84,,00.0000000,N,00.0000000,E,00.0000000,W84*5F
$GPRMC,060057.00,A,4742.4462627,N,01617.9729540,E,0.0,,010125,5.1,E,D*1E
$GPGLL,4742.4462627,N,01617.9729540,E,060057.00,A,D*6F
$GPGGA,060057.00,4742.4462627,N,01617.9729540,E,2,22,0.7,624.0823,M,43.2111,M,3.0,0123*4B
$GNGNS,060057.00,4742.4462627,N,01617.9729540,E,DAAA,22,0.7,624.0823,43.2111,,*54
$GPGNS,060057.00,,,,,,05,,,,3.0,123*7F
$GLGNS,060057.00,,,,,,07,,,,,*7C
$GAGNS,060057.00,,,,,,05,,,,,*73
$GBGNS,060057.00,,,,,,05,,,,,*70
$GPLLQ,060057.00,010125,,M,,M,1,22,3.182,,M*1D
$GPVTG,,T,,M,0.00,N,0.01,K,D*27
$GPHDT,,T*1B
$GPTHS,,V*0E
$GPROT,,V*08
$PSSN,HRP,060057.00,010125,,,,,,,00,0,,*65
$PTNL,AVR,060057.00,,Yaw,,Tilt,,,,0,,00*33
$GPGSA,A,3,05,06,07,20,30,,,,,,,,1.1,0.7,0.9*39
$GPGSA,A,3,65,71,72,73,74,81,88,,,,,,1.1,0.7,0.9*32
$GPGSA,A,3,03,05,15,24,34,,,,,,,,1.1,0.7,0.9*3F
$GPGSA,A,3,05,19,21,22,36,,,,,,,,1.1,0.7,0.9*37
$GPGST,060057.00,7.431,1.668,1.135,67.690,1.226,1.602,2.460*61
$GPGBS,060057.00,4.342,6.684,8.292,81,0.0001,21.476,6.420*69
$GPGRS,060057.00,1,0.9,-0.7,0.1,-0.5,0.1,,,,,,,*6F
$GPGRS,060057.00,1,1.8,-2.3,1.8,0.8,-0.6,21.5,-6.3,,,,,*75
$GPGRS,060057.00,1,-0.7,0.3,0.9,-0.3,16.6,,,,,,,*5B
$GPGRS,060057.00,1,2.4,-1.0,-3.6,-2.4,-3.2,,,,,,,*61
$GPGSV,4,1,15,07,73,075,37,06,12,211,38,05,29,311,46,04,11,090,20*71
$GPGSV,4,2,15,13,13,273,30,11,29,244,32,09,38,088,26,30,64,211,45*72
$GPGSV,4,3,15,20,58,283,48,16,07,029,26,14,08,170,,36,35,170,41*74
$GPGSV,4,4,15,34,31,208,,49,34,195,34,61,03,257,*46
$GLGSV,3,1,11,72,68,347,43,71,45,094,38,75,15,184,31,65,16,304,39*6A
$GLGSV,3,2,11,88,21,302,38,73,49,054,47,74,58,143,44,80,04,023,19*6B
$GLGSV,3,3,11,81,08,353,37,87,10,246,,70,02,113,*5D
$GAGSV,3,1,11,05,72,060,42,13,12,331,31,25,15,159,,09,20,087,26*66
$GAGSV,3,2,11,31,24,049,34,16,28,138,,34,24,221,35,24,36,108,43*6B
$GAGSV,3,3,11,15,35,280,46,03,49,283,46,08,01,273,*58
$GBGSV,5,1,20,22,87,056,48,05,22,129,35,58,17,040,,50,13,300,*6F
$GBGSV,5,2,20,45,31,189,34,09,24,053,30,19,32,118,45,21,36,302,41*62
$GBGSV,5,3,20,46,31,051,,36,63,123,44,02,06,108,,34,06,289,28*6E
$GBGSV,5,4,20,16,07,052,,40,03,076,,10,06,096,,12,06,263,26*67
$GBGSV,5,5,20,48,07,119,,11,05,310,,06,09,053,,60,07,111,*65
$GPGGA,060057.00,,,,,0,00,,,M,,M,,*4C
$PTNL,GGK,060057.00,010125,4742.4462627,N,01617.9729540,E,1,22,1.1,EHT667.2934,M*42
$GPGGQ,060057.00,010125,4742.4462627,N,01617.9729540,E,1,22,3.182,624.0823,M*36
$GPGFA,060057.00,15.862,20.170,1.668,1.135,67.690,2.460,,VVV*3A
$GPLLK,060057.00,010125,,M,,M,1,22,1.2,,M*0C
$GNGMP,060057.00,,,,,DAAA,22,0.7,,,,*55
$GPGMP,060057.00,,,,,,05,,,,3.0,123*7F
$GLGMP,060057.00,,,,,,07,,,,,*7C
$GAGMP,060057.00,,,,,,05,,,,,*73
$GBGMP,060057.00,,,,,,05,,,,,*70
$PSSN,SNC,[0,280875000,2347]*44
$GPZDA,060102.00,01,01,2025,,*66
$GPDTM,W84,,00.0000000,N,00.0000000,E,00.0000000,W84*5F
$GPRMC,060102.00,A,4742.4462552,N,01617.9729469,E,0.0,,010125,5.1,E,D*14
$GPGLL,4742.4462552,N,01617.9729469,E,060102.00,A,D*65
$GPGGA,060102.00,4742.4462552,N,01617.9729469,E,2,23,0.6,624.0705,M,43.2111,M,1.6,0123*4E
$GNGNS,060102.00,4742.4462552,N,01617.9729469,E,DAAA,23,0.6,624.0705,43.2111,,*55
$GPGNS,060102.00,,,,,,05,,,,1.6,123*7A
$GLGNS,060102.00,,,,,,07,,,,,*7D
$GAGNS,060102.00,,,,,,05,,,,,*72
$GBGNS,060102.00,,,,,,06,,,,,*72
$GPLLQ,060102.00,010125,,M,,M,1,23,3.395,,M*19
$GPVTG,,T,,M,0.00,N,0.01,K,D*27
$GPHDT,,T*1B
$GPTHS,,V*0E
$GPROT,,V*08
$PSSN,HRP,060102.00,010125,,,,,,,00,0,,*64
$PTNL,AVR,060102.00,,Yaw,,Tilt,,,,0,,00*32
$GPGSA,A,3,05,06,07,20,30,,,,,,,,1.1,0.6,0.9*38
$GPGSA,A,3,65,71,72,73,74,81,88,,,,,,1.1,0.6,0.9*33
$GPGSA,A,3,03,05,15,24,34,,,,,,,,1.1,0.6,0.9*3E
$GPGSA,A,3,05,19,21,22,36,45,,,,,,,1.1,0.6,0.9*37
$GPGST,060102.00,7.556,1.768,1.214,69.232,1.297,1.709,2.632*66
$GPGBS,060102.00,4.274,6.292,8.047,81,0.0001,23.924,6.417*69
$GPGRS,060102.00,1,0.2,-1.6,1.1,-0.7,0.2,,,,,,,*65
$GPGRS,060102.00,1,6.1,-5.0,1.7,0.4,-0.9,23.9,-5.9,,,,,*75
$GPGRS,060102.00,1,-1.2,-0.4,-0.1,-0.7,13.5,,,,,,,*53
$GPGRS,060102.00,1,1.2,-2.2,-3.9,-3.1,-0.2,-4.5,,,,,,*6E
$GPGSV,4,1,15,07,73,075,38,05,29,311,46,06,12,211,38,04,10,090,*7D
$GPGSV,4,2,15,13,13,273,32,11,29,244,33,09,37,089,25,30,64,211,44*7D
$GPGSV,4,3,15,20,58,283,48,16,07,029,25,14,08,170,,36,35,170,42*74
$GPGSV,4,4,15,34,31,208,,49,34,195,34,61,03,257,*46
$GLGSV,3,1,11,72,68,347,40,71,45,095,40,75,15,184,32,65,16,304,40*6A
$GLGSV,3,2,11,88,21,302,39,73,49,054,49,74,58,143,44,80,04,023,*6C
$GLGSV,3,3,11,81,08,353,38,87,10,246,,70,02,113,*52
$GAGSV,3,1,11,05,72,060,43,13,12,331,32,25,15,159,,09,20,087,25*67
$GAGSV,3,2,11,31,24,049,35,16,28,138,,34,24,221,36,24,36,108,44*6E
$GAGSV,3,3,11,15,35,280,46,03,49,283,46,08,01,273,*58
$GBGSV,5,1,20,22,87,057,47,05,22,129,35,58,17,040,,50,13,300,*61
$GBGSV,5,2,20,45,31,189,35,09,24,053,29,19,32,118,44,46,31,051,*6C
$GBGSV,5,3,20,21,36,302,42,36,63,123,46,02,06,108,,34,06,289,26*67
$GBGSV,5,4,20,12,06,263,26,40,04,076,,10,06,096,,16,07,052,*60
$GBGSV,5,5,20,48,07,120,,11,05,310,,06,09,053,,60,07,111,*6F
$GPGGA,060102.00,,,,,0,00,,,M,,M,,*4D
$PTNL,GGK,060102.00,010125,4742.4462552,N,01617.9729469,E,1,23,1.1,EHT667.2815,M*4B
$GPGGQ,060102.00,010125,4742.4462552,N,01617.9729469,E,1,23,3.395,624.0705,M*32
$GPGFA,060102.00,16.813,21.583,1.768,1.214,69.232,2.632,,VVV*31
$GPLLK,060102.00,010125,,M,,M,1,23,1.2,,M*0C
$GNGMP,060102.00,,,,,DAAA,23,0.6,,,,*54
$GPGMP,060102.00,,,,,,05,,,,1.6,123*7A
$GLGMP,060102.00,,,,,,07,,,,,*7D
$GAGMP,060102.00,,,,,,05,,,,,*72
$GBGMP,060102.00,,,,,,06,,,,,*72
$PSSN,SNC,[0,280880000,2347]*4E
$GPZDA,060107.00,01,01,2025,,*63
$GPDTM,W84,,00.0000000,N,00.0000000,E,00.0000000,W84*5F
$GPRMC,060107.00,A,4742.4462499,N,01617.9729359,E,0.0,,010125,5.1,E,D*13
$GPGLL,4742.4462499,N,01617.9729359,E,060107.00,A,D*62
$GPGGA,060107.00,4742.4462499,N,01617.9729359,E,2,23,0.6,624.0678,M,43.2111,M,2.6,0123*41
$GNGNS,060107.00,4742.4462499,N,01617.9729359,E,DAAA,23,0.6,624.0678,43.2111,,*59
$GPGNS,060107.00,,,,,,05,,,,2.6,123*7C
$GLGNS,060107.00,,,,,,07,,,,,*78
$GAGNS,060107.00,,,,,,05,,,,,*77
$GBGNS,060107.00,,,,,,06,,,,,*77
$GPLLQ,060107.00,010125,,M,,M,1,23,2.924,,M*1D
$GPVTG,,T,,M,0.01,N,0.02,K,D*25
$GPHDT,,T*1B
$GPTHS,,V*0E
$GPROT,,V*08
$PSSN,HRP,060107.00,010125,,,,,,,00,0,,*61
$PTNL,AVR,060107.00,,Yaw,,Tilt,,,,0,,00*37
$GPGSA,A,3,05,06,07,20,30,,,,,,,,1.1,0.6,0.9*38
$GPGSA,A,3,65,71,72,73,74,81,88,,,,,,1.1,0.6,0.9*33
$GPGSA,A,3,03,05,15,24,34,,,,,,,,1.1,0.6,0.9*3E
$GPGSA,A,3,05,19,21,22,36,45,,,,,,,1.1,0.6,0.9*37
$GPGST,060107.00,7.575,1.515,1.042,69.174,1.113,1.464,2.274*6B
$GPGBS,060107.00,4.362,6.382,8.097,81,0.0001,24.934,6.424*61
$GPGRS,060107.00,1,-0.3,-1.3,0.9,-0.9,0.7,,,,,,,*4B
$GPGRS,060107.00,1,5.7,-4.6,3.0,2.4,-1.5,24.9,-4.4,,,,,*73
$GPGRS,060107.00,1,-1.0,-1.2,-0.1,-0.7,10.6,,,,,,,*53
$GPGRS,060107.00,1,1.0,-3.7,-3.2,-3.4,1.9,-6.7,,,,,,*44
$GPGSV,4,1,15,07,73,075,39,05,29,311,46,06,12,211,38,04,10,090,*7C
$GPGSV,4,2,15,13,13,273,35,11,29,244,33,09,37,089,25,30,64,211,44*7A
$GPGSV,4,3,15,20,58,283,48,16,07,029,23,14,09,170,,36,35,170,42*73
$GPGSV,4,4,15,34,31,208,,49,34,195,33,61,03,257,*41
$GLGSV,3,1,11,72,68,347,41,71,45,095,42,75,15,184,33,65,16,304,40*68
$GLGSV,3,2,11,88,21,302,41,73,49,054,49,74,58,143,44,80,04,023,*63
$GLGSV,3,3,11,81,08,353,35,87,10,246,32,70,02,113,*5E
$GAGSV,3,1,11,05,72,060,43,13,12,331,31,25,15,159,,09,20,087,22*63
$GAGSV,3,2,11,31,24,049,35,16,28,138,,34,24,221,37,24,36,108,44*6F
$GAGSV,3,3,11,15,35,280,47,03,49,283,46,08,01,273,*59
$GBGSV,5,1,20,22,87,058,46,05,22,129,35,58,17,040,,50,13,301,*6E
$GBGSV,5,2,20,45,31,189,36,09,24,053,30,19,32,118,44,46,31,051,*67
$GBGSV,5,3,20,21,36,302,42,36,63,123,47,02,06,108,,34,06,289,30*61
$GBGSV,5,4,20,12,06,263,26,40,04,076,,10,06,096,,16,07,052,*60
$GBGSV,5,5,20,48,07,120,,11,05,310,,06,09,053,,60,07,111,*6F
$GPGGA,060107.00,,,,,0,00,,,M,,M,,*48
$PTNL,GGK,060107.00,010125,4742.4462499,N,01617.9729359,E,1,23,1.1,EHT667.2788,M*47
$GPGGQ,060107.00,010125,4742.4462499,N,01617.9729359,E,1,23,2.924,624.0678,M*3F
$GPGFA,060107.00,14.406,18.645,1.515,1.042,69.174,2.274,,VVV*33
$GPLLK,060107.00,010125,,M,,M,1,23,1.2,,M*09
$GNGMP,060107.00,,,,,DAAA,23,0.6,,,,*51
$GPGMP,060107.00,,,,,,05,,,,2.6,123*7C
$GLGMP,060107.00,,,,,,07,,,,,*78
$GAGMP,060107.00,,,,,,05,,,,,*77
$GBGMP,060107.00,,,,,,06,,,,,*77
$PSSN,SNC,[0,280885000,2347]*4B
$GPZDA,060112.00,01,01,2025,,*67
$GPDTM,W84,,00.0000000,N,00.0000000,E,00.0000000,W84*5F
$GPRMC,060112.00,A,4742.4462518,N,01617.9729347,E,0.0,,010125,5.1,E,D*10
$GPGLL,4742.4462518,N,01617.9729347,E,060112.00,A,D*61
$GPGGA,060112.00,4742.4462518,N,01617.9729347,E,2,22,0.7,624.0643,M,43.2111,M,2.8,0123*44
$GNGNS,060112.00,4742.4462518,N,01617.9729347,E,DAAA,22,0.7,624.0643,43.2111,,*52
$GPGNS,060112.00,,,,,,06,,,,2.8,123*75
$GLGNS,060112.00,,,,,,05,,,,,*7E
$GAGNS,060112.00,,,,,,05,,,,,*73
$GBGNS,060112.00,,,,,,06,,,,,*73
$GPLLQ,060112.00,010125,,M,,M,1,22,2.524,,M*14
$GPVTG,,T,,M,0.00,N,0.01,K,D*27
$GPHDT,,T*1B
$GPTHS,,V*0E
$GPROT,,V*08
$PSSN,HRP,060112.00,010125,,,,,,,00,0,,*65
$PTNL,AVR,060112.00,,Yaw,,Tilt,,,,0,,00*33
$GPGSA,A,3,05,06,07,13,20,30,,,,,,,1.2,0.7,1.0*30
$GPGSA,A,3,65,72,73,74,88,,,,,,,,1.2,0.7,1.0*36
$GPGSA,A,3,03,05,15,24,34,,,,,,,,1.2,0.7,1.0*34
$GPGSA,A,3,05,19,21,22,36,45,,,,,,,1.2,0.7,1.0*3D
$GPGST,060112.00,3.444,1.363,0.914,66.989,0.996,1.304,1.917*69
$GPGBS,060112.00,4.141,6.342,6.746,06,0.0001,-2.270,1.031*75
$GPGRS,060112.00,1,-0.2,-2.3,0.5,1.2,-1.0,1.2,,,,,,*60
$GPGRS,060112.00,1,2.8,3.8,2.9,-1.2,-1.0,,,,,,,*6C
$GPGRS,060112.00,1,-1.3,-1.4,-0.1,-0.7,9.2,,,,,,,*6E
$GPGRS,060112.00,1,1.2,-4.5,-2.9,-3.3,-0.9,-2.2,,,,,,*67
$GPGSV,4,1,15,07,72,075,40,05,29,311,46,06,12,211,38,04,10,090,*73
$GPGSV,4,2,15,13,13,273,36,11,29,244,33,09,37,089,27,30,64,211,44*7B
$GPGSV,4,3,15,20,58,283,48,16,07,029,24,14,09,170,,36,35,170,42*74
$GPGSV,4,4,15,34,31,208,,49,34,195,34,61,03,257,*46
$GLGSV,3,1,11,72,68,347,42,71,45,095,,75,15,184,33,65,16,304,38*62
$GLGSV,3,2,11,88,21,302,42,73,49,054,48,74,58,143,43,80,04,023,22*66
$GLGSV,3,3,11,81,08,353,34,87,10,246,30,70,02,113,*5D
$GAGSV,3,1,11,05,72,061,44,13,12,331,32,25,15,159,,09,20,087,21*65
$GAGSV,3,2,11,31,24,049,34,16,28,138,,34,24,221,37,24,36,108,44*6E
$GAGSV,3,3,11,15,35,280,47,03,49,283,47,08,01,273,*58
$GBGSV,5,1,20,22,87,058,46,05,22,129,35,58,17,040,,50,13,301,*6E
$GBGSV,5,2,20,45,31,189,36,09,24,053,30,19,32,118,42,46,31,051,*61
$GBGSV,5,3,20,21,36,302,43,36,63,123,46,02,06,108,,34,06,289,32*63
$GBGSV,5,4,20,12,06,263,26,40,04,076,,10,06,096,,16,07,052,*60
$GBGSV,5,5,20,48,07,120,,11,05,310,,06,09,053,,60,07,111,*6F
$GPGGA,060112.00,,,,,0,00,,,M,,M,,*4C
$PTNL,GGK,060112.00,010125,4742.4462518,N,01617.9729347,E,1,22,1.2,EHT667.2753,M*40
$GPGGQ,060112.00,010125,4742.4462518,N,01617.9729347,E,1,22,2.524,624.0643,M*39
$GPGFA,060112.00,12.959,15.721,1.363,0.914,66.989,1.917,,VVV*3C
$GPLLK,060112.00,010125,,M,,M,1,22,1.4,,M*0A
$GNGMP,060112.00,,,,,DAAA,22,0.7,,,,*55
$GPGMP,060112.00,,,,,,06,,,,2.8,123*75
$GLGMP,060112.00,,,,,,05,,,,,*7E
$GAGMP,060112.00,,,,,,05,,,,,*73
$GBGMP,060112.00,,,,,,06,,,,,*73
$PSSN,SNC,[0,280890000,2347]*4F
$GPZDA,060117.00,01,01,2025,,*62
$GPDTM,W84,,00.0000000,N,00.0000000,E,00.0000000,W84*5F
$GPRMC,060117.00,A,4742.4462490,N,01617.9729373,E,0.0,,010125,5.1,E,D*13
$GPGLL,4742.4462490,N,01617.9729373,E,060117.00,A,D*62
$GPGGA,060117.00,4742.4462490,N,01617.9729373,E,2,24,0.6,624.0509,M,43.2111,M,3.3,0123*47
$GNGNS,060117.00,4742.4462490,N,01617.9729373,E,DAAA,24,0.6,624.0509,43.2111,,*5B
$GPGNS,060117.00,,,,,,07,,,,3.3,123*7B
$GLGNS,060117.00,,,,,,06,,,,,*78
$GAGNS,060117.00,,,,,,05,,,,,*76
$GBGNS,060117.00,,,,,,06,,,,,*76
$GPLLQ,060117.00,010125,,M,,M,1,24,3.126,,M*10
$GPVTG,,T,,M,0.01,N,0.02,K,D*25
$GPHDT,,T*1B
$GPTHS,,V*0E
$GPROT,,V*08
$PSSN,HRP,060117.00,010125,,,,,,,00,0,,*60
$PTNL,AVR,060117.00,,Yaw,,Tilt,,,,0,,00*36
$GPGSA,A,3,05,06,07,09,13,20,30,,,,,,1.1,0.6,0.9*33
$GPGSA,A,3,71,72,73,74,81,88,,,,,,,1.1,0.6,0.9*30
$GPGSA,A,3,03,05,15,24,34,,,,,,,,1.1,0.6,0.9*3E
$GPGSA,A,3,05,19,21,22,36,45,,,,,,,1.1,0.6,0.9*37
$GPGST,060117.00,7.529,1.644,1.158,6.142,1.639,1.165,2.393*51
$GPGBS,060117.00,3.671,3.645,4.235,13,0.0001,3.983,1.069*55
$GPGRS,060117.00,1,-0.2,-2.7,0.7,-1.4,4.0,-1.7,1.1,,,,,*66
$GPGRS,060117.00,1,16.5,3.7,0.5,-1.5,21.9,3.3,,,,,,*6F
$GPGRS,060117.00,1,-1.4,-1.9,-0.2,-0.4,9.2,,,,,,,*61
$GPGRS,060117.00,1,0.0,-4.8,-2.4,-3.1,-4.7,2.2,,,,,,*44
$GPGSV,4,1,15,07,72,075,39,05,29,311,46,06,12,210,38,04,10,090,*7C
$GPGSV,4,2,15,13,13,273,37,11,29,244,33,09,37,089,36,30,64,211,45*7B
$GPGSV,4,3,15,20,58,283,47,16,07,029,25,14,09,170,,36,35,170,42*7A
$GPGSV,4,4,15,34,31,208,,49,34,195,34,61,03,257,*46
$GLGSV,3,1,11,72,68,348,42,71,45,095,44,75,15,184,33,65,16,304,*66
$GLGSV,3,2,11,88,21,302,41,73,49,054,47,74,58,143,42,80,03,023,*6C
$GLGSV,3,3,11,81,08,353,35,87,10,246,26,70,02,113,*5B
$GAGSV,3,1,11,05,72,061,43,13,12,331,33,25,15,159,,09,20,087,*60
$GAGSV,3,2,11,31,24,049,33,16,28,138,,34,24,221,36,24,36,108,44*68
$GAGSV,3,3,11,15,35,280,47,03,49,283,47,08,01,273,*58
$GBGSV,5,1,20,22,87,059,46,05,22,129,35,58,17,040,,50,13,301,*6F
$GBGSV,5,2,20,45,31,189,35,09,24,053,31,19,32,118,41,46,31,051,*60
$GBGSV,5,3,20,21,36,302,44,36,63,123,45,02,06,108,,34,06,289,33*66
$GBGSV,5,4,20,12,06,263,26,40,04,076,,10,06,096,,16,07,052,*60
$GBGSV,5,5,20,48,07,120,,11,05,310,,06,09,053,,60,07,111,*6F
$GPGGA,060117.00,,,,,0,00,,,M,,M,,*49
$PTNL,GGK,060117.00,010125,4742.4462490,N,01617.9729373,E,1,24,1.1,EHT667.2620,M*43
$GPGGQ,060117.00,010125,4742.4462490,N,01617.9729373,E,1,24,3.126,624.0509,M*36
$GPGFA,060117.00,15.629,19.623,1.644,1.158,6.142,2.393,,VVV*04
$GPLLK,060117.00,010125,,M,,M,1,24,1.2,,M*0F
$GNGMP,060117.00,,,,,DAAA,24,0.6,,,,*57
$GPGMP,060117.00,,,,,,07,,,,3.3,123*7B
$GLGMP,060117.00,,,,,,06,,,,,*78
$GAGMP,060117.00,,,,,,05,,,,,*76
$GBGMP,060117.00,,,,,,06,,,,,*76
$PSSN,SNC,[0,280895000,2347]*4A
$GPZDA,060122.00,01,01,2025,,*64
$GPDTM,W84,,00.0000000,N,00.0000000,E,00.0000000,W84*5F
$GPRMC,060122.00,A,4742.4462508,N,01617.9729326,E,0.0,,010125,5.1,E,D*15
$GPGLL,4742.4462508,N,01617.9729326,E,060122.00,A,D*64
$GPGGA,060122.00,4742.4462508,N,01617.9729326,E,2,20,0.8,624.0301,M,43.2111,M,1.5,0123*41
$GNGNS,060122.00,4742.4462508,N,01617.9729326,E,DAAA,20,0.8,624.0301,43.2111,,*59
$GPGNS,060122.00,,,,,,06,,,,1.5,123*78
$GLGNS,060122.00,,,,,,05,,,,,*7D
$GAGNS,060122.00,,,,,,04,,,,,*71
$GBGNS,060122.00,,,,,,05,,,,,*73
$GPLLQ,060122.00,010125,,M,,M,1,20,2.928,,M*15
$GPVTG,,T,,M,0.00,N,0.01,K,D*27
$GPHDT,,T*1B
$GPTHS,,V*0E
$GPROT,,V*08
$PSSN,HRP,060122.00,010125,,,,,,,00,0,,*66
$PTNL,AVR,060122.00,,Yaw,,Tilt,,,,0,,00*30
$GPGSA,A,3,05,06,07,09,20,30,,,,,,,1.4,0.8,1.1*33
$GPGSA,A,3,71,72,73,74,88,,,,,,,,1.4,0.8,1.1*3B
$GPGSA,A,3,03,05,15,24,,,,,,,,,1.4,0.8,1.1*3B
$GPGSA,A,3,05,19,21,22,36,,,,,,,,1.4,0.8,1.1*34
$GPGST,060122.00,4.902,1.439,1.055,2.679,1.438,1.056,2.322*56
$GPGBS,060122.00,4.112,3.514,5.723,20,0.0001,-1.830,0.622*7C
$GPGRS,060122.00,1,0.4,-1.6,1.6,-1.6,-1.8,1.3,,,,,,*6C
$GPGRS,060122.00,1,12.6,4.4,-0.1,-0.4,8.6,,,,,,,*59
$GPGRS,060122.00,1,-0.8,-1.9,0.0,0.4,,,,,,,,*4D
$GPGRS,060122.00,1,1.3,-4.0,-1.4,-2.5,-4.0,,,,,,,*67
$GPGSV,4,1,15,07,72,075,38,05,29,311,46,06,12,210,37,04,10,090,*72
$GPGSV,4,2,15,13,14,273,37,11,29,244,34,09,37,089,36,30,64,211,46*78
$GPGSV,4,3,15,20,58,282,45,16,07,029,25,14,09,170,,36,35,170,42*79
$GPGSV,4,4,15,34,31,208,,49,34,195,34,61,03,257,*46
$GLGSV,3,1,11,72,68,348,43,71,45,095,45,75,15,184,34,65,17,304,34*67
$GLGSV,3,2,11,88,21,302,39,73,49,054,45,74,58,143,42,80,03,023,*61
$GLGSV,3,3,11,81,08,353,,87,09,246,,70,02,113,*51
$GAGSV,3,1,11,05,72,061,42,13,12,331,32,25,15,159,,09,20,087,*60
$GAGSV,3,2,11,31,24,049,32,16,28,138,,34,24,221,34,24,36,108,44*6B
$GAGSV,3,3,11,15,35,280,46,03,49,283,47,08,01,273,*59
$GBGSV,5,1,20,22,87,060,46,05,22,129,35,58,17,040,,50,13,301,*65
$GBGSV,5,2,20,45,31,189,32,09,24,053,31,19,32,118,41,46,31,051,*67
$GBGSV,5,3,20,21,36,302,45,36,63,123,45,02,06,108,,34,06,289,33*67
$GBGSV,5,4,20,12,06,263,25,40,04,076,,10,06,096,,16,07,052,*63
$GBGSV,5,5,20,48,07,120,,11,05,310,,06,09,053,,60,07,111,*6F
$GPGGA,060122.00,,,,,0,00,,,M,,M,,*4F
$PTNL,GGK,060122.00,010125,4742.4462508,N,01617.9729326,E,1,20,1.4,EHT667.2411,M*44
$GPGGQ,060122.00,010125,4742.4462508,N,01617.9729326,E,1,20,2.928,624.0301,M*3D
$GPGFA,060122.00,13.678,19.043,1.439,1.055,2.679,2.322,,VVV*05
$GPLLK,060122.00,010125,,M,,M,1,20,1.6,,M*09
$GNGMP,060122.00,,,,,DAAA,20,0.8,,,,*5B
$GPGMP,060122.00,,,,,,06,,,,1.5,123*78
$GLGMP,060122.00,,,,,,05,,,,,*7D
$GAGMP,060122.00,,,,,,04,,,,,*71
$GBGMP,060122.00,,,,,,05,,,,,*73
$PSSN,SNC,[0,280900000,2347]*47
$GPZDA,060127.00,01,01,2025,,*61
$GPDTM,W84,,00.0000000,N,00.0000000,E,00.0000000,W84*5F
$GPRMC,060127.00,A,4742.4462492,N,01617.9729362,E,0.0,,010125,5.1,E,D*12
$GPGLL,4742.4462492,N,01617.9729362,E,060127.00,A,D*63
$GPGGA,060127.00,4742.4462492,N,01617.9729362,E,2,21,0.7,624.0061,M,43.2111,M,2.5,0123*4E
$GNGNS,060127.00,4742.4462492,N,01617.9729362,E,DAAA,21,0.7,624.0061,43.2111,,*55
$GPGNS,060127.00,,,,,,06,,,,2.5,123*7E
$GLGNS,060127.00,,,,,,05,,,,,*78
$GAGNS,060127.00,,,,,,05,,,,,*75
$GBGNS,060127.00,,,,,,05,,,,,*76
$GPLLQ,060127.00,010125,,M,,M,1,21,2.805,,M*1F
$GPVTG,,T,,M,0.00,N,0.01,K,D*27
$GPHDT,,T*1B
$GPTHS,,V*0E
$GPROT,,V*08
$PSSN,HRP,060127.00,010125,,,,,,,00,0,,*63
$PTNL,AVR,060127.00,,Yaw,,Tilt,,,,0,,00*35
$GPGSA,A,3,05,06,07,09,20,30,,,,,,,1.2,0.7,1.0*3B
$GPGSA,A,3,71,72,73,74,88,,,,,,,,1.2,0.7,1.0*33
$GPGSA,A,3,03,05,15,24,31,,,,,,,,1.2,0.7,1.0*31
$GPGSA,A,3,05,19,21,22,36,,,,,,,,1.2,0.7,1.0*3C
$GPGST,060127.00,3.753,1.248,1.151,46.056,1.199,1.202,2.233*6C
$GPGBS,060127.00,4.179,3.571,5.818,30,0.0001,1.503,0.605*54
$GPGRS,060127.00,1,1.0,-2.3,-0.1,-0.2,-1.2,1.5,,,,,,*48
$GPGRS,060127.00,1,4.7,6.2,-0.7,-0.4,9.7,,,,,,,*68
$GPGRS,060127.00,1,-0.2,-1.5,0.1,0.8,3.4,,,,,,,*6A
$GPGRS,060127.00,1,1.9,-2.5,-1.2,-1.8,-1.8,,,,,,,*6E
$GPGSV,4,1,15,07,72,075,39,05,29,311,46,06,12,210,36,04,10,090,22*72
$GPGSV,4,2,15,13,14,273,37,11,29,244,33,09,37,089,35,30,64,211,46*7C
$GPGSV,4,3,15,20,58,282,44,16,07,029,22,14,09,170,,36,35,170,41*7C
$GPGSV,4,4,15,34,31,208,,49,34,195,34,61,03,257,*46
$GLGSV,3,1,11,72,68,348,43,71,45,095,46,75,15,184,34,65,17,304,34*64
$GLGSV,3,2,11,88,21,302,35,73,49,054,43,74,58,143,43,80,03,023,21*69
$GLGSV,3,3,11,81,08,353,,87,09,246,25,70,02,113,*56
$GAGSV,3,1,11,05,72,061,41,13,12,331,32,25,15,159,,09,20,087,21*60
$GAGSV,3,2,11,31,24,049,36,16,28,138,,34,24,221,32,24,36,108,44*69
$GAGSV,3,3,11,15,35,280,46,03,49,283,47,08,01,273,*59
$GBGSV,5,1,20,22,87,060,46,05,22,129,36,58,17,040,,50,13,301,*66
$GBGSV,5,2,20,45,31,189,28,09,24,053,31,19,32,118,40,46,31,051,*6D
$GBGSV,5,3,20,21,36,302,46,36,63,122,44,02,06,108,,34,06,289,32*65
$GBGSV,5,4,20,12,06,263,25,40,04,076,,10,06,096,,16,07,052,*63
$GBGSV,5,5,20,48,07,120,,11,05,310,,06,09,053,,60,07,111,*6F
$GPGGA,060127.00,,,,,0,00,,,M,,M,,*4A
$PTNL,GGK,060127.00,010125,4742.4462492,N,01617.9729362,E,1,21,1.2,EHT667.2172,M*44
$GPGGQ,060127.00,010125,4742.4462492,N,01617.9729362,E,1,21,2.805,624.0061,M*30
$GPGFA,060127.00,11.867,18.310,1.248,1.151,46.056,2.233,,VVV*39
$GPLLK,060127.00,010125,,M,,M,1,21,1.4,,M*0F
$GNGMP,060127.00,,,,,DAAA,21,0.7,,,,*50
$GPGMP,060127.00,,,,,,06,,,,2.5,123*7E
