$GPZDA,072942.00,01,01,2025,,*69
$GPDTM,W84,,00.0000000,N,00.0000000,E,00.0000000,W84*5F
$GPRMC,072942.00,A,4742.4465956,N,01617.9736785,E,0.0,,010125,5.1,E,D*1B
$GPGLL,4742.4465956,N,01617.9736785,E,072942.00,A,D*6A
$GPGGA,072942.00,4742.4465956,N,01617.9736785,E,2,20,0.9,624.9518,M,43.2110,M,3.3,0123*4C
$GNGNS,072942.00,4742.4465956,N,01617.9736785,E,DAAA,20,0.9,624.9518,43.2110,,*50
$GPGNS,072942.00,,,,,,04,,,,3.3,123*73
$GLGNS,072942.00,,,,,,06,,,,,*73
$GAGNS,072942.00,,,,,,05,,,,,*7D
$GBGNS,072942.00,,,,,,05,,,,,*7E
$GPLLQ,072942.00,010125,,M,,M,1,20,7.334,,M*1A
$GPVTG,,T,,M,0.01,N,0.02,K,D*25
$GPHDT,,T*1B
$GPTHS,,V*0E
$GPROT,,V*08
$PSSN,HRP,072942.00,010125,,,,,,,00,0,,*6B
$PTNL,AVR,072942.00,,Yaw,,Tilt,,,,0,,00*3D
$GPGSA,A,3,05,07,13,30,,,,,,,,,1.5,0.9,1.2*3F
$GPGSA,A,3,65,66,72,74,75,81,,,,,,,1.5,0.9,1.2*32
$GPGSA,A,3,03,05,13,24,25,,,,,,,,1.5,0.9,1.2*39
$GPGSA,A,3,21,22,36,42,45,,,,,,,,1.5,0.9,1.2*3D
$GPGST,072942.00,8.089,4.729,1.074,354.968,4.712,1.147,5.502*5A
$GPGBS,072942.00,13.950,3.637,17.677,81,0.0001,20.134,6.396*6C
$GPGRS,072942.00,1,-0.6,-1.8,0.8,-0.3,,,,,,,,*6D
$GPGRS,072942.00,1,-4.7,-3.6,17.3,6.1,-3.9,20.1,,,,,,*64
$GPGRS,072942.00,1,-0.6,0.5,-6.1,-2.0,-0.4,,,,,,,*68
$GPGRS,072942.00,1,-1.0,-2.9,1.4,0.1,0.4,,,,,,,*60
$GPGSV,4,1,16,30,74,059,48,15,14,299,30,22,29,172,,08,11,054,*7D
$GPGSV,4,2,16,14,47,155,34,07,36,063,41,20,44,215,38,13,48,296,38*7D
$GPGSV,4,3,16,05,55,270,52,09,05,113,,27,04,023,,18,09,325,35*73
$GPGSV,4,4,16,36,35,170,39,34,31,208,,49,34,195,,61,03,257,*7D
$GLGSV,3,1,10,75,65,192,46,72,57,122,38,73,10,036,29,65,58,324,44*62
$GLGSV,3,2,10,74,54,044,42,71,09,131,,66,09,315,41,76,07,208,*6A
$GLGSV,3,3,10,81,09,312,43,82,09,357,32*60
$GAGSV,3,1,11,03,77,316,45,15,14,250,23,02,10,188,,13,18,302,35*65
$GAGSV,3,2,11,08,25,293,28,24,43,066,44,25,48,146,47,05,46,103,45*6A
$GAGSV,3,3,11,16,54,105,,26,02,349,,31,04,031,*56
$GBGSV,4,1,16,45,71,186,51,10,22,089,29,42,20,311,37,26,18,220,31*62
$GBGSV,4,2,16,09,14,065,20,05,21,130,34,40,20,067,25,22,50,148,46*6E
$GBGSV,4,3,16,50,45,304,,36,49,060,48,21,70,290,42,02,05,108,*6D
$GBGSV,4,4,16,46,01,046,,19,01,138,,56,08,094,,60,07,112,*6B
$GPGGA,072942.00,,,,,0,00,,,M,,M,,*42
$PTNL,GGK,072942.00,010125,4742.4465956,N,01617.9736785,E,1,20,1.5,EHT668.1629,M*4E
$GPGGQ,072942.00,010125,4742.4465956,N,01617.9736785,E,1,20,7.334,624.9518,M*36
$GPGFA,072942.00,44.965,45.118,4.729,1.074,354.968,5.502,,VVV*07
$GPLLK,072942.00,010125,,M,,M,1,20,1.7,,M*05
$GNGMP,072942.00,,,,,DAAA,20,0.9,,,,*57
$GPGMP,072942.00,,,,,,04,,,,3.3,123*73
$GLGMP,072942.00,,,,,,06,,,,,*73
$GAGMP,072942.00,,,,,,05,,,,,*7D
$GBGMP,072942.00,,,,,,05,,,,,*7E
$PSSN,SNC,[0,286200000,2347]*4A
$GPZDA,072947.00,01,01,2025,,*6C
$GPDTM,W84,,00.0000000,N,00.0000000,E,00.0000000,W84*5F
$GPRMC,072947.00,A,4742.4465982,N,01617.9736803,E,0.0,,010125,5.1,E,D*16
$GPGLL,4742.4465982,N,01617.9736803,E,072947.00,A,D*67
$GPGGA,072947.00,4742.4465982,N,01617.9736803,E,2,21,0.8,624.9580,M,43.2110,M,3.4,0123*47
$GNGNS,072947.00,4742.4465982,N,01617.9736803,E,DAAA,21,0.8,624.9580,43.2110,,*5C
$GPGNS,072947.00,,,,,,05,,,,3.4,123*70
$GLGNS,072947.00,,,,,,06,,,,,*76
$GAGNS,072947.00,,,,,,05,,,,,*78
$GBGNS,072947.00,,,,,,05,,,,,*7B
$GPLLQ,072947.00,010125,,M,,M,1,21,5.036,,M*1D
$GPVTG,,T,,M,0.01,N,0.02,K,D*25
$GPHDT,,T*1B
$GPTHS,,V*0E
$GPROT,,V*08
$PSSN,HRP,072947.00,010125,,,,,,,00,0,,*6E
$PTNL,AVR,072947.00,,Yaw,,Tilt,,,,0,,00*38
$GPGSA,A,3,05,07,13,14,30,,,,,,,,1.4,0.8,1.1*39
$GPGSA,A,3,65,66,72,74,75,81,,,,,,,1.4,0.8,1.1*31
$GPGSA,A,3,03,05,13,24,25,,,,,,,,1.4,0.8,1.1*3A
$GPGSA,A,3,21,22,36,42,45,,,,,,,,1.4,0.8,1.1*3E
$GPGST,072947.00,9.918,1.708,1.150,13.598,1.682,1.188,4.596*6F
$GPGBS,072947.00,5.972,2.975,14.321,81,0.0001,24.431,6.397*56
$GPGRS,072947.00,1,0.0,-0.3,-1.0,0.2,0.2,,,,,,,*6D
$GPGRS,072947.00,1,-4.1,-3.7,21.5,6.1,-3.0,24.4,,,,,,*6D
$GPGRS,072947.00,1,-0.2,0.9,15.0,-1.7,-0.1,,,,,,,*7A
$GPGRS,072947.00,1,-0.5,-1.3,2.1,1.4,1.3,,,,,,,*6C
$GPGSV,4,1,16,30,73,059,47,15,14,299,31,22,29,172,,08,11,054,*74
$GPGSV,4,2,16,14,47,155,37,07,36,063,43,20,44,215,37,13,48,296,37*7C
$GPGSV,4,3,16,05,55,270,52,09,05,113,,27,04,023,,18,09,325,35*73
$GPGSV,4,4,16,36,35,170,39,34,31,208,,49,34,195,,61,03,257,*7D
$GLGSV,3,1,10,75,65,192,46,72,57,122,36,73,10,036,29,65,58,324,44*6C
$GLGSV,3,2,10,74,54,044,40,71,09,131,,66,09,315,42,76,07,209,*6A
$GLGSV,3,3,10,81,09,312,42,82,09,357,34*67
$GAGSV,3,1,11,03,77,316,46,15,14,250,21,02,10,188,,13,18,302,36*67
$GAGSV,3,2,11,08,25,293,32,24,43,066,44,25,48,146,47,05,46,103,44*60
$GAGSV,3,3,11,16,54,105,,26,02,349,,31,04,031,*56
$GBGSV,4,1,16,45,71,186,51,10,22,089,29,42,20,311,37,26,18,220,31*62
$GBGSV,4,2,16,09,14,065,19,05,21,130,34,40,20,067,25,22,50,148,46*64
$GBGSV,4,3,16,50,45,304,,36,49,060,49,21,70,290,43,02,05,108,*6D
$GBGSV,4,4,16,46,01,046,,19,01,138,,56,08,094,,60,07,112,*6B
$GPGGA,072947.00,,,,,0,00,,,M,,M,,*47
$PTNL,GGK,072947.00,010125,4742.4465982,N,01617.9736803,E,1,21,1.4,EHT668.1690,M*41
$GPGGQ,072947.00,010125,4742.4465982,N,01617.9736803,E,1,21,5.036,624.9580,M*38
$GPGFA,072947.00,16.241,37.684,1.708,1.150,13.598,4.596,,VVV*31
$GPLLK,072947.00,010125,,M,,M,1,21,1.7,,M*01
$GNGMP,072947.00,,,,,DAAA,21,0.8,,,,*52
$GPGMP,072947.00,,,,,,05,,,,3.4,123*70
$GLGMP,072947.00,,,,,,06,,,,,*76
$GAGMP,072947.00,,,,,,05,,,,,*78
$GBGMP,072947.00,,,,,,05,,,,,*7B
$PSSN,SNC,[0,286205000,2347]*4F
$GPZDA,072952.00,01,01,2025,,*68
$GPDTM,W84,,00.0000000,N,00.0000000,E,00.0000000,W84*5F
$GPRMC,072952.00,A,4742.4466048,N,01617.9736740,E,0.0,,010125,5.1,E,D*16
$GPGLL,4742.4466048,N,01617.9736740,E,072952.00,A,D*67
$GPGGA,072952.00,4742.4466048,N,01617.9736740,E,2,20,0.9,624.9787,M,43.2111,M,2.0,0123*46
$GNGNS,072952.00,4742.4466048,N,01617.9736740,E,DAAA,20,0.9,624.9787,43.2111,,*58
$GPGNS,072952.00,,,,,,04,,,,2.0,123*70
$GLGNS,072952.00,,,,,,06,,,,,*72
$GAGNS,072952.00,,,,,,05,,,,,*7C
$GBGNS,072952.00,,,,,,05,,,,,*7F
$GPLLQ,072952.00,010125,,M,,M,1,20,8.932,,M*18
$GPVTG,,T,,M,0.01,N,0.01,K,D*26
$GPHDT,,T*1B
$GPTHS,,V*0E
$GPROT,,V*08
$PSSN,HRP,072952.00,010125,,,,,,,00,0,,*6A
$PTNL,AVR,072952.00,,Yaw,,Tilt,,,,0,,00*3C
$GPGSA,A,3,05,07,18,30,,,,,,,,,1.5,0.9,1.1*37
$GPGSA,A,3,65,66,74,75,81,82,,,,,,,1.5,0.9,1.1*3E
$GPGSA,A,3,03,05,13,24,25,,,,,,,,1.5,0.9,1.1*3A
$GPGSA,A,3,21,22,36,42,45,,,,,,,,1.5,0.9,1.1*3E
$GPGST,072952.00,9.665,6.131,1.355,351.519,6.067,1.617,6.353*58
$GPGBS,072952.00,12.363,5.329,17.231,81,0.0001,22.281,6.399*6C
$GPGRS,072952.00,1,-0.8,-0.7,2.8,-0.5,,,,,,,,*68
$GPGRS,072952.00,1,-5.5,-4.1,2.5,-3.8,22.3,22.0,,,,,,*62
$GPGRS,072952.00,1,-0.8,0.1,11.8,-3.3,-1.1,,,,,,,*77
$GPGRS,072952.00,1,-1.2,-1.0,1.1,0.7,1.1,,,,,,,*6E
$GPGSV,4,1,16,30,73,059,47,15,14,299,31,22,29,172,,08,11,054,*74
$GPGSV,4,2,16,14,47,155,39,07,36,063,44,20,44,215,39,13,48,296,34*78
$GPGSV,4,3,16,05,55,270,52,09,05,113,,27,04,023,,18,09,325,36*70
$GPGSV,4,4,16,36,35,170,38,34,31,208,,49,34,195,,61,03,257,*7C
$GLGSV,3,1,10,75,65,192,47,72,57,122,32,73,10,036,27,65,58,324,44*67
$GLGSV,3,2,10,74,54,044,35,71,08,131,,66,09,315,43,76,07,209,*68
$GLGSV,3,3,10,81,09,312,39,82,09,357,37*68
$GAGSV,3,1,11,03,77,316,46,15,14,250,20,02,11,188,,13,18,302,37*66
$GAGSV,3,2,11,08,25,293,33,24,43,066,43,25,48,146,47,05,46,103,43*61
$GAGSV,3,3,11,16,54,105,,26,02,349,,31,04,031,*56
$GBGSV,4,1,16,45,71,186,52,10,22,089,29,42,20,311,36,26,18,220,32*63
$GBGSV,4,2,16,09,14,065,20,05,21,130,34,40,20,067,25,22,50,148,46*6E
$GBGSV,4,3,16,50,45,304,,36,49,060,50,21,70,290,44,02,05,108,*62
$GBGSV,4,4,16,46,01,046,,19,01,138,,56,08,094,,60,07,112,*6B
$GPGGA,072952.00,,,,,0,00,,,M,,M,,*43
$PTNL,GGK,072952.00,010125,4742.4466048,N,01617.9736740,E,1,20,1.5,EHT668.1898,M*47
$GPGGQ,072952.00,010125,4742.4466048,N,01617.9736740,E,1,20,8.932,624.9787,M*3C
$GPGFA,072952.00,58.289,52.094,6.131,1.355,351.519,6.353,,VVV*02
$GPLLK,072952.00,010125,,M,,M,1,20,1.7,,M*04
$GNGMP,072952.00,,,,,DAAA,20,0.9,,,,*56
$GPGMP,072952.00,,,,,,04,,,,2.0,123*70
$GLGMP,072952.00,,,,,,06,,,,,*72
$GAGMP,072952.00,,,,,,05,,,,,*7C
$GBGMP,072952.00,,,,,,05,,,,,*7F
$PSSN,SNC,[0,286210000,2347]*4B
$GPZDA,072957.00,01,01,2025,,*6D
$GPDTM,W84,,00.0000000,N,00.0000000,E,00.0000000,W84*5F
$GPRMC,072957.00,A,4742.4466033,N,01617.9736777,E,0.0,,010125,5.1,E,D*1B
$GPGLL,4742.4466033,N,01617.9736777,E,072957.00,A,D*6A
$GPGGA,072957.00,4742.4466033,N,01617.9736777,E,2,18,0.9,625.0036,M,43.2111,M,2.0,0123*45
$GNGNS,072957.00,4742.4466033,N,01617.9736777,E,DAAA,18,0.9,625.0036,43.2111,,*5B
$GPGNS,072957.00,,,,,,05,,,,2.0,123*74
$GLGNS,072957.00,,,,,,03,,,,,*72
$GAGNS,072957.00,,,,,,05,,,,,*79
$GBGNS,072957.00,,,,,,05,,,,,*7A
$GPLLQ,072957.00,010125,,M,,M,1,18,3.081,,M*1C
$GPVTG,,T,,M,0.00,N,0.01,K,D*27
$GPHDT,,T*1B
$GPTHS,,V*0E
$GPROT,,V*08
$PSSN,HRP,072957.00,010125,,,,,,,00,0,,*6F
$PTNL,AVR,072957.00,,Yaw,,Tilt,,,,0,,00*39
$GPGSA,A,3,05,07,14,18,30,,,,,,,,1.5,0.9,1.2*31
$GPGSA,A,3,65,66,75,,,,,,,,,,1.5,0.9,1.2*3D
$GPGSA,A,3,03,05,13,24,25,,,,,,,,1.5,0.9,1.2*39
$GPGSA,A,3,21,22,36,42,45,,,,,,,,1.5,0.9,1.2*3D
$GPGST,072957.00,3.209,1.249,0.905,33.004,1.157,1.019,2.668*66
$GPGBS,072957.00,5.878,4.069,8.690,14,0.0001,2.191,0.680*5E
$GPGRS,072957.00,1,-1.0,-0.7,2.2,0.9,-0.3,,,,,,,*4F
$GPGRS,072957.00,1,-4.5,-1.6,-2.6,,,,,,,,,*41
$GPGRS,072957.00,1,-0.7,0.6,7.7,-3.0,-1.2,,,,,,,*42
$GPGRS,072957.00,1,-1.0,-0.6,1.3,0.2,1.6,,,,,,,*6E
$GPGSV,4,1,16,30,73,059,46,15,14,299,33,22,29,172,,08,11,054,*77
$GPGSV,4,2,16,14,47,155,38,07,36,063,46,20,44,215,41,13,48,296,31*71
$GPGSV,4,3,16,05,55,270,51,09,05,113,,27,04,023,,18,09,325,36*73
$GPGSV,4,4,16,36,35,170,39,34,31,208,,49,34,195,,61,03,257,*7D
$GLGSV,3,1,10,75,65,192,47,72,57,122,34,73,10,036,26,65,58,324,43*67
$GLGSV,3,2,10,74,54,044,34,71,08,131,,66,09,315,43,76,07,209,*69
$GLGSV,3,3,10,81,09,312,27,82,09,357,35*65
$GAGSV,3,1,11,03,77,316,46,15,14,250,31,02,11,188,,13,18,302,36*67
$GAGSV,3,2,11,08,25,294,33,24,43,066,42,25,48,146,47,05,46,103,42*66
$GAGSV,3,3,11,16,54,105,,26,02,349,,31,04,031,*56
$GBGSV,4,1,16,45,71,186,52,10,22,089,30,42,20,311,35,26,18,220,32*68
$GBGSV,4,2,16,09,14,065,20,05,21,130,35,40,20,067,26,22,50,148,47*6D
$GBGSV,4,3,16,50,45,304,,36,49,060,50,21,70,290,44,02,05,108,*62
$GBGSV,4,4,16,46,01,046,,19,01,138,,56,08,094,,60,07,112,*6B
$GPGGA,072957.00,,,,,0,00,,,M,,M,,*46
$PTNL,GGK,072957.00,010125,4742.4466033,N,01617.9736777,E,1,18,1.5,EHT668.2146,M*48
$GPGGQ,072957.00,010125,4742.4466033,N,01617.9736777,E,1,18,3.081,625.0036,M*35
$GPGFA,072957.00,11.870,21.875,1.249,0.905,33.004,2.668,,VVV*37
$GPLLK,072957.00,010125,,M,,M,1,18,1.7,,M*0A
$GNGMP,072957.00,,,,,DAAA,18,0.9,,,,*58
$GPGMP,072957.00,,,,,,05,,,,2.0,123*74
$GLGMP,072957.00,,,,,,03,,,,,*72
$GAGMP,072957.00,,,,,,05,,,,,*79
$GBGMP,072957.00,,,,,,05,,,,,*7A
$PSSN,SNC,[0,286215000,2347]*4E
$GPZDA,073002.00,01,01,2025,,*65
$GPDTM,W84,,00.0000000,N,00.0000000,E,00.0000000,W84*5F
$GPRMC,073002.00,A,4742.4466034,N,01617.9736749,E,0.0,,010125,5.1,E,D*19
$GPGLL,4742.4466034,N,01617.9736749,E,073002.00,A,D*68
$GPGGA,073002.00,4742.4466034,N,01617.9736749,E,2,18,0.9,625.0128,M,43.2111,M,2.5,0123*4C
$GNGNS,073002.00,4742.4466034,N,01617.9736749,E,DAAA,18,0.9,625.0128,43.2111,,*57
$GPGNS,073002.00,,,,,,04,,,,2.5,123*78
$GLGNS,073002.00,,,,,,05,,,,,*7C
$GAGNS,073002.00,,,,,,05,,,,,*71
$GBGNS,073002.00,,,,,,04,,,,,*73
$GPLLQ,073002.00,010125,,M,,M,1,18,2.028,,M*16
$GPVTG,,T,,M,0.00,N,0.01,K,D*27
$GPHDT,,T*1B
$GPTHS,,V*0E
$GPROT,,V*08
$PSSN,HRP,073002.00,010125,,,,,,,00,0,,*67
$PTNL,AVR,073002.00,,Yaw,,Tilt,,,,0,,00*31
$GPGSA,A,3,05,07,14,30,,,,,,,,,1.5,0.9,1.2*38
$GPGSA,A,3,65,66,74,75,81,,,,,,,,1.5,0.9,1.2*37
$GPGSA,A,3,03,05,13,24,25,,,,,,,,1.5,0.9,1.2*39
$GPGSA,A,3,21,22,36,45,,,,,,,,,1.5,0.9,1.2*3B
$GPGST,073002.00,2.903,0.680,0.536,348.811,0.675,0.542,1.834*59
$GPGBS,073002.00,6.466,5.317,15.011,14,0.0001,-0.793,0.696*42
$GPGRS,073002.00,1,-0.3,-0.0,-0.8,0.4,,,,,,,,*6A
$GPGRS,073002.00,1,-4.6,3.4,1.2,-1.6,4.4,,,,,,,*67
$GPGRS,073002.00,1,-0.1,1.8,4.5,-1.5,-0.4,,,,,,,*42
$GPGRS,073002.00,1,-0.6,0.5,2.0,2.4,,,,,,,,*62
$GPGSV,4,1,16,30,73,059,45,15,14,299,34,22,29,172,,08,11,054,*73
$GPGSV,4,2,16,14,47,155,38,07,36,063,46,20,44,215,42,13,48,296,28*7A
$GPGSV,4,3,16,05,55,270,51,09,05,113,,27,04,023,,18,09,325,33*76
$GPGSV,4,4,16,36,35,170,39,34,31,208,,49,34,195,,61,03,257,*7D
$GLGSV,3,1,10,75,65,192,47,72,57,122,31,73,10,036,28,65,58,324,43*6C
$GLGSV,3,2,10,74,54,044,36,71,08,131,,66,09,315,43,76,07,209,*6B
$GLGSV,3,3,10,81,09,312,38,82,09,357,33*6D
$GAGSV,3,1,11,03,77,316,47,15,14,250,32,02,11,188,,13,18,302,36*65
$GAGSV,3,2,11,08,25,294,35,24,43,066,42,25,48,146,47,05,46,103,42*60
$GAGSV,3,3,11,16,54,105,,26,02,349,,31,04,031,*56
$GBGSV,4,1,16,45,71,186,52,10,22,089,30,42,20,311,32,26,18,220,32*6F
$GBGSV,4,2,16,09,14,065,22,05,21,130,34,40,20,067,26,22,50,148,48*61
$GBGSV,4,3,16,50,45,304,,36,49,060,50,21,70,289,43,02,05,108,*6D
$GBGSV,4,4,16,46,01,046,,19,01,138,,56,08,094,,60,07,112,*6B
$GPGGA,073002.00,,,,,0,00,,,M,,M,,*4E
$PTNL,GGK,073002.00,010125,4742.4466034,N,01617.9736749,E,1,18,1.5,EHT668.2238,M*40
$GPGGQ,073002.00,010125,4742.4466034,N,01617.9736749,E,1,18,2.028,625.0128,M*3B
$GPGFA,073002.00,6.463,15.041,0.680,0.536,348.811,1.834,,VVV*34
$GPLLK,073002.00,010125,,M,,M,1,18,1.7,,M*02
$GNGMP,073002.00,,,,,DAAA,18,0.9,,,,*50
$GPGMP,073002.00,,,,,,04,,,,2.5,123*78
$GLGMP,073002.00,,,,,,05,,,,,*7C
$GAGMP,073002.00,,,,,,05,,,,,*71
$GBGMP,073002.00,,,,,,04,,,,,*73
$PSSN,SNC,[0,286220000,2347]*48
$GPZDA,073007.00,01,01,2025,,*60
$GPDTM,W84,,00.0000000,N,00.0000000,E,00.0000000,W84*5F
$GPRMC,073007.00,A,4742.4465972,N,01617.9736721,E,0.0,,010125,5.1,E,D*1A
$GPGLL,4742.4465972,N,01617.9736721,E,073007.00,A,D*6B
$GPGGA,073007.00,4742.4465972,N,01617.9736721,E,2,19,0.9,625.0022,M,43.2111,M,3.5,0123*44
$GNGNS,073007.00,4742.4465972,N,01617.9736721,E,DAAA,19,0.9,625.0022,43.2111,,*5E
$GPGNS,073007.00,,,,,,04,,,,3.5,123*7C
$GLGNS,073007.00,,,,,,05,,,,,*79
$GAGNS,073007.00,,,,,,06,,,,,*77
$GBGNS,073007.00,,,,,,04,,,,,*76
$GPLLQ,073007.00,010125,,M,,M,1,19,2.620,,M*1C
$GPVTG,,T,,M,0.01,N,0.01,K,D*26
$GPHDT,,T*1B
$GPTHS,,V*0E
$GPROT,,V*08
$PSSN,HRP,073007.00,010125,,,,,,,00,0,,*62
$PTNL,AVR,073007.00,,Yaw,,Tilt,,,,0,,00*34
$GPGSA,A,3,05,07,14,30,,,,,,,,,1.4,0.9,1.2*39
$GPGSA,A,3,65,66,74,75,81,,,,,,,,1.4,0.9,1.2*36
$GPGSA,A,3,03,05,08,13,24,25,,,,,,,1.4,0.9,1.2*30
$GPGSA,A,3,21,22,36,45,,,,,,,,,1.4,0.9,1.2*3A
$GPGST,073007.00,3.932,0.893,0.704,349.743,0.887,0.711,2.361*56
$GPGBS,073007.00,6.555,5.292,14.861,74,0.0001,7.975,6.101*61
$GPGRS,073007.00,1,-0.5,-0.4,0.3,0.7,,,,,,,,*48
$GPGRS,073007.00,1,-4.9,5.4,8.0,-2.8,6.5,,,,,,,*6E
$GPGRS,073007.00,1,-0.6,1.7,2.1,0.7,-1.5,-0.5,,,,,,*65
$GPGRS,073007.00,1,-1.0,0.4,1.2,1.9,,,,,,,,*6E
$GPGSV,4,1,16,30,73,059,45,15,15,300,32,22,29,172,,08,11,054,*75
$GPGSV,4,2,16,14,47,155,39,07,36,063,47,20,44,215,42,13,48,297,25*76
$GPGSV,4,3,16,05,55,270,50,09,05,113,,27,04,023,,18,09,325,30*74
$GPGSV,4,4,16,36,35,170,39,34,31,208,,49,34,195,,61,03,257,*7D
$GLGSV,3,1,10,75,65,192,46,72,57,123,35,73,10,036,28,65,58,324,43*68
$GLGSV,3,2,10,74,54,044,36,71,08,131,,66,09,315,40,76,07,209,*68
$GLGSV,3,3,10,81,09,312,37,82,09,357,*62
$GAGSV,3,1,11,03,77,317,47,15,14,250,32,02,11,188,,13,18,302,36*64
$GAGSV,3,2,11,08,25,294,36,24,43,066,42,25,48,146,48,05,46,103,42*6C
$GAGSV,3,3,11,16,54,105,,26,02,349,,31,04,031,*56
$GBGSV,4,1,16,45,71,186,51,10,22,089,30,42,20,311,42,26,18,220,32*6B
$GBGSV,4,2,16,09,14,065,23,05,21,130,34,40,20,067,25,22,50,148,48*63
$GBGSV,4,3,16,50,45,304,,36,49,059,50,21,70,289,42,02,05,108,*66
$GBGSV,4,4,16,46,01,046,,19,01,138,,56,08,094,,60,07,112,*6B
$GPGGA,073007.00,,,,,0,00,,,M,,M,,*4B
$PTNL,GGK,073007.00,010125,4742.4465972,N,01617.9736721,E,1,19,1.4,EHT668.2132,M*4A
$GPGGQ,073007.00,010125,4742.4465972,N,01617.9736721,E,1,19,2.620,625.0022,M*3C
$GPGFA,073007.00,8.489,19.357,0.893,0.704,349.743,2.361,,VVV*3D
$GPLLK,073007.00,010125,,M,,M,1,19,1.7,,M*06
$GNGMP,073007.00,,,,,DAAA,19,0.9,,,,*54
$GPGMP,073007.00,,,,,,04,,,,3.5,123*7C
$GLGMP,073007.00,,,,,,05,,,,,*79
$GAGMP,073007.00,,,,,,06,,,,,*77
$GBGMP,073007.00,,,,,,04,,,,,*76
$PSSN,SNC,[0,286225000,2347]*4D
$GPZDA,073012.00,01,01,2025,,*64
$GPDTM,W84,,00.0000000,N,00.0000000,E,00.0000000,W84*5F
$GPRMC,073012.00,A,4742.4466053,N,01617.9736676,E,0.0,,010125,5.1,E,D*14
$GPGLL,4742.4466053,N,01617.9736676,E,073012.00,A,D*65
$GPGGA,073012.00,4742.4466053,N,01617.9736676,E,2,19,0.8,625.0075,M,43.2111,M,1.5,0123*4B
$GNGNS,073012.00,4742.4466053,N,01617.9736676,E,DAAA,19,0.8,625.0075,43.2111,,*53
$GPGNS,073012.00,,,,,,04,,,,1.5,123*7A
$GLGNS,073012.00,,,,,,05,,,,,*7D
$GAGNS,073012.00,,,,,,06,,,,,*73
$GBGNS,073012.00,,,,,,04,,,,,*72
$GPLLQ,073012.00,010125,,M,,M,1,19,4.375,,M*1B
$GPVTG,,T,,M,0.00,N,0.00,K,D*26
$GPHDT,,T*1B
$GPTHS,,V*0E
$GPROT,,V*08
$PSSN,HRP,073012.00,010125,,,,,,,00,0,,*66
$PTNL,AVR,073012.00,,Yaw,,Tilt,,,,0,,00*30
$GPGSA,A,3,05,07,14,30,,,,,,,,,1.5,0.8,1.2*39
$GPGSA,A,3,65,72,74,75,81,,,,,,,,1.5,0.8,1.2*33
$GPGSA,A,3,03,05,08,13,24,25,,,,,,,1.5,0.8,1.2*30
$GPGSA,A,3,21,22,36,45,,,,,,,,,1.5,0.8,1.2*3A
$GPGST,073012.00,5.891,1.456,1.134,350.268,1.447,1.145,3.967*52
$GPGBS,073012.00,6.362,5.039,15.966,14,0.0001,1.976,0.685*6D
$GPGRS,073012.00,1,-1.1,-1.1,2.0,-0.0,,,,,,,,*66
$GPGRS,073012.00,1,-5.7,7.3,8.6,-4.0,14.7,,,,,,,*59
$GPGRS,073012.00,1,-1.1,1.3,1.7,1.7,-2.2,-1.3,,,,,,*64
$GPGRS,073012.00,1,-1.3,-0.2,-0.5,1.0,,,,,,,,*60
$GPGSV,4,1,16,30,73,059,45,15,15,300,31,22,29,172,,08,11,054,*76
$GPGSV,4,2,16,14,47,155,40,07,36,063,47,20,44,215,40,13,48,297,*7D
$GPGSV,4,3,16,05,55,270,49,09,05,113,,27,04,023,,18,09,325,22*7F
$GPGSV,4,4,16,36,35,170,39,34,31,208,,49,34,195,,61,03,257,*7D
$GLGSV,3,1,10,75,65,192,45,72,57,123,38,73,10,036,28,65,58,324,44*61
$GLGSV,3,2,10,74,54,044,37,71,08,131,,66,09,315,30,76,07,209,*6E
$GLGSV,3,3,10,81,09,312,36,82,09,357,34*64
$GAGSV,3,1,11,03,77,317,46,15,14,250,33,02,11,188,,13,18,302,35*67
$GAGSV,3,2,11,08,25,294,38,24,43,066,42,25,48,146,47,05,46,103,42*6D
$GAGSV,3,3,11,16,54,105,,26,02,349,,31,04,031,*56
$GBGSV,4,1,16,45,71,186,50,10,22,089,31,42,20,311,22,26,18,220,33*6C
$GBGSV,4,2,16,09,14,065,23,05,21,130,34,40,20,067,25,22,50,148,49*62
$GBGSV,4,3,16,50,45,304,,36,49,059,49,21,70,289,42,02,05,108,*6E
$GBGSV,4,4,16,46,01,046,,19,01,138,,56,08,094,,60,07,112,*6B
$GPGGA,073012.00,,,,,0,00,,,M,,M,,*4F
$PTNL,GGK,073012.00,010125,4742.4466053,N,01617.9736676,E,1,19,1.5,EHT668.2185,M*49
$GPGGQ,073012.00,010125,4742.4466053,N,01617.9736676,E,1,19,4.375,625.0075,M*33
$GPGFA,073012.00,13.839,32.526,1.456,1.134,350.268,3.967,,VVV*04
$GPLLK,073012.00,010125,,M,,M,1,19,1.8,,M*0D
$GNGMP,073012.00,,,,,DAAA,19,0.8,,,,*51
$GPGMP,073012.00,,,,,,04,,,,1.5,123*7A
$GLGMP,073012.00,,,,,,05,,,,,*7D
$GAGMP,073012.00,,,,,,06,,,,,*73
$GBGMP,073012.00,,,,,,04,,,,,*72
$PSSN,SNC,[0,286230000,2347]*49
$GPZDA,073017.00,01,01,2025,,*61
$GPDTM,W84,,00.0000000,N,00.0000000,E,00.0000000,W84*5F
$GPRMC,073017.00,A,4742.4466189,N,01617.9736573,E,0.0,,010125,5.1,E,D*11
$GPGLL,4742.4466189,N,01617.9736573,E,073017.00,A,D*60
$GPGGA,073017.00,4742.4466189,N,01617.9736573,E,2,17,0.9,625.0116,M,43.2111,M,2.5,0123*46
$GNGNS,073017.00,4742.4466189,N,01617.9736573,E,DAAA,17,0.9,625.0116,43.2111,,*5D
$GPGNS,073017.00,,,,,,04,,,,2.5,123*7C
$GLGNS,073017.00,,,,,,04,,,,,*79
$GAGNS,073017.00,,,,,,05,,,,,*75
$GBGNS,073017.00,,,,,,04,,,,,*77
$GPLLQ,073017.00,010125,,M,,M,1,17,4.687,,M*18
$GPVTG,,T,,M,0.01,N,0.01,K,D*26
$GPHDT,,T*1B
$GPTHS,,V*0E
$GPROT,,V*08
$PSSN,HRP,073017.00,010125,,,,,,,00,0,,*63
$PTNL,AVR,073017.00,,Yaw,,Tilt,,,,0,,00*35
$GPGSA,A,3,05,07,14,30,,,,,,,,,2.0,0.9,1.8*34
$GPGSA,A,3,65,72,74,75,,,,,,,,,2.0,0.9,1.8*37
$GPGSA,A,3,03,05,08,24,25,,,,,,,,2.0,0.9,1.8*3F
$GPGSA,A,3,21,22,36,45,,,,,,,,,2.0,0.9,1.8*37
$GPGST,073017.00,4.948,1.446,1.137,345.944,1.429,1.157,4.312*54
$GPGBS,073017.00,6.561,5.469,18.943,14,0.0001,1.988,0.697*64
$GPGRS,073017.00,1,-1.1,-1.1,2.0,-0.1,,,,,,,,*62
$GPGRS,073017.00,1,-5.0,12.0,5.5,-4.2,,,,,,,,*7C
$GPGRS,073017.00,1,-0.9,1.7,3.0,-2.7,-1.1,,,,,,,*46
$GPGRS,073017.00,1,0.4,-0.3,-0.9,0.5,,,,,,,,*47
$GPGSV,4,1,16,30,73,059,46,15,15,300,31,22,30,172,,08,11,054,*7D
$GPGSV,4,2,16,14,47,155,41,07,36,063,47,20,44,215,38,13,48,297,*73
$GPGSV,4,3,16,05,55,270,49,09,05,113,,27,04,023,,18,09,325,*7F
$GPGSV,4,4,16,36,35,170,39,34,31,208,,49,34,195,,61,03,257,*7D
$GLGSV,3,1,10,75,65,192,47,72,57,123,40,73,10,036,,65,58,324,45*67
$GLGSV,3,2,10,74,54,044,38,71,08,131,,66,09,315,34,76,08,209,*6A
$GLGSV,3,3,10,81,09,312,30,82,09,357,35*63
$GAGSV,3,1,11,03,77,317,46,15,14,250,32,02,11,188,,13,18,302,34*67
$GAGSV,3,2,11,08,25,294,38,24,43,066,41,25,48,146,48,05,46,103,42*61
$GAGSV,3,3,11,16,54,105,,26,02,349,,31,04,031,*56
$GBGSV,4,1,16,45,71,186,49,10,22,089,31,42,20,311,27,26,18,220,33*61
$GBGSV,4,2,16,09,14,065,22,05,21,130,34,40,20,067,24,22,50,148,49*62
$GBGSV,4,3,16,50,45,304,,36,49,059,49,21,70,289,42,02,05,108,*6E
$GBGSV,4,4,16,46,01,046,,19,00,138,,56,08,094,,60,07,112,*6A
$GPGGA,073017.00,,,,,0,00,,,M,,M,,*4A
$PTNL,GGK,073017.00,010125,4742.4466189,N,01617.9736573,E,1,17,2.0,EHT668.2227,M*4F
$GPGGQ,073017.00,010125,4742.4466189,N,01617.9736573,E,1,17,4.687,625.0116,M*34
$GPGFA,073017.00,13.744,35.355,1.446,1.137,345.944,4.312,,VVV*0D
$GPLLK,073017.00,010125,,M,,M,1,17,2.5,,M*08
$GNGMP,073017.00,,,,,DAAA,17,0.9,,,,*5B
$GPGMP,073017.00,,,,,,04,,,,2.5,123*7C
$GLGMP,073017.00,,,,,,04,,,,,*79
$GAGMP,073017.00,,,,,,05,,,,,*75
$GBGMP,073017.00,,,,,,04,,,,,*77
$PSSN,SNC,[0,286235000,2347]*4C
$GPZDA,073022.00,01,01,2025,,*67
$GPDTM,W84,,00.0000000,N,00.0000000,E,00.0000000,W84*5F
$GPRMC,073022.00,A,4742.4466338,N,01617.9736500,E,0.0,,010125,5.1,E,D*1B
$GPGLL,4742.4466338,N,01617.9736500,E,073022.00,A,D*6A
$GPGGA,073022.00,4742.4466338,N,01617.9736500,E,2,17,0.9,625.0168,M,43.2111,M,2.5,0123*45
$GNGNS,073022.00,4742.4466338,N,01617.9736500,E,DAAA,17,0.9,625.0168,43.2111,,*5E
$GPGNS,073022.00,,,,,,04,,,,2.5,123*7A
$GLGNS,073022.00,,,,,,04,,,,,*7F
$GAGNS,073022.00,,,,,,05,,,,,*73
$GBGNS,073022.00,,,,,,04,,,,,*71
$GPLLQ,073022.00,010125,,M,,M,1,17,5.184,,M*1B
$GPVTG,,T,,M,0.01,N,0.01,K,D*26
$GPHDT,,T*1B
$GPTHS,,V*0E
$GPROT,,V*08
$PSSN,HRP,073022.00,010125,,,,,,,00,0,,*65
$PTNL,AVR,073022.00,,Yaw,,Tilt,,,,0,,00*33
$GPGSA,A,3,05,07,14,30,,,,,,,,,2.0,0.9,1.8*34
$GPGSA,A,3,65,72,74,75,,,,,,,,,2.0,0.9,1.8*37
$GPGSA,A,3,03,05,08,24,25,,,,,,,,2.0,0.9,1.8*3F
$GPGSA,A,3,21,22,36,45,,,,,,,,,2.0,0.9,1.8*37
$GPGST,073022.00,6.333,1.633,1.283,344.865,1.611,1.309,4.751*5A
$GPGBS,073022.00,6.678,5.628,17.845,72,0.0001,18.167,6.077*59
$GPGRS,073022.00,1,-1.1,-1.4,2.0,-0.3,,,,,,,,*63
$GPGRS,073022.00,1,-4.4,18.2,2.5,-3.5,,,,,,,,*70
$GPGRS,073022.00,1,-0.9,2.2,3.4,-2.5,-0.9,,,,,,,*49
$GPGRS,073022.00,1,0.9,-0.1,-1.3,0.1,,,,,,,,*41
$GPGSV,4,1,16,30,73,059,46,15,15,300,32,22,30,172,,08,11,054,*7E
$GPGSV,4,2,16,14,47,155,41,07,36,063,46,20,44,215,37,13,48,297,36*78
$GPGSV,4,3,16,05,55,269,49,09,05,114,,27,04,023,,18,09,325,31*72
$GPGSV,4,4,16,36,35,170,39,34,31,208,,49,34,195,,61,03,257,*7D
$GLGSV,3,1,10,75,65,192,48,72,57,123,42,73,10,036,21,65,58,324,45*69
$GLGSV,3,2,10,74,54,044,39,71,08,131,,66,09,315,35,76,08,209,*6A
$GLGSV,3,3,10,81,09,312,32,82,09,356,19*6E
$GAGSV,3,1,11,03,77,317,46,15,14,250,31,02,11,188,,13,18,302,35*65
$GAGSV,3,2,11,08,25,294,39,24,43,066,41,25,48,146,48,05,46,103,42*60
$GAGSV,3,3,11,16,54,105,,26,02,349,,31,04,031,*56
$GBGSV,4,1,16,45,71,186,49,10,22,089,31,42,20,311,32,26,18,220,33*65
$GBGSV,4,2,16,09,14,065,20,05,21,130,34,40,20,067,25,22,50,148,49*61
$GBGSV,4,3,16,50,45,304,,36,49,059,48,21,70,289,41,02,05,108,*6C
$GBGSV,4,4,16,46,01,046,,19,00,138,,56,08,094,,60,07,112,*6A
$GPGGA,073022.00,,,,,0,00,,,M,,M,,*4C
$PTNL,GGK,073022.00,010125,4742.4466338,N,01617.9736500,E,1,17,2.0,EHT668.2279,M*4E
$GPGGQ,073022.00,010125,4742.4466338,N,01617.9736500,E,1,17,5.184,625.0168,M*32
$GPGFA,073022.00,15.525,38.954,1.633,1.283,344.865,4.751,,VVV*02
$GPLLK,073022.00,010125,,M,,M,1,17,2.5,,M*0E
$GNGMP,073022.00,,,,,DAAA,17,0.9,,,,*5D
$GPGMP,073022.00,,,,,,04,,,,2.5,123*7A
$GLGMP,073022.00,,,,,,04,,,,,*7F
$GAGMP,073022.00,,,,,,05,,,,,*73
$GBGMP,073022.00,,,,,,04,,,,,*71
$PSSN,SNC,[0,286240000,2347]*4E
$GPZDA,073027.00,01,01,2025,,*62
$GPDTM,W84,,00.0000000,N,00.0000000,E,00.0000000,W84*5F
$GPRMC,073027.00,A,4742.4466487,N,01617.9736417,E,0.0,,010125,5.1,E,D*1A
$GPGLL,4742.4466487,N,01617.9736417,E,073027.00,A,D*6B
$GPGGA,073027.00,4742.4466487,N,01617.9736417,E,2,18,0.9,625.0233,M,43.2111,M,3.5,0123*47
$GNGNS,073027.00,4742.4466487,N,01617.9736417,E,DAAA,18,0.9,625.0233,43.2111,,*5D
$GPGNS,073027.00,,,,,,04,,,,3.5,123*7E
$GLGNS,073027.00,,,,,,05,,,,,*7B
$GAGNS,073027.00,,,,,,05,,,,,*76
$GBGNS,073027.00,,,,,,04,,,,,*74
$GPLLQ,073027.00,010125,,M,,M,1,18,4.795,,M*16
$GPVTG,,T,,M,0.01,N,0.01,K,D*26
$GPHDT,,T*1B
$GPTHS,,V*0E
$GPROT,,V*08
$PSSN,HRP,073027.00,010125,,,,,,,00,0,,*60
$PTNL,AVR,073027.00,,Yaw,,Tilt,,,,0,,00*36
$GPGSA,A,3,05,07,14,30,,,,,,,,,1.6,0.9,1.3*3A
$GPGSA,A,3,65,66,72,74,75,,,,,,,,1.6,0.9,1.3*39
$GPGSA,A,3,03,05,08,24,25,,,,,,,,1.6,0.9,1.3*31
$GPGSA,A,3,21,22,36,45,,,,,,,,,1.6,0.9,1.3*39
$GPGST,073027.00,6.171,1.603,1.252,347.097,1.587,1.272,4.342*55
$GPGBS,073027.00,6.739,5.522,16.346,72,0.0001,17.674,6.077*52
$GPGRS,073027.00,1,-1.1,-1.6,1.9,-0.1,,,,,,,,*6C
$GPGRS,073027.00,1,-4.8,-5.5,17.7,4.1,-2.1,,,,,,,*77
$GPGRS,073027.00,1,-0.5,2.3,2.8,-2.0,-0.6,,,,,,,*46
$GPGRS,073027.00,1,1.4,0.3,-1.9,0.6,,,,,,,,*6A
$GPGSV,4,1,16,30,73,059,46,15,15,300,34,22,30,172,,08,11,054,*78
$GPGSV,4,2,16,14,47,155,40,07,36,063,45,20,44,215,39,13,48,297,*71
$GPGSV,4,3,16,05,55,269,49,09,05,114,,27,04,023,,18,09,325,25*77
$GPGSV,4,4,16,36,35,170,39,34,31,208,,49,34,195,,61,03,257,*7D
$GLGSV,3,1,10,75,65,192,48,72,57,123,43,73,10,036,25,65,59,324,46*6E
$GLGSV,3,2,10,74,53,044,39,71,08,131,,66,09,315,39,76,08,209,*61
$GLGSV,3,3,10,81,09,312,22,82,09,356,34*60
$GAGSV,3,1,11,03,77,317,46,15,14,250,31,02,11,188,,13,18,302,34*64
$GAGSV,3,2,11,08,25,294,38,24,43,066,41,25,48,146,47,05,46,103,41*6D
$GAGSV,3,3,11,16,54,105,,26,02,349,,31,04,031,*56
$GBGSV,4,1,16,45,71,186,49,10,22,089,31,42,20,311,33,26,18,220,32*65
$GBGSV,4,2,16,09,14,065,,05,21,130,34,40,20,067,25,22,50,148,49*63
$GBGSV,4,3,16,50,45,304,,36,49,059,47,21,70,289,40,02,05,108,*62
$GBGSV,4,4,16,46,01,046,,19,00,138,,56,08,094,,60,07,112,*6A
$GPGGA,073027.00,,,,,0,00,,,M,,M,,*49
$PTNL,GGK,073027.00,010125,4742.4466487,N,01617.9736417,E,1,18,1.6,EHT668.2343,M*4D
$GPGGQ,073027.00,010125,4742.4466487,N,01617.9736417,E,1,18,4.795,625.0233,M*36
$GPGFA,073027.00,15.237,35.606,1.603,1.252,347.097,4.342,,VVV*09
$GPLLK,073027.00,010125,,M,,M,1,18,1.9,,M*0B
$GNGMP,073027.00,,,,,DAAA,18,0.9,,,,*57
$GPGMP,073027.00,,,,,,04,,,,3.5,123*7E
$GLGMP,073027.00,,,,,,05,,,,,*7B
$GAGMP,073027.00,,,,,,05,,,,,*76
$GBGMP,073027.00,,,,,,04,,,,,*74
$PSSN,SNC,[0,286245000,2347]*4B
$GPZDA,073032.00,01,01,2025,,*66
$GPDTM,W84,,00.0000000,N,00.0000000,E,00.0000000,W84*5F
$GPRMC,073032.00,A,4742.4466600,N,01617.9736438,E,0.0,,010125,5.1,E,D*1E
$GPGLL,4742.4466600,N,01617.9736438,E,073032.00,A,D*6F
$GPGGA,073032.00,4742.4466600,N,01617.9736438,E,2,19,0.8,625.0387,M,43.2110,M,2.0,0123*48
$GNGNS,073032.00,4742.4466600,N,01617.9736438,E,DAAA,19,0.8,625.0387,43.2110,,*56
$GPGNS,073032.00,,,,,,05,,,,2.0,123*7F
$GLGNS,073032.00,,,,,,05,,,,,*7F
$GAGNS,073032.00,,,,,,05,,,,,*72
$GBGNS,073032.00,,,,,,04,,,,,*70
$GPLLQ,073032.00,010125,,M,,M,1,19,3.367,,M*1D
$GPVTG,,T,,M,0.00,N,0.00,K,D*26
$GPHDT,,T*1B
$GPTHS,,V*0E
$GPROT,,V*08
$PSSN,HRP,073032.00,010125,,,,,,,00,0,,*64
$PTNL,AVR,073032.00,,Yaw,,Tilt,,,,0,,00*32
$GPGSA,A,3,05,07,14,15,30,,,,,,,,1.5,0.8,1.2*3D
$GPGSA,A,3,65,66,72,74,75,,,,,,,,1.5,0.8,1.2*3A
$GPGSA,A,3,03,05,08,24,25,,,,,,,,1.5,0.8,1.2*32
$GPGSA,A,3,21,22,36,45,,,,,,,,,1.5,0.8,1.2*3A
$GPGST,073032.00,4.802,1.532,1.064,7.471,1.526,1.074,2.803*54
$GPGBS,073032.00,6.217,3.480,8.373,15,0.0001,2.853,1.085*5D
$GPGRS,073032.00,1,-1.2,-1.7,1.7,2.9,-0.2,,,,,,,*42
$GPGRS,073032.00,1,-5.8,-5.2,12.3,3.5,-3.8,,,,,,,*7F
$GPGRS,073032.00,1,-0.4,2.2,1.6,-1.6,-0.6,,,,,,,*4A
$GPGRS,073032.00,1,1.5,0.2,-2.9,0.4,,,,,,,,*6F
$GPGSV,4,1,16,30,73,059,45,15,15,300,36,22,30,172,,08,11,054,*79
$GPGSV,4,2,16,14,47,155,38,07,36,063,44,20,44,215,39,13,48,297,38*74
$GPGSV,4,3,16,05,55,269,49,09,05,114,,27,04,023,,18,09,325,24*76
$GPGSV,4,4,16,36,35,170,39,34,31,208,,49,34,195,,61,03,257,*7D
$GLGSV,3,1,10,75,65,192,46,72,57,123,42,73,10,036,26,65,59,324,45*61
$GLGSV,3,2,10,74,53,044,39,71,08,131,,66,09,316,41,76,08,209,*6D
$GLGSV,3,3,10,81,09,312,27,82,09,356,31*60
$GAGSV,3,1,11,03,77,317,46,15,14,250,30,02,11,188,,13,18,302,35*64
$GAGSV,3,2,11,08,25,294,36,24,43,066,41,25,48,146,47,05,46,103,41*63
$GAGSV,3,3,11,16,54,104,,26,02,349,,31,04,031,*57
$GBGSV,4,1,16,45,71,186,48,10,22,089,32,42,20,311,35,26,18,220,32*61
$GBGSV,4,2,16,09,14,065,,05,21,130,34,40,20,067,25,22,50,148,49*63
$GBGSV,4,3,16,50,45,304,,36,49,059,46,21,70,289,39,02,05,108,*6D
$GBGSV,4,4,16,46,01,046,,19,00,138,,56,08,094,,60,07,112,*6A
$GPGGA,073032.00,,,,,0,00,,,M,,M,,*4D
$PTNL,GGK,073032.00,010125,4742.4466600,N,01617.9736438,E,1,19,1.5,EHT668.2497,M*45
$GPGGQ,073032.00,010125,4742.4466600,N,01617.9736438,E,1,19,3.367,625.0387,M*33
$GPGFA,073032.00,14.568,22.986,1.532,1.064,7.471,2.803,,VVV*05
$GPLLK,073032.00,010125,,M,,M,1,19,1.8,,M*0F
$GNGMP,073032.00,,,,,DAAA,19,0.8,,,,*53
$GPGMP,073032.00,,,,,,05,,,,2.0,123*7F
$GLGMP,073032.00,,,,,,05,,,,,*7F
$GAGMP,073032.00,,,,,,05,,,,,*72
$GBGMP,073032.00,,,,,,04,,,,,*70
$PSSN,SNC,[0,286250000,2347]*4F
$GPZDA,073037.00,01,01,2025,,*63
$GPDTM,W84,,00.0000000,N,00.0000000,E,00.0000000,W84*5F
$GPRMC,073037.00,A,4742.4466690,N,01617.9736484,E,0.0,,010125,5.1,E,D*15
$GPGLL,4742.4466690,N,01617.9736484,E,073037.00,A,D*64
$GPGGA,073037.00,4742.4466690,N,01617.9736484,E,2,20,0.8,625.0655,M,43.2111,M,2.2,0123*40
$GNGNS,073037.00,4742.4466690,N,01617.9736484,E,DAAA,20,0.8,625.0655,43.2111,,*5C
$GPGNS,073037.00,,,,,,05,,,,2.2,123*78
$GLGNS,073037.00,,,,,,05,,,,,*7A
$GAGNS,073037.00,,,,,,05,,,,,*77
$GBGNS,073037.00,,,,,,05,,,,,*74
$GPLLQ,073037.00,010125,,M,,M,1,20,3.284,,M*1E
$GPVTG,,T,,M,0.01,N,0.01,K,D*26
$GPHDT,,T*1B
$GPTHS,,V*0E
$GPROT,,V*08
$PSSN,HRP,073037.00,010125,,,,,,,00,0,,*61
$PTNL,AVR,073037.00,,Yaw,,Tilt,,,,0,,00*37
$GPGSA,A,3,05,07,14,15,30,,,,,,,,1.5,0.8,1.2*3D
$GPGSA,A,3,65,66,72,74,75,,,,,,,,1.5,0.8,1.2*3A
$GPGSA,A,3,03,05,13,24,25,,,,,,,,1.5,0.8,1.2*38
$GPGSA,A,3,21,22,36,42,45,,,,,,,,1.5,0.8,1.2*3C
$GPGST,073037.00,4.252,1.485,1.027,7.689,1.478,1.037,2.743*57
$GPGBS,073037.00,6.315,3.572,8.343,15,0.0001,2.758,1.055*5D
$GPGRS,073037.00,1,-1.4,-1.6,1.7,2.8,-0.3,,,,,,,*40
$GPGRS,073037.00,1,-6.1,-5.5,7.5,3.7,-4.5,,,,,,,*4D
$GPGRS,073037.00,1,-0.3,2.3,4.1,-1.8,-0.4,,,,,,,*47
$GPGRS,073037.00,1,0.8,0.2,-3.4,-4.9,0.1,,,,,,,*61
$GPGSV,4,1,16,30,73,059,46,15,15,300,37,22,30,172,,08,11,054,*7B
$GPGSV,4,2,16,14,47,155,37,07,36,063,42,20,44,215,38,13,48,297,37*73
$GPGSV,4,3,16,05,55,269,49,09,05,114,,27,04,023,,18,09,325,23*71
$GPGSV,4,4,16,36,35,170,39,34,31,208,,49,34,195,,61,03,257,*7D
$GLGSV,3,1,10,75,65,192,46,72,57,123,42,74,53,044,41,65,59,324,45*65
$GLGSV,3,2,10,73,10,036,27,71,08,131,,66,09,316,41,76,08,209,*67
$GLGSV,3,3,10,81,08,312,32,82,09,356,32*66
$GAGSV,3,1,11,03,77,317,46,15,14,250,28,02,11,188,,13,18,302,35*6D
$GAGSV,3,2,11,08,25,294,35,24,43,065,41,25,48,146,47,05,46,103,41*63
$GAGSV,3,3,11,16,54,104,,26,02,349,,31,04,031,*57
$GBGSV,4,1,16,45,71,186,49,10,22,089,32,42,20,311,37,26,18,220,32*62
$GBGSV,4,2,16,09,14,065,21,05,21,130,34,40,20,067,26,22,50,148,49*63
$GBGSV,4,3,16,50,45,304,,36,49,059,45,21,70,289,40,02,05,108,*60
$GBGSV,4,4,16,46,01,046,,19,00,138,,56,08,094,,60,07,112,*6A
$GPGGA,073037.00,,,,,0,00,,,M,,M,,*48
$PTNL,GGK,073037.00,010125,4742.4466690,N,01617.9736484,E,1,20,1.5,EHT668.2766,M*49
$GPGGQ,073037.00,010125,4742.4466690,N,01617.9736484,E,1,20,3.284,625.0655,M*34
$GPGFA,073037.00,14.115,22.496,1.485,1.027,7.689,2.743,,VVV*06
$GPLLK,073037.00,010125,,M,,M,1,20,1.7,,M*0F
$GNGMP,073037.00,,,,,DAAA,20,0.8,,,,*5C
$GPGMP,073037.00,,,,,,05,,,,2.2,123*78
$GLGMP,073037.00,,,,,,05,,,,,*7A
$GAGMP,073037.00,,,,,,05,,,,,*77
$GBGMP,073037.00,,,,,,05,,,,,*74
$PSSN,SNC,[0,286255000,2347]*4A
$GPZDA,073042.00,01,01,2025,,*61
$GPDTM,W84,,00.0000000,N,00.0000000,E,00.0000000,W84*5F
$GPRMC,073042.00,A,4742.4466807,N,01617.9736438,E,0.0,,010125,5.1,E,D*10
$GPGLL,4742.4466807,N,01617.9736438,E,073042.00,A,D*61
$GPGGA,073042.00,4742.4466807,N,01617.9736438,E,2,21,0.8,625.0774,M,43.2111,M,2.5,0123*41
$GNGNS,073042.00,4742.4466807,N,01617.9736438,E,DAAA,21,0.8,625.0774,43.2111,,*5A
$GPGNS,073042.00,,,,,,06,,,,2.5,123*7E
$GLGNS,073042.00,,,,,,05,,,,,*78
$GAGNS,073042.00,,,,,,05,,,,,*75
$GBGNS,073042.00,,,,,,05,,,,,*76
$GPLLQ,073042.00,010125,,M,,M,1,21,2.875,,M*18
$GPVTG,,T,,M,0.01,N,0.01,K,D*26
$GPHDT,,T*1B
$GPTHS,,V*0E
$GPROT,,V*08
$PSSN,HRP,073042.00,010125,,,,,,,00,0,,*63
$PTNL,AVR,073042.00,,Yaw,,Tilt,,,,0,,00*35
$GPGSA,A,3,05,07,13,14,15,30,,,,,,,1.4,0.8,1.2*3E
$GPGSA,A,3,65,66,72,74,75,,,,,,,,1.4,0.8,1.2*3B
$GPGSA,A,3,03,05,13,24,25,,,,,,,,1.4,0.8,1.2*39
$GPGSA,A,3,21,22,36,42,45,,,,,,,,1.4,0.8,1.2*3D
$GPGST,073042.00,3.733,1.329,0.825,14.217,1.304,0.863,2.413*69
$GPGBS,073042.00,6.067,3.491,8.530,05,0.0001,-1.650,0.677*76
$GPGRS,073042.00,1,-1.7,-1.5,1.7,1.5,0.0,0.2,,,,,,*4E
$GPGRS,073042.00,1,-5.4,-6.7,6.1,5.0,-3.7,,,,,,,*49
$GPGRS,073042.00,1,-0.2,2.1,2.7,-2.4,-0.4,,,,,,,*49
$GPGRS,073042.00,1,0.4,0.1,-2.6,-3.5,-0.1,,,,,,,*49
$GPGSV,4,1,16,30,73,059,48,15,15,300,36,22,30,172,,08,11,054,*74
$GPGSV,4,2,16,14,47,155,35,07,36,063,41,20,44,215,38,13,48,297,37*72
$GPGSV,4,3,16,05,55,269,48,09,05,114,,27,04,023,,18,09,325,32*70
$GPGSV,4,4,16,36,35,170,39,34,31,208,,49,34,195,,61,03,257,*7D
$GLGSV,3,1,10,75,65,192,47,72,57,123,41,74,53,044,42,65,59,324,45*64
$GLGSV,3,2,10,73,10,036,27,71,08,131,,66,09,316,41,76,08,209,*67
$GLGSV,3,3,10,81,08,312,32,82,09,356,33*67
$GAGSV,3,1,11,03,77,317,46,15,14,250,28,02,11,188,,13,18,302,36*6E
$GAGSV,3,2,11,08,25,294,33,24,43,065,40,25,48,146,47,05,46,103,40*65
$GAGSV,3,3,11,16,54,104,,26,02,349,,31,04,031,*57
$GBGSV,4,1,16,45,71,186,50,10,22,089,32,42,20,311,38,26,18,220,32*65
$GBGSV,4,2,16,09,14,065,,05,21,130,34,40,20,067,25,22,50,148,50*6B
$GBGSV,4,3,16,50,45,304,,36,49,059,44,21,70,289,41,02,05,108,*60
$GBGSV,4,4,16,46,01,046,,19,00,138,,56,09,094,,60,07,112,*6B
$GPGGA,073042.00,,,,,0,00,,,M,,M,,*4A
$PTNL,GGK,073042.00,010125,4742.4466807,N,01617.9736438,E,1,21,1.4,EHT668.2885,M*4E
$GPGGQ,073042.00,010125,4742.4466807,N,01617.9736438,E,1,21,2.875,625.0774,M*37
$GPGFA,073042.00,12.637,19.785,1.329,0.825,14.217,2.413,,VVV*31
$GPLLK,073042.00,010125,,M,,M,1,21,1.7,,M*0C
$GNGMP,073042.00,,,,,DAAA,21,0.8,,,,*5F
$GPGMP,073042.00,,,,,,06,,,,2.5,123*7E
$GLGMP,073042.00,,,,,,05,,,,,*78
$GAGMP,073042.00,,,,,,05,,,,,*75
$GBGMP,073042.00,,,,,,05,,,,,*76
$PSSN,SNC,[0,286260000,2347]*4C
$GPZDA,073047.00,01,01,2025,,*64
$GPDTM,W84,,00.0000000,N,00.0000000,E,00.0000000,W84*5F
$GPRMC,073047.00,A,4742.4466857,N,01617.9736376,E,0.0,,010125,5.1,E,D*1D
$GPGLL,4742.4466857,N,01617.9736376,E,073047.00,A,D*6C
$GPGGA,073047.00,4742.4466857,N,01617.9736376,E,2,19,0.9,625.0715,M,43.2111,M,3.5,0123*40
$GNGNS,073047.00,4742.4466857,N,01617.9736376,E,DAAA,19,0.9,625.0715,43.2111,,*5A
$GPGNS,073047.00,,,,,,04,,,,3.5,123*78
$GLGNS,073047.00,,,,,,05,,,,,*7D
$GAGNS,073047.00,,,,,,05,,,,,*70
$GBGNS,073047.00,,,,,,05,,,,,*73
$GPLLQ,073047.00,010125,,M,,M,1,19,2.930,,M*16
$GPVTG,,T,,M,0.00,N,0.01,K,D*27
$GPHDT,,T*1B
$GPTHS,,V*0E
$GPROT,,V*08
$PSSN,HRP,073047.00,010125,,,,,,,00,0,,*66
$PTNL,AVR,073047.00,,Yaw,,Tilt,,,,0,,00*30
$GPGSA,A,3,05,07,14,30,,,,,,,,,1.5,0.9,1.3*39
$GPGSA,A,3,65,66,72,74,75,,,,,,,,1.5,0.9,1.3*3A
$GPGSA,A,3,03,05,13,24,25,,,,,,,,1.5,0.9,1.3*38
$GPGSA,A,3,21,22,36,42,45,,,,,,,,1.5,0.9,1.3*3C
$GPGST,073047.00,3.833,1.191,0.911,5.910,1.188,0.915,2.518*54
$GPGBS,073047.00,6.792,5.407,15.570,05,0.0001,-1.606,0.690*45
$GPGRS,073047.00,1,-1.6,-0.6,0.9,0.7,,,,,,,,*46
$GPGRS,073047.00,1,-4.6,-5.5,8.0,4.6,-2.7,,,,,,,*47
$GPGRS,073047.00,1,-0.2,1.9,3.8,-2.5,-0.3,,,,,,,*4F
$GPGRS,073047.00,1,0.6,0.3,-0.6,-1.7,0.4,,,,,,,*66
$GPGSV,4,1,16,30,73,059,48,15,15,300,35,22,30,172,,08,11,054,*77
$GPGSV,4,2,16,14,47,155,36,07,36,063,41,20,43,215,39,13,48,297,37*77
$GPGSV,4,3,16,05,55,269,49,09,04,114,,27,04,023,,18,09,325,32*70
$GPGSV,4,4,16,36,35,170,39,34,31,208,,49,34,195,,61,03,257,*7D
$GLGSV,3,1,10,75,65,192,47,72,57,123,41,74,53,044,42,65,59,324,45*64
$GLGSV,3,2,10,73,10,036,27,71,08,131,,66,09,316,42,76,08,209,*64
$GLGSV,3,3,10,81,08,312,29,82,09,356,28*67
$GAGSV,3,1,11,03,77,317,46,15,14,250,28,02,11,188,,13,18,302,36*6E
$GAGSV,3,2,11,08,25,294,32,24,43,065,39,25,48,146,48,05,46,103,40*65
$GAGSV,3,3,11,16,54,104,,26,02,349,,31,04,031,*57
$GBGSV,4,1,16,45,71,186,51,10,22,088,32,42,20,311,39,26,18,220,33*65
$GBGSV,4,2,16,09,14,065,,05,21,130,34,40,20,067,25,22,50,148,50*6B
$GBGSV,4,3,16,50,45,304,,36,49,059,45,21,70,289,43,02,05,108,*63
$GBGSV,4,4,16,46,01,046,,19,00,138,,56,09,094,,60,07,112,*6B
$GPGGA,073047.00,,,,,0,00,,,M,,M,,*4F
$PTNL,GGK,073047.00,010125,4742.4466857,N,01617.9736376,E,1,19,1.5,EHT668.2825,M*43
$GPGGQ,073047.00,010125,4742.4466857,N,01617.9736376,E,1,19,2.930,625.0715,M*36
$GPGFA,073047.00,11.322,20.644,1.191,0.911,5.910,2.518,,VVV*01
$GPLLK,073047.00,010125,,M,,M,1,19,1.8,,M*0D
$GNGMP,073047.00,,,,,DAAA,19,0.9,,,,*50
$GPGMP,073047.00,,,,,,04,,,,3.5,123*78
$GLGMP,073047.00,,,,,,05,,,,,*7D
$GAGMP,073047.00,,,,,,05,,,,,*70
$GBGMP,073047.00,,,,,,05,,,,,*73
$PSSN,SNC,[0,286265000,2347]*49
$GPZDA,073052.00,01,01,2025,,*60
$GPDTM,W84,,00.0000000,N,00.0000000,E,00.0000000,W84*5F
$GPRMC,073052.00,A,4742.4466927,N,01617.9736271,E,0.0,,010125,5.1,E,D*19
$GPGLL,4742.4466927,N,01617.9736271,E,073052.00,A,D*68
$GPGGA,073052.00,4742.4466927,N,01617.9736271,E,2,20,0.8,625.0737,M,43.2111,M,1.4,0123*4C
$GNGNS,073052.00,4742.4466927,N,01617.9736271,E,DAAA,20,0.8,625.0737,43.2111,,*55
$GPGNS,073052.00,,,,,,05,,,,1.4,123*7E
$GLGNS,073052.00,,,,,,05,,,,,*79
$GAGNS,073052.00,,,,,,05,,,,,*74
$GBGNS,073052.00,,,,,,05,,,,,*77
$GPLLQ,073052.00,010125,,M,,M,1,20,5.010,,M*14
$GPVTG,,T,,M,0.00,N,0.00,K,D*26
$GPHDT,,T*1B
$GPTHS,,V*0E
$GPROT,,V*08
$PSSN,HRP,073052.00,010125,,,,,,,00,0,,*62
$PTNL,AVR,073052.00,,Yaw,,Tilt,,,,0,,00*34
$GPGSA,A,3,05,07,13,14,30,,,,,,,,1.5,0.8,1.2*3B
$GPGSA,A,3,65,66,72,74,75,,,,,,,,1.5,0.8,1.2*3A
$GPGSA,A,3,03,05,13,24,25,,,,,,,,1.5,0.8,1.2*38
$GPGSA,A,3,21,22,36,42,45,,,,,,,,1.5,0.8,1.2*3C
$GPGST,073052.00,3.955,1.666,1.105,12.292,1.645,1.137,4.593*6F
$GPGBS,073052.00,5.866,2.773,15.786,13,0.0001,2.537,0.693*61
$GPGRS,073052.00,1,-2.2,-0.3,2.5,1.6,-0.4,,,,,,,*49
$GPGRS,073052.00,1,-5.5,-5.2,8.9,3.0,-3.7,,,,,,,*4F
$GPGRS,073052.00,1,-0.9,1.2,3.8,-2.0,-1.2,,,,,,,*4E
$GPGRS,073052.00,1,2.1,-0.6,0.4,-1.0,0.0,,,,,,,*63
$GPGSV,4,1,16,30,73,059,47,15,15,300,35,22,30,172,,08,11,054,*78
$GPGSV,4,2,16,14,47,155,36,07,36,063,42,20,43,215,37,13,48,297,37*7A
$GPGSV,4,3,16,05,55,269,49,09,04,114,,27,04,023,,18,09,325,26*75
$GPGSV,4,4,16,36,35,170,39,34,31,208,,49,34,195,,61,03,257,*7D
$GLGSV,3,1,10,75,65,192,46,72,57,123,41,74,53,044,43,65,59,324,45*64
$GLGSV,3,2,10,73,10,036,28,71,08,132,,66,09,316,43,76,08,209,*69
$GLGSV,3,3,10,81,08,312,33,82,09,356,35*60
$GAGSV,3,1,11,03,77,317,46,15,14,250,27,02,11,188,,13,18,302,37*60
$GAGSV,3,2,11,08,25,294,32,24,43,065,38,25,48,146,49,05,45,103,41*67
$GAGSV,3,3,11,16,54,104,,26,02,349,,31,04,031,*57
$GBGSV,4,1,16,45,71,186,51,10,22,088,32,42,20,311,41,26,18,220,33*6A
$GBGSV,4,2,16,09,14,065,,05,21,130,34,40,20,067,24,22,50,148,50*6A
$GBGSV,4,3,16,50,46,304,,36,49,059,45,21,70,289,44,02,05,108,*67
$GBGSV,4,4,16,46,01,046,,19,00,138,,56,09,094,,60,07,112,*6B
$GPGGA,073052.00,,,,,0,00,,,M,,M,,*4B
$PTNL,GGK,073052.00,010125,4742.4466927,N,01617.9736271,E,1,20,1.5,EHT668.2847,M*49
$GPGGQ,073052.00,010125,4742.4466927,N,01617.9736271,E,1,20,5.010,625.0737,M*34
$GPGFA,073052.00,15.843,37.667,1.666,1.105,12.292,4.593,,VVV*3B
$GPLLK,073052.00,010125,,M,,M,1,20,1.8,,M*03
$GNGMP,073052.00,,,,,DAAA,20,0.8,,,,*5F
$GPGMP,073052.00,,,,,,05,,,,1.4,123*7E
$GLGMP,073052.00,,,,,,05,,,,,*79
$GAGMP,073052.00,,,,,,05,,,,,*74
$GBGMP,073052.00,,,,,,05,,,,,*77
$PSSN,SNC,[0,286270000,2347]*4D
$GPZDA,073057.00,01,01,2025,,*65
$GPDTM,W84,,00.0000000,N,00.0000000,E,00.0000000,W84*5F
$GPRMC,073057.00,A,4742.4467002,N,01617.9736179,E,0.0,,010125,5.1,E,D*18
$GPGLL,4742.4467002,N,01617.9736179,E,073057.00,A,D*69
$GPGGA,073057.00,4742.4467002,N,01617.9736179,E,2,21,0.8,625.0822,M,43.2110,M,2.2,0123*43
$GNGNS,073057.00,4742.4467002,N,01617.9736179,E,DAAA,21,0.8,625.0822,43.2110,,*5F
$GPGNS,073057.00,,,,,,06,,,,2.2,123*7D
$GLGNS,073057.00,,,,,,05,,,,,*7C
$GAGNS,073057.00,,,,,,05,,,,,*71
$GBGNS,073057.00,,,,,,05,,,,,*72
$GPLLQ,073057.00,010125,,M,,M,1,21,2.619,,M*18
$GPVTG,,T,,M,0.00,N,0.00,K,D*26
$GPHDT,,T*1B
$GPTHS,,V*0E
$GPROT,,V*08
$PSSN,HRP,073057.00,010125,,,,,,,00,0,,*67
$PTNL,AVR,073057.00,,Yaw,,Tilt,,,,0,,00*31
$GPGSA,A,3,05,07,13,14,15,30,,,,,,,1.4,0.8,1.2*3E
$GPGSA,A,3,65,66,72,74,75,,,,,,,,1.4,0.8,1.2*3B
$GPGSA,A,3,03,05,13,24,25,,,,,,,,1.4,0.8,1.2*39
$GPGSA,A,3,21,22,36,42,45,,,,,,,,1.4,0.8,1.2*3D
$GPGST,073057.00,3.615,1.193,0.738,14.802,1.168,0.776,2.212*62
$GPGBS,073057.00,5.947,3.480,8.802,14,0.0001,1.887,0.710*5F
$GPGRS,073057.00,1,-1.3,0.1,0.4,1.9,-0.4,-1.0,,,,,,*6F
$GPGRS,073057.00,1,-4.3,-3.8,7.7,3.6,-4.2,,,,,,,*44
$GPGRS,073057.00,1,-0.6,1.7,4.6,-1.7,-1.1,,,,,,,*4F
$GPGRS,073057.00,1,4.9,-0.5,0.9,0.6,0.0,,,,,,,*4C
$GPGSV,4,1,16,30,73,059,47,15,15,300,36,22,30,172,,08,11,054,*7B
$GPGSV,4,2,16,14,47,155,38,07,36,063,43,20,43,215,36,13,48,297,37*74
$GPGSV,4,3,16,05,55,269,50,09,04,114,,27,04,023,,18,09,325,22*79
$GPGSV,4,4,16,36,35,170,39,34,31,208,,49,34,195,,61,03,257,*7D
$GLGSV,3,1,10,75,65,192,45,72,57,123,42,74,53,044,43,65,59,324,46*67
$GLGSV,3,2,10,73,10,036,26,71,08,132,,66,09,316,44,76,08,209,*60
$GLGSV,3,3,10,81,08,312,33,82,09,356,35*60
$GAGSV,3,1,11,03,77,317,47,15,14,250,27,02,11,188,,13,18,302,37*61
$GAGSV,3,2,11,08,25,294,31,24,43,065,38,25,48,146,49,05,45,103,41*64
$GAGSV,3,3,11,16,54,104,,26,02,349,,31,04,031,*57
$GBGSV,4,1,16,45,71,186,51,10,22,088,32,42,20,311,41,26,18,220,34*6D
$GBGSV,4,2,16,09,14,065,,05,21,130,34,40,20,067,24,22,50,148,50*6A
$GBGSV,4,3,16,50,46,304,,36,49,059,45,21,70,289,46,02,05,108,*65
$GBGSV,4,4,16,46,01,046,,19,00,138,,56,09,094,,60,07,112,*6B
$GPGGA,073057.00,,,,,0,00,,,M,,M,,*4E
$PTNL,GGK,073057.00,010125,4742.4467002,N,01617.9736179,E,1,21,1.4,EHT668.2933,M*4A
$GPGGQ,073057.00,010125,4742.4467002,N,01617.9736179,E,1,21,2.619,625.0822,M*37
$GPGFA,073057.00,11.340,18.136,1.193,0.738,14.802,2.212,,VVV*35
$GPLLK,073057.00,010125,,M,,M,1,21,1.7,,M*08
$GNGMP,073057.00,,,,,DAAA,21,0.8,,,,*5B
$GPGMP,073057.00,,,,,,06,,,,2.2,123*7D
$GLGMP,073057.00,,,,,,05,,,,,*7C
$GAGMP,073057.00,,,,,,05,,,,,*71
$GBGMP,073057.00,,,,,,05,,,,,*72
$PSSN,SNC,[0,286275000,2347]*48
$GPZDA,073102.00,01,01,2025,,*64
$GPDTM,W84,,00.0000000,N,00.0000000,E,00.0000000,W84*5F
$GPRMC,073102.00,A,4742.4467129,N,01617.9736047,E,0.0,,010125,5.1,E,D*1D
$GPGLL,4742.4467129,N,01617.9736047,E,073102.00,A,D*6C
$GPGGA,073102.00,4742.4467129,N,01617.9736047,E,2,22,0.8,625.1047,M,43.2111,M,2.5,0123*49
$GNGNS,073102.00,4742.4467129,N,01617.9736047,E,DAAA,22,0.8,625.1047,43.2111,,*52
$GPGNS,073102.00,,,,,,06,,,,2.5,123*7B
$GLGNS,073102.00,,,,,,06,,,,,*7E
$GAGNS,073102.00,,,,,,05,,,,,*70
$GBGNS,073102.00,,,,,,05,,,,,*73
$GPLLQ,073102.00,010125,,M,,M,1,22,2.383,,M*1C
$GPVTG,,T,,M,0.01,N,0.01,K,D*26
$GPHDT,,T*1B
$GPTHS,,V*0E
$GPROT,,V*08
$PSSN,HRP,073102.00,010125,,,,,,,00,0,,*66
$PTNL,AVR,073102.00,,Yaw,,Tilt,,,,0,,00*30
$GPGSA,A,3,05,07,13,14,15,30,,,,,,,1.4,0.8,1.1*3D
$GPGSA,A,3,65,66,72,74,75,81,,,,,,,1.4,0.8,1.1*31
$GPGSA,A,3,03,05,13,24,25,,,,,,,,1.4,0.8,1.1*3A
$GPGSA,A,3,21,22,36,42,45,,,,,,,,1.4,0.8,1.1*3E
$GPGST,073102.00,3.573,1.102,0.683,14.540,1.081,0.717,1.999*68
$GPGBS,073102.00,6.013,3.476,8.371,14,0.0001,1.905,0.721*5A
$GPGRS,073102.00,1,-1.1,0.2,-0.3,1.9,0.4,-0.8,,,,,,*61
$GPGRS,073102.00,1,-3.7,-3.5,5.7,4.3,-3.7,-4.1,,,,,,*4F
$GPGRS,073102.00,1,-0.4,1.7,6.9,-1.3,-0.9,,,,,,,*4C
$GPGRS,073102.00,1,5.0,-0.8,0.3,0.9,0.4,,,,,,,*49
$GPGSV,4,1,16,30,73,059,46,15,15,300,36,22,30,172,,08,11,054,*7A
$GPGSV,4,2,16,14,47,155,38,07,36,063,45,20,43,215,35,13,48,297,40*71
$GPGSV,4,3,16,05,55,269,50,09,04,114,,27,04,023,,18,09,325,25*7E
$GPGSV,4,4,16,36,35,170,39,34,31,208,,49,34,195,,61,03,257,*7D
$GLGSV,3,1,10,75,66,192,45,72,57,123,43,74,53,044,43,65,59,324,46*65
$GLGSV,3,2,10,73,10,036,27,71,08,132,,66,09,316,45,76,08,209,*60
$GLGSV,3,3,10,81,08,312,39,82,09,356,34*6B
$GAGSV,3,1,11,03,77,317,47,15,14,250,28,02,11,188,,13,18,302,38*61
$GAGSV,3,2,11,08,25,294,32,24,42,065,37,25,48,146,50,05,45,103,40*60
$GAGSV,3,3,11,16,54,104,,26,02,349,,31,04,031,*57
$GBGSV,4,1,16,45,71,186,51,10,22,088,31,42,21,311,42,26,18,220,34*6C
$GBGSV,4,2,16,09,14,065,,05,21,130,34,40,20,067,22,22,50,148,50*6C
$GBGSV,4,3,16,50,46,304,,36,49,059,45,21,70,289,45,02,05,108,*66
$GBGSV,4,4,16,46,01,046,,19,00,138,,56,09,094,,60,07,112,*6B
$GPGGA,073102.00,,,,,0,00,,,M,,M,,*4F
$PTNL,GGK,073102.00,010125,4742.4467129,N,01617.9736047,E,1,22,1.4,EHT668.3158,M*48
$GPGGQ,073102.00,010125,4742.4467129,N,01617.9736047,E,1,22,2.383,625.1047,M*3D
$GPGFA,073102.00,10.481,16.394,1.102,0.683,14.540,1.999,,VVV*32
$GPLLK,073102.00,010125,,M,,M,1,22,1.6,,M*0B
$GNGMP,073102.00,,,,,DAAA,22,0.8,,,,*59
$GPGMP,073102.00,,,,,,06,,,,2.5,123*7B
$GLGMP,073102.00,,,,,,06,,,,,*7E
$GAGMP,073102.00,,,,,,05,,,,,*70
$GBGMP,073102.00,,,,,,05,,,,,*73
$PSSN,SNC,[0,286280000,2347]*42
$GPZDA,073107.00,01,01,2025,,*61
$GPDTM,W84,,00.0000000,N,00.0000000,E,00.0000000,W84*5F
$GPRMC,073107.00,A,4742.4467186,N,01617.9735914,E,0.0,,010125,5.1,E,D*11
$GPGLL,4742.4467186,N,01617.9735914,E,073107.00,A,D*60
$GPGGA,073107.00,4742.4467186,N,01617.9735914,E,2,22,0.8,625.1151,M,43.2111,M,3.5,0123*42
$GNGNS,073107.00,4742.4467186,N,01617.9735914,E,DAAA,22,0.8,625.1151,43.2111,,*58
$GPGNS,073107.00,,,,,,06,,,,3.5,123*7F
$GLGNS,073107.00,,,,,,06,,,,,*7B
$GAGNS,073107.00,,,,,,05,,,,,*75
$GBGNS,073107.00,,,,,,05,,,,,*76
$GPLLQ,073107.00,010125,,M,,M,1,22,2.236,,M*16
$GPVTG,,T,,M,0.00,N,0.01,K,D*27
$GPHDT,,T*1B
$GPTHS,,V*0E
$GPROT,,V*08
$PSSN,HRP,073107.00,010125,,,,,,,00,0,,*63
$PTNL,AVR,073107.00,,Yaw,,Tilt,,,,0,,00*35
$GPGSA,A,3,05,07,13,14,15,30,,,,,,,1.4,0.8,1.1*3D
$GPGSA,A,3,65,66,72,74,75,81,,,,,,,1.4,0.8,1.1*31
$GPGSA,A,3,03,05,13,24,25,,,,,,,,1.4,0.8,1.1*3A
$GPGSA,A,3,21,22,36,42,45,,,,,,,,1.4,0.8,1.1*3E
$GPGST,073107.00,3.553,1.041,0.649,14.123,1.022,0.679,1.870*68
$GPGBS,073107.00,6.140,3.540,8.487,05,0.0001,-1.551,0.695*7C
$GPGRS,073107.00,1,-1.6,0.5,0.6,1.2,-0.2,-0.1,,,,,,*65
$GPGRS,073107.00,1,-4.4,-3.7,6.6,4.6,-3.6,-0.4,,,,,,*4B
$GPGRS,073107.00,1,-0.4,0.2,7.9,-1.2,-0.8,,,,,,,*4C
$GPGRS,073107.00,1,2.6,-1.5,-0.3,0.2,0.7,,,,,,,*64
$GPGSV,4,1,16,30,73,059,46,15,15,300,35,22,30,172,,08,11,054,*79
$GPGSV,4,2,16,14,47,155,39,07,36,063,46,20,43,215,33,13,48,297,42*77
$GPGSV,4,3,16,05,55,269,49,09,04,114,,27,04,023,,18,09,325,24*77
$GPGSV,4,4,16,36,35,170,39,34,31,208,,49,34,195,,61,03,257,*7D
$GLGSV,3,1,10,75,66,192,45,72,57,123,44,74,53,044,43,65,59,324,47*63
$GLGSV,3,2,10,73,10,036,25,71,08,132,,66,10,316,45,76,08,209,*6A
$GLGSV,3,3,10,81,08,312,38,82,09,356,*6D
$GAGSV,3,1,11,03,77,317,48,15,14,250,26,02,11,188,,13,18,302,36*6E
$GAGSV,3,2,11,08,25,294,32,24,42,065,38,25,48,146,50,05,45,103,40*6F
$GAGSV,3,3,11,16,54,104,,26,02,349,,31,04,031,*57
$GBGSV,4,1,16,45,71,186,51,10,22,088,31,42,21,311,42,26,18,220,35*6D
$GBGSV,4,2,16,09,14,065,19,05,21,130,34,40,20,067,21,22,50,148,49*6F
$GBGSV,4,3,16,50,46,304,,36,49,059,45,21,70,289,45,02,05,108,*66
$GBGSV,4,4,16,46,01,047,,19,00,138,,56,09,094,,60,07,112,*6A
$GPGGA,073107.00,,,,,0,00,,,M,,M,,*4A
$PTNL,GGK,073107.00,010125,4742.4467186,N,01617.9735914,E,1,22,1.4,EHT668.3262,M*4E
$GPGGQ,073107.00,010125,4742.4467186,N,01617.9735914,E,1,22,2.236,625.1151,M*38
$GPGFA,073107.00,9.899,15.333,1.041,0.649,14.123,1.870,,VVV*03
$GPLLK,073107.00,010125,,M,,M,1,22,1.6,,M*0E
$GNGMP,073107.00,,,,,DAAA,22,0.8,,,,*5C
$GPGMP,073107.00,,,,,,06,,,,3.5,123*7F
$GLGMP,073107.00,,,,,,06,,,,,*7B
$GAGMP,073107.00,,,,,,05,,,,,*75
$GBGMP,073107.00,,,,,,05,,,,,*76
$PSSN,SNC,[0,286285000,2347]*47
$GPZDA,073112.00,01,01,2025,,*65
$GPDTM,W84,,00.0000000,N,00.0000000,E,00.0000000,W84*5F
$GPRMC,073112.00,A,4742.4467240,N,01617.9735868,E,0.0,,010125,5.1,E,D*16
$GPGLL,4742.4467240,N,01617.9735868,E,073112.00,A,D*67
$GPGGA,073112.00,4742.4467240,N,01617.9735868,E,2,21,0.8,625.1233,M,43.2111,M,1.4,0123*42
$GNGNS,073112.00,4742.4467240,N,01617.9735868,E,DAAA,21,0.8,625.1233,43.2111,,*5B
$GPGNS,073112.00,,,,,,05,,,,1.4,123*7B
$GLGNS,073112.00,,,,,,06,,,,,*7F
$GAGNS,073112.00,,,,,,05,,,,,*71
$GBGNS,073112.00,,,,,,05,,,,,*72
$GPLLQ,073112.00,010125,,M,,M,1,21,3.504,,M*16
$GPVTG,,T,,M,0.01,N,0.02,K,D*25
$GPHDT,,T*1B
$GPTHS,,V*0E
$GPROT,,V*08
$PSSN,HRP,073112.00,010125,,,,,,,00,0,,*67
$PTNL,AVR,073112.00,,Yaw,,Tilt,,,,0,,00*31
$GPGSA,A,3,05,07,13,14,30,,,,,,,,1.4,0.8,1.2*3A
$GPGSA,A,3,65,66,72,74,75,81,,,,,,,1.4,0.8,1.2*32
$GPGSA,A,3,03,05,08,24,25,,,,,,,,1.4,0.8,1.2*33
$GPGSA,A,3,21,22,36,42,45,,,,,,,,1.4,0.8,1.2*3D
$GPGST,073112.00,4.074,1.178,0.787,12.522,1.162,0.810,3.205*6E
$GPGBS,073112.00,5.821,2.778,15.219,14,0.0001,1.533,0.689*64
$GPGRS,073112.00,1,-1.4,-0.1,0.8,1.5,-0.5,,,,,,,*46
$GPGRS,073112.00,1,-4.1,-3.0,11.6,4.5,-3.4,1.1,,,,,,*53
$GPGRS,073112.00,1,-0.6,-1.9,-4.7,-0.4,-0.9,,,,,,,*4B
$GPGRS,073112.00,1,0.5,-2.3,-0.5,-1.2,0.2,,,,,,,*4B
$GPGSV,4,1,16,30,73,059,45,15,15,300,34,22,30,172,,08,11,054,*7B
$GPGSV,4,2,16,14,47,154,39,07,36,063,47,20,43,215,27,13,48,297,42*72
$GPGSV,4,3,16,05,55,269,49,09,04,114,,27,04,023,,18,09,325,*71
$GPGSV,4,4,16,36,35,170,39,34,31,208,,49,34,195,,61,03,257,*7D
$GLGSV,3,1,10,75,66,192,46,72,57,123,44,74,53,044,44,65,59,324,47*67
$GLGSV,3,2,10,73,10,036,26,71,08,132,,66,10,316,45,76,08,209,*69
$GLGSV,3,3,10,81,08,312,39,82,09,356,29*67
$GAGSV,3,1,11,03,77,317,48,15,14,250,28,02,11,188,,13,18,302,33*65
$GAGSV,3,2,11,08,25,294,33,24,42,065,40,25,48,146,51,05,45,103,39*6E
$GAGSV,3,3,11,16,54,104,,26,02,349,,31,04,031,*57
$GBGSV,4,1,16,45,71,186,50,10,22,088,31,42,21,311,42,26,18,220,34*6D
$GBGSV,4,2,16,09,14,065,,05,21,130,34,40,20,067,22,22,50,148,49*64
$GBGSV,4,3,16,50,46,304,,36,49,059,45,21,70,289,44,02,05,108,*67
$GBGSV,4,4,16,46,01,047,,19,00,138,,56,09,094,,60,07,112,*6A
$GPGGA,073112.00,,,,,0,00,,,M,,M,,*4E
$PTNL,GGK,073112.00,010125,4742.4467240,N,01617.9735868,E,1,21,1.4,EHT668.3343,M*48
$GPGGQ,073112.00,010125,4742.4467240,N,01617.9735868,E,1,21,3.504,625.1233,M*3C
$GPGFA,073112.00,11.198,26.284,1.178,0.787,12.522,3.205,,VVV*3A
$GPLLK,073112.00,010125,,M,,M,1,21,1.7,,M*08
$GNGMP,073112.00,,,,,DAAA,21,0.8,,,,*5B
$GPGMP,073112.00,,,,,,05,,,,1.4,123*7B
$GLGMP,073112.00,,,,,,06,,,,,*7F
$GAGMP,073112.00,,,,,,05,,,,,*71
$GBGMP,073112.00,,,,,,05,,,,,*72
$PSSN,SNC,[0,286290000,2347]*43
$GPZDA,073117.00,01,01,2025,,*60
$GPDTM,W84,,00.0000000,N,00.0000000,E,00.0000000,W84*5F
$GPRMC,073117.00,A,4742.4467323,N,01617.9735752,E,0.0,,010125,5.1,E,D*11
$GPGLL,4742.4467323,N,01617.9735752,E,073117.00,A,D*60
$GPGGA,073117.00,4742.4467323,N,01617.9735752,E,2,21,0.8,625.1380,M,43.2111,M,2.4,0123*4F
$GNGNS,073117.00,4742.4467323,N,01617.9735752,E,DAAA,21,0.8,625.1380,43.2111,,*55
$GPGNS,073117.00,,,,,,05,,,,2.4,123*7D
$GLGNS,073117.00,,,,,,06,,,,,*7A
$GAGNS,073117.00,,,,,,05,,,,,*74
$GBGNS,073117.00,,,,,,05,,,,,*77
$GPLLQ,073117.00,010125,,M,,M,1,21,3.124,,M*15
$GPVTG,,T,,M,0.00,N,0.01,K,D*27
$GPHDT,,T*1B
$GPTHS,,V*0E
$GPROT,,V*08
$PSSN,HRP,073117.00,010125,,,,,,,00,0,,*62
$PTNL,AVR,073117.00,,Yaw,,Tilt,,,,0,,00*34
$GPGSA,A,3,05,07,13,14,30,,,,,,,,1.4,0.8,1.2*3A
$GPGSA,A,3,65,66,72,74,75,81,,,,,,,1.4,0.8,1.2*32
$GPGSA,A,3,03,05,08,24,25,,,,,,,,1.4,0.8,1.2*33
$GPGSA,A,3,21,22,36,42,45,,,,,,,,1.4,0.8,1.2*3D
$GPGST,073117.00,4.447,1.026,0.685,13.563,1.010,0.708,2.871*68
$GPGBS,073117.00,5.917,2.814,15.474,14,0.0001,1.509,0.703*67
$GPGRS,073117.00,1,-0.6,-0.1,-0.3,1.5,-0.3,,,,,,,*60
$GPGRS,073117.00,1,-4.5,-4.0,12.8,3.6,-2.5,4.0,,,,,,*58
$GPGRS,073117.00,1,-0.7,-1.7,-5.0,0.6,-0.8,,,,,,,*69
$GPGRS,073117.00,1,0.3,-2.5,-1.0,-1.2,-0.0,,,,,,,*65
$GPGSV,4,1,16,30,73,059,46,15,15,300,33,22,30,172,,08,11,054,*7F
$GPGSV,4,2,16,14,47,154,39,07,36,063,47,20,43,215,,13,48,297,42*77
$GPGSV,4,3,16,05,55,269,49,09,04,114,,27,04,023,,18,09,325,27*74
$GPGSV,4,4,16,36,35,170,39,34,31,208,,49,34,195,,61,03,257,*7D
$GLGSV,3,1,10,75,66,192,46,72,57,123,42,74,53,044,43,65,59,324,47*66
$GLGSV,3,2,10,73,10,036,25,71,08,132,,66,10,316,45,76,08,209,*6A
$GLGSV,3,3,10,81,08,311,42,82,09,356,22*63
$GAGSV,3,1,11,03,77,317,48,15,14,250,23,02,11,188,,13,18,302,25*69
$GAGSV,3,2,11,08,25,294,33,24,42,065,42,25,48,146,51,05,45,103,38*6D
$GAGSV,3,3,11,16,54,104,,26,02,349,,31,04,031,*57
$GBGSV,4,1,16,45,71,186,50,10,22,088,30,42,21,311,41,26,18,220,32*69
$GBGSV,4,2,16,09,14,065,,05,21,130,34,40,20,067,21,22,50,148,49*67
$GBGSV,4,3,16,50,46,304,,36,49,059,45,21,70,288,43,02,05,108,*61
$GBGSV,4,4,16,46,00,047,,19,00,138,,56,09,094,,60,07,112,*6B
$GPGGA,073117.00,,,,,0,00,,,M,,M,,*4B
$PTNL,GGK,073117.00,010125,4742.4467323,N,01617.9735752,E,1,21,1.4,EHT668.3490,M*46
$GPGGQ,073117.00,010125,4742.4467323,N,01617.9735752,E,1,21,3.124,625.1380,M*34
$GPGFA,073117.00,9.757,23.538,1.026,0.685,13.563,2.871,,VVV*03
$GPLLK,073117.00,010125,,M,,M,1,21,1.7,,M*0D
$GNGMP,073117.00,,,,,DAAA,21,0.8,,,,*5E
$GPGMP,073117.00,,,,,,05,,,,2.4,123*7D
$GLGMP,073117.00,,,,,,06,,,,,*7A
$GAGMP,073117.00,,,,,,05,,,,,*74
$GBGMP,073117.00,,,,,,05,,,,,*77
$PSSN,SNC,[0,286295000,2347]*46
$GPZDA,073122.00,01,01,2025,,*66
$GPDTM,W84,,00.0000000,N,00.0000000,E,00.0000000,W84*5F
$GPRMC,073122.00,A,4742.4467428,N,01617.9735679,E,0.0,,010125,5.1,E,D*13
$GPGLL,4742.4467428,N,01617.9735679,E,073122.00,A,D*62
$GPGGA,073122.00,4742.4467428,N,01617.9735679,E,2,20,0.8,625.1436,M,43.2111,M,2.6,0123*44
$GNGNS,073122.00,4742.4467428,N,01617.9735679,E,DAAA,20,0.8,625.1436,43.2111,,*5C
$GPGNS,073122.00,,,,,,05,,,,2.6,123*79
$GLGNS,073122.00,,,,,,06,,,,,*7C
$GAGNS,073122.00,,,,,,04,,,,,*73
$GBGNS,073122.00,,,,,,05,,,,,*71
$GPLLQ,073122.00,010125,,M,,M,1,20,3.056,,M*16
$GPVTG,,T,,M,0.00,N,0.00,K,D*26
$GPHDT,,T*1B
$GPTHS,,V*0E
$GPROT,,V*08
$PSSN,HRP,073122.00,010125,,,,,,,00,0,,*64
$PTNL,AVR,073122.00,,Yaw,,Tilt,,,,0,,00*32
$GPGSA,A,3,05,07,13,14,30,,,,,,,,1.4,0.8,1.2*3A
$GPGSA,A,3,65,66,72,74,75,81,,,,,,,1.4,0.8,1.2*32
$GPGSA,A,3,03,05,24,25,,,,,,,,,1.4,0.8,1.2*3B
$GPGSA,A,3,21,22,36,42,45,,,,,,,,1.4,0.8,1.2*3D
$GPGST,073122.00,4.510,1.009,0.681,12.624,0.996,0.700,2.803*6E
$GPGBS,073122.00,6.021,2.825,15.152,14,0.0001,1.511,0.718*6E
$GPGRS,073122.00,1,-0.5,-0.5,-0.3,1.5,-0.1,,,,,,,*63
$GPGRS,073122.00,1,-5.5,-4.0,9.4,2.7,-3.9,9.3,,,,,,*6A
$GPGRS,073122.00,1,-0.9,-1.1,-0.5,-1.1,,,,,,,,*47
$GPGRS,073122.00,1,0.7,-2.7,-2.5,-1.5,-0.3,,,,,,,*67
$GPGSV,4,1,16,30,73,059,46,15,15,300,35,22,30,172,,08,11,053,*7E
$GPGSV,4,2,16,14,47,154,38,07,36,063,47,20,43,214,,13,48,297,41*74
$GPGSV,4,3,16,05,55,269,50,09,04,114,,27,04,023,,18,09,325,30*7A
$GPGSV,4,4,16,36,35,170,39,34,31,208,,49,34,195,,61,03,257,*7D
$GLGSV,3,1,10,75,66,192,45,72,57,123,42,74,53,044,42,65,59,324,47*64
$GLGSV,3,2,10,73,10,036,24,71,08,132,,66,10,316,45,76,08,209,*6B
$GLGSV,3,3,10,81,08,311,40,82,09,356,30*62
$GAGSV,3,1,11,03,77,317,48,15,14,250,20,02,11,188,,13,18,302,27*68
$GAGSV,3,2,11,08,25,294,27,24,42,065,43,25,48,146,51,05,45,104,38*6E
$GAGSV,3,3,11,16,54,104,,26,03,349,,31,04,031,*56
$GBGSV,4,1,16,45,71,186,50,10,22,088,30,05,21,130,34,26,18,220,29*63
$GBGSV,4,2,16,09,14,065,,42,21,311,41,40,20,067,22,22,50,148,48*65
$GBGSV,4,3,16,50,46,304,,36,49,059,43,21,70,288,44,02,05,108,*60
$GBGSV,4,4,16,46,00,047,,19,00,138,,56,09,094,,60,07,112,*6B
$GPGGA,073122.00,,,,,0,00,,,M,,M,,*4D
$PTNL,GGK,073122.00,010125,4742.4467428,N,01617.9735679,E,1,20,1.4,EHT668.3546,M*4F
$GPGGQ,073122.00,010125,4742.4467428,N,01617.9735679,E,1,20,3.056,625.1436,M*39
$GPGFA,073122.00,9.595,22.984,1.009,0.681,12.624,2.803,,VVV*0E
$GPLLK,073122.00,010125,,M,,M,1,20,1.7,,M*0A
$GNGMP,073122.00,,,,,DAAA,20,0.8,,,,*59
$GPGMP,073122.00,,,,,,05,,,,2.6,123*79
$GLGMP,073122.00,,,,,,06,,,,,*7C
$GAGMP,073122.00,,,,,,04,,,,,*73
$GBGMP,073122.00,,,,,,05,,,,,*71
$PSSN,SNC,[0,286300000,2347]*4B
$GPZDA,073127.00,01,01,2025,,*63
$GPDTM,W84,,00.0000000,N,00.0000000,E,00.0000000,W84*5F
$GPRMC,073127.00,A,4742.4467550,N,01617.9735619,E,0.0,,010125,5.1,E,D*1E
$GPGLL,4742.4467550,N,01617.9735619,E,073127.00,A,D*6F
$GPGGA,073127.00,4742.4467550,N,01617.9735619,E,2,23,0.7,625.1463,M,43.2111,M,3.5,0123*47
$GNGNS,073127.00,4742.4467550,N,01617.9735619,E,DAAA,23,0.7,625.1463,43.2111,,*5D
$GPGNS,073127.00,,,,,,06,,,,3.5,123*7D
$GLGNS,073127.00,,,,,,06,,,,,*79
$GAGNS,073127.00,,,,,,06,,,,,*74
$GBGNS,073127.00,,,,,,05,,,,,*74
$GPLLQ,073127.00,010125,,M,,M,1,23,2.290,,M*19
$GPVTG,,T,,M,0.01,N,0.01,K,D*26
$GPHDT,,T*1B
$GPTHS,,V*0E
$GPROT,,V*08
$PSSN,HRP,073127.00,010125,,,,,,,00,0,,*61
$PTNL,AVR,073127.00,,Yaw,,Tilt,,,,0,,00*37
$GPGSA,A,3,05,07,13,14,15,30,,,,,,,1.3,0.7,1.0*34
$GPGSA,A,3,65,66,72,74,75,81,,,,,,,1.3,0.7,1.0*38
$GPGSA,A,3,03,05,08,15,24,25,,,,,,,1.3,0.7,1.0*3D
$GPGSA,A,3,21,22,36,42,45,,,,,,,,1.3,0.7,1.0*37
$GPGST,073127.00,4.229,1.067,0.666,13.319,1.050,0.693,1.914*60
$GPGBS,073127.00,6.110,3.503,8.384,14,0.0001,1.597,0.740*56
$GPGRS,073127.00,1,-0.4,-1.0,-0.7,1.6,0.6,-0.0,,,,,,*4D
$GPGRS,073127.00,1,-6.0,-3.8,7.9,1.4,-4.8,9.4,,,,,,*64
$GPGRS,073127.00,1,-0.8,0.0,-5.4,-1.0,-0.9,-1.1,,,,,,*62
$GPGRS,073127.00,1,2.0,-2.4,-3.4,-1.2,-0.1,,,,,,,*61
$GPGSV,4,1,16,30,73,059,46,15,15,300,37,22,30,172,,08,11,053,*7C
$GPGSV,4,2,16,14,47,154,37,07,36,063,46,20,43,214,,13,48,297,40*7B
$GPGSV,4,3,16,05,55,269,50,09,04,114,,27,04,023,,18,09,325,31*7B
$GPGSV,4,4,16,36,35,170,39,34,31,208,,49,34,195,,61,03,257,*7D
$GLGSV,3,1,10,75,66,192,43,72,56,123,42,74,53,044,42,65,59,324,46*62
$GLGSV,3,2,10,73,10,036,30,71,08,132,,66,10,316,44,76,08,209,*6F
$GLGSV,3,3,10,81,08,311,39,82,09,356,34*68
$GAGSV,3,1,11,03,77,317,47,15,14,250,27,02,11,188,,13,18,302,25*62
$GAGSV,3,2,11,08,25,294,33,24,42,065,44,25,48,146,51,05,45,104,38*6C
$GAGSV,3,3,11,16,54,104,,26,03,349,,31,04,031,*56
$GBGSV,4,1,16,45,71,186,50,10,22,088,30,05,21,130,34,26,18,220,22*68
$GBGSV,4,2,16,09,14,065,,42,21,311,40,40,20,067,22,22,50,148,48*64
$GBGSV,4,3,16,50,46,304,,36,49,059,42,21,70,288,44,02,05,108,*61
$GBGSV,4,4,16,46,00,047,,19,00,138,,56,09,094,,60,07,112,*6B
$GPGGA,073127.00,,,,,0,00,,,M,,M,,*48
$PTNL,GGK,073127.00,010125,4742.4467550,N,01617.9735619,E,1,23,1.3,EHT668.3574,M*47
$GPGGQ,073127.00,010125,4742.4467550,N,01617.9735619,E,1,23,2.290,625.1463,M*3E
$GPGFA,073127.00,10.145,15.696,1.067,0.666,13.319,1.914,,VVV*3D
$GPLLK,073127.00,010125,,M,,M,1,23,1.5,,M*0E
$GNGMP,073127.00,,,,,DAAA,23,0.7,,,,*50
$GPGMP,073127.00,,,,,,06,,,,3.5,123*7D
$GLGMP,073127.00,,,,,,06,,,,,*79
$GAGMP,073127.00,,,,,,06,,,,,*74
$GBGMP,073127.00,,,,,,05,,,,,*74
$PSSN,SNC,[0,286305000,2347]*4E
$GPZDA,073132.00,01,01,2025,,*67
$GPDTM,W84,,00.0000000,N,00.0000000,E,00.0000000,W84*5F
$GPRMC,073132.00,A,4742.4467628,N,01617.9735635,E,0.0,,010125,5.1,E,D*18
$GPGLL,4742.4467628,N,01617.9735635,E,073132.00,A,D*69
$GPGGA,073132.00,4742.4467628,N,01617.9735635,E,2,23,0.7,625.1623,M,43.2111,M,1.8,0123*48
$GNGNS,073132.00,4742.4467628,N,01617.9735635,E,DAAA,23,0.7,625.1623,43.2111,,*5D
$GPGNS,073132.00,,,,,,06,,,,1.8,123*76
$GLGNS,073132.00,,,,,,07,,,,,*7C
$GAGNS,073132.00,,,,,,05,,,,,*73
$GBGNS,073132.00,,,,,,05,,,,,*70
$GPLLQ,073132.00,010125,,M,,M,1,23,3.015,,M*13
$GPVTG,,T,,M,0.00,N,0.00,K,D*26
$GPHDT,,T*1B
$GPTHS,,V*0E
$GPROT,,V*08
$PSSN,HRP,073132.00,010125,,,,,,,00,0,,*65
$PTNL,AVR,073132.00,,Yaw,,Tilt,,,,0,,00*33
$GPGSA,A,3,05,07,13,14,15,30,,,,,,,1.2,0.7,1.0*35
$GPGSA,A,3,65,66,72,74,75,81,82,,,,,,1.2,0.7,1.0*33
$GPGSA,A,3,03,05,15,24,25,,,,,,,,1.2,0.7,1.0*34
$GPGSA,A,3,21,22,36,42,45,,,,,,,,1.2,0.7,1.0*36
$GPGST,073132.00,4.894,1.392,0.872,13.431,1.369,0.907,2.529*6D
$GPGBS,073132.00,5.798,3.348,8.439,15,0.0001,3.158,1.076*58
$GPGRS,073132.00,1,-0.9,-1.2,-0.2,1.5,3.2,-0.7,,,,,,*40
$GPGRS,073132.00,1,-6.1,-3.7,12.1,2.0,-4.5,7.9,7.6,,,,,*74
$GPGRS,073132.00,1,-1.1,0.8,-2.0,-1.1,-0.9,,,,,,,*67
$GPGRS,073132.00,1,2.1,-2.2,-2.7,-0.9,0.1,,,,,,,*47
$GPGSV,4,1,16,30,73,059,45,15,15,300,39,22,30,172,,08,11,053,*71
$GPGSV,4,2,16,14,47,154,37,07,36,063,46,20,43,214,,13,49,297,40*7A
