$GPZDA,204442.00,01,01,2025,,*67
$GPDTM,W84,,00.0000000,N,00.0000000,E,00.0000000,W84*5F
$GPRMC,204442.00,A,4742.4467743,N,01617.9734799,E,0.0,,010125,5.1,E,D*12
$GPGLL,4742.4467743,N,01617.9734799,E,204442.00,A,D*63
$GPGGA,204442.00,4742.4467743,N,01617.9734799,E,2,15,0.8,625.1175,M,43.2111,M,2.3,0123*44
$GNGNS,204442.00,4742.4467743,N,01617.9734799,E,DAAA,15,0.8,625.1175,43.2111,,*59
$GPGNS,204442.00,,,,,,03,,,,2.3,123*7B
$GLGNS,204442.00,,,,,,04,,,,,*7F
$GAGNS,204442.00,,,,,,02,,,,,*74
$GBGNS,204442.00,,,,,,06,,,,,*73
$GPLLQ,204442.00,010125,,M,,M,1,15,11.186,,M*2E
$GPVTG,,T,,M,0.01,N,0.01,K,D*26
$GPHDT,,T*1B
$GPTHS,,V*0E
$GPROT,,V*08
$PSSN,HRP,204442.00,010125,,,,,,,00,0,,*65
$PTNL,AVR,204442.00,,Yaw,,Tilt,,,,0,,00*33
$GPGSA,A,3,10,23,27,,,,,,,,,,1.4,0.8,1.2*39
$GPGSA,A,3,67,68,74,75,,,,,,,,,1.4,0.8,1.2*32
$GPGSA,A,3,13,26,,,,,,,,,,,1.4,0.8,1.2*3A
$GPGSA,A,3,14,28,33,41,42,43,,,,,,,1.4,0.8,1.2*37
$GPGST,204442.00,6.649,4.217,3.123,22.153,4.080,3.300,9.879*69
$GPGBS,204442.00,22.865,17.149,59.108,68,0.0001,13.207,6.086*5F
$GPGRS,204442.00,1,-0.3,0.4,-0.7,,,,,,,,,*64
$GPGRS,204442.00,1,4.2,13.2,-9.4,3.1,,,,,,,,*5E
$GPGRS,204442.00,1,-0.3,-0.6,,,,,,,,,,*4F
$GPGRS,204442.00,1,0.5,-3.4,-4.3,-4.1,0.7,-4.0,,,,,,*49
$GPGSV,4,1,16,27,85,184,50,18,12,076,22,32,12,142,,21,28,271,31*7A
$GPGSV,4,2,16,16,30,198,34,23,42,054,46,08,54,300,41,10,72,126,43*76
$GPGSV,4,3,16,26,05,184,,02,09,267,35,30,00,322,,15,07,031,*7A
$GPGSV,4,4,16,36,35,170,41,34,31,208,,49,34,195,36,61,03,257,*77
$GLGSV,3,1,09,83,55,056,31,75,19,332,41,82,18,085,33,69,15,161,*6A
$GLGSV,3,2,09,73,17,229,31,74,33,275,40,67,35,045,41,84,41,300,25*6D
$GLGSV,3,3,09,68,45,114,44*57
$GAGSV,3,1,11,14,73,271,,21,31,198,33,31,20,319,34,03,14,039,27*6B
$GAGSV,3,2,11,33,16,260,31,08,23,089,35,23,48,265,,13,56,060,45*6C
$GAGSV,3,3,11,26,64,277,47,15,05,073,,07,09,139,*5F
$GBGSV,5,1,20,28,83,012,51,60,11,108,,50,10,034,,46,20,284,*69
$GBGSV,5,2,20,41,21,174,39,37,11,231,27,05,23,128,,58,23,265,*63
$GBGSV,5,3,20,08,20,039,28,43,25,103,37,57,25,231,,13,28,044,30*6D
$GBGSV,5,4,20,27,41,292,33,42,30,050,35,33,49,121,42,14,46,079,41*62
$GBGSV,5,5,20,36,07,332,27,11,04,101,,02,08,105,,38,07,042,*6C
$GPGGA,204442.00,,,,,0,00,,,M,,M,,*4C
$PTNL,GGK,204442.00,010125,4742.4467743,N,01617.9734799,E,1,15,1.4,EHT668.3286,M*43
$GPGGQ,204442.00,010125,4742.4467743,N,01617.9734799,E,1,15,11.186,625.1175,M*03
$GPGFA,204442.00,40.096,81.010,4.217,3.123,22.153,9.879,,VVV*3F
$GPLLK,204442.00,010125,,M,,M,1,15,1.7,,M*0D
$GNGMP,204442.00,,,,,DAAA,15,0.8,,,,*5E
$GPGMP,204442.00,,,,,,03,,,,2.3,123*7B
$GLGMP,204442.00,,,,,,04,,,,,*7F
$GAGMP,204442.00,,,,,,02,,,,,*74
$GBGMP,204442.00,,,,,,06,,,,,*73
$PSSN,SNC,[0,333900000,2347]*4E
$GPZDA,204447.00,01,01,2025,,*62
$GPDTM,W84,,00.0000000,N,00.0000000,E,00.0000000,W84*5F
$GPRMC,204447.00,A,4742.4467814,N,01617.9734748,E,0.0,,010125,5.1,E,D*16
$GPGLL,4742.4467814,N,01617.9734748,E,204447.00,A,D*67
$GPGGA,204447.00,4742.4467814,N,01617.9734748,E,2,16,0.8,625.1324,M,43.2111,M,2.3,0123*45
$GNGNS,204447.00,4742.4467814,N,01617.9734748,E,DAAA,16,0.8,625.1324,43.2111,,*58
$GPGNS,204447.00,,,,,,03,,,,2.3,123*7E
$GLGNS,204447.00,,,,,,04,,,,,*7A
$GAGNS,204447.00,,,,,,03,,,,,*70
$GBGNS,204447.00,,,,,,06,,,,,*76
$GPLLQ,204447.00,010125,,M,,M,1,16,8.979,,M*18
$GPVTG,,T,,M,0.01,N,0.01,K,D*26
$GPHDT,,T*1B
$GPTHS,,V*0E
$GPROT,,V*08
$PSSN,HRP,204447.00,010125,,,,,,,00,0,,*60
$PTNL,AVR,204447.00,,Yaw,,Tilt,,,,0,,00*36
$GPGSA,A,3,10,23,27,,,,,,,,,,1.4,0.8,1.1*3A
$GPGSA,A,3,67,68,74,75,,,,,,,,,1.4,0.8,1.1*31
$GPGSA,A,3,13,26,31,,,,,,,,,,1.4,0.8,1.1*3B
$GPGSA,A,3,14,27,28,33,41,43,,,,,,,1.4,0.8,1.1*37
$GPGST,204447.00,6.331,3.567,2.360,8.196,3.547,2.390,7.895*59
$GPGBS,204447.00,21.062,11.761,49.270,74,0.0001,-10.373,6.124*79
$GPGRS,204447.00,1,-0.4,0.3,-0.0,,,,,,,,,*66
$GPGRS,204447.00,1,8.9,8.9,-10.4,-2.5,,,,,,,,*7D
$GPGRS,204447.00,1,-0.1,-0.2,0.3,,,,,,,,,*61
$GPGRS,204447.00,1,-1.5,-4.0,-2.8,-2.1,-3.3,-6.9,,,,,,*49
$GPGSV,4,1,16,27,85,184,50,18,12,076,23,32,12,142,,21,28,271,29*72
$GPGSV,4,2,16,16,30,198,35,23,42,054,45,08,54,300,40,10,72,126,42*74
$GPGSV,4,3,16,26,05,184,,02,09,267,,30,00,322,,15,07,031,*7C
$GPGSV,4,4,16,36,35,170,41,34,31,208,,49,34,195,36,61,03,257,*77
$GLGSV,3,1,09,83,55,056,34,75,19,332,39,82,18,086,34,69,15,161,*64
$GLGSV,3,2,09,73,17,229,29,74,33,275,39,67,35,045,39,84,42,300,27*64
$GLGSV,3,3,09,68,45,114,44*57
$GAGSV,3,1,11,14,73,271,,21,31,198,34,31,20,319,37,03,14,039,23*6B
$GAGSV,3,2,11,33,16,260,31,08,23,089,33,23,48,265,,13,56,060,44*6B
$GAGSV,3,3,11,26,64,277,47,15,05,073,,07,09,139,*5F
$GBGSV,5,1,20,28,83,012,51,60,11,108,,50,10,034,,46,20,284,*69
$GBGSV,5,2,20,41,21,174,39,37,11,231,27,05,23,128,,58,23,265,*63
$GBGSV,5,3,20,08,20,039,27,43,25,103,35,57,25,231,,13,28,044,29*68
$GBGSV,5,4,20,27,41,292,39,42,30,050,35,33,50,121,44,14,46,079,40*67
$GBGSV,5,5,20,36,07,332,26,11,04,101,,02,08,105,,38,07,042,*6D
$GPGGA,204447.00,,,,,0,00,,,M,,M,,*49
$PTNL,GGK,204447.00,010125,4742.4467814,N,01617.9734748,E,1,16,1.4,EHT668.3434,M*4B
$GPGGQ,204447.00,010125,4742.4467814,N,01617.9734748,E,1,16,8.979,625.1324,M*32
$GPGFA,204447.00,33.916,64.738,3.567,2.360,8.196,7.895,,VVV*07
$GPLLK,204447.00,010125,,M,,M,1,16,1.6,,M*0A
$GNGMP,204447.00,,,,,DAAA,16,0.8,,,,*58
$GPGMP,204447.00,,,,,,03,,,,2.3,123*7E
$GLGMP,204447.00,,,,,,04,,,,,*7A
$GAGMP,204447.00,,,,,,03,,,,,*70
$GBGMP,204447.00,,,,,,06,,,,,*76
$PSSN,SNC,[0,333905000,2347]*4B
$GPZDA,204452.00,01,01,2025,,*66
$GPDTM,W84,,00.0000000,N,00.0000000,E,00.0000000,W84*5F
$GPRMC,204452.00,A,4742.4467781,N,01617.9734734,E,0.0,,010125,5.1,E,D*1A
$GPGLL,4742.4467781,N,01617.9734734,E,204452.00,A,D*6B
$GPGGA,204452.00,4742.4467781,N,01617.9734734,E,2,17,0.8,625.1386,M,43.2111,M,3.3,0123*41
$GNGNS,204452.00,4742.4467781,N,01617.9734734,E,DAAA,17,0.8,625.1386,43.2111,,*5D
$GPGNS,204452.00,,,,,,03,,,,3.3,123*7B
$GLGNS,204452.00,,,,,,05,,,,,*7F
$GAGNS,204452.00,,,,,,03,,,,,*74
$GBGNS,204452.00,,,,,,06,,,,,*72
$GPLLQ,204452.00,010125,,M,,M,1,17,9.416,,M*18
$GPVTG,,T,,M,0.01,N,0.01,K,D*26
$GPHDT,,T*1B
$GPTHS,,V*0E
$GPROT,,V*08
$PSSN,HRP,204452.00,010125,,,,,,,00,0,,*64
$PTNL,AVR,204452.00,,Yaw,,Tilt,,,,0,,00*32
$GPGSA,A,3,10,23,27,,,,,,,,,,1.4,0.8,1.2*39
$GPGSA,A,3,67,68,74,75,84,,,,,,,,1.4,0.8,1.2*3E
$GPGSA,A,3,13,26,31,,,,,,,,,,1.4,0.8,1.2*38
$GPGSA,A,3,14,27,28,33,41,42,,,,,,,1.4,0.8,1.2*35
$GPGST,204452.00,6.427,3.735,2.445,7.782,3.715,2.475,8.291*5C
$GPGBS,204452.00,21.466,11.574,49.908,75,0.0001,-13.219,6.239*7F
$GPGRS,204452.00,1,-0.1,0.3,-0.1,,,,,,,,,*66
$GPGRS,204452.00,1,5.0,3.6,-10.7,-13.2,-2.4,,,,,,,*48
$GPGRS,204452.00,1,-0.0,-0.2,0.1,,,,,,,,,*66
$GPGRS,204452.00,1,-1.3,4.3,-2.8,-0.8,-2.5,6.8,,,,,,*45
$GPGSV,4,1,16,27,84,184,50,18,12,076,,32,12,142,,21,28,271,26*7D
$GPGSV,4,2,16,16,30,198,36,23,42,054,45,08,54,300,38,10,72,125,43*7A
$GPGSV,4,3,16,26,05,184,,02,09,267,,30,00,322,,15,07,031,*7C
$GPGSV,4,4,16,36,35,170,41,34,31,208,,49,34,195,36,61,03,257,*77
$GLGSV,3,1,09,83,55,056,34,75,19,332,38,82,18,086,34,69,15,161,*65
$GLGSV,3,2,09,73,17,229,,74,33,275,38,67,35,045,36,84,42,300,38*6F
$GLGSV,3,3,09,68,45,114,44*57
$GAGSV,3,1,11,14,73,271,,21,31,198,34,31,20,319,38,03,14,039,22*65
$GAGSV,3,2,11,33,16,260,31,08,23,089,32,13,55,060,43,23,48,265,*6E
$GAGSV,3,3,11,26,64,277,48,15,05,073,,07,09,139,*50
$GBGSV,5,1,20,28,83,012,50,60,11,108,,50,10,034,,46,20,284,*68
$GBGSV,5,2,20,41,21,174,39,37,11,231,24,05,23,128,,58,23,265,*60
$GBGSV,5,3,20,08,20,039,27,43,25,103,34,57,25,232,,13,28,044,30*62
$GBGSV,5,4,20,27,41,292,31,42,30,050,37,33,50,121,44,14,46,079,41*6C
$GBGSV,5,5,20,36,07,332,21,11,04,102,,02,08,105,,38,07,042,*69
$GPGGA,204452.00,,,,,0,00,,,M,,M,,*4D
$PTNL,GGK,204452.00,010125,4742.4467781,N,01617.9734734,E,1,17,1.4,EHT668.3496,M*4E
$GPGGQ,204452.00,010125,4742.4467781,N,01617.9734734,E,1,17,9.416,625.1386,M*32
$GPGFA,204452.00,35.510,67.984,3.735,2.445,7.782,8.291,,VVV*0D
$GPLLK,204452.00,010125,,M,,M,1,17,1.7,,M*0E
$GNGMP,204452.00,,,,,DAAA,17,0.8,,,,*5D
$GPGMP,204452.00,,,,,,03,,,,3.3,123*7B
$GLGMP,204452.00,,,,,,05,,,,,*7F
$GAGMP,204452.00,,,,,,03,,,,,*74
$GBGMP,204452.00,,,,,,06,,,,,*72
$PSSN,SNC,[0,333910000,2347]*4F
$GPZDA,204457.00,01,01,2025,,*63
$GPDTM,W84,,00.0000000,N,00.0000000,E,00.0000000,W84*5F
$GPRMC,204457.00,A,4742.4467782,N,01617.9734636,E,0.0,,010125,5.1,E,D*1F
$GPGLL,4742.4467782,N,01617.9734636,E,204457.00,A,D*6E
$GPGGA,204457.00,4742.4467782,N,01617.9734636,E,2,15,0.8,625.1345,M,43.2111,M,1.7,0123*4F
$GNGNS,204457.00,4742.4467782,N,01617.9734636,E,DAAA,15,0.8,625.1345,43.2111,,*55
$GPGNS,204457.00,,,,,,03,,,,1.7,123*78
$GLGNS,204457.00,,,,,,03,,,,,*7C
$GAGNS,204457.00,,,,,,03,,,,,*71
$GBGNS,204457.00,,,,,,06,,,,,*77
$GPLLQ,204457.00,010125,,M,,M,1,15,10.892,,M*27
$GPVTG,,T,,M,0.01,N,0.01,K,D*26
$GPHDT,,T*1B
$GPTHS,,V*0E
$GPROT,,V*08
$PSSN,HRP,204457.00,010125,,,,,,,00,0,,*61
$PTNL,AVR,204457.00,,Yaw,,Tilt,,,,0,,00*37
$GPGSA,A,3,10,23,27,,,,,,,,,,1.5,0.8,1.2*38
$GPGSA,A,3,68,74,75,,,,,,,,,,1.5,0.8,1.2*32
$GPGSA,A,3,13,26,31,,,,,,,,,,1.5,0.8,1.2*39
$GPGSA,A,3,14,27,28,33,41,42,,,,,,,1.5,0.8,1.2*34
$GPGST,204457.00,8.075,4.304,2.770,10.804,4.259,2.838,9.614*60
$GPGBS,204457.00,24.097,13.299,56.752,74,0.0001,-11.231,6.126*78
$GPGRS,204457.00,1,0.2,0.2,-0.3,,,,,,,,,*4E
$GPGRS,204457.00,1,4.6,-11.2,-9.5,,,,,,,,,*5C
$GPGRS,204457.00,1,-0.1,-0.4,0.1,,,,,,,,,*64
$GPGRS,204457.00,1,-0.1,14.8,-2.9,-1.7,-2.2,7.1,,,,,,*79
$GPGSV,4,1,16,27,84,183,50,18,12,076,21,32,12,142,,21,28,271,27*78
$GPGSV,4,2,16,16,30,198,36,23,42,054,44,08,54,300,35,10,72,125,45*70
$GPGSV,4,3,16,26,05,184,,02,09,267,26,30,00,322,20,15,07,031,*7A
$GPGSV,4,4,16,36,35,170,41,34,31,208,,49,34,195,36,61,03,257,*77
$GLGSV,3,1,09,83,55,056,34,75,19,332,42,82,18,086,33,69,15,161,*6F
$GLGSV,3,2,09,73,17,229,,74,33,275,38,67,35,045,27,84,42,300,29*6F
$GLGSV,3,3,09,68,45,114,44*57
$GAGSV,3,1,11,14,73,271,,21,31,198,35,31,20,319,38,03,14,039,20*66
$GAGSV,3,2,11,33,16,260,31,08,23,089,25,13,55,060,42,23,48,265,*69
$GAGSV,3,3,11,26,64,277,47,15,05,073,,07,09,139,*5F
$GBGSV,5,1,20,28,83,013,50,60,11,108,,50,10,034,,46,20,284,*69
$GBGSV,5,2,20,41,21,174,39,37,11,231,22,05,23,128,,58,23,265,*66
$GBGSV,5,3,20,08,20,039,26,43,25,103,30,57,25,232,,13,28,044,30*67
$GBGSV,5,4,20,27,41,292,38,42,30,050,36,33,50,121,44,14,46,079,41*64
$GBGSV,5,5,20,36,07,332,,11,04,102,,02,08,105,,38,07,042,*6A
$GPGGA,204457.00,,,,,0,00,,,M,,M,,*48
$PTNL,GGK,204457.00,010125,4742.4467782,N,01617.9734636,E,1,15,1.5,EHT668.3456,M*44
$GPGGQ,204457.00,010125,4742.4467782,N,01617.9734636,E,1,15,10.892,625.1345,M*02
$GPGFA,204457.00,40.920,78.838,4.304,2.770,10.804,9.614,,VVV*36
$GPLLK,204457.00,010125,,M,,M,1,15,1.7,,M*09
$GNGMP,204457.00,,,,,DAAA,15,0.8,,,,*5A
$GPGMP,204457.00,,,,,,03,,,,1.7,123*78
$GLGMP,204457.00,,,,,,03,,,,,*7C
$GAGMP,204457.00,,,,,,03,,,,,*71
$GBGMP,204457.00,,,,,,06,,,,,*77
$PSSN,SNC,[0,333915000,2347]*4A
$GPZDA,204502.00,01,01,2025,,*62
$GPDTM,W84,,00.0000000,N,00.0000000,E,00.0000000,W84*5F
$GPRMC,204502.00,A,4742.4467764,N,01617.9734639,E,0.0,,010125,5.1,E,D*19
$GPGLL,4742.4467764,N,01617.9734639,E,204502.00,A,D*68
$GPGGA,204502.00,4742.4467764,N,01617.9734639,E,2,16,0.8,625.1381,M,43.2111,M,2.7,0123*41
$GNGNS,204502.00,4742.4467764,N,01617.9734639,E,DAAA,16,0.8,625.1381,43.2111,,*58
$GPGNS,204502.00,,,,,,03,,,,2.7,123*7A
$GLGNS,204502.00,,,,,,04,,,,,*7A
$GAGNS,204502.00,,,,,,04,,,,,*77
$GBGNS,204502.00,,,,,,05,,,,,*75
$GPLLQ,204502.00,010125,,M,,M,1,16,7.372,,M*16
$GPVTG,,T,,M,0.00,N,0.00,K,D*26
$GPHDT,,T*1B
$GPTHS,,V*0E
$GPROT,,V*08
$PSSN,HRP,204502.00,010125,,,,,,,00,0,,*60
$PTNL,AVR,204502.00,,Yaw,,Tilt,,,,0,,00*36
$GPGSA,A,3,10,23,27,,,,,,,,,,1.4,0.8,1.2*39
$GPGSA,A,3,68,73,74,75,,,,,,,,,1.4,0.8,1.2*37
$GPGSA,A,3,13,21,26,31,,,,,,,,,1.4,0.8,1.2*3B
$GPGSA,A,3,14,27,28,33,41,,,,,,,,1.4,0.8,1.2*33
$GPGST,204502.00,6.970,2.840,2.475,343.221,2.811,2.507,6.337*5A
$GPGBS,204502.00,12.899,11.422,43.047,27,0.0001,14.795,8.549*5F
$GPGRS,204502.00,1,0.2,0.5,-0.3,,,,,,,,,*48
$GPGRS,204502.00,1,5.2,-6.7,-9.8,-5.9,,,,,,,,*69
$GPGRS,204502.00,1,0.1,1.0,-0.4,-0.9,,,,,,,,*42
$GPGRS,204502.00,1,-1.0,14.8,-3.0,-1.1,-1.5,,,,,,,*5A
$GPGSV,4,1,16,27,84,183,50,18,12,076,,32,12,141,,21,28,271,28*77
$GPGSV,4,2,16,16,30,198,33,23,42,054,44,08,54,300,33,10,72,125,45*73
$GPGSV,4,3,16,26,05,184,,02,09,267,,30,00,322,23,15,07,030,*7C
$GPGSV,4,4,16,36,35,170,41,34,31,208,,49,34,195,36,61,03,257,*77
$GLGSV,3,1,09,83,55,056,34,75,19,332,44,82,18,086,31,69,15,161,*6B
$GLGSV,3,2,09,73,17,229,37,74,33,275,38,67,35,045,28,84,42,300,30*6C
$GLGSV,3,3,09,68,45,114,44*57
$GAGSV,3,1,11,14,73,271,,21,31,198,37,31,20,319,38,03,14,039,*66
$GAGSV,3,2,11,33,16,260,31,08,23,089,27,13,55,060,42,23,48,265,*6B
$GAGSV,3,3,11,26,64,277,47,15,05,073,,07,09,139,*5F
$GBGSV,5,1,20,28,83,013,50,60,11,108,,50,10,034,,46,20,283,*6E
$GBGSV,5,2,20,41,21,174,39,37,11,231,25,05,23,128,,58,23,265,*61
$GBGSV,5,3,20,08,20,039,27,43,25,103,30,57,25,232,,13,28,044,27*60
$GBGSV,5,4,20,27,41,292,38,42,30,050,34,33,50,121,44,14,46,079,41*66
$GBGSV,5,5,20,36,07,332,,11,04,102,,02,08,105,,38,07,042,*6A
$GPGGA,204502.00,,,,,0,00,,,M,,M,,*49
$PTNL,GGK,204502.00,010125,4742.4467764,N,01617.9734639,E,1,16,1.4,EHT668.3491,M*4B
$GPGGQ,204502.00,010125,4742.4467764,N,01617.9734639,E,1,16,7.372,625.1381,M*3C
$GPGFA,204502.00,27.002,51.962,2.840,2.475,343.221,6.337,,VVV*02
$GPLLK,204502.00,010125,,M,,M,1,16,1.7,,M*0B
$GNGMP,204502.00,,,,,DAAA,16,0.8,,,,*58
$GPGMP,204502.00,,,,,,03,,,,2.7,123*7A
$GLGMP,204502.00,,,,,,04,,,,,*7A
$GAGMP,204502.00,,,,,,04,,,,,*77
$GBGMP,204502.00,,,,,,05,,,,,*75
$PSSN,SNC,[0,333920000,2347]*4C
$GPZDA,204507.00,01,01,2025,,*67
$GPDTM,W84,,00.0000000,N,00.0000000,E,00.0000000,W84*5F
$GPRMC,204507.00,A,4742.4467761,N,01617.9734561,E,0.0,,010125,5.1,E,D*17
$GPGLL,4742.4467761,N,01617.9734561,E,204507.00,A,D*66
$GPGGA,204507.00,4742.4467761,N,01617.9734561,E,2,16,0.7,625.1373,M,43.2111,M,2.3,0123*49
$GNGNS,204507.00,4742.4467761,N,01617.9734561,E,DAAA,16,0.7,625.1373,43.2111,,*54
$GPGNS,204507.00,,,,,,03,,,,2.3,123*7B
$GLGNS,204507.00,,,,,,03,,,,,*78
$GAGNS,204507.00,,,,,,04,,,,,*72
$GBGNS,204507.00,,,,,,06,,,,,*73
$GPLLQ,204507.00,010125,,M,,M,1,16,6.970,,M*1A
$GPVTG,,T,,M,0.01,N,0.01,K,D*26
$GPHDT,,T*1B
$GPTHS,,V*0E
$GPROT,,V*08
$PSSN,HRP,204507.00,010125,,,,,,,00,0,,*65
$PTNL,AVR,204507.00,,Yaw,,Tilt,,,,0,,00*33
$GPGSA,A,3,10,23,27,,,,,,,,,,1.4,0.7,1.2*36
$GPGSA,A,3,68,74,75,,,,,,,,,,1.4,0.7,1.2*3C
$GPGSA,A,3,13,21,26,31,,,,,,,,,1.4,0.7,1.2*34
$GPGSA,A,3,14,27,28,33,41,42,,,,,,,1.4,0.7,1.2*3A
$GPGST,204507.00,5.209,2.619,2.126,11.059,2.603,2.146,6.100*6B
$GPGBS,204507.00,16.266,12.212,43.918,74,0.0001,-10.347,6.128*78
$GPGRS,204507.00,1,0.1,0.4,-0.2,,,,,,,,,*4E
$GPGRS,204507.00,1,7.1,-10.3,-3.8,,,,,,,,,*5B
$GPGRS,204507.00,1,0.5,0.6,0.0,-2.1,,,,,,,,*67
$GPGRS,204507.00,1,-1.9,6.5,-2.6,0.1,-1.4,-3.6,,,,,,*44
$GPGSV,4,1,16,27,84,183,49,18,12,076,19,32,12,141,,21,28,271,26*79
$GPGSV,4,2,16,16,30,198,30,23,42,054,44,08,55,300,31,10,72,125,46*70
$GPGSV,4,3,16,26,05,184,,02,09,268,,30,00,322,21,15,07,030,*71
$GPGSV,4,4,16,36,35,170,41,34,31,208,,49,34,195,36,61,03,257,*77
$GLGSV,3,1,09,83,55,056,35,75,19,332,44,82,18,086,29,69,15,161,*63
$GLGSV,3,2,09,73,17,229,36,74,33,275,37,67,35,045,35,84,42,300,31*6F
$GLGSV,3,3,09,68,45,114,45*56
$GAGSV,3,1,11,14,73,271,,21,31,198,38,31,20,319,37,03,14,038,*67
$GAGSV,3,2,11,33,16,260,30,08,23,089,24,13,55,060,42,23,48,265,*69
$GAGSV,3,3,11,26,64,277,47,15,05,073,,07,09,139,*5F
$GBGSV,5,1,20,28,83,013,49,60,11,108,,50,10,034,,46,20,283,*66
$GBGSV,5,2,20,41,21,174,39,37,11,231,25,05,23,128,,58,23,265,*61
$GBGSV,5,3,20,08,20,039,28,43,25,103,33,57,25,232,,13,28,044,26*6D
$GBGSV,5,4,20,27,41,292,39,42,30,050,39,33,50,121,44,14,46,079,41*6A
$GBGSV,5,5,20,36,07,332,25,11,04,102,,02,08,105,,38,07,042,*6D
$GPGGA,204507.00,,,,,0,00,,,M,,M,,*4C
$PTNL,GGK,204507.00,010125,4742.4467761,N,01617.9734561,E,1,16,1.4,EHT668.3483,M*46
$GPGGQ,204507.00,010125,4742.4467761,N,01617.9734561,E,1,16,6.970,625.1373,M*36
$GPGFA,204507.00,24.901,50.017,2.619,2.126,11.059,6.100,,VVV*3A
$GPLLK,204507.00,010125,,M,,M,1,16,1.6,,M*0F
$GNGMP,204507.00,,,,,DAAA,16,0.7,,,,*52
$GPGMP,204507.00,,,,,,03,,,,2.3,123*7B
$GLGMP,204507.00,,,,,,03,,,,,*78
$GAGMP,204507.00,,,,,,04,,,,,*72
$GBGMP,204507.00,,,,,,06,,,,,*73
$PSSN,SNC,[0,333925000,2347]*49
$GPZDA,204512.00,01,01,2025,,*63
$GPDTM,W84,,00.0000000,N,00.0000000,E,00.0000000,W84*5F
$GPRMC,204512.00,A,4742.4467742,N,01617.9734535,E,0.0,,010125,5.1,E,D*13
$GPGLL,4742.4467742,N,01617.9734535,E,204512.00,A,D*62
$GPGGA,204512.00,4742.4467742,N,01617.9734535,E,2,16,0.7,625.1435,M,43.2111,M,3.3,0123*49
$GNGNS,204512.00,4742.4467742,N,01617.9734535,E,DAAA,16,0.7,625.1435,43.2111,,*55
$GPGNS,204512.00,,,,,,03,,,,3.3,123*7E
$GLGNS,204512.00,,,,,,04,,,,,*7B
$GAGNS,204512.00,,,,,,04,,,,,*76
$GBGNS,204512.00,,,,,,05,,,,,*74
$GPLLQ,204512.00,010125,,M,,M,1,16,7.669,,M*18
$GPVTG,,T,,M,0.00,N,0.00,K,D*26
$GPHDT,,T*1B
$GPTHS,,V*0E
$GPROT,,V*08
$PSSN,HRP,204512.00,010125,,,,,,,00,0,,*61
$PTNL,AVR,204512.00,,Yaw,,Tilt,,,,0,,00*37
$GPGSA,A,3,10,23,27,,,,,,,,,,1.4,0.7,1.2*36
$GPGSA,A,3,67,68,74,75,,,,,,,,,1.4,0.7,1.2*3D
$GPGSA,A,3,13,21,26,31,,,,,,,,,1.4,0.7,1.2*34
$GPGSA,A,3,14,27,28,33,41,,,,,,,,1.4,0.7,1.2*3C
$GPGST,204512.00,6.052,2.937,2.389,0.561,2.937,2.390,6.669*53
$GPGBS,204512.00,15.509,11.207,40.452,68,0.0001,12.371,6.084*56
$GPGRS,204512.00,1,0.4,0.1,-0.3,,,,,,,,,*4B
$GPGRS,204512.00,1,3.3,12.4,-10.3,-4.3,,,,,,,,*4C
$GPGRS,204512.00,1,0.4,0.6,-0.2,-2.7,,,,,,,,*4B
$GPGRS,204512.00,1,-2.6,-3.7,-2.6,-0.1,-2.3,,,,,,,*49
$GPGSV,4,1,16,27,84,183,48,18,12,076,,32,12,141,,21,28,271,28*7E
$GPGSV,4,2,16,16,30,198,25,23,42,054,43,08,55,300,34,10,72,125,46*76
$GPGSV,4,3,16,26,05,184,,02,09,268,,30,00,322,22,15,07,030,*72
$GPGSV,4,4,16,36,35,170,41,34,31,208,,49,34,195,37,61,03,257,*76
$GLGSV,3,1,09,83,55,056,34,75,19,332,44,82,18,086,24,69,15,161,*6F
$GLGSV,3,2,09,73,17,229,35,74,33,275,38,67,35,045,37,84,42,300,32*62
$GLGSV,3,3,09,68,45,114,45*56
$GAGSV,3,1,11,14,73,271,,21,31,198,39,31,20,319,36,03,14,038,*67
$GAGSV,3,2,11,33,16,260,26,08,23,089,24,13,55,060,42,23,48,265,*6E
$GAGSV,3,3,11,26,64,277,47,15,05,073,,07,09,139,*5F
$GBGSV,5,1,20,28,83,013,49,60,11,108,,50,10,034,,46,20,283,*66
$GBGSV,5,2,20,41,21,174,38,37,11,231,27,05,23,128,,58,23,265,*62
$GBGSV,5,3,20,08,20,040,26,43,25,103,33,57,25,232,,13,28,044,26*6D
$GBGSV,5,4,20,27,41,292,38,42,30,050,40,33,50,121,44,14,46,079,42*66
$GBGSV,5,5,20,36,07,332,27,11,04,102,,02,08,105,,38,07,042,*6F
$GPGGA,204512.00,,,,,0,00,,,M,,M,,*48
$PTNL,GGK,204512.00,010125,4742.4467742,N,01617.9734535,E,1,16,1.4,EHT668.3545,M*49
$GPGGQ,204512.00,010125,4742.4467742,N,01617.9734535,E,1,16,7.669,625.1435,M*31
$GPGFA,204512.00,27.924,54.683,2.937,2.389,0.561,6.669,,VVV*07
$GPLLK,204512.00,010125,,M,,M,1,16,1.7,,M*0A
$GNGMP,204512.00,,,,,DAAA,16,0.7,,,,*56
$GPGMP,204512.00,,,,,,03,,,,3.3,123*7E
$GLGMP,204512.00,,,,,,04,,,,,*7B
$GAGMP,204512.00,,,,,,04,,,,,*76
$GBGMP,204512.00,,,,,,05,,,,,*74
$PSSN,SNC,[0,333930000,2347]*4D
$GPZDA,204517.00,01,01,2025,,*66
$GPDTM,W84,,00.0000000,N,00.0000000,E,00.0000000,W84*5F
$GPRMC,204517.00,A,4742.4467793,N,01617.9734535,E,0.0,,010125,5.1,E,D*1A
$GPGLL,4742.4467793,N,01617.9734535,E,204517.00,A,D*6B
$GPGGA,204517.00,4742.4467793,N,01617.9734535,E,2,17,0.7,625.1385,M,43.2111,M,2.0,0123*4F
$GNGNS,204517.00,4742.4467793,N,01617.9734535,E,DAAA,17,0.7,625.1385,43.2111,,*51
$GPGNS,204517.00,,,,,,04,,,,2.0,123*7E
$GLGNS,204517.00,,,,,,03,,,,,*79
$GAGNS,204517.00,,,,,,03,,,,,*74
$GBGNS,204517.00,,,,,,07,,,,,*73
$GPLLQ,204517.00,010125,,M,,M,1,17,12.039,,M*2B
$GPVTG,,T,,M,0.01,N,0.01,K,D*26
$GPHDT,,T*1B
$GPTHS,,V*0E
$GPROT,,V*08
$PSSN,HRP,204517.00,010125,,,,,,,00,0,,*64
$PTNL,AVR,204517.00,,Yaw,,Tilt,,,,0,,00*32
$GPGSA,A,3,08,10,23,27,,,,,,,,,1.4,0.7,1.2*3E
$GPGSA,A,3,68,74,75,,,,,,,,,,1.4,0.7,1.2*3C
$GPGSA,A,3,13,21,26,,,,,,,,,,1.4,0.7,1.2*36
$GPGSA,A,3,14,27,28,33,41,42,43,,,,,,1.4,0.7,1.2*3D
$GPGST,204517.00,11.668,5.097,1.553,9.366,5.035,1.742,10.796*53
$GPGBS,204517.00,16.868,5.591,35.826,43,0.0001,28.762,8.644*68
$GPGRS,204517.00,1,1.5,0.9,-1.4,-0.8,,,,,,,,*4B
$GPGRS,204517.00,1,17.2,-9.4,-8.1,,,,,,,,,*55
$GPGRS,204517.00,1,-0.1,0.6,-0.7,,,,,,,,,*65
$GPGRS,204517.00,1,-3.0,-5.2,-3.0,-0.8,-4.0,-4.3,28.8,,,,,*5B
$GPGSV,4,1,16,27,84,182,48,18,12,076,21,32,12,141,,21,28,271,31*74
$GPGSV,4,2,16,16,30,198,21,23,42,054,41,08,55,300,36,10,72,125,47*73
$GPGSV,4,3,16,26,05,184,,02,10,268,25,30,00,321,22,15,07,030,*7E
$GPGSV,4,4,16,36,35,170,41,34,31,208,,49,34,195,37,61,03,257,*76
$GLGSV,3,1,09,83,55,056,32,75,19,332,43,82,18,086,23,69,15,161,*69
$GLGSV,3,2,09,73,17,229,33,74,33,275,39,67,35,045,34,84,42,300,30*64
$GLGSV,3,3,09,68,45,114,41*52
$GAGSV,3,1,11,14,73,271,,21,31,198,40,31,20,319,34,03,14,038,*6B
$GAGSV,3,2,11,33,16,260,33,08,23,089,19,23,48,265,,13,55,060,42*64
$GAGSV,3,3,11,26,64,277,47,15,05,073,,07,10,139,*57
$GBGSV,5,1,20,28,83,014,49,60,11,108,,50,10,034,,46,20,283,*61
$GBGSV,5,2,20,41,21,174,37,37,11,231,28,05,23,128,,58,23,265,*62
$GBGSV,5,3,20,08,20,040,26,43,25,103,36,57,25,232,,13,28,044,24*6A
$GBGSV,5,4,20,27,41,292,38,42,30,050,40,33,50,121,45,14,46,079,42*67
$GBGSV,5,5,20,36,07,332,29,11,04,102,,02,08,105,,38,07,042,*61
$GPGGA,204517.00,,,,,0,00,,,M,,M,,*4D
$PTNL,GGK,204517.00,010125,4742.4467793,N,01617.9734535,E,1,17,1.4,EHT668.3496,M*4E
$GPGGQ,204517.00,010125,4742.4467793,N,01617.9734535,E,1,17,12.039,625.1385,M*02
$GPGFA,204517.00,48.462,88.527,5.097,1.553,9.366,10.796,,VVV*30
$GPLLK,204517.00,010125,,M,,M,1,17,1.6,,M*0F
$GNGMP,204517.00,,,,,DAAA,17,0.7,,,,*52
$GPGMP,204517.00,,,,,,04,,,,2.0,123*7E
$GLGMP,204517.00,,,,,,03,,,,,*79
$GAGMP,204517.00,,,,,,03,,,,,*74
$GBGMP,204517.00,,,,,,07,,,,,*73
$PSSN,SNC,[0,333935000,2347]*48
$GPZDA,204522.00,01,01,2025,,*60
$GPDTM,W84,,00.0000000,N,00.0000000,E,00.0000000,W84*5F
$GPRMC,204522.00,A,4742.4467863,N,01617.9734636,E,0.0,,010125,5.1,E,D*1C
$GPGLL,4742.4467863,N,01617.9734636,E,204522.00,A,D*6D
$GPGGA,204522.00,4742.4467863,N,01617.9734636,E,2,17,0.7,625.1366,M,43.2111,M,3.0,0123*45
$GNGNS,204522.00,4742.4467863,N,01617.9734636,E,DAAA,17,0.7,625.1366,43.2111,,*5A
$GPGNS,204522.00,,,,,,04,,,,3.0,123*79
$GLGNS,204522.00,,,,,,03,,,,,*7F
$GAGNS,204522.00,,,,,,04,,,,,*75
$GBGNS,204522.00,,,,,,06,,,,,*74
$GPLLQ,204522.00,010125,,M,,M,1,17,12.576,,M*23
$GPVTG,,T,,M,0.01,N,0.01,K,D*26
$GPHDT,,T*1B
$GPTHS,,V*0E
$GPROT,,V*08
$PSSN,HRP,204522.00,010125,,,,,,,00,0,,*62
$PTNL,AVR,204522.00,,Yaw,,Tilt,,,,0,,00*34
$GPGSA,A,3,08,10,23,27,,,,,,,,,1.3,0.7,1.1*3A
$GPGSA,A,3,68,74,75,,,,,,,,,,1.3,0.7,1.1*38
$GPGSA,A,3,13,21,26,33,,,,,,,,,1.3,0.7,1.1*32
$GPGSA,A,3,14,27,28,33,41,43,,,,,,,1.3,0.7,1.1*3F
$GPGST,204522.00,10.487,5.394,1.753,8.426,5.342,1.906,11.224*57
$GPGBS,204522.00,14.583,5.386,30.058,43,0.0001,26.817,8.644*63
$GPGRS,204522.00,1,0.6,1.7,-1.8,-1.0,,,,,,,,*45
$GPGRS,204522.00,1,12.2,-9.7,-8.8,,,,,,,,,*5C
$GPGRS,204522.00,1,-0.6,0.8,-0.7,2.2,,,,,,,,*44
$GPGRS,204522.00,1,-3.2,-1.2,-3.1,-0.5,-5.0,26.8,,,,,,*5C
$GPGSV,4,1,16,27,84,182,48,18,12,076,19,32,12,141,,21,28,271,31*7F
$GPGSV,4,2,16,16,29,198,21,23,42,054,38,08,55,300,36,10,72,125,47*75
$GPGSV,4,3,16,26,05,184,,02,10,268,,30,00,321,23,15,07,030,*78
$GPGSV,4,4,16,36,35,170,41,34,31,208,,49,34,195,38,61,03,257,*79
$GLGSV,3,1,09,83,54,056,33,75,19,332,42,82,18,086,20,69,15,161,*6B
$GLGSV,3,2,09,73,17,229,31,74,33,275,38,67,35,045,36,84,42,300,26*62
$GLGSV,3,3,09,68,45,114,34*50
$GAGSV,3,1,11,14,73,271,,21,31,198,41,31,20,319,34,03,14,038,*6A
$GAGSV,3,2,11,33,16,260,19,08,23,089,24,13,55,060,42,23,48,265,*62
$GAGSV,3,3,11,26,64,277,48,15,05,073,,07,10,139,*58
$GBGSV,5,1,20,28,83,014,49,60,11,108,,50,10,034,,05,23,128,*67
$GBGSV,5,2,20,37,11,231,28,46,20,283,,41,21,174,38,58,23,265,*6B
$GBGSV,5,3,20,08,20,040,26,43,25,103,36,57,25,232,,13,28,044,26*68
$GBGSV,5,4,20,27,41,292,38,42,30,050,31,33,50,121,46,14,46,079,42*62
$GBGSV,5,5,20,36,07,332,30,38,06,042,,02,08,105,,11,04,102,*68
$GPGGA,204522.00,,,,,0,00,,,M,,M,,*4B
$PTNL,GGK,204522.00,010125,4742.4467863,N,01617.9734636,E,1,17,1.3,EHT668.3477,M*40
$GPGGQ,204522.00,010125,4742.4467863,N,01617.9734636,E,1,17,12.576,625.1366,M*07
$GPGFA,204522.00,51.287,92.038,5.394,1.753,8.426,11.224,,VVV*3E
$GPLLK,204522.00,010125,,M,,M,1,17,1.6,,M*09
$GNGMP,204522.00,,,,,DAAA,17,0.7,,,,*54
$GPGMP,204522.00,,,,,,04,,,,3.0,123*79
$GLGMP,204522.00,,,,,,03,,,,,*7F
$GAGMP,204522.00,,,,,,04,,,,,*75
$GBGMP,204522.00,,,,,,06,,,,,*74
$PSSN,SNC,[0,333940000,2347]*4A
$GPZDA,204527.00,01,01,2025,,*65
$GPDTM,W84,,00.0000000,N,00.0000000,E,00.0000000,W84*5F
$GPRMC,204527.00,A,4742.4467911,N,01617.9734650,E,0.0,,010125,5.1,E,D*1D
$GPGLL,4742.4467911,N,01617.9734650,E,204527.00,A,D*6C
$GPGGA,204527.00,4742.4467911,N,01617.9734650,E,2,16,0.7,625.1260,M,43.2111,M,2.0,0123*43
$GNGNS,204527.00,4742.4467911,N,01617.9734650,E,DAAA,16,0.7,625.1260,43.2111,,*5D
$GPGNS,204527.00,,,,,,04,,,,2.0,123*7D
$GLGNS,204527.00,,,,,,03,,,,,*7A
$GAGNS,204527.00,,,,,,04,,,,,*70
$GBGNS,204527.00,,,,,,05,,,,,*72
$GPLLQ,204527.00,010125,,M,,M,1,16,7.227,,M*10
$GPVTG,,T,,M,0.00,N,0.01,K,D*27
$GPHDT,,T*1B
$GPTHS,,V*0E
$GPROT,,V*08
$PSSN,HRP,204527.00,010125,,,,,,,00,0,,*67
$PTNL,AVR,204527.00,,Yaw,,Tilt,,,,0,,00*31
$GPGSA,A,3,08,10,23,27,,,,,,,,,1.4,0.7,1.2*3E
$GPGSA,A,3,67,74,75,,,,,,,,,,1.4,0.7,1.2*33
$GPGSA,A,3,13,21,26,31,,,,,,,,,1.4,0.7,1.2*34
$GPGSA,A,3,14,27,28,33,41,,,,,,,,1.4,0.7,1.2*3C
$GPGST,204527.00,4.666,3.066,0.932,8.956,3.032,1.037,6.477*5F
$GPGBS,204527.00,16.793,5.258,35.701,10,0.0001,1.132,0.590*54
$GPGRS,204527.00,1,-0.1,1.1,-0.2,-0.5,,,,,,,,*63
$GPGRS,204527.00,1,-3.0,-10.3,-6.0,,,,,,,,,*7C
$GPGRS,204527.00,1,-0.4,0.8,-0.6,-0.3,,,,,,,,*6C
$GPGRS,204527.00,1,-2.1,1.6,-3.0,-0.8,-5.1,,,,,,,*6D
$GPGSV,4,1,16,27,84,182,50,18,12,076,20,32,12,141,,21,28,271,32*7F
$GPGSV,4,2,16,16,29,198,,23,42,054,37,08,55,300,37,10,72,125,47*78
$GPGSV,4,3,16,26,05,184,,02,10,268,24,30,00,321,27,15,07,030,*7A
$GPGSV,4,4,16,36,35,170,41,34,31,208,,49,34,195,37,61,03,257,*76
$GLGSV,3,1,09,83,54,056,34,75,19,332,44,82,18,086,31,69,15,161,*6A
$GLGSV,3,2,09,73,17,229,30,74,33,275,37,67,35,045,36,84,42,300,22*68
$GLGSV,3,3,09,68,45,114,38*5C
$GAGSV,3,1,11,14,73,271,,21,30,198,41,31,20,319,35,03,14,038,*6A
$GAGSV,3,2,11,33,16,260,28,08,23,089,26,13,55,060,41,23,48,265,*61
$GAGSV,3,3,11,26,64,278,48,15,05,073,,07,10,139,*57
$GBGSV,5,1,20,28,83,014,49,60,11,108,,50,10,034,,05,23,128,*67
$GBGSV,5,2,20,37,11,231,,46,20,283,,41,21,174,38,58,23,265,*61
$GBGSV,5,3,20,08,20,040,25,43,25,104,31,57,25,232,,13,28,044,29*64
$GBGSV,5,4,20,27,41,292,38,42,30,050,32,33,50,121,46,14,46,078,43*61
$GBGSV,5,5,20,36,07,332,31,38,06,042,20,02,08,105,,11,04,102,*6B
$GPGGA,204527.00,,,,,0,00,,,M,,M,,*4E
$PTNL,GGK,204527.00,010125,4742.4467911,N,01617.9734650,E,1,16,1.4,EHT668.3370,M*47
$GPGGQ,204527.00,010125,4742.4467911,N,01617.9734650,E,1,16,7.227,625.1260,M*37
$GPGFA,204527.00,29.152,53.112,3.066,0.932,8.956,6.477,,VVV*07
$GPLLK,204527.00,010125,,M,,M,1,16,1.6,,M*0D
$GNGMP,204527.00,,,,,DAAA,16,0.7,,,,*50
$GPGMP,204527.00,,,,,,04,,,,2.0,123*7D
$GLGMP,204527.00,,,,,,03,,,,,*7A
$GAGMP,204527.00,,,,,,04,,,,,*70
$GBGMP,204527.00,,,,,,05,,,,,*72
$PSSN,SNC,[0,333945000,2347]*4F
$GPZDA,204532.00,01,01,2025,,*61
$GPDTM,W84,,00.0000000,N,00.0000000,E,00.0000000,W84*5F
$GPRMC,204532.00,A,4742.4467969,N,01617.9734618,E,0.0,,010125,5.1,E,D*1A
$GPGLL,4742.4467969,N,01617.9734618,E,204532.00,A,D*6B
$GPGGA,204532.00,4742.4467969,N,01617.9734618,E,2,16,0.8,625.1213,M,43.2111,M,3.0,0123*4E
$GNGNS,204532.00,4742.4467969,N,01617.9734618,E,DAAA,16,0.8,625.1213,43.2111,,*51
$GPGNS,204532.00,,,,,,04,,,,3.0,123*78
$GLGNS,204532.00,,,,,,04,,,,,*79
$GAGNS,204532.00,,,,,,03,,,,,*73
$GBGNS,204532.00,,,,,,05,,,,,*76
$GPLLQ,204532.00,010125,,M,,M,1,16,6.565,,M*14
$GPVTG,,T,,M,0.01,N,0.02,K,D*25
$GPHDT,,T*1B
$GPTHS,,V*0E
$GPROT,,V*08
$PSSN,HRP,204532.00,010125,,,,,,,00,0,,*63
$PTNL,AVR,204532.00,,Yaw,,Tilt,,,,0,,00*35
$GPGSA,A,3,08,10,23,27,,,,,,,,,1.5,0.8,1.3*31
$GPGSA,A,3,67,68,74,75,,,,,,,,,1.5,0.8,1.3*32
$GPGSA,A,3,13,21,26,,,,,,,,,,1.5,0.8,1.3*39
$GPGSA,A,3,14,27,28,33,41,,,,,,,,1.5,0.8,1.3*33
$GPGST,204532.00,4.803,2.770,0.839,9.056,2.739,0.937,5.893*55
$GPGBS,204532.00,16.892,5.321,36.143,74,0.0001,-11.080,6.125*48
$GPGRS,204532.00,1,0.2,0.7,-0.7,-0.2,,,,,,,,*4C
$GPGRS,204532.00,1,1.9,-3.3,-11.1,-4.2,,,,,,,,*5E
$GPGRS,204532.00,1,-0.6,0.9,-0.6,,,,,,,,,*6B
$GPGRS,204532.00,1,-1.8,3.3,-3.4,-1.8,-4.6,,,,,,,*67
$GPGSV,4,1,16,27,84,182,50,18,12,076,18,32,12,141,,21,28,271,33*75
$GPGSV,4,2,16,16,29,198,,23,42,054,37,08,55,300,39,10,72,124,47*77
$GPGSV,4,3,16,26,05,184,,02,10,268,24,30,00,321,27,15,07,030,*7A
$GPGSV,4,4,16,36,35,170,41,34,31,208,,49,34,195,36,61,03,257,*77
$GLGSV,3,1,09,83,54,056,35,75,19,332,44,82,18,086,30,69,15,161,*6A
$GLGSV,3,2,09,73,17,229,26,74,33,275,38,67,35,045,41,84,42,300,*60
$GLGSV,3,3,09,68,45,114,37*53
$GAGSV,3,1,11,14,73,270,,21,30,198,41,31,20,319,35,03,14,038,*6B
$GAGSV,3,2,11,33,16,260,31,08,23,089,26,13,55,060,41,23,48,265,*69
$GAGSV,3,3,11,26,64,278,48,15,05,073,,07,10,139,*57
$GBGSV,5,1,20,28,83,015,48,60,11,108,,50,10,034,,05,23,128,*67
$GBGSV,5,2,20,37,11,231,,46,20,283,,41,21,174,38,58,23,265,*61
$GBGSV,5,3,20,08,20,040,27,43,25,104,31,57,25,232,,13,28,044,29*66
$GBGSV,5,4,20,27,41,292,37,42,30,050,33,33,50,121,45,14,46,078,43*6C
$GBGSV,5,5,20,36,07,331,31,38,06,042,,02,08,105,,11,04,102,*6A
$GPGGA,204532.00,,,,,0,00,,,M,,M,,*4A
$PTNL,GGK,204532.00,010125,4742.4467969,N,01617.9734618,E,1,16,1.5,EHT668.3324,M*40
$GPGGQ,204532.00,010125,4742.4467969,N,01617.9734618,E,1,16,6.565,625.1213,M*34
$GPGFA,204532.00,26.336,48.323,2.770,0.839,9.056,5.893,,VVV*00
$GPLLK,204532.00,010125,,M,,M,1,16,1.7,,M*08
$GNGMP,204532.00,,,,,DAAA,16,0.8,,,,*5B
$GPGMP,204532.00,,,,,,04,,,,3.0,123*78
$GLGMP,204532.00,,,,,,04,,,,,*79
$GAGMP,204532.00,,,,,,03,,,,,*73
$GBGMP,204532.00,,,,,,05,,,,,*76
$PSSN,SNC,[0,333950000,2347]*4B
$GPZDA,204537.00,01,01,2025,,*64
$GPDTM,W84,,00.0000000,N,00.0000000,E,00.0000000,W84*5F
$GPRMC,204537.00,A,4742.4467941,N,01617.9734740,E,0.0,,010125,5.1,E,D*19
$GPGLL,4742.4467941,N,01617.9734740,E,204537.00,A,D*68
$GPGGA,204537.00,4742.4467941,N,01617.9734740,E,2,16,0.7,625.1145,M,43.2111,M,1.7,0123*47
$GNGNS,204537.00,4742.4467941,N,01617.9734740,E,DAAA,16,0.7,625.1145,43.2111,,*5D
$GPGNS,204537.00,,,,,,03,,,,1.7,123*7F
$GLGNS,204537.00,,,,,,04,,,,,*7C
$GAGNS,204537.00,,,,,,04,,,,,*71
$GBGNS,204537.00,,,,,,05,,,,,*73
$GPLLQ,204537.00,010125,,M,,M,1,16,7.015,,M*12
$GPVTG,,T,,M,0.00,N,0.01,K,D*27
$GPHDT,,T*1B
$GPTHS,,V*0E
$GPROT,,V*08
$PSSN,HRP,204537.00,010125,,,,,,,00,0,,*66
$PTNL,AVR,204537.00,,Yaw,,Tilt,,,,0,,00*30
$GPGSA,A,3,10,23,27,,,,,,,,,,1.4,0.7,1.2*36
$GPGSA,A,3,67,68,74,75,,,,,,,,,1.4,0.7,1.2*3D
$GPGSA,A,3,13,21,26,31,,,,,,,,,1.4,0.7,1.2*34
$GPGSA,A,3,14,27,28,33,41,,,,,,,,1.4,0.7,1.2*3C
$GPGST,204537.00,5.181,2.716,2.215,0.188,2.716,2.215,6.077*5A
$GPGBS,204537.00,15.837,11.074,40.586,74,0.0001,-10.019,6.127*78
$GPGRS,204537.00,1,0.3,0.0,-0.7,,,,,,,,,*4E
$GPGRS,204537.00,1,7.0,-0.5,-10.0,-5.1,,,,,,,,*53
$GPGRS,204537.00,1,-0.9,0.9,-0.6,1.9,,,,,,,,*47
$GPGRS,204537.00,1,-2.4,2.7,-3.6,-3.5,-4.5,,,,,,,*66
$GPGSV,4,1,16,27,84,181,49,18,12,076,22,32,12,141,,21,28,271,35*71
$GPGSV,4,2,16,16,29,198,30,23,42,054,37,08,55,300,38,10,72,124,46*74
$GPGSV,4,3,16,26,05,184,20,02,10,268,28,30,00,321,26,15,07,030,*75
$GPGSV,4,4,16,36,35,170,41,34,31,208,,49,34,195,36,61,03,257,*77
$GLGSV,3,1,09,83,54,056,34,75,19,332,44,82,18,086,28,69,15,161,*62
$GLGSV,3,2,09,73,17,229,20,74,33,275,38,67,35,045,43,84,42,301,31*67
$GLGSV,3,3,09,68,45,114,38*5C
$GAGSV,3,1,11,14,73,270,,21,30,198,41,31,20,319,35,03,14,038,34*6C
$GAGSV,3,2,11,33,16,260,33,08,23,089,30,13,55,060,41,23,48,265,*6C
$GAGSV,3,3,11,26,64,278,48,15,05,073,,07,10,139,*57
$GBGSV,5,1,20,28,83,015,48,60,11,108,,50,10,034,,05,23,128,*67
$GBGSV,5,2,20,37,11,231,,46,20,283,,41,21,174,39,58,23,265,*60
$GBGSV,5,3,20,08,20,040,26,43,25,104,31,57,25,232,,13,28,044,25*6B
$GBGSV,5,4,20,27,41,292,36,42,30,050,34,33,50,121,44,14,46,078,42*6A
$GBGSV,5,5,20,36,07,331,28,38,06,042,,02,08,105,,11,04,102,*62
$GPGGA,204537.00,,,,,0,00,,,M,,M,,*4F
$PTNL,GGK,204537.00,010125,4742.4467941,N,01617.9734740,E,1,16,1.4,EHT668.3256,M*46
$GPGGQ,204537.00,010125,4742.4467941,N,01617.9734740,E,1,16,7.015,625.1145,M*34
$GPGFA,204537.00,25.818,49.831,2.716,2.215,0.188,6.077,,VVV*04
$GPLLK,204537.00,010125,,M,,M,1,16,1.7,,M*0D
$GNGMP,204537.00,,,,,DAAA,16,0.7,,,,*51
$GPGMP,204537.00,,,,,,03,,,,1.7,123*7F
$GLGMP,204537.00,,,,,,04,,,,,*7C
$GAGMP,204537.00,,,,,,04,,,,,*71
$GBGMP,204537.00,,,,,,05,,,,,*73
$PSSN,SNC,[0,333955000,2347]*4E
$GPZDA,204542.00,01,01,2025,,*66
$GPDTM,W84,,00.0000000,N,00.0000000,E,00.0000000,W84*5F
$GPRMC,204542.00,A,4742.4467888,N,01617.9734542,E,0.0,,010125,5.1,E,D*1F
$GPGLL,4742.4467888,N,01617.9734542,E,204542.00,A,D*6E
$GPGGA,204542.00,4742.4467888,N,01617.9734542,E,2,17,0.7,625.1215,M,43.2111,M,2.5,0123*47
$GNGNS,204542.00,4742.4467888,N,01617.9734542,E,DAAA,17,0.7,625.1215,43.2111,,*5C
$GPGNS,204542.00,,,,,,04,,,,2.5,123*7B
$GLGNS,204542.00,,,,,,04,,,,,*7E
$GAGNS,204542.00,,,,,,04,,,,,*73
$GBGNS,204542.00,,,,,,05,,,,,*71
$GPLLQ,204542.00,010125,,M,,M,1,17,5.281,,M*1C
$GPVTG,,T,,M,0.00,N,0.00,K,D*26
$GPHDT,,T*1B
$GPTHS,,V*0E
$GPROT,,V*08
$PSSN,HRP,204542.00,010125,,,,,,,00,0,,*64
$PTNL,AVR,204542.00,,Yaw,,Tilt,,,,0,,00*32
$GPGSA,A,3,10,21,23,27,,,,,,,,,1.4,0.7,1.2*35
$GPGSA,A,3,67,68,74,75,,,,,,,,,1.4,0.7,1.2*3D
$GPGSA,A,3,13,21,26,31,,,,,,,,,1.4,0.7,1.2*34
$GPGSA,A,3,14,27,28,33,41,,,,,,,,1.4,0.7,1.2*3C
$GPGST,204542.00,5.129,3.349,0.895,338.476,3.133,1.484,3.984*54
$GPGBS,204542.00,10.455,4.603,16.510,23,0.0001,1.262,0.746*5F
$GPGRS,204542.00,1,0.5,-1.3,1.3,-0.5,,,,,,,,*4B
$GPGRS,204542.00,1,8.3,1.3,-9.2,-4.8,,,,,,,,*45
$GPGRS,204542.00,1,-1.4,0.7,-0.3,2.0,,,,,,,,*48
$GPGRS,204542.00,1,-4.2,1.8,-3.5,-5.5,-3.5,,,,,,,*6A
$GPGSV,4,1,16,27,84,181,50,18,12,076,21,32,12,141,,21,28,271,36*79
$GPGSV,4,2,16,16,29,198,34,23,42,054,40,08,55,300,37,10,72,124,44*7D
$GPGSV,4,3,16,26,05,184,,02,10,268,31,30,00,321,,15,07,030,*7B
$GPGSV,4,4,16,36,35,170,40,34,31,208,,49,34,195,35,61,03,257,*75
$GLGSV,3,1,09,83,54,056,34,75,19,332,44,82,18,086,28,69,15,161,*62
$GLGSV,3,2,09,73,17,229,27,74,33,275,37,67,35,045,44,84,42,301,24*6C
$GLGSV,3,3,09,68,45,114,39*5D
$GAGSV,3,1,11,14,73,270,,21,30,198,39,31,20,319,35,03,14,038,35*62
$GAGSV,3,2,11,33,16,260,33,08,23,089,23,13,55,060,40,23,48,265,*6F
$GAGSV,3,3,11,26,64,278,48,15,05,073,,07,10,139,*57
$GBGSV,5,1,20,28,83,015,49,60,11,108,,50,10,034,,05,23,128,*66
$GBGSV,5,2,20,37,11,231,22,46,20,283,,41,21,174,39,58,23,265,*60
$GBGSV,5,3,20,08,20,040,26,43,25,104,28,57,25,232,,13,28,044,31*66
$GBGSV,5,4,20,27,41,292,36,42,30,050,30,33,50,121,42,14,46,078,40*6A
$GBGSV,5,5,20,36,07,331,27,38,06,042,,02,08,105,,11,04,102,*6D
$GPGGA,204542.00,,,,,0,00,,,M,,M,,*4D
$PTNL,GGK,204542.00,010125,4742.4467888,N,01617.9734542,E,1,17,1.4,EHT668.3326,M*47
$GPGGQ,204542.00,010125,4742.4467888,N,01617.9734542,E,1,17,5.281,625.1215,M*38
$GPGFA,204542.00,31.840,32.667,3.349,0.895,338.476,3.984,,VVV*0C
$GPLLK,204542.00,010125,,M,,M,1,17,1.7,,M*0E
$GNGMP,204542.00,,,,,DAAA,17,0.7,,,,*52
$GPGMP,204542.00,,,,,,04,,,,2.5,123*7B
$GLGMP,204542.00,,,,,,04,,,,,*7E
$GAGMP,204542.00,,,,,,04,,,,,*73
$GBGMP,204542.00,,,,,,05,,,,,*71
$PSSN,SNC,[0,333960000,2347]*48
$GPZDA,204547.00,01,01,2025,,*63
$GPDTM,W84,,00.0000000,N,00.0000000,E,00.0000000,W84*5F
$GPRMC,204547.00,A,4742.4467860,N,01617.9734413,E,0.0,,010125,5.1,E,D*19
$GPGLL,4742.4467860,N,01617.9734413,E,204547.00,A,D*68
$GPGGA,204547.00,4742.4467860,N,01617.9734413,E,2,19,0.6,625.1203,M,43.2111,M,2.6,0123*4A
$GNGNS,204547.00,4742.4467860,N,01617.9734413,E,DAAA,19,0.6,625.1203,43.2111,,*52
$GPGNS,204547.00,,,,,,05,,,,2.6,123*7C
$GLGNS,204547.00,,,,,,04,,,,,*7B
$GAGNS,204547.00,,,,,,04,,,,,*76
$GBGNS,204547.00,,,,,,06,,,,,*77
$GPLLQ,204547.00,010125,,M,,M,1,19,2.315,,M*1C
$GPVTG,,T,,M,0.01,N,0.02,K,D*25
$GPHDT,,T*1B
$GPTHS,,V*0E
$GPROT,,V*08
$PSSN,HRP,204547.00,010125,,,,,,,00,0,,*61
$PTNL,AVR,204547.00,,Yaw,,Tilt,,,,0,,00*37
$GPGSA,A,3,10,16,21,23,27,,,,,,,,1.3,0.6,1.2*34
$GPGSA,A,3,67,68,74,75,,,,,,,,,1.3,0.6,1.2*3B
$GPGSA,A,3,13,21,26,31,,,,,,,,,1.3,0.6,1.2*32
$GPGSA,A,3,14,27,28,33,41,42,,,,,,,1.3,0.6,1.2*3C
$GPGST,204547.00,5.138,1.151,0.786,320.374,1.019,0.952,1.848*56
$GPGBS,204547.00,5.403,4.606,8.079,10,0.0001,1.005,0.594*53
$GPGRS,204547.00,1,1.0,-0.2,0.3,0.3,-0.9,,,,,,,*6A
$GPGRS,204547.00,1,4.9,3.0,-10.2,-4.8,,,,,,,,*7F
$GPGRS,204547.00,1,-1.8,0.6,-0.4,-0.6,,,,,,,,*6E
$GPGRS,204547.00,1,-5.5,3.8,-3.4,-7.0,-3.6,-5.7,,,,,,*6F
$GPGSV,4,1,16,27,84,181,50,18,12,076,,32,12,141,,21,28,271,37*7B
$GPGSV,4,2,16,16,29,198,36,23,42,053,40,08,55,300,33,10,72,124,44*7C
$GPGSV,4,3,16,26,05,184,,02,10,268,30,30,00,321,,15,07,030,*7A
$GPGSV,4,4,16,36,35,170,40,34,31,208,,49,34,195,36,61,03,257,*76
$GLGSV,3,1,09,83,54,056,33,75,19,332,43,82,18,086,28,69,15,161,*62
$GLGSV,3,2,09,73,17,229,26,74,33,275,37,67,35,045,45,84,42,301,26*6E
$GLGSV,3,3,09,68,45,113,41*55
$GAGSV,3,1,11,14,73,270,,21,30,198,39,31,20,319,35,03,14,038,34*63
$GAGSV,3,2,11,33,16,260,33,08,23,089,25,13,55,060,40,23,48,265,*69
$GAGSV,3,3,11,26,64,278,47,15,05,073,,07,10,139,*58
$GBGSV,5,1,20,28,83,015,49,60,11,108,,50,10,034,,05,23,128,*66
$GBGSV,5,2,20,37,11,231,,46,20,283,,41,21,174,40,58,23,265,*6E
$GBGSV,5,3,20,08,20,040,24,43,25,104,25,57,25,232,,13,28,044,22*6B
$GBGSV,5,4,20,27,41,292,35,42,30,050,20,33,50,121,42,14,46,078,40*68
$GBGSV,5,5,20,36,07,331,24,38,06,042,,02,08,105,,11,04,102,*6E
$GPGGA,204547.00,,,,,0,00,,,M,,M,,*48
$PTNL,GGK,204547.00,010125,4742.4467860,N,01617.9734413,E,1,19,1.3,EHT668.3314,M*49
$GPGGQ,204547.00,010125,4742.4467860,N,01617.9734413,E,1,19,2.315,625.1203,M*3C
$GPGFA,204547.00,10.947,15.156,1.151,0.786,320.374,1.848,,VVV*07
$GPLLK,204547.00,010125,,M,,M,1,19,1.5,,M*07
$GNGMP,204547.00,,,,,DAAA,19,0.6,,,,*58
$GPGMP,204547.00,,,,,,05,,,,2.6,123*7C
$GLGMP,204547.00,,,,,,04,,,,,*7B
$GAGMP,204547.00,,,,,,04,,,,,*76
$GBGMP,204547.00,,,,,,06,,,,,*77
$PSSN,SNC,[0,333965000,2347]*4D
$GPZDA,204552.00,01,01,2025,,*67
$GPDTM,W84,,00.0000000,N,00.0000000,E,00.0000000,W84*5F
$GPRMC,204552.00,A,4742.4467868,N,01617.9734382,E,0.0,,010125,5.1,E,D*1A
$GPGLL,4742.4467868,N,01617.9734382,E,204552.00,A,D*6B
$GPGGA,204552.00,4742.4467868,N,01617.9734382,E,2,18,0.7,625.1136,M,43.2111,M,3.6,0123*4D
$GNGNS,204552.00,4742.4467868,N,01617.9734382,E,DAAA,18,0.7,625.1136,43.2111,,*54
$GPGNS,204552.00,,,,,,05,,,,3.6,123*79
$GLGNS,204552.00,,,,,,04,,,,,*7F
$GAGNS,204552.00,,,,,,03,,,,,*75
$GBGNS,204552.00,,,,,,06,,,,,*73
$GPLLQ,204552.00,010125,,M,,M,1,18,3.317,,M*1A
$GPVTG,,T,,M,0.00,N,0.01,K,D*27
$GPHDT,,T*1B
$GPTHS,,V*0E
$GPROT,,V*08
$PSSN,HRP,204552.00,010125,,,,,,,00,0,,*65
$PTNL,AVR,204552.00,,Yaw,,Tilt,,,,0,,00*33
$GPGSA,A,3,10,16,21,23,27,,,,,,,,1.4,0.7,1.2*32
$GPGSA,A,3,67,68,74,75,,,,,,,,,1.4,0.7,1.2*3D
$GPGSA,A,3,13,21,26,,,,,,,,,,1.4,0.7,1.2*36
$GPGSA,A,3,14,27,28,33,41,42,,,,,,,1.4,0.7,1.2*3A
$GPGST,204552.00,5.745,1.653,1.127,320.640,1.464,1.363,2.646*51
$GPGBS,204552.00,5.520,4.739,8.235,10,0.0001,2.019,0.607*57
$GPGRS,204552.00,1,2.0,-0.8,0.7,-0.7,-1.3,,,,,,,*41
$GPGRS,204552.00,1,1.3,4.8,-10.2,-6.8,,,,,,,,*79
$GPGRS,204552.00,1,-2.0,0.8,-0.9,,,,,,,,,*67
$GPGRS,204552.00,1,-4.2,7.8,-3.8,-5.8,-4.2,-5.6,,,,,,*6D
$GPGSV,4,1,16,27,84,181,49,18,12,076,,32,12,141,,21,28,271,37*73
$GPGSV,4,2,16,16,29,198,38,23,42,053,39,08,55,300,35,10,72,124,45*7B
$GPGSV,4,3,16,26,05,184,,02,10,268,31,30,00,321,20,15,07,030,*79
$GPGSV,4,4,16,36,35,170,41,34,31,208,,49,34,195,36,61,03,257,*77
$GLGSV,3,1,09,83,54,057,32,75,19,332,41,82,18,086,25,69,15,161,*6D
$GLGSV,3,2,09,73,17,229,22,74,33,275,35,67,35,045,45,84,42,301,26*68
$GLGSV,3,3,09,68,45,113,43*57
$GAGSV,3,1,11,14,73,270,,21,30,198,39,31,20,319,35,03,14,038,34*63
$GAGSV,3,2,11,33,16,260,33,08,23,089,25,13,55,060,39,23,48,265,*67
$GAGSV,3,3,11,26,64,278,47,15,05,073,,07,10,139,*58
$GBGSV,5,1,20,28,83,016,48,60,11,108,,37,11,231,19,05,23,128,*6B
$GBGSV,5,2,20,08,20,040,23,46,20,283,,41,21,174,40,58,23,265,*65
$GBGSV,5,3,20,43,25,104,25,13,28,044,25,57,25,232,,42,30,050,19*6C
$GBGSV,5,4,20,27,41,292,36,33,50,121,42,14,46,078,41,38,06,042,*63
$GBGSV,5,5,20,50,10,034,,36,07,331,27,02,08,105,,11,04,102,*65
$GPGGA,204552.00,,,,,0,00,,,M,,M,,*4C
$PTNL,GGK,204552.00,010125,4742.4467868,N,01617.9734382,E,1,18,1.4,EHT668.3246,M*4A
$GPGGQ,204552.00,010125,4742.4467868,N,01617.9734382,E,1,18,3.317,625.1136,M*38
$GPGFA,204552.00,15.712,21.696,1.653,1.127,320.640,2.646,,VVV*0C
$GPLLK,204552.00,010125,,M,,M,1,18,1.6,,M*01
$GNGMP,204552.00,,,,,DAAA,18,0.7,,,,*5C
$GPGMP,204552.00,,,,,,05,,,,3.6,123*79
$GLGMP,204552.00,,,,,,04,,,,,*7F
$GAGMP,204552.00,,,,,,03,,,,,*75
$GBGMP,204552.00,,,,,,06,,,,,*73
$PSSN,SNC,[0,333970000,2347]*49
$GPZDA,204557.00,01,01,2025,,*62
$GPDTM,W84,,00.0000000,N,00.0000000,E,00.0000000,W84*5F
$GPRMC,204557.00,A,4742.4467915,N,01617.9734376,E,0.0,,010125,5.1,E,D*1F
$GPGLL,4742.4467915,N,01617.9734376,E,204557.00,A,D*6E
$GPGGA,204557.00,4742.4467915,N,01617.9734376,E,2,17,0.7,625.1137,M,43.2111,M,1.4,0123*46
$GNGNS,204557.00,4742.4467915,N,01617.9734376,E,DAAA,17,0.7,625.1137,43.2111,,*5F
$GPGNS,204557.00,,,,,,05,,,,1.4,123*7C
$GLGNS,204557.00,,,,,,03,,,,,*7D
$GAGNS,204557.00,,,,,,04,,,,,*77
$GBGNS,204557.00,,,,,,05,,,,,*75
$GPLLQ,204557.00,010125,,M,,M,1,17,3.405,,M*14
$GPVTG,,T,,M,0.00,N,0.01,K,D*27
$GPHDT,,T*1B
$GPTHS,,V*0E
$GPROT,,V*08
$PSSN,HRP,204557.00,010125,,,,,,,00,0,,*60
$PTNL,AVR,204557.00,,Yaw,,Tilt,,,,0,,00*36
$GPGSA,A,3,10,16,21,23,27,,,,,,,,1.4,0.7,1.2*32
$GPGSA,A,3,67,68,75,,,,,,,,,,1.4,0.7,1.2*3E
$GPGSA,A,3,13,21,26,31,,,,,,,,,1.4,0.7,1.2*34
$GPGSA,A,3,14,27,28,33,41,,,,,,,,1.4,0.7,1.2*3C
$GPGST,204557.00,5.046,1.690,1.161,320.161,1.496,1.403,2.718*5F
$GPGBS,204557.00,5.272,4.582,8.152,10,0.0001,2.066,0.626*59
$GPGRS,204557.00,1,2.1,0.7,-0.2,-1.5,-1.3,,,,,,,*4C
$GPGRS,204557.00,1,1.2,7.0,-8.3,,,,,,,,,*43
$GPGRS,204557.00,1,-2.2,1.2,-0.8,-2.1,,,,,,,,*6A
$GPGRS,204557.00,1,-1.5,7.8,-4.0,-4.7,-3.8,,,,,,,*66
$GPGSV,4,1,16,27,84,181,48,18,12,076,,32,12,141,,21,28,271,38*7D
$GPGSV,4,2,16,16,29,198,40,23,42,053,39,08,55,300,32,10,72,124,47*71
$GPGSV,4,3,16,26,05,184,23,02,10,268,30,30,00,321,22,15,07,030,*7B
$GPGSV,4,4,16,36,35,170,41,34,31,208,,49,34,195,37,61,03,257,*76
$GLGSV,3,1,09,83,54,057,34,75,19,332,38,82,18,086,27,69,15,161,*67
$GLGSV,3,2,09,73,17,229,31,74,33,275,36,67,35,045,45,84,42,301,23*6C
$GLGSV,3,3,09,68,46,113,43*54
$GAGSV,3,1,11,14,73,270,,21,30,198,37,31,20,319,35,03,14,038,34*6D
$GAGSV,3,2,11,33,16,260,32,08,23,089,24,13,55,060,39,23,48,265,*67
$GAGSV,3,3,11,26,64,278,46,15,05,073,,07,10,139,*59
$GBGSV,5,1,20,28,83,016,47,60,11,108,,37,11,231,22,05,23,128,*6C
$GBGSV,5,2,20,08,20,040,22,46,20,283,,41,21,174,40,58,23,265,*64
$GBGSV,5,3,20,43,25,104,27,13,28,044,27,57,25,232,,42,30,049,29*67
$GBGSV,5,4,20,27,41,292,36,33,50,120,42,14,46,078,42,38,06,042,*61
$GBGSV,5,5,20,50,10,034,,36,07,331,27,02,08,105,,11,04,102,*65
$GPGGA,204557.00,,,,,0,00,,,M,,M,,*49
$PTNL,GGK,204557.00,010125,4742.4467915,N,01617.9734376,E,1,17,1.4,EHT668.3248,M*4E
$GPGGQ,204557.00,010125,4742.4467915,N,01617.9734376,E,1,17,3.405,625.1137,M*37
$GPGFA,204557.00,16.070,22.284,1.690,1.161,320.161,2.718,,VVV*0E
$GPLLK,204557.00,010125,,M,,M,1,17,1.6,,M*0B
$GNGMP,204557.00,,,,,DAAA,17,0.7,,,,*56
$GPGMP,204557.00,,,,,,05,,,,1.4,123*7C
$GLGMP,204557.00,,,,,,03,,,,,*7D
$GAGMP,204557.00,,,,,,04,,,,,*77
$GBGMP,204557.00,,,,,,05,,,,,*75
$PSSN,SNC,[0,333975000,2347]*4C
$GPZDA,204602.00,01,01,2025,,*61
$GPDTM,W84,,00.0000000,N,00.0000000,E,00.0000000,W84*5F
$GPRMC,204602.00,A,4742.4468149,N,01617.9734312,E,0.0,,010125,5.1,E,D*10
$GPGLL,4742.4468149,N,01617.9734312,E,204602.00,A,D*61
$GPGGA,204602.00,4742.4468149,N,01617.9734312,E,2,17,0.7,625.1112,M,43.2111,M,2.4,0123*4D
$GNGNS,204602.00,4742.4468149,N,01617.9734312,E,DAAA,17,0.7,625.1112,43.2111,,*57
$GPGNS,204602.00,,,,,,05,,,,2.4,123*7C
$GLGNS,204602.00,,,,,,04,,,,,*79
$GAGNS,204602.00,,,,,,03,,,,,*73
$GBGNS,204602.00,,,,,,05,,,,,*76
$GPLLQ,204602.00,010125,,M,,M,1,17,3.596,,M*1C
$GPVTG,,T,,M,0.01,N,0.03,K,D*24
$GPHDT,,T*1B
$GPTHS,,V*0E
$GPROT,,V*08
$PSSN,HRP,204602.00,010125,,,,,,,00,0,,*63
$PTNL,AVR,204602.00,,Yaw,,Tilt,,,,0,,00*35
$GPGSA,A,3,10,16,21,23,27,,,,,,,,1.5,0.7,1.3*32
$GPGSA,A,3,67,68,75,83,,,,,,,,,1.5,0.7,1.3*35
$GPGSA,A,3,13,21,26,,,,,,,,,,1.5,0.7,1.3*36
$GPGSA,A,3,14,27,28,33,41,,,,,,,,1.5,0.7,1.3*3C
$GPGST,204602.00,4.780,1.795,1.224,320.403,1.588,1.483,2.865*54
$GPGBS,204602.00,5.394,4.688,8.310,16,0.0001,2.288,0.807*57
$GPGRS,204602.00,1,1.7,2.3,-1.5,-0.4,-1.3,,,,,,,*4A
$GPGRS,204602.00,1,2.3,6.1,-7.7,-3.8,,,,,,,,*41
$GPGRS,204602.00,1,-2.6,1.8,-0.6,,,,,,,,,*69
$GPGRS,204602.00,1,-1.1,6.5,-4.5,-3.3,-3.8,,,,,,,*6B
$GPGSV,4,1,16,27,84,180,47,18,12,076,,32,12,141,,21,28,271,36*7D
$GPGSV,4,2,16,16,29,198,41,23,42,053,40,08,55,300,32,10,72,124,47*7E
$GPGSV,4,3,16,26,05,184,,02,10,268,30,30,00,321,23,15,07,030,*7B
$GPGSV,4,4,16,36,35,170,41,34,31,208,,49,34,195,37,61,03,257,*76
$GLGSV,3,1,09,83,54,057,36,75,19,331,38,82,18,086,24,69,15,161,33*65
$GLGSV,3,2,09,73,17,229,,74,33,275,33,67,35,045,47,84,42,301,28*62
$GLGSV,3,3,09,68,46,113,43*54
$GAGSV,3,1,11,14,73,270,,21,30,198,36,31,20,319,35,03,14,038,34*6C
$GAGSV,3,2,11,33,16,260,31,08,23,089,28,13,55,060,39,23,48,265,*68
$GAGSV,3,3,11,26,64,278,45,15,05,073,,07,10,139,*5A
$GBGSV,5,1,20,28,83,016,47,60,11,108,,37,11,231,25,05,23,128,*6B
$GBGSV,5,2,20,08,20,040,26,46,20,283,,41,21,174,40,58,23,265,*60
$GBGSV,5,3,20,43,25,104,31,13,28,044,29,57,26,232,,42,30,049,31*64
$GBGSV,5,4,20,27,41,292,38,33,50,120,42,14,46,078,43,38,06,042,*6E
$GBGSV,5,5,20,50,10,034,,36,07,331,24,02,08,105,,11,04,102,*66
$GPGGA,204602.00,,,,,0,00,,,M,,M,,*4A
$PTNL,GGK,204602.00,010125,4742.4468149,N,01617.9734312,E,1,17,1.5,EHT668.3223,M*4D
$GPGGQ,204602.00,010125,4742.4468149,N,01617.9734312,E,1,17,3.596,625.1112,M*34
$GPGFA,204602.00,17.067,23.496,1.795,1.224,320.403,2.865,,VVV*0C
$GPLLK,204602.00,010125,,M,,M,1,17,1.7,,M*09
$GNGMP,204602.00,,,,,DAAA,17,0.7,,,,*55
$GPGMP,204602.00,,,,,,05,,,,2.4,123*7C
$GLGMP,204602.00,,,,,,04,,,,,*79
$GAGMP,204602.00,,,,,,03,,,,,*73
$GBGMP,204602.00,,,,,,05,,,,,*76
$PSSN,SNC,[0,333980000,2347]*46
$GPZDA,204607.00,01,01,2025,,*64
$GPDTM,W84,,00.0000000,N,00.0000000,E,00.0000000,W84*5F
$GPRMC,204607.00,A,4742.4468330,N,01617.9734122,E,0.0,,010125,5.1,E,D*18
$GPGLL,4742.4468330,N,01617.9734122,E,204607.00,A,D*69
$GPGGA,204607.00,4742.4468330,N,01617.9734122,E,2,18,0.7,625.1405,M,43.2111,M,2.6,0123*4B
$GNGNS,204607.00,4742.4468330,N,01617.9734122,E,DAAA,18,0.7,625.1405,43.2111,,*53
$GPGNS,204607.00,,,,,,05,,,,2.6,123*7B
$GLGNS,204607.00,,,,,,04,,,,,*7C
$GAGNS,204607.00,,,,,,04,,,,,*71
$GBGNS,204607.00,,,,,,05,,,,,*73
$GPLLQ,204607.00,010125,,M,,M,1,18,3.316,,M*18
$GPVTG,,T,,M,0.00,N,0.01,K,D*27
$GPHDT,,T*1B
$GPTHS,,V*0E
$GPROT,,V*08
$PSSN,HRP,204607.00,010125,,,,,,,00,0,,*66
$PTNL,AVR,204607.00,,Yaw,,Tilt,,,,0,,00*30
$GPGSA,A,3,10,16,21,23,27,,,,,,,,1.4,0.7,1.2*32
$GPGSA,A,3,67,68,75,83,,,,,,,,,1.4,0.7,1.2*35
$GPGSA,A,3,13,21,26,31,,,,,,,,,1.4,0.7,1.2*34
$GPGSA,A,3,14,27,28,33,41,,,,,,,,1.4,0.7,1.2*3C
$GPGST,204607.00,4.231,1.644,1.130,319.636,1.451,1.369,2.649*5D
$GPGBS,204607.00,5.371,4.699,8.039,16,0.0001,2.203,0.820*57
$GPGRS,204607.00,1,1.2,2.2,-2.0,0.1,-1.3,,,,,,,*65
$GPGRS,204607.00,1,4.7,3.8,-7.1,-3.0,,,,,,,,*44
$GPGRS,204607.00,1,-2.3,3.3,-0.6,-0.8,,,,,,,,*6B
$GPGRS,204607.00,1,-0.9,4.4,-5.0,-3.0,-4.2,,,,,,,*6E
$GPGSV,4,1,16,27,84,180,46,18,12,076,,32,12,141,,21,29,271,36*7D
$GPGSV,4,2,16,16,29,198,41,23,42,053,42,08,55,300,35,10,72,123,48*73
$GPGSV,4,3,16,26,05,184,,02,10,268,31,30,00,321,25,15,07,030,*7C
$GPGSV,4,4,16,36,35,170,41,34,31,208,,49,34,195,37,61,03,257,*76
$GLGSV,3,1,09,83,54,057,37,75,19,331,38,82,18,086,26,69,15,161,33*66
$GLGSV,3,2,09,73,16,229,28,74,33,275,33,67,35,045,48,84,42,301,26*68
$GLGSV,3,3,09,68,46,113,44*53
$GAGSV,3,1,11,14,73,270,,21,30,198,35,31,20,319,36,03,14,038,34*6C
$GAGSV,3,2,11,33,16,260,31,08,23,089,28,13,55,060,41,23,48,265,*67
$GAGSV,3,3,11,26,64,278,46,15,05,073,,07,10,139,*59
$GBGSV,5,1,20,28,83,017,47,60,11,108,,37,11,231,,05,23,128,*6D
$GBGSV,5,2,20,08,20,040,27,46,20,283,,41,21,174,40,58,23,265,*61
$GBGSV,5,3,20,43,25,104,34,13,28,044,30,57,26,232,,42,30,049,33*6B
$GBGSV,5,4,20,27,41,292,39,33,50,120,42,14,46,078,43,38,06,042,*6F
$GBGSV,5,5,20,50,10,034,,36,07,331,30,02,08,105,,11,04,102,*63
$GPGGA,204607.00,,,,,0,00,,,M,,M,,*4F
$PTNL,GGK,204607.00,010125,4742.4468330,N,01617.9734122,E,1,18,1.4,EHT668.3516,M*4A
$GPGGQ,204607.00,010125,4742.4468330,N,01617.9734122,E,1,18,3.316,625.1405,M*3E
$GPGFA,204607.00,15.629,21.718,1.644,1.130,319.636,2.649,,VVV*05
$GPLLK,204607.00,010125,,M,,M,1,18,1.6,,M*02
$GNGMP,204607.00,,,,,DAAA,18,0.7,,,,*5F
$GPGMP,204607.00,,,,,,05,,,,2.6,123*7B
$GLGMP,204607.00,,,,,,04,,,,,*7C
$GAGMP,204607.00,,,,,,04,,,,,*71
$GBGMP,204607.00,,,,,,05,,,,,*73
$PSSN,SNC,[0,333985000,2347]*43
$GPZDA,204612.00,01,01,2025,,*60
$GPDTM,W84,,00.0000000,N,00.0000000,E,00.0000000,W84*5F
$GPRMC,204612.00,A,4742.4468577,N,01617.9733934,E,0.0,,010125,5.1,E,D*11
$GPGLL,4742.4468577,N,01617.9733934,E,204612.00,A,D*60
$GPGGA,204612.00,4742.4468577,N,01617.9733934,E,2,18,0.7,625.1545,M,43.2111,M,3.5,0123*45
$GNGNS,204612.00,4742.4468577,N,01617.9733934,E,DAAA,18,0.7,625.1545,43.2111,,*5F
$GPGNS,204612.00,,,,,,04,,,,3.5,123*7C
$GLGNS,204612.00,,,,,,04,,,,,*78
$GAGNS,204612.00,,,,,,03,,,,,*72
$GBGNS,204612.00,,,,,,07,,,,,*75
$GPLLQ,204612.00,010125,,M,,M,1,18,4.479,,M*15
$GPVTG,,T,,M,0.01,N,0.01,K,D*26
$GPHDT,,T*1B
$GPTHS,,V*0E
$GPROT,,V*08
$PSSN,HRP,204612.00,010125,,,,,,,00,0,,*62
$PTNL,AVR,204612.00,,Yaw,,Tilt,,,,0,,00*34
$GPGSA,A,3,10,16,23,27,,,,,,,,,1.2,0.7,1.0*35
$GPGSA,A,3,67,68,75,83,,,,,,,,,1.2,0.7,1.0*31
$GPGSA,A,3,13,26,31,,,,,,,,,,1.2,0.7,1.0*33
$GPGSA,A,3,14,27,28,33,36,41,43,,,,,,1.2,0.7,1.0*3A
$GPGST,204612.00,11.109,3.560,1.035,306.504,2.275,2.927,2.513*66
$GPGBS,204612.00,6.523,8.954,7.950,16,0.0001,2.323,0.834*5C
$GPGRS,204612.00,1,0.6,2.3,0.1,-1.2,,,,,,,,*65
$GPGRS,204612.00,1,6.2,2.9,-4.3,-6.9,,,,,,,,*4A
$GPGRS,204612.00,1,-2.5,-0.7,0.5,,,,,,,,,*66
$GPGRS,204612.00,1,-0.3,3.3,-5.2,-3.8,33.0,-4.0,8.4,,,,,*54
$GPGSV,4,1,16,27,84,180,45,18,12,076,20,32,12,141,,21,29,271,35*7F
$GPGSV,4,2,16,16,29,198,40,23,42,053,43,08,55,300,32,10,73,123,49*74
$GPGSV,4,3,16,26,05,184,,02,10,268,31,30,00,321,26,15,07,030,*7F
$GPGSV,4,4,16,36,35,170,41,34,31,208,,49,34,195,36,61,03,257,*77
$GLGSV,3,1,09,83,54,057,37,75,19,331,37,82,18,086,24,69,15,161,34*6C
$GLGSV,3,2,09,73,16,229,30,74,33,275,34,67,35,045,48,84,42,301,23*63
$GLGSV,3,3,09,68,46,113,43*54
$GAGSV,3,1,11,14,73,270,,21,30,198,34,31,20,319,37,03,14,038,33*6B
$GAGSV,3,2,11,33,16,260,31,08,23,089,32,13,55,060,42,23,48,265,*6F
$GAGSV,3,3,11,26,64,278,46,15,05,073,,07,10,139,*59
$GBGSV,5,1,20,28,83,017,47,60,11,108,,37,11,231,26,05,23,128,*69
$GBGSV,5,2,20,08,20,040,22,41,21,174,39,46,20,283,,58,23,265,*6A
$GBGSV,5,3,20,43,25,104,36,13,28,044,31,57,26,232,,42,30,049,34*6F
$GBGSV,5,4,20,27,41,292,38,33,50,120,43,14,46,078,44,38,06,042,*68
$GBGSV,5,5,20,50,10,034,,36,07,331,21,02,08,105,,11,04,102,*63
$GPGGA,204612.00,,,,,0,00,,,M,,M,,*4B
$PTNL,GGK,204612.00,010125,4742.4468577,N,01617.9733934,E,1,18,1.2,EHT668.3655,M*41
$GPGGQ,204612.00,010125,4742.4468577,N,01617.9733934,E,1,18,4.479,625.1545,M*3B
$GPGFA,204612.00,33.847,20.608,3.560,1.035,306.504,2.513,,VVV*01
$GPLLK,204612.00,010125,,M,,M,1,18,1.4,,M*04
$GNGMP,204612.00,,,,,DAAA,18,0.7,,,,*5B
$GPGMP,204612.00,,,,,,04,,,,3.5,123*7C
$GLGMP,204612.00,,,,,,04,,,,,*78
$GAGMP,204612.00,,,,,,03,,,,,*72
$GBGMP,204612.00,,,,,,07,,,,,*75
$PSSN,SNC,[0,333990000,2347]*47
$GPZDA,204617.00,01,01,2025,,*65
$GPDTM,W84,,00.0000000,N,00.0000000,E,00.0000000,W84*5F
$GPRMC,204617.00,A,4742.4468755,N,01617.9733952,E,0.0,,010125,5.1,E,D*16
$GPGLL,4742.4468755,N,01617.9733952,E,204617.00,A,D*67
$GPGGA,204617.00,4742.4468755,N,01617.9733952,E,2,18,0.7,625.1795,M,43.2111,M,1.5,0123*4F
$GNGNS,204617.00,4742.4468755,N,01617.9733952,E,DAAA,18,0.7,625.1795,43.2111,,*57
$GPGNS,204617.00,,,,,,04,,,,1.5,123*7B
$GLGNS,204617.00,,,,,,03,,,,,*7A
$GAGNS,204617.00,,,,,,03,,,,,*77
$GBGNS,204617.00,,,,,,08,,,,,*7F
$GPLLQ,204617.00,010125,,M,,M,1,18,4.381,,M*10
$GPVTG,,T,,M,0.01,N,0.01,K,D*26
$GPHDT,,T*1B
$GPTHS,,V*0E
$GPROT,,V*08
$PSSN,HRP,204617.00,010125,,,,,,,00,0,,*67
$PTNL,AVR,204617.00,,Yaw,,Tilt,,,,0,,00*31
$GPGSA,A,3,10,16,23,27,,,,,,,,,1.2,0.7,1.0*35
$GPGSA,A,3,67,68,83,,,,,,,,,,1.2,0.7,1.0*33
$GPGSA,A,3,13,26,31,,,,,,,,,,1.2,0.7,1.0*33
$GPGSA,A,3,14,27,28,33,36,41,42,43,,,,,1.2,0.7,1.0*3C
$GPGST,204617.00,8.498,3.626,0.909,306.453,2.275,2.966,2.285*5E
$GPGBS,204617.00,8.364,10.881,7.750,16,0.0001,1.935,0.798*6B
$GPGRS,204617.00,1,0.2,1.9,-1.2,-0.8,,,,,,,,*49
$GPGRS,204617.00,1,5.1,0.3,-6.4,,,,,,,,,*4E
$GPGRS,204617.00,1,-2.4,-0.8,2.1,,,,,,,,,*6B
$GPGRS,204617.00,1,-1.4,3.2,-5.0,-4.4,23.4,-3.8,-0.5,9.5,,,,*53
$GPGSV,4,1,16,27,84,180,46,18,12,076,22,32,12,141,,21,29,271,34*7F
$GPGSV,4,2,16,16,29,198,38,23,42,053,42,08,55,300,31,10,73,123,49*79
$GPGSV,4,3,16,26,05,184,,02,10,268,30,30,00,321,24,15,07,030,*7C
$GPGSV,4,4,16,36,35,170,42,34,31,208,,49,34,195,37,61,03,257,*75
$GLGSV,3,1,09,83,54,057,37,75,19,331,34,82,18,086,27,69,15,161,34*6C
$GLGSV,3,2,09,73,16,229,31,74,33,275,33,67,35,044,47,84,42,301,35*6C
$GLGSV,3,3,09,68,46,113,41*56
$GAGSV,3,1,11,14,73,269,,21,30,198,31,31,20,319,38,03,14,038,32*68
$GAGSV,3,2,11,33,16,260,29,08,24,089,33,13,55,060,43,23,48,265,*61
$GAGSV,3,3,11,26,64,278,46,15,05,073,,07,10,139,*59
$GBGSV,5,1,20,28,83,017,47,60,11,108,,37,11,231,23,05,23,128,*6C
$GBGSV,5,2,20,08,20,040,22,41,21,174,38,46,20,283,,58,23,265,*6B
$GBGSV,5,3,20,43,25,104,36,13,28,044,32,57,26,232,,42,30,049,34*6C
$GBGSV,5,4,20,27,41,292,38,33,50,120,42,14,46,078,44,38,06,042,*69
$GBGSV,5,5,20,50,10,033,,36,07,331,31,02,08,105,,11,04,102,*65
$GPGGA,204617.00,,,,,0,00,,,M,,M,,*4E
$PTNL,GGK,204617.00,010125,4742.4468755,N,01617.9733952,E,1,18,1.2,EHT668.3906,M*4F
$GPGGQ,204617.00,010125,4742.4468755,N,01617.9733952,E,1,18,4.381,625.1795,M*33
$GPGFA,204617.00,34.474,18.733,3.626,0.909,306.453,2.285,,VVV*00
$GPLLK,204617.00,010125,,M,,M,1,18,1.4,,M*01
$GNGMP,204617.00,,,,,DAAA,18,0.7,,,,*5E
$GPGMP,204617.00,,,,,,04,,,,1.5,123*7B
$GLGMP,204617.00,,,,,,03,,,,,*7A
$GAGMP,204617.00,,,,,,03,,,,,*77
$GBGMP,204617.00,,,,,,08,,,,,*7F
$PSSN,SNC,[0,333995000,2347]*42
$GPZDA,204622.00,01,01,2025,,*63
$GPDTM,W84,,00.0000000,N,00.0000000,E,00.0000000,W84*5F
$GPRMC,204622.00,A,4742.4468891,N,01617.9733964,E,0.0,,010125,5.1,E,D*12
$GPGLL,4742.4468891,N,01617.9733964,E,204622.00,A,D*63
$GPGGA,204622.00,4742.4468891,N,01617.9733964,E,2,18,0.8,625.1792,M,43.2111,M,3.0,0123*44
$GNGNS,204622.00,4742.4468891,N,01617.9733964,E,DAAA,18,0.8,625.1792,43.2111,,*5B
$GPGNS,204622.00,,,,,,04,,,,3.0,123*7A
$GLGNS,204622.00,,,,,,04,,,,,*7B
$GAGNS,204622.00,,,,,,03,,,,,*71
$GBGNS,204622.00,,,,,,07,,,,,*76
$GPLLQ,204622.00,010125,,M,,M,1,18,9.741,,M*13
$GPVTG,,T,,M,0.00,N,0.00,K,D*26
$GPHDT,,T*1B
$GPTHS,,V*0E
$GPROT,,V*08
$PSSN,HRP,204622.00,010125,,,,,,,00,0,,*61
$PTNL,AVR,204622.00,,Yaw,,Tilt,,,,0,,00*37
$GPGSA,A,3,08,10,23,27,,,,,,,,,1.3,0.8,1.1*35
$GPGSA,A,3,67,68,75,83,,,,,,,,,1.3,0.8,1.1*3E
$GPGSA,A,3,13,26,31,,,,,,,,,,1.3,0.8,1.1*3C
$GPGSA,A,3,14,27,28,33,41,42,43,,,,,,1.3,0.8,1.1*36
$GPGST,204622.00,4.951,4.268,1.054,9.151,4.217,1.243,8.693*5A
$GPGBS,204622.00,23.308,5.610,48.119,23,0.0001,-1.434,0.749*77
$GPGRS,204622.00,1,-0.4,1.0,-1.4,0.4,,,,,,,,*4A
$GPGRS,204622.00,1,2.8,0.4,-4.2,-6.3,,,,,,,,*43
$GPGRS,204622.00,1,-1.6,0.1,3.5,,,,,,,,,*4D
$GPGRS,204622.00,1,-1.5,3.7,-4.0,-3.9,-3.1,2.7,11.0,,,,,*59
$GPGSV,4,1,16,27,84,179,47,18,12,076,,32,12,141,,21,29,271,35*79
$GPGSV,4,2,16,16,29,198,34,23,42,053,41,08,55,300,37,10,73,123,48*71
$GPGSV,4,3,16,26,05,184,,02,10,268,30,30,00,321,,15,07,030,*7A
$GPGSV,4,4,16,36,35,170,41,34,31,208,,49,34,195,37,61,03,257,*76
$GLGSV,3,1,09,83,54,057,37,75,19,331,35,82,18,086,20,69,16,161,33*6E
$GLGSV,3,2,09,73,16,229,33,74,33,274,34,67,35,044,47,84,42,301,20*6C
$GLGSV,3,3,09,68,46,113,40*57
$GAGSV,3,1,11,14,73,269,,21,30,198,32,31,20,319,37,03,14,038,32*64
$GAGSV,3,2,11,33,16,261,28,08,24,089,33,13,55,060,43,23,48,265,*61
$GAGSV,3,3,11,26,64,278,47,15,05,073,,07,10,139,*58
$GBGSV,5,1,20,28,83,017,47,60,11,108,,37,11,231,23,05,23,128,*6C
$GBGSV,5,2,20,08,20,040,21,41,21,174,37,46,20,283,,58,23,265,*67
$GBGSV,5,3,20,43,24,104,36,13,28,044,32,57,26,232,,42,30,049,36*6F
$GBGSV,5,4,20,27,41,292,37,33,50,120,42,14,46,078,44,38,06,042,*66
$GBGSV,5,5,20,50,10,033,,36,07,331,25,02,08,105,,11,04,102,*60
$GPGGA,204622.00,,,,,0,00,,,M,,M,,*48
$PTNL,GGK,204622.00,010125,4742.4468891,N,01617.9733964,E,1,18,1.3,EHT668.3903,M*4F
$GPGGQ,204622.00,010125,4742.4468891,N,01617.9733964,E,1,18,9.741,625.1792,M*35
$GPGFA,204622.00,40.581,71.282,4.268,1.054,9.151,8.693,,VVV*05
$GPLLK,204622.00,010125,,M,,M,1,18,1.6,,M*05
$GNGMP,204622.00,,,,,DAAA,18,0.8,,,,*57
$GPGMP,204622.00,,,,,,04,,,,3.0,123*7A
$GLGMP,204622.00,,,,,,04,,,,,*7B
$GAGMP,204622.00,,,,,,03,,,,,*71
$GBGMP,204622.00,,,,,,07,,,,,*76
$PSSN,SNC,[0,334000000,2347]*40
$GPZDA,204627.00,01,01,2025,,*66
$GPDTM,W84,,00.0000000,N,00.0000000,E,00.0000000,W84*5F
$GPRMC,204627.00,A,4742.4468948,N,01617.9734011,E,0.0,,010125,5.1,E,D*1E
$GPGLL,4742.4468948,N,01617.9734011,E,204627.00,A,D*6F
$GPGGA,204627.00,4742.4468948,N,01617.9734011,E,2,18,0.7,625.1619,M,43.2111,M,3.3,0123*46
$GNGNS,204627.00,4742.4468948,N,01617.9734011,E,DAAA,18,0.7,625.1619,43.2111,,*5A
$GPGNS,204627.00,,,,,,04,,,,3.3,123*7C
$GLGNS,204627.00,,,,,,04,,,,,*7E
$GAGNS,204627.00,,,,,,03,,,,,*74
$GBGNS,204627.00,,,,,,07,,,,,*73
$GPLLQ,204627.00,010125,,M,,M,1,18,5.281,,M*13
$GPVTG,,T,,M,0.01,N,0.01,K,D*26
$GPHDT,,T*1B
$GPTHS,,V*0E
$GPROT,,V*08
$PSSN,HRP,204627.00,010125,,,,,,,00,0,,*64
$PTNL,AVR,204627.00,,Yaw,,Tilt,,,,0,,00*32
$GPGSA,A,3,10,21,23,27,,,,,,,,,1.4,0.7,1.2*35
$GPGSA,A,3,67,68,83,84,,,,,,,,,1.4,0.7,1.2*3B
$GPGSA,A,3,13,26,31,,,,,,,,,,1.4,0.7,1.2*37
$GPGSA,A,3,14,27,28,33,41,42,43,,,,,,1.4,0.7,1.2*3D
$GPGST,204627.00,5.142,3.400,0.803,339.143,3.190,1.424,3.961*56
$GPGBS,204627.00,12.598,5.428,19.042,43,0.0001,12.429,8.646*6E
$GPGRS,204627.00,1,0.8,-1.0,-1.0,0.3,,,,,,,,*40
$GPGRS,204627.00,1,2.5,4.8,-5.8,0.1,,,,,,,,*61
$GPGRS,204627.00,1,-1.6,0.1,2.9,,,,,,,,,*45
$GPGRS,204627.00,1,-1.5,3.1,-4.0,-3.6,-3.3,2.7,12.4,,,,,*50
$GPGSV,4,1,16,27,84,179,48,18,12,076,,32,12,141,,21,29,271,35*76
$GPGSV,4,2,16,16,29,198,33,23,42,053,40,08,55,300,37,10,73,123,48*77
$GPGSV,4,3,16,26,05,184,,02,10,268,,30,00,321,25,15,07,030,*7E
$GPGSV,4,4,16,36,35,170,42,34,31,208,,49,34,195,36,61,03,257,*74
$GLGSV,3,1,09,83,54,057,37,75,19,331,31,82,18,086,27,69,16,161,32*6C
$GLGSV,3,2,09,73,16,229,32,74,33,274,33,67,35,044,48,84,42,301,40*63
$GLGSV,3,3,09,68,46,113,41*56
$GAGSV,3,1,11,14,73,269,,21,30,198,34,31,20,319,37,03,14,038,31*61
$GAGSV,3,2,11,33,16,261,29,08,24,089,34,13,55,060,43,23,48,264,*66
$GAGSV,3,3,11,26,64,278,47,15,05,073,,07,10,139,*58
$GBGSV,5,1,20,28,83,018,47,60,11,108,,37,11,230,21,05,23,128,*60
$GBGSV,5,2,20,08,20,040,21,41,21,174,35,46,20,283,,58,23,265,*65
$GBGSV,5,3,20,43,24,104,36,13,28,044,33,57,26,232,,42,30,049,38*60
$GBGSV,5,4,20,27,41,292,35,33,50,120,41,14,46,078,45,38,06,042,*66
$GBGSV,5,5,20,50,10,033,,36,07,331,32,02,08,105,,11,04,102,*66
$GPGGA,204627.00,,,,,0,00,,,M,,M,,*4D
$PTNL,GGK,204627.00,010125,4742.4468948,N,01617.9734011,E,1,18,1.4,EHT668.3729,M*42
$GPGGQ,204627.00,010125,4742.4468948,N,01617.9734011,E,1,18,5.281,625.1619,M*3E
$GPGFA,204627.00,32.330,32.477,3.400,0.803,339.143,3.961,,VVV*0C
$GPLLK,204627.00,010125,,M,,M,1,18,1.6,,M*00
$GNGMP,204627.00,,,,,DAAA,18,0.7,,,,*5D
$GPGMP,204627.00,,,,,,04,,,,3.3,123*7C
$GLGMP,204627.00,,,,,,04,,,,,*7E
$GAGMP,204627.00,,,,,,03,,,,,*74
$GBGMP,204627.00,,,,,,07,,,,,*73
$PSSN,SNC,[0,334005000,2347]*45
$GPZDA,204632.00,01,01,2025,,*62
$GPDTM,W84,,00.0000000,N,00.0000000,E,00.0000000,W84*5F
$GPRMC,204632.00,A,4742.4468949,N,01617.9733968,E,0.0,,010125,5.1,E,D*1B
$GPGLL,4742.4468949,N,01617.9733968,E,204632.00,A,D*6A
$GPGGA,204632.00,4742.4468949,N,01617.9733968,E,2,17,0.8,625.1534,M,43.2111,M,1.4,0123*4A
$GNGNS,204632.00,4742.4468949,N,01617.9733968,E,DAAA,17,0.8,625.1534,43.2111,,*53
$GPGNS,204632.00,,,,,,05,,,,1.4,123*7C
$GLGNS,204632.00,,,,,,03,,,,,*7D
$GAGNS,204632.00,,,,,,04,,,,,*77
