$GPZDA,062942.00,01,01,2025,,*68
$GPDTM,W84,,00.0000000,N,00.0000000,E,00.0000000,W84*5F
$GPRMC,062942.00,A,4742.4469128,N,01617.9725552,E,0.0,,010125,5.1,E,D*1D
$GPGLL,4742.4469128,N,01617.9725552,E,062942.00,A,D*6C
$GPGGA,062942.00,4742.4469128,N,01617.9725552,E,2,25,0.6,625.6116,M,43.2111,M,2.5,0123*42
$GNGNS,062942.00,4742.4469128,N,01617.9725552,E,DAAA,25,0.6,625.6116,43.2111,,*59
$GPGNS,062942.00,,,,,,06,,,,2.5,123*77
$GLGNS,062942.00,,,,,,08,,,,,*7C
$GAGNS,062942.00,,,,,,07,,,,,*7E
$GBGNS,062942.00,,,,,,04,,,,,*7E
$GPLLQ,062942.00,010125,,M,,M,1,25,1.391,,M*17
$GPVTG,,T,,M,0.00,N,0.01,K,D*27
$GPHDT,,T*1B
$GPTHS,,V*0E
$GPROT,,V*08
$PSSN,HRP,062942.00,010125,,,,,,,00,0,,*6A
$PTNL,AVR,062942.00,,Yaw,,Tilt,,,,0,,00*3C
$GPGSA,A,3,05,07,13,14,20,30,,,,,,,1.1,0.6,0.9*39
$GPGSA,A,3,65,71,72,73,74,75,81,88,,,,,1.1,0.6,0.9*31
$GPGSA,A,3,03,05,08,13,15,24,34,,,,,,1.1,0.6,0.9*34
$GPGSA,A,3,21,22,36,45,,,,,,,,,1.1,0.6,0.9*3A
$GPGST,062942.00,3.415,0.712,0.463,35.770,0.638,0.561,1.102*61
$GPGBS,062942.00,3.394,4.311,6.171,73,0.0001,6.847,6.101*51
$GPGRS,062942.00,1,-0.5,0.4,-0.4,0.9,0.0,-0.1,,,,,,*65
$GPGRS,062942.00,1,-6.0,-2.3,3.6,6.8,3.4,-4.5,-1.1,4.9,,,,*42
$GPGRS,062942.00,1,-0.3,0.4,-5.0,-0.8,-1.1,-4.0,-0.3,,,,,*66
$GPGRS,062942.00,1,-1.4,-0.3,-0.2,-2.4,,,,,,,,*47
$GPGSV,4,1,16,30,78,211,51,13,24,281,46,14,20,166,40,11,19,235,31*70
$GPGSV,4,2,16,09,27,097,27,05,40,306,44,20,61,256,48,07,61,061,49*79
$GPGSV,4,3,16,06,01,205,,08,01,077,,27,02,047,,04,01,098,*70
$GPGSV,4,4,16,36,35,170,39,34,31,208,,49,34,195,35,61,03,257,*7B
$GLGSV,2,1,08,72,75,034,48,88,15,288,37,81,13,341,36,65,29,312,42*66
$GLGSV,2,2,08,73,38,041,45,75,30,186,40,71,34,109,46,74,69,113,47*6B
$GAGSV,3,1,11,05,64,078,45,25,25,156,35,34,14,217,35,13,17,323,38*6A
$GAGSV,3,2,11,09,12,094,,31,19,041,21,16,38,131,,15,30,268,43*61
$GAGSV,3,3,11,24,42,096,38,03,57,292,42,08,08,280,33*58
$GBGSV,5,1,17,22,77,128,42,46,22,046,,10,11,094,,45,43,190,43*61
$GBGSV,5,2,17,05,22,129,34,09,20,056,27,19,22,126,32,50,23,304,*60
$GBGSV,5,3,17,21,47,305,37,36,65,095,47,02,05,108,,40,09,074,*60
$GBGSV,5,4,17,11,02,301,,06,06,057,,16,04,056,,58,07,038,*6F
$GBGSV,5,5,17,60,07,112,*5E
$GPGGA,062942.00,,,,,0,00,,,M,,M,,*43
$PTNL,GGK,062942.00,010125,4742.4469128,N,01617.9725552,E,1,25,1.1,EHT668.8227,M*4A
$GPGGQ,062942.00,010125,4742.4469128,N,01617.9725552,E,1,25,1.391,625.6116,M*38
$GPGFA,062942.00,6.774,9.033,0.712,0.463,35.770,1.102,,VVV*32
$GPLLK,062942.00,010125,,M,,M,1,25,1.2,,M*04
$GNGMP,062942.00,,,,,DAAA,25,0.6,,,,*5C
$GPGMP,062942.00,,,,,,06,,,,2.5,123*77
$GLGMP,062942.00,,,,,,08,,,,,*7C
$GAGMP,062942.00,,,,,,07,,,,,*7E
$GBGMP,062942.00,,,,,,04,,,,,*7E
$PSSN,SNC,[0,282600000,2347]*4A
$GPZDA,062947.00,01,01,2025,,*6D
$GPDTM,W84,,00.0000000,N,00.0000000,E,00.0000000,W84*5F
$GPRMC,062947.00,A,4742.4469159,N,01617.9725483,E,0.0,,010125,5.1,E,D*13
$GPGLL,4742.4469159,N,01617.9725483,E,062947.00,A,D*62
$GPGGA,062947.00,4742.4469159,N,01617.9725483,E,2,25,0.6,625.6163,M,43.2111,M,2.8,0123*43
$GNGNS,062947.00,4742.4469159,N,01617.9725483,E,DAAA,25,0.6,625.6163,43.2111,,*55
$GPGNS,062947.00,,,,,,06,,,,2.8,123*7F
$GLGNS,062947.00,,,,,,08,,,,,*79
$GAGNS,062947.00,,,,,,07,,,,,*7B
$GBGNS,062947.00,,,,,,04,,,,,*7B
$GPLLQ,062947.00,010125,,M,,M,1,25,1.464,,M*1F
$GPVTG,,T,,M,0.00,N,0.01,K,D*27
$GPHDT,,T*1B
$GPTHS,,V*0E
$GPROT,,V*08
$PSSN,HRP,062947.00,010125,,,,,,,00,0,,*6F
$PTNL,AVR,062947.00,,Yaw,,Tilt,,,,0,,00*39
$GPGSA,A,3,05,07,13,14,20,30,,,,,,,1.1,0.6,0.9*39
$GPGSA,A,3,65,71,72,73,74,75,81,88,,,,,1.1,0.6,0.9*31
$GPGSA,A,3,03,05,13,15,24,25,34,,,,,,1.1,0.6,0.9*3B
$GPGSA,A,3,21,22,36,45,,,,,,,,,1.1,0.6,0.9*3A
$GPGST,062947.00,3.816,0.750,0.486,35.722,0.672,0.589,1.159*67
$GPGBS,062947.00,3.401,4.333,5.911,88,0.0001,8.965,6.296*54
$GPGRS,062947.00,1,-0.4,0.3,0.0,0.1,0.0,0.0,,,,,,*6B
$GPGRS,062947.00,1,-8.0,-1.5,4.8,0.4,3.4,-3.4,1.0,9.0,,,,*61
$GPGRS,062947.00,1,0.3,0.6,-0.1,-0.6,-3.6,6.6,-0.5,,,,,*6C
$GPGRS,062947.00,1,-1.8,-0.4,-0.2,-2.2,,,,,,,,*4F
$GPGSV,4,1,16,30,78,211,51,13,24,281,47,14,20,166,41,11,19,235,32*73
$GPGSV,4,2,16,09,27,097,24,05,40,306,44,20,61,256,48,07,61,061,49*7A
$GPGSV,4,3,16,06,01,205,,08,01,077,,27,03,047,,04,01,098,*71
$GPGSV,4,4,16,36,35,170,39,34,31,208,,49,34,195,35,61,03,257,*7B
$GLGSV,2,1,08,72,75,035,49,88,15,288,36,81,13,341,38,65,29,312,41*6A
$GLGSV,2,2,08,73,38,041,45,75,30,186,40,71,34,109,47,74,69,113,47*6A
$GAGSV,3,1,11,05,64,078,46,25,25,156,36,34,14,217,35,13,17,323,38*6A
$GAGSV,3,2,11,09,12,094,,31,19,041,22,16,38,131,,15,30,268,43*62
$GAGSV,3,3,11,24,42,096,39,03,57,292,42,08,08,280,33*59
$GBGSV,5,1,17,22,77,128,42,46,22,046,,10,11,094,,45,43,190,43*61
$GBGSV,5,2,17,05,22,129,34,09,20,056,26,19,22,126,34,50,23,304,*67
$GBGSV,5,3,17,21,47,305,40,36,65,095,46,02,05,108,,40,09,074,*61
$GBGSV,5,4,17,11,02,301,,06,06,057,,16,04,056,,58,07,038,*6F
$GBGSV,5,5,17,60,07,112,*5E
$GPGGA,062947.00,,,,,0,00,,,M,,M,,*46
$PTNL,GGK,062947.00,010125,4742.4469159,N,01617.9725483,E,1,25,1.1,EHT668.8274,M*42
$GPGGQ,062947.00,010125,4742.4469159,N,01617.9725483,E,1,25,1.464,625.6163,M*39
$GPGFA,062947.00,7.127,9.505,0.750,0.486,35.722,1.159,,VVV*32
$GPLLK,062947.00,010125,,M,,M,1,25,1.2,,M*01
$GNGMP,062947.00,,,,,DAAA,25,0.6,,,,*59
$GPGMP,062947.00,,,,,,06,,,,2.8,123*7F
$GLGMP,062947.00,,,,,,08,,,,,*79
$GAGMP,062947.00,,,,,,07,,,,,*7B
$GBGMP,062947.00,,,,,,04,,,,,*7B
$PSSN,SNC,[0,282605000,2347]*4F
$GPZDA,062952.00,01,01,2025,,*69
$GPDTM,W84,,00.0000000,N,00.0000000,E,00.0000000,W84*5F
$GPRMC,062952.00,A,4742.4469171,N,01617.9725412,E,0.0,,010125,5.1,E,D*15
$GPGLL,4742.4469171,N,01617.9725412,E,062952.00,A,D*64
$GPGGA,062952.00,4742.4469171,N,01617.9725412,E,2,25,0.6,625.6140,M,43.2111,M,3.2,0123*4F
$GNGNS,062952.00,4742.4469171,N,01617.9725412,E,DAAA,25,0.6,625.6140,43.2111,,*52
$GPGNS,062952.00,,,,,,06,,,,3.2,123*70
$GLGNS,062952.00,,,,,,08,,,,,*7D
$GAGNS,062952.00,,,,,,06,,,,,*7E
$GBGNS,062952.00,,,,,,05,,,,,*7E
$GPLLQ,062952.00,010125,,M,,M,1,25,1.526,,M*1C
$GPVTG,,T,,M,0.00,N,0.00,K,D*26
$GPHDT,,T*1B
$GPTHS,,V*0E
$GPROT,,V*08
$PSSN,HRP,062952.00,010125,,,,,,,00,0,,*6B
$PTNL,AVR,062952.00,,Yaw,,Tilt,,,,0,,00*3D
$GPGSA,A,3,05,07,13,14,20,30,,,,,,,1.1,0.6,0.9*39
$GPGSA,A,3,65,71,72,73,74,75,81,88,,,,,1.1,0.6,0.9*31
$GPGSA,A,3,03,05,13,15,24,25,,,,,,,1.1,0.6,0.9*3C
$GPGSA,A,3,19,21,22,36,45,,,,,,,,1.1,0.6,0.9*32
$GPGST,062952.00,4.581,0.790,0.514,35.515,0.709,0.621,1.200*64
$GPGBS,062952.00,3.605,4.466,5.977,19,0.0001,15.497,8.647*63
$GPGRS,062952.00,1,-1.0,0.4,0.3,-0.3,-0.1,0.3,,,,,,*6E
$GPGRS,062952.00,1,-6.4,-0.1,4.3,1.3,3.1,-3.9,3.9,-0.2,,,,*42
$GPGRS,062952.00,1,0.1,0.7,-0.6,-0.6,-1.6,5.3,,,,,,*6E
$GPGRS,062952.00,1,15.5,-1.0,-0.5,-0.1,-1.6,,,,,,,*59
$GPGSV,4,1,16,30,78,211,51,13,24,281,47,14,20,166,41,11,19,234,34*74
$GPGSV,4,2,16,09,27,097,26,05,40,306,44,20,61,256,47,07,61,061,49*77
$GPGSV,4,3,16,06,01,205,,08,01,077,,27,03,047,,04,01,098,*71
$GPGSV,4,4,16,36,35,170,39,34,31,208,,49,34,195,35,61,03,257,*7B
$GLGSV,2,1,08,72,75,035,48,88,15,288,30,81,13,341,35,65,29,312,42*63
$GLGSV,2,2,08,73,38,041,45,75,30,186,39,71,34,109,47,74,69,113,47*64
$GAGSV,3,1,11,05,64,078,46,25,25,156,37,34,14,217,33,13,17,323,38*6D
$GAGSV,3,2,11,09,12,094,,31,19,041,24,16,38,131,,15,30,268,43*64
$GAGSV,3,3,11,24,42,096,39,03,57,292,42,08,08,280,31*5B
$GBGSV,5,1,17,22,77,128,42,46,22,046,,10,11,094,,45,44,190,43*66
$GBGSV,5,2,17,05,22,129,34,09,20,056,26,19,22,126,35,50,23,304,*66
$GBGSV,5,3,17,21,47,305,42,36,65,095,46,02,05,108,,40,09,074,*63
$GBGSV,5,4,17,11,02,301,,06,06,057,,16,04,056,,58,07,038,*6F
$GBGSV,5,5,17,60,07,112,*5E
$GPGGA,062952.00,,,,,0,00,,,M,,M,,*42
$PTNL,GGK,062952.00,010125,4742.4469171,N,01617.9725412,E,1,25,1.1,EHT668.8251,M*43
$GPGGQ,062952.00,010125,4742.4469171,N,01617.9725412,E,1,25,1.526,625.6140,M*39
$GPGFA,062952.00,7.514,9.842,0.790,0.514,35.515,1.200,,VVV*33
$GPLLK,062952.00,010125,,M,,M,1,25,1.2,,M*05
$GNGMP,062952.00,,,,,DAAA,25,0.6,,,,*5D
$GPGMP,062952.00,,,,,,06,,,,3.2,123*70
$GLGMP,062952.00,,,,,,08,,,,,*7D
$GAGMP,062952.00,,,,,,06,,,,,*7E
$GBGMP,062952.00,,,,,,05,,,,,*7E
$PSSN,SNC,[0,282610000,2347]*4B
$GPZDA,062957.00,01,01,2025,,*6C
$GPDTM,W84,,00.0000000,N,00.0000000,E,00.0000000,W84*5F
$GPRMC,062957.00,A,4742.4469216,N,01617.9725363,E,0.0,,010125,5.1,E,D*13
$GPGLL,4742.4469216,N,01617.9725363,E,062957.00,A,D*62
$GPGGA,062957.00,4742.4469216,N,01617.9725363,E,2,23,0.7,625.6014,M,43.2111,M,1.5,0123*4B
$GNGNS,062957.00,4742.4469216,N,01617.9725363,E,DAAA,23,0.7,625.6014,43.2111,,*53
$GPGNS,062957.00,,,,,,06,,,,1.5,123*70
$GLGNS,062957.00,,,,,,07,,,,,*77
$GAGNS,062957.00,,,,,,06,,,,,*7B
$GBGNS,062957.00,,,,,,04,,,,,*7A
$GPLLQ,062957.00,010125,,M,,M,1,23,1.667,,M*19
$GPVTG,,T,,M,0.00,N,0.01,K,D*27
$GPHDT,,T*1B
$GPTHS,,V*0E
$GPROT,,V*08
$PSSN,HRP,062957.00,010125,,,,,,,00,0,,*6E
$PTNL,AVR,062957.00,,Yaw,,Tilt,,,,0,,00*38
$GPGSA,A,3,05,07,13,14,20,30,,,,,,,1.2,0.7,1.0*33
$GPGSA,A,3,65,71,72,73,74,75,88,,,,,,1.2,0.7,1.0*32
$GPGSA,A,3,03,05,13,15,24,25,,,,,,,1.2,0.7,1.0*36
$GPGSA,A,3,21,22,36,45,,,,,,,,,1.2,0.7,1.0*30
$GPGST,062957.00,3.682,0.863,0.559,35.382,0.774,0.676,1.312*6E
$GPGBS,062957.00,3.405,4.271,6.161,88,0.0001,-10.311,6.290*41
$GPGRS,062957.00,1,-1.0,0.3,-0.2,-0.2,0.2,0.5,,,,,,*69
$GPGRS,062957.00,1,-5.3,1.0,1.9,2.6,2.7,-5.0,-10.3,,,,,*7B
$GPGRS,062957.00,1,-0.3,0.7,-0.9,-0.8,-1.1,5.3,,,,,,*42
$GPGRS,062957.00,1,-2.1,-0.8,-0.2,-0.6,,,,,,,,*4E
$GPGSV,4,1,16,30,78,211,51,13,24,281,46,14,20,166,41,11,19,234,34*75
$GPGSV,4,2,16,09,27,097,29,05,40,306,44,07,61,061,49,20,61,256,46*79
$GPGSV,4,3,16,06,01,205,,08,01,077,,27,03,047,,04,01,098,*71
$GPGSV,4,4,16,36,35,170,39,34,31,208,,49,34,195,35,61,03,257,*7B
$GLGSV,2,1,08,72,75,035,47,88,15,288,38,81,13,340,35,65,29,312,41*66
$GLGSV,2,2,08,73,38,041,44,75,30,186,39,71,34,109,47,74,69,113,47*65
$GAGSV,3,1,11,05,64,078,47,25,25,156,37,34,14,217,32,13,17,323,37*62
$GAGSV,3,2,11,09,12,094,,31,19,041,23,16,38,131,,15,30,268,44*64
$GAGSV,3,3,11,24,42,096,39,03,57,292,42,08,08,280,29*52
$GBGSV,5,1,17,22,77,128,42,46,22,046,,10,11,094,,45,44,190,43*66
$GBGSV,5,2,17,05,22,129,34,09,20,056,27,19,22,126,34,50,23,304,*66
$GBGSV,5,3,17,21,47,305,44,36,65,095,45,02,05,108,,40,09,074,*66
$GBGSV,5,4,17,11,02,301,,06,06,057,,16,04,056,,58,07,038,*6F
$GBGSV,5,5,17,60,07,112,*5E
$GPGGA,062957.00,,,,,0,00,,,M,,M,,*47
$PTNL,GGK,062957.00,010125,4742.4469216,N,01617.9725363,E,1,23,1.2,EHT668.8124,M*41
$GPGGQ,062957.00,010125,4742.4469216,N,01617.9725363,E,1,23,1.667,625.6014,M*3F
$GPGFA,062957.00,8.202,10.756,0.863,0.559,35.382,1.312,,VVV*0B
$GPLLK,062957.00,010125,,M,,M,1,23,1.4,,M*00
$GNGMP,062957.00,,,,,DAAA,23,0.7,,,,*5F
$GPGMP,062957.00,,,,,,06,,,,1.5,123*70
$GLGMP,062957.00,,,,,,07,,,,,*77
$GAGMP,062957.00,,,,,,06,,,,,*7B
$GBGMP,062957.00,,,,,,04,,,,,*7A
$PSSN,SNC,[0,282615000,2347]*4E
$GPZDA,063002.00,01,01,2025,,*64
$GPDTM,W84,,00.0000000,N,00.0000000,E,00.0000000,W84*5F
$GPRMC,063002.00,A,4742.4469241,N,01617.9725244,E,0.0,,010125,5.1,E,D*1D
$GPGLL,4742.4469241,N,01617.9725244,E,063002.00,A,D*6C
$GPGGA,063002.00,4742.4469241,N,01617.9725244,E,2,23,0.7,625.5886,M,43.2111,M,2.5,0123*46
$GNGNS,063002.00,4742.4469241,N,01617.9725244,E,DAAA,23,0.7,625.5886,43.2111,,*5D
$GPGNS,063002.00,,,,,,06,,,,2.5,123*7B
$GLGNS,063002.00,,,,,,07,,,,,*7F
$GAGNS,063002.00,,,,,,06,,,,,*73
$GBGNS,063002.00,,,,,,04,,,,,*72
$GPLLQ,063002.00,010125,,M,,M,1,23,1.695,,M*1C
$GPVTG,,T,,M,0.00,N,0.01,K,D*27
$GPHDT,,T*1B
$GPTHS,,V*0E
$GPROT,,V*08
$PSSN,HRP,063002.00,010125,,,,,,,00,0,,*66
$PTNL,AVR,063002.00,,Yaw,,Tilt,,,,0,,00*30
$GPGSA,A,3,05,07,13,14,20,30,,,,,,,1.2,0.7,1.0*33
$GPGSA,A,3,65,71,72,73,74,75,88,,,,,,1.2,0.7,1.0*32
$GPGSA,A,3,03,05,13,15,24,25,,,,,,,1.2,0.7,1.0*36
$GPGSA,A,3,21,22,36,45,,,,,,,,,1.2,0.7,1.0*30
$GPGST,063002.00,3.894,0.868,0.558,35.270,0.778,0.677,1.345*66
$GPGBS,063002.00,3.474,4.348,6.316,88,0.0001,-9.014,6.287*7E
$GPGRS,063002.00,1,-0.8,0.6,-0.8,-0.2,0.1,0.5,,,,,,*64
$GPGRS,063002.00,1,-6.8,1.1,1.3,2.9,3.0,-7.8,-9.0,,,,,*48
$GPGRS,063002.00,1,-1.3,0.6,-1.6,-0.4,-0.7,4.4,,,,,,*49
$GPGRS,063002.00,1,-1.9,-1.2,0.6,1.0,,,,,,,,*45
$GPGSV,4,1,16,30,78,211,51,13,24,281,46,14,20,166,41,11,19,234,34*75
$GPGSV,4,2,16,09,27,097,31,05,41,305,45,07,61,061,50,20,61,256,47*7A
$GPGSV,4,3,16,06,01,205,,08,01,077,,27,03,047,,04,01,098,*71
$GPGSV,4,4,16,36,35,170,39,34,31,208,,49,34,195,35,61,03,257,*7B
$GLGSV,2,1,08,72,75,035,47,88,15,288,38,81,13,340,35,65,29,312,39*69
$GLGSV,2,2,08,73,38,041,43,75,30,186,38,71,34,109,47,74,69,113,47*63
$GAGSV,3,1,11,05,64,078,47,25,25,156,37,34,14,217,29,13,17,323,35*6A
$GAGSV,3,2,11,09,12,094,,31,19,040,26,16,38,131,,15,30,268,43*67
$GAGSV,3,3,11,24,42,096,40,03,57,292,41,08,08,280,29*5F
$GBGSV,5,1,17,22,76,128,42,46,22,046,,10,11,094,,45,44,190,45*61
$GBGSV,5,2,17,05,22,129,35,09,20,056,27,19,22,126,34,50,23,304,*67
$GBGSV,5,3,17,21,47,305,46,36,65,094,44,02,05,108,,40,09,074,*64
$GBGSV,5,4,17,11,02,301,,06,06,057,,16,04,056,,58,07,038,*6F
$GBGSV,5,5,17,60,07,112,*5E
$GPGGA,063002.00,,,,,0,00,,,M,,M,,*4F
$PTNL,GGK,063002.00,010125,4742.4469241,N,01617.9725244,E,1,23,1.2,EHT668.7997,M*40
$GPGGQ,063002.00,010125,4742.4469241,N,01617.9725244,E,1,23,1.695,625.5886,M*3C
$GPGFA,063002.00,8.253,11.025,0.868,0.558,35.270,1.345,,VVV*01
$GPLLK,063002.00,010125,,M,,M,1,23,1.4,,M*08
$GNGMP,063002.00,,,,,DAAA,23,0.7,,,,*57
$GPGMP,063002.00,,,,,,06,,,,2.5,123*7B
$GLGMP,063002.00,,,,,,07,,,,,*7F
$GAGMP,063002.00,,,,,,06,,,,,*73
$GBGMP,063002.00,,,,,,04,,,,,*72
$PSSN,SNC,[0,282620000,2347]*48
$GPZDA,063007.00,01,01,2025,,*61
$GPDTM,W84,,00.0000000,N,00.0000000,E,00.0000000,W84*5F
$GPRMC,063007.00,A,4742.4469316,N,01617.9725174,E,0.0,,010125,5.1,E,D*1B
$GPGLL,4742.4469316,N,01617.9725174,E,063007.00,A,D*6A
$GPGGA,063007.00,4742.4469316,N,01617.9725174,E,2,24,0.6,625.5868,M,43.2111,M,2.9,0123*4A
$GNGNS,063007.00,4742.4469316,N,01617.9725174,E,DAAA,24,0.6,625.5868,43.2111,,*5D
$GPGNS,063007.00,,,,,,07,,,,2.9,123*73
$GLGNS,063007.00,,,,,,08,,,,,*75
$GAGNS,063007.00,,,,,,05,,,,,*75
$GBGNS,063007.00,,,,,,04,,,,,*77
$GPLLQ,063007.00,010125,,M,,M,1,24,2.609,,M*18
$GPVTG,,T,,M,0.00,N,0.00,K,D*26
$GPHDT,,T*1B
$GPTHS,,V*0E
$GPROT,,V*08
$PSSN,HRP,063007.00,010125,,,,,,,00,0,,*63
$PTNL,AVR,063007.00,,Yaw,,Tilt,,,,0,,00*35
$GPGSA,A,3,05,07,11,13,14,20,30,,,,,,1.1,0.6,0.9*39
$GPGSA,A,3,65,71,72,73,74,75,81,88,,,,,1.1,0.6,0.9*31
$GPGSA,A,3,03,05,15,24,25,,,,,,,,1.1,0.6,0.9*3E
$GPGSA,A,3,21,22,36,45,,,,,,,,,1.1,0.6,0.9*3A
$GPGST,063007.00,5.220,1.290,0.901,35.857,1.172,1.051,2.080*64
$GPGBS,063007.00,3.217,3.926,5.932,11,0.0001,2.917,0.908*54
$GPGRS,063007.00,1,-1.0,0.5,2.9,-1.8,-0.7,0.3,0.0,,,,,*4D
$GPGRS,063007.00,1,-9.2,-0.0,1.5,1.5,2.9,-10.1,13.3,-6.9,,,,*42
$GPGRS,063007.00,1,-1.8,0.1,-0.7,-0.3,3.7,,,,,,,*47
$GPGRS,063007.00,1,-0.3,-2.3,1.4,1.3,,,,,,,,*49
$GPGSV,4,1,16,30,78,211,52,13,24,281,45,14,20,166,40,11,19,234,36*76
$GPGSV,4,2,16,09,26,097,31,05,41,305,46,07,61,061,50,20,61,256,47*78
$GPGSV,4,3,16,06,01,205,,08,01,077,,27,03,047,,04,01,098,*71
$GPGSV,4,4,16,36,35,170,39,34,31,208,,49,34,195,35,61,03,257,*7B
$GLGSV,2,1,08,72,75,035,47,88,15,288,38,81,13,340,39,65,29,312,36*6A
$GLGSV,2,2,08,73,38,041,39,75,30,186,38,71,34,110,47,74,69,112,46*66
$GAGSV,3,1,11,05,64,078,47,25,25,156,37,34,14,217,28,13,17,323,35*6B
$GAGSV,3,2,11,09,12,094,,31,19,040,26,16,38,131,,15,30,268,44*60
$GAGSV,3,3,11,24,42,095,40,03,57,292,41,08,08,280,28*5D
$GBGSV,5,1,17,22,76,129,42,46,22,046,,10,11,094,,45,44,190,46*63
$GBGSV,5,2,17,05,22,129,34,09,20,056,27,19,22,126,32,50,23,304,*60
$GBGSV,5,3,17,21,47,305,47,36,65,094,44,02,05,108,,40,09,074,*65
$GBGSV,5,4,17,11,02,301,,06,06,057,,16,04,056,,58,07,038,*6F
$GBGSV,5,5,17,60,07,112,*5E
$GPGGA,063007.00,,,,,0,00,,,M,,M,,*4A
$PTNL,GGK,063007.00,010125,4742.4469316,N,01617.9725174,E,1,24,1.1,EHT668.7979,M*42
$GPGGQ,063007.00,010125,4742.4469316,N,01617.9725174,E,1,24,2.609,625.5868,M*3B
$GPGFA,063007.00,12.268,17.060,1.290,0.901,35.857,2.080,,VVV*3A
$GPLLK,063007.00,010125,,M,,M,1,24,1.3,,M*0D
$GNGMP,063007.00,,,,,DAAA,24,0.6,,,,*54
$GPGMP,063007.00,,,,,,07,,,,2.9,123*73
$GLGMP,063007.00,,,,,,08,,,,,*75
$GAGMP,063007.00,,,,,,05,,,,,*75
$GBGMP,063007.00,,,,,,04,,,,,*77
$PSSN,SNC,[0,282625000,2347]*4D
$GPZDA,063012.00,01,01,2025,,*65
$GPDTM,W84,,00.0000000,N,00.0000000,E,00.0000000,W84*5F
$GPRMC,063012.00,A,4742.4469372,N,01617.9725036,E,0.0,,010125,5.1,E,D*1A
$GPGLL,4742.4469372,N,01617.9725036,E,063012.00,A,D*6B
$GPGGA,063012.00,4742.4469372,N,01617.9725036,E,2,23,0.6,625.5814,M,43.2111,M,3.2,0123*4D
$GNGNS,063012.00,4742.4469372,N,01617.9725036,E,DAAA,23,0.6,625.5814,43.2111,,*50
$GPGNS,063012.00,,,,,,06,,,,3.2,123*7C
$GLGNS,063012.00,,,,,,07,,,,,*7E
$GAGNS,063012.00,,,,,,06,,,,,*72
$GBGNS,063012.00,,,,,,04,,,,,*73
$GPLLQ,063012.00,010125,,M,,M,1,23,2.265,,M*15
$GPVTG,,T,,M,0.00,N,0.00,K,D*26
$GPHDT,,T*1B
$GPTHS,,V*0E
$GPROT,,V*08
$PSSN,HRP,063012.00,010125,,,,,,,00,0,,*67
$PTNL,AVR,063012.00,,Yaw,,Tilt,,,,0,,00*31
$GPGSA,A,3,05,07,13,14,20,30,,,,,,,1.1,0.6,0.9*39
$GPGSA,A,3,71,72,73,74,75,81,88,,,,,,1.1,0.6,0.9*32
$GPGSA,A,3,03,05,13,15,24,25,,,,,,,1.1,0.6,0.9*3C
$GPGSA,A,3,21,22,36,45,,,,,,,,,1.1,0.6,0.9*3A
$GPGST,063012.00,5.531,1.168,0.763,35.313,1.050,0.919,1.784*67
$GPGBS,063012.00,3.598,4.478,6.047,81,0.0001,17.660,6.314*6A
$GPGRS,063012.00,1,-1.0,0.5,-1.6,0.1,0.7,0.2,,,,,,*4F
$GPGRS,063012.00,1,1.7,2.6,-0.4,1.7,-9.5,17.7,-5.6,,,,,*75
$GPGRS,063012.00,1,-1.0,0.5,-1.3,-0.5,0.3,3.5,,,,,,*63
$GPGRS,063012.00,1,1.5,-3.0,3.0,1.6,,,,,,,,*66
$GPGSV,4,1,16,30,78,211,52,13,24,281,45,14,20,166,39,11,19,234,36*78
$GPGSV,4,2,16,09,26,097,28,05,41,305,45,07,61,061,49,20,61,256,48*74
$GPGSV,4,3,16,06,01,205,,08,01,077,,27,03,047,,04,01,098,*71
$GPGSV,4,4,16,36,35,170,39,34,31,208,,49,34,195,35,61,03,257,*7B
$GLGSV,2,1,08,72,75,036,47,88,15,288,39,81,13,340,38,65,29,312,33*6C
$GLGSV,2,2,08,73,38,041,39,75,30,186,38,71,34,110,46,74,69,112,45*64
$GAGSV,3,1,11,05,64,078,47,25,25,156,37,34,14,216,27,13,17,323,35*65
$GAGSV,3,2,11,09,12,094,,31,19,040,22,16,38,131,,15,30,268,44*64
$GAGSV,3,3,11,24,42,095,41,03,57,293,40,08,08,280,24*50
$GBGSV,5,1,17,22,76,129,42,46,22,046,,10,11,094,,45,44,190,47*62
$GBGSV,5,2,17,05,22,129,34,09,20,056,27,19,22,126,30,50,23,304,*62
$GBGSV,5,3,17,21,47,305,48,36,65,094,45,02,05,108,,40,09,074,*6B
$GBGSV,5,4,17,11,02,301,,06,06,057,,16,04,056,,58,07,038,*6F
$GBGSV,5,5,17,60,07,112,*5E
$GPGGA,063012.00,,,,,0,00,,,M,,M,,*4E
$PTNL,GGK,063012.00,010125,4742.4469372,N,01617.9725036,E,1,23,1.1,EHT668.7925,M*4D
$GPGGQ,063012.00,010125,4742.4469372,N,01617.9725036,E,1,23,2.265,625.5814,M*38
$GPGFA,063012.00,11.107,14.628,1.168,0.763,35.313,1.784,,VVV*3B
$GPLLK,063012.00,010125,,M,,M,1,23,1.3,,M*0E
$GNGMP,063012.00,,,,,DAAA,23,0.6,,,,*57
$GPGMP,063012.00,,,,,,06,,,,3.2,123*7C
$GLGMP,063012.00,,,,,,07,,,,,*7E
$GAGMP,063012.00,,,,,,06,,,,,*72
$GBGMP,063012.00,,,,,,04,,,,,*73
$PSSN,SNC,[0,282630000,2347]*49
$GPZDA,063017.00,01,01,2025,,*60
$GPDTM,W84,,00.0000000,N,00.0000000,E,00.0000000,W84*5F
$GPRMC,063017.00,A,4742.4469393,N,01617.9724971,E,0.0,,010125,5.1,E,D*1B
$GPGLL,4742.4469393,N,01617.9724971,E,063017.00,A,D*6A
$GPGGA,063017.00,4742.4469393,N,01617.9724971,E,2,23,0.7,625.5594,M,43.2111,M,1.5,0123*4D
$GNGNS,063017.00,4742.4469393,N,01617.9724971,E,DAAA,23,0.7,625.5594,43.2111,,*55
$GPGNS,063017.00,,,,,,06,,,,1.5,123*7C
$GLGNS,063017.00,,,,,,07,,,,,*7B
$GAGNS,063017.00,,,,,,06,,,,,*77
$GBGNS,063017.00,,,,,,04,,,,,*76
$GPLLQ,063017.00,010125,,M,,M,1,23,2.144,,M*10
$GPVTG,,T,,M,0.01,N,0.02,K,D*25
$GPHDT,,T*1B
$GPTHS,,V*0E
$GPROT,,V*08
$PSSN,HRP,063017.00,010125,,,,,,,00,0,,*62
$PTNL,AVR,063017.00,,Yaw,,Tilt,,,,0,,00*34
$GPGSA,A,3,05,07,13,14,20,30,,,,,,,1.2,0.7,1.0*33
$GPGSA,A,3,65,71,72,73,74,75,88,,,,,,1.2,0.7,1.0*32
$GPGSA,A,3,03,05,13,15,24,25,,,,,,,1.2,0.7,1.0*36
$GPGSA,A,3,21,22,36,45,,,,,,,,,1.2,0.7,1.0*30
$GPGST,063017.00,3.724,1.106,0.717,35.007,0.995,0.865,1.692*62
$GPGBS,063017.00,3.406,4.262,6.179,05,0.0001,-1.166,0.650*7C
$GPGRS,063017.00,1,-1.2,0.2,-1.4,-1.2,1.1,0.5,,,,,,*62
$GPGRS,063017.00,1,-3.9,3.5,4.1,1.1,1.7,-10.1,-5.2,,,,,*76
$GPGRS,063017.00,1,0.3,0.8,-1.0,-0.3,1.7,2.4,,,,,,*44
$GPGRS,063017.00,1,1.8,-2.7,3.3,2.5,,,,,,,,*6B
$GPGSV,4,1,16,30,78,211,52,13,24,281,45,14,20,166,39,11,19,234,34*7A
$GPGSV,4,2,16,09,26,098,25,05,41,305,44,07,61,061,48,20,61,256,47*79
$GPGSV,4,3,16,06,01,205,,08,01,077,,27,03,047,,04,01,098,*71
$GPGSV,4,4,16,36,35,170,39,34,31,208,,49,34,195,35,61,03,257,*7B
$GLGSV,2,1,08,72,75,036,48,88,15,288,41,81,13,340,,65,29,312,37*63
$GLGSV,2,2,08,73,38,041,43,75,30,186,36,71,33,110,45,74,70,112,45*6B
$GAGSV,3,1,11,05,64,079,47,25,25,156,37,34,14,216,30,13,17,323,35*62
$GAGSV,3,2,11,09,12,094,,31,19,040,26,16,38,131,,15,30,268,44*60
$GAGSV,3,3,11,24,42,095,42,03,57,293,39,08,08,280,28*51
$GBGSV,5,1,17,22,76,129,42,46,22,046,,10,11,094,,45,44,190,48*6D
$GBGSV,5,2,17,05,22,129,34,09,20,056,26,19,22,126,26,50,23,304,*64
$GBGSV,5,3,17,21,47,305,48,36,65,094,45,02,05,108,,40,09,074,*6B
$GBGSV,5,4,17,11,02,301,,06,06,057,,16,04,056,,58,07,038,*6F
$GBGSV,5,5,17,60,07,112,*5E
$GPGGA,063017.00,,,,,0,00,,,M,,M,,*4B
$PTNL,GGK,063017.00,010125,4742.4469393,N,01617.9724971,E,1,23,1.2,EHT668.7705,M*43
$GPGGQ,063017.00,010125,4742.4469393,N,01617.9724971,E,1,23,2.144,625.5594,M*3C
$GPGFA,063017.00,10.518,13.870,1.106,0.717,35.007,1.692,,VVV*3A
$GPLLK,063017.00,010125,,M,,M,1,23,1.4,,M*0C
$GNGMP,063017.00,,,,,DAAA,23,0.7,,,,*53
$GPGMP,063017.00,,,,,,06,,,,1.5,123*7C
$GLGMP,063017.00,,,,,,07,,,,,*7B
$GAGMP,063017.00,,,,,,06,,,,,*77
$GBGMP,063017.00,,,,,,04,,,,,*76
$PSSN,SNC,[0,282635000,2347]*4C
$GPZDA,063022.00,01,01,2025,,*66
$GPDTM,W84,,00.0000000,N,00.0000000,E,00.0000000,W84*5F
$GPRMC,063022.00,A,4742.4469397,N,01617.9724899,E,0.0,,010125,5.1,E,D*1E
$GPGLL,4742.4469397,N,01617.9724899,E,063022.00,A,D*6F
$GPGGA,063022.00,4742.4469397,N,01617.9724899,E,2,23,0.7,625.5250,M,43.2111,M,2.5,0123*44
$GNGNS,063022.00,4742.4469397,N,01617.9724899,E,DAAA,23,0.7,625.5250,43.2111,,*5F
$GPGNS,063022.00,,,,,,06,,,,2.5,123*79
$GLGNS,063022.00,,,,,,07,,,,,*7D
$GAGNS,063022.00,,,,,,06,,,,,*71
$GBGNS,063022.00,,,,,,04,,,,,*70
$GPLLQ,063022.00,010125,,M,,M,1,23,1.857,,M*1E
$GPVTG,,T,,M,0.00,N,0.01,K,D*27
$GPHDT,,T*1B
$GPTHS,,V*0E
$GPROT,,V*08
$PSSN,HRP,063022.00,010125,,,,,,,00,0,,*64
$PTNL,AVR,063022.00,,Yaw,,Tilt,,,,0,,00*32
$GPGSA,A,3,05,07,13,14,20,30,,,,,,,1.2,0.7,1.0*33
$GPGSA,A,3,65,71,72,73,74,75,88,,,,,,1.2,0.7,1.0*32
$GPGSA,A,3,03,05,13,15,24,25,,,,,,,1.2,0.7,1.0*36
$GPGSA,A,3,21,22,36,45,,,,,,,,,1.2,0.7,1.0*30
$GPGST,063022.00,3.670,0.950,0.610,34.892,0.854,0.739,1.474*6D
$GPGBS,063022.00,3.477,4.340,6.333,20,0.0001,1.268,0.633*53
$GPGRS,063022.00,1,-1.0,0.2,-1.2,-0.3,1.3,0.4,,,,,,*63
$GPGRS,063022.00,1,-1.9,2.3,4.7,1.7,2.0,-11.7,-3.7,,,,,*75
$GPGRS,063022.00,1,0.6,0.7,-0.7,-0.7,2.5,0.3,,,,,,*4E
$GPGRS,063022.00,1,0.7,-2.4,2.0,2.3,,,,,,,,*64
$GPGSV,4,1,16,30,78,211,53,13,24,281,45,14,20,166,39,11,19,234,32*7D
$GPGSV,4,2,16,09,26,098,28,05,41,305,43,07,61,061,48,20,61,256,47*73
$GPGSV,4,3,16,06,01,205,,08,01,077,,27,03,047,,04,01,098,*71
$GPGSV,4,4,16,36,35,170,39,34,31,208,,49,34,195,35,61,03,257,*7B
$GLGSV,2,1,08,72,75,036,49,88,15,288,43,81,13,340,29,65,29,312,40*6B
$GLGSV,2,2,08,73,38,041,45,75,30,186,35,71,33,110,41,74,70,112,45*6A
$GAGSV,3,1,11,05,64,079,47,25,25,156,37,34,14,216,32,13,17,323,35*60
$GAGSV,3,2,11,09,12,094,,31,19,040,28,16,38,131,,15,30,268,44*6E
$GAGSV,3,3,11,24,42,095,42,03,57,293,39,08,08,280,29*50
$GBGSV,5,1,17,22,76,129,42,46,21,046,,10,11,094,,45,44,190,48*6E
$GBGSV,5,2,17,05,22,129,34,09,20,056,26,19,22,126,23,50,23,304,*61
$GBGSV,5,3,17,21,47,305,47,36,65,094,45,02,05,108,,40,09,074,*64
$GBGSV,5,4,17,11,02,301,,06,06,057,,16,04,056,,58,07,038,*6F
$GBGSV,5,5,17,60,07,112,*5E
$GPGGA,063022.00,,,,,0,00,,,M,,M,,*4D
$PTNL,GGK,063022.00,010125,4742.4469397,N,01617.9724899,E,1,23,1.2,EHT668.7361,M*40
$GPGGQ,063022.00,010125,4742.4469397,N,01617.9724899,E,1,23,1.857,625.5250,M*3E
$GPGFA,063022.00,9.032,12.090,0.950,0.610,34.892,1.474,,VVV*0D
$GPLLK,063022.00,010125,,M,,M,1,23,1.4,,M*0A
$GNGMP,063022.00,,,,,DAAA,23,0.7,,,,*55
$GPGMP,063022.00,,,,,,06,,,,2.5,123*79
$GLGMP,063022.00,,,,,,07,,,,,*7D
$GAGMP,063022.00,,,,,,06,,,,,*71
$GBGMP,063022.00,,,,,,04,,,,,*70
$PSSN,SNC,[0,282640000,2347]*4E
$GPZDA,063027.00,01,01,2025,,*63
$GPDTM,W84,,00.0000000,N,00.0000000,E,00.0000000,W84*5F
$GPRMC,063027.00,A,4742.4469455,N,01617.9724858,E,0.0,,010125,5.1,E,D*1F
$GPGLL,4742.4469455,N,01617.9724858,E,063027.00,A,D*6E
$GPGGA,063027.00,4742.4469455,N,01617.9724858,E,2,22,0.7,625.5061,M,43.2111,M,2.8,0123*49
$GNGNS,063027.00,4742.4469455,N,01617.9724858,E,DAAA,22,0.7,625.5061,43.2111,,*5F
$GPGNS,063027.00,,,,,,06,,,,2.8,123*71
$GLGNS,063027.00,,,,,,07,,,,,*78
$GAGNS,063027.00,,,,,,05,,,,,*77
$GBGNS,063027.00,,,,,,04,,,,,*75
$GPLLQ,063027.00,010125,,M,,M,1,22,1.675,,M*14
$GPVTG,,T,,M,0.00,N,0.01,K,D*27
$GPHDT,,T*1B
$GPTHS,,V*0E
$GPROT,,V*08
$PSSN,HRP,063027.00,010125,,,,,,,00,0,,*61
$PTNL,AVR,063027.00,,Yaw,,Tilt,,,,0,,00*37
$GPGSA,A,3,05,07,13,14,20,30,,,,,,,1.3,0.7,1.1*33
$GPGSA,A,3,65,71,72,73,74,75,88,,,,,,1.3,0.7,1.1*32
$GPGSA,A,3,03,05,15,24,25,,,,,,,,1.3,0.7,1.1*34
$GPGSA,A,3,21,22,36,45,,,,,,,,,1.3,0.7,1.1*30
$GPGST,063027.00,3.175,0.856,0.552,34.543,0.772,0.666,1.330*6E
$GPGBS,063027.00,3.502,4.355,6.030,20,0.0001,0.965,0.577*55
$GPGRS,063027.00,1,-0.5,-0.0,-1.3,0.3,1.0,0.2,,,,,,*64
$GPGRS,063027.00,1,-3.8,-3.9,6.3,1.9,1.2,-7.1,-2.2,,,,,*69
$GPGRS,063027.00,1,1.1,0.1,-1.5,1.4,-1.3,,,,,,,*62
$GPGRS,063027.00,1,0.5,-2.3,1.0,2.2,,,,,,,,*66
$GPGSV,4,1,16,30,78,211,53,13,24,281,45,14,21,166,40,11,19,234,31*71
$GPGSV,4,2,16,09,26,098,31,05,41,305,45,07,61,061,47,20,61,255,48*7E
$GPGSV,4,3,16,06,01,205,21,08,01,077,,27,03,047,,04,01,098,*72
$GPGSV,4,4,16,36,35,170,39,34,31,208,,49,34,195,35,61,03,257,*7B
$GLGSV,2,1,08,72,75,036,50,88,15,288,44,81,13,340,32,65,29,312,41*6F
$GLGSV,2,2,08,73,38,041,46,75,30,186,36,71,33,110,37,74,70,112,45*6B
$GAGSV,3,1,11,05,64,079,47,25,25,156,37,34,14,216,34,13,17,323,35*66
$GAGSV,3,2,11,09,12,094,,31,19,040,25,16,38,131,,15,30,268,43*64
$GAGSV,3,3,11,24,42,095,42,03,57,293,39,08,08,280,29*50
$GBGSV,5,1,17,22,76,129,43,46,21,046,,10,11,094,,45,44,190,48*6F
$GBGSV,5,2,17,05,22,129,34,09,20,056,24,19,22,126,23,50,23,304,*63
$GBGSV,5,3,17,21,47,305,47,36,65,094,46,02,05,108,,40,10,074,*6F
$GBGSV,5,4,17,11,02,301,,06,06,057,,16,04,056,,58,07,038,*6F
$GBGSV,5,5,17,60,07,112,*5E
$GPGGA,063027.00,,,,,0,00,,,M,,M,,*48
$PTNL,GGK,063027.00,010125,4742.4469455,N,01617.9724858,E,1,22,1.3,EHT668.7172,M*41
$GPGGQ,063027.00,010125,4742.4469455,N,01617.9724858,E,1,22,1.675,625.5061,M*30
$GPGFA,063027.00,8.143,10.903,0.856,0.552,34.543,1.330,,VVV*0B
$GPLLK,063027.00,010125,,M,,M,1,22,1.5,,M*0F
$GNGMP,063027.00,,,,,DAAA,22,0.7,,,,*51
$GPGMP,063027.00,,,,,,06,,,,2.8,123*71
$GLGMP,063027.00,,,,,,07,,,,,*78
$GAGMP,063027.00,,,,,,05,,,,,*77
$GBGMP,063027.00,,,,,,04,,,,,*75
$PSSN,SNC,[0,282645000,2347]*4B
$GPZDA,063032.00,01,01,2025,,*67
$GPDTM,W84,,00.0000000,N,00.0000000,E,00.0000000,W84*5F
$GPRMC,063032.00,A,4742.4469505,N,01617.9724863,E,0.0,,010125,5.1,E,D*17
$GPGLL,4742.4469505,N,01617.9724863,E,063032.00,A,D*66
$GPGGA,063032.00,4742.4469505,N,01617.9724863,E,2,23,0.7,625.4914,M,43.2111,M,3.2,0123*41
$GNGNS,063032.00,4742.4469505,N,01617.9724863,E,DAAA,23,0.7,625.4914,43.2111,,*5C
$GPGNS,063032.00,,,,,,06,,,,3.2,123*7E
$GLGNS,063032.00,,,,,,07,,,,,*7C
$GAGNS,063032.00,,,,,,06,,,,,*70
$GBGNS,063032.00,,,,,,04,,,,,*71
$GPLLQ,063032.00,010125,,M,,M,1,23,1.693,,M*19
$GPVTG,,T,,M,0.00,N,0.00,K,D*26
$GPHDT,,T*1B
$GPTHS,,V*0E
$GPROT,,V*08
$PSSN,HRP,063032.00,010125,,,,,,,00,0,,*65
$PTNL,AVR,063032.00,,Yaw,,Tilt,,,,0,,00*33
$GPGSA,A,3,05,07,13,14,20,30,,,,,,,1.3,0.7,1.0*32
$GPGSA,A,3,65,71,72,73,74,75,88,,,,,,1.3,0.7,1.0*33
$GPGSA,A,3,03,05,15,24,25,34,,,,,,,1.3,0.7,1.0*32
$GPGSA,A,3,21,22,36,45,,,,,,,,,1.3,0.7,1.0*31
$GPGST,063032.00,3.529,0.870,0.568,34.712,0.785,0.681,1.337*6A
$GPGBS,063032.00,3.609,4.443,6.160,20,0.0001,1.027,0.593*59
$GPGRS,063032.00,1,-0.3,-0.4,-0.8,-0.1,1.0,0.3,,,,,,*46
$GPGRS,063032.00,1,-5.4,-8.6,6.5,1.7,1.4,-3.9,0.3,,,,,*4F
$GPGRS,063032.00,1,0.6,0.1,-2.2,-0.4,-2.6,-3.4,,,,,,*4A
$GPGRS,063032.00,1,1.1,-1.7,0.2,2.2,,,,,,,,*63
$GPGSV,4,1,16,30,78,211,53,13,24,281,46,14,21,166,41,11,19,234,34*76
$GPGSV,4,2,16,09,26,098,30,05,41,305,46,07,61,061,45,20,61,255,48*7E
$GPGSV,4,3,16,06,01,205,,08,01,077,,27,03,047,,04,00,098,*70
$GPGSV,4,4,16,36,35,170,39,34,31,208,,49,34,195,35,61,03,257,*7B
$GLGSV,2,1,08,72,75,036,49,88,15,288,45,81,13,340,35,65,29,312,41*61
$GLGSV,2,2,08,73,38,041,47,75,30,186,39,71,33,110,38,74,70,112,46*69
$GAGSV,3,1,11,05,64,079,47,25,25,156,36,34,14,216,35,13,17,323,35*66
$GAGSV,3,2,11,09,12,094,,31,19,040,25,16,38,131,,15,30,268,43*64
$GAGSV,3,3,11,24,42,095,42,03,58,293,39,08,08,280,30*57
$GBGSV,5,1,17,22,76,129,43,46,21,046,,10,11,094,,09,20,056,23*63
$GBGSV,5,2,17,05,22,129,34,45,44,190,47,19,22,126,24,50,23,304,*60
$GBGSV,5,3,17,21,47,305,46,36,65,094,46,02,05,108,,40,10,074,*6E
$GBGSV,5,4,17,11,02,301,,06,06,057,,16,04,056,,58,07,038,*6F
$GBGSV,5,5,17,60,07,112,*5E
$GPGGA,063032.00,,,,,0,00,,,M,,M,,*4C
$PTNL,GGK,063032.00,010125,4742.4469505,N,01617.9724863,E,1,23,1.3,EHT668.7025,M*4B
$GPGGQ,063032.00,010125,4742.4469505,N,01617.9724863,E,1,23,1.693,625.4914,M*3B
$GPGFA,063032.00,8.273,10.960,0.870,0.568,34.712,1.337,,VVV*06
$GPLLK,063032.00,010125,,M,,M,1,23,1.5,,M*0A
$GNGMP,063032.00,,,,,DAAA,23,0.7,,,,*54
$GPGMP,063032.00,,,,,,06,,,,3.2,123*7E
$GLGMP,063032.00,,,,,,07,,,,,*7C
$GAGMP,063032.00,,,,,,06,,,,,*70
$GBGMP,063032.00,,,,,,04,,,,,*71
$PSSN,SNC,[0,282650000,2347]*4F
$GPZDA,063037.00,01,01,2025,,*62
$GPDTM,W84,,00.0000000,N,00.0000000,E,00.0000000,W84*5F
$GPRMC,063037.00,A,4742.4469533,N,01617.9724879,E,0.0,,010125,5.1,E,D*1C
$GPGLL,4742.4469533,N,01617.9724879,E,063037.00,A,D*6D
$GPGGA,063037.00,4742.4469533,N,01617.9724879,E,2,23,0.7,625.4662,M,43.2111,M,1.5,0123*41
$GNGNS,063037.00,4742.4469533,N,01617.9724879,E,DAAA,23,0.7,625.4662,43.2111,,*59
$GPGNS,063037.00,,,,,,06,,,,1.5,123*7E
$GLGNS,063037.00,,,,,,07,,,,,*79
$GAGNS,063037.00,,,,,,06,,,,,*75
$GBGNS,063037.00,,,,,,04,,,,,*74
$GPLLQ,063037.00,010125,,M,,M,1,23,1.513,,M*17
$GPVTG,,T,,M,0.01,N,0.02,K,D*25
$GPHDT,,T*1B
$GPTHS,,V*0E
$GPROT,,V*08
$PSSN,HRP,063037.00,010125,,,,,,,00,0,,*60
$PTNL,AVR,063037.00,,Yaw,,Tilt,,,,0,,00*36
$GPGSA,A,3,05,07,13,14,20,30,,,,,,,1.3,0.7,1.0*32
$GPGSA,A,3,65,71,72,73,74,75,88,,,,,,1.3,0.7,1.0*33
$GPGSA,A,3,03,05,15,24,25,34,,,,,,,1.3,0.7,1.0*32
$GPGSA,A,3,21,22,36,45,,,,,,,,,1.3,0.7,1.0*31
$GPGST,063037.00,3.010,0.778,0.506,34.724,0.701,0.608,1.194*6C
$GPGBS,063037.00,3.385,4.235,6.256,20,0.0001,1.032,0.612*52
$GPGRS,063037.00,1,-0.2,-0.4,-1.0,-0.2,1.0,0.3,,,,,,*48
$GPGRS,063037.00,1,-6.0,-5.1,5.0,1.9,2.1,-3.3,-1.0,,,,,*6C
$GPGRS,063037.00,1,0.5,0.4,-2.5,-1.5,-1.9,-3.0,,,,,,*46
$GPGRS,063037.00,1,1.9,-2.1,0.4,2.7,,,,,,,,*68
$GPGSV,4,1,16,30,78,211,53,13,24,281,46,14,21,166,41,11,19,234,35*77
$GPGSV,4,2,16,09,26,098,30,05,41,305,46,07,61,061,44,20,61,255,48*7F
$GPGSV,4,3,16,06,01,205,,08,01,077,,27,03,046,,04,00,098,*71
$GPGSV,4,4,16,36,35,170,39,34,31,208,,49,34,195,35,61,03,257,*7B
$GLGSV,2,1,08,72,75,037,48,88,15,288,42,81,13,340,31,65,29,312,43*60
$GLGSV,2,2,08,73,38,041,47,75,31,186,42,71,33,110,39,74,70,112,47*64
$GAGSV,3,1,11,05,63,079,47,25,25,156,36,34,14,216,36,13,17,323,35*62
$GAGSV,3,2,11,09,12,094,,31,19,040,23,16,38,131,,15,30,268,42*63
$GAGSV,3,3,11,24,42,095,42,03,58,293,38,08,08,281,27*51
$GBGSV,5,1,17,22,76,129,43,46,21,046,,10,11,094,,09,20,056,23*63
$GBGSV,5,2,17,05,22,129,34,45,44,190,47,19,22,126,28,50,23,304,*6C
$GBGSV,5,3,17,21,47,305,46,36,65,094,47,02,05,108,,40,10,074,*6F
$GBGSV,5,4,17,11,02,301,,06,06,057,,16,04,056,,58,07,038,*6F
$GBGSV,5,5,17,60,07,112,*5E
$GPGGA,063037.00,,,,,0,00,,,M,,M,,*49
$PTNL,GGK,063037.00,010125,4742.4469533,N,01617.9724879,E,1,23,1.3,EHT668.6772,M*44
$GPGGQ,063037.00,010125,4742.4469533,N,01617.9724879,E,1,23,1.513,625.4662,M*35
$GPGFA,063037.00,7.396,9.793,0.778,0.506,34.724,1.194,,VVV*3D
$GPLLK,063037.00,010125,,M,,M,1,23,1.5,,M*0F
$GNGMP,063037.00,,,,,DAAA,23,0.7,,,,*51
$GPGMP,063037.00,,,,,,06,,,,1.5,123*7E
$GLGMP,063037.00,,,,,,07,,,,,*79
$GAGMP,063037.00,,,,,,06,,,,,*75
$GBGMP,063037.00,,,,,,04,,,,,*74
$PSSN,SNC,[0,282655000,2347]*4A
$GPZDA,063042.00,01,01,2025,,*60
$GPDTM,W84,,00.0000000,N,00.0000000,E,00.0000000,W84*5F
$GPRMC,063042.00,A,4742.4469565,N,01617.9724902,E,0.0,,010125,5.1,E,D*10
$GPGLL,4742.4469565,N,01617.9724902,E,063042.00,A,D*61
$GPGGA,063042.00,4742.4469565,N,01617.9724902,E,2,24,0.6,625.4472,M,43.2111,M,2.5,0123*4B
$GNGNS,063042.00,4742.4469565,N,01617.9724902,E,DAAA,24,0.6,625.4472,43.2111,,*50
$GPGNS,063042.00,,,,,,06,,,,2.5,123*7F
$GLGNS,063042.00,,,,,,07,,,,,*7B
$GAGNS,063042.00,,,,,,07,,,,,*76
$GBGNS,063042.00,,,,,,04,,,,,*76
$GPLLQ,063042.00,010125,,M,,M,1,24,1.454,,M*10
$GPVTG,,T,,M,0.00,N,0.00,K,D*26
$GPHDT,,T*1B
$GPTHS,,V*0E
$GPROT,,V*08
$PSSN,HRP,063042.00,010125,,,,,,,00,0,,*62
$PTNL,AVR,063042.00,,Yaw,,Tilt,,,,0,,00*34
$GPGSA,A,3,05,07,13,14,20,30,,,,,,,1.2,0.6,1.0*32
$GPGSA,A,3,65,71,72,73,74,75,88,,,,,,1.2,0.6,1.0*33
$GPGSA,A,3,03,05,13,15,24,25,34,,,,,,1.2,0.6,1.0*30
$GPGSA,A,3,21,22,36,45,,,,,,,,,1.2,0.6,1.0*31
$GPGST,063042.00,2.548,0.740,0.478,35.330,0.664,0.579,1.157*6C
$GPGBS,063042.00,3.437,4.318,6.350,13,0.0001,-1.300,0.832*74
$GPGRS,063042.00,1,-0.5,0.0,-1.3,0.1,0.9,0.4,,,,,,*46
$GPGRS,063042.00,1,-4.5,-0.9,5.1,1.2,2.7,-1.9,-2.6,,,,,*65
$GPGRS,063042.00,1,0.5,0.7,-0.7,-2.5,-2.0,-1.9,-2.4,,,,,*40
$GPGRS,063042.00,1,2.5,-1.9,0.7,3.2,,,,,,,,*69
$GPGSV,4,1,16,30,78,211,53,13,24,281,45,14,21,166,41,11,19,234,35*74
$GPGSV,4,2,16,09,26,098,31,05,41,305,47,07,61,061,42,20,61,255,48*79
$GPGSV,4,3,16,06,01,205,,08,01,077,,27,03,046,,04,00,098,*71
$GPGSV,4,4,16,36,35,170,39,34,31,208,,49,34,195,35,61,03,257,*7B
$GLGSV,2,1,08,72,75,037,48,88,15,288,41,81,13,340,28,65,29,312,44*6C
$GLGSV,2,2,08,73,38,041,46,75,31,186,44,71,33,110,42,74,70,112,47*6F
$GAGSV,3,1,11,05,63,079,47,25,25,156,35,34,14,216,36,13,17,323,35*61
$GAGSV,3,2,11,09,12,094,,31,19,040,23,16,39,131,,15,30,268,42*62
$GAGSV,3,3,11,24,42,095,41,03,58,293,38,08,08,281,30*54
$GBGSV,5,1,17,22,76,129,43,46,21,046,,10,11,094,,09,20,056,22*62
$GBGSV,5,2,17,05,22,129,34,45,44,190,46,19,22,126,31,50,23,304,*65
$GBGSV,5,3,17,21,47,305,47,36,65,094,48,02,05,108,,40,10,074,*61
$GBGSV,5,4,17,11,02,301,,06,06,057,,16,04,057,,58,07,038,*6E
$GBGSV,5,5,17,60,07,112,*5E
$GPGGA,063042.00,,,,,0,00,,,M,,M,,*4B
$PTNL,GGK,063042.00,010125,4742.4469565,N,01617.9724902,E,1,24,1.2,EHT668.6583,M*42
$GPGGQ,063042.00,010125,4742.4469565,N,01617.9724902,E,1,24,1.454,625.4472,M*3F
$GPGFA,063042.00,7.040,9.486,0.740,0.478,35.330,1.157,,VVV*3C
$GPLLK,063042.00,010125,,M,,M,1,24,1.4,,M*0B
$GNGMP,063042.00,,,,,DAAA,24,0.6,,,,*55
$GPGMP,063042.00,,,,,,06,,,,2.5,123*7F
$GLGMP,063042.00,,,,,,07,,,,,*7B
$GAGMP,063042.00,,,,,,07,,,,,*76
$GBGMP,063042.00,,,,,,04,,,,,*76
$PSSN,SNC,[0,282660000,2347]*4C
$GPZDA,063047.00,01,01,2025,,*65
$GPDTM,W84,,00.0000000,N,00.0000000,E,00.0000000,W84*5F
$GPRMC,063047.00,A,4742.4469627,N,01617.9724838,E,0.0,,010125,5.1,E,D*18
$GPGLL,4742.4469627,N,01617.9724838,E,063047.00,A,D*69
$GPGGA,063047.00,4742.4469627,N,01617.9724838,E,2,23,0.7,625.4290,M,43.2111,M,2.8,0123*42
$GNGNS,063047.00,4742.4469627,N,01617.9724838,E,DAAA,23,0.7,625.4290,43.2111,,*54
$GPGNS,063047.00,,,,,,06,,,,2.8,123*77
$GLGNS,063047.00,,,,,,07,,,,,*7E
$GAGNS,063047.00,,,,,,06,,,,,*72
$GBGNS,063047.00,,,,,,04,,,,,*73
$GPLLQ,063047.00,010125,,M,,M,1,23,1.624,,M*17
$GPVTG,,T,,M,0.01,N,0.01,K,D*26
$GPHDT,,T*1B
$GPTHS,,V*0E
$GPROT,,V*08
$PSSN,HRP,063047.00,010125,,,,,,,00,0,,*67
$PTNL,AVR,063047.00,,Yaw,,Tilt,,,,0,,00*31
$GPGSA,A,3,05,07,13,14,20,30,,,,,,,1.2,0.7,1.0*33
$GPGSA,A,3,65,71,72,73,74,75,88,,,,,,1.2,0.7,1.0*32
$GPGSA,A,3,03,05,13,15,24,34,,,,,,,1.2,0.7,1.0*36
$GPGSA,A,3,21,22,36,45,,,,,,,,,1.2,0.7,1.0*30
$GPGST,063047.00,2.481,0.828,0.537,34.918,0.745,0.647,1.290*63
$GPGBS,063047.00,3.450,4.331,5.976,13,0.0001,-1.710,0.846*70
$GPGRS,063047.00,1,-0.5,-0.2,-1.7,-0.1,0.5,0.8,,,,,,*45
$GPGRS,063047.00,1,-4.1,0.5,5.0,1.3,2.2,-0.8,-3.1,,,,,*46
$GPGRS,063047.00,1,-0.1,0.6,1.8,-2.2,-1.9,-2.2,,,,,,*4E
$GPGRS,063047.00,1,2.8,-1.4,0.4,3.0,,,,,,,,*6D
$GPGSV,4,1,16,30,78,211,53,13,24,281,43,14,21,166,42,11,19,234,28*7D
$GPGSV,4,2,16,09,26,098,31,05,41,305,47,07,61,061,41,20,61,255,48*7A
$GPGSV,4,3,16,06,01,205,,08,01,077,,27,03,046,,04,00,098,*71
$GPGSV,4,4,16,36,35,170,39,34,31,208,,49,34,195,35,61,03,257,*7B
$GLGSV,2,1,08,72,75,037,48,88,15,288,42,81,13,340,21,65,29,312,44*66
$GLGSV,2,2,08,73,38,041,46,75,31,186,44,71,33,110,44,74,70,111,46*6B
$GAGSV,3,1,11,05,63,079,47,25,26,156,34,34,14,216,36,13,17,323,36*60
$GAGSV,3,2,11,09,12,094,,31,19,040,21,16,39,131,,15,30,268,42*60
$GAGSV,3,3,11,24,42,095,40,03,58,293,38,08,08,281,29*5D
$GBGSV,5,1,17,22,76,129,43,46,21,046,,10,11,094,,09,20,056,21*61
$GBGSV,5,2,17,05,22,129,34,45,44,190,46,19,22,126,33,50,23,304,*67
$GBGSV,5,3,17,21,47,305,47,36,65,094,47,02,05,108,,40,10,074,*6E
$GBGSV,5,4,17,11,02,301,,06,06,057,,16,04,057,,58,07,038,*6E
$GBGSV,5,5,17,60,07,112,*5E
$GPGGA,063047.00,,,,,0,00,,,M,,M,,*4E
$PTNL,GGK,063047.00,010125,4742.4469627,N,01617.9724838,E,1,23,1.2,EHT668.6401,M*46
$GPGGQ,063047.00,010125,4742.4469627,N,01617.9724838,E,1,23,1.624,625.4290,M*3F
$GPGFA,063047.00,7.873,10.575,0.828,0.537,34.918,1.290,,VVV*06
$GPLLK,063047.00,010125,,M,,M,1,23,1.4,,M*09
$GNGMP,063047.00,,,,,DAAA,23,0.7,,,,*56
$GPGMP,063047.00,,,,,,06,,,,2.8,123*77
$GLGMP,063047.00,,,,,,07,,,,,*7E
$GAGMP,063047.00,,,,,,06,,,,,*72
$GBGMP,063047.00,,,,,,04,,,,,*73
$PSSN,SNC,[0,282665000,2347]*49
$GPZDA,063052.00,01,01,2025,,*61
$GPDTM,W84,,00.0000000,N,00.0000000,E,00.0000000,W84*5F
$GPRMC,063052.00,A,4742.4469661,N,01617.9724726,E,0.0,,010125,5.1,E,D*1E
$GPGLL,4742.4469661,N,01617.9724726,E,063052.00,A,D*6F
$GPGGA,063052.00,4742.4469661,N,01617.9724726,E,2,23,0.7,625.4097,M,43.2111,M,3.2,0123*4A
$GNGNS,063052.00,4742.4469661,N,01617.9724726,E,DAAA,23,0.7,625.4097,43.2111,,*57
$GPGNS,063052.00,,,,,,06,,,,3.2,123*78
$GLGNS,063052.00,,,,,,07,,,,,*7A
$GAGNS,063052.00,,,,,,06,,,,,*76
$GBGNS,063052.00,,,,,,04,,,,,*77
$GPLLQ,063052.00,010125,,M,,M,1,23,1.515,,M*12
$GPVTG,,T,,M,0.01,N,0.01,K,D*26
$GPHDT,,T*1B
$GPTHS,,V*0E
$GPROT,,V*08
$PSSN,HRP,063052.00,010125,,,,,,,00,0,,*63
$PTNL,AVR,063052.00,,Yaw,,Tilt,,,,0,,00*35
$GPGSA,A,3,05,07,13,14,20,30,,,,,,,1.2,0.7,1.0*33
$GPGSA,A,3,65,71,72,73,74,75,88,,,,,,1.2,0.7,1.0*32
$GPGSA,A,3,03,05,13,15,24,34,,,,,,,1.2,0.7,1.0*36
$GPGSA,A,3,21,22,36,45,,,,,,,,,1.2,0.7,1.0*30
$GPGST,063052.00,2.418,0.776,0.508,34.697,0.701,0.608,1.197*68
$GPGBS,063052.00,3.592,4.439,6.120,13,0.0001,-1.302,0.862*7D
$GPGRS,063052.00,1,-0.5,0.6,-1.3,-0.2,0.2,0.4,,,,,,*64
$GPGRS,063052.00,1,-3.7,1.0,4.8,1.6,2.3,-1.3,-3.8,,,,,*49
$GPGRS,063052.00,1,-0.2,0.4,2.3,-2.0,-1.6,-2.5,,,,,,*49
$GPGRS,063052.00,1,2.5,-1.1,0.5,2.0,,,,,,,,*61
$GPGSV,4,1,16,30,79,211,53,13,24,281,41,14,21,166,43,11,19,234,30*76
$GPGSV,4,2,16,09,26,098,30,05,41,305,47,07,61,061,42,20,61,255,47*77
$GPGSV,4,3,16,06,01,205,,08,01,077,,27,03,046,,04,00,098,*71
$GPGSV,4,4,16,36,35,170,39,34,31,208,,49,34,195,35,61,03,257,*7B
$GLGSV,2,1,08,72,75,037,48,88,15,288,41,81,13,340,31,65,29,312,45*65
$GLGSV,2,2,08,73,38,041,46,75,31,186,43,71,33,110,45,74,70,111,46*6D
$GAGSV,3,1,11,05,63,079,47,25,26,156,32,34,14,216,35,13,17,322,36*64
$GAGSV,3,2,11,09,12,094,,31,19,040,34,16,39,131,,15,30,268,42*64
$GAGSV,3,3,11,24,42,095,39,03,58,293,39,08,08,281,26*5D
$GBGSV,5,1,17,22,76,129,44,46,21,046,,10,11,094,,09,20,056,21*66
$GBGSV,5,2,17,05,22,129,34,45,44,190,45,19,22,126,34,50,23,304,*63
$GBGSV,5,3,17,21,47,305,46,36,65,094,47,02,05,108,,40,10,074,*6F
$GBGSV,5,4,17,11,02,301,,06,06,057,,16,03,057,,58,07,038,*69
$GBGSV,5,5,17,60,07,112,*5E
$GPGGA,063052.00,,,,,0,00,,,M,,M,,*4A
$PTNL,GGK,063052.00,010125,4742.4469661,N,01617.9724726,E,1,23,1.2,EHT668.6207,M*40
$GPGGQ,063052.00,010125,4742.4469661,N,01617.9724726,E,1,23,1.515,625.4097,M*3D
$GPGFA,063052.00,7.382,9.817,0.776,0.508,34.697,1.197,,VVV*32
$GPLLK,063052.00,010125,,M,,M,1,23,1.4,,M*0D
$GNGMP,063052.00,,,,,DAAA,23,0.7,,,,*52
$GPGMP,063052.00,,,,,,06,,,,3.2,123*78
$GLGMP,063052.00,,,,,,07,,,,,*7A
$GAGMP,063052.00,,,,,,06,,,,,*76
$GBGMP,063052.00,,,,,,04,,,,,*77
$PSSN,SNC,[0,282670000,2347]*4D
$GPZDA,063057.00,01,01,2025,,*64
$GPDTM,W84,,00.0000000,N,00.0000000,E,00.0000000,W84*5F
$GPRMC,063057.00,A,4742.4469643,N,01617.9724674,E,0.0,,010125,5.1,E,D*1D
$GPGLL,4742.4469643,N,01617.9724674,E,063057.00,A,D*6C
$GPGGA,063057.00,4742.4469643,N,01617.9724674,E,2,22,0.7,625.3917,M,43.2111,M,1.5,0123*4B
$GNGNS,063057.00,4742.4469643,N,01617.9724674,E,DAAA,22,0.7,625.3917,43.2111,,*53
$GPGNS,063057.00,,,,,,06,,,,1.5,123*78
$GLGNS,063057.00,,,,,,07,,,,,*7F
$GAGNS,063057.00,,,,,,05,,,,,*70
$GBGNS,063057.00,,,,,,04,,,,,*72
$GPLLQ,063057.00,010125,,M,,M,1,22,1.198,,M*17
$GPVTG,,T,,M,0.00,N,0.01,K,D*27
$GPHDT,,T*1B
$GPTHS,,V*0E
$GPROT,,V*08
$PSSN,HRP,063057.00,010125,,,,,,,00,0,,*66
$PTNL,AVR,063057.00,,Yaw,,Tilt,,,,0,,00*30
$GPGSA,A,3,05,07,13,14,20,30,,,,,,,1.2,0.7,1.0*33
$GPGSA,A,3,65,71,72,73,74,75,88,,,,,,1.2,0.7,1.0*32
$GPGSA,A,3,03,05,13,15,24,,,,,,,,1.2,0.7,1.0*31
$GPGSA,A,3,21,22,36,45,,,,,,,,,1.2,0.7,1.0*30
$GPGST,063057.00,2.373,0.616,0.402,34.757,0.555,0.482,0.946*60
$GPGBS,063057.00,3.427,4.253,6.219,72,0.0001,5.151,6.038*5F
$GPGRS,063057.00,1,0.0,0.4,-0.3,-0.6,0.4,0.0,,,,,,*4C
$GPGRS,063057.00,1,-4.1,0.8,5.2,1.4,1.7,-1.4,-4.1,,,,,*43
$GPGRS,063057.00,1,0.5,0.2,-1.1,-1.9,-1.7,,,,,,,*43
$GPGRS,063057.00,1,2.3,-1.4,0.5,0.6,,,,,,,,*63
$GPGSV,4,1,16,30,79,211,53,13,24,281,40,14,21,166,43,11,19,234,31*76
$GPGSV,4,2,16,09,26,098,30,05,41,305,47,07,61,061,43,20,61,255,48*79
$GPGSV,4,3,16,06,01,205,,08,01,077,,27,03,046,,04,00,098,*71
$GPGSV,4,4,16,36,35,170,39,34,31,208,,49,34,195,35,61,03,257,*7B
$GLGSV,2,1,08,72,75,037,48,88,15,288,41,81,13,340,28,65,29,312,45*6D
$GLGSV,2,2,08,73,38,041,46,75,31,186,42,71,33,110,46,74,70,111,46*6F
$GAGSV,3,1,11,05,63,079,47,25,26,156,31,34,14,216,34,13,17,322,36*66
$GAGSV,3,2,11,09,12,094,20,31,19,040,29,16,39,131,,15,30,268,43*6B
$GAGSV,3,3,11,24,42,095,38,03,58,293,41,08,08,281,28*5D
$GBGSV,5,1,17,22,76,129,44,46,21,046,,10,11,094,,09,20,056,20*67
$GBGSV,5,2,17,05,22,129,34,45,44,190,45,19,22,126,34,50,23,304,*63
$GBGSV,5,3,17,21,47,305,44,36,65,094,45,02,05,108,,40,10,074,*6F
$GBGSV,5,4,17,11,02,301,,06,06,057,,16,03,057,,58,07,038,*69
$GBGSV,5,5,17,60,07,112,*5E
$GPGGA,063057.00,,,,,0,00,,,M,,M,,*4F
$PTNL,GGK,063057.00,010125,4742.4469643,N,01617.9724674,E,1,22,1.2,EHT668.6028,M*4D
$GPGGQ,063057.00,010125,4742.4469643,N,01617.9724674,E,1,22,1.198,625.3917,M*38
$GPGFA,063057.00,5.856,7.753,0.616,0.402,34.757,0.946,,VVV*32
$GPLLK,063057.00,010125,,M,,M,1,22,1.5,,M*08
$GNGMP,063057.00,,,,,DAAA,22,0.7,,,,*56
$GPGMP,063057.00,,,,,,06,,,,1.5,123*78
$GLGMP,063057.00,,,,,,07,,,,,*7F
$GAGMP,063057.00,,,,,,05,,,,,*70
$GBGMP,063057.00,,,,,,04,,,,,*72
$PSSN,SNC,[0,282675000,2347]*48
$GPZDA,063102.00,01,01,2025,,*65
$GPDTM,W84,,00.0000000,N,00.0000000,E,00.0000000,W84*5F
$GPRMC,063102.00,A,4742.4469613,N,01617.9724666,E,0.0,,010125,5.1,E,D*1A
$GPGLL,4742.4469613,N,01617.9724666,E,063102.00,A,D*6B
$GPGGA,063102.00,4742.4469613,N,01617.9724666,E,2,21,0.7,625.3811,M,43.2111,M,2.5,0123*4B
$GNGNS,063102.00,4742.4469613,N,01617.9724666,E,DAAA,21,0.7,625.3811,43.2111,,*50
$GPGNS,063102.00,,,,,,06,,,,2.5,123*7A
$GLGNS,063102.00,,,,,,07,,,,,*7E
$GAGNS,063102.00,,,,,,04,,,,,*70
$GBGNS,063102.00,,,,,,04,,,,,*73
$GPLLQ,063102.00,010125,,M,,M,1,21,1.196,,M*1B
$GPVTG,,T,,M,0.00,N,0.01,K,D*27
$GPHDT,,T*1B
$GPTHS,,V*0E
$GPROT,,V*08
$PSSN,HRP,063102.00,010125,,,,,,,00,0,,*67
$PTNL,AVR,063102.00,,Yaw,,Tilt,,,,0,,00*31
$GPGSA,A,3,05,07,13,14,20,30,,,,,,,1.3,0.7,1.1*33
$GPGSA,A,3,65,71,72,73,74,75,88,,,,,,1.3,0.7,1.1*32
$GPGSA,A,3,03,05,15,24,,,,,,,,,1.3,0.7,1.1*33
$GPGSA,A,3,21,22,36,45,,,,,,,,,1.3,0.7,1.1*30
$GPGST,063102.00,2.401,0.608,0.393,34.462,0.548,0.473,0.952*61
$GPGBS,063102.00,3.503,4.329,6.456,13,0.0001,-0.767,0.836*74
$GPGRS,063102.00,1,0.3,-0.1,-0.8,-0.5,0.4,0.1,,,,,,*6F
$GPGRS,063102.00,1,-4.5,1.0,4.9,1.6,2.3,-0.7,-3.6,,,,,*42
$GPGRS,063102.00,1,1.3,0.2,-1.7,-0.9,,,,,,,,*47
$GPGRS,063102.00,1,2.1,-1.4,1.2,-0.7,,,,,,,,*4A
$GPGSV,4,1,16,30,79,211,53,13,24,281,39,14,21,166,43,11,19,234,31*78
$GPGSV,4,2,16,09,26,098,33,05,41,305,47,07,61,061,44,20,61,255,47*72
$GPGSV,4,3,16,06,01,205,,08,01,077,,27,03,046,,04,00,098,*71
$GPGSV,4,4,16,36,35,170,39,34,31,208,,49,34,195,35,61,03,257,*7B
$GLGSV,2,1,08,72,75,037,48,88,15,288,40,81,13,340,32,65,29,312,45*67
$GLGSV,2,2,08,73,37,041,45,75,31,186,40,71,33,110,47,74,70,111,47*61
$GAGSV,3,1,11,05,63,079,47,25,26,156,29,34,14,216,33,13,17,322,34*6A
$GAGSV,3,2,11,09,12,094,22,31,19,040,30,16,39,131,,15,30,268,43*61
$GAGSV,3,3,11,24,42,095,36,03,58,293,42,08,08,281,29*51
$GBGSV,5,1,17,22,76,129,45,46,21,046,,10,11,094,,09,20,056,20*66
$GBGSV,5,2,17,05,22,129,34,45,44,190,44,19,22,126,33,50,23,304,*65
$GBGSV,5,3,17,21,47,305,43,36,65,093,44,02,05,108,,40,10,074,*6E
$GBGSV,5,4,17,11,02,301,,06,06,057,,16,03,057,,58,07,038,*69
$GBGSV,5,5,17,60,07,112,*5E
$GPGGA,063102.00,,,,,0,00,,,M,,M,,*4E
$PTNL,GGK,063102.00,010125,4742.4469613,N,01617.9724666,E,1,21,1.3,EHT668.5922,M*48
$GPGGQ,063102.00,010125,4742.4469613,N,01617.9724666,E,1,21,1.196,625.3811,M*35
$GPGFA,063102.00,5.778,7.808,0.608,0.393,34.462,0.952,,VVV*31
$GPLLK,063102.00,010125,,M,,M,1,21,1.6,,M*09
$GNGMP,063102.00,,,,,DAAA,21,0.7,,,,*54
$GPGMP,063102.00,,,,,,06,,,,2.5,123*7A
$GLGMP,063102.00,,,,,,07,,,,,*7E
$GAGMP,063102.00,,,,,,04,,,,,*70
$GBGMP,063102.00,,,,,,04,,,,,*73
$PSSN,SNC,[0,282680000,2347]*42
$GPZDA,063107.00,01,01,2025,,*60
$GPDTM,W84,,00.0000000,N,00.0000000,E,00.0000000,W84*5F
$GPRMC,063107.00,A,4742.4469611,N,01617.9724754,E,0.0,,010125,5.1,E,D*1D
$GPGLL,4742.4469611,N,01617.9724754,E,063107.00,A,D*6C
$GPGGA,063107.00,4742.4469611,N,01617.9724754,E,2,21,0.7,625.3620,M,43.2111,M,2.8,0123*4D
$GNGNS,063107.00,4742.4469611,N,01617.9724754,E,DAAA,21,0.7,625.3620,43.2111,,*5B
$GPGNS,063107.00,,,,,,06,,,,2.8,123*72
$GLGNS,063107.00,,,,,,07,,,,,*7B
$GAGNS,063107.00,,,,,,04,,,,,*75
$GBGNS,063107.00,,,,,,04,,,,,*76
$GPLLQ,063107.00,010125,,M,,M,1,21,1.644,,M*16
$GPVTG,,T,,M,0.00,N,0.00,K,D*26
$GPHDT,,T*1B
$GPTHS,,V*0E
$GPROT,,V*08
$PSSN,HRP,063107.00,010125,,,,,,,00,0,,*62
$PTNL,AVR,063107.00,,Yaw,,Tilt,,,,0,,00*34
$GPGSA,A,3,05,07,13,14,20,30,,,,,,,1.3,0.7,1.1*33
$GPGSA,A,3,65,71,72,73,74,75,88,,,,,,1.3,0.7,1.1*32
$GPGSA,A,3,03,05,15,24,,,,,,,,,1.3,0.7,1.1*33
$GPGSA,A,3,21,22,36,45,,,,,,,,,1.3,0.7,1.1*30
$GPGST,063107.00,3.218,0.836,0.541,34.123,0.756,0.648,1.308*62
$GPGBS,063107.00,3.510,4.335,6.079,07,0.0001,-0.858,0.635*7C
$GPGRS,063107.00,1,0.6,-0.9,-0.3,-0.8,0.6,0.1,,,,,,*63
$GPGRS,063107.00,1,-4.2,5.3,4.8,1.4,2.6,4.4,-6.1,,,,,*69
$GPGRS,063107.00,1,1.1,0.2,-1.5,-0.7,,,,,,,,*4C
$GPGRS,063107.00,1,1.0,-0.9,1.7,-0.8,,,,,,,,*4B
$GPGSV,4,1,16,30,79,211,53,13,24,281,40,14,21,166,43,11,19,234,30*77
$GPGSV,4,2,16,09,26,098,35,05,41,305,48,07,61,061,45,20,61,255,47*7A
$GPGSV,4,3,16,06,01,205,,08,01,077,,27,03,046,,04,00,098,*71
$GPGSV,4,4,16,36,35,170,39,34,31,208,,49,34,195,34,61,03,257,*7A
$GLGSV,2,1,08,72,75,038,48,88,15,288,39,81,13,340,28,65,29,312,45*6D
$GLGSV,2,2,08,73,37,041,46,75,31,186,39,71,33,110,47,74,70,111,47*6C
$GAGSV,3,1,11,05,63,079,46,25,26,156,28,34,13,216,31,13,17,322,33*68
$GAGSV,3,2,11,09,12,094,22,31,19,040,23,16,39,131,,15,30,268,43*63
$GAGSV,3,3,11,24,42,095,36,03,58,293,43,08,08,281,21*58
$GBGSV,5,1,17,22,76,129,45,46,21,046,,10,11,094,,09,20,056,19*6C
$GBGSV,5,2,17,05,22,129,34,45,44,190,44,19,22,126,31,50,23,304,*67
$GBGSV,5,3,17,21,47,305,42,36,65,093,44,02,05,108,,40,10,074,*6F
$GBGSV,5,4,17,11,02,301,,06,06,057,,16,03,057,,58,07,038,*69
$GBGSV,5,5,17,60,07,112,*5E
$GPGGA,063107.00,,,,,0,00,,,M,,M,,*4B
$PTNL,GGK,063107.00,010125,4742.4469611,N,01617.9724754,E,1,21,1.3,EHT668.5731,M*43
$GPGGQ,063107.00,010125,4742.4469611,N,01617.9724754,E,1,21,1.644,625.3620,M*36
$GPGFA,063107.00,7.947,10.724,0.836,0.541,34.123,1.308,,VVV*0D
$GPLLK,063107.00,010125,,M,,M,1,21,1.6,,M*0C
$GNGMP,063107.00,,,,,DAAA,21,0.7,,,,*51
$GPGMP,063107.00,,,,,,06,,,,2.8,123*72
$GLGMP,063107.00,,,,,,07,,,,,*7B
$GAGMP,063107.00,,,,,,04,,,,,*75
$GBGMP,063107.00,,,,,,04,,,,,*76
$PSSN,SNC,[0,282685000,2347]*47
$GPZDA,063112.00,01,01,2025,,*64
$GPDTM,W84,,00.0000000,N,00.0000000,E,00.0000000,W84*5F
$GPRMC,063112.00,A,4742.4469589,N,01617.9724887,E,0.0,,010125,5.1,E,D*1A
$GPGLL,4742.4469589,N,01617.9724887,E,063112.00,A,D*6B
$GPGGA,063112.00,4742.4469589,N,01617.9724887,E,2,21,0.7,625.3512,M,43.2111,M,3.2,0123*43
$GNGNS,063112.00,4742.4469589,N,01617.9724887,E,DAAA,21,0.7,625.3512,43.2111,,*5E
$GPGNS,063112.00,,,,,,06,,,,3.2,123*7D
$GLGNS,063112.00,,,,,,07,,,,,*7F
$GAGNS,063112.00,,,,,,04,,,,,*71
$GBGNS,063112.00,,,,,,04,,,,,*72
$GPLLQ,063112.00,010125,,M,,M,1,21,1.993,,M*17
$GPVTG,,T,,M,0.00,N,0.01,K,D*27
$GPHDT,,T*1B
$GPTHS,,V*0E
$GPROT,,V*08
$PSSN,HRP,063112.00,010125,,,,,,,00,0,,*66
$PTNL,AVR,063112.00,,Yaw,,Tilt,,,,0,,00*30
$GPGSA,A,3,05,07,13,14,20,30,,,,,,,1.3,0.7,1.1*33
$GPGSA,A,3,65,71,72,73,74,75,88,,,,,,1.3,0.7,1.1*32
$GPGSA,A,3,03,05,15,24,,,,,,,,,1.3,0.7,1.1*33
$GPGSA,A,3,21,22,36,45,,,,,,,,,1.3,0.7,1.1*30
$GPGST,063112.00,4.180,1.024,0.646,22.527,0.977,0.714,1.583*6A
$GPGBS,063112.00,3.659,4.446,6.211,07,0.0001,-1.164,0.656*7B
$GPGRS,063112.00,1,0.4,-1.2,1.0,-1.5,0.9,-0.2,,,,,,*6D
$GPGRS,063112.00,1,-4.1,9.3,4.6,1.7,1.9,8.0,-5.9,,,,,*60
$GPGRS,063112.00,1,0.7,-0.0,-1.3,-0.5,,,,,,,,*64
$GPGRS,063112.00,1,0.9,-0.6,1.8,-1.1,,,,,,,,*4F
$GPGSV,4,1,16,30,79,211,53,13,24,281,41,14,21,166,42,11,19,234,29*7F
$GPGSV,4,2,16,09,26,098,35,05,41,305,48,07,61,061,46,20,61,255,48*76
$GPGSV,4,3,16,06,01,205,,08,01,077,,27,03,046,,04,00,098,*71
$GPGSV,4,4,16,36,35,170,39,34,31,208,,49,34,195,35,61,03,257,*7B
$GLGSV,2,1,08,72,75,038,48,88,15,288,37,81,13,340,34,65,29,312,45*6E
$GLGSV,2,2,08,73,37,041,46,75,31,186,37,71,33,110,46,74,70,111,46*62
$GAGSV,3,1,11,05,63,079,46,25,26,156,30,34,13,216,29,13,17,322,32*69
$GAGSV,3,2,11,09,12,094,24,31,19,040,28,16,39,131,,15,30,268,43*6E
$GAGSV,3,3,11,24,42,095,36,03,58,293,44,08,08,281,27*59
$GBGSV,5,1,17,22,76,129,46,46,21,046,,10,11,094,,09,20,056,19*6F
$GBGSV,5,2,17,05,22,129,34,45,44,190,44,19,21,126,28,50,23,304,*6C
$GBGSV,5,3,17,21,47,305,43,36,65,093,44,02,05,108,,40,10,074,*6E
$GBGSV,5,4,17,11,02,301,,06,06,057,,16,03,057,,58,07,038,*69
$GBGSV,5,5,17,60,07,112,*5E
$GPGGA,063112.00,,,,,0,00,,,M,,M,,*4F
$PTNL,GGK,063112.00,010125,4742.4469589,N,01617.9724887,E,1,21,1.3,EHT668.5623,M*46
$GPGGQ,063112.00,010125,4742.4469589,N,01617.9724887,E,1,21,1.993,625.3512,M*36
$GPGFA,063112.00,9.733,12.983,1.024,0.646,22.527,1.583,,VVV*07
$GPLLK,063112.00,010125,,M,,M,1,21,1.6,,M*08
$GNGMP,063112.00,,,,,DAAA,21,0.7,,,,*55
$GPGMP,063112.00,,,,,,06,,,,3.2,123*7D
$GLGMP,063112.00,,,,,,07,,,,,*7F
$GAGMP,063112.00,,,,,,04,,,,,*71
$GBGMP,063112.00,,,,,,04,,,,,*72
$PSSN,SNC,[0,282690000,2347]*43
$GPZDA,063117.00,01,01,2025,,*61
$GPDTM,W84,,00.0000000,N,00.0000000,E,00.0000000,W84*5F
$GPRMC,063117.00,A,4742.4469557,N,01617.9725110,E,0.0,,010125,5.1,E,D*1A
$GPGLL,4742.4469557,N,01617.9725110,E,063117.00,A,D*6B
$GPGGA,063117.00,4742.4469557,N,01617.9725110,E,2,21,0.7,625.3423,M,43.2111,M,1.5,0123*45
$GNGNS,063117.00,4742.4469557,N,01617.9725110,E,DAAA,21,0.7,625.3423,43.2111,,*5D
$GPGNS,063117.00,,,,,,06,,,,1.5,123*7D
$GLGNS,063117.00,,,,,,07,,,,,*7A
$GAGNS,063117.00,,,,,,04,,,,,*74
$GBGNS,063117.00,,,,,,04,,,,,*77
$GPLLQ,063117.00,010125,,M,,M,1,21,2.072,,M*17
$GPVTG,,T,,M,0.01,N,0.01,K,D*26
$GPHDT,,T*1B
$GPTHS,,V*0E
$GPROT,,V*08
$PSSN,HRP,063117.00,010125,,,,,,,00,0,,*63
$PTNL,AVR,063117.00,,Yaw,,Tilt,,,,0,,00*35
$GPGSA,A,3,05,07,13,14,20,30,,,,,,,1.2,0.7,1.0*33
$GPGSA,A,3,65,71,72,73,74,81,88,,,,,,1.2,0.7,1.0*39
$GPGSA,A,3,03,05,15,24,,,,,,,,,1.2,0.7,1.0*33
$GPGSA,A,3,21,22,36,45,,,,,,,,,1.2,0.7,1.0*30
$GPGST,063117.00,3.745,1.067,0.693,34.001,0.966,0.829,1.635*61
$GPGBS,063117.00,3.479,4.255,6.245,07,0.0001,-1.144,0.603*79
$GPGRS,063117.00,1,0.4,-1.1,1.1,-1.2,1.1,-0.4,,,,,,*62
$GPGRS,063117.00,1,-4.4,8.7,4.0,1.3,0.7,5.2,-6.4,,,,,*69
$GPGRS,063117.00,1,0.2,-0.2,-0.7,-1.4,,,,,,,,*63
$GPGRS,063117.00,1,0.5,-0.1,0.4,-2.5,,,,,,,,*4B
$GPGSV,4,1,16,30,79,211,52,13,24,281,42,14,21,166,41,11,19,234,28*7F
$GPGSV,4,2,16,09,26,098,33,05,41,305,48,07,61,061,46,20,61,255,48*70
$GPGSV,4,3,16,06,01,205,,08,01,077,,27,03,046,,04,00,098,*71
$GPGSV,4,4,16,36,35,170,39,34,31,208,,49,34,195,34,61,03,257,*7A
$GLGSV,2,1,08,72,75,038,48,88,15,288,36,81,13,340,38,65,29,312,45*63
$GLGSV,2,2,08,73,37,041,47,75,31,186,30,71,33,110,45,74,70,111,45*64
$GAGSV,3,1,11,05,63,079,45,25,26,156,31,34,13,216,28,13,17,322,32*6A
$GAGSV,3,2,11,09,12,094,23,31,19,040,30,16,39,131,,15,30,267,44*68
$GAGSV,3,3,11,24,42,095,35,03,58,293,45,08,08,281,28*54
$GBGSV,5,1,17,22,76,129,46,46,21,046,,10,11,094,,09,20,056,19*6F
$GBGSV,5,2,17,05,22,129,34,45,44,190,45,19,21,126,26,50,23,304,*63
$GBGSV,5,3,17,21,47,305,43,36,65,093,44,02,05,108,,40,10,074,*6E
$GBGSV,5,4,17,11,02,301,,06,06,057,,16,03,057,,58,07,038,*69
$GBGSV,5,5,17,60,07,112,*5E
$GPGGA,063117.00,,,,,0,00,,,M,,M,,*4A
$PTNL,GGK,063117.00,010125,4742.4469557,N,01617.9725110,E,1,21,1.2,EHT668.5534,M*42
$GPGGQ,063117.00,010125,4742.4469557,N,01617.9725110,E,1,21,2.072,625.3423,M*30
$GPGFA,063117.00,10.149,13.409,1.067,0.693,34.001,1.635,,VVV*38
$GPLLK,063117.00,010125,,M,,M,1,21,1.4,,M*0F
$GNGMP,063117.00,,,,,DAAA,21,0.7,,,,*50
$GPGMP,063117.00,,,,,,06,,,,1.5,123*7D
$GLGMP,063117.00,,,,,,07,,,,,*7A
$GAGMP,063117.00,,,,,,04,,,,,*74
$GBGMP,063117.00,,,,,,04,,,,,*77
$PSSN,SNC,[0,282695000,2347]*46
$GPZDA,063122.00,01,01,2025,,*67
$GPDTM,W84,,00.0000000,N,00.0000000,E,00.0000000,W84*5F
$GPRMC,063122.00,A,4742.4469533,N,01617.9725338,E,0.0,,010125,5.1,E,D*16
$GPGLL,4742.4469533,N,01617.9725338,E,063122.00,A,D*67
$GPGGA,063122.00,4742.4469533,N,01617.9725338,E,2,20,0.7,625.3455,M,43.2111,M,2.5,0123*4A
$GNGNS,063122.00,4742.4469533,N,01617.9725338,E,DAAA,20,0.7,625.3455,43.2111,,*51
$GPGNS,063122.00,,,,,,06,,,,2.5,123*78
$GLGNS,063122.00,,,,,,07,,,,,*7C
$GAGNS,063122.00,,,,,,03,,,,,*75
$GBGNS,063122.00,,,,,,04,,,,,*71
$GPLLQ,063122.00,010125,,M,,M,1,20,1.915,,M*1B
$GPVTG,,T,,M,0.01,N,0.02,K,D*25
$GPHDT,,T*1B
$GPTHS,,V*0E
$GPROT,,V*08
$PSSN,HRP,063122.00,010125,,,,,,,00,0,,*65
$PTNL,AVR,063122.00,,Yaw,,Tilt,,,,0,,00*33
$GPGSA,A,3,05,07,13,14,20,30,,,,,,,1.3,0.7,1.0*32
$GPGSA,A,3,65,71,72,73,74,81,88,,,,,,1.3,0.7,1.0*38
$GPGSA,A,3,03,05,15,,,,,,,,,,1.3,0.7,1.0*34
$GPGSA,A,3,21,22,36,45,,,,,,,,,1.3,0.7,1.0*31
$GPGST,063122.00,3.472,0.976,0.630,34.355,0.881,0.757,1.522*68
$GPGBS,063122.00,3.566,4.379,6.409,07,0.0001,-1.190,0.617*7D
$GPGRS,063122.00,1,0.6,-1.2,1.3,-0.6,0.6,-0.3,,,,,,*63
$GPGRS,063122.00,1,-5.1,4.0,3.5,1.1,0.3,7.0,-5.7,,,,,*64
$GPGRS,063122.00,1,-0.1,0.1,-0.8,,,,,,,,,*6C
$GPGRS,063122.00,1,-0.3,-0.3,-1.1,-3.7,,,,,,,,*4E
$GPGSV,4,1,16,30,79,211,52,13,24,281,42,14,21,166,41,11,19,234,27*70
$GPGSV,4,2,16,09,26,098,31,05,41,305,49,07,60,061,46,20,61,255,47*7D
$GPGSV,4,3,16,06,01,205,,08,02,077,,27,03,046,,04,00,098,*72
$GPGSV,4,4,16,36,35,170,39,34,31,208,,49,34,195,35,61,03,257,*7B
$GLGSV,2,1,08,72,75,038,48,65,29,312,44,88,14,288,37,81,13,340,42*6F
$GLGSV,2,2,08,73,37,041,47,75,31,186,31,71,33,110,43,74,70,110,45*62
$GAGSV,3,1,11,05,63,079,45,25,26,156,32,34,13,216,28,13,17,322,33*68
$GAGSV,3,2,11,09,12,094,24,31,19,040,31,16,39,131,,15,30,267,43*69
$GAGSV,3,3,11,24,42,095,35,03,58,293,45,08,08,281,28*54
$GBGSV,5,1,17,22,76,129,47,46,21,046,,10,11,094,,09,20,056,32*67
$GBGSV,5,2,17,05,22,129,34,45,44,190,44,19,21,126,26,50,23,304,*62
$GBGSV,5,3,17,21,47,305,43,36,65,093,44,02,05,108,,40,10,074,*6E
$GBGSV,5,4,17,11,02,301,,06,06,057,,16,03,057,,58,07,038,*69
$GBGSV,5,5,17,60,07,112,*5E
$GPGGA,063122.00,,,,,0,00,,,M,,M,,*4C
$PTNL,GGK,063122.00,010125,4742.4469533,N,01617.9725338,E,1,20,1.3,EHT668.5566,M*49
$GPGGQ,063122.00,010125,4742.4469533,N,01617.9725338,E,1,20,1.915,625.3455,M*37
$GPGFA,063122.00,9.281,12.483,0.976,0.630,34.355,1.522,,VVV*04
$GPLLK,063122.00,010125,,M,,M,1,20,1.5,,M*09
$GNGMP,063122.00,,,,,DAAA,20,0.7,,,,*57
$GPGMP,063122.00,,,,,,06,,,,2.5,123*78
$GLGMP,063122.00,,,,,,07,,,,,*7C
$GAGMP,063122.00,,,,,,03,,,,,*75
$GBGMP,063122.00,,,,,,04,,,,,*71
$PSSN,SNC,[0,282700000,2347]*4B
$GPZDA,063127.00,01,01,2025,,*62
$GPDTM,W84,,00.0000000,N,00.0000000,E,00.0000000,W84*5F
$GPRMC,063127.00,A,4742.4469519,N,01617.9725507,E,0.0,,010125,5.1,E,D*11
$GPGLL,4742.4469519,N,01617.9725507,E,063127.00,A,D*60
$GPGGA,063127.00,4742.4469519,N,01617.9725507,E,2,21,0.7,625.3455,M,43.2111,M,2.8,0123*41
$GNGNS,063127.00,4742.4469519,N,01617.9725507,E,DAAA,21,0.7,625.3455,43.2111,,*57
$GPGNS,063127.00,,,,,,06,,,,2.8,123*70
$GLGNS,063127.00,,,,,,07,,,,,*79
$GAGNS,063127.00,,,,,,04,,,,,*77
$GBGNS,063127.00,,,,,,04,,,,,*74
$GPLLQ,063127.00,010125,,M,,M,1,21,1.623,,M*15
$GPVTG,,T,,M,0.00,N,0.00,K,D*26
$GPHDT,,T*1B
$GPTHS,,V*0E
$GPROT,,V*08
$PSSN,HRP,063127.00,010125,,,,,,,00,0,,*60
$PTNL,AVR,063127.00,,Yaw,,Tilt,,,,0,,00*36
$GPGSA,A,3,05,07,13,14,20,30,,,,,,,1.2,0.7,1.0*33
$GPGSA,A,3,65,71,72,73,74,81,88,,,,,,1.2,0.7,1.0*39
$GPGSA,A,3,03,05,15,24,,,,,,,,,1.2,0.7,1.0*33
$GPGSA,A,3,21,22,36,45,,,,,,,,,1.2,0.7,1.0*30
$GPGST,063127.00,3.392,0.827,0.535,33.812,0.749,0.640,1.289*62
$GPGBS,063127.00,3.561,4.341,6.024,07,0.0001,-1.088,0.635*77
$GPGRS,063127.00,1,0.7,-1.1,0.6,-0.5,0.2,0.1,,,,,,*48
$GPGRS,063127.00,1,-5.4,-1.0,4.2,1.2,1.4,8.7,-2.9,,,,,*48
$GPGRS,063127.00,1,-0.4,0.1,-0.9,0.1,,,,,,,,*42
$GPGRS,063127.00,1,-0.9,-0.3,-0.5,-4.5,,,,,,,,*41
$GPGSV,4,1,16,30,79,211,52,13,24,281,43,14,21,166,41,11,19,234,28*7E
$GPGSV,4,2,16,09,26,098,31,05,41,305,50,07,60,061,47,20,61,254,46*74
$GPGSV,4,3,16,06,01,205,,08,02,077,,27,03,046,,04,00,098,*72
$GPGSV,4,4,16,36,35,170,39,34,31,208,,49,34,195,35,61,03,257,*7B
$GLGSV,2,1,08,72,75,038,48,65,29,312,44,88,14,288,39,81,13,340,42*61
$GLGSV,2,2,08,73,37,041,47,75,31,186,32,71,33,110,42,74,70,110,47*62
$GAGSV,3,1,11,05,63,079,45,25,26,156,33,34,13,216,30,13,17,322,35*66
$GAGSV,3,2,11,09,12,095,24,31,19,040,31,16,39,131,,15,30,267,43*68
$GAGSV,3,3,11,24,42,095,36,03,58,293,45,08,08,281,27*58
$GBGSV,5,1,17,22,76,129,47,46,21,046,,10,11,094,,09,20,056,22*66
$GBGSV,5,2,17,05,22,129,34,45,44,190,43,19,21,126,28,50,23,304,*6B
$GBGSV,5,3,17,21,47,305,44,36,65,093,44,02,05,108,,40,10,074,*69
$GBGSV,5,4,17,11,02,300,,06,06,057,,16,03,057,,58,07,038,*68
$GBGSV,5,5,17,60,07,112,*5E
$GPGGA,063127.00,,,,,0,00,,,M,,M,,*49
$PTNL,GGK,063127.00,010125,4742.4469519,N,01617.9725507,E,1,21,1.2,EHT668.5566,M*4E
$GPGGQ,063127.00,010125,4742.4469519,N,01617.9725507,E,1,21,1.623,625.3455,M*3B
$GPGFA,063127.00,7.866,10.573,0.827,0.535,33.812,1.289,,VVV*0A
$GPLLK,063127.00,010125,,M,,M,1,21,1.4,,M*0C
$GNGMP,063127.00,,,,,DAAA,21,0.7,,,,*53
$GPGMP,063127.00,,,,,,06,,,,2.8,123*70
$GLGMP,063127.00,,,,,,07,,,,,*79
$GAGMP,063127.00,,,,,,04,,,,,*77
$GBGMP,063127.00,,,,,,04,,,,,*74
$PSSN,SNC,[0,282705000,2347]*4E
$GPZDA,063132.00,01,01,2025,,*66
$GPDTM,W84,,00.0000000,N,00.0000000,E,00.0000000,W84*5F
$GPRMC,063132.00,A,4742.4469478,N,01617.9725651,E,0.0,,010125,5.1,E,D*13
$GPGLL,4742.4469478,N,01617.9725651,E,063132.00,A,D*62
$GPGGA,063132.00,4742.4469478,N,01617.9725651,E,2,23,0.7,625.3406,M,43.2111,M,3.2,0123*4C
$GNGNS,063132.00,4742.4469478,N,01617.9725651,E,DAAA,23,0.7,625.3406,43.2111,,*51
$GPGNS,063132.00,,,,,,06,,,,3.2,123*7F
$GLGNS,063132.00,,,,,,08,,,,,*72
$GAGNS,063132.00,,,,,,05,,,,,*72
$GBGNS,063132.00,,,,,,04,,,,,*70
$GPLLQ,063132.00,010125,,M,,M,1,23,1.486,,M*1E
$GPVTG,,T,,M,0.01,N,0.01,K,D*26
$GPHDT,,T*1B
$GPTHS,,V*0E
$GPROT,,V*08
$PSSN,HRP,063132.00,010125,,,,,,,00,0,,*64
$PTNL,AVR,063132.00,,Yaw,,Tilt,,,,0,,00*32
$GPGSA,A,3,05,07,13,14,20,30,,,,,,,1.2,0.7,1.0*33
$GPGSA,A,3,65,71,72,73,74,75,81,88,,,,,1.2,0.7,1.0*3B
$GPGSA,A,3,03,05,13,15,24,,,,,,,,1.2,0.7,1.0*31
$GPGSA,A,3,21,22,36,45,,,,,,,,,1.2,0.7,1.0*30
$GPGST,063132.00,3.449,0.759,0.500,34.556,0.686,0.595,1.176*67
$GPGBS,063132.00,3.623,4.428,6.090,07,0.0001,-0.841,0.655*7B
$GPGRS,063132.00,1,0.5,-0.8,0.4,-0.4,0.2,0.2,,,,,,*46
$GPGRS,063132.00,1,-6.4,-3.7,4.6,0.7,2.6,-0.9,8.1,0.3,,,,*62
$GPGRS,063132.00,1,-1.5,0.2,1.1,-1.0,1.3,,,,,,,*60
$GPGRS,063132.00,1,-1.6,-0.7,3.3,-4.6,,,,,,,,*64
$GPGSV,4,1,16,30,79,211,51,13,24,281,44,14,21,166,42,11,18,234,28*78
