$GPZDA,144442.00,01,01,2025,,*60
$GPDTM,W84,,00.0000000,N,00.0000000,E,00.0000000,W84*5F
$GPRMC,144442.00,A,4742.4465117,N,01617.9739910,E,0.0,,010125,5.1,E,D*12
$GPGLL,4742.4465117,N,01617.9739910,E,144442.00,A,D*63
$GPGGA,144442.00,4742.4465117,N,01617.9739910,E,2,18,0.8,626.5685,M,43.2110,M,2.5,0123*41
$GNGNS,144442.00,4742.4465117,N,01617.9739910,E,DAAA,18,0.8,626.5685,43.2110,,*5A
$GPGNS,144442.00,,,,,,06,,,,2.5,123*7F
$GLGNS,144442.00,,,,,,04,,,,,*78
$GAGNS,144442.00,,,,,,02,,,,,*73
$GBGNS,144442.00,,,,,,06,,,,,*74
$GPLLQ,144442.00,010125,,M,,M,1,18,3.934,,M*16
$GPVTG,,T,,M,0.01,N,0.03,K,D*24
$GPHDT,,T*1B
$GPTHS,,V*0E
$GPROT,,V*08
$PSSN,HRP,144442.00,010125,,,,,,,00,0,,*62
$PTNL,AVR,144442.00,,Yaw,,Tilt,,,,0,,00*34
$GPGSA,A,3,11,12,25,29,31,32,,,,,,,1.5,0.8,1.3*30
$GPGSA,A,3,78,79,81,88,,,,,,,,,1.5,0.8,1.3*34
$GPGSA,A,3,30,34,,,,,,,,,,,1.5,0.8,1.3*38
$GPGSA,A,3,12,23,24,25,34,44,,,,,,,1.5,0.8,1.3*38
$GPGST,144442.00,3.188,2.424,1.091,345.130,2.360,1.224,2.899*57
$GPGBS,144442.00,7.983,4.546,11.380,32,0.0001,5.641,1.685*6D
$GPGRS,144442.00,1,1.8,0.0,-0.9,-1.2,-0.1,5.6,,,,,,*61
$GPGRS,144442.00,1,-2.8,-1.8,4.6,-5.2,,,,,,,,*66
$GPGRS,144442.00,1,-0.8,-0.5,,,,,,,,,,*40
$GPGRS,144442.00,1,-0.7,-0.6,-2.4,-0.1,-2.4,-1.2,,,,,,*4E
$GPGSV,4,1,15,25,83,026,47,31,19,315,41,32,17,252,38,06,13,034,*71
$GPGSV,4,2,15,28,43,301,39,11,37,065,40,12,45,092,41,29,60,228,48*78
$GPGSV,4,3,15,20,09,091,,24,08,159,,18,00,187,,36,35,170,36*7D
$GPGSV,4,4,15,34,31,208,35,49,34,195,36,61,03,257,*42
$GLGSV,2,1,08,78,74,081,42,70,12,339,,87,26,033,32,77,17,120,*6F
$GLGSV,2,2,08,81,30,190,43,79,43,317,49,88,72,112,45,69,10,278,29*67
$GAGSV,3,1,11,30,66,080,44,15,27,160,33,07,12,219,31,19,16,318,26*6A
$GAGSV,3,2,11,18,22,062,,02,15,097,22,36,22,039,31,29,26,272,34*6E
$GAGSV,3,3,11,27,55,294,33,34,47,097,43,21,05,283,27*55
$GBGSV,6,1,21,25,72,289,47,11,30,193,,13,13,093,,43,23,220,*69
$GBGSV,6,2,21,05,20,130,32,10,14,070,26,23,20,305,45,56,20,056,*69
$GBGSV,6,3,21,08,15,085,,38,16,071,30,24,48,134,49,34,60,185,47*6A
$GBGSV,6,4,21,44,52,064,48,12,71,108,47,02,05,108,,35,09,044,22*6D
$GBGSV,6,5,21,32,02,308,28,20,01,357,,26,00,130,,07,01,069,*64
$GBGSV,6,6,21,60,09,110,*57
$GPGGA,144442.00,,,,,0,00,,,M,,M,,*4B
$PTNL,GGK,144442.00,010125,4742.4465117,N,01617.9739910,E,1,18,1.5,EHT669.7795,M*4D
$GPGGQ,144442.00,010125,4742.4465117,N,01617.9739910,E,1,18,3.934,626.5685,M*33
$GPGFA,144442.00,23.051,23.775,2.424,1.091,345.130,2.899,,VVV*02
$GPLLK,144442.00,010125,,M,,M,1,18,1.8,,M*08
$GNGMP,144442.00,,,,,DAAA,18,0.8,,,,*54
$GPGMP,144442.00,,,,,,06,,,,2.5,123*7F
$GLGMP,144442.00,,,,,,04,,,,,*78
$GAGMP,144442.00,,,,,,02,,,,,*73
$GBGMP,144442.00,,,,,,06,,,,,*74
$PSSN,SNC,[0,312300000,2347]*47
$GPZDA,144447.00,01,01,2025,,*65
$GPDTM,W84,,00.0000000,N,00.0000000,E,00.0000000,W84*5F
$GPRMC,144447.00,A,4742.4465088,N,01617.9739913,E,0.0,,010125,5.1,E,D*13
$GPGLL,4742.4465088,N,01617.9739913,E,144447.00,A,D*62
$GPGGA,144447.00,4742.4465088,N,01617.9739913,E,2,17,0.9,626.6025,M,43.2110,M,2.6,0123*42
$GNGNS,144447.00,4742.4465088,N,01617.9739913,E,DAAA,17,0.9,626.6025,43.2110,,*5A
$GPGNS,144447.00,,,,,,05,,,,2.6,123*7A
$GLGNS,144447.00,,,,,,04,,,,,*7D
$GAGNS,144447.00,,,,,,02,,,,,*76
$GBGNS,144447.00,,,,,,06,,,,,*71
$GPLLQ,144447.00,010125,,M,,M,1,17,3.242,,M*16
$GPVTG,,T,,M,0.02,N,0.04,K,D*20
$GPHDT,,T*1B
$GPTHS,,V*0E
$GPROT,,V*08
$PSSN,HRP,144447.00,010125,,,,,,,00,0,,*67
$PTNL,AVR,144447.00,,Yaw,,Tilt,,,,0,,00*31
$GPGSA,A,3,11,12,25,29,31,,,,,,,,1.6,0.9,1.3*33
$GPGSA,A,3,78,79,81,88,,,,,,,,,1.6,0.9,1.3*36
$GPGSA,A,3,30,34,,,,,,,,,,,1.6,0.9,1.3*3A
$GPGSA,A,3,12,23,24,25,34,44,,,,,,,1.6,0.9,1.3*3A
$GPGST,144447.00,2.866,1.719,0.882,352.647,1.709,0.902,2.603*55
$GPGBS,144447.00,8.639,4.891,16.988,11,0.0001,1.913,1.168*62
$GPGRS,144447.00,1,1.9,-0.8,-0.6,-0.7,1.1,,,,,,,*4A
$GPGRS,144447.00,1,-3.0,-1.8,5.9,-4.2,,,,,,,,*65
$GPGRS,144447.00,1,-1.0,0.2,,,,,,,,,,*66
$GPGRS,144447.00,1,-0.3,0.2,-2.3,0.4,-1.8,-1.2,,,,,,*46
$GPGSV,4,1,15,25,83,026,47,31,19,315,41,32,17,252,39,06,13,034,29*7B
$GPGSV,4,2,15,28,43,301,36,11,37,065,38,12,45,092,39,29,60,228,48*77
$GPGSV,4,3,15,20,09,091,,24,08,159,,18,00,187,,36,35,170,36*7D
$GPGSV,4,4,15,34,31,208,35,49,34,195,36,61,03,257,*42
$GLGSV,2,1,08,78,74,081,43,70,12,338,,87,26,033,,77,17,120,*6E
$GLGSV,2,2,08,81,30,190,43,79,43,317,49,88,72,112,46,69,10,278,29*64
$GAGSV,3,1,11,30,66,080,43,15,27,160,32,07,12,219,25,19,16,318,25*6A
$GAGSV,3,2,11,18,22,062,,02,14,097,22,36,22,039,31,29,26,272,33*68
$GAGSV,3,3,11,27,55,294,33,34,47,097,43,21,05,283,26*54
$GBGSV,6,1,21,25,72,289,48,11,30,193,,13,13,093,,43,23,220,*66
$GBGSV,6,2,21,05,20,130,32,10,14,070,25,23,20,305,46,56,20,056,*69
$GBGSV,6,3,21,08,15,085,,38,16,071,30,24,48,134,48,34,60,185,46*6A
$GBGSV,6,4,21,44,52,064,47,12,71,107,47,02,05,108,,35,09,044,21*6E
$GBGSV,6,5,21,32,02,308,24,20,01,357,,26,00,130,,07,01,069,*68
$GBGSV,6,6,21,60,09,110,*57
$GPGGA,144447.00,,,,,0,00,,,M,,M,,*4E
$PTNL,GGK,144447.00,010125,4742.4465088,N,01617.9739913,E,1,17,1.6,EHT669.8136,M*40
$GPGGQ,144447.00,010125,4742.4465088,N,01617.9739913,E,1,17,3.242,626.6025,M*38
$GPGFA,144447.00,16.347,21.348,1.719,0.882,352.647,2.603,,VVV*04
$GPLLK,144447.00,010125,,M,,M,1,17,1.9,,M*03
$GNGMP,144447.00,,,,,DAAA,17,0.9,,,,*5F
$GPGMP,144447.00,,,,,,05,,,,2.6,123*7A
$GLGMP,144447.00,,,,,,04,,,,,*7D
$GAGMP,144447.00,,,,,,02,,,,,*76
$GBGMP,144447.00,,,,,,06,,,,,*71
$PSSN,SNC,[0,312305000,2347]*42
$GPZDA,144452.00,01,01,2025,,*61
$GPDTM,W84,,00.0000000,N,00.0000000,E,00.0000000,W84*5F
$GPRMC,144452.00,A,4742.4465068,N,01617.9739951,E,0.0,,010125,5.1,E,D*1F
$GPGLL,4742.4465068,N,01617.9739951,E,144452.00,A,D*6E
$GPGGA,144452.00,4742.4465068,N,01617.9739951,E,2,16,0.9,626.6070,M,43.2110,M,1.8,0123*42
$GNGNS,144452.00,4742.4465068,N,01617.9739951,E,DAAA,16,0.9,626.6070,43.2110,,*57
$GPGNS,144452.00,,,,,,04,,,,1.8,123*72
$GLGNS,144452.00,,,,,,04,,,,,*79
$GAGNS,144452.00,,,,,,02,,,,,*72
$GBGNS,144452.00,,,,,,06,,,,,*75
$GPLLQ,144452.00,010125,,M,,M,1,16,2.829,,M*15
$GPVTG,,T,,M,0.01,N,0.02,K,D*25
$GPHDT,,T*1B
$GPTHS,,V*0E
$GPROT,,V*08
$PSSN,HRP,144452.00,010125,,,,,,,00,0,,*63
$PTNL,AVR,144452.00,,Yaw,,Tilt,,,,0,,00*35
$GPGSA,A,3,11,25,29,31,,,,,,,,,1.6,0.9,1.4*37
$GPGSA,A,3,78,79,81,88,,,,,,,,,1.6,0.9,1.4*31
$GPGSA,A,3,30,34,,,,,,,,,,,1.6,0.9,1.4*3D
$GPGSA,A,3,12,23,24,25,34,44,,,,,,,1.6,0.9,1.4*3D
$GPGST,144452.00,2.641,1.589,0.810,339.870,1.518,0.936,2.196*53
$GPGBS,144452.00,10.209,7.499,17.808,81,0.0001,5.785,6.385*5D
$GPGRS,144452.00,1,1.0,0.1,-0.1,1.6,,,,,,,,*67
$GPGRS,144452.00,1,-1.4,-1.8,5.8,-3.0,,,,,,,,*63
$GPGRS,144452.00,1,-1.4,0.2,,,,,,,,,,*66
$GPGRS,144452.00,1,0.2,0.6,-2.4,0.7,-1.1,-1.4,,,,,,*61
$GPGSV,4,1,15,25,83,027,47,31,19,315,41,32,17,252,40,06,13,034,30*7C
$GPGSV,4,2,15,28,43,301,30,11,37,065,37,12,45,092,34,29,60,229,48*72
$GPGSV,4,3,15,20,09,091,,24,08,159,,18,00,187,,36,35,170,36*7D
$GPGSV,4,4,15,34,31,208,35,49,34,195,37,61,03,257,*43
$GLGSV,2,1,08,78,74,081,44,70,12,338,,87,26,033,,77,17,120,*69
$GLGSV,2,2,08,81,31,190,43,79,43,317,50,88,72,111,47,69,10,278,33*64
$GAGSV,3,1,11,30,66,081,43,15,27,160,32,07,12,219,26,19,16,318,23*6E
$GAGSV,3,2,11,18,22,062,,02,14,097,,36,22,039,30,29,26,272,31*6B
$GAGSV,3,3,11,27,55,294,34,34,47,097,43,21,05,283,22*57
$GBGSV,6,1,21,25,72,289,49,11,30,193,,13,13,093,,43,23,220,*67
$GBGSV,6,2,21,05,20,130,32,10,14,070,26,23,20,305,46,56,20,056,*6A
$GBGSV,6,3,21,08,15,085,,38,16,071,29,24,48,134,47,34,60,185,46*6D
$GBGSV,6,4,21,44,52,064,47,12,71,107,47,02,05,108,,35,09,044,22*6D
$GBGSV,6,5,21,32,02,308,24,20,01,357,,26,00,130,,07,01,069,*68
$GBGSV,6,6,21,60,09,110,*57
$GPGGA,144452.00,,,,,0,00,,,M,,M,,*4A
$PTNL,GGK,144452.00,010125,4742.4465068,N,01617.9739951,E,1,16,1.6,EHT669.8180,M*40
$GPGGQ,144452.00,010125,4742.4465068,N,01617.9739951,E,1,16,2.829,626.6070,M*33
$GPGFA,144452.00,15.106,18.008,1.589,0.810,339.870,2.196,,VVV*05
$GPLLK,144452.00,010125,,M,,M,1,16,2.0,,M*0C
$GNGMP,144452.00,,,,,DAAA,16,0.9,,,,*5A
$GPGMP,144452.00,,,,,,04,,,,1.8,123*72
$GLGMP,144452.00,,,,,,04,,,,,*79
$GAGMP,144452.00,,,,,,02,,,,,*72
$GBGMP,144452.00,,,,,,06,,,,,*75
$PSSN,SNC,[0,312310000,2347]*46
$GPZDA,144457.00,01,01,2025,,*64
$GPDTM,W84,,00.0000000,N,00.0000000,E,00.0000000,W84*5F
$GPRMC,144457.00,A,4742.4465052,N,01617.9739911,E,0.0,,010125,5.1,E,D*17
$GPGLL,4742.4465052,N,01617.9739911,E,144457.00,A,D*66
$GPGGA,144457.00,4742.4465052,N,01617.9739911,E,2,16,0.9,626.6183,M,43.2110,M,2.8,0123*44
$GNGNS,144457.00,4742.4465052,N,01617.9739911,E,DAAA,16,0.9,626.6183,43.2110,,*52
$GPGNS,144457.00,,,,,,04,,,,2.8,123*74
$GLGNS,144457.00,,,,,,04,,,,,*7C
$GAGNS,144457.00,,,,,,02,,,,,*77
$GBGNS,144457.00,,,,,,06,,,,,*70
$GPLLQ,144457.00,010125,,M,,M,1,16,2.713,,M*16
$GPVTG,,T,,M,0.01,N,0.01,K,D*26
$GPHDT,,T*1B
$GPTHS,,V*0E
$GPROT,,V*08
$PSSN,HRP,144457.00,010125,,,,,,,00,0,,*66
$PTNL,AVR,144457.00,,Yaw,,Tilt,,,,0,,00*30
$GPGSA,A,3,11,25,29,31,,,,,,,,,1.6,0.9,1.4*37
$GPGSA,A,3,78,79,81,88,,,,,,,,,1.6,0.9,1.4*31
$GPGSA,A,3,30,34,,,,,,,,,,,1.6,0.9,1.4*3D
$GPGSA,A,3,12,23,24,25,34,44,,,,,,,1.6,0.9,1.4*3D
$GPGST,144457.00,2.427,1.534,0.771,338.352,1.454,0.913,2.100*51
$GPGBS,144457.00,10.295,7.548,18.044,81,0.0001,5.015,6.385*51
$GPGRS,144457.00,1,0.7,-0.0,-0.4,0.6,,,,,,,,*4C
$GPGRS,144457.00,1,-0.4,-2.1,5.0,-2.4,,,,,,,,*60
$GPGRS,144457.00,1,-1.5,-0.5,,,,,,,,,,*48
$GPGRS,144457.00,1,-0.4,0.6,-2.9,0.7,-0.9,-2.0,,,,,,*4C
$GPGSV,4,1,15,25,83,027,48,31,19,315,41,32,17,252,40,06,13,034,29*7B
$GPGSV,4,2,15,28,43,301,35,11,37,065,39,12,45,092,29,29,60,229,47*7A
$GPGSV,4,3,15,20,09,091,,24,08,159,,18,00,187,,36,35,170,37*7C
$GPGSV,4,4,15,34,31,208,35,49,34,195,37,61,03,257,*43
$GLGSV,2,1,08,78,74,081,44,70,12,338,,87,26,033,35,77,17,120,*6F
$GLGSV,2,2,08,81,31,190,42,79,43,317,50,88,72,111,49,69,10,278,30*68
$GAGSV,3,1,11,30,66,081,42,15,27,160,31,07,12,219,25,19,16,318,23*6F
$GAGSV,3,2,11,18,22,062,,02,14,097,,36,22,039,29,29,25,272,30*61
$GAGSV,3,3,11,27,55,294,35,34,47,097,42,21,05,283,24*51
$GBGSV,6,1,21,25,72,289,49,11,30,193,,13,14,093,,43,23,220,*60
$GBGSV,6,2,21,05,20,130,32,10,14,070,26,23,20,305,46,56,20,056,*6A
$GBGSV,6,3,21,08,15,085,,38,16,071,28,24,48,134,46,34,60,185,45*6E
$GBGSV,6,4,21,44,52,064,46,12,71,107,47,02,05,108,,35,09,044,*6C
$GBGSV,6,5,21,32,02,308,21,20,01,357,,26,00,130,,07,01,069,*6D
$GBGSV,6,6,21,60,09,110,*57
$GPGGA,144457.00,,,,,0,00,,,M,,M,,*4F
$PTNL,GGK,144457.00,010125,4742.4465052,N,01617.9739911,E,1,16,1.6,EHT669.8293,M*49
$GPGGQ,144457.00,010125,4742.4465052,N,01617.9739911,E,1,16,2.713,626.6183,M*30
$GPGFA,144457.00,14.588,17.223,1.534,0.771,338.352,2.100,,VVV*0C
$GPLLK,144457.00,010125,,M,,M,1,16,2.0,,M*09
$GNGMP,144457.00,,,,,DAAA,16,0.9,,,,*5F
$GPGMP,144457.00,,,,,,04,,,,2.8,123*74
$GLGMP,144457.00,,,,,,04,,,,,*7C
$GAGMP,144457.00,,,,,,02,,,,,*77
$GBGMP,144457.00,,,,,,06,,,,,*70
$PSSN,SNC,[0,312315000,2347]*43
$GPZDA,144502.00,01,01,2025,,*65
$GPDTM,W84,,00.0000000,N,00.0000000,E,00.0000000,W84*5F
$GPRMC,144502.00,A,4742.4465001,N,01617.9739971,E,0.0,,010125,5.1,E,D*16
$GPGLL,4742.4465001,N,01617.9739971,E,144502.00,A,D*67
$GPGGA,144502.00,4742.4465001,N,01617.9739971,E,2,19,0.8,626.6340,M,43.2110,M,2.8,0123*46
$GNGNS,144502.00,4742.4465001,N,01617.9739971,E,DAAA,19,0.8,626.6340,43.2110,,*50
$GPGNS,144502.00,,,,,,05,,,,2.8,123*74
$GLGNS,144502.00,,,,,,04,,,,,*7D
$GAGNS,144502.00,,,,,,04,,,,,*70
$GBGNS,144502.00,,,,,,06,,,,,*71
$GPLLQ,144502.00,010125,,M,,M,1,19,3.507,,M*1E
$GPVTG,,T,,M,0.00,N,0.00,K,D*26
$GPHDT,,T*1B
$GPTHS,,V*0E
$GPROT,,V*08
$PSSN,HRP,144502.00,010125,,,,,,,00,0,,*67
$PTNL,AVR,144502.00,,Yaw,,Tilt,,,,0,,00*31
$GPGSA,A,3,11,25,29,31,32,,,,,,,,1.5,0.8,1.2*32
$GPGSA,A,3,78,79,81,88,,,,,,,,,1.5,0.8,1.2*35
$GPGSA,A,3,27,29,30,34,,,,,,,,,1.5,0.8,1.2*37
$GPGSA,A,3,12,23,24,25,34,44,,,,,,,1.5,0.8,1.2*39
$GPGST,144502.00,2.429,2.121,1.076,336.544,1.992,1.299,2.578*57
$GPGBS,144502.00,10.054,7.143,11.272,32,0.0001,4.109,1.687*5B
$GPGRS,144502.00,1,0.3,-0.6,-1.2,-1.4,4.1,,,,,,,*4D
$GPGRS,144502.00,1,-0.5,-2.2,2.6,-1.6,,,,,,,,*63
$GPGRS,144502.00,1,-1.1,-2.8,-1.4,-0.9,,,,,,,,*4E
$GPGRS,144502.00,1,-2.0,0.2,-3.3,-0.2,-1.4,-2.6,,,,,,*66
$GPGSV,4,1,15,25,83,027,48,31,19,315,40,32,17,252,38,06,13,034,29*75
$GPGSV,4,2,15,28,43,301,35,11,37,065,41,12,45,092,28,29,60,229,46*75
$GPGSV,4,3,15,20,09,091,,24,08,159,,18,00,187,,36,35,170,36*7D
$GPGSV,4,4,15,34,31,208,35,49,34,195,37,61,03,257,*43
$GLGSV,2,1,08,78,74,081,43,70,12,338,,87,26,033,34,77,17,120,*69
$GLGSV,2,2,08,81,31,190,40,79,43,317,50,88,72,111,49,69,10,277,25*61
$GAGSV,3,1,11,30,66,081,43,15,27,160,33,07,12,219,26,19,16,318,26*6A
$GAGSV,3,2,11,18,21,062,,02,14,097,21,36,22,039,27,29,25,272,40*68
$GAGSV,3,3,11,27,55,294,37,34,47,097,42,21,05,283,25*52
$GBGSV,6,1,21,25,72,289,49,11,30,193,,13,14,093,,43,23,220,*60
$GBGSV,6,2,21,05,20,130,32,10,14,070,27,23,20,305,46,56,20,056,*6B
$GBGSV,6,3,21,08,15,085,,38,16,071,28,24,48,134,45,34,60,185,45*6D
$GBGSV,6,4,21,44,52,064,46,12,71,107,47,02,05,108,,35,09,044,19*64
$GBGSV,6,5,21,32,02,308,25,20,01,357,,26,00,130,,07,01,069,*69
$GBGSV,6,6,21,60,09,110,*57
$GPGGA,144502.00,,,,,0,00,,,M,,M,,*4E
$PTNL,GGK,144502.00,010125,4742.4465001,N,01617.9739971,E,1,19,1.5,EHT669.8451,M*4C
$GPGGQ,144502.00,010125,4742.4465001,N,01617.9739971,E,1,19,3.507,626.6340,M*35
$GPGFA,144502.00,20.163,21.140,2.121,1.076,336.544,2.578,,VVV*0E
$GPLLK,144502.00,010125,,M,,M,1,19,1.8,,M*0C
$GNGMP,144502.00,,,,,DAAA,19,0.8,,,,*50
$GPGMP,144502.00,,,,,,05,,,,2.8,123*74
$GLGMP,144502.00,,,,,,04,,,,,*7D
$GAGMP,144502.00,,,,,,04,,,,,*70
$GBGMP,144502.00,,,,,,06,,,,,*71
$PSSN,SNC,[0,312320000,2347]*45
$GPZDA,144507.00,01,01,2025,,*60
$GPDTM,W84,,00.0000000,N,00.0000000,E,00.0000000,W84*5F
$GPRMC,144507.00,A,4742.4465009,N,01617.9739977,E,0.0,,010125,5.1,E,D*1D
$GPGLL,4742.4465009,N,01617.9739977,E,144507.00,A,D*6C
$GPGGA,144507.00,4742.4465009,N,01617.9739977,E,2,18,0.8,626.6306,M,43.2110,M,3.0,0123*47
$GNGNS,144507.00,4742.4465009,N,01617.9739977,E,DAAA,18,0.8,626.6306,43.2110,,*58
$GPGNS,144507.00,,,,,,05,,,,3.0,123*78
$GLGNS,144507.00,,,,,,04,,,,,*78
$GAGNS,144507.00,,,,,,03,,,,,*72
$GBGNS,144507.00,,,,,,06,,,,,*74
$GPLLQ,144507.00,010125,,M,,M,1,18,2.217,,M*1D
$GPVTG,,T,,M,0.02,N,0.03,K,D*27
$GPHDT,,T*1B
$GPTHS,,V*0E
$GPROT,,V*08
$PSSN,HRP,144507.00,010125,,,,,,,00,0,,*62
$PTNL,AVR,144507.00,,Yaw,,Tilt,,,,0,,00*34
$GPGSA,A,3,11,25,29,31,32,,,,,,,,1.5,0.8,1.2*32
$GPGSA,A,3,78,79,81,88,,,,,,,,,1.5,0.8,1.2*35
$GPGSA,A,3,27,30,34,,,,,,,,,,1.5,0.8,1.2*3C
$GPGSA,A,3,12,23,24,25,34,44,,,,,,,1.5,0.8,1.2*39
$GPGST,144507.00,1.799,1.457,0.638,333.889,1.338,0.860,1.545*50
$GPGBS,144507.00,10.134,7.304,11.153,31,0.0001,-2.209,2.147*7B
$GPGRS,144507.00,1,0.7,0.3,-0.6,-2.2,-0.4,,,,,,,*48
$GPGRS,144507.00,1,-0.1,-1.8,3.0,-1.9,,,,,,,,*63
$GPGRS,144507.00,1,-0.8,-0.1,0.7,,,,,,,,,*6D
$GPGRS,144507.00,1,-1.1,0.9,-2.2,0.1,-0.7,-2.2,,,,,,*42
$GPGSV,4,1,15,25,83,028,48,31,19,315,39,32,17,252,36,06,13,034,31*73
$GPGSV,4,2,15,28,44,301,32,11,37,065,42,12,44,092,35,29,60,229,45*78
$GPGSV,4,3,15,20,09,091,,24,08,159,,18,00,187,,36,35,170,37*7C
$GPGSV,4,4,15,34,31,208,36,49,34,195,37,61,03,257,*40
$GLGSV,2,1,08,78,74,082,42,70,12,338,,87,26,033,34,77,17,120,*6B
$GLGSV,2,2,08,81,31,190,36,79,43,317,50,88,72,111,49,69,10,277,*67
$GAGSV,3,1,11,30,66,081,43,15,27,160,34,07,12,219,30,19,16,318,27*6B
$GAGSV,3,2,11,18,21,062,,02,14,097,,36,22,039,25,29,25,272,32*6C
$GAGSV,3,3,11,27,55,294,39,34,47,097,42,21,05,283,26*5F
$GBGSV,6,1,21,25,72,289,49,11,30,193,,13,14,093,,43,23,219,*6A
$GBGSV,6,2,21,05,20,130,32,10,14,070,26,23,20,305,46,56,20,056,*6A
$GBGSV,6,3,21,08,15,085,,38,16,071,27,24,48,134,44,34,60,185,45*63
$GBGSV,6,4,21,44,52,064,46,12,71,107,47,02,05,108,,35,09,044,19*64
$GBGSV,6,5,21,32,02,308,24,20,01,357,,26,00,130,,07,01,069,*68
$GBGSV,6,6,21,60,09,110,*57
$GPGGA,144507.00,,,,,0,00,,,M,,M,,*4B
$PTNL,GGK,144507.00,010125,4742.4465009,N,01617.9739977,E,1,18,1.5,EHT669.8417,M*44
$GPGGQ,144507.00,010125,4742.4465009,N,01617.9739977,E,1,18,2.217,626.6306,M*3A
$GPGFA,144507.00,13.855,12.666,1.457,0.638,333.889,1.545,,VVV*0A
$GPLLK,144507.00,010125,,M,,M,1,18,1.8,,M*08
$GNGMP,144507.00,,,,,DAAA,18,0.8,,,,*54
$GPGMP,144507.00,,,,,,05,,,,3.0,123*78
$GLGMP,144507.00,,,,,,04,,,,,*78
$GAGMP,144507.00,,,,,,03,,,,,*72
$GBGMP,144507.00,,,,,,06,,,,,*74
$PSSN,SNC,[0,312325000,2347]*40
$GPZDA,144512.00,01,01,2025,,*64
$GPDTM,W84,,00.0000000,N,00.0000000,E,00.0000000,W84*5F
$GPRMC,144512.00,A,4742.4465016,N,01617.9739890,E,0.0,,010125,5.1,E,D*1F
$GPGLL,4742.4465016,N,01617.9739890,E,144512.00,A,D*6E
$GPGGA,144512.00,4742.4465016,N,01617.9739890,E,2,17,1.0,626.6184,M,43.2110,M,1.6,0123*4F
$GNGNS,144512.00,4742.4465016,N,01617.9739890,E,DAAA,17,1.0,626.6184,43.2110,,*54
$GPGNS,144512.00,,,,,,05,,,,1.6,123*78
$GLGNS,144512.00,,,,,,03,,,,,*7B
$GAGNS,144512.00,,,,,,03,,,,,*76
$GBGNS,144512.00,,,,,,06,,,,,*70
$GPLLQ,144512.00,010125,,M,,M,1,17,2.279,,M*1E
$GPVTG,,T,,M,0.01,N,0.02,K,D*25
$GPHDT,,T*1B
$GPTHS,,V*0E
$GPROT,,V*08
$PSSN,HRP,144512.00,010125,,,,,,,00,0,,*66
$PTNL,AVR,144512.00,,Yaw,,Tilt,,,,0,,00*30
$GPGSA,A,3,11,25,29,31,32,,,,,,,,1.6,1.0,1.3*39
$GPGSA,A,3,78,79,88,,,,,,,,,,1.6,1.0,1.3*37
$GPGSA,A,3,27,30,34,,,,,,,,,,1.6,1.0,1.3*37
$GPGSA,A,3,12,23,24,25,34,44,,,,,,,1.6,1.0,1.3*32
$GPGST,144512.00,1.827,1.521,0.642,334.195,1.398,0.879,1.571*55
$GPGBS,144512.00,10.847,7.484,11.756,31,0.0001,-2.177,2.127*72
$GPGRS,144512.00,1,0.3,0.6,0.2,-2.2,-0.9,,,,,,,*69
$GPGRS,144512.00,1,-1.4,-2.1,-2.9,,,,,,,,,*47
$GPGRS,144512.00,1,-0.1,0.2,0.6,,,,,,,,,*4F
$GPGRS,144512.00,1,-0.1,1.2,-1.0,-0.2,-0.4,-3.1,,,,,,*63
$GPGSV,4,1,15,25,83,028,48,31,19,315,38,32,17,252,35,06,13,034,32*72
$GPGSV,4,2,15,28,44,301,33,11,37,065,43,12,44,092,28,29,60,229,45*74
$GPGSV,4,3,15,20,09,091,,24,08,159,,18,00,187,,36,35,170,37*7C
$GPGSV,4,4,15,34,31,208,35,49,34,195,37,61,03,257,*43
$GLGSV,2,1,08,78,74,082,40,70,12,338,,87,26,033,34,77,17,120,*69
$GLGSV,2,2,08,81,31,190,,79,43,317,49,88,72,111,49,69,10,277,*6A
$GAGSV,3,1,11,30,66,081,43,15,27,160,34,07,12,219,31,19,16,318,30*6C
$GAGSV,3,2,11,18,21,062,,02,14,097,,36,22,039,24,29,25,272,30*6F
$GAGSV,3,3,11,27,55,294,40,34,47,097,42,21,05,283,27*50
$GBGSV,6,1,21,25,72,289,49,11,30,193,,13,14,093,,43,23,219,*6A
$GBGSV,6,2,21,05,20,130,32,10,14,070,26,23,20,305,46,56,20,056,*6A
$GBGSV,6,3,21,08,15,085,,38,16,071,26,24,48,134,43,34,60,185,46*66
$GBGSV,6,4,21,44,52,064,45,12,71,107,47,02,05,108,,35,09,044,19*67
$GBGSV,6,5,21,32,02,307,23,20,01,357,,26,00,130,,07,01,069,*60
$GBGSV,6,6,21,60,09,110,*57
$GPGGA,144512.00,,,,,0,00,,,M,,M,,*4F
$PTNL,GGK,144512.00,010125,4742.4465016,N,01617.9739890,E,1,17,1.6,EHT669.8294,M*47
$GPGGQ,144512.00,010125,4742.4465016,N,01617.9739890,E,1,17,2.279,626.6184,M*37
$GPGFA,144512.00,14.461,12.879,1.521,0.642,334.195,1.571,,VVV*0B
$GPLLK,144512.00,010125,,M,,M,1,17,2.0,,M*08
$GNGMP,144512.00,,,,,DAAA,17,1.0,,,,*56
$GPGMP,144512.00,,,,,,05,,,,1.6,123*78
$GLGMP,144512.00,,,,,,03,,,,,*7B
$GAGMP,144512.00,,,,,,03,,,,,*76
$GBGMP,144512.00,,,,,,06,,,,,*70
$PSSN,SNC,[0,312330000,2347]*44
$GPZDA,144517.00,01,01,2025,,*61
$GPDTM,W84,,00.0000000,N,00.0000000,E,00.0000000,W84*5F
$GPRMC,144517.00,A,4742.4465041,N,01617.9739923,E,0.0,,010125,5.1,E,D*11
$GPGLL,4742.4465041,N,01617.9739923,E,144517.00,A,D*60
$GPGGA,144517.00,4742.4465041,N,01617.9739923,E,2,20,0.8,626.6243,M,43.2110,M,3.0,0123*40
$GNGNS,144517.00,4742.4465041,N,01617.9739923,E,DAAA,20,0.8,626.6243,43.2110,,*5F
$GPGNS,144517.00,,,,,,05,,,,3.0,123*79
$GLGNS,144517.00,,,,,,05,,,,,*78
$GAGNS,144517.00,,,,,,04,,,,,*74
$GBGNS,144517.00,,,,,,06,,,,,*75
$GPLLQ,144517.00,010125,,M,,M,1,20,4.606,,M*15
$GPVTG,,T,,M,0.01,N,0.02,K,D*25
$GPHDT,,T*1B
$GPTHS,,V*0E
$GPROT,,V*08
$PSSN,HRP,144517.00,010125,,,,,,,00,0,,*63
$PTNL,AVR,144517.00,,Yaw,,Tilt,,,,0,,00*35
$GPGSA,A,3,11,12,25,29,31,,,,,,,,1.3,0.8,1.1*35
$GPGSA,A,3,69,78,79,87,88,,,,,,,,1.3,0.8,1.1*39
$GPGSA,A,3,15,27,30,34,,,,,,,,,1.3,0.8,1.1*3D
$GPGSA,A,3,12,23,24,25,34,44,,,,,,,1.3,0.8,1.1*3C
$GPGST,144517.00,4.430,2.452,1.232,349.405,2.421,1.292,3.700*53
$GPGBS,144517.00,8.016,5.274,16.679,12,0.0001,-2.763,0.981*46
$GPGRS,144517.00,1,-0.2,-2.8,0.6,0.4,-1.4,,,,,,,*40
$GPGRS,144517.00,1,13.6,0.4,-1.6,-5.6,-2.0,,,,,,,*79
$GPGRS,144517.00,1,-1.8,0.5,0.3,0.6,,,,,,,,*68
$GPGRS,144517.00,1,0.3,1.7,-0.5,-0.3,-0.1,-3.7,,,,,,*4A
$GPGSV,4,1,15,25,83,028,48,31,19,315,37,32,17,252,33,06,13,034,31*78
$GPGSV,4,2,15,28,44,301,33,11,37,065,44,12,44,092,38,29,60,229,45*72
$GPGSV,4,3,15,20,09,091,,24,08,159,,18,00,187,,36,35,170,36*7D
$GPGSV,4,4,15,34,31,208,35,49,34,195,37,61,03,257,*43
$GLGSV,2,1,08,78,74,082,41,70,12,338,,87,26,033,35,77,17,120,*69
$GLGSV,2,2,08,81,31,190,,79,43,317,49,88,72,111,49,69,10,277,37*6E
$GAGSV,3,1,11,30,66,081,44,15,27,160,35,07,12,219,31,19,16,318,37*6D
$GAGSV,3,2,11,18,21,062,,02,14,097,,36,22,039,23,29,25,272,28*61
$GAGSV,3,3,11,27,55,294,40,34,47,096,41,21,05,283,28*5D
$GBGSV,6,1,21,25,72,289,49,11,30,193,,13,14,093,,43,23,219,*6A
$GBGSV,6,2,21,05,20,130,32,10,14,070,26,23,20,305,46,56,20,056,*6A
$GBGSV,6,3,21,08,15,085,,38,16,071,24,24,48,134,43,34,60,185,47*65
$GBGSV,6,4,21,44,52,064,45,12,71,107,47,02,05,108,,35,09,044,*6F
$GBGSV,6,5,21,32,02,307,28,20,01,357,,26,00,130,,07,01,069,*6B
$GBGSV,6,6,21,60,09,110,*57
$GPGGA,144517.00,,,,,0,00,,,M,,M,,*4A
$PTNL,GGK,144517.00,010125,4742.4465041,N,01617.9739923,E,1,20,1.3,EHT669.8353,M*42
$GPGGQ,144517.00,010125,4742.4465041,N,01617.9739923,E,1,20,4.606,626.6243,M*3F
$GPGFA,144517.00,23.312,30.340,2.452,1.232,349.405,3.700,,VVV*0C
$GPLLK,144517.00,010125,,M,,M,1,20,1.5,,M*0F
$GNGMP,144517.00,,,,,DAAA,20,0.8,,,,*5E
$GPGMP,144517.00,,,,,,05,,,,3.0,123*79
$GLGMP,144517.00,,,,,,05,,,,,*78
$GAGMP,144517.00,,,,,,04,,,,,*74
$GBGMP,144517.00,,,,,,06,,,,,*75
$PSSN,SNC,[0,312335000,2347]*41
$GPZDA,144522.00,01,01,2025,,*67
$GPDTM,W84,,00.0000000,N,00.0000000,E,00.0000000,W84*5F
$GPRMC,144522.00,A,4742.4465029,N,01617.9740026,E,0.0,,010125,5.1,E,D*1B
$GPGLL,4742.4465029,N,01617.9740026,E,144522.00,A,D*6A
$GPGGA,144522.00,4742.4465029,N,01617.9740026,E,2,20,0.7,626.6133,M,43.2110,M,2.8,0123*48
$GNGNS,144522.00,4742.4465029,N,01617.9740026,E,DAAA,20,0.7,626.6133,43.2110,,*5E
$GPGNS,144522.00,,,,,,04,,,,2.8,123*77
$GLGNS,144522.00,,,,,,06,,,,,*7D
$GAGNS,144522.00,,,,,,04,,,,,*72
$GBGNS,144522.00,,,,,,06,,,,,*73
$GPLLQ,144522.00,010125,,M,,M,1,20,4.062,,M*17
$GPVTG,,T,,M,0.01,N,0.01,K,D*26
$GPHDT,,T*1B
$GPTHS,,V*0E
$GPROT,,V*08
$PSSN,HRP,144522.00,010125,,,,,,,00,0,,*65
$PTNL,AVR,144522.00,,Yaw,,Tilt,,,,0,,00*33
$GPGSA,A,3,11,25,29,31,,,,,,,,,1.3,0.7,1.0*38
$GPGSA,A,3,69,78,79,81,87,88,,,,,,,1.3,0.7,1.0*3E
$GPGSA,A,3,15,27,30,34,,,,,,,,,1.3,0.7,1.0*33
$GPGSA,A,3,12,23,24,25,34,44,,,,,,,1.3,0.7,1.0*32
$GPGST,144522.00,6.201,2.331,1.168,334.035,2.157,1.464,3.115*59
$GPGBS,144522.00,8.671,7.137,16.352,69,0.0001,18.914,7.611*58
$GPGRS,144522.00,1,0.2,0.5,0.1,-0.8,,,,,,,,*69
$GPGRS,144522.00,1,18.9,3.6,-0.6,9.8,-3.1,-1.2,,,,,,*54
$GPGRS,144522.00,1,-1.2,-0.6,0.2,0.0,,,,,,,,*4D
$GPGRS,144522.00,1,0.5,1.4,-1.1,-0.5,0.1,-4.0,,,,,,*67
$GPGSV,4,1,15,25,83,029,47,31,19,315,35,32,17,251,34,06,13,034,31*70
$GPGSV,4,2,15,28,44,301,34,11,37,065,45,12,44,092,33,29,60,229,46*7C
$GPGSV,4,3,15,20,09,091,,24,08,159,,18,01,187,,36,35,170,36*7C
$GPGSV,4,4,15,34,31,208,35,49,34,195,37,61,03,257,*43
$GLGSV,2,1,08,78,74,082,38,70,12,338,,87,26,033,36,77,17,120,*64
$GLGSV,2,2,08,81,31,190,37,79,43,317,50,88,72,111,49,69,10,277,37*62
$GAGSV,3,1,11,30,66,081,44,15,27,160,35,07,12,219,31,19,16,318,38*62
$GAGSV,3,2,11,18,21,062,,02,14,097,,36,22,039,24,29,25,272,28*66
$GAGSV,3,3,11,27,55,294,40,34,47,096,40,21,05,283,28*5C
$GBGSV,6,1,21,25,72,289,49,11,30,193,,13,14,093,,43,23,219,*6A
$GBGSV,6,2,21,05,20,130,32,10,14,070,26,23,20,305,45,56,20,056,*69
$GBGSV,6,3,21,08,15,085,,38,16,071,23,24,48,134,42,34,60,185,48*6C
$GBGSV,6,4,21,44,52,063,45,12,71,107,47,02,05,108,,35,09,044,*68
$GBGSV,6,5,21,32,02,307,26,20,01,357,,26,00,130,,07,01,069,*65
$GBGSV,6,6,21,60,09,110,*57
$GPGGA,144522.00,,,,,0,00,,,M,,M,,*4C
$PTNL,GGK,144522.00,010125,4742.4465029,N,01617.9740026,E,1,20,1.3,EHT669.8243,M*48
$GPGGQ,144522.00,010125,4742.4465029,N,01617.9740026,E,1,20,4.062,626.6133,M*35
$GPGFA,144522.00,22.162,25.539,2.331,1.168,334.035,3.115,,VVV*03
$GPLLK,144522.00,010125,,M,,M,1,20,1.5,,M*09
$GNGMP,144522.00,,,,,DAAA,20,0.7,,,,*57
$GPGMP,144522.00,,,,,,04,,,,2.8,123*77
$GLGMP,144522.00,,,,,,06,,,,,*7D
$GAGMP,144522.00,,,,,,04,,,,,*72
$GBGMP,144522.00,,,,,,06,,,,,*73
$PSSN,SNC,[0,312340000,2347]*43
$GPZDA,144527.00,01,01,2025,,*62
$GPDTM,W84,,00.0000000,N,00.0000000,E,00.0000000,W84*5F
$GPRMC,144527.00,A,4742.4465030,N,01617.9740027,E,0.0,,010125,5.1,E,D*17
$GPGLL,4742.4465030,N,01617.9740027,E,144527.00,A,D*66
$GPGGA,144527.00,4742.4465030,N,01617.9740027,E,2,20,0.7,626.6152,M,43.2110,M,3.0,0123*4A
$GNGNS,144527.00,4742.4465030,N,01617.9740027,E,DAAA,20,0.7,626.6152,43.2110,,*55
$GPGNS,144527.00,,,,,,05,,,,3.0,123*7A
$GLGNS,144527.00,,,,,,05,,,,,*7B
$GAGNS,144527.00,,,,,,04,,,,,*77
$GBGNS,144527.00,,,,,,06,,,,,*76
$GPLLQ,144527.00,010125,,M,,M,1,20,5.456,,M*10
$GPVTG,,T,,M,0.01,N,0.01,K,D*26
$GPHDT,,T*1B
$GPTHS,,V*0E
$GPROT,,V*08
$PSSN,HRP,144527.00,010125,,,,,,,00,0,,*60
$PTNL,AVR,144527.00,,Yaw,,Tilt,,,,0,,00*36
$GPGSA,A,3,11,25,29,31,32,,,,,,,,1.2,0.7,1.0*38
$GPGSA,A,3,69,79,81,87,88,,,,,,,,1.2,0.7,1.0*30
$GPGSA,A,3,15,27,30,34,,,,,,,,,1.2,0.7,1.0*32
$GPGSA,A,3,12,23,24,25,34,44,,,,,,,1.2,0.7,1.0*33
$GPGST,144527.00,6.962,3.601,1.481,326.920,3.124,2.324,3.821*52
$GPGBS,144527.00,9.680,6.900,10.383,69,0.0001,21.482,7.620*5F
$GPGRS,144527.00,1,0.4,0.3,-0.1,-2.3,-4.7,,,,,,,*48
$GPGRS,144527.00,1,21.5,-1.0,10.2,1.4,-1.5,,,,,,,*64
$GPGRS,144527.00,1,-1.9,-1.3,0.3,-0.9,,,,,,,,*62
$GPGRS,144527.00,1,0.6,0.8,-2.4,-0.7,0.0,-4.2,,,,,,*6B
$GPGSV,4,1,15,25,83,029,46,31,19,315,35,32,17,251,35,06,13,034,33*72
$GPGSV,4,2,15,28,44,301,35,11,37,065,46,12,44,092,39,29,60,229,46*74
$GPGSV,4,3,15,20,09,091,,24,08,159,,18,01,187,,36,35,170,36*7C
$GPGSV,4,4,15,34,31,208,35,49,34,195,37,61,03,257,*43
$GLGSV,2,1,08,78,74,082,32,70,12,338,,87,26,033,36,77,17,120,*6E
$GLGSV,2,2,08,81,31,190,40,79,43,317,50,88,72,110,49,69,10,277,36*62
$GAGSV,3,1,11,30,66,081,44,15,27,160,36,07,12,219,31,19,16,318,30*69
$GAGSV,3,2,11,18,21,062,,02,14,097,,36,22,039,35,29,25,272,29*67
$GAGSV,3,3,11,27,55,294,41,34,47,096,39,21,05,283,29*52
$GBGSV,6,1,21,25,72,289,50,11,30,193,,13,14,093,,43,23,219,*62
$GBGSV,6,2,21,05,20,130,32,10,14,070,27,23,20,305,45,56,20,056,*68
$GBGSV,6,3,21,08,15,085,,38,16,071,,24,48,134,42,34,60,185,49*6C
$GBGSV,6,4,21,44,52,063,45,12,71,107,47,02,05,108,,35,09,044,*68
$GBGSV,6,5,21,32,02,307,24,20,01,357,,26,00,130,,07,01,069,*67
$GBGSV,6,6,21,60,09,110,*57
$GPGGA,144527.00,,,,,0,00,,,M,,M,,*49
$PTNL,GGK,144527.00,010125,4742.4465030,N,01617.9740027,E,1,20,1.2,EHT669.8262,M*46
$GPGGQ,144527.00,010125,4742.4465030,N,01617.9740027,E,1,20,5.456,626.6152,M*3C
$GPGFA,144527.00,34.237,31.335,3.601,1.481,326.920,3.821,,VVV*08
$GPLLK,144527.00,010125,,M,,M,1,20,1.4,,M*0D
$GNGMP,144527.00,,,,,DAAA,20,0.7,,,,*52
$GPGMP,144527.00,,,,,,05,,,,3.0,123*7A
$GLGMP,144527.00,,,,,,05,,,,,*7B
$GAGMP,144527.00,,,,,,04,,,,,*77
$GBGMP,144527.00,,,,,,06,,,,,*76
$PSSN,SNC,[0,312345000,2347]*46
$GPZDA,144532.00,01,01,2025,,*66
$GPDTM,W84,,00.0000000,N,00.0000000,E,00.0000000,W84*5F
$GPRMC,144532.00,A,4742.4464958,N,01617.9739984,E,0.0,,010125,5.1,E,D*1B
$GPGLL,4742.4464958,N,01617.9739984,E,144532.00,A,D*6A
$GPGGA,144532.00,4742.4464958,N,01617.9739984,E,2,21,0.7,626.5942,M,43.2110,M,1.8,0123*47
$GNGNS,144532.00,4742.4464958,N,01617.9739984,E,DAAA,21,0.7,626.5942,43.2110,,*52
$GPGNS,144532.00,,,,,,06,,,,1.8,123*77
$GLGNS,144532.00,,,,,,05,,,,,*7F
$GAGNS,144532.00,,,,,,04,,,,,*73
$GBGNS,144532.00,,,,,,06,,,,,*72
$GPLLQ,144532.00,010125,,M,,M,1,21,3.772,,M*16
$GPVTG,,T,,M,0.00,N,0.01,K,D*27
$GPHDT,,T*1B
$GPTHS,,V*0E
$GPROT,,V*08
$PSSN,HRP,144532.00,010125,,,,,,,00,0,,*64
$PTNL,AVR,144532.00,,Yaw,,Tilt,,,,0,,00*32
$GPGSA,A,3,11,12,25,29,31,32,,,,,,,1.3,0.7,1.1*3B
$GPGSA,A,3,69,78,79,81,88,,,,,,,,1.3,0.7,1.1*30
$GPGSA,A,3,15,27,30,34,,,,,,,,,1.3,0.7,1.1*32
$GPGSA,A,3,12,23,24,25,34,44,,,,,,,1.3,0.7,1.1*33
$GPGST,144532.00,6.458,2.468,1.018,343.625,2.386,1.200,2.664*52
$GPGBS,144532.00,7.639,4.826,10.121,69,0.0001,19.412,7.618*53
$GPGRS,144532.00,1,1.7,-0.2,0.8,-0.4,-1.1,-3.1,,,,,,*41
$GPGRS,144532.00,1,19.4,-4.1,-2.2,11.1,-1.5,,,,,,,*44
$GPGRS,144532.00,1,-2.7,-0.7,0.5,-0.9,,,,,,,,*68
$GPGRS,144532.00,1,1.7,0.9,-3.1,-0.6,0.5,-4.8,,,,,,*64
$GPGSV,4,1,15,25,83,029,47,31,19,315,35,32,17,251,36,06,13,034,34*77
$GPGSV,4,2,15,28,44,301,38,11,37,065,46,12,44,093,43,29,60,229,46*75
$GPGSV,4,3,15,20,09,091,,24,08,159,,18,01,187,,36,35,170,36*7C
$GPGSV,4,4,15,34,31,208,35,49,34,195,37,61,03,257,*43
$GLGSV,2,1,08,78,74,082,44,70,12,338,,87,26,032,,77,17,120,*6B
$GLGSV,2,2,08,81,31,190,40,79,43,317,49,88,72,110,50,69,10,277,36*62
$GAGSV,3,1,11,30,66,081,45,15,27,160,36,07,12,219,30,19,16,318,30*69
$GAGSV,3,2,11,18,21,062,,02,14,097,,36,22,039,35,29,25,272,31*6E
$GAGSV,3,3,11,27,55,294,41,34,47,096,38,21,05,283,28*52
$GBGSV,6,1,21,25,72,289,49,11,31,193,,13,14,093,,43,23,219,*6B
$GBGSV,6,2,21,05,20,130,32,10,14,070,26,23,20,305,44,56,20,056,*68
$GBGSV,6,3,21,08,15,085,,38,17,071,21,24,48,134,43,34,60,185,50*67
$GBGSV,6,4,21,44,52,063,45,12,71,106,46,02,05,108,,35,09,044,*68
$GBGSV,6,5,21,32,02,307,27,20,01,357,,26,00,130,,07,01,069,*64
$GBGSV,6,6,21,60,09,110,*57
$GPGGA,144532.00,,,,,0,00,,,M,,M,,*4D
$PTNL,GGK,144532.00,010125,4742.4464958,N,01617.9739984,E,1,21,1.3,EHT669.8052,M*4B
$GPGGQ,144532.00,010125,4742.4464958,N,01617.9739984,E,1,21,3.772,626.5942,M*38
$GPGFA,144532.00,23.469,21.845,2.468,1.018,343.625,2.664,,VVV*05
$GPLLK,144532.00,010125,,M,,M,1,21,1.5,,M*09
$GNGMP,144532.00,,,,,DAAA,21,0.7,,,,*57
$GPGMP,144532.00,,,,,,06,,,,1.8,123*77
$GLGMP,144532.00,,,,,,05,,,,,*7F
$GAGMP,144532.00,,,,,,04,,,,,*73
$GBGMP,144532.00,,,,,,06,,,,,*72
$PSSN,SNC,[0,312350000,2347]*42
$GPZDA,144537.00,01,01,2025,,*63
$GPDTM,W84,,00.0000000,N,00.0000000,E,00.0000000,W84*5F
$GPRMC,144537.00,A,4742.4464918,N,01617.9739914,E,0.0,,010125,5.1,E,D*13
$GPGLL,4742.4464918,N,01617.9739914,E,144537.00,A,D*62
$GPGGA,144537.00,4742.4464918,N,01617.9739914,E,2,19,0.8,626.5918,M,43.2110,M,2.8,0123*47
$GNGNS,144537.00,4742.4464918,N,01617.9739914,E,DAAA,19,0.8,626.5918,43.2110,,*51
$GPGNS,144537.00,,,,,,06,,,,2.8,123*71
$GLGNS,144537.00,,,,,,04,,,,,*7B
$GAGNS,144537.00,,,,,,03,,,,,*71
$GBGNS,144537.00,,,,,,06,,,,,*77
$GPLLQ,144537.00,010125,,M,,M,1,19,3.266,,M*18
$GPVTG,,T,,M,0.00,N,0.00,K,D*26
$GPHDT,,T*1B
$GPTHS,,V*0E
$GPROT,,V*08
$PSSN,HRP,144537.00,010125,,,,,,,00,0,,*61
$PTNL,AVR,144537.00,,Yaw,,Tilt,,,,0,,00*37
$GPGSA,A,3,11,12,25,29,31,32,,,,,,,1.4,0.8,1.1*33
$GPGSA,A,3,69,79,81,88,,,,,,,,,1.4,0.8,1.1*37
$GPGSA,A,3,27,30,34,,,,,,,,,,1.4,0.8,1.1*3E
$GPGSA,A,3,12,23,24,25,34,44,,,,,,,1.4,0.8,1.1*3B
$GPGST,144537.00,5.960,2.163,0.863,343.557,2.088,1.029,2.290*54
$GPGBS,144537.00,8.145,4.998,10.679,69,0.0001,15.309,7.625*54
$GPGRS,144537.00,1,0.3,-0.2,1.0,-0.6,-0.6,-1.4,,,,,,*4B
$GPGRS,144537.00,1,15.3,-3.3,11.4,-1.8,,,,,,,,*44
$GPGRS,144537.00,1,-1.6,0.4,-1.2,,,,,,,,,*60
$GPGRS,144537.00,1,1.3,0.8,-3.4,-0.7,0.8,-5.0,,,,,,*64
$GPGSV,4,1,15,25,83,030,47,31,19,315,38,32,17,251,37,06,13,034,32*75
$GPGSV,4,2,15,28,44,301,36,11,37,065,44,12,44,093,44,29,60,229,46*7E
$GPGSV,4,3,15,20,09,091,,24,08,159,,18,01,187,,36,35,170,36*7C
$GPGSV,4,4,15,34,31,208,36,49,34,195,37,61,03,257,*40
$GLGSV,2,1,08,78,74,083,35,70,12,338,,87,26,032,,77,16,120,*6D
$GLGSV,2,2,08,81,31,190,41,79,43,317,49,88,72,110,51,69,10,277,35*61
$GAGSV,3,1,11,30,66,081,45,15,28,160,35,07,11,219,30,19,16,318,29*6E
$GAGSV,3,2,11,18,21,062,,02,14,097,,36,21,039,34,29,25,271,32*6C
$GAGSV,3,3,11,27,55,294,41,34,47,096,37,21,05,283,27*52
$GBGSV,5,1,20,25,72,289,49,11,31,193,,10,14,070,26,05,20,130,32*6B
$GBGSV,5,2,20,43,23,219,,23,20,305,44,56,20,056,,13,14,093,*68
$GBGSV,5,3,20,08,15,085,,38,17,071,,24,47,134,43,34,60,185,50*69
$GBGSV,5,4,20,44,52,063,45,12,71,106,45,35,09,044,,20,01,357,*65
$GBGSV,5,5,20,07,01,069,,32,02,307,25,02,05,108,,60,09,110,*61
$GPGGA,144537.00,,,,,0,00,,,M,,M,,*48
$PTNL,GGK,144537.00,010125,4742.4464918,N,01617.9739914,E,1,19,1.4,EHT669.8028,M*42
$GPGGQ,144537.00,010125,4742.4464918,N,01617.9739914,E,1,19,3.266,626.5918,M*34
$GPGFA,144537.00,20.561,18.778,2.163,0.863,343.557,2.290,,VVV*03
$GPLLK,144537.00,010125,,M,,M,1,19,1.6,,M*04
$GNGMP,144537.00,,,,,DAAA,19,0.8,,,,*56
$GPGMP,144537.00,,,,,,06,,,,2.8,123*71
$GLGMP,144537.00,,,,,,04,,,,,*7B
$GAGMP,144537.00,,,,,,03,,,,,*71
$GBGMP,144537.00,,,,,,06,,,,,*77
$PSSN,SNC,[0,312355000,2347]*47
$GPZDA,144542.00,01,01,2025,,*61
$GPDTM,W84,,00.0000000,N,00.0000000,E,00.0000000,W84*5F
$GPRMC,144542.00,A,4742.4464849,N,01617.9739959,E,0.0,,010125,5.1,E,D*1D
$GPGLL,4742.4464849,N,01617.9739959,E,144542.00,A,D*6C
$GPGGA,144542.00,4742.4464849,N,01617.9739959,E,2,21,0.8,626.5878,M,43.2110,M,2.7,0123*4A
$GNGNS,144542.00,4742.4464849,N,01617.9739959,E,DAAA,21,0.8,626.5878,43.2110,,*53
$GPGNS,144542.00,,,,,,07,,,,2.7,123*7D
$GLGNS,144542.00,,,,,,05,,,,,*78
$GAGNS,144542.00,,,,,,03,,,,,*73
$GBGNS,144542.00,,,,,,06,,,,,*75
$GPLLQ,144542.00,010125,,M,,M,1,21,4.175,,M*17
$GPVTG,,T,,M,0.01,N,0.02,K,D*25
$GPHDT,,T*1B
$GPTHS,,V*0E
$GPROT,,V*08
$PSSN,HRP,144542.00,010125,,,,,,,00,0,,*63
$PTNL,AVR,144542.00,,Yaw,,Tilt,,,,0,,00*35
$GPGSA,A,3,11,12,25,28,29,31,32,,,,,,1.4,0.8,1.1*39
$GPGSA,A,3,69,78,79,81,88,,,,,,,,1.4,0.8,1.1*38
$GPGSA,A,3,27,30,34,,,,,,,,,,1.4,0.8,1.1*3E
$GPGSA,A,3,12,23,24,25,34,44,,,,,,,1.4,0.8,1.1*3B
$GPGST,144542.00,6.837,2.378,1.132,352.018,2.361,1.168,3.240*50
$GPGBS,144542.00,6.345,3.725,10.582,78,0.0001,15.507,6.160*5D
$GPGRS,144542.00,1,-1.4,-0.9,0.4,2.8,-0.9,-0.1,-1.1,,,,,*45
$GPGRS,144542.00,1,11.2,15.5,-3.3,14.8,-2.2,,,,,,,*5C
$GPGRS,144542.00,1,-2.1,-0.1,-1.5,,,,,,,,,*49
$GPGRS,144542.00,1,-0.3,0.4,-3.5,-1.4,0.3,-4.4,,,,,,*4B
$GPGSV,4,1,15,25,83,030,47,31,19,315,37,32,17,251,38,06,13,034,30*77
$GPGSV,4,2,15,28,44,301,36,11,37,065,44,12,44,093,45,29,60,229,47*7E
$GPGSV,4,3,15,20,09,091,,24,08,159,,18,01,187,,36,35,170,36*7C
$GPGSV,4,4,15,34,31,208,35,49,34,195,37,61,03,257,*43
$GLGSV,2,1,08,78,74,083,36,70,12,338,,87,26,032,35,77,16,120,*68
$GLGSV,2,2,08,81,31,190,42,79,43,317,48,88,72,110,52,69,10,277,35*60
$GAGSV,3,1,11,30,66,081,45,15,28,160,34,07,11,219,30,19,16,318,39*6E
$GAGSV,3,2,11,18,21,062,,02,14,097,,36,21,039,33,29,25,271,33*6A
$GAGSV,3,3,11,27,55,294,41,34,47,096,37,21,05,283,26*53
$GBGSV,5,1,20,25,72,289,49,11,31,193,,10,14,070,26,05,20,130,32*6B
$GBGSV,5,2,20,43,23,219,,23,20,305,45,56,20,056,,13,14,093,*69
$GBGSV,5,3,20,08,15,085,,38,17,071,22,24,47,134,43,34,60,185,50*69
$GBGSV,5,4,20,44,52,063,44,12,71,106,45,35,09,044,,20,01,357,*64
$GBGSV,5,5,20,07,01,069,,32,02,307,26,02,05,108,,60,09,110,*62
$GPGGA,144542.00,,,,,0,00,,,M,,M,,*4A
$PTNL,GGK,144542.00,010125,4742.4464849,N,01617.9739959,E,1,21,1.4,EHT669.7988,M*4B
$GPGGQ,144542.00,010125,4742.4464849,N,01617.9739959,E,1,21,4.175,626.5878,M*30
$GPGFA,144542.00,22.614,26.565,2.378,1.132,352.018,3.240,,VVV*07
$GPLLK,144542.00,010125,,M,,M,1,21,1.6,,M*0D
$GNGMP,144542.00,,,,,DAAA,21,0.8,,,,*5F
$GPGMP,144542.00,,,,,,07,,,,2.7,123*7D
$GLGMP,144542.00,,,,,,05,,,,,*78
$GAGMP,144542.00,,,,,,03,,,,,*73
$GBGMP,144542.00,,,,,,06,,,,,*75
$PSSN,SNC,[0,312360000,2347]*41
$GPZDA,144547.00,01,01,2025,,*64
$GPDTM,W84,,00.0000000,N,00.0000000,E,00.0000000,W84*5F
$GPRMC,144547.00,A,4742.4464843,N,01617.9740048,E,0.0,,010125,5.1,E,D*15
$GPGLL,4742.4464843,N,01617.9740048,E,144547.00,A,D*64
$GPGGA,144547.00,4742.4464843,N,01617.9740048,E,2,20,0.8,626.5722,M,43.2110,M,2.6,0123*42
$GNGNS,144547.00,4742.4464843,N,01617.9740048,E,DAAA,20,0.8,626.5722,43.2110,,*5A
$GPGNS,144547.00,,,,,,07,,,,2.6,123*79
$GLGNS,144547.00,,,,,,04,,,,,*7C
$GAGNS,144547.00,,,,,,03,,,,,*76
$GBGNS,144547.00,,,,,,06,,,,,*70
$GPLLQ,144547.00,010125,,M,,M,1,20,4.051,,M*14
$GPVTG,,T,,M,0.01,N,0.01,K,D*26
$GPHDT,,T*1B
$GPTHS,,V*0E
$GPROT,,V*08
$PSSN,HRP,144547.00,010125,,,,,,,00,0,,*66
$PTNL,AVR,144547.00,,Yaw,,Tilt,,,,0,,00*30
$GPGSA,A,3,11,12,25,28,29,31,32,,,,,,1.4,0.8,1.2*3A
$GPGSA,A,3,78,79,81,88,,,,,,,,,1.4,0.8,1.2*34
$GPGSA,A,3,27,30,34,,,,,,,,,,1.4,0.8,1.2*3D
$GPGSA,A,3,12,23,24,25,34,44,,,,,,,1.4,0.8,1.2*38
$GPGST,144547.00,8.173,2.302,1.094,352.246,2.286,1.127,3.149*52
$GPGBS,144547.00,6.465,3.731,10.723,78,0.0001,22.966,6.164*5A
$GPGRS,144547.00,1,-0.3,-0.7,0.1,-0.3,0.4,-0.6,-1.2,,,,,*4D
$GPGRS,144547.00,1,23.0,-3.1,17.6,-1.8,,,,,,,,*43
$GPGRS,144547.00,1,-0.6,0.3,-0.9,,,,,,,,,*6B
$GPGRS,144547.00,1,-0.0,0.4,-2.7,-0.7,0.6,-2.5,,,,,,*4E
$GPGSV,4,1,15,25,83,030,47,31,19,315,38,32,17,251,38,06,13,034,29*70
$GPGSV,4,2,15,28,44,301,38,11,37,065,44,12,44,093,45,29,60,229,48*7F
$GPGSV,4,3,15,20,09,091,,24,08,159,,18,01,187,,36,35,170,36*7C
$GPGSV,4,4,15,34,31,208,35,49,34,195,37,61,03,257,*43
$GLGSV,2,1,08,78,74,083,44,70,12,338,,87,26,032,32,77,16,120,*6A
$GLGSV,2,2,08,81,31,190,42,79,43,317,48,88,72,110,52,69,10,277,34*61
$GAGSV,3,1,11,30,66,081,45,15,28,160,34,07,11,219,29,19,16,318,28*66
$GAGSV,3,2,11,18,21,062,,02,14,097,,36,21,039,32,29,25,271,35*6D
$GAGSV,3,3,11,27,55,294,40,34,47,096,38,21,05,283,23*58
$GBGSV,5,1,20,25,72,289,50,11,31,193,,10,14,070,25,05,20,130,32*60
$GBGSV,5,2,20,43,23,219,,23,20,305,45,56,20,056,,13,14,093,*69
$GBGSV,5,3,20,08,15,085,,38,17,071,23,24,47,134,43,34,60,185,50*68
$GBGSV,5,4,20,44,52,063,43,12,71,106,44,35,09,044,,20,01,357,*62
$GBGSV,5,5,20,07,01,069,,32,02,307,26,02,05,108,,60,09,110,*62
$GPGGA,144547.00,,,,,0,00,,,M,,M,,*4F
$PTNL,GGK,144547.00,010125,4742.4464843,N,01617.9740048,E,1,20,1.4,EHT669.7833,M*43
$GPGGQ,144547.00,010125,4742.4464843,N,01617.9740048,E,1,20,4.051,626.5722,M*3E
$GPGFA,144547.00,21.886,25.824,2.302,1.094,352.246,3.149,,VVV*0C
$GPLLK,144547.00,010125,,M,,M,1,20,1.7,,M*08
$GNGMP,144547.00,,,,,DAAA,20,0.8,,,,*5B
$GPGMP,144547.00,,,,,,07,,,,2.6,123*79
$GLGMP,144547.00,,,,,,04,,,,,*7C
$GAGMP,144547.00,,,,,,03,,,,,*76
$GBGMP,144547.00,,,,,,06,,,,,*70
$PSSN,SNC,[0,312365000,2347]*44
$GPZDA,144552.00,01,01,2025,,*60
$GPDTM,W84,,00.0000000,N,00.0000000,E,00.0000000,W84*5F
$GPRMC,144552.00,A,4742.4464871,N,01617.9740079,E,0.0,,010125,5.1,E,D*12
$GPGLL,4742.4464871,N,01617.9740079,E,144552.00,A,D*63
$GPGGA,144552.00,4742.4464871,N,01617.9740079,E,2,21,0.8,626.5697,M,43.2110,M,1.9,0123*47
$GNGNS,144552.00,4742.4464871,N,01617.9740079,E,DAAA,21,0.8,626.5697,43.2110,,*53
$GPGNS,144552.00,,,,,,07,,,,1.9,123*71
$GLGNS,144552.00,,,,,,04,,,,,*78
$GAGNS,144552.00,,,,,,04,,,,,*75
$GBGNS,144552.00,,,,,,06,,,,,*74
$GPLLQ,144552.00,010125,,M,,M,1,21,2.515,,M*12
$GPVTG,,T,,M,0.01,N,0.02,K,D*25
$GPHDT,,T*1B
$GPTHS,,V*0E
$GPROT,,V*08
$PSSN,HRP,144552.00,010125,,,,,,,00,0,,*62
$PTNL,AVR,144552.00,,Yaw,,Tilt,,,,0,,00*34
$GPGSA,A,3,11,12,25,28,29,31,32,,,,,,1.4,0.8,1.2*3A
$GPGSA,A,3,78,79,81,88,,,,,,,,,1.4,0.8,1.2*34
$GPGSA,A,3,27,29,30,34,,,,,,,,,1.4,0.8,1.2*36
$GPGSA,A,3,12,23,24,25,34,44,,,,,,,1.4,0.8,1.2*38
$GPGST,144552.00,4.303,1.436,0.683,352.246,1.426,0.704,1.948*5F
$GPGBS,144552.00,6.376,3.752,10.482,81,0.0001,14.377,6.382*55
$GPGRS,144552.00,1,0.4,-0.8,0.0,0.6,0.6,-0.5,-1.3,,,,,*45
$GPGRS,144552.00,1,-5.3,-2.6,14.4,-2.8,,,,,,,,*59
$GPGRS,144552.00,1,-0.4,1.3,0.6,-0.5,,,,,,,,*48
$GPGRS,144552.00,1,0.7,0.3,-1.5,0.2,0.8,-0.9,,,,,,*4E
$GPGSV,4,1,15,25,83,031,47,31,19,315,38,32,17,251,37,06,13,034,29*7E
$GPGSV,4,2,15,28,44,301,38,11,37,065,43,12,44,093,45,29,60,229,48*78
$GPGSV,4,3,15,20,09,091,,24,07,159,,18,01,187,,36,35,170,36*73
$GPGSV,4,4,15,34,31,208,35,49,34,195,36,61,03,257,*42
$GLGSV,2,1,08,78,74,083,44,70,12,338,,87,26,032,,77,16,120,*6B
$GLGSV,2,2,08,81,31,190,42,79,44,317,48,88,72,110,51,69,10,277,34*65
$GAGSV,3,1,11,30,66,081,45,15,28,160,35,07,11,219,28,19,16,318,28*66
$GAGSV,3,2,11,18,21,062,,02,14,097,,36,21,039,31,29,25,271,36*6D
$GAGSV,3,3,11,27,55,294,39,34,47,096,38,21,05,283,19*5F
$GBGSV,5,1,20,25,72,288,50,11,31,193,,13,14,093,,43,23,219,*60
$GBGSV,5,2,20,05,20,130,32,10,14,070,23,23,20,305,46,56,20,056,*6D
$GBGSV,5,3,20,08,15,085,,38,17,071,23,24,47,134,43,34,60,184,50*69
$GBGSV,5,4,20,44,52,063,43,12,71,106,44,35,09,044,,02,05,108,*6E
$GBGSV,5,5,20,20,01,357,,32,02,307,23,07,01,069,,60,09,110,*6B
$GPGGA,144552.00,,,,,0,00,,,M,,M,,*4B
$PTNL,GGK,144552.00,010125,4742.4464871,N,01617.9740079,E,1,21,1.4,EHT669.7807,M*42
$GPGGQ,144552.00,010125,4742.4464871,N,01617.9740079,E,1,21,2.515,626.5697,M*34
$GPGFA,144552.00,13.651,15.973,1.436,0.683,352.246,1.948,,VVV*04
$GPLLK,144552.00,010125,,M,,M,1,21,1.7,,M*0D
$GNGMP,144552.00,,,,,DAAA,21,0.8,,,,*5E
$GPGMP,144552.00,,,,,,07,,,,1.9,123*71
$GLGMP,144552.00,,,,,,04,,,,,*78
$GAGMP,144552.00,,,,,,04,,,,,*75
$GBGMP,144552.00,,,,,,06,,,,,*74
$PSSN,SNC,[0,312370000,2347]*40
$GPZDA,144557.00,01,01,2025,,*65
$GPDTM,W84,,00.0000000,N,00.0000000,E,00.0000000,W84*5F
$GPRMC,144557.00,A,4742.4464873,N,01617.9740106,E,0.0,,010125,5.1,E,D*1C
$GPGLL,4742.4464873,N,01617.9740106,E,144557.00,A,D*6D
$GPGGA,144557.00,4742.4464873,N,01617.9740106,E,2,21,0.7,626.5645,M,43.2110,M,2.9,0123*4A
$GNGNS,144557.00,4742.4464873,N,01617.9740106,E,DAAA,21,0.7,626.5645,43.2110,,*5D
$GPGNS,144557.00,,,,,,07,,,,2.9,123*77
$GLGNS,144557.00,,,,,,03,,,,,*7A
$GAGNS,144557.00,,,,,,05,,,,,*71
$GBGNS,144557.00,,,,,,06,,,,,*71
$GPLLQ,144557.00,010125,,M,,M,1,21,2.128,,M*1D
$GPVTG,,T,,M,0.01,N,0.02,K,D*25
$GPHDT,,T*1B
$GPTHS,,V*0E
$GPROT,,V*08
$PSSN,HRP,144557.00,010125,,,,,,,00,0,,*67
$PTNL,AVR,144557.00,,Yaw,,Tilt,,,,0,,00*31
$GPGSA,A,3,11,12,25,28,29,31,32,,,,,,1.3,0.7,1.1*31
$GPGSA,A,3,79,81,88,,,,,,,,,,1.3,0.7,1.1*30
$GPGSA,A,3,15,27,29,30,34,,,,,,,,1.3,0.7,1.1*39
$GPGSA,A,3,12,23,24,25,34,44,,,,,,,1.3,0.7,1.1*33
$GPGST,144557.00,3.037,1.196,0.585,352.107,1.187,0.603,1.661*59
$GPGBS,144557.00,6.192,3.733,10.388,81,0.0001,9.797,6.382*64
$GPGRS,144557.00,1,0.7,-1.0,0.5,-0.5,0.2,1.0,-1.5,,,,,*4A
$GPGRS,144557.00,1,-1.8,9.8,-3.5,,,,,,,,,*68
$GPGRS,144557.00,1,-1.4,0.2,2.0,0.5,0.1,,,,,,,*4A
$GPGRS,144557.00,1,1.8,0.8,-0.8,0.7,1.0,-0.4,,,,,,*43
$GPGSV,4,1,15,25,83,031,47,31,20,315,39,32,17,251,38,06,13,034,29*7A
$GPGSV,4,2,15,28,44,301,36,11,37,065,43,12,44,093,45,29,60,229,48*76
$GPGSV,4,3,15,20,09,091,,24,07,159,,18,01,187,,36,35,170,36*73
$GPGSV,4,4,15,34,31,208,35,49,34,195,37,61,03,257,*43
$GLGSV,2,1,08,78,74,083,44,70,12,338,,87,26,032,29,77,16,120,*60
$GLGSV,2,2,08,81,31,190,41,79,44,317,49,88,72,110,51,69,10,277,33*60
$GAGSV,3,1,11,30,66,081,45,15,28,160,36,07,11,219,27,19,16,318,28*6A
$GAGSV,3,2,11,18,21,062,,02,14,097,20,36,21,039,29,29,25,271,37*67
$GAGSV,3,3,11,27,56,294,38,34,47,096,38,21,05,283,18*5C
$GBGSV,5,1,20,25,72,288,50,11,31,193,,10,14,070,21,05,20,130,32*65
$GBGSV,5,2,20,43,23,219,,23,20,305,47,56,20,056,,13,14,093,*6B
$GBGSV,5,3,20,08,15,085,,38,17,071,23,24,47,134,43,34,60,184,49*61
$GBGSV,5,4,20,44,52,063,43,12,71,106,45,35,09,044,,20,01,357,*63
$GBGSV,5,5,20,07,01,069,,32,02,307,20,02,05,108,,60,09,110,*64
$GPGGA,144557.00,,,,,0,00,,,M,,M,,*4E
$PTNL,GGK,144557.00,010125,4742.4464873,N,01617.9740106,E,1,21,1.3,EHT669.7755,M*43
$GPGGQ,144557.00,010125,4742.4464873,N,01617.9740106,E,1,21,2.128,626.5645,M*3F
$GPGFA,144557.00,11.369,13.617,1.196,0.585,352.107,1.661,,VVV*0E
$GPLLK,144557.00,010125,,M,,M,1,21,1.6,,M*09
$GNGMP,144557.00,,,,,DAAA,21,0.7,,,,*54
$GPGMP,144557.00,,,,,,07,,,,2.9,123*77
$GLGMP,144557.00,,,,,,03,,,,,*7A
$GAGMP,144557.00,,,,,,05,,,,,*71
$GBGMP,144557.00,,,,,,06,,,,,*71
$PSSN,SNC,[0,312375000,2347]*45
$GPZDA,144602.00,01,01,2025,,*66
$GPDTM,W84,,00.0000000,N,00.0000000,E,00.0000000,W84*5F
$GPRMC,144602.00,A,4742.4464872,N,01617.9740076,E,0.0,,010125,5.1,E,D*18
$GPGLL,4742.4464872,N,01617.9740076,E,144602.00,A,D*69
$GPGGA,144602.00,4742.4464872,N,01617.9740076,E,2,21,0.7,626.5632,M,43.2110,M,2.5,0123*42
$GNGNS,144602.00,4742.4464872,N,01617.9740076,E,DAAA,21,0.7,626.5632,43.2110,,*59
$GPGNS,144602.00,,,,,,06,,,,2.5,123*79
$GLGNS,144602.00,,,,,,04,,,,,*7E
$GAGNS,144602.00,,,,,,05,,,,,*72
$GBGNS,144602.00,,,,,,06,,,,,*72
$GPLLQ,144602.00,010125,,M,,M,1,21,2.156,,M*17
$GPVTG,,T,,M,0.01,N,0.02,K,D*25
$GPHDT,,T*1B
$GPTHS,,V*0E
$GPROT,,V*08
$PSSN,HRP,144602.00,010125,,,,,,,00,0,,*64
$PTNL,AVR,144602.00,,Yaw,,Tilt,,,,0,,00*32
$GPGSA,A,3,11,12,25,29,31,32,,,,,,,1.3,0.7,1.1*3B
$GPGSA,A,3,78,79,81,88,,,,,,,,,1.3,0.7,1.1*3F
$GPGSA,A,3,15,27,29,30,34,,,,,,,,1.3,0.7,1.1*39
$GPGSA,A,3,12,23,24,25,34,44,,,,,,,1.3,0.7,1.1*33
$GPGST,144602.00,2.778,1.399,0.577,343.825,1.353,0.677,1.536*57
$GPGBS,144602.00,7.637,4.725,10.410,78,0.0001,-5.686,6.149*4B
$GPGRS,144602.00,1,0.6,-0.6,0.3,0.1,1.0,-1.1,,,,,,*48
$GPGRS,144602.00,1,-5.7,-1.7,5.9,-3.4,,,,,,,,*69
$GPGRS,144602.00,1,-1.2,0.5,3.7,0.6,0.3,,,,,,,*4F
$GPGRS,144602.00,1,1.7,1.5,-0.5,0.4,1.4,0.2,,,,,,*62
$GPGSV,4,1,16,25,83,031,46,31,20,315,40,32,17,251,37,06,13,034,30*71
$GPGSV,4,2,16,28,44,301,34,11,37,065,43,12,44,093,45,29,60,229,48*77
$GPGSV,4,3,16,20,09,091,,26,00,289,,24,07,159,,18,01,187,*77
$GPGSV,4,4,16,36,35,170,36,34,31,208,36,49,34,195,37,61,03,257,*73
$GLGSV,2,1,08,78,74,083,44,70,12,338,,87,25,032,33,77,16,120,*68
$GLGSV,2,2,08,81,31,190,41,79,44,317,49,88,72,109,50,69,10,277,32*68
$GAGSV,3,1,11,30,66,081,45,15,28,160,38,07,11,219,27,19,16,318,29*65
$GAGSV,3,2,11,18,21,062,,02,14,097,23,36,21,039,27,29,25,271,37*6A
$GAGSV,3,3,11,27,56,294,38,34,47,096,38,21,05,283,*55
$GBGSV,5,1,20,25,72,288,50,11,31,193,,10,14,070,,05,20,130,32*66
$GBGSV,5,2,20,43,23,219,,23,20,305,47,56,20,056,,13,14,093,*6B
$GBGSV,5,3,20,08,15,085,,38,17,071,23,24,47,134,43,34,60,184,49*61
$GBGSV,5,4,20,44,52,063,44,12,71,106,45,35,09,044,,20,01,357,*64
$GBGSV,5,5,20,07,01,069,,32,02,307,,02,05,108,,60,09,110,*66
$GPGGA,144602.00,,,,,0,00,,,M,,M,,*4D
$PTNL,GGK,144602.00,010125,4742.4464872,N,01617.9740076,E,1,21,1.3,EHT669.7743,M*40
$GPGGQ,144602.00,010125,4742.4464872,N,01617.9740076,E,1,21,2.156,626.5632,M*32
$GPGFA,144602.00,13.299,12.596,1.399,0.577,343.825,1.536,,VVV*02
$GPLLK,144602.00,010125,,M,,M,1,21,1.6,,M*0A
$GNGMP,144602.00,,,,,DAAA,21,0.7,,,,*57
$GPGMP,144602.00,,,,,,06,,,,2.5,123*79
$GLGMP,144602.00,,,,,,04,,,,,*7E
$GAGMP,144602.00,,,,,,05,,,,,*72
$GBGMP,144602.00,,,,,,06,,,,,*72
$PSSN,SNC,[0,312380000,2347]*4F
$GPZDA,144607.00,01,01,2025,,*63
$GPDTM,W84,,00.0000000,N,00.0000000,E,00.0000000,W84*5F
$GPRMC,144607.00,A,4742.4464836,N,01617.9740068,E,0.0,,010125,5.1,E,D*12
$GPGLL,4742.4464836,N,01617.9740068,E,144607.00,A,D*63
$GPGGA,144607.00,4742.4464836,N,01617.9740068,E,2,22,0.7,626.5623,M,43.2110,M,2.8,0123*46
$GNGNS,144607.00,4742.4464836,N,01617.9740068,E,DAAA,22,0.7,626.5623,43.2110,,*50
$GPGNS,144607.00,,,,,,06,,,,2.8,123*71
$GLGNS,144607.00,,,,,,05,,,,,*7A
$GAGNS,144607.00,,,,,,05,,,,,*77
$GBGNS,144607.00,,,,,,06,,,,,*77
$GPLLQ,144607.00,010125,,M,,M,1,22,2.797,,M*1A
$GPVTG,,T,,M,0.01,N,0.02,K,D*25
$GPHDT,,T*1B
$GPTHS,,V*0E
$GPROT,,V*08
$PSSN,HRP,144607.00,010125,,,,,,,00,0,,*61
$PTNL,AVR,144607.00,,Yaw,,Tilt,,,,0,,00*37
$GPGSA,A,3,11,12,25,29,31,32,,,,,,,1.2,0.7,1.0*3B
$GPGSA,A,3,78,79,81,87,88,,,,,,,,1.2,0.7,1.0*30
$GPGSA,A,3,15,27,29,30,34,,,,,,,,1.2,0.7,1.0*39
$GPGSA,A,3,12,23,24,25,34,44,,,,,,,1.2,0.7,1.0*33
$GPGST,144607.00,4.987,1.804,0.756,343.613,1.744,0.886,1.999*54
$GPGBS,144607.00,7.348,4.742,10.264,87,0.0001,15.715,6.768*55
$GPGRS,144607.00,1,0.2,-0.3,0.1,0.3,0.6,-2.1,,,,,,*48
$GPGRS,144607.00,1,-5.4,-1.6,3.1,15.7,-3.0,,,,,,,*79
$GPGRS,144607.00,1,-0.7,-0.9,7.6,0.5,0.7,,,,,,,*6D
$GPGRS,144607.00,1,0.7,2.2,-1.0,0.6,1.5,1.5,,,,,,*63
$GPGSV,4,1,16,25,83,032,46,31,20,315,42,32,17,251,35,06,13,034,*71
$GPGSV,4,2,16,28,44,300,34,11,37,065,42,12,44,093,46,29,60,229,48*74
$GPGSV,4,3,16,20,09,091,,26,00,289,,24,07,159,,18,01,187,*77
$GPGSV,4,4,16,36,35,170,36,34,31,208,35,49,34,195,36,61,03,257,*71
$GLGSV,2,1,08,78,74,083,44,70,12,338,,87,25,032,35,77,16,120,*6E
$GLGSV,2,2,08,81,31,190,40,79,44,317,51,88,72,109,48,69,09,277,32*61
$GAGSV,3,1,11,30,66,081,46,15,28,160,39,07,11,219,23,19,16,318,31*6A
$GAGSV,3,2,11,18,21,062,,02,14,097,24,36,21,039,26,29,25,271,37*6C
$GAGSV,3,3,11,27,56,294,39,34,47,096,38,21,05,283,26*50
$GBGSV,5,1,20,25,73,288,50,11,31,193,,10,14,070,,05,20,130,32*67
$GBGSV,5,2,20,43,23,219,,23,20,305,47,56,20,056,,13,14,093,*6B
$GBGSV,5,3,20,08,15,085,,38,17,071,24,24,47,134,43,34,60,184,50*6E
$GBGSV,5,4,20,44,52,063,46,12,71,106,45,35,09,044,,20,01,357,*66
$GBGSV,5,5,20,07,01,069,,32,02,307,23,02,05,108,,60,09,110,*67
$GPGGA,144607.00,,,,,0,00,,,M,,M,,*48
$PTNL,GGK,144607.00,010125,4742.4464836,N,01617.9740068,E,1,22,1.2,EHT669.7733,M*4F
$GPGGQ,144607.00,010125,4742.4464836,N,01617.9740068,E,1,22,2.797,626.5623,M*30
$GPGFA,144607.00,17.152,16.392,1.804,0.756,343.613,1.999,,VVV*0D
$GPLLK,144607.00,010125,,M,,M,1,22,1.4,,M*0E
$GNGMP,144607.00,,,,,DAAA,22,0.7,,,,*51
$GPGMP,144607.00,,,,,,06,,,,2.8,123*71
$GLGMP,144607.00,,,,,,05,,,,,*7A
$GAGMP,144607.00,,,,,,05,,,,,*77
$GBGMP,144607.00,,,,,,06,,,,,*77
$PSSN,SNC,[0,312385000,2347]*4A
$GPZDA,144612.00,01,01,2025,,*67
$GPDTM,W84,,00.0000000,N,00.0000000,E,00.0000000,W84*5F
$GPRMC,144612.00,A,4742.4464833,N,01617.9740098,E,0.0,,010125,5.1,E,D*1C
$GPGLL,4742.4464833,N,01617.9740098,E,144612.00,A,D*6D
$GPGGA,144612.00,4742.4464833,N,01617.9740098,E,2,22,0.7,626.5568,M,43.2110,M,2.0,0123*4C
$GNGNS,144612.00,4742.4464833,N,01617.9740098,E,DAAA,22,0.7,626.5568,43.2110,,*52
$GPGNS,144612.00,,,,,,06,,,,2.0,123*7D
$GLGNS,144612.00,,,,,,05,,,,,*7E
$GAGNS,144612.00,,,,,,05,,,,,*73
$GBGNS,144612.00,,,,,,06,,,,,*73
$GPLLQ,144612.00,010125,,M,,M,1,22,3.195,,M*1B
$GPVTG,,T,,M,0.01,N,0.02,K,D*25
$GPHDT,,T*1B
$GPTHS,,V*0E
$GPROT,,V*08
$PSSN,HRP,144612.00,010125,,,,,,,00,0,,*65
$PTNL,AVR,144612.00,,Yaw,,Tilt,,,,0,,00*33
$GPGSA,A,3,11,12,25,28,29,31,,,,,,,1.3,0.7,1.1*30
$GPGSA,A,3,78,79,81,87,88,,,,,,,,1.3,0.7,1.1*30
$GPGSA,A,3,15,27,29,30,34,,,,,,,,1.3,0.7,1.1*39
$GPGSA,A,3,12,23,24,25,34,44,,,,,,,1.3,0.7,1.1*33
$GPGST,144612.00,4.609,1.557,0.775,0.927,1.557,0.776,2.680*5B
$GPGBS,144612.00,8.467,3.631,17.434,87,0.0001,12.940,6.766*55
$GPGRS,144612.00,1,-0.6,-0.3,0.3,-1.3,0.7,0.2,,,,,,*66
$GPGRS,144612.00,1,-0.8,-1.3,0.5,12.9,-2.9,,,,,,,*77
$GPGRS,144612.00,1,-0.4,-1.6,10.9,0.3,0.9,,,,,,,*55
$GPGRS,144612.00,1,-0.2,2.2,-2.3,0.8,1.2,2.0,,,,,,*40
$GPGSV,4,1,16,25,83,032,44,31,20,315,42,32,17,251,33,06,13,034,*75
$GPGSV,4,2,16,28,44,300,35,11,37,065,41,12,44,093,46,29,60,229,49*77
$GPGSV,4,3,16,20,09,091,,26,00,289,,24,07,159,,18,01,187,*77
$GPGSV,4,4,16,36,35,170,36,34,31,208,35,49,34,195,37,61,03,257,*70
$GLGSV,2,1,08,78,74,084,39,70,12,338,,87,25,032,37,77,16,120,*61
$GLGSV,2,2,08,81,31,190,41,79,44,317,52,88,72,109,48,69,09,277,30*61
$GAGSV,3,1,11,30,66,081,46,15,28,160,40,07,11,219,25,19,16,318,31*62
$GAGSV,3,2,11,18,21,062,,02,14,097,24,36,21,039,25,29,25,271,36*6E
$GAGSV,3,3,11,27,56,294,40,34,47,096,40,21,05,283,27*50
$GBGSV,5,1,20,25,73,288,50,11,31,193,,10,14,070,,05,20,130,32*67
$GBGSV,5,2,20,43,23,219,,23,20,305,47,56,20,056,,13,14,093,*6B
$GBGSV,5,3,20,08,15,085,,38,17,071,25,24,47,134,42,34,60,184,50*6E
$GBGSV,5,4,20,44,52,063,47,12,71,106,45,35,09,044,,20,01,357,*67
$GBGSV,5,5,20,07,01,069,,32,02,307,,02,05,108,,60,09,110,*66
$GPGGA,144612.00,,,,,0,00,,,M,,M,,*4C
$PTNL,GGK,144612.00,010125,4742.4464833,N,01617.9740098,E,1,22,1.3,EHT669.7678,M*4E
$GPGGQ,144612.00,010125,4742.4464833,N,01617.9740098,E,1,22,3.195,626.5568,M*37
$GPGFA,144612.00,14.803,21.974,1.557,0.775,0.927,2.680,,VVV*03
$GPLLK,144612.00,010125,,M,,M,1,22,1.5,,M*0B
$GNGMP,144612.00,,,,,DAAA,22,0.7,,,,*55
$GPGMP,144612.00,,,,,,06,,,,2.0,123*7D
$GLGMP,144612.00,,,,,,05,,,,,*7E
$GAGMP,144612.00,,,,,,05,,,,,*73
$GBGMP,144612.00,,,,,,06,,,,,*73
$PSSN,SNC,[0,312390000,2347]*4E
$GPZDA,144617.00,01,01,2025,,*62
$GPDTM,W84,,00.0000000,N,00.0000000,E,00.0000000,W84*5F
$GPRMC,144617.00,A,4742.4464855,N,01617.9740153,E,0.0,,010125,5.1,E,D*1F
$GPGLL,4742.4464855,N,01617.9740153,E,144617.00,A,D*6E
$GPGGA,144617.00,4742.4464855,N,01617.9740153,E,2,21,0.7,626.5491,M,43.2110,M,3.0,0123*4A
$GNGNS,144617.00,4742.4464855,N,01617.9740153,E,DAAA,21,0.7,626.5491,43.2110,,*55
$GPGNS,144617.00,,,,,,05,,,,3.0,123*7A
$GLGNS,144617.00,,,,,,05,,,,,*7B
$GAGNS,144617.00,,,,,,05,,,,,*76
$GBGNS,144617.00,,,,,,06,,,,,*76
$GPLLQ,144617.00,010125,,M,,M,1,21,3.691,,M*1E
$GPVTG,,T,,M,0.01,N,0.01,K,D*26
$GPHDT,,T*1B
$GPTHS,,V*0E
$GPROT,,V*08
$PSSN,HRP,144617.00,010125,,,,,,,00,0,,*60
$PTNL,AVR,144617.00,,Yaw,,Tilt,,,,0,,00*36
$GPGSA,A,3,11,12,25,29,31,,,,,,,,1.3,0.7,1.1*3A
$GPGSA,A,3,78,79,81,87,88,,,,,,,,1.3,0.7,1.1*30
$GPGSA,A,3,15,27,29,30,34,,,,,,,,1.3,0.7,1.1*39
$GPGSA,A,3,12,23,24,25,34,44,,,,,,,1.3,0.7,1.1*33
$GPGST,144617.00,4.991,1.823,0.984,354.853,1.818,0.994,3.054*54
$GPGBS,144617.00,7.123,5.221,16.522,29,0.0001,13.272,6.772*54
$GPGRS,144617.00,1,-1.4,-0.8,0.5,0.8,-0.7,,,,,,,*4B
$GPGRS,144617.00,1,0.5,-1.4,0.2,12.0,-2.0,,,,,,,*52
$GPGRS,144617.00,1,0.3,-0.8,13.3,-0.2,0.6,,,,,,,*5F
$GPGRS,144617.00,1,-1.3,1.7,-3.0,0.6,1.1,1.7,,,,,,*48
$GPGSV,4,1,16,25,83,032,44,31,20,315,43,32,17,251,30,06,13,034,27*72
$GPGSV,4,2,16,28,44,300,35,11,37,064,39,12,44,093,45,29,60,229,48*7B
$GPGSV,4,3,16,20,09,091,,26,00,289,,24,07,159,,18,01,187,*77
$GPGSV,4,4,16,36,35,170,36,34,31,208,35,49,34,195,37,61,03,257,*70
$GLGSV,2,1,08,78,73,084,38,70,12,338,,87,25,032,38,77,16,121,*69
$GLGSV,2,2,08,81,31,190,41,79,44,317,52,88,72,109,49,69,09,277,26*67
$GAGSV,3,1,11,30,66,081,46,15,28,160,41,07,11,219,20,19,16,318,31*66
$GAGSV,3,2,11,18,21,062,,02,14,097,24,36,21,039,25,29,25,271,35*6D
$GAGSV,3,3,11,27,56,294,42,34,47,096,41,21,05,283,28*5C
$GBGSV,5,1,20,25,73,288,50,11,31,193,,10,14,070,,05,20,130,32*67
$GBGSV,5,2,20,43,23,219,,23,20,305,47,56,20,056,,13,14,093,*6B
$GBGSV,5,3,20,08,15,085,,38,17,071,25,24,47,134,42,34,60,184,50*6E
$GBGSV,5,4,20,44,52,063,48,12,71,105,44,35,09,044,,20,01,357,*6A
$GBGSV,5,5,20,07,01,069,,32,02,307,23,02,05,108,,60,09,110,*67
$GPGGA,144617.00,,,,,0,00,,,M,,M,,*49
$PTNL,GGK,144617.00,010125,4742.4464855,N,01617.9740153,E,1,21,1.3,EHT669.7602,M*43
$GPGGQ,144617.00,010125,4742.4464855,N,01617.9740153,E,1,21,3.691,626.5491,M*33
$GPGFA,144617.00,17.331,25.046,1.823,0.984,354.853,3.054,,VVV*03
$GPLLK,144617.00,010125,,M,,M,1,21,1.5,,M*0D
$GNGMP,144617.00,,,,,DAAA,21,0.7,,,,*53
$GPGMP,144617.00,,,,,,05,,,,3.0,123*7A
$GLGMP,144617.00,,,,,,05,,,,,*7B
$GAGMP,144617.00,,,,,,05,,,,,*76
$GBGMP,144617.00,,,,,,06,,,,,*76
$PSSN,SNC,[0,312395000,2347]*4B
$GPZDA,144622.00,01,01,2025,,*64
$GPDTM,W84,,00.0000000,N,00.0000000,E,00.0000000,W84*5F
$GPRMC,144622.00,A,4742.4464912,N,01617.9740229,E,0.0,,010125,5.1,E,D*15
$GPGLL,4742.4464912,N,01617.9740229,E,144622.00,A,D*64
$GPGGA,144622.00,4742.4464912,N,01617.9740229,E,2,21,0.7,626.5390,M,43.2110,M,3.0,0123*46
$GNGNS,144622.00,4742.4464912,N,01617.9740229,E,DAAA,21,0.7,626.5390,43.2110,,*59
$GPGNS,144622.00,,,,,,06,,,,3.0,123*7F
$GLGNS,144622.00,,,,,,05,,,,,*7D
$GAGNS,144622.00,,,,,,04,,,,,*71
$GBGNS,144622.00,,,,,,06,,,,,*70
$GPLLQ,144622.00,010125,,M,,M,1,21,3.819,,M*16
$GPVTG,,T,,M,0.00,N,0.00,K,D*26
$GPHDT,,T*1B
$GPTHS,,V*0E
$GPROT,,V*08
$PSSN,HRP,144622.00,010125,,,,,,,00,0,,*66
$PTNL,AVR,144622.00,,Yaw,,Tilt,,,,0,,00*30
$GPGSA,A,3,11,12,25,28,29,31,,,,,,,1.3,0.7,1.1*30
$GPGSA,A,3,78,79,81,87,88,,,,,,,,1.3,0.7,1.1*30
$GPGSA,A,3,15,27,30,34,,,,,,,,,1.3,0.7,1.1*32
$GPGSA,A,3,12,23,24,25,34,44,,,,,,,1.3,0.7,1.1*33
$GPGST,144622.00,3.116,1.833,0.920,1.079,1.833,0.921,3.221*59
$GPGBS,144622.00,8.506,3.756,18.071,28,0.0001,-2.558,1.205*41
$GPGRS,144622.00,1,-0.9,-1.1,1.4,-2.6,0.9,-1.0,,,,,,*49
$GPGRS,144622.00,1,-0.4,-1.6,1.1,10.1,-1.4,,,,,,,*7C
$GPGRS,144622.00,1,0.7,0.6,-0.3,1.2,,,,,,,,*65
$GPGRS,144622.00,1,-0.8,1.6,-2.5,1.0,1.1,1.1,,,,,,*40
$GPGSV,4,1,16,25,83,033,44,31,20,315,43,32,17,251,27,06,13,034,32*71
$GPGSV,4,2,16,28,44,300,35,11,37,064,39,12,44,093,45,29,60,229,48*7B
$GPGSV,4,3,16,20,10,091,,26,00,289,,24,07,159,,18,01,187,*7F
$GPGSV,4,4,16,36,35,170,36,34,31,208,35,49,34,195,37,61,03,257,*70
$GLGSV,2,1,08,78,73,084,37,70,12,338,,87,25,032,38,77,16,121,*66
$GLGSV,2,2,08,81,31,190,39,79,44,317,52,88,72,109,49,69,09,277,31*6E
$GAGSV,3,1,11,30,66,081,46,15,28,160,42,07,11,219,20,19,16,318,30*64
$GAGSV,3,2,11,18,21,062,,02,14,097,25,36,21,039,26,29,25,271,34*6E
$GAGSV,3,3,11,27,56,294,43,34,47,096,42,21,05,283,29*5F
$GBGSV,5,1,20,25,73,288,49,11,31,193,,13,14,093,,43,23,219,*69
$GBGSV,5,2,20,05,20,130,32,10,14,070,,23,20,305,46,56,20,056,*6C
$GBGSV,5,3,20,08,15,085,,38,17,071,26,24,47,134,42,34,60,184,50*6D
$GBGSV,5,4,20,44,52,063,48,12,71,105,45,35,09,044,,02,05,108,*67
$GBGSV,5,5,20,20,01,357,,32,02,307,22,07,01,069,,60,09,110,*6A
$GPGGA,144622.00,,,,,0,00,,,M,,M,,*4F
$PTNL,GGK,144622.00,010125,4742.4464912,N,01617.9740229,E,1,21,1.3,EHT669.7500,M*48
$GPGGQ,144622.00,010125,4742.4464912,N,01617.9740229,E,1,21,3.819,626.5390,M*31
$GPGFA,144622.00,17.427,26.413,1.833,0.920,1.079,3.221,,VVV*0E
$GPLLK,144622.00,010125,,M,,M,1,21,1.6,,M*08
$GNGMP,144622.00,,,,,DAAA,21,0.7,,,,*55
$GPGMP,144622.00,,,,,,06,,,,3.0,123*7F
$GLGMP,144622.00,,,,,,05,,,,,*7D
$GAGMP,144622.00,,,,,,04,,,,,*71
$GBGMP,144622.00,,,,,,06,,,,,*70
$PSSN,SNC,[0,312400000,2347]*40
$GPZDA,144627.00,01,01,2025,,*61
$GPDTM,W84,,00.0000000,N,00.0000000,E,00.0000000,W84*5F
$GPRMC,144627.00,A,4742.4464906,N,01617.9740339,E,0.0,,010125,5.1,E,D*15
$GPGLL,4742.4464906,N,01617.9740339,E,144627.00,A,D*64
$GPGGA,144627.00,4742.4464906,N,01617.9740339,E,2,20,0.7,626.5221,M,43.2110,M,3.0,0123*4C
$GNGNS,144627.00,4742.4464906,N,01617.9740339,E,DAAA,20,0.7,626.5221,43.2110,,*53
$GPGNS,144627.00,,,,,,05,,,,3.0,123*79
$GLGNS,144627.00,,,,,,05,,,,,*78
$GAGNS,144627.00,,,,,,04,,,,,*74
$GBGNS,144627.00,,,,,,06,,,,,*75
$GPLLQ,144627.00,010125,,M,,M,1,20,3.317,,M*17
$GPVTG,,T,,M,0.01,N,0.02,K,D*25
$GPHDT,,T*1B
$GPTHS,,V*0E
$GPROT,,V*08
$PSSN,HRP,144627.00,010125,,,,,,,00,0,,*63
$PTNL,AVR,144627.00,,Yaw,,Tilt,,,,0,,00*35
$GPGSA,A,3,11,12,25,29,31,,,,,,,,1.3,0.7,1.1*3A
$GPGSA,A,3,78,79,81,87,88,,,,,,,,1.3,0.7,1.1*30
$GPGSA,A,3,15,27,30,34,,,,,,,,,1.3,0.7,1.1*32
$GPGSA,A,3,12,23,24,25,34,44,,,,,,,1.3,0.7,1.1*33
$GPGST,144627.00,1.982,1.690,0.937,346.862,1.660,0.990,2.696*53
$GPGBS,144627.00,7.191,5.627,16.570,12,0.0001,-1.797,0.967*4F
$GPGRS,144627.00,1,-0.2,-1.8,1.3,0.7,-1.5,,,,,,,*45
$GPGRS,144627.00,1,-0.9,-2.2,-0.7,4.5,-2.3,,,,,,,*6C
$GPGRS,144627.00,1,0.3,1.3,-0.9,1.2,,,,,,,,*6A
$GPGRS,144627.00,1,-0.4,1.5,-2.3,0.6,0.3,-0.1,,,,,,*64
$GPGSV,4,1,16,25,83,033,45,31,20,315,43,32,17,251,22,06,13,034,31*76
$GPGSV,4,2,16,28,44,300,33,11,37,064,39,12,44,093,43,29,60,229,47*74
$GPGSV,4,3,16,20,10,091,,26,00,289,,24,07,159,,18,01,187,*7F
$GPGSV,4,4,16,36,35,170,36,34,31,208,35,49,34,195,37,61,03,257,*70
$GLGSV,2,1,08,78,73,084,39,70,12,338,,87,25,032,37,77,16,121,*67
$GLGSV,2,2,08,81,31,190,36,79,44,317,52,88,72,109,50,69,09,277,33*6B
$GAGSV,3,1,11,30,66,081,45,15,28,160,42,07,11,219,23,19,16,318,30*64
$GAGSV,3,2,11,18,21,062,,02,14,097,24,36,21,039,25,29,25,271,34*6C
$GAGSV,3,3,11,27,56,294,44,34,47,096,43,21,05,283,27*57
$GBGSV,5,1,20,25,73,288,49,11,31,193,,10,14,070,,05,20,130,31*6C
$GBGSV,5,2,20,43,23,219,,23,20,305,45,56,20,056,,13,14,093,*69
$GBGSV,5,3,20,08,15,085,,38,17,071,26,24,47,134,41,34,60,184,49*66
$GBGSV,5,4,20,44,52,063,48,12,71,105,45,35,09,044,,20,01,357,*6B
$GBGSV,5,5,20,07,01,069,,32,02,307,23,02,05,108,,60,09,110,*67
$GPGGA,144627.00,,,,,0,00,,,M,,M,,*4A
$PTNL,GGK,144627.00,010125,4742.4464906,N,01617.9740339,E,1,20,1.3,EHT669.7331,M*4D
$GPGGQ,144627.00,010125,4742.4464906,N,01617.9740339,E,1,20,3.317,626.5221,M*3E
$GPGFA,144627.00,16.073,22.105,1.690,0.937,346.862,2.696,,VVV*03
$GPLLK,144627.00,010125,,M,,M,1,20,1.6,,M*0C
$GNGMP,144627.00,,,,,DAAA,20,0.7,,,,*51
$GPGMP,144627.00,,,,,,05,,,,3.0,123*79
$GLGMP,144627.00,,,,,,05,,,,,*78
$GAGMP,144627.00,,,,,,04,,,,,*74
$GBGMP,144627.00,,,,,,06,,,,,*75
$PSSN,SNC,[0,312405000,2347]*45
$GPZDA,144632.00,01,01,2025,,*65
$GPDTM,W84,,00.0000000,N,00.0000000,E,00.0000000,W84*5F
$GPRMC,144632.00,A,4742.4464887,N,01617.9740431,E,0.0,,010125,5.1,E,D*16
$GPGLL,4742.4464887,N,01617.9740431,E,144632.00,A,D*67
$GPGGA,144632.00,4742.4464887,N,01617.9740431,E,2,20,0.8,626.5027,M,43.2110,M,2.4,0123*41
$GNGNS,144632.00,4742.4464887,N,01617.9740431,E,DAAA,20,0.8,626.5027,43.2110,,*5B
$GPGNS,144632.00,,,,,,05,,,,2.4,123*78
$GLGNS,144632.00,,,,,,04,,,,,*7D
$GAGNS,144632.00,,,,,,05,,,,,*71
$GBGNS,144632.00,,,,,,06,,,,,*71
$GPLLQ,144632.00,010125,,M,,M,1,20,3.828,,M*14
$GPVTG,,T,,M,0.01,N,0.02,K,D*25
$GPHDT,,T*1B
$GPTHS,,V*0E
$GPROT,,V*08
