$GPZDA,061442.00,01,01,2025,,*66
$GPDTM,W84,,00.0000000,N,00.0000000,E,00.0000000,W84*5F
$GPRMC,061442.00,A,4742.4466579,N,01617.9728549,E,0.0,,010125,5.1,E,D*1B
$GPGLL,4742.4466579,N,01617.9728549,E,061442.00,A,D*6A
$GPGGA,061442.00,4742.4466579,N,01617.9728549,E,2,18,0.8,624.6022,M,43.2111,M,1.6,0123*43
$GNGNS,061442.00,4742.4466579,N,01617.9728549,E,DAAA,18,0.8,624.6022,43.2111,,*58
$GPGNS,061442.00,,,,,,05,,,,1.6,123*7A
$GLGNS,061442.00,,,,,,06,,,,,*7C
$GAGNS,061442.00,,,,,,03,,,,,*74
$GBGNS,061442.00,,,,,,04,,,,,*70
$GPLLQ,061442.00,010125,,M,,M,1,18,3.034,,M*19
$GPVTG,,T,,M,0.00,N,0.01,K,D*27
$GPHDT,,T*1B
$GPTHS,,V*0E
$GPROT,,V*08
$PSSN,HRP,061442.00,010125,,,,,,,00,0,,*64
$PTNL,AVR,061442.00,,Yaw,,Tilt,,,,0,,00*32
$GPGSA,A,3,05,07,11,20,30,,,,,,,,1.4,0.8,1.1*3C
$GPGSA,A,3,65,72,73,74,75,88,,,,,,,1.4,0.8,1.1*3C
$GPGSA,A,3,03,05,24,,,,,,,,,,1.4,0.8,1.1*3F
$GPGSA,A,3,19,21,22,36,,,,,,,,,1.4,0.8,1.1*31
$GPGST,061442.00,7.672,1.287,1.047,294.588,1.092,1.249,2.541*54
$GPGBS,061442.00,4.968,6.122,10.345,19,0.0001,18.580,8.608*56
$GPGRS,061442.00,1,-0.8,-0.4,0.5,0.1,0.7,,,,,,,*6A
$GPGRS,061442.00,1,-2.4,2.7,0.8,-1.6,-7.6,-12.6,,,,,,*73
$GPGRS,061442.00,1,-3.4,-0.4,0.0,,,,,,,,,*66
$GPGRS,061442.00,1,18.6,-7.0,-2.1,-1.3,,,,,,,,*5F
$GPGSV,4,1,16,30,71,212,46,13,18,276,31,14,14,168,,11,24,239,37*72
$GPGSV,4,2,16,05,35,309,46,09,32,093,24,20,61,271,51,07,67,066,52*73
$GPGSV,4,3,16,16,03,026,,06,07,208,28,27,00,053,,04,06,094,*74
$GPGSV,4,4,16,36,35,170,41,34,31,208,,49,34,195,34,61,03,257,*75
$GLGSV,3,1,09,72,72,006,45,88,19,295,37,81,11,347,34,71,40,102,35*62
$GLGSV,3,2,09,75,22,185,43,65,22,308,41,73,44,047,38,74,64,132,46*66
$GLGSV,3,3,09,87,04,242,*53
$GAGSV,3,1,11,05,68,070,45,25,20,158,23,13,15,327,24,34,19,219,27*69
$GAGSV,3,2,11,09,16,090,23,31,22,045,32,16,33,135,,15,33,274,25*6F
$GAGSV,3,3,11,24,39,102,38,03,53,287,35,08,04,277,31*5E
$GBGSV,5,1,20,22,83,113,45,58,13,039,,05,22,129,35,09,22,054,26*64
$GBGSV,5,2,20,50,17,302,,46,27,048,,45,37,190,34,19,27,122,38*6A
$GBGSV,5,3,20,21,41,304,35,36,65,110,52,02,05,108,,34,03,285,*6C
$GBGSV,5,4,20,16,05,054,,40,06,075,,12,02,259,22,11,04,306,*65
$GBGSV,5,5,20,48,02,122,,10,08,095,,06,08,055,,60,07,112,*6E
$GPGGA,061442.00,,,,,0,00,,,M,,M,,*4D
$PTNL,GGK,061442.00,010125,4742.4466579,N,01617.9728549,E,1,18,1.4,EHT667.8133,M*4E
$GPGGQ,061442.00,010125,4742.4466579,N,01617.9728549,E,1,18,3.034,624.6022,M*39
$GPGFA,061442.00,12.234,20.834,1.287,1.047,294.588,2.541,,VVV*0B
$GPLLK,061442.00,010125,,M,,M,1,18,1.7,,M*01
$GNGMP,061442.00,,,,,DAAA,18,0.8,,,,*52
$GPGMP,061442.00,,,,,,05,,,,1.6,123*7A
$GLGMP,061442.00,,,,,,06,,,,,*7C
$GAGMP,061442.00,,,,,,03,,,,,*74
$GBGMP,061442.00,,,,,,04,,,,,*70
$PSSN,SNC,[0,281700000,2347]*48
$GPZDA,061447.00,01,01,2025,,*63
$GPDTM,W84,,00.0000000,N,00.0000000,E,00.0000000,W84*5F
$GPRMC,061447.00,A,4742.4466684,N,01617.9728546,E,0.0,,010125,5.1,E,D*10
$GPGLL,4742.4466684,N,01617.9728546,E,061447.00,A,D*61
$GPGGA,061447.00,4742.4466684,N,01617.9728546,E,2,18,0.9,624.6120,M,43.2111,M,2.0,0123*4F
$GNGNS,061447.00,4742.4466684,N,01617.9728546,E,DAAA,18,0.9,624.6120,43.2111,,*51
$GPGNS,061447.00,,,,,,05,,,,2.0,123*7A
$GLGNS,061447.00,,,,,,05,,,,,*7A
$GAGNS,061447.00,,,,,,03,,,,,*71
$GBGNS,061447.00,,,,,,05,,,,,*74
$GPLLQ,061447.00,010125,,M,,M,1,18,3.475,,M*1D
$GPVTG,,T,,M,0.00,N,0.01,K,D*27
$GPHDT,,T*1B
$GPTHS,,V*0E
$GPROT,,V*08
$PSSN,HRP,061447.00,010125,,,,,,,00,0,,*61
$PTNL,AVR,061447.00,,Yaw,,Tilt,,,,0,,00*37
$GPGSA,A,3,05,07,11,20,30,,,,,,,,1.5,0.9,1.2*3F
$GPGSA,A,3,65,72,74,75,88,,,,,,,,1.5,0.9,1.2*3B
$GPGSA,A,3,03,05,24,,,,,,,,,,1.5,0.9,1.2*3C
$GPGSA,A,3,19,21,22,36,45,,,,,,,,1.5,0.9,1.2*33
$GPGST,061447.00,7.157,1.468,1.195,294.024,1.245,1.427,2.914*51
$GPGBS,061447.00,5.033,6.216,10.254,11,0.0001,1.960,0.808*64
$GPGRS,061447.00,1,-0.6,-0.4,2.0,-0.2,0.1,,,,,,,*4E
$GPGRS,061447.00,1,-2.8,2.8,-1.1,-8.7,-6.8,,,,,,,*61
$GPGRS,061447.00,1,8.8,-0.4,0.3,,,,,,,,,*4A
$GPGRS,061447.00,1,16.3,-7.7,-2.6,-2.1,-2.5,,,,,,,*54
$GPGSV,4,1,16,30,71,212,46,13,18,277,29,14,14,168,,11,24,239,38*75
$GPGSV,4,2,16,05,35,309,45,09,32,093,26,20,61,271,51,07,67,066,52*72
$GPGSV,4,3,16,16,03,026,,06,07,208,28,27,00,052,,04,06,094,*75
$GPGSV,4,4,16,36,35,170,41,34,31,208,,49,34,195,34,61,03,257,*75
$GLGSV,3,1,09,72,72,006,46,88,19,295,38,81,11,347,32,71,40,102,34*69
$GLGSV,3,2,09,75,22,185,43,65,22,308,43,73,44,047,34,74,64,132,46*68
$GLGSV,3,3,09,87,04,242,*53
$GAGSV,3,1,11,05,68,070,46,25,20,158,24,13,15,327,28,34,19,219,25*63
$GAGSV,3,2,11,09,16,090,29,31,22,045,31,16,33,135,,15,33,274,24*67
$GAGSV,3,3,11,24,39,102,38,03,53,288,38,08,04,277,31*5C
$GBGSV,5,1,20,22,83,114,44,58,13,039,,05,22,129,34,09,22,054,25*60
$GBGSV,5,2,20,50,18,302,,46,27,048,,45,37,190,38,19,27,122,37*66
$GBGSV,5,3,20,21,41,304,38,36,65,110,51,02,05,108,,34,03,285,25*65
$GBGSV,5,4,20,16,05,054,,40,06,075,,12,02,259,22,11,04,306,*65
$GBGSV,5,5,20,48,02,123,,10,08,095,,06,08,055,,60,07,112,*6F
$GPGGA,061447.00,,,,,0,00,,,M,,M,,*48
$PTNL,GGK,061447.00,010125,4742.4466684,N,01617.9728546,E,1,18,1.5,EHT667.8231,M*45
$GPGGQ,061447.00,010125,4742.4466684,N,01617.9728546,E,1,18,3.475,624.6120,M*30
$GPGFA,061447.00,13.962,23.892,1.468,1.195,294.024,2.914,,VVV*0E
$GPLLK,061447.00,010125,,M,,M,1,18,1.7,,M*04
$GNGMP,061447.00,,,,,DAAA,18,0.9,,,,*56
$GPGMP,061447.00,,,,,,05,,,,2.0,123*7A
$GLGMP,061447.00,,,,,,05,,,,,*7A
$GAGMP,061447.00,,,,,,03,,,,,*71
$GBGMP,061447.00,,,,,,05,,,,,*74
$PSSN,SNC,[0,281705000,2347]*4D
$GPZDA,061452.00,01,01,2025,,*67
$GPDTM,W84,,00.0000000,N,00.0000000,E,00.0000000,W84*5F
$GPRMC,061452.00,A,4742.4466742,N,01617.9728579,E,0.0,,010125,5.1,E,D*13
$GPGLL,4742.4466742,N,01617.9728579,E,061452.00,A,D*62
$GPGGA,061452.00,4742.4466742,N,01617.9728579,E,2,17,0.8,624.6168,M,43.2111,M,2.8,0123*46
$GNGNS,061452.00,4742.4466742,N,01617.9728579,E,DAAA,17,0.8,624.6168,43.2111,,*50
$GPGNS,061452.00,,,,,,04,,,,2.8,123*77
$GLGNS,061452.00,,,,,,05,,,,,*7E
$GAGNS,061452.00,,,,,,04,,,,,*72
$GBGNS,061452.00,,,,,,04,,,,,*71
$GPLLQ,061452.00,010125,,M,,M,1,17,4.780,,M*18
$GPVTG,,T,,M,0.00,N,0.00,K,D*26
$GPHDT,,T*1B
$GPTHS,,V*0E
$GPROT,,V*08
$PSSN,HRP,061452.00,010125,,,,,,,00,0,,*65
$PTNL,AVR,061452.00,,Yaw,,Tilt,,,,0,,00*33
$GPGSA,A,3,05,07,20,30,,,,,,,,,1.4,0.8,1.2*3F
$GPGSA,A,3,65,72,73,74,75,,,,,,,,1.4,0.8,1.2*3F
$GPGSA,A,3,03,05,24,31,,,,,,,,,1.4,0.8,1.2*3E
$GPGSA,A,3,21,22,36,45,,,,,,,,,1.4,0.8,1.2*3B
$GPGST,061452.00,7.009,1.860,0.855,338.064,1.755,1.055,4.319*58
$GPGBS,061452.00,11.077,6.324,28.255,45,0.0001,17.807,8.544*64
$GPGRS,061452.00,1,0.0,-0.1,0.1,-0.1,,,,,,,,*4B
$GPGRS,061452.00,1,-1.6,3.7,-1.2,-0.7,-9.0,,,,,,,*6A
$GPGRS,061452.00,1,-0.7,0.2,0.9,3.1,,,,,,,,*69
$GPGRS,061452.00,1,-7.4,-2.2,-2.0,17.8,,,,,,,,*58
$GPGSV,4,1,16,30,71,212,46,13,18,277,26,14,14,168,,11,24,239,38*7A
$GPGSV,4,2,16,05,35,309,46,09,32,093,25,20,61,271,51,07,67,066,52*72
$GPGSV,4,3,16,16,03,026,,06,07,208,27,27,00,052,,04,06,094,*7A
$GPGSV,4,4,16,36,35,170,40,34,31,208,,49,34,195,34,61,03,257,*74
$GLGSV,3,1,09,72,72,006,46,88,19,295,34,81,11,347,33,71,40,102,31*61
$GLGSV,3,2,09,75,22,185,42,65,22,308,44,73,44,047,38,74,64,132,45*61
$GLGSV,3,3,09,87,04,242,*53
$GAGSV,3,1,11,05,68,070,46,25,20,158,25,13,15,327,31,34,19,219,23*6C
$GAGSV,3,2,11,09,16,090,30,31,22,045,30,16,33,135,,15,33,274,26*6C
$GAGSV,3,3,11,24,39,102,38,03,53,288,39,08,04,277,31*5D
$GBGSV,5,1,20,22,83,114,44,58,13,039,,05,22,129,34,09,22,054,24*61
$GBGSV,5,2,20,50,18,302,,46,27,048,,45,37,190,37,19,27,122,35*6B
$GBGSV,5,3,20,21,41,304,41,36,65,110,50,02,05,108,,34,03,285,31*6F
$GBGSV,5,4,20,16,05,054,,40,06,075,,12,02,259,20,11,04,306,*67
$GBGSV,5,5,20,48,02,123,,10,08,095,,06,08,055,,60,07,112,*6F
$GPGGA,061452.00,,,,,0,00,,,M,,M,,*4C
$PTNL,GGK,061452.00,010125,4742.4466742,N,01617.9728579,E,1,17,1.4,EHT667.8278,M*45
$GPGGQ,061452.00,010125,4742.4466742,N,01617.9728579,E,1,17,4.780,624.6168,M*3E
$GPGFA,061452.00,17.683,35.418,1.860,0.855,338.064,4.319,,VVV*05
$GPLLK,061452.00,010125,,M,,M,1,17,1.7,,M*0F
$GNGMP,061452.00,,,,,DAAA,17,0.8,,,,*5C
$GPGMP,061452.00,,,,,,04,,,,2.8,123*77
$GLGMP,061452.00,,,,,,05,,,,,*7E
$GAGMP,061452.00,,,,,,04,,,,,*72
$GBGMP,061452.00,,,,,,04,,,,,*71
$PSSN,SNC,[0,281710000,2347]*49
$GPZDA,061457.00,01,01,2025,,*62
$GPDTM,W84,,00.0000000,N,00.0000000,E,00.0000000,W84*5F
$GPRMC,061457.00,A,4742.4466789,N,01617.9728621,E,0.0,,010125,5.1,E,D*1F
$GPGLL,4742.4466789,N,01617.9728621,E,061457.00,A,D*6E
$GPGGA,061457.00,4742.4466789,N,01617.9728621,E,2,19,0.8,624.6294,M,43.2111,M,1.6,0123*49
$GNGNS,061457.00,4742.4466789,N,01617.9728621,E,DAAA,19,0.8,624.6294,43.2111,,*52
$GPGNS,061457.00,,,,,,05,,,,1.6,123*7E
$GLGNS,061457.00,,,,,,07,,,,,*79
$GAGNS,061457.00,,,,,,03,,,,,*70
$GBGNS,061457.00,,,,,,04,,,,,*74
$GPLLQ,061457.00,010125,,M,,M,1,19,3.733,,M*1C
$GPVTG,,T,,M,0.01,N,0.02,K,D*25
$GPHDT,,T*1B
$GPTHS,,V*0E
$GPROT,,V*08
$PSSN,HRP,061457.00,010125,,,,,,,00,0,,*60
$PTNL,AVR,061457.00,,Yaw,,Tilt,,,,0,,00*36
$GPGSA,A,3,05,07,11,20,30,,,,,,,,1.4,0.8,1.2*3F
$GPGSA,A,3,65,71,72,73,74,75,88,,,,,,1.4,0.8,1.2*39
$GPGSA,A,3,03,05,24,,,,,,,,,,1.4,0.8,1.2*3C
$GPGSA,A,3,21,22,36,45,,,,,,,,,1.4,0.8,1.2*3B
$GPGST,061457.00,6.595,1.596,1.271,295.003,1.335,1.543,3.126*5B
$GPGBS,061457.00,4.950,6.110,10.481,45,0.0001,17.352,8.543*54
$GPGRS,061457.00,1,0.1,-0.3,1.0,-0.1,-0.4,,,,,,,*4A
$GPGRS,061457.00,1,-1.7,-8.3,4.3,0.5,-1.1,-8.3,-3.1,,,,,*4A
$GPGRS,061457.00,1,-1.8,0.0,1.0,,,,,,,,,*44
$GPGRS,061457.00,1,-5.7,-2.4,-2.3,17.4,,,,,,,,*55
$GPGSV,4,1,16,30,71,212,46,13,18,277,26,14,14,168,,11,24,239,36*74
$GPGSV,4,2,16,05,35,309,46,09,32,093,25,20,61,271,51,07,67,066,51*71
$GPGSV,4,3,16,16,03,026,,06,07,208,27,27,00,052,,04,06,094,*7A
$GPGSV,4,4,16,36,35,170,40,34,31,208,,49,34,195,34,61,03,257,*74
$GLGSV,3,1,09,72,72,006,47,88,18,295,27,81,11,347,36,71,40,102,38*6F
$GLGSV,3,2,09,75,22,185,42,65,22,308,44,73,44,047,40,74,64,132,44*6F
$GLGSV,3,3,09,87,04,242,*53
$GAGSV,3,1,11,05,68,070,46,25,20,158,25,13,15,327,33,34,19,219,22*6F
$GAGSV,3,2,11,09,16,090,30,31,22,045,31,16,33,135,,15,33,274,28*63
$GAGSV,3,3,11,24,39,102,38,03,53,288,40,08,04,277,30*52
$GBGSV,5,1,20,22,83,114,44,58,12,039,,05,22,129,34,09,22,054,22*66
$GBGSV,5,2,20,50,18,302,,46,27,048,,45,37,190,39,19,27,122,35*65
$GBGSV,5,3,20,21,41,304,42,36,65,110,49,02,05,108,,34,03,285,31*64
$GBGSV,5,4,20,16,05,054,,40,06,075,,12,02,259,18,11,04,306,*6C
$GBGSV,5,5,20,48,02,123,,10,08,095,,06,08,055,,60,07,112,*6F
$GPGGA,061457.00,,,,,0,00,,,M,,M,,*49
$PTNL,GGK,061457.00,010125,4742.4466789,N,01617.9728621,E,1,19,1.4,EHT667.8405,M*4B
$GPGGQ,061457.00,010125,4742.4466789,N,01617.9728621,E,1,19,3.733,624.6294,M*33
$GPGFA,061457.00,15.177,25.630,1.596,1.271,295.003,3.126,,VVV*00
$GPLLK,061457.00,010125,,M,,M,1,19,1.7,,M*04
$GNGMP,061457.00,,,,,DAAA,19,0.8,,,,*57
$GPGMP,061457.00,,,,,,05,,,,1.6,123*7E
$GLGMP,061457.00,,,,,,07,,,,,*79
$GAGMP,061457.00,,,,,,03,,,,,*70
$GBGMP,061457.00,,,,,,04,,,,,*74
$PSSN,SNC,[0,281715000,2347]*4C
$GPZDA,061502.00,01,01,2025,,*63
$GPDTM,W84,,00.0000000,N,00.0000000,E,00.0000000,W84*5F
$GPRMC,061502.00,A,4742.4466664,N,01617.9728615,E,0.0,,010125,5.1,E,D*1B
$GPGLL,4742.4466664,N,01617.9728615,E,061502.00,A,D*6A
$GPGGA,061502.00,4742.4466664,N,01617.9728615,E,2,19,0.8,624.6218,M,43.2111,M,2.8,0123*44
$GNGNS,061502.00,4742.4466664,N,01617.9728615,E,DAAA,19,0.8,624.6218,43.2111,,*52
$GPGNS,061502.00,,,,,,04,,,,2.8,123*73
$GLGNS,061502.00,,,,,,07,,,,,*78
$GAGNS,061502.00,,,,,,04,,,,,*76
$GBGNS,061502.00,,,,,,04,,,,,*75
$GPLLQ,061502.00,010125,,M,,M,1,19,4.485,,M*14
$GPVTG,,T,,M,0.01,N,0.01,K,D*26
$GPHDT,,T*1B
$GPTHS,,V*0E
$GPROT,,V*08
$PSSN,HRP,061502.00,010125,,,,,,,00,0,,*61
$PTNL,AVR,061502.00,,Yaw,,Tilt,,,,0,,00*37
$GPGSA,A,3,05,07,20,30,,,,,,,,,1.3,0.8,1.0*3A
$GPGSA,A,3,65,71,72,73,74,75,81,,,,,,1.3,0.8,1.0*35
$GPGSA,A,3,03,05,13,24,,,,,,,,,1.3,0.8,1.0*3B
$GPGSA,A,3,21,22,36,45,,,,,,,,,1.3,0.8,1.0*3E
$GPGST,061502.00,4.784,1.780,1.122,324.933,1.593,1.374,3.961*58
$GPGBS,061502.00,11.467,6.324,29.032,81,0.0001,11.612,6.349*66
$GPGRS,061502.00,1,0.5,0.4,0.3,-0.3,,,,,,,,*62
$GPGRS,061502.00,1,-2.8,-4.3,4.0,2.0,-0.4,-7.9,11.6,,,,,*57
$GPGRS,061502.00,1,0.6,0.1,2.6,1.9,,,,,,,,*45
$GPGRS,061502.00,1,-1.4,-1.5,-2.3,-3.1,,,,,,,,*4C
$GPGSV,4,1,16,30,71,212,46,13,18,277,29,14,14,168,,11,24,239,35*78
$GPGSV,4,2,16,05,35,309,47,09,32,093,27,20,61,271,51,07,67,066,52*71
$GPGSV,4,3,16,16,03,026,,06,07,208,25,27,00,052,,04,06,094,*78
$GPGSV,4,4,16,36,35,170,41,34,31,208,,49,34,195,34,61,03,257,*75
$GLGSV,3,1,09,72,72,006,46,88,18,295,33,81,11,347,34,71,40,102,40*66
$GLGSV,3,2,09,75,22,185,43,65,22,308,44,73,44,047,41,74,64,132,43*68
$GLGSV,3,3,09,87,04,242,*53
$GAGSV,3,1,11,05,68,070,46,25,20,158,26,13,15,327,35,34,19,219,30*69
$GAGSV,3,2,11,09,16,090,30,31,22,045,31,16,33,135,,15,33,274,28*63
$GAGSV,3,3,11,24,39,102,38,03,53,288,41,08,04,277,28*5A
$GBGSV,5,1,20,22,83,114,43,58,12,039,,05,22,129,34,09,22,054,23*60
$GBGSV,5,2,20,50,18,302,,46,27,048,,45,37,190,39,19,27,122,31*61
$GBGSV,5,3,20,21,41,304,43,36,65,110,49,02,05,108,,34,03,285,27*62
$GBGSV,5,4,20,16,05,054,,40,06,075,,12,02,259,26,11,04,306,*61
$GBGSV,5,5,20,48,02,123,,10,08,095,,06,08,055,,60,07,112,*6F
$GPGGA,061502.00,,,,,0,00,,,M,,M,,*48
$PTNL,GGK,061502.00,010125,4742.4466664,N,01617.9728615,E,1,19,1.3,EHT667.8328,M*40
$GPGGQ,061502.00,010125,4742.4466664,N,01617.9728615,E,1,19,4.485,624.6218,M*3A
$GPGFA,061502.00,16.927,32.478,1.780,1.122,324.933,3.961,,VVV*0D
$GPLLK,061502.00,010125,,M,,M,1,19,1.5,,M*07
$GNGMP,061502.00,,,,,DAAA,19,0.8,,,,*56
$GPGMP,061502.00,,,,,,04,,,,2.8,123*73
$GLGMP,061502.00,,,,,,07,,,,,*78
$GAGMP,061502.00,,,,,,04,,,,,*76
$GBGMP,061502.00,,,,,,04,,,,,*75
$PSSN,SNC,[0,281720000,2347]*4A
$GPZDA,061507.00,01,01,2025,,*66
$GPDTM,W84,,00.0000000,N,00.0000000,E,00.0000000,W84*5F
$GPRMC,061507.00,A,4742.4466576,N,01617.9728586,E,0.0,,010125,5.1,E,D*17
$GPGLL,4742.4466576,N,01617.9728586,E,061507.00,A,D*66
$GPGGA,061507.00,4742.4466576,N,01617.9728586,E,2,18,0.8,624.6279,M,43.2111,M,2.8,0123*4E
$GNGNS,061507.00,4742.4466576,N,01617.9728586,E,DAAA,18,0.8,624.6279,43.2111,,*58
$GPGNS,061507.00,,,,,,04,,,,2.8,123*76
$GLGNS,061507.00,,,,,,06,,,,,*7C
$GAGNS,061507.00,,,,,,04,,,,,*73
$GBGNS,061507.00,,,,,,04,,,,,*70
$GPLLQ,061507.00,010125,,M,,M,1,18,4.888,,M*11
$GPVTG,,T,,M,0.00,N,0.01,K,D*27
$GPHDT,,T*1B
$GPTHS,,V*0E
$GPROT,,V*08
$PSSN,HRP,061507.00,010125,,,,,,,00,0,,*64
$PTNL,AVR,061507.00,,Yaw,,Tilt,,,,0,,00*32
$GPGSA,A,3,05,07,20,30,,,,,,,,,1.4,0.8,1.2*3F
$GPGSA,A,3,65,71,72,73,74,75,,,,,,,1.4,0.8,1.2*39
$GPGSA,A,3,03,05,13,24,,,,,,,,,1.4,0.8,1.2*3E
$GPGSA,A,3,21,22,36,45,,,,,,,,,1.4,0.8,1.2*3B
$GPGST,061507.00,3.593,1.905,0.860,337.754,1.793,1.074,4.419*5A
$GPGBS,061507.00,11.510,6.243,28.677,30,0.0001,-0.915,0.618*7C
$GPGRS,061507.00,1,0.4,0.4,0.2,-0.9,,,,,,,,*6D
$GPGRS,061507.00,1,-3.4,2.9,3.1,1.9,-0.9,-7.6,,,,,,*68
$GPGRS,061507.00,1,-0.3,-0.6,2.2,2.2,,,,,,,,*4E
$GPGRS,061507.00,1,2.0,-1.3,-2.8,-5.1,,,,,,,,*68
$GPGSV,4,1,16,30,71,212,45,13,18,277,32,14,14,168,,11,24,239,33*77
$GPGSV,4,2,16,05,35,309,47,09,32,093,29,20,61,271,50,07,67,066,51*7D
$GPGSV,4,3,16,16,03,026,,06,07,208,24,27,00,052,,04,06,094,*79
$GPGSV,4,4,16,36,35,170,41,34,31,208,,49,34,195,34,61,03,257,*75
$GLGSV,3,1,09,72,72,006,45,88,18,295,35,81,11,347,31,71,40,102,39*68
$GLGSV,3,2,09,75,22,185,43,65,22,308,43,73,44,047,42,74,65,132,42*6C
$GLGSV,3,3,09,87,04,242,*53
$GAGSV,3,1,11,05,68,070,45,25,20,158,28,13,15,327,37,34,19,219,19*6D
$GAGSV,3,2,11,09,16,090,29,31,22,045,31,16,33,135,,15,33,274,30*62
$GAGSV,3,3,11,24,39,102,38,03,53,288,41,08,04,277,26*54
$GBGSV,5,1,20,22,83,114,42,58,12,039,,05,22,129,34,09,22,054,23*61
$GBGSV,5,2,20,50,18,303,,46,27,048,,45,37,190,44,19,27,122,29*63
$GBGSV,5,3,20,21,41,304,45,36,65,110,48,02,05,108,,34,03,285,30*63
$GBGSV,5,4,20,16,05,054,,40,06,075,,12,02,259,26,11,04,306,*61
$GBGSV,5,5,20,48,02,123,,10,08,095,,06,08,055,,60,07,112,*6F
$GPGGA,061507.00,,,,,0,00,,,M,,M,,*4D
$PTNL,GGK,061507.00,010125,4742.4466576,N,01617.9728586,E,1,18,1.4,EHT667.8389,M*41
$GPGGQ,061507.00,010125,4742.4466576,N,01617.9728586,E,1,18,4.888,624.6279,M*31
$GPGFA,061507.00,18.116,36.235,1.905,0.860,337.754,4.419,,VVV*02
$GPLLK,061507.00,010125,,M,,M,1,18,1.7,,M*01
$GNGMP,061507.00,,,,,DAAA,18,0.8,,,,*52
$GPGMP,061507.00,,,,,,04,,,,2.8,123*76
$GLGMP,061507.00,,,,,,06,,,,,*7C
$GAGMP,061507.00,,,,,,04,,,,,*73
$GBGMP,061507.00,,,,,,04,,,,,*70
$PSSN,SNC,[0,281725000,2347]*4F
$GPZDA,061512.00,01,01,2025,,*62
$GPDTM,W84,,00.0000000,N,00.0000000,E,00.0000000,W84*5F
$GPRMC,061512.00,A,4742.4466514,N,01617.9728543,E,0.0,,010125,5.1,E,D*1E
$GPGLL,4742.4466514,N,01617.9728543,E,061512.00,A,D*6F
$GPGGA,061512.00,4742.4466514,N,01617.9728543,E,2,19,0.8,624.6257,M,43.2111,M,2.8,0123*4A
$GNGNS,061512.00,4742.4466514,N,01617.9728543,E,DAAA,19,0.8,624.6257,43.2111,,*5C
$GPGNS,061512.00,,,,,,04,,,,2.8,123*72
$GLGNS,061512.00,,,,,,07,,,,,*79
$GAGNS,061512.00,,,,,,04,,,,,*77
$GBGNS,061512.00,,,,,,04,,,,,*74
$GPLLQ,061512.00,010125,,M,,M,1,19,6.166,,M*1F
$GPVTG,,T,,M,0.00,N,0.01,K,D*27
$GPHDT,,T*1B
$GPTHS,,V*0E
$GPROT,,V*08
$PSSN,HRP,061512.00,010125,,,,,,,00,0,,*60
$PTNL,AVR,061512.00,,Yaw,,Tilt,,,,0,,00*36
$GPGSA,A,3,05,07,20,30,,,,,,,,,1.4,0.8,1.1*3C
$GPGSA,A,3,65,71,72,73,74,75,88,,,,,,1.4,0.8,1.1*3A
$GPGSA,A,3,03,05,13,24,,,,,,,,,1.4,0.8,1.1*3D
$GPGSA,A,3,21,22,36,45,,,,,,,,,1.4,0.8,1.1*38
$GPGST,061512.00,5.594,2.393,1.093,338.149,2.258,1.350,5.577*55
$GPGBS,061512.00,11.206,6.312,28.711,71,0.0001,14.739,6.112*6A
$GPGRS,061512.00,1,-0.3,0.5,0.2,-0.6,,,,,,,,*4D
$GPGRS,061512.00,1,-3.0,14.7,3.4,2.8,-0.7,-6.6,-6.5,,,,,*59
$GPGRS,061512.00,1,-2.3,-0.8,2.6,2.0,,,,,,,,*40
$GPGRS,061512.00,1,4.3,-1.4,-2.3,0.9,,,,,,,,*45
$GPGSV,4,1,16,30,71,212,44,13,18,277,32,14,14,168,,11,24,239,32*77
$GPGSV,4,2,16,05,35,309,46,09,32,093,,20,61,271,50,07,67,066,51*77
$GPGSV,4,3,16,16,03,026,,06,07,208,24,27,00,052,,04,06,094,*79
$GPGSV,4,4,16,36,35,170,41,34,31,208,,49,34,195,34,61,03,257,*75
$GLGSV,3,1,09,72,72,006,46,88,18,295,38,81,11,347,35,71,40,102,41*6D
$GLGSV,3,2,09,75,22,185,44,65,22,308,43,73,44,047,41,74,65,132,41*6B
$GLGSV,3,3,09,87,04,242,*53
$GAGSV,3,1,11,05,68,070,45,25,20,158,28,13,15,327,38,34,19,219,30*69
$GAGSV,3,2,11,09,16,090,27,31,22,045,31,16,33,135,,15,33,274,33*6F
$GAGSV,3,3,11,24,39,102,36,03,53,288,42,08,04,277,24*5B
$GBGSV,5,1,20,22,83,114,42,58,12,039,,05,22,129,34,09,22,054,23*61
$GBGSV,5,2,20,50,18,303,,46,27,048,,45,37,190,46,19,27,122,27*6F
$GBGSV,5,3,20,21,41,304,45,36,65,109,48,02,05,108,,34,03,285,30*6B
$GBGSV,5,4,20,16,05,054,,40,06,075,,12,02,259,24,11,04,306,*63
$GBGSV,5,5,20,48,02,123,,10,08,095,,06,08,055,,60,07,112,*6F
$GPGGA,061512.00,,,,,0,00,,,M,,M,,*49
$PTNL,GGK,061512.00,010125,4742.4466514,N,01617.9728543,E,1,19,1.4,EHT667.8367,M*49
$GPGGQ,061512.00,010125,4742.4466514,N,01617.9728543,E,1,19,6.166,624.6257,M*3E
$GPGFA,061512.00,22.754,45.732,2.393,1.093,338.149,5.577,,VVV*07
$GPLLK,061512.00,010125,,M,,M,1,19,1.6,,M*05
$GNGMP,061512.00,,,,,DAAA,19,0.8,,,,*57
$GPGMP,061512.00,,,,,,04,,,,2.8,123*72
$GLGMP,061512.00,,,,,,07,,,,,*79
$GAGMP,061512.00,,,,,,04,,,,,*77
$GBGMP,061512.00,,,,,,04,,,,,*74
$PSSN,SNC,[0,281730000,2347]*4B
$GPZDA,061517.00,01,01,2025,,*67
$GPDTM,W84,,00.0000000,N,00.0000000,E,00.0000000,W84*5F
$GPRMC,061517.00,A,4742.4466496,N,01617.9728448,E,0.0,,010125,5.1,E,D*1A
$GPGLL,4742.4466496,N,01617.9728448,E,061517.00,A,D*6B
$GPGGA,061517.00,4742.4466496,N,01617.9728448,E,2,18,0.8,624.6189,M,43.2111,M,1.8,0123*4C
$GNGNS,061517.00,4742.4466496,N,01617.9728448,E,DAAA,18,0.8,624.6189,43.2111,,*59
$GPGNS,061517.00,,,,,,04,,,,1.8,123*74
$GLGNS,061517.00,,,,,,07,,,,,*7C
$GAGNS,061517.00,,,,,,03,,,,,*75
$GBGNS,061517.00,,,,,,04,,,,,*71
$GPLLQ,061517.00,010125,,M,,M,1,18,6.138,,M*10
$GPVTG,,T,,M,0.01,N,0.01,K,D*26
$GPHDT,,T*1B
$GPTHS,,V*0E
$GPROT,,V*08
$PSSN,HRP,061517.00,010125,,,,,,,00,0,,*65
$PTNL,AVR,061517.00,,Yaw,,Tilt,,,,0,,00*33
$GPGSA,A,3,05,07,20,30,,,,,,,,,1.4,0.8,1.2*3F
$GPGSA,A,3,65,71,72,73,74,75,88,,,,,,1.4,0.8,1.2*39
$GPGSA,A,3,03,05,13,,,,,,,,,,1.4,0.8,1.2*38
$GPGSA,A,3,21,22,36,45,,,,,,,,,1.4,0.8,1.2*3B
$GPGST,061517.00,5.128,2.384,1.026,336.215,2.220,1.344,5.562*51
$GPGBS,061517.00,12.575,6.813,31.989,71,0.0001,11.505,6.113*6B
$GPGRS,061517.00,1,-0.5,0.5,0.3,-0.4,,,,,,,,*4D
$GPGRS,061517.00,1,-1.7,11.5,3.5,3.7,-0.5,-6.3,-5.0,,,,,*50
$GPGRS,061517.00,1,-1.9,-1.4,3.7,,,,,,,,,*6D
$GPGRS,061517.00,1,2.4,-1.3,-1.9,5.6,,,,,,,,*45
$GPGSV,4,1,16,30,71,212,44,13,18,277,32,14,14,168,,11,24,239,32*77
$GPGSV,4,2,16,05,35,309,46,09,32,093,,20,61,270,50,07,67,065,51*75
$GPGSV,4,3,16,16,03,025,,06,07,208,24,27,00,052,,04,06,094,*7A
$GPGSV,4,4,16,36,35,170,41,34,31,208,,49,34,195,34,61,03,257,*75
$GLGSV,3,1,09,72,72,007,47,88,18,295,41,81,11,347,35,71,40,102,41*63
$GLGSV,3,2,09,75,22,185,44,65,22,308,43,73,44,047,40,74,65,132,42*69
$GLGSV,3,3,09,87,04,242,*53
$GAGSV,3,1,11,05,68,070,44,25,20,158,29,13,15,327,40,34,19,219,30*66
$GAGSV,3,2,11,09,16,090,24,31,22,045,32,16,33,135,,15,33,274,35*69
$GAGSV,3,3,11,24,39,102,35,03,53,288,42,08,04,277,21*5D
$GBGSV,5,1,20,22,83,114,43,58,12,039,,05,22,129,34,09,22,054,22*61
$GBGSV,5,2,20,50,18,303,,46,27,048,,45,37,190,46,19,27,122,27*6F
$GBGSV,5,3,20,21,41,304,46,36,65,109,48,02,05,108,,34,03,285,21*68
$GBGSV,5,4,20,16,05,054,,40,06,075,,12,02,259,22,11,04,306,*65
$GBGSV,5,5,20,48,02,123,,10,08,095,,06,08,055,,60,07,112,*6F
$GPGGA,061517.00,,,,,0,00,,,M,,M,,*4C
$PTNL,GGK,061517.00,010125,4742.4466496,N,01617.9728448,E,1,18,1.4,EHT667.8300,M*4D
$GPGGQ,061517.00,010125,4742.4466496,N,01617.9728448,E,1,18,6.138,624.6189,M*30
$GPGFA,061517.00,22.663,45.608,2.384,1.026,336.215,5.562,,VVV*07
$GPLLK,061517.00,010125,,M,,M,1,18,1.7,,M*00
$GNGMP,061517.00,,,,,DAAA,18,0.8,,,,*53
$GPGMP,061517.00,,,,,,04,,,,1.8,123*74
$GLGMP,061517.00,,,,,,07,,,,,*7C
$GAGMP,061517.00,,,,,,03,,,,,*75
$GBGMP,061517.00,,,,,,04,,,,,*71
$PSSN,SNC,[0,281735000,2347]*4E
$GPZDA,061522.00,01,01,2025,,*61
$GPDTM,W84,,00.0000000,N,00.0000000,E,00.0000000,W84*5F
$GPRMC,061522.00,A,4742.4466490,N,01617.9728394,E,0.0,,010125,5.1,E,D*1C
$GPGLL,4742.4466490,N,01617.9728394,E,061522.00,A,D*6D
$GPGGA,061522.00,4742.4466490,N,01617.9728394,E,2,19,0.8,624.6178,M,43.2111,M,2.8,0123*46
$GNGNS,061522.00,4742.4466490,N,01617.9728394,E,DAAA,19,0.8,624.6178,43.2111,,*50
$GPGNS,061522.00,,,,,,04,,,,2.8,123*71
$GLGNS,061522.00,,,,,,07,,,,,*7A
$GAGNS,061522.00,,,,,,04,,,,,*74
$GBGNS,061522.00,,,,,,04,,,,,*77
$GPLLQ,061522.00,010125,,M,,M,1,19,4.926,,M*12
$GPVTG,,T,,M,0.00,N,0.00,K,D*26
$GPHDT,,T*1B
$GPTHS,,V*0E
$GPROT,,V*08
$PSSN,HRP,061522.00,010125,,,,,,,00,0,,*63
$PTNL,AVR,061522.00,,Yaw,,Tilt,,,,0,,00*35
$GPGSA,A,3,05,07,20,30,,,,,,,,,1.4,0.8,1.2*3F
$GPGSA,A,3,65,71,72,73,74,75,88,,,,,,1.4,0.8,1.2*39
$GPGSA,A,3,03,05,13,15,,,,,,,,,1.4,0.8,1.2*3C
$GPGSA,A,3,21,22,36,45,,,,,,,,,1.4,0.8,1.2*3B
$GPGST,061522.00,4.129,1.920,0.810,336.013,1.784,1.076,4.464*54
$GPGBS,061522.00,12.723,6.850,32.417,15,0.0001,8.851,6.092*5C
$GPGRS,061522.00,1,-0.3,0.4,0.2,-0.3,,,,,,,,*4A
$GPGRS,061522.00,1,-0.2,3.6,2.7,1.6,0.4,-6.7,-3.2,,,,,*4E
$GPGRS,061522.00,1,-1.6,-1.4,3.5,8.9,,,,,,,,*49
$GPGRS,061522.00,1,-0.6,-1.9,-2.1,4.8,,,,,,,,*60
$GPGSV,4,1,16,30,71,212,45,13,19,277,35,14,14,168,,11,24,239,32*70
$GPGSV,4,2,16,05,35,309,46,09,32,093,,20,61,270,49,07,67,065,51*7D
$GPGSV,4,3,16,16,03,025,,06,07,208,23,27,00,052,,04,06,094,*7D
$GPGSV,4,4,16,36,35,170,41,34,31,208,,49,34,195,34,61,03,257,*75
$GLGSV,3,1,09,72,72,007,47,88,18,295,43,81,11,347,31,71,40,102,43*67
$GLGSV,3,2,09,75,22,185,44,65,22,308,42,73,44,047,35,74,65,132,43*6B
$GLGSV,3,3,09,87,04,242,*53
$GAGSV,3,1,11,05,68,070,43,25,20,158,29,13,15,327,40,34,19,219,26*66
$GAGSV,3,2,11,09,16,090,20,31,22,044,31,16,33,135,,15,33,274,37*6D
$GAGSV,3,3,11,24,39,102,32,03,53,288,43,08,04,277,19*50
$GBGSV,5,1,20,22,83,114,43,58,12,039,,05,22,129,34,09,22,054,23*60
$GBGSV,5,2,20,50,18,303,,46,27,048,,45,37,190,45,19,27,122,28*63
$GBGSV,5,3,20,21,41,304,46,36,65,109,48,02,05,108,,34,03,285,22*6B
$GBGSV,5,4,20,16,05,054,,40,06,075,,12,02,259,22,11,04,306,*65
$GBGSV,5,5,20,48,02,123,,10,08,095,,06,08,055,,60,07,112,*6F
$GPGGA,061522.00,,,,,0,00,,,M,,M,,*4A
$PTNL,GGK,061522.00,010125,4742.4466490,N,01617.9728394,E,1,19,1.4,EHT667.8288,M*4B
$GPGGQ,061522.00,010125,4742.4466490,N,01617.9728394,E,1,19,4.926,624.6178,M*3C
$GPGFA,061522.00,18.251,36.606,1.920,0.810,336.013,4.464,,VVV*0E
$GPLLK,061522.00,010125,,M,,M,1,19,1.7,,M*07
$GNGMP,061522.00,,,,,DAAA,19,0.8,,,,*54
$GPGMP,061522.00,,,,,,04,,,,2.8,123*71
$GLGMP,061522.00,,,,,,07,,,,,*7A
$GAGMP,061522.00,,,,,,04,,,,,*74
$GBGMP,061522.00,,,,,,04,,,,,*77
$PSSN,SNC,[0,281740000,2347]*4C
$GPZDA,061527.00,01,01,2025,,*64
$GPDTM,W84,,00.0000000,N,00.0000000,E,00.0000000,W84*5F
$GPRMC,061527.00,A,4742.4466485,N,01617.9728388,E,0.0,,010125,5.1,E,D*10
$GPGLL,4742.4466485,N,01617.9728388,E,061527.00,A,D*61
$GPGGA,061527.00,4742.4466485,N,01617.9728388,E,2,20,0.8,624.6235,M,43.2111,M,2.8,0123*4A
$GNGNS,061527.00,4742.4466485,N,01617.9728388,E,DAAA,20,0.8,624.6235,43.2111,,*5C
$GPGNS,061527.00,,,,,,05,,,,2.8,123*75
$GLGNS,061527.00,,,,,,07,,,,,*7F
$GAGNS,061527.00,,,,,,04,,,,,*71
$GBGNS,061527.00,,,,,,04,,,,,*72
$GPLLQ,061527.00,010125,,M,,M,1,20,3.735,,M*16
$GPVTG,,T,,M,0.00,N,0.01,K,D*27
$GPHDT,,T*1B
$GPTHS,,V*0E
$GPROT,,V*08
$PSSN,HRP,061527.00,010125,,,,,,,00,0,,*66
$PTNL,AVR,061527.00,,Yaw,,Tilt,,,,0,,00*30
$GPGSA,A,3,05,07,13,20,30,,,,,,,,1.4,0.8,1.1*3E
$GPGSA,A,3,65,71,72,73,74,75,88,,,,,,1.4,0.8,1.1*3A
$GPGSA,A,3,03,05,13,15,,,,,,,,,1.4,0.8,1.1*3F
$GPGSA,A,3,21,22,36,45,,,,,,,,,1.4,0.8,1.1*38
$GPGST,061527.00,4.694,1.750,1.145,331.478,1.632,1.307,3.094*5A
$GPGBS,061527.00,6.667,6.199,15.052,13,0.0001,2.494,0.958*61
$GPGRS,061527.00,1,-0.4,0.0,2.5,-0.4,-0.0,,,,,,,*4D
$GPGRS,061527.00,1,-0.1,-2.2,1.7,0.3,0.3,-6.3,-1.0,,,,,*64
$GPGRS,061527.00,1,-1.9,-1.5,2.2,14.2,,,,,,,,*72
$GPGRS,061527.00,1,-1.2,-2.5,-3.2,1.0,,,,,,,,*60
$GPGSV,4,1,16,30,71,212,46,13,19,277,37,14,14,168,,11,24,239,33*70
$GPGSV,4,2,16,05,35,309,47,09,32,093,30,20,61,270,48,07,67,065,51*7E
$GPGSV,4,3,16,16,03,025,,06,07,208,25,27,00,052,,04,06,094,*7B
$GPGSV,4,4,16,36,35,170,41,34,31,208,,49,34,195,34,61,03,257,*75
$GLGSV,3,1,09,72,72,007,48,88,18,295,44,81,11,347,32,71,40,102,44*6B
$GLGSV,3,2,09,75,22,185,44,65,22,308,41,73,44,047,35,74,65,131,44*6C
$GLGSV,3,3,09,87,04,242,*53
$GAGSV,3,1,11,05,68,070,42,25,20,158,30,13,15,327,39,34,19,219,28*6F
$GAGSV,3,2,11,09,16,090,21,31,22,044,30,16,33,135,,15,33,274,38*62
$GAGSV,3,3,11,24,39,102,31,03,53,288,43,08,04,277,29*50
$GBGSV,5,1,20,22,83,115,44,58,12,039,,05,22,129,34,09,22,054,21*64
$GBGSV,5,2,20,50,18,303,,46,27,048,,45,37,190,44,19,27,122,30*6B
$GBGSV,5,3,20,21,41,304,47,36,65,109,47,02,05,108,,34,03,285,25*62
$GBGSV,5,4,20,16,05,054,,40,06,075,,12,02,259,24,11,04,306,*63
$GBGSV,5,5,20,48,02,123,,10,08,095,,06,08,055,,60,07,112,*6F
$GPGGA,061527.00,,,,,0,00,,,M,,M,,*4F
$PTNL,GGK,061527.00,010125,4742.4466485,N,01617.9728388,E,1,20,1.4,EHT667.8346,M*4E
$GPGGQ,061527.00,010125,4742.4466485,N,01617.9728388,E,1,20,3.735,624.6235,M*3B
$GPGFA,061527.00,16.638,25.374,1.750,1.145,331.478,3.094,,VVV*0F
$GPLLK,061527.00,010125,,M,,M,1,20,1.6,,M*09
$GNGMP,061527.00,,,,,DAAA,20,0.8,,,,*5B
$GPGMP,061527.00,,,,,,05,,,,2.8,123*75
$GLGMP,061527.00,,,,,,07,,,,,*7F
$GAGMP,061527.00,,,,,,04,,,,,*71
$GBGMP,061527.00,,,,,,04,,,,,*72
$PSSN,SNC,[0,281745000,2347]*49
$GPZDA,061532.00,01,01,2025,,*60
$GPDTM,W84,,00.0000000,N,00.0000000,E,00.0000000,W84*5F
$GPRMC,061532.00,A,4742.4466529,N,01617.9728509,E,0.0,,010125,5.1,E,D*1C
$GPGLL,4742.4466529,N,01617.9728509,E,061532.00,A,D*6D
$GPGGA,061532.00,4742.4466529,N,01617.9728509,E,2,19,0.9,624.6551,M,43.2111,M,3.0,0123*41
$GNGNS,061532.00,4742.4466529,N,01617.9728509,E,DAAA,19,0.9,624.6551,43.2111,,*5E
$GPGNS,061532.00,,,,,,05,,,,3.0,123*78
$GLGNS,061532.00,,,,,,06,,,,,*7A
$GAGNS,061532.00,,,,,,04,,,,,*75
$GBGNS,061532.00,,,,,,04,,,,,*76
$GPLLQ,061532.00,010125,,M,,M,1,19,4.595,,M*17
$GPVTG,,T,,M,0.01,N,0.01,K,D*26
$GPHDT,,T*1B
$GPTHS,,V*0E
$GPROT,,V*08
$PSSN,HRP,061532.00,010125,,,,,,,00,0,,*62
$PTNL,AVR,061532.00,,Yaw,,Tilt,,,,0,,00*34
$GPGSA,A,3,05,07,13,20,30,,,,,,,,1.5,0.9,1.2*3D
$GPGSA,A,3,65,71,72,74,75,88,,,,,,,1.5,0.9,1.2*3D
$GPGSA,A,3,03,05,13,15,,,,,,,,,1.5,0.9,1.2*3C
$GPGSA,A,3,21,22,36,45,,,,,,,,,1.5,0.9,1.2*3B
$GPGST,061532.00,4.961,2.162,1.425,332.367,2.026,1.612,3.796*52
$GPGBS,061532.00,6.582,6.377,15.257,13,0.0001,3.122,0.971*6A
$GPGRS,061532.00,1,-0.5,-0.4,3.1,-0.5,-0.3,,,,,,,*66
$GPGRS,061532.00,1,-0.0,-2.3,2.0,-0.7,-6.1,-1.6,,,,,,*64
$GPGRS,061532.00,1,-1.7,-1.2,1.6,14.4,,,,,,,,*7E
$GPGRS,061532.00,1,-0.6,-2.6,-3.2,-1.7,,,,,,,,*48
$GPGSV,4,1,16,30,71,212,47,13,19,277,37,14,14,168,,11,24,239,35*77
$GPGSV,4,2,16,05,35,309,47,09,32,093,28,20,61,270,48,07,67,065,51*77
$GPGSV,4,3,16,16,03,025,19,06,07,208,24,27,00,052,,04,06,094,*72
$GPGSV,4,4,16,36,35,170,41,34,31,208,,49,34,195,34,61,03,257,*75
$GLGSV,3,1,09,72,72,007,48,88,18,295,41,81,11,347,,71,39,102,44*61
$GLGSV,3,2,09,75,22,185,44,65,22,308,38,73,44,046,34,74,65,131,43*65
$GLGSV,3,3,09,87,04,242,*53
$GAGSV,3,1,11,05,68,070,42,25,20,158,30,13,15,327,38,34,19,219,30*67
$GAGSV,3,2,11,09,16,090,21,31,22,044,31,16,33,135,,15,33,274,36*6D
$GAGSV,3,3,11,24,39,102,32,03,53,288,44,08,04,277,20*5D
$GBGSV,5,1,20,22,83,115,45,58,12,039,,05,22,129,34,09,22,054,21*65
$GBGSV,5,2,20,50,18,303,,46,26,048,,45,37,190,42,19,27,122,31*6D
$GBGSV,5,3,20,21,41,304,46,36,65,109,48,02,05,108,,34,03,285,26*6F
$GBGSV,5,4,20,16,05,054,,40,07,075,,12,02,259,24,11,04,306,*62
$GBGSV,5,5,20,48,02,123,,10,08,095,,06,08,055,,60,07,112,*6F
$GPGGA,061532.00,,,,,0,00,,,M,,M,,*4B
$PTNL,GGK,061532.00,010125,4742.4466529,N,01617.9728509,E,1,19,1.5,EHT667.8662,M*4A
$GPGGQ,061532.00,010125,4742.4466529,N,01617.9728509,E,1,19,4.595,624.6551,M*37
$GPGFA,061532.00,20.556,31.128,2.162,1.425,332.367,3.796,,VVV*03
$GPLLK,061532.00,010125,,M,,M,1,19,1.7,,M*06
$GNGMP,061532.00,,,,,DAAA,19,0.9,,,,*54
$GPGMP,061532.00,,,,,,05,,,,3.0,123*78
$GLGMP,061532.00,,,,,,06,,,,,*7A
$GAGMP,061532.00,,,,,,04,,,,,*75
$GBGMP,061532.00,,,,,,04,,,,,*76
$PSSN,SNC,[0,281750000,2347]*4D
$GPZDA,061537.00,01,01,2025,,*65
$GPDTM,W84,,00.0000000,N,00.0000000,E,00.0000000,W84*5F
$GPRMC,061537.00,A,4742.4466583,N,01617.9728639,E,0.0,,010125,5.1,E,D*19
$GPGLL,4742.4466583,N,01617.9728639,E,061537.00,A,D*68
$GPGGA,061537.00,4742.4466583,N,01617.9728639,E,2,19,0.9,624.6808,M,43.2111,M,1.5,0123*42
$GNGNS,061537.00,4742.4466583,N,01617.9728639,E,DAAA,19,0.9,624.6808,43.2111,,*5A
$GPGNS,061537.00,,,,,,06,,,,1.5,123*79
$GLGNS,061537.00,,,,,,06,,,,,*7F
$GAGNS,061537.00,,,,,,03,,,,,*77
$GBGNS,061537.00,,,,,,04,,,,,*73
$GPLLQ,061537.00,010125,,M,,M,1,19,2.653,,M*1D
$GPVTG,,T,,M,0.00,N,0.00,K,D*26
$GPHDT,,T*1B
$GPTHS,,V*0E
$GPROT,,V*08
$PSSN,HRP,061537.00,010125,,,,,,,00,0,,*67
$PTNL,AVR,061537.00,,Yaw,,Tilt,,,,0,,00*31
$GPGSA,A,3,05,07,11,13,20,30,,,,,,,1.5,0.9,1.2*3D
$GPGSA,A,3,65,71,72,74,75,88,,,,,,,1.5,0.9,1.2*3D
$GPGSA,A,3,03,05,13,,,,,,,,,,1.5,0.9,1.2*38
$GPGSA,A,3,21,22,36,45,,,,,,,,,1.5,0.9,1.2*3B
$GPGST,061537.00,4.462,1.209,0.962,295.103,1.011,1.168,2.157*50
$GPGBS,061537.00,4.803,6.269,9.725,11,0.0001,1.804,0.815*54
$GPGRS,061537.00,1,-0.4,-0.2,1.8,0.8,-0.0,-0.6,,,,,,*49
$GPGRS,061537.00,1,-11.2,-0.3,3.7,-1.6,-5.4,-5.9,,,,,,*5A
$GPGRS,061537.00,1,-0.6,-1.0,1.6,,,,,,,,,*66
$GPGRS,061537.00,1,-2.2,-2.5,-2.7,-2.4,,,,,,,,*4C
$GPGSV,4,1,16,30,71,212,47,13,19,277,38,14,14,168,,11,24,239,35*78
$GPGSV,4,2,16,05,35,309,47,09,32,093,25,20,61,270,48,07,67,065,51*7A
$GPGSV,4,3,16,16,03,025,,06,07,208,25,27,00,052,,04,05,094,*78
$GPGSV,4,4,16,36,35,170,41,34,31,208,,49,34,195,34,61,03,257,*75
$GLGSV,3,1,09,72,72,007,48,88,18,295,39,81,11,347,,71,39,103,43*68
$GLGSV,3,2,09,75,22,185,44,65,22,308,37,73,44,046,36,74,65,131,42*69
$GLGSV,3,3,09,87,03,242,*54
$GAGSV,3,1,11,05,68,070,41,25,20,158,29,34,19,219,29,13,15,327,37*6B
$GAGSV,3,2,11,09,16,090,23,31,22,044,30,16,33,135,,15,33,274,33*6B
$GAGSV,3,3,11,24,39,102,34,03,53,288,45,08,04,277,28*52
$GBGSV,5,1,20,22,82,115,46,58,12,039,,05,22,129,34,09,22,054,21*67
$GBGSV,5,2,20,50,18,303,,46,26,048,,45,37,190,40,19,27,122,32*6C
$GBGSV,5,3,20,21,41,304,45,36,65,109,48,02,05,108,,34,03,285,22*68
$GBGSV,5,4,20,16,05,054,,40,07,075,,12,02,259,24,11,04,306,*62
$GBGSV,5,5,20,48,02,123,,10,08,095,,06,08,055,,60,07,112,*6F
$GPGGA,061537.00,,,,,0,00,,,M,,M,,*4E
$PTNL,GGK,061537.00,010125,4742.4466583,N,01617.9728639,E,1,19,1.5,EHT667.8919,M*4C
$GPGGQ,061537.00,010125,4742.4466583,N,01617.9728639,E,1,19,2.653,624.6808,M*3C
$GPGFA,061537.00,11.494,17.691,1.209,0.962,295.103,2.157,,VVV*0E
$GPLLK,061537.00,010125,,M,,M,1,19,1.7,,M*03
$GNGMP,061537.00,,,,,DAAA,19,0.9,,,,*51
$GPGMP,061537.00,,,,,,06,,,,1.5,123*79
$GLGMP,061537.00,,,,,,06,,,,,*7F
$GAGMP,061537.00,,,,,,03,,,,,*77
$GBGMP,061537.00,,,,,,04,,,,,*73
$PSSN,SNC,[0,281755000,2347]*48
$GPZDA,061542.00,01,01,2025,,*67
$GPDTM,W84,,00.0000000,N,00.0000000,E,00.0000000,W84*5F
$GPRMC,061542.00,A,4742.4466623,N,01617.9728673,E,0.0,,010125,5.1,E,D*1C
$GPGLL,4742.4466623,N,01617.9728673,E,061542.00,A,D*6D
$GPGGA,061542.00,4742.4466623,N,01617.9728673,E,2,18,0.9,624.6936,M,43.2111,M,2.6,0123*4A
$GNGNS,061542.00,4742.4466623,N,01617.9728673,E,DAAA,18,0.9,624.6936,43.2111,,*52
$GPGNS,061542.00,,,,,,05,,,,2.6,123*78
$GLGNS,061542.00,,,,,,05,,,,,*7E
$GAGNS,061542.00,,,,,,04,,,,,*72
$GBGNS,061542.00,,,,,,04,,,,,*71
$GPLLQ,061542.00,010125,,M,,M,1,18,2.451,,M*1E
$GPVTG,,T,,M,0.00,N,0.00,K,D*26
$GPHDT,,T*1B
$GPTHS,,V*0E
$GPROT,,V*08
$PSSN,HRP,061542.00,010125,,,,,,,00,0,,*65
$PTNL,AVR,061542.00,,Yaw,,Tilt,,,,0,,00*33
$GPGSA,A,3,05,07,13,20,30,,,,,,,,1.5,0.9,1.2*3D
$GPGSA,A,3,71,72,74,75,88,,,,,,,,1.5,0.9,1.2*3E
$GPGSA,A,3,03,05,13,15,,,,,,,,,1.5,0.9,1.2*3C
$GPGSA,A,3,21,22,36,45,,,,,,,,,1.5,0.9,1.2*3B
$GPGST,061542.00,3.243,1.151,0.737,331.116,1.069,0.852,2.034*51
$GPGBS,061542.00,6.886,6.209,15.292,88,0.0001,-5.399,6.237*41
$GPGRS,061542.00,1,-0.2,0.0,0.8,0.4,-0.5,,,,,,,*6F
$GPGRS,061542.00,1,-1.4,4.3,-2.2,-4.8,-5.4,,,,,,,*6B
$GPGRS,061542.00,1,0.6,-1.2,1.5,-3.4,,,,,,,,*4C
$GPGRS,061542.00,1,-3.5,-2.1,-2.0,-1.2,,,,,,,,*4E
$GPGSV,4,1,16,30,71,212,48,13,19,277,39,14,14,168,,11,24,239,34*77
$GPGSV,4,2,16,05,35,309,47,09,32,093,21,20,61,270,48,07,67,065,51*7E
$GPGSV,4,3,16,16,03,025,,06,07,208,23,27,00,052,,04,05,094,*7E
$GPGSV,4,4,16,36,35,170,41,34,31,208,,49,34,195,34,61,03,257,*75
$GLGSV,3,1,09,72,72,007,47,88,18,295,40,81,11,347,22,71,39,103,42*68
$GLGSV,3,2,09,75,22,185,44,65,22,308,32,73,44,046,30,74,65,131,40*68
$GLGSV,3,3,09,87,03,242,*54
$GAGSV,3,1,11,05,68,070,41,25,20,158,28,34,19,219,33,13,15,327,36*60
$GAGSV,3,2,11,09,16,090,23,31,22,044,29,16,33,135,,15,33,274,40*67
$GAGSV,3,3,11,24,39,102,35,03,53,288,45,08,04,277,22*59
$GBGSV,5,1,20,22,82,115,47,58,12,039,,05,22,129,34,09,22,054,21*66
$GBGSV,5,2,20,50,18,303,,46,26,048,,45,37,190,37,19,27,122,33*6D
$GBGSV,5,3,20,21,41,304,44,36,65,109,48,02,05,108,,34,03,285,26*6D
$GBGSV,5,4,20,16,05,054,,40,07,075,,12,02,259,21,11,04,306,*67
$GBGSV,5,5,20,48,02,123,,10,08,095,,06,08,055,,60,07,112,*6F
$GPGGA,061542.00,,,,,0,00,,,M,,M,,*4C
$PTNL,GGK,061542.00,010125,4742.4466623,N,01617.9728673,E,1,18,1.5,EHT667.9046,M*4A
$GPGGQ,061542.00,010125,4742.4466623,N,01617.9728673,E,1,18,2.451,624.6936,M*34
$GPGFA,061542.00,10.944,16.681,1.151,0.737,331.116,2.034,,VVV*02
$GPLLK,061542.00,010125,,M,,M,1,18,1.8,,M*0F
$GNGMP,061542.00,,,,,DAAA,18,0.9,,,,*52
$GPGMP,061542.00,,,,,,05,,,,2.6,123*78
$GLGMP,061542.00,,,,,,05,,,,,*7E
$GAGMP,061542.00,,,,,,04,,,,,*72
$GBGMP,061542.00,,,,,,04,,,,,*71
$PSSN,SNC,[0,281760000,2347]*4E
$GPZDA,061547.00,01,01,2025,,*62
$GPDTM,W84,,00.0000000,N,00.0000000,E,00.0000000,W84*5F
$GPRMC,061547.00,A,4742.4466612,N,01617.9728741,E,0.0,,010125,5.1,E,D*1B
$GPGLL,4742.4466612,N,01617.9728741,E,061547.00,A,D*6A
$GPGGA,061547.00,4742.4466612,N,01617.9728741,E,2,17,0.9,624.7052,M,43.2111,M,2.8,0123*46
$GNGNS,061547.00,4742.4466612,N,01617.9728741,E,DAAA,17,0.9,624.7052,43.2111,,*50
$GPGNS,061547.00,,,,,,05,,,,2.8,123*73
$GLGNS,061547.00,,,,,,05,,,,,*7B
$GAGNS,061547.00,,,,,,03,,,,,*70
$GBGNS,061547.00,,,,,,04,,,,,*74
$GPLLQ,061547.00,010125,,M,,M,1,17,3.132,,M*15
$GPVTG,,T,,M,0.00,N,0.01,K,D*27
$GPHDT,,T*1B
$GPTHS,,V*0E
$GPROT,,V*08
$PSSN,HRP,061547.00,010125,,,,,,,00,0,,*60
$PTNL,AVR,061547.00,,Yaw,,Tilt,,,,0,,00*36
$GPGSA,A,3,05,07,13,20,30,,,,,,,,1.5,0.9,1.2*3D
$GPGSA,A,3,71,72,74,75,88,,,,,,,,1.5,0.9,1.2*3E
$GPGSA,A,3,03,05,13,,,,,,,,,,1.5,0.9,1.2*38
$GPGSA,A,3,21,22,36,45,,,,,,,,,1.5,0.9,1.2*3B
$GPGST,061547.00,2.969,1.481,0.952,332.272,1.384,1.089,2.590*55
$GPGBS,061547.00,6.975,6.237,15.206,13,0.0001,2.078,0.952*63
$GPGRS,061547.00,1,-0.5,0.0,2.1,0.2,-0.5,,,,,,,*60
$GPGRS,061547.00,1,-3.2,3.9,-2.6,-4.8,-2.8,,,,,,,*68
$GPGRS,061547.00,1,0.2,-1.4,0.0,,,,,,,,,*4B
$GPGRS,061547.00,1,-2.8,-2.3,-2.2,-0.8,,,,,,,,*4C
$GPGSV,4,1,16,30,71,212,48,13,19,277,41,14,14,168,,11,24,239,32*7E
$GPGSV,4,2,16,05,35,309,47,09,32,093,,20,61,270,49,07,67,065,51*7C
$GPGSV,4,3,16,16,03,025,,06,07,208,23,27,00,052,,04,05,094,*7E
$GPGSV,4,4,16,36,35,170,41,34,31,208,,49,34,195,34,61,03,257,*75
$GLGSV,3,1,09,72,73,007,46,88,18,295,41,81,11,347,37,71,39,103,41*6E
$GLGSV,3,2,09,75,22,185,44,65,22,308,34,73,44,046,32,74,65,131,40*6C
$GLGSV,3,3,09,87,03,242,*54
$GAGSV,3,1,11,05,68,070,41,25,20,158,29,34,19,219,34,13,15,327,36*66
$GAGSV,3,2,11,09,16,090,26,31,22,044,29,16,33,135,,15,33,274,31*64
$GAGSV,3,3,11,24,39,102,35,03,53,288,46,08,04,277,21*59
$GBGSV,5,1,20,22,82,115,48,58,12,039,,05,22,129,34,09,22,054,21*69
$GBGSV,5,2,20,50,18,303,,46,26,048,,45,37,190,36,19,27,122,34*6B
$GBGSV,5,3,20,21,41,304,45,36,65,109,49,02,05,108,,34,03,285,30*6A
$GBGSV,5,4,20,16,05,054,,40,07,075,,12,02,259,19,11,04,306,*6C
$GBGSV,5,5,20,48,02,123,,10,08,095,,06,08,055,,60,07,112,*6F
$GPGGA,061547.00,,,,,0,00,,,M,,M,,*49
$PTNL,GGK,061547.00,010125,4742.4466612,N,01617.9728741,E,1,17,1.5,EHT667.9163,M*44
$GPGGQ,061547.00,010125,4742.4466612,N,01617.9728741,E,1,17,3.132,624.7052,M*37
$GPGFA,061547.00,14.079,21.237,1.481,0.952,332.272,2.590,,VVV*05
$GPLLK,061547.00,010125,,M,,M,1,17,1.8,,M*05
$GNGMP,061547.00,,,,,DAAA,17,0.9,,,,*58
$GPGMP,061547.00,,,,,,05,,,,2.8,123*73
$GLGMP,061547.00,,,,,,05,,,,,*7B
$GAGMP,061547.00,,,,,,03,,,,,*70
$GBGMP,061547.00,,,,,,04,,,,,*74
$PSSN,SNC,[0,281765000,2347]*4B
$GPZDA,061552.00,01,01,2025,,*66
$GPDTM,W84,,00.0000000,N,00.0000000,E,00.0000000,W84*5F
$GPRMC,061552.00,A,4742.4466627,N,01617.9728828,E,0.0,,010125,5.1,E,D*19
$GPGLL,4742.4466627,N,01617.9728828,E,061552.00,A,D*68
$GPGGA,061552.00,4742.4466627,N,01617.9728828,E,2,20,0.7,624.7207,M,43.2111,M,3.0,0123*45
$GNGNS,061552.00,4742.4466627,N,01617.9728828,E,DAAA,20,0.7,624.7207,43.2111,,*5A
$GPGNS,061552.00,,,,,,05,,,,3.0,123*7E
$GLGNS,061552.00,,,,,,07,,,,,*7D
$GAGNS,061552.00,,,,,,04,,,,,*73
$GBGNS,061552.00,,,,,,04,,,,,*70
$GPLLQ,061552.00,010125,,M,,M,1,20,4.748,,M*19
$GPVTG,,T,,M,0.01,N,0.02,K,D*25
$GPHDT,,T*1B
$GPTHS,,V*0E
$GPROT,,V*08
$PSSN,HRP,061552.00,010125,,,,,,,00,0,,*64
$PTNL,AVR,061552.00,,Yaw,,Tilt,,,,0,,00*32
$GPGSA,A,3,05,07,13,20,30,,,,,,,,1.2,0.7,1.0*36
$GPGSA,A,3,71,72,73,74,75,81,88,,,,,,1.2,0.7,1.0*38
$GPGSA,A,3,03,05,13,31,,,,,,,,,1.2,0.7,1.0*31
$GPGSA,A,3,21,22,36,45,,,,,,,,,1.2,0.7,1.0*30
$GPGST,061552.00,6.704,2.251,1.443,332.103,2.101,1.654,3.923*5E
$GPGBS,061552.00,6.568,6.123,14.992,81,0.0001,21.868,6.339*54
$GPGRS,061552.00,1,-0.6,-0.3,2.4,-0.1,-0.3,,,,,,,*64
$GPGRS,061552.00,1,-4.1,3.8,0.8,-0.9,-5.4,21.9,-0.8,,,,,*59
$GPGRS,061552.00,1,-0.4,-1.0,-0.6,4.4,,,,,,,,*65
$GPGRS,061552.00,1,-1.2,-2.1,-2.0,-2.5,,,,,,,,*4E
$GPGSV,4,1,16,30,71,212,48,13,19,277,40,14,14,168,,11,24,239,32*7F
$GPGSV,4,2,16,05,35,309,46,09,32,093,24,20,61,270,50,07,67,065,50*72
$GPGSV,4,3,16,16,03,025,,06,07,208,22,27,00,052,,04,05,094,*7F
$GPGSV,4,4,16,36,35,170,41,34,31,208,,49,34,195,34,61,03,257,*75
$GLGSV,3,1,09,72,73,008,47,88,18,295,38,81,11,347,39,71,39,103,40*61
$GLGSV,3,2,09,75,23,185,44,65,23,308,35,73,44,046,36,74,65,131,40*69
$GLGSV,3,3,09,87,03,242,*54
$GAGSV,3,1,11,05,68,071,41,25,20,158,28,34,19,219,34,13,15,327,35*65
$GAGSV,3,2,11,09,16,090,29,31,22,044,31,16,33,135,,15,33,273,33*67
$GAGSV,3,3,11,24,39,102,33,03,53,288,46,08,04,277,22*5C
$GBGSV,5,1,20,22,82,115,48,58,12,039,,05,22,129,34,09,22,054,20*68
$GBGSV,5,2,20,50,18,303,,46,26,048,,45,37,190,36,19,27,122,35*6A
$GBGSV,5,3,20,21,41,304,46,36,65,109,49,02,05,108,,34,03,285,32*6B
$GBGSV,5,4,20,16,05,054,,40,07,075,,12,02,259,,11,04,306,*64
$GBGSV,5,5,20,48,02,123,,10,08,095,,06,08,055,,60,07,112,*6F
$GPGGA,061552.00,,,,,0,00,,,M,,M,,*4D
$PTNL,GGK,061552.00,010125,4742.4466627,N,01617.9728828,E,1,20,1.2,EHT667.9318,M*4B
$GPGGQ,061552.00,010125,4742.4466627,N,01617.9728828,E,1,20,4.748,624.7207,M*3F
$GPGFA,061552.00,21.401,32.170,2.251,1.443,332.103,3.923,,VVV*0A
$GPLLK,061552.00,010125,,M,,M,1,20,1.4,,M*09
$GNGMP,061552.00,,,,,DAAA,20,0.7,,,,*56
$GPGMP,061552.00,,,,,,05,,,,3.0,123*7E
$GLGMP,061552.00,,,,,,07,,,,,*7D
$GAGMP,061552.00,,,,,,04,,,,,*73
$GBGMP,061552.00,,,,,,04,,,,,*70
$PSSN,SNC,[0,281770000,2347]*4F
$GPZDA,061557.00,01,01,2025,,*63
$GPDTM,W84,,00.0000000,N,00.0000000,E,00.0000000,W84*5F
$GPRMC,061557.00,A,4742.4466603,N,01617.9728899,E,0.0,,010125,5.1,E,D*10
$GPGLL,4742.4466603,N,01617.9728899,E,061557.00,A,D*61
$GPGGA,061557.00,4742.4466603,N,01617.9728899,E,2,20,0.7,624.7367,M,43.2111,M,1.6,0123*4F
$GNGNS,061557.00,4742.4466603,N,01617.9728899,E,DAAA,20,0.7,624.7367,43.2111,,*54
$GPGNS,061557.00,,,,,,05,,,,1.6,123*7F
$GLGNS,061557.00,,,,,,07,,,,,*78
$GAGNS,061557.00,,,,,,03,,,,,*71
$GBGNS,061557.00,,,,,,05,,,,,*74
$GPLLQ,061557.00,010125,,M,,M,1,20,3.213,,M*10
$GPVTG,,T,,M,0.01,N,0.01,K,D*26
$GPHDT,,T*1B
$GPTHS,,V*0E
$GPROT,,V*08
$PSSN,HRP,061557.00,010125,,,,,,,00,0,,*61
$PTNL,AVR,061557.00,,Yaw,,Tilt,,,,0,,00*37
$GPGSA,A,3,05,07,13,20,30,,,,,,,,1.2,0.7,1.0*36
$GPGSA,A,3,65,71,72,73,74,75,81,,,,,,1.2,0.7,1.0*3B
$GPGSA,A,3,03,05,13,,,,,,,,,,1.2,0.7,1.0*33
$GPGSA,A,3,19,21,22,36,45,,,,,,,,1.2,0.7,1.0*38
$GPGST,061557.00,4.961,1.501,0.979,331.843,1.401,1.117,2.666*57
$GPGBS,061557.00,6.414,5.943,14.652,81,0.0001,13.744,6.341*5A
$GPGRS,061557.00,1,-0.1,-0.3,0.5,-0.0,0.1,,,,,,,*4B
$GPGRS,061557.00,1,-6.0,-4.0,4.6,-0.6,-0.2,-5.5,13.7,,,,,*7C
$GPGRS,061557.00,1,-0.3,-0.2,0.4,,,,,,,,,*65
$GPGRS,061557.00,1,3.3,0.2,-1.6,-1.6,-3.1,,,,,,,*4D
$GPGSV,4,1,16,30,71,212,49,13,19,277,37,14,14,168,,11,24,239,33*7F
$GPGSV,4,2,16,05,35,309,46,09,32,093,,20,61,270,50,07,67,065,49*7C
$GPGSV,4,3,16,16,03,025,,06,07,208,22,27,00,052,,04,05,094,*7F
$GPGSV,4,4,16,36,35,170,41,34,31,208,,49,34,195,34,61,03,257,*75
$GLGSV,3,1,09,72,73,008,47,88,18,295,34,81,11,347,38,71,39,103,41*6D
$GLGSV,3,2,09,75,23,185,45,65,23,308,37,73,44,046,35,74,65,131,42*6B
$GLGSV,3,3,09,87,03,241,*57
$GAGSV,3,1,11,05,68,071,41,25,20,158,27,34,19,219,34,13,15,327,35*6A
$GAGSV,3,2,11,09,16,090,30,31,22,044,35,16,33,135,,15,33,273,33*6B
$GAGSV,3,3,11,24,39,102,33,03,53,288,46,08,04,277,20*5E
$GBGSV,5,1,20,22,82,115,48,58,12,039,,05,22,129,34,09,22,054,31*68
$GBGSV,5,2,20,50,18,303,,46,26,048,,45,37,190,36,19,27,122,35*6A
$GBGSV,5,3,20,21,41,304,47,36,65,109,50,02,05,108,,34,03,285,32*62
$GBGSV,5,4,20,16,05,054,,40,07,075,,12,02,259,,11,04,306,*64
$GBGSV,5,5,20,48,02,123,,10,08,095,,06,08,055,,60,07,112,*6F
$GPGGA,061557.00,,,,,0,00,,,M,,M,,*48
$PTNL,GGK,061557.00,010125,4742.4466603,N,01617.9728899,E,1,20,1.2,EHT667.9478,M*43
$GPGGQ,061557.00,010125,4742.4466603,N,01617.9728899,E,1,20,3.213,624.7367,M*3D
$GPGFA,061557.00,14.267,21.865,1.501,0.979,331.843,2.666,,VVV*05
$GPLLK,061557.00,010125,,M,,M,1,20,1.4,,M*0C
$GNGMP,061557.00,,,,,DAAA,20,0.7,,,,*53
$GPGMP,061557.00,,,,,,05,,,,1.6,123*7F
$GLGMP,061557.00,,,,,,07,,,,,*78
$GAGMP,061557.00,,,,,,03,,,,,*71
$GBGMP,061557.00,,,,,,05,,,,,*74
$PSSN,SNC,[0,281775000,2347]*4A
$GPZDA,061602.00,01,01,2025,,*60
$GPDTM,W84,,00.0000000,N,00.0000000,E,00.0000000,W84*5F
$GPRMC,061602.00,A,4742.4466593,N,01617.9728921,E,0.0,,010125,5.1,E,D*1B
$GPGLL,4742.4466593,N,01617.9728921,E,061602.00,A,D*6A
$GPGGA,061602.00,4742.4466593,N,01617.9728921,E,2,19,0.8,624.7389,M,43.2111,M,2.8,0123*4C
$GNGNS,061602.00,4742.4466593,N,01617.9728921,E,DAAA,19,0.8,624.7389,43.2111,,*5A
$GPGNS,061602.00,,,,,,04,,,,2.8,123*70
$GLGNS,061602.00,,,,,,07,,,,,*7B
$GAGNS,061602.00,,,,,,03,,,,,*72
$GBGNS,061602.00,,,,,,05,,,,,*77
$GPLLQ,061602.00,010125,,M,,M,1,19,4.757,,M*1B
$GPVTG,,T,,M,0.01,N,0.02,K,D*25
$GPHDT,,T*1B
$GPTHS,,V*0E
$GPROT,,V*08
$PSSN,HRP,061602.00,010125,,,,,,,00,0,,*62
$PTNL,AVR,061602.00,,Yaw,,Tilt,,,,0,,00*34
$GPGSA,A,3,05,07,20,30,,,,,,,,,1.2,0.8,1.0*3B
$GPGSA,A,3,65,71,72,73,74,75,81,,,,,,1.2,0.8,1.0*34
$GPGSA,A,3,03,05,13,,,,,,,,,,1.2,0.8,1.0*3C
$GPGSA,A,3,19,21,22,36,45,,,,,,,,1.2,0.8,1.0*37
$GPGST,061602.00,4.294,1.844,0.775,337.073,1.725,1.013,4.316*52
$GPGBS,061602.00,11.962,6.155,29.962,81,0.0001,9.288,6.344*56
$GPGRS,061602.00,1,0.2,-0.1,-0.4,0.2,,,,,,,,*48
$GPGRS,061602.00,1,-6.1,-2.2,4.9,-2.9,0.3,-5.6,9.3,,,,,*68
$GPGRS,061602.00,1,-0.2,-0.1,1.1,,,,,,,,,*60
$GPGRS,061602.00,1,4.0,-0.3,-1.0,-1.6,-2.8,,,,,,,*68
$GPGSV,4,1,16,30,71,212,49,13,19,277,34,14,14,168,,11,24,239,34*7B
$GPGSV,4,2,16,05,35,309,46,09,32,093,23,20,61,270,49,07,67,065,48*74
$GPGSV,4,3,16,16,03,025,,06,06,208,22,27,00,052,,04,05,094,*7E
$GPGSV,4,4,16,36,35,170,41,34,31,208,,49,34,195,34,61,03,257,*75
$GLGSV,3,1,09,72,73,008,47,88,18,295,30,81,11,347,37,71,39,103,43*64
$GLGSV,3,2,09,75,23,185,45,65,23,308,38,73,44,046,35,74,65,131,42*64
$GLGSV,3,3,09,87,03,241,*57
$GAGSV,3,1,11,05,68,071,42,25,20,158,27,34,19,219,33,13,15,327,36*6D
$GAGSV,3,2,11,09,16,091,30,31,22,044,28,16,34,135,,15,33,273,33*61
$GAGSV,3,3,11,24,40,102,31,03,53,288,46,08,04,277,32*51
$GBGSV,5,1,20,22,82,115,49,58,12,039,,05,22,129,34,09,22,054,20*69
$GBGSV,5,2,20,50,18,303,,46,26,048,,45,37,190,38,19,27,122,35*64
$GBGSV,5,3,20,21,41,304,47,36,65,109,50,02,05,108,,34,03,285,27*66
$GBGSV,5,4,20,16,05,054,,40,07,075,,12,02,259,,11,04,305,*67
$GBGSV,5,5,20,48,02,123,,10,09,095,,06,08,055,,60,07,112,*6E
$GPGGA,061602.00,,,,,0,00,,,M,,M,,*4B
$PTNL,GGK,061602.00,010125,4742.4466593,N,01617.9728921,E,1,19,1.2,EHT667.9499,M*4D
$GPGGQ,061602.00,010125,4742.4466593,N,01617.9728921,E,1,19,4.757,624.7389,M*3E
$GPGFA,061602.00,17.535,35.393,1.844,0.775,337.073,4.316,,VVV*05
$GPLLK,061602.00,010125,,M,,M,1,19,1.4,,M*05
$GNGMP,061602.00,,,,,DAAA,19,0.8,,,,*55
$GPGMP,061602.00,,,,,,04,,,,2.8,123*70
$GLGMP,061602.00,,,,,,07,,,,,*7B
$GAGMP,061602.00,,,,,,03,,,,,*72
$GBGMP,061602.00,,,,,,05,,,,,*77
$PSSN,SNC,[0,281780000,2347]*40
$GPZDA,061607.00,01,01,2025,,*65
$GPDTM,W84,,00.0000000,N,00.0000000,E,00.0000000,W84*5F
$GPRMC,061607.00,A,4742.4466576,N,01617.9728871,E,0.0,,010125,5.1,E,D*11
$GPGLL,4742.4466576,N,01617.9728871,E,061607.00,A,D*60
$GPGGA,061607.00,4742.4466576,N,01617.9728871,E,2,19,0.8,624.7491,M,43.2111,M,2.8,0123*48
$GNGNS,061607.00,4742.4466576,N,01617.9728871,E,DAAA,19,0.8,624.7491,43.2111,,*5E
$GPGNS,061607.00,,,,,,04,,,,2.8,123*75
$GLGNS,061607.00,,,,,,07,,,,,*7E
$GAGNS,061607.00,,,,,,03,,,,,*77
$GBGNS,061607.00,,,,,,05,,,,,*72
$GPLLQ,061607.00,010125,,M,,M,1,19,5.541,,M*1A
$GPVTG,,T,,M,0.01,N,0.02,K,D*25
$GPHDT,,T*1B
$GPTHS,,V*0E
$GPROT,,V*08
$PSSN,HRP,061607.00,010125,,,,,,,00,0,,*67
$PTNL,AVR,061607.00,,Yaw,,Tilt,,,,0,,00*31
$GPGSA,A,3,05,07,20,30,,,,,,,,,1.2,0.8,1.0*3B
$GPGSA,A,3,65,71,72,73,74,75,81,,,,,,1.2,0.8,1.0*34
$GPGSA,A,3,03,05,13,,,,,,,,,,1.2,0.8,1.0*3C
$GPGSA,A,3,19,21,22,36,45,,,,,,,,1.2,0.8,1.0*37
$GPGST,061607.00,4.957,2.168,0.906,337.368,2.032,1.182,5.018*53
$GPGBS,061607.00,12.017,6.066,29.614,81,0.0001,12.126,6.345*68
$GPGRS,061607.00,1,0.2,0.3,-0.5,-0.0,,,,,,,,*4C
$GPGRS,061607.00,1,-6.6,0.2,5.3,-2.2,0.2,-6.6,12.1,,,,,*7F
$GPGRS,061607.00,1,-0.2,-0.7,0.4,,,,,,,,,*67
$GPGRS,061607.00,1,4.9,-0.9,-0.8,-1.1,-0.6,,,,,,,*6C
$GPGSV,4,1,16,30,71,212,49,13,19,277,33,14,15,168,,11,24,239,34*7D
$GPGSV,4,2,16,05,35,309,46,09,32,093,36,20,61,270,49,07,67,065,47*7F
$GPGSV,4,3,16,16,03,025,,06,06,208,21,27,00,052,,04,05,094,*7D
$GPGSV,4,4,16,36,35,170,41,34,31,208,,49,34,195,34,61,03,257,*75
$GLGSV,3,1,09,72,73,008,47,88,18,295,21,81,11,347,36,71,39,103,45*63
$GLGSV,3,2,09,75,23,185,44,65,23,308,38,73,44,046,36,74,65,131,43*67
$GLGSV,3,3,09,87,03,241,*57
$GAGSV,3,1,11,05,68,071,42,25,20,158,27,34,19,219,32,13,15,327,36*6C
$GAGSV,3,2,11,09,16,091,29,31,22,044,25,16,34,135,,15,33,273,33*64
$GAGSV,3,3,11,24,40,102,27,03,53,288,46,08,04,277,33*57
$GBGSV,5,1,20,22,82,116,49,58,12,039,,05,22,129,34,09,22,054,21*6B
$GBGSV,5,2,20,50,18,303,,46,26,048,,45,37,190,40,19,27,122,35*6B
$GBGSV,5,3,20,21,41,304,47,36,65,109,50,02,05,108,,34,03,285,25*64
$GBGSV,5,4,20,16,05,054,,40,07,075,,12,02,259,,11,04,305,*67
$GBGSV,5,5,20,48,02,123,,10,09,095,,06,08,055,,60,07,112,*6E
$GPGGA,061607.00,,,,,0,00,,,M,,M,,*4E
$PTNL,GGK,061607.00,010125,4742.4466576,N,01617.9728871,E,1,19,1.2,EHT667.9602,M*47
$GPGGQ,061607.00,010125,4742.4466576,N,01617.9728871,E,1,19,5.541,624.7491,M*3E
$GPGFA,061607.00,20.616,41.147,2.168,0.906,337.368,5.018,,VVV*05
$GPLLK,061607.00,010125,,M,,M,1,19,1.4,,M*00
$GNGMP,061607.00,,,,,DAAA,19,0.8,,,,*50
$GPGMP,061607.00,,,,,,04,,,,2.8,123*75
$GLGMP,061607.00,,,,,,07,,,,,*7E
$GAGMP,061607.00,,,,,,03,,,,,*77
$GBGMP,061607.00,,,,,,05,,,,,*72
$PSSN,SNC,[0,281785000,2347]*45
$GPZDA,061612.00,01,01,2025,,*61
$GPDTM,W84,,00.0000000,N,00.0000000,E,00.0000000,W84*5F
$GPRMC,061612.00,A,4742.4466532,N,01617.9728768,E,0.0,,010125,5.1,E,D*12
$GPGLL,4742.4466532,N,01617.9728768,E,061612.00,A,D*63
$GPGGA,061612.00,4742.4466532,N,01617.9728768,E,2,19,0.8,624.7477,M,43.2111,M,2.8,0123*43
$GNGNS,061612.00,4742.4466532,N,01617.9728768,E,DAAA,19,0.8,624.7477,43.2111,,*55
$GPGNS,061612.00,,,,,,04,,,,2.8,123*71
$GLGNS,061612.00,,,,,,06,,,,,*7B
$GAGNS,061612.00,,,,,,05,,,,,*75
$GBGNS,061612.00,,,,,,04,,,,,*77
$GPLLQ,061612.00,010125,,M,,M,1,19,5.536,,M*1E
$GPVTG,,T,,M,0.00,N,0.00,K,D*26
$GPHDT,,T*1B
$GPTHS,,V*0E
$GPROT,,V*08
$PSSN,HRP,061612.00,010125,,,,,,,00,0,,*63
$PTNL,AVR,061612.00,,Yaw,,Tilt,,,,0,,00*35
$GPGSA,A,3,05,07,20,30,,,,,,,,,1.4,0.8,1.2*3F
$GPGSA,A,3,65,71,72,73,74,75,,,,,,,1.4,0.8,1.2*39
$GPGSA,A,3,03,05,13,15,24,,,,,,,,1.4,0.8,1.2*3A
$GPGSA,A,3,21,22,36,45,,,,,,,,,1.4,0.8,1.2*3B
$GPGST,061612.00,3.908,2.149,0.937,338.207,2.025,1.180,5.016*56
$GPGBS,061612.00,11.845,6.167,30.315,07,0.0001,0.867,0.630*5C
$GPGRS,061612.00,1,-0.2,0.9,-0.6,-0.2,,,,,,,,*6E
$GPGRS,061612.00,1,-5.6,2.7,4.5,8.0,0.3,-7.3,,,,,,*44
$GPGRS,061612.00,1,-0.1,-0.8,-0.3,-0.1,-1.4,,,,,,,*41
$GPGRS,061612.00,1,-1.1,-1.2,-0.6,-0.3,,,,,,,,*4A
$GPGSV,4,1,16,30,71,212,49,13,19,277,34,14,15,168,,11,24,239,34*7A
$GPGSV,4,2,16,05,35,309,46,09,32,093,38,20,61,270,48,07,67,065,47*70
$GPGSV,4,3,16,16,03,025,,06,06,208,22,27,00,052,,04,05,094,*7E
$GPGSV,4,4,16,36,35,170,41,34,31,208,,49,34,195,34,61,03,257,*75
$GLGSV,3,1,09,72,73,008,45,88,18,295,27,81,11,347,34,71,39,103,46*66
$GLGSV,3,2,09,75,23,185,44,65,23,308,39,73,44,046,37,74,65,131,43*67
$GLGSV,3,3,09,87,03,241,*57
$GAGSV,3,1,11,05,68,071,42,25,20,158,26,34,19,219,31,13,15,327,37*6F
$GAGSV,3,2,11,09,16,091,27,31,22,044,31,16,34,135,,15,33,273,39*65
$GAGSV,3,3,11,24,40,102,23,03,53,288,46,08,04,277,32*52
$GBGSV,5,1,20,22,82,116,50,58,12,039,,05,22,129,34,09,22,054,21*63
$GBGSV,5,2,20,50,18,303,,46,26,048,,45,37,190,42,19,27,122,34*68
$GBGSV,5,3,20,21,41,304,48,36,65,108,50,02,05,108,,34,03,284,33*6C
$GBGSV,5,4,20,16,05,054,,40,07,075,,12,02,259,,11,04,305,*67
$GBGSV,5,5,20,48,02,123,,10,09,095,,06,08,055,,60,07,112,*6E
$GPGGA,061612.00,,,,,0,00,,,M,,M,,*4A
$PTNL,GGK,061612.00,010125,4742.4466532,N,01617.9728768,E,1,19,1.4,EHT667.9587,M*4C
$GPGGQ,061612.00,010125,4742.4466532,N,01617.9728768,E,1,19,5.536,624.7477,M*35
$GPGFA,061612.00,20.430,41.129,2.149,0.937,338.207,5.016,,VVV*07
$GPLLK,061612.00,010125,,M,,M,1,19,1.6,,M*06
$GNGMP,061612.00,,,,,DAAA,19,0.8,,,,*54
$GPGMP,061612.00,,,,,,04,,,,2.8,123*71
$GLGMP,061612.00,,,,,,06,,,,,*7B
$GAGMP,061612.00,,,,,,05,,,,,*75
$GBGMP,061612.00,,,,,,04,,,,,*77
$PSSN,SNC,[0,281790000,2347]*41
$GPZDA,061617.00,01,01,2025,,*64
$GPDTM,W84,,00.0000000,N,00.0000000,E,00.0000000,W84*5F
$GPRMC,061617.00,A,4742.4466484,N,01617.9728630,E,0.0,,010125,5.1,E,D*17
$GPGLL,4742.4466484,N,01617.9728630,E,061617.00,A,D*66
$GPGGA,061617.00,4742.4466484,N,01617.9728630,E,2,18,0.8,624.7546,M,43.2111,M,1.6,0123*49
$GNGNS,061617.00,4742.4466484,N,01617.9728630,E,DAAA,18,0.8,624.7546,43.2111,,*52
$GPGNS,061617.00,,,,,,05,,,,1.6,123*78
$GLGNS,061617.00,,,,,,06,,,,,*7E
$GAGNS,061617.00,,,,,,03,,,,,*76
$GBGNS,061617.00,,,,,,04,,,,,*72
$GPLLQ,061617.00,010125,,M,,M,1,18,3.260,,M*18
$GPVTG,,T,,M,0.01,N,0.01,K,D*26
$GPHDT,,T*1B
$GPTHS,,V*0E
$GPROT,,V*08
$PSSN,HRP,061617.00,010125,,,,,,,00,0,,*66
$PTNL,AVR,061617.00,,Yaw,,Tilt,,,,0,,00*30
$GPGSA,A,3,05,07,13,20,30,,,,,,,,1.4,0.8,1.2*3D
$GPGSA,A,3,65,71,72,73,74,75,,,,,,,1.4,0.8,1.2*39
$GPGSA,A,3,03,05,13,,,,,,,,,,1.4,0.8,1.2*38
$GPGSA,A,3,21,22,36,45,,,,,,,,,1.4,0.8,1.2*3B
$GPGST,061617.00,3.403,1.529,0.956,331.821,1.422,1.110,2.716*5D
$GPGBS,061617.00,6.706,6.069,15.299,13,0.0001,1.663,0.937*6C
$GPGRS,061617.00,1,-0.4,0.8,1.7,-0.5,-0.3,,,,,,,*46
$GPGRS,061617.00,1,-4.7,5.2,3.1,1.7,0.2,-7.3,,,,,,*4F
$GPGRS,061617.00,1,-0.2,-0.9,-0.8,,,,,,,,,*49
$GPGRS,061617.00,1,-1.3,-1.4,-1.3,-1.2,,,,,,,,*4F
$GPGSV,4,1,16,30,72,212,49,13,19,277,36,14,15,168,,11,24,239,35*7A
$GPGSV,4,2,16,05,35,309,44,09,32,093,40,20,61,269,48,07,67,065,47*75
$GPGSV,4,3,16,16,03,025,,06,06,208,21,27,00,052,,04,05,094,*7D
$GPGSV,4,4,16,36,35,170,41,34,31,208,,49,34,195,34,61,03,257,*75
$GLGSV,3,1,09,72,73,008,45,88,18,295,34,81,11,347,30,71,39,103,46*60
$GLGSV,3,2,09,75,23,185,43,65,23,308,41,73,44,046,36,74,65,131,44*69
$GLGSV,3,3,09,87,03,241,*57
$GAGSV,3,1,11,05,68,071,42,25,20,158,26,34,19,219,31,13,15,327,38*60
$GAGSV,3,2,11,09,16,091,25,31,22,044,31,16,34,135,,15,33,273,26*69
$GAGSV,3,3,11,24,40,102,23,03,53,288,46,08,05,277,31*50
$GBGSV,5,1,20,22,82,116,51,58,12,039,,05,22,129,34,09,22,054,23*60
$GBGSV,5,2,20,50,18,303,,46,26,048,,45,37,190,43,19,27,122,33*6E
$GBGSV,5,3,20,21,41,304,48,36,65,108,50,02,05,108,,34,03,284,31*6E
$GBGSV,5,4,20,16,05,054,,40,07,075,,12,02,259,,11,04,305,*67
$GBGSV,5,5,20,48,02,123,,10,09,095,,06,08,055,,60,07,112,*6E
$GPGGA,061617.00,,,,,0,00,,,M,,M,,*4F
$PTNL,GGK,061617.00,010125,4742.4466484,N,01617.9728630,E,1,18,1.4,EHT667.9657,M*46
$GPGGQ,061617.00,010125,4742.4466484,N,01617.9728630,E,1,18,3.260,624.7546,M*30
$GPGFA,061617.00,14.541,22.268,1.529,0.956,331.821,2.716,,VVV*00
$GPLLK,061617.00,010125,,M,,M,1,18,1.7,,M*03
$GNGMP,061617.00,,,,,DAAA,18,0.8,,,,*50
$GPGMP,061617.00,,,,,,05,,,,1.6,123*78
$GLGMP,061617.00,,,,,,06,,,,,*7E
$GAGMP,061617.00,,,,,,03,,,,,*76
$GBGMP,061617.00,,,,,,04,,,,,*72
$PSSN,SNC,[0,281795000,2347]*44
$GPZDA,061622.00,01,01,2025,,*62
$GPDTM,W84,,00.0000000,N,00.0000000,E,00.0000000,W84*5F
$GPRMC,061622.00,A,4742.4466493,N,01617.9728581,E,0.0,,010125,5.1,E,D*1E
$GPGLL,4742.4466493,N,01617.9728581,E,061622.00,A,D*6F
$GPGGA,061622.00,4742.4466493,N,01617.9728581,E,2,19,0.8,624.7560,M,43.2111,M,2.6,0123*46
$GNGNS,061622.00,4742.4466493,N,01617.9728581,E,DAAA,19,0.8,624.7560,43.2111,,*5E
$GPGNS,061622.00,,,,,,05,,,,2.6,123*7D
$GLGNS,061622.00,,,,,,07,,,,,*79
$GAGNS,061622.00,,,,,,03,,,,,*70
$GBGNS,061622.00,,,,,,04,,,,,*74
$GPLLQ,061622.00,010125,,M,,M,1,19,2.447,,M*1D
$GPVTG,,T,,M,0.01,N,0.02,K,D*25
$GPHDT,,T*1B
$GPTHS,,V*0E
$GPROT,,V*08
$PSSN,HRP,061622.00,010125,,,,,,,00,0,,*60
$PTNL,AVR,061622.00,,Yaw,,Tilt,,,,0,,00*36
$GPGSA,A,3,05,07,13,20,30,,,,,,,,1.4,0.8,1.2*3D
$GPGSA,A,3,65,71,72,73,74,75,88,,,,,,1.4,0.8,1.2*39
$GPGSA,A,3,03,05,13,,,,,,,,,,1.4,0.8,1.2*38
$GPGSA,A,3,21,22,36,45,,,,,,,,,1.4,0.8,1.2*3B
$GPGST,061622.00,3.768,1.146,0.727,331.482,1.065,0.841,2.036*5B
$GPGBS,061622.00,6.809,6.136,15.451,75,0.0001,-6.841,6.152*4A
$GPGRS,061622.00,1,-0.6,0.3,-0.2,-0.1,0.3,,,,,,,*49
$GPGRS,061622.00,1,-4.8,6.1,3.2,0.5,0.7,-6.8,-6.2,,,,,*4E
$GPGRS,061622.00,1,-0.6,-1.3,1.2,,,,,,,,,*66
$GPGRS,061622.00,1,-0.7,-1.2,-2.4,-1.7,,,,,,,,*4B
$GPGSV,4,1,16,30,72,212,49,13,19,277,36,14,15,168,,11,24,239,36*79
$GPGSV,4,2,16,05,35,309,42,09,32,093,40,20,61,269,47,07,67,065,48*73
$GPGSV,4,3,16,16,03,025,,06,06,208,,27,01,052,,04,05,094,*7F
$GPGSV,4,4,16,36,35,170,41,34,31,208,,49,34,195,34,61,03,257,*75
$GLGSV,3,1,09,72,73,008,45,88,18,294,39,81,11,347,26,71,39,103,45*68
$GLGSV,3,2,09,75,23,185,43,65,23,308,42,73,44,046,38,74,65,131,45*65
$GLGSV,3,3,09,87,03,241,*57
$GAGSV,3,1,11,05,68,071,43,25,20,158,25,34,19,219,32,13,15,327,38*61
$GAGSV,3,2,11,09,16,091,23,31,22,044,23,16,34,135,,15,33,273,24*6E
$GAGSV,3,3,11,24,40,102,26,03,53,288,46,08,05,277,30*54
$GBGSV,5,1,20,22,82,116,51,58,12,039,,05,22,129,33,09,22,054,30*65
$GBGSV,5,2,20,50,18,303,,46,26,048,,45,38,190,43,19,27,122,32*60
$GBGSV,5,3,20,21,41,304,48,36,65,108,50,02,05,108,,34,03,284,31*6E
$GBGSV,5,4,20,16,05,054,,40,07,075,,12,01,259,,11,04,305,*64
$GBGSV,5,5,20,48,02,123,,10,09,095,,06,08,055,,60,07,112,*6E
$GPGGA,061622.00,,,,,0,00,,,M,,M,,*49
$PTNL,GGK,061622.00,010125,4742.4466493,N,01617.9728581,E,1,19,1.4,EHT667.9670,M*4B
$GPGGQ,061622.00,010125,4742.4466493,N,01617.9728581,E,1,19,2.447,624.7560,M*3E
$GPGFA,061622.00,10.898,16.698,1.146,0.727,331.482,2.036,,VVV*02
$GPLLK,061622.00,010125,,M,,M,1,19,1.7,,M*04
$GNGMP,061622.00,,,,,DAAA,19,0.8,,,,*57
$GPGMP,061622.00,,,,,,05,,,,2.6,123*7D
$GLGMP,061622.00,,,,,,07,,,,,*79
$GAGMP,061622.00,,,,,,03,,,,,*70
$GBGMP,061622.00,,,,,,04,,,,,*74
$PSSN,SNC,[0,281800000,2347]*47
$GPZDA,061627.00,01,01,2025,,*67
$GPDTM,W84,,00.0000000,N,00.0000000,E,00.0000000,W84*5F
$GPRMC,061627.00,A,4742.4466527,N,01617.9728488,E,0.0,,010125,5.1,E,D*1D
$GPGLL,4742.4466527,N,01617.9728488,E,061627.00,A,D*6C
$GPGGA,061627.00,4742.4466527,N,01617.9728488,E,2,19,0.8,624.7499,M,43.2111,M,2.8,0123*4C
$GNGNS,061627.00,4742.4466527,N,01617.9728488,E,DAAA,19,0.8,624.7499,43.2111,,*5A
$GPGNS,061627.00,,,,,,05,,,,2.8,123*76
$GLGNS,061627.00,,,,,,07,,,,,*7C
$GAGNS,061627.00,,,,,,03,,,,,*75
$GBGNS,061627.00,,,,,,04,,,,,*71
$GPLLQ,061627.00,010125,,M,,M,1,19,3.296,,M*13
$GPVTG,,T,,M,0.00,N,0.00,K,D*26
$GPHDT,,T*1B
$GPTHS,,V*0E
$GPROT,,V*08
$PSSN,HRP,061627.00,010125,,,,,,,00,0,,*65
$PTNL,AVR,061627.00,,Yaw,,Tilt,,,,0,,00*33
$GPGSA,A,3,05,07,13,20,30,,,,,,,,1.4,0.8,1.2*3D
$GPGSA,A,3,65,71,72,73,74,75,88,,,,,,1.4,0.8,1.2*39
$GPGSA,A,3,03,05,13,,,,,,,,,,1.4,0.8,1.2*38
$GPGSA,A,3,21,22,36,45,,,,,,,,,1.4,0.8,1.2*3B
$GPGST,061627.00,3.175,1.556,0.989,332.414,1.453,1.135,2.732*5E
$GPGBS,061627.00,6.883,6.141,15.355,05,0.0001,-1.623,0.714*46
$GPGRS,061627.00,1,-1.6,0.6,0.7,0.3,0.1,,,,,,,*4D
$GPGRS,061627.00,1,-4.6,1.7,3.0,2.9,0.9,-5.9,-4.0,,,,,*44
$GPGRS,061627.00,1,-1.0,-1.3,3.1,,,,,,,,,*65
$GPGRS,061627.00,1,-0.1,-0.9,-2.5,-2.0,,,,,,,,*47
$GPGSV,4,1,16,30,72,212,49,13,19,277,37,14,15,168,,11,24,239,36*78
$GPGSV,4,2,16,05,35,309,41,09,32,093,40,20,61,269,47,07,67,065,49*71
$GPGSV,4,3,16,16,03,025,,06,06,208,,27,01,052,,04,05,094,*7F
$GPGSV,4,4,16,36,35,170,41,34,31,208,,49,34,195,34,61,03,257,*75
$GLGSV,3,1,09,72,73,008,44,88,18,294,38,81,11,347,28,71,39,103,43*60
$GLGSV,3,2,09,75,23,185,43,65,23,308,43,73,44,046,40,74,65,130,46*69
$GLGSV,3,3,09,87,03,241,*57
$GAGSV,3,1,11,05,68,071,43,25,20,158,26,34,19,219,33,13,15,327,38*63
$GAGSV,3,2,11,09,16,091,22,31,22,044,23,16,34,135,,15,33,273,29*62
$GAGSV,3,3,11,24,40,102,29,03,53,288,46,08,05,277,28*52
$GBGSV,5,1,20,22,82,116,51,58,12,039,,05,22,129,33,09,22,054,26*62
$GBGSV,5,2,20,50,18,303,,46,26,048,,45,38,190,43,19,27,122,31*63
$GBGSV,5,3,20,21,41,304,47,36,65,108,50,02,05,108,,34,03,284,31*61
$GBGSV,5,4,20,16,05,054,,40,07,075,,12,01,259,,11,04,305,*64
$GBGSV,5,5,20,48,02,123,,10,09,095,,06,08,055,,60,07,112,*6E
$GPGGA,061627.00,,,,,0,00,,,M,,M,,*4C
$PTNL,GGK,061627.00,010125,4742.4466527,N,01617.9728488,E,1,19,1.4,EHT667.9610,M*4E
$GPGGQ,061627.00,010125,4742.4466527,N,01617.9728488,E,1,19,3.296,624.7499,M*31
$GPGFA,061627.00,14.790,22.404,1.556,0.989,332.414,2.732,,VVV*04
$GPLLK,061627.00,010125,,M,,M,1,19,1.7,,M*01
$GNGMP,061627.00,,,,,DAAA,19,0.8,,,,*52
$GPGMP,061627.00,,,,,,05,,,,2.8,123*76
$GLGMP,061627.00,,,,,,07,,,,,*7C
$GAGMP,061627.00,,,,,,03,,,,,*75
$GBGMP,061627.00,,,,,,04,,,,,*71
$PSSN,SNC,[0,281805000,2347]*42
$GPZDA,061632.00,01,01,2025,,*63
$GPDTM,W84,,00.0000000,N,00.0000000,E,00.0000000,W84*5F
$GPRMC,061632.00,A,4742.4466567,N,01617.9728437,E,0.0,,010125,5.1,E,D*19
$GPGLL,4742.4466567,N,01617.9728437,E,061632.00,A,D*68
