$GPZDA,145942.00,01,01,2025,,*6C
$GPDTM,W84,,00.0000000,N,00.0000000,E,00.0000000,W84*5F
$GPRMC,145942.00,A,4742.4467442,N,01617.9743112,E,0.0,,010125,5.1,E,D*1E
$GPGLL,4742.4467442,N,01617.9743112,E,145942.00,A,D*6F
$GPGGA,145942.00,4742.4467442,N,01617.9743112,E,2,20,0.8,625.8360,M,43.2110,M,2.7,0123*44
$GNGNS,145942.00,4742.4467442,N,01617.9743112,E,DAAA,20,0.8,625.8360,43.2110,,*5D
$GPGNS,145942.00,,,,,,06,,,,2.7,123*71
$GLGNS,145942.00,,,,,,04,,,,,*74
$GAGNS,145942.00,,,,,,04,,,,,*79
$GBGNS,145942.00,,,,,,06,,,,,*78
$GPLLQ,145942.00,010125,,M,,M,1,20,2.887,,M*19
$GPVTG,,T,,M,0.00,N,0.01,K,D*27
$GPHDT,,T*1B
$GPTHS,,V*0E
$GPROT,,V*08
$PSSN,HRP,145942.00,010125,,,,,,,00,0,,*6E
$PTNL,AVR,145942.00,,Yaw,,Tilt,,,,0,,00*38
$GPGSA,A,3,11,12,25,28,29,31,,,,,,,1.4,0.8,1.2*3B
$GPGSA,A,3,78,79,81,88,,,,,,,,,1.4,0.8,1.2*34
$GPGSA,A,3,15,27,29,34,,,,,,,,,1.4,0.8,1.2*31
$GPGSA,A,3,12,23,24,25,34,44,,,,,,,1.4,0.8,1.2*38
$GPGST,145942.00,2.346,1.541,0.659,7.236,1.531,0.682,2.351*5F
$GPGBS,145942.00,7.547,3.232,16.604,31,0.0001,-3.579,1.893*41
$GPGRS,145942.00,1,0.6,-0.2,0.7,0.4,0.1,-3.6,,,,,,*42
$GPGRS,145942.00,1,-1.4,-0.6,4.3,-0.6,,,,,,,,*6E
$GPGRS,145942.00,1,-2.5,-0.1,0.1,2.5,,,,,,,,*41
$GPGRS,145942.00,1,-1.4,-1.2,-2.3,-0.4,3.4,2.0,,,,,,*47
$GPGSV,4,1,16,25,80,074,48,31,25,313,40,32,13,247,,20,13,086,*77
$GPGSV,4,2,16,11,35,058,47,28,48,294,39,12,39,097,36,29,67,234,50*7B
$GPGSV,4,3,16,24,02,159,,26,05,292,,18,06,186,,06,08,031,*74
$GPGSV,4,4,16,36,35,170,36,34,31,208,35,49,34,195,37,61,03,257,*70
$GLGSV,3,1,10,88,72,082,42,70,12,331,,87,19,031,25,77,11,125,*6E
$GLGSV,3,2,10,81,39,192,39,79,50,320,52,78,69,103,50,80,00,310,31*64
$GLGSV,3,3,10,71,02,014,,69,05,272,25*6F
$GAGSV,3,1,11,30,62,088,33,15,33,159,39,18,14,062,,19,17,313,28*63
$GAGSV,3,2,11,36,18,036,32,02,10,101,,29,22,267,36,34,49,088,41*60
$GAGSV,3,3,11,27,60,298,43,21,09,286,31,07,07,217,22*5F
$GBGSV,5,1,18,25,77,274,48,11,31,189,,05,20,130,,43,24,216,*6F
$GBGSV,5,2,18,10,12,072,,23,25,306,43,56,18,058,,13,17,092,*6E
$GBGSV,5,3,18,38,19,069,30,24,42,137,41,08,18,083,,44,47,059,36*6B
$GBGSV,5,4,18,34,66,182,47,12,70,088,50,02,05,108,,35,04,044,*61
$GBGSV,5,5,18,20,01,352,,60,09,110,*6A
$GPGGA,145942.00,,,,,0,00,,,M,,M,,*47
$PTNL,GGK,145942.00,010125,4742.4467442,N,01617.9743112,E,1,20,1.4,EHT669.0471,M*45
$GPGGQ,145942.00,010125,4742.4467442,N,01617.9743112,E,1,20,2.887,625.8360,M*3C
$GPGFA,145942.00,14.650,19.279,1.541,0.659,7.236,2.351,,VVV*00
$GPLLK,145942.00,010125,,M,,M,1,20,1.7,,M*00
$GNGMP,145942.00,,,,,DAAA,20,0.8,,,,*53
$GPGMP,145942.00,,,,,,06,,,,2.7,123*71
$GLGMP,145942.00,,,,,,04,,,,,*74
$GAGMP,145942.00,,,,,,04,,,,,*79
$GBGMP,145942.00,,,,,,06,,,,,*78
$PSSN,SNC,[0,313200000,2347]*47
$GPZDA,145947.00,01,01,2025,,*69
$GPDTM,W84,,00.0000000,N,00.0000000,E,00.0000000,W84*5F
$GPRMC,145947.00,A,4742.4467471,N,01617.9743038,E,0.0,,010125,5.1,E,D*12
$GPGLL,4742.4467471,N,01617.9743038,E,145947.00,A,D*63
$GPGGA,145947.00,4742.4467471,N,01617.9743038,E,2,20,0.8,625.8215,M,43.2110,M,2.3,0123*4F
$GNGNS,145947.00,4742.4467471,N,01617.9743038,E,DAAA,20,0.8,625.8215,43.2110,,*52
$GPGNS,145947.00,,,,,,06,,,,2.3,123*70
$GLGNS,145947.00,,,,,,04,,,,,*71
$GAGNS,145947.00,,,,,,04,,,,,*7C
$GBGNS,145947.00,,,,,,06,,,,,*7D
$GPLLQ,145947.00,010125,,M,,M,1,20,3.315,,M*1D
$GPVTG,,T,,M,0.01,N,0.01,K,D*26
$GPHDT,,T*1B
$GPTHS,,V*0E
$GPROT,,V*08
$PSSN,HRP,145947.00,010125,,,,,,,00,0,,*6B
$PTNL,AVR,145947.00,,Yaw,,Tilt,,,,0,,00*3D
$GPGSA,A,3,11,12,25,28,29,31,,,,,,,1.4,0.8,1.2*3B
$GPGSA,A,3,78,79,81,88,,,,,,,,,1.4,0.8,1.2*34
$GPGSA,A,3,15,27,29,34,,,,,,,,,1.4,0.8,1.2*31
$GPGSA,A,3,12,23,24,25,34,44,,,,,,,1.4,0.8,1.2*38
$GPGST,145947.00,2.417,1.777,0.758,7.431,1.765,0.786,2.693*52
$GPGBS,145947.00,7.719,3.289,16.279,31,0.0001,-3.377,1.902*42
$GPGRS,145947.00,1,0.0,0.3,0.4,1.5,-0.6,-3.4,,,,,,*46
$GPGRS,145947.00,1,-2.4,-1.7,4.2,0.1,,,,,,,,*43
$GPGRS,145947.00,1,-3.0,-1.2,1.0,0.6,,,,,,,,*43
$GPGRS,145947.00,1,-2.6,-1.0,-1.3,-1.5,3.1,1.7,,,,,,*43
$GPGSV,4,1,16,25,80,074,48,31,25,313,38,32,13,247,25,20,13,086,*7F
$GPGSV,4,2,16,11,35,058,48,28,48,294,42,12,39,097,36,29,67,234,50*78
$GPGSV,4,3,16,24,02,159,,26,05,292,,18,06,186,,06,08,031,22*74
$GPGSV,4,4,16,36,35,170,36,34,31,208,35,49,34,195,37,61,03,257,*70
$GLGSV,3,1,10,88,72,082,43,70,12,331,22,87,19,031,26,77,11,125,*6C
$GLGSV,3,2,10,81,39,192,41,79,50,320,51,78,69,103,50,80,00,310,30*69
$GLGSV,3,3,10,71,03,014,,69,05,272,24*6F
$GAGSV,3,1,11,30,62,088,29,15,33,159,39,18,14,062,,19,17,313,29*69
$GAGSV,3,2,11,36,18,036,31,02,10,101,,29,22,267,35,34,49,088,39*6F
$GAGSV,3,3,11,27,60,298,43,21,09,286,29,07,07,217,23*57
$GBGSV,5,1,18,25,77,273,48,11,31,189,,05,20,130,,43,24,216,*68
$GBGSV,5,2,18,10,12,072,,23,25,306,43,56,18,058,,13,17,092,*6E
$GBGSV,5,3,18,38,19,069,30,24,42,137,42,08,18,083,,44,47,059,36*68
$GBGSV,5,4,18,34,66,182,45,12,70,088,50,02,05,108,,35,04,044,*63
$GBGSV,5,5,18,20,01,352,,60,09,110,*6A
$GPGGA,145947.00,,,,,0,00,,,M,,M,,*42
$PTNL,GGK,145947.00,010125,4742.4467471,N,01617.9743038,E,1,20,1.4,EHT669.0326,M*4C
$GPGGQ,145947.00,010125,4742.4467471,N,01617.9743038,E,1,20,3.315,625.8215,M*32
$GPGFA,145947.00,16.897,22.084,1.777,0.758,7.431,2.693,,VVV*07
$GPLLK,145947.00,010125,,M,,M,1,20,1.7,,M*05
$GNGMP,145947.00,,,,,DAAA,20,0.8,,,,*56
$GPGMP,145947.00,,,,,,06,,,,2.3,123*70
$GLGMP,145947.00,,,,,,04,,,,,*71
$GAGMP,145947.00,,,,,,04,,,,,*7C
$GBGMP,145947.00,,,,,,06,,,,,*7D
$PSSN,SNC,[0,313205000,2347]*42
$GPZDA,145952.00,01,01,2025,,*6D
$GPDTM,W84,,00.0000000,N,00.0000000,E,00.0000000,W84*5F
$GPRMC,145952.00,A,4742.4467444,N,01617.9743109,E,0.0,,010125,5.1,E,D*13
$GPGLL,4742.4467444,N,01617.9743109,E,145952.00,A,D*62
$GPGGA,145952.00,4742.4467444,N,01617.9743109,E,2,18,0.8,625.8157,M,43.2110,M,2.0,0123*43
$GNGNS,145952.00,4742.4467444,N,01617.9743109,E,DAAA,18,0.8,625.8157,43.2110,,*5D
$GPGNS,145952.00,,,,,,06,,,,2.0,123*77
$GLGNS,145952.00,,,,,,04,,,,,*75
$GAGNS,145952.00,,,,,,04,,,,,*78
$GBGNS,145952.00,,,,,,04,,,,,*7B
$GPLLQ,145952.00,010125,,M,,M,1,18,3.902,,M*1E
$GPVTG,,T,,M,0.00,N,0.01,K,D*27
$GPHDT,,T*1B
$GPTHS,,V*0E
$GPROT,,V*08
$PSSN,HRP,145952.00,010125,,,,,,,00,0,,*6F
$PTNL,AVR,145952.00,,Yaw,,Tilt,,,,0,,00*39
$GPGSA,A,3,11,12,25,28,29,31,,,,,,,1.5,0.8,1.2*3A
$GPGSA,A,3,78,79,81,88,,,,,,,,,1.5,0.8,1.2*35
$GPGSA,A,3,15,27,29,34,,,,,,,,,1.5,0.8,1.2*30
$GPGSA,A,3,23,24,25,34,,,,,,,,,1.5,0.8,1.2*3A
$GPGST,145952.00,2.305,2.101,0.893,7.341,2.087,0.925,3.164*5F
$GPGBS,145952.00,7.774,3.233,16.528,31,0.0001,-3.714,1.879*43
$GPGRS,145952.00,1,0.0,-1.8,0.7,1.8,-0.1,-3.7,,,,,,*6F
$GPGRS,145952.00,1,-1.9,-2.2,2.6,1.3,,,,,,,,*4E
$GPGRS,145952.00,1,-2.3,-0.8,1.4,-0.2,,,,,,,,*63
$GPGRS,145952.00,1,-0.5,0.1,-1.4,3.1,,,,,,,,*43
$GPGSV,4,1,16,25,80,074,48,31,25,313,38,32,13,247,29,20,13,086,*73
$GPGSV,4,2,16,11,34,058,47,28,48,294,44,12,39,098,35,29,67,234,51*7D
$GPGSV,4,3,16,24,02,159,,26,05,292,,18,06,186,,06,08,031,19*7C
$GPGSV,4,4,16,36,35,170,36,34,31,208,35,49,34,195,36,61,03,257,*71
$GLGSV,3,1,10,88,72,082,42,70,12,331,,87,19,031,28,77,11,125,*63
$GLGSV,3,2,10,81,39,192,42,79,50,320,51,78,69,103,51,80,00,310,32*69
$GLGSV,3,3,10,71,03,014,,69,05,272,25*6E
$GAGSV,3,1,11,30,62,088,28,15,33,159,39,18,14,062,,19,17,313,30*60
$GAGSV,3,2,11,36,18,036,29,02,10,101,,29,22,267,36,34,49,088,37*6B
$GAGSV,3,3,11,27,60,298,44,21,09,286,28,07,07,217,24*56
$GBGSV,5,1,18,25,77,273,48,11,31,189,,05,20,130,,43,24,216,*68
$GBGSV,5,2,18,10,12,072,,23,25,306,43,56,18,058,,13,17,092,*6E
$GBGSV,5,3,18,38,19,069,29,24,42,137,42,08,18,083,,44,47,059,35*63
$GBGSV,5,4,18,34,66,182,44,12,70,088,31,02,05,108,,35,04,044,*65
$GBGSV,5,5,18,20,01,352,,60,09,110,*6A
$GPGGA,145952.00,,,,,0,00,,,M,,M,,*46
$PTNL,GGK,145952.00,010125,4742.4467444,N,01617.9743109,E,1,18,1.5,EHT669.0267,M*43
$GPGGQ,145952.00,010125,4742.4467444,N,01617.9743109,E,1,18,3.902,625.8157,M*31
$GPGFA,145952.00,19.974,25.945,2.101,0.893,7.341,3.164,,VVV*01
$GPLLK,145952.00,010125,,M,,M,1,18,1.7,,M*0A
$GNGMP,145952.00,,,,,DAAA,18,0.8,,,,*59
$GPGMP,145952.00,,,,,,06,,,,2.0,123*77
$GLGMP,145952.00,,,,,,04,,,,,*75
$GAGMP,145952.00,,,,,,04,,,,,*78
$GBGMP,145952.00,,,,,,04,,,,,*7B
$PSSN,SNC,[0,313210000,2347]*46
$GPZDA,145957.00,01,01,2025,,*68
$GPDTM,W84,,00.0000000,N,00.0000000,E,00.0000000,W84*5F
$GPRMC,145957.00,A,4742.4467449,N,01617.9743181,E,0.0,,010125,5.1,E,D*1B
$GPGLL,4742.4467449,N,01617.9743181,E,145957.00,A,D*6A
$GPGGA,145957.00,4742.4467449,N,01617.9743181,E,2,19,0.8,625.7986,M,43.2110,M,3.0,0123*40
$GNGNS,145957.00,4742.4467449,N,01617.9743181,E,DAAA,19,0.8,625.7986,43.2110,,*5F
$GPGNS,145957.00,,,,,,05,,,,3.0,123*70
$GLGNS,145957.00,,,,,,04,,,,,*70
$GAGNS,145957.00,,,,,,04,,,,,*7D
$GBGNS,145957.00,,,,,,06,,,,,*7C
$GPLLQ,145957.00,010125,,M,,M,1,19,3.495,,M*19
$GPVTG,,T,,M,0.01,N,0.01,K,D*26
$GPHDT,,T*1B
$GPTHS,,V*0E
$GPROT,,V*08
$PSSN,HRP,145957.00,010125,,,,,,,00,0,,*6A
$PTNL,AVR,145957.00,,Yaw,,Tilt,,,,0,,00*3C
$GPGSA,A,3,11,25,28,29,31,,,,,,,,1.5,0.8,1.2*39
$GPGSA,A,3,78,79,81,88,,,,,,,,,1.5,0.8,1.2*35
$GPGSA,A,3,15,27,29,34,,,,,,,,,1.5,0.8,1.2*30
$GPGSA,A,3,12,23,24,25,34,44,,,,,,,1.5,0.8,1.2*39
$GPGST,145957.00,1.962,1.853,0.789,1.020,1.853,0.790,2.856*52
$GPGBS,145957.00,11.818,5.371,18.348,31,0.0001,-2.890,1.889*76
$GPGRS,145957.00,1,-0.5,0.5,1.1,0.4,-2.9,,,,,,,*64
$GPGRS,145957.00,1,-1.8,-1.8,1.7,0.4,,,,,,,,*47
$GPGRS,145957.00,1,-2.1,-1.0,2.1,-1.2,,,,,,,,*6A
$GPGRS,145957.00,1,-2.1,-0.0,-0.3,-1.5,2.5,1.4,,,,,,*43
$GPGSV,4,1,16,25,80,074,47,31,25,313,39,32,13,247,,20,13,086,*76
$GPGSV,4,2,16,11,34,058,47,28,48,294,45,12,39,098,35,29,67,234,51*7C
$GPGSV,4,3,16,24,02,159,,26,05,292,,18,06,186,,06,08,031,20*76
$GPGSV,4,4,16,36,35,170,36,34,31,208,35,49,34,195,36,61,03,257,*71
$GLGSV,3,1,10,88,72,082,42,70,12,331,,87,19,031,29,77,11,125,*62
$GLGSV,3,2,10,81,39,192,42,79,50,320,51,78,69,103,51,80,00,310,32*69
$GLGSV,3,3,10,71,03,014,,69,05,272,23*68
$GAGSV,3,1,11,30,62,088,30,15,33,159,39,18,14,062,,19,17,313,31*68
$GAGSV,3,2,11,36,18,036,27,02,10,101,,29,22,267,37,34,49,088,35*66
$GAGSV,3,3,11,27,60,298,44,21,09,286,27,07,07,217,24*59
$GBGSV,5,1,18,25,77,273,48,11,31,189,,05,20,130,,43,24,216,*68
$GBGSV,5,2,18,10,12,072,,23,25,306,43,56,18,058,,13,17,092,*6E
$GBGSV,5,3,18,38,19,069,28,24,42,137,42,08,18,083,,44,47,059,35*62
$GBGSV,5,4,18,34,66,182,42,12,70,088,50,02,05,108,,35,04,044,*64
$GBGSV,5,5,18,20,01,352,,60,09,110,*6A
$GPGGA,145957.00,,,,,0,00,,,M,,M,,*43
$PTNL,GGK,145957.00,010125,4742.4467449,N,01617.9743181,E,1,19,1.5,EHT669.0097,M*47
$GPGGQ,145957.00,010125,4742.4467449,N,01617.9743181,E,1,19,3.495,625.7986,M*30
$GPGFA,145957.00,17.620,23.419,1.853,0.789,1.020,2.856,,VVV*04
$GPLLK,145957.00,010125,,M,,M,1,19,1.8,,M*01
$GNGMP,145957.00,,,,,DAAA,19,0.8,,,,*5D
$GPGMP,145957.00,,,,,,05,,,,3.0,123*70
$GLGMP,145957.00,,,,,,04,,,,,*70
$GAGMP,145957.00,,,,,,04,,,,,*7D
$GBGMP,145957.00,,,,,,06,,,,,*7C
$PSSN,SNC,[0,313215000,2347]*43
$GPZDA,150002.00,01,01,2025,,*65
$GPDTM,W84,,00.0000000,N,00.0000000,E,00.0000000,W84*5F
$GPRMC,150002.00,A,4742.4467453,N,01617.9743194,E,0.0,,010125,5.1,E,D*19
$GPGLL,4742.4467453,N,01617.9743194,E,150002.00,A,D*68
$GPGGA,150002.00,4742.4467453,N,01617.9743194,E,2,18,0.8,625.7928,M,43.2110,M,2.4,0123*42
$GNGNS,150002.00,4742.4467453,N,01617.9743194,E,DAAA,18,0.8,625.7928,43.2110,,*58
$GPGNS,150002.00,,,,,,05,,,,2.4,123*78
$GLGNS,150002.00,,,,,,04,,,,,*7D
$GAGNS,150002.00,,,,,,03,,,,,*77
$GBGNS,150002.00,,,,,,06,,,,,*71
$GPLLQ,150002.00,010125,,M,,M,1,18,2.973,,M*11
$GPVTG,,T,,M,0.01,N,0.01,K,D*26
$GPHDT,,T*1B
$GPTHS,,V*0E
$GPROT,,V*08
$PSSN,HRP,150002.00,010125,,,,,,,00,0,,*67
$PTNL,AVR,150002.00,,Yaw,,Tilt,,,,0,,00*31
$GPGSA,A,3,11,25,28,29,31,,,,,,,,1.5,0.8,1.3*38
$GPGSA,A,3,78,79,81,88,,,,,,,,,1.5,0.8,1.3*34
$GPGSA,A,3,15,27,29,,,,,,,,,,1.5,0.8,1.3*36
$GPGSA,A,3,12,23,24,25,34,44,,,,,,,1.5,0.8,1.3*38
$GPGST,150002.00,1.874,1.568,0.629,2.119,1.567,0.631,2.446*52
$GPGBS,150002.00,12.284,5.433,18.348,31,0.0001,-2.528,1.895*75
$GPGRS,150002.00,1,0.3,0.1,0.4,0.1,-2.5,,,,,,,*4B
$GPGRS,150002.00,1,-1.7,-1.8,1.5,-1.0,,,,,,,,*6F
$GPGRS,150002.00,1,-2.1,-1.3,2.0,,,,,,,,,*65
$GPGRS,150002.00,1,-2.5,-0.4,-0.9,-1.8,0.3,1.2,,,,,,*4B
$GPGSV,4,1,16,25,80,074,47,31,25,313,41,32,13,247,,20,13,086,*79
$GPGSV,4,2,16,11,34,058,46,28,48,294,45,12,39,098,35,29,67,234,51*7D
$GPGSV,4,3,16,24,02,159,,26,05,292,,18,06,186,,06,08,031,21*77
$GPGSV,4,4,16,36,35,170,36,34,31,208,35,49,34,195,36,61,03,257,*71
$GLGSV,3,1,10,88,72,082,37,70,11,331,25,87,19,031,30,77,11,125,*6C
$GLGSV,3,2,10,81,39,192,42,79,50,320,51,78,68,103,52,80,00,310,30*69
$GLGSV,3,3,10,71,03,014,,69,05,272,*69
$GAGSV,3,1,11,30,62,088,32,15,33,159,39,18,14,062,,19,17,313,32*69
$GAGSV,3,2,11,36,18,036,26,02,10,101,,29,22,267,37,34,49,088,35*67
$GAGSV,3,3,11,27,60,298,43,21,09,286,27,07,07,217,26*5C
$GBGSV,5,1,18,25,77,273,48,11,31,189,,05,20,130,,43,24,216,*68
$GBGSV,5,2,18,10,12,072,,23,25,306,43,56,18,058,,13,17,092,*6E
$GBGSV,5,3,18,38,19,069,28,24,42,138,41,08,18,083,,44,47,059,36*6D
$GBGSV,5,4,18,34,66,182,41,12,70,088,50,02,05,108,,35,04,044,*67
$GBGSV,5,5,18,20,01,352,,60,09,110,*6A
$GPGGA,150002.00,,,,,0,00,,,M,,M,,*4E
$PTNL,GGK,150002.00,010125,4742.4467453,N,01617.9743194,E,1,18,1.5,EHT669.0039,M*40
$GPGGQ,150002.00,010125,4742.4467453,N,01617.9743194,E,1,18,2.973,625.7928,M*33
$GPGFA,150002.00,14.907,20.058,1.568,0.629,2.119,2.446,,VVV*09
$GPLLK,150002.00,010125,,M,,M,1,18,1.8,,M*0D
$GNGMP,150002.00,,,,,DAAA,18,0.8,,,,*51
$GPGMP,150002.00,,,,,,05,,,,2.4,123*78
$GLGMP,150002.00,,,,,,04,,,,,*7D
$GAGMP,150002.00,,,,,,03,,,,,*77
$GBGMP,150002.00,,,,,,06,,,,,*71
$PSSN,SNC,[0,313220000,2347]*45
$GPZDA,150007.00,01,01,2025,,*60
$GPDTM,W84,,00.0000000,N,00.0000000,E,00.0000000,W84*5F
$GPRMC,150007.00,A,4742.4467474,N,01617.9743166,E,0.0,,010125,5.1,E,D*14
$GPGLL,4742.4467474,N,01617.9743166,E,150007.00,A,D*65
$GPGGA,150007.00,4742.4467474,N,01617.9743166,E,2,17,0.8,625.7844,M,43.2110,M,2.0,0123*4F
$GNGNS,150007.00,4742.4467474,N,01617.9743166,E,DAAA,17,0.8,625.7844,43.2110,,*51
$GPGNS,150007.00,,,,,,06,,,,2.0,123*7A
$GLGNS,150007.00,,,,,,03,,,,,*7F
$GAGNS,150007.00,,,,,,03,,,,,*72
$GBGNS,150007.00,,,,,,05,,,,,*77
$GPLLQ,150007.00,010125,,M,,M,1,17,2.549,,M*1E
$GPVTG,,T,,M,0.00,N,0.01,K,D*27
$GPHDT,,T*1B
$GPTHS,,V*0E
$GPROT,,V*08
$PSSN,HRP,150007.00,010125,,,,,,,00,0,,*62
$PTNL,AVR,150007.00,,Yaw,,Tilt,,,,0,,00*34
$GPGSA,A,3,11,12,25,28,29,31,,,,,,,1.5,0.8,1.3*3B
$GPGSA,A,3,78,79,81,,,,,,,,,,1.5,0.8,1.3*34
$GPGSA,A,3,15,27,29,,,,,,,,,,1.5,0.8,1.3*36
$GPGSA,A,3,23,24,25,34,44,,,,,,,,1.5,0.8,1.3*3B
$GPGST,150007.00,1.845,1.356,0.534,9.253,1.341,0.571,2.091*5C
$GPGBS,150007.00,7.976,3.328,17.227,31,0.0001,-1.248,1.872*45
$GPGRS,150007.00,1,0.3,0.2,0.2,-0.3,-0.1,-1.2,,,,,,*62
$GPGRS,150007.00,1,-1.6,-2.5,2.3,,,,,,,,,*62
$GPGRS,150007.00,1,-2.0,-1.1,1.2,,,,,,,,,*62
$GPGRS,150007.00,1,-1.1,-1.0,-1.2,-0.5,2.8,,,,,,,*6E
$GPGSV,4,1,16,25,80,075,47,31,25,313,43,32,13,247,,20,13,086,*7A
$GPGSV,4,2,16,11,34,058,46,28,48,294,45,12,39,098,35,29,67,234,51*7D
$GPGSV,4,3,16,24,02,159,,26,05,292,,18,06,186,,06,08,031,20*76
$GPGSV,4,4,16,36,35,170,36,34,31,208,35,49,34,195,36,61,03,257,*71
$GLGSV,3,1,10,88,72,082,33,70,11,331,22,87,19,031,30,77,11,125,*6F
$GLGSV,3,2,10,81,39,192,43,79,51,320,50,78,68,103,52,80,00,310,29*60
$GLGSV,3,3,10,71,03,014,,69,05,272,*69
$GAGSV,3,1,11,30,62,089,33,15,33,159,39,18,14,062,,19,17,313,33*68
$GAGSV,3,2,11,36,18,036,23,02,10,101,,29,22,267,37,34,49,088,34*63
$GAGSV,3,3,11,27,60,298,43,21,09,286,28,07,07,217,25*50
$GBGSV,5,1,18,25,77,273,49,11,31,189,,05,20,130,,43,24,216,*69
$GBGSV,5,2,18,10,12,072,,23,25,306,42,56,18,058,,13,17,092,*6F
$GBGSV,5,3,18,38,19,069,27,24,42,138,40,08,18,083,,44,47,059,37*62
$GBGSV,5,4,18,34,66,182,41,12,70,088,33,02,05,108,,35,04,044,*62
$GBGSV,5,5,18,20,01,352,,60,09,110,*6A
$GPGGA,150007.00,,,,,0,00,,,M,,M,,*4B
$PTNL,GGK,150007.00,010125,4742.4467474,N,01617.9743166,E,1,17,1.5,EHT668.9954,M*48
$GPGGQ,150007.00,010125,4742.4467474,N,01617.9743166,E,1,17,2.549,625.7844,M*3F
$GPGFA,150007.00,12.888,17.147,1.356,0.534,9.253,2.091,,VVV*0B
$GPLLK,150007.00,010125,,M,,M,1,17,1.8,,M*07
$GNGMP,150007.00,,,,,DAAA,17,0.8,,,,*5B
$GPGMP,150007.00,,,,,,06,,,,2.0,123*7A
$GLGMP,150007.00,,,,,,03,,,,,*7F
$GAGMP,150007.00,,,,,,03,,,,,*72
$GBGMP,150007.00,,,,,,05,,,,,*77
$PSSN,SNC,[0,313225000,2347]*40
$GPZDA,150012.00,01,01,2025,,*64
$GPDTM,W84,,00.0000000,N,00.0000000,E,00.0000000,W84*5F
$GPRMC,150012.00,A,4742.4467496,N,01617.9743114,E,0.0,,010125,5.1,E,D*19
$GPGLL,4742.4467496,N,01617.9743114,E,150012.00,A,D*68
$GPGGA,150012.00,4742.4467496,N,01617.9743114,E,2,18,0.8,625.7810,M,43.2110,M,3.0,0123*4D
$GNGNS,150012.00,4742.4467496,N,01617.9743114,E,DAAA,18,0.8,625.7810,43.2110,,*52
$GPGNS,150012.00,,,,,,06,,,,3.0,123*7F
$GLGNS,150012.00,,,,,,04,,,,,*7C
$GAGNS,150012.00,,,,,,03,,,,,*76
$GBGNS,150012.00,,,,,,05,,,,,*73
$GPLLQ,150012.00,010125,,M,,M,1,18,2.477,,M*19
$GPVTG,,T,,M,0.00,N,0.00,K,D*26
$GPHDT,,T*1B
$GPTHS,,V*0E
$GPROT,,V*08
$PSSN,HRP,150012.00,010125,,,,,,,00,0,,*66
$PTNL,AVR,150012.00,,Yaw,,Tilt,,,,0,,00*30
$GPGSA,A,3,11,12,25,28,29,31,,,,,,,1.5,0.8,1.2*3A
$GPGSA,A,3,78,79,81,88,,,,,,,,,1.5,0.8,1.2*35
$GPGSA,A,3,15,27,29,,,,,,,,,,1.5,0.8,1.2*37
$GPGSA,A,3,23,24,25,34,44,,,,,,,,1.5,0.8,1.2*3A
$GPGST,150012.00,2.753,1.320,0.563,7.090,1.312,0.582,2.019*59
$GPGBS,150012.00,7.915,3.331,17.080,12,0.0001,1.173,1.115*6C
$GPGRS,150012.00,1,0.4,1.2,0.1,-0.2,-0.1,-1.6,,,,,,*66
$GPGRS,150012.00,1,-2.1,-2.8,2.2,-3.0,,,,,,,,*6E
$GPGRS,150012.00,1,-2.4,-0.9,0.8,,,,,,,,,*60
$GPGRS,150012.00,1,-1.7,-1.4,-0.3,-3.0,5.7,,,,,,,*66
$GPGSV,4,1,16,25,80,075,46,31,25,313,45,32,13,247,,20,13,086,*7D
$GPGSV,4,2,16,11,34,058,46,28,48,294,45,12,39,098,35,29,67,234,51*7D
$GPGSV,4,3,16,24,02,159,,26,05,292,,18,06,186,,06,08,031,20*76
$GPGSV,4,4,16,36,35,170,36,34,31,208,35,49,34,195,36,61,03,257,*71
$GLGSV,3,1,10,88,72,081,39,70,11,331,26,87,19,031,29,77,11,125,*6A
$GLGSV,3,2,10,81,39,192,43,79,51,320,50,78,68,104,51,80,00,310,31*6D
$GLGSV,3,3,10,71,03,014,,69,05,272,*69
$GAGSV,3,1,11,30,62,089,34,15,33,159,39,18,14,062,,19,17,313,34*68
$GAGSV,3,2,11,36,18,036,24,02,10,101,,29,22,267,38,34,49,088,34*6B
$GAGSV,3,3,11,27,60,298,43,21,09,286,29,07,07,217,26*52
$GBGSV,5,1,18,25,77,273,49,11,31,189,,05,20,130,,43,24,216,*69
$GBGSV,5,2,18,10,12,072,,23,25,306,43,56,18,058,,13,17,092,*6E
$GBGSV,5,3,18,38,19,069,28,24,42,138,39,08,18,083,,44,47,059,37*63
$GBGSV,5,4,18,34,67,182,43,12,70,088,35,02,05,108,,35,04,044,*67
$GBGSV,5,5,18,20,01,352,,60,09,110,*6A
$GPGGA,150012.00,,,,,0,00,,,M,,M,,*4F
$PTNL,GGK,150012.00,010125,4742.4467496,N,01617.9743114,E,1,18,1.5,EHT668.9920,M*49
$GPGGQ,150012.00,010125,4742.4467496,N,01617.9743114,E,1,18,2.477,625.7810,M*30
$GPGFA,150012.00,12.552,16.556,1.320,0.563,7.090,2.019,,VVV*00
$GPLLK,150012.00,010125,,M,,M,1,18,1.7,,M*03
$GNGMP,150012.00,,,,,DAAA,18,0.8,,,,*50
$GPGMP,150012.00,,,,,,06,,,,3.0,123*7F
$GLGMP,150012.00,,,,,,04,,,,,*7C
$GAGMP,150012.00,,,,,,03,,,,,*76
$GBGMP,150012.00,,,,,,05,,,,,*73
$PSSN,SNC,[0,313230000,2347]*44
$GPZDA,150017.00,01,01,2025,,*61
$GPDTM,W84,,00.0000000,N,00.0000000,E,00.0000000,W84*5F
$GPRMC,150017.00,A,4742.4467544,N,01617.9742986,E,0.0,,010125,5.1,E,D*10
$GPGLL,4742.4467544,N,01617.9742986,E,150017.00,A,D*61
$GPGGA,150017.00,4742.4467544,N,01617.9742986,E,2,20,0.8,625.7820,M,43.2110,M,2.7,0123*4A
$GNGNS,150017.00,4742.4467544,N,01617.9742986,E,DAAA,20,0.8,625.7820,43.2110,,*53
$GPGNS,150017.00,,,,,,06,,,,2.7,123*7C
$GLGNS,150017.00,,,,,,04,,,,,*79
$GAGNS,150017.00,,,,,,04,,,,,*74
$GBGNS,150017.00,,,,,,06,,,,,*75
$GPLLQ,150017.00,010125,,M,,M,1,20,3.267,,M*11
$GPVTG,,T,,M,0.00,N,0.01,K,D*27
$GPHDT,,T*1B
$GPTHS,,V*0E
$GPROT,,V*08
$PSSN,HRP,150017.00,010125,,,,,,,00,0,,*63
$PTNL,AVR,150017.00,,Yaw,,Tilt,,,,0,,00*35
$GPGSA,A,3,11,12,25,28,29,31,,,,,,,1.4,0.8,1.2*3B
$GPGSA,A,3,78,79,81,88,,,,,,,,,1.4,0.8,1.2*34
$GPGSA,A,3,15,27,29,30,,,,,,,,,1.4,0.8,1.2*35
$GPGSA,A,3,12,23,24,25,34,44,,,,,,,1.4,0.8,1.2*38
$GPGST,150017.00,3.213,1.765,0.722,7.507,1.753,0.752,2.652*52
$GPGBS,150017.00,7.633,3.079,16.038,12,0.0001,2.157,1.085*62
$GPGRS,150017.00,1,-0.3,2.2,-0.1,0.3,-0.5,-2.3,,,,,,*49
$GPGRS,150017.00,1,-2.3,-2.6,1.5,-0.6,,,,,,,,*66
$GPGRS,150017.00,1,-2.6,-0.5,0.0,0.9,,,,,,,,*44
$GPGRS,150017.00,1,1.7,-2.2,-1.0,0.2,-4.5,8.5,,,,,,*68
$GPGSV,5,1,17,25,80,075,45,31,25,313,45,32,13,246,29,20,13,086,*74
$GPGSV,5,2,17,11,34,058,46,28,48,294,45,12,39,098,35,29,67,234,51*7D
$GPGSV,5,3,17,26,05,292,,24,02,159,,05,00,116,,06,08,031,21*74
$GPGSV,5,4,17,18,07,186,,36,35,170,36,34,31,208,35,49,34,195,36*74
$GPGSV,5,5,17,61,03,257,*4B
$GLGSV,3,1,10,88,72,081,42,70,11,331,26,87,19,031,30,77,11,125,*6E
$GLGSV,3,2,10,81,39,192,43,79,51,320,50,78,68,104,51,80,00,310,31*6D
$GLGSV,3,3,10,71,03,014,,69,05,272,*69
$GAGSV,3,1,11,30,62,089,36,15,33,159,38,18,14,062,,19,17,313,34*6B
$GAGSV,3,2,11,36,18,036,24,02,10,101,19,29,22,267,39,34,49,088,34*62
$GAGSV,3,3,11,27,60,298,43,21,09,286,28,07,07,217,26*53
$GBGSV,5,1,18,25,77,273,49,11,31,189,,05,20,130,,43,24,216,*69
$GBGSV,5,2,18,10,12,072,,23,25,306,43,56,18,058,,13,17,092,*6E
$GBGSV,5,3,18,38,19,069,27,24,41,138,38,08,18,083,,44,47,059,38*61
$GBGSV,5,4,18,34,67,182,44,12,70,088,38,02,05,108,,35,04,044,*6D
$GBGSV,5,5,18,20,01,352,,60,09,110,*6A
$GPGGA,150017.00,,,,,0,00,,,M,,M,,*4A
$PTNL,GGK,150017.00,010125,4742.4467544,N,01617.9742986,E,1,20,1.4,EHT668.9931,M*4A
$GPGGQ,150017.00,010125,4742.4467544,N,01617.9742986,E,1,20,3.267,625.7820,M*37
$GPGFA,150017.00,16.783,21.750,1.765,0.722,7.507,2.652,,VVV*0F
$GPLLK,150017.00,010125,,M,,M,1,20,1.7,,M*0D
$GNGMP,150017.00,,,,,DAAA,20,0.8,,,,*5E
$GPGMP,150017.00,,,,,,06,,,,2.7,123*7C
$GLGMP,150017.00,,,,,,04,,,,,*79
$GAGMP,150017.00,,,,,,04,,,,,*74
$GBGMP,150017.00,,,,,,06,,,,,*75
$PSSN,SNC,[0,313235000,2347]*41
$GPZDA,150022.00,01,01,2025,,*67
$GPDTM,W84,,00.0000000,N,00.0000000,E,00.0000000,W84*5F
$GPRMC,150022.00,A,4742.4467609,N,01617.9742802,E,0.0,,010125,5.1,E,D*11
$GPGLL,4742.4467609,N,01617.9742802,E,150022.00,A,D*60
$GPGGA,150022.00,4742.4467609,N,01617.9742802,E,2,20,0.8,625.7844,M,43.2110,M,2.3,0123*4D
$GNGNS,150022.00,4742.4467609,N,01617.9742802,E,DAAA,20,0.8,625.7844,43.2110,,*50
$GPGNS,150022.00,,,,,,06,,,,2.3,123*7E
$GLGNS,150022.00,,,,,,04,,,,,*7F
$GAGNS,150022.00,,,,,,04,,,,,*72
$GBGNS,150022.00,,,,,,06,,,,,*73
$GPLLQ,150022.00,010125,,M,,M,1,20,4.883,,M*10
$GPVTG,,T,,M,0.00,N,0.01,K,D*27
$GPHDT,,T*1B
$GPTHS,,V*0E
$GPROT,,V*08
$PSSN,HRP,150022.00,010125,,,,,,,00,0,,*65
$PTNL,AVR,150022.00,,Yaw,,Tilt,,,,0,,00*33
$GPGSA,A,3,11,12,25,28,29,31,,,,,,,1.4,0.8,1.2*3B
$GPGSA,A,3,78,79,81,88,,,,,,,,,1.4,0.8,1.2*34
$GPGSA,A,3,15,27,29,30,,,,,,,,,1.4,0.8,1.2*35
$GPGSA,A,3,12,23,24,25,34,44,,,,,,,1.4,0.8,1.2*38
$GPGST,150022.00,3.359,2.649,1.078,7.680,2.629,1.125,3.957*51
$GPGBS,150022.00,7.805,3.079,15.779,12,0.0001,4.016,1.091*69
$GPGRS,150022.00,1,0.3,4.0,-0.3,0.2,-0.9,-3.5,,,,,,*6E
$GPGRS,150022.00,1,-2.2,-2.9,0.3,-0.2,,,,,,,,*6D
$GPGRS,150022.00,1,-3.2,-0.1,-0.2,0.3,,,,,,,,*66
$GPGRS,150022.00,1,3.0,-2.7,1.2,0.0,-3.6,8.0,,,,,,*42
$GPGSV,5,1,17,25,80,075,45,31,25,313,46,32,13,246,26,20,13,086,*78
$GPGSV,5,2,17,11,34,058,47,28,48,294,45,12,38,098,37,29,67,234,51*7F
$GPGSV,5,3,17,26,05,292,,24,02,159,,05,00,116,,06,08,031,21*74
$GPGSV,5,4,17,18,07,186,,36,35,170,36,34,31,208,35,49,34,195,37*75
$GPGSV,5,5,17,61,03,257,*4B
$GLGSV,3,1,10,88,72,081,44,70,11,331,27,87,19,031,31,77,10,125,*69
$GLGSV,3,2,10,81,39,192,43,79,51,320,50,78,68,104,51,80,01,310,29*65
$GLGSV,3,3,10,71,03,014,,69,04,272,25*6F
$GAGSV,3,1,11,30,62,089,37,15,33,159,38,18,14,062,,19,17,313,34*6A
$GAGSV,3,2,11,36,18,036,24,02,10,101,,29,22,267,39,34,49,088,32*6C
$GAGSV,3,3,11,27,60,298,43,21,09,286,29,07,07,217,27*53
$GBGSV,5,1,18,25,77,273,49,11,31,189,,05,20,130,,43,24,216,*69
$GBGSV,5,2,18,10,12,072,,23,25,306,44,56,18,058,,13,17,092,*69
$GBGSV,5,3,18,38,19,069,27,24,41,138,38,08,18,083,,44,47,059,38*61
$GBGSV,5,4,18,34,67,182,45,12,70,087,39,02,05,108,,35,04,044,*62
$GBGSV,5,5,18,20,01,352,,60,09,110,*6A
$GPGGA,150022.00,,,,,0,00,,,M,,M,,*4C
$PTNL,GGK,150022.00,010125,4742.4467609,N,01617.9742802,E,1,20,1.4,EHT668.9954,M*48
$GPGGQ,150022.00,010125,4742.4467609,N,01617.9742802,E,1,20,4.883,625.7844,M*33
$GPGFA,150022.00,25.186,32.451,2.649,1.078,7.680,3.957,,VVV*08
$GPLLK,150022.00,010125,,M,,M,1,20,1.7,,M*0B
$GNGMP,150022.00,,,,,DAAA,20,0.8,,,,*58
$GPGMP,150022.00,,,,,,06,,,,2.3,123*7E
$GLGMP,150022.00,,,,,,04,,,,,*7F
$GAGMP,150022.00,,,,,,04,,,,,*72
$GBGMP,150022.00,,,,,,06,,,,,*73
$PSSN,SNC,[0,313240000,2347]*43
$GPZDA,150027.00,01,01,2025,,*62
$GPDTM,W84,,00.0000000,N,00.0000000,E,00.0000000,W84*5F
$GPRMC,150027.00,A,4742.4467609,N,01617.9742686,E,0.0,,010125,5.1,E,D*16
$GPGLL,4742.4467609,N,01617.9742686,E,150027.00,A,D*67
$GPGGA,150027.00,4742.4467609,N,01617.9742686,E,2,19,0.8,625.7800,M,43.2110,M,1.8,0123*48
$GNGNS,150027.00,4742.4467609,N,01617.9742686,E,DAAA,19,0.8,625.7800,43.2110,,*5D
$GPGNS,150027.00,,,,,,05,,,,1.8,123*70
$GLGNS,150027.00,,,,,,04,,,,,*7A
$GAGNS,150027.00,,,,,,04,,,,,*77
$GBGNS,150027.00,,,,,,06,,,,,*76
$GPLLQ,150027.00,010125,,M,,M,1,19,3.842,,M*15
$GPVTG,,T,,M,0.01,N,0.01,K,D*26
$GPHDT,,T*1B
$GPTHS,,V*0E
$GPROT,,V*08
$PSSN,HRP,150027.00,010125,,,,,,,00,0,,*60
$PTNL,AVR,150027.00,,Yaw,,Tilt,,,,0,,00*36
$GPGSA,A,3,11,25,28,29,31,,,,,,,,1.5,0.8,1.3*38
$GPGSA,A,3,78,79,81,88,,,,,,,,,1.5,0.8,1.3*34
$GPGSA,A,3,15,27,29,30,,,,,,,,,1.5,0.8,1.3*35
$GPGSA,A,3,12,23,24,25,34,44,,,,,,,1.5,0.8,1.3*38
$GPGST,150027.00,3.224,2.069,0.794,354.932,2.062,0.812,3.138*58
$GPGBS,150027.00,11.821,5.514,17.228,31,0.0001,-2.702,1.609*79
$GPGRS,150027.00,1,1.3,0.2,0.2,-0.4,-2.7,,,,,,,*62
$GPGRS,150027.00,1,-1.6,-1.6,-0.2,1.0,,,,,,,,*61
$GPGRS,150027.00,1,-2.6,1.1,-0.0,0.7,,,,,,,,*4C
$GPGRS,150027.00,1,2.7,-2.4,8.6,0.1,-3.2,1.7,,,,,,*44
$GPGSV,5,1,17,25,80,075,44,31,25,313,47,32,13,246,27,20,13,086,*79
$GPGSV,5,2,17,11,34,058,47,28,48,294,45,12,38,098,39,29,67,234,50*70
$GPGSV,5,3,17,26,05,292,,24,02,159,,05,00,116,,06,08,031,*77
$GPGSV,5,4,17,18,07,186,,36,35,170,36,34,31,208,35,49,34,195,36*74
$GPGSV,5,5,17,61,03,257,*4B
$GLGSV,3,1,10,88,72,081,45,70,11,331,,87,19,031,32,77,10,125,*6E
$GLGSV,3,2,10,81,39,192,44,79,51,320,50,78,68,104,51,80,01,310,33*69
$GLGSV,3,3,10,71,03,014,,69,04,272,24*6E
$GAGSV,3,1,11,30,62,089,39,15,33,159,39,18,14,062,,19,17,313,34*65
$GAGSV,3,2,11,36,18,036,26,02,10,101,,29,22,267,39,34,49,088,32*6E
$GAGSV,3,3,11,27,60,298,44,21,09,286,28,07,07,217,27*55
$GBGSV,5,1,18,25,77,272,49,11,31,189,,05,20,130,,43,24,216,*68
$GBGSV,5,2,18,10,12,072,,23,25,306,44,56,18,058,,13,17,092,*69
$GBGSV,5,3,18,38,19,069,27,24,41,138,38,08,18,083,,44,47,059,38*61
$GBGSV,5,4,18,34,67,182,46,12,70,087,40,02,05,108,,35,04,044,*6F
$GBGSV,5,5,18,20,01,352,,60,09,110,*6A
$GPGGA,150027.00,,,,,0,00,,,M,,M,,*49
$PTNL,GGK,150027.00,010125,4742.4467609,N,01617.9742686,E,1,19,1.5,EHT668.9911,M*45
$GPGGQ,150027.00,010125,4742.4467609,N,01617.9742686,E,1,19,3.842,625.7800,M*34
$GPGFA,150027.00,19.674,25.730,2.069,0.794,354.932,3.138,,VVV*08
$GPLLK,150027.00,010125,,M,,M,1,19,1.8,,M*0B
$GNGMP,150027.00,,,,,DAAA,19,0.8,,,,*57
$GPGMP,150027.00,,,,,,05,,,,1.8,123*70
$GLGMP,150027.00,,,,,,04,,,,,*7A
$GAGMP,150027.00,,,,,,04,,,,,*77
$GBGMP,150027.00,,,,,,06,,,,,*76
$PSSN,SNC,[0,313245000,2347]*46
$GPZDA,150032.00,01,01,2025,,*66
$GPDTM,W84,,00.0000000,N,00.0000000,E,00.0000000,W84*5F
$GPRMC,150032.00,A,4742.4467601,N,01617.9742575,E,0.0,,010125,5.1,E,D*15
$GPGLL,4742.4467601,N,01617.9742575,E,150032.00,A,D*64
$GPGGA,150032.00,4742.4467601,N,01617.9742575,E,2,20,0.7,625.7786,M,43.2110,M,2.8,0123*4C
$GNGNS,150032.00,4742.4467601,N,01617.9742575,E,DAAA,20,0.7,625.7786,43.2110,,*5A
$GPGNS,150032.00,,,,,,05,,,,2.8,123*77
$GLGNS,150032.00,,,,,,04,,,,,*7E
$GAGNS,150032.00,,,,,,05,,,,,*72
$GBGNS,150032.00,,,,,,06,,,,,*72
$GPLLQ,150032.00,010125,,M,,M,1,20,4.605,,M*11
$GPVTG,,T,,M,0.00,N,0.01,K,D*27
$GPHDT,,T*1B
$GPTHS,,V*0E
$GPROT,,V*08
$PSSN,HRP,150032.00,010125,,,,,,,00,0,,*64
$PTNL,AVR,150032.00,,Yaw,,Tilt,,,,0,,00*32
$GPGSA,A,3,11,25,28,29,31,,,,,,,,1.3,0.7,1.1*33
$GPGSA,A,3,78,79,81,88,,,,,,,,,1.3,0.7,1.1*3F
$GPGSA,A,3,15,27,29,30,36,,,,,,,,1.3,0.7,1.1*3B
$GPGSA,A,3,12,23,24,25,34,44,,,,,,,1.3,0.7,1.1*33
$GPGST,150032.00,5.879,2.452,0.952,354.439,2.442,0.977,3.779*51
$GPGBS,150032.00,11.466,5.500,17.273,24,0.0001,16.125,8.704*63
$GPGRS,150032.00,1,0.7,0.1,0.4,-0.4,-2.5,,,,,,,*64
$GPGRS,150032.00,1,-1.2,-0.8,1.3,-0.4,,,,,,,,*6B
$GPGRS,150032.00,1,-2.2,1.4,0.2,0.9,11.2,,,,,,,*74
$GPGRS,150032.00,1,1.8,-2.4,16.1,0.2,-2.8,-5.3,,,,,,*51
$GPGSV,5,1,17,25,80,075,44,31,25,313,47,32,12,246,31,20,13,086,*7F
$GPGSV,5,2,17,11,34,058,46,28,48,294,45,12,38,098,39,29,67,234,49*79
$GPGSV,5,3,17,26,05,292,,24,02,159,,05,00,116,,06,08,031,*77
$GPGSV,5,4,17,18,07,186,,36,35,170,36,34,31,208,35,49,34,195,36*74
$GPGSV,5,5,17,61,03,257,*4B
$GLGSV,3,1,10,88,72,081,45,70,11,331,19,87,19,031,32,77,10,125,*66
$GLGSV,3,2,10,81,39,192,45,79,51,321,50,78,68,104,51,80,01,310,34*6E
$GLGSV,3,3,10,71,03,014,,69,04,272,22*68
$GAGSV,3,1,11,30,61,089,40,15,33,159,40,18,14,062,,19,17,313,34*66
$GAGSV,3,2,11,36,18,036,26,02,10,101,,29,22,267,38,34,49,088,34*69
$GAGSV,3,3,11,27,60,298,44,21,09,286,26,07,07,217,26*5A
$GBGSV,5,1,18,25,77,272,49,11,31,189,,05,20,130,,43,24,216,*68
$GBGSV,5,2,18,10,12,072,,23,25,306,44,56,18,058,,13,17,092,*69
$GBGSV,5,3,18,38,19,069,,24,41,138,38,08,18,083,,44,47,059,38*64
$GBGSV,5,4,18,34,67,182,47,12,70,087,41,02,05,108,,35,04,044,*6F
$GBGSV,5,5,18,20,01,352,,60,09,110,*6A
$GPGGA,150032.00,,,,,0,00,,,M,,M,,*4D
$PTNL,GGK,150032.00,010125,4742.4467601,N,01617.9742575,E,1,20,1.3,EHT668.9897,M*45
$GPGGQ,150032.00,010125,4742.4467601,N,01617.9742575,E,1,20,4.605,625.7786,M*36
$GPGFA,150032.00,23.315,30.989,2.452,0.952,354.439,3.779,,VVV*02
$GPLLK,150032.00,010125,,M,,M,1,20,1.6,,M*0B
$GNGMP,150032.00,,,,,DAAA,20,0.7,,,,*56
$GPGMP,150032.00,,,,,,05,,,,2.8,123*77
$GLGMP,150032.00,,,,,,04,,,,,*7E
$GAGMP,150032.00,,,,,,05,,,,,*72
$GBGMP,150032.00,,,,,,06,,,,,*72
$PSSN,SNC,[0,313250000,2347]*42
$GPZDA,150037.00,01,01,2025,,*63
$GPDTM,W84,,00.0000000,N,00.0000000,E,00.0000000,W84*5F
$GPRMC,150037.00,A,4742.4467667,N,01617.9742456,E,0.0,,010125,5.1,E,D*10
$GPGLL,4742.4467667,N,01617.9742456,E,150037.00,A,D*61
$GPGGA,150037.00,4742.4467667,N,01617.9742456,E,2,21,0.7,625.7780,M,43.2110,M,2.7,0123*41
$GNGNS,150037.00,4742.4467667,N,01617.9742456,E,DAAA,21,0.7,625.7780,43.2110,,*58
$GPGNS,150037.00,,,,,,06,,,,2.7,123*7E
$GLGNS,150037.00,,,,,,04,,,,,*7B
$GAGNS,150037.00,,,,,,05,,,,,*77
$GBGNS,150037.00,,,,,,06,,,,,*77
$GPLLQ,150037.00,010125,,M,,M,1,21,4.882,,M*14
$GPVTG,,T,,M,0.01,N,0.02,K,D*25
$GPHDT,,T*1B
$GPTHS,,V*0E
$GPROT,,V*08
$PSSN,HRP,150037.00,010125,,,,,,,00,0,,*61
$PTNL,AVR,150037.00,,Yaw,,Tilt,,,,0,,00*37
$GPGSA,A,3,11,12,25,28,29,31,,,,,,,1.3,0.7,1.1*30
$GPGSA,A,3,78,79,81,88,,,,,,,,,1.3,0.7,1.1*3F
$GPGSA,A,3,15,27,29,30,36,,,,,,,,1.3,0.7,1.1*3B
$GPGSA,A,3,12,23,24,25,34,44,,,,,,,1.3,0.7,1.1*33
$GPGST,150037.00,6.721,2.606,1.074,8.073,2.585,1.125,3.986*50
$GPGBS,150037.00,7.225,3.022,15.990,12,0.0001,2.801,1.082*68
$GPGRS,150037.00,1,-0.2,2.8,0.1,-0.3,-0.6,-2.8,,,,,,*48
$GPGRS,150037.00,1,-1.5,-1.5,3.3,-3.0,,,,,,,,*60
$GPGRS,150037.00,1,-1.6,0.8,0.1,0.3,10.1,,,,,,,*70
$GPGRS,150037.00,1,3.1,-3.0,21.3,0.4,-2.4,-3.0,,,,,,*53
$GPGSV,5,1,17,25,80,076,43,31,25,313,47,32,12,246,30,20,13,086,*7A
$GPGSV,5,2,17,11,34,058,46,28,48,294,45,12,38,098,39,29,67,234,49*79
$GPGSV,5,3,17,26,05,292,,24,02,159,,05,00,116,,06,08,031,*77
$GPGSV,5,4,17,18,07,186,,36,35,170,36,34,31,208,35,49,34,195,36*74
$GPGSV,5,5,17,61,03,257,*4B
$GLGSV,3,1,10,88,72,081,45,70,11,331,23,87,19,031,32,77,10,125,*6F
$GLGSV,3,2,10,81,39,192,46,79,51,321,50,78,68,104,51,80,01,310,33*6A
$GLGSV,3,3,10,71,03,014,,69,04,272,26*6C
$GAGSV,3,1,11,30,61,089,40,15,33,158,41,18,13,062,,19,17,313,33*66
$GAGSV,3,2,11,36,18,036,27,02,10,101,,29,22,266,37,34,49,088,35*67
$GAGSV,3,3,11,27,60,298,44,21,09,286,23,07,07,217,27*5E
$GBGSV,5,1,18,25,77,272,49,11,31,189,,05,20,130,,56,18,058,*6B
$GBGSV,5,2,18,43,24,216,,23,26,306,44,10,12,072,,13,17,092,*69
$GBGSV,5,3,18,38,19,069,26,24,41,138,36,08,18,083,,44,47,059,38*6E
$GBGSV,5,4,18,34,67,182,48,12,70,087,42,02,05,108,,35,04,044,*63
$GBGSV,5,5,18,20,01,352,,60,09,110,*6A
$GPGGA,150037.00,,,,,0,00,,,M,,M,,*48
$PTNL,GGK,150037.00,010125,4742.4467667,N,01617.9742456,E,1,21,1.3,EHT668.9890,M*46
$GPGGQ,150037.00,010125,4742.4467667,N,01617.9742456,E,1,21,4.882,625.7780,M*35
$GPGFA,150037.00,24.779,32.682,2.606,1.074,8.073,3.986,,VVV*09
$GPLLK,150037.00,010125,,M,,M,1,21,1.5,,M*0C
$GNGMP,150037.00,,,,,DAAA,21,0.7,,,,*52
$GPGMP,150037.00,,,,,,06,,,,2.7,123*7E
$GLGMP,150037.00,,,,,,04,,,,,*7B
$GAGMP,150037.00,,,,,,05,,,,,*77
$GBGMP,150037.00,,,,,,06,,,,,*77
$PSSN,SNC,[0,313255000,2347]*47
$GPZDA,150042.00,01,01,2025,,*61
$GPDTM,W84,,00.0000000,N,00.0000000,E,00.0000000,W84*5F
$GPRMC,150042.00,A,4742.4467707,N,01617.9742308,E,0.0,,010125,5.1,E,D*19
$GPGLL,4742.4467707,N,01617.9742308,E,150042.00,A,D*68
$GPGGA,150042.00,4742.4467707,N,01617.9742308,E,2,21,0.7,625.7806,M,43.2110,M,2.3,0123*4D
$GNGNS,150042.00,4742.4467707,N,01617.9742308,E,DAAA,21,0.7,625.7806,43.2110,,*50
$GPGNS,150042.00,,,,,,06,,,,2.3,123*78
$GLGNS,150042.00,,,,,,04,,,,,*79
$GAGNS,150042.00,,,,,,06,,,,,*76
$GBGNS,150042.00,,,,,,05,,,,,*76
$GPLLQ,150042.00,010125,,M,,M,1,21,3.165,,M*11
$GPVTG,,T,,M,0.01,N,0.01,K,D*26
$GPHDT,,T*1B
$GPTHS,,V*0E
$GPROT,,V*08
$PSSN,HRP,150042.00,010125,,,,,,,00,0,,*63
$PTNL,AVR,150042.00,,Yaw,,Tilt,,,,0,,00*35
$GPGSA,A,3,11,12,25,28,29,31,,,,,,,1.3,0.7,1.1*30
$GPGSA,A,3,78,79,81,88,,,,,,,,,1.3,0.7,1.1*3F
$GPGSA,A,3,15,27,29,30,34,36,,,,,,,1.3,0.7,1.1*3C
$GPGSA,A,3,12,23,25,34,44,,,,,,,,1.3,0.7,1.1*35
$GPGST,150042.00,3.680,1.710,0.695,7.295,1.698,0.723,2.571*5D
$GPGBS,150042.00,7.478,3.056,15.791,36,0.0001,10.534,6.793*56
$GPGRS,150042.00,1,-0.1,1.3,-0.4,-0.5,-0.1,-2.3,,,,,,*63
$GPGRS,150042.00,1,-1.4,-1.0,4.2,-2.4,,,,,,,,*65
$GPGRS,150042.00,1,-1.3,0.5,-0.3,0.9,3.1,10.5,,,,,,*77
$GPGRS,150042.00,1,4.3,-3.3,0.5,-1.0,-1.4,,,,,,,*49
$GPGSV,5,1,17,25,80,076,41,31,25,313,46,32,12,246,28,20,13,086,*70
$GPGSV,5,2,17,11,34,058,45,28,48,294,46,12,38,098,39,29,67,235,49*78
$GPGSV,5,3,17,26,05,292,,24,02,159,,05,00,116,,06,08,031,19*7F
$GPGSV,5,4,17,18,07,186,,36,35,170,36,34,31,208,35,49,34,195,36*74
$GPGSV,5,5,17,61,03,257,*4B
$GLGSV,3,1,10,88,72,081,46,70,11,331,27,87,19,031,30,77,10,125,*6A
$GLGSV,3,2,10,81,39,192,46,79,51,321,49,78,68,104,50,80,01,310,30*60
$GLGSV,3,3,10,71,03,014,,69,04,272,*68
$GAGSV,3,1,11,30,61,089,41,15,33,158,41,18,13,062,,19,17,313,32*66
$GAGSV,3,2,11,36,18,036,29,02,10,101,,29,22,266,36,34,49,088,36*6B
$GAGSV,3,3,11,27,60,298,43,21,09,286,22,07,07,217,26*59
$GBGSV,5,1,18,25,77,272,48,11,31,189,,05,20,130,,43,24,216,*69
$GBGSV,5,2,18,10,12,072,,23,26,306,44,56,18,058,,13,17,092,*6A
$GBGSV,5,3,18,38,19,069,25,24,41,138,34,08,18,083,,44,47,059,38*6F
$GBGSV,5,4,18,34,67,182,49,12,70,087,42,02,05,108,,35,04,044,*62
$GBGSV,5,5,18,20,01,352,,60,09,110,*6A
$GPGGA,150042.00,,,,,0,00,,,M,,M,,*4A
$PTNL,GGK,150042.00,010125,4742.4467707,N,01617.9742308,E,1,21,1.3,EHT668.9917,M*41
$GPGGQ,150042.00,010125,4742.4467707,N,01617.9742308,E,1,21,3.165,625.7806,M*3A
$GPGFA,150042.00,16.256,21.082,1.710,0.695,7.295,2.571,,VVV*0B
$GPLLK,150042.00,010125,,M,,M,1,21,1.6,,M*0D
$GNGMP,150042.00,,,,,DAAA,21,0.7,,,,*50
$GPGMP,150042.00,,,,,,06,,,,2.3,123*78
$GLGMP,150042.00,,,,,,04,,,,,*79
$GAGMP,150042.00,,,,,,06,,,,,*76
$GBGMP,150042.00,,,,,,05,,,,,*76
$PSSN,SNC,[0,313260000,2347]*41
$GPZDA,150047.00,01,01,2025,,*64
$GPDTM,W84,,00.0000000,N,00.0000000,E,00.0000000,W84*5F
$GPRMC,150047.00,A,4742.4467806,N,01617.9742166,E,0.0,,010125,5.1,E,D*18
$GPGLL,4742.4467806,N,01617.9742166,E,150047.00,A,D*69
$GPGGA,150047.00,4742.4467806,N,01617.9742166,E,2,21,0.7,625.7777,M,43.2110,M,2.0,0123*46
$GNGNS,150047.00,4742.4467806,N,01617.9742166,E,DAAA,21,0.7,625.7777,43.2110,,*58
$GPGNS,150047.00,,,,,,06,,,,2.0,123*7E
$GLGNS,150047.00,,,,,,04,,,,,*7C
$GAGNS,150047.00,,,,,,06,,,,,*73
$GBGNS,150047.00,,,,,,05,,,,,*73
$GPLLQ,150047.00,010125,,M,,M,1,21,3.812,,M*1D
$GPVTG,,T,,M,0.00,N,0.00,K,D*26
$GPHDT,,T*1B
$GPTHS,,V*0E
$GPROT,,V*08
$PSSN,HRP,150047.00,010125,,,,,,,00,0,,*66
$PTNL,AVR,150047.00,,Yaw,,Tilt,,,,0,,00*30
$GPGSA,A,3,11,12,25,28,29,31,,,,,,,1.3,0.7,1.1*30
$GPGSA,A,3,78,79,81,88,,,,,,,,,1.3,0.7,1.1*3F
$GPGSA,A,3,15,27,29,30,34,36,,,,,,,1.3,0.7,1.1*3C
$GPGSA,A,3,12,23,25,34,44,,,,,,,,1.3,0.7,1.1*35
$GPGST,150047.00,3.538,2.067,0.839,7.182,2.053,0.872,3.091*52
$GPGBS,150047.00,7.400,2.978,15.836,12,0.0001,2.991,1.100*67
$GPGRS,150047.00,1,-0.6,3.0,-0.4,-0.6,0.1,-2.3,,,,,,*4E
$GPGRS,150047.00,1,-2.2,-2.7,2.3,-1.5,,,,,,,,*64
$GPGRS,150047.00,1,-1.7,0.1,-0.4,1.2,1.2,10.1,,,,,,*7A
$GPGRS,150047.00,1,4.5,-3.3,0.0,-0.4,-1.4,,,,,,,*4A
$GPGSV,5,1,17,25,80,076,41,31,25,313,45,32,12,246,28,20,13,086,*73
$GPGSV,5,2,17,11,34,057,45,28,48,294,47,12,38,098,40,29,67,235,49*78
$GPGSV,5,3,17,26,05,292,,24,02,159,,05,00,116,,06,08,031,20*75
$GPGSV,5,4,17,18,07,186,,36,35,170,36,34,31,208,35,49,34,195,36*74
$GPGSV,5,5,17,61,03,257,*4B
$GLGSV,3,1,10,88,72,080,47,70,11,331,27,87,19,031,29,77,10,125,*62
$GLGSV,3,2,10,81,39,192,44,79,51,321,48,78,68,104,48,80,01,310,31*6B
$GLGSV,3,3,10,71,03,014,,69,04,272,*68
$GAGSV,3,1,11,30,61,089,42,15,34,158,41,18,13,062,,19,17,313,30*60
$GAGSV,3,2,11,36,18,036,30,02,10,101,,29,22,266,36,34,49,088,38*6D
$GAGSV,3,3,11,27,60,298,44,21,09,286,19,07,07,217,27*57
$GBGSV,5,1,18,25,77,272,48,11,31,189,,05,20,130,,56,18,058,*6A
$GBGSV,5,2,18,43,24,216,,23,26,306,43,10,12,072,,13,17,092,*6E
$GBGSV,5,3,18,38,19,069,23,24,41,138,32,08,18,083,,44,47,059,39*6E
$GBGSV,5,4,18,34,67,182,50,12,70,087,41,02,05,108,,35,04,044,*69
$GBGSV,5,5,18,20,01,352,,60,09,110,*6A
$GPGGA,150047.00,,,,,0,00,,,M,,M,,*4F
$PTNL,GGK,150047.00,010125,4742.4467806,N,01617.9742166,E,1,21,1.3,EHT668.9888,M*47
$GPGGQ,150047.00,010125,4742.4467806,N,01617.9742166,E,1,21,3.812,625.7777,M*3B
$GPGFA,150047.00,19.649,25.349,2.067,0.839,7.182,3.091,,VVV*08
$GPLLK,150047.00,010125,,M,,M,1,21,1.6,,M*08
$GNGMP,150047.00,,,,,DAAA,21,0.7,,,,*55
$GPGMP,150047.00,,,,,,06,,,,2.0,123*7E
$GLGMP,150047.00,,,,,,04,,,,,*7C
$GAGMP,150047.00,,,,,,06,,,,,*73
$GBGMP,150047.00,,,,,,05,,,,,*73
$PSSN,SNC,[0,313265000,2347]*44
$GPZDA,150052.00,01,01,2025,,*60
$GPDTM,W84,,00.0000000,N,00.0000000,E,00.0000000,W84*5F
$GPRMC,150052.00,A,4742.4467912,N,01617.9741962,E,0.0,,010125,5.1,E,D*17
$GPGLL,4742.4467912,N,01617.9741962,E,150052.00,A,D*66
$GPGGA,150052.00,4742.4467912,N,01617.9741962,E,2,20,0.7,625.7870,M,43.2110,M,2.8,0123*48
$GNGNS,150052.00,4742.4467912,N,01617.9741962,E,DAAA,20,0.7,625.7870,43.2110,,*5E
$GPGNS,150052.00,,,,,,05,,,,2.8,123*71
$GLGNS,150052.00,,,,,,04,,,,,*78
$GAGNS,150052.00,,,,,,06,,,,,*77
$GBGNS,150052.00,,,,,,05,,,,,*77
$GPLLQ,150052.00,010125,,M,,M,1,20,4.612,,M*11
$GPVTG,,T,,M,0.00,N,0.00,K,D*26
$GPHDT,,T*1B
$GPTHS,,V*0E
$GPROT,,V*08
$PSSN,HRP,150052.00,010125,,,,,,,00,0,,*62
$PTNL,AVR,150052.00,,Yaw,,Tilt,,,,0,,00*34
$GPGSA,A,3,11,25,28,29,31,,,,,,,,1.4,0.7,1.1*34
$GPGSA,A,3,78,79,81,88,,,,,,,,,1.4,0.7,1.1*38
$GPGSA,A,3,15,27,29,30,34,36,,,,,,,1.4,0.7,1.1*3B
$GPGSA,A,3,12,23,25,34,44,,,,,,,,1.4,0.7,1.1*32
$GPGST,150052.00,3.295,2.448,1.036,0.977,2.448,1.037,3.768*5B
$GPGBS,150052.00,11.950,5.522,17.665,36,0.0001,9.790,6.795*5D
$GPGRS,150052.00,1,-0.5,-0.4,-0.4,-0.1,-1.9,,,,,,,*42
$GPGRS,150052.00,1,-3.0,-3.7,0.6,-0.4,,,,,,,,*65
$GPGRS,150052.00,1,-1.8,-0.2,0.1,1.3,0.6,9.8,,,,,,*42
$GPGRS,150052.00,1,0.9,-3.4,-0.3,0.0,-0.4,,,,,,,*47
$GPGSV,5,1,17,25,80,076,41,31,25,313,43,32,12,246,30,20,13,086,*7C
$GPGSV,5,2,17,11,34,057,44,28,48,293,46,12,38,098,41,29,67,235,50*76
$GPGSV,5,3,17,26,05,292,,24,02,159,,05,00,116,,06,08,031,19*7F
$GPGSV,5,4,17,18,07,186,,36,35,170,36,34,31,208,35,49,34,195,37*75
$GPGSV,5,5,17,61,03,257,*4B
$GLGSV,3,1,10,88,72,080,49,70,11,331,24,87,19,031,28,77,10,125,*6E
$GLGSV,3,2,10,81,39,192,43,79,51,321,47,78,68,104,47,80,01,310,29*65
$GLGSV,3,3,10,71,03,014,,69,04,272,24*6E
$GAGSV,3,1,11,30,61,089,42,15,34,158,42,18,13,062,,19,17,313,30*63
$GAGSV,3,2,11,36,18,036,31,02,10,101,,29,22,266,36,34,49,088,40*63
$GAGSV,3,3,11,27,60,298,44,21,09,286,29,07,07,217,25*56
$GBGSV,5,1,18,25,77,272,48,11,31,189,,05,20,130,,56,18,058,*6A
$GBGSV,5,2,18,43,24,216,,23,26,306,43,10,12,072,22,13,17,091,*6D
$GBGSV,5,3,18,38,19,069,20,24,41,138,29,08,18,083,,44,47,059,39*67
$GBGSV,5,4,18,34,67,182,50,12,70,087,39,02,05,108,,35,04,044,*66
$GBGSV,5,5,18,20,01,352,,60,09,110,*6A
$GPGGA,150052.00,,,,,0,00,,,M,,M,,*4B
$PTNL,GGK,150052.00,010125,4742.4467912,N,01617.9741962,E,1,20,1.4,EHT668.9980,M*47
$GPGGQ,150052.00,010125,4742.4467912,N,01617.9741962,E,1,20,4.612,625.7870,M*34
$GPGFA,150052.00,23.276,30.901,2.448,1.036,0.977,3.768,,VVV*04
$GPLLK,150052.00,010125,,M,,M,1,20,1.6,,M*0D
$GNGMP,150052.00,,,,,DAAA,20,0.7,,,,*50
$GPGMP,150052.00,,,,,,05,,,,2.8,123*71
$GLGMP,150052.00,,,,,,04,,,,,*78
$GAGMP,150052.00,,,,,,06,,,,,*77
$GBGMP,150052.00,,,,,,05,,,,,*77
$PSSN,SNC,[0,313270000,2347]*40
$GPZDA,150057.00,01,01,2025,,*65
$GPDTM,W84,,00.0000000,N,00.0000000,E,00.0000000,W84*5F
$GPRMC,150057.00,A,4742.4467926,N,01617.9741923,E,0.0,,010125,5.1,E,D*10
$GPGLL,4742.4467926,N,01617.9741923,E,150057.00,A,D*61
$GPGGA,150057.00,4742.4467926,N,01617.9741923,E,2,21,0.7,625.7846,M,43.2110,M,3.0,0123*42
$GNGNS,150057.00,4742.4467926,N,01617.9741923,E,DAAA,21,0.7,625.7846,43.2110,,*5D
$GPGNS,150057.00,,,,,,05,,,,3.0,123*7D
$GLGNS,150057.00,,,,,,04,,,,,*7D
$GAGNS,150057.00,,,,,,06,,,,,*72
$GBGNS,150057.00,,,,,,06,,,,,*71
$GPLLQ,150057.00,010125,,M,,M,1,21,3.505,,M*17
$GPVTG,,T,,M,0.01,N,0.01,K,D*26
$GPHDT,,T*1B
$GPTHS,,V*0E
$GPROT,,V*08
$PSSN,HRP,150057.00,010125,,,,,,,00,0,,*67
$PTNL,AVR,150057.00,,Yaw,,Tilt,,,,0,,00*31
$GPGSA,A,3,11,25,28,29,31,,,,,,,,1.3,0.7,1.1*33
$GPGSA,A,3,78,79,81,88,,,,,,,,,1.3,0.7,1.1*3F
$GPGSA,A,3,15,27,29,30,34,36,,,,,,,1.3,0.7,1.1*3C
$GPGSA,A,3,12,23,24,25,34,44,,,,,,,1.3,0.7,1.1*33
$GPGST,150057.00,3.265,1.873,0.714,354.537,1.866,0.733,2.875*59
$GPGBS,150057.00,11.438,5.389,17.331,36,0.0001,10.118,6.795*66
$GPGRS,150057.00,1,0.1,0.3,-0.1,0.4,-2.0,,,,,,,*63
$GPGRS,150057.00,1,-2.5,-2.2,-0.0,1.2,,,,,,,,*61
$GPGRS,150057.00,1,-1.1,0.1,1.5,2.1,1.1,10.1,,,,,,*53
$GPGRS,150057.00,1,-2.6,-2.9,-1.3,-0.2,1.0,1.9,,,,,,*4E
$GPGSV,5,1,17,25,80,076,42,31,25,313,43,32,12,246,31,20,13,086,*7E
$GPGSV,5,2,17,11,34,057,45,28,48,293,45,12,38,098,39,29,67,235,50*7B
$GPGSV,5,3,17,26,05,292,,24,02,159,,05,00,116,,06,08,031,21*74
$GPGSV,5,4,17,18,07,186,,36,35,170,36,34,31,208,35,49,34,195,36*74
$GPGSV,5,5,17,61,03,257,*4B
$GLGSV,3,1,10,88,72,080,49,70,11,331,23,87,18,031,29,77,10,125,*69
$GLGSV,3,2,10,81,39,192,40,79,51,321,47,78,68,104,46,80,01,310,*6C
$GLGSV,3,3,10,71,03,014,,69,04,272,25*6F
$GAGSV,3,1,11,30,61,089,42,15,34,158,42,18,13,062,,19,17,313,30*63
$GAGSV,3,2,11,36,18,036,33,02,10,101,,29,22,266,36,34,49,088,41*60
$GAGSV,3,3,11,27,60,298,45,21,09,286,19,07,07,217,25*54
$GBGSV,5,1,18,25,77,272,48,11,31,189,,05,20,130,,56,18,058,*6A
$GBGSV,5,2,18,43,24,216,,23,26,306,43,10,12,072,22,13,17,091,*6D
$GBGSV,5,3,18,38,19,069,,24,41,138,43,08,18,083,,44,47,059,39*69
$GBGSV,5,4,18,34,67,182,51,12,69,087,38,02,05,108,,35,04,044,*6E
$GBGSV,5,5,18,20,01,352,,60,09,110,*6A
$GPGGA,150057.00,,,,,0,00,,,M,,M,,*4E
$PTNL,GGK,150057.00,010125,4742.4467926,N,01617.9741923,E,1,21,1.3,EHT668.9956,M*4D
$GPGGQ,150057.00,010125,4742.4467926,N,01617.9741923,E,1,21,3.505,625.7846,M*35
$GPGFA,150057.00,17.812,23.576,1.873,0.714,354.537,2.875,,VVV*09
$GPLLK,150057.00,010125,,M,,M,1,21,1.6,,M*09
$GNGMP,150057.00,,,,,DAAA,21,0.7,,,,*54
$GPGMP,150057.00,,,,,,05,,,,3.0,123*7D
$GLGMP,150057.00,,,,,,04,,,,,*7D
$GAGMP,150057.00,,,,,,06,,,,,*72
$GBGMP,150057.00,,,,,,06,,,,,*71
$PSSN,SNC,[0,313275000,2347]*45
$GPZDA,150102.00,01,01,2025,,*64
$GPDTM,W84,,00.0000000,N,00.0000000,E,00.0000000,W84*5F
$GPRMC,150102.00,A,4742.4467972,N,01617.9741823,E,0.0,,010125,5.1,E,D*11
$GPGLL,4742.4467972,N,01617.9741823,E,150102.00,A,D*60
$GPGGA,150102.00,4742.4467972,N,01617.9741823,E,2,21,0.7,625.7820,M,43.2110,M,2.3,0123*41
$GNGNS,150102.00,4742.4467972,N,01617.9741823,E,DAAA,21,0.7,625.7820,43.2110,,*5C
$GPGNS,150102.00,,,,,,06,,,,2.3,123*7D
$GLGNS,150102.00,,,,,,04,,,,,*7C
$GAGNS,150102.00,,,,,,06,,,,,*73
$GBGNS,150102.00,,,,,,05,,,,,*73
$GPLLQ,150102.00,010125,,M,,M,1,21,3.664,,M*12
$GPVTG,,T,,M,0.01,N,0.02,K,D*25
$GPHDT,,T*1B
$GPTHS,,V*0E
$GPROT,,V*08
$PSSN,HRP,150102.00,010125,,,,,,,00,0,,*66
$PTNL,AVR,150102.00,,Yaw,,Tilt,,,,0,,00*30
$GPGSA,A,3,11,12,25,28,29,31,,,,,,,1.3,0.7,1.1*30
$GPGSA,A,3,78,79,81,88,,,,,,,,,1.3,0.7,1.1*3F
$GPGSA,A,3,15,27,29,30,34,36,,,,,,,1.3,0.7,1.1*3C
$GPGSA,A,3,12,23,25,34,44,,,,,,,,1.3,0.7,1.1*35
$GPGST,150102.00,3.327,1.983,0.804,7.327,1.969,0.837,2.974*58
$GPGBS,150102.00,7.425,3.060,15.750,12,0.0001,2.779,1.095*6B
$GPGRS,150102.00,1,-0.3,2.8,-0.8,-0.1,-0.1,-1.5,,,,,,*61
$GPGRS,150102.00,1,-3.0,-1.9,-1.5,0.8,,,,,,,,*63
$GPGRS,150102.00,1,-1.8,-0.0,0.7,2.8,1.4,9.3,,,,,,*42
$GPGRS,150102.00,1,-2.2,-3.7,-0.5,-0.1,3.1,,,,,,,*65
$GPGSV,5,1,17,25,80,076,42,31,25,313,43,32,12,246,31,20,13,086,*7E
$GPGSV,5,2,17,11,34,057,45,28,48,293,44,12,38,098,37,29,67,235,51*75
$GPGSV,5,3,17,26,05,292,,24,02,159,,05,00,116,,06,08,031,22*77
$GPGSV,5,4,17,18,07,186,,36,35,170,36,34,31,208,35,49,34,195,36*74
$GPGSV,5,5,17,61,03,257,*4B
$GLGSV,3,1,10,88,72,080,50,70,11,331,,87,18,031,28,77,10,125,*61
$GLGSV,3,2,10,81,40,192,39,79,51,321,47,78,68,104,45,80,01,310,28*65
$GLGSV,3,3,10,71,03,014,,69,04,272,25*6F
$GAGSV,3,1,11,30,61,089,42,15,34,158,43,18,13,062,,19,17,313,30*62
$GAGSV,3,2,11,36,18,036,33,02,10,101,,29,22,266,37,34,49,088,42*62
$GAGSV,3,3,11,27,60,298,46,21,09,286,28,07,07,217,26*56
$GBGSV,5,1,18,25,77,272,49,11,31,189,,05,20,130,,43,24,216,*68
$GBGSV,5,2,18,10,12,072,24,23,26,306,43,56,18,058,,13,17,091,*68
$GBGSV,5,3,18,38,19,069,,24,41,138,29,08,18,083,,44,47,059,38*64
$GBGSV,5,4,18,34,67,182,51,12,69,087,38,02,05,108,,35,04,044,*6E
$GBGSV,5,5,18,20,01,352,,60,09,110,*6A
$GPGGA,150102.00,,,,,0,00,,,M,,M,,*4F
$PTNL,GGK,150102.00,010125,4742.4467972,N,01617.9741823,E,1,21,1.3,EHT668.9931,M*4D
$GPGGQ,150102.00,010125,4742.4467972,N,01617.9741823,E,1,21,3.664,625.7820,M*30
$GPGFA,150102.00,18.852,24.387,1.983,0.804,7.327,2.974,,VVV*0E
$GPLLK,150102.00,010125,,M,,M,1,21,1.6,,M*08
$GNGMP,150102.00,,,,,DAAA,21,0.7,,,,*55
$GPGMP,150102.00,,,,,,06,,,,2.3,123*7D
$GLGMP,150102.00,,,,,,04,,,,,*7C
$GAGMP,150102.00,,,,,,06,,,,,*73
$GBGMP,150102.00,,,,,,05,,,,,*73
$PSSN,SNC,[0,313280000,2347]*4F
$GPZDA,150107.00,01,01,2025,,*61
$GPDTM,W84,,00.0000000,N,00.0000000,E,00.0000000,W84*5F
$GPRMC,150107.00,A,4742.4468008,N,01617.9741740,E,0.0,,010125,5.1,E,D*15
$GPGLL,4742.4468008,N,01617.9741740,E,150107.00,A,D*64
$GPGGA,150107.00,4742.4468008,N,01617.9741740,E,2,20,0.8,625.7957,M,43.2110,M,2.0,0123*49
$GNGNS,150107.00,4742.4468008,N,01617.9741740,E,DAAA,20,0.8,625.7957,43.2110,,*57
$GPGNS,150107.00,,,,,,06,,,,2.0,123*7B
$GLGNS,150107.00,,,,,,04,,,,,*79
$GAGNS,150107.00,,,,,,05,,,,,*75
$GBGNS,150107.00,,,,,,05,,,,,*76
$GPLLQ,150107.00,010125,,M,,M,1,20,3.132,,M*12
$GPVTG,,T,,M,0.01,N,0.01,K,D*26
$GPHDT,,T*1B
$GPTHS,,V*0E
$GPROT,,V*08
$PSSN,HRP,150107.00,010125,,,,,,,00,0,,*63
$PTNL,AVR,150107.00,,Yaw,,Tilt,,,,0,,00*35
$GPGSA,A,3,11,12,25,28,29,31,,,,,,,1.5,0.8,1.2*3A
$GPGSA,A,3,78,79,81,88,,,,,,,,,1.5,0.8,1.2*35
$GPGSA,A,3,15,27,29,30,34,,,,,,,,1.5,0.8,1.2*33
$GPGSA,A,3,12,23,25,34,44,,,,,,,,1.5,0.8,1.2*3F
$GPGST,150107.00,2.595,1.713,0.686,7.303,1.702,0.714,2.531*56
$GPGBS,150107.00,7.651,3.045,15.802,25,0.0001,-1.390,0.829*47
$GPGRS,150107.00,1,-0.2,1.6,-1.4,0.6,-0.3,-0.5,,,,,,*4C
$GPGRS,150107.00,1,-3.6,-1.7,-2.1,1.6,,,,,,,,*66
$GPGRS,150107.00,1,-2.1,1.0,0.6,3.8,2.2,,,,,,,*40
$GPGRS,150107.00,1,0.7,-3.8,-0.6,-1.2,4.2,,,,,,,*40
$GPGSV,5,1,17,25,80,077,40,31,25,313,44,32,12,246,31,20,13,086,*7A
$GPGSV,5,2,17,11,34,057,44,28,48,293,41,12,38,098,35,29,67,235,50*72
$GPGSV,5,3,17,26,05,292,,24,02,159,,05,00,116,,06,08,031,20*75
$GPGSV,5,4,17,18,07,186,,36,35,170,36,34,31,208,36,49,34,195,37*76
$GPGSV,5,5,17,61,03,257,*4B
$GLGSV,3,1,10,88,72,080,49,70,11,331,,87,18,031,25,77,10,125,*64
$GLGSV,3,2,10,81,40,192,39,79,51,321,47,78,68,105,44,80,01,310,29*64
$GLGSV,3,3,10,71,03,014,,69,04,272,23*69
$GAGSV,3,1,11,30,61,089,42,15,34,158,43,18,13,062,,19,17,313,30*62
$GAGSV,3,2,11,36,18,036,34,02,10,101,,29,22,266,38,34,49,088,42*6A
$GAGSV,3,3,11,27,60,298,46,21,09,286,29,07,06,217,25*55
$GBGSV,5,1,18,25,77,271,49,11,31,189,,05,20,130,,56,18,058,*68
$GBGSV,5,2,18,43,24,216,,23,26,306,43,10,12,072,24,13,17,091,*6B
$GBGSV,5,3,18,38,19,069,,24,41,138,32,08,18,083,,44,47,059,38*6E
$GBGSV,5,4,18,34,67,182,50,12,69,087,38,02,05,108,,35,04,044,*6F
$GBGSV,5,5,18,20,01,352,,60,09,110,*6A
$GPGGA,150107.00,,,,,0,00,,,M,,M,,*4A
$PTNL,GGK,150107.00,010125,4742.4468008,N,01617.9741740,E,1,20,1.5,EHT669.0068,M*43
$GPGGQ,150107.00,010125,4742.4468008,N,01617.9741740,E,1,20,3.132,625.7957,M*30
$GPGFA,150107.00,16.291,20.754,1.713,0.686,7.303,2.531,,VVV*06
$GPLLK,150107.00,010125,,M,,M,1,20,1.7,,M*0D
$GNGMP,150107.00,,,,,DAAA,20,0.8,,,,*5E
$GPGMP,150107.00,,,,,,06,,,,2.0,123*7B
$GLGMP,150107.00,,,,,,04,,,,,*79
$GAGMP,150107.00,,,,,,05,,,,,*75
$GBGMP,150107.00,,,,,,05,,,,,*76
$PSSN,SNC,[0,313285000,2347]*4A
$GPZDA,150112.00,01,01,2025,,*65
$GPDTM,W84,,00.0000000,N,00.0000000,E,00.0000000,W84*5F
$GPRMC,150112.00,A,4742.4468019,N,01617.9741712,E,0.0,,010125,5.1,E,D*16
$GPGLL,4742.4468019,N,01617.9741712,E,150112.00,A,D*67
$GPGGA,150112.00,4742.4468019,N,01617.9741712,E,2,20,0.8,625.8025,M,43.2110,M,3.0,0123*48
$GNGNS,150112.00,4742.4468019,N,01617.9741712,E,DAAA,20,0.8,625.8025,43.2110,,*57
$GPGNS,150112.00,,,,,,06,,,,3.0,123*7E
$GLGNS,150112.00,,,,,,04,,,,,*7D
$GAGNS,150112.00,,,,,,05,,,,,*71
$GBGNS,150112.00,,,,,,05,,,,,*72
$GPLLQ,150112.00,010125,,M,,M,1,20,2.513,,M*10
$GPVTG,,T,,M,0.00,N,0.00,K,D*26
$GPHDT,,T*1B
$GPTHS,,V*0E
$GPROT,,V*08
$PSSN,HRP,150112.00,010125,,,,,,,00,0,,*67
$PTNL,AVR,150112.00,,Yaw,,Tilt,,,,0,,00*31
$GPGSA,A,3,11,12,25,28,29,31,,,,,,,1.5,0.8,1.2*3A
$GPGSA,A,3,78,79,81,88,,,,,,,,,1.5,0.8,1.2*35
$GPGSA,A,3,15,27,29,30,34,,,,,,,,1.5,0.8,1.2*33
$GPGSA,A,3,12,23,25,34,44,,,,,,,,1.5,0.8,1.2*3F
$GPGST,150112.00,2.745,1.369,0.550,7.267,1.359,0.572,2.034*57
$GPGBS,150112.00,7.654,3.083,15.908,12,0.0001,1.290,1.118*65
$GPGRS,150112.00,1,-1.2,1.3,0.2,0.6,-0.2,-0.3,,,,,,*61
$GPGRS,150112.00,1,-3.0,-0.8,-3.3,1.5,,,,,,,,*6A
$GPGRS,150112.00,1,-2.0,0.6,-0.4,4.3,2.2,,,,,,,*61
$GPGRS,150112.00,1,1.6,-3.2,-0.3,-1.0,5.4,,,,,,,*4E
$GPGSV,5,1,17,25,80,077,38,31,25,313,45,32,12,246,30,11,34,057,42*78
$GPGSV,5,2,17,20,13,086,,28,48,293,41,12,38,098,37,29,67,235,51*7A
$GPGSV,5,3,17,26,05,292,,18,07,186,,05,00,116,,06,08,031,*7F
$GPGSV,5,4,17,24,02,159,,36,35,170,37,34,31,208,35,49,34,195,37*7C
$GPGSV,5,5,17,61,03,257,*4B
$GLGSV,3,1,10,88,72,080,48,70,11,331,,87,18,031,22,77,10,125,*62
$GLGSV,3,2,10,81,40,192,38,79,51,321,48,78,68,105,46,80,01,310,36*66
$GLGSV,3,3,10,71,03,014,,69,04,272,34*6F
$GAGSV,3,1,11,30,61,089,41,15,34,158,42,18,13,062,,19,17,313,31*61
$GAGSV,3,2,11,36,18,036,34,02,10,101,,29,22,266,37,34,49,088,42*65
$GAGSV,3,3,11,27,60,298,46,21,09,286,28,07,06,217,24*55
$GBGSV,5,1,18,25,77,271,50,11,31,189,,05,20,130,,56,18,058,*60
$GBGSV,5,2,18,43,24,216,,23,26,306,43,10,12,072,24,13,17,091,*6B
$GBGSV,5,3,18,38,19,069,,24,41,138,34,08,18,083,,44,47,059,39*69
$GBGSV,5,4,18,34,67,182,50,12,69,086,39,02,05,108,,35,04,044,*6F
$GBGSV,5,5,18,20,01,352,,60,09,110,*6A
$GPGGA,150112.00,,,,,0,00,,,M,,M,,*4E
$PTNL,GGK,150112.00,010125,4742.4468019,N,01617.9741712,E,1,20,1.5,EHT669.0135,M*49
$GPGGQ,150112.00,010125,4742.4468019,N,01617.9741712,E,1,20,2.513,625.8025,M*36
$GPGFA,150112.00,13.013,16.681,1.369,0.550,7.267,2.034,,VVV*01
$GPLLK,150112.00,010125,,M,,M,1,20,1.7,,M*09
$GNGMP,150112.00,,,,,DAAA,20,0.8,,,,*5A
$GPGMP,150112.00,,,,,,06,,,,3.0,123*7E
$GLGMP,150112.00,,,,,,04,,,,,*7D
$GAGMP,150112.00,,,,,,05,,,,,*71
$GBGMP,150112.00,,,,,,05,,,,,*72
$PSSN,SNC,[0,313290000,2347]*4E
$GPZDA,150117.00,01,01,2025,,*60
$GPDTM,W84,,00.0000000,N,00.0000000,E,00.0000000,W84*5F
$GPRMC,150117.00,A,4742.4468037,N,01617.9741668,E,0.0,,010125,5.1,E,D*13
$GPGLL,4742.4468037,N,01617.9741668,E,150117.00,A,D*62
$GPGGA,150117.00,4742.4468037,N,01617.9741668,E,2,20,0.8,625.8032,M,43.2110,M,2.7,0123*4D
$GNGNS,150117.00,4742.4468037,N,01617.9741668,E,DAAA,20,0.8,625.8032,43.2110,,*54
$GPGNS,150117.00,,,,,,06,,,,2.7,123*7D
$GLGNS,150117.00,,,,,,04,,,,,*78
$GAGNS,150117.00,,,,,,05,,,,,*74
$GBGNS,150117.00,,,,,,05,,,,,*77
$GPLLQ,150117.00,010125,,M,,M,1,20,4.479,,M*1E
$GPVTG,,T,,M,0.01,N,0.01,K,D*26
$GPHDT,,T*1B
$GPTHS,,V*0E
$GPROT,,V*08
$PSSN,HRP,150117.00,010125,,,,,,,00,0,,*62
$PTNL,AVR,150117.00,,Yaw,,Tilt,,,,0,,00*34
$GPGSA,A,3,11,12,25,28,29,31,,,,,,,1.5,0.8,1.2*3A
$GPGSA,A,3,78,79,81,88,,,,,,,,,1.5,0.8,1.2*35
$GPGSA,A,3,15,27,29,30,34,,,,,,,,1.5,0.8,1.2*33
$GPGSA,A,3,12,23,25,34,44,,,,,,,,1.5,0.8,1.2*3F
$GPGST,150117.00,2.952,2.437,0.977,7.492,2.420,1.020,3.629*52
$GPGBS,150117.00,7.476,3.062,15.981,12,0.0001,2.305,1.086*64
$GPGRS,150117.00,1,-1.5,2.3,0.8,2.0,-1.1,-2.4,,,,,,*69
$GPGRS,150117.00,1,-2.7,-1.2,-4.1,-0.2,,,,,,,,*4C
$GPGRS,150117.00,1,-2.8,-1.5,-2.7,3.7,1.2,,,,,,,*42
$GPGRS,150117.00,1,1.0,-4.0,-0.9,-1.5,4.0,,,,,,,*42
$GPGSV,5,1,17,25,80,077,38,31,25,312,45,32,12,246,30,11,34,057,41*7A
$GPGSV,5,2,17,20,13,086,,28,48,293,43,12,38,098,38,29,67,235,50*76
$GPGSV,5,3,17,26,05,292,,18,07,186,,05,00,116,,06,08,031,*7F
$GPGSV,5,4,17,24,01,159,,36,35,170,36,34,31,208,35,49,34,195,37*7E
$GPGSV,5,5,17,61,03,257,*4B
$GLGSV,3,1,10,88,72,079,47,70,11,331,,87,18,031,,77,10,125,*6B
$GLGSV,3,2,10,81,40,192,37,79,51,321,48,78,68,105,46,80,01,310,38*67
$GLGSV,3,3,10,71,03,014,,69,04,272,32*69
$GAGSV,3,1,11,30,61,089,39,15,34,158,42,18,13,062,,19,17,313,31*6E
$GAGSV,3,2,11,36,18,036,35,02,10,101,,29,22,266,37,34,49,087,42*6B
$GAGSV,3,3,11,27,60,298,46,21,09,286,24,07,06,217,25*58
$GBGSV,5,1,18,25,77,271,50,11,31,189,,05,20,130,,43,25,216,*62
$GBGSV,5,2,18,10,12,072,25,23,26,306,44,56,18,058,,13,17,091,*6E
$GBGSV,5,3,18,38,19,069,,24,41,138,34,08,18,083,,44,47,059,39*69
$GBGSV,5,4,18,34,67,182,50,12,69,086,40,02,05,108,,35,04,044,*61
$GBGSV,5,5,18,20,01,352,,60,09,110,*6A
$GPGGA,150117.00,,,,,0,00,,,M,,M,,*4B
$PTNL,GGK,150117.00,010125,4742.4468037,N,01617.9741668,E,1,20,1.5,EHT669.0142,M*4C
$GPGGQ,150117.00,010125,4742.4468037,N,01617.9741668,E,1,20,4.479,625.8032,M*3E
$GPGFA,150117.00,23.174,29.757,2.437,0.977,7.492,3.629,,VVV*00
$GPLLK,150117.00,010125,,M,,M,1,20,1.7,,M*0C
$GNGMP,150117.00,,,,,DAAA,20,0.8,,,,*5F
$GPGMP,150117.00,,,,,,06,,,,2.7,123*7D
$GLGMP,150117.00,,,,,,04,,,,,*78
$GAGMP,150117.00,,,,,,05,,,,,*74
$GBGMP,150117.00,,,,,,05,,,,,*77
$PSSN,SNC,[0,313295000,2347]*4B
$GPZDA,150122.00,01,01,2025,,*66
$GPDTM,W84,,00.0000000,N,00.0000000,E,00.0000000,W84*5F
$GPRMC,150122.00,A,4742.4468098,N,01617.9741505,E,0.0,,010125,5.1,E,D*18
$GPGLL,4742.4468098,N,01617.9741505,E,150122.00,A,D*69
$GPGGA,150122.00,4742.4468098,N,01617.9741505,E,2,20,0.8,625.8043,M,43.2110,M,2.3,0123*44
$GNGNS,150122.00,4742.4468098,N,01617.9741505,E,DAAA,20,0.8,625.8043,43.2110,,*59
$GPGNS,150122.00,,,,,,06,,,,2.3,123*7F
$GLGNS,150122.00,,,,,,04,,,,,*7E
$GAGNS,150122.00,,,,,,05,,,,,*72
$GBGNS,150122.00,,,,,,05,,,,,*71
$GPLLQ,150122.00,010125,,M,,M,1,20,5.609,,M*1C
$GPVTG,,T,,M,0.00,N,0.00,K,D*26
$GPHDT,,T*1B
$GPTHS,,V*0E
$GPROT,,V*08
$PSSN,HRP,150122.00,010125,,,,,,,00,0,,*64
$PTNL,AVR,150122.00,,Yaw,,Tilt,,,,0,,00*32
$GPGSA,A,3,11,12,25,28,29,31,,,,,,,1.5,0.8,1.2*3A
$GPGSA,A,3,78,79,81,88,,,,,,,,,1.5,0.8,1.2*35
$GPGSA,A,3,15,27,29,30,34,,,,,,,,1.5,0.8,1.2*33
$GPGSA,A,3,12,23,25,34,44,,,,,,,,1.5,0.8,1.2*3F
$GPGST,150122.00,3.387,3.065,1.224,7.615,3.042,1.279,4.536*51
$GPGBS,150122.00,7.663,3.062,15.731,12,0.0001,4.057,1.096*62
$GPGRS,150122.00,1,-1.6,4.1,0.5,0.9,-1.7,-3.1,,,,,,*6C
$GPGRS,150122.00,1,-3.4,-1.7,-3.1,-1.6,,,,,,,,*4F
$GPGRS,150122.00,1,-3.5,-2.4,-3.7,5.5,0.9,,,,,,,*45
$GPGRS,150122.00,1,1.5,-3.7,-1.6,-2.0,2.3,,,,,,,*4C
$GPGSV,5,1,17,25,80,077,39,31,25,312,45,32,12,246,26,11,34,057,41*7C
$GPGSV,5,2,17,20,13,085,,28,48,293,43,12,38,098,38,29,67,235,50*75
$GPGSV,5,3,17,26,05,292,,18,07,186,,05,00,116,,06,08,031,24*79
$GPGSV,5,4,17,24,01,159,,36,35,170,36,34,31,208,35,49,34,195,37*7E
$GPGSV,5,5,17,61,03,257,*4B
$GLGSV,3,1,10,88,72,079,46,70,11,330,25,87,18,031,,77,10,125,*6C
$GLGSV,3,2,10,81,40,192,38,79,51,321,49,78,68,105,46,80,01,310,38*69
$GLGSV,3,3,10,71,03,014,,69,04,272,*68
$GAGSV,3,1,11,30,61,089,37,15,34,158,42,18,13,062,,19,17,313,32*63
$GAGSV,3,2,11,36,18,036,35,02,10,101,,29,22,266,37,34,49,087,42*6B
$GAGSV,3,3,11,27,60,298,46,21,09,286,26,07,06,217,25*5A
$GBGSV,5,1,18,25,77,271,51,11,31,189,,05,20,130,,56,18,058,*61
$GBGSV,5,2,18,43,25,216,,23,26,306,45,10,12,072,24,13,17,091,*6C
$GBGSV,5,3,18,38,19,069,24,24,41,138,35,08,18,083,,44,47,059,40*60
$GBGSV,5,4,18,34,67,182,50,12,69,086,41,02,05,108,,35,04,044,*60
$GBGSV,5,5,18,20,01,352,,60,09,110,*6A
$GPGGA,150122.00,,,,,0,00,,,M,,M,,*4D
$PTNL,GGK,150122.00,010125,4742.4468098,N,01617.9741505,E,1,20,1.5,EHT669.0153,M*47
$GPGGQ,150122.00,010125,4742.4468098,N,01617.9741505,E,1,20,5.609,625.8043,M*37
$GPGFA,150122.00,29.137,37.196,3.065,1.224,7.615,4.536,,VVV*06
$GPLLK,150122.00,010125,,M,,M,1,20,1.7,,M*0A
$GNGMP,150122.00,,,,,DAAA,20,0.8,,,,*59
$GPGMP,150122.00,,,,,,06,,,,2.3,123*7F
$GLGMP,150122.00,,,,,,04,,,,,*7E
$GAGMP,150122.00,,,,,,05,,,,,*72
$GBGMP,150122.00,,,,,,05,,,,,*71
$PSSN,SNC,[0,313300000,2347]*46
$GPZDA,150127.00,01,01,2025,,*63
$GPDTM,W84,,00.0000000,N,00.0000000,E,00.0000000,W84*5F
$GPRMC,150127.00,A,4742.4468131,N,01617.9741424,E,0.0,,010125,5.1,E,D*1D
$GPGLL,4742.4468131,N,01617.9741424,E,150127.00,A,D*6C
$GPGGA,150127.00,4742.4468131,N,01617.9741424,E,2,19,0.8,625.7887,M,43.2110,M,1.8,0123*4C
$GNGNS,150127.00,4742.4468131,N,01617.9741424,E,DAAA,19,0.8,625.7887,43.2110,,*59
$GPGNS,150127.00,,,,,,05,,,,1.8,123*71
$GLGNS,150127.00,,,,,,04,,,,,*7B
$GAGNS,150127.00,,,,,,05,,,,,*77
$GBGNS,150127.00,,,,,,05,,,,,*74
$GPLLQ,150127.00,010125,,M,,M,1,19,4.669,,M*14
$GPVTG,,T,,M,0.01,N,0.02,K,D*25
$GPHDT,,T*1B
$GPTHS,,V*0E
$GPROT,,V*08
$PSSN,HRP,150127.00,010125,,,,,,,00,0,,*61
$PTNL,AVR,150127.00,,Yaw,,Tilt,,,,0,,00*37
$GPGSA,A,3,11,25,28,29,31,,,,,,,,1.5,0.8,1.3*38
$GPGSA,A,3,78,79,81,88,,,,,,,,,1.5,0.8,1.3*34
$GPGSA,A,3,15,27,29,30,34,,,,,,,,1.5,0.8,1.3*32
$GPGSA,A,3,12,23,25,34,44,,,,,,,,1.5,0.8,1.3*3E
$GPGST,150127.00,3.849,2.538,0.918,354.653,2.528,0.944,3.810*51
$GPGBS,150127.00,12.382,5.503,17.684,30,0.0001,10.504,6.191*67
$GPGRS,150127.00,1,-0.5,1.0,0.5,-0.9,-2.3,,,,,,,*44
$GPGRS,150127.00,1,-2.5,-0.2,-1.4,-1.4,,,,,,,,*4B
$GPGRS,150127.00,1,-3.2,-1.2,-1.6,10.5,1.6,,,,,,,*7B
$GPGRS,150127.00,1,4.7,-2.1,-0.4,-0.6,2.5,,,,,,,*48
$GPGSV,5,1,17,25,80,077,40,31,25,312,46,32,12,246,22,11,34,057,41*75
$GPGSV,5,2,17,20,13,085,,28,48,293,44,12,38,098,38,29,67,235,50*72
$GPGSV,5,3,17,26,06,292,,18,07,186,,05,00,116,,06,08,031,21*7F
$GPGSV,5,4,17,24,01,159,,36,35,170,37,34,31,208,35,49,34,195,36*7E
$GPGSV,5,5,17,61,03,257,*4B
$GLGSV,3,1,10,88,72,079,46,70,11,330,27,87,18,031,23,77,10,125,*6F
$GLGSV,3,2,10,81,40,192,38,79,51,321,49,78,68,105,47,80,01,310,38*68
$GLGSV,3,3,10,71,03,014,,69,04,272,*68
$GAGSV,3,1,11,30,61,089,36,15,34,158,41,18,13,062,,19,17,313,31*62
$GAGSV,3,2,11,36,18,036,35,02,10,101,,29,22,266,36,34,49,087,42*6A
$GAGSV,3,3,11,27,60,298,45,21,09,286,26,07,06,217,25*59
$GBGSV,5,1,18,25,77,271,51,11,31,189,,05,20,130,,56,18,058,*61
$GBGSV,5,2,18,43,25,216,,23,26,306,46,10,12,072,,13,17,091,*69
$GBGSV,5,3,18,38,19,069,24,24,41,138,34,08,18,083,,44,47,059,40*61
$GBGSV,5,4,18,34,67,182,50,12,69,086,42,02,05,108,,35,04,044,*63
$GBGSV,5,5,18,20,01,352,,60,09,110,*6A
$GPGGA,150127.00,,,,,0,00,,,M,,M,,*48
$PTNL,GGK,150127.00,010125,4742.4468131,N,01617.9741424,E,1,19,1.5,EHT668.9997,M*40
$GPGGQ,150127.00,010125,4742.4468131,N,01617.9741424,E,1,19,4.669,625.7887,M*30
$GPGFA,150127.00,24.131,31.240,2.538,0.918,354.653,3.810,,VVV*06
$GPLLK,150127.00,010125,,M,,M,1,19,1.8,,M*0A
$GNGMP,150127.00,,,,,DAAA,19,0.8,,,,*56
$GPGMP,150127.00,,,,,,05,,,,1.8,123*71
$GLGMP,150127.00,,,,,,04,,,,,*7B
$GAGMP,150127.00,,,,,,05,,,,,*77
$GBGMP,150127.00,,,,,,05,,,,,*74
$PSSN,SNC,[0,313305000,2347]*43
$GPZDA,150132.00,01,01,2025,,*67
$GPDTM,W84,,00.0000000,N,00.0000000,E,00.0000000,W84*5F
