$GPZDA,215942.00,01,01,2025,,*6A
$GPDTM,W84,,00.0000000,N,00.0000000,E,00.0000000,W84*5F
$GPRMC,215942.00,A,4742.4463005,N,01617.9731756,E,0.0,,010125,5.1,E,D*18
$GPGLL,4742.4463005,N,01617.9731756,E,215942.00,A,D*69
$GPGGA,215942.00,4742.4463005,N,01617.9731756,E,2,20,0.8,626.7001,M,43.2111,M,2.0,0123*4C
$GNGNS,215942.00,4742.4463005,N,01617.9731756,E,DAAA,20,0.8,626.7001,43.2111,,*52
$GPGNS,215942.00,,,,,,05,,,,2.0,123*73
$GLGNS,215942.00,,,,,,05,,,,,*73
$GAGNS,215942.00,,,,,,05,,,,,*7E
$GBGNS,215942.00,,,,,,05,,,,,*7D
$GPLLQ,215942.00,010125,,M,,M,1,20,3.098,,M*18
$GPVTG,,T,,M,0.00,N,0.00,K,D*26
$GPHDT,,T*1B
$GPTHS,,V*0E
$GPROT,,V*08
$PSSN,HRP,215942.00,010125,,,,,,,00,0,,*68
$PTNL,AVR,215942.00,,Yaw,,Tilt,,,,0,,00*3E
$GPGSA,A,3,08,10,14,21,32,,,,,,,,1.4,0.8,1.1*31
$GPGSA,A,3,68,69,75,84,85,,,,,,,,1.4,0.8,1.1*3D
$GPGSA,A,3,07,08,13,26,33,,,,,,,,1.4,0.8,1.1*36
$GPGSA,A,3,27,28,30,33,41,,,,,,,,1.4,0.8,1.1*36
$GPGST,215942.00,9.567,1.651,0.868,20.123,1.579,0.994,2.473*68
$GPGBS,215942.00,6.190,4.054,8.831,30,0.0001,32.581,8.842*66
$GPGRS,215942.00,1,0.2,-0.5,0.5,0.9,-0.6,,,,,,,*64
$GPGRS,215942.00,1,4.5,-1.9,0.5,-4.3,-2.8,,,,,,,*45
$GPGRS,215942.00,1,-0.7,-1.4,-1.0,0.8,2.0,,,,,,,*4D
$GPGRS,215942.00,1,-4.9,-5.0,32.6,4.3,-1.0,,,,,,,*7D
$GPGSV,4,1,15,08,72,226,51,14,11,325,41,23,12,051,27,01,32,279,*7C
$GPGSV,4,2,15,32,39,118,35,27,48,160,33,02,36,287,37,10,53,055,49*74
$GPGSV,4,3,15,21,58,295,45,24,00,038,,03,02,227,,36,35,170,40*71
$GPGSV,4,4,15,34,31,208,,49,34,195,36,61,03,257,*44
$GLGSV,3,1,10,84,68,359,40,83,28,100,,75,20,293,41,68,49,051,44*65
$GLGSV,3,2,10,85,23,305,44,69,55,147,48,76,09,350,33,70,03,191,*6D
$GLGSV,3,3,10,67,07,023,21,74,06,245,*66
$GAGSV,3,1,12,26,78,001,44,13,33,082,39,31,29,295,35,23,30,236,*65
$GAGSV,3,2,12,07,34,123,39,08,30,061,42,14,51,163,,33,36,282,41*67
$GAGSV,3,3,12,03,01,021,,29,06,170,,21,04,192,,24,03,338,*61
$GBGSV,6,1,21,27,70,302,38,13,18,051,22,60,11,108,,14,30,048,29*66
$GBGSV,6,2,21,05,24,128,32,30,19,301,35,41,54,167,47,33,53,069,40*60
$GBGSV,6,3,21,57,53,255,,28,61,118,39,32,08,201,,02,08,105,*60
$GBGSV,6,4,21,36,07,306,34,39,06,074,,16,02,083,,42,07,037,21*6D
$GBGSV,6,5,21,43,01,121,,46,03,259,,08,10,049,,58,02,243,*6E
$GBGSV,6,6,21,06,01,086,*51
$GPGGA,215942.00,,,,,0,00,,,M,,M,,*41
$PTNL,GGK,215942.00,010125,4742.4463005,N,01617.9731756,E,1,20,1.4,EHT669.9111,M*49
$GPGGQ,215942.00,010125,4742.4463005,N,01617.9731756,E,1,20,3.098,626.7001,M*35
$GPGFA,215942.00,15.702,20.280,1.651,0.868,20.123,2.473,,VVV*36
$GPLLK,215942.00,010125,,M,,M,1,20,1.6,,M*07
$GNGMP,215942.00,,,,,DAAA,20,0.8,,,,*55
$GPGMP,215942.00,,,,,,05,,,,2.0,123*73
$GLGMP,215942.00,,,,,,05,,,,,*73
$GAGMP,215942.00,,,,,,05,,,,,*7E
$GBGMP,215942.00,,,,,,05,,,,,*7D
$PSSN,SNC,[0,338400000,2347]*48
$GPZDA,215947.00,01,01,2025,,*6F
$GPDTM,W84,,00.0000000,N,00.0000000,E,00.0000000,W84*5F
$GPRMC,215947.00,A,4742.4463016,N,01617.9731918,E,0.0,,010125,5.1,E,D*1B
$GPGLL,4742.4463016,N,01617.9731918,E,215947.00,A,D*6A
$GPGGA,215947.00,4742.4463016,N,01617.9731918,E,2,22,0.8,626.7002,M,43.2111,M,2.8,0123*46
$GNGNS,215947.00,4742.4463016,N,01617.9731918,E,DAAA,22,0.8,626.7002,43.2111,,*50
$GPGNS,215947.00,,,,,,05,,,,2.8,123*7E
$GLGNS,215947.00,,,,,,05,,,,,*76
$GAGNS,215947.00,,,,,,06,,,,,*78
$GBGNS,215947.00,,,,,,06,,,,,*7B
$GPLLQ,215947.00,010125,,M,,M,1,22,4.916,,M*17
$GPVTG,,T,,M,0.01,N,0.02,K,D*25
$GPHDT,,T*1B
$GPTHS,,V*0E
$GPROT,,V*08
$PSSN,HRP,215947.00,010125,,,,,,,00,0,,*6D
$PTNL,AVR,215947.00,,Yaw,,Tilt,,,,0,,00*3B
$GPGSA,A,3,02,08,10,14,21,,,,,,,,1.4,0.8,1.1*32
$GPGSA,A,3,68,69,75,84,85,,,,,,,,1.4,0.8,1.1*3D
$GPGSA,A,3,07,08,13,26,31,33,,,,,,,1.4,0.8,1.1*34
$GPGSA,A,3,14,27,28,30,33,41,,,,,,,1.4,0.8,1.1*33
$GPGST,215947.00,7.661,2.784,0.950,347.538,2.726,1.105,3.938*53
$GPGBS,215947.00,10.350,4.277,16.901,30,0.0001,26.389,8.613*65
$GPGRS,215947.00,1,1.0,-0.3,-0.8,-0.7,0.3,,,,,,,*4F
$GPGRS,215947.00,1,8.9,-1.2,-2.3,-4.7,-5.1,,,,,,,*68
$GPGRS,215947.00,1,-1.4,-1.5,-1.0,0.5,0.7,2.0,,,,,,*6F
$GPGRS,215947.00,1,-0.8,-0.8,-5.4,26.4,2.3,-1.7,,,,,,*74
$GPGSV,4,1,15,08,72,226,52,14,11,324,40,23,12,051,25,01,32,279,*7D
$GPGSV,4,2,15,32,39,118,35,27,48,160,34,02,36,288,38,10,53,055,49*73
$GPGSV,4,3,15,21,58,295,45,24,00,038,,03,03,227,,36,35,170,40*70
$GPGSV,4,4,15,34,31,208,,49,34,195,36,61,03,257,*44
$GLGSV,3,1,10,84,68,359,40,83,28,100,,75,20,293,41,68,48,051,44*64
$GLGSV,3,2,10,85,23,305,42,69,55,147,49,76,09,350,35,70,03,191,*6C
$GLGSV,3,3,10,67,07,023,25,74,06,245,19*6A
$GAGSV,3,1,12,26,78,001,44,13,33,082,40,31,29,295,35,23,30,236,*6B
$GAGSV,3,2,12,07,34,123,40,08,30,060,42,14,50,163,,33,36,282,42*6A
$GAGSV,3,3,12,03,01,021,,29,06,170,,21,04,192,,24,03,338,*61
$GBGSV,6,1,21,27,70,302,40,13,18,051,23,60,11,108,,14,30,048,35*65
$GBGSV,6,2,21,05,24,128,32,30,19,301,36,41,54,167,47,33,53,068,40*62
$GBGSV,6,3,21,57,53,255,,28,61,118,39,32,08,201,,02,08,105,*60
$GBGSV,6,4,21,36,07,306,34,39,06,074,,16,02,083,,42,07,037,21*6D
$GBGSV,6,5,21,43,01,121,,46,03,259,,08,10,049,,58,02,243,*6E
$GBGSV,6,6,21,06,01,086,*51
$GPGGA,215947.00,,,,,0,00,,,M,,M,,*44
$PTNL,GGK,215947.00,010125,4742.4463016,N,01617.9731918,E,1,22,1.4,EHT669.9112,M*4B
$GPGGQ,215947.00,010125,4742.4463016,N,01617.9731918,E,1,22,4.916,626.7002,M*3F
$GPGFA,215947.00,26.470,32.293,2.784,0.950,347.538,3.938,,VVV*0B
$GPLLK,215947.00,010125,,M,,M,1,22,1.6,,M*00
$GNGMP,215947.00,,,,,DAAA,22,0.8,,,,*52
$GPGMP,215947.00,,,,,,05,,,,2.8,123*7E
$GLGMP,215947.00,,,,,,05,,,,,*76
$GAGMP,215947.00,,,,,,06,,,,,*78
$GBGMP,215947.00,,,,,,06,,,,,*7B
$PSSN,SNC,[0,338405000,2347]*4D
$GPZDA,215952.00,01,01,2025,,*6B
$GPDTM,W84,,00.0000000,N,00.0000000,E,00.0000000,W84*5F
$GPRMC,215952.00,A,4742.4463040,N,01617.9732030,E,0.0,,010125,5.1,E,D*1C
$GPGLL,4742.4463040,N,01617.9732030,E,215952.00,A,D*6D
$GPGGA,215952.00,4742.4463040,N,01617.9732030,E,2,21,0.9,626.6897,M,43.2111,M,3.8,0123*47
$GNGNS,215952.00,4742.4463040,N,01617.9732030,E,DAAA,21,0.9,626.6897,43.2111,,*50
$GPGNS,215952.00,,,,,,05,,,,3.8,123*7B
$GLGNS,215952.00,,,,,,05,,,,,*72
$GAGNS,215952.00,,,,,,06,,,,,*7C
$GBGNS,215952.00,,,,,,05,,,,,*7C
$GPLLQ,215952.00,010125,,M,,M,1,21,5.081,,M*16
$GPVTG,,T,,M,0.00,N,0.00,K,D*26
$GPHDT,,T*1B
$GPTHS,,V*0E
$GPROT,,V*08
$PSSN,HRP,215952.00,010125,,,,,,,00,0,,*69
$PTNL,AVR,215952.00,,Yaw,,Tilt,,,,0,,00*3F
$GPGSA,A,3,02,08,10,14,21,,,,,,,,1.4,0.9,1.1*33
$GPGSA,A,3,68,69,75,84,85,,,,,,,,1.4,0.9,1.1*3C
$GPGSA,A,3,07,08,13,26,31,33,,,,,,,1.4,0.9,1.1*35
$GPGSA,A,3,27,28,30,33,41,,,,,,,,1.4,0.9,1.1*37
$GPGST,215952.00,7.777,2.885,0.987,347.802,2.828,1.141,4.064*57
$GPGBS,215952.00,10.426,4.385,17.077,30,0.0001,24.670,8.612*62
$GPGRS,215952.00,1,-0.2,0.2,-0.6,-1.6,0.9,,,,,,,*4D
$GPGRS,215952.00,1,12.5,-0.8,-0.2,-4.7,-3.2,,,,,,,*56
$GPGRS,215952.00,1,-0.8,-0.8,-0.0,0.7,0.9,2.3,,,,,,*64
$GPGRS,215952.00,1,4.2,-4.2,24.7,0.7,-1.7,,,,,,,*58
$GPGSV,4,1,15,08,72,225,52,14,11,324,39,23,12,051,26,01,32,279,*73
$GPGSV,4,2,15,32,39,118,35,27,48,160,34,02,37,288,39,10,53,055,49*73
$GPGSV,4,3,15,21,58,295,44,24,00,038,,03,03,227,,36,35,170,40*71
$GPGSV,4,4,15,34,31,208,,49,34,195,36,61,03,257,*44
$GLGSV,3,1,10,84,68,359,41,83,28,100,32,75,20,293,39,68,48,051,43*6C
$GLGSV,3,2,10,85,23,305,42,69,55,147,50,76,09,350,34,70,03,191,*65
$GLGSV,3,3,10,67,06,023,28,74,06,245,21*6D
$GAGSV,3,1,12,26,78,002,44,13,33,082,40,31,29,295,36,23,30,235,*68
$GAGSV,3,2,12,07,34,123,40,08,30,060,43,14,50,163,,33,36,282,42*6B
$GAGSV,3,3,12,03,01,021,,29,06,170,,21,04,192,,24,03,338,*61
$GBGSV,6,1,21,27,70,302,40,13,18,051,21,60,11,108,,14,30,048,35*67
$GBGSV,6,2,21,05,24,128,31,30,19,301,37,41,54,167,47,33,53,068,39*6E
$GBGSV,6,3,21,57,53,255,,28,61,118,39,32,08,201,,02,08,105,*60
$GBGSV,6,4,21,36,07,306,30,39,06,074,,16,02,083,,42,07,037,*6A
$GBGSV,6,5,21,43,00,121,,46,03,259,,08,10,049,,58,01,243,*6C
$GBGSV,6,6,21,06,01,086,*51
$GPGGA,215952.00,,,,,0,00,,,M,,M,,*40
$PTNL,GGK,215952.00,010125,4742.4463040,N,01617.9732030,E,1,21,1.4,EHT669.9008,M*45
$GPGGQ,215952.00,010125,4742.4463040,N,01617.9732030,E,1,21,5.081,626.6897,M*38
$GPGFA,215952.00,27.432,33.324,2.885,0.987,347.802,4.064,,VVV*03
$GPLLK,215952.00,010125,,M,,M,1,21,1.7,,M*06
$GNGMP,215952.00,,,,,DAAA,21,0.9,,,,*54
$GPGMP,215952.00,,,,,,05,,,,3.8,123*7B
$GLGMP,215952.00,,,,,,05,,,,,*72
$GAGMP,215952.00,,,,,,06,,,,,*7C
$GBGMP,215952.00,,,,,,05,,,,,*7C
$PSSN,SNC,[0,338410000,2347]*49
$GPZDA,215957.00,01,01,2025,,*6E
$GPDTM,W84,,00.0000000,N,00.0000000,E,00.0000000,W84*5F
$GPRMC,215957.00,A,4742.4463105,N,01617.9732049,E,0.0,,010125,5.1,E,D*17
$GPGLL,4742.4463105,N,01617.9732049,E,215957.00,A,D*66
$GPGGA,215957.00,4742.4463105,N,01617.9732049,E,2,24,0.8,626.6874,M,43.2111,M,1.7,0123*48
$GNGNS,215957.00,4742.4463105,N,01617.9732049,E,DAAA,24,0.8,626.6874,43.2111,,*52
$GPGNS,215957.00,,,,,,06,,,,1.7,123*70
$GLGNS,215957.00,,,,,,05,,,,,*77
$GAGNS,215957.00,,,,,,06,,,,,*79
$GBGNS,215957.00,,,,,,07,,,,,*7B
$GPLLQ,215957.00,010125,,M,,M,1,24,2.736,,M*1A
$GPVTG,,T,,M,0.00,N,0.01,K,D*27
$GPHDT,,T*1B
$GPTHS,,V*0E
$GPROT,,V*08
$PSSN,HRP,215957.00,010125,,,,,,,00,0,,*6C
$PTNL,AVR,215957.00,,Yaw,,Tilt,,,,0,,00*3A
$GPGSA,A,3,02,08,10,14,21,32,,,,,,,1.3,0.8,1.0*35
$GPGSA,A,3,68,69,75,84,85,,,,,,,,1.3,0.8,1.0*3B
$GPGSA,A,3,07,08,13,26,31,33,,,,,,,1.3,0.8,1.0*32
$GPGSA,A,3,14,27,28,30,33,36,41,,,,,,1.3,0.8,1.0*30
$GPGST,215957.00,6.652,1.488,0.703,15.205,1.448,0.783,2.185*64
$GPGBS,215957.00,5.638,3.136,7.108,30,0.0001,21.319,8.612*64
$GPGRS,215957.00,1,-0.2,0.0,-1.4,-0.9,0.6,1.4,,,,,,*63
$GPGRS,215957.00,1,7.9,-2.0,-2.5,-5.6,-2.2,,,,,,,*65
$GPGRS,215957.00,1,-1.0,-0.9,0.2,0.2,1.3,1.0,,,,,,*48
$GPGRS,215957.00,1,11.4,-0.5,-4.0,21.3,-0.5,-5.4,-1.8,,,,,*48
$GPGSV,4,1,15,08,72,225,52,14,11,324,37,23,12,051,24,01,32,279,*7F
$GPGSV,4,2,15,32,39,118,38,27,48,160,36,02,37,288,39,10,53,055,48*7D
$GPGSV,4,3,15,21,58,295,43,24,00,038,,03,03,227,,36,35,170,40*76
$GPGSV,4,4,15,34,31,208,,49,34,195,36,61,03,257,*44
$GLGSV,3,1,10,84,68,359,41,83,28,100,27,75,20,293,38,68,48,051,41*6B
$GLGSV,3,2,10,85,23,305,42,69,55,147,49,76,09,350,34,70,03,191,*6D
$GLGSV,3,3,10,67,06,023,30,74,06,245,*67
$GAGSV,3,1,12,26,78,002,44,13,33,082,40,31,29,295,37,23,30,235,*69
$GAGSV,3,2,12,07,34,123,40,08,30,060,43,14,50,163,,33,36,282,41*68
$GAGSV,3,3,12,03,01,021,,29,06,170,,21,04,192,,24,03,338,*61
$GBGSV,6,1,21,27,70,302,40,13,18,051,21,60,11,108,,14,30,048,36*64
$GBGSV,6,2,21,05,24,128,31,30,19,301,38,41,54,167,47,33,53,068,41*6E
$GBGSV,6,3,21,57,53,255,,28,61,118,39,32,08,201,,02,08,105,*60
$GBGSV,6,4,21,36,07,306,35,39,06,074,,16,02,083,,42,07,037,20*6D
$GBGSV,6,5,21,43,00,121,,46,03,259,,08,10,049,,58,01,243,*6C
$GBGSV,6,6,21,06,01,086,*51
$GPGGA,215957.00,,,,,0,00,,,M,,M,,*45
$PTNL,GGK,215957.00,010125,4742.4463105,N,01617.9732049,E,1,24,1.3,EHT669.8985,M*41
$GPGGQ,215957.00,010125,4742.4463105,N,01617.9732049,E,1,24,2.736,626.6874,M*37
$GPGFA,215957.00,14.152,17.919,1.488,0.703,15.205,2.185,,VVV*36
$GPLLK,215957.00,010125,,M,,M,1,24,1.5,,M*04
$GNGMP,215957.00,,,,,DAAA,24,0.8,,,,*55
$GPGMP,215957.00,,,,,,06,,,,1.7,123*70
$GLGMP,215957.00,,,,,,05,,,,,*77
$GAGMP,215957.00,,,,,,06,,,,,*79
$GBGMP,215957.00,,,,,,07,,,,,*7B
$PSSN,SNC,[0,338415000,2347]*4C
$GPZDA,220002.00,01,01,2025,,*61
$GPDTM,W84,,00.0000000,N,00.0000000,E,00.0000000,W84*5F
$GPRMC,220002.00,A,4742.4463274,N,01617.9732048,E,0.0,,010125,5.1,E,D*1C
$GPGLL,4742.4463274,N,01617.9732048,E,220002.00,A,D*6D
$GPGGA,220002.00,4742.4463274,N,01617.9732048,E,2,24,0.7,626.6937,M,43.2111,M,1.8,0123*45
$GNGNS,220002.00,4742.4463274,N,01617.9732048,E,DAAA,24,0.7,626.6937,43.2111,,*50
$GPGNS,220002.00,,,,,,06,,,,1.8,123*70
$GLGNS,220002.00,,,,,,05,,,,,*78
$GAGNS,220002.00,,,,,,06,,,,,*76
$GBGNS,220002.00,,,,,,07,,,,,*74
$GPLLQ,220002.00,010125,,M,,M,1,24,3.362,,M*11
$GPVTG,,T,,M,0.00,N,0.01,K,D*27
$GPHDT,,T*1B
$GPTHS,,V*0E
$GPROT,,V*08
$PSSN,HRP,220002.00,010125,,,,,,,00,0,,*63
$PTNL,AVR,220002.00,,Yaw,,Tilt,,,,0,,00*35
$GPGSA,A,3,02,08,10,21,27,32,,,,,,,1.3,0.7,1.0*3A
$GPGSA,A,3,68,69,75,84,85,,,,,,,,1.3,0.7,1.0*34
$GPGSA,A,3,07,08,13,26,31,33,,,,,,,1.3,0.7,1.0*3D
$GPGSA,A,3,14,27,28,30,33,36,41,,,,,,1.3,0.7,1.0*3F
$GPGST,220002.00,6.291,1.227,0.729,22.542,1.167,0.822,3.044*6A
$GPGBS,220002.00,4.442,3.069,10.239,27,0.0001,1.849,0.665*6B
$GPGRS,220002.00,1,-0.5,0.0,-1.5,-0.4,1.8,0.8,,,,,,*65
$GPGRS,220002.00,1,4.0,-2.8,-1.7,-4.8,-2.1,,,,,,,*65
$GPGRS,220002.00,1,-1.6,-1.2,0.2,-0.3,1.3,-1.5,,,,,,*4F
$GPGRS,220002.00,1,11.5,-5.4,-3.4,19.8,-0.2,-5.6,-2.1,,,,,*4E
$GPGSV,4,1,15,08,72,225,52,14,11,324,32,23,12,051,24,01,32,279,*7A
$GPGSV,4,2,15,32,39,118,41,27,48,160,39,02,37,288,41,10,53,055,48*73
$GPGSV,4,3,15,21,58,295,42,24,00,038,,03,03,227,,36,35,170,40*77
$GPGSV,4,4,15,34,31,208,,49,34,195,36,61,03,257,*44
$GLGSV,3,1,10,84,68,359,41,83,28,100,30,75,20,293,35,68,48,051,43*62
$GLGSV,3,2,10,85,23,305,42,69,55,147,48,76,09,350,35,70,03,191,*6D
$GLGSV,3,3,10,67,06,023,30,74,06,244,*66
$GAGSV,3,1,12,26,78,002,45,13,33,082,41,31,29,295,37,23,30,235,*69
$GAGSV,3,2,12,07,34,123,41,08,30,060,44,14,50,163,,33,36,282,41*6E
$GAGSV,3,3,12,03,01,021,,29,06,170,,21,04,192,,24,03,338,*61
$GBGSV,6,1,21,27,70,302,41,13,18,051,30,60,11,108,,14,30,048,35*66
$GBGSV,6,2,21,05,24,128,31,30,19,301,38,41,54,167,47,33,53,068,42*6D
$GBGSV,6,3,21,57,53,255,,28,61,118,39,32,08,201,,02,08,105,*60
$GBGSV,6,4,21,36,07,306,35,39,06,074,,16,02,083,,42,07,037,*6F
$GBGSV,6,5,21,43,00,121,,46,03,259,,08,10,049,,58,01,243,*6C
$GBGSV,6,6,21,06,01,086,*51
$GPGGA,220002.00,,,,,0,00,,,M,,M,,*4A
$PTNL,GGK,220002.00,010125,4742.4463274,N,01617.9732048,E,1,24,1.3,EHT669.9047,M*4C
$GPGGQ,220002.00,010125,4742.4463274,N,01617.9732048,E,1,24,3.362,626.6937,M*3E
$GPGFA,220002.00,11.666,24.961,1.227,0.729,22.542,3.044,,VVV*35
$GPLLK,220002.00,010125,,M,,M,1,24,1.5,,M*0B
$GNGMP,220002.00,,,,,DAAA,24,0.7,,,,*55
$GPGMP,220002.00,,,,,,06,,,,1.8,123*70
$GLGMP,220002.00,,,,,,05,,,,,*78
$GAGMP,220002.00,,,,,,06,,,,,*76
$GBGMP,220002.00,,,,,,07,,,,,*74
$PSSN,SNC,[0,338420000,2347]*4A
$GPZDA,220007.00,01,01,2025,,*64
$GPDTM,W84,,00.0000000,N,00.0000000,E,00.0000000,W84*5F
$GPRMC,220007.00,A,4742.4463434,N,01617.9732063,E,0.0,,010125,5.1,E,D*12
$GPGLL,4742.4463434,N,01617.9732063,E,220007.00,A,D*63
$GPGGA,220007.00,4742.4463434,N,01617.9732063,E,2,21,0.8,626.7021,M,43.2111,M,2.8,0123*4D
$GNGNS,220007.00,4742.4463434,N,01617.9732063,E,DAAA,21,0.8,626.7021,43.2111,,*5B
$GPGNS,220007.00,,,,,,06,,,,2.8,123*76
$GLGNS,220007.00,,,,,,04,,,,,*7C
$GAGNS,220007.00,,,,,,06,,,,,*73
$GBGNS,220007.00,,,,,,05,,,,,*73
$GPLLQ,220007.00,010125,,M,,M,1,21,2.849,,M*12
$GPVTG,,T,,M,0.00,N,0.00,K,D*26
$GPHDT,,T*1B
$GPTHS,,V*0E
$GPROT,,V*08
$PSSN,HRP,220007.00,010125,,,,,,,00,0,,*66
$PTNL,AVR,220007.00,,Yaw,,Tilt,,,,0,,00*30
$GPGSA,A,3,02,08,10,21,27,32,,,,,,,1.5,0.8,1.2*31
$GPGSA,A,3,68,69,84,85,,,,,,,,,1.5,0.8,1.2*3D
$GPGSA,A,3,07,08,13,26,31,33,,,,,,,1.5,0.8,1.2*36
$GPGSA,A,3,27,28,30,33,41,,,,,,,,1.5,0.8,1.2*34
$GPGST,220007.00,5.814,1.027,0.602,23.882,0.970,0.690,2.588*6D
$GPGBS,220007.00,4.547,3.165,10.858,30,0.0001,19.158,8.611*57
$GPGRS,220007.00,1,-0.3,-0.1,-1.2,0.1,1.4,0.3,,,,,,*62
$GPGRS,220007.00,1,6.2,-3.1,-4.1,-1.6,,,,,,,,*60
$GPGRS,220007.00,1,-1.5,-1.5,-0.1,-0.1,1.7,-1.9,,,,,,*6A
$GPGRS,220007.00,1,-3.5,-2.8,19.2,-0.1,-2.1,,,,,,,*53
$GPGSV,4,1,15,08,72,225,52,14,11,324,25,23,12,051,23,01,32,279,*7B
$GPGSV,4,2,15,32,39,118,42,27,48,160,41,02,37,288,41,10,53,055,47*70
$GPGSV,4,3,15,21,58,295,39,24,00,038,,03,03,227,,36,35,170,40*7B
$GPGSV,4,4,15,34,31,208,,49,34,195,36,61,03,257,*44
$GLGSV,3,1,10,84,69,359,41,83,28,100,32,75,20,293,34,68,48,051,45*66
$GLGSV,3,2,10,85,23,305,43,69,56,146,47,76,09,349,35,70,03,191,*69
$GLGSV,3,3,10,67,06,023,30,74,06,244,*66
$GAGSV,3,1,12,26,78,002,45,13,33,082,41,31,29,295,36,23,29,235,*60
$GAGSV,3,2,12,07,34,123,40,08,30,060,43,14,50,163,,33,36,282,40*69
$GAGSV,3,3,12,03,01,021,,29,06,170,,21,04,192,,24,03,338,*61
$GBGSV,6,1,21,27,70,302,41,13,18,051,30,60,11,108,,14,30,047,34*68
$GBGSV,6,2,21,05,24,128,31,30,19,301,38,41,54,167,47,33,53,068,42*6D
$GBGSV,6,3,21,57,53,255,,28,61,118,39,32,08,201,,02,08,105,*60
$GBGSV,6,4,21,36,07,306,35,39,06,074,,16,02,083,,42,07,037,*6F
$GBGSV,6,5,21,43,00,121,,46,03,259,,08,10,049,,58,01,243,*6C
$GBGSV,6,6,21,06,01,086,*51
$GPGGA,220007.00,,,,,0,00,,,M,,M,,*4F
$PTNL,GGK,220007.00,010125,4742.4463434,N,01617.9732063,E,1,21,1.5,EHT669.9132,M*42
$GPGGQ,220007.00,010125,4742.4463434,N,01617.9732063,E,1,21,2.849,626.7021,M*39
$GPGFA,220007.00,9.762,21.225,1.027,0.602,23.882,2.588,,VVV*0C
$GPLLK,220007.00,010125,,M,,M,1,21,1.7,,M*09
$GNGMP,220007.00,,,,,DAAA,21,0.8,,,,*5A
$GPGMP,220007.00,,,,,,06,,,,2.8,123*76
$GLGMP,220007.00,,,,,,04,,,,,*7C
$GAGMP,220007.00,,,,,,06,,,,,*73
$GBGMP,220007.00,,,,,,05,,,,,*73
$PSSN,SNC,[0,338425000,2347]*4F
$GPZDA,220012.00,01,01,2025,,*60
$GPDTM,W84,,00.0000000,N,00.0000000,E,00.0000000,W84*5F
$GPRMC,220012.00,A,4742.4463569,N,01617.9732099,E,0.0,,010125,5.1,E,D*1A
$GPGLL,4742.4463569,N,01617.9732099,E,220012.00,A,D*6B
$GPGGA,220012.00,4742.4463569,N,01617.9732099,E,2,22,0.8,626.7145,M,43.2111,M,3.2,0123*4E
$GNGNS,220012.00,4742.4463569,N,01617.9732099,E,DAAA,22,0.8,626.7145,43.2111,,*53
$GPGNS,220012.00,,,,,,06,,,,3.2,123*79
$GLGNS,220012.00,,,,,,05,,,,,*79
$GAGNS,220012.00,,,,,,06,,,,,*77
$GBGNS,220012.00,,,,,,05,,,,,*77
$GPLLQ,220012.00,010125,,M,,M,1,22,3.347,,M*11
$GPVTG,,T,,M,0.01,N,0.02,K,D*25
$GPHDT,,T*1B
$GPTHS,,V*0E
$GPROT,,V*08
$PSSN,HRP,220012.00,010125,,,,,,,00,0,,*62
$PTNL,AVR,220012.00,,Yaw,,Tilt,,,,0,,00*34
$GPGSA,A,3,02,08,10,21,27,32,,,,,,,1.4,0.8,1.2*30
$GPGSA,A,3,68,69,75,84,85,,,,,,,,1.4,0.8,1.2*3E
$GPGSA,A,3,07,08,13,26,31,33,,,,,,,1.4,0.8,1.2*37
$GPGSA,A,3,27,28,30,33,41,,,,,,,,1.4,0.8,1.2*35
$GPGST,220012.00,6.239,1.229,0.715,23.899,1.161,0.822,3.030*67
$GPGBS,220012.00,4.649,3.130,10.463,30,0.0001,19.434,8.612*56
$GPGRS,220012.00,1,-0.9,-0.1,-1.5,0.6,1.4,0.5,,,,,,*6A
$GPGRS,220012.00,1,7.5,-5.0,-0.7,-3.4,-1.9,,,,,,,*6C
$GPGRS,220012.00,1,-1.2,-1.8,-0.2,0.0,2.5,-0.8,,,,,,*4A
$GPGRS,220012.00,1,-1.8,-1.6,19.4,0.6,-2.1,,,,,,,*79
$GPGSV,4,1,15,08,72,225,52,14,11,324,30,23,12,051,23,01,32,279,*7F
$GPGSV,4,2,15,32,39,118,43,27,48,160,42,02,37,288,41,10,53,055,47*72
$GPGSV,4,3,15,21,58,295,37,24,00,038,,03,03,227,,36,35,170,40*75
$GPGSV,4,4,15,34,31,208,,49,34,195,36,61,03,257,*44
$GLGSV,3,1,10,84,69,359,40,83,28,100,31,75,20,293,37,68,48,051,44*66
$GLGSV,3,2,10,85,23,305,42,69,56,146,46,76,09,349,,70,03,191,*6F
$GLGSV,3,3,10,67,06,023,29,74,06,244,28*64
$GAGSV,3,1,12,26,78,002,45,13,33,082,42,31,29,295,35,23,29,235,*60
$GAGSV,3,2,12,07,34,123,39,08,30,060,43,14,50,162,,33,36,282,39*68
$GAGSV,3,3,12,03,01,021,,29,06,170,,21,04,192,,24,03,338,*61
$GBGSV,6,1,21,27,70,302,41,13,18,051,19,60,11,108,,14,30,047,31*66
$GBGSV,6,2,21,05,24,128,32,30,19,301,36,41,54,167,47,33,53,068,43*61
$GBGSV,6,3,21,57,53,255,,28,60,118,40,32,08,201,,02,08,105,*6F
$GBGSV,6,4,21,36,07,306,29,39,06,074,,16,02,083,,42,07,037,*62
$GBGSV,6,5,21,43,00,121,,46,03,259,,08,10,049,,58,01,243,*6C
$GBGSV,6,6,21,06,01,086,*51
$GPGGA,220012.00,,,,,0,00,,,M,,M,,*4B
$PTNL,GGK,220012.00,010125,4742.4463569,N,01617.9732099,E,1,22,1.4,EHT669.9255,M*4A
$GPGGQ,220012.00,010125,4742.4463569,N,01617.9732099,E,1,22,3.347,626.7145,M*35
$GPGFA,220012.00,11.687,24.848,1.229,0.715,23.899,3.030,,VVV*39
$GPLLK,220012.00,010125,,M,,M,1,22,1.6,,M*0F
$GNGMP,220012.00,,,,,DAAA,22,0.8,,,,*5D
$GPGMP,220012.00,,,,,,06,,,,3.2,123*79
$GLGMP,220012.00,,,,,,05,,,,,*79
$GAGMP,220012.00,,,,,,06,,,,,*77
$GBGMP,220012.00,,,,,,05,,,,,*77
$PSSN,SNC,[0,338430000,2347]*4B
$GPZDA,220017.00,01,01,2025,,*65
$GPDTM,W84,,00.0000000,N,00.0000000,E,00.0000000,W84*5F
$GPRMC,220017.00,A,4742.4463664,N,01617.9732139,E,0.0,,010125,5.1,E,D*1A
$GPGLL,4742.4463664,N,01617.9732139,E,220017.00,A,D*6B
$GPGGA,220017.00,4742.4463664,N,01617.9732139,E,2,20,0.8,626.7195,M,43.2111,M,2.2,0123*40
$GNGNS,220017.00,4742.4463664,N,01617.9732139,E,DAAA,20,0.8,626.7195,43.2111,,*5C
$GPGNS,220017.00,,,,,,06,,,,2.2,123*7D
$GLGNS,220017.00,,,,,,05,,,,,*7C
$GAGNS,220017.00,,,,,,05,,,,,*71
$GBGNS,220017.00,,,,,,04,,,,,*73
$GPLLQ,220017.00,010125,,M,,M,1,20,2.363,,M*11
$GPVTG,,T,,M,0.00,N,0.01,K,D*27
$GPHDT,,T*1B
$GPTHS,,V*0E
$GPROT,,V*08
$PSSN,HRP,220017.00,010125,,,,,,,00,0,,*67
$PTNL,AVR,220017.00,,Yaw,,Tilt,,,,0,,00*31
$GPGSA,A,3,02,08,10,21,27,32,,,,,,,1.5,0.8,1.3*30
$GPGSA,A,3,68,69,75,84,85,,,,,,,,1.5,0.8,1.3*3E
$GPGSA,A,3,07,08,13,26,33,,,,,,,,1.5,0.8,1.3*35
$GPGSA,A,3,27,28,33,41,,,,,,,,,1.5,0.8,1.3*36
$GPGST,220017.00,3.174,0.860,0.502,22.899,0.816,0.571,2.143*69
$GPGBS,220017.00,4.534,3.018,10.728,10,0.0001,-0.940,0.635*49
$GPGRS,220017.00,1,-0.5,-0.4,-0.9,1.0,0.6,0.5,,,,,,*6F
$GPGRS,220017.00,1,7.9,-5.5,-2.2,-3.7,-1.1,,,,,,,*6C
$GPGRS,220017.00,1,-1.3,-1.9,-0.4,-0.2,-1.0,,,,,,,*46
$GPGRS,220017.00,1,-1.1,-0.2,1.7,-2.3,,,,,,,,*60
$GPGSV,4,1,15,08,72,225,51,14,11,324,30,23,12,051,21,01,32,279,*7E
$GPGSV,4,2,15,32,39,118,43,27,48,160,42,02,37,288,40,10,53,055,47*73
$GPGSV,4,3,15,21,58,295,37,24,00,038,,03,03,227,,36,35,170,40*75
$GPGSV,4,4,15,34,31,208,,49,34,195,36,61,03,257,*44
$GLGSV,3,1,10,84,69,000,40,83,28,100,28,75,20,293,36,68,48,051,44*60
$GLGSV,3,2,10,85,24,305,43,69,56,146,45,76,09,349,35,70,03,191,*6C
$GLGSV,3,3,10,67,06,023,,74,06,244,27*60
$GAGSV,3,1,12,26,78,002,44,13,33,083,43,31,29,295,34,23,29,235,*60
$GAGSV,3,2,12,07,34,123,38,08,30,060,43,14,50,162,,33,36,282,38*68
$GAGSV,3,3,12,03,01,020,,29,06,170,,21,04,192,,24,03,338,*60
$GBGSV,6,1,21,27,70,302,41,13,18,051,30,60,11,108,,14,30,047,28*65
$GBGSV,6,2,21,05,24,128,31,30,19,301,35,41,54,167,47,33,53,068,45*67
$GBGSV,6,3,21,57,53,255,,28,60,118,40,32,08,201,,02,08,105,*6F
$GBGSV,6,4,21,36,07,306,30,39,06,074,,16,02,083,,42,07,037,*6A
$GBGSV,6,5,21,43,00,121,,46,03,259,,08,10,049,,58,01,243,*6C
$GBGSV,6,6,21,06,01,086,*51
$GPGGA,220017.00,,,,,0,00,,,M,,M,,*4E
$PTNL,GGK,220017.00,010125,4742.4463664,N,01617.9732139,E,1,20,1.5,EHT669.9306,M*4E
$GPGGQ,220017.00,010125,4742.4463664,N,01617.9732139,E,1,20,2.363,626.7195,M*3D
$GPGFA,220017.00,8.175,17.569,0.860,0.502,22.899,2.143,,VVV*07
$GPLLK,220017.00,010125,,M,,M,1,20,1.8,,M*06
$GNGMP,220017.00,,,,,DAAA,20,0.8,,,,*5A
$GPGMP,220017.00,,,,,,06,,,,2.2,123*7D
$GLGMP,220017.00,,,,,,05,,,,,*7C
$GAGMP,220017.00,,,,,,05,,,,,*71
$GBGMP,220017.00,,,,,,04,,,,,*73
$PSSN,SNC,[0,338435000,2347]*4E
$GPZDA,220022.00,01,01,2025,,*63
$GPDTM,W84,,00.0000000,N,00.0000000,E,00.0000000,W84*5F
$GPRMC,220022.00,A,4742.4463716,N,01617.9732168,E,0.0,,010125,5.1,E,D*1C
$GPGLL,4742.4463716,N,01617.9732168,E,220022.00,A,D*6D
$GPGGA,220022.00,4742.4463716,N,01617.9732168,E,2,20,0.8,626.7242,M,43.2111,M,1.8,0123*46
$GNGNS,220022.00,4742.4463716,N,01617.9732168,E,DAAA,20,0.8,626.7242,43.2111,,*53
$GPGNS,220022.00,,,,,,06,,,,1.8,123*72
$GLGNS,220022.00,,,,,,05,,,,,*7A
$GAGNS,220022.00,,,,,,05,,,,,*77
$GBGNS,220022.00,,,,,,04,,,,,*75
$GPLLQ,220022.00,010125,,M,,M,1,20,2.315,,M*16
$GPVTG,,T,,M,0.00,N,0.01,K,D*27
$GPHDT,,T*1B
$GPTHS,,V*0E
$GPROT,,V*08
$PSSN,HRP,220022.00,010125,,,,,,,00,0,,*61
$PTNL,AVR,220022.00,,Yaw,,Tilt,,,,0,,00*37
$GPGSA,A,3,02,08,10,21,27,32,,,,,,,1.5,0.8,1.3*30
$GPGSA,A,3,68,69,75,84,85,,,,,,,,1.5,0.8,1.3*3E
$GPGSA,A,3,07,08,13,26,33,,,,,,,,1.5,0.8,1.3*35
$GPGSA,A,3,27,28,33,41,,,,,,,,,1.5,0.8,1.3*36
$GPGST,220022.00,3.490,0.836,0.495,22.558,0.795,0.558,2.102*66
$GPGBS,220022.00,4.435,3.104,10.764,21,0.0001,0.945,0.621*64
$GPGRS,220022.00,1,-0.6,-0.5,-0.6,0.9,-0.1,0.9,,,,,,*4A
$GPGRS,220022.00,1,8.4,-5.3,-5.6,-3.0,0.9,,,,,,,*4E
$GPGRS,220022.00,1,-2.1,-1.2,-0.0,-0.0,-0.6,,,,,,,*4B
$GPGRS,220022.00,1,-0.9,-0.2,2.6,-1.5,,,,,,,,*68
$GPGSV,4,1,15,08,72,225,50,14,11,324,30,23,12,051,21,01,32,279,*7F
$GPGSV,4,2,15,32,39,118,43,27,48,160,42,02,37,288,36,10,53,055,47*72
$GPGSV,4,3,15,21,58,295,38,24,00,038,,03,03,227,,36,35,170,40*7A
$GPGSV,4,4,15,34,31,208,,49,34,195,36,61,03,257,*44
$GLGSV,3,1,10,84,69,000,40,83,28,100,25,75,20,293,36,68,48,051,44*6D
$GLGSV,3,2,10,85,24,306,44,69,56,146,45,76,09,349,34,70,03,191,*69
$GLGSV,3,3,10,67,06,023,26,74,06,244,*61
$GAGSV,3,1,12,26,78,003,44,13,33,083,43,31,29,295,32,23,29,235,*67
$GAGSV,3,2,12,07,34,123,37,08,30,060,43,14,50,162,,33,36,282,38*67
$GAGSV,3,3,12,03,01,020,,29,06,170,,21,04,192,,24,03,338,*60
$GBGSV,6,1,21,27,70,302,42,13,18,051,29,60,11,108,,14,30,047,27*61
$GBGSV,6,2,21,05,24,128,31,30,19,301,33,41,54,167,46,33,53,068,45*60
$GBGSV,6,3,21,57,53,255,,28,60,118,41,32,08,201,,02,08,105,*6E
$GBGSV,6,4,21,36,07,306,29,39,06,074,,16,02,083,,42,07,036,20*61
$GBGSV,6,5,21,43,00,121,,46,03,259,,08,10,049,,58,01,243,*6C
$GBGSV,6,6,21,06,01,086,*51
$GPGGA,220022.00,,,,,0,00,,,M,,M,,*48
$PTNL,GGK,220022.00,010125,4742.4463716,N,01617.9732168,E,1,20,1.5,EHT669.9353,M*48
$GPGGQ,220022.00,010125,4742.4463716,N,01617.9732168,E,1,20,2.315,626.7242,M*33
$GPGFA,220022.00,7.945,17.235,0.836,0.495,22.558,2.102,,VVV*02
$GPLLK,220022.00,010125,,M,,M,1,20,1.8,,M*00
$GNGMP,220022.00,,,,,DAAA,20,0.8,,,,*5C
$GPGMP,220022.00,,,,,,06,,,,1.8,123*72
$GLGMP,220022.00,,,,,,05,,,,,*7A
$GAGMP,220022.00,,,,,,05,,,,,*77
$GBGMP,220022.00,,,,,,04,,,,,*75
$PSSN,SNC,[0,338440000,2347]*4C
$GPZDA,220027.00,01,01,2025,,*66
$GPDTM,W84,,00.0000000,N,00.0000000,E,00.0000000,W84*5F
$GPRMC,220027.00,A,4742.4463634,N,01617.9732152,E,0.0,,010125,5.1,E,D*11
$GPGLL,4742.4463634,N,01617.9732152,E,220027.00,A,D*60
$GPGGA,220027.00,4742.4463634,N,01617.9732152,E,2,18,0.8,626.7218,M,43.2111,M,2.8,0123*4C
$GNGNS,220027.00,4742.4463634,N,01617.9732152,E,DAAA,18,0.8,626.7218,43.2111,,*5A
$GPGNS,220027.00,,,,,,05,,,,2.8,123*77
$GLGNS,220027.00,,,,,,04,,,,,*7E
$GAGNS,220027.00,,,,,,05,,,,,*72
$GBGNS,220027.00,,,,,,04,,,,,*70
$GPLLQ,220027.00,010125,,M,,M,1,18,5.444,,M*1C
$GPVTG,,T,,M,0.00,N,0.00,K,D*26
$GPHDT,,T*1B
$GPTHS,,V*0E
$GPROT,,V*08
$PSSN,HRP,220027.00,010125,,,,,,,00,0,,*64
$PTNL,AVR,220027.00,,Yaw,,Tilt,,,,0,,00*32
$GPGSA,A,3,08,10,21,27,32,,,,,,,,1.7,0.8,1.5*36
$GPGSA,A,3,68,69,84,85,,,,,,,,,1.7,0.8,1.5*38
$GPGSA,A,3,07,08,13,26,33,,,,,,,,1.7,0.8,1.5*31
$GPGSA,A,3,27,28,33,41,,,,,,,,,1.7,0.8,1.5*32
$GPGST,220027.00,3.671,1.247,1.089,270.953,1.089,1.247,5.186*51
$GPGBS,220027.00,4.177,5.627,21.286,27,0.0001,-1.691,0.674*45
$GPGRS,220027.00,1,-0.2,-0.5,0.7,-1.7,1.6,,,,,,,*49
$GPGRS,220027.00,1,9.8,-4.8,-2.8,1.4,,,,,,,,*49
$GPGRS,220027.00,1,-2.0,-0.9,0.0,0.3,-0.6,,,,,,,*46
$GPGRS,220027.00,1,0.6,-0.2,2.0,-1.9,,,,,,,,*45
$GPGSV,4,1,15,08,72,225,50,14,11,324,31,23,12,051,22,01,32,279,*7D
$GPGSV,4,2,15,32,39,118,43,27,48,160,40,02,37,288,33,10,53,055,47*75
$GPGSV,4,3,15,21,58,295,38,24,00,038,,03,03,227,,36,35,170,40*7A
$GPGSV,4,4,15,34,31,208,,49,34,195,37,61,03,257,*45
$GLGSV,3,1,10,84,69,000,40,83,28,100,24,75,20,293,34,68,48,051,42*68
$GLGSV,3,2,10,85,24,306,45,69,56,146,45,76,09,349,36,70,03,191,*6A
$GLGSV,3,3,10,67,06,023,25,74,06,244,*62
$GAGSV,3,1,12,26,78,003,44,13,33,083,43,31,29,295,30,23,29,235,*65
$GAGSV,3,2,12,07,34,123,36,08,30,060,42,14,50,162,,33,36,282,39*66
$GAGSV,3,3,12,03,01,020,,29,06,170,,21,04,192,,24,03,338,*60
$GBGSV,6,1,21,27,70,302,43,13,18,051,29,60,11,108,,14,30,047,29*6E
$GBGSV,6,2,21,05,24,128,31,30,19,301,32,41,54,167,45,33,53,068,45*62
$GBGSV,6,3,21,57,53,255,,28,60,118,41,32,08,201,,02,08,105,*6E
$GBGSV,6,4,21,36,07,306,32,39,06,074,,16,02,083,,42,07,036,*69
$GBGSV,6,5,21,43,00,121,,46,03,259,,08,10,049,,58,01,243,*6C
$GBGSV,6,6,21,06,01,086,*51
$GPGGA,220027.00,,,,,0,00,,,M,,M,,*4D
$PTNL,GGK,220027.00,010125,4742.4463634,N,01617.9732152,E,1,18,1.7,EHT669.9329,M*41
$GPGGQ,220027.00,010125,4742.4463634,N,01617.9732152,E,1,18,5.444,626.7218,M*3E
$GPGFA,220027.00,11.856,42.528,1.247,1.089,270.953,5.186,,VVV*04
$GPLLK,220027.00,010125,,M,,M,1,18,2.0,,M*05
$GNGMP,220027.00,,,,,DAAA,18,0.8,,,,*52
$GPGMP,220027.00,,,,,,05,,,,2.8,123*77
$GLGMP,220027.00,,,,,,04,,,,,*7E
$GAGMP,220027.00,,,,,,05,,,,,*72
$GBGMP,220027.00,,,,,,04,,,,,*70
$PSSN,SNC,[0,338445000,2347]*49
$GPZDA,220032.00,01,01,2025,,*62
$GPDTM,W84,,00.0000000,N,00.0000000,E,00.0000000,W84*5F
$GPRMC,220032.00,A,4742.4463570,N,01617.9732130,E,0.0,,010125,5.1,E,D*12
$GPGLL,4742.4463570,N,01617.9732130,E,220032.00,A,D*63
$GPGGA,220032.00,4742.4463570,N,01617.9732130,E,2,17,0.9,626.7190,M,43.2111,M,3.5,0123*4E
$GNGNS,220032.00,4742.4463570,N,01617.9732130,E,DAAA,17,0.9,626.7190,43.2111,,*54
$GPGNS,220032.00,,,,,,04,,,,3.5,123*7E
$GLGNS,220032.00,,,,,,05,,,,,*7B
$GAGNS,220032.00,,,,,,04,,,,,*77
$GBGNS,220032.00,,,,,,04,,,,,*74
$GPLLQ,220032.00,010125,,M,,M,1,17,5.512,,M*15
$GPVTG,,T,,M,0.01,N,0.02,K,D*25
$GPHDT,,T*1B
$GPTHS,,V*0E
$GPROT,,V*08
$PSSN,HRP,220032.00,010125,,,,,,,00,0,,*60
$PTNL,AVR,220032.00,,Yaw,,Tilt,,,,0,,00*36
$GPGSA,A,3,08,10,21,27,,,,,,,,,1.6,0.9,1.4*36
$GPGSA,A,3,68,69,75,84,85,,,,,,,,1.6,0.9,1.4*3B
$GPGSA,A,3,08,13,26,33,,,,,,,,,1.6,0.9,1.4*37
$GPGSA,A,3,27,28,33,41,,,,,,,,,1.6,0.9,1.4*33
$GPGST,220032.00,3.553,1.183,1.062,88.583,1.062,1.183,5.278*60
$GPGBS,220032.00,4.685,5.400,24.250,27,0.0001,-1.653,0.689*4E
$GPGRS,220032.00,1,0.5,0.1,0.5,-1.7,,,,,,,,*65
$GPGRS,220032.00,1,6.6,-3.9,-6.0,-3.2,1.4,,,,,,,*44
$GPGRS,220032.00,1,-0.3,0.2,0.8,-0.1,,,,,,,,*47
$GPGRS,220032.00,1,2.7,-0.6,2.3,-1.3,,,,,,,,*4F
$GPGSV,4,1,15,08,72,225,50,14,11,324,30,23,12,051,19,01,32,279,*74
$GPGSV,4,2,15,32,39,117,43,27,48,160,39,02,37,288,34,10,53,055,48*7C
$GPGSV,4,3,15,21,58,295,39,24,00,038,,03,03,227,,36,35,170,41*7A
$GPGSV,4,4,15,34,31,208,,49,34,195,37,61,03,257,*45
$GLGSV,3,1,10,84,69,000,40,83,28,100,,75,20,293,37,68,48,051,40*6F
$GLGSV,3,2,10,85,24,306,46,69,56,146,45,76,09,349,36,70,04,191,*6E
$GLGSV,3,3,10,67,06,023,24,74,06,244,*63
$GAGSV,3,1,12,26,78,003,44,13,33,083,44,31,29,295,29,23,29,235,*6A
$GAGSV,3,2,12,07,34,123,35,08,30,060,43,14,50,162,,33,36,282,40*6A
$GAGSV,3,3,12,03,01,020,,29,06,170,,21,03,192,,24,03,338,*67
$GBGSV,6,1,21,27,70,302,44,13,18,051,29,60,11,108,,14,30,047,21*61
$GBGSV,6,2,21,05,24,128,31,30,19,301,30,41,54,167,45,33,53,068,44*61
$GBGSV,6,3,21,57,53,255,,28,60,118,41,32,08,201,,02,08,105,*6E
$GBGSV,6,4,21,36,07,306,34,39,06,074,,16,02,083,,42,07,036,*6F
$GBGSV,6,5,21,43,00,121,,46,03,259,,08,10,049,,58,01,243,*6C
$GBGSV,6,6,21,06,01,086,*51
$GPGGA,220032.00,,,,,0,00,,,M,,M,,*49
$PTNL,GGK,220032.00,010125,4742.4463570,N,01617.9732130,E,1,17,1.6,EHT669.9301,M*46
$GPGGQ,220032.00,010125,4742.4463570,N,01617.9732130,E,1,17,5.512,626.7190,M*33
$GPGFA,220032.00,11.250,43.278,1.183,1.062,88.583,5.278,,VVV*37
$GPLLK,220032.00,010125,,M,,M,1,17,2.0,,M*0E
$GNGMP,220032.00,,,,,DAAA,17,0.9,,,,*58
$GPGMP,220032.00,,,,,,04,,,,3.5,123*7E
$GLGMP,220032.00,,,,,,05,,,,,*7B
$GAGMP,220032.00,,,,,,04,,,,,*77
$GBGMP,220032.00,,,,,,04,,,,,*74
$PSSN,SNC,[0,338450000,2347]*4D
$GPZDA,220037.00,01,01,2025,,*67
$GPDTM,W84,,00.0000000,N,00.0000000,E,00.0000000,W84*5F
$GPRMC,220037.00,A,4742.4463492,N,01617.9732176,E,0.0,,010125,5.1,E,D*18
$GPGLL,4742.4463492,N,01617.9732176,E,220037.00,A,D*69
$GPGGA,220037.00,4742.4463492,N,01617.9732176,E,2,18,0.8,626.7114,M,43.2111,M,2.5,0123*47
$GNGNS,220037.00,4742.4463492,N,01617.9732176,E,DAAA,18,0.8,626.7114,43.2111,,*5C
$GPGNS,220037.00,,,,,,04,,,,2.5,123*7A
$GLGNS,220037.00,,,,,,06,,,,,*7D
$GAGNS,220037.00,,,,,,04,,,,,*72
$GBGNS,220037.00,,,,,,04,,,,,*71
$GPLLQ,220037.00,010125,,M,,M,1,18,3.885,,M*1A
$GPVTG,,T,,M,0.01,N,0.01,K,D*26
$GPHDT,,T*1B
$GPTHS,,V*0E
$GPROT,,V*08
$PSSN,HRP,220037.00,010125,,,,,,,00,0,,*65
$PTNL,AVR,220037.00,,Yaw,,Tilt,,,,0,,00*33
$GPGSA,A,3,08,10,21,27,,,,,,,,,1.5,0.8,1.2*32
$GPGSA,A,3,68,69,75,76,84,85,,,,,,,1.5,0.8,1.2*3E
$GPGSA,A,3,08,13,26,33,,,,,,,,,1.5,0.8,1.2*33
$GPGSA,A,3,27,28,33,41,,,,,,,,,1.5,0.8,1.2*37
$GPGST,220037.00,3.497,0.855,0.776,274.319,0.776,0.855,3.709*5D
$GPGBS,220037.00,4.834,5.344,20.510,21,0.0001,0.891,0.662*60
$GPGRS,220037.00,1,0.3,-0.2,0.9,-0.9,,,,,,,,*4B
$GPGRS,220037.00,1,6.1,-3.6,-4.8,5.5,-4.0,0.1,,,,,,*6C
$GPGRS,220037.00,1,-0.7,-0.7,0.1,-0.0,,,,,,,,*66
$GPGRS,220037.00,1,1.2,-2.3,2.0,-1.1,,,,,,,,*4A
$GPGSV,4,1,15,08,72,224,51,14,11,324,31,23,11,051,22,01,32,279,*7E
$GPGSV,4,2,15,32,39,117,42,27,47,161,37,02,37,288,34,10,53,055,48*7D
$GPGSV,4,3,15,21,58,295,40,24,01,038,,03,03,227,,36,35,170,41*75
$GPGSV,4,4,15,34,31,208,,49,34,195,37,61,03,257,*45
$GLGSV,3,1,10,84,69,000,39,83,28,100,21,75,20,293,40,68,48,050,43*60
$GLGSV,3,2,10,85,24,306,46,69,56,146,44,76,09,349,37,70,04,191,*6E
$GLGSV,3,3,10,67,06,023,25,74,06,244,22*62
$GAGSV,3,1,12,26,78,003,44,13,33,083,44,31,29,295,31,23,29,235,*63
$GAGSV,3,2,12,07,34,123,33,08,30,060,44,14,50,162,,33,37,282,40*6A
$GAGSV,3,3,12,03,01,020,,29,06,170,,21,03,192,,24,03,338,*67
$GBGSV,6,1,21,27,70,302,44,13,18,051,29,60,11,108,,14,30,047,33*62
$GBGSV,6,2,21,05,24,128,31,30,19,301,31,41,54,167,45,33,53,068,43*67
$GBGSV,6,3,21,57,53,256,,28,60,118,40,32,08,201,,02,08,105,*6C
$GBGSV,6,4,21,36,07,306,31,39,06,074,,16,02,083,,42,07,036,*6A
$GBGSV,6,5,21,43,00,122,,46,03,259,,08,10,049,,58,01,243,*6F
$GBGSV,6,6,21,06,01,086,*51
$GPGGA,220037.00,,,,,0,00,,,M,,M,,*4C
$PTNL,GGK,220037.00,010125,4742.4463492,N,01617.9732176,E,1,18,1.5,EHT669.9224,M*46
$GPGGQ,220037.00,010125,4742.4463492,N,01617.9732176,E,1,18,3.885,626.7114,M*3F
$GPGFA,220037.00,8.130,30.413,0.855,0.776,274.319,3.709,,VVV*31
$GPLLK,220037.00,010125,,M,,M,1,18,1.8,,M*0F
$GNGMP,220037.00,,,,,DAAA,18,0.8,,,,*53
$GPGMP,220037.00,,,,,,04,,,,2.5,123*7A
$GLGMP,220037.00,,,,,,06,,,,,*7D
$GAGMP,220037.00,,,,,,04,,,,,*72
$GBGMP,220037.00,,,,,,04,,,,,*71
$PSSN,SNC,[0,338455000,2347]*48
$GPZDA,220042.00,01,01,2025,,*65
$GPDTM,W84,,00.0000000,N,00.0000000,E,00.0000000,W84*5F
$GPRMC,220042.00,A,4742.4463435,N,01617.9732263,E,0.0,,010125,5.1,E,D*10
$GPGLL,4742.4463435,N,01617.9732263,E,220042.00,A,D*61
$GPGGA,220042.00,4742.4463435,N,01617.9732263,E,2,20,0.8,626.7120,M,43.2111,M,1.8,0123*4D
$GNGNS,220042.00,4742.4463435,N,01617.9732263,E,DAAA,20,0.8,626.7120,43.2111,,*58
$GPGNS,220042.00,,,,,,05,,,,1.8,123*77
$GLGNS,220042.00,,,,,,06,,,,,*7F
$GAGNS,220042.00,,,,,,04,,,,,*70
$GBGNS,220042.00,,,,,,05,,,,,*72
$GPLLQ,220042.00,010125,,M,,M,1,20,4.792,,M*1D
$GPVTG,,T,,M,0.00,N,0.00,K,D*26
$GPHDT,,T*1B
$GPTHS,,V*0E
$GPROT,,V*08
$PSSN,HRP,220042.00,010125,,,,,,,00,0,,*67
$PTNL,AVR,220042.00,,Yaw,,Tilt,,,,0,,00*31
$GPGSA,A,3,08,10,21,27,32,,,,,,,,1.3,0.8,1.1*36
$GPGSA,A,3,68,69,75,76,84,85,,,,,,,1.3,0.8,1.1*3B
$GPGSA,A,3,08,13,26,33,,,,,,,,,1.3,0.8,1.1*36
$GPGSA,A,3,27,28,33,36,41,,,,,,,,1.3,0.8,1.1*37
$GPGST,220042.00,3.798,1.173,1.086,70.320,1.096,1.164,4.517*62
$GPGBS,220042.00,4.198,4.556,15.717,21,0.0001,1.728,0.612*61
$GPGRS,220042.00,1,-0.5,-1.1,1.7,-0.8,0.2,,,,,,,*42
$GPGRS,220042.00,1,9.1,-3.3,-4.5,2.0,-4.7,-1.4,,,,,,*45
$GPGRS,220042.00,1,-1.4,-1.1,-0.5,-1.1,,,,,,,,*48
$GPGRS,220042.00,1,-0.3,-3.3,0.3,4.9,-0.9,,,,,,,*4F
$GPGSV,4,1,15,08,72,224,50,14,11,324,34,23,11,051,23,01,32,279,*7B
$GPGSV,4,2,15,32,39,117,39,27,47,161,37,02,37,288,35,10,53,055,48*70
$GPGSV,4,3,15,21,58,295,40,24,01,038,,03,03,227,,36,35,170,41*75
$GPGSV,4,4,15,34,31,208,,49,34,195,37,61,03,257,*45
$GLGSV,3,1,10,84,69,000,38,83,27,100,27,75,20,293,42,68,48,050,43*6A
$GLGSV,3,2,10,85,24,306,46,69,56,146,45,76,09,349,37,70,04,191,*6F
$GLGSV,3,3,10,67,06,023,27,74,06,244,20*62
$GAGSV,3,1,12,26,78,003,44,13,33,083,43,31,29,295,34,23,29,235,*61
$GAGSV,3,2,12,07,34,123,32,08,30,060,44,14,50,162,,33,37,282,40*6B
$GAGSV,3,3,12,03,01,020,,29,06,170,,21,03,192,,24,03,338,*67
$GBGSV,6,1,21,27,70,302,44,13,18,051,22,60,11,108,,14,30,047,34*6E
$GBGSV,6,2,21,05,24,128,32,30,19,301,34,41,54,167,45,33,53,068,42*60
$GBGSV,6,3,21,57,53,256,,28,60,118,38,32,08,201,,02,08,105,*63
$GBGSV,6,4,21,36,07,306,37,39,06,074,,16,02,083,,42,07,036,*6C
$GBGSV,6,5,21,43,00,122,,46,03,259,,08,10,049,,58,01,243,*6F
$GBGSV,6,6,21,06,01,086,*51
$GPGGA,220042.00,,,,,0,00,,,M,,M,,*4E
$PTNL,GGK,220042.00,010125,4742.4463435,N,01617.9732263,E,1,20,1.3,EHT669.9231,M*47
$GPGGQ,220042.00,010125,4742.4463435,N,01617.9732263,E,1,20,4.792,626.7120,M*35
$GPGFA,220042.00,11.155,37.039,1.173,1.086,70.320,4.517,,VVV*30
$GPLLK,220042.00,010125,,M,,M,1,20,1.6,,M*08
$GNGMP,220042.00,,,,,DAAA,20,0.8,,,,*5A
$GPGMP,220042.00,,,,,,05,,,,1.8,123*77
$GLGMP,220042.00,,,,,,06,,,,,*7F
$GAGMP,220042.00,,,,,,04,,,,,*70
$GBGMP,220042.00,,,,,,05,,,,,*72
$PSSN,SNC,[0,338460000,2347]*4E
$GPZDA,220047.00,01,01,2025,,*60
$GPDTM,W84,,00.0000000,N,00.0000000,E,00.0000000,W84*5F
$GPRMC,220047.00,A,4742.4463422,N,01617.9732489,E,0.0,,010125,5.1,E,D*11
$GPGLL,4742.4463422,N,01617.9732489,E,220047.00,A,D*60
$GPGGA,220047.00,4742.4463422,N,01617.9732489,E,2,19,0.8,626.7047,M,43.2111,M,2.5,0123*48
$GNGNS,220047.00,4742.4463422,N,01617.9732489,E,DAAA,19,0.8,626.7047,43.2111,,*53
$GPGNS,220047.00,,,,,,04,,,,2.5,123*7D
$GLGNS,220047.00,,,,,,06,,,,,*7A
$GAGNS,220047.00,,,,,,04,,,,,*75
$GBGNS,220047.00,,,,,,05,,,,,*77
$GPLLQ,220047.00,010125,,M,,M,1,19,5.531,,M*18
$GPVTG,,T,,M,0.00,N,0.01,K,D*27
$GPHDT,,T*1B
$GPTHS,,V*0E
$GPROT,,V*08
$PSSN,HRP,220047.00,010125,,,,,,,00,0,,*62
$PTNL,AVR,220047.00,,Yaw,,Tilt,,,,0,,00*34
$GPGSA,A,3,08,10,21,27,,,,,,,,,1.4,0.8,1.1*30
$GPGSA,A,3,68,69,75,76,84,85,,,,,,,1.4,0.8,1.1*3C
$GPGSA,A,3,08,13,26,33,,,,,,,,,1.4,0.8,1.1*31
$GPGSA,A,3,27,28,33,36,41,,,,,,,,1.4,0.8,1.1*30
$GPGST,220047.00,5.093,1.267,1.129,84.612,1.130,1.266,5.264*6E
$GPGBS,220047.00,4.660,4.844,18.697,21,0.0001,1.323,0.627*67
$GPGRS,220047.00,1,-0.6,-1.1,1.3,1.0,,,,,,,,*48
$GPGRS,220047.00,1,12.5,-1.4,-3.5,5.8,-3.3,-1.5,,,,,,*71
$GPGRS,220047.00,1,-1.1,-0.5,-0.3,-1.2,,,,,,,,*48
$GPGRS,220047.00,1,-0.1,-5.0,-1.2,7.8,-0.4,,,,,,,*6F
$GPGSV,4,1,15,08,72,224,51,14,11,324,35,23,11,051,22,01,32,279,*7A
$GPGSV,4,2,15,32,39,117,34,27,47,161,39,02,37,288,34,10,53,055,48*72
$GPGSV,4,3,15,21,58,295,39,24,01,038,,03,03,227,,36,35,170,41*7B
$GPGSV,4,4,15,34,31,208,,49,34,195,37,61,03,257,*45
$GLGSV,3,1,10,84,69,000,38,83,27,100,30,75,20,293,41,68,48,050,42*6E
$GLGSV,3,2,10,85,24,306,46,69,56,146,45,76,09,349,35,70,04,191,*6D
$GLGSV,3,3,10,67,06,023,28,74,06,244,*6F
$GAGSV,3,1,12,26,78,003,43,13,33,083,43,31,29,295,36,23,29,235,*64
$GAGSV,3,2,12,07,34,123,31,08,30,060,44,14,50,162,,33,37,282,40*68
$GAGSV,3,3,12,03,01,020,,29,07,170,,21,03,192,,24,03,338,*66
$GBGSV,6,1,21,27,70,302,44,13,18,051,24,60,11,108,,14,30,047,35*69
$GBGSV,6,2,21,05,24,128,31,30,19,301,35,41,54,167,46,33,53,068,41*62
$GBGSV,6,3,21,57,53,256,,28,60,119,38,32,08,201,,02,08,105,*62
$GBGSV,6,4,21,36,07,306,38,39,06,074,,16,02,083,,42,07,036,*63
$GBGSV,6,5,21,43,00,122,,46,03,259,,08,10,049,,58,01,243,*6F
$GBGSV,6,6,21,06,01,086,*51
$GPGGA,220047.00,,,,,0,00,,,M,,M,,*4B
$PTNL,GGK,220047.00,010125,4742.4463422,N,01617.9732489,E,1,19,1.4,EHT669.9158,M*47
$GPGGQ,220047.00,010125,4742.4463422,N,01617.9732489,E,1,19,5.531,626.7047,M*34
$GPGFA,220047.00,12.046,43.165,1.267,1.129,84.612,5.264,,VVV*31
$GPLLK,220047.00,010125,,M,,M,1,19,1.7,,M*06
$GNGMP,220047.00,,,,,DAAA,19,0.8,,,,*55
$GPGMP,220047.00,,,,,,04,,,,2.5,123*7D
$GLGMP,220047.00,,,,,,06,,,,,*7A
$GAGMP,220047.00,,,,,,04,,,,,*75
$GBGMP,220047.00,,,,,,05,,,,,*77
$PSSN,SNC,[0,338465000,2347]*4B
$GPZDA,220052.00,01,01,2025,,*64
$GPDTM,W84,,00.0000000,N,00.0000000,E,00.0000000,W84*5F
$GPRMC,220052.00,A,4742.4463501,N,01617.9732602,E,0.0,,010125,5.1,E,D*14
$GPGLL,4742.4463501,N,01617.9732602,E,220052.00,A,D*65
$GPGGA,220052.00,4742.4463501,N,01617.9732602,E,2,20,0.9,626.7120,M,43.2111,M,3.6,0123*44
$GNGNS,220052.00,4742.4463501,N,01617.9732602,E,DAAA,20,0.9,626.7120,43.2111,,*5D
$GPGNS,220052.00,,,,,,05,,,,3.6,123*7A
$GLGNS,220052.00,,,,,,05,,,,,*7D
$GAGNS,220052.00,,,,,,05,,,,,*70
$GBGNS,220052.00,,,,,,05,,,,,*73
$GPLLQ,220052.00,010125,,M,,M,1,20,3.219,,M*1D
$GPVTG,,T,,M,0.00,N,0.01,K,D*27
$GPHDT,,T*1B
$GPTHS,,V*0E
$GPROT,,V*08
$PSSN,HRP,220052.00,010125,,,,,,,00,0,,*66
$PTNL,AVR,220052.00,,Yaw,,Tilt,,,,0,,00*30
$GPGSA,A,3,02,08,10,21,27,,,,,,,,1.5,0.9,1.2*31
$GPGSA,A,3,68,69,75,84,85,,,,,,,,1.5,0.9,1.2*3E
$GPGSA,A,3,08,13,26,31,33,,,,,,,,1.5,0.9,1.2*30
$GPGSA,A,3,27,28,33,36,41,,,,,,,,1.5,0.9,1.2*33
$GPGST,220052.00,4.736,1.023,0.755,23.659,0.985,0.804,2.958*64
$GPGBS,220052.00,4.989,4.300,12.627,68,0.0001,10.291,6.078*5E
$GPGRS,220052.00,1,0.5,-0.7,-1.1,0.1,1.1,,,,,,,*64
$GPGRS,220052.00,1,10.3,-0.5,-5.9,-2.8,-2.8,,,,,,,*5C
$GPGRS,220052.00,1,-1.2,-0.3,0.1,1.5,-0.4,,,,,,,*4B
$GPGRS,220052.00,1,0.2,-5.3,-3.1,9.5,-0.4,,,,,,,*44
$GPGSV,4,1,15,08,72,224,50,14,11,324,35,23,11,051,19,01,32,279,*73
$GPGSV,4,2,15,32,39,117,32,27,47,161,39,02,37,288,36,10,53,055,47*79
$GPGSV,4,3,15,21,58,295,37,24,01,038,,03,03,227,,36,35,170,41*75
$GPGSV,4,4,15,34,31,208,,49,34,195,37,61,03,257,*45
$GLGSV,3,1,10,84,69,000,38,83,27,100,30,75,20,293,39,68,48,050,39*6D
$GLGSV,3,2,10,85,24,306,45,69,56,146,47,76,09,349,34,70,04,191,*6D
$GLGSV,3,3,10,67,06,023,27,74,06,244,*60
$GAGSV,3,1,12,26,78,003,43,13,33,083,43,31,29,295,36,23,29,235,*64
$GAGSV,3,2,12,07,34,123,31,08,30,060,45,14,50,162,,33,37,282,39*67
$GAGSV,3,3,12,03,01,020,,29,07,170,,21,03,192,,24,03,338,*66
$GBGSV,6,1,21,27,70,302,45,13,18,051,24,60,11,108,,14,30,047,34*69
$GBGSV,6,2,21,05,24,128,30,30,19,301,34,41,54,167,45,33,52,068,41*60
$GBGSV,6,3,21,57,53,256,,28,60,119,39,32,08,201,,02,08,105,*63
$GBGSV,6,4,21,36,07,305,38,39,06,074,,16,02,083,,42,07,036,*60
$GBGSV,6,5,21,43,00,122,,46,03,259,,08,10,049,,58,01,243,*6F
$GBGSV,6,6,21,06,01,086,*51
$GPGGA,220052.00,,,,,0,00,,,M,,M,,*4F
$PTNL,GGK,220052.00,010125,4742.4463501,N,01617.9732602,E,1,20,1.5,EHT669.9231,M*45
$GPGGQ,220052.00,010125,4742.4463501,N,01617.9732602,E,1,20,3.219,626.7120,M*30
$GPGFA,220052.00,9.725,24.252,1.023,0.755,23.659,2.958,,VVV*04
$GPLLK,220052.00,010125,,M,,M,1,20,1.7,,M*08
$GNGMP,220052.00,,,,,DAAA,20,0.9,,,,*5A
$GPGMP,220052.00,,,,,,05,,,,3.6,123*7A
$GLGMP,220052.00,,,,,,05,,,,,*7D
$GAGMP,220052.00,,,,,,05,,,,,*70
$GBGMP,220052.00,,,,,,05,,,,,*73
$PSSN,SNC,[0,338470000,2347]*4F
$GPZDA,220057.00,01,01,2025,,*61
$GPDTM,W84,,00.0000000,N,00.0000000,E,00.0000000,W84*5F
$GPRMC,220057.00,A,4742.4463547,N,01617.9732607,E,0.0,,010125,5.1,E,D*16
$GPGLL,4742.4463547,N,01617.9732607,E,220057.00,A,D*67
$GPGGA,220057.00,4742.4463547,N,01617.9732607,E,2,20,0.8,626.7285,M,43.2111,M,1.8,0123*47
$GNGNS,220057.00,4742.4463547,N,01617.9732607,E,DAAA,20,0.8,626.7285,43.2111,,*52
$GPGNS,220057.00,,,,,,04,,,,1.8,123*72
$GLGNS,220057.00,,,,,,06,,,,,*7B
$GAGNS,220057.00,,,,,,05,,,,,*75
$GBGNS,220057.00,,,,,,05,,,,,*76
$GPLLQ,220057.00,010125,,M,,M,1,20,2.362,,M*14
$GPVTG,,T,,M,0.00,N,0.01,K,D*27
$GPHDT,,T*1B
$GPTHS,,V*0E
$GPROT,,V*08
$PSSN,HRP,220057.00,010125,,,,,,,00,0,,*63
$PTNL,AVR,220057.00,,Yaw,,Tilt,,,,0,,00*35
$GPGSA,A,3,02,08,10,27,,,,,,,,,1.4,0.8,1.2*32
$GPGSA,A,3,68,69,75,76,84,85,,,,,,,1.4,0.8,1.2*3F
$GPGSA,A,3,08,13,26,31,33,,,,,,,,1.4,0.8,1.2*30
$GPGSA,A,3,27,28,33,36,41,,,,,,,,1.4,0.8,1.2*33
$GPGST,220057.00,4.761,0.741,0.581,14.598,0.732,0.593,2.166*64
$GPGBS,220057.00,5.719,3.699,15.736,75,0.0001,-8.317,6.184*4C
$GPGRS,220057.00,1,0.4,-0.3,-0.2,0.3,,,,,,,,*4A
$GPGRS,220057.00,1,6.1,0.6,-8.3,2.6,-3.7,-2.9,,,,,,*60
$GPGRS,220057.00,1,-0.9,0.1,0.6,-0.6,0.2,,,,,,,*68
$GPGRS,220057.00,1,0.7,-2.0,-4.6,11.5,-0.5,,,,,,,*78
$GPGSV,4,1,15,08,72,224,51,14,11,324,35,23,11,051,20,01,32,279,*78
$GPGSV,4,2,15,32,39,117,30,27,47,161,40,02,37,288,36,10,53,055,46*74
$GPGSV,4,3,15,21,58,295,34,24,01,038,,03,03,227,,36,35,170,41*76
$GPGSV,4,4,15,34,31,208,,49,34,195,37,61,03,257,*45
$GLGSV,3,1,10,84,69,000,38,83,27,100,31,75,20,293,36,68,48,050,36*6C
$GLGSV,3,2,10,85,24,306,44,69,56,146,48,76,09,349,37,70,04,191,*60
$GLGSV,3,3,10,67,06,023,28,74,06,244,22*6F
$GAGSV,3,1,12,26,78,003,44,13,33,083,43,31,29,295,36,23,29,235,*63
$GAGSV,3,2,12,07,34,123,31,08,30,060,45,14,50,162,,33,37,282,38*66
$GAGSV,3,3,12,03,01,020,,29,07,170,,21,03,192,,24,03,338,*66
$GBGSV,6,1,21,27,70,302,45,13,18,051,26,60,11,108,,14,30,047,34*6B
$GBGSV,6,2,21,05,24,128,30,30,19,301,34,41,54,167,45,33,52,068,39*6F
$GBGSV,6,3,21,57,53,256,,28,60,119,39,32,08,201,,02,08,105,*63
$GBGSV,6,4,21,36,07,305,38,39,06,074,,16,02,083,,42,07,036,*60
$GBGSV,6,5,21,43,00,122,,46,03,259,,08,10,049,,58,01,243,*6F
$GBGSV,6,6,21,06,01,086,*51
$GPGGA,220057.00,,,,,0,00,,,M,,M,,*4A
$PTNL,GGK,220057.00,010125,4742.4463547,N,01617.9732607,E,1,20,1.4,EHT669.9396,M*4A
$GPGGQ,220057.00,010125,4742.4463547,N,01617.9732607,E,1,20,2.362,626.7285,M*32
$GPGFA,220057.00,7.048,17.758,0.741,0.581,14.598,2.166,,VVV*0A
$GPLLK,220057.00,010125,,M,,M,1,20,1.7,,M*0D
$GNGMP,220057.00,,,,,DAAA,20,0.8,,,,*5E
$GPGMP,220057.00,,,,,,04,,,,1.8,123*72
$GLGMP,220057.00,,,,,,06,,,,,*7B
$GAGMP,220057.00,,,,,,05,,,,,*75
$GBGMP,220057.00,,,,,,05,,,,,*76
$PSSN,SNC,[0,338475000,2347]*4A
$GPZDA,220102.00,01,01,2025,,*60
$GPDTM,W84,,00.0000000,N,00.0000000,E,00.0000000,W84*5F
$GPRMC,220102.00,A,4742.4463585,N,01617.9732556,E,0.0,,010125,5.1,E,D*1E
$GPGLL,4742.4463585,N,01617.9732556,E,220102.00,A,D*6F
$GPGGA,220102.00,4742.4463585,N,01617.9732556,E,2,18,0.9,626.7288,M,43.2111,M,1.8,0123*48
$GNGNS,220102.00,4742.4463585,N,01617.9732556,E,DAAA,18,0.9,626.7288,43.2111,,*5D
$GPGNS,220102.00,,,,,,04,,,,1.8,123*73
$GLGNS,220102.00,,,,,,04,,,,,*78
$GAGNS,220102.00,,,,,,05,,,,,*74
$GBGNS,220102.00,,,,,,05,,,,,*77
$GPLLQ,220102.00,010125,,M,,M,1,18,2.721,,M*1D
$GPVTG,,T,,M,0.01,N,0.01,K,D*26
$GPHDT,,T*1B
$GPTHS,,V*0E
$GPROT,,V*08
$PSSN,HRP,220102.00,010125,,,,,,,00,0,,*62
$PTNL,AVR,220102.00,,Yaw,,Tilt,,,,0,,00*34
$GPGSA,A,3,02,08,10,27,,,,,,,,,1.5,0.9,1.2*32
$GPGSA,A,3,69,76,84,85,,,,,,,,,1.5,0.9,1.2*33
$GPGSA,A,3,08,13,26,31,33,,,,,,,,1.5,0.9,1.2*30
$GPGSA,A,3,27,28,33,36,41,,,,,,,,1.5,0.9,1.2*33
$GPGST,220102.00,4.296,0.832,0.689,3.601,0.832,0.689,2.497*51
$GPGBS,220102.00,5.413,3.808,16.158,02,0.0001,-1.219,0.703*46
$GPGRS,220102.00,1,-1.2,-0.3,0.5,0.7,,,,,,,,*4F
$GPGRS,220102.00,1,-0.2,4.5,-2.9,-2.2,,,,,,,,*68
$GPGRS,220102.00,1,-0.0,0.4,0.8,0.2,-0.7,,,,,,,*6A
$GPGRS,220102.00,1,0.6,-4.8,-6.9,9.7,-0.0,,,,,,,*45
$GPGSV,4,1,15,08,72,224,50,14,11,324,35,23,11,051,20,01,32,279,*79
$GPGSV,4,2,15,32,39,117,27,27,47,161,41,02,37,288,35,10,53,055,46*70
$GPGSV,4,3,15,21,58,295,32,24,01,038,,03,03,227,,36,35,170,41*70
$GPGSV,4,4,15,34,31,208,,49,34,195,37,61,03,257,*45
$GLGSV,3,1,10,84,69,001,38,83,27,100,29,75,20,293,36,68,48,050,34*66
$GLGSV,3,2,10,85,24,306,45,69,56,146,48,76,09,349,39,70,04,191,*6F
$GLGSV,3,3,10,67,06,023,,74,06,244,21*66
$GAGSV,3,1,12,26,78,004,43,13,33,083,43,31,29,295,37,23,29,235,*62
$GAGSV,3,2,12,07,34,123,31,08,30,060,45,14,50,162,,33,37,282,36*68
$GAGSV,3,3,12,03,01,020,,29,07,170,,21,03,192,,24,03,338,*66
$GBGSV,6,1,21,27,70,302,46,13,18,051,24,60,11,108,,14,30,047,34*6A
$GBGSV,6,2,21,05,24,128,30,30,19,301,22,41,54,167,45,33,52,068,38*69
$GBGSV,6,3,21,57,53,256,,28,60,119,41,32,08,201,,02,08,105,*6C
$GBGSV,6,4,21,36,07,305,38,39,06,074,,16,02,083,,42,07,036,*60
$GBGSV,6,5,21,43,00,122,,46,03,259,,08,10,049,,58,01,243,*6F
$GBGSV,6,6,21,06,01,086,*51
$GPGGA,220102.00,,,,,0,00,,,M,,M,,*4B
$PTNL,GGK,220102.00,010125,4742.4463585,N,01617.9732556,E,1,18,1.5,EHT669.9398,M*46
$GPGGQ,220102.00,010125,4742.4463585,N,01617.9732556,E,1,18,2.721,626.7288,M*3F
$GPGFA,220102.00,7.913,20.474,0.832,0.689,3.601,2.497,,VVV*3B
$GPLLK,220102.00,010125,,M,,M,1,18,1.8,,M*08
$GNGMP,220102.00,,,,,DAAA,18,0.9,,,,*55
$GPGMP,220102.00,,,,,,04,,,,1.8,123*73
$GLGMP,220102.00,,,,,,04,,,,,*78
$GAGMP,220102.00,,,,,,05,,,,,*74
$GBGMP,220102.00,,,,,,05,,,,,*77
$PSSN,SNC,[0,338480000,2347]*40
$GPZDA,220107.00,01,01,2025,,*65
$GPDTM,W84,,00.0000000,N,00.0000000,E,00.0000000,W84*5F
$GPRMC,220107.00,A,4742.4463564,N,01617.9732430,E,0.0,,010125,5.1,E,D*15
$GPGLL,4742.4463564,N,01617.9732430,E,220107.00,A,D*64
$GPGGA,220107.00,4742.4463564,N,01617.9732430,E,2,20,0.8,626.7287,M,43.2111,M,2.7,0123*4A
$GNGNS,220107.00,4742.4463564,N,01617.9732430,E,DAAA,20,0.8,626.7287,43.2111,,*53
$GPGNS,220107.00,,,,,,03,,,,2.7,123*7D
$GLGNS,220107.00,,,,,,06,,,,,*7F
$GAGNS,220107.00,,,,,,05,,,,,*71
$GBGNS,220107.00,,,,,,06,,,,,*71
$GPLLQ,220107.00,010125,,M,,M,1,20,4.336,,M*17
$GPVTG,,T,,M,0.01,N,0.02,K,D*25
$GPHDT,,T*1B
$GPTHS,,V*0E
$GPROT,,V*08
$PSSN,HRP,220107.00,010125,,,,,,,00,0,,*67
$PTNL,AVR,220107.00,,Yaw,,Tilt,,,,0,,00*31
$GPGSA,A,3,08,10,27,,,,,,,,,,1.4,0.8,1.2*30
$GPGSA,A,3,68,69,75,76,84,85,,,,,,,1.4,0.8,1.2*3F
$GPGSA,A,3,08,13,26,31,33,,,,,,,,1.4,0.8,1.2*30
$GPGSA,A,3,27,28,30,33,36,41,,,,,,,1.4,0.8,1.2*30
$GPGST,220107.00,5.425,1.547,0.831,296.775,1.018,1.431,3.964*55
$GPGBS,220107.00,5.577,5.834,18.402,28,0.0001,13.369,8.523*55
$GPGRS,220107.00,1,-0.7,0.7,0.3,,,,,,,,,*48
$GPGRS,220107.00,1,0.3,-1.9,-4.7,8.3,-2.6,-1.9,,,,,,*47
$GPGRS,220107.00,1,-0.1,-0.2,0.8,0.7,-0.4,,,,,,,*43
$GPGRS,220107.00,1,0.2,13.4,-0.3,-8.5,4.8,-0.3,,,,,,*50
$GPGSV,4,1,15,08,72,224,50,14,11,324,36,23,11,051,20,01,32,279,*7A
$GPGSV,4,2,15,32,39,117,27,27,47,161,41,02,37,288,35,10,53,055,47*71
$GPGSV,4,3,15,21,58,295,32,24,01,038,,03,03,227,,36,35,170,41*70
$GPGSV,4,4,15,34,31,208,,49,34,195,37,61,03,257,*45
$GLGSV,3,1,10,84,69,001,38,83,27,100,26,75,20,293,37,68,48,050,38*64
$GLGSV,3,2,10,85,24,306,44,69,56,146,48,76,09,349,40,70,04,191,*60
$GLGSV,3,3,10,67,06,023,21,74,06,244,*66
$GAGSV,3,1,12,26,78,004,44,13,33,083,44,31,29,295,38,23,29,235,*6D
$GAGSV,3,2,12,07,34,123,28,08,30,060,46,14,50,162,,33,37,282,36*63
$GAGSV,3,3,12,03,01,020,,29,07,170,,21,03,192,,24,03,338,*66
$GBGSV,6,1,21,27,70,302,46,13,18,051,24,60,11,108,,14,30,047,34*6A
$GBGSV,6,2,21,05,24,128,31,30,20,301,35,41,54,167,45,33,52,068,35*69
$GBGSV,6,3,21,57,53,256,,28,60,119,41,32,08,201,,02,08,105,*6C
$GBGSV,6,4,21,36,07,305,35,39,06,074,,16,02,083,,42,07,036,*6D
$GBGSV,6,5,21,43,00,122,,46,03,258,,08,10,049,,58,01,243,*6E
$GBGSV,6,6,21,06,01,086,*51
$GPGGA,220107.00,,,,,0,00,,,M,,M,,*4E
$PTNL,GGK,220107.00,010125,4742.4463564,N,01617.9732430,E,1,20,1.4,EHT669.9398,M*47
$GPGGQ,220107.00,010125,4742.4463564,N,01617.9732430,E,1,20,4.336,626.7287,M*34
$GPGFA,220107.00,14.711,32.509,1.547,0.831,296.775,3.964,,VVV*07
$GPLLK,220107.00,010125,,M,,M,1,20,1.7,,M*09
$GNGMP,220107.00,,,,,DAAA,20,0.8,,,,*5A
$GPGMP,220107.00,,,,,,03,,,,2.7,123*7D
$GLGMP,220107.00,,,,,,06,,,,,*7F
$GAGMP,220107.00,,,,,,05,,,,,*71
$GBGMP,220107.00,,,,,,06,,,,,*71
$PSSN,SNC,[0,338485000,2347]*45
$GPZDA,220112.00,01,01,2025,,*61
$GPDTM,W84,,00.0000000,N,00.0000000,E,00.0000000,W84*5F
$GPRMC,220112.00,A,4742.4463509,N,01617.9732273,E,0.0,,010125,5.1,E,D*1B
$GPGLL,4742.4463509,N,01617.9732273,E,220112.00,A,D*6A
$GPGGA,220112.00,4742.4463509,N,01617.9732273,E,2,19,0.8,626.7305,M,43.2111,M,3.6,0123*45
$GNGNS,220112.00,4742.4463509,N,01617.9732273,E,DAAA,19,0.8,626.7305,43.2111,,*5C
$GPGNS,220112.00,,,,,,05,,,,3.6,123*7F
$GLGNS,220112.00,,,,,,05,,,,,*78
$GAGNS,220112.00,,,,,,05,,,,,*75
$GBGNS,220112.00,,,,,,04,,,,,*77
$GPLLQ,220112.00,010125,,M,,M,1,19,2.945,,M*11
$GPVTG,,T,,M,0.01,N,0.01,K,D*26
$GPHDT,,T*1B
$GPTHS,,V*0E
$GPROT,,V*08
$PSSN,HRP,220112.00,010125,,,,,,,00,0,,*63
$PTNL,AVR,220112.00,,Yaw,,Tilt,,,,0,,00*35
$GPGSA,A,3,02,08,10,21,27,,,,,,,,1.5,0.8,1.3*31
$GPGSA,A,3,68,69,76,84,85,,,,,,,,1.5,0.8,1.3*3D
$GPGSA,A,3,08,13,26,31,33,,,,,,,,1.5,0.8,1.3*30
$GPGSA,A,3,27,28,30,41,,,,,,,,,1.5,0.8,1.3*35
$GPGST,220112.00,5.055,0.932,0.670,24.812,0.891,0.723,2.713*65
$GPGBS,220112.00,4.973,4.315,12.472,76,0.0001,11.564,6.349*5A
$GPGRS,220112.00,1,-0.8,-0.5,1.2,0.1,-0.4,,,,,,,*44
$GPGRS,220112.00,1,3.4,-2.0,11.6,-1.7,-2.9,,,,,,,*71
$GPGRS,220112.00,1,-0.3,-0.3,1.1,0.8,-0.3,,,,,,,*44
$GPGRS,220112.00,1,0.5,11.6,2.7,0.2,,,,,,,,*78
$GPGSV,4,1,15,08,72,224,49,14,11,324,37,23,11,051,21,01,32,279,*72
$GPGSV,4,2,15,32,39,117,33,27,47,161,40,02,37,288,36,10,53,055,48*79
$GPGSV,4,3,15,21,58,295,36,24,01,038,,03,03,227,,36,35,170,41*74
$GPGSV,4,4,15,34,31,208,,49,34,195,37,61,03,257,*45
$GLGSV,3,1,10,84,69,001,39,83,27,100,21,75,20,293,35,68,48,050,40*6F
$GLGSV,3,2,10,85,24,306,43,69,56,146,47,76,09,349,41,70,04,191,*69
$GLGSV,3,3,10,67,06,023,,74,06,244,*65
$GAGSV,3,1,12,26,78,004,44,13,33,083,43,31,29,295,39,23,29,235,*6B
$GAGSV,3,2,12,07,34,123,28,08,30,060,46,14,50,162,,33,37,282,36*63
$GAGSV,3,3,12,03,01,020,,29,07,170,,21,03,192,,24,03,338,*66
$GBGSV,6,1,21,27,70,302,47,13,18,051,22,60,11,108,,14,30,047,33*6A
$GBGSV,6,2,21,05,24,128,31,30,20,301,36,41,54,167,46,33,52,068,32*6E
$GBGSV,6,3,21,57,53,256,,28,60,119,41,32,08,201,,02,08,105,*6C
$GBGSV,6,4,21,36,07,305,29,39,06,074,,16,02,083,,42,07,036,*60
$GBGSV,6,5,21,43,00,122,,46,03,258,,08,10,049,,58,01,243,*6E
$GBGSV,6,6,21,06,01,086,*51
$GPGGA,220112.00,,,,,0,00,,,M,,M,,*4A
$PTNL,GGK,220112.00,010125,4742.4463509,N,01617.9732273,E,1,19,1.5,EHT669.9415,M*40
$GPGGQ,220112.00,010125,4742.4463509,N,01617.9732273,E,1,19,2.945,626.7305,M*33
$GPGFA,220112.00,8.858,22.244,0.932,0.670,24.812,2.713,,VVV*0D
$GPLLK,220112.00,010125,,M,,M,1,19,1.8,,M*08
$GNGMP,220112.00,,,,,DAAA,19,0.8,,,,*54
$GPGMP,220112.00,,,,,,05,,,,3.6,123*7F
$GLGMP,220112.00,,,,,,05,,,,,*78
$GAGMP,220112.00,,,,,,05,,,,,*75
$GBGMP,220112.00,,,,,,04,,,,,*77
$PSSN,SNC,[0,338490000,2347]*41
$GPZDA,220117.00,01,01,2025,,*64
$GPDTM,W84,,00.0000000,N,00.0000000,E,00.0000000,W84*5F
$GPRMC,220117.00,A,4742.4463398,N,01617.9732120,E,0.0,,010125,5.1,E,D*15
$GPGLL,4742.4463398,N,01617.9732120,E,220117.00,A,D*64
$GPGGA,220117.00,4742.4463398,N,01617.9732120,E,2,20,0.8,626.7243,M,43.2111,M,2.2,0123*47
$GNGNS,220117.00,4742.4463398,N,01617.9732120,E,DAAA,20,0.8,626.7243,43.2111,,*5B
$GPGNS,220117.00,,,,,,05,,,,2.2,123*7F
$GLGNS,220117.00,,,,,,06,,,,,*7E
$GAGNS,220117.00,,,,,,05,,,,,*70
$GBGNS,220117.00,,,,,,04,,,,,*72
$GPLLQ,220117.00,010125,,M,,M,1,20,3.426,,M*17
$GPVTG,,T,,M,0.00,N,0.01,K,D*27
$GPHDT,,T*1B
$GPTHS,,V*0E
$GPROT,,V*08
$PSSN,HRP,220117.00,010125,,,,,,,00,0,,*66
$PTNL,AVR,220117.00,,Yaw,,Tilt,,,,0,,00*30
$GPGSA,A,3,02,08,10,21,27,,,,,,,,1.5,0.8,1.2*30
$GPGSA,A,3,68,69,75,76,84,85,,,,,,,1.5,0.8,1.2*3E
$GPGSA,A,3,08,13,26,31,33,,,,,,,,1.5,0.8,1.2*31
$GPGSA,A,3,27,28,30,41,,,,,,,,,1.5,0.8,1.2*34
$GPGST,220117.00,5.403,1.091,0.814,20.534,1.061,0.853,3.144*6C
$GPGBS,220117.00,5.052,4.019,11.944,76,0.0001,12.519,6.351*50
$GPGRS,220117.00,1,-1.0,-0.1,1.1,0.6,-1.1,,,,,,,*4C
$GPGRS,220117.00,1,8.2,-2.9,-2.9,12.5,-0.4,-3.3,,,,,,*71
$GPGRS,220117.00,1,-0.0,0.0,1.2,0.1,-0.2,,,,,,,*67
$GPGRS,220117.00,1,0.6,10.3,3.8,0.6,,,,,,,,*70
$GPGSV,4,1,15,08,72,224,49,14,11,324,38,23,11,051,19,01,32,279,*76
$GPGSV,4,2,15,32,39,117,37,27,47,161,39,02,37,288,36,10,53,055,49*72
$GPGSV,4,3,15,21,58,295,38,24,01,038,,03,03,227,,36,35,170,41*7A
$GPGSV,4,4,15,34,31,208,,49,34,195,37,61,03,257,*45
$GLGSV,3,1,10,84,69,001,38,83,27,100,29,75,20,293,37,68,48,050,42*66
$GLGSV,3,2,10,85,24,306,43,69,56,146,47,76,09,349,38,70,04,191,*67
$GLGSV,3,3,10,67,06,023,31,74,06,244,*67
$GAGSV,3,1,12,26,78,004,44,13,33,083,43,31,29,295,40,23,29,235,*65
$GAGSV,3,2,12,07,34,123,29,08,30,060,45,14,49,162,,33,37,282,36*69
$GAGSV,3,3,12,03,01,020,,29,07,170,,21,03,192,,24,03,338,*66
$GBGSV,6,1,21,27,70,302,48,13,18,051,21,60,11,108,,14,30,047,32*67
$GBGSV,6,2,21,05,24,128,31,30,20,301,37,41,54,167,46,33,52,068,29*65
$GBGSV,6,3,21,57,53,256,,28,60,119,39,32,08,201,,02,08,105,*63
$GBGSV,6,4,21,36,07,305,30,39,07,074,,16,02,083,,42,06,036,*68
$GBGSV,6,5,21,43,00,122,,46,03,258,,08,10,049,,58,01,243,*6E
$GBGSV,6,6,21,06,01,086,*51
$GPGGA,220117.00,,,,,0,00,,,M,,M,,*4F
$PTNL,GGK,220117.00,010125,4742.4463398,N,01617.9732120,E,1,20,1.5,EHT669.9354,M*46
$GPGGQ,220117.00,010125,4742.4463398,N,01617.9732120,E,1,20,3.426,626.7243,M*3D
$GPGFA,220117.00,10.377,25.784,1.091,0.814,20.534,3.144,,VVV*3C
$GPLLK,220117.00,010125,,M,,M,1,20,1.7,,M*08
$GNGMP,220117.00,,,,,DAAA,20,0.8,,,,*5B
$GPGMP,220117.00,,,,,,05,,,,2.2,123*7F
$GLGMP,220117.00,,,,,,06,,,,,*7E
$GAGMP,220117.00,,,,,,05,,,,,*70
$GBGMP,220117.00,,,,,,04,,,,,*72
$PSSN,SNC,[0,338495000,2347]*44
$GPZDA,220122.00,01,01,2025,,*62
$GPDTM,W84,,00.0000000,N,00.0000000,E,00.0000000,W84*5F
$GPRMC,220122.00,A,4742.4463265,N,01617.9732053,E,0.0,,010125,5.1,E,D*15
$GPGLL,4742.4463265,N,01617.9732053,E,220122.00,A,D*64
$GPGGA,220122.00,4742.4463265,N,01617.9732053,E,2,20,0.8,626.7179,M,43.2111,M,1.6,0123*4A
$GNGNS,220122.00,4742.4463265,N,01617.9732053,E,DAAA,20,0.8,626.7179,43.2111,,*51
$GPGNS,220122.00,,,,,,05,,,,1.6,123*7E
$GLGNS,220122.00,,,,,,05,,,,,*7B
$GAGNS,220122.00,,,,,,06,,,,,*75
$GBGNS,220122.00,,,,,,04,,,,,*74
$GPLLQ,220122.00,010125,,M,,M,1,20,2.885,,M*15
$GPVTG,,T,,M,0.00,N,0.01,K,D*27
$GPHDT,,T*1B
$GPTHS,,V*0E
$GPROT,,V*08
$PSSN,HRP,220122.00,010125,,,,,,,00,0,,*60
$PTNL,AVR,220122.00,,Yaw,,Tilt,,,,0,,00*36
$GPGSA,A,3,02,08,10,21,27,,,,,,,,1.5,0.8,1.2*30
$GPGSA,A,3,68,69,75,84,85,,,,,,,,1.5,0.8,1.2*3F
$GPGSA,A,3,07,08,13,26,31,33,,,,,,,1.5,0.8,1.2*36
$GPGSA,A,3,27,28,30,41,,,,,,,,,1.5,0.8,1.2*34
$GPGST,220122.00,4.979,0.913,0.682,20.027,0.889,0.713,2.650*68
$GPGBS,220122.00,4.726,4.122,12.310,68,0.0001,13.102,6.075*57
$GPGRS,220122.00,1,0.3,-0.4,0.7,0.0,-0.9,,,,,,,*68
$GPGRS,220122.00,1,13.1,-2.5,6.3,-1.8,-2.2,,,,,,,*74
$GPGRS,220122.00,1,-2.1,-0.1,-0.3,1.1,1.1,-0.1,,,,,,*4F
$GPGRS,220122.00,1,0.6,8.9,3.0,-0.1,,,,,,,,*67
$GPGSV,4,1,15,08,72,223,48,14,11,324,37,23,11,051,23,01,32,279,*76
$GPGSV,4,2,15,32,39,117,40,27,47,161,39,02,37,288,36,10,52,055,50*7B
$GPGSV,4,3,15,21,58,295,38,24,01,038,,03,03,227,,36,35,170,40*7B
$GPGSV,4,4,15,34,31,208,,49,34,195,37,61,03,257,*45
$GLGSV,3,1,10,84,69,001,37,83,27,100,31,75,20,292,40,68,48,050,42*61
$GLGSV,3,2,10,85,24,306,44,69,56,146,46,76,09,349,29,70,04,191,*61
$GLGSV,3,3,10,67,06,023,32,74,05,244,*67
$GAGSV,3,1,12,26,78,004,44,13,33,083,43,31,29,295,41,23,29,235,*64
$GAGSV,3,2,12,07,35,123,43,08,30,060,45,14,49,162,,33,37,282,36*64
$GAGSV,3,3,12,03,01,020,,29,07,170,,21,03,192,,24,03,338,*66
$GBGSV,6,1,21,27,70,302,49,13,18,051,24,60,11,108,,14,30,047,29*69
$GBGSV,6,2,21,05,24,128,31,30,20,301,37,41,55,167,45,33,52,068,29*67
$GBGSV,6,3,21,57,53,256,,28,60,119,37,32,08,201,,02,08,105,*6D
$GBGSV,6,4,21,36,07,305,31,39,07,074,,16,02,083,,42,06,036,*69
$GBGSV,6,5,21,43,00,122,,46,03,258,,08,10,049,,58,01,243,*6E
$GBGSV,6,6,21,06,01,086,*51
$GPGGA,220122.00,,,,,0,00,,,M,,M,,*49
$PTNL,GGK,220122.00,010125,4742.4463265,N,01617.9732053,E,1,20,1.5,EHT669.9289,M*47
$GPGGQ,220122.00,010125,4742.4463265,N,01617.9732053,E,1,20,2.885,626.7179,M*33
$GPGFA,220122.00,8.685,21.731,0.913,0.682,20.027,2.650,,VVV*06
$GPLLK,220122.00,010125,,M,,M,1,20,1.7,,M*0E
$GNGMP,220122.00,,,,,DAAA,20,0.8,,,,*5D
$GPGMP,220122.00,,,,,,05,,,,1.6,123*7E
$GLGMP,220122.00,,,,,,05,,,,,*7B
$GAGMP,220122.00,,,,,,06,,,,,*75
$GBGMP,220122.00,,,,,,04,,,,,*74
$PSSN,SNC,[0,338500000,2347]*49
$GPZDA,220127.00,01,01,2025,,*67
$GPDTM,W84,,00.0000000,N,00.0000000,E,00.0000000,W84*5F
$GPRMC,220127.00,A,4742.4463195,N,01617.9731976,E,0.0,,010125,5.1,E,D*11
$GPGLL,4742.4463195,N,01617.9731976,E,220127.00,A,D*60
$GPGGA,220127.00,4742.4463195,N,01617.9731976,E,2,19,0.9,626.7131,M,43.2111,M,2.6,0123*4A
$GNGNS,220127.00,4742.4463195,N,01617.9731976,E,DAAA,19,0.9,626.7131,43.2111,,*52
$GPGNS,220127.00,,,,,,05,,,,2.6,123*78
$GLGNS,220127.00,,,,,,05,,,,,*7E
$GAGNS,220127.00,,,,,,05,,,,,*73
$GBGNS,220127.00,,,,,,04,,,,,*71
$GPLLQ,220127.00,010125,,M,,M,1,19,3.161,,M*18
$GPVTG,,T,,M,0.00,N,0.01,K,D*27
$GPHDT,,T*1B
$GPTHS,,V*0E
$GPROT,,V*08
$PSSN,HRP,220127.00,010125,,,,,,,00,0,,*65
$PTNL,AVR,220127.00,,Yaw,,Tilt,,,,0,,00*33
$GPGSA,A,3,02,08,10,21,27,,,,,,,,1.6,0.9,1.3*33
$GPGSA,A,3,68,69,75,84,85,,,,,,,,1.6,0.9,1.3*3C
$GPGSA,A,3,08,13,26,31,33,,,,,,,,1.6,0.9,1.3*32
$GPGSA,A,3,27,28,30,41,,,,,,,,,1.6,0.9,1.3*37
$GPGST,220127.00,5.426,0.992,0.734,24.150,0.954,0.783,2.910*68
$GPGBS,220127.00,4.842,4.206,12.553,68,0.0001,11.251,6.076*5F
$GPGRS,220127.00,1,-0.2,0.3,0.8,-0.9,-0.6,,,,,,,*4F
$GPGRS,220127.00,1,11.3,-1.8,11.2,-2.4,-1.5,,,,,,,*43
$GPGRS,220127.00,1,-0.1,-0.1,1.7,2.6,1.1,,,,,,,*66
$GPGRS,220127.00,1,0.5,7.9,3.6,0.5,,,,,,,,*41
$GPGSV,4,1,15,08,72,223,48,14,11,324,36,23,11,051,22,01,32,279,*76
$GPGSV,4,2,15,32,39,117,42,27,47,161,39,02,37,288,36,10,52,055,50*79
$GPGSV,4,3,15,21,58,295,38,24,01,038,,03,03,227,,36,35,170,41*7A
$GPGSV,4,4,15,34,31,208,,49,34,195,37,61,03,257,*45
$GLGSV,3,1,10,84,69,001,36,83,27,100,32,75,20,292,41,68,48,050,41*61
$GLGSV,3,2,10,85,24,306,44,69,56,146,46,76,09,349,35,70,04,191,*6C
$GLGSV,3,3,10,67,06,023,32,74,05,244,*67
$GAGSV,3,1,12,26,78,004,44,13,33,083,43,31,29,295,43,23,29,235,*66
$GAGSV,3,2,12,07,35,123,33,08,30,060,44,14,49,162,,33,37,282,37*63
$GAGSV,3,3,12,03,01,020,,29,07,170,,21,03,192,,24,03,338,*66
$GBGSV,5,1,20,27,70,302,49,13,18,052,19,60,11,108,,14,30,047,25*6A
$GBGSV,5,2,20,05,24,128,31,30,20,301,37,41,55,167,45,33,52,068,31*6C
$GBGSV,5,3,20,57,53,256,,28,60,119,37,32,08,201,,02,08,105,*6F
$GBGSV,5,4,20,36,07,305,33,39,07,074,,16,02,083,,42,06,036,*69
