$GPZDA,082942.00,01,01,2025,,*66
$GPDTM,W84,,00.0000000,N,00.0000000,E,00.0000000,W84*5F
$GPRMC,082942.00,A,4742.4461894,N,01617.9725925,E,0.0,,010125,5.1,E,D*19
$GPGLL,4742.4461894,N,01617.9725925,E,082942.00,A,D*68
$GPGGA,082942.00,4742.4461894,N,01617.9725925,E,2,18,0.8,624.7145,M,43.2111,M,2.8,0123*4D
$GNGNS,082942.00,4742.4461894,N,01617.9725925,E,DAAA,18,0.8,624.7145,43.2111,,*5B
$GPGNS,082942.00,,,,,,04,,,,2.8,123*76
$GLGNS,082942.00,,,,,,05,,,,,*7F
$GAGNS,082942.00,,,,,,04,,,,,*73
$GBGNS,082942.00,,,,,,05,,,,,*71
$GPLLQ,082942.00,010125,,M,,M,1,18,4.699,,M*1F
$GPVTG,,T,,M,0.01,N,0.01,K,D*26
$GPHDT,,T*1B
$GPTHS,,V*0E
$GPROT,,V*08
$PSSN,HRP,082942.00,010125,,,,,,,00,0,,*64
$PTNL,AVR,082942.00,,Yaw,,Tilt,,,,0,,00*32
$GPGSA,A,3,13,14,15,30,,,,,,,,,1.5,0.8,1.3*3C
$GPGSA,A,3,65,66,72,75,76,,,,,,,,1.5,0.8,1.3*39
$GPGSA,A,3,02,03,08,25,,,,,,,,,1.5,0.8,1.3*32
$GPGSA,A,3,21,26,40,42,45,,,,,,,,1.5,0.8,1.3*38
$GPGST,082942.00,3.705,2.685,0.865,13.189,2.622,1.041,3.758*6A
$GPGBS,082942.00,10.550,5.569,17.477,15,0.0001,1.917,0.762*5E
$GPGRS,082942.00,1,0.2,-0.9,1.9,-1.2,,,,,,,,*4B
$GPGRS,082942.00,1,-2.7,-3.5,4.2,-3.0,1.3,,,,,,,*4C
$GPGRS,082942.00,1,1.2,-1.2,-1.1,-0.7,,,,,,,,*61
$GPGRS,082942.00,1,-1.6,0.4,-1.4,-0.5,9.4,,,,,,,*46
$GPGSV,5,1,17,13,75,309,46,20,18,201,,07,14,074,24,15,39,303,44*72
$GPGSV,5,2,17,05,42,229,35,22,58,159,,30,48,070,49,14,66,114,47*73
$GPGSV,5,3,17,08,08,030,,18,05,301,30,23,07,331,30,24,05,264,*70
$GPGSV,5,4,17,17,08,132,,36,35,170,38,34,31,208,,49,34,195,*76
$GPGSV,5,5,17,61,03,257,*4B
$GLGSV,2,1,08,65,85,214,45,72,27,147,38,74,24,041,32,66,37,322,53*6F
$GLGSV,2,2,08,76,36,223,44,75,79,030,48,82,05,330,23,83,09,008,*6D
$GAGSV,3,1,09,03,81,118,43,24,29,048,32,02,33,190,38,05,27,121,33*65
$GAGSV,3,2,09,08,44,302,38,16,52,068,,25,65,114,50,13,08,283,31*68
$GAGSV,3,3,09,26,07,332,30*53
$GBGSV,4,1,16,45,79,072,37,22,25,157,34,40,27,058,42,05,21,130,29*61
$GBGSV,4,2,16,56,20,089,,36,27,057,35,42,42,306,45,26,41,233,36*6C
$GBGSV,4,3,16,10,33,076,,21,69,210,47,50,63,277,,27,01,017,*67
$GBGSV,4,4,16,02,04,109,,09,08,076,,30,04,062,,60,07,112,*62
$GPGGA,082942.00,,,,,0,00,,,M,,M,,*4D
$PTNL,GGK,082942.00,010125,4742.4461894,N,01617.9725925,E,1,18,1.5,EHT667.9256,M*4C
$GPGGQ,082942.00,010125,4742.4461894,N,01617.9725925,E,1,18,4.699,624.7145,M*3C
$GPGFA,082942.00,25.531,30.812,2.685,0.865,13.189,3.758,,VVV*37
$GPLLK,082942.00,010125,,M,,M,1,18,1.8,,M*0E
$GNGMP,082942.00,,,,,DAAA,18,0.8,,,,*52
$GPGMP,082942.00,,,,,,04,,,,2.8,123*76
$GLGMP,082942.00,,,,,,05,,,,,*7F
$GAGMP,082942.00,,,,,,04,,,,,*73
$GBGMP,082942.00,,,,,,05,,,,,*71
$PSSN,SNC,[0,289800000,2347]*4F
$GPZDA,082947.00,01,01,2025,,*63
$GPDTM,W84,,00.0000000,N,00.0000000,E,00.0000000,W84*5F
$GPRMC,082947.00,A,4742.4461821,N,01617.9726175,E,0.0,,010125,5.1,E,D*1C
$GPGLL,4742.4461821,N,01617.9726175,E,082947.00,A,D*6D
$GPGGA,082947.00,4742.4461821,N,01617.9726175,E,2,19,0.7,624.7140,M,43.2111,M,2.8,0123*43
$GNGNS,082947.00,4742.4461821,N,01617.9726175,E,DAAA,19,0.7,624.7140,43.2111,,*55
$GPGNS,082947.00,,,,,,05,,,,2.8,123*72
$GLGNS,082947.00,,,,,,05,,,,,*7A
$GAGNS,082947.00,,,,,,04,,,,,*76
$GBGNS,082947.00,,,,,,05,,,,,*74
$GPLLQ,082947.00,010125,,M,,M,1,19,3.682,,M*16
$GPVTG,,T,,M,0.01,N,0.02,K,D*25
$GPHDT,,T*1B
$GPTHS,,V*0E
$GPROT,,V*08
$PSSN,HRP,082947.00,010125,,,,,,,00,0,,*61
$PTNL,AVR,082947.00,,Yaw,,Tilt,,,,0,,00*37
$GPGSA,A,3,05,13,14,15,30,,,,,,,,1.5,0.7,1.3*36
$GPGSA,A,3,65,66,72,75,76,,,,,,,,1.5,0.7,1.3*36
$GPGSA,A,3,02,03,08,25,,,,,,,,,1.5,0.7,1.3*3D
$GPGSA,A,3,21,26,40,42,45,,,,,,,,1.5,0.7,1.3*37
$GPGST,082947.00,4.421,1.324,0.934,356.937,1.323,0.936,3.306*5A
$GPGBS,082947.00,5.583,4.219,14.494,15,0.0001,2.088,0.719*6E
$GPGRS,082947.00,1,0.1,0.5,-1.1,2.1,-1.3,,,,,,,*65
$GPGRS,082947.00,1,-2.4,-3.2,5.6,-3.3,3.8,,,,,,,*42
$GPGRS,082947.00,1,2.0,-1.2,-1.0,-0.4,,,,,,,,*67
$GPGRS,082947.00,1,-1.4,-0.8,-0.7,0.2,12.0,,,,,,,*76
$GPGSV,5,1,17,13,75,309,46,20,18,201,,07,14,074,25,15,40,303,45*7C
$GPGSV,5,2,17,05,42,229,37,22,58,159,,30,48,070,48,14,66,113,47*77
$GPGSV,5,3,17,08,08,030,,18,05,301,,23,07,331,32,24,05,264,*71
$GPGSV,5,4,17,17,08,132,,36,35,170,38,34,31,208,,49,34,195,*76
$GPGSV,5,5,17,61,03,257,*4B
$GLGSV,2,1,08,65,85,214,45,72,27,147,37,74,24,041,32,66,37,322,52*61
$GLGSV,2,2,08,76,36,223,46,75,79,030,48,82,05,330,25,83,09,008,*69
$GAGSV,3,1,09,03,81,118,43,24,29,048,34,02,33,190,39,05,27,121,31*60
$GAGSV,3,2,09,08,44,302,38,16,52,068,,25,65,114,49,13,08,283,31*60
$GAGSV,3,3,09,26,07,332,30*53
$GBGSV,4,1,16,45,79,072,38,22,24,157,35,40,27,058,41,05,21,130,29*6D
$GBGSV,4,2,16,56,21,089,,36,27,057,34,42,42,306,45,26,41,233,37*6D
$GBGSV,4,3,16,10,33,076,,21,69,209,47,50,63,277,,27,01,017,*6F
$GBGSV,4,4,16,02,04,109,,09,08,076,,30,04,062,,60,07,112,*62
$GPGGA,082947.00,,,,,0,00,,,M,,M,,*48
$PTNL,GGK,082947.00,010125,4742.4461821,N,01617.9726175,E,1,19,1.5,EHT667.9251,M*4F
$GPGGQ,082947.00,010125,4742.4461821,N,01617.9726175,E,1,19,3.682,624.7140,M*30
$GPGFA,082947.00,12.587,27.112,1.324,0.934,356.937,3.306,,VVV*0C
$GPLLK,082947.00,010125,,M,,M,1,19,1.8,,M*0A
$GNGMP,082947.00,,,,,DAAA,19,0.7,,,,*59
$GPGMP,082947.00,,,,,,05,,,,2.8,123*72
$GLGMP,082947.00,,,,,,05,,,,,*7A
$GAGMP,082947.00,,,,,,04,,,,,*76
$GBGMP,082947.00,,,,,,05,,,,,*74
$PSSN,SNC,[0,289805000,2347]*4A
$GPZDA,082952.00,01,01,2025,,*67
$GPDTM,W84,,00.0000000,N,00.0000000,E,00.0000000,W84*5F
$GPRMC,082952.00,A,4742.4461749,N,01617.9726434,E,0.0,,010125,5.1,E,D*19
$GPGLL,4742.4461749,N,01617.9726434,E,082952.00,A,D*68
$GPGGA,082952.00,4742.4461749,N,01617.9726434,E,2,20,0.7,624.7191,M,43.2111,M,3.0,0123*49
$GNGNS,082952.00,4742.4461749,N,01617.9726434,E,DAAA,20,0.7,624.7191,43.2111,,*56
$GPGNS,082952.00,,,,,,05,,,,3.0,123*7F
$GLGNS,082952.00,,,,,,05,,,,,*7E
$GAGNS,082952.00,,,,,,04,,,,,*72
$GBGNS,082952.00,,,,,,06,,,,,*73
$GPLLQ,082952.00,010125,,M,,M,1,20,3.539,,M*1B
$GPVTG,,T,,M,0.01,N,0.01,K,D*26
$GPHDT,,T*1B
$GPTHS,,V*0E
$GPROT,,V*08
$PSSN,HRP,082952.00,010125,,,,,,,00,0,,*65
$PTNL,AVR,082952.00,,Yaw,,Tilt,,,,0,,00*33
$GPGSA,A,3,05,13,14,15,30,,,,,,,,1.4,0.7,1.2*36
$GPGSA,A,3,65,66,72,75,76,,,,,,,,1.4,0.7,1.2*36
$GPGSA,A,3,02,03,08,25,,,,,,,,,1.4,0.7,1.2*3D
$GPGSA,A,3,21,22,26,40,42,45,,,,,,,1.4,0.7,1.2*37
$GPGST,082952.00,3.700,1.265,0.891,357.471,1.264,0.892,3.183*5F
$GPGBS,082952.00,5.562,4.114,14.345,14,0.0001,-1.402,0.689*41
$GPGRS,082952.00,1,1.0,0.5,-1.4,1.4,-1.2,,,,,,,*63
$GPGRS,082952.00,1,-1.9,-3.8,6.9,-4.1,4.9,,,,,,,*4D
$GPGRS,082952.00,1,2.1,-1.4,-0.2,-0.4,,,,,,,,*67
$GPGRS,082952.00,1,-2.0,-2.3,-0.3,-1.2,-0.1,6.9,,,,,,*6A
$GPGSV,5,1,17,13,75,309,46,20,18,201,25,07,14,074,26,15,40,303,45*78
$GPGSV,5,2,17,05,42,229,41,22,58,159,,30,48,070,48,14,66,113,47*76
$GPGSV,5,3,17,08,08,030,,18,05,301,28,23,07,331,33,24,05,264,*7A
$GPGSV,5,4,17,17,08,132,,36,35,170,38,34,31,208,,49,34,195,*76
$GPGSV,5,5,17,61,03,257,*4B
$GLGSV,2,1,08,65,85,213,44,72,27,147,36,74,24,041,32,66,37,322,52*66
$GLGSV,2,2,08,76,36,223,45,75,79,030,47,82,05,330,,83,09,008,*62
$GAGSV,3,1,09,03,81,118,43,24,29,048,34,02,33,190,40,05,27,121,30*6F
$GAGSV,3,2,09,08,44,302,38,16,52,067,,25,65,114,49,13,08,283,29*66
$GAGSV,3,3,09,26,07,332,28*5A
$GBGSV,4,1,16,45,79,072,43,22,24,157,36,36,27,057,32,05,21,130,29*68
$GBGSV,4,2,16,56,21,089,,40,27,058,41,42,42,306,45,26,41,233,40*61
$GBGSV,4,3,16,10,33,076,,21,69,209,47,50,63,277,,27,01,017,*6F
$GBGSV,4,4,16,02,04,109,,30,04,062,,09,08,076,,60,07,112,*62
$GPGGA,082952.00,,,,,0,00,,,M,,M,,*4C
$PTNL,GGK,082952.00,010125,4742.4461749,N,01617.9726434,E,1,20,1.4,EHT667.9302,M*46
$GPGGQ,082952.00,010125,4742.4461749,N,01617.9726434,E,1,20,3.539,624.7191,M*30
$GPGFA,082952.00,12.026,26.098,1.265,0.891,357.471,3.183,,VVV*0F
$GPLLK,082952.00,010125,,M,,M,1,20,1.7,,M*0B
$GNGMP,082952.00,,,,,DAAA,20,0.7,,,,*57
$GPGMP,082952.00,,,,,,05,,,,3.0,123*7F
$GLGMP,082952.00,,,,,,05,,,,,*7E
$GAGMP,082952.00,,,,,,04,,,,,*72
$GBGMP,082952.00,,,,,,06,,,,,*73
$PSSN,SNC,[0,289810000,2347]*4E
$GPZDA,082957.00,01,01,2025,,*62
$GPDTM,W84,,00.0000000,N,00.0000000,E,00.0000000,W84*5F
$GPRMC,082957.00,A,4742.4461806,N,01617.9726714,E,0.0,,010125,5.1,E,D*19
$GPGLL,4742.4461806,N,01617.9726714,E,082957.00,A,D*68
$GPGGA,082957.00,4742.4461806,N,01617.9726714,E,2,19,0.7,624.7101,M,43.2111,M,1.8,0123*40
$GNGNS,082957.00,4742.4461806,N,01617.9726714,E,DAAA,19,0.7,624.7101,43.2111,,*55
$GPGNS,082957.00,,,,,,04,,,,1.8,123*71
$GLGNS,082957.00,,,,,,05,,,,,*7B
$GAGNS,082957.00,,,,,,04,,,,,*77
$GBGNS,082957.00,,,,,,06,,,,,*76
$GPLLQ,082957.00,010125,,M,,M,1,19,3.980,,M*1A
$GPVTG,,T,,M,0.01,N,0.02,K,D*25
$GPHDT,,T*1B
$GPTHS,,V*0E
$GPROT,,V*08
$PSSN,HRP,082957.00,010125,,,,,,,00,0,,*60
$PTNL,AVR,082957.00,,Yaw,,Tilt,,,,0,,00*36
$GPGSA,A,3,13,14,15,30,,,,,,,,,1.4,0.7,1.2*33
$GPGSA,A,3,65,66,72,75,76,,,,,,,,1.4,0.7,1.2*36
$GPGSA,A,3,02,03,08,25,,,,,,,,,1.4,0.7,1.2*3D
$GPGSA,A,3,21,22,26,40,42,45,,,,,,,1.4,0.7,1.2*37
$GPGST,082957.00,2.808,2.271,0.738,13.059,2.219,0.884,3.184*62
$GPGBS,082957.00,9.956,5.467,16.555,13,0.0001,1.164,0.611*68
$GPGRS,082957.00,1,1.2,-1.0,0.3,-1.0,,,,,,,,*4F
$GPGRS,082957.00,1,-1.6,-3.3,5.6,-4.0,3.5,,,,,,,*4A
$GPGRS,082957.00,1,1.8,-0.9,1.8,-0.1,,,,,,,,*47
$GPGRS,082957.00,1,-2.0,-1.7,-0.4,-0.6,-0.3,1.5,,,,,,*63
$GPGSV,5,1,17,13,75,309,47,20,18,201,27,07,14,074,26,15,40,303,44*7A
$GPGSV,5,2,17,05,42,229,43,22,58,159,,30,48,070,47,14,66,113,46*7A
$GPGSV,5,3,17,08,08,030,,18,05,301,29,23,07,331,35,24,05,264,*7D
$GPGSV,5,4,17,17,08,132,,36,35,170,38,34,31,208,,49,34,195,*76
$GPGSV,5,5,17,61,03,257,*4B
$GLGSV,2,1,08,65,85,213,45,72,27,147,35,74,24,041,33,66,37,322,52*65
$GLGSV,2,2,08,76,36,223,42,75,79,030,47,82,05,330,29,83,09,008,*6E
$GAGSV,3,1,09,03,81,118,43,24,29,048,33,02,33,190,39,05,27,121,30*66
$GAGSV,3,2,09,16,52,067,,08,44,302,38,25,65,114,49,13,08,283,28*67
$GAGSV,3,3,09,26,07,332,32*51
$GBGSV,4,1,16,45,78,072,39,22,24,157,36,36,27,057,29,05,21,130,29*6E
$GBGSV,4,2,16,56,21,089,,40,27,058,40,42,42,306,43,26,41,233,41*67
$GBGSV,4,3,16,10,33,076,,21,69,209,46,50,63,276,,27,01,017,*6F
$GBGSV,4,4,16,02,04,109,,30,04,062,,09,08,076,,60,07,112,*62
$GPGGA,082957.00,,,,,0,00,,,M,,M,,*49
$PTNL,GGK,082957.00,010125,4742.4461806,N,01617.9726714,E,1,19,1.4,EHT667.9212,M*4C
$GPGGQ,082957.00,010125,4742.4461806,N,01617.9726714,E,1,19,3.980,624.7101,M*3D
$GPGFA,082957.00,21.596,26.111,2.271,0.738,13.059,3.184,,VVV*34
$GPLLK,082957.00,010125,,M,,M,1,19,1.7,,M*04
$GNGMP,082957.00,,,,,DAAA,19,0.7,,,,*58
$GPGMP,082957.00,,,,,,04,,,,1.8,123*71
$GLGMP,082957.00,,,,,,05,,,,,*7B
$GAGMP,082957.00,,,,,,04,,,,,*77
$GBGMP,082957.00,,,,,,06,,,,,*76
$PSSN,SNC,[0,289815000,2347]*4B
$GPZDA,083002.00,01,01,2025,,*6A
$GPDTM,W84,,00.0000000,N,00.0000000,E,00.0000000,W84*5F
$GPRMC,083002.00,A,4742.4461783,N,01617.9726809,E,0.0,,010125,5.1,E,D*10
$GPGLL,4742.4461783,N,01617.9726809,E,083002.00,A,D*61
$GPGGA,083002.00,4742.4461783,N,01617.9726809,E,2,20,0.7,624.7051,M,43.2111,M,2.6,0123*4A
$GNGNS,083002.00,4742.4461783,N,01617.9726809,E,DAAA,20,0.7,624.7051,43.2111,,*52
$GPGNS,083002.00,,,,,,05,,,,2.6,123*75
$GLGNS,083002.00,,,,,,05,,,,,*73
$GAGNS,083002.00,,,,,,04,,,,,*7F
$GBGNS,083002.00,,,,,,06,,,,,*7E
$GPLLQ,083002.00,010125,,M,,M,1,20,4.127,,M*1A
$GPVTG,,T,,M,0.01,N,0.02,K,D*25
$GPHDT,,T*1B
$GPTHS,,V*0E
$GPROT,,V*08
$PSSN,HRP,083002.00,010125,,,,,,,00,0,,*68
$PTNL,AVR,083002.00,,Yaw,,Tilt,,,,0,,00*3E
$GPGSA,A,3,05,13,14,15,30,,,,,,,,1.4,0.7,1.2*36
$GPGSA,A,3,65,66,72,75,76,,,,,,,,1.4,0.7,1.2*36
$GPGSA,A,3,02,03,08,25,,,,,,,,,1.4,0.7,1.2*3D
$GPGSA,A,3,21,22,26,40,42,45,,,,,,,1.4,0.7,1.2*37
$GPGST,083002.00,2.530,2.007,0.936,11.630,1.975,1.002,3.482*62
$GPGBS,083002.00,5.325,4.071,13.841,05,0.0001,2.716,0.725*6C
$GPGRS,083002.00,1,2.7,1.3,-1.1,-1.3,-0.6,,,,,,,*47
$GPGRS,083002.00,1,-1.8,-3.0,4.0,-4.2,0.1,,,,,,,*4D
$GPGRS,083002.00,1,1.2,-1.1,2.4,0.2,,,,,,,,*6D
$GPGRS,083002.00,1,-2.4,-2.7,-0.6,-0.3,0.2,1.9,,,,,,*4B
$GPGSV,5,1,17,13,75,309,48,20,18,201,27,07,14,074,25,15,40,303,42*70
$GPGSV,5,2,17,05,42,229,45,22,58,159,,30,48,070,46,14,66,113,45*7E
$GPGSV,5,3,17,08,08,030,,18,05,301,27,23,07,331,34,24,05,264,*72
$GPGSV,5,4,17,17,08,132,,36,35,170,38,34,31,208,,49,34,195,*76
$GPGSV,5,5,17,61,03,257,*4B
$GLGSV,2,1,08,65,84,213,44,72,27,147,37,74,24,041,34,66,37,322,52*60
$GLGSV,2,2,08,76,36,224,40,75,79,030,47,82,05,329,33,83,09,008,*68
$GAGSV,3,1,09,03,81,118,44,24,29,048,33,02,33,190,38,05,27,121,30*60
$GAGSV,3,2,09,16,52,067,,08,44,302,39,25,65,114,49,13,08,283,30*6F
$GAGSV,3,3,09,26,07,332,33*50
$GBGSV,4,1,16,45,78,072,40,22,24,157,37,40,27,058,39,05,21,130,29*6E
$GBGSV,4,2,16,56,21,089,,36,27,057,26,42,42,306,42,26,41,233,42*6B
$GBGSV,4,3,16,10,33,076,,21,68,209,45,50,63,276,,27,01,017,*6D
$GBGSV,4,4,16,02,04,109,,09,08,076,,30,04,062,,60,07,112,*62
$GPGGA,083002.00,,,,,0,00,,,M,,M,,*41
$PTNL,GGK,083002.00,010125,4742.4461783,N,01617.9726809,E,1,20,1.4,EHT667.9161,M*48
$GPGGQ,083002.00,010125,4742.4461783,N,01617.9726809,E,1,20,4.127,624.7051,M*38
$GPGFA,083002.00,19.085,28.556,2.007,0.936,11.630,3.482,,VVV*32
$GPLLK,083002.00,010125,,M,,M,1,20,1.7,,M*06
$GNGMP,083002.00,,,,,DAAA,20,0.7,,,,*5A
$GPGMP,083002.00,,,,,,05,,,,2.6,123*75
$GLGMP,083002.00,,,,,,05,,,,,*73
$GAGMP,083002.00,,,,,,04,,,,,*7F
$GBGMP,083002.00,,,,,,06,,,,,*7E
$PSSN,SNC,[0,289820000,2347]*4D
$GPZDA,083007.00,01,01,2025,,*6F
$GPDTM,W84,,00.0000000,N,00.0000000,E,00.0000000,W84*5F
$GPRMC,083007.00,A,4742.4461843,N,01617.9726852,E,0.0,,010125,5.1,E,D*18
$GPGLL,4742.4461843,N,01617.9726852,E,083007.00,A,D*69
$GPGGA,083007.00,4742.4461843,N,01617.9726852,E,2,21,0.7,624.6932,M,43.2111,M,2.8,0123*40
$GNGNS,083007.00,4742.4461843,N,01617.9726852,E,DAAA,21,0.7,624.6932,43.2111,,*56
$GPGNS,083007.00,,,,,,05,,,,2.8,123*7E
$GLGNS,083007.00,,,,,,06,,,,,*75
$GAGNS,083007.00,,,,,,04,,,,,*7A
$GBGNS,083007.00,,,,,,06,,,,,*7B
$GPLLQ,083007.00,010125,,M,,M,1,21,3.611,,M*1B
$GPVTG,,T,,M,0.01,N,0.01,K,D*26
$GPHDT,,T*1B
$GPTHS,,V*0E
$GPROT,,V*08
$PSSN,HRP,083007.00,010125,,,,,,,00,0,,*6D
$PTNL,AVR,083007.00,,Yaw,,Tilt,,,,0,,00*3B
$GPGSA,A,3,05,13,14,15,30,,,,,,,,1.3,0.7,1.1*32
$GPGSA,A,3,65,66,72,74,75,76,,,,,,,1.3,0.7,1.1*31
$GPGSA,A,3,02,03,08,25,,,,,,,,,1.3,0.7,1.1*39
$GPGSA,A,3,21,22,26,40,42,45,,,,,,,1.3,0.7,1.1*33
$GPGST,083007.00,4.247,1.301,0.921,356.286,1.300,0.923,3.240*54
$GPGBS,083007.00,5.411,4.099,13.925,13,0.0001,1.914,0.647*61
$GPGRS,083007.00,1,-0.2,1.9,-0.5,-1.9,-0.3,,,,,,,*68
$GPGRS,083007.00,1,-1.6,-2.3,5.0,13.0,-3.3,0.4,,,,,,*5A
$GPGRS,083007.00,1,-0.0,-0.5,2.8,0.7,,,,,,,,*4A
$GPGRS,083007.00,1,-1.9,-3.0,0.1,0.4,0.8,3.0,,,,,,*47
$GPGSV,5,1,17,13,75,309,48,20,18,201,27,07,14,074,27,15,40,303,39*7E
$GPGSV,5,2,17,05,42,229,46,22,58,159,,30,47,070,45,14,66,113,44*70
$GPGSV,5,3,17,08,08,030,,18,05,301,33,23,07,331,32,24,06,264,*72
$GPGSV,5,4,17,17,08,132,,36,35,170,38,34,31,208,,49,34,195,*76
$GPGSV,5,5,17,61,03,257,*4B
$GLGSV,2,1,08,65,84,212,44,72,27,147,39,74,24,041,36,66,37,322,52*6D
$GLGSV,2,2,08,76,36,224,37,75,79,030,47,82,05,329,36,83,09,008,*6D
$GAGSV,3,1,09,03,81,118,44,24,29,048,28,02,33,190,35,05,27,121,30*67
$GAGSV,3,2,09,16,52,067,,08,44,302,40,25,65,114,49,13,08,283,32*63
$GAGSV,3,3,09,26,07,332,23*51
$GBGSV,4,1,16,45,78,072,41,22,24,157,36,36,27,057,27,05,21,130,28*6E
$GBGSV,4,2,16,56,21,089,,40,27,058,39,42,42,306,40,26,41,233,43*68
$GBGSV,4,3,16,10,33,076,,21,68,209,43,50,63,276,,27,01,017,*6B
$GBGSV,4,4,16,02,04,109,,30,04,062,,09,08,076,,60,07,112,*62
$GPGGA,083007.00,,,,,0,00,,,M,,M,,*44
$PTNL,GGK,083007.00,010125,4742.4461843,N,01617.9726852,E,1,21,1.3,EHT667.9042,M*46
$GPGGQ,083007.00,010125,4742.4461843,N,01617.9726852,E,1,21,3.611,624.6932,M*39
$GPGFA,083007.00,12.372,26.566,1.301,0.921,356.286,3.240,,VVV*0B
$GPLLK,083007.00,010125,,M,,M,1,21,1.5,,M*00
$GNGMP,083007.00,,,,,DAAA,21,0.7,,,,*5E
$GPGMP,083007.00,,,,,,05,,,,2.8,123*7E
$GLGMP,083007.00,,,,,,06,,,,,*75
$GAGMP,083007.00,,,,,,04,,,,,*7A
$GBGMP,083007.00,,,,,,06,,,,,*7B
$PSSN,SNC,[0,289825000,2347]*48
$GPZDA,083012.00,01,01,2025,,*6B
$GPDTM,W84,,00.0000000,N,00.0000000,E,00.0000000,W84*5F
$GPRMC,083012.00,A,4742.4461843,N,01617.9726828,E,0.0,,010125,5.1,E,D*11
$GPGLL,4742.4461843,N,01617.9726828,E,083012.00,A,D*60
$GPGGA,083012.00,4742.4461843,N,01617.9726828,E,2,17,0.8,624.6666,M,43.2111,M,3.3,0123*47
$GNGNS,083012.00,4742.4461843,N,01617.9726828,E,DAAA,17,0.8,624.6666,43.2111,,*5B
$GPGNS,083012.00,,,,,,04,,,,3.3,123*71
$GLGNS,083012.00,,,,,,05,,,,,*72
$GAGNS,083012.00,,,,,,03,,,,,*79
$GBGNS,083012.00,,,,,,05,,,,,*7C
$GPLLQ,083012.00,010125,,M,,M,1,17,3.935,,M*13
$GPVTG,,T,,M,0.01,N,0.01,K,D*26
$GPHDT,,T*1B
$GPTHS,,V*0E
$GPROT,,V*08
$PSSN,HRP,083012.00,010125,,,,,,,00,0,,*69
$PTNL,AVR,083012.00,,Yaw,,Tilt,,,,0,,00*3F
$GPGSA,A,3,05,13,14,30,,,,,,,,,1.5,0.8,1.2*3C
$GPGSA,A,3,65,66,72,74,75,,,,,,,,1.5,0.8,1.2*3A
$GPGSA,A,3,03,08,25,,,,,,,,,,1.5,0.8,1.2*31
$GPGSA,A,3,21,26,40,42,45,,,,,,,,1.5,0.8,1.2*39
$GPGST,083012.00,5.242,1.892,0.780,338.388,1.782,1.006,3.362*57
$GPGBS,083012.00,8.149,4.504,13.396,74,0.0001,13.449,6.285*58
$GPGRS,083012.00,1,-0.0,1.2,-0.5,-0.2,,,,,,,,*6F
$GPGRS,083012.00,1,-2.2,-1.9,7.1,13.4,-3.5,,,,,,,*7B
$GPGRS,083012.00,1,-0.8,2.6,-0.1,,,,,,,,,*65
$GPGRS,083012.00,1,-2.0,0.4,0.5,-0.2,2.9,,,,,,,*62
$GPGSV,5,1,17,13,75,309,49,20,18,201,29,07,14,074,26,15,40,303,32*7B
$GPGSV,5,2,17,05,42,229,47,22,58,159,,30,47,070,45,14,66,113,43*76
$GPGSV,5,3,17,08,08,030,,18,05,301,34,23,07,331,29,24,06,264,*7F
$GPGSV,5,4,17,17,08,132,,36,35,170,38,34,31,208,,49,34,195,*76
$GPGSV,5,5,17,61,03,257,*4B
$GLGSV,2,1,08,65,84,212,44,72,27,147,41,74,24,041,37,66,37,322,53*62
$GLGSV,2,2,08,76,36,224,30,75,79,030,48,82,04,329,36,83,09,008,*64
$GAGSV,3,1,09,03,81,118,45,24,29,048,33,02,33,190,32,05,27,121,30*6B
$GAGSV,3,2,09,16,52,067,,08,44,302,41,25,65,114,49,13,08,283,32*62
$GAGSV,3,3,09,26,07,332,32*51
$GBGSV,4,1,16,45,78,072,42,22,24,157,35,36,27,057,31,05,21,130,28*69
$GBGSV,4,2,16,56,21,089,,40,27,058,38,42,42,306,38,26,41,233,44*61
$GBGSV,4,3,16,10,33,076,,21,68,209,42,50,63,276,,27,01,017,*6A
$GBGSV,4,4,16,02,04,109,,30,04,062,,09,08,076,,60,07,112,*62
$GPGGA,083012.00,,,,,0,00,,,M,,M,,*40
$PTNL,GGK,083012.00,010125,4742.4461843,N,01617.9726828,E,1,17,1.5,EHT667.8777,M*4C
$GPGGQ,083012.00,010125,4742.4461843,N,01617.9726828,E,1,17,3.935,624.6666,M*32
$GPGFA,083012.00,17.986,27.565,1.892,0.780,338.388,3.362,,VVV*0B
$GPLLK,083012.00,010125,,M,,M,1,17,1.8,,M*0C
$GNGMP,083012.00,,,,,DAAA,17,0.8,,,,*50
$GPGMP,083012.00,,,,,,04,,,,3.3,123*71
$GLGMP,083012.00,,,,,,05,,,,,*72
$GAGMP,083012.00,,,,,,03,,,,,*79
$GBGMP,083012.00,,,,,,05,,,,,*7C
$PSSN,SNC,[0,289830000,2347]*4C
$GPZDA,083017.00,01,01,2025,,*6E
$GPDTM,W84,,00.0000000,N,00.0000000,E,00.0000000,W84*5F
$GPRMC,083017.00,A,4742.4461806,N,01617.9726864,E,0.0,,010125,5.1,E,D*1D
$GPGLL,4742.4461806,N,01617.9726864,E,083017.00,A,D*6C
$GPGGA,083017.00,4742.4461806,N,01617.9726864,E,2,19,0.7,624.6733,M,43.2111,M,1.6,0123*4C
$GNGNS,083017.00,4742.4461806,N,01617.9726864,E,DAAA,19,0.7,624.6733,43.2111,,*57
$GPGNS,083017.00,,,,,,05,,,,1.6,123*72
$GLGNS,083017.00,,,,,,06,,,,,*74
$GAGNS,083017.00,,,,,,03,,,,,*7C
$GBGNS,083017.00,,,,,,05,,,,,*79
$GPLLQ,083017.00,010125,,M,,M,1,19,2.390,,M*1C
$GPVTG,,T,,M,0.00,N,0.00,K,D*26
$GPHDT,,T*1B
$GPTHS,,V*0E
$GPROT,,V*08
$PSSN,HRP,083017.00,010125,,,,,,,00,0,,*6C
$PTNL,AVR,083017.00,,Yaw,,Tilt,,,,0,,00*3A
$GPGSA,A,3,05,13,14,23,30,,,,,,,,1.3,0.7,1.0*36
$GPGSA,A,3,65,66,72,74,75,76,,,,,,,1.3,0.7,1.0*30
$GPGSA,A,3,03,08,25,,,,,,,,,,1.3,0.7,1.0*3A
$GPGSA,A,3,21,26,40,42,45,,,,,,,,1.3,0.7,1.0*32
$GPGST,083017.00,5.624,1.198,0.776,333.013,1.124,0.880,1.917*51
$GPGBS,083017.00,5.135,3.965,10.454,74,0.0001,16.373,6.285*56
$GPGRS,083017.00,1,-0.5,0.5,-0.2,0.9,-0.5,,,,,,,*4E
$GPGRS,083017.00,1,-1.3,-2.3,6.7,16.4,-3.7,-4.8,,,,,,*7A
$GPGRS,083017.00,1,-1.2,2.5,-0.7,,,,,,,,,*6E
$GPGRS,083017.00,1,-1.8,0.1,0.4,-1.7,2.7,,,,,,,*62
$GPGSV,5,1,17,13,75,309,49,20,18,201,30,07,14,074,24,15,40,303,22*70
$GPGSV,5,2,17,05,41,229,47,22,58,159,,30,47,070,45,14,66,113,44*72
$GPGSV,5,3,17,08,08,030,,18,05,301,35,23,07,331,36,24,06,264,*70
$GPGSV,5,4,17,17,08,132,,36,35,170,39,34,31,208,,49,34,195,*77
$GPGSV,5,5,17,61,03,257,*4B
$GLGSV,2,1,08,65,84,212,44,72,27,147,40,74,24,041,38,66,37,322,53*6C
$GLGSV,2,2,08,76,36,224,25,75,79,030,49,82,04,329,37,83,09,008,*60
$GAGSV,3,1,09,03,81,119,45,24,29,048,30,02,33,190,28,05,27,121,30*62
$GAGSV,3,2,09,16,52,067,,08,44,302,42,25,65,114,49,13,08,283,31*62
$GAGSV,3,3,09,26,07,332,32*51
$GBGSV,4,1,16,45,78,072,43,22,24,157,33,05,21,130,28,36,27,057,34*6B
$GBGSV,4,2,16,56,21,089,,40,27,058,38,42,42,306,36,26,41,233,44*6F
$GBGSV,4,3,16,10,33,076,,21,68,209,42,50,63,276,,27,01,017,*6A
$GBGSV,4,4,16,02,04,109,,09,08,076,,30,04,062,,60,07,112,*62
$GPGGA,083017.00,,,,,0,00,,,M,,M,,*45
$PTNL,GGK,083017.00,010125,4742.4461806,N,01617.9726864,E,1,19,1.3,EHT667.8844,M*47
$GPGGQ,083017.00,010125,4742.4461806,N,01617.9726864,E,1,19,2.390,624.6733,M*35
$GPGFA,083017.00,11.394,15.717,1.198,0.776,333.013,1.917,,VVV*0D
$GPLLK,083017.00,010125,,M,,M,1,19,1.5,,M*0A
$GNGMP,083017.00,,,,,DAAA,19,0.7,,,,*54
$GPGMP,083017.00,,,,,,05,,,,1.6,123*72
$GLGMP,083017.00,,,,,,06,,,,,*74
$GAGMP,083017.00,,,,,,03,,,,,*7C
$GBGMP,083017.00,,,,,,05,,,,,*79
$PSSN,SNC,[0,289835000,2347]*49
$GPZDA,083022.00,01,01,2025,,*68
$GPDTM,W84,,00.0000000,N,00.0000000,E,00.0000000,W84*5F
$GPRMC,083022.00,A,4742.4461719,N,01617.9726791,E,0.0,,010125,5.1,E,D*1F
$GPGLL,4742.4461719,N,01617.9726791,E,083022.00,A,D*6E
$GPGGA,083022.00,4742.4461719,N,01617.9726791,E,2,19,0.8,624.6809,M,43.2111,M,2.6,0123*44
$GNGNS,083022.00,4742.4461719,N,01617.9726791,E,DAAA,19,0.8,624.6809,43.2111,,*5C
$GPGNS,083022.00,,,,,,05,,,,2.6,123*77
$GLGNS,083022.00,,,,,,05,,,,,*71
$GAGNS,083022.00,,,,,,03,,,,,*7A
$GBGNS,083022.00,,,,,,06,,,,,*7C
$GPLLQ,083022.00,010125,,M,,M,1,19,4.234,,M*13
$GPVTG,,T,,M,0.01,N,0.02,K,D*25
$GPHDT,,T*1B
$GPTHS,,V*0E
$GPROT,,V*08
$PSSN,HRP,083022.00,010125,,,,,,,00,0,,*6A
$PTNL,AVR,083022.00,,Yaw,,Tilt,,,,0,,00*3C
$GPGSA,A,3,05,13,14,15,30,,,,,,,,1.4,0.8,1.2*39
$GPGSA,A,3,65,66,72,74,75,,,,,,,,1.4,0.8,1.2*3B
$GPGSA,A,3,03,08,25,,,,,,,,,,1.4,0.8,1.2*30
$GPGSA,A,3,21,26,36,40,42,45,,,,,,,1.4,0.8,1.2*3D
$GPGST,083022.00,7.279,1.489,1.006,354.539,1.486,1.012,3.834*5C
$GPGBS,083022.00,5.495,3.950,13.706,74,0.0001,19.341,6.284*51
$GPGRS,083022.00,1,-1.5,0.8,0.5,-1.3,-0.2,,,,,,,*4F
$GPGRS,083022.00,1,-1.1,-1.9,5.6,19.3,-2.8,,,,,,,*7C
$GPGRS,083022.00,1,-1.0,3.0,-0.3,,,,,,,,,*6A
$GPGRS,083022.00,1,-0.3,1.5,13.7,1.4,-2.1,2.5,,,,,,*76
$GPGSV,5,1,17,13,75,309,50,20,18,201,31,07,14,074,21,15,40,303,36*79
$GPGSV,5,2,17,05,41,229,46,22,58,159,,30,47,070,45,14,66,113,45*72
$GPGSV,5,3,17,08,08,030,,18,05,301,34,23,07,331,27,24,06,264,*71
$GPGSV,5,4,17,17,08,132,,36,35,170,38,34,31,208,,49,34,195,*76
$GPGSV,5,5,17,61,03,257,*4B
$GLGSV,2,1,08,65,84,211,44,72,27,147,40,74,24,041,39,66,37,322,53*6E
$GLGSV,2,2,08,76,36,224,34,75,79,030,49,82,04,329,34,83,09,008,*63
$GAGSV,3,1,09,03,81,119,46,24,29,048,32,02,33,190,23,05,27,121,29*60
$GAGSV,3,2,09,16,52,067,,08,44,302,43,25,65,114,48,13,08,283,30*63
$GAGSV,3,3,09,26,07,332,26*54
$GBGSV,4,1,16,45,78,072,43,22,24,157,32,05,21,130,29,36,27,057,36*69
$GBGSV,4,2,16,56,21,089,,40,27,058,37,42,42,306,36,26,41,233,45*61
$GBGSV,4,3,16,10,33,076,,21,68,209,43,50,64,276,,27,01,017,*6C
$GBGSV,4,4,16,02,04,109,,09,08,076,,30,04,062,,60,07,112,*62
$GPGGA,083022.00,,,,,0,00,,,M,,M,,*43
$PTNL,GGK,083022.00,010125,4742.4461719,N,01617.9726791,E,1,19,1.4,EHT667.8919,M*4B
$GPGGQ,083022.00,010125,4742.4461719,N,01617.9726791,E,1,19,4.234,624.6809,M*38
$GPGFA,083022.00,14.159,31.439,1.489,1.006,354.539,3.834,,VVV*0E
$GPLLK,083022.00,010125,,M,,M,1,19,1.7,,M*0E
$GNGMP,083022.00,,,,,DAAA,19,0.8,,,,*5D
$GPGMP,083022.00,,,,,,05,,,,2.6,123*77
$GLGMP,083022.00,,,,,,05,,,,,*71
$GAGMP,083022.00,,,,,,03,,,,,*7A
$GBGMP,083022.00,,,,,,06,,,,,*7C
$PSSN,SNC,[0,289840000,2347]*4B
$GPZDA,083027.00,01,01,2025,,*6D
$GPDTM,W84,,00.0000000,N,00.0000000,E,00.0000000,W84*5F
$GPRMC,083027.00,A,4742.4461640,N,01617.9726724,E,0.0,,010125,5.1,E,D*19
$GPGLL,4742.4461640,N,01617.9726724,E,083027.00,A,D*68
$GPGGA,083027.00,4742.4461640,N,01617.9726724,E,2,18,0.8,624.6730,M,43.2111,M,3.3,0123*42
$GNGNS,083027.00,4742.4461640,N,01617.9726724,E,DAAA,18,0.8,624.6730,43.2111,,*5E
$GPGNS,083027.00,,,,,,04,,,,3.3,123*77
$GLGNS,083027.00,,,,,,05,,,,,*74
$GAGNS,083027.00,,,,,,03,,,,,*7F
$GBGNS,083027.00,,,,,,06,,,,,*79
$GPLLQ,083027.00,010125,,M,,M,1,18,5.461,,M*10
$GPVTG,,T,,M,0.01,N,0.01,K,D*26
$GPHDT,,T*1B
$GPTHS,,V*0E
$GPROT,,V*08
$PSSN,HRP,083027.00,010125,,,,,,,00,0,,*6F
$PTNL,AVR,083027.00,,Yaw,,Tilt,,,,0,,00*39
$GPGSA,A,3,05,13,14,30,,,,,,,,,1.4,0.8,1.2*3D
$GPGSA,A,3,65,66,72,74,75,,,,,,,,1.4,0.8,1.2*3B
$GPGSA,A,3,03,08,25,,,,,,,,,,1.4,0.8,1.2*30
$GPGSA,A,3,21,26,36,40,42,45,,,,,,,1.4,0.8,1.2*3D
$GPGST,083027.00,8.250,2.614,1.145,339.223,2.478,1.417,4.656*57
$GPGBS,083027.00,7.962,4.509,13.651,74,0.0001,22.529,6.284*57
$GPGRS,083027.00,1,-1.8,0.8,0.2,-0.3,,,,,,,,*40
$GPGRS,083027.00,1,-0.3,-2.3,5.4,22.5,-2.7,,,,,,,*70
$GPGRS,083027.00,1,-1.1,2.6,-0.4,,,,,,,,,*6E
$GPGRS,083027.00,1,0.8,2.7,13.2,1.6,-1.2,1.6,,,,,,*53
$GPGSV,5,1,17,13,75,309,49,20,18,201,33,07,14,074,22,15,40,303,37*71
$GPGSV,5,2,17,05,41,229,44,22,58,159,,30,47,070,44,14,66,113,45*71
$GPGSV,5,3,17,08,08,030,,18,05,301,32,23,07,331,30,24,06,264,*71
$GPGSV,5,4,17,17,08,132,,36,35,170,38,34,31,208,,49,34,195,*76
$GPGSV,5,5,17,61,03,257,*4B
$GLGSV,2,1,08,65,84,211,44,72,27,147,39,74,24,041,39,66,37,322,53*60
$GLGSV,2,2,08,76,36,224,33,75,79,030,50,82,04,329,29,83,09,008,*60
$GAGSV,3,1,09,03,81,119,45,24,29,048,33,02,33,190,20,05,27,121,28*60
$GAGSV,3,2,09,16,52,067,,08,44,302,44,25,65,114,48,13,08,283,29*6C
$GAGSV,3,3,09,26,07,332,32*51
$GBGSV,4,1,16,45,78,072,43,22,24,157,33,05,21,130,28,36,27,057,37*68
$GBGSV,4,2,16,56,21,089,,40,27,058,37,42,42,306,38,26,41,233,45*6F
$GBGSV,4,3,16,10,33,076,,21,68,209,44,50,64,276,,27,01,017,*6B
$GBGSV,4,4,16,02,04,109,,09,08,076,,30,04,062,,60,07,112,*62
$GPGGA,083027.00,,,,,0,00,,,M,,M,,*46
$PTNL,GGK,083027.00,010125,4742.4461640,N,01617.9726724,E,1,18,1.4,EHT667.8841,M*40
$GPGGQ,083027.00,010125,4742.4461640,N,01617.9726724,E,1,18,5.461,624.6730,M*3D
$GPGFA,083027.00,24.857,38.176,2.614,1.145,339.223,4.656,,VVV*01
$GPLLK,083027.00,010125,,M,,M,1,18,1.7,,M*0A
$GNGMP,083027.00,,,,,DAAA,18,0.8,,,,*59
$GPGMP,083027.00,,,,,,04,,,,3.3,123*77
$GLGMP,083027.00,,,,,,05,,,,,*74
$GAGMP,083027.00,,,,,,03,,,,,*7F
$GBGMP,083027.00,,,,,,06,,,,,*79
$PSSN,SNC,[0,289845000,2347]*4E
$GPZDA,083032.00,01,01,2025,,*69
$GPDTM,W84,,00.0000000,N,00.0000000,E,00.0000000,W84*5F
$GPRMC,083032.00,A,4742.4461514,N,01617.9726676,E,0.0,,010125,5.1,E,D*19
$GPGLL,4742.4461514,N,01617.9726676,E,083032.00,A,D*68
$GPGGA,083032.00,4742.4461514,N,01617.9726676,E,2,19,0.7,624.6664,M,43.2111,M,3.0,0123*4F
$GNGNS,083032.00,4742.4461514,N,01617.9726676,E,DAAA,19,0.7,624.6664,43.2111,,*50
$GPGNS,083032.00,,,,,,05,,,,3.0,123*71
$GLGNS,083032.00,,,,,,04,,,,,*71
$GAGNS,083032.00,,,,,,04,,,,,*7C
$GBGNS,083032.00,,,,,,06,,,,,*7D
$GPLLQ,083032.00,010125,,M,,M,1,19,2.927,,M*1D
$GPVTG,,T,,M,0.01,N,0.01,K,D*26
$GPHDT,,T*1B
$GPTHS,,V*0E
$GPROT,,V*08
$PSSN,HRP,083032.00,010125,,,,,,,00,0,,*6B
$PTNL,AVR,083032.00,,Yaw,,Tilt,,,,0,,00*3D
$GPGSA,A,3,05,13,14,15,30,,,,,,,,1.4,0.7,1.2*36
$GPGSA,A,3,65,66,72,75,,,,,,,,,1.4,0.7,1.2*37
$GPGSA,A,3,02,03,08,25,,,,,,,,,1.4,0.7,1.2*3D
$GPGSA,A,3,21,26,36,40,42,45,,,,,,,1.4,0.7,1.2*32
$GPGST,083032.00,4.513,1.059,0.737,356.363,1.058,0.739,2.627*56
$GPGBS,083032.00,5.671,4.075,14.257,05,0.0001,-1.713,0.760*4F
$GPGRS,083032.00,1,-1.7,0.4,0.3,0.6,-0.1,,,,,,,*6C
$GPGRS,083032.00,1,-0.2,-3.4,4.9,-2.4,,,,,,,,*67
$GPGRS,083032.00,1,-3.8,-1.2,2.1,-0.5,,,,,,,,*67
$GPGRS,083032.00,1,0.9,3.8,12.6,1.4,-1.6,0.2,,,,,,*5E
$GPGSV,5,1,17,13,75,309,48,20,18,201,34,07,13,074,19,15,40,303,40*78
$GPGSV,5,2,17,05,41,229,44,22,58,159,,30,47,070,43,14,66,113,46*75
$GPGSV,5,3,17,08,08,030,,18,04,301,32,23,07,331,32,24,06,264,*72
$GPGSV,5,4,17,17,08,132,,36,35,170,38,34,31,208,,49,34,195,*76
$GPGSV,5,5,17,61,03,257,*4B
$GLGSV,2,1,08,65,84,211,44,72,27,147,39,74,24,041,39,66,37,322,52*61
$GLGSV,2,2,08,76,36,224,25,75,79,030,51,82,04,329,32,83,09,008,*6C
$GAGSV,3,1,09,03,81,119,45,24,29,048,33,02,33,190,44,05,27,121,29*63
$GAGSV,3,2,09,16,52,067,,08,44,302,44,25,65,113,47,13,08,283,27*6A
$GAGSV,3,3,09,26,07,331,27*56
$GBGSV,4,1,16,45,78,071,43,22,24,157,34,05,21,130,,36,27,057,37*66
$GBGSV,4,2,16,56,21,089,,40,27,058,37,42,42,306,40,26,41,233,45*60
$GBGSV,4,3,16,10,33,076,,21,68,209,44,50,64,276,,27,01,017,*6B
$GBGSV,4,4,16,02,04,109,,09,08,076,,30,04,062,,60,07,112,*62
$GPGGA,083032.00,,,,,0,00,,,M,,M,,*42
$PTNL,GGK,083032.00,010125,4742.4461514,N,01617.9726676,E,1,19,1.4,EHT667.8775,M*49
$GPGGQ,083032.00,010125,4742.4461514,N,01617.9726676,E,1,19,2.927,624.6664,M*34
$GPGFA,083032.00,10.071,21.541,1.059,0.737,356.363,2.627,,VVV*04
$GPLLK,083032.00,010125,,M,,M,1,19,1.7,,M*0F
$GNGMP,083032.00,,,,,DAAA,19,0.7,,,,*53
$GPGMP,083032.00,,,,,,05,,,,3.0,123*71
$GLGMP,083032.00,,,,,,04,,,,,*71
$GAGMP,083032.00,,,,,,04,,,,,*7C
$GBGMP,083032.00,,,,,,06,,,,,*7D
$PSSN,SNC,[0,289850000,2347]*4A
$GPZDA,083037.00,01,01,2025,,*6C
$GPDTM,W84,,00.0000000,N,00.0000000,E,00.0000000,W84*5F
$GPRMC,083037.00,A,4742.4461448,N,01617.9726556,E,0.0,,010125,5.1,E,D*15
$GPGLL,4742.4461448,N,01617.9726556,E,083037.00,A,D*64
$GPGGA,083037.00,4742.4461448,N,01617.9726556,E,2,21,0.7,624.6532,M,43.2111,M,1.8,0123*42
$GNGNS,083037.00,4742.4461448,N,01617.9726556,E,DAAA,21,0.7,624.6532,43.2111,,*57
$GPGNS,083037.00,,,,,,06,,,,1.8,123*7D
$GLGNS,083037.00,,,,,,05,,,,,*75
$GAGNS,083037.00,,,,,,03,,,,,*7E
$GBGNS,083037.00,,,,,,07,,,,,*79
$GPLLQ,083037.00,010125,,M,,M,1,21,2.820,,M*15
$GPVTG,,T,,M,0.01,N,0.01,K,D*26
$GPHDT,,T*1B
$GPTHS,,V*0E
$GPROT,,V*08
$PSSN,HRP,083037.00,010125,,,,,,,00,0,,*6E
$PTNL,AVR,083037.00,,Yaw,,Tilt,,,,0,,00*38
$GPGSA,A,3,05,13,14,15,20,30,,,,,,,1.2,0.7,1.0*30
$GPGSA,A,3,65,66,72,75,76,,,,,,,,1.2,0.7,1.0*32
$GPGSA,A,3,03,08,25,,,,,,,,,,1.2,0.7,1.0*3B
$GPGSA,A,3,21,22,26,36,40,42,45,,,,,,1.2,0.7,1.0*36
$GPGST,083037.00,4.517,1.038,0.764,356.660,1.037,0.765,2.509*5F
$GPGBS,083037.00,4.544,3.760,8.352,05,0.0001,-1.423,0.717*73
$GPGRS,083037.00,1,-1.4,1.1,0.7,-0.5,-1.4,0.0,,,,,,*6E
$GPGRS,083037.00,1,0.5,-3.2,4.8,-2.5,-5.3,,,,,,,*4B
$GPGRS,083037.00,1,-0.8,1.9,-0.2,,,,,,,,,*6D
$GPGRS,083037.00,1,1.2,1.0,5.4,13.1,1.3,-1.5,-0.0,,,,,*59
$GPGSV,5,1,17,13,75,309,47,20,18,201,35,07,13,074,30,15,40,303,41*7C
$GPGSV,5,2,17,05,41,229,44,22,58,159,,30,47,070,43,14,66,112,47*75
$GPGSV,5,3,17,08,08,030,,18,04,301,32,23,07,331,33,24,06,264,*73
$GPGSV,5,4,17,17,09,132,,36,35,170,38,34,31,208,,49,34,195,*77
$GPGSV,5,5,17,61,03,257,*4B
$GLGSV,2,1,08,65,84,210,45,72,27,147,38,74,24,041,39,66,37,322,52*60
$GLGSV,2,2,08,76,37,224,27,75,79,030,50,82,04,329,26,83,09,008,*6B
$GAGSV,3,1,09,03,81,119,46,24,29,048,32,02,33,190,25,05,27,121,30*6E
$GAGSV,3,2,09,16,52,067,,08,44,302,44,25,65,113,47,13,08,283,24*69
$GAGSV,3,3,09,26,07,331,25*54
$GBGSV,4,1,16,45,78,071,43,22,24,157,35,05,21,130,,36,27,057,37*67
$GBGSV,4,2,16,56,21,089,,40,27,058,37,42,42,306,41,26,41,233,45*61
$GBGSV,4,3,16,10,33,076,,21,68,209,45,50,64,276,,27,01,017,*6A
$GBGSV,4,4,16,02,04,109,,09,08,076,,30,04,061,,60,07,112,*61
$GPGGA,083037.00,,,,,0,00,,,M,,M,,*47
$PTNL,GGK,083037.00,010125,4742.4461448,N,01617.9726556,E,1,21,1.2,EHT667.8643,M*4C
$GPGGQ,083037.00,010125,4742.4461448,N,01617.9726556,E,1,21,2.820,624.6532,M*35
$GPGFA,083037.00,9.866,20.570,1.038,0.764,356.660,2.509,,VVV*3C
$GPLLK,083037.00,010125,,M,,M,1,21,1.5,,M*03
$GNGMP,083037.00,,,,,DAAA,21,0.7,,,,*5D
$GPGMP,083037.00,,,,,,06,,,,1.8,123*7D
$GLGMP,083037.00,,,,,,05,,,,,*75
$GAGMP,083037.00,,,,,,03,,,,,*7E
$GBGMP,083037.00,,,,,,07,,,,,*79
$PSSN,SNC,[0,289855000,2347]*4F
$GPZDA,083042.00,01,01,2025,,*6E
$GPDTM,W84,,00.0000000,N,00.0000000,E,00.0000000,W84*5F
$GPRMC,083042.00,A,4742.4461352,N,01617.9726496,E,0.0,,010125,5.1,E,D*16
$GPGLL,4742.4461352,N,01617.9726496,E,083042.00,A,D*67
$GPGGA,083042.00,4742.4461352,N,01617.9726496,E,2,20,0.7,624.6289,M,43.2111,M,2.8,0123*44
$GNGNS,083042.00,4742.4461352,N,01617.9726496,E,DAAA,20,0.7,624.6289,43.2111,,*52
$GPGNS,083042.00,,,,,,06,,,,2.8,123*7C
$GLGNS,083042.00,,,,,,04,,,,,*76
$GAGNS,083042.00,,,,,,03,,,,,*7C
$GBGNS,083042.00,,,,,,07,,,,,*7B
$GPLLQ,083042.00,010125,,M,,M,1,20,2.306,,M*19
$GPVTG,,T,,M,0.01,N,0.01,K,D*26
$GPHDT,,T*1B
$GPTHS,,V*0E
$GPROT,,V*08
$PSSN,HRP,083042.00,010125,,,,,,,00,0,,*6C
$PTNL,AVR,083042.00,,Yaw,,Tilt,,,,0,,00*3A
$GPGSA,A,3,05,13,14,15,20,30,,,,,,,1.2,0.7,1.0*30
$GPGSA,A,3,65,66,72,75,,,,,,,,,1.2,0.7,1.0*33
$GPGSA,A,3,03,08,25,,,,,,,,,,1.2,0.7,1.0*3B
$GPGSA,A,3,21,22,26,36,40,42,45,,,,,,1.2,0.7,1.0*36
$GPGST,083042.00,4.261,0.909,0.707,4.001,0.908,0.708,1.998*59
$GPGBS,083042.00,4.628,3.822,8.431,13,0.0001,1.062,0.631*5D
$GPGRS,083042.00,1,-1.1,1.1,0.8,-0.1,-1.0,-0.6,,,,,,*4D
$GPGRS,083042.00,1,-0.5,-3.1,4.1,-4.0,,,,,,,,*68
$GPGRS,083042.00,1,-0.5,1.7,-0.0,,,,,,,,,*6E
$GPGRS,083042.00,1,0.7,0.1,4.7,12.7,0.9,-1.2,-0.9,,,,,*5F
$GPGSV,5,1,17,13,75,309,48,20,18,201,35,07,13,074,30,15,40,303,42*70
$GPGSV,5,2,17,05,41,229,44,22,58,159,,30,47,070,44,14,66,112,48*7D
$GPGSV,5,3,17,08,08,030,,18,04,301,30,23,07,331,34,24,06,264,*76
$GPGSV,5,4,17,17,09,132,,36,35,170,38,34,31,208,,49,34,195,*77
$GPGSV,5,5,17,61,03,257,*4B
$GLGSV,2,1,08,65,84,210,45,72,27,147,37,74,23,041,39,66,37,322,52*68
$GLGSV,2,2,08,76,37,224,32,75,79,030,49,82,04,329,30,83,09,008,*60
$GAGSV,3,1,09,03,81,119,45,24,29,048,29,02,33,190,30,05,27,121,31*62
$GAGSV,3,2,09,16,52,067,,08,44,302,44,25,65,113,46,13,08,283,33*6E
$GAGSV,3,3,09,26,07,331,24*55
$GBGSV,4,1,16,45,78,071,42,22,24,157,36,05,21,130,,36,27,057,38*6A
$GBGSV,4,2,16,56,21,089,,40,27,058,36,42,42,306,42,26,41,233,44*62
$GBGSV,4,3,16,10,33,076,,21,68,209,46,50,64,276,,27,01,017,*69
$GBGSV,4,4,16,02,04,109,,09,08,076,,30,04,061,,60,07,112,*61
$GPGGA,083042.00,,,,,0,00,,,M,,M,,*45
$PTNL,GGK,083042.00,010125,4742.4461352,N,01617.9726496,E,1,20,1.2,EHT667.8400,M*4B
$GPGGQ,083042.00,010125,4742.4461352,N,01617.9726496,E,1,20,2.306,624.6289,M*3F
$GPGFA,083042.00,8.639,16.385,0.909,0.707,4.001,1.998,,VVV*3F
$GPLLK,083042.00,010125,,M,,M,1,20,1.5,,M*00
$GNGMP,083042.00,,,,,DAAA,20,0.7,,,,*5E
$GPGMP,083042.00,,,,,,06,,,,2.8,123*7C
$GLGMP,083042.00,,,,,,04,,,,,*76
$GAGMP,083042.00,,,,,,03,,,,,*7C
$GBGMP,083042.00,,,,,,07,,,,,*7B
$PSSN,SNC,[0,289860000,2347]*49
$GPZDA,083047.00,01,01,2025,,*6B
$GPDTM,W84,,00.0000000,N,00.0000000,E,00.0000000,W84*5F
$GPRMC,083047.00,A,4742.4461244,N,01617.9726445,E,0.0,,010125,5.1,E,D*1B
$GPGLL,4742.4461244,N,01617.9726445,E,083047.00,A,D*6A
$GPGGA,083047.00,4742.4461244,N,01617.9726445,E,2,21,0.7,624.6131,M,43.2111,M,2.5,0123*45
$GNGNS,083047.00,4742.4461244,N,01617.9726445,E,DAAA,21,0.7,624.6131,43.2111,,*5E
$GPGNS,083047.00,,,,,,06,,,,2.5,123*74
$GLGNS,083047.00,,,,,,05,,,,,*72
$GAGNS,083047.00,,,,,,03,,,,,*79
$GBGNS,083047.00,,,,,,07,,,,,*7E
$GPLLQ,083047.00,010125,,M,,M,1,21,3.174,,M*1B
$GPVTG,,T,,M,0.01,N,0.01,K,D*26
$GPHDT,,T*1B
$GPTHS,,V*0E
$GPROT,,V*08
$PSSN,HRP,083047.00,010125,,,,,,,00,0,,*69
$PTNL,AVR,083047.00,,Yaw,,Tilt,,,,0,,00*3F
$GPGSA,A,3,05,13,14,15,20,30,,,,,,,1.2,0.7,1.0*30
$GPGSA,A,3,65,66,74,75,76,,,,,,,,1.2,0.7,1.0*34
$GPGSA,A,3,03,08,25,,,,,,,,,,1.2,0.7,1.0*3B
$GPGSA,A,3,21,22,26,36,40,42,45,,,,,,1.2,0.7,1.0*36
$GPGST,083047.00,6.817,1.235,1.130,351.830,1.233,1.132,2.696*54
$GPGBS,083047.00,4.483,3.851,8.420,74,0.0001,18.361,6.288*66
$GPGRS,083047.00,1,-1.7,1.0,0.2,0.4,-1.3,-0.1,,,,,,*69
$GPGRS,083047.00,1,-1.6,-3.6,18.4,-4.5,-8.7,,,,,,,*59
$GPGRS,083047.00,1,-0.5,1.4,-0.4,,,,,,,,,*6C
$GPGRS,083047.00,1,-0.9,-0.9,3.1,13.0,0.0,-1.6,-3.5,,,,,*59
$GPGSV,5,1,17,13,76,309,48,20,18,201,35,07,13,074,29,15,40,303,42*7B
$GPGSV,5,2,17,05,41,229,42,22,58,159,,30,47,070,45,14,66,112,48*7A
$GPGSV,5,3,17,08,08,030,,18,04,301,32,23,07,330,35,24,06,264,*74
$GPGSV,5,4,17,17,09,132,,36,35,170,38,34,31,208,,49,34,195,*77
$GPGSV,5,5,17,61,03,257,*4B
$GLGSV,2,1,08,65,84,209,45,72,27,147,34,74,23,041,37,66,37,322,52*6D
$GLGSV,2,2,08,76,37,224,37,75,79,030,49,82,04,329,31,83,09,008,*64
$GAGSV,3,1,09,03,81,119,46,24,29,048,32,02,33,190,33,05,27,121,32*6B
$GAGSV,3,2,09,16,52,067,,08,44,302,44,25,65,113,46,13,08,283,33*6E
$GAGSV,3,3,09,26,07,331,33*53
$GBGSV,4,1,16,45,78,071,41,22,24,157,35,05,21,130,,36,27,057,38*6A
$GBGSV,4,2,16,56,21,089,,40,27,058,37,42,42,306,43,26,41,233,42*64
$GBGSV,4,3,16,10,33,076,,21,68,209,46,50,64,276,,27,01,017,*69
$GBGSV,4,4,16,02,04,109,,09,08,076,,30,04,061,,60,07,112,*61
$GPGGA,083047.00,,,,,0,00,,,M,,M,,*40
$PTNL,GGK,083047.00,010125,4742.4461244,N,01617.9726445,E,1,21,1.2,EHT667.8241,M*44
$GPGGQ,083047.00,010125,4742.4461244,N,01617.9726445,E,1,21,3.174,624.6131,M*35
$GPGFA,083047.00,11.744,22.108,1.235,1.130,351.830,2.696,,VVV*04
$GPLLK,083047.00,010125,,M,,M,1,21,1.4,,M*05
$GNGMP,083047.00,,,,,DAAA,21,0.7,,,,*5A
$GPGMP,083047.00,,,,,,06,,,,2.5,123*74
$GLGMP,083047.00,,,,,,05,,,,,*72
$GAGMP,083047.00,,,,,,03,,,,,*79
$GBGMP,083047.00,,,,,,07,,,,,*7E
$PSSN,SNC,[0,289865000,2347]*4C
$GPZDA,083052.00,01,01,2025,,*6F
$GPDTM,W84,,00.0000000,N,00.0000000,E,00.0000000,W84*5F
$GPRMC,083052.00,A,4742.4460882,N,01617.9726417,E,0.0,,010125,5.1,E,D*19
$GPGLL,4742.4460882,N,01617.9726417,E,083052.00,A,D*68
$GPGGA,083052.00,4742.4460882,N,01617.9726417,E,2,21,0.7,624.6223,M,43.2111,M,2.7,0123*45
$GNGNS,083052.00,4742.4460882,N,01617.9726417,E,DAAA,21,0.7,624.6223,43.2111,,*5C
$GPGNS,083052.00,,,,,,07,,,,2.7,123*73
$GLGNS,083052.00,,,,,,05,,,,,*76
$GAGNS,083052.00,,,,,,03,,,,,*7D
$GBGNS,083052.00,,,,,,06,,,,,*7B
$GPLLQ,083052.00,010125,,M,,M,1,21,3.139,,M*16
$GPVTG,,T,,M,0.01,N,0.01,K,D*26
$GPHDT,,T*1B
$GPTHS,,V*0E
$GPROT,,V*08
$PSSN,HRP,083052.00,010125,,,,,,,00,0,,*6D
$PTNL,AVR,083052.00,,Yaw,,Tilt,,,,0,,00*3B
$GPGSA,A,3,05,13,14,15,20,23,30,,,,,,1.2,0.7,0.9*39
$GPGSA,A,3,65,66,74,75,76,,,,,,,,1.2,0.7,0.9*3C
$GPGSA,A,3,03,08,25,,,,,,,,,,1.2,0.7,0.9*33
$GPGSA,A,3,21,26,36,40,42,45,,,,,,,1.2,0.7,0.9*3E
$GPGST,083052.00,5.568,1.299,1.255,303.365,1.269,1.286,2.567*52
$GPGBS,083052.00,3.186,3.659,6.218,05,0.0001,-2.823,0.770*79
$GPGRS,083052.00,1,-2.8,1.4,0.2,1.0,-2.1,3.8,-0.5,,,,,*40
$GPGRS,083052.00,1,-2.5,-3.6,11.3,-4.0,-5.0,,,,,,,*5C
$GPGRS,083052.00,1,-0.7,1.1,-0.9,,,,,,,,,*62
$GPGRS,083052.00,1,-1.7,1.9,13.0,-0.3,-2.6,-5.5,,,,,,*79
$GPGSV,5,1,17,13,76,309,49,20,18,201,35,07,13,074,28,15,40,303,42*7B
$GPGSV,5,2,17,05,41,229,39,22,58,159,,30,47,070,45,14,66,112,48*76
$GPGSV,5,3,17,08,08,030,,18,04,301,34,23,07,330,35,24,06,264,*72
$GPGSV,5,4,17,17,09,132,,36,35,170,38,34,31,208,,49,34,195,*77
$GPGSV,5,5,17,61,03,257,*4B
$GLGSV,2,1,08,65,84,209,45,72,27,147,32,74,23,041,36,66,37,322,52*6A
$GLGSV,2,2,08,76,37,224,40,75,79,030,50,82,04,329,32,83,09,008,*6F
$GAGSV,3,1,09,03,81,119,46,24,29,048,31,02,33,191,35,05,27,121,33*6E
$GAGSV,3,2,09,16,52,067,,08,44,302,44,25,65,113,47,13,08,283,34*68
$GAGSV,3,3,09,26,07,331,30*50
$GBGSV,4,1,16,45,78,071,40,22,24,157,35,05,21,130,,36,27,057,38*6B
$GBGSV,4,2,16,56,21,089,,40,27,058,37,42,42,306,43,26,41,233,38*69
$GBGSV,4,3,16,10,33,076,,21,68,209,47,50,64,276,,27,01,017,*68
$GBGSV,4,4,16,02,04,109,,09,08,076,,30,04,061,,60,07,112,*61
$GPGGA,083052.00,,,,,0,00,,,M,,M,,*44
$PTNL,GGK,083052.00,010125,4742.4460882,N,01617.9726417,E,1,21,1.2,EHT667.8334,M*45
$GPGGQ,083052.00,010125,4742.4460882,N,01617.9726417,E,1,21,3.139,624.6223,M*3E
$GPGFA,083052.00,12.353,21.047,1.299,1.255,303.365,2.567,,VVV*0F
$GPLLK,083052.00,010125,,M,,M,1,21,1.4,,M*01
$GNGMP,083052.00,,,,,DAAA,21,0.7,,,,*5E
$GPGMP,083052.00,,,,,,07,,,,2.7,123*73
$GLGMP,083052.00,,,,,,05,,,,,*76
$GAGMP,083052.00,,,,,,03,,,,,*7D
$GBGMP,083052.00,,,,,,06,,,,,*7B
$PSSN,SNC,[0,289870000,2347]*48
$GPZDA,083057.00,01,01,2025,,*6A
$GPDTM,W84,,00.0000000,N,00.0000000,E,00.0000000,W84*5F
$GPRMC,083057.00,A,4742.4460587,N,01617.9726434,E,0.0,,010125,5.1,E,D*15
$GPGLL,4742.4460587,N,01617.9726434,E,083057.00,A,D*64
$GPGGA,083057.00,4742.4460587,N,01617.9726434,E,2,21,0.7,624.6282,M,43.2111,M,2.0,0123*45
$GNGNS,083057.00,4742.4460587,N,01617.9726434,E,DAAA,21,0.7,624.6282,43.2111,,*5B
$GPGNS,083057.00,,,,,,07,,,,2.0,123*71
$GLGNS,083057.00,,,,,,04,,,,,*72
$GAGNS,083057.00,,,,,,04,,,,,*7F
$GBGNS,083057.00,,,,,,06,,,,,*7E
$GPLLQ,083057.00,010125,,M,,M,1,21,2.522,,M*1C
$GPVTG,,T,,M,0.00,N,0.01,K,D*27
$GPHDT,,T*1B
$GPTHS,,V*0E
$GPROT,,V*08
$PSSN,HRP,083057.00,010125,,,,,,,00,0,,*68
$PTNL,AVR,083057.00,,Yaw,,Tilt,,,,0,,00*3E
$GPGSA,A,3,05,13,14,15,20,23,30,,,,,,1.2,0.7,0.9*39
$GPGSA,A,3,65,66,75,76,,,,,,,,,1.2,0.7,0.9*3F
$GPGSA,A,3,02,03,08,25,,,,,,,,,1.2,0.7,0.9*31
$GPGSA,A,3,21,26,36,40,42,45,,,,,,,1.2,0.7,0.9*3E
$GPGST,083057.00,4.255,1.045,1.008,311.749,1.025,1.029,2.062*52
$GPGBS,083057.00,3.041,3.619,6.199,23,0.0001,3.662,1.224*5E
$GPGRS,083057.00,1,-1.9,1.1,0.5,-0.0,-1.6,3.7,-1.1,,,,,*67
$GPGRS,083057.00,1,-2.0,-3.3,-3.6,-3.2,,,,,,,,*41
$GPGRS,083057.00,1,3.3,-0.9,0.7,-1.1,,,,,,,,*49
$GPGRS,083057.00,1,-1.4,0.4,12.4,-1.1,-2.1,-4.2,,,,,,*74
$GPGSV,5,1,17,13,76,309,50,20,18,201,35,07,13,074,28,15,40,303,41*70
$GPGSV,5,2,17,05,41,229,35,22,58,159,,30,47,070,46,14,66,112,47*76
$GPGSV,5,3,17,08,08,030,,18,04,301,35,23,07,330,35,24,06,264,*73
$GPGSV,5,4,17,17,09,132,,36,35,170,38,34,31,208,,49,34,195,*77
$GPGSV,5,5,17,61,03,257,*4B
$GLGSV,2,1,08,65,84,209,46,72,27,147,34,74,23,041,35,66,37,322,52*6C
$GLGSV,2,2,08,76,37,224,40,75,79,030,50,82,04,329,29,83,09,008,*65
$GAGSV,3,1,09,03,81,119,46,24,29,048,31,02,33,191,37,05,27,121,34*6B
$GAGSV,3,2,09,16,52,067,,08,44,302,44,25,65,113,47,13,08,283,20*6D
$GAGSV,3,3,09,26,07,331,31*51
$GBGSV,4,1,16,45,78,071,37,22,24,157,33,05,21,130,,36,27,057,38*6D
$GBGSV,4,2,16,56,21,089,,40,27,058,37,42,42,306,43,26,41,233,36*67
$GBGSV,4,3,16,10,33,076,,21,68,209,48,50,64,276,,27,01,017,*67
$GBGSV,4,4,16,02,04,109,,09,08,076,,30,04,061,,60,07,112,*61
$GPGGA,083057.00,,,,,0,00,,,M,,M,,*41
$PTNL,GGK,083057.00,010125,4742.4460587,N,01617.9726434,E,1,21,1.2,EHT667.8393,M*44
$GPGGQ,083057.00,010125,4742.4460587,N,01617.9726434,E,1,21,2.522,624.6282,M*36
$GPGFA,083057.00,9.935,16.906,1.045,1.008,311.749,2.062,,VVV*32
$GPLLK,083057.00,010125,,M,,M,1,21,1.4,,M*04
$GNGMP,083057.00,,,,,DAAA,21,0.7,,,,*5B
$GPGMP,083057.00,,,,,,07,,,,2.0,123*71
$GLGMP,083057.00,,,,,,04,,,,,*72
$GAGMP,083057.00,,,,,,04,,,,,*7F
$GBGMP,083057.00,,,,,,06,,,,,*7E
$PSSN,SNC,[0,289875000,2347]*4D
$GPZDA,083102.00,01,01,2025,,*6B
$GPDTM,W84,,00.0000000,N,00.0000000,E,00.0000000,W84*5F
$GPRMC,083102.00,A,4742.4460477,N,01617.9726468,E,0.0,,010125,5.1,E,D*13
$GPGLL,4742.4460477,N,01617.9726468,E,083102.00,A,D*62
$GPGGA,083102.00,4742.4460477,N,01617.9726468,E,2,23,0.6,624.6386,M,43.2111,M,3.2,0123*46
$GNGNS,083102.00,4742.4460477,N,01617.9726468,E,DAAA,23,0.6,624.6386,43.2111,,*5B
$GPGNS,083102.00,,,,,,06,,,,3.2,123*72
$GLGNS,083102.00,,,,,,05,,,,,*72
$GAGNS,083102.00,,,,,,06,,,,,*7C
$GBGNS,083102.00,,,,,,06,,,,,*7F
$GPLLQ,083102.00,010125,,M,,M,1,23,2.593,,M*15
$GPVTG,,T,,M,0.01,N,0.02,K,D*25
$GPHDT,,T*1B
$GPTHS,,V*0E
$GPROT,,V*08
$PSSN,HRP,083102.00,010125,,,,,,,00,0,,*69
$PTNL,AVR,083102.00,,Yaw,,Tilt,,,,0,,00*3F
$GPGSA,A,3,13,14,15,20,23,30,,,,,,,1.0,0.6,0.9*3F
$GPGSA,A,3,65,66,72,75,76,,,,,,,,1.0,0.6,0.9*39
$GPGSA,A,3,02,03,05,08,24,25,,,,,,,1.0,0.6,0.9*31
$GPGSA,A,3,21,26,36,40,42,45,,,,,,,1.0,0.6,0.9*3D
$GPGST,083102.00,4.330,1.280,1.023,37.703,1.190,1.126,2.010*6E
$GPGBS,083102.00,4.867,4.230,6.233,23,0.0001,4.055,1.226*58
$GPGRS,083102.00,1,0.9,0.5,-1.7,-0.7,4.1,-1.3,,,,,,*61
$GPGRS,083102.00,1,-1.4,-2.7,4.8,-3.7,-2.0,,,,,,,*62
$GPGRS,083102.00,1,3.4,-1.2,-1.0,0.1,-4.4,-1.2,,,,,,*41
$GPGRS,083102.00,1,-1.3,-0.8,13.3,-1.4,-0.5,-3.4,,,,,,*57
$GPGSV,5,1,17,13,76,309,50,20,18,201,35,07,13,074,27,15,40,303,40*7E
$GPGSV,5,2,17,05,41,229,35,22,58,159,,30,47,070,47,14,66,112,48*78
$GPGSV,5,3,17,08,08,030,,18,04,301,35,23,07,330,36,24,06,264,*70
$GPGSV,5,4,17,17,09,132,,36,35,170,38,34,31,208,,49,34,195,*77
$GPGSV,5,5,17,61,03,257,*4B
$GLGSV,2,1,08,65,84,208,45,72,27,147,36,74,23,041,33,66,38,322,53*64
$GLGSV,2,2,08,76,37,224,39,75,79,030,49,82,04,329,33,83,09,008,*68
$GAGSV,3,1,09,03,81,119,46,24,29,048,30,02,34,191,38,05,27,121,36*60
$GAGSV,3,2,09,16,52,067,,08,44,302,44,25,65,113,48,13,08,283,35*66
$GAGSV,3,3,09,26,07,331,32*52
$GBGSV,4,1,16,45,78,071,35,22,24,157,32,05,21,130,,36,27,057,37*61
$GBGSV,4,2,16,56,21,089,,40,27,058,37,42,42,306,44,26,41,233,36*60
$GBGSV,4,3,16,10,33,076,,21,68,209,47,50,64,276,,27,01,017,*68
$GBGSV,4,4,16,02,04,109,,09,08,076,,30,04,061,,60,07,112,*61
$GPGGA,083102.00,,,,,0,00,,,M,,M,,*40
$PTNL,GGK,083102.00,010125,4742.4460477,N,01617.9726468,E,1,23,1.0,EHT667.8496,M*40
$GPGGQ,083102.00,010125,4742.4460477,N,01617.9726468,E,1,23,2.593,624.6386,M*3D
$GPGFA,083102.00,12.165,16.478,1.280,1.023,37.703,2.010,,VVV*3E
$GPLLK,083102.00,010125,,M,,M,1,23,1.2,,M*01
$GNGMP,083102.00,,,,,DAAA,23,0.6,,,,*59
$GPGMP,083102.00,,,,,,06,,,,3.2,123*72
$GLGMP,083102.00,,,,,,05,,,,,*72
$GAGMP,083102.00,,,,,,06,,,,,*7C
$GBGMP,083102.00,,,,,,06,,,,,*7F
$PSSN,SNC,[0,289880000,2347]*47
$GPZDA,083107.00,01,01,2025,,*6E
$GPDTM,W84,,00.0000000,N,00.0000000,E,00.0000000,W84*5F
$GPRMC,083107.00,A,4742.4460444,N,01617.9726385,E,0.0,,010125,5.1,E,D*12
$GPGLL,4742.4460444,N,01617.9726385,E,083107.00,A,D*63
$GPGGA,083107.00,4742.4460444,N,01617.9726385,E,2,23,0.6,624.6457,M,43.2111,M,2.3,0123*4C
$GNGNS,083107.00,4742.4460444,N,01617.9726385,E,DAAA,23,0.6,624.6457,43.2111,,*51
$GPGNS,083107.00,,,,,,07,,,,2.3,123*76
$GLGNS,083107.00,,,,,,05,,,,,*77
$GAGNS,083107.00,,,,,,06,,,,,*79
$GBGNS,083107.00,,,,,,05,,,,,*79
$GPLLQ,083107.00,010125,,M,,M,1,23,2.315,,M*18
$GPVTG,,T,,M,0.00,N,0.00,K,D*26
$GPHDT,,T*1B
$GPTHS,,V*0E
$GPROT,,V*08
$PSSN,HRP,083107.00,010125,,,,,,,00,0,,*6C
$PTNL,AVR,083107.00,,Yaw,,Tilt,,,,0,,00*3A
$GPGSA,A,3,05,13,14,15,20,23,30,,,,,,1.1,0.6,0.9*3B
$GPGSA,A,3,65,66,72,75,76,,,,,,,,1.1,0.6,0.9*38
$GPGSA,A,3,02,03,05,08,24,25,,,,,,,1.1,0.6,0.9*30
$GPGSA,A,3,21,26,36,40,42,,,,,,,,1.1,0.6,0.9*3D
$GPGST,083107.00,4.237,0.959,0.934,299.292,0.940,0.953,1.889*52
$GPGBS,083107.00,3.019,3.604,6.214,23,0.0001,3.810,1.204*54
$GPGRS,083107.00,1,-0.2,0.7,0.7,-1.6,-0.4,3.8,-0.8,,,,,*6F
$GPGRS,083107.00,1,-2.3,-2.6,6.7,-4.0,-2.6,,,,,,,*69
$GPGRS,083107.00,1,3.1,-1.5,0.3,0.3,3.1,-1.2,,,,,,*44
$GPGRS,083107.00,1,-1.3,0.7,12.7,-1.3,-0.8,,,,,,,*7B
$GPGSV,5,1,17,13,76,309,51,20,18,201,35,07,13,074,27,15,40,303,38*70
$GPGSV,5,2,17,05,41,229,39,22,58,159,,30,47,070,47,14,66,112,48*74
$GPGSV,5,3,17,08,07,030,,18,04,301,35,23,07,330,35,24,06,264,*7C
$GPGSV,5,4,17,17,09,132,,36,35,170,38,34,31,208,,49,34,195,*77
$GPGSV,5,5,17,61,03,257,*4B
$GLGSV,2,1,08,65,84,208,45,72,27,147,37,74,23,041,32,66,38,322,53*64
$GLGSV,2,2,08,76,37,224,39,75,78,030,50,82,04,329,30,83,09,008,*62
$GAGSV,3,1,09,03,81,119,45,24,29,048,35,02,34,191,39,05,27,121,36*67
$GAGSV,3,2,09,16,52,067,,08,44,302,43,25,65,113,48,13,08,283,25*60
$GAGSV,3,3,09,26,07,331,31*51
$GBGSV,4,1,16,45,78,071,35,22,24,157,30,05,21,130,,36,27,057,36*62
$GBGSV,4,2,16,56,21,089,,40,27,058,37,42,42,306,45,26,41,233,39*6E
$GBGSV,4,3,16,10,33,076,,21,68,208,47,50,64,275,,27,01,017,*6A
$GBGSV,4,4,16,02,04,109,,09,08,076,,30,04,061,,60,07,112,*61
$GPGGA,083107.00,,,,,0,00,,,M,,M,,*45
$PTNL,GGK,083107.00,010125,4742.4460444,N,01617.9726385,E,1,23,1.1,EHT667.8567,M*4F
$GPGGQ,083107.00,010125,4742.4460444,N,01617.9726385,E,1,23,2.315,624.6457,M*3F
$GPGFA,083107.00,9.118,15.487,0.959,0.934,299.292,1.889,,VVV*38
$GPLLK,083107.00,010125,,M,,M,1,23,1.2,,M*04
$GNGMP,083107.00,,,,,DAAA,23,0.6,,,,*5C
$GPGMP,083107.00,,,,,,07,,,,2.3,123*76
$GLGMP,083107.00,,,,,,05,,,,,*77
$GAGMP,083107.00,,,,,,06,,,,,*79
$GBGMP,083107.00,,,,,,05,,,,,*79
$PSSN,SNC,[0,289885000,2347]*42
$GPZDA,083112.00,01,01,2025,,*6A
$GPDTM,W84,,00.0000000,N,00.0000000,E,00.0000000,W84*5F
$GPRMC,083112.00,A,4742.4460411,N,01617.9726394,E,0.0,,010125,5.1,E,D*16
$GPGLL,4742.4460411,N,01617.9726394,E,083112.00,A,D*67
$GPGGA,083112.00,4742.4460411,N,01617.9726394,E,2,22,0.6,624.6565,M,43.2111,M,2.7,0123*4D
$GNGNS,083112.00,4742.4460411,N,01617.9726394,E,DAAA,22,0.6,624.6565,43.2111,,*54
$GPGNS,083112.00,,,,,,07,,,,2.7,123*76
$GLGNS,083112.00,,,,,,05,,,,,*73
$GAGNS,083112.00,,,,,,06,,,,,*7D
$GBGNS,083112.00,,,,,,04,,,,,*7C
$GPLLQ,083112.00,010125,,M,,M,1,22,2.238,,M*13
$GPVTG,,T,,M,0.01,N,0.02,K,D*25
$GPHDT,,T*1B
$GPTHS,,V*0E
$GPROT,,V*08
$PSSN,HRP,083112.00,010125,,,,,,,00,0,,*68
$PTNL,AVR,083112.00,,Yaw,,Tilt,,,,0,,00*3E
$GPGSA,A,3,05,13,14,15,20,23,30,,,,,,1.1,0.6,0.9*3B
$GPGSA,A,3,65,66,72,75,76,,,,,,,,1.1,0.6,0.9*38
$GPGSA,A,3,02,03,05,08,24,25,,,,,,,1.1,0.6,0.9*30
$GPGSA,A,3,21,26,40,42,,,,,,,,,1.1,0.6,0.9*38
$GPGST,083112.00,2.992,0.926,0.900,297.348,0.906,0.921,1.828*5F
$GPGBS,083112.00,3.077,3.649,6.237,15,0.0001,-1.971,0.749*71
$GPGRS,083112.00,1,0.9,0.6,0.3,-2.0,-0.6,3.0,-1.1,,,,,*4F
$GPGRS,083112.00,1,-2.9,-3.2,7.7,-3.7,-2.3,,,,,,,*66
$GPGRS,083112.00,1,2.3,-1.5,0.7,0.6,0.2,-1.5,,,,,,*45
$GPGRS,083112.00,1,-1.1,-1.1,-2.8,-0.8,,,,,,,,*45
$GPGSV,5,1,17,13,76,310,51,20,18,201,35,07,13,074,26,15,40,303,36*77
$GPGSV,5,2,17,05,41,229,41,22,58,159,,30,47,070,48,14,66,112,47*7B
$GPGSV,5,3,17,08,07,030,,18,04,301,36,23,07,330,35,24,06,264,*7F
$GPGSV,5,4,17,17,09,132,,36,35,170,38,34,31,208,,49,34,195,*77
$GPGSV,5,5,17,61,03,257,*4B
$GLGSV,2,1,08,65,84,208,45,72,27,147,36,74,23,041,32,66,38,322,53*65
$GLGSV,2,2,08,76,37,224,41,75,78,030,50,82,04,329,26,83,09,008,*6A
$GAGSV,3,1,09,03,81,119,45,24,29,048,36,02,34,191,40,05,27,121,36*6A
$GAGSV,3,2,09,16,52,067,,08,44,302,42,25,65,113,48,13,08,283,27*63
$GAGSV,3,3,09,26,07,331,32*52
$GBGSV,4,1,16,45,78,071,34,22,24,157,29,05,21,130,,36,27,057,35*68
$GBGSV,4,2,16,56,21,089,,40,27,058,37,42,42,306,45,26,41,233,40*60
$GBGSV,4,3,16,10,33,076,,21,68,208,47,50,64,275,,27,01,017,*6A
$GBGSV,4,4,16,02,04,109,,09,08,076,,30,04,061,,60,07,112,*61
$GPGGA,083112.00,,,,,0,00,,,M,,M,,*41
$PTNL,GGK,083112.00,010125,4742.4460411,N,01617.9726394,E,1,22,1.1,EHT667.8675,M*4A
$GPGGQ,083112.00,010125,4742.4460411,N,01617.9726394,E,1,22,2.238,624.6565,M*34
$GPGFA,083112.00,8.804,14.992,0.926,0.900,297.348,1.828,,VVV*3D
$GPLLK,083112.00,010125,,M,,M,1,22,1.3,,M*00
$GNGMP,083112.00,,,,,DAAA,22,0.6,,,,*59
$GPGMP,083112.00,,,,,,07,,,,2.7,123*76
$GLGMP,083112.00,,,,,,05,,,,,*73
$GAGMP,083112.00,,,,,,06,,,,,*7D
$GBGMP,083112.00,,,,,,04,,,,,*7C
$PSSN,SNC,[0,289890000,2347]*46
$GPZDA,083117.00,01,01,2025,,*6F
$GPDTM,W84,,00.0000000,N,00.0000000,E,00.0000000,W84*5F
$GPRMC,083117.00,A,4742.4460377,N,01617.9726501,E,0.0,,010125,5.1,E,D*1E
$GPGLL,4742.4460377,N,01617.9726501,E,083117.00,A,D*6F
$GPGGA,083117.00,4742.4460377,N,01617.9726501,E,2,20,0.7,624.6675,M,43.2111,M,1.8,0123*48
$GNGNS,083117.00,4742.4460377,N,01617.9726501,E,DAAA,20,0.7,624.6675,43.2111,,*5D
$GPGNS,083117.00,,,,,,06,,,,1.8,123*7E
$GLGNS,083117.00,,,,,,04,,,,,*77
$GAGNS,083117.00,,,,,,06,,,,,*78
$GBGNS,083117.00,,,,,,04,,,,,*79
$GPLLQ,083117.00,010125,,M,,M,1,20,1.686,,M*16
$GPVTG,,T,,M,0.01,N,0.02,K,D*25
$GPHDT,,T*1B
$GPTHS,,V*0E
$GPROT,,V*08
$PSSN,HRP,083117.00,010125,,,,,,,00,0,,*6D
$PTNL,AVR,083117.00,,Yaw,,Tilt,,,,0,,00*3B
$GPGSA,A,3,05,13,14,20,23,30,,,,,,,1.1,0.7,0.9*3E
$GPGSA,A,3,65,66,75,76,,,,,,,,,1.1,0.7,0.9*3C
$GPGSA,A,3,02,03,05,08,24,25,,,,,,,1.1,0.7,0.9*31
$GPGSA,A,3,21,26,40,42,,,,,,,,,1.1,0.7,0.9*39
$GPGST,083117.00,2.094,0.847,0.635,310.532,0.732,0.764,1.313*5A
$GPGBS,083117.00,3.802,3.863,6.504,30,0.0001,-1.283,0.748*7F
$GPGRS,083117.00,1,-0.0,0.5,0.2,-1.2,1.9,-1.3,,,,,,*61
$GPGRS,083117.00,1,-2.4,-3.9,-3.0,-1.0,,,,,,,,*4C
$GPGRS,083117.00,1,2.5,-0.9,-0.7,0.7,-1.3,-1.5,,,,,,*4A
$GPGRS,083117.00,1,-0.6,-0.0,-2.5,-0.1,,,,,,,,*42
$GPGSV,5,1,17,13,76,310,51,20,17,201,36,07,13,074,20,15,40,303,33*78
$GPGSV,5,2,17,05,41,229,42,22,58,159,,30,47,070,47,14,66,112,46*76
$GPGSV,5,3,17,08,07,030,,18,04,301,36,23,07,330,35,24,06,264,*7F
$GPGSV,5,4,17,17,09,132,,36,35,170,38,34,31,208,,49,34,195,*77
$GPGSV,5,5,17,61,03,257,*4B
$GLGSV,2,1,08,65,84,207,46,72,27,147,34,74,23,041,32,66,38,322,52*6A
$GLGSV,2,2,08,76,37,224,42,75,78,030,51,82,04,329,27,83,09,008,*69
$GAGSV,3,1,09,03,81,119,44,24,29,048,37,02,34,191,40,05,27,121,35*69
$GAGSV,3,2,09,16,52,067,,08,44,302,42,25,65,113,48,13,08,283,27*63
$GAGSV,3,3,09,26,07,331,35*55
$GBGSV,4,1,16,45,78,071,34,22,24,157,29,05,21,130,,36,26,057,32*6E
$GBGSV,4,2,16,56,21,089,,40,27,058,37,42,42,306,46,26,41,233,41*62
$GBGSV,4,3,16,10,33,076,,21,68,208,46,50,64,275,,27,01,017,*6B
$GBGSV,4,4,16,02,04,109,,09,08,076,,30,04,061,,60,07,112,*61
$GPGGA,083117.00,,,,,0,00,,,M,,M,,*44
$PTNL,GGK,083117.00,010125,4742.4460377,N,01617.9726501,E,1,20,1.1,EHT667.8786,M*4D
$GPGGQ,083117.00,010125,4742.4460377,N,01617.9726501,E,1,20,1.686,624.6675,M*3E
$GPGFA,083117.00,8.050,10.766,0.847,0.635,310.532,1.313,,VVV*39
$GPLLK,083117.00,010125,,M,,M,1,20,1.3,,M*07
$GNGMP,083117.00,,,,,DAAA,20,0.7,,,,*5F
$GPGMP,083117.00,,,,,,06,,,,1.8,123*7E
$GLGMP,083117.00,,,,,,04,,,,,*77
$GAGMP,083117.00,,,,,,06,,,,,*78
$GBGMP,083117.00,,,,,,04,,,,,*79
$PSSN,SNC,[0,289895000,2347]*43
$GPZDA,083122.00,01,01,2025,,*69
$GPDTM,W84,,00.0000000,N,00.0000000,E,00.0000000,W84*5F
$GPRMC,083122.00,A,4742.4460372,N,01617.9726535,E,0.0,,010125,5.1,E,D*1A
$GPGLL,4742.4460372,N,01617.9726535,E,083122.00,A,D*6B
$GPGGA,083122.00,4742.4460372,N,01617.9726535,E,2,19,0.7,624.6390,M,43.2111,M,2.6,0123*45
$GNGNS,083122.00,4742.4460372,N,01617.9726535,E,DAAA,19,0.7,624.6390,43.2111,,*5D
$GPGNS,083122.00,,,,,,05,,,,2.6,123*76
$GLGNS,083122.00,,,,,,04,,,,,*71
$GAGNS,083122.00,,,,,,06,,,,,*7E
$GBGNS,083122.00,,,,,,04,,,,,*7F
$GPLLQ,083122.00,010125,,M,,M,1,19,2.669,,M*18
$GPVTG,,T,,M,0.01,N,0.01,K,D*26
$GPHDT,,T*1B
$GPTHS,,V*0E
$GPROT,,V*08
$PSSN,HRP,083122.00,010125,,,,,,,00,0,,*6B
$PTNL,AVR,083122.00,,Yaw,,Tilt,,,,0,,00*3D
$GPGSA,A,3,05,13,14,20,30,,,,,,,,1.3,0.7,1.1*34
$GPGSA,A,3,65,66,75,76,,,,,,,,,1.3,0.7,1.1*37
$GPGSA,A,3,02,03,05,08,24,25,,,,,,,1.3,0.7,1.1*3A
$GPGSA,A,3,21,26,40,42,,,,,,,,,1.3,0.7,1.1*32
$GPGST,083122.00,2.102,1.448,0.631,337.892,1.363,0.799,2.151*52
$GPGBS,083122.00,8.159,4.603,12.209,13,0.0001,0.716,0.627*69
$GPGRS,083122.00,1,-0.7,0.7,0.7,-1.0,-0.9,,,,,,,*48
$GPGRS,083122.00,1,-1.2,-3.9,-2.6,-0.1,,,,,,,,*48
$GPGRS,083122.00,1,2.6,-0.6,-2.1,0.2,-0.1,-1.4,,,,,,*43
$GPGRS,083122.00,1,-0.0,2.6,-2.3,0.1,,,,,,,,*40
$GPGSV,5,1,17,13,76,310,51,20,17,201,37,07,13,074,,15,40,303,30*78
$GPGSV,5,2,17,05,41,229,42,22,58,159,,30,47,070,47,14,66,112,46*76
$GPGSV,5,3,17,08,07,030,,18,04,301,34,23,07,330,34,24,06,264,*7C
$GPGSV,5,4,17,17,09,132,,36,35,170,38,34,31,208,,49,34,195,*77
$GPGSV,5,5,17,61,03,257,*4B
$GLGSV,2,1,08,65,84,207,46,72,27,147,34,74,23,041,29,66,38,322,52*60
$GLGSV,2,2,08,76,37,224,43,75,78,030,51,82,04,329,30,83,09,008,*6E
$GAGSV,3,1,09,03,80,120,44,24,29,048,37,02,34,191,40,05,27,121,35*62
$GAGSV,3,2,09,16,52,067,,08,44,302,41,25,65,113,49,13,08,283,26*60
$GAGSV,3,3,09,26,07,331,26*57
$GBGSV,4,1,16,45,78,071,33,22,24,157,29,05,21,130,,36,26,057,28*62
$GBGSV,4,2,16,56,21,089,,40,27,058,37,42,42,306,46,26,41,233,41*62
$GBGSV,4,3,16,10,33,076,,21,68,208,46,50,64,275,,27,01,017,*6B
$GBGSV,4,4,16,02,04,109,,09,08,076,,30,04,061,,60,07,112,*61
$GPGGA,083122.00,,,,,0,00,,,M,,M,,*42
$PTNL,GGK,083122.00,010125,4742.4460372,N,01617.9726535,E,1,19,1.3,EHT667.8500,M*4D
$GPGGQ,083122.00,010125,4742.4460372,N,01617.9726535,E,1,19,2.669,624.6390,M*3C
$GPGFA,083122.00,13.772,17.641,1.448,0.631,337.892,2.151,,VVV*02
$GPLLK,083122.00,010125,,M,,M,1,19,1.6,,M*0E
$GNGMP,083122.00,,,,,DAAA,19,0.7,,,,*53
$GPGMP,083122.00,,,,,,05,,,,2.6,123*76
$GLGMP,083122.00,,,,,,04,,,,,*71
$GAGMP,083122.00,,,,,,06,,,,,*7E
$GBGMP,083122.00,,,,,,04,,,,,*7F
$PSSN,SNC,[0,289900000,2347]*4E
$GPZDA,083127.00,01,01,2025,,*6C
$GPDTM,W84,,00.0000000,N,00.0000000,E,00.0000000,W84*5F
$GPRMC,083127.00,A,4742.4460313,N,01617.9726526,E,0.0,,010125,5.1,E,D*1A
$GPGLL,4742.4460313,N,01617.9726526,E,083127.00,A,D*6B
$GPGGA,083127.00,4742.4460313,N,01617.9726526,E,2,20,0.7,624.6242,M,43.2111,M,2.5,0123*42
$GNGNS,083127.00,4742.4460313,N,01617.9726526,E,DAAA,20,0.7,624.6242,43.2111,,*59
$GPGNS,083127.00,,,,,,06,,,,2.5,123*73
$GLGNS,083127.00,,,,,,04,,,,,*74
$GAGNS,083127.00,,,,,,06,,,,,*7B
$GBGNS,083127.00,,,,,,04,,,,,*7A
$GPLLQ,083127.00,010125,,M,,M,1,20,2.698,,M*19
$GPVTG,,T,,M,0.01,N,0.02,K,D*25
$GPHDT,,T*1B
$GPTHS,,V*0E
$GPROT,,V*08
$PSSN,HRP,083127.00,010125,,,,,,,00,0,,*6E
$PTNL,AVR,083127.00,,Yaw,,Tilt,,,,0,,00*38
$GPGSA,A,3,05,13,14,15,20,30,,,,,,,1.3,0.7,1.1*30
$GPGSA,A,3,65,66,75,76,,,,,,,,,1.3,0.7,1.1*37
$GPGSA,A,3,02,03,05,08,24,25,,,,,,,1.3,0.7,1.1*3A
$GPGSA,A,3,21,26,40,42,,,,,,,,,1.3,0.7,1.1*32
$GPGST,083127.00,1.836,1.279,0.811,342.177,1.242,0.865,2.233*5B
$GPGBS,083127.00,4.591,3.864,8.451,15,0.0001,-1.366,0.733*75
$GPGRS,083127.00,1,-1.2,1.2,0.8,-1.4,-0.1,-0.6,,,,,,*4B
$GPGRS,083127.00,1,-0.6,-3.1,-2.5,0.2,,,,,,,,*6D
$GPGRS,083127.00,1,2.6,-0.4,-2.1,-0.0,-0.2,-1.1,,,,,,*6D
$GPGRS,083127.00,1,0.3,2.1,-2.1,-0.5,,,,,,,,*47
$GPGSV,5,1,17,13,76,310,51,20,17,201,38,07,13,074,,15,40,303,25*73
$GPGSV,5,2,17,05,41,229,42,22,58,159,,30,47,070,46,14,66,112,46*77
$GPGSV,5,3,17,08,07,030,,18,04,301,29,23,07,330,32,24,06,264,*76
$GPGSV,5,4,17,17,09,132,,36,35,170,38,34,31,208,,49,34,195,*77
$GPGSV,5,5,17,61,03,257,*4B
$GLGSV,2,1,08,65,84,207,46,72,26,147,33,74,23,041,28,66,38,322,52*67
$GLGSV,2,2,08,76,37,224,41,75,78,030,50,82,04,329,32,83,09,008,*6F
$GAGSV,3,1,09,03,80,120,44,24,29,048,36,02,34,191,41,05,27,121,36*61
$GAGSV,3,2,09,16,52,067,,08,44,302,41,25,65,113,49,13,08,283,25*63
$GAGSV,3,3,09,26,07,331,23*52
$GBGSV,4,1,16,45,78,071,33,22,24,157,28,05,21,130,,36,26,057,21*6A
$GBGSV,4,2,16,56,21,089,,40,27,058,38,42,42,306,46,26,42,233,41*6E
$GBGSV,4,3,16,10,33,076,,21,68,208,46,50,64,275,,27,01,017,*6B
$GBGSV,4,4,16,02,04,109,,09,08,076,,30,04,061,,60,07,112,*61
$GPGGA,083127.00,,,,,0,00,,,M,,M,,*47
$PTNL,GGK,083127.00,010125,4742.4460313,N,01617.9726526,E,1,20,1.3,EHT667.8353,M*47
$GPGGQ,083127.00,010125,4742.4460313,N,01617.9726526,E,1,20,2.698,624.6242,M*36
$GPGFA,083127.00,12.156,18.310,1.279,0.811,342.177,2.233,,VVV*07
$GPLLK,083127.00,010125,,M,,M,1,20,1.5,,M*02
$GNGMP,083127.00,,,,,DAAA,20,0.7,,,,*5C
$GPGMP,083127.00,,,,,,06,,,,2.5,123*73
$GLGMP,083127.00,,,,,,04,,,,,*74
$GAGMP,083127.00,,,,,,06,,,,,*7B
$GBGMP,083127.00,,,,,,04,,,,,*7A
$PSSN,SNC,[0,289905000,2347]*4B
$GPZDA,083132.00,01,01,2025,,*68
$GPDTM,W84,,00.0000000,N,00.0000000,E,00.0000000,W84*5F
$GPRMC,083132.00,A,4742.4460246,N,01617.9726518,E,0.0,,010125,5.1,E,D*12
$GPGLL,4742.4460246,N,01617.9726518,E,083132.00,A,D*63
$GPGGA,083132.00,4742.4460246,N,01617.9726518,E,2,19,0.7,624.6084,M,43.2111,M,3.0,0123*4C
$GNGNS,083132.00,4742.4460246,N,01617.9726518,E,DAAA,19,0.7,624.6084,43.2111,,*53
$GPGNS,083132.00,,,,,,05,,,,3.0,123*70
$GLGNS,083132.00,,,,,,04,,,,,*70
$GAGNS,083132.00,,,,,,06,,,,,*7F
$GBGNS,083132.00,,,,,,04,,,,,*7E
$GPLLQ,083132.00,010125,,M,,M,1,19,2.917,,M*1F
$GPVTG,,T,,M,0.01,N,0.02,K,D*25
$GPHDT,,T*1B
$GPTHS,,V*0E
$GPROT,,V*08
$PSSN,HRP,083132.00,010125,,,,,,,00,0,,*6A
$PTNL,AVR,083132.00,,Yaw,,Tilt,,,,0,,00*3C
$GPGSA,A,3,05,13,14,20,30,,,,,,,,1.3,0.7,1.1*34
$GPGSA,A,3,65,66,75,76,,,,,,,,,1.3,0.7,1.1*37
$GPGSA,A,3,02,03,05,08,24,25,,,,,,,1.3,0.7,1.1*3A
$GPGSA,A,3,21,26,40,42,,,,,,,,,1.3,0.7,1.1*32
$GPGST,083132.00,1.810,1.601,0.688,337.080,1.498,0.889,2.340*53
$GPGBS,083132.00,8.447,4.729,12.672,05,0.0001,-1.435,0.761*49
$GPGRS,083132.00,1,-1.4,1.2,0.5,0.0,-0.6,,,,,,,*6E
$GPGRS,083132.00,1,-1.0,-2.5,-2.8,-0.7,,,,,,,,*4E
$GPGRS,083132.00,1,2.5,0.2,-1.3,-0.1,-0.2,-0.6,,,,,,*47
$GPGRS,083132.00,1,0.7,-0.3,-3.0,-1.1,,,,,,,,*6F
$GPGSV,5,1,17,13,76,310,51,20,17,201,38,07,13,074,21,15,40,303,24*71
$GPGSV,5,2,17,05,41,229,43,22,58,159,,30,47,070,45,14,66,111,46*76
$GPGSV,5,3,17,08,07,030,,18,04,301,28,23,07,330,32,24,06,264,*77
$GPGSV,5,4,17,17,09,132,,36,35,170,38,34,31,208,,49,34,195,*77
$GPGSV,5,5,17,61,03,257,*4B
$GLGSV,2,1,08,65,84,207,46,72,26,147,34,74,23,041,25,66,38,322,52*6D
$GLGSV,2,2,08,76,37,224,40,75,78,030,49,82,04,329,31,83,09,008,*65
$GAGSV,3,1,09,03,80,120,44,24,29,048,36,02,34,191,41,05,27,121,36*61
$GAGSV,3,2,09,16,52,067,,08,44,302,41,25,65,113,49,13,08,283,23*65
$GAGSV,3,3,09,26,07,331,37*57
$GBGSV,4,1,16,45,78,070,34,22,24,157,28,05,21,130,,36,26,057,34*68
$GBGSV,4,2,16,56,21,089,,40,27,058,38,42,42,306,46,26,42,233,41*6E
$GBGSV,4,3,16,10,33,076,,21,68,208,45,50,64,275,,27,01,017,*68
$GBGSV,4,4,16,02,04,109,,09,08,076,,30,04,061,,60,07,112,*61
