$GPZDA,111442.00,01,01,2025,,*60
$GPDTM,W84,,00.0000000,N,00.0000000,E,00.0000000,W84*5F
$GPRMC,111442.00,A,4742.4459307,N,01617.9734409,E,0.0,,010125,5.1,E,D*16
$GPGLL,4742.4459307,N,01617.9734409,E,111442.00,A,D*67
$GPGGA,111442.00,4742.4459307,N,01617.9734409,E,2,20,0.8,624.3261,M,43.2110,M,2.4,0123*45
$GNGNS,111442.00,4742.4459307,N,01617.9734409,E,DAAA,20,0.8,624.3261,43.2110,,*5F
$GPGNS,111442.00,,,,,,05,,,,2.4,123*7D
$GLGNS,111442.00,,,,,,05,,,,,*79
$GAGNS,111442.00,,,,,,04,,,,,*75
$GBGNS,111442.00,,,,,,06,,,,,*74
$GPLLQ,111442.00,010125,,M,,M,1,20,3.866,,M*1B
$GPVTG,,T,,M,0.01,N,0.01,K,D*26
$GPHDT,,T*1B
$GPTHS,,V*0E
$GPROT,,V*08
$PSSN,HRP,111442.00,010125,,,,,,,00,0,,*62
$PTNL,AVR,111442.00,,Yaw,,Tilt,,,,0,,00*34
$GPGSA,A,3,12,13,17,19,24,,,,,,,,1.7,0.8,1.5*31
$GPGSA,A,3,66,67,76,77,86,,,,,,,,1.7,0.8,1.5*36
$GPGSA,A,3,02,07,08,30,,,,,,,,,1.7,0.8,1.5*36
$GPGSA,A,3,10,14,24,26,33,35,,,,,,,1.7,0.8,1.5*38
$GPGST,111442.00,6.531,1.638,0.797,335.214,1.524,0.998,3.410*5E
$GPGBS,111442.00,7.288,4.348,13.654,86,0.0001,18.798,6.315*56
$GPGRS,111442.00,1,-0.6,-0.3,-1.2,-0.0,0.5,,,,,,,*60
$GPGRS,111442.00,1,-1.3,8.3,-4.1,-8.9,18.8,,,,,,,*72
$GPGRS,111442.00,1,0.1,4.4,-0.7,0.7,,,,,,,,*61
$GPGRS,111442.00,1,-1.2,-1.7,0.6,-0.6,1.1,-2.6,,,,,,*4C
$GPGSV,5,1,17,24,73,301,45,14,11,061,,13,24,160,41,23,13,266,28*75
$GPGSV,5,2,17,15,40,198,30,10,15,308,33,22,32,058,,17,36,058,42*71
$GPGSV,5,3,17,12,42,240,45,19,49,100,37,02,02,016,,25,04,244,*7D
$GPGSV,5,4,17,32,00,326,33,36,35,170,35,34,31,208,,49,34,195,35*75
$GPGSV,5,5,17,61,03,257,*4B
$GLGSV,3,1,10,77,59,297,42,85,23,038,31,68,20,333,33,86,24,098,36*66
$GLGSV,3,2,10,66,34,206,43,67,51,282,44,76,55,043,47,78,07,263,32*67
$GLGSV,3,3,10,75,03,072,,87,04,140,*6E
$GAGSV,3,1,12,02,80,057,44,03,18,161,33,25,26,058,32,18,43,148,*61
$GAGSV,3,2,12,07,44,301,36,30,43,238,43,08,61,203,43,16,03,058,*60
$GAGSV,3,3,12,12,05,015,,10,08,037,,11,09,063,,36,00,108,*64
$GBGSV,5,1,20,26,73,059,45,05,20,130,,50,15,199,,45,18,083,*66
$GBGSV,5,2,20,40,20,039,33,35,30,117,36,07,23,051,31,33,36,286,40*68
$GBGSV,5,3,20,42,30,221,31,29,23,052,,14,38,252,43,24,49,277,47*62
$GBGSV,5,4,20,10,34,059,38,56,39,064,,44,10,160,,41,09,331,34*6E
$GBGSV,5,5,20,11,08,241,,02,04,109,,57,02,342,,60,07,111,*6D
$GPGGA,111442.00,,,,,0,00,,,M,,M,,*4B
$PTNL,GGK,111442.00,010125,4742.4459307,N,01617.9734409,E,1,20,1.7,EHT667.5372,M*41
$GPGGQ,111442.00,010125,4742.4459307,N,01617.9734409,E,1,20,3.866,624.3261,M*30
$GPGFA,111442.00,15.572,27.962,1.638,0.797,335.214,3.410,,VVV*0D
$GPLLK,111442.00,010125,,M,,M,1,20,2.0,,M*08
$GNGMP,111442.00,,,,,DAAA,20,0.8,,,,*5F
$GPGMP,111442.00,,,,,,05,,,,2.4,123*7D
$GLGMP,111442.00,,,,,,05,,,,,*79
$GAGMP,111442.00,,,,,,04,,,,,*75
$GBGMP,111442.00,,,,,,06,,,,,*74
$PSSN,SNC,[0,299700000,2347]*41
$GPZDA,111447.00,01,01,2025,,*65
$GPDTM,W84,,00.0000000,N,00.0000000,E,00.0000000,W84*5F
$GPRMC,111447.00,A,4742.4459341,N,01617.9734399,E,0.0,,010125,5.1,E,D*1F
$GPGLL,4742.4459341,N,01617.9734399,E,111447.00,A,D*6E
$GPGGA,111447.00,4742.4459341,N,01617.9734399,E,2,20,0.7,624.3213,M,43.2110,M,3.5,0123*46
$GNGNS,111447.00,4742.4459341,N,01617.9734399,E,DAAA,20,0.7,624.3213,43.2110,,*5C
$GPGNS,111447.00,,,,,,04,,,,3.5,123*79
$GLGNS,111447.00,,,,,,05,,,,,*7C
$GAGNS,111447.00,,,,,,04,,,,,*70
$GBGNS,111447.00,,,,,,07,,,,,*70
$GPLLQ,111447.00,010125,,M,,M,1,20,4.620,,M*15
$GPVTG,,T,,M,0.00,N,0.00,K,D*26
$GPHDT,,T*1B
$GPTHS,,V*0E
$GPROT,,V*08
$PSSN,HRP,111447.00,010125,,,,,,,00,0,,*67
$PTNL,AVR,111447.00,,Yaw,,Tilt,,,,0,,00*31
$GPGSA,A,3,12,13,17,24,,,,,,,,,1.3,0.7,1.1*36
$GPGSA,A,3,66,67,76,77,86,,,,,,,,1.3,0.7,1.1*39
$GPGSA,A,3,02,07,08,30,,,,,,,,,1.3,0.7,1.1*39
$GPGSA,A,3,10,14,24,26,33,35,41,,,,,,1.3,0.7,1.1*32
$GPGST,111447.00,7.461,2.024,0.952,326.958,1.774,1.362,4.043*5C
$GPGBS,111447.00,7.092,6.963,16.765,86,0.0001,21.486,6.316*58
$GPGRS,111447.00,1,-0.4,0.2,-0.7,0.2,,,,,,,,*4B
$GPGRS,111447.00,1,3.0,8.8,-3.6,-8.2,21.5,,,,,,,*5C
$GPGRS,111447.00,1,1.1,4.7,0.6,0.9,,,,,,,,*44
$GPGRS,111447.00,1,-0.4,7.8,1.2,0.3,1.7,-2.1,0.1,,,,,*69
$GPGSV,5,1,17,24,73,301,44,14,11,061,23,13,24,160,42,23,13,266,31*7E
$GPGSV,5,2,17,15,40,198,30,10,15,308,35,22,32,058,,17,36,058,41*74
$GPGSV,5,3,17,12,42,240,43,19,49,100,34,02,02,016,,25,04,244,*78
$GPGSV,5,4,17,32,00,326,34,36,35,170,35,34,31,208,,49,34,195,35*72
$GPGSV,5,5,17,61,03,257,*4B
$GLGSV,3,1,10,77,59,297,43,85,23,038,35,68,20,333,35,86,24,098,35*66
$GLGSV,3,2,10,66,34,206,42,67,51,282,44,76,55,043,45,78,07,263,28*6F
$GLGSV,3,3,10,75,03,072,,87,04,140,*6E
$GAGSV,3,1,12,02,80,057,44,03,18,161,33,25,26,058,29,18,43,148,*6B
$GAGSV,3,2,12,07,45,301,37,30,43,238,43,08,61,203,44,16,03,058,*67
$GAGSV,3,3,12,12,05,015,,10,08,037,,11,09,063,,36,00,108,*64
$GBGSV,5,1,20,26,73,059,46,05,20,130,,50,15,199,,45,18,083,30*66
$GBGSV,5,2,20,40,20,039,33,35,30,117,37,07,23,051,31,33,36,286,39*67
$GBGSV,5,3,20,42,30,221,29,29,23,052,,14,38,252,37,24,49,277,46*69
$GBGSV,5,4,20,10,34,059,38,56,39,064,,44,10,160,,41,09,331,36*6C
$GBGSV,5,5,20,11,08,241,,02,04,109,,57,02,342,,60,07,111,*6D
$GPGGA,111447.00,,,,,0,00,,,M,,M,,*4E
$PTNL,GGK,111447.00,010125,4742.4459341,N,01617.9734399,E,1,20,1.3,EHT667.5323,M*48
$GPGGQ,111447.00,010125,4742.4459341,N,01617.9734399,E,1,20,4.620,624.3213,M*37
$GPGFA,111447.00,19.240,33.152,2.024,0.952,326.958,4.043,,VVV*07
$GPLLK,111447.00,010125,,M,,M,1,20,1.5,,M*0B
$GNGMP,111447.00,,,,,DAAA,20,0.7,,,,*55
$GPGMP,111447.00,,,,,,04,,,,3.5,123*79
$GLGMP,111447.00,,,,,,05,,,,,*7C
$GAGMP,111447.00,,,,,,04,,,,,*70
$GBGMP,111447.00,,,,,,07,,,,,*70
$PSSN,SNC,[0,299705000,2347]*44
$GPZDA,111452.00,01,01,2025,,*61
$GPDTM,W84,,00.0000000,N,00.0000000,E,00.0000000,W84*5F
$GPRMC,111452.00,A,4742.4459364,N,01617.9734382,E,0.0,,010125,5.1,E,D*16
$GPGLL,4742.4459364,N,01617.9734382,E,111452.00,A,D*67
$GPGGA,111452.00,4742.4459364,N,01617.9734382,E,2,19,0.7,624.3157,M,43.2110,M,2.5,0123*47
$GNGNS,111452.00,4742.4459364,N,01617.9734382,E,DAAA,19,0.7,624.3157,43.2110,,*5C
$GPGNS,111452.00,,,,,,04,,,,2.5,123*7C
$GLGNS,111452.00,,,,,,04,,,,,*79
$GAGNS,111452.00,,,,,,04,,,,,*74
$GBGNS,111452.00,,,,,,07,,,,,*74
$GPLLQ,111452.00,010125,,M,,M,1,19,3.501,,M*1C
$GPVTG,,T,,M,0.01,N,0.02,K,D*25
$GPHDT,,T*1B
$GPTHS,,V*0E
$GPROT,,V*08
$PSSN,HRP,111452.00,010125,,,,,,,00,0,,*63
$PTNL,AVR,111452.00,,Yaw,,Tilt,,,,0,,00*35
$GPGSA,A,3,12,13,17,24,,,,,,,,,1.3,0.7,1.1*36
$GPGSA,A,3,67,68,76,77,,,,,,,,,1.3,0.7,1.1*39
$GPGSA,A,3,02,07,08,30,,,,,,,,,1.3,0.7,1.1*39
$GPGSA,A,3,10,14,24,26,33,35,41,,,,,,1.3,0.7,1.1*32
$GPGST,111452.00,4.612,1.589,0.696,321.999,1.324,1.122,3.041*53
$GPGBS,111452.00,7.006,6.375,15.770,67,0.0001,8.477,6.069*6A
$GPGRS,111452.00,1,-0.5,0.4,-0.2,0.6,,,,,,,,*49
$GPGRS,111452.00,1,8.5,7.7,-4.3,-8.5,,,,,,,,*4B
$GPGRS,111452.00,1,1.0,3.5,0.4,-0.2,,,,,,,,*60
$GPGRS,111452.00,1,-1.0,1.6,1.9,0.2,1.1,-3.3,0.3,,,,,*6D
$GPGSV,5,1,17,24,73,301,44,14,11,061,23,13,24,160,42,23,13,266,32*7D
$GPGSV,5,2,17,15,40,198,34,10,15,308,34,22,32,058,,17,36,058,40*70
$GPGSV,5,3,17,12,42,240,42,19,49,100,31,02,02,016,,25,04,244,*7C
$GPGSV,5,4,17,32,00,326,34,36,35,170,35,34,31,208,,49,34,195,35*72
$GPGSV,5,5,17,61,03,257,*4B
$GLGSV,3,1,10,77,59,297,43,85,23,038,33,68,20,333,35,86,24,098,34*61
$GLGSV,3,2,10,66,34,206,34,67,51,282,45,76,55,043,42,78,07,263,24*64
$GLGSV,3,3,10,75,03,072,,87,04,140,*6E
$GAGSV,3,1,12,02,80,057,45,03,18,161,33,25,26,058,26,18,43,148,*65
$GAGSV,3,2,12,07,45,301,38,30,43,238,42,08,61,203,45,16,03,058,*68
$GAGSV,3,3,12,12,05,015,,10,08,037,,11,09,063,,36,00,108,*64
$GBGSV,5,1,20,26,73,059,47,05,20,130,,50,15,199,,45,18,083,31*66
$GBGSV,5,2,20,40,20,039,33,35,30,117,39,07,23,051,32,33,36,286,38*6B
$GBGSV,5,3,20,42,30,221,31,29,23,052,32,14,38,252,39,24,49,277,46*6F
$GBGSV,5,4,20,10,34,059,38,56,39,064,,44,10,160,,41,09,331,36*6C
$GBGSV,5,5,20,11,08,241,,02,04,109,,57,02,342,,60,07,111,*6D
$GPGGA,111452.00,,,,,0,00,,,M,,M,,*4A
$PTNL,GGK,111452.00,010125,4742.4459364,N,01617.9734382,E,1,19,1.3,EHT667.5267,M*4A
$GPGGQ,111452.00,010125,4742.4459364,N,01617.9734382,E,1,19,3.501,624.3157,M*30
$GPGFA,111452.00,15.110,24.933,1.589,0.696,321.999,3.041,,VVV*09
$GPLLK,111452.00,010125,,M,,M,1,19,1.5,,M*05
$GNGMP,111452.00,,,,,DAAA,19,0.7,,,,*5B
$GPGMP,111452.00,,,,,,04,,,,2.5,123*7C
$GLGMP,111452.00,,,,,,04,,,,,*79
$GAGMP,111452.00,,,,,,04,,,,,*74
$GBGMP,111452.00,,,,,,07,,,,,*74
$PSSN,SNC,[0,299710000,2347]*40
$GPZDA,111457.00,01,01,2025,,*64
$GPDTM,W84,,00.0000000,N,00.0000000,E,00.0000000,W84*5F
$GPRMC,111457.00,A,4742.4459375,N,01617.9734458,E,0.0,,010125,5.1,E,D*13
$GPGLL,4742.4459375,N,01617.9734458,E,111457.00,A,D*62
$GPGGA,111457.00,4742.4459375,N,01617.9734458,E,2,21,0.6,624.3105,M,43.2110,M,1.4,0123*4D
$GNGNS,111457.00,4742.4459375,N,01617.9734458,E,DAAA,21,0.6,624.3105,43.2110,,*54
$GPGNS,111457.00,,,,,,05,,,,1.4,123*7A
$GLGNS,111457.00,,,,,,05,,,,,*7D
$GAGNS,111457.00,,,,,,04,,,,,*71
$GBGNS,111457.00,,,,,,07,,,,,*71
$GPLLQ,111457.00,010125,,M,,M,1,21,4.271,,M*15
$GPVTG,,T,,M,0.01,N,0.02,K,D*25
$GPHDT,,T*1B
$GPTHS,,V*0E
$GPROT,,V*08
$PSSN,HRP,111457.00,010125,,,,,,,00,0,,*66
$PTNL,AVR,111457.00,,Yaw,,Tilt,,,,0,,00*30
$GPGSA,A,3,12,13,15,17,24,,,,,,,,1.2,0.6,1.1*32
$GPGSA,A,3,66,67,68,76,77,,,,,,,,1.2,0.6,1.1*39
$GPGSA,A,3,02,07,08,30,,,,,,,,,1.2,0.6,1.1*39
$GPGSA,A,3,10,14,24,26,33,35,41,,,,,,1.2,0.6,1.1*32
$GPGST,111457.00,5.844,1.831,0.821,315.903,1.434,1.404,3.770*50
$GPGBS,111457.00,4.301,6.882,13.587,66,0.0001,-11.327,6.137*7B
$GPGRS,111457.00,1,-0.2,-0.6,1.0,-1.1,0.7,,,,,,,*48
$GPGRS,111457.00,1,-11.3,11.1,8.2,-6.3,-9.3,,,,,,,*4D
$GPGRS,111457.00,1,0.2,0.1,-0.8,-1.1,,,,,,,,*42
$GPGRS,111457.00,1,-2.2,1.0,1.3,-0.8,-1.0,-4.2,-0.4,,,,,*42
$GPGSV,5,1,17,24,73,301,44,14,11,061,21,13,24,160,43,23,13,266,32*7E
$GPGSV,5,2,17,15,40,198,38,10,15,307,34,22,32,058,,17,36,058,42*71
$GPGSV,5,3,17,12,42,240,42,19,49,100,32,02,02,015,,25,04,244,*7C
$GPGSV,5,4,17,32,00,326,33,36,35,170,35,34,31,208,,49,34,195,35*75
$GPGSV,5,5,17,61,03,257,*4B
$GLGSV,3,1,10,77,59,297,43,85,23,038,33,68,20,333,37,86,25,098,35*63
$GLGSV,3,2,10,66,34,206,41,67,51,282,45,76,55,043,41,78,07,263,*63
$GLGSV,3,3,10,75,03,072,,87,04,139,*60
$GAGSV,3,1,12,02,80,057,46,03,18,161,32,25,26,058,26,18,43,148,*67
$GAGSV,3,2,12,07,45,301,37,30,43,238,40,08,61,203,45,16,03,058,*65
$GAGSV,3,3,12,12,05,015,,10,08,037,,11,09,063,,36,00,108,*64
$GBGSV,5,1,20,26,73,059,48,05,20,130,,50,15,199,,45,18,083,31*69
$GBGSV,5,2,20,40,20,039,34,35,30,117,39,07,23,051,33,33,36,286,38*6D
$GBGSV,5,3,20,42,29,221,34,29,23,052,,14,38,252,41,24,49,277,45*6F
$GBGSV,5,4,20,10,34,059,38,56,39,064,,44,10,160,,41,09,331,37*6D
$GBGSV,5,5,20,11,08,241,,02,04,109,,57,02,342,,60,07,111,*6D
$GPGGA,111457.00,,,,,0,00,,,M,,M,,*4F
$PTNL,GGK,111457.00,010125,4742.4459375,N,01617.9734458,E,1,21,1.2,EHT667.5215,M*40
$GPGGQ,111457.00,010125,4742.4459375,N,01617.9734458,E,1,21,4.271,624.3105,M*3E
$GPGFA,111457.00,17.413,30.913,1.831,0.821,315.903,3.770,,VVV*02
$GPLLK,111457.00,010125,,M,,M,1,21,1.5,,M*0B
$GNGMP,111457.00,,,,,DAAA,21,0.6,,,,*54
$GPGMP,111457.00,,,,,,05,,,,1.4,123*7A
$GLGMP,111457.00,,,,,,05,,,,,*7D
$GAGMP,111457.00,,,,,,04,,,,,*71
$GBGMP,111457.00,,,,,,07,,,,,*71
$PSSN,SNC,[0,299715000,2347]*45
$GPZDA,111502.00,01,01,2025,,*65
$GPDTM,W84,,00.0000000,N,00.0000000,E,00.0000000,W84*5F
$GPRMC,111502.00,A,4742.4459350,N,01617.9734505,E,0.0,,010125,5.1,E,D*1C
$GPGLL,4742.4459350,N,01617.9734505,E,111502.00,A,D*6D
$GPGGA,111502.00,4742.4459350,N,01617.9734505,E,2,23,0.6,624.3045,M,43.2110,M,2.3,0123*41
$GNGNS,111502.00,4742.4459350,N,01617.9734505,E,DAAA,23,0.6,624.3045,43.2110,,*5C
$GPGNS,111502.00,,,,,,06,,,,2.3,123*7C
$GLGNS,111502.00,,,,,,05,,,,,*7C
$GAGNS,111502.00,,,,,,04,,,,,*70
$GBGNS,111502.00,,,,,,08,,,,,*7F
$GPLLQ,111502.00,010125,,M,,M,1,23,3.841,,M*18
$GPVTG,,T,,M,0.01,N,0.02,K,D*25
$GPHDT,,T*1B
$GPTHS,,V*0E
$GPROT,,V*08
$PSSN,HRP,111502.00,010125,,,,,,,00,0,,*67
$PTNL,AVR,111502.00,,Yaw,,Tilt,,,,0,,00*31
$GPGSA,A,3,12,13,15,17,19,24,,,,,,,1.2,0.6,1.0*3B
$GPGSA,A,3,66,67,68,76,77,,,,,,,,1.2,0.6,1.0*38
$GPGSA,A,3,02,07,08,30,,,,,,,,,1.2,0.6,1.0*38
$GPGSA,A,3,10,14,24,26,33,35,41,42,,,,,1.2,0.6,1.0*35
$GPGST,111502.00,6.022,1.561,0.784,326.309,1.370,1.084,3.420*5F
$GPGBS,111502.00,5.386,4.138,11.225,68,0.0001,15.098,6.255*54
$GPGRS,111502.00,1,-0.4,-0.9,0.2,-0.8,1.7,0.4,,,,,,*60
$GPGRS,111502.00,1,-8.1,9.8,15.1,-6.6,-9.8,,,,,,,*77
$GPGRS,111502.00,1,-0.6,-0.6,-1.4,-1.1,,,,,,,,*4D
$GPGRS,111502.00,1,-2.1,2.6,1.0,-1.6,-1.7,-4.7,-1.4,1.3,,,,*66
$GPGSV,5,1,17,24,73,301,44,14,11,061,22,13,24,160,42,23,13,266,23*7C
$GPGSV,5,2,17,15,40,198,39,10,15,307,36,22,32,058,,17,36,058,44*74
$GPGSV,5,3,17,12,42,240,42,19,49,099,36,02,02,015,,25,04,244,*79
$GPGSV,5,4,17,32,00,326,32,36,35,170,35,34,31,208,,49,34,195,35*74
$GPGSV,5,5,17,61,03,257,*4B
$GLGSV,3,1,10,77,59,297,43,85,23,038,30,68,20,332,40,86,25,098,35*61
$GLGSV,3,2,10,66,34,206,43,67,51,282,42,76,55,043,41,78,07,263,27*63
$GLGSV,3,3,10,75,03,072,,87,04,139,*60
$GAGSV,3,1,12,02,80,057,45,03,18,161,31,25,26,058,27,18,43,148,*66
$GAGSV,3,2,12,07,45,301,36,30,43,238,40,08,61,203,45,16,03,058,*64
$GAGSV,3,3,12,12,05,015,,10,08,037,,11,09,063,,36,00,108,*64
$GBGSV,5,1,20,26,73,059,49,05,20,130,,50,15,199,,45,18,083,30*69
$GBGSV,5,2,20,40,20,039,34,35,30,117,39,07,23,051,33,33,36,286,37*62
$GBGSV,5,3,20,42,29,221,37,29,23,052,33,14,38,252,42,24,49,277,44*6E
$GBGSV,5,4,20,10,34,059,38,56,39,064,,44,10,160,,41,09,331,36*6C
$GBGSV,5,5,20,11,08,241,,02,04,109,,57,02,342,,60,07,111,*6D
$GPGGA,111502.00,,,,,0,00,,,M,,M,,*4E
$PTNL,GGK,111502.00,010125,4742.4459350,N,01617.9734505,E,1,23,1.2,EHT667.5155,M*4A
$GPGGQ,111502.00,010125,4742.4459350,N,01617.9734505,E,1,23,3.841,624.3045,M*38
$GPGFA,111502.00,14.841,28.047,1.561,0.784,326.309,3.420,,VVV*04
$GPLLK,111502.00,010125,,M,,M,1,23,1.4,,M*09
$GNGMP,111502.00,,,,,DAAA,23,0.6,,,,*57
$GPGMP,111502.00,,,,,,06,,,,2.3,123*7C
$GLGMP,111502.00,,,,,,05,,,,,*7C
$GAGMP,111502.00,,,,,,04,,,,,*70
$GBGMP,111502.00,,,,,,08,,,,,*7F
$PSSN,SNC,[0,299720000,2347]*43
$GPZDA,111507.00,01,01,2025,,*60
$GPDTM,W84,,00.0000000,N,00.0000000,E,00.0000000,W84*5F
$GPRMC,111507.00,A,4742.4459350,N,01617.9734406,E,0.0,,010125,5.1,E,D*1B
$GPGLL,4742.4459350,N,01617.9734406,E,111507.00,A,D*6A
$GPGGA,111507.00,4742.4459350,N,01617.9734406,E,2,23,0.6,624.2776,M,43.2110,M,3.5,0123*47
$GNGNS,111507.00,4742.4459350,N,01617.9734406,E,DAAA,23,0.6,624.2776,43.2110,,*5D
$GPGNS,111507.00,,,,,,06,,,,3.5,123*7E
$GLGNS,111507.00,,,,,,06,,,,,*7A
$GAGNS,111507.00,,,,,,04,,,,,*75
$GBGNS,111507.00,,,,,,07,,,,,*75
$GPLLQ,111507.00,010125,,M,,M,1,23,2.376,,M*13
$GPVTG,,T,,M,0.01,N,0.01,K,D*26
$GPHDT,,T*1B
$GPTHS,,V*0E
$GPROT,,V*08
$PSSN,HRP,111507.00,010125,,,,,,,00,0,,*62
$PTNL,AVR,111507.00,,Yaw,,Tilt,,,,0,,00*34
$GPGSA,A,3,10,12,13,15,17,24,,,,,,,1.1,0.6,1.0*31
$GPGSA,A,3,66,67,68,76,77,86,,,,,,,1.1,0.6,1.0*35
$GPGSA,A,3,02,07,08,30,,,,,,,,,1.1,0.6,1.0*3B
$GPGSA,A,3,10,14,24,26,35,41,42,,,,,,1.1,0.6,1.0*36
$GPGST,111507.00,6.296,0.950,0.836,301.119,0.868,0.921,2.011*5B
$GPGBS,111507.00,2.897,3.733,8.498,68,0.0001,20.313,6.255*69
$GPGRS,111507.00,1,-0.5,0.7,-1.2,-1.1,-0.1,0.5,,,,,,*48
$GPGRS,111507.00,1,-4.6,3.2,20.3,-6.3,-9.8,3.4,,,,,,*51
$GPGRS,111507.00,1,-0.7,0.0,-0.8,-0.4,,,,,,,,*6B
$GPGRS,111507.00,1,-2.1,3.2,1.5,-2.1,-3.8,-0.8,0.8,,,,,*6D
$GPGSV,5,1,17,24,74,301,43,14,11,061,20,13,24,160,42,23,13,266,*7F
$GPGSV,5,2,17,15,40,198,39,10,15,307,38,22,32,058,,17,36,058,44*7A
$GPGSV,5,3,17,12,42,240,41,19,49,099,39,02,02,015,,25,04,244,*75
$GPGSV,5,4,17,32,01,326,32,36,35,170,35,34,31,208,,49,34,195,35*75
$GPGSV,5,5,17,61,03,257,*4B
$GLGSV,3,1,10,77,59,297,43,85,23,038,31,68,20,332,40,86,25,098,39*6C
$GLGSV,3,2,10,66,33,206,45,67,51,281,41,76,55,043,41,78,07,263,33*67
$GLGSV,3,3,10,75,03,072,,87,05,139,*61
$GAGSV,3,1,12,02,80,057,45,03,18,161,29,25,26,058,30,18,43,148,*69
$GAGSV,3,2,12,07,45,301,36,30,43,238,39,08,61,203,45,16,03,058,*6A
$GAGSV,3,3,12,12,05,015,,10,08,037,,11,09,063,,36,00,108,*64
$GBGSV,5,1,20,26,73,060,49,05,20,130,,50,15,199,,45,18,083,27*65
$GBGSV,5,2,20,40,20,039,34,35,31,117,38,07,23,051,32,33,36,286,34*60
$GBGSV,5,3,20,42,29,221,39,29,23,052,32,14,38,252,43,24,49,277,43*67
$GBGSV,5,4,20,10,34,059,38,56,39,064,,44,10,160,,41,09,331,36*6C
$GBGSV,5,5,20,11,08,241,,02,04,109,,57,02,342,,60,07,111,*6D
$GPGGA,111507.00,,,,,0,00,,,M,,M,,*4B
$PTNL,GGK,111507.00,010125,4742.4459350,N,01617.9734406,E,1,23,1.1,EHT667.4887,M*49
$GPGGQ,111507.00,010125,4742.4459350,N,01617.9734406,E,1,23,2.376,624.2776,M*37
$GPGFA,111507.00,9.037,16.487,0.950,0.836,301.119,2.011,,VVV*39
$GPLLK,111507.00,010125,,M,,M,1,23,1.3,,M*0B
$GNGMP,111507.00,,,,,DAAA,23,0.6,,,,*52
$GPGMP,111507.00,,,,,,06,,,,3.5,123*7E
$GLGMP,111507.00,,,,,,06,,,,,*7A
$GAGMP,111507.00,,,,,,04,,,,,*75
$GBGMP,111507.00,,,,,,07,,,,,*75
$PSSN,SNC,[0,299725000,2347]*46
$GPZDA,111512.00,01,01,2025,,*64
$GPDTM,W84,,00.0000000,N,00.0000000,E,00.0000000,W84*5F
$GPRMC,111512.00,A,4742.4459253,N,01617.9734520,E,0.0,,010125,5.1,E,D*18
$GPGLL,4742.4459253,N,01617.9734520,E,111512.00,A,D*69
$GPGGA,111512.00,4742.4459253,N,01617.9734520,E,2,24,0.6,624.2726,M,43.2110,M,2.5,0123*47
$GNGNS,111512.00,4742.4459253,N,01617.9734520,E,DAAA,24,0.6,624.2726,43.2110,,*5C
$GPGNS,111512.00,,,,,,06,,,,2.5,123*7B
$GLGNS,111512.00,,,,,,07,,,,,*7F
$GAGNS,111512.00,,,,,,04,,,,,*71
$GBGNS,111512.00,,,,,,07,,,,,*71
$GPLLQ,111512.00,010125,,M,,M,1,24,2.996,,M*14
$GPVTG,,T,,M,0.01,N,0.01,K,D*26
$GPHDT,,T*1B
$GPTHS,,V*0E
$GPROT,,V*08
$PSSN,HRP,111512.00,010125,,,,,,,00,0,,*66
$PTNL,AVR,111512.00,,Yaw,,Tilt,,,,0,,00*30
$GPGSA,A,3,10,12,13,15,17,24,,,,,,,1.0,0.6,0.9*38
$GPGSA,A,3,66,67,68,76,77,78,86,,,,,,1.0,0.6,0.9*33
$GPGSA,A,3,02,07,08,30,,,,,,,,,1.0,0.6,0.9*32
$GPGSA,A,3,10,14,24,26,35,41,42,,,,,,1.0,0.6,0.9*3F
$GPGST,111512.00,8.388,1.195,1.060,300.337,1.096,1.162,2.534*5E
$GPGBS,111512.00,2.875,3.666,8.396,68,0.0001,21.943,6.256*64
$GPGRS,111512.00,1,0.5,-0.4,-2.2,-0.6,-0.8,1.1,,,,,,*46
$GPGRS,111512.00,1,-2.6,2.4,21.9,-6.0,-8.4,20.3,11.9,,,,,*70
$GPGRS,111512.00,1,-0.4,0.3,0.1,0.4,,,,,,,,*66
$GPGRS,111512.00,1,-1.5,3.6,2.5,-2.2,-2.5,-0.2,0.3,,,,,*67
$GPGSV,5,1,17,24,74,301,42,14,11,061,21,13,24,160,42,23,13,266,26*7B
$GPGSV,5,2,17,15,40,198,36,10,15,307,38,22,32,058,,17,36,058,43*72
$GPGSV,5,3,17,12,42,240,40,19,49,099,41,02,02,015,,25,04,244,*7B
$GPGSV,5,4,17,32,01,326,33,36,35,170,35,34,31,208,,49,34,195,35*74
$GPGSV,5,5,17,61,03,257,*4B
$GLGSV,3,1,10,77,59,297,43,85,23,038,33,68,20,332,40,86,25,098,40*60
$GLGSV,3,2,10,66,33,206,46,67,51,281,43,76,55,043,41,78,07,263,35*60
$GLGSV,3,3,10,75,03,072,,87,05,139,*61
$GAGSV,3,1,12,02,80,057,44,03,18,161,27,25,26,058,31,18,43,148,*67
$GAGSV,3,2,12,07,45,301,36,30,43,238,39,08,61,203,46,16,03,058,*69
$GAGSV,3,3,12,12,05,015,,10,08,037,,11,09,063,,36,00,108,*64
$GBGSV,5,1,20,26,73,060,49,05,20,130,,50,15,199,,45,18,083,25*67
$GBGSV,5,2,20,40,20,039,34,35,31,117,39,07,23,051,32,33,36,286,30*65
$GBGSV,5,3,20,42,29,221,40,29,23,052,31,14,38,252,44,24,49,277,43*6D
$GBGSV,5,4,20,10,34,059,38,56,39,064,,44,10,160,,41,09,331,36*6C
$GBGSV,5,5,20,11,08,241,,02,04,109,,57,02,342,,60,07,111,*6D
$GPGGA,111512.00,,,,,0,00,,,M,,M,,*4F
$PTNL,GGK,111512.00,010125,4742.4459253,N,01617.9734520,E,1,24,1.0,EHT667.4836,M*46
$GPGGQ,111512.00,010125,4742.4459253,N,01617.9734520,E,1,24,2.996,624.2726,M*32
$GPGFA,111512.00,11.366,20.780,1.195,1.060,300.337,2.534,,VVV*05
$GPLLK,111512.00,010125,,M,,M,1,24,1.2,,M*09
$GNGMP,111512.00,,,,,DAAA,24,0.6,,,,*51
$GPGMP,111512.00,,,,,,06,,,,2.5,123*7B
$GLGMP,111512.00,,,,,,07,,,,,*7F
$GAGMP,111512.00,,,,,,04,,,,,*71
$GBGMP,111512.00,,,,,,07,,,,,*71
$PSSN,SNC,[0,299730000,2347]*42
$GPZDA,111517.00,01,01,2025,,*61
$GPDTM,W84,,00.0000000,N,00.0000000,E,00.0000000,W84*5F
$GPRMC,111517.00,A,4742.4459172,N,01617.9734638,E,0.0,,010125,5.1,E,D*17
$GPGLL,4742.4459172,N,01617.9734638,E,111517.00,A,D*66
$GPGGA,111517.00,4742.4459172,N,01617.9734638,E,2,23,0.6,624.2652,M,43.2110,M,1.6,0123*4D
$GNGNS,111517.00,4742.4459172,N,01617.9734638,E,DAAA,23,0.6,624.2652,43.2110,,*56
$GPGNS,111517.00,,,,,,05,,,,1.6,123*7D
$GLGNS,111517.00,,,,,,07,,,,,*7A
$GAGNS,111517.00,,,,,,04,,,,,*74
$GBGNS,111517.00,,,,,,07,,,,,*74
$GPLLQ,111517.00,010125,,M,,M,1,23,3.523,,M*15
$GPVTG,,T,,M,0.01,N,0.02,K,D*25
$GPHDT,,T*1B
$GPTHS,,V*0E
$GPROT,,V*08
$PSSN,HRP,111517.00,010125,,,,,,,00,0,,*63
$PTNL,AVR,111517.00,,Yaw,,Tilt,,,,0,,00*35
$GPGSA,A,3,10,12,13,17,24,,,,,,,,1.1,0.6,0.9*3D
$GPGSA,A,3,66,67,68,76,77,85,86,,,,,,1.1,0.6,0.9*30
$GPGSA,A,3,02,07,08,30,,,,,,,,,1.1,0.6,0.9*33
$GPGSA,A,3,10,14,24,26,35,41,42,,,,,,1.1,0.6,0.9*3E
$GPGST,111517.00,9.719,1.501,1.310,339.741,1.480,1.334,2.905*58
$GPGBS,111517.00,4.054,3.623,8.289,68,0.0001,21.380,6.259*68
$GPGRS,111517.00,1,0.1,0.2,-0.6,-2.0,0.6,,,,,,,*63
$GPGRS,111517.00,1,-3.2,10.9,21.4,-6.3,-8.6,19.1,20.1,,,,,*40
$GPGRS,111517.00,1,-0.7,0.2,0.4,0.4,,,,,,,,*64
$GPGRS,111517.00,1,-1.5,4.5,2.3,-1.8,-2.2,-0.1,-0.4,,,,,*47
$GPGSV,5,1,17,24,74,301,42,14,11,061,23,13,24,160,42,23,13,266,28*77
$GPGSV,5,2,17,15,40,198,30,10,15,307,37,22,32,058,,17,36,058,43*7B
$GPGSV,5,3,17,12,42,240,41,19,49,099,41,02,02,015,,25,04,244,*7A
$GPGSV,5,4,17,32,01,326,32,36,35,170,36,34,31,208,,49,34,195,35*76
$GPGSV,5,5,17,61,03,257,*4B
$GLGSV,3,1,10,77,59,297,43,85,23,038,36,68,20,332,37,86,25,098,40*65
$GLGSV,3,2,10,66,33,205,46,67,51,281,44,76,55,043,43,78,07,264,35*61
$GLGSV,3,3,10,75,03,072,,87,05,139,*61
$GAGSV,3,1,12,02,80,057,43,03,18,161,26,25,26,058,32,18,43,148,*62
$GAGSV,3,2,12,07,45,301,35,30,43,238,38,08,61,203,46,16,03,058,*6B
$GAGSV,3,3,12,12,05,015,,10,08,037,,11,09,063,,36,00,108,*64
$GBGSV,5,1,20,26,73,060,50,05,20,130,,50,15,199,,45,18,083,*68
$GBGSV,5,2,20,40,20,039,34,35,31,117,40,07,23,051,32,33,36,286,26*6C
$GBGSV,5,3,20,42,29,221,40,29,23,052,32,14,38,252,44,24,49,277,44*69
$GBGSV,5,4,20,10,34,059,37,56,39,064,,44,10,160,,41,09,331,35*60
$GBGSV,5,5,20,11,08,241,,02,04,109,,57,02,342,,60,07,111,*6D
$GPGGA,111517.00,,,,,0,00,,,M,,M,,*4A
$PTNL,GGK,111517.00,010125,4742.4459172,N,01617.9734638,E,1,23,1.1,EHT667.4762,M*41
$GPGGQ,111517.00,010125,4742.4459172,N,01617.9734638,E,1,23,3.523,624.2652,M*3B
$GPGFA,111517.00,14.274,23.824,1.501,1.310,339.741,2.905,,VVV*09
$GPLLK,111517.00,010125,,M,,M,1,23,1.3,,M*0A
$GNGMP,111517.00,,,,,DAAA,23,0.6,,,,*53
$GPGMP,111517.00,,,,,,05,,,,1.6,123*7D
$GLGMP,111517.00,,,,,,07,,,,,*7A
$GAGMP,111517.00,,,,,,04,,,,,*74
$GBGMP,111517.00,,,,,,07,,,,,*74
$PSSN,SNC,[0,299735000,2347]*47
$GPZDA,111522.00,01,01,2025,,*67
$GPDTM,W84,,00.0000000,N,00.0000000,E,00.0000000,W84*5F
$GPRMC,111522.00,A,4742.4459219,N,01617.9734829,E,0.0,,010125,5.1,E,D*11
$GPGLL,4742.4459219,N,01617.9734829,E,111522.00,A,D*60
$GPGGA,111522.00,4742.4459219,N,01617.9734829,E,2,20,0.6,624.2512,M,43.2110,M,2.6,0123*4C
$GNGNS,111522.00,4742.4459219,N,01617.9734829,E,DAAA,20,0.6,624.2512,43.2110,,*54
$GPGNS,111522.00,,,,,,05,,,,2.6,123*78
$GLGNS,111522.00,,,,,,05,,,,,*7E
$GAGNS,111522.00,,,,,,03,,,,,*75
$GBGNS,111522.00,,,,,,07,,,,,*72
$GPLLQ,111522.00,010125,,M,,M,1,20,3.183,,M*1E
$GPVTG,,T,,M,0.00,N,0.01,K,D*27
$GPHDT,,T*1B
$GPTHS,,V*0E
$GPROT,,V*08
$PSSN,HRP,111522.00,010125,,,,,,,00,0,,*65
$PTNL,AVR,111522.00,,Yaw,,Tilt,,,,0,,00*33
$GPGSA,A,3,10,12,13,17,24,,,,,,,,1.2,0.6,1.0*36
$GPGSA,A,3,66,67,76,77,86,,,,,,,,1.2,0.6,1.0*38
$GPGSA,A,3,02,08,30,,,,,,,,,,1.2,0.6,1.0*3F
$GPGSA,A,3,10,14,24,26,35,41,42,,,,,,1.2,0.6,1.0*35
$GPGST,111522.00,7.431,1.384,1.181,338.652,1.359,1.210,2.612*57
$GPGBS,111522.00,4.177,3.688,8.474,86,0.0001,17.647,6.305*68
$GPGRS,111522.00,1,-0.4,1.3,-1.2,-2.1,0.9,,,,,,,*46
$GPGRS,111522.00,1,-5.1,14.6,-6.1,-9.1,17.6,,,,,,,*41
$GPGRS,111522.00,1,-1.1,-0.0,0.6,,,,,,,,,*62
$GPGRS,111522.00,1,-2.4,4.5,0.3,-1.8,-2.3,-0.8,-1.4,,,,,*48
$GPGSV,5,1,17,24,74,301,42,14,11,061,24,13,24,160,41,23,13,266,32*78
$GPGSV,5,2,17,15,40,198,29,10,15,307,37,22,32,058,,17,36,058,43*73
$GPGSV,5,3,17,12,42,240,43,19,49,099,40,02,02,015,,25,04,244,*79
$GPGSV,5,4,17,32,01,326,31,36,35,170,36,34,31,208,,49,34,195,35*75
$GPGSV,5,5,17,61,03,257,*4B
$GLGSV,3,1,10,77,59,298,42,85,23,038,38,68,20,332,30,86,25,098,39*6C
$GLGSV,3,2,10,66,33,205,45,67,51,281,45,76,55,043,45,78,07,264,*63
$GLGSV,3,3,10,75,03,072,,87,05,139,*61
$GAGSV,3,1,12,02,80,057,43,03,18,161,23,25,26,058,33,18,43,148,*66
$GAGSV,3,2,12,07,45,301,35,30,43,238,39,08,61,203,46,16,03,058,*6A
$GAGSV,3,3,12,12,05,015,,10,08,037,,11,09,063,,36,00,107,*6B
$GBGSV,5,1,20,26,73,060,50,05,20,130,,50,15,198,,45,18,083,22*69
$GBGSV,5,2,20,40,20,039,34,35,31,117,41,07,23,051,32,33,36,286,22*69
$GBGSV,5,3,20,42,29,221,39,29,23,052,34,14,38,252,44,24,50,277,43*6E
$GBGSV,5,4,20,10,34,059,37,56,39,064,,44,10,160,,41,09,331,36*63
$GBGSV,5,5,20,11,08,241,,02,04,109,,57,02,342,,60,07,111,*6D
$GPGGA,111522.00,,,,,0,00,,,M,,M,,*4C
$PTNL,GGK,111522.00,010125,4742.4459219,N,01617.9734829,E,1,20,1.2,EHT667.4623,M*43
$GPGGQ,111522.00,010125,4742.4459219,N,01617.9734829,E,1,20,3.183,624.2512,M*37
$GPGFA,111522.00,13.158,21.415,1.384,1.181,338.652,2.612,,VVV*03
$GPLLK,111522.00,010125,,M,,M,1,20,1.4,,M*08
$GNGMP,111522.00,,,,,DAAA,20,0.6,,,,*56
$GPGMP,111522.00,,,,,,05,,,,2.6,123*78
$GLGMP,111522.00,,,,,,05,,,,,*7E
$GAGMP,111522.00,,,,,,03,,,,,*75
$GBGMP,111522.00,,,,,,07,,,,,*72
$PSSN,SNC,[0,299740000,2347]*45
$GPZDA,111527.00,01,01,2025,,*62
$GPDTM,W84,,00.0000000,N,00.0000000,E,00.0000000,W84*5F
$GPRMC,111527.00,A,4742.4459273,N,01617.9734852,E,0.0,,010125,5.1,E,D*14
$GPGLL,4742.4459273,N,01617.9734852,E,111527.00,A,D*65
$GPGGA,111527.00,4742.4459273,N,01617.9734852,E,2,21,0.6,624.2186,M,43.2110,M,3.5,0123*43
$GNGNS,111527.00,4742.4459273,N,01617.9734852,E,DAAA,21,0.6,624.2186,43.2110,,*59
$GPGNS,111527.00,,,,,,06,,,,3.5,123*7C
$GLGNS,111527.00,,,,,,04,,,,,*7A
$GAGNS,111527.00,,,,,,03,,,,,*70
$GBGNS,111527.00,,,,,,08,,,,,*78
$GPLLQ,111527.00,010125,,M,,M,1,21,2.549,,M*19
$GPVTG,,T,,M,0.00,N,0.01,K,D*27
$GPHDT,,T*1B
$GPTHS,,V*0E
$GPROT,,V*08
$PSSN,HRP,111527.00,010125,,,,,,,00,0,,*60
$PTNL,AVR,111527.00,,Yaw,,Tilt,,,,0,,00*36
$GPGSA,A,3,10,12,13,17,19,24,,,,,,,1.2,0.6,1.0*3E
$GPGSA,A,3,66,67,76,77,,,,,,,,,1.2,0.6,1.0*36
$GPGSA,A,3,02,08,30,,,,,,,,,,1.2,0.6,1.0*3F
$GPGSA,A,3,10,14,24,26,29,35,41,42,,,,,1.2,0.6,1.0*3E
$GPGST,111527.00,5.660,1.117,0.819,357.594,1.117,0.820,2.139*59
$GPGBS,111527.00,3.924,2.469,7.936,67,0.0001,13.127,6.072*65
$GPGRS,111527.00,1,-0.7,0.8,-1.4,-1.7,1.2,0.3,,,,,,*6E
$GPGRS,111527.00,1,-6.0,13.1,-5.1,-10.7,,,,,,,,*65
$GPGRS,111527.00,1,-1.2,-0.7,-0.1,,,,,,,,,*49
$GPGRS,111527.00,1,-2.7,3.1,-1.6,-2.4,7.2,-1.7,-1.2,-3.0,,,,*4A
$GPGSV,5,1,17,24,74,301,42,14,11,061,23,13,24,160,40,23,13,266,22*7F
$GPGSV,5,2,17,15,40,198,34,10,15,307,38,22,32,058,,17,36,058,44*77
$GPGSV,5,3,17,12,42,240,45,19,49,099,39,02,02,015,,25,04,244,*71
$GPGSV,5,4,17,32,01,326,29,36,35,170,36,34,31,208,,49,34,195,35*7C
$GPGSV,5,5,17,61,03,257,*4B
$GLGSV,3,1,10,77,59,298,41,85,23,038,38,68,20,332,31,86,25,098,30*67
$GLGSV,3,2,10,66,33,205,44,67,51,281,42,76,55,043,46,78,07,264,20*64
$GLGSV,3,3,10,75,03,072,,87,05,139,*61
$GAGSV,3,1,12,02,80,057,43,03,18,161,20,25,26,058,34,18,43,148,*62
$GAGSV,3,2,12,07,45,301,35,30,44,238,39,08,61,203,47,16,03,058,*6C
$GAGSV,3,3,12,12,05,015,,10,08,037,,11,09,063,,36,00,107,*6B
$GBGSV,5,1,20,26,73,060,50,05,20,130,,50,14,198,,45,18,083,24*6E
$GBGSV,5,2,20,40,20,039,34,35,31,117,42,07,23,051,32,33,36,286,28*60
$GBGSV,5,3,20,42,29,221,38,29,23,052,37,14,38,252,44,24,50,277,42*6D
$GBGSV,5,4,20,10,34,059,37,56,39,064,,44,10,160,,41,09,331,36*63
$GBGSV,5,5,20,11,08,241,,02,04,109,,57,02,342,,60,07,111,*6D
$GPGGA,111527.00,,,,,0,00,,,M,,M,,*49
$PTNL,GGK,111527.00,010125,4742.4459273,N,01617.9734852,E,1,21,1.2,EHT667.4296,M*4D
$GPGGQ,111527.00,010125,4742.4459273,N,01617.9734852,E,1,21,2.549,624.2186,M*39
$GPGFA,111527.00,10.622,17.542,1.117,0.819,357.594,2.139,,VVV*06
$GPLLK,111527.00,010125,,M,,M,1,21,1.3,,M*0B
$GNGMP,111527.00,,,,,DAAA,21,0.6,,,,*52
$GPGMP,111527.00,,,,,,06,,,,3.5,123*7C
$GLGMP,111527.00,,,,,,04,,,,,*7A
$GAGMP,111527.00,,,,,,03,,,,,*70
$GBGMP,111527.00,,,,,,08,,,,,*78
$PSSN,SNC,[0,299745000,2347]*40
$GPZDA,111532.00,01,01,2025,,*66
$GPDTM,W84,,00.0000000,N,00.0000000,E,00.0000000,W84*5F
$GPRMC,111532.00,A,4742.4459273,N,01617.9734913,E,0.0,,010125,5.1,E,D*14
$GPGLL,4742.4459273,N,01617.9734913,E,111532.00,A,D*65
$GPGGA,111532.00,4742.4459273,N,01617.9734913,E,2,23,0.6,624.2057,M,43.2110,M,2.7,0123*4F
$GNGNS,111532.00,4742.4459273,N,01617.9734913,E,DAAA,23,0.6,624.2057,43.2110,,*56
$GPGNS,111532.00,,,,,,07,,,,2.7,123*7A
$GLGNS,111532.00,,,,,,05,,,,,*7F
$GAGNS,111532.00,,,,,,04,,,,,*73
$GBGNS,111532.00,,,,,,07,,,,,*73
$GPLLQ,111532.00,010125,,M,,M,1,23,2.040,,M*13
$GPVTG,,T,,M,0.01,N,0.01,K,D*26
$GPHDT,,T*1B
$GPTHS,,V*0E
$GPROT,,V*08
$PSSN,HRP,111532.00,010125,,,,,,,00,0,,*64
$PTNL,AVR,111532.00,,Yaw,,Tilt,,,,0,,00*32
$GPGSA,A,3,10,12,13,15,17,19,24,,,,,,1.1,0.6,1.0*39
$GPGSA,A,3,66,67,76,77,78,,,,,,,,1.1,0.6,1.0*3A
$GPGSA,A,3,02,07,08,30,,,,,,,,,1.1,0.6,1.0*3B
$GPGSA,A,3,10,14,24,26,29,35,42,,,,,,1.1,0.6,1.0*38
$GPGST,111532.00,5.160,0.792,0.658,341.853,0.780,0.672,1.762*51
$GPGBS,111532.00,2.912,2.470,7.783,77,0.0001,-9.445,6.064*7C
$GPGRS,111532.00,1,0.3,0.2,-1.0,0.9,-1.2,0.6,0.2,,,,,*6B
$GPGRS,111532.00,1,-6.4,6.9,-6.2,-9.4,-7.2,,,,,,,*64
$GPGRS,111532.00,1,-0.8,-0.8,-0.9,-1.0,,,,,,,,*43
$GPGRS,111532.00,1,-2.7,1.6,-1.9,-3.2,11.0,1.2,-2.7,,,,,*58
$GPGSV,5,1,17,24,74,301,40,14,11,061,24,13,24,160,40,23,13,266,*7A
$GPGSV,5,2,17,15,40,198,38,10,15,307,38,22,32,058,,17,36,058,45*7A
$GPGSV,5,3,17,12,42,240,46,19,49,099,38,02,02,015,,25,04,244,*73
$GPGSV,5,4,17,32,01,326,30,36,35,170,35,34,31,208,,49,34,195,35*77
$GPGSV,5,5,17,61,03,257,*4B
$GLGSV,3,1,10,77,59,298,41,85,23,038,34,68,20,332,34,86,25,098,33*6D
$GLGSV,3,2,10,66,33,205,42,67,51,281,38,76,55,043,45,78,07,264,35*68
$GLGSV,3,3,10,75,03,072,,87,05,139,*61
$GAGSV,3,1,12,02,80,057,43,03,18,161,19,25,26,058,34,18,43,148,*68
$GAGSV,3,2,12,07,45,301,36,30,44,238,38,08,60,203,47,16,03,058,*6F
$GAGSV,3,3,12,12,05,015,,10,08,037,,11,09,063,,36,01,107,*6A
$GBGSV,5,1,20,26,73,060,49,05,20,130,,50,14,198,,45,18,083,24*66
$GBGSV,5,2,20,40,20,039,34,35,31,117,43,07,23,051,33,33,36,286,30*69
$GBGSV,5,3,20,42,29,221,35,29,23,052,39,14,38,252,43,24,50,277,40*6B
$GBGSV,5,4,20,10,34,059,37,56,39,064,,44,10,160,,41,09,331,34*61
$GBGSV,5,5,20,11,08,241,,02,04,109,,57,02,342,,60,07,111,*6D
$GPGGA,111532.00,,,,,0,00,,,M,,M,,*4D
$PTNL,GGK,111532.00,010125,4742.4459273,N,01617.9734913,E,1,23,1.1,EHT667.4168,M*4E
$GPGGQ,111532.00,010125,4742.4459273,N,01617.9734913,E,1,23,2.040,624.2057,M*3A
$GPGFA,111532.00,7.525,14.447,0.792,0.658,341.853,1.762,,VVV*3C
$GPLLK,111532.00,010125,,M,,M,1,23,1.3,,M*0D
$GNGMP,111532.00,,,,,DAAA,23,0.6,,,,*54
$GPGMP,111532.00,,,,,,07,,,,2.7,123*7A
$GLGMP,111532.00,,,,,,05,,,,,*7F
$GAGMP,111532.00,,,,,,04,,,,,*73
$GBGMP,111532.00,,,,,,07,,,,,*73
$PSSN,SNC,[0,299750000,2347]*44
$GPZDA,111537.00,01,01,2025,,*63
$GPDTM,W84,,00.0000000,N,00.0000000,E,00.0000000,W84*5F
$GPRMC,111537.00,A,4742.4459269,N,01617.9734957,E,0.0,,010125,5.1,E,D*1A
$GPGLL,4742.4459269,N,01617.9734957,E,111537.00,A,D*6B
$GPGGA,111537.00,4742.4459269,N,01617.9734957,E,2,21,0.6,624.1982,M,43.2110,M,1.4,0123*41
$GNGNS,111537.00,4742.4459269,N,01617.9734957,E,DAAA,21,0.6,624.1982,43.2110,,*58
$GPGNS,111537.00,,,,,,07,,,,1.4,123*7F
$GLGNS,111537.00,,,,,,04,,,,,*7B
$GAGNS,111537.00,,,,,,04,,,,,*76
$GBGNS,111537.00,,,,,,06,,,,,*77
$GPLLQ,111537.00,010125,,M,,M,1,21,2.138,,M*1A
$GPVTG,,T,,M,0.01,N,0.01,K,D*26
$GPHDT,,T*1B
$GPTHS,,V*0E
$GPROT,,V*08
$PSSN,HRP,111537.00,010125,,,,,,,00,0,,*61
$PTNL,AVR,111537.00,,Yaw,,Tilt,,,,0,,00*37
$GPGSA,A,3,10,12,13,15,17,19,24,,,,,,1.2,0.6,1.1*3B
$GPGSA,A,3,66,68,76,77,,,,,,,,,1.2,0.6,1.1*38
$GPGSA,A,3,02,07,08,30,,,,,,,,,1.2,0.6,1.1*39
$GPGSA,A,3,10,14,24,26,29,35,,,,,,,1.2,0.6,1.1*3C
$GPGST,111537.00,6.257,0.824,0.688,341.432,0.811,0.703,1.850*5A
$GPGBS,111537.00,2.815,2.489,7.669,29,0.0001,15.564,8.734*69
$GPGRS,111537.00,1,0.9,-0.1,-1.2,0.5,-0.9,0.6,0.1,,,,,*4D
$GPGRS,111537.00,1,-6.8,3.9,-8.0,-9.9,,,,,,,,*6F
$GPGRS,111537.00,1,-1.1,-0.8,-1.0,-1.3,,,,,,,,*45
$GPGRS,111537.00,1,-2.8,0.1,-1.3,-3.6,15.6,7.2,,,,,,*58
$GPGSV,5,1,17,24,74,301,37,14,11,061,24,13,24,160,41,23,13,266,22*7B
$GPGSV,5,2,17,15,40,198,42,10,15,307,38,22,32,058,,17,36,057,45*78
$GPGSV,5,3,17,12,42,240,46,19,49,099,35,02,02,015,,25,04,244,*7E
$GPGSV,5,4,17,32,01,326,30,36,35,170,35,34,31,208,,49,34,195,35*77
$GPGSV,5,5,17,61,03,257,*4B
$GLGSV,3,1,10,77,59,298,42,85,23,038,28,68,20,332,36,86,25,097,31*6C
$GLGSV,3,2,10,66,33,205,42,67,51,281,33,76,55,043,44,78,07,264,33*64
$GLGSV,3,3,10,75,03,072,,87,05,139,*61
$GAGSV,3,1,12,02,80,057,43,03,18,161,31,25,26,058,34,18,43,148,*62
$GAGSV,3,2,12,07,45,301,37,30,44,239,38,08,60,203,48,16,03,058,*60
$GAGSV,3,3,12,12,05,015,,10,08,037,,11,09,063,,36,01,107,*6A
$GBGSV,5,1,20,26,72,060,49,05,20,130,,50,14,198,,45,18,083,23*60
$GBGSV,5,2,20,40,20,039,34,35,31,117,43,07,23,051,33,33,36,286,32*6B
$GBGSV,5,3,20,42,29,221,30,29,23,052,40,14,38,252,42,24,50,277,39*6F
$GBGSV,5,4,20,10,34,059,37,56,39,064,,44,10,160,,41,09,331,33*66
$GBGSV,5,5,20,11,08,241,,02,04,109,,57,02,342,,60,07,111,*6D
$GPGGA,111537.00,,,,,0,00,,,M,,M,,*48
$PTNL,GGK,111537.00,010125,4742.4459269,N,01617.9734957,E,1,21,1.2,EHT667.4093,M*44
$GPGGQ,111537.00,010125,4742.4459269,N,01617.9734957,E,1,21,2.138,624.1982,M*3A
$GPGFA,111537.00,7.831,15.166,0.824,0.688,341.432,1.850,,VVV*3C
$GPLLK,111537.00,010125,,M,,M,1,21,1.4,,M*0D
$GNGMP,111537.00,,,,,DAAA,21,0.6,,,,*53
$GPGMP,111537.00,,,,,,07,,,,1.4,123*7F
$GLGMP,111537.00,,,,,,04,,,,,*7B
$GAGMP,111537.00,,,,,,04,,,,,*76
$GBGMP,111537.00,,,,,,06,,,,,*77
$PSSN,SNC,[0,299755000,2347]*41
$GPZDA,111542.00,01,01,2025,,*61
$GPDTM,W84,,00.0000000,N,00.0000000,E,00.0000000,W84*5F
$GPRMC,111542.00,A,4742.4459303,N,01617.9734968,E,0.0,,010125,5.1,E,D*19
$GPGLL,4742.4459303,N,01617.9734968,E,111542.00,A,D*68
$GPGGA,111542.00,4742.4459303,N,01617.9734968,E,2,21,0.6,624.1964,M,43.2110,M,2.4,0123*49
$GNGNS,111542.00,4742.4459303,N,01617.9734968,E,DAAA,21,0.6,624.1964,43.2110,,*53
$GPGNS,111542.00,,,,,,07,,,,2.4,123*7E
$GLGNS,111542.00,,,,,,04,,,,,*79
$GAGNS,111542.00,,,,,,04,,,,,*74
$GBGNS,111542.00,,,,,,06,,,,,*75
$GPLLQ,111542.00,010125,,M,,M,1,21,2.594,,M*1A
$GPVTG,,T,,M,0.00,N,0.01,K,D*27
$GPHDT,,T*1B
$GPTHS,,V*0E
$GPROT,,V*08
$PSSN,HRP,111542.00,010125,,,,,,,00,0,,*63
$PTNL,AVR,111542.00,,Yaw,,Tilt,,,,0,,00*35
$GPGSA,A,3,10,12,13,15,17,19,24,,,,,,1.2,0.6,1.1*3B
$GPGSA,A,3,66,68,76,77,,,,,,,,,1.2,0.6,1.1*38
$GPGSA,A,3,02,07,08,30,,,,,,,,,1.2,0.6,1.1*39
$GPGSA,A,3,10,14,24,26,29,35,,,,,,,1.2,0.6,1.1*3C
$GPGST,111542.00,6.972,1.004,0.833,339.803,0.985,0.855,2.242*5A
$GPGBS,111542.00,2.830,2.507,7.806,29,0.0001,17.726,8.734*6A
$GPGRS,111542.00,1,-0.3,0.2,-1.1,1.3,-1.6,1.3,-0.7,,,,,*63
$GPGRS,111542.00,1,-6.2,3.0,-7.8,-9.5,,,,,,,,*65
$GPGRS,111542.00,1,-1.0,-0.8,-0.9,-1.7,,,,,,,,*4A
$GPGRS,111542.00,1,-3.1,-1.0,-1.8,-3.7,17.7,11.3,,,,,,*40
$GPGSV,5,1,17,24,74,301,35,14,11,061,23,13,24,160,42,23,13,266,26*79
$GPGSV,5,2,17,15,40,198,43,10,15,307,39,22,31,058,,17,36,057,45*7B
$GPGSV,5,3,17,12,42,240,47,19,49,099,37,02,02,015,,25,04,244,*7D
$GPGSV,5,4,17,32,01,326,31,36,35,170,35,34,31,208,,49,34,195,35*76
$GPGSV,5,5,17,61,03,257,*4B
$GLGSV,3,1,10,77,59,298,42,85,23,038,,68,20,332,36,86,25,097,31*66
$GLGSV,3,2,10,66,33,205,43,67,51,281,30,76,55,043,44,78,07,264,31*64
$GLGSV,3,3,10,75,03,072,,87,05,139,*61
$GAGSV,3,1,12,02,80,057,43,03,18,161,32,25,26,058,34,18,43,148,*61
$GAGSV,3,2,12,07,45,301,38,30,44,239,37,08,60,203,48,16,03,058,*60
$GAGSV,3,3,12,12,05,015,,10,08,037,,11,09,063,,36,01,107,*6A
$GBGSV,5,1,20,26,72,060,49,05,20,130,,50,14,198,,45,18,083,*61
$GBGSV,5,2,20,40,20,039,34,35,31,117,42,07,23,051,34,33,36,286,34*6B
$GBGSV,5,3,20,42,29,221,27,29,23,052,40,14,38,252,41,24,50,277,38*6B
$GBGSV,5,4,20,10,34,059,37,56,39,064,,44,10,160,,41,10,331,31*6C
$GBGSV,5,5,20,11,08,241,,02,04,109,,57,02,342,,60,07,111,*6D
$GPGGA,111542.00,,,,,0,00,,,M,,M,,*4A
$PTNL,GGK,111542.00,010125,4742.4459303,N,01617.9734968,E,1,21,1.2,EHT667.4074,M*4E
$GPGGQ,111542.00,010125,4742.4459303,N,01617.9734968,E,1,21,2.594,624.1964,M*33
$GPGFA,111542.00,9.541,18.383,1.004,0.833,339.803,2.242,,VVV*30
$GPLLK,111542.00,010125,,M,,M,1,21,1.4,,M*0F
$GNGMP,111542.00,,,,,DAAA,21,0.6,,,,*51
$GPGMP,111542.00,,,,,,07,,,,2.4,123*7E
$GLGMP,111542.00,,,,,,04,,,,,*79
$GAGMP,111542.00,,,,,,04,,,,,*74
$GBGMP,111542.00,,,,,,06,,,,,*75
$PSSN,SNC,[0,299760000,2347]*47
$GPZDA,111547.00,01,01,2025,,*64
$GPDTM,W84,,00.0000000,N,00.0000000,E,00.0000000,W84*5F
$GPRMC,111547.00,A,4742.4459371,N,01617.9734975,E,0.0,,010125,5.1,E,D*15
$GPGLL,4742.4459371,N,01617.9734975,E,111547.00,A,D*64
$GPGGA,111547.00,4742.4459371,N,01617.9734975,E,2,21,0.6,624.1874,M,43.2110,M,3.5,0123*45
$GNGNS,111547.00,4742.4459371,N,01617.9734975,E,DAAA,21,0.6,624.1874,43.2110,,*5F
$GPGNS,111547.00,,,,,,06,,,,3.5,123*7A
$GLGNS,111547.00,,,,,,04,,,,,*7C
$GAGNS,111547.00,,,,,,04,,,,,*71
$GBGNS,111547.00,,,,,,07,,,,,*71
$GPLLQ,111547.00,010125,,M,,M,1,21,3.569,,M*1C
$GPVTG,,T,,M,0.01,N,0.01,K,D*26
$GPHDT,,T*1B
$GPTHS,,V*0E
$GPROT,,V*08
$PSSN,HRP,111547.00,010125,,,,,,,00,0,,*66
$PTNL,AVR,111547.00,,Yaw,,Tilt,,,,0,,00*30
$GPGSA,A,3,10,12,13,15,17,19,,,,,,,1.4,0.6,1.2*38
$GPGSA,A,3,66,67,76,77,,,,,,,,,1.4,0.6,1.2*32
$GPGSA,A,3,02,07,08,30,,,,,,,,,1.4,0.6,1.2*3C
$GPGSA,A,3,10,14,24,26,29,33,35,,,,,,1.4,0.6,1.2*39
$GPGST,111547.00,5.662,1.075,0.779,329.153,1.006,0.867,3.312*5F
$GPGBS,111547.00,3.856,3.301,13.197,19,0.0001,1.754,0.728*6F
$GPGRS,111547.00,1,0.3,0.2,-1.3,-0.0,-1.7,1.8,,,,,,*68
$GPGRS,111547.00,1,-5.0,0.0,-7.6,-8.4,,,,,,,,*6C
$GPGRS,111547.00,1,-0.9,-1.1,-1.2,-1.6,,,,,,,,*44
$GPGRS,111547.00,1,-4.1,-1.8,-1.8,-3.4,14.5,-0.0,6.1,,,,,*7F
$GPGSV,5,1,17,24,74,301,30,14,11,061,22,13,24,160,42,23,13,266,28*73
$GPGSV,5,2,17,15,40,198,43,10,15,307,40,22,31,058,,17,35,057,45*76
$GPGSV,5,3,17,12,42,240,46,19,49,099,36,02,02,015,,25,05,244,*7C
$GPGSV,5,4,17,32,01,326,30,36,35,170,35,34,31,208,,49,34,195,35*77
$GPGSV,5,5,17,61,03,257,*4B
$GLGSV,3,1,10,77,59,298,41,85,23,038,26,68,20,332,42,86,25,097,28*6A
$GLGSV,3,2,10,66,33,205,44,67,51,281,36,76,55,043,44,78,07,264,32*66
$GLGSV,3,3,10,75,03,072,,87,05,139,*61
$GAGSV,3,1,12,02,80,057,44,03,18,161,33,25,25,058,34,18,43,148,*64
$GAGSV,3,2,12,07,45,301,38,30,44,239,37,08,60,203,47,16,03,058,*6F
$GAGSV,3,3,12,12,05,015,,10,08,037,,11,09,063,,36,01,107,*6A
$GBGSV,5,1,20,26,72,060,50,05,20,130,,50,14,198,,45,18,083,20*6B
$GBGSV,5,2,20,40,20,039,34,35,31,117,42,07,23,051,34,33,36,286,36*69
$GBGSV,5,3,20,42,29,221,27,29,23,052,39,14,38,252,41,10,34,059,36*60
$GBGSV,5,4,20,24,50,277,38,56,39,064,,44,10,160,,11,08,241,*60
$GBGSV,5,5,20,41,10,331,30,02,04,109,,57,02,342,,60,07,111,*64
$GPGGA,111547.00,,,,,0,00,,,M,,M,,*4F
$PTNL,GGK,111547.00,010125,4742.4459371,N,01617.9734975,E,1,21,1.4,EHT667.3985,M*44
$GPGGQ,111547.00,010125,4742.4459371,N,01617.9734975,E,1,21,3.569,624.1874,M*3C
$GPGFA,111547.00,10.224,27.162,1.075,0.779,329.153,3.312,,VVV*07
$GPLLK,111547.00,010125,,M,,M,1,21,1.6,,M*08
$GNGMP,111547.00,,,,,DAAA,21,0.6,,,,*54
$GPGMP,111547.00,,,,,,06,,,,3.5,123*7A
$GLGMP,111547.00,,,,,,04,,,,,*7C
$GAGMP,111547.00,,,,,,04,,,,,*71
$GBGMP,111547.00,,,,,,07,,,,,*71
$PSSN,SNC,[0,299765000,2347]*42
$GPZDA,111552.00,01,01,2025,,*60
$GPDTM,W84,,00.0000000,N,00.0000000,E,00.0000000,W84*5F
$GPRMC,111552.00,A,4742.4459356,N,01617.9734905,E,0.0,,010125,5.1,E,D*13
$GPGLL,4742.4459356,N,01617.9734905,E,111552.00,A,D*62
$GPGGA,111552.00,4742.4459356,N,01617.9734905,E,2,21,0.6,624.1727,M,43.2110,M,2.5,0123*4B
$GNGNS,111552.00,4742.4459356,N,01617.9734905,E,DAAA,21,0.6,624.1727,43.2110,,*50
$GPGNS,111552.00,,,,,,06,,,,2.5,123*7F
$GLGNS,111552.00,,,,,,04,,,,,*78
$GAGNS,111552.00,,,,,,04,,,,,*75
$GBGNS,111552.00,,,,,,07,,,,,*75
$GPLLQ,111552.00,010125,,M,,M,1,21,2.980,,M*12
$GPVTG,,T,,M,0.00,N,0.01,K,D*27
$GPHDT,,T*1B
$GPTHS,,V*0E
$GPROT,,V*08
$PSSN,HRP,111552.00,010125,,,,,,,00,0,,*62
$PTNL,AVR,111552.00,,Yaw,,Tilt,,,,0,,00*34
$GPGSA,A,3,10,12,13,15,17,19,,,,,,,1.4,0.6,1.2*38
$GPGSA,A,3,66,67,76,77,,,,,,,,,1.4,0.6,1.2*32
$GPGSA,A,3,02,07,08,30,,,,,,,,,1.4,0.6,1.2*3C
$GPGSA,A,3,10,14,24,26,29,33,35,,,,,,1.4,0.6,1.2*39
$GPGST,111552.00,4.475,0.899,0.657,330.074,0.845,0.725,2.764*57
$GPGBS,111552.00,3.787,3.213,12.686,19,0.0001,1.528,0.748*63
$GPGRS,111552.00,1,-0.3,0.1,-0.7,-1.1,-0.4,1.5,,,,,,*48
$GPGRS,111552.00,1,-4.1,5.7,-5.8,-7.8,,,,,,,,*65
$GPGRS,111552.00,1,-0.0,-1.0,-0.6,-0.8,,,,,,,,*42
$GPGRS,111552.00,1,-3.2,1.2,-1.3,-2.0,9.0,1.0,-5.6,,,,,*6A
$GPGSV,5,1,17,24,74,301,29,14,11,061,21,13,24,160,43,23,13,266,33*73
$GPGSV,5,2,17,15,40,198,43,10,15,307,41,22,31,058,,17,35,057,46*74
$GPGSV,5,3,17,12,42,240,45,19,49,099,36,02,02,015,,25,05,244,*7F
$GPGSV,5,4,17,32,01,326,29,36,35,170,35,34,31,208,,49,34,195,35*7F
$GPGSV,5,5,17,61,03,257,*4B
$GLGSV,3,1,10,77,59,298,40,85,23,037,,68,20,332,34,86,25,097,22*6B
$GLGSV,3,2,10,66,33,205,44,67,51,281,37,76,55,044,46,78,07,264,33*63
$GLGSV,3,3,10,75,03,072,,87,05,139,*61
$GAGSV,3,1,12,02,79,057,44,03,18,161,33,25,25,058,33,18,43,148,*65
$GAGSV,3,2,12,07,45,301,39,30,44,239,36,08,60,203,47,16,03,058,*6F
$GAGSV,3,3,12,12,05,015,,10,08,037,,11,09,063,,36,01,107,*6A
$GBGSV,5,1,20,26,72,060,50,05,20,130,,50,14,198,,45,18,083,21*6A
$GBGSV,5,2,20,40,20,039,34,35,31,117,41,07,23,051,33,33,36,286,40*6C
$GBGSV,5,3,20,42,29,221,27,29,23,052,38,14,38,252,42,10,34,059,36*62
$GBGSV,5,4,20,24,50,277,38,56,39,064,,44,10,160,,11,08,241,*60
$GBGSV,5,5,20,41,10,331,29,02,04,109,,57,02,342,,60,07,111,*6C
$GPGGA,111552.00,,,,,0,00,,,M,,M,,*4B
$PTNL,GGK,111552.00,010125,4742.4459356,N,01617.9734905,E,1,21,1.4,EHT667.3837,M*4A
$GPGGQ,111552.00,010125,4742.4459356,N,01617.9734905,E,1,21,2.980,624.1727,M*39
$GPGFA,111552.00,8.546,22.663,0.899,0.657,330.074,2.764,,VVV*34
$GPLLK,111552.00,010125,,M,,M,1,21,1.6,,M*0C
$GNGMP,111552.00,,,,,DAAA,21,0.6,,,,*50
$GPGMP,111552.00,,,,,,06,,,,2.5,123*7F
$GLGMP,111552.00,,,,,,04,,,,,*78
$GAGMP,111552.00,,,,,,04,,,,,*75
$GBGMP,111552.00,,,,,,07,,,,,*75
$PSSN,SNC,[0,299770000,2347]*46
$GPZDA,111557.00,01,01,2025,,*65
$GPDTM,W84,,00.0000000,N,00.0000000,E,00.0000000,W84*5F
$GPRMC,111557.00,A,4742.4459289,N,01617.9734863,E,0.0,,010125,5.1,E,D*14
$GPGLL,4742.4459289,N,01617.9734863,E,111557.00,A,D*65
$GPGGA,111557.00,4742.4459289,N,01617.9734863,E,2,20,0.6,624.1642,M,43.2110,M,1.5,0123*4C
$GNGNS,111557.00,4742.4459289,N,01617.9734863,E,DAAA,20,0.6,624.1642,43.2110,,*54
$GPGNS,111557.00,,,,,,06,,,,1.5,123*79
$GLGNS,111557.00,,,,,,04,,,,,*7D
$GAGNS,111557.00,,,,,,03,,,,,*77
$GBGNS,111557.00,,,,,,07,,,,,*70
$GPLLQ,111557.00,010125,,M,,M,1,20,3.011,,M*16
$GPVTG,,T,,M,0.00,N,0.00,K,D*26
$GPHDT,,T*1B
$GPTHS,,V*0E
$GPROT,,V*08
$PSSN,HRP,111557.00,010125,,,,,,,00,0,,*67
$PTNL,AVR,111557.00,,Yaw,,Tilt,,,,0,,00*31
$GPGSA,A,3,10,12,13,15,17,19,,,,,,,1.4,0.6,1.2*38
$GPGSA,A,3,66,67,76,77,,,,,,,,,1.4,0.6,1.2*32
$GPGSA,A,3,02,07,08,,,,,,,,,,1.4,0.6,1.2*3F
$GPGSA,A,3,10,14,24,26,29,33,35,,,,,,1.4,0.6,1.2*39
$GPGST,111557.00,5.137,0.910,0.666,330.597,0.858,0.732,2.791*5A
$GPGBS,111557.00,3.747,3.224,12.845,19,0.0001,1.661,0.693*66
$GPGRS,111557.00,1,0.4,-0.3,-0.6,-0.7,-0.3,1.7,,,,,,*4B
$GPGRS,111557.00,1,-5.0,9.6,-3.8,-9.9,,,,,,,,*64
$GPGRS,111557.00,1,-0.1,-1.4,-0.2,,,,,,,,,*4D
$GPGRS,111557.00,1,-3.0,5.0,-1.6,-2.4,4.5,2.7,-6.0,,,,,*63
$GPGSV,5,1,17,24,74,301,28,14,11,061,,13,24,160,43,23,13,266,32*70
$GPGSV,5,2,17,15,40,198,44,10,15,307,38,22,31,058,,17,35,057,44*7F
$GPGSV,5,3,17,12,43,240,44,19,49,099,38,02,02,015,,25,05,244,*71
$GPGSV,5,4,17,32,01,326,29,36,35,170,35,34,31,208,,49,34,195,35*7F
$GPGSV,5,5,17,61,03,257,*4B
$GLGSV,3,1,10,77,59,298,39,85,23,037,,68,20,332,29,86,25,097,32*68
$GLGSV,3,2,10,66,33,205,43,67,51,281,36,76,55,044,46,78,07,264,33*65
$GLGSV,3,3,10,75,03,072,,87,05,139,*61
$GAGSV,3,1,12,02,79,056,45,03,18,161,33,25,25,058,33,18,43,148,*65
$GAGSV,3,2,12,07,45,301,38,30,44,239,35,08,60,203,47,16,03,058,*6D
$GAGSV,3,3,12,12,05,015,,10,08,037,,11,09,063,,36,01,107,*6A
$GBGSV,5,1,20,26,72,060,50,05,20,130,,50,14,198,,45,18,083,23*68
$GBGSV,5,2,20,40,20,039,34,35,31,117,41,07,23,051,34,33,36,286,42*69
$GBGSV,5,3,20,42,29,221,28,29,23,052,37,14,38,252,42,10,34,059,36*62
$GBGSV,5,4,20,24,50,277,39,56,39,064,,44,10,160,,11,08,241,*61
$GBGSV,5,5,20,41,10,331,30,02,04,109,,57,02,342,,60,07,111,*64
$GPGGA,111557.00,,,,,0,00,,,M,,M,,*4E
$PTNL,GGK,111557.00,010125,4742.4459289,N,01617.9734863,E,1,20,1.4,EHT667.3753,M*41
$GPGGQ,111557.00,010125,4742.4459289,N,01617.9734863,E,1,20,3.011,624.1642,M*3D
$GPGFA,111557.00,8.653,22.889,0.910,0.666,330.597,2.791,,VVV*3C
$GPLLK,111557.00,010125,,M,,M,1,20,1.6,,M*08
$GNGMP,111557.00,,,,,DAAA,20,0.6,,,,*54
$GPGMP,111557.00,,,,,,06,,,,1.5,123*79
$GLGMP,111557.00,,,,,,04,,,,,*7D
$GAGMP,111557.00,,,,,,03,,,,,*77
$GBGMP,111557.00,,,,,,07,,,,,*70
$PSSN,SNC,[0,299775000,2347]*43
$GPZDA,111602.00,01,01,2025,,*66
$GPDTM,W84,,00.0000000,N,00.0000000,E,00.0000000,W84*5F
$GPRMC,111602.00,A,4742.4459293,N,01617.9734725,E,0.0,,010125,5.1,E,D*11
$GPGLL,4742.4459293,N,01617.9734725,E,111602.00,A,D*60
$GPGGA,111602.00,4742.4459293,N,01617.9734725,E,2,19,0.6,624.1580,M,43.2110,M,2.5,0123*4D
$GNGNS,111602.00,4742.4459293,N,01617.9734725,E,DAAA,19,0.6,624.1580,43.2110,,*56
$GPGNS,111602.00,,,,,,06,,,,2.5,123*79
$GLGNS,111602.00,,,,,,03,,,,,*79
$GAGNS,111602.00,,,,,,03,,,,,*74
$GBGNS,111602.00,,,,,,07,,,,,*73
$GPLLQ,111602.00,010125,,M,,M,1,19,3.686,,M*17
$GPVTG,,T,,M,0.01,N,0.02,K,D*25
$GPHDT,,T*1B
$GPTHS,,V*0E
$GPROT,,V*08
$PSSN,HRP,111602.00,010125,,,,,,,00,0,,*64
$PTNL,AVR,111602.00,,Yaw,,Tilt,,,,0,,00*32
$GPGSA,A,3,10,12,13,15,17,19,,,,,,,1.4,0.6,1.2*38
$GPGSA,A,3,66,76,77,,,,,,,,,,1.4,0.6,1.2*33
$GPGSA,A,3,02,07,08,,,,,,,,,,1.4,0.6,1.2*3F
$GPGSA,A,3,10,14,24,26,29,33,35,,,,,,1.4,0.6,1.2*39
$GPGST,111602.00,5.091,1.116,0.804,329.244,1.043,0.896,3.420*5A
$GPGBS,111602.00,3.791,3.274,12.991,19,0.0001,2.232,0.705*6C
$GPGRS,111602.00,1,-1.0,-0.4,-1.0,0.3,-1.5,2.2,,,,,,*48
$GPGRS,111602.00,1,-6.3,-4.5,-10.3,,,,,,,,,*7E
$GPGRS,111602.00,1,-0.5,-1.3,-0.1,,,,,,,,,*4E
$GPGRS,111602.00,1,-3.7,7.4,-2.1,-3.4,4.8,4.1,-2.9,,,,,*64
$GPGSV,5,1,17,24,74,301,32,14,11,062,,13,23,160,44,23,13,266,35*7F
$GPGSV,5,2,17,15,40,198,44,10,15,307,35,22,31,058,,17,35,057,43*75
$GPGSV,5,3,17,12,43,240,42,19,49,099,39,02,02,015,,25,05,244,*76
$GPGSV,5,4,17,32,01,326,28,36,35,170,35,34,31,208,,49,34,195,35*7E
$GPGSV,5,5,17,61,03,257,*4B
$GLGSV,3,1,10,77,59,298,37,85,23,037,28,68,20,332,19,86,25,097,30*6D
$GLGSV,3,2,10,66,33,205,43,67,51,281,29,76,55,044,46,78,07,264,31*69
$GLGSV,3,3,10,75,03,072,,87,05,139,*61
$GAGSV,3,1,12,02,79,056,45,03,18,161,33,25,25,058,33,18,43,148,*65
$GAGSV,3,2,12,07,45,301,38,30,44,239,34,08,60,203,48,16,03,058,*63
$GAGSV,3,3,12,12,05,015,,10,08,037,,11,09,063,,36,01,107,*6A
$GBGSV,5,1,20,26,72,060,49,44,10,160,,45,17,083,23,50,14,198,*6C
$GBGSV,5,2,20,05,20,130,,40,20,039,33,35,31,117,42,07,23,051,33*60
$GBGSV,5,3,20,29,23,052,35,33,36,286,41,42,29,221,31,14,38,252,41*68
$GBGSV,5,4,20,10,34,059,35,24,50,277,39,56,39,063,,02,04,109,*6D
$GBGSV,5,5,20,41,10,331,32,11,08,241,,57,02,341,,60,07,111,*64
$GPGGA,111602.00,,,,,0,00,,,M,,M,,*4D
$PTNL,GGK,111602.00,010125,4742.4459293,N,01617.9734725,E,1,19,1.4,EHT667.3690,M*40
$GPGGQ,111602.00,010125,4742.4459293,N,01617.9734725,E,1,19,3.686,624.1580,M*37
$GPGFA,111602.00,10.609,28.045,1.116,0.804,329.244,3.420,,VVV*07
$GPLLK,111602.00,010125,,M,,M,1,19,1.6,,M*01
$GNGMP,111602.00,,,,,DAAA,19,0.6,,,,*5D
$GPGMP,111602.00,,,,,,06,,,,2.5,123*79
$GLGMP,111602.00,,,,,,03,,,,,*79
$GAGMP,111602.00,,,,,,03,,,,,*74
$GBGMP,111602.00,,,,,,07,,,,,*73
$PSSN,SNC,[0,299780000,2347]*49
$GPZDA,111607.00,01,01,2025,,*63
$GPDTM,W84,,00.0000000,N,00.0000000,E,00.0000000,W84*5F
$GPRMC,111607.00,A,4742.4459353,N,01617.9734694,E,0.0,,010125,5.1,E,D*12
$GPGLL,4742.4459353,N,01617.9734694,E,111607.00,A,D*63
$GPGGA,111607.00,4742.4459353,N,01617.9734694,E,2,19,0.7,624.1418,M,43.2110,M,3.4,0123*4F
$GNGNS,111607.00,4742.4459353,N,01617.9734694,E,DAAA,19,0.7,624.1418,43.2110,,*54
$GPGNS,111607.00,,,,,,05,,,,3.4,123*7F
$GLGNS,111607.00,,,,,,05,,,,,*7A
$GAGNS,111607.00,,,,,,03,,,,,*71
$GBGNS,111607.00,,,,,,06,,,,,*77
$GPLLQ,111607.00,010125,,M,,M,1,19,4.993,,M*1E
$GPVTG,,T,,M,0.01,N,0.01,K,D*26
$GPHDT,,T*1B
$GPTHS,,V*0E
$GPROT,,V*08
$PSSN,HRP,111607.00,010125,,,,,,,00,0,,*61
$PTNL,AVR,111607.00,,Yaw,,Tilt,,,,0,,00*37
$GPGSA,A,3,12,13,15,17,19,,,,,,,,1.5,0.7,1.4*3F
$GPGSA,A,3,66,67,68,76,77,,,,,,,,1.5,0.7,1.4*3A
$GPGSA,A,3,02,07,08,,,,,,,,,,1.5,0.7,1.4*39
$GPGSA,A,3,10,14,24,26,33,35,,,,,,,1.5,0.7,1.4*34
$GPGST,111607.00,5.155,1.616,0.785,327.018,1.421,1.099,4.658*5E
$GPGBS,111607.00,5.776,4.848,17.277,17,0.0001,-1.813,0.868*4F
$GPGRS,111607.00,1,-0.7,-0.6,0.9,-1.8,1.5,,,,,,,*48
$GPGRS,111607.00,1,-5.6,2.7,-4.6,-4.3,-12.6,,,,,,,*56
$GPGRS,111607.00,1,-0.3,-0.1,0.3,,,,,,,,,*61
$GPGRS,111607.00,1,-4.1,5.7,-2.8,-3.3,1.1,-2.1,,,,,,*40
$GPGSV,5,1,17,24,74,301,33,14,11,062,,13,23,160,44,23,13,266,36*7D
$GPGSV,5,2,17,15,40,198,44,10,15,307,35,22,31,058,,17,35,057,42*74
$GPGSV,5,3,17,12,43,240,40,19,49,099,38,02,02,015,,25,05,244,*75
$GPGSV,5,4,17,32,01,326,29,36,35,170,35,34,31,208,,49,34,195,35*7F
$GPGSV,5,5,17,61,03,257,*4B
$GLGSV,3,1,10,77,59,298,37,85,23,037,31,68,20,332,38,86,25,097,*65
$GLGSV,3,2,10,66,33,205,43,67,51,281,46,76,55,044,46,78,07,264,30*61
$GLGSV,3,3,10,75,03,072,,87,05,139,*61
$GAGSV,3,1,12,02,79,056,46,03,18,161,32,25,25,058,34,18,43,148,*60
$GAGSV,3,2,12,07,45,301,37,30,44,239,32,08,60,203,48,16,03,058,*6A
$GAGSV,3,3,12,12,05,015,,10,08,037,,11,09,063,,36,01,107,*6A
$GBGSV,5,1,20,26,72,060,48,44,10,160,,45,17,083,24,50,14,198,*6A
$GBGSV,5,2,20,05,20,130,,40,20,039,33,35,31,117,42,07,23,051,33*60
$GBGSV,5,3,20,29,23,052,34,33,36,286,39,42,29,221,32,14,38,252,40*64
$GBGSV,5,4,20,10,34,059,35,24,50,277,38,56,39,063,,02,04,109,*6C
$GBGSV,5,5,20,41,10,331,30,11,08,241,,57,02,341,,60,07,111,*66
$GPGGA,111607.00,,,,,0,00,,,M,,M,,*48
$PTNL,GGK,111607.00,010125,4742.4459353,N,01617.9734694,E,1,19,1.5,EHT667.3528,M*42
$GPGGQ,111607.00,010125,4742.4459353,N,01617.9734694,E,1,19,4.993,624.1418,M*38
$GPGFA,111607.00,15.366,38.196,1.616,0.785,327.018,4.658,,VVV*0B
$GPLLK,111607.00,010125,,M,,M,1,19,1.8,,M*0A
$GNGMP,111607.00,,,,,DAAA,19,0.7,,,,*59
$GPGMP,111607.00,,,,,,05,,,,3.4,123*7F
$GLGMP,111607.00,,,,,,05,,,,,*7A
$GAGMP,111607.00,,,,,,03,,,,,*71
$GBGMP,111607.00,,,,,,06,,,,,*77
$PSSN,SNC,[0,299785000,2347]*4C
$GPZDA,111612.00,01,01,2025,,*67
$GPDTM,W84,,00.0000000,N,00.0000000,E,00.0000000,W84*5F
$GPRMC,111612.00,A,4742.4459386,N,01617.9734713,E,0.0,,010125,5.1,E,D*10
$GPGLL,4742.4459386,N,01617.9734713,E,111612.00,A,D*61
$GPGGA,111612.00,4742.4459386,N,01617.9734713,E,2,19,0.7,624.1405,M,43.2110,M,2.5,0123*41
$GNGNS,111612.00,4742.4459386,N,01617.9734713,E,DAAA,19,0.7,624.1405,43.2110,,*5A
$GPGNS,111612.00,,,,,,06,,,,2.5,123*78
$GLGNS,111612.00,,,,,,05,,,,,*7E
$GAGNS,111612.00,,,,,,03,,,,,*75
$GBGNS,111612.00,,,,,,05,,,,,*70
$GPLLQ,111612.00,010125,,M,,M,1,19,2.472,,M*1E
$GPVTG,,T,,M,0.00,N,0.00,K,D*26
$GPHDT,,T*1B
$GPTHS,,V*0E
$GPROT,,V*08
$PSSN,HRP,111612.00,010125,,,,,,,00,0,,*65
$PTNL,AVR,111612.00,,Yaw,,Tilt,,,,0,,00*33
$GPGSA,A,3,10,12,13,15,17,19,,,,,,,1.4,0.7,1.2*39
$GPGSA,A,3,66,67,68,76,77,,,,,,,,1.4,0.7,1.2*3D
$GPGSA,A,3,02,07,08,,,,,,,,,,1.4,0.7,1.2*3E
$GPGSA,A,3,14,24,26,33,35,,,,,,,,1.4,0.7,1.2*32
$GPGST,111612.00,3.942,0.748,0.555,329.660,0.704,0.610,2.290*54
$GPGBS,111612.00,3.774,3.255,12.633,77,0.0001,-10.325,6.064*75
$GPGRS,111612.00,1,1.6,-0.6,-0.1,0.2,-1.0,0.6,,,,,,*62
$GPGRS,111612.00,1,-4.3,3.3,-1.2,-4.4,-10.3,,,,,,,*52
$GPGRS,111612.00,1,-0.1,1.6,0.9,,,,,,,,,*46
$GPGRS,111612.00,1,2.0,-3.3,-2.4,-0.1,-1.3,,,,,,,*63
$GPGSV,5,1,17,24,74,301,32,14,11,062,,13,23,160,45,23,13,265,37*7F
$GPGSV,5,2,17,15,40,198,42,10,15,307,38,22,31,058,,17,35,057,41*7C
$GPGSV,5,3,17,12,43,240,40,19,49,099,36,02,02,015,,25,05,244,*7B
$GPGSV,5,4,17,32,01,326,31,36,35,170,35,34,31,208,,49,34,195,35*76
$GPGSV,5,5,17,61,03,257,*4B
$GLGSV,3,1,10,77,59,298,39,85,23,037,35,68,21,332,35,86,25,097,28*69
$GLGSV,3,2,10,66,33,205,44,67,51,281,32,76,55,044,47,78,07,264,36*62
$GLGSV,3,3,10,75,03,072,,87,05,139,*61
$GAGSV,3,1,12,02,79,056,46,03,18,161,32,25,25,058,33,18,43,148,*67
$GAGSV,3,2,12,07,45,301,36,30,44,239,31,08,60,203,49,16,03,058,*69
$GAGSV,3,3,12,12,05,015,,10,08,037,,11,09,063,,36,01,107,*6A
$GBGSV,5,1,20,26,72,060,48,44,10,160,,45,17,083,23,50,14,198,*6D
$GBGSV,5,2,20,05,20,130,,40,20,039,33,35,31,117,42,07,23,051,33*60
$GBGSV,5,3,20,29,23,051,34,33,36,286,39,42,29,221,33,14,38,252,40*66
$GBGSV,5,4,20,10,34,059,35,24,50,277,38,56,39,063,,02,04,109,*6C
$GBGSV,5,5,20,41,10,331,35,11,08,241,,57,02,341,,60,07,111,*63
$GPGGA,111612.00,,,,,0,00,,,M,,M,,*4C
$PTNL,GGK,111612.00,010125,4742.4459386,N,01617.9734713,E,1,19,1.4,EHT667.3515,M*4F
$GPGGQ,111612.00,010125,4742.4459386,N,01617.9734713,E,1,19,2.472,624.1405,M*32
$GPGFA,111612.00,7.113,18.778,0.748,0.555,329.660,2.290,,VVV*3D
$GPLLK,111612.00,010125,,M,,M,1,19,1.6,,M*00
$GNGMP,111612.00,,,,,DAAA,19,0.7,,,,*5D
$GPGMP,111612.00,,,,,,06,,,,2.5,123*78
$GLGMP,111612.00,,,,,,05,,,,,*7E
$GAGMP,111612.00,,,,,,03,,,,,*75
$GBGMP,111612.00,,,,,,05,,,,,*70
$PSSN,SNC,[0,299790000,2347]*48
$GPZDA,111617.00,01,01,2025,,*62
$GPDTM,W84,,00.0000000,N,00.0000000,E,00.0000000,W84*5F
$GPRMC,111617.00,A,4742.4459323,N,01617.9734705,E,0.0,,010125,5.1,E,D*1D
$GPGLL,4742.4459323,N,01617.9734705,E,111617.00,A,D*6C
$GPGGA,111617.00,4742.4459323,N,01617.9734705,E,2,18,0.7,624.1484,M,43.2110,M,1.5,0123*47
$GNGNS,111617.00,4742.4459323,N,01617.9734705,E,DAAA,18,0.7,624.1484,43.2110,,*5F
$GPGNS,111617.00,,,,,,06,,,,1.5,123*7E
$GLGNS,111617.00,,,,,,04,,,,,*7A
$GAGNS,111617.00,,,,,,03,,,,,*70
$GBGNS,111617.00,,,,,,05,,,,,*75
$GPLLQ,111617.00,010125,,M,,M,1,18,3.161,,M*1C
$GPVTG,,T,,M,0.00,N,0.01,K,D*27
$GPHDT,,T*1B
$GPTHS,,V*0E
$GPROT,,V*08
$PSSN,HRP,111617.00,010125,,,,,,,00,0,,*60
$PTNL,AVR,111617.00,,Yaw,,Tilt,,,,0,,00*36
$GPGSA,A,3,10,12,13,15,17,19,,,,,,,1.5,0.7,1.3*39
$GPGSA,A,3,66,67,76,77,,,,,,,,,1.5,0.7,1.3*33
$GPGSA,A,3,02,07,08,,,,,,,,,,1.5,0.7,1.3*3E
$GPGSA,A,3,14,24,26,33,35,,,,,,,,1.5,0.7,1.3*32
$GPGST,111617.00,3.587,0.953,0.707,330.689,0.900,0.773,2.930*55
$GPGBS,111617.00,3.717,3.265,12.806,10,0.0001,2.344,1.168*6C
$GPGRS,111617.00,1,2.3,0.0,-0.9,-1.0,-0.5,1.3,,,,,,*6C
$GPGRS,111617.00,1,-4.1,3.3,-3.5,-8.3,,,,,,,,*6A
$GPGRS,111617.00,1,-0.6,1.4,0.9,,,,,,,,,*46
$GPGRS,111617.00,1,-0.0,-3.6,-2.0,0.9,-1.3,,,,,,,*6D
$GPGSV,5,1,17,24,74,301,34,14,11,062,20,13,23,160,45,23,13,265,37*7B
$GPGSV,5,2,17,15,40,198,39,10,15,307,38,22,31,058,,17,35,057,39*7F
$GPGSV,5,3,17,12,43,240,40,19,49,099,36,02,02,015,,25,05,244,*7B
$GPGSV,5,4,17,32,01,326,31,36,35,170,35,34,31,208,,49,34,195,35*76
$GPGSV,5,5,17,61,03,257,*4B
$GLGSV,3,1,10,77,59,298,38,85,23,037,,68,21,332,28,86,25,097,22*68
$GLGSV,3,2,10,66,33,205,45,67,51,280,45,76,55,044,48,78,07,264,33*68
$GLGSV,3,3,10,75,03,072,,87,05,139,*61
$GAGSV,3,1,12,02,79,056,46,03,18,161,32,25,25,058,32,18,43,148,*66
$GAGSV,3,2,12,07,45,301,35,30,44,239,32,08,60,203,50,16,02,059,*61
$GAGSV,3,3,12,12,05,015,,10,08,037,,11,09,063,,36,01,107,*6A
$GBGSV,5,1,20,26,72,060,48,44,10,160,,45,17,083,20,50,14,198,*6E
$GBGSV,5,2,20,05,20,130,,40,20,039,33,35,31,117,42,29,23,051,34*6B
$GBGSV,5,3,20,07,23,051,34,33,36,286,41,42,29,221,33,14,38,252,39*6B
$GBGSV,5,4,20,10,34,059,35,24,50,277,38,56,39,063,,02,04,109,*6C
$GBGSV,5,5,20,41,10,331,32,11,08,241,,57,02,341,,60,07,111,*64
$GPGGA,111617.00,,,,,0,00,,,M,,M,,*49
$PTNL,GGK,111617.00,010125,4742.4459323,N,01617.9734705,E,1,18,1.5,EHT667.3595,M*4A
$GPGGQ,111617.00,010125,4742.4459323,N,01617.9734705,E,1,18,3.161,624.1484,M*31
$GPGFA,111617.00,9.062,24.024,0.953,0.707,330.689,2.930,,VVV*3F
$GPLLK,111617.00,010125,,M,,M,1,18,1.8,,M*0A
$GNGMP,111617.00,,,,,DAAA,18,0.7,,,,*59
$GPGMP,111617.00,,,,,,06,,,,1.5,123*7E
$GLGMP,111617.00,,,,,,04,,,,,*7A
$GAGMP,111617.00,,,,,,03,,,,,*70
$GBGMP,111617.00,,,,,,05,,,,,*75
$PSSN,SNC,[0,299795000,2347]*4D
$GPZDA,111622.00,01,01,2025,,*64
$GPDTM,W84,,00.0000000,N,00.0000000,E,00.0000000,W84*5F
$GPRMC,111622.00,A,4742.4459187,N,01617.9734757,E,0.0,,010125,5.1,E,D*10
$GPGLL,4742.4459187,N,01617.9734757,E,111622.00,A,D*61
$GPGGA,111622.00,4742.4459187,N,01617.9734757,E,2,18,0.7,624.1456,M,43.2110,M,2.5,0123*46
$GNGNS,111622.00,4742.4459187,N,01617.9734757,E,DAAA,18,0.7,624.1456,43.2110,,*5D
$GPGNS,111622.00,,,,,,06,,,,2.5,123*7B
$GLGNS,111622.00,,,,,,04,,,,,*7C
$GAGNS,111622.00,,,,,,02,,,,,*77
$GBGNS,111622.00,,,,,,06,,,,,*70
$GPLLQ,111622.00,010125,,M,,M,1,18,2.498,,M*18
$GPVTG,,T,,M,0.00,N,0.00,K,D*26
$GPHDT,,T*1B
$GPTHS,,V*0E
$GPROT,,V*08
$PSSN,HRP,111622.00,010125,,,,,,,00,0,,*66
$PTNL,AVR,111622.00,,Yaw,,Tilt,,,,0,,00*30
$GPGSA,A,3,10,12,13,15,17,24,,,,,,,1.4,0.7,1.2*37
$GPGSA,A,3,66,67,76,77,,,,,,,,,1.4,0.7,1.2*33
$GPGSA,A,3,02,08,,,,,,,,,,,1.4,0.7,1.2*39
$GPGSA,A,3,10,14,24,26,33,35,,,,,,,1.4,0.7,1.2*33
$GPGST,111622.00,3.896,1.011,0.879,301.342,0.917,0.978,2.108*56
$GPGBS,111622.00,3.028,3.747,8.532,15,0.0001,-1.725,0.768*7A
$GPGRS,111622.00,1,2.2,0.2,-1.1,-1.7,-1.3,1.1,,,,,,*62
$GPGRS,111622.00,1,-3.4,3.9,-1.7,-9.6,,,,,,,,*60
$GPGRS,111622.00,1,-0.6,1.0,,,,,,,,,,*63
$GPGRS,111622.00,1,-3.0,1.0,-3.1,-1.0,2.2,-2.4,,,,,,*4E
$GPGSV,5,1,18,24,74,301,36,14,10,062,22,13,23,160,45,23,13,265,37*75
$GPGSV,5,2,18,15,40,198,36,10,15,307,38,22,31,058,,17,35,057,39*7F
$GPGSV,5,3,18,12,43,240,41,19,49,098,37,06,00,116,,02,02,015,*75
$GPGSV,5,4,18,25,05,244,,32,01,326,32,36,35,170,35,34,31,208,*7B
$GPGSV,5,5,18,49,34,195,35,61,03,257,*75
$GLGSV,3,1,10,77,59,298,38,85,23,037,34,68,21,332,34,86,25,097,29*69
$GLGSV,3,2,10,66,33,205,45,67,51,280,46,76,55,044,48,78,07,264,32*6A
$GLGSV,3,3,10,75,02,072,,87,05,139,*60
$GAGSV,3,1,12,02,79,056,45,03,18,161,31,25,25,058,31,18,43,148,*65
$GAGSV,3,2,12,07,45,301,35,30,44,239,33,08,60,203,50,16,02,059,*60
$GAGSV,3,3,12,12,05,015,,10,08,037,,11,09,063,,36,01,107,*6A
$GBGSV,5,1,20,26,72,061,48,44,10,160,,45,17,083,,50,14,198,*6D
$GBGSV,5,2,20,05,20,130,,40,20,039,33,35,31,117,41,29,23,051,34*68
$GBGSV,5,3,20,07,23,051,33,33,36,286,41,42,29,221,31,14,38,252,39*6E
$GBGSV,5,4,20,10,34,059,35,24,50,277,40,56,39,063,,02,04,109,*63
$GBGSV,5,5,20,41,10,331,34,11,08,241,,57,02,341,,60,07,111,*62
$GPGGA,111622.00,,,,,0,00,,,M,,M,,*4F
$PTNL,GGK,111622.00,010125,4742.4459187,N,01617.9734757,E,1,18,1.4,EHT667.3567,M*4B
$GPGGQ,111622.00,010125,4742.4459187,N,01617.9734757,E,1,18,2.498,624.1456,M*31
$GPGFA,111622.00,9.617,17.283,1.011,0.879,301.342,2.108,,VVV*39
$GPLLK,111622.00,010125,,M,,M,1,18,1.7,,M*03
$GNGMP,111622.00,,,,,DAAA,18,0.7,,,,*5F
$GPGMP,111622.00,,,,,,06,,,,2.5,123*7B
$GLGMP,111622.00,,,,,,04,,,,,*7C
$GAGMP,111622.00,,,,,,02,,,,,*77
$GBGMP,111622.00,,,,,,06,,,,,*70
$PSSN,SNC,[0,299800000,2347]*4E
$GPZDA,111627.00,01,01,2025,,*61
$GPDTM,W84,,00.0000000,N,00.0000000,E,00.0000000,W84*5F
$GPRMC,111627.00,A,4742.4459067,N,01617.9734852,E,0.0,,010125,5.1,E,D*10
$GPGLL,4742.4459067,N,01617.9734852,E,111627.00,A,D*61
$GPGGA,111627.00,4742.4459067,N,01617.9734852,E,2,18,0.7,624.1420,M,43.2110,M,1.8,0123*49
$GNGNS,111627.00,4742.4459067,N,01617.9734852,E,DAAA,18,0.7,624.1420,43.2110,,*5C
$GPGNS,111627.00,,,,,,05,,,,1.8,123*73
$GLGNS,111627.00,,,,,,05,,,,,*78
$GAGNS,111627.00,,,,,,02,,,,,*72
$GBGNS,111627.00,,,,,,06,,,,,*75
$GPLLQ,111627.00,010125,,M,,M,1,18,2.633,,M*1E
$GPVTG,,T,,M,0.01,N,0.01,K,D*26
$GPHDT,,T*1B
$GPTHS,,V*0E
$GPROT,,V*08
$PSSN,HRP,111627.00,010125,,,,,,,00,0,,*63
$PTNL,AVR,111627.00,,Yaw,,Tilt,,,,0,,00*35
$GPGSA,A,3,10,12,13,17,24,,,,,,,,1.3,0.7,1.1*37
$GPGSA,A,3,66,67,68,76,77,,,,,,,,1.3,0.7,1.1*39
$GPGSA,A,3,02,08,,,,,,,,,,,1.3,0.7,1.1*3D
$GPGSA,A,3,10,14,24,26,33,35,,,,,,,1.3,0.7,1.1*37
$GPGST,111627.00,6.244,1.136,0.987,338.907,1.118,1.007,2.160*5E
$GPGBS,111627.00,4.111,3.738,8.527,67,0.0001,11.747,6.074*6E
$GPGRS,111627.00,1,1.9,-0.6,-1.5,-0.9,0.7,,,,,,,*4B
$GPGRS,111627.00,1,-4.2,11.7,11.1,-2.1,-10.1,,,,,,,*7C
$GPGRS,111627.00,1,-1.1,0.3,,,,,,,,,,*62
$GPGRS,111627.00,1,-2.6,1.0,-3.8,-1.3,0.8,-3.2,,,,,,*49
$GPGSV,5,1,18,24,74,301,37,14,10,062,24,13,23,160,45,23,13,265,36*73
$GPGSV,5,2,18,15,40,198,30,10,15,307,37,22,31,058,,17,35,057,40*78
$GPGSV,5,3,18,12,43,240,41,19,49,098,38,06,00,116,,02,02,015,*7A
$GPGSV,5,4,18,25,05,244,,32,01,326,33,36,35,170,35,34,31,208,*7A
$GPGSV,5,5,18,49,34,195,35,61,03,257,*75
$GLGSV,3,1,10,77,59,298,38,85,23,037,31,68,21,332,40,86,25,097,31*66
