$GPZDA,102942.00,01,01,2025,,*6F
$GPDTM,W84,,00.0000000,N,00.0000000,E,00.0000000,W84*5F
$GPRMC,102942.00,A,4742.4462011,N,01617.9727701,E,0.0,,010125,5.1,E,D*1C
$GPGLL,4742.4462011,N,01617.9727701,E,102942.00,A,D*6D
$GPGGA,102942.00,4742.4462011,N,01617.9727701,E,2,21,0.6,627.1287,M,43.2111,M,3.5,0123*48
$GNGNS,102942.00,4742.4462011,N,01617.9727701,E,DAAA,21,0.6,627.1287,43.2111,,*52
$GPGNS,102942.00,,,,,,06,,,,3.5,123*71
$GLGNS,102942.00,,,,,,03,,,,,*70
$GAGNS,102942.00,,,,,,04,,,,,*7A
$GBGNS,102942.00,,,,,,08,,,,,*75
$GPLLQ,102942.00,010125,,M,,M,1,21,2.981,,M*1C
$GPVTG,,T,,M,0.00,N,0.00,K,D*26
$GPHDT,,T*1B
$GPTHS,,V*0E
$GPROT,,V*08
$PSSN,HRP,102942.00,010125,,,,,,,00,0,,*6D
$PTNL,AVR,102942.00,,Yaw,,Tilt,,,,0,,00*3B
$GPGSA,A,3,10,13,14,15,17,24,,,,,,,1.2,0.6,1.1*35
$GPGSA,A,3,66,67,76,,,,,,,,,,1.2,0.6,1.1*37
$GPGSA,A,3,02,03,07,08,,,,,,,,,1.2,0.6,1.1*39
$GPGSA,A,3,10,14,21,24,26,33,42,45,,,,,1.2,0.6,1.1*35
$GPGST,102942.00,3.302,1.086,0.637,21.539,1.037,0.714,2.702*68
$GPGBS,102942.00,5.424,3.430,14.305,24,0.0001,1.473,0.680*6B
$GPGRS,102942.00,1,-0.1,-0.4,-0.6,0.1,-1.7,1.5,,,,,,*42
$GPGRS,102942.00,1,1.7,6.7,-2.8,,,,,,,,,*4C
$GPGRS,102942.00,1,0.4,-2.1,0.4,0.5,,,,,,,,*69
$GPGRS,102942.00,1,-0.3,-0.7,7.7,-3.7,1.0,-1.4,0.3,-3.2,,,,*69
$GPGSV,5,1,17,15,59,216,41,10,12,326,39,23,23,285,33,12,23,228,*79
$GPGSV,5,2,17,19,38,125,,14,29,057,43,13,45,156,41,17,40,082,41*7F
$GPGSV,5,3,17,22,50,058,,24,52,293,44,02,04,032,,21,01,013,*7F
$GPGSV,5,4,17,30,03,100,,36,35,170,36,34,31,208,,49,34,195,*77
$GPGSV,5,5,17,61,03,257,*4B
$GLGSV,3,1,10,76,71,358,45,85,22,063,,67,42,315,49,75,20,058,32*67
$GLGSV,3,2,10,84,11,011,27,65,16,180,,77,43,266,35,66,58,221,48*62
$GLGSV,3,3,10,68,01,339,,86,07,114,*6F
$GAGSV,3,1,10,02,81,190,50,07,32,310,39,16,16,052,,18,30,153,*69
$GAGSV,3,2,10,30,28,226,32,03,35,156,41,25,40,055,35,08,74,238,47*60
$GAGSV,3,3,10,12,04,029,,10,03,051,*63
$GBGSV,5,1,19,26,82,331,49,29,23,071,32,21,17,186,37,35,16,130,*65
$GBGSV,5,2,19,40,25,041,34,05,20,130,,07,26,053,25,24,34,263,41*61
$GBGSV,5,3,19,50,33,205,,33,31,307,47,45,33,072,46,10,37,064,38*68
$GBGSV,5,4,19,14,45,277,42,56,37,072,,42,46,236,47,30,03,021,*63
$GBGSV,5,5,19,02,04,109,,11,02,250,,60,07,111,*58
$GPGGA,102942.00,,,,,0,00,,,M,,M,,*44
$PTNL,GGK,102942.00,010125,4742.4462011,N,01617.9727701,E,1,21,1.2,EHT670.3397,M*44
$GPGGQ,102942.00,010125,4742.4462011,N,01617.9727701,E,1,21,2.981,627.1287,M*3B
$GPGFA,102942.00,10.324,22.157,1.086,0.637,21.539,2.702,,VVV*3E
$GPLLK,102942.00,010125,,M,,M,1,21,1.4,,M*01
$GNGMP,102942.00,,,,,DAAA,21,0.6,,,,*5F
$GPGMP,102942.00,,,,,,06,,,,3.5,123*71
$GLGMP,102942.00,,,,,,03,,,,,*70
$GAGMP,102942.00,,,,,,04,,,,,*7A
$GBGMP,102942.00,,,,,,08,,,,,*75
$PSSN,SNC,[0,297000000,2347]*48
$GPZDA,102947.00,01,01,2025,,*6A
$GPDTM,W84,,00.0000000,N,00.0000000,E,00.0000000,W84*5F
$GPRMC,102947.00,A,4742.4462002,N,01617.9727941,E,0.0,,010125,5.1,E,D*11
$GPGLL,4742.4462002,N,01617.9727941,E,102947.00,A,D*60
$GPGGA,102947.00,4742.4462002,N,01617.9727941,E,2,23,0.6,627.1297,M,43.2111,M,2.5,0123*47
$GNGNS,102947.00,4742.4462002,N,01617.9727941,E,DAAA,23,0.6,627.1297,43.2111,,*5C
$GPGNS,102947.00,,,,,,06,,,,2.5,123*75
$GLGNS,102947.00,,,,,,04,,,,,*72
$GAGNS,102947.00,,,,,,05,,,,,*7E
$GBGNS,102947.00,,,,,,08,,,,,*70
$GPLLQ,102947.00,010125,,M,,M,1,23,3.135,,M*1D
$GPVTG,,T,,M,0.01,N,0.01,K,D*26
$GPHDT,,T*1B
$GPTHS,,V*0E
$GPROT,,V*08
$PSSN,HRP,102947.00,010125,,,,,,,00,0,,*68
$PTNL,AVR,102947.00,,Yaw,,Tilt,,,,0,,00*3E
$GPGSA,A,3,10,13,14,15,17,24,,,,,,,1.2,0.6,1.1*35
$GPGSA,A,3,66,67,76,77,,,,,,,,,1.2,0.6,1.1*37
$GPGSA,A,3,02,03,07,08,25,,,,,,,,1.2,0.6,1.1*3E
$GPGSA,A,3,10,14,21,24,26,33,42,45,,,,,1.2,0.6,1.1*35
$GPGST,102947.00,3.812,1.137,0.679,21.428,1.087,0.756,2.841*62
$GPGBS,102947.00,5.306,3.298,13.836,17,0.0001,-1.945,0.856*41
$GPGRS,102947.00,1,1.2,-0.5,-0.4,0.7,-1.9,1.1,,,,,,*67
$GPGRS,102947.00,1,0.3,6.5,-2.9,-5.4,,,,,,,,*4D
$GPGRS,102947.00,1,0.6,-2.2,-0.2,0.4,-1.0,,,,,,,*45
$GPGRS,102947.00,1,-0.3,-0.9,9.9,-5.3,1.2,-1.5,-0.5,-3.0,,,,*4A
$GPGSV,5,1,17,15,59,216,42,10,12,326,39,23,23,285,32,12,23,228,*7B
$GPGSV,5,2,17,19,38,125,29,14,29,057,42,13,45,156,40,17,40,082,41*74
$GPGSV,5,3,17,22,50,058,,24,53,293,42,02,04,032,,21,01,013,*78
$GPGSV,5,4,17,30,03,100,,36,35,170,36,34,31,208,,49,34,195,*77
$GPGSV,5,5,17,61,03,257,*4B
$GLGSV,3,1,10,76,71,358,45,85,22,063,32,67,42,315,50,75,20,058,33*6F
$GLGSV,3,2,10,84,11,011,28,65,16,180,28,77,43,266,37,66,58,220,47*6B
$GLGSV,3,3,10,68,01,339,,86,07,114,*6F
$GAGSV,3,1,10,02,82,190,50,07,32,310,39,16,16,052,,18,30,153,*6A
$GAGSV,3,2,10,30,28,227,29,03,35,156,40,25,40,055,35,08,74,238,47*6A
$GAGSV,3,3,10,12,04,029,,10,03,051,*63
$GBGSV,5,1,19,26,82,332,49,29,23,071,31,21,17,186,37,35,16,130,*65
$GBGSV,5,2,19,40,25,041,34,05,20,130,,07,26,053,26,24,34,263,40*63
$GBGSV,5,3,19,50,33,205,,33,31,307,47,45,33,072,46,10,37,064,38*68
$GBGSV,5,4,19,14,45,277,42,56,37,072,,42,46,236,48,30,03,021,*6C
$GBGSV,5,5,19,02,04,109,,11,02,250,,60,07,111,*58
$GPGGA,102947.00,,,,,0,00,,,M,,M,,*41
$PTNL,GGK,102947.00,010125,4742.4462002,N,01617.9727941,E,1,23,1.2,EHT670.3407,M*45
$GPGGQ,102947.00,010125,4742.4462002,N,01617.9727941,E,1,23,3.135,627.1297,M*33
$GPGFA,102947.00,10.805,23.300,1.137,0.679,21.428,2.841,,VVV*3A
$GPLLK,102947.00,010125,,M,,M,1,23,1.4,,M*06
$GNGMP,102947.00,,,,,DAAA,23,0.6,,,,*58
$GPGMP,102947.00,,,,,,06,,,,2.5,123*75
$GLGMP,102947.00,,,,,,04,,,,,*72
$GAGMP,102947.00,,,,,,05,,,,,*7E
$GBGMP,102947.00,,,,,,08,,,,,*70
$PSSN,SNC,[0,297005000,2347]*4D
$GPZDA,102952.00,01,01,2025,,*6E
$GPDTM,W84,,00.0000000,N,00.0000000,E,00.0000000,W84*5F
$GPRMC,102952.00,A,4742.4461904,N,01617.9728158,E,0.0,,010125,5.1,E,D*16
$GPGLL,4742.4461904,N,01617.9728158,E,102952.00,A,D*67
$GPGGA,102952.00,4742.4461904,N,01617.9728158,E,2,24,0.6,627.1318,M,43.2111,M,1.4,0123*43
$GNGNS,102952.00,4742.4461904,N,01617.9728158,E,DAAA,24,0.6,627.1318,43.2111,,*5A
$GPGNS,102952.00,,,,,,07,,,,1.4,123*72
$GLGNS,102952.00,,,,,,04,,,,,*76
$GAGNS,102952.00,,,,,,05,,,,,*7A
$GBGNS,102952.00,,,,,,08,,,,,*74
$GPLLQ,102952.00,010125,,M,,M,1,24,2.824,,M*16
$GPVTG,,T,,M,0.00,N,0.00,K,D*26
$GPHDT,,T*1B
$GPTHS,,V*0E
$GPROT,,V*08
$PSSN,HRP,102952.00,010125,,,,,,,00,0,,*6C
$PTNL,AVR,102952.00,,Yaw,,Tilt,,,,0,,00*3A
$GPGSA,A,3,10,13,14,15,17,23,24,,,,,,1.2,0.6,1.0*35
$GPGSA,A,3,66,67,76,77,,,,,,,,,1.2,0.6,1.0*36
$GPGSA,A,3,02,03,07,08,25,,,,,,,,1.2,0.6,1.0*3F
$GPGSA,A,3,10,14,21,24,26,33,42,45,,,,,1.2,0.6,1.0*34
$GPGST,102952.00,4.048,1.123,0.649,10.079,1.111,0.668,2.509*61
$GPGBS,102952.00,4.662,2.528,9.666,10,0.0001,3.157,1.160*50
$GPGRS,102952.00,1,3.2,-1.1,-0.7,-0.4,-0.2,-0.0,1.2,,,,,*43
$GPGRS,102952.00,1,-0.5,6.3,-2.6,-5.6,,,,,,,,*69
$GPGRS,102952.00,1,1.0,-2.7,-1.0,0.1,-1.6,,,,,,,*43
$GPGRS,102952.00,1,0.2,-0.6,11.5,-5.2,1.5,-1.4,-0.8,-3.3,,,,*51
$GPGSV,5,1,17,15,59,216,43,10,12,326,39,23,23,285,37,12,23,228,33*7F
$GPGSV,5,2,17,19,38,125,,14,29,057,42,13,45,156,40,17,40,082,41*7F
$GPGSV,5,3,17,22,50,058,,24,53,293,41,02,04,032,,21,01,013,*7B
$GPGSV,5,4,17,30,03,100,,36,35,170,36,34,31,208,,49,34,195,*77
$GPGSV,5,5,17,61,03,257,*4B
$GLGSV,3,1,10,76,71,359,46,85,22,062,22,67,42,315,50,75,20,058,36*68
$GLGSV,3,2,10,84,11,011,,65,16,180,31,77,43,266,38,66,58,220,48*69
$GLGSV,3,3,10,68,01,339,,86,07,114,*6F
$GAGSV,3,1,10,02,82,190,50,07,32,310,39,16,16,052,,18,30,153,*6A
$GAGSV,3,2,10,30,28,227,25,03,35,156,39,25,40,055,36,08,74,238,48*64
$GAGSV,3,3,10,12,04,029,,10,03,051,*63
$GBGSV,5,1,19,26,82,332,49,29,23,071,30,21,17,186,36,35,16,130,*65
$GBGSV,5,2,19,40,25,041,34,05,20,130,,07,26,053,26,24,34,263,41*62
$GBGSV,5,3,19,50,33,205,,33,31,307,47,45,33,072,45,10,37,064,37*64
$GBGSV,5,4,19,56,37,072,,14,45,277,43,42,46,236,48,30,03,021,*6D
$GBGSV,5,5,19,02,04,109,,11,02,250,,60,07,111,*58
$GPGGA,102952.00,,,,,0,00,,,M,,M,,*45
$PTNL,GGK,102952.00,010125,4742.4461904,N,01617.9728158,E,1,24,1.2,EHT670.3428,M*48
$GPGGQ,102952.00,010125,4742.4461904,N,01617.9728158,E,1,24,2.824,627.1318,M*3D
$GPGFA,102952.00,10.675,20.574,1.123,0.649,10.079,2.509,,VVV*34
$GPLLK,102952.00,010125,,M,,M,1,24,1.4,,M*05
$GNGMP,102952.00,,,,,DAAA,24,0.6,,,,*5B
$GPGMP,102952.00,,,,,,07,,,,1.4,123*72
$GLGMP,102952.00,,,,,,04,,,,,*76
$GAGMP,102952.00,,,,,,05,,,,,*7A
$GBGMP,102952.00,,,,,,08,,,,,*74
$PSSN,SNC,[0,297010000,2347]*49
$GPZDA,102957.00,01,01,2025,,*6B
$GPDTM,W84,,00.0000000,N,00.0000000,E,00.0000000,W84*5F
$GPRMC,102957.00,A,4742.4461772,N,01617.9728297,E,0.0,,010125,5.1,E,D*1C
$GPGLL,4742.4461772,N,01617.9728297,E,102957.00,A,D*6D
$GPGGA,102957.00,4742.4461772,N,01617.9728297,E,2,24,0.6,627.1384,M,43.2111,M,2.4,0123*4F
$GNGNS,102957.00,4742.4461772,N,01617.9728297,E,DAAA,24,0.6,627.1384,43.2111,,*55
$GPGNS,102957.00,,,,,,07,,,,2.4,123*74
$GLGNS,102957.00,,,,,,04,,,,,*73
$GAGNS,102957.00,,,,,,05,,,,,*7F
$GBGNS,102957.00,,,,,,08,,,,,*71
$GPLLQ,102957.00,010125,,M,,M,1,24,3.326,,M*1B
$GPVTG,,T,,M,0.00,N,0.00,K,D*26
$GPHDT,,T*1B
$GPTHS,,V*0E
$GPROT,,V*08
$PSSN,HRP,102957.00,010125,,,,,,,00,0,,*69
$PTNL,AVR,102957.00,,Yaw,,Tilt,,,,0,,00*3F
$GPGSA,A,3,10,13,14,15,17,23,24,,,,,,1.2,0.6,1.0*35
$GPGSA,A,3,66,67,76,77,,,,,,,,,1.2,0.6,1.0*36
$GPGSA,A,3,02,03,07,08,25,,,,,,,,1.2,0.6,1.0*3F
$GPGSA,A,3,10,14,21,24,26,33,42,45,,,,,1.2,0.6,1.0*34
$GPGST,102957.00,4.111,1.275,0.734,9.030,1.264,0.752,2.982*51
$GPGBS,102957.00,4.745,2.552,9.849,10,0.0001,4.393,1.172*51
$GPGRS,102957.00,1,4.4,-1.2,-1.1,-0.9,0.4,-0.4,1.8,,,,,*6B
$GPGRS,102957.00,1,0.1,5.6,-1.7,-6.9,,,,,,,,*4D
$GPGRS,102957.00,1,0.8,-2.5,-1.4,0.0,-2.2,,,,,,,*4F
$GPGRS,102957.00,1,-1.0,0.5,11.6,-3.1,1.2,-1.6,-0.8,-4.0,,,,*53
$GPGSV,5,1,17,15,59,216,44,10,12,326,37,23,23,285,41,12,23,228,33*77
$GPGSV,5,2,17,19,38,125,,14,29,057,42,13,45,156,39,17,40,082,42*72
$GPGSV,5,3,17,22,50,058,,24,53,293,39,02,04,032,,21,01,013,*74
$GPGSV,5,4,17,30,03,100,,36,35,170,36,34,31,208,,49,34,195,*77
$GPGSV,5,5,17,61,03,257,*4B
$GLGSV,3,1,10,76,71,359,46,85,22,062,23,67,42,315,50,75,20,058,36*69
$GLGSV,3,2,10,84,11,011,,65,16,180,32,77,43,266,38,66,58,220,48*6A
$GLGSV,3,3,10,68,01,339,,86,07,114,*6F
$GAGSV,3,1,10,02,82,190,50,07,32,310,39,16,16,052,,18,30,153,*6A
$GAGSV,3,2,10,30,28,227,25,03,35,156,38,25,40,055,36,08,74,238,48*65
$GAGSV,3,3,10,12,04,029,,10,03,051,*63
$GBGSV,5,1,19,26,82,332,49,29,23,070,30,21,17,186,36,35,16,130,*64
$GBGSV,5,2,19,40,25,041,34,05,20,130,,07,26,053,28,24,34,263,41*6C
$GBGSV,5,3,19,50,33,205,,33,31,307,47,45,33,072,45,10,37,064,37*64
$GBGSV,5,4,19,56,37,072,,14,45,277,44,42,46,236,49,30,03,021,*6B
$GBGSV,5,5,19,02,04,109,,11,02,250,,60,07,111,*58
$GPGGA,102957.00,,,,,0,00,,,M,,M,,*40
$PTNL,GGK,102957.00,010125,4742.4461772,N,01617.9728297,E,1,24,1.2,EHT670.3494,M*45
$GPGGQ,102957.00,010125,4742.4461772,N,01617.9728297,E,1,24,3.326,627.1384,M*3A
$GPGFA,102957.00,12.122,24.456,1.275,0.734,9.030,2.982,,VVV*02
$GPLLK,102957.00,010125,,M,,M,1,24,1.4,,M*00
$GNGMP,102957.00,,,,,DAAA,24,0.6,,,,*5E
$GPGMP,102957.00,,,,,,07,,,,2.4,123*74
$GLGMP,102957.00,,,,,,04,,,,,*73
$GAGMP,102957.00,,,,,,05,,,,,*7F
$GBGMP,102957.00,,,,,,08,,,,,*71
$PSSN,SNC,[0,297015000,2347]*4C
$GPZDA,103002.00,01,01,2025,,*63
$GPDTM,W84,,00.0000000,N,00.0000000,E,00.0000000,W84*5F
$GPRMC,103002.00,A,4742.4461654,N,01617.9728402,E,0.0,,010125,5.1,E,D*1B
$GPGLL,4742.4461654,N,01617.9728402,E,103002.00,A,D*6A
$GPGGA,103002.00,4742.4461654,N,01617.9728402,E,2,22,0.7,627.1468,M,43.2111,M,3.3,0123*4C
$GNGNS,103002.00,4742.4461654,N,01617.9728402,E,DAAA,22,0.7,627.1468,43.2111,,*50
$GPGNS,103002.00,,,,,,06,,,,3.3,123*7B
$GLGNS,103002.00,,,,,,04,,,,,*7B
$GAGNS,103002.00,,,,,,05,,,,,*77
$GBGNS,103002.00,,,,,,07,,,,,*76
$GPLLQ,103002.00,010125,,M,,M,1,22,2.205,,M*14
$GPVTG,,T,,M,0.00,N,0.00,K,D*26
$GPHDT,,T*1B
$GPTHS,,V*0E
$GPROT,,V*08
$PSSN,HRP,103002.00,010125,,,,,,,00,0,,*61
$PTNL,AVR,103002.00,,Yaw,,Tilt,,,,0,,00*37
$GPGSA,A,3,13,14,15,17,23,24,,,,,,,1.5,0.7,1.3*31
$GPGSA,A,3,66,67,76,77,,,,,,,,,1.5,0.7,1.3*33
$GPGSA,A,3,02,03,07,08,25,,,,,,,,1.5,0.7,1.3*3A
$GPGSA,A,3,10,14,24,26,33,42,45,,,,,,1.5,0.7,1.3*32
$GPGST,103002.00,2.851,0.807,0.461,6.766,0.803,0.467,2.000*58
$GPGBS,103002.00,5.056,2.604,13.054,14,0.0001,-1.412,1.034*43
$GPGRS,103002.00,1,-0.7,-1.4,0.1,1.1,0.0,0.4,,,,,,*49
$GPGRS,103002.00,1,-0.8,5.8,-1.1,-7.1,,,,,,,,*60
$GPGRS,103002.00,1,1.1,-1.5,-1.3,0.3,-1.5,,,,,,,*4C
$GPGRS,103002.00,1,-1.2,2.1,-0.5,1.1,-1.3,-0.5,-3.9,,,,,*45
$GPGSV,5,1,17,15,59,216,45,10,12,326,34,23,23,285,42,12,23,228,34*71
$GPGSV,5,2,17,19,38,125,,14,29,057,41,13,45,156,39,17,40,082,42*71
$GPGSV,5,3,17,22,50,058,,24,53,293,39,02,04,032,,21,01,013,*74
$GPGSV,5,4,17,30,03,100,,36,35,170,35,34,31,208,,49,34,195,*74
$GPGSV,5,5,17,61,03,257,*4B
$GLGSV,3,1,10,76,71,359,46,85,22,062,35,67,42,315,49,75,20,058,*63
$GLGSV,3,2,10,84,11,011,33,65,16,180,34,77,43,266,39,66,58,220,46*63
$GLGSV,3,3,10,68,01,339,,86,07,114,*6F
$GAGSV,3,1,10,02,82,190,50,07,32,310,39,16,16,052,,18,30,153,*6A
$GAGSV,3,2,10,30,28,227,27,03,35,156,38,25,40,055,36,08,74,238,48*67
$GAGSV,3,3,10,12,04,029,,10,03,051,*63
$GBGSV,5,1,19,26,82,333,50,29,23,070,30,21,17,186,35,35,16,130,*6E
$GBGSV,5,2,19,40,25,041,34,05,20,130,,07,26,053,28,24,34,263,42*6F
$GBGSV,5,3,19,50,33,205,,33,31,307,48,45,33,072,45,10,37,064,37*6B
$GBGSV,5,4,19,56,37,072,,14,45,277,44,42,46,236,49,30,03,021,*6B
$GBGSV,5,5,19,02,04,109,,11,02,250,,60,07,111,*58
$GPGGA,103002.00,,,,,0,00,,,M,,M,,*48
$PTNL,GGK,103002.00,010125,4742.4461654,N,01617.9728402,E,1,22,1.5,EHT670.3578,M*40
$GPGGQ,103002.00,010125,4742.4461654,N,01617.9728402,E,1,22,2.205,627.1468,M*3F
$GPGFA,103002.00,7.674,16.399,0.807,0.461,6.766,2.000,,VVV*3A
$GPLLK,103002.00,010125,,M,,M,1,22,1.8,,M*02
$GNGMP,103002.00,,,,,DAAA,22,0.7,,,,*51
$GPGMP,103002.00,,,,,,06,,,,3.3,123*7B
$GLGMP,103002.00,,,,,,04,,,,,*7B
$GAGMP,103002.00,,,,,,05,,,,,*77
$GBGMP,103002.00,,,,,,07,,,,,*76
$PSSN,SNC,[0,297020000,2347]*4A
$GPZDA,103007.00,01,01,2025,,*66
$GPDTM,W84,,00.0000000,N,00.0000000,E,00.0000000,W84*5F
$GPRMC,103007.00,A,4742.4461648,N,01617.9728398,E,0.0,,010125,5.1,E,D*17
$GPGLL,4742.4461648,N,01617.9728398,E,103007.00,A,D*66
$GPGGA,103007.00,4742.4461648,N,01617.9728398,E,2,23,0.7,627.1394,M,43.2111,M,3.0,0123*46
$GNGNS,103007.00,4742.4461648,N,01617.9728398,E,DAAA,23,0.7,627.1394,43.2111,,*59
$GPGNS,103007.00,,,,,,06,,,,3.0,123*7D
$GLGNS,103007.00,,,,,,05,,,,,*7F
$GAGNS,103007.00,,,,,,05,,,,,*72
$GBGNS,103007.00,,,,,,07,,,,,*73
$GPLLQ,103007.00,010125,,M,,M,1,23,2.708,,M*18
$GPVTG,,T,,M,0.01,N,0.01,K,D*26
$GPHDT,,T*1B
$GPTHS,,V*0E
$GPROT,,V*08
$PSSN,HRP,103007.00,010125,,,,,,,00,0,,*64
$PTNL,AVR,103007.00,,Yaw,,Tilt,,,,0,,00*32
$GPGSA,A,3,13,14,15,17,23,24,,,,,,,1.4,0.7,1.3*30
$GPGSA,A,3,66,67,76,77,85,,,,,,,,1.4,0.7,1.3*3F
$GPGSA,A,3,02,03,07,08,25,,,,,,,,1.4,0.7,1.3*3B
$GPGSA,A,3,10,14,24,26,33,42,45,,,,,,1.4,0.7,1.3*33
$GPGST,103007.00,3.637,0.977,0.539,10.005,0.967,0.557,2.467*69
$GPGBS,103007.00,5.012,2.680,13.035,23,0.0001,-1.461,0.924*44
$GPGRS,103007.00,1,0.5,-1.5,-0.3,1.0,-1.5,0.7,,,,,,*66
$GPGRS,103007.00,1,-2.0,6.3,-1.1,-6.5,9.2,,,,,,,*47
$GPGRS,103007.00,1,0.8,-1.3,-1.7,-0.1,-2.1,,,,,,,*6B
$GPGRS,103007.00,1,-1.0,1.4,-0.5,0.5,-1.7,-1.3,-3.9,,,,,*42
$GPGSV,5,1,17,15,59,216,46,10,12,326,34,23,23,285,42,12,23,228,29*7E
$GPGSV,5,2,17,19,38,125,29,14,29,057,40,13,45,156,38,17,40,082,44*7C
$GPGSV,5,3,17,22,50,058,,24,53,293,40,02,04,032,,21,01,013,*7A
$GPGSV,5,4,17,30,03,100,,36,35,170,35,34,31,208,,49,34,195,*74
$GPGSV,5,5,17,61,03,257,*4B
$GLGSV,3,1,10,76,71,359,46,85,22,062,37,67,42,315,50,75,20,058,*69
$GLGSV,3,2,10,84,11,011,35,65,16,180,34,77,43,266,38,66,58,220,46*64
$GLGSV,3,3,10,68,01,339,,86,07,114,*6F
$GAGSV,3,1,10,02,82,190,50,07,32,310,39,16,16,052,,18,30,153,*6A
$GAGSV,3,2,10,30,28,227,31,03,35,156,38,25,40,055,36,08,74,237,48*6F
$GAGSV,3,3,10,12,04,029,,10,03,051,*63
$GBGSV,5,1,19,26,82,333,50,29,23,070,30,21,17,186,33,35,16,130,*68
$GBGSV,5,2,19,40,25,041,35,05,20,130,,07,26,053,29,24,34,263,43*6E
$GBGSV,5,3,19,50,33,205,,33,31,307,48,45,33,072,45,10,37,064,36*6A
$GBGSV,5,4,19,56,37,072,,14,45,277,44,42,46,236,49,30,03,021,*6B
$GBGSV,5,5,19,02,04,109,,11,02,250,,60,07,111,*58
$GPGGA,103007.00,,,,,0,00,,,M,,M,,*4D
$PTNL,GGK,103007.00,010125,4742.4461648,N,01617.9728398,E,1,23,1.4,EHT670.3505,M*46
$GPGGQ,103007.00,010125,4742.4461648,N,01617.9728398,E,1,23,2.708,627.1394,M*3E
$GPGFA,103007.00,9.288,20.232,0.977,0.539,10.005,2.467,,VVV*09
$GPLLK,103007.00,010125,,M,,M,1,23,1.7,,M*09
$GNGMP,103007.00,,,,,DAAA,23,0.7,,,,*55
$GPGMP,103007.00,,,,,,06,,,,3.0,123*7D
$GLGMP,103007.00,,,,,,05,,,,,*7F
$GAGMP,103007.00,,,,,,05,,,,,*72
$GBGMP,103007.00,,,,,,07,,,,,*73
$PSSN,SNC,[0,297025000,2347]*4F
$GPZDA,103012.00,01,01,2025,,*62
$GPDTM,W84,,00.0000000,N,00.0000000,E,00.0000000,W84*5F
$GPRMC,103012.00,A,4742.4461686,N,01617.9728212,E,0.0,,010125,5.1,E,D*12
$GPGLL,4742.4461686,N,01617.9728212,E,103012.00,A,D*63
$GPGGA,103012.00,4742.4461686,N,01617.9728212,E,2,22,0.8,627.1072,M,43.2111,M,1.2,0123*46
$GNGNS,103012.00,4742.4461686,N,01617.9728212,E,DAAA,22,0.8,627.1072,43.2111,,*59
$GPGNS,103012.00,,,,,,05,,,,1.2,123*7A
$GLGNS,103012.00,,,,,,05,,,,,*7B
$GAGNS,103012.00,,,,,,05,,,,,*76
$GBGNS,103012.00,,,,,,07,,,,,*77
$GPLLQ,103012.00,010125,,M,,M,1,22,4.160,,M*13
$GPVTG,,T,,M,0.01,N,0.01,K,D*26
$GPHDT,,T*1B
$GPTHS,,V*0E
$GPROT,,V*08
$PSSN,HRP,103012.00,010125,,,,,,,00,0,,*60
$PTNL,AVR,103012.00,,Yaw,,Tilt,,,,0,,00*36
$GPGSA,A,3,14,15,17,23,24,,,,,,,,1.5,0.8,1.3*3C
$GPGSA,A,3,66,67,76,77,85,,,,,,,,1.5,0.8,1.3*31
$GPGSA,A,3,02,03,07,08,25,,,,,,,,1.5,0.8,1.3*35
$GPGSA,A,3,10,14,24,26,33,42,45,,,,,,1.5,0.8,1.3*3D
$GPGST,103012.00,5.371,1.932,0.797,357.209,1.930,0.802,3.597*55
$GPGBS,103012.00,7.873,2.792,14.067,23,0.0001,-2.309,0.886*4C
$GPGRS,103012.00,1,-1.4,-0.4,1.5,-2.3,0.4,,,,,,,*4C
$GPGRS,103012.00,1,-3.6,6.9,-0.2,-8.5,16.1,,,,,,,*7F
$GPGRS,103012.00,1,0.6,-1.1,-1.4,0.3,-1.5,,,,,,,*48
$GPGRS,103012.00,1,-0.9,1.4,-1.0,0.5,-1.4,-1.7,-3.9,,,,,*4D
$GPGSV,5,1,17,15,59,216,47,10,12,326,33,23,23,285,42,12,23,228,36*76
$GPGSV,5,2,17,19,38,125,,14,29,057,37,13,45,156,38,17,40,082,46*75
$GPGSV,5,3,17,22,50,058,,24,53,293,41,02,04,031,,21,01,013,*78
$GPGSV,5,4,17,30,03,100,,36,35,170,35,34,31,208,,49,34,195,*74
$GPGSV,5,5,17,61,03,257,*4B
$GLGSV,3,1,10,76,71,359,47,85,22,062,37,67,42,315,50,75,20,058,32*69
$GLGSV,3,2,10,84,11,011,35,65,16,180,34,77,43,266,35,66,58,220,47*68
$GLGSV,3,3,10,68,01,339,,86,07,114,*6F
$GAGSV,3,1,10,02,82,190,50,07,32,310,39,16,16,052,,18,30,153,*6A
$GAGSV,3,2,10,30,28,227,33,03,35,156,38,25,40,055,37,08,74,237,48*6C
$GAGSV,3,3,10,12,04,029,,10,03,051,*63
$GBGSV,5,1,19,26,82,333,50,29,23,070,31,21,17,186,31,35,16,130,*6B
$GBGSV,5,2,19,40,25,041,35,05,20,130,,07,26,053,30,24,34,263,42*67
$GBGSV,5,3,19,50,33,205,,33,31,307,48,45,33,072,45,10,37,064,36*6A
$GBGSV,5,4,19,56,37,072,,14,45,277,44,42,46,236,49,30,03,021,*6B
$GBGSV,5,5,19,02,04,109,,11,02,250,,60,07,111,*58
$GPGGA,103012.00,,,,,0,00,,,M,,M,,*49
$PTNL,GGK,103012.00,010125,4742.4461686,N,01617.9728212,E,1,22,1.5,EHT670.3183,M*49
$GPGGQ,103012.00,010125,4742.4461686,N,01617.9728212,E,1,22,4.160,627.1072,M*3F
$GPGFA,103012.00,18.365,29.494,1.932,0.797,357.209,3.597,,VVV*0B
$GPLLK,103012.00,010125,,M,,M,1,22,1.7,,M*0C
$GNGMP,103012.00,,,,,DAAA,22,0.8,,,,*5F
$GPGMP,103012.00,,,,,,05,,,,1.2,123*7A
$GLGMP,103012.00,,,,,,05,,,,,*7B
$GAGMP,103012.00,,,,,,05,,,,,*76
$GBGMP,103012.00,,,,,,07,,,,,*77
$PSSN,SNC,[0,297030000,2347]*4B
$GPZDA,103017.00,01,01,2025,,*67
$GPDTM,W84,,00.0000000,N,00.0000000,E,00.0000000,W84*5F
$GPRMC,103017.00,A,4742.4461675,N,01617.9728050,E,0.0,,010125,5.1,E,D*1F
$GPGLL,4742.4461675,N,01617.9728050,E,103017.00,A,D*6E
$GPGGA,103017.00,4742.4461675,N,01617.9728050,E,2,21,0.8,627.0839,M,43.2111,M,2.0,0123*4F
$GNGNS,103017.00,4742.4461675,N,01617.9728050,E,DAAA,21,0.8,627.0839,43.2111,,*51
$GPGNS,103017.00,,,,,,04,,,,2.0,123*7F
$GLGNS,103017.00,,,,,,04,,,,,*7F
$GAGNS,103017.00,,,,,,05,,,,,*73
$GBGNS,103017.00,,,,,,08,,,,,*7D
$GPLLQ,103017.00,010125,,M,,M,1,21,3.782,,M*18
$GPVTG,,T,,M,0.01,N,0.02,K,D*25
$GPHDT,,T*1B
$GPTHS,,V*0E
$GPROT,,V*08
$PSSN,HRP,103017.00,010125,,,,,,,00,0,,*65
$PTNL,AVR,103017.00,,Yaw,,Tilt,,,,0,,00*33
$GPGSA,A,3,15,17,23,24,,,,,,,,,1.5,0.8,1.3*39
$GPGSA,A,3,66,67,76,85,,,,,,,,,1.5,0.8,1.3*31
$GPGSA,A,3,02,03,07,08,25,,,,,,,,1.5,0.8,1.3*35
$GPGSA,A,3,10,14,24,26,33,40,42,45,,,,,1.5,0.8,1.3*39
$GPGST,103017.00,6.250,1.816,0.802,0.821,1.816,0.803,3.219*51
$GPGBS,103017.00,8.279,4.395,14.841,85,0.0001,21.171,6.453*50
$GPGRS,103017.00,1,-0.3,1.3,-1.2,0.2,,,,,,,,*4A
$GPGRS,103017.00,1,-2.8,6.0,0.3,21.2,,,,,,,,*59
$GPGRS,103017.00,1,0.7,-1.2,-0.8,0.1,-1.4,,,,,,,*41
$GPGRS,103017.00,1,-0.7,1.5,-1.1,0.3,-1.0,5.0,-1.7,-3.7,,,,*61
$GPGSV,5,1,17,15,59,216,48,10,12,326,33,23,23,285,42,12,23,228,35*7A
$GPGSV,5,2,17,19,38,125,,14,29,057,34,13,45,156,36,17,40,082,47*79
$GPGSV,5,3,17,22,50,058,,24,53,293,41,02,04,031,,21,01,013,*78
$GPGSV,5,4,17,30,03,100,,36,35,170,36,34,31,208,,49,34,195,*77
$GPGSV,5,5,17,61,03,257,*4B
$GLGSV,3,1,10,76,71,359,45,85,22,062,35,67,42,315,50,75,20,058,36*6D
$GLGSV,3,2,10,84,11,011,32,65,16,180,33,77,43,266,34,66,58,220,48*66
$GLGSV,3,3,10,68,01,339,,86,07,114,*6F
$GAGSV,3,1,10,02,82,190,49,07,32,310,39,16,16,052,,18,30,153,*62
$GAGSV,3,2,10,30,28,227,35,03,35,156,39,25,40,055,37,08,74,237,48*6B
$GAGSV,3,3,10,12,04,029,,10,03,051,*63
$GBGSV,5,1,19,26,82,333,50,29,23,070,32,21,17,186,29,35,16,130,*61
$GBGSV,5,2,19,40,25,041,35,05,20,130,,07,26,053,30,24,34,263,42*67
$GBGSV,5,3,19,50,33,205,,33,31,307,48,45,33,072,45,10,37,064,36*6A
$GBGSV,5,4,19,56,37,072,,14,45,277,43,42,46,236,49,30,03,021,*6C
$GBGSV,5,5,19,02,04,109,,11,02,250,,60,07,111,*58
$GPGGA,103017.00,,,,,0,00,,,M,,M,,*4C
$PTNL,GGK,103017.00,010125,4742.4461675,N,01617.9728050,E,1,21,1.5,EHT670.2949,M*48
$GPGGQ,103017.00,010125,4742.4461675,N,01617.9728050,E,1,21,3.782,627.0839,M*3A
$GPGFA,103017.00,17.271,26.394,1.816,0.802,0.821,3.219,,VVV*09
$GPLLK,103017.00,010125,,M,,M,1,21,1.7,,M*0A
$GNGMP,103017.00,,,,,DAAA,21,0.8,,,,*59
$GPGMP,103017.00,,,,,,04,,,,2.0,123*7F
$GLGMP,103017.00,,,,,,04,,,,,*7F
$GAGMP,103017.00,,,,,,05,,,,,*73
$GBGMP,103017.00,,,,,,08,,,,,*7D
$PSSN,SNC,[0,297035000,2347]*4E
$GPZDA,103022.00,01,01,2025,,*61
$GPDTM,W84,,00.0000000,N,00.0000000,E,00.0000000,W84*5F
$GPRMC,103022.00,A,4742.4461640,N,01617.9727901,E,0.0,,010125,5.1,E,D*1D
$GPGLL,4742.4461640,N,01617.9727901,E,103022.00,A,D*6C
$GPGGA,103022.00,4742.4461640,N,01617.9727901,E,2,21,0.7,627.0855,M,43.2111,M,3.0,0123*49
$GNGNS,103022.00,4742.4461640,N,01617.9727901,E,DAAA,21,0.7,627.0855,43.2111,,*56
$GPGNS,103022.00,,,,,,04,,,,3.0,123*78
$GLGNS,103022.00,,,,,,03,,,,,*7E
$GAGNS,103022.00,,,,,,06,,,,,*76
$GBGNS,103022.00,,,,,,08,,,,,*7B
$GPLLQ,103022.00,010125,,M,,M,1,21,2.602,,M*16
$GPVTG,,T,,M,0.00,N,0.01,K,D*27
$GPHDT,,T*1B
$GPTHS,,V*0E
$GPROT,,V*08
$PSSN,HRP,103022.00,010125,,,,,,,00,0,,*63
$PTNL,AVR,103022.00,,Yaw,,Tilt,,,,0,,00*35
$GPGSA,A,3,15,17,23,24,,,,,,,,,1.4,0.7,1.2*36
$GPGSA,A,3,66,67,76,,,,,,,,,,1.4,0.7,1.2*33
$GPGSA,A,3,02,03,07,08,25,30,,,,,,,1.4,0.7,1.2*39
$GPGSA,A,3,10,14,24,26,33,40,42,45,,,,,1.4,0.7,1.2*36
$GPGST,103022.00,2.806,1.242,0.557,0.487,1.242,0.557,2.217*54
$GPGBS,103022.00,8.116,4.516,14.722,17,0.0001,1.482,0.799*68
$GPGRS,103022.00,1,-0.6,1.5,0.1,-0.8,,,,,,,,*47
$GPGRS,103022.00,1,-3.3,5.7,-1.0,,,,,,,,,*61
$GPGRS,103022.00,1,1.0,-1.5,-1.1,0.2,-1.2,2.1,,,,,,*66
$GPGRS,103022.00,1,-0.4,1.5,-1.6,0.5,-0.9,5.7,-2.0,-3.1,,,,*68
$GPGSV,5,1,17,15,59,216,48,10,12,326,34,23,23,285,43,12,23,228,35*7C
$GPGSV,5,2,17,19,38,125,25,14,28,057,30,13,45,156,,17,40,082,48*71
$GPGSV,5,3,17,22,50,058,,24,53,293,38,02,04,031,,21,01,013,*76
$GPGSV,5,4,17,30,03,100,,36,35,170,35,34,31,208,,49,34,195,*74
$GPGSV,5,5,17,61,03,257,*4B
$GLGSV,3,1,10,76,71,359,43,85,22,062,33,67,42,315,51,75,20,058,*69
$GLGSV,3,2,10,84,11,011,26,65,16,180,32,77,43,266,32,66,58,220,48*64
$GLGSV,3,3,10,68,01,339,,86,07,114,*6F
$GAGSV,3,1,10,02,82,189,49,07,32,310,39,16,16,052,,18,30,153,*6A
$GAGSV,3,2,10,30,28,227,36,03,35,156,39,25,40,055,37,08,74,237,48*68
$GAGSV,3,3,10,12,04,029,,10,03,051,*63
$GBGSV,5,1,19,26,83,334,50,29,23,070,33,21,17,186,28,35,16,130,*67
$GBGSV,5,2,19,40,25,041,35,05,20,130,,07,26,053,31,24,34,263,40*64
$GBGSV,5,3,19,50,33,205,,33,32,307,48,45,33,072,44,10,36,064,35*6A
$GBGSV,5,4,19,56,37,072,,14,45,276,44,42,46,236,48,30,03,021,*6B
$GBGSV,5,5,19,02,04,109,,11,02,250,,60,07,111,*58
$GPGGA,103022.00,,,,,0,00,,,M,,M,,*4A
$PTNL,GGK,103022.00,010125,4742.4461640,N,01617.9727901,E,1,21,1.4,EHT670.2966,M*46
$GPGGQ,103022.00,010125,4742.4461640,N,01617.9727901,E,1,21,2.602,627.0855,M*3A
$GPGFA,103022.00,11.812,18.182,1.242,0.557,0.487,2.217,,VVV*07
$GPLLK,103022.00,010125,,M,,M,1,21,1.7,,M*0C
$GNGMP,103022.00,,,,,DAAA,21,0.7,,,,*50
$GPGMP,103022.00,,,,,,04,,,,3.0,123*78
$GLGMP,103022.00,,,,,,03,,,,,*7E
$GAGMP,103022.00,,,,,,06,,,,,*76
$GBGMP,103022.00,,,,,,08,,,,,*7B
$PSSN,SNC,[0,297040000,2347]*4C
$GPZDA,103027.00,01,01,2025,,*64
$GPDTM,W84,,00.0000000,N,00.0000000,E,00.0000000,W84*5F
$GPRMC,103027.00,A,4742.4461614,N,01617.9727786,E,0.0,,010125,5.1,E,D*18
$GPGLL,4742.4461614,N,01617.9727786,E,103027.00,A,D*69
$GPGGA,103027.00,4742.4461614,N,01617.9727786,E,2,20,0.7,627.0931,M,43.2111,M,4.0,0123*49
$GNGNS,103027.00,4742.4461614,N,01617.9727786,E,DAAA,20,0.7,627.0931,43.2111,,*51
$GPGNS,103027.00,,,,,,03,,,,4.0,123*7D
$GLGNS,103027.00,,,,,,03,,,,,*7B
$GAGNS,103027.00,,,,,,06,,,,,*73
$GBGNS,103027.00,,,,,,08,,,,,*7E
$GPLLQ,103027.00,010125,,M,,M,1,20,5.879,,M*17
$GPVTG,,T,,M,0.01,N,0.01,K,D*26
$GPHDT,,T*1B
$GPTHS,,V*0E
$GPROT,,V*08
$PSSN,HRP,103027.00,010125,,,,,,,00,0,,*66
$PTNL,AVR,103027.00,,Yaw,,Tilt,,,,0,,00*30
$GPGSA,A,3,15,17,23,,,,,,,,,,1.4,0.7,1.2*30
$GPGSA,A,3,66,67,76,,,,,,,,,,1.4,0.7,1.2*33
$GPGSA,A,3,02,03,07,08,25,30,,,,,,,1.4,0.7,1.2*39
$GPGSA,A,3,10,14,24,26,33,40,42,45,,,,,1.4,0.7,1.2*36
$GPGST,103027.00,3.370,3.048,0.602,349.648,3.000,0.807,4.991*51
$GPGBS,103027.00,15.106,4.656,24.064,17,0.0001,1.242,0.807*53
$GPGRS,103027.00,1,-0.8,1.2,0.4,,,,,,,,,*45
$GPGRS,103027.00,1,-4.4,6.6,-3.6,,,,,,,,,*62
$GPGRS,103027.00,1,0.7,-2.2,-1.5,0.2,-1.0,2.5,,,,,,*63
$GPGRS,103027.00,1,-1.7,1.2,-1.5,0.2,-1.1,5.8,-2.5,-2.5,,,,*6A
$GPGSV,5,1,17,15,59,216,49,10,12,326,35,23,23,284,42,12,23,228,37*7E
$GPGSV,5,2,17,19,38,125,32,14,28,057,29,13,45,156,37,17,40,082,49*7A
$GPGSV,5,3,17,22,50,058,,24,53,293,31,02,04,031,,21,01,013,*7F
$GPGSV,5,4,17,30,03,100,,36,35,170,35,34,31,208,,49,34,195,*74
$GPGSV,5,5,17,61,03,257,*4B
$GLGSV,3,1,10,76,71,359,42,85,22,062,35,67,42,315,52,75,20,058,32*6C
$GLGSV,3,2,10,84,11,011,25,65,16,180,30,77,43,266,30,66,58,220,48*67
$GLGSV,3,3,10,68,01,339,,86,07,114,*6F
$GAGSV,3,1,10,02,82,189,49,07,32,310,40,16,16,052,,18,30,153,*64
$GAGSV,3,2,10,30,28,227,36,03,35,156,40,25,40,055,37,08,74,237,48*66
$GAGSV,3,3,10,12,04,029,,10,03,051,*63
$GBGSV,5,1,19,26,83,334,50,29,23,070,34,21,17,186,27,35,16,130,*6F
$GBGSV,5,2,19,40,25,041,35,05,20,130,,07,26,053,31,24,34,263,38*6B
$GBGSV,5,3,19,50,33,205,,33,32,307,47,45,32,072,44,10,36,064,35*64
$GBGSV,5,4,19,56,37,072,,14,45,276,43,42,46,236,48,30,03,021,*6C
$GBGSV,5,5,19,02,04,109,,11,02,250,,60,07,111,*58
$GPGGA,103027.00,,,,,0,00,,,M,,M,,*4F
$PTNL,GGK,103027.00,010125,4742.4461614,N,01617.9727786,E,1,20,1.4,EHT670.3041,M*4F
$GPGGQ,103027.00,010125,4742.4461614,N,01617.9727786,E,1,20,5.879,627.0931,M*38
$GPGFA,103027.00,28.977,40.928,3.048,0.602,349.648,4.991,,VVV*0A
$GPLLK,103027.00,010125,,M,,M,1,20,1.7,,M*08
$GNGMP,103027.00,,,,,DAAA,20,0.7,,,,*54
$GPGMP,103027.00,,,,,,03,,,,4.0,123*7D
$GLGMP,103027.00,,,,,,03,,,,,*7B
$GAGMP,103027.00,,,,,,06,,,,,*73
$GBGMP,103027.00,,,,,,08,,,,,*7E
$PSSN,SNC,[0,297045000,2347]*49
$GPZDA,103032.00,01,01,2025,,*60
$GPDTM,W84,,00.0000000,N,00.0000000,E,00.0000000,W84*5F
$GPRMC,103032.00,A,4742.4461566,N,01617.9727757,E,0.0,,010125,5.1,E,D*16
$GPGLL,4742.4461566,N,01617.9727757,E,103032.00,A,D*67
$GPGGA,103032.00,4742.4461566,N,01617.9727757,E,2,21,0.7,627.1146,M,43.2111,M,1.4,0123*4E
$GNGNS,103032.00,4742.4461566,N,01617.9727757,E,DAAA,21,0.7,627.1146,43.2111,,*57
$GPGNS,103032.00,,,,,,05,,,,1.4,123*7E
$GLGNS,103032.00,,,,,,03,,,,,*7F
$GAGNS,103032.00,,,,,,06,,,,,*77
$GBGNS,103032.00,,,,,,07,,,,,*75
$GPLLQ,103032.00,010125,,M,,M,1,21,3.792,,M*1E
$GPVTG,,T,,M,0.01,N,0.01,K,D*26
$GPHDT,,T*1B
$GPTHS,,V*0E
$GPROT,,V*08
$PSSN,HRP,103032.00,010125,,,,,,,00,0,,*62
$PTNL,AVR,103032.00,,Yaw,,Tilt,,,,0,,00*34
$GPGSA,A,3,12,13,15,17,23,,,,,,,,1.3,0.7,1.2*36
$GPGSA,A,3,66,67,76,,,,,,,,,,1.3,0.7,1.2*34
$GPGSA,A,3,02,03,07,08,25,30,,,,,,,1.3,0.7,1.2*3E
$GPGSA,A,3,14,24,26,33,40,42,45,,,,,,1.3,0.7,1.2*30
$GPGST,103032.00,3.393,1.496,0.970,349.620,1.482,0.992,3.347*5E
$GPGBS,103032.00,4.306,3.330,13.720,13,0.0001,-2.166,0.709*4A
$GPGRS,103032.00,1,0.6,-2.2,-0.8,1.6,0.6,,,,,,,*6C
$GPGRS,103032.00,1,-3.7,7.3,-4.4,,,,,,,,,*63
$GPGRS,103032.00,1,0.6,-3.1,-1.6,0.1,-0.4,2.3,,,,,,*67
$GPGRS,103032.00,1,0.8,-1.0,0.1,-0.9,6.1,-2.4,-1.8,,,,,*6A
$GPGSV,5,1,17,15,59,216,49,10,12,326,35,23,23,284,41,12,23,228,38*72
$GPGSV,5,2,17,19,38,125,35,14,28,057,33,13,45,156,39,17,40,082,50*70
$GPGSV,5,3,17,22,50,058,,24,53,293,29,02,04,031,,21,01,013,*76
$GPGSV,5,4,17,30,03,100,,36,35,170,35,34,31,208,,49,34,195,*74
$GPGSV,5,5,17,61,03,257,*4B
$GLGSV,3,1,10,76,71,000,39,85,22,062,37,67,42,315,51,75,20,058,31*6D
$GLGSV,3,2,10,84,11,011,28,65,16,180,29,77,43,266,27,66,58,220,49*65
$GLGSV,3,3,10,68,01,339,,86,07,114,*6F
$GAGSV,3,1,10,02,82,189,48,07,32,310,40,16,16,052,,18,30,153,*65
$GAGSV,3,2,10,30,28,227,36,03,35,156,40,25,40,055,36,08,74,237,48*67
$GAGSV,3,3,10,12,04,029,,10,03,051,*63
$GBGSV,5,1,19,26,83,334,50,29,23,070,34,21,17,186,23,35,16,130,*6B
$GBGSV,5,2,19,40,25,041,36,05,20,130,,07,26,053,31,24,34,263,37*67
$GBGSV,5,3,19,50,33,205,,33,32,307,46,45,32,072,43,10,36,063,35*65
$GBGSV,5,4,19,56,37,072,,14,45,276,43,42,46,236,47,30,03,021,*63
$GBGSV,5,5,19,02,04,109,,11,02,250,,60,07,111,*58
$GPGGA,103032.00,,,,,0,00,,,M,,M,,*4B
$PTNL,GGK,103032.00,010125,4742.4461566,N,01617.9727757,E,1,21,1.3,EHT670.3257,M*42
$GPGGQ,103032.00,010125,4742.4461566,N,01617.9727757,E,1,21,3.792,627.1146,M*32
$GPGFA,103032.00,14.226,27.443,1.496,0.970,349.620,3.347,,VVV*08
$GPLLK,103032.00,010125,,M,,M,1,21,1.6,,M*0C
$GNGMP,103032.00,,,,,DAAA,21,0.7,,,,*51
$GPGMP,103032.00,,,,,,05,,,,1.4,123*7E
$GLGMP,103032.00,,,,,,03,,,,,*7F
$GAGMP,103032.00,,,,,,06,,,,,*77
$GBGMP,103032.00,,,,,,07,,,,,*75
$PSSN,SNC,[0,297050000,2347]*4D
$GPZDA,103037.00,01,01,2025,,*65
$GPDTM,W84,,00.0000000,N,00.0000000,E,00.0000000,W84*5F
$GPRMC,103037.00,A,4742.4461609,N,01617.9727572,E,0.0,,010125,5.1,E,D*1C
$GPGLL,4742.4461609,N,01617.9727572,E,103037.00,A,D*6D
$GPGGA,103037.00,4742.4461609,N,01617.9727572,E,2,24,0.6,627.1061,M,43.2111,M,2.5,0123*46
$GNGNS,103037.00,4742.4461609,N,01617.9727572,E,DAAA,24,0.6,627.1061,43.2111,,*5D
$GPGNS,103037.00,,,,,,08,,,,2.5,123*74
$GLGNS,103037.00,,,,,,03,,,,,*7A
$GAGNS,103037.00,,,,,,06,,,,,*72
$GBGNS,103037.00,,,,,,07,,,,,*70
$GPLLQ,103037.00,010125,,M,,M,1,24,3.503,,M*14
$GPVTG,,T,,M,0.01,N,0.01,K,D*26
$GPHDT,,T*1B
$GPTHS,,V*0E
$GPROT,,V*08
$PSSN,HRP,103037.00,010125,,,,,,,00,0,,*67
$PTNL,AVR,103037.00,,Yaw,,Tilt,,,,0,,00*31
$GPGSA,A,3,10,12,13,14,15,17,19,23,,,,,1.2,0.6,1.1*39
$GPGSA,A,3,66,67,76,,,,,,,,,,1.2,0.6,1.1*37
$GPGSA,A,3,02,03,07,08,25,30,,,,,,,1.2,0.6,1.1*3D
$GPGSA,A,3,14,24,26,33,40,42,45,,,,,,1.2,0.6,1.1*33
$GPGST,103037.00,3.599,1.278,0.782,346.615,1.256,0.816,3.167*59
$GPGBS,103037.00,3.623,2.178,12.200,10,0.0001,-3.495,1.171*40
$GPGRS,103037.00,1,-3.5,1.0,-0.3,-2.1,-0.7,1.7,2.1,0.4,,,,*49
$GPGRS,103037.00,1,-3.4,6.0,-5.9,,,,,,,,,*6B
$GPGRS,103037.00,1,0.6,-3.2,-1.5,0.2,0.7,2.6,,,,,,*4A
$GPGRS,103037.00,1,0.3,-1.6,0.3,-0.5,9.0,-2.5,-1.4,,,,,*6F
$GPGSV,5,1,17,15,59,216,49,10,12,326,36,23,23,284,38,12,23,228,39*7E
$GPGSV,5,2,17,19,38,125,38,14,28,057,36,13,45,156,41,17,40,081,49*7C
$GPGSV,5,3,17,22,50,058,,24,53,293,36,02,04,031,,21,01,013,*78
$GPGSV,5,4,17,30,03,100,,36,35,170,35,34,31,208,,49,34,195,*74
$GPGSV,5,5,17,61,03,257,*4B
$GLGSV,3,1,10,76,71,000,38,85,22,062,38,67,42,315,51,75,20,058,29*6A
$GLGSV,3,2,10,84,11,011,28,65,16,180,28,77,43,266,25,66,58,220,49*66
$GLGSV,3,3,10,68,01,339,,86,07,114,*6F
$GAGSV,3,1,10,02,82,189,48,07,32,310,40,16,16,052,,18,30,153,*65
$GAGSV,3,2,10,30,28,227,35,03,35,156,41,25,40,055,36,08,74,237,48*65
$GAGSV,3,3,10,12,04,029,,10,03,051,*63
$GBGSV,5,1,19,26,83,334,49,29,23,070,34,21,16,186,,35,16,130,*63
$GBGSV,5,2,19,40,25,041,36,05,20,130,,07,26,053,31,24,34,263,36*66
$GBGSV,5,3,19,50,33,205,,33,32,307,46,45,32,072,44,10,36,063,35*62
$GBGSV,5,4,19,56,37,072,,14,45,276,43,42,46,235,46,30,03,021,*61
$GBGSV,5,5,19,02,04,109,,11,02,250,,60,07,111,*58
$GPGGA,103037.00,,,,,0,00,,,M,,M,,*4E
$PTNL,GGK,103037.00,010125,4742.4461609,N,01617.9727572,E,1,24,1.2,EHT670.3171,M*4B
$GPGGQ,103037.00,010125,4742.4461609,N,01617.9727572,E,1,24,3.503,627.1061,M*33
$GPGFA,103037.00,12.150,25.967,1.278,0.782,346.615,3.167,,VVV*0C
$GPLLK,103037.00,010125,,M,,M,1,24,1.4,,M*0E
$GNGMP,103037.00,,,,,DAAA,24,0.6,,,,*50
$GPGMP,103037.00,,,,,,08,,,,2.5,123*74
$GLGMP,103037.00,,,,,,03,,,,,*7A
$GAGMP,103037.00,,,,,,06,,,,,*72
$GBGMP,103037.00,,,,,,07,,,,,*70
$PSSN,SNC,[0,297055000,2347]*48
$GPZDA,103042.00,01,01,2025,,*67
$GPDTM,W84,,00.0000000,N,00.0000000,E,00.0000000,W84*5F
$GPRMC,103042.00,A,4742.4461700,N,01617.9727649,E,0.0,,010125,5.1,E,D*1D
$GPGLL,4742.4461700,N,01617.9727649,E,103042.00,A,D*6C
$GPGGA,103042.00,4742.4461700,N,01617.9727649,E,2,22,0.6,627.1302,M,43.2111,M,3.4,0123*47
$GNGNS,103042.00,4742.4461700,N,01617.9727649,E,DAAA,22,0.6,627.1302,43.2111,,*5C
$GPGNS,103042.00,,,,,,07,,,,3.4,123*79
$GLGNS,103042.00,,,,,,03,,,,,*78
$GAGNS,103042.00,,,,,,05,,,,,*73
$GBGNS,103042.00,,,,,,07,,,,,*72
$GPLLQ,103042.00,010125,,M,,M,1,22,3.738,,M*1A
$GPVTG,,T,,M,0.00,N,0.01,K,D*27
$GPHDT,,T*1B
$GPTHS,,V*0E
$GPROT,,V*08
$PSSN,HRP,103042.00,010125,,,,,,,00,0,,*65
$PTNL,AVR,103042.00,,Yaw,,Tilt,,,,0,,00*33
$GPGSA,A,3,12,13,14,15,17,19,23,,,,,,1.3,0.6,1.2*3A
$GPGSA,A,3,66,67,76,,,,,,,,,,1.3,0.6,1.2*35
$GPGSA,A,3,02,03,07,08,25,,,,,,,,1.3,0.6,1.2*3C
$GPGSA,A,3,14,24,26,33,40,42,45,,,,,,1.3,0.6,1.2*31
$GPGST,103042.00,4.133,1.402,0.819,346.467,1.377,0.861,3.367*59
$GPGBS,103042.00,3.365,2.338,12.877,12,0.0001,3.016,0.924*60
$GPGRS,103042.00,1,3.0,-0.7,-1.9,-1.7,0.5,1.2,0.5,,,,,*40
$GPGRS,103042.00,1,-3.9,3.7,-5.6,,,,,,,,,*69
$GPGRS,103042.00,1,-0.2,-3.6,-1.9,-0.3,1.0,,,,,,,*69
$GPGRS,103042.00,1,-0.2,-1.5,-0.4,-1.6,12.0,-2.6,-2.0,,,,,*54
$GPGSV,5,1,17,15,59,215,48,10,13,325,33,23,23,284,35,12,23,228,38*77
$GPGSV,5,2,17,19,38,125,40,14,28,057,38,13,45,156,42,17,40,081,49*7E
$GPGSV,5,3,17,22,50,058,,24,53,293,37,02,04,031,,21,01,013,*79
$GPGSV,5,4,17,30,03,100,,36,35,170,35,34,31,208,,49,34,195,*74
$GPGSV,5,5,17,61,03,257,*4B
$GLGSV,3,1,10,76,71,000,38,85,22,062,38,67,42,315,51,75,20,058,27*64
$GLGSV,3,2,10,84,11,011,29,65,16,180,27,77,43,266,27,66,58,220,50*62
$GLGSV,3,3,10,68,01,339,,86,07,114,*6F
$GAGSV,3,1,10,02,82,189,48,07,32,310,41,16,16,052,,18,30,153,*64
$GAGSV,3,2,10,30,28,227,34,03,35,156,41,25,40,055,36,08,74,237,49*65
$GAGSV,3,3,10,12,04,029,,10,03,051,*63
$GBGSV,5,1,19,26,83,335,49,29,23,070,34,21,16,186,24,35,16,130,*64
$GBGSV,5,2,19,40,25,041,36,05,20,130,,07,26,053,32,24,34,263,36*65
$GBGSV,5,3,19,50,33,205,,33,32,307,46,45,32,072,44,10,36,063,35*62
$GBGSV,5,4,19,56,37,072,,14,45,276,43,42,46,235,45,30,03,021,*62
$GBGSV,5,5,19,02,04,109,,11,02,250,,60,07,111,*58
$GPGGA,103042.00,,,,,0,00,,,M,,M,,*4C
$PTNL,GGK,103042.00,010125,4742.4461700,N,01617.9727649,E,1,22,1.3,EHT670.3413,M*4C
$GPGGQ,103042.00,010125,4742.4461700,N,01617.9727649,E,1,22,3.738,627.1302,M*38
$GPGFA,103042.00,13.330,27.608,1.402,0.819,346.467,3.367,,VVV*0C
$GPLLK,103042.00,010125,,M,,M,1,22,1.6,,M*08
$GNGMP,103042.00,,,,,DAAA,22,0.6,,,,*54
$GPGMP,103042.00,,,,,,07,,,,3.4,123*79
$GLGMP,103042.00,,,,,,03,,,,,*78
$GAGMP,103042.00,,,,,,05,,,,,*73
$GBGMP,103042.00,,,,,,07,,,,,*72
$PSSN,SNC,[0,297060000,2347]*4E
$GPZDA,103047.00,01,01,2025,,*62
$GPDTM,W84,,00.0000000,N,00.0000000,E,00.0000000,W84*5F
$GPRMC,103047.00,A,4742.4461737,N,01617.9727744,E,0.0,,010125,5.1,E,D*10
$GPGLL,4742.4461737,N,01617.9727744,E,103047.00,A,D*61
$GPGGA,103047.00,4742.4461737,N,01617.9727744,E,2,23,0.6,627.1813,M,43.2111,M,2.7,0123*42
$GNGNS,103047.00,4742.4461737,N,01617.9727744,E,DAAA,23,0.6,627.1813,43.2111,,*5B
$GPGNS,103047.00,,,,,,07,,,,2.7,123*7E
$GLGNS,103047.00,,,,,,04,,,,,*7A
$GAGNS,103047.00,,,,,,05,,,,,*76
$GBGNS,103047.00,,,,,,07,,,,,*77
$GPLLQ,103047.00,010125,,M,,M,1,23,4.253,,M*11
$GPVTG,,T,,M,0.01,N,0.01,K,D*26
$GPHDT,,T*1B
$GPTHS,,V*0E
$GPROT,,V*08
$PSSN,HRP,103047.00,010125,,,,,,,00,0,,*60
$PTNL,AVR,103047.00,,Yaw,,Tilt,,,,0,,00*36
$GPGSA,A,3,12,13,14,15,17,19,24,,,,,,1.3,0.6,1.2*3D
$GPGSA,A,3,66,67,76,85,,,,,,,,,1.3,0.6,1.2*38
$GPGSA,A,3,02,03,07,08,25,,,,,,,,1.3,0.6,1.2*3C
$GPGSA,A,3,14,24,26,33,40,42,45,,,,,,1.3,0.6,1.2*31
$GPGST,103047.00,7.426,1.443,1.022,346.610,1.424,1.049,3.868*5E
$GPGBS,103047.00,3.281,2.529,11.906,12,0.0001,3.322,0.886*61
$GPGRS,103047.00,1,3.3,-0.8,-0.0,-2.0,0.4,0.7,-1.0,,,,,*69
$GPGRS,103047.00,1,-3.9,4.5,-3.8,21.5,,,,,,,,*79
$GPGRS,103047.00,1,-0.2,-3.3,-1.5,-0.1,1.7,,,,,,,*60
$GPGRS,103047.00,1,0.9,-1.2,-0.1,-2.0,18.1,-1.9,-1.6,,,,,*72
$GPGSV,5,1,17,15,59,215,48,10,13,325,32,23,23,284,31,12,23,228,38*72
$GPGSV,5,2,17,19,38,125,41,14,28,057,40,13,45,156,43,17,40,081,49*71
$GPGSV,5,3,17,22,50,058,,24,53,293,39,02,04,031,,21,01,013,*77
$GPGSV,5,4,17,30,03,100,,36,35,170,35,34,31,208,,49,34,195,*74
$GPGSV,5,5,17,61,03,257,*4B
$GLGSV,3,1,10,76,71,000,39,85,22,062,39,67,43,315,51,75,20,058,27*65
$GLGSV,3,2,10,84,11,011,29,65,16,180,27,77,43,266,32,66,58,220,50*66
$GLGSV,3,3,10,68,01,339,,86,07,114,*6F
$GAGSV,3,1,10,02,82,189,48,07,32,310,41,16,16,052,,18,30,153,*64
$GAGSV,3,2,10,30,29,227,33,03,35,156,42,25,40,055,37,08,74,237,49*61
$GAGSV,3,3,10,12,04,029,,10,03,051,*63
$GBGSV,5,1,19,26,83,335,49,29,23,070,34,21,16,186,33,35,16,130,*62
$GBGSV,5,2,19,40,25,041,36,05,20,130,,07,26,053,32,24,34,263,38*6B
$GBGSV,5,3,19,50,32,205,,33,32,307,46,45,32,072,45,10,36,063,34*63
$GBGSV,5,4,19,56,37,072,,14,45,276,43,42,46,235,45,30,03,021,*62
$GBGSV,5,5,19,02,04,109,,11,02,249,,60,07,111,*50
$GPGGA,103047.00,,,,,0,00,,,M,,M,,*49
$PTNL,GGK,103047.00,010125,4742.4461737,N,01617.9727744,E,1,23,1.3,EHT670.3924,M*49
$GPGGQ,103047.00,010125,4742.4461737,N,01617.9727744,E,1,23,4.253,627.1813,M*30
$GPGFA,103047.00,13.724,31.716,1.443,1.022,346.610,3.868,,VVV*03
$GPLLK,103047.00,010125,,M,,M,1,23,1.6,,M*0C
$GNGMP,103047.00,,,,,DAAA,23,0.6,,,,*50
$GPGMP,103047.00,,,,,,07,,,,2.7,123*7E
$GLGMP,103047.00,,,,,,04,,,,,*7A
$GAGMP,103047.00,,,,,,05,,,,,*76
$GBGMP,103047.00,,,,,,07,,,,,*77
$PSSN,SNC,[0,297065000,2347]*4B
$GPZDA,103052.00,01,01,2025,,*66
$GPDTM,W84,,00.0000000,N,00.0000000,E,00.0000000,W84*5F
$GPRMC,103052.00,A,4742.4461763,N,01617.9727429,E,0.0,,010125,5.1,E,D*1D
$GPGLL,4742.4461763,N,01617.9727429,E,103052.00,A,D*6C
$GPGGA,103052.00,4742.4461763,N,01617.9727429,E,2,22,0.7,627.2167,M,43.2111,M,1.3,0123*41
$GNGNS,103052.00,4742.4461763,N,01617.9727429,E,DAAA,22,0.7,627.2167,43.2111,,*5F
$GPGNS,103052.00,,,,,,06,,,,1.3,123*7C
$GLGNS,103052.00,,,,,,04,,,,,*7E
$GAGNS,103052.00,,,,,,05,,,,,*72
$GBGNS,103052.00,,,,,,07,,,,,*73
$GPLLQ,103052.00,010125,,M,,M,1,22,10.809,,M*24
$GPVTG,,T,,M,0.00,N,0.00,K,D*26
$GPHDT,,T*1B
$GPTHS,,V*0E
$GPROT,,V*08
$PSSN,HRP,103052.00,010125,,,,,,,00,0,,*64
$PTNL,AVR,103052.00,,Yaw,,Tilt,,,,0,,00*32
$GPGSA,A,3,13,14,15,17,19,24,,,,,,,1.5,0.7,1.4*3F
$GPGSA,A,3,66,67,76,85,,,,,,,,,1.5,0.7,1.4*39
$GPGSA,A,3,02,03,07,08,25,,,,,,,,1.5,0.7,1.4*3D
$GPGSA,A,3,14,24,26,33,40,42,45,,,,,,1.5,0.7,1.4*30
$GPGST,103052.00,8.846,2.537,1.343,59.664,1.728,2.292,10.421*5F
$GPGBS,103052.00,4.245,6.900,24.964,24,0.0001,-2.488,0.656*46
$GPGRS,103052.00,1,0.6,1.0,-0.9,1.2,1.4,-2.5,,,,,,*44
$GPGRS,103052.00,1,-3.4,4.8,-2.8,16.7,,,,,,,,*7A
$GPGRS,103052.00,1,0.5,-1.8,-0.1,0.8,2.3,,,,,,,*61
$GPGRS,103052.00,1,1.8,-1.5,1.0,-1.4,28.6,-0.3,-0.7,,,,,*54
$GPGSV,5,1,17,15,59,215,46,10,13,325,30,23,23,284,29,12,23,228,36*79
$GPGSV,5,2,17,19,38,125,39,14,28,057,40,13,45,156,43,17,40,081,48*7F
$GPGSV,5,3,17,22,50,058,,24,53,293,40,02,04,031,,21,01,013,*79
$GPGSV,5,4,17,30,03,100,,36,35,170,35,34,31,208,,49,34,195,*74
$GPGSV,5,5,17,61,03,257,*4B
$GLGSV,3,1,10,76,71,000,36,85,22,062,39,67,43,315,50,75,20,058,27*6B
$GLGSV,3,2,10,84,11,011,,65,16,180,27,77,43,266,34,66,58,220,49*63
$GLGSV,3,3,10,68,01,339,,86,07,114,*6F
$GAGSV,3,1,10,02,82,189,48,07,32,310,42,16,16,052,,18,30,153,*67
$GAGSV,3,2,10,30,29,227,31,03,35,156,43,25,40,055,38,08,74,236,49*6C
$GAGSV,3,3,10,12,04,029,,10,03,050,*62
$GBGSV,5,1,19,26,83,335,49,29,23,070,33,21,16,186,34,35,16,130,*62
$GBGSV,5,2,19,40,25,041,36,05,20,130,,07,26,053,32,24,34,263,38*6B
$GBGSV,5,3,19,50,32,205,,33,32,307,47,45,32,072,46,10,36,063,34*61
$GBGSV,5,4,19,56,37,072,,14,45,276,42,42,45,235,46,30,03,021,*63
$GBGSV,5,5,19,02,04,109,,11,02,249,,60,07,111,*50
$GPGGA,103052.00,,,,,0,00,,,M,,M,,*4D
$PTNL,GGK,103052.00,010125,4742.4461763,N,01617.9727429,E,1,22,1.5,EHT670.4278,M*46
$GPGGQ,103052.00,010125,4742.4461763,N,01617.9727429,E,1,22,10.809,627.2167,M*05
$GPGFA,103052.00,24.124,85.450,2.537,1.343,59.664,10.421,,VVV*03
$GPLLK,103052.00,010125,,M,,M,1,22,1.8,,M*07
$GNGMP,103052.00,,,,,DAAA,22,0.7,,,,*54
$GPGMP,103052.00,,,,,,06,,,,1.3,123*7C
$GLGMP,103052.00,,,,,,04,,,,,*7E
$GAGMP,103052.00,,,,,,05,,,,,*72
$GBGMP,103052.00,,,,,,07,,,,,*73
$PSSN,SNC,[0,297070000,2347]*4F
$GPZDA,103057.00,01,01,2025,,*63
$GPDTM,W84,,00.0000000,N,00.0000000,E,00.0000000,W84*5F
$GPRMC,103057.00,A,4742.4461776,N,01617.9727134,E,0.0,,010125,5.1,E,D*15
$GPGLL,4742.4461776,N,01617.9727134,E,103057.00,A,D*64
$GPGGA,103057.00,4742.4461776,N,01617.9727134,E,2,23,0.6,627.2451,M,43.2111,M,2.3,0123*4A
$GNGNS,103057.00,4742.4461776,N,01617.9727134,E,DAAA,23,0.6,627.2451,43.2111,,*57
$GPGNS,103057.00,,,,,,06,,,,2.3,123*7A
$GLGNS,103057.00,,,,,,04,,,,,*7B
$GAGNS,103057.00,,,,,,05,,,,,*77
$GBGNS,103057.00,,,,,,08,,,,,*79
$GPLLQ,103057.00,010125,,M,,M,1,23,8.906,,M*17
$GPVTG,,T,,M,0.01,N,0.03,K,D*24
$GPHDT,,T*1B
$GPTHS,,V*0E
$GPROT,,V*08
$PSSN,HRP,103057.00,010125,,,,,,,00,0,,*61
$PTNL,AVR,103057.00,,Yaw,,Tilt,,,,0,,00*37
$GPGSA,A,3,13,14,15,17,19,24,,,,,,,1.3,0.6,1.2*3E
$GPGSA,A,3,66,67,77,85,,,,,,,,,1.3,0.6,1.2*39
$GPGSA,A,3,02,03,07,08,25,,,,,,,,1.3,0.6,1.2*3C
$GPGSA,A,3,14,21,24,26,33,40,42,45,,,,,1.3,0.6,1.2*32
$GPGST,103057.00,8.759,2.070,1.109,59.985,1.412,1.876,8.591*6B
$GPGBS,103057.00,4.166,6.807,24.445,40,0.0001,31.381,8.681*5A
$GPGRS,103057.00,1,0.7,0.5,-1.1,0.8,0.8,-1.0,,,,,,*4D
$GPGRS,103057.00,1,-4.5,3.2,-7.9,10.5,,,,,,,,*74
$GPGRS,103057.00,1,0.6,-1.1,-0.2,0.7,2.1,,,,,,,*60
$GPGRS,103057.00,1,1.2,3.5,-3.3,0.7,-1.7,31.4,-0.1,-0.9,,,,*74
$GPGSV,5,1,17,15,59,215,45,10,13,325,27,23,23,284,28,12,23,228,32*79
$GPGSV,5,2,17,19,38,124,39,14,28,057,40,13,45,156,42,17,40,081,47*70
$GPGSV,5,3,17,22,50,058,,24,53,293,41,02,04,031,,21,01,013,*78
$GPGSV,5,4,17,30,03,100,,36,35,170,35,34,31,208,,49,34,195,*74
$GPGSV,5,5,17,61,03,257,*4B
$GLGSV,3,1,10,76,71,000,35,85,22,062,40,67,43,315,49,75,20,058,22*6B
$GLGSV,3,2,10,84,11,011,26,65,16,180,27,77,43,266,36,66,58,220,48*64
$GLGSV,3,3,10,68,01,339,,86,07,114,*6F
$GAGSV,3,1,10,02,82,189,47,07,32,310,42,16,16,052,,18,30,153,*68
$GAGSV,3,2,10,30,29,227,29,03,35,156,43,25,40,055,38,08,74,236,49*65
$GAGSV,3,3,10,12,04,029,,10,03,050,*62
$GBGSV,5,1,19,26,83,335,49,29,23,070,32,21,16,186,36,35,16,130,*61
$GBGSV,5,2,19,40,25,041,36,05,20,130,,07,26,053,32,24,34,263,39*6A
$GBGSV,5,3,19,50,32,205,,33,32,307,48,45,32,072,47,10,36,063,35*6E
$GBGSV,5,4,19,56,37,072,,14,45,276,43,42,45,235,46,30,03,021,*62
$GBGSV,5,5,19,02,04,109,,11,02,249,,60,07,111,*50
$GPGGA,103057.00,,,,,0,00,,,M,,M,,*48
$PTNL,GGK,103057.00,010125,4742.4461776,N,01617.9727134,E,1,23,1.3,EHT670.4562,M*45
$GPGGQ,103057.00,010125,4742.4461776,N,01617.9727134,E,1,23,8.906,627.2451,M*3B
$GPGFA,103057.00,19.680,70.443,2.070,1.109,59.985,8.591,,VVV*30
$GPLLK,103057.00,010125,,M,,M,1,23,1.6,,M*0D
$GNGMP,103057.00,,,,,DAAA,23,0.6,,,,*51
$GPGMP,103057.00,,,,,,06,,,,2.3,123*7A
$GLGMP,103057.00,,,,,,04,,,,,*7B
$GAGMP,103057.00,,,,,,05,,,,,*77
$GBGMP,103057.00,,,,,,08,,,,,*79
$PSSN,SNC,[0,297075000,2347]*4A
$GPZDA,103102.00,01,01,2025,,*62
$GPDTM,W84,,00.0000000,N,00.0000000,E,00.0000000,W84*5F
$GPRMC,103102.00,A,4742.4461800,N,01617.9726893,E,0.0,,010125,5.1,E,D*1F
$GPGLL,4742.4461800,N,01617.9726893,E,103102.00,A,D*6E
$GPGGA,103102.00,4742.4461800,N,01617.9726893,E,2,24,0.6,627.2552,M,43.2111,M,3.3,0123*44
$GNGNS,103102.00,4742.4461800,N,01617.9726893,E,DAAA,24,0.6,627.2552,43.2111,,*58
$GPGNS,103102.00,,,,,,06,,,,3.3,123*7A
$GLGNS,103102.00,,,,,,05,,,,,*7B
$GAGNS,103102.00,,,,,,05,,,,,*76
$GBGNS,103102.00,,,,,,08,,,,,*78
$GPLLQ,103102.00,010125,,M,,M,1,24,8.655,,M*18
$GPVTG,,T,,M,0.00,N,0.01,K,D*27
$GPHDT,,T*1B
$GPTHS,,V*0E
$GPROT,,V*08
$PSSN,HRP,103102.00,010125,,,,,,,00,0,,*60
$PTNL,AVR,103102.00,,Yaw,,Tilt,,,,0,,00*36
$GPGSA,A,3,13,14,15,17,19,24,,,,,,,1.3,0.6,1.1*3D
$GPGSA,A,3,66,67,76,77,85,,,,,,,,1.3,0.6,1.1*3B
$GPGSA,A,3,02,03,07,08,25,,,,,,,,1.3,0.6,1.1*3F
$GPGSA,A,3,14,21,24,26,33,40,42,45,,,,,1.3,0.6,1.1*31
$GPGST,103102.00,8.211,2.024,1.136,59.736,1.415,1.839,8.338*61
$GPGBS,103102.00,4.116,6.395,22.246,40,0.0001,29.832,8.682*56
$GPGRS,103102.00,1,1.4,1.0,-1.5,-0.2,1.4,-0.5,,,,,,*60
$GPGRS,103102.00,1,-4.8,3.3,-1.1,-9.0,9.0,,,,,,,*40
$GPGRS,103102.00,1,0.0,-1.1,-1.1,0.5,1.0,,,,,,,*65
$GPGRS,103102.00,1,2.3,1.9,-5.4,-0.0,-2.3,29.8,-0.5,-1.6,,,,*5A
$GPGSV,5,1,17,15,59,215,44,10,13,325,26,23,23,284,31,12,23,228,32*71
$GPGSV,5,2,17,19,38,124,38,14,28,057,41,13,45,156,41,17,40,081,45*71
$GPGSV,5,3,17,22,50,058,,24,53,293,41,02,04,031,,21,01,013,*78
$GPGSV,5,4,17,30,03,100,,36,35,170,35,34,31,208,,49,34,195,*74
$GPGSV,5,5,17,61,03,257,*4B
$GLGSV,3,1,10,76,71,000,40,85,22,062,40,67,43,315,49,75,20,058,22*69
$GLGSV,3,2,10,84,11,011,,65,16,180,29,77,43,266,36,66,57,220,48*61
$GLGSV,3,3,10,68,01,339,,86,07,114,*6F
$GAGSV,3,1,10,02,82,189,47,07,32,310,42,16,16,053,,18,30,153,*69
$GAGSV,3,2,10,30,29,227,28,03,35,156,43,25,40,055,38,08,74,236,49*64
$GAGSV,3,3,10,12,04,029,,10,03,050,*62
$GBGSV,5,1,19,26,83,336,48,29,23,070,31,21,16,186,37,35,16,130,*61
$GBGSV,5,2,19,40,25,041,35,05,20,130,,07,26,053,32,24,34,263,40*67
$GBGSV,5,3,19,50,32,205,,33,32,307,48,45,32,072,47,10,36,063,35*6E
$GBGSV,5,4,19,56,37,072,,14,45,276,44,42,45,235,46,30,03,021,*65
$GBGSV,5,5,19,02,04,109,,11,02,249,,60,07,111,*50
$GPGGA,103102.00,,,,,0,00,,,M,,M,,*49
$PTNL,GGK,103102.00,010125,4742.4461800,N,01617.9726893,E,1,24,1.3,EHT670.4662,M*4B
$GPGGQ,103102.00,010125,4742.4461800,N,01617.9726893,E,1,24,8.655,627.2552,M*3D
$GPGFA,103102.00,19.242,68.368,2.024,1.136,59.736,8.338,,VVV*32
$GPLLK,103102.00,010125,,M,,M,1,24,1.5,,M*08
$GNGMP,103102.00,,,,,DAAA,24,0.6,,,,*57
$GPGMP,103102.00,,,,,,06,,,,3.3,123*7A
$GLGMP,103102.00,,,,,,05,,,,,*7B
$GAGMP,103102.00,,,,,,05,,,,,*76
$GBGMP,103102.00,,,,,,08,,,,,*78
$PSSN,SNC,[0,297080000,2347]*40
$GPZDA,103107.00,01,01,2025,,*67
$GPDTM,W84,,00.0000000,N,00.0000000,E,00.0000000,W84*5F
$GPRMC,103107.00,A,4742.4461834,N,01617.9726701,E,0.0,,010125,5.1,E,D*19
$GPGLL,4742.4461834,N,01617.9726701,E,103107.00,A,D*68
$GPGGA,103107.00,4742.4461834,N,01617.9726701,E,2,22,0.6,627.2832,M,43.2111,M,3.4,0123*48
$GNGNS,103107.00,4742.4461834,N,01617.9726701,E,DAAA,22,0.6,627.2832,43.2111,,*53
$GPGNS,103107.00,,,,,,05,,,,3.4,123*7B
$GLGNS,103107.00,,,,,,05,,,,,*7E
$GAGNS,103107.00,,,,,,05,,,,,*73
$GBGNS,103107.00,,,,,,07,,,,,*72
$GPLLQ,103107.00,010125,,M,,M,1,22,7.967,,M*1A
$GPVTG,,T,,M,0.01,N,0.01,K,D*26
$GPHDT,,T*1B
$GPTHS,,V*0E
$GPROT,,V*08
$PSSN,HRP,103107.00,010125,,,,,,,00,0,,*65
$PTNL,AVR,103107.00,,Yaw,,Tilt,,,,0,,00*33
$GPGSA,A,3,14,15,17,19,24,,,,,,,,1.3,0.6,1.1*3F
$GPGSA,A,3,66,67,76,77,85,,,,,,,,1.3,0.6,1.1*3B
$GPGSA,A,3,02,03,07,08,25,,,,,,,,1.3,0.6,1.1*3F
$GPGSA,A,3,14,21,24,26,33,42,45,,,,,,1.3,0.6,1.1*35
$GPGST,103107.00,4.883,1.968,1.160,47.621,1.579,1.651,7.633*6A
$GPGBS,103107.00,5.553,6.639,23.591,85,0.0001,13.346,6.440*52
$GPGRS,103107.00,1,1.6,-0.9,-0.8,1.7,-0.9,,,,,,,*40
$GPGRS,103107.00,1,-4.1,4.1,-0.9,-9.1,13.3,,,,,,,*79
$GPGRS,103107.00,1,-0.0,-1.3,-0.8,1.0,0.4,,,,,,,*46
$GPGRS,103107.00,1,4.7,1.1,-4.2,0.1,-2.4,-0.6,-2.1,,,,,*63
$GPGSV,5,1,17,15,59,215,44,10,13,325,26,23,23,284,30,12,24,228,32*77
$GPGSV,5,2,17,19,38,124,37,14,28,057,41,13,44,156,40,17,40,081,44*7F
$GPGSV,5,3,17,22,50,058,,24,53,293,41,02,04,031,,21,01,013,*78
$GPGSV,5,4,17,30,03,100,,36,35,170,35,34,31,208,,49,34,195,*74
$GPGSV,5,5,17,61,03,257,*4B
$GLGSV,3,1,10,76,71,001,43,85,22,062,39,67,43,315,49,75,19,058,28*65
$GLGSV,3,2,10,84,11,011,24,65,16,180,29,77,43,266,37,66,57,220,47*69
$GLGSV,3,3,10,68,01,339,,86,07,114,*6F
$GAGSV,3,1,10,02,82,189,47,07,32,310,42,16,16,053,,18,30,153,*69
$GAGSV,3,2,10,30,29,227,26,03,35,156,42,25,40,055,38,08,74,236,49*6B
$GAGSV,3,3,10,12,04,029,,10,03,050,*62
$GBGSV,5,1,19,26,83,336,48,29,23,070,29,21,16,186,38,35,16,130,*67
$GBGSV,5,2,19,40,25,041,35,05,20,130,,07,26,053,32,45,32,072,46*62
$GBGSV,5,3,19,33,32,307,48,50,32,205,,24,34,263,42,10,36,063,35*68
$GBGSV,5,4,19,56,37,072,,14,45,276,44,42,45,235,46,30,03,021,*65
$GBGSV,5,5,19,11,02,249,,02,04,109,,60,07,111,*50
$GPGGA,103107.00,,,,,0,00,,,M,,M,,*4C
$PTNL,GGK,103107.00,010125,4742.4461834,N,01617.9726701,E,1,22,1.3,EHT670.4943,M*47
$GPGGQ,103107.00,010125,4742.4461834,N,01617.9726701,E,1,22,7.967,627.2832,M*37
$GPGFA,103107.00,18.713,62.589,1.968,1.160,47.621,7.633,,VVV*3C
$GPLLK,103107.00,010125,,M,,M,1,22,1.5,,M*0B
$GNGMP,103107.00,,,,,DAAA,22,0.6,,,,*54
$GPGMP,103107.00,,,,,,05,,,,3.4,123*7B
$GLGMP,103107.00,,,,,,05,,,,,*7E
$GAGMP,103107.00,,,,,,05,,,,,*73
$GBGMP,103107.00,,,,,,07,,,,,*72
$PSSN,SNC,[0,297085000,2347]*45
$GPZDA,103112.00,01,01,2025,,*63
$GPDTM,W84,,00.0000000,N,00.0000000,E,00.0000000,W84*5F
$GPRMC,103112.00,A,4742.4461884,N,01617.9726589,E,0.0,,010125,5.1,E,D*14
$GPGLL,4742.4461884,N,01617.9726589,E,103112.00,A,D*65
$GPGGA,103112.00,4742.4461884,N,01617.9726589,E,2,22,0.6,627.3026,M,43.2111,M,1.2,0123*4D
$GNGNS,103112.00,4742.4461884,N,01617.9726589,E,DAAA,22,0.6,627.3026,43.2111,,*52
$GPGNS,103112.00,,,,,,05,,,,1.2,123*7B
$GLGNS,103112.00,,,,,,05,,,,,*7A
$GAGNS,103112.00,,,,,,05,,,,,*77
$GBGNS,103112.00,,,,,,07,,,,,*76
$GPLLQ,103112.00,010125,,M,,M,1,22,7.888,,M*1E
$GPVTG,,T,,M,0.00,N,0.00,K,D*26
$GPHDT,,T*1B
$GPTHS,,V*0E
$GPROT,,V*08
$PSSN,HRP,103112.00,010125,,,,,,,00,0,,*61
$PTNL,AVR,103112.00,,Yaw,,Tilt,,,,0,,00*37
$GPGSA,A,3,14,15,17,19,24,,,,,,,,1.3,0.6,1.1*3F
$GPGSA,A,3,66,67,76,77,85,,,,,,,,1.3,0.6,1.1*3B
$GPGSA,A,3,02,03,07,08,25,,,,,,,,1.3,0.6,1.1*3F
$GPGSA,A,3,14,21,24,26,33,42,45,,,,,,1.3,0.6,1.1*35
$GPGST,103112.00,5.494,1.945,1.140,47.917,1.554,1.633,7.559*66
$GPGBS,103112.00,5.296,6.548,23.348,85,0.0001,16.909,6.443*58
$GPGRS,103112.00,1,0.8,-0.2,-1.7,1.9,-0.3,,,,,,,*4A
$GPGRS,103112.00,1,-3.5,4.8,0.2,-8.1,16.9,,,,,,,*5F
$GPGRS,103112.00,1,0.5,-2.5,-1.3,1.4,-0.1,,,,,,,*49
$GPGRS,103112.00,1,5.5,0.6,-0.9,0.4,-2.5,-1.3,-3.0,,,,,*6D
$GPGSV,5,1,17,15,59,215,43,10,13,325,25,23,23,284,30,12,24,228,32*73
$GPGSV,5,2,17,19,38,124,38,14,28,057,40,13,44,156,38,17,40,081,41*7B
$GPGSV,5,3,17,22,50,058,,24,53,293,40,02,04,031,,21,01,013,*79
$GPGSV,5,4,17,30,03,100,,36,35,170,35,34,31,208,,49,34,195,*74
$GPGSV,5,5,17,61,03,257,*4B
$GLGSV,3,1,10,76,71,001,45,85,22,062,37,67,43,314,48,75,19,058,32*66
$GLGSV,3,2,10,84,11,011,28,65,16,180,29,77,43,266,39,66,57,220,47*6B
$GLGSV,3,3,10,68,01,339,,86,08,114,*60
$GAGSV,3,1,10,02,82,189,47,07,32,310,42,16,16,053,,18,30,153,*69
$GAGSV,3,2,10,30,29,227,27,03,35,156,41,25,40,055,38,08,74,236,50*61
$GAGSV,3,3,10,12,04,029,,10,03,050,*62
$GBGSV,5,1,19,26,83,336,48,29,23,070,27,21,16,186,39,35,16,130,*68
$GBGSV,5,2,19,40,25,041,34,05,20,130,,07,26,053,31,45,32,072,46*60
$GBGSV,5,3,19,33,32,307,48,50,32,205,,24,34,263,43,10,36,063,35*69
$GBGSV,5,4,19,56,37,072,,14,45,276,44,42,45,235,46,30,03,021,*65
$GBGSV,5,5,19,11,02,249,,02,04,109,,60,07,111,*50
$GPGGA,103112.00,,,,,0,00,,,M,,M,,*48
$PTNL,GGK,103112.00,010125,4742.4461884,N,01617.9726589,E,1,22,1.3,EHT670.5137,M*40
$GPGGQ,103112.00,010125,4742.4461884,N,01617.9726589,E,1,22,7.888,627.3026,M*36
$GPGFA,103112.00,18.490,61.985,1.945,1.140,47.917,7.559,,VVV*3B
$GPLLK,103112.00,010125,,M,,M,1,22,1.5,,M*0F
$GNGMP,103112.00,,,,,DAAA,22,0.6,,,,*50
$GPGMP,103112.00,,,,,,05,,,,1.2,123*7B
$GLGMP,103112.00,,,,,,05,,,,,*7A
$GAGMP,103112.00,,,,,,05,,,,,*77
$GBGMP,103112.00,,,,,,07,,,,,*76
$PSSN,SNC,[0,297090000,2347]*41
$GPZDA,103117.00,01,01,2025,,*66
$GPDTM,W84,,00.0000000,N,00.0000000,E,00.0000000,W84*5F
$GPRMC,103117.00,A,4742.4461963,N,01617.9726587,E,0.0,,010125,5.1,E,D*17
$GPGLL,4742.4461963,N,01617.9726587,E,103117.00,A,D*66
$GPGGA,103117.00,4742.4461963,N,01617.9726587,E,2,22,0.6,627.3130,M,43.2111,M,2.2,0123*4B
$GNGNS,103117.00,4742.4461963,N,01617.9726587,E,DAAA,22,0.6,627.3130,43.2111,,*57
$GPGNS,103117.00,,,,,,05,,,,2.2,123*7D
$GLGNS,103117.00,,,,,,04,,,,,*7E
$GAGNS,103117.00,,,,,,05,,,,,*72
$GBGNS,103117.00,,,,,,08,,,,,*7C
$GPLLQ,103117.00,010125,,M,,M,1,22,7.845,,M*1A
$GPVTG,,T,,M,0.01,N,0.01,K,D*26
$GPHDT,,T*1B
$GPTHS,,V*0E
$GPROT,,V*08
$PSSN,HRP,103117.00,010125,,,,,,,00,0,,*64
$PTNL,AVR,103117.00,,Yaw,,Tilt,,,,0,,00*32
$GPGSA,A,3,14,15,17,19,24,,,,,,,,1.4,0.6,1.2*3B
$GPGSA,A,3,66,67,76,77,,,,,,,,,1.4,0.6,1.2*32
$GPGSA,A,3,02,03,07,08,25,,,,,,,,1.4,0.6,1.2*3B
$GPGSA,A,3,10,14,21,24,26,33,42,45,,,,,1.4,0.6,1.2*30
$GPGST,103117.00,3.638,1.909,1.119,48.266,1.521,1.608,7.526*65
$GPGBS,103117.00,5.300,6.421,22.729,19,0.0001,2.413,0.785*66
$GPGRS,103117.00,1,-1.7,-0.3,-1.7,2.4,0.2,,,,,,,*4F
$GPGRS,103117.00,1,-3.2,4.8,0.2,-8.2,,,,,,,,*4E
$GPGRS,103117.00,1,0.9,-2.9,-1.4,1.5,0.1,,,,,,,*67
$GPGRS,103117.00,1,-0.1,5.1,-0.3,4.6,-0.1,-2.6,-2.1,-4.0,,,,*4D
$GPGSV,5,1,17,15,59,215,43,10,13,325,26,23,23,284,23,12,24,228,23*72
$GPGSV,5,2,17,19,38,124,39,14,28,057,39,13,44,156,34,17,40,081,37*79
$GPGSV,5,3,17,22,50,058,,24,53,293,39,02,04,031,,21,01,013,*77
$GPGSV,5,4,17,30,03,100,,36,35,170,35,34,31,208,,49,34,195,*74
$GPGSV,5,5,17,61,03,257,*4B
$GLGSV,3,1,10,76,71,001,47,85,22,062,35,67,43,314,48,75,19,058,33*67
$GLGSV,3,2,10,84,11,010,31,65,16,180,27,77,43,266,41,66,57,220,48*6C
$GLGSV,3,3,10,68,02,339,,86,08,114,*63
$GAGSV,3,1,10,02,82,189,47,07,32,310,42,16,16,053,,18,30,153,*69
$GAGSV,3,2,10,30,29,227,27,03,35,156,40,25,40,055,37,08,74,236,50*6F
$GAGSV,3,3,10,12,04,029,,10,03,050,*62
$GBGSV,5,1,19,26,83,336,48,29,23,070,28,21,16,186,39,35,16,130,*67
$GBGSV,5,2,19,40,25,041,33,05,20,130,,07,26,053,32,45,32,072,45*67
$GBGSV,5,3,19,33,32,306,48,50,32,205,,24,34,263,45,10,36,063,35*6E
$GBGSV,5,4,19,56,37,072,,14,45,276,43,42,45,235,46,30,03,021,*62
$GBGSV,5,5,19,11,02,249,,02,04,109,,60,07,111,*50
$GPGGA,103117.00,,,,,0,00,,,M,,M,,*4D
$PTNL,GGK,103117.00,010125,4742.4461963,N,01617.9726587,E,1,22,1.4,EHT670.5241,M*46
$GPGGQ,103117.00,010125,4742.4461963,N,01617.9726587,E,1,22,7.845,627.3130,M*32
$GPGFA,103117.00,18.149,61.715,1.909,1.119,48.266,7.526,,VVV*36
$GPLLK,103117.00,010125,,M,,M,1,22,1.6,,M*09
$GNGMP,103117.00,,,,,DAAA,22,0.6,,,,*55
$GPGMP,103117.00,,,,,,05,,,,2.2,123*7D
$GLGMP,103117.00,,,,,,04,,,,,*7E
$GAGMP,103117.00,,,,,,05,,,,,*72
$GBGMP,103117.00,,,,,,08,,,,,*7C
$PSSN,SNC,[0,297095000,2347]*44
$GPZDA,103122.00,01,01,2025,,*60
$GPDTM,W84,,00.0000000,N,00.0000000,E,00.0000000,W84*5F
$GPRMC,103122.00,A,4742.4462087,N,01617.9726692,E,0.0,,010125,5.1,E,D*16
$GPGLL,4742.4462087,N,01617.9726692,E,103122.00,A,D*67
$GPGGA,103122.00,4742.4462087,N,01617.9726692,E,2,22,0.6,627.3108,M,43.2111,M,3.2,0123*40
$GNGNS,103122.00,4742.4462087,N,01617.9726692,E,DAAA,22,0.6,627.3108,43.2111,,*5D
$GPGNS,103122.00,,,,,,05,,,,3.2,123*7A
$GLGNS,103122.00,,,,,,04,,,,,*78
$GAGNS,103122.00,,,,,,05,,,,,*74
$GBGNS,103122.00,,,,,,08,,,,,*7A
$GPLLQ,103122.00,010125,,M,,M,1,22,8.260,,M*1E
$GPVTG,,T,,M,0.01,N,0.02,K,D*25
$GPHDT,,T*1B
$GPTHS,,V*0E
$GPROT,,V*08
$PSSN,HRP,103122.00,010125,,,,,,,00,0,,*62
$PTNL,AVR,103122.00,,Yaw,,Tilt,,,,0,,00*34
$GPGSA,A,3,14,15,17,19,24,,,,,,,,1.4,0.6,1.2*3B
$GPGSA,A,3,66,67,76,77,,,,,,,,,1.4,0.6,1.2*32
$GPGSA,A,3,02,03,07,08,25,,,,,,,,1.4,0.6,1.2*3B
$GPGSA,A,3,10,14,21,24,26,33,42,45,,,,,1.4,0.6,1.2*30
$GPGST,103122.00,4.212,2.013,1.194,48.104,1.612,1.697,7.921*65
$GPGBS,103122.00,5.350,6.453,22.746,14,0.0001,-3.463,1.049*49
$GPGRS,103122.00,1,-3.5,0.7,-0.9,1.8,-0.0,,,,,,,*4F
$GPGRS,103122.00,1,-2.5,6.1,0.2,-7.0,,,,,,,,*48
$GPGRS,103122.00,1,1.1,-2.0,-0.5,1.9,0.8,,,,,,,*64
$GPGRS,103122.00,1,0.4,3.8,-0.5,10.4,-0.5,-2.1,-1.7,-4.1,,,,*5A
$GPGSV,5,1,17,15,59,215,43,10,13,325,,23,23,284,,12,24,228,25*71
$GPGSV,5,2,17,19,38,124,40,14,28,057,38,13,44,156,,17,40,081,38*7E
$GPGSV,5,3,17,22,50,058,,24,53,293,38,02,04,031,,21,01,013,*76
$GPGSV,5,4,17,30,02,100,,36,35,170,35,34,31,208,,49,34,195,*75
$GPGSV,5,5,17,61,03,257,*4B
$GLGSV,3,1,10,76,71,001,48,85,22,062,34,67,43,314,48,75,19,058,33*69
$GLGSV,3,2,10,84,11,010,32,65,15,180,23,77,43,267,41,66,57,219,48*63
$GLGSV,3,3,10,68,02,339,,86,08,113,*64
$GAGSV,3,1,10,02,82,189,48,07,32,310,43,16,16,053,,18,30,153,*67
$GAGSV,3,2,10,30,29,227,29,03,35,156,39,25,40,055,37,08,73,236,50*68
$GAGSV,3,3,10,12,04,028,,10,03,050,*63
$GBGSV,5,1,19,26,83,337,48,29,23,070,28,21,16,186,39,35,16,130,*66
$GBGSV,5,2,19,40,25,041,32,05,20,130,,07,26,053,31,45,32,072,44*64
$GBGSV,5,3,19,33,32,306,49,50,32,205,,24,34,263,46,10,36,063,35*6C
$GBGSV,5,4,19,56,37,072,,14,45,276,41,42,45,235,46,30,03,021,*60
$GBGSV,5,5,19,11,02,249,,02,04,109,,60,07,111,*50
$GPGGA,103122.00,,,,,0,00,,,M,,M,,*4B
$PTNL,GGK,103122.00,010125,4742.4462087,N,01617.9726692,E,1,22,1.4,EHT670.5218,M*4B
$GPGGQ,103122.00,010125,4742.4462087,N,01617.9726692,E,1,22,8.260,627.3108,M*3A
$GPGFA,103122.00,19.140,64.953,2.013,1.194,48.104,7.921,,VVV*39
$GPLLK,103122.00,010125,,M,,M,1,22,1.6,,M*0F
$GNGMP,103122.00,,,,,DAAA,22,0.6,,,,*53
$GPGMP,103122.00,,,,,,05,,,,3.2,123*7A
$GLGMP,103122.00,,,,,,04,,,,,*78
$GAGMP,103122.00,,,,,,05,,,,,*74
$GBGMP,103122.00,,,,,,08,,,,,*7A
$PSSN,SNC,[0,297100000,2347]*49
$GPZDA,103127.00,01,01,2025,,*65
$GPDTM,W84,,00.0000000,N,00.0000000,E,00.0000000,W84*5F
$GPRMC,103127.00,A,4742.4462214,N,01617.9726817,E,0.0,,010125,5.1,E,D*18
$GPGLL,4742.4462214,N,01617.9726817,E,103127.00,A,D*69
$GPGGA,103127.00,4742.4462214,N,01617.9726817,E,2,24,0.6,627.3041,M,43.2111,M,3.1,0123*47
$GNGNS,103127.00,4742.4462214,N,01617.9726817,E,DAAA,24,0.6,627.3041,43.2111,,*59
$GPGNS,103127.00,,,,,,07,,,,3.1,123*7E
$GLGNS,103127.00,,,,,,04,,,,,*7D
$GAGNS,103127.00,,,,,,05,,,,,*71
$GBGNS,103127.00,,,,,,08,,,,,*7F
$GPLLQ,103127.00,010125,,M,,M,1,24,3.298,,M*11
$GPVTG,,T,,M,0.01,N,0.01,K,D*26
$GPHDT,,T*1B
$GPTHS,,V*0E
$GPROT,,V*08
$PSSN,HRP,103127.00,010125,,,,,,,00,0,,*67
$PTNL,AVR,103127.00,,Yaw,,Tilt,,,,0,,00*31
$GPGSA,A,3,12,14,15,17,19,23,24,,,,,,1.2,0.6,1.1*3C
$GPGSA,A,3,66,67,76,77,,,,,,,,,1.2,0.6,1.1*37
$GPGSA,A,3,02,03,07,08,25,,,,,,,,1.2,0.6,1.1*3E
$GPGSA,A,3,10,14,21,24,26,33,42,45,,,,,1.2,0.6,1.1*35
$GPGST,103127.00,4.241,1.331,0.797,350.213,1.318,0.817,2.910*52
$GPGBS,103127.00,3.298,2.047,8.404,23,0.0001,4.812,1.370*5A
$GPGRS,103127.00,1,-0.8,-3.4,0.1,0.0,0.9,4.8,0.7,,,,,*6A
$GPGRS,103127.00,1,-3.7,7.3,-0.4,-7.4,,,,,,,,*62
$GPGRS,103127.00,1,0.8,-1.5,-0.5,1.7,0.3,,,,,,,*6A
$GPGRS,103127.00,1,1.0,1.3,-0.7,10.5,-0.4,-2.1,-1.5,-4.7,,,,*55
$GPGSV,5,1,17,15,59,215,43,10,13,325,34,23,23,284,37,12,24,228,36*70
$GPGSV,5,2,17,19,38,124,40,14,28,057,38,13,44,156,29,17,40,081,39*74
$GPGSV,5,3,17,22,50,058,,24,53,293,38,02,04,031,,21,01,013,*76
$GPGSV,5,4,17,30,02,100,,36,35,170,35,34,31,208,,49,34,195,*75
$GPGSV,5,5,17,61,03,257,*4B
$GLGSV,3,1,10,76,71,001,48,85,22,062,34,67,43,314,49,75,19,058,32*69
$GLGSV,3,2,10,84,11,010,,65,15,180,,77,43,267,42,66,57,219,47*6F
$GLGSV,3,3,10,68,02,339,,86,08,113,*64
$GAGSV,3,1,10,02,82,189,48,07,32,310,42,16,16,053,,18,30,153,*66
$GAGSV,3,2,10,30,29,227,31,03,35,156,39,25,40,055,36,08,73,236,51*61
$GAGSV,3,3,10,12,04,028,,10,03,050,*63
$GBGSV,5,1,19,26,83,337,47,29,23,070,,21,16,186,39,35,16,130,*63
$GBGSV,5,2,19,40,25,041,30,05,20,130,,07,26,053,31,45,32,072,44*66
$GBGSV,5,3,19,33,32,306,49,50,32,205,,24,34,263,46,10,36,063,36*6F
$GBGSV,5,4,19,56,37,072,,14,45,276,41,42,45,235,45,30,03,021,*63
$GBGSV,5,5,19,11,02,249,,02,04,109,,60,07,111,*50
$GPGGA,103127.00,,,,,0,00,,,M,,M,,*4E
