$GPZDA,032942.00,01,01,2025,,*6D
$GPDTM,W84,,00.0000000,N,00.0000000,E,00.0000000,W84*5F
$GPRMC,032942.00,A,4742.4461586,N,01617.9731665,E,0.0,,010125,5.1,E,D*12
$GPGLL,4742.4461586,N,01617.9731665,E,032942.00,A,D*63
$GPGGA,032942.00,4742.4461586,N,01617.9731665,E,2,21,0.6,625.9292,M,43.2111,M,4.0,0123*4A
$GNGNS,032942.00,4742.4461586,N,01617.9731665,E,DAAA,21,0.6,625.9292,43.2111,,*52
$GPGNS,032942.00,,,,,,06,,,,4.0,123*71
$GLGNS,032942.00,,,,,,04,,,,,*75
$GAGNS,032942.00,,,,,,05,,,,,*79
$GBGNS,032942.00,,,,,,06,,,,,*79
$GPLLQ,032942.00,010125,,M,,M,1,21,1.825,,M*12
$GPVTG,,T,,M,0.00,N,0.01,K,D*27
$GPHDT,,T*1B
$GPTHS,,V*0E
$GPROT,,V*08
$PSSN,HRP,032942.00,010125,,,,,,,00,0,,*6F
$PTNL,AVR,032942.00,,Yaw,,Tilt,,,,0,,00*39
$GPGSA,A,3,03,04,06,07,09,11,,,,,,,1.2,0.6,1.0*39
$GPGSA,A,3,70,71,85,86,,,,,,,,,1.2,0.6,1.0*34
$GPGSA,A,3,05,06,09,15,36,,,,,,,,1.2,0.6,1.0*3D
$GPGSA,A,3,12,16,19,20,35,44,,,,,,,1.2,0.6,1.0*3E
$GPGST,032942.00,5.801,0.909,0.589,34.979,0.818,0.710,1.468*6D
$GPGBS,032942.00,4.311,3.826,7.601,44,0.0001,13.778,8.590*66
$GPGRS,032942.00,1,-0.9,0.4,0.8,0.3,-0.2,-0.5,,,,,,*6C
$GPGRS,032942.00,1,-2.5,0.9,-5.5,-3.6,,,,,,,,*66
$GPGRS,032942.00,1,0.6,-1.8,0.7,-2.0,-0.1,,,,,,,*48
$GPGRS,032942.00,1,-6.7,12.1,-2.7,-4.2,-1.8,13.8,,,,,,*43
$GPGSV,5,1,17,09,76,263,46,07,26,182,45,11,23,316,43,31,15,040,24*79
$GPGSV,5,2,17,26,12,060,,19,13,249,29,03,39,107,35,06,53,286,47*71
$GPGSV,5,3,17,04,71,054,49,01,02,158,,20,02,301,,17,03,226,*79
$GPGSV,5,4,17,16,06,090,,36,35,170,40,34,31,208,,49,34,195,34*78
$GPGSV,5,5,17,61,03,257,*4B
$GLGSV,3,1,10,70,58,041,41,73,11,143,,72,10,267,,85,23,200,38*6C
$GLGSV,3,2,10,87,29,326,,79,20,032,33,80,32,090,33,71,54,294,49*6E
$GLGSV,3,3,10,86,52,266,53,69,01,074,*64
$GAGSV,4,1,13,09,67,056,46,15,11,324,31,04,16,060,28,36,52,190,45*61
$GAGSV,4,2,13,34,54,291,34,06,42,060,46,05,55,244,48,18,08,243,*6C
$GAGSV,4,3,13,21,00,006,,23,09,052,,31,05,099,,03,05,242,*62
$GAGSV,4,4,13,11,09,161,*55
$GBGSV,5,1,20,19,79,004,44,22,34,278,30,39,16,039,29,12,19,319,39*60
$GBGSV,5,2,20,05,23,128,,16,26,043,37,37,26,058,34,44,28,295,36*6A
$GBGSV,5,3,20,06,28,046,27,46,31,121,,35,31,240,41,58,32,100,*6C
$GBGSV,5,4,20,20,36,080,44,09,40,056,35,48,58,073,,36,06,166,*68
$GBGSV,5,5,20,29,02,190,,02,07,106,,34,01,339,,60,08,111,*6A
$GPGGA,032942.00,,,,,0,00,,,M,,M,,*46
$PTNL,GGK,032942.00,010125,4742.4461586,N,01617.9731665,E,1,21,1.2,EHT669.1403,M*4A
$GPGGQ,032942.00,010125,4742.4461586,N,01617.9731665,E,1,21,1.825,625.9292,M*37
$GPGFA,032942.00,8.642,12.040,0.909,0.589,34.979,1.468,,VVV*0D
$GPLLK,032942.00,010125,,M,,M,1,21,1.4,,M*03
$GNGMP,032942.00,,,,,DAAA,21,0.6,,,,*5D
$GPGMP,032942.00,,,,,,06,,,,4.0,123*71
$GLGMP,032942.00,,,,,,04,,,,,*75
$GAGMP,032942.00,,,,,,05,,,,,*79
$GBGMP,032942.00,,,,,,06,,,,,*79
$PSSN,SNC,[0,271800000,2347]*48
$GPZDA,032947.00,01,01,2025,,*68
$GPDTM,W84,,00.0000000,N,00.0000000,E,00.0000000,W84*5F
$GPRMC,032947.00,A,4742.4461597,N,01617.9731693,E,0.0,,010125,5.1,E,D*1E
$GPGLL,4742.4461597,N,01617.9731693,E,032947.00,A,D*6F
$GPGGA,032947.00,4742.4461597,N,01617.9731693,E,2,21,0.7,625.9220,M,43.2111,M,1.0,0123*4B
$GNGNS,032947.00,4742.4461597,N,01617.9731693,E,DAAA,21,0.7,625.9220,43.2111,,*56
$GPGNS,032947.00,,,,,,05,,,,1.0,123*72
$GLGNS,032947.00,,,,,,04,,,,,*70
$GAGNS,032947.00,,,,,,06,,,,,*7F
$GBGNS,032947.00,,,,,,06,,,,,*7C
$GPLLQ,032947.00,010125,,M,,M,1,21,1.964,,M*13
$GPVTG,,T,,M,0.01,N,0.01,K,D*26
$GPHDT,,T*1B
$GPTHS,,V*0E
$GPROT,,V*08
$PSSN,HRP,032947.00,010125,,,,,,,00,0,,*6A
$PTNL,AVR,032947.00,,Yaw,,Tilt,,,,0,,00*3C
$GPGSA,A,3,04,06,07,09,11,,,,,,,,1.2,0.7,1.0*3B
$GPGSA,A,3,70,71,85,86,,,,,,,,,1.2,0.7,1.0*35
$GPGSA,A,3,05,06,09,15,34,36,,,,,,,1.2,0.7,1.0*3B
$GPGSA,A,3,12,16,19,20,35,44,,,,,,,1.2,0.7,1.0*3F
$GPGST,032947.00,6.039,1.089,0.647,61.462,0.770,1.005,1.502*60
$GPGBS,032947.00,3.775,5.816,7.991,44,0.0001,14.270,8.588*62
$GPGRS,032947.00,1,0.1,0.6,-0.2,0.0,-1.0,,,,,,,*6F
$GPGRS,032947.00,1,-2.1,-0.5,0.5,-3.8,,,,,,,,*60
$GPGRS,032947.00,1,0.2,-1.5,0.6,-5.2,0.2,-0.2,,,,,,*6F
$GPGRS,032947.00,1,-6.7,13.0,-4.1,-4.5,-2.3,14.3,,,,,,*45
$GPGSV,5,1,17,09,76,263,46,07,26,182,46,11,23,316,42,31,14,040,21*7F
$GPGSV,5,2,17,26,12,060,,19,13,249,34,03,39,107,33,06,53,285,47*78
$GPGSV,5,3,17,04,71,054,48,01,02,158,,20,02,301,,17,03,226,*78
$GPGSV,5,4,17,16,06,090,,36,35,170,40,34,31,208,,49,34,195,35*79
$GPGSV,5,5,17,61,03,257,*4B
$GLGSV,3,1,10,70,58,041,41,73,11,143,,72,10,267,,85,23,200,38*6C
$GLGSV,3,2,10,87,29,326,40,79,20,032,35,80,32,090,34,71,54,295,48*6B
$GLGSV,3,3,10,86,52,266,53,69,01,074,*64
$GAGSV,3,1,12,09,67,056,46,15,11,324,36,04,16,060,28,36,52,190,45*60
$GAGSV,3,2,12,34,54,291,37,06,42,060,45,05,55,244,49,18,08,243,*6B
$GAGSV,3,3,12,23,09,051,,31,05,099,,03,05,242,,11,09,161,*6D
$GBGSV,5,1,20,19,79,004,44,22,34,278,22,39,16,039,26,12,19,319,40*62
$GBGSV,5,2,20,05,23,128,,16,26,043,36,37,26,058,33,44,28,295,36*6C
$GBGSV,5,3,20,06,28,046,28,46,31,121,,35,31,240,41,58,32,100,*63
$GBGSV,5,4,20,20,36,080,44,09,40,056,33,48,58,073,,36,06,166,*6E
$GBGSV,5,5,20,29,02,190,,02,07,106,,34,01,339,,60,08,111,*6A
$GPGGA,032947.00,,,,,0,00,,,M,,M,,*43
$PTNL,GGK,032947.00,010125,4742.4461597,N,01617.9731693,E,1,21,1.2,EHT669.1330,M*41
$GPGGQ,032947.00,010125,4742.4461597,N,01617.9731693,E,1,21,1.964,625.9220,M*36
$GPGFA,032947.00,10.351,12.312,1.089,0.647,61.462,1.502,,VVV*39
$GPLLK,032947.00,010125,,M,,M,1,21,1.4,,M*06
$GNGMP,032947.00,,,,,DAAA,21,0.7,,,,*59
$GPGMP,032947.00,,,,,,05,,,,1.0,123*72
$GLGMP,032947.00,,,,,,04,,,,,*70
$GAGMP,032947.00,,,,,,06,,,,,*7F
$GBGMP,032947.00,,,,,,06,,,,,*7C
$PSSN,SNC,[0,271805000,2347]*4D
$GPZDA,032952.00,01,01,2025,,*6C
$GPDTM,W84,,00.0000000,N,00.0000000,E,00.0000000,W84*5F
$GPRMC,032952.00,A,4742.4461614,N,01617.9731687,E,0.0,,010125,5.1,E,D*17
$GPGLL,4742.4461614,N,01617.9731687,E,032952.00,A,D*66
$GPGGA,032952.00,4742.4461614,N,01617.9731687,E,2,22,0.6,625.9095,M,43.2111,M,2.0,0123*4F
$GNGNS,032952.00,4742.4461614,N,01617.9731687,E,DAAA,22,0.6,625.9095,43.2111,,*51
$GPGNS,032952.00,,,,,,05,,,,2.0,123*75
$GLGNS,032952.00,,,,,,04,,,,,*74
$GAGNS,032952.00,,,,,,06,,,,,*7B
$GBGNS,032952.00,,,,,,07,,,,,*79
$GPLLQ,032952.00,010125,,M,,M,1,22,2.432,,M*19
$GPVTG,,T,,M,0.00,N,0.00,K,D*26
$GPHDT,,T*1B
$GPTHS,,V*0E
$GPROT,,V*08
$PSSN,HRP,032952.00,010125,,,,,,,00,0,,*6E
$PTNL,AVR,032952.00,,Yaw,,Tilt,,,,0,,00*38
$GPGSA,A,3,04,06,07,09,11,,,,,,,,1.2,0.6,1.0*3A
$GPGSA,A,3,70,71,85,86,,,,,,,,,1.2,0.6,1.0*34
$GPGSA,A,3,05,06,09,15,34,36,,,,,,,1.2,0.6,1.0*3A
$GPGSA,A,3,12,16,19,20,22,35,44,,,,,,1.2,0.6,1.0*3E
$GPGST,032952.00,7.651,1.338,0.805,60.832,0.959,1.232,1.865*6B
$GPGBS,032952.00,3.812,5.851,8.080,12,0.0001,-18.454,8.674*4F
$GPGRS,032952.00,1,0.2,0.4,-0.3,0.1,-1.2,,,,,,,*68
$GPGRS,032952.00,1,-2.1,0.1,7.8,-4.2,,,,,,,,*4A
$GPGRS,032952.00,1,0.2,-0.7,0.4,0.1,1.1,-0.1,,,,,,*40
$GPGRS,032952.00,1,-18.5,12.4,-4.3,-3.6,-2.8,-2.4,15.9,,,,,*7A
$GPGSV,5,1,17,09,76,263,46,07,26,182,45,11,23,316,42,31,14,040,24*79
$GPGSV,5,2,17,26,12,060,,19,13,249,35,03,39,107,33,06,53,285,48*76
$GPGSV,5,3,17,04,71,054,49,01,02,158,,20,02,301,29,17,03,226,*72
$GPGSV,5,4,17,16,06,090,,36,35,170,40,34,31,208,,49,34,195,35*79
$GPGSV,5,5,17,61,03,257,*4B
$GLGSV,3,1,10,70,58,041,42,73,11,143,,72,10,267,25,85,23,200,39*69
$GLGSV,3,2,10,87,29,326,,79,20,032,,80,32,090,33,71,54,295,48*6E
$GLGSV,3,3,10,86,52,266,52,69,01,074,*65
$GAGSV,3,1,12,09,67,056,47,15,11,324,36,04,16,060,29,36,52,190,45*60
$GAGSV,3,2,12,34,54,291,38,06,42,060,45,05,55,244,49,18,08,243,*64
$GAGSV,3,3,12,23,09,051,,31,05,099,,03,05,242,,11,09,161,*6D
$GBGSV,5,1,20,19,79,004,44,58,32,100,,39,16,039,26,12,19,319,39*6B
$GBGSV,5,2,20,37,26,058,33,05,23,128,,16,26,043,35,44,28,295,37*6E
$GBGSV,5,3,20,06,28,046,27,46,31,121,,35,31,240,41,22,34,278,24*6D
$GBGSV,5,4,20,20,36,080,43,09,40,056,32,48,58,073,,36,06,166,*68
$GBGSV,5,5,20,29,02,190,,34,01,339,,02,07,106,,60,08,111,*6A
$GPGGA,032952.00,,,,,0,00,,,M,,M,,*47
$PTNL,GGK,032952.00,010125,4742.4461614,N,01617.9731687,E,1,22,1.2,EHT669.1205,M*4C
$GPGGQ,032952.00,010125,4742.4461614,N,01617.9731687,E,1,22,2.432,625.9095,M*3D
$GPGFA,032952.00,12.719,15.295,1.338,0.805,60.832,1.865,,VVV*3B
$GPLLK,032952.00,010125,,M,,M,1,22,1.4,,M*01
$GNGMP,032952.00,,,,,DAAA,22,0.6,,,,*5F
$GPGMP,032952.00,,,,,,05,,,,2.0,123*75
$GLGMP,032952.00,,,,,,04,,,,,*74
$GAGMP,032952.00,,,,,,06,,,,,*7B
$GBGMP,032952.00,,,,,,07,,,,,*79
$PSSN,SNC,[0,271810000,2347]*49
$GPZDA,032957.00,01,01,2025,,*69
$GPDTM,W84,,00.0000000,N,00.0000000,E,00.0000000,W84*5F
$GPRMC,032957.00,A,4742.4461631,N,01617.9731653,E,0.0,,010125,5.1,E,D*1C
$GPGLL,4742.4461631,N,01617.9731653,E,032957.00,A,D*6D
$GPGGA,032957.00,4742.4461631,N,01617.9731653,E,2,21,0.6,625.8983,M,43.2111,M,3.0,0123*49
$GNGNS,032957.00,4742.4461631,N,01617.9731653,E,DAAA,21,0.6,625.8983,43.2111,,*56
$GPGNS,032957.00,,,,,,05,,,,3.0,123*71
$GLGNS,032957.00,,,,,,05,,,,,*70
$GAGNS,032957.00,,,,,,06,,,,,*7E
$GBGNS,032957.00,,,,,,05,,,,,*7E
$GPLLQ,032957.00,010125,,M,,M,1,21,2.011,,M*1A
$GPVTG,,T,,M,0.00,N,0.00,K,D*26
$GPHDT,,T*1B
$GPTHS,,V*0E
$GPROT,,V*08
$PSSN,HRP,032957.00,010125,,,,,,,00,0,,*6B
$PTNL,AVR,032957.00,,Yaw,,Tilt,,,,0,,00*3D
$GPGSA,A,3,04,06,07,09,11,,,,,,,,1.1,0.6,1.0*39
$GPGSA,A,3,70,71,80,85,86,,,,,,,,1.1,0.6,1.0*3F
$GPGSA,A,3,05,06,09,15,34,36,,,,,,,1.1,0.6,1.0*39
$GPGSA,A,3,12,16,19,20,35,,,,,,,,1.1,0.6,1.0*3D
$GPGST,032957.00,5.396,1.105,0.668,60.856,0.793,1.018,1.542*63
$GPGBS,032957.00,3.835,5.830,8.131,85,0.0001,11.056,6.150*60
$GPGRS,032957.00,1,0.1,0.5,-0.9,0.1,-0.7,,,,,,,*61
$GPGRS,032957.00,1,-2.2,1.2,-0.1,11.1,-4.3,,,,,,,*73
$GPGRS,032957.00,1,0.6,-0.4,0.3,0.2,2.8,0.4,,,,,,*64
$GPGRS,032957.00,1,-7.0,13.3,-3.8,-2.5,-2.2,,,,,,,*50
$GPGSV,5,1,17,09,76,263,48,07,26,182,44,11,23,316,43,31,14,040,26*75
$GPGSV,5,2,17,26,12,060,,19,13,249,35,03,39,107,34,06,53,285,47*7E
$GPGSV,5,3,17,04,71,054,50,01,02,158,,20,02,301,,17,03,226,*71
$GPGSV,5,4,17,16,06,090,,36,35,170,40,34,31,208,,49,34,195,36*7A
$GPGSV,5,5,17,61,03,257,*4B
$GLGSV,3,1,10,70,58,041,41,73,11,143,,72,10,267,23,85,23,200,40*62
$GLGSV,3,2,10,87,29,326,,79,20,032,,80,32,090,37,71,54,295,47*65
$GLGSV,3,3,10,86,52,266,51,69,01,074,*66
$GAGSV,3,1,12,09,67,056,47,15,11,324,35,04,16,060,30,36,52,190,46*68
$GAGSV,3,2,12,34,54,291,40,06,42,060,45,05,55,244,49,18,07,243,*64
$GAGSV,3,3,12,23,09,051,,31,05,099,,03,05,242,,11,09,161,*6D
$GBGSV,5,1,20,19,79,004,45,58,32,100,,39,16,039,26,12,19,319,41*65
$GBGSV,5,2,20,37,26,058,34,05,23,128,,16,26,043,36,44,28,295,32*6F
$GBGSV,5,3,20,06,28,046,27,46,31,121,,35,31,240,41,22,34,278,28*61
$GBGSV,5,4,20,20,36,080,43,09,40,056,32,48,58,073,,36,06,166,*68
$GBGSV,5,5,20,29,02,190,,34,01,339,,02,07,106,,60,08,111,*6A
$GPGGA,032957.00,,,,,0,00,,,M,,M,,*42
$PTNL,GGK,032957.00,010125,4742.4461631,N,01617.9731653,E,1,21,1.1,EHT669.1094,M*4D
$GPGGQ,032957.00,010125,4742.4461631,N,01617.9731653,E,1,21,2.011,625.8983,M*3F
$GPGFA,032957.00,10.503,12.645,1.105,0.668,60.856,1.542,,VVV*38
$GPLLK,032957.00,010125,,M,,M,1,21,1.3,,M*00
$GNGMP,032957.00,,,,,DAAA,21,0.6,,,,*59
$GPGMP,032957.00,,,,,,05,,,,3.0,123*71
$GLGMP,032957.00,,,,,,05,,,,,*70
$GAGMP,032957.00,,,,,,06,,,,,*7E
$GBGMP,032957.00,,,,,,05,,,,,*7E
$PSSN,SNC,[0,271815000,2347]*4C
$GPZDA,033002.00,01,01,2025,,*61
$GPDTM,W84,,00.0000000,N,00.0000000,E,00.0000000,W84*5F
$GPRMC,033002.00,A,4742.4461594,N,01617.9731681,E,0.0,,010125,5.1,E,D*17
$GPGLL,4742.4461594,N,01617.9731681,E,033002.00,A,D*66
$GPGGA,033002.00,4742.4461594,N,01617.9731681,E,2,19,0.7,625.8896,M,43.2111,M,4.0,0123*4A
$GNGNS,033002.00,4742.4461594,N,01617.9731681,E,DAAA,19,0.7,625.8896,43.2111,,*52
$GPGNS,033002.00,,,,,,05,,,,4.0,123*7E
$GLGNS,033002.00,,,,,,05,,,,,*78
$GAGNS,033002.00,,,,,,06,,,,,*76
$GBGNS,033002.00,,,,,,03,,,,,*70
$GPLLQ,033002.00,010125,,M,,M,1,19,1.757,,M*1F
$GPVTG,,T,,M,0.00,N,0.00,K,D*26
$GPHDT,,T*1B
$GPTHS,,V*0E
$GPROT,,V*08
$PSSN,HRP,033002.00,010125,,,,,,,00,0,,*63
$PTNL,AVR,033002.00,,Yaw,,Tilt,,,,0,,00*35
$GPGSA,A,3,04,06,07,09,11,,,,,,,,1.2,0.7,1.0*3B
$GPGSA,A,3,70,71,80,85,86,,,,,,,,1.2,0.7,1.0*3D
$GPGSA,A,3,05,06,09,15,34,36,,,,,,,1.2,0.7,1.0*3B
$GPGSA,A,3,19,20,35,,,,,,,,,,1.2,0.7,1.0*3B
$GPGST,033002.00,3.269,0.968,0.582,61.193,0.691,0.894,1.346*64
$GPGBS,033002.00,3.946,6.021,8.356,85,0.0001,8.379,6.149*5B
$GPGRS,033002.00,1,0.1,0.3,-0.8,0.4,-0.3,,,,,,,*6F
$GPGRS,033002.00,1,-2.7,1.8,1.6,8.4,-4.0,,,,,,,*61
$GPGRS,033002.00,1,0.6,-0.3,0.0,-0.9,3.0,0.4,,,,,,*47
$GPGRS,033002.00,1,-2.8,-2.0,-2.3,,,,,,,,,*46
$GPGSV,5,1,17,09,76,263,49,07,26,182,44,11,23,316,43,31,14,040,27*75
$GPGSV,5,2,17,26,12,060,,19,13,249,34,03,39,107,32,06,53,285,45*7B
$GPGSV,5,3,17,04,71,054,49,01,02,158,,20,02,301,30,17,02,226,*7B
$GPGSV,5,4,17,16,06,089,,36,35,170,40,34,31,208,,49,34,195,36*72
$GPGSV,5,5,17,61,03,257,*4B
$GLGSV,3,1,10,70,58,041,41,73,11,143,,72,10,267,35,85,23,200,41*64
$GLGSV,3,2,10,87,29,326,33,79,20,032,32,80,32,090,39,71,54,295,46*6B
$GLGSV,3,3,10,86,52,265,51,69,01,074,*65
$GAGSV,3,1,12,09,67,056,47,15,11,324,35,04,16,060,30,36,52,190,46*68
$GAGSV,3,2,12,34,54,291,41,06,42,060,46,05,55,244,49,18,07,243,*66
$GAGSV,3,3,12,23,09,051,,31,06,099,,03,05,242,,11,09,161,*6E
$GBGSV,5,1,20,19,79,005,45,22,34,278,32,39,16,039,25,12,19,319,34*63
$GBGSV,5,2,20,05,23,128,,16,26,043,35,37,26,058,35,44,28,295,25*6B
$GBGSV,5,3,20,06,28,046,27,46,31,121,,35,31,240,39,58,32,100,*63
$GBGSV,5,4,20,20,36,080,43,09,40,056,32,48,58,073,,36,06,166,*68
$GBGSV,5,5,20,29,02,190,,02,07,106,,34,01,339,,60,08,111,*6A
$GPGGA,033002.00,,,,,0,00,,,M,,M,,*4A
$PTNL,GGK,033002.00,010125,4742.4461594,N,01617.9731681,E,1,19,1.2,EHT669.1007,M*44
$GPGGQ,033002.00,010125,4742.4461594,N,01617.9731681,E,1,19,1.757,625.8896,M*3C
$GPGFA,033002.00,9.207,11.037,0.968,0.582,61.193,1.346,,VVV*0D
$GPLLK,033002.00,010125,,M,,M,1,19,1.5,,M*05
$GNGMP,033002.00,,,,,DAAA,19,0.7,,,,*5B
$GPGMP,033002.00,,,,,,05,,,,4.0,123*7E
$GLGMP,033002.00,,,,,,05,,,,,*78
$GAGMP,033002.00,,,,,,06,,,,,*76
$GBGMP,033002.00,,,,,,03,,,,,*70
$PSSN,SNC,[0,271820000,2347]*4A
$GPZDA,033007.00,01,01,2025,,*64
$GPDTM,W84,,00.0000000,N,00.0000000,E,00.0000000,W84*5F
$GPRMC,033007.00,A,4742.4461567,N,01617.9731671,E,0.0,,010125,5.1,E,D*11
$GPGLL,4742.4461567,N,01617.9731671,E,033007.00,A,D*60
$GPGGA,033007.00,4742.4461567,N,01617.9731671,E,2,22,0.6,625.8831,M,43.2111,M,1.0,0123*4D
$GNGNS,033007.00,4742.4461567,N,01617.9731671,E,DAAA,22,0.6,625.8831,43.2111,,*50
$GPGNS,033007.00,,,,,,05,,,,1.0,123*7E
$GLGNS,033007.00,,,,,,07,,,,,*7F
$GAGNS,033007.00,,,,,,05,,,,,*70
$GBGNS,033007.00,,,,,,05,,,,,*73
$GPLLQ,033007.00,010125,,M,,M,1,22,1.804,,M*1B
$GPVTG,,T,,M,0.01,N,0.01,K,D*26
$GPHDT,,T*1B
$GPTHS,,V*0E
$GPROT,,V*08
$PSSN,HRP,033007.00,010125,,,,,,,00,0,,*66
$PTNL,AVR,033007.00,,Yaw,,Tilt,,,,0,,00*30
$GPGSA,A,3,04,06,07,09,11,,,,,,,,1.2,0.6,1.0*3A
$GPGSA,A,3,70,71,72,80,85,86,87,,,,,,1.2,0.6,1.0*36
$GPGSA,A,3,05,06,09,34,36,,,,,,,,1.2,0.6,1.0*3E
$GPGSA,A,3,12,19,20,22,35,,,,,,,,1.2,0.6,1.0*39
$GPGST,033007.00,3.709,0.983,0.597,60.498,0.710,0.905,1.390*66
$GPGBS,033007.00,3.835,5.611,8.142,87,0.0001,-8.125,6.170*74
$GPGRS,033007.00,1,-0.1,0.3,-0.5,0.4,0.2,,,,,,,*66
$GPGRS,033007.00,1,-4.0,1.9,0.5,4.2,6.8,-4.0,-8.1,,,,,*46
$GPGRS,033007.00,1,0.4,-0.7,0.1,2.2,0.2,,,,,,,*4A
$GPGRS,033007.00,1,-2.4,-2.7,-1.0,-2.1,-4.0,,,,,,,*4F
$GPGSV,5,1,17,09,76,263,50,07,27,182,44,11,23,316,44,31,14,040,27*7B
$GPGSV,5,2,17,26,12,060,,19,13,249,34,03,39,107,31,06,53,285,45*78
$GPGSV,5,3,17,04,71,054,48,01,02,158,,20,02,301,31,17,02,226,*7B
$GPGSV,5,4,17,16,06,089,,36,35,170,39,34,31,208,,49,34,195,35*7F
$GPGSV,5,5,17,61,03,257,*4B
$GLGSV,3,1,10,70,58,041,41,73,11,143,,72,10,267,36,85,23,200,41*67
$GLGSV,3,2,10,87,29,325,35,79,20,032,20,80,32,090,40,71,54,295,45*60
$GLGSV,3,3,10,86,52,265,51,69,01,074,*65
$GAGSV,3,1,12,09,67,056,48,15,11,324,35,04,16,060,30,36,52,190,46*67
$GAGSV,3,2,12,34,54,291,41,06,42,060,46,05,55,244,49,18,07,243,*66
$GAGSV,3,3,12,23,09,051,,31,06,099,,03,05,242,,11,09,161,*6E
$GBGSV,5,1,20,19,79,005,45,58,32,100,,39,16,039,24,12,19,319,37*67
$GBGSV,5,2,20,37,26,058,35,05,23,128,,16,26,043,35,44,28,295,26*68
$GBGSV,5,3,20,06,28,046,27,46,31,121,,35,31,240,37,22,34,278,34*6D
$GBGSV,5,4,20,20,36,080,43,09,40,056,30,48,58,073,,36,06,166,*6A
$GBGSV,5,5,20,29,02,190,,34,01,339,,02,07,106,,60,08,111,*6A
$GPGGA,033007.00,,,,,0,00,,,M,,M,,*4F
$PTNL,GGK,033007.00,010125,4742.4461567,N,01617.9731671,E,1,22,1.2,EHT669.0942,M*43
$GPGGQ,033007.00,010125,4742.4461567,N,01617.9731671,E,1,22,1.804,625.8831,M*36
$GPGFA,033007.00,9.345,11.399,0.983,0.597,60.498,1.390,,VVV*0D
$GPLLK,033007.00,010125,,M,,M,1,22,1.4,,M*09
$GNGMP,033007.00,,,,,DAAA,22,0.6,,,,*57
$GPGMP,033007.00,,,,,,05,,,,1.0,123*7E
$GLGMP,033007.00,,,,,,07,,,,,*7F
$GAGMP,033007.00,,,,,,05,,,,,*70
$GBGMP,033007.00,,,,,,05,,,,,*73
$PSSN,SNC,[0,271825000,2347]*4F
$GPZDA,033012.00,01,01,2025,,*60
$GPDTM,W84,,00.0000000,N,00.0000000,E,00.0000000,W84*5F
$GPRMC,033012.00,A,4742.4461543,N,01617.9731710,E,0.0,,010125,5.1,E,D*15
$GPGLL,4742.4461543,N,01617.9731710,E,033012.00,A,D*64
$GPGGA,033012.00,4742.4461543,N,01617.9731710,E,2,21,0.7,625.8829,M,43.2111,M,2.0,0123*41
$GNGNS,033012.00,4742.4461543,N,01617.9731710,E,DAAA,21,0.7,625.8829,43.2111,,*5F
$GPGNS,033012.00,,,,,,05,,,,2.0,123*79
$GLGNS,033012.00,,,,,,07,,,,,*7B
$GAGNS,033012.00,,,,,,05,,,,,*74
$GBGNS,033012.00,,,,,,04,,,,,*76
$GPLLQ,033012.00,010125,,M,,M,1,21,1.941,,M*1C
$GPVTG,,T,,M,0.00,N,0.01,K,D*27
$GPHDT,,T*1B
$GPTHS,,V*0E
$GPROT,,V*08
$PSSN,HRP,033012.00,010125,,,,,,,00,0,,*62
$PTNL,AVR,033012.00,,Yaw,,Tilt,,,,0,,00*34
$GPGSA,A,3,04,06,07,09,11,,,,,,,,1.2,0.7,1.0*3B
$GPGSA,A,3,70,71,72,80,85,86,87,,,,,,1.2,0.7,1.0*37
$GPGSA,A,3,05,06,09,34,36,,,,,,,,1.2,0.7,1.0*3F
$GPGSA,A,3,12,19,20,22,,,,,,,,,1.2,0.7,1.0*3E
$GPGST,033012.00,4.880,1.055,0.643,60.063,0.767,0.969,1.497*68
$GPGBS,033012.00,3.891,5.728,8.253,22,0.0001,13.727,8.562*63
$GPGRS,033012.00,1,-0.3,0.7,-0.6,-0.0,0.3,,,,,,,*4F
$GPGRS,033012.00,1,-3.8,2.9,2.7,3.8,4.0,-3.6,-7.0,,,,,*46
$GPGRS,033012.00,1,-0.0,-1.3,-0.4,1.3,-0.3,,,,,,,*64
$GPGRS,033012.00,1,2.5,-3.4,-0.8,13.7,,,,,,,,*70
$GPGSV,5,1,17,09,76,263,50,07,27,182,44,11,23,316,45,31,14,040,19*77
$GPGSV,5,2,17,26,12,060,,19,13,249,34,03,39,107,34,06,53,285,45*7D
$GPGSV,5,3,17,04,71,054,48,01,02,158,,20,02,301,32,17,02,226,*78
$GPGSV,5,4,17,16,06,089,,36,35,170,39,34,31,208,,49,34,195,35*7F
$GPGSV,5,5,17,61,03,257,*4B
$GLGSV,3,1,10,70,58,041,42,73,11,143,,72,10,267,36,85,23,200,40*65
$GLGSV,3,2,10,87,29,325,38,79,20,032,23,80,32,090,38,71,54,295,45*61
$GLGSV,3,3,10,86,52,265,51,69,01,074,*65
$GAGSV,3,1,12,09,67,056,48,15,11,324,34,04,16,060,31,36,51,190,46*64
$GAGSV,3,2,12,34,54,291,41,06,41,060,45,05,55,244,49,18,07,243,*66
$GAGSV,3,3,12,23,09,051,,31,06,099,,03,05,242,,11,09,161,*6E
$GBGSV,5,1,20,19,79,005,45,58,32,100,,39,16,039,21,12,19,319,38*6D
$GBGSV,5,2,20,37,26,058,34,05,23,128,,16,26,043,35,44,28,295,28*67
$GBGSV,5,3,20,06,28,046,27,46,31,120,,35,31,240,34,22,34,278,36*6D
$GBGSV,5,4,20,20,36,080,43,09,40,055,31,48,58,073,,36,07,166,*69
$GBGSV,5,5,20,29,02,190,,34,01,339,,02,07,106,,60,08,111,*6A
$GPGGA,033012.00,,,,,0,00,,,M,,M,,*4B
$PTNL,GGK,033012.00,010125,4742.4461543,N,01617.9731710,E,1,21,1.2,EHT669.0939,M*48
$GPGGQ,033012.00,010125,4742.4461543,N,01617.9731710,E,1,21,1.941,625.8829,M*38
$GPGFA,033012.00,10.034,12.279,1.055,0.643,60.063,1.497,,VVV*31
$GPLLK,033012.00,010125,,M,,M,1,21,1.4,,M*0E
$GNGMP,033012.00,,,,,DAAA,21,0.7,,,,*51
$GPGMP,033012.00,,,,,,05,,,,2.0,123*79
$GLGMP,033012.00,,,,,,07,,,,,*7B
$GAGMP,033012.00,,,,,,05,,,,,*74
$GBGMP,033012.00,,,,,,04,,,,,*76
$PSSN,SNC,[0,271830000,2347]*4B
$GPZDA,033017.00,01,01,2025,,*65
$GPDTM,W84,,00.0000000,N,00.0000000,E,00.0000000,W84*5F
$GPRMC,033017.00,A,4742.4461501,N,01617.9731803,E,0.0,,010125,5.1,E,D*1B
$GPGLL,4742.4461501,N,01617.9731803,E,033017.00,A,D*6A
$GPGGA,033017.00,4742.4461501,N,01617.9731803,E,2,21,0.7,625.8874,M,43.2111,M,3.0,0123*46
$GNGNS,033017.00,4742.4461501,N,01617.9731803,E,DAAA,21,0.7,625.8874,43.2111,,*59
$GPGNS,033017.00,,,,,,06,,,,3.0,123*7E
$GLGNS,033017.00,,,,,,06,,,,,*7F
$GAGNS,033017.00,,,,,,05,,,,,*71
$GBGNS,033017.00,,,,,,04,,,,,*73
$GPLLQ,033017.00,010125,,M,,M,1,21,1.729,,M*19
$GPVTG,,T,,M,0.00,N,0.00,K,D*26
$GPHDT,,T*1B
$GPTHS,,V*0E
$GPROT,,V*08
$PSSN,HRP,033017.00,010125,,,,,,,00,0,,*67
$PTNL,AVR,033017.00,,Yaw,,Tilt,,,,0,,00*31
$GPGSA,A,3,03,04,06,07,09,11,,,,,,,1.3,0.7,1.1*38
$GPGSA,A,3,70,71,80,85,86,87,,,,,,,1.3,0.7,1.1*32
$GPGSA,A,3,05,06,09,34,36,,,,,,,,1.3,0.7,1.1*3F
$GPGSA,A,3,12,19,20,22,,,,,,,,,1.3,0.7,1.1*3E
$GPGST,033017.00,3.959,0.856,0.553,33.694,0.775,0.661,1.397*6C
$GPGBS,033017.00,4.254,3.661,7.683,06,0.0001,0.914,0.653*5D
$GPGRS,033017.00,1,1.0,-0.3,0.9,-0.8,-0.7,0.3,,,,,,*62
$GPGRS,033017.00,1,-2.4,2.6,-0.9,1.9,-3.9,-6.5,,,,,,*42
$GPGRS,033017.00,1,-0.0,-1.5,-0.6,0.3,-0.4,,,,,,,*63
$GPGRS,033017.00,1,7.0,-3.6,-0.1,8.8,,,,,,,,*4B
$GPGSV,5,1,17,09,76,263,51,07,27,182,44,11,23,315,45,31,14,039,28*79
$GPGSV,5,2,17,26,12,060,,19,13,249,,03,39,107,38,06,53,285,46*75
$GPGSV,5,3,17,04,71,054,48,01,02,158,,20,02,301,33,17,02,226,*79
$GPGSV,5,4,17,16,06,089,,36,35,170,39,34,31,208,,49,34,195,35*7F
$GPGSV,5,5,17,61,03,257,*4B
$GLGSV,3,1,10,70,58,041,43,73,11,143,,72,10,267,34,85,23,200,40*66
$GLGSV,3,2,10,87,29,325,39,79,20,032,28,80,32,090,36,71,54,295,47*67
$GLGSV,3,3,10,86,52,265,51,69,01,074,*65
$GAGSV,3,1,12,09,67,056,48,15,11,324,34,04,16,060,32,36,51,190,47*66
$GAGSV,3,2,12,34,54,291,41,06,41,060,45,05,55,244,48,18,07,243,*67
$GAGSV,3,3,12,23,09,051,,31,06,099,,03,05,242,,11,09,161,*6E
$GBGSV,5,1,20,19,79,005,44,58,32,100,,39,16,039,23,12,19,319,38*6E
$GBGSV,5,2,20,37,26,058,33,05,23,128,,16,26,043,34,44,28,295,26*6F
$GBGSV,5,3,20,06,28,046,26,46,31,120,,35,31,240,31,22,34,278,37*68
$GBGSV,5,4,20,20,36,080,44,09,40,055,30,48,58,073,,36,07,166,*6F
$GBGSV,5,5,20,29,02,190,,34,01,339,,02,07,106,,60,08,111,*6A
$GPGGA,033017.00,,,,,0,00,,,M,,M,,*4E
$PTNL,GGK,033017.00,010125,4742.4461501,N,01617.9731803,E,1,21,1.3,EHT669.0984,M*41
$GPGGQ,033017.00,010125,4742.4461501,N,01617.9731803,E,1,21,1.729,625.8874,M*3E
$GPGFA,033017.00,8.137,11.453,0.856,0.553,33.694,1.397,,VVV*05
$GPLLK,033017.00,010125,,M,,M,1,21,1.5,,M*0A
$GNGMP,033017.00,,,,,DAAA,21,0.7,,,,*54
$GPGMP,033017.00,,,,,,06,,,,3.0,123*7E
$GLGMP,033017.00,,,,,,06,,,,,*7F
$GAGMP,033017.00,,,,,,05,,,,,*71
$GBGMP,033017.00,,,,,,04,,,,,*73
$PSSN,SNC,[0,271835000,2347]*4E
$GPZDA,033022.00,01,01,2025,,*63
$GPDTM,W84,,00.0000000,N,00.0000000,E,00.0000000,W84*5F
$GPRMC,033022.00,A,4742.4461448,N,01617.9731695,E,0.0,,010125,5.1,E,D*10
$GPGLL,4742.4461448,N,01617.9731695,E,033022.00,A,D*61
$GPGGA,033022.00,4742.4461448,N,01617.9731695,E,2,21,0.7,625.8991,M,43.2111,M,4.0,0123*40
$GNGNS,033022.00,4742.4461448,N,01617.9731695,E,DAAA,21,0.7,625.8991,43.2111,,*58
$GPGNS,033022.00,,,,,,06,,,,4.0,123*7F
$GLGNS,033022.00,,,,,,06,,,,,*79
$GAGNS,033022.00,,,,,,05,,,,,*77
$GBGNS,033022.00,,,,,,04,,,,,*75
$GPLLQ,033022.00,010125,,M,,M,1,21,1.889,,M*1A
$GPVTG,,T,,M,0.01,N,0.02,K,D*25
$GPHDT,,T*1B
$GPTHS,,V*0E
$GPROT,,V*08
$PSSN,HRP,033022.00,010125,,,,,,,00,0,,*61
$PTNL,AVR,033022.00,,Yaw,,Tilt,,,,0,,00*37
$GPGSA,A,3,03,04,06,07,09,11,,,,,,,1.3,0.7,1.1*38
$GPGSA,A,3,70,71,80,85,86,87,,,,,,,1.3,0.7,1.1*32
$GPGSA,A,3,05,06,09,34,36,,,,,,,,1.3,0.7,1.1*3F
$GPGSA,A,3,12,19,20,22,,,,,,,,,1.3,0.7,1.1*3E
$GPGST,033022.00,3.292,0.935,0.603,33.924,0.846,0.723,1.527*65
$GPGBS,033022.00,4.337,3.744,7.818,03,0.0001,1.748,0.759*5D
$GPGRS,033022.00,1,1.7,-0.2,0.8,-1.1,-0.6,-0.3,,,,,,*47
$GPGRS,033022.00,1,-2.6,2.2,-2.4,2.0,-4.2,-6.5,,,,,,*4B
$GPGRS,033022.00,1,-0.2,-1.7,-0.8,-0.4,-0.7,,,,,,,*42
$GPGRS,033022.00,1,6.4,-4.4,0.2,0.8,,,,,,,,*6B
$GPGSV,5,1,17,09,76,264,52,07,27,182,44,11,23,315,45,31,14,039,28*7D
$GPGSV,5,2,17,26,12,060,,19,13,249,32,03,39,107,39,06,53,285,46*75
$GPGSV,5,3,17,04,71,054,48,01,02,158,,20,02,301,32,17,02,226,*78
$GPGSV,5,4,17,16,06,089,,36,35,170,39,34,31,208,,49,34,195,36*7C
$GPGSV,5,5,17,61,03,257,*4B
$GLGSV,3,1,10,70,58,041,43,73,11,143,,72,10,267,30,85,23,200,39*6C
$GLGSV,3,2,10,87,29,325,41,79,20,032,,80,32,090,36,71,54,295,48*6D
$GLGSV,3,3,10,86,52,265,50,69,01,074,*64
$GAGSV,3,1,12,09,67,056,48,15,11,324,32,04,16,060,31,36,51,190,47*63
$GAGSV,3,2,12,34,54,291,41,06,41,060,45,05,56,244,48,18,07,243,*64
$GAGSV,3,3,12,23,09,051,,31,06,099,,03,05,242,,11,09,161,*6E
$GBGSV,5,1,20,19,79,005,43,58,32,100,,39,16,039,26,12,19,319,36*62
$GBGSV,5,2,20,37,26,058,32,05,23,128,,16,26,043,33,44,28,294,24*6A
$GBGSV,5,3,20,06,28,046,27,46,31,120,,35,31,240,30,22,34,278,38*67
$GBGSV,5,4,20,20,36,080,45,09,40,055,29,48,58,073,,36,07,166,*66
$GBGSV,5,5,20,29,02,190,,34,01,339,,02,07,106,,60,08,111,*6A
$GPGGA,033022.00,,,,,0,00,,,M,,M,,*48
$PTNL,GGK,033022.00,010125,4742.4461448,N,01617.9731695,E,1,21,1.3,EHT669.1101,M*4E
$GPGGQ,033022.00,010125,4742.4461448,N,01617.9731695,E,1,21,1.889,625.8991,M*3A
$GPGFA,033022.00,8.888,12.522,0.935,0.603,33.924,1.527,,VVV*01
$GPLLK,033022.00,010125,,M,,M,1,21,1.5,,M*0C
$GNGMP,033022.00,,,,,DAAA,21,0.7,,,,*52
$GPGMP,033022.00,,,,,,06,,,,4.0,123*7F
$GLGMP,033022.00,,,,,,06,,,,,*79
$GAGMP,033022.00,,,,,,05,,,,,*77
$GBGMP,033022.00,,,,,,04,,,,,*75
$PSSN,SNC,[0,271840000,2347]*4C
$GPZDA,033027.00,01,01,2025,,*66
$GPDTM,W84,,00.0000000,N,00.0000000,E,00.0000000,W84*5F
$GPRMC,033027.00,A,4742.4461401,N,01617.9731613,E,0.0,,010125,5.1,E,D*16
$GPGLL,4742.4461401,N,01617.9731613,E,033027.00,A,D*67
$GPGGA,033027.00,4742.4461401,N,01617.9731613,E,2,21,0.7,625.8948,M,43.2111,M,1.0,0123*47
$GNGNS,033027.00,4742.4461401,N,01617.9731613,E,DAAA,21,0.7,625.8948,43.2111,,*5A
$GPGNS,033027.00,,,,,,06,,,,1.0,123*7F
$GLGNS,033027.00,,,,,,06,,,,,*7C
$GAGNS,033027.00,,,,,,05,,,,,*72
$GBGNS,033027.00,,,,,,04,,,,,*70
$GPLLQ,033027.00,010125,,M,,M,1,21,1.866,,M*1E
$GPVTG,,T,,M,0.00,N,0.00,K,D*26
$GPHDT,,T*1B
$GPTHS,,V*0E
$GPROT,,V*08
$PSSN,HRP,033027.00,010125,,,,,,,00,0,,*64
$PTNL,AVR,033027.00,,Yaw,,Tilt,,,,0,,00*32
$GPGSA,A,3,03,04,06,07,09,11,,,,,,,1.3,0.7,1.1*38
$GPGSA,A,3,70,71,80,85,86,87,,,,,,,1.3,0.7,1.1*32
$GPGSA,A,3,05,06,09,34,36,,,,,,,,1.3,0.7,1.1*3F
$GPGSA,A,3,12,19,20,22,,,,,,,,,1.3,0.7,1.1*3E
$GPGST,033027.00,3.366,0.922,0.595,33.525,0.836,0.711,1.509*67
$GPGBS,033027.00,4.125,3.503,7.476,03,0.0001,1.359,0.715*50
$GPGRS,033027.00,1,1.4,-0.4,0.8,-1.3,-0.2,-0.6,,,,,,*44
$GPGRS,033027.00,1,-3.0,1.3,1.2,2.0,-4.4,-6.3,,,,,,*63
$GPGRS,033027.00,1,-0.1,-1.5,-0.8,0.0,-0.6,,,,,,,*6E
$GPGRS,033027.00,1,-6.3,-5.1,-0.0,-2.9,,,,,,,,*41
$GPGSV,5,1,17,09,76,264,52,07,27,182,44,11,23,315,46,31,14,039,28*7E
$GPGSV,5,2,17,26,12,060,,19,13,249,28,03,39,107,40,06,53,285,45*73
$GPGSV,5,3,17,04,71,054,48,01,02,158,,20,02,301,32,17,02,226,*78
$GPGSV,5,4,17,16,06,089,,36,35,170,39,34,31,208,,49,34,195,35*7F
$GPGSV,5,5,17,61,03,257,*4B
$GLGSV,3,1,10,70,58,041,43,73,11,143,,72,10,268,31,85,23,200,36*6D
$GLGSV,3,2,10,87,29,325,44,79,20,032,,80,32,090,36,71,54,295,47*67
$GLGSV,3,3,10,86,52,265,51,69,01,074,*65
$GAGSV,3,1,12,09,67,056,47,15,11,324,30,04,16,060,31,36,51,190,47*6E
$GAGSV,3,2,12,34,54,291,41,06,41,060,45,05,56,244,48,18,07,243,*64
$GAGSV,3,3,12,23,09,051,,31,06,099,,03,05,242,,11,09,161,*6E
$GBGSV,5,1,20,19,79,006,42,58,32,100,,39,16,039,25,12,19,319,34*61
$GBGSV,5,2,20,37,26,058,31,05,23,128,,16,26,043,33,44,28,294,23*6E
$GBGSV,5,3,20,06,28,046,29,46,31,120,,35,31,240,29,22,34,278,39*60
$GBGSV,5,4,20,20,36,080,46,09,40,055,28,48,57,073,,36,07,166,*6B
$GBGSV,5,5,20,29,02,190,,34,01,339,,02,07,106,,60,08,111,*6A
$GPGGA,033027.00,,,,,0,00,,,M,,M,,*4D
$PTNL,GGK,033027.00,010125,4742.4461401,N,01617.9731613,E,1,21,1.3,EHT669.1059,M*44
$GPGGQ,033027.00,010125,4742.4461401,N,01617.9731613,E,1,21,1.866,625.8948,M*39
$GPGFA,033027.00,8.767,12.371,0.922,0.595,33.525,1.509,,VVV*01
$GPLLK,033027.00,010125,,M,,M,1,21,1.5,,M*09
$GNGMP,033027.00,,,,,DAAA,21,0.7,,,,*57
$GPGMP,033027.00,,,,,,06,,,,1.0,123*7F
$GLGMP,033027.00,,,,,,06,,,,,*7C
$GAGMP,033027.00,,,,,,05,,,,,*72
$GBGMP,033027.00,,,,,,04,,,,,*70
$PSSN,SNC,[0,271845000,2347]*49
$GPZDA,033032.00,01,01,2025,,*62
$GPDTM,W84,,00.0000000,N,00.0000000,E,00.0000000,W84*5F
$GPRMC,033032.00,A,4742.4461345,N,01617.9731552,E,0.0,,010125,5.1,E,D*13
$GPGLL,4742.4461345,N,01617.9731552,E,033032.00,A,D*62
$GPGGA,033032.00,4742.4461345,N,01617.9731552,E,2,19,0.7,625.8889,M,43.2111,M,2.0,0123*46
$GNGNS,033032.00,4742.4461345,N,01617.9731552,E,DAAA,19,0.7,625.8889,43.2111,,*58
$GPGNS,033032.00,,,,,,06,,,,2.0,123*78
$GLGNS,033032.00,,,,,,05,,,,,*7B
$GAGNS,033032.00,,,,,,05,,,,,*76
$GBGNS,033032.00,,,,,,03,,,,,*73
$GPLLQ,033032.00,010125,,M,,M,1,19,1.567,,M*1D
$GPVTG,,T,,M,0.00,N,0.01,K,D*27
$GPHDT,,T*1B
$GPTHS,,V*0E
$GPROT,,V*08
$PSSN,HRP,033032.00,010125,,,,,,,00,0,,*60
$PTNL,AVR,033032.00,,Yaw,,Tilt,,,,0,,00*36
$GPGSA,A,3,03,04,06,07,09,11,,,,,,,1.4,0.7,1.2*3C
$GPGSA,A,3,70,71,85,86,87,,,,,,,,1.4,0.7,1.2*3E
$GPGSA,A,3,05,06,09,34,36,,,,,,,,1.4,0.7,1.2*3B
$GPGSA,A,3,19,20,22,,,,,,,,,,1.4,0.7,1.2*39
$GPGST,033032.00,2.742,0.775,0.501,33.407,0.704,0.598,1.267*62
$GPGBS,033032.00,4.189,3.620,7.621,07,0.0001,-1.272,0.782*7F
$GPGRS,033032.00,1,0.9,-0.1,0.8,-1.3,-0.2,-0.2,,,,,,*4D
$GPGRS,033032.00,1,-2.9,1.8,-0.9,-4.1,-5.9,,,,,,,*63
$GPGRS,033032.00,1,0.0,-1.3,-0.4,0.6,-0.3,,,,,,,*4F
$GPGRS,033032.00,1,-4.4,-0.6,0.9,,,,,,,,,*6E
$GPGSV,5,1,17,09,76,264,52,07,27,182,44,11,23,315,47,31,14,039,28*7F
$GPGSV,5,2,17,26,12,060,,19,13,249,,03,39,108,41,06,53,285,45*77
$GPGSV,5,3,17,04,70,054,48,01,02,158,,20,02,301,28,17,02,226,*72
$GPGSV,5,4,17,16,06,089,,36,35,170,39,34,31,208,,49,34,195,35*7F
$GPGSV,5,5,17,61,03,257,*4B
$GLGSV,3,1,10,70,57,041,44,73,11,143,,72,11,268,31,85,23,200,36*64
$GLGSV,3,2,10,87,29,325,45,79,20,031,34,80,32,090,35,71,54,295,46*60
$GLGSV,3,3,10,86,52,265,51,69,01,074,*65
$GAGSV,3,1,12,09,67,056,47,15,11,324,29,04,16,060,29,36,51,190,47*6F
$GAGSV,3,2,12,34,54,291,42,06,41,060,45,05,56,244,48,18,07,243,*67
$GAGSV,3,3,12,23,10,051,,31,06,099,,03,05,242,,11,09,161,*66
$GBGSV,5,1,20,19,79,006,41,58,32,100,,39,16,039,24,12,19,319,35*62
$GBGSV,5,2,20,05,23,128,,16,26,043,32,37,26,058,36,44,28,294,27*6C
$GBGSV,5,3,20,06,28,046,29,46,31,120,,35,31,240,29,22,34,278,40*6E
$GBGSV,5,4,20,20,36,080,47,09,40,055,28,48,57,073,,36,07,166,*6A
$GBGSV,5,5,20,29,02,190,,34,01,339,,02,07,106,,60,08,111,*6A
$GPGGA,033032.00,,,,,0,00,,,M,,M,,*49
$PTNL,GGK,033032.00,010125,4742.4461345,N,01617.9731552,E,1,19,1.4,EHT669.0999,M*49
$GPGGQ,033032.00,010125,4742.4461345,N,01617.9731552,E,1,19,1.567,625.8889,M*37
$GPGFA,033032.00,7.372,10.386,0.775,0.501,33.407,1.267,,VVV*0F
$GPLLK,033032.00,010125,,M,,M,1,19,1.7,,M*04
$GNGMP,033032.00,,,,,DAAA,19,0.7,,,,*58
$GPGMP,033032.00,,,,,,06,,,,2.0,123*78
$GLGMP,033032.00,,,,,,05,,,,,*7B
$GAGMP,033032.00,,,,,,05,,,,,*76
$GBGMP,033032.00,,,,,,03,,,,,*73
$PSSN,SNC,[0,271850000,2347]*4D
$GPZDA,033037.00,01,01,2025,,*67
$GPDTM,W84,,00.0000000,N,00.0000000,E,00.0000000,W84*5F
$GPRMC,033037.00,A,4742.4461286,N,01617.9731522,E,0.0,,010125,5.1,E,D*1F
$GPGLL,4742.4461286,N,01617.9731522,E,033037.00,A,D*6E
$GPGGA,033037.00,4742.4461286,N,01617.9731522,E,2,22,0.6,625.8898,M,43.2111,M,4.0,0123*45
$GNGNS,033037.00,4742.4461286,N,01617.9731522,E,DAAA,22,0.6,625.8898,43.2111,,*5D
$GPGNS,033037.00,,,,,,06,,,,4.0,123*7B
$GLGNS,033037.00,,,,,,06,,,,,*7D
$GAGNS,033037.00,,,,,,05,,,,,*73
$GBGNS,033037.00,,,,,,05,,,,,*70
$GPLLQ,033037.00,010125,,M,,M,1,22,1.645,,M*13
$GPVTG,,T,,M,0.00,N,0.00,K,D*26
$GPHDT,,T*1B
$GPTHS,,V*0E
$GPROT,,V*08
$PSSN,HRP,033037.00,010125,,,,,,,00,0,,*65
$PTNL,AVR,033037.00,,Yaw,,Tilt,,,,0,,00*33
$GPGSA,A,3,03,04,06,07,09,11,,,,,,,1.2,0.6,1.0*39
$GPGSA,A,3,70,71,80,85,86,87,,,,,,,1.2,0.6,1.0*33
$GPGSA,A,3,05,06,09,34,36,,,,,,,,1.2,0.6,1.0*3E
$GPGSA,A,3,12,19,20,22,37,,,,,,,,1.2,0.6,1.0*3B
$GPGST,033037.00,3.116,0.812,0.525,33.910,0.734,0.628,1.332*68
$GPGBS,033037.00,4.333,3.709,7.813,07,0.0001,-1.340,0.810*78
$GPGRS,033037.00,1,0.8,-0.3,0.9,-1.3,-0.1,0.1,,,,,,*67
$GPGRS,033037.00,1,-2.7,-0.1,4.7,-0.1,-3.4,-5.5,,,,,,*66
$GPGRS,033037.00,1,0.1,-1.1,0.2,1.1,-0.1,,,,,,,*66
$GPGRS,033037.00,1,-3.2,-3.2,-1.1,3.2,-6.1,,,,,,,*62
$GPGSV,5,1,17,09,76,264,52,07,27,182,44,11,23,315,47,31,14,039,26*71
$GPGSV,5,2,17,26,12,060,,19,13,249,28,03,39,108,41,06,53,285,45*7D
$GPGSV,5,3,17,04,70,054,47,01,02,158,,20,02,301,,17,02,226,*77
$GPGSV,5,4,17,16,06,089,,36,35,170,39,34,31,208,,49,34,195,34*7E
$GPGSV,5,5,17,61,03,257,*4B
$GLGSV,3,1,10,70,57,041,43,73,11,143,,72,11,268,31,85,23,200,36*63
$GLGSV,3,2,10,87,29,325,45,79,20,031,31,80,32,090,35,71,54,295,45*66
$GLGSV,3,3,10,86,51,265,51,69,01,074,*66
$GAGSV,3,1,12,09,66,056,47,15,11,324,29,04,16,060,30,36,51,190,47*66
$GAGSV,3,2,12,34,54,291,42,06,41,060,45,05,56,244,47,18,07,243,*68
$GAGSV,3,3,12,23,10,051,,31,06,099,,03,06,242,,11,09,161,*65
$GBGSV,5,1,20,19,79,006,41,58,32,100,,39,16,039,,12,19,319,35*64
$GBGSV,5,2,20,05,23,128,,16,26,043,31,37,26,058,35,44,28,294,28*63
$GBGSV,5,3,20,06,28,046,28,46,31,120,,35,31,240,30,22,34,278,39*69
$GBGSV,5,4,20,20,36,080,47,09,40,055,26,48,57,073,,36,07,166,*64
$GBGSV,5,5,20,29,02,190,,34,01,339,,02,07,106,,60,08,111,*6A
$GPGGA,033037.00,,,,,0,00,,,M,,M,,*4C
$PTNL,GGK,033037.00,010125,4742.4461286,N,01617.9731522,E,1,22,1.2,EHT669.1008,M*4B
$GPGGQ,033037.00,010125,4742.4461286,N,01617.9731522,E,1,22,1.645,625.8898,M*30
$GPGFA,033037.00,7.716,10.919,0.812,0.525,33.910,1.332,,VVV*02
$GPLLK,033037.00,010125,,M,,M,1,22,1.4,,M*0A
$GNGMP,033037.00,,,,,DAAA,22,0.6,,,,*54
$GPGMP,033037.00,,,,,,06,,,,4.0,123*7B
$GLGMP,033037.00,,,,,,06,,,,,*7D
$GAGMP,033037.00,,,,,,05,,,,,*73
$GBGMP,033037.00,,,,,,05,,,,,*70
$PSSN,SNC,[0,271855000,2347]*48
$GPZDA,033042.00,01,01,2025,,*65
$GPDTM,W84,,00.0000000,N,00.0000000,E,00.0000000,W84*5F
$GPRMC,033042.00,A,4742.4461210,N,01617.9731560,E,0.0,,010125,5.1,E,D*14
$GPGLL,4742.4461210,N,01617.9731560,E,033042.00,A,D*65
$GPGGA,033042.00,4742.4461210,N,01617.9731560,E,2,19,0.7,625.8883,M,43.2111,M,1.0,0123*48
$GNGNS,033042.00,4742.4461210,N,01617.9731560,E,DAAA,19,0.7,625.8883,43.2111,,*55
$GPGNS,033042.00,,,,,,06,,,,1.0,123*7C
$GLGNS,033042.00,,,,,,04,,,,,*7D
$GAGNS,033042.00,,,,,,05,,,,,*71
$GBGNS,033042.00,,,,,,04,,,,,*73
$GPLLQ,033042.00,010125,,M,,M,1,19,1.674,,M*1B
$GPVTG,,T,,M,0.00,N,0.00,K,D*26
$GPHDT,,T*1B
$GPTHS,,V*0E
$GPROT,,V*08
$PSSN,HRP,033042.00,010125,,,,,,,00,0,,*67
$PTNL,AVR,033042.00,,Yaw,,Tilt,,,,0,,00*31
$GPGSA,A,3,03,04,06,07,09,11,,,,,,,1.4,0.7,1.2*3C
$GPGSA,A,3,70,71,86,87,,,,,,,,,1.4,0.7,1.2*33
$GPGSA,A,3,05,06,09,34,36,,,,,,,,1.4,0.7,1.2*3B
$GPGSA,A,3,12,19,20,22,,,,,,,,,1.4,0.7,1.2*3A
$GPGST,033042.00,2.780,0.832,0.534,33.584,0.753,0.640,1.351*6B
$GPGBS,033042.00,4.210,3.545,7.474,07,0.0001,-1.619,0.769*75
$GPGRS,033042.00,1,0.5,-0.3,1.0,-1.6,0.1,-0.0,,,,,,*64
$GPGRS,033042.00,1,-2.2,-2.4,-3.3,-6.8,,,,,,,,*40
$GPGRS,033042.00,1,-0.2,-0.9,0.5,1.0,-0.3,,,,,,,*47
$GPGRS,033042.00,1,-0.0,-2.9,-1.7,2.9,,,,,,,,*63
$GPGSV,5,1,17,09,76,264,52,07,27,182,44,11,23,315,47,31,14,039,25*72
$GPGSV,5,2,17,26,12,060,,19,13,249,30,03,39,108,42,06,53,285,46*74
$GPGSV,5,3,17,04,70,054,46,01,02,158,,20,02,301,28,17,02,226,*7C
$GPGSV,5,4,17,16,06,089,,36,35,170,39,34,31,208,,49,34,195,35*7F
$GPGSV,5,5,17,61,03,257,*4B
$GLGSV,3,1,10,70,57,041,44,73,11,143,,72,11,268,28,85,23,200,35*6F
$GLGSV,3,2,10,87,29,325,45,79,20,031,37,80,32,090,33,71,54,295,45*66
$GLGSV,3,3,10,86,51,265,51,69,01,074,*66
$GAGSV,3,1,12,09,66,056,47,15,11,324,27,04,16,060,30,36,51,190,47*68
$GAGSV,3,2,12,34,54,291,42,06,41,060,45,05,56,244,46,18,07,243,*69
$GAGSV,3,3,12,23,10,051,,31,06,099,,03,06,242,,11,09,161,*65
$GBGSV,5,1,20,19,79,006,41,58,32,100,,39,16,039,,12,19,319,35*64
$GBGSV,5,2,20,05,23,128,,16,26,043,30,37,26,058,31,44,28,294,32*6D
$GBGSV,5,3,20,06,28,046,29,46,31,120,,35,30,240,32,22,34,278,39*6B
$GBGSV,5,4,20,20,36,080,47,09,40,055,24,48,57,073,,36,07,166,*66
$GBGSV,5,5,20,29,02,190,,34,01,339,,02,07,106,,60,08,111,*6A
$GPGGA,033042.00,,,,,0,00,,,M,,M,,*4E
$PTNL,GGK,033042.00,010125,4742.4461210,N,01617.9731560,E,1,19,1.4,EHT669.0994,M*43
$GPGGQ,033042.00,010125,4742.4461210,N,01617.9731560,E,1,19,1.674,625.8883,M*3B
$GPGFA,033042.00,7.910,11.082,0.832,0.534,33.584,1.351,,VVV*04
$GPLLK,033042.00,010125,,M,,M,1,19,1.7,,M*03
$GNGMP,033042.00,,,,,DAAA,19,0.7,,,,*5F
$GPGMP,033042.00,,,,,,06,,,,1.0,123*7C
$GLGMP,033042.00,,,,,,04,,,,,*7D
$GAGMP,033042.00,,,,,,05,,,,,*71
$GBGMP,033042.00,,,,,,04,,,,,*73
$PSSN,SNC,[0,271860000,2347]*4E
$GPZDA,033047.00,01,01,2025,,*60
$GPDTM,W84,,00.0000000,N,00.0000000,E,00.0000000,W84*5F
$GPRMC,033047.00,A,4742.4461147,N,01617.9731587,E,0.0,,010125,5.1,E,D*19
$GPGLL,4742.4461147,N,01617.9731587,E,033047.00,A,D*68
$GPGGA,033047.00,4742.4461147,N,01617.9731587,E,2,18,0.8,625.8746,M,43.2111,M,2.0,0123*4E
$GNGNS,033047.00,4742.4461147,N,01617.9731587,E,DAAA,18,0.8,625.8746,43.2111,,*50
$GPGNS,033047.00,,,,,,06,,,,2.0,123*7A
$GLGNS,033047.00,,,,,,04,,,,,*78
$GAGNS,033047.00,,,,,,05,,,,,*74
$GBGNS,033047.00,,,,,,03,,,,,*71
$GPLLQ,033047.00,010125,,M,,M,1,18,2.012,,M*1A
$GPVTG,,T,,M,0.01,N,0.01,K,D*26
$GPHDT,,T*1B
$GPTHS,,V*0E
$GPROT,,V*08
$PSSN,HRP,033047.00,010125,,,,,,,00,0,,*62
$PTNL,AVR,033047.00,,Yaw,,Tilt,,,,0,,00*34
$GPGSA,A,3,03,04,06,07,09,11,,,,,,,1.5,0.8,1.3*33
$GPGSA,A,3,70,71,86,87,,,,,,,,,1.5,0.8,1.3*3C
$GPGSA,A,3,05,06,09,34,36,,,,,,,,1.5,0.8,1.3*34
$GPGSA,A,3,19,20,22,,,,,,,,,,1.5,0.8,1.3*36
$GPGST,033047.00,3.156,0.998,0.642,32.989,0.907,0.765,1.625*6E
$GPGBS,033047.00,4.274,3.612,7.622,07,0.0001,-1.794,0.781*70
$GPGRS,033047.00,1,0.4,-0.2,1.2,-1.8,0.2,-0.6,,,,,,*68
$GPGRS,033047.00,1,-1.8,-1.2,-3.7,-7.3,,,,,,,,*47
$GPGRS,033047.00,1,-0.4,-0.8,1.0,0.6,-0.2,,,,,,,*47
$GPGRS,033047.00,1,-2.8,-2.1,4.2,,,,,,,,,*6C
$GPGSV,5,1,17,09,76,264,51,07,27,182,43,11,23,315,46,31,14,039,24*76
$GPGSV,5,2,17,26,12,060,,19,13,249,32,03,39,108,41,06,53,285,47*74
$GPGSV,5,3,17,04,70,054,44,01,02,158,,20,02,301,,17,02,226,*74
$GPGSV,5,4,17,16,06,089,,36,35,170,39,34,31,208,,49,34,195,34*7E
$GPGSV,5,5,17,61,03,257,*4B
$GLGSV,3,1,10,70,57,041,44,73,11,143,,72,11,268,26,85,23,200,35*61
$GLGSV,3,2,10,87,29,325,44,79,20,031,37,80,32,090,35,71,54,295,45*61
$GLGSV,3,3,10,86,51,265,50,69,01,074,*67
$GAGSV,3,1,12,09,66,056,48,15,11,324,25,04,16,060,29,36,51,190,47*6D
$GAGSV,3,2,12,34,54,291,43,06,41,060,45,05,56,244,46,18,07,243,*68
$GAGSV,3,3,12,23,10,051,,31,06,099,,03,06,242,,11,09,161,*65
$GBGSV,5,1,20,19,79,006,42,58,32,100,,39,16,039,,12,19,319,34*66
$GBGSV,5,2,20,05,23,128,,16,26,043,27,37,26,058,30,44,28,294,34*6C
$GBGSV,5,3,20,06,28,046,30,46,31,120,,35,30,240,34,22,34,278,37*6B
$GBGSV,5,4,20,20,36,080,47,09,40,055,25,48,57,073,,36,07,166,*67
$GBGSV,5,5,20,29,02,190,,34,01,339,,02,07,106,,60,08,111,*6A
$GPGGA,033047.00,,,,,0,00,,,M,,M,,*4B
$PTNL,GGK,033047.00,010125,4742.4461147,N,01617.9731587,E,1,18,1.5,EHT669.0856,M*41
$GPGGQ,033047.00,010125,4742.4461147,N,01617.9731587,E,1,18,2.012,625.8746,M*34
$GPGFA,033047.00,9.488,13.323,0.998,0.642,32.989,1.625,,VVV*0C
$GPLLK,033047.00,010125,,M,,M,1,18,1.8,,M*08
$GNGMP,033047.00,,,,,DAAA,18,0.8,,,,*54
$GPGMP,033047.00,,,,,,06,,,,2.0,123*7A
$GLGMP,033047.00,,,,,,04,,,,,*78
$GAGMP,033047.00,,,,,,05,,,,,*74
$GBGMP,033047.00,,,,,,03,,,,,*71
$PSSN,SNC,[0,271865000,2347]*4B
$GPZDA,033052.00,01,01,2025,,*64
$GPDTM,W84,,00.0000000,N,00.0000000,E,00.0000000,W84*5F
$GPRMC,033052.00,A,4742.4461075,N,01617.9731666,E,0.0,,010125,5.1,E,D*11
$GPGLL,4742.4461075,N,01617.9731666,E,033052.00,A,D*60
$GPGGA,033052.00,4742.4461075,N,01617.9731666,E,2,22,0.7,625.8646,M,43.2111,M,3.0,0123*40
$GNGNS,033052.00,4742.4461075,N,01617.9731666,E,DAAA,22,0.7,625.8646,43.2111,,*5F
$GPGNS,033052.00,,,,,,06,,,,3.0,123*7F
$GLGNS,033052.00,,,,,,06,,,,,*7E
$GAGNS,033052.00,,,,,,05,,,,,*70
$GBGNS,033052.00,,,,,,05,,,,,*73
$GPLLQ,033052.00,010125,,M,,M,1,22,1.978,,M*11
$GPVTG,,T,,M,0.00,N,0.00,K,D*26
$GPHDT,,T*1B
$GPTHS,,V*0E
$GPROT,,V*08
$PSSN,HRP,033052.00,010125,,,,,,,00,0,,*66
$PTNL,AVR,033052.00,,Yaw,,Tilt,,,,0,,00*30
$GPGSA,A,3,03,04,06,07,09,11,,,,,,,1.3,0.7,1.1*38
$GPGSA,A,3,70,71,80,85,86,87,,,,,,,1.3,0.7,1.1*32
$GPGSA,A,3,05,06,09,34,36,,,,,,,,1.3,0.7,1.1*3F
$GPGSA,A,3,19,20,22,35,44,,,,,,,,1.3,0.7,1.1*3B
$GPGST,033052.00,6.260,0.974,0.631,33.468,0.884,0.752,1.602*67
$GPGBS,033052.00,4.242,3.621,7.741,80,0.0001,21.698,6.151*65
$GPGRS,033052.00,1,-0.2,-0.3,1.2,-1.2,0.2,-0.2,,,,,,*48
$GPGRS,033052.00,1,-1.3,0.1,21.7,-0.8,-4.0,-7.1,,,,,,*74
$GPGRS,033052.00,1,-0.4,-0.8,1.1,0.5,0.1,,,,,,,*6F
$GPGRS,033052.00,1,-3.0,-2.4,5.1,-1.5,-0.0,,,,,,,*62
$GPGSV,5,1,17,09,76,264,52,07,27,182,43,11,23,315,47,31,14,039,24*74
$GPGSV,5,2,17,26,12,060,,19,13,249,32,03,39,108,40,06,53,285,47*75
$GPGSV,5,3,17,04,70,054,44,01,02,158,,20,02,301,26,17,02,226,*70
$GPGSV,5,4,17,16,06,089,,36,35,170,40,34,31,208,,49,34,195,35*71
$GPGSV,5,5,17,61,03,257,*4B
$GLGSV,3,1,10,70,57,042,45,73,11,143,,72,11,268,23,85,22,200,37*65
$GLGSV,3,2,10,87,29,325,44,79,20,031,37,80,32,089,36,71,55,295,45*6B
$GLGSV,3,3,10,86,51,265,50,69,01,074,*67
$GAGSV,3,1,12,09,66,056,48,15,11,324,22,04,16,060,29,36,51,190,46*6B
$GAGSV,3,2,12,34,54,291,44,06,41,060,45,05,56,244,45,18,07,243,*6C
$GAGSV,3,3,12,23,10,051,,31,06,099,,03,06,242,,11,09,161,*65
$GBGSV,5,1,20,19,79,007,43,58,32,099,,39,16,039,24,12,19,319,33*66
$GBGSV,5,2,20,05,23,128,,16,26,043,39,37,26,058,29,44,28,294,35*6A
$GBGSV,5,3,20,06,28,046,30,46,31,120,,35,30,240,36,22,34,278,35*6B
$GBGSV,5,4,20,20,36,080,46,09,40,055,26,48,57,074,,36,07,166,*62
$GBGSV,5,5,20,29,02,190,,34,01,339,,02,07,106,,60,08,111,*6A
$GPGGA,033052.00,,,,,0,00,,,M,,M,,*4F
$PTNL,GGK,033052.00,010125,4742.4461075,N,01617.9731666,E,1,22,1.3,EHT669.0757,M*48
$GPGGQ,033052.00,010125,4742.4461075,N,01617.9731666,E,1,22,1.978,625.8646,M*32
$GPGFA,033052.00,9.262,13.136,0.974,0.631,33.468,1.602,,VVV*0C
$GPLLK,033052.00,010125,,M,,M,1,22,1.6,,M*0B
$GNGMP,033052.00,,,,,DAAA,22,0.7,,,,*56
$GPGMP,033052.00,,,,,,06,,,,3.0,123*7F
$GLGMP,033052.00,,,,,,06,,,,,*7E
$GAGMP,033052.00,,,,,,05,,,,,*70
$GBGMP,033052.00,,,,,,05,,,,,*73
$PSSN,SNC,[0,271870000,2347]*4F
$GPZDA,033057.00,01,01,2025,,*61
$GPDTM,W84,,00.0000000,N,00.0000000,E,00.0000000,W84*5F
$GPRMC,033057.00,A,4742.4461012,N,01617.9731682,E,0.0,,010125,5.1,E,D*1F
$GPGLL,4742.4461012,N,01617.9731682,E,033057.00,A,D*6E
$GPGGA,033057.00,4742.4461012,N,01617.9731682,E,2,22,0.7,625.8581,M,43.2111,M,4.0,0123*41
$GNGNS,033057.00,4742.4461012,N,01617.9731682,E,DAAA,22,0.7,625.8581,43.2111,,*59
$GPGNS,033057.00,,,,,,06,,,,4.0,123*7D
$GLGNS,033057.00,,,,,,06,,,,,*7B
$GAGNS,033057.00,,,,,,05,,,,,*75
$GBGNS,033057.00,,,,,,05,,,,,*76
$GPLLQ,033057.00,010125,,M,,M,1,22,2.905,,M*1D
$GPVTG,,T,,M,0.00,N,0.01,K,D*27
$GPHDT,,T*1B
$GPTHS,,V*0E
$GPROT,,V*08
$PSSN,HRP,033057.00,010125,,,,,,,00,0,,*63
$PTNL,AVR,033057.00,,Yaw,,Tilt,,,,0,,00*35
$GPGSA,A,3,03,04,06,07,09,11,,,,,,,1.3,0.7,1.1*38
$GPGSA,A,3,70,71,79,80,86,87,,,,,,,1.3,0.7,1.1*31
$GPGSA,A,3,05,06,09,34,36,,,,,,,,1.3,0.7,1.1*3F
$GPGSA,A,3,19,20,22,35,44,,,,,,,,1.3,0.7,1.1*3B
$GPGST,033057.00,8.321,1.433,0.928,33.360,1.301,1.105,2.351*6D
$GPGBS,033057.00,4.396,3.678,7.773,80,0.0001,20.694,6.142*6A
$GPGRS,033057.00,1,-0.8,-0.1,1.0,-0.9,-0.2,0.1,,,,,,*4E
$GPGRS,033057.00,1,-1.7,0.8,21.0,20.7,-4.5,-7.9,,,,,,*66
$GPGRS,033057.00,1,-0.6,-1.0,0.6,0.6,0.2,,,,,,,*67
$GPGRS,033057.00,1,-3.6,-3.2,7.3,-0.3,-0.8,,,,,,,*69
$GPGSV,5,1,17,09,76,264,51,07,27,182,43,11,23,315,46,31,14,039,28*7A
$GPGSV,5,2,17,26,12,060,,19,13,249,31,03,39,108,40,06,53,285,47*76
$GPGSV,5,3,17,04,70,054,43,01,02,158,,20,02,301,30,17,02,226,*70
$GPGSV,5,4,17,16,06,089,,36,35,170,40,34,31,208,,49,34,195,35*71
$GPGSV,5,5,17,61,03,257,*4B
$GLGSV,3,1,10,70,57,042,45,73,11,143,,72,11,268,22,85,22,200,32*61
$GLGSV,3,2,10,87,29,325,44,79,20,031,38,80,32,089,39,71,55,295,47*69
$GLGSV,3,3,10,86,51,265,49,69,01,074,*6F
$GAGSV,3,1,12,09,66,056,48,15,11,324,21,04,16,060,28,36,51,190,46*69
$GAGSV,3,2,12,34,54,291,44,06,41,060,45,05,56,244,44,18,07,243,*6D
$GAGSV,3,3,12,23,10,051,,31,06,099,,03,06,242,,11,09,161,*65
$GBGSV,5,1,20,19,79,007,44,58,32,099,,39,16,039,25,12,19,319,33*60
$GBGSV,5,2,20,05,23,128,,16,26,043,24,37,26,058,31,44,28,294,36*6C
$GBGSV,5,3,20,06,28,046,30,46,31,120,,35,30,240,38,22,34,278,35*65
$GBGSV,5,4,20,20,36,080,46,09,40,055,28,48,57,074,,36,07,166,*6C
$GBGSV,5,5,20,29,02,190,,34,01,338,,02,07,106,,60,08,111,*6B
$GPGGA,033057.00,,,,,0,00,,,M,,M,,*4A
$PTNL,GGK,033057.00,010125,4742.4461012,N,01617.9731682,E,1,22,1.3,EHT669.0691,M*4D
$GPGGQ,033057.00,010125,4742.4461012,N,01617.9731682,E,1,22,2.905,625.8581,M*3D
$GPGFA,033057.00,13.624,19.278,1.433,0.928,33.360,2.351,,VVV*30
$GPLLK,033057.00,010125,,M,,M,1,22,1.5,,M*0D
$GNGMP,033057.00,,,,,DAAA,22,0.7,,,,*53
$GPGMP,033057.00,,,,,,06,,,,4.0,123*7D
$GLGMP,033057.00,,,,,,06,,,,,*7B
$GAGMP,033057.00,,,,,,05,,,,,*75
$GBGMP,033057.00,,,,,,05,,,,,*76
$PSSN,SNC,[0,271875000,2347]*4A
$GPZDA,033102.00,01,01,2025,,*60
$GPDTM,W84,,00.0000000,N,00.0000000,E,00.0000000,W84*5F
$GPRMC,033102.00,A,4742.4460931,N,01617.9731729,E,0.0,,010125,5.1,E,D*17
$GPGLL,4742.4460931,N,01617.9731729,E,033102.00,A,D*66
$GPGGA,033102.00,4742.4460931,N,01617.9731729,E,2,23,0.6,625.8616,M,43.2111,M,1.0,0123*41
$GNGNS,033102.00,4742.4460931,N,01617.9731729,E,DAAA,23,0.6,625.8616,43.2111,,*5C
$GPGNS,033102.00,,,,,,06,,,,1.0,123*79
$GLGNS,033102.00,,,,,,07,,,,,*7B
$GAGNS,033102.00,,,,,,05,,,,,*74
$GBGNS,033102.00,,,,,,05,,,,,*77
$GPLLQ,033102.00,010125,,M,,M,1,23,2.832,,M*18
$GPVTG,,T,,M,0.00,N,0.00,K,D*26
$GPHDT,,T*1B
$GPTHS,,V*0E
$GPROT,,V*08
$PSSN,HRP,033102.00,010125,,,,,,,00,0,,*62
$PTNL,AVR,033102.00,,Yaw,,Tilt,,,,0,,00*34
$GPGSA,A,3,03,04,06,07,09,11,,,,,,,1.2,0.6,1.0*39
$GPGSA,A,3,70,71,79,80,85,86,87,,,,,,1.2,0.6,1.0*3D
$GPGSA,A,3,05,06,09,34,36,,,,,,,,1.2,0.6,1.0*3E
$GPGSA,A,3,16,19,20,35,44,,,,,,,,1.2,0.6,1.0*3D
$GPGST,033102.00,8.110,1.385,0.908,33.273,1.260,1.074,2.297*6D
$GPGBS,033102.00,4.061,3.426,7.415,79,0.0001,20.124,6.315*60
$GPGRS,033102.00,1,-0.7,0.3,0.1,-0.5,-0.1,0.6,,,,,,*67
$GPGRS,033102.00,1,-2.4,3.1,20.1,15.1,17.0,-4.3,-7.9,,,,,*73
$GPGRS,033102.00,1,-0.5,-1.2,0.3,0.2,0.0,,,,,,,*64
$GPGRS,033102.00,1,-1.4,-3.0,-3.9,2.1,-1.0,,,,,,,*6D
$GPGSV,5,1,17,09,77,264,51,07,27,182,42,11,23,315,47,31,14,039,*71
$GPGSV,5,2,17,26,12,060,,19,12,249,32,03,39,108,40,06,53,285,46*75
$GPGSV,5,3,17,04,70,054,42,01,02,158,,20,02,301,33,17,02,226,*72
$GPGSV,5,4,17,16,06,089,,36,35,170,40,34,31,208,,49,34,195,35*71
$GPGSV,5,5,17,61,03,257,*4B
$GLGSV,3,1,10,70,57,042,45,73,11,143,,72,11,268,,85,22,200,40*64
$GLGSV,3,2,10,87,29,325,45,79,20,031,37,80,32,089,42,71,55,296,48*67
$GLGSV,3,3,10,86,51,265,49,69,01,074,*6F
$GAGSV,3,1,12,09,66,056,48,15,11,324,22,04,16,060,28,36,51,190,47*6B
$GAGSV,3,2,12,34,54,291,45,06,41,060,45,05,56,244,44,18,07,242,*6D
$GAGSV,3,3,12,23,10,051,,31,06,099,,03,06,242,,11,09,161,*65
$GBGSV,5,1,20,19,79,007,45,58,32,099,,39,16,039,25,12,19,319,34*66
$GBGSV,5,2,20,05,23,128,,16,26,043,39,37,26,058,34,44,28,294,38*6B
$GBGSV,5,3,20,06,28,046,30,46,31,120,,35,30,240,40,22,34,278,35*6A
$GBGSV,5,4,20,20,36,080,45,09,40,055,29,48,57,074,,36,07,166,*6E
$GBGSV,5,5,20,29,02,190,,34,01,338,,02,07,106,,60,08,111,*6B
$GPGGA,033102.00,,,,,0,00,,,M,,M,,*4B
$PTNL,GGK,033102.00,010125,4742.4460931,N,01617.9731729,E,1,23,1.2,EHT669.0727,M*49
$GPGGQ,033102.00,010125,4742.4460931,N,01617.9731729,E,1,23,2.832,625.8616,M*3C
$GPGFA,033102.00,13.166,18.837,1.385,0.908,33.273,2.297,,VVV*30
$GPLLK,033102.00,010125,,M,,M,1,23,1.4,,M*0C
$GNGMP,033102.00,,,,,DAAA,23,0.6,,,,*52
$GPGMP,033102.00,,,,,,06,,,,1.0,123*79
$GLGMP,033102.00,,,,,,07,,,,,*7B
$GAGMP,033102.00,,,,,,05,,,,,*74
$GBGMP,033102.00,,,,,,05,,,,,*77
$PSSN,SNC,[0,271880000,2347]*40
$GPZDA,033107.00,01,01,2025,,*65
$GPDTM,W84,,00.0000000,N,00.0000000,E,00.0000000,W84*5F
$GPRMC,033107.00,A,4742.4460895,N,01617.9731743,E,0.0,,010125,5.1,E,D*11
$GPGLL,4742.4460895,N,01617.9731743,E,033107.00,A,D*60
$GPGGA,033107.00,4742.4460895,N,01617.9731743,E,2,24,0.6,625.8710,M,43.2111,M,2.0,0123*44
$GNGNS,033107.00,4742.4460895,N,01617.9731743,E,DAAA,24,0.6,625.8710,43.2111,,*5A
$GPGNS,033107.00,,,,,,06,,,,2.0,123*7F
$GLGNS,033107.00,,,,,,07,,,,,*7E
$GAGNS,033107.00,,,,,,05,,,,,*71
$GBGNS,033107.00,,,,,,06,,,,,*71
$GPLLQ,033107.00,010125,,M,,M,1,24,2.343,,M*17
$GPVTG,,T,,M,0.00,N,0.00,K,D*26
$GPHDT,,T*1B
$GPTHS,,V*0E
$GPROT,,V*08
$PSSN,HRP,033107.00,010125,,,,,,,00,0,,*67
$PTNL,AVR,033107.00,,Yaw,,Tilt,,,,0,,00*31
$GPGSA,A,3,03,04,06,07,09,11,,,,,,,1.2,0.6,1.0*39
$GPGSA,A,3,70,71,79,80,85,86,87,,,,,,1.2,0.6,1.0*3D
$GPGSA,A,3,05,06,09,34,36,,,,,,,,1.2,0.6,1.0*3E
$GPGSA,A,3,16,19,20,35,37,44,,,,,,,1.2,0.6,1.0*39
$GPGST,033107.00,6.932,1.143,0.753,32.536,1.046,0.884,1.901*66
$GPGBS,033107.00,4.110,3.465,7.499,79,0.0001,17.142,6.321*62
$GPGRS,033107.00,1,-0.8,0.4,-0.2,-0.4,-0.2,0.9,,,,,,*49
$GPGRS,033107.00,1,-2.0,4.9,17.1,9.4,15.9,-4.4,-8.0,,,,,*4B
$GPGRS,033107.00,1,-0.6,-1.5,0.2,-0.2,-0.1,,,,,,,*65
$GPGRS,033107.00,1,-1.1,-2.7,-4.4,3.2,5.1,-1.3,,,,,,*4A
$GPGSV,5,1,17,09,77,264,50,07,27,182,42,11,23,315,47,31,14,039,*70
$GPGSV,5,2,17,26,12,060,,19,12,249,30,03,39,108,40,06,53,284,46*76
$GPGSV,5,3,17,04,70,054,43,01,02,158,,20,02,301,32,17,02,226,*72
$GPGSV,5,4,17,16,06,089,,36,35,170,40,34,31,208,,49,34,195,35*71
$GPGSV,5,5,17,61,03,257,*4B
$GLGSV,3,1,10,70,57,042,45,73,11,143,,72,11,268,23,85,22,200,40*65
$GLGSV,3,2,10,87,29,325,44,79,20,031,36,80,32,089,42,71,55,296,47*68
$GLGSV,3,3,10,86,51,264,49,69,01,074,*6E
$GAGSV,3,1,12,09,66,056,48,15,11,324,20,04,16,060,27,36,51,190,47*66
$GAGSV,3,2,12,34,55,291,44,06,41,060,44,05,56,244,44,18,07,242,*6C
$GAGSV,3,3,12,23,10,051,,31,06,099,,03,06,242,,11,09,161,*65
$GBGSV,5,1,20,19,79,007,45,58,32,099,,39,16,039,26,12,19,319,35*64
$GBGSV,5,2,20,05,23,128,,16,26,043,39,37,26,058,36,44,28,294,39*68
$GBGSV,5,3,20,06,28,046,31,46,31,120,,35,30,240,40,22,34,278,33*6D
$GBGSV,5,4,20,20,36,080,44,09,40,055,31,48,57,074,,36,07,166,*66
$GBGSV,5,5,20,29,02,190,,34,01,338,,02,07,106,,60,08,111,*6B
$GPGGA,033107.00,,,,,0,00,,,M,,M,,*4E
$PTNL,GGK,033107.00,010125,4742.4460895,N,01617.9731743,E,1,24,1.2,EHT669.0821,M*41
$GPGGQ,033107.00,010125,4742.4460895,N,01617.9731743,E,1,24,2.343,625.8710,M*37
$GPGFA,033107.00,10.872,15.592,1.143,0.753,32.536,1.901,,VVV*3D
$GPLLK,033107.00,010125,,M,,M,1,24,1.4,,M*0E
$GNGMP,033107.00,,,,,DAAA,24,0.6,,,,*50
$GPGMP,033107.00,,,,,,06,,,,2.0,123*7F
$GLGMP,033107.00,,,,,,07,,,,,*7E
$GAGMP,033107.00,,,,,,05,,,,,*71
$GBGMP,033107.00,,,,,,06,,,,,*71
$PSSN,SNC,[0,271885000,2347]*45
$GPZDA,033112.00,01,01,2025,,*61
$GPDTM,W84,,00.0000000,N,00.0000000,E,00.0000000,W84*5F
$GPRMC,033112.00,A,4742.4460842,N,01617.9731829,E,0.0,,010125,5.1,E,D*1C
$GPGLL,4742.4460842,N,01617.9731829,E,033112.00,A,D*6D
$GPGGA,033112.00,4742.4460842,N,01617.9731829,E,2,23,0.6,625.8713,M,43.2111,M,3.0,0123*4C
$GNGNS,033112.00,4742.4460842,N,01617.9731829,E,DAAA,23,0.6,625.8713,43.2111,,*53
$GPGNS,033112.00,,,,,,06,,,,3.0,123*7A
$GLGNS,033112.00,,,,,,06,,,,,*7B
$GAGNS,033112.00,,,,,,05,,,,,*75
$GBGNS,033112.00,,,,,,06,,,,,*75
$GPLLQ,033112.00,010125,,M,,M,1,23,1.868,,M*15
$GPVTG,,T,,M,0.00,N,0.00,K,D*26
$GPHDT,,T*1B
$GPTHS,,V*0E
$GPROT,,V*08
$PSSN,HRP,033112.00,010125,,,,,,,00,0,,*63
$PTNL,AVR,033112.00,,Yaw,,Tilt,,,,0,,00*35
$GPGSA,A,3,03,04,06,07,09,11,,,,,,,1.2,0.6,1.1*38
$GPGSA,A,3,70,71,80,85,86,87,,,,,,,1.2,0.6,1.1*32
$GPGSA,A,3,05,06,09,34,36,,,,,,,,1.2,0.6,1.1*3F
$GPGSA,A,3,16,19,20,35,37,44,,,,,,,1.2,0.6,1.1*38
$GPGST,033112.00,4.483,0.915,0.597,33.064,0.833,0.707,1.516*61
$GPGBS,033112.00,4.218,3.575,7.715,85,0.0001,10.921,6.156*61
$GPGRS,033112.00,1,-1.1,0.4,0.4,-0.6,-0.1,0.9,,,,,,*6F
$GPGRS,033112.00,1,-1.4,4.8,4.6,10.9,-4.7,-8.5,,,,,,*5C
$GPGRS,033112.00,1,-0.1,-1.6,0.3,-0.3,0.0,,,,,,,*49
$GPGRS,033112.00,1,-0.8,-3.3,-3.6,3.1,4.5,-1.5,,,,,,*46
$GPGSV,5,1,17,09,77,264,49,07,27,182,41,11,23,315,48,31,14,039,26*70
$GPGSV,5,2,17,26,12,060,,19,12,249,,03,39,108,39,06,53,284,47*7A
$GPGSV,5,3,17,04,70,054,43,01,01,158,,20,02,301,31,17,02,226,*72
$GPGSV,5,4,17,16,06,089,,36,35,170,40,34,31,208,,49,34,195,35*71
$GPGSV,5,5,17,61,03,257,*4B
$GLGSV,3,1,10,70,57,042,45,73,11,143,,72,11,268,24,85,22,200,39*6C
$GLGSV,3,2,10,87,29,325,44,79,20,031,33,80,32,089,43,71,55,296,47*6C
$GLGSV,3,3,10,86,51,264,49,69,01,074,*6E
$GAGSV,3,1,12,09,66,056,48,15,11,324,34,04,16,060,26,36,51,190,47*62
$GAGSV,3,2,12,34,55,290,45,06,41,060,44,05,56,244,43,18,07,242,*6B
$GAGSV,3,3,12,23,10,051,,31,06,099,,03,06,242,,11,09,161,*65
$GBGSV,5,1,20,19,79,007,44,58,32,099,,39,16,039,27,12,19,319,35*64
$GBGSV,5,2,20,05,23,128,,16,26,043,39,37,26,058,37,44,28,294,40*67
$GBGSV,5,3,20,06,28,046,30,46,31,120,,35,30,240,40,22,34,278,31*6E
$GBGSV,5,4,20,20,36,080,44,09,40,055,33,48,57,074,,36,07,166,*64
$GBGSV,5,5,20,29,02,190,,34,01,338,,02,07,106,,60,08,111,*6B
$GPGGA,033112.00,,,,,0,00,,,M,,M,,*4A
$PTNL,GGK,033112.00,010125,4742.4460842,N,01617.9731829,E,1,23,1.2,EHT669.0823,M*49
$GPGGQ,033112.00,010125,4742.4460842,N,01617.9731829,E,1,23,1.868,625.8713,M*3F
$GPGFA,033112.00,8.702,12.428,0.915,0.597,33.064,1.516,,VVV*06
$GPLLK,033112.00,010125,,M,,M,1,23,1.4,,M*0D
$GNGMP,033112.00,,,,,DAAA,23,0.6,,,,*53
$GPGMP,033112.00,,,,,,06,,,,3.0,123*7A
$GLGMP,033112.00,,,,,,06,,,,,*7B
$GAGMP,033112.00,,,,,,05,,,,,*75
$GBGMP,033112.00,,,,,,06,,,,,*75
$PSSN,SNC,[0,271890000,2347]*41
$GPZDA,033117.00,01,01,2025,,*64
$GPDTM,W84,,00.0000000,N,00.0000000,E,00.0000000,W84*5F
$GPRMC,033117.00,A,4742.4460796,N,01617.9731991,E,0.0,,010125,5.1,E,D*1D
$GPGLL,4742.4460796,N,01617.9731991,E,033117.00,A,D*6C
$GPGGA,033117.00,4742.4460796,N,01617.9731991,E,2,25,0.6,625.8690,M,43.2111,M,4.0,0123*46
$GNGNS,033117.00,4742.4460796,N,01617.9731991,E,DAAA,25,0.6,625.8690,43.2111,,*5E
$GPGNS,033117.00,,,,,,06,,,,4.0,123*78
$GLGNS,033117.00,,,,,,07,,,,,*7F
$GAGNS,033117.00,,,,,,05,,,,,*70
$GBGNS,033117.00,,,,,,07,,,,,*71
$GPLLQ,033117.00,010125,,M,,M,1,25,2.185,,M*1F
$GPVTG,,T,,M,0.00,N,0.01,K,D*27
$GPHDT,,T*1B
$GPTHS,,V*0E
$GPROT,,V*08
$PSSN,HRP,033117.00,010125,,,,,,,00,0,,*66
$PTNL,AVR,033117.00,,Yaw,,Tilt,,,,0,,00*30
$GPGSA,A,3,03,04,06,07,09,11,,,,,,,1.1,0.6,1.0*3A
$GPGSA,A,3,70,71,79,80,85,86,87,,,,,,1.1,0.6,1.0*3E
$GPGSA,A,3,05,06,09,34,36,,,,,,,,1.1,0.6,1.0*3D
$GPGSA,A,3,12,16,19,20,35,37,44,,,,,,1.1,0.6,1.0*39
$GPGST,033117.00,4.189,1.064,0.701,33.461,0.968,0.829,1.775*62
$GPGBS,033117.00,4.249,3.615,7.721,03,0.0001,-2.114,0.764*7D
$GPGRS,033117.00,1,-2.1,0.3,0.6,-0.1,0.2,1.0,,,,,,*4D
$GPGRS,033117.00,1,-1.4,4.6,2.6,3.9,11.1,-4.2,-7.9,,,,,*7A
$GPGRS,033117.00,1,0.1,-1.6,0.4,-0.1,0.3,,,,,,,*67
$GPGRS,033117.00,1,-3.6,-1.4,-4.0,-3.0,2.5,3.3,-0.6,,,,,*4C
$GPGSV,5,1,17,09,77,265,48,07,27,182,41,11,23,315,48,31,14,039,25*73
$GPGSV,5,2,17,26,12,060,,19,12,249,20,03,39,108,38,06,53,284,48*76
$GPGSV,5,3,17,04,70,054,44,01,01,158,,20,02,301,,17,02,226,*77
$GPGSV,5,4,17,16,06,089,,36,35,170,40,34,31,208,,49,34,195,34*70
$GPGSV,5,5,17,61,03,257,*4B
$GLGSV,3,1,10,70,57,042,44,73,11,143,,72,11,268,21,85,22,200,38*69
$GLGSV,3,2,10,87,29,325,43,79,20,031,35,80,32,089,43,71,55,296,47*6D
$GLGSV,3,3,10,86,51,264,50,69,01,074,*66
$GAGSV,3,1,12,09,66,056,48,15,11,324,33,04,16,061,25,36,51,190,47*67
$GAGSV,3,2,12,34,55,290,45,06,41,060,43,05,56,244,44,18,07,242,*6B
$GAGSV,3,3,12,23,10,051,,31,06,099,,03,06,242,,11,09,161,*65
$GBGSV,5,1,20,19,79,007,44,58,32,099,,39,16,039,25,12,19,319,36*65
$GBGSV,5,2,20,05,23,128,,16,26,043,39,37,26,058,38,44,28,294,41*69
$GBGSV,5,3,20,06,28,046,31,46,31,120,,35,30,240,40,22,34,278,28*67
$GBGSV,5,4,20,20,36,080,43,09,40,055,34,48,57,074,,36,07,166,*64
$GBGSV,5,5,20,29,02,190,,34,01,338,,02,07,106,,60,08,111,*6B
$GPGGA,033117.00,,,,,0,00,,,M,,M,,*4F
$PTNL,GGK,033117.00,010125,4742.4460796,N,01617.9731991,E,1,25,1.1,EHT669.0800,M*4C
$GPGGQ,033117.00,010125,4742.4460796,N,01617.9731991,E,1,25,2.185,625.8690,M*3B
$GPGFA,033117.00,10.114,14.553,1.064,0.701,33.461,1.775,,VVV*35
$GPLLK,033117.00,010125,,M,,M,1,25,1.3,,M*09
$GNGMP,033117.00,,,,,DAAA,25,0.6,,,,*50
$GPGMP,033117.00,,,,,,06,,,,4.0,123*78
$GLGMP,033117.00,,,,,,07,,,,,*7F
$GAGMP,033117.00,,,,,,05,,,,,*70
$GBGMP,033117.00,,,,,,07,,,,,*71
$PSSN,SNC,[0,271895000,2347]*44
$GPZDA,033122.00,01,01,2025,,*62
$GPDTM,W84,,00.0000000,N,00.0000000,E,00.0000000,W84*5F
$GPRMC,033122.00,A,4742.4460804,N,01617.9732204,E,0.0,,010125,5.1,E,D*1B
$GPGLL,4742.4460804,N,01617.9732204,E,033122.00,A,D*6A
$GPGGA,033122.00,4742.4460804,N,01617.9732204,E,2,24,0.6,625.8569,M,43.2111,M,1.0,0123*41
$GNGNS,033122.00,4742.4460804,N,01617.9732204,E,DAAA,24,0.6,625.8569,43.2111,,*5C
$GPGNS,033122.00,,,,,,06,,,,1.0,123*7B
$GLGNS,033122.00,,,,,,06,,,,,*78
$GAGNS,033122.00,,,,,,05,,,,,*76
$GBGNS,033122.00,,,,,,07,,,,,*77
$GPLLQ,033122.00,010125,,M,,M,1,24,2.003,,M*17
$GPVTG,,T,,M,0.00,N,0.00,K,D*26
$GPHDT,,T*1B
$GPTHS,,V*0E
$GPROT,,V*08
$PSSN,HRP,033122.00,010125,,,,,,,00,0,,*60
$PTNL,AVR,033122.00,,Yaw,,Tilt,,,,0,,00*36
$GPGSA,A,3,03,04,06,07,09,11,,,,,,,1.2,0.6,1.0*39
$GPGSA,A,3,70,71,80,85,86,87,,,,,,,1.2,0.6,1.0*33
$GPGSA,A,3,05,06,09,34,36,,,,,,,,1.2,0.6,1.0*3E
$GPGSA,A,3,12,16,19,20,35,37,44,,,,,,1.2,0.6,1.0*3A
$GPGST,033122.00,4.455,0.980,0.639,33.239,0.891,0.758,1.626*6A
$GPGBS,033122.00,4.087,3.430,7.487,03,0.0001,-1.974,0.722*7E
$GPGRS,033122.00,1,-2.0,-0.1,0.2,0.5,0.4,0.8,,,,,,*47
$GPGRS,033122.00,1,-1.8,4.6,4.3,13.2,-3.5,-7.3,,,,,,*5C
$GPGRS,033122.00,1,0.0,-1.8,0.4,0.0,0.3,,,,,,,*42
$GPGRS,033122.00,1,-3.8,-1.6,-3.5,-2.8,1.5,2.3,-0.4,,,,,*4D
$GPGSV,5,1,17,09,77,265,48,07,27,182,42,11,23,315,48,31,14,039,25*70
$GPGSV,5,2,17,26,12,060,,19,12,249,25,03,39,108,38,06,53,284,48*73
$GPGSV,5,3,17,04,70,054,44,01,01,158,,20,02,301,33,17,02,226,*77
$GPGSV,5,4,17,16,06,089,,36,35,170,40,34,31,208,,49,34,195,34*70
$GPGSV,5,5,17,61,03,257,*4B
$GLGSV,3,1,10,70,57,042,44,73,11,143,,72,11,268,,85,22,200,35*67
$GLGSV,3,2,10,87,29,325,43,79,20,031,27,80,32,089,43,71,55,296,47*6E
$GLGSV,3,3,10,86,51,264,50,69,00,074,*67
$GAGSV,3,1,12,09,66,056,47,15,11,324,22,04,16,061,25,36,51,190,46*69
$GAGSV,3,2,12,34,55,290,45,06,41,060,43,05,56,244,44,18,07,242,*6B
$GAGSV,3,3,12,23,10,051,,31,06,099,,03,06,242,,11,09,161,*65
$GBGSV,5,1,20,19,79,008,44,58,32,099,,39,16,039,24,12,19,319,35*68
$GBGSV,5,2,20,05,23,128,,16,25,043,39,37,26,058,39,44,28,294,41*6B
$GBGSV,5,3,20,06,28,046,32,46,31,120,,35,30,240,40,22,34,278,32*6F
$GBGSV,5,4,20,20,36,080,42,09,40,055,34,48,57,074,,36,07,166,*65
$GBGSV,5,5,20,29,02,190,,34,01,338,,02,07,106,,60,08,111,*6B
$GPGGA,033122.00,,,,,0,00,,,M,,M,,*49
$PTNL,GGK,033122.00,010125,4742.4460804,N,01617.9732204,E,1,24,1.2,EHT669.0680,M*4E
$GPGGQ,033122.00,010125,4742.4460804,N,01617.9732204,E,1,24,2.003,625.8569,M*36
$GPGFA,033122.00,9.318,13.333,0.980,0.639,33.239,1.626,,VVV*06
$GPLLK,033122.00,010125,,M,,M,1,24,1.3,,M*0E
$GNGMP,033122.00,,,,,DAAA,24,0.6,,,,*57
$GPGMP,033122.00,,,,,,06,,,,1.0,123*7B
$GLGMP,033122.00,,,,,,06,,,,,*78
$GAGMP,033122.00,,,,,,05,,,,,*76
$GBGMP,033122.00,,,,,,07,,,,,*77
$PSSN,SNC,[0,271900000,2347]*49
$GPZDA,033127.00,01,01,2025,,*67
$GPDTM,W84,,00.0000000,N,00.0000000,E,00.0000000,W84*5F
$GPRMC,033127.00,A,4742.4460825,N,01617.9732454,E,0.0,,010125,5.1,E,D*1E
$GPGLL,4742.4460825,N,01617.9732454,E,033127.00,A,D*6F
$GPGGA,033127.00,4742.4460825,N,01617.9732454,E,2,23,0.7,625.8506,M,43.2111,M,2.0,0123*48
$GNGNS,033127.00,4742.4460825,N,01617.9732454,E,DAAA,23,0.7,625.8506,43.2111,,*56
$GPGNS,033127.00,,,,,,06,,,,2.0,123*7D
$GLGNS,033127.00,,,,,,05,,,,,*7E
$GAGNS,033127.00,,,,,,05,,,,,*73
$GBGNS,033127.00,,,,,,07,,,,,*72
$GPLLQ,033127.00,010125,,M,,M,1,23,2.161,,M*10
$GPVTG,,T,,M,0.01,N,0.01,K,D*26
$GPHDT,,T*1B
$GPTHS,,V*0E
$GPROT,,V*08
$PSSN,HRP,033127.00,010125,,,,,,,00,0,,*65
$PTNL,AVR,033127.00,,Yaw,,Tilt,,,,0,,00*33
$GPGSA,A,3,03,04,06,07,09,11,,,,,,,1.3,0.7,1.1*38
$GPGSA,A,3,70,71,80,86,87,,,,,,,,1.3,0.7,1.1*3F
$GPGSA,A,3,05,06,09,34,36,,,,,,,,1.3,0.7,1.1*3F
$GPGSA,A,3,16,19,20,22,35,37,44,,,,,,1.3,0.7,1.1*38
$GPGST,033127.00,2.823,1.060,0.689,32.241,0.969,0.812,1.752*62
$GPGBS,033127.00,4.224,3.478,7.603,03,0.0001,-2.458,0.732*73
$GPGRS,033127.00,1,-2.5,0.2,0.3,1.2,0.5,0.8,,,,,,*6F
$GPGRS,033127.00,1,-2.8,3.8,4.6,-3.7,-5.8,,,,,,,*43
$GPGRS,033127.00,1,0.5,-2.0,0.4,0.2,0.4,,,,,,,*4C
$GPGRS,033127.00,1,-1.2,-2.8,-1.5,2.9,1.0,1.9,0.2,,,,,*44
$GPGSV,5,1,17,09,77,265,48,07,27,182,44,11,23,315,49,31,14,039,25*77
$GPGSV,5,2,17,26,12,060,,19,12,249,23,03,39,108,39,06,53,284,48*74
$GPGSV,5,3,17,04,70,054,44,01,01,158,,20,02,301,35,17,02,226,*71
$GPGSV,5,4,17,16,06,089,,36,35,170,40,34,31,208,,49,34,195,33*77
$GPGSV,5,5,17,61,03,257,*4B
$GLGSV,3,1,10,70,57,042,43,73,11,143,,72,11,268,22,85,22,200,33*66
