$GPZDA,071442.00,01,01,2025,,*67
$GPDTM,W84,,00.0000000,N,00.0000000,E,00.0000000,W84*5F
$GPRMC,071442.00,A,4742.4465776,N,01617.9733062,E,0.0,,010125,5.1,E,D*12
$GPGLL,4742.4465776,N,01617.9733062,E,071442.00,A,D*63
$GPGGA,071442.00,4742.4465776,N,01617.9733062,E,2,21,0.7,625.7116,M,43.2111,M,2.4,0123*48
$GNGNS,071442.00,4742.4465776,N,01617.9733062,E,DAAA,21,0.7,625.7116,43.2111,,*52
$GPGNS,071442.00,,,,,,07,,,,2.4,123*78
$GLGNS,071442.00,,,,,,05,,,,,*7E
$GAGNS,071442.00,,,,,,05,,,,,*73
$GBGNS,071442.00,,,,,,04,,,,,*71
$GPLLQ,071442.00,010125,,M,,M,1,21,2.551,,M*15
$GPVTG,,T,,M,0.01,N,0.01,K,D*26
$GPHDT,,T*1B
$GPTHS,,V*0E
$GPROT,,V*08
$PSSN,HRP,071442.00,010125,,,,,,,00,0,,*65
$PTNL,AVR,071442.00,,Yaw,,Tilt,,,,0,,00*33
$GPGSA,A,3,05,07,13,14,18,20,30,,,,,,1.3,0.7,1.1*3A
$GPGSA,A,3,65,72,74,75,81,,,,,,,,1.3,0.7,1.1*39
$GPGSA,A,3,03,05,15,24,25,,,,,,,,1.3,0.7,1.1*34
$GPGSA,A,3,21,22,36,45,,,,,,,,,1.3,0.7,1.1*30
$GPGST,071442.00,3.117,0.977,0.848,25.708,0.954,0.874,2.199*62
$GPGBS,071442.00,3.489,3.188,7.497,13,0.0001,2.085,0.741*5C
$GPGRS,071442.00,1,1.0,-0.9,2.1,0.5,-1.6,-0.8,-1.4,,,,,*60
$GPGRS,071442.00,1,-5.1,5.5,3.0,-5.0,-4.5,,,,,,,*4A
$GPGRS,071442.00,1,-0.0,1.0,-0.1,-1.7,2.4,,,,,,,*49
$GPGRS,071442.00,1,0.3,-1.9,-0.4,1.3,,,,,,,,*47
$GPGSV,5,1,17,30,80,060,44,22,22,174,,09,10,110,,14,40,159,44*70
$GPGSV,5,2,17,07,42,061,48,13,41,293,38,20,50,222,43,05,53,282,41*7A
$GPGSV,5,3,17,18,08,331,36,08,09,060,,11,03,222,,27,05,029,*71
$GPGSV,5,4,17,15,09,297,,36,35,170,39,34,31,208,,49,34,195,33*78
$GPGSV,5,5,17,61,03,257,*4B
$GLGSV,3,1,11,72,64,111,52,73,17,035,26,81,12,319,38,71,15,127,25*6D
$GLGSV,3,2,11,75,56,190,51,74,61,051,41,65,50,321,45,76,00,206,*6E
$GLGSV,3,3,11,66,03,312,23,82,07,003,,88,00,271,*5D
$GAGSV,3,1,11,03,72,309,46,15,19,254,36,25,42,150,39,08,20,290,24*66
$GAGSV,3,2,11,24,44,073,44,13,19,308,33,05,50,098,35,16,51,114,*6A
$GAGSV,3,3,11,09,00,105,,02,05,188,,31,08,032,*58
$GBGSV,5,1,17,21,64,298,49,26,12,218,34,42,15,311,33,09,15,062,*65
$GBGSV,5,2,17,05,21,129,32,40,18,069,,10,19,090,,50,39,306,*6F
$GBGSV,5,3,17,45,64,189,47,22,57,144,45,36,54,064,48,06,01,064,*66
$GBGSV,5,4,17,02,05,108,,46,06,046,,19,06,135,,56,05,095,*67
$GBGSV,5,5,17,60,07,112,*5E
$GPGGA,071442.00,,,,,0,00,,,M,,M,,*4C
$PTNL,GGK,071442.00,010125,4742.4465776,N,01617.9733062,E,1,21,1.3,EHT668.9226,M*43
$GPGGQ,071442.00,010125,4742.4465776,N,01617.9733062,E,1,21,2.551,625.7116,M*3B
$GPGFA,071442.00,9.290,18.030,0.977,0.848,25.708,2.199,,VVV*09
$GPLLK,071442.00,010125,,M,,M,1,21,1.6,,M*0B
$GNGMP,071442.00,,,,,DAAA,21,0.7,,,,*56
$GPGMP,071442.00,,,,,,07,,,,2.4,123*78
$GLGMP,071442.00,,,,,,05,,,,,*7E
$GAGMP,071442.00,,,,,,05,,,,,*73
$GBGMP,071442.00,,,,,,04,,,,,*71
$PSSN,SNC,[0,285300000,2347]*48
$GPZDA,071447.00,01,01,2025,,*62
$GPDTM,W84,,00.0000000,N,00.0000000,E,00.0000000,W84*5F
$GPRMC,071447.00,A,4742.4465818,N,01617.9733095,E,0.0,,010125,5.1,E,D*18
$GPGLL,4742.4465818,N,01617.9733095,E,071447.00,A,D*69
$GPGGA,071447.00,4742.4465818,N,01617.9733095,E,2,19,0.8,625.7085,M,43.2111,M,3.3,0123*4B
$GNGNS,071447.00,4742.4465818,N,01617.9733095,E,DAAA,19,0.8,625.7085,43.2111,,*57
$GPGNS,071447.00,,,,,,06,,,,3.3,123*7A
$GLGNS,071447.00,,,,,,04,,,,,*7A
$GAGNS,071447.00,,,,,,05,,,,,*76
$GBGNS,071447.00,,,,,,04,,,,,*74
$GPLLQ,071447.00,010125,,M,,M,1,19,1.651,,M*1B
$GPVTG,,T,,M,0.00,N,0.01,K,D*27
$GPHDT,,T*1B
$GPTHS,,V*0E
$GPROT,,V*08
$PSSN,HRP,071447.00,010125,,,,,,,00,0,,*60
$PTNL,AVR,071447.00,,Yaw,,Tilt,,,,0,,00*36
$GPGSA,A,3,05,07,14,18,20,30,,,,,,,1.4,0.8,1.2*33
$GPGSA,A,3,65,72,74,75,,,,,,,,,1.4,0.8,1.2*3B
$GPGSA,A,3,03,05,15,24,25,,,,,,,,1.4,0.8,1.2*3F
$GPGSA,A,3,21,22,36,45,,,,,,,,,1.4,0.8,1.2*3B
$GPGST,071447.00,3.019,0.633,0.623,316.114,0.628,0.628,1.392*55
$GPGBS,071447.00,3.763,3.417,7.903,05,0.0001,-1.204,0.699*7B
$GPGRS,071447.00,1,-1.2,-0.2,0.7,-1.3,0.4,0.2,,,,,,*60
$GPGRS,071447.00,1,-3.6,6.4,3.2,-4.1,,,,,,,,*4C
$GPGRS,071447.00,1,0.3,2.7,1.7,-1.2,1.7,,,,,,,*49
$GPGRS,071447.00,1,1.3,0.2,0.3,2.7,,,,,,,,*49
$GPGSV,5,1,17,30,80,060,43,22,22,174,,09,10,110,,14,40,159,43*70
$GPGSV,5,2,17,07,42,061,47,13,41,293,40,20,50,221,44,05,53,282,42*7D
$GPGSV,5,3,17,18,08,331,35,08,09,060,,11,03,222,19,27,05,029,*7A
$GPGSV,5,4,17,15,09,297,,36,35,170,39,34,31,208,,49,34,195,33*78
$GPGSV,5,5,17,61,03,257,*4B
$GLGSV,3,1,11,72,64,111,52,73,17,035,,81,11,319,31,71,15,127,24*62
$GLGSV,3,2,11,75,56,190,51,74,61,051,40,65,50,321,44,76,00,206,*6E
$GLGSV,3,3,11,66,03,312,25,82,07,003,22,88,00,271,*5B
$GAGSV,3,1,11,03,72,309,46,15,19,254,35,25,42,150,38,08,20,290,26*66
$GAGSV,3,2,11,24,44,073,43,13,19,308,32,05,50,098,35,16,51,114,*6C
$GAGSV,3,3,11,09,00,105,,02,05,188,,31,08,032,*58
$GBGSV,5,1,17,21,64,298,50,26,12,218,34,42,15,311,31,09,15,062,*6F
$GBGSV,5,2,17,05,21,129,32,40,18,069,,10,19,090,,50,39,306,*6F
$GBGSV,5,3,17,45,64,189,46,22,57,145,44,36,54,064,47,06,01,064,*68
$GBGSV,5,4,17,02,05,108,,46,06,046,,19,06,135,,56,05,095,*67
$GBGSV,5,5,17,60,07,112,*5E
$GPGGA,071447.00,,,,,0,00,,,M,,M,,*49
$PTNL,GGK,071447.00,010125,4742.4465818,N,01617.9733095,E,1,19,1.4,EHT668.9196,M*4D
$GPGGQ,071447.00,010125,4742.4465818,N,01617.9733095,E,1,19,1.651,625.7085,M*31
$GPGFA,071447.00,6.021,11.412,0.633,0.623,316.114,1.392,,VVV*38
$GPLLK,071447.00,010125,,M,,M,1,19,1.7,,M*04
$GNGMP,071447.00,,,,,DAAA,19,0.8,,,,*57
$GPGMP,071447.00,,,,,,06,,,,3.3,123*7A
$GLGMP,071447.00,,,,,,04,,,,,*7A
$GAGMP,071447.00,,,,,,05,,,,,*76
$GBGMP,071447.00,,,,,,04,,,,,*74
$PSSN,SNC,[0,285305000,2347]*4D
$GPZDA,071452.00,01,01,2025,,*66
$GPDTM,W84,,00.0000000,N,00.0000000,E,00.0000000,W84*5F
$GPRMC,071452.00,A,4742.4465912,N,01617.9733021,E,0.0,,010125,5.1,E,D*18
$GPGLL,4742.4465912,N,01617.9733021,E,071452.00,A,D*69
$GPGGA,071452.00,4742.4465912,N,01617.9733021,E,2,19,0.8,625.6952,M,43.2111,M,2.0,0123*4B
$GNGNS,071452.00,4742.4465912,N,01617.9733021,E,DAAA,19,0.8,625.6952,43.2111,,*55
$GPGNS,071452.00,,,,,,05,,,,2.0,123*7F
$GLGNS,071452.00,,,,,,04,,,,,*7E
$GAGNS,071452.00,,,,,,06,,,,,*71
$GBGNS,071452.00,,,,,,04,,,,,*70
$GPLLQ,071452.00,010125,,M,,M,1,19,2.931,,M*15
$GPVTG,,T,,M,0.00,N,0.00,K,D*26
$GPHDT,,T*1B
$GPTHS,,V*0E
$GPROT,,V*08
$PSSN,HRP,071452.00,010125,,,,,,,00,0,,*64
$PTNL,AVR,071452.00,,Yaw,,Tilt,,,,0,,00*32
$GPGSA,A,3,05,07,14,20,30,,,,,,,,1.6,0.8,1.4*3E
$GPGSA,A,3,65,72,74,75,,,,,,,,,1.6,0.8,1.4*3F
$GPGSA,A,3,03,05,08,15,24,25,,,,,,,1.6,0.8,1.4*33
$GPGSA,A,3,21,22,36,45,,,,,,,,,1.6,0.8,1.4*3F
$GPGST,071452.00,3.659,0.982,0.816,344.918,0.971,0.828,2.639*57
$GPGBS,071452.00,4.089,3.896,17.654,20,0.0001,1.486,0.699*64
$GPGRS,071452.00,1,-1.3,-0.3,-0.0,1.5,0.4,,,,,,,*49
$GPGRS,071452.00,1,-6.1,5.7,3.3,-4.2,,,,,,,,*48
$GPGRS,071452.00,1,-0.1,3.7,-5.8,1.6,-1.6,0.4,,,,,,*6A
$GPGRS,071452.00,1,1.0,1.5,0.5,1.7,,,,,,,,*4D
$GPGSV,5,1,17,30,80,060,42,22,22,174,,09,10,110,,14,40,159,42*70
$GPGSV,5,2,17,07,42,061,47,13,42,293,40,20,50,221,45,05,53,282,42*7F
$GPGSV,5,3,17,18,08,331,31,08,09,060,,11,03,222,20,27,05,029,*74
$GPGSV,5,4,17,15,09,297,35,36,35,170,39,34,31,208,,49,34,195,33*7E
$GPGSV,5,5,17,61,03,257,*4B
$GLGSV,3,1,11,72,64,111,52,73,17,035,30,81,11,319,35,71,15,127,23*62
$GLGSV,3,2,11,75,56,190,52,74,61,051,38,65,50,321,42,76,00,206,*64
$GLGSV,3,3,11,66,03,312,28,82,07,003,26,88,00,271,*52
$GAGSV,3,1,11,03,72,309,45,15,18,254,34,25,42,150,35,08,20,290,36*69
$GAGSV,3,2,11,24,44,073,43,13,19,307,32,05,50,098,36,16,51,114,*60
$GAGSV,3,3,11,09,00,105,,02,05,188,,31,08,032,*58
$GBGSV,5,1,17,21,64,298,50,26,12,218,34,42,15,311,31,09,15,062,29*64
$GBGSV,5,2,17,05,21,129,32,40,18,069,,10,20,090,,50,40,306,*6B
$GBGSV,5,3,17,45,64,189,45,22,57,145,45,36,54,064,47,06,01,065,*6B
$GBGSV,5,4,17,02,05,108,,46,06,046,,19,06,135,,56,05,095,*67
$GBGSV,5,5,17,60,07,112,*5E
$GPGGA,071452.00,,,,,0,00,,,M,,M,,*4D
$PTNL,GGK,071452.00,010125,4742.4465912,N,01617.9733021,E,1,19,1.6,EHT668.9063,M*44
$GPGGQ,071452.00,010125,4742.4465912,N,01617.9733021,E,1,19,2.931,625.6952,M*39
$GPGFA,071452.00,9.334,21.637,0.982,0.816,344.918,2.639,,VVV*3B
$GPLLK,071452.00,010125,,M,,M,1,19,2.0,,M*04
$GNGMP,071452.00,,,,,DAAA,19,0.8,,,,*53
$GPGMP,071452.00,,,,,,05,,,,2.0,123*7F
$GLGMP,071452.00,,,,,,04,,,,,*7E
$GAGMP,071452.00,,,,,,06,,,,,*71
$GBGMP,071452.00,,,,,,04,,,,,*70
$PSSN,SNC,[0,285310000,2347]*49
$GPZDA,071457.00,01,01,2025,,*63
$GPDTM,W84,,00.0000000,N,00.0000000,E,00.0000000,W84*5F
$GPRMC,071457.00,A,4742.4465999,N,01617.9733018,E,0.0,,010125,5.1,E,D*14
$GPGLL,4742.4465999,N,01617.9733018,E,071457.00,A,D*65
$GPGGA,071457.00,4742.4465999,N,01617.9733018,E,2,17,0.9,625.6813,M,43.2111,M,2.0,0123*4C
$GNGNS,071457.00,4742.4465999,N,01617.9733018,E,DAAA,17,0.9,625.6813,43.2111,,*52
$GPGNS,071457.00,,,,,,06,,,,2.0,123*79
$GLGNS,071457.00,,,,,,03,,,,,*7C
$GAGNS,071457.00,,,,,,04,,,,,*76
$GBGNS,071457.00,,,,,,04,,,,,*75
$GPLLQ,071457.00,010125,,M,,M,1,17,2.464,,M*13
$GPVTG,,T,,M,0.01,N,0.01,K,D*26
$GPHDT,,T*1B
$GPTHS,,V*0E
$GPROT,,V*08
$PSSN,HRP,071457.00,010125,,,,,,,00,0,,*61
$PTNL,AVR,071457.00,,Yaw,,Tilt,,,,0,,00*37
$GPGSA,A,3,05,07,14,15,20,30,,,,,,,1.5,0.9,1.3*3F
$GPGSA,A,3,65,72,75,,,,,,,,,,1.5,0.9,1.3*39
$GPGSA,A,3,03,05,15,24,,,,,,,,,1.5,0.9,1.3*39
$GPGSA,A,3,21,22,36,45,,,,,,,,,1.5,0.9,1.3*3A
$GPGST,071457.00,4.238,0.993,0.857,1.805,0.993,0.857,2.086*5A
$GPGBS,071457.00,3.883,3.329,8.285,20,0.0001,1.904,0.650*5F
$GPGRS,071457.00,1,-0.5,-0.7,-0.5,-1.8,1.9,0.3,,,,,,*4B
$GPGRS,071457.00,1,-8.6,5.8,-4.0,,,,,,,,,*67
$GPGRS,071457.00,1,-0.5,6.0,1.1,-2.1,,,,,,,,*4E
$GPGRS,071457.00,1,0.7,1.9,0.7,1.0,,,,,,,,*47
$GPGSV,5,1,17,30,80,060,42,22,22,174,,09,10,110,,14,40,159,41*73
$GPGSV,5,2,17,07,42,061,46,13,42,293,37,20,50,221,45,05,53,282,41*7D
$GPGSV,5,3,17,18,08,331,29,08,09,060,,11,03,222,,27,05,029,*7F
$GPGSV,5,4,17,15,09,297,37,36,35,170,39,34,31,208,,49,34,195,33*7C
$GPGSV,5,5,17,61,03,257,*4B
$GLGSV,3,1,11,72,64,111,53,73,17,035,26,81,11,319,26,71,15,127,*67
$GLGSV,3,2,11,75,56,190,52,74,61,051,34,65,50,321,41,76,00,206,*6B
$GLGSV,3,3,11,66,03,312,29,82,07,003,28,88,00,271,*5D
$GAGSV,3,1,11,03,72,309,45,15,18,254,34,25,42,150,33,08,20,290,29*61
$GAGSV,3,2,11,24,44,073,42,13,19,307,32,05,50,098,36,16,51,113,*66
$GAGSV,3,3,11,09,00,105,,02,05,188,,31,08,032,*58
$GBGSV,5,1,17,21,64,298,49,26,12,218,34,42,15,311,31,09,15,062,30*64
$GBGSV,5,2,17,05,21,129,32,40,18,069,,10,20,090,,50,40,306,*6B
$GBGSV,5,3,17,45,64,189,44,22,57,145,46,36,54,064,47,06,01,065,*69
$GBGSV,5,4,17,02,05,108,,46,06,046,,19,06,135,,56,05,095,*67
$GBGSV,5,5,17,60,07,112,*5E
$GPGGA,071457.00,,,,,0,00,,,M,,M,,*48
$PTNL,GGK,071457.00,010125,4742.4465999,N,01617.9733018,E,1,17,1.5,EHT668.8923,M*49
$GPGGQ,071457.00,010125,4742.4465999,N,01617.9733018,E,1,17,2.464,625.6813,M*32
$GPGFA,071457.00,9.444,17.101,0.993,0.857,1.805,2.086,,VVV*31
$GPLLK,071457.00,010125,,M,,M,1,17,1.8,,M*04
$GNGMP,071457.00,,,,,DAAA,17,0.9,,,,*59
$GPGMP,071457.00,,,,,,06,,,,2.0,123*79
$GLGMP,071457.00,,,,,,03,,,,,*7C
$GAGMP,071457.00,,,,,,04,,,,,*76
$GBGMP,071457.00,,,,,,04,,,,,*75
$PSSN,SNC,[0,285315000,2347]*4C
$GPZDA,071502.00,01,01,2025,,*62
$GPDTM,W84,,00.0000000,N,00.0000000,E,00.0000000,W84*5F
$GPRMC,071502.00,A,4742.4466097,N,01617.9733073,E,0.0,,010125,5.1,E,D*1C
$GPGLL,4742.4466097,N,01617.9733073,E,071502.00,A,D*6D
$GPGGA,071502.00,4742.4466097,N,01617.9733073,E,2,17,0.9,625.6643,M,43.2111,M,2.3,0123*4C
$GNGNS,071502.00,4742.4466097,N,01617.9733073,E,DAAA,17,0.9,625.6643,43.2111,,*51
$GPGNS,071502.00,,,,,,06,,,,2.3,123*7B
$GLGNS,071502.00,,,,,,04,,,,,*7A
$GAGNS,071502.00,,,,,,03,,,,,*70
$GBGNS,071502.00,,,,,,04,,,,,*74
$GPLLQ,071502.00,010125,,M,,M,1,17,2.668,,M*1C
$GPVTG,,T,,M,0.01,N,0.02,K,D*25
$GPHDT,,T*1B
$GPTHS,,V*0E
$GPROT,,V*08
$PSSN,HRP,071502.00,010125,,,,,,,00,0,,*60
$PTNL,AVR,071502.00,,Yaw,,Tilt,,,,0,,00*36
$GPGSA,A,3,05,07,14,15,20,30,,,,,,,1.7,0.9,1.4*3A
$GPGSA,A,3,65,72,74,75,,,,,,,,,1.7,0.9,1.4*3F
$GPGSA,A,3,03,05,24,,,,,,,,,,1.7,0.9,1.4*38
$GPGSA,A,3,21,22,36,45,,,,,,,,,1.7,0.9,1.4*3F
$GPGST,071502.00,4.530,1.087,0.941,2.091,1.087,0.941,2.247*5D
$GPGBS,071502.00,4.009,3.422,8.157,20,0.0001,2.229,0.692*5A
$GPGRS,071502.00,1,-0.6,-0.6,-0.8,-0.7,2.2,0.1,,,,,,*41
$GPGRS,071502.00,1,-9.0,6.2,0.6,-3.7,,,,,,,,*40
$GPGRS,071502.00,1,-0.5,7.5,-2.3,,,,,,,,,*67
$GPGRS,071502.00,1,0.3,1.7,0.4,1.3,,,,,,,,*4C
$GPGSV,5,1,17,30,80,060,44,22,22,174,,09,10,110,,14,40,159,41*75
$GPGSV,5,2,17,07,42,061,46,13,42,293,34,20,50,221,45,05,53,282,41*7E
$GPGSV,5,3,17,18,08,331,29,08,10,060,,11,03,222,22,27,05,029,*77
$GPGSV,5,4,17,15,09,297,38,36,35,170,39,34,31,208,,49,34,195,33*73
$GPGSV,5,5,17,61,03,257,*4B
$GLGSV,3,1,11,72,64,111,52,73,17,035,27,81,11,319,35,71,15,127,*65
$GLGSV,3,2,11,75,56,190,52,74,61,051,35,65,50,321,39,76,01,206,*64
$GLGSV,3,3,11,66,03,312,29,82,07,003,,88,00,271,*57
$GAGSV,3,1,11,03,72,309,44,15,18,254,34,25,42,150,32,08,20,290,36*6F
$GAGSV,3,2,11,24,44,073,42,13,19,307,34,05,50,098,36,16,51,113,*60
$GAGSV,3,3,11,09,00,105,,02,05,188,,31,08,032,*58
$GBGSV,5,1,17,21,64,298,49,26,12,218,34,42,15,311,25,09,15,062,31*60
$GBGSV,5,2,17,05,21,129,32,40,18,069,,10,20,090,,50,40,306,*6B
$GBGSV,5,3,17,45,64,189,43,22,57,145,47,36,54,064,47,06,01,065,*6F
$GBGSV,5,4,17,02,05,108,,46,06,046,,19,06,135,,56,05,095,*67
$GBGSV,5,5,17,60,07,112,*5E
$GPGGA,071502.00,,,,,0,00,,,M,,M,,*49
$PTNL,GGK,071502.00,010125,4742.4466097,N,01617.9733073,E,1,17,1.7,EHT668.8753,M*4A
$GPGGQ,071502.00,010125,4742.4466097,N,01617.9733073,E,1,17,2.668,625.6643,M*3F
$GPGFA,071502.00,10.333,18.429,1.087,0.941,2.091,2.247,,VVV*0D
$GPLLK,071502.00,010125,,M,,M,1,17,2.0,,M*0E
$GNGMP,071502.00,,,,,DAAA,17,0.9,,,,*58
$GPGMP,071502.00,,,,,,06,,,,2.3,123*7B
$GLGMP,071502.00,,,,,,04,,,,,*7A
$GAGMP,071502.00,,,,,,03,,,,,*70
$GBGMP,071502.00,,,,,,04,,,,,*74
$PSSN,SNC,[0,285320000,2347]*4A
$GPZDA,071507.00,01,01,2025,,*67
$GPDTM,W84,,00.0000000,N,00.0000000,E,00.0000000,W84*5F
$GPRMC,071507.00,A,4742.4466179,N,01617.9733112,E,0.0,,010125,5.1,E,D*1E
$GPGLL,4742.4466179,N,01617.9733112,E,071507.00,A,D*6F
$GPGGA,071507.00,4742.4466179,N,01617.9733112,E,2,19,0.8,625.6511,M,43.2111,M,3.3,0123*44
$GNGNS,071507.00,4742.4466179,N,01617.9733112,E,DAAA,19,0.8,625.6511,43.2111,,*58
$GPGNS,071507.00,,,,,,06,,,,3.3,123*7F
$GLGNS,071507.00,,,,,,05,,,,,*7E
$GAGNS,071507.00,,,,,,04,,,,,*72
$GBGNS,071507.00,,,,,,04,,,,,*71
$GPLLQ,071507.00,010125,,M,,M,1,19,2.353,,M*1A
$GPVTG,,T,,M,0.00,N,0.01,K,D*27
$GPHDT,,T*1B
$GPTHS,,V*0E
$GPROT,,V*08
$PSSN,HRP,071507.00,010125,,,,,,,00,0,,*65
$PTNL,AVR,071507.00,,Yaw,,Tilt,,,,0,,00*33
$GPGSA,A,3,05,07,14,15,20,30,,,,,,,1.5,0.8,1.2*3F
$GPGSA,A,3,65,72,74,75,81,,,,,,,,1.5,0.8,1.2*33
$GPGSA,A,3,03,05,13,24,,,,,,,,,1.5,0.8,1.2*3F
$GPGSA,A,3,21,22,36,45,,,,,,,,,1.5,0.8,1.2*3A
$GPGST,071507.00,3.839,0.973,0.847,2.352,0.972,0.847,1.969*52
$GPGBS,071507.00,4.075,3.491,7.934,20,0.0001,1.630,0.708*53
$GPGRS,071507.00,1,-0.5,-0.7,-0.8,-1.4,1.6,0.5,,,,,,*47
$GPGRS,071507.00,1,-8.0,6.0,1.1,-3.7,-3.7,,,,,,,*47
$GPGRS,071507.00,1,-0.5,5.8,-0.6,-2.2,,,,,,,,*69
$GPGRS,071507.00,1,0.1,1.1,-0.6,1.0,,,,,,,,*61
$GPGSV,5,1,17,30,80,060,45,22,22,174,,09,10,110,,14,40,159,40*75
$GPGSV,5,2,17,07,42,061,46,13,42,293,35,20,50,221,44,05,53,282,42*7D
$GPGSV,5,3,17,18,08,331,32,08,10,060,,11,03,222,21,27,05,029,*7E
$GPGSV,5,4,17,15,09,297,37,36,35,170,39,34,31,208,,49,34,195,33*7C
$GPGSV,5,5,17,61,03,257,*4B
$GLGSV,3,1,11,72,64,111,52,73,17,035,28,81,11,319,40,71,15,127,25*6F
$GLGSV,3,2,11,75,56,191,52,74,61,051,38,65,50,322,37,76,01,206,*65
$GLGSV,3,3,11,66,03,312,32,82,07,003,23,88,00,271,*5C
$GAGSV,3,1,11,03,72,309,44,15,18,254,33,25,42,150,30,08,21,291,32*6E
$GAGSV,3,2,11,24,44,073,42,13,19,307,35,05,50,098,35,16,51,113,*62
$GAGSV,3,3,11,09,00,105,,02,05,188,,31,08,032,*58
$GBGSV,5,1,17,21,65,298,48,26,12,218,33,42,15,311,29,09,15,062,31*6B
$GBGSV,5,2,17,05,21,129,32,40,18,069,,10,20,090,,50,40,306,*6B
$GBGSV,5,3,17,45,64,189,43,22,57,145,47,36,54,064,47,06,01,065,*6F
$GBGSV,5,4,17,02,05,108,,46,06,046,,19,06,135,,56,05,095,*67
$GBGSV,5,5,17,60,07,112,*5E
$GPGGA,071507.00,,,,,0,00,,,M,,M,,*4C
$PTNL,GGK,071507.00,010125,4742.4466179,N,01617.9733112,E,1,19,1.5,EHT668.8622,M*43
$GPGGQ,071507.00,010125,4742.4466179,N,01617.9733112,E,1,19,2.353,625.6511,M*3A
$GPGFA,071507.00,9.247,16.143,0.973,0.847,2.352,1.969,,VVV*39
$GPLLK,071507.00,010125,,M,,M,1,19,1.8,,M*0E
$GNGMP,071507.00,,,,,DAAA,19,0.8,,,,*52
$GPGMP,071507.00,,,,,,06,,,,3.3,123*7F
$GLGMP,071507.00,,,,,,05,,,,,*7E
$GAGMP,071507.00,,,,,,04,,,,,*72
$GBGMP,071507.00,,,,,,04,,,,,*71
$PSSN,SNC,[0,285325000,2347]*4F
$GPZDA,071512.00,01,01,2025,,*63
$GPDTM,W84,,00.0000000,N,00.0000000,E,00.0000000,W84*5F
$GPRMC,071512.00,A,4742.4466258,N,01617.9733140,E,0.0,,010125,5.1,E,D*1D
$GPGLL,4742.4466258,N,01617.9733140,E,071512.00,A,D*6C
$GPGGA,071512.00,4742.4466258,N,01617.9733140,E,2,19,0.8,625.6189,M,43.2111,M,2.3,0123*43
$GNGNS,071512.00,4742.4466258,N,01617.9733140,E,DAAA,19,0.8,625.6189,43.2111,,*5E
$GPGNS,071512.00,,,,,,06,,,,2.3,123*7A
$GLGNS,071512.00,,,,,,05,,,,,*7A
$GAGNS,071512.00,,,,,,04,,,,,*76
$GBGNS,071512.00,,,,,,04,,,,,*75
$GPLLQ,071512.00,010125,,M,,M,1,19,3.003,,M*19
$GPVTG,,T,,M,0.01,N,0.02,K,D*25
$GPHDT,,T*1B
$GPTHS,,V*0E
$GPROT,,V*08
$PSSN,HRP,071512.00,010125,,,,,,,00,0,,*61
$PTNL,AVR,071512.00,,Yaw,,Tilt,,,,0,,00*37
$GPGSA,A,3,05,07,14,15,20,30,,,,,,,1.4,0.8,1.2*3E
$GPGSA,A,3,65,72,74,75,81,,,,,,,,1.4,0.8,1.2*32
$GPGSA,A,3,03,13,24,25,,,,,,,,,1.4,0.8,1.2*3C
$GPGSA,A,3,21,22,36,45,,,,,,,,,1.4,0.8,1.2*3B
$GPGST,071512.00,3.635,1.230,1.068,4.763,1.229,1.070,2.522*54
$GPGBS,071512.00,3.977,3.389,8.105,20,0.0001,2.716,0.727*5B
$GPGRS,071512.00,1,-0.2,-0.7,-0.9,-3.3,2.7,0.2,,,,,,*45
$GPGRS,071512.00,1,-6.1,5.4,2.6,-3.9,4.3,,,,,,,*6F
$GPGRS,071512.00,1,-1.2,-3.4,-2.1,-3.4,,,,,,,,*4E
$GPGRS,071512.00,1,-0.7,0.4,-1.2,0.4,,,,,,,,*4A
$GPGSV,5,1,17,30,80,060,46,22,23,174,,09,10,110,,14,40,159,39*79
$GPGSV,5,2,17,07,42,061,46,13,42,293,34,20,50,221,43,05,53,282,41*78
$GPGSV,5,3,17,18,08,331,34,08,10,060,,11,03,222,21,27,05,029,*78
$GPGSV,5,4,17,15,09,297,37,36,35,170,39,34,31,208,,49,34,195,34*7B
$GPGSV,5,5,17,61,03,257,*4B
$GLGSV,3,1,11,72,64,111,52,73,17,035,29,81,11,319,39,71,15,127,*67
$GLGSV,3,2,11,75,56,191,53,74,61,051,39,65,50,322,38,76,01,206,*6A
$GLGSV,3,3,11,66,03,312,32,82,07,003,26,88,00,271,*59
$GAGSV,3,1,11,03,72,309,43,15,18,254,32,25,42,150,47,08,21,291,34*6E
$GAGSV,3,2,11,24,44,073,41,13,19,307,37,05,50,098,34,16,51,113,*62
$GAGSV,3,3,11,09,00,105,,02,05,188,,31,08,032,*58
$GBGSV,5,1,17,21,65,298,46,26,12,218,32,42,15,311,32,09,15,062,31*6E
$GBGSV,5,2,17,05,21,129,32,40,18,069,,10,20,090,,50,40,306,*6B
$GBGSV,5,3,17,45,64,189,44,22,57,145,48,36,54,064,46,06,01,065,*66
$GBGSV,5,4,17,02,05,108,,46,06,046,,19,06,135,,56,05,095,*67
$GBGSV,5,5,17,60,07,112,*5E
$GPGGA,071512.00,,,,,0,00,,,M,,M,,*48
$PTNL,GGK,071512.00,010125,4742.4466258,N,01617.9733140,E,1,19,1.4,EHT668.8299,M*45
$GPGGQ,071512.00,010125,4742.4466258,N,01617.9733140,E,1,19,3.003,625.6189,M*3B
$GPGFA,071512.00,11.698,20.684,1.230,1.068,4.763,2.522,,VVV*02
$GPLLK,071512.00,010125,,M,,M,1,19,1.7,,M*05
$GNGMP,071512.00,,,,,DAAA,19,0.8,,,,*56
$GPGMP,071512.00,,,,,,06,,,,2.3,123*7A
$GLGMP,071512.00,,,,,,05,,,,,*7A
$GAGMP,071512.00,,,,,,04,,,,,*76
$GBGMP,071512.00,,,,,,04,,,,,*75
$PSSN,SNC,[0,285330000,2347]*4B
$GPZDA,071517.00,01,01,2025,,*66
$GPDTM,W84,,00.0000000,N,00.0000000,E,00.0000000,W84*5F
$GPRMC,071517.00,A,4742.4466279,N,01617.9733056,E,0.0,,010125,5.1,E,D*1D
$GPGLL,4742.4466279,N,01617.9733056,E,071517.00,A,D*6C
$GPGGA,071517.00,4742.4466279,N,01617.9733056,E,2,19,0.8,625.5809,M,43.2111,M,2.2,0123*40
$GNGNS,071517.00,4742.4466279,N,01617.9733056,E,DAAA,19,0.8,625.5809,43.2111,,*5C
$GPGNS,071517.00,,,,,,05,,,,2.2,123*7D
$GLGNS,071517.00,,,,,,05,,,,,*7F
$GAGNS,071517.00,,,,,,05,,,,,*72
$GBGNS,071517.00,,,,,,04,,,,,*70
$GPLLQ,071517.00,010125,,M,,M,1,19,2.375,,M*1F
$GPVTG,,T,,M,0.01,N,0.01,K,D*26
$GPHDT,,T*1B
$GPTHS,,V*0E
$GPROT,,V*08
$PSSN,HRP,071517.00,010125,,,,,,,00,0,,*64
$PTNL,AVR,071517.00,,Yaw,,Tilt,,,,0,,00*32
$GPGSA,A,3,05,07,14,15,30,,,,,,,,1.4,0.8,1.2*3C
$GPGSA,A,3,65,72,74,75,81,,,,,,,,1.4,0.8,1.2*32
$GPGSA,A,3,03,08,13,24,25,,,,,,,,1.4,0.8,1.2*34
$GPGSA,A,3,21,22,36,45,,,,,,,,,1.4,0.8,1.2*3B
$GPGST,071517.00,3.621,1.114,0.817,25.127,1.066,0.878,1.932*63
$GPGBS,071517.00,5.626,4.194,7.969,15,0.0001,-3.584,1.157*74
$GPGRS,071517.00,1,0.3,0.1,-0.5,-3.6,0.8,,,,,,,*6F
$GPGRS,071517.00,1,-3.5,5.8,5.3,-2.6,6.8,,,,,,,*62
$GPGRS,071517.00,1,0.2,2.4,-1.3,-1.0,-2.4,,,,,,,*49
$GPGRS,071517.00,1,0.4,1.2,0.3,1.0,,,,,,,,*4E
$GPGSV,5,1,17,30,80,060,46,22,23,173,,09,10,110,,14,40,159,39*7E
$GPGSV,5,2,17,07,42,061,45,13,42,293,29,20,50,221,41,05,53,282,41*75
$GPGSV,5,3,17,18,08,331,35,08,10,060,,11,03,222,20,27,05,029,*78
$GPGSV,5,4,17,15,09,297,36,36,35,170,39,34,31,208,,49,34,195,34*7A
$GPGSV,5,5,17,61,03,257,*4B
$GLGSV,3,1,11,72,64,111,51,73,17,035,29,81,11,319,40,71,15,127,25*6D
$GLGSV,3,2,11,75,56,191,53,74,61,051,39,65,50,322,40,76,01,206,*65
$GLGSV,3,3,11,66,03,312,30,82,07,003,21,88,00,271,*5C
$GAGSV,3,1,11,03,72,309,42,15,18,254,31,25,42,150,47,08,21,291,35*6D
$GAGSV,3,2,11,24,44,073,41,13,19,307,37,05,50,098,32,16,51,113,*64
$GAGSV,3,3,11,09,00,105,,02,05,188,,31,08,032,*58
$GBGSV,5,1,17,21,65,298,46,26,12,218,32,42,15,311,34,09,15,062,31*68
$GBGSV,5,2,17,05,21,129,32,40,18,069,,10,20,090,,50,40,306,*6B
$GBGSV,5,3,17,45,64,189,44,22,57,145,49,36,54,064,46,06,01,065,*67
$GBGSV,5,4,17,02,05,108,,46,06,046,,19,06,135,,56,05,095,*67
$GBGSV,5,5,17,60,07,112,*5E
$GPGGA,071517.00,,,,,0,00,,,M,,M,,*4D
$PTNL,GGK,071517.00,010125,4742.4466279,N,01617.9733056,E,1,19,1.4,EHT668.7919,M*49
$GPGGQ,071517.00,010125,4742.4466279,N,01617.9733056,E,1,19,2.375,625.5809,M*3A
$GPGFA,071517.00,10.587,15.844,1.114,0.817,25.127,1.932,,VVV*30
$GPLLK,071517.00,010125,,M,,M,1,19,1.7,,M*00
$GNGMP,071517.00,,,,,DAAA,19,0.8,,,,*53
$GPGMP,071517.00,,,,,,05,,,,2.2,123*7D
$GLGMP,071517.00,,,,,,05,,,,,*7F
$GAGMP,071517.00,,,,,,05,,,,,*72
$GBGMP,071517.00,,,,,,04,,,,,*70
$PSSN,SNC,[0,285335000,2347]*4E
$GPZDA,071522.00,01,01,2025,,*60
$GPDTM,W84,,00.0000000,N,00.0000000,E,00.0000000,W84*5F
$GPRMC,071522.00,A,4742.4466312,N,01617.9732992,E,0.0,,010125,5.1,E,D*17
$GPGLL,4742.4466312,N,01617.9732992,E,071522.00,A,D*66
$GPGGA,071522.00,4742.4466312,N,01617.9732992,E,2,20,0.8,625.5488,M,43.2111,M,2.4,0123*43
$GNGNS,071522.00,4742.4466312,N,01617.9732992,E,DAAA,20,0.8,625.5488,43.2111,,*59
$GPGNS,071522.00,,,,,,05,,,,2.4,123*7D
$GLGNS,071522.00,,,,,,05,,,,,*79
$GAGNS,071522.00,,,,,,05,,,,,*74
$GBGNS,071522.00,,,,,,05,,,,,*77
$GPLLQ,071522.00,010125,,M,,M,1,20,1.826,,M*1D
$GPVTG,,T,,M,0.00,N,0.00,K,D*26
$GPHDT,,T*1B
$GPTHS,,V*0E
$GPROT,,V*08
$PSSN,HRP,071522.00,010125,,,,,,,00,0,,*62
$PTNL,AVR,071522.00,,Yaw,,Tilt,,,,0,,00*34
$GPGSA,A,3,05,07,14,20,30,,,,,,,,1.5,0.8,1.2*3B
$GPGSA,A,3,65,72,74,75,81,,,,,,,,1.5,0.8,1.2*33
$GPGSA,A,3,03,08,13,24,25,,,,,,,,1.5,0.8,1.2*35
$GPGSA,A,3,21,22,36,42,45,,,,,,,,1.5,0.8,1.2*3C
$GPGST,071522.00,2.649,0.662,0.585,357.859,0.661,0.585,1.599*5F
$GPGBS,071522.00,3.985,3.837,15.111,20,0.0001,-0.888,0.698*40
$GPGRS,071522.00,1,0.4,-0.2,-0.1,-0.9,0.5,,,,,,,*45
$GPGRS,071522.00,1,-3.9,6.0,3.7,-2.6,1.5,,,,,,,*6B
$GPGRS,071522.00,1,0.6,1.4,1.2,-0.8,-2.6,,,,,,,*6F
$GPGRS,071522.00,1,0.8,1.1,0.9,-1.3,1.0,,,,,,,*4C
$GPGSV,5,1,17,30,80,060,46,22,23,173,,13,42,293,,14,40,159,39*7A
$GPGSV,5,2,17,07,42,061,44,20,50,221,39,05,53,282,42,15,09,297,35*78
$GPGSV,5,3,17,18,08,331,33,08,10,060,,11,03,222,,27,05,029,*7C
$GPGSV,5,4,17,09,10,110,,36,35,170,39,34,31,208,,49,34,195,34*76
$GPGSV,5,5,17,61,03,257,*4B
$GLGSV,3,1,11,72,64,111,51,73,17,035,30,81,11,319,39,71,15,127,24*6A
$GLGSV,3,2,11,75,56,191,53,74,61,051,39,65,51,322,39,76,01,206,*6A
$GLGSV,3,3,11,66,03,312,28,82,07,003,24,88,00,271,*50
$GAGSV,3,1,11,03,72,309,42,15,18,254,32,25,42,150,28,08,21,291,37*65
$GAGSV,3,2,11,24,44,073,42,13,19,307,37,05,50,098,32,16,51,113,*67
$GAGSV,3,3,11,09,00,106,,02,05,188,,31,08,032,*5B
$GBGSV,5,1,17,21,65,298,46,26,12,218,31,42,15,311,35,09,15,062,31*6A
$GBGSV,5,2,17,05,21,129,32,40,18,069,,10,20,090,,50,40,306,*6B
$GBGSV,5,3,17,45,64,189,45,22,57,145,49,36,54,064,46,06,01,065,*66
$GBGSV,5,4,17,02,05,108,,46,06,046,,19,06,135,,56,05,095,*67
$GBGSV,5,5,17,60,07,112,*5E
$GPGGA,071522.00,,,,,0,00,,,M,,M,,*4B
$PTNL,GGK,071522.00,010125,4742.4466312,N,01617.9732992,E,1,20,1.5,EHT668.7599,M*4C
$GPGGQ,071522.00,010125,4742.4466312,N,01617.9732992,E,1,20,1.826,625.5488,M*31
$GPGFA,071522.00,6.290,13.111,0.662,0.585,357.859,1.599,,VVV*35
$GPLLK,071522.00,010125,,M,,M,1,20,1.7,,M*0C
$GNGMP,071522.00,,,,,DAAA,20,0.8,,,,*5F
$GPGMP,071522.00,,,,,,05,,,,2.4,123*7D
$GLGMP,071522.00,,,,,,05,,,,,*79
$GAGMP,071522.00,,,,,,05,,,,,*74
$GBGMP,071522.00,,,,,,05,,,,,*77
$PSSN,SNC,[0,285340000,2347]*4C
$GPZDA,071527.00,01,01,2025,,*65
$GPDTM,W84,,00.0000000,N,00.0000000,E,00.0000000,W84*5F
$GPRMC,071527.00,A,4742.4466268,N,01617.9732972,E,0.0,,010125,5.1,E,D*10
$GPGLL,4742.4466268,N,01617.9732972,E,071527.00,A,D*61
$GPGGA,071527.00,4742.4466268,N,01617.9732972,E,2,19,0.8,625.5384,M,43.2111,M,3.5,0123*45
$GNGNS,071527.00,4742.4466268,N,01617.9732972,E,DAAA,19,0.8,625.5384,43.2111,,*5F
$GPGNS,071527.00,,,,,,04,,,,3.5,123*79
$GLGNS,071527.00,,,,,,05,,,,,*7C
$GAGNS,071527.00,,,,,,05,,,,,*71
$GBGNS,071527.00,,,,,,05,,,,,*72
$GPLLQ,071527.00,010125,,M,,M,1,19,2.012,,M*1E
$GPVTG,,T,,M,0.00,N,0.01,K,D*27
$GPHDT,,T*1B
$GPTHS,,V*0E
$GPROT,,V*08
$PSSN,HRP,071527.00,010125,,,,,,,00,0,,*67
$PTNL,AVR,071527.00,,Yaw,,Tilt,,,,0,,00*31
$GPGSA,A,3,05,07,14,30,,,,,,,,,1.5,0.8,1.2*39
$GPGSA,A,3,65,72,74,75,81,,,,,,,,1.5,0.8,1.2*33
$GPGSA,A,3,03,08,13,24,25,,,,,,,,1.5,0.8,1.2*35
$GPGSA,A,3,21,22,36,42,45,,,,,,,,1.5,0.8,1.2*3C
$GPGST,071527.00,2.797,0.678,0.575,4.381,0.678,0.576,1.805*5B
$GPGBS,071527.00,5.650,5.277,15.373,72,0.0001,5.613,6.063*6D
$GPGRS,071527.00,1,0.5,-0.5,-0.4,0.4,,,,,,,,*48
$GPGRS,071527.00,1,-4.4,5.6,3.1,-3.4,-2.5,,,,,,,*4A
$GPGRS,071527.00,1,-0.4,0.5,1.6,-1.0,-2.9,,,,,,,*47
$GPGRS,071527.00,1,0.8,0.9,0.9,-0.2,0.3,,,,,,,*42
$GPGSV,5,1,17,30,80,060,45,22,23,173,,13,42,293,30,14,40,159,40*74
$GPGSV,5,2,17,07,42,061,44,20,50,221,36,05,53,282,42,15,09,297,32*70
$GPGSV,5,3,17,18,08,331,32,08,10,060,,11,03,222,20,27,05,029,*7F
$GPGSV,5,4,17,09,10,110,,36,35,170,39,34,31,208,,49,34,195,33*71
$GPGSV,5,5,17,61,03,257,*4B
$GLGSV,3,1,11,72,64,111,51,73,17,035,31,81,11,319,38,71,15,127,25*6B
$GLGSV,3,2,11,75,56,191,53,74,61,051,41,65,51,322,38,76,01,206,*64
$GLGSV,3,3,11,66,03,312,24,82,07,003,28,88,00,271,*50
$GAGSV,3,1,11,03,72,309,42,15,18,254,32,25,42,150,47,08,21,291,38*63
$GAGSV,3,2,11,24,44,073,43,13,19,307,36,05,50,098,32,16,51,113,*67
$GAGSV,3,3,11,09,00,106,,02,05,188,,31,08,032,*5B
$GBGSV,5,1,17,21,65,298,47,26,12,218,31,42,15,311,37,09,15,062,31*69
$GBGSV,5,2,17,05,21,129,32,40,18,069,,10,20,090,,50,40,306,*6B
$GBGSV,5,3,17,45,64,189,46,22,57,145,50,36,54,064,46,06,01,065,*6D
$GBGSV,5,4,17,02,05,108,,46,06,046,,19,06,135,,56,05,095,*67
$GBGSV,5,5,17,60,07,112,*5E
$GPGGA,071527.00,,,,,0,00,,,M,,M,,*4E
$PTNL,GGK,071527.00,010125,4742.4466268,N,01617.9732972,E,1,19,1.5,EHT668.7494,M*4D
$GPGGQ,071527.00,010125,4742.4466268,N,01617.9732972,E,1,19,2.012,625.5384,M*3B
$GPGFA,071527.00,6.451,14.798,0.678,0.575,4.381,1.805,,VVV*3C
$GPLLK,071527.00,010125,,M,,M,1,19,1.7,,M*03
$GNGMP,071527.00,,,,,DAAA,19,0.8,,,,*50
$GPGMP,071527.00,,,,,,04,,,,3.5,123*79
$GLGMP,071527.00,,,,,,05,,,,,*7C
$GAGMP,071527.00,,,,,,05,,,,,*71
$GBGMP,071527.00,,,,,,05,,,,,*72
$PSSN,SNC,[0,285345000,2347]*49
$GPZDA,071532.00,01,01,2025,,*61
$GPDTM,W84,,00.0000000,N,00.0000000,E,00.0000000,W84*5F
$GPRMC,071532.00,A,4742.4466254,N,01617.9733046,E,0.0,,010125,5.1,E,D*14
$GPGLL,4742.4466254,N,01617.9733046,E,071532.00,A,D*65
$GPGGA,071532.00,4742.4466254,N,01617.9733046,E,2,19,0.8,625.5385,M,43.2111,M,1.5,0123*42
$GNGNS,071532.00,4742.4466254,N,01617.9733046,E,DAAA,19,0.8,625.5385,43.2111,,*5A
$GPGNS,071532.00,,,,,,04,,,,1.5,123*7F
$GLGNS,071532.00,,,,,,05,,,,,*78
$GAGNS,071532.00,,,,,,05,,,,,*75
$GBGNS,071532.00,,,,,,05,,,,,*76
$GPLLQ,071532.00,010125,,M,,M,1,19,1.945,,M*12
$GPVTG,,T,,M,0.01,N,0.01,K,D*26
$GPHDT,,T*1B
$GPTHS,,V*0E
$GPROT,,V*08
$PSSN,HRP,071532.00,010125,,,,,,,00,0,,*63
$PTNL,AVR,071532.00,,Yaw,,Tilt,,,,0,,00*35
$GPGSA,A,3,05,07,14,30,,,,,,,,,1.5,0.8,1.2*39
$GPGSA,A,3,65,72,74,75,81,,,,,,,,1.5,0.8,1.2*33
$GPGSA,A,3,03,08,13,24,25,,,,,,,,1.5,0.8,1.2*35
$GPGSA,A,3,21,22,36,42,45,,,,,,,,1.5,0.8,1.2*3C
$GPGST,071532.00,2.845,0.645,0.549,3.944,0.645,0.549,1.751*56
$GPGBS,071532.00,5.405,5.035,15.714,72,0.0001,5.525,6.063*6C
$GPGRS,071532.00,1,0.3,-0.3,-0.4,0.1,,,,,,,,*49
$GPGRS,071532.00,1,-3.0,5.5,4.1,-3.8,-0.3,,,,,,,*41
$GPGRS,071532.00,1,-0.2,1.0,-3.5,-0.4,-2.4,,,,,,,*65
$GPGRS,071532.00,1,0.6,1.2,1.2,1.8,-0.1,,,,,,,*41
$GPGSV,5,1,17,30,80,060,44,22,23,173,,13,42,293,30,14,40,159,39*7B
$GPGSV,5,2,17,07,42,061,45,20,50,221,34,05,53,281,39,15,09,297,28*77
$GPGSV,5,3,17,18,08,331,32,08,10,060,,11,03,222,20,27,05,029,*7F
$GPGSV,5,4,17,09,10,110,,36,35,170,40,34,31,208,,49,34,195,34*78
$GPGSV,5,5,17,61,03,257,*4B
$GLGSV,3,1,11,72,64,112,51,73,17,035,31,81,11,319,36,71,15,127,26*65
$GLGSV,3,2,11,75,56,191,53,74,61,051,41,65,51,322,39,76,01,206,*65
$GLGSV,3,3,11,66,03,312,30,82,07,003,28,88,00,271,*55
$GAGSV,3,1,11,03,72,309,43,15,18,254,32,25,43,150,47,08,21,291,40*6C
$GAGSV,3,2,11,24,44,073,44,13,19,307,35,05,50,098,32,16,51,113,*63
$GAGSV,3,3,11,09,00,106,,02,05,188,,31,08,032,*5B
$GBGSV,5,1,17,21,65,298,47,26,12,218,30,42,15,311,38,09,15,062,30*66
$GBGSV,5,2,17,05,21,129,33,40,18,069,,10,20,090,,50,40,306,*6A
$GBGSV,5,3,17,45,64,189,46,22,57,145,49,36,54,064,46,06,01,065,*65
$GBGSV,5,4,17,02,05,108,,46,06,046,,19,06,135,,56,05,095,*67
$GBGSV,5,5,17,60,07,112,*5E
$GPGGA,071532.00,,,,,0,00,,,M,,M,,*4A
$PTNL,GGK,071532.00,010125,4742.4466254,N,01617.9733046,E,1,19,1.5,EHT668.7495,M*48
$GPGGQ,071532.00,010125,4742.4466254,N,01617.9733046,E,1,19,1.945,625.5385,M*36
$GPGFA,071532.00,6.132,14.358,0.645,0.549,3.944,1.751,,VVV*3B
$GPLLK,071532.00,010125,,M,,M,1,19,1.7,,M*07
$GNGMP,071532.00,,,,,DAAA,19,0.8,,,,*54
$GPGMP,071532.00,,,,,,04,,,,1.5,123*7F
$GLGMP,071532.00,,,,,,05,,,,,*78
$GAGMP,071532.00,,,,,,05,,,,,*75
$GBGMP,071532.00,,,,,,05,,,,,*76
$PSSN,SNC,[0,285350000,2347]*4D
$GPZDA,071537.00,01,01,2025,,*64
$GPDTM,W84,,00.0000000,N,00.0000000,E,00.0000000,W84*5F
$GPRMC,071537.00,A,4742.4466212,N,01617.9733060,E,0.0,,010125,5.1,E,D*17
$GPGLL,4742.4466212,N,01617.9733060,E,071537.00,A,D*66
$GPGGA,071537.00,4742.4466212,N,01617.9733060,E,2,18,0.9,625.5335,M,43.2111,M,2.5,0123*49
$GNGNS,071537.00,4742.4466212,N,01617.9733060,E,DAAA,18,0.9,625.5335,43.2111,,*52
$GPGNS,071537.00,,,,,,04,,,,2.5,123*79
$GLGNS,071537.00,,,,,,05,,,,,*7D
$GAGNS,071537.00,,,,,,04,,,,,*71
$GBGNS,071537.00,,,,,,05,,,,,*73
$GPLLQ,071537.00,010125,,M,,M,1,18,2.008,,M*15
$GPVTG,,T,,M,0.01,N,0.02,K,D*25
$GPHDT,,T*1B
$GPTHS,,V*0E
$GPROT,,V*08
$PSSN,HRP,071537.00,010125,,,,,,,00,0,,*66
$PTNL,AVR,071537.00,,Yaw,,Tilt,,,,0,,00*30
$GPGSA,A,3,05,07,14,30,,,,,,,,,1.5,0.9,1.2*38
$GPGSA,A,3,65,72,74,75,81,,,,,,,,1.5,0.9,1.2*32
$GPGSA,A,3,03,08,24,25,,,,,,,,,1.5,0.9,1.2*36
$GPGSA,A,3,21,22,36,42,45,,,,,,,,1.5,0.9,1.2*3D
$GPGST,071537.00,3.010,0.643,0.548,0.945,0.643,0.548,1.822*53
$GPGBS,071537.00,5.507,5.190,16.470,72,0.0001,5.485,6.063*6D
$GPGRS,071537.00,1,-0.0,0.6,-0.6,-0.1,,,,,,,,*65
$GPGRS,071537.00,1,-2.2,5.5,4.4,-3.2,-1.3,,,,,,,*49
$GPGRS,071537.00,1,0.6,2.4,0.3,-1.5,,,,,,,,*63
$GPGRS,071537.00,1,0.6,1.2,1.5,4.5,0.3,,,,,,,*64
$GPGSV,5,1,17,30,80,060,43,22,23,173,,13,42,293,26,14,40,159,38*7A
$GPGSV,5,2,17,07,42,061,46,20,50,221,32,05,53,281,39,15,09,297,32*79
$GPGSV,5,3,17,18,08,331,33,08,10,060,,11,03,222,19,27,05,029,*74
$GPGSV,5,4,17,09,10,110,,36,35,170,39,34,31,208,,49,34,195,34*76
$GPGSV,5,5,17,61,03,257,*4B
$GLGSV,3,1,11,72,64,112,51,73,17,035,30,81,11,318,38,71,14,127,27*6B
$GLGSV,3,2,11,75,56,191,53,74,61,051,41,65,51,322,41,76,01,206,*6A
$GLGSV,3,3,11,66,03,312,30,82,07,003,29,88,00,271,*54
$GAGSV,3,1,11,03,72,309,43,15,18,254,31,25,43,150,47,08,21,291,41*6E
$GAGSV,3,2,11,24,44,072,45,13,19,307,34,05,50,098,34,16,51,113,*64
$GAGSV,3,3,11,09,00,106,,02,06,188,,31,08,032,*58
$GBGSV,5,1,17,21,65,298,47,26,12,218,30,42,15,311,38,09,15,062,30*66
$GBGSV,5,2,17,05,21,129,33,40,18,069,,10,20,090,,50,40,306,*6A
$GBGSV,5,3,17,45,64,189,46,22,57,145,49,36,54,064,46,06,01,065,*65
$GBGSV,5,4,17,02,05,108,,46,06,046,,19,06,135,,56,05,095,*67
$GBGSV,5,5,17,60,07,112,*5E
$GPGGA,071537.00,,,,,0,00,,,M,,M,,*4F
$PTNL,GGK,071537.00,010125,4742.4466212,N,01617.9733060,E,1,18,1.5,EHT668.7446,M*44
$GPGGQ,071537.00,010125,4742.4466212,N,01617.9733060,E,1,18,2.008,625.5335,M*3C
$GPGFA,071537.00,6.110,14.940,0.643,0.548,0.945,1.822,,VVV*33
$GPLLK,071537.00,010125,,M,,M,1,18,1.8,,M*0C
$GNGMP,071537.00,,,,,DAAA,18,0.9,,,,*51
$GPGMP,071537.00,,,,,,04,,,,2.5,123*79
$GLGMP,071537.00,,,,,,05,,,,,*7D
$GAGMP,071537.00,,,,,,04,,,,,*71
$GBGMP,071537.00,,,,,,05,,,,,*73
$PSSN,SNC,[0,285355000,2347]*48
$GPZDA,071542.00,01,01,2025,,*66
$GPDTM,W84,,00.0000000,N,00.0000000,E,00.0000000,W84*5F
$GPRMC,071542.00,A,4742.4466150,N,01617.9733048,E,0.0,,010125,5.1,E,D*1A
$GPGLL,4742.4466150,N,01617.9733048,E,071542.00,A,D*6B
$GPGGA,071542.00,4742.4466150,N,01617.9733048,E,2,18,0.9,625.5287,M,43.2111,M,2.5,0123*4C
$GNGNS,071542.00,4742.4466150,N,01617.9733048,E,DAAA,18,0.9,625.5287,43.2111,,*57
$GPGNS,071542.00,,,,,,04,,,,2.5,123*7B
$GLGNS,071542.00,,,,,,05,,,,,*7F
$GAGNS,071542.00,,,,,,04,,,,,*73
$GBGNS,071542.00,,,,,,05,,,,,*71
$GPLLQ,071542.00,010125,,M,,M,1,18,2.532,,M*1B
$GPVTG,,T,,M,0.00,N,0.01,K,D*27
$GPHDT,,T*1B
$GPTHS,,V*0E
$GPROT,,V*08
$PSSN,HRP,071542.00,010125,,,,,,,00,0,,*64
$PTNL,AVR,071542.00,,Yaw,,Tilt,,,,0,,00*32
$GPGSA,A,3,05,07,14,30,,,,,,,,,1.5,0.9,1.2*38
$GPGSA,A,3,65,72,74,75,81,,,,,,,,1.5,0.9,1.2*32
$GPGSA,A,3,03,08,24,25,,,,,,,,,1.5,0.9,1.2*36
$GPGSA,A,3,21,22,36,42,45,,,,,,,,1.5,0.9,1.2*3D
$GPGST,071542.00,3.615,0.826,0.702,1.277,0.826,0.702,2.289*51
$GPGBS,071542.00,5.600,5.280,15.686,05,0.0001,0.946,0.683*68
$GPGRS,071542.00,1,0.9,0.0,-0.5,0.4,,,,,,,,*6E
$GPGRS,071542.00,1,-3.6,4.4,3.2,-3.8,-2.7,,,,,,,*42
$GPGRS,071542.00,1,-0.1,2.8,-0.2,-7.3,,,,,,,,*6B
$GPGRS,071542.00,1,0.4,-0.0,0.4,4.1,-0.2,,,,,,,*62
$GPGSV,5,1,17,30,80,060,43,22,23,173,,13,42,293,30,14,40,159,39*7C
$GPGSV,5,2,17,07,42,061,46,20,50,221,31,05,53,281,40,15,09,297,23*74
$GPGSV,5,3,17,18,08,331,35,08,10,060,,11,03,222,22,27,05,029,*7A
$GPGSV,5,4,17,09,10,110,,36,35,170,39,34,31,208,,49,34,195,34*76
$GPGSV,5,5,17,61,03,257,*4B
$GLGSV,3,1,10,72,64,112,50,73,17,035,31,81,11,318,41,71,14,127,*61
$GLGSV,3,2,10,75,56,191,53,74,61,051,41,65,51,322,41,76,01,206,*6B
$GLGSV,3,3,10,66,03,312,27,82,07,003,30*6F
$GAGSV,3,1,11,03,72,309,44,15,18,254,29,25,43,150,39,08,21,291,40*68
$GAGSV,3,2,11,24,44,072,45,13,19,307,33,05,50,098,34,16,51,113,*63
$GAGSV,3,3,11,09,00,106,,02,06,188,,31,08,032,*58
$GBGSV,5,1,17,21,65,298,46,26,12,218,30,42,15,311,38,09,15,062,30*67
$GBGSV,5,2,17,05,21,129,32,40,18,069,,10,20,090,,50,40,306,*6B
$GBGSV,5,3,17,45,64,189,45,22,56,145,49,36,54,064,47,06,01,065,*66
$GBGSV,5,4,17,02,05,108,,46,06,046,,19,06,135,,56,05,095,*67
$GBGSV,5,5,17,60,07,112,*5E
$GPGGA,071542.00,,,,,0,00,,,M,,M,,*4D
$PTNL,GGK,071542.00,010125,4742.4466150,N,01617.9733048,E,1,18,1.5,EHT668.7397,M*42
$GPGGQ,071542.00,010125,4742.4466150,N,01617.9733048,E,1,18,2.532,625.5287,M*35
$GPGFA,071542.00,7.849,18.768,0.826,0.702,1.277,2.289,,VVV*3F
$GPLLK,071542.00,010125,,M,,M,1,18,1.8,,M*0E
$GNGMP,071542.00,,,,,DAAA,18,0.9,,,,*53
$GPGMP,071542.00,,,,,,04,,,,2.5,123*7B
$GLGMP,071542.00,,,,,,05,,,,,*7F
$GAGMP,071542.00,,,,,,04,,,,,*73
$GBGMP,071542.00,,,,,,05,,,,,*71
$PSSN,SNC,[0,285360000,2347]*4E
$GPZDA,071547.00,01,01,2025,,*63
$GPDTM,W84,,00.0000000,N,00.0000000,E,00.0000000,W84*5F
$GPRMC,071547.00,A,4742.4466105,N,01617.9733280,E,0.0,,010125,5.1,E,D*19
$GPGLL,4742.4466105,N,01617.9733280,E,071547.00,A,D*68
$GPGGA,071547.00,4742.4466105,N,01617.9733280,E,2,18,0.9,625.5286,M,43.2111,M,3.5,0123*4F
$GNGNS,071547.00,4742.4466105,N,01617.9733280,E,DAAA,18,0.9,625.5286,43.2111,,*55
$GPGNS,071547.00,,,,,,04,,,,3.5,123*7F
$GLGNS,071547.00,,,,,,05,,,,,*7A
$GAGNS,071547.00,,,,,,04,,,,,*76
$GBGNS,071547.00,,,,,,05,,,,,*74
$GPLLQ,071547.00,010125,,M,,M,1,18,5.146,,M*1E
$GPVTG,,T,,M,0.01,N,0.02,K,D*25
$GPHDT,,T*1B
$GPTHS,,V*0E
$GPROT,,V*08
$PSSN,HRP,071547.00,010125,,,,,,,00,0,,*61
$PTNL,AVR,071547.00,,Yaw,,Tilt,,,,0,,00*37
$GPGSA,A,3,05,07,14,30,,,,,,,,,1.5,0.9,1.2*38
$GPGSA,A,3,65,72,74,75,81,,,,,,,,1.5,0.9,1.2*32
$GPGSA,A,3,03,08,24,25,,,,,,,,,1.5,0.9,1.2*36
$GPGSA,A,3,21,22,36,42,45,,,,,,,,1.5,0.9,1.2*3D
$GPGST,071547.00,7.007,1.718,1.460,1.439,1.718,1.460,4.626*5E
$GPGBS,071547.00,5.703,5.379,15.862,05,0.0001,2.609,0.702*62
$GPGRS,071547.00,1,2.6,-1.6,-0.7,-0.3,,,,,,,,*64
$GPGRS,071547.00,1,-5.2,2.6,1.1,-5.2,21.0,,,,,,,*57
$GPGRS,071547.00,1,-2.2,1.4,-1.7,-2.6,,,,,,,,*64
$GPGRS,071547.00,1,-0.9,-1.6,-1.3,2.0,-1.2,,,,,,,*6D
$GPGSV,5,1,17,30,80,060,44,22,23,173,,13,42,293,32,14,40,159,39*79
$GPGSV,5,2,17,07,42,061,46,20,50,221,31,05,53,281,41,15,09,297,26*70
$GPGSV,5,3,17,18,08,331,36,08,10,060,,11,03,222,21,27,05,029,*7A
$GPGSV,5,4,17,09,10,110,,36,35,170,39,34,31,208,,49,34,195,34*76
$GPGSV,5,5,17,61,03,257,*4B
$GLGSV,3,1,10,72,64,112,50,73,17,035,32,81,11,318,39,71,14,127,26*69
$GLGSV,3,2,10,75,56,191,53,74,61,051,41,65,51,322,43,76,01,206,*69
$GLGSV,3,3,10,66,03,312,27,82,07,003,34*6B
$GAGSV,3,1,11,03,72,309,44,15,18,254,25,25,43,150,39,08,21,291,40*64
$GAGSV,3,2,11,24,44,072,45,13,19,307,34,05,50,098,33,16,51,113,*63
$GAGSV,3,3,11,09,00,106,,02,06,188,,31,08,032,*58
$GBGSV,5,1,17,21,65,298,45,26,12,218,30,42,15,311,37,09,15,062,30*6B
$GBGSV,5,2,17,05,21,129,32,40,18,069,,10,20,090,,50,40,306,*6B
$GBGSV,5,3,17,45,64,189,46,22,56,145,48,36,54,064,48,06,01,065,*6B
$GBGSV,5,4,17,02,05,108,,46,06,046,,19,06,135,,56,05,095,*67
$GBGSV,5,5,17,60,07,112,*5E
$GPGGA,071547.00,,,,,0,00,,,M,,M,,*48
$PTNL,GGK,071547.00,010125,4742.4466105,N,01617.9733280,E,1,18,1.5,EHT668.7397,M*41
$GPGGQ,071547.00,010125,4742.4466105,N,01617.9733280,E,1,18,5.146,625.5286,M*37
$GPGFA,071547.00,16.334,37.937,1.718,1.460,1.439,4.626,,VVV*0C
$GPLLK,071547.00,010125,,M,,M,1,18,1.8,,M*0B
$GNGMP,071547.00,,,,,DAAA,18,0.9,,,,*56
$GPGMP,071547.00,,,,,,04,,,,3.5,123*7F
$GLGMP,071547.00,,,,,,05,,,,,*7A
$GAGMP,071547.00,,,,,,04,,,,,*76
$GBGMP,071547.00,,,,,,05,,,,,*74
$PSSN,SNC,[0,285365000,2347]*4B
$GPZDA,071552.00,01,01,2025,,*67
$GPDTM,W84,,00.0000000,N,00.0000000,E,00.0000000,W84*5F
$GPRMC,071552.00,A,4742.4466122,N,01617.9733529,E,0.0,,010125,5.1,E,D*1C
$GPGLL,4742.4466122,N,01617.9733529,E,071552.00,A,D*6D
$GPGGA,071552.00,4742.4466122,N,01617.9733529,E,2,18,0.9,625.5325,M,43.2111,M,1.5,0123*40
$GNGNS,071552.00,4742.4466122,N,01617.9733529,E,DAAA,18,0.9,625.5325,43.2111,,*58
$GPGNS,071552.00,,,,,,04,,,,1.5,123*79
$GLGNS,071552.00,,,,,,05,,,,,*7E
$GAGNS,071552.00,,,,,,04,,,,,*72
$GBGNS,071552.00,,,,,,05,,,,,*70
$GPLLQ,071552.00,010125,,M,,M,1,18,3.911,,M*16
$GPVTG,,T,,M,0.00,N,0.01,K,D*27
$GPHDT,,T*1B
$GPTHS,,V*0E
$GPROT,,V*08
$PSSN,HRP,071552.00,010125,,,,,,,00,0,,*65
$PTNL,AVR,071552.00,,Yaw,,Tilt,,,,0,,00*33
$GPGSA,A,3,05,07,14,30,,,,,,,,,1.5,0.9,1.2*38
$GPGSA,A,3,65,72,74,75,81,,,,,,,,1.5,0.9,1.2*32
$GPGSA,A,3,03,08,24,25,,,,,,,,,1.5,0.9,1.2*36
$GPGSA,A,3,21,22,36,42,45,,,,,,,,1.5,0.9,1.2*3D
$GPGST,071552.00,5.281,1.288,1.094,0.840,1.288,1.094,3.526*53
$GPGBS,071552.00,5.475,5.115,16.198,07,0.0001,-2.011,0.778*4E
$GPGRS,071552.00,1,1.0,-2.0,0.2,-0.1,,,,,,,,*4A
$GPGRS,071552.00,1,-5.1,3.0,1.5,-5.1,14.6,,,,,,,*50
$GPGRS,071552.00,1,-2.6,-0.4,-2.2,-1.5,,,,,,,,*4E
$GPGRS,071552.00,1,-1.2,-2.5,-1.7,-0.9,-0.9,,,,,,,*4B
$GPGSV,5,1,17,30,80,060,45,22,23,173,,13,42,293,33,14,40,159,37*77
$GPGSV,5,2,17,07,42,061,47,20,49,221,34,05,53,281,40,15,09,297,29*72
$GPGSV,5,3,17,18,08,331,36,08,10,060,,11,03,222,21,27,05,029,*7A
$GPGSV,5,4,17,09,10,110,,36,35,170,40,34,31,208,,49,34,195,33*7F
$GPGSV,5,5,17,61,03,257,*4B
$GLGSV,3,1,10,72,64,112,50,73,17,035,32,81,11,318,36,71,14,127,*62
$GLGSV,3,2,10,75,56,191,53,74,61,050,41,65,51,322,44,76,01,206,*6F
$GLGSV,3,3,10,66,03,312,31,82,07,003,31*69
$GAGSV,3,1,11,03,72,309,44,15,18,254,24,25,43,150,39,08,21,291,39*6B
$GAGSV,3,2,11,24,44,072,45,13,19,307,34,05,50,098,32,16,51,113,*62
$GAGSV,3,3,11,09,00,106,,02,06,188,,31,08,032,*58
$GBGSV,5,1,17,21,65,298,45,26,13,218,30,42,15,311,36,09,15,062,29*63
$GBGSV,5,2,17,05,21,129,33,40,18,069,,10,20,090,,50,40,306,*6A
$GBGSV,5,3,17,45,64,189,47,22,56,145,47,36,54,063,48,06,01,065,*62
$GBGSV,5,4,17,02,05,108,,46,06,046,,19,06,136,,56,05,095,*64
$GBGSV,5,5,17,60,07,112,*5E
$GPGGA,071552.00,,,,,0,00,,,M,,M,,*4C
$PTNL,GGK,071552.00,010125,4742.4466122,N,01617.9733529,E,1,18,1.5,EHT668.7436,M*48
$GPGGQ,071552.00,010125,4742.4466122,N,01617.9733529,E,1,18,3.911,625.5325,M*36
$GPGFA,071552.00,12.243,28.917,1.288,1.094,0.840,3.526,,VVV*05
$GPLLK,071552.00,010125,,M,,M,1,18,1.8,,M*0F
$GNGMP,071552.00,,,,,DAAA,18,0.9,,,,*52
$GPGMP,071552.00,,,,,,04,,,,1.5,123*79
$GLGMP,071552.00,,,,,,05,,,,,*7E
$GAGMP,071552.00,,,,,,04,,,,,*72
$GBGMP,071552.00,,,,,,05,,,,,*70
$PSSN,SNC,[0,285370000,2347]*4F
$GPZDA,071557.00,01,01,2025,,*62
$GPDTM,W84,,00.0000000,N,00.0000000,E,00.0000000,W84*5F
$GPRMC,071557.00,A,4742.4466115,N,01617.9733591,E,0.0,,010125,5.1,E,D*1E
$GPGLL,4742.4466115,N,01617.9733591,E,071557.00,A,D*6F
$GPGGA,071557.00,4742.4466115,N,01617.9733591,E,2,17,0.9,625.5284,M,43.2111,M,2.3,0123*42
$GNGNS,071557.00,4742.4466115,N,01617.9733591,E,DAAA,17,0.9,625.5284,43.2111,,*5F
$GPGNS,071557.00,,,,,,04,,,,2.3,123*79
$GLGNS,071557.00,,,,,,05,,,,,*7B
$GAGNS,071557.00,,,,,,04,,,,,*77
$GBGNS,071557.00,,,,,,04,,,,,*74
$GPLLQ,071557.00,010125,,M,,M,1,17,3.252,,M*10
$GPVTG,,T,,M,0.00,N,0.00,K,D*26
$GPHDT,,T*1B
$GPTHS,,V*0E
$GPROT,,V*08
$PSSN,HRP,071557.00,010125,,,,,,,00,0,,*60
$PTNL,AVR,071557.00,,Yaw,,Tilt,,,,0,,00*36
$GPGSA,A,3,05,07,20,30,,,,,,,,,1.7,0.9,1.4*3B
$GPGSA,A,3,65,72,74,75,81,,,,,,,,1.7,0.9,1.4*36
$GPGSA,A,3,03,08,24,25,,,,,,,,,1.7,0.9,1.4*32
$GPGSA,A,3,21,22,36,45,,,,,,,,,1.7,0.9,1.4*3F
$GPGST,071557.00,4.911,1.438,0.672,334.915,1.333,0.862,2.838*50
$GPGBS,071557.00,7.939,5.532,17.782,81,0.0001,12.157,6.351*59
$GPGRS,071557.00,1,0.5,-0.8,-0.2,0.4,,,,,,,,*44
$GPGRS,071557.00,1,-5.1,4.7,2.4,-4.3,12.2,,,,,,,*56
$GPGRS,071557.00,1,-1.8,-2.1,-1.6,-0.5,,,,,,,,*47
$GPGRS,071557.00,1,-0.6,-2.8,-1.3,-0.1,,,,,,,,*40
$GPGSV,5,1,17,30,80,060,45,22,23,173,,13,42,293,34,14,40,159,34*73
$GPGSV,5,2,17,07,42,061,47,20,49,221,36,05,53,281,40,15,09,297,31*79
$GPGSV,5,3,17,18,08,330,36,08,10,060,,11,03,222,,27,05,029,*78
$GPGSV,5,4,17,09,10,110,,36,35,170,39,34,31,208,,49,34,195,33*71
$GPGSV,5,5,17,61,03,257,*4B
$GLGSV,3,1,10,72,64,112,50,73,17,035,31,81,11,318,38,71,14,127,*6F
$GLGSV,3,2,10,75,57,191,53,74,61,050,42,65,51,322,45,76,01,206,*6C
$GLGSV,3,3,10,66,03,312,33,82,07,003,30*6A
$GAGSV,3,1,11,03,72,309,44,15,18,254,23,25,43,150,40,08,21,291,38*63
$GAGSV,3,2,11,24,44,072,44,13,19,307,34,05,50,098,32,16,52,113,*60
$GAGSV,3,3,11,09,00,106,,02,06,188,,31,08,032,*58
$GBGSV,5,1,17,21,65,298,46,26,13,218,30,42,15,311,33,09,15,062,28*64
$GBGSV,5,2,17,05,21,129,33,40,18,069,,10,20,090,,50,40,306,*6A
$GBGSV,5,3,17,45,64,189,47,22,56,145,47,36,54,063,49,06,01,065,*63
$GBGSV,5,4,17,02,05,108,,46,06,046,,19,06,136,,56,05,095,*64
$GBGSV,5,5,17,60,07,112,*5E
$GPGGA,071557.00,,,,,0,00,,,M,,M,,*49
$PTNL,GGK,071557.00,010125,4742.4466115,N,01617.9733591,E,1,17,1.7,EHT668.7395,M*49
$GPGGQ,071557.00,010125,4742.4466115,N,01617.9733591,E,1,17,3.252,625.5284,M*3D
$GPGFA,071557.00,13.673,23.272,1.438,0.672,334.915,2.838,,VVV*01
$GPLLK,071557.00,010125,,M,,M,1,17,2.0,,M*0E
$GNGMP,071557.00,,,,,DAAA,17,0.9,,,,*58
$GPGMP,071557.00,,,,,,04,,,,2.3,123*79
$GLGMP,071557.00,,,,,,05,,,,,*7B
$GAGMP,071557.00,,,,,,04,,,,,*77
$GBGMP,071557.00,,,,,,04,,,,,*74
$PSSN,SNC,[0,285375000,2347]*4A
$GPZDA,071602.00,01,01,2025,,*61
$GPDTM,W84,,00.0000000,N,00.0000000,E,00.0000000,W84*5F
$GPRMC,071602.00,A,4742.4466105,N,01617.9733698,E,0.0,,010125,5.1,E,D*16
$GPGLL,4742.4466105,N,01617.9733698,E,071602.00,A,D*67
$GPGGA,071602.00,4742.4466105,N,01617.9733698,E,2,16,0.9,625.5166,M,43.2111,M,2.0,0123*47
$GNGNS,071602.00,4742.4466105,N,01617.9733698,E,DAAA,16,0.9,625.5166,43.2111,,*59
$GPGNS,071602.00,,,,,,03,,,,2.0,123*7E
$GLGNS,071602.00,,,,,,05,,,,,*78
$GAGNS,071602.00,,,,,,04,,,,,*74
$GBGNS,071602.00,,,,,,04,,,,,*77
$GPLLQ,071602.00,010125,,M,,M,1,16,5.499,,M*15
$GPVTG,,T,,M,0.00,N,0.00,K,D*26
$GPHDT,,T*1B
$GPTHS,,V*0E
$GPROT,,V*08
$PSSN,HRP,071602.00,010125,,,,,,,00,0,,*63
$PTNL,AVR,071602.00,,Yaw,,Tilt,,,,0,,00*35
$GPGSA,A,3,07,20,30,,,,,,,,,,1.7,0.9,1.4*3E
$GPGSA,A,3,65,72,74,75,81,,,,,,,,1.7,0.9,1.4*36
$GPGSA,A,3,03,08,24,25,,,,,,,,,1.7,0.9,1.4*32
$GPGSA,A,3,21,22,36,45,,,,,,,,,1.7,0.9,1.4*3F
$GPGST,071602.00,6.360,4.002,0.914,319.202,3.088,2.705,3.659*5D
$GPGBS,071602.00,11.726,9.700,16.007,81,0.0001,16.441,6.352*6C
$GPGRS,071602.00,1,-0.6,-1.0,0.0,,,,,,,,,*65
$GPGRS,071602.00,1,-4.5,5.0,2.2,-4.5,16.4,,,,,,,*54
$GPGRS,071602.00,1,-1.5,-2.6,-1.5,-0.1,,,,,,,,*49
$GPGRS,071602.00,1,-0.4,-2.9,-1.4,-0.7,,,,,,,,*41
$GPGSV,5,1,17,30,80,060,44,22,23,173,,13,42,293,35,14,41,159,30*76
$GPGSV,5,2,17,07,42,061,47,20,49,221,37,05,53,281,38,15,09,297,34*72
$GPGSV,5,3,17,18,08,330,35,08,10,060,,11,03,222,,27,05,029,*7B
$GPGSV,5,4,17,09,10,110,,36,35,170,39,34,31,208,,49,34,195,33*71
$GPGSV,5,5,17,61,03,257,*4B
$GLGSV,3,1,10,72,64,112,50,73,17,035,30,81,11,318,37,71,14,127,*61
$GLGSV,3,2,10,75,57,191,53,74,61,050,42,65,51,322,47,76,01,206,*6E
$GLGSV,3,3,10,66,03,313,31,82,07,003,29*61
$GAGSV,3,1,10,03,72,309,43,15,18,254,23,25,43,149,41,08,21,291,38*6C
$GAGSV,3,2,10,24,44,072,44,13,19,307,33,05,50,098,33,16,52,113,*67
$GAGSV,3,3,10,02,06,188,,31,08,032,*67
$GBGSV,5,1,17,21,65,298,47,26,13,218,30,42,15,311,31,09,15,062,27*68
$GBGSV,5,2,17,05,21,129,33,40,18,069,,10,20,090,,50,40,306,*6A
$GBGSV,5,3,17,22,56,145,47,36,54,063,49,45,64,189,47,06,01,065,*63
$GBGSV,5,4,17,19,05,136,,46,06,046,,02,05,108,,56,05,095,*67
$GBGSV,5,5,17,60,07,112,*5E
$GPGGA,071602.00,,,,,0,00,,,M,,M,,*4A
$PTNL,GGK,071602.00,010125,4742.4466105,N,01617.9733698,E,1,16,1.7,EHT668.7277,M*4D
$GPGGQ,071602.00,010125,4742.4466105,N,01617.9733698,E,1,16,5.499,625.5166,M*3C
$GPGFA,071602.00,38.050,30.003,4.002,0.914,319.202,3.659,,VVV*07
$GPLLK,071602.00,010125,,M,,M,1,16,2.0,,M*0C
$GNGMP,071602.00,,,,,DAAA,16,0.9,,,,*5A
$GPGMP,071602.00,,,,,,03,,,,2.0,123*7E
$GLGMP,071602.00,,,,,,05,,,,,*78
$GAGMP,071602.00,,,,,,04,,,,,*74
$GBGMP,071602.00,,,,,,04,,,,,*77
$PSSN,SNC,[0,285380000,2347]*40
$GPZDA,071607.00,01,01,2025,,*64
$GPDTM,W84,,00.0000000,N,00.0000000,E,00.0000000,W84*5F
$GPRMC,071607.00,A,4742.4466035,N,01617.9733613,E,0.0,,010125,5.1,E,D*12
$GPGLL,4742.4466035,N,01617.9733613,E,071607.00,A,D*63
$GPGGA,071607.00,4742.4466035,N,01617.9733613,E,2,17,0.9,625.5183,M,43.2111,M,3.0,0123*48
$GNGNS,071607.00,4742.4466035,N,01617.9733613,E,DAAA,17,0.9,625.5183,43.2111,,*57
$GPGNS,071607.00,,,,,,04,,,,3.0,123*7D
$GLGNS,071607.00,,,,,,05,,,,,*7D
$GAGNS,071607.00,,,,,,04,,,,,*71
$GBGNS,071607.00,,,,,,04,,,,,*72
$GPLLQ,071607.00,010125,,M,,M,1,17,4.169,,M*1A
$GPVTG,,T,,M,0.00,N,0.01,K,D*27
$GPHDT,,T*1B
$GPTHS,,V*0E
$GPROT,,V*08
$PSSN,HRP,071607.00,010125,,,,,,,00,0,,*66
$PTNL,AVR,071607.00,,Yaw,,Tilt,,,,0,,00*30
$GPGSA,A,3,07,15,20,30,,,,,,,,,1.6,0.9,1.3*3C
$GPGSA,A,3,65,72,74,75,81,,,,,,,,1.6,0.9,1.3*30
$GPGSA,A,3,03,08,24,25,,,,,,,,,1.6,0.9,1.3*34
$GPGSA,A,3,21,22,36,45,,,,,,,,,1.6,0.9,1.3*39
$GPGST,071607.00,5.623,2.491,1.017,324.915,2.120,1.656,3.184*58
$GPGBS,071607.00,8.066,7.079,14.370,81,0.0001,15.492,6.349*53
$GPGRS,071607.00,1,0.4,-2.2,-1.7,0.8,,,,,,,,*43
$GPGRS,071607.00,1,-2.5,5.6,3.2,-3.2,15.5,,,,,,,*52
$GPGRS,071607.00,1,-0.3,-0.9,-0.4,2.0,,,,,,,,*68
$GPGRS,071607.00,1,1.0,-1.5,-0.9,-0.0,,,,,,,,*68
$GPGSV,5,1,17,30,80,060,45,22,23,173,,13,42,293,33,14,41,159,39*78
$GPGSV,5,2,17,07,42,061,47,20,49,221,38,05,53,281,31,15,09,297,37*77
$GPGSV,5,3,17,18,08,330,34,08,10,060,,11,03,222,,27,05,029,*7A
$GPGSV,5,4,17,09,10,110,,36,35,170,39,34,31,208,,49,34,195,33*71
$GPGSV,5,5,17,61,03,257,*4B
$GLGSV,3,1,10,72,64,112,50,73,17,035,27,81,11,318,36,71,14,127,*66
$GLGSV,3,2,10,75,57,191,53,74,60,050,40,65,51,322,48,76,01,206,*62
$GLGSV,3,3,10,66,03,313,31,82,07,003,30*69
$GAGSV,3,1,10,03,72,309,43,15,18,254,22,25,43,149,42,08,21,291,37*61
$GAGSV,3,2,10,24,44,072,44,13,19,307,33,05,50,098,33,16,52,113,*67
$GAGSV,3,3,10,02,06,188,,31,08,032,*67
$GBGSV,5,1,17,21,65,298,47,26,13,218,30,42,15,311,29,09,15,062,25*63
$GBGSV,5,2,17,05,21,129,32,40,18,069,,10,20,090,,50,40,306,*6B
$GBGSV,5,3,17,22,56,145,47,36,54,063,49,45,64,189,47,06,01,065,*63
$GBGSV,5,4,17,19,05,136,,46,06,046,,02,05,108,,56,05,095,*67
$GBGSV,5,5,17,60,07,112,*5E
$GPGGA,071607.00,,,,,0,00,,,M,,M,,*4F
$PTNL,GGK,071607.00,010125,4742.4466035,N,01617.9733613,E,1,17,1.6,EHT668.7294,M*44
$GPGGQ,071607.00,010125,4742.4466035,N,01617.9733613,E,1,17,4.169,625.5183,M*39
$GPGFA,071607.00,23.680,26.112,2.491,1.017,324.915,3.184,,VVV*02
$GPLLK,071607.00,010125,,M,,M,1,17,1.9,,M*02
$GNGMP,071607.00,,,,,DAAA,17,0.9,,,,*5E
$GPGMP,071607.00,,,,,,04,,,,3.0,123*7D
$GLGMP,071607.00,,,,,,05,,,,,*7D
$GAGMP,071607.00,,,,,,04,,,,,*71
$GBGMP,071607.00,,,,,,04,,,,,*72
$PSSN,SNC,[0,285385000,2347]*45
$GPZDA,071612.00,01,01,2025,,*60
$GPDTM,W84,,00.0000000,N,00.0000000,E,00.0000000,W84*5F
$GPRMC,071612.00,A,4742.4465948,N,01617.9733472,E,0.0,,010125,5.1,E,D*13
$GPGLL,4742.4465948,N,01617.9733472,E,071612.00,A,D*62
$GPGGA,071612.00,4742.4465948,N,01617.9733472,E,2,17,0.9,625.4966,M,43.2111,M,3.3,0123*48
$GNGNS,071612.00,4742.4465948,N,01617.9733472,E,DAAA,17,0.9,625.4966,43.2111,,*54
$GPGNS,071612.00,,,,,,04,,,,3.3,123*7A
$GLGNS,071612.00,,,,,,05,,,,,*79
$GAGNS,071612.00,,,,,,04,,,,,*75
$GBGNS,071612.00,,,,,,04,,,,,*76
$GPLLQ,071612.00,010125,,M,,M,1,17,4.568,,M*1B
$GPVTG,,T,,M,0.00,N,0.01,K,D*27
$GPHDT,,T*1B
$GPTHS,,V*0E
$GPROT,,V*08
$PSSN,HRP,071612.00,010125,,,,,,,00,0,,*62
$PTNL,AVR,071612.00,,Yaw,,Tilt,,,,0,,00*34
$GPGSA,A,3,07,15,20,30,,,,,,,,,1.6,0.9,1.3*3C
$GPGSA,A,3,65,72,74,75,81,,,,,,,,1.6,0.9,1.3*30
$GPGSA,A,3,03,08,24,25,,,,,,,,,1.6,0.9,1.3*34
$GPGSA,A,3,21,22,36,45,,,,,,,,,1.6,0.9,1.3*39
$GPGST,071612.00,5.199,2.693,1.111,326.180,2.321,1.760,3.519*5C
$GPGBS,071612.00,8.161,6.869,14.658,20,0.0001,-2.349,0.723*49
$GPGRS,071612.00,1,0.5,-0.5,-2.3,1.4,,,,,,,,*49
$GPGRS,071612.00,1,-1.8,5.8,2.1,-3.5,14.0,,,,,,,*57
$GPGRS,071612.00,1,-0.1,-1.2,-0.4,2.3,,,,,,,,*67
$GPGRS,071612.00,1,1.3,-1.0,-1.3,0.2,,,,,,,,*4E
$GPGSV,5,1,17,30,80,060,44,22,23,173,,13,42,293,28,14,41,159,28*73
$GPGSV,5,2,17,07,42,061,47,20,49,221,40,05,53,281,34,15,09,297,39*73
$GPGSV,5,3,17,18,08,330,36,08,10,060,,11,03,222,,27,05,028,*79
$GPGSV,5,4,17,09,10,110,,36,35,170,39,34,31,208,,49,34,195,34*76
$GPGSV,5,5,17,61,03,257,*4B
$GLGSV,3,1,10,72,64,112,50,73,17,035,21,81,11,318,36,71,14,127,23*61
$GLGSV,3,2,10,75,57,191,52,74,60,050,40,65,51,322,48,76,01,206,*63
$GLGSV,3,3,10,66,03,313,32,82,07,003,24*6F
$GAGSV,3,1,10,03,72,309,43,15,18,254,28,25,43,149,43,08,21,291,35*68
$GAGSV,3,2,10,24,44,072,43,13,19,307,34,05,50,098,34,16,52,113,*60
$GAGSV,3,3,10,02,06,188,,31,08,032,*67
$GBGSV,5,1,17,21,65,298,47,26,13,218,31,42,15,311,28,09,15,062,25*63
$GBGSV,5,2,17,05,21,129,33,40,18,069,,10,20,090,,50,40,306,*6A
$GBGSV,5,3,17,22,56,145,47,36,54,063,49,45,65,189,47,06,01,065,*62
$GBGSV,5,4,17,19,05,136,,46,06,046,,02,05,108,,56,05,095,*67
$GBGSV,5,5,17,60,07,112,*5E
$GPGGA,071612.00,,,,,0,00,,,M,,M,,*4B
$PTNL,GGK,071612.00,010125,4742.4465948,N,01617.9733472,E,1,17,1.6,EHT668.7076,M*4B
$GPGGQ,071612.00,010125,4742.4465948,N,01617.9733472,E,1,17,4.568,625.4966,M*3F
$GPGFA,071612.00,25.602,28.854,2.693,1.111,326.180,3.519,,VVV*0E
$GPLLK,071612.00,010125,,M,,M,1,17,1.9,,M*06
$GNGMP,071612.00,,,,,DAAA,17,0.9,,,,*5A
$GPGMP,071612.00,,,,,,04,,,,3.3,123*7A
$GLGMP,071612.00,,,,,,05,,,,,*79
$GAGMP,071612.00,,,,,,04,,,,,*75
$GBGMP,071612.00,,,,,,04,,,,,*76
$PSSN,SNC,[0,285390000,2347]*41
$GPZDA,071617.00,01,01,2025,,*65
$GPDTM,W84,,00.0000000,N,00.0000000,E,00.0000000,W84*5F
$GPRMC,071617.00,A,4742.4465810,N,01617.9733401,E,0.0,,010125,5.1,E,D*1E
$GPGLL,4742.4465810,N,01617.9733401,E,071617.00,A,D*6F
$GPGGA,071617.00,4742.4465810,N,01617.9733401,E,2,17,0.9,625.5044,M,43.2111,M,2.3,0123*4C
$GNGNS,071617.00,4742.4465810,N,01617.9733401,E,DAAA,17,0.9,625.5044,43.2111,,*51
$GPGNS,071617.00,,,,,,04,,,,2.3,123*7E
$GLGNS,071617.00,,,,,,05,,,,,*7C
$GAGNS,071617.00,,,,,,04,,,,,*70
$GBGNS,071617.00,,,,,,04,,,,,*73
$GPLLQ,071617.00,010125,,M,,M,1,17,4.943,,M*1B
$GPVTG,,T,,M,0.00,N,0.00,K,D*26
$GPHDT,,T*1B
$GPTHS,,V*0E
$GPROT,,V*08
$PSSN,HRP,071617.00,010125,,,,,,,00,0,,*67
$PTNL,AVR,071617.00,,Yaw,,Tilt,,,,0,,00*31
$GPGSA,A,3,07,15,20,30,,,,,,,,,1.6,0.9,1.3*3C
$GPGSA,A,3,65,72,74,75,81,,,,,,,,1.6,0.9,1.3*30
$GPGSA,A,3,03,13,24,25,,,,,,,,,1.6,0.9,1.3*3E
$GPGSA,A,3,21,22,36,45,,,,,,,,,1.6,0.9,1.3*39
$GPGST,071617.00,6.020,2.858,1.172,324.796,2.431,1.906,3.859*57
$GPGBS,071617.00,7.668,6.961,14.917,20,0.0001,-1.879,0.675*49
$GPGRS,071617.00,1,-0.3,3.1,-1.9,0.8,,,,,,,,*49
$GPGRS,071617.00,1,-3.2,5.8,2.4,-4.3,16.4,,,,,,,*58
$GPGRS,071617.00,1,-0.3,-2.2,-0.4,2.1,,,,,,,,*61
$GPGRS,071617.00,1,0.8,-0.6,-1.5,0.3,,,,,,,,*41
$GPGSV,5,1,17,30,80,060,45,22,23,173,,13,42,293,33,14,41,159,31*70
$GPGSV,5,2,17,07,42,061,46,20,49,221,41,05,53,281,34,15,09,297,40*7D
$GPGSV,5,3,17,18,08,330,35,08,10,060,,11,03,222,18,27,05,028,*73
$GPGSV,5,4,17,09,10,110,,36,35,170,39,34,31,208,,49,34,195,33*71
$GPGSV,5,5,17,61,03,257,*4B
$GLGSV,3,1,10,72,64,112,51,73,17,035,23,81,11,318,35,71,14,127,25*67
$GLGSV,3,2,10,75,57,191,52,74,60,050,39,65,51,322,46,76,01,206,*63
$GLGSV,3,3,10,66,03,313,,82,08,003,*67
$GAGSV,3,1,10,03,72,309,43,15,18,253,28,25,43,149,43,08,21,291,33*69
$GAGSV,3,2,10,24,44,072,42,13,19,307,35,05,50,098,35,16,52,113,*61
$GAGSV,3,3,10,02,06,188,,31,08,032,*67
$GBGSV,5,1,17,21,65,298,47,26,13,218,31,42,15,311,28,09,15,062,25*63
$GBGSV,5,2,17,05,21,129,32,40,18,069,,10,20,090,,50,40,306,*6B
$GBGSV,5,3,17,22,56,145,47,36,54,063,48,45,65,189,47,06,01,065,*63
$GBGSV,5,4,17,19,05,136,,46,06,046,,02,05,108,,56,05,095,*67
$GBGSV,5,5,17,60,07,112,*5E
$GPGGA,071617.00,,,,,0,00,,,M,,M,,*4E
$PTNL,GGK,071617.00,010125,4742.4465810,N,01617.9733401,E,1,17,1.6,EHT668.7155,M*46
$GPGGQ,071617.00,010125,4742.4465810,N,01617.9733401,E,1,17,4.943,625.5044,M*3F
$GPGFA,071617.00,27.176,31.643,2.858,1.172,324.796,3.859,,VVV*0B
$GPLLK,071617.00,010125,,M,,M,1,17,1.9,,M*03
$GNGMP,071617.00,,,,,DAAA,17,0.9,,,,*5F
$GPGMP,071617.00,,,,,,04,,,,2.3,123*7E
$GLGMP,071617.00,,,,,,05,,,,,*7C
$GAGMP,071617.00,,,,,,04,,,,,*70
$GBGMP,071617.00,,,,,,04,,,,,*73
$PSSN,SNC,[0,285395000,2347]*44
$GPZDA,071622.00,01,01,2025,,*63
$GPDTM,W84,,00.0000000,N,00.0000000,E,00.0000000,W84*5F
$GPRMC,071622.00,A,4742.4465766,N,01617.9733373,E,0.0,,010125,5.1,E,D*14
$GPGLL,4742.4465766,N,01617.9733373,E,071622.00,A,D*65
$GPGGA,071622.00,4742.4465766,N,01617.9733373,E,2,17,0.9,625.5147,M,43.2111,M,2.8,0123*4F
$GNGNS,071622.00,4742.4465766,N,01617.9733373,E,DAAA,17,0.9,625.5147,43.2111,,*59
$GPGNS,071622.00,,,,,,04,,,,2.8,123*73
$GLGNS,071622.00,,,,,,04,,,,,*7B
$GAGNS,071622.00,,,,,,05,,,,,*77
$GBGNS,071622.00,,,,,,04,,,,,*75
$GPLLQ,071622.00,010125,,M,,M,1,17,3.902,,M*1F
$GPVTG,,T,,M,0.01,N,0.01,K,D*26
$GPHDT,,T*1B
$GPTHS,,V*0E
$GPROT,,V*08
$PSSN,HRP,071622.00,010125,,,,,,,00,0,,*61
$PTNL,AVR,071622.00,,Yaw,,Tilt,,,,0,,00*37
$GPGSA,A,3,05,07,20,30,,,,,,,,,1.9,0.9,1.7*36
$GPGSA,A,3,65,72,74,75,,,,,,,,,1.9,0.9,1.7*32
$GPGSA,A,3,03,05,13,24,25,,,,,,,,1.9,0.9,1.7*30
$GPGSA,A,3,21,22,36,45,,,,,,,,,1.9,0.9,1.7*32
$GPGST,071622.00,4.568,1.688,0.793,331.291,1.529,1.068,3.428*54
$GPGBS,071622.00,7.872,5.868,18.112,05,0.0001,-1.588,0.701*46
$GPGRS,071622.00,1,-1.6,0.3,0.4,0.7,,,,,,,,*64
$GPGRS,071622.00,1,-5.7,6.2,1.7,-3.9,,,,,,,,*44
$GPGRS,071622.00,1,-0.2,10.5,-1.1,-0.3,1.6,,,,,,,*7F
$GPGRS,071622.00,1,1.0,-0.1,-0.8,0.6,,,,,,,,*40
$GPGSV,5,1,17,30,80,060,46,22,23,173,,13,42,293,38,14,41,159,31*78
$GPGSV,5,2,17,07,42,061,46,20,49,221,42,05,53,281,42,15,09,297,41*7E
$GPGSV,5,3,17,18,08,330,33,08,10,060,,11,03,222,,27,05,028,*7C
$GPGSV,5,4,17,09,10,110,,36,35,170,39,34,31,208,,49,34,195,33*71
$GPGSV,5,5,17,61,03,257,*4B
$GLGSV,3,1,10,72,64,112,52,73,16,035,,81,11,318,29,71,14,127,28*64
$GLGSV,3,2,10,75,57,191,52,74,60,050,38,65,51,322,43,76,01,206,*67
$GLGSV,3,3,10,66,03,313,,82,08,003,32*66
$GAGSV,3,1,10,03,72,310,44,15,18,253,30,25,43,149,43,08,21,291,31*6D
$GAGSV,3,2,10,24,44,072,42,13,19,307,37,05,50,098,36,16,52,113,*60
$GAGSV,3,3,10,02,06,188,,31,08,032,*67
$GBGSV,5,1,17,21,65,298,47,26,13,218,31,42,15,311,30,09,15,062,23*6C
$GBGSV,5,2,17,05,21,129,33,40,18,069,,10,20,090,,50,40,306,*6A
$GBGSV,5,3,17,22,56,145,47,36,54,063,47,45,65,189,48,06,01,065,*63
$GBGSV,5,4,17,19,05,136,,46,06,046,,02,05,108,,56,05,095,*67
$GBGSV,5,5,17,60,07,112,*5E
$GPGGA,071622.00,,,,,0,00,,,M,,M,,*48
$PTNL,GGK,071622.00,010125,4742.4465766,N,01617.9733373,E,1,17,1.9,EHT668.7258,M*4D
$GPGGQ,071622.00,010125,4742.4465766,N,01617.9733373,E,1,17,3.902,625.5147,M*35
$GPGFA,071622.00,16.048,28.110,1.688,0.793,331.291,3.428,,VVV*0E
$GPLLK,071622.00,010125,,M,,M,1,17,2.4,,M*0B
$GNGMP,071622.00,,,,,DAAA,17,0.9,,,,*59
$GPGMP,071622.00,,,,,,04,,,,2.8,123*73
$GLGMP,071622.00,,,,,,04,,,,,*7B
$GAGMP,071622.00,,,,,,05,,,,,*77
$GBGMP,071622.00,,,,,,04,,,,,*75
$PSSN,SNC,[0,285400000,2347]*4F
$GPZDA,071627.00,01,01,2025,,*66
$GPDTM,W84,,00.0000000,N,00.0000000,E,00.0000000,W84*5F
$GPRMC,071627.00,A,4742.4465803,N,01617.9733318,E,0.0,,010125,5.1,E,D*10
$GPGLL,4742.4465803,N,01617.9733318,E,071627.00,A,D*61
$GPGGA,071627.00,4742.4465803,N,01617.9733318,E,2,17,0.9,625.5047,M,43.2111,M,1.8,0123*49
$GNGNS,071627.00,4742.4465803,N,01617.9733318,E,DAAA,17,0.9,625.5047,43.2111,,*5C
$GPGNS,071627.00,,,,,,04,,,,1.8,123*75
$GLGNS,071627.00,,,,,,04,,,,,*7E
$GAGNS,071627.00,,,,,,05,,,,,*72
$GBGNS,071627.00,,,,,,04,,,,,*70
$GPLLQ,071627.00,010125,,M,,M,1,17,5.092,,M*1C
$GPVTG,,T,,M,0.01,N,0.01,K,D*26
$GPHDT,,T*1B
$GPTHS,,V*0E
$GPROT,,V*08
$PSSN,HRP,071627.00,010125,,,,,,,00,0,,*64
$PTNL,AVR,071627.00,,Yaw,,Tilt,,,,0,,00*32
$GPGSA,A,3,05,07,20,30,,,,,,,,,1.9,0.9,1.7*36
$GPGSA,A,3,65,72,74,75,,,,,,,,,1.9,0.9,1.7*32
$GPGSA,A,3,03,05,13,24,25,,,,,,,,1.9,0.9,1.7*30
$GPGSA,A,3,21,22,36,45,,,,,,,,,1.9,0.9,1.7*32
$GPGST,071627.00,4.887,2.070,0.966,327.023,1.815,1.388,4.551*50
$GPGBS,071627.00,8.064,5.604,18.458,05,0.0001,-2.349,0.650*41
$GPGRS,071627.00,1,-2.3,-0.1,1.1,0.5,,,,,,,,*4E
$GPGRS,071627.00,1,-7.1,6.1,0.3,-4.6,,,,,,,,*4B
$GPGRS,071627.00,1,0.0,10.9,-0.6,-0.6,0.5,,,,,,,*58
$GPGRS,071627.00,1,1.1,-0.1,-0.9,-0.0,,,,,,,,*6E
$GPGSV,5,1,17,30,80,060,45,22,23,173,,13,42,293,40,14,41,159,38*7D
$GPGSV,5,2,17,07,42,061,46,20,49,221,41,05,53,281,42,15,09,297,40*7C
$GPGSV,5,3,17,18,08,330,28,08,10,060,,11,03,222,,27,05,028,*76
$GPGSV,5,4,17,09,10,110,,36,35,170,39,34,31,208,,49,34,195,33*71
$GPGSV,5,5,17,61,03,257,*4B
$GLGSV,3,1,10,72,63,112,52,73,16,035,27,81,11,318,29,71,14,127,32*6D
$GLGSV,3,2,10,75,57,191,51,74,60,050,37,65,51,322,42,76,01,206,*6A
$GLGSV,3,3,10,66,03,313,32,82,08,003,28*6C
$GAGSV,3,1,10,03,72,310,44,15,18,253,31,25,43,149,43,08,21,291,28*64
$GAGSV,3,2,10,24,44,072,42,13,19,307,38,05,50,098,37,16,52,113,*6E
$GAGSV,3,3,10,02,06,188,,31,08,032,*67
$GBGSV,5,1,17,21,65,298,48,26,13,218,32,42,15,311,31,09,15,062,22*60
$GBGSV,5,2,17,05,21,129,33,40,18,069,,10,20,090,,50,40,306,*6A
$GBGSV,5,3,17,22,56,145,47,36,54,063,47,45,65,189,48,06,01,065,*63
$GBGSV,5,4,17,19,05,136,,46,06,046,,02,05,108,,56,05,095,*67
$GBGSV,5,5,17,60,07,112,*5E
$GPGGA,071627.00,,,,,0,00,,,M,,M,,*4D
$PTNL,GGK,071627.00,010125,4742.4465803,N,01617.9733318,E,1,17,1.9,EHT668.7157,M*45
$GPGGQ,071627.00,010125,4742.4465803,N,01617.9733318,E,1,17,5.092,625.5047,M*36
$GPGFA,071627.00,19.683,37.320,2.070,0.966,327.023,4.551,,VVV*08
$GPLLK,071627.00,010125,,M,,M,1,17,2.4,,M*0E
$GNGMP,071627.00,,,,,DAAA,17,0.9,,,,*5C
$GPGMP,071627.00,,,,,,04,,,,1.8,123*75
$GLGMP,071627.00,,,,,,04,,,,,*7E
$GAGMP,071627.00,,,,,,05,,,,,*72
$GBGMP,071627.00,,,,,,04,,,,,*70
$PSSN,SNC,[0,285405000,2347]*4A
$GPZDA,071632.00,01,01,2025,,*62
$GPDTM,W84,,00.0000000,N,00.0000000,E,00.0000000,W84*5F
$GPRMC,071632.00,A,4742.4465807,N,01617.9733144,E,0.0,,010125,5.1,E,D*1B
$GPGLL,4742.4465807,N,01617.9733144,E,071632.00,A,D*6A
$GPGGA,071632.00,4742.4465807,N,01617.9733144,E,2,18,0.9,625.5023,M,43.2111,M,2.8,0123*4C
