$GPZDA,201442.00,01,01,2025,,*62
$GPDTM,W84,,00.0000000,N,00.0000000,E,00.0000000,W84*5F
$GPRMC,201442.00,A,4742.4462456,N,01617.9736346,E,0.0,,010125,5.1,E,D*11
$GPGLL,4742.4462456,N,01617.9736346,E,201442.00,A,D*60
$GPGGA,201442.00,4742.4462456,N,01617.9736346,E,2,20,0.7,625.4894,M,43.2110,M,3.6,0123*48
$GNGNS,201442.00,4742.4462456,N,01617.9736346,E,DAAA,20,0.7,625.4894,43.2110,,*51
$GPGNS,201442.00,,,,,,05,,,,3.6,123*7C
$GLGNS,201442.00,,,,,,04,,,,,*7A
$GAGNS,201442.00,,,,,,03,,,,,*70
$GBGNS,201442.00,,,,,,08,,,,,*78
$GPLLQ,201442.00,010125,,M,,M,1,20,5.353,,M*12
$GPVTG,,T,,M,0.00,N,0.00,K,D*26
$GPHDT,,T*1B
$GPTHS,,V*0E
$GPROT,,V*08
$PSSN,HRP,201442.00,010125,,,,,,,00,0,,*60
$PTNL,AVR,201442.00,,Yaw,,Tilt,,,,0,,00*36
$GPGSA,A,3,10,16,23,26,27,,,,,,,,1.5,0.7,1.3*35
$GPGSA,A,3,67,68,73,83,,,,,,,,,1.5,0.7,1.3*33
$GPGSA,A,3,13,21,26,,,,,,,,,,1.5,0.7,1.3*36
$GPGSA,A,3,13,14,27,28,33,37,42,43,,,,,1.5,0.7,1.3*3E
$GPGST,201442.00,9.511,2.775,1.505,318.590,2.307,2.155,4.323*59
$GPGBS,201442.00,7.714,5.727,13.169,68,0.0001,19.289,6.167*52
$GPGRS,201442.00,1,0.1,1.7,0.1,-2.3,-1.1,,,,,,,*66
$GPGRS,201442.00,1,-1.0,19.3,0.1,-10.0,,,,,,,,*45
$GPGRS,201442.00,1,-0.3,-1.2,-0.8,,,,,,,,,*44
$GPGRS,201442.00,1,2.8,-2.3,17.9,-3.6,5.1,5.7,-2.2,16.8,,,,*6A
$GPGSV,5,1,17,27,78,299,47,15,13,041,36,26,17,188,37,21,17,262,31*70
$GPGSV,5,2,17,18,23,069,28,08,41,302,33,16,43,205,43,10,62,155,48*71
$GPGSV,5,3,17,23,53,066,47,13,01,013,,07,05,302,31,30,02,333,*7F
$GPGSV,5,4,17,32,01,148,,36,35,170,41,34,31,208,,49,34,195,36*7E
$GPGSV,5,5,17,61,03,257,*4B
$GLGSV,3,1,10,83,63,027,20,84,30,286,30,68,32,128,37,73,31,239,43*66
$GLGSV,3,2,10,82,29,073,34,74,37,295,31,67,39,064,41,69,00,164,*6C
$GLGSV,3,3,10,66,10,017,24,75,10,343,27*67
$GAGSV,3,1,12,13,65,050,38,31,12,324,34,15,14,066,,08,16,099,*6B
$GAGSV,3,2,12,03,14,048,,21,43,201,42,23,49,282,,14,59,288,*6E
$GAGSV,3,3,12,26,55,262,48,27,03,167,,07,00,144,,33,07,252,*67
$GBGSV,6,1,21,28,75,314,49,38,11,039,23,60,11,108,,57,14,225,*61
$GBGSV,6,2,21,05,23,128,,50,19,040,,11,13,093,,08,25,038,30*65
$GBGSV,6,3,21,46,23,296,,37,21,239,40,33,39,134,38,13,33,043,42*6C
$GBGSV,6,4,21,27,30,285,39,58,29,278,,42,35,062,46,43,35,095,39*63
$GBGSV,6,5,21,14,44,097,41,02,08,105,,21,03,025,,41,09,176,*60
$GBGSV,6,6,21,36,02,340,*58
$GPGGA,201442.00,,,,,0,00,,,M,,M,,*49
$PTNL,GGK,201442.00,010125,4742.4462456,N,01617.9736346,E,1,20,1.5,EHT668.7005,M*4A
$GPGGQ,201442.00,010125,4742.4462456,N,01617.9736346,E,1,20,5.353,625.4894,M*3A
$GPGFA,201442.00,26.383,35.447,2.775,1.505,318.590,4.323,,VVV*09
$GPLLK,201442.00,010125,,M,,M,1,20,1.7,,M*0E
$GNGMP,201442.00,,,,,DAAA,20,0.7,,,,*52
$GPGMP,201442.00,,,,,,05,,,,3.6,123*7C
$GLGMP,201442.00,,,,,,04,,,,,*7A
$GAGMP,201442.00,,,,,,03,,,,,*70
$GBGMP,201442.00,,,,,,08,,,,,*78
$PSSN,SNC,[0,332100000,2347]*47
$GPZDA,201447.00,01,01,2025,,*67
$GPDTM,W84,,00.0000000,N,00.0000000,E,00.0000000,W84*5F
$GPRMC,201447.00,A,4742.4462481,N,01617.9736330,E,0.0,,010125,5.1,E,D*1F
$GPGLL,4742.4462481,N,01617.9736330,E,201447.00,A,D*6E
$GPGGA,201447.00,4742.4462481,N,01617.9736330,E,2,19,0.8,625.4761,M,43.2110,M,1.4,0123*46
$GNGNS,201447.00,4742.4462481,N,01617.9736330,E,DAAA,19,0.8,625.4761,43.2110,,*5F
$GPGNS,201447.00,,,,,,05,,,,1.4,123*79
$GLGNS,201447.00,,,,,,03,,,,,*78
$GAGNS,201447.00,,,,,,03,,,,,*75
$GBGNS,201447.00,,,,,,08,,,,,*7D
$GPLLQ,201447.00,010125,,M,,M,1,19,4.377,,M*1A
$GPVTG,,T,,M,0.01,N,0.02,K,D*25
$GPHDT,,T*1B
$GPTHS,,V*0E
$GPROT,,V*08
$PSSN,HRP,201447.00,010125,,,,,,,00,0,,*65
$PTNL,AVR,201447.00,,Yaw,,Tilt,,,,0,,00*33
$GPGSA,A,3,10,16,23,26,27,,,,,,,,1.5,0.8,1.3*3A
$GPGSA,A,3,67,73,83,,,,,,,,,,1.5,0.8,1.3*32
$GPGSA,A,3,13,21,26,,,,,,,,,,1.5,0.8,1.3*39
$GPGSA,A,3,13,14,27,28,33,37,42,43,,,,,1.5,0.8,1.3*31
$GPGST,201447.00,8.721,2.296,1.203,318.632,1.897,1.765,3.527*5C
$GPGBS,201447.00,7.955,5.805,13.485,16,0.0001,1.462,0.678*68
$GPGRS,201447.00,1,-0.0,1.5,0.1,-1.6,-0.8,,,,,,,*43
$GPGRS,201447.00,1,5.6,0.9,-11.2,,,,,,,,,*71
$GPGRS,201447.00,1,-0.1,-1.2,-0.8,,,,,,,,,*43
$GPGRS,201447.00,1,3.5,-3.5,11.2,-4.0,12.5,9.3,-2.9,18.1,,,,*5E
$GPGSV,5,1,17,27,79,299,47,15,13,041,35,26,17,188,37,21,17,262,31*72
$GPGSV,5,2,17,18,23,069,26,08,41,302,34,16,43,205,43,10,62,155,48*78
$GPGSV,5,3,17,23,53,066,48,13,01,013,,07,05,302,31,30,02,333,23*71
$GPGSV,5,4,17,32,01,148,,36,35,170,41,34,31,208,,49,34,195,37*7F
$GPGSV,5,5,17,61,03,257,*4B
$GLGSV,3,1,10,83,63,027,24,84,30,286,,68,32,128,33,73,31,239,45*63
$GLGSV,3,2,10,82,29,073,35,74,37,294,32,67,39,064,41,69,00,164,*6F
$GLGSV,3,3,10,66,10,017,26,75,10,343,31*62
$GAGSV,3,1,12,13,65,050,39,31,12,324,34,15,14,066,,08,16,099,*6A
$GAGSV,3,2,12,03,14,048,,21,43,201,41,23,49,282,,14,59,288,*6D
$GAGSV,3,3,12,26,55,262,48,27,03,167,,07,00,144,,33,07,252,*67
$GBGSV,6,1,21,28,75,314,49,38,11,039,22,60,11,108,,57,14,225,*60
$GBGSV,6,2,21,05,23,128,,50,19,040,,11,13,093,25,08,25,038,31*63
$GBGSV,6,3,21,46,23,296,,37,21,239,39,33,39,134,40,13,33,043,42*6D
$GBGSV,6,4,21,27,30,285,38,58,29,278,,42,35,062,47,43,35,095,38*62
$GBGSV,6,5,21,14,44,097,41,02,08,105,,21,03,025,,41,09,176,*60
$GBGSV,6,6,21,36,02,340,*58
$GPGGA,201447.00,,,,,0,00,,,M,,M,,*4C
$PTNL,GGK,201447.00,010125,4742.4462481,N,01617.9736330,E,1,19,1.5,EHT668.6872,M*47
$GPGGQ,201447.00,010125,4742.4462481,N,01617.9736330,E,1,19,4.377,625.4761,M*3C
$GPGFA,201447.00,21.827,28.923,2.296,1.203,318.632,3.527,,VVV*0A
$GPLLK,201447.00,010125,,M,,M,1,19,1.8,,M*0E
$GNGMP,201447.00,,,,,DAAA,19,0.8,,,,*52
$GPGMP,201447.00,,,,,,05,,,,1.4,123*79
$GLGMP,201447.00,,,,,,03,,,,,*78
$GAGMP,201447.00,,,,,,03,,,,,*75
$GBGMP,201447.00,,,,,,08,,,,,*7D
$PSSN,SNC,[0,332105000,2347]*42
$GPZDA,201452.00,01,01,2025,,*63
$GPDTM,W84,,00.0000000,N,00.0000000,E,00.0000000,W84*5F
$GPRMC,201452.00,A,4742.4462505,N,01617.9736319,E,0.0,,010125,5.1,E,D*1D
$GPGLL,4742.4462505,N,01617.9736319,E,201452.00,A,D*6C
$GPGGA,201452.00,4742.4462505,N,01617.9736319,E,2,20,0.8,625.4853,M,43.2110,M,2.4,0123*43
$GNGNS,201452.00,4742.4462505,N,01617.9736319,E,DAAA,20,0.8,625.4853,43.2110,,*59
$GPGNS,201452.00,,,,,,05,,,,2.4,123*7E
$GLGNS,201452.00,,,,,,04,,,,,*7B
$GAGNS,201452.00,,,,,,03,,,,,*71
$GBGNS,201452.00,,,,,,08,,,,,*79
$GPLLQ,201452.00,010125,,M,,M,1,20,4.216,,M*12
$GPVTG,,T,,M,0.00,N,0.01,K,D*27
$GPHDT,,T*1B
$GPTHS,,V*0E
$GPROT,,V*08
$PSSN,HRP,201452.00,010125,,,,,,,00,0,,*61
$PTNL,AVR,201452.00,,Yaw,,Tilt,,,,0,,00*37
$GPGSA,A,3,10,16,23,26,27,,,,,,,,1.4,0.8,1.2*3A
$GPGSA,A,3,67,73,82,83,,,,,,,,,1.4,0.8,1.2*38
$GPGSA,A,3,13,21,26,,,,,,,,,,1.4,0.8,1.2*39
$GPGSA,A,3,13,14,27,28,33,37,42,43,,,,,1.4,0.8,1.2*31
$GPGST,201452.00,8.845,2.224,1.119,319.252,1.836,1.681,3.402*51
$GPGBS,201452.00,8.115,5.915,13.729,43,0.0001,19.223,8.591*5C
$GPGRS,201452.00,1,0.1,0.8,0.2,-1.4,-0.5,,,,,,,*6B
$GPGRS,201452.00,1,6.2,2.2,-4.4,-11.7,,,,,,,,*7D
$GPGRS,201452.00,1,0.2,-1.0,-0.6,,,,,,,,,*65
$GPGRS,201452.00,1,3.1,-2.8,5.4,-4.3,16.4,9.8,-3.5,19.2,,,,*63
$GPGSV,5,1,17,27,79,299,47,15,13,041,34,26,17,187,37,21,17,262,29*75
$GPGSV,5,2,17,18,23,069,23,08,41,302,32,16,43,205,43,10,62,155,48*7B
$GPGSV,5,3,17,23,53,065,48,13,01,013,,07,05,302,33,30,02,333,26*75
$GPGSV,5,4,17,32,01,148,,36,35,170,41,34,31,208,,49,34,195,36*7E
$GPGSV,5,5,17,61,03,257,*4B
$GLGSV,3,1,10,83,63,027,40,84,30,286,24,68,32,128,,73,31,239,44*66
$GLGSV,3,2,10,82,29,073,38,74,37,294,31,67,39,064,40,69,00,164,*60
$GLGSV,3,3,10,66,10,017,27,75,10,343,28*6B
$GAGSV,3,1,12,13,65,050,39,31,12,324,33,15,14,066,,08,16,099,*6D
$GAGSV,3,2,12,03,14,048,,21,42,201,41,23,49,282,,14,59,288,*6C
$GAGSV,3,3,12,26,55,262,49,27,03,167,,07,00,144,,33,08,252,*69
$GBGSV,6,1,21,28,75,314,49,38,11,039,21,60,11,108,,57,14,225,*63
$GBGSV,6,2,21,05,23,128,,50,19,040,,11,13,094,25,08,25,038,31*64
$GBGSV,6,3,21,46,23,296,,37,21,239,38,33,39,134,40,13,33,043,42*6C
$GBGSV,6,4,21,27,30,285,37,58,29,278,,42,35,062,47,43,35,095,37*62
$GBGSV,6,5,21,14,44,097,41,02,08,105,,21,03,025,,41,09,176,*60
$GBGSV,6,6,21,36,02,340,*58
$GPGGA,201452.00,,,,,0,00,,,M,,M,,*48
$PTNL,GGK,201452.00,010125,4742.4462505,N,01617.9736319,E,1,20,1.4,EHT668.6964,M*48
$GPGGQ,201452.00,010125,4742.4462505,N,01617.9736319,E,1,20,4.216,625.4853,M*3C
$GPGFA,201452.00,21.145,27.898,2.224,1.119,319.252,3.402,,VVV*09
$GPLLK,201452.00,010125,,M,,M,1,20,1.7,,M*0F
$GNGMP,201452.00,,,,,DAAA,20,0.8,,,,*5C
$GPGMP,201452.00,,,,,,05,,,,2.4,123*7E
$GLGMP,201452.00,,,,,,04,,,,,*7B
$GAGMP,201452.00,,,,,,03,,,,,*71
$GBGMP,201452.00,,,,,,08,,,,,*79
$PSSN,SNC,[0,332110000,2347]*46
$GPZDA,201457.00,01,01,2025,,*66
$GPDTM,W84,,00.0000000,N,00.0000000,E,00.0000000,W84*5F
$GPRMC,201457.00,A,4742.4462549,N,01617.9736303,E,0.0,,010125,5.1,E,D*1B
$GPGLL,4742.4462549,N,01617.9736303,E,201457.00,A,D*6A
$GPGGA,201457.00,4742.4462549,N,01617.9736303,E,2,20,0.7,625.4835,M,43.2110,M,2.6,0123*48
$GNGNS,201457.00,4742.4462549,N,01617.9736303,E,DAAA,20,0.7,625.4835,43.2110,,*50
$GPGNS,201457.00,,,,,,05,,,,2.6,123*79
$GLGNS,201457.00,,,,,,05,,,,,*7F
$GAGNS,201457.00,,,,,,03,,,,,*74
$GBGNS,201457.00,,,,,,07,,,,,*73
$GPLLQ,201457.00,010125,,M,,M,1,20,3.642,,M*15
$GPVTG,,T,,M,0.00,N,0.01,K,D*27
$GPHDT,,T*1B
$GPTHS,,V*0E
$GPROT,,V*08
$PSSN,HRP,201457.00,010125,,,,,,,00,0,,*64
$PTNL,AVR,201457.00,,Yaw,,Tilt,,,,0,,00*32
$GPGSA,A,3,10,16,23,26,27,,,,,,,,1.2,0.7,1.0*31
$GPGSA,A,3,67,73,75,82,83,,,,,,,,1.2,0.7,1.0*31
$GPGSA,A,3,13,21,26,,,,,,,,,,1.2,0.7,1.0*32
$GPGSA,A,3,13,14,27,28,33,37,42,,,,,,1.2,0.7,1.0*3D
$GPGST,201457.00,6.593,1.911,1.032,317.631,1.574,1.497,2.924*53
$GPGBS,201457.00,7.000,5.589,11.743,83,0.0001,-11.520,6.065*79
$GPGRS,201457.00,1,0.7,1.0,-0.2,-1.2,-0.8,,,,,,,*47
$GPGRS,201457.00,1,6.3,0.9,-3.0,-3.8,-11.5,,,,,,,*79
$GPGRS,201457.00,1,0.4,-1.0,-0.4,,,,,,,,,*64
$GPGRS,201457.00,1,3.1,-1.3,2.1,-4.5,14.8,9.6,-4.3,,,,,*7F
$GPGSV,5,1,17,27,79,299,47,15,13,041,33,26,17,187,37,21,17,262,28*73
$GPGSV,5,2,17,18,23,069,31,08,41,302,29,16,43,205,43,10,62,155,48*72
$GPGSV,5,3,17,23,53,065,47,13,01,013,,07,05,301,32,30,02,333,25*7B
$GPGSV,5,4,17,32,01,148,,36,35,170,41,34,31,208,,49,34,195,36*7E
$GPGSV,5,5,17,61,03,257,*4B
$GLGSV,3,1,10,83,63,027,39,84,30,286,24,68,32,128,38,73,31,239,44*63
$GLGSV,3,2,10,82,29,073,39,74,37,294,27,67,39,064,41,69,00,164,*67
$GLGSV,3,3,10,66,10,017,26,75,10,343,35*66
$GAGSV,3,1,12,13,65,050,40,31,12,324,31,15,14,066,,08,16,098,*60
$GAGSV,3,2,12,03,14,048,,21,42,201,41,23,49,282,,14,59,288,*6C
$GAGSV,3,3,12,26,55,262,49,27,03,167,,07,00,144,,33,08,252,*69
$GBGSV,6,1,21,28,75,314,49,57,14,225,,38,11,039,,60,11,108,*60
$GBGSV,6,2,21,05,23,128,,50,19,040,,11,13,094,23,08,25,038,31*62
$GBGSV,6,3,21,46,23,296,,37,21,239,36,33,39,134,41,13,33,043,42*63
$GBGSV,6,4,21,27,30,285,36,58,29,278,,42,35,062,47,43,35,095,34*60
$GBGSV,6,5,21,14,44,097,40,02,08,105,,36,02,340,,41,09,176,*66
$GBGSV,6,6,21,21,03,025,*5F
$GPGGA,201457.00,,,,,0,00,,,M,,M,,*4D
$PTNL,GGK,201457.00,010125,4742.4462549,N,01617.9736303,E,1,20,1.2,EHT668.6945,M*4B
$GPGGQ,201457.00,010125,4742.4462549,N,01617.9736303,E,1,20,3.642,625.4835,M*38
$GPGFA,201457.00,18.171,23.975,1.911,1.032,317.631,2.924,,VVV*06
$GPLLK,201457.00,010125,,M,,M,1,20,1.4,,M*09
$GNGMP,201457.00,,,,,DAAA,20,0.7,,,,*56
$GPGMP,201457.00,,,,,,05,,,,2.6,123*79
$GLGMP,201457.00,,,,,,05,,,,,*7F
$GAGMP,201457.00,,,,,,03,,,,,*74
$GBGMP,201457.00,,,,,,07,,,,,*73
$PSSN,SNC,[0,332115000,2347]*43
$GPZDA,201502.00,01,01,2025,,*67
$GPDTM,W84,,00.0000000,N,00.0000000,E,00.0000000,W84*5F
$GPRMC,201502.00,A,4742.4462620,N,01617.9736303,E,0.0,,010125,5.1,E,D*16
$GPGLL,4742.4462620,N,01617.9736303,E,201502.00,A,D*67
$GPGGA,201502.00,4742.4462620,N,01617.9736303,E,2,17,0.8,625.4753,M,43.2110,M,3.6,0123*40
$GNGNS,201502.00,4742.4462620,N,01617.9736303,E,DAAA,17,0.8,625.4753,43.2110,,*59
$GPGNS,201502.00,,,,,,05,,,,3.6,123*79
$GLGNS,201502.00,,,,,,03,,,,,*78
$GAGNS,201502.00,,,,,,03,,,,,*75
$GBGNS,201502.00,,,,,,06,,,,,*73
$GPLLQ,201502.00,010125,,M,,M,1,17,3.775,,M*15
$GPVTG,,T,,M,0.00,N,0.01,K,D*27
$GPHDT,,T*1B
$GPTHS,,V*0E
$GPROT,,V*08
$PSSN,HRP,201502.00,010125,,,,,,,00,0,,*65
$PTNL,AVR,201502.00,,Yaw,,Tilt,,,,0,,00*33
$GPGSA,A,3,10,16,23,26,27,,,,,,,,1.6,0.8,1.4*3E
$GPGSA,A,3,67,73,82,,,,,,,,,,1.6,0.8,1.4*37
$GPGSA,A,3,13,21,26,,,,,,,,,,1.6,0.8,1.4*3D
$GPGSA,A,3,13,14,27,28,33,42,,,,,,,1.6,0.8,1.4*36
$GPGST,201502.00,5.390,1.991,1.050,317.927,1.637,1.545,3.030*57
$GPGBS,201502.00,7.970,5.994,13.425,16,0.0001,1.402,0.726*60
$GPGRS,201502.00,1,0.6,1.4,-0.5,-1.7,-0.7,,,,,,,*4E
$GPGRS,201502.00,1,8.9,0.1,-5.0,,,,,,,,,*4C
$GPGRS,201502.00,1,0.1,-1.0,-0.5,,,,,,,,,*61
$GPGRS,201502.00,1,1.9,-2.8,2.5,-4.5,10.9,-4.7,,,,,,*58
$GPGSV,5,1,17,27,79,299,46,15,13,041,33,26,17,187,37,21,17,262,28*72
$GPGSV,5,2,17,18,23,069,30,08,41,302,31,16,43,204,42,10,62,155,48*7A
$GPGSV,5,3,17,23,53,065,45,13,01,013,,07,05,301,34,30,02,333,28*72
$GPGSV,5,4,17,32,01,148,,36,35,170,41,34,31,208,,49,34,195,36*7E
$GPGSV,5,5,17,61,03,257,*4B
$GLGSV,3,1,10,83,63,027,34,68,32,128,,82,29,073,38,84,30,286,*63
$GLGSV,3,2,10,73,30,239,42,74,37,294,28,67,39,064,43,75,10,343,34*60
$GLGSV,3,3,10,66,10,017,28,69,00,164,*65
$GAGSV,3,1,12,13,65,050,41,31,12,324,29,15,14,066,,08,16,098,*68
$GAGSV,3,2,12,03,14,048,,21,42,201,42,23,49,282,,14,59,288,*6F
$GAGSV,3,3,12,26,55,262,49,27,03,167,,07,00,144,,33,08,252,*69
$GBGSV,6,1,21,28,75,314,48,57,14,225,,38,11,039,18,60,11,108,*68
$GBGSV,6,2,21,05,23,128,,50,18,040,,11,13,094,24,08,25,038,30*65
$GBGSV,6,3,21,46,23,296,,37,21,239,34,33,40,134,39,13,33,043,42*60
$GBGSV,6,4,21,27,30,285,37,58,29,277,,42,35,062,46,43,35,095,33*68
$GBGSV,6,5,21,14,44,097,40,02,08,105,,36,02,340,,41,09,176,*66
$GBGSV,6,6,21,21,03,025,*5F
$GPGGA,201502.00,,,,,0,00,,,M,,M,,*4C
$PTNL,GGK,201502.00,010125,4742.4462620,N,01617.9736303,E,1,17,1.6,EHT668.6864,M*44
$GPGGQ,201502.00,010125,4742.4462620,N,01617.9736303,E,1,17,3.775,625.4753,M*3B
$GPGFA,201502.00,18.931,24.846,1.991,1.050,317.927,3.030,,VVV*04
$GPLLK,201502.00,010125,,M,,M,1,17,1.9,,M*01
$GNGMP,201502.00,,,,,DAAA,17,0.8,,,,*5C
$GPGMP,201502.00,,,,,,05,,,,3.6,123*79
$GLGMP,201502.00,,,,,,03,,,,,*78
$GAGMP,201502.00,,,,,,03,,,,,*75
$GBGMP,201502.00,,,,,,06,,,,,*73
$PSSN,SNC,[0,332120000,2347]*45
$GPZDA,201507.00,01,01,2025,,*62
$GPDTM,W84,,00.0000000,N,00.0000000,E,00.0000000,W84*5F
$GPRMC,201507.00,A,4742.4462691,N,01617.9736352,E,0.0,,010125,5.1,E,D*1D
$GPGLL,4742.4462691,N,01617.9736352,E,201507.00,A,D*6C
$GPGGA,201507.00,4742.4462691,N,01617.9736352,E,2,19,0.7,625.4687,M,43.2110,M,1.7,0123*41
$GNGNS,201507.00,4742.4462691,N,01617.9736352,E,DAAA,19,0.7,625.4687,43.2110,,*5B
$GPGNS,201507.00,,,,,,06,,,,1.7,123*7C
$GLGNS,201507.00,,,,,,04,,,,,*7A
$GAGNS,201507.00,,,,,,03,,,,,*70
$GBGNS,201507.00,,,,,,06,,,,,*76
$GPLLQ,201507.00,010125,,M,,M,1,19,2.357,,M*1B
$GPVTG,,T,,M,0.01,N,0.02,K,D*25
$GPHDT,,T*1B
$GPTHS,,V*0E
$GPROT,,V*08
$PSSN,HRP,201507.00,010125,,,,,,,00,0,,*60
$PTNL,AVR,201507.00,,Yaw,,Tilt,,,,0,,00*36
$GPGSA,A,3,07,10,16,23,26,27,,,,,,,1.2,0.7,1.0*36
$GPGSA,A,3,67,73,82,83,,,,,,,,,1.2,0.7,1.0*33
$GPGSA,A,3,13,21,26,,,,,,,,,,1.2,0.7,1.0*32
$GPGSA,A,3,13,14,27,28,33,42,,,,,,,1.2,0.7,1.0*39
$GPGST,201507.00,5.260,1.205,0.919,277.777,0.925,1.201,1.804*54
$GPGBS,201507.00,3.166,4.841,6.271,83,0.0001,-11.981,6.064*44
$GPGRS,201507.00,1,1.3,0.8,0.9,-0.4,-1.7,-0.6,,,,,,*65
$GPGRS,201507.00,1,6.1,-0.4,-5.5,-12.0,,,,,,,,*52
$GPGRS,201507.00,1,-0.7,-0.8,-0.4,,,,,,,,,*47
$GPGRS,201507.00,1,0.8,-4.3,3.7,-3.9,6.6,-4.6,,,,,,*61
$GPGSV,5,1,17,27,79,299,45,15,13,041,29,26,17,187,36,21,17,262,30*72
$GPGSV,5,2,17,18,23,069,34,08,41,302,34,16,43,204,41,10,62,155,49*79
$GPGSV,5,3,17,23,53,065,45,13,01,013,,07,05,301,35,30,02,333,25*7E
$GPGSV,5,4,17,32,01,148,,36,35,170,41,34,31,208,,49,34,195,35*7D
$GPGSV,5,5,17,61,03,257,*4B
$GLGSV,3,1,10,83,63,028,40,68,32,128,28,82,29,073,38,84,30,286,28*6F
$GLGSV,3,2,10,73,30,239,41,74,37,294,,67,39,064,44,75,10,343,33*69
$GLGSV,3,3,10,66,10,017,28,69,00,164,*65
$GAGSV,3,1,12,13,65,050,42,31,12,324,29,15,14,066,,08,16,098,*6B
$GAGSV,3,2,12,03,14,048,,21,42,201,42,23,49,282,,14,59,288,*6F
$GAGSV,3,3,12,26,55,262,49,27,03,167,,07,00,144,,33,08,252,*69
$GBGSV,6,1,21,28,75,314,49,57,14,225,,38,11,039,,60,11,108,*60
$GBGSV,6,2,21,05,23,128,,50,18,040,,11,13,094,26,08,25,038,30*67
$GBGSV,6,3,21,46,23,296,,37,21,239,29,33,40,134,37,13,33,043,41*61
$GBGSV,6,4,21,27,30,285,37,58,29,277,,42,35,062,46,43,35,095,33*68
$GBGSV,6,5,21,14,44,097,39,02,08,105,,36,02,340,,41,09,176,*68
$GBGSV,6,6,21,21,03,025,*5F
$GPGGA,201507.00,,,,,0,00,,,M,,M,,*49
$PTNL,GGK,201507.00,010125,4742.4462691,N,01617.9736352,E,1,19,1.2,EHT668.6797,M*46
$GPGGQ,201507.00,010125,4742.4462691,N,01617.9736352,E,1,19,2.357,625.4687,M*33
$GPGFA,201507.00,11.461,14.796,1.205,0.919,277.777,1.804,,VVV*03
$GPLLK,201507.00,010125,,M,,M,1,19,1.4,,M*07
$GNGMP,201507.00,,,,,DAAA,19,0.7,,,,*58
$GPGMP,201507.00,,,,,,06,,,,1.7,123*7C
$GLGMP,201507.00,,,,,,04,,,,,*7A
$GAGMP,201507.00,,,,,,03,,,,,*70
$GBGMP,201507.00,,,,,,06,,,,,*76
$PSSN,SNC,[0,332125000,2347]*40
$GPZDA,201512.00,01,01,2025,,*66
$GPDTM,W84,,00.0000000,N,00.0000000,E,00.0000000,W84*5F
$GPRMC,201512.00,A,4742.4462714,N,01617.9736362,E,0.0,,010125,5.1,E,D*16
$GPGLL,4742.4462714,N,01617.9736362,E,201512.00,A,D*67
$GPGGA,201512.00,4742.4462714,N,01617.9736362,E,2,17,0.8,625.4645,M,43.2110,M,2.5,0123*44
$GNGNS,201512.00,4742.4462714,N,01617.9736362,E,DAAA,17,0.8,625.4645,43.2110,,*5F
$GPGNS,201512.00,,,,,,04,,,,2.5,123*7B
$GLGNS,201512.00,,,,,,04,,,,,*7E
$GAGNS,201512.00,,,,,,03,,,,,*74
$GBGNS,201512.00,,,,,,06,,,,,*72
$GPLLQ,201512.00,010125,,M,,M,1,17,4.961,,M*18
$GPVTG,,T,,M,0.00,N,0.01,K,D*27
$GPHDT,,T*1B
$GPTHS,,V*0E
$GPROT,,V*08
$PSSN,HRP,201512.00,010125,,,,,,,00,0,,*64
$PTNL,AVR,201512.00,,Yaw,,Tilt,,,,0,,00*32
$GPGSA,A,3,10,16,23,27,,,,,,,,,1.7,0.8,1.5*3A
$GPGSA,A,3,67,73,82,83,,,,,,,,,1.7,0.8,1.5*3C
$GPGSA,A,3,13,21,26,,,,,,,,,,1.7,0.8,1.5*3D
$GPGSA,A,3,13,14,27,28,33,42,,,,,,,1.7,0.8,1.5*36
$GPGST,201512.00,3.869,1.881,0.910,317.600,1.518,1.435,4.500*52
$GPGBS,201512.00,8.642,6.511,18.667,10,0.0001,1.211,0.668*64
$GPGRS,201512.00,1,1.2,0.9,-0.1,-1.0,,,,,,,,*41
$GPGRS,201512.00,1,4.0,0.4,-5.9,-4.7,,,,,,,,*44
$GPGRS,201512.00,1,-0.9,-0.3,-0.6,,,,,,,,,*44
$GPGRS,201512.00,1,0.0,-5.1,2.6,-3.5,3.3,-4.1,,,,,,*65
$GPGSV,5,1,17,27,79,299,44,15,13,041,29,26,17,187,35,21,17,262,33*73
$GPGSV,5,2,17,18,23,069,35,08,41,302,34,16,43,204,41,10,62,155,51*71
$GPGSV,5,3,17,23,53,065,44,13,01,013,,07,05,301,34,30,02,333,27*7C
$GPGSV,5,4,17,32,01,148,,36,35,170,41,34,31,208,,49,34,195,36*7E
$GPGSV,5,5,17,61,03,257,*4B
$GLGSV,3,1,10,83,63,028,35,68,32,128,30,82,29,073,37,84,31,286,31*62
$GLGSV,3,2,10,73,30,239,40,74,37,294,,67,39,064,46,75,10,343,32*6B
$GLGSV,3,3,10,66,10,017,28,69,00,164,*65
$GAGSV,3,1,12,13,65,050,42,31,12,324,30,15,13,066,,08,16,098,*64
$GAGSV,3,2,12,03,14,048,,21,42,201,41,23,49,282,,14,59,288,*6C
$GAGSV,3,3,12,26,55,262,49,27,03,167,,07,00,144,,33,08,252,*69
$GBGSV,6,1,21,28,76,314,49,57,14,225,,38,11,039,,60,11,108,*63
$GBGSV,6,2,21,05,23,128,,50,18,040,,11,13,094,,08,25,038,30*63
$GBGSV,6,3,21,46,23,296,,37,21,239,31,33,40,134,37,13,33,043,41*68
$GBGSV,6,4,21,27,30,285,37,58,29,277,,42,35,062,44,43,35,095,34*6D
$GBGSV,6,5,21,14,44,097,38,02,08,105,,36,02,340,,41,09,176,*69
$GBGSV,6,6,21,21,03,025,*5F
$GPGGA,201512.00,,,,,0,00,,,M,,M,,*4D
$PTNL,GGK,201512.00,010125,4742.4462714,N,01617.9736362,E,1,17,1.7,EHT668.6756,M*4B
$GPGGQ,201512.00,010125,4742.4462714,N,01617.9736362,E,1,17,4.961,625.4645,M*31
$GPGFA,201512.00,17.881,36.899,1.881,0.910,317.600,4.500,,VVV*06
$GPLLK,201512.00,010125,,M,,M,1,17,2.0,,M*0A
$GNGMP,201512.00,,,,,DAAA,17,0.8,,,,*5D
$GPGMP,201512.00,,,,,,04,,,,2.5,123*7B
$GLGMP,201512.00,,,,,,04,,,,,*7E
$GAGMP,201512.00,,,,,,03,,,,,*74
$GBGMP,201512.00,,,,,,06,,,,,*72
$PSSN,SNC,[0,332130000,2347]*44
$GPZDA,201517.00,01,01,2025,,*63
$GPDTM,W84,,00.0000000,N,00.0000000,E,00.0000000,W84*5F
$GPRMC,201517.00,A,4742.4462766,N,01617.9736235,E,0.0,,010125,5.1,E,D*15
$GPGLL,4742.4462766,N,01617.9736235,E,201517.00,A,D*64
$GPGGA,201517.00,4742.4462766,N,01617.9736235,E,2,19,0.8,625.4878,M,43.2110,M,2.6,0123*4A
$GNGNS,201517.00,4742.4462766,N,01617.9736235,E,DAAA,19,0.8,625.4878,43.2110,,*52
$GPGNS,201517.00,,,,,,05,,,,2.6,123*7C
$GLGNS,201517.00,,,,,,04,,,,,*7B
$GAGNS,201517.00,,,,,,03,,,,,*71
$GBGNS,201517.00,,,,,,07,,,,,*76
$GPLLQ,201517.00,010125,,M,,M,1,19,4.031,,M*1F
$GPVTG,,T,,M,0.00,N,0.01,K,D*27
$GPHDT,,T*1B
$GPTHS,,V*0E
$GPROT,,V*08
$PSSN,HRP,201517.00,010125,,,,,,,00,0,,*61
$PTNL,AVR,201517.00,,Yaw,,Tilt,,,,0,,00*37
$GPGSA,A,3,10,16,18,23,27,,,,,,,,1.6,0.8,1.4*33
$GPGSA,A,3,67,68,73,82,,,,,,,,,1.6,0.8,1.4*39
$GPGSA,A,3,13,21,26,,,,,,,,,,1.6,0.8,1.4*3D
$GPGSA,A,3,13,14,27,28,33,42,43,,,,,,1.6,0.8,1.4*31
$GPGST,201517.00,4.430,2.191,0.959,311.959,1.629,1.751,3.246*51
$GPGBS,201517.00,6.319,6.047,10.951,18,0.0001,3.638,1.069*63
$GPGRS,201517.00,1,0.6,-0.1,3.6,-0.7,-1.2,,,,,,,*4B
$GPGRS,201517.00,1,4.4,-5.0,0.3,-6.9,,,,,,,,*47
$GPGRS,201517.00,1,-0.9,0.0,-0.9,,,,,,,,,*60
$GPGRS,201517.00,1,-0.4,-6.9,-4.0,-3.9,1.5,-3.9,-5.5,,,,,*6B
$GPGSV,5,1,17,27,79,299,44,15,13,041,30,26,17,187,32,21,17,262,33*7C
$GPGSV,5,2,17,18,23,069,36,08,41,302,34,16,43,204,40,10,62,155,52*70
$GPGSV,5,3,17,23,53,065,42,13,01,013,,07,05,301,32,30,02,332,28*72
$GPGSV,5,4,17,32,01,148,,36,35,170,41,34,31,208,,49,34,195,36*7E
$GPGSV,5,5,17,61,03,257,*4B
$GLGSV,3,1,10,83,63,028,34,68,32,128,43,75,10,343,31,82,29,073,38*6D
$GLGSV,3,2,10,73,30,239,41,84,31,286,30,74,37,294,,67,39,064,46*6D
$GLGSV,3,3,10,66,10,017,25,69,00,164,*68
$GAGSV,3,1,12,13,65,050,43,31,12,324,32,15,13,066,,08,16,098,*67
$GAGSV,3,2,12,03,14,048,,21,42,201,42,23,49,282,,14,59,288,*6F
$GAGSV,3,3,12,26,55,262,49,27,03,167,,07,00,144,,33,08,252,*69
$GBGSV,6,1,21,28,76,314,49,57,14,225,,38,11,039,,60,11,108,*63
$GBGSV,6,2,21,05,23,128,,50,18,040,,11,13,094,19,08,25,038,29*63
$GBGSV,6,3,21,46,23,296,,37,21,238,23,33,40,134,36,13,33,043,39*64
$GBGSV,6,4,21,27,30,285,37,58,29,277,,42,35,062,42,43,35,095,40*68
$GBGSV,6,5,21,14,44,097,36,02,08,105,,36,02,340,,41,09,176,*67
$GBGSV,6,6,21,21,03,025,*5F
$GPGGA,201517.00,,,,,0,00,,,M,,M,,*48
$PTNL,GGK,201517.00,010125,4742.4462766,N,01617.9736235,E,1,19,1.6,EHT668.6989,M*4B
$GPGGQ,201517.00,010125,4742.4462766,N,01617.9736235,E,1,19,4.031,625.4878,M*30
$GPGFA,201517.00,20.828,26.615,2.191,0.959,311.959,3.246,,VVV*0E
$GPLLK,201517.00,010125,,M,,M,1,19,1.9,,M*0B
$GNGMP,201517.00,,,,,DAAA,19,0.8,,,,*56
$GPGMP,201517.00,,,,,,05,,,,2.6,123*7C
$GLGMP,201517.00,,,,,,04,,,,,*7B
$GAGMP,201517.00,,,,,,03,,,,,*71
$GBGMP,201517.00,,,,,,07,,,,,*76
$PSSN,SNC,[0,332135000,2347]*41
$GPZDA,201522.00,01,01,2025,,*65
$GPDTM,W84,,00.0000000,N,00.0000000,E,00.0000000,W84*5F
$GPRMC,201522.00,A,4742.4462746,N,01617.9736066,E,0.0,,010125,5.1,E,D*15
$GPGLL,4742.4462746,N,01617.9736066,E,201522.00,A,D*64
$GPGGA,201522.00,4742.4462746,N,01617.9736066,E,2,18,0.8,625.5100,M,43.2110,M,3.6,0123*4D
$GNGNS,201522.00,4742.4462746,N,01617.9736066,E,DAAA,18,0.8,625.5100,43.2110,,*54
$GPGNS,201522.00,,,,,,05,,,,3.6,123*7B
$GLGNS,201522.00,,,,,,04,,,,,*7D
$GAGNS,201522.00,,,,,,03,,,,,*77
$GBGNS,201522.00,,,,,,06,,,,,*71
$GPLLQ,201522.00,010125,,M,,M,1,18,4.038,,M*11
$GPVTG,,T,,M,0.00,N,0.01,K,D*27
$GPHDT,,T*1B
$GPTHS,,V*0E
$GPROT,,V*08
$PSSN,HRP,201522.00,010125,,,,,,,00,0,,*67
$PTNL,AVR,201522.00,,Yaw,,Tilt,,,,0,,00*31
$GPGSA,A,3,10,16,18,23,27,,,,,,,,1.6,0.8,1.4*33
$GPGSA,A,3,67,68,73,82,,,,,,,,,1.6,0.8,1.4*39
$GPGSA,A,3,13,21,26,,,,,,,,,,1.6,0.8,1.4*3D
$GPGSA,A,3,13,14,27,28,42,43,,,,,,,1.6,0.8,1.4*31
$GPGST,201522.00,4.365,2.195,0.979,311.789,1.635,1.762,3.245*5B
$GPGBS,201522.00,6.519,6.236,11.117,18,0.0001,3.713,1.080*63
$GPGRS,201522.00,1,0.6,0.0,3.7,-1.3,-0.6,,,,,,,*60
$GPGRS,201522.00,1,4.5,-1.6,0.2,-5.5,,,,,,,,*4C
$GPGRS,201522.00,1,-0.7,0.2,-1.1,,,,,,,,,*63
$GPGRS,201522.00,1,-2.1,-7.4,-6.7,-3.7,-3.1,3.4,,,,,,*65
$GPGSV,5,1,17,27,79,299,44,15,13,041,29,26,17,187,30,21,17,262,34*71
$GPGSV,5,2,17,18,23,069,37,08,41,302,32,16,43,204,37,10,63,155,52*76
$GPGSV,5,3,17,23,53,065,41,13,01,013,,07,05,301,31,30,02,332,24*7E
$GPGSV,5,4,17,32,01,148,,36,35,170,41,34,31,208,,49,34,195,36*7E
$GPGSV,5,5,17,61,03,257,*4B
$GLGSV,3,1,10,83,63,028,32,68,32,128,41,75,10,343,29,82,29,073,40*6F
$GLGSV,3,2,10,73,30,239,42,84,31,286,31,74,37,294,,67,39,064,46*6F
$GLGSV,3,3,10,66,10,017,33,69,00,164,*6F
$GAGSV,3,1,12,13,65,050,43,31,12,324,32,15,13,066,,08,16,098,*67
$GAGSV,3,2,12,03,14,048,,21,42,201,43,23,49,282,,14,59,288,*6E
$GAGSV,3,3,12,26,55,262,48,27,03,167,,07,00,144,,33,08,252,*68
$GBGSV,6,1,21,28,76,315,49,57,14,225,,38,11,039,,60,11,108,*62
$GBGSV,6,2,21,05,23,128,,50,18,040,,11,13,094,19,08,25,038,28*62
$GBGSV,6,3,21,46,23,296,,37,21,238,22,33,40,134,33,13,33,043,39*60
$GBGSV,6,4,21,27,30,285,36,58,29,277,,42,35,062,42,43,35,095,42*6B
$GBGSV,6,5,21,14,44,097,37,02,08,105,,36,02,340,,41,09,176,*66
$GBGSV,6,6,21,21,03,025,*5F
$GPGGA,201522.00,,,,,0,00,,,M,,M,,*4E
$PTNL,GGK,201522.00,010125,4742.4462746,N,01617.9736066,E,1,18,1.6,EHT668.7210,M*40
$GPGGQ,201522.00,010125,4742.4462746,N,01617.9736066,E,1,18,4.038,625.5100,M*3F
$GPGFA,201522.00,20.867,26.607,2.195,0.979,311.789,3.245,,VVV*06
$GPLLK,201522.00,010125,,M,,M,1,18,1.9,,M*0C
$GNGMP,201522.00,,,,,DAAA,18,0.8,,,,*51
$GPGMP,201522.00,,,,,,05,,,,3.6,123*7B
$GLGMP,201522.00,,,,,,04,,,,,*7D
$GAGMP,201522.00,,,,,,03,,,,,*77
$GBGMP,201522.00,,,,,,06,,,,,*71
$PSSN,SNC,[0,332140000,2347]*43
$GPZDA,201527.00,01,01,2025,,*60
$GPDTM,W84,,00.0000000,N,00.0000000,E,00.0000000,W84*5F
$GPRMC,201527.00,A,4742.4462833,N,01617.9736069,E,0.0,,010125,5.1,E,D*12
$GPGLL,4742.4462833,N,01617.9736069,E,201527.00,A,D*63
$GPGGA,201527.00,4742.4462833,N,01617.9736069,E,2,17,0.8,625.5145,M,43.2110,M,1.5,0123*45
$GNGNS,201527.00,4742.4462833,N,01617.9736069,E,DAAA,17,0.8,625.5145,43.2110,,*5D
$GPGNS,201527.00,,,,,,04,,,,1.5,123*7E
$GLGNS,201527.00,,,,,,04,,,,,*78
$GAGNS,201527.00,,,,,,03,,,,,*72
$GBGNS,201527.00,,,,,,06,,,,,*74
$GPLLQ,201527.00,010125,,M,,M,1,17,3.184,,M*1A
$GPVTG,,T,,M,0.01,N,0.01,K,D*26
$GPHDT,,T*1B
$GPTHS,,V*0E
$GPROT,,V*08
$PSSN,HRP,201527.00,010125,,,,,,,00,0,,*62
$PTNL,AVR,201527.00,,Yaw,,Tilt,,,,0,,00*34
$GPGSA,A,3,10,16,23,27,,,,,,,,,1.7,0.8,1.5*3A
$GPGSA,A,3,67,68,73,82,,,,,,,,,1.7,0.8,1.5*39
$GPGSA,A,3,13,21,26,,,,,,,,,,1.7,0.8,1.5*3D
$GPGSA,A,3,13,14,27,28,42,43,,,,,,,1.7,0.8,1.5*31
$GPGST,201527.00,3.808,1.246,0.636,317.828,1.017,0.960,2.861*57
$GPGBS,201527.00,8.403,6.322,18.253,23,0.0001,-0.731,0.668*4B
$GPGRS,201527.00,1,0.6,0.4,-0.7,-0.2,,,,,,,,*4A
$GPGRS,201527.00,1,2.6,1.0,0.8,-3.4,,,,,,,,*6A
$GPGRS,201527.00,1,-0.4,0.4,-1.1,,,,,,,,,*63
$GPGRS,201527.00,1,-3.7,-4.8,-3.8,-2.8,-2.8,7.4,,,,,,*60
$GPGSV,5,1,17,27,79,299,44,15,13,041,28,26,17,187,28,21,17,262,33*7E
$GPGSV,5,2,17,18,23,069,37,08,41,302,32,16,43,204,36,10,63,155,52*77
$GPGSV,5,3,17,23,53,065,42,13,01,013,,07,05,301,31,30,02,332,23*7A
$GPGSV,5,4,17,32,01,148,,36,35,170,41,34,31,208,,49,34,195,36*7E
$GPGSV,5,5,17,61,03,257,*4B
$GLGSV,3,1,10,83,63,028,31,68,32,128,38,75,10,343,30,82,29,073,41*6B
$GLGSV,3,2,10,73,30,239,42,84,31,286,,74,37,294,27,67,39,064,45*6B
$GLGSV,3,3,10,66,10,017,33,69,00,164,*6F
$GAGSV,3,1,12,13,65,050,44,31,12,324,33,15,13,066,,08,16,098,*61
$GAGSV,3,2,12,03,14,048,,21,42,201,43,23,49,282,,14,59,288,*6E
$GAGSV,3,3,12,26,55,262,48,27,03,167,,07,00,144,,33,08,252,*68
$GBGSV,6,1,21,28,76,315,49,57,14,225,,38,11,039,,60,11,108,*62
$GBGSV,6,2,21,05,23,128,,50,18,040,,11,13,094,20,08,25,038,28*68
$GBGSV,6,3,21,46,23,295,,37,21,238,23,33,40,134,32,13,33,043,38*62
$GBGSV,6,4,21,27,30,285,37,58,29,277,,42,35,062,41,43,35,095,42*69
$GBGSV,6,5,21,14,44,097,39,02,08,105,,36,02,340,,41,09,176,*68
$GBGSV,6,6,21,21,03,025,*5F
$GPGGA,201527.00,,,,,0,00,,,M,,M,,*4B
$PTNL,GGK,201527.00,010125,4742.4462833,N,01617.9736069,E,1,17,1.7,EHT668.7256,M*4B
$GPGGQ,201527.00,010125,4742.4462833,N,01617.9736069,E,1,17,3.184,625.5145,M*37
$GPGFA,201527.00,11.843,23.457,1.246,0.636,317.828,2.861,,VVV*00
$GPLLK,201527.00,010125,,M,,M,1,17,2.0,,M*0C
$GNGMP,201527.00,,,,,DAAA,17,0.8,,,,*5B
$GPGMP,201527.00,,,,,,04,,,,1.5,123*7E
$GLGMP,201527.00,,,,,,04,,,,,*78
$GAGMP,201527.00,,,,,,03,,,,,*72
$GBGMP,201527.00,,,,,,06,,,,,*74
$PSSN,SNC,[0,332145000,2347]*46
$GPZDA,201532.00,01,01,2025,,*64
$GPDTM,W84,,00.0000000,N,00.0000000,E,00.0000000,W84*5F
$GPRMC,201532.00,A,4742.4462874,N,01617.9736044,E,0.0,,010125,5.1,E,D*1A
$GPGLL,4742.4462874,N,01617.9736044,E,201532.00,A,D*6B
$GPGGA,201532.00,4742.4462874,N,01617.9736044,E,2,15,1.0,625.5131,M,43.2111,M,2.7,0123*45
$GNGNS,201532.00,4742.4462874,N,01617.9736044,E,DAAA,15,1.0,625.5131,43.2111,,*5C
$GPGNS,201532.00,,,,,,03,,,,2.7,123*7C
$GLGNS,201532.00,,,,,,03,,,,,*7B
$GAGNS,201532.00,,,,,,03,,,,,*76
$GBGNS,201532.00,,,,,,06,,,,,*70
$GPLLQ,201532.00,010125,,M,,M,1,15,7.594,,M*1D
$GPVTG,,T,,M,0.01,N,0.01,K,D*26
$GPHDT,,T*1B
$GPTHS,,V*0E
$GPROT,,V*08
$PSSN,HRP,201532.00,010125,,,,,,,00,0,,*66
$PTNL,AVR,201532.00,,Yaw,,Tilt,,,,0,,00*30
$GPGSA,A,3,10,23,27,,,,,,,,,,1.8,1.0,1.5*3B
$GPGSA,A,3,67,73,82,,,,,,,,,,1.8,1.0,1.5*31
$GPGSA,A,3,13,21,26,,,,,,,,,,1.8,1.0,1.5*3B
$GPGSA,A,3,13,14,27,28,42,43,,,,,,,1.8,1.0,1.5*37
$GPGST,201532.00,3.566,1.864,0.932,275.714,0.946,1.857,7.303*50
$GPGBS,201532.00,9.177,20.843,85.315,27,0.0001,-0.631,0.591*77
$GPGRS,201532.00,1,0.5,0.3,-0.6,,,,,,,,,*4A
$GPGRS,201532.00,1,1.5,0.0,-2.0,,,,,,,,,*4C
$GPGRS,201532.00,1,-0.3,0.0,-0.6,,,,,,,,,*62
$GPGRS,201532.00,1,-5.5,0.3,-1.6,-2.0,-3.0,7.0,,,,,,*4B
$GPGSV,5,1,17,27,79,299,45,15,13,041,19,26,17,187,25,21,17,262,33*70
$GPGSV,5,2,17,18,23,069,36,08,42,302,35,16,43,204,31,10,63,155,53*74
$GPGSV,5,3,17,23,53,065,43,13,01,013,,07,05,301,31,30,02,332,25*7D
$GPGSV,5,4,17,32,01,148,,36,35,170,41,34,31,208,,49,34,195,36*7E
$GPGSV,5,5,17,61,03,257,*4B
$GLGSV,3,1,10,83,63,028,31,68,32,128,32,75,10,343,32,82,29,073,42*60
$GLGSV,3,2,10,73,30,239,41,84,31,286,31,74,37,294,,67,39,064,46*6C
$GLGSV,3,3,10,66,10,017,31,69,01,164,*6C
$GAGSV,3,1,12,13,65,051,44,31,12,324,33,15,13,066,,08,16,098,*60
$GAGSV,3,2,12,03,14,048,,21,42,201,43,23,49,282,,14,59,288,*6E
$GAGSV,3,3,12,26,55,262,48,27,03,167,,07,00,144,,33,08,252,*68
$GBGSV,6,1,21,28,76,315,49,57,14,225,,38,11,039,,60,11,108,*62
$GBGSV,6,2,21,05,23,128,,50,18,040,,11,13,094,23,08,25,038,29*6A
$GBGSV,6,3,21,46,23,295,,37,21,238,22,33,40,134,29,13,33,043,38*69
$GBGSV,6,4,21,27,31,285,37,58,29,277,,42,35,062,40,43,35,095,42*69
$GBGSV,6,5,21,14,44,096,41,02,08,105,,36,02,340,,41,09,176,*66
$GBGSV,6,6,21,21,03,025,*5F
$GPGGA,201532.00,,,,,0,00,,,M,,M,,*4F
$PTNL,GGK,201532.00,010125,4742.4462874,N,01617.9736044,E,1,15,1.8,EHT668.7241,M*48
$GPGGQ,201532.00,010125,4742.4462874,N,01617.9736044,E,1,15,7.594,625.5131,M*3F
$GPGFA,201532.00,17.721,59.881,1.864,0.932,275.714,7.303,,VVV*0D
$GPLLK,201532.00,010125,,M,,M,1,15,2.1,,M*0B
$GNGMP,201532.00,,,,,DAAA,15,1.0,,,,*54
$GPGMP,201532.00,,,,,,03,,,,2.7,123*7C
$GLGMP,201532.00,,,,,,03,,,,,*7B
$GAGMP,201532.00,,,,,,03,,,,,*76
$GBGMP,201532.00,,,,,,06,,,,,*70
$PSSN,SNC,[0,332150000,2347]*42
$GPZDA,201537.00,01,01,2025,,*61
$GPDTM,W84,,00.0000000,N,00.0000000,E,00.0000000,W84*5F
$GPRMC,201537.00,A,4742.4462866,N,01617.9735999,E,0.0,,010125,5.1,E,D*16
$GPGLL,4742.4462866,N,01617.9735999,E,201537.00,A,D*67
$GPGGA,201537.00,4742.4462866,N,01617.9735999,E,2,16,0.9,625.5258,M,43.2111,M,2.0,0123*49
$GNGNS,201537.00,4742.4462866,N,01617.9735999,E,DAAA,16,0.9,625.5258,43.2111,,*57
$GPGNS,201537.00,,,,,,04,,,,2.0,123*79
$GLGNS,201537.00,,,,,,03,,,,,*7E
$GAGNS,201537.00,,,,,,03,,,,,*73
$GBGNS,201537.00,,,,,,06,,,,,*75
$GPLLQ,201537.00,010125,,M,,M,1,16,3.166,,M*16
$GPVTG,,T,,M,0.00,N,0.01,K,D*27
$GPHDT,,T*1B
$GPTHS,,V*0E
$GPROT,,V*08
$PSSN,HRP,201537.00,010125,,,,,,,00,0,,*63
$PTNL,AVR,201537.00,,Yaw,,Tilt,,,,0,,00*35
$GPGSA,A,3,08,10,23,27,,,,,,,,,1.8,0.9,1.5*3B
$GPGSA,A,3,67,73,82,,,,,,,,,,1.8,0.9,1.5*39
$GPGSA,A,3,13,21,26,,,,,,,,,,1.8,0.9,1.5*33
$GPGSA,A,3,13,14,27,28,42,43,,,,,,,1.8,0.9,1.5*3F
$GPGST,201537.00,3.681,1.136,0.684,12.660,1.118,0.712,2.875*60
$GPGBS,201537.00,8.233,5.379,22.424,27,0.0001,-1.009,0.614*4F
$GPGRS,201537.00,1,-0.0,0.4,0.7,-1.0,,,,,,,,*4E
$GPGRS,201537.00,1,2.1,-2.2,-2.4,,,,,,,,,*67
$GPGRS,201537.00,1,-0.7,-0.2,-0.9,,,,,,,,,*43
$GPGRS,201537.00,1,-5.1,4.8,-0.9,-1.8,-2.9,6.5,,,,,,*4C
$GPGSV,5,1,17,27,79,299,45,15,13,041,21,26,17,187,27,21,17,262,34*7E
$GPGSV,5,2,17,18,23,069,34,08,42,302,37,16,43,204,25,10,63,155,53*71
$GPGSV,5,3,17,23,53,065,43,13,01,013,,07,05,301,30,30,02,332,23*7A
$GPGSV,5,4,17,32,01,148,,36,35,170,41,34,31,208,,49,34,195,36*7E
$GPGSV,5,5,17,61,03,257,*4B
$GLGSV,3,1,10,83,63,028,30,68,32,127,31,75,10,343,33,82,29,073,42*6C
$GLGSV,3,2,10,73,30,239,41,84,31,286,34,74,37,294,,67,39,064,44*6B
$GLGSV,3,3,10,66,10,016,35,69,01,164,*69
$GAGSV,3,1,12,13,65,051,44,31,12,324,33,15,13,066,,08,16,098,*60
$GAGSV,3,2,12,03,14,048,,21,42,201,43,23,49,282,,14,59,288,*6E
$GAGSV,3,3,12,26,55,262,48,27,02,167,,07,00,144,,33,08,252,*69
$GBGSV,6,1,21,28,76,315,48,57,14,225,,38,11,039,,60,11,108,*63
$GBGSV,6,2,21,05,23,128,,50,18,040,,11,13,094,20,08,25,038,29*69
$GBGSV,6,3,21,46,23,295,,37,21,238,32,33,40,134,30,13,33,043,37*6F
$GBGSV,6,4,21,27,31,285,37,58,29,277,,42,35,062,41,43,35,095,42*68
$GBGSV,6,5,21,14,44,096,43,02,08,105,,36,02,340,,41,09,176,*64
$GBGSV,6,6,21,21,03,025,*5F
$GPGGA,201537.00,,,,,0,00,,,M,,M,,*4A
$PTNL,GGK,201537.00,010125,4742.4462866,N,01617.9735999,E,1,16,1.8,EHT668.7368,M*4D
$GPGGQ,201537.00,010125,4742.4462866,N,01617.9735999,E,1,16,3.166,625.5258,M*31
$GPGFA,201537.00,10.797,23.572,1.136,0.684,12.660,2.875,,VVV*3C
$GPLLK,201537.00,010125,,M,,M,1,16,2.1,,M*0D
$GNGMP,201537.00,,,,,DAAA,16,0.9,,,,*5A
$GPGMP,201537.00,,,,,,04,,,,2.0,123*79
$GLGMP,201537.00,,,,,,03,,,,,*7E
$GAGMP,201537.00,,,,,,03,,,,,*73
$GBGMP,201537.00,,,,,,06,,,,,*75
$PSSN,SNC,[0,332155000,2347]*47
$GPZDA,201542.00,01,01,2025,,*63
$GPDTM,W84,,00.0000000,N,00.0000000,E,00.0000000,W84*5F
$GPRMC,201542.00,A,4742.4462921,N,01617.9735827,E,0.0,,010125,5.1,E,D*12
$GPGLL,4742.4462921,N,01617.9735827,E,201542.00,A,D*63
$GPGGA,201542.00,4742.4462921,N,01617.9735827,E,2,17,0.9,625.5313,M,43.2110,M,1.5,0123*45
$GNGNS,201542.00,4742.4462921,N,01617.9735827,E,DAAA,17,0.9,625.5313,43.2110,,*5D
$GPGNS,201542.00,,,,,,04,,,,1.5,123*7D
$GLGNS,201542.00,,,,,,04,,,,,*7B
$GAGNS,201542.00,,,,,,03,,,,,*71
$GBGNS,201542.00,,,,,,06,,,,,*77
$GPLLQ,201542.00,010125,,M,,M,1,17,4.641,,M*10
$GPVTG,,T,,M,0.00,N,0.00,K,D*26
$GPHDT,,T*1B
$GPTHS,,V*0E
$GPROT,,V*08
$PSSN,HRP,201542.00,010125,,,,,,,00,0,,*61
$PTNL,AVR,201542.00,,Yaw,,Tilt,,,,0,,00*37
$GPGSA,A,3,08,10,23,27,,,,,,,,,1.7,0.9,1.5*34
$GPGSA,A,3,67,73,74,82,,,,,,,,,1.7,0.9,1.5*35
$GPGSA,A,3,13,21,26,,,,,,,,,,1.7,0.9,1.5*3C
$GPGSA,A,3,13,14,27,28,42,43,,,,,,,1.7,0.9,1.5*30
$GPGST,201542.00,6.029,1.658,0.993,13.553,1.628,1.041,4.220*6F
$GPGBS,201542.00,8.377,5.146,21.384,74,0.0001,14.506,6.111*5D
$GPGRS,201542.00,1,-0.9,0.7,0.4,-0.7,,,,,,,,*43
$GPGRS,201542.00,1,3.2,-0.4,14.5,-3.2,,,,,,,,*7A
$GPGRS,201542.00,1,-0.3,-0.1,-0.6,,,,,,,,,*49
$GPGRS,201542.00,1,-2.9,7.4,-0.5,-1.2,-1.6,7.9,,,,,,*49
$GPGSV,5,1,17,27,79,299,45,15,13,041,,26,17,187,31,21,17,262,35*7B
$GPGSV,5,2,17,18,23,069,32,08,42,302,37,16,43,204,29,10,63,155,52*7A
$GPGSV,5,3,17,23,53,065,44,13,01,013,,07,05,301,23,30,02,332,22*7E
$GPGSV,5,4,17,32,01,148,,36,35,170,41,34,31,208,,49,34,195,37*7F
$GPGSV,5,5,17,61,03,257,*4B
$GLGSV,3,1,10,83,63,028,31,68,32,127,34,75,10,343,,82,29,073,43*69
$GLGSV,3,2,10,73,30,239,43,84,31,286,29,74,37,294,38,67,39,064,42*68
$GLGSV,3,3,10,66,10,016,34,69,01,164,*68
$GAGSV,3,1,12,13,65,051,44,31,12,324,33,15,13,066,,08,16,098,*60
$GAGSV,3,2,12,03,14,048,,21,42,201,42,23,49,282,,14,59,288,*6F
$GAGSV,3,3,12,26,55,262,48,27,02,167,,07,00,144,,33,08,252,*69
$GBGSV,6,1,21,28,76,315,48,57,14,225,,38,11,039,,60,11,108,*63
$GBGSV,6,2,21,05,23,128,,50,18,040,,11,13,094,20,08,25,038,29*69
$GBGSV,6,3,21,46,23,295,,37,21,238,32,33,40,134,26,13,33,043,36*69
$GBGSV,6,4,21,27,31,285,38,58,29,277,,42,35,062,42,43,35,095,42*64
$GBGSV,6,5,21,14,44,096,43,02,08,105,,36,02,340,,41,09,176,*64
$GBGSV,6,6,21,21,03,025,*5F
$GPGGA,201542.00,,,,,0,00,,,M,,M,,*48
$PTNL,GGK,201542.00,010125,4742.4462921,N,01617.9735827,E,1,17,1.7,EHT668.7424,M*48
$GPGGQ,201542.00,010125,4742.4462921,N,01617.9735827,E,1,17,4.641,625.5313,M*3F
$GPGFA,201542.00,15.762,34.602,1.658,0.993,13.553,4.220,,VVV*3B
$GPLLK,201542.00,010125,,M,,M,1,17,2.0,,M*0F
$GNGMP,201542.00,,,,,DAAA,17,0.9,,,,*59
$GPGMP,201542.00,,,,,,04,,,,1.5,123*7D
$GLGMP,201542.00,,,,,,04,,,,,*7B
$GAGMP,201542.00,,,,,,03,,,,,*71
$GBGMP,201542.00,,,,,,06,,,,,*77
$PSSN,SNC,[0,332160000,2347]*41
$GPZDA,201547.00,01,01,2025,,*66
$GPDTM,W84,,00.0000000,N,00.0000000,E,00.0000000,W84*5F
$GPRMC,201547.00,A,4742.4463011,N,01617.9735606,E,0.0,,010125,5.1,E,D*11
$GPGLL,4742.4463011,N,01617.9735606,E,201547.00,A,D*60
$GPGGA,201547.00,4742.4463011,N,01617.9735606,E,2,16,0.9,625.5151,M,43.2110,M,2.5,0123*40
$GNGNS,201547.00,4742.4463011,N,01617.9735606,E,DAAA,16,0.9,625.5151,43.2110,,*5B
$GPGNS,201547.00,,,,,,04,,,,2.5,123*7B
$GLGNS,201547.00,,,,,,03,,,,,*79
$GAGNS,201547.00,,,,,,03,,,,,*74
$GBGNS,201547.00,,,,,,06,,,,,*72
$GPLLQ,201547.00,010125,,M,,M,1,16,5.076,,M*17
$GPVTG,,T,,M,0.00,N,0.00,K,D*26
$GPHDT,,T*1B
$GPTHS,,V*0E
$GPROT,,V*08
$PSSN,HRP,201547.00,010125,,,,,,,00,0,,*64
$PTNL,AVR,201547.00,,Yaw,,Tilt,,,,0,,00*32
$GPGSA,A,3,08,10,23,27,,,,,,,,,1.8,0.9,1.5*3B
$GPGSA,A,3,67,73,82,,,,,,,,,,1.8,0.9,1.5*39
$GPGSA,A,3,13,21,26,,,,,,,,,,1.8,0.9,1.5*33
$GPGSA,A,3,13,14,27,28,42,43,,,,,,,1.8,0.9,1.5*3F
$GPGST,201547.00,5.761,1.831,1.091,12.474,1.803,1.137,4.607*6A
$GPGBS,201547.00,8.570,5.270,21.963,08,0.0001,-2.287,0.724*45
$GPGRS,201547.00,1,-2.3,0.7,0.9,-0.3,,,,,,,,*47
$GPGRS,201547.00,1,4.7,5.1,-2.5,,,,,,,,,*48
$GPGRS,201547.00,1,0.5,0.4,0.1,,,,,,,,,*65
$GPGRS,201547.00,1,-5.0,6.9,0.0,-0.6,-0.0,12.8,,,,,,*51
$GPGSV,5,1,17,27,79,299,44,15,13,041,,26,17,187,34,21,17,263,32*79
$GPGSV,5,2,17,18,23,069,29,08,42,302,36,16,43,204,29,10,63,155,51*72
$GPGSV,5,3,17,23,53,065,45,13,01,013,,07,05,301,27,30,02,332,24*7D
$GPGSV,5,4,17,32,01,148,,36,35,170,41,34,31,208,,49,34,195,36*7E
$GPGSV,5,5,17,61,03,257,*4B
$GLGSV,3,1,10,83,63,028,33,68,32,127,32,75,10,343,,82,29,073,43*6D
$GLGSV,3,2,10,73,30,239,44,84,31,286,31,74,37,294,34,67,39,064,39*66
$GLGSV,3,3,10,66,10,016,33,69,01,164,*6F
$GAGSV,3,1,12,13,65,051,44,31,12,324,30,15,13,066,,08,16,098,*63
$GAGSV,3,2,12,03,14,048,,21,42,201,40,23,49,282,,14,59,288,*6D
$GAGSV,3,3,12,26,55,262,48,27,02,167,,07,00,144,,33,08,252,*69
$GBGSV,6,1,21,28,76,315,48,57,14,225,,38,11,039,,60,11,108,*63
$GBGSV,6,2,21,05,23,128,,50,18,040,,11,13,094,,08,25,038,28*6A
$GBGSV,6,3,21,46,23,295,,37,20,238,34,33,40,134,28,13,33,043,36*60
$GBGSV,6,4,21,27,31,285,38,58,29,277,,42,35,062,43,43,35,095,41*66
$GBGSV,6,5,21,14,44,096,44,02,08,105,,36,02,340,,41,09,176,*63
$GBGSV,6,6,21,21,03,025,*5F
$GPGGA,201547.00,,,,,0,00,,,M,,M,,*4D
$PTNL,GGK,201547.00,010125,4742.4463011,N,01617.9735606,E,1,16,1.8,EHT668.7262,M*41
$GPGGQ,201547.00,010125,4742.4463011,N,01617.9735606,E,1,16,5.076,625.5151,M*3A
$GPGFA,201547.00,17.404,37.775,1.831,1.091,12.474,4.607,,VVV*32
$GPLLK,201547.00,010125,,M,,M,1,16,2.1,,M*0A
$GNGMP,201547.00,,,,,DAAA,16,0.9,,,,*5D
$GPGMP,201547.00,,,,,,04,,,,2.5,123*7B
$GLGMP,201547.00,,,,,,03,,,,,*79
$GAGMP,201547.00,,,,,,03,,,,,*74
$GBGMP,201547.00,,,,,,06,,,,,*72
$PSSN,SNC,[0,332165000,2347]*44
$GPZDA,201552.00,01,01,2025,,*62
$GPDTM,W84,,00.0000000,N,00.0000000,E,00.0000000,W84*5F
$GPRMC,201552.00,A,4742.4463134,N,01617.9735322,E,0.0,,010125,5.1,E,D*10
$GPGLL,4742.4463134,N,01617.9735322,E,201552.00,A,D*61
$GPGGA,201552.00,4742.4463134,N,01617.9735322,E,2,19,0.7,625.5077,M,43.2110,M,3.5,0123*44
$GNGNS,201552.00,4742.4463134,N,01617.9735322,E,DAAA,19,0.7,625.5077,43.2110,,*5E
$GPGNS,201552.00,,,,,,04,,,,3.5,123*7E
$GLGNS,201552.00,,,,,,06,,,,,*78
$GAGNS,201552.00,,,,,,03,,,,,*70
$GBGNS,201552.00,,,,,,06,,,,,*76
$GPLLQ,201552.00,010125,,M,,M,1,19,4.922,,M*15
$GPVTG,,T,,M,0.00,N,0.01,K,D*27
$GPHDT,,T*1B
$GPTHS,,V*0E
$GPROT,,V*08
$PSSN,HRP,201552.00,010125,,,,,,,00,0,,*60
$PTNL,AVR,201552.00,,Yaw,,Tilt,,,,0,,00*36
$GPGSA,A,3,08,10,23,27,,,,,,,,,1.3,0.7,1.1*3A
$GPGSA,A,3,67,68,73,75,82,83,,,,,,,1.3,0.7,1.1*3F
$GPGSA,A,3,13,21,26,,,,,,,,,,1.3,0.7,1.1*32
$GPGSA,A,3,14,27,28,37,42,43,,,,,,,1.3,0.7,1.1*38
$GPGST,201552.00,7.633,1.788,1.095,12.949,1.760,1.140,4.453*69
$GPGBS,201552.00,8.226,5.315,20.657,43,0.0001,20.359,8.590*5B
$GPGRS,201552.00,1,-1.2,0.7,0.7,-0.1,,,,,,,,*4D
$GPGRS,201552.00,1,3.7,8.4,7.2,-7.3,-2.1,-6.5,,,,,,*6B
$GPGRS,201552.00,1,0.7,0.1,-0.1,,,,,,,,,*4B
$GPGRS,201552.00,1,6.4,-0.3,-0.9,-1.6,-1.2,20.4,,,,,,*75
$GPGSV,5,1,17,27,79,299,43,15,13,041,,26,17,187,35,21,17,263,32*7F
$GPGSV,5,2,17,18,23,069,28,08,42,302,37,16,43,204,33,10,63,154,51*78
$GPGSV,5,3,17,23,53,065,45,13,01,013,,07,05,301,29,30,02,332,24*73
$GPGSV,5,4,17,32,01,148,,36,35,170,41,34,31,208,,49,34,195,36*7E
$GPGSV,5,5,17,61,03,257,*4B
$GLGSV,3,1,10,83,63,028,36,68,32,127,37,75,10,343,36,82,29,074,42*6E
$GLGSV,3,2,10,73,30,239,44,84,31,286,32,74,37,294,,67,39,064,41*6D
$GLGSV,3,3,10,66,10,016,32,69,01,164,*6E
$GAGSV,3,1,12,13,65,051,44,31,12,324,28,15,13,067,,08,16,098,*6B
$GAGSV,3,2,12,03,14,048,,21,42,201,40,23,49,282,,14,59,288,*6D
$GAGSV,3,3,12,26,55,262,47,27,02,167,,07,00,144,,33,08,252,*66
$GBGSV,6,1,21,28,76,315,48,57,14,225,,38,11,039,,60,11,108,*63
$GBGSV,6,2,21,05,23,128,,50,18,040,,11,13,094,,08,25,038,27*65
$GBGSV,6,3,21,46,23,295,,37,20,238,35,33,40,134,34,13,33,043,34*6E
$GBGSV,6,4,21,27,31,285,38,58,29,277,,42,35,062,43,43,35,095,40*67
$GBGSV,6,5,21,14,44,096,45,02,08,105,,36,02,340,,41,09,176,*62
$GBGSV,6,6,21,21,02,024,*5F
$GPGGA,201552.00,,,,,0,00,,,M,,M,,*49
$PTNL,GGK,201552.00,010125,4742.4463134,N,01617.9735322,E,1,19,1.3,EHT668.7188,M*43
$GPGGQ,201552.00,010125,4742.4463134,N,01617.9735322,E,1,19,4.922,625.5077,M*38
$GPGFA,201552.00,16.998,36.514,1.788,1.095,12.949,4.453,,VVV*32
$GPLLK,201552.00,010125,,M,,M,1,19,1.5,,M*06
$GNGMP,201552.00,,,,,DAAA,19,0.7,,,,*58
$GPGMP,201552.00,,,,,,04,,,,3.5,123*7E
$GLGMP,201552.00,,,,,,06,,,,,*78
$GAGMP,201552.00,,,,,,03,,,,,*70
$GBGMP,201552.00,,,,,,06,,,,,*76
$PSSN,SNC,[0,332170000,2347]*40
$GPZDA,201557.00,01,01,2025,,*67
$GPDTM,W84,,00.0000000,N,00.0000000,E,00.0000000,W84*5F
$GPRMC,201557.00,A,4742.4463229,N,01617.9735199,E,0.0,,010125,5.1,E,D*18
$GPGLL,4742.4463229,N,01617.9735199,E,201557.00,A,D*69
$GPGGA,201557.00,4742.4463229,N,01617.9735199,E,2,19,0.7,625.4969,M,43.2110,M,2.5,0123*4A
$GNGNS,201557.00,4742.4463229,N,01617.9735199,E,DAAA,19,0.7,625.4969,43.2110,,*51
$GPGNS,201557.00,,,,,,04,,,,2.5,123*7A
$GLGNS,201557.00,,,,,,06,,,,,*7D
$GAGNS,201557.00,,,,,,03,,,,,*75
$GBGNS,201557.00,,,,,,06,,,,,*73
$GPLLQ,201557.00,010125,,M,,M,1,19,4.535,,M*1A
$GPVTG,,T,,M,0.01,N,0.02,K,D*25
$GPHDT,,T*1B
$GPTHS,,V*0E
$GPROT,,V*08
$PSSN,HRP,201557.00,010125,,,,,,,00,0,,*65
$PTNL,AVR,201557.00,,Yaw,,Tilt,,,,0,,00*33
$GPGSA,A,3,08,10,23,27,,,,,,,,,1.3,0.7,1.1*3A
$GPGSA,A,3,67,68,73,75,82,83,,,,,,,1.3,0.7,1.1*3F
$GPGSA,A,3,13,21,26,,,,,,,,,,1.3,0.7,1.1*32
$GPGSA,A,3,14,27,28,37,42,43,,,,,,,1.3,0.7,1.1*38
$GPGST,201557.00,7.952,1.623,1.002,13.548,1.595,1.046,4.114*6F
$GPGBS,201557.00,7.780,5.421,21.272,43,0.0001,21.554,8.591*51
$GPGRS,201557.00,1,-0.4,0.6,-0.0,-0.1,,,,,,,,*64
$GPGRS,201557.00,1,2.0,11.5,4.2,-5.1,-2.8,-6.4,,,,,,*5A
$GPGRS,201557.00,1,0.4,-0.1,-0.9,,,,,,,,,*68
$GPGRS,201557.00,1,6.7,-0.7,-1.9,-3.0,-2.4,21.6,,,,,,*74
$GPGSV,5,1,17,27,79,298,41,15,13,041,18,26,17,187,37,21,17,263,33*76
$GPGSV,5,2,17,18,23,069,32,08,42,302,37,16,43,204,33,10,63,154,51*73
$GPGSV,5,3,17,23,53,065,46,13,01,013,,07,05,301,26,30,02,332,*79
$GPGSV,5,4,17,32,01,148,,36,35,170,41,34,31,208,,49,34,195,36*7E
$GPGSV,5,5,17,61,03,257,*4B
$GLGSV,3,1,10,83,63,028,37,68,32,127,38,75,10,343,36,82,29,074,41*63
$GLGSV,3,2,10,73,30,239,43,84,31,286,33,74,37,294,28,67,39,064,42*62
$GLGSV,3,3,10,66,10,016,31,69,01,164,*6D
$GAGSV,3,1,12,13,65,051,45,31,12,324,25,15,13,067,,08,16,098,*67
$GAGSV,3,2,12,03,14,048,,21,42,201,39,23,49,282,,14,59,288,*63
$GAGSV,3,3,12,26,55,262,47,27,02,167,,07,00,144,,33,08,252,*66
$GBGSV,6,1,21,28,76,315,48,57,14,225,,38,11,039,,60,11,108,*63
$GBGSV,6,2,21,05,23,128,,50,18,040,,11,13,094,,08,25,038,29*6B
$GBGSV,6,3,21,46,23,295,,37,20,238,36,33,40,133,32,13,32,043,34*6D
$GBGSV,6,4,21,27,31,285,38,58,29,277,,42,35,062,43,43,35,095,37*67
$GBGSV,6,5,21,14,44,096,46,02,08,105,,36,02,340,,41,09,176,*61
$GBGSV,6,6,21,21,02,024,*5F
$GPGGA,201557.00,,,,,0,00,,,M,,M,,*4C
$PTNL,GGK,201557.00,010125,4742.4463229,N,01617.9735199,E,1,19,1.3,EHT668.7080,M*42
$GPGGQ,201557.00,010125,4742.4463229,N,01617.9735199,E,1,19,4.535,625.4969,M*3D
$GPGFA,201557.00,15.431,33.738,1.623,1.002,13.548,4.114,,VVV*37
$GPLLK,201557.00,010125,,M,,M,1,19,1.5,,M*03
$GNGMP,201557.00,,,,,DAAA,19,0.7,,,,*5D
$GPGMP,201557.00,,,,,,04,,,,2.5,123*7A
$GLGMP,201557.00,,,,,,06,,,,,*7D
$GAGMP,201557.00,,,,,,03,,,,,*75
$GBGMP,201557.00,,,,,,06,,,,,*73
$PSSN,SNC,[0,332175000,2347]*45
$GPZDA,201602.00,01,01,2025,,*64
$GPDTM,W84,,00.0000000,N,00.0000000,E,00.0000000,W84*5F
$GPRMC,201602.00,A,4742.4463256,N,01617.9735086,E,0.0,,010125,5.1,E,D*1C
$GPGLL,4742.4463256,N,01617.9735086,E,201602.00,A,D*6D
$GPGGA,201602.00,4742.4463256,N,01617.9735086,E,2,18,0.7,625.5020,M,43.2111,M,1.5,0123*48
$GNGNS,201602.00,4742.4463256,N,01617.9735086,E,DAAA,18,0.7,625.5020,43.2111,,*50
$GPGNS,201602.00,,,,,,04,,,,1.5,123*7A
$GLGNS,201602.00,,,,,,06,,,,,*7E
$GAGNS,201602.00,,,,,,03,,,,,*76
$GBGNS,201602.00,,,,,,05,,,,,*73
$GPLLQ,201602.00,010125,,M,,M,1,18,3.305,,M*1A
$GPVTG,,T,,M,0.00,N,0.01,K,D*27
$GPHDT,,T*1B
$GPTHS,,V*0E
$GPROT,,V*08
$PSSN,HRP,201602.00,010125,,,,,,,00,0,,*66
$PTNL,AVR,201602.00,,Yaw,,Tilt,,,,0,,00*30
$GPGSA,A,3,08,10,23,27,,,,,,,,,1.3,0.7,1.1*3A
$GPGSA,A,3,67,68,73,75,82,83,,,,,,,1.3,0.7,1.1*3F
$GPGSA,A,3,13,21,26,,,,,,,,,,1.3,0.7,1.1*32
$GPGSA,A,3,14,27,28,37,42,,,,,,,,1.3,0.7,1.1*3F
$GPGST,201602.00,4.138,1.179,0.733,14.049,1.158,0.767,2.999*6F
$GPGBS,201602.00,7.954,5.177,20.129,27,0.0001,-0.747,0.586*4D
$GPGRS,201602.00,1,-0.6,0.6,0.3,-0.7,,,,,,,,*4D
$GPGRS,201602.00,1,1.5,7.8,0.1,-1.9,-2.1,-6.2,,,,,,*61
$GPGRS,201602.00,1,0.8,-0.4,-0.7,,,,,,,,,*6C
$GPGRS,201602.00,1,7.0,-0.5,-1.8,-3.7,-3.1,,,,,,,*6A
$GPGSV,5,1,17,27,79,298,40,15,13,041,,26,17,187,37,21,17,263,33*7E
$GPGSV,5,2,17,18,23,069,33,08,42,302,37,16,42,204,32,10,63,154,50*73
$GPGSV,5,3,17,23,53,065,46,13,01,013,,07,05,301,33,30,02,332,21*7E
$GPGSV,5,4,17,32,01,148,,36,35,170,41,34,31,208,,49,34,195,36*7E
$GPGSV,5,5,17,61,03,257,*4B
$GLGSV,3,1,10,83,63,029,37,68,32,127,38,75,10,343,37,82,29,074,40*62
$GLGSV,3,2,10,73,30,239,43,84,31,286,35,74,37,294,25,67,39,064,43*68
$GLGSV,3,3,10,66,09,016,30,69,01,164,*64
$GAGSV,3,1,12,13,65,051,45,31,12,324,25,15,13,067,,08,16,098,*67
$GAGSV,3,2,12,03,14,048,,21,42,201,39,23,49,282,,14,59,288,*63
$GAGSV,3,3,12,26,55,262,47,27,02,167,,07,01,144,,33,08,252,32*66
$GBGSV,6,1,21,28,76,315,48,57,14,225,,38,11,039,,60,11,108,*63
$GBGSV,6,2,21,05,23,128,,50,18,040,,11,13,094,,08,25,038,28*6A
$GBGSV,6,3,21,46,23,295,,37,20,238,37,33,40,133,31,13,32,043,31*6A
$GBGSV,6,4,21,27,31,285,37,58,29,277,,42,35,061,43,43,35,095,33*6F
$GBGSV,6,5,21,14,44,096,46,02,08,105,,36,02,340,,41,09,176,*61
$GBGSV,6,6,21,21,02,024,*5F
$GPGGA,201602.00,,,,,0,00,,,M,,M,,*4F
$PTNL,GGK,201602.00,010125,4742.4463256,N,01617.9735086,E,1,18,1.3,EHT668.7131,M*4C
$GPGGQ,201602.00,010125,4742.4463256,N,01617.9735086,E,1,18,3.305,625.5020,M*3F
$GPGFA,201602.00,11.212,24.589,1.179,0.733,14.049,2.999,,VVV*3D
$GPLLK,201602.00,010125,,M,,M,1,18,1.5,,M*01
$GNGMP,201602.00,,,,,DAAA,18,0.7,,,,*5F
$GPGMP,201602.00,,,,,,04,,,,1.5,123*7A
$GLGMP,201602.00,,,,,,06,,,,,*7E
$GAGMP,201602.00,,,,,,03,,,,,*76
$GBGMP,201602.00,,,,,,05,,,,,*73
$PSSN,SNC,[0,332180000,2347]*4F
$GPZDA,201607.00,01,01,2025,,*61
$GPDTM,W84,,00.0000000,N,00.0000000,E,00.0000000,W84*5F
$GPRMC,201607.00,A,4742.4463363,N,01617.9734889,E,0.0,,010125,5.1,E,D*18
$GPGLL,4742.4463363,N,01617.9734889,E,201607.00,A,D*69
$GPGGA,201607.00,4742.4463363,N,01617.9734889,E,2,19,0.6,625.4958,M,43.2111,M,2.4,0123*49
$GNGNS,201607.00,4742.4463363,N,01617.9734889,E,DAAA,19,0.6,625.4958,43.2111,,*53
$GPGNS,201607.00,,,,,,05,,,,2.4,123*7C
$GLGNS,201607.00,,,,,,06,,,,,*7B
$GAGNS,201607.00,,,,,,04,,,,,*74
$GBGNS,201607.00,,,,,,04,,,,,*77
$GPLLQ,201607.00,010125,,M,,M,1,19,4.075,,M*1D
$GPVTG,,T,,M,0.01,N,0.01,K,D*26
$GPHDT,,T*1B
$GPTHS,,V*0E
$GPROT,,V*08
$PSSN,HRP,201607.00,010125,,,,,,,00,0,,*63
$PTNL,AVR,201607.00,,Yaw,,Tilt,,,,0,,00*35
$GPGSA,A,3,08,10,23,26,27,,,,,,,,1.2,0.6,1.0*3F
$GPGSA,A,3,67,68,73,75,82,83,,,,,,,1.2,0.6,1.0*3E
$GPGSA,A,3,13,21,26,31,,,,,,,,,1.2,0.6,1.0*31
$GPGSA,A,3,14,28,37,42,,,,,,,,,1.2,0.6,1.0*3B
$GPGST,201607.00,4.467,1.494,1.120,22.032,1.447,1.179,3.622*62
$GPGBS,201607.00,3.702,5.229,7.790,26,0.0001,3.512,1.020*5D
$GPGRS,201607.00,1,-2.1,0.2,0.4,3.5,0.7,,,,,,,*4B
$GPGRS,201607.00,1,0.6,7.7,-2.2,-2.0,-2.9,-8.2,,,,,,*49
$GPGRS,201607.00,1,0.5,-0.8,-0.7,-0.2,,,,,,,,*69
$GPGRS,201607.00,1,5.4,-2.5,-5.1,-3.9,,,,,,,,*69
$GPGSV,5,1,17,27,79,298,42,15,13,040,,26,17,187,37,21,17,263,30*7E
$GPGSV,5,2,17,18,23,069,33,08,42,302,35,16,42,204,33,10,63,154,50*70
$GPGSV,5,3,17,23,52,065,47,13,01,013,,07,05,301,,30,02,332,24*7B
$GPGSV,5,4,17,32,01,148,,36,35,170,41,34,31,208,,49,34,195,37*7F
$GPGSV,5,5,17,61,03,257,*4B
$GLGSV,3,1,10,83,63,029,37,68,32,127,38,75,10,343,36,82,29,074,38*6C
$GLGSV,3,2,10,73,30,238,44,84,31,286,35,74,37,294,,67,39,063,41*6C
$GLGSV,3,3,10,66,09,016,29,69,01,164,*6C
$GAGSV,3,1,12,13,65,051,45,31,12,324,26,15,13,067,,08,16,098,*64
$GAGSV,3,2,12,03,14,048,,21,42,201,39,23,49,282,,14,59,288,*63
$GAGSV,3,3,12,26,55,262,47,27,02,167,,07,01,144,,33,08,252,30*64
$GBGSV,6,1,21,28,76,315,48,57,15,225,,38,11,039,,60,11,108,*62
$GBGSV,6,2,21,05,23,128,,50,18,040,,11,13,094,,08,25,038,27*65
$GBGSV,6,3,21,46,23,295,,37,20,238,36,33,40,133,,13,32,043,29*60
$GBGSV,6,4,21,27,31,285,34,58,29,277,,42,35,061,42,43,35,095,30*6E
$GBGSV,6,5,21,14,44,096,46,02,08,105,,36,02,340,,41,09,176,*61
$GBGSV,6,6,21,21,02,024,*5F
$GPGGA,201607.00,,,,,0,00,,,M,,M,,*4A
$PTNL,GGK,201607.00,010125,4742.4463363,N,01617.9734889,E,1,19,1.2,EHT668.7069,M*44
$GPGGQ,201607.00,010125,4742.4463363,N,01617.9734889,E,1,19,4.075,625.4958,M*3E
$GPGFA,201607.00,14.201,29.698,1.494,1.120,22.032,3.622,,VVV*35
$GPLLK,201607.00,010125,,M,,M,1,19,1.3,,M*03
$GNGMP,201607.00,,,,,DAAA,19,0.6,,,,*5A
$GPGMP,201607.00,,,,,,05,,,,2.4,123*7C
$GLGMP,201607.00,,,,,,06,,,,,*7B
$GAGMP,201607.00,,,,,,04,,,,,*74
$GBGMP,201607.00,,,,,,04,,,,,*77
$PSSN,SNC,[0,332185000,2347]*4A
$GPZDA,201612.00,01,01,2025,,*65
$GPDTM,W84,,00.0000000,N,00.0000000,E,00.0000000,W84*5F
$GPRMC,201612.00,A,4742.4463412,N,01617.9734939,E,0.0,,010125,5.1,E,D*17
$GPGLL,4742.4463412,N,01617.9734939,E,201612.00,A,D*66
$GPGGA,201612.00,4742.4463412,N,01617.9734939,E,2,18,0.7,625.5067,M,43.2111,M,3.3,0123*44
$GNGNS,201612.00,4742.4463412,N,01617.9734939,E,DAAA,18,0.7,625.5067,43.2111,,*58
$GPGNS,201612.00,,,,,,04,,,,3.3,123*7F
$GLGNS,201612.00,,,,,,06,,,,,*7F
$GAGNS,201612.00,,,,,,03,,,,,*77
$GBGNS,201612.00,,,,,,05,,,,,*72
$GPLLQ,201612.00,010125,,M,,M,1,18,2.761,,M*1C
$GPVTG,,T,,M,0.00,N,0.01,K,D*27
$GPHDT,,T*1B
$GPTHS,,V*0E
$GPROT,,V*08
$PSSN,HRP,201612.00,010125,,,,,,,00,0,,*67
$PTNL,AVR,201612.00,,Yaw,,Tilt,,,,0,,00*31
$GPGSA,A,3,10,23,26,27,,,,,,,,,1.3,0.7,1.0*37
$GPGSA,A,3,67,68,73,75,82,83,,,,,,,1.3,0.7,1.0*3E
$GPGSA,A,3,13,21,26,,,,,,,,,,1.3,0.7,1.0*33
$GPGSA,A,3,14,28,37,42,43,,,,,,,,1.3,0.7,1.0*3C
$GPGST,201612.00,4.450,1.467,0.905,314.444,1.214,1.225,2.157*5D
$GPGBS,201612.00,7.886,6.917,12.024,26,0.0001,1.484,1.030*6A
$GPGRS,201612.00,1,-0.7,-0.0,1.5,0.1,,,,,,,,*4A
$GPGRS,201612.00,1,0.2,5.9,-0.4,-2.5,-3.4,-7.4,,,,,,*41
$GPGRS,201612.00,1,0.2,-1.6,-1.3,,,,,,,,,*61
$GPGRS,201612.00,1,2.5,-3.7,-5.8,-4.9,-5.1,,,,,,,*61
$GPGSV,5,1,17,27,79,298,42,15,13,040,,26,17,187,37,21,17,263,27*78
$GPGSV,5,2,17,18,23,069,32,08,42,302,30,16,42,204,33,10,63,154,49*7C
$GPGSV,5,3,17,23,52,065,47,13,01,013,,07,05,301,26,30,02,332,27*7C
$GPGSV,5,4,17,32,01,148,,36,35,170,41,34,31,208,,49,34,195,37*7F
$GPGSV,5,5,17,61,03,257,*4B
$GLGSV,3,1,10,83,63,029,38,68,32,127,39,75,10,342,37,82,29,074,38*62
$GLGSV,3,2,10,73,30,238,45,84,31,286,35,74,37,294,33,67,39,063,41*6D
$GLGSV,3,3,10,66,09,016,,69,01,164,*67
$GAGSV,3,1,12,13,65,051,45,31,12,324,30,15,13,067,,08,16,098,*63
$GAGSV,3,2,12,03,14,048,,21,42,201,39,23,49,282,,14,59,288,*63
$GAGSV,3,3,12,26,55,262,47,27,02,167,,07,01,144,,33,08,252,31*65
$GBGSV,6,1,21,28,76,315,47,57,15,225,,38,11,039,20,60,11,108,*6F
$GBGSV,6,2,21,05,23,128,,50,18,040,,11,13,094,,08,25,038,27*65
$GBGSV,6,3,21,46,23,295,,37,20,238,35,33,40,133,30,13,32,043,28*61
$GBGSV,6,4,21,27,31,285,31,58,29,277,,42,35,061,41,43,35,095,35*6D
$GBGSV,6,5,21,14,44,096,46,02,08,105,,36,02,340,,41,09,176,*61
$GBGSV,6,6,21,21,02,024,*5F
$GPGGA,201612.00,,,,,0,00,,,M,,M,,*4E
$PTNL,GGK,201612.00,010125,4742.4463412,N,01617.9734939,E,1,18,1.3,EHT668.7177,M*45
$GPGGQ,201612.00,010125,4742.4463412,N,01617.9734939,E,1,18,2.761,625.5067,M*30
$GPGFA,201612.00,13.951,17.688,1.467,0.905,314.444,2.157,,VVV*01
$GPLLK,201612.00,010125,,M,,M,1,18,1.4,,M*01
$GNGMP,201612.00,,,,,DAAA,18,0.7,,,,*5E
$GPGMP,201612.00,,,,,,04,,,,3.3,123*7F
$GLGMP,201612.00,,,,,,06,,,,,*7F
$GAGMP,201612.00,,,,,,03,,,,,*77
$GBGMP,201612.00,,,,,,05,,,,,*72
$PSSN,SNC,[0,332190000,2347]*4E
$GPZDA,201617.00,01,01,2025,,*60
$GPDTM,W84,,00.0000000,N,00.0000000,E,00.0000000,W84*5F
$GPRMC,201617.00,A,4742.4463482,N,01617.9734932,E,0.0,,010125,5.1,E,D*10
$GPGLL,4742.4463482,N,01617.9734932,E,201617.00,A,D*61
$GPGGA,201617.00,4742.4463482,N,01617.9734932,E,2,17,0.7,625.5351,M,43.2111,M,3.3,0123*4A
$GNGNS,201617.00,4742.4463482,N,01617.9734932,E,DAAA,17,0.7,625.5351,43.2111,,*56
$GPGNS,201617.00,,,,,,04,,,,3.3,123*7A
$GLGNS,201617.00,,,,,,07,,,,,*7B
$GAGNS,201617.00,,,,,,03,,,,,*72
$GBGNS,201617.00,,,,,,03,,,,,*71
$GPLLQ,201617.00,010125,,M,,M,1,17,3.661,,M*16
$GPVTG,,T,,M,0.00,N,0.01,K,D*27
$GPHDT,,T*1B
$GPTHS,,V*0E
$GPROT,,V*08
$PSSN,HRP,201617.00,010125,,,,,,,00,0,,*62
$PTNL,AVR,201617.00,,Yaw,,Tilt,,,,0,,00*34
$GPGSA,A,3,10,23,26,27,,,,,,,,,1.3,0.7,1.1*36
$GPGSA,A,3,67,68,73,74,75,82,83,,,,,,1.3,0.7,1.1*3C
$GPGSA,A,3,13,21,26,,,,,,,,,,1.3,0.7,1.1*32
$GPGSA,A,3,14,28,42,,,,,,,,,,1.3,0.7,1.1*3E
$GPGST,201617.00,3.856,1.935,1.220,313.444,1.599,1.637,2.858*56
$GPGBS,201617.00,7.464,7.022,11.473,26,0.0001,3.129,1.043*60
$GPGRS,201617.00,1,-0.7,0.3,3.1,-0.8,,,,,,,,*43
$GPGRS,201617.00,1,1.5,7.1,0.8,-2.5,-2.4,-3.0,-4.0,,,,,*6F
$GPGRS,201617.00,1,0.2,-1.8,-1.3,,,,,,,,,*6A
$GPGRS,201617.00,1,2.3,-4.1,-4.5,,,,,,,,,*66
$GPGSV,5,1,17,27,79,298,42,15,13,040,27,26,17,187,37,21,17,263,29*73
$GPGSV,5,2,17,18,23,069,32,08,42,302,32,16,42,204,34,10,63,154,49*79
$GPGSV,5,3,17,23,52,065,47,13,01,013,,07,05,301,30,30,02,332,29*75
$GPGSV,5,4,17,32,01,148,,36,35,170,41,34,31,208,,49,34,195,36*7E
$GPGSV,5,5,17,61,03,257,*4B
$GLGSV,3,1,10,83,63,029,37,68,32,127,38,75,10,342,38,82,29,074,39*62
$GLGSV,3,2,10,73,30,238,45,84,31,286,34,74,37,293,38,67,39,063,43*62
$GLGSV,3,3,10,66,09,016,,69,01,164,*67
$GAGSV,3,1,12,13,65,051,46,31,12,324,32,15,13,067,,08,16,098,*62
$GAGSV,3,2,12,03,14,048,,21,42,201,39,23,49,281,,14,60,288,*6A
$GAGSV,3,3,12,26,56,262,47,27,02,167,,07,01,144,,33,08,252,33*64
$GBGSV,6,1,21,28,76,315,45,57,15,225,,38,11,039,,60,11,108,*6F
$GBGSV,6,2,21,05,23,128,,50,18,040,,11,13,094,21,08,25,038,27*66
$GBGSV,6,3,21,46,23,295,,37,20,238,34,33,40,133,31,13,32,043,27*6E
$GBGSV,6,4,21,27,31,285,30,58,29,277,,42,35,061,41,43,35,095,34*6D
$GBGSV,6,5,21,14,44,096,46,02,08,105,,36,02,340,,41,09,176,*61
$GBGSV,6,6,21,21,02,024,*5F
$GPGGA,201617.00,,,,,0,00,,,M,,M,,*4B
$PTNL,GGK,201617.00,010125,4742.4463482,N,01617.9734932,E,1,17,1.3,EHT668.7461,M*4F
$GPGGQ,201617.00,010125,4742.4463482,N,01617.9734932,E,1,17,3.661,625.5351,M*3E
$GPGFA,201617.00,18.400,23.436,1.935,1.220,313.444,2.858,,VVV*00
$GPLLK,201617.00,010125,,M,,M,1,17,1.5,,M*0A
$GNGMP,201617.00,,,,,DAAA,17,0.7,,,,*54
$GPGMP,201617.00,,,,,,04,,,,3.3,123*7A
$GLGMP,201617.00,,,,,,07,,,,,*7B
$GAGMP,201617.00,,,,,,03,,,,,*72
$GBGMP,201617.00,,,,,,03,,,,,*71
$PSSN,SNC,[0,332195000,2347]*4B
$GPZDA,201622.00,01,01,2025,,*66
$GPDTM,W84,,00.0000000,N,00.0000000,E,00.0000000,W84*5F
$GPRMC,201622.00,A,4742.4463593,N,01617.9734898,E,0.0,,010125,5.1,E,D*16
$GPGLL,4742.4463593,N,01617.9734898,E,201622.00,A,D*67
$GPGGA,201622.00,4742.4463593,N,01617.9734898,E,2,17,0.7,625.5720,M,43.2111,M,1.3,0123*4C
$GNGNS,201622.00,4742.4463593,N,01617.9734898,E,DAAA,17,0.7,625.5720,43.2111,,*52
$GPGNS,201622.00,,,,,,04,,,,1.3,123*7E
$GLGNS,201622.00,,,,,,07,,,,,*7D
$GAGNS,201622.00,,,,,,03,,,,,*74
$GBGNS,201622.00,,,,,,03,,,,,*77
$GPLLQ,201622.00,010125,,M,,M,1,17,3.999,,M*18
$GPVTG,,T,,M,0.00,N,0.01,K,D*27
$GPHDT,,T*1B
$GPTHS,,V*0E
$GPROT,,V*08
$PSSN,HRP,201622.00,010125,,,,,,,00,0,,*64
$PTNL,AVR,201622.00,,Yaw,,Tilt,,,,0,,00*32
$GPGSA,A,3,10,23,26,27,,,,,,,,,1.3,0.7,1.1*36
$GPGSA,A,3,67,68,73,74,75,82,83,,,,,,1.3,0.7,1.1*3C
$GPGSA,A,3,13,21,26,,,,,,,,,,1.3,0.7,1.1*32
$GPGSA,A,3,14,28,42,,,,,,,,,,1.3,0.7,1.1*3E
$GPGST,201622.00,4.233,2.108,1.334,313.008,1.738,1.790,3.125*54
$GPGBS,201622.00,7.595,6.628,11.606,26,0.0001,3.426,1.014*6C
$GPGRS,201622.00,1,-0.6,0.2,3.4,-0.8,,,,,,,,*40
$GPGRS,201622.00,1,1.4,7.5,0.6,-4.5,-0.4,-2.6,-5.7,,,,,*67
$GPGRS,201622.00,1,-0.1,-2.2,-1.2,,,,,,,,,*4A
$GPGRS,201622.00,1,1.6,-4.3,-4.6,,,,,,,,,*67
$GPGSV,5,1,17,27,79,298,41,15,13,040,,26,17,187,36,21,17,263,*7F
$GPGSV,5,2,17,18,23,069,31,08,42,302,32,16,42,204,34,10,63,154,48*7B
$GPGSV,5,3,17,23,52,065,47,13,01,013,,07,05,301,34,30,02,332,*7A
$GPGSV,5,4,17,32,01,148,,36,35,170,41,34,31,208,,49,34,195,36*7E
$GPGSV,5,5,17,61,03,257,*4B
$GLGSV,3,1,10,83,63,029,35,68,32,127,36,75,10,342,38,82,29,074,39*6E
$GLGSV,3,2,10,73,30,238,46,84,31,286,31,74,37,293,38,67,39,063,46*61
$GLGSV,3,3,10,66,09,016,25,69,01,164,*60
$GAGSV,3,1,12,13,65,051,46,31,12,324,34,15,13,067,,08,16,098,*64
$GAGSV,3,2,12,03,14,048,,21,42,201,40,23,49,281,,14,60,288,*64
$GAGSV,3,3,12,26,56,263,46,27,02,167,,07,01,144,,33,08,252,32*65
$GBGSV,6,1,21,28,76,316,44,57,15,225,,38,11,039,,60,11,108,*6D
$GBGSV,6,2,21,05,23,128,,50,18,040,,11,13,094,,08,25,038,27*65
$GBGSV,6,3,21,46,23,295,,37,20,238,34,33,40,133,35,13,32,043,26*6B
$GBGSV,6,4,21,27,31,285,31,58,29,277,,42,35,061,41,43,34,095,31*68
$GBGSV,6,5,21,14,44,096,45,02,08,105,,36,02,340,,41,09,176,*62
$GBGSV,6,6,21,21,02,024,*5F
$GPGGA,201622.00,,,,,0,00,,,M,,M,,*4D
$PTNL,GGK,201622.00,010125,4742.4463593,N,01617.9734898,E,1,17,1.3,EHT668.7830,M*41
$GPGGQ,201622.00,010125,4742.4463593,N,01617.9734898,E,1,17,3.999,625.5720,M*32
$GPGFA,201622.00,20.042,25.628,2.108,1.334,313.008,3.125,,VVV*0B
$GPLLK,201622.00,010125,,M,,M,1,17,1.5,,M*0C
$GNGMP,201622.00,,,,,DAAA,17,0.7,,,,*52
$GPGMP,201622.00,,,,,,04,,,,1.3,123*7E
$GLGMP,201622.00,,,,,,07,,,,,*7D
$GAGMP,201622.00,,,,,,03,,,,,*74
$GBGMP,201622.00,,,,,,03,,,,,*77
$PSSN,SNC,[0,332200000,2347]*44
$GPZDA,201627.00,01,01,2025,,*63
$GPDTM,W84,,00.0000000,N,00.0000000,E,00.0000000,W84*5F
$GPRMC,201627.00,A,4742.4463688,N,01617.9734827,E,0.0,,010125,5.1,E,D*1E
$GPGLL,4742.4463688,N,01617.9734827,E,201627.00,A,D*6F
$GPGGA,201627.00,4742.4463688,N,01617.9734827,E,2,16,0.8,625.6029,M,43.2111,M,2.3,0123*44
$GNGNS,201627.00,4742.4463688,N,01617.9734827,E,DAAA,16,0.8,625.6029,43.2111,,*59
$GPGNS,201627.00,,,,,,03,,,,2.3,123*7F
$GLGNS,201627.00,,,,,,05,,,,,*7A
$GAGNS,201627.00,,,,,,04,,,,,*76
$GBGNS,201627.00,,,,,,04,,,,,*75
$GPLLQ,201627.00,010125,,M,,M,1,16,7.369,,M*1D
$GPVTG,,T,,M,0.01,N,0.01,K,D*26
$GPHDT,,T*1B
$GPTHS,,V*0E
$GPROT,,V*08
$PSSN,HRP,201627.00,010125,,,,,,,00,0,,*61
$PTNL,AVR,201627.00,,Yaw,,Tilt,,,,0,,00*37
$GPGSA,A,3,10,23,27,,,,,,,,,,1.5,0.8,1.2*38
$GPGSA,A,3,67,73,74,75,82,,,,,,,,1.5,0.8,1.2*33
$GPGSA,A,3,13,21,26,31,,,,,,,,,1.5,0.8,1.2*3A
$GPGSA,A,3,14,28,33,42,,,,,,,,,1.5,0.8,1.2*34
$GPGST,201627.00,3.513,1.944,1.298,87.814,1.299,1.943,6.989*69
$GPGBS,201627.00,8.579,13.108,52.307,27,0.0001,-1.416,0.601*78
$GPGRS,201627.00,1,-0.2,0.5,-1.4,,,,,,,,,*62
$GPGRS,201627.00,1,2.1,0.4,-5.0,-0.9,-0.8,,,,,,,*4E
$GPGRS,201627.00,1,0.7,-1.4,-0.2,4.4,,,,,,,,*4E
$GPGRS,201627.00,1,1.5,-3.4,5.4,-3.6,,,,,,,,*49
$GPGSV,5,1,17,27,79,298,38,15,13,040,,26,16,187,35,21,17,263,*73
$GPGSV,5,2,17,18,23,069,33,08,42,302,33,16,42,204,34,10,63,154,47*77
$GPGSV,5,3,17,23,52,065,47,13,01,013,,07,05,301,35,30,02,332,*7B
$GPGSV,5,4,17,32,01,148,,36,35,170,41,34,31,208,,49,34,195,37*7F
