$GPZDA,054442.00,01,01,2025,,*60
$GPDTM,W84,,00.0000000,N,00.0000000,E,00.0000000,W84*5F
$GPRMC,054442.00,A,4742.4465805,N,01617.9733443,E,0.0,,010125,5.1,E,D*19
$GPGLL,4742.4465805,N,01617.9733443,E,054442.00,A,D*68
$GPGGA,054442.00,4742.4465805,N,01617.9733443,E,2,22,0.7,624.2391,M,43.2111,M,2.5,0123*48
$GNGNS,054442.00,4742.4465805,N,01617.9733443,E,DAAA,22,0.7,624.2391,43.2111,,*53
$GPGNS,054442.00,,,,,,06,,,,2.5,123*7F
$GLGNS,054442.00,,,,,,05,,,,,*79
$GAGNS,054442.00,,,,,,05,,,,,*74
$GBGNS,054442.00,,,,,,06,,,,,*74
$GPLLQ,054442.00,010125,,M,,M,1,22,3.033,,M*11
$GPVTG,,T,,M,0.00,N,0.01,K,D*27
$GPHDT,,T*1B
$GPTHS,,V*0E
$GPROT,,V*08
$PSSN,HRP,054442.00,010125,,,,,,,00,0,,*62
$PTNL,AVR,054442.00,,Yaw,,Tilt,,,,0,,00*34
$GPGSA,A,3,05,07,09,11,20,30,,,,,,,1.2,0.7,1.0*3D
$GPGSA,A,3,71,72,73,74,88,,,,,,,,1.2,0.7,1.0*33
$GPGSA,A,3,03,05,15,24,31,,,,,,,,1.2,0.7,1.0*31
$GPGSA,A,3,05,09,19,22,34,36,,,,,,,1.2,0.7,1.0*31
$GPGST,054442.00,7.776,1.332,0.796,350.669,1.321,0.815,2.606*5E
$GPGBS,054442.00,4.303,3.767,8.009,34,0.0001,25.360,8.765*64
$GPGRS,054442.00,1,0.4,-0.7,-0.4,0.3,-1.2,1.3,,,,,,*65
$GPGRS,054442.00,1,-1.3,2.2,2.4,0.0,-4.6,,,,,,,*65
$GPGRS,054442.00,1,0.4,-0.3,5.7,1.3,11.6,,,,,,,*7F
$GPGRS,054442.00,1,5.0,-2.4,-1.7,-3.6,25.4,-3.0,,,,,,*7D
$GPGSV,4,1,15,07,77,098,42,16,11,034,,05,22,312,43,06,19,214,31*71
$GPGSV,4,2,15,04,16,086,24,11,34,251,44,20,54,293,40,30,56,209,50*70
$GPGSV,4,3,15,09,44,083,44,13,08,268,35,14,02,172,,36,35,170,41*7B
$GPGSV,4,4,15,34,31,208,,49,34,195,33,61,03,257,*41
$GLGSV,3,1,11,72,62,332,44,87,16,251,,80,11,024,29,88,22,311,43*6B
$GLGSV,3,2,11,71,51,084,45,74,49,150,44,73,54,067,45,75,07,184,*6C
$GLGSV,3,3,11,81,04,359,,70,08,107,,65,10,299,*5E
$GAGSV,3,1,11,05,76,045,47,16,23,141,,09,24,082,26,31,25,055,36*6F
$GAGSV,3,2,11,24,32,113,43,34,30,224,32,15,36,287,36,03,44,278,35*6A
$GAGSV,3,3,11,25,09,161,,06,03,086,,13,09,334,33*54
$GBGSV,6,1,21,22,83,336,46,06,11,051,,12,10,268,32,48,12,116,*64
$GBGSV,6,2,21,45,24,189,30,58,23,043,,05,22,129,36,09,26,052,35*65
$GBGSV,6,3,21,21,30,300,35,46,36,055,,19,38,113,43,36,58,135,47*64
$GBGSV,6,4,21,34,09,295,36,40,00,077,,44,02,246,23,10,02,097,*65
$GBGSV,6,5,21,02,06,107,,16,09,050,,50,07,298,,11,06,316,*61
$GBGSV,6,6,21,60,07,111,*58
$GPGGA,054442.00,,,,,0,00,,,M,,M,,*4B
$PTNL,GGK,054442.00,010125,4742.4465805,N,01617.9733443,E,1,22,1.2,EHT667.4502,M*49
$GPGGQ,054442.00,010125,4742.4465805,N,01617.9733443,E,1,22,3.033,624.2391,M*3A
$GPGFA,054442.00,12.667,21.370,1.332,0.796,350.669,2.606,,VVV*05
$GPLLK,054442.00,010125,,M,,M,1,22,1.4,,M*0D
$GNGMP,054442.00,,,,,DAAA,22,0.7,,,,*52
$GPGMP,054442.00,,,,,,06,,,,2.5,123*7F
$GLGMP,054442.00,,,,,,05,,,,,*79
$GAGMP,054442.00,,,,,,05,,,,,*74
$GBGMP,054442.00,,,,,,06,,,,,*74
$PSSN,SNC,[0,279900000,2347]*41
$GPZDA,054447.00,01,01,2025,,*65
$GPDTM,W84,,00.0000000,N,00.0000000,E,00.0000000,W84*5F
$GPRMC,054447.00,A,4742.4465874,N,01617.9733392,E,0.0,,010125,5.1,E,D*11
$GPGLL,4742.4465874,N,01617.9733392,E,054447.00,A,D*60
$GPGGA,054447.00,4742.4465874,N,01617.9733392,E,2,20,0.7,624.2527,M,43.2111,M,3.2,0123*4F
$GNGNS,054447.00,4742.4465874,N,01617.9733392,E,DAAA,20,0.7,624.2527,43.2111,,*52
$GPGNS,054447.00,,,,,,05,,,,3.2,123*7F
$GLGNS,054447.00,,,,,,05,,,,,*7C
$GAGNS,054447.00,,,,,,04,,,,,*70
$GBGNS,054447.00,,,,,,06,,,,,*71
$GPLLQ,054447.00,010125,,M,,M,1,20,3.788,,M*11
$GPVTG,,T,,M,0.00,N,0.01,K,D*27
$GPHDT,,T*1B
$GPTHS,,V*0E
$GPROT,,V*08
$PSSN,HRP,054447.00,010125,,,,,,,00,0,,*67
$PTNL,AVR,054447.00,,Yaw,,Tilt,,,,0,,00*31
$GPGSA,A,3,05,07,09,11,30,,,,,,,,1.3,0.7,1.0*3E
$GPGSA,A,3,71,72,73,74,88,,,,,,,,1.3,0.7,1.0*32
$GPGSA,A,3,05,15,24,31,,,,,,,,,1.3,0.7,1.0*33
$GPGSA,A,3,05,09,19,22,34,36,,,,,,,1.3,0.7,1.0*30
$GPGST,054447.00,7.802,1.759,0.871,339.116,1.672,1.027,3.240*54
$GPGBS,054447.00,5.462,4.842,13.652,34,0.0001,23.418,8.766*50
$GPGRS,054447.00,1,-0.5,-1.2,1.2,-0.2,0.7,,,,,,,*4B
$GPGRS,054447.00,1,-3.4,2.9,2.2,-0.7,-6.0,,,,,,,*46
$GPGRS,054447.00,1,-0.9,3.5,0.6,8.5,,,,,,,,*61
$GPGRS,054447.00,1,4.3,-3.4,-5.0,-4.3,23.4,-4.2,,,,,,*79
$GPGSV,4,1,15,07,77,097,41,16,11,034,27,05,22,312,43,06,19,214,30*79
$GPGSV,4,2,15,04,16,086,27,11,34,251,44,20,54,293,38,30,56,209,50*7C
$GPGSV,4,3,15,09,44,083,44,13,08,268,34,14,02,172,,36,35,170,41*7A
$GPGSV,4,4,15,34,31,208,,49,34,195,33,61,03,257,*41
$GLGSV,3,1,11,72,62,332,44,87,16,251,,80,11,024,29,88,22,311,41*69
$GLGSV,3,2,11,71,51,084,43,74,49,150,44,73,54,067,44,75,07,184,*6B
$GLGSV,3,3,11,81,04,359,,70,08,107,,65,10,299,21*5D
$GAGSV,3,1,11,05,76,045,46,16,23,141,,09,24,082,27,31,25,055,36*6F
$GAGSV,3,2,11,24,32,113,42,34,30,224,31,15,36,287,36,03,44,278,34*69
$GAGSV,3,3,11,25,09,161,,06,03,086,,13,09,334,30*57
$GBGSV,6,1,21,22,83,336,47,06,11,051,,12,10,268,31,48,12,116,*66
$GBGSV,6,2,21,45,24,189,31,58,22,043,,05,22,129,36,09,26,052,35*65
$GBGSV,6,3,21,21,30,300,34,46,36,055,,19,38,113,41,36,59,135,47*66
$GBGSV,6,4,21,34,09,295,36,40,00,077,,44,02,246,23,10,02,097,*65
$GBGSV,6,5,21,02,06,107,,16,09,050,,50,07,298,,11,06,316,*61
$GBGSV,6,6,21,60,07,111,*58
$GPGGA,054447.00,,,,,0,00,,,M,,M,,*4E
$PTNL,GGK,054447.00,010125,4742.4465874,N,01617.9733392,E,1,20,1.3,EHT667.4638,M*48
$GPGGQ,054447.00,010125,4742.4465874,N,01617.9733392,E,1,20,3.788,624.2527,M*3C
$GPGFA,054447.00,16.723,26.571,1.759,0.871,339.116,3.240,,VVV*0D
$GPLLK,054447.00,010125,,M,,M,1,20,1.4,,M*0A
$GNGMP,054447.00,,,,,DAAA,20,0.7,,,,*55
$GPGMP,054447.00,,,,,,05,,,,3.2,123*7F
$GLGMP,054447.00,,,,,,05,,,,,*7C
$GAGMP,054447.00,,,,,,04,,,,,*70
$GBGMP,054447.00,,,,,,06,,,,,*71
$PSSN,SNC,[0,279905000,2347]*44
$GPZDA,054452.00,01,01,2025,,*61
$GPDTM,W84,,00.0000000,N,00.0000000,E,00.0000000,W84*5F
$GPRMC,054452.00,A,4742.4465890,N,01617.9733294,E,0.0,,010125,5.1,E,D*18
$GPGLL,4742.4465890,N,01617.9733294,E,054452.00,A,D*69
$GPGGA,054452.00,4742.4465890,N,01617.9733294,E,2,19,0.7,624.2704,M,43.2111,M,3.4,0123*49
$GNGNS,054452.00,4742.4465890,N,01617.9733294,E,DAAA,19,0.7,624.2704,43.2111,,*52
$GPGNS,054452.00,,,,,,05,,,,3.4,123*7D
$GLGNS,054452.00,,,,,,05,,,,,*78
$GAGNS,054452.00,,,,,,04,,,,,*74
$GBGNS,054452.00,,,,,,05,,,,,*76
$GPLLQ,054452.00,010125,,M,,M,1,19,3.123,,M*18
$GPVTG,,T,,M,0.01,N,0.02,K,D*25
$GPHDT,,T*1B
$GPTHS,,V*0E
$GPROT,,V*08
$PSSN,HRP,054452.00,010125,,,,,,,00,0,,*63
$PTNL,AVR,054452.00,,Yaw,,Tilt,,,,0,,00*35
$GPGSA,A,3,05,07,09,11,30,,,,,,,,1.3,0.7,1.1*3F
$GPGSA,A,3,71,72,73,74,88,,,,,,,,1.3,0.7,1.1*33
$GPGSA,A,3,05,15,24,31,,,,,,,,,1.3,0.7,1.1*32
$GPGSA,A,3,05,09,19,22,36,,,,,,,,1.3,0.7,1.1*36
$GPGST,054452.00,5.218,1.440,0.716,338.611,1.366,0.848,2.677*56
$GPGBS,054452.00,5.404,4.956,13.893,09,0.0001,1.357,0.680*60
$GPGRS,054452.00,1,-0.6,-0.6,1.4,-0.2,0.1,,,,,,,*49
$GPGRS,054452.00,1,-6.0,4.3,0.4,-0.9,-7.0,,,,,,,*44
$GPGRS,054452.00,1,-1.1,2.9,-0.0,8.7,,,,,,,,*48
$GPGRS,054452.00,1,4.3,-3.5,-8.0,-4.9,-4.0,,,,,,,*62
$GPGSV,4,1,15,07,77,097,42,16,11,034,29,05,22,312,43,06,19,214,29*7C
$GPGSV,4,2,15,04,16,086,29,11,34,251,44,20,54,293,38,30,56,209,50*72
$GPGSV,4,3,15,09,44,083,43,13,08,268,31,14,02,172,,36,35,170,41*78
$GPGSV,4,4,15,34,31,208,,49,34,195,33,61,03,257,*41
$GLGSV,3,1,11,72,62,332,44,87,16,251,33,80,11,024,29,65,10,299,29*64
$GLGSV,3,2,11,88,22,311,41,73,54,067,42,74,49,150,44,71,51,084,41*61
$GLGSV,3,3,11,81,04,359,,70,08,107,,75,07,184,*56
$GAGSV,3,1,11,05,76,046,46,16,23,141,,09,24,082,29,31,25,055,36*62
$GAGSV,3,2,11,24,32,113,41,34,30,224,31,15,36,287,37,03,44,278,32*6D
$GAGSV,3,3,11,25,09,161,,06,03,086,,13,09,334,29*5F
$GBGSV,6,1,21,22,83,337,46,06,11,051,,12,10,268,29,48,12,116,*6F
$GBGSV,6,2,21,45,24,189,33,58,22,043,,05,22,129,36,09,26,052,35*67
$GBGSV,6,3,21,21,30,300,32,46,36,055,,19,38,113,40,36,59,135,47*61
$GBGSV,6,4,21,34,09,295,33,40,00,077,,44,02,246,22,10,02,097,*61
$GBGSV,6,5,21,02,06,107,,16,09,050,,50,07,298,,11,06,316,*61
$GBGSV,6,6,21,60,07,111,*58
$GPGGA,054452.00,,,,,0,00,,,M,,M,,*4A
$PTNL,GGK,054452.00,010125,4742.4465890,N,01617.9733294,E,1,19,1.3,EHT667.4815,M*4A
$GPGGQ,054452.00,010125,4742.4465890,N,01617.9733294,E,1,19,3.123,624.2704,M*3B
$GPGFA,054452.00,13.688,21.954,1.440,0.716,338.611,2.677,,VVV*05
$GPLLK,054452.00,010125,,M,,M,1,19,1.6,,M*06
$GNGMP,054452.00,,,,,DAAA,19,0.7,,,,*5B
$GPGMP,054452.00,,,,,,05,,,,3.4,123*7D
$GLGMP,054452.00,,,,,,05,,,,,*78
$GAGMP,054452.00,,,,,,04,,,,,*74
$GBGMP,054452.00,,,,,,05,,,,,*76
$PSSN,SNC,[0,279910000,2347]*40
$GPZDA,054457.00,01,01,2025,,*64
$GPDTM,W84,,00.0000000,N,00.0000000,E,00.0000000,W84*5F
$GPRMC,054457.00,A,4742.4465952,N,01617.9733137,E,0.0,,010125,5.1,E,D*18
$GPGLL,4742.4465952,N,01617.9733137,E,054457.00,A,D*69
$GPGGA,054457.00,4742.4465952,N,01617.9733137,E,2,19,0.8,624.2838,M,43.2111,M,1.5,0123*45
$GNGNS,054457.00,4742.4465952,N,01617.9733137,E,DAAA,19,0.8,624.2838,43.2111,,*5D
$GPGNS,054457.00,,,,,,06,,,,1.5,123*78
$GLGNS,054457.00,,,,,,05,,,,,*7D
$GAGNS,054457.00,,,,,,04,,,,,*71
$GBGNS,054457.00,,,,,,04,,,,,*72
$GPLLQ,054457.00,010125,,M,,M,1,19,2.125,,M*1A
$GPVTG,,T,,M,0.00,N,0.00,K,D*26
$GPHDT,,T*1B
$GPTHS,,V*0E
$GPROT,,V*08
$PSSN,HRP,054457.00,010125,,,,,,,00,0,,*66
$PTNL,AVR,054457.00,,Yaw,,Tilt,,,,0,,00*30
$GPGSA,A,3,05,07,09,11,20,30,,,,,,,1.4,0.8,1.1*35
$GPGSA,A,3,71,72,73,74,88,,,,,,,,1.4,0.8,1.1*3B
$GPGSA,A,3,05,15,24,31,,,,,,,,,1.4,0.8,1.1*3A
$GPGSA,A,3,05,19,22,36,,,,,,,,,1.4,0.8,1.1*37
$GPGST,054457.00,5.105,0.919,0.565,351.013,0.912,0.576,1.831*56
$GPGBS,054457.00,4.264,3.740,7.862,31,0.0001,9.012,6.138*52
$GPGRS,054457.00,1,-0.6,0.3,0.3,0.2,-0.8,0.4,,,,,,*41
$GPGRS,054457.00,1,-5.3,4.6,-0.1,-0.6,-5.6,,,,,,,*67
$GPGRS,054457.00,1,-0.9,3.9,-0.6,9.0,,,,,,,,*45
$GPGRS,054457.00,1,5.3,-8.5,-4.8,-3.0,,,,,,,,*60
$GPGSV,4,1,15,07,77,097,43,16,11,034,30,05,23,312,41,06,19,214,36*78
$GPGSV,4,2,15,04,16,086,29,11,34,251,44,20,54,293,39,30,56,209,50*73
$GPGSV,4,3,15,09,44,083,41,13,08,268,27,14,02,172,,36,35,170,41*7D
$GPGSV,4,4,15,34,31,208,,49,34,195,33,61,03,257,*41
$GLGSV,3,1,11,72,62,332,46,87,16,251,29,80,11,024,29,65,10,299,*66
$GLGSV,3,2,11,88,22,311,42,73,54,067,44,74,49,150,43,71,51,084,40*62
$GLGSV,3,3,11,81,04,359,24,70,08,107,,75,07,184,*50
$GAGSV,3,1,11,05,76,046,45,16,23,141,,09,24,082,28,31,25,055,35*63
$GAGSV,3,2,11,24,32,113,41,34,30,224,31,15,36,287,38,03,44,278,31*61
$GAGSV,3,3,11,25,09,161,,06,03,086,,13,09,334,28*5E
$GBGSV,6,1,21,22,83,337,47,06,11,051,,12,10,268,27,48,12,116,*60
$GBGSV,6,2,21,45,24,189,35,58,22,043,,05,22,129,36,09,26,052,36*62
$GBGSV,6,3,21,21,30,300,33,46,36,055,,19,38,113,40,36,59,135,48*6F
$GBGSV,6,4,21,34,09,295,32,40,00,077,,44,02,246,,10,02,097,*60
$GBGSV,6,5,21,02,06,107,,16,09,050,,50,07,298,,11,06,316,*61
$GBGSV,6,6,21,60,07,111,*58
$GPGGA,054457.00,,,,,0,00,,,M,,M,,*4F
$PTNL,GGK,054457.00,010125,4742.4465952,N,01617.9733137,E,1,19,1.4,EHT667.4948,M*44
$GPGGQ,054457.00,010125,4742.4465952,N,01617.9733137,E,1,19,2.125,624.2838,M*3C
$GPGFA,054457.00,8.741,15.013,0.919,0.565,351.013,1.831,,VVV*31
$GPLLK,054457.00,010125,,M,,M,1,19,1.6,,M*03
$GNGMP,054457.00,,,,,DAAA,19,0.8,,,,*51
$GPGMP,054457.00,,,,,,06,,,,1.5,123*78
$GLGMP,054457.00,,,,,,05,,,,,*7D
$GAGMP,054457.00,,,,,,04,,,,,*71
$GBGMP,054457.00,,,,,,04,,,,,*72
$PSSN,SNC,[0,279915000,2347]*45
$GPZDA,054502.00,01,01,2025,,*65
$GPDTM,W84,,00.0000000,N,00.0000000,E,00.0000000,W84*5F
$GPRMC,054502.00,A,4742.4465998,N,01617.9733112,E,0.0,,010125,5.1,E,D*18
$GPGLL,4742.4465998,N,01617.9733112,E,054502.00,A,D*69
$GPGGA,054502.00,4742.4465998,N,01617.9733112,E,2,20,0.8,624.2753,M,43.2111,M,2.5,0123*4E
$GNGNS,054502.00,4742.4465998,N,01617.9733112,E,DAAA,20,0.8,624.2753,43.2111,,*55
$GPGNS,054502.00,,,,,,06,,,,2.5,123*7A
$GLGNS,054502.00,,,,,,05,,,,,*7C
$GAGNS,054502.00,,,,,,03,,,,,*77
$GBGNS,054502.00,,,,,,06,,,,,*71
$GPLLQ,054502.00,010125,,M,,M,1,20,1.949,,M*10
$GPVTG,,T,,M,0.00,N,0.01,K,D*27
$GPHDT,,T*1B
$GPTHS,,V*0E
$GPROT,,V*08
$PSSN,HRP,054502.00,010125,,,,,,,00,0,,*67
$PTNL,AVR,054502.00,,Yaw,,Tilt,,,,0,,00*31
$GPGSA,A,3,05,07,09,11,20,30,,,,,,,1.4,0.8,1.1*35
$GPGSA,A,3,71,72,73,74,88,,,,,,,,1.4,0.8,1.1*3B
$GPGSA,A,3,05,15,24,,,,,,,,,,1.4,0.8,1.1*38
$GPGSA,A,3,05,19,21,22,36,45,,,,,,,1.4,0.8,1.1*35
$GPGST,054502.00,4.901,0.853,0.518,350.847,0.846,0.529,1.674*52
$GPGBS,054502.00,4.279,3.842,7.970,72,0.0001,8.600,6.041*5C
$GPGRS,054502.00,1,-0.5,0.5,0.0,-0.1,-0.7,0.4,,,,,,*67
$GPGRS,054502.00,1,-4.7,8.6,0.3,-0.8,-3.7,,,,,,,*49
$GPGRS,054502.00,1,-0.5,3.7,-0.8,,,,,,,,,*6F
$GPGRS,054502.00,1,5.1,-7.0,-8.2,-4.1,-2.1,-4.8,,,,,,*66
$GPGSV,4,1,15,07,77,097,44,16,11,034,31,05,23,312,40,06,19,214,36*7F
$GPGSV,4,2,15,04,16,086,29,11,34,251,42,20,54,293,38,30,56,209,49*7C
$GPGSV,4,3,15,09,44,083,38,13,08,268,,14,02,172,,36,35,170,41*76
$GPGSV,4,4,15,34,31,208,,49,34,195,33,61,03,257,*41
$GLGSV,3,1,11,72,62,332,47,87,16,251,25,80,11,024,28,65,10,299,*6A
$GLGSV,3,2,11,88,22,311,44,73,54,067,45,74,49,150,42,71,51,084,39*6A
$GLGSV,3,3,11,81,04,359,25,70,08,107,,75,07,184,*51
$GAGSV,3,1,11,05,76,046,45,16,23,141,,09,24,082,29,31,25,055,33*64
$GAGSV,3,2,11,24,32,113,39,34,30,224,32,15,36,287,39,03,44,278,31*6C
$GAGSV,3,3,11,25,09,161,,06,03,086,,13,09,334,27*51
$GBGSV,6,1,21,22,83,337,47,06,11,051,,12,10,268,27,48,12,116,*60
$GBGSV,6,2,21,45,24,189,36,58,22,043,,05,22,129,37,09,26,052,35*63
$GBGSV,6,3,21,21,30,300,36,46,36,055,,19,38,113,40,36,59,135,49*6B
$GBGSV,6,4,21,34,09,295,31,40,00,077,,44,02,246,22,10,02,097,*63
$GBGSV,6,5,21,02,06,107,,16,09,050,,50,08,298,,11,06,316,*6E
$GBGSV,6,6,21,60,07,111,*58
$GPGGA,054502.00,,,,,0,00,,,M,,M,,*4E
$PTNL,GGK,054502.00,010125,4742.4465998,N,01617.9733112,E,1,20,1.4,EHT667.4864,M*41
$GPGGQ,054502.00,010125,4742.4465998,N,01617.9733112,E,1,20,1.949,624.2753,M*35
$GPGFA,054502.00,8.113,13.725,0.853,0.518,350.847,1.674,,VVV*37
$GPLLK,054502.00,010125,,M,,M,1,20,1.6,,M*08
$GNGMP,054502.00,,,,,DAAA,20,0.8,,,,*5A
$GPGMP,054502.00,,,,,,06,,,,2.5,123*7A
$GLGMP,054502.00,,,,,,05,,,,,*7C
$GAGMP,054502.00,,,,,,03,,,,,*77
$GBGMP,054502.00,,,,,,06,,,,,*71
$PSSN,SNC,[0,279920000,2347]*43
$GPZDA,054507.00,01,01,2025,,*60
$GPDTM,W84,,00.0000000,N,00.0000000,E,00.0000000,W84*5F
$GPRMC,054507.00,A,4742.4465948,N,01617.9733023,E,0.0,,010125,5.1,E,D*13
$GPGLL,4742.4465948,N,01617.9733023,E,054507.00,A,D*62
$GPGGA,054507.00,4742.4465948,N,01617.9733023,E,2,21,0.8,624.2519,M,43.2111,M,2.8,0123*45
$GNGNS,054507.00,4742.4465948,N,01617.9733023,E,DAAA,21,0.8,624.2519,43.2111,,*53
$GPGNS,054507.00,,,,,,06,,,,2.8,123*72
$GLGNS,054507.00,,,,,,05,,,,,*79
$GAGNS,054507.00,,,,,,03,,,,,*72
$GBGNS,054507.00,,,,,,07,,,,,*75
$GPLLQ,054507.00,010125,,M,,M,1,21,2.563,,M*13
$GPVTG,,T,,M,0.01,N,0.01,K,D*26
$GPHDT,,T*1B
$GPTHS,,V*0E
$GPROT,,V*08
$PSSN,HRP,054507.00,010125,,,,,,,00,0,,*62
$PTNL,AVR,054507.00,,Yaw,,Tilt,,,,0,,00*34
$GPGSA,A,3,05,07,09,11,20,30,,,,,,,1.3,0.8,1.1*32
$GPGSA,A,3,71,72,73,74,88,,,,,,,,1.3,0.8,1.1*3C
$GPGSA,A,3,05,15,24,,,,,,,,,,1.3,0.8,1.1*3F
$GPGSA,A,3,05,12,19,21,22,36,45,,,,,,1.3,0.8,1.1*31
$GPGST,054507.00,6.749,1.119,0.687,351.498,1.111,0.699,2.202*5F
$GPGBS,054507.00,4.359,3.862,7.644,72,0.0001,13.108,6.040*64
$GPGRS,054507.00,1,-0.7,0.2,0.8,-0.8,-0.4,0.4,,,,,,*65
$GPGRS,054507.00,1,-5.0,13.1,0.5,-1.2,-2.5,,,,,,,*79
$GPGRS,054507.00,1,-0.4,2.6,-1.1,,,,,,,,,*63
$GPGRS,054507.00,1,4.3,-4.3,-6.5,17.5,-4.2,-1.2,-4.4,,,,,*7B
$GPGSV,4,1,15,07,77,097,44,16,11,034,30,05,23,312,38,06,19,214,35*72
$GPGSV,4,2,15,04,16,086,28,11,34,251,41,20,54,293,37,30,57,209,48*71
$GPGSV,4,3,15,09,44,083,35,13,08,268,,14,02,172,,36,35,170,41*7B
$GPGSV,4,4,15,34,31,208,,49,34,195,33,61,03,257,*41
$GLGSV,3,1,11,72,62,332,47,87,16,251,,80,11,024,26,65,10,299,24*65
$GLGSV,3,2,11,88,22,311,44,73,54,067,47,74,49,150,42,71,51,084,39*68
$GLGSV,3,3,11,81,04,359,29,70,08,107,,75,07,184,*5D
$GAGSV,3,1,11,05,76,046,45,16,23,141,,09,24,083,,31,25,054,30*6C
$GAGSV,3,2,11,24,32,113,38,34,30,224,32,15,36,287,40,03,44,278,28*6B
$GAGSV,3,3,11,25,09,161,,06,03,086,,13,09,334,29*5F
$GBGSV,6,1,21,22,83,337,48,06,11,051,,12,10,268,30,48,12,116,*69
$GBGSV,6,2,21,45,24,189,38,58,22,043,,05,22,129,36,09,26,052,31*68
$GBGSV,6,3,21,21,30,300,37,46,36,055,,19,38,113,41,36,59,135,50*63
$GBGSV,6,4,21,34,09,295,34,40,00,077,,44,02,246,23,10,02,097,*67
$GBGSV,6,5,21,02,06,107,,16,09,050,,50,08,298,,11,06,316,*6E
$GBGSV,6,6,21,60,07,111,*58
$GPGGA,054507.00,,,,,0,00,,,M,,M,,*4B
$PTNL,GGK,054507.00,010125,4742.4465948,N,01617.9733023,E,1,21,1.3,EHT667.4630,M*43
$GPGGQ,054507.00,010125,4742.4465948,N,01617.9733023,E,1,21,2.563,624.2519,M*34
$GPGFA,054507.00,10.636,18.054,1.119,0.687,351.498,2.202,,VVV*0B
$GPLLK,054507.00,010125,,M,,M,1,21,1.5,,M*0F
$GNGMP,054507.00,,,,,DAAA,21,0.8,,,,*5E
$GPGMP,054507.00,,,,,,06,,,,2.8,123*72
$GLGMP,054507.00,,,,,,05,,,,,*79
$GAGMP,054507.00,,,,,,03,,,,,*72
$GBGMP,054507.00,,,,,,07,,,,,*75
$PSSN,SNC,[0,279925000,2347]*46
$GPZDA,054512.00,01,01,2025,,*64
$GPDTM,W84,,00.0000000,N,00.0000000,E,00.0000000,W84*5F
$GPRMC,054512.00,A,4742.4465982,N,01617.9733016,E,0.0,,010125,5.1,E,D*17
$GPGLL,4742.4465982,N,01617.9733016,E,054512.00,A,D*66
$GPGGA,054512.00,4742.4465982,N,01617.9733016,E,2,20,0.8,624.2373,M,43.2111,M,3.0,0123*43
$GNGNS,054512.00,4742.4465982,N,01617.9733016,E,DAAA,20,0.8,624.2373,43.2111,,*5C
$GPGNS,054512.00,,,,,,05,,,,3.0,123*7C
$GLGNS,054512.00,,,,,,05,,,,,*7D
$GAGNS,054512.00,,,,,,03,,,,,*76
$GBGNS,054512.00,,,,,,07,,,,,*71
$GPLLQ,054512.00,010125,,M,,M,1,20,4.210,,M*13
$GPVTG,,T,,M,0.00,N,0.01,K,D*27
$GPHDT,,T*1B
$GPTHS,,V*0E
$GPROT,,V*08
$PSSN,HRP,054512.00,010125,,,,,,,00,0,,*66
$PTNL,AVR,054512.00,,Yaw,,Tilt,,,,0,,00*30
$GPGSA,A,3,05,07,11,20,30,,,,,,,,1.3,0.8,1.0*3A
$GPGSA,A,3,71,72,73,74,88,,,,,,,,1.3,0.8,1.0*3D
$GPGSA,A,3,05,15,24,,,,,,,,,,1.3,0.8,1.0*3E
$GPGSA,A,3,05,19,21,22,34,36,45,,,,,,1.3,0.8,1.0*34
$GPGST,054512.00,8.313,1.772,1.177,276.563,1.187,1.765,3.632*57
$GPGBS,054512.00,4.400,7.105,15.273,34,0.0001,18.140,8.767*5D
$GPGRS,054512.00,1,-0.6,0.1,-0.3,-0.2,0.7,,,,,,,*4B
$GPGRS,054512.00,1,-6.2,10.7,1.1,-0.7,-4.3,,,,,,,*78
$GPGRS,054512.00,1,-0.5,3.2,-0.6,,,,,,,,,*65
$GPGRS,054512.00,1,4.4,-6.5,17.0,-3.8,18.1,-1.5,-4.2,,,,,*63
$GPGSV,4,1,15,07,77,097,44,16,11,034,29,05,23,312,38,06,19,214,34*7B
$GPGSV,4,2,15,04,16,086,28,11,34,251,40,20,54,293,37,30,57,209,46*7E
$GPGSV,4,3,15,09,44,083,31,13,08,268,,14,02,172,,36,35,170,41*7F
$GPGSV,4,4,15,34,31,208,,49,34,195,33,61,03,257,*41
$GLGSV,3,1,11,72,62,332,46,87,16,251,,80,11,024,24,65,10,299,28*6A
$GLGSV,3,2,11,88,22,311,43,73,54,067,48,74,49,150,42,71,51,084,36*6F
$GLGSV,3,3,11,81,04,359,31,70,08,107,,75,07,184,*54
$GAGSV,3,1,11,05,76,046,45,16,23,141,,09,24,083,30,31,25,054,28*66
$GAGSV,3,2,11,24,32,113,36,34,30,224,32,15,36,287,40,03,44,278,21*6C
$GAGSV,3,3,11,25,09,161,,06,03,086,,13,09,334,31*56
$GBGSV,6,1,21,22,83,337,48,06,11,051,,12,10,268,30,48,12,116,*69
$GBGSV,6,2,21,45,24,189,38,58,22,043,,05,22,129,36,09,26,052,32*6B
$GBGSV,6,3,21,21,30,300,36,46,36,055,,19,38,113,42,36,59,135,49*69
$GBGSV,6,4,21,34,09,295,36,40,00,077,,44,02,246,23,10,02,097,*65
$GBGSV,6,5,21,02,06,107,,16,09,050,,50,08,298,,11,06,316,*6E
$GBGSV,6,6,21,60,07,111,*58
$GPGGA,054512.00,,,,,0,00,,,M,,M,,*4F
$PTNL,GGK,054512.00,010125,4742.4465982,N,01617.9733016,E,1,20,1.3,EHT667.4484,M*4B
$GPGGQ,054512.00,010125,4742.4465982,N,01617.9733016,E,1,20,4.210,624.2373,M*3E
$GPGFA,054512.00,16.845,29.786,1.772,1.177,276.563,3.632,,VVV*0C
$GPLLK,054512.00,010125,,M,,M,1,20,1.5,,M*0A
$GNGMP,054512.00,,,,,DAAA,20,0.8,,,,*5B
$GPGMP,054512.00,,,,,,05,,,,3.0,123*7C
$GLGMP,054512.00,,,,,,05,,,,,*7D
$GAGMP,054512.00,,,,,,03,,,,,*76
$GBGMP,054512.00,,,,,,07,,,,,*71
$PSSN,SNC,[0,279930000,2347]*42
$GPZDA,054517.00,01,01,2025,,*61
$GPDTM,W84,,00.0000000,N,00.0000000,E,00.0000000,W84*5F
$GPRMC,054517.00,A,4742.4466032,N,01617.9733181,E,0.0,,010125,5.1,E,D*1C
$GPGLL,4742.4466032,N,01617.9733181,E,054517.00,A,D*6D
$GPGGA,054517.00,4742.4466032,N,01617.9733181,E,2,21,0.7,624.2236,M,43.2111,M,1.5,0123*41
$GNGNS,054517.00,4742.4466032,N,01617.9733181,E,DAAA,21,0.7,624.2236,43.2111,,*59
$GPGNS,054517.00,,,,,,06,,,,1.5,123*7D
$GLGNS,054517.00,,,,,,05,,,,,*78
$GAGNS,054517.00,,,,,,04,,,,,*74
$GBGNS,054517.00,,,,,,06,,,,,*75
$GPLLQ,054517.00,010125,,M,,M,1,21,2.672,,M*11
$GPVTG,,T,,M,0.00,N,0.01,K,D*27
$GPHDT,,T*1B
$GPTHS,,V*0E
$GPROT,,V*08
$PSSN,HRP,054517.00,010125,,,,,,,00,0,,*63
$PTNL,AVR,054517.00,,Yaw,,Tilt,,,,0,,00*35
$GPGSA,A,3,05,07,09,11,20,30,,,,,,,1.3,0.7,1.1*3D
$GPGSA,A,3,72,73,74,87,88,,,,,,,,1.3,0.7,1.1*3A
$GPGSA,A,3,03,05,15,24,,,,,,,,,1.3,0.7,1.1*33
$GPGSA,A,3,05,19,21,22,36,45,,,,,,,1.3,0.7,1.1*3D
$GPGST,054517.00,4.924,1.153,0.719,351.275,1.145,0.732,2.300*56
$GPGBS,054517.00,4.201,3.761,7.672,09,0.0001,-1.774,0.645*7A
$GPGRS,054517.00,1,0.3,0.1,-1.8,0.2,0.3,1.2,,,,,,*68
$GPGRS,054517.00,1,4.0,1.5,-0.2,-4.6,-3.6,,,,,,,*4A
$GPGRS,054517.00,1,-1.9,-0.2,3.8,-0.1,,,,,,,,*61
$GPGRS,054517.00,1,4.1,-6.8,13.0,-3.9,-2.3,-3.5,,,,,,*78
$GPGSV,4,1,15,07,77,096,45,16,11,034,30,05,23,312,39,06,19,214,33*75
$GPGSV,4,2,15,04,16,086,27,11,34,251,40,20,54,293,39,30,57,209,45*7C
$GPGSV,4,3,15,09,44,083,38,13,08,269,,14,02,172,,36,35,170,41*77
$GPGSV,4,4,15,34,31,208,,49,34,195,33,61,03,257,*41
$GLGSV,3,1,11,72,62,332,45,87,16,251,36,80,10,024,26,65,10,299,25*62
$GLGSV,3,2,11,88,22,311,44,73,54,066,49,74,50,150,42,71,51,084,31*67
$GLGSV,3,3,11,81,04,359,34,70,08,107,,75,07,184,*51
$GAGSV,3,1,11,05,76,046,45,16,23,141,,09,24,083,30,31,25,054,24*6A
$GAGSV,3,2,11,24,32,113,36,34,30,224,33,15,36,287,42,03,44,278,34*6B
$GAGSV,3,3,11,25,09,161,,06,02,086,,13,09,334,29*5E
$GBGSV,6,1,21,22,83,337,49,06,11,051,,12,10,268,28,48,12,116,*61
$GBGSV,6,2,21,45,24,189,38,58,22,043,,05,22,129,36,09,26,052,32*6B
$GBGSV,6,3,21,21,30,300,35,46,36,055,,19,38,113,43,36,59,135,49*6B
$GBGSV,6,4,21,34,09,295,34,40,00,077,,44,02,246,21,10,02,097,*65
$GBGSV,6,5,21,02,06,107,,16,09,050,,50,08,298,,11,06,316,*6E
$GBGSV,6,6,21,60,07,111,*58
$GPGGA,054517.00,,,,,0,00,,,M,,M,,*4A
$PTNL,GGK,054517.00,010125,4742.4466032,N,01617.9733181,E,1,21,1.3,EHT667.4347,M*49
$GPGGQ,054517.00,010125,4742.4466032,N,01617.9733181,E,1,21,2.672,624.2236,M*32
$GPGFA,054517.00,10.962,18.863,1.153,0.719,351.275,2.300,,VVV*06
$GPLLK,054517.00,010125,,M,,M,1,21,1.5,,M*0E
$GNGMP,054517.00,,,,,DAAA,21,0.7,,,,*50
$GPGMP,054517.00,,,,,,06,,,,1.5,123*7D
$GLGMP,054517.00,,,,,,05,,,,,*78
$GAGMP,054517.00,,,,,,04,,,,,*74
$GBGMP,054517.00,,,,,,06,,,,,*75
$PSSN,SNC,[0,279935000,2347]*47
$GPZDA,054522.00,01,01,2025,,*67
$GPDTM,W84,,00.0000000,N,00.0000000,E,00.0000000,W84*5F
$GPRMC,054522.00,A,4742.4466026,N,01617.9733315,E,0.0,,010125,5.1,E,D*10
$GPGLL,4742.4466026,N,01617.9733315,E,054522.00,A,D*61
$GPGGA,054522.00,4742.4466026,N,01617.9733315,E,2,20,0.8,624.2161,M,43.2111,M,2.5,0123*41
$GNGNS,054522.00,4742.4466026,N,01617.9733315,E,DAAA,20,0.8,624.2161,43.2111,,*5A
$GPGNS,054522.00,,,,,,06,,,,2.5,123*78
$GLGNS,054522.00,,,,,,05,,,,,*7E
$GAGNS,054522.00,,,,,,03,,,,,*75
$GBGNS,054522.00,,,,,,06,,,,,*73
$GPLLQ,054522.00,010125,,M,,M,1,20,2.542,,M*16
$GPVTG,,T,,M,0.00,N,0.01,K,D*27
$GPHDT,,T*1B
$GPTHS,,V*0E
$GPROT,,V*08
$PSSN,HRP,054522.00,010125,,,,,,,00,0,,*65
$PTNL,AVR,054522.00,,Yaw,,Tilt,,,,0,,00*33
$GPGSA,A,3,05,07,09,11,20,30,,,,,,,1.3,0.8,1.1*32
$GPGSA,A,3,72,73,74,87,88,,,,,,,,1.3,0.8,1.1*35
$GPGSA,A,3,05,15,24,,,,,,,,,,1.3,0.8,1.1*3F
$GPGSA,A,3,05,19,21,22,36,45,,,,,,,1.3,0.8,1.1*32
$GPGST,054522.00,4.814,1.116,0.681,350.704,1.107,0.696,2.179*54
$GPGBS,054522.00,4.227,3.847,7.765,05,0.0001,1.997,0.904*5C
$GPGRS,054522.00,1,2.0,0.4,-1.2,-0.3,-0.5,0.4,,,,,,*60
$GPGRS,054522.00,1,1.5,2.0,-0.9,-0.2,-2.2,,,,,,,*44
$GPGRS,054522.00,1,-0.1,3.5,-0.5,,,,,,,,,*66
$GPGRS,054522.00,1,4.1,-7.1,12.8,-4.2,-3.2,-3.5,,,,,,*73
$GPGSV,4,1,15,07,77,096,45,16,11,034,29,05,23,312,41,06,19,214,33*72
$GPGSV,4,2,15,04,16,086,22,11,34,251,42,20,54,293,40,30,57,209,44*74
$GPGSV,4,3,15,09,44,083,38,13,08,269,,14,02,172,,36,35,170,41*77
$GPGSV,4,4,15,34,31,208,,49,34,195,33,61,03,257,*41
$GLGSV,3,1,11,72,62,333,45,87,16,251,38,80,10,024,27,65,10,299,27*6E
$GLGSV,3,2,11,88,22,311,45,73,54,066,49,74,50,150,42,71,51,085,34*62
$GLGSV,3,3,11,81,04,359,35,70,08,107,,75,07,184,*50
$GAGSV,3,1,11,05,76,046,45,16,23,141,,09,24,083,29,31,25,054,21*67
$GAGSV,3,2,11,24,32,113,36,34,30,224,33,15,36,287,42,03,44,278,27*69
$GAGSV,3,3,11,25,09,161,,06,02,086,,13,09,334,28*5F
$GBGSV,6,1,21,22,83,338,49,06,11,051,,12,10,268,27,48,12,116,*61
$GBGSV,6,2,21,45,24,189,38,58,22,043,,05,22,129,36,09,26,052,32*6B
$GBGSV,6,3,21,21,30,300,35,46,36,055,,19,38,113,43,36,59,135,48*6A
$GBGSV,6,4,21,34,09,295,31,40,00,077,,44,02,246,,10,02,097,*63
$GBGSV,6,5,21,02,06,107,,16,09,050,,50,08,298,,11,06,316,*6E
$GBGSV,6,6,21,60,07,111,*58
$GPGGA,054522.00,,,,,0,00,,,M,,M,,*4C
$PTNL,GGK,054522.00,010125,4742.4466026,N,01617.9733315,E,1,20,1.3,EHT667.4272,M*43
$GPGGQ,054522.00,010125,4742.4466026,N,01617.9733315,E,1,20,2.542,624.2161,M*3E
$GPGFA,054522.00,10.613,17.871,1.116,0.681,350.704,2.179,,VVV*0A
$GPLLK,054522.00,010125,,M,,M,1,20,1.6,,M*0A
$GNGMP,054522.00,,,,,DAAA,20,0.8,,,,*58
$GPGMP,054522.00,,,,,,06,,,,2.5,123*78
$GLGMP,054522.00,,,,,,05,,,,,*7E
$GAGMP,054522.00,,,,,,03,,,,,*75
$GBGMP,054522.00,,,,,,06,,,,,*73
$PSSN,SNC,[0,279940000,2347]*45
$GPZDA,054527.00,01,01,2025,,*62
$GPDTM,W84,,00.0000000,N,00.0000000,E,00.0000000,W84*5F
$GPRMC,054527.00,A,4742.4465946,N,01617.9733473,E,0.0,,010125,5.1,E,D*1E
$GPGLL,4742.4465946,N,01617.9733473,E,054527.00,A,D*6F
$GPGGA,054527.00,4742.4465946,N,01617.9733473,E,2,21,0.7,624.2147,M,43.2111,M,2.8,0123*48
$GNGNS,054527.00,4742.4465946,N,01617.9733473,E,DAAA,21,0.7,624.2147,43.2111,,*5E
$GPGNS,054527.00,,,,,,06,,,,2.8,123*70
$GLGNS,054527.00,,,,,,06,,,,,*78
$GAGNS,054527.00,,,,,,03,,,,,*70
$GBGNS,054527.00,,,,,,06,,,,,*76
$GPLLQ,054527.00,010125,,M,,M,1,21,2.635,,M*11
$GPVTG,,T,,M,0.00,N,0.01,K,D*27
$GPHDT,,T*1B
$GPTHS,,V*0E
$GPROT,,V*08
$PSSN,HRP,054527.00,010125,,,,,,,00,0,,*60
$PTNL,AVR,054527.00,,Yaw,,Tilt,,,,0,,00*36
$GPGSA,A,3,05,07,09,11,20,30,,,,,,,1.3,0.7,1.1*3D
$GPGSA,A,3,71,72,73,74,87,88,,,,,,,1.3,0.7,1.1*3C
$GPGSA,A,3,05,15,24,,,,,,,,,,1.3,0.7,1.1*30
$GPGSA,A,3,05,19,21,22,36,45,,,,,,,1.3,0.7,1.1*3D
$GPGST,054527.00,5.476,1.158,0.707,351.765,1.150,0.719,2.259*5E
$GPGBS,054527.00,4.295,3.822,7.449,05,0.0001,2.130,0.915*58
$GPGRS,054527.00,1,2.1,0.1,-1.1,0.3,-0.4,-0.1,,,,,,*66
$GPGRS,054527.00,1,-4.0,4.9,1.0,-1.3,4.5,-3.5,,,,,,*6F
$GPGRS,054527.00,1,-0.6,2.8,0.0,,,,,,,,,*40
$GPGRS,054527.00,1,3.3,-7.2,15.0,-4.3,-3.6,-3.5,,,,,,*7A
$GPGSV,4,1,15,07,77,096,46,16,11,034,31,05,23,312,43,06,19,214,32*7B
$GPGSV,4,2,15,04,16,086,24,11,34,251,44,20,54,293,40,30,57,209,44*74
$GPGSV,4,3,15,09,44,083,39,13,08,269,24,14,03,172,,36,35,170,41*71
$GPGSV,4,4,15,34,31,208,,49,34,195,33,61,03,257,*41
$GLGSV,3,1,11,72,62,333,45,87,16,251,37,80,10,024,28,65,10,299,26*6F
$GLGSV,3,2,11,88,22,311,44,73,54,066,49,74,50,150,43,71,51,085,38*6E
$GLGSV,3,3,11,81,04,359,36,70,08,107,,75,07,184,*53
$GAGSV,3,1,11,05,76,046,46,16,23,141,,09,24,083,27,31,25,054,22*69
$GAGSV,3,2,11,24,32,113,38,34,30,224,32,15,36,287,42,03,44,278,33*63
$GAGSV,3,3,11,25,09,161,,06,02,086,,13,09,334,24*53
$GBGSV,6,1,21,22,83,338,50,06,11,051,,12,10,268,27,48,12,116,*69
$GBGSV,6,2,21,45,24,189,37,58,22,043,,05,22,129,36,09,26,052,33*65
$GBGSV,6,3,21,21,30,300,35,46,36,055,,19,38,113,43,36,59,135,47*65
$GBGSV,6,4,21,34,09,295,29,40,00,077,,44,02,246,,10,02,097,*6A
$GBGSV,6,5,21,02,06,107,,16,09,050,,50,08,298,,11,06,316,*6E
$GBGSV,6,6,21,60,07,111,*58
$GPGGA,054527.00,,,,,0,00,,,M,,M,,*49
$PTNL,GGK,054527.00,010125,4742.4465946,N,01617.9733473,E,1,21,1.3,EHT667.4257,M*4B
$GPGGQ,054527.00,010125,4742.4465946,N,01617.9733473,E,1,21,2.635,624.2147,M*36
$GPGFA,054527.00,11.007,18.521,1.158,0.707,351.765,2.259,,VVV*08
$GPLLK,054527.00,010125,,M,,M,1,21,1.5,,M*0D
$GNGMP,054527.00,,,,,DAAA,21,0.7,,,,*53
$GPGMP,054527.00,,,,,,06,,,,2.8,123*70
$GLGMP,054527.00,,,,,,06,,,,,*78
$GAGMP,054527.00,,,,,,03,,,,,*70
$GBGMP,054527.00,,,,,,06,,,,,*76
$PSSN,SNC,[0,279945000,2347]*40
$GPZDA,054532.00,01,01,2025,,*66
$GPDTM,W84,,00.0000000,N,00.0000000,E,00.0000000,W84*5F
$GPRMC,054532.00,A,4742.4465951,N,01617.9733615,E,0.0,,010125,5.1,E,D*1E
$GPGLL,4742.4465951,N,01617.9733615,E,054532.00,A,D*6F
$GPGGA,054532.00,4742.4465951,N,01617.9733615,E,2,20,0.8,624.2230,M,43.2111,M,3.2,0123*4E
$GNGNS,054532.00,4742.4465951,N,01617.9733615,E,DAAA,20,0.8,624.2230,43.2111,,*53
$GPGNS,054532.00,,,,,,06,,,,3.2,123*7F
$GLGNS,054532.00,,,,,,06,,,,,*7C
$GAGNS,054532.00,,,,,,03,,,,,*74
$GBGNS,054532.00,,,,,,05,,,,,*71
$GPLLQ,054532.00,010125,,M,,M,1,20,2.610,,M*13
$GPVTG,,T,,M,0.01,N,0.01,K,D*26
$GPHDT,,T*1B
$GPTHS,,V*0E
$GPROT,,V*08
$PSSN,HRP,054532.00,010125,,,,,,,00,0,,*64
$PTNL,AVR,054532.00,,Yaw,,Tilt,,,,0,,00*32
$GPGSA,A,3,05,07,09,11,20,30,,,,,,,1.3,0.8,1.1*32
$GPGSA,A,3,71,72,73,74,87,88,,,,,,,1.3,0.8,1.1*33
$GPGSA,A,3,05,15,24,,,,,,,,,,1.3,0.8,1.1*3F
$GPGSA,A,3,05,19,22,36,45,,,,,,,,1.3,0.8,1.1*31
$GPGST,054532.00,4.304,0.999,0.867,312.370,0.930,0.942,2.250*55
$GPGBS,054532.00,4.337,3.927,7.556,09,0.0001,-1.190,0.690*74
$GPGRS,054532.00,1,1.0,-0.4,-1.2,0.4,-0.4,0.6,,,,,,*66
$GPGRS,054532.00,1,-3.1,6.6,0.7,-1.6,6.6,-5.7,,,,,,*66
$GPGRS,054532.00,1,-1.0,0.2,0.2,,,,,,,,,*49
$GPGRS,054532.00,1,3.2,-6.7,-4.4,-4.4,-3.2,,,,,,,*64
$GPGSV,4,1,15,07,77,096,45,16,11,034,32,05,23,312,43,06,19,214,31*78
$GPGSV,4,2,15,04,16,086,21,11,34,251,45,20,54,293,39,30,57,209,45*7F
$GPGSV,4,3,15,09,43,083,39,13,08,269,21,14,03,172,,36,35,170,41*73
$GPGSV,4,4,15,34,31,208,,49,34,195,33,61,03,257,*41
$GLGSV,3,1,11,72,62,333,44,87,16,251,37,80,10,024,29,65,10,299,31*69
$GLGSV,3,2,11,88,22,310,45,73,54,066,49,74,50,150,43,71,51,085,42*63
$GLGSV,3,3,11,81,04,359,35,70,08,107,,75,07,184,*50
$GAGSV,3,1,11,05,76,046,45,16,23,141,,09,24,083,27,31,25,054,37*6E
$GAGSV,3,2,11,24,32,113,39,34,30,224,32,15,36,287,40,03,44,278,36*65
$GAGSV,3,3,11,25,09,161,,06,02,086,,13,09,334,30*56
$GBGSV,6,1,21,22,83,338,51,06,11,051,,12,10,268,26,48,12,116,*69
$GBGSV,6,2,21,45,24,189,35,58,22,043,,05,22,129,36,09,26,052,33*67
$GBGSV,6,3,21,21,30,300,34,46,36,055,,19,38,113,43,36,59,134,46*64
$GBGSV,6,4,21,34,09,294,29,40,00,077,,44,02,246,,10,03,097,*6A
$GBGSV,6,5,21,02,06,107,,16,09,050,,50,08,298,,11,06,316,*6E
$GBGSV,6,6,21,60,07,111,*58
$GPGGA,054532.00,,,,,0,00,,,M,,M,,*4D
$PTNL,GGK,054532.00,010125,4742.4465951,N,01617.9733615,E,1,20,1.3,EHT667.4341,M*4C
$GPGGQ,054532.00,010125,4742.4465951,N,01617.9733615,E,1,20,2.610,624.2230,M*33
$GPGFA,054532.00,9.501,18.449,0.999,0.867,312.370,2.250,,VVV*3A
$GPLLK,054532.00,010125,,M,,M,1,20,1.6,,M*0B
$GNGMP,054532.00,,,,,DAAA,20,0.8,,,,*59
$GPGMP,054532.00,,,,,,06,,,,3.2,123*7F
$GLGMP,054532.00,,,,,,06,,,,,*7C
$GAGMP,054532.00,,,,,,03,,,,,*74
$GBGMP,054532.00,,,,,,05,,,,,*71
$PSSN,SNC,[0,279950000,2347]*44
$GPZDA,054537.00,01,01,2025,,*63
$GPDTM,W84,,00.0000000,N,00.0000000,E,00.0000000,W84*5F
$GPRMC,054537.00,A,4742.4466042,N,01617.9733796,E,0.0,,010125,5.1,E,D*19
$GPGLL,4742.4466042,N,01617.9733796,E,054537.00,A,D*68
$GPGGA,054537.00,4742.4466042,N,01617.9733796,E,2,21,0.8,624.2183,M,43.2111,M,1.5,0123*46
$GNGNS,054537.00,4742.4466042,N,01617.9733796,E,DAAA,21,0.8,624.2183,43.2111,,*5E
$GPGNS,054537.00,,,,,,06,,,,1.5,123*7F
$GLGNS,054537.00,,,,,,06,,,,,*79
$GAGNS,054537.00,,,,,,05,,,,,*77
$GBGNS,054537.00,,,,,,04,,,,,*75
$GPLLQ,054537.00,010125,,M,,M,1,21,2.461,,M*13
$GPVTG,,T,,M,0.01,N,0.01,K,D*26
$GPHDT,,T*1B
$GPTHS,,V*0E
$GPROT,,V*08
$PSSN,HRP,054537.00,010125,,,,,,,00,0,,*61
$PTNL,AVR,054537.00,,Yaw,,Tilt,,,,0,,00*37
$GPGSA,A,3,05,07,09,11,20,30,,,,,,,1.4,0.8,1.1*35
$GPGSA,A,3,71,72,73,74,87,88,,,,,,,1.4,0.8,1.1*34
$GPGSA,A,3,03,05,15,24,34,,,,,,,,1.4,0.8,1.1*3C
$GPGSA,A,3,05,19,22,36,,,,,,,,,1.4,0.8,1.1*37
$GPGST,054537.00,3.438,1.068,0.660,350.910,1.060,0.673,2.116*5B
$GPGBS,054537.00,4.159,3.743,7.614,09,0.0001,-1.598,0.641*72
$GPGRS,054537.00,1,-0.2,-0.1,-1.6,0.5,-0.1,1.5,,,,,,*4A
$GPGRS,054537.00,1,-1.7,2.0,0.5,-1.9,3.8,-5.1,,,,,,*65
$GPGRS,054537.00,1,-2.2,-0.2,-1.0,0.7,-5.0,,,,,,,*61
$GPGRS,054537.00,1,3.7,-5.7,-3.6,-4.4,,,,,,,,*60
$GPGSV,4,1,15,07,77,096,45,16,11,034,33,05,23,312,43,06,19,214,31*79
$GPGSV,4,2,15,04,16,086,20,11,34,251,44,20,54,293,38,30,57,209,45*7E
$GPGSV,4,3,15,09,43,083,39,13,08,269,22,14,03,172,,36,35,170,41*70
$GPGSV,4,4,15,34,31,208,,49,34,195,33,61,03,257,*41
$GLGSV,3,1,11,72,62,333,42,87,16,251,37,80,10,024,32,65,10,299,33*67
$GLGSV,3,2,11,88,22,310,46,73,54,066,48,74,50,150,43,71,51,085,45*66
$GLGSV,3,3,11,81,04,359,,70,08,107,,75,07,184,*56
$GAGSV,3,1,11,05,76,046,45,16,23,141,,09,24,083,27,31,25,054,37*6E
$GAGSV,3,2,11,24,32,113,40,34,30,224,34,15,36,287,38,03,44,278,37*63
$GAGSV,3,3,11,25,09,161,,06,02,086,,13,09,334,30*56
$GBGSV,6,1,21,22,83,338,52,06,11,051,,12,10,268,24,48,12,116,*68
$GBGSV,6,2,21,45,24,189,33,58,22,043,,05,22,129,36,09,26,052,33*61
$GBGSV,6,3,21,21,30,300,33,46,36,055,,19,38,113,42,36,59,134,46*62
$GBGSV,6,4,21,34,09,294,22,40,00,077,,44,02,246,,10,03,097,*61
$GBGSV,6,5,21,02,06,107,,16,09,050,,50,08,298,,11,06,316,*6E
$GBGSV,6,6,21,60,07,111,*58
$GPGGA,054537.00,,,,,0,00,,,M,,M,,*48
$PTNL,GGK,054537.00,010125,4742.4466042,N,01617.9733796,E,1,21,1.4,EHT667.4294,M*44
$GPGGQ,054537.00,010125,4742.4466042,N,01617.9733796,E,1,21,2.461,624.2183,M*3A
$GPGFA,054537.00,10.156,17.352,1.068,0.660,350.910,2.116,,VVV*07
$GPLLK,054537.00,010125,,M,,M,1,21,1.6,,M*0F
$GNGMP,054537.00,,,,,DAAA,21,0.8,,,,*5D
$GPGMP,054537.00,,,,,,06,,,,1.5,123*7F
$GLGMP,054537.00,,,,,,06,,,,,*79
$GAGMP,054537.00,,,,,,05,,,,,*77
$GBGMP,054537.00,,,,,,04,,,,,*75
$PSSN,SNC,[0,279955000,2347]*41
$GPZDA,054542.00,01,01,2025,,*61
$GPDTM,W84,,00.0000000,N,00.0000000,E,00.0000000,W84*5F
$GPRMC,054542.00,A,4742.4466133,N,01617.9734028,E,0.0,,010125,5.1,E,D*19
$GPGLL,4742.4466133,N,01617.9734028,E,054542.00,A,D*68
$GPGGA,054542.00,4742.4466133,N,01617.9734028,E,2,21,0.8,624.1961,M,43.2111,M,2.5,0123*42
$GNGNS,054542.00,4742.4466133,N,01617.9734028,E,DAAA,21,0.8,624.1961,43.2111,,*59
$GPGNS,054542.00,,,,,,06,,,,2.5,123*7E
$GLGNS,054542.00,,,,,,06,,,,,*7B
$GAGNS,054542.00,,,,,,05,,,,,*75
$GBGNS,054542.00,,,,,,04,,,,,*77
$GPLLQ,054542.00,010125,,M,,M,1,21,2.616,,M*13
$GPVTG,,T,,M,0.00,N,0.01,K,D*27
$GPHDT,,T*1B
$GPTHS,,V*0E
$GPROT,,V*08
$PSSN,HRP,054542.00,010125,,,,,,,00,0,,*63
$PTNL,AVR,054542.00,,Yaw,,Tilt,,,,0,,00*35
$GPGSA,A,3,05,07,09,11,20,30,,,,,,,1.4,0.8,1.1*35
$GPGSA,A,3,71,72,73,74,87,88,,,,,,,1.4,0.8,1.1*34
$GPGSA,A,3,03,05,15,24,34,,,,,,,,1.4,0.8,1.1*3C
$GPGSA,A,3,05,19,22,36,,,,,,,,,1.4,0.8,1.1*37
$GPGST,054542.00,2.966,1.156,0.699,350.619,1.146,0.714,2.241*56
$GPGBS,054542.00,4.207,3.815,7.752,09,0.0001,-1.887,0.655*71
$GPGRS,054542.00,1,-0.2,0.1,-1.9,-0.1,0.6,1.5,,,,,,*69
$GPGRS,054542.00,1,1.6,-0.8,0.4,-1.7,0.9,-4.4,,,,,,*65
$GPGRS,054542.00,1,-3.2,0.1,-0.8,1.0,-4.2,,,,,,,*40
$GPGRS,054542.00,1,4.4,-4.4,-3.1,-3.6,,,,,,,,*66
$GPGSV,4,1,15,07,77,096,46,16,11,034,32,05,23,312,44,06,18,214,30*7C
$GPGSV,4,2,15,04,16,086,25,11,33,251,42,20,54,293,37,30,57,209,46*76
$GPGSV,4,3,15,09,43,083,39,13,08,269,22,14,03,172,,36,35,170,41*70
$GPGSV,4,4,15,34,31,208,,49,34,195,33,61,03,257,*41
$GLGSV,3,1,11,72,62,333,42,87,16,251,36,80,10,024,24,65,10,299,33*61
$GLGSV,3,2,11,88,22,310,46,73,54,066,47,74,50,150,43,71,51,085,46*6A
$GLGSV,3,3,11,81,04,359,,70,08,107,,75,07,184,*56
$GAGSV,3,1,11,05,76,046,45,16,23,141,,09,24,083,28,31,25,054,28*6F
$GAGSV,3,2,11,24,32,113,41,34,30,224,36,15,36,287,37,03,44,278,37*6F
$GAGSV,3,3,11,25,09,161,,06,02,086,,13,09,334,33*55
$GBGSV,6,1,21,22,83,338,52,06,11,051,,12,10,268,24,48,12,116,*68
$GBGSV,6,2,21,45,24,189,30,58,22,043,,05,22,129,37,09,26,052,34*64
$GBGSV,6,3,21,21,30,300,33,46,36,055,,19,38,113,42,36,59,134,45*61
$GBGSV,6,4,21,34,09,294,31,40,00,077,,44,02,246,,10,03,097,*63
$GBGSV,6,5,21,02,06,107,,16,09,050,,50,08,298,,11,06,316,*6E
$GBGSV,6,6,21,60,07,111,*58
$GPGGA,054542.00,,,,,0,00,,,M,,M,,*4A
$PTNL,GGK,054542.00,010125,4742.4466133,N,01617.9734028,E,1,21,1.4,EHT667.4071,M*4D
$GPGGQ,054542.00,010125,4742.4466133,N,01617.9734028,E,1,21,2.616,624.1961,M*3F
$GPGFA,054542.00,10.991,18.375,1.156,0.699,350.619,2.241,,VVV*01
$GPLLK,054542.00,010125,,M,,M,1,21,1.6,,M*0D
$GNGMP,054542.00,,,,,DAAA,21,0.8,,,,*5F
$GPGMP,054542.00,,,,,,06,,,,2.5,123*7E
$GLGMP,054542.00,,,,,,06,,,,,*7B
$GAGMP,054542.00,,,,,,05,,,,,*75
$GBGMP,054542.00,,,,,,04,,,,,*77
$PSSN,SNC,[0,279960000,2347]*47
$GPZDA,054547.00,01,01,2025,,*64
$GPDTM,W84,,00.0000000,N,00.0000000,E,00.0000000,W84*5F
$GPRMC,054547.00,A,4742.4466171,N,01617.9734157,E,0.0,,010125,5.1,E,D*13
$GPGLL,4742.4466171,N,01617.9734157,E,054547.00,A,D*62
$GPGGA,054547.00,4742.4466171,N,01617.9734157,E,2,21,0.8,624.1742,M,43.2111,M,2.8,0123*4A
$GNGNS,054547.00,4742.4466171,N,01617.9734157,E,DAAA,21,0.8,624.1742,43.2111,,*5C
$GPGNS,054547.00,,,,,,06,,,,2.8,123*76
$GLGNS,054547.00,,,,,,06,,,,,*7E
$GAGNS,054547.00,,,,,,05,,,,,*70
$GBGNS,054547.00,,,,,,04,,,,,*72
$GPLLQ,054547.00,010125,,M,,M,1,21,2.933,,M*1E
$GPVTG,,T,,M,0.00,N,0.01,K,D*27
$GPHDT,,T*1B
$GPTHS,,V*0E
$GPROT,,V*08
$PSSN,HRP,054547.00,010125,,,,,,,00,0,,*66
$PTNL,AVR,054547.00,,Yaw,,Tilt,,,,0,,00*30
$GPGSA,A,3,05,07,09,11,20,30,,,,,,,1.4,0.8,1.1*35
$GPGSA,A,3,71,72,73,74,87,88,,,,,,,1.4,0.8,1.1*34
$GPGSA,A,3,03,05,15,24,34,,,,,,,,1.4,0.8,1.1*3C
$GPGSA,A,3,05,19,22,36,,,,,,,,,1.4,0.8,1.1*37
$GPGST,054547.00,3.040,1.294,0.787,351.520,1.285,0.802,2.512*51
$GPGBS,054547.00,4.286,3.825,7.433,09,0.0001,-1.827,0.676*71
$GPGRS,054547.00,1,0.6,0.8,-1.8,-1.7,0.0,1.3,,,,,,*4A
$GPGRS,054547.00,1,4.8,1.2,-0.1,-1.8,3.9,-3.9,,,,,,*63
$GPGRS,054547.00,1,-3.3,0.2,-0.5,0.9,-1.0,,,,,,,*45
$GPGRS,054547.00,1,4.8,-4.1,-2.5,-2.0,,,,,,,,*68
$GPGSV,4,1,15,07,77,096,46,16,11,034,32,05,23,312,45,06,18,214,30*7D
$GPGSV,4,2,15,04,16,086,,11,33,251,40,20,54,293,37,30,57,209,46*73
$GPGSV,4,3,15,09,43,083,38,13,08,269,,14,03,172,,36,35,170,41*71
$GPGSV,4,4,15,34,31,208,,49,34,195,34,61,03,257,*46
$GLGSV,3,1,11,72,62,333,44,87,16,251,35,80,10,024,32,65,10,299,33*63
$GLGSV,3,2,11,88,22,310,45,73,53,066,46,74,50,150,43,71,51,085,46*6F
$GLGSV,3,3,11,81,04,359,32,70,08,107,,75,07,184,*57
$GAGSV,3,1,11,05,76,047,45,16,23,141,,09,24,083,30,31,25,054,35*6B
$GAGSV,3,2,11,24,32,113,41,34,30,224,38,15,36,287,38,03,44,278,37*6E
$GAGSV,3,3,11,25,09,161,,06,02,086,,13,09,334,32*54
$GBGSV,6,1,21,22,84,338,53,06,11,051,,48,12,116,,58,22,043,*6C
$GBGSV,6,2,21,05,22,129,36,45,24,189,28,09,26,052,34,21,30,300,34*62
$GBGSV,6,3,21,46,36,055,,19,38,113,42,36,59,134,45,34,09,294,32*62
$GBGSV,6,4,21,02,06,107,,40,00,077,,44,02,246,,11,06,316,*6C
$GBGSV,6,5,21,16,09,050,,10,03,097,,50,08,298,,12,10,268,31*6E
$GBGSV,6,6,21,60,07,111,*58
$GPGGA,054547.00,,,,,0,00,,,M,,M,,*4F
$PTNL,GGK,054547.00,010125,4742.4466171,N,01617.9734157,E,1,21,1.4,EHT667.3853,M*48
$GPGGQ,054547.00,010125,4742.4466171,N,01617.9734157,E,1,21,2.933,624.1742,M*32
$GPGFA,054547.00,12.304,20.599,1.294,0.787,351.520,2.512,,VVV*05
$GPLLK,054547.00,010125,,M,,M,1,21,1.6,,M*08
$GNGMP,054547.00,,,,,DAAA,21,0.8,,,,*5A
$GPGMP,054547.00,,,,,,06,,,,2.8,123*76
$GLGMP,054547.00,,,,,,06,,,,,*7E
$GAGMP,054547.00,,,,,,05,,,,,*70
$GBGMP,054547.00,,,,,,04,,,,,*72
$PSSN,SNC,[0,279965000,2347]*42
$GPZDA,054552.00,01,01,2025,,*60
$GPDTM,W84,,00.0000000,N,00.0000000,E,00.0000000,W84*5F
$GPRMC,054552.00,A,4742.4466144,N,01617.9734186,E,0.0,,010125,5.1,E,D*1D
$GPGLL,4742.4466144,N,01617.9734186,E,054552.00,A,D*6C
$GPGGA,054552.00,4742.4466144,N,01617.9734186,E,2,20,0.8,624.1438,M,43.2111,M,3.2,0123*40
$GNGNS,054552.00,4742.4466144,N,01617.9734186,E,DAAA,20,0.8,624.1438,43.2111,,*5D
$GPGNS,054552.00,,,,,,06,,,,3.2,123*79
$GLGNS,054552.00,,,,,,05,,,,,*79
$GAGNS,054552.00,,,,,,05,,,,,*74
$GBGNS,054552.00,,,,,,04,,,,,*76
$GPLLQ,054552.00,010125,,M,,M,1,20,2.935,,M*1D
$GPVTG,,T,,M,0.00,N,0.01,K,D*27
$GPHDT,,T*1B
$GPTHS,,V*0E
$GPROT,,V*08
$PSSN,HRP,054552.00,010125,,,,,,,00,0,,*62
$PTNL,AVR,054552.00,,Yaw,,Tilt,,,,0,,00*34
$GPGSA,A,3,05,07,09,11,20,30,,,,,,,1.4,0.8,1.2*36
$GPGSA,A,3,71,72,73,74,88,,,,,,,,1.4,0.8,1.2*38
$GPGSA,A,3,03,05,15,24,34,,,,,,,,1.4,0.8,1.2*3F
$GPGSA,A,3,05,19,22,36,,,,,,,,,1.4,0.8,1.2*34
$GPGST,054552.00,2.502,1.273,0.793,352.568,1.266,0.803,2.523*5A
$GPGBS,054552.00,4.341,3.927,7.657,11,0.0001,-2.006,0.763*78
$GPGRS,054552.00,1,1.2,1.1,-1.5,-2.0,0.1,0.8,,,,,,*41
$GPGRS,054552.00,1,3.1,2.2,-0.3,-1.4,-3.7,,,,,,,*4E
$GPGRS,054552.00,1,-1.7,-0.2,-0.9,0.3,0.9,,,,,,,*49
$GPGRS,054552.00,1,3.9,-4.0,-2.4,-0.6,,,,,,,,*6E
$GPGSV,4,1,15,07,77,095,46,16,11,034,30,05,23,312,45,06,18,214,30*7C
$GPGSV,4,2,15,04,16,086,22,11,33,251,38,20,54,293,36,30,57,209,46*7D
$GPGSV,4,3,15,09,43,084,37,13,08,269,,14,03,172,,36,35,170,41*79
$GPGSV,4,4,15,34,31,208,,49,34,195,33,61,03,257,*41
$GLGSV,3,1,11,72,62,333,44,87,16,250,,80,10,024,31,65,10,299,31*65
$GLGSV,3,2,11,88,22,310,45,73,53,066,46,74,50,150,42,71,51,085,45*6D
$GLGSV,3,3,11,81,04,359,30,70,07,108,,75,07,184,*55
$GAGSV,3,1,11,05,76,047,45,16,23,141,,09,24,083,30,31,25,054,30*6E
$GAGSV,3,2,11,24,32,113,41,34,30,224,38,15,36,287,38,03,44,279,36*6E
$GAGSV,3,3,11,25,09,161,,06,02,086,,13,09,334,31*57
$GBGSV,6,1,21,22,84,338,53,06,11,051,,48,12,116,,58,22,043,*6C
$GBGSV,6,2,21,05,22,129,36,45,24,189,27,09,26,052,34,21,30,300,35*6C
$GBGSV,6,3,21,46,36,055,,19,38,113,42,36,59,134,45,34,09,294,33*63
$GBGSV,6,4,21,02,06,107,,40,00,077,,44,02,246,,11,06,316,*6C
$GBGSV,6,5,21,16,09,050,,10,03,097,,50,08,298,,12,10,268,28*66
$GBGSV,6,6,21,60,07,111,*58
$GPGGA,054552.00,,,,,0,00,,,M,,M,,*4B
$PTNL,GGK,054552.00,010125,4742.4466144,N,01617.9734186,E,1,20,1.4,EHT667.3549,M*41
$GPGGQ,054552.00,010125,4742.4466144,N,01617.9734186,E,1,20,2.935,624.1438,M*35
$GPGFA,054552.00,12.104,20.686,1.273,0.793,352.568,2.523,,VVV*0F
$GPLLK,054552.00,010125,,M,,M,1,20,1.7,,M*0C
$GNGMP,054552.00,,,,,DAAA,20,0.8,,,,*5F
$GPGMP,054552.00,,,,,,06,,,,3.2,123*79
$GLGMP,054552.00,,,,,,05,,,,,*79
$GAGMP,054552.00,,,,,,05,,,,,*74
$GBGMP,054552.00,,,,,,04,,,,,*76
$PSSN,SNC,[0,279970000,2347]*46
$GPZDA,054557.00,01,01,2025,,*65
$GPDTM,W84,,00.0000000,N,00.0000000,E,00.0000000,W84*5F
$GPRMC,054557.00,A,4742.4466129,N,01617.9734166,E,0.0,,010125,5.1,E,D*1D
$GPGLL,4742.4466129,N,01617.9734166,E,054557.00,A,D*6C
$GPGGA,054557.00,4742.4466129,N,01617.9734166,E,2,19,0.8,624.1301,M,43.2111,M,1.6,0123*41
$GNGNS,054557.00,4742.4466129,N,01617.9734166,E,DAAA,19,0.8,624.1301,43.2111,,*5A
$GPGNS,054557.00,,,,,,05,,,,1.6,123*79
$GLGNS,054557.00,,,,,,05,,,,,*7C
$GAGNS,054557.00,,,,,,04,,,,,*70
$GBGNS,054557.00,,,,,,05,,,,,*72
$GPLLQ,054557.00,010125,,M,,M,1,19,2.447,,M*1A
$GPVTG,,T,,M,0.00,N,0.01,K,D*27
$GPHDT,,T*1B
$GPTHS,,V*0E
$GPROT,,V*08
$PSSN,HRP,054557.00,010125,,,,,,,00,0,,*67
$PTNL,AVR,054557.00,,Yaw,,Tilt,,,,0,,00*31
$GPGSA,A,3,05,07,11,20,30,,,,,,,,1.4,0.8,1.2*3F
$GPGSA,A,3,71,72,73,74,88,,,,,,,,1.4,0.8,1.2*38
$GPGSA,A,3,05,15,24,34,,,,,,,,,1.4,0.8,1.2*3C
$GPGSA,A,3,05,19,21,22,36,,,,,,,,1.4,0.8,1.2*37
$GPGST,054557.00,3.244,1.027,0.671,279.674,0.683,1.019,2.118*53
$GPGBS,054557.00,4.239,7.404,15.779,07,0.0001,0.701,0.554*6B
$GPGRS,054557.00,1,0.2,0.7,-0.8,-0.1,0.1,,,,,,,*6B
$GPGRS,054557.00,1,-2.3,2.2,0.3,-1.7,-4.8,,,,,,,*43
$GPGRS,054557.00,1,-0.6,-1.2,-0.8,0.2,,,,,,,,*6A
$GPGRS,054557.00,1,2.6,-3.8,-7.5,-2.9,-0.0,,,,,,,*60
$GPGSV,4,1,15,07,77,095,47,16,11,034,29,05,23,312,46,06,18,214,28*7F
$GPGSV,4,2,15,04,16,086,21,11,33,251,37,20,54,293,36,30,57,209,46*71
$GPGSV,4,3,15,09,43,084,41,13,08,269,,14,03,172,,36,35,170,41*78
$GPGSV,4,4,15,34,31,208,,49,34,195,34,61,03,257,*46
$GLGSV,3,1,11,72,62,333,44,87,16,250,,80,10,024,26,65,10,299,29*6A
$GLGSV,3,2,11,88,22,310,43,73,53,066,46,74,50,150,42,71,51,085,45*6B
$GLGSV,3,3,11,81,04,359,25,70,07,108,,75,07,184,*51
$GAGSV,3,1,11,05,76,047,44,16,23,141,,09,24,083,30,31,25,054,25*6B
$GAGSV,3,2,11,24,32,113,40,34,30,224,38,15,36,287,38,03,44,279,33*6A
$GAGSV,3,3,11,25,09,161,,06,02,086,,13,09,334,31*57
$GBGSV,6,1,21,22,84,339,52,06,11,051,,48,12,116,,58,22,043,*6C
$GBGSV,6,2,21,05,22,129,36,45,24,189,27,09,26,052,35,21,30,300,38*60
$GBGSV,6,3,21,46,36,055,,19,38,113,43,36,59,134,44,34,09,294,34*64
$GBGSV,6,4,21,02,06,107,,40,00,077,,44,02,246,,11,06,316,*6C
$GBGSV,6,5,21,16,09,050,,10,03,097,,50,08,298,,12,10,268,27*69
$GBGSV,6,6,21,60,07,111,*58
$GPGGA,054557.00,,,,,0,00,,,M,,M,,*4E
$PTNL,GGK,054557.00,010125,4742.4466129,N,01617.9734166,E,1,19,1.4,EHT667.3412,M*44
$GPGGQ,054557.00,010125,4742.4466129,N,01617.9734166,E,1,19,2.447,624.1301,M*3A
$GPGFA,054557.00,9.767,17.366,1.027,0.671,279.674,2.118,,VVV*38
$GPLLK,054557.00,010125,,M,,M,1,19,1.7,,M*03
$GNGMP,054557.00,,,,,DAAA,19,0.8,,,,*50
$GPGMP,054557.00,,,,,,05,,,,1.6,123*79
$GLGMP,054557.00,,,,,,05,,,,,*7C
$GAGMP,054557.00,,,,,,04,,,,,*70
$GBGMP,054557.00,,,,,,05,,,,,*72
$PSSN,SNC,[0,279975000,2347]*43
$GPZDA,054602.00,01,01,2025,,*66
$GPDTM,W84,,00.0000000,N,00.0000000,E,00.0000000,W84*5F
$GPRMC,054602.00,A,4742.4466110,N,01617.9734180,E,0.0,,010125,5.1,E,D*1C
$GPGLL,4742.4466110,N,01617.9734180,E,054602.00,A,D*6D
$GPGGA,054602.00,4742.4466110,N,01617.9734180,E,2,20,0.8,624.1172,M,43.2111,M,2.8,0123*41
$GNGNS,054602.00,4742.4466110,N,01617.9734180,E,DAAA,20,0.8,624.1172,43.2111,,*57
$GPGNS,054602.00,,,,,,06,,,,2.8,123*74
$GLGNS,054602.00,,,,,,05,,,,,*7F
$GAGNS,054602.00,,,,,,04,,,,,*73
$GBGNS,054602.00,,,,,,05,,,,,*71
$GPLLQ,054602.00,010125,,M,,M,1,20,1.869,,M*10
$GPVTG,,T,,M,0.00,N,0.01,K,D*27
$GPHDT,,T*1B
$GPTHS,,V*0E
$GPROT,,V*08
$PSSN,HRP,054602.00,010125,,,,,,,00,0,,*64
$PTNL,AVR,054602.00,,Yaw,,Tilt,,,,0,,00*32
$GPGSA,A,3,05,07,09,11,20,30,,,,,,,1.4,0.8,1.2*36
$GPGSA,A,3,71,72,73,74,88,,,,,,,,1.4,0.8,1.2*38
$GPGSA,A,3,05,15,24,34,,,,,,,,,1.4,0.8,1.2*3C
$GPGSA,A,3,05,19,21,22,36,,,,,,,,1.4,0.8,1.2*37
$GPGST,054602.00,3.763,0.825,0.499,351.836,0.819,0.508,1.601*59
$GPGBS,054602.00,4.329,3.826,7.617,88,0.0001,-8.684,6.197*79
$GPGRS,054602.00,1,0.2,0.8,0.0,0.3,-0.7,-0.1,,,,,,*44
$GPGRS,054602.00,1,-3.7,2.8,0.1,-1.0,-8.7,,,,,,,*49
$GPGRS,054602.00,1,-1.3,-0.2,-1.3,-0.9,,,,,,,,*40
$GPGRS,054602.00,1,3.2,-3.1,-7.0,-3.4,0.6,,,,,,,*4D
$GPGSV,4,1,15,07,77,095,48,16,11,034,30,05,23,312,45,06,18,214,27*74
$GPGSV,4,2,15,04,16,086,21,11,33,251,35,20,54,293,36,30,57,209,46*73
$GPGSV,4,3,15,09,43,084,37,13,08,269,,14,03,172,,36,35,170,41*79
$GPGSV,4,4,15,34,31,208,,49,34,195,34,61,03,257,*46
$GLGSV,3,1,11,72,62,333,46,87,16,250,,80,10,024,27,65,10,299,27*67
$GLGSV,3,2,11,88,22,310,41,73,53,066,45,74,50,150,43,71,51,085,44*6A
$GLGSV,3,3,11,81,04,359,,70,07,108,,75,07,184,*56
$GAGSV,3,1,11,05,76,047,43,16,23,141,,09,24,083,30,31,25,054,33*6B
$GAGSV,3,2,11,24,32,113,39,34,30,224,38,15,36,287,37,03,44,279,31*69
$GAGSV,3,3,11,25,09,161,,06,02,086,,13,09,334,31*57
$GBGSV,6,1,21,22,84,339,52,06,11,051,,48,12,116,,58,22,043,*6C
$GBGSV,6,2,21,05,22,129,36,45,24,189,28,09,26,052,35,21,30,300,39*6E
$GBGSV,6,3,21,46,36,055,,19,38,113,43,36,59,134,44,34,09,294,35*65
$GBGSV,6,4,21,02,06,107,,40,00,077,,44,02,246,,11,06,316,*6C
$GBGSV,6,5,21,16,09,050,,10,03,097,,50,08,298,,12,10,267,26*67
$GBGSV,6,6,21,60,07,111,*58
$GPGGA,054602.00,,,,,0,00,,,M,,M,,*4D
$PTNL,GGK,054602.00,010125,4742.4466110,N,01617.9734180,E,1,20,1.4,EHT667.3282,M*40
$GPGGQ,054602.00,010125,4742.4466110,N,01617.9734180,E,1,20,1.869,624.1172,M*34
$GPGFA,054602.00,7.839,13.130,0.825,0.499,351.836,1.601,,VVV*34
$GPLLK,054602.00,010125,,M,,M,1,20,1.6,,M*0B
$GNGMP,054602.00,,,,,DAAA,20,0.8,,,,*59
$GPGMP,054602.00,,,,,,06,,,,2.8,123*74
$GLGMP,054602.00,,,,,,05,,,,,*7F
$GAGMP,054602.00,,,,,,04,,,,,*73
$GBGMP,054602.00,,,,,,05,,,,,*71
$PSSN,SNC,[0,279980000,2347]*49
$GPZDA,054607.00,01,01,2025,,*63
$GPDTM,W84,,00.0000000,N,00.0000000,E,00.0000000,W84*5F
$GPRMC,054607.00,A,4742.4466099,N,01617.9734104,E,0.0,,010125,5.1,E,D*15
$GPGLL,4742.4466099,N,01617.9734104,E,054607.00,A,D*64
$GPGGA,054607.00,4742.4466099,N,01617.9734104,E,2,21,0.8,624.1091,M,43.2111,M,3.2,0123*4E
$GNGNS,054607.00,4742.4466099,N,01617.9734104,E,DAAA,21,0.8,624.1091,43.2111,,*53
$GPGNS,054607.00,,,,,,06,,,,3.2,123*7A
$GLGNS,054607.00,,,,,,05,,,,,*7A
$GAGNS,054607.00,,,,,,04,,,,,*76
$GBGNS,054607.00,,,,,,06,,,,,*77
$GPLLQ,054607.00,010125,,M,,M,1,21,2.758,,M*1A
$GPVTG,,T,,M,0.01,N,0.01,K,D*26
$GPHDT,,T*1B
$GPTHS,,V*0E
$GPROT,,V*08
$PSSN,HRP,054607.00,010125,,,,,,,00,0,,*61
$PTNL,AVR,054607.00,,Yaw,,Tilt,,,,0,,00*37
$GPGSA,A,3,05,07,09,11,20,30,,,,,,,1.3,0.8,1.0*33
$GPGSA,A,3,71,72,73,74,88,,,,,,,,1.3,0.8,1.0*3D
$GPGSA,A,3,05,15,24,34,,,,,,,,,1.3,0.8,1.0*39
$GPGSA,A,3,05,19,21,22,34,36,,,,,,,1.3,0.8,1.0*35
$GPGST,054607.00,4.104,1.202,0.739,353.013,1.197,0.748,2.370*5E
$GPGBS,054607.00,4.323,3.878,7.652,11,0.0001,-2.675,0.767*77
$GPGRS,054607.00,1,0.2,0.8,0.9,-2.7,0.3,0.1,,,,,,*67
$GPGRS,054607.00,1,-2.3,4.0,0.1,-0.2,-9.5,,,,,,,*47
$GPGRS,054607.00,1,-1.7,-0.5,-1.5,-0.3,,,,,,,,*4A
$GPGRS,054607.00,1,5.0,-2.7,-6.8,-3.4,-4.5,-0.2,,,,,,*69
$GPGSV,4,1,15,07,77,095,49,16,11,034,29,05,23,312,44,06,18,214,25*7E
$GPGSV,4,2,15,04,16,086,26,11,33,251,35,20,54,293,37,30,57,209,46*75
$GPGSV,4,3,15,09,43,084,42,13,08,269,,14,03,172,,36,35,170,41*7B
$GPGSV,4,4,15,34,31,208,,49,34,195,33,61,03,257,*41
$GLGSV,3,1,11,72,62,333,46,87,16,250,,80,10,024,31,65,10,299,26*61
$GLGSV,3,2,11,88,22,310,40,73,53,066,45,74,50,150,44,71,51,085,44*6C
$GLGSV,3,3,11,81,04,359,19,70,07,108,,75,07,184,*5E
$GAGSV,3,1,11,05,76,047,42,16,23,141,,09,24,083,30,31,25,054,24*6C
$GAGSV,3,2,11,24,32,113,38,34,30,224,38,15,36,286,36,03,44,279,31*68
$GAGSV,3,3,11,25,10,161,,06,02,086,,13,09,334,31*5F
$GBGSV,6,1,21,22,84,339,52,06,11,051,,48,12,116,,58,22,043,*6C
$GBGSV,6,2,21,05,22,129,36,45,25,189,29,09,26,052,35,21,30,300,39*6E
$GBGSV,6,3,21,46,36,055,,19,38,113,43,36,59,134,44,34,09,294,36*66
$GBGSV,6,4,21,02,06,107,,40,00,077,,44,02,246,,11,06,315,*6F
$GBGSV,6,5,21,16,09,050,,10,03,097,,50,08,298,,12,10,267,26*67
$GBGSV,6,6,21,60,07,111,*58
$GPGGA,054607.00,,,,,0,00,,,M,,M,,*48
$PTNL,GGK,054607.00,010125,4742.4466099,N,01617.9734104,E,1,21,1.3,EHT667.3201,M*44
$GPGGQ,054607.00,010125,4742.4466099,N,01617.9734104,E,1,21,2.758,624.1091,M*3E
$GPGFA,054607.00,11.432,19.433,1.202,0.739,353.013,2.370,,VVV*07
$GPLLK,054607.00,010125,,M,,M,1,21,1.5,,M*0C
$GNGMP,054607.00,,,,,DAAA,21,0.8,,,,*5D
$GPGMP,054607.00,,,,,,06,,,,3.2,123*7A
$GLGMP,054607.00,,,,,,05,,,,,*7A
$GAGMP,054607.00,,,,,,04,,,,,*76
$GBGMP,054607.00,,,,,,06,,,,,*77
$PSSN,SNC,[0,279985000,2347]*4C
$GPZDA,054612.00,01,01,2025,,*67
$GPDTM,W84,,00.0000000,N,00.0000000,E,00.0000000,W84*5F
$GPRMC,054612.00,A,4742.4466077,N,01617.9734042,E,0.0,,010125,5.1,E,D*12
$GPGLL,4742.4466077,N,01617.9734042,E,054612.00,A,D*63
$GPGGA,054612.00,4742.4466077,N,01617.9734042,E,2,17,0.9,624.1123,M,43.2111,M,1.6,0123*43
$GNGNS,054612.00,4742.4466077,N,01617.9734042,E,DAAA,17,0.9,624.1123,43.2111,,*58
$GPGNS,054612.00,,,,,,05,,,,1.6,123*7B
$GLGNS,054612.00,,,,,,04,,,,,*7F
$GAGNS,054612.00,,,,,,04,,,,,*72
$GBGNS,054612.00,,,,,,04,,,,,*71
$GPLLQ,054612.00,010125,,M,,M,1,17,1.965,,M*18
$GPVTG,,T,,M,0.00,N,0.01,K,D*27
$GPHDT,,T*1B
$GPTHS,,V*0E
$GPROT,,V*08
$PSSN,HRP,054612.00,010125,,,,,,,00,0,,*65
$PTNL,AVR,054612.00,,Yaw,,Tilt,,,,0,,00*33
$GPGSA,A,3,05,07,09,20,30,,,,,,,,1.6,0.9,1.3*34
$GPGSA,A,3,71,72,73,74,,,,,,,,,1.6,0.9,1.3*3A
$GPGSA,A,3,05,15,24,34,,,,,,,,,1.6,0.9,1.3*3E
$GPGSA,A,3,05,19,22,36,,,,,,,,,1.6,0.9,1.3*36
$GPGST,054612.00,2.985,0.867,0.479,3.555,0.866,0.481,1.697*5C
$GPGBS,054612.00,7.313,3.755,10.634,30,0.0001,-0.503,0.600*46
$GPGRS,054612.00,1,-0.4,0.3,0.3,0.2,-0.5,,,,,,,*67
$GPGRS,054612.00,1,-1.0,3.4,-0.5,-1.1,,,,,,,,*64
$GPGRS,054612.00,1,-2.0,-0.9,-2.0,-0.1,,,,,,,,*42
$GPGRS,054612.00,1,5.4,-4.4,-3.7,-1.9,,,,,,,,*6A
$GPGSV,4,1,15,07,77,095,50,16,11,034,23,05,23,312,42,06,18,214,25*7A
$GPGSV,4,2,15,04,16,086,19,11,33,251,35,20,54,293,40,30,57,209,46*79
$GPGSV,4,3,15,09,43,084,43,13,08,269,,14,03,172,,36,35,170,41*7A
$GPGSV,4,4,15,34,31,208,,49,34,195,33,61,03,257,*41
$GLGSV,3,1,11,72,62,333,47,87,16,250,,80,10,024,31,65,11,299,24*63
$GLGSV,3,2,11,88,22,310,35,73,53,066,46,74,50,150,44,71,51,085,43*6A
$GLGSV,3,3,11,81,04,359,,70,07,108,,75,07,184,*56
$GAGSV,3,1,11,05,76,047,41,16,23,141,,09,24,083,29,31,25,054,23*60
$GAGSV,3,2,11,24,32,113,36,34,30,224,38,15,36,286,35,03,44,279,29*6C
$GAGSV,3,3,11,25,10,161,,06,02,086,,13,09,334,29*56
$GBGSV,6,1,21,22,84,339,52,06,11,051,,48,12,116,,58,22,043,*6C
$GBGSV,6,2,21,05,22,129,36,45,25,189,27,09,26,052,34,21,30,300,31*69
$GBGSV,6,3,21,46,36,055,,19,38,114,41,36,59,134,43,34,09,294,34*66
$GBGSV,6,4,21,02,06,107,,40,00,077,,44,02,246,,11,06,315,*6F
$GBGSV,6,5,21,16,09,050,,10,03,097,,50,08,298,,12,10,267,27*66
$GBGSV,6,6,21,60,07,111,*58
$GPGGA,054612.00,,,,,0,00,,,M,,M,,*4C
$PTNL,GGK,054612.00,010125,4742.4466077,N,01617.9734042,E,1,17,1.6,EHT667.3233,M*42
$GPGGQ,054612.00,010125,4742.4466077,N,01617.9734042,E,1,17,1.965,624.1123,M*37
$GPGFA,054612.00,8.247,13.918,0.867,0.479,3.555,1.697,,VVV*30
$GPLLK,054612.00,010125,,M,,M,1,17,1.9,,M*01
$GNGMP,054612.00,,,,,DAAA,17,0.9,,,,*5D
$GPGMP,054612.00,,,,,,05,,,,1.6,123*7B
$GLGMP,054612.00,,,,,,04,,,,,*7F
$GAGMP,054612.00,,,,,,04,,,,,*72
$GBGMP,054612.00,,,,,,04,,,,,*71
$PSSN,SNC,[0,279990000,2347]*48
$GPZDA,054617.00,01,01,2025,,*62
$GPDTM,W84,,00.0000000,N,00.0000000,E,00.0000000,W84*5F
$GPRMC,054617.00,A,4742.4466057,N,01617.9733977,E,0.0,,010125,5.1,E,D*1D
$GPGLL,4742.4466057,N,01617.9733977,E,054617.00,A,D*6C
$GPGGA,054617.00,4742.4466057,N,01617.9733977,E,2,21,0.8,624.0996,M,43.2111,M,2.6,0123*4C
$GNGNS,054617.00,4742.4466057,N,01617.9733977,E,DAAA,21,0.8,624.0996,43.2111,,*54
$GPGNS,054617.00,,,,,,05,,,,2.6,123*7D
$GLGNS,054617.00,,,,,,05,,,,,*7B
$GAGNS,054617.00,,,,,,04,,,,,*77
$GBGNS,054617.00,,,,,,07,,,,,*77
$GPLLQ,054617.00,010125,,M,,M,1,21,2.647,,M*14
$GPVTG,,T,,M,0.00,N,0.01,K,D*27
$GPHDT,,T*1B
$GPTHS,,V*0E
$GPROT,,V*08
$PSSN,HRP,054617.00,010125,,,,,,,00,0,,*60
$PTNL,AVR,054617.00,,Yaw,,Tilt,,,,0,,00*36
$GPGSA,A,3,05,07,09,20,30,,,,,,,,1.3,0.8,1.0*33
$GPGSA,A,3,71,72,73,74,88,,,,,,,,1.3,0.8,1.0*3D
$GPGSA,A,3,05,15,24,34,,,,,,,,,1.3,0.8,1.0*39
$GPGSA,A,3,05,12,19,21,22,34,36,,,,,,1.3,0.8,1.0*36
$GPGST,054617.00,3.495,1.199,0.642,3.420,1.198,0.645,2.270*59
$GPGBS,054617.00,7.426,3.798,10.563,05,0.0001,-2.158,0.898*43
$GPGRS,054617.00,1,-2.2,0.3,0.9,0.5,-0.6,,,,,,,*68
$GPGRS,054617.00,1,-2.4,2.8,-0.2,-2.2,-5.1,,,,,,,*6B
$GPGRS,054617.00,1,-1.8,-0.2,-1.9,0.7,,,,,,,,*66
$GPGRS,054617.00,1,4.1,-3.3,-5.1,-6.3,-3.8,-0.1,-2.6,,,,,*6B
$GPGSV,4,1,15,07,77,095,50,16,11,034,20,05,23,312,40,06,18,214,28*76
$GPGSV,4,2,15,04,16,086,,11,33,251,35,20,54,293,40,30,57,209,47*70
$GPGSV,4,3,15,09,43,084,44,13,08,269,,14,03,172,,36,35,170,41*7D
$GPGSV,4,4,15,34,31,208,,49,34,195,33,61,03,257,*41
$GLGSV,3,1,11,72,62,333,47,87,16,250,26,80,10,024,31,65,11,299,29*6A
$GLGSV,3,2,11,88,22,310,36,73,53,066,47,74,50,150,44,71,51,085,40*6B
$GLGSV,3,3,11,81,04,359,,70,07,108,,75,07,184,*56
$GAGSV,3,1,11,05,76,047,41,16,23,141,,09,24,083,29,31,25,054,25*66
$GAGSV,3,2,11,24,32,113,35,34,30,224,39,15,36,286,36,03,44,279,27*63
$GAGSV,3,3,11,25,10,161,,06,02,086,,13,09,334,28*57
$GBGSV,6,1,21,22,84,339,51,06,11,051,,48,12,116,,58,22,043,*6F
$GBGSV,6,2,21,05,22,129,36,45,25,189,27,09,26,052,34,21,30,300,40*6F
$GBGSV,6,3,21,46,36,055,,19,38,114,40,36,59,134,41,34,09,294,36*67
$GBGSV,6,4,21,02,06,107,,40,00,077,,44,02,246,,11,06,315,*6F
$GBGSV,6,5,21,16,09,050,,10,03,097,,50,08,298,,12,10,267,35*65
$GBGSV,6,6,21,60,07,111,*58
$GPGGA,054617.00,,,,,0,00,,,M,,M,,*49
$PTNL,GGK,054617.00,010125,4742.4466057,N,01617.9733977,E,1,21,1.3,EHT667.3106,M*48
$GPGGQ,054617.00,010125,4742.4466057,N,01617.9733977,E,1,21,2.647,624.0996,M*36
$GPGFA,054617.00,11.402,18.617,1.199,0.642,3.420,2.270,,VVV*0F
$GPLLK,054617.00,010125,,M,,M,1,21,1.4,,M*0C
$GNGMP,054617.00,,,,,DAAA,21,0.8,,,,*5C
$GPGMP,054617.00,,,,,,05,,,,2.6,123*7D
$GLGMP,054617.00,,,,,,05,,,,,*7B
$GAGMP,054617.00,,,,,,04,,,,,*77
$GBGMP,054617.00,,,,,,07,,,,,*77
$PSSN,SNC,[0,279995000,2347]*4D
$GPZDA,054622.00,01,01,2025,,*64
$GPDTM,W84,,00.0000000,N,00.0000000,E,00.0000000,W84*5F
$GPRMC,054622.00,A,4742.4466096,N,01617.9733754,E,0.0,,010125,5.1,E,D*19
$GPGLL,4742.4466096,N,01617.9733754,E,054622.00,A,D*68
$GPGGA,054622.00,4742.4466096,N,01617.9733754,E,2,19,0.8,624.0869,M,43.2111,M,2.8,0123*4C
$GNGNS,054622.00,4742.4466096,N,01617.9733754,E,DAAA,19,0.8,624.0869,43.2111,,*5A
$GPGNS,054622.00,,,,,,06,,,,2.8,123*76
$GLGNS,054622.00,,,,,,04,,,,,*7C
$GAGNS,054622.00,,,,,,03,,,,,*76
$GBGNS,054622.00,,,,,,06,,,,,*70
$GPLLQ,054622.00,010125,,M,,M,1,19,2.908,,M*1D
$GPVTG,,T,,M,0.01,N,0.01,K,D*26
$GPHDT,,T*1B
$GPTHS,,V*0E
$GPROT,,V*08
$PSSN,HRP,054622.00,010125,,,,,,,00,0,,*66
$PTNL,AVR,054622.00,,Yaw,,Tilt,,,,0,,00*30
$GPGSA,A,3,05,07,09,11,20,30,,,,,,,1.4,0.8,1.1*35
$GPGSA,A,3,71,72,73,74,,,,,,,,,1.4,0.8,1.1*3B
$GPGSA,A,3,05,15,34,,,,,,,,,,1.4,0.8,1.1*39
$GPGSA,A,3,05,19,21,22,34,36,,,,,,,1.4,0.8,1.1*33
$GPGST,054622.00,3.139,1.288,0.775,352.162,1.280,0.788,2.490*5C
$GPGBS,054622.00,4.311,3.829,7.552,05,0.0001,-2.412,0.911*7F
$GPGRS,054622.00,1,-2.4,0.2,1.5,-1.4,0.5,0.1,,,,,,*48
$GPGRS,054622.00,1,-0.6,2.9,0.7,-2.3,,,,,,,,*42
$GPGRS,054622.00,1,-0.7,-1.3,1.7,,,,,,,,,*64
$GPGRS,054622.00,1,3.3,-4.6,-5.5,-3.3,3.5,-1.9,,,,,,*45
$GPGSV,4,1,15,07,77,094,49,16,11,033,,05,23,312,39,06,18,214,32*7F
$GPGSV,4,2,15,04,16,086,24,11,33,251,37,20,54,292,39,30,57,209,48*74
$GPGSV,4,3,15,09,43,084,45,13,08,269,35,14,03,172,,36,35,170,41*7A
$GPGSV,4,4,15,34,31,208,,49,34,195,33,61,03,257,*41
$GLGSV,3,1,11,72,62,333,47,87,16,250,29,65,11,300,31,88,22,310,33*62
$GLGSV,3,2,11,73,53,065,48,74,50,150,43,71,51,085,39,80,10,024,31*64
$GLGSV,3,3,11,81,04,358,,70,07,108,,75,07,184,*57
$GAGSV,3,1,11,05,76,047,40,16,23,141,,09,24,083,27,31,25,054,27*6B
$GAGSV,3,2,11,24,32,113,34,34,30,224,40,15,36,286,36,03,44,279,28*63
$GAGSV,3,3,11,25,10,161,,06,02,086,,13,09,334,26*59
$GBGSV,6,1,21,22,84,339,51,06,11,051,,48,12,116,,58,22,043,*6F
$GBGSV,6,2,21,05,22,129,36,45,25,189,26,09,26,052,34,21,30,300,40*6E
$GBGSV,6,3,21,46,36,055,,19,38,114,38,36,59,134,39,34,09,294,37*66
$GBGSV,6,4,21,02,06,107,,40,00,077,,44,02,246,,11,06,315,*6F
$GBGSV,6,5,21,16,09,050,,10,03,097,,50,08,298,,12,10,267,33*63
$GBGSV,6,6,21,60,07,111,*58
$GPGGA,054622.00,,,,,0,00,,,M,,M,,*4F
$PTNL,GGK,054622.00,010125,4742.4466096,N,01617.9733754,E,1,19,1.4,EHT667.2980,M*47
$GPGGQ,054622.00,010125,4742.4466096,N,01617.9733754,E,1,19,2.908,624.0869,M*3C
$GPGFA,054622.00,12.246,20.414,1.288,0.775,352.162,2.490,,VVV*0C
$GPLLK,054622.00,010125,,M,,M,1,19,1.6,,M*03
$GNGMP,054622.00,,,,,DAAA,19,0.8,,,,*51
$GPGMP,054622.00,,,,,,06,,,,2.8,123*76
$GLGMP,054622.00,,,,,,04,,,,,*7C
$GAGMP,054622.00,,,,,,03,,,,,*76
$GBGMP,054622.00,,,,,,06,,,,,*70
$PSSN,SNC,[0,280000000,2347]*4E
$GPZDA,054627.00,01,01,2025,,*61
$GPDTM,W84,,00.0000000,N,00.0000000,E,00.0000000,W84*5F
$GPRMC,054627.00,A,4742.4466150,N,01617.9733581,E,0.0,,010125,5.1,E,D*1D
$GPGLL,4742.4466150,N,01617.9733581,E,054627.00,A,D*6C
$GPGGA,054627.00,4742.4466150,N,01617.9733581,E,2,18,0.8,624.0787,M,43.2111,M,3.2,0123*4D
$GNGNS,054627.00,4742.4466150,N,01617.9733581,E,DAAA,18,0.8,624.0787,43.2111,,*50
$GPGNS,054627.00,,,,,,06,,,,3.2,123*78
$GLGNS,054627.00,,,,,,04,,,,,*79
$GAGNS,054627.00,,,,,,03,,,,,*73
$GBGNS,054627.00,,,,,,05,,,,,*76
$GPLLQ,054627.00,010125,,M,,M,1,18,2.251,,M*1E
$GPVTG,,T,,M,0.01,N,0.01,K,D*26
$GPHDT,,T*1B
$GPTHS,,V*0E
$GPROT,,V*08
$PSSN,HRP,054627.00,010125,,,,,,,00,0,,*63
$PTNL,AVR,054627.00,,Yaw,,Tilt,,,,0,,00*35
$GPGSA,A,3,05,07,09,11,20,30,,,,,,,1.4,0.8,1.1*35
$GPGSA,A,3,71,72,73,74,,,,,,,,,1.4,0.8,1.1*3B
$GPGSA,A,3,05,15,34,,,,,,,,,,1.4,0.8,1.1*39
$GPGSA,A,3,05,19,22,34,36,,,,,,,,1.4,0.8,1.1*30
$GPGST,054627.00,3.026,0.984,0.604,352.470,0.979,0.613,1.932*58
$GPGBS,054627.00,4.328,3.934,7.662,09,0.0001,1.290,0.685*51
$GPGRS,054627.00,1,-1.3,-0.4,1.3,-0.4,-0.6,0.4,,,,,,*4E
$GPGRS,054627.00,1,3.2,3.6,1.4,-1.5,,,,,,,,*64
$GPGRS,054627.00,1,-0.3,-1.4,2.1,,,,,,,,,*67
$GPGRS,054627.00,1,2.8,-2.8,-3.2,5.7,-1.9,,,,,,,*44
$GPGSV,4,1,15,07,77,094,48,16,11,033,,05,23,312,39,06,18,213,34*7F
$GPGSV,4,2,15,04,16,086,20,11,33,251,37,20,54,292,38,30,57,209,47*7E
$GPGSV,4,3,15,09,43,084,45,13,08,269,,14,03,172,,36,35,170,41*7C
$GPGSV,4,4,15,34,31,208,,49,34,195,33,61,03,257,*41
$GLGSV,3,1,11,72,62,333,48,87,16,250,,65,11,300,31,88,22,310,34*61
$GLGSV,3,2,11,73,53,065,49,74,50,150,43,71,51,085,40,80,10,024,30*6A
$GLGSV,3,3,11,81,04,358,34,70,07,108,,75,08,184,*5F
$GAGSV,3,1,11,05,76,047,40,16,23,141,,09,24,083,28,31,25,054,31*63
$GAGSV,3,2,11,24,32,113,32,34,30,224,39,15,36,286,37,03,44,279,31*62
$GAGSV,3,3,11,25,10,161,,06,02,087,,13,09,334,26*58
$GBGSV,6,1,21,22,84,340,51,06,11,051,,48,12,116,,58,22,043,*61
$GBGSV,6,2,21,05,22,129,36,45,25,189,26,09,26,052,34,21,30,300,30*69
