$GPZDA,225942.00,01,01,2025,,*69
$GPDTM,W84,,00.0000000,N,00.0000000,E,00.0000000,W84*5F
$GPRMC,225942.00,A,4742.4455756,N,01617.9729835,E,0.0,,010125,5.1,E,D*1C
$GPGLL,4742.4455756,N,01617.9729835,E,225942.00,A,D*6D
$GPGGA,225942.00,4742.4455756,N,01617.9729835,E,2,22,0.6,623.7048,M,43.2111,M,2.7,0123*4B
$GNGNS,225942.00,4742.4455756,N,01617.9729835,E,DAAA,22,0.6,623.7048,43.2111,,*52
$GPGNS,225942.00,,,,,,07,,,,2.7,123*75
$GLGNS,225942.00,,,,,,05,,,,,*70
$GAGNS,225942.00,,,,,,05,,,,,*7D
$GBGNS,225942.00,,,,,,05,,,,,*7E
$GPLLQ,225942.00,010125,,M,,M,1,22,1.660,,M*1A
$GPVTG,,T,,M,0.01,N,0.02,K,D*25
$GPHDT,,T*1B
$GPTHS,,V*0E
$GPROT,,V*08
$PSSN,HRP,225942.00,010125,,,,,,,00,0,,*6B
$PTNL,AVR,225942.00,,Yaw,,Tilt,,,,0,,00*3D
$GPGSA,A,3,02,08,14,17,21,27,32,,,,,,1.1,0.6,0.9*33
$GPGSA,A,3,68,69,76,84,85,,,,,,,,1.1,0.6,0.9*3C
$GPGSA,A,3,07,26,29,31,33,,,,,,,,1.1,0.6,0.9*37
$GPGSA,A,3,27,30,32,33,41,,,,,,,,1.1,0.6,0.9*3F
$GPGST,225942.00,5.625,0.937,0.603,51.192,0.752,0.822,1.231*66
$GPGBS,225942.00,3.460,4.734,4.500,68,0.0001,14.369,6.195*6C
$GPGRS,225942.00,1,-0.3,1.1,0.3,-1.0,-0.5,0.1,-0.0,,,,,*6F
$GPGRS,225942.00,1,14.4,-2.4,-6.7,-3.2,-1.7,,,,,,,*5B
$GPGRS,225942.00,1,0.5,0.8,-1.4,-1.8,-1.3,,,,,,,*44
$GPGRS,225942.00,1,-2.4,-2.5,7.4,10.2,-4.7,,,,,,,*75
$GPGSV,4,1,15,21,82,333,43,03,26,240,29,22,12,321,,10,28,057,31*77
$GPGSV,4,2,15,14,16,301,38,27,20,164,41,32,48,081,45,08,48,189,46*72
$GPGSV,4,3,15,01,55,296,,02,61,302,47,17,07,321,41,36,35,170,41*75
$GPGSV,4,4,15,34,31,208,,49,34,195,37,61,03,257,*45
$GLGSV,3,1,09,69,70,069,47,76,12,322,40,68,22,033,35,70,34,197,26*6C
$GLGSV,3,2,09,85,51,323,42,84,65,095,37,83,05,123,,77,05,005,*69
$GLGSV,3,3,09,75,02,269,28*5B
$GAGSV,3,1,12,26,68,078,40,14,15,157,,08,21,041,27,24,13,323,32*66
$GAGSV,3,2,12,13,17,100,23,29,28,166,36,31,23,273,39,07,49,098,38*64
$GAGSV,3,3,12,33,54,300,44,16,02,345,,23,10,223,,12,03,286,*61
$GBGSV,5,1,18,27,82,183,52,06,13,082,,60,10,109,,13,12,061,*63
$GBGSV,5,2,18,05,24,128,,32,32,208,36,16,14,078,,28,37,136,34*62
$GBGSV,5,3,18,39,17,068,26,33,34,050,38,30,41,304,48,57,73,293,*68
$GBGSV,5,4,18,41,75,123,42,02,09,105,,14,09,043,22,45,00,330,*67
$GBGSV,5,5,18,08,03,060,,09,09,094,*62
$GPGGA,225942.00,,,,,0,00,,,M,,M,,*42
$PTNL,GGK,225942.00,010125,4742.4455756,N,01617.9729835,E,1,22,1.1,EHT666.9159,M*49
$GPGGQ,225942.00,010125,4742.4455756,N,01617.9729835,E,1,22,1.660,623.7048,M*38
$GPGFA,225942.00,8.906,10.096,0.937,0.603,51.192,1.231,,VVV*07
$GPLLK,225942.00,010125,,M,,M,1,22,1.2,,M*02
$GNGMP,225942.00,,,,,DAAA,22,0.6,,,,*5A
$GPGMP,225942.00,,,,,,07,,,,2.7,123*75
$GLGMP,225942.00,,,,,,05,,,,,*70
$GAGMP,225942.00,,,,,,05,,,,,*7D
$GBGMP,225942.00,,,,,,05,,,,,*7E
$PSSN,SNC,[0,342000000,2347]*41
$GPZDA,225947.00,01,01,2025,,*6C
$GPDTM,W84,,00.0000000,N,00.0000000,E,00.0000000,W84*5F
$GPRMC,225947.00,A,4742.4455859,N,01617.9729818,E,0.0,,010125,5.1,E,D*16
$GPGLL,4742.4455859,N,01617.9729818,E,225947.00,A,D*67
$GPGGA,225947.00,4742.4455859,N,01617.9729818,E,2,22,0.6,623.7093,M,43.2111,M,2.0,0123*40
$GNGNS,225947.00,4742.4455859,N,01617.9729818,E,DAAA,22,0.6,623.7093,43.2111,,*5E
$GPGNS,225947.00,,,,,,07,,,,2.0,123*77
$GLGNS,225947.00,,,,,,05,,,,,*75
$GAGNS,225947.00,,,,,,05,,,,,*78
$GBGNS,225947.00,,,,,,05,,,,,*7B
$GPLLQ,225947.00,010125,,M,,M,1,22,2.025,,M*1B
$GPVTG,,T,,M,0.00,N,0.00,K,D*26
$GPHDT,,T*1B
$GPTHS,,V*0E
$GPROT,,V*08
$PSSN,HRP,225947.00,010125,,,,,,,00,0,,*6E
$PTNL,AVR,225947.00,,Yaw,,Tilt,,,,0,,00*38
$GPGSA,A,3,02,08,14,17,21,27,32,,,,,,1.1,0.6,0.9*33
$GPGSA,A,3,68,69,76,84,85,,,,,,,,1.1,0.6,0.9*3C
$GPGSA,A,3,07,26,29,31,33,,,,,,,,1.1,0.6,0.9*37
$GPGSA,A,3,27,30,32,33,41,,,,,,,,1.1,0.6,0.9*3F
$GPGST,225947.00,5.880,1.122,0.735,50.280,0.913,0.983,1.517*68
$GPGBS,225947.00,3.479,4.740,4.245,68,0.0001,15.654,6.187*6D
$GPGRS,225947.00,1,-1.0,1.0,1.7,-1.7,-0.3,0.4,-0.1,,,,,*69
$GPGRS,225947.00,1,15.7,-1.5,-6.0,-3.2,2.7,,,,,,,*77
$GPGRS,225947.00,1,1.5,0.6,-0.5,-1.1,-0.6,,,,,,,*43
$GPGRS,225947.00,1,-2.3,-2.4,8.1,10.4,-4.5,,,,,,,*78
$GPGSV,4,1,15,21,82,333,44,03,26,240,35,22,12,321,,10,28,057,29*74
$GPGSV,4,2,15,14,16,301,39,27,20,164,42,32,48,081,43,08,48,189,46*76
$GPGSV,4,3,15,01,55,296,,02,61,302,47,17,07,321,41,36,35,170,42*76
$GPGSV,4,4,15,34,31,208,,49,34,195,36,61,03,257,*44
$GLGSV,3,1,09,69,70,069,49,76,12,322,40,68,22,033,36,70,34,197,28*6F
$GLGSV,3,2,09,85,51,323,43,84,65,095,36,83,05,123,,77,05,005,*69
$GLGSV,3,3,09,75,02,269,29*5A
$GAGSV,3,1,12,26,68,078,41,14,15,157,,08,21,041,28,24,13,323,32*68
$GAGSV,3,2,12,13,17,100,25,29,28,166,37,31,23,273,40,07,49,098,38*6D
$GAGSV,3,3,12,33,54,300,45,16,02,345,,23,10,223,,12,03,286,*60
$GBGSV,5,1,18,27,82,183,51,06,13,082,,60,10,109,,13,12,061,*60
$GBGSV,5,2,18,05,24,128,,32,32,208,37,16,14,078,,28,37,136,33*64
$GBGSV,5,3,18,39,17,068,25,33,34,050,38,30,41,304,47,57,73,293,*64
$GBGSV,5,4,18,41,75,123,42,02,09,105,,14,09,043,19,45,00,330,*6F
$GBGSV,5,5,18,08,03,060,,09,09,094,*62
$GPGGA,225947.00,,,,,0,00,,,M,,M,,*47
$PTNL,GGK,225947.00,010125,4742.4455859,N,01617.9729818,E,1,22,1.1,EHT666.9204,M*48
$GPGGQ,225947.00,010125,4742.4455859,N,01617.9729818,E,1,22,2.025,623.7093,M*30
$GPGFA,225947.00,10.668,12.441,1.122,0.735,50.280,1.517,,VVV*3B
$GPLLK,225947.00,010125,,M,,M,1,22,1.2,,M*07
$GNGMP,225947.00,,,,,DAAA,22,0.6,,,,*5F
$GPGMP,225947.00,,,,,,07,,,,2.0,123*77
$GLGMP,225947.00,,,,,,05,,,,,*75
$GAGMP,225947.00,,,,,,05,,,,,*78
$GBGMP,225947.00,,,,,,05,,,,,*7B
$PSSN,SNC,[0,342005000,2347]*44
$GPZDA,225952.00,01,01,2025,,*68
$GPDTM,W84,,00.0000000,N,00.0000000,E,00.0000000,W84*5F
$GPRMC,225952.00,A,4742.4455906,N,01617.9729806,E,0.0,,010125,5.1,E,D*16
$GPGLL,4742.4455906,N,01617.9729806,E,225952.00,A,D*67
$GPGGA,225952.00,4742.4455906,N,01617.9729806,E,2,22,0.6,623.7314,M,43.2111,M,2.6,0123*4A
$GNGNS,225952.00,4742.4455906,N,01617.9729806,E,DAAA,22,0.6,623.7314,43.2111,,*52
$GPGNS,225952.00,,,,,,07,,,,2.6,123*75
$GLGNS,225952.00,,,,,,05,,,,,*71
$GAGNS,225952.00,,,,,,05,,,,,*7C
$GBGNS,225952.00,,,,,,05,,,,,*7F
$GPLLQ,225952.00,010125,,M,,M,1,22,2.338,,M*10
$GPVTG,,T,,M,0.01,N,0.01,K,D*26
$GPHDT,,T*1B
$GPTHS,,V*0E
$GPROT,,V*08
$PSSN,HRP,225952.00,010125,,,,,,,00,0,,*6A
$PTNL,AVR,225952.00,,Yaw,,Tilt,,,,0,,00*3C
$GPGSA,A,3,02,08,14,17,21,27,32,,,,,,1.1,0.6,0.9*33
$GPGSA,A,3,68,69,76,84,85,,,,,,,,1.1,0.6,0.9*3C
$GPGSA,A,3,07,26,29,31,33,,,,,,,,1.1,0.6,0.9*37
$GPGSA,A,3,27,30,32,33,41,,,,,,,,1.1,0.6,0.9*3F
$GPGST,225952.00,5.986,1.299,0.847,50.569,1.053,1.138,1.750*66
$GPGBS,225952.00,3.519,4.809,4.237,14,0.0001,3.162,0.938*5D
$GPGRS,225952.00,1,-1.4,0.3,3.2,-1.5,-0.3,-0.2,0.6,,,,,*6F
$GPGRS,225952.00,1,15.9,-0.7,-5.5,-3.8,3.0,,,,,,,*74
$GPGRS,225952.00,1,1.6,0.2,0.4,0.6,-0.5,,,,,,,*44
$GPGRS,225952.00,1,-2.4,-2.5,8.1,10.9,-3.8,,,,,,,*7D
$GPGSV,4,1,15,21,82,334,44,03,26,240,34,22,12,321,,10,28,057,29*72
$GPGSV,4,2,15,14,16,301,38,27,20,164,43,32,48,081,44,08,48,189,46*71
$GPGSV,4,3,15,01,55,296,,02,61,302,47,17,07,321,41,36,35,170,42*76
$GPGSV,4,4,15,34,31,208,,49,34,195,37,61,03,257,*45
$GLGSV,3,1,09,69,70,069,50,76,12,322,41,68,22,033,36,70,34,197,29*67
$GLGSV,3,2,09,85,51,323,46,84,65,095,35,83,05,123,,77,05,005,30*6C
$GLGSV,3,3,09,75,02,269,29*5A
$GAGSV,3,1,12,26,68,078,40,14,15,157,,08,21,041,28,24,13,323,30*6B
$GAGSV,3,2,12,13,17,100,,29,28,166,38,31,23,273,40,07,49,098,37*6A
$GAGSV,3,3,12,33,54,300,45,16,02,345,,23,10,223,,12,03,287,*61
$GBGSV,5,1,18,27,82,183,51,06,13,082,,60,10,109,,13,12,061,*60
$GBGSV,5,2,18,05,24,128,,32,32,208,37,16,14,078,,28,37,136,31*66
$GBGSV,5,3,18,39,17,068,25,33,34,050,38,30,41,304,46,57,73,294,*62
$GBGSV,5,4,18,41,75,122,41,02,09,105,,14,09,043,20,45,00,330,*67
$GBGSV,5,5,18,08,03,060,,09,09,094,*62
$GPGGA,225952.00,,,,,0,00,,,M,,M,,*43
$PTNL,GGK,225952.00,010125,4742.4455906,N,01617.9729806,E,1,22,1.1,EHT666.9424,M*4C
$GPGGQ,225952.00,010125,4742.4455906,N,01617.9729806,E,1,22,2.338,623.7314,M*33
$GPGFA,225952.00,12.350,14.350,1.299,0.847,50.569,1.750,,VVV*3A
$GPLLK,225952.00,010125,,M,,M,1,22,1.2,,M*03
$GNGMP,225952.00,,,,,DAAA,22,0.6,,,,*5B
$GPGMP,225952.00,,,,,,07,,,,2.6,123*75
$GLGMP,225952.00,,,,,,05,,,,,*71
$GAGMP,225952.00,,,,,,05,,,,,*7C
$GBGMP,225952.00,,,,,,05,,,,,*7F
$PSSN,SNC,[0,342010000,2347]*40
$GPZDA,225957.00,01,01,2025,,*6D
$GPDTM,W84,,00.0000000,N,00.0000000,E,00.0000000,W84*5F
$GPRMC,225957.00,A,4742.4455904,N,01617.9729652,E,0.0,,010125,5.1,E,D*1E
$GPGLL,4742.4455904,N,01617.9729652,E,225957.00,A,D*6F
$GPGGA,225957.00,4742.4455904,N,01617.9729652,E,2,20,0.7,623.7381,M,43.2111,M,1.8,0123*40
$GNGNS,225957.00,4742.4455904,N,01617.9729652,E,DAAA,20,0.7,623.7381,43.2111,,*55
$GPGNS,225957.00,,,,,,06,,,,1.8,123*7C
$GLGNS,225957.00,,,,,,04,,,,,*75
$GAGNS,225957.00,,,,,,05,,,,,*79
$GBGNS,225957.00,,,,,,05,,,,,*7A
$GPLLQ,225957.00,010125,,M,,M,1,20,2.436,,M*1E
$GPVTG,,T,,M,0.00,N,0.00,K,D*26
$GPHDT,,T*1B
$GPTHS,,V*0E
$GPROT,,V*08
$PSSN,HRP,225957.00,010125,,,,,,,00,0,,*6F
$PTNL,AVR,225957.00,,Yaw,,Tilt,,,,0,,00*39
$GPGSA,A,3,02,08,17,21,27,32,,,,,,,1.1,0.7,0.9*37
$GPGSA,A,3,68,69,76,85,,,,,,,,,1.1,0.7,0.9*31
$GPGSA,A,3,07,26,29,31,33,,,,,,,,1.1,0.7,0.9*36
$GPGSA,A,3,27,30,32,33,41,,,,,,,,1.1,0.7,0.9*3E
$GPGST,225957.00,6.567,1.329,0.887,54.684,1.055,1.199,1.840*62
$GPGBS,225957.00,3.450,5.213,6.901,32,0.0001,1.946,0.707*52
$GPGRS,225957.00,1,-0.9,-0.2,-2.6,-0.3,-0.1,1.9,,,,,,*68
$GPGRS,225957.00,1,15.9,-0.5,-5.9,1.6,,,,,,,,*73
$GPGRS,225957.00,1,0.2,-0.3,1.0,-0.8,-0.3,,,,,,,*48
$GPGRS,225957.00,1,-2.5,-1.8,8.2,13.0,-3.0,,,,,,,*76
$GPGSV,4,1,15,21,82,334,44,03,26,240,33,22,12,321,,10,28,057,37*7A
$GPGSV,4,2,15,14,16,301,34,27,20,164,43,32,48,081,45,08,48,189,47*7D
$GPGSV,4,3,15,01,56,296,,02,61,302,47,17,07,321,40,36,35,170,42*74
$GPGSV,4,4,15,34,31,208,,49,34,195,37,61,03,257,*45
$GLGSV,3,1,09,69,70,069,51,76,12,322,42,68,22,033,37,70,34,197,30*6C
$GLGSV,3,2,09,85,51,323,46,84,65,095,35,83,05,123,,77,05,005,28*65
$GLGSV,3,3,09,75,02,269,28*5B
$GAGSV,3,1,12,26,68,078,38,14,15,157,,08,21,041,28,24,13,323,27*62
$GAGSV,3,2,12,13,17,100,24,29,28,166,39,31,23,272,39,07,49,098,36*63
$GAGSV,3,3,12,33,54,300,45,16,02,345,,23,10,223,,12,03,287,*61
$GBGSV,5,1,18,27,82,183,50,06,13,082,,60,10,109,,13,12,061,*61
$GBGSV,5,2,18,05,24,128,,32,32,208,37,16,14,078,,28,37,136,29*6F
$GBGSV,5,3,18,39,17,068,24,33,34,050,36,30,41,304,46,57,73,294,*6D
$GBGSV,5,4,18,41,75,122,41,02,09,105,,14,09,043,21,45,00,330,*66
$GBGSV,5,5,18,08,03,060,,09,09,094,*62
$GPGGA,225957.00,,,,,0,00,,,M,,M,,*46
$PTNL,GGK,225957.00,010125,4742.4455904,N,01617.9729652,E,1,20,1.1,EHT666.9491,M*48
$GPGGQ,225957.00,010125,4742.4455904,N,01617.9729652,E,1,20,2.436,623.7381,M*3C
$GPGFA,225957.00,12.631,15.085,1.329,0.887,54.684,1.840,,VVV*3B
$GPLLK,225957.00,010125,,M,,M,1,20,1.3,,M*05
$GNGMP,225957.00,,,,,DAAA,20,0.7,,,,*5D
$GPGMP,225957.00,,,,,,06,,,,1.8,123*7C
$GLGMP,225957.00,,,,,,04,,,,,*75
$GAGMP,225957.00,,,,,,05,,,,,*79
$GBGMP,225957.00,,,,,,05,,,,,*7A
$PSSN,SNC,[0,342015000,2347]*45
$GPZDA,230002.00,01,01,2025,,*60
$GPDTM,W84,,00.0000000,N,00.0000000,E,00.0000000,W84*5F
$GPRMC,230002.00,A,4742.4455908,N,01617.9729319,E,0.0,,010125,5.1,E,D*15
$GPGLL,4742.4455908,N,01617.9729319,E,230002.00,A,D*64
$GPGGA,230002.00,4742.4455908,N,01617.9729319,E,2,19,0.7,623.7285,M,43.2111,M,2.4,0123*4B
$GNGNS,230002.00,4742.4455908,N,01617.9729319,E,DAAA,19,0.7,623.7285,43.2111,,*51
$GPGNS,230002.00,,,,,,05,,,,2.4,123*7D
$GLGNS,230002.00,,,,,,04,,,,,*78
$GAGNS,230002.00,,,,,,05,,,,,*74
$GBGNS,230002.00,,,,,,05,,,,,*77
$GPLLQ,230002.00,010125,,M,,M,1,19,3.047,,M*1A
$GPVTG,,T,,M,0.00,N,0.01,K,D*27
$GPHDT,,T*1B
$GPTHS,,V*0E
$GPROT,,V*08
$PSSN,HRP,230002.00,010125,,,,,,,00,0,,*62
$PTNL,AVR,230002.00,,Yaw,,Tilt,,,,0,,00*34
$GPGSA,A,3,02,08,17,21,27,,,,,,,,1.1,0.7,0.9*36
$GPGSA,A,3,68,69,76,85,,,,,,,,,1.1,0.7,0.9*31
$GPGSA,A,3,07,26,29,31,33,,,,,,,,1.1,0.7,0.9*36
$GPGSA,A,3,27,30,32,33,41,,,,,,,,1.1,0.7,0.9*3E
$GPGST,230002.00,7.297,2.080,1.037,65.808,1.273,1.944,1.971*62
$GPGBS,230002.00,5.387,7.913,7.201,68,0.0001,16.852,6.192*66
$GPGRS,230002.00,1,-0.6,-0.1,-2.3,-0.1,-0.5,,,,,,,*4C
$GPGRS,230002.00,1,16.9,0.1,-6.1,-0.2,,,,,,,,*77
$GPGRS,230002.00,1,-2.1,-0.8,2.2,0.3,0.1,,,,,,,*6A
$GPGRS,230002.00,1,-2.5,-1.1,9.6,14.2,-0.8,,,,,,,*79
$GPGSV,4,1,15,21,83,334,45,03,26,240,31,22,12,321,,10,28,057,38*77
$GPGSV,4,2,15,14,16,301,33,27,20,164,43,32,48,081,46,08,48,189,47*79
$GPGSV,4,3,15,01,56,296,,02,61,302,46,17,07,321,40,36,35,170,42*75
$GPGSV,4,4,15,34,31,208,,49,34,195,36,61,03,257,*44
$GLGSV,3,1,09,69,70,068,51,76,12,322,43,68,22,033,36,70,34,197,30*6D
$GLGSV,3,2,09,85,51,323,45,84,65,095,35,83,05,123,,77,05,005,28*66
$GLGSV,3,3,09,75,02,269,26*55
$GAGSV,3,1,12,26,68,078,36,14,15,157,,08,21,041,29,24,13,323,28*62
$GAGSV,3,2,12,13,17,100,25,29,28,166,39,31,23,272,38,07,49,098,36*63
$GAGSV,3,3,12,33,54,300,45,16,02,345,,23,10,223,,12,03,287,*61
$GBGSV,5,1,18,27,82,183,49,06,13,081,,60,10,109,,13,12,061,*6A
$GBGSV,5,2,18,05,24,128,,32,32,208,36,16,14,078,,28,37,136,28*6F
$GBGSV,5,3,18,39,17,068,24,33,34,050,35,30,41,304,45,57,73,294,*6D
$GBGSV,5,4,18,41,75,122,41,02,09,105,,14,09,043,23,45,00,330,*64
$GBGSV,5,5,18,08,03,060,,09,10,094,*6A
$GPGGA,230002.00,,,,,0,00,,,M,,M,,*4B
$PTNL,GGK,230002.00,010125,4742.4455908,N,01617.9729319,E,1,19,1.1,EHT666.9396,M*49
$GPGGQ,230002.00,010125,4742.4455908,N,01617.9729319,E,1,19,3.047,623.7285,M*3B
$GPGFA,230002.00,19.773,16.164,2.080,1.037,65.808,1.971,,VVV*3D
$GPLLK,230002.00,010125,,M,,M,1,19,1.3,,M*02
$GNGMP,230002.00,,,,,DAAA,19,0.7,,,,*5A
$GPGMP,230002.00,,,,,,05,,,,2.4,123*7D
$GLGMP,230002.00,,,,,,04,,,,,*78
$GAGMP,230002.00,,,,,,05,,,,,*74
$GBGMP,230002.00,,,,,,05,,,,,*77
$PSSN,SNC,[0,342020000,2347]*43
$GPZDA,230007.00,01,01,2025,,*65
$GPDTM,W84,,00.0000000,N,00.0000000,E,00.0000000,W84*5F
$GPRMC,230007.00,A,4742.4455941,N,01617.9729288,E,0.0,,010125,5.1,E,D*14
$GPGLL,4742.4455941,N,01617.9729288,E,230007.00,A,D*65
$GPGGA,230007.00,4742.4455941,N,01617.9729288,E,2,17,0.9,623.7057,M,43.2111,M,3.4,0123*46
$GNGNS,230007.00,4742.4455941,N,01617.9729288,E,DAAA,17,0.9,623.7057,43.2111,,*5D
$GPGNS,230007.00,,,,,,05,,,,3.4,123*79
$GLGNS,230007.00,,,,,,03,,,,,*7A
$GAGNS,230007.00,,,,,,05,,,,,*71
$GBGNS,230007.00,,,,,,04,,,,,*73
$GPLLQ,230007.00,010125,,M,,M,1,17,2.519,,M*1E
$GPVTG,,T,,M,0.00,N,0.00,K,D*26
$GPHDT,,T*1B
$GPTHS,,V*0E
$GPROT,,V*08
$PSSN,HRP,230007.00,010125,,,,,,,00,0,,*67
$PTNL,AVR,230007.00,,Yaw,,Tilt,,,,0,,00*31
$GPGSA,A,3,02,08,17,21,27,,,,,,,,1.4,0.9,1.0*35
$GPGSA,A,3,69,76,85,,,,,,,,,,1.4,0.9,1.0*3C
$GPGSA,A,3,07,26,29,31,33,,,,,,,,1.4,0.9,1.0*35
$GPGSA,A,3,27,30,32,41,,,,,,,,,1.4,0.9,1.0*3D
$GPGST,230007.00,3.843,2.106,0.590,66.948,0.987,1.952,1.250*6E
$GPGBS,230007.00,5.966,8.964,7.394,32,0.0001,10.186,8.568*62
$GPGRS,230007.00,1,-0.1,-0.2,-1.3,0.7,-0.1,,,,,,,*61
$GPGRS,230007.00,1,-0.2,-4.2,0.3,,,,,,,,,*61
$GPGRS,230007.00,1,-2.3,-1.4,2.1,2.3,0.3,,,,,,,*63
$GPGRS,230007.00,1,-2.3,-0.2,10.2,1.2,,,,,,,,*7B
$GPGSV,4,1,15,21,83,334,45,03,26,240,31,22,12,321,,10,28,057,38*77
$GPGSV,4,2,15,14,16,301,33,27,20,164,43,32,48,081,47,08,48,189,48*77
$GPGSV,4,3,15,01,56,296,,02,61,302,45,17,07,321,40,36,35,170,42*76
$GPGSV,4,4,15,34,31,208,,49,34,195,37,61,03,257,*45
$GLGSV,3,1,09,69,70,068,51,76,12,322,45,68,22,033,31,70,34,197,29*64
$GLGSV,3,2,09,85,51,323,46,84,65,096,34,83,05,123,,77,05,004,29*67
$GLGSV,3,3,09,75,01,269,23*53
$GAGSV,3,1,12,26,68,078,35,14,15,157,,08,21,041,30,24,13,323,30*60
$GAGSV,3,2,12,13,17,100,,29,28,166,39,31,23,272,37,07,49,098,37*6A
$GAGSV,3,3,12,33,54,300,45,16,02,345,,23,10,223,,12,03,287,*61
$GBGSV,5,1,18,27,82,183,50,06,13,081,,60,10,109,,13,12,061,*62
$GBGSV,5,2,18,05,24,128,,32,32,208,36,16,14,078,,28,36,136,29*6F
$GBGSV,5,3,18,39,17,068,25,33,33,050,35,30,41,304,45,57,73,294,*6B
$GBGSV,5,4,18,41,75,122,42,02,09,105,,14,09,043,21,45,00,330,*65
$GBGSV,5,5,18,08,03,060,,09,10,094,*6A
$GPGGA,230007.00,,,,,0,00,,,M,,M,,*4E
$PTNL,GGK,230007.00,010125,4742.4455941,N,01617.9729288,E,1,17,1.4,EHT666.9168,M*40
$GPGGQ,230007.00,010125,4742.4455941,N,01617.9729288,E,1,17,2.519,623.7057,M*36
$GPGFA,230007.00,20.023,10.251,2.106,0.590,66.948,1.250,,VVV*3B
$GPLLK,230007.00,010125,,M,,M,1,17,1.6,,M*0C
$GNGMP,230007.00,,,,,DAAA,17,0.9,,,,*5F
$GPGMP,230007.00,,,,,,05,,,,3.4,123*79
$GLGMP,230007.00,,,,,,03,,,,,*7A
$GAGMP,230007.00,,,,,,05,,,,,*71
$GBGMP,230007.00,,,,,,04,,,,,*73
$PSSN,SNC,[0,342025000,2347]*46
$GPZDA,230012.00,01,01,2025,,*61
$GPDTM,W84,,00.0000000,N,00.0000000,E,00.0000000,W84*5F
$GPRMC,230012.00,A,4742.4455893,N,01617.9729088,E,0.0,,010125,5.1,E,D*1C
$GPGLL,4742.4455893,N,01617.9729088,E,230012.00,A,D*6D
$GPGGA,230012.00,4742.4455893,N,01617.9729088,E,2,16,0.9,623.6921,M,43.2111,M,2.8,0123*4B
$GNGNS,230012.00,4742.4455893,N,01617.9729088,E,DAAA,16,0.9,623.6921,43.2111,,*5D
$GPGNS,230012.00,,,,,,06,,,,2.8,123*73
$GLGNS,230012.00,,,,,,03,,,,,*7E
$GAGNS,230012.00,,,,,,04,,,,,*74
$GBGNS,230012.00,,,,,,03,,,,,*70
$GPLLQ,230012.00,010125,,M,,M,1,16,1.700,,M*12
$GPVTG,,T,,M,0.00,N,0.00,K,D*26
$GPHDT,,T*1B
$GPTHS,,V*0E
$GPROT,,V*08
$PSSN,HRP,230012.00,010125,,,,,,,00,0,,*63
$PTNL,AVR,230012.00,,Yaw,,Tilt,,,,0,,00*35
$GPGSA,A,3,02,08,17,21,27,32,,,,,,,1.4,0.9,1.0*34
$GPGSA,A,3,69,76,85,,,,,,,,,,1.4,0.9,1.0*3C
$GPGSA,A,3,07,29,31,33,,,,,,,,,1.4,0.9,1.0*31
$GPGSA,A,3,27,30,41,,,,,,,,,,1.4,0.9,1.0*3C
$GPGST,230012.00,2.115,0.880,0.630,57.031,0.713,0.814,1.310*6C
$GPGBS,230012.00,3.565,5.234,7.224,32,0.0001,1.431,0.686*54
$GPGRS,230012.00,1,0.1,-0.9,-1.6,-0.0,-0.5,1.4,,,,,,*43
$GPGRS,230012.00,1,-2.0,-3.6,0.6,,,,,,,,,*63
$GPGRS,230012.00,1,-1.9,0.6,1.8,-0.2,,,,,,,,*49
$GPGRS,230012.00,1,-2.8,-0.4,1.3,,,,,,,,,*6E
$GPGSV,4,1,15,21,83,334,45,03,26,240,31,22,12,321,,10,28,057,23*7D
$GPGSV,4,2,15,14,16,301,29,27,20,164,43,32,48,081,47,08,48,189,48*7C
$GPGSV,4,3,15,01,56,296,,02,61,302,46,17,07,321,39,36,35,170,42*7B
$GPGSV,4,4,15,34,31,208,,49,34,195,37,61,03,257,*45
$GLGSV,3,1,10,69,69,068,51,76,12,322,45,68,22,033,,70,34,197,28*67
$GLGSV,3,2,10,85,51,323,46,84,65,096,34,83,05,123,,77,05,004,30*67
$GLGSV,3,3,10,75,01,269,,86,00,308,*6F
$GAGSV,3,1,12,26,68,078,34,14,15,157,,08,21,041,31,24,13,323,32*62
$GAGSV,3,2,12,13,17,100,20,29,28,166,39,31,23,272,36,07,49,098,37*69
$GAGSV,3,3,12,33,54,300,44,16,02,345,,23,10,223,,12,03,287,*60
$GBGSV,5,1,18,27,81,183,49,06,13,081,,60,10,109,,13,12,061,*69
$GBGSV,5,2,18,05,24,128,,32,32,208,32,16,14,078,,28,36,136,32*61
$GBGSV,5,3,18,39,17,068,25,33,33,050,35,30,41,304,45,57,73,294,*6B
$GBGSV,5,4,18,41,75,122,43,02,09,105,,14,09,043,18,45,00,330,*6E
$GBGSV,5,5,18,08,03,060,,09,10,094,*6A
$GPGGA,230012.00,,,,,0,00,,,M,,M,,*4A
$PTNL,GGK,230012.00,010125,4742.4455893,N,01617.9729088,E,1,16,1.4,EHT666.9031,M*44
$GPGGQ,230012.00,010125,4742.4455893,N,01617.9729088,E,1,16,1.700,623.6921,M*3F
$GPGFA,230012.00,8.369,10.746,0.880,0.630,57.031,1.310,,VVV*07
$GPLLK,230012.00,010125,,M,,M,1,16,1.6,,M*09
$GNGMP,230012.00,,,,,DAAA,16,0.9,,,,*5A
$GPGMP,230012.00,,,,,,06,,,,2.8,123*73
$GLGMP,230012.00,,,,,,03,,,,,*7E
$GAGMP,230012.00,,,,,,04,,,,,*74
$GBGMP,230012.00,,,,,,03,,,,,*70
$PSSN,SNC,[0,342030000,2347]*42
$GPZDA,230017.00,01,01,2025,,*64
$GPDTM,W84,,00.0000000,N,00.0000000,E,00.0000000,W84*5F
$GPRMC,230017.00,A,4742.4455821,N,01617.9728963,E,0.0,,010125,5.1,E,D*1D
$GPGLL,4742.4455821,N,01617.9728963,E,230017.00,A,D*6C
$GPGGA,230017.00,4742.4455821,N,01617.9728963,E,2,17,0.8,623.6752,M,43.2111,M,1.8,0123*43
$GNGNS,230017.00,4742.4455821,N,01617.9728963,E,DAAA,17,0.8,623.6752,43.2111,,*56
$GPGNS,230017.00,,,,,,06,,,,1.8,123*75
$GLGNS,230017.00,,,,,,03,,,,,*7B
$GAGNS,230017.00,,,,,,04,,,,,*71
$GBGNS,230017.00,,,,,,04,,,,,*72
$GPLLQ,230017.00,010125,,M,,M,1,17,1.797,,M*18
$GPVTG,,T,,M,0.01,N,0.01,K,D*26
$GPHDT,,T*1B
$GPTHS,,V*0E
$GPROT,,V*08
$PSSN,HRP,230017.00,010125,,,,,,,00,0,,*66
$PTNL,AVR,230017.00,,Yaw,,Tilt,,,,0,,00*30
$GPGSA,A,3,02,08,17,21,27,32,,,,,,,1.2,0.8,1.0*33
$GPGSA,A,3,69,76,85,,,,,,,,,,1.2,0.8,1.0*3B
$GPGSA,A,3,07,29,31,33,,,,,,,,,1.2,0.8,1.0*36
$GPGSA,A,3,27,30,33,41,,,,,,,,,1.2,0.8,1.0*3B
$GPGST,230017.00,1.824,0.950,0.659,59.021,0.747,0.882,1.375*60
$GPGBS,230017.00,3.377,5.292,6.864,02,0.0001,1.124,0.600*5B
$GPGRS,230017.00,1,1.1,-1.0,-1.7,-0.1,-0.8,0.9,,,,,,*4E
$GPGRS,230017.00,1,-2.1,-2.4,1.1,,,,,,,,,*62
$GPGRS,230017.00,1,-1.3,1.0,-0.8,0.1,,,,,,,,*43
$GPGRS,230017.00,1,-3.1,-0.6,0.9,1.0,,,,,,,,*45
$GPGSV,4,1,15,21,83,334,45,03,26,240,27,22,12,321,,10,28,057,39*71
$GPGSV,4,2,15,14,16,301,20,27,20,164,42,32,48,081,48,08,48,189,47*74
$GPGSV,4,3,15,01,56,296,,02,61,302,47,17,08,321,38,36,35,170,42*74
$GPGSV,4,4,15,34,31,208,,49,34,195,36,61,03,257,*44
$GLGSV,3,1,10,69,69,068,50,76,12,322,46,68,22,033,27,70,34,197,*6A
$GLGSV,3,2,10,85,51,323,47,84,65,096,33,83,04,123,,77,05,004,30*60
$GLGSV,3,3,10,75,01,269,,86,00,308,*6F
$GAGSV,3,1,12,26,68,078,33,14,15,157,,08,21,041,31,24,13,323,35*62
$GAGSV,3,2,12,13,17,100,23,29,28,166,39,31,23,272,35,07,49,098,37*69
$GAGSV,3,3,12,33,54,300,44,16,02,345,,23,10,223,,12,03,287,*60
$GBGSV,5,1,18,27,81,183,49,06,13,081,,60,10,109,,13,12,061,*69
$GBGSV,5,2,18,05,24,128,,32,32,208,30,16,14,078,,28,36,136,35*64
$GBGSV,5,3,18,39,17,068,25,33,33,050,38,30,41,304,44,57,73,294,*67
$GBGSV,5,4,18,41,75,122,42,02,09,105,,14,09,043,23,45,00,330,*67
$GBGSV,5,5,18,08,03,060,,09,10,094,*6A
$GPGGA,230017.00,,,,,0,00,,,M,,M,,*4F
$PTNL,GGK,230017.00,010125,4742.4455821,N,01617.9728963,E,1,17,1.2,EHT666.8862,M*4D
$GPGGQ,230017.00,010125,4742.4455821,N,01617.9728963,E,1,17,1.797,623.6752,M*3B
$GPGFA,230017.00,9.032,11.275,0.950,0.659,59.021,1.375,,VVV*05
$GPLLK,230017.00,010125,,M,,M,1,17,1.4,,M*0F
$GNGMP,230017.00,,,,,DAAA,17,0.8,,,,*5F
$GPGMP,230017.00,,,,,,06,,,,1.8,123*75
$GLGMP,230017.00,,,,,,03,,,,,*7B
$GAGMP,230017.00,,,,,,04,,,,,*71
$GBGMP,230017.00,,,,,,04,,,,,*72
$PSSN,SNC,[0,342035000,2347]*47
$GPZDA,230022.00,01,01,2025,,*62
$GPDTM,W84,,00.0000000,N,00.0000000,E,00.0000000,W84*5F
$GPRMC,230022.00,A,4742.4455732,N,01617.9728919,E,0.0,,010125,5.1,E,D*1B
$GPGLL,4742.4455732,N,01617.9728919,E,230022.00,A,D*6A
$GPGGA,230022.00,4742.4455732,N,01617.9728919,E,2,18,0.8,623.6558,M,43.2111,M,2.2,0123*4B
$GNGNS,230022.00,4742.4455732,N,01617.9728919,E,DAAA,18,0.8,623.6558,43.2111,,*57
$GPGNS,230022.00,,,,,,06,,,,2.2,123*7A
$GLGNS,230022.00,,,,,,03,,,,,*7D
$GAGNS,230022.00,,,,,,04,,,,,*77
$GBGNS,230022.00,,,,,,05,,,,,*75
$GPLLQ,230022.00,010125,,M,,M,1,18,2.014,,M*1E
$GPVTG,,T,,M,0.00,N,0.01,K,D*27
$GPHDT,,T*1B
$GPTHS,,V*0E
$GPROT,,V*08
$PSSN,HRP,230022.00,010125,,,,,,,00,0,,*60
$PTNL,AVR,230022.00,,Yaw,,Tilt,,,,0,,00*36
$GPGSA,A,3,02,08,17,21,27,32,,,,,,,1.2,0.8,0.9*3B
$GPGSA,A,3,69,76,85,,,,,,,,,,1.2,0.8,0.9*33
$GPGSA,A,3,07,24,29,33,,,,,,,,,1.2,0.8,0.9*3A
$GPGSA,A,3,27,28,30,33,41,,,,,,,,1.2,0.8,0.9*39
$GPGST,230022.00,2.943,1.072,0.742,58.428,0.846,0.993,1.535*67
$GPGBS,230022.00,3.334,5.124,6.843,02,0.0001,1.502,0.618*58
$GPGRS,230022.00,1,1.5,-1.2,-1.6,-0.2,-1.3,0.9,,,,,,*46
$GPGRS,230022.00,1,-2.5,-1.7,0.1,,,,,,,,,*61
$GPGRS,230022.00,1,-2.2,-5.4,0.5,0.3,,,,,,,,*48
$GPGRS,230022.00,1,-3.4,5.5,-1.1,-0.6,0.1,,,,,,,*4C
$GPGSV,4,1,15,21,83,335,45,03,26,240,27,22,12,321,,10,28,057,31*78
$GPGSV,4,2,15,14,16,301,,27,20,164,41,32,48,081,48,08,48,189,47*75
$GPGSV,4,3,15,01,56,296,,02,61,302,47,17,08,321,38,36,35,170,42*74
$GPGSV,4,4,15,34,31,208,,49,34,195,37,61,03,257,*45
$GLGSV,3,1,10,69,69,068,50,76,12,322,46,68,22,033,26,70,34,197,19*63
$GLGSV,3,2,10,85,51,323,47,84,65,096,34,83,04,123,,77,06,004,29*6C
$GLGSV,3,3,10,75,01,269,,86,00,308,*6F
$GAGSV,3,1,12,26,68,079,33,14,15,157,,08,21,041,31,24,13,323,42*63
$GAGSV,3,2,12,13,17,100,21,29,28,166,38,31,23,272,32,07,49,098,37*6D
$GAGSV,3,3,12,33,54,300,43,16,02,345,,23,10,223,,12,03,287,*67
$GBGSV,5,1,18,27,81,182,48,06,13,081,,60,10,109,,13,12,061,*69
$GBGSV,5,2,18,05,24,128,,32,32,208,30,16,14,078,,28,36,136,37*66
$GBGSV,5,3,18,39,17,068,27,33,33,050,40,30,41,304,45,57,73,294,*6B
$GBGSV,5,4,18,41,75,122,42,02,09,105,,14,09,043,21,45,00,330,*65
$GBGSV,5,5,18,08,03,060,,09,10,094,*6A
$GPGGA,230022.00,,,,,0,00,,,M,,M,,*49
$PTNL,GGK,230022.00,010125,4742.4455732,N,01617.9728919,E,1,18,1.2,EHT666.8668,M*40
$GPGGQ,230022.00,010125,4742.4455732,N,01617.9728919,E,1,18,2.014,623.6558,M*35
$GPGFA,230022.00,10.197,12.585,1.072,0.742,58.428,1.535,,VVV*33
$GPLLK,230022.00,010125,,M,,M,1,18,1.4,,M*06
$GNGMP,230022.00,,,,,DAAA,18,0.8,,,,*56
$GPGMP,230022.00,,,,,,06,,,,2.2,123*7A
$GLGMP,230022.00,,,,,,03,,,,,*7D
$GAGMP,230022.00,,,,,,04,,,,,*77
$GBGMP,230022.00,,,,,,05,,,,,*75
$PSSN,SNC,[0,342040000,2347]*45
$GPZDA,230027.00,01,01,2025,,*67
$GPDTM,W84,,00.0000000,N,00.0000000,E,00.0000000,W84*5F
$GPRMC,230027.00,A,4742.4455628,N,01617.9728900,E,0.0,,010125,5.1,E,D*1C
$GPGLL,4742.4455628,N,01617.9728900,E,230027.00,A,D*6D
$GPGGA,230027.00,4742.4455628,N,01617.9728900,E,2,19,0.7,623.6429,M,43.2111,M,3.3,0123*45
$GNGNS,230027.00,4742.4455628,N,01617.9728900,E,DAAA,19,0.7,623.6429,43.2111,,*59
$GPGNS,230027.00,,,,,,07,,,,3.3,123*7E
$GLGNS,230027.00,,,,,,03,,,,,*78
$GAGNS,230027.00,,,,,,04,,,,,*72
$GBGNS,230027.00,,,,,,05,,,,,*70
$GPLLQ,230027.00,010125,,M,,M,1,19,2.289,,M*1C
$GPVTG,,T,,M,0.00,N,0.01,K,D*27
$GPHDT,,T*1B
$GPTHS,,V*0E
$GPROT,,V*08
$PSSN,HRP,230027.00,010125,,,,,,,00,0,,*65
$PTNL,AVR,230027.00,,Yaw,,Tilt,,,,0,,00*33
$GPGSA,A,3,02,08,10,17,21,27,32,,,,,,1.1,0.7,0.9*36
$GPGSA,A,3,69,76,85,,,,,,,,,,1.1,0.7,0.9*3F
$GPGSA,A,3,07,24,29,33,,,,,,,,,1.1,0.7,0.9*36
$GPGSA,A,3,27,28,30,33,41,,,,,,,,1.1,0.7,0.9*35
$GPGST,230027.00,6.052,1.152,0.877,59.206,0.957,1.087,1.773*62
$GPGBS,230027.00,3.027,3.892,6.342,24,0.0001,18.742,6.250*60
$GPGRS,230027.00,1,1.4,-1.1,-3.6,-0.5,-0.2,-0.7,0.3,,,,,*4A
$GPGRS,230027.00,1,-2.1,-0.2,1.0,,,,,,,,,*64
$GPGRS,230027.00,1,-2.1,18.7,0.5,0.6,,,,,,,,*59
$GPGRS,230027.00,1,-3.7,6.7,-1.1,0.9,-0.3,,,,,,,*46
$GPGSV,4,1,15,21,83,335,44,03,26,240,24,22,12,321,,10,28,057,36*7D
$GPGSV,4,2,15,14,16,300,34,27,20,164,40,32,48,081,47,08,48,189,46*7C
$GPGSV,4,3,15,01,56,296,,02,61,302,47,17,08,321,35,36,35,170,42*79
$GPGSV,4,4,15,34,31,208,,49,34,195,37,61,03,257,*45
$GLGSV,3,1,10,69,69,068,50,76,12,322,46,68,22,033,29,70,34,197,*64
$GLGSV,3,2,10,85,51,323,48,84,65,096,35,83,04,123,,77,06,004,27*6C
$GLGSV,3,3,10,75,01,269,,86,00,308,*6F
$GAGSV,3,1,12,26,68,079,34,14,14,157,,08,21,041,31,24,13,323,36*66
$GAGSV,3,2,12,13,17,100,23,29,28,166,37,31,23,272,32,07,49,098,38*6F
$GAGSV,3,3,12,33,54,300,42,16,02,345,,23,10,223,,12,03,287,*66
$GBGSV,5,1,18,27,81,182,48,06,13,081,,60,10,109,,13,12,061,*69
$GBGSV,5,2,18,05,24,128,,32,32,208,28,16,14,078,,28,36,136,39*61
$GBGSV,5,3,18,39,17,068,26,33,33,050,42,30,41,304,46,57,73,294,*6B
$GBGSV,5,4,18,41,75,121,43,02,09,105,,14,09,043,23,45,00,330,*65
$GBGSV,5,5,18,08,03,060,,09,10,094,*6A
$GPGGA,230027.00,,,,,0,00,,,M,,M,,*4C
$PTNL,GGK,230027.00,010125,4742.4455628,N,01617.9728900,E,1,19,1.1,EHT666.8539,M*42
$GPGGQ,230027.00,010125,4742.4455628,N,01617.9728900,E,1,19,2.289,623.6429,M*32
$GPGFA,230027.00,10.953,14.539,1.152,0.877,59.206,1.773,,VVV*36
$GPLLK,230027.00,010125,,M,,M,1,19,1.3,,M*05
$GNGMP,230027.00,,,,,DAAA,19,0.7,,,,*5D
$GPGMP,230027.00,,,,,,07,,,,3.3,123*7E
$GLGMP,230027.00,,,,,,03,,,,,*78
$GAGMP,230027.00,,,,,,04,,,,,*72
$GBGMP,230027.00,,,,,,05,,,,,*70
$PSSN,SNC,[0,342045000,2347]*40
$GPZDA,230032.00,01,01,2025,,*63
$GPDTM,W84,,00.0000000,N,00.0000000,E,00.0000000,W84*5F
$GPRMC,230032.00,A,4742.4455531,N,01617.9729030,E,0.0,,010125,5.1,E,D*18
$GPGLL,4742.4455531,N,01617.9729030,E,230032.00,A,D*69
$GPGGA,230032.00,4742.4455531,N,01617.9729030,E,2,20,0.7,623.6327,M,43.2111,M,2.3,0123*43
$GNGNS,230032.00,4742.4455531,N,01617.9729030,E,DAAA,20,0.7,623.6327,43.2111,,*5E
$GPGNS,230032.00,,,,,,06,,,,2.3,123*7A
$GLGNS,230032.00,,,,,,04,,,,,*7B
$GAGNS,230032.00,,,,,,05,,,,,*77
$GBGNS,230032.00,,,,,,05,,,,,*74
$GPLLQ,230032.00,010125,,M,,M,1,20,2.947,,M*1B
$GPVTG,,T,,M,0.00,N,0.00,K,D*26
$GPHDT,,T*1B
$GPTHS,,V*0E
$GPROT,,V*08
$PSSN,HRP,230032.00,010125,,,,,,,00,0,,*61
$PTNL,AVR,230032.00,,Yaw,,Tilt,,,,0,,00*37
$GPGSA,A,3,02,08,10,21,27,32,,,,,,,1.2,0.7,0.9*33
$GPGSA,A,3,69,76,84,85,,,,,,,,,1.2,0.7,0.9*30
$GPGSA,A,3,07,24,26,29,33,,,,,,,,1.2,0.7,0.9*31
$GPGSA,A,3,27,28,30,33,41,,,,,,,,1.2,0.7,0.9*36
$GPGST,230032.00,5.625,1.255,0.832,303.961,0.984,1.140,2.533*51
$GPGBS,230032.00,3.393,4.530,7.955,24,0.0001,18.116,6.250*60
$GPGRS,230032.00,1,1.2,-1.0,-0.9,0.3,-0.8,-0.1,,,,,,*4F
$GPGRS,230032.00,1,-2.1,0.2,-1.7,1.0,,,,,,,,*48
$GPGRS,230032.00,1,-1.2,18.1,-0.8,0.4,0.3,,,,,,,*54
$GPGRS,230032.00,1,-3.7,7.3,-0.8,0.9,-0.4,,,,,,,*48
$GPGSV,4,1,15,21,83,335,44,03,26,240,25,22,12,321,,10,27,057,39*7C
$GPGSV,4,2,15,14,16,300,,27,20,164,39,32,48,081,46,08,48,189,46*74
$GPGSV,4,3,15,01,56,296,,02,61,302,48,17,08,321,32,36,35,170,42*71
$GPGSV,4,4,15,34,31,208,,49,34,195,37,61,03,257,*45
$GLGSV,3,1,10,69,69,068,49,76,12,322,45,68,22,033,33,70,34,197,*64
$GLGSV,3,2,10,85,51,323,48,84,65,096,35,83,04,123,,77,06,004,26*6D
$GLGSV,3,3,10,75,01,269,,86,00,308,*6F
$GAGSV,3,1,12,26,68,079,35,14,14,157,,08,21,041,32,24,13,323,36*64
$GAGSV,3,2,12,13,17,100,26,29,28,166,36,31,23,272,34,07,49,098,40*62
$GAGSV,3,3,12,33,54,300,40,16,02,345,,23,10,223,,12,03,287,*64
$GBGSV,5,1,18,27,81,182,48,06,13,081,,60,10,109,,13,12,062,*6A
$GBGSV,5,2,18,05,24,128,,32,32,208,22,16,14,078,,28,36,136,40*65
$GBGSV,5,3,18,39,17,068,26,33,33,050,43,30,41,304,47,57,73,294,*6B
$GBGSV,5,4,18,41,75,121,44,02,09,105,,14,09,043,23,45,00,330,*62
$GBGSV,5,5,18,08,03,060,,09,10,094,*6A
$GPGGA,230032.00,,,,,0,00,,,M,,M,,*48
$PTNL,GGK,230032.00,010125,4742.4455531,N,01617.9729030,E,1,20,1.2,EHT666.8437,M*40
$GPGGQ,230032.00,010125,4742.4455531,N,01617.9729030,E,1,20,2.947,623.6327,M*3C
$GPGFA,230032.00,11.930,20.774,1.255,0.832,303.961,2.533,,VVV*0C
$GPLLK,230032.00,010125,,M,,M,1,20,1.4,,M*0C
$GNGMP,230032.00,,,,,DAAA,20,0.7,,,,*53
$GPGMP,230032.00,,,,,,06,,,,2.3,123*7A
$GLGMP,230032.00,,,,,,04,,,,,*7B
$GAGMP,230032.00,,,,,,05,,,,,*77
$GBGMP,230032.00,,,,,,05,,,,,*74
$PSSN,SNC,[0,342050000,2347]*44
$GPZDA,230037.00,01,01,2025,,*66
$GPDTM,W84,,00.0000000,N,00.0000000,E,00.0000000,W84*5F
$GPRMC,230037.00,A,4742.4455509,N,01617.9729192,E,0.0,,010125,5.1,E,D*1F
$GPGLL,4742.4455509,N,01617.9729192,E,230037.00,A,D*6E
$GPGGA,230037.00,4742.4455509,N,01617.9729192,E,2,19,0.8,623.6169,M,43.2111,M,2.0,0123*4A
$GNGNS,230037.00,4742.4455509,N,01617.9729192,E,DAAA,19,0.8,623.6169,43.2111,,*54
$GPGNS,230037.00,,,,,,06,,,,2.0,123*7C
$GLGNS,230037.00,,,,,,04,,,,,*7E
$GAGNS,230037.00,,,,,,04,,,,,*73
$GBGNS,230037.00,,,,,,05,,,,,*71
$GPLLQ,230037.00,010125,,M,,M,1,19,2.558,,M*16
$GPVTG,,T,,M,0.00,N,0.01,K,D*27
$GPHDT,,T*1B
$GPTHS,,V*0E
$GPROT,,V*08
$PSSN,HRP,230037.00,010125,,,,,,,00,0,,*64
$PTNL,AVR,230037.00,,Yaw,,Tilt,,,,0,,00*32
$GPGSA,A,3,02,08,10,21,27,32,,,,,,,1.2,0.8,1.0*34
$GPGSA,A,3,69,76,84,85,,,,,,,,,1.2,0.8,1.0*37
$GPGSA,A,3,07,24,26,33,,,,,,,,,1.2,0.8,1.0*3D
$GPGSA,A,3,27,28,30,33,41,,,,,,,,1.2,0.8,1.0*31
$GPGST,230037.00,3.338,1.098,0.726,302.420,0.850,1.005,2.193*5D
$GPGBS,230037.00,3.374,4.730,7.981,10,0.0001,-2.075,0.943*7D
$GPGRS,230037.00,1,1.3,-0.5,-2.1,0.0,0.1,0.2,,,,,,*4C
$GPGRS,230037.00,1,-2.8,-4.1,-3.1,0.8,,,,,,,,*63
$GPGRS,230037.00,1,-0.2,-5.7,-1.0,-0.5,,,,,,,,*4F
$GPGRS,230037.00,1,-3.2,6.9,-0.9,0.5,-0.9,,,,,,,*43
$GPGSV,4,1,15,21,83,335,45,03,26,240,27,22,12,321,,10,27,057,40*71
$GPGSV,4,2,15,14,16,300,,27,20,164,39,32,48,080,45,08,47,189,46*79
$GPGSV,4,3,15,01,56,296,,02,61,302,48,17,08,321,30,36,35,170,42*73
$GPGSV,4,4,15,34,31,208,,49,34,195,37,61,03,257,*45
$GLGSV,3,1,10,69,69,068,49,76,12,322,39,68,22,033,34,70,34,197,26*6C
$GLGSV,3,2,10,85,51,323,48,84,65,096,36,83,04,123,,77,06,004,23*6B
$GLGSV,3,3,10,75,01,269,21,86,00,308,*6C
$GAGSV,3,1,12,26,68,079,36,14,14,157,,08,21,041,32,24,13,323,42*64
$GAGSV,3,2,12,13,17,100,25,29,28,166,34,31,23,272,34,07,49,098,41*62
$GAGSV,3,3,12,33,54,300,39,16,02,345,,23,10,223,,12,03,287,*6A
$GBGSV,5,1,18,27,81,182,49,06,13,081,,60,10,109,,13,11,062,*68
$GBGSV,5,2,18,05,24,128,,32,32,208,30,16,14,078,,28,36,136,41*67
$GBGSV,5,3,18,39,17,068,26,33,33,050,43,30,41,304,48,57,73,294,*64
$GBGSV,5,4,18,41,75,121,44,02,09,105,,14,09,043,22,45,00,330,*63
$GBGSV,5,5,18,08,03,060,,09,10,094,*6A
$GPGGA,230037.00,,,,,0,00,,,M,,M,,*4D
$PTNL,GGK,230037.00,010125,4742.4455509,N,01617.9729192,E,1,19,1.2,EHT666.8280,M*47
$GPGGQ,230037.00,010125,4742.4455509,N,01617.9729192,E,1,19,2.558,623.6169,M*3B
$GPGFA,230037.00,10.437,17.985,1.098,0.726,302.420,2.193,,VVV*08
$GPLLK,230037.00,010125,,M,,M,1,19,1.4,,M*03
$GNGMP,230037.00,,,,,DAAA,19,0.8,,,,*53
$GPGMP,230037.00,,,,,,06,,,,2.0,123*7C
$GLGMP,230037.00,,,,,,04,,,,,*7E
$GAGMP,230037.00,,,,,,04,,,,,*73
$GBGMP,230037.00,,,,,,05,,,,,*71
$PSSN,SNC,[0,342055000,2347]*41
$GPZDA,230042.00,01,01,2025,,*64
$GPDTM,W84,,00.0000000,N,00.0000000,E,00.0000000,W84*5F
$GPRMC,230042.00,A,4742.4455502,N,01617.9729264,E,0.0,,010125,5.1,E,D*1C
$GPGLL,4742.4455502,N,01617.9729264,E,230042.00,A,D*6D
$GPGGA,230042.00,4742.4455502,N,01617.9729264,E,2,20,0.7,623.6013,M,43.2111,M,2.3,0123*43
$GNGNS,230042.00,4742.4455502,N,01617.9729264,E,DAAA,20,0.7,623.6013,43.2111,,*5E
$GPGNS,230042.00,,,,,,06,,,,2.3,123*7D
$GLGNS,230042.00,,,,,,05,,,,,*7D
$GAGNS,230042.00,,,,,,04,,,,,*71
$GBGNS,230042.00,,,,,,05,,,,,*73
$GPLLQ,230042.00,010125,,M,,M,1,20,2.676,,M*11
$GPVTG,,T,,M,0.01,N,0.01,K,D*26
$GPHDT,,T*1B
$GPTHS,,V*0E
$GPROT,,V*08
$PSSN,HRP,230042.00,010125,,,,,,,00,0,,*66
$PTNL,AVR,230042.00,,Yaw,,Tilt,,,,0,,00*30
$GPGSA,A,3,02,08,10,21,27,32,,,,,,,1.2,0.7,0.9*33
$GPGSA,A,3,68,69,76,84,85,,,,,,,,1.2,0.7,0.9*3E
$GPGSA,A,3,07,24,26,33,,,,,,,,,1.2,0.7,0.9*3A
$GPGSA,A,3,27,28,30,33,41,,,,,,,,1.2,0.7,0.9*36
$GPGST,230042.00,4.024,1.169,0.766,303.178,0.906,1.064,2.282*52
$GPGBS,230042.00,3.379,4.680,7.773,10,0.0001,-2.199,0.955*7F
$GPGRS,230042.00,1,0.7,-0.3,-2.2,-0.4,0.8,1.1,,,,,,*6C
$GPGRS,230042.00,1,3.8,-2.8,-9.1,-3.5,0.5,,,,,,,*40
$GPGRS,230042.00,1,-0.3,-5.6,-0.6,-0.2,,,,,,,,*4D
$GPGRS,230042.00,1,-2.9,6.3,-1.1,-0.2,-2.0,,,,,,,*69
$GPGSV,4,1,15,21,83,335,44,03,26,241,28,22,12,321,,10,27,057,41*7F
$GPGSV,4,2,15,14,16,300,,27,20,164,40,32,48,080,45,08,47,189,46*77
$GPGSV,4,3,15,01,56,296,,02,61,302,47,17,08,321,32,36,35,170,41*7D
$GPGSV,4,4,15,34,31,208,,49,34,195,37,61,03,257,*45
$GLGSV,3,1,10,69,69,068,49,76,12,321,36,68,22,033,35,70,34,197,*65
$GLGSV,3,2,10,85,51,323,48,84,64,096,36,83,04,123,,77,06,004,19*63
$GLGSV,3,3,10,75,01,269,21,86,00,308,*6C
$GAGSV,3,1,12,26,68,079,36,14,14,157,,08,21,041,32,24,13,323,32*63
$GAGSV,3,2,12,13,17,100,25,29,28,166,32,31,23,272,34,07,49,098,42*67
$GAGSV,3,3,12,33,54,300,37,16,02,345,,23,10,223,,12,03,287,*64
$GBGSV,5,1,18,27,81,182,49,06,13,081,,60,10,109,,13,11,062,*68
$GBGSV,5,2,18,05,24,128,,32,32,208,30,16,14,078,,28,36,136,42*64
$GBGSV,5,3,18,39,17,068,26,33,33,050,44,30,41,304,48,57,73,294,*63
$GBGSV,5,4,18,41,75,121,44,02,09,105,,14,09,043,24,45,00,330,*65
$GBGSV,5,5,18,08,03,060,,09,10,094,*6A
$GPGGA,230042.00,,,,,0,00,,,M,,M,,*4F
$PTNL,GGK,230042.00,010125,4742.4455502,N,01617.9729264,E,1,20,1.2,EHT666.8123,M*44
$GPGGQ,230042.00,010125,4742.4455502,N,01617.9729264,E,1,20,2.676,623.6013,M*31
$GPGFA,230042.00,11.112,18.710,1.169,0.766,303.178,2.282,,VVV*05
$GPLLK,230042.00,010125,,M,,M,1,20,1.4,,M*0B
$GNGMP,230042.00,,,,,DAAA,20,0.7,,,,*54
$GPGMP,230042.00,,,,,,06,,,,2.3,123*7D
$GLGMP,230042.00,,,,,,05,,,,,*7D
$GAGMP,230042.00,,,,,,04,,,,,*71
$GBGMP,230042.00,,,,,,05,,,,,*73
$PSSN,SNC,[0,342060000,2347]*47
$GPZDA,230047.00,01,01,2025,,*61
$GPDTM,W84,,00.0000000,N,00.0000000,E,00.0000000,W84*5F
$GPRMC,230047.00,A,4742.4455604,N,01617.9729203,E,0.0,,010125,5.1,E,D*1D
$GPGLL,4742.4455604,N,01617.9729203,E,230047.00,A,D*6C
$GPGGA,230047.00,4742.4455604,N,01617.9729203,E,2,21,0.7,623.5864,M,43.2111,M,3.4,0123*4E
$GNGNS,230047.00,4742.4455604,N,01617.9729203,E,DAAA,21,0.7,623.5864,43.2111,,*55
$GPGNS,230047.00,,,,,,08,,,,3.4,123*70
$GLGNS,230047.00,,,,,,05,,,,,*78
$GAGNS,230047.00,,,,,,03,,,,,*73
$GBGNS,230047.00,,,,,,05,,,,,*76
$GPLLQ,230047.00,010125,,M,,M,1,21,2.332,,M*10
$GPVTG,,T,,M,0.00,N,0.00,K,D*26
$GPHDT,,T*1B
$GPTHS,,V*0E
$GPROT,,V*08
$PSSN,HRP,230047.00,010125,,,,,,,00,0,,*63
$PTNL,AVR,230047.00,,Yaw,,Tilt,,,,0,,00*35
$GPGSA,A,3,02,08,10,14,17,21,27,32,,,,,1.1,0.7,0.9*33
$GPGSA,A,3,68,69,76,84,85,,,,,,,,1.1,0.7,0.9*3D
$GPGSA,A,3,07,26,33,,,,,,,,,,1.1,0.7,0.9*3F
$GPGSA,A,3,27,28,30,33,41,,,,,,,,1.1,0.7,0.9*35
$GPGST,230047.00,3.562,1.120,0.921,41.382,1.038,1.013,1.826*67
$GPGBS,230047.00,2.892,2.720,4.472,14,0.0001,-2.959,0.972*7C
$GPGRS,230047.00,1,1.1,-0.1,-2.5,-3.0,-1.3,-0.2,1.0,1.9,,,,*6D
$GPGRS,230047.00,1,4.2,-2.3,-7.6,-3.8,0.2,,,,,,,*40
$GPGRS,230047.00,1,-0.8,0.8,1.0,,,,,,,,,*4E
$GPGRS,230047.00,1,-2.7,6.5,-1.3,-0.1,-2.6,,,,,,,*63
$GPGSV,4,1,15,21,83,335,44,03,26,241,28,22,12,321,,10,27,057,41*7F
$GPGSV,4,2,15,14,16,300,39,27,20,164,41,32,48,080,46,08,47,189,44*7D
$GPGSV,4,3,15,01,56,296,,02,61,302,46,17,08,321,36,36,35,170,42*7B
$GPGSV,4,4,15,34,31,208,,49,34,195,37,61,03,257,*45
$GLGSV,3,1,10,69,69,067,49,76,12,321,38,68,22,033,37,70,35,197,*67
$GLGSV,3,2,10,85,51,323,48,84,64,096,37,83,04,123,,77,06,004,*6A
$GLGSV,3,3,10,75,01,269,,86,00,308,*6F
$GAGSV,3,1,12,26,68,079,36,14,14,157,,08,21,041,32,24,13,323,29*69
$GAGSV,3,2,12,13,17,100,25,29,28,166,31,31,23,272,34,07,49,098,42*64
$GAGSV,3,3,12,33,55,300,36,16,02,345,,23,10,223,,12,03,287,*64
$GBGSV,5,1,18,27,81,182,48,06,13,081,,60,10,109,,13,11,062,*69
$GBGSV,5,2,18,05,24,128,,32,32,208,33,16,14,078,,28,36,136,42*67
$GBGSV,5,3,18,39,17,068,27,33,33,050,44,30,41,304,48,57,73,295,*63
$GBGSV,5,4,18,41,75,121,44,02,09,105,,14,09,043,24,45,00,330,*65
$GBGSV,5,5,18,08,03,060,,09,10,094,*6A
$GPGGA,230047.00,,,,,0,00,,,M,,M,,*4A
$PTNL,GGK,230047.00,010125,4742.4455604,N,01617.9729203,E,1,21,1.1,EHT666.7975,M*43
$GPGGQ,230047.00,010125,4742.4455604,N,01617.9729203,E,1,21,2.332,623.5864,M*3F
$GPGFA,230047.00,10.648,14.974,1.120,0.921,41.382,1.826,,VVV*3C
$GPLLK,230047.00,010125,,M,,M,1,21,1.3,,M*08
$GNGMP,230047.00,,,,,DAAA,21,0.7,,,,*50
$GPGMP,230047.00,,,,,,08,,,,3.4,123*70
$GLGMP,230047.00,,,,,,05,,,,,*78
$GAGMP,230047.00,,,,,,03,,,,,*73
$GBGMP,230047.00,,,,,,05,,,,,*76
$PSSN,SNC,[0,342065000,2347]*42
$GPZDA,230052.00,01,01,2025,,*65
$GPDTM,W84,,00.0000000,N,00.0000000,E,00.0000000,W84*5F
$GPRMC,230052.00,A,4742.4455619,N,01617.9729191,E,0.0,,010125,5.1,E,D*1D
$GPGLL,4742.4455619,N,01617.9729191,E,230052.00,A,D*6C
$GPGGA,230052.00,4742.4455619,N,01617.9729191,E,2,21,0.7,623.5691,M,43.2111,M,2.4,0123*4B
$GNGNS,230052.00,4742.4455619,N,01617.9729191,E,DAAA,21,0.7,623.5691,43.2111,,*51
$GPGNS,230052.00,,,,,,08,,,,2.4,123*75
$GLGNS,230052.00,,,,,,05,,,,,*7C
$GAGNS,230052.00,,,,,,02,,,,,*76
$GBGNS,230052.00,,,,,,06,,,,,*71
$GPLLQ,230052.00,010125,,M,,M,1,21,2.017,,M*10
$GPVTG,,T,,M,0.00,N,0.00,K,D*26
$GPHDT,,T*1B
$GPTHS,,V*0E
$GPROT,,V*08
$PSSN,HRP,230052.00,010125,,,,,,,00,0,,*67
$PTNL,AVR,230052.00,,Yaw,,Tilt,,,,0,,00*31
$GPGSA,A,3,02,08,10,14,17,21,27,32,,,,,1.1,0.7,0.9*33
$GPGSA,A,3,68,69,76,84,85,,,,,,,,1.1,0.7,0.9*3D
$GPGSA,A,3,07,26,,,,,,,,,,,1.1,0.7,0.9*3F
$GPGSA,A,3,27,28,30,32,33,41,,,,,,,1.1,0.7,0.9*34
$GPGST,230052.00,3.250,0.976,0.799,43.096,0.897,0.886,1.574*65
$GPGBS,230052.00,2.904,2.635,4.258,10,0.0001,-3.038,0.936*76
$GPGRS,230052.00,1,0.4,-0.8,-3.0,1.0,1.1,-0.7,0.2,2.1,,,,*6D
$GPGRS,230052.00,1,4.6,-2.3,-4.2,-3.8,0.6,,,,,,,*43
$GPGRS,230052.00,1,-0.9,-0.6,,,,,,,,,,*47
$GPGRS,230052.00,1,-3.0,6.7,-2.0,-2.3,-0.6,-2.7,,,,,,*67
$GPGSV,4,1,15,21,83,336,43,03,26,241,29,22,12,321,,10,27,057,41*7A
$GPGSV,4,2,15,14,16,300,38,27,20,164,42,32,48,080,48,08,47,189,42*77
$GPGSV,4,3,15,01,56,296,,02,61,302,46,17,08,321,39,36,35,170,42*74
$GPGSV,4,4,15,34,31,208,,49,34,195,37,61,03,257,*45
$GLGSV,3,1,10,69,69,067,49,76,12,321,43,68,22,033,39,70,35,197,*65
$GLGSV,3,2,10,85,51,323,48,84,64,096,37,83,04,123,,77,06,004,25*6D
$GLGSV,3,3,10,75,01,268,24,86,00,308,*68
$GAGSV,3,1,12,26,68,079,37,14,14,157,,08,21,041,33,24,13,323,30*61
$GAGSV,3,2,12,13,16,100,24,29,28,166,30,31,23,272,34,07,49,098,42*65
$GAGSV,3,3,12,33,55,300,34,16,02,345,,23,10,223,,12,03,287,*66
$GBGSV,5,1,18,27,81,182,48,06,13,081,,60,10,109,,13,11,062,*69
$GBGSV,5,2,18,05,24,128,,32,32,208,35,16,14,078,,28,36,136,40*63
$GBGSV,5,3,18,39,17,068,27,33,33,050,44,30,41,304,47,57,73,295,*6C
$GBGSV,5,4,18,41,75,121,45,02,09,105,,14,09,043,25,45,00,330,*65
$GBGSV,5,5,18,08,03,060,,09,10,094,*6A
$GPGGA,230052.00,,,,,0,00,,,M,,M,,*4E
$PTNL,GGK,230052.00,010125,4742.4455619,N,01617.9729191,E,1,21,1.1,EHT666.7801,M*41
$GPGGQ,230052.00,010125,4742.4455619,N,01617.9729191,E,1,21,2.017,623.5691,M*3F
$GPGFA,230052.00,9.276,12.908,0.976,0.799,43.096,1.574,,VVV*0D
$GPLLK,230052.00,010125,,M,,M,1,21,1.3,,M*0C
$GNGMP,230052.00,,,,,DAAA,21,0.7,,,,*54
$GPGMP,230052.00,,,,,,08,,,,2.4,123*75
$GLGMP,230052.00,,,,,,05,,,,,*7C
$GAGMP,230052.00,,,,,,02,,,,,*76
$GBGMP,230052.00,,,,,,06,,,,,*71
$PSSN,SNC,[0,342070000,2347]*46
$GPZDA,230057.00,01,01,2025,,*60
$GPDTM,W84,,00.0000000,N,00.0000000,E,00.0000000,W84*5F
$GPRMC,230057.00,A,4742.4455590,N,01617.9729302,E,0.0,,010125,5.1,E,D*12
$GPGLL,4742.4455590,N,01617.9729302,E,230057.00,A,D*63
$GPGGA,230057.00,4742.4455590,N,01617.9729302,E,2,22,0.6,623.5788,M,43.2111,M,1.9,0123*41
$GNGNS,230057.00,4742.4455590,N,01617.9729302,E,DAAA,22,0.6,623.5788,43.2111,,*55
$GPGNS,230057.00,,,,,,08,,,,1.9,123*7E
$GLGNS,230057.00,,,,,,05,,,,,*79
$GAGNS,230057.00,,,,,,03,,,,,*72
$GBGNS,230057.00,,,,,,06,,,,,*74
$GPLLQ,230057.00,010125,,M,,M,1,22,1.842,,M*1D
$GPVTG,,T,,M,0.01,N,0.01,K,D*26
$GPHDT,,T*1B
$GPTHS,,V*0E
$GPROT,,V*08
$PSSN,HRP,230057.00,010125,,,,,,,00,0,,*62
$PTNL,AVR,230057.00,,Yaw,,Tilt,,,,0,,00*34
$GPGSA,A,3,02,08,10,14,17,21,27,32,,,,,1.1,0.6,0.9*32
$GPGSA,A,3,68,69,76,84,85,,,,,,,,1.1,0.6,0.9*3C
$GPGSA,A,3,07,26,31,,,,,,,,,,1.1,0.6,0.9*3C
$GPGSA,A,3,27,28,30,32,33,41,,,,,,,1.1,0.6,0.9*35
$GPGST,230057.00,3.001,0.894,0.731,44.465,0.818,0.815,1.434*6E
$GPGBS,230057.00,2.831,2.622,4.310,10,0.0001,-3.350,0.946*75
$GPGRS,230057.00,1,0.2,-0.4,-3.4,0.6,1.0,-0.4,-0.7,1.7,,,,*4E
$GPGRS,230057.00,1,5.9,-1.3,2.6,-4.3,-0.1,,,,,,,*42
$GPGRS,230057.00,1,-0.9,-1.9,-1.6,,,,,,,,,*48
$GPGRS,230057.00,1,-3.0,4.9,-1.7,-2.1,-1.3,-2.8,,,,,,*63
$GPGSV,4,1,15,21,83,336,42,03,27,241,29,22,12,321,,10,27,057,40*7B
$GPGSV,4,2,15,14,16,300,35,27,20,164,42,32,48,080,48,08,47,189,40*78
$GPGSV,4,3,15,01,56,296,,02,61,302,46,17,08,321,40,36,35,170,42*7A
$GPGSV,4,4,15,34,31,208,,49,34,195,37,61,03,257,*45
$GLGSV,3,1,10,69,69,067,50,76,12,321,44,68,22,033,40,70,35,197,*64
$GLGSV,3,2,10,85,51,323,48,84,64,096,37,83,04,123,,77,06,004,27*6F
$GLGSV,3,3,10,75,01,268,26,86,00,308,*6A
$GAGSV,3,1,12,26,68,079,36,14,14,157,,08,21,041,33,24,13,323,32*62
$GAGSV,3,2,12,13,16,100,23,29,28,166,31,31,23,272,36,07,49,098,42*61
$GAGSV,3,3,12,33,55,300,31,16,02,345,,23,10,223,,12,03,287,*63
$GBGSV,5,1,18,27,81,182,47,06,13,081,,60,10,109,,13,11,062,*66
$GBGSV,5,2,18,05,24,128,,32,32,208,36,16,14,078,,28,36,136,37*60
$GBGSV,5,3,18,39,17,068,27,33,33,050,43,30,41,304,47,57,73,295,*6B
$GBGSV,5,4,18,41,75,121,44,02,09,105,,14,09,043,25,45,00,330,*64
$GBGSV,5,5,18,08,03,060,,09,10,094,*6A
$GPGGA,230057.00,,,,,0,00,,,M,,M,,*4B
$PTNL,GGK,230057.00,010125,4742.4455590,N,01617.9729302,E,1,22,1.1,EHT666.7898,M*4D
$GPGGQ,230057.00,010125,4742.4455590,N,01617.9729302,E,1,22,1.842,623.5788,M*31
$GPGFA,230057.00,8.500,11.761,0.894,0.731,44.465,1.434,,VVV*08
$GPLLK,230057.00,010125,,M,,M,1,22,1.2,,M*0B
$GNGMP,230057.00,,,,,DAAA,22,0.6,,,,*53
$GPGMP,230057.00,,,,,,08,,,,1.9,123*7E
$GLGMP,230057.00,,,,,,05,,,,,*79
$GAGMP,230057.00,,,,,,03,,,,,*72
$GBGMP,230057.00,,,,,,06,,,,,*74
$PSSN,SNC,[0,342075000,2347]*43
$GPZDA,230102.00,01,01,2025,,*61
$GPDTM,W84,,00.0000000,N,00.0000000,E,00.0000000,W84*5F
$GPRMC,230102.00,A,4742.4455585,N,01617.9729434,E,0.0,,010125,5.1,E,D*15
$GPGLL,4742.4455585,N,01617.9729434,E,230102.00,A,D*64
$GPGGA,230102.00,4742.4455585,N,01617.9729434,E,2,20,0.7,623.5736,M,43.2111,M,2.3,0123*49
$GNGNS,230102.00,4742.4455585,N,01617.9729434,E,DAAA,20,0.7,623.5736,43.2111,,*54
$GPGNS,230102.00,,,,,,07,,,,2.3,123*79
$GLGNS,230102.00,,,,,,05,,,,,*78
$GAGNS,230102.00,,,,,,03,,,,,*73
$GBGNS,230102.00,,,,,,05,,,,,*76
$GPLLQ,230102.00,010125,,M,,M,1,20,2.115,,M*16
$GPVTG,,T,,M,0.01,N,0.02,K,D*25
$GPHDT,,T*1B
$GPTHS,,V*0E
$GPROT,,V*08
$PSSN,HRP,230102.00,010125,,,,,,,00,0,,*63
$PTNL,AVR,230102.00,,Yaw,,Tilt,,,,0,,00*35
$GPGSA,A,3,02,08,10,17,21,27,32,,,,,,1.1,0.7,0.9*36
$GPGSA,A,3,68,69,76,84,85,,,,,,,,1.1,0.7,0.9*3D
$GPGSA,A,3,07,26,31,,,,,,,,,,1.1,0.7,0.9*3D
$GPGSA,A,3,27,30,32,33,41,,,,,,,,1.1,0.7,0.9*3E
$GPGST,230102.00,4.518,0.999,0.853,49.994,0.916,0.941,1.658*6B
$GPGBS,230102.00,2.824,3.121,5.879,10,0.0001,-2.742,0.959*78
$GPGRS,230102.00,1,0.1,0.4,-2.7,0.2,-0.2,-1.2,1.1,,,,,*4C
$GPGRS,230102.00,1,8.5,-1.3,10.3,-6.0,-0.8,,,,,,,*7C
$GPGRS,230102.00,1,-1.0,-1.7,-3.2,,,,,,,,,*49
$GPGRS,230102.00,1,-2.6,-1.3,-2.0,-1.7,-2.9,,,,,,,*46
$GPGSV,4,1,15,21,83,336,42,03,27,241,33,22,12,321,,10,27,057,40*70
$GPGSV,4,2,15,14,16,300,31,27,20,164,42,32,48,080,48,08,47,189,40*7C
$GPGSV,4,3,15,01,56,296,,02,61,302,46,17,08,321,41,36,35,170,42*7B
$GPGSV,4,4,15,34,31,208,,49,34,195,37,61,03,257,*45
$GLGSV,3,1,10,69,69,067,51,76,12,321,44,68,22,033,41,70,35,197,20*66
$GLGSV,3,2,10,85,51,323,48,84,64,097,36,83,04,123,,77,06,004,26*6E
$GLGSV,3,3,10,75,01,268,27,86,00,309,*6A
$GAGSV,3,1,12,26,68,079,36,14,14,157,,08,21,041,34,24,13,323,34*63
$GAGSV,3,2,12,13,16,100,28,29,28,166,32,31,23,272,37,07,49,098,41*6B
$GAGSV,3,3,12,33,55,300,30,16,02,345,,23,10,223,,12,03,287,*62
$GBGSV,5,1,18,27,81,181,47,06,13,081,,60,10,109,,13,11,062,*65
$GBGSV,5,2,18,05,24,128,,32,32,208,37,16,14,078,,28,36,136,32*64
$GBGSV,5,3,18,39,17,068,26,33,33,050,43,30,41,304,47,57,73,295,*6A
$GBGSV,5,4,18,41,75,120,45,02,09,105,,14,09,043,25,45,00,330,*64
$GBGSV,5,5,18,08,03,060,,09,10,094,*6A
$GPGGA,230102.00,,,,,0,00,,,M,,M,,*4A
$PTNL,GGK,230102.00,010125,4742.4455585,N,01617.9729434,E,1,20,1.1,EHT666.7847,M*4A
$GPGGQ,230102.00,010125,4742.4455585,N,01617.9729434,E,1,20,2.115,623.5736,M*39
$GPGFA,230102.00,9.500,13.597,0.999,0.853,49.994,1.658,,VVV*00
$GPLLK,230102.00,010125,,M,,M,1,20,1.3,,M*09
$GNGMP,230102.00,,,,,DAAA,20,0.7,,,,*51
$GPGMP,230102.00,,,,,,07,,,,2.3,123*79
$GLGMP,230102.00,,,,,,05,,,,,*78
$GAGMP,230102.00,,,,,,03,,,,,*73
$GBGMP,230102.00,,,,,,05,,,,,*76
$PSSN,SNC,[0,342080000,2347]*49
$GPZDA,230107.00,01,01,2025,,*64
$GPDTM,W84,,00.0000000,N,00.0000000,E,00.0000000,W84*5F
$GPRMC,230107.00,A,4742.4455639,N,01617.9729547,E,0.0,,010125,5.1,E,D*11
$GPGLL,4742.4455639,N,01617.9729547,E,230107.00,A,D*60
$GPGGA,230107.00,4742.4455639,N,01617.9729547,E,2,20,0.7,623.5614,M,43.2111,M,3.3,0123*4D
$GNGNS,230107.00,4742.4455639,N,01617.9729547,E,DAAA,20,0.7,623.5614,43.2111,,*51
$GPGNS,230107.00,,,,,,07,,,,3.3,123*7D
$GLGNS,230107.00,,,,,,05,,,,,*7D
$GAGNS,230107.00,,,,,,03,,,,,*76
$GBGNS,230107.00,,,,,,05,,,,,*73
$GPLLQ,230107.00,010125,,M,,M,1,20,1.999,,M*1C
$GPVTG,,T,,M,0.01,N,0.01,K,D*26
$GPHDT,,T*1B
$GPTHS,,V*0E
$GPROT,,V*08
$PSSN,HRP,230107.00,010125,,,,,,,00,0,,*66
$PTNL,AVR,230107.00,,Yaw,,Tilt,,,,0,,00*30
$GPGSA,A,3,02,08,10,17,21,27,32,,,,,,1.1,0.7,0.9*36
$GPGSA,A,3,68,69,76,84,85,,,,,,,,1.1,0.7,0.9*3D
$GPGSA,A,3,07,26,31,,,,,,,,,,1.1,0.7,0.9*3D
$GPGSA,A,3,27,30,32,33,41,,,,,,,,1.1,0.7,0.9*3E
$GPGST,230107.00,4.647,0.918,0.817,69.975,0.830,0.907,1.576*6B
$GPGBS,230107.00,2.851,3.159,5.927,10,0.0001,-2.865,0.973*78
$GPGRS,230107.00,1,-0.1,1.1,-2.9,0.0,-0.1,-0.3,0.9,,,,,*66
$GPGRS,230107.00,1,10.2,-1.3,9.4,-5.6,-0.7,,,,,,,*72
$GPGRS,230107.00,1,-0.9,-3.2,-3.8,,,,,,,,,*49
$GPGRS,230107.00,1,-1.9,-0.8,-1.5,-1.8,-3.0,,,,,,,*44
$GPGSV,4,1,15,21,83,336,42,03,27,241,35,22,12,321,,10,27,057,39*78
$GPGSV,4,2,15,14,16,300,28,27,20,164,42,32,48,080,47,08,47,189,41*7A
$GPGSV,4,3,15,01,56,296,,02,61,302,45,17,08,321,41,36,35,170,42*78
$GPGSV,4,4,15,34,31,208,,49,34,195,38,61,03,257,*4A
$GLGSV,3,1,10,69,69,067,51,76,12,321,42,68,22,033,42,70,35,197,27*64
$GLGSV,3,2,10,85,51,323,48,84,64,097,35,83,04,123,,77,06,004,27*6C
$GLGSV,3,3,10,75,01,268,24,86,00,309,*69
$GAGSV,3,1,12,26,68,079,36,14,14,157,,08,21,041,35,24,13,323,35*63
$GAGSV,3,2,12,13,16,100,25,29,28,166,33,31,23,272,38,07,49,098,41*68
$GAGSV,3,3,12,33,55,300,29,16,02,345,,23,09,223,,12,03,287,*62
$GBGSV,5,1,18,27,81,181,47,06,13,081,,60,10,109,,13,11,062,*65
$GBGSV,5,2,18,05,24,128,,32,32,208,38,16,14,078,,28,36,136,*6A
$GBGSV,5,3,18,39,17,068,25,33,33,050,42,30,41,304,47,57,74,295,*6F
$GBGSV,5,4,18,41,75,120,45,02,09,105,,14,09,043,25,45,00,330,*64
$GBGSV,5,5,18,08,03,060,,09,10,094,*6A
$GPGGA,230107.00,,,,,0,00,,,M,,M,,*4F
$PTNL,GGK,230107.00,010125,4742.4455639,N,01617.9729547,E,1,20,1.1,EHT666.7724,M*44
$GPGGQ,230107.00,010125,4742.4455639,N,01617.9729547,E,1,20,1.999,623.5614,M*33
$GPGFA,230107.00,8.729,12.923,0.918,0.817,69.975,1.576,,VVV*04
$GPLLK,230107.00,010125,,M,,M,1,20,1.3,,M*0C
$GNGMP,230107.00,,,,,DAAA,20,0.7,,,,*54
$GPGMP,230107.00,,,,,,07,,,,3.3,123*7D
$GLGMP,230107.00,,,,,,05,,,,,*7D
$GAGMP,230107.00,,,,,,03,,,,,*76
$GBGMP,230107.00,,,,,,05,,,,,*73
$PSSN,SNC,[0,342085000,2347]*4C
$GPZDA,230112.00,01,01,2025,,*60
$GPDTM,W84,,00.0000000,N,00.0000000,E,00.0000000,W84*5F
$GPRMC,230112.00,A,4742.4455741,N,01617.9729596,E,0.0,,010125,5.1,E,D*17
$GPGLL,4742.4455741,N,01617.9729596,E,230112.00,A,D*66
$GPGGA,230112.00,4742.4455741,N,01617.9729596,E,2,20,0.7,623.5498,M,43.2111,M,2.6,0123*49
$GNGNS,230112.00,4742.4455741,N,01617.9729596,E,DAAA,20,0.7,623.5498,43.2111,,*51
$GPGNS,230112.00,,,,,,07,,,,2.6,123*7D
$GLGNS,230112.00,,,,,,04,,,,,*78
$GAGNS,230112.00,,,,,,04,,,,,*75
$GBGNS,230112.00,,,,,,05,,,,,*77
$GPLLQ,230112.00,010125,,M,,M,1,20,1.867,,M*18
$GPVTG,,T,,M,0.00,N,0.01,K,D*27
$GPHDT,,T*1B
$GPTHS,,V*0E
$GPROT,,V*08
$PSSN,HRP,230112.00,010125,,,,,,,00,0,,*62
$PTNL,AVR,230112.00,,Yaw,,Tilt,,,,0,,00*34
$GPGSA,A,3,02,08,10,17,21,27,32,,,,,,1.1,0.7,0.9*36
$GPGSA,A,3,68,69,84,85,,,,,,,,,1.1,0.7,0.9*3C
$GPGSA,A,3,07,24,26,31,,,,,,,,,1.1,0.7,0.9*3B
$GPGSA,A,3,27,30,32,33,41,,,,,,,,1.1,0.7,0.9*3E
$GPGST,230112.00,4.049,0.853,0.756,71.760,0.766,0.844,1.479*64
$GPGBS,230112.00,2.877,3.098,6.070,08,0.0001,1.511,0.660*58
$GPGRS,230112.00,1,-0.7,1.5,-1.9,0.0,-0.2,-0.7,1.1,,,,,*6D
$GPGRS,230112.00,1,10.3,-0.9,-5.3,-0.0,,,,,,,,*5D
$GPGRS,230112.00,1,-0.8,-2.6,-3.5,-4.8,,,,,,,,*4B
$GPGRS,230112.00,1,-1.5,-1.1,-1.0,-2.0,-4.4,,,,,,,*49
$GPGSV,4,1,15,21,83,336,42,03,27,241,34,22,12,321,,10,27,057,39*79
$GPGSV,4,2,15,14,16,300,39,27,20,164,41,32,48,080,45,08,47,189,42*78
$GPGSV,4,3,15,01,56,296,,02,61,302,44,17,08,321,41,36,35,170,42*79
$GPGSV,4,4,15,34,31,208,,49,34,195,37,61,03,257,*45
$GLGSV,3,1,10,69,69,067,51,76,12,321,35,68,22,033,42,70,35,197,27*64
$GLGSV,3,2,10,85,51,323,48,84,64,097,35,83,04,123,,77,06,004,27*6C
$GLGSV,3,3,10,75,01,268,21,86,00,309,*6C
$GAGSV,3,1,12,26,68,079,37,14,14,157,,08,21,041,35,24,13,323,37*60
$GAGSV,3,2,12,13,16,100,24,29,28,166,35,31,23,272,37,07,49,098,41*60
$GAGSV,3,3,12,33,55,300,28,16,02,345,,23,09,223,,12,03,287,*63
$GBGSV,5,1,18,27,81,181,48,06,13,081,,60,10,109,,13,11,062,*6A
$GBGSV,5,2,18,05,24,128,,32,32,208,38,16,14,078,,28,36,136,*6A
$GBGSV,5,3,18,39,17,068,25,33,33,050,40,30,41,304,46,57,74,295,*6C
$GBGSV,5,4,18,41,75,120,45,02,09,105,,14,09,043,24,45,00,330,*65
$GBGSV,5,5,18,08,03,060,,09,10,094,*6A
$GPGGA,230112.00,,,,,0,00,,,M,,M,,*4B
$PTNL,GGK,230112.00,010125,4742.4455741,N,01617.9729596,E,1,20,1.1,EHT666.7609,M*4C
$GPGGQ,230112.00,010125,4742.4455741,N,01617.9729596,E,1,20,1.867,623.5498,M*33
$GPGFA,230112.00,8.109,12.127,0.853,0.756,71.760,1.479,,VVV*01
$GPLLK,230112.00,010125,,M,,M,1,20,1.3,,M*08
$GNGMP,230112.00,,,,,DAAA,20,0.7,,,,*50
$GPGMP,230112.00,,,,,,07,,,,2.6,123*7D
$GLGMP,230112.00,,,,,,04,,,,,*78
$GAGMP,230112.00,,,,,,04,,,,,*75
$GBGMP,230112.00,,,,,,05,,,,,*77
$PSSN,SNC,[0,342090000,2347]*48
$GPZDA,230117.00,01,01,2025,,*65
$GPDTM,W84,,00.0000000,N,00.0000000,E,00.0000000,W84*5F
$GPRMC,230117.00,A,4742.4455797,N,01617.9729564,E,0.0,,010125,5.1,E,D*14
$GPGLL,4742.4455797,N,01617.9729564,E,230117.00,A,D*65
$GPGGA,230117.00,4742.4455797,N,01617.9729564,E,2,22,0.6,623.5427,M,43.2111,M,1.9,0123*41
$GNGNS,230117.00,4742.4455797,N,01617.9729564,E,DAAA,22,0.6,623.5427,43.2111,,*55
$GPGNS,230117.00,,,,,,07,,,,1.9,123*74
$GLGNS,230117.00,,,,,,05,,,,,*7C
$GAGNS,230117.00,,,,,,05,,,,,*71
$GBGNS,230117.00,,,,,,05,,,,,*72
$GPLLQ,230117.00,010125,,M,,M,1,22,1.620,,M*12
$GPVTG,,T,,M,0.00,N,0.01,K,D*27
$GPHDT,,T*1B
$GPTHS,,V*0E
$GPROT,,V*08
$PSSN,HRP,230117.00,010125,,,,,,,00,0,,*67
$PTNL,AVR,230117.00,,Yaw,,Tilt,,,,0,,00*31
$GPGSA,A,3,02,08,10,17,21,27,32,,,,,,1.1,0.6,0.9*37
$GPGSA,A,3,68,69,76,84,85,,,,,,,,1.1,0.6,0.9*3C
$GPGSA,A,3,07,24,26,29,31,,,,,,,,1.1,0.6,0.9*31
$GPGSA,A,3,27,30,32,33,41,,,,,,,,1.1,0.6,0.9*3F
$GPGST,230117.00,3.519,0.749,0.651,72.981,0.660,0.741,1.280*6B
$GPGBS,230117.00,2.784,3.072,5.764,08,0.0001,1.105,0.673*58
$GPGRS,230117.00,1,-0.8,1.1,-1.2,0.2,-0.1,-1.0,1.1,,,,,*6F
$GPGRS,230117.00,1,9.2,-0.8,-5.1,-4.1,-0.3,,,,,,,*67
$GPGRS,230117.00,1,-0.9,-2.0,-1.4,0.2,-3.7,,,,,,,*6E
$GPGRS,230117.00,1,-1.5,-1.4,0.3,-1.9,-4.8,,,,,,,*60
$GPGSV,4,1,15,21,83,336,42,03,27,241,33,22,12,321,,10,27,057,39*7E
$GPGSV,4,2,15,14,16,300,40,27,19,164,41,32,48,080,45,08,47,189,44*7A
$GPGSV,4,3,15,01,56,296,,02,61,302,45,17,08,321,41,36,35,170,42*78
$GPGSV,4,4,15,34,31,208,,49,34,195,37,61,03,257,*45
$GLGSV,3,1,10,69,69,067,51,76,12,321,38,68,22,033,41,70,35,197,26*6B
$GLGSV,3,2,10,85,51,323,48,84,64,097,35,83,04,123,,77,06,004,29*62
$GLGSV,3,3,10,75,01,268,,86,00,309,*6F
$GAGSV,3,1,12,26,68,079,38,14,14,157,,08,21,041,35,24,13,323,37*6F
$GAGSV,3,2,12,13,16,100,20,29,28,166,35,31,23,272,35,07,49,098,40*67
$GAGSV,3,3,12,33,55,300,24,16,02,345,,23,09,223,,12,03,287,*6F
$GBGSV,5,1,17,27,81,181,48,06,13,081,,60,10,109,,13,11,062,*65
$GBGSV,5,2,17,05,24,128,,32,33,208,39,16,14,078,,28,36,136,37*61
$GBGSV,5,3,17,39,17,068,25,33,33,050,37,30,42,304,45,57,74,295,*63
$GBGSV,5,4,17,41,75,120,46,02,09,105,,14,09,043,25,08,03,060,*64
$GBGSV,5,5,17,09,10,094,*58
$GPGGA,230117.00,,,,,0,00,,,M,,M,,*4E
$PTNL,GGK,230117.00,010125,4742.4455797,N,01617.9729564,E,1,22,1.1,EHT666.7538,M*4C
$GPGGQ,230117.00,010125,4742.4455797,N,01617.9729564,E,1,22,1.620,623.5427,M*3B
$GPGFA,230117.00,7.122,10.496,0.749,0.651,72.981,1.280,,VVV*0F
$GPLLK,230117.00,010125,,M,,M,1,22,1.2,,M*0E
$GNGMP,230117.00,,,,,DAAA,22,0.6,,,,*56
$GPGMP,230117.00,,,,,,07,,,,1.9,123*74
$GLGMP,230117.00,,,,,,05,,,,,*7C
$GAGMP,230117.00,,,,,,05,,,,,*71
$GBGMP,230117.00,,,,,,05,,,,,*72
$PSSN,SNC,[0,342095000,2347]*4D
$GPZDA,230122.00,01,01,2025,,*63
$GPDTM,W84,,00.0000000,N,00.0000000,E,00.0000000,W84*5F
$GPRMC,230122.00,A,4742.4455816,N,01617.9729511,E,0.0,,010125,5.1,E,D*16
$GPGLL,4742.4455816,N,01617.9729511,E,230122.00,A,D*67
$GPGGA,230122.00,4742.4455816,N,01617.9729511,E,2,22,0.6,623.5356,M,43.2111,M,2.3,0123*4B
$GNGNS,230122.00,4742.4455816,N,01617.9729511,E,DAAA,22,0.6,623.5356,43.2111,,*56
$GPGNS,230122.00,,,,,,07,,,,2.3,123*7B
$GLGNS,230122.00,,,,,,05,,,,,*7A
$GAGNS,230122.00,,,,,,05,,,,,*77
$GBGNS,230122.00,,,,,,05,,,,,*74
$GPLLQ,230122.00,010125,,M,,M,1,22,1.709,,M*1E
$GPVTG,,T,,M,0.00,N,0.01,K,D*27
$GPHDT,,T*1B
$GPTHS,,V*0E
$GPROT,,V*08
$PSSN,HRP,230122.00,010125,,,,,,,00,0,,*61
$PTNL,AVR,230122.00,,Yaw,,Tilt,,,,0,,00*37
$GPGSA,A,3,02,08,10,17,21,27,32,,,,,,1.1,0.6,0.8*36
$GPGSA,A,3,68,69,76,84,85,,,,,,,,1.1,0.6,0.8*3D
$GPGSA,A,3,07,24,26,29,33,,,,,,,,1.1,0.6,0.8*32
$GPGSA,A,3,27,30,32,33,41,,,,,,,,1.1,0.6,0.8*3E
$GPGST,230122.00,3.635,0.797,0.692,71.858,0.703,0.788,1.344*62
$GPGBS,230122.00,2.807,3.149,5.829,32,0.0001,1.714,0.686*50
$GPGRS,230122.00,1,-0.6,0.5,-1.7,0.4,0.0,-1.3,1.7,,,,,*48
$GPGRS,230122.00,1,10.4,-1.2,-3.1,-5.3,0.1,,,,,,,*7E
$GPGRS,230122.00,1,-0.6,-2.1,-0.2,0.5,-1.7,,,,,,,*64
$GPGRS,230122.00,1,-1.5,-1.1,0.9,-2.8,-4.7,,,,,,,*64
$GPGSV,4,1,15,21,83,337,41,03,27,241,33,22,12,321,,10,27,057,38*7D
$GPGSV,4,2,15,14,16,300,,27,19,164,39,32,48,080,46,08,47,189,46*70
$GPGSV,4,3,15,01,56,297,,02,61,302,46,17,08,321,41,36,35,170,41*79
$GPGSV,4,4,15,34,31,208,,49,34,195,37,61,03,257,*45
$GLGSV,3,1,10,69,69,067,51,76,12,321,38,68,22,033,41,70,35,197,23*6E
$GLGSV,3,2,10,85,52,323,48,84,64,097,35,83,04,123,,77,06,004,29*61
$GLGSV,3,3,10,75,01,268,,86,00,309,37*6B
$GAGSV,3,1,12,26,68,079,40,14,14,157,,08,21,041,36,24,13,323,37*63
$GAGSV,3,2,12,13,16,100,21,29,28,166,37,31,23,272,34,07,49,098,39*6B
$GAGSV,3,3,12,33,55,300,32,16,02,345,,23,09,223,,12,03,287,*68
$GBGSV,5,1,17,27,81,181,49,06,13,081,,60,10,109,,13,11,062,*64
$GBGSV,5,2,17,05,24,128,,32,33,208,38,16,14,078,,28,36,136,*64
$GBGSV,5,3,17,39,17,068,25,33,33,050,35,30,42,304,44,57,74,295,*60
$GBGSV,5,4,17,41,75,120,45,02,09,105,,14,09,043,21,08,03,060,*63
$GBGSV,5,5,17,09,10,094,*58
$GPGGA,230122.00,,,,,0,00,,,M,,M,,*48
$PTNL,GGK,230122.00,010125,4742.4455816,N,01617.9729511,E,1,22,1.1,EHT666.7467,M*45
$GPGGQ,230122.00,010125,4742.4455816,N,01617.9729511,E,1,22,1.709,623.5356,M*32
$GPGFA,230122.00,7.578,11.017,0.797,0.692,71.858,1.344,,VVV*0D
$GPLLK,230122.00,010125,,M,,M,1,22,1.2,,M*08
$GNGMP,230122.00,,,,,DAAA,22,0.6,,,,*50
$GPGMP,230122.00,,,,,,07,,,,2.3,123*7B
$GLGMP,230122.00,,,,,,05,,,,,*7A
$GAGMP,230122.00,,,,,,05,,,,,*77
$GBGMP,230122.00,,,,,,05,,,,,*74
$PSSN,SNC,[0,342100000,2347]*40
$GPZDA,230127.00,01,01,2025,,*66
$GPDTM,W84,,00.0000000,N,00.0000000,E,00.0000000,W84*5F
$GPRMC,230127.00,A,4742.4455787,N,01617.9729504,E,0.0,,010125,5.1,E,D*10
$GPGLL,4742.4455787,N,01617.9729504,E,230127.00,A,D*61
$GPGGA,230127.00,4742.4455787,N,01617.9729504,E,2,21,0.7,623.5248,M,43.2111,M,3.3,0123*40
$GNGNS,230127.00,4742.4455787,N,01617.9729504,E,DAAA,21,0.7,623.5248,43.2111,,*5C
$GPGNS,230127.00,,,,,,07,,,,3.3,123*7F
$GLGNS,230127.00,,,,,,05,,,,,*7F
$GAGNS,230127.00,,,,,,05,,,,,*72
$GBGNS,230127.00,,,,,,04,,,,,*70
$GPLLQ,230127.00,010125,,M,,M,1,21,1.976,,M*1E
$GPVTG,,T,,M,0.01,N,0.02,K,D*25
$GPHDT,,T*1B
$GPTHS,,V*0E
$GPROT,,V*08
$PSSN,HRP,230127.00,010125,,,,,,,00,0,,*64
$PTNL,AVR,230127.00,,Yaw,,Tilt,,,,0,,00*32
$GPGSA,A,3,02,08,10,17,21,27,32,,,,,,1.1,0.7,0.8*37
$GPGSA,A,3,68,69,76,84,85,,,,,,,,1.1,0.7,0.8*3C
$GPGSA,A,3,07,24,26,29,33,,,,,,,,1.1,0.7,0.8*33
$GPGSA,A,3,27,30,32,41,,,,,,,,,1.1,0.7,0.8*3F
$GPGST,230127.00,4.768,0.915,0.803,69.724,0.817,0.902,1.557*64
$GPGBS,230127.00,2.845,3.208,5.882,32,0.0001,1.652,0.699*59
$GPGRS,230127.00,1,-0.2,-0.2,-2.0,0.8,0.3,-1.5,1.7,,,,,*6E
$GPGRS,230127.00,1,14.3,-1.9,-5.6,-5.4,2.1,,,,,,,*77
$GPGRS,230127.00,1,-0.4,-1.7,-0.2,0.1,-1.6,,,,,,,*63
$GPGRS,230127.00,1,-1.9,-1.0,0.7,-4.9,,,,,,,,*65
$GPGSV,4,1,15,21,83,337,41,03,27,241,34,22,12,321,,10,27,057,37*75
$GPGSV,4,2,15,14,16,300,,27,19,164,38,32,48,080,46,08,47,189,47*70
$GPGSV,4,3,15,01,56,297,,02,61,303,46,17,08,321,40,36,35,170,41*79
$GPGSV,4,4,15,34,31,208,,49,34,195,37,61,03,257,*45
$GLGSV,3,1,10,69,69,067,50,76,12,321,36,68,22,033,41,70,35,197,*60
$GLGSV,3,2,10,85,52,323,48,84,64,097,36,83,04,123,,77,06,004,30*6A
$GLGSV,3,3,10,75,01,268,,86,00,309,36*6A
$GAGSV,3,1,12,26,68,079,41,14,14,157,,08,21,041,36,24,13,323,38*6D
$GAGSV,3,2,12,13,16,100,23,29,28,166,37,31,23,272,32,07,49,097,39*60
$GAGSV,3,3,12,33,55,300,32,16,02,345,,23,09,223,,12,03,287,*68
$GBGSV,5,1,17,27,81,181,50,06,13,081,,60,10,109,,13,11,062,*6C
$GBGSV,5,2,17,05,24,128,,32,33,208,36,16,14,078,,28,36,136,*6A
$GBGSV,5,3,17,39,17,068,24,33,33,050,35,30,42,304,44,57,74,295,*61
$GBGSV,5,4,17,41,75,120,45,02,09,105,,14,09,043,21,08,03,060,*63
$GBGSV,5,5,17,09,10,094,*58
$GPGGA,230127.00,,,,,0,00,,,M,,M,,*4D
$PTNL,GGK,230127.00,010125,4742.4455787,N,01617.9729504,E,1,21,1.1,EHT666.7358,M*4B
$GPGGQ,230127.00,010125,4742.4455787,N,01617.9729504,E,1,21,1.976,623.5248,M*3F
$GPGFA,230127.00,8.701,12.765,0.915,0.803,69.724,1.557,,VVV*01
$GPLLK,230127.00,010125,,M,,M,1,21,1.2,,M*0E
$GNGMP,230127.00,,,,,DAAA,21,0.7,,,,*57
$GPGMP,230127.00,,,,,,07,,,,3.3,123*7F
$GLGMP,230127.00,,,,,,05,,,,,*7F
$GAGMP,230127.00,,,,,,05,,,,,*72
$GBGMP,230127.00,,,,,,04,,,,,*70
$PSSN,SNC,[0,342105000,2347]*45
$GPZDA,230132.00,01,01,2025,,*62
$GPDTM,W84,,00.0000000,N,00.0000000,E,00.0000000,W84*5F
$GPRMC,230132.00,A,4742.4455706,N,01617.9729486,E,0.0,,010125,5.1,E,D*16
$GPGLL,4742.4455706,N,01617.9729486,E,230132.00,A,D*67
$GPGGA,230132.00,4742.4455706,N,01617.9729486,E,2,21,0.7,623.5142,M,43.2111,M,2.6,0123*4B
$GNGNS,230132.00,4742.4455706,N,01617.9729486,E,DAAA,21,0.7,623.5142,43.2111,,*53
$GPGNS,230132.00,,,,,,07,,,,2.6,123*7F
$GLGNS,230132.00,,,,,,04,,,,,*7A
$GAGNS,230132.00,,,,,,05,,,,,*76
$GBGNS,230132.00,,,,,,05,,,,,*75
$GPLLQ,230132.00,010125,,M,,M,1,21,1.845,,M*1B
$GPVTG,,T,,M,0.00,N,0.01,K,D*27
