$GPZDA,172942.00,01,01,2025,,*68
$GPDTM,W84,,00.0000000,N,00.0000000,E,00.0000000,W84*5F
$GPRMC,172942.00,A,4742.4464434,N,01617.9733623,E,0.0,,010125,5.1,E,D*1A
$GPGLL,4742.4464434,N,01617.9733623,E,172942.00,A,D*6B
$GPGGA,172942.00,4742.4464434,N,01617.9733623,E,2,19,1.0,625.5896,M,43.2111,M,1.6,0123*4F
$GNGNS,172942.00,4742.4464434,N,01617.9733623,E,DAAA,19,1.0,625.5896,43.2111,,*54
$GPGNS,172942.00,,,,,,05,,,,1.6,123*74
$GLGNS,172942.00,,,,,,03,,,,,*77
$GAGNS,172942.00,,,,,,03,,,,,*7A
$GBGNS,172942.00,,,,,,08,,,,,*72
$GPLLQ,172942.00,010125,,M,,M,1,19,1.703,,M*17
$GPVTG,,T,,M,0.00,N,0.00,K,D*26
$GPHDT,,T*1B
$GPTHS,,V*0E
$GPROT,,V*08
$PSSN,HRP,172942.00,010125,,,,,,,00,0,,*6A
$PTNL,AVR,172942.00,,Yaw,,Tilt,,,,0,,00*3C
$GPGSA,A,3,16,18,26,29,31,,,,,,,,1.9,1.0,1.6*3F
$GPGSA,A,3,80,81,82,,,,,,,,,,1.9,1.0,1.6*37
$GPGSA,A,3,15,21,27,,,,,,,,,,1.9,1.0,1.6*3E
$GPGSA,A,3,08,11,13,23,34,37,38,43,,,,,1.9,1.0,1.6*38
$GPGST,172942.00,2.009,0.786,0.474,349.782,0.778,0.487,1.435*5A
$GPGBS,172942.00,5.883,4.539,9.419,18,0.0001,0.781,0.635*5A
$GPGRS,172942.00,1,-0.7,0.8,0.1,-0.6,0.1,,,,,,,*62
$GPGRS,172942.00,1,-1.4,-0.1,-2.1,,,,,,,,,*41
$GPGRS,172942.00,1,-0.9,0.9,-1.2,,,,,,,,,*68
$GPGRS,172942.00,1,1.1,0.3,-5.9,-0.5,-0.1,-0.9,-0.8,-0.5,,,,*4A
$GPGSV,4,1,15,18,76,165,43,05,26,055,,25,16,141,31,28,19,214,31*75
$GPGSV,4,2,15,23,16,154,,31,33,239,47,16,36,306,47,29,46,074,46*78
$GPGSV,4,3,15,26,64,281,46,27,09,273,32,20,06,029,,36,35,170,39*7E
$GPGSV,4,4,15,34,31,208,34,49,34,195,36,61,03,257,*43
$GLGSV,3,1,10,80,69,288,47,65,14,046,,73,18,327,31,83,25,237,*67
$GLGSV,3,2,10,79,43,172,41,81,55,035,47,82,67,261,43,66,04,091,*64
$GLGSV,3,3,10,72,05,354,23,88,04,051,*67
$GAGSV,3,1,11,15,66,069,46,30,14,135,21,34,17,044,25,13,51,203,31*62
$GAGSV,3,2,11,21,55,301,39,27,65,148,49,23,06,310,,26,02,217,*63
$GAGSV,3,3,11,04,00,320,24,06,01,343,,09,00,004,*55
$GBGSV,5,1,20,43,82,276,50,25,27,178,33,21,13,080,,05,21,129,*6F
$GBGSV,5,2,20,12,17,062,34,38,30,045,38,60,10,109,,37,30,309,43*6F
$GBGSV,5,3,20,28,19,247,26,08,40,057,40,13,43,068,35,34,45,063,45*6D
$GBGSV,5,4,20,23,57,241,46,11,71,050,51,42,02,125,,02,07,106,*69
$GBGSV,5,5,20,50,09,102,,56,04,083,,58,01,328,,22,08,031,*65
$GPGGA,172942.00,,,,,0,00,,,M,,M,,*43
$PTNL,GGK,172942.00,010125,4742.4464434,N,01617.9733623,E,1,19,1.9,EHT668.8007,M*4A
$GPGGQ,172942.00,010125,4742.4464434,N,01617.9733623,E,1,19,1.703,625.5896,M*3D
$GPGFA,172942.00,7.469,11.766,0.786,0.474,349.782,1.435,,VVV*3D
$GPLLK,172942.00,010125,,M,,M,1,19,2.4,,M*0E
$GNGMP,172942.00,,,,,DAAA,19,1.0,,,,*54
$GPGMP,172942.00,,,,,,05,,,,1.6,123*74
$GLGMP,172942.00,,,,,,03,,,,,*77
$GAGMP,172942.00,,,,,,03,,,,,*7A
$GBGMP,172942.00,,,,,,08,,,,,*72
$PSSN,SNC,[0,322200000,2347]*45
$GPZDA,172947.00,01,01,2025,,*6D
$GPDTM,W84,,00.0000000,N,00.0000000,E,00.0000000,W84*5F
$GPRMC,172947.00,A,4742.4464448,N,01617.9733637,E,0.0,,010125,5.1,E,D*11
$GPGLL,4742.4464448,N,01617.9733637,E,172947.00,A,D*60
$GPGGA,172947.00,4742.4464448,N,01617.9733637,E,2,21,0.8,625.5735,M,43.2111,M,2.6,0123*43
$GNGNS,172947.00,4742.4464448,N,01617.9733637,E,DAAA,21,0.8,625.5735,43.2111,,*5B
$GPGNS,172947.00,,,,,,05,,,,2.6,123*72
$GLGNS,172947.00,,,,,,05,,,,,*74
$GAGNS,172947.00,,,,,,03,,,,,*7F
$GBGNS,172947.00,,,,,,08,,,,,*77
$GPLLQ,172947.00,010125,,M,,M,1,21,1.656,,M*18
$GPVTG,,T,,M,0.01,N,0.01,K,D*26
$GPHDT,,T*1B
$GPTHS,,V*0E
$GPROT,,V*08
$PSSN,HRP,172947.00,010125,,,,,,,00,0,,*6F
$PTNL,AVR,172947.00,,Yaw,,Tilt,,,,0,,00*39
$GPGSA,A,3,16,18,26,29,31,,,,,,,,1.6,0.8,1.4*3B
$GPGSA,A,3,73,79,80,81,82,,,,,,,,1.6,0.8,1.4*39
$GPGSA,A,3,15,21,27,,,,,,,,,,1.6,0.8,1.4*3A
$GPGSA,A,3,08,11,13,23,34,37,38,43,,,,,1.6,0.8,1.4*3C
$GPGST,172947.00,2.155,0.761,0.458,349.076,0.752,0.472,1.398*5E
$GPGBS,172947.00,5.775,4.594,9.293,79,0.0001,-4.457,6.098*7B
$GPGRS,172947.00,1,-0.5,0.1,0.5,-0.2,0.0,,,,,,,*6D
$GPGRS,172947.00,1,-0.8,-4.5,-1.8,-0.0,-1.3,,,,,,,*41
$GPGRS,172947.00,1,-0.8,1.0,-1.4,,,,,,,,,*62
$GPGRS,172947.00,1,0.5,-0.2,-5.7,-0.2,-1.2,-0.7,-0.7,-0.7,,,,*6E
$GPGSV,4,1,15,18,76,165,45,05,26,055,33,25,16,141,30,28,19,214,34*77
$GPGSV,4,2,15,23,16,154,,31,33,239,47,16,36,306,46,29,46,074,47*78
$GPGSV,4,3,15,26,65,281,45,27,09,273,32,20,06,029,26,36,35,170,39*78
$GPGSV,4,4,15,34,31,208,34,49,34,195,36,61,03,257,*43
$GLGSV,3,1,10,80,69,288,47,65,14,046,,73,18,327,35,83,25,237,*63
$GLGSV,3,2,10,79,43,172,43,81,55,035,47,82,67,261,44,66,04,091,*61
$GLGSV,3,3,10,72,05,354,20,88,04,051,*64
$GAGSV,3,1,11,15,66,069,47,30,14,135,19,34,17,044,25,13,51,203,34*6D
$GAGSV,3,2,11,21,55,301,40,27,65,148,49,23,06,310,,26,02,217,*6D
$GAGSV,3,3,11,04,00,320,25,06,01,343,,09,00,004,*54
$GBGSV,5,1,20,43,82,276,50,25,27,178,33,21,13,080,,05,21,129,*6F
$GBGSV,5,2,20,12,17,062,33,38,30,044,38,60,10,109,,37,30,309,42*68
$GBGSV,5,3,20,28,19,247,29,08,40,057,39,13,43,068,36,34,45,063,45*6F
$GBGSV,5,4,20,23,57,241,46,11,71,050,50,42,02,125,,02,07,106,*68
$GBGSV,5,5,20,50,09,102,,56,04,083,,58,01,328,,22,08,031,*65
$GPGGA,172947.00,,,,,0,00,,,M,,M,,*46
$PTNL,GGK,172947.00,010125,4742.4464448,N,01617.9733637,E,1,21,1.6,EHT668.7846,M*47
$GPGGQ,172947.00,010125,4742.4464448,N,01617.9733637,E,1,21,1.656,625.5735,M*3A
$GPGFA,172947.00,7.236,11.460,0.761,0.458,349.076,1.398,,VVV*3A
$GPLLK,172947.00,010125,,M,,M,1,21,1.9,,M*0E
$GNGMP,172947.00,,,,,DAAA,21,0.8,,,,*53
$GPGMP,172947.00,,,,,,05,,,,2.6,123*72
$GLGMP,172947.00,,,,,,05,,,,,*74
$GAGMP,172947.00,,,,,,03,,,,,*7F
$GBGMP,172947.00,,,,,,08,,,,,*77
$PSSN,SNC,[0,322205000,2347]*40
$GPZDA,172952.00,01,01,2025,,*69
$GPDTM,W84,,00.0000000,N,00.0000000,E,00.0000000,W84*5F
$GPRMC,172952.00,A,4742.4464485,N,01617.9733660,E,0.0,,010125,5.1,E,D*16
$GPGLL,4742.4464485,N,01617.9733660,E,172952.00,A,D*67
$GPGGA,172952.00,4742.4464485,N,01617.9733660,E,2,23,0.7,625.5791,M,43.2111,M,3.7,0123*47
$GNGNS,172952.00,4742.4464485,N,01617.9733660,E,DAAA,23,0.7,625.5791,43.2111,,*5F
$GPGNS,172952.00,,,,,,06,,,,3.7,123*75
$GLGNS,172952.00,,,,,,05,,,,,*70
$GAGNS,172952.00,,,,,,04,,,,,*7C
$GBGNS,172952.00,,,,,,08,,,,,*73
$GPLLQ,172952.00,010125,,M,,M,1,23,1.878,,M*1C
$GPVTG,,T,,M,0.01,N,0.01,K,D*26
$GPHDT,,T*1B
$GPTHS,,V*0E
$GPROT,,V*08
$PSSN,HRP,172952.00,010125,,,,,,,00,0,,*6B
$PTNL,AVR,172952.00,,Yaw,,Tilt,,,,0,,00*3D
$GPGSA,A,3,16,18,26,28,29,31,,,,,,,1.3,0.7,1.1*3E
$GPGSA,A,3,73,79,80,81,82,,,,,,,,1.3,0.7,1.1*36
$GPGSA,A,3,13,15,21,27,,,,,,,,,1.3,0.7,1.1*37
$GPGSA,A,3,08,11,13,23,34,37,38,43,,,,,1.3,0.7,1.1*33
$GPGST,172952.00,2.475,0.902,0.555,338.705,0.864,0.612,1.550*53
$GPGBS,172952.00,5.213,4.570,7.874,28,0.0001,3.030,1.444*54
$GPGRS,172952.00,1,-0.1,-0.2,-0.1,3.0,-0.3,0.0,,,,,,*46
$GPGRS,172952.00,1,4.0,0.6,-0.8,-0.6,-1.3,,,,,,,*49
$GPGRS,172952.00,1,3.3,-1.4,1.8,-1.7,,,,,,,,*4E
$GPGRS,172952.00,1,-0.0,-0.7,-6.5,-0.3,-2.2,-0.4,-0.5,-1.4,,,,*47
$GPGSV,4,1,15,18,77,164,46,05,26,055,35,25,16,141,30,28,19,214,36*70
$GPGSV,4,2,15,23,16,154,,31,33,239,47,16,36,306,46,29,46,074,48*77
$GPGSV,4,3,15,26,65,281,45,27,09,273,32,20,06,029,25,36,35,170,39*7B
$GPGSV,4,4,15,34,31,208,34,49,34,195,36,61,03,257,*43
$GLGSV,3,1,10,80,69,288,46,65,14,046,,73,18,327,39,83,25,237,*6E
$GLGSV,3,2,10,79,43,172,44,81,55,035,46,82,67,262,46,66,04,091,*66
$GLGSV,3,3,10,72,05,353,,88,04,051,*61
$GAGSV,3,1,11,15,66,069,47,30,14,135,27,34,17,044,24,13,51,203,36*63
$GAGSV,3,2,11,21,55,301,41,27,65,148,49,23,06,310,,26,02,217,*6C
$GAGSV,3,3,11,04,00,320,25,06,01,343,,09,00,004,*54
$GBGSV,5,1,20,43,82,277,50,25,27,178,32,21,13,080,,05,21,129,*6F
$GBGSV,5,2,20,12,17,062,33,38,30,044,38,60,10,109,,37,30,309,42*68
$GBGSV,5,3,20,28,19,247,30,08,40,057,39,13,43,068,36,34,45,063,45*67
$GBGSV,5,4,20,23,57,241,46,11,71,050,51,42,02,125,,02,07,106,*69
$GBGSV,5,5,20,50,09,102,,56,04,083,,58,01,328,,22,08,031,*65
$GPGGA,172952.00,,,,,0,00,,,M,,M,,*42
$PTNL,GGK,172952.00,010125,4742.4464485,N,01617.9733660,E,1,23,1.3,EHT668.7902,M*46
$GPGGQ,172952.00,010125,4742.4464485,N,01617.9733660,E,1,23,1.878,625.5791,M*33
$GPGFA,172952.00,8.578,12.714,0.902,0.555,338.705,1.550,,VVV*3F
$GPLLK,172952.00,010125,,M,,M,1,23,1.6,,M*07
$GNGMP,172952.00,,,,,DAAA,23,0.7,,,,*5A
$GPGMP,172952.00,,,,,,06,,,,3.7,123*75
$GLGMP,172952.00,,,,,,05,,,,,*70
$GAGMP,172952.00,,,,,,04,,,,,*7C
$GBGMP,172952.00,,,,,,08,,,,,*73
$PSSN,SNC,[0,322210000,2347]*44
$GPZDA,172957.00,01,01,2025,,*6C
$GPDTM,W84,,00.0000000,N,00.0000000,E,00.0000000,W84*5F
$GPRMC,172957.00,A,4742.4464484,N,01617.9733679,E,0.0,,010125,5.1,E,D*1A
$GPGLL,4742.4464484,N,01617.9733679,E,172957.00,A,D*6B
$GPGGA,172957.00,4742.4464484,N,01617.9733679,E,2,23,0.7,625.5900,M,43.2111,M,2.0,0123*4B
$GNGNS,172957.00,4742.4464484,N,01617.9733679,E,DAAA,23,0.7,625.5900,43.2111,,*55
$GPGNS,172957.00,,,,,,06,,,,2.0,123*76
$GLGNS,172957.00,,,,,,05,,,,,*75
$GAGNS,172957.00,,,,,,04,,,,,*79
$GBGNS,172957.00,,,,,,08,,,,,*76
$GPLLQ,172957.00,010125,,M,,M,1,23,1.376,,M*1C
$GPVTG,,T,,M,0.01,N,0.01,K,D*26
$GPHDT,,T*1B
$GPTHS,,V*0E
$GPROT,,V*08
$PSSN,HRP,172957.00,010125,,,,,,,00,0,,*6E
$PTNL,AVR,172957.00,,Yaw,,Tilt,,,,0,,00*38
$GPGSA,A,3,16,18,26,28,29,31,,,,,,,1.3,0.7,1.1*3E
$GPGSA,A,3,73,79,80,81,82,,,,,,,,1.3,0.7,1.1*36
$GPGSA,A,3,13,15,21,27,,,,,,,,,1.3,0.7,1.1*37
$GPGSA,A,3,08,11,13,23,34,37,38,43,,,,,1.3,0.7,1.1*33
$GPGST,172957.00,2.166,0.614,0.472,347.734,0.608,0.479,1.138*56
$GPGBS,172957.00,4.874,4.582,7.293,18,0.0001,-0.611,0.621*7D
$GPGRS,172957.00,1,-0.0,-0.6,0.3,0.8,-0.0,-0.1,,,,,,*4D
$GPGRS,172957.00,1,4.5,2.1,-0.5,-1.3,-0.8,,,,,,,*4F
$GPGRS,172957.00,1,2.2,-1.4,2.2,-1.8,,,,,,,,*4D
$GPGRS,172957.00,1,0.0,-0.1,-4.6,0.1,-2.4,-0.1,-0.8,-1.9,,,,*44
$GPGSV,4,1,15,18,77,164,46,05,26,055,34,25,16,141,29,28,19,214,37*78
$GPGSV,4,2,15,23,16,154,,31,33,239,47,16,36,306,45,29,46,074,49*75
$GPGSV,4,3,15,26,65,281,45,27,09,273,30,20,06,029,25,36,35,170,39*79
$GPGSV,4,4,15,34,31,208,34,49,34,195,36,61,03,257,*43
$GLGSV,3,1,10,80,69,287,44,65,14,046,,73,18,327,40,83,25,237,*6D
$GLGSV,3,2,10,79,43,172,44,81,55,035,46,82,67,262,47,66,04,091,*67
$GLGSV,3,3,10,72,05,353,,88,04,051,*61
$GAGSV,3,1,11,15,66,069,47,30,14,135,27,34,17,044,24,13,51,203,38*6D
$GAGSV,3,2,11,21,55,301,42,27,65,148,49,23,06,310,,26,02,217,*6F
$GAGSV,3,3,11,04,00,320,25,06,01,343,,09,00,004,*54
$GBGSV,5,1,20,43,82,277,50,25,27,178,31,21,13,080,,05,21,129,*6C
$GBGSV,5,2,20,12,17,062,32,38,30,044,38,60,10,109,,37,30,309,42*69
$GBGSV,5,3,20,28,19,247,28,08,40,057,38,13,43,068,36,34,45,063,45*6F
$GBGSV,5,4,20,23,57,241,46,11,71,050,51,42,02,125,,02,07,106,*69
$GBGSV,5,5,20,50,09,102,,56,04,083,,58,01,328,,22,08,031,*65
$GPGGA,172957.00,,,,,0,00,,,M,,M,,*47
$PTNL,GGK,172957.00,010125,4742.4464484,N,01617.9733679,E,1,23,1.3,EHT668.8010,M*4F
$GPGGQ,172957.00,010125,4742.4464484,N,01617.9733679,E,1,23,1.376,625.5900,M*3C
$GPGFA,172957.00,5.839,9.329,0.614,0.472,347.734,1.138,,VVV*03
$GPLLK,172957.00,010125,,M,,M,1,23,1.6,,M*02
$GNGMP,172957.00,,,,,DAAA,23,0.7,,,,*5F
$GPGMP,172957.00,,,,,,06,,,,2.0,123*76
$GLGMP,172957.00,,,,,,05,,,,,*75
$GAGMP,172957.00,,,,,,04,,,,,*79
$GBGMP,172957.00,,,,,,08,,,,,*76
$PSSN,SNC,[0,322215000,2347]*41
$GPZDA,173002.00,01,01,2025,,*64
$GPDTM,W84,,00.0000000,N,00.0000000,E,00.0000000,W84*5F
$GPRMC,173002.00,A,4742.4464494,N,01617.9733734,E,0.0,,010125,5.1,E,D*1B
$GPGLL,4742.4464494,N,01617.9733734,E,173002.00,A,D*6A
$GPGGA,173002.00,4742.4464494,N,01617.9733734,E,2,23,0.7,625.5972,M,43.2111,M,1.7,0123*4B
$GNGNS,173002.00,4742.4464494,N,01617.9733734,E,DAAA,23,0.7,625.5972,43.2111,,*51
$GPGNS,173002.00,,,,,,06,,,,1.7,123*7A
$GLGNS,173002.00,,,,,,05,,,,,*7D
$GAGNS,173002.00,,,,,,04,,,,,*71
$GBGNS,173002.00,,,,,,08,,,,,*7E
$GPLLQ,173002.00,010125,,M,,M,1,23,1.667,,M*11
$GPVTG,,T,,M,0.00,N,0.01,K,D*27
$GPHDT,,T*1B
$GPTHS,,V*0E
$GPROT,,V*08
$PSSN,HRP,173002.00,010125,,,,,,,00,0,,*66
$PTNL,AVR,173002.00,,Yaw,,Tilt,,,,0,,00*30
$GPGSA,A,3,16,18,26,28,29,31,,,,,,,1.3,0.7,1.1*3E
$GPGSA,A,3,73,79,80,81,82,,,,,,,,1.3,0.7,1.1*36
$GPGSA,A,3,13,15,21,27,,,,,,,,,1.3,0.7,1.1*37
$GPGSA,A,3,08,11,13,23,34,37,38,43,,,,,1.3,0.7,1.1*33
$GPGST,173002.00,2.090,0.746,0.562,344.491,0.735,0.577,1.380*5E
$GPGBS,173002.00,4.944,4.390,7.526,28,0.0001,1.586,1.021*5E
$GPGRS,173002.00,1,0.6,-0.7,0.2,1.6,-0.4,-0.7,,,,,,*63
$GPGRS,173002.00,1,4.1,1.3,-3.1,-0.7,-1.5,,,,,,,*4C
$GPGRS,173002.00,1,1.7,-1.3,2.3,-1.8,,,,,,,,*45
$GPGRS,173002.00,1,0.0,0.1,-3.2,0.1,-2.4,0.2,-1.0,-2.2,,,,*4D
$GPGSV,4,1,15,18,77,164,46,05,26,055,35,25,16,141,28,28,19,214,37*78
$GPGSV,4,2,15,23,16,154,,31,33,239,47,16,36,306,45,29,46,074,49*75
$GPGSV,4,3,15,26,65,281,43,27,09,273,30,20,06,029,25,36,35,170,39*7F
$GPGSV,4,4,15,34,31,208,34,49,34,195,36,61,03,257,*43
$GLGSV,3,1,10,80,69,287,41,65,14,046,,73,18,327,41,83,25,237,*69
$GLGSV,3,2,10,79,43,172,42,81,55,035,47,82,67,262,47,66,04,091,*60
$GLGSV,3,3,10,72,05,353,24,88,04,051,*67
$GAGSV,3,1,11,15,66,069,47,30,14,135,21,34,17,044,23,13,51,203,40*63
$GAGSV,3,2,11,21,56,301,43,27,65,148,50,23,06,310,,26,02,217,*65
$GAGSV,3,3,11,04,00,320,24,06,01,343,,09,00,004,*55
$GBGSV,5,1,20,43,82,277,50,25,27,178,29,21,13,080,,05,21,129,*65
$GBGSV,5,2,20,12,17,062,32,38,30,044,38,60,10,109,,37,30,309,43*68
$GBGSV,5,3,20,28,19,247,26,08,40,057,38,13,43,068,37,34,45,063,44*61
$GBGSV,5,4,20,23,57,241,46,11,71,050,51,42,02,125,,02,07,106,*69
$GBGSV,5,5,20,50,09,102,,56,04,083,,58,01,328,,22,08,031,*65
$GPGGA,173002.00,,,,,0,00,,,M,,M,,*4F
$PTNL,GGK,173002.00,010125,4742.4464494,N,01617.9733734,E,1,23,1.3,EHT668.8082,M*45
$GPGGQ,173002.00,010125,4742.4464494,N,01617.9733734,E,1,23,1.667,625.5972,M*3D
$GPGFA,173002.00,7.095,11.318,0.746,0.562,344.491,1.380,,VVV*34
$GPLLK,173002.00,010125,,M,,M,1,23,1.6,,M*0A
$GNGMP,173002.00,,,,,DAAA,23,0.7,,,,*57
$GPGMP,173002.00,,,,,,06,,,,1.7,123*7A
$GLGMP,173002.00,,,,,,05,,,,,*7D
$GAGMP,173002.00,,,,,,04,,,,,*71
$GBGMP,173002.00,,,,,,08,,,,,*7E
$PSSN,SNC,[0,322220000,2347]*47
$GPZDA,173007.00,01,01,2025,,*61
$GPDTM,W84,,00.0000000,N,00.0000000,E,00.0000000,W84*5F
$GPRMC,173007.00,A,4742.4464497,N,01617.9733712,E,0.0,,010125,5.1,E,D*19
$GPGLL,4742.4464497,N,01617.9733712,E,173007.00,A,D*68
$GPGGA,173007.00,4742.4464497,N,01617.9733712,E,2,24,0.7,625.6316,M,43.2111,M,2.4,0123*45
$GNGNS,173007.00,4742.4464497,N,01617.9733712,E,DAAA,24,0.7,625.6316,43.2111,,*5F
$GPGNS,173007.00,,,,,,07,,,,2.4,123*7E
$GLGNS,173007.00,,,,,,05,,,,,*78
$GAGNS,173007.00,,,,,,04,,,,,*74
$GBGNS,173007.00,,,,,,08,,,,,*7B
$GPLLQ,173007.00,010125,,M,,M,1,24,2.156,,M*15
$GPVTG,,T,,M,0.00,N,0.00,K,D*26
$GPHDT,,T*1B
$GPTHS,,V*0E
$GPROT,,V*08
$PSSN,HRP,173007.00,010125,,,,,,,00,0,,*63
$PTNL,AVR,173007.00,,Yaw,,Tilt,,,,0,,00*35
$GPGSA,A,3,05,16,18,26,28,29,31,,,,,,1.2,0.7,1.0*3B
$GPGSA,A,3,73,79,80,81,82,,,,,,,,1.2,0.7,1.0*36
$GPGSA,A,3,13,15,21,27,,,,,,,,,1.2,0.7,1.0*37
$GPGSA,A,3,08,11,13,23,34,37,38,43,,,,,1.2,0.7,1.0*33
$GPGST,173007.00,2.493,1.077,0.667,336.427,1.023,0.748,1.744*55
$GPGBS,173007.00,4.386,2.919,6.530,05,0.0001,3.229,1.188*59
$GPGRS,173007.00,1,3.2,0.4,-1.0,-0.3,2.1,-0.6,-0.4,,,,,*64
$GPGRS,173007.00,1,3.1,-3.6,-4.9,-0.1,-2.5,,,,,,,*6E
$GPGRS,173007.00,1,2.2,-1.3,1.7,-1.8,,,,,,,,*41
$GPGRS,173007.00,1,0.1,0.0,-3.9,0.1,-2.0,-0.2,-1.0,-1.6,,,,*6D
$GPGSV,4,1,15,18,77,164,46,05,26,055,36,25,16,141,28,28,19,214,36*7A
$GPGSV,4,2,15,23,16,154,,31,33,239,47,16,36,306,46,29,46,075,48*76
$GPGSV,4,3,15,26,65,281,42,27,09,273,27,20,06,029,23,36,35,170,39*7E
$GPGSV,4,4,15,34,31,208,34,49,34,195,36,61,03,257,*43
$GLGSV,3,1,10,80,69,287,40,65,14,046,,73,18,327,42,83,25,237,*6B
$GLGSV,3,2,10,79,43,172,40,81,55,035,48,82,67,262,46,66,04,091,*6C
$GLGSV,3,3,10,72,05,353,,88,04,051,*61
$GAGSV,3,1,11,15,66,069,47,30,14,135,22,34,17,044,24,13,51,203,42*65
$GAGSV,3,2,11,21,56,301,43,27,65,148,50,23,06,310,,26,02,217,*65
$GAGSV,3,3,11,04,00,319,23,06,01,343,,09,00,004,*58
$GBGSV,5,1,20,43,82,277,50,25,26,178,27,21,13,080,,05,21,129,*6A
$GBGSV,5,2,20,12,17,062,31,38,30,044,38,60,10,109,,37,30,309,43*6B
$GBGSV,5,3,20,28,19,247,25,08,40,057,38,13,43,068,37,34,45,063,44*62
$GBGSV,5,4,20,23,57,241,46,11,71,050,51,42,02,125,,02,07,106,*69
$GBGSV,5,5,20,50,10,102,,56,04,083,,58,01,328,,22,08,031,*6D
$GPGGA,173007.00,,,,,0,00,,,M,,M,,*4A
$PTNL,GGK,173007.00,010125,4742.4464497,N,01617.9733712,E,1,24,1.2,EHT668.8427,M*4A
$GPGGQ,173007.00,010125,4742.4464497,N,01617.9733712,E,1,24,2.156,625.6316,M*35
$GPGFA,173007.00,10.243,14.305,1.077,0.667,336.427,1.744,,VVV*01
$GPLLK,173007.00,010125,,M,,M,1,24,1.5,,M*0B
$GNGMP,173007.00,,,,,DAAA,24,0.7,,,,*55
$GPGMP,173007.00,,,,,,07,,,,2.4,123*7E
$GLGMP,173007.00,,,,,,05,,,,,*78
$GAGMP,173007.00,,,,,,04,,,,,*74
$GBGMP,173007.00,,,,,,08,,,,,*7B
$PSSN,SNC,[0,322225000,2347]*42
$GPZDA,173012.00,01,01,2025,,*65
$GPDTM,W84,,00.0000000,N,00.0000000,E,00.0000000,W84*5F
$GPRMC,173012.00,A,4742.4464456,N,01617.9733697,E,0.0,,010125,5.1,E,D*1C
$GPGLL,4742.4464456,N,01617.9733697,E,173012.00,A,D*6D
$GPGGA,173012.00,4742.4464456,N,01617.9733697,E,2,23,0.8,625.6719,M,43.2111,M,3.3,0123*45
$GNGNS,173012.00,4742.4464456,N,01617.9733697,E,DAAA,23,0.8,625.6719,43.2111,,*59
$GPGNS,173012.00,,,,,,06,,,,3.3,123*7D
$GLGNS,173012.00,,,,,,05,,,,,*7C
$GAGNS,173012.00,,,,,,04,,,,,*70
$GBGNS,173012.00,,,,,,08,,,,,*7F
$GPLLQ,173012.00,010125,,M,,M,1,23,1.925,,M*19
$GPVTG,,T,,M,0.01,N,0.02,K,D*25
$GPHDT,,T*1B
$GPTHS,,V*0E
$GPROT,,V*08
$PSSN,HRP,173012.00,010125,,,,,,,00,0,,*67
$PTNL,AVR,173012.00,,Yaw,,Tilt,,,,0,,00*31
$GPGSA,A,3,05,16,18,26,29,31,,,,,,,1.5,0.8,1.3*3A
$GPGSA,A,3,73,79,80,81,82,,,,,,,,1.5,0.8,1.3*3D
$GPGSA,A,3,13,15,21,27,,,,,,,,,1.5,0.8,1.3*3C
$GPGSA,A,3,08,11,13,23,34,37,38,43,,,,,1.5,0.8,1.3*38
$GPGST,173012.00,2.228,0.982,0.483,345.785,0.959,0.527,1.583*55
$GPGBS,173012.00,5.822,2.989,9.017,05,0.0001,2.272,1.194*5D
$GPGRS,173012.00,1,2.3,1.0,-0.7,-0.2,-0.4,-0.0,,,,,,*49
$GPGRS,173012.00,1,3.8,-4.1,-2.2,1.2,-2.0,,,,,,,*44
$GPGRS,173012.00,1,2.3,-1.5,0.8,-2.0,,,,,,,,*47
$GPGRS,173012.00,1,-0.6,-0.2,-3.7,-0.1,-1.2,-0.3,-1.4,-1.1,,,,*4C
$GPGSV,4,1,15,18,77,164,45,05,26,054,37,25,16,141,27,28,19,214,35*75
$GPGSV,4,2,15,23,16,154,,31,33,239,47,16,36,306,47,29,46,075,48*77
$GPGSV,4,3,15,26,65,281,42,27,09,273,24,20,06,029,21,36,35,170,39*7F
$GPGSV,4,4,15,34,31,208,34,49,34,195,36,61,03,257,*43
$GLGSV,3,1,10,80,69,287,39,65,14,046,,73,18,327,42,83,25,238,*6A
$GLGSV,3,2,10,79,43,172,40,81,55,035,48,82,67,262,46,66,04,091,*6C
$GLGSV,3,3,10,72,05,353,,88,04,051,*61
$GAGSV,3,1,11,15,66,069,47,30,14,135,22,34,17,044,24,13,51,203,43*64
$GAGSV,3,2,11,21,56,301,43,27,65,148,50,23,06,310,,26,02,217,*65
$GAGSV,3,3,11,04,00,319,24,06,01,343,,09,00,004,*5F
$GBGSV,5,1,20,43,82,277,50,25,26,178,27,21,13,080,,05,21,129,*6A
$GBGSV,5,2,20,12,17,062,30,38,30,044,38,60,10,109,,37,30,309,43*6A
$GBGSV,5,3,20,28,19,247,30,08,40,057,37,13,43,068,37,34,45,063,42*6F
$GBGSV,5,4,20,23,57,241,47,11,71,050,50,42,02,125,,02,07,106,*69
$GBGSV,5,5,20,50,10,102,,56,04,083,,58,01,328,,22,08,031,*6D
$GPGGA,173012.00,,,,,0,00,,,M,,M,,*4E
$PTNL,GGK,173012.00,010125,4742.4464456,N,01617.9733697,E,1,23,1.5,EHT668.8830,M*45
$GPGGQ,173012.00,010125,4742.4464456,N,01617.9733697,E,1,23,1.925,625.6719,M*33
$GPGFA,173012.00,9.332,12.983,0.982,0.483,345.785,1.583,,VVV*34
$GPLLK,173012.00,010125,,M,,M,1,23,1.8,,M*05
$GNGMP,173012.00,,,,,DAAA,23,0.8,,,,*59
$GPGMP,173012.00,,,,,,06,,,,3.3,123*7D
$GLGMP,173012.00,,,,,,05,,,,,*7C
$GAGMP,173012.00,,,,,,04,,,,,*70
$GBGMP,173012.00,,,,,,08,,,,,*7F
$PSSN,SNC,[0,322230000,2347]*46
$GPZDA,173017.00,01,01,2025,,*60
$GPDTM,W84,,00.0000000,N,00.0000000,E,00.0000000,W84*5F
$GPRMC,173017.00,A,4742.4464358,N,01617.9733709,E,0.0,,010125,5.1,E,D*16
$GPGLL,4742.4464358,N,01617.9733709,E,173017.00,A,D*67
$GPGGA,173017.00,4742.4464358,N,01617.9733709,E,2,23,0.8,625.6884,M,43.2111,M,2.3,0123*45
$GNGNS,173017.00,4742.4464358,N,01617.9733709,E,DAAA,23,0.8,625.6884,43.2111,,*58
$GPGNS,173017.00,,,,,,06,,,,2.3,123*79
$GLGNS,173017.00,,,,,,05,,,,,*79
$GAGNS,173017.00,,,,,,04,,,,,*75
$GBGNS,173017.00,,,,,,08,,,,,*7A
$GPLLQ,173017.00,010125,,M,,M,1,23,2.162,,M*14
$GPVTG,,T,,M,0.01,N,0.02,K,D*25
$GPHDT,,T*1B
$GPTHS,,V*0E
$GPROT,,V*08
$PSSN,HRP,173017.00,010125,,,,,,,00,0,,*62
$PTNL,AVR,173017.00,,Yaw,,Tilt,,,,0,,00*34
$GPGSA,A,3,05,16,18,26,29,31,,,,,,,1.5,0.8,1.3*3A
$GPGSA,A,3,73,79,80,81,82,,,,,,,,1.5,0.8,1.3*3D
$GPGSA,A,3,13,15,21,27,,,,,,,,,1.5,0.8,1.3*3C
$GPGSA,A,3,08,11,13,23,34,37,38,43,,,,,1.5,0.8,1.3*38
$GPGST,173017.00,2.444,1.099,0.566,345.829,1.074,0.611,1.774*56
$GPGBS,173017.00,5.895,2.959,9.146,05,0.0001,2.960,1.205*5F
$GPGRS,173017.00,1,3.0,1.2,-1.0,-0.3,-0.2,-0.1,,,,,,*4C
$GPGRS,173017.00,1,5.5,-3.5,-2.7,1.0,-1.6,,,,,,,*4B
$GPGRS,173017.00,1,2.3,-1.5,0.4,-2.1,,,,,,,,*4F
$GPGRS,173017.00,1,-0.7,-0.9,-3.8,-0.2,-0.7,-0.4,-1.5,-0.5,,,,*48
$GPGSV,4,1,15,18,77,164,44,05,26,054,37,25,16,141,25,28,19,214,33*70
$GPGSV,4,2,15,23,16,154,,31,33,239,47,16,36,306,48,29,46,075,48*78
$GPGSV,4,3,15,26,65,281,42,27,09,273,26,20,06,029,20,36,35,170,39*7C
$GPGSV,4,4,15,34,31,208,34,49,34,195,36,61,03,257,*43
$GLGSV,3,1,10,80,69,287,39,65,14,046,,73,18,327,42,83,25,238,*6A
$GLGSV,3,2,10,79,43,172,40,81,55,035,48,82,67,262,47,66,04,091,*6D
$GLGSV,3,3,10,72,05,353,25,88,04,051,*66
$GAGSV,3,1,11,15,66,069,47,30,14,135,23,34,17,044,25,13,51,203,44*63
$GAGSV,3,2,11,21,56,301,43,27,65,148,49,23,06,310,,26,02,217,*6D
$GAGSV,3,3,11,04,00,319,23,06,01,343,,09,00,004,*58
$GBGSV,5,1,20,43,82,277,51,25,26,178,30,21,13,080,,05,21,129,*6D
$GBGSV,5,2,20,12,17,062,29,38,30,044,37,60,10,109,,37,30,309,43*6D
$GBGSV,5,3,20,28,19,247,30,08,40,057,37,13,43,068,37,34,45,063,42*6F
$GBGSV,5,4,20,23,57,241,47,11,71,050,49,42,02,125,,02,07,106,*61
$GBGSV,5,5,20,50,10,102,,56,04,083,,58,01,328,,22,08,031,*6D
$GPGGA,173017.00,,,,,0,00,,,M,,M,,*4B
$PTNL,GGK,173017.00,010125,4742.4464358,N,01617.9733709,E,1,23,1.5,EHT668.8995,M*41
$GPGGQ,173017.00,010125,4742.4464358,N,01617.9733709,E,1,23,2.162,625.6884,M*3A
$GPGFA,173017.00,10.447,14.547,1.099,0.566,345.829,1.774,,VVV*05
$GPLLK,173017.00,010125,,M,,M,1,23,1.8,,M*00
$GNGMP,173017.00,,,,,DAAA,23,0.8,,,,*5C
$GPGMP,173017.00,,,,,,06,,,,2.3,123*79
$GLGMP,173017.00,,,,,,05,,,,,*79
$GAGMP,173017.00,,,,,,04,,,,,*75
$GBGMP,173017.00,,,,,,08,,,,,*7A
$PSSN,SNC,[0,322235000,2347]*43
$GPZDA,173022.00,01,01,2025,,*66
$GPDTM,W84,,00.0000000,N,00.0000000,E,00.0000000,W84*5F
$GPRMC,173022.00,A,4742.4464268,N,01617.9733736,E,0.0,,010125,5.1,E,D*1E
$GPGLL,4742.4464268,N,01617.9733736,E,173022.00,A,D*6F
$GPGGA,173022.00,4742.4464268,N,01617.9733736,E,2,22,0.8,625.7038,M,43.2111,M,1.6,0123*44
$GNGNS,173022.00,4742.4464268,N,01617.9733736,E,DAAA,22,0.8,625.7038,43.2111,,*5F
$GPGNS,173022.00,,,,,,05,,,,1.6,123*7A
$GLGNS,173022.00,,,,,,05,,,,,*7F
$GAGNS,173022.00,,,,,,04,,,,,*73
$GBGNS,173022.00,,,,,,08,,,,,*7C
$GPLLQ,173022.00,010125,,M,,M,1,22,1.635,,M*15
$GPVTG,,T,,M,0.00,N,0.01,K,D*27
$GPHDT,,T*1B
$GPTHS,,V*0E
$GPROT,,V*08
$PSSN,HRP,173022.00,010125,,,,,,,00,0,,*64
$PTNL,AVR,173022.00,,Yaw,,Tilt,,,,0,,00*32
$GPGSA,A,3,16,18,26,29,31,,,,,,,,1.5,0.8,1.3*3F
$GPGSA,A,3,73,79,80,81,82,,,,,,,,1.5,0.8,1.3*3D
$GPGSA,A,3,13,15,21,27,,,,,,,,,1.5,0.8,1.3*3C
$GPGSA,A,3,08,11,13,23,34,37,38,43,,,,,1.5,0.8,1.3*38
$GPGST,173022.00,2.673,0.752,0.463,349.920,0.744,0.474,1.376*55
$GPGBS,173022.00,5.609,4.513,9.022,73,0.0001,7.693,6.473*52
$GPGRS,173022.00,1,0.5,-0.6,0.1,0.1,0.2,,,,,,,*49
$GPGRS,173022.00,1,7.7,-0.9,-3.9,1.2,-0.6,,,,,,,*4E
$GPGRS,173022.00,1,2.2,-1.0,0.8,-1.9,,,,,,,,*4A
$GPGRS,173022.00,1,0.2,-1.7,-3.9,0.3,0.5,-0.2,-0.7,0.1,,,,*47
$GPGSV,4,1,15,18,77,164,45,05,26,054,38,25,16,141,22,28,19,214,32*78
$GPGSV,4,2,15,23,16,154,,31,33,239,47,16,36,306,49,29,46,075,47*76
$GPGSV,4,3,15,26,65,280,42,27,09,273,29,20,06,029,,36,35,170,39*70
$GPGSV,4,4,15,34,31,208,34,49,34,195,36,61,03,257,*43
$GLGSV,3,1,10,80,69,287,41,65,14,046,,73,18,327,41,83,25,238,*66
$GLGSV,3,2,10,79,43,172,41,81,55,035,47,82,67,262,47,66,04,091,*63
$GLGSV,3,3,10,72,05,353,19,88,04,051,*69
$GAGSV,3,1,11,15,66,068,47,30,14,135,23,34,17,044,26,13,52,203,44*62
$GAGSV,3,2,11,21,56,301,43,27,65,148,49,23,06,310,,26,02,217,*6D
$GAGSV,3,3,11,04,00,319,24,06,01,343,,09,00,004,*5F
$GBGSV,5,1,20,43,82,278,51,25,26,178,32,21,13,080,,05,21,129,*60
$GBGSV,5,2,20,12,17,062,28,38,30,044,37,60,10,109,,37,30,309,43*6C
$GBGSV,5,3,20,28,19,247,29,08,40,057,36,13,43,068,36,34,45,063,42*67
$GBGSV,5,4,20,23,57,241,47,11,71,050,48,42,02,125,,02,07,106,*60
$GBGSV,5,5,20,50,10,102,,56,04,083,,58,01,328,,22,08,031,*6D
$GPGGA,173022.00,,,,,0,00,,,M,,M,,*4D
$PTNL,GGK,173022.00,010125,4742.4464268,N,01617.9733736,E,1,22,1.5,EHT668.9149,M*40
$GPGGQ,173022.00,010125,4742.4464268,N,01617.9733736,E,1,22,1.635,625.7038,M*3B
$GPGFA,173022.00,7.147,11.284,0.752,0.463,349.920,1.376,,VVV*3A
$GPLLK,173022.00,010125,,M,,M,1,22,1.9,,M*06
$GNGMP,173022.00,,,,,DAAA,22,0.8,,,,*5B
$GPGMP,173022.00,,,,,,05,,,,1.6,123*7A
$GLGMP,173022.00,,,,,,05,,,,,*7F
$GAGMP,173022.00,,,,,,04,,,,,*73
$GBGMP,173022.00,,,,,,08,,,,,*7C
$PSSN,SNC,[0,322240000,2347]*41
$GPZDA,173027.00,01,01,2025,,*63
$GPDTM,W84,,00.0000000,N,00.0000000,E,00.0000000,W84*5F
$GPRMC,173027.00,A,4742.4464260,N,01617.9733767,E,0.0,,010125,5.1,E,D*17
$GPGLL,4742.4464260,N,01617.9733767,E,173027.00,A,D*66
$GPGGA,173027.00,4742.4464260,N,01617.9733767,E,2,22,0.8,625.7054,M,43.2111,M,2.6,0123*44
$GNGNS,173027.00,4742.4464260,N,01617.9733767,E,DAAA,22,0.8,625.7054,43.2111,,*5C
$GPGNS,173027.00,,,,,,05,,,,2.6,123*7C
$GLGNS,173027.00,,,,,,05,,,,,*7A
$GAGNS,173027.00,,,,,,04,,,,,*76
$GBGNS,173027.00,,,,,,08,,,,,*79
$GPLLQ,173027.00,010125,,M,,M,1,22,1.636,,M*13
$GPVTG,,T,,M,0.00,N,0.00,K,D*26
$GPHDT,,T*1B
$GPTHS,,V*0E
$GPROT,,V*08
$PSSN,HRP,173027.00,010125,,,,,,,00,0,,*61
$PTNL,AVR,173027.00,,Yaw,,Tilt,,,,0,,00*37
$GPGSA,A,3,16,18,26,29,31,,,,,,,,1.5,0.8,1.3*3F
$GPGSA,A,3,73,79,80,81,82,,,,,,,,1.5,0.8,1.3*3D
$GPGSA,A,3,13,15,21,27,,,,,,,,,1.5,0.8,1.3*3C
$GPGSA,A,3,08,11,13,23,34,37,38,43,,,,,1.5,0.8,1.3*38
$GPGST,173027.00,3.263,0.755,0.455,348.929,0.746,0.470,1.378*56
$GPGBS,173027.00,5.681,4.581,9.125,73,0.0001,10.669,6.480*65
$GPGRS,173027.00,1,-0.0,-0.0,-0.1,-0.3,-0.1,,,,,,,*4E
$GPGRS,173027.00,1,10.7,2.9,-2.6,0.5,-0.5,,,,,,,*59
$GPGRS,173027.00,1,2.2,-0.6,1.0,-1.8,,,,,,,,*40
$GPGRS,173027.00,1,-0.4,-2.2,-3.5,0.7,1.2,0.1,-1.0,0.4,,,,*4C
$GPGSV,4,1,15,18,77,164,45,05,26,054,,25,16,141,19,28,19,214,32*7B
$GPGSV,4,2,15,23,16,154,,31,33,239,46,16,36,306,49,29,46,075,46*76
$GPGSV,4,3,15,26,65,280,41,27,09,273,29,20,06,029,,36,35,170,39*73
$GPGSV,4,4,15,34,31,208,34,49,34,195,36,61,03,257,*43
$GLGSV,3,1,10,80,69,287,42,65,14,046,,73,18,327,36,83,25,238,*65
$GLGSV,3,2,10,79,43,172,43,81,55,035,46,82,67,262,47,66,04,091,*60
$GLGSV,3,3,10,72,05,353,25,88,04,051,*66
$GAGSV,3,1,11,15,66,068,47,30,14,135,22,34,17,044,26,13,52,203,44*63
$GAGSV,3,2,11,21,56,301,42,27,65,148,48,23,06,310,,26,02,217,*6D
$GAGSV,3,3,11,04,00,319,21,06,01,342,,09,00,004,*5B
$GBGSV,5,1,20,43,82,278,51,25,26,178,34,21,13,080,,05,21,129,*66
$GBGSV,5,2,20,12,17,062,28,38,30,044,37,60,10,109,,37,30,309,43*6C
$GBGSV,5,3,20,28,19,247,30,08,40,057,36,13,43,068,36,34,45,063,44*69
$GBGSV,5,4,20,23,57,241,48,11,71,050,48,42,03,125,,02,07,106,*6E
$GBGSV,5,5,20,50,10,102,,56,04,083,,58,01,328,,22,08,031,*6D
$GPGGA,173027.00,,,,,0,00,,,M,,M,,*48
$PTNL,GGK,173027.00,010125,4742.4464260,N,01617.9733767,E,1,22,1.5,EHT668.9164,M*46
$GPGGQ,173027.00,010125,4742.4464260,N,01617.9733767,E,1,22,1.636,625.7054,M*3B
$GPGFA,173027.00,7.177,11.303,0.755,0.455,348.929,1.378,,VVV*36
$GPLLK,173027.00,010125,,M,,M,1,22,1.9,,M*03
$GNGMP,173027.00,,,,,DAAA,22,0.8,,,,*5E
$GPGMP,173027.00,,,,,,05,,,,2.6,123*7C
$GLGMP,173027.00,,,,,,05,,,,,*7A
$GAGMP,173027.00,,,,,,04,,,,,*76
$GBGMP,173027.00,,,,,,08,,,,,*79
$PSSN,SNC,[0,322245000,2347]*44
$GPZDA,173032.00,01,01,2025,,*67
$GPDTM,W84,,00.0000000,N,00.0000000,E,00.0000000,W84*5F
$GPRMC,173032.00,A,4742.4464237,N,01617.9733762,E,0.0,,010125,5.1,E,D*14
$GPGLL,4742.4464237,N,01617.9733762,E,173032.00,A,D*65
$GPGGA,173032.00,4742.4464237,N,01617.9733762,E,2,23,0.7,625.7100,M,43.2111,M,3.6,0123*48
$GNGNS,173032.00,4742.4464237,N,01617.9733762,E,DAAA,23,0.7,625.7100,43.2111,,*51
$GPGNS,173032.00,,,,,,05,,,,3.6,123*79
$GLGNS,173032.00,,,,,,05,,,,,*7E
$GAGNS,173032.00,,,,,,04,,,,,*72
$GBGNS,173032.00,,,,,,09,,,,,*7C
$GPLLQ,173032.00,010125,,M,,M,1,23,1.660,,M*15
$GPVTG,,T,,M,0.01,N,0.01,K,D*26
$GPHDT,,T*1B
$GPTHS,,V*0E
$GPROT,,V*08
$PSSN,HRP,173032.00,010125,,,,,,,00,0,,*65
$PTNL,AVR,173032.00,,Yaw,,Tilt,,,,0,,00*33
$GPGSA,A,3,16,18,26,29,31,,,,,,,,1.3,0.7,1.1*34
$GPGSA,A,3,73,79,80,81,82,,,,,,,,1.3,0.7,1.1*36
$GPGSA,A,3,13,15,21,27,,,,,,,,,1.3,0.7,1.1*37
$GPGSA,A,3,08,11,13,23,25,34,37,38,43,,,,1.3,0.7,1.1*34
$GPGST,173032.00,1.982,0.759,0.464,348.880,0.750,0.479,1.402*5C
$GPGBS,173032.00,5.581,4.662,9.055,26,0.0001,-0.704,0.704*75
$GPGRS,173032.00,1,0.7,-0.0,-0.7,0.5,-0.3,,,,,,,*4F
$GPGRS,173032.00,1,-0.5,4.8,-3.5,0.8,-0.7,,,,,,,*49
$GPGRS,173032.00,1,1.7,0.1,0.9,-1.2,,,,,,,,*6A
$GPGRS,173032.00,1,-0.9,-1.1,-2.9,0.7,2.2,1.6,0.7,-0.2,0.9,,,*6A
$GPGSV,4,1,15,18,77,164,44,05,26,054,,25,16,141,,28,19,213,31*76
$GPGSV,4,2,15,23,16,154,,31,33,239,44,16,36,306,50,29,46,075,46*7C
$GPGSV,4,3,15,26,65,280,41,27,09,273,25,20,06,029,,36,35,170,39*7F
$GPGSV,4,4,15,34,31,208,34,49,34,195,36,61,03,257,*43
$GLGSV,3,1,10,80,69,287,42,65,14,046,,73,18,327,43,83,25,238,*67
$GLGSV,3,2,10,79,43,172,42,81,55,035,47,82,67,262,47,66,04,091,*60
$GLGSV,3,3,10,72,05,353,24,88,04,051,*67
$GAGSV,3,1,11,15,66,068,47,30,14,135,22,34,17,044,27,13,52,203,44*62
$GAGSV,3,2,11,21,56,301,43,27,65,148,48,23,06,311,,26,02,217,*6D
$GAGSV,3,3,11,04,00,319,21,06,01,342,,09,00,004,*5B
$GBGSV,5,1,20,43,82,278,51,25,26,178,36,21,13,080,,05,21,129,*64
$GBGSV,5,2,20,12,17,062,29,38,30,044,37,60,10,109,,37,30,309,43*6D
$GBGSV,5,3,20,28,19,247,31,08,40,057,35,13,43,068,36,34,45,063,45*6A
$GBGSV,5,4,20,23,57,241,48,11,71,050,48,42,03,125,,02,07,106,*6E
$GBGSV,5,5,20,50,10,102,,56,04,083,,58,01,328,,22,08,031,*6D
$GPGGA,173032.00,,,,,0,00,,,M,,M,,*4C
$PTNL,GGK,173032.00,010125,4742.4464237,N,01617.9733762,E,1,23,1.3,EHT668.9211,M*43
$GPGGQ,173032.00,010125,4742.4464237,N,01617.9733762,E,1,23,1.660,625.7100,M*3A
$GPGFA,173032.00,7.215,11.492,0.759,0.464,348.880,1.402,,VVV*3C
$GPLLK,173032.00,010125,,M,,M,1,23,1.6,,M*09
$GNGMP,173032.00,,,,,DAAA,23,0.7,,,,*54
$GPGMP,173032.00,,,,,,05,,,,3.6,123*79
$GLGMP,173032.00,,,,,,05,,,,,*7E
$GAGMP,173032.00,,,,,,04,,,,,*72
$GBGMP,173032.00,,,,,,09,,,,,*7C
$PSSN,SNC,[0,322250000,2347]*40
$GPZDA,173037.00,01,01,2025,,*62
$GPDTM,W84,,00.0000000,N,00.0000000,E,00.0000000,W84*5F
$GPRMC,173037.00,A,4742.4464184,N,01617.9733683,E,0.0,,010125,5.1,E,D*14
$GPGLL,4742.4464184,N,01617.9733683,E,173037.00,A,D*65
$GPGGA,173037.00,4742.4464184,N,01617.9733683,E,2,22,0.7,625.7129,M,43.2111,M,2.2,0123*47
$GNGNS,173037.00,4742.4464184,N,01617.9733683,E,DAAA,22,0.7,625.7129,43.2111,,*5B
$GPGNS,173037.00,,,,,,05,,,,2.2,123*79
$GLGNS,173037.00,,,,,,05,,,,,*7B
$GAGNS,173037.00,,,,,,04,,,,,*77
$GBGNS,173037.00,,,,,,08,,,,,*78
$GPLLQ,173037.00,010125,,M,,M,1,22,1.675,,M*15
$GPVTG,,T,,M,0.01,N,0.01,K,D*26
$GPHDT,,T*1B
$GPTHS,,V*0E
$GPROT,,V*08
$PSSN,HRP,173037.00,010125,,,,,,,00,0,,*60
$PTNL,AVR,173037.00,,Yaw,,Tilt,,,,0,,00*36
$GPGSA,A,3,16,18,26,29,31,,,,,,,,1.3,0.7,1.1*34
$GPGSA,A,3,73,79,80,81,82,,,,,,,,1.3,0.7,1.1*36
$GPGSA,A,3,13,15,21,27,,,,,,,,,1.3,0.7,1.1*37
$GPGSA,A,3,11,13,23,25,34,37,38,43,,,,,1.3,0.7,1.1*3C
$GPGST,173037.00,1.716,0.764,0.475,349.679,0.757,0.487,1.412*5A
$GPGBS,173037.00,5.674,4.704,9.148,16,0.0001,0.924,0.836*59
$GPGRS,173037.00,1,0.9,-0.1,-0.7,0.7,-0.6,,,,,,,*42
$GPGRS,173037.00,1,-0.3,3.5,-3.7,2.0,-0.5,,,,,,,*4A
$GPGRS,173037.00,1,0.6,0.3,1.2,-1.0,,,,,,,,*65
$GPGRS,173037.00,1,0.4,-2.4,-0.0,1.2,0.8,0.6,-0.2,1.0,,,,*6E
$GPGSV,4,1,15,18,77,163,42,05,26,054,36,25,16,141,,28,19,213,32*71
$GPGSV,4,2,15,23,16,154,,31,33,239,43,16,36,306,49,29,46,075,47*72
$GPGSV,4,3,15,26,65,280,40,27,09,273,25,20,06,029,,36,35,170,39*7E
$GPGSV,4,4,15,34,31,208,34,49,34,195,36,61,03,257,*43
$GLGSV,3,1,10,80,69,286,43,65,14,046,,73,18,327,44,83,25,238,*60
$GLGSV,3,2,10,79,42,172,39,81,55,035,48,82,67,262,49,66,04,091,*6C
$GLGSV,3,3,10,72,05,353,24,88,04,051,*67
$GAGSV,3,1,11,15,66,068,47,30,14,135,23,34,17,044,27,13,52,203,43*64
$GAGSV,3,2,11,21,56,301,42,27,65,148,48,23,06,311,,26,02,217,*6C
$GAGSV,3,3,11,04,00,319,22,06,01,342,,09,00,004,*58
$GBGSV,5,1,20,43,82,278,51,25,26,178,37,21,13,080,,05,21,129,*65
$GBGSV,5,2,20,12,17,062,29,38,30,044,37,60,10,109,,37,30,309,42*6C
$GBGSV,5,3,20,28,19,247,32,08,40,057,35,13,43,068,37,34,45,063,46*6B
$GBGSV,5,4,20,23,57,241,48,11,71,050,49,42,03,125,,02,07,106,*6F
$GBGSV,5,5,20,50,10,102,,56,04,083,,58,01,328,,22,08,031,*6D
$GPGGA,173037.00,,,,,0,00,,,M,,M,,*49
$PTNL,GGK,173037.00,010125,4742.4464184,N,01617.9733683,E,1,22,1.3,EHT668.9239,M*48
$GPGGQ,173037.00,010125,4742.4464184,N,01617.9733683,E,1,22,1.675,625.7129,M*34
$GPGFA,173037.00,7.267,11.581,0.764,0.475,349.679,1.412,,VVV*39
$GPLLK,173037.00,010125,,M,,M,1,22,1.6,,M*0D
$GNGMP,173037.00,,,,,DAAA,22,0.7,,,,*50
$GPGMP,173037.00,,,,,,05,,,,2.2,123*79
$GLGMP,173037.00,,,,,,05,,,,,*7B
$GAGMP,173037.00,,,,,,04,,,,,*77
$GBGMP,173037.00,,,,,,08,,,,,*78
$PSSN,SNC,[0,322255000,2347]*45
$GPZDA,173042.00,01,01,2025,,*60
$GPDTM,W84,,00.0000000,N,00.0000000,E,00.0000000,W84*5F
$GPRMC,173042.00,A,4742.4464165,N,01617.9733617,E,0.0,,010125,5.1,E,D*14
$GPGLL,4742.4464165,N,01617.9733617,E,173042.00,A,D*65
$GPGGA,173042.00,4742.4464165,N,01617.9733617,E,2,21,0.7,625.7117,M,43.2111,M,1.6,0123*4E
$GNGNS,173042.00,4742.4464165,N,01617.9733617,E,DAAA,21,0.7,625.7117,43.2111,,*55
$GPGNS,173042.00,,,,,,05,,,,1.6,123*7C
$GLGNS,173042.00,,,,,,04,,,,,*78
$GAGNS,173042.00,,,,,,04,,,,,*75
$GBGNS,173042.00,,,,,,08,,,,,*7A
$GPLLQ,173042.00,010125,,M,,M,1,21,1.634,,M*11
$GPVTG,,T,,M,0.01,N,0.01,K,D*26
$GPHDT,,T*1B
$GPTHS,,V*0E
$GPROT,,V*08
$PSSN,HRP,173042.00,010125,,,,,,,00,0,,*62
$PTNL,AVR,173042.00,,Yaw,,Tilt,,,,0,,00*34
$GPGSA,A,3,16,18,26,29,31,,,,,,,,1.5,0.7,1.3*30
$GPGSA,A,3,79,80,81,82,,,,,,,,,1.5,0.7,1.3*36
$GPGSA,A,3,13,15,21,27,,,,,,,,,1.5,0.7,1.3*33
$GPGSA,A,3,11,13,23,25,34,37,38,43,,,,,1.5,0.7,1.3*38
$GPGST,173042.00,1.056,0.748,0.464,350.082,0.742,0.475,1.377*52
$GPGBS,173042.00,5.536,4.518,8.825,18,0.0001,0.820,0.636*57
$GPGRS,173042.00,1,0.0,0.8,-0.3,0.2,-0.9,,,,,,,*63
$GPGRS,173042.00,1,-0.8,-0.6,2.3,0.1,,,,,,,,*43
$GPGRS,173042.00,1,-0.4,0.1,1.0,-1.0,,,,,,,,*48
$GPGRS,173042.00,1,0.6,-1.8,-0.8,0.4,-0.1,0.3,-0.6,0.8,,,,*42
$GPGSV,4,1,15,18,77,163,42,05,26,054,27,25,16,141,25,28,19,213,32*76
$GPGSV,4,2,15,23,16,154,,31,33,239,41,16,36,306,48,29,46,075,46*70
$GPGSV,4,3,15,26,65,280,39,27,09,273,28,20,06,029,,36,35,170,39*7D
$GPGSV,4,4,15,34,31,208,34,49,34,195,36,61,03,257,*43
$GLGSV,3,1,10,80,69,286,46,65,14,045,,73,18,327,35,83,25,238,*60
$GLGSV,3,2,10,79,42,172,36,81,55,035,48,82,67,262,49,66,04,091,*63
$GLGSV,3,3,10,72,05,353,26,88,04,051,*65
$GAGSV,3,1,11,15,66,068,47,30,14,135,22,34,17,044,27,13,52,203,43*65
$GAGSV,3,2,11,21,56,301,42,27,65,148,48,23,06,311,,26,02,217,*6C
$GAGSV,3,3,11,04,00,319,,06,01,342,,09,00,004,*58
$GBGSV,5,1,20,43,82,278,51,25,26,178,38,21,13,080,,05,21,129,*6A
$GBGSV,5,2,20,12,17,062,29,38,30,044,37,60,10,109,,37,30,309,42*6C
$GBGSV,5,3,20,28,19,247,31,08,40,056,34,13,43,068,37,34,45,063,46*68
$GBGSV,5,4,20,23,57,240,48,11,71,050,50,42,03,125,,02,07,106,*66
$GBGSV,5,5,20,50,10,102,,56,04,083,,58,01,328,,22,08,031,*6D
$GPGGA,173042.00,,,,,0,00,,,M,,M,,*4B
$PTNL,GGK,173042.00,010125,4742.4464165,N,01617.9733617,E,1,21,1.5,EHT668.9228,M*4D
$GPGGQ,173042.00,010125,4742.4464165,N,01617.9733617,E,1,21,1.634,625.7117,M*3F
$GPGFA,173042.00,7.116,11.288,0.748,0.464,350.082,1.377,,VVV*30
$GPLLK,173042.00,010125,,M,,M,1,21,1.8,,M*02
$GNGMP,173042.00,,,,,DAAA,21,0.7,,,,*51
$GPGMP,173042.00,,,,,,05,,,,1.6,123*7C
$GLGMP,173042.00,,,,,,04,,,,,*78
$GAGMP,173042.00,,,,,,04,,,,,*75
$GBGMP,173042.00,,,,,,08,,,,,*7A
$PSSN,SNC,[0,322260000,2347]*43
$GPZDA,173047.00,01,01,2025,,*65
$GPDTM,W84,,00.0000000,N,00.0000000,E,00.0000000,W84*5F
$GPRMC,173047.00,A,4742.4464186,N,01617.9733531,E,0.0,,010125,5.1,E,D*1B
$GPGLL,4742.4464186,N,01617.9733531,E,173047.00,A,D*6A
$GPGGA,173047.00,4742.4464186,N,01617.9733531,E,2,21,0.7,625.7012,M,43.2111,M,2.6,0123*46
$GNGNS,173047.00,4742.4464186,N,01617.9733531,E,DAAA,21,0.7,625.7012,43.2111,,*5E
$GPGNS,173047.00,,,,,,05,,,,2.6,123*7A
$GLGNS,173047.00,,,,,,04,,,,,*7D
$GAGNS,173047.00,,,,,,04,,,,,*70
$GBGNS,173047.00,,,,,,08,,,,,*7F
$GPLLQ,173047.00,010125,,M,,M,1,21,2.312,,M*16
$GPVTG,,T,,M,0.00,N,0.01,K,D*27
$GPHDT,,T*1B
$GPTHS,,V*0E
$GPROT,,V*08
$PSSN,HRP,173047.00,010125,,,,,,,00,0,,*67
$PTNL,AVR,173047.00,,Yaw,,Tilt,,,,0,,00*31
$GPGSA,A,3,16,18,26,29,31,,,,,,,,1.4,0.7,1.2*30
$GPGSA,A,3,73,80,81,82,,,,,,,,,1.4,0.7,1.2*3C
$GPGSA,A,3,13,15,21,27,,,,,,,,,1.4,0.7,1.2*33
$GPGSA,A,3,11,13,23,25,34,37,38,43,,,,,1.4,0.7,1.2*38
$GPGST,173047.00,1.198,1.075,0.644,348.836,1.062,0.665,1.943*58
$GPGBS,173047.00,5.728,4.597,9.059,18,0.0001,1.636,0.652*50
$GPGRS,173047.00,1,-0.3,1.6,-1.0,-0.4,-0.7,,,,,,,*60
$GPGRS,173047.00,1,-1.0,2.4,1.8,0.5,,,,,,,,*6E
$GPGRS,173047.00,1,0.1,0.3,0.4,-1.0,,,,,,,,*62
$GPGRS,173047.00,1,0.7,-0.6,-0.9,0.3,-0.6,0.4,-0.9,1.0,,,,*49
$GPGSV,4,1,15,18,77,163,42,05,26,054,33,25,16,141,27,28,19,213,33*70
$GPGSV,4,2,15,23,16,154,,31,33,239,40,16,36,306,47,29,46,075,46*7E
$GPGSV,4,3,15,26,65,280,38,27,09,273,28,20,05,029,,36,35,170,39*7F
$GPGSV,4,4,15,34,31,208,34,49,34,195,37,61,03,257,*42
$GLGSV,3,1,10,80,69,286,48,65,14,045,,73,18,327,44,83,25,238,*68
$GLGSV,3,2,10,79,42,172,35,81,55,035,47,82,67,263,50,66,04,091,*66
$GLGSV,3,3,10,72,05,353,23,88,04,051,*60
$GAGSV,3,1,11,15,66,068,48,30,14,135,22,34,17,044,27,13,52,203,44*6D
$GAGSV,3,2,11,21,56,301,42,27,65,148,48,23,06,311,,26,02,217,*6C
$GAGSV,3,3,11,04,00,319,,06,01,342,,09,00,004,*58
$GBGSV,5,1,20,43,82,278,50,25,26,178,39,21,13,079,,05,21,129,*6C
$GBGSV,5,2,20,12,17,062,30,38,30,044,36,60,10,109,,37,30,309,42*65
$GBGSV,5,3,20,28,19,248,31,08,40,056,35,13,43,067,38,34,45,063,47*67
$GBGSV,5,4,20,23,57,240,48,11,71,050,50,42,03,125,,02,07,106,*66
$GBGSV,5,5,20,50,10,102,,56,04,083,,58,01,327,,22,08,031,*62
$GPGGA,173047.00,,,,,0,00,,,M,,M,,*4E
$PTNL,GGK,173047.00,010125,4742.4464186,N,01617.9733531,E,1,21,1.4,EHT668.9123,M*4B
$GPGGQ,173047.00,010125,4742.4464186,N,01617.9733531,E,1,21,2.312,625.7012,M*36
$GPGFA,173047.00,10.221,15.932,1.075,0.644,348.836,1.943,,VVV*01
$GPLLK,173047.00,010125,,M,,M,1,21,1.7,,M*08
$GNGMP,173047.00,,,,,DAAA,21,0.7,,,,*54
$GPGMP,173047.00,,,,,,05,,,,2.6,123*7A
$GLGMP,173047.00,,,,,,04,,,,,*7D
$GAGMP,173047.00,,,,,,04,,,,,*70
$GBGMP,173047.00,,,,,,08,,,,,*7F
$PSSN,SNC,[0,322265000,2347]*46
$GPZDA,173052.00,01,01,2025,,*61
$GPDTM,W84,,00.0000000,N,00.0000000,E,00.0000000,W84*5F
$GPRMC,173052.00,A,4742.4464230,N,01617.9733507,E,0.0,,010125,5.1,E,D*14
$GPGLL,4742.4464230,N,01617.9733507,E,173052.00,A,D*65
$GPGGA,173052.00,4742.4464230,N,01617.9733507,E,2,22,0.7,625.6923,M,43.2111,M,3.6,0123*41
$GNGNS,173052.00,4742.4464230,N,01617.9733507,E,DAAA,22,0.7,625.6923,43.2111,,*58
$GPGNS,173052.00,,,,,,05,,,,3.6,123*7F
$GLGNS,173052.00,,,,,,05,,,,,*78
$GAGNS,173052.00,,,,,,04,,,,,*74
$GBGNS,173052.00,,,,,,08,,,,,*7B
$GPLLQ,173052.00,010125,,M,,M,1,22,1.665,,M*17
$GPVTG,,T,,M,0.01,N,0.01,K,D*26
$GPHDT,,T*1B
$GPTHS,,V*0E
$GPROT,,V*08
$PSSN,HRP,173052.00,010125,,,,,,,00,0,,*63
$PTNL,AVR,173052.00,,Yaw,,Tilt,,,,0,,00*35
$GPGSA,A,3,16,18,26,29,31,,,,,,,,1.3,0.7,1.1*34
$GPGSA,A,3,73,79,80,81,82,,,,,,,,1.3,0.7,1.1*36
$GPGSA,A,3,13,15,21,27,,,,,,,,,1.3,0.7,1.1*37
$GPGSA,A,3,11,13,23,25,34,37,38,43,,,,,1.3,0.7,1.1*3C
$GPGST,173052.00,1.081,0.769,0.465,348.917,0.760,0.480,1.402*58
$GPGBS,173052.00,5.608,4.670,9.041,18,0.0001,0.978,0.672*52
$GPGRS,173052.00,1,-0.3,1.0,0.1,-0.8,0.1,,,,,,,*68
$GPGRS,173052.00,1,-1.4,1.1,2.3,1.1,0.0,,,,,,,*4B
$GPGRS,173052.00,1,0.4,0.1,-0.3,-1.3,,,,,,,,*48
$GPGRS,173052.00,1,-0.1,0.2,-1.1,0.1,-1.4,0.2,-0.5,0.9,,,,*45
$GPGSV,4,1,15,18,77,163,42,05,26,054,28,25,16,141,27,28,19,213,34*7D
$GPGSV,4,2,15,23,16,154,,31,33,239,38,16,36,306,46,29,45,075,46*73
$GPGSV,4,3,15,26,65,280,37,27,09,273,25,20,05,029,,36,35,170,39*7D
$GPGSV,4,4,15,34,31,208,34,49,34,195,37,61,03,257,*42
$GLGSV,3,1,10,80,69,286,48,65,14,045,,73,18,327,43,83,25,238,*6F
$GLGSV,3,2,10,79,42,172,35,81,54,035,46,82,67,263,50,66,04,091,*66
$GLGSV,3,3,10,72,05,353,27,88,04,051,*64
$GAGSV,3,1,11,15,66,068,48,30,14,135,21,34,16,044,28,13,52,203,45*61
$GAGSV,3,2,11,21,56,301,41,27,65,148,48,23,06,311,,26,03,217,*6E
$GAGSV,3,3,11,04,00,319,,06,01,342,,09,00,004,*58
$GBGSV,5,1,20,43,82,279,50,25,26,178,40,21,13,079,,05,21,129,*63
$GBGSV,5,2,20,12,17,062,30,38,30,044,36,60,10,109,,37,30,309,42*65
$GBGSV,5,3,20,28,19,248,30,08,40,056,35,13,43,067,39,34,45,063,48*68
$GBGSV,5,4,20,23,57,240,48,11,71,050,50,42,03,125,,02,07,106,*66
$GBGSV,5,5,20,50,10,102,,56,04,083,,58,01,327,,22,08,031,*62
$GPGGA,173052.00,,,,,0,00,,,M,,M,,*4A
$PTNL,GGK,173052.00,010125,4742.4464230,N,01617.9733507,E,1,22,1.3,EHT668.9034,M*47
$GPGGQ,173052.00,010125,4742.4464230,N,01617.9733507,E,1,22,1.665,625.6923,M*36
$GPGFA,173052.00,7.308,11.498,0.769,0.465,348.917,1.402,,VVV*30
$GPLLK,173052.00,010125,,M,,M,1,22,1.6,,M*0E
$GNGMP,173052.00,,,,,DAAA,22,0.7,,,,*53
$GPGMP,173052.00,,,,,,05,,,,3.6,123*7F
$GLGMP,173052.00,,,,,,05,,,,,*78
$GAGMP,173052.00,,,,,,04,,,,,*74
$GBGMP,173052.00,,,,,,08,,,,,*7B
$PSSN,SNC,[0,322270000,2347]*42
$GPZDA,173057.00,01,01,2025,,*64
$GPDTM,W84,,00.0000000,N,00.0000000,E,00.0000000,W84*5F
$GPRMC,173057.00,A,4742.4464289,N,01617.9733617,E,0.0,,010125,5.1,E,D*11
$GPGLL,4742.4464289,N,01617.9733617,E,173057.00,A,D*60
$GPGGA,173057.00,4742.4464289,N,01617.9733617,E,2,22,0.7,625.6788,M,43.2111,M,2.2,0123*4E
$GNGNS,173057.00,4742.4464289,N,01617.9733617,E,DAAA,22,0.7,625.6788,43.2111,,*52
$GPGNS,173057.00,,,,,,05,,,,2.2,123*7F
$GLGNS,173057.00,,,,,,05,,,,,*7D
$GAGNS,173057.00,,,,,,04,,,,,*71
$GBGNS,173057.00,,,,,,08,,,,,*7E
$GPLLQ,173057.00,010125,,M,,M,1,22,1.980,,M*16
$GPVTG,,T,,M,0.01,N,0.01,K,D*26
$GPHDT,,T*1B
$GPTHS,,V*0E
$GPROT,,V*08
$PSSN,HRP,173057.00,010125,,,,,,,00,0,,*66
$PTNL,AVR,173057.00,,Yaw,,Tilt,,,,0,,00*30
$GPGSA,A,3,16,18,26,29,31,,,,,,,,1.3,0.7,1.1*34
$GPGSA,A,3,73,79,80,81,82,,,,,,,,1.3,0.7,1.1*36
$GPGSA,A,3,13,15,21,27,,,,,,,,,1.3,0.7,1.1*37
$GPGSA,A,3,11,13,23,25,34,37,38,43,,,,,1.3,0.7,1.1*3C
$GPGST,173057.00,1.164,0.906,0.561,349.886,0.897,0.575,1.669*5E
$GPGBS,173057.00,5.716,4.709,9.186,26,0.0001,1.124,0.666*54
$GPGRS,173057.00,1,-0.4,0.4,1.1,-1.3,0.2,,,,,,,*67
$GPGRS,173057.00,1,-1.9,0.6,-0.3,-0.2,-0.1,,,,,,,*69
$GPGRS,173057.00,1,0.2,-0.1,-1.0,-1.7,,,,,,,,*60
$GPGRS,173057.00,1,-0.9,-0.4,-1.7,-0.0,-1.6,-0.5,-1.4,0.5,,,,*6D
$GPGSV,4,1,15,18,77,163,42,05,26,054,29,25,16,141,29,28,19,213,33*75
$GPGSV,4,2,15,23,16,154,,31,33,239,36,16,36,306,45,29,45,075,46*7E
$GPGSV,4,3,15,26,65,280,35,27,09,273,21,20,05,029,,36,35,170,39*7B
$GPGSV,4,4,15,34,31,208,34,49,34,195,36,61,03,257,*43
$GLGSV,3,1,10,80,69,286,47,65,14,045,,73,18,327,43,83,25,238,*60
$GLGSV,3,2,10,79,42,172,38,81,54,035,44,82,67,263,49,66,04,091,*61
$GLGSV,3,3,10,72,05,353,25,88,04,051,*66
$GAGSV,3,1,11,15,66,068,49,30,14,135,21,34,16,044,28,13,52,203,46*63
$GAGSV,3,2,11,21,56,301,41,27,65,148,49,23,06,311,,26,03,217,*6F
$GAGSV,3,3,11,04,00,319,,06,01,342,,09,00,004,*58
$GBGSV,5,1,20,43,82,279,49,25,26,178,40,21,13,079,,05,21,129,*6B
$GBGSV,5,2,20,12,17,062,30,38,30,044,35,60,10,109,,37,30,309,42*66
$GBGSV,5,3,20,28,19,248,29,08,40,056,35,13,43,067,40,34,45,063,48*6E
$GBGSV,5,4,20,23,57,240,48,11,71,050,50,42,03,125,,02,07,106,*66
$GBGSV,5,5,20,50,10,102,,56,04,083,,58,01,327,,22,08,031,*62
$GPGGA,173057.00,,,,,0,00,,,M,,M,,*4F
$PTNL,GGK,173057.00,010125,4742.4464289,N,01617.9733617,E,1,22,1.3,EHT668.8899,M*4C
$GPGGQ,173057.00,010125,4742.4464289,N,01617.9733617,E,1,22,1.980,625.6788,M*38
$GPGFA,173057.00,8.614,13.688,0.906,0.561,349.886,1.669,,VVV*36
$GPLLK,173057.00,010125,,M,,M,1,22,1.6,,M*0B
$GNGMP,173057.00,,,,,DAAA,22,0.7,,,,*56
$GPGMP,173057.00,,,,,,05,,,,2.2,123*7F
$GLGMP,173057.00,,,,,,05,,,,,*7D
$GAGMP,173057.00,,,,,,04,,,,,*71
$GBGMP,173057.00,,,,,,08,,,,,*7E
$PSSN,SNC,[0,322275000,2347]*47
$GPZDA,173102.00,01,01,2025,,*65
$GPDTM,W84,,00.0000000,N,00.0000000,E,00.0000000,W84*5F
$GPRMC,173102.00,A,4742.4464341,N,01617.9733672,E,0.0,,010125,5.1,E,D*16
$GPGLL,4742.4464341,N,01617.9733672,E,173102.00,A,D*67
$GPGGA,173102.00,4742.4464341,N,01617.9733672,E,2,21,0.7,625.6588,M,43.2111,M,1.8,0123*41
$GNGNS,173102.00,4742.4464341,N,01617.9733672,E,DAAA,21,0.7,625.6588,43.2111,,*54
$GPGNS,173102.00,,,,,,04,,,,1.8,123*76
$GLGNS,173102.00,,,,,,05,,,,,*7C
$GAGNS,173102.00,,,,,,04,,,,,*70
$GBGNS,173102.00,,,,,,08,,,,,*7F
$GPLLQ,173102.00,010125,,M,,M,1,21,5.811,,M*19
$GPVTG,,T,,M,0.01,N,0.02,K,D*25
$GPHDT,,T*1B
$GPTHS,,V*0E
$GPROT,,V*08
$PSSN,HRP,173102.00,010125,,,,,,,00,0,,*67
$PTNL,AVR,173102.00,,Yaw,,Tilt,,,,0,,00*31
$GPGSA,A,3,16,18,26,29,,,,,,,,,1.4,0.7,1.2*32
$GPGSA,A,3,73,79,80,81,82,,,,,,,,1.4,0.7,1.2*32
$GPGSA,A,3,13,15,21,27,,,,,,,,,1.4,0.7,1.2*33
$GPGSA,A,3,08,11,13,23,25,34,37,43,,,,,1.4,0.7,1.2*3B
$GPGST,173102.00,1.656,3.020,0.722,7.432,2.996,0.816,4.912*54
$GPGBS,173102.00,13.132,4.860,20.952,18,0.0001,1.421,0.632*54
$GPGRS,173102.00,1,-0.3,1.4,0.7,-1.6,,,,,,,,*4E
$GPGRS,173102.00,1,-1.2,0.1,-0.7,-1.1,-0.7,,,,,,,*64
$GPGRS,173102.00,1,-0.5,-0.3,-0.7,-1.9,,,,,,,,*41
$GPGRS,173102.00,1,-3.9,-0.9,-0.3,-2.3,-0.8,-1.5,-1.0,0.1,,,,*68
$GPGSV,4,1,15,18,77,163,44,05,26,054,30,25,16,141,29,28,19,213,33*7B
$GPGSV,4,2,15,23,16,154,,31,33,239,35,16,36,306,46,29,45,075,46*7E
$GPGSV,4,3,15,26,65,280,39,27,09,273,22,20,05,029,,36,35,170,39*74
$GPGSV,4,4,15,34,31,208,34,49,34,195,36,61,03,257,*43
$GLGSV,3,1,10,80,69,286,47,65,14,045,,73,18,327,43,83,25,238,*60
$GLGSV,3,2,10,79,42,172,38,81,54,035,41,82,67,263,49,66,04,091,*64
$GLGSV,3,3,10,72,05,353,,88,04,051,*61
$GAGSV,3,1,11,15,66,068,49,30,14,135,21,34,16,044,26,13,52,203,46*6D
$GAGSV,3,2,11,21,56,301,41,27,65,148,49,23,06,311,,26,03,217,*6F
$GAGSV,3,3,11,04,00,319,,06,01,342,,09,00,004,*58
$GBGSV,5,1,20,43,82,279,48,25,26,178,40,21,13,079,,05,21,129,*6A
$GBGSV,5,2,20,12,17,062,30,38,30,044,35,60,10,109,,37,30,309,41*65
$GBGSV,5,3,20,28,19,248,28,08,40,056,35,13,43,067,41,34,45,063,48*6E
$GBGSV,5,4,20,23,57,240,48,11,71,050,50,42,03,125,,02,07,106,*66
$GBGSV,5,5,20,50,10,102,,56,04,083,,58,01,327,,22,08,031,*62
$GPGGA,173102.00,,,,,0,00,,,M,,M,,*4E
$PTNL,GGK,173102.00,010125,4742.4464341,N,01617.9733672,E,1,21,1.4,EHT668.8699,M*41
$GPGGQ,173102.00,010125,4742.4464341,N,01617.9733672,E,1,21,5.811,625.6588,M*33
$GPGFA,173102.00,28.715,40.281,3.020,0.722,7.432,4.912,,VVV*09
$GPLLK,173102.00,010125,,M,,M,1,21,1.7,,M*08
$GNGMP,173102.00,,,,,DAAA,21,0.7,,,,*54
$GPGMP,173102.00,,,,,,04,,,,1.8,123*76
$GLGMP,173102.00,,,,,,05,,,,,*7C
$GAGMP,173102.00,,,,,,04,,,,,*70
$GBGMP,173102.00,,,,,,08,,,,,*7F
$PSSN,SNC,[0,322280000,2347]*4D
$GPZDA,173107.00,01,01,2025,,*60
$GPDTM,W84,,00.0000000,N,00.0000000,E,00.0000000,W84*5F
$GPRMC,173107.00,A,4742.4464326,N,01617.9733721,E,0.0,,010125,5.1,E,D*15
$GPGLL,4742.4464326,N,01617.9733721,E,173107.00,A,D*64
$GPGGA,173107.00,4742.4464326,N,01617.9733721,E,2,21,0.7,625.6245,M,43.2111,M,2.5,0123*4A
$GNGNS,173107.00,4742.4464326,N,01617.9733721,E,DAAA,21,0.7,625.6245,43.2111,,*51
$GPGNS,173107.00,,,,,,04,,,,2.5,123*7D
$GLGNS,173107.00,,,,,,05,,,,,*79
$GAGNS,173107.00,,,,,,04,,,,,*75
$GBGNS,173107.00,,,,,,08,,,,,*7A
$GPLLQ,173107.00,010125,,M,,M,1,21,3.244,,M*10
$GPVTG,,T,,M,0.00,N,0.01,K,D*27
$GPHDT,,T*1B
$GPTHS,,V*0E
$GPROT,,V*08
$PSSN,HRP,173107.00,010125,,,,,,,00,0,,*62
$PTNL,AVR,173107.00,,Yaw,,Tilt,,,,0,,00*34
$GPGSA,A,3,16,18,29,31,,,,,,,,,1.4,0.7,1.2*34
$GPGSA,A,3,73,79,80,81,82,,,,,,,,1.4,0.7,1.2*32
$GPGSA,A,3,13,15,21,27,,,,,,,,,1.4,0.7,1.2*33
$GPGSA,A,3,08,11,13,23,25,34,37,43,,,,,1.4,0.7,1.2*3B
$GPGST,173107.00,1.355,1.359,0.829,339.096,1.303,0.914,2.827*5F
$GPGBS,173107.00,6.910,5.319,14.893,31,0.0001,-1.946,0.794*45
$GPGRS,173107.00,1,0.1,1.5,-1.0,-1.9,,,,,,,,*41
$GPGRS,173107.00,1,-0.4,0.2,-0.5,1.9,-0.0,,,,,,,*45
$GPGRS,173107.00,1,-0.2,-0.1,0.6,-1.1,,,,,,,,*65
$GPGRS,173107.00,1,-2.4,-0.0,0.9,-1.6,-1.3,-0.9,-0.8,0.7,,,,*41
$GPGSV,4,1,15,18,77,163,45,05,26,054,28,25,15,141,29,28,19,213,34*77
$GPGSV,4,2,15,23,16,154,,31,32,239,37,16,36,306,46,29,45,075,46*7D
$GPGSV,4,3,15,26,65,280,42,27,10,273,24,20,05,029,,36,35,170,39*76
$GPGSV,4,4,15,34,31,208,34,49,34,195,36,61,03,257,*43
$GLGSV,3,1,10,80,69,286,46,65,14,045,,73,18,327,41,83,25,238,*63
$GLGSV,3,2,10,79,42,172,38,81,54,035,40,82,67,263,48,66,04,091,*64
$GLGSV,3,3,10,72,05,353,,88,04,051,*61
$GAGSV,3,1,11,15,66,068,49,30,14,135,21,34,16,044,28,13,52,203,46*63
$GAGSV,3,2,11,21,56,301,40,27,65,148,49,23,06,311,,26,03,217,*6E
$GAGSV,3,3,11,04,00,319,,06,01,342,,09,00,004,*58
$GBGSV,5,1,20,43,82,279,47,25,26,178,40,21,13,079,,05,21,129,*65
$GBGSV,5,2,20,12,17,062,29,38,30,044,34,60,10,109,,37,30,309,41*6C
$GBGSV,5,3,20,28,19,248,28,08,40,056,36,13,43,067,42,34,45,063,48*6E
$GBGSV,5,4,20,23,57,240,48,11,71,050,50,42,03,125,,02,07,106,*66
$GBGSV,5,5,20,50,10,102,,56,04,083,,58,01,327,,22,08,031,*62
$GPGGA,173107.00,,,,,0,00,,,M,,M,,*4B
$PTNL,GGK,173107.00,010125,4742.4464326,N,01617.9733721,E,1,21,1.4,EHT668.8356,M*44
$GPGGQ,173107.00,010125,4742.4464326,N,01617.9733721,E,1,21,3.244,625.6245,M*3A
$GPGFA,173107.00,12.918,23.182,1.359,0.829,339.096,2.827,,VVV*0D
$GPLLK,173107.00,010125,,M,,M,1,21,1.7,,M*0D
$GNGMP,173107.00,,,,,DAAA,21,0.7,,,,*51
$GPGMP,173107.00,,,,,,04,,,,2.5,123*7D
$GLGMP,173107.00,,,,,,05,,,,,*79
$GAGMP,173107.00,,,,,,04,,,,,*75
$GBGMP,173107.00,,,,,,08,,,,,*7A
$PSSN,SNC,[0,322285000,2347]*48
$GPZDA,173112.00,01,01,2025,,*64
$GPDTM,W84,,00.0000000,N,00.0000000,E,00.0000000,W84*5F
$GPRMC,173112.00,A,4742.4464322,N,01617.9733670,E,0.0,,010125,5.1,E,D*10
$GPGLL,4742.4464322,N,01617.9733670,E,173112.00,A,D*61
$GPGGA,173112.00,4742.4464322,N,01617.9733670,E,2,21,0.7,625.6069,M,43.2111,M,3.5,0123*42
$GNGNS,173112.00,4742.4464322,N,01617.9733670,E,DAAA,21,0.7,625.6069,43.2111,,*58
$GPGNS,173112.00,,,,,,04,,,,3.5,123*78
$GLGNS,173112.00,,,,,,05,,,,,*7D
$GAGNS,173112.00,,,,,,04,,,,,*71
$GBGNS,173112.00,,,,,,08,,,,,*7E
$GPLLQ,173112.00,010125,,M,,M,1,21,2.468,,M*1D
$GPVTG,,T,,M,0.01,N,0.02,K,D*25
$GPHDT,,T*1B
$GPTHS,,V*0E
$GPROT,,V*08
$PSSN,HRP,173112.00,010125,,,,,,,00,0,,*66
$PTNL,AVR,173112.00,,Yaw,,Tilt,,,,0,,00*30
$GPGSA,A,3,16,18,29,31,,,,,,,,,1.4,0.7,1.2*34
$GPGSA,A,3,73,79,80,81,82,,,,,,,,1.4,0.7,1.2*32
$GPGSA,A,3,13,15,21,27,,,,,,,,,1.4,0.7,1.2*33
$GPGSA,A,3,08,11,13,23,25,34,37,43,,,,,1.4,0.7,1.2*3B
$GPGST,173112.00,2.649,1.030,0.630,339.139,0.989,0.694,2.152*5B
$GPGBS,173112.00,6.996,5.357,15.214,18,0.0001,1.136,0.664*66
$GPGRS,173112.00,1,0.1,1.1,-0.6,-0.9,,,,,,,,*47
$GPGRS,173112.00,1,-8.0,0.7,-1.3,2.9,1.3,,,,,,,*63
$GPGRS,173112.00,1,-0.1,0.0,1.0,-1.0,,,,,,,,*48
$GPGRS,173112.00,1,-1.1,0.2,1.0,-1.2,-2.8,-0.8,-1.7,1.2,,,,*63
$GPGSV,4,1,15,18,77,163,45,05,26,054,33,25,15,141,30,28,19,213,34*75
$GPGSV,4,2,15,23,16,154,,31,32,238,40,16,36,306,46,29,45,075,45*7F
$GPGSV,4,3,15,26,65,280,42,27,10,273,27,20,05,029,,36,35,170,39*75
$GPGSV,4,4,15,34,31,208,34,49,34,195,36,61,03,257,*43
$GLGSV,3,1,10,80,69,286,45,65,14,045,,73,18,327,39,83,25,238,*6F
$GLGSV,3,2,10,79,42,172,38,81,54,035,40,82,67,263,49,66,04,091,*65
$GLGSV,3,3,10,72,05,353,,88,04,051,*61
$GAGSV,3,1,11,15,66,068,49,30,14,135,21,34,16,044,28,13,52,203,46*63
$GAGSV,3,2,11,21,56,301,41,27,65,148,49,23,06,311,,26,03,217,*6F
$GAGSV,3,3,11,04,00,319,,06,01,342,,09,00,004,*58
$GBGSV,5,1,20,43,82,279,46,25,26,178,39,21,13,079,,05,21,129,*6A
$GBGSV,5,2,20,12,17,062,28,38,30,044,33,60,10,109,,37,30,309,41*6A
$GBGSV,5,3,20,28,19,248,,08,40,056,37,13,43,067,42,34,45,063,47*6A
$GBGSV,5,4,20,23,57,240,48,11,71,050,50,42,03,125,,02,07,106,*66
$GBGSV,5,5,20,50,10,102,,56,04,083,,58,01,327,,22,08,031,*62
$GPGGA,173112.00,,,,,0,00,,,M,,M,,*4F
$PTNL,GGK,173112.00,010125,4742.4464322,N,01617.9733670,E,1,21,1.4,EHT668.8180,M*48
$GPGGQ,173112.00,010125,4742.4464322,N,01617.9733670,E,1,21,2.468,625.6069,M*3A
$GPGFA,173112.00,9.796,17.646,1.030,0.630,339.139,2.152,,VVV*36
$GPLLK,173112.00,010125,,M,,M,1,21,1.7,,M*09
$GNGMP,173112.00,,,,,DAAA,21,0.7,,,,*55
$GPGMP,173112.00,,,,,,04,,,,3.5,123*78
$GLGMP,173112.00,,,,,,05,,,,,*7D
$GAGMP,173112.00,,,,,,04,,,,,*71
$GBGMP,173112.00,,,,,,08,,,,,*7E
$PSSN,SNC,[0,322290000,2347]*4C
$GPZDA,173117.00,01,01,2025,,*61
$GPDTM,W84,,00.0000000,N,00.0000000,E,00.0000000,W84*5F
$GPRMC,173117.00,A,4742.4464337,N,01617.9733692,E,0.0,,010125,5.1,E,D*1D
$GPGLL,4742.4464337,N,01617.9733692,E,173117.00,A,D*6C
$GPGGA,173117.00,4742.4464337,N,01617.9733692,E,2,21,0.7,625.5907,M,43.2111,M,2.5,0123*4C
$GNGNS,173117.00,4742.4464337,N,01617.9733692,E,DAAA,21,0.7,625.5907,43.2111,,*57
$GPGNS,173117.00,,,,,,04,,,,2.5,123*7C
$GLGNS,173117.00,,,,,,05,,,,,*78
$GAGNS,173117.00,,,,,,04,,,,,*74
$GBGNS,173117.00,,,,,,08,,,,,*7B
$GPLLQ,173117.00,010125,,M,,M,1,21,1.984,,M*14
$GPVTG,,T,,M,0.00,N,0.01,K,D*27
$GPHDT,,T*1B
$GPTHS,,V*0E
$GPROT,,V*08
$PSSN,HRP,173117.00,010125,,,,,,,00,0,,*63
$PTNL,AVR,173117.00,,Yaw,,Tilt,,,,0,,00*35
$GPGSA,A,3,16,18,29,31,,,,,,,,,1.4,0.7,1.2*34
$GPGSA,A,3,73,79,80,81,82,,,,,,,,1.4,0.7,1.2*32
$GPGSA,A,3,13,15,21,27,,,,,,,,,1.4,0.7,1.2*33
$GPGSA,A,3,08,11,13,23,25,34,37,43,,,,,1.4,0.7,1.2*3B
$GPGST,173117.00,2.047,0.828,0.514,339.496,0.796,0.562,1.728*51
$GPGBS,173117.00,6.749,5.461,14.327,29,0.0001,-0.799,0.770*44
$GPGRS,173117.00,1,-0.3,0.6,-0.8,0.4,,,,,,,,*45
$GPGRS,173117.00,1,-1.8,0.6,-3.3,1.6,2.1,,,,,,,*69
$GPGRS,173117.00,1,-0.2,0.1,0.4,-1.3,,,,,,,,*49
$GPGRS,173117.00,1,-1.1,-0.1,1.4,-0.8,-4.2,-1.1,-2.8,2.0,,,,*4E
$GPGSV,4,1,15,18,77,163,44,05,26,054,33,25,15,141,30,28,19,213,34*74
$GPGSV,4,2,15,23,16,154,,31,32,238,42,16,36,306,46,29,45,075,43*7B
$GPGSV,4,3,15,26,65,280,41,27,10,273,26,20,05,029,,36,35,170,39*77
$GPGSV,4,4,15,34,31,208,34,49,34,195,36,61,03,257,*43
$GLGSV,3,1,10,80,69,286,44,65,14,045,,73,18,327,39,83,25,238,*6E
$GLGSV,3,2,10,79,42,172,37,81,54,035,43,82,67,263,47,66,04,091,*67
$GLGSV,3,3,10,72,05,353,24,88,04,051,*67
$GAGSV,3,1,11,15,66,068,49,30,14,135,22,34,16,044,28,13,52,203,46*60
$GAGSV,3,2,11,21,56,301,41,27,65,148,49,23,06,311,,26,03,217,*6F
$GAGSV,3,3,11,04,00,319,,06,01,342,,09,00,004,*58
$GBGSV,5,1,20,43,82,280,46,25,26,178,38,21,13,079,,05,21,129,*6D
$GBGSV,5,2,20,12,17,062,28,38,30,044,32,60,10,109,,37,30,309,41*6B
$GBGSV,5,3,20,28,19,248,,08,40,056,37,13,43,067,43,34,45,063,47*6B
$GBGSV,5,4,20,23,57,240,49,11,71,050,50,42,03,125,,02,07,106,*67
$GBGSV,5,5,20,50,10,102,,56,04,083,,58,01,327,,22,08,031,*62
$GPGGA,173117.00,,,,,0,00,,,M,,M,,*4A
$PTNL,GGK,173117.00,010125,4742.4464337,N,01617.9733692,E,1,21,1.4,EHT668.8018,M*45
$GPGGQ,173117.00,010125,4742.4464337,N,01617.9733692,E,1,21,1.984,625.5907,M*39
$GPGFA,173117.00,7.869,14.168,0.828,0.514,339.496,1.728,,VVV*37
$GPLLK,173117.00,010125,,M,,M,1,21,1.7,,M*0C
$GNGMP,173117.00,,,,,DAAA,21,0.7,,,,*50
$GPGMP,173117.00,,,,,,04,,,,2.5,123*7C
$GLGMP,173117.00,,,,,,05,,,,,*78
$GAGMP,173117.00,,,,,,04,,,,,*74
$GBGMP,173117.00,,,,,,08,,,,,*7B
$PSSN,SNC,[0,322295000,2347]*49
$GPZDA,173122.00,01,01,2025,,*67
$GPDTM,W84,,00.0000000,N,00.0000000,E,00.0000000,W84*5F
$GPRMC,173122.00,A,4742.4464365,N,01617.9733826,E,0.0,,010125,5.1,E,D*1D
$GPGLL,4742.4464365,N,01617.9733826,E,173122.00,A,D*6C
$GPGGA,173122.00,4742.4464365,N,01617.9733826,E,2,21,0.7,625.5764,M,43.2111,M,1.6,0123*47
$GNGNS,173122.00,4742.4464365,N,01617.9733826,E,DAAA,21,0.7,625.5764,43.2111,,*5C
$GPGNS,173122.00,,,,,,05,,,,1.6,123*7B
$GLGNS,173122.00,,,,,,04,,,,,*7F
$GAGNS,173122.00,,,,,,04,,,,,*72
$GBGNS,173122.00,,,,,,08,,,,,*7D
$GPLLQ,173122.00,010125,,M,,M,1,21,2.219,,M*1E
$GPVTG,,T,,M,0.01,N,0.01,K,D*26
$GPHDT,,T*1B
$GPTHS,,V*0E
$GPROT,,V*08
$PSSN,HRP,173122.00,010125,,,,,,,00,0,,*65
$PTNL,AVR,173122.00,,Yaw,,Tilt,,,,0,,00*33
$GPGSA,A,3,16,18,26,29,31,,,,,,,,1.4,0.7,1.2*30
$GPGSA,A,3,73,80,81,82,,,,,,,,,1.4,0.7,1.2*3C
$GPGSA,A,3,13,15,21,27,,,,,,,,,1.4,0.7,1.2*33
$GPGSA,A,3,08,11,13,23,25,34,37,43,,,,,1.4,0.7,1.2*3B
$GPGST,173122.00,2.487,1.040,0.624,349.984,1.030,0.640,1.858*50
$GPGBS,173122.00,5.664,4.358,8.818,26,0.0001,1.257,0.671*5D
$GPGRS,173122.00,1,-0.6,0.4,1.3,-1.3,-0.0,,,,,,,*4B
$GPGRS,173122.00,1,0.1,-4.1,0.9,-1.4,,,,,,,,*42
$GPGRS,173122.00,1,-0.6,-0.7,-0.2,-1.9,,,,,,,,*41
$GPGRS,173122.00,1,-1.3,-1.3,0.8,-0.9,-5.5,-2.1,-4.2,1.3,,,,*4C
$GPGSV,4,1,15,18,77,162,45,05,26,054,34,25,15,141,30,28,19,213,34*73
$GPGSV,4,2,15,23,16,154,,31,32,238,44,16,37,306,45,29,45,075,42*7E
$GPGSV,4,3,15,26,65,280,39,27,10,273,26,20,05,029,23,36,35,170,39*79
$GPGSV,4,4,15,34,31,208,34,49,34,195,36,61,03,257,*43
$GLGSV,3,1,10,80,69,285,43,65,14,045,,73,18,327,39,83,25,238,*6A
$GLGSV,3,2,10,79,42,172,33,81,54,035,45,82,67,263,44,66,04,091,*66
$GLGSV,3,3,10,72,05,353,23,88,04,051,*60
$GAGSV,3,1,11,15,66,068,49,30,14,135,20,34,16,044,28,13,52,203,46*62
$GAGSV,3,2,11,21,56,301,41,27,65,149,50,23,06,311,,26,03,217,*66
$GAGSV,3,3,11,04,00,319,,06,01,342,,09,00,004,*58
$GBGSV,5,1,20,43,82,280,46,25,26,178,37,21,13,079,,05,21,129,*62
$GBGSV,5,2,20,12,17,062,25,38,30,044,31,60,10,109,,37,30,309,42*66
$GBGSV,5,3,20,28,19,248,23,08,40,056,38,13,43,067,43,34,45,063,46*64
$GBGSV,5,4,20,23,57,240,49,11,70,050,50,42,03,125,,02,07,106,*66
$GBGSV,5,5,20,50,10,102,,56,04,083,,58,01,327,,22,08,031,*62
$GPGGA,173122.00,,,,,0,00,,,M,,M,,*4C
$PTNL,GGK,173122.00,010125,4742.4464365,N,01617.9733826,E,1,21,1.4,EHT668.7875,M*49
$GPGGQ,173122.00,010125,4742.4464365,N,01617.9733826,E,1,21,2.219,625.5764,M*3E
$GPGFA,173122.00,9.892,15.233,1.040,0.624,349.984,1.858,,VVV*31
$GPLLK,173122.00,010125,,M,,M,1,21,1.7,,M*0A
$GNGMP,173122.00,,,,,DAAA,21,0.7,,,,*56
$GPGMP,173122.00,,,,,,05,,,,1.6,123*7B
$GLGMP,173122.00,,,,,,04,,,,,*7F
$GAGMP,173122.00,,,,,,04,,,,,*72
$GBGMP,173122.00,,,,,,08,,,,,*7D
$PSSN,SNC,[0,322300000,2347]*44
$GPZDA,173127.00,01,01,2025,,*62
$GPDTM,W84,,00.0000000,N,00.0000000,E,00.0000000,W84*5F
$GPRMC,173127.00,A,4742.4464387,N,01617.9733851,E,0.0,,010125,5.1,E,D*14
$GPGLL,4742.4464387,N,01617.9733851,E,173127.00,A,D*65
$GPGGA,173127.00,4742.4464387,N,01617.9733851,E,2,21,0.7,625.5572,M,43.2111,M,2.6,0123*48
$GNGNS,173127.00,4742.4464387,N,01617.9733851,E,DAAA,21,0.7,625.5572,43.2111,,*50
$GPGNS,173127.00,,,,,,05,,,,2.6,123*7D
$GLGNS,173127.00,,,,,,04,,,,,*7A
$GAGNS,173127.00,,,,,,04,,,,,*77
$GBGNS,173127.00,,,,,,08,,,,,*78
$GPLLQ,173127.00,010125,,M,,M,1,21,1.939,,M*11
$GPVTG,,T,,M,0.00,N,0.01,K,D*27
$GPHDT,,T*1B
$GPTHS,,V*0E
$GPROT,,V*08
$PSSN,HRP,173127.00,010125,,,,,,,00,0,,*60
$PTNL,AVR,173127.00,,Yaw,,Tilt,,,,0,,00*36
$GPGSA,A,3,16,18,26,29,31,,,,,,,,1.4,0.7,1.2*30
$GPGSA,A,3,73,80,81,82,,,,,,,,,1.4,0.7,1.2*3C
$GPGSA,A,3,13,15,21,27,,,,,,,,,1.4,0.7,1.2*33
$GPGSA,A,3,08,11,13,23,25,34,37,43,,,,,1.4,0.7,1.2*3B
$GPGST,173127.00,2.935,0.916,0.531,348.968,0.905,0.550,1.625*56
$GPGBS,173127.00,5.761,4.428,8.907,18,0.0001,1.035,0.647*5D
$GPGRS,173127.00,1,-0.9,1.0,0.3,-0.5,-0.4,,,,,,,*46
$GPGRS,173127.00,1,-1.2,-3.5,0.9,-5.2,,,,,,,,*69
$GPGRS,173127.00,1,-0.4,-0.8,0.3,-1.7,,,,,,,,*6B
$GPGRS,173127.00,1,-0.9,-0.8,1.3,-0.4,-6.5,-2.2,-4.7,1.2,,,,*4B
$GPGSV,4,1,15,18,77,162,45,05,26,054,28,25,15,141,29,28,19,213,34*76
$GPGSV,4,2,15,23,16,154,,31,32,238,45,16,37,306,44,29,45,075,42*7E
$GPGSV,4,3,15,26,65,280,38,27,10,273,29,20,05,029,23,36,35,170,39*77
$GPGSV,4,4,15,34,31,208,34,49,34,195,36,61,03,257,*43
$GLGSV,3,1,10,80,69,285,41,65,14,045,,73,18,327,38,83,26,238,*6A
$GLGSV,3,2,10,79,42,172,33,81,54,035,47,82,67,263,42,66,04,091,*62
$GLGSV,3,3,10,72,05,353,21,88,04,051,*62
$GAGSV,3,1,11,15,66,068,49,30,14,135,24,34,16,044,28,13,52,203,46*66
$GAGSV,3,2,11,21,56,301,41,27,65,149,50,23,06,311,,26,03,217,*66
$GAGSV,3,3,11,04,00,319,,06,01,342,,09,00,004,*58
$GBGSV,5,1,20,43,82,280,45,25,26,178,36,21,13,079,,05,21,129,*60
$GBGSV,5,2,20,12,17,062,31,38,30,044,31,60,10,109,,37,30,309,42*63
$GBGSV,5,3,20,28,19,248,24,08,40,056,38,13,43,067,43,34,45,063,46*63
$GBGSV,5,4,20,23,57,240,50,11,70,050,50,42,03,125,,02,07,106,*6E
$GBGSV,5,5,20,50,10,102,,56,04,083,,58,01,327,,22,08,031,*62
$GPGGA,173127.00,,,,,0,00,,,M,,M,,*49
$PTNL,GGK,173127.00,010125,4742.4464387,N,01617.9733851,E,1,21,1.4,EHT668.7683,M*47
$GPGGQ,173127.00,010125,4742.4464387,N,01617.9733851,E,1,21,1.939,625.5572,M*38
$GPGFA,173127.00,8.707,13.324,0.916,0.531,348.968,1.625,,VVV*3C
$GPLLK,173127.00,010125,,M,,M,1,21,1.7,,M*0F
$GNGMP,173127.00,,,,,DAAA,21,0.7,,,,*53
$GPGMP,173127.00,,,,,,05,,,,2.6,123*7D
$GLGMP,173127.00,,,,,,04,,,,,*7A
$GAGMP,173127.00,,,,,,04,,,,,*77
$GBGMP,173127.00,,,,,,08,,,,,*78
