$GPZDA,064442.00,01,01,2025,,*63
$GPDTM,W84,,00.0000000,N,00.0000000,E,00.0000000,W84*5F
$GPRMC,064442.00,A,4742.4467195,N,01617.9730683,E,0.0,,010125,5.1,E,D*15
$GPGLL,4742.4467195,N,01617.9730683,E,064442.00,A,D*64
$GPGGA,064442.00,4742.4467195,N,01617.9730683,E,2,15,1.0,625.2776,M,43.2111,M,2.8,0123*47
$GNGNS,064442.00,4742.4467195,N,01617.9730683,E,DAAA,15,1.0,625.2776,43.2111,,*51
$GPGNS,064442.00,,,,,,04,,,,2.8,123*73
$GLGNS,064442.00,,,,,,04,,,,,*7B
$GAGNS,064442.00,,,,,,02,,,,,*70
$GBGNS,064442.00,,,,,,05,,,,,*74
$GPLLQ,064442.00,010125,,M,,M,1,15,3.414,,M*17
$GPVTG,,T,,M,0.01,N,0.02,K,D*25
$GPHDT,,T*1B
$GPTHS,,V*0E
$GPROT,,V*08
$PSSN,HRP,064442.00,010125,,,,,,,00,0,,*61
$PTNL,AVR,064442.00,,Yaw,,Tilt,,,,0,,00*37
$GPGSA,A,3,07,14,20,30,,,,,,,,,1.8,1.0,1.5*3D
$GPGSA,A,3,65,71,72,75,,,,,,,,,1.8,1.0,1.5*3C
$GPGSA,A,3,03,05,,,,,,,,,,,1.8,1.0,1.5*38
$GPGSA,A,3,05,21,22,36,45,,,,,,,,1.8,1.0,1.5*3C
$GPGST,064442.00,3.877,1.635,0.655,324.083,1.379,1.096,2.925*5B
$GPGBS,064442.00,8.116,8.121,23.322,71,0.0001,-5.941,6.184*41
$GPGRS,064442.00,1,0.0,-0.1,-0.4,0.4,,,,,,,,*4F
$GPGRS,064442.00,1,-5.8,-5.9,3.6,-4.4,,,,,,,,*67
$GPGRS,064442.00,1,-4.2,-0.6,,,,,,,,,,*4E
$GPGRS,064442.00,1,-0.3,-0.2,0.6,0.3,-0.6,,,,,,,*4F
$GPGSV,4,1,15,30,85,202,48,09,21,102,25,14,27,164,40,11,14,230,*77
$GPGSV,4,2,15,13,29,285,36,05,46,300,24,07,55,060,46,20,59,242,53*75
$GPGSV,4,3,15,18,03,341,,27,04,041,,08,04,072,,36,35,170,39*74
$GPGSV,4,4,15,34,31,208,,49,34,195,35,61,03,257,*47
$GLGSV,3,1,09,72,74,068,42,81,14,333,33,88,11,282,33,73,31,038,35*6C
$GLGSV,3,2,09,71,27,116,39,75,38,187,43,65,35,315,47,74,71,087,32*68
$GLGSV,3,3,09,82,01,015,*53
$GAGSV,3,1,11,03,62,297,34,31,16,037,30,13,19,318,37,08,12,284,34*62
$GAGSV,3,2,11,25,31,154,31,15,27,263,32,24,44,088,30,16,43,127,*68
$GAGSV,3,3,11,05,59,085,40,09,08,098,,34,09,214,23*50
$GBGSV,5,1,18,22,70,135,46,46,17,045,,40,12,072,,19,17,129,30*64
$GBGSV,5,2,18,09,19,058,23,05,21,129,35,10,14,093,,45,50,190,49*6D
$GBGSV,5,3,18,50,28,305,,21,53,304,43,36,63,081,47,06,04,059,*6C
$GBGSV,5,4,18,42,04,308,25,26,01,214,,16,02,059,,02,05,108,*68
$GBGSV,5,5,18,58,02,038,,60,07,112,*65
$GPGGA,064442.00,,,,,0,00,,,M,,M,,*48
$PTNL,GGK,064442.00,010125,4742.4467195,N,01617.9730683,E,1,15,1.8,EHT668.4886,M*45
$GPGGQ,064442.00,010125,4742.4467195,N,01617.9730683,E,1,15,3.414,625.2776,M*3F
$GPGFA,064442.00,15.542,23.982,1.635,0.655,324.083,2.925,,VVV*03
$GPLLK,064442.00,010125,,M,,M,1,15,2.2,,M*0F
$GNGMP,064442.00,,,,,DAAA,15,1.0,,,,*53
$GPGMP,064442.00,,,,,,04,,,,2.8,123*73
$GLGMP,064442.00,,,,,,04,,,,,*7B
$GAGMP,064442.00,,,,,,02,,,,,*70
$GBGMP,064442.00,,,,,,05,,,,,*74
$PSSN,SNC,[0,283500000,2347]*48
$GPZDA,064447.00,01,01,2025,,*66
$GPDTM,W84,,00.0000000,N,00.0000000,E,00.0000000,W84*5F
$GPRMC,064447.00,A,4742.4467227,N,01617.9730695,E,0.0,,010125,5.1,E,D*1D
$GPGLL,4742.4467227,N,01617.9730695,E,064447.00,A,D*6C
$GPGGA,064447.00,4742.4467227,N,01617.9730695,E,2,15,0.9,625.2675,M,43.2111,M,2.8,0123*45
$GNGNS,064447.00,4742.4467227,N,01617.9730695,E,DAAA,15,0.9,625.2675,43.2111,,*53
$GPGNS,064447.00,,,,,,04,,,,2.8,123*76
$GLGNS,064447.00,,,,,,05,,,,,*7F
$GAGNS,064447.00,,,,,,01,,,,,*76
$GBGNS,064447.00,,,,,,05,,,,,*71
$GPLLQ,064447.00,010125,,M,,M,1,15,3.402,,M*15
$GPVTG,,T,,M,0.01,N,0.01,K,D*26
$GPHDT,,T*1B
$GPTHS,,V*0E
$GPROT,,V*08
$PSSN,HRP,064447.00,010125,,,,,,,00,0,,*64
$PTNL,AVR,064447.00,,Yaw,,Tilt,,,,0,,00*32
$GPGSA,A,3,07,14,20,30,,,,,,,,,1.6,0.9,1.4*3A
$GPGSA,A,3,65,71,72,73,75,,,,,,,,1.6,0.9,1.4*3F
$GPGSA,A,3,05,,,,,,,,,,,,1.6,0.9,1.4*3C
$GPGSA,A,3,05,21,22,36,45,,,,,,,,1.6,0.9,1.4*3B
$GPGST,064447.00,3.330,1.629,0.669,324.241,1.378,1.096,2.911*5E
$GPGBS,064447.00,7.437,8.520,21.741,30,0.0001,0.626,0.586*68
$GPGRS,064447.00,1,-0.4,-0.5,0.0,0.6,,,,,,,,*4C
$GPGRS,064447.00,1,-5.1,-4.8,3.8,-0.3,-4.7,,,,,,,*66
$GPGRS,064447.00,1,0.0,,,,,,,,,,,*65
$GPGRS,064447.00,1,-0.3,-0.2,1.5,0.5,-0.2,,,,,,,*4A
$GPGSV,4,1,15,30,85,202,47,09,21,102,24,14,27,164,40,11,14,230,*79
$GPGSV,4,2,15,13,30,285,37,05,46,300,23,07,55,060,46,20,59,242,53*7B
$GPGSV,4,3,15,18,03,341,,27,04,041,,08,04,072,,36,35,170,39*74
$GPGSV,4,4,15,34,31,208,,49,34,195,35,61,03,257,*47
$GLGSV,3,1,09,72,74,068,42,81,14,333,32,88,11,282,32,73,31,038,38*61
$GLGSV,3,2,09,71,27,116,42,75,38,187,39,65,35,315,47,74,70,087,32*68
$GLGSV,3,3,09,82,01,015,*53
$GAGSV,3,1,11,03,62,297,33,31,16,037,30,13,19,318,38,08,12,284,34*6A
$GAGSV,3,2,11,15,27,263,32,25,31,154,32,24,44,088,28,16,43,127,*62
$GAGSV,3,3,11,05,59,085,40,09,08,098,,34,09,214,24*57
$GBGSV,5,1,18,22,70,136,46,46,16,045,,40,12,072,,19,17,129,30*66
$GBGSV,5,2,18,09,19,058,22,05,21,129,35,10,14,093,,45,50,190,50*64
$GBGSV,5,3,18,50,28,305,,21,53,304,42,36,63,081,47,06,04,059,*6D
$GBGSV,5,4,18,42,04,308,25,26,01,214,,16,02,059,,02,05,108,*68
$GBGSV,5,5,18,58,02,038,,60,07,112,*65
$GPGGA,064447.00,,,,,0,00,,,M,,M,,*4D
$PTNL,GGK,064447.00,010125,4742.4467227,N,01617.9730695,E,1,15,1.6,EHT668.4786,M*4C
$GPGGQ,064447.00,010125,4742.4467227,N,01617.9730695,E,1,15,3.402,625.2675,M*32
$GPGFA,064447.00,15.486,23.866,1.629,0.669,324.241,2.911,,VVV*0D
$GPLLK,064447.00,010125,,M,,M,1,15,2.0,,M*08
$GNGMP,064447.00,,,,,DAAA,15,0.9,,,,*5E
$GPGMP,064447.00,,,,,,04,,,,2.8,123*76
$GLGMP,064447.00,,,,,,05,,,,,*7F
$GAGMP,064447.00,,,,,,01,,,,,*76
$GBGMP,064447.00,,,,,,05,,,,,*71
$PSSN,SNC,[0,283505000,2347]*4D
$GPZDA,064452.00,01,01,2025,,*62
$GPDTM,W84,,00.0000000,N,00.0000000,E,00.0000000,W84*5F
$GPRMC,064452.00,A,4742.4467264,N,01617.9730762,E,0.0,,010125,5.1,E,D*17
$GPGLL,4742.4467264,N,01617.9730762,E,064452.00,A,D*66
$GPGGA,064452.00,4742.4467264,N,01617.9730762,E,2,15,0.8,625.2679,M,43.2111,M,1.8,0123*41
$GNGNS,064452.00,4742.4467264,N,01617.9730762,E,DAAA,15,0.8,625.2679,43.2111,,*54
$GPGNS,064452.00,,,,,,04,,,,1.8,123*71
$GLGNS,064452.00,,,,,,05,,,,,*7B
$GAGNS,064452.00,,,,,,02,,,,,*71
$GBGNS,064452.00,,,,,,04,,,,,*74
$GPLLQ,064452.00,010125,,M,,M,1,15,3.364,,M*16
$GPVTG,,T,,M,0.01,N,0.02,K,D*25
$GPHDT,,T*1B
$GPTHS,,V*0E
$GPROT,,V*08
$PSSN,HRP,064452.00,010125,,,,,,,00,0,,*60
$PTNL,AVR,064452.00,,Yaw,,Tilt,,,,0,,00*36
$GPGSA,A,3,07,14,20,30,,,,,,,,,1.4,0.8,1.2*3F
$GPGSA,A,3,65,71,72,73,88,,,,,,,,1.4,0.8,1.2*38
$GPGSA,A,3,05,24,,,,,,,,,,,1.4,0.8,1.2*3F
$GPGSA,A,3,21,22,36,45,,,,,,,,,1.4,0.8,1.2*3B
$GPGST,064452.00,4.420,1.618,0.716,324.853,1.386,1.101,2.860*50
$GPGBS,064452.00,7.002,7.603,19.623,88,0.0001,-7.745,6.354*4F
$GPGRS,064452.00,1,-0.6,0.3,0.0,0.5,,,,,,,,*62
$GPGRS,064452.00,1,-5.1,-2.7,3.2,5.3,-7.7,,,,,,,*4A
$GPGRS,064452.00,1,-1.0,4.5,,,,,,,,,,*62
$GPGRS,064452.00,1,0.7,1.4,0.5,-0.3,,,,,,,,*66
$GPGSV,4,1,15,30,85,202,48,09,21,102,24,14,27,164,41,11,14,230,24*71
$GPGSV,4,2,15,13,30,285,35,05,46,300,25,07,55,060,46,20,59,242,52*7E
$GPGSV,4,3,15,18,03,341,,27,04,041,,08,04,072,,36,35,170,39*74
$GPGSV,4,4,15,34,31,208,,49,34,195,34,61,03,257,*46
$GLGSV,3,1,09,72,74,068,43,81,14,333,41,88,10,282,36,73,31,038,41*6F
$GLGSV,3,2,09,71,27,116,43,75,38,187,34,65,35,315,47,74,70,087,35*63
$GLGSV,3,3,09,82,01,015,*53
$GAGSV,3,1,11,03,62,297,34,31,16,037,31,13,19,318,33,08,12,284,34*67
$GAGSV,3,2,11,15,27,263,34,25,31,154,33,24,44,088,23,16,43,127,*6E
$GAGSV,3,3,11,05,59,085,39,09,08,098,,34,09,214,24*59
$GBGSV,5,1,18,22,70,136,46,46,16,045,,40,12,072,,19,17,129,31*67
$GBGSV,5,2,18,09,19,058,22,05,21,129,35,10,14,093,,45,50,190,50*64
$GBGSV,5,3,18,50,28,305,,21,53,304,43,36,63,081,47,06,04,059,*6C
$GBGSV,5,4,18,42,04,308,26,26,01,214,,16,02,059,,02,05,108,*6B
$GBGSV,5,5,18,58,02,038,,60,07,112,*65
$GPGGA,064452.00,,,,,0,00,,,M,,M,,*49
$PTNL,GGK,064452.00,010125,4742.4467264,N,01617.9730762,E,1,15,1.4,EHT668.4789,M*4B
$GPGGQ,064452.00,010125,4742.4467264,N,01617.9730762,E,1,15,3.364,625.2679,M*33
$GPGFA,064452.00,15.388,23.455,1.618,0.716,324.853,2.860,,VVV*09
$GPLLK,064452.00,010125,,M,,M,1,15,1.7,,M*08
$GNGMP,064452.00,,,,,DAAA,15,0.8,,,,*5B
$GPGMP,064452.00,,,,,,04,,,,1.8,123*71
$GLGMP,064452.00,,,,,,05,,,,,*7B
$GAGMP,064452.00,,,,,,02,,,,,*71
$GBGMP,064452.00,,,,,,04,,,,,*74
$PSSN,SNC,[0,283510000,2347]*49
$GPZDA,064457.00,01,01,2025,,*67
$GPDTM,W84,,00.0000000,N,00.0000000,E,00.0000000,W84*5F
$GPRMC,064457.00,A,4742.4467286,N,01617.9730739,E,0.0,,010125,5.1,E,D*10
$GPGLL,4742.4467286,N,01617.9730739,E,064457.00,A,D*61
$GPGGA,064457.00,4742.4467286,N,01617.9730739,E,2,18,0.8,625.2690,M,43.2111,M,2.8,0123*4F
$GNGNS,064457.00,4742.4467286,N,01617.9730739,E,DAAA,18,0.8,625.2690,43.2111,,*59
$GPGNS,064457.00,,,,,,04,,,,2.8,123*77
$GLGNS,064457.00,,,,,,06,,,,,*7D
$GAGNS,064457.00,,,,,,03,,,,,*75
$GBGNS,064457.00,,,,,,05,,,,,*70
$GPLLQ,064457.00,010125,,M,,M,1,18,3.709,,M*11
$GPVTG,,T,,M,0.00,N,0.01,K,D*27
$GPHDT,,T*1B
$GPTHS,,V*0E
$GPROT,,V*08
$PSSN,HRP,064457.00,010125,,,,,,,00,0,,*65
$PTNL,AVR,064457.00,,Yaw,,Tilt,,,,0,,00*33
$GPGSA,A,3,07,14,20,30,,,,,,,,,1.3,0.8,1.0*3A
$GPGSA,A,3,65,71,72,73,74,88,,,,,,,1.3,0.8,1.0*3E
$GPGSA,A,3,05,15,24,,,,,,,,,,1.3,0.8,1.0*3E
$GPGSA,A,3,05,21,22,36,45,,,,,,,,1.3,0.8,1.0*3B
$GPGST,064457.00,4.977,1.786,0.812,325.011,1.535,1.221,3.148*55
$GPGBS,064457.00,6.844,6.678,16.977,15,0.0001,9.217,6.142*6D
$GPGRS,064457.00,1,-0.3,0.4,-0.5,0.6,,,,,,,,*4E
$GPGRS,064457.00,1,-6.3,-2.0,1.8,7.5,7.0,-2.7,,,,,,*69
$GPGRS,064457.00,1,-1.5,9.2,4.7,,,,,,,,,*45
$GPGRS,064457.00,1,-0.5,1.0,1.0,-0.5,-1.0,,,,,,,*48
$GPGSV,4,1,15,30,85,202,48,09,21,102,24,14,27,164,41,11,14,230,28*7D
$GPGSV,4,2,15,13,30,285,33,05,46,300,31,07,55,060,46,20,59,242,52*7D
$GPGSV,4,3,15,18,03,341,,27,04,041,,08,04,072,,36,35,170,39*74
$GPGSV,4,4,15,34,31,208,,49,34,195,34,61,03,257,*46
$GLGSV,3,1,09,72,74,068,43,81,14,333,41,88,10,282,37,73,31,038,43*6C
$GLGSV,3,2,09,71,27,116,44,75,38,187,31,65,35,315,48,74,70,087,35*6E
$GLGSV,3,3,09,82,01,015,*53
$GAGSV,3,1,11,03,62,297,35,31,16,037,31,13,19,318,35,08,12,284,34*60
$GAGSV,3,2,11,15,27,263,35,25,31,154,32,24,44,088,35,16,43,126,*68
$GAGSV,3,3,11,05,59,086,38,09,08,098,,34,09,214,23*5C
$GBGSV,5,1,18,22,70,136,47,46,16,045,,40,12,072,,19,17,129,31*66
$GBGSV,5,2,18,09,19,058,29,05,21,129,35,10,14,093,,45,50,190,50*6F
$GBGSV,5,3,18,50,28,305,,21,53,304,44,36,63,081,46,06,04,059,*6A
$GBGSV,5,4,18,42,04,308,26,26,01,214,,16,02,059,,02,05,108,*6B
$GBGSV,5,5,18,58,02,038,,60,07,112,*65
$GPGGA,064457.00,,,,,0,00,,,M,,M,,*4C
$PTNL,GGK,064457.00,010125,4742.4467286,N,01617.9730739,E,1,18,1.3,EHT668.4801,M*49
$GPGGQ,064457.00,010125,4742.4467286,N,01617.9730739,E,1,18,3.709,625.2690,M*31
$GPGFA,064457.00,16.979,25.813,1.786,0.812,325.011,3.148,,VVV*03
$GPLLK,064457.00,010125,,M,,M,1,18,1.5,,M*02
$GNGMP,064457.00,,,,,DAAA,18,0.8,,,,*53
$GPGMP,064457.00,,,,,,04,,,,2.8,123*77
$GLGMP,064457.00,,,,,,06,,,,,*7D
$GAGMP,064457.00,,,,,,03,,,,,*75
$GBGMP,064457.00,,,,,,05,,,,,*70
$PSSN,SNC,[0,283515000,2347]*4C
$GPZDA,064502.00,01,01,2025,,*66
$GPDTM,W84,,00.0000000,N,00.0000000,E,00.0000000,W84*5F
$GPRMC,064502.00,A,4742.4467313,N,01617.9730707,E,0.0,,010125,5.1,E,D*11
$GPGLL,4742.4467313,N,01617.9730707,E,064502.00,A,D*60
$GPGGA,064502.00,4742.4467313,N,01617.9730707,E,2,19,0.7,625.2588,M,43.2111,M,2.8,0123*4A
$GNGNS,064502.00,4742.4467313,N,01617.9730707,E,DAAA,19,0.7,625.2588,43.2111,,*5C
$GPGNS,064502.00,,,,,,04,,,,2.8,123*76
$GLGNS,064502.00,,,,,,07,,,,,*7D
$GAGNS,064502.00,,,,,,04,,,,,*73
$GBGNS,064502.00,,,,,,04,,,,,*70
$GPLLQ,064502.00,010125,,M,,M,1,19,3.975,,M*14
$GPVTG,,T,,M,0.01,N,0.02,K,D*25
$GPHDT,,T*1B
$GPTHS,,V*0E
$GPROT,,V*08
$PSSN,HRP,064502.00,010125,,,,,,,00,0,,*64
$PTNL,AVR,064502.00,,Yaw,,Tilt,,,,0,,00*32
$GPGSA,A,3,07,14,20,30,,,,,,,,,1.3,0.7,1.1*34
$GPGSA,A,3,65,71,72,73,74,75,88,,,,,,1.3,0.7,1.1*32
$GPGSA,A,3,03,05,13,15,,,,,,,,,1.3,0.7,1.1*37
$GPGSA,A,3,21,22,36,45,,,,,,,,,1.3,0.7,1.1*30
$GPGST,064502.00,4.656,1.886,0.932,324.984,1.634,1.324,3.372*5D
$GPGBS,064502.00,6.110,6.278,15.425,30,0.0001,0.999,0.641*68
$GPGRS,064502.00,1,-0.7,0.5,-0.8,1.0,,,,,,,,*40
$GPGRS,064502.00,1,-6.0,-3.3,2.2,5.8,5.7,-8.9,0.9,,,,,*49
$GPGRS,064502.00,1,-1.4,-1.5,1.8,6.9,,,,,,,,*4C
$GPGRS,064502.00,1,1.0,0.4,-1.5,-1.4,,,,,,,,*4F
$GPGSV,4,1,15,30,85,201,48,09,21,102,23,14,27,164,41,11,14,230,31*71
$GPGSV,4,2,15,13,30,285,33,05,46,300,30,07,55,060,46,20,59,242,52*7C
$GPGSV,4,3,15,18,03,341,,27,04,041,,08,05,072,,36,35,170,39*75
$GPGSV,4,4,15,34,31,208,,49,34,195,34,61,03,257,*46
$GLGSV,3,1,09,72,74,068,45,81,14,333,21,88,10,282,37,73,31,038,44*6B
$GLGSV,3,2,09,71,27,116,44,75,39,187,41,65,36,315,49,74,70,087,36*69
$GLGSV,3,3,09,82,01,015,*53
$GAGSV,3,1,11,03,62,298,36,31,16,037,31,13,19,318,37,08,12,284,33*69
$GAGSV,3,2,11,15,27,263,36,25,31,154,30,24,44,088,30,16,43,126,*6C
$GAGSV,3,3,11,05,59,086,37,09,08,098,,34,09,214,23*53
$GBGSV,5,1,18,22,70,136,47,46,16,045,,40,12,072,,19,17,129,31*66
$GBGSV,5,2,18,09,19,058,30,05,21,129,35,10,14,093,,45,50,190,50*67
$GBGSV,5,3,18,50,28,305,,21,53,304,44,36,63,081,45,06,04,059,*69
$GBGSV,5,4,18,42,04,308,28,26,01,214,,16,02,059,,02,05,108,*65
$GBGSV,5,5,18,58,02,038,,60,07,112,*65
$GPGGA,064502.00,,,,,0,00,,,M,,M,,*4D
$PTNL,GGK,064502.00,010125,4742.4467313,N,01617.9730707,E,1,19,1.3,EHT668.4698,M*47
$GPGGQ,064502.00,010125,4742.4467313,N,01617.9730707,E,1,19,3.975,625.2588,M*3E
$GPGFA,064502.00,17.928,27.653,1.886,0.932,324.984,3.372,,VVV*0C
$GPLLK,064502.00,010125,,M,,M,1,19,1.5,,M*02
$GNGMP,064502.00,,,,,DAAA,19,0.7,,,,*5C
$GPGMP,064502.00,,,,,,04,,,,2.8,123*76
$GLGMP,064502.00,,,,,,07,,,,,*7D
$GAGMP,064502.00,,,,,,04,,,,,*73
$GBGMP,064502.00,,,,,,04,,,,,*70
$PSSN,SNC,[0,283520000,2347]*4A
$GPZDA,064507.00,01,01,2025,,*63
$GPDTM,W84,,00.0000000,N,00.0000000,E,00.0000000,W84*5F
$GPRMC,064507.00,A,4742.4467326,N,01617.9730723,E,0.0,,010125,5.1,E,D*14
$GPGLL,4742.4467326,N,01617.9730723,E,064507.00,A,D*65
$GPGGA,064507.00,4742.4467326,N,01617.9730723,E,2,16,0.8,625.2626,M,43.2111,M,2.8,0123*48
$GNGNS,064507.00,4742.4467326,N,01617.9730723,E,DAAA,16,0.8,625.2626,43.2111,,*5E
$GPGNS,064507.00,,,,,,04,,,,2.8,123*73
$GLGNS,064507.00,,,,,,04,,,,,*7B
$GAGNS,064507.00,,,,,,04,,,,,*76
$GBGNS,064507.00,,,,,,04,,,,,*75
$GPLLQ,064507.00,010125,,M,,M,1,16,3.310,,M*17
$GPVTG,,T,,M,0.00,N,0.01,K,D*27
$GPHDT,,T*1B
$GPTHS,,V*0E
$GPROT,,V*08
$PSSN,HRP,064507.00,010125,,,,,,,00,0,,*61
$PTNL,AVR,064507.00,,Yaw,,Tilt,,,,0,,00*37
$GPGSA,A,3,07,14,20,30,,,,,,,,,1.4,0.8,1.2*3F
$GPGSA,A,3,65,71,72,73,,,,,,,,,1.4,0.8,1.2*38
$GPGSA,A,3,03,05,13,15,,,,,,,,,1.4,0.8,1.2*3C
$GPGSA,A,3,21,22,36,45,,,,,,,,,1.4,0.8,1.2*3B
$GPGST,064507.00,3.876,1.576,0.736,326.196,1.372,1.069,2.816*57
$GPGBS,064507.00,6.899,7.318,18.019,15,0.0001,7.189,6.142*6E
$GPGRS,064507.00,1,-0.4,0.4,-0.6,0.5,,,,,,,,*4D
$GPGRS,064507.00,1,-5.3,-4.1,4.0,2.9,,,,,,,,*42
$GPGRS,064507.00,1,-1.8,-1.1,2.4,7.2,,,,,,,,*44
$GPGRS,064507.00,1,0.4,-0.2,-1.7,-1.1,,,,,,,,*63
$GPGSV,4,1,15,30,85,201,48,09,21,102,22,14,27,164,41,11,14,230,33*72
$GPGSV,4,2,15,13,30,285,32,05,46,300,19,07,55,060,46,20,59,242,52*76
$GPGSV,4,3,15,18,03,341,,27,04,041,,08,05,072,,36,35,170,39*75
$GPGSV,4,4,15,34,31,208,,49,34,195,35,61,03,257,*47
$GLGSV,3,1,09,72,74,069,44,81,14,333,24,88,10,282,34,73,31,038,43*6A
$GLGSV,3,2,09,71,27,116,43,75,39,187,29,65,36,315,49,74,70,087,34*62
$GLGSV,3,3,09,82,01,015,*53
$GAGSV,3,1,11,03,62,298,37,31,16,037,31,13,19,318,38,08,12,284,33*67
$GAGSV,3,2,11,15,27,263,37,25,31,154,29,24,44,088,31,16,43,126,*64
$GAGSV,3,3,11,05,59,086,35,09,08,098,,34,09,214,20*52
$GBGSV,5,1,18,22,70,136,46,46,16,045,,40,12,072,,19,16,129,31*66
$GBGSV,5,2,18,09,19,058,23,05,21,129,35,10,14,093,,45,50,190,50*65
$GBGSV,5,3,18,50,28,305,,21,53,304,45,36,63,081,45,06,04,059,*68
$GBGSV,5,4,18,42,04,308,29,26,01,214,,16,02,059,,02,05,108,*64
$GBGSV,5,5,18,58,02,038,,60,07,112,*65
$GPGGA,064507.00,,,,,0,00,,,M,,M,,*48
$PTNL,GGK,064507.00,010125,4742.4467326,N,01617.9730723,E,1,16,1.4,EHT668.4736,M*4F
$GPGGQ,064507.00,010125,4742.4467326,N,01617.9730723,E,1,16,3.310,625.2626,M*3A
$GPGFA,064507.00,14.988,23.091,1.576,0.736,326.196,2.816,,VVV*05
$GPLLK,064507.00,010125,,M,,M,1,16,1.7,,M*0A
$GNGMP,064507.00,,,,,DAAA,16,0.8,,,,*59
$GPGMP,064507.00,,,,,,04,,,,2.8,123*73
$GLGMP,064507.00,,,,,,04,,,,,*7B
$GAGMP,064507.00,,,,,,04,,,,,*76
$GBGMP,064507.00,,,,,,04,,,,,*75
$PSSN,SNC,[0,283525000,2347]*4F
$GPZDA,064512.00,01,01,2025,,*67
$GPDTM,W84,,00.0000000,N,00.0000000,E,00.0000000,W84*5F
$GPRMC,064512.00,A,4742.4467346,N,01617.9730699,E,0.0,,010125,5.1,E,D*16
$GPGLL,4742.4467346,N,01617.9730699,E,064512.00,A,D*67
$GPGGA,064512.00,4742.4467346,N,01617.9730699,E,2,16,0.8,625.2580,M,43.2111,M,1.8,0123*46
$GNGNS,064512.00,4742.4467346,N,01617.9730699,E,DAAA,16,0.8,625.2580,43.2111,,*53
$GPGNS,064512.00,,,,,,04,,,,1.8,123*74
$GLGNS,064512.00,,,,,,05,,,,,*7E
$GAGNS,064512.00,,,,,,03,,,,,*75
$GBGNS,064512.00,,,,,,04,,,,,*71
$GPLLQ,064512.00,010125,,M,,M,1,16,3.983,,M*13
$GPVTG,,T,,M,0.01,N,0.01,K,D*26
$GPHDT,,T*1B
$GPTHS,,V*0E
$GPROT,,V*08
$PSSN,HRP,064512.00,010125,,,,,,,00,0,,*65
$PTNL,AVR,064512.00,,Yaw,,Tilt,,,,0,,00*33
$GPGSA,A,3,07,14,20,30,,,,,,,,,1.3,0.8,1.1*3B
$GPGSA,A,3,65,71,72,73,81,,,,,,,,1.3,0.8,1.1*35
$GPGSA,A,3,03,13,15,,,,,,,,,,1.3,0.8,1.1*3D
$GPGSA,A,3,21,22,36,45,,,,,,,,,1.3,0.8,1.1*3F
$GPGST,064512.00,4.880,1.904,0.889,322.954,1.611,1.349,3.384*5D
$GPGBS,064512.00,6.720,7.468,17.483,15,0.0001,8.403,6.141*64
$GPGRS,064512.00,1,-0.4,0.4,-0.6,0.7,,,,,,,,*4B
$GPGRS,064512.00,1,-6.2,-4.5,3.4,1.9,-7.8,,,,,,,*4C
$GPGRS,064512.00,1,-0.9,-0.2,8.4,,,,,,,,,*63
$GPGRS,064512.00,1,-0.0,-1.8,-1.7,-0.8,,,,,,,,*4D
$GPGSV,4,1,15,30,85,201,48,09,21,102,24,14,27,164,40,11,14,230,34*72
$GPGSV,4,2,15,13,30,285,35,05,46,300,,07,55,060,46,20,59,242,51*7A
$GPGSV,4,3,15,18,03,341,,27,04,041,,08,05,072,,36,35,170,40*7B
$GPGSV,4,4,15,34,31,208,,49,34,195,34,61,03,257,*46
$GLGSV,3,1,09,72,74,069,45,81,14,333,41,88,10,282,31,73,31,038,42*6C
$GLGSV,3,2,09,71,27,116,42,75,39,187,41,65,36,315,48,74,70,086,34*6D
$GLGSV,3,3,09,82,01,015,*53
$GAGSV,3,1,11,03,62,298,37,31,16,037,33,13,19,318,38,08,12,284,34*62
$GAGSV,3,2,11,15,27,263,37,25,31,154,28,24,44,088,29,16,43,126,*6C
$GAGSV,3,3,11,05,59,086,33,09,08,098,,34,09,214,22*56
$GBGSV,5,1,18,22,70,136,45,46,16,045,,40,12,072,,19,16,129,30*64
$GBGSV,5,2,18,09,19,058,25,05,21,129,35,10,14,093,,45,50,190,50*63
$GBGSV,5,3,18,50,28,305,,21,53,304,46,36,63,081,44,06,04,059,*6A
$GBGSV,5,4,18,42,04,308,31,26,01,214,,16,02,059,,02,05,108,*6D
$GBGSV,5,5,18,58,02,038,,60,07,112,*65
$GPGGA,064512.00,,,,,0,00,,,M,,M,,*4C
$PTNL,GGK,064512.00,010125,4742.4467346,N,01617.9730699,E,1,16,1.3,EHT668.4691,M*46
$GPGGQ,064512.00,010125,4742.4467346,N,01617.9730699,E,1,16,3.983,625.2580,M*37
$GPGFA,064512.00,18.104,27.745,1.904,0.889,322.954,3.384,,VVV*0A
$GPLLK,064512.00,010125,,M,,M,1,16,1.6,,M*0F
$GNGMP,064512.00,,,,,DAAA,16,0.8,,,,*5D
$GPGMP,064512.00,,,,,,04,,,,1.8,123*74
$GLGMP,064512.00,,,,,,05,,,,,*7E
$GAGMP,064512.00,,,,,,03,,,,,*75
$GBGMP,064512.00,,,,,,04,,,,,*71
$PSSN,SNC,[0,283530000,2347]*4B
$GPZDA,064517.00,01,01,2025,,*62
$GPDTM,W84,,00.0000000,N,00.0000000,E,00.0000000,W84*5F
$GPRMC,064517.00,A,4742.4467318,N,01617.9730781,E,0.0,,010125,5.1,E,D*10
$GPGLL,4742.4467318,N,01617.9730781,E,064517.00,A,D*61
$GPGGA,064517.00,4742.4467318,N,01617.9730781,E,2,16,0.8,625.2688,M,43.2111,M,2.8,0123*48
$GNGNS,064517.00,4742.4467318,N,01617.9730781,E,DAAA,16,0.8,625.2688,43.2111,,*5E
$GPGNS,064517.00,,,,,,04,,,,2.8,123*72
$GLGNS,064517.00,,,,,,06,,,,,*78
$GAGNS,064517.00,,,,,,02,,,,,*71
$GBGNS,064517.00,,,,,,04,,,,,*74
$GPLLQ,064517.00,010125,,M,,M,1,16,3.397,,M*19
$GPVTG,,T,,M,0.00,N,0.01,K,D*27
$GPHDT,,T*1B
$GPTHS,,V*0E
$GPROT,,V*08
$PSSN,HRP,064517.00,010125,,,,,,,00,0,,*60
$PTNL,AVR,064517.00,,Yaw,,Tilt,,,,0,,00*36
$GPGSA,A,3,07,14,20,30,,,,,,,,,1.4,0.8,1.1*3C
$GPGSA,A,3,65,71,72,73,74,81,,,,,,,1.4,0.8,1.1*31
$GPGSA,A,3,03,13,,,,,,,,,,,1.4,0.8,1.1*3E
$GPGSA,A,3,21,22,36,45,,,,,,,,,1.4,0.8,1.1*38
$GPGST,064517.00,4.253,1.642,0.714,322.691,1.376,1.146,2.887*5C
$GPGBS,064517.00,6.372,7.340,16.356,20,0.0001,-0.920,0.666*4A
$GPGRS,064517.00,1,-0.1,0.5,-0.9,0.6,,,,,,,,*44
$GPGRS,064517.00,1,-7.7,-5.0,4.2,1.1,3.7,-5.0,,,,,,*60
$GPGRS,064517.00,1,-0.5,-0.8,,,,,,,,,,*42
$GPGRS,064517.00,1,-0.6,-3.5,-2.2,-0.7,,,,,,,,*48
$GPGSV,4,1,15,30,85,201,48,09,21,102,25,14,27,164,39,11,14,230,34*7D
$GPGSV,4,2,15,13,30,285,38,05,46,300,26,07,55,060,46,20,59,241,51*70
$GPGSV,4,3,15,18,03,341,,27,04,041,,08,05,072,,36,35,170,39*75
$GPGSV,4,4,15,34,31,208,,49,34,195,35,61,03,257,*47
$GLGSV,3,1,09,72,74,069,45,81,14,333,41,88,10,282,19,73,31,038,41*65
$GLGSV,3,2,09,71,27,116,42,75,39,187,23,65,36,315,48,74,70,086,37*6A
$GLGSV,3,3,09,82,01,015,*53
$GAGSV,3,1,11,03,62,298,38,31,16,037,33,13,19,318,38,08,12,284,34*6D
$GAGSV,3,2,11,15,27,263,34,25,31,154,40,24,44,088,26,16,43,126,*6E
$GAGSV,3,3,11,05,59,086,32,09,08,098,,34,09,214,22*57
$GBGSV,5,1,18,22,70,136,44,46,16,045,,40,12,072,,19,16,129,29*6D
$GBGSV,5,2,18,09,19,058,25,05,21,129,35,10,14,093,,45,50,190,51*62
$GBGSV,5,3,18,50,28,305,,21,53,304,46,36,63,081,42,06,04,059,*6C
$GBGSV,5,4,18,42,04,308,31,26,01,214,,16,02,059,,02,05,108,*6D
$GBGSV,5,5,18,58,02,038,,60,07,112,*65
$GPGGA,064517.00,,,,,0,00,,,M,,M,,*49
$PTNL,GGK,064517.00,010125,4742.4467318,N,01617.9730781,E,1,16,1.4,EHT668.4799,M*4E
$GPGGQ,064517.00,010125,4742.4467318,N,01617.9730781,E,1,16,3.397,625.2688,M*35
$GPGFA,064517.00,15.612,23.672,1.642,0.714,322.691,2.887,,VVV*0A
$GPLLK,064517.00,010125,,M,,M,1,16,1.6,,M*0A
$GNGMP,064517.00,,,,,DAAA,16,0.8,,,,*58
$GPGMP,064517.00,,,,,,04,,,,2.8,123*72
$GLGMP,064517.00,,,,,,06,,,,,*78
$GAGMP,064517.00,,,,,,02,,,,,*71
$GBGMP,064517.00,,,,,,04,,,,,*74
$PSSN,SNC,[0,283535000,2347]*4E
$GPZDA,064522.00,01,01,2025,,*64
$GPDTM,W84,,00.0000000,N,00.0000000,E,00.0000000,W84*5F
$GPRMC,064522.00,A,4742.4467347,N,01617.9730715,E,0.0,,010125,5.1,E,D*11
$GPGLL,4742.4467347,N,01617.9730715,E,064522.00,A,D*60
$GPGGA,064522.00,4742.4467347,N,01617.9730715,E,2,16,0.8,625.2745,M,43.2111,M,2.8,0123*49
$GNGNS,064522.00,4742.4467347,N,01617.9730715,E,DAAA,16,0.8,625.2745,43.2111,,*5F
$GPGNS,064522.00,,,,,,04,,,,2.8,123*74
$GLGNS,064522.00,,,,,,06,,,,,*7E
$GAGNS,064522.00,,,,,,02,,,,,*77
$GBGNS,064522.00,,,,,,04,,,,,*72
$GPLLQ,064522.00,010125,,M,,M,1,16,3.758,,M*18
$GPVTG,,T,,M,0.01,N,0.02,K,D*25
$GPHDT,,T*1B
$GPTHS,,V*0E
$GPROT,,V*08
$PSSN,HRP,064522.00,010125,,,,,,,00,0,,*66
$PTNL,AVR,064522.00,,Yaw,,Tilt,,,,0,,00*30
$GPGSA,A,3,07,14,20,30,,,,,,,,,1.4,0.8,1.1*3C
$GPGSA,A,3,65,71,72,73,74,81,,,,,,,1.4,0.8,1.1*31
$GPGSA,A,3,03,13,,,,,,,,,,,1.4,0.8,1.1*3E
$GPGSA,A,3,21,22,36,45,,,,,,,,,1.4,0.8,1.1*38
$GPGST,064522.00,4.647,1.797,0.855,323.219,1.528,1.276,3.187*58
$GPGBS,064522.00,6.414,7.021,16.700,20,0.0001,-0.975,0.613*4A
$GPGRS,064522.00,1,0.0,1.0,-1.0,0.2,,,,,,,,*66
$GPGRS,064522.00,1,-7.5,-5.9,4.9,1.6,7.2,0.8,,,,,,*40
$GPGRS,064522.00,1,-0.0,1.8,,,,,,,,,,*6D
$GPGRS,064522.00,1,-0.6,-3.9,-1.8,-0.6,,,,,,,,*4A
$GPGSV,4,1,15,30,85,201,48,09,21,102,26,14,27,164,37,11,14,230,33*77
$GPGSV,4,2,15,13,30,285,39,05,46,300,37,07,55,060,46,20,59,241,51*71
$GPGSV,4,3,15,18,03,341,,27,04,041,,08,05,072,,36,35,170,40*7B
$GPGSV,4,4,15,34,31,208,,49,34,195,35,61,03,257,*47
$GLGSV,3,1,09,72,74,069,44,81,14,333,42,88,10,282,29,73,31,038,43*66
$GLGSV,3,2,09,71,27,116,43,75,39,187,31,65,36,315,48,74,70,086,38*67
$GLGSV,3,3,09,82,01,015,*53
$GAGSV,3,1,11,03,62,298,40,31,16,037,33,13,19,318,39,08,12,284,34*63
$GAGSV,3,2,11,15,27,263,32,25,31,154,26,24,44,088,31,16,43,126,*6E
$GAGSV,3,3,11,05,59,086,30,09,08,098,,34,09,214,24*53
$GBGSV,5,1,18,22,70,136,43,46,16,045,,40,12,072,,19,16,129,27*64
$GBGSV,5,2,18,09,19,058,25,05,21,129,35,10,14,093,,45,51,190,51*63
$GBGSV,5,3,18,50,28,305,,21,53,304,46,36,63,081,40,06,04,059,*6E
$GBGSV,5,4,18,42,05,308,31,26,01,214,,16,02,059,,02,05,108,*6C
$GBGSV,5,5,18,58,02,038,,60,07,112,*65
$GPGGA,064522.00,,,,,0,00,,,M,,M,,*4F
$PTNL,GGK,064522.00,010125,4742.4467347,N,01617.9730715,E,1,16,1.4,EHT668.4855,M*40
$GPGGQ,064522.00,010125,4742.4467347,N,01617.9730715,E,1,16,3.758,625.2745,M*33
$GPGFA,064522.00,17.090,26.135,1.797,0.855,323.219,3.187,,VVV*0D
$GPLLK,064522.00,010125,,M,,M,1,16,1.6,,M*0C
$GNGMP,064522.00,,,,,DAAA,16,0.8,,,,*5E
$GPGMP,064522.00,,,,,,04,,,,2.8,123*74
$GLGMP,064522.00,,,,,,06,,,,,*7E
$GAGMP,064522.00,,,,,,02,,,,,*77
$GBGMP,064522.00,,,,,,04,,,,,*72
$PSSN,SNC,[0,283540000,2347]*4C
$GPZDA,064527.00,01,01,2025,,*61
$GPDTM,W84,,00.0000000,N,00.0000000,E,00.0000000,W84*5F
$GPRMC,064527.00,A,4742.4467272,N,01617.9730820,E,0.0,,010125,5.1,E,D*1A
$GPGLL,4742.4467272,N,01617.9730820,E,064527.00,A,D*6B
$GPGGA,064527.00,4742.4467272,N,01617.9730820,E,2,17,0.8,625.2968,M,43.2111,M,3.6,0123*4D
$GNGNS,064527.00,4742.4467272,N,01617.9730820,E,DAAA,17,0.8,625.2968,43.2111,,*54
$GPGNS,064527.00,,,,,,05,,,,3.6,123*7F
$GLGNS,064527.00,,,,,,06,,,,,*7B
$GAGNS,064527.00,,,,,,02,,,,,*72
$GBGNS,064527.00,,,,,,04,,,,,*77
$GPLLQ,064527.00,010125,,M,,M,1,17,2.466,,M*13
$GPVTG,,T,,M,0.01,N,0.01,K,D*26
$GPHDT,,T*1B
$GPTHS,,V*0E
$GPROT,,V*08
$PSSN,HRP,064527.00,010125,,,,,,,00,0,,*63
$PTNL,AVR,064527.00,,Yaw,,Tilt,,,,0,,00*35
$GPGSA,A,3,07,13,14,20,30,,,,,,,,1.4,0.8,1.1*3E
$GPGSA,A,3,65,71,72,73,74,81,,,,,,,1.4,0.8,1.1*31
$GPGSA,A,3,03,13,,,,,,,,,,,1.4,0.8,1.1*3E
$GPGSA,A,3,21,22,36,45,,,,,,,,,1.4,0.8,1.1*38
$GPGST,064527.00,4.508,1.109,0.843,16.439,1.090,0.867,2.035*66
$GPGBS,064527.00,4.240,3.944,7.537,13,0.0001,1.830,0.820*50
$GPGRS,064527.00,1,0.0,1.8,-0.7,-0.8,-0.3,,,,,,,*4A
$GPGRS,064527.00,1,-7.7,-5.2,4.5,2.9,6.2,3.4,,,,,,*42
$GPGRS,064527.00,1,-0.1,3.6,,,,,,,,,,*65
$GPGRS,064527.00,1,-1.0,-4.3,-0.7,-0.8,,,,,,,,*45
$GPGSV,4,1,15,30,85,201,48,09,21,102,27,14,27,164,35,11,14,230,32*75
$GPGSV,4,2,15,13,30,285,41,05,46,300,37,07,55,060,45,20,59,241,50*7C
$GPGSV,4,3,15,18,03,341,,27,04,041,,08,05,072,,36,35,170,40*7B
$GPGSV,4,4,15,34,31,208,,49,34,195,35,61,03,257,*47
$GLGSV,3,1,09,72,74,069,44,81,14,333,42,88,10,282,23,73,31,038,43*6C
$GLGSV,3,2,09,71,27,116,43,75,39,187,33,65,36,315,46,74,70,086,37*64
$GLGSV,3,3,09,82,01,015,*53
$GAGSV,3,1,11,03,62,298,41,31,16,037,31,13,19,318,38,08,12,284,33*66
$GAGSV,3,2,11,15,27,263,30,25,31,154,28,24,44,088,29,16,43,126,*6B
$GAGSV,3,3,11,05,59,086,31,09,08,098,,34,09,214,25*53
$GBGSV,5,1,18,22,70,136,42,46,16,045,,40,12,072,,19,16,129,24*66
$GBGSV,5,2,18,09,19,058,26,05,21,129,35,10,14,093,,45,51,190,51*60
$GBGSV,5,3,18,50,28,305,,21,53,304,46,36,63,081,40,06,04,059,*6E
$GBGSV,5,4,18,42,05,308,29,26,01,214,,16,02,059,,02,05,108,*65
$GBGSV,5,5,18,58,02,038,,60,07,112,*65
$GPGGA,064527.00,,,,,0,00,,,M,,M,,*4A
$PTNL,GGK,064527.00,010125,4742.4467272,N,01617.9730820,E,1,17,1.4,EHT668.5079,M*4D
$GPGGQ,064527.00,010125,4742.4467272,N,01617.9730820,E,1,17,2.466,625.2968,M*37
$GPGFA,064527.00,10.544,16.685,1.109,0.843,16.439,2.035,,VVV*32
$GPLLK,064527.00,010125,,M,,M,1,17,1.6,,M*08
$GNGMP,064527.00,,,,,DAAA,17,0.8,,,,*5A
$GPGMP,064527.00,,,,,,05,,,,3.6,123*7F
$GLGMP,064527.00,,,,,,06,,,,,*7B
$GAGMP,064527.00,,,,,,02,,,,,*72
$GBGMP,064527.00,,,,,,04,,,,,*77
$PSSN,SNC,[0,283545000,2347]*49
$GPZDA,064532.00,01,01,2025,,*65
$GPDTM,W84,,00.0000000,N,00.0000000,E,00.0000000,W84*5F
$GPRMC,064532.00,A,4742.4467171,N,01617.9730919,E,0.0,,010125,5.1,E,D*15
$GPGLL,4742.4467171,N,01617.9730919,E,064532.00,A,D*64
$GPGGA,064532.00,4742.4467171,N,01617.9730919,E,2,17,0.8,625.3055,M,43.2111,M,3.0,0123*42
$GNGNS,064532.00,4742.4467171,N,01617.9730919,E,DAAA,17,0.8,625.3055,43.2111,,*5D
$GPGNS,064532.00,,,,,,05,,,,3.0,123*7D
$GLGNS,064532.00,,,,,,06,,,,,*7F
$GAGNS,064532.00,,,,,,02,,,,,*76
$GBGNS,064532.00,,,,,,04,,,,,*73
$GPLLQ,064532.00,010125,,M,,M,1,17,2.345,,M*11
$GPVTG,,T,,M,0.01,N,0.02,K,D*25
$GPHDT,,T*1B
$GPTHS,,V*0E
$GPROT,,V*08
$PSSN,HRP,064532.00,010125,,,,,,,00,0,,*67
$PTNL,AVR,064532.00,,Yaw,,Tilt,,,,0,,00*31
$GPGSA,A,3,07,13,14,20,30,,,,,,,,1.4,0.8,1.1*3E
$GPGSA,A,3,65,71,72,73,74,81,,,,,,,1.4,0.8,1.1*31
$GPGSA,A,3,03,13,,,,,,,,,,,1.4,0.8,1.1*3E
$GPGSA,A,3,21,22,36,45,,,,,,,,,1.4,0.8,1.1*38
$GPGST,064532.00,4.159,1.076,0.821,15.226,1.060,0.841,1.915*67
$GPGBS,064532.00,4.261,3.970,7.609,13,0.0001,1.593,0.819*50
$GPGRS,064532.00,1,0.2,1.6,-1.4,-0.6,0.0,,,,,,,*60
$GPGRS,064532.00,1,-7.8,-4.3,5.5,2.8,3.4,3.1,,,,,,*4F
$GPGRS,064532.00,1,-0.5,1.9,,,,,,,,,,*68
$GPGRS,064532.00,1,-1.2,-4.6,0.9,-0.8,,,,,,,,*65
$GPGSV,4,1,15,30,85,200,48,09,21,102,27,11,14,230,29,14,27,164,35*7E
$GPGSV,4,2,15,13,30,285,41,05,46,300,37,07,55,060,45,20,59,241,50*7C
$GPGSV,4,3,15,18,03,341,,27,04,041,,08,05,072,,36,35,170,40*7B
$GPGSV,4,4,15,34,31,208,,49,34,195,35,61,03,257,*47
$GLGSV,3,1,09,72,74,069,44,81,14,333,42,88,10,282,,73,31,038,44*6A
$GLGSV,3,2,09,71,27,116,43,75,39,187,34,65,36,315,46,74,70,086,37*63
$GLGSV,3,3,09,82,01,015,*53
$GAGSV,3,1,11,03,62,298,42,31,16,037,30,13,19,318,38,08,12,284,32*65
$GAGSV,3,2,11,15,27,263,32,25,31,154,29,24,44,088,34,16,43,126,*64
$GAGSV,3,3,11,05,59,086,33,09,08,098,,34,09,214,25*51
$GBGSV,5,1,18,22,70,136,42,46,16,045,,40,12,072,,19,16,129,22*60
$GBGSV,5,2,18,09,19,058,26,05,21,129,35,10,14,093,,45,51,190,51*60
$GBGSV,5,3,18,50,29,305,,21,53,304,45,36,63,080,39,06,04,059,*63
$GBGSV,5,4,18,42,05,308,30,26,01,214,,16,02,059,,02,05,108,*6D
$GBGSV,5,5,18,58,02,038,,60,07,112,*65
$GPGGA,064532.00,,,,,0,00,,,M,,M,,*4E
$PTNL,GGK,064532.00,010125,4742.4467171,N,01617.9730919,E,1,17,1.4,EHT668.5166,M*4D
$GPGGQ,064532.00,010125,4742.4467171,N,01617.9730919,E,1,17,2.345,625.3055,M*38
$GPGFA,064532.00,10.227,15.703,1.076,0.821,15.226,1.915,,VVV*36
$GPLLK,064532.00,010125,,M,,M,1,17,1.6,,M*0C
$GNGMP,064532.00,,,,,DAAA,17,0.8,,,,*5E
$GPGMP,064532.00,,,,,,05,,,,3.0,123*7D
$GLGMP,064532.00,,,,,,06,,,,,*7F
$GAGMP,064532.00,,,,,,02,,,,,*76
$GBGMP,064532.00,,,,,,04,,,,,*73
$PSSN,SNC,[0,283550000,2347]*4D
$GPZDA,064537.00,01,01,2025,,*60
$GPDTM,W84,,00.0000000,N,00.0000000,E,00.0000000,W84*5F
$GPRMC,064537.00,A,4742.4467075,N,01617.9730922,E,0.0,,010125,5.1,E,D*1D
$GPGLL,4742.4467075,N,01617.9730922,E,064537.00,A,D*6C
$GPGGA,064537.00,4742.4467075,N,01617.9730922,E,2,19,0.7,625.3138,M,43.2111,M,2.0,0123*40
$GNGNS,064537.00,4742.4467075,N,01617.9730922,E,DAAA,19,0.7,625.3138,43.2111,,*5E
$GPGNS,064537.00,,,,,,05,,,,2.0,123*79
$GLGNS,064537.00,,,,,,07,,,,,*7B
$GAGNS,064537.00,,,,,,03,,,,,*72
$GBGNS,064537.00,,,,,,04,,,,,*76
$GPLLQ,064537.00,010125,,M,,M,1,19,1.961,,M*15
$GPVTG,,T,,M,0.01,N,0.02,K,D*25
$GPHDT,,T*1B
$GPTHS,,V*0E
$GPROT,,V*08
$PSSN,HRP,064537.00,010125,,,,,,,00,0,,*62
$PTNL,AVR,064537.00,,Yaw,,Tilt,,,,0,,00*34
$GPGSA,A,3,07,13,14,20,30,,,,,,,,1.3,0.7,1.1*36
$GPGSA,A,3,65,71,72,73,74,75,81,,,,,,1.3,0.7,1.1*3B
$GPGSA,A,3,03,13,24,,,,,,,,,,1.3,0.7,1.1*30
$GPGSA,A,3,21,22,36,45,,,,,,,,,1.3,0.7,1.1*30
$GPGST,064537.00,4.297,0.881,0.673,16.509,0.866,0.692,1.617*60
$GPGBS,064537.00,3.998,3.779,7.769,13,0.0001,1.267,0.778*5B
$GPGRS,064537.00,1,-0.0,1.3,-0.1,-0.7,0.1,,,,,,,*4B
$GPGRS,064537.00,1,-7.6,-5.4,5.9,2.1,1.3,-5.8,-0.9,,,,,*6A
$GPGRS,064537.00,1,-1.3,0.6,5.8,,,,,,,,,*47
$GPGRS,064537.00,1,-1.1,-4.5,0.2,-1.0,,,,,,,,*62
$GPGSV,4,1,15,30,85,200,47,09,21,102,28,11,13,230,27,14,27,164,36*74
$GPGSV,4,2,15,13,30,285,41,05,46,300,36,07,54,060,44,20,59,241,49*75
$GPGSV,4,3,15,18,03,341,,27,04,041,,08,05,072,,36,35,170,39*75
$GPGSV,4,4,15,34,31,208,,49,34,195,35,61,03,257,*47
$GLGSV,3,1,09,72,74,070,44,81,14,333,41,88,10,282,31,73,31,038,45*62
$GLGSV,3,2,09,71,27,116,43,75,39,187,38,65,36,316,47,74,70,086,36*6C
$GLGSV,3,3,09,82,01,015,*53
$GAGSV,3,1,11,03,62,298,42,31,16,037,29,13,19,318,38,08,12,284,30*6F
$GAGSV,3,2,11,15,27,262,34,25,31,154,29,24,44,088,37,16,43,126,*60
$GAGSV,3,3,11,05,59,086,34,09,08,098,,34,08,214,25*57
$GBGSV,5,1,18,22,70,136,42,46,16,045,,40,12,072,,19,16,129,26*64
$GBGSV,5,2,18,09,19,058,24,05,21,129,35,10,14,093,,45,51,190,50*63
$GBGSV,5,3,18,50,29,305,,21,53,304,44,36,63,080,38,06,04,059,*63
$GBGSV,5,4,18,42,05,308,30,26,01,214,,16,02,059,,02,05,108,*6D
$GBGSV,5,5,18,58,02,038,,60,07,112,*65
$GPGGA,064537.00,,,,,0,00,,,M,,M,,*4B
$PTNL,GGK,064537.00,010125,4742.4467075,N,01617.9730922,E,1,19,1.3,EHT668.5249,M*42
$GPGGQ,064537.00,010125,4742.4467075,N,01617.9730922,E,1,19,1.961,625.3138,M*3B
$GPGFA,064537.00,8.379,13.261,0.881,0.673,16.509,1.617,,VVV*0B
$GPLLK,064537.00,010125,,M,,M,1,19,1.5,,M*04
$GNGMP,064537.00,,,,,DAAA,19,0.7,,,,*5A
$GPGMP,064537.00,,,,,,05,,,,2.0,123*79
$GLGMP,064537.00,,,,,,07,,,,,*7B
$GAGMP,064537.00,,,,,,03,,,,,*72
$GBGMP,064537.00,,,,,,04,,,,,*76
$PSSN,SNC,[0,283555000,2347]*48
$GPZDA,064542.00,01,01,2025,,*62
$GPDTM,W84,,00.0000000,N,00.0000000,E,00.0000000,W84*5F
$GPRMC,064542.00,A,4742.4467014,N,01617.9730978,E,0.0,,010125,5.1,E,D*17
$GPGLL,4742.4467014,N,01617.9730978,E,064542.00,A,D*66
$GPGGA,064542.00,4742.4467014,N,01617.9730978,E,2,20,0.7,625.3214,M,43.2111,M,2.2,0123*4F
$GNGNS,064542.00,4742.4467014,N,01617.9730978,E,DAAA,20,0.7,625.3214,43.2111,,*53
$GPGNS,064542.00,,,,,,05,,,,2.2,123*79
$GLGNS,064542.00,,,,,,07,,,,,*79
$GAGNS,064542.00,,,,,,04,,,,,*77
$GBGNS,064542.00,,,,,,04,,,,,*74
$GPLLQ,064542.00,010125,,M,,M,1,20,2.059,,M*1C
$GPVTG,,T,,M,0.00,N,0.01,K,D*27
$GPHDT,,T*1B
$GPTHS,,V*0E
$GPROT,,V*08
$PSSN,HRP,064542.00,010125,,,,,,,00,0,,*60
$PTNL,AVR,064542.00,,Yaw,,Tilt,,,,0,,00*36
$GPGSA,A,3,07,13,14,20,30,,,,,,,,1.3,0.7,1.1*36
$GPGSA,A,3,65,71,72,73,74,75,81,,,,,,1.3,0.7,1.1*3B
$GPGSA,A,3,03,13,15,24,,,,,,,,,1.3,0.7,1.1*34
$GPGSA,A,3,21,22,36,45,,,,,,,,,1.3,0.7,1.1*30
$GPGST,064542.00,4.859,0.911,0.698,15.627,0.897,0.716,1.709*66
$GPGBS,064542.00,3.995,3.725,7.490,15,0.0001,10.676,6.143*62
$GPGRS,064542.00,1,0.3,0.5,-1.1,-0.1,-0.1,,,,,,,*4A
$GPGRS,064542.00,1,-6.5,-4.1,6.2,3.0,3.3,-3.8,-4.9,,,,,*66
$GPGRS,064542.00,1,-0.8,0.9,10.7,5.0,,,,,,,,*50
$GPGRS,064542.00,1,-0.6,-3.0,0.4,-0.5,,,,,,,,*66
$GPGSV,4,1,15,30,85,200,47,09,21,102,,11,13,230,27,14,27,164,36*7E
$GPGSV,4,2,15,13,30,285,40,05,46,300,33,07,54,060,43,20,59,241,49*76
$GPGSV,4,3,15,18,03,341,,27,04,041,,08,05,072,,36,35,170,39*75
$GPGSV,4,4,15,34,31,208,,49,34,195,35,61,03,257,*47
$GLGSV,3,1,09,72,74,070,43,81,14,333,40,88,10,282,31,73,31,038,45*64
$GLGSV,3,2,09,71,27,116,44,75,39,187,40,65,36,316,47,74,70,086,36*64
$GLGSV,3,3,09,82,01,015,*53
$GAGSV,3,1,11,03,62,298,43,31,16,037,28,13,19,318,38,08,12,284,29*67
$GAGSV,3,2,11,15,27,262,35,25,31,154,33,24,44,088,39,16,43,126,*64
$GAGSV,3,3,11,05,59,086,35,09,08,098,,34,08,214,25*56
$GBGSV,5,1,18,22,70,136,43,46,16,045,,40,12,072,,19,16,129,27*64
$GBGSV,5,2,18,09,19,058,25,05,21,129,35,10,14,093,,45,51,190,50*62
$GBGSV,5,3,18,50,29,305,,21,53,304,44,36,63,080,35,06,04,059,*6E
$GBGSV,5,4,18,42,05,308,31,26,02,214,,16,02,059,,02,05,108,*6F
$GBGSV,5,5,18,58,02,038,,60,07,112,*65
$GPGGA,064542.00,,,,,0,00,,,M,,M,,*49
$PTNL,GGK,064542.00,010125,4742.4467014,N,01617.9730978,E,1,20,1.3,EHT668.5324,M*48
$GPGGQ,064542.00,010125,4742.4467014,N,01617.9730978,E,1,20,2.059,625.3214,M*37
$GPGFA,064542.00,8.661,14.018,0.911,0.698,15.627,1.709,,VVV*01
$GPLLK,064542.00,010125,,M,,M,1,20,1.5,,M*0C
$GNGMP,064542.00,,,,,DAAA,20,0.7,,,,*52
$GPGMP,064542.00,,,,,,05,,,,2.2,123*79
$GLGMP,064542.00,,,,,,07,,,,,*79
$GAGMP,064542.00,,,,,,04,,,,,*77
$GBGMP,064542.00,,,,,,04,,,,,*74
$PSSN,SNC,[0,283560000,2347]*4E
$GPZDA,064547.00,01,01,2025,,*67
$GPDTM,W84,,00.0000000,N,00.0000000,E,00.0000000,W84*5F
$GPRMC,064547.00,A,4742.4466911,N,01617.9731039,E,0.0,,010125,5.1,E,D*12
$GPGLL,4742.4466911,N,01617.9731039,E,064547.00,A,D*63
$GPGGA,064547.00,4742.4466911,N,01617.9731039,E,2,21,0.7,625.3184,M,43.2111,M,2.4,0123*47
$GNGNS,064547.00,4742.4466911,N,01617.9731039,E,DAAA,21,0.7,625.3184,43.2111,,*5D
$GPGNS,064547.00,,,,,,05,,,,2.4,123*7A
$GLGNS,064547.00,,,,,,07,,,,,*7C
$GAGNS,064547.00,,,,,,05,,,,,*73
$GBGNS,064547.00,,,,,,04,,,,,*71
$GPLLQ,064547.00,010125,,M,,M,1,21,2.736,,M*16
$GPVTG,,T,,M,0.01,N,0.01,K,D*26
$GPHDT,,T*1B
$GPTHS,,V*0E
$GPROT,,V*08
$PSSN,HRP,064547.00,010125,,,,,,,00,0,,*65
$PTNL,AVR,064547.00,,Yaw,,Tilt,,,,0,,00*33
$GPGSA,A,3,07,13,14,20,30,,,,,,,,1.2,0.7,1.0*36
$GPGSA,A,3,65,71,72,73,74,75,81,,,,,,1.2,0.7,1.0*3B
$GPGSA,A,3,03,05,13,15,24,,,,,,,,1.2,0.7,1.0*31
$GPGSA,A,3,21,22,36,45,,,,,,,,,1.2,0.7,1.0*30
$GPGST,064547.00,5.597,1.221,0.935,15.078,1.204,0.957,2.263*60
$GPGBS,064547.00,4.050,3.790,7.561,15,0.0001,16.306,6.143*65
$GPGRS,064547.00,1,0.4,1.5,-2.0,-0.1,-0.1,,,,,,,*4B
$GPGRS,064547.00,1,-6.4,-2.3,2.7,4.1,4.3,-3.4,-5.7,,,,,*65
$GPGRS,064547.00,1,-0.8,-1.9,0.7,16.3,4.1,,,,,,,*52
$GPGRS,064547.00,1,-0.9,-2.8,1.9,-0.3,,,,,,,,*6F
$GPGSV,4,1,15,30,85,200,47,09,21,102,,11,13,230,30,14,27,164,36*78
$GPGSV,4,2,15,13,30,285,40,05,46,300,35,07,54,059,43,20,59,241,48*7B
$GPGSV,4,3,15,18,03,341,,27,04,041,,08,05,072,,36,35,170,40*7B
$GPGSV,4,4,15,34,31,208,,49,34,195,35,61,03,257,*47
$GLGSV,3,1,09,72,74,070,42,81,14,333,39,88,10,282,27,73,31,038,45*6C
$GLGSV,3,2,09,71,27,116,45,75,39,187,42,65,36,316,47,74,70,085,36*64
$GLGSV,3,3,09,82,01,015,*53
$GAGSV,3,1,11,03,62,298,44,31,16,037,29,13,19,318,38,08,12,284,27*6F
$GAGSV,3,2,11,15,27,262,37,25,31,154,32,24,44,088,40,16,43,126,*69
$GAGSV,3,3,11,05,59,086,36,09,08,098,,34,08,214,26*56
$GBGSV,5,1,18,22,70,136,43,46,16,045,,40,12,072,,19,16,130,28*63
$GBGSV,5,2,18,09,19,058,25,05,21,129,35,10,14,092,,45,51,190,49*6B
$GBGSV,5,3,18,50,29,306,,21,53,304,44,36,62,080,35,06,04,059,*6C
$GBGSV,5,4,18,42,05,308,32,26,02,214,,16,02,059,,02,05,108,*6C
$GBGSV,5,5,18,58,02,038,,60,07,112,*65
$GPGGA,064547.00,,,,,0,00,,,M,,M,,*4C
$PTNL,GGK,064547.00,010125,4742.4466911,N,01617.9731039,E,1,21,1.2,EHT668.5295,M*46
$GPGGQ,064547.00,010125,4742.4466911,N,01617.9731039,E,1,21,2.736,625.3184,M*37
$GPGFA,064547.00,11.612,18.558,1.221,0.935,15.078,2.263,,VVV*32
$GPLLK,064547.00,010125,,M,,M,1,21,1.5,,M*08
$GNGMP,064547.00,,,,,DAAA,21,0.7,,,,*56
$GPGMP,064547.00,,,,,,05,,,,2.4,123*7A
$GLGMP,064547.00,,,,,,07,,,,,*7C
$GAGMP,064547.00,,,,,,05,,,,,*73
$GBGMP,064547.00,,,,,,04,,,,,*71
$PSSN,SNC,[0,283565000,2347]*4B
$GPZDA,064552.00,01,01,2025,,*63
$GPDTM,W84,,00.0000000,N,00.0000000,E,00.0000000,W84*5F
$GPRMC,064552.00,A,4742.4466759,N,01617.9731211,E,0.0,,010125,5.1,E,D*1C
$GPGLL,4742.4466759,N,01617.9731211,E,064552.00,A,D*6D
$GPGGA,064552.00,4742.4466759,N,01617.9731211,E,2,21,0.7,625.3245,M,43.2111,M,3.4,0123*46
$GNGNS,064552.00,4742.4466759,N,01617.9731211,E,DAAA,21,0.7,625.3245,43.2111,,*5D
$GPGNS,064552.00,,,,,,05,,,,3.4,123*7F
$GLGNS,064552.00,,,,,,07,,,,,*78
$GAGNS,064552.00,,,,,,05,,,,,*77
$GBGNS,064552.00,,,,,,04,,,,,*75
$GPLLQ,064552.00,010125,,M,,M,1,21,3.097,,M*1F
$GPVTG,,T,,M,0.00,N,0.01,K,D*27
$GPHDT,,T*1B
$GPTHS,,V*0E
$GPROT,,V*08
$PSSN,HRP,064552.00,010125,,,,,,,00,0,,*61
$PTNL,AVR,064552.00,,Yaw,,Tilt,,,,0,,00*37
$GPGSA,A,3,07,13,14,20,30,,,,,,,,1.2,0.7,1.0*36
$GPGSA,A,3,65,71,72,73,74,75,81,,,,,,1.2,0.7,1.0*3B
$GPGSA,A,3,03,05,13,15,24,,,,,,,,1.2,0.7,1.0*31
$GPGSA,A,3,21,22,36,45,,,,,,,,,1.2,0.7,1.0*30
$GPGST,064552.00,5.986,1.394,1.073,14.821,1.375,1.097,2.549*64
$GPGBS,064552.00,4.132,3.865,7.735,15,0.0001,17.376,6.142*65
$GPGRS,064552.00,1,0.4,2.1,-2.3,-0.1,-0.3,,,,,,,*49
$GPGRS,064552.00,1,-6.9,-2.3,3.3,3.8,3.4,-2.8,-6.0,,,,,*6E
$GPGRS,064552.00,1,-1.1,-2.2,0.0,17.4,3.6,,,,,,,*57
$GPGRS,064552.00,1,-1.5,-3.3,4.9,0.1,,,,,,,,*46
$GPGSV,4,1,15,30,86,200,48,09,21,102,26,11,13,230,31,14,27,164,36*71
$GPGSV,4,2,15,13,30,285,36,05,46,300,34,07,54,059,43,20,59,241,48*7B
$GPGSV,4,3,15,18,03,341,,27,04,040,,08,05,072,,36,35,170,40*7A
$GPGSV,4,4,15,34,31,208,,49,34,195,35,61,03,257,*47
$GLGSV,3,1,09,72,74,070,44,81,14,333,41,88,10,282,19,73,31,038,44*69
$GLGSV,3,2,09,71,27,116,45,75,39,187,43,65,36,316,47,74,70,085,36*65
$GLGSV,3,3,09,82,01,015,*53
$GAGSV,3,1,11,03,62,298,44,31,16,037,29,13,19,318,38,08,12,284,24*6C
$GAGSV,3,2,11,15,26,262,38,25,31,154,33,24,44,088,41,16,43,126,*67
$GAGSV,3,3,11,05,59,086,36,09,08,098,,34,08,214,25*55
$GBGSV,5,1,18,22,70,136,43,46,16,045,,40,12,072,,19,16,130,27*6C
$GBGSV,5,2,18,09,19,058,24,05,21,129,34,10,14,092,,45,51,190,49*6B
$GBGSV,5,3,18,50,29,306,,21,53,304,44,36,62,080,38,06,04,060,*6B
$GBGSV,5,4,18,42,05,308,33,26,02,214,,16,02,059,,02,05,108,*6D
$GBGSV,5,5,18,58,02,038,,60,07,112,*65
$GPGGA,064552.00,,,,,0,00,,,M,,M,,*48
$PTNL,GGK,064552.00,010125,4742.4466759,N,01617.9731211,E,1,21,1.2,EHT668.5355,M*45
$GPGGQ,064552.00,010125,4742.4466759,N,01617.9731211,E,1,21,3.097,625.3245,M*3A
$GPGFA,064552.00,13.251,20.900,1.394,1.073,14.821,2.549,,VVV*32
$GPLLK,064552.00,010125,,M,,M,1,21,1.5,,M*0C
$GNGMP,064552.00,,,,,DAAA,21,0.7,,,,*52
$GPGMP,064552.00,,,,,,05,,,,3.4,123*7F
$GLGMP,064552.00,,,,,,07,,,,,*78
$GAGMP,064552.00,,,,,,05,,,,,*77
$GBGMP,064552.00,,,,,,04,,,,,*75
$PSSN,SNC,[0,283570000,2347]*4F
$GPZDA,064557.00,01,01,2025,,*66
$GPDTM,W84,,00.0000000,N,00.0000000,E,00.0000000,W84*5F
$GPRMC,064557.00,A,4742.4466623,N,01617.9731274,E,0.0,,010125,5.1,E,D*16
$GPGLL,4742.4466623,N,01617.9731274,E,064557.00,A,D*67
$GPGGA,064557.00,4742.4466623,N,01617.9731274,E,2,20,0.7,625.3180,M,43.2111,M,2.3,0123*41
$GNGNS,064557.00,4742.4466623,N,01617.9731274,E,DAAA,20,0.7,625.3180,43.2111,,*5C
$GPGNS,064557.00,,,,,,04,,,,2.3,123*7D
$GLGNS,064557.00,,,,,,07,,,,,*7D
$GAGNS,064557.00,,,,,,05,,,,,*72
$GBGNS,064557.00,,,,,,04,,,,,*70
$GPLLQ,064557.00,010125,,M,,M,1,20,4.381,,M*18
$GPVTG,,T,,M,0.00,N,0.01,K,D*27
$GPHDT,,T*1B
$GPTHS,,V*0E
$GPROT,,V*08
$PSSN,HRP,064557.00,010125,,,,,,,00,0,,*64
$PTNL,AVR,064557.00,,Yaw,,Tilt,,,,0,,00*32
$GPGSA,A,3,07,14,20,30,,,,,,,,,1.3,0.7,1.0*35
$GPGSA,A,3,65,71,72,73,74,75,81,,,,,,1.3,0.7,1.0*3A
$GPGSA,A,3,03,05,13,15,24,,,,,,,,1.3,0.7,1.0*30
$GPGSA,A,3,21,22,36,45,,,,,,,,,1.3,0.7,1.0*31
$GPGST,064557.00,5.155,2.065,1.069,323.645,1.779,1.496,3.713*58
$GPGBS,064557.00,5.553,6.392,14.623,14,0.0001,-2.086,0.830*4E
$GPGRS,064557.00,1,0.8,-2.1,-0.0,0.2,,,,,,,,*42
$GPGRS,064557.00,1,-6.0,-2.5,5.5,2.1,4.0,-1.5,-1.3,,,,,*65
$GPGRS,064557.00,1,-0.3,-1.9,1.6,14.0,2.6,,,,,,,*58
$GPGRS,064557.00,1,-2.0,-2.8,4.7,0.6,,,,,,,,*46
$GPGSV,4,1,15,30,86,200,48,09,21,102,25,11,13,230,32,14,27,164,36*71
$GPGSV,4,2,15,13,30,285,34,05,46,300,31,07,54,059,44,20,59,241,47*74
$GPGSV,4,3,15,18,03,341,,27,04,040,,08,05,072,,36,35,170,40*7A
$GPGSV,4,4,15,34,31,208,,49,34,195,35,61,03,257,*47
$GLGSV,3,1,09,72,74,070,43,81,14,333,42,88,10,282,,73,31,038,42*63
$GLGSV,3,2,09,71,27,116,45,75,39,187,43,65,36,316,47,74,70,085,37*64
$GLGSV,3,3,09,82,01,015,*53
$GAGSV,3,1,11,03,62,298,44,31,16,037,27,13,19,318,38,08,12,284,33*64
$GAGSV,3,2,11,15,26,262,37,25,31,154,34,24,44,088,40,16,43,126,*6E
$GAGSV,3,3,11,05,59,086,37,09,08,098,,34,08,214,26*57
$GBGSV,5,1,18,22,70,136,44,46,16,045,,40,12,072,,19,16,130,24*68
$GBGSV,5,2,18,09,19,058,21,05,21,129,35,10,14,092,,45,51,190,49*6F
$GBGSV,5,3,18,50,29,306,,21,53,304,43,36,62,080,41,06,04,060,*62
$GBGSV,5,4,18,42,05,308,34,26,02,214,,16,02,059,,02,05,108,*6A
$GBGSV,5,5,18,58,02,038,,60,07,112,*65
$GPGGA,064557.00,,,,,0,00,,,M,,M,,*4D
$PTNL,GGK,064557.00,010125,4742.4466623,N,01617.9731274,E,1,20,1.3,EHT668.5290,M*47
$GPGGQ,064557.00,010125,4742.4466623,N,01617.9731274,E,1,20,4.381,625.3180,M*38
$GPGFA,064557.00,19.630,30.450,2.065,1.069,323.645,3.713,,VVV*05
$GPLLK,064557.00,010125,,M,,M,1,20,1.5,,M*08
$GNGMP,064557.00,,,,,DAAA,20,0.7,,,,*56
$GPGMP,064557.00,,,,,,04,,,,2.3,123*7D
$GLGMP,064557.00,,,,,,07,,,,,*7D
$GAGMP,064557.00,,,,,,05,,,,,*72
$GBGMP,064557.00,,,,,,04,,,,,*70
$PSSN,SNC,[0,283575000,2347]*4A
$GPZDA,064602.00,01,01,2025,,*65
$GPDTM,W84,,00.0000000,N,00.0000000,E,00.0000000,W84*5F
$GPRMC,064602.00,A,4742.4466536,N,01617.9731239,E,0.0,,010125,5.1,E,D*1B
$GPGLL,4742.4466536,N,01617.9731239,E,064602.00,A,D*6A
$GPGGA,064602.00,4742.4466536,N,01617.9731239,E,2,20,0.7,625.3055,M,43.2111,M,2.3,0123*45
$GNGNS,064602.00,4742.4466536,N,01617.9731239,E,DAAA,20,0.7,625.3055,43.2111,,*58
$GPGNS,064602.00,,,,,,04,,,,2.3,123*7E
$GLGNS,064602.00,,,,,,07,,,,,*7E
$GAGNS,064602.00,,,,,,05,,,,,*71
$GBGNS,064602.00,,,,,,04,,,,,*73
$GPLLQ,064602.00,010125,,M,,M,1,20,2.960,,M*18
$GPVTG,,T,,M,0.01,N,0.02,K,D*25
$GPHDT,,T*1B
$GPTHS,,V*0E
$GPROT,,V*08
$PSSN,HRP,064602.00,010125,,,,,,,00,0,,*67
$PTNL,AVR,064602.00,,Yaw,,Tilt,,,,0,,00*31
$GPGSA,A,3,07,14,20,30,,,,,,,,,1.3,0.7,1.0*35
$GPGSA,A,3,65,71,72,73,74,75,81,,,,,,1.3,0.7,1.0*3A
$GPGSA,A,3,03,05,13,15,24,,,,,,,,1.3,0.7,1.0*30
$GPGSA,A,3,21,22,36,45,,,,,,,,,1.3,0.7,1.0*31
$GPGST,064602.00,4.095,1.384,0.701,323.502,1.188,0.997,2.521*57
$GPGBS,064602.00,5.617,6.158,14.870,15,0.0001,9.663,6.143*63
$GPGRS,064602.00,1,0.4,-1.0,-0.2,0.1,,,,,,,,*4E
$GPGRS,064602.00,1,-5.6,-2.9,5.4,0.8,4.6,-0.7,1.8,,,,,*46
$GPGRS,064602.00,1,0.3,-1.6,2.1,9.7,1.0,,,,,,,*43
$GPGRS,064602.00,1,-2.8,-2.4,2.6,0.4,,,,,,,,*44
$GPGSV,4,1,15,30,86,199,49,09,21,102,,11,13,230,32,14,27,164,37*75
$GPGSV,4,2,15,13,30,285,35,05,46,299,30,07,54,059,44,20,59,241,46*74
$GPGSV,4,3,15,18,03,341,,27,04,040,,08,05,072,,36,35,170,40*7A
$GPGSV,4,4,15,34,31,208,,49,34,195,35,61,03,257,*47
$GLGSV,3,1,09,72,74,070,42,81,14,333,42,88,10,281,,73,31,038,39*6D
$GLGSV,3,2,09,71,27,116,45,75,39,187,42,65,36,316,48,74,70,085,38*65
$GLGSV,3,3,09,82,01,015,*53
$GAGSV,3,1,11,03,62,298,44,31,16,037,27,13,19,318,38,08,12,284,24*62
$GAGSV,3,2,11,15,26,262,35,25,31,154,34,24,44,088,40,16,43,126,*6C
$GAGSV,3,3,11,05,59,086,38,09,08,098,,34,08,214,26*58
$GBGSV,5,1,18,22,70,136,43,46,16,045,,40,13,072,,19,16,130,23*69
$GBGSV,5,2,18,09,19,058,21,05,21,129,34,10,14,092,,45,51,190,49*6E
$GBGSV,5,3,18,50,29,306,,21,53,304,43,36,62,080,42,06,04,060,*61
$GBGSV,5,4,18,42,05,308,35,26,02,214,,16,02,059,,02,05,108,*6B
$GBGSV,5,5,18,58,02,038,,60,07,112,*65
$GPGGA,064602.00,,,,,0,00,,,M,,M,,*4E
$PTNL,GGK,064602.00,010125,4742.4466536,N,01617.9731239,E,1,20,1.3,EHT668.5166,M*40
$GPGGQ,064602.00,010125,4742.4466536,N,01617.9731239,E,1,20,2.960,625.3055,M*3F
$GPGFA,064602.00,13.156,20.671,1.384,0.701,323.502,2.521,,VVV*0E
$GPLLK,064602.00,010125,,M,,M,1,20,1.5,,M*0B
$GNGMP,064602.00,,,,,DAAA,20,0.7,,,,*55
$GPGMP,064602.00,,,,,,04,,,,2.3,123*7E
$GLGMP,064602.00,,,,,,07,,,,,*7E
$GAGMP,064602.00,,,,,,05,,,,,*71
$GBGMP,064602.00,,,,,,04,,,,,*73
$PSSN,SNC,[0,283580000,2347]*40
$GPZDA,064607.00,01,01,2025,,*60
$GPDTM,W84,,00.0000000,N,00.0000000,E,00.0000000,W84*5F
$GPRMC,064607.00,A,4742.4466422,N,01617.9731404,E,0.0,,010125,5.1,E,D*12
$GPGLL,4742.4466422,N,01617.9731404,E,064607.00,A,D*63
$GPGGA,064607.00,4742.4466422,N,01617.9731404,E,2,20,0.7,625.3197,M,43.2111,M,2.4,0123*44
$GNGNS,064607.00,4742.4466422,N,01617.9731404,E,DAAA,20,0.7,625.3197,43.2111,,*5E
$GPGNS,064607.00,,,,,,05,,,,2.4,123*7D
$GLGNS,064607.00,,,,,,07,,,,,*7B
$GAGNS,064607.00,,,,,,04,,,,,*75
$GBGNS,064607.00,,,,,,04,,,,,*76
$GPLLQ,064607.00,010125,,M,,M,1,20,2.544,,M*17
$GPVTG,,T,,M,0.01,N,0.02,K,D*25
$GPHDT,,T*1B
$GPTHS,,V*0E
$GPROT,,V*08
$PSSN,HRP,064607.00,010125,,,,,,,00,0,,*62
$PTNL,AVR,064607.00,,Yaw,,Tilt,,,,0,,00*34
$GPGSA,A,3,07,13,14,20,30,,,,,,,,1.3,0.7,1.1*36
$GPGSA,A,3,65,71,72,73,74,75,81,,,,,,1.3,0.7,1.1*3B
$GPGSA,A,3,03,05,13,24,,,,,,,,,1.3,0.7,1.1*35
$GPGSA,A,3,21,22,36,45,,,,,,,,,1.3,0.7,1.1*30
$GPGST,064607.00,2.999,1.130,0.870,15.211,1.114,0.891,2.107*64
$GPGBS,064607.00,4.062,3.821,7.628,13,0.0001,2.742,0.806*51
$GPGRS,064607.00,1,-0.2,2.7,-0.8,-0.2,-0.7,,,,,,,*69
$GPGRS,064607.00,1,-5.8,-3.3,4.7,0.5,3.3,-1.2,-1.8,,,,,*62
$GPGRS,064607.00,1,0.0,-1.5,1.6,0.9,,,,,,,,*6A
$GPGRS,064607.00,1,-2.9,-3.4,1.0,-0.7,,,,,,,,*6A
$GPGSV,4,1,15,30,86,199,48,09,21,102,30,11,13,230,32,14,27,164,36*76
$GPGSV,4,2,15,13,30,285,38,05,46,299,30,07,54,059,45,20,59,241,45*7B
$GPGSV,4,3,15,18,03,341,,27,04,040,,08,05,071,,36,35,170,40*79
$GPGSV,4,4,15,34,31,208,,49,34,195,35,61,03,257,*47
$GLGSV,3,1,09,72,74,071,42,81,14,333,40,88,10,281,27,73,31,038,39*6B
$GLGSV,3,2,09,71,27,116,44,75,39,187,41,65,36,316,48,74,70,085,38*67
$GLGSV,3,3,09,82,01,015,*53
$GAGSV,3,1,11,03,62,298,45,31,16,037,26,13,19,318,38,08,12,284,24*62
$GAGSV,3,2,11,15,26,262,33,25,31,154,35,24,44,088,41,16,43,126,*6A
$GAGSV,3,3,11,05,59,086,39,09,08,098,,34,08,214,25*5A
$GBGSV,5,1,18,22,70,136,42,46,16,045,,40,13,072,,19,16,130,24*6F
$GBGSV,5,2,18,09,19,058,21,05,21,129,35,10,14,092,,45,51,190,49*6F
$GBGSV,5,3,18,50,29,306,,21,53,304,43,36,62,080,42,06,04,060,*61
$GBGSV,5,4,18,42,05,308,35,26,02,214,,16,02,059,,02,05,108,*6B
$GBGSV,5,5,18,58,02,038,,60,07,112,*65
$GPGGA,064607.00,,,,,0,00,,,M,,M,,*4B
$PTNL,GGK,064607.00,010125,4742.4466422,N,01617.9731404,E,1,20,1.3,EHT668.5308,M*43
$GPGGQ,064607.00,010125,4742.4466422,N,01617.9731404,E,1,20,2.544,625.3197,M*33
$GPGFA,064607.00,10.745,17.274,1.130,0.870,15.211,2.107,,VVV*3E
$GPLLK,064607.00,010125,,M,,M,1,20,1.5,,M*0E
$GNGMP,064607.00,,,,,DAAA,20,0.7,,,,*50
$GPGMP,064607.00,,,,,,05,,,,2.4,123*7D
$GLGMP,064607.00,,,,,,07,,,,,*7B
$GAGMP,064607.00,,,,,,04,,,,,*75
$GBGMP,064607.00,,,,,,04,,,,,*76
$PSSN,SNC,[0,283585000,2347]*45
$GPZDA,064612.00,01,01,2025,,*64
$GPDTM,W84,,00.0000000,N,00.0000000,E,00.0000000,W84*5F
$GPRMC,064612.00,A,4742.4466318,N,01617.9731567,E,0.0,,010125,5.1,E,D*1C
$GPGLL,4742.4466318,N,01617.9731567,E,064612.00,A,D*6D
$GPGGA,064612.00,4742.4466318,N,01617.9731567,E,2,21,0.7,625.3419,M,43.2111,M,3.4,0123*49
$GNGNS,064612.00,4742.4466318,N,01617.9731567,E,DAAA,21,0.7,625.3419,43.2111,,*52
$GPGNS,064612.00,,,,,,05,,,,3.4,123*78
$GLGNS,064612.00,,,,,,07,,,,,*7F
$GAGNS,064612.00,,,,,,05,,,,,*70
$GBGNS,064612.00,,,,,,04,,,,,*72
$GPLLQ,064612.00,010125,,M,,M,1,21,2.563,,M*17
$GPVTG,,T,,M,0.01,N,0.02,K,D*25
$GPHDT,,T*1B
$GPTHS,,V*0E
$GPROT,,V*08
$PSSN,HRP,064612.00,010125,,,,,,,00,0,,*66
$PTNL,AVR,064612.00,,Yaw,,Tilt,,,,0,,00*30
$GPGSA,A,3,07,13,14,20,30,,,,,,,,1.2,0.7,1.0*36
$GPGSA,A,3,65,71,72,73,74,75,81,,,,,,1.2,0.7,1.0*3B
$GPGSA,A,3,03,05,13,24,25,,,,,,,,1.2,0.7,1.0*32
$GPGSA,A,3,21,22,36,45,,,,,,,,,1.2,0.7,1.0*30
$GPGST,064612.00,3.521,1.150,0.885,16.305,1.131,0.909,2.113*67
$GPGBS,064612.00,4.093,3.909,7.765,13,0.0001,2.631,0.819*53
$GPGRS,064612.00,1,-0.1,2.6,-0.4,-0.6,-0.5,,,,,,,*65
$GPGRS,064612.00,1,-5.9,-4.2,5.6,0.6,2.5,-1.3,-6.4,,,,,*6F
$GPGRS,064612.00,1,-0.0,-1.0,1.2,0.7,0.9,,,,,,,*6B
$GPGRS,064612.00,1,-2.9,-4.2,-0.6,-1.4,,,,,,,,*47
$GPGSV,4,1,15,30,86,199,48,09,21,102,20,11,13,230,32,14,27,164,36*77
$GPGSV,4,2,15,13,30,285,39,05,46,299,31,07,54,059,45,20,59,241,45*7B
$GPGSV,4,3,15,18,03,341,,27,04,040,,08,05,071,,36,35,170,40*79
$GPGSV,4,4,15,34,31,208,,49,34,195,35,61,03,257,*47
$GLGSV,3,1,09,72,74,071,42,81,14,333,40,88,10,281,20,73,31,038,40*62
$GLGSV,3,2,09,71,27,116,44,75,39,187,43,65,36,316,49,74,70,085,37*6B
$GLGSV,3,3,09,82,01,015,*53
$GAGSV,3,1,11,03,62,298,45,31,16,037,25,13,19,318,37,08,12,284,26*6C
$GAGSV,3,2,11,15,26,262,29,25,31,154,35,24,44,088,41,16,44,126,*66
$GAGSV,3,3,11,05,59,086,40,09,08,098,,34,08,214,25*54
$GBGSV,5,1,18,22,69,136,41,46,16,045,,40,13,072,,19,16,130,19*6A
$GBGSV,5,2,18,09,19,058,28,05,21,129,35,10,14,092,,45,51,190,49*66
$GBGSV,5,3,18,50,29,306,,21,53,304,43,36,62,080,41,06,04,060,*62
$GBGSV,5,4,18,42,05,308,35,26,02,214,,16,02,059,,02,05,108,*6B
$GBGSV,5,5,18,58,02,038,,60,07,112,*65
$GPGGA,064612.00,,,,,0,00,,,M,,M,,*4F
$PTNL,GGK,064612.00,010125,4742.4466318,N,01617.9731567,E,1,21,1.2,EHT668.5530,M*40
$GPGGQ,064612.00,010125,4742.4466318,N,01617.9731567,E,1,21,2.563,625.3419,M*3A
$GPGFA,064612.00,10.934,17.324,1.150,0.885,16.305,2.113,,VVV*38
$GPLLK,064612.00,010125,,M,,M,1,21,1.4,,M*0A
$GNGMP,064612.00,,,,,DAAA,21,0.7,,,,*55
$GPGMP,064612.00,,,,,,05,,,,3.4,123*78
$GLGMP,064612.00,,,,,,07,,,,,*7F
$GAGMP,064612.00,,,,,,05,,,,,*70
$GBGMP,064612.00,,,,,,04,,,,,*72
$PSSN,SNC,[0,283590000,2347]*41
$GPZDA,064617.00,01,01,2025,,*61
$GPDTM,W84,,00.0000000,N,00.0000000,E,00.0000000,W84*5F
$GPRMC,064617.00,A,4742.4466224,N,01617.9731698,E,0.0,,010125,5.1,E,D*14
$GPGLL,4742.4466224,N,01617.9731698,E,064617.00,A,D*65
$GPGGA,064617.00,4742.4466224,N,01617.9731698,E,2,22,0.7,625.3684,M,43.2111,M,2.0,0123*41
$GNGNS,064617.00,4742.4466224,N,01617.9731698,E,DAAA,22,0.7,625.3684,43.2111,,*5F
$GPGNS,064617.00,,,,,,05,,,,2.0,123*78
$GLGNS,064617.00,,,,,,07,,,,,*7A
$GAGNS,064617.00,,,,,,06,,,,,*76
$GBGNS,064617.00,,,,,,04,,,,,*77
$GPLLQ,064617.00,010125,,M,,M,1,22,2.674,,M*14
$GPVTG,,T,,M,0.00,N,0.01,K,D*27
$GPHDT,,T*1B
$GPTHS,,V*0E
$GPROT,,V*08
$PSSN,HRP,064617.00,010125,,,,,,,00,0,,*63
$PTNL,AVR,064617.00,,Yaw,,Tilt,,,,0,,00*35
$GPGSA,A,3,07,13,14,20,30,,,,,,,,1.2,0.7,1.0*36
$GPGSA,A,3,65,71,72,73,74,75,81,,,,,,1.2,0.7,1.0*3B
$GPGSA,A,3,03,05,13,15,24,25,,,,,,,1.2,0.7,1.0*36
$GPGSA,A,3,21,22,36,45,,,,,,,,,1.2,0.7,1.0*30
$GPGST,064617.00,3.645,1.187,0.912,16.736,1.166,0.938,2.215*67
$GPGBS,064617.00,3.913,3.724,7.834,13,0.0001,2.828,0.779*55
$GPGRS,064617.00,1,0.5,2.8,-0.7,-1.1,-0.5,,,,,,,*42
$GPGRS,064617.00,1,-6.3,-4.4,6.2,0.8,0.5,1.0,-6.2,,,,,*46
$GPGRS,064617.00,1,-0.2,-0.8,1.7,2.2,0.3,0.4,,,,,,*47
$GPGRS,064617.00,1,-3.3,-5.0,-0.8,-2.1,,,,,,,,*42
$GPGSV,4,1,15,30,86,199,49,09,21,102,31,11,13,230,32,14,27,164,36*76
$GPGSV,4,2,15,13,30,285,39,05,46,299,32,07,54,059,45,20,59,241,45*78
$GPGSV,4,3,15,18,03,341,,27,04,040,,08,05,071,,36,35,170,40*79
$GPGSV,4,4,15,34,31,208,,49,34,195,34,61,03,257,*46
$GLGSV,3,1,09,72,74,071,41,81,14,333,38,88,10,281,33,73,31,038,41*6D
$GLGSV,3,2,09,71,27,116,45,75,39,188,43,65,36,316,49,74,70,085,37*65
$GLGSV,3,3,09,82,01,015,*53
$GAGSV,3,1,11,03,62,298,45,31,16,037,24,13,19,317,37,08,12,284,29*6D
$GAGSV,3,2,11,15,26,262,39,25,31,154,36,24,44,087,41,16,44,126,*6B
$GAGSV,3,3,11,05,59,086,41,09,08,098,,34,08,214,25*55
$GBGSV,5,1,18,22,69,136,38,46,16,045,,40,13,072,,19,16,130,21*6F
$GBGSV,5,2,18,09,19,058,28,05,21,129,35,10,14,092,,45,51,190,50*6E
$GBGSV,5,3,18,50,29,306,,21,53,304,43,36,62,080,41,06,04,060,*62
$GBGSV,5,4,18,42,05,308,35,26,02,214,,16,02,059,,02,05,108,*6B
$GBGSV,5,5,18,58,02,038,,60,07,112,*65
$GPGGA,064617.00,,,,,0,00,,,M,,M,,*4A
$PTNL,GGK,064617.00,010125,4742.4466224,N,01617.9731698,E,1,22,1.2,EHT668.5795,M*46
$GPGGQ,064617.00,010125,4742.4466224,N,01617.9731698,E,1,22,2.674,625.3684,M*32
$GPGFA,064617.00,11.284,18.167,1.187,0.912,16.736,2.215,,VVV*32
$GPLLK,064617.00,010125,,M,,M,1,22,1.4,,M*0C
$GNGMP,064617.00,,,,,DAAA,22,0.7,,,,*53
$GPGMP,064617.00,,,,,,05,,,,2.0,123*78
$GLGMP,064617.00,,,,,,07,,,,,*7A
$GAGMP,064617.00,,,,,,06,,,,,*76
$GBGMP,064617.00,,,,,,04,,,,,*77
$PSSN,SNC,[0,283595000,2347]*44
$GPZDA,064622.00,01,01,2025,,*67
$GPDTM,W84,,00.0000000,N,00.0000000,E,00.0000000,W84*5F
$GPRMC,064622.00,A,4742.4466054,N,01617.9731726,E,0.0,,010125,5.1,E,D*13
$GPGLL,4742.4466054,N,01617.9731726,E,064622.00,A,D*62
$GPGGA,064622.00,4742.4466054,N,01617.9731726,E,2,21,0.7,625.3883,M,43.2111,M,2.2,0123*4E
$GNGNS,064622.00,4742.4466054,N,01617.9731726,E,DAAA,21,0.7,625.3883,43.2111,,*52
$GPGNS,064622.00,,,,,,05,,,,2.2,123*7C
$GLGNS,064622.00,,,,,,06,,,,,*7D
$GAGNS,064622.00,,,,,,06,,,,,*70
$GBGNS,064622.00,,,,,,04,,,,,*71
$GPLLQ,064622.00,010125,,M,,M,1,21,2.662,,M*16
$GPVTG,,T,,M,0.00,N,0.00,K,D*26
$GPHDT,,T*1B
$GPTHS,,V*0E
$GPROT,,V*08
$PSSN,HRP,064622.00,010125,,,,,,,00,0,,*65
$PTNL,AVR,064622.00,,Yaw,,Tilt,,,,0,,00*33
$GPGSA,A,3,07,13,14,20,30,,,,,,,,1.3,0.7,1.1*36
$GPGSA,A,3,65,71,72,73,74,75,,,,,,,1.3,0.7,1.1*32
$GPGSA,A,3,03,05,13,15,24,25,,,,,,,1.3,0.7,1.1*36
$GPGSA,A,3,21,22,36,45,,,,,,,,,1.3,0.7,1.1*30
$GPGST,064622.00,3.227,1.162,0.895,15.049,1.146,0.916,2.221*61
$GPGBS,064622.00,3.942,3.693,7.707,20,0.0001,-1.643,0.619*7F
$GPGRS,064622.00,1,1.1,1.9,-0.4,-1.6,-0.4,,,,,,,*46
$GPGRS,064622.00,1,-6.2,-3.4,4.5,1.1,1.1,3.1,,,,,,*4A
$GPGRS,064622.00,1,-0.5,-0.1,1.0,1.6,-0.0,0.5,,,,,,*60
$GPGRS,064622.00,1,-3.8,-5.6,0.4,-2.4,,,,,,,,*6D
$GPGSV,4,1,15,30,86,198,50,09,20,102,29,11,13,230,31,14,27,164,37*75
$GPGSV,4,2,15,13,30,285,35,05,46,299,31,07,54,059,44,20,59,241,45*76
$GPGSV,4,3,15,18,03,341,,27,04,040,,08,05,071,,36,35,170,40*79
$GPGSV,4,4,15,34,31,208,,49,34,195,34,61,03,257,*46
$GLGSV,3,1,09,72,74,071,42,81,14,333,34,88,10,281,32,73,30,037,43*6F
$GLGSV,3,2,09,71,27,116,46,75,39,188,42,65,36,316,49,74,70,084,37*66
$GLGSV,3,3,09,82,01,015,*53
$GAGSV,3,1,11,03,62,298,45,31,16,037,21,13,19,317,36,08,12,284,31*60
$GAGSV,3,2,11,15,26,262,27,25,31,154,36,24,44,087,41,16,44,126,*64
$GAGSV,3,3,11,05,59,086,42,09,08,098,,34,08,214,24*57
$GBGSV,5,1,18,22,69,136,37,46,16,045,,40,13,072,,19,16,130,*63
$GBGSV,5,2,18,09,19,058,27,05,21,129,34,10,14,092,,45,51,190,49*68
$GBGSV,5,3,18,50,29,306,,21,53,304,43,36,62,080,41,06,04,060,*62
$GBGSV,5,4,18,42,05,308,35,26,02,214,,16,02,059,,02,05,108,*6B
$GBGSV,5,5,18,58,02,038,,60,07,112,*65
$GPGGA,064622.00,,,,,0,00,,,M,,M,,*4C
$PTNL,GGK,064622.00,010125,4742.4466054,N,01617.9731726,E,1,21,1.3,EHT668.5994,M*4C
$GPGGQ,064622.00,010125,4742.4466054,N,01617.9731726,E,1,21,2.662,625.3883,M*38
$GPGFA,064622.00,11.050,18.210,1.162,0.895,15.049,2.221,,VVV*32
$GPLLK,064622.00,010125,,M,,M,1,21,1.5,,M*08
$GNGMP,064622.00,,,,,DAAA,21,0.7,,,,*56
$GPGMP,064622.00,,,,,,05,,,,2.2,123*7C
$GLGMP,064622.00,,,,,,06,,,,,*7D
$GAGMP,064622.00,,,,,,06,,,,,*70
$GBGMP,064622.00,,,,,,04,,,,,*71
$PSSN,SNC,[0,283600000,2347]*4B
$GPZDA,064627.00,01,01,2025,,*62
$GPDTM,W84,,00.0000000,N,00.0000000,E,00.0000000,W84*5F
$GPRMC,064627.00,A,4742.4466041,N,01617.9731592,E,0.0,,010125,5.1,E,D*1F
$GPGLL,4742.4466041,N,01617.9731592,E,064627.00,A,D*6E
$GPGGA,064627.00,4742.4466041,N,01617.9731592,E,2,18,0.7,625.3894,M,43.2111,M,2.3,0123*4F
$GNGNS,064627.00,4742.4466041,N,01617.9731592,E,DAAA,18,0.7,625.3894,43.2111,,*52
$GPGNS,064627.00,,,,,,04,,,,2.3,123*79
$GLGNS,064627.00,,,,,,06,,,,,*78
$GAGNS,064627.00,,,,,,05,,,,,*76
$GBGNS,064627.00,,,,,,03,,,,,*73
$GPLLQ,064627.00,010125,,M,,M,1,18,4.730,,M*19
$GPVTG,,T,,M,0.01,N,0.01,K,D*26
$GPHDT,,T*1B
$GPTHS,,V*0E
$GPROT,,V*08
$PSSN,HRP,064627.00,010125,,,,,,,00,0,,*60
$PTNL,AVR,064627.00,,Yaw,,Tilt,,,,0,,00*36
$GPGSA,A,3,07,14,20,30,,,,,,,,,1.5,0.7,1.3*30
$GPGSA,A,3,65,71,72,73,74,75,,,,,,,1.5,0.7,1.3*36
$GPGSA,A,3,03,05,15,24,25,,,,,,,,1.5,0.7,1.3*30
$GPGSA,A,3,21,36,45,,,,,,,,,,1.5,0.7,1.3*34
$GPGST,064627.00,2.932,2.230,0.969,324.329,1.897,1.520,4.058*5C
$GPGBS,064627.00,6.857,7.404,19.194,20,0.0001,-1.473,0.632*49
$GPGRS,064627.00,1,-1.0,1.3,-1.5,1.0,,,,,,,,*49
$GPGRS,064627.00,1,-5.2,-0.6,3.4,3.0,2.9,3.5,,,,,,*47
$GPGRS,064627.00,1,0.4,1.0,1.8,0.9,1.7,,,,,,,*62
$GPGRS,064627.00,1,-2.6,1.8,-1.4,,,,,,,,,*69
$GPGSV,4,1,15,30,86,198,50,09,20,102,27,11,13,230,32,14,27,164,38*77
$GPGSV,4,2,15,13,30,285,,05,46,299,33,07,54,059,43,20,59,241,44*74
$GPGSV,4,3,15,18,03,341,,27,04,040,,08,05,071,,36,35,170,40*79
$GPGSV,4,4,15,34,31,208,,49,34,195,35,61,03,257,*47
$GLGSV,3,1,09,72,74,071,41,81,14,333,32,88,10,281,21,73,30,037,44*6F
$GLGSV,3,2,09,71,27,116,47,75,39,188,40,65,36,316,49,74,70,084,36*64
$GLGSV,3,3,09,82,01,015,*53
$GAGSV,3,1,11,03,62,298,44,31,16,037,25,13,19,317,35,08,13,284,31*67
$GAGSV,3,2,11,15,26,262,27,25,31,154,36,24,44,087,42,16,44,126,*67
$GAGSV,3,3,11,05,59,086,42,09,08,098,,34,08,214,22*51
$GBGSV,5,1,18,22,69,136,35,46,16,045,,40,13,072,,19,16,130,*61
$GBGSV,5,2,18,09,19,058,25,05,21,129,34,10,14,092,,45,51,190,50*62
$GBGSV,5,3,18,50,29,306,,21,53,304,45,36,62,080,40,06,04,060,*65
$GBGSV,5,4,18,42,05,308,35,26,02,214,,16,02,059,,02,05,108,*6B
$GBGSV,5,5,18,58,02,038,,60,07,112,*65
$GPGGA,064627.00,,,,,0,00,,,M,,M,,*49
$PTNL,GGK,064627.00,010125,4742.4466041,N,01617.9731592,E,1,18,1.5,EHT668.6005,M*4E
$GPGGQ,064627.00,010125,4742.4466041,N,01617.9731592,E,1,18,4.730,625.3894,M*38
$GPGFA,064627.00,21.198,33.272,2.230,0.969,324.329,4.058,,VVV*07
$GPLLK,064627.00,010125,,M,,M,1,18,1.8,,M*0A
$GNGMP,064627.00,,,,,DAAA,18,0.7,,,,*59
$GPGMP,064627.00,,,,,,04,,,,2.3,123*79
$GLGMP,064627.00,,,,,,06,,,,,*78
$GAGMP,064627.00,,,,,,05,,,,,*76
$GBGMP,064627.00,,,,,,03,,,,,*73
$PSSN,SNC,[0,283605000,2347]*4E
$GPZDA,064632.00,01,01,2025,,*66
$GPDTM,W84,,00.0000000,N,00.0000000,E,00.0000000,W84*5F
$GPRMC,064632.00,A,4742.4466201,N,01617.9731594,E,0.0,,010125,5.1,E,D*1B
$GPGLL,4742.4466201,N,01617.9731594,E,064632.00,A,D*6A
$GPGGA,064632.00,4742.4466201,N,01617.9731594,E,2,18,0.7,625.3946,M,43.2111,M,3.3,0123*44
$GNGNS,064632.00,4742.4466201,N,01617.9731594,E,DAAA,18,0.7,625.3946,43.2111,,*58
$GPGNS,064632.00,,,,,,04,,,,3.3,123*7C
$GLGNS,064632.00,,,,,,07,,,,,*7D
$GAGNS,064632.00,,,,,,04,,,,,*73
$GBGNS,064632.00,,,,,,03,,,,,*77
$GPLLQ,064632.00,010125,,M,,M,1,18,7.618,,M*15
$GPVTG,,T,,M,0.00,N,0.00,K,D*26
$GPHDT,,T*1B
$GPTHS,,V*0E
$GPROT,,V*08
$PSSN,HRP,064632.00,010125,,,,,,,00,0,,*64
$PTNL,AVR,064632.00,,Yaw,,Tilt,,,,0,,00*32
$GPGSA,A,3,07,14,20,30,,,,,,,,,1.4,0.7,1.1*33
$GPGSA,A,3,65,71,72,73,74,75,81,,,,,,1.4,0.7,1.1*3C
$GPGSA,A,3,03,05,24,25,,,,,,,,,1.4,0.7,1.1*37
$GPGSA,A,3,21,36,45,,,,,,,,,,1.4,0.7,1.1*37
$GPGST,064632.00,4.146,3.638,1.624,322.892,3.063,2.549,6.492*5F
$GPGBS,064632.00,6.490,7.329,17.303,07,0.0001,-2.610,0.704*45
$GPGRS,064632.00,1,-2.6,2.7,-1.2,1.3,,,,,,,,*4B
$GPGRS,064632.00,1,-4.7,1.6,2.9,7.3,4.3,4.9,-4.5,,,,,*65
