$GPZDA,175942.00,01,01,2025,,*6F
$GPDTM,W84,,00.0000000,N,00.0000000,E,00.0000000,W84*5F
$GPRMC,175942.00,A,4742.4467129,N,01617.9729545,E,0.0,,010125,5.1,E,D*1F
$GPGLL,4742.4467129,N,01617.9729545,E,175942.00,A,D*6E
$GPGGA,175942.00,4742.4467129,N,01617.9729545,E,2,20,0.7,625.2186,M,43.2111,M,3.0,0123*4D
$GNGNS,175942.00,4742.4467129,N,01617.9729545,E,DAAA,20,0.7,625.2186,43.2111,,*52
$GPGNS,175942.00,,,,,,04,,,,3.0,123*76
$GLGNS,175942.00,,,,,,05,,,,,*76
$GAGNS,175942.00,,,,,,04,,,,,*7A
$GBGNS,175942.00,,,,,,07,,,,,*7A
$GPLLQ,175942.00,010125,,M,,M,1,20,1.997,,M*19
$GPVTG,,T,,M,0.01,N,0.02,K,D*25
$GPHDT,,T*1B
$GPTHS,,V*0E
$GPROT,,V*08
$PSSN,HRP,175942.00,010125,,,,,,,00,0,,*6D
$PTNL,AVR,175942.00,,Yaw,,Tilt,,,,0,,00*3B
$GPGSA,A,3,16,18,23,26,,,,,,,,,1.5,0.7,1.3*38
$GPGSA,A,3,73,79,80,81,82,,,,,,,,1.5,0.7,1.3*32
$GPGSA,A,3,13,15,21,27,,,,,,,,,1.5,0.7,1.3*33
$GPGSA,A,3,08,11,13,23,28,34,43,,,,,,1.5,0.7,1.3*32
$GPGST,175942.00,2.410,1.211,0.529,37.060,1.018,0.843,1.498*60
$GPGBS,175942.00,7.723,6.418,10.316,18,0.0001,0.505,0.624*64
$GPGRS,175942.00,1,-0.5,0.5,-0.5,-0.2,,,,,,,,*68
$GPGRS,175942.00,1,3.4,1.2,-1.3,1.3,-0.8,,,,,,,*60
$GPGRS,175942.00,1,0.1,-0.1,0.3,-1.5,,,,,,,,*45
$GPGRS,175942.00,1,3.3,1.6,-2.6,-2.3,-5.3,0.4,1.1,,,,,*41
$GPGSV,4,1,15,18,80,089,50,23,28,149,36,05,20,043,,31,23,229,28*7F
$GPGSV,4,2,15,27,20,281,26,16,49,302,37,29,34,084,35,26,69,246,49*7C
$GPGSV,4,3,15,28,08,207,20,10,01,176,,25,04,145,,36,35,170,39*73
$GPGSV,4,4,15,34,31,208,34,49,34,195,36,61,03,257,*43
$GLGSV,2,1,08,82,74,311,47,65,16,031,,66,14,080,,79,26,175,41*60
$GLGSV,2,2,08,73,31,322,46,83,37,250,25,81,41,044,40,80,67,239,52*6B
$GAGSV,3,1,10,21,65,291,48,26,12,222,,23,15,313,,14,15,274,*6C
$GAGSV,3,2,10,27,53,154,38,15,57,056,48,13,63,209,43,09,01,355,*69
$GAGSV,3,3,10,30,05,140,,34,07,046,*68
$GBGSV,6,1,21,43,82,021,48,60,10,109,,58,11,325,,21,18,069,33*6E
$GBGSV,6,2,21,25,14,177,29,50,17,093,,42,12,118,,38,28,041,29*6F
$GBGSV,6,3,21,05,22,129,,28,29,255,37,08,40,050,36,37,37,299,34*6C
$GBGSV,6,4,21,34,34,068,45,23,49,224,36,13,44,061,45,11,59,057,50*67
$GBGSV,6,5,21,02,07,106,,14,02,141,,56,01,089,,12,07,068,*63
$GBGSV,6,6,21,22,05,021,*5E
$GPGGA,175942.00,,,,,0,00,,,M,,M,,*44
$PTNL,GGK,175942.00,010125,4742.4467129,N,01617.9729545,E,1,20,1.5,EHT668.4296,M*4F
$GPGGQ,175942.00,010125,4742.4467129,N,01617.9729545,E,1,20,1.997,625.2186,M*3E
$GPGFA,175942.00,11.518,12.280,1.211,0.529,37.060,1.498,,VVV*31
$GPLLK,175942.00,010125,,M,,M,1,20,1.8,,M*0C
$GNGMP,175942.00,,,,,DAAA,20,0.7,,,,*5F
$GPGMP,175942.00,,,,,,04,,,,3.0,123*76
$GLGMP,175942.00,,,,,,05,,,,,*76
$GAGMP,175942.00,,,,,,04,,,,,*7A
$GBGMP,175942.00,,,,,,07,,,,,*7A
$PSSN,SNC,[0,324000000,2347]*41
$GPZDA,175947.00,01,01,2025,,*6A
$GPDTM,W84,,00.0000000,N,00.0000000,E,00.0000000,W84*5F
$GPRMC,175947.00,A,4742.4467132,N,01617.9729496,E,0.0,,010125,5.1,E,D*1F
$GPGLL,4742.4467132,N,01617.9729496,E,175947.00,A,D*6E
$GPGGA,175947.00,4742.4467132,N,01617.9729496,E,2,22,0.7,625.2033,M,43.2111,M,3.5,0123*45
$GNGNS,175947.00,4742.4467132,N,01617.9729496,E,DAAA,22,0.7,625.2033,43.2111,,*5F
$GPGNS,175947.00,,,,,,04,,,,3.5,123*76
$GLGNS,175947.00,,,,,,06,,,,,*70
$GAGNS,175947.00,,,,,,04,,,,,*7F
$GBGNS,175947.00,,,,,,08,,,,,*70
$GPLLQ,175947.00,010125,,M,,M,1,22,4.067,,M*1D
$GPVTG,,T,,M,0.00,N,0.01,K,D*27
$GPHDT,,T*1B
$GPTHS,,V*0E
$GPROT,,V*08
$PSSN,HRP,175947.00,010125,,,,,,,00,0,,*68
$PTNL,AVR,175947.00,,Yaw,,Tilt,,,,0,,00*3E
$GPGSA,A,3,16,18,26,29,,,,,,,,,1.4,0.7,1.2*32
$GPGSA,A,3,73,79,80,81,82,83,,,,,,,1.4,0.7,1.2*39
$GPGSA,A,3,13,15,21,27,,,,,,,,,1.4,0.7,1.2*33
$GPGSA,A,3,08,11,13,23,28,34,37,43,,,,,1.4,0.7,1.2*36
$GPGST,175947.00,3.782,2.177,0.880,8.732,2.156,0.930,3.321*54
$GPGBS,175947.00,9.887,3.910,16.160,16,0.0001,-1.662,0.738*47
$GPGRS,175947.00,1,-1.7,0.9,0.4,-1.1,,,,,,,,*4C
$GPGRS,175947.00,1,4.4,0.8,-1.2,7.9,-0.6,0.8,,,,,,*4C
$GPGRS,175947.00,1,0.8,0.2,0.7,-1.0,,,,,,,,*66
$GPGRS,175947.00,1,4.3,1.7,-2.4,-1.5,-6.1,1.1,7.1,2.3,,,,*69
$GPGSV,4,1,15,18,80,089,49,23,28,149,34,05,20,043,32,31,22,229,24*79
$GPGSV,4,2,15,27,20,281,26,16,49,302,36,29,34,084,35,26,69,246,50*75
$GPGSV,4,3,15,28,08,207,21,10,01,176,,25,04,145,,36,35,170,39*72
$GPGSV,4,4,15,34,31,208,34,49,34,195,36,61,03,257,*43
$GLGSV,2,1,08,82,74,311,48,65,16,031,31,66,14,080,,79,26,175,39*62
$GLGSV,2,2,08,73,31,322,47,83,38,250,29,81,40,044,40,80,67,239,52*68
$GAGSV,3,1,10,21,65,291,47,26,12,222,,23,15,313,,14,15,274,*63
$GAGSV,3,2,10,27,53,154,38,15,57,056,47,13,64,209,44,09,01,355,*66
$GAGSV,3,3,10,30,05,140,,34,07,046,*68
$GBGSV,6,1,21,43,82,022,48,60,10,109,,58,11,325,,21,18,069,31*6F
$GBGSV,6,2,21,25,14,177,28,50,17,093,,42,12,118,,38,28,041,28*6F
$GBGSV,6,3,21,05,22,129,,28,29,255,36,08,40,050,37,37,37,299,35*6D
$GBGSV,6,4,21,34,34,068,46,23,49,224,36,13,44,061,45,11,59,057,49*6C
$GBGSV,6,5,21,02,07,106,,14,02,141,,56,01,089,,12,07,068,*63
$GBGSV,6,6,21,22,05,021,*5E
$GPGGA,175947.00,,,,,0,00,,,M,,M,,*41
$PTNL,GGK,175947.00,010125,4742.4467132,N,01617.9729496,E,1,22,1.4,EHT668.4144,M*40
$GPGGQ,175947.00,010125,4742.4467132,N,01617.9729496,E,1,22,4.067,625.2033,M*30
$GPGFA,175947.00,20.698,27.232,2.177,0.880,8.732,3.321,,VVV*07
$GPLLK,175947.00,010125,,M,,M,1,22,1.7,,M*04
$GNGMP,175947.00,,,,,DAAA,22,0.7,,,,*58
$GPGMP,175947.00,,,,,,04,,,,3.5,123*76
$GLGMP,175947.00,,,,,,06,,,,,*70
$GAGMP,175947.00,,,,,,04,,,,,*7F
$GBGMP,175947.00,,,,,,08,,,,,*70
$PSSN,SNC,[0,324005000,2347]*44
$GPZDA,175952.00,01,01,2025,,*6E
$GPDTM,W84,,00.0000000,N,00.0000000,E,00.0000000,W84*5F
$GPRMC,175952.00,A,4742.4467121,N,01617.9729250,E,0.0,,010125,5.1,E,D*15
$GPGLL,4742.4467121,N,01617.9729250,E,175952.00,A,D*64
$GPGGA,175952.00,4742.4467121,N,01617.9729250,E,2,21,0.7,625.2130,M,43.2111,M,1.5,0123*4C
$GNGNS,175952.00,4742.4467121,N,01617.9729250,E,DAAA,21,0.7,625.2130,43.2111,,*54
$GPGNS,175952.00,,,,,,04,,,,1.5,123*70
$GLGNS,175952.00,,,,,,05,,,,,*77
$GAGNS,175952.00,,,,,,04,,,,,*7B
$GBGNS,175952.00,,,,,,08,,,,,*74
$GPLLQ,175952.00,010125,,M,,M,1,21,4.183,,M*11
$GPVTG,,T,,M,0.01,N,0.01,K,D*26
$GPHDT,,T*1B
$GPTHS,,V*0E
$GPROT,,V*08
$PSSN,HRP,175952.00,010125,,,,,,,00,0,,*6C
$PTNL,AVR,175952.00,,Yaw,,Tilt,,,,0,,00*3A
$GPGSA,A,3,16,18,26,29,,,,,,,,,1.5,0.7,1.3*32
$GPGSA,A,3,73,79,80,81,82,,,,,,,,1.5,0.7,1.3*32
$GPGSA,A,3,13,15,21,27,,,,,,,,,1.5,0.7,1.3*33
$GPGSA,A,3,08,11,13,23,28,34,37,43,,,,,1.5,0.7,1.3*36
$GPGST,175952.00,3.789,2.439,0.859,10.321,2.404,0.951,3.288*68
$GPGBS,175952.00,10.118,3.722,16.419,29,0.0001,2.112,0.819*5E
$GPGRS,175952.00,1,-1.1,0.1,0.0,2.1,,,,,,,,*6C
$GPGRS,175952.00,1,4.6,-2.3,-1.8,10.6,-1.2,,,,,,,*7E
$GPGRS,175952.00,1,-0.2,-0.3,-0.1,-2.1,,,,,,,,*40
$GPGRS,175952.00,1,3.5,-0.1,-3.2,-0.2,-3.2,0.3,3.3,2.0,,,,*47
$GPGSV,4,1,15,18,80,089,49,23,28,148,32,05,20,043,,31,22,229,24*7F
$GPGSV,4,2,15,27,20,281,26,16,49,302,36,29,34,084,38,26,69,246,51*79
$GPGSV,4,3,15,28,08,207,21,10,01,176,,25,04,145,,36,35,170,39*72
$GPGSV,4,4,15,34,31,208,34,49,34,195,36,61,03,257,*43
$GLGSV,2,1,08,82,74,311,48,65,16,031,34,66,14,080,,79,26,175,38*66
$GLGSV,2,2,08,73,31,322,48,83,38,250,29,81,40,044,40,80,67,239,52*67
$GAGSV,3,1,10,21,65,291,46,26,12,222,,23,15,313,,14,15,274,*62
$GAGSV,3,2,10,27,53,154,37,15,57,056,47,13,64,209,44,09,01,355,*69
$GAGSV,3,3,10,30,05,140,,34,07,046,*68
$GBGSV,6,1,21,43,82,022,48,60,10,109,,58,11,325,,21,18,069,29*66
$GBGSV,6,2,21,25,14,177,26,50,17,093,,42,12,117,,38,28,041,28*6E
$GBGSV,6,3,21,05,22,129,,28,29,255,36,08,40,050,37,37,37,299,36*6E
$GBGSV,6,4,21,34,34,068,47,23,49,224,39,13,44,060,44,11,59,057,47*6C
$GBGSV,6,5,21,02,07,106,,14,02,141,,56,01,089,,12,07,068,*63
$GBGSV,6,6,21,22,05,021,*5E
$GPGGA,175952.00,,,,,0,00,,,M,,M,,*45
$PTNL,GGK,175952.00,010125,4742.4467121,N,01617.9729250,E,1,21,1.5,EHT668.4240,M*4F
$GPGGQ,175952.00,010125,4742.4467121,N,01617.9729250,E,1,21,4.183,625.2130,M*30
$GPGFA,175952.00,23.189,26.963,2.439,0.859,10.321,3.288,,VVV*3F
$GPLLK,175952.00,010125,,M,,M,1,21,1.8,,M*0C
$GNGMP,175952.00,,,,,DAAA,21,0.7,,,,*5F
$GPGMP,175952.00,,,,,,04,,,,1.5,123*70
$GLGMP,175952.00,,,,,,05,,,,,*77
$GAGMP,175952.00,,,,,,04,,,,,*7B
$GBGMP,175952.00,,,,,,08,,,,,*74
$PSSN,SNC,[0,324010000,2347]*40
$GPZDA,175957.00,01,01,2025,,*6B
$GPDTM,W84,,00.0000000,N,00.0000000,E,00.0000000,W84*5F
$GPRMC,175957.00,A,4742.4467049,N,01617.9728987,E,0.0,,010125,5.1,E,D*1F
$GPGLL,4742.4467049,N,01617.9728987,E,175957.00,A,D*6E
$GPGGA,175957.00,4742.4467049,N,01617.9728987,E,2,21,0.7,625.2276,M,43.2111,M,2.5,0123*44
$GNGNS,175957.00,4742.4467049,N,01617.9728987,E,DAAA,21,0.7,625.2276,43.2111,,*5F
$GPGNS,175957.00,,,,,,04,,,,2.5,123*76
$GLGNS,175957.00,,,,,,05,,,,,*72
$GAGNS,175957.00,,,,,,04,,,,,*7E
$GBGNS,175957.00,,,,,,08,,,,,*71
$GPLLQ,175957.00,010125,,M,,M,1,21,4.505,,M*1E
$GPVTG,,T,,M,0.01,N,0.02,K,D*25
$GPHDT,,T*1B
$GPTHS,,V*0E
$GPROT,,V*08
$PSSN,HRP,175957.00,010125,,,,,,,00,0,,*69
$PTNL,AVR,175957.00,,Yaw,,Tilt,,,,0,,00*3F
$GPGSA,A,3,16,18,26,29,,,,,,,,,1.5,0.7,1.3*32
$GPGSA,A,3,73,79,80,81,82,,,,,,,,1.5,0.7,1.3*32
$GPGSA,A,3,13,15,21,27,,,,,,,,,1.5,0.7,1.3*33
$GPGSA,A,3,08,11,13,23,28,34,37,43,,,,,1.5,0.7,1.3*36
$GPGST,175957.00,4.045,2.871,1.004,5.987,2.857,1.043,3.323*5F
$GPGBS,175957.00,10.134,3.758,16.564,29,0.0001,2.562,0.833*58
$GPGRS,175957.00,1,0.9,-0.8,-0.7,2.6,,,,,,,,*44
$GPGRS,175957.00,1,4.5,-5.1,-2.7,10.0,-2.0,,,,,,,*76
$GPGRS,175957.00,1,-1.4,-1.0,-0.9,-3.1,,,,,,,,*49
$GPGRS,175957.00,1,3.0,-2.9,-3.7,-0.1,-2.4,-0.6,-2.9,1.8,,,,*49
$GPGSV,4,1,15,18,80,089,49,23,28,148,34,05,20,043,26,31,22,229,24*7D
$GPGSV,4,2,15,27,20,281,26,16,49,302,36,29,34,084,40,26,69,246,51*76
$GPGSV,4,3,15,28,08,207,21,10,01,176,,25,04,145,,36,35,170,38*73
$GPGSV,4,4,15,34,31,208,34,49,34,195,36,61,03,257,*43
$GLGSV,2,1,08,82,74,311,47,65,16,031,32,66,14,080,,79,26,175,38*6F
$GLGSV,2,2,08,73,31,322,49,83,38,250,27,81,40,044,41,80,67,239,52*69
$GAGSV,3,1,10,21,65,291,46,26,12,222,,23,15,313,,14,15,274,*62
$GAGSV,3,2,10,27,53,154,38,15,57,056,47,13,64,209,44,09,01,355,*66
$GAGSV,3,3,10,30,05,140,,34,07,046,*68
$GBGSV,6,1,21,43,82,022,48,60,10,109,,58,11,325,,21,18,069,28*67
$GBGSV,6,2,21,25,14,177,25,50,17,093,,42,12,117,,38,28,041,29*6C
$GBGSV,6,3,21,05,22,129,,28,29,255,37,08,40,050,37,37,37,299,36*6F
$GBGSV,6,4,21,34,34,068,48,23,49,224,41,13,44,060,44,11,59,057,46*6D
$GBGSV,6,5,21,02,07,106,,14,02,141,,56,01,089,,12,07,068,*63
$GBGSV,6,6,21,22,05,021,*5E
$GPGGA,175957.00,,,,,0,00,,,M,,M,,*40
$PTNL,GGK,175957.00,010125,4742.4467049,N,01617.9728987,E,1,21,1.5,EHT668.4387,M*4F
$GPGGQ,175957.00,010125,4742.4467049,N,01617.9728987,E,1,21,4.505,625.2276,M*31
$GPGFA,175957.00,27.296,27.246,2.871,1.004,5.987,3.323,,VVV*0D
$GPLLK,175957.00,010125,,M,,M,1,21,1.8,,M*09
$GNGMP,175957.00,,,,,DAAA,21,0.7,,,,*5A
$GPGMP,175957.00,,,,,,04,,,,2.5,123*76
$GLGMP,175957.00,,,,,,05,,,,,*72
$GAGMP,175957.00,,,,,,04,,,,,*7E
$GBGMP,175957.00,,,,,,08,,,,,*71
$PSSN,SNC,[0,324015000,2347]*45
$GPZDA,180002.00,01,01,2025,,*68
$GPDTM,W84,,00.0000000,N,00.0000000,E,00.0000000,W84*5F
$GPRMC,180002.00,A,4742.4466989,N,01617.9728815,E,0.0,,010125,5.1,E,D*12
$GPGLL,4742.4466989,N,01617.9728815,E,180002.00,A,D*63
$GPGGA,180002.00,4742.4466989,N,01617.9728815,E,2,21,0.7,625.2486,M,43.2111,M,2.5,0123*40
$GNGNS,180002.00,4742.4466989,N,01617.9728815,E,DAAA,21,0.7,625.2486,43.2111,,*5B
$GPGNS,180002.00,,,,,,04,,,,2.5,123*75
$GLGNS,180002.00,,,,,,05,,,,,*71
$GAGNS,180002.00,,,,,,04,,,,,*7D
$GBGNS,180002.00,,,,,,08,,,,,*72
$GPLLQ,180002.00,010125,,M,,M,1,21,5.700,,M*1B
$GPVTG,,T,,M,0.01,N,0.02,K,D*25
$GPHDT,,T*1B
$GPTHS,,V*0E
$GPROT,,V*08
$PSSN,HRP,180002.00,010125,,,,,,,00,0,,*6A
$PTNL,AVR,180002.00,,Yaw,,Tilt,,,,0,,00*3C
$GPGSA,A,3,18,23,26,29,,,,,,,,,1.4,0.7,1.2*34
$GPGSA,A,3,73,79,80,81,82,,,,,,,,1.4,0.7,1.2*32
$GPGSA,A,3,13,15,21,27,,,,,,,,,1.4,0.7,1.2*33
$GPGSA,A,3,08,11,13,23,28,34,37,43,,,,,1.4,0.7,1.2*36
$GPGST,180002.00,4.752,2.830,1.359,321.085,2.362,2.069,4.758*54
$GPGBS,180002.00,7.572,8.260,19.627,23,0.0001,2.180,0.839*6D
$GPGRS,180002.00,1,-1.1,2.2,-0.7,1.4,,,,,,,,*47
$GPGRS,180002.00,1,4.7,-5.5,-3.5,12.5,-3.1,,,,,,,*77
$GPGRS,180002.00,1,-1.6,-1.0,-1.1,-3.0,,,,,,,,*40
$GPGRS,180002.00,1,2.7,-4.5,-3.7,-0.7,-3.0,-1.0,-2.6,2.5,,,,*43
$GPGSV,4,1,15,18,80,088,48,23,28,148,37,05,20,042,25,31,22,229,25*7D
$GPGSV,4,2,15,27,20,281,39,16,49,302,35,29,34,084,41,26,69,246,52*79
$GPGSV,4,3,15,28,08,207,20,10,02,176,,25,04,145,,36,35,170,38*71
$GPGSV,4,4,15,34,31,208,34,49,34,195,36,61,03,257,*43
$GLGSV,2,1,08,82,74,312,46,65,16,031,32,66,14,080,,79,26,175,39*6C
$GLGSV,2,2,08,73,31,322,48,83,38,250,27,81,40,044,42,80,67,239,51*68
$GAGSV,3,1,10,21,65,291,45,26,12,222,,23,15,313,,14,15,274,*61
$GAGSV,3,2,10,27,53,154,38,15,57,056,47,13,64,209,45,09,01,355,*67
$GAGSV,3,3,10,30,05,140,,34,07,046,19*60
$GBGSV,6,1,21,43,82,022,48,60,10,109,,58,11,325,,21,18,069,*6D
$GBGSV,6,2,21,25,14,177,24,50,17,093,,42,12,117,,38,28,041,30*65
$GBGSV,6,3,21,05,22,129,,28,29,255,37,08,40,050,37,37,37,299,36*6F
$GBGSV,6,4,21,34,34,068,49,23,49,224,42,13,44,060,44,11,59,057,45*6C
$GBGSV,6,5,21,02,07,106,,14,02,141,,56,01,089,,12,07,068,*63
$GBGSV,6,6,21,22,05,021,*5E
$GPGGA,180002.00,,,,,0,00,,,M,,M,,*43
$PTNL,GGK,180002.00,010125,4742.4466989,N,01617.9728815,E,1,21,1.4,EHT668.4597,M*44
$GPGGQ,180002.00,010125,4742.4466989,N,01617.9728815,E,1,21,5.700,625.2486,M*33
$GPGFA,180002.00,26.910,39.012,2.830,1.359,321.085,4.758,,VVV*09
$GPLLK,180002.00,010125,,M,,M,1,21,1.7,,M*05
$GNGMP,180002.00,,,,,DAAA,21,0.7,,,,*59
$GPGMP,180002.00,,,,,,04,,,,2.5,123*75
$GLGMP,180002.00,,,,,,05,,,,,*71
$GAGMP,180002.00,,,,,,04,,,,,*7D
$GBGMP,180002.00,,,,,,08,,,,,*72
$PSSN,SNC,[0,324020000,2347]*43
$GPZDA,180007.00,01,01,2025,,*6D
$GPDTM,W84,,00.0000000,N,00.0000000,E,00.0000000,W84*5F
$GPRMC,180007.00,A,4742.4467059,N,01617.9728574,E,0.0,,010125,5.1,E,D*18
$GPGLL,4742.4467059,N,01617.9728574,E,180007.00,A,D*69
$GPGGA,180007.00,4742.4467059,N,01617.9728574,E,2,20,0.7,625.2783,M,43.2111,M,3.5,0123*4C
$GNGNS,180007.00,4742.4467059,N,01617.9728574,E,DAAA,20,0.7,625.2783,43.2111,,*56
$GPGNS,180007.00,,,,,,04,,,,3.5,123*71
$GLGNS,180007.00,,,,,,05,,,,,*74
$GAGNS,180007.00,,,,,,04,,,,,*78
$GBGNS,180007.00,,,,,,07,,,,,*78
$GPLLQ,180007.00,010125,,M,,M,1,20,6.800,,M*13
$GPVTG,,T,,M,0.00,N,0.00,K,D*26
$GPHDT,,T*1B
$GPTHS,,V*0E
$GPROT,,V*08
$PSSN,HRP,180007.00,010125,,,,,,,00,0,,*6F
$PTNL,AVR,180007.00,,Yaw,,Tilt,,,,0,,00*39
$GPGSA,A,3,18,23,26,29,,,,,,,,,1.5,0.7,1.3*34
$GPGSA,A,3,73,79,80,81,82,,,,,,,,1.5,0.7,1.3*32
$GPGSA,A,3,13,15,21,27,,,,,,,,,1.5,0.7,1.3*33
$GPGSA,A,3,08,11,13,23,28,34,43,,,,,,1.5,0.7,1.3*32
$GPGST,180007.00,6.176,3.381,1.592,319.982,2.784,2.492,5.682*5C
$GPGBS,180007.00,7.737,8.762,20.754,81,0.0001,18.673,6.119*56
$GPGRS,180007.00,1,-1.5,2.2,-0.6,1.1,,,,,,,,*42
$GPGRS,180007.00,1,3.7,-5.1,-3.5,18.7,-3.4,,,,,,,*7C
$GPGRS,180007.00,1,-1.2,-1.1,-1.3,-2.4,,,,,,,,*47
$GPGRS,180007.00,1,2.4,-3.7,-4.3,-2.4,-3.6,-1.3,2.4,,,,,*41
$GPGSV,4,1,15,18,80,088,48,23,28,148,37,05,20,042,27,31,22,229,27*7D
$GPGSV,4,2,15,27,20,281,26,16,49,302,35,29,34,084,42,26,69,246,52*74
$GPGSV,4,3,15,28,08,207,20,10,02,176,,25,04,145,,36,35,170,38*71
$GPGSV,4,4,15,34,31,208,33,49,34,195,36,61,03,257,*44
$GLGSV,2,1,08,82,74,312,46,65,16,031,31,66,14,080,,79,26,175,41*60
$GLGSV,2,2,08,73,31,322,48,83,38,250,25,81,40,044,41,80,67,239,52*6A
$GAGSV,3,1,10,21,65,291,45,26,12,222,,23,15,313,,14,15,274,*61
$GAGSV,3,2,10,27,53,154,39,15,57,056,47,13,64,209,44,09,01,355,*67
$GAGSV,3,3,10,30,05,140,,34,07,046,*68
$GBGSV,6,1,21,43,82,022,49,60,10,109,,58,11,325,,21,18,069,*6C
$GBGSV,6,2,21,25,14,177,24,42,12,117,,50,17,093,,38,28,041,31*64
$GBGSV,6,3,21,05,22,129,,28,29,256,37,08,40,050,37,37,37,299,35*6F
$GBGSV,6,4,21,34,34,068,49,23,48,224,42,13,44,060,43,11,59,057,44*6B
$GBGSV,6,5,21,02,07,106,,14,02,141,,56,01,089,,12,07,068,*63
$GBGSV,6,6,21,22,05,021,*5E
$GPGGA,180007.00,,,,,0,00,,,M,,M,,*46
$PTNL,GGK,180007.00,010125,4742.4467059,N,01617.9728574,E,1,20,1.5,EHT668.4894,M*40
$GPGGQ,180007.00,010125,4742.4467059,N,01617.9728574,E,1,20,6.800,625.2783,M*32
$GPGFA,180007.00,32.141,46.590,3.381,1.592,319.982,5.682,,VVV*01
$GPLLK,180007.00,010125,,M,,M,1,20,1.8,,M*0E
$GNGMP,180007.00,,,,,DAAA,20,0.7,,,,*5D
$GPGMP,180007.00,,,,,,04,,,,3.5,123*71
$GLGMP,180007.00,,,,,,05,,,,,*74
$GAGMP,180007.00,,,,,,04,,,,,*78
$GBGMP,180007.00,,,,,,07,,,,,*78
$PSSN,SNC,[0,324025000,2347]*46
$GPZDA,180012.00,01,01,2025,,*69
$GPDTM,W84,,00.0000000,N,00.0000000,E,00.0000000,W84*5F
$GPRMC,180012.00,A,4742.4467125,N,01617.9728419,E,0.0,,010125,5.1,E,D*1C
$GPGLL,4742.4467125,N,01617.9728419,E,180012.00,A,D*6D
$GPGGA,180012.00,4742.4467125,N,01617.9728419,E,2,21,0.7,625.3140,M,43.2111,M,1.6,0123*40
$GNGNS,180012.00,4742.4467125,N,01617.9728419,E,DAAA,21,0.7,625.3140,43.2111,,*5B
$GPGNS,180012.00,,,,,,05,,,,1.6,123*75
$GLGNS,180012.00,,,,,,05,,,,,*70
$GAGNS,180012.00,,,,,,04,,,,,*7C
$GBGNS,180012.00,,,,,,07,,,,,*7C
$GPLLQ,180012.00,010125,,M,,M,1,21,5.991,,M*1C
$GPVTG,,T,,M,0.00,N,0.00,K,D*26
$GPHDT,,T*1B
$GPTHS,,V*0E
$GPROT,,V*08
$PSSN,HRP,180012.00,010125,,,,,,,00,0,,*6B
$PTNL,AVR,180012.00,,Yaw,,Tilt,,,,0,,00*3D
$GPGSA,A,3,16,18,23,26,29,,,,,,,,1.4,0.7,1.3*32
$GPGSA,A,3,73,79,80,81,82,,,,,,,,1.4,0.7,1.3*33
$GPGSA,A,3,13,15,21,27,,,,,,,,,1.4,0.7,1.3*32
$GPGSA,A,3,08,11,13,23,28,34,43,,,,,,1.4,0.7,1.3*33
$GPGST,180012.00,6.899,2.697,2.053,323.751,2.491,2.299,4.940*5B
$GPGBS,180012.00,4.900,3.545,10.319,81,0.0001,23.673,6.131*5B
$GPGRS,180012.00,1,-2.6,-1.2,2.0,-0.3,1.3,,,,,,,*43
$GPGRS,180012.00,1,3.3,-2.8,-2.9,23.7,-2.2,,,,,,,*70
$GPGRS,180012.00,1,-0.1,-0.8,-0.5,-1.3,,,,,,,,*4A
$GPGRS,180012.00,1,2.5,-2.6,-4.2,-3.0,-3.3,-1.0,2.4,,,,,*46
$GPGSV,4,1,15,18,80,088,47,23,29,148,38,05,20,042,30,31,22,229,25*78
$GPGSV,4,2,15,27,20,281,28,16,49,302,36,29,34,084,42,26,69,246,52*79
$GPGSV,4,3,15,28,08,207,20,10,02,176,,25,04,145,,36,35,170,38*71
$GPGSV,4,4,15,34,31,208,33,49,34,195,36,61,03,257,*44
$GLGSV,2,1,08,82,74,312,45,65,16,031,27,66,14,080,,79,26,175,43*66
$GLGSV,2,2,08,73,31,322,46,83,38,250,33,81,40,044,36,80,67,239,51*60
$GAGSV,3,1,10,21,65,291,45,26,12,222,,23,15,313,,14,15,274,*61
$GAGSV,3,2,10,27,53,154,40,15,57,056,47,13,64,209,44,09,01,355,*69
$GAGSV,3,3,10,30,05,140,,34,07,046,*68
$GBGSV,6,1,21,43,82,023,49,60,10,109,,58,11,325,,21,18,069,*6D
$GBGSV,6,2,21,25,14,177,20,42,12,117,,50,17,093,,38,28,041,32*63
$GBGSV,6,3,21,05,22,129,,28,29,256,37,08,40,050,37,37,37,299,33*69
$GBGSV,6,4,21,34,34,068,50,23,48,224,42,13,44,060,43,11,59,057,44*63
$GBGSV,6,5,21,02,07,106,,14,02,141,,56,01,089,,12,07,068,*63
$GBGSV,6,6,21,22,05,021,*5E
$GPGGA,180012.00,,,,,0,00,,,M,,M,,*42
$PTNL,GGK,180012.00,010125,4742.4467125,N,01617.9728419,E,1,21,1.4,EHT668.5251,M*46
$GPGGQ,180012.00,010125,4742.4467125,N,01617.9728419,E,1,21,5.991,625.3140,M*35
$GPGFA,180012.00,25.639,40.507,2.697,2.053,323.751,4.940,,VVV*02
$GPLLK,180012.00,010125,,M,,M,1,21,1.7,,M*04
$GNGMP,180012.00,,,,,DAAA,21,0.7,,,,*58
$GPGMP,180012.00,,,,,,05,,,,1.6,123*75
$GLGMP,180012.00,,,,,,05,,,,,*70
$GAGMP,180012.00,,,,,,04,,,,,*7C
$GBGMP,180012.00,,,,,,07,,,,,*7C
$PSSN,SNC,[0,324030000,2347]*42
$GPZDA,180017.00,01,01,2025,,*6C
$GPDTM,W84,,00.0000000,N,00.0000000,E,00.0000000,W84*5F
$GPRMC,180017.00,A,4742.4467124,N,01617.9728351,E,0.0,,010125,5.1,E,D*13
$GPGLL,4742.4467124,N,01617.9728351,E,180017.00,A,D*62
$GPGGA,180017.00,4742.4467124,N,01617.9728351,E,2,19,0.8,625.3363,M,43.2111,M,1.8,0123*46
$GNGNS,180017.00,4742.4467124,N,01617.9728351,E,DAAA,19,0.8,625.3363,43.2111,,*53
$GPGNS,180017.00,,,,,,04,,,,1.8,123*7F
$GLGNS,180017.00,,,,,,04,,,,,*74
$GAGNS,180017.00,,,,,,04,,,,,*79
$GBGNS,180017.00,,,,,,07,,,,,*79
$GPLLQ,180017.00,010125,,M,,M,1,19,3.474,,M*12
$GPVTG,,T,,M,0.01,N,0.01,K,D*26
$GPHDT,,T*1B
$GPTHS,,V*0E
$GPROT,,V*08
$PSSN,HRP,180017.00,010125,,,,,,,00,0,,*6E
$PTNL,AVR,180017.00,,Yaw,,Tilt,,,,0,,00*38
$GPGSA,A,3,18,23,26,29,,,,,,,,,1.5,0.8,1.3*3B
$GPGSA,A,3,73,79,80,82,,,,,,,,,1.5,0.8,1.3*34
$GPGSA,A,3,13,15,21,27,,,,,,,,,1.5,0.8,1.3*3C
$GPGSA,A,3,08,11,13,23,28,34,43,,,,,,1.5,0.8,1.3*3D
$GPGST,180017.00,2.528,1.766,0.582,319.731,1.399,1.224,2.935*58
$GPGBS,180017.00,7.836,8.560,20.124,18,0.0001,-1.171,0.607*46
$GPGRS,180017.00,1,-1.2,0.5,-0.1,0.6,,,,,,,,*40
$GPGRS,180017.00,1,1.4,-1.9,-2.9,-1.5,,,,,,,,*6E
$GPGRS,180017.00,1,-0.0,-1.0,-0.7,-0.9,,,,,,,,*4E
$GPGRS,180017.00,1,3.6,-1.9,-4.1,-3.6,-2.7,-1.1,1.3,,,,,*48
$GPGSV,4,1,15,18,80,088,47,23,29,148,39,05,20,042,32,31,22,229,*7C
$GPGSV,4,2,15,27,20,281,28,16,49,302,36,29,34,084,42,26,69,246,53*78
$GPGSV,4,3,15,28,08,207,21,10,02,176,,25,04,145,,36,35,170,38*70
$GPGSV,4,4,15,34,31,208,33,49,34,195,36,61,03,257,*44
$GLGSV,2,1,08,82,74,312,45,65,16,031,,66,14,080,,79,26,175,43*63
$GLGSV,2,2,08,73,31,322,44,83,38,250,34,81,40,044,30,80,67,239,51*63
$GAGSV,3,1,10,21,65,291,44,26,12,222,,23,15,313,,14,15,274,*60
$GAGSV,3,2,10,27,53,154,41,15,57,056,47,13,64,209,45,09,01,355,*69
$GAGSV,3,3,10,30,05,140,,34,07,046,19*60
$GBGSV,6,1,21,43,82,023,50,60,10,109,,58,11,325,,21,18,069,*65
$GBGSV,6,2,21,25,14,177,20,42,12,117,,50,18,093,,38,28,041,32*6C
$GBGSV,6,3,21,05,22,129,,28,29,256,36,08,40,050,37,37,37,299,33*68
$GBGSV,6,4,21,34,34,068,50,23,48,224,42,13,44,060,42,11,59,057,43*65
$GBGSV,6,5,21,02,07,106,,14,02,140,,56,01,089,,12,07,068,*62
$GBGSV,6,6,21,22,05,021,*5E
$GPGGA,180017.00,,,,,0,00,,,M,,M,,*47
$PTNL,GGK,180017.00,010125,4742.4467124,N,01617.9728351,E,1,19,1.5,EHT668.5474,M*42
$GPGGQ,180017.00,010125,4742.4467124,N,01617.9728351,E,1,19,3.474,625.3363,M*32
$GPGFA,180017.00,16.786,24.066,1.766,0.582,319.731,2.935,,VVV*0E
$GPLLK,180017.00,010125,,M,,M,1,19,1.8,,M*05
$GNGMP,180017.00,,,,,DAAA,19,0.8,,,,*59
$GPGMP,180017.00,,,,,,04,,,,1.8,123*7F
$GLGMP,180017.00,,,,,,04,,,,,*74
$GAGMP,180017.00,,,,,,04,,,,,*79
$GBGMP,180017.00,,,,,,07,,,,,*79
$PSSN,SNC,[0,324035000,2347]*47
$GPZDA,180022.00,01,01,2025,,*6A
$GPDTM,W84,,00.0000000,N,00.0000000,E,00.0000000,W84*5F
$GPRMC,180022.00,A,4742.4467174,N,01617.9728325,E,0.0,,010125,5.1,E,D*13
$GPGLL,4742.4467174,N,01617.9728325,E,180022.00,A,D*62
$GPGGA,180022.00,4742.4467174,N,01617.9728325,E,2,19,0.8,625.3429,M,43.2111,M,2.8,0123*4C
$GNGNS,180022.00,4742.4467174,N,01617.9728325,E,DAAA,19,0.8,625.3429,43.2111,,*5A
$GPGNS,180022.00,,,,,,04,,,,2.8,123*7A
$GLGNS,180022.00,,,,,,04,,,,,*72
$GAGNS,180022.00,,,,,,04,,,,,*7F
$GBGNS,180022.00,,,,,,07,,,,,*7F
$GPLLQ,180022.00,010125,,M,,M,1,19,3.452,,M*10
$GPVTG,,T,,M,0.00,N,0.01,K,D*27
$GPHDT,,T*1B
$GPTHS,,V*0E
$GPROT,,V*08
$PSSN,HRP,180022.00,010125,,,,,,,00,0,,*68
$PTNL,AVR,180022.00,,Yaw,,Tilt,,,,0,,00*3E
$GPGSA,A,3,18,23,26,29,,,,,,,,,1.5,0.8,1.3*3B
$GPGSA,A,3,73,79,80,82,,,,,,,,,1.5,0.8,1.3*34
$GPGSA,A,3,13,15,21,27,,,,,,,,,1.5,0.8,1.3*3C
$GPGSA,A,3,08,11,13,23,28,34,43,,,,,,1.5,0.8,1.3*3D
$GPGST,180022.00,2.497,1.717,0.807,320.097,1.416,1.264,2.884*53
$GPGBS,180022.00,7.897,8.697,20.444,23,0.0001,1.414,0.829*62
$GPGRS,180022.00,1,-0.8,1.4,-0.0,0.0,,,,,,,,*4A
$GPGRS,180022.00,1,-0.8,-2.4,-2.9,-1.6,,,,,,,,*45
$GPGRS,180022.00,1,0.0,-1.0,-0.4,-0.8,,,,,,,,*67
$GPGRS,180022.00,1,4.8,-1.3,-3.6,-3.4,-1.2,-1.0,1.1,,,,,*4A
$GPGSV,4,1,15,18,80,088,47,23,29,148,41,05,20,042,33,31,22,229,21*71
$GPGSV,4,2,15,27,20,281,27,16,49,302,34,29,34,084,41,26,69,246,53*76
$GPGSV,4,3,15,28,08,207,21,10,02,176,,25,04,145,,36,35,170,39*71
$GPGSV,4,4,15,34,31,208,33,49,34,195,36,61,03,257,*44
$GLGSV,2,1,08,82,74,312,44,65,16,031,23,66,14,080,,79,26,175,42*62
$GLGSV,2,2,08,73,31,322,43,83,38,251,23,81,40,045,29,80,67,239,51*6A
$GAGSV,3,1,10,21,65,291,44,26,12,222,,23,15,313,,14,15,274,*60
$GAGSV,3,2,10,27,53,154,42,15,57,056,47,13,64,209,45,09,01,355,*6A
$GAGSV,3,3,10,30,05,140,,34,07,046,20*6A
$GBGSV,6,1,21,43,82,023,51,60,10,109,,58,11,325,,21,18,069,29*6F
$GBGSV,6,2,21,25,14,177,22,42,12,117,,50,18,093,,38,28,041,32*6E
$GBGSV,6,3,21,05,22,129,,28,29,256,36,08,40,050,36,37,37,299,34*6E
$GBGSV,6,4,21,34,34,068,50,23,48,224,41,13,44,060,42,11,59,057,44*61
$GBGSV,6,5,21,02,07,106,,14,02,140,,56,01,089,,12,07,068,*62
$GBGSV,6,6,21,22,05,021,*5E
$GPGGA,180022.00,,,,,0,00,,,M,,M,,*41
$PTNL,GGK,180022.00,010125,4742.4467174,N,01617.9728325,E,1,19,1.5,EHT668.5540,M*44
$GPGGQ,180022.00,010125,4742.4467174,N,01617.9728325,E,1,19,3.452,625.3429,M*3F
$GPGFA,180022.00,16.327,23.649,1.717,0.807,320.097,2.884,,VVV*07
$GPLLK,180022.00,010125,,M,,M,1,19,1.8,,M*03
$GNGMP,180022.00,,,,,DAAA,19,0.8,,,,*5F
$GPGMP,180022.00,,,,,,04,,,,2.8,123*7A
$GLGMP,180022.00,,,,,,04,,,,,*72
$GAGMP,180022.00,,,,,,04,,,,,*7F
$GBGMP,180022.00,,,,,,07,,,,,*7F
$PSSN,SNC,[0,324040000,2347]*45
$GPZDA,180027.00,01,01,2025,,*6F
$GPDTM,W84,,00.0000000,N,00.0000000,E,00.0000000,W84*5F
$GPRMC,180027.00,A,4742.4467247,N,01617.9728302,E,0.0,,010125,5.1,E,D*10
$GPGLL,4742.4467247,N,01617.9728302,E,180027.00,A,D*61
$GPGGA,180027.00,4742.4467247,N,01617.9728302,E,2,19,0.8,625.3670,M,43.2111,M,3.8,0123*40
$GNGNS,180027.00,4742.4467247,N,01617.9728302,E,DAAA,19,0.8,625.3670,43.2111,,*57
$GPGNS,180027.00,,,,,,04,,,,3.8,123*7E
$GLGNS,180027.00,,,,,,04,,,,,*77
$GAGNS,180027.00,,,,,,04,,,,,*7A
$GBGNS,180027.00,,,,,,07,,,,,*7A
$GPLLQ,180027.00,010125,,M,,M,1,19,4.254,,M*12
$GPVTG,,T,,M,0.01,N,0.01,K,D*26
$GPHDT,,T*1B
$GPTHS,,V*0E
$GPROT,,V*08
$PSSN,HRP,180027.00,010125,,,,,,,00,0,,*6D
$PTNL,AVR,180027.00,,Yaw,,Tilt,,,,0,,00*3B
$GPGSA,A,3,18,23,26,29,,,,,,,,,1.5,0.8,1.3*3B
$GPGSA,A,3,73,79,80,82,,,,,,,,,1.5,0.8,1.3*34
$GPGSA,A,3,13,15,21,27,,,,,,,,,1.5,0.8,1.3*3C
$GPGSA,A,3,08,11,13,23,28,34,43,,,,,,1.5,0.8,1.3*3D
$GPGST,180027.00,2.629,2.112,0.995,319.729,1.735,1.562,3.557*52
$GPGBS,180027.00,7.977,8.842,20.772,23,0.0001,1.846,0.842*6E
$GPGRS,180027.00,1,-1.3,1.8,0.0,0.2,,,,,,,,*66
$GPGRS,180027.00,1,-0.5,-3.4,-3.2,-1.3,,,,,,,,*43
$GPGRS,180027.00,1,0.0,-0.9,-0.4,-1.3,,,,,,,,*60
$GPGRS,180027.00,1,5.8,0.4,-2.7,-2.6,1.6,-1.1,0.8,,,,,*46
$GPGSV,4,1,15,18,80,088,46,23,29,148,41,05,20,042,33,31,22,229,23*72
$GPGSV,4,2,15,27,20,281,31,16,49,302,30,29,34,084,40,26,69,245,52*76
$GPGSV,4,3,15,28,08,207,22,10,02,176,,25,04,145,,36,35,170,39*72
$GPGSV,4,4,15,34,31,208,33,49,34,195,36,61,03,257,*44
$GLGSV,2,1,08,82,74,312,45,65,16,031,23,66,14,080,,79,26,175,40*61
$GLGSV,2,2,08,73,31,322,42,83,38,251,26,81,40,045,30,80,67,239,52*65
$GAGSV,3,1,10,21,65,290,44,26,12,222,,23,15,313,,14,15,274,*61
$GAGSV,3,2,10,27,53,154,42,15,57,056,47,13,64,209,44,09,01,355,*6B
$GAGSV,3,3,10,30,05,140,,34,07,046,*68
$GBGSV,6,1,21,43,82,023,51,60,10,109,,58,11,325,,21,18,069,*64
$GBGSV,6,2,21,25,14,177,21,42,12,117,,50,18,093,,38,28,041,32*6D
$GBGSV,6,3,21,05,22,129,,28,29,256,38,08,40,050,36,37,37,299,33*67
$GBGSV,6,4,21,34,34,068,50,23,48,224,40,13,44,060,42,11,59,057,44*60
$GBGSV,6,5,21,02,07,106,,14,02,140,,56,01,089,,12,07,068,*62
$GBGSV,6,6,21,22,05,021,*5E
$GPGGA,180027.00,,,,,0,00,,,M,,M,,*44
$PTNL,GGK,180027.00,010125,4742.4467247,N,01617.9728302,E,1,19,1.5,EHT668.5781,M*48
$GPGGQ,180027.00,010125,4742.4467247,N,01617.9728302,E,1,19,4.254,625.3670,M*35
$GPGFA,180027.00,20.077,29.164,2.112,0.995,319.729,3.557,,VVV*03
$GPLLK,180027.00,010125,,M,,M,1,19,1.8,,M*06
$GNGMP,180027.00,,,,,DAAA,19,0.8,,,,*5A
$GPGMP,180027.00,,,,,,04,,,,3.8,123*7E
$GLGMP,180027.00,,,,,,04,,,,,*77
$GAGMP,180027.00,,,,,,04,,,,,*7A
$GBGMP,180027.00,,,,,,07,,,,,*7A
$PSSN,SNC,[0,324045000,2347]*40
$GPZDA,180032.00,01,01,2025,,*6B
$GPDTM,W84,,00.0000000,N,00.0000000,E,00.0000000,W84*5F
$GPRMC,180032.00,A,4742.4467323,N,01617.9728245,E,0.0,,010125,5.1,E,D*15
$GPGLL,4742.4467323,N,01617.9728245,E,180032.00,A,D*64
$GPGGA,180032.00,4742.4467323,N,01617.9728245,E,2,18,0.8,625.3825,M,43.2111,M,1.8,0123*48
$GNGNS,180032.00,4742.4467323,N,01617.9728245,E,DAAA,18,0.8,625.3825,43.2111,,*5D
$GPGNS,180032.00,,,,,,04,,,,1.8,123*78
$GLGNS,180032.00,,,,,,04,,,,,*73
$GAGNS,180032.00,,,,,,04,,,,,*7E
$GBGNS,180032.00,,,,,,06,,,,,*7F
$GPLLQ,180032.00,010125,,M,,M,1,18,3.747,,M*17
$GPVTG,,T,,M,0.01,N,0.01,K,D*26
$GPHDT,,T*1B
$GPTHS,,V*0E
$GPROT,,V*08
$PSSN,HRP,180032.00,010125,,,,,,,00,0,,*69
$PTNL,AVR,180032.00,,Yaw,,Tilt,,,,0,,00*3F
$GPGSA,A,3,18,23,26,29,,,,,,,,,1.5,0.8,1.3*3B
$GPGSA,A,3,73,79,80,82,,,,,,,,,1.5,0.8,1.3*34
$GPGSA,A,3,13,15,21,27,,,,,,,,,1.5,0.8,1.3*3C
$GPGSA,A,3,11,13,23,28,34,43,,,,,,,1.5,0.8,1.3*35
$GPGST,180032.00,2.044,1.859,0.883,320.532,1.541,1.364,3.131*5F
$GPGBS,180032.00,8.295,8.505,19.854,23,0.0001,1.501,0.802*67
$GPGRS,180032.00,1,-0.9,1.5,-0.2,0.5,,,,,,,,*4C
$GPGRS,180032.00,1,-1.3,-3.4,-2.4,-1.4,,,,,,,,*40
$GPGRS,180032.00,1,-0.4,-0.6,-0.0,-1.5,,,,,,,,*40
$GPGRS,180032.00,1,1.4,-2.7,-1.1,2.7,-1.2,0.4,,,,,,*69
$GPGSV,4,1,15,18,80,087,47,23,29,148,40,05,20,042,31,31,22,229,25*79
$GPGSV,4,2,15,27,20,281,31,16,49,302,25,29,34,084,37,26,69,245,52*72
$GPGSV,4,3,15,28,07,207,21,10,02,176,,25,04,145,,36,35,170,39*7E
$GPGSV,4,4,15,34,31,208,34,49,34,195,36,61,03,257,*43
$GLGSV,2,1,08,82,74,313,46,65,16,031,22,66,14,080,,79,26,175,35*60
$GLGSV,2,2,08,73,31,322,41,81,40,045,33,83,38,251,27,80,67,238,53*64
$GAGSV,3,1,10,21,65,290,44,26,12,222,,23,15,313,,14,15,274,*61
$GAGSV,3,2,10,27,53,154,42,15,57,056,47,13,64,209,43,09,01,355,*6C
$GAGSV,3,3,10,30,05,140,,34,07,046,*68
$GBGSV,6,1,21,43,82,023,51,60,10,109,,58,11,325,,21,18,068,30*66
$GBGSV,6,2,21,25,14,177,22,42,12,117,,50,18,093,,38,28,041,33*6F
$GBGSV,6,3,21,05,22,129,,28,29,256,39,08,40,050,34,37,37,299,34*63
$GBGSV,6,4,21,34,34,068,50,23,48,224,39,13,44,060,41,11,59,057,44*6D
$GBGSV,6,5,21,02,07,106,,14,02,140,,56,01,089,,12,07,068,*62
$GBGSV,6,6,21,22,05,021,*5E
$GPGGA,180032.00,,,,,0,00,,,M,,M,,*40
$PTNL,GGK,180032.00,010125,4742.4467323,N,01617.9728245,E,1,18,1.5,EHT668.5936,M*4E
$GPGGQ,180032.00,010125,4742.4467323,N,01617.9728245,E,1,18,3.747,625.3825,M*3F
$GPGFA,180032.00,17.679,25.674,1.859,0.883,320.532,3.131,,VVV*04
$GPLLK,180032.00,010125,,M,,M,1,18,1.8,,M*03
$GNGMP,180032.00,,,,,DAAA,18,0.8,,,,*5F
$GPGMP,180032.00,,,,,,04,,,,1.8,123*78
$GLGMP,180032.00,,,,,,04,,,,,*73
$GAGMP,180032.00,,,,,,04,,,,,*7E
$GBGMP,180032.00,,,,,,06,,,,,*7F
$PSSN,SNC,[0,324050000,2347]*44
$GPZDA,180037.00,01,01,2025,,*6E
$GPDTM,W84,,00.0000000,N,00.0000000,E,00.0000000,W84*5F
$GPRMC,180037.00,A,4742.4467392,N,01617.9728248,E,0.0,,010125,5.1,E,D*17
$GPGLL,4742.4467392,N,01617.9728248,E,180037.00,A,D*66
$GPGGA,180037.00,4742.4467392,N,01617.9728248,E,2,17,0.8,625.3941,M,43.2111,M,2.0,0123*4D
$GNGNS,180037.00,4742.4467392,N,01617.9728248,E,DAAA,17,0.8,625.3941,43.2111,,*53
$GPGNS,180037.00,,,,,,03,,,,2.0,123*71
$GLGNS,180037.00,,,,,,03,,,,,*71
$GAGNS,180037.00,,,,,,04,,,,,*7B
$GBGNS,180037.00,,,,,,07,,,,,*7B
$GPLLQ,180037.00,010125,,M,,M,1,17,5.168,,M*10
$GPVTG,,T,,M,0.00,N,0.01,K,D*27
$GPHDT,,T*1B
$GPTHS,,V*0E
$GPROT,,V*08
$PSSN,HRP,180037.00,010125,,,,,,,00,0,,*6C
$PTNL,AVR,180037.00,,Yaw,,Tilt,,,,0,,00*3A
$GPGSA,A,3,18,23,26,,,,,,,,,,1.6,0.8,1.4*34
$GPGSA,A,3,73,80,82,,,,,,,,,,1.6,0.8,1.4*3E
$GPGSA,A,3,13,15,21,27,,,,,,,,,1.6,0.8,1.4*38
$GPGSA,A,3,11,13,23,28,34,37,43,,,,,,1.6,0.8,1.4*35
$GPGST,180037.00,1.648,2.695,0.967,352.397,2.674,1.023,4.303*5B
$GPGBS,180037.00,30.233,8.368,49.158,18,0.0001,-0.847,0.601*7E
$GPGRS,180037.00,1,-0.8,0.8,0.2,,,,,,,,,*42
$GPGRS,180037.00,1,-1.3,-1.9,-0.9,,,,,,,,,*43
$GPGRS,180037.00,1,-0.7,-0.2,1.0,-1.2,,,,,,,,*69
$GPGRS,180037.00,1,0.9,-2.2,0.5,2.2,-1.3,-2.0,0.2,,,,,*4E
$GPGSV,4,1,15,18,79,087,47,23,29,148,39,05,20,042,31,31,22,229,28*7C
$GPGSV,4,2,15,27,20,281,32,16,49,302,,29,34,084,34,26,69,245,51*76
$GPGSV,4,3,15,28,07,207,22,10,02,176,,25,04,145,,36,35,170,39*7D
$GPGSV,4,4,15,34,31,208,34,49,34,195,36,61,03,257,*43
$GLGSV,2,1,08,82,74,313,48,65,16,031,22,66,14,080,,79,26,175,33*68
$GLGSV,2,2,08,73,31,322,40,83,38,251,29,81,40,045,31,80,67,238,53*69
$GAGSV,3,1,10,21,65,290,44,26,12,222,,23,15,313,,14,15,274,*61
$GAGSV,3,2,10,27,53,154,42,15,57,056,47,13,64,209,42,09,01,355,*6D
$GAGSV,3,3,10,30,05,140,,34,07,046,19*60
$GBGSV,6,1,21,43,82,023,50,60,10,109,,58,11,325,,21,18,068,33*64
$GBGSV,6,2,21,25,14,177,23,42,12,117,,50,18,093,,38,28,041,33*6E
$GBGSV,6,3,21,05,22,129,,28,29,256,39,08,40,050,33,37,37,298,36*67
$GBGSV,6,4,21,34,34,068,49,23,48,224,38,13,44,060,41,11,59,057,43*63
$GBGSV,6,5,21,02,07,106,,14,02,140,,56,01,089,,12,07,068,*62
$GBGSV,6,6,21,22,05,021,*5E
$GPGGA,180037.00,,,,,0,00,,,M,,M,,*45
$PTNL,GGK,180037.00,010125,4742.4467392,N,01617.9728248,E,1,17,1.6,EHT668.6051,M*4B
$GPGGQ,180037.00,010125,4742.4467392,N,01617.9728248,E,1,17,5.168,625.3941,M*3C
$GPGFA,180037.00,25.623,35.281,2.695,0.967,352.397,4.303,,VVV*0E
$GPLLK,180037.00,010125,,M,,M,1,17,1.9,,M*08
$GNGMP,180037.00,,,,,DAAA,17,0.8,,,,*55
$GPGMP,180037.00,,,,,,03,,,,2.0,123*71
$GLGMP,180037.00,,,,,,03,,,,,*71
$GAGMP,180037.00,,,,,,04,,,,,*7B
$GBGMP,180037.00,,,,,,07,,,,,*7B
$PSSN,SNC,[0,324055000,2347]*41
$GPZDA,180042.00,01,01,2025,,*6C
$GPDTM,W84,,00.0000000,N,00.0000000,E,00.0000000,W84*5F
$GPRMC,180042.00,A,4742.4467439,N,01617.9728279,E,0.0,,010125,5.1,E,D*11
$GPGLL,4742.4467439,N,01617.9728279,E,180042.00,A,D*60
$GPGGA,180042.00,4742.4467439,N,01617.9728279,E,2,18,0.8,625.4100,M,43.2111,M,3.0,0123*4F
$GNGNS,180042.00,4742.4467439,N,01617.9728279,E,DAAA,18,0.8,625.4100,43.2111,,*50
$GPGNS,180042.00,,,,,,03,,,,3.0,123*72
$GLGNS,180042.00,,,,,,04,,,,,*74
$GAGNS,180042.00,,,,,,04,,,,,*79
$GBGNS,180042.00,,,,,,07,,,,,*79
$GPLLQ,180042.00,010125,,M,,M,1,18,4.948,,M*16
$GPVTG,,T,,M,0.00,N,0.00,K,D*26
$GPHDT,,T*1B
$GPTHS,,V*0E
$GPROT,,V*08
$PSSN,HRP,180042.00,010125,,,,,,,00,0,,*6E
$PTNL,AVR,180042.00,,Yaw,,Tilt,,,,0,,00*38
$GPGSA,A,3,18,23,26,,,,,,,,,,1.5,0.8,1.3*30
$GPGSA,A,3,73,79,80,82,,,,,,,,,1.5,0.8,1.3*34
$GPGSA,A,3,13,15,21,27,,,,,,,,,1.5,0.8,1.3*3C
$GPGSA,A,3,11,13,23,28,34,37,43,,,,,,1.5,0.8,1.3*31
$GPGST,180042.00,2.045,2.537,0.987,352.292,2.518,1.036,4.132*5D
$GPGBS,180042.00,27.018,8.474,44.901,18,0.0001,-0.671,0.618*71
$GPGRS,180042.00,1,-0.7,0.5,0.4,,,,,,,,,*44
$GPGRS,180042.00,1,1.7,-4.1,-1.8,0.6,,,,,,,,*4D
$GPGRS,180042.00,1,-0.7,0.1,1.0,-0.9,,,,,,,,*4F
$GPGRS,180042.00,1,-0.1,-2.0,2.2,1.0,-1.6,2.7,0.1,,,,,*43
$GPGSV,4,1,15,18,79,087,47,23,29,148,37,05,20,042,29,31,22,229,31*73
$GPGSV,4,2,15,27,20,281,33,16,49,302,37,29,34,084,32,26,69,245,50*74
$GPGSV,4,3,15,28,07,207,23,10,02,176,,25,04,145,,36,35,170,39*7C
$GPGSV,4,4,15,34,31,208,34,49,34,195,37,61,03,257,*42
$GLGSV,2,1,08,82,74,313,49,65,16,031,,66,14,080,,79,26,175,37*6D
$GLGSV,2,2,08,73,31,322,43,83,38,251,29,81,40,045,28,80,67,238,54*65
$GAGSV,3,1,10,21,65,290,44,26,12,222,,23,15,313,,14,15,274,*61
$GAGSV,3,2,10,27,53,154,42,15,57,056,47,13,64,209,40,09,01,355,*6F
$GAGSV,3,3,10,30,05,140,,34,07,046,*68
$GBGSV,6,1,21,43,82,024,50,60,10,109,,58,11,325,,21,18,068,33*63
$GBGSV,6,2,21,25,14,177,22,42,12,117,,50,18,093,,38,28,041,33*6F
$GBGSV,6,3,21,05,22,129,,28,29,256,40,08,40,050,31,37,37,298,38*65
$GBGSV,6,4,21,34,34,068,49,23,48,224,39,13,44,060,40,11,59,057,43*63
$GBGSV,6,5,21,02,07,106,,14,02,140,,56,01,089,,12,07,068,*62
$GBGSV,6,6,21,22,05,021,*5E
$GPGGA,180042.00,,,,,0,00,,,M,,M,,*47
$PTNL,GGK,180042.00,010125,4742.4467439,N,01617.9728279,E,1,18,1.5,EHT668.6210,M*46
$GPGGQ,180042.00,010125,4742.4467439,N,01617.9728279,E,1,18,4.948,625.4100,M*34
$GPGFA,180042.00,24.125,33.881,2.537,0.987,352.292,4.132,,VVV*01
$GPLLK,180042.00,010125,,M,,M,1,18,1.8,,M*04
$GNGMP,180042.00,,,,,DAAA,18,0.8,,,,*58
$GPGMP,180042.00,,,,,,03,,,,3.0,123*72
$GLGMP,180042.00,,,,,,04,,,,,*74
$GAGMP,180042.00,,,,,,04,,,,,*79
$GBGMP,180042.00,,,,,,07,,,,,*79
$PSSN,SNC,[0,324060000,2347]*47
$GPZDA,180047.00,01,01,2025,,*69
$GPDTM,W84,,00.0000000,N,00.0000000,E,00.0000000,W84*5F
$GPRMC,180047.00,A,4742.4467464,N,01617.9728315,E,0.0,,010125,5.1,E,D*17
$GPGLL,4742.4467464,N,01617.9728315,E,180047.00,A,D*66
$GPGGA,180047.00,4742.4467464,N,01617.9728315,E,2,19,0.7,625.4008,M,43.2111,M,4.0,0123*49
$GNGNS,180047.00,4742.4467464,N,01617.9728315,E,DAAA,19,0.7,625.4008,43.2111,,*51
$GPGNS,180047.00,,,,,,04,,,,4.0,123*77
$GLGNS,180047.00,,,,,,04,,,,,*71
$GAGNS,180047.00,,,,,,04,,,,,*7C
$GBGNS,180047.00,,,,,,07,,,,,*7C
$GPLLQ,180047.00,010125,,M,,M,1,19,2.096,,M*1E
$GPVTG,,T,,M,0.01,N,0.01,K,D*26
$GPHDT,,T*1B
$GPTHS,,V*0E
$GPROT,,V*08
$PSSN,HRP,180047.00,010125,,,,,,,00,0,,*6B
$PTNL,AVR,180047.00,,Yaw,,Tilt,,,,0,,00*3D
$GPGSA,A,3,16,18,23,26,,,,,,,,,1.5,0.7,1.3*38
$GPGSA,A,3,73,79,80,82,,,,,,,,,1.5,0.7,1.3*3B
$GPGSA,A,3,13,15,21,27,,,,,,,,,1.5,0.7,1.3*33
$GPGSA,A,3,11,13,23,28,34,37,43,,,,,,1.5,0.7,1.3*3E
$GPGST,180047.00,1.931,1.275,0.542,36.799,1.071,0.878,1.573*67
$GPGBS,180047.00,8.597,6.834,10.758,26,0.0001,0.721,0.653*65
$GPGRS,180047.00,1,0.2,-0.3,-0.5,0.7,,,,,,,,*47
$GPGRS,180047.00,1,4.1,-3.0,-1.4,0.7,,,,,,,,*40
$GPGRS,180047.00,1,0.2,0.5,0.8,-1.0,,,,,,,,*67
$GPGRS,180047.00,1,-0.3,-1.1,2.5,0.3,-1.7,-1.6,0.6,,,,,*6A
$GPGSV,4,1,15,18,79,087,48,23,29,148,36,05,20,042,26,31,22,229,31*72
$GPGSV,4,2,15,27,20,281,34,16,49,301,41,29,34,084,34,26,69,245,50*77
$GPGSV,4,3,15,28,07,207,22,10,02,176,,25,04,145,,36,35,170,39*7D
$GPGSV,4,4,15,34,31,208,34,49,34,195,37,61,03,257,*42
$GLGSV,2,1,08,82,74,313,49,65,16,031,,66,14,080,,79,26,175,40*6D
$GLGSV,2,2,08,73,31,322,46,81,40,045,38,83,38,251,29,80,67,238,54*61
$GAGSV,3,1,10,21,65,290,45,26,12,222,,23,15,313,,14,15,274,*60
$GAGSV,3,2,10,27,53,154,41,15,57,056,46,13,64,209,40,09,01,355,*6D
$GAGSV,3,3,10,30,05,140,,34,07,046,*68
$GBGSV,6,1,21,43,82,024,49,60,10,109,,58,11,325,,21,18,068,31*69
$GBGSV,6,2,21,25,14,177,21,42,12,117,,50,18,092,,38,28,040,33*6C
$GBGSV,6,3,21,05,22,129,,28,29,256,40,08,40,050,29,37,37,298,39*6D
$GBGSV,6,4,21,34,34,068,48,23,48,224,39,13,44,060,40,11,59,057,42*63
$GBGSV,6,5,21,02,07,106,,14,02,140,,56,01,089,,12,07,068,*62
$GBGSV,6,6,21,22,05,021,*5E
$GPGGA,180047.00,,,,,0,00,,,M,,M,,*42
$PTNL,GGK,180047.00,010125,4742.4467464,N,01617.9728315,E,1,19,1.5,EHT668.6118,M*4A
$GPGGQ,180047.00,010125,4742.4467464,N,01617.9728315,E,1,19,2.096,625.4008,M*36
$GPGFA,180047.00,12.118,12.898,1.275,0.542,36.799,1.573,,VVV*38
$GPLLK,180047.00,010125,,M,,M,1,19,1.8,,M*00
$GNGMP,180047.00,,,,,DAAA,19,0.7,,,,*53
$GPGMP,180047.00,,,,,,04,,,,4.0,123*77
$GLGMP,180047.00,,,,,,04,,,,,*71
$GAGMP,180047.00,,,,,,04,,,,,*7C
$GBGMP,180047.00,,,,,,07,,,,,*7C
$PSSN,SNC,[0,324065000,2347]*42
$GPZDA,180052.00,01,01,2025,,*6D
$GPDTM,W84,,00.0000000,N,00.0000000,E,00.0000000,W84*5F
$GPRMC,180052.00,A,4742.4467356,N,01617.9728356,E,0.0,,010125,5.1,E,D*12
$GPGLL,4742.4467356,N,01617.9728356,E,180052.00,A,D*63
$GPGGA,180052.00,4742.4467356,N,01617.9728356,E,2,21,0.7,625.4002,M,43.2111,M,1.5,0123*4D
$GNGNS,180052.00,4742.4467356,N,01617.9728356,E,DAAA,21,0.7,625.4002,43.2111,,*55
$GPGNS,180052.00,,,,,,06,,,,1.5,123*71
$GLGNS,180052.00,,,,,,04,,,,,*75
$GAGNS,180052.00,,,,,,04,,,,,*78
$GBGNS,180052.00,,,,,,07,,,,,*78
$GPLLQ,180052.00,010125,,M,,M,1,21,2.207,,M*1B
$GPVTG,,T,,M,0.01,N,0.01,K,D*26
$GPHDT,,T*1B
$GPTHS,,V*0E
$GPROT,,V*08
$PSSN,HRP,180052.00,010125,,,,,,,00,0,,*6F
$PTNL,AVR,180052.00,,Yaw,,Tilt,,,,0,,00*39
$GPGSA,A,3,16,18,23,26,27,29,,,,,,,1.3,0.7,1.1*32
$GPGSA,A,3,73,79,80,82,,,,,,,,,1.3,0.7,1.1*3F
$GPGSA,A,3,13,15,21,27,,,,,,,,,1.3,0.7,1.1*37
$GPGSA,A,3,11,13,23,28,34,37,43,,,,,,1.3,0.7,1.1*3A
$GPGST,180052.00,5.205,1.313,0.652,19.796,1.255,0.757,1.650*6E
$GPGBS,180052.00,5.236,3.661,6.182,37,0.0001,18.320,8.575*6E
$GPGRS,180052.00,1,1.2,-0.7,-1.2,0.5,-1.5,0.3,,,,,,*68
$GPGRS,180052.00,1,4.4,-0.7,-2.0,-0.6,,,,,,,,*6E
$GPGRS,180052.00,1,0.7,0.1,0.7,-1.0,,,,,,,,*6D
$GPGRS,180052.00,1,-0.3,-1.5,1.0,0.1,-2.8,18.3,0.2,,,,,*76
$GPGSV,4,1,15,18,79,087,48,23,29,148,36,05,20,042,26,31,22,229,27*75
$GPGSV,4,2,15,27,20,281,36,16,49,301,43,29,34,084,37,26,69,245,50*74
$GPGSV,4,3,15,28,07,207,21,10,02,176,,25,04,145,,36,35,170,39*7E
$GPGSV,4,4,15,34,31,208,34,49,34,195,37,61,03,257,*42
$GLGSV,2,1,08,82,74,313,49,65,16,031,,66,14,080,,79,26,175,42*6F
$GLGSV,2,2,08,73,32,322,47,81,40,045,27,83,38,251,29,80,67,238,53*6A
$GAGSV,3,1,10,21,65,290,45,26,12,222,,23,15,313,,14,16,274,*63
$GAGSV,3,2,10,27,53,154,41,15,57,056,46,13,64,209,39,09,01,355,*63
$GAGSV,3,3,10,30,05,140,,34,07,046,*68
$GBGSV,6,1,21,43,82,024,48,42,12,117,,60,10,109,,25,14,177,22*66
$GBGSV,6,2,21,21,18,068,26,58,11,325,,50,18,092,,38,28,040,34*60
$GBGSV,6,3,21,05,22,129,,28,29,256,41,08,40,050,26,37,37,298,38*62
$GBGSV,6,4,21,34,34,069,48,23,48,224,41,13,44,060,40,11,59,057,43*6C
$GBGSV,6,5,21,02,07,106,,14,02,140,,56,01,089,,12,07,068,*62
$GBGSV,6,6,21,22,05,021,*5E
$GPGGA,180052.00,,,,,0,00,,,M,,M,,*46
$PTNL,GGK,180052.00,010125,4742.4467356,N,01617.9728356,E,1,21,1.3,EHT668.6113,M*49
$GPGGQ,180052.00,010125,4742.4467356,N,01617.9728356,E,1,21,2.207,625.4002,M*38
$GPGFA,180052.00,12.488,13.532,1.313,0.652,19.796,1.650,,VVV*3F
$GPLLK,180052.00,010125,,M,,M,1,21,1.6,,M*01
$GNGMP,180052.00,,,,,DAAA,21,0.7,,,,*5C
$GPGMP,180052.00,,,,,,06,,,,1.5,123*71
$GLGMP,180052.00,,,,,,04,,,,,*75
$GAGMP,180052.00,,,,,,04,,,,,*78
$GBGMP,180052.00,,,,,,07,,,,,*78
$PSSN,SNC,[0,324070000,2347]*46
$GPZDA,180057.00,01,01,2025,,*68
$GPDTM,W84,,00.0000000,N,00.0000000,E,00.0000000,W84*5F
$GPRMC,180057.00,A,4742.4467308,N,01617.9728411,E,0.0,,010125,5.1,E,D*18
$GPGLL,4742.4467308,N,01617.9728411,E,180057.00,A,D*69
$GPGGA,180057.00,4742.4467308,N,01617.9728411,E,2,21,0.7,625.3956,M,43.2111,M,1.8,0123*45
$GNGNS,180057.00,4742.4467308,N,01617.9728411,E,DAAA,21,0.7,625.3956,43.2111,,*50
$GPGNS,180057.00,,,,,,05,,,,1.8,123*7A
$GLGNS,180057.00,,,,,,05,,,,,*71
$GAGNS,180057.00,,,,,,04,,,,,*7D
$GBGNS,180057.00,,,,,,07,,,,,*7D
$GPLLQ,180057.00,010125,,M,,M,1,21,2.694,,M*10
$GPVTG,,T,,M,0.01,N,0.02,K,D*25
$GPHDT,,T*1B
$GPTHS,,V*0E
$GPROT,,V*08
$PSSN,HRP,180057.00,010125,,,,,,,00,0,,*6A
$PTNL,AVR,180057.00,,Yaw,,Tilt,,,,0,,00*3C
$GPGSA,A,3,16,18,26,27,29,,,,,,,,1.4,0.7,1.1*34
$GPGSA,A,3,73,79,80,81,82,,,,,,,,1.4,0.7,1.1*31
$GPGSA,A,3,13,15,21,27,,,,,,,,,1.4,0.7,1.1*30
$GPGSA,A,3,11,13,23,28,34,37,43,,,,,,1.4,0.7,1.1*3D
$GPGST,180057.00,5.054,1.957,0.620,3.937,1.953,0.632,1.745*56
$GPGBS,180057.00,9.711,3.613,8.531,37,0.0001,16.355,8.574*6D
$GPGRS,180057.00,1,0.8,-0.7,0.4,-1.5,0.3,,,,,,,*67
$GPGRS,180057.00,1,3.1,4.7,-2.4,5.6,-0.1,,,,,,,*6E
$GPGRS,180057.00,1,0.7,0.1,0.9,-0.4,,,,,,,,*63
$GPGRS,180057.00,1,-0.0,-2.0,0.0,0.9,-3.4,16.4,0.5,,,,,*7C
$GPGSV,4,1,15,18,79,086,48,23,29,148,34,05,20,042,31,31,22,229,28*7F
$GPGSV,4,2,15,27,20,281,37,16,49,301,43,29,34,084,38,26,69,245,50*7A
$GPGSV,4,3,15,28,07,207,,10,02,176,,25,04,145,,36,35,170,39*7D
$GPGSV,4,4,15,34,31,208,34,49,34,195,36,61,03,257,*43
$GLGSV,2,1,08,82,74,313,49,65,16,031,28,66,14,080,,79,26,175,44*63
$GLGSV,2,2,08,73,32,322,47,81,40,045,41,83,38,251,31,80,67,238,53*63
$GAGSV,3,1,10,21,65,290,44,26,12,222,,23,15,313,,14,16,274,*62
$GAGSV,3,2,10,27,53,154,40,15,57,056,46,13,64,209,39,09,01,355,*62
$GAGSV,3,3,10,30,05,140,,34,07,046,18*61
$GBGSV,6,1,21,43,82,024,48,42,12,117,,60,10,109,,25,14,177,20*64
$GBGSV,6,2,21,21,18,068,20,58,11,325,,50,18,092,,38,28,040,34*66
$GBGSV,6,3,21,05,22,129,,28,29,256,41,08,40,050,32,37,37,298,38*67
$GBGSV,6,4,21,34,34,069,47,23,48,224,43,13,44,060,40,11,59,057,43*61
$GBGSV,6,5,21,02,07,106,,14,02,140,,56,01,089,,12,07,068,*62
$GBGSV,6,6,21,22,05,021,*5E
$GPGGA,180057.00,,,,,0,00,,,M,,M,,*43
$PTNL,GGK,180057.00,010125,4742.4467308,N,01617.9728411,E,1,21,1.4,EHT668.6067,M*46
$GPGGQ,180057.00,010125,4742.4467308,N,01617.9728411,E,1,21,2.694,625.3956,M*33
$GPGFA,180057.00,18.607,14.311,1.957,0.620,3.937,1.745,,VVV*01
$GPLLK,180057.00,010125,,M,,M,1,21,1.6,,M*04
$GNGMP,180057.00,,,,,DAAA,21,0.7,,,,*59
$GPGMP,180057.00,,,,,,05,,,,1.8,123*7A
$GLGMP,180057.00,,,,,,05,,,,,*71
$GAGMP,180057.00,,,,,,04,,,,,*7D
$GBGMP,180057.00,,,,,,07,,,,,*7D
$PSSN,SNC,[0,324075000,2347]*43
$GPZDA,180102.00,01,01,2025,,*69
$GPDTM,W84,,00.0000000,N,00.0000000,E,00.0000000,W84*5F
$GPRMC,180102.00,A,4742.4467304,N,01617.9728409,E,0.0,,010125,5.1,E,D*1C
$GPGLL,4742.4467304,N,01617.9728409,E,180102.00,A,D*6D
$GPGGA,180102.00,4742.4467304,N,01617.9728409,E,2,22,0.7,625.3917,M,43.2111,M,2.8,0123*44
$GNGNS,180102.00,4742.4467304,N,01617.9728409,E,DAAA,22,0.7,625.3917,43.2111,,*52
$GPGNS,180102.00,,,,,,05,,,,2.8,123*78
$GLGNS,180102.00,,,,,,05,,,,,*70
$GAGNS,180102.00,,,,,,04,,,,,*7C
$GBGNS,180102.00,,,,,,08,,,,,*73
$GPLLQ,180102.00,010125,,M,,M,1,22,2.778,,M*11
$GPVTG,,T,,M,0.01,N,0.01,K,D*26
$GPHDT,,T*1B
$GPTHS,,V*0E
$GPROT,,V*08
$PSSN,HRP,180102.00,010125,,,,,,,00,0,,*6B
$PTNL,AVR,180102.00,,Yaw,,Tilt,,,,0,,00*3D
$GPGSA,A,3,16,18,26,27,29,,,,,,,,1.3,0.7,1.1*33
$GPGSA,A,3,73,79,80,81,82,,,,,,,,1.3,0.7,1.1*36
$GPGSA,A,3,13,15,21,27,,,,,,,,,1.3,0.7,1.1*37
$GPGSA,A,3,11,13,23,28,34,37,38,43,,,,,1.3,0.7,1.1*31
$GPGST,180102.00,5.412,2.027,0.639,3.805,2.023,0.651,1.789*5C
$GPGBS,180102.00,9.705,3.644,8.620,37,0.0001,15.601,8.574*6F
$GPGRS,180102.00,1,1.0,-0.9,0.2,-1.1,0.1,,,,,,,*61
$GPGRS,180102.00,1,0.7,9.4,-2.4,8.2,-0.8,,,,,,,*64
$GPGRS,180102.00,1,0.6,0.1,0.5,0.6,,,,,,,,*40
$GPGRS,180102.00,1,0.0,-1.6,-0.9,2.3,-3.8,15.6,2.6,0.4,,,,*5F
$GPGSV,4,1,15,18,79,086,48,23,29,148,35,05,20,042,31,31,22,229,28*7E
$GPGSV,4,2,15,27,20,281,38,16,49,301,44,29,34,084,40,26,69,245,50*7D
$GPGSV,4,3,15,28,07,207,21,10,02,176,,25,04,145,,36,35,170,39*7E
$GPGSV,4,4,15,34,31,208,34,49,34,195,37,61,03,257,*42
$GLGSV,2,1,08,82,74,314,49,65,16,030,32,66,14,079,,79,26,175,45*69
$GLGSV,2,2,08,73,32,322,45,81,40,045,41,83,38,251,32,80,67,238,53*62
$GAGSV,3,1,10,21,65,290,44,26,12,222,,23,15,313,,14,16,274,*62
$GAGSV,3,2,10,27,53,154,41,15,57,056,46,13,64,209,39,09,01,355,*63
$GAGSV,3,3,10,30,04,140,,34,07,046,*69
$GBGSV,6,1,21,43,82,024,48,42,12,117,,60,10,109,,25,14,177,21*65
$GBGSV,6,2,21,21,18,068,31,58,11,325,,50,18,092,,38,28,040,35*67
$GBGSV,6,3,21,05,22,129,,28,29,256,41,08,40,050,32,37,37,298,39*66
$GBGSV,6,4,21,34,34,069,46,23,48,224,44,13,44,060,40,11,59,057,44*60
$GBGSV,6,5,21,02,07,106,,14,02,140,,56,01,089,,12,07,068,*62
$GBGSV,6,6,21,22,05,021,*5E
$GPGGA,180102.00,,,,,0,00,,,M,,M,,*42
$PTNL,GGK,180102.00,010125,4742.4467304,N,01617.9728409,E,1,22,1.3,EHT668.6028,M*4D
$GPGGQ,180102.00,010125,4742.4467304,N,01617.9728409,E,1,22,2.778,625.3917,M*32
$GPGFA,180102.00,19.271,14.667,2.027,0.639,3.805,1.789,,VVV*05
$GPLLK,180102.00,010125,,M,,M,1,22,1.5,,M*05
$GNGMP,180102.00,,,,,DAAA,22,0.7,,,,*5B
$GPGMP,180102.00,,,,,,05,,,,2.8,123*78
$GLGMP,180102.00,,,,,,05,,,,,*70
$GAGMP,180102.00,,,,,,04,,,,,*7C
$GBGMP,180102.00,,,,,,08,,,,,*73
$PSSN,SNC,[0,324080000,2347]*49
$GPZDA,180107.00,01,01,2025,,*6C
$GPDTM,W84,,00.0000000,N,00.0000000,E,00.0000000,W84*5F
$GPRMC,180107.00,A,4742.4467249,N,01617.9728430,E,0.0,,010125,5.1,E,D*1B
$GPGLL,4742.4467249,N,01617.9728430,E,180107.00,A,D*6A
$GPGGA,180107.00,4742.4467249,N,01617.9728430,E,2,23,0.6,625.3877,M,43.2111,M,3.8,0123*45
$GNGNS,180107.00,4742.4467249,N,01617.9728430,E,DAAA,23,0.6,625.3877,43.2111,,*52
$GPGNS,180107.00,,,,,,06,,,,3.8,123*7F
$GLGNS,180107.00,,,,,,05,,,,,*75
$GAGNS,180107.00,,,,,,04,,,,,*79
$GBGNS,180107.00,,,,,,08,,,,,*76
$GPLLQ,180107.00,010125,,M,,M,1,23,2.474,,M*1A
$GPVTG,,T,,M,0.01,N,0.01,K,D*26
$GPHDT,,T*1B
$GPTHS,,V*0E
$GPROT,,V*08
$PSSN,HRP,180107.00,010125,,,,,,,00,0,,*6E
$PTNL,AVR,180107.00,,Yaw,,Tilt,,,,0,,00*38
$GPGSA,A,3,16,18,23,26,27,29,,,,,,,1.2,0.6,1.1*32
$GPGSA,A,3,73,79,80,81,82,,,,,,,,1.2,0.6,1.1*36
$GPGSA,A,3,13,15,21,27,,,,,,,,,1.2,0.6,1.1*37
$GPGSA,A,3,11,13,23,28,34,37,38,43,,,,,1.2,0.6,1.1*31
$GPGST,180107.00,5.071,1.637,0.671,8.486,1.622,0.706,1.729*51
$GPGBS,180107.00,5.477,3.618,6.503,23,0.0001,-2.836,0.853*71
$GPGRS,180107.00,1,0.7,-0.5,-2.8,0.1,-0.5,1.2,,,,,,*63
$GPGRS,180107.00,1,0.6,6.5,-1.9,5.5,-0.8,,,,,,,*6A
$GPGRS,180107.00,1,0.3,0.7,0.2,1.3,,,,,,,,*45
$GPGRS,180107.00,1,0.5,-2.0,-0.9,3.4,-4.0,16.7,3.0,0.7,,,,*55
$GPGSV,4,1,15,18,79,086,49,23,29,148,36,05,20,042,32,31,22,229,31*77
$GPGSV,4,2,15,27,20,281,39,16,49,301,43,29,34,084,41,26,69,245,50*7A
$GPGSV,4,3,15,28,07,207,,10,02,176,,25,04,145,,36,35,170,39*7D
$GPGSV,4,4,15,34,31,208,34,49,34,195,37,61,03,257,*42
$GLGSV,2,1,08,82,74,314,49,65,16,030,30,66,14,079,,79,26,175,44*6A
$GLGSV,2,2,08,73,32,322,45,81,40,045,41,83,38,251,30,80,67,238,53*60
$GAGSV,3,1,10,21,65,290,44,26,12,222,,23,15,313,,14,16,274,*62
$GAGSV,3,2,10,27,53,154,42,15,57,056,47,13,64,209,38,09,01,355,*60
$GAGSV,3,3,10,30,04,140,,34,07,046,*69
$GBGSV,6,1,21,43,82,024,48,42,12,117,,60,10,109,,25,14,177,20*64
$GBGSV,6,2,21,21,18,068,32,58,11,325,,50,18,092,,38,28,040,36*67
$GBGSV,6,3,21,05,22,129,,28,29,256,41,08,40,050,31,37,37,298,39*65
$GBGSV,6,4,21,34,34,069,45,23,48,223,45,13,44,060,39,11,59,057,44*6B
$GBGSV,6,5,21,02,07,106,,14,02,140,,56,01,089,,12,07,068,*62
$GBGSV,6,6,21,22,05,021,*5E
$GPGGA,180107.00,,,,,0,00,,,M,,M,,*47
$PTNL,GGK,180107.00,010125,4742.4467249,N,01617.9728430,E,1,23,1.2,EHT668.5988,M*4A
$GPGGQ,180107.00,010125,4742.4467249,N,01617.9728430,E,1,23,2.474,625.3877,M*3C
$GPGFA,180107.00,15.563,14.180,1.637,0.671,8.486,1.729,,VVV*08
$GPLLK,180107.00,010125,,M,,M,1,23,1.5,,M*01
$GNGMP,180107.00,,,,,DAAA,23,0.6,,,,*5E
$GPGMP,180107.00,,,,,,06,,,,3.8,123*7F
$GLGMP,180107.00,,,,,,05,,,,,*75
$GAGMP,180107.00,,,,,,04,,,,,*79
$GBGMP,180107.00,,,,,,08,,,,,*76
$PSSN,SNC,[0,324085000,2347]*4C
$GPZDA,180112.00,01,01,2025,,*68
$GPDTM,W84,,00.0000000,N,00.0000000,E,00.0000000,W84*5F
$GPRMC,180112.00,A,4742.4467099,N,01617.9728347,E,0.0,,010125,5.1,E,D*17
$GPGLL,4742.4467099,N,01617.9728347,E,180112.00,A,D*66
$GPGGA,180112.00,4742.4467099,N,01617.9728347,E,2,23,0.6,625.3931,M,43.2111,M,1.5,0123*45
$GNGNS,180112.00,4742.4467099,N,01617.9728347,E,DAAA,23,0.6,625.3931,43.2111,,*5D
$GPGNS,180112.00,,,,,,06,,,,1.5,123*74
$GLGNS,180112.00,,,,,,05,,,,,*71
$GAGNS,180112.00,,,,,,04,,,,,*7D
$GBGNS,180112.00,,,,,,08,,,,,*72
$GPLLQ,180112.00,010125,,M,,M,1,23,2.007,,M*1E
$GPVTG,,T,,M,0.00,N,0.00,K,D*26
$GPHDT,,T*1B
$GPTHS,,V*0E
$GPROT,,V*08
$PSSN,HRP,180112.00,010125,,,,,,,00,0,,*6A
$PTNL,AVR,180112.00,,Yaw,,Tilt,,,,0,,00*3C
$GPGSA,A,3,16,18,23,26,27,29,,,,,,,1.2,0.6,1.1*32
$GPGSA,A,3,73,79,80,81,82,,,,,,,,1.2,0.6,1.1*36
$GPGSA,A,3,13,15,21,27,,,,,,,,,1.2,0.6,1.1*37
$GPGSA,A,3,11,13,23,28,34,37,38,43,,,,,1.2,0.6,1.1*31
$GPGST,180112.00,4.676,1.183,0.592,19.191,1.134,0.681,1.509*6E
$GPGBS,180112.00,5.129,3.548,6.176,29,0.0001,2.104,0.840*56
$GPGRS,180112.00,1,0.1,-0.5,-1.0,-0.0,-0.4,2.1,,,,,,*47
$GPGRS,180112.00,1,1.9,-0.7,-1.6,0.6,-1.2,,,,,,,*4B
$GPGRS,180112.00,1,-0.4,1.3,-0.1,1.3,,,,,,,,*40
$GPGRS,180112.00,1,1.3,-2.5,-0.5,4.2,-3.3,17.0,2.5,1.3,,,,*5D
$GPGSV,4,1,15,18,79,086,49,23,29,148,37,05,20,042,32,27,20,281,39*79
$GPGSV,4,2,15,31,22,228,30,16,49,301,43,29,34,084,41,26,69,244,50*74
$GPGSV,4,3,15,28,07,207,,25,04,145,,10,02,176,,36,35,170,38*7C
$GPGSV,4,4,15,34,31,208,35,49,34,195,37,61,03,257,*43
$GLGSV,2,1,08,82,74,314,48,65,16,030,,66,14,079,,79,25,175,43*6C
$GLGSV,2,2,08,73,32,322,45,81,40,045,41,83,38,251,28,80,67,238,53*69
$GAGSV,3,1,10,21,65,290,43,26,12,222,,23,15,313,,14,16,274,*65
$GAGSV,3,2,10,27,53,154,42,15,57,056,47,13,64,209,39,09,01,355,*61
$GAGSV,3,3,10,30,04,140,,34,07,046,*69
$GBGSV,6,1,21,43,82,025,47,42,12,117,,60,10,109,,25,14,177,21*6B
$GBGSV,6,2,21,21,18,068,32,58,11,325,,50,18,092,,38,28,040,37*66
$GBGSV,6,3,21,05,22,129,,28,29,256,41,08,40,050,22,37,37,298,37*69
$GBGSV,6,4,21,34,34,069,44,23,48,223,46,13,44,060,39,11,59,057,44*69
$GBGSV,6,5,21,02,07,106,,14,02,140,,56,01,089,,12,07,068,*62
$GBGSV,6,6,21,22,05,021,*5E
$GPGGA,180112.00,,,,,0,00,,,M,,M,,*43
$PTNL,GGK,180112.00,010125,4742.4467099,N,01617.9728347,E,1,23,1.2,EHT668.6041,M*49
$GPGGQ,180112.00,010125,4742.4467099,N,01617.9728347,E,1,23,2.007,625.3931,M*33
$GPGFA,180112.00,11.248,12.372,1.183,0.592,19.191,1.509,,VVV*3A
$GPLLK,180112.00,010125,,M,,M,1,23,1.5,,M*05
$GNGMP,180112.00,,,,,DAAA,23,0.6,,,,*5A
$GPGMP,180112.00,,,,,,06,,,,1.5,123*74
$GLGMP,180112.00,,,,,,05,,,,,*71
$GAGMP,180112.00,,,,,,04,,,,,*7D
$GBGMP,180112.00,,,,,,08,,,,,*72
$PSSN,SNC,[0,324090000,2347]*48
$GPZDA,180117.00,01,01,2025,,*6D
$GPDTM,W84,,00.0000000,N,00.0000000,E,00.0000000,W84*5F
$GPRMC,180117.00,A,4742.4466996,N,01617.9728209,E,0.0,,010125,5.1,E,D*1E
$GPGLL,4742.4466996,N,01617.9728209,E,180117.00,A,D*6F
$GPGGA,180117.00,4742.4466996,N,01617.9728209,E,2,21,0.7,625.4008,M,43.2111,M,1.8,0123*46
$GNGNS,180117.00,4742.4466996,N,01617.9728209,E,DAAA,21,0.7,625.4008,43.2111,,*53
$GPGNS,180117.00,,,,,,06,,,,1.8,123*7C
$GLGNS,180117.00,,,,,,04,,,,,*75
$GAGNS,180117.00,,,,,,04,,,,,*78
$GBGNS,180117.00,,,,,,07,,,,,*78
$GPLLQ,180117.00,010125,,M,,M,1,21,1.535,,M*1E
$GPVTG,,T,,M,0.00,N,0.00,K,D*26
$GPHDT,,T*1B
$GPTHS,,V*0E
$GPROT,,V*08
$PSSN,HRP,180117.00,010125,,,,,,,00,0,,*6F
$PTNL,AVR,180117.00,,Yaw,,Tilt,,,,0,,00*39
$GPGSA,A,3,16,18,23,26,27,29,,,,,,,1.3,0.7,1.1*32
$GPGSA,A,3,73,79,80,82,,,,,,,,,1.3,0.7,1.1*3F
$GPGSA,A,3,13,15,21,27,,,,,,,,,1.3,0.7,1.1*37
$GPGSA,A,3,11,13,23,28,34,38,43,,,,,,1.3,0.7,1.1*35
$GPGST,180117.00,2.066,0.913,0.453,19.611,0.873,0.526,1.148*6D
$GPGBS,180117.00,5.330,3.556,6.273,29,0.0001,1.437,0.803*51
$GPGRS,180117.00,1,0.2,-0.6,-0.9,0.1,-0.6,1.4,,,,,,*62
$GPGRS,180117.00,1,2.9,-2.3,-1.6,-1.3,,,,,,,,*62
$GPGRS,180117.00,1,0.8,1.4,-0.2,0.5,,,,,,,,*67
$GPGRS,180117.00,1,1.6,-2.6,-0.3,4.1,-2.0,2.0,1.2,,,,,*45
$GPGSV,4,1,15,18,79,086,49,23,29,148,37,05,20,042,29,27,21,281,38*73
$GPGSV,4,2,15,31,22,228,28,16,49,301,43,29,34,084,39,26,69,244,50*72
$GPGSV,4,3,15,28,07,207,,25,04,145,,10,02,176,,36,35,170,38*7C
$GPGSV,4,4,15,34,31,208,34,49,34,195,36,61,03,257,*43
$GLGSV,2,1,08,82,74,314,49,65,16,030,,66,14,079,,79,25,175,40*6E
$GLGSV,2,2,08,73,32,322,45,81,40,045,40,83,38,251,27,80,67,237,52*69
$GAGSV,3,1,10,21,65,290,44,26,12,222,,23,16,313,,14,16,274,*61
$GAGSV,3,2,10,27,53,154,41,15,57,056,48,13,64,209,41,09,01,355,*62
$GAGSV,3,3,10,30,04,140,,34,07,046,*69
$GBGSV,6,1,21,43,82,025,47,42,12,117,,60,10,109,,25,14,177,20*6A
$GBGSV,6,2,21,21,18,068,31,58,11,325,,50,18,092,,38,28,040,37*65
$GBGSV,6,3,21,05,22,129,,28,29,256,40,08,40,050,22,37,37,298,35*6A
$GBGSV,6,4,21,34,34,069,43,23,48,223,46,13,44,060,38,11,59,057,44*6F
$GBGSV,6,5,21,02,07,106,,14,02,140,,56,01,089,,12,07,068,*62
$GBGSV,6,6,21,22,05,021,*5E
$GPGGA,180117.00,,,,,0,00,,,M,,M,,*46
$PTNL,GGK,180117.00,010125,4742.4466996,N,01617.9728209,E,1,21,1.3,EHT668.6119,M*4F
$GPGGQ,180117.00,010125,4742.4466996,N,01617.9728209,E,1,21,1.535,625.4008,M*3B
$GPGFA,180117.00,8.678,9.417,0.913,0.453,19.611,1.148,,VVV*3C
$GPLLK,180117.00,010125,,M,,M,1,21,1.5,,M*02
$GNGMP,180117.00,,,,,DAAA,21,0.7,,,,*5C
$GPGMP,180117.00,,,,,,06,,,,1.8,123*7C
$GLGMP,180117.00,,,,,,04,,,,,*75
$GAGMP,180117.00,,,,,,04,,,,,*78
$GBGMP,180117.00,,,,,,07,,,,,*78
$PSSN,SNC,[0,324095000,2347]*4D
$GPZDA,180122.00,01,01,2025,,*6B
$GPDTM,W84,,00.0000000,N,00.0000000,E,00.0000000,W84*5F
$GPRMC,180122.00,A,4742.4466983,N,01617.9728235,E,0.0,,010125,5.1,E,D*13
$GPGLL,4742.4466983,N,01617.9728235,E,180122.00,A,D*62
$GPGGA,180122.00,4742.4466983,N,01617.9728235,E,2,22,0.7,625.3931,M,43.2111,M,2.8,0123*4F
$GNGNS,180122.00,4742.4466983,N,01617.9728235,E,DAAA,22,0.7,625.3931,43.2111,,*59
$GPGNS,180122.00,,,,,,06,,,,2.8,123*79
$GLGNS,180122.00,,,,,,05,,,,,*72
$GAGNS,180122.00,,,,,,04,,,,,*7E
$GBGNS,180122.00,,,,,,07,,,,,*7E
$GPLLQ,180122.00,010125,,M,,M,1,22,1.841,,M*15
$GPVTG,,T,,M,0.01,N,0.02,K,D*25
$GPHDT,,T*1B
$GPTHS,,V*0E
$GPROT,,V*08
$PSSN,HRP,180122.00,010125,,,,,,,00,0,,*69
$PTNL,AVR,180122.00,,Yaw,,Tilt,,,,0,,00*3F
$GPGSA,A,3,16,18,23,26,27,29,,,,,,,1.3,0.7,1.1*32
$GPGSA,A,3,73,79,80,81,82,,,,,,,,1.3,0.7,1.1*36
$GPGSA,A,3,13,15,21,27,,,,,,,,,1.3,0.7,1.1*37
$GPGSA,A,3,11,13,23,28,34,38,43,,,,,,1.3,0.7,1.1*35
$GPGST,180122.00,2.098,1.082,0.544,18.817,1.039,0.622,1.387*65
$GPGBS,180122.00,5.345,3.570,6.408,27,0.0001,-1.930,0.973*74
$GPGRS,180122.00,1,1.2,-0.2,0.5,0.5,-1.9,-1.4,,,,,,*67
$GPGRS,180122.00,1,3.5,-2.3,-1.6,2.7,-0.6,,,,,,,*46
$GPGRS,180122.00,1,1.9,1.2,0.4,-0.5,,,,,,,,*61
$GPGRS,180122.00,1,1.9,-2.3,0.7,-1.4,-0.1,3.4,1.4,,,,,*4D
$GPGSV,4,1,15,18,79,086,49,23,29,148,36,05,20,042,22,27,21,281,36*77
$GPGSV,4,2,15,31,22,228,28,16,49,301,42,29,34,084,35,26,69,244,49*77
$GPGSV,4,3,15,28,07,207,,25,03,145,,10,02,176,,36,35,170,39*7A
$GPGSV,4,4,15,34,31,208,34,49,34,195,36,61,03,257,*43
$GLGSV,2,1,08,82,74,314,49,65,16,030,22,66,14,079,,79,25,175,38*61
$GLGSV,2,2,08,73,32,322,46,81,40,045,41,83,38,251,28,80,67,237,51*67
$GAGSV,3,1,10,21,65,290,44,26,12,222,,23,16,313,,14,16,274,*61
$GAGSV,3,2,10,27,53,154,40,15,57,056,47,13,64,209,43,09,01,355,*6E
$GAGSV,3,3,10,30,04,140,,34,07,046,*69
$GBGSV,6,1,21,43,82,025,48,42,12,117,,60,10,109,,25,14,177,20*65
$GBGSV,6,2,21,21,18,068,31,58,11,325,,50,18,092,,38,28,040,38*6A
$GBGSV,6,3,21,05,22,129,,28,29,256,40,08,40,050,19,37,37,298,33*64
$GBGSV,6,4,21,34,34,069,43,23,48,223,47,13,44,060,38,11,59,057,44*6E
$GBGSV,6,5,21,02,07,106,,14,02,140,,56,01,089,,12,07,068,*62
$GBGSV,6,6,21,22,05,021,*5E
$GPGGA,180122.00,,,,,0,00,,,M,,M,,*40
$PTNL,GGK,180122.00,010125,4742.4466983,N,01617.9728235,E,1,22,1.3,EHT668.6041,M*4D
$GPGGQ,180122.00,010125,4742.4466983,N,01617.9728235,E,1,22,1.841,625.3931,M*3F
$GPGFA,180122.00,10.290,11.372,1.082,0.544,18.817,1.387,,VVV*33
$GPLLK,180122.00,010125,,M,,M,1,22,1.5,,M*07
$GNGMP,180122.00,,,,,DAAA,22,0.7,,,,*59
$GPGMP,180122.00,,,,,,06,,,,2.8,123*79
$GLGMP,180122.00,,,,,,05,,,,,*72
$GAGMP,180122.00,,,,,,04,,,,,*7E
$GBGMP,180122.00,,,,,,07,,,,,*7E
$PSSN,SNC,[0,324100000,2347]*40
$GPZDA,180127.00,01,01,2025,,*6E
$GPDTM,W84,,00.0000000,N,00.0000000,E,00.0000000,W84*5F
$GPRMC,180127.00,A,4742.4467021,N,01617.9728162,E,0.0,,010125,5.1,E,D*17
$GPGLL,4742.4467021,N,01617.9728162,E,180127.00,A,D*66
$GPGGA,180127.00,4742.4467021,N,01617.9728162,E,2,19,0.8,625.3840,M,43.2111,M,4.0,0123*45
$GNGNS,180127.00,4742.4467021,N,01617.9728162,E,DAAA,19,0.8,625.3840,43.2111,,*5D
$GPGNS,180127.00,,,,,,03,,,,4.0,123*77
$GLGNS,180127.00,,,,,,05,,,,,*77
$GAGNS,180127.00,,,,,,04,,,,,*7B
$GBGNS,180127.00,,,,,,07,,,,,*7B
$GPLLQ,180127.00,010125,,M,,M,1,19,5.525,,M*13
$GPVTG,,T,,M,0.00,N,0.01,K,D*27
$GPHDT,,T*1B
$GPTHS,,V*0E
$GPROT,,V*08
$PSSN,HRP,180127.00,010125,,,,,,,00,0,,*6C
$PTNL,AVR,180127.00,,Yaw,,Tilt,,,,0,,00*3A
$GPGSA,A,3,16,18,26,,,,,,,,,,1.5,0.8,1.3*36
$GPGSA,A,3,73,79,80,81,82,,,,,,,,1.5,0.8,1.3*3D
$GPGSA,A,3,13,15,21,27,,,,,,,,,1.5,0.8,1.3*3C
$GPGSA,A,3,11,13,23,28,34,38,43,,,,,,1.5,0.8,1.3*3E
$GPGST,180127.00,3.488,1.719,1.123,334.175,1.623,1.258,5.129*52
$GPGBS,180127.00,15.352,9.708,55.287,81,0.0001,7.174,6.119*5B
$GPGRS,180127.00,1,0.0,-0.1,-0.1,,,,,,,,,*6D
$GPGRS,180127.00,1,3.5,-3.7,-2.0,7.2,-1.4,,,,,,,*40
$GPGRS,180127.00,1,2.5,0.7,1.4,-2.3,,,,,,,,*6A
$GPGRS,180127.00,1,1.6,-2.8,1.0,-4.6,0.4,3.8,1.2,,,,,*6F
$GPGSV,4,1,15,18,79,085,48,23,29,148,34,05,20,042,21,27,21,281,34*76
$GPGSV,4,2,15,31,22,228,25,16,49,301,41,29,34,084,31,26,69,244,50*75
$GPGSV,4,3,15,28,07,207,,25,03,145,,10,02,176,,36,35,170,39*7A
$GPGSV,4,4,15,34,31,208,34,49,34,195,36,61,03,257,*43
$GLGSV,2,1,08,82,74,315,48,65,16,030,,66,14,079,,79,25,175,36*6F
$GLGSV,2,2,08,73,32,322,46,81,40,045,43,83,38,251,28,80,67,237,51*65
$GAGSV,3,1,10,21,65,290,44,26,12,222,,23,16,313,,14,16,274,*61
$GAGSV,3,2,10,27,53,154,39,15,57,056,47,13,64,209,44,09,01,355,*67
$GAGSV,3,3,10,30,04,140,,34,07,046,*69
$GBGSV,6,1,21,43,82,025,48,42,12,117,,60,10,109,,25,14,177,19*6F
$GBGSV,6,2,21,21,18,068,30,58,11,325,,50,18,092,,38,28,040,39*6A
$GBGSV,6,3,21,05,22,129,,28,29,256,39,08,40,050,19,37,37,298,31*68
$GBGSV,6,4,21,34,34,069,44,23,48,223,48,13,44,060,37,11,59,057,43*6E
$GBGSV,6,5,21,02,07,106,,14,02,140,,56,01,089,,12,07,068,*62
$GBGSV,6,6,21,22,05,021,*5E
$GPGGA,180127.00,,,,,0,00,,,M,,M,,*45
$PTNL,GGK,180127.00,010125,4742.4467021,N,01617.9728162,E,1,19,1.5,EHT668.5951,M*4C
$GPGGQ,180127.00,010125,4742.4467021,N,01617.9728162,E,1,19,5.525,625.3840,M*3F
$GPGFA,180127.00,16.348,42.057,1.719,1.123,334.175,5.129,,VVV*05
$GPLLK,180127.00,010125,,M,,M,1,19,1.8,,M*07
$GNGMP,180127.00,,,,,DAAA,19,0.8,,,,*5B
$GPGMP,180127.00,,,,,,03,,,,4.0,123*77
$GLGMP,180127.00,,,,,,05,,,,,*77
$GAGMP,180127.00,,,,,,04,,,,,*7B
$GBGMP,180127.00,,,,,,07,,,,,*7B
$PSSN,SNC,[0,324105000,2347]*45
$GPZDA,180132.00,01,01,2025,,*6A
$GPDTM,W84,,00.0000000,N,00.0000000,E,00.0000000,W84*5F
$GPRMC,180132.00,A,4742.4466993,N,01617.9728158,E,0.0,,010125,5.1,E,D*1B
$GPGLL,4742.4466993,N,01617.9728158,E,180132.00,A,D*6A
$GPGGA,180132.00,4742.4466993,N,01617.9728158,E,2,20,0.7,625.3943,M,43.2111,M,1.0,0123*4B
$GNGNS,180132.00,4742.4466993,N,01617.9728158,E,DAAA,20,0.7,625.3943,43.2111,,*56
$GPGNS,180132.00,,,,,,03,,,,1.0,123*76
$GLGNS,180132.00,,,,,,05,,,,,*73
$GAGNS,180132.00,,,,,,04,,,,,*7F
$GBGNS,180132.00,,,,,,08,,,,,*70
$GPLLQ,180132.00,010125,,M,,M,1,20,5.486,,M*15
$GPVTG,,T,,M,0.01,N,0.01,K,D*26
$GPHDT,,T*1B
$GPTHS,,V*0E
$GPROT,,V*08
$PSSN,HRP,180132.00,010125,,,,,,,00,0,,*68
$PTNL,AVR,180132.00,,Yaw,,Tilt,,,,0,,00*3E
