$GPZDA,161442.00,01,01,2025,,*67
$GPDTM,W84,,00.0000000,N,00.0000000,E,00.0000000,W84*5F
$GPRMC,161442.00,A,4742.4458459,N,01617.9728717,E,0.0,,010125,5.1,E,D*1D
$GPGLL,4742.4458459,N,01617.9728717,E,161442.00,A,D*6C
$GPGGA,161442.00,4742.4458459,N,01617.9728717,E,2,26,0.6,627.3149,M,43.2111,M,2.6,0123*4F
$GNGNS,161442.00,4742.4458459,N,01617.9728717,E,DAAA,26,0.6,627.3149,43.2111,,*57
$GPGNS,161442.00,,,,,,05,,,,2.6,123*78
$GLGNS,161442.00,,,,,,06,,,,,*7D
$GAGNS,161442.00,,,,,,06,,,,,*70
$GBGNS,161442.00,,,,,,09,,,,,*7C
$GPLLQ,161442.00,010125,,M,,M,1,26,3.445,,M*17
$GPVTG,,T,,M,0.01,N,0.02,K,D*25
$GPHDT,,T*1B
$GPTHS,,V*0E
$GPROT,,V*08
$PSSN,HRP,161442.00,010125,,,,,,,00,0,,*65
$PTNL,AVR,161442.00,,Yaw,,Tilt,,,,0,,00*33
$GPGSA,A,3,18,25,28,29,31,,,,,,,,1.2,0.6,1.1*3A
$GPGSA,A,3,78,79,80,81,82,88,,,,,,,1.2,0.6,1.1*3D
$GPGSA,A,3,13,15,21,27,30,34,,,,,,,1.2,0.6,1.1*33
$GPGSA,A,3,08,11,12,13,23,25,34,38,43,,,,1.2,0.6,1.1*33
$GPGST,161442.00,3.001,1.156,0.617,21.202,1.101,0.711,3.187*6A
$GPGBS,161442.00,6.436,5.336,16.210,25,0.0001,0.936,0.893*63
$GPGRS,161442.00,1,0.7,0.9,-0.5,-0.4,-0.9,,,,,,,*4F
$GPGRS,161442.00,1,-1.6,1.3,-2.0,2.0,6.5,3.1,,,,,,*4E
$GPGRS,161442.00,1,-0.2,-0.7,0.9,-0.1,0.5,-1.1,,,,,,*42
$GPGRS,161442.00,1,-0.7,1.2,2.8,1.5,8.8,2.0,-0.3,-2.6,1.2,,,*45
$GPGSV,4,1,16,29,77,039,50,12,10,119,,11,11,039,28,26,34,301,33*75
$GPGSV,4,2,16,20,20,054,26,05,22,091,30,18,40,185,39,25,48,124,42*72
$GPGSV,4,3,16,31,45,282,41,28,48,241,42,04,04,331,36,16,05,299,32*75
$GPGSV,4,4,16,36,35,170,38,34,31,208,35,49,34,195,37,61,03,257,*7E
$GLGSV,2,1,08,79,87,192,50,80,34,321,51,82,31,218,40,78,32,144,45*62
$GLGSV,2,2,08,88,38,039,43,81,83,219,50,71,07,342,24,72,06,027,*62
$GAGSV,3,1,09,27,86,328,46,34,40,052,41,19,10,289,22,13,21,193,36*67
$GAGSV,3,2,09,21,31,300,36,30,39,116,38,15,62,141,45,04,04,342,28*69
$GAGSV,3,3,09,29,03,247,*58
$GBGSV,5,1,19,11,76,211,47,05,21,129,,56,11,069,,24,12,150,23*67
$GBGSV,5,2,19,44,20,056,30,38,29,057,42,13,33,083,42,23,52,295,37*61
$GBGSV,5,3,19,08,33,073,41,25,60,183,46,12,45,055,40,43,52,228,48*67
$GBGSV,5,4,19,34,75,069,48,37,05,317,33,10,06,085,,19,02,010,*61
$GBGSV,5,5,19,02,06,107,,22,02,057,,60,10,109,*5E
$GPGGA,161442.00,,,,,0,00,,,M,,M,,*4C
$PTNL,GGK,161442.00,010125,4742.4458459,N,01617.9728717,E,1,26,1.2,EHT670.5259,M*47
$GPGGQ,161442.00,010125,4742.4458459,N,01617.9728717,E,1,26,3.445,627.3149,M*3A
$GPGFA,161442.00,10.990,26.131,1.156,0.617,21.202,3.187,,VVV*3C
$GPLLK,161442.00,010125,,M,,M,1,26,1.5,,M*0F
$GNGMP,161442.00,,,,,DAAA,26,0.6,,,,*50
$GPGMP,161442.00,,,,,,05,,,,2.6,123*78
$GLGMP,161442.00,,,,,,06,,,,,*7D
$GAGMP,161442.00,,,,,,06,,,,,*70
$GBGMP,161442.00,,,,,,09,,,,,*7C
$PSSN,SNC,[0,317700000,2347]*46
$GPZDA,161447.00,01,01,2025,,*62
$GPDTM,W84,,00.0000000,N,00.0000000,E,00.0000000,W84*5F
$GPRMC,161447.00,A,4742.4458524,N,01617.9728686,E,0.0,,010125,5.1,E,D*1A
$GPGLL,4742.4458524,N,01617.9728686,E,161447.00,A,D*6B
$GPGGA,161447.00,4742.4458524,N,01617.9728686,E,2,27,0.6,627.3255,M,43.2111,M,3.7,0123*47
$GNGNS,161447.00,4742.4458524,N,01617.9728686,E,DAAA,27,0.6,627.3255,43.2111,,*5F
$GPGNS,161447.00,,,,,,06,,,,3.7,123*7E
$GLGNS,161447.00,,,,,,06,,,,,*78
$GAGNS,161447.00,,,,,,06,,,,,*75
$GBGNS,161447.00,,,,,,09,,,,,*79
$GPLLQ,161447.00,010125,,M,,M,1,27,3.639,,M*1A
$GPVTG,,T,,M,0.01,N,0.01,K,D*26
$GPHDT,,T*1B
$GPTHS,,V*0E
$GPROT,,V*08
$PSSN,HRP,161447.00,010125,,,,,,,00,0,,*60
$PTNL,AVR,161447.00,,Yaw,,Tilt,,,,0,,00*36
$GPGSA,A,3,18,25,26,28,29,31,,,,,,,1.2,0.6,1.0*3F
$GPGSA,A,3,78,79,80,81,82,88,,,,,,,1.2,0.6,1.0*3C
$GPGSA,A,3,13,15,21,27,30,34,,,,,,,1.2,0.6,1.0*32
$GPGSA,A,3,08,11,12,13,23,25,34,38,43,,,,1.2,0.6,1.0*32
$GPGST,161447.00,2.304,1.250,0.709,29.023,1.146,0.867,3.343*6D
$GPGBS,161447.00,4.991,5.290,14.292,28,0.0001,-1.526,0.965*45
$GPGRS,161447.00,1,1.2,0.5,-0.6,-1.5,-0.6,1.2,,,,,,*63
$GPGRS,161447.00,1,-2.6,1.3,-2.8,2.0,5.8,0.2,,,,,,*4E
$GPGRS,161447.00,1,-0.2,-1.0,-1.0,-0.6,-0.1,-1.4,,,,,,*4F
$GPGRS,161447.00,1,-1.5,0.5,2.1,0.9,-4.7,0.9,-1.0,-3.0,0.5,,,*67
$GPGSV,4,1,16,29,77,039,50,12,10,119,,11,10,039,,26,34,301,35*78
$GPGSV,4,2,16,20,20,054,20,05,22,091,29,18,40,185,39,25,48,124,43*7D
$GPGSV,4,3,16,31,45,282,44,28,47,241,41,04,04,331,36,16,05,299,32*7C
$GPGSV,4,4,16,36,35,170,38,34,31,208,35,49,34,195,37,61,03,257,*7E
$GLGSV,2,1,08,79,87,191,51,80,34,321,50,82,31,218,39,78,32,144,45*6F
$GLGSV,2,2,08,88,38,039,39,81,83,219,50,71,07,342,24,72,06,027,*6F
$GAGSV,3,1,09,27,86,328,46,34,40,052,41,19,10,289,22,13,21,193,35*64
$GAGSV,3,2,09,21,31,300,36,30,39,116,38,15,62,141,44,04,04,342,25*65
$GAGSV,3,3,09,29,03,247,*58
$GBGSV,5,1,19,11,76,211,47,05,21,129,,56,11,069,,24,12,150,23*67
$GBGSV,5,2,19,44,20,056,30,38,29,057,42,13,33,083,42,23,52,295,45*64
$GBGSV,5,3,19,08,33,073,41,25,60,183,46,12,45,055,39,43,52,228,48*69
$GBGSV,5,4,19,34,75,068,48,37,05,317,33,10,06,085,,19,02,010,*60
$GBGSV,5,5,19,02,06,107,,22,02,057,,60,10,109,*5E
$GPGGA,161447.00,,,,,0,00,,,M,,M,,*49
$PTNL,GGK,161447.00,010125,4742.4458524,N,01617.9728686,E,1,27,1.2,EHT670.5366,M*4C
$GPGGQ,161447.00,010125,4742.4458524,N,01617.9728686,E,1,27,3.639,627.3255,M*3B
$GPGFA,161447.00,11.885,27.416,1.250,0.709,29.023,3.343,,VVV*34
$GPLLK,161447.00,010125,,M,,M,1,27,1.4,,M*0A
$GNGMP,161447.00,,,,,DAAA,27,0.6,,,,*54
$GPGMP,161447.00,,,,,,06,,,,3.7,123*7E
$GLGMP,161447.00,,,,,,06,,,,,*78
$GAGMP,161447.00,,,,,,06,,,,,*75
$GBGMP,161447.00,,,,,,09,,,,,*79
$PSSN,SNC,[0,317705000,2347]*43
$GPZDA,161452.00,01,01,2025,,*66
$GPDTM,W84,,00.0000000,N,00.0000000,E,00.0000000,W84*5F
$GPRMC,161452.00,A,4742.4458573,N,01617.9728656,E,0.0,,010125,5.1,E,D*11
$GPGLL,4742.4458573,N,01617.9728656,E,161452.00,A,D*60
$GPGGA,161452.00,4742.4458573,N,01617.9728656,E,2,27,0.6,627.3315,M,43.2111,M,2.0,0123*4F
$GNGNS,161452.00,4742.4458573,N,01617.9728656,E,DAAA,27,0.6,627.3315,43.2111,,*51
$GPGNS,161452.00,,,,,,06,,,,2.0,123*7C
$GLGNS,161452.00,,,,,,07,,,,,*7D
$GAGNS,161452.00,,,,,,05,,,,,*72
$GBGNS,161452.00,,,,,,09,,,,,*7D
$GPLLQ,161452.00,010125,,M,,M,1,27,3.783,,M*1E
$GPVTG,,T,,M,0.00,N,0.01,K,D*27
$GPHDT,,T*1B
$GPTHS,,V*0E
$GPROT,,V*08
$PSSN,HRP,161452.00,010125,,,,,,,00,0,,*64
$PTNL,AVR,161452.00,,Yaw,,Tilt,,,,0,,00*32
$GPGSA,A,3,18,25,26,28,29,31,,,,,,,1.2,0.6,1.0*3F
$GPGSA,A,3,71,78,79,80,81,82,88,,,,,,1.2,0.6,1.0*3A
$GPGSA,A,3,15,21,27,30,34,,,,,,,,1.2,0.6,1.0*30
$GPGSA,A,3,08,11,12,13,23,25,34,38,43,,,,1.2,0.6,1.0*32
$GPGST,161452.00,2.299,1.332,0.816,37.866,1.165,1.041,3.445*63
$GPGBS,161452.00,4.649,5.130,14.004,28,0.0001,-2.375,0.931*4D
$GPGRS,161452.00,1,1.7,-0.1,-0.1,-2.4,-0.8,1.9,,,,,,*4B
$GPGRS,161452.00,1,1.8,-2.6,1.9,-4.7,2.6,1.2,0.6,,,,,*62
$GPGRS,161452.00,1,-0.5,-1.2,-0.6,0.3,-1.2,,,,,,,*65
$GPGRS,161452.00,1,-2.3,0.2,1.9,1.1,-4.8,0.1,-1.9,-2.8,0.9,,,*68
$GPGSV,4,1,16,29,77,040,50,12,10,119,,11,10,039,27,26,34,301,37*71
$GPGSV,4,2,16,20,20,054,27,05,22,091,30,18,40,185,40,25,48,125,43*7D
$GPGSV,4,3,16,31,45,282,46,28,47,241,41,04,04,331,25,16,05,299,31*7F
$GPGSV,4,4,16,36,35,170,38,34,31,208,35,49,34,195,37,61,03,257,*7E
$GLGSV,2,1,08,79,87,191,51,80,34,321,49,82,31,218,35,78,32,144,45*6B
$GLGSV,2,2,08,88,38,039,37,81,83,219,50,71,07,341,37,72,06,027,*60
$GAGSV,3,1,09,27,86,328,46,34,40,052,42,19,10,289,20,13,21,193,32*62
$GAGSV,3,2,09,21,31,300,36,30,38,116,37,15,62,141,43,04,04,342,26*6F
$GAGSV,3,3,09,29,03,247,*58
$GBGSV,5,1,19,11,76,211,47,05,21,129,,56,11,069,,24,12,150,24*60
$GBGSV,5,2,19,44,20,056,30,38,29,057,42,13,33,083,42,08,33,073,40*65
$GBGSV,5,3,19,23,52,295,45,25,60,183,46,12,45,055,39,43,52,228,48*69
$GBGSV,5,4,19,34,75,068,48,37,05,317,32,10,06,085,,22,02,057,*6A
$GBGSV,5,5,19,02,06,107,,19,02,010,,60,10,109,*55
$GPGGA,161452.00,,,,,0,00,,,M,,M,,*4D
$PTNL,GGK,161452.00,010125,4742.4458573,N,01617.9728656,E,1,27,1.2,EHT670.5426,M*44
$GPGGQ,161452.00,010125,4742.4458573,N,01617.9728656,E,1,27,3.783,627.3315,M*35
$GPGFA,161452.00,12.665,28.247,1.332,0.816,37.866,3.445,,VVV*3D
$GPLLK,161452.00,010125,,M,,M,1,27,1.4,,M*0E
$GNGMP,161452.00,,,,,DAAA,27,0.6,,,,*50
$GPGMP,161452.00,,,,,,06,,,,2.0,123*7C
$GLGMP,161452.00,,,,,,07,,,,,*7D
$GAGMP,161452.00,,,,,,05,,,,,*72
$GBGMP,161452.00,,,,,,09,,,,,*7D
$PSSN,SNC,[0,317710000,2347]*47
$GPZDA,161457.00,01,01,2025,,*63
$GPDTM,W84,,00.0000000,N,00.0000000,E,00.0000000,W84*5F
$GPRMC,161457.00,A,4742.4458610,N,01617.9728626,E,0.0,,010125,5.1,E,D*15
$GPGLL,4742.4458610,N,01617.9728626,E,161457.00,A,D*64
$GPGGA,161457.00,4742.4458610,N,01617.9728626,E,2,26,0.6,627.3424,M,43.2111,M,1.7,0123*4B
$GNGNS,161457.00,4742.4458610,N,01617.9728626,E,DAAA,26,0.6,627.3424,43.2111,,*51
$GPGNS,161457.00,,,,,,06,,,,1.7,123*7D
$GLGNS,161457.00,,,,,,06,,,,,*79
$GAGNS,161457.00,,,,,,05,,,,,*77
$GBGNS,161457.00,,,,,,09,,,,,*78
$GPLLQ,161457.00,010125,,M,,M,1,26,2.948,,M*12
$GPVTG,,T,,M,0.00,N,0.01,K,D*27
$GPHDT,,T*1B
$GPTHS,,V*0E
$GPROT,,V*08
$PSSN,HRP,161457.00,010125,,,,,,,00,0,,*61
$PTNL,AVR,161457.00,,Yaw,,Tilt,,,,0,,00*37
$GPGSA,A,3,18,25,26,28,29,31,,,,,,,1.2,0.6,1.0*3F
$GPGSA,A,3,71,78,79,80,81,82,,,,,,,1.2,0.6,1.0*3A
$GPGSA,A,3,15,21,27,30,34,,,,,,,,1.2,0.6,1.0*30
$GPGSA,A,3,08,11,12,13,23,25,34,38,43,,,,1.2,0.6,1.0*32
$GPGST,161457.00,2.468,1.049,0.629,37.884,0.913,0.813,2.683*60
$GPGBS,161457.00,4.716,5.202,13.508,28,0.0001,-1.548,0.943*41
$GPGRS,161457.00,1,1.1,0.4,-0.7,-1.5,-0.5,1.3,,,,,,*63
$GPGRS,161457.00,1,3.9,-2.3,1.8,-5.1,2.8,-2.2,,,,,,*6F
$GPGRS,161457.00,1,0.1,-1.1,-0.2,0.2,-0.2,,,,,,,*4E
$GPGRS,161457.00,1,-2.0,0.7,2.1,1.1,-4.3,0.1,-2.8,-2.6,1.2,,,*6D
$GPGSV,4,1,16,29,77,040,51,12,10,119,,11,10,039,26,26,34,301,38*7E
$GPGSV,4,2,16,20,20,054,30,05,22,091,31,18,40,185,41,25,48,125,44*7C
$GPGSV,4,3,16,31,45,282,46,28,47,241,39,04,04,331,24,16,05,299,*73
$GPGSV,4,4,16,36,35,170,38,34,31,208,35,49,34,195,37,61,03,257,*7E
$GLGSV,2,1,08,79,87,190,51,80,34,321,49,82,31,218,35,78,32,144,45*6A
$GLGSV,2,2,08,88,38,039,32,81,83,219,50,71,07,341,37,72,06,027,*65
$GAGSV,3,1,09,27,86,328,47,34,40,052,42,19,10,289,22,13,22,193,30*60
$GAGSV,3,2,09,21,31,300,36,30,38,116,35,15,62,141,42,04,04,342,23*69
$GAGSV,3,3,09,29,03,247,*58
$GBGSV,5,1,19,11,76,211,47,05,21,129,,56,11,069,,24,12,150,25*61
$GBGSV,5,2,19,44,20,056,30,38,29,057,42,13,33,083,41,08,33,073,40*66
$GBGSV,5,3,19,23,52,295,45,25,60,183,47,12,45,055,38,43,52,228,48*69
$GBGSV,5,4,19,34,75,068,47,37,05,317,32,10,06,085,,22,02,057,*65
$GBGSV,5,5,19,02,06,107,,19,02,010,,60,10,109,*55
$GPGGA,161457.00,,,,,0,00,,,M,,M,,*48
$PTNL,GGK,161457.00,010125,4742.4458610,N,01617.9728626,E,1,26,1.2,EHT670.5535,M*42
$GPGGQ,161457.00,010125,4742.4458610,N,01617.9728626,E,1,26,2.948,627.3424,M*3D
$GPGFA,161457.00,9.971,21.999,1.049,0.629,37.884,2.683,,VVV*01
$GPLLK,161457.00,010125,,M,,M,1,26,1.4,,M*0A
$GNGMP,161457.00,,,,,DAAA,26,0.6,,,,*54
$GPGMP,161457.00,,,,,,06,,,,1.7,123*7D
$GLGMP,161457.00,,,,,,06,,,,,*79
$GAGMP,161457.00,,,,,,05,,,,,*77
$GBGMP,161457.00,,,,,,09,,,,,*78
$PSSN,SNC,[0,317715000,2347]*42
$GPZDA,161502.00,01,01,2025,,*62
$GPDTM,W84,,00.0000000,N,00.0000000,E,00.0000000,W84*5F
$GPRMC,161502.00,A,4742.4458649,N,01617.9728536,E,0.0,,010125,5.1,E,D*1A
$GPGLL,4742.4458649,N,01617.9728536,E,161502.00,A,D*6B
$GPGGA,161502.00,4742.4458649,N,01617.9728536,E,2,23,0.7,627.3474,M,43.2111,M,2.7,0123*46
$GNGNS,161502.00,4742.4458649,N,01617.9728536,E,DAAA,23,0.7,627.3474,43.2111,,*5F
$GPGNS,161502.00,,,,,,06,,,,2.7,123*7F
$GLGNS,161502.00,,,,,,05,,,,,*7B
$GAGNS,161502.00,,,,,,04,,,,,*77
$GBGNS,161502.00,,,,,,08,,,,,*78
$GPLLQ,161502.00,010125,,M,,M,1,23,2.863,,M*1E
$GPVTG,,T,,M,0.00,N,0.00,K,D*26
$GPHDT,,T*1B
$GPTHS,,V*0E
$GPROT,,V*08
$PSSN,HRP,161502.00,010125,,,,,,,00,0,,*60
$PTNL,AVR,161502.00,,Yaw,,Tilt,,,,0,,00*36
$GPGSA,A,3,18,25,26,28,29,31,,,,,,,1.3,0.7,1.2*3D
$GPGSA,A,3,78,79,80,81,82,,,,,,,,1.3,0.7,1.2*3E
$GPGSA,A,3,15,21,27,34,,,,,,,,,1.3,0.7,1.2*31
$GPGSA,A,3,08,11,12,13,25,34,38,43,,,,,1.3,0.7,1.2*31
$GPGST,161502.00,2.193,1.010,0.589,37.687,0.877,0.774,2.613*6C
$GPGBS,161502.00,5.142,5.489,14.620,28,0.0001,-1.646,0.960*41
$GPGRS,161502.00,1,0.2,1.0,-0.9,-1.6,-0.2,0.7,,,,,,*6A
$GPGRS,161502.00,1,-2.0,1.3,-4.2,2.2,2.9,,,,,,,*6C
$GPGRS,161502.00,1,1.0,-0.9,-0.2,0.4,,,,,,,,*41
$GPGRS,161502.00,1,-1.6,1.4,3.2,1.4,-0.3,-3.2,-2.3,1.1,,,,*4A
$GPGSV,4,1,16,29,77,040,51,12,10,119,,11,10,039,25,26,35,301,38*7C
$GPGSV,4,2,16,20,20,054,29,05,22,091,29,18,40,185,42,25,48,125,44*7E
$GPGSV,4,3,16,31,45,282,46,28,47,241,38,04,04,331,35,16,05,299,*72
$GPGSV,4,4,16,36,35,170,38,34,31,208,35,49,34,195,37,61,03,257,*7E
$GLGSV,2,1,08,79,87,190,51,80,34,321,49,82,31,218,37,78,32,144,45*68
$GLGSV,2,2,08,88,38,039,29,81,83,219,50,71,07,341,33,72,06,027,*6B
$GAGSV,3,1,09,27,86,329,47,34,40,052,42,19,10,289,30,13,22,193,27*64
$GAGSV,3,2,09,21,31,300,36,30,38,117,35,15,62,141,42,04,04,342,19*61
$GAGSV,3,3,09,29,03,247,*58
$GBGSV,5,1,19,11,76,211,48,05,21,129,,56,10,069,,24,12,150,26*6C
$GBGSV,5,2,19,44,20,056,31,38,29,057,42,13,33,083,41,08,33,073,40*67
$GBGSV,5,3,19,23,52,295,30,25,60,183,47,12,45,055,38,43,52,228,47*64
$GBGSV,5,4,19,34,75,068,46,37,06,317,31,10,06,085,,22,02,057,*64
$GBGSV,5,5,19,02,06,107,,19,02,010,,60,10,109,*55
$GPGGA,161502.00,,,,,0,00,,,M,,M,,*49
$PTNL,GGK,161502.00,010125,4742.4458649,N,01617.9728536,E,1,23,1.3,EHT670.5585,M*42
$GPGGQ,161502.00,010125,4742.4458649,N,01617.9728536,E,1,23,2.863,627.3474,M*3A
$GPGFA,161502.00,9.607,21.431,1.010,0.589,37.687,2.613,,VVV*00
$GPLLK,161502.00,010125,,M,,M,1,23,1.6,,M*0C
$GNGMP,161502.00,,,,,DAAA,23,0.7,,,,*51
$GPGMP,161502.00,,,,,,06,,,,2.7,123*7F
$GLGMP,161502.00,,,,,,05,,,,,*7B
$GAGMP,161502.00,,,,,,04,,,,,*77
$GBGMP,161502.00,,,,,,08,,,,,*78
$PSSN,SNC,[0,317720000,2347]*44
$GPZDA,161507.00,01,01,2025,,*67
$GPDTM,W84,,00.0000000,N,00.0000000,E,00.0000000,W84*5F
$GPRMC,161507.00,A,4742.4458685,N,01617.9728475,E,0.0,,010125,5.1,E,D*19
$GPGLL,4742.4458685,N,01617.9728475,E,161507.00,A,D*68
$GPGGA,161507.00,4742.4458685,N,01617.9728475,E,2,23,0.7,627.3450,M,43.2111,M,3.7,0123*42
$GNGNS,161507.00,4742.4458685,N,01617.9728475,E,DAAA,23,0.7,627.3450,43.2111,,*5A
$GPGNS,161507.00,,,,,,06,,,,3.7,123*7B
$GLGNS,161507.00,,,,,,05,,,,,*7E
$GAGNS,161507.00,,,,,,04,,,,,*72
$GBGNS,161507.00,,,,,,08,,,,,*7D
$GPLLQ,161507.00,010125,,M,,M,1,23,2.900,,M*1F
$GPVTG,,T,,M,0.00,N,0.01,K,D*27
$GPHDT,,T*1B
$GPTHS,,V*0E
$GPROT,,V*08
$PSSN,HRP,161507.00,010125,,,,,,,00,0,,*65
$PTNL,AVR,161507.00,,Yaw,,Tilt,,,,0,,00*33
$GPGSA,A,3,18,25,26,28,29,31,,,,,,,1.3,0.7,1.2*3D
$GPGSA,A,3,78,79,80,81,82,,,,,,,,1.3,0.7,1.2*3E
$GPGSA,A,3,15,21,27,34,,,,,,,,,1.3,0.7,1.2*31
$GPGSA,A,3,08,11,12,13,25,34,38,43,,,,,1.3,0.7,1.2*31
$GPGST,161507.00,3.275,1.022,0.597,37.872,0.886,0.785,2.647*68
$GPGBS,161507.00,5.174,5.537,14.777,82,0.0001,10.004,6.353*57
$GPGRS,161507.00,1,-0.0,0.7,-1.4,-0.4,-0.2,0.6,,,,,,*48
$GPGRS,161507.00,1,-2.4,0.7,-4.6,2.0,10.0,,,,,,,*54
$GPGRS,161507.00,1,1.0,-0.3,0.0,0.2,,,,,,,,*67
$GPGRS,161507.00,1,-1.8,2.5,3.0,1.7,-0.4,-3.0,-2.2,0.6,,,,*40
$GPGSV,4,1,16,29,77,040,51,12,10,119,,11,10,039,24,26,35,301,38*7D
$GPGSV,4,2,16,20,20,054,,05,22,091,,18,40,185,42,25,48,125,44*7E
$GPGSV,4,3,16,31,45,282,46,28,47,241,39,04,04,331,34,16,05,299,*72
$GPGSV,4,4,16,36,35,170,37,34,31,208,35,49,34,195,37,61,03,257,*71
$GLGSV,2,1,08,79,87,189,50,80,34,321,49,82,31,218,39,78,32,144,45*6F
$GLGSV,2,2,08,88,38,039,28,81,83,219,50,71,07,341,36,72,06,027,*6F
$GAGSV,3,1,09,27,86,329,48,34,40,052,42,19,10,289,25,13,22,193,24*6C
$GAGSV,3,2,09,21,31,300,37,30,38,117,35,15,62,140,42,04,04,342,21*6A
$GAGSV,3,3,09,29,02,247,*59
$GBGSV,5,1,19,11,76,211,48,05,21,129,,56,10,069,,24,12,150,26*6C
$GBGSV,5,2,19,44,20,056,32,38,29,057,41,13,33,083,41,08,33,073,40*67
$GBGSV,5,3,19,23,52,295,24,25,59,183,48,12,44,055,36,43,53,228,47*6A
$GBGSV,5,4,19,34,75,068,46,37,06,317,30,10,06,085,,22,02,057,*65
$GBGSV,5,5,19,02,06,107,,19,02,010,,60,10,109,*55
$GPGGA,161507.00,,,,,0,00,,,M,,M,,*4C
$PTNL,GGK,161507.00,010125,4742.4458685,N,01617.9728475,E,1,23,1.3,EHT670.5561,M*4B
$GPGGQ,161507.00,010125,4742.4458685,N,01617.9728475,E,1,23,2.900,627.3450,M*3B
$GPGFA,161507.00,9.713,21.708,1.022,0.597,37.872,2.647,,VVV*03
$GPLLK,161507.00,010125,,M,,M,1,23,1.6,,M*09
$GNGMP,161507.00,,,,,DAAA,23,0.7,,,,*54
$GPGMP,161507.00,,,,,,06,,,,3.7,123*7B
$GLGMP,161507.00,,,,,,05,,,,,*7E
$GAGMP,161507.00,,,,,,04,,,,,*72
$GBGMP,161507.00,,,,,,08,,,,,*7D
$PSSN,SNC,[0,317725000,2347]*41
$GPZDA,161512.00,01,01,2025,,*63
$GPDTM,W84,,00.0000000,N,00.0000000,E,00.0000000,W84*5F
$GPRMC,161512.00,A,4742.4458746,N,01617.9728455,E,0.0,,010125,5.1,E,D*11
$GPGLL,4742.4458746,N,01617.9728455,E,161512.00,A,D*60
$GPGGA,161512.00,4742.4458746,N,01617.9728455,E,2,24,0.7,627.3434,M,43.2111,M,2.0,0123*49
$GNGNS,161512.00,4742.4458746,N,01617.9728455,E,DAAA,24,0.7,627.3434,43.2111,,*57
$GPGNS,161512.00,,,,,,06,,,,2.0,123*79
$GLGNS,161512.00,,,,,,05,,,,,*7A
$GAGNS,161512.00,,,,,,05,,,,,*77
$GBGNS,161512.00,,,,,,08,,,,,*79
$GPLLQ,161512.00,010125,,M,,M,1,24,3.190,,M*1C
$GPVTG,,T,,M,0.00,N,0.00,K,D*26
$GPHDT,,T*1B
$GPTHS,,V*0E
$GPROT,,V*08
$PSSN,HRP,161512.00,010125,,,,,,,00,0,,*61
$PTNL,AVR,161512.00,,Yaw,,Tilt,,,,0,,00*37
$GPGSA,A,3,18,25,26,28,29,31,,,,,,,1.3,0.7,1.2*3D
$GPGSA,A,3,78,79,80,81,82,,,,,,,,1.3,0.7,1.2*3E
$GPGSA,A,3,15,21,27,30,34,,,,,,,,1.3,0.7,1.2*32
$GPGSA,A,3,08,11,13,23,25,34,38,43,,,,,1.3,0.7,1.2*33
$GPGST,161512.00,3.235,1.118,0.645,37.289,0.972,0.850,2.917*65
$GPGBS,161512.00,5.145,5.353,14.845,82,0.0001,9.669,6.354*69
$GPGRS,161512.00,1,-0.5,1.0,-0.4,-0.1,-0.8,0.9,,,,,,*4E
$GPGRS,161512.00,1,-1.8,1.1,-5.1,2.5,9.7,,,,,,,*64
$GPGRS,161512.00,1,1.8,0.2,0.3,0.4,-0.4,,,,,,,*45
$GPGRS,161512.00,1,-1.8,2.9,1.1,-4.2,-0.1,-2.2,-2.2,1.2,,,,*65
$GPGSV,4,1,16,29,77,040,51,12,10,119,,11,10,039,24,26,35,301,39*7C
$GPGSV,4,2,16,20,20,054,32,05,22,090,,18,40,185,42,25,48,125,43*79
$GPGSV,4,3,16,31,45,282,47,28,47,240,39,04,04,331,32,16,05,299,*74
$GPGSV,4,4,16,36,35,170,37,34,31,208,35,49,34,195,37,61,03,257,*71
$GLGSV,2,1,08,79,87,189,49,80,34,321,48,82,31,218,39,78,32,144,45*66
$GLGSV,2,2,08,88,38,039,30,81,83,220,51,71,07,341,35,72,07,027,*6F
$GAGSV,3,1,09,27,86,329,48,34,40,052,42,19,10,289,31,13,22,193,25*68
$GAGSV,3,2,09,21,31,300,38,30,38,117,36,15,62,140,43,04,04,342,21*67
$GAGSV,3,3,09,29,02,247,*59
$GBGSV,5,1,19,11,77,211,47,05,21,129,,56,10,069,,24,12,150,27*63
$GBGSV,5,2,19,44,20,056,32,38,29,057,42,13,33,083,40,08,33,073,39*6B
$GBGSV,5,3,19,23,52,295,44,25,59,183,48,12,44,055,34,43,53,228,46*6F
$GBGSV,5,4,19,34,75,068,46,37,06,317,29,10,06,085,,22,02,057,*6D
$GBGSV,5,5,19,02,06,107,,19,02,010,,60,10,109,*55
$GPGGA,161512.00,,,,,0,00,,,M,,M,,*48
$PTNL,GGK,161512.00,010125,4742.4458746,N,01617.9728455,E,1,24,1.3,EHT670.5545,M*42
$GPGGQ,161512.00,010125,4742.4458746,N,01617.9728455,E,1,24,3.190,627.3434,M*36
$GPGFA,161512.00,10.632,23.917,1.118,0.645,37.289,2.917,,VVV*3F
$GPLLK,161512.00,010125,,M,,M,1,24,1.6,,M*0A
$GNGMP,161512.00,,,,,DAAA,24,0.7,,,,*57
$GPGMP,161512.00,,,,,,06,,,,2.0,123*79
$GLGMP,161512.00,,,,,,05,,,,,*7A
$GAGMP,161512.00,,,,,,05,,,,,*77
$GBGMP,161512.00,,,,,,08,,,,,*79
$PSSN,SNC,[0,317730000,2347]*45
$GPZDA,161517.00,01,01,2025,,*66
$GPDTM,W84,,00.0000000,N,00.0000000,E,00.0000000,W84*5F
$GPRMC,161517.00,A,4742.4458748,N,01617.9728435,E,0.0,,010125,5.1,E,D*1C
$GPGLL,4742.4458748,N,01617.9728435,E,161517.00,A,D*6D
$GPGGA,161517.00,4742.4458748,N,01617.9728435,E,2,24,0.7,627.3433,M,43.2111,M,1.7,0123*47
$GNGNS,161517.00,4742.4458748,N,01617.9728435,E,DAAA,24,0.7,627.3433,43.2111,,*5D
$GPGNS,161517.00,,,,,,06,,,,1.7,123*78
$GLGNS,161517.00,,,,,,05,,,,,*7F
$GAGNS,161517.00,,,,,,05,,,,,*72
$GBGNS,161517.00,,,,,,08,,,,,*7C
$GPLLQ,161517.00,010125,,M,,M,1,24,3.305,,M*17
$GPVTG,,T,,M,0.01,N,0.01,K,D*26
$GPHDT,,T*1B
$GPTHS,,V*0E
$GPROT,,V*08
$PSSN,HRP,161517.00,010125,,,,,,,00,0,,*64
$PTNL,AVR,161517.00,,Yaw,,Tilt,,,,0,,00*32
$GPGSA,A,3,18,25,26,28,29,31,,,,,,,1.3,0.7,1.2*3D
$GPGSA,A,3,78,79,80,81,82,,,,,,,,1.3,0.7,1.2*3E
$GPGSA,A,3,15,21,27,30,34,,,,,,,,1.3,0.7,1.2*32
$GPGSA,A,3,08,11,13,23,25,34,38,43,,,,,1.3,0.7,1.2*33
$GPGST,161517.00,2.906,1.156,0.671,37.319,1.006,0.881,3.023*67
$GPGBS,161517.00,5.143,5.349,14.426,25,0.0001,1.672,0.884*67
$GPGRS,161517.00,1,-0.9,1.7,-0.1,-0.3,-0.9,1.0,,,,,,*4E
$GPGRS,161517.00,1,-1.5,0.6,-4.8,2.7,7.6,,,,,,,*6F
$GPGRS,161517.00,1,1.6,0.9,0.1,1.5,-0.7,,,,,,,*44
$GPGRS,161517.00,1,-2.3,1.7,0.2,-4.5,-0.1,-1.7,-2.6,1.7,,,,*67
$GPGSV,4,1,16,29,77,040,51,12,10,119,,11,10,039,25,26,35,301,41*72
$GPGSV,4,2,16,20,20,054,34,05,22,090,,18,40,185,42,25,48,125,42*7E
$GPGSV,4,3,16,31,45,282,48,28,47,240,41,04,04,331,23,16,05,299,*74
$GPGSV,4,4,16,36,35,170,38,34,31,208,35,49,34,195,37,61,03,257,*7E
$GLGSV,2,1,08,79,87,188,48,80,34,321,48,82,31,218,37,78,32,144,44*69
$GLGSV,2,2,08,88,38,039,31,81,83,220,52,71,07,341,33,72,07,027,*6B
$GAGSV,3,1,09,27,86,329,48,34,40,052,42,19,10,289,28,13,22,193,27*62
$GAGSV,3,2,09,21,31,300,38,30,38,117,38,15,62,140,44,04,04,342,20*6F
$GAGSV,3,3,09,29,02,247,*59
$GBGSV,5,1,19,11,77,211,47,05,21,129,,56,10,069,,24,12,150,28*6C
$GBGSV,5,2,19,44,20,056,33,38,29,057,41,13,33,083,40,08,33,073,39*69
$GBGSV,5,3,19,23,52,295,44,25,59,183,48,12,44,055,33,43,53,228,46*68
$GBGSV,5,4,19,34,75,068,46,37,06,317,28,10,06,085,,22,02,057,*6C
$GBGSV,5,5,19,02,06,107,,19,02,010,,60,10,109,*55
$GPGGA,161517.00,,,,,0,00,,,M,,M,,*4D
$PTNL,GGK,161517.00,010125,4742.4458748,N,01617.9728435,E,1,24,1.3,EHT670.5543,M*49
$GPGGQ,161517.00,010125,4742.4458748,N,01617.9728435,E,1,24,3.305,627.3433,M*32
$GPGFA,161517.00,10.994,24.785,1.156,0.671,37.319,3.023,,VVV*31
$GPLLK,161517.00,010125,,M,,M,1,24,1.6,,M*0F
$GNGMP,161517.00,,,,,DAAA,24,0.7,,,,*52
$GPGMP,161517.00,,,,,,06,,,,1.7,123*78
$GLGMP,161517.00,,,,,,05,,,,,*7F
$GAGMP,161517.00,,,,,,05,,,,,*72
$GBGMP,161517.00,,,,,,08,,,,,*7C
$PSSN,SNC,[0,317735000,2347]*40
$GPZDA,161522.00,01,01,2025,,*60
$GPDTM,W84,,00.0000000,N,00.0000000,E,00.0000000,W84*5F
$GPRMC,161522.00,A,4742.4458755,N,01617.9728418,E,0.0,,010125,5.1,E,D*19
$GPGLL,4742.4458755,N,01617.9728418,E,161522.00,A,D*68
$GPGGA,161522.00,4742.4458755,N,01617.9728418,E,2,23,0.6,627.3514,M,43.2111,M,2.7,0123*43
$GNGNS,161522.00,4742.4458755,N,01617.9728418,E,DAAA,23,0.6,627.3514,43.2111,,*5A
$GPGNS,161522.00,,,,,,06,,,,2.7,123*7D
$GLGNS,161522.00,,,,,,04,,,,,*78
$GAGNS,161522.00,,,,,,06,,,,,*77
$GBGNS,161522.00,,,,,,07,,,,,*75
$GPLLQ,161522.00,010125,,M,,M,1,23,2.496,,M*1A
$GPVTG,,T,,M,0.00,N,0.00,K,D*26
$GPHDT,,T*1B
$GPTHS,,V*0E
$GPROT,,V*08
$PSSN,HRP,161522.00,010125,,,,,,,00,0,,*62
$PTNL,AVR,161522.00,,Yaw,,Tilt,,,,0,,00*34
$GPGSA,A,3,18,25,26,28,29,31,,,,,,,1.3,0.6,1.1*3F
$GPGSA,A,3,78,79,80,81,,,,,,,,,1.3,0.6,1.1*36
$GPGSA,A,3,13,15,21,27,30,34,,,,,,,1.3,0.6,1.1*32
$GPGSA,A,3,08,11,13,25,34,38,43,,,,,,1.3,0.6,1.1*30
$GPGST,161522.00,1.982,0.880,0.510,37.733,0.762,0.673,2.279*6E
$GPGBS,161522.00,5.172,5.445,14.454,25,0.0001,0.965,0.898*68
$GPGRS,161522.00,1,-0.6,1.0,0.2,-0.1,-0.8,0.6,,,,,,*6A
$GPGRS,161522.00,1,-2.5,0.8,-4.2,2.7,,,,,,,,*41
$GPGRS,161522.00,1,-1.5,1.0,2.0,-0.6,1.3,0.3,,,,,,*4D
$GPGRS,161522.00,1,-2.4,1.2,-0.9,-1.2,-1.6,-2.4,1.3,,,,,*42
$GPGSV,4,1,16,29,77,040,51,12,10,119,,11,10,039,25,26,35,301,42*71
$GPGSV,4,2,16,20,20,054,34,05,22,090,,18,41,185,41,25,48,125,41*7F
$GPGSV,4,3,16,31,45,282,48,28,47,240,41,04,04,331,30,16,05,299,*76
$GPGSV,4,4,16,36,35,170,38,34,31,208,35,49,34,195,37,61,03,257,*7E
$GLGSV,2,1,08,79,87,188,47,80,34,321,49,82,31,218,33,78,32,144,43*64
$GLGSV,2,2,08,88,38,039,32,81,83,220,52,71,07,341,30,72,07,027,*6B
$GAGSV,3,1,09,27,86,329,48,34,40,052,42,19,10,289,28,13,22,193,34*60
$GAGSV,3,2,09,21,31,300,38,30,38,117,40,15,62,140,45,04,04,341,20*62
$GAGSV,3,3,09,29,02,247,*59
$GBGSV,5,1,19,11,77,211,47,05,21,129,,56,10,069,,24,12,150,29*6D
$GBGSV,5,2,19,44,20,056,33,38,29,057,42,13,33,083,39,08,33,073,40*6A
$GBGSV,5,3,19,23,52,295,29,25,59,183,48,12,44,055,33,43,53,228,46*63
$GBGSV,5,4,19,34,75,068,46,37,06,317,27,10,06,085,,22,02,057,*63
$GBGSV,5,5,19,02,06,107,,19,02,010,,60,10,109,*55
$GPGGA,161522.00,,,,,0,00,,,M,,M,,*4B
$PTNL,GGK,161522.00,010125,4742.4458755,N,01617.9728418,E,1,23,1.3,EHT670.5625,M*48
$GPGGQ,161522.00,010125,4742.4458755,N,01617.9728418,E,1,23,2.496,627.3514,M*38
$GPGFA,161522.00,8.362,18.690,0.880,0.510,37.733,2.279,,VVV*00
$GPLLK,161522.00,010125,,M,,M,1,23,1.5,,M*0D
$GNGMP,161522.00,,,,,DAAA,23,0.6,,,,*52
$GPGMP,161522.00,,,,,,06,,,,2.7,123*7D
$GLGMP,161522.00,,,,,,04,,,,,*78
$GAGMP,161522.00,,,,,,06,,,,,*77
$GBGMP,161522.00,,,,,,07,,,,,*75
$PSSN,SNC,[0,317740000,2347]*42
$GPZDA,161527.00,01,01,2025,,*65
$GPDTM,W84,,00.0000000,N,00.0000000,E,00.0000000,W84*5F
$GPRMC,161527.00,A,4742.4458755,N,01617.9728425,E,0.0,,010125,5.1,E,D*12
$GPGLL,4742.4458755,N,01617.9728425,E,161527.00,A,D*63
$GPGGA,161527.00,4742.4458755,N,01617.9728425,E,2,24,0.6,627.3616,M,43.2111,M,3.7,0123*4F
$GNGNS,161527.00,4742.4458755,N,01617.9728425,E,DAAA,24,0.6,627.3616,43.2111,,*57
$GPGNS,161527.00,,,,,,06,,,,3.7,123*79
$GLGNS,161527.00,,,,,,05,,,,,*7C
$GAGNS,161527.00,,,,,,06,,,,,*72
$GBGNS,161527.00,,,,,,07,,,,,*70
$GPLLQ,161527.00,010125,,M,,M,1,24,2.474,,M*14
$GPVTG,,T,,M,0.01,N,0.02,K,D*25
$GPHDT,,T*1B
$GPTHS,,V*0E
$GPROT,,V*08
$PSSN,HRP,161527.00,010125,,,,,,,00,0,,*67
$PTNL,AVR,161527.00,,Yaw,,Tilt,,,,0,,00*31
$GPGSA,A,3,18,25,26,28,29,31,,,,,,,1.2,0.6,1.1*3E
$GPGSA,A,3,78,79,80,81,88,,,,,,,,1.2,0.6,1.1*37
$GPGSA,A,3,13,15,21,27,30,34,,,,,,,1.2,0.6,1.1*33
$GPGSA,A,3,08,11,13,25,34,38,43,,,,,,1.2,0.6,1.1*31
$GPGST,161527.00,2.143,0.866,0.514,37.682,0.754,0.668,2.259*67
$GPGBS,161527.00,5.024,5.374,14.469,25,0.0001,0.877,0.913*64
$GPGRS,161527.00,1,-0.4,0.9,-0.6,-0.0,-0.7,0.4,,,,,,*40
$GPGRS,161527.00,1,-3.6,1.7,-3.9,2.5,-0.8,,,,,,,*4D
$GPGRS,161527.00,1,-1.1,0.9,2.5,-0.3,1.6,2.2,,,,,,*42
$GPGRS,161527.00,1,-2.9,0.8,-1.0,-1.5,-1.0,-2.7,1.3,,,,,*4B
$GPGSV,4,1,16,29,77,040,50,12,10,119,,11,10,039,27,26,35,301,43*73
$GPGSV,4,2,16,20,20,054,36,05,22,090,29,18,41,185,40,25,48,125,40*76
$GPGSV,4,3,16,31,45,281,48,28,47,240,39,04,04,331,30,16,05,299,*7A
$GPGSV,4,4,16,36,35,170,37,34,31,208,35,49,34,195,36,61,03,257,*70
$GLGSV,2,1,08,79,87,188,48,80,34,321,49,82,31,218,31,78,32,144,41*6B
$GLGSV,2,2,08,88,38,039,36,81,83,220,51,71,07,341,,72,07,026,*6E
$GAGSV,3,1,09,27,86,329,48,34,40,052,42,19,10,289,28,13,22,193,33*67
$GAGSV,3,2,09,21,31,300,38,30,38,117,41,15,63,140,46,04,04,341,20*61
$GAGSV,3,3,09,29,02,247,*59
$GBGSV,5,1,19,11,77,211,46,05,21,129,,56,10,069,,24,12,150,28*6D
$GBGSV,5,2,19,44,20,056,33,38,29,057,41,13,33,083,39,08,33,073,40*69
$GBGSV,5,3,19,23,52,295,26,25,59,183,47,12,44,055,33,43,53,228,46*63
$GBGSV,5,4,19,34,75,068,45,37,06,317,33,10,06,085,,22,02,057,*65
$GBGSV,5,5,19,02,06,107,,19,02,010,,60,10,109,*55
$GPGGA,161527.00,,,,,0,00,,,M,,M,,*4E
$PTNL,GGK,161527.00,010125,4742.4458755,N,01617.9728425,E,1,24,1.2,EHT670.5727,M*46
$GPGGQ,161527.00,010125,4742.4458755,N,01617.9728425,E,1,24,2.474,627.3616,M*39
$GPGFA,161527.00,8.237,18.524,0.866,0.514,37.682,2.259,,VVV*0D
$GPLLK,161527.00,010125,,M,,M,1,24,1.5,,M*0F
$GNGMP,161527.00,,,,,DAAA,24,0.6,,,,*50
$GPGMP,161527.00,,,,,,06,,,,3.7,123*79
$GLGMP,161527.00,,,,,,05,,,,,*7C
$GAGMP,161527.00,,,,,,06,,,,,*72
$GBGMP,161527.00,,,,,,07,,,,,*70
$PSSN,SNC,[0,317745000,2347]*47
$GPZDA,161532.00,01,01,2025,,*61
$GPDTM,W84,,00.0000000,N,00.0000000,E,00.0000000,W84*5F
$GPRMC,161532.00,A,4742.4458811,N,01617.9728361,E,0.0,,010125,5.1,E,D*1E
$GPGLL,4742.4458811,N,01617.9728361,E,161532.00,A,D*6F
$GPGGA,161532.00,4742.4458811,N,01617.9728361,E,2,23,0.7,627.3596,M,43.2111,M,2.0,0123*48
$GNGNS,161532.00,4742.4458811,N,01617.9728361,E,DAAA,23,0.7,627.3596,43.2111,,*56
$GPGNS,161532.00,,,,,,06,,,,2.0,123*7B
$GLGNS,161532.00,,,,,,05,,,,,*78
$GAGNS,161532.00,,,,,,05,,,,,*75
$GBGNS,161532.00,,,,,,07,,,,,*74
$GPLLQ,161532.00,010125,,M,,M,1,23,3.116,,M*17
$GPVTG,,T,,M,0.00,N,0.00,K,D*26
$GPHDT,,T*1B
$GPTHS,,V*0E
$GPROT,,V*08
$PSSN,HRP,161532.00,010125,,,,,,,00,0,,*63
$PTNL,AVR,161532.00,,Yaw,,Tilt,,,,0,,00*35
$GPGSA,A,3,18,25,26,28,29,31,,,,,,,1.4,0.7,1.2*3A
$GPGSA,A,3,78,79,80,81,88,,,,,,,,1.4,0.7,1.2*33
$GPGSA,A,3,15,21,27,30,34,,,,,,,,1.4,0.7,1.2*35
$GPGSA,A,3,08,11,13,25,34,38,43,,,,,,1.4,0.7,1.2*35
$GPGST,161532.00,2.200,1.085,0.644,37.336,0.947,0.834,2.849*6F
$GPGBS,161532.00,4.973,5.293,15.017,25,0.0001,1.591,0.879*67
$GPGRS,161532.00,1,-0.2,1.6,-1.0,0.3,-0.9,-0.0,,,,,,*42
$GPGRS,161532.00,1,-3.1,1.6,-3.8,2.0,-0.5,,,,,,,*46
$GPGRS,161532.00,1,1.1,2.7,-0.2,1.1,3.1,,,,,,,*4A
$GPGRS,161532.00,1,-3.2,0.4,-1.9,-1.2,-0.4,-2.6,1.2,,,,,*42
$GPGSV,4,1,16,29,77,040,49,26,35,301,44,11,10,039,27,05,22,090,31*79
$GPGSV,4,2,16,18,41,185,38,20,20,054,35,25,48,125,38,31,45,281,46*78
$GPGSV,4,3,16,28,47,240,39,12,10,119,,04,04,331,21,16,05,299,*75
$GPGSV,4,4,16,36,35,170,37,34,31,208,34,49,34,195,36,61,03,257,*71
$GLGSV,2,1,08,79,87,187,47,80,34,321,48,82,32,218,35,78,32,144,41*6D
$GLGSV,2,2,08,88,38,039,38,81,83,220,51,71,07,341,24,72,07,026,*66
$GAGSV,3,1,09,27,86,329,48,34,40,052,43,19,10,289,28,13,22,193,32*67
$GAGSV,3,2,09,21,31,300,39,30,38,117,41,15,63,140,46,04,04,341,21*61
$GAGSV,3,3,09,29,02,247,*59
$GBGSV,5,1,19,11,77,211,46,05,21,129,,56,10,069,,24,12,150,27*62
$GBGSV,5,2,19,44,20,056,34,38,29,057,41,13,33,083,38,08,33,073,40*6F
$GBGSV,5,3,19,23,52,295,22,25,59,183,47,12,44,055,33,43,53,228,45*64
$GBGSV,5,4,19,34,75,068,46,37,06,317,23,10,06,085,,22,02,057,*67
$GBGSV,5,5,19,02,06,107,,19,02,010,,60,10,109,*55
$GPGGA,161532.00,,,,,0,00,,,M,,M,,*4A
$PTNL,GGK,161532.00,010125,4742.4458811,N,01617.9728361,E,1,23,1.4,EHT670.5706,M*48
$GPGGQ,161532.00,010125,4742.4458811,N,01617.9728361,E,1,23,3.116,627.3596,M*39
$GPGFA,161532.00,10.319,23.365,1.085,0.644,37.336,2.849,,VVV*35
$GPLLK,161532.00,010125,,M,,M,1,23,1.7,,M*0E
$GNGMP,161532.00,,,,,DAAA,23,0.7,,,,*52
$GPGMP,161532.00,,,,,,06,,,,2.0,123*7B
$GLGMP,161532.00,,,,,,05,,,,,*78
$GAGMP,161532.00,,,,,,05,,,,,*75
$GBGMP,161532.00,,,,,,07,,,,,*74
$PSSN,SNC,[0,317750000,2347]*43
$GPZDA,161537.00,01,01,2025,,*64
$GPDTM,W84,,00.0000000,N,00.0000000,E,00.0000000,W84*5F
$GPRMC,161537.00,A,4742.4458876,N,01617.9728284,E,0.0,,010125,5.1,E,D*10
$GPGLL,4742.4458876,N,01617.9728284,E,161537.00,A,D*61
$GPGGA,161537.00,4742.4458876,N,01617.9728284,E,2,24,0.7,627.3586,M,43.2111,M,1.7,0123*44
$GNGNS,161537.00,4742.4458876,N,01617.9728284,E,DAAA,24,0.7,627.3586,43.2111,,*5E
$GPGNS,161537.00,,,,,,06,,,,1.7,123*7A
$GLGNS,161537.00,,,,,,05,,,,,*7D
$GAGNS,161537.00,,,,,,05,,,,,*70
$GBGNS,161537.00,,,,,,08,,,,,*7E
$GPLLQ,161537.00,010125,,M,,M,1,24,2.709,,M*1C
$GPVTG,,T,,M,0.00,N,0.01,K,D*27
$GPHDT,,T*1B
$GPTHS,,V*0E
$GPROT,,V*08
$PSSN,HRP,161537.00,010125,,,,,,,00,0,,*66
$PTNL,AVR,161537.00,,Yaw,,Tilt,,,,0,,00*30
$GPGSA,A,3,18,25,26,28,29,31,,,,,,,1.4,0.7,1.2*3A
$GPGSA,A,3,78,79,80,81,88,,,,,,,,1.4,0.7,1.2*33
$GPGSA,A,3,15,21,27,30,34,,,,,,,,1.4,0.7,1.2*35
$GPGSA,A,3,08,11,13,23,25,34,38,43,,,,,1.4,0.7,1.2*34
$GPGST,161537.00,2.594,0.940,0.557,37.081,0.822,0.720,2.479*68
$GPGBS,161537.00,4.972,5.247,14.562,25,0.0001,1.024,0.892*62
$GPGRS,161537.00,1,-0.2,1.0,-1.0,0.7,-0.5,-0.7,,,,,,*4E
$GPGRS,161537.00,1,-3.2,0.8,-3.5,2.4,-2.0,,,,,,,*41
$GPGRS,161537.00,1,1.4,2.6,-0.3,0.5,2.6,,,,,,,*49
$GPGRS,161537.00,1,-3.2,1.2,-3.0,-5.3,-1.2,0.1,-3.5,0.8,,,,*6F
$GPGSV,4,1,16,29,77,040,48,26,35,301,44,11,10,039,29,05,22,090,*74
$GPGSV,4,2,16,18,41,185,36,20,20,054,33,25,48,125,37,31,45,281,44*7D
$GPGSV,4,3,16,28,47,240,40,12,10,119,,04,04,331,,16,05,299,*78
$GPGSV,4,4,16,36,35,170,37,34,31,208,34,49,34,195,36,61,03,257,*71
$GLGSV,2,1,08,79,87,187,48,80,34,321,48,82,32,218,32,78,32,144,42*66
$GLGSV,2,2,08,88,38,039,41,81,83,220,51,71,07,341,31,72,07,026,*6C
$GAGSV,3,1,09,27,86,329,48,34,40,052,42,19,10,288,28,13,22,193,33*66
$GAGSV,3,2,09,21,31,300,38,30,38,117,41,15,63,140,47,04,04,341,22*62
$GAGSV,3,3,09,29,02,247,*59
$GBGSV,5,1,19,11,77,211,47,05,21,129,,56,10,069,,24,12,150,28*6C
$GBGSV,5,2,19,44,20,056,34,38,29,057,41,13,33,083,38,08,33,073,40*6F
$GBGSV,5,3,19,23,52,295,41,25,59,183,46,12,44,055,34,43,53,228,45*67
$GBGSV,5,4,19,34,74,068,46,37,06,317,23,10,06,085,,22,02,057,*66
$GBGSV,5,5,19,02,06,107,,19,02,010,,60,10,109,*55
$GPGGA,161537.00,,,,,0,00,,,M,,M,,*4F
$PTNL,GGK,161537.00,010125,4742.4458876,N,01617.9728284,E,1,24,1.4,EHT670.5696,M*49
$GPGGQ,161537.00,010125,4742.4458876,N,01617.9728284,E,1,24,2.709,627.3586,M*38
$GPGFA,161537.00,8.936,20.330,0.940,0.557,37.081,2.479,,VVV*0D
$GPLLK,161537.00,010125,,M,,M,1,24,1.7,,M*0C
$GNGMP,161537.00,,,,,DAAA,24,0.7,,,,*50
$GPGMP,161537.00,,,,,,06,,,,1.7,123*7A
$GLGMP,161537.00,,,,,,05,,,,,*7D
$GAGMP,161537.00,,,,,,05,,,,,*70
$GBGMP,161537.00,,,,,,08,,,,,*7E
$PSSN,SNC,[0,317755000,2347]*46
$GPZDA,161542.00,01,01,2025,,*66
$GPDTM,W84,,00.0000000,N,00.0000000,E,00.0000000,W84*5F
$GPRMC,161542.00,A,4742.4458925,N,01617.9728243,E,0.0,,010125,5.1,E,D*1E
$GPGLL,4742.4458925,N,01617.9728243,E,161542.00,A,D*6F
$GPGGA,161542.00,4742.4458925,N,01617.9728243,E,2,26,0.6,627.3598,M,43.2111,M,2.7,0123*45
$GNGNS,161542.00,4742.4458925,N,01617.9728243,E,DAAA,26,0.6,627.3598,43.2111,,*5C
$GPGNS,161542.00,,,,,,06,,,,2.7,123*7B
$GLGNS,161542.00,,,,,,05,,,,,*7F
$GAGNS,161542.00,,,,,,06,,,,,*71
$GBGNS,161542.00,,,,,,09,,,,,*7D
$GPLLQ,161542.00,010125,,M,,M,1,26,2.429,,M*1D
$GPVTG,,T,,M,0.00,N,0.00,K,D*26
$GPHDT,,T*1B
$GPTHS,,V*0E
$GPROT,,V*08
$PSSN,HRP,161542.00,010125,,,,,,,00,0,,*64
$PTNL,AVR,161542.00,,Yaw,,Tilt,,,,0,,00*32
$GPGSA,A,3,18,25,26,28,29,31,,,,,,,1.2,0.6,1.1*3E
$GPGSA,A,3,78,79,80,81,88,,,,,,,,1.2,0.6,1.1*37
$GPGSA,A,3,13,15,21,27,30,34,,,,,,,1.2,0.6,1.1*33
$GPGSA,A,3,08,11,12,13,23,25,34,38,43,,,,1.2,0.6,1.1*33
$GPGST,161542.00,2.444,0.847,0.508,37.216,0.741,0.653,2.219*69
$GPGBS,161542.00,4.970,5.263,14.385,28,0.0001,0.708,0.955*64
$GPGRS,161542.00,1,-0.0,0.5,-0.4,0.7,0.1,-0.5,,,,,,*64
$GPGRS,161542.00,1,-2.7,0.9,-3.5,2.4,-1.0,,,,,,,*45
$GPGRS,161542.00,1,-1.6,1.2,1.5,0.1,0.2,1.8,,,,,,*6C
$GPGRS,161542.00,1,-3.4,2.1,-1.9,-3.8,-5.2,-0.8,0.4,-3.5,1.1,,,*6F
$GPGSV,4,1,16,29,77,040,48,26,35,301,44,11,10,039,29,05,22,090,*74
$GPGSV,4,2,16,18,41,185,36,20,20,054,31,25,48,125,36,31,45,281,42*78
$GPGSV,4,3,16,28,47,240,41,12,10,119,,04,04,331,18,16,05,299,*70
$GPGSV,4,4,16,36,35,170,38,34,31,208,35,49,34,195,36,61,03,257,*7F
$GLGSV,2,1,08,79,87,186,48,80,34,321,48,82,32,218,32,78,32,144,44*61
$GLGSV,2,2,08,88,38,039,43,81,83,220,50,71,07,341,33,72,07,026,*6D
$GAGSV,3,1,09,27,86,330,48,34,40,052,42,19,10,288,29,13,22,193,31*6D
$GAGSV,3,2,09,21,31,300,38,30,38,117,41,15,63,140,47,04,04,341,24*64
$GAGSV,3,3,09,29,02,247,*59
$GBGSV,5,1,19,11,77,211,47,05,21,129,,56,10,069,,24,12,150,27*63
$GBGSV,5,2,19,44,20,056,35,38,29,057,41,13,33,083,37,08,33,073,40*61
$GBGSV,5,3,19,23,52,295,41,25,59,183,46,12,44,055,36,43,53,228,44*64
$GBGSV,5,4,19,34,74,068,47,37,06,317,24,10,06,085,,22,02,057,*60
$GBGSV,5,5,19,02,06,107,,19,02,010,,60,10,109,*55
$GPGGA,161542.00,,,,,0,00,,,M,,M,,*4D
$PTNL,GGK,161542.00,010125,4742.4458925,N,01617.9728243,E,1,26,1.2,EHT670.5709,M*44
$GPGGQ,161542.00,010125,4742.4458925,N,01617.9728243,E,1,26,2.429,627.3598,M*3A
$GPGFA,161542.00,8.050,18.194,0.847,0.508,37.216,2.219,,VVV*01
$GPLLK,161542.00,010125,,M,,M,1,26,1.5,,M*0E
$GNGMP,161542.00,,,,,DAAA,26,0.6,,,,*51
$GPGMP,161542.00,,,,,,06,,,,2.7,123*7B
$GLGMP,161542.00,,,,,,05,,,,,*7F
$GAGMP,161542.00,,,,,,06,,,,,*71
$GBGMP,161542.00,,,,,,09,,,,,*7D
$PSSN,SNC,[0,317760000,2347]*40
$GPZDA,161547.00,01,01,2025,,*63
$GPDTM,W84,,00.0000000,N,00.0000000,E,00.0000000,W84*5F
$GPRMC,161547.00,A,4742.4458951,N,01617.9728204,E,0.0,,010125,5.1,E,D*1B
$GPGLL,4742.4458951,N,01617.9728204,E,161547.00,A,D*6A
$GPGGA,161547.00,4742.4458951,N,01617.9728204,E,2,26,0.6,627.3507,M,43.2111,M,3.7,0123*47
$GNGNS,161547.00,4742.4458951,N,01617.9728204,E,DAAA,26,0.6,627.3507,43.2111,,*5F
$GPGNS,161547.00,,,,,,06,,,,3.7,123*7F
$GLGNS,161547.00,,,,,,05,,,,,*7A
$GAGNS,161547.00,,,,,,05,,,,,*77
$GBGNS,161547.00,,,,,,10,,,,,*70
$GPLLQ,161547.00,010125,,M,,M,1,26,2.695,,M*1D
$GPVTG,,T,,M,0.01,N,0.02,K,D*25
$GPHDT,,T*1B
$GPTHS,,V*0E
$GPROT,,V*08
$PSSN,HRP,161547.00,010125,,,,,,,00,0,,*61
$PTNL,AVR,161547.00,,Yaw,,Tilt,,,,0,,00*37
$GPGSA,A,3,18,25,26,28,29,31,,,,,,,1.3,0.6,1.2*3C
$GPGSA,A,3,78,79,80,81,88,,,,,,,,1.3,0.6,1.2*35
$GPGSA,A,3,15,21,27,30,34,,,,,,,,1.3,0.6,1.2*33
$GPGSA,A,3,08,11,12,13,23,25,34,38,43,44,,,1.3,0.6,1.2*31
$GPGST,161547.00,2.596,0.941,0.570,36.767,0.827,0.725,2.460*6F
$GPGBS,161547.00,4.865,5.186,14.519,25,0.0001,1.338,0.923*65
$GPGRS,161547.00,1,0.7,1.3,-1.4,-0.3,0.1,-0.4,,,,,,*65
$GPGRS,161547.00,1,-2.5,0.1,-3.0,1.4,-1.3,,,,,,,*4F
$GPGRS,161547.00,1,0.3,-0.8,-0.6,-0.7,0.8,,,,,,,*4F
$GPGRS,161547.00,1,-3.9,1.4,1.9,-5.2,-5.5,-0.5,-0.2,-4.5,1.3,-1.3,,*65
$GPGSV,4,1,16,29,77,040,48,26,35,301,45,11,10,039,30,05,22,090,*7D
$GPGSV,4,2,16,18,41,185,37,20,20,054,30,25,48,125,35,31,45,281,40*79
$GPGSV,4,3,16,28,47,240,42,12,10,119,,04,04,331,,16,06,299,*79
$GPGSV,4,4,16,36,35,170,37,34,31,208,35,49,34,195,36,61,03,257,*70
$GLGSV,2,1,08,79,87,186,48,80,34,321,49,82,32,218,31,78,32,145,46*60
$GLGSV,2,2,08,88,38,039,45,81,83,221,49,71,07,341,31,72,07,026,*60
$GAGSV,3,1,09,27,86,330,49,34,40,052,41,21,31,300,38,13,22,193,34*63
$GAGSV,3,2,09,30,38,117,41,15,63,140,47,29,02,247,22,04,04,341,24*65
$GAGSV,3,3,09,19,10,288,30*59
$GBGSV,5,1,19,11,77,211,47,05,21,129,,56,10,069,,24,12,150,26*62
$GBGSV,5,2,19,44,20,056,36,38,29,057,40,13,33,083,37,08,33,073,40*63
$GBGSV,5,3,19,23,52,295,41,25,59,183,45,12,44,055,38,43,53,228,44*69
$GBGSV,5,4,19,34,74,068,48,37,06,317,26,10,06,085,,22,02,057,*6D
$GBGSV,5,5,19,02,06,107,,19,02,010,,60,10,109,*55
$GPGGA,161547.00,,,,,0,00,,,M,,M,,*48
$PTNL,GGK,161547.00,010125,4742.4458951,N,01617.9728204,E,1,26,1.3,EHT670.5617,M*4E
$GPGGQ,161547.00,010125,4742.4458951,N,01617.9728204,E,1,26,2.695,627.3507,M*3C
$GPGFA,161547.00,8.945,20.173,0.941,0.570,36.767,2.460,,VVV*09
$GPLLK,161547.00,010125,,M,,M,1,26,1.6,,M*08
$GNGMP,161547.00,,,,,DAAA,26,0.6,,,,*54
$GPGMP,161547.00,,,,,,06,,,,3.7,123*7F
$GLGMP,161547.00,,,,,,05,,,,,*7A
$GAGMP,161547.00,,,,,,05,,,,,*77
$GBGMP,161547.00,,,,,,10,,,,,*70
$PSSN,SNC,[0,317765000,2347]*45
$GPZDA,161552.00,01,01,2025,,*67
$GPDTM,W84,,00.0000000,N,00.0000000,E,00.0000000,W84*5F
$GPRMC,161552.00,A,4742.4459050,N,01617.9728066,E,0.0,,010125,5.1,E,D*10
$GPGLL,4742.4459050,N,01617.9728066,E,161552.00,A,D*61
$GPGGA,161552.00,4742.4459050,N,01617.9728066,E,2,25,0.7,627.3434,M,43.2111,M,2.2,0123*4B
$GNGNS,161552.00,4742.4459050,N,01617.9728066,E,DAAA,25,0.7,627.3434,43.2111,,*57
$GPGNS,161552.00,,,,,,05,,,,2.2,123*7C
$GLGNS,161552.00,,,,,,05,,,,,*7E
$GAGNS,161552.00,,,,,,05,,,,,*73
$GBGNS,161552.00,,,,,,10,,,,,*74
$GPLLQ,161552.00,010125,,M,,M,1,25,2.642,,M*10
$GPVTG,,T,,M,0.00,N,0.01,K,D*27
$GPHDT,,T*1B
$GPTHS,,V*0E
$GPROT,,V*08
$PSSN,HRP,161552.00,010125,,,,,,,00,0,,*65
$PTNL,AVR,161552.00,,Yaw,,Tilt,,,,0,,00*33
$GPGSA,A,3,18,26,28,29,31,,,,,,,,1.3,0.7,1.2*3A
$GPGSA,A,3,78,79,80,81,88,,,,,,,,1.3,0.7,1.2*34
$GPGSA,A,3,15,21,27,30,34,,,,,,,,1.3,0.7,1.2*32
$GPGSA,A,3,08,11,12,13,23,25,34,38,43,44,,,1.3,0.7,1.2*30
$GPGST,161552.00,2.494,0.938,0.603,49.523,0.762,0.813,2.395*62
$GPGBS,161552.00,4.908,5.877,14.445,26,0.0001,-1.070,1.171*4B
$GPGRS,161552.00,1,0.8,-1.1,-0.8,0.4,-0.5,,,,,,,*48
$GPGRS,161552.00,1,-1.1,1.1,-2.5,1.0,0.2,,,,,,,*60
$GPGRS,161552.00,1,0.7,-3.2,-0.3,-0.3,1.1,,,,,,,*4F
$GPGRS,161552.00,1,-3.5,1.4,3.4,-4.7,-4.6,0.6,-0.6,-3.8,1.8,-0.6,,*4B
$GPGSV,4,1,16,29,77,040,49,26,35,301,45,11,10,039,30,05,22,090,33*7C
$GPGSV,4,2,16,18,41,185,39,20,20,054,,25,48,125,35,31,45,281,39*7A
$GPGSV,4,3,16,28,47,240,42,12,10,119,,04,04,331,23,16,06,299,*78
$GPGSV,4,4,16,36,35,170,37,34,31,208,35,49,34,195,36,61,03,257,*70
$GLGSV,2,1,08,79,87,185,48,80,34,321,50,82,32,218,30,78,31,145,48*67
$GLGSV,2,2,08,88,38,039,46,81,83,221,49,71,07,341,37,72,07,026,*65
$GAGSV,3,1,09,27,86,330,49,34,40,052,40,21,31,300,37,13,22,193,34*6D
$GAGSV,3,2,09,30,38,117,42,15,63,140,47,29,02,247,23,04,04,341,26*65
$GAGSV,3,3,09,19,10,288,31*58
$GBGSV,5,1,19,11,77,211,47,05,21,129,,56,10,069,,24,12,150,26*62
$GBGSV,5,2,19,44,20,056,36,38,29,057,40,13,33,083,36,08,33,073,40*62
$GBGSV,5,3,19,23,52,295,41,25,59,183,45,12,44,055,39,43,53,228,44*68
$GBGSV,5,4,19,34,74,068,48,37,06,317,27,10,06,085,,22,02,057,*6C
$GBGSV,5,5,19,02,06,107,,19,02,010,,60,10,109,*55
$GPGGA,161552.00,,,,,0,00,,,M,,M,,*4C
$PTNL,GGK,161552.00,010125,4742.4459050,N,01617.9728066,E,1,25,1.3,EHT670.5544,M*43
$GPGGQ,161552.00,010125,4742.4459050,N,01617.9728066,E,1,25,2.642,627.3434,M*3F
$GPGFA,161552.00,8.914,19.638,0.938,0.603,49.523,2.395,,VVV*05
$GPLLK,161552.00,010125,,M,,M,1,25,1.6,,M*0F
$GNGMP,161552.00,,,,,DAAA,25,0.7,,,,*52
$GPGMP,161552.00,,,,,,05,,,,2.2,123*7C
$GLGMP,161552.00,,,,,,05,,,,,*7E
$GAGMP,161552.00,,,,,,05,,,,,*73
$GBGMP,161552.00,,,,,,10,,,,,*74
$PSSN,SNC,[0,317770000,2347]*41
$GPZDA,161557.00,01,01,2025,,*62
$GPDTM,W84,,00.0000000,N,00.0000000,E,00.0000000,W84*5F
$GPRMC,161557.00,A,4742.4459063,N,01617.9728052,E,0.0,,010125,5.1,E,D*12
$GPGLL,4742.4459063,N,01617.9728052,E,161557.00,A,D*63
$GPGGA,161557.00,4742.4459063,N,01617.9728052,E,2,25,0.7,627.3345,M,43.2111,M,1.6,0123*4F
$GNGNS,161557.00,4742.4459063,N,01617.9728052,E,DAAA,25,0.7,627.3345,43.2111,,*54
$GPGNS,161557.00,,,,,,05,,,,1.6,123*7E
$GLGNS,161557.00,,,,,,05,,,,,*7B
$GAGNS,161557.00,,,,,,05,,,,,*76
$GBGNS,161557.00,,,,,,10,,,,,*71
$GPLLQ,161557.00,010125,,M,,M,1,25,2.849,,M*10
$GPVTG,,T,,M,0.01,N,0.02,K,D*25
$GPHDT,,T*1B
$GPTHS,,V*0E
$GPROT,,V*08
$PSSN,HRP,161557.00,010125,,,,,,,00,0,,*60
$PTNL,AVR,161557.00,,Yaw,,Tilt,,,,0,,00*36
$GPGSA,A,3,18,26,28,29,31,,,,,,,,1.3,0.7,1.2*3A
$GPGSA,A,3,78,79,80,81,88,,,,,,,,1.3,0.7,1.2*34
$GPGSA,A,3,15,21,27,30,34,,,,,,,,1.3,0.7,1.2*32
$GPGSA,A,3,08,11,12,13,23,25,34,38,43,44,,,1.3,0.7,1.2*30
$GPGST,161557.00,2.742,1.055,0.640,63.025,0.745,0.984,2.568*6E
$GPGBS,161557.00,4.901,5.772,14.513,31,0.0001,0.841,1.000*68
$GPGRS,161557.00,1,0.4,-0.5,-0.3,0.2,0.8,,,,,,,*69
$GPGRS,161557.00,1,-1.4,1.5,-2.6,1.1,-0.5,,,,,,,*4C
$GPGRS,161557.00,1,0.4,-2.7,-0.3,-0.4,1.1,,,,,,,*4A
$GPGRS,161557.00,1,-3.5,1.0,3.7,-5.0,-6.3,1.7,-1.2,-3.7,1.2,-1.4,,*4B
$GPGSV,4,1,16,29,77,040,50,26,35,301,44,11,10,039,30,05,22,090,*75
$GPGSV,4,2,16,18,41,185,40,20,20,054,32,25,47,125,35,31,45,281,39*7A
$GPGSV,4,3,16,28,47,240,43,12,10,119,,04,04,331,30,16,06,299,30*78
$GPGSV,4,4,16,36,35,170,37,34,31,208,35,49,34,195,36,61,03,257,*70
$GLGSV,2,1,08,79,87,185,49,80,34,321,50,82,32,218,31,78,31,145,48*67
$GLGSV,2,2,08,88,38,039,48,81,83,221,49,71,07,341,36,72,07,026,*6A
$GAGSV,3,1,09,27,86,330,49,34,40,052,39,21,31,300,37,13,22,193,33*64
$GAGSV,3,2,09,30,38,117,42,15,63,140,46,29,02,247,22,04,04,341,26*65
$GAGSV,3,3,09,19,10,288,31*58
$GBGSV,5,1,19,11,77,211,47,05,21,129,,56,10,069,,24,12,150,26*62
$GBGSV,5,2,19,44,20,056,37,38,29,057,39,13,33,083,36,08,33,073,40*6D
$GBGSV,5,3,19,23,52,295,42,25,59,183,46,12,44,055,39,43,53,228,44*68
$GBGSV,5,4,19,34,74,068,48,37,06,317,29,10,06,085,,22,02,057,*62
$GBGSV,5,5,19,02,06,107,,19,02,010,,60,10,109,*55
$GPGGA,161557.00,,,,,0,00,,,M,,M,,*49
$PTNL,GGK,161557.00,010125,4742.4459063,N,01617.9728052,E,1,25,1.3,EHT670.5456,M*43
$GPGGQ,161557.00,010125,4742.4459063,N,01617.9728052,E,1,25,2.849,627.3345,M*39
$GPGFA,161557.00,10.028,21.056,1.055,0.640,63.025,2.568,,VVV*31
$GPLLK,161557.00,010125,,M,,M,1,25,1.6,,M*0A
$GNGMP,161557.00,,,,,DAAA,25,0.7,,,,*57
$GPGMP,161557.00,,,,,,05,,,,1.6,123*7E
$GLGMP,161557.00,,,,,,05,,,,,*7B
$GAGMP,161557.00,,,,,,05,,,,,*76
$GBGMP,161557.00,,,,,,10,,,,,*71
$PSSN,SNC,[0,317775000,2347]*44
$GPZDA,161602.00,01,01,2025,,*61
$GPDTM,W84,,00.0000000,N,00.0000000,E,00.0000000,W84*5F
$GPRMC,161602.00,A,4742.4459071,N,01617.9728071,E,0.0,,010125,5.1,E,D*13
$GPGLL,4742.4459071,N,01617.9728071,E,161602.00,A,D*62
$GPGGA,161602.00,4742.4459071,N,01617.9728071,E,2,25,0.7,627.3299,M,43.2111,M,2.6,0123*4D
$GNGNS,161602.00,4742.4459071,N,01617.9728071,E,DAAA,25,0.7,627.3299,43.2111,,*55
$GPGNS,161602.00,,,,,,05,,,,2.6,123*7E
$GLGNS,161602.00,,,,,,05,,,,,*78
$GAGNS,161602.00,,,,,,05,,,,,*75
$GBGNS,161602.00,,,,,,10,,,,,*72
$GPLLQ,161602.00,010125,,M,,M,1,25,2.818,,M*17
$GPVTG,,T,,M,0.01,N,0.01,K,D*26
$GPHDT,,T*1B
$GPTHS,,V*0E
$GPROT,,V*08
$PSSN,HRP,161602.00,010125,,,,,,,00,0,,*63
$PTNL,AVR,161602.00,,Yaw,,Tilt,,,,0,,00*35
$GPGSA,A,3,18,26,28,29,31,,,,,,,,1.3,0.7,1.2*3A
$GPGSA,A,3,78,79,80,81,88,,,,,,,,1.3,0.7,1.2*34
$GPGSA,A,3,15,21,27,30,34,,,,,,,,1.3,0.7,1.2*32
$GPGSA,A,3,08,11,12,13,23,25,34,38,43,44,,,1.3,0.7,1.2*30
$GPGST,161602.00,2.329,1.056,0.639,62.877,0.745,0.984,2.533*69
$GPGBS,161602.00,4.920,5.761,14.536,31,0.0001,1.278,1.009*65
$GPGRS,161602.00,1,0.1,-1.1,-0.0,-0.2,1.3,,,,,,,*4E
$GPGRS,161602.00,1,-2.0,1.8,-2.4,1.4,-0.5,,,,,,,*42
$GPGRS,161602.00,1,-0.2,-1.3,-0.5,-0.6,0.5,,,,,,,*64
$GPGRS,161602.00,1,-3.4,1.5,2.1,-5.2,2.0,1.9,-2.0,-4.1,0.5,-1.6,,*69
$GPGSV,4,1,16,29,77,041,51,26,35,301,42,11,10,039,28,05,22,090,*7A
$GPGSV,4,2,16,18,41,185,41,20,20,054,33,25,47,125,34,31,45,281,39*7B
$GPGSV,4,3,16,28,47,240,44,12,10,119,,04,04,331,30,16,06,299,29*77
$GPGSV,4,4,16,36,35,170,37,34,31,208,35,49,34,195,36,61,03,257,*70
$GLGSV,2,1,08,79,87,185,49,80,35,321,51,82,32,218,29,78,31,145,48*6E
$GLGSV,2,2,08,88,38,039,48,81,83,221,50,71,07,341,34,72,07,026,*60
$GAGSV,3,1,09,27,86,330,49,34,40,052,38,21,31,300,37,13,22,193,32*64
$GAGSV,3,2,09,30,38,117,42,15,63,140,45,29,02,247,24,04,04,341,26*60
$GAGSV,3,3,09,19,10,288,31*58
$GBGSV,5,1,19,11,77,211,48,05,21,129,,56,10,069,,24,12,150,26*6D
$GBGSV,5,2,19,44,20,056,37,38,29,057,39,13,33,083,36,08,33,073,40*6D
$GBGSV,5,3,19,23,52,295,42,25,59,183,47,12,44,055,38,43,53,228,43*6F
$GBGSV,5,4,19,34,74,068,47,37,06,317,31,10,06,085,,22,02,057,*64
$GBGSV,5,5,19,02,06,107,,19,02,010,,60,10,109,*55
$GPGGA,161602.00,,,,,0,00,,,M,,M,,*4A
$PTNL,GGK,161602.00,010125,4742.4459071,N,01617.9728071,E,1,25,1.3,EHT670.5409,M*48
$GPGGQ,161602.00,010125,4742.4459071,N,01617.9728071,E,1,25,2.818,627.3299,M*3C
$GPGFA,161602.00,10.042,20.771,1.056,0.639,62.877,2.533,,VVV*30
$GPLLK,161602.00,010125,,M,,M,1,25,1.6,,M*09
$GNGMP,161602.00,,,,,DAAA,25,0.7,,,,*54
$GPGMP,161602.00,,,,,,05,,,,2.6,123*7E
$GLGMP,161602.00,,,,,,05,,,,,*78
$GAGMP,161602.00,,,,,,05,,,,,*75
$GBGMP,161602.00,,,,,,10,,,,,*72
$PSSN,SNC,[0,317780000,2347]*4E
$GPZDA,161607.00,01,01,2025,,*64
$GPDTM,W84,,00.0000000,N,00.0000000,E,00.0000000,W84*5F
$GPRMC,161607.00,A,4742.4459115,N,01617.9728090,E,0.0,,010125,5.1,E,D*1A
$GPGLL,4742.4459115,N,01617.9728090,E,161607.00,A,D*6B
$GPGGA,161607.00,4742.4459115,N,01617.9728090,E,2,25,0.7,627.3308,M,43.2111,M,3.6,0123*4C
$GNGNS,161607.00,4742.4459115,N,01617.9728090,E,DAAA,25,0.7,627.3308,43.2111,,*55
$GPGNS,161607.00,,,,,,05,,,,3.6,123*7A
$GLGNS,161607.00,,,,,,05,,,,,*7D
$GAGNS,161607.00,,,,,,05,,,,,*70
$GBGNS,161607.00,,,,,,10,,,,,*77
$GPLLQ,161607.00,010125,,M,,M,1,25,2.841,,M*1E
$GPVTG,,T,,M,0.01,N,0.02,K,D*25
$GPHDT,,T*1B
$GPTHS,,V*0E
$GPROT,,V*08
$PSSN,HRP,161607.00,010125,,,,,,,00,0,,*66
$PTNL,AVR,161607.00,,Yaw,,Tilt,,,,0,,00*30
$GPGSA,A,3,18,26,28,29,31,,,,,,,,1.3,0.7,1.2*3A
$GPGSA,A,3,78,79,80,81,88,,,,,,,,1.3,0.7,1.2*34
$GPGSA,A,3,15,21,27,30,34,,,,,,,,1.3,0.7,1.2*32
$GPGSA,A,3,08,11,12,13,23,25,34,38,43,44,,,1.3,0.7,1.2*30
$GPGST,161607.00,2.645,1.063,0.646,62.899,0.752,0.991,2.554*6E
$GPGBS,161607.00,4.940,5.739,14.563,31,0.0001,1.177,1.016*69
$GPGRS,161607.00,1,-0.5,-1.1,0.3,-0.3,1.2,,,,,,,*4C
$GPGRS,161607.00,1,-1.5,2.2,-1.4,2.5,0.2,,,,,,,*63
$GPGRS,161607.00,1,0.4,-1.0,0.2,-0.5,0.7,,,,,,,*62
$GPGRS,161607.00,1,-2.9,2.4,0.2,-4.4,6.5,1.9,-2.4,-3.9,0.8,-2.0,,*66
$GPGSV,4,1,16,29,77,041,51,26,35,301,40,20,20,054,34,05,22,090,*7F
$GPGSV,4,2,16,18,41,185,41,25,47,125,34,31,45,281,42,28,47,240,45*78
$GPGSV,4,3,16,12,10,119,,16,06,299,30,04,04,330,29,11,10,039,27*77
$GPGSV,4,4,16,36,35,170,38,34,31,208,35,49,34,195,37,61,03,257,*7E
$GLGSV,2,1,08,79,87,184,48,80,35,321,51,82,32,218,26,78,31,145,48*61
$GLGSV,2,2,08,88,38,039,49,81,83,221,50,71,07,341,30,72,07,026,*65
$GAGSV,3,1,09,27,86,330,49,34,40,052,38,21,31,300,37,13,22,193,30*66
$GAGSV,3,2,09,30,38,117,42,15,63,140,45,29,02,247,23,04,04,341,25*64
$GAGSV,3,3,09,19,10,288,31*58
$GBGSV,5,1,19,11,77,211,47,05,21,129,,56,10,069,,24,11,150,26*61
$GBGSV,5,2,19,44,20,056,36,38,29,057,39,13,33,083,37,08,33,073,40*6D
$GBGSV,5,3,19,23,52,295,42,25,59,183,48,12,44,055,36,43,53,228,43*6E
$GBGSV,5,4,19,34,74,068,46,37,06,317,31,10,06,085,,22,02,057,*65
$GBGSV,5,5,19,02,06,107,,19,02,010,,60,10,109,*55
$GPGGA,161607.00,,,,,0,00,,,M,,M,,*4F
$PTNL,GGK,161607.00,010125,4742.4459115,N,01617.9728090,E,1,25,1.3,EHT670.5419,M*40
$GPGGQ,161607.00,010125,4742.4459115,N,01617.9728090,E,1,25,2.841,627.3308,M*30
$GPGFA,161607.00,10.108,20.941,1.063,0.646,62.899,2.554,,VVV*38
$GPLLK,161607.00,010125,,M,,M,1,25,1.6,,M*0C
$GNGMP,161607.00,,,,,DAAA,25,0.7,,,,*51
$GPGMP,161607.00,,,,,,05,,,,3.6,123*7A
$GLGMP,161607.00,,,,,,05,,,,,*7D
$GAGMP,161607.00,,,,,,05,,,,,*70
$GBGMP,161607.00,,,,,,10,,,,,*77
$PSSN,SNC,[0,317785000,2347]*4B
$GPZDA,161612.00,01,01,2025,,*60
$GPDTM,W84,,00.0000000,N,00.0000000,E,00.0000000,W84*5F
$GPRMC,161612.00,A,4742.4459108,N,01617.9728171,E,0.0,,010125,5.1,E,D*1C
$GPGLL,4742.4459108,N,01617.9728171,E,161612.00,A,D*6D
$GPGGA,161612.00,4742.4459108,N,01617.9728171,E,2,25,0.7,627.3154,M,43.2111,M,2.2,0123*44
$GNGNS,161612.00,4742.4459108,N,01617.9728171,E,DAAA,25,0.7,627.3154,43.2111,,*58
$GPGNS,161612.00,,,,,,05,,,,2.2,123*7B
$GLGNS,161612.00,,,,,,06,,,,,*7A
$GAGNS,161612.00,,,,,,05,,,,,*74
$GBGNS,161612.00,,,,,,09,,,,,*7B
$GPLLQ,161612.00,010125,,M,,M,1,25,3.468,,M*1C
$GPVTG,,T,,M,0.00,N,0.01,K,D*27
$GPHDT,,T*1B
$GPTHS,,V*0E
$GPROT,,V*08
$PSSN,HRP,161612.00,010125,,,,,,,00,0,,*62
$PTNL,AVR,161612.00,,Yaw,,Tilt,,,,0,,00*34
$GPGSA,A,3,18,26,28,29,31,,,,,,,,1.2,0.7,1.0*39
$GPGSA,A,3,71,78,79,80,81,88,,,,,,,1.2,0.7,1.0*31
$GPGSA,A,3,15,21,27,30,34,,,,,,,,1.2,0.7,1.0*31
$GPGSA,A,3,08,11,13,23,25,34,38,43,44,,,,1.2,0.7,1.0*30
$GPGST,161612.00,2.667,1.324,0.812,64.467,0.929,1.245,3.101*6A
$GPGBS,161612.00,4.552,5.681,12.751,31,0.0001,2.341,1.028*6C
$GPGRS,161612.00,1,-0.3,-1.5,-0.1,-0.5,2.3,,,,,,,*61
$GPGRS,161612.00,1,-1.5,-1.7,1.0,-1.5,2.6,-0.3,,,,,,*4D
$GPGRS,161612.00,1,0.8,-1.5,0.2,-0.0,1.3,,,,,,,*6F
$GPGRS,161612.00,1,-2.9,1.5,-3.4,6.3,1.3,-2.7,-4.2,1.6,-2.9,,,*4E
$GPGSV,4,1,16,29,77,041,50,26,35,301,38,20,20,054,34,05,22,090,33*71
$GPGSV,4,2,16,18,41,185,42,25,47,125,35,31,45,281,43,28,47,240,45*7B
$GPGSV,4,3,16,12,10,119,,16,06,299,32,04,04,330,29,11,10,039,24*76
$GPGSV,4,4,16,36,35,170,38,34,31,208,34,49,34,195,36,61,03,257,*7E
$GLGSV,2,1,08,79,87,184,47,80,35,321,51,82,32,218,33,78,31,145,47*65
$GLGSV,2,2,08,88,38,039,49,81,83,221,50,71,07,341,37,72,07,026,*62
$GAGSV,3,1,09,27,86,330,49,34,40,052,37,21,31,300,37,13,22,193,29*61
$GAGSV,3,2,09,30,38,117,42,15,63,140,45,29,02,247,24,04,04,341,24*62
$GAGSV,3,3,09,19,10,288,32*5B
$GBGSV,5,1,19,11,77,211,47,05,21,129,,56,10,069,,24,11,150,26*61
$GBGSV,5,2,19,44,19,056,36,38,29,057,38,13,33,083,37,08,33,073,40*66
$GBGSV,5,3,19,23,52,295,40,25,59,183,49,12,44,055,34,43,53,228,44*68
$GBGSV,5,4,19,34,74,067,45,37,06,317,31,10,06,085,,22,02,057,*69
$GBGSV,5,5,19,02,06,107,,19,02,010,,60,10,109,*55
$GPGGA,161612.00,,,,,0,00,,,M,,M,,*4B
$PTNL,GGK,161612.00,010125,4742.4459108,N,01617.9728171,E,1,25,1.2,EHT670.5265,M*4A
$GPGGQ,161612.00,010125,4742.4459108,N,01617.9728171,E,1,25,3.468,627.3154,M*3B
$GPGFA,161612.00,12.587,25.425,1.324,0.812,64.467,3.101,,VVV*36
$GPLLK,161612.00,010125,,M,,M,1,25,1.5,,M*0B
$GNGMP,161612.00,,,,,DAAA,25,0.7,,,,*55
$GPGMP,161612.00,,,,,,05,,,,2.2,123*7B
$GLGMP,161612.00,,,,,,06,,,,,*7A
$GAGMP,161612.00,,,,,,05,,,,,*74
$GBGMP,161612.00,,,,,,09,,,,,*7B
$PSSN,SNC,[0,317790000,2347]*4F
$GPZDA,161617.00,01,01,2025,,*65
$GPDTM,W84,,00.0000000,N,00.0000000,E,00.0000000,W84*5F
$GPRMC,161617.00,A,4742.4459141,N,01617.9728193,E,0.0,,010125,5.1,E,D*18
$GPGLL,4742.4459141,N,01617.9728193,E,161617.00,A,D*69
$GPGGA,161617.00,4742.4459141,N,01617.9728193,E,2,26,0.6,627.3194,M,43.2111,M,1.7,0123*48
$GNGNS,161617.00,4742.4459141,N,01617.9728193,E,DAAA,26,0.6,627.3194,43.2111,,*52
$GPGNS,161617.00,,,,,,06,,,,1.7,123*7B
$GLGNS,161617.00,,,,,,06,,,,,*7F
$GAGNS,161617.00,,,,,,05,,,,,*71
$GBGNS,161617.00,,,,,,09,,,,,*7E
$GPLLQ,161617.00,010125,,M,,M,1,26,3.029,,M*1B
$GPVTG,,T,,M,0.01,N,0.01,K,D*26
$GPHDT,,T*1B
$GPTHS,,V*0E
$GPROT,,V*08
$PSSN,HRP,161617.00,010125,,,,,,,00,0,,*67
$PTNL,AVR,161617.00,,Yaw,,Tilt,,,,0,,00*31
$GPGSA,A,3,18,25,26,28,29,31,,,,,,,1.2,0.6,1.0*3F
$GPGSA,A,3,71,78,79,80,81,88,,,,,,,1.2,0.6,1.0*30
$GPGSA,A,3,15,21,27,30,34,,,,,,,,1.2,0.6,1.0*30
$GPGSA,A,3,08,11,13,23,25,34,38,43,44,,,,1.2,0.6,1.0*31
$GPGST,161617.00,3.394,1.058,0.654,37.085,0.931,0.824,2.762*6A
$GPGBS,161617.00,4.713,5.037,13.514,25,0.0001,1.410,0.892*6A
$GPGRS,161617.00,1,0.3,1.4,-0.6,-0.8,-0.8,1.2,,,,,,*66
$GPGRS,161617.00,1,8.7,-3.3,-0.2,-2.3,1.8,-1.6,,,,,,*4A
$GPGRS,161617.00,1,0.5,-2.8,-0.3,-0.2,2.1,,,,,,,*46
$GPGRS,161617.00,1,-2.9,0.4,-3.6,5.7,0.3,-2.5,-5.1,2.3,-3.3,,,*42
$GPGSV,4,1,16,29,77,041,50,26,35,301,39,20,20,054,35,05,22,090,34*76
$GPGSV,4,2,16,18,41,185,42,25,47,125,38,31,45,281,42,28,47,240,44*76
$GPGSV,4,3,16,12,10,119,,16,06,299,32,04,04,330,32,11,10,039,21*79
$GPGSV,4,4,16,36,35,170,37,34,31,208,35,49,34,195,36,61,03,257,*70
$GLGSV,2,1,08,79,87,184,47,80,35,321,50,82,32,218,34,78,31,145,45*61
$GLGSV,2,2,08,88,38,039,48,81,84,222,50,71,07,341,38,72,07,026,*68
$GAGSV,3,1,09,27,86,330,49,34,40,052,37,21,31,300,37,13,22,193,28*60
$GAGSV,3,2,09,30,38,117,42,15,63,140,44,29,02,247,22,04,04,341,24*65
$GAGSV,3,3,09,19,10,288,32*5B
$GBGSV,5,1,19,11,77,211,47,05,21,129,,56,10,069,,24,11,150,27*60
$GBGSV,5,2,19,44,19,056,36,38,29,057,37,13,33,083,37,08,33,073,40*69
$GBGSV,5,3,19,23,52,295,36,25,59,183,49,12,44,055,33,43,53,228,45*6F
$GBGSV,5,4,19,34,74,067,45,37,06,318,30,10,06,085,,22,02,057,*67
$GBGSV,5,5,19,02,06,107,,19,02,009,,60,10,109,*5D
$GPGGA,161617.00,,,,,0,00,,,M,,M,,*4E
$PTNL,GGK,161617.00,010125,4742.4459141,N,01617.9728193,E,1,26,1.2,EHT670.5305,M*4A
$GPGGQ,161617.00,010125,4742.4459141,N,01617.9728193,E,1,26,3.029,627.3194,M*31
$GPGFA,161617.00,10.054,22.646,1.058,0.654,37.085,2.762,,VVV*32
$GPLLK,161617.00,010125,,M,,M,1,26,1.5,,M*0D
$GNGMP,161617.00,,,,,DAAA,26,0.6,,,,*52
$GPGMP,161617.00,,,,,,06,,,,1.7,123*7B
$GLGMP,161617.00,,,,,,06,,,,,*7F
$GAGMP,161617.00,,,,,,05,,,,,*71
$GBGMP,161617.00,,,,,,09,,,,,*7E
$PSSN,SNC,[0,317795000,2347]*4A
$GPZDA,161622.00,01,01,2025,,*63
$GPDTM,W84,,00.0000000,N,00.0000000,E,00.0000000,W84*5F
$GPRMC,161622.00,A,4742.4459153,N,01617.9728104,E,0.0,,010125,5.1,E,D*13
$GPGLL,4742.4459153,N,01617.9728104,E,161622.00,A,D*62
$GPGGA,161622.00,4742.4459153,N,01617.9728104,E,2,24,0.7,627.3338,M,43.2111,M,2.7,0123*47
$GNGNS,161622.00,4742.4459153,N,01617.9728104,E,DAAA,24,0.7,627.3338,43.2111,,*5E
$GPGNS,161622.00,,,,,,06,,,,2.7,123*7E
$GLGNS,161622.00,,,,,,06,,,,,*79
$GAGNS,161622.00,,,,,,05,,,,,*77
$GBGNS,161622.00,,,,,,07,,,,,*76
$GPLLQ,161622.00,010125,,M,,M,1,24,3.930,,M*1E
$GPVTG,,T,,M,0.00,N,0.01,K,D*27
$GPHDT,,T*1B
$GPTHS,,V*0E
$GPROT,,V*08
$PSSN,HRP,161622.00,010125,,,,,,,00,0,,*61
$PTNL,AVR,161622.00,,Yaw,,Tilt,,,,0,,00*37
$GPGSA,A,3,18,25,26,28,29,31,,,,,,,1.3,0.7,1.1*3E
$GPGSA,A,3,71,78,79,80,81,88,,,,,,,1.3,0.7,1.1*31
$GPGSA,A,3,15,21,27,30,34,,,,,,,,1.3,0.7,1.1*31
$GPGSA,A,3,08,11,13,25,34,38,43,,,,,,1.3,0.7,1.1*31
$GPGST,161622.00,5.347,1.354,0.819,36.789,1.190,1.043,3.597*65
$GPGBS,161622.00,4.782,5.231,13.910,71,0.0001,19.504,7.296*5D
$GPGRS,161622.00,1,-0.8,1.8,0.1,-0.9,-0.4,-0.5,,,,,,*46
$GPGRS,161622.00,1,19.5,-3.5,0.2,-3.3,1.6,-2.8,,,,,,*57
$GPGRS,161622.00,1,0.4,-0.6,-0.2,0.3,3.5,,,,,,,*65
$GPGRS,161622.00,1,-2.8,1.0,-3.0,-0.6,-1.9,-5.0,2.7,,,,,*4B
$GPGSV,4,1,16,29,76,041,50,26,35,301,39,20,20,054,35,05,22,090,32*71
$GPGSV,4,2,16,18,41,185,42,25,47,125,38,31,45,281,41,28,47,240,43*72
$GPGSV,4,3,16,12,10,119,,16,06,299,31,04,04,330,34,11,10,039,19*77
$GPGSV,4,4,16,36,35,170,37,34,31,208,34,49,34,195,36,61,03,257,*71
$GLGSV,2,1,08,79,86,183,47,80,35,321,50,82,32,218,34,78,31,145,44*66
$GLGSV,2,2,08,88,38,039,46,81,84,222,49,71,07,341,38,72,07,026,*6E
$GAGSV,3,1,09,27,86,331,49,34,39,052,37,21,31,300,37,13,22,193,29*6E
$GAGSV,3,2,09,30,38,117,42,15,63,140,44,29,02,247,23,04,04,341,25*65
$GAGSV,3,3,09,19,10,288,32*5B
$GBGSV,5,1,19,11,77,211,48,05,21,129,,56,10,069,,24,11,150,27*6F
$GBGSV,5,2,19,44,19,056,35,38,29,057,37,13,33,083,38,08,33,073,40*65
$GBGSV,5,3,19,23,52,295,28,25,59,182,49,12,44,055,32,43,53,228,47*62
$GBGSV,5,4,19,34,74,067,45,37,06,318,30,10,06,085,,22,02,057,*67
$GBGSV,5,5,19,02,06,107,,19,02,009,,60,10,109,*5D
$GPGGA,161622.00,,,,,0,00,,,M,,M,,*48
$PTNL,GGK,161622.00,010125,4742.4459153,N,01617.9728104,E,1,24,1.3,EHT670.5448,M*4C
$GPGGQ,161622.00,010125,4742.4459153,N,01617.9728104,E,1,24,3.930,627.3338,M*3D
$GPGFA,161622.00,12.873,29.499,1.354,0.819,36.789,3.597,,VVV*3B
$GPLLK,161622.00,010125,,M,,M,1,24,1.5,,M*09
$GNGMP,161622.00,,,,,DAAA,24,0.7,,,,*57
$GPGMP,161622.00,,,,,,06,,,,2.7,123*7E
$GLGMP,161622.00,,,,,,06,,,,,*79
$GAGMP,161622.00,,,,,,05,,,,,*77
$GBGMP,161622.00,,,,,,07,,,,,*76
$PSSN,SNC,[0,317800000,2347]*49
$GPZDA,161627.00,01,01,2025,,*66
$GPDTM,W84,,00.0000000,N,00.0000000,E,00.0000000,W84*5F
$GPRMC,161627.00,A,4742.4459067,N,01617.9727949,E,0.0,,010125,5.1,E,D*1E
$GPGLL,4742.4459067,N,01617.9727949,E,161627.00,A,D*6F
$GPGGA,161627.00,4742.4459067,N,01617.9727949,E,2,25,0.7,627.3528,M,43.2111,M,3.7,0123*4D
$GNGNS,161627.00,4742.4459067,N,01617.9727949,E,DAAA,25,0.7,627.3528,43.2111,,*55
$GPGNS,161627.00,,,,,,07,,,,3.7,123*7B
$GLGNS,161627.00,,,,,,06,,,,,*7C
$GAGNS,161627.00,,,,,,05,,,,,*72
$GBGNS,161627.00,,,,,,07,,,,,*73
$GPLLQ,161627.00,010125,,M,,M,1,25,3.033,,M*10
$GPVTG,,T,,M,0.01,N,0.01,K,D*26
$GPHDT,,T*1B
$GPTHS,,V*0E
$GPROT,,V*08
$PSSN,HRP,161627.00,010125,,,,,,,00,0,,*64
$PTNL,AVR,161627.00,,Yaw,,Tilt,,,,0,,00*32
$GPGSA,A,3,18,20,25,26,28,29,31,,,,,,1.2,0.7,1.1*3D
$GPGSA,A,3,71,78,79,80,81,88,,,,,,,1.2,0.7,1.1*30
$GPGSA,A,3,15,21,27,30,34,,,,,,,,1.2,0.7,1.1*30
$GPGSA,A,3,08,11,13,25,34,38,43,,,,,,1.2,0.7,1.1*30
$GPGST,161627.00,6.148,1.078,0.876,9.016,1.073,0.882,2.696*5C
$GPGBS,161627.00,4.486,2.864,12.693,71,0.0001,23.543,7.297*5C
$GPGRS,161627.00,1,-1.3,1.3,1.5,0.2,-0.7,-0.2,-0.1,,,,,*67
$GPGRS,161627.00,1,23.5,-3.9,0.7,-3.0,1.3,-3.5,,,,,,*58
$GPGRS,161627.00,1,0.6,0.7,-0.1,0.1,4.8,,,,,,,*45
$GPGRS,161627.00,1,-2.9,2.7,-3.0,-1.3,-1.2,-4.9,2.3,,,,,*48
$GPGSV,4,1,16,29,76,041,50,26,35,301,40,20,20,054,36,05,22,090,26*79
$GPGSV,4,2,16,18,41,185,43,25,47,125,40,31,45,281,41,28,47,240,42*7D
$GPGSV,4,3,16,12,10,119,,16,06,299,31,04,04,330,34,11,10,039,26*7B
$GPGSV,4,4,16,36,35,170,38,34,31,208,35,49,34,195,37,61,03,257,*7E
$GLGSV,2,1,08,79,86,183,48,80,35,321,50,82,32,218,34,78,31,145,43*6E
$GLGSV,2,2,08,88,38,039,46,81,84,222,48,71,07,341,38,72,07,026,*6F
$GAGSV,3,1,09,27,86,331,49,34,39,052,38,21,31,300,38,13,22,193,30*66
$GAGSV,3,2,09,30,38,117,42,15,63,140,43,29,02,247,22,04,04,341,24*62
$GAGSV,3,3,09,19,10,288,31*58
$GBGSV,5,1,19,11,77,211,49,05,21,129,,56,10,069,,24,11,150,27*6E
$GBGSV,5,2,19,44,19,056,34,38,29,057,36,13,33,083,38,08,33,073,40*65
$GBGSV,5,3,19,23,52,295,26,25,59,182,49,12,44,055,31,43,53,228,47*6F
$GBGSV,5,4,19,34,74,067,44,37,06,318,29,10,06,085,,22,02,057,*6E
$GBGSV,5,5,19,02,06,107,,19,02,009,,60,10,109,*5D
$GPGGA,161627.00,,,,,0,00,,,M,,M,,*4D
$PTNL,GGK,161627.00,010125,4742.4459067,N,01617.9727949,E,1,25,1.2,EHT670.5638,M*44
$GPGGQ,161627.00,010125,4742.4459067,N,01617.9727949,E,1,25,3.033,627.3528,M*3C
$GPGFA,161627.00,10.247,22.107,1.078,0.876,9.016,2.696,,VVV*02
$GPLLK,161627.00,010125,,M,,M,1,25,1.5,,M*0D
$GNGMP,161627.00,,,,,DAAA,25,0.7,,,,*53
$GPGMP,161627.00,,,,,,07,,,,3.7,123*7B
$GLGMP,161627.00,,,,,,06,,,,,*7C
$GAGMP,161627.00,,,,,,05,,,,,*72
$GBGMP,161627.00,,,,,,07,,,,,*73
$PSSN,SNC,[0,317805000,2347]*4C
$GPZDA,161632.00,01,01,2025,,*62
$GPDTM,W84,,00.0000000,N,00.0000000,E,00.0000000,W84*5F
$GPRMC,161632.00,A,4742.4458923,N,01617.9727750,E,0.0,,010125,5.1,E,D*14
$GPGLL,4742.4458923,N,01617.9727750,E,161632.00,A,D*65
$GPGGA,161632.00,4742.4458923,N,01617.9727750,E,2,25,0.7,627.3889,M,43.2111,M,1.9,0123*4D
$GNGNS,161632.00,4742.4458923,N,01617.9727750,E,DAAA,25,0.7,627.3889,43.2111,,*59
$GPGNS,161632.00,,,,,,07,,,,1.9,123*73
$GLGNS,161632.00,,,,,,06,,,,,*78
$GAGNS,161632.00,,,,,,05,,,,,*76
$GBGNS,161632.00,,,,,,07,,,,,*77
$GPLLQ,161632.00,010125,,M,,M,1,25,3.271,,M*10
$GPVTG,,T,,M,0.00,N,0.01,K,D*27
$GPHDT,,T*1B
$GPTHS,,V*0E
$GPROT,,V*08
$PSSN,HRP,161632.00,010125,,,,,,,00,0,,*60
$PTNL,AVR,161632.00,,Yaw,,Tilt,,,,0,,00*36
$GPGSA,A,3,18,20,25,26,28,29,31,,,,,,1.2,0.7,1.1*3D
