$GPZDA,231442.00,01,01,2025,,*61
$GPDTM,W84,,00.0000000,N,00.0000000,E,00.0000000,W84*5F
$GPRMC,231442.00,A,4742.4460422,N,01617.9734931,E,0.0,,010125,5.1,E,D*1B
$GPGLL,4742.4460422,N,01617.9734931,E,231442.00,A,D*6A
$GPGGA,231442.00,4742.4460422,N,01617.9734931,E,2,18,0.8,624.2350,M,43.2110,M,2.0,0123*45
$GNGNS,231442.00,4742.4460422,N,01617.9734931,E,DAAA,18,0.8,624.2350,43.2110,,*5B
$GPGNS,231442.00,,,,,,06,,,,2.0,123*7B
$GLGNS,231442.00,,,,,,03,,,,,*7E
$GAGNS,231442.00,,,,,,04,,,,,*74
$GBGNS,231442.00,,,,,,05,,,,,*76
$GPLLQ,231442.00,010125,,M,,M,1,18,2.533,,M*1D
$GPVTG,,T,,M,0.00,N,0.01,K,D*27
$GPHDT,,T*1B
$GPTHS,,V*0E
$GPROT,,V*08
$PSSN,HRP,231442.00,010125,,,,,,,00,0,,*63
$PTNL,AVR,231442.00,,Yaw,,Tilt,,,,0,,00*35
$GPGSA,A,3,02,03,08,10,21,32,,,,,,,1.3,0.8,1.1*32
$GPGSA,A,3,69,76,85,,,,,,,,,,1.3,0.8,1.1*3B
$GPGSA,A,3,07,26,31,33,,,,,,,,,1.3,0.8,1.1*39
$GPGSA,A,3,27,30,32,33,41,,,,,,,,1.3,0.8,1.1*3A
$GPGST,231442.00,5.843,1.332,0.712,328.158,1.193,0.927,2.033*59
$GPGBS,231442.00,5.784,3.452,7.161,31,0.0001,18.093,6.494*6D
$GPGRS,231442.00,1,0.9,-0.0,-1.1,1.0,0.4,-1.1,,,,,,*6D
$GPGRS,231442.00,1,-0.2,-5.3,1.0,,,,,,,,,*67
$GPGRS,231442.00,1,1.1,-0.7,18.1,0.2,,,,,,,,*5C
$GPGRS,231442.00,1,-1.8,1.6,1.1,2.5,0.2,,,,,,,*44
$GPGSV,4,1,16,21,86,036,44,22,13,316,,14,15,294,35,10,22,059,38*7B
$GPGSV,4,2,16,27,14,165,28,17,13,320,31,03,32,245,36,08,41,187,42*76
$GPGSV,4,3,16,32,46,071,44,01,62,300,,02,67,305,47,28,04,113,*71
$GPGSV,4,4,16,36,35,170,41,34,31,208,,49,34,195,37,61,03,257,*76
$GLGSV,2,1,08,69,64,052,49,85,58,327,46,68,15,032,39,84,59,109,35*62
$GLGSV,2,2,08,70,42,200,29,76,10,315,40,77,07,358,24,86,06,312,34*66
$GAGSV,3,1,12,26,64,088,45,29,34,165,33,08,18,039,20,24,14,319,34*66
$GAGSV,3,2,12,13,13,104,27,31,20,268,35,07,50,090,36,33,59,304,42*63
$GAGSV,3,3,12,23,05,221,,12,07,290,,16,04,341,,14,07,157,*65
$GBGSV,5,1,17,57,77,313,,13,10,064,,33,28,049,42,60,10,109,*65
$GBGSV,5,2,17,28,31,139,29,32,38,210,37,09,13,093,,05,24,128,*66
$GBGSV,5,3,17,39,19,066,,16,17,077,,06,16,080,,30,47,303,42*67
$GBGSV,5,4,17,27,75,170,47,41,75,096,45,14,04,044,,02,09,105,*69
$GBGSV,5,5,17,08,01,063,*51
$GPGGA,231442.00,,,,,0,00,,,M,,M,,*4A
$PTNL,GGK,231442.00,010125,4742.4460422,N,01617.9734931,E,1,18,1.3,EHT667.4461,M*47
$GPGGQ,231442.00,010125,4742.4460422,N,01617.9734931,E,1,18,2.533,624.2350,M*38
$GPGFA,231442.00,12.669,16.674,1.332,0.712,328.158,2.033,,VVV*09
$GPLLK,231442.00,010125,,M,,M,1,18,1.5,,M*04
$GNGMP,231442.00,,,,,DAAA,18,0.8,,,,*55
$GPGMP,231442.00,,,,,,06,,,,2.0,123*7B
$GLGMP,231442.00,,,,,,03,,,,,*7E
$GAGMP,231442.00,,,,,,04,,,,,*74
$GBGMP,231442.00,,,,,,05,,,,,*76
$PSSN,SNC,[0,342900000,2347]*48
$GPZDA,231447.00,01,01,2025,,*64
$GPDTM,W84,,00.0000000,N,00.0000000,E,00.0000000,W84*5F
$GPRMC,231447.00,A,4742.4460189,N,01617.9734944,E,0.0,,010125,5.1,E,D*18
$GPGLL,4742.4460189,N,01617.9734944,E,231447.00,A,D*69
$GPGGA,231447.00,4742.4460189,N,01617.9734944,E,2,19,0.8,624.2241,M,43.2110,M,2.5,0123*43
$GNGNS,231447.00,4742.4460189,N,01617.9734944,E,DAAA,19,0.8,624.2241,43.2110,,*58
$GPGNS,231447.00,,,,,,06,,,,2.5,123*7B
$GLGNS,231447.00,,,,,,05,,,,,*7D
$GAGNS,231447.00,,,,,,04,,,,,*71
$GBGNS,231447.00,,,,,,04,,,,,*72
$GPLLQ,231447.00,010125,,M,,M,1,19,3.168,,M*12
$GPVTG,,T,,M,0.01,N,0.02,K,D*25
$GPHDT,,T*1B
$GPTHS,,V*0E
$GPROT,,V*08
$PSSN,HRP,231447.00,010125,,,,,,,00,0,,*66
$PTNL,AVR,231447.00,,Yaw,,Tilt,,,,0,,00*30
$GPGSA,A,3,02,03,08,10,21,32,,,,,,,1.3,0.8,1.0*33
$GPGSA,A,3,69,76,84,85,86,,,,,,,,1.3,0.8,1.0*38
$GPGSA,A,3,07,26,31,33,,,,,,,,,1.3,0.8,1.0*38
$GPGSA,A,3,27,30,33,41,,,,,,,,,1.3,0.8,1.0*3A
$GPGST,231447.00,5.650,1.673,0.911,328.817,1.507,1.165,2.531*5E
$GPGBS,231447.00,5.759,3.324,7.014,08,0.0001,-2.417,0.724*77
$GPGRS,231447.00,1,1.1,0.7,-2.4,2.4,-0.1,-0.3,,,,,,*61
$GPGRS,231447.00,1,-1.1,-5.0,-2.7,0.2,-5.2,,,,,,,*62
$GPGRS,231447.00,1,0.9,-0.4,17.3,-0.1,,,,,,,,*70
$GPGRS,231447.00,1,-2.2,1.2,2.2,0.0,,,,,,,,*67
$GPGSV,4,1,16,21,86,037,44,22,13,316,,14,15,294,,10,22,059,37*73
$GPGSV,4,2,16,27,14,165,28,17,13,320,32,03,32,245,36,08,41,187,42*75
$GPGSV,4,3,16,32,46,071,43,01,62,300,,02,67,305,47,28,04,113,*76
$GPGSV,4,4,16,36,35,170,42,34,31,208,,49,34,195,37,61,03,257,*75
$GLGSV,2,1,08,69,64,052,48,85,58,327,44,68,15,032,38,84,59,109,35*60
$GLGSV,2,2,08,70,42,200,,76,10,315,40,77,07,358,21,86,06,312,35*69
$GAGSV,3,1,12,26,64,088,45,29,34,165,32,08,18,039,32,24,14,319,33*63
$GAGSV,3,2,12,13,13,104,27,31,20,268,37,07,50,090,37,33,59,304,42*60
$GAGSV,3,3,12,23,05,221,,12,07,290,,16,04,341,,14,07,157,*65
$GBGSV,5,1,17,57,77,313,,13,10,064,,33,28,049,42,60,10,109,*65
$GBGSV,5,2,17,28,31,139,31,32,38,210,33,09,13,093,,05,24,128,*6B
$GBGSV,5,3,17,39,19,066,,16,17,077,,06,16,080,,30,47,303,42*67
$GBGSV,5,4,17,27,75,170,48,41,75,096,45,14,04,044,,02,09,105,*66
$GBGSV,5,5,17,08,01,063,*51
$GPGGA,231447.00,,,,,0,00,,,M,,M,,*4F
$PTNL,GGK,231447.00,010125,4742.4460189,N,01617.9734944,E,1,19,1.3,EHT667.4351,M*41
$GPGGQ,231447.00,010125,4742.4460189,N,01617.9734944,E,1,19,3.168,624.2241,M*30
$GPGFA,231447.00,15.909,20.753,1.673,0.911,328.817,2.531,,VVV*0B
$GPLLK,231447.00,010125,,M,,M,1,19,1.5,,M*00
$GNGMP,231447.00,,,,,DAAA,19,0.8,,,,*51
$GPGMP,231447.00,,,,,,06,,,,2.5,123*7B
$GLGMP,231447.00,,,,,,05,,,,,*7D
$GAGMP,231447.00,,,,,,04,,,,,*71
$GBGMP,231447.00,,,,,,04,,,,,*72
$PSSN,SNC,[0,342905000,2347]*4D
$GPZDA,231452.00,01,01,2025,,*60
$GPDTM,W84,,00.0000000,N,00.0000000,E,00.0000000,W84*5F
$GPRMC,231452.00,A,4742.4460056,N,01617.9735031,E,0.0,,010125,5.1,E,D*15
$GPGLL,4742.4460056,N,01617.9735031,E,231452.00,A,D*64
$GPGGA,231452.00,4742.4460056,N,01617.9735031,E,2,18,1.0,624.2470,M,43.2110,M,3.4,0123*42
$GNGNS,231452.00,4742.4460056,N,01617.9735031,E,DAAA,18,1.0,624.2470,43.2110,,*59
$GPGNS,231452.00,,,,,,05,,,,3.4,123*7C
$GLGNS,231452.00,,,,,,05,,,,,*79
$GAGNS,231452.00,,,,,,04,,,,,*75
$GBGNS,231452.00,,,,,,04,,,,,*76
$GPLLQ,231452.00,010125,,M,,M,1,18,3.873,,M*14
$GPVTG,,T,,M,0.01,N,0.02,K,D*25
$GPHDT,,T*1B
$GPTHS,,V*0E
$GPROT,,V*08
$PSSN,HRP,231452.00,010125,,,,,,,00,0,,*62
$PTNL,AVR,231452.00,,Yaw,,Tilt,,,,0,,00*34
$GPGSA,A,3,02,03,10,21,32,,,,,,,,1.5,1.0,1.1*35
$GPGSA,A,3,69,76,84,85,86,,,,,,,,1.5,1.0,1.1*36
$GPGSA,A,3,07,26,31,33,,,,,,,,,1.5,1.0,1.1*36
$GPGSA,A,3,27,30,33,41,,,,,,,,,1.5,1.0,1.1*34
$GPGST,231452.00,6.364,3.016,0.851,340.597,2.858,1.284,2.276*5E
$GPGBS,231452.00,10.093,4.710,7.347,31,0.0001,18.641,6.177*5C
$GPGRS,231452.00,1,0.2,1.9,1.8,-1.0,-0.5,,,,,,,*64
$GPGRS,231452.00,1,-1.5,-7.1,-2.5,0.9,-3.7,,,,,,,*6B
$GPGRS,231452.00,1,1.7,-1.5,18.6,-0.6,,,,,,,,*76
$GPGRS,231452.00,1,-3.0,0.0,0.9,-0.5,,,,,,,,*42
$GPGSV,4,1,16,21,86,038,44,22,13,316,,14,15,294,35,10,22,060,36*71
$GPGSV,4,2,16,27,14,165,28,17,13,320,35,03,32,245,37,08,41,187,41*70
$GPGSV,4,3,16,32,46,071,45,01,62,301,,02,67,305,47,28,04,113,*71
$GPGSV,4,4,16,36,35,170,42,34,31,208,,49,34,195,37,61,03,257,*75
$GLGSV,2,1,08,69,64,052,48,85,58,327,44,68,15,032,37,84,59,109,36*6C
$GLGSV,2,2,08,70,42,200,30,76,10,315,41,77,07,358,21,86,06,312,36*68
$GAGSV,3,1,12,26,64,088,44,29,34,165,31,08,17,039,20,24,14,319,33*6D
$GAGSV,3,2,12,13,13,104,26,31,20,268,37,07,50,090,39,33,59,304,41*6C
$GAGSV,3,3,12,23,05,221,,12,07,290,,16,04,341,,14,07,157,*65
$GBGSV,5,1,17,57,77,313,,13,10,064,,33,28,049,42,60,10,109,*65
$GBGSV,5,2,17,28,31,139,33,32,38,211,30,09,13,093,,05,24,128,*6B
$GBGSV,5,3,17,39,19,066,24,16,17,077,,06,16,080,,30,47,303,42*61
$GBGSV,5,4,17,27,75,170,48,41,75,096,45,14,04,044,,02,09,105,*66
$GBGSV,5,5,17,08,01,063,*51
$GPGGA,231452.00,,,,,0,00,,,M,,M,,*4B
$PTNL,GGK,231452.00,010125,4742.4460056,N,01617.9735031,E,1,18,1.5,EHT667.4580,M*41
$GPGGQ,231452.00,010125,4742.4460056,N,01617.9735031,E,1,18,3.873,624.2470,M*3B
$GPGFA,231452.00,28.671,18.661,3.016,0.851,340.597,2.276,,VVV*07
$GPLLK,231452.00,010125,,M,,M,1,18,1.7,,M*07
$GNGMP,231452.00,,,,,DAAA,18,1.0,,,,*5D
$GPGMP,231452.00,,,,,,05,,,,3.4,123*7C
$GLGMP,231452.00,,,,,,05,,,,,*79
$GAGMP,231452.00,,,,,,04,,,,,*75
$GBGMP,231452.00,,,,,,04,,,,,*76
$PSSN,SNC,[0,342910000,2347]*49
$GPZDA,231457.00,01,01,2025,,*65
$GPDTM,W84,,00.0000000,N,00.0000000,E,00.0000000,W84*5F
$GPRMC,231457.00,A,4742.4460021,N,01617.9735075,E,0.0,,010125,5.1,E,D*10
$GPGLL,4742.4460021,N,01617.9735075,E,231457.00,A,D*61
$GPGGA,231457.00,4742.4460021,N,01617.9735075,E,2,17,0.9,624.2587,M,43.2110,M,2.3,0123*4F
$GNGNS,231457.00,4742.4460021,N,01617.9735075,E,DAAA,17,0.9,624.2587,43.2110,,*52
$GPGNS,231457.00,,,,,,04,,,,2.3,123*7E
$GLGNS,231457.00,,,,,,05,,,,,*7C
$GAGNS,231457.00,,,,,,04,,,,,*70
$GBGNS,231457.00,,,,,,04,,,,,*73
$GPLLQ,231457.00,010125,,M,,M,1,17,5.735,,M*15
$GPVTG,,T,,M,0.00,N,0.01,K,D*27
$GPHDT,,T*1B
$GPTHS,,V*0E
$GPROT,,V*08
$PSSN,HRP,231457.00,010125,,,,,,,00,0,,*67
$PTNL,AVR,231457.00,,Yaw,,Tilt,,,,0,,00*31
$GPGSA,A,3,02,08,21,32,,,,,,,,,1.5,0.9,1.1*37
$GPGSA,A,3,69,76,84,85,86,,,,,,,,1.5,0.9,1.1*3E
$GPGSA,A,3,07,26,31,33,,,,,,,,,1.5,0.9,1.1*3E
$GPGSA,A,3,27,30,33,41,,,,,,,,,1.5,0.9,1.1*3C
$GPGST,231457.00,6.877,2.242,1.408,319.862,1.939,1.802,5.087*50
$GPGBS,231457.00,4.990,5.295,15.752,08,0.0001,-2.675,0.691*4E
$GPGRS,231457.00,1,0.7,-2.7,-0.5,0.9,,,,,,,,*46
$GPGRS,231457.00,1,0.0,-6.8,-0.2,3.5,-1.4,,,,,,,*44
$GPGRS,231457.00,1,1.9,-0.8,19.8,0.4,,,,,,,,*51
$GPGRS,231457.00,1,-2.0,-0.4,1.6,-0.5,,,,,,,,*61
$GPGSV,4,1,16,21,86,038,44,22,13,316,,14,15,294,31,10,22,060,34*77
$GPGSV,4,2,16,27,14,165,27,17,13,320,38,03,32,245,37,08,41,187,41*72
$GPGSV,4,3,16,32,46,071,46,01,62,301,,02,67,305,48,28,04,113,*7D
$GPGSV,4,4,16,36,35,170,42,34,31,208,,49,34,195,38,61,03,257,*7A
$GLGSV,2,1,08,69,64,052,48,85,59,327,45,68,15,032,35,84,59,109,36*6E
$GLGSV,2,2,08,70,42,200,26,76,10,315,41,77,07,358,22,86,06,312,37*6D
$GAGSV,3,1,12,26,64,088,44,29,34,165,29,08,17,038,22,24,14,319,32*66
$GAGSV,3,2,12,13,13,104,26,31,20,268,37,07,50,090,39,33,59,304,40*6D
$GAGSV,3,3,12,23,05,221,,12,07,290,,16,04,341,,14,07,157,*65
$GBGSV,5,1,17,57,77,314,,13,10,064,,33,28,049,43,60,10,109,*63
$GBGSV,5,2,17,28,31,139,34,32,38,211,25,09,13,093,,05,24,128,*68
$GBGSV,5,3,17,39,19,066,26,16,17,077,,06,16,080,,30,47,303,42*63
$GBGSV,5,4,17,27,75,170,47,41,75,096,45,14,04,044,,02,09,105,*69
$GBGSV,5,5,17,08,01,063,*51
$GPGGA,231457.00,,,,,0,00,,,M,,M,,*4E
$PTNL,GGK,231457.00,010125,4742.4460021,N,01617.9735075,E,1,17,1.5,EHT667.4698,M*41
$GPGGQ,231457.00,010125,4742.4460021,N,01617.9735075,E,1,17,5.735,624.2587,M*33
$GPGFA,231457.00,21.315,41.716,2.242,1.408,319.862,5.087,,VVV*02
$GPLLK,231457.00,010125,,M,,M,1,17,1.7,,M*0D
$GNGMP,231457.00,,,,,DAAA,17,0.9,,,,*5F
$GPGMP,231457.00,,,,,,04,,,,2.3,123*7E
$GLGMP,231457.00,,,,,,05,,,,,*7C
$GAGMP,231457.00,,,,,,04,,,,,*70
$GBGMP,231457.00,,,,,,04,,,,,*73
$PSSN,SNC,[0,342915000,2347]*4C
$GPZDA,231502.00,01,01,2025,,*64
$GPDTM,W84,,00.0000000,N,00.0000000,E,00.0000000,W84*5F
$GPRMC,231502.00,A,4742.4459834,N,01617.9735083,E,0.0,,010125,5.1,E,D*1E
$GPGLL,4742.4459834,N,01617.9735083,E,231502.00,A,D*6F
$GPGGA,231502.00,4742.4459834,N,01617.9735083,E,2,17,0.8,624.2486,M,43.2111,M,2.3,0123*41
$GNGNS,231502.00,4742.4459834,N,01617.9735083,E,DAAA,17,0.8,624.2486,43.2111,,*5C
$GPGNS,231502.00,,,,,,04,,,,2.3,123*7F
$GLGNS,231502.00,,,,,,04,,,,,*7C
$GAGNS,231502.00,,,,,,04,,,,,*71
$GBGNS,231502.00,,,,,,05,,,,,*73
$GPLLQ,231502.00,010125,,M,,M,1,17,4.439,,M*1A
$GPVTG,,T,,M,0.01,N,0.01,K,D*26
$GPHDT,,T*1B
$GPTHS,,V*0E
$GPROT,,V*08
$PSSN,HRP,231502.00,010125,,,,,,,00,0,,*66
$PTNL,AVR,231502.00,,Yaw,,Tilt,,,,0,,00*30
$GPGSA,A,3,02,08,21,32,,,,,,,,,1.3,0.8,1.0*31
$GPGSA,A,3,69,76,85,86,,,,,,,,,1.3,0.8,1.0*34
$GPGSA,A,3,07,26,31,33,,,,,,,,,1.3,0.8,1.0*38
$GPGSA,A,3,27,28,30,33,41,,,,,,,,1.3,0.8,1.0*30
$GPGST,231502.00,6.000,1.730,1.064,319.445,1.485,1.385,3.947*50
$GPGBS,231502.00,5.061,5.791,16.425,31,0.0001,17.241,6.178*5E
$GPGRS,231502.00,1,0.9,-1.4,-0.0,0.4,,,,,,,,*41
$GPGRS,231502.00,1,0.3,-6.9,2.1,-0.6,,,,,,,,*40
$GPGRS,231502.00,1,1.2,-0.8,17.2,0.4,,,,,,,,*5F
$GPGRS,231502.00,1,-1.4,0.6,-0.1,1.7,-0.0,,,,,,,*4E
$GPGSV,4,1,16,21,86,039,44,22,13,316,,14,15,294,28,10,22,060,34*7E
$GPGSV,4,2,16,27,14,165,24,17,13,320,39,03,32,245,36,08,41,187,42*72
$GPGSV,4,3,16,32,46,071,47,01,62,301,,02,67,305,48,28,04,113,*7C
$GPGSV,4,4,16,36,35,170,42,34,31,208,,49,34,195,37,61,03,257,*75
$GLGSV,2,1,08,69,64,052,47,85,59,327,45,68,15,032,36,84,59,109,34*60
$GLGSV,2,2,08,70,42,200,25,76,10,315,38,77,07,358,21,86,06,312,38*6C
$GAGSV,3,1,12,26,64,088,44,29,34,165,29,08,17,038,23,24,14,319,30*65
$GAGSV,3,2,12,13,13,104,22,31,20,268,36,07,50,090,40,33,59,304,39*68
$GAGSV,3,3,12,23,05,221,,12,07,290,,16,04,341,,14,07,157,*65
$GBGSV,5,1,17,57,77,314,,13,10,064,,33,28,049,43,60,10,109,*63
$GBGSV,5,2,17,28,31,139,36,32,38,211,28,09,13,093,,05,24,128,*67
$GBGSV,5,3,17,39,19,066,24,16,17,077,,06,16,080,,30,47,303,43*60
$GBGSV,5,4,17,27,75,170,47,41,75,096,45,14,04,044,,02,09,105,*69
$GBGSV,5,5,17,08,01,063,*51
$GPGGA,231502.00,,,,,0,00,,,M,,M,,*4F
$PTNL,GGK,231502.00,010125,4742.4459834,N,01617.9735083,E,1,17,1.3,EHT667.4596,M*44
$GPGGQ,231502.00,010125,4742.4459834,N,01617.9735083,E,1,17,4.439,624.2486,M*33
$GPGFA,231502.00,16.444,32.368,1.730,1.064,319.445,3.947,,VVV*0A
$GPLLK,231502.00,010125,,M,,M,1,17,1.5,,M*0E
$GNGMP,231502.00,,,,,DAAA,17,0.8,,,,*5F
$GPGMP,231502.00,,,,,,04,,,,2.3,123*7F
$GLGMP,231502.00,,,,,,04,,,,,*7C
$GAGMP,231502.00,,,,,,04,,,,,*71
$GBGMP,231502.00,,,,,,05,,,,,*73
$PSSN,SNC,[0,342920000,2347]*4A
$GPZDA,231507.00,01,01,2025,,*61
$GPDTM,W84,,00.0000000,N,00.0000000,E,00.0000000,W84*5F
$GPRMC,231507.00,A,4742.4459640,N,01617.9735198,E,0.0,,010125,5.1,E,D*1D
$GPGLL,4742.4459640,N,01617.9735198,E,231507.00,A,D*6C
$GPGGA,231507.00,4742.4459640,N,01617.9735198,E,2,16,0.9,624.2602,M,43.2111,M,2.2,0123*4D
$GNGNS,231507.00,4742.4459640,N,01617.9735198,E,DAAA,16,0.9,624.2602,43.2111,,*51
$GPGNS,231507.00,,,,,,05,,,,2.2,123*7A
$GLGNS,231507.00,,,,,,03,,,,,*7E
$GAGNS,231507.00,,,,,,03,,,,,*73
$GBGNS,231507.00,,,,,,05,,,,,*76
$GPLLQ,231507.00,010125,,M,,M,1,16,1.722,,M*12
$GPVTG,,T,,M,0.00,N,0.00,K,D*26
$GPHDT,,T*1B
$GPTHS,,V*0E
$GPROT,,V*08
$PSSN,HRP,231507.00,010125,,,,,,,00,0,,*63
$PTNL,AVR,231507.00,,Yaw,,Tilt,,,,0,,00*35
$GPGSA,A,3,02,08,17,21,32,,,,,,,,1.4,0.9,1.0*31
$GPGSA,A,3,69,85,86,,,,,,,,,,1.4,0.9,1.0*33
$GPGSA,A,3,07,26,33,,,,,,,,,,1.4,0.9,1.0*3C
$GPGSA,A,3,27,28,30,33,41,,,,,,,,1.4,0.9,1.0*36
$GPGST,231507.00,1.492,0.806,0.700,67.976,0.716,0.792,1.351*61
$GPGBS,231507.00,5.252,5.380,6.829,17,0.0001,1.746,1.002*56
$GPGRS,231507.00,1,0.5,-1.2,1.7,-0.2,-0.1,,,,,,,*4C
$GPGRS,231507.00,1,-0.7,-0.2,-1.7,,,,,,,,,*4C
$GPGRS,231507.00,1,1.3,-0.7,0.2,,,,,,,,,*48
$GPGRS,231507.00,1,-1.6,2.4,0.0,1.2,-0.3,,,,,,,*63
$GPGSV,4,1,16,21,86,039,44,22,13,315,,14,15,294,32,10,22,060,32*70
$GPGSV,4,2,16,27,14,165,23,17,13,320,40,03,32,245,37,08,41,187,43*7B
$GPGSV,4,3,16,32,46,071,48,01,62,301,,02,67,305,48,28,04,113,*73
$GPGSV,4,4,16,36,35,170,41,34,31,208,,49,34,195,37,61,03,257,*76
$GLGSV,2,1,08,69,64,052,47,85,59,327,44,68,15,032,33,84,59,109,33*63
$GLGSV,2,2,08,70,42,200,23,76,10,315,35,77,07,358,,86,06,312,38*64
$GAGSV,3,1,12,26,64,088,43,29,34,165,30,08,17,038,34,24,14,319,34*68
$GAGSV,3,2,12,13,13,104,21,31,20,268,34,07,50,090,40,33,59,304,37*67
$GAGSV,3,3,12,23,05,221,,12,07,290,,16,04,341,,14,07,157,*65
$GBGSV,5,1,17,57,77,314,,13,10,064,,33,28,049,43,60,10,109,*63
$GBGSV,5,2,17,28,30,139,38,32,38,211,36,09,13,093,,05,24,128,*67
$GBGSV,5,3,17,39,20,066,24,16,17,077,,06,16,080,,30,47,303,45*6C
$GBGSV,5,4,17,27,75,170,48,41,75,096,46,14,04,044,,02,09,105,*65
$GBGSV,5,5,17,08,01,063,*51
$GPGGA,231507.00,,,,,0,00,,,M,,M,,*4A
$PTNL,GGK,231507.00,010125,4742.4459640,N,01617.9735198,E,1,16,1.4,EHT667.4713,M*4E
$GPGGQ,231507.00,010125,4742.4459640,N,01617.9735198,E,1,16,1.722,624.2602,M*33
$GPGFA,231507.00,7.659,11.076,0.806,0.700,67.976,1.351,,VVV*0B
$GPLLK,231507.00,010125,,M,,M,1,16,1.6,,M*09
$GNGMP,231507.00,,,,,DAAA,16,0.9,,,,*5A
$GPGMP,231507.00,,,,,,05,,,,2.2,123*7A
$GLGMP,231507.00,,,,,,03,,,,,*7E
$GAGMP,231507.00,,,,,,03,,,,,*73
$GBGMP,231507.00,,,,,,05,,,,,*76
$PSSN,SNC,[0,342925000,2347]*4F
$GPZDA,231512.00,01,01,2025,,*65
$GPDTM,W84,,00.0000000,N,00.0000000,E,00.0000000,W84*5F
$GPRMC,231512.00,A,4742.4459501,N,01617.9735260,E,0.0,,010125,5.1,E,D*1B
$GPGLL,4742.4459501,N,01617.9735260,E,231512.00,A,D*6A
$GPGGA,231512.00,4742.4459501,N,01617.9735260,E,2,17,0.8,624.2705,M,43.2110,M,3.2,0123*4D
$GNGNS,231512.00,4742.4459501,N,01617.9735260,E,DAAA,17,0.8,624.2705,43.2110,,*50
$GPGNS,231512.00,,,,,,05,,,,3.2,123*7F
$GLGNS,231512.00,,,,,,03,,,,,*7A
$GAGNS,231512.00,,,,,,03,,,,,*77
$GBGNS,231512.00,,,,,,06,,,,,*71
$GPLLQ,231512.00,010125,,M,,M,1,17,1.598,,M*14
$GPVTG,,T,,M,0.00,N,0.00,K,D*26
$GPHDT,,T*1B
$GPTHS,,V*0E
$GPROT,,V*08
$PSSN,HRP,231512.00,010125,,,,,,,00,0,,*67
$PTNL,AVR,231512.00,,Yaw,,Tilt,,,,0,,00*31
$GPGSA,A,3,02,08,17,21,32,,,,,,,,1.3,0.8,1.0*37
$GPGSA,A,3,69,85,86,,,,,,,,,,1.3,0.8,1.0*35
$GPGSA,A,3,07,26,33,,,,,,,,,,1.3,0.8,1.0*3A
$GPGSA,A,3,27,28,30,32,33,41,,,,,,,1.3,0.8,1.0*31
$GPGST,231512.00,2.597,0.727,0.656,65.124,0.669,0.715,1.262*66
$GPGBS,231512.00,5.338,5.462,6.882,17,0.0001,2.119,1.009*51
$GPGRS,231512.00,1,0.1,-0.7,2.1,-0.4,0.2,,,,,,,*65
$GPGRS,231512.00,1,-0.1,-0.1,-2.0,,,,,,,,,*49
$GPGRS,231512.00,1,1.1,-0.9,-0.3,,,,,,,,,*6C
$GPGRS,231512.00,1,-0.9,7.2,-0.2,0.6,1.4,-0.8,,,,,,*60
$GPGSV,4,1,16,21,86,040,44,22,13,315,,14,15,294,36,10,22,060,29*70
$GPGSV,4,2,16,27,14,165,24,17,13,320,42,03,32,245,34,08,41,187,43*7D
$GPGSV,4,3,16,32,46,071,48,01,62,301,,02,67,305,47,28,04,113,*7C
$GPGSV,4,4,16,36,35,170,41,34,31,208,,49,34,195,37,61,03,257,*76
$GLGSV,2,1,08,69,64,052,49,85,59,327,40,68,15,032,27,84,59,109,32*6D
$GLGSV,2,2,08,70,42,200,,76,10,315,30,77,07,358,,86,06,312,36*6E
$GAGSV,3,1,12,26,64,088,43,29,34,165,32,08,17,038,24,24,14,319,31*6E
$GAGSV,3,2,12,13,13,104,20,31,20,268,34,07,50,090,40,33,59,304,35*64
$GAGSV,3,3,12,23,05,221,,12,07,290,,16,04,341,,14,07,157,*65
$GBGSV,5,1,17,57,77,314,,13,10,064,,33,28,049,43,60,10,109,*63
$GBGSV,5,2,17,28,30,139,39,32,38,211,37,09,13,093,,05,24,128,*67
$GBGSV,5,3,17,39,20,066,27,16,17,077,,06,16,080,,30,47,303,46*6C
$GBGSV,5,4,17,27,75,170,48,41,75,096,46,14,04,044,,02,09,105,*65
$GBGSV,5,5,17,08,01,063,*51
$GPGGA,231512.00,,,,,0,00,,,M,,M,,*4E
$PTNL,GGK,231512.00,010125,4742.4459501,N,01617.9735260,E,1,17,1.3,EHT667.4816,M*44
$GPGGQ,231512.00,010125,4742.4459501,N,01617.9735260,E,1,17,1.598,624.2705,M*31
$GPGFA,231512.00,6.910,10.351,0.727,0.656,65.124,1.262,,VVV*09
$GPLLK,231512.00,010125,,M,,M,1,17,1.5,,M*0F
$GNGMP,231512.00,,,,,DAAA,17,0.8,,,,*5E
$GPGMP,231512.00,,,,,,05,,,,3.2,123*7F
$GLGMP,231512.00,,,,,,03,,,,,*7A
$GAGMP,231512.00,,,,,,03,,,,,*77
$GBGMP,231512.00,,,,,,06,,,,,*71
$PSSN,SNC,[0,342930000,2347]*4B
$GPZDA,231517.00,01,01,2025,,*60
$GPDTM,W84,,00.0000000,N,00.0000000,E,00.0000000,W84*5F
$GPRMC,231517.00,A,4742.4459395,N,01617.9735359,E,0.0,,010125,5.1,E,D*1E
$GPGLL,4742.4459395,N,01617.9735359,E,231517.00,A,D*6F
$GPGGA,231517.00,4742.4459395,N,01617.9735359,E,2,17,0.8,624.2915,M,43.2110,M,2.3,0123*47
$GNGNS,231517.00,4742.4459395,N,01617.9735359,E,DAAA,17,0.8,624.2915,43.2110,,*5A
$GPGNS,231517.00,,,,,,06,,,,2.3,123*79
$GLGNS,231517.00,,,,,,03,,,,,*7F
$GAGNS,231517.00,,,,,,02,,,,,*73
$GBGNS,231517.00,,,,,,06,,,,,*74
$GPLLQ,231517.00,010125,,M,,M,1,17,2.201,,M*15
$GPVTG,,T,,M,0.00,N,0.01,K,D*27
$GPHDT,,T*1B
$GPTHS,,V*0E
$GPROT,,V*08
$PSSN,HRP,231517.00,010125,,,,,,,00,0,,*62
$PTNL,AVR,231517.00,,Yaw,,Tilt,,,,0,,00*34
$GPGSA,A,3,02,08,14,17,21,32,,,,,,,1.3,0.8,1.0*32
$GPGSA,A,3,69,85,86,,,,,,,,,,1.3,0.8,1.0*35
$GPGSA,A,3,07,26,,,,,,,,,,,1.3,0.8,1.0*3A
$GPGSA,A,3,27,28,30,32,33,41,,,,,,,1.3,0.8,1.0*31
$GPGST,231517.00,6.552,1.044,0.920,49.767,0.974,0.994,1.705*6C
$GPGBS,231517.00,5.133,5.181,5.899,17,0.0001,2.591,1.023*50
$GPGRS,231517.00,1,-0.0,-0.3,-1.3,2.6,-0.7,0.1,,,,,,*4E
$GPGRS,231517.00,1,0.6,1.8,-2.0,,,,,,,,,*43
$GPGRS,231517.00,1,0.2,-0.9,,,,,,,,,,*6B
$GPGRS,231517.00,1,-0.7,9.9,-0.7,17.7,0.7,-0.3,,,,,,*55
$GPGSV,4,1,16,21,86,040,43,22,13,315,,14,15,294,36,27,13,165,22*7E
$GPGSV,4,2,16,10,22,060,28,17,13,320,41,03,32,245,31,08,41,187,42*73
$GPGSV,4,3,16,32,46,071,48,01,62,301,,02,67,305,46,28,04,113,*7D
$GPGSV,4,4,16,36,35,170,41,34,31,208,,49,34,195,35,61,03,257,*74
$GLGSV,2,1,08,69,64,052,49,85,59,327,40,68,15,032,24,84,59,110,30*64
$GLGSV,2,2,08,70,43,200,27,76,10,315,30,77,07,358,,86,06,312,35*69
$GAGSV,3,1,12,26,64,088,43,29,34,165,33,08,17,038,26,24,14,319,31*6D
$GAGSV,3,2,12,13,13,104,,31,19,268,32,07,50,090,39,33,59,304,33*62
$GAGSV,3,3,12,23,05,221,,12,07,290,,16,04,341,,14,07,157,*65
$GBGSV,5,1,17,57,77,314,,13,10,064,,33,28,049,42,60,10,109,*62
$GBGSV,5,2,17,28,30,139,39,32,38,211,40,09,13,093,,05,24,128,*67
$GBGSV,5,3,17,39,20,066,27,16,17,077,,06,16,080,,30,47,303,46*6C
$GBGSV,5,4,17,27,75,170,49,41,75,095,45,14,04,044,,02,09,105,*64
$GBGSV,5,5,17,08,01,063,*51
$GPGGA,231517.00,,,,,0,00,,,M,,M,,*4B
$PTNL,GGK,231517.00,010125,4742.4459395,N,01617.9735359,E,1,17,1.3,EHT667.5026,M*4B
$GPGGQ,231517.00,010125,4742.4459395,N,01617.9735359,E,1,17,2.201,624.2915,M*3F
$GPGFA,231517.00,9.929,13.984,1.044,0.920,49.767,1.705,,VVV*0E
$GPLLK,231517.00,010125,,M,,M,1,17,1.5,,M*0A
$GNGMP,231517.00,,,,,DAAA,17,0.8,,,,*5B
$GPGMP,231517.00,,,,,,06,,,,2.3,123*79
$GLGMP,231517.00,,,,,,03,,,,,*7F
$GAGMP,231517.00,,,,,,02,,,,,*73
$GBGMP,231517.00,,,,,,06,,,,,*74
$PSSN,SNC,[0,342935000,2347]*4E
$GPZDA,231522.00,01,01,2025,,*66
$GPDTM,W84,,00.0000000,N,00.0000000,E,00.0000000,W84*5F
$GPRMC,231522.00,A,4742.4459243,N,01617.9735439,E,0.0,,010125,5.1,E,D*13
$GPGLL,4742.4459243,N,01617.9735439,E,231522.00,A,D*62
$GPGGA,231522.00,4742.4459243,N,01617.9735439,E,2,18,0.8,624.3155,M,43.2110,M,2.0,0123*4B
$GNGNS,231522.00,4742.4459243,N,01617.9735439,E,DAAA,18,0.8,624.3155,43.2110,,*55
$GPGNS,231522.00,,,,,,06,,,,2.0,123*7C
$GLGNS,231522.00,,,,,,03,,,,,*79
$GAGNS,231522.00,,,,,,03,,,,,*74
$GBGNS,231522.00,,,,,,06,,,,,*72
$GPLLQ,231522.00,010125,,M,,M,1,18,1.602,,M*18
$GPVTG,,T,,M,0.01,N,0.02,K,D*25
$GPHDT,,T*1B
$GPTHS,,V*0E
$GPROT,,V*08
$PSSN,HRP,231522.00,010125,,,,,,,00,0,,*64
$PTNL,AVR,231522.00,,Yaw,,Tilt,,,,0,,00*32
$GPGSA,A,3,02,08,14,17,21,32,,,,,,,1.3,0.8,1.0*32
$GPGSA,A,3,69,85,86,,,,,,,,,,1.3,0.8,1.0*35
$GPGSA,A,3,07,26,31,,,,,,,,,,1.3,0.8,1.0*38
$GPGSA,A,3,27,28,30,32,33,41,,,,,,,1.3,0.8,1.0*31
$GPGST,231522.00,2.998,0.767,0.667,53.889,0.703,0.734,1.238*6A
$GPGBS,231522.00,5.185,5.229,5.583,17,0.0001,2.010,0.990*50
$GPGRS,231522.00,1,0.2,-0.5,0.6,2.0,-0.7,-0.1,,,,,,*63
$GPGRS,231522.00,1,0.2,5.5,-2.2,,,,,,,,,*4A
$GPGRS,231522.00,1,0.0,-0.9,-5.7,,,,,,,,,*6E
$GPGRS,231522.00,1,-0.8,4.6,-1.3,0.2,-0.5,-0.4,,,,,,*40
$GPGSV,4,1,16,21,86,041,43,22,13,315,,14,15,294,36,27,13,165,22*7F
$GPGSV,4,2,16,10,22,060,25,17,13,320,41,03,32,245,18,08,41,187,42*75
$GPGSV,4,3,16,32,46,071,48,01,62,301,,02,67,305,47,28,04,113,*7C
$GPGSV,4,4,16,36,35,170,41,34,31,208,,49,34,195,36,61,03,257,*77
$GLGSV,2,1,08,69,64,052,49,85,59,327,44,68,15,032,25,84,59,110,31*60
$GLGSV,2,2,08,70,43,200,,76,10,315,28,77,07,358,21,86,06,312,36*65
$GAGSV,3,1,12,26,64,088,43,29,34,165,34,08,17,038,27,24,14,318,33*68
$GAGSV,3,2,12,13,13,104,,31,19,268,34,07,50,090,40,33,59,304,33*6A
$GAGSV,3,3,12,23,05,220,,12,07,290,,16,04,341,,14,07,157,*64
$GBGSV,5,1,17,57,77,314,,13,10,064,,33,28,049,41,60,10,109,*61
$GBGSV,5,2,17,28,30,139,29,39,20,066,27,32,39,211,38,05,24,128,*64
$GBGSV,5,3,17,09,13,093,,06,16,080,,16,17,077,,30,47,303,47*61
$GBGSV,5,4,17,27,75,170,49,41,75,095,44,14,04,044,,02,09,105,*65
$GBGSV,5,5,17,08,01,063,*51
$GPGGA,231522.00,,,,,0,00,,,M,,M,,*4D
$PTNL,GGK,231522.00,010125,4742.4459243,N,01617.9735439,E,1,18,1.3,EHT667.5266,M*4F
$GPGGQ,231522.00,010125,4742.4459243,N,01617.9735439,E,1,18,1.602,624.3155,M*34
$GPGFA,231522.00,7.292,10.154,0.767,0.667,53.889,1.238,,VVV*0F
$GPLLK,231522.00,010125,,M,,M,1,18,1.5,,M*03
$GNGMP,231522.00,,,,,DAAA,18,0.8,,,,*52
$GPGMP,231522.00,,,,,,06,,,,2.0,123*7C
$GLGMP,231522.00,,,,,,03,,,,,*79
$GAGMP,231522.00,,,,,,03,,,,,*74
$GBGMP,231522.00,,,,,,06,,,,,*72
$PSSN,SNC,[0,342940000,2347]*4C
$GPZDA,231527.00,01,01,2025,,*63
$GPDTM,W84,,00.0000000,N,00.0000000,E,00.0000000,W84*5F
$GPRMC,231527.00,A,4742.4459140,N,01617.9735543,E,0.0,,010125,5.1,E,D*1A
$GPGLL,4742.4459140,N,01617.9735543,E,231527.00,A,D*6B
$GPGGA,231527.00,4742.4459140,N,01617.9735543,E,2,17,0.8,624.3283,M,43.2110,M,2.3,0123*46
$GNGNS,231527.00,4742.4459140,N,01617.9735543,E,DAAA,17,0.8,624.3283,43.2110,,*5B
$GPGNS,231527.00,,,,,,06,,,,2.3,123*7A
$GLGNS,231527.00,,,,,,03,,,,,*7C
$GAGNS,231527.00,,,,,,02,,,,,*70
$GBGNS,231527.00,,,,,,06,,,,,*77
$GPLLQ,231527.00,010125,,M,,M,1,17,1.263,,M*11
$GPVTG,,T,,M,0.00,N,0.01,K,D*27
$GPHDT,,T*1B
$GPTHS,,V*0E
$GPROT,,V*08
$PSSN,HRP,231527.00,010125,,,,,,,00,0,,*61
$PTNL,AVR,231527.00,,Yaw,,Tilt,,,,0,,00*37
$GPGSA,A,3,02,08,14,17,21,32,,,,,,,1.3,0.8,1.0*32
$GPGSA,A,3,69,85,86,,,,,,,,,,1.3,0.8,1.0*35
$GPGSA,A,3,07,26,,,,,,,,,,,1.3,0.8,1.0*3A
$GPGSA,A,3,27,28,30,32,33,41,,,,,,,1.3,0.8,1.0*31
$GPGST,231527.00,2.344,0.605,0.531,51.755,0.560,0.578,0.973*65
$GPGBS,231527.00,5.285,5.068,5.635,08,0.0001,-1.020,0.724*7D
$GPGRS,231527.00,1,0.4,-1.0,1.1,-0.2,-0.2,-0.1,,,,,,*4A
$GPGRS,231527.00,1,-0.2,5.2,-0.4,,,,,,,,,*61
$GPGRS,231527.00,1,0.4,-0.8,,,,,,,,,,*6F
$GPGRS,231527.00,1,-1.2,-2.6,-1.7,-3.5,-1.0,0.4,,,,,,*61
$GPGSV,4,1,16,21,86,041,43,22,13,315,,14,14,294,36,27,13,165,24*78
$GPGSV,4,2,16,10,22,060,26,17,13,320,39,03,32,245,,08,41,187,43*71
$GPGSV,4,3,16,32,46,071,48,01,62,301,,02,67,305,47,28,04,113,*7C
$GPGSV,4,4,16,36,35,170,41,34,31,208,,49,34,195,37,61,03,257,*76
$GLGSV,2,1,08,69,64,052,48,85,59,327,47,68,15,032,27,84,59,110,32*63
$GLGSV,2,2,08,70,43,200,30,76,10,315,28,77,07,358,,86,06,312,36*65
$GAGSV,3,1,12,26,64,088,44,29,34,165,35,08,17,038,25,24,14,318,33*6C
$GAGSV,3,2,12,13,13,104,,31,19,268,30,07,50,089,41,33,59,304,35*61
$GAGSV,3,3,12,23,05,220,,12,07,290,,16,04,341,,14,07,157,*64
$GBGSV,5,1,17,57,77,314,,33,28,049,40,60,10,109,,39,20,066,28*63
$GBGSV,5,2,17,28,30,139,38,32,39,211,38,09,13,093,,05,24,128,*68
$GBGSV,5,3,17,16,17,077,,06,16,080,,30,47,303,47,27,75,170,50*64
$GBGSV,5,4,17,41,75,095,45,08,01,063,,13,10,064,,02,09,105,*64
$GBGSV,5,5,17,14,04,044,*5C
$GPGGA,231527.00,,,,,0,00,,,M,,M,,*48
$PTNL,GGK,231527.00,010125,4742.4459140,N,01617.9735543,E,1,17,1.3,EHT667.5393,M*42
$GPGGQ,231527.00,010125,4742.4459140,N,01617.9735543,E,1,17,1.263,624.3283,M*39
$GPGFA,231527.00,5.755,7.976,0.605,0.531,51.755,0.973,,VVV*34
$GPLLK,231527.00,010125,,M,,M,1,17,1.5,,M*09
$GNGMP,231527.00,,,,,DAAA,17,0.8,,,,*58
$GPGMP,231527.00,,,,,,06,,,,2.3,123*7A
$GLGMP,231527.00,,,,,,03,,,,,*7C
$GAGMP,231527.00,,,,,,02,,,,,*70
$GBGMP,231527.00,,,,,,06,,,,,*77
$PSSN,SNC,[0,342945000,2347]*49
$GPZDA,231532.00,01,01,2025,,*67
$GPDTM,W84,,00.0000000,N,00.0000000,E,00.0000000,W84*5F
$GPRMC,231532.00,A,4742.4459091,N,01617.9735580,E,0.0,,010125,5.1,E,D*1C
$GPGLL,4742.4459091,N,01617.9735580,E,231532.00,A,D*6D
$GPGGA,231532.00,4742.4459091,N,01617.9735580,E,2,16,0.8,624.3271,M,43.2110,M,3.3,0123*4D
$GNGNS,231532.00,4742.4459091,N,01617.9735580,E,DAAA,16,0.8,624.3271,43.2110,,*51
$GPGNS,231532.00,,,,,,06,,,,3.3,123*7F
$GLGNS,231532.00,,,,,,02,,,,,*79
$GAGNS,231532.00,,,,,,02,,,,,*74
$GBGNS,231532.00,,,,,,06,,,,,*73
$GPLLQ,231532.00,010125,,M,,M,1,16,1.786,,M*1A
$GPVTG,,T,,M,0.00,N,0.00,K,D*26
$GPHDT,,T*1B
$GPTHS,,V*0E
$GPROT,,V*08
$PSSN,HRP,231532.00,010125,,,,,,,00,0,,*65
$PTNL,AVR,231532.00,,Yaw,,Tilt,,,,0,,00*33
$GPGSA,A,3,02,08,14,17,21,32,,,,,,,1.4,0.8,1.1*34
$GPGSA,A,3,69,85,,,,,,,,,,,1.4,0.8,1.1*3D
$GPGSA,A,3,07,26,,,,,,,,,,,1.4,0.8,1.1*3C
$GPGSA,A,3,27,28,30,32,33,41,,,,,,,1.4,0.8,1.1*37
$GPGST,231532.00,2.582,0.838,0.750,43.911,0.797,0.794,1.387*6F
$GPGBS,231532.00,5.390,5.162,5.824,14,0.0001,2.436,0.997*5F
$GPGRS,231532.00,1,-0.3,-0.2,2.4,-1.6,-0.0,0.4,,,,,,*4E
$GPGRS,231532.00,1,-0.2,5.0,,,,,,,,,,*60
$GPGRS,231532.00,1,0.4,-0.7,,,,,,,,,,*64
$GPGRS,231532.00,1,-1.4,-2.3,-1.4,-3.1,-2.2,1.3,,,,,,*66
$GPGSV,4,1,16,21,86,042,43,22,13,315,,14,14,294,37,27,13,165,27*79
$GPGSV,4,2,16,10,22,060,26,17,13,320,38,03,32,245,22,08,40,187,43*71
$GPGSV,4,3,16,32,46,071,47,01,62,301,,02,67,305,46,28,04,113,*72
$GPGSV,4,4,16,36,35,170,41,34,31,208,,49,34,195,37,61,03,257,*76
$GLGSV,2,1,08,69,64,052,48,85,59,327,49,68,15,032,30,84,59,110,33*6A
$GLGSV,2,2,08,70,43,200,29,76,10,315,29,77,08,358,,86,06,312,35*60
$GAGSV,3,1,12,26,64,088,45,29,34,165,35,08,17,038,22,24,14,318,33*6A
$GAGSV,3,2,12,13,13,104,,31,19,267,32,07,50,089,42,33,59,304,34*6E
$GAGSV,3,3,12,23,05,220,,12,07,290,,16,04,341,,14,07,157,*64
$GBGSV,5,1,17,57,77,314,,33,28,049,38,60,10,109,,39,20,066,31*64
$GBGSV,5,2,17,28,30,139,37,32,39,211,37,09,13,093,,05,24,128,*68
$GBGSV,5,3,17,16,17,077,,06,16,080,,30,47,303,48,27,75,170,50*6B
$GBGSV,5,4,17,41,75,095,46,08,01,063,,13,10,064,,02,09,105,*67
$GBGSV,5,5,17,14,04,044,*5C
$GPGGA,231532.00,,,,,0,00,,,M,,M,,*4C
$PTNL,GGK,231532.00,010125,4742.4459091,N,01617.9735580,E,1,16,1.4,EHT667.5382,M*42
$GPGGQ,231532.00,010125,4742.4459091,N,01617.9735580,E,1,16,1.786,624.3271,M*3D
$GPGFA,231532.00,7.971,11.376,0.838,0.750,43.911,1.387,,VVV*0F
$GPLLK,231532.00,010125,,M,,M,1,16,1.6,,M*0F
$GNGMP,231532.00,,,,,DAAA,16,0.8,,,,*5D
$GPGMP,231532.00,,,,,,06,,,,3.3,123*7F
$GLGMP,231532.00,,,,,,02,,,,,*79
$GAGMP,231532.00,,,,,,02,,,,,*74
$GBGMP,231532.00,,,,,,06,,,,,*73
$PSSN,SNC,[0,342950000,2347]*4D
$GPZDA,231537.00,01,01,2025,,*62
$GPDTM,W84,,00.0000000,N,00.0000000,E,00.0000000,W84*5F
$GPRMC,231537.00,A,4742.4459082,N,01617.9735593,E,0.0,,010125,5.1,E,D*19
$GPGLL,4742.4459082,N,01617.9735593,E,231537.00,A,D*68
$GPGGA,231537.00,4742.4459082,N,01617.9735593,E,2,16,0.8,624.3405,M,43.2110,M,2.3,0123*4C
$GNGNS,231537.00,4742.4459082,N,01617.9735593,E,DAAA,16,0.8,624.3405,43.2110,,*51
$GPGNS,231537.00,,,,,,06,,,,2.3,123*7B
$GLGNS,231537.00,,,,,,02,,,,,*7C
$GAGNS,231537.00,,,,,,02,,,,,*71
$GBGNS,231537.00,,,,,,06,,,,,*76
$GPLLQ,231537.00,010125,,M,,M,1,16,2.180,,M*1C
$GPVTG,,T,,M,0.01,N,0.02,K,D*25
$GPHDT,,T*1B
$GPTHS,,V*0E
$GPROT,,V*08
$PSSN,HRP,231537.00,010125,,,,,,,00,0,,*60
$PTNL,AVR,231537.00,,Yaw,,Tilt,,,,0,,00*36
$GPGSA,A,3,02,08,14,17,21,32,,,,,,,1.4,0.8,1.1*34
$GPGSA,A,3,69,85,,,,,,,,,,,1.4,0.8,1.1*3D
$GPGSA,A,3,07,26,,,,,,,,,,,1.4,0.8,1.1*3C
$GPGSA,A,3,27,28,30,32,33,41,,,,,,,1.4,0.8,1.1*37
$GPGST,231537.00,3.042,1.029,0.910,49.527,0.962,0.981,1.692*6D
$GPGBS,231537.00,5.117,5.182,5.946,14,0.0001,2.802,0.960*5F
$GPGRS,231537.00,1,-0.7,-0.6,2.8,-1.8,0.3,0.7,,,,,,*64
$GPGRS,231537.00,1,0.0,5.9,,,,,,,,,,*43
$GPGRS,231537.00,1,0.3,-1.3,,,,,,,,,,*63
$GPGRS,231537.00,1,-1.9,0.5,-1.1,-2.3,-4.8,0.9,,,,,,*46
$GPGSV,4,1,16,21,86,043,43,22,13,315,,14,14,294,38,27,13,165,27*77
$GPGSV,4,2,16,10,22,060,28,17,13,320,36,03,32,245,26,08,40,187,44*72
$GPGSV,4,3,16,32,46,071,47,01,62,301,,02,67,305,45,28,04,113,*71
$GPGSV,4,4,16,36,35,170,41,34,31,208,,49,34,195,36,61,03,257,*77
$GLGSV,2,1,08,69,64,052,47,85,59,327,49,68,15,032,31,84,58,110,34*62
$GLGSV,2,2,08,70,43,200,26,76,09,315,33,77,08,358,,86,06,312,35*6C
$GAGSV,3,1,12,26,64,089,45,29,34,165,35,08,17,038,34,24,14,318,32*6D
$GAGSV,3,2,12,13,12,104,,31,19,267,32,07,50,089,41,33,59,304,34*6C
$GAGSV,3,3,12,23,05,220,,12,07,290,,16,04,341,,14,07,157,*64
$GBGSV,5,1,17,57,77,315,,33,28,049,36,60,10,109,,39,20,066,32*68
$GBGSV,5,2,17,28,30,139,37,32,39,211,36,09,13,093,,05,24,128,*69
$GBGSV,5,3,17,16,17,077,,06,16,080,,30,47,303,48,27,75,170,50*6B
$GBGSV,5,4,17,41,75,095,47,08,01,063,,13,10,064,,02,09,105,*66
$GBGSV,5,5,17,14,04,044,*5C
$GPGGA,231537.00,,,,,0,00,,,M,,M,,*49
$PTNL,GGK,231537.00,010125,4742.4459082,N,01617.9735593,E,1,16,1.4,EHT667.5515,M*4F
$GPGGQ,231537.00,010125,4742.4459082,N,01617.9735593,E,1,16,2.180,624.3405,M*3E
$GPGFA,231537.00,9.781,13.878,1.029,0.910,49.527,1.692,,VVV*03
$GPLLK,231537.00,010125,,M,,M,1,16,1.6,,M*0A
$GNGMP,231537.00,,,,,DAAA,16,0.8,,,,*58
$GPGMP,231537.00,,,,,,06,,,,2.3,123*7B
$GLGMP,231537.00,,,,,,02,,,,,*7C
$GAGMP,231537.00,,,,,,02,,,,,*71
$GBGMP,231537.00,,,,,,06,,,,,*76
$PSSN,SNC,[0,342955000,2347]*48
$GPZDA,231542.00,01,01,2025,,*60
$GPDTM,W84,,00.0000000,N,00.0000000,E,00.0000000,W84*5F
$GPRMC,231542.00,A,4742.4459053,N,01617.9735586,E,0.0,,010125,5.1,E,D*13
$GPGLL,4742.4459053,N,01617.9735586,E,231542.00,A,D*62
$GPGGA,231542.00,4742.4459053,N,01617.9735586,E,2,16,0.9,624.3449,M,43.2110,M,2.0,0123*4C
$GNGNS,231542.00,4742.4459053,N,01617.9735586,E,DAAA,16,0.9,624.3449,43.2110,,*52
$GPGNS,231542.00,,,,,,06,,,,2.0,123*7A
$GLGNS,231542.00,,,,,,03,,,,,*7F
$GAGNS,231542.00,,,,,,02,,,,,*73
$GBGNS,231542.00,,,,,,05,,,,,*77
$GPLLQ,231542.00,010125,,M,,M,1,16,1.874,,M*1F
$GPVTG,,T,,M,0.01,N,0.01,K,D*26
$GPHDT,,T*1B
$GPTHS,,V*0E
$GPROT,,V*08
$PSSN,HRP,231542.00,010125,,,,,,,00,0,,*62
$PTNL,AVR,231542.00,,Yaw,,Tilt,,,,0,,00*34
$GPGSA,A,3,02,08,14,17,21,32,,,,,,,1.4,0.9,1.0*34
$GPGSA,A,3,69,85,86,,,,,,,,,,1.4,0.9,1.0*33
$GPGSA,A,3,07,26,,,,,,,,,,,1.4,0.9,1.0*3C
$GPGSA,A,3,27,28,30,33,41,,,,,,,,1.4,0.9,1.0*36
$GPGST,231542.00,2.300,0.901,0.779,54.705,0.822,0.862,1.446*64
$GPGBS,231542.00,5.204,5.319,5.588,17,0.0001,-1.877,0.997*75
$GPGRS,231542.00,1,-0.6,-0.4,1.8,-1.9,0.1,0.9,,,,,,*6B
$GPGRS,231542.00,1,0.1,3.7,0.1,,,,,,,,,*67
$GPGRS,231542.00,1,0.8,-0.6,,,,,,,,,,*6E
$GPGRS,231542.00,1,-2.1,1.4,-1.3,-4.0,0.9,,,,,,,*47
$GPGSV,4,1,16,21,86,043,43,22,13,315,,14,14,294,38,27,13,165,26*76
$GPGSV,4,2,16,10,22,060,31,17,13,320,35,03,32,245,25,08,40,187,43*7D
$GPGSV,4,3,16,32,46,071,47,01,62,301,,02,67,305,44,28,04,113,*70
$GPGSV,4,4,16,36,35,170,41,34,31,208,,49,34,195,36,61,03,257,*77
$GLGSV,2,1,08,69,64,052,47,85,59,327,48,68,15,032,32,84,58,110,34*60
$GLGSV,2,2,08,70,43,200,23,76,09,315,33,77,08,358,,86,06,312,36*6A
$GAGSV,3,1,12,26,64,089,46,29,34,165,35,08,17,038,33,24,14,318,29*63
$GAGSV,3,2,12,13,12,104,,31,19,267,32,07,50,089,42,33,59,304,35*6E
$GAGSV,3,3,12,23,05,220,,12,07,290,,16,04,341,,14,07,157,*64
$GBGSV,5,1,17,57,77,315,,33,28,049,37,60,10,109,,39,20,066,30*6B
$GBGSV,5,2,17,28,30,139,35,32,39,211,35,09,13,093,,05,24,128,*68
$GBGSV,5,3,17,16,17,077,,06,16,080,,30,47,303,47,27,75,170,49*6C
$GBGSV,5,4,17,41,75,095,48,08,01,063,,13,10,064,,02,09,105,*69
$GBGSV,5,5,17,14,04,044,*5C
$GPGGA,231542.00,,,,,0,00,,,M,,M,,*4B
$PTNL,GGK,231542.00,010125,4742.4459053,N,01617.9735586,E,1,16,1.4,EHT667.5559,M*4D
$GPGGQ,231542.00,010125,4742.4459053,N,01617.9735586,E,1,16,1.874,624.3449,M*3D
$GPGFA,231542.00,8.569,11.860,0.901,0.779,54.705,1.446,,VVV*09
$GPLLK,231542.00,010125,,M,,M,1,16,1.6,,M*08
$GNGMP,231542.00,,,,,DAAA,16,0.9,,,,*5B
$GPGMP,231542.00,,,,,,06,,,,2.0,123*7A
$GLGMP,231542.00,,,,,,03,,,,,*7F
$GAGMP,231542.00,,,,,,02,,,,,*73
$GBGMP,231542.00,,,,,,05,,,,,*77
$PSSN,SNC,[0,342960000,2347]*4E
$GPZDA,231547.00,01,01,2025,,*65
$GPDTM,W84,,00.0000000,N,00.0000000,E,00.0000000,W84*5F
$GPRMC,231547.00,A,4742.4458934,N,01617.9735537,E,0.0,,010125,5.1,E,D*15
$GPGLL,4742.4458934,N,01617.9735537,E,231547.00,A,D*64
$GPGGA,231547.00,4742.4458934,N,01617.9735537,E,2,16,0.8,624.3575,M,43.2110,M,2.5,0123*40
$GNGNS,231547.00,4742.4458934,N,01617.9735537,E,DAAA,16,0.8,624.3575,43.2110,,*5B
$GPGNS,231547.00,,,,,,06,,,,2.5,123*7A
$GLGNS,231547.00,,,,,,03,,,,,*7A
$GAGNS,231547.00,,,,,,03,,,,,*77
$GBGNS,231547.00,,,,,,04,,,,,*73
$GPLLQ,231547.00,010125,,M,,M,1,16,2.507,,M*10
$GPVTG,,T,,M,0.01,N,0.01,K,D*26
$GPHDT,,T*1B
$GPTHS,,V*0E
$GPROT,,V*08
$PSSN,HRP,231547.00,010125,,,,,,,00,0,,*67
$PTNL,AVR,231547.00,,Yaw,,Tilt,,,,0,,00*31
$GPGSA,A,3,02,08,10,14,21,32,,,,,,,1.3,0.8,1.0*35
$GPGSA,A,3,69,85,86,,,,,,,,,,1.3,0.8,1.0*35
$GPGSA,A,3,07,26,29,,,,,,,,,,1.3,0.8,1.0*31
$GPGSA,A,3,27,30,33,41,,,,,,,,,1.3,0.8,1.0*3A
$GPGST,231547.00,2.378,1.147,1.030,3.425,1.146,1.030,1.977*56
$GPGBS,231547.00,5.650,3.471,5.917,10,0.0001,4.468,1.506*58
$GPGRS,231547.00,1,-0.5,-2.1,4.5,1.5,0.3,1.0,,,,,,*49
$GPGRS,231547.00,1,-0.7,1.5,3.1,,,,,,,,,*4A
$GPGRS,231547.00,1,0.5,-0.1,0.6,,,,,,,,,*49
$GPGRS,231547.00,1,-2.0,-1.6,-1.6,0.6,,,,,,,,*61
$GPGSV,4,1,16,21,86,044,44,22,13,315,,14,14,294,38,27,13,165,26*76
$GPGSV,4,2,16,10,21,060,34,17,13,320,34,03,32,245,26,08,40,187,41*7B
$GPGSV,4,3,16,32,46,071,47,01,62,301,,02,68,305,44,28,04,113,*7F
$GPGSV,4,4,16,36,35,170,41,34,31,208,,49,34,195,37,61,03,257,*76
$GLGSV,2,1,08,69,64,051,45,85,59,327,47,68,15,032,31,84,58,110,34*6D
$GLGSV,2,2,08,70,43,200,25,76,09,315,31,77,08,358,,86,06,312,38*60
$GAGSV,3,1,12,26,64,089,46,29,34,165,35,08,17,038,33,24,14,318,29*63
$GAGSV,3,2,12,13,12,104,,31,19,267,32,07,50,089,41,33,59,304,34*6C
$GAGSV,3,3,12,23,05,220,,12,07,290,,16,04,341,,14,07,157,*64
$GBGSV,5,1,17,57,77,315,,33,28,049,38,60,10,109,,39,20,066,29*6C
$GBGSV,5,2,17,28,30,139,33,32,39,211,34,09,13,093,,05,24,128,*6F
$GBGSV,5,3,17,16,17,077,,06,16,080,,30,47,303,47,27,75,170,48*6D
$GBGSV,5,4,17,41,75,095,48,08,01,063,,13,10,065,,02,09,105,*68
$GBGSV,5,5,17,14,04,044,*5C
$GPGGA,231547.00,,,,,0,00,,,M,,M,,*4E
$PTNL,GGK,231547.00,010125,4742.4458934,N,01617.9735537,E,1,16,1.3,EHT667.5686,M*4D
$GPGGQ,231547.00,010125,4742.4458934,N,01617.9735537,E,1,16,2.507,624.3575,M*3F
$GPGFA,231547.00,10.903,16.210,1.147,1.030,3.425,1.977,,VVV*03
$GPLLK,231547.00,010125,,M,,M,1,16,1.5,,M*0E
$GNGMP,231547.00,,,,,DAAA,16,0.8,,,,*5F
$GPGMP,231547.00,,,,,,06,,,,2.5,123*7A
$GLGMP,231547.00,,,,,,03,,,,,*7A
$GAGMP,231547.00,,,,,,03,,,,,*77
$GBGMP,231547.00,,,,,,04,,,,,*73
$PSSN,SNC,[0,342965000,2347]*4B
$GPZDA,231552.00,01,01,2025,,*61
$GPDTM,W84,,00.0000000,N,00.0000000,E,00.0000000,W84*5F
$GPRMC,231552.00,A,4742.4458752,N,01617.9735521,E,0.0,,010125,5.1,E,D*18
$GPGLL,4742.4458752,N,01617.9735521,E,231552.00,A,D*69
$GPGGA,231552.00,4742.4458752,N,01617.9735521,E,2,15,0.9,624.3601,M,43.2110,M,3.4,0123*4F
$GNGNS,231552.00,4742.4458752,N,01617.9735521,E,DAAA,15,0.9,624.3601,43.2110,,*54
$GPGNS,231552.00,,,,,,05,,,,3.4,123*7D
$GLGNS,231552.00,,,,,,03,,,,,*7E
$GAGNS,231552.00,,,,,,03,,,,,*73
$GBGNS,231552.00,,,,,,04,,,,,*77
$GPLLQ,231552.00,010125,,M,,M,1,15,2.777,,M*12
$GPVTG,,T,,M,0.01,N,0.02,K,D*25
$GPHDT,,T*1B
$GPTHS,,V*0E
$GPROT,,V*08
$PSSN,HRP,231552.00,010125,,,,,,,00,0,,*63
$PTNL,AVR,231552.00,,Yaw,,Tilt,,,,0,,00*35
$GPGSA,A,3,02,08,14,21,32,,,,,,,,1.4,0.9,1.1*33
$GPGSA,A,3,69,85,86,,,,,,,,,,1.4,0.9,1.1*32
$GPGSA,A,3,07,26,29,,,,,,,,,,1.4,0.9,1.1*36
$GPGSA,A,3,27,30,33,41,,,,,,,,,1.4,0.9,1.1*3D
$GPGST,231552.00,2.978,1.250,1.114,10.579,1.246,1.118,2.216*67
$GPGBS,231552.00,5.869,5.073,7.011,08,0.0001,-2.275,0.747*7B
$GPGRS,231552.00,1,-0.2,-2.3,2.5,0.1,1.0,,,,,,,*66
$GPGRS,231552.00,1,-1.9,2.7,5.8,,,,,,,,,*4F
$GPGRS,231552.00,1,0.0,0.3,1.1,,,,,,,,,*61
$GPGRS,231552.00,1,-1.7,-1.5,2.7,-0.0,,,,,,,,*66
$GPGSV,4,1,16,21,86,044,43,22,13,315,,14,14,294,37,27,13,165,28*70
$GPGSV,4,2,16,10,21,060,34,17,13,320,35,03,33,245,38,08,40,187,39*7B
$GPGSV,4,3,16,32,46,071,47,01,62,301,,02,68,305,43,28,04,113,*78
$GPGSV,4,4,16,36,35,170,41,34,31,208,,49,34,195,37,61,03,257,*76
$GLGSV,2,1,08,69,63,051,44,85,59,327,47,68,15,032,32,84,58,110,32*6E
$GLGSV,2,2,08,70,43,200,28,76,09,315,34,77,08,358,22,86,06,312,38*68
$GAGSV,3,1,12,26,64,089,46,29,34,165,36,08,17,038,33,24,14,318,30*68
$GAGSV,3,2,12,13,12,104,,31,19,267,32,07,50,089,41,33,59,304,34*6C
$GAGSV,3,3,12,23,05,220,,12,07,290,,16,04,341,,14,07,157,*64
$GBGSV,5,1,17,57,77,315,,33,28,049,39,60,10,109,,39,20,066,30*65
$GBGSV,5,2,17,28,30,140,33,32,39,211,35,09,13,093,,05,24,128,*60
$GBGSV,5,3,17,16,17,077,,06,16,080,,30,47,303,46,27,75,170,49*6D
$GBGSV,5,4,17,41,75,094,48,08,01,063,,13,10,065,,02,09,105,*69
$GBGSV,5,5,17,14,04,044,*5C
$GPGGA,231552.00,,,,,0,00,,,M,,M,,*4A
$PTNL,GGK,231552.00,010125,4742.4458752,N,01617.9735521,E,1,15,1.4,EHT667.5712,M*48
$GPGGQ,231552.00,010125,4742.4458752,N,01617.9735521,E,1,15,2.777,624.3601,M*34
$GPGFA,231552.00,11.885,18.170,1.250,1.114,10.579,2.216,,VVV*35
$GPLLK,231552.00,010125,,M,,M,1,15,1.7,,M*0B
$GNGMP,231552.00,,,,,DAAA,15,0.9,,,,*59
$GPGMP,231552.00,,,,,,05,,,,3.4,123*7D
$GLGMP,231552.00,,,,,,03,,,,,*7E
$GAGMP,231552.00,,,,,,03,,,,,*73
$GBGMP,231552.00,,,,,,04,,,,,*77
$PSSN,SNC,[0,342970000,2347]*4F
$GPZDA,231557.00,01,01,2025,,*64
$GPDTM,W84,,00.0000000,N,00.0000000,E,00.0000000,W84*5F
$GPRMC,231557.00,A,4742.4458537,N,01617.9735531,E,0.0,,010125,5.1,E,D*1D
$GPGLL,4742.4458537,N,01617.9735531,E,231557.00,A,D*6C
$GPGGA,231557.00,4742.4458537,N,01617.9735531,E,2,18,0.8,624.3861,M,43.2110,M,1.8,0123*40
$GNGNS,231557.00,4742.4458537,N,01617.9735531,E,DAAA,18,0.8,624.3861,43.2110,,*55
$GPGNS,231557.00,,,,,,06,,,,1.8,123*75
$GLGNS,231557.00,,,,,,03,,,,,*7B
$GAGNS,231557.00,,,,,,04,,,,,*71
$GBGNS,231557.00,,,,,,05,,,,,*73
$GPLLQ,231557.00,010125,,M,,M,1,18,3.070,,M*1B
$GPVTG,,T,,M,0.01,N,0.01,K,D*26
$GPHDT,,T*1B
$GPTHS,,V*0E
$GPROT,,V*08
$PSSN,HRP,231557.00,010125,,,,,,,00,0,,*66
$PTNL,AVR,231557.00,,Yaw,,Tilt,,,,0,,00*30
$GPGSA,A,3,02,03,08,14,21,32,,,,,,,1.3,0.8,1.1*36
$GPGSA,A,3,69,85,86,,,,,,,,,,1.3,0.8,1.1*34
$GPGSA,A,3,07,26,29,33,,,,,,,,,1.3,0.8,1.1*30
$GPGSA,A,3,27,30,32,33,41,,,,,,,,1.3,0.8,1.1*3A
$GPGST,231557.00,3.406,1.359,1.126,346.465,1.347,1.140,2.512*5C
$GPGBS,231557.00,4.610,4.397,6.464,08,0.0001,-2.081,0.704*7E
$GPGRS,231557.00,1,-1.0,1.9,-2.1,2.8,-0.1,0.7,,,,,,*62
$GPGRS,231557.00,1,-1.6,3.5,6.3,,,,,,,,,*4E
$GPGRS,231557.00,1,-0.2,0.2,2.1,-1.4,,,,,,,,*4F
$GPGRS,231557.00,1,-1.2,-1.9,2.4,6.1,-0.6,,,,,,,*46
$GPGSV,4,1,16,21,86,045,42,22,13,315,,17,13,320,32,10,21,060,32*75
$GPGSV,4,2,16,27,13,165,28,14,14,294,35,03,33,245,38,08,40,187,39*7D
$GPGSV,4,3,16,32,46,071,47,01,62,301,,02,68,305,43,28,04,112,*79
$GPGSV,4,4,16,36,35,170,41,34,31,208,,49,34,195,37,61,03,257,*76
$GLGSV,2,1,08,69,63,051,41,85,59,327,47,68,15,032,32,84,58,110,32*6B
$GLGSV,2,2,08,70,43,200,32,76,09,315,34,77,08,357,,86,06,312,37*63
$GAGSV,3,1,12,26,64,089,46,29,34,165,37,08,17,038,34,24,14,318,29*66
$GAGSV,3,2,12,13,12,104,,31,19,267,32,07,50,089,39,33,59,304,36*61
$GAGSV,3,3,12,23,05,220,,12,07,290,,16,04,341,,14,07,157,*64
$GBGSV,5,1,17,57,77,315,,33,28,049,39,60,10,109,,39,20,066,26*62
$GBGSV,5,2,17,28,30,140,32,32,39,211,36,09,13,093,,05,24,128,*62
$GBGSV,5,3,17,16,17,077,,06,16,080,,30,47,303,45,27,75,170,48*6F
$GBGSV,5,4,17,41,75,094,48,08,01,063,,13,10,065,,02,09,105,*69
$GBGSV,5,5,17,14,04,044,*5C
$GPGGA,231557.00,,,,,0,00,,,M,,M,,*4F
$PTNL,GGK,231557.00,010125,4742.4458537,N,01617.9735531,E,1,18,1.3,EHT667.5971,M*4C
$GPGGQ,231557.00,010125,4742.4458537,N,01617.9735531,E,1,18,3.070,624.3861,M*35
$GPGFA,231557.00,12.916,20.601,1.359,1.126,346.465,2.512,,VVV*04
$GPLLK,231557.00,010125,,M,,M,1,18,1.5,,M*01
$GNGMP,231557.00,,,,,DAAA,18,0.8,,,,*50
$GPGMP,231557.00,,,,,,06,,,,1.8,123*75
$GLGMP,231557.00,,,,,,03,,,,,*7B
$GAGMP,231557.00,,,,,,04,,,,,*71
$GBGMP,231557.00,,,,,,05,,,,,*73
$PSSN,SNC,[0,342975000,2347]*4A
$GPZDA,231602.00,01,01,2025,,*67
$GPDTM,W84,,00.0000000,N,00.0000000,E,00.0000000,W84*5F
$GPRMC,231602.00,A,4742.4458426,N,01617.9735505,E,0.0,,010125,5.1,E,D*18
$GPGLL,4742.4458426,N,01617.9735505,E,231602.00,A,D*69
$GPGGA,231602.00,4742.4458426,N,01617.9735505,E,2,16,0.8,624.4023,M,43.2110,M,2.3,0123*4A
$GNGNS,231602.00,4742.4458426,N,01617.9735505,E,DAAA,16,0.8,624.4023,43.2110,,*57
$GPGNS,231602.00,,,,,,04,,,,2.3,123*7C
$GLGNS,231602.00,,,,,,03,,,,,*78
$GAGNS,231602.00,,,,,,04,,,,,*72
$GBGNS,231602.00,,,,,,05,,,,,*70
$GPLLQ,231602.00,010125,,M,,M,1,16,3.287,,M*1C
$GPVTG,,T,,M,0.01,N,0.02,K,D*25
$GPHDT,,T*1B
$GPTHS,,V*0E
$GPROT,,V*08
$PSSN,HRP,231602.00,010125,,,,,,,00,0,,*65
$PTNL,AVR,231602.00,,Yaw,,Tilt,,,,0,,00*33
$GPGSA,A,3,02,08,21,32,,,,,,,,,1.4,0.8,1.2*34
$GPGSA,A,3,69,85,86,,,,,,,,,,1.4,0.8,1.2*30
$GPGSA,A,3,07,26,29,33,,,,,,,,,1.4,0.8,1.2*34
$GPGSA,A,3,27,30,32,33,41,,,,,,,,1.4,0.8,1.2*3E
$GPGST,231602.00,3.634,1.281,0.681,317.870,1.054,0.996,2.949*5E
$GPGBS,231602.00,5.571,6.660,19.402,08,0.0001,-0.939,0.711*45
$GPGRS,231602.00,1,-0.4,-0.9,0.5,0.6,,,,,,,,*44
$GPGRS,231602.00,1,-2.0,4.0,3.4,,,,,,,,,*48
$GPGRS,231602.00,1,0.3,0.2,2.2,1.9,,,,,,,,*43
$GPGRS,231602.00,1,-0.5,-2.1,1.6,8.3,-0.9,,,,,,,*4A
$GPGSV,4,1,16,21,86,045,42,22,13,315,,27,13,165,29,10,21,060,34*79
$GPGSV,4,2,16,17,13,320,33,14,14,294,34,03,33,245,39,08,40,187,39*77
$GPGSV,4,3,16,32,46,071,46,01,62,301,,02,68,305,45,28,04,112,*7E
$GPGSV,4,4,16,36,35,170,42,34,31,208,,49,34,195,37,61,03,257,*75
$GLGSV,2,1,08,69,63,051,40,85,59,327,47,68,15,032,31,84,58,110,31*6A
$GLGSV,2,2,08,70,43,200,34,76,09,314,33,77,08,357,24,86,06,312,36*64
$GAGSV,3,1,12,26,64,089,46,29,34,165,38,08,17,038,33,24,14,318,25*62
$GAGSV,3,2,12,13,12,104,,31,19,267,32,07,50,089,39,33,59,305,38*6E
$GAGSV,3,3,12,23,05,220,,12,07,290,,16,04,341,,14,07,157,*64
$GBGSV,5,1,17,57,77,315,,33,28,049,39,60,10,109,,39,20,066,27*63
$GBGSV,5,2,17,28,30,140,32,32,39,211,38,09,13,093,,05,24,128,*6C
$GBGSV,5,3,17,16,17,076,,06,16,080,,30,47,303,44,27,75,170,48*6F
$GBGSV,5,4,17,41,75,094,48,08,01,063,,13,10,065,,02,09,105,*69
$GBGSV,5,5,17,14,04,044,*5C
$GPGGA,231602.00,,,,,0,00,,,M,,M,,*4C
$PTNL,GGK,231602.00,010125,4742.4458426,N,01617.9735505,E,1,16,1.4,EHT667.6134,M*4A
$GPGGQ,231602.00,010125,4742.4458426,N,01617.9735505,E,1,16,3.287,624.4023,M*3D
$GPGFA,231602.00,12.175,24.184,1.281,0.681,317.870,2.949,,VVV*05
$GPLLK,231602.00,010125,,M,,M,1,16,1.7,,M*0E
$GNGMP,231602.00,,,,,DAAA,16,0.8,,,,*5D
$GPGMP,231602.00,,,,,,04,,,,2.3,123*7C
$GLGMP,231602.00,,,,,,03,,,,,*78
$GAGMP,231602.00,,,,,,04,,,,,*72
$GBGMP,231602.00,,,,,,05,,,,,*70
$PSSN,SNC,[0,342980000,2347]*40
$GPZDA,231607.00,01,01,2025,,*62
$GPDTM,W84,,00.0000000,N,00.0000000,E,00.0000000,W84*5F
$GPRMC,231607.00,A,4742.4458404,N,01617.9735471,E,0.0,,010125,5.1,E,D*1F
$GPGLL,4742.4458404,N,01617.9735471,E,231607.00,A,D*6E
$GPGGA,231607.00,4742.4458404,N,01617.9735471,E,2,19,0.8,624.3930,M,43.2110,M,2.3,0123*4E
$GNGNS,231607.00,4742.4458404,N,01617.9735471,E,DAAA,19,0.8,624.3930,43.2110,,*53
$GPGNS,231607.00,,,,,,06,,,,2.3,123*7B
$GLGNS,231607.00,,,,,,04,,,,,*7A
$GAGNS,231607.00,,,,,,04,,,,,*77
$GBGNS,231607.00,,,,,,05,,,,,*75
$GPLLQ,231607.00,010125,,M,,M,1,19,1.530,,M*1F
$GPVTG,,T,,M,0.00,N,0.00,K,D*26
$GPHDT,,T*1B
$GPTHS,,V*0E
$GPROT,,V*08
$PSSN,HRP,231607.00,010125,,,,,,,00,0,,*60
$PTNL,AVR,231607.00,,Yaw,,Tilt,,,,0,,00*36
$GPGSA,A,3,02,08,14,17,21,32,,,,,,,1.3,0.8,1.0*32
$GPGSA,A,3,69,76,85,86,,,,,,,,,1.3,0.8,1.0*34
$GPGSA,A,3,07,26,29,33,,,,,,,,,1.3,0.8,1.0*31
$GPGSA,A,3,27,30,32,33,41,,,,,,,,1.3,0.8,1.0*3B
$GPGST,231607.00,4.147,0.742,0.637,55.717,0.672,0.711,1.176*67
$GPGBS,231607.00,5.225,5.200,5.685,76,0.0001,-8.183,6.313*7F
$GPGRS,231607.00,1,-0.4,0.6,0.1,-1.1,0.7,0.1,,,,,,*4A
$GPGRS,231607.00,1,-2.1,-8.2,2.6,3.0,,,,,,,,*41
$GPGRS,231607.00,1,0.8,0.1,1.6,2.2,,,,,,,,*41
$GPGRS,231607.00,1,-0.4,-1.9,0.9,10.2,-0.9,,,,,,,*73
$GPGSV,4,1,16,21,86,046,42,22,13,315,,27,13,165,29,10,21,060,34*7A
$GPGSV,4,2,16,17,13,320,36,14,14,294,35,03,33,245,39,08,40,187,41*7C
$GPGSV,4,3,16,32,46,071,44,01,62,301,,02,68,305,46,28,04,112,*7F
$GPGSV,4,4,16,36,35,170,42,34,31,208,,49,34,195,36,61,03,257,*74
$GLGSV,2,1,08,69,63,051,43,85,59,327,46,68,15,032,33,84,58,110,33*68
$GLGSV,2,2,08,70,43,200,34,76,09,314,37,77,08,357,,86,06,312,36*66
$GAGSV,3,1,12,26,64,089,46,29,34,165,39,08,17,038,29,24,14,318,29*64
$GAGSV,3,2,12,13,12,104,19,31,19,267,33,07,50,089,39,33,59,305,39*66
$GAGSV,3,3,12,23,05,220,,12,07,290,,16,04,341,,14,07,157,*64
$GBGSV,5,1,17,57,77,315,,33,28,049,39,60,10,109,,39,20,066,27*63
$GBGSV,5,2,17,28,30,140,31,32,39,211,39,09,13,093,,05,24,128,*6E
$GBGSV,5,3,17,16,17,076,,06,16,080,,30,47,302,44,27,75,170,48*6E
$GBGSV,5,4,17,41,75,094,48,08,01,063,,13,10,065,,02,09,105,*69
$GBGSV,5,5,17,14,04,044,*5C
$GPGGA,231607.00,,,,,0,00,,,M,,M,,*49
$PTNL,GGK,231607.00,010125,4742.4458404,N,01617.9735471,E,1,19,1.3,EHT667.6040,M*47
$GPGGQ,231607.00,010125,4742.4458404,N,01617.9735471,E,1,19,1.530,624.3930,M*30
$GPGFA,231607.00,7.057,9.646,0.742,0.637,55.717,1.176,,VVV*39
$GPLLK,231607.00,010125,,M,,M,1,19,1.5,,M*06
$GNGMP,231607.00,,,,,DAAA,19,0.8,,,,*57
$GPGMP,231607.00,,,,,,06,,,,2.3,123*7B
$GLGMP,231607.00,,,,,,04,,,,,*7A
$GAGMP,231607.00,,,,,,04,,,,,*77
$GBGMP,231607.00,,,,,,05,,,,,*75
$PSSN,SNC,[0,342985000,2347]*45
$GPZDA,231612.00,01,01,2025,,*66
$GPDTM,W84,,00.0000000,N,00.0000000,E,00.0000000,W84*5F
$GPRMC,231612.00,A,4742.4458458,N,01617.9735456,E,0.0,,010125,5.1,E,D*17
$GPGLL,4742.4458458,N,01617.9735456,E,231612.00,A,D*66
$GPGGA,231612.00,4742.4458458,N,01617.9735456,E,2,17,0.9,624.3967,M,43.2110,M,3.0,0123*49
$GNGNS,231612.00,4742.4458458,N,01617.9735456,E,DAAA,17,0.9,624.3967,43.2110,,*56
$GPGNS,231612.00,,,,,,04,,,,3.0,123*7F
$GLGNS,231612.00,,,,,,04,,,,,*7E
$GAGNS,231612.00,,,,,,04,,,,,*73
$GBGNS,231612.00,,,,,,05,,,,,*71
$GPLLQ,231612.00,010125,,M,,M,1,17,4.912,,M*1C
$GPVTG,,T,,M,0.01,N,0.01,K,D*26
$GPHDT,,T*1B
$GPTHS,,V*0E
$GPROT,,V*08
$PSSN,HRP,231612.00,010125,,,,,,,00,0,,*64
$PTNL,AVR,231612.00,,Yaw,,Tilt,,,,0,,00*32
$GPGSA,A,3,02,17,21,32,,,,,,,,,1.3,0.9,1.0*3E
$GPGSA,A,3,69,76,85,86,,,,,,,,,1.3,0.9,1.0*35
$GPGSA,A,3,07,26,29,33,,,,,,,,,1.3,0.9,1.0*30
$GPGSA,A,3,27,30,32,33,41,,,,,,,,1.3,0.9,1.0*3A
$GPGST,231612.00,5.945,3.833,0.867,5.154,3.818,0.929,2.947*50
$GPGBS,231612.00,30.511,5.896,23.453,33,0.0001,14.905,8.628*61
$GPGRS,231612.00,1,-1.0,0.3,0.6,-0.4,,,,,,,,*4B
$GPGRS,231612.00,1,-3.0,-6.3,1.3,8.4,,,,,,,,*43
$GPGRS,231612.00,1,0.5,-0.1,0.8,0.9,,,,,,,,*63
$GPGRS,231612.00,1,-0.4,-2.1,1.0,14.9,-1.1,,,,,,,*72
$GPGSV,4,1,16,21,86,046,43,22,13,315,,17,13,320,36,10,21,060,33*72
$GPGSV,4,2,16,27,13,165,29,14,14,294,34,03,33,245,38,08,40,187,42*71
$GPGSV,4,3,16,32,46,071,43,01,62,301,,02,68,305,45,28,04,112,*7B
$GPGSV,4,4,16,36,35,170,42,34,31,208,,49,34,195,37,61,03,257,*75
$GLGSV,2,1,08,69,63,051,44,85,59,327,46,68,15,032,34,84,58,110,34*6F
$GLGSV,2,2,08,70,43,200,33,76,09,314,39,77,08,357,26,86,06,312,37*6A
$GAGSV,3,1,12,26,64,089,45,29,34,165,40,08,17,038,30,24,14,318,31*68
$GAGSV,3,2,12,13,12,104,20,31,19,267,34,07,50,089,39,33,59,305,38*6A
$GAGSV,3,3,12,23,05,220,,12,07,290,,16,04,341,,14,07,157,*64
$GBGSV,5,1,17,57,77,316,,33,28,049,39,60,10,109,,39,20,066,26*61
$GBGSV,5,2,17,28,30,140,28,32,39,211,38,09,13,093,,05,24,128,*67
$GBGSV,5,3,17,16,17,076,,06,16,080,,30,47,302,44,27,75,169,49*67
$GBGSV,5,4,17,41,75,094,47,08,01,063,,13,10,065,,02,09,105,*66
$GBGSV,5,5,17,14,04,044,*5C
$GPGGA,231612.00,,,,,0,00,,,M,,M,,*4D
$PTNL,GGK,231612.00,010125,4742.4458458,N,01617.9735456,E,1,17,1.3,EHT667.6078,M*4A
$GPGGQ,231612.00,010125,4742.4458458,N,01617.9735456,E,1,17,4.912,624.3967,M*3D
$GPGFA,231612.00,36.445,24.162,3.833,0.867,5.154,2.947,,VVV*0A
$GPLLK,231612.00,010125,,M,,M,1,17,1.6,,M*0F
$GNGMP,231612.00,,,,,DAAA,17,0.9,,,,*5C
$GPGMP,231612.00,,,,,,04,,,,3.0,123*7F
$GLGMP,231612.00,,,,,,04,,,,,*7E
$GAGMP,231612.00,,,,,,04,,,,,*73
$GBGMP,231612.00,,,,,,05,,,,,*71
$PSSN,SNC,[0,342990000,2347]*41
$GPZDA,231617.00,01,01,2025,,*63
$GPDTM,W84,,00.0000000,N,00.0000000,E,00.0000000,W84*5F
$GPRMC,231617.00,A,4742.4458550,N,01617.9735482,E,0.0,,010125,5.1,E,D*12
$GPGLL,4742.4458550,N,01617.9735482,E,231617.00,A,D*63
$GPGGA,231617.00,4742.4458550,N,01617.9735482,E,2,19,0.7,624.4115,M,43.2110,M,2.6,0123*41
$GNGNS,231617.00,4742.4458550,N,01617.9735482,E,DAAA,19,0.7,624.4115,43.2110,,*59
$GPGNS,231617.00,,,,,,05,,,,2.6,123*7C
$GLGNS,231617.00,,,,,,03,,,,,*7C
$GAGNS,231617.00,,,,,,05,,,,,*77
$GBGNS,231617.00,,,,,,06,,,,,*77
$GPLLQ,231617.00,010125,,M,,M,1,19,2.634,,M*1A
$GPVTG,,T,,M,0.01,N,0.01,K,D*26
$GPHDT,,T*1B
$GPTHS,,V*0E
$GPROT,,V*08
$PSSN,HRP,231617.00,010125,,,,,,,00,0,,*61
$PTNL,AVR,231617.00,,Yaw,,Tilt,,,,0,,00*37
$GPGSA,A,3,02,08,17,21,32,,,,,,,,1.2,0.7,1.0*39
$GPGSA,A,3,69,76,85,,,,,,,,,,1.2,0.7,1.0*34
$GPGSA,A,3,07,26,29,31,33,,,,,,,,1.2,0.7,1.0*3D
$GPGSA,A,3,27,28,30,32,33,41,,,,,,,1.2,0.7,1.0*3F
$GPGST,231617.00,6.199,1.185,1.065,319.047,1.135,1.118,2.097*54
$GPGBS,231617.00,4.943,5.570,7.099,02,0.0001,-2.169,0.593*78
$GPGRS,231617.00,1,-2.2,0.7,0.5,0.7,-0.4,,,,,,,*61
$GPGRS,231617.00,1,-3.2,-2.5,0.3,,,,,,,,,*65
$GPGRS,231617.00,1,0.4,-0.9,0.2,-4.2,-0.6,,,,,,,*42
$GPGRS,231617.00,1,-0.6,-1.0,-2.4,-0.1,20.3,-0.9,,,,,,*5B
$GPGSV,4,1,16,21,86,047,44,22,13,315,,27,13,165,29,10,21,060,35*7C
$GPGSV,4,2,16,17,13,320,38,14,14,294,35,03,33,245,37,08,40,187,43*7E
$GPGSV,4,3,16,32,46,071,45,01,62,301,,02,68,305,45,28,04,112,*7D
$GPGSV,4,4,16,36,35,170,42,34,31,208,,49,34,195,37,61,03,257,*75
$GLGSV,2,1,08,69,63,051,44,85,59,328,45,68,15,032,34,84,58,110,35*62
$GLGSV,2,2,08,70,43,200,35,76,09,314,38,77,08,357,27,86,06,312,28*62
$GAGSV,3,1,12,26,64,089,45,29,34,165,40,08,17,038,28,24,14,318,32*62
$GAGSV,3,2,12,13,12,104,21,31,19,267,35,07,50,089,38,33,59,305,38*6B
$GAGSV,3,3,12,23,05,220,,12,07,290,,16,04,341,,14,07,157,*64
$GBGSV,5,1,17,57,77,316,,33,28,049,36,60,10,109,,39,20,066,25*6D
$GBGSV,5,2,17,28,30,140,25,32,39,211,40,09,13,093,,05,24,128,*65
$GBGSV,5,3,17,16,17,076,,06,16,080,,30,47,302,44,27,75,169,50*6F
$GBGSV,5,4,17,41,75,094,48,08,01,063,,13,10,065,,02,09,105,*69
$GBGSV,5,5,17,14,03,044,*5B
$GPGGA,231617.00,,,,,0,00,,,M,,M,,*48
$PTNL,GGK,231617.00,010125,4742.4458550,N,01617.9735482,E,1,19,1.2,EHT667.6225,M*4A
$GPGGQ,231617.00,010125,4742.4458550,N,01617.9735482,E,1,19,2.634,624.4115,M*31
$GPGFA,231617.00,11.271,17.196,1.185,1.065,319.047,2.097,,VVV*04
$GPLLK,231617.00,010125,,M,,M,1,19,1.4,,M*06
$GNGMP,231617.00,,,,,DAAA,19,0.7,,,,*59
$GPGMP,231617.00,,,,,,05,,,,2.6,123*7C
$GLGMP,231617.00,,,,,,03,,,,,*7C
$GAGMP,231617.00,,,,,,05,,,,,*77
$GBGMP,231617.00,,,,,,06,,,,,*77
$PSSN,SNC,[0,342995000,2347]*44
$GPZDA,231622.00,01,01,2025,,*65
$GPDTM,W84,,00.0000000,N,00.0000000,E,00.0000000,W84*5F
$GPRMC,231622.00,A,4742.4458533,N,01617.9735426,E,0.0,,010125,5.1,E,D*1F
$GPGLL,4742.4458533,N,01617.9735426,E,231622.00,A,D*6E
$GPGGA,231622.00,4742.4458533,N,01617.9735426,E,2,19,0.8,624.4231,M,43.2110,M,2.0,0123*40
$GNGNS,231622.00,4742.4458533,N,01617.9735426,E,DAAA,19,0.8,624.4231,43.2110,,*5E
$GPGNS,231622.00,,,,,,06,,,,2.0,123*7F
$GLGNS,231622.00,,,,,,05,,,,,*7C
$GAGNS,231622.00,,,,,,04,,,,,*70
$GBGNS,231622.00,,,,,,04,,,,,*73
$GPLLQ,231622.00,010125,,M,,M,1,19,2.184,,M*10
$GPVTG,,T,,M,0.00,N,0.01,K,D*27
$GPHDT,,T*1B
$GPTHS,,V*0E
$GPROT,,V*08
$PSSN,HRP,231622.00,010125,,,,,,,00,0,,*67
$PTNL,AVR,231622.00,,Yaw,,Tilt,,,,0,,00*31
$GPGSA,A,3,02,08,14,17,21,32,,,,,,,1.4,0.8,1.1*34
$GPGSA,A,3,69,70,76,84,85,,,,,,,,1.4,0.8,1.1*37
$GPGSA,A,3,07,26,29,33,,,,,,,,,1.4,0.8,1.1*37
$GPGSA,A,3,27,30,32,41,,,,,,,,,1.4,0.8,1.1*3D
$GPGST,231622.00,1.419,1.057,0.886,58.059,0.937,1.012,1.693*6A
$GPGBS,231622.00,5.057,5.446,5.682,02,0.0001,-1.708,0.610*73
$GPGRS,231622.00,1,-1.7,-0.7,1.7,1.8,0.7,0.4,,,,,,*45
$GPGRS,231622.00,1,-1.6,2.3,-0.0,-0.3,0.5,,,,,,,*4B
$GPGRS,231622.00,1,0.2,-0.3,0.3,0.6,,,,,,,,*61
$GPGRS,231622.00,1,0.0,-2.0,1.1,-0.1,,,,,,,,*4B
$GPGSV,4,1,16,21,86,048,44,17,13,320,38,22,13,315,,10,21,060,34*72
$GPGSV,4,2,16,27,13,165,30,14,14,294,36,03,33,245,,08,40,187,43*71
$GPGSV,4,3,16,32,46,070,45,01,63,301,,02,68,305,43,28,04,112,*7B
$GPGSV,4,4,16,36,35,170,42,34,31,208,,49,34,195,37,61,03,257,*75
$GLGSV,2,1,08,69,63,051,45,85,59,328,42,68,15,032,34,84,58,110,36*67
$GLGSV,2,2,08,70,43,200,37,76,09,314,38,77,08,357,26,86,06,312,30*68
$GAGSV,3,1,12,26,64,089,44,29,34,165,40,08,17,038,30,24,14,318,34*6C
$GAGSV,3,2,12,13,12,104,,31,19,267,35,07,50,089,35,33,60,305,38*6F
$GAGSV,3,3,12,23,05,220,,12,07,290,,16,04,341,,14,07,157,*64
$GBGSV,5,1,17,57,77,316,,33,28,049,30,60,10,109,,39,20,066,21*6F
$GBGSV,5,2,17,28,30,140,29,32,39,211,40,09,13,093,,05,24,128,*69
$GBGSV,5,3,17,16,17,076,,06,16,080,,30,47,302,43,27,75,169,50*68
$GBGSV,5,4,17,41,75,094,48,08,01,063,,13,10,065,,02,09,105,*69
$GBGSV,5,5,17,14,03,044,*5B
$GPGGA,231622.00,,,,,0,00,,,M,,M,,*4E
$PTNL,GGK,231622.00,010125,4742.4458533,N,01617.9735426,E,1,19,1.4,EHT667.6341,M*42
$GPGGQ,231622.00,010125,4742.4458533,N,01617.9735426,E,1,19,2.184,624.4231,M*35
$GPGFA,231622.00,10.051,13.885,1.057,0.886,58.059,1.693,,VVV*3E
$GPLLK,231622.00,010125,,M,,M,1,19,1.7,,M*03
$GNGMP,231622.00,,,,,DAAA,19,0.8,,,,*50
$GPGMP,231622.00,,,,,,06,,,,2.0,123*7F
$GLGMP,231622.00,,,,,,05,,,,,*7C
$GAGMP,231622.00,,,,,,04,,,,,*70
$GBGMP,231622.00,,,,,,04,,,,,*73
$PSSN,SNC,[0,343000000,2347]*40
$GPZDA,231627.00,01,01,2025,,*60
$GPDTM,W84,,00.0000000,N,00.0000000,E,00.0000000,W84*5F
$GPRMC,231627.00,A,4742.4458453,N,01617.9735463,E,0.0,,010125,5.1,E,D*1C
$GPGLL,4742.4458453,N,01617.9735463,E,231627.00,A,D*6D
$GPGGA,231627.00,4742.4458453,N,01617.9735463,E,2,19,0.9,624.4499,M,43.2110,M,2.3,0123*45
$GNGNS,231627.00,4742.4458453,N,01617.9735463,E,DAAA,19,0.9,624.4499,43.2110,,*58
$GPGNS,231627.00,,,,,,06,,,,2.3,123*79
$GLGNS,231627.00,,,,,,05,,,,,*79
$GAGNS,231627.00,,,,,,04,,,,,*75
$GBGNS,231627.00,,,,,,04,,,,,*76
$GPLLQ,231627.00,010125,,M,,M,1,19,2.362,,M*1F
$GPVTG,,T,,M,0.01,N,0.01,K,D*26
$GPHDT,,T*1B
$GPTHS,,V*0E
$GPROT,,V*08
$PSSN,HRP,231627.00,010125,,,,,,,00,0,,*62
$PTNL,AVR,231627.00,,Yaw,,Tilt,,,,0,,00*34
$GPGSA,A,3,02,08,14,17,21,32,,,,,,,1.5,0.9,1.2*37
$GPGSA,A,3,69,70,76,84,85,,,,,,,,1.5,0.9,1.2*34
$GPGSA,A,3,26,29,31,33,,,,,,,,,1.5,0.9,1.2*31
$GPGSA,A,3,27,30,32,41,,,,,,,,,1.5,0.9,1.2*3E
$GPGST,231627.00,1.714,1.141,0.977,57.207,1.028,1.095,1.823*62
$GPGBS,231627.00,5.146,5.224,5.747,14,0.0001,3.321,0.988*54
$GPGRS,231627.00,1,-1.5,-0.3,3.3,0.8,0.2,-0.1,,,,,,*6C
$GPGRS,231627.00,1,-1.4,0.9,-2.9,-0.4,0.4,,,,,,,*49
$GPGRS,231627.00,1,-0.9,-0.4,-1.0,0.7,,,,,,,,*6B
$GPGRS,231627.00,1,-0.3,-2.4,-0.8,-0.4,,,,,,,,*44
$GPGSV,4,1,16,21,86,048,44,17,13,320,39,22,13,315,,10,21,060,33*74
$GPGSV,4,2,16,27,13,165,28,14,14,294,36,03,33,245,34,08,40,187,42*7E
$GPGSV,4,3,16,32,46,070,45,01,63,301,,02,68,305,43,28,04,112,*7B
$GPGSV,4,4,16,36,35,170,41,34,31,208,,49,34,195,37,61,03,257,*76
$GLGSV,2,1,08,69,63,051,45,85,59,328,41,68,15,032,32,84,58,110,36*62
$GLGSV,2,2,08,70,43,200,36,76,09,314,37,77,08,357,26,86,06,312,26*61
$GAGSV,3,1,12,26,64,089,43,29,34,165,40,08,17,038,31,24,14,318,38*66
$GAGSV,3,2,12,13,12,104,,31,19,267,35,07,50,089,33,33,60,305,40*66
$GAGSV,3,3,12,23,05,220,,12,07,290,,16,04,341,,14,07,157,*64
$GBGSV,5,1,17,57,77,316,,33,27,049,32,60,10,109,,39,20,066,20*63
$GBGSV,5,2,17,28,30,140,32,32,39,211,39,09,13,093,,05,24,128,*6D
$GBGSV,5,3,17,16,17,076,,06,16,080,,30,47,302,43,27,75,169,50*68
$GBGSV,5,4,17,41,75,093,48,08,01,063,,13,10,065,,02,09,105,*6E
$GBGSV,5,5,17,14,03,044,*5B
$GPGGA,231627.00,,,,,0,00,,,M,,M,,*4B
$PTNL,GGK,231627.00,010125,4742.4458453,N,01617.9735463,E,1,19,1.5,EHT667.6610,M*41
$GPGGQ,231627.00,010125,4742.4458453,N,01617.9735463,E,1,19,2.362,624.4499,M*38
$GPGFA,231627.00,10.844,14.951,1.141,0.977,57.207,1.823,,VVV*32
$GPLLK,231627.00,010125,,M,,M,1,19,1.7,,M*06
$GNGMP,231627.00,,,,,DAAA,19,0.9,,,,*54
$GPGMP,231627.00,,,,,,06,,,,2.3,123*79
$GLGMP,231627.00,,,,,,05,,,,,*79
$GAGMP,231627.00,,,,,,04,,,,,*75
$GBGMP,231627.00,,,,,,04,,,,,*76
$PSSN,SNC,[0,343005000,2347]*45
$GPZDA,231632.00,01,01,2025,,*64
$GPDTM,W84,,00.0000000,N,00.0000000,E,00.0000000,W84*5F
$GPRMC,231632.00,A,4742.4458476,N,01617.9735498,E,0.0,,010125,5.1,E,D*1B
$GPGLL,4742.4458476,N,01617.9735498,E,231632.00,A,D*6A
$GPGGA,231632.00,4742.4458476,N,01617.9735498,E,2,19,0.8,624.4694,M,43.2110,M,3.2,0123*4C
$GNGNS,231632.00,4742.4458476,N,01617.9735498,E,DAAA,19,0.8,624.4694,43.2110,,*51
$GPGNS,231632.00,,,,,,05,,,,3.2,123*7E
$GLGNS,231632.00,,,,,,05,,,,,*7D
$GAGNS,231632.00,,,,,,05,,,,,*70
$GBGNS,231632.00,,,,,,04,,,,,*72
$GPLLQ,231632.00,010125,,M,,M,1,19,3.058,,M*10
$GPVTG,,T,,M,0.00,N,0.01,K,D*27
$GPHDT,,T*1B
$GPTHS,,V*0E
$GPROT,,V*08
$PSSN,HRP,231632.00,010125,,,,,,,00,0,,*66
$PTNL,AVR,231632.00,,Yaw,,Tilt,,,,0,,00*30
$GPGSA,A,3,02,08,17,21,32,,,,,,,,1.4,0.8,1.1*31
$GPGSA,A,3,69,70,76,84,85,,,,,,,,1.4,0.8,1.1*37
$GPGSA,A,3,24,26,29,31,33,,,,,,,,1.4,0.8,1.1*34
$GPGSA,A,3,27,30,32,41,,,,,,,,,1.4,0.8,1.1*3D
$GPGST,231632.00,7.637,1.423,1.230,71.092,1.252,1.404,2.411*6F
$GPGBS,231632.00,5.153,5.661,6.756,24,0.0001,23.305,6.245*69
$GPGRS,231632.00,1,-1.2,1.4,1.4,0.3,-0.8,,,,,,,*6F
$GPGRS,231632.00,1,-1.2,-2.1,-10.9,0.5,2.9,,,,,,,*7C
$GPGRS,231632.00,1,23.3,-1.2,-0.7,-1.3,0.4,,,,,,,*7A
$GPGRS,231632.00,1,-0.7,-2.4,-2.4,-0.9,,,,,,,,*47
$GPGSV,4,1,16,21,86,049,44,17,13,320,40,22,13,315,,10,21,060,31*79
$GPGSV,4,2,16,27,13,165,30,14,14,294,35,03,33,245,32,08,40,187,41*71
$GPGSV,4,3,16,32,46,070,45,01,63,301,,02,68,305,43,28,04,112,*7B
$GPGSV,4,4,16,36,35,170,41,34,31,208,,49,34,195,37,61,03,257,*76
$GLGSV,2,1,08,69,63,051,45,85,59,328,42,68,14,032,27,84,58,111,36*65
$GLGSV,2,2,08,70,43,200,36,76,09,314,36,77,08,357,,86,07,312,31*63
$GAGSV,3,1,12,26,64,089,43,29,34,165,40,08,17,038,29,24,14,318,39*6E
$GAGSV,3,2,12,13,12,104,,31,19,267,36,07,50,089,32,33,60,305,41*65
