$GPZDA,151442.00,01,01,2025,,*64
$GPDTM,W84,,00.0000000,N,00.0000000,E,00.0000000,W84*5F
$GPRMC,151442.00,A,4742.4471350,N,01617.9736303,E,0.0,,010125,5.1,E,D*15
$GPGLL,4742.4471350,N,01617.9736303,E,151442.00,A,D*64
$GPGGA,151442.00,4742.4471350,N,01617.9736303,E,2,18,0.8,626.1019,M,43.2111,M,2.6,0123*43
$GNGNS,151442.00,4742.4471350,N,01617.9736303,E,DAAA,18,0.8,626.1019,43.2111,,*5B
$GPGNS,151442.00,,,,,,05,,,,2.6,123*7B
$GLGNS,151442.00,,,,,,04,,,,,*7C
$GAGNS,151442.00,,,,,,03,,,,,*76
$GBGNS,151442.00,,,,,,06,,,,,*70
$GPLLQ,151442.00,010125,,M,,M,1,18,6.052,,M*1E
$GPVTG,,T,,M,0.01,N,0.01,K,D*26
$GPHDT,,T*1B
$GPTHS,,V*0E
$GPROT,,V*08
$PSSN,HRP,151442.00,010125,,,,,,,00,0,,*66
$PTNL,AVR,151442.00,,Yaw,,Tilt,,,,0,,00*30
$GPGSA,A,3,11,25,28,29,31,,,,,,,,1.8,0.8,1.5*33
$GPGSA,A,3,78,79,81,88,,,,,,,,,1.8,0.8,1.5*3F
$GPGSA,A,3,15,27,34,,,,,,,,,,1.8,0.8,1.5*31
$GPGSA,A,3,11,12,23,25,34,44,,,,,,,1.8,0.8,1.5*35
$GPGST,151442.00,2.467,3.385,0.845,357.867,3.383,0.854,4.946*56
$GPGBS,151442.00,20.711,4.844,28.751,11,0.0001,2.617,1.255*58
$GPGRS,151442.00,1,2.6,-0.3,0.1,-0.7,-1.2,,,,,,,*48
$GPGRS,151442.00,1,-2.0,0.5,2.7,-1.6,,,,,,,,*4C
$GPGRS,151442.00,1,0.8,0.1,-0.8,,,,,,,,,*4B
$GPGRS,151442.00,1,-4.5,1.1,-2.5,-2.0,-1.9,2.7,,,,,,*40
$GPGSV,4,1,16,25,74,095,49,18,13,186,25,26,10,294,37,20,16,080,*7E
$GPGSV,4,2,16,11,31,052,42,31,30,310,45,12,33,102,36,28,51,285,45*7C
$GPGSV,4,3,16,29,73,242,45,06,03,029,,05,04,112,,32,08,242,25*74
$GPGSV,4,4,16,36,35,170,36,34,31,208,35,49,34,195,36,61,03,257,*71
$GLGSV,3,1,10,88,68,060,40,70,10,324,28,87,12,031,,79,58,324,47*68
$GLGSV,3,2,10,81,47,194,47,78,62,117,47,80,06,313,,82,02,204,*6E
$GLGSV,3,3,10,77,05,129,,71,06,009,30*61
$GAGSV,3,1,11,27,65,302,43,36,14,034,34,21,13,289,26,29,19,262,35*6F
$GAGSV,3,2,11,19,17,308,34,15,39,157,38,34,49,080,46,30,57,095,33*60
$GAGSV,3,3,11,18,06,063,,02,06,105,,07,02,214,*50
$GBGSV,5,1,17,25,79,244,49,05,20,130,,43,26,212,,23,31,306,47*6D
$GBGSV,5,2,17,10,11,074,,56,17,060,,24,36,141,35,13,20,090,*63
$GBGSV,5,3,17,38,22,067,32,11,49,202,37,08,21,082,,44,42,056,43*6A
$GBGSV,5,4,17,34,73,176,51,12,66,073,41,20,01,347,,02,05,108,*64
$GBGSV,5,5,17,60,09,110,*52
$GPGGA,151442.00,,,,,0,00,,,M,,M,,*4F
$PTNL,GGK,151442.00,010125,4742.4471350,N,01617.9736303,E,1,18,1.8,EHT669.3130,M*4A
$GPGGQ,151442.00,010125,4742.4471350,N,01617.9736303,E,1,18,6.052,626.1019,M*3F
$GPGFA,151442.00,32.183,40.554,3.385,0.845,357.867,4.946,,VVV*0C
$GPLLK,151442.00,010125,,M,,M,1,18,2.2,,M*05
$GNGMP,151442.00,,,,,DAAA,18,0.8,,,,*50
$GPGMP,151442.00,,,,,,05,,,,2.6,123*7B
$GLGMP,151442.00,,,,,,04,,,,,*7C
$GAGMP,151442.00,,,,,,03,,,,,*76
$GBGMP,151442.00,,,,,,06,,,,,*70
$PSSN,SNC,[0,314100000,2347]*43
$GPZDA,151447.00,01,01,2025,,*61
$GPDTM,W84,,00.0000000,N,00.0000000,E,00.0000000,W84*5F
$GPRMC,151447.00,A,4742.4471248,N,01617.9736196,E,0.0,,010125,5.1,E,D*16
$GPGLL,4742.4471248,N,01617.9736196,E,151447.00,A,D*67
$GPGGA,151447.00,4742.4471248,N,01617.9736196,E,2,21,0.7,626.1109,M,43.2111,M,1.8,0123*48
$GNGNS,151447.00,4742.4471248,N,01617.9736196,E,DAAA,21,0.7,626.1109,43.2111,,*5D
$GPGNS,151447.00,,,,,,06,,,,1.8,123*70
$GLGNS,151447.00,,,,,,04,,,,,*79
$GAGNS,151447.00,,,,,,04,,,,,*74
$GBGNS,151447.00,,,,,,07,,,,,*74
$GPLLQ,151447.00,010125,,M,,M,1,21,7.537,,M*16
$GPVTG,,T,,M,0.00,N,0.01,K,D*27
$GPHDT,,T*1B
$GPTHS,,V*0E
$GPROT,,V*08
$PSSN,HRP,151447.00,010125,,,,,,,00,0,,*63
$PTNL,AVR,151447.00,,Yaw,,Tilt,,,,0,,00*35
$GPGSA,A,3,11,25,26,28,29,31,,,,,,,1.4,0.7,1.2*33
$GPGSA,A,3,78,79,81,88,,,,,,,,,1.4,0.7,1.2*3B
$GPGSA,A,3,15,27,30,34,,,,,,,,,1.4,0.7,1.2*36
$GPGSA,A,3,11,12,23,24,25,34,44,,,,,,1.4,0.7,1.2*37
$GPGST,151447.00,4.554,4.382,1.266,356.775,4.376,1.288,6.000*5D
$GPGBS,151447.00,14.378,4.825,18.305,26,0.0001,13.288,3.676*61
$GPGRS,151447.00,1,2.0,-0.3,13.3,-0.5,-0.8,-1.3,,,,,,*73
$GPGRS,151447.00,1,-1.6,2.0,-1.0,-1.3,,,,,,,,*67
$GPGRS,151447.00,1,0.5,-0.2,8.3,-0.7,,,,,,,,*47
$GPGRS,151447.00,1,1.2,-0.2,-2.2,-3.2,-1.2,-1.6,2.9,,,,,*40
$GPGSV,4,1,16,25,74,095,48,18,13,186,23,26,10,295,37,20,16,080,*78
$GPGSV,4,2,16,11,31,052,42,31,30,310,44,12,33,102,36,28,51,285,44*7C
$GPGSV,4,3,16,29,74,242,45,06,03,029,,05,05,112,,32,08,242,21*76
$GPGSV,4,4,16,36,35,170,36,34,31,208,35,49,34,195,36,61,03,257,*71
$GLGSV,3,1,10,88,68,060,41,70,10,324,29,87,12,031,,79,58,324,47*68
$GLGSV,3,2,10,81,47,194,48,78,62,117,47,80,06,313,25,82,02,204,*66
$GLGSV,3,3,10,77,05,129,,71,06,009,*62
$GAGSV,3,1,11,27,65,302,44,36,14,034,25,21,13,289,29,29,19,262,25*66
$GAGSV,3,2,11,19,17,308,34,15,39,157,35,34,49,080,45,30,57,095,36*6B
$GAGSV,3,3,11,18,06,063,,02,06,105,,07,02,214,*50
$GBGSV,5,1,17,25,79,244,49,05,20,130,,43,26,212,,23,31,306,47*6D
$GBGSV,5,2,17,10,11,074,,56,17,060,,24,36,141,36,13,21,090,*61
$GBGSV,5,3,17,38,22,067,32,11,49,202,40,08,21,082,,44,42,056,44*6D
$GBGSV,5,4,17,34,73,176,51,12,66,073,42,20,01,347,,02,05,108,*67
$GBGSV,5,5,17,60,09,110,*52
$GPGGA,151447.00,,,,,0,00,,,M,,M,,*4A
$PTNL,GGK,151447.00,010125,4742.4471248,N,01617.9736196,E,1,21,1.4,EHT669.3220,M*4D
$GPGGQ,151447.00,010125,4742.4471248,N,01617.9736196,E,1,21,7.537,626.1109,M*31
$GPGFA,151447.00,41.663,49.204,4.382,1.266,356.775,6.000,,VVV*01
$GPLLK,151447.00,010125,,M,,M,1,21,1.7,,M*0C
$GNGMP,151447.00,,,,,DAAA,21,0.7,,,,*50
$GPGMP,151447.00,,,,,,06,,,,1.8,123*70
$GLGMP,151447.00,,,,,,04,,,,,*79
$GAGMP,151447.00,,,,,,04,,,,,*74
$GBGMP,151447.00,,,,,,07,,,,,*74
$PSSN,SNC,[0,314105000,2347]*46
$GPZDA,151452.00,01,01,2025,,*65
$GPDTM,W84,,00.0000000,N,00.0000000,E,00.0000000,W84*5F
$GPRMC,151452.00,A,4742.4471194,N,01617.9736082,E,0.0,,010125,5.1,E,D*14
$GPGLL,4742.4471194,N,01617.9736082,E,151452.00,A,D*65
$GPGGA,151452.00,4742.4471194,N,01617.9736082,E,2,20,0.8,626.1306,M,43.2111,M,2.8,0123*4A
$GNGNS,151452.00,4742.4471194,N,01617.9736082,E,DAAA,20,0.8,626.1306,43.2111,,*5C
$GPGNS,151452.00,,,,,,06,,,,2.8,123*77
$GLGNS,151452.00,,,,,,04,,,,,*7D
$GAGNS,151452.00,,,,,,03,,,,,*77
$GBGNS,151452.00,,,,,,07,,,,,*70
$GPLLQ,151452.00,010125,,M,,M,1,20,8.389,,M*1F
$GPVTG,,T,,M,0.00,N,0.01,K,D*27
$GPHDT,,T*1B
$GPTHS,,V*0E
$GPROT,,V*08
$PSSN,HRP,151452.00,010125,,,,,,,00,0,,*67
$PTNL,AVR,151452.00,,Yaw,,Tilt,,,,0,,00*31
$GPGSA,A,3,11,25,26,28,29,31,,,,,,,1.5,0.8,1.2*3D
$GPGSA,A,3,78,79,81,88,,,,,,,,,1.5,0.8,1.2*35
$GPGSA,A,3,27,30,34,,,,,,,,,,1.5,0.8,1.2*3C
$GPGSA,A,3,11,12,23,24,25,34,44,,,,,,1.5,0.8,1.2*39
$GPGST,151452.00,4.352,4.950,1.242,356.773,4.943,1.271,6.658*5D
$GPGBS,151452.00,15.434,4.880,22.189,26,0.0001,11.367,3.670*6F
$GPGRS,151452.00,1,2.7,-0.5,11.4,-0.8,-0.3,-1.2,,,,,,*74
$GPGRS,151452.00,1,-1.1,3.0,-1.8,-1.3,,,,,,,,*6D
$GPGRS,151452.00,1,0.1,6.0,-0.2,,,,,,,,,*4E
$GPGRS,151452.00,1,6.2,2.3,-1.9,-1.0,-0.1,-1.1,2.4,,,,,*6D
$GPGSV,4,1,16,25,74,095,46,18,13,186,23,26,10,295,36,20,16,080,*77
$GPGSV,4,2,16,11,31,052,41,31,30,310,43,12,33,102,35,28,51,285,44*7B
$GPGSV,4,3,16,29,74,242,44,06,03,029,,05,05,112,,32,08,242,27*71
$GPGSV,4,4,16,36,35,170,36,34,31,208,35,49,34,195,37,61,03,257,*70
$GLGSV,3,1,10,88,68,060,42,70,10,324,30,87,12,031,,79,58,324,48*6C
$GLGSV,3,2,10,81,47,194,48,78,62,117,46,80,06,313,25,82,02,204,*67
$GLGSV,3,3,10,77,05,129,,71,06,009,*62
$GAGSV,3,1,11,27,65,302,45,36,14,034,20,21,13,289,27,29,19,262,25*6C
$GAGSV,3,2,11,19,17,308,34,15,39,157,31,34,49,080,45,30,57,095,37*6E
$GAGSV,3,3,11,18,06,063,,02,06,105,,07,02,214,*50
$GBGSV,5,1,17,25,79,244,49,05,20,130,,43,26,212,,23,31,306,47*6D
$GBGSV,5,2,17,10,11,074,,56,17,060,,24,36,141,37,13,21,090,*60
$GBGSV,5,3,17,38,22,067,32,11,49,202,41,08,21,082,,44,42,056,46*6E
$GBGSV,5,4,17,34,73,176,52,12,66,073,42,20,01,347,,02,05,108,*64
$GBGSV,5,5,17,60,09,110,*52
$GPGGA,151452.00,,,,,0,00,,,M,,M,,*4E
$PTNL,GGK,151452.00,010125,4742.4471194,N,01617.9736082,E,1,20,1.5,EHT669.3416,M*4C
$GPGGQ,151452.00,010125,4742.4471194,N,01617.9736082,E,1,20,8.389,626.1306,M*33
$GPGFA,151452.00,47.068,54.596,4.950,1.242,356.773,6.658,,VVV*00
$GPLLK,151452.00,010125,,M,,M,1,20,1.7,,M*09
$GNGMP,151452.00,,,,,DAAA,20,0.8,,,,*5A
$GPGMP,151452.00,,,,,,06,,,,2.8,123*77
$GLGMP,151452.00,,,,,,04,,,,,*7D
$GAGMP,151452.00,,,,,,03,,,,,*77
$GBGMP,151452.00,,,,,,07,,,,,*70
$PSSN,SNC,[0,314110000,2347]*42
$GPZDA,151457.00,01,01,2025,,*60
$GPDTM,W84,,00.0000000,N,00.0000000,E,00.0000000,W84*5F
$GPRMC,151457.00,A,4742.4471179,N,01617.9735973,E,0.0,,010125,5.1,E,D*16
$GPGLL,4742.4471179,N,01617.9735973,E,151457.00,A,D*67
$GPGGA,151457.00,4742.4471179,N,01617.9735973,E,2,19,0.8,626.1527,M,43.2111,M,2.4,0123*4B
$GNGNS,151457.00,4742.4471179,N,01617.9735973,E,DAAA,19,0.8,626.1527,43.2111,,*51
$GPGNS,151457.00,,,,,,05,,,,2.4,123*7D
$GLGNS,151457.00,,,,,,04,,,,,*78
$GAGNS,151457.00,,,,,,03,,,,,*72
$GBGNS,151457.00,,,,,,07,,,,,*75
$GPLLQ,151457.00,010125,,M,,M,1,19,7.074,,M*1E
$GPVTG,,T,,M,0.00,N,0.01,K,D*27
$GPHDT,,T*1B
$GPTHS,,V*0E
$GPROT,,V*08
$PSSN,HRP,151457.00,010125,,,,,,,00,0,,*62
$PTNL,AVR,151457.00,,Yaw,,Tilt,,,,0,,00*34
$GPGSA,A,3,11,25,28,29,31,,,,,,,,1.7,0.8,1.5*3C
$GPGSA,A,3,78,79,81,88,,,,,,,,,1.7,0.8,1.5*30
$GPGSA,A,3,27,30,34,,,,,,,,,,1.7,0.8,1.5*39
$GPGSA,A,3,11,12,23,24,25,34,44,,,,,,1.7,0.8,1.5*3C
$GPGST,151457.00,3.331,4.000,0.891,358.157,3.998,0.899,5.766*5E
$GPGBS,151457.00,20.830,4.838,28.372,11,0.0001,2.525,1.283*57
$GPGRS,151457.00,1,2.5,-0.7,0.2,-0.1,-1.4,,,,,,,*48
$GPGRS,151457.00,1,-1.7,3.2,-0.4,-1.5,,,,,,,,*67
$GPGRS,151457.00,1,0.1,6.1,-0.3,,,,,,,,,*4B
$GPGRS,151457.00,1,7.0,3.6,-2.2,-0.6,0.2,-0.9,2.0,,,,,*43
$GPGSV,4,1,16,25,74,095,45,18,13,186,22,26,10,295,33,20,16,080,*70
$GPGSV,4,2,16,11,31,052,41,31,30,309,42,12,33,102,34,28,51,285,44*73
$GPGSV,4,3,16,29,74,242,44,06,03,029,,05,05,112,,32,08,242,28*7E
$GPGSV,4,4,16,36,35,170,36,34,31,208,35,49,34,195,37,61,03,257,*70
$GLGSV,3,1,10,88,68,060,43,70,10,324,30,87,12,031,,79,58,324,48*6D
$GLGSV,3,2,10,81,48,194,49,78,62,117,45,80,06,313,,82,02,204,*6D
$GLGSV,3,3,10,77,05,129,,71,06,008,*63
$GAGSV,3,1,11,27,65,302,45,36,14,034,22,21,13,289,29,29,19,262,35*61
$GAGSV,3,2,11,19,17,308,34,15,39,157,30,34,49,079,45,30,57,095,38*66
$GAGSV,3,3,11,18,06,063,,02,06,105,,07,02,214,*50
$GBGSV,5,1,17,25,79,244,49,05,20,130,,43,26,212,,23,31,306,47*6D
$GBGSV,5,2,17,10,11,074,,56,17,060,,24,36,141,38,13,21,090,*6F
$GBGSV,5,3,17,38,22,067,32,11,49,202,42,08,21,082,,44,42,056,47*6C
$GBGSV,5,4,17,34,73,176,52,12,66,073,42,20,01,347,,02,05,108,*64
$GBGSV,5,5,17,60,09,110,*52
$GPGGA,151457.00,,,,,0,00,,,M,,M,,*4B
$PTNL,GGK,151457.00,010125,4742.4471179,N,01617.9735973,E,1,19,1.7,EHT669.3637,M*47
$GPGGQ,151457.00,010125,4742.4471179,N,01617.9735973,E,1,19,7.074,626.1527,M*30
$GPGFA,151457.00,38.031,47.279,4.000,0.891,358.157,5.766,,VVV*0D
$GPLLK,151457.00,010125,,M,,M,1,19,2.1,,M*03
$GNGMP,151457.00,,,,,DAAA,19,0.8,,,,*55
$GPGMP,151457.00,,,,,,05,,,,2.4,123*7D
$GLGMP,151457.00,,,,,,04,,,,,*78
$GAGMP,151457.00,,,,,,03,,,,,*72
$GBGMP,151457.00,,,,,,07,,,,,*75
$PSSN,SNC,[0,314115000,2347]*47
$GPZDA,151502.00,01,01,2025,,*61
$GPDTM,W84,,00.0000000,N,00.0000000,E,00.0000000,W84*5F
$GPRMC,151502.00,A,4742.4471130,N,01617.9735891,E,0.0,,010125,5.1,E,D*17
$GPGLL,4742.4471130,N,01617.9735891,E,151502.00,A,D*66
$GPGGA,151502.00,4742.4471130,N,01617.9735891,E,2,19,0.8,626.1573,M,43.2111,M,2.6,0123*49
$GNGNS,151502.00,4742.4471130,N,01617.9735891,E,DAAA,19,0.8,626.1573,43.2111,,*51
$GPGNS,151502.00,,,,,,05,,,,2.6,123*7E
$GLGNS,151502.00,,,,,,04,,,,,*79
$GAGNS,151502.00,,,,,,03,,,,,*73
$GBGNS,151502.00,,,,,,07,,,,,*74
$GPLLQ,151502.00,010125,,M,,M,1,19,5.792,,M*12
$GPVTG,,T,,M,0.00,N,0.01,K,D*27
$GPHDT,,T*1B
$GPTHS,,V*0E
$GPROT,,V*08
$PSSN,HRP,151502.00,010125,,,,,,,00,0,,*63
$PTNL,AVR,151502.00,,Yaw,,Tilt,,,,0,,00*35
$GPGSA,A,3,11,25,28,29,31,,,,,,,,1.7,0.8,1.5*3C
$GPGSA,A,3,78,79,81,88,,,,,,,,,1.7,0.8,1.5*30
$GPGSA,A,3,27,30,34,,,,,,,,,,1.7,0.8,1.5*39
$GPGSA,A,3,11,12,23,24,25,34,44,,,,,,1.7,0.8,1.5*3C
$GPGST,151502.00,2.352,3.270,0.729,358.189,3.269,0.736,4.724*5E
$GPGBS,151502.00,20.939,4.800,28.475,11,0.0001,2.092,1.259*5B
$GPGRS,151502.00,1,2.1,-0.4,0.3,-0.2,-0.8,,,,,,,*41
$GPGRS,151502.00,1,-1.6,1.7,1.0,-1.1,,,,,,,,*4C
$GPGRS,151502.00,1,-0.2,5.6,-0.6,,,,,,,,,*65
$GPGRS,151502.00,1,3.4,0.8,-2.4,0.1,0.1,-1.6,1.2,,,,,*6F
$GPGSV,4,1,16,25,74,095,45,18,13,186,,26,11,295,22,20,16,080,*71
$GPGSV,4,2,16,11,31,052,40,31,30,309,41,12,33,102,32,28,51,285,42*71
$GPGSV,4,3,16,29,74,242,46,06,03,029,,05,05,112,,32,08,242,26*72
$GPGSV,4,4,16,36,35,170,36,34,31,208,35,49,34,195,37,61,03,257,*70
$GLGSV,3,1,10,88,68,059,45,79,58,324,48,87,12,031,,78,62,117,47*6E
$GLGSV,3,2,10,81,48,194,49,80,06,313,35,71,06,008,30,82,02,204,*6D
$GLGSV,3,3,10,77,04,129,,70,10,324,29*62
$GAGSV,3,1,11,27,65,302,46,36,14,034,20,21,13,289,32,29,19,262,36*69
$GAGSV,3,2,11,19,17,308,34,15,39,157,31,34,49,079,45,30,57,095,37*68
$GAGSV,3,3,11,18,06,063,,02,06,105,,07,02,214,*50
$GBGSV,5,1,17,25,79,244,50,05,20,130,,43,26,212,,23,31,306,46*64
$GBGSV,5,2,17,10,11,074,,56,17,060,,24,35,141,37,13,21,090,*63
$GBGSV,5,3,17,38,22,067,31,11,49,202,42,08,22,082,,44,42,056,47*6C
$GBGSV,5,4,17,34,73,176,52,12,66,073,42,20,01,347,,02,05,108,*64
$GBGSV,5,5,17,60,09,110,*52
$GPGGA,151502.00,,,,,0,00,,,M,,M,,*4A
$PTNL,GGK,151502.00,010125,4742.4471130,N,01617.9735891,E,1,19,1.7,EHT669.3683,M*49
$GPGGQ,151502.00,010125,4742.4471130,N,01617.9735891,E,1,19,5.792,626.1573,M*3D
$GPGFA,151502.00,31.092,38.741,3.270,0.729,358.189,4.724,,VVV*00
$GPLLK,151502.00,010125,,M,,M,1,19,2.1,,M*02
$GNGMP,151502.00,,,,,DAAA,19,0.8,,,,*54
$GPGMP,151502.00,,,,,,05,,,,2.6,123*7E
$GLGMP,151502.00,,,,,,04,,,,,*79
$GAGMP,151502.00,,,,,,03,,,,,*73
$GBGMP,151502.00,,,,,,07,,,,,*74
$PSSN,SNC,[0,314120000,2347]*41
$GPZDA,151507.00,01,01,2025,,*64
$GPDTM,W84,,00.0000000,N,00.0000000,E,00.0000000,W84*5F
$GPRMC,151507.00,A,4742.4471070,N,01617.9735751,E,0.0,,010125,5.1,E,D*14
$GPGLL,4742.4471070,N,01617.9735751,E,151507.00,A,D*65
$GPGGA,151507.00,4742.4471070,N,01617.9735751,E,2,20,0.8,626.1537,M,43.2111,M,2.0,0123*46
$GNGNS,151507.00,4742.4471070,N,01617.9735751,E,DAAA,20,0.8,626.1537,43.2111,,*58
$GPGNS,151507.00,,,,,,05,,,,2.0,123*7D
$GLGNS,151507.00,,,,,,05,,,,,*7D
$GAGNS,151507.00,,,,,,03,,,,,*76
$GBGNS,151507.00,,,,,,07,,,,,*71
$GPLLQ,151507.00,010125,,M,,M,1,20,7.065,,M*10
$GPVTG,,T,,M,0.01,N,0.01,K,D*26
$GPHDT,,T*1B
$GPTHS,,V*0E
$GPROT,,V*08
$PSSN,HRP,151507.00,010125,,,,,,,00,0,,*66
$PTNL,AVR,151507.00,,Yaw,,Tilt,,,,0,,00*30
$GPGSA,A,3,11,25,28,29,31,,,,,,,,1.4,0.8,1.2*38
$GPGSA,A,3,78,79,80,81,88,,,,,,,,1.4,0.8,1.2*3C
$GPGSA,A,3,27,30,34,,,,,,,,,,1.4,0.8,1.2*3D
$GPGSA,A,3,11,12,23,24,25,34,44,,,,,,1.4,0.8,1.2*38
$GPGST,151507.00,2.006,4.005,0.888,358.172,4.003,0.896,5.752*52
$GPGBS,151507.00,20.897,4.750,28.227,11,0.0001,2.804,1.269*54
$GPGRS,151507.00,1,2.8,-0.3,-1.5,0.2,-1.0,,,,,,,*44
$GPGRS,151507.00,1,0.0,0.6,-3.6,1.9,0.3,,,,,,,*42
$GPGRS,151507.00,1,0.1,3.9,-0.1,,,,,,,,,*40
$GPGRS,151507.00,1,0.4,-0.3,-1.9,-0.9,0.2,-1.9,0.5,,,,,*6E
$GPGSV,4,1,16,25,74,095,46,18,13,186,,26,11,295,,20,16,080,*72
$GPGSV,4,2,16,11,31,052,38,31,30,309,40,12,33,102,28,28,51,285,39*78
$GPGSV,4,3,16,29,74,242,48,06,03,029,,05,05,112,,32,08,242,*78
$GPGSV,4,4,16,36,35,170,36,34,31,208,35,49,34,195,37,61,03,257,*70
$GLGSV,3,1,10,88,68,059,45,79,58,324,47,87,12,031,23,78,62,117,48*6F
$GLGSV,3,2,10,81,48,194,49,80,07,313,37,71,06,008,,82,02,204,*6D
$GLGSV,3,3,10,77,04,129,,70,10,324,27*6C
$GAGSV,3,1,11,27,65,302,46,36,14,034,22,21,13,289,34,29,19,262,36*6D
$GAGSV,3,2,11,19,17,308,34,15,39,157,31,34,49,079,44,30,57,095,36*68
$GAGSV,3,3,11,18,06,063,,02,06,105,,07,02,214,*50
$GBGSV,5,1,17,25,79,243,50,05,20,130,,43,26,212,,23,31,306,45*60
$GBGSV,5,2,17,10,11,074,,56,17,060,,24,35,141,37,13,21,090,*63
$GBGSV,5,3,17,38,22,067,30,11,49,202,43,08,22,082,,44,42,056,47*6C
$GBGSV,5,4,17,34,73,176,51,12,66,073,42,20,01,347,,02,05,108,*67
$GBGSV,5,5,17,60,09,110,*52
$GPGGA,151507.00,,,,,0,00,,,M,,M,,*4F
$PTNL,GGK,151507.00,010125,4742.4471070,N,01617.9735751,E,1,20,1.4,EHT669.3648,M*44
$GPGGQ,151507.00,010125,4742.4471070,N,01617.9735751,E,1,20,7.065,626.1537,M*39
$GPGFA,151507.00,38.075,47.164,4.005,0.888,358.172,5.752,,VVV*0B
$GPLLK,151507.00,010125,,M,,M,1,20,1.7,,M*08
$GNGMP,151507.00,,,,,DAAA,20,0.8,,,,*5B
$GPGMP,151507.00,,,,,,05,,,,2.0,123*7D
$GLGMP,151507.00,,,,,,05,,,,,*7D
$GAGMP,151507.00,,,,,,03,,,,,*76
$GBGMP,151507.00,,,,,,07,,,,,*71
$PSSN,SNC,[0,314125000,2347]*44
$GPZDA,151512.00,01,01,2025,,*60
$GPDTM,W84,,00.0000000,N,00.0000000,E,00.0000000,W84*5F
$GPRMC,151512.00,A,4742.4471053,N,01617.9735546,E,0.0,,010125,5.1,E,D*15
$GPGLL,4742.4471053,N,01617.9735546,E,151512.00,A,D*64
$GPGGA,151512.00,4742.4471053,N,01617.9735546,E,2,21,0.8,626.1544,M,43.2111,M,3.0,0123*43
$GNGNS,151512.00,4742.4471053,N,01617.9735546,E,DAAA,21,0.8,626.1544,43.2111,,*5C
$GPGNS,151512.00,,,,,,05,,,,3.0,123*78
$GLGNS,151512.00,,,,,,05,,,,,*79
$GAGNS,151512.00,,,,,,04,,,,,*75
$GBGNS,151512.00,,,,,,07,,,,,*75
$GPLLQ,151512.00,010125,,M,,M,1,21,8.260,,M*1D
$GPVTG,,T,,M,0.00,N,0.00,K,D*26
$GPHDT,,T*1B
$GPTHS,,V*0E
$GPROT,,V*08
$PSSN,HRP,151512.00,010125,,,,,,,00,0,,*62
$PTNL,AVR,151512.00,,Yaw,,Tilt,,,,0,,00*34
$GPGSA,A,3,11,25,28,29,31,,,,,,,,1.4,0.8,1.1*3B
$GPGSA,A,3,78,79,80,81,88,,,,,,,,1.4,0.8,1.1*3F
$GPGSA,A,3,21,27,30,34,,,,,,,,,1.4,0.8,1.1*3D
$GPGSA,A,3,11,12,23,24,25,34,44,,,,,,1.4,0.8,1.1*3B
$GPGST,151512.00,1.923,4.727,1.073,357.685,4.724,1.089,6.688*51
$GPGBS,151512.00,19.444,4.808,25.768,28,0.0001,-2.866,0.969*70
$GPGRS,151512.00,1,2.5,0.3,-2.9,0.5,-1.1,,,,,,,*69
$GPGRS,151512.00,1,0.4,1.1,1.5,2.8,-0.0,,,,,,,*44
$GPGRS,151512.00,1,2.7,0.3,2.3,0.1,,,,,,,,*4B
$GPGRS,151512.00,1,1.7,0.9,-0.6,-1.9,0.8,-1.7,-0.1,,,,,*6D
$GPGSV,4,1,16,25,74,095,46,18,13,186,26,26,11,295,21,20,16,080,*75
$GPGSV,4,2,16,11,31,052,37,31,30,309,38,12,33,102,23,28,51,285,36*7C
$GPGSV,4,3,16,29,74,242,48,06,03,029,,05,05,112,,32,08,242,24*7E
$GPGSV,4,4,16,36,35,170,36,34,31,208,35,49,34,195,37,61,03,257,*70
$GLGSV,3,1,10,88,68,059,44,79,58,324,48,87,12,031,,78,62,117,46*6E
$GLGSV,3,2,10,81,48,194,50,80,07,313,37,71,06,008,,82,02,204,*65
$GLGSV,3,3,10,77,04,129,,70,10,324,*69
$GAGSV,3,1,11,27,65,302,46,36,14,034,20,21,13,289,36,29,19,262,33*68
$GAGSV,3,2,11,19,17,308,35,15,39,157,33,34,49,079,44,30,57,095,36*6B
$GAGSV,3,3,11,18,06,063,,02,06,105,,07,02,214,*50
$GBGSV,5,1,17,25,79,243,51,05,20,130,,43,26,212,,23,31,306,45*61
$GBGSV,5,2,17,10,11,074,,56,17,060,,24,35,141,37,13,21,090,*63
$GBGSV,5,3,17,38,22,067,29,11,49,202,44,08,22,082,,44,42,056,46*62
$GBGSV,5,4,17,34,73,176,50,12,66,073,43,20,01,347,,02,05,108,*67
$GBGSV,5,5,17,60,09,110,*52
$GPGGA,151512.00,,,,,0,00,,,M,,M,,*4B
$PTNL,GGK,151512.00,010125,4742.4471053,N,01617.9735546,E,1,21,1.4,EHT669.3654,M*49
$GPGGQ,151512.00,010125,4742.4471053,N,01617.9735546,E,1,21,8.260,626.1544,M*35
$GPGFA,151512.00,44.945,54.842,4.727,1.073,357.685,6.688,,VVV*0E
$GPLLK,151512.00,010125,,M,,M,1,21,1.6,,M*0C
$GNGMP,151512.00,,,,,DAAA,21,0.8,,,,*5E
$GPGMP,151512.00,,,,,,05,,,,3.0,123*78
$GLGMP,151512.00,,,,,,05,,,,,*79
$GAGMP,151512.00,,,,,,04,,,,,*75
$GBGMP,151512.00,,,,,,07,,,,,*75
$PSSN,SNC,[0,314130000,2347]*40
$GPZDA,151517.00,01,01,2025,,*65
$GPDTM,W84,,00.0000000,N,00.0000000,E,00.0000000,W84*5F
$GPRMC,151517.00,A,4742.4471045,N,01617.9735423,E,0.0,,010125,5.1,E,D*15
$GPGLL,4742.4471045,N,01617.9735423,E,151517.00,A,D*64
$GPGGA,151517.00,4742.4471045,N,01617.9735423,E,2,18,0.9,626.1517,M,43.2111,M,1.7,0123*4B
$GNGNS,151517.00,4742.4471045,N,01617.9735423,E,DAAA,18,0.9,626.1517,43.2111,,*51
$GPGNS,151517.00,,,,,,03,,,,1.7,123*7E
$GLGNS,151517.00,,,,,,05,,,,,*7C
$GAGNS,151517.00,,,,,,03,,,,,*77
$GBGNS,151517.00,,,,,,07,,,,,*70
$GPLLQ,151517.00,010125,,M,,M,1,18,6.077,,M*18
$GPVTG,,T,,M,0.01,N,0.02,K,D*25
$GPHDT,,T*1B
$GPTHS,,V*0E
$GPROT,,V*08
$PSSN,HRP,151517.00,010125,,,,,,,00,0,,*67
$PTNL,AVR,151517.00,,Yaw,,Tilt,,,,0,,00*31
$GPGSA,A,3,25,29,31,,,,,,,,,,1.5,0.9,1.2*32
$GPGSA,A,3,78,79,80,81,88,,,,,,,,1.5,0.9,1.2*3C
$GPGSA,A,3,21,27,34,,,,,,,,,,1.5,0.9,1.2*3D
$GPGSA,A,3,11,12,23,24,25,34,44,,,,,,1.5,0.9,1.2*38
$GPGST,151517.00,2.890,2.928,1.376,352.078,2.907,1.422,5.144*56
$GPGBS,151517.00,20.149,10.556,35.468,31,0.0001,-0.985,1.303*47
$GPGRS,151517.00,1,-0.0,-0.0,-1.0,,,,,,,,,*4A
$GPGRS,151517.00,1,-1.8,1.7,4.4,3.8,0.4,,,,,,,*4B
$GPGRS,151517.00,1,4.4,0.2,-0.4,,,,,,,,,*4D
$GPGRS,151517.00,1,3.5,2.5,-0.2,-2.8,0.4,-1.8,-1.4,,,,,*67
$GPGSV,4,1,16,25,74,095,45,18,13,186,26,26,11,295,25,20,16,080,*72
$GPGSV,4,2,16,11,31,052,34,31,31,309,38,12,33,102,31,28,51,285,34*7F
$GPGSV,4,3,16,29,74,242,48,06,03,029,,05,05,112,,32,08,242,28*72
$GPGSV,4,4,16,36,35,170,36,34,31,208,35,49,34,195,37,61,03,257,*70
$GLGSV,3,1,10,88,68,059,45,79,58,324,48,87,12,031,25,78,62,117,46*68
$GLGSV,3,2,10,81,48,194,50,80,07,313,37,71,06,008,24,82,02,204,*63
$GLGSV,3,3,10,77,04,129,,70,10,324,28*63
$GAGSV,3,1,11,27,65,302,46,36,14,033,23,21,13,289,37,29,19,262,37*69
$GAGSV,3,2,11,19,17,308,35,15,39,157,35,34,49,079,44,30,57,095,35*6E
$GAGSV,3,3,11,18,06,063,,02,06,105,,07,02,214,*50
$GBGSV,5,1,17,25,79,243,51,05,20,130,,43,26,212,,23,31,306,44*60
$GBGSV,5,2,17,10,11,074,,56,17,060,,24,35,141,39,13,21,090,*6D
$GBGSV,5,3,17,38,22,067,27,11,49,202,45,08,22,082,,44,42,056,45*6E
$GBGSV,5,4,17,34,73,176,50,12,66,073,43,20,01,347,,02,05,108,*67
$GBGSV,5,5,17,60,09,110,*52
$GPGGA,151517.00,,,,,0,00,,,M,,M,,*4E
$PTNL,GGK,151517.00,010125,4742.4471045,N,01617.9735423,E,1,18,1.5,EHT669.3628,M*49
$GPGGQ,151517.00,010125,4742.4471045,N,01617.9735423,E,1,18,6.077,626.1517,M*33
$GPGFA,151517.00,27.841,42.181,2.928,1.376,352.078,5.144,,VVV*0E
$GPLLK,151517.00,010125,,M,,M,1,18,1.7,,M*02
$GNGMP,151517.00,,,,,DAAA,18,0.9,,,,*50
$GPGMP,151517.00,,,,,,03,,,,1.7,123*7E
$GLGMP,151517.00,,,,,,05,,,,,*7C
$GAGMP,151517.00,,,,,,03,,,,,*77
$GBGMP,151517.00,,,,,,07,,,,,*70
$PSSN,SNC,[0,314135000,2347]*45
$GPZDA,151522.00,01,01,2025,,*63
$GPDTM,W84,,00.0000000,N,00.0000000,E,00.0000000,W84*5F
$GPRMC,151522.00,A,4742.4471067,N,01617.9735379,E,0.0,,010125,5.1,E,D*1B
$GPGLL,4742.4471067,N,01617.9735379,E,151522.00,A,D*6A
$GPGGA,151522.00,4742.4471067,N,01617.9735379,E,2,19,0.8,626.1595,M,43.2111,M,2.7,0123*4C
$GNGNS,151522.00,4742.4471067,N,01617.9735379,E,DAAA,19,0.8,626.1595,43.2111,,*55
$GPGNS,151522.00,,,,,,03,,,,2.7,123*7B
$GLGNS,151522.00,,,,,,05,,,,,*7A
$GAGNS,151522.00,,,,,,04,,,,,*76
$GBGNS,151522.00,,,,,,07,,,,,*76
$GPLLQ,151522.00,010125,,M,,M,1,19,5.118,,M*14
$GPVTG,,T,,M,0.01,N,0.01,K,D*26
$GPHDT,,T*1B
$GPTHS,,V*0E
$GPROT,,V*08
$PSSN,HRP,151522.00,010125,,,,,,,00,0,,*61
$PTNL,AVR,151522.00,,Yaw,,Tilt,,,,0,,00*37
$GPGSA,A,3,25,29,31,,,,,,,,,,1.4,0.8,1.1*31
$GPGSA,A,3,78,79,80,81,88,,,,,,,,1.4,0.8,1.1*3F
$GPGSA,A,3,15,21,27,34,,,,,,,,,1.4,0.8,1.1*3A
$GPGSA,A,3,11,12,23,24,25,34,44,,,,,,1.4,0.8,1.1*3B
$GPGST,151522.00,4.276,2.426,1.348,354.592,2.418,1.361,4.300*5D
$GPGBS,151522.00,18.391,10.343,33.441,21,0.0001,10.163,7.711*5E
$GPGRS,151522.00,1,0.0,-0.1,-0.7,,,,,,,,,*66
$GPGRS,151522.00,1,-0.5,1.5,7.8,3.0,1.4,,,,,,,*45
$GPGRS,151522.00,1,2.4,10.2,0.6,0.2,,,,,,,,*7F
$GPGRS,151522.00,1,4.2,3.6,0.5,-0.9,0.4,-1.1,-1.4,,,,,*43
$GPGSV,4,1,16,25,74,096,44,18,13,186,28,26,11,295,,20,16,080,*79
$GPGSV,4,2,16,11,31,052,30,31,31,309,39,12,33,103,29,28,51,285,35*73
$GPGSV,4,3,16,29,74,243,48,06,03,029,,05,05,112,,32,08,242,28*73
$GPGSV,4,4,16,36,35,170,36,34,31,208,36,49,34,195,37,61,03,257,*73
$GLGSV,3,1,10,88,68,059,46,79,58,324,47,87,12,031,22,78,62,117,48*6D
$GLGSV,3,2,10,81,48,194,48,80,07,313,38,71,06,008,,82,03,204,*62
$GLGSV,3,3,10,77,04,129,,70,10,324,*69
$GAGSV,3,1,11,27,65,303,46,36,14,033,23,21,13,289,38,29,19,262,33*63
$GAGSV,3,2,11,19,17,308,34,15,39,157,37,34,49,079,44,30,57,095,34*6C
$GAGSV,3,3,11,18,06,063,,02,06,105,,07,02,214,*50
$GBGSV,5,1,17,25,79,243,51,05,20,130,,43,26,212,,23,31,306,43*67
$GBGSV,5,2,17,10,11,074,,56,17,060,,24,35,141,41,13,21,090,*62
$GBGSV,5,3,17,38,22,067,26,11,49,202,45,08,22,082,,44,42,056,43*69
$GBGSV,5,4,17,34,73,176,50,12,66,073,43,20,01,347,,02,05,108,*67
$GBGSV,5,5,17,60,09,110,*52
$GPGGA,151522.00,,,,,0,00,,,M,,M,,*48
$PTNL,GGK,151522.00,010125,4742.4471067,N,01617.9735379,E,1,19,1.4,EHT669.3706,M*4A
$GPGGQ,151522.00,010125,4742.4471067,N,01617.9735379,E,1,19,5.118,626.1595,M*3D
$GPGFA,151522.00,23.065,35.261,2.426,1.348,354.592,4.300,,VVV*05
$GPLLK,151522.00,010125,,M,,M,1,19,1.6,,M*04
$GNGMP,151522.00,,,,,DAAA,19,0.8,,,,*56
$GPGMP,151522.00,,,,,,03,,,,2.7,123*7B
$GLGMP,151522.00,,,,,,05,,,,,*7A
$GAGMP,151522.00,,,,,,04,,,,,*76
$GBGMP,151522.00,,,,,,07,,,,,*76
$PSSN,SNC,[0,314140000,2347]*47
$GPZDA,151527.00,01,01,2025,,*66
$GPDTM,W84,,00.0000000,N,00.0000000,E,00.0000000,W84*5F
$GPRMC,151527.00,A,4742.4471097,N,01617.9735367,E,0.0,,010125,5.1,E,D*1E
$GPGLL,4742.4471097,N,01617.9735367,E,151527.00,A,D*6F
$GPGGA,151527.00,4742.4471097,N,01617.9735367,E,2,20,0.8,626.1617,M,43.2111,M,2.0,0123*4D
$GNGNS,151527.00,4742.4471097,N,01617.9735367,E,DAAA,20,0.8,626.1617,43.2111,,*53
$GPGNS,151527.00,,,,,,04,,,,2.0,123*7E
$GLGNS,151527.00,,,,,,05,,,,,*7F
$GAGNS,151527.00,,,,,,04,,,,,*73
$GBGNS,151527.00,,,,,,07,,,,,*73
$GPLLQ,151527.00,010125,,M,,M,1,20,8.680,,M*10
$GPVTG,,T,,M,0.01,N,0.02,K,D*25
$GPHDT,,T*1B
$GPTHS,,V*0E
$GPROT,,V*08
$PSSN,HRP,151527.00,010125,,,,,,,00,0,,*64
$PTNL,AVR,151527.00,,Yaw,,Tilt,,,,0,,00*32
$GPGSA,A,3,25,28,29,31,,,,,,,,,1.4,0.8,1.1*3B
$GPGSA,A,3,78,79,80,81,88,,,,,,,,1.4,0.8,1.1*3F
$GPGSA,A,3,15,21,27,34,,,,,,,,,1.4,0.8,1.1*3A
$GPGSA,A,3,11,12,23,24,25,34,44,,,,,,1.4,0.8,1.1*3B
$GPGST,151527.00,7.441,4.195,1.985,356.672,4.189,1.997,7.335*5B
$GPGBS,151527.00,18.308,8.807,32.499,21,0.0001,19.290,7.711*6B
$GPGRS,151527.00,1,-0.2,-2.0,1.0,0.3,,,,,,,,*49
$GPGRS,151527.00,1,2.3,1.8,16.6,0.2,2.8,,,,,,,*54
$GPGRS,151527.00,1,2.9,19.3,1.1,1.0,,,,,,,,*7A
$GPGRS,151527.00,1,4.4,3.8,1.4,1.6,0.8,0.2,0.3,,,,,*65
$GPGSV,4,1,16,25,74,096,42,18,13,186,28,26,11,295,26,20,16,080,*7B
$GPGSV,4,2,16,11,31,052,26,31,31,309,40,12,33,103,34,28,51,284,38*7A
$GPGSV,4,3,16,29,74,243,49,06,03,029,,05,05,112,,32,08,242,23*79
$GPGSV,4,4,16,36,35,170,37,34,31,208,35,49,34,195,37,61,03,257,*71
$GLGSV,3,1,10,88,68,059,47,79,58,324,48,87,12,031,20,78,62,118,49*6F
$GLGSV,3,2,10,81,48,194,46,80,07,313,36,71,06,008,26,82,03,205,*67
$GLGSV,3,3,10,77,04,130,,70,10,324,27*64
$GAGSV,3,1,12,27,65,303,47,36,14,033,22,21,13,289,37,29,19,262,34*68
$GAGSV,3,2,12,19,17,308,34,15,39,157,39,34,49,079,44,30,57,095,34*61
$GAGSV,3,3,12,18,06,063,,02,06,105,,13,00,190,,07,02,214,*69
$GBGSV,5,1,17,25,79,243,52,05,20,130,,43,26,212,,23,31,306,42*65
$GBGSV,5,2,17,10,11,074,,56,17,060,,24,35,141,42,13,21,090,*61
$GBGSV,5,3,17,38,22,067,25,11,49,202,46,08,22,082,,44,42,056,42*68
$GBGSV,5,4,17,34,73,175,50,12,66,073,43,20,01,347,,02,05,108,*64
$GBGSV,5,5,17,60,09,110,*52
$GPGGA,151527.00,,,,,0,00,,,M,,M,,*4D
$PTNL,GGK,151527.00,010125,4742.4471097,N,01617.9735367,E,1,20,1.4,EHT669.3728,M*49
$GPGGQ,151527.00,010125,4742.4471097,N,01617.9735367,E,1,20,8.680,626.1617,M*30
$GPGFA,151527.00,39.883,60.146,4.195,1.985,356.672,7.335,,VVV*07
$GPLLK,151527.00,010125,,M,,M,1,20,1.6,,M*0B
$GNGMP,151527.00,,,,,DAAA,20,0.8,,,,*59
$GPGMP,151527.00,,,,,,04,,,,2.0,123*7E
$GLGMP,151527.00,,,,,,05,,,,,*7F
$GAGMP,151527.00,,,,,,04,,,,,*73
$GBGMP,151527.00,,,,,,07,,,,,*73
$PSSN,SNC,[0,314145000,2347]*42
$GPZDA,151532.00,01,01,2025,,*62
$GPDTM,W84,,00.0000000,N,00.0000000,E,00.0000000,W84*5F
$GPRMC,151532.00,A,4742.4471130,N,01617.9735376,E,0.0,,010125,5.1,E,D*16
$GPGLL,4742.4471130,N,01617.9735376,E,151532.00,A,D*67
$GPGGA,151532.00,4742.4471130,N,01617.9735376,E,2,23,0.7,626.1685,M,43.2111,M,3.0,0123*43
$GNGNS,151532.00,4742.4471130,N,01617.9735376,E,DAAA,23,0.7,626.1685,43.2111,,*5C
$GPGNS,151532.00,,,,,,05,,,,3.0,123*7A
$GLGNS,151532.00,,,,,,05,,,,,*7B
$GAGNS,151532.00,,,,,,06,,,,,*75
$GBGNS,151532.00,,,,,,07,,,,,*77
$GPLLQ,151532.00,010125,,M,,M,1,23,5.592,,M*1A
$GPVTG,,T,,M,0.01,N,0.02,K,D*25
$GPHDT,,T*1B
$GPTHS,,V*0E
$GPROT,,V*08
$PSSN,HRP,151532.00,010125,,,,,,,00,0,,*60
$PTNL,AVR,151532.00,,Yaw,,Tilt,,,,0,,00*36
$GPGSA,A,3,12,25,28,29,31,,,,,,,,1.2,0.7,1.0*30
$GPGSA,A,3,78,79,80,81,88,,,,,,,,1.2,0.7,1.0*37
$GPGSA,A,3,15,21,27,29,30,34,,,,,,,1.2,0.7,1.0*3A
$GPGSA,A,3,11,12,23,24,25,34,44,,,,,,1.2,0.7,1.0*33
$GPGST,151532.00,8.526,3.881,1.164,16.678,3.733,1.576,3.854*6A
$GPGBS,151532.00,8.906,4.784,12.431,21,0.0001,27.826,7.712*5B
$GPGRS,151532.00,1,0.7,-0.9,-0.3,1.0,-0.9,,,,,,,*49
$GPGRS,151532.00,1,2.0,1.8,-11.5,-1.2,2.2,,,,,,,*5C
$GPGRS,151532.00,1,1.9,27.8,0.5,14.3,-3.2,0.4,,,,,,*61
$GPGRS,151532.00,1,3.3,1.8,1.4,1.8,0.1,-0.0,1.0,,,,,*49
$GPGSV,4,1,16,25,74,096,40,18,13,186,29,26,11,295,28,20,16,080,*76
$GPGSV,4,2,16,11,31,052,32,31,31,309,41,12,33,103,36,28,51,284,40*73
$GPGSV,4,3,16,29,74,243,49,06,03,029,,05,05,112,,32,08,242,23*79
$GPGSV,4,4,16,36,35,170,36,34,31,208,35,49,34,195,37,61,03,257,*70
$GLGSV,3,1,10,88,68,059,48,79,59,324,48,87,12,031,22,78,62,118,49*63
$GLGSV,3,2,10,81,48,194,44,80,07,313,38,71,06,008,,82,03,205,*6F
$GLGSV,3,3,10,77,04,130,,70,10,324,28*6B
$GAGSV,3,1,12,27,65,303,47,36,14,033,24,21,13,289,36,29,19,262,36*6D
$GAGSV,3,2,12,19,17,308,32,15,39,157,40,34,49,079,44,30,57,096,36*68
$GAGSV,3,3,12,18,06,063,,02,06,105,,13,00,190,,07,02,214,*69
$GBGSV,5,1,17,25,79,242,52,05,20,130,,43,26,212,,23,31,306,41*67
$GBGSV,5,2,17,10,11,074,,56,17,060,,24,35,141,43,13,21,090,*60
$GBGSV,5,3,17,38,22,067,24,11,49,202,46,08,22,082,,44,42,056,41*6A
$GBGSV,5,4,17,34,73,175,50,12,66,073,43,20,01,347,,02,05,108,*64
$GBGSV,5,5,17,60,09,110,*52
$GPGGA,151532.00,,,,,0,00,,,M,,M,,*49
$PTNL,GGK,151532.00,010125,4742.4471130,N,01617.9735376,E,1,23,1.2,EHT669.3795,M*42
$GPGGQ,151532.00,010125,4742.4471130,N,01617.9735376,E,1,23,5.592,626.1685,M*3D
$GPGFA,151532.00,36.902,31.600,3.881,1.164,16.678,3.854,,VVV*3C
$GPLLK,151532.00,010125,,M,,M,1,23,1.4,,M*0E
$GNGMP,151532.00,,,,,DAAA,23,0.7,,,,*51
$GPGMP,151532.00,,,,,,05,,,,3.0,123*7A
$GLGMP,151532.00,,,,,,05,,,,,*7B
$GAGMP,151532.00,,,,,,06,,,,,*75
$GBGMP,151532.00,,,,,,07,,,,,*77
$PSSN,SNC,[0,314150000,2347]*46
$GPZDA,151537.00,01,01,2025,,*67
$GPDTM,W84,,00.0000000,N,00.0000000,E,00.0000000,W84*5F
$GPRMC,151537.00,A,4742.4471217,N,01617.9735365,E,0.0,,010125,5.1,E,D*17
$GPGLL,4742.4471217,N,01617.9735365,E,151537.00,A,D*66
$GPGGA,151537.00,4742.4471217,N,01617.9735365,E,2,22,0.7,626.1852,M,43.2111,M,2.7,0123*41
$GNGNS,151537.00,4742.4471217,N,01617.9735365,E,DAAA,22,0.7,626.1852,43.2111,,*58
$GPGNS,151537.00,,,,,,06,,,,2.7,123*7A
$GLGNS,151537.00,,,,,,04,,,,,*7F
$GAGNS,151537.00,,,,,,05,,,,,*73
$GBGNS,151537.00,,,,,,07,,,,,*72
$GPLLQ,151537.00,010125,,M,,M,1,22,3.013,,M*14
$GPVTG,,T,,M,0.00,N,0.01,K,D*27
$GPHDT,,T*1B
$GPTHS,,V*0E
$GPROT,,V*08
$PSSN,HRP,151537.00,010125,,,,,,,00,0,,*65
$PTNL,AVR,151537.00,,Yaw,,Tilt,,,,0,,00*33
$GPGSA,A,3,11,12,25,28,29,31,,,,,,,1.4,0.7,1.2*34
$GPGSA,A,3,78,79,81,88,,,,,,,,,1.4,0.7,1.2*3B
$GPGSA,A,3,15,27,29,30,34,,,,,,,,1.4,0.7,1.2*3D
$GPGSA,A,3,11,12,23,24,25,34,44,,,,,,1.4,0.7,1.2*37
$GPGST,151537.00,3.427,1.823,0.658,13.715,1.778,0.772,2.308*61
$GPGBS,151537.00,8.832,3.592,12.869,29,0.0001,12.052,6.876*52
$GPGRS,151537.00,1,-0.9,1.1,-0.5,0.3,0.7,-1.4,,,,,,*6A
$GPGRS,151537.00,1,1.2,1.7,-1.3,1.4,,,,,,,,*65
$GPGRS,151537.00,1,1.4,0.1,12.1,-1.9,0.3,,,,,,,*74
$GPGRS,151537.00,1,3.0,1.2,0.8,1.1,-0.4,-0.2,0.1,,,,,*6B
$GPGSV,4,1,16,25,74,096,40,18,13,186,29,26,11,295,29,20,16,080,*77
$GPGSV,4,2,16,11,31,052,36,31,31,309,42,12,33,103,36,28,51,284,42*76
$GPGSV,4,3,16,29,74,243,50,06,03,029,,05,05,112,,32,08,242,22*70
$GPGSV,4,4,16,36,35,170,36,34,31,208,35,49,34,195,37,61,03,257,*70
$GLGSV,3,1,10,88,68,059,48,79,59,324,48,87,12,031,24,78,62,118,49*65
$GLGSV,3,2,10,81,48,195,44,80,07,313,29,71,06,008,,82,03,205,*6E
$GLGSV,3,3,10,77,04,130,,70,10,324,26*65
$GAGSV,3,1,12,27,65,303,47,36,14,033,26,21,13,290,34,29,19,262,36*65
$GAGSV,3,2,12,19,17,308,31,15,40,157,42,34,49,079,45,30,57,096,37*67
$GAGSV,3,3,12,18,06,064,,02,06,105,,13,00,190,,07,02,214,*6E
$GBGSV,5,1,17,25,79,242,51,05,20,130,,43,26,212,,23,31,306,41*64
$GBGSV,5,2,17,10,11,074,,24,35,141,43,56,17,060,,13,21,090,*60
$GBGSV,5,3,17,38,22,067,23,11,49,202,46,08,22,082,,44,42,056,40*6C
$GBGSV,5,4,17,34,73,175,50,12,66,073,42,02,05,108,,20,01,347,*65
$GBGSV,5,5,17,60,09,110,*52
$GPGGA,151537.00,,,,,0,00,,,M,,M,,*4C
$PTNL,GGK,151537.00,010125,4742.4471217,N,01617.9735365,E,1,22,1.4,EHT669.3962,M*42
$GPGGQ,151537.00,010125,4742.4471217,N,01617.9735365,E,1,22,3.013,626.1852,M*33
$GPGFA,151537.00,17.332,18.922,1.823,0.658,13.715,2.308,,VVV*38
$GPLLK,151537.00,010125,,M,,M,1,22,1.6,,M*08
$GNGMP,151537.00,,,,,DAAA,22,0.7,,,,*55
$GPGMP,151537.00,,,,,,06,,,,2.7,123*7A
$GLGMP,151537.00,,,,,,04,,,,,*7F
$GAGMP,151537.00,,,,,,05,,,,,*73
$GBGMP,151537.00,,,,,,07,,,,,*72
$PSSN,SNC,[0,314155000,2347]*43
$GPZDA,151542.00,01,01,2025,,*65
$GPDTM,W84,,00.0000000,N,00.0000000,E,00.0000000,W84*5F
$GPRMC,151542.00,A,4742.4471304,N,01617.9735408,E,0.0,,010125,5.1,E,D*1A
$GPGLL,4742.4471304,N,01617.9735408,E,151542.00,A,D*6B
$GPGGA,151542.00,4742.4471304,N,01617.9735408,E,2,22,0.7,626.1809,M,43.2111,M,2.6,0123*43
$GNGNS,151542.00,4742.4471304,N,01617.9735408,E,DAAA,22,0.7,626.1809,43.2111,,*5B
$GPGNS,151542.00,,,,,,05,,,,2.6,123*7A
$GLGNS,151542.00,,,,,,05,,,,,*7C
$GAGNS,151542.00,,,,,,05,,,,,*71
$GBGNS,151542.00,,,,,,07,,,,,*70
$GPLLQ,151542.00,010125,,M,,M,1,22,6.211,,M*13
$GPVTG,,T,,M,0.00,N,0.01,K,D*27
$GPHDT,,T*1B
$GPTHS,,V*0E
$GPROT,,V*08
$PSSN,HRP,151542.00,010125,,,,,,,00,0,,*67
$PTNL,AVR,151542.00,,Yaw,,Tilt,,,,0,,00*31
$GPGSA,A,3,11,25,28,29,31,,,,,,,,1.3,0.7,1.1*33
$GPGSA,A,3,78,79,80,81,88,,,,,,,,1.3,0.7,1.1*37
$GPGSA,A,3,15,27,29,30,34,,,,,,,,1.3,0.7,1.1*39
$GPGSA,A,3,11,12,23,24,25,34,44,,,,,,1.3,0.7,1.1*33
$GPGST,151542.00,4.400,3.495,0.949,357.571,3.492,0.960,5.046*58
$GPGBS,151542.00,16.747,4.703,22.724,29,0.0001,10.888,6.876*67
$GPGRS,151542.00,1,-1.7,-1.0,1.4,0.9,-2.0,,,,,,,*42
$GPGRS,151542.00,1,0.4,1.7,-11.6,0.0,1.4,,,,,,,*7A
$GPGRS,151542.00,1,1.6,0.6,10.9,-1.6,0.6,,,,,,,*73
$GPGRS,151542.00,1,3.4,1.6,0.2,-0.7,-0.8,0.4,-0.6,,,,,*44
$GPGSV,4,1,16,25,74,096,39,18,13,186,28,26,11,295,28,20,16,080,*79
$GPGSV,4,2,16,11,31,051,39,31,31,309,41,12,33,103,34,28,52,284,43*79
$GPGSV,4,3,16,29,74,243,50,06,03,029,,05,05,112,,32,08,242,25*77
$GPGSV,4,4,16,36,35,170,36,34,31,208,35,49,34,195,37,61,03,257,*70
$GLGSV,3,1,10,88,68,059,48,79,59,324,49,87,12,031,24,78,61,118,47*69
$GLGSV,3,2,10,81,48,195,45,80,07,313,39,71,06,008,27,82,03,205,*6B
$GLGSV,3,3,10,77,04,130,,70,10,324,24*67
$GAGSV,3,1,12,27,65,303,47,36,14,033,27,21,13,290,33,29,19,262,35*60
$GAGSV,3,2,12,19,17,308,31,15,40,157,42,34,49,079,46,30,57,096,37*64
$GAGSV,3,3,12,18,06,064,,02,06,105,,13,00,190,,07,02,214,*6E
$GBGSV,5,1,17,25,79,242,51,05,20,130,,43,26,212,,23,31,306,41*64
$GBGSV,5,2,17,10,11,074,,24,35,141,43,56,17,060,,13,21,090,*60
$GBGSV,5,3,17,38,22,067,22,11,49,202,46,08,22,082,,44,42,056,39*63
$GBGSV,5,4,17,34,73,175,51,12,66,073,42,02,05,108,,20,01,347,*64
$GBGSV,5,5,17,60,09,110,*52
$GPGGA,151542.00,,,,,0,00,,,M,,M,,*4E
$PTNL,GGK,151542.00,010125,4742.4471304,N,01617.9735408,E,1,22,1.3,EHT669.3919,M*44
$GPGGQ,151542.00,010125,4742.4471304,N,01617.9735408,E,1,22,6.211,626.1809,M*35
$GPGFA,151542.00,33.233,41.377,3.495,0.949,357.571,5.046,,VVV*0B
$GPLLK,151542.00,010125,,M,,M,1,22,1.5,,M*09
$GNGMP,151542.00,,,,,DAAA,22,0.7,,,,*57
$GPGMP,151542.00,,,,,,05,,,,2.6,123*7A
$GLGMP,151542.00,,,,,,05,,,,,*7C
$GAGMP,151542.00,,,,,,05,,,,,*71
$GBGMP,151542.00,,,,,,07,,,,,*70
$PSSN,SNC,[0,314160000,2347]*45
$GPZDA,151547.00,01,01,2025,,*60
$GPDTM,W84,,00.0000000,N,00.0000000,E,00.0000000,W84*5F
$GPRMC,151547.00,A,4742.4471384,N,01617.9735540,E,0.0,,010125,5.1,E,D*1A
$GPGLL,4742.4471384,N,01617.9735540,E,151547.00,A,D*6B
$GPGGA,151547.00,4742.4471384,N,01617.9735540,E,2,21,0.7,626.1773,M,43.2111,M,2.6,0123*42
$GNGNS,151547.00,4742.4471384,N,01617.9735540,E,DAAA,21,0.7,626.1773,43.2111,,*5A
$GPGNS,151547.00,,,,,,05,,,,2.6,123*7F
$GLGNS,151547.00,,,,,,04,,,,,*78
$GAGNS,151547.00,,,,,,05,,,,,*74
$GBGNS,151547.00,,,,,,07,,,,,*75
$GPLLQ,151547.00,010125,,M,,M,1,21,6.119,,M*1E
$GPVTG,,T,,M,0.01,N,0.01,K,D*26
$GPHDT,,T*1B
$GPTHS,,V*0E
$GPROT,,V*08
$PSSN,HRP,151547.00,010125,,,,,,,00,0,,*62
$PTNL,AVR,151547.00,,Yaw,,Tilt,,,,0,,00*34
$GPGSA,A,3,11,25,28,29,31,,,,,,,,1.4,0.7,1.2*37
$GPGSA,A,3,78,79,81,88,,,,,,,,,1.4,0.7,1.2*3B
$GPGSA,A,3,15,27,29,30,34,,,,,,,,1.4,0.7,1.2*3D
$GPGSA,A,3,11,12,23,24,25,34,44,,,,,,1.4,0.7,1.2*37
$GPGST,151547.00,3.175,3.420,0.914,358.154,3.418,0.920,4.992*50
$GPGBS,151547.00,16.850,4.634,22.854,31,0.0001,-2.674,1.327*74
$GPGRS,151547.00,1,0.0,-0.3,1.8,0.5,-2.7,,,,,,,*69
$GPGRS,151547.00,1,-1.9,2.0,0.5,1.3,,,,,,,,*6D
$GPGRS,151547.00,1,0.4,0.6,9.9,-2.3,0.1,,,,,,,*4C
$GPGRS,151547.00,1,2.3,0.1,0.1,-2.8,-1.5,0.4,-1.0,,,,,*44
$GPGSV,4,1,16,29,74,243,51,18,13,186,29,26,11,295,29,20,16,080,*71
$GPGSV,4,2,16,31,31,309,40,11,31,051,39,12,32,103,32,28,52,284,43*7F
$GPGSV,4,3,16,25,74,096,40,05,05,112,,06,03,029,,32,08,242,21*74
$GPGSV,4,4,16,36,35,170,36,34,31,208,35,49,34,195,37,61,03,257,*70
$GLGSV,3,1,10,88,68,059,48,79,59,324,48,87,12,031,25,78,61,118,45*6B
$GLGSV,3,2,10,81,48,195,45,80,07,314,30,71,06,008,,82,03,205,*60
$GLGSV,3,3,10,77,04,130,,70,10,324,21*62
$GAGSV,3,1,12,27,65,303,47,36,14,033,28,21,13,290,32,29,19,262,35*6E
$GAGSV,3,2,12,19,17,308,30,15,40,157,42,34,49,079,47,30,57,096,38*6B
$GAGSV,3,3,12,18,06,064,,02,06,105,,13,00,190,,07,02,214,*6E
$GBGSV,5,1,17,25,79,242,50,05,20,130,,43,26,212,,23,31,306,42*66
$GBGSV,5,2,17,10,11,074,,24,35,141,42,56,17,060,,13,21,090,*61
$GBGSV,5,3,17,38,22,067,,11,49,202,46,08,22,082,,44,41,056,39*60
$GBGSV,5,4,17,34,73,175,51,12,66,072,43,02,05,108,,20,01,347,*64
$GBGSV,5,5,17,60,09,110,*52
$GPGGA,151547.00,,,,,0,00,,,M,,M,,*4B
$PTNL,GGK,151547.00,010125,4742.4471384,N,01617.9735540,E,1,21,1.4,EHT669.3884,M*45
$GPGGQ,151547.00,010125,4742.4471384,N,01617.9735540,E,1,21,6.119,626.1773,M*3F
$GPGFA,151547.00,32.513,40.931,3.420,0.914,358.154,4.992,,VVV*08
$GPLLK,151547.00,010125,,M,,M,1,21,1.7,,M*0D
$GNGMP,151547.00,,,,,DAAA,21,0.7,,,,*51
$GPGMP,151547.00,,,,,,05,,,,2.6,123*7F
$GLGMP,151547.00,,,,,,04,,,,,*78
$GAGMP,151547.00,,,,,,05,,,,,*74
$GBGMP,151547.00,,,,,,07,,,,,*75
$PSSN,SNC,[0,314165000,2347]*40
$GPZDA,151552.00,01,01,2025,,*64
$GPDTM,W84,,00.0000000,N,00.0000000,E,00.0000000,W84*5F
$GPRMC,151552.00,A,4742.4471472,N,01617.9735554,E,0.0,,010125,5.1,E,D*15
$GPGLL,4742.4471472,N,01617.9735554,E,151552.00,A,D*64
$GPGGA,151552.00,4742.4471472,N,01617.9735554,E,2,20,0.8,626.1685,M,43.2111,M,2.0,0123*4D
$GNGNS,151552.00,4742.4471472,N,01617.9735554,E,DAAA,20,0.8,626.1685,43.2111,,*53
$GPGNS,151552.00,,,,,,05,,,,2.0,123*7D
$GLGNS,151552.00,,,,,,04,,,,,*7C
$GAGNS,151552.00,,,,,,04,,,,,*71
$GBGNS,151552.00,,,,,,07,,,,,*71
$GPLLQ,151552.00,010125,,M,,M,1,20,6.054,,M*13
$GPVTG,,T,,M,0.01,N,0.02,K,D*25
$GPHDT,,T*1B
$GPTHS,,V*0E
$GPROT,,V*08
$PSSN,HRP,151552.00,010125,,,,,,,00,0,,*66
$PTNL,AVR,151552.00,,Yaw,,Tilt,,,,0,,00*30
$GPGSA,A,3,11,25,28,29,31,,,,,,,,1.6,0.8,1.4*3C
$GPGSA,A,3,78,79,81,88,,,,,,,,,1.6,0.8,1.4*30
$GPGSA,A,3,15,27,30,34,,,,,,,,,1.6,0.8,1.4*3D
$GPGSA,A,3,11,12,23,24,25,34,44,,,,,,1.6,0.8,1.4*3C
$GPGST,151552.00,1.924,3.389,0.881,358.324,3.388,0.886,4.939*54
$GPGBS,151552.00,18.276,4.677,25.296,31,0.0001,-3.023,1.302*76
$GPGRS,151552.00,1,-1.5,0.2,0.8,0.8,-3.0,,,,,,,*62
$GPGRS,151552.00,1,-2.9,1.1,0.9,2.4,,,,,,,,*60
$GPGRS,151552.00,1,-0.5,0.3,-2.2,-0.1,,,,,,,,*63
$GPGRS,151552.00,1,1.5,-0.9,-0.0,-2.8,-1.5,-0.1,-1.1,,,,,*65
$GPGSV,4,1,16,29,74,243,51,18,13,186,30,26,11,295,30,20,16,080,*71
$GPGSV,4,2,16,31,31,309,38,11,31,051,39,12,32,103,31,28,52,284,42*72
$GPGSV,4,3,16,25,74,096,41,05,05,112,,06,03,029,,32,08,242,19*7E
$GPGSV,4,4,16,36,35,170,36,34,31,208,35,49,34,195,37,61,03,257,*70
$GLGSV,3,1,10,88,68,059,48,79,59,324,47,87,12,031,24,78,61,118,43*63
$GLGSV,3,2,10,81,48,195,46,80,07,314,27,71,06,008,,82,03,205,*65
$GLGSV,3,3,10,77,04,130,,70,10,324,19*69
$GAGSV,3,1,12,27,65,303,47,36,14,033,25,21,13,290,31,29,19,262,34*61
$GAGSV,3,2,12,19,17,308,27,15,40,157,42,34,49,079,47,30,57,096,38*6D
$GAGSV,3,3,12,18,06,064,,02,06,105,,13,00,190,,07,02,214,*6E
$GBGSV,5,1,17,25,79,242,49,05,20,130,,43,26,212,,23,31,306,42*6E
$GBGSV,5,2,17,10,11,074,,24,35,141,42,56,17,060,,13,21,090,*61
$GBGSV,5,3,17,38,22,067,,08,22,082,,11,50,202,46,44,41,056,39*68
$GBGSV,5,4,17,34,73,175,51,12,66,072,44,02,05,108,,20,01,347,*63
$GBGSV,5,5,17,60,09,110,*52
$GPGGA,151552.00,,,,,0,00,,,M,,M,,*4F
$PTNL,GGK,151552.00,010125,4742.4471472,N,01617.9735554,E,1,20,1.6,EHT669.3795,M*46
$GPGGQ,151552.00,010125,4742.4471472,N,01617.9735554,E,1,20,6.054,626.1685,M*31
$GPGFA,151552.00,32.221,40.501,3.389,0.881,358.324,4.939,,VVV*08
$GPLLK,151552.00,010125,,M,,M,1,20,2.0,,M*0C
$GNGMP,151552.00,,,,,DAAA,20,0.8,,,,*5B
$GPGMP,151552.00,,,,,,05,,,,2.0,123*7D
$GLGMP,151552.00,,,,,,04,,,,,*7C
$GAGMP,151552.00,,,,,,04,,,,,*71
$GBGMP,151552.00,,,,,,07,,,,,*71
$PSSN,SNC,[0,314170000,2347]*44
$GPZDA,151557.00,01,01,2025,,*61
$GPDTM,W84,,00.0000000,N,00.0000000,E,00.0000000,W84*5F
$GPRMC,151557.00,A,4742.4471568,N,01617.9735529,E,0.0,,010125,5.1,E,D*10
$GPGLL,4742.4471568,N,01617.9735529,E,151557.00,A,D*61
$GPGGA,151557.00,4742.4471568,N,01617.9735529,E,2,20,0.8,626.1571,M,43.2111,M,2.2,0123*42
$GNGNS,151557.00,4742.4471568,N,01617.9735529,E,DAAA,20,0.8,626.1571,43.2111,,*5E
$GPGNS,151557.00,,,,,,05,,,,2.2,123*7A
$GLGNS,151557.00,,,,,,04,,,,,*79
$GAGNS,151557.00,,,,,,04,,,,,*74
$GBGNS,151557.00,,,,,,07,,,,,*74
$GPLLQ,151557.00,010125,,M,,M,1,20,4.562,,M*14
$GPVTG,,T,,M,0.01,N,0.02,K,D*25
$GPHDT,,T*1B
$GPTHS,,V*0E
$GPROT,,V*08
$PSSN,HRP,151557.00,010125,,,,,,,00,0,,*63
$PTNL,AVR,151557.00,,Yaw,,Tilt,,,,0,,00*35
$GPGSA,A,3,11,25,28,29,31,,,,,,,,1.6,0.8,1.4*3C
$GPGSA,A,3,78,79,81,88,,,,,,,,,1.6,0.8,1.4*30
$GPGSA,A,3,15,27,30,34,,,,,,,,,1.6,0.8,1.4*3D
$GPGSA,A,3,11,12,23,24,25,34,44,,,,,,1.6,0.8,1.4*3C
$GPGST,151557.00,1.352,2.551,0.665,358.349,2.550,0.669,3.724*5F
$GPGBS,151557.00,18.337,4.639,25.305,28,0.0001,-1.338,0.971*7A
$GPGRS,151557.00,1,-1.0,0.8,-1.3,0.8,-0.8,,,,,,,*44
$GPGRS,151557.00,1,-2.0,1.3,0.1,1.6,,,,,,,,*67
$GPGRS,151557.00,1,-0.6,0.3,-1.8,0.3,,,,,,,,*43
$GPGRS,151557.00,1,1.8,0.8,-0.3,-1.3,-0.9,-0.3,-0.7,,,,,*42
$GPGSV,4,1,16,29,74,243,52,18,13,186,31,26,11,295,32,20,16,080,*71
$GPGSV,4,2,16,31,31,309,38,11,31,051,38,12,32,103,32,28,52,284,41*73
$GPGSV,4,3,16,25,74,096,41,05,05,112,,06,03,029,,32,08,242,*76
$GPGSV,4,4,16,36,35,170,36,34,31,208,35,49,34,195,37,61,03,257,*70
$GLGSV,3,1,10,88,68,059,46,79,59,324,47,87,11,031,,78,61,118,42*69
$GLGSV,3,2,10,81,48,195,44,80,07,314,26,71,06,008,,82,03,205,*66
$GLGSV,3,3,10,77,04,130,,70,10,324,*61
$GAGSV,3,1,12,27,65,303,46,36,14,033,25,21,13,290,29,29,19,262,33*6E
$GAGSV,3,2,12,19,17,308,26,15,40,157,41,34,49,079,47,30,57,096,38*6F
$GAGSV,3,3,12,18,06,064,,02,06,105,,13,00,190,,07,02,214,*6E
$GBGSV,5,1,17,25,79,242,49,05,20,130,,43,26,212,,23,31,306,43*6F
$GBGSV,5,2,17,10,11,074,,24,35,141,42,56,17,060,,13,21,090,*61
$GBGSV,5,3,17,38,22,067,22,08,22,082,,11,50,202,46,44,41,056,40*66
$GBGSV,5,4,17,34,73,175,51,12,66,072,45,02,05,108,,20,01,347,*62
$GBGSV,5,5,17,60,09,110,*52
$GPGGA,151557.00,,,,,0,00,,,M,,M,,*4A
$PTNL,GGK,151557.00,010125,4742.4471568,N,01617.9735529,E,1,20,1.6,EHT669.3681,M*47
$GPGGQ,151557.00,010125,4742.4471568,N,01617.9735529,E,1,20,4.562,626.1571,M*3E
$GPGFA,151557.00,24.251,30.537,2.551,0.665,358.349,3.724,,VVV*07
$GPLLK,151557.00,010125,,M,,M,1,20,2.0,,M*09
$GNGMP,151557.00,,,,,DAAA,20,0.8,,,,*5E
$GPGMP,151557.00,,,,,,05,,,,2.2,123*7A
$GLGMP,151557.00,,,,,,04,,,,,*79
$GAGMP,151557.00,,,,,,04,,,,,*74
$GBGMP,151557.00,,,,,,07,,,,,*74
$PSSN,SNC,[0,314175000,2347]*41
$GPZDA,151602.00,01,01,2025,,*62
$GPDTM,W84,,00.0000000,N,00.0000000,E,00.0000000,W84*5F
$GPRMC,151602.00,A,4742.4471568,N,01617.9735458,E,0.0,,010125,5.1,E,D*14
$GPGLL,4742.4471568,N,01617.9735458,E,151602.00,A,D*65
$GPGGA,151602.00,4742.4471568,N,01617.9735458,E,2,21,0.8,626.1487,M,43.2111,M,3.2,0123*4E
$GNGNS,151602.00,4742.4471568,N,01617.9735458,E,DAAA,21,0.8,626.1487,43.2111,,*53
$GPGNS,151602.00,,,,,,05,,,,3.2,123*78
$GLGNS,151602.00,,,,,,04,,,,,*7A
$GAGNS,151602.00,,,,,,05,,,,,*76
$GBGNS,151602.00,,,,,,07,,,,,*77
$GPLLQ,151602.00,010125,,M,,M,1,21,4.411,,M*13
$GPVTG,,T,,M,0.00,N,0.01,K,D*27
$GPHDT,,T*1B
$GPTHS,,V*0E
$GPROT,,V*08
$PSSN,HRP,151602.00,010125,,,,,,,00,0,,*60
$PTNL,AVR,151602.00,,Yaw,,Tilt,,,,0,,00*36
$GPGSA,A,3,11,25,28,29,31,,,,,,,,1.5,0.8,1.2*39
$GPGSA,A,3,78,79,81,88,,,,,,,,,1.5,0.8,1.2*35
$GPGSA,A,3,15,19,27,30,34,,,,,,,,1.5,0.8,1.2*30
$GPGSA,A,3,11,12,23,24,25,34,44,,,,,,1.5,0.8,1.2*39
$GPGST,151602.00,2.185,2.469,0.644,358.416,2.468,0.647,3.597*5F
$GPGBS,151602.00,18.387,4.699,25.417,28,0.0001,-1.513,0.988*75
$GPGRS,151602.00,1,0.8,0.2,-1.5,0.6,0.1,,,,,,,*45
$GPGRS,151602.00,1,-2.1,2.5,-0.6,-0.3,,,,,,,,*63
$GPGRS,151602.00,1,-0.5,-6.1,0.4,-1.4,0.2,,,,,,,*4D
$GPGRS,151602.00,1,1.8,2.8,-0.2,-0.1,-0.7,-0.3,-0.8,,,,,*40
$GPGSV,4,1,16,29,74,243,52,18,13,186,31,26,11,295,34,20,16,080,*77
$GPGSV,4,2,16,31,31,309,37,11,30,051,36,12,32,103,33,28,52,284,38*7C
$GPGSV,4,3,16,25,74,096,41,05,05,112,,06,03,029,,32,07,242,22*79
$GPGSV,4,4,16,36,35,170,36,34,31,208,35,49,34,195,36,61,03,257,*71
$GLGSV,3,1,10,88,68,058,43,79,59,324,48,87,11,031,,78,61,118,43*63
$GLGSV,3,2,10,81,48,195,42,80,07,314,27,71,06,008,26,82,03,205,*65
$GLGSV,3,3,10,77,04,130,,70,10,324,*61
$GAGSV,3,1,12,27,65,303,46,36,14,033,25,21,13,290,25,29,19,262,32*63
$GAGSV,3,2,12,19,17,308,23,15,40,157,41,34,49,079,47,30,57,096,38*6A
$GAGSV,3,3,12,18,06,064,,02,06,105,,13,00,190,,07,02,214,*6E
$GBGSV,5,1,17,25,79,241,49,05,20,130,,43,26,212,,23,31,306,43*6C
$GBGSV,5,2,17,10,11,075,,24,35,141,42,56,17,060,,13,21,090,*60
$GBGSV,5,3,17,38,22,067,26,08,22,082,,11,50,202,46,44,41,056,40*62
$GBGSV,5,4,17,34,73,175,51,12,66,072,46,02,05,108,,20,01,347,*61
$GBGSV,5,5,17,60,09,110,*52
$GPGGA,151602.00,,,,,0,00,,,M,,M,,*49
$PTNL,GGK,151602.00,010125,4742.4471568,N,01617.9735458,E,1,21,1.5,EHT669.3598,M*4A
$GPGGQ,151602.00,010125,4742.4471568,N,01617.9735458,E,1,21,4.411,626.1487,M*36
$GPGFA,151602.00,23.475,29.499,2.469,0.644,358.416,3.597,,VVV*00
$GPLLK,151602.00,010125,,M,,M,1,21,1.7,,M*0F
$GNGMP,151602.00,,,,,DAAA,21,0.8,,,,*5C
$GPGMP,151602.00,,,,,,05,,,,3.2,123*78
$GLGMP,151602.00,,,,,,04,,,,,*7A
$GAGMP,151602.00,,,,,,05,,,,,*76
$GBGMP,151602.00,,,,,,07,,,,,*77
$PSSN,SNC,[0,314180000,2347]*4B
$GPZDA,151607.00,01,01,2025,,*67
$GPDTM,W84,,00.0000000,N,00.0000000,E,00.0000000,W84*5F
$GPRMC,151607.00,A,4742.4471544,N,01617.9735290,E,0.0,,010125,5.1,E,D*1D
$GPGLL,4742.4471544,N,01617.9735290,E,151607.00,A,D*6C
$GPGGA,151607.00,4742.4471544,N,01617.9735290,E,2,22,0.7,626.1490,M,43.2111,M,2.6,0123*48
$GNGNS,151607.00,4742.4471544,N,01617.9735290,E,DAAA,22,0.7,626.1490,43.2111,,*50
$GPGNS,151607.00,,,,,,05,,,,2.6,123*78
$GLGNS,151607.00,,,,,,05,,,,,*7E
$GAGNS,151607.00,,,,,,05,,,,,*73
$GBGNS,151607.00,,,,,,07,,,,,*72
$GPLLQ,151607.00,010125,,M,,M,1,22,6.917,,M*1C
$GPVTG,,T,,M,0.01,N,0.02,K,D*25
$GPHDT,,T*1B
$GPTHS,,V*0E
$GPROT,,V*08
$PSSN,HRP,151607.00,010125,,,,,,,00,0,,*65
$PTNL,AVR,151607.00,,Yaw,,Tilt,,,,0,,00*33
$GPGSA,A,3,11,25,28,29,31,,,,,,,,1.3,0.7,1.1*33
$GPGSA,A,3,78,79,80,81,88,,,,,,,,1.3,0.7,1.1*37
$GPGSA,A,3,15,19,27,30,34,,,,,,,,1.3,0.7,1.1*3A
$GPGSA,A,3,11,12,23,24,25,34,44,,,,,,1.3,0.7,1.1*33
$GPGST,151607.00,3.242,3.879,1.007,358.450,3.878,1.012,5.638*56
$GPGBS,151607.00,18.384,4.643,25.286,28,0.0001,-2.501,0.962*7E
$GPGRS,151607.00,1,2.4,0.8,-2.5,-0.0,0.8,,,,,,,*65
$GPGRS,151607.00,1,-1.8,3.1,-8.8,0.2,-1.7,,,,,,,*46
$GPGRS,151607.00,1,-1.2,-5.7,0.0,-1.6,0.1,,,,,,,*4E
$GPGRS,151607.00,1,1.6,3.1,-0.8,0.1,-0.8,-0.7,-1.1,,,,,*67
$GPGSV,4,1,16,29,74,243,51,18,13,186,31,26,11,295,34,20,16,080,*74
$GPGSV,4,2,16,31,31,309,38,11,30,051,38,12,32,103,34,28,52,284,36*74
$GPGSV,4,3,16,25,74,096,41,05,05,111,,06,02,029,,32,07,242,19*73
$GPGSV,4,4,16,36,35,170,36,34,31,208,35,49,34,195,36,61,03,257,*71
$GLGSV,3,1,10,88,68,058,43,79,59,324,49,87,11,031,,78,61,118,43*62
$GLGSV,3,2,10,81,48,195,43,80,07,314,39,71,06,008,,82,03,205,*6F
$GLGSV,3,3,10,77,04,130,,70,10,324,*61
$GAGSV,3,1,12,27,65,303,46,36,14,033,24,21,13,290,23,29,19,262,28*6F
$GAGSV,3,2,12,19,17,308,35,15,40,157,41,34,49,079,47,30,57,096,39*6C
$GAGSV,3,3,12,18,06,064,,02,06,105,,13,00,190,,07,02,214,*6E
$GBGSV,5,1,17,25,79,241,50,05,20,130,,43,26,212,,23,31,306,43*64
$GBGSV,5,2,17,10,11,075,,24,35,141,41,56,17,060,,13,21,090,*63
$GBGSV,5,3,17,38,22,067,,08,22,082,,11,50,202,46,44,41,056,40*66
$GBGSV,5,4,17,34,73,175,50,12,66,072,46,02,05,108,,20,01,347,*60
$GBGSV,5,5,17,60,09,110,*52
$GPGGA,151607.00,,,,,0,00,,,M,,M,,*4C
$PTNL,GGK,151607.00,010125,4742.4471544,N,01617.9735290,E,1,22,1.3,EHT669.3601,M*45
$GPGGQ,151607.00,010125,4742.4471544,N,01617.9735290,E,1,22,6.917,626.1490,M*33
$GPGFA,151607.00,36.883,46.231,3.879,1.007,358.450,5.638,,VVV*07
$GPLLK,151607.00,010125,,M,,M,1,22,1.6,,M*08
$GNGMP,151607.00,,,,,DAAA,22,0.7,,,,*55
$GPGMP,151607.00,,,,,,05,,,,2.6,123*78
$GLGMP,151607.00,,,,,,05,,,,,*7E
$GAGMP,151607.00,,,,,,05,,,,,*73
$GBGMP,151607.00,,,,,,07,,,,,*72
$PSSN,SNC,[0,314185000,2347]*4E
$GPZDA,151612.00,01,01,2025,,*63
$GPDTM,W84,,00.0000000,N,00.0000000,E,00.0000000,W84*5F
$GPRMC,151612.00,A,4742.4471455,N,01617.9735074,E,0.0,,010125,5.1,E,D*10
$GPGLL,4742.4471455,N,01617.9735074,E,151612.00,A,D*61
$GPGGA,151612.00,4742.4471455,N,01617.9735074,E,2,22,0.7,626.1485,M,43.2111,M,2.0,0123*47
$GNGNS,151612.00,4742.4471455,N,01617.9735074,E,DAAA,22,0.7,626.1485,43.2111,,*59
$GPGNS,151612.00,,,,,,05,,,,2.0,123*7A
$GLGNS,151612.00,,,,,,05,,,,,*7A
$GAGNS,151612.00,,,,,,05,,,,,*77
$GBGNS,151612.00,,,,,,07,,,,,*76
$GPLLQ,151612.00,010125,,M,,M,1,22,7.965,,M*1C
$GPVTG,,T,,M,0.01,N,0.01,K,D*26
$GPHDT,,T*1B
$GPTHS,,V*0E
$GPROT,,V*08
$PSSN,HRP,151612.00,010125,,,,,,,00,0,,*61
$PTNL,AVR,151612.00,,Yaw,,Tilt,,,,0,,00*37
$GPGSA,A,3,11,25,28,29,31,,,,,,,,1.3,0.7,1.1*33
$GPGSA,A,3,78,79,80,81,88,,,,,,,,1.3,0.7,1.1*37
$GPGSA,A,3,15,19,27,30,34,,,,,,,,1.3,0.7,1.1*3A
$GPGSA,A,3,11,12,23,24,25,34,44,,,,,,1.3,0.7,1.1*33
$GPGST,151612.00,2.947,4.470,1.150,358.428,4.469,1.157,6.491*5A
$GPGBS,151612.00,18.348,4.683,25.363,28,0.0001,-2.791,0.967*72
$GPGRS,151612.00,1,2.8,0.8,-2.8,-0.1,1.5,,,,,,,*6D
$GPGRS,151612.00,1,-3.3,2.3,-6.6,-0.7,-2.1,,,,,,,*65
$GPGRS,151612.00,1,-1.9,-5.3,-0.7,-2.0,-0.1,,,,,,,*47
$GPGRS,151612.00,1,1.1,1.6,-1.2,-0.1,-1.4,-0.9,-1.4,,,,,*41
$GPGSV,4,1,16,29,74,243,51,18,13,186,31,26,11,295,34,20,16,080,*74
$GPGSV,4,2,16,31,31,309,39,11,30,051,39,12,32,103,34,28,52,284,35*77
$GPGSV,4,3,16,25,74,096,42,05,05,111,,06,02,029,,32,07,242,*78
$GPGSV,4,4,16,36,35,170,36,34,31,208,35,49,34,195,37,61,03,257,*70
$GLGSV,3,1,10,88,68,058,46,79,59,324,50,87,11,031,,78,61,118,43*6F
$GLGSV,3,2,10,81,48,195,44,80,07,314,39,71,06,008,,82,03,205,*68
$GLGSV,3,3,10,77,04,130,,70,10,324,*61
$GAGSV,3,1,12,27,65,303,45,36,14,033,24,21,13,290,26,29,19,262,34*64
$GAGSV,3,2,12,19,17,308,34,15,40,157,41,34,49,079,47,30,57,096,40*63
$GAGSV,3,3,12,18,06,064,,02,06,105,,13,00,190,,07,02,214,*6E
$GBGSV,5,1,17,25,79,241,50,05,20,130,,43,26,212,,23,31,306,44*63
$GBGSV,5,2,17,10,11,075,,24,35,141,41,56,17,060,,13,21,090,*63
$GBGSV,5,3,17,38,22,067,30,08,22,082,,11,50,202,46,44,41,056,41*64
$GBGSV,5,4,17,34,73,175,50,12,66,072,47,02,05,108,,20,01,347,*61
$GBGSV,5,5,17,60,09,110,*52
$GPGGA,151612.00,,,,,0,00,,,M,,M,,*48
$PTNL,GGK,151612.00,010125,4742.4471455,N,01617.9735074,E,1,22,1.3,EHT669.3596,M*45
$GPGGQ,151612.00,010125,4742.4471455,N,01617.9735074,E,1,22,7.965,626.1485,M*3E
$GPGFA,151612.00,42.504,53.225,4.470,1.150,358.428,6.491,,VVV*0F
$GPLLK,151612.00,010125,,M,,M,1,22,1.6,,M*0C
$GNGMP,151612.00,,,,,DAAA,22,0.7,,,,*51
$GPGMP,151612.00,,,,,,05,,,,2.0,123*7A
$GLGMP,151612.00,,,,,,05,,,,,*7A
$GAGMP,151612.00,,,,,,05,,,,,*77
$GBGMP,151612.00,,,,,,07,,,,,*76
$PSSN,SNC,[0,314190000,2347]*4A
$GPZDA,151617.00,01,01,2025,,*66
$GPDTM,W84,,00.0000000,N,00.0000000,E,00.0000000,W84*5F
$GPRMC,151617.00,A,4742.4471379,N,01617.9734908,E,0.0,,010125,5.1,E,D*1F
$GPGLL,4742.4471379,N,01617.9734908,E,151617.00,A,D*6E
$GPGGA,151617.00,4742.4471379,N,01617.9734908,E,2,21,0.8,626.1541,M,43.2111,M,2.0,0123*4D
$GNGNS,151617.00,4742.4471379,N,01617.9734908,E,DAAA,21,0.8,626.1541,43.2111,,*53
$GPGNS,151617.00,,,,,,04,,,,2.0,123*7E
$GLGNS,151617.00,,,,,,05,,,,,*7F
$GAGNS,151617.00,,,,,,05,,,,,*72
$GBGNS,151617.00,,,,,,07,,,,,*73
$GPLLQ,151617.00,010125,,M,,M,1,21,5.359,,M*1D
$GPVTG,,T,,M,0.00,N,0.00,K,D*26
$GPHDT,,T*1B
$GPTHS,,V*0E
$GPROT,,V*08
$PSSN,HRP,151617.00,010125,,,,,,,00,0,,*64
$PTNL,AVR,151617.00,,Yaw,,Tilt,,,,0,,00*32
$GPGSA,A,3,11,25,29,31,,,,,,,,,1.3,0.8,1.1*36
$GPGSA,A,3,78,79,80,81,88,,,,,,,,1.3,0.8,1.1*38
$GPGSA,A,3,15,19,27,30,34,,,,,,,,1.3,0.8,1.1*35
$GPGSA,A,3,11,12,23,24,25,34,44,,,,,,1.3,0.8,1.1*3C
$GPGST,151617.00,2.815,2.992,0.910,358.361,2.991,0.914,4.352*51
$GPGBS,151617.00,18.404,5.242,25.371,11,0.0001,2.254,1.264*51
$GPGRS,151617.00,1,2.3,0.4,-0.8,0.6,,,,,,,,*6D
$GPGRS,151617.00,1,-3.4,0.8,-4.8,-2.8,-0.5,,,,,,,*69
$GPGRS,151617.00,1,-2.7,-5.0,-1.7,-2.5,-0.4,,,,,,,*4D
$GPGRS,151617.00,1,-0.1,0.0,-2.3,0.1,-2.6,-1.8,-2.3,,,,,*45
$GPGSV,4,1,16,29,74,243,50,18,13,186,29,26,11,295,33,20,16,080,*7B
$GPGSV,4,2,16,31,31,309,39,11,30,051,39,12,32,103,35,28,52,284,34*77
$GPGSV,4,3,16,25,74,096,44,05,05,111,,06,02,029,,32,07,242,*7E
$GPGSV,4,4,16,36,35,170,36,34,31,208,35,49,34,195,37,61,03,257,*70
$GLGSV,3,1,10,88,68,058,47,79,59,324,50,87,11,031,26,78,61,118,44*6D
$GLGSV,3,2,10,81,48,195,44,80,07,314,38,71,06,008,,82,03,205,*69
$GLGSV,3,3,10,77,04,130,,70,10,324,*61
$GAGSV,3,1,12,27,65,303,44,36,14,033,33,21,13,290,28,29,18,262,31*69
$GAGSV,3,2,12,19,17,308,34,15,40,157,41,34,49,079,47,30,57,096,42*61
$GAGSV,3,3,12,18,05,064,,02,06,105,,13,00,190,,07,02,214,*6D
$GBGSV,5,1,17,25,79,241,50,05,20,130,,43,26,212,,23,31,306,44*63
$GBGSV,5,2,17,10,11,075,,24,35,141,42,56,17,060,,13,21,090,*60
$GBGSV,5,3,17,38,22,067,31,08,22,082,,11,50,202,45,44,41,056,42*65
$GBGSV,5,4,17,34,73,175,50,12,66,072,46,02,05,108,,20,01,347,*60
$GBGSV,5,5,17,60,09,110,*52
$GPGGA,151617.00,,,,,0,00,,,M,,M,,*4D
$PTNL,GGK,151617.00,010125,4742.4471379,N,01617.9734908,E,1,21,1.3,EHT669.3651,M*41
$GPGGQ,151617.00,010125,4742.4471379,N,01617.9734908,E,1,21,5.359,626.1541,M*3C
$GPGFA,151617.00,28.443,35.690,2.992,0.910,358.361,4.352,,VVV*04
$GPLLK,151617.00,010125,,M,,M,1,21,1.6,,M*0A
$GNGMP,151617.00,,,,,DAAA,21,0.8,,,,*58
$GPGMP,151617.00,,,,,,04,,,,2.0,123*7E
$GLGMP,151617.00,,,,,,05,,,,,*7F
$GAGMP,151617.00,,,,,,05,,,,,*72
$GBGMP,151617.00,,,,,,07,,,,,*73
$PSSN,SNC,[0,314195000,2347]*4F
$GPZDA,151622.00,01,01,2025,,*60
$GPDTM,W84,,00.0000000,N,00.0000000,E,00.0000000,W84*5F
$GPRMC,151622.00,A,4742.4471321,N,01617.9734819,E,0.0,,010125,5.1,E,D*15
$GPGLL,4742.4471321,N,01617.9734819,E,151622.00,A,D*64
$GPGGA,151622.00,4742.4471321,N,01617.9734819,E,2,22,0.7,626.1604,M,43.2111,M,3.0,0123*48
$GNGNS,151622.00,4742.4471321,N,01617.9734819,E,DAAA,22,0.7,626.1604,43.2111,,*57
$GPGNS,151622.00,,,,,,06,,,,3.0,123*7B
$GLGNS,151622.00,,,,,,04,,,,,*78
$GAGNS,151622.00,,,,,,05,,,,,*74
$GBGNS,151622.00,,,,,,07,,,,,*75
$GPLLQ,151622.00,010125,,M,,M,1,22,2.742,,M*11
$GPVTG,,T,,M,0.00,N,0.01,K,D*27
$GPHDT,,T*1B
$GPTHS,,V*0E
$GPROT,,V*08
$PSSN,HRP,151622.00,010125,,,,,,,00,0,,*62
$PTNL,AVR,151622.00,,Yaw,,Tilt,,,,0,,00*34
$GPGSA,A,3,11,12,25,28,29,31,,,,,,,1.4,0.7,1.2*34
$GPGSA,A,3,78,79,81,88,,,,,,,,,1.4,0.7,1.2*3B
$GPGSA,A,3,15,19,27,30,34,,,,,,,,1.4,0.7,1.2*3E
$GPGSA,A,3,11,12,23,24,25,34,44,,,,,,1.4,0.7,1.2*37
$GPGST,151622.00,2.207,1.590,0.599,13.387,1.553,0.689,2.153*65
$GPGBS,151622.00,8.944,3.604,13.299,28,0.0001,-1.656,0.994*4A
$GPGRS,151622.00,1,0.9,0.5,0.3,-1.7,-0.6,1.2,,,,,,*41
$GPGRS,151622.00,1,-1.7,0.0,-2.9,1.1,,,,,,,,*40
$GPGRS,151622.00,1,-2.0,-3.4,-1.5,-2.4,-0.1,,,,,,,*48
$GPGRS,151622.00,1,-1.0,-0.3,-2.7,2.2,-2.8,-2.7,-1.7,,,,,*6D
$GPGSV,4,1,16,29,74,243,51,18,13,186,28,26,11,295,34,20,16,080,*7C
$GPGSV,4,2,16,31,31,309,41,11,30,051,39,12,32,103,35,28,52,284,36*7A
$GPGSV,4,3,16,25,74,096,45,05,05,111,,06,02,029,,32,07,242,22*7F
$GPGSV,4,4,16,36,35,170,36,34,31,208,35,49,34,195,37,61,03,257,*70
$GLGSV,3,1,10,88,67,058,48,79,59,324,50,87,11,031,,78,61,118,45*68
$GLGSV,3,2,10,81,48,195,44,80,07,314,37,71,06,008,,82,03,205,*66
$GLGSV,3,3,10,77,04,130,,70,10,324,*61
$GAGSV,3,1,12,27,65,303,43,36,14,033,33,21,13,290,30,29,18,262,26*61
$GAGSV,3,2,12,19,17,308,34,15,40,157,41,34,49,079,47,30,57,096,43*60
$GAGSV,3,3,12,18,05,064,,02,06,105,,13,00,190,,07,02,214,*6D
$GBGSV,5,1,17,25,79,241,50,05,20,130,,43,26,212,,23,31,306,44*63
$GBGSV,5,2,17,10,11,075,,24,35,141,43,56,17,060,,13,21,090,*61
$GBGSV,5,3,17,38,22,067,32,08,22,082,,11,50,202,45,44,41,056,43*67
$GBGSV,5,4,17,34,73,175,49,12,66,072,46,02,05,108,,20,01,347,*68
$GBGSV,5,5,17,60,09,110,*52
$GPGGA,151622.00,,,,,0,00,,,M,,M,,*4B
$PTNL,GGK,151622.00,010125,4742.4471321,N,01617.9734819,E,1,22,1.4,EHT669.3715,M*4E
$GPGGQ,151622.00,010125,4742.4471321,N,01617.9734819,E,1,22,2.742,626.1604,M*3E
$GPGFA,151622.00,15.115,17.652,1.590,0.599,13.387,2.153,,VVV*35
$GPLLK,151622.00,010125,,M,,M,1,22,1.7,,M*0E
$GNGMP,151622.00,,,,,DAAA,22,0.7,,,,*52
$GPGMP,151622.00,,,,,,06,,,,3.0,123*7B
$GLGMP,151622.00,,,,,,04,,,,,*78
$GAGMP,151622.00,,,,,,05,,,,,*74
$GBGMP,151622.00,,,,,,07,,,,,*75
$PSSN,SNC,[0,314200000,2347]*40
$GPZDA,151627.00,01,01,2025,,*65
$GPDTM,W84,,00.0000000,N,00.0000000,E,00.0000000,W84*5F
$GPRMC,151627.00,A,4742.4471258,N,01617.9734762,E,0.0,,010125,5.1,E,D*1C
$GPGLL,4742.4471258,N,01617.9734762,E,151627.00,A,D*6D
$GPGGA,151627.00,4742.4471258,N,01617.9734762,E,2,21,0.8,626.1695,M,43.2111,M,2.6,0123*42
$GNGNS,151627.00,4742.4471258,N,01617.9734762,E,DAAA,21,0.8,626.1695,43.2111,,*5A
$GPGNS,151627.00,,,,,,05,,,,2.6,123*7A
$GLGNS,151627.00,,,,,,04,,,,,*7D
$GAGNS,151627.00,,,,,,05,,,,,*71
$GBGNS,151627.00,,,,,,07,,,,,*70
$GPLLQ,151627.00,010125,,M,,M,1,21,4.393,,M*19
$GPVTG,,T,,M,0.01,N,0.01,K,D*26
$GPHDT,,T*1B
$GPTHS,,V*0E
$GPROT,,V*08
$PSSN,HRP,151627.00,010125,,,,,,,00,0,,*67
$PTNL,AVR,151627.00,,Yaw,,Tilt,,,,0,,00*31
$GPGSA,A,3,11,25,28,29,31,,,,,,,,1.5,0.8,1.2*39
$GPGSA,A,3,78,79,81,88,,,,,,,,,1.5,0.8,1.2*35
$GPGSA,A,3,15,19,27,30,34,,,,,,,,1.5,0.8,1.2*30
$GPGSA,A,3,11,12,23,24,25,34,44,,,,,,1.5,0.8,1.2*39
$GPGST,151627.00,2.539,2.460,0.634,358.552,2.459,0.637,3.584*53
$GPGBS,151627.00,18.552,4.607,25.582,31,0.0001,1.417,1.317*5B
$GPGRS,151627.00,1,-0.1,0.1,0.0,-0.6,1.4,,,,,,,*65
$GPGRS,151627.00,1,-1.0,-0.1,-3.4,2.5,,,,,,,,*65
$GPGRS,151627.00,1,-1.6,-3.7,-1.3,-1.8,-0.2,,,,,,,*41
$GPGRS,151627.00,1,-1.6,-0.7,-2.5,4.8,-2.5,-3.0,-1.1,,,,,*69
$GPGSV,4,1,16,29,74,243,51,18,13,186,27,26,11,295,34,20,16,080,*73
$GPGSV,4,2,16,31,31,309,42,11,30,051,38,12,32,103,34,28,52,284,37*78
$GPGSV,4,3,16,25,74,096,45,05,05,111,,06,02,029,,32,07,242,21*7C
$GPGSV,4,4,16,36,35,170,36,34,31,208,35,49,34,195,36,61,03,257,*71
$GLGSV,3,1,10,88,67,058,47,79,59,324,50,87,11,031,,78,61,118,45*67
$GLGSV,3,2,10,81,48,195,43,80,07,314,36,71,06,008,,82,03,205,*60
$GLGSV,3,3,10,77,04,130,,70,10,324,*61
$GAGSV,3,1,12,27,65,303,42,36,14,033,24,21,13,290,31,29,18,262,26*67
$GAGSV,3,2,12,19,17,308,34,15,40,157,41,34,49,079,47,30,57,096,44*67
$GAGSV,3,3,12,18,05,064,,02,06,105,,13,00,190,,07,02,214,*6D
$GBGSV,5,1,17,25,79,240,50,05,20,130,,43,26,212,,23,31,306,44*62
$GBGSV,5,2,17,10,11,075,,24,35,141,43,56,17,060,,13,21,090,*61
$GBGSV,5,3,17,38,22,067,33,08,22,082,,11,50,202,45,44,41,056,43*66
$GBGSV,5,4,17,34,73,175,49,12,66,072,46,02,05,108,,20,01,347,*68
$GBGSV,5,5,17,60,09,110,*52
$GPGGA,151627.00,,,,,0,00,,,M,,M,,*4E
$PTNL,GGK,151627.00,010125,4742.4471258,N,01617.9734762,E,1,21,1.5,EHT669.3806,M*48
$GPGGQ,151627.00,010125,4742.4471258,N,01617.9734762,E,1,21,4.393,626.1695,M*32
$GPGFA,151627.00,23.391,29.390,2.460,0.634,358.552,3.584,,VVV*09
$GPLLK,151627.00,010125,,M,,M,1,21,1.7,,M*08
$GNGMP,151627.00,,,,,DAAA,21,0.8,,,,*5B
$GPGMP,151627.00,,,,,,05,,,,2.6,123*7A
$GLGMP,151627.00,,,,,,04,,,,,*7D
$GAGMP,151627.00,,,,,,05,,,,,*71
$GBGMP,151627.00,,,,,,07,,,,,*70
$PSSN,SNC,[0,314205000,2347]*45
$GPZDA,151632.00,01,01,2025,,*61
$GPDTM,W84,,00.0000000,N,00.0000000,E,00.0000000,W84*5F
$GPRMC,151632.00,A,4742.4471195,N,01617.9734761,E,0.0,,010125,5.1,E,D*19
$GPGLL,4742.4471195,N,01617.9734761,E,151632.00,A,D*68
$GPGGA,151632.00,4742.4471195,N,01617.9734761,E,2,20,0.8,626.1775,M,43.2111,M,2.0,0123*4F
$GNGNS,151632.00,4742.4471195,N,01617.9734761,E,DAAA,20,0.8,626.1775,43.2111,,*51
$GPGNS,151632.00,,,,,,05,,,,2.0,123*78
$GLGNS,151632.00,,,,,,04,,,,,*79
$GAGNS,151632.00,,,,,,04,,,,,*74
