$GPZDA,185942.00,01,01,2025,,*60
$GPDTM,W84,,00.0000000,N,00.0000000,E,00.0000000,W84*5F
$GPRMC,185942.00,A,4742.4465133,N,01617.9726476,E,0.0,,010125,5.1,E,D*17
$GPGLL,4742.4465133,N,01617.9726476,E,185942.00,A,D*66
$GPGGA,185942.00,4742.4465133,N,01617.9726476,E,2,18,0.8,626.5056,M,43.2111,M,2.8,0123*40
$GNGNS,185942.00,4742.4465133,N,01617.9726476,E,DAAA,18,0.8,626.5056,43.2111,,*56
$GPGNS,185942.00,,,,,,05,,,,2.8,123*71
$GLGNS,185942.00,,,,,,03,,,,,*7F
$GAGNS,185942.00,,,,,,03,,,,,*72
$GBGNS,185942.00,,,,,,07,,,,,*75
$GPLLQ,185942.00,010125,,M,,M,1,18,2.627,,M*1A
$GPVTG,,T,,M,0.00,N,0.00,K,D*26
$GPHDT,,T*1B
$GPTHS,,V*0E
$GPROT,,V*08
$PSSN,HRP,185942.00,010125,,,,,,,00,0,,*62
$PTNL,AVR,185942.00,,Yaw,,Tilt,,,,0,,00*34
$GPGSA,A,3,08,10,16,18,26,,,,,,,,1.3,0.8,1.1*3B
$GPGSA,A,3,66,73,82,,,,,,,,,,1.3,0.8,1.1*36
$GPGSA,A,3,13,21,26,,,,,,,,,,1.3,0.8,1.1*3D
$GPGSA,A,3,11,13,23,28,37,38,43,,,,,,1.3,0.8,1.1*39
$GPGST,185942.00,3.464,1.111,1.016,272.987,1.016,1.111,2.153*55
$GPGBS,185942.00,3.224,4.115,7.485,26,0.0001,2.351,0.691*5A
$GPGRS,185942.00,1,-0.7,-0.1,-1.6,-0.1,2.4,,,,,,,*65
$GPGRS,185942.00,1,-2.0,3.5,-2.9,,,,,,,,,*6C
$GPGRS,185942.00,1,0.6,0.4,1.9,,,,,,,,,*69
$GPGRS,185942.00,1,-4.3,5.7,1.5,0.6,-2.6,5.0,-3.0,,,,,*4B
$GPGSV,5,1,17,16,66,258,41,10,27,171,44,08,11,291,35,15,12,073,*72
$GPGSV,5,2,17,29,12,101,26,26,50,200,43,27,44,295,29,18,54,057,45*7B
$GPGSV,5,3,17,23,52,126,30,07,07,330,31,05,01,029,,13,03,042,*73
$GPGSV,5,4,17,31,01,214,,36,35,170,40,34,31,208,,49,34,195,37*77
$GPGSV,5,5,17,61,03,257,*4B
$GLGSV,3,1,10,83,60,292,32,80,37,206,30,74,19,332,33,81,15,064,34*69
$GLGSV,3,2,10,67,21,107,35,66,25,050,38,73,49,289,41,82,58,033,46*64
$GLGSV,3,3,10,65,05,006,24,84,03,256,*6C
$GAGSV,3,1,09,13,87,253,46,27,30,162,31,14,31,284,,26,31,235,43*65
$GAGSV,3,2,09,23,34,310,,15,37,054,28,21,68,232,47,03,05,072,*61
$GAGSV,3,3,09,05,04,025,*57
$GBGSV,5,1,20,43,61,069,50,33,11,150,,21,19,045,24,46,14,323,*6A
$GBGSV,5,2,20,60,11,108,,38,21,037,33,05,22,129,,23,26,208,30*6E
$GBGSV,5,3,20,34,15,082,22,14,23,127,34,50,27,069,,58,27,311,*65
$GBGSV,5,4,20,08,35,040,34,42,29,098,33,13,42,049,40,11,38,073,46*69
$GBGSV,5,5,20,37,39,268,46,28,49,275,43,27,06,266,,02,07,106,*6A
$GPGGA,185942.00,,,,,0,00,,,M,,M,,*4B
$PTNL,GGK,185942.00,010125,4742.4465133,N,01617.9726476,E,1,18,1.3,EHT669.7167,M*45
$GPGGQ,185942.00,010125,4742.4465133,N,01617.9726476,E,1,18,2.627,626.5056,M*32
$GPGFA,185942.00,10.566,17.658,1.111,1.016,272.987,2.153,,VVV*0B
$GPLLK,185942.00,010125,,M,,M,1,18,1.5,,M*05
$GNGMP,185942.00,,,,,DAAA,18,0.8,,,,*54
$GPGMP,185942.00,,,,,,05,,,,2.8,123*71
$GLGMP,185942.00,,,,,,03,,,,,*7F
$GAGMP,185942.00,,,,,,03,,,,,*72
$GBGMP,185942.00,,,,,,07,,,,,*75
$PSSN,SNC,[0,327600000,2347]*44
$GPZDA,185947.00,01,01,2025,,*65
$GPDTM,W84,,00.0000000,N,00.0000000,E,00.0000000,W84*5F
$GPRMC,185947.00,A,4742.4465249,N,01617.9726438,E,0.0,,010125,5.1,E,D*16
$GPGLL,4742.4465249,N,01617.9726438,E,185947.00,A,D*67
$GPGGA,185947.00,4742.4465249,N,01617.9726438,E,2,16,0.8,626.4967,M,43.2111,M,1.4,0123*4A
$GNGNS,185947.00,4742.4465249,N,01617.9726438,E,DAAA,16,0.8,626.4967,43.2111,,*53
$GPGNS,185947.00,,,,,,05,,,,1.4,123*7B
$GLGNS,185947.00,,,,,,02,,,,,*7B
$GAGNS,185947.00,,,,,,03,,,,,*77
$GBGNS,185947.00,,,,,,06,,,,,*71
$GPLLQ,185947.00,010125,,M,,M,1,16,2.414,,M*13
$GPVTG,,T,,M,0.01,N,0.02,K,D*25
$GPHDT,,T*1B
$GPTHS,,V*0E
$GPROT,,V*08
$PSSN,HRP,185947.00,010125,,,,,,,00,0,,*67
$PTNL,AVR,185947.00,,Yaw,,Tilt,,,,0,,00*31
$GPGSA,A,3,08,10,16,18,26,,,,,,,,1.5,0.8,1.3*3F
$GPGSA,A,3,73,82,,,,,,,,,,,1.5,0.8,1.3*32
$GPGSA,A,3,13,21,26,,,,,,,,,,1.5,0.8,1.3*39
$GPGSA,A,3,11,13,23,28,37,43,,,,,,,1.5,0.8,1.3*36
$GPGST,185947.00,3.389,0.999,0.881,59.415,0.913,0.970,2.013*61
$GPGBS,185947.00,3.116,3.967,7.628,26,0.0001,1.628,0.644*52
$GPGRS,185947.00,1,0.2,-0.7,-0.7,-0.0,1.6,,,,,,,*4E
$GPGRS,185947.00,1,0.4,-2.4,,,,,,,,,,*67
$GPGRS,185947.00,1,0.6,0.5,1.8,,,,,,,,,*6C
$GPGRS,185947.00,1,-3.8,6.8,4.0,0.8,-1.9,-3.0,,,,,,*67
$GPGSV,5,1,17,16,66,258,37,10,27,171,45,08,11,291,36,15,12,073,*71
$GPGSV,5,2,17,29,12,101,25,26,50,200,43,27,44,295,31,18,54,057,44*70
$GPGSV,5,3,17,23,52,126,32,07,07,330,,05,01,029,,13,03,042,*73
$GPGSV,5,4,17,31,01,214,,36,35,170,40,34,31,208,,49,34,195,37*77
$GPGSV,5,5,17,61,03,257,*4B
$GLGSV,3,1,10,83,60,292,33,80,37,206,34,74,19,331,27,81,15,064,34*6A
$GLGSV,3,2,10,67,21,106,35,66,25,050,33,73,49,289,38,82,58,033,46*60
$GLGSV,3,3,10,65,04,006,24,84,03,256,*6D
$GAGSV,3,1,09,13,87,253,46,27,30,162,31,26,31,235,43,23,34,310,*68
$GAGSV,3,2,09,14,31,284,,15,37,054,27,21,68,232,47,03,05,072,*63
$GAGSV,3,3,09,05,04,025,*57
$GBGSV,5,1,20,43,61,069,50,33,11,150,,21,19,045,28,46,14,323,*66
$GBGSV,5,2,20,60,11,108,,38,21,037,32,05,22,129,,23,26,208,31*6E
$GBGSV,5,3,20,34,15,082,,14,23,127,34,50,27,069,,58,27,311,*65
$GBGSV,5,4,20,08,35,040,34,42,29,098,34,13,42,049,40,11,38,073,45*6D
$GBGSV,5,5,20,37,39,268,45,28,49,275,42,27,06,266,,02,07,106,*68
$GPGGA,185947.00,,,,,0,00,,,M,,M,,*4E
$PTNL,GGK,185947.00,010125,4742.4465249,N,01617.9726438,E,1,16,1.5,EHT669.7078,M*43
$GPGGQ,185947.00,010125,4742.4465249,N,01617.9726438,E,1,16,2.414,626.4967,M*35
$GPGFA,185947.00,9.500,16.510,0.999,0.881,59.415,2.013,,VVV*0E
$GPLLK,185947.00,010125,,M,,M,1,16,1.8,,M*03
$GNGMP,185947.00,,,,,DAAA,16,0.8,,,,*5F
$GPGMP,185947.00,,,,,,05,,,,1.4,123*7B
$GLGMP,185947.00,,,,,,02,,,,,*7B
$GAGMP,185947.00,,,,,,03,,,,,*77
$GBGMP,185947.00,,,,,,06,,,,,*71
$PSSN,SNC,[0,327605000,2347]*41
$GPZDA,185952.00,01,01,2025,,*61
$GPDTM,W84,,00.0000000,N,00.0000000,E,00.0000000,W84*5F
$GPRMC,185952.00,A,4742.4465295,N,01617.9726452,E,0.0,,010125,5.1,E,D*1F
$GPGLL,4742.4465295,N,01617.9726452,E,185952.00,A,D*6E
$GPGGA,185952.00,4742.4465295,N,01617.9726452,E,2,16,0.8,626.4839,M,43.2111,M,2.5,0123*4B
$GNGNS,185952.00,4742.4465295,N,01617.9726452,E,DAAA,16,0.8,626.4839,43.2111,,*50
$GPGNS,185952.00,,,,,,04,,,,2.5,123*7C
$GLGNS,185952.00,,,,,,03,,,,,*7E
$GAGNS,185952.00,,,,,,03,,,,,*73
$GBGNS,185952.00,,,,,,06,,,,,*75
$GPLLQ,185952.00,010125,,M,,M,1,16,2.676,,M*11
$GPVTG,,T,,M,0.00,N,0.01,K,D*27
$GPHDT,,T*1B
$GPTHS,,V*0E
$GPROT,,V*08
$PSSN,HRP,185952.00,010125,,,,,,,00,0,,*63
$PTNL,AVR,185952.00,,Yaw,,Tilt,,,,0,,00*35
$GPGSA,A,3,08,10,18,26,,,,,,,,,1.6,0.8,1.4*3C
$GPGSA,A,3,73,80,82,,,,,,,,,,1.6,0.8,1.4*3E
$GPGSA,A,3,13,21,26,,,,,,,,,,1.6,0.8,1.4*3D
$GPGSA,A,3,11,13,23,28,37,43,,,,,,,1.6,0.8,1.4*32
$GPGST,185952.00,3.838,1.119,0.711,277.788,0.721,1.112,2.325*5E
$GPGBS,185952.00,3.514,5.571,12.743,08,0.0001,-1.832,1.060*40
$GPGRS,185952.00,1,-1.8,-0.6,-0.3,1.1,,,,,,,,*6D
$GPGRS,185952.00,1,-0.6,0.6,-2.6,,,,,,,,,*66
$GPGRS,185952.00,1,0.7,0.4,1.4,,,,,,,,,*64
$GPGRS,185952.00,1,-3.1,7.7,5.8,0.4,-2.3,-3.0,,,,,,*68
$GPGSV,5,1,17,16,66,258,33,10,27,171,44,08,11,291,35,15,12,073,*77
$GPGSV,5,2,17,29,12,101,23,26,50,200,42,27,44,295,34,18,54,057,44*72
$GPGSV,5,3,17,23,52,126,32,07,07,330,36,05,01,029,,13,03,042,*76
$GPGSV,5,4,17,31,01,214,,36,35,170,40,34,31,208,,49,34,195,36*76
$GPGSV,5,5,17,61,03,257,*4B
$GLGSV,3,1,10,83,60,292,34,80,37,206,35,74,19,331,,81,15,064,35*68
$GLGSV,3,2,10,67,21,106,33,66,25,050,31,73,49,289,37,82,58,033,46*6B
$GLGSV,3,3,10,65,04,006,24,84,03,256,*6D
$GAGSV,3,1,09,13,87,254,46,27,30,162,32,26,32,236,43,23,34,310,*6C
$GAGSV,3,2,09,14,31,284,,15,37,054,30,21,68,232,47,03,05,072,*65
$GAGSV,3,3,09,05,04,025,*57
$GBGSV,5,1,20,43,61,069,50,33,11,150,,21,19,045,28,46,14,323,*66
$GBGSV,5,2,20,60,11,108,,38,21,037,31,05,22,129,,23,26,208,30*6C
$GBGSV,5,3,20,34,15,082,,14,23,127,34,50,27,069,,58,27,311,*65
$GBGSV,5,4,20,08,35,040,34,42,29,098,33,13,42,049,40,11,38,073,46*69
$GBGSV,5,5,20,37,39,268,45,28,49,275,42,27,07,266,28,02,07,106,*63
$GPGGA,185952.00,,,,,0,00,,,M,,M,,*4A
$PTNL,GGK,185952.00,010125,4742.4465295,N,01617.9726452,E,1,16,1.6,EHT669.6949,M*43
$GPGGQ,185952.00,010125,4742.4465295,N,01617.9726452,E,1,16,2.676,626.4839,M*30
$GPGFA,185952.00,10.635,19.062,1.119,0.711,277.788,2.325,,VVV*00
$GPLLK,185952.00,010125,,M,,M,1,16,1.9,,M*06
$GNGMP,185952.00,,,,,DAAA,16,0.8,,,,*5B
$GPGMP,185952.00,,,,,,04,,,,2.5,123*7C
$GLGMP,185952.00,,,,,,03,,,,,*7E
$GAGMP,185952.00,,,,,,03,,,,,*73
$GBGMP,185952.00,,,,,,06,,,,,*75
$PSSN,SNC,[0,327610000,2347]*45
$GPZDA,185957.00,01,01,2025,,*64
$GPDTM,W84,,00.0000000,N,00.0000000,E,00.0000000,W84*5F
$GPRMC,185957.00,A,4742.4465328,N,01617.9726443,E,0.0,,010125,5.1,E,D*1D
$GPGLL,4742.4465328,N,01617.9726443,E,185957.00,A,D*6C
$GPGGA,185957.00,4742.4465328,N,01617.9726443,E,2,18,0.7,626.4656,M,43.2111,M,3.3,0123*48
$GNGNS,185957.00,4742.4465328,N,01617.9726443,E,DAAA,18,0.7,626.4656,43.2111,,*54
$GPGNS,185957.00,,,,,,06,,,,3.3,123*7C
$GLGNS,185957.00,,,,,,03,,,,,*7B
$GAGNS,185957.00,,,,,,03,,,,,*76
$GBGNS,185957.00,,,,,,06,,,,,*70
$GPLLQ,185957.00,010125,,M,,M,1,18,1.889,,M*17
$GPVTG,,T,,M,0.01,N,0.01,K,D*26
$GPHDT,,T*1B
$GPTHS,,V*0E
$GPROT,,V*08
$PSSN,HRP,185957.00,010125,,,,,,,00,0,,*66
$PTNL,AVR,185957.00,,Yaw,,Tilt,,,,0,,00*30
$GPGSA,A,3,07,10,16,18,26,27,,,,,,,1.3,0.7,1.1*3E
$GPGSA,A,3,80,82,83,,,,,,,,,,1.3,0.7,1.1*3E
$GPGSA,A,3,13,21,26,,,,,,,,,,1.3,0.7,1.1*32
$GPGSA,A,3,11,13,28,37,42,43,,,,,,,1.3,0.7,1.1*3A
$GPGST,185957.00,3.357,0.803,0.634,77.950,0.643,0.797,1.588*68
$GPGBS,185957.00,2.846,4.630,8.033,07,0.0001,-2.594,1.187*77
$GPGRS,185957.00,1,-2.6,-0.7,0.2,0.3,0.3,-0.3,,,,,,*66
$GPGRS,185957.00,1,3.4,-2.6,-4.7,,,,,,,,,*67
$GPGRS,185957.00,1,1.3,1.0,1.1,,,,,,,,,*64
$GPGRS,185957.00,1,-1.9,7.5,-0.4,-1.8,1.8,-2.5,,,,,,*40
$GPGSV,5,1,17,16,66,258,36,10,27,171,44,08,11,291,35,15,12,073,*72
$GPGSV,5,2,17,29,12,101,21,26,50,200,40,27,44,295,37,18,54,057,44*71
$GPGSV,5,3,17,23,52,126,32,07,07,330,37,05,01,029,,13,03,042,*77
$GPGSV,5,4,17,31,01,214,,36,35,170,40,34,31,208,,49,34,195,37*77
$GPGSV,5,5,17,61,03,257,*4B
$GLGSV,3,1,10,83,60,292,36,80,37,206,36,74,19,331,,81,15,064,34*68
$GLGSV,3,2,10,67,21,106,33,66,25,050,29,73,49,289,34,82,58,033,45*62
$GLGSV,3,3,10,65,04,006,25,84,03,256,*6C
$GAGSV,3,1,09,13,87,254,46,27,30,162,33,26,32,236,42,23,34,310,*6C
$GAGSV,3,2,09,14,31,284,,15,37,054,34,21,68,232,47,03,05,072,*61
$GAGSV,3,3,09,05,04,025,*57
$GBGSV,5,1,20,43,61,069,50,33,11,150,,21,19,045,27,46,14,323,*69
$GBGSV,5,2,20,60,11,108,,38,21,037,32,05,22,129,,23,26,208,31*6E
$GBGSV,5,3,20,34,15,082,,14,23,127,33,50,27,069,,58,27,311,*62
$GBGSV,5,4,20,08,35,040,34,42,29,098,36,13,41,048,40,11,37,073,46*61
$GBGSV,5,5,20,37,39,268,45,28,49,275,41,27,07,266,28,02,07,106,*60
$GPGGA,185957.00,,,,,0,00,,,M,,M,,*4F
$PTNL,GGK,185957.00,010125,4742.4465328,N,01617.9726443,E,1,18,1.3,EHT669.6767,M*48
$GPGGQ,185957.00,010125,4742.4465328,N,01617.9726443,E,1,18,1.889,626.4656,M*36
$GPGFA,185957.00,7.636,13.021,0.803,0.634,77.950,1.588,,VVV*03
$GPLLK,185957.00,010125,,M,,M,1,18,1.6,,M*02
$GNGMP,185957.00,,,,,DAAA,18,0.7,,,,*5F
$GPGMP,185957.00,,,,,,06,,,,3.3,123*7C
$GLGMP,185957.00,,,,,,03,,,,,*7B
$GAGMP,185957.00,,,,,,03,,,,,*76
$GBGMP,185957.00,,,,,,06,,,,,*70
$PSSN,SNC,[0,327615000,2347]*40
$GPZDA,190002.00,01,01,2025,,*69
$GPDTM,W84,,00.0000000,N,00.0000000,E,00.0000000,W84*5F
$GPRMC,190002.00,A,4742.4465287,N,01617.9726419,E,0.0,,010125,5.1,E,D*1B
$GPGLL,4742.4465287,N,01617.9726419,E,190002.00,A,D*6A
$GPGGA,190002.00,4742.4465287,N,01617.9726419,E,2,19,0.7,626.4706,M,43.2111,M,3.0,0123*48
$GNGNS,190002.00,4742.4465287,N,01617.9726419,E,DAAA,19,0.7,626.4706,43.2111,,*57
$GPGNS,190002.00,,,,,,06,,,,3.0,123*72
$GLGNS,190002.00,,,,,,03,,,,,*76
$GAGNS,190002.00,,,,,,04,,,,,*7C
$GBGNS,190002.00,,,,,,06,,,,,*7D
$GPLLQ,190002.00,010125,,M,,M,1,19,2.278,,M*1C
$GPVTG,,T,,M,0.00,N,0.01,K,D*27
$GPHDT,,T*1B
$GPTHS,,V*0E
$GPROT,,V*08
$PSSN,HRP,190002.00,010125,,,,,,,00,0,,*6B
$PTNL,AVR,190002.00,,Yaw,,Tilt,,,,0,,00*3D
$GPGSA,A,3,07,10,16,18,26,27,,,,,,,1.4,0.7,1.1*39
$GPGSA,A,3,73,82,83,,,,,,,,,,1.4,0.7,1.1*35
$GPGSA,A,3,13,15,21,26,,,,,,,,,1.4,0.7,1.1*31
$GPGSA,A,3,11,13,28,37,42,43,,,,,,,1.4,0.7,1.1*3D
$GPGST,190002.00,3.295,0.990,0.773,76.045,0.788,0.978,1.900*6A
$GPGBS,190002.00,2.878,4.654,7.836,07,0.0001,2.986,1.158*57
$GPGRS,190002.00,1,3.0,-0.0,0.7,0.1,-0.1,-1.7,,,,,,*6B
$GPGRS,190002.00,1,2.8,-2.8,-4.8,,,,,,,,,*66
$GPGRS,190002.00,1,1.3,1.7,0.8,-0.2,,,,,,,,*67
$GPGRS,190002.00,1,-1.7,7.4,-1.5,-1.5,2.1,-2.6,,,,,,*46
$GPGSV,5,1,17,16,66,258,39,10,27,171,44,08,11,291,34,15,12,073,*7C
$GPGSV,5,2,17,29,12,101,,26,50,200,39,27,44,295,38,18,54,057,44*73
$GPGSV,5,3,17,23,52,126,29,07,07,330,38,05,01,029,,13,03,042,*72
$GPGSV,5,4,17,31,01,214,,36,35,170,40,34,31,208,,49,34,195,37*77
$GPGSV,5,5,17,61,03,257,*4B
$GLGSV,3,1,10,83,60,292,37,80,37,206,,74,19,331,27,81,15,064,32*6F
$GLGSV,3,2,10,67,21,106,35,66,25,050,34,73,49,289,37,82,58,033,44*6A
$GLGSV,3,3,10,65,04,006,,84,04,256,*6C
$GAGSV,3,1,09,13,87,254,46,27,30,162,33,26,32,236,41,23,34,310,*6F
$GAGSV,3,2,09,14,31,284,,15,37,054,37,21,68,232,47,03,05,072,*62
$GAGSV,3,3,09,05,04,025,*57
$GBGSV,5,1,20,43,61,070,50,33,11,150,,21,19,045,27,46,14,322,*60
$GBGSV,5,2,20,60,11,108,,38,21,037,31,05,22,129,,23,26,208,30*6C
$GBGSV,5,3,20,34,15,082,,14,23,127,33,50,27,069,,58,27,311,*62
$GBGSV,5,4,20,08,35,040,34,42,29,098,38,13,41,048,40,11,37,073,46*6F
$GBGSV,5,5,20,37,39,268,45,28,49,275,39,27,07,266,28,02,07,106,*6F
$GPGGA,190002.00,,,,,0,00,,,M,,M,,*42
$PTNL,GGK,190002.00,010125,4742.4465287,N,01617.9726419,E,1,19,1.4,EHT669.6816,M*41
$GPGGQ,190002.00,010125,4742.4465287,N,01617.9726419,E,1,19,2.278,626.4706,M*32
$GPGFA,190002.00,9.409,15.579,0.990,0.773,76.045,1.900,,VVV*09
$GPLLK,190002.00,010125,,M,,M,1,19,1.6,,M*0E
$GNGMP,190002.00,,,,,DAAA,19,0.7,,,,*53
$GPGMP,190002.00,,,,,,06,,,,3.0,123*72
$GLGMP,190002.00,,,,,,03,,,,,*76
$GAGMP,190002.00,,,,,,04,,,,,*7C
$GBGMP,190002.00,,,,,,06,,,,,*7D
$PSSN,SNC,[0,327620000,2347]*46
$GPZDA,190007.00,01,01,2025,,*6C
$GPDTM,W84,,00.0000000,N,00.0000000,E,00.0000000,W84*5F
$GPRMC,190007.00,A,4742.4465284,N,01617.9726369,E,0.0,,010125,5.1,E,D*1D
$GPGLL,4742.4465284,N,01617.9726369,E,190007.00,A,D*6C
$GPGGA,190007.00,4742.4465284,N,01617.9726369,E,2,20,0.7,626.5001,M,43.2111,M,1.3,0123*44
$GNGNS,190007.00,4742.4465284,N,01617.9726369,E,DAAA,20,0.7,626.5001,43.2111,,*5A
$GPGNS,190007.00,,,,,,06,,,,1.3,123*76
$GLGNS,190007.00,,,,,,04,,,,,*74
$GAGNS,190007.00,,,,,,04,,,,,*79
$GBGNS,190007.00,,,,,,06,,,,,*78
$GPLLQ,190007.00,010125,,M,,M,1,20,2.787,,M*16
$GPVTG,,T,,M,0.01,N,0.01,K,D*26
$GPHDT,,T*1B
$GPTHS,,V*0E
$GPROT,,V*08
$PSSN,HRP,190007.00,010125,,,,,,,00,0,,*6E
$PTNL,AVR,190007.00,,Yaw,,Tilt,,,,0,,00*38
$GPGSA,A,3,07,10,16,18,26,27,,,,,,,1.3,0.7,1.1*3E
$GPGSA,A,3,67,73,82,83,,,,,,,,,1.3,0.7,1.1*33
$GPGSA,A,3,13,15,21,26,,,,,,,,,1.3,0.7,1.1*36
$GPGSA,A,3,11,13,28,37,42,43,,,,,,,1.3,0.7,1.1*3A
$GPGST,190007.00,6.915,1.211,0.950,75.191,0.969,1.196,2.324*69
$GPGBS,190007.00,2.752,4.361,7.714,67,0.0001,22.129,6.226*6D
$GPGRS,190007.00,1,2.4,0.6,-0.3,-0.8,1.2,-1.3,,,,,,*66
$GPGRS,190007.00,1,22.1,3.6,-2.6,-4.1,,,,,,,,*74
$GPGRS,190007.00,1,1.1,1.4,0.3,-1.4,,,,,,,,*6F
$GPGRS,190007.00,1,-2.4,6.7,-2.6,-1.8,3.3,-2.9,,,,,,*40
$GPGSV,5,1,17,16,66,258,41,10,27,171,43,08,11,291,34,15,12,073,*74
$GPGSV,5,2,17,29,12,101,,26,50,200,38,27,44,295,39,18,54,057,43*74
$GPGSV,5,3,17,23,52,126,30,07,07,330,39,05,01,029,,13,03,042,*7B
$GPGSV,5,4,17,31,01,214,,36,35,170,40,34,31,208,,49,34,195,37*77
$GPGSV,5,5,17,61,03,257,*4B
$GLGSV,3,1,10,83,60,292,38,80,37,206,,74,19,331,30,81,15,064,32*66
$GLGSV,3,2,10,67,21,106,37,66,25,050,32,73,49,289,39,82,58,033,43*67
$GLGSV,3,3,10,65,04,006,26,84,04,256,*68
$GAGSV,3,1,09,13,87,255,46,27,30,162,33,26,32,236,39,23,34,310,*61
$GAGSV,3,2,09,14,31,284,,15,37,054,39,21,68,232,47,03,05,072,*6C
$GAGSV,3,3,09,05,04,025,*57
$GBGSV,5,1,20,43,61,070,50,33,11,150,,21,19,045,26,46,14,322,*61
$GBGSV,5,2,20,60,11,108,,38,21,037,30,05,22,129,,23,26,208,28*64
$GBGSV,5,3,20,34,14,082,23,14,23,127,33,50,27,069,,58,27,311,*62
$GBGSV,5,4,20,08,35,040,34,42,29,098,38,13,41,048,39,11,37,073,46*61
$GBGSV,5,5,20,37,39,268,45,28,49,275,37,27,07,266,28,02,07,106,*61
$GPGGA,190007.00,,,,,0,00,,,M,,M,,*47
$PTNL,GGK,190007.00,010125,4742.4465284,N,01617.9726369,E,1,20,1.3,EHT669.7112,M*46
$GPGGQ,190007.00,010125,4742.4465284,N,01617.9726369,E,1,20,2.787,626.5001,M*3A
$GPGFA,190007.00,11.518,19.055,1.211,0.950,75.191,2.324,,VVV*3B
$GPLLK,190007.00,010125,,M,,M,1,20,1.5,,M*02
$GNGMP,190007.00,,,,,DAAA,20,0.7,,,,*5C
$GPGMP,190007.00,,,,,,06,,,,1.3,123*76
$GLGMP,190007.00,,,,,,04,,,,,*74
$GAGMP,190007.00,,,,,,04,,,,,*79
$GBGMP,190007.00,,,,,,06,,,,,*78
$PSSN,SNC,[0,327625000,2347]*43
$GPZDA,190012.00,01,01,2025,,*68
$GPDTM,W84,,00.0000000,N,00.0000000,E,00.0000000,W84*5F
$GPRMC,190012.00,A,4742.4465384,N,01617.9726378,E,0.0,,010125,5.1,E,D*18
$GPGLL,4742.4465384,N,01617.9726378,E,190012.00,A,D*69
$GPGGA,190012.00,4742.4465384,N,01617.9726378,E,2,20,0.7,626.5277,M,43.2111,M,2.3,0123*41
$GNGNS,190012.00,4742.4465384,N,01617.9726378,E,DAAA,20,0.7,626.5277,43.2111,,*5C
$GPGNS,190012.00,,,,,,06,,,,2.3,123*71
$GLGNS,190012.00,,,,,,04,,,,,*70
$GAGNS,190012.00,,,,,,04,,,,,*7D
$GBGNS,190012.00,,,,,,06,,,,,*7C
$GPLLQ,190012.00,010125,,M,,M,1,20,3.058,,M*16
$GPVTG,,T,,M,0.00,N,0.01,K,D*27
$GPHDT,,T*1B
$GPTHS,,V*0E
$GPROT,,V*08
$PSSN,HRP,190012.00,010125,,,,,,,00,0,,*6A
$PTNL,AVR,190012.00,,Yaw,,Tilt,,,,0,,00*3C
$GPGSA,A,3,07,10,16,18,26,27,,,,,,,1.3,0.7,1.1*3E
$GPGSA,A,3,67,73,82,83,,,,,,,,,1.3,0.7,1.1*33
$GPGSA,A,3,13,15,21,26,,,,,,,,,1.3,0.7,1.1*36
$GPGSA,A,3,11,13,28,37,42,43,,,,,,,1.3,0.7,1.1*3A
$GPGST,190012.00,6.989,1.295,1.047,75.732,1.063,1.282,2.565*62
$GPGBS,190012.00,2.816,4.429,7.811,67,0.0001,22.468,6.226*67
$GPGRS,190012.00,1,1.3,-0.0,-1.1,-1.1,2.4,-0.4,,,,,,*45
$GPGRS,190012.00,1,22.5,1.7,-2.2,-3.3,,,,,,,,*76
$GPGRS,190012.00,1,1.1,0.5,0.1,-1.5,,,,,,,,*68
$GPGRS,190012.00,1,-3.2,6.0,-3.5,-2.2,5.3,-2.6,,,,,,*46
$GPGSV,5,1,17,16,66,258,41,10,27,171,43,08,11,291,34,15,12,073,*74
$GPGSV,5,2,17,29,12,101,,26,50,200,36,27,44,295,38,18,54,057,44*7C
$GPGSV,5,3,17,23,52,126,32,07,07,330,39,05,01,029,,13,03,042,*79
$GPGSV,5,4,17,31,01,214,,36,35,170,40,34,31,208,,49,34,195,37*77
$GPGSV,5,5,17,61,03,257,*4B
$GLGSV,3,1,10,83,60,292,39,80,37,206,40,74,19,331,,81,15,064,30*62
$GLGSV,3,2,10,67,21,106,38,66,25,050,25,73,49,289,41,82,58,033,42*60
$GLGSV,3,3,10,65,04,006,27,84,04,256,*69
$GAGSV,3,1,09,13,87,255,45,27,30,162,34,26,32,236,38,23,34,310,*64
$GAGSV,3,2,09,14,31,284,,15,37,054,41,21,68,232,47,03,05,072,*63
$GAGSV,3,3,09,05,04,025,*57
$GBGSV,5,1,20,43,61,070,50,33,11,150,,21,19,045,26,46,14,322,*61
$GBGSV,5,2,20,60,11,108,,38,21,037,30,05,22,129,,23,26,208,28*64
$GBGSV,5,3,20,34,14,082,25,14,23,127,32,50,27,069,,58,27,311,*65
$GBGSV,5,4,20,08,35,040,34,42,30,098,38,13,41,048,39,11,37,073,46*69
$GBGSV,5,5,20,37,39,268,45,28,49,275,35,27,07,266,27,02,07,106,*6C
$GPGGA,190012.00,,,,,0,00,,,M,,M,,*43
$PTNL,GGK,190012.00,010125,4742.4465384,N,01617.9726378,E,1,20,1.3,EHT669.7388,M*42
$GPGGQ,190012.00,010125,4742.4465384,N,01617.9726378,E,1,20,3.058,626.5277,M*38
$GPGFA,190012.00,12.315,21.031,1.295,1.047,75.732,2.565,,VVV*30
$GPLLK,190012.00,010125,,M,,M,1,20,1.5,,M*06
$GNGMP,190012.00,,,,,DAAA,20,0.7,,,,*58
$GPGMP,190012.00,,,,,,06,,,,2.3,123*71
$GLGMP,190012.00,,,,,,04,,,,,*70
$GAGMP,190012.00,,,,,,04,,,,,*7D
$GBGMP,190012.00,,,,,,06,,,,,*7C
$PSSN,SNC,[0,327630000,2347]*47
$GPZDA,190017.00,01,01,2025,,*6D
$GPDTM,W84,,00.0000000,N,00.0000000,E,00.0000000,W84*5F
$GPRMC,190017.00,A,4742.4465375,N,01617.9726417,E,0.0,,010125,5.1,E,D*1D
$GPGLL,4742.4465375,N,01617.9726417,E,190017.00,A,D*6C
$GPGGA,190017.00,4742.4465375,N,01617.9726417,E,2,20,0.6,626.5591,M,43.2111,M,3.3,0123*4B
$GNGNS,190017.00,4742.4465375,N,01617.9726417,E,DAAA,20,0.6,626.5591,43.2111,,*57
$GPGNS,190017.00,,,,,,06,,,,3.3,123*75
$GLGNS,190017.00,,,,,,04,,,,,*75
$GAGNS,190017.00,,,,,,05,,,,,*79
$GBGNS,190017.00,,,,,,05,,,,,*7A
$GPLLQ,190017.00,010125,,M,,M,1,20,2.591,,M*12
$GPVTG,,T,,M,0.00,N,0.01,K,D*27
$GPHDT,,T*1B
$GPTHS,,V*0E
$GPROT,,V*08
$PSSN,HRP,190017.00,010125,,,,,,,00,0,,*6F
$PTNL,AVR,190017.00,,Yaw,,Tilt,,,,0,,00*39
$GPGSA,A,3,07,10,16,18,26,27,,,,,,,1.2,0.6,1.1*3E
$GPGSA,A,3,67,73,82,83,,,,,,,,,1.2,0.6,1.1*33
$GPGSA,A,3,13,15,21,26,27,,,,,,,,1.2,0.6,1.1*33
$GPGSA,A,3,11,13,37,42,43,,,,,,,,1.2,0.6,1.1*30
$GPGST,190017.00,5.920,1.108,0.887,75.200,0.903,1.095,2.168*62
$GPGBS,190017.00,2.847,4.547,7.925,67,0.0001,18.280,6.228*6E
$GPGRS,190017.00,1,2.2,0.1,-1.5,-0.5,-0.3,0.9,,,,,,*67
$GPGRS,190017.00,1,18.3,3.0,-2.4,-1.9,,,,,,,,*77
$GPGRS,190017.00,1,1.5,0.6,0.6,-0.5,0.3,,,,,,,*41
$GPGRS,190017.00,1,-2.5,5.5,-1.7,7.1,-1.3,,,,,,,*46
$GPGSV,5,1,17,16,66,258,42,10,27,171,43,08,11,291,34,15,12,073,*77
$GPGSV,5,2,17,29,12,101,,26,50,200,35,27,44,295,39,18,54,057,44*7E
$GPGSV,5,3,17,23,52,126,32,07,07,330,40,05,01,029,,13,03,042,*77
$GPGSV,5,4,17,31,01,214,,36,35,170,40,34,31,208,,49,34,195,37*77
$GPGSV,5,5,17,61,03,257,*4B
$GLGSV,3,1,10,83,60,292,41,80,37,206,31,74,19,331,33,81,15,064,30*6B
$GLGSV,3,2,10,67,21,106,37,66,25,050,28,73,49,289,42,82,58,034,43*67
$GLGSV,3,3,10,65,04,006,27,84,04,256,*69
$GAGSV,3,1,09,13,87,256,45,27,30,162,35,26,32,236,37,23,34,310,*69
$GAGSV,3,2,09,14,31,284,,15,36,054,42,21,68,232,47,03,05,071,*62
$GAGSV,3,3,09,05,04,025,*57
$GBGSV,5,1,20,43,61,070,51,33,11,150,,21,19,045,25,46,15,322,*62
$GBGSV,5,2,20,60,11,108,,38,21,037,30,05,22,129,,23,26,208,29*65
$GBGSV,5,3,20,34,14,082,24,14,23,127,32,50,27,069,,58,27,310,*65
$GBGSV,5,4,20,08,35,040,35,42,30,098,38,13,41,048,38,11,37,073,46*69
$GBGSV,5,5,20,37,39,268,45,28,50,275,34,27,07,266,26,02,07,106,*64
$GPGGA,190017.00,,,,,0,00,,,M,,M,,*46
$PTNL,GGK,190017.00,010125,4742.4465375,N,01617.9726417,E,1,20,1.2,EHT669.7702,M*40
$GPGGQ,190017.00,010125,4742.4465375,N,01617.9726417,E,1,20,2.591,626.5591,M*33
$GPGFA,190017.00,10.535,17.774,1.108,0.887,75.200,2.168,,VVV*3F
$GPLLK,190017.00,010125,,M,,M,1,20,1.5,,M*03
$GNGMP,190017.00,,,,,DAAA,20,0.6,,,,*5C
$GPGMP,190017.00,,,,,,06,,,,3.3,123*75
$GLGMP,190017.00,,,,,,04,,,,,*75
$GAGMP,190017.00,,,,,,05,,,,,*79
$GBGMP,190017.00,,,,,,05,,,,,*7A
$PSSN,SNC,[0,327635000,2347]*42
$GPZDA,190022.00,01,01,2025,,*6B
$GPDTM,W84,,00.0000000,N,00.0000000,E,00.0000000,W84*5F
$GPRMC,190022.00,A,4742.4465339,N,01617.9726410,E,0.0,,010125,5.1,E,D*14
$GPGLL,4742.4465339,N,01617.9726410,E,190022.00,A,D*65
$GPGGA,190022.00,4742.4465339,N,01617.9726410,E,2,23,0.6,626.6010,M,43.2111,M,3.1,0123*4C
$GNGNS,190022.00,4742.4465339,N,01617.9726410,E,DAAA,23,0.6,626.6010,43.2111,,*52
$GPGNS,190022.00,,,,,,07,,,,3.1,123*70
$GLGNS,190022.00,,,,,,04,,,,,*73
$GAGNS,190022.00,,,,,,05,,,,,*7F
$GBGNS,190022.00,,,,,,07,,,,,*7E
$GPLLQ,190022.00,010125,,M,,M,1,23,2.730,,M*1E
$GPVTG,,T,,M,0.00,N,0.00,K,D*26
$GPHDT,,T*1B
$GPTHS,,V*0E
$GPROT,,V*08
$PSSN,HRP,190022.00,010125,,,,,,,00,0,,*69
$PTNL,AVR,190022.00,,Yaw,,Tilt,,,,0,,00*3F
$GPGSA,A,3,07,10,16,18,23,26,27,,,,,,1.2,0.6,1.0*3E
$GPGSA,A,3,67,73,82,83,,,,,,,,,1.2,0.6,1.0*32
$GPGSA,A,3,13,15,21,26,27,,,,,,,,1.2,0.6,1.0*32
$GPGSA,A,3,11,13,14,28,37,42,43,,,,,,1.2,0.6,1.0*3E
$GPGST,190022.00,4.833,1.148,0.921,66.672,0.960,1.116,2.299*6E
$GPGBS,190022.00,2.700,3.065,7.635,16,0.0001,-1.997,0.656*7D
$GPGRS,190022.00,1,2.3,0.2,-2.0,-0.8,1.0,1.4,0.4,,,,,*61
$GPGRS,190022.00,1,15.4,3.4,-2.8,-1.6,,,,,,,,*7C
$GPGRS,190022.00,1,1.1,0.2,0.8,0.3,1.3,,,,,,,*63
$GPGRS,190022.00,1,-1.9,4.3,1.2,-4.4,-2.2,7.0,-1.0,,,,,*62
$GPGSV,5,1,17,16,66,257,42,10,27,171,43,08,11,291,34,15,12,073,*78
$GPGSV,5,2,17,29,12,101,20,26,50,200,36,27,44,295,39,18,54,057,45*7E
$GPGSV,5,3,17,23,52,126,36,07,07,330,40,05,01,029,,13,03,042,*73
$GPGSV,5,4,17,31,01,214,,36,35,170,40,34,31,208,,49,34,195,37*77
$GPGSV,5,5,17,61,03,257,*4B
$GLGSV,3,1,10,83,60,292,41,80,37,206,,74,19,331,33,81,15,064,27*6F
$GLGSV,3,2,10,67,21,106,36,66,25,050,29,73,49,289,42,82,58,034,44*60
$GLGSV,3,3,10,65,04,006,28,84,04,256,*66
$GAGSV,3,1,09,13,87,256,46,27,30,162,36,26,32,236,36,23,34,310,*68
$GAGSV,3,2,09,14,31,285,,15,36,054,43,21,68,232,48,03,05,071,*6D
$GAGSV,3,3,09,05,04,025,*57
$GBGSV,5,1,20,43,61,070,50,33,11,150,,21,19,045,25,46,15,322,*63
$GBGSV,5,2,20,60,11,108,,38,21,037,29,05,22,129,,23,25,208,32*64
$GBGSV,5,3,20,34,14,082,,14,23,127,36,50,27,069,,58,27,310,*67
$GBGSV,5,4,20,08,35,040,34,42,30,098,36,13,41,048,38,11,37,073,47*67
$GBGSV,5,5,20,37,39,268,45,28,50,275,35,27,07,266,27,02,07,106,*64
$GPGGA,190022.00,,,,,0,00,,,M,,M,,*40
$PTNL,GGK,190022.00,010125,4742.4465339,N,01617.9726410,E,1,23,1.2,EHT669.8121,M*42
$GPGGQ,190022.00,010125,4742.4465339,N,01617.9726410,E,1,23,2.730,626.6010,M*3F
$GPGFA,190022.00,10.917,18.853,1.148,0.921,66.672,2.299,,VVV*37
$GPLLK,190022.00,010125,,M,,M,1,23,1.4,,M*07
$GNGMP,190022.00,,,,,DAAA,23,0.6,,,,*59
$GPGMP,190022.00,,,,,,07,,,,3.1,123*70
$GLGMP,190022.00,,,,,,04,,,,,*73
$GAGMP,190022.00,,,,,,05,,,,,*7F
$GBGMP,190022.00,,,,,,07,,,,,*7E
$PSSN,SNC,[0,327640000,2347]*40
$GPZDA,190027.00,01,01,2025,,*6E
$GPDTM,W84,,00.0000000,N,00.0000000,E,00.0000000,W84*5F
$GPRMC,190027.00,A,4742.4465335,N,01617.9726348,E,0.0,,010125,5.1,E,D*17
$GPGLL,4742.4465335,N,01617.9726348,E,190027.00,A,D*66
$GPGGA,190027.00,4742.4465335,N,01617.9726348,E,2,19,0.7,626.6326,M,43.2111,M,1.4,0123*46
$GNGNS,190027.00,4742.4465335,N,01617.9726348,E,DAAA,19,0.7,626.6326,43.2111,,*5F
$GPGNS,190027.00,,,,,,05,,,,1.4,123*70
$GLGNS,190027.00,,,,,,04,,,,,*76
$GAGNS,190027.00,,,,,,05,,,,,*7A
$GBGNS,190027.00,,,,,,05,,,,,*79
$GPLLQ,190027.00,010125,,M,,M,1,19,2.319,,M*1D
$GPVTG,,T,,M,0.00,N,0.01,K,D*27
$GPHDT,,T*1B
$GPTHS,,V*0E
$GPROT,,V*08
$PSSN,HRP,190027.00,010125,,,,,,,00,0,,*6C
$PTNL,AVR,190027.00,,Yaw,,Tilt,,,,0,,00*3A
$GPGSA,A,3,07,10,16,18,27,,,,,,,,1.2,0.7,1.1*3B
$GPGSA,A,3,66,73,82,83,,,,,,,,,1.2,0.7,1.1*33
$GPGSA,A,3,13,15,21,26,27,,,,,,,,1.2,0.7,1.1*32
$GPGSA,A,3,11,13,14,37,43,,,,,,,,1.2,0.7,1.1*32
$GPGST,190027.00,3.596,1.023,0.844,51.901,0.916,0.959,1.903*67
$GPGBS,190027.00,4.199,4.446,7.912,16,0.0001,-1.621,0.597*7C
$GPGRS,190027.00,1,2.5,0.1,-1.6,-0.7,1.0,,,,,,,*6A
$GPGRS,190027.00,1,8.7,3.5,-2.3,-3.1,,,,,,,,*49
$GPGRS,190027.00,1,1.4,-0.2,0.9,0.3,1.2,,,,,,,*4E
$GPGRS,190027.00,1,-1.6,4.5,3.0,-2.3,-1.1,,,,,,,*44
$GPGSV,5,1,17,16,66,257,42,10,27,171,43,08,11,291,33,15,12,073,*7F
$GPGSV,5,2,17,29,12,101,20,26,50,199,37,27,44,295,38,18,54,057,46*7E
$GPGSV,5,3,17,23,52,126,40,07,07,329,40,05,01,029,,13,03,042,*7A
$GPGSV,5,4,17,31,01,214,,36,35,170,40,34,31,208,,49,34,195,37*77
$GPGSV,5,5,17,61,03,257,*4B
$GLGSV,3,1,10,83,60,292,41,80,37,206,31,74,19,331,33,81,15,064,29*63
$GLGSV,3,2,10,67,21,106,34,66,25,050,36,73,49,289,42,82,58,034,45*6D
$GLGSV,3,3,10,65,04,006,28,84,04,256,*66
$GAGSV,3,1,09,13,87,256,46,27,30,162,36,26,32,236,36,23,34,310,*68
$GAGSV,3,2,09,14,31,285,,15,36,054,43,21,68,232,48,03,05,071,*6D
$GAGSV,3,3,09,05,04,025,*57
$GBGSV,5,1,20,43,61,070,50,33,11,150,,21,19,045,26,46,15,322,*60
$GBGSV,5,2,20,60,11,108,,38,21,037,29,05,22,129,,23,25,208,34*62
$GBGSV,5,3,20,34,14,082,22,14,23,127,36,50,27,069,,58,27,310,*67
$GBGSV,5,4,20,08,35,040,34,42,30,098,34,13,41,048,37,11,37,073,47*6A
$GBGSV,5,5,20,37,39,268,44,28,50,275,35,27,07,266,27,02,07,106,*65
$GPGGA,190027.00,,,,,0,00,,,M,,M,,*45
$PTNL,GGK,190027.00,010125,4742.4465335,N,01617.9726348,E,1,19,1.2,EHT669.8437,M*4A
$GPGGQ,190027.00,010125,4742.4465335,N,01617.9726348,E,1,19,2.319,626.6326,M*3C
$GPGFA,190027.00,9.727,15.602,1.023,0.844,51.901,1.903,,VVV*0A
$GPLLK,190027.00,010125,,M,,M,1,19,1.4,,M*0B
$GNGMP,190027.00,,,,,DAAA,19,0.7,,,,*54
$GPGMP,190027.00,,,,,,05,,,,1.4,123*70
$GLGMP,190027.00,,,,,,04,,,,,*76
$GAGMP,190027.00,,,,,,05,,,,,*7A
$GBGMP,190027.00,,,,,,05,,,,,*79
$PSSN,SNC,[0,327645000,2347]*45
$GPZDA,190032.00,01,01,2025,,*6A
$GPDTM,W84,,00.0000000,N,00.0000000,E,00.0000000,W84*5F
$GPRMC,190032.00,A,4742.4465237,N,01617.9726381,E,0.0,,010125,5.1,E,D*15
$GPGLL,4742.4465237,N,01617.9726381,E,190032.00,A,D*64
$GPGGA,190032.00,4742.4465237,N,01617.9726381,E,2,20,0.7,626.6850,M,43.2111,M,2.4,0123*47
$GNGNS,190032.00,4742.4465237,N,01617.9726381,E,DAAA,20,0.7,626.6850,43.2111,,*5D
$GPGNS,190032.00,,,,,,05,,,,2.4,123*77
$GLGNS,190032.00,,,,,,04,,,,,*72
$GAGNS,190032.00,,,,,,05,,,,,*7E
$GBGNS,190032.00,,,,,,06,,,,,*7E
$GPLLQ,190032.00,010125,,M,,M,1,20,2.020,,M*1A
$GPVTG,,T,,M,0.00,N,0.01,K,D*27
$GPHDT,,T*1B
$GPTHS,,V*0E
$GPROT,,V*08
$PSSN,HRP,190032.00,010125,,,,,,,00,0,,*68
$PTNL,AVR,190032.00,,Yaw,,Tilt,,,,0,,00*3E
$GPGSA,A,3,07,10,16,18,27,,,,,,,,1.2,0.7,1.1*3B
$GPGSA,A,3,66,73,82,83,,,,,,,,,1.2,0.7,1.1*33
$GPGSA,A,3,13,15,21,26,27,,,,,,,,1.2,0.7,1.1*32
$GPGSA,A,3,11,13,23,28,37,43,,,,,,,1.2,0.7,1.1*3C
$GPGST,190032.00,4.839,0.873,0.746,54.451,0.791,0.832,1.661*66
$GPGBS,190032.00,4.247,4.472,8.014,66,0.0001,13.700,6.199*68
$GPGRS,190032.00,1,2.2,0.5,-1.0,0.2,-0.2,,,,,,,*6D
$GPGRS,190032.00,1,13.7,2.6,-1.8,-3.8,,,,,,,,*74
$GPGRS,190032.00,1,2.1,-0.4,1.1,0.1,0.0,,,,,,,*42
$GPGRS,190032.00,1,-0.7,6.0,4.9,-4.2,-1.4,-1.0,,,,,,*49
$GPGSV,5,1,17,16,66,257,44,10,28,171,44,08,11,291,33,15,12,072,*70
$GPGSV,5,2,17,29,12,101,,26,50,199,36,27,44,295,35,18,54,057,47*71
$GPGSV,5,3,17,23,52,126,42,07,07,329,39,05,01,029,,13,03,042,*76
$GPGSV,5,4,17,31,01,214,,36,35,170,40,34,31,208,,49,34,195,37*77
$GPGSV,5,5,17,61,03,257,*4B
$GLGSV,3,1,10,83,60,293,41,80,37,206,33,74,19,331,33,81,15,064,*6B
$GLGSV,3,2,10,67,21,106,35,66,25,050,37,73,49,288,40,82,58,034,45*6E
$GLGSV,3,3,10,65,04,006,26,84,04,256,*68
$GAGSV,3,1,09,13,87,257,47,27,30,162,36,26,32,236,35,23,34,310,*6B
$GAGSV,3,2,09,14,31,285,,15,36,054,43,21,68,232,48,03,05,071,*6D
$GAGSV,3,3,09,05,04,025,*57
$GBGSV,5,1,20,43,61,070,50,33,11,150,,21,19,045,28,46,15,322,*6E
$GBGSV,5,2,20,60,11,108,,38,21,037,29,05,22,129,,23,25,208,36*60
$GBGSV,5,3,20,34,14,082,20,14,23,127,28,50,27,068,,58,27,310,*6B
$GBGSV,5,4,20,08,35,040,34,42,30,098,32,13,41,048,37,11,37,073,47*6C
$GBGSV,5,5,20,37,39,268,43,28,50,275,41,27,07,266,28,02,07,106,*6E
$GPGGA,190032.00,,,,,0,00,,,M,,M,,*41
$PTNL,GGK,190032.00,010125,4742.4465237,N,01617.9726381,E,1,20,1.2,EHT669.8961,M*4C
$GPGGQ,190032.00,010125,4742.4465237,N,01617.9726381,E,1,20,2.020,626.6850,M*37
$GPGFA,190032.00,8.297,13.623,0.873,0.746,54.451,1.661,,VVV*03
$GPLLK,190032.00,010125,,M,,M,1,20,1.4,,M*05
$GNGMP,190032.00,,,,,DAAA,20,0.7,,,,*5A
$GPGMP,190032.00,,,,,,05,,,,2.4,123*77
$GLGMP,190032.00,,,,,,04,,,,,*72
$GAGMP,190032.00,,,,,,05,,,,,*7E
$GBGMP,190032.00,,,,,,06,,,,,*7E
$PSSN,SNC,[0,327650000,2347]*41
$GPZDA,190037.00,01,01,2025,,*6F
$GPDTM,W84,,00.0000000,N,00.0000000,E,00.0000000,W84*5F
$GPRMC,190037.00,A,4742.4465194,N,01617.9726362,E,0.0,,010125,5.1,E,D*17
$GPGLL,4742.4465194,N,01617.9726362,E,190037.00,A,D*66
$GPGGA,190037.00,4742.4465194,N,01617.9726362,E,2,19,0.7,626.7088,M,43.2111,M,3.5,0123*43
$GNGNS,190037.00,4742.4465194,N,01617.9726362,E,DAAA,19,0.7,626.7088,43.2111,,*59
$GPGNS,190037.00,,,,,,04,,,,3.5,123*73
$GLGNS,190037.00,,,,,,04,,,,,*77
$GAGNS,190037.00,,,,,,05,,,,,*7B
$GBGNS,190037.00,,,,,,06,,,,,*7B
$GPLLQ,190037.00,010125,,M,,M,1,19,1.953,,M*1B
$GPVTG,,T,,M,0.01,N,0.02,K,D*25
$GPHDT,,T*1B
$GPTHS,,V*0E
$GPROT,,V*08
$PSSN,HRP,190037.00,010125,,,,,,,00,0,,*6D
$PTNL,AVR,190037.00,,Yaw,,Tilt,,,,0,,00*3B
$GPGSA,A,3,07,10,16,18,,,,,,,,,1.3,0.7,1.1*3F
$GPGSA,A,3,66,73,82,83,,,,,,,,,1.3,0.7,1.1*32
$GPGSA,A,3,13,15,21,26,27,,,,,,,,1.3,0.7,1.1*33
$GPGSA,A,3,11,13,23,28,37,43,,,,,,,1.3,0.7,1.1*3D
$GPGST,190037.00,5.853,0.939,0.760,270.803,0.760,0.939,1.535*5C
$GPGBS,190037.00,4.488,4.888,7.851,66,0.0001,16.259,6.198*6A
$GPGRS,190037.00,1,0.1,0.5,-0.3,-0.4,,,,,,,,*41
$GPGRS,190037.00,1,16.3,4.5,-2.2,-4.5,,,,,,,,*76
$GPGRS,190037.00,1,1.9,-0.7,0.8,-0.4,-2.0,,,,,,,*40
$GPGRS,190037.00,1,-0.8,5.9,6.1,-4.1,-1.4,-0.8,,,,,,*49
$GPGSV,5,1,17,16,66,257,44,10,28,171,43,08,11,291,32,15,12,072,*76
$GPGSV,5,2,17,29,12,102,18,26,50,199,35,27,44,295,34,18,54,057,46*78
$GPGSV,5,3,17,23,52,125,42,07,07,329,37,05,01,029,,13,03,041,*78
$GPGSV,5,4,17,31,01,214,,36,35,170,40,34,31,208,,49,34,195,37*77
$GPGSV,5,5,17,61,03,257,*4B
$GLGSV,3,1,10,83,60,293,40,80,37,206,34,74,20,331,31,81,15,064,28*6F
$GLGSV,3,2,10,67,21,106,34,66,25,050,36,73,49,288,40,82,58,034,46*6D
$GLGSV,3,3,10,65,04,006,23,84,04,256,*6D
$GAGSV,3,1,09,13,87,257,47,27,30,162,35,26,32,236,35,23,34,310,*68
$GAGSV,3,2,09,14,31,285,,15,36,054,43,21,68,232,49,03,05,071,*6C
$GAGSV,3,3,09,05,04,025,*57
$GBGSV,5,1,20,43,61,070,50,33,11,150,,21,19,045,29,46,15,322,*6F
$GBGSV,5,2,20,60,11,108,,38,21,037,29,05,22,129,,23,25,208,37*61
$GBGSV,5,3,20,34,14,082,,14,23,127,27,50,27,068,,58,27,310,*66
$GBGSV,5,4,20,08,35,040,33,42,30,098,31,13,41,048,36,11,37,073,47*69
$GBGSV,5,5,20,37,39,268,42,28,50,275,41,27,07,266,29,02,07,106,*6E
$GPGGA,190037.00,,,,,0,00,,,M,,M,,*44
$PTNL,GGK,190037.00,010125,4742.4465194,N,01617.9726362,E,1,19,1.3,EHT669.9199,M*4B
$GPGGQ,190037.00,010125,4742.4465194,N,01617.9726362,E,1,19,1.953,626.7088,M*3D
$GPGFA,190037.00,8.925,12.585,0.939,0.760,270.803,1.535,,VVV*3C
$GPLLK,190037.00,010125,,M,,M,1,19,1.5,,M*0B
$GNGMP,190037.00,,,,,DAAA,19,0.7,,,,*55
$GPGMP,190037.00,,,,,,04,,,,3.5,123*73
$GLGMP,190037.00,,,,,,04,,,,,*77
$GAGMP,190037.00,,,,,,05,,,,,*7B
$GBGMP,190037.00,,,,,,06,,,,,*7B
$PSSN,SNC,[0,327655000,2347]*44
$GPZDA,190042.00,01,01,2025,,*6D
$GPDTM,W84,,00.0000000,N,00.0000000,E,00.0000000,W84*5F
$GPRMC,190042.00,A,4742.4465239,N,01617.9726445,E,0.0,,010125,5.1,E,D*13
$GPGLL,4742.4465239,N,01617.9726445,E,190042.00,A,D*62
$GPGGA,190042.00,4742.4465239,N,01617.9726445,E,2,17,0.7,626.7028,M,43.2111,M,3.0,0123*46
$GNGNS,190042.00,4742.4465239,N,01617.9726445,E,DAAA,17,0.7,626.7028,43.2111,,*59
$GPGNS,190042.00,,,,,,06,,,,3.0,123*76
$GLGNS,190042.00,,,,,,03,,,,,*72
$GAGNS,190042.00,,,,,,03,,,,,*7F
$GBGNS,190042.00,,,,,,05,,,,,*7A
$GPLLQ,190042.00,010125,,M,,M,1,17,2.583,,M*15
$GPVTG,,T,,M,0.00,N,0.00,K,D*26
$GPHDT,,T*1B
$GPTHS,,V*0E
$GPROT,,V*08
$PSSN,HRP,190042.00,010125,,,,,,,00,0,,*6F
$PTNL,AVR,190042.00,,Yaw,,Tilt,,,,0,,00*39
$GPGSA,A,3,07,10,16,18,23,27,,,,,,,1.4,0.7,1.1*3C
$GPGSA,A,3,73,82,83,,,,,,,,,,1.4,0.7,1.1*35
$GPGSA,A,3,13,15,21,,,,,,,,,,1.4,0.7,1.1*35
$GPGSA,A,3,11,13,23,37,43,,,,,,,,1.4,0.7,1.1*30
$GPGST,190042.00,4.091,1.146,0.931,52.665,1.015,1.072,2.119*64
$GPGBS,190042.00,3.799,3.363,7.925,23,0.0001,2.665,0.685*55
$GPGRS,190042.00,1,-1.3,0.1,-0.3,-1.6,2.7,2.1,,,,,,*6C
$GPGRS,190042.00,1,5.7,-3.2,-5.0,,,,,,,,,*68
$GPGRS,190042.00,1,1.2,-0.9,0.5,,,,,,,,,*4C
$GPGRS,190042.00,1,-1.4,6.9,5.3,-1.6,-0.8,,,,,,,*40
$GPGSV,5,1,17,16,66,257,45,10,28,171,43,08,11,291,30,15,12,072,*75
$GPGSV,5,2,17,29,12,102,21,26,50,199,34,27,44,295,36,18,54,057,45*72
$GPGSV,5,3,17,23,52,125,41,07,07,329,37,05,01,029,,13,03,041,*7B
$GPGSV,5,4,17,31,01,214,,36,35,170,40,34,31,208,,49,34,195,37*77
$GPGSV,5,5,17,61,03,257,*4B
$GLGSV,3,1,10,83,60,293,40,80,37,206,35,74,20,331,30,81,15,064,*65
$GLGSV,3,2,10,67,21,106,36,66,25,050,26,73,49,288,42,82,58,034,45*6F
$GLGSV,3,3,10,65,04,006,,84,04,256,*6C
$GAGSV,3,1,09,13,87,258,48,27,30,162,34,26,32,236,34,23,34,310,*68
$GAGSV,3,2,09,14,31,285,,15,36,054,43,21,68,232,49,03,05,071,*6C
$GAGSV,3,3,09,05,04,025,*57
$GBGSV,5,1,20,43,61,070,50,33,11,150,,21,19,045,30,46,15,322,*67
$GBGSV,5,2,20,60,11,108,,38,21,037,29,05,22,129,,23,25,208,37*61
$GBGSV,5,3,20,34,14,082,,14,23,127,23,50,27,068,,58,27,310,*62
$GBGSV,5,4,20,08,35,040,33,42,30,098,32,13,41,048,35,11,37,073,46*68
$GBGSV,5,5,20,37,39,268,42,28,50,275,36,27,07,266,28,02,07,106,*6F
$GPGGA,190042.00,,,,,0,00,,,M,,M,,*46
$PTNL,GGK,190042.00,010125,4742.4465239,N,01617.9726445,E,1,17,1.4,EHT669.9139,M*4C
$GPGGQ,190042.00,010125,4742.4465239,N,01617.9726445,E,1,17,2.583,626.7028,M*3F
$GPGFA,190042.00,10.892,17.379,1.146,0.931,52.665,2.119,,VVV*34
$GPLLK,190042.00,010125,,M,,M,1,17,1.6,,M*04
$GNGMP,190042.00,,,,,DAAA,17,0.7,,,,*59
$GPGMP,190042.00,,,,,,06,,,,3.0,123*76
$GLGMP,190042.00,,,,,,03,,,,,*72
$GAGMP,190042.00,,,,,,03,,,,,*7F
$GBGMP,190042.00,,,,,,05,,,,,*7A
$PSSN,SNC,[0,327660000,2347]*42
$GPZDA,190047.00,01,01,2025,,*68
$GPDTM,W84,,00.0000000,N,00.0000000,E,00.0000000,W84*5F
$GPRMC,190047.00,A,4742.4465318,N,01617.9726557,E,0.0,,010125,5.1,E,D*16
$GPGLL,4742.4465318,N,01617.9726557,E,190047.00,A,D*67
$GPGGA,190047.00,4742.4465318,N,01617.9726557,E,2,16,0.8,626.6984,M,43.2111,M,1.4,0123*45
$GNGNS,190047.00,4742.4465318,N,01617.9726557,E,DAAA,16,0.8,626.6984,43.2111,,*5C
$GPGNS,190047.00,,,,,,05,,,,1.4,123*76
$GLGNS,190047.00,,,,,,04,,,,,*70
$GAGNS,190047.00,,,,,,03,,,,,*7A
$GBGNS,190047.00,,,,,,04,,,,,*7E
$GPLLQ,190047.00,010125,,M,,M,1,16,2.435,,M*1D
$GPVTG,,T,,M,0.01,N,0.01,K,D*26
$GPHDT,,T*1B
$GPTHS,,V*0E
$GPROT,,V*08
$PSSN,HRP,190047.00,010125,,,,,,,00,0,,*6A
$PTNL,AVR,190047.00,,Yaw,,Tilt,,,,0,,00*3C
$GPGSA,A,3,07,10,16,18,23,,,,,,,,1.4,0.8,1.1*36
$GPGSA,A,3,73,80,82,83,,,,,,,,,1.4,0.8,1.1*32
$GPGSA,A,3,13,15,21,,,,,,,,,,1.4,0.8,1.1*3A
$GPGSA,A,3,11,23,37,43,,,,,,,,,1.4,0.8,1.1*3D
$GPGST,190047.00,5.921,1.129,0.898,69.655,0.929,1.104,1.962*62
$GPGBS,190047.00,3.706,4.630,7.522,80,0.0001,15.038,6.107*63
$GPGRS,190047.00,1,0.3,-0.3,0.1,-1.4,1.0,,,,,,,*6E
$GPGRS,190047.00,1,4.3,15.0,-4.1,-5.1,,,,,,,,*77
$GPGRS,190047.00,1,0.6,-1.4,0.3,,,,,,,,,*46
$GPGRS,190047.00,1,-3.1,2.8,-2.0,-1.1,,,,,,,,*62
$GPGSV,5,1,17,16,66,257,45,10,28,171,43,08,11,291,29,15,12,072,*7D
$GPGSV,5,2,17,29,12,102,21,26,50,199,34,27,44,295,40,18,54,057,45*73
$GPGSV,5,3,17,23,53,125,40,07,07,329,37,05,01,029,,13,03,041,*7B
$GPGSV,5,4,17,31,01,214,,36,35,170,40,34,31,208,,49,34,195,36*76
$GPGSV,5,5,17,61,03,257,*4B
$GLGSV,3,1,10,83,60,293,39,80,37,206,40,74,20,331,28,81,15,064,*60
$GLGSV,3,2,10,67,21,106,36,66,25,050,29,73,49,288,44,82,58,034,45*66
$GLGSV,3,3,10,65,04,006,,84,04,256,*6C
$GAGSV,3,1,09,13,87,258,48,27,30,162,32,26,32,236,35,23,34,310,*6F
$GAGSV,3,2,09,14,31,285,,15,36,054,42,21,68,231,49,03,05,071,*6E
$GAGSV,3,3,09,05,04,025,*57
$GBGSV,5,1,20,43,61,070,49,33,11,150,,21,19,044,31,46,15,322,*6F
$GBGSV,5,2,20,60,11,108,,38,21,037,29,05,22,129,,23,25,208,36*60
$GBGSV,5,3,20,34,14,082,,14,23,127,22,50,27,068,,58,27,310,*63
$GBGSV,5,4,20,08,35,040,33,42,30,098,29,13,41,048,35,11,37,073,46*62
$GBGSV,5,5,20,37,39,268,41,28,50,275,41,27,07,266,29,02,07,106,*6D
$GPGGA,190047.00,,,,,0,00,,,M,,M,,*43
$PTNL,GGK,190047.00,010125,4742.4465318,N,01617.9726557,E,1,16,1.4,EHT669.9095,M*4F
$GPGGQ,190047.00,010125,4742.4465318,N,01617.9726557,E,1,16,2.435,626.6984,M*39
$GPGFA,190047.00,10.736,16.085,1.129,0.898,69.655,1.962,,VVV*36
$GPLLK,190047.00,010125,,M,,M,1,16,1.6,,M*00
$GNGMP,190047.00,,,,,DAAA,16,0.8,,,,*52
$GPGMP,190047.00,,,,,,05,,,,1.4,123*76
$GLGMP,190047.00,,,,,,04,,,,,*70
$GAGMP,190047.00,,,,,,03,,,,,*7A
$GBGMP,190047.00,,,,,,04,,,,,*7E
$PSSN,SNC,[0,327665000,2347]*47
$GPZDA,190052.00,01,01,2025,,*6C
$GPDTM,W84,,00.0000000,N,00.0000000,E,00.0000000,W84*5F
$GPRMC,190052.00,A,4742.4465391,N,01617.9726529,E,0.0,,010125,5.1,E,D*1A
$GPGLL,4742.4465391,N,01617.9726529,E,190052.00,A,D*6B
$GPGGA,190052.00,4742.4465391,N,01617.9726529,E,2,19,0.7,626.7044,M,43.2111,M,2.3,0123*49
$GNGNS,190052.00,4742.4465391,N,01617.9726529,E,DAAA,19,0.7,626.7044,43.2111,,*54
$GPGNS,190052.00,,,,,,06,,,,2.3,123*75
$GLGNS,190052.00,,,,,,05,,,,,*75
$GAGNS,190052.00,,,,,,03,,,,,*7E
$GBGNS,190052.00,,,,,,05,,,,,*7B
$GPLLQ,190052.00,010125,,M,,M,1,19,2.990,,M*14
$GPVTG,,T,,M,0.01,N,0.02,K,D*25
$GPHDT,,T*1B
$GPTHS,,V*0E
$GPROT,,V*08
$PSSN,HRP,190052.00,010125,,,,,,,00,0,,*6E
$PTNL,AVR,190052.00,,Yaw,,Tilt,,,,0,,00*38
$GPGSA,A,3,07,10,16,18,23,27,,,,,,,1.3,0.7,1.1*3B
$GPGSA,A,3,67,73,80,82,83,,,,,,,,1.3,0.7,1.1*3B
$GPGSA,A,3,13,15,21,,,,,,,,,,1.3,0.7,1.1*32
$GPGSA,A,3,11,23,28,37,43,,,,,,,,1.3,0.7,1.1*3F
$GPGST,190052.00,7.766,1.316,1.051,48.965,1.173,1.209,2.471*60
$GPGBS,190052.00,3.721,3.194,7.870,27,0.0001,-2.617,0.687*72
$GPGRS,190052.00,1,0.5,0.4,0.0,-0.7,1.2,-2.6,,,,,,*40
$GPGRS,190052.00,1,23.4,3.2,-8.8,-2.9,-4.3,,,,,,,*7A
$GPGRS,190052.00,1,1.0,-1.3,0.5,,,,,,,,,*44
$GPGRS,190052.00,1,-3.9,-2.5,-4.7,-1.9,-0.8,,,,,,,*4C
$GPGSV,5,1,17,16,66,257,45,10,28,171,44,08,11,291,31,15,12,072,*73
$GPGSV,5,2,17,29,12,102,22,26,50,199,34,27,45,295,40,18,54,057,44*70
$GPGSV,5,3,17,23,53,125,39,07,07,329,37,05,01,029,,13,03,041,*75
$GPGSV,5,4,17,31,01,214,,36,35,170,40,34,31,208,,49,34,195,37*77
$GPGSV,5,5,17,61,03,257,*4B
$GLGSV,3,1,10,83,60,293,38,80,37,206,36,81,15,064,27,74,20,331,27*6A
$GLGSV,3,2,10,67,21,106,36,66,25,049,33,73,49,288,44,82,58,034,45*65
$GLGSV,3,3,10,65,04,005,,84,04,256,*6F
$GAGSV,3,1,09,13,87,259,48,27,29,162,32,26,32,236,34,23,34,310,*67
$GAGSV,3,2,09,15,36,054,42,14,31,285,,21,68,231,49,03,05,071,*6E
$GAGSV,3,3,09,05,04,025,*57
$GBGSV,5,1,20,43,61,070,48,33,11,150,,21,19,044,30,46,15,322,*6F
$GBGSV,5,2,20,60,11,108,,38,21,037,30,05,22,129,,23,25,208,35*6B
$GBGSV,5,3,20,34,14,082,,14,23,127,35,50,27,068,,58,27,310,*65
$GBGSV,5,4,20,08,35,040,32,42,30,098,31,13,41,048,33,11,37,073,45*6F
$GBGSV,5,5,20,37,39,268,41,28,50,275,40,27,07,266,27,02,07,106,*62
$GPGGA,190052.00,,,,,0,00,,,M,,M,,*47
$PTNL,GGK,190052.00,010125,4742.4465391,N,01617.9726529,E,1,19,1.3,EHT669.9154,M*47
$GPGGQ,190052.00,010125,4742.4465391,N,01617.9726529,E,1,19,2.990,626.7044,M*3C
$GPGFA,190052.00,12.513,20.260,1.316,1.051,48.965,2.471,,VVV*38
$GPLLK,190052.00,010125,,M,,M,1,19,1.5,,M*08
$GNGMP,190052.00,,,,,DAAA,19,0.7,,,,*56
$GPGMP,190052.00,,,,,,06,,,,2.3,123*75
$GLGMP,190052.00,,,,,,05,,,,,*75
$GAGMP,190052.00,,,,,,03,,,,,*7E
$GBGMP,190052.00,,,,,,05,,,,,*7B
$PSSN,SNC,[0,327670000,2347]*43
$GPZDA,190057.00,01,01,2025,,*69
$GPDTM,W84,,00.0000000,N,00.0000000,E,00.0000000,W84*5F
$GPRMC,190057.00,A,4742.4465511,N,01617.9726345,E,0.0,,010125,5.1,E,D*1D
$GPGLL,4742.4465511,N,01617.9726345,E,190057.00,A,D*6C
$GPGGA,190057.00,4742.4465511,N,01617.9726345,E,2,16,0.8,626.7041,M,43.2111,M,3.4,0123*4D
$GNGNS,190057.00,4742.4465511,N,01617.9726345,E,DAAA,16,0.8,626.7041,43.2111,,*56
$GPGNS,190057.00,,,,,,05,,,,3.4,123*75
$GLGNS,190057.00,,,,,,04,,,,,*71
$GAGNS,190057.00,,,,,,03,,,,,*7B
$GBGNS,190057.00,,,,,,04,,,,,*7F
$GPLLQ,190057.00,010125,,M,,M,1,16,1.855,,M*15
$GPVTG,,T,,M,0.00,N,0.01,K,D*27
$GPHDT,,T*1B
$GPTHS,,V*0E
$GPROT,,V*08
$PSSN,HRP,190057.00,010125,,,,,,,00,0,,*6B
$PTNL,AVR,190057.00,,Yaw,,Tilt,,,,0,,00*3D
$GPGSA,A,3,07,10,16,18,23,,,,,,,,1.4,0.8,1.2*35
$GPGSA,A,3,73,80,82,83,,,,,,,,,1.4,0.8,1.2*31
$GPGSA,A,3,13,15,21,,,,,,,,,,1.4,0.8,1.2*39
$GPGSA,A,3,11,28,37,43,,,,,,,,,1.4,0.8,1.2*35
$GPGST,190057.00,4.267,0.841,0.689,66.728,0.715,0.819,1.503*69
$GPGBS,190057.00,3.883,4.798,7.668,23,0.0001,0.968,0.667*58
$GPGRS,190057.00,1,-0.2,0.4,0.3,-0.7,1.0,,,,,,,*69
$GPGRS,190057.00,1,2.1,-7.3,-3.0,-6.2,,,,,,,,*69
$GPGRS,190057.00,1,0.8,-1.7,-0.1,,,,,,,,,*65
$GPGRS,190057.00,1,-4.8,-5.2,-1.8,-0.9,,,,,,,,*4F
$GPGSV,5,1,17,16,66,257,45,10,28,171,45,08,11,291,33,15,12,072,*70
$GPGSV,5,2,17,29,12,102,24,26,50,199,33,27,45,295,37,18,54,057,44*71
$GPGSV,5,3,17,23,53,125,40,07,07,329,36,05,01,029,,13,03,041,*7A
$GPGSV,5,4,17,31,01,214,,36,35,170,40,34,31,208,,49,34,195,36*76
$GPGSV,5,5,17,61,03,257,*4B
$GLGSV,3,1,10,83,60,293,37,80,37,206,40,81,15,064,19,74,20,331,*6C
$GLGSV,3,2,10,67,21,106,34,66,25,049,34,73,49,288,43,82,58,034,43*61
$GLGSV,3,3,10,65,04,005,,84,04,256,*6F
$GAGSV,3,1,09,13,87,259,49,27,29,162,33,26,32,236,35,23,34,309,*6E
$GAGSV,3,2,09,15,36,054,42,14,31,285,,21,68,231,49,03,05,071,*6E
$GAGSV,3,3,09,05,04,025,*57
$GBGSV,5,1,20,43,61,070,47,33,11,150,,21,19,044,31,46,15,322,*61
$GBGSV,5,2,20,60,11,108,,38,21,037,30,05,22,129,,23,25,208,34*6A
$GBGSV,5,3,20,34,14,082,,14,23,127,28,50,27,068,,58,27,310,*69
$GBGSV,5,4,20,08,35,040,32,42,30,098,32,13,41,048,31,11,37,073,44*6F
$GBGSV,5,5,20,37,39,268,41,28,50,275,40,27,07,266,29,02,07,106,*6C
$GPGGA,190057.00,,,,,0,00,,,M,,M,,*42
$PTNL,GGK,190057.00,010125,4742.4465511,N,01617.9726345,E,1,16,1.4,EHT669.9151,M*4D
$GPGGQ,190057.00,010125,4742.4465511,N,01617.9726345,E,1,16,1.855,626.7041,M*3A
$GPGFA,190057.00,7.992,12.323,0.841,0.689,66.728,1.503,,VVV*0D
$GPLLK,190057.00,010125,,M,,M,1,16,1.7,,M*00
$GNGMP,190057.00,,,,,DAAA,16,0.8,,,,*53
$GPGMP,190057.00,,,,,,05,,,,3.4,123*75
$GLGMP,190057.00,,,,,,04,,,,,*71
$GAGMP,190057.00,,,,,,03,,,,,*7B
$GBGMP,190057.00,,,,,,04,,,,,*7F
$PSSN,SNC,[0,327675000,2347]*46
$GPZDA,190102.00,01,01,2025,,*68
$GPDTM,W84,,00.0000000,N,00.0000000,E,00.0000000,W84*5F
$GPRMC,190102.00,A,4742.4465537,N,01617.9726348,E,0.0,,010125,5.1,E,D*15
$GPGLL,4742.4465537,N,01617.9726348,E,190102.00,A,D*64
$GPGGA,190102.00,4742.4465537,N,01617.9726348,E,2,17,0.9,626.6885,M,43.2111,M,3.3,0123*43
$GNGNS,190102.00,4742.4465537,N,01617.9726348,E,DAAA,17,0.9,626.6885,43.2111,,*5F
$GPGNS,190102.00,,,,,,04,,,,3.3,123*72
$GLGNS,190102.00,,,,,,04,,,,,*70
$GAGNS,190102.00,,,,,,05,,,,,*7C
$GBGNS,190102.00,,,,,,04,,,,,*7E
$GPLLQ,190102.00,010125,,M,,M,1,17,3.899,,M*17
$GPVTG,,T,,M,0.01,N,0.01,K,D*26
$GPHDT,,T*1B
$GPTHS,,V*0E
$GPROT,,V*08
$PSSN,HRP,190102.00,010125,,,,,,,00,0,,*6A
$PTNL,AVR,190102.00,,Yaw,,Tilt,,,,0,,00*3C
$GPGSA,A,3,10,16,18,23,,,,,,,,,2.0,0.9,1.8*3E
$GPGSA,A,3,73,80,82,83,,,,,,,,,2.0,0.9,1.8*3D
$GPGSA,A,3,13,15,21,26,27,,,,,,,,2.0,0.9,1.8*34
$GPGSA,A,3,11,28,37,43,,,,,,,,,2.0,0.9,1.8*39
$GPGST,190102.00,3.764,1.418,0.759,330.639,1.291,0.960,3.551*57
$GPGBS,190102.00,8.006,6.402,21.272,23,0.0001,0.918,0.681*61
$GPGRS,190102.00,1,-0.7,0.3,-0.4,0.9,,,,,,,,*4C
$GPGRS,190102.00,1,0.5,-4.5,-2.9,-6.3,,,,,,,,*62
$GPGRS,190102.00,1,0.6,-1.8,-0.5,-1.9,-0.3,,,,,,,*6A
$GPGRS,190102.00,1,-5.1,-5.7,-2.3,-0.7,,,,,,,,*45
$GPGSV,5,1,17,16,66,257,45,10,28,171,45,08,11,292,34,15,12,072,*74
$GPGSV,5,2,17,29,12,102,25,26,49,199,33,27,45,295,39,18,54,057,45*77
$GPGSV,5,3,17,23,53,125,42,07,07,329,34,05,01,029,,13,03,041,*7A
$GPGSV,5,4,17,31,01,214,,36,35,170,40,34,31,208,,49,34,195,37*77
$GPGSV,5,5,17,61,03,257,*4B
$GLGSV,3,1,10,83,60,293,37,80,37,206,40,81,15,064,,74,20,331,*64
$GLGSV,3,2,10,67,21,106,30,66,25,049,32,73,49,288,42,82,57,034,43*6D
$GLGSV,3,3,10,65,04,005,,84,04,256,*6F
$GAGSV,3,1,09,13,87,260,49,27,29,162,35,26,32,236,36,23,34,309,*61
$GAGSV,3,2,09,15,36,054,41,14,31,285,,21,68,231,49,03,05,071,*6D
$GAGSV,3,3,09,05,04,024,*56
$GBGSV,5,1,20,43,61,070,46,33,11,150,,21,19,044,30,46,15,322,*61
$GBGSV,5,2,20,60,11,108,,38,21,037,31,05,22,129,,23,25,208,33*6C
$GBGSV,5,3,20,34,14,082,,14,23,127,31,50,27,068,,58,27,310,*61
$GBGSV,5,4,20,08,35,040,32,42,30,097,34,13,41,048,29,11,37,073,44*6F
$GBGSV,5,5,20,37,39,268,42,28,50,275,40,27,07,266,27,02,07,106,*61
$GPGGA,190102.00,,,,,0,00,,,M,,M,,*43
$PTNL,GGK,190102.00,010125,4742.4465537,N,01617.9726348,E,1,17,2.0,EHT669.8996,M*41
$GPGGQ,190102.00,010125,4742.4465537,N,01617.9726348,E,1,17,3.899,626.6885,M*30
$GPGFA,190102.00,13.486,29.120,1.418,0.759,330.639,3.551,,VVV*01
$GPLLK,190102.00,010125,,M,,M,1,17,2.4,,M*00
$GNGMP,190102.00,,,,,DAAA,17,0.9,,,,*52
$GPGMP,190102.00,,,,,,04,,,,3.3,123*72
$GLGMP,190102.00,,,,,,04,,,,,*70
$GAGMP,190102.00,,,,,,05,,,,,*7C
$GBGMP,190102.00,,,,,,04,,,,,*7E
$PSSN,SNC,[0,327680000,2347]*4C
$GPZDA,190107.00,01,01,2025,,*6D
$GPDTM,W84,,00.0000000,N,00.0000000,E,00.0000000,W84*5F
$GPRMC,190107.00,A,4742.4465558,N,01617.9726277,E,0.0,,010125,5.1,E,D*14
$GPGLL,4742.4465558,N,01617.9726277,E,190107.00,A,D*65
$GPGGA,190107.00,4742.4465558,N,01617.9726277,E,2,19,0.7,626.6783,M,43.2111,M,2.5,0123*4C
$GNGNS,190107.00,4742.4465558,N,01617.9726277,E,DAAA,19,0.7,626.6783,43.2111,,*57
$GPGNS,190107.00,,,,,,06,,,,2.5,123*72
$GLGNS,190107.00,,,,,,04,,,,,*75
$GAGNS,190107.00,,,,,,05,,,,,*79
$GBGNS,190107.00,,,,,,04,,,,,*7B
$GPLLQ,190107.00,010125,,M,,M,1,19,1.873,,M*1A
$GPVTG,,T,,M,0.01,N,0.01,K,D*26
$GPHDT,,T*1B
$GPTHS,,V*0E
$GPROT,,V*08
$PSSN,HRP,190107.00,010125,,,,,,,00,0,,*6F
$PTNL,AVR,190107.00,,Yaw,,Tilt,,,,0,,00*39
$GPGSA,A,3,07,08,10,16,18,23,,,,,,,1.2,0.7,1.0*36
$GPGSA,A,3,73,80,82,83,,,,,,,,,1.2,0.7,1.0*3A
$GPGSA,A,3,13,15,21,26,27,,,,,,,,1.2,0.7,1.0*33
$GPGSA,A,3,11,28,37,43,,,,,,,,,1.2,0.7,1.0*3E
$GPGST,190107.00,3.442,0.844,0.673,39.158,0.780,0.746,1.531*68
$GPGBS,190107.00,3.851,4.052,7.530,23,0.0001,1.273,0.648*51
$GPGRS,190107.00,1,-1.2,-1.6,-0.7,0.1,0.2,1.3,,,,,,*6F
$GPGRS,190107.00,1,1.9,-4.7,-2.7,-4.8,,,,,,,,*6F
$GPGRS,190107.00,1,0.3,-1.9,-0.5,-1.8,-0.8,,,,,,,*61
$GPGRS,190107.00,1,-5.3,-6.3,-1.9,-0.9,,,,,,,,*42
$GPGSV,5,1,17,16,66,257,46,10,28,171,45,08,11,292,36,15,12,072,*75
$GPGSV,5,2,17,29,12,102,24,26,49,199,32,27,45,295,38,18,54,057,45*76
$GPGSV,5,3,17,23,53,125,43,07,07,329,35,05,01,029,,13,03,041,*7A
$GPGSV,5,4,17,31,01,214,,36,35,170,40,34,31,208,,49,34,195,37*77
$GPGSV,5,5,17,61,03,257,*4B
$GLGSV,3,1,10,83,60,293,36,80,37,206,40,81,15,064,,74,20,331,*65
$GLGSV,3,2,10,67,21,106,30,66,25,049,32,73,49,288,42,82,57,034,43*6D
$GLGSV,3,3,10,65,04,005,,84,04,256,*6F
$GAGSV,3,1,09,13,87,260,49,27,29,162,37,26,32,236,37,23,34,309,*62
$GAGSV,3,2,09,15,36,054,41,14,31,285,,21,68,231,49,03,05,071,*6D
$GAGSV,3,3,09,05,04,024,*56
$GBGSV,5,1,20,43,61,070,46,33,11,150,,21,19,044,29,46,15,322,*69
$GBGSV,5,2,20,60,11,108,,38,21,037,31,05,22,129,,23,25,208,32*6D
$GBGSV,5,3,20,34,14,082,,14,23,127,33,50,27,068,,58,27,310,*63
$GBGSV,5,4,20,08,35,040,31,42,30,097,33,13,41,048,26,11,37,073,44*64
$GBGSV,5,5,20,37,39,268,44,28,50,275,40,27,07,266,25,02,07,106,*65
$GPGGA,190107.00,,,,,0,00,,,M,,M,,*46
$PTNL,GGK,190107.00,010125,4742.4465558,N,01617.9726277,E,1,19,1.2,EHT669.8894,M*4C
$GPGGQ,190107.00,010125,4742.4465558,N,01617.9726277,E,1,19,1.873,626.6783,M*30
$GPGFA,190107.00,8.023,12.558,0.844,0.673,39.158,1.531,,VVV*05
$GPLLK,190107.00,010125,,M,,M,1,19,1.4,,M*08
$GNGMP,190107.00,,,,,DAAA,19,0.7,,,,*57
$GPGMP,190107.00,,,,,,06,,,,2.5,123*72
$GLGMP,190107.00,,,,,,04,,,,,*75
$GAGMP,190107.00,,,,,,05,,,,,*79
$GBGMP,190107.00,,,,,,04,,,,,*7B
$PSSN,SNC,[0,327685000,2347]*49
$GPZDA,190112.00,01,01,2025,,*69
$GPDTM,W84,,00.0000000,N,00.0000000,E,00.0000000,W84*5F
$GPRMC,190112.00,A,4742.4465585,N,01617.9726143,E,0.0,,010125,5.1,E,D*14
$GPGLL,4742.4465585,N,01617.9726143,E,190112.00,A,D*65
$GPGGA,190112.00,4742.4465585,N,01617.9726143,E,2,20,0.7,626.6465,M,43.2111,M,3.5,0123*4C
$GNGNS,190112.00,4742.4465585,N,01617.9726143,E,DAAA,20,0.7,626.6465,43.2111,,*56
$GPGNS,190112.00,,,,,,06,,,,3.5,123*77
$GLGNS,190112.00,,,,,,04,,,,,*71
$GAGNS,190112.00,,,,,,05,,,,,*7D
$GBGNS,190112.00,,,,,,05,,,,,*7E
$GPLLQ,190112.00,010125,,M,,M,1,20,1.905,,M*14
$GPVTG,,T,,M,0.01,N,0.01,K,D*26
$GPHDT,,T*1B
$GPTHS,,V*0E
$GPROT,,V*08
$PSSN,HRP,190112.00,010125,,,,,,,00,0,,*6B
$PTNL,AVR,190112.00,,Yaw,,Tilt,,,,0,,00*3D
$GPGSA,A,3,07,08,10,16,18,23,,,,,,,1.2,0.7,1.0*36
$GPGSA,A,3,73,80,82,83,,,,,,,,,1.2,0.7,1.0*3A
$GPGSA,A,3,13,15,21,26,27,,,,,,,,1.2,0.7,1.0*33
$GPGSA,A,3,11,13,28,37,43,,,,,,,,1.2,0.7,1.0*3C
$GPGST,190112.00,3.655,0.883,0.717,49.354,0.792,0.817,1.529*68
$GPGBS,190112.00,3.921,4.110,7.678,08,0.0001,-2.276,1.064*70
$GPGRS,190112.00,1,0.4,-2.3,-1.0,0.5,-0.2,1.4,,,,,,*6F
$GPGRS,190112.00,1,3.5,-3.9,-3.5,-4.3,,,,,,,,*64
$GPGRS,190112.00,1,0.3,-1.4,-0.5,-1.5,-1.0,,,,,,,*6C
$GPGRS,190112.00,1,-5.3,-5.0,-6.6,-2.2,-0.4,,,,,,,*40
$GPGSV,5,1,17,16,66,257,47,10,28,171,45,08,11,292,37,15,12,072,*75
$GPGSV,5,2,17,29,12,102,24,26,49,199,29,27,45,295,36,18,54,057,46*71
$GPGSV,5,3,17,23,53,125,43,07,07,329,36,05,01,029,,13,03,041,*79
$GPGSV,5,4,17,31,01,214,,36,35,170,40,34,31,208,,49,34,195,37*77
$GPGSV,5,5,17,61,03,257,*4B
$GLGSV,3,1,10,83,60,293,37,80,37,206,40,81,15,064,,74,20,331,*64
$GLGSV,3,2,10,67,21,106,28,66,25,049,36,73,49,288,43,82,57,034,44*66
$GLGSV,3,3,10,65,04,005,23,84,04,256,*6E
$GAGSV,3,1,09,13,87,260,49,27,29,162,38,26,32,236,37,23,34,309,*6D
$GAGSV,3,2,09,15,36,054,40,14,31,285,,21,68,231,49,03,05,071,*6C
$GAGSV,3,3,09,05,04,024,*56
$GBGSV,5,1,20,43,61,070,46,33,11,150,,21,19,044,28,46,15,322,*68
$GBGSV,5,2,20,60,11,108,,38,21,037,32,05,22,129,,23,25,208,30*6C
$GBGSV,5,3,20,34,14,082,,14,23,127,34,50,27,068,,58,27,310,*64
$GBGSV,5,4,20,08,35,040,31,42,30,097,32,13,41,048,23,11,37,073,44*60
$GBGSV,5,5,20,37,39,268,46,28,50,275,39,27,07,266,,02,07,106,*6E
$GPGGA,190112.00,,,,,0,00,,,M,,M,,*42
$PTNL,GGK,190112.00,010125,4742.4465585,N,01617.9726143,E,1,20,1.2,EHT669.8575,M*44
$GPGGQ,190112.00,010125,4742.4465585,N,01617.9726143,E,1,20,1.905,626.6465,M*31
$GPGFA,190112.00,8.393,12.536,0.883,0.717,49.354,1.529,,VVV*09
$GPLLK,190112.00,010125,,M,,M,1,20,1.4,,M*06
$GNGMP,190112.00,,,,,DAAA,20,0.7,,,,*59
$GPGMP,190112.00,,,,,,06,,,,3.5,123*77
$GLGMP,190112.00,,,,,,04,,,,,*71
$GAGMP,190112.00,,,,,,05,,,,,*7D
$GBGMP,190112.00,,,,,,05,,,,,*7E
$PSSN,SNC,[0,327690000,2347]*4D
$GPZDA,190117.00,01,01,2025,,*6C
$GPDTM,W84,,00.0000000,N,00.0000000,E,00.0000000,W84*5F
$GPRMC,190117.00,A,4742.4465620,N,01617.9726006,E,0.0,,010125,5.1,E,D*1D
$GPGLL,4742.4465620,N,01617.9726006,E,190117.00,A,D*6C
$GPGGA,190117.00,4742.4465620,N,01617.9726006,E,2,19,0.7,626.6073,M,43.2111,M,2.8,0123*40
$GNGNS,190117.00,4742.4465620,N,01617.9726006,E,DAAA,19,0.7,626.6073,43.2111,,*56
$GPGNS,190117.00,,,,,,05,,,,2.8,123*7D
$GLGNS,190117.00,,,,,,04,,,,,*74
$GAGNS,190117.00,,,,,,05,,,,,*78
$GBGNS,190117.00,,,,,,05,,,,,*7B
$GPLLQ,190117.00,010125,,M,,M,1,19,2.562,,M*15
$GPVTG,,T,,M,0.00,N,0.00,K,D*26
$GPHDT,,T*1B
$GPTHS,,V*0E
$GPROT,,V*08
$PSSN,HRP,190117.00,010125,,,,,,,00,0,,*6E
$PTNL,AVR,190117.00,,Yaw,,Tilt,,,,0,,00*38
$GPGSA,A,3,08,10,16,18,23,,,,,,,,1.4,0.7,1.2*35
$GPGSA,A,3,73,80,82,83,,,,,,,,,1.4,0.7,1.2*3E
$GPGSA,A,3,13,15,21,26,27,,,,,,,,1.4,0.7,1.2*37
$GPGSA,A,3,11,13,28,37,43,,,,,,,,1.4,0.7,1.2*38
$GPGST,190117.00,5.176,1.135,0.884,33.163,1.066,0.966,2.120*62
$GPGBS,190117.00,4.028,4.280,9.222,08,0.0001,-3.044,1.029*76
$GPGRS,190117.00,1,-3.0,-0.8,0.7,-0.2,1.0,,,,,,,*4D
$GPGRS,190117.00,1,3.1,-4.1,-3.3,-4.2,,,,,,,,*6D
$GPGRS,190117.00,1,0.5,-0.9,-0.3,-1.8,-0.6,,,,,,,*6F
$GPGRS,190117.00,1,-4.8,-4.6,14.2,-1.9,0.1,,,,,,,*72
$GPGSV,5,1,17,16,66,256,47,10,28,171,45,08,12,292,37,15,12,072,*77
$GPGSV,5,2,17,29,12,102,,26,49,199,21,27,45,295,35,18,54,057,46*7C
$GPGSV,5,3,17,23,53,125,43,07,07,329,35,05,01,029,,13,03,041,*7A
$GPGSV,5,4,17,31,01,214,,36,35,170,40,34,31,208,,49,34,195,36*76
$GPGSV,5,5,17,61,03,257,*4B
$GLGSV,3,1,10,83,60,293,37,80,37,206,40,81,15,064,24,74,20,331,*62
$GLGSV,3,2,10,67,21,106,32,66,25,049,30,73,49,288,45,82,57,034,45*6C
$GLGSV,3,3,10,65,04,005,,84,04,256,*6F
$GAGSV,3,1,09,13,87,261,49,27,29,162,40,26,32,236,38,23,34,309,*6C
$GAGSV,3,2,09,15,36,054,39,14,31,285,,21,68,231,49,03,05,071,*62
$GAGSV,3,3,09,05,04,024,*56
$GBGSV,5,1,20,43,61,070,47,33,11,150,,21,19,044,31,46,15,322,*61
$GBGSV,5,2,20,60,11,108,,38,21,037,32,05,22,129,,23,25,208,30*6C
$GBGSV,5,3,20,34,14,082,,14,23,127,34,50,27,068,,58,27,310,*64
$GBGSV,5,4,20,08,35,040,31,42,30,097,30,13,41,048,20,11,37,073,44*61
$GBGSV,5,5,20,37,39,268,46,28,50,275,38,27,07,266,25,02,07,106,*68
$GPGGA,190117.00,,,,,0,00,,,M,,M,,*47
$PTNL,GGK,190117.00,010125,4742.4465620,N,01617.9726006,E,1,19,1.4,EHT669.8183,M*4C
$GPGGQ,190117.00,010125,4742.4465620,N,01617.9726006,E,1,19,2.562,626.6073,M*3F
$GPGFA,190117.00,10.795,17.383,1.135,0.884,33.163,2.120,,VVV*3F
$GPLLK,190117.00,010125,,M,,M,1,19,1.7,,M*0A
$GNGMP,190117.00,,,,,DAAA,19,0.7,,,,*56
$GPGMP,190117.00,,,,,,05,,,,2.8,123*7D
$GLGMP,190117.00,,,,,,04,,,,,*74
$GAGMP,190117.00,,,,,,05,,,,,*78
$GBGMP,190117.00,,,,,,05,,,,,*7B
$PSSN,SNC,[0,327695000,2347]*48
$GPZDA,190122.00,01,01,2025,,*6A
$GPDTM,W84,,00.0000000,N,00.0000000,E,00.0000000,W84*5F
$GPRMC,190122.00,A,4742.4465709,N,01617.9725829,E,0.0,,010125,5.1,E,D*17
$GPGLL,4742.4465709,N,01617.9725829,E,190122.00,A,D*66
$GPGGA,190122.00,4742.4465709,N,01617.9725829,E,2,19,0.7,626.5658,M,43.2111,M,1.4,0123*49
$GNGNS,190122.00,4742.4465709,N,01617.9725829,E,DAAA,19,0.7,626.5658,43.2111,,*50
$GPGNS,190122.00,,,,,,05,,,,1.4,123*74
$GLGNS,190122.00,,,,,,05,,,,,*73
$GAGNS,190122.00,,,,,,05,,,,,*7E
$GBGNS,190122.00,,,,,,04,,,,,*7C
$GPLLQ,190122.00,010125,,M,,M,1,19,2.822,,M*1A
$GPVTG,,T,,M,0.00,N,0.00,K,D*26
$GPHDT,,T*1B
$GPTHS,,V*0E
$GPROT,,V*08
$PSSN,HRP,190122.00,010125,,,,,,,00,0,,*68
$PTNL,AVR,190122.00,,Yaw,,Tilt,,,,0,,00*3E
$GPGSA,A,3,08,10,16,18,23,,,,,,,,1.4,0.7,1.1*36
$GPGSA,A,3,67,73,80,82,83,,,,,,,,1.4,0.7,1.1*3C
$GPGSA,A,3,13,15,21,26,27,,,,,,,,1.4,0.7,1.1*34
$GPGSA,A,3,11,28,37,43,,,,,,,,,1.4,0.7,1.1*39
$GPGST,190122.00,3.299,1.252,0.973,32.352,1.179,1.060,2.334*6C
$GPGBS,190122.00,3.961,3.927,8.433,08,0.0001,-3.668,1.038*7D
$GPGRS,190122.00,1,-3.7,-0.2,0.5,-0.3,1.4,,,,,,,*41
$GPGRS,190122.00,1,4.4,3.3,-2.8,-1.8,-4.9,,,,,,,*4A
$GPGRS,190122.00,1,1.1,-1.0,0.2,-1.2,0.1,,,,,,,*68
$GPGRS,190122.00,1,-3.5,5.7,-0.7,0.6,,,,,,,,*42
$GPGSV,5,1,17,16,66,256,47,10,28,171,44,08,12,292,37,15,12,072,*76
$GPGSV,5,2,17,29,12,102,,26,49,199,37,27,45,295,34,18,53,057,47*7C
$GPGSV,5,3,17,23,53,125,43,07,07,329,34,05,01,029,,13,03,041,*7B
$GPGSV,5,4,17,31,01,214,,36,35,170,40,34,31,208,,49,34,195,36*76
$GPGSV,5,5,17,61,03,257,*4B
$GLGSV,3,1,10,83,60,293,35,80,36,206,40,81,15,064,,74,20,331,*67
$GLGSV,3,2,10,67,21,106,36,66,25,049,31,73,49,288,44,82,57,034,47*6A
$GLGSV,3,3,10,65,04,005,,84,04,256,*6F
$GAGSV,3,1,09,13,87,262,49,27,29,162,40,26,32,236,39,23,34,309,*6E
$GAGSV,3,2,09,15,36,054,38,14,31,285,,21,68,231,49,03,05,071,*63
$GAGSV,3,3,09,05,04,024,*56
$GBGSV,5,1,20,43,60,070,47,33,11,150,,21,19,044,32,46,15,322,*63
$GBGSV,5,2,20,60,11,108,,38,21,037,32,05,22,129,,23,25,207,30*63
$GBGSV,5,3,20,34,14,082,,14,23,127,32,50,27,068,,58,27,310,*62
$GBGSV,5,4,20,08,35,040,31,42,30,097,28,13,41,048,21,11,37,073,44*69
$GBGSV,5,5,20,37,39,268,46,28,50,275,41,27,07,266,27,02,07,106,*64
$GPGGA,190122.00,,,,,0,00,,,M,,M,,*41
$PTNL,GGK,190122.00,010125,4742.4465709,N,01617.9725829,E,1,19,1.4,EHT669.7768,M*4A
$GPGGQ,190122.00,010125,4742.4465709,N,01617.9725829,E,1,19,2.822,626.5658,M*30
$GPGFA,190122.00,11.908,19.139,1.252,0.973,32.352,2.334,,VVV*32
$GPLLK,190122.00,010125,,M,,M,1,19,1.6,,M*0D
$GNGMP,190122.00,,,,,DAAA,19,0.7,,,,*50
$GPGMP,190122.00,,,,,,05,,,,1.4,123*74
$GLGMP,190122.00,,,,,,05,,,,,*73
$GAGMP,190122.00,,,,,,05,,,,,*7E
$GBGMP,190122.00,,,,,,04,,,,,*7C
$PSSN,SNC,[0,327700000,2347]*45
$GPZDA,190127.00,01,01,2025,,*6F
$GPDTM,W84,,00.0000000,N,00.0000000,E,00.0000000,W84*5F
$GPRMC,190127.00,A,4742.4465788,N,01617.9725680,E,0.0,,010125,5.1,E,D*16
$GPGLL,4742.4465788,N,01617.9725680,E,190127.00,A,D*67
$GPGGA,190127.00,4742.4465788,N,01617.9725680,E,2,20,0.6,626.5282,M,43.2111,M,2.5,0123*42
$GNGNS,190127.00,4742.4465788,N,01617.9725680,E,DAAA,20,0.6,626.5282,43.2111,,*59
$GPGNS,190127.00,,,,,,06,,,,2.5,123*70
$GLGNS,190127.00,,,,,,04,,,,,*77
$GAGNS,190127.00,,,,,,05,,,,,*7B
$GBGNS,190127.00,,,,,,05,,,,,*78
$GPLLQ,190127.00,010125,,M,,M,1,20,1.730,,M*1A
$GPVTG,,T,,M,0.00,N,0.00,K,D*26
$GPHDT,,T*1B
$GPTHS,,V*0E
$GPROT,,V*08
$PSSN,HRP,190127.00,010125,,,,,,,00,0,,*6D
$PTNL,AVR,190127.00,,Yaw,,Tilt,,,,0,,00*3B
$GPGSA,A,3,07,08,10,16,18,23,,,,,,,1.2,0.6,1.0*37
$GPGSA,A,3,67,73,80,82,,,,,,,,,1.2,0.6,1.0*31
$GPGSA,A,3,13,15,21,26,27,,,,,,,,1.2,0.6,1.0*32
$GPGSA,A,3,11,13,28,37,43,,,,,,,,1.2,0.6,1.0*3D
$GPGST,190127.00,2.491,0.799,0.650,47.012,0.723,0.734,1.390*6C
$GPGBS,190127.00,3.861,3.932,7.397,08,0.0001,-2.385,1.047*74
$GPGRS,190127.00,1,0.8,-2.4,-0.1,0.1,-0.4,1.3,,,,,,*67
$GPGRS,190127.00,1,3.7,2.4,-3.2,-0.7,,,,,,,,*46
$GPGRS,190127.00,1,1.1,-1.8,0.2,-0.7,0.3,,,,,,,*63
$GPGRS,190127.00,1,-2.7,-4.4,3.2,-0.7,0.7,,,,,,,*45
$GPGSV,5,1,17,16,66,256,46,10,28,171,44,08,12,292,38,15,12,072,*78
$GPGSV,5,2,17,29,12,102,,26,49,199,26,27,45,295,35,18,53,057,47*7D
$GPGSV,5,3,17,23,53,125,43,07,07,329,36,05,01,029,,13,03,041,*79
$GPGSV,5,4,17,31,01,214,,36,35,170,40,34,31,208,,49,34,195,36*76
$GPGSV,5,5,17,61,03,257,*4B
$GLGSV,3,1,10,83,60,293,35,80,36,205,40,81,15,064,20,74,20,331,*66
$GLGSV,3,2,10,67,21,106,37,66,25,049,33,73,49,288,42,82,57,034,47*6F
$GLGSV,3,3,10,65,04,005,,84,04,256,*6F
$GAGSV,3,1,09,13,87,262,49,27,29,162,41,26,32,236,40,23,34,309,*61
$GAGSV,3,2,09,15,36,054,36,14,31,285,,21,68,231,49,03,05,071,*6D
$GAGSV,3,3,09,05,04,024,*56
$GBGSV,5,1,20,43,60,070,48,33,11,150,,21,19,044,34,46,15,322,*6A
$GBGSV,5,2,20,60,11,108,,38,21,037,31,05,22,129,,23,25,207,31*61
$GBGSV,5,3,20,34,14,082,,14,23,127,30,50,27,068,,58,27,310,*60
$GBGSV,5,4,20,08,35,040,30,42,30,097,28,13,41,048,39,11,37,073,44*61
$GBGSV,5,5,20,37,39,268,45,28,50,275,42,27,07,266,29,02,07,106,*6A
$GPGGA,190127.00,,,,,0,00,,,M,,M,,*44
$PTNL,GGK,190127.00,010125,4742.4465788,N,01617.9725680,E,1,20,1.2,EHT669.7393,M*47
$GPGGQ,190127.00,010125,4742.4465788,N,01617.9725680,E,1,20,1.730,626.5282,M*37
$GPGFA,190127.00,7.594,11.398,0.799,0.650,47.012,1.390,,VVV*0D
$GPLLK,190127.00,010125,,M,,M,1,20,1.3,,M*07
$GNGMP,190127.00,,,,,DAAA,20,0.6,,,,*5E
$GPGMP,190127.00,,,,,,06,,,,2.5,123*70
$GLGMP,190127.00,,,,,,04,,,,,*77
$GAGMP,190127.00,,,,,,05,,,,,*7B
$GBGMP,190127.00,,,,,,05,,,,,*78
$PSSN,SNC,[0,327705000,2347]*40
