$GPZDA,095942.00,01,01,2025,,*60
$GPDTM,W84,,00.0000000,N,00.0000000,E,00.0000000,W84*5F
$GPRMC,095942.00,A,4742.4463585,N,01617.9730561,E,0.0,,010125,5.1,E,D*18
$GPGLL,4742.4463585,N,01617.9730561,E,095942.00,A,D*69
$GPGGA,095942.00,4742.4463585,N,01617.9730561,E,2,21,0.7,626.1569,M,43.2111,M,1.3,0123*4F
$GNGNS,095942.00,4742.4463585,N,01617.9730561,E,DAAA,21,0.7,626.1569,43.2111,,*51
$GPGNS,095942.00,,,,,,04,,,,1.3,123*78
$GLGNS,095942.00,,,,,,05,,,,,*79
$GAGNS,095942.00,,,,,,05,,,,,*74
$GBGNS,095942.00,,,,,,07,,,,,*75
$GPLLQ,095942.00,010125,,M,,M,1,21,6.478,,M*1C
$GPVTG,,T,,M,0.00,N,0.00,K,D*26
$GPHDT,,T*1B
$GPTHS,,V*0E
$GPROT,,V*08
$PSSN,HRP,095942.00,010125,,,,,,,00,0,,*62
$PTNL,AVR,095942.00,,Yaw,,Tilt,,,,0,,00*34
$GPGSA,A,3,13,15,19,24,,,,,,,,,1.3,0.7,1.1*3F
$GPGSA,A,3,66,67,75,76,77,,,,,,,,1.3,0.7,1.1*35
$GPGSA,A,3,02,03,07,08,25,,,,,,,,1.3,0.7,1.1*3E
$GPGSA,A,3,10,14,24,26,33,42,45,,,,,,1.3,0.7,1.1*36
$GPGST,095942.00,6.568,5.370,0.996,31.115,4.626,2.903,3.484*6C
$GPGBS,095942.00,14.482,8.863,11.466,24,0.0001,2.165,0.747*55
$GPGRS,095942.00,1,-1.1,0.7,-2.3,2.2,,,,,,,,*4B
$GPGRS,095942.00,1,-2.5,4.6,-2.4,-1.0,-7.9,,,,,,,*6F
$GPGRS,095942.00,1,1.2,0.6,1.3,0.0,-0.5,,,,,,,*4C
$GPGRS,095942.00,1,0.1,21.8,2.2,1.3,-1.3,0.7,-2.9,,,,,*55
$GPGSV,5,1,18,15,67,246,47,19,27,135,39,12,11,222,,23,25,299,31*75
$GPGSV,5,2,18,30,14,092,21,14,41,057,38,24,40,286,43,13,60,152,48*77
$GPGSV,5,3,18,17,37,099,35,22,62,066,,21,01,024,,10,07,336,*72
$GPGSV,5,4,18,02,02,043,,05,06,206,26,36,35,170,36,34,31,208,*7A
$GPGSV,5,5,18,49,34,195,,61,03,257,*73
$GLGSV,2,1,08,76,73,300,43,84,14,025,28,85,14,077,,65,33,179,29*64
$GLGSV,2,2,08,67,29,325,51,77,31,251,36,75,33,049,42,66,69,253,47*67
$GAGSV,3,1,10,08,72,278,42,30,18,220,34,07,22,311,41,16,26,051,*66
$GAGSV,3,2,10,03,47,151,44,25,50,057,44,02,70,197,38,24,02,047,*6B
$GAGSV,3,3,10,12,00,038,,33,02,349,*6D
$GBGSV,5,1,19,26,75,274,47,21,30,188,26,05,20,130,,40,27,044,32*63
$GBGSV,5,2,19,33,24,317,46,29,19,083,,07,28,056,35,24,24,254,36*63
$GBGSV,5,3,19,50,45,212,,14,43,294,35,56,35,077,,10,37,068,45*64
$GBGSV,5,4,19,45,43,066,46,42,53,253,46,09,00,095,,35,06,137,*60
$GBGSV,5,5,19,02,04,109,,30,08,030,,60,07,112,*56
$GPGGA,095942.00,,,,,0,00,,,M,,M,,*4B
$PTNL,GGK,095942.00,010125,4742.4463585,N,01617.9730561,E,1,21,1.3,EHT669.3680,M*4A
$GPGGQ,095942.00,010125,4742.4463585,N,01617.9730561,E,1,21,6.478,626.1569,M*36
$GPGFA,095942.00,51.057,28.566,5.370,0.996,31.115,3.484,,VVV*32
$GPLLK,095942.00,010125,,M,,M,1,21,1.6,,M*0C
$GNGMP,095942.00,,,,,DAAA,21,0.7,,,,*51
$GPGMP,095942.00,,,,,,04,,,,1.3,123*78
$GLGMP,095942.00,,,,,,05,,,,,*79
$GAGMP,095942.00,,,,,,05,,,,,*74
$GBGMP,095942.00,,,,,,07,,,,,*75
$PSSN,SNC,[0,295200000,2347]*48
$GPZDA,095947.00,01,01,2025,,*65
$GPDTM,W84,,00.0000000,N,00.0000000,E,00.0000000,W84*5F
$GPRMC,095947.00,A,4742.4463507,N,01617.9730904,E,0.0,,010125,5.1,E,D*18
$GPGLL,4742.4463507,N,01617.9730904,E,095947.00,A,D*69
$GPGGA,095947.00,4742.4463507,N,01617.9730904,E,2,22,0.7,626.1495,M,43.2111,M,2.4,0123*4A
$GNGNS,095947.00,4742.4463507,N,01617.9730904,E,DAAA,22,0.7,626.1495,43.2111,,*50
$GPGNS,095947.00,,,,,,05,,,,2.4,123*78
$GLGNS,095947.00,,,,,,05,,,,,*7C
$GAGNS,095947.00,,,,,,05,,,,,*71
$GBGNS,095947.00,,,,,,07,,,,,*70
$GPLLQ,095947.00,010125,,M,,M,1,22,3.350,,M*12
$GPVTG,,T,,M,0.00,N,0.01,K,D*27
$GPHDT,,T*1B
$GPTHS,,V*0E
$GPROT,,V*08
$PSSN,HRP,095947.00,010125,,,,,,,00,0,,*67
$PTNL,AVR,095947.00,,Yaw,,Tilt,,,,0,,00*31
$GPGSA,A,3,13,14,15,19,24,,,,,,,,1.3,0.7,1.1*3A
$GPGSA,A,3,66,67,75,76,77,,,,,,,,1.3,0.7,1.1*35
$GPGSA,A,3,02,03,07,08,25,,,,,,,,1.3,0.7,1.1*3E
$GPGSA,A,3,07,10,24,26,33,42,45,,,,,,1.3,0.7,1.1*34
$GPGST,095947.00,3.179,1.350,0.861,19.402,1.305,0.928,2.943*63
$GPGBS,095947.00,5.691,3.723,11.416,24,0.0001,2.718,0.762*6C
$GPGRS,095947.00,1,-1.0,-0.6,0.5,-1.1,2.7,,,,,,,*4C
$GPGRS,095947.00,1,-3.3,5.3,-2.6,-1.3,-7.1,,,,,,,*60
$GPGRS,095947.00,1,1.3,0.2,1.0,-0.3,-0.5,,,,,,,*61
$GPGRS,095947.00,1,-3.6,0.0,3.1,0.9,-1.3,0.7,-3.8,,,,,*4B
$GPGSV,5,1,18,15,67,246,47,19,27,135,39,12,11,222,,23,25,299,21*74
$GPGSV,5,2,18,30,14,092,22,14,41,057,39,24,40,286,44,13,60,152,49*73
$GPGSV,5,3,18,17,37,099,31,22,62,066,,21,01,024,,10,07,336,30*75
$GPGSV,5,4,18,02,02,043,,05,06,206,26,36,35,170,36,34,31,208,*7A
$GPGSV,5,5,18,49,34,195,,61,03,257,*73
$GLGSV,2,1,08,76,73,301,44,84,14,025,27,85,14,077,,65,32,179,32*66
$GLGSV,2,2,08,67,29,325,51,77,31,251,35,75,33,049,41,66,69,253,45*65
$GAGSV,3,1,10,08,72,278,42,30,18,220,33,07,22,311,42,16,26,051,*62
$GAGSV,3,2,10,03,47,151,44,25,50,057,44,02,70,197,39,24,02,047,*6A
$GAGSV,3,3,10,12,00,038,,33,02,349,*6D
$GBGSV,5,1,19,26,75,274,47,21,29,188,19,05,20,130,,40,27,044,32*67
$GBGSV,5,2,19,33,24,317,46,29,19,082,,07,28,056,35,24,24,255,35*60
$GBGSV,5,3,19,50,45,211,,14,43,294,32,56,35,077,,10,37,068,45*60
$GBGSV,5,4,19,45,43,066,46,42,53,253,47,09,00,095,,35,06,137,*61
$GBGSV,5,5,19,02,04,109,,30,08,030,,60,07,112,*56
$GPGGA,095947.00,,,,,0,00,,,M,,M,,*4E
$PTNL,GGK,095947.00,010125,4742.4463507,N,01617.9730904,E,1,22,1.3,EHT669.3606,M*47
$GPGGQ,095947.00,010125,4742.4463507,N,01617.9730904,E,1,22,3.350,626.1495,M*3F
$GPGFA,095947.00,12.832,24.131,1.350,0.861,19.402,2.943,,VVV*30
$GPLLK,095947.00,010125,,M,,M,1,22,1.6,,M*0A
$GNGMP,095947.00,,,,,DAAA,22,0.7,,,,*57
$GPGMP,095947.00,,,,,,05,,,,2.4,123*78
$GLGMP,095947.00,,,,,,05,,,,,*7C
$GAGMP,095947.00,,,,,,05,,,,,*71
$GBGMP,095947.00,,,,,,07,,,,,*70
$PSSN,SNC,[0,295205000,2347]*4D
$GPZDA,095952.00,01,01,2025,,*61
$GPDTM,W84,,00.0000000,N,00.0000000,E,00.0000000,W84*5F
$GPRMC,095952.00,A,4742.4463417,N,01617.9731145,E,0.0,,010125,5.1,E,D*10
$GPGLL,4742.4463417,N,01617.9731145,E,095952.00,A,D*61
$GPGGA,095952.00,4742.4463417,N,01617.9731145,E,2,21,0.7,626.1492,M,43.2111,M,2.8,0123*4A
$GNGNS,095952.00,4742.4463417,N,01617.9731145,E,DAAA,21,0.7,626.1492,43.2111,,*5C
$GPGNS,095952.00,,,,,,05,,,,2.8,123*70
$GLGNS,095952.00,,,,,,05,,,,,*78
$GAGNS,095952.00,,,,,,05,,,,,*75
$GBGNS,095952.00,,,,,,06,,,,,*75
$GPLLQ,095952.00,010125,,M,,M,1,21,2.690,,M*1D
$GPVTG,,T,,M,0.01,N,0.01,K,D*26
$GPHDT,,T*1B
$GPTHS,,V*0E
$GPROT,,V*08
$PSSN,HRP,095952.00,010125,,,,,,,00,0,,*63
$PTNL,AVR,095952.00,,Yaw,,Tilt,,,,0,,00*35
$GPGSA,A,3,13,14,15,19,24,,,,,,,,1.4,0.7,1.2*3E
$GPGSA,A,3,66,67,75,76,77,,,,,,,,1.4,0.7,1.2*31
$GPGSA,A,3,02,03,07,08,25,,,,,,,,1.4,0.7,1.2*3A
$GPGSA,A,3,07,10,26,33,42,45,,,,,,,1.4,0.7,1.2*36
$GPGST,095952.00,3.374,1.068,0.690,19.266,1.034,0.741,2.370*6E
$GPGBS,095952.00,5.635,3.877,12.092,24,0.0001,1.794,0.792*6B
$GPGRS,095952.00,1,-0.8,-0.6,0.1,-1.0,1.8,,,,,,,*48
$GPGRS,095952.00,1,-4.3,5.9,-3.3,-1.0,-7.3,,,,,,,*6C
$GPGRS,095952.00,1,1.3,-0.5,0.7,-0.0,-0.6,,,,,,,*49
$GPGRS,095952.00,1,-3.3,-0.5,0.5,-1.4,0.3,-4.5,,,,,,*4B
$GPGSV,5,1,18,15,67,246,49,19,27,135,39,12,11,222,,23,25,299,22*79
$GPGSV,5,2,18,30,13,092,24,14,41,057,39,24,40,286,44,13,60,152,49*72
$GPGSV,5,3,18,17,37,099,28,22,62,066,,21,01,024,,10,07,336,30*7D
$GPGSV,5,4,18,02,02,043,,05,06,206,26,36,35,170,36,34,31,208,*7A
$GPGSV,5,5,18,49,34,195,,61,03,257,*73
$GLGSV,2,1,08,76,73,301,45,84,14,025,,85,14,077,,65,32,179,34*64
$GLGSV,2,2,08,67,30,325,52,77,31,251,36,75,33,049,40,66,69,253,45*6C
$GAGSV,3,1,10,08,72,278,43,30,18,220,32,07,22,311,43,16,26,051,*63
$GAGSV,3,2,10,03,47,151,44,25,50,057,44,02,70,197,39,24,02,047,*6A
$GAGSV,3,3,10,12,00,038,,33,02,349,*6D
$GBGSV,5,1,19,26,75,274,47,21,29,188,34,05,20,130,,40,27,044,33*69
$GBGSV,5,2,19,33,24,317,46,29,19,082,,07,28,056,35,24,24,255,35*60
$GBGSV,5,3,19,50,45,211,,14,43,294,28,56,35,077,,10,37,068,44*6A
$GBGSV,5,4,19,45,43,066,45,42,53,253,48,09,00,095,,35,06,137,*6D
$GBGSV,5,5,19,02,04,109,,30,08,030,,60,07,112,*56
$GPGGA,095952.00,,,,,0,00,,,M,,M,,*4A
$PTNL,GGK,095952.00,010125,4742.4463417,N,01617.9731145,E,1,21,1.4,EHT669.3603,M*4E
$GPGGQ,095952.00,010125,4742.4463417,N,01617.9731145,E,1,21,2.690,626.1492,M*3B
$GPGFA,095952.00,10.158,19.436,1.068,0.690,19.266,2.370,,VVV*39
$GPLLK,095952.00,010125,,M,,M,1,21,1.7,,M*0C
$GNGMP,095952.00,,,,,DAAA,21,0.7,,,,*50
$GPGMP,095952.00,,,,,,05,,,,2.8,123*70
$GLGMP,095952.00,,,,,,05,,,,,*78
$GAGMP,095952.00,,,,,,05,,,,,*75
$GBGMP,095952.00,,,,,,06,,,,,*75
$PSSN,SNC,[0,295210000,2347]*49
$GPZDA,095957.00,01,01,2025,,*64
$GPDTM,W84,,00.0000000,N,00.0000000,E,00.0000000,W84*5F
$GPRMC,095957.00,A,4742.4463319,N,01617.9731243,E,0.0,,010125,5.1,E,D*19
$GPGLL,4742.4463319,N,01617.9731243,E,095957.00,A,D*68
$GPGGA,095957.00,4742.4463319,N,01617.9731243,E,2,21,0.7,626.1484,M,43.2111,M,1.4,0123*4B
$GNGNS,095957.00,4742.4463319,N,01617.9731243,E,DAAA,21,0.7,626.1484,43.2111,,*52
$GPGNS,095957.00,,,,,,05,,,,1.4,123*7A
$GLGNS,095957.00,,,,,,05,,,,,*7D
$GAGNS,095957.00,,,,,,05,,,,,*70
$GBGNS,095957.00,,,,,,06,,,,,*70
$GPLLQ,095957.00,010125,,M,,M,1,21,2.078,,M*18
$GPVTG,,T,,M,0.00,N,0.01,K,D*27
$GPHDT,,T*1B
$GPTHS,,V*0E
$GPROT,,V*08
$PSSN,HRP,095957.00,010125,,,,,,,00,0,,*66
$PTNL,AVR,095957.00,,Yaw,,Tilt,,,,0,,00*30
$GPGSA,A,3,13,14,15,19,24,,,,,,,,1.5,0.7,1.3*3E
$GPGSA,A,3,66,67,75,76,77,,,,,,,,1.5,0.7,1.3*31
$GPGSA,A,3,02,03,07,08,25,,,,,,,,1.5,0.7,1.3*3A
$GPGSA,A,3,10,14,26,33,42,45,,,,,,,1.5,0.7,1.3*34
$GPGST,095957.00,2.983,0.822,0.532,19.611,0.795,0.572,1.832*61
$GPGBS,095957.00,5.699,3.720,11.477,14,0.0001,0.981,0.803*66
$GPGRS,095957.00,1,-0.8,1.0,0.3,-0.4,0.6,,,,,,,*6F
$GPGRS,095957.00,1,-4.7,4.9,-4.2,-0.3,-4.2,,,,,,,*6A
$GPGRS,095957.00,1,1.4,-1.5,0.2,0.0,-1.1,,,,,,,*64
$GPGRS,095957.00,1,-0.8,-3.2,0.5,-1.6,-0.4,-4.7,,,,,,*68
$GPGSV,5,1,18,15,67,245,49,19,27,135,39,12,11,222,,23,25,299,*7A
$GPGSV,5,2,18,30,13,092,25,14,41,057,39,13,60,152,50,17,37,099,31*75
$GPGSV,5,3,18,24,40,286,43,22,62,066,,21,01,024,,10,07,336,30*7C
$GPGSV,5,4,18,05,06,206,25,02,02,043,,36,35,170,36,34,31,208,*79
$GPGSV,5,5,18,49,34,195,,61,03,257,*73
$GLGSV,2,1,08,76,73,301,46,84,14,025,,85,14,077,,65,32,179,34*67
$GLGSV,2,2,08,67,30,325,51,77,31,251,37,75,33,049,40,66,69,253,43*68
$GAGSV,3,1,10,08,72,278,43,30,18,220,33,07,22,311,43,16,26,051,*62
$GAGSV,3,2,10,03,47,151,43,25,50,057,44,02,70,197,41,24,02,047,*62
$GAGSV,3,3,10,12,00,038,,33,02,349,*6D
$GBGSV,5,1,19,26,75,274,46,21,29,188,24,05,20,130,,40,27,044,34*6E
$GBGSV,5,2,19,33,24,317,45,29,19,082,,07,28,056,35,24,24,255,34*62
$GBGSV,5,3,19,50,45,211,,14,43,294,43,56,35,077,,10,37,068,44*67
$GBGSV,5,4,19,45,43,066,44,42,53,253,47,09,00,095,,35,06,137,*63
$GBGSV,5,5,19,02,04,109,,30,08,030,,60,07,112,*56
$GPGGA,095957.00,,,,,0,00,,,M,,M,,*4F
$PTNL,GGK,095957.00,010125,4742.4463319,N,01617.9731243,E,1,21,1.5,EHT669.3595,M*4A
$GPGGQ,095957.00,010125,4742.4463319,N,01617.9731243,E,1,21,2.078,626.1484,M*35
$GPGFA,095957.00,7.817,15.025,0.822,0.532,19.611,1.832,,VVV*04
$GPLLK,095957.00,010125,,M,,M,1,21,1.7,,M*09
$GNGMP,095957.00,,,,,DAAA,21,0.7,,,,*55
$GPGMP,095957.00,,,,,,05,,,,1.4,123*7A
$GLGMP,095957.00,,,,,,05,,,,,*7D
$GAGMP,095957.00,,,,,,05,,,,,*70
$GBGMP,095957.00,,,,,,06,,,,,*70
$PSSN,SNC,[0,295215000,2347]*4C
$GPZDA,100002.00,01,01,2025,,*60
$GPDTM,W84,,00.0000000,N,00.0000000,E,00.0000000,W84*5F
$GPRMC,100002.00,A,4742.4463258,N,01617.9731209,E,0.0,,010125,5.1,E,D*17
$GPGLL,4742.4463258,N,01617.9731209,E,100002.00,A,D*66
$GPGGA,100002.00,4742.4463258,N,01617.9731209,E,2,20,0.7,626.1537,M,43.2111,M,2.4,0123*4E
$GNGNS,100002.00,4742.4463258,N,01617.9731209,E,DAAA,20,0.7,626.1537,43.2111,,*54
$GPGNS,100002.00,,,,,,05,,,,2.4,123*7D
$GLGNS,100002.00,,,,,,05,,,,,*79
$GAGNS,100002.00,,,,,,05,,,,,*74
$GBGNS,100002.00,,,,,,05,,,,,*77
$GPLLQ,100002.00,010125,,M,,M,1,20,2.196,,M*1C
$GPVTG,,T,,M,0.00,N,0.01,K,D*27
$GPHDT,,T*1B
$GPTHS,,V*0E
$GPROT,,V*08
$PSSN,HRP,100002.00,010125,,,,,,,00,0,,*62
$PTNL,AVR,100002.00,,Yaw,,Tilt,,,,0,,00*34
$GPGSA,A,3,13,14,15,19,24,,,,,,,,1.5,0.7,1.3*3E
$GPGSA,A,3,66,67,75,76,77,,,,,,,,1.5,0.7,1.3*31
$GPGSA,A,3,02,03,07,08,25,,,,,,,,1.5,0.7,1.3*3A
$GPGSA,A,3,10,26,33,42,45,,,,,,,,1.5,0.7,1.3*31
$GPGST,100002.00,2.768,0.880,0.562,20.133,0.849,0.608,1.932*6F
$GPGBS,100002.00,5.757,3.792,11.615,14,0.0001,1.501,0.814*6D
$GPGRS,100002.00,1,-0.9,1.5,-0.1,0.5,-0.4,,,,,,,*43
$GPGRS,100002.00,1,-6.1,4.1,-3.0,-0.4,-1.3,,,,,,,*64
$GPGRS,100002.00,1,1.7,-1.9,-0.1,-0.1,-1.3,,,,,,,*6F
$GPGRS,100002.00,1,-0.7,0.7,-1.4,-1.0,-4.4,,,,,,,*67
$GPGSV,5,1,18,15,67,245,48,19,27,135,40,12,11,222,,23,25,299,30*76
$GPGSV,5,2,18,30,13,092,25,14,41,057,40,13,60,152,49,17,37,099,32*70
$GPGSV,5,3,18,24,40,286,40,22,62,066,,21,01,024,,10,07,336,*7C
$GPGSV,5,4,18,05,06,206,24,02,02,043,,36,35,170,36,34,31,208,*78
$GPGSV,5,5,18,49,34,195,,61,03,257,*73
$GLGSV,2,1,08,76,73,301,45,84,14,025,,85,14,077,,65,32,179,35*65
$GLGSV,2,2,08,67,30,325,51,75,33,049,41,77,31,251,36,66,69,253,41*6A
$GAGSV,3,1,10,08,72,278,43,30,18,220,34,07,22,311,44,16,26,051,*62
$GAGSV,3,2,10,03,47,151,43,25,50,057,44,02,70,197,42,24,02,047,*61
$GAGSV,3,3,10,12,00,038,,33,02,349,*6D
$GBGSV,5,1,19,26,75,274,46,21,29,188,33,05,20,130,,40,27,044,35*69
$GBGSV,5,2,19,33,24,316,45,29,19,082,,07,28,056,35,24,24,255,34*63
$GBGSV,5,3,19,50,45,211,,14,43,294,32,56,35,077,,10,37,068,44*61
$GBGSV,5,4,19,45,43,066,43,42,53,253,47,09,00,095,,35,06,137,*64
$GBGSV,5,5,19,02,04,109,,30,08,030,,60,07,112,*56
$GPGGA,100002.00,,,,,0,00,,,M,,M,,*4B
$PTNL,GGK,100002.00,010125,4742.4463258,N,01617.9731209,E,1,20,1.5,EHT669.3647,M*49
$GPGGQ,100002.00,010125,4742.4463258,N,01617.9731209,E,1,20,2.196,626.1537,M*32
$GPGFA,100002.00,8.370,15.843,0.880,0.562,20.133,1.932,,VVV*0C
$GPLLK,100002.00,010125,,M,,M,1,20,1.7,,M*0C
$GNGMP,100002.00,,,,,DAAA,20,0.7,,,,*50
$GPGMP,100002.00,,,,,,05,,,,2.4,123*7D
$GLGMP,100002.00,,,,,,05,,,,,*79
$GAGMP,100002.00,,,,,,05,,,,,*74
$GBGMP,100002.00,,,,,,05,,,,,*77
$PSSN,SNC,[0,295220000,2347]*4A
$GPZDA,100007.00,01,01,2025,,*65
$GPDTM,W84,,00.0000000,N,00.0000000,E,00.0000000,W84*5F
$GPRMC,100007.00,A,4742.4463154,N,01617.9731057,E,0.0,,010125,5.1,E,D*14
$GPGLL,4742.4463154,N,01617.9731057,E,100007.00,A,D*65
$GPGGA,100007.00,4742.4463154,N,01617.9731057,E,2,22,0.7,626.1646,M,43.2111,M,3.4,0123*4B
$GNGNS,100007.00,4742.4463154,N,01617.9731057,E,DAAA,22,0.7,626.1646,43.2111,,*50
$GPGNS,100007.00,,,,,,05,,,,3.4,123*79
$GLGNS,100007.00,,,,,,05,,,,,*7C
$GAGNS,100007.00,,,,,,05,,,,,*71
$GBGNS,100007.00,,,,,,07,,,,,*70
$GPLLQ,100007.00,010125,,M,,M,1,22,2.630,,M*10
$GPVTG,,T,,M,0.01,N,0.03,K,D*24
$GPHDT,,T*1B
$GPTHS,,V*0E
$GPROT,,V*08
$PSSN,HRP,100007.00,010125,,,,,,,00,0,,*67
$PTNL,AVR,100007.00,,Yaw,,Tilt,,,,0,,00*31
$GPGSA,A,3,13,14,15,19,24,,,,,,,,1.4,0.7,1.2*3E
$GPGSA,A,3,66,67,75,76,77,,,,,,,,1.4,0.7,1.2*31
$GPGSA,A,3,02,03,07,08,25,,,,,,,,1.4,0.7,1.2*3A
$GPGSA,A,3,10,14,26,33,40,42,45,,,,,,1.4,0.7,1.2*30
$GPGST,100007.00,3.111,1.050,0.673,19.953,1.013,0.727,2.315*66
$GPGBS,100007.00,5.815,3.863,11.791,14,0.0001,2.010,0.829*65
$GPGRS,100007.00,1,-0.7,2.0,-0.3,0.7,-0.8,,,,,,,*42
$GPGRS,100007.00,1,-3.6,4.5,-2.9,-1.6,-4.3,,,,,,,*69
$GPGRS,100007.00,1,1.2,-1.7,0.2,-0.1,-1.1,,,,,,,*4D
$GPGRS,100007.00,1,-0.9,-6.1,-0.3,-1.5,4.1,-1.5,-3.6,,,,,*6B
$GPGSV,5,1,18,15,67,245,48,19,27,135,39,12,11,223,,23,25,299,34*7D
$GPGSV,5,2,18,30,13,092,24,14,41,057,41,13,60,152,49,17,37,099,34*76
$GPGSV,5,3,18,24,40,286,37,22,62,066,,21,01,024,,10,07,336,*7C
$GPGSV,5,4,18,05,06,206,23,02,02,043,,36,35,170,36,34,31,208,*7F
$GPGSV,5,5,18,49,34,195,,61,03,257,*73
$GLGSV,2,1,08,76,74,301,44,84,14,025,28,85,14,077,,65,32,179,33*6F
$GLGSV,2,2,08,67,30,325,50,75,33,049,41,77,31,251,36,66,69,253,42*68
$GAGSV,3,1,10,08,72,278,44,30,18,220,34,07,22,311,44,16,26,051,*65
$GAGSV,3,2,10,03,47,151,42,25,50,057,44,02,70,197,43,24,02,047,*61
$GAGSV,3,3,10,12,00,038,,33,02,349,*6D
$GBGSV,5,1,19,26,75,275,45,21,29,188,33,05,20,130,,40,27,044,36*68
$GBGSV,5,2,19,33,24,316,44,29,19,082,,07,28,056,35,24,24,255,34*62
$GBGSV,5,3,19,50,45,211,,14,43,294,41,10,37,068,44,56,35,077,*65
$GBGSV,5,4,19,45,43,066,43,42,53,253,47,09,00,095,,35,06,137,*64
$GBGSV,5,5,19,02,04,109,,30,08,030,,60,07,112,*56
$GPGGA,100007.00,,,,,0,00,,,M,,M,,*4E
$PTNL,GGK,100007.00,010125,4742.4463154,N,01617.9731057,E,1,22,1.4,EHT669.3757,M*49
$GPGGQ,100007.00,010125,4742.4463154,N,01617.9731057,E,1,22,2.630,626.1646,M*3D
$GPGFA,100007.00,9.984,18.985,1.050,0.673,19.953,2.315,,VVV*00
$GPLLK,100007.00,010125,,M,,M,1,22,1.7,,M*0B
$GNGMP,100007.00,,,,,DAAA,22,0.7,,,,*57
$GPGMP,100007.00,,,,,,05,,,,3.4,123*79
$GLGMP,100007.00,,,,,,05,,,,,*7C
$GAGMP,100007.00,,,,,,05,,,,,*71
$GBGMP,100007.00,,,,,,07,,,,,*70
$PSSN,SNC,[0,295225000,2347]*4F
$GPZDA,100012.00,01,01,2025,,*61
$GPDTM,W84,,00.0000000,N,00.0000000,E,00.0000000,W84*5F
$GPRMC,100012.00,A,4742.4463090,N,01617.9730908,E,0.0,,010125,5.1,E,D*1B
$GPGLL,4742.4463090,N,01617.9730908,E,100012.00,A,D*6A
$GPGGA,100012.00,4742.4463090,N,01617.9730908,E,2,23,0.7,626.1678,M,43.2111,M,2.8,0123*45
$GNGNS,100012.00,4742.4463090,N,01617.9730908,E,DAAA,23,0.7,626.1678,43.2111,,*53
$GPGNS,100012.00,,,,,,05,,,,2.8,123*70
$GLGNS,100012.00,,,,,,05,,,,,*78
$GAGNS,100012.00,,,,,,05,,,,,*75
$GBGNS,100012.00,,,,,,08,,,,,*7B
$GPLLQ,100012.00,010125,,M,,M,1,23,4.433,,M*12
$GPVTG,,T,,M,0.00,N,0.01,K,D*27
$GPHDT,,T*1B
$GPTHS,,V*0E
$GPROT,,V*08
$PSSN,HRP,100012.00,010125,,,,,,,00,0,,*63
$PTNL,AVR,100012.00,,Yaw,,Tilt,,,,0,,00*35
$GPGSA,A,3,13,14,15,17,19,,,,,,,,1.4,0.7,1.2*3E
$GPGSA,A,3,66,67,75,76,77,,,,,,,,1.4,0.7,1.2*31
$GPGSA,A,3,02,03,07,08,25,,,,,,,,1.4,0.7,1.2*3A
$GPGSA,A,3,07,10,14,26,33,40,42,45,,,,,1.4,0.7,1.2*37
$GPGST,100012.00,6.258,1.602,1.139,288.288,1.192,1.562,3.973*56
$GPGBS,100012.00,5.908,6.229,16.673,14,0.0001,22.617,8.561*5D
$GPGRS,100012.00,1,-0.4,1.2,-0.2,-1.4,1.2,,,,,,,*4C
$GPGRS,100012.00,1,-1.6,3.0,-3.0,-2.7,-6.0,,,,,,,*66
$GPGRS,100012.00,1,0.6,-1.3,-0.2,0.1,-1.0,,,,,,,*49
$GPGRS,100012.00,1,-2.4,-1.3,22.6,-0.6,-2.1,4.3,-1.9,-2.9,,,,*7F
$GPGSV,5,1,18,15,67,245,48,19,27,135,39,12,11,223,,23,25,299,32*7B
$GPGSV,5,2,18,30,13,092,24,14,41,057,42,13,60,152,48,17,37,099,35*75
$GPGSV,5,3,18,24,40,286,34,22,62,066,,21,01,024,,10,07,336,*7F
$GPGSV,5,4,18,05,06,206,23,02,02,043,,36,35,170,36,34,31,208,*7F
$GPGSV,5,5,18,49,34,195,,61,03,257,*73
$GLGSV,2,1,08,76,74,301,43,84,14,025,31,85,14,077,,65,32,179,32*61
$GLGSV,2,2,08,67,30,325,49,75,33,049,41,77,31,251,35,66,69,253,41*60
$GAGSV,3,1,10,08,72,278,44,30,18,220,34,07,22,311,45,16,26,051,*64
$GAGSV,3,2,10,03,47,151,42,25,50,057,44,02,70,197,44,24,02,047,*66
$GAGSV,3,3,10,12,00,038,,33,02,349,*6D
$GBGSV,5,1,19,26,75,275,44,21,29,188,27,05,20,130,,40,27,044,36*6C
$GBGSV,5,2,19,33,24,316,44,29,19,082,,07,28,056,35,24,24,255,34*62
$GBGSV,5,3,19,50,45,211,,14,43,294,36,10,37,068,44,56,35,077,*65
$GBGSV,5,4,19,45,43,066,43,42,53,253,47,09,00,095,,35,06,137,*64
$GBGSV,5,5,19,02,04,109,,30,08,030,,60,07,112,*56
$GPGGA,100012.00,,,,,0,00,,,M,,M,,*4A
$PTNL,GGK,100012.00,010125,4742.4463090,N,01617.9730908,E,1,23,1.4,EHT669.3789,M*44
$GPGGQ,100012.00,010125,4742.4463090,N,01617.9730908,E,1,23,4.433,626.1678,M*39
$GPGFA,100012.00,15.228,32.580,1.602,1.139,288.288,3.973,,VVV*00
$GPLLK,100012.00,010125,,M,,M,1,23,1.7,,M*0E
$GNGMP,100012.00,,,,,DAAA,23,0.7,,,,*52
$GPGMP,100012.00,,,,,,05,,,,2.8,123*70
$GLGMP,100012.00,,,,,,05,,,,,*78
$GAGMP,100012.00,,,,,,05,,,,,*75
$GBGMP,100012.00,,,,,,08,,,,,*7B
$PSSN,SNC,[0,295230000,2347]*4B
$GPZDA,100017.00,01,01,2025,,*64
$GPDTM,W84,,00.0000000,N,00.0000000,E,00.0000000,W84*5F
$GPRMC,100017.00,A,4742.4463090,N,01617.9730899,E,0.0,,010125,5.1,E,D*17
$GPGLL,4742.4463090,N,01617.9730899,E,100017.00,A,D*66
$GPGGA,100017.00,4742.4463090,N,01617.9730899,E,2,22,0.8,626.1703,M,43.2111,M,1.4,0123*45
$GNGNS,100017.00,4742.4463090,N,01617.9730899,E,DAAA,22,0.8,626.1703,43.2111,,*5C
$GPGNS,100017.00,,,,,,05,,,,1.4,123*7A
$GLGNS,100017.00,,,,,,04,,,,,*7C
$GAGNS,100017.00,,,,,,05,,,,,*70
$GBGNS,100017.00,,,,,,08,,,,,*7E
$GPLLQ,100017.00,010125,,M,,M,1,22,4.028,,M*18
$GPVTG,,T,,M,0.01,N,0.01,K,D*26
$GPHDT,,T*1B
$GPTHS,,V*0E
$GPROT,,V*08
$PSSN,HRP,100017.00,010125,,,,,,,00,0,,*66
$PTNL,AVR,100017.00,,Yaw,,Tilt,,,,0,,00*30
$GPGSA,A,3,13,14,15,17,19,,,,,,,,1.6,0.8,1.4*35
$GPGSA,A,3,66,67,75,76,,,,,,,,,1.6,0.8,1.4*3A
$GPGSA,A,3,02,03,07,08,25,,,,,,,,1.6,0.8,1.4*31
$GPGSA,A,3,07,10,14,26,33,40,42,45,,,,,1.6,0.8,1.4*3C
$GPGST,100017.00,6.701,1.410,1.047,285.823,1.078,1.386,3.625*50
$GPGBS,100017.00,5.933,6.043,17.218,14,0.0001,24.616,8.562*52
$GPGRS,100017.00,1,0.2,0.1,-0.0,-1.0,0.6,,,,,,,*63
$GPGRS,100017.00,1,-3.4,1.5,-3.6,-2.9,,,,,,,,*69
$GPGRS,100017.00,1,1.2,-0.9,-0.6,0.4,-0.7,,,,,,,*45
$GPGRS,100017.00,1,-1.1,-1.6,24.6,0.1,-2.2,3.7,-2.0,-1.2,,,,*57
$GPGSV,5,1,18,15,67,245,49,19,27,135,38,12,11,223,,23,25,299,26*7E
$GPGSV,5,2,18,30,13,092,23,14,41,057,42,13,60,152,47,17,37,099,37*7F
$GPGSV,5,3,18,24,40,286,34,22,62,066,,21,01,024,,10,07,336,*7F
$GPGSV,5,4,18,05,06,206,22,02,02,043,,36,35,170,36,34,31,208,*7E
$GPGSV,5,5,18,49,34,195,,61,03,257,*73
$GLGSV,2,1,08,76,74,302,44,84,14,025,32,85,14,077,,65,32,179,33*67
$GLGSV,2,2,08,67,30,325,48,75,33,049,40,77,31,251,32,66,69,252,39*69
$GAGSV,3,1,10,08,72,277,45,30,18,220,35,07,22,311,45,16,26,051,*6B
$GAGSV,3,2,10,03,47,151,41,25,50,057,45,02,70,197,44,24,02,047,*64
$GAGSV,3,3,10,12,00,038,,33,02,349,*6D
$GBGSV,5,1,19,26,75,275,43,21,29,188,28,05,20,130,,40,27,044,37*65
$GBGSV,5,2,19,33,24,316,45,29,19,082,,07,28,056,36,24,24,255,32*66
$GBGSV,5,3,19,50,45,211,,14,43,294,35,10,37,068,44,56,35,077,*66
$GBGSV,5,4,19,45,43,066,44,42,53,253,47,09,00,095,,35,06,137,*63
$GBGSV,5,5,19,02,04,109,,30,08,030,,60,07,112,*56
$GPGGA,100017.00,,,,,0,00,,,M,,M,,*4F
$PTNL,GGK,100017.00,010125,4742.4463090,N,01617.9730899,E,1,22,1.6,EHT669.3813,M*47
$GPGGQ,100017.00,010125,4742.4463090,N,01617.9730899,E,1,22,4.028,626.1703,M*37
$GPGFA,100017.00,13.408,29.724,1.410,1.047,285.823,3.625,,VVV*02
$GPLLK,100017.00,010125,,M,,M,1,22,1.9,,M*04
$GNGMP,100017.00,,,,,DAAA,22,0.8,,,,*59
$GPGMP,100017.00,,,,,,05,,,,1.4,123*7A
$GLGMP,100017.00,,,,,,04,,,,,*7C
$GAGMP,100017.00,,,,,,05,,,,,*70
$GBGMP,100017.00,,,,,,08,,,,,*7E
$PSSN,SNC,[0,295235000,2347]*4E
$GPZDA,100022.00,01,01,2025,,*62
$GPDTM,W84,,00.0000000,N,00.0000000,E,00.0000000,W84*5F
$GPRMC,100022.00,A,4742.4463112,N,01617.9730878,E,0.0,,010125,5.1,E,D*15
$GPGLL,4742.4463112,N,01617.9730878,E,100022.00,A,D*64
$GPGGA,100022.00,4742.4463112,N,01617.9730878,E,2,24,0.6,626.1744,M,43.2111,M,2.3,0123*48
$GNGNS,100022.00,4742.4463112,N,01617.9730878,E,DAAA,24,0.6,626.1744,43.2111,,*55
$GPGNS,100022.00,,,,,,06,,,,2.3,123*7B
$GLGNS,100022.00,,,,,,04,,,,,*7A
$GAGNS,100022.00,,,,,,06,,,,,*75
$GBGNS,100022.00,,,,,,08,,,,,*78
$GPLLQ,100022.00,010125,,M,,M,1,24,1.951,,M*1A
$GPVTG,,T,,M,0.00,N,0.01,K,D*27
$GPHDT,,T*1B
$GPTHS,,V*0E
$GPROT,,V*08
$PSSN,HRP,100022.00,010125,,,,,,,00,0,,*60
$PTNL,AVR,100022.00,,Yaw,,Tilt,,,,0,,00*36
$GPGSA,A,3,13,14,15,17,19,24,,,,,,,1.2,0.6,1.1*3C
$GPGSA,A,3,66,67,75,76,,,,,,,,,1.2,0.6,1.1*35
$GPGSA,A,3,02,03,07,08,25,30,,,,,,,1.2,0.6,1.1*3D
$GPGSA,A,3,07,10,14,26,33,40,42,45,,,,,1.2,0.6,1.1*33
$GPGST,100022.00,2.561,0.749,0.513,18.365,0.729,0.541,1.727*6D
$GPGBS,100022.00,5.419,3.625,10.533,13,0.0001,0.801,0.681*64
$GPGRS,100022.00,1,0.8,0.3,-0.4,-0.2,0.6,-0.9,,,,,,*60
$GPGRS,100022.00,1,-3.9,1.5,-4.7,-2.8,,,,,,,,*65
$GPGRS,100022.00,1,1.7,-0.8,-0.5,0.9,-0.5,5.1,,,,,,*61
$GPGRS,100022.00,1,-1.5,-1.7,-1.6,0.9,-2.4,3.5,-1.9,-1.0,,,,*4A
$GPGSV,5,1,18,15,67,245,49,19,27,135,38,12,11,223,,23,25,299,35*7C
$GPGSV,5,2,18,30,13,092,22,14,41,057,43,13,60,152,47,17,37,099,38*70
$GPGSV,5,3,18,24,40,286,36,22,62,066,,21,01,024,,10,07,335,32*7F
$GPGSV,5,4,18,05,06,206,20,02,02,042,,36,35,170,36,34,31,208,*7D
$GPGSV,5,5,18,49,34,195,,61,03,257,*73
$GLGSV,2,1,08,76,74,302,43,84,14,025,32,85,15,076,,65,32,179,33*60
$GLGSV,2,2,08,67,30,325,47,75,33,049,38,77,31,251,30,66,69,252,41*64
$GAGSV,3,1,10,08,72,277,46,30,18,221,35,07,22,311,45,16,26,051,*69
$GAGSV,3,2,10,03,47,151,42,25,50,057,45,02,70,197,45,24,01,047,*65
$GAGSV,3,3,10,12,00,038,,33,02,349,*6D
$GBGSV,5,1,19,26,75,275,42,21,29,188,28,05,20,130,,40,27,044,37*64
$GBGSV,5,2,19,33,24,316,46,29,19,082,,07,28,056,36,24,24,255,35*62
$GBGSV,5,3,19,50,45,211,,14,43,294,45,10,37,068,44,56,35,077,*61
$GBGSV,5,4,19,45,43,066,45,42,53,253,46,09,00,095,,35,06,137,*63
$GBGSV,5,5,19,02,04,109,,30,08,030,,60,07,112,*56
$GPGGA,100022.00,,,,,0,00,,,M,,M,,*49
$PTNL,GGK,100022.00,010125,4742.4463112,N,01617.9730878,E,1,24,1.2,EHT669.3854,M*44
$GPGGQ,100022.00,010125,4742.4463112,N,01617.9730878,E,1,24,1.951,626.1744,M*32
$GPGFA,100022.00,7.122,14.163,0.749,0.513,18.365,1.727,,VVV*02
$GPLLK,100022.00,010125,,M,,M,1,24,1.4,,M*09
$GNGMP,100022.00,,,,,DAAA,24,0.6,,,,*57
$GPGMP,100022.00,,,,,,06,,,,2.3,123*7B
$GLGMP,100022.00,,,,,,04,,,,,*7A
$GAGMP,100022.00,,,,,,06,,,,,*75
$GBGMP,100022.00,,,,,,08,,,,,*78
$PSSN,SNC,[0,295240000,2347]*4C
$GPZDA,100027.00,01,01,2025,,*67
$GPDTM,W84,,00.0000000,N,00.0000000,E,00.0000000,W84*5F
$GPRMC,100027.00,A,4742.4463160,N,01617.9730884,E,0.0,,010125,5.1,E,D*16
$GPGLL,4742.4463160,N,01617.9730884,E,100027.00,A,D*67
$GPGGA,100027.00,4742.4463160,N,01617.9730884,E,2,25,0.6,626.1848,M,43.2111,M,3.3,0123*48
$GNGNS,100027.00,4742.4463160,N,01617.9730884,E,DAAA,25,0.6,626.1848,43.2111,,*54
$GPGNS,100027.00,,,,,,06,,,,3.3,123*7F
$GLGNS,100027.00,,,,,,04,,,,,*7F
$GAGNS,100027.00,,,,,,06,,,,,*70
$GBGNS,100027.00,,,,,,09,,,,,*7C
$GPLLQ,100027.00,010125,,M,,M,1,25,2.005,,M*15
$GPVTG,,T,,M,0.01,N,0.01,K,D*26
$GPHDT,,T*1B
$GPTHS,,V*0E
$GPROT,,V*08
$PSSN,HRP,100027.00,010125,,,,,,,00,0,,*65
$PTNL,AVR,100027.00,,Yaw,,Tilt,,,,0,,00*33
$GPGSA,A,3,13,14,15,17,19,24,,,,,,,1.2,0.6,1.0*3D
$GPGSA,A,3,66,67,75,76,,,,,,,,,1.2,0.6,1.0*34
$GPGSA,A,3,02,03,07,08,25,30,,,,,,,1.2,0.6,1.0*3C
$GPGSA,A,3,07,10,14,24,26,33,40,42,45,,,,1.2,0.6,1.0*34
$GPGST,100027.00,2.902,0.800,0.480,16.022,0.780,0.511,1.774*66
$GPGBS,100027.00,5.424,3.626,10.531,15,0.0001,-0.784,0.659*42
$GPGRS,100027.00,1,0.5,-0.3,-0.8,-0.6,0.7,0.9,,,,,,*61
$GPGRS,100027.00,1,-3.2,3.6,-4.9,-4.2,,,,,,,,*68
$GPGRS,100027.00,1,1.0,-0.9,-0.4,1.1,-0.6,3.1,,,,,,*6F
$GPGRS,100027.00,1,-3.0,-1.9,-1.5,-5.5,0.5,-3.2,3.1,-2.1,-1.0,,,*42
$GPGSV,5,1,18,15,67,245,49,19,27,135,38,12,11,223,,23,25,299,29*71
$GPGSV,5,2,18,30,13,093,19,14,41,057,44,13,60,152,48,17,37,099,38*71
$GPGSV,5,3,18,24,40,286,38,22,62,066,,21,01,024,,10,07,335,*70
$GPGSV,5,4,18,05,06,206,20,02,02,042,,36,35,170,36,34,31,208,*7D
$GPGSV,5,5,18,49,34,195,,61,03,257,*73
$GLGSV,2,1,08,76,74,302,43,84,14,025,32,85,15,076,,65,32,179,34*67
$GLGSV,2,2,08,67,30,325,46,75,33,049,40,77,31,251,33,66,69,252,43*6B
$GAGSV,3,1,10,08,72,277,46,30,18,221,35,07,22,311,45,16,26,051,*69
$GAGSV,3,2,10,03,47,151,42,25,50,057,45,02,70,197,45,24,01,047,*65
$GAGSV,3,3,10,12,00,037,,33,02,349,*62
$GBGSV,5,1,19,26,75,275,43,21,29,188,29,05,20,130,,40,27,044,38*6B
$GBGSV,5,2,19,33,24,316,47,29,19,082,,07,28,056,36,24,24,255,35*63
$GBGSV,5,3,19,50,45,211,,14,43,294,38,10,37,068,44,56,35,077,*6B
$GBGSV,5,4,19,45,43,066,46,42,53,253,46,09,00,095,,35,06,137,*60
$GBGSV,5,5,19,02,04,109,,30,08,030,,60,07,112,*56
$GPGGA,100027.00,,,,,0,00,,,M,,M,,*4C
$PTNL,GGK,100027.00,010125,4742.4463160,N,01617.9730884,E,1,25,1.2,EHT669.3959,M*4A
$GPGGQ,100027.00,010125,4742.4463160,N,01617.9730884,E,1,25,2.005,626.1848,M*38
$GPGFA,100027.00,7.607,14.549,0.800,0.480,16.022,1.774,,VVV*0A
$GPLLK,100027.00,010125,,M,,M,1,25,1.4,,M*0D
$GNGMP,100027.00,,,,,DAAA,25,0.6,,,,*53
$GPGMP,100027.00,,,,,,06,,,,3.3,123*7F
$GLGMP,100027.00,,,,,,04,,,,,*7F
$GAGMP,100027.00,,,,,,06,,,,,*70
$GBGMP,100027.00,,,,,,09,,,,,*7C
$PSSN,SNC,[0,295245000,2347]*49
$GPZDA,100032.00,01,01,2025,,*63
$GPDTM,W84,,00.0000000,N,00.0000000,E,00.0000000,W84*5F
$GPRMC,100032.00,A,4742.4463196,N,01617.9730925,E,0.0,,010125,5.1,E,D*11
$GPGLL,4742.4463196,N,01617.9730925,E,100032.00,A,D*60
$GPGGA,100032.00,4742.4463196,N,01617.9730925,E,2,27,0.6,626.1917,M,43.2111,M,3.0,0123*45
$GNGNS,100032.00,4742.4463196,N,01617.9730925,E,DAAA,27,0.6,626.1917,43.2111,,*5A
$GPGNS,100032.00,,,,,,06,,,,3.0,123*78
$GLGNS,100032.00,,,,,,06,,,,,*79
$GAGNS,100032.00,,,,,,06,,,,,*74
$GBGNS,100032.00,,,,,,09,,,,,*78
$GPLLQ,100032.00,010125,,M,,M,1,27,2.223,,M*15
$GPVTG,,T,,M,0.00,N,0.01,K,D*27
$GPHDT,,T*1B
$GPTHS,,V*0E
$GPROT,,V*08
$PSSN,HRP,100032.00,010125,,,,,,,00,0,,*61
$PTNL,AVR,100032.00,,Yaw,,Tilt,,,,0,,00*37
$GPGSA,A,3,13,14,15,17,19,24,,,,,,,1.1,0.6,1.0*3E
$GPGSA,A,3,65,66,67,75,76,77,,,,,,,1.1,0.6,1.0*34
$GPGSA,A,3,02,03,07,08,25,30,,,,,,,1.1,0.6,1.0*3F
$GPGSA,A,3,07,10,14,24,26,33,40,42,45,,,,1.1,0.6,1.0*37
$GPGST,100032.00,4.514,0.865,0.540,15.408,0.847,0.569,1.975*6A
$GPGBS,100032.00,5.118,3.647,10.449,24,0.0001,15.270,8.643*53
$GPGRS,100032.00,1,0.4,-0.6,-0.7,0.1,0.0,0.7,,,,,,*4D
$GPGRS,100032.00,1,-2.3,-3.2,5.1,-3.2,-3.6,-7.3,,,,,,*67
$GPGRS,100032.00,1,0.9,-0.7,-0.3,1.4,-0.2,1.8,,,,,,*60
$GPGRS,100032.00,1,-1.3,-1.6,4.6,15.3,-0.5,-3.2,3.3,-1.0,-1.2,,,*56
$GPGSV,5,1,18,15,67,245,49,19,27,135,38,12,11,223,,23,25,299,38*71
$GPGSV,5,2,18,30,13,093,,14,41,057,44,13,60,152,49,17,37,099,38*78
$GPGSV,5,3,18,24,40,286,39,22,62,066,,21,01,024,,10,07,335,*71
$GPGSV,5,4,18,05,06,206,19,02,02,042,,36,35,170,36,34,31,208,*77
$GPGSV,5,5,18,49,34,195,,61,03,257,*73
$GLGSV,2,1,08,76,74,302,45,84,14,025,31,85,15,076,,65,32,179,35*63
$GLGSV,2,2,08,67,30,325,46,75,32,049,42,77,31,251,35,66,69,252,43*6E
$GAGSV,3,1,10,08,73,277,46,30,18,221,35,07,22,311,44,16,26,051,*69
$GAGSV,3,2,10,03,47,151,43,25,50,057,45,02,70,197,44,24,01,047,*65
$GAGSV,3,3,10,12,00,037,,33,02,349,*62
$GBGSV,5,1,19,26,75,275,44,21,29,188,30,05,20,130,,40,27,044,38*64
$GBGSV,5,2,19,33,24,316,47,29,19,082,,07,28,056,36,24,24,255,39*6F
$GBGSV,5,3,19,50,45,211,,14,43,294,40,56,35,077,,10,37,068,44*64
$GBGSV,5,4,19,45,43,066,47,42,53,253,45,09,00,095,,35,06,137,*62
$GBGSV,5,5,19,02,04,109,,30,08,030,,60,07,112,*56
$GPGGA,100032.00,,,,,0,00,,,M,,M,,*48
$PTNL,GGK,100032.00,010125,4742.4463196,N,01617.9730925,E,1,27,1.1,EHT669.4028,M*44
$GPGGQ,100032.00,010125,4742.4463196,N,01617.9730925,E,1,27,2.223,626.1917,M*30
$GPGFA,100032.00,8.228,16.193,0.865,0.540,15.408,1.975,,VVV*07
$GPLLK,100032.00,010125,,M,,M,1,27,1.3,,M*0C
$GNGMP,100032.00,,,,,DAAA,27,0.6,,,,*55
$GPGMP,100032.00,,,,,,06,,,,3.0,123*78
$GLGMP,100032.00,,,,,,06,,,,,*79
$GAGMP,100032.00,,,,,,06,,,,,*74
$GBGMP,100032.00,,,,,,09,,,,,*78
$PSSN,SNC,[0,295250000,2347]*4D
$GPZDA,100037.00,01,01,2025,,*66
$GPDTM,W84,,00.0000000,N,00.0000000,E,00.0000000,W84*5F
$GPRMC,100037.00,A,4742.4463246,N,01617.9730878,E,0.0,,010125,5.1,E,D*13
$GPGLL,4742.4463246,N,01617.9730878,E,100037.00,A,D*62
$GPGGA,100037.00,4742.4463246,N,01617.9730878,E,2,27,0.6,626.1892,M,43.2111,M,1.3,0123*4A
$GNGNS,100037.00,4742.4463246,N,01617.9730878,E,DAAA,27,0.6,626.1892,43.2111,,*54
$GPGNS,100037.00,,,,,,07,,,,1.3,123*7D
$GLGNS,100037.00,,,,,,06,,,,,*7C
$GAGNS,100037.00,,,,,,05,,,,,*72
$GBGNS,100037.00,,,,,,09,,,,,*7D
$GPLLQ,100037.00,010125,,M,,M,1,27,1.751,,M*13
$GPVTG,,T,,M,0.00,N,0.00,K,D*26
$GPHDT,,T*1B
$GPTHS,,V*0E
$GPROT,,V*08
$PSSN,HRP,100037.00,010125,,,,,,,00,0,,*64
$PTNL,AVR,100037.00,,Yaw,,Tilt,,,,0,,00*32
$GPGSA,A,3,13,14,15,17,19,23,24,,,,,,1.2,0.6,1.0*3C
$GPGSA,A,3,65,66,67,75,76,77,,,,,,,1.2,0.6,1.0*37
$GPGSA,A,3,02,03,07,08,25,,,,,,,,1.2,0.6,1.0*3F
$GPGSA,A,3,07,10,14,24,26,33,40,42,45,,,,1.2,0.6,1.0*34
$GPGST,100037.00,4.119,0.789,0.395,17.016,0.763,0.443,1.512*61
$GPGBS,100037.00,5.132,2.601,8.786,24,0.0001,11.517,8.643*66
$GPGRS,100037.00,1,0.5,-0.6,-0.4,0.4,0.5,-0.7,-0.0,,,,,*64
$GPGRS,100037.00,1,-1.0,-2.8,5.9,-0.9,-2.1,1.8,,,,,,*4F
$GPGRS,100037.00,1,0.9,-0.3,0.2,1.6,0.3,,,,,,,*44
$GPGRS,100037.00,1,-0.9,-1.3,11.1,11.5,-0.8,-2.3,3.9,-0.5,-1.0,,,*6D
$GPGSV,5,1,18,15,67,245,48,19,27,135,37,12,11,223,,23,25,299,38*7F
$GPGSV,5,2,18,30,13,093,23,14,41,057,45,13,60,152,49,17,37,099,39*79
$GPGSV,5,3,18,24,40,286,39,22,62,066,,21,01,024,,10,07,335,*71
$GPGSV,5,4,18,05,06,206,27,02,02,042,,36,35,170,36,34,31,208,*7A
$GPGSV,5,5,18,49,34,195,,61,03,257,*73
$GLGSV,2,1,08,76,74,302,46,84,14,025,30,85,15,076,,65,32,179,36*62
$GLGSV,2,2,08,67,30,325,47,75,32,049,44,77,31,252,36,66,69,252,45*6F
$GAGSV,3,1,10,08,73,277,46,30,18,221,35,07,22,311,44,16,26,051,*69
$GAGSV,3,2,10,03,46,151,44,25,50,057,45,02,70,197,43,24,01,047,*64
$GAGSV,3,3,10,12,00,037,,33,02,349,*62
$GBGSV,5,1,19,26,75,275,45,21,29,188,30,05,20,130,,40,27,044,38*65
$GBGSV,5,2,19,29,19,082,,33,24,316,48,07,28,056,36,24,24,255,40*6E
$GBGSV,5,3,19,50,45,211,,14,43,293,42,56,35,077,,10,37,068,44*61
$GBGSV,5,4,19,45,43,066,47,42,53,253,44,09,00,095,,35,06,137,*63
$GBGSV,5,5,19,02,04,109,,30,08,030,,60,07,112,*56
$GPGGA,100037.00,,,,,0,00,,,M,,M,,*4D
$PTNL,GGK,100037.00,010125,4742.4463246,N,01617.9730878,E,1,27,1.2,EHT669.4003,M*4C
$GPGGQ,100037.00,010125,4742.4463246,N,01617.9730878,E,1,27,1.751,626.1892,M*3D
$GPGFA,100037.00,7.502,12.398,0.789,0.395,17.016,1.512,,VVV*08
$GPLLK,100037.00,010125,,M,,M,1,27,1.4,,M*0E
$GNGMP,100037.00,,,,,DAAA,27,0.6,,,,*50
$GPGMP,100037.00,,,,,,07,,,,1.3,123*7D
$GLGMP,100037.00,,,,,,06,,,,,*7C
$GAGMP,100037.00,,,,,,05,,,,,*72
$GBGMP,100037.00,,,,,,09,,,,,*7D
$PSSN,SNC,[0,295255000,2347]*48
$GPZDA,100042.00,01,01,2025,,*64
$GPDTM,W84,,00.0000000,N,00.0000000,E,00.0000000,W84*5F
$GPRMC,100042.00,A,4742.4463324,N,01617.9730777,E,0.0,,010125,5.1,E,D*14
$GPGLL,4742.4463324,N,01617.9730777,E,100042.00,A,D*65
$GPGGA,100042.00,4742.4463324,N,01617.9730777,E,2,25,0.7,626.2024,M,43.2111,M,2.3,0123*4B
$GNGNS,100042.00,4742.4463324,N,01617.9730777,E,DAAA,25,0.7,626.2024,43.2111,,*56
$GPGNS,100042.00,,,,,,07,,,,2.3,123*7C
$GLGNS,100042.00,,,,,,04,,,,,*7C
$GAGNS,100042.00,,,,,,05,,,,,*70
$GBGNS,100042.00,,,,,,09,,,,,*7F
$GPLLQ,100042.00,010125,,M,,M,1,25,2.300,,M*10
$GPVTG,,T,,M,0.01,N,0.02,K,D*25
$GPHDT,,T*1B
$GPTHS,,V*0E
$GPROT,,V*08
$PSSN,HRP,100042.00,010125,,,,,,,00,0,,*66
$PTNL,AVR,100042.00,,Yaw,,Tilt,,,,0,,00*30
$GPGSA,A,3,13,14,15,17,19,23,24,,,,,,1.3,0.7,1.1*3D
$GPGSA,A,3,66,67,75,76,,,,,,,,,1.3,0.7,1.1*35
$GPGSA,A,3,02,03,07,08,25,,,,,,,,1.3,0.7,1.1*3E
$GPGSA,A,3,07,10,14,24,26,33,40,42,45,,,,1.3,0.7,1.1*35
$GPGST,100042.00,3.240,1.059,0.509,17.205,1.023,0.579,1.977*66
$GPGBS,100042.00,5.432,2.700,9.243,17,0.0001,2.097,0.815*56
$GPGRS,100042.00,1,0.1,-1.0,-0.5,2.1,0.3,0.8,-1.2,,,,,*44
$GPGRS,100042.00,1,-1.3,6.4,-0.1,-2.5,,,,,,,,*62
$GPGRS,100042.00,1,0.1,-0.6,0.3,1.6,0.6,,,,,,,*4F
$GPGRS,100042.00,1,-0.4,-1.2,10.2,2.1,-1.4,-2.0,3.3,-0.2,-1.5,,,*51
$GPGSV,5,1,18,15,67,245,48,19,27,135,37,12,11,223,,23,25,299,37*70
$GPGSV,5,2,18,30,13,093,21,14,41,057,44,13,59,152,49,17,37,099,41*7F
$GPGSV,5,3,18,24,40,286,38,22,62,066,,21,01,024,,10,07,335,*70
$GPGSV,5,4,18,05,06,206,27,02,02,042,,36,35,170,36,34,31,208,*7A
$GPGSV,5,5,18,49,34,195,,61,03,257,*73
$GLGSV,2,1,08,76,74,302,46,84,14,025,31,85,15,076,,65,32,179,33*66
$GLGSV,2,2,08,67,30,325,48,75,32,049,45,77,31,252,34,66,69,252,47*61
$GAGSV,3,1,10,08,73,277,46,30,18,221,33,07,22,311,44,16,26,051,*6F
$GAGSV,3,2,10,03,46,151,44,25,50,057,44,02,70,197,42,24,01,047,*64
$GAGSV,3,3,10,12,00,037,,33,02,349,*62
$GBGSV,5,1,19,26,75,275,45,21,29,188,35,05,20,130,,40,27,044,39*61
$GBGSV,5,2,19,29,19,082,,33,24,316,49,07,28,056,36,24,24,255,41*6E
$GBGSV,5,3,19,50,45,211,,14,43,293,43,10,37,068,44,56,35,077,*60
$GBGSV,5,4,19,45,43,066,47,42,53,252,43,09,00,095,,35,06,137,*65
$GBGSV,5,5,19,02,04,109,,30,08,030,,60,07,112,*56
$GPGGA,100042.00,,,,,0,00,,,M,,M,,*4F
$PTNL,GGK,100042.00,010125,4742.4463324,N,01617.9730777,E,1,25,1.3,EHT669.4135,M*4C
$GPGGQ,100042.00,010125,4742.4463324,N,01617.9730777,E,1,25,2.300,626.2024,M*3D
$GPGFA,100042.00,10.068,16.211,1.059,0.509,17.205,1.977,,VVV*36
$GPLLK,100042.00,010125,,M,,M,1,25,1.6,,M*0C
$GNGMP,100042.00,,,,,DAAA,25,0.7,,,,*51
$GPGMP,100042.00,,,,,,07,,,,2.3,123*7C
$GLGMP,100042.00,,,,,,04,,,,,*7C
$GAGMP,100042.00,,,,,,05,,,,,*70
$GBGMP,100042.00,,,,,,09,,,,,*7F
$PSSN,SNC,[0,295260000,2347]*4E
$GPZDA,100047.00,01,01,2025,,*61
$GPDTM,W84,,00.0000000,N,00.0000000,E,00.0000000,W84*5F
$GPRMC,100047.00,A,4742.4463380,N,01617.9730609,E,0.0,,010125,5.1,E,D*17
$GPGLL,4742.4463380,N,01617.9730609,E,100047.00,A,D*66
$GPGGA,100047.00,4742.4463380,N,01617.9730609,E,2,26,0.6,626.2236,M,43.2111,M,3.3,0123*4A
$GNGNS,100047.00,4742.4463380,N,01617.9730609,E,DAAA,26,0.6,626.2236,43.2111,,*56
$GPGNS,100047.00,,,,,,07,,,,3.3,123*78
$GLGNS,100047.00,,,,,,04,,,,,*79
$GAGNS,100047.00,,,,,,05,,,,,*75
$GBGNS,100047.00,,,,,,10,,,,,*72
$GPLLQ,100047.00,010125,,M,,M,1,26,2.716,,M*15
$GPVTG,,T,,M,0.00,N,0.01,K,D*27
$GPHDT,,T*1B
$GPTHS,,V*0E
$GPROT,,V*08
$PSSN,HRP,100047.00,010125,,,,,,,00,0,,*63
$PTNL,AVR,100047.00,,Yaw,,Tilt,,,,0,,00*35
$GPGSA,A,3,13,14,15,17,19,23,24,,,,,,1.2,0.6,1.0*3C
$GPGSA,A,3,66,67,75,76,,,,,,,,,1.2,0.6,1.0*34
$GPGSA,A,3,02,03,07,08,25,,,,,,,,1.2,0.6,1.0*3F
$GPGSA,A,3,07,10,14,21,24,26,33,40,42,45,,,1.2,0.6,1.0*37
$GPGST,100047.00,2.797,1.243,0.603,17.257,1.201,0.684,2.338*6B
$GPGBS,100047.00,5.408,2.711,9.280,17,0.0001,2.726,0.828*56
$GPGRS,100047.00,1,-0.3,-1.3,-0.5,2.7,0.7,0.6,-1.3,,,,,*60
$GPGRS,100047.00,1,-0.4,7.2,0.2,-2.4,,,,,,,,*49
$GPGRS,100047.00,1,-0.4,-0.6,0.3,1.9,0.9,,,,,,,*62
$GPGRS,100047.00,1,-0.0,-1.4,6.6,-1.4,-2.9,-1.9,-1.7,3.0,0.1,-1.7,,*60
$GPGSV,5,1,18,15,67,244,48,19,27,135,35,12,11,223,,23,25,299,37*73
$GPGSV,5,2,18,30,13,093,20,14,41,057,43,13,59,152,50,17,37,099,40*70
$GPGSV,5,3,18,24,40,286,39,22,62,066,,21,01,024,,10,07,335,30*72
$GPGSV,5,4,18,05,06,206,27,02,02,042,,36,35,170,36,34,31,208,*7A
$GPGSV,5,5,18,49,34,195,,61,03,257,*73
$GLGSV,2,1,08,76,74,303,47,84,14,025,30,85,15,076,,65,32,179,26*63
$GLGSV,2,2,08,67,30,325,48,75,32,049,45,77,31,252,,66,69,252,48*69
$GAGSV,3,1,10,08,73,277,46,30,18,221,32,07,22,311,44,16,26,051,*6E
$GAGSV,3,2,10,03,46,151,45,25,50,057,44,02,70,197,41,24,01,047,*66
$GAGSV,3,3,10,12,00,037,,33,02,349,*62
$GBGSV,5,1,19,26,75,275,45,21,29,188,36,05,20,130,,40,27,044,38*63
$GBGSV,5,2,19,29,19,082,,33,24,316,49,07,28,056,36,24,24,255,41*6E
$GBGSV,5,3,19,50,45,211,,14,43,293,43,10,37,068,44,56,35,077,*60
$GBGSV,5,4,19,45,43,066,47,42,53,252,42,09,00,095,,35,06,137,*64
$GBGSV,5,5,19,02,04,109,,30,08,030,,60,07,112,*56
$GPGGA,100047.00,,,,,0,00,,,M,,M,,*4A
$PTNL,GGK,100047.00,010125,4742.4463380,N,01617.9730609,E,1,26,1.2,EHT669.4347,M*4A
$GPGGQ,100047.00,010125,4742.4463380,N,01617.9730609,E,1,26,2.716,626.2236,M*3F
$GPGFA,100047.00,11.823,19.173,1.243,0.603,17.257,2.338,,VVV*38
$GPLLK,100047.00,010125,,M,,M,1,26,1.4,,M*08
$GNGMP,100047.00,,,,,DAAA,26,0.6,,,,*56
$GPGMP,100047.00,,,,,,07,,,,3.3,123*78
$GLGMP,100047.00,,,,,,04,,,,,*79
$GAGMP,100047.00,,,,,,05,,,,,*75
$GBGMP,100047.00,,,,,,10,,,,,*72
$PSSN,SNC,[0,295265000,2347]*4B
$GPZDA,100052.00,01,01,2025,,*65
$GPDTM,W84,,00.0000000,N,00.0000000,E,00.0000000,W84*5F
$GPRMC,100052.00,A,4742.4463415,N,01617.9730562,E,0.0,,010125,5.1,E,D*16
$GPGLL,4742.4463415,N,01617.9730562,E,100052.00,A,D*67
$GPGGA,100052.00,4742.4463415,N,01617.9730562,E,2,24,0.8,626.2408,M,43.2111,M,3.0,0123*4F
$GNGNS,100052.00,4742.4463415,N,01617.9730562,E,DAAA,24,0.8,626.2408,43.2111,,*50
$GPGNS,100052.00,,,,,,06,,,,3.0,123*7E
$GLGNS,100052.00,,,,,,04,,,,,*7D
$GAGNS,100052.00,,,,,,05,,,,,*71
$GBGNS,100052.00,,,,,,09,,,,,*7E
$GPLLQ,100052.00,010125,,M,,M,1,24,3.680,,M*1C
$GPVTG,,T,,M,0.01,N,0.02,K,D*25
$GPHDT,,T*1B
$GPTHS,,V*0E
$GPROT,,V*08
$PSSN,HRP,100052.00,010125,,,,,,,00,0,,*67
$PTNL,AVR,100052.00,,Yaw,,Tilt,,,,0,,00*31
$GPGSA,A,3,13,14,15,17,23,24,,,,,,,1.5,0.8,1.3*3E
$GPGSA,A,3,66,67,75,76,,,,,,,,,1.5,0.8,1.3*3E
$GPGSA,A,3,02,03,07,08,25,,,,,,,,1.5,0.8,1.3*35
$GPGSA,A,3,07,10,14,24,26,33,40,42,45,,,,1.5,0.8,1.3*3E
$GPGST,100052.00,2.435,1.652,0.587,6.637,1.642,0.613,3.236*5E
$GPGBS,100052.00,8.453,2.715,12.770,17,0.0001,1.945,0.843*60
$GPGRS,100052.00,1,-0.3,-1.7,-0.3,1.9,1.5,-0.6,,,,,,*44
$GPGRS,100052.00,1,-0.5,6.5,-0.8,-1.9,,,,,,,,*63
$GPGRS,100052.00,1,-0.8,-0.7,-0.1,1.7,0.8,,,,,,,*4B
$GPGRS,100052.00,1,0.1,-1.4,4.4,-1.6,-0.9,-1.6,3.1,0.5,-1.6,,,*46
$GPGSV,5,1,18,15,67,244,48,19,27,135,34,12,11,223,,23,25,299,36*73
$GPGSV,5,2,18,30,13,093,,14,41,057,41,13,59,152,50,17,37,099,40*70
$GPGSV,5,3,18,24,40,286,40,22,62,065,,21,01,024,,10,07,335,28*76
$GPGSV,5,4,18,05,06,206,25,02,02,042,,36,35,170,35,34,31,208,*7B
$GPGSV,5,5,18,49,34,195,,61,03,257,*73
$GLGSV,2,1,08,76,74,303,46,84,14,025,30,85,15,076,,65,32,179,33*66
$GLGSV,2,2,08,67,30,325,48,75,32,049,45,77,31,252,28,66,69,251,48*60
$GAGSV,3,1,10,08,73,277,46,30,18,221,31,07,22,311,43,16,25,051,*69
$GAGSV,3,2,10,03,46,151,45,25,50,057,43,02,70,197,40,24,01,047,*60
$GAGSV,3,3,10,12,00,037,,33,02,349,*62
$GBGSV,5,1,19,26,75,275,46,21,29,188,25,05,20,130,,40,27,044,38*62
$GBGSV,5,2,19,29,19,082,,33,24,316,49,07,28,056,36,24,24,255,41*6E
$GBGSV,5,3,19,50,45,211,,14,43,293,43,10,37,068,44,56,35,077,*60
$GBGSV,5,4,19,45,43,066,47,42,53,252,40,09,00,095,,35,06,137,*66
$GBGSV,5,5,19,02,04,109,,30,08,030,,60,07,112,*56
$GPGGA,100052.00,,,,,0,00,,,M,,M,,*4E
$PTNL,GGK,100052.00,010125,4742.4463415,N,01617.9730562,E,1,24,1.5,EHT669.4519,M*43
$GPGGQ,100052.00,010125,4742.4463415,N,01617.9730562,E,1,24,3.680,626.2408,M*38
$GPGFA,100052.00,15.707,26.533,1.652,0.587,6.637,3.236,,VVV*0A
$GPLLK,100052.00,010125,,M,,M,1,24,1.8,,M*02
$GNGMP,100052.00,,,,,DAAA,24,0.8,,,,*5E
$GPGMP,100052.00,,,,,,06,,,,3.0,123*7E
$GLGMP,100052.00,,,,,,04,,,,,*7D
$GAGMP,100052.00,,,,,,05,,,,,*71
$GBGMP,100052.00,,,,,,09,,,,,*7E
$PSSN,SNC,[0,295270000,2347]*4F
$GPZDA,100057.00,01,01,2025,,*60
$GPDTM,W84,,00.0000000,N,00.0000000,E,00.0000000,W84*5F
$GPRMC,100057.00,A,4742.4463463,N,01617.9730494,E,0.0,,010125,5.1,E,D*1A
$GPGLL,4742.4463463,N,01617.9730494,E,100057.00,A,D*6B
$GPGGA,100057.00,4742.4463463,N,01617.9730494,E,2,24,0.7,626.2508,M,43.2111,M,1.4,0123*4B
$GNGNS,100057.00,4742.4463463,N,01617.9730494,E,DAAA,24,0.7,626.2508,43.2111,,*52
$GPGNS,100057.00,,,,,,05,,,,1.4,123*7E
$GLGNS,100057.00,,,,,,04,,,,,*78
$GAGNS,100057.00,,,,,,05,,,,,*74
$GBGNS,100057.00,,,,,,10,,,,,*73
$GPLLQ,100057.00,010125,,M,,M,1,24,3.282,,M*1F
$GPVTG,,T,,M,0.01,N,0.01,K,D*26
$GPHDT,,T*1B
$GPTHS,,V*0E
$GPROT,,V*08
$PSSN,HRP,100057.00,010125,,,,,,,00,0,,*62
$PTNL,AVR,100057.00,,Yaw,,Tilt,,,,0,,00*34
$GPGSA,A,3,13,14,15,17,24,,,,,,,,1.3,0.7,1.1*34
$GPGSA,A,3,66,67,75,76,,,,,,,,,1.3,0.7,1.1*35
$GPGSA,A,3,02,03,07,08,25,,,,,,,,1.3,0.7,1.1*3E
$GPGSA,A,3,07,10,14,21,24,26,33,40,42,45,,,1.3,0.7,1.1*36
$GPGST,100057.00,2.553,1.243,0.507,10.026,1.227,0.544,2.995*62
$GPGBS,100057.00,8.352,3.862,14.578,17,0.0001,1.537,0.802*6D
$GPGRS,100057.00,1,0.1,-0.7,-0.1,1.5,-0.7,,,,,,,*4A
$GPGRS,100057.00,1,-2.8,5.8,-0.4,-2.1,,,,,,,,*60
$GPGRS,100057.00,1,-0.9,-0.4,-0.5,1.4,0.9,,,,,,,*4A
$GPGRS,100057.00,1,0.8,-1.3,6.0,-1.0,0.2,-0.7,-1.7,3.0,1.7,-1.6,,*6C
$GPGSV,5,1,18,15,67,244,48,19,27,135,34,12,11,223,,23,25,299,35*70
$GPGSV,5,2,18,30,13,093,,14,41,057,39,13,59,152,49,17,37,098,40*76
$GPGSV,5,3,18,24,40,286,40,22,62,065,,21,01,024,,10,07,335,25*7B
$GPGSV,5,4,18,05,05,206,25,02,02,042,,36,35,170,36,34,31,208,*7B
$GPGSV,5,5,18,49,34,195,,61,03,257,*73
$GLGSV,2,1,08,76,74,303,46,84,14,025,,85,15,076,,65,32,179,32*64
$GLGSV,2,2,08,67,30,325,47,75,32,049,44,77,31,252,23,66,69,251,47*6A
$GAGSV,3,1,10,08,73,277,45,30,18,221,30,07,22,311,42,16,25,051,*6A
$GAGSV,3,2,10,03,46,151,45,25,50,057,43,02,70,197,39,24,01,047,*6E
$GAGSV,3,3,10,12,00,037,,33,02,349,*62
$GBGSV,5,1,19,26,75,275,45,21,29,188,37,05,20,130,,40,27,044,38*62
$GBGSV,5,2,19,29,19,082,,33,24,316,49,07,28,056,37,24,24,255,41*6F
$GBGSV,5,3,19,50,45,211,,14,43,293,43,10,37,068,44,56,35,077,*60
$GBGSV,5,4,19,45,43,066,47,42,53,252,38,09,00,095,,35,06,137,*69
$GBGSV,5,5,19,02,04,109,,30,08,030,,60,07,112,*56
$GPGGA,100057.00,,,,,0,00,,,M,,M,,*4B
$PTNL,GGK,100057.00,010125,4742.4463463,N,01617.9730494,E,1,24,1.3,EHT669.4619,M*4A
$GPGGQ,100057.00,010125,4742.4463463,N,01617.9730494,E,1,24,3.282,626.2508,M*33
$GPGFA,100057.00,11.818,24.558,1.243,0.507,10.026,2.995,,VVV*3B
$GPLLK,100057.00,010125,,M,,M,1,24,1.6,,M*09
$GNGMP,100057.00,,,,,DAAA,24,0.7,,,,*54
$GPGMP,100057.00,,,,,,05,,,,1.4,123*7E
$GLGMP,100057.00,,,,,,04,,,,,*78
$GAGMP,100057.00,,,,,,05,,,,,*74
$GBGMP,100057.00,,,,,,10,,,,,*73
$PSSN,SNC,[0,295275000,2347]*4A
$GPZDA,100102.00,01,01,2025,,*61
$GPDTM,W84,,00.0000000,N,00.0000000,E,00.0000000,W84*5F
$GPRMC,100102.00,A,4742.4463465,N,01617.9730380,E,0.0,,010125,5.1,E,D*1F
$GPGLL,4742.4463465,N,01617.9730380,E,100102.00,A,D*6E
$GPGGA,100102.00,4742.4463465,N,01617.9730380,E,2,26,0.6,626.2540,M,43.2111,M,2.3,0123*45
$GNGNS,100102.00,4742.4463465,N,01617.9730380,E,DAAA,26,0.6,626.2540,43.2111,,*58
$GPGNS,100102.00,,,,,,07,,,,2.3,123*79
$GLGNS,100102.00,,,,,,04,,,,,*79
$GAGNS,100102.00,,,,,,05,,,,,*75
$GBGNS,100102.00,,,,,,10,,,,,*72
$GPLLQ,100102.00,010125,,M,,M,1,26,1.871,,M*18
$GPVTG,,T,,M,0.01,N,0.01,K,D*26
$GPHDT,,T*1B
$GPTHS,,V*0E
$GPROT,,V*08
$PSSN,HRP,100102.00,010125,,,,,,,00,0,,*63
$PTNL,AVR,100102.00,,Yaw,,Tilt,,,,0,,00*35
$GPGSA,A,3,13,14,15,17,19,23,24,,,,,,1.2,0.6,1.0*3C
$GPGSA,A,3,66,67,75,76,,,,,,,,,1.2,0.6,1.0*34
$GPGSA,A,3,02,03,07,08,25,,,,,,,,1.2,0.6,1.0*3F
$GPGSA,A,3,07,10,14,21,24,26,33,40,42,45,,,1.2,0.6,1.0*37
$GPGST,100102.00,2.698,0.858,0.389,15.756,0.832,0.441,1.617*6E
$GPGBS,100102.00,5.344,2.678,9.216,24,0.0001,-1.184,0.765*7E
$GPGRS,100102.00,1,0.1,-0.3,-0.3,1.2,-0.4,1.0,-1.2,,,,,*66
$GPGRS,100102.00,1,-3.6,5.2,-0.5,-1.4,,,,,,,,*63
$GPGRS,100102.00,1,-0.8,-0.1,-0.7,0.9,1.0,,,,,,,*49
$GPGRS,100102.00,1,1.7,-1.3,8.1,-0.6,1.3,-1.3,-1.8,2.5,1.0,-1.8,,*6C
$GPGSV,5,1,18,15,67,244,48,19,27,135,35,12,11,223,,23,25,298,36*73
$GPGSV,5,2,18,30,13,093,,14,41,057,37,13,59,152,49,17,37,098,39*76
$GPGSV,5,3,18,24,40,286,40,22,62,065,,21,01,024,,10,07,335,*7C
$GPGSV,5,4,18,05,05,206,25,02,02,042,,36,35,170,36,34,31,208,*7B
$GPGSV,5,5,18,49,34,195,,61,03,257,*73
$GLGSV,2,1,08,76,74,303,47,84,14,024,,85,15,076,,65,32,179,31*67
$GLGSV,2,2,08,67,30,325,47,75,32,049,43,77,31,252,23,66,69,251,47*6D
$GAGSV,3,1,10,08,73,277,45,30,19,221,30,07,22,311,41,16,25,051,*68
$GAGSV,3,2,10,03,46,151,46,25,50,057,43,02,70,197,39,24,01,047,*6D
$GAGSV,3,3,10,12,00,037,,33,02,349,*62
$GBGSV,5,1,19,26,75,276,45,21,29,188,37,05,20,130,,40,27,044,38*61
$GBGSV,5,2,19,29,19,082,,33,24,316,49,07,28,056,36,24,24,255,41*6E
$GBGSV,5,3,19,50,45,211,,14,43,293,44,10,37,068,44,56,35,077,*67
$GBGSV,5,4,19,45,43,066,46,42,53,252,35,09,00,095,,35,06,137,*65
$GBGSV,5,5,19,02,04,109,,30,08,030,,60,07,112,*56
$GPGGA,100102.00,,,,,0,00,,,M,,M,,*4A
$PTNL,GGK,100102.00,010125,4742.4463465,N,01617.9730380,E,1,26,1.2,EHT669.4651,M*40
$GPGGQ,100102.00,010125,4742.4463465,N,01617.9730380,E,1,26,1.871,626.2540,M*3C
$GPGFA,100102.00,8.155,13.258,0.858,0.389,15.756,1.617,,VVV*03
$GPLLK,100102.00,010125,,M,,M,1,26,1.4,,M*08
$GNGMP,100102.00,,,,,DAAA,26,0.6,,,,*56
$GPGMP,100102.00,,,,,,07,,,,2.3,123*79
$GLGMP,100102.00,,,,,,04,,,,,*79
$GAGMP,100102.00,,,,,,05,,,,,*75
$GBGMP,100102.00,,,,,,10,,,,,*72
$PSSN,SNC,[0,295280000,2347]*40
$GPZDA,100107.00,01,01,2025,,*64
$GPDTM,W84,,00.0000000,N,00.0000000,E,00.0000000,W84*5F
$GPRMC,100107.00,A,4742.4463431,N,01617.9730243,E,0.0,,010125,5.1,E,D*15
$GPGLL,4742.4463431,N,01617.9730243,E,100107.00,A,D*64
$GPGGA,100107.00,4742.4463431,N,01617.9730243,E,2,25,0.6,626.2655,M,43.2111,M,3.3,0123*4A
$GNGNS,100107.00,4742.4463431,N,01617.9730243,E,DAAA,25,0.6,626.2655,43.2111,,*56
$GPGNS,100107.00,,,,,,07,,,,3.3,123*7D
$GLGNS,100107.00,,,,,,04,,,,,*7C
$GAGNS,100107.00,,,,,,05,,,,,*70
$GBGNS,100107.00,,,,,,09,,,,,*7F
$GPLLQ,100107.00,010125,,M,,M,1,25,2.220,,M*13
$GPVTG,,T,,M,0.01,N,0.01,K,D*26
$GPHDT,,T*1B
$GPTHS,,V*0E
$GPROT,,V*08
$PSSN,HRP,100107.00,010125,,,,,,,00,0,,*66
$PTNL,AVR,100107.00,,Yaw,,Tilt,,,,0,,00*30
$GPGSA,A,3,13,14,15,17,19,23,24,,,,,,1.2,0.6,1.1*3D
$GPGSA,A,3,66,67,75,76,,,,,,,,,1.2,0.6,1.1*35
$GPGSA,A,3,02,03,07,08,25,,,,,,,,1.2,0.6,1.1*3E
$GPGSA,A,3,07,10,14,21,24,26,33,40,45,,,,1.2,0.6,1.1*30
$GPGST,100107.00,3.245,1.016,0.491,17.412,0.980,0.558,1.912*69
$GPGBS,100107.00,5.424,2.728,9.340,24,0.0001,-1.371,0.778*78
$GPGRS,100107.00,1,-0.1,1.2,-0.7,1.0,0.5,0.8,-1.4,,,,,*46
$GPGRS,100107.00,1,-3.8,5.9,-0.4,-2.0,,,,,,,,*65
$GPGRS,100107.00,1,-0.6,-0.6,-1.4,0.7,0.7,,,,,,,*4F
$GPGRS,100107.00,1,0.8,-1.7,10.4,-0.5,0.6,-1.4,-1.7,2.6,-2.0,,,*77
$GPGSV,5,1,18,15,67,244,49,19,27,135,36,12,11,223,,23,25,298,38*7F
$GPGSV,5,2,18,30,13,093,,14,41,057,38,13,59,152,49,17,37,098,38*78
$GPGSV,5,3,18,24,40,286,40,22,62,065,,21,01,024,,10,07,335,*7C
$GPGSV,5,4,18,05,05,206,25,02,02,042,,36,35,170,36,34,31,208,*7B
$GPGSV,5,5,18,49,34,195,,61,03,257,*73
$GLGSV,2,1,08,76,74,303,47,84,14,024,20,85,15,076,,65,32,179,26*63
$GLGSV,2,2,08,67,30,325,47,75,32,049,41,77,31,252,26,66,69,251,46*6B
$GAGSV,3,1,10,08,73,277,45,30,19,221,31,07,22,311,40,16,25,051,*68
$GAGSV,3,2,10,03,46,151,46,25,50,057,44,02,70,197,40,24,01,047,*64
$GAGSV,3,3,10,12,00,037,,33,02,349,*62
$GBGSV,5,1,19,26,75,276,45,21,29,188,26,05,20,130,,40,27,044,38*61
$GBGSV,5,2,19,29,19,082,,33,24,316,48,07,28,056,37,24,24,255,40*6F
$GBGSV,5,3,19,50,45,211,,14,43,293,44,10,37,068,44,56,35,077,*67
$GBGSV,5,4,19,45,43,066,46,42,53,252,31,09,00,095,,35,06,137,*61
$GBGSV,5,5,19,02,04,109,,30,08,030,,60,07,112,*56
$GPGGA,100107.00,,,,,0,00,,,M,,M,,*4F
$PTNL,GGK,100107.00,010125,4742.4463431,N,01617.9730243,E,1,25,1.2,EHT669.4766,M*4C
$GPGGQ,100107.00,010125,4742.4463431,N,01617.9730243,E,1,25,2.220,626.2655,M*3F
$GPGFA,100107.00,9.657,15.681,1.016,0.491,17.412,1.912,,VVV*02
$GPLLK,100107.00,010125,,M,,M,1,25,1.4,,M*0E
$GNGMP,100107.00,,,,,DAAA,25,0.6,,,,*50
$GPGMP,100107.00,,,,,,07,,,,3.3,123*7D
$GLGMP,100107.00,,,,,,04,,,,,*7C
$GAGMP,100107.00,,,,,,05,,,,,*70
$GBGMP,100107.00,,,,,,09,,,,,*7F
$PSSN,SNC,[0,295285000,2347]*45
$GPZDA,100112.00,01,01,2025,,*60
$GPDTM,W84,,00.0000000,N,00.0000000,E,00.0000000,W84*5F
$GPRMC,100112.00,A,4742.4463393,N,01617.9730025,E,0.0,,010125,5.1,E,D*1C
$GPGLL,4742.4463393,N,01617.9730025,E,100112.00,A,D*6D
$GPGGA,100112.00,4742.4463393,N,01617.9730025,E,2,25,0.6,626.2760,M,43.2111,M,3.1,0123*46
$GNGNS,100112.00,4742.4463393,N,01617.9730025,E,DAAA,25,0.6,626.2760,43.2111,,*58
$GPGNS,100112.00,,,,,,07,,,,3.1,123*7B
$GLGNS,100112.00,,,,,,04,,,,,*78
$GAGNS,100112.00,,,,,,05,,,,,*74
$GBGNS,100112.00,,,,,,09,,,,,*7B
$GPLLQ,100112.00,010125,,M,,M,1,25,2.157,,M*14
$GPVTG,,T,,M,0.00,N,0.01,K,D*27
$GPHDT,,T*1B
$GPTHS,,V*0E
$GPROT,,V*08
$PSSN,HRP,100112.00,010125,,,,,,,00,0,,*62
$PTNL,AVR,100112.00,,Yaw,,Tilt,,,,0,,00*34
$GPGSA,A,3,13,14,15,17,19,23,24,,,,,,1.2,0.6,1.1*3D
$GPGSA,A,3,66,67,75,76,,,,,,,,,1.2,0.6,1.1*35
$GPGSA,A,3,02,03,07,08,25,,,,,,,,1.2,0.6,1.1*3E
$GPGSA,A,3,07,10,14,21,24,26,33,40,45,,,,1.2,0.6,1.1*30
$GPGST,100112.00,3.264,0.974,0.478,17.184,0.941,0.540,1.864*6B
$GPGBS,100112.00,5.329,2.690,9.548,24,0.0001,-1.504,0.794*7C
$GPGRS,100112.00,1,-0.2,1.3,-0.4,0.3,0.8,0.8,-1.5,,,,,*4D
$GPGRS,100112.00,1,-4.5,6.4,-1.5,-1.7,,,,,,,,*61
$GPGRS,100112.00,1,-1.2,-1.0,-1.0,0.6,0.5,,,,,,,*4E
$GPGRS,100112.00,1,1.3,-2.3,9.6,-0.1,-1.8,-0.9,-1.6,2.4,-2.0,,,*6D
$GPGSV,5,1,18,15,67,244,49,19,27,135,38,12,11,223,,23,25,298,38*71
$GPGSV,5,2,18,30,13,093,,14,41,057,39,13,59,152,48,17,37,098,37*77
$GPGSV,5,3,18,24,40,286,41,22,62,065,,21,01,024,,10,07,335,27*78
$GPGSV,5,4,18,05,05,206,24,02,02,042,,36,35,170,36,34,31,208,*7A
$GPGSV,5,5,18,49,34,195,,61,03,257,*73
$GLGSV,2,1,08,76,74,303,46,84,14,024,,85,15,076,30,65,32,179,31*65
$GLGSV,2,2,08,67,30,325,47,75,32,049,39,77,31,252,28,66,69,251,45*69
$GAGSV,3,1,10,08,73,276,44,30,19,221,32,07,23,311,39,16,25,051,*64
$GAGSV,3,2,10,03,46,151,46,25,50,057,44,02,70,197,40,24,01,047,*64
$GAGSV,3,3,10,12,00,037,,33,02,348,*63
$GBGSV,5,1,19,26,76,276,45,21,29,188,36,05,20,130,,40,27,044,38*63
$GBGSV,5,2,19,29,19,082,,33,24,316,48,07,28,056,37,24,24,255,39*61
$GBGSV,5,3,19,50,45,211,,14,43,293,43,10,37,068,44,56,35,077,*60
$GBGSV,5,4,19,45,43,066,47,42,53,252,31,09,00,095,,35,06,137,*60
$GBGSV,5,5,19,02,04,109,,30,08,030,,60,07,112,*56
$GPGGA,100112.00,,,,,0,00,,,M,,M,,*4B
$PTNL,GGK,100112.00,010125,4742.4463393,N,01617.9730025,E,1,25,1.2,EHT669.4870,M*4D
$GPGGQ,100112.00,010125,4742.4463393,N,01617.9730025,E,1,25,2.157,626.2760,M*32
$GPGFA,100112.00,9.257,15.287,0.974,0.478,17.184,1.864,,VVV*01
$GPLLK,100112.00,010125,,M,,M,1,25,1.4,,M*0A
$GNGMP,100112.00,,,,,DAAA,25,0.6,,,,*54
$GPGMP,100112.00,,,,,,07,,,,3.1,123*7B
$GLGMP,100112.00,,,,,,04,,,,,*78
$GAGMP,100112.00,,,,,,05,,,,,*74
$GBGMP,100112.00,,,,,,09,,,,,*7B
$PSSN,SNC,[0,295290000,2347]*41
$GPZDA,100117.00,01,01,2025,,*65
$GPDTM,W84,,00.0000000,N,00.0000000,E,00.0000000,W84*5F
$GPRMC,100117.00,A,4742.4463354,N,01617.9729840,E,0.0,,010125,5.1,E,D*11
$GPGLL,4742.4463354,N,01617.9729840,E,100117.00,A,D*60
$GPGGA,100117.00,4742.4463354,N,01617.9729840,E,2,26,0.6,626.2884,M,43.2111,M,1.3,0123*4D
$GNGNS,100117.00,4742.4463354,N,01617.9729840,E,DAAA,26,0.6,626.2884,43.2111,,*53
$GPGNS,100117.00,,,,,,07,,,,1.3,123*7E
$GLGNS,100117.00,,,,,,05,,,,,*7C
$GAGNS,100117.00,,,,,,05,,,,,*71
$GBGNS,100117.00,,,,,,09,,,,,*7E
$GPLLQ,100117.00,010125,,M,,M,1,26,2.299,,M*13
$GPVTG,,T,,M,0.01,N,0.02,K,D*25
$GPHDT,,T*1B
$GPTHS,,V*0E
$GPROT,,V*08
$PSSN,HRP,100117.00,010125,,,,,,,00,0,,*67
$PTNL,AVR,100117.00,,Yaw,,Tilt,,,,0,,00*31
$GPGSA,A,3,13,14,15,17,19,23,24,,,,,,1.2,0.6,1.0*3C
$GPGSA,A,3,65,66,67,75,76,,,,,,,,1.2,0.6,1.0*37
$GPGSA,A,3,02,03,07,08,25,,,,,,,,1.2,0.6,1.0*3F
$GPGSA,A,3,07,10,14,21,24,26,33,40,45,,,,1.2,0.6,1.0*31
$GPGST,100117.00,3.165,1.029,0.512,17.201,0.995,0.576,1.991*68
$GPGBS,100117.00,5.102,2.612,8.878,17,0.0001,2.249,0.808*5D
$GPGRS,100117.00,1,-0.5,0.6,-0.8,2.2,0.4,-0.5,-0.7,,,,,*6B
$GPGRS,100117.00,1,-8.0,-4.5,6.3,-2.1,-1.9,,,,,,,*61
$GPGRS,100117.00,1,-1.6,-1.3,-1.2,0.3,0.1,,,,,,,*4F
$GPGRS,100117.00,1,2.2,-2.1,4.3,0.6,-2.5,-1.1,-1.6,1.8,-1.9,,,*48
$GPGSV,5,1,18,15,67,244,49,19,27,135,39,12,11,223,,23,25,298,36*7E
$GPGSV,5,2,18,30,13,093,22,14,41,057,40,13,59,152,47,17,37,098,37*76
$GPGSV,5,3,18,24,40,286,42,22,62,065,,21,01,024,,10,07,335,27*7B
$GPGSV,5,4,18,05,05,206,25,02,02,042,,36,35,170,36,34,31,208,*7B
$GPGSV,5,5,18,49,34,195,,61,03,257,*73
$GLGSV,2,1,08,76,74,304,45,84,14,024,,85,15,076,30,65,32,179,35*65
$GLGSV,2,2,08,67,30,325,47,75,32,049,37,77,31,252,32,66,69,251,45*6C
$GAGSV,3,1,11,08,73,276,43,18,22,155,,30,19,221,33,07,23,311,39*6F
$GAGSV,3,2,11,16,25,051,,03,46,151,46,25,50,057,44,02,70,197,40*65
$GAGSV,3,3,11,12,00,037,,24,01,047,,33,02,348,*56
$GBGSV,5,1,19,26,76,276,45,21,29,188,35,05,20,130,,40,27,044,38*60
$GBGSV,5,2,19,29,19,082,,33,24,316,47,07,28,056,37,24,24,255,38*6F
$GBGSV,5,3,19,50,45,211,,14,43,293,41,10,37,068,44,56,35,077,*62
$GBGSV,5,4,19,45,43,066,47,42,53,252,34,09,00,095,,35,06,137,*65
$GBGSV,5,5,19,02,04,109,,30,08,030,,60,07,112,*56
$GPGGA,100117.00,,,,,0,00,,,M,,M,,*4E
$PTNL,GGK,100117.00,010125,4742.4463354,N,01617.9729840,E,1,26,1.2,EHT669.4995,M*49
$GPGGQ,100117.00,010125,4742.4463354,N,01617.9729840,E,1,26,2.299,626.2884,M*38
$GPGFA,100117.00,9.787,16.327,1.029,0.512,17.201,1.991,,VVV*0C
$GPLLK,100117.00,010125,,M,,M,1,26,1.4,,M*0C
$GNGMP,100117.00,,,,,DAAA,26,0.6,,,,*52
$GPGMP,100117.00,,,,,,07,,,,1.3,123*7E
$GLGMP,100117.00,,,,,,05,,,,,*7C
$GAGMP,100117.00,,,,,,05,,,,,*71
$GBGMP,100117.00,,,,,,09,,,,,*7E
$PSSN,SNC,[0,295295000,2347]*44
$GPZDA,100122.00,01,01,2025,,*63
$GPDTM,W84,,00.0000000,N,00.0000000,E,00.0000000,W84*5F
$GPRMC,100122.00,A,4742.4463314,N,01617.9729583,E,0.0,,010125,5.1,E,D*11
$GPGLL,4742.4463314,N,01617.9729583,E,100122.00,A,D*60
$GPGGA,100122.00,4742.4463314,N,01617.9729583,E,2,26,0.6,626.3044,M,43.2111,M,2.3,0123*4B
$GNGNS,100122.00,4742.4463314,N,01617.9729583,E,DAAA,26,0.6,626.3044,43.2111,,*56
$GPGNS,100122.00,,,,,,07,,,,2.3,123*7B
$GLGNS,100122.00,,,,,,05,,,,,*7A
$GAGNS,100122.00,,,,,,05,,,,,*77
$GBGNS,100122.00,,,,,,09,,,,,*78
$GPLLQ,100122.00,010125,,M,,M,1,26,2.501,,M*13
$GPVTG,,T,,M,0.00,N,0.00,K,D*26
$GPHDT,,T*1B
$GPTHS,,V*0E
$GPROT,,V*08
$PSSN,HRP,100122.00,010125,,,,,,,00,0,,*61
$PTNL,AVR,100122.00,,Yaw,,Tilt,,,,0,,00*37
$GPGSA,A,3,13,14,15,17,19,23,24,,,,,,1.2,0.6,1.1*3D
$GPGSA,A,3,65,66,67,75,76,,,,,,,,1.2,0.6,1.1*36
$GPGSA,A,3,02,03,07,08,25,,,,,,,,1.2,0.6,1.1*3E
$GPGSA,A,3,07,10,14,24,26,33,40,42,45,,,,1.2,0.6,1.1*35
$GPGST,100122.00,2.311,1.135,0.555,17.532,1.095,0.630,2.159*60
$GPGBS,100122.00,5.237,2.663,9.089,17,0.0001,2.578,0.823*53
$GPGRS,100122.00,1,-0.7,0.7,-1.0,2.6,-0.0,-1.4,-0.1,,,,,*4C
$GPGRS,100122.00,1,-2.6,-3.3,5.9,-3.0,-1.9,,,,,,,*63
$GPGRS,100122.00,1,-0.9,-0.9,-0.8,0.3,0.2,,,,,,,*44
$GPGRS,100122.00,1,2.7,-2.1,0.4,-0.6,-0.4,-1.3,1.7,-2.2,-1.3,,,*66
$GPGSV,5,1,18,15,67,244,49,19,27,135,40,12,11,223,,23,25,298,37*71
$GPGSV,5,2,18,30,13,093,22,14,40,057,41,13,59,152,47,17,37,098,35*74
$GPGSV,5,3,18,24,40,286,42,22,62,065,,21,01,023,,10,07,335,29*72
$GPGSV,5,4,18,05,05,206,21,02,02,042,,36,35,170,36,34,31,208,*7F
$GPGSV,5,5,18,49,34,195,,61,03,257,*73
$GLGSV,2,1,08,76,74,304,45,84,14,024,,85,15,076,24,65,32,179,38*6D
$GLGSV,2,2,08,67,30,325,47,75,32,049,38,77,31,252,33,66,69,251,45*62
$GAGSV,3,1,11,08,73,276,42,18,22,155,,30,19,221,34,07,23,311,39*69
$GAGSV,3,2,11,16,25,051,,03,46,151,46,25,50,057,44,02,70,197,40*65
$GAGSV,3,3,11,12,00,037,,24,01,047,,33,02,348,*56
$GBGSV,5,1,19,26,76,276,46,21,29,188,33,05,20,130,,40,27,044,37*6A
$GBGSV,5,2,19,29,19,082,,33,25,316,46,07,28,056,37,24,24,255,39*6E
$GBGSV,5,3,19,50,45,211,,14,43,293,40,10,37,068,44,56,35,077,*63
$GBGSV,5,4,19,45,43,066,47,42,53,252,36,09,00,095,,35,06,137,*67
$GBGSV,5,5,19,02,04,109,,30,08,030,,60,07,112,*56
$GPGGA,100122.00,,,,,0,00,,,M,,M,,*48
$PTNL,GGK,100122.00,010125,4742.4463314,N,01617.9729583,E,1,26,1.2,EHT669.5154,M*4D
$GPGGQ,100122.00,010125,4742.4463314,N,01617.9729583,E,1,26,2.501,626.3044,M*3B
$GPGFA,100122.00,10.791,17.703,1.135,0.555,17.532,2.159,,VVV*31
$GPLLK,100122.00,010125,,M,,M,1,26,1.4,,M*0A
$GNGMP,100122.00,,,,,DAAA,26,0.6,,,,*54
$GPGMP,100122.00,,,,,,07,,,,2.3,123*7B
$GLGMP,100122.00,,,,,,05,,,,,*7A
$GAGMP,100122.00,,,,,,05,,,,,*77
$GBGMP,100122.00,,,,,,09,,,,,*78
$PSSN,SNC,[0,295300000,2347]*49
$GPZDA,100127.00,01,01,2025,,*66
$GPDTM,W84,,00.0000000,N,00.0000000,E,00.0000000,W84*5F
$GPRMC,100127.00,A,4742.4463309,N,01617.9729485,E,0.0,,010125,5.1,E,D*1F
$GPGLL,4742.4463309,N,01617.9729485,E,100127.00,A,D*6E
$GPGGA,100127.00,4742.4463309,N,01617.9729485,E,2,25,0.6,626.3092,M,43.2111,M,3.3,0123*4C
$GNGNS,100127.00,4742.4463309,N,01617.9729485,E,DAAA,25,0.6,626.3092,43.2111,,*50
$GPGNS,100127.00,,,,,,06,,,,3.3,123*7E
$GLGNS,100127.00,,,,,,05,,,,,*7F
$GAGNS,100127.00,,,,,,05,,,,,*72
$GBGNS,100127.00,,,,,,09,,,,,*7D
$GPLLQ,100127.00,010125,,M,,M,1,25,1.517,,M*11
$GPVTG,,T,,M,0.01,N,0.02,K,D*25
$GPHDT,,T*1B
$GPTHS,,V*0E
$GPROT,,V*08
$PSSN,HRP,100127.00,010125,,,,,,,00,0,,*64
$PTNL,AVR,100127.00,,Yaw,,Tilt,,,,0,,00*32
$GPGSA,A,3,13,14,15,19,23,24,,,,,,,1.2,0.6,1.1*3B
$GPGSA,A,3,65,66,67,75,76,,,,,,,,1.2,0.6,1.1*36
$GPGSA,A,3,02,03,07,08,25,,,,,,,,1.2,0.6,1.1*3E
$GPGSA,A,3,07,10,14,24,26,33,40,42,45,,,,1.2,0.6,1.1*35
$GPGST,100127.00,2.103,0.679,0.374,20.903,0.648,0.425,1.305*6C
$GPGBS,100127.00,5.594,3.763,10.068,67,0.0001,6.287,6.158*68
$GPGRS,100127.00,1,0.1,-0.2,-0.1,0.8,-0.6,-0.4,,,,,,*43
$GPGRS,100127.00,1,1.3,-1.9,6.3,-1.1,0.1,,,,,,,*6B
$GPGRS,100127.00,1,-0.1,0.1,0.5,1.0,0.6,,,,,,,*4A
$GPGRS,100127.00,1,3.7,-1.6,1.4,0.8,0.7,-1.0,2.7,-1.5,-0.9,,,*65
$GPGSV,5,1,18,15,67,244,50,19,27,135,41,12,11,223,,23,25,298,38*77
$GPGSV,5,2,18,30,13,093,21,14,40,057,42,13,59,152,47,17,37,098,34*75
$GPGSV,5,3,18,24,40,286,43,22,62,065,,21,01,023,,10,07,335,30*7B
$GPGSV,5,4,18,05,05,206,25,02,02,042,,36,35,170,36,34,31,208,*7B
$GPGSV,5,5,18,49,34,195,,61,03,257,*73
$GLGSV,2,1,08,76,74,304,46,84,14,024,28,85,15,076,,65,32,179,39*63
$GLGSV,2,2,08,67,30,325,47,75,32,049,40,77,31,252,30,66,69,251,44*6F
$GAGSV,3,1,11,08,73,276,42,18,22,155,,30,19,221,35,07,23,311,39*68
$GAGSV,3,2,11,16,25,051,,03,46,151,46,25,50,057,44,02,70,197,40*65
$GAGSV,3,3,11,12,00,037,,24,01,047,,33,02,348,*56
$GBGSV,5,1,19,26,76,276,46,21,29,188,31,05,20,130,,40,27,044,37*68
$GBGSV,5,2,19,29,19,082,,33,25,316,45,07,28,056,38,24,24,255,39*62
$GBGSV,5,3,19,50,45,211,,14,43,293,40,10,37,067,44,56,35,077,*6C
$GBGSV,5,4,19,45,43,066,48,42,53,252,38,09,00,095,,35,06,137,*66
$GBGSV,5,5,19,02,04,109,,30,08,030,,60,07,112,*56
$GPGGA,100127.00,,,,,0,00,,,M,,M,,*4D
$PTNL,GGK,100127.00,010125,4742.4463309,N,01617.9729485,E,1,25,1.2,EHT669.5202,M*40
$GPGGQ,100127.00,010125,4742.4463309,N,01617.9729485,E,1,25,1.517,626.3092,M*39
$GPGFA,100127.00,6.452,10.697,0.679,0.374,20.903,1.305,,VVV*0D
$GPLLK,100127.00,010125,,M,,M,1,25,1.4,,M*0C
$GNGMP,100127.00,,,,,DAAA,25,0.6,,,,*52
$GPGMP,100127.00,,,,,,06,,,,3.3,123*7E
$GLGMP,100127.00,,,,,,05,,,,,*7F
$GAGMP,100127.00,,,,,,05,,,,,*72
$GBGMP,100127.00,,,,,,09,,,,,*7D
$PSSN,SNC,[0,295305000,2347]*4C
$GPZDA,100132.00,01,01,2025,,*62
