$GPZDA,221442.00,01,01,2025,,*60
$GPDTM,W84,,00.0000000,N,00.0000000,E,00.0000000,W84*5F
$GPRMC,221442.00,A,4742.4458528,N,01617.9731834,E,0.0,,010125,5.1,E,D*1B
$GPGLL,4742.4458528,N,01617.9731834,E,221442.00,A,D*6A
$GPGGA,221442.00,4742.4458528,N,01617.9731834,E,2,17,0.9,625.6739,M,43.2111,M,2.8,0123*4C
$GNGNS,221442.00,4742.4458528,N,01617.9731834,E,DAAA,17,0.9,625.6739,43.2111,,*5A
$GPGNS,221442.00,,,,,,05,,,,2.8,123*71
$GLGNS,221442.00,,,,,,03,,,,,*7F
$GAGNS,221442.00,,,,,,04,,,,,*75
$GBGNS,221442.00,,,,,,05,,,,,*77
$GPLLQ,221442.00,010125,,M,,M,1,17,3.985,,M*13
$GPVTG,,T,,M,0.00,N,0.00,K,D*26
$GPHDT,,T*1B
$GPTHS,,V*0E
$GPROT,,V*08
$PSSN,HRP,221442.00,010125,,,,,,,00,0,,*62
$PTNL,AVR,221442.00,,Yaw,,Tilt,,,,0,,00*34
$GPGSA,A,3,02,08,14,21,27,,,,,,,,1.6,0.9,1.3*37
$GPGSA,A,3,68,69,84,,,,,,,,,,1.6,0.9,1.3*33
$GPGSA,A,3,07,08,26,33,,,,,,,,,1.6,0.9,1.3*35
$GPGSA,A,3,27,28,30,33,41,,,,,,,,1.6,0.9,1.3*37
$GPGST,221442.00,2.965,3.290,0.753,53.243,2.059,2.674,2.119*64
$GPGBS,221442.00,9.080,11.467,9.032,08,0.0001,1.218,0.619*6D
$GPGRS,221442.00,1,-0.8,1.2,-1.8,0.9,-0.9,,,,,,,*4C
$GPGRS,221442.00,1,1.9,-3.3,-3.6,,,,,,,,,*6E
$GPGRS,221442.00,1,-2.8,-2.9,-0.1,2.8,,,,,,,,*6A
$GPGRS,221442.00,1,-1.4,1.2,-4.8,-1.7,-1.0,,,,,,,*6E
$GPGSV,4,1,15,08,68,209,45,14,14,319,37,01,37,283,,10,47,054,44*74
$GPGSV,4,2,15,27,41,162,37,02,42,291,43,32,43,110,28,21,64,300,41*78
$GPGSV,4,3,15,24,01,033,,03,08,229,,23,06,053,,36,35,170,41*7E
$GPGSV,4,4,15,34,31,208,,49,34,195,36,61,03,257,*44
$GLGSV,3,1,09,84,71,022,37,75,16,286,32,70,10,192,,83,22,106,*68
$GLGSV,3,2,09,76,11,343,30,85,30,310,34,68,43,043,42,69,63,137,45*66
$GLGSV,3,3,09,74,00,240,*59
$GAGSV,3,1,10,26,78,027,49,31,29,289,31,29,11,169,,13,29,087,27*66
$GAGSV,3,2,10,23,25,232,,07,39,119,26,08,29,055,36,14,41,160,*6C
$GAGSV,3,3,10,33,41,286,44,24,06,335,30*66
$GBGSV,5,1,19,27,76,299,47,32,13,203,32,60,11,109,,13,17,053,29*66
$GBGSV,5,2,19,05,24,128,,14,25,045,33,30,24,303,41,33,49,061,47*66
$GBGSV,5,3,19,41,60,163,46,28,55,124,44,57,58,262,,02,09,105,*6B
$GBGSV,5,4,19,36,05,301,28,39,09,073,,16,05,082,,42,02,036,*64
$GBGSV,5,5,19,45,01,345,,08,08,051,,06,04,085,*5A
$GPGGA,221442.00,,,,,0,00,,,M,,M,,*4B
$PTNL,GGK,221442.00,010125,4742.4458528,N,01617.9731834,E,1,17,1.6,EHT668.8850,M*40
$GPGGQ,221442.00,010125,4742.4458528,N,01617.9731834,E,1,17,3.985,625.6739,M*39
$GPGFA,221442.00,31.282,17.376,3.290,0.753,53.243,2.119,,VVV*3F
$GPLLK,221442.00,010125,,M,,M,1,17,1.9,,M*06
$GNGMP,221442.00,,,,,DAAA,17,0.9,,,,*5A
$GPGMP,221442.00,,,,,,05,,,,2.8,123*71
$GLGMP,221442.00,,,,,,03,,,,,*7F
$GAGMP,221442.00,,,,,,04,,,,,*75
$GBGMP,221442.00,,,,,,05,,,,,*77
$PSSN,SNC,[0,339300000,2347]*4E
$GPZDA,221447.00,01,01,2025,,*65
$GPDTM,W84,,00.0000000,N,00.0000000,E,00.0000000,W84*5F
$GPRMC,221447.00,A,4742.4458487,N,01617.9731856,E,0.0,,010125,5.1,E,D*1E
$GPGLL,4742.4458487,N,01617.9731856,E,221447.00,A,D*6F
$GPGGA,221447.00,4742.4458487,N,01617.9731856,E,2,16,1.0,625.6351,M,43.2111,M,2.2,0123*40
$GNGNS,221447.00,4742.4458487,N,01617.9731856,E,DAAA,16,1.0,625.6351,43.2111,,*5C
$GPGNS,221447.00,,,,,,05,,,,2.2,123*7E
$GLGNS,221447.00,,,,,,04,,,,,*7D
$GAGNS,221447.00,,,,,,02,,,,,*76
$GBGNS,221447.00,,,,,,05,,,,,*72
$GPLLQ,221447.00,010125,,M,,M,1,16,4.985,,M*10
$GPVTG,,T,,M,0.01,N,0.01,K,D*26
$GPHDT,,T*1B
$GPTHS,,V*0E
$GPROT,,V*08
$PSSN,HRP,221447.00,010125,,,,,,,00,0,,*67
$PTNL,AVR,221447.00,,Yaw,,Tilt,,,,0,,00*31
$GPGSA,A,3,02,08,14,21,27,,,,,,,,1.8,1.0,1.5*37
$GPGSA,A,3,68,69,84,85,,,,,,,,,1.8,1.0,1.5*3E
$GPGSA,A,3,26,33,,,,,,,,,,,1.8,1.0,1.5*3A
$GPGSA,A,3,27,28,30,33,41,,,,,,,,1.8,1.0,1.5*37
$GPGST,221447.00,2.915,4.132,0.934,53.374,2.577,3.363,2.628*6E
$GPGBS,221447.00,8.933,12.228,8.403,21,0.0001,1.543,0.619*63
$GPGRS,221447.00,1,-0.2,1.1,-2.3,1.5,-1.6,,,,,,,*4B
$GPGRS,221447.00,1,0.6,-1.0,-4.6,-0.0,,,,,,,,*60
$GPGRS,221447.00,1,-0.9,2.0,,,,,,,,,,*6E
$GPGRS,221447.00,1,-1.8,0.6,-5.3,-1.5,-1.9,,,,,,,*63
$GPGSV,4,1,15,08,68,208,46,14,14,319,35,01,37,283,,10,47,054,45*75
$GPGSV,4,2,15,27,41,162,39,02,42,291,42,32,43,110,40,21,64,300,42*7A
$GPGSV,4,3,15,24,01,033,,03,08,229,,23,06,053,,36,35,170,41*7E
$GPGSV,4,4,15,34,31,208,,49,34,195,36,61,03,257,*44
$GLGSV,3,1,09,84,71,022,38,75,16,286,33,70,10,192,,83,22,106,*66
$GLGSV,3,2,09,76,11,343,34,85,30,310,36,68,43,043,43,69,63,137,46*62
$GLGSV,3,3,09,74,00,240,*59
$GAGSV,3,1,10,26,78,028,49,31,29,289,31,29,11,169,,13,29,087,31*6E
$GAGSV,3,2,10,23,25,232,,07,39,119,20,08,29,055,35,14,41,160,*69
$GAGSV,3,3,10,33,41,286,44,24,06,335,30*66
$GBGSV,5,1,19,27,76,299,47,32,13,203,32,60,11,109,,13,17,054,29*61
$GBGSV,5,2,19,05,24,128,,14,25,045,33,30,24,303,40,33,49,061,48*68
$GBGSV,5,3,19,41,60,163,46,28,55,124,44,57,58,262,,02,09,105,*6B
$GBGSV,5,4,19,36,05,301,28,39,09,073,,16,05,082,,42,02,036,*64
$GBGSV,5,5,19,45,01,345,,08,08,051,,06,04,085,*5A
$GPGGA,221447.00,,,,,0,00,,,M,,M,,*4E
$PTNL,GGK,221447.00,010125,4742.4458487,N,01617.9731856,E,1,16,1.8,EHT668.8462,M*47
$GPGGQ,221447.00,010125,4742.4458487,N,01617.9731856,E,1,16,4.985,625.6351,M*30
$GPGFA,221447.00,39.286,21.549,4.132,0.934,53.374,2.628,,VVV*3A
$GPLLK,221447.00,010125,,M,,M,1,16,2.2,,M*0A
$GNGMP,221447.00,,,,,DAAA,16,1.0,,,,*56
$GPGMP,221447.00,,,,,,05,,,,2.2,123*7E
$GLGMP,221447.00,,,,,,04,,,,,*7D
$GAGMP,221447.00,,,,,,02,,,,,*76
$GBGMP,221447.00,,,,,,05,,,,,*72
$PSSN,SNC,[0,339305000,2347]*4B
$GPZDA,221452.00,01,01,2025,,*61
$GPDTM,W84,,00.0000000,N,00.0000000,E,00.0000000,W84*5F
$GPRMC,221452.00,A,4742.4458378,N,01617.9731876,E,0.0,,010125,5.1,E,D*1F
$GPGLL,4742.4458378,N,01617.9731876,E,221452.00,A,D*6E
$GPGGA,221452.00,4742.4458378,N,01617.9731876,E,2,17,0.9,625.6151,M,43.2111,M,3.2,0123*4B
$GNGNS,221452.00,4742.4458378,N,01617.9731876,E,DAAA,17,0.9,625.6151,43.2111,,*56
$GPGNS,221452.00,,,,,,05,,,,3.2,123*7B
$GLGNS,221452.00,,,,,,04,,,,,*79
$GAGNS,221452.00,,,,,,03,,,,,*73
$GBGNS,221452.00,,,,,,05,,,,,*76
$GPLLQ,221452.00,010125,,M,,M,1,17,4.556,,M*17
$GPVTG,,T,,M,0.01,N,0.01,K,D*26
$GPHDT,,T*1B
$GPTHS,,V*0E
$GPROT,,V*08
$PSSN,HRP,221452.00,010125,,,,,,,00,0,,*63
$PTNL,AVR,221452.00,,Yaw,,Tilt,,,,0,,00*35
$GPGSA,A,3,02,08,10,21,27,,,,,,,,1.8,0.9,1.6*38
$GPGSA,A,3,68,69,84,85,,,,,,,,,1.8,0.9,1.6*35
$GPGSA,A,3,08,26,33,,,,,,,,,,1.8,0.9,1.6*39
$GPGSA,A,3,27,28,30,33,41,,,,,,,,1.8,0.9,1.6*3C
$GPGST,221452.00,3.184,1.160,0.517,304.490,0.783,1.000,4.375*5C
$GPGBS,221452.00,4.058,4.508,12.137,10,0.0001,2.427,0.749*62
$GPGRS,221452.00,1,-0.3,0.7,2.4,-0.0,-1.9,,,,,,,*45
$GPGRS,221452.00,1,1.6,-2.1,-5.2,-1.0,,,,,,,,*63
$GPGRS,221452.00,1,-1.6,-1.4,0.4,,,,,,,,,*64
$GPGRS,221452.00,1,-2.8,-1.9,-5.3,-2.1,-3.0,,,,,,,*4B
$GPGSV,4,1,15,08,68,208,47,14,14,319,31,01,37,283,,10,47,054,43*76
$GPGSV,4,2,15,27,41,162,42,02,42,291,43,32,43,110,40,21,64,300,40*75
$GPGSV,4,3,15,24,01,033,,03,08,229,,23,06,053,,36,35,170,42*7D
$GPGSV,4,4,15,34,31,208,,49,34,195,36,61,03,257,*44
$GLGSV,3,1,09,84,72,022,38,75,16,286,35,70,11,192,,83,22,106,*62
$GLGSV,3,2,09,76,11,343,35,85,30,310,39,68,43,043,44,69,63,137,47*6A
$GLGSV,3,3,09,74,00,240,*59
$GAGSV,3,1,10,26,78,028,49,31,29,289,34,29,11,169,,13,29,087,32*68
$GAGSV,3,2,10,23,25,232,,07,39,119,23,08,29,055,37,14,41,160,*68
$GAGSV,3,3,10,33,41,286,42,24,06,335,29*68
$GBGSV,5,1,19,27,76,299,48,32,13,203,31,60,11,109,,13,17,054,31*64
$GBGSV,5,2,19,05,24,128,,14,25,045,32,30,24,303,40,33,49,061,49*68
$GBGSV,5,3,19,41,60,163,47,28,55,124,42,57,58,262,,02,09,105,*6C
$GBGSV,5,4,19,36,05,301,28,39,09,073,,16,05,082,,42,02,036,*64
$GBGSV,5,5,19,45,01,345,,08,08,051,,06,04,085,*5A
$GPGGA,221452.00,,,,,0,00,,,M,,M,,*4A
$PTNL,GGK,221452.00,010125,4742.4458378,N,01617.9731876,E,1,17,1.8,EHT668.8261,M*42
$GPGGQ,221452.00,010125,4742.4458378,N,01617.9731876,E,1,17,4.556,625.6151,M*30
$GPGFA,221452.00,11.028,35.877,1.160,0.517,304.490,4.375,,VVV*0F
$GPLLK,221452.00,010125,,M,,M,1,17,2.2,,M*0F
$GNGMP,221452.00,,,,,DAAA,17,0.9,,,,*5B
$GPGMP,221452.00,,,,,,05,,,,3.2,123*7B
$GLGMP,221452.00,,,,,,04,,,,,*79
$GAGMP,221452.00,,,,,,03,,,,,*73
$GBGMP,221452.00,,,,,,05,,,,,*76
$PSSN,SNC,[0,339310000,2347]*4F
$GPZDA,221457.00,01,01,2025,,*64
$GPDTM,W84,,00.0000000,N,00.0000000,E,00.0000000,W84*5F
$GPRMC,221457.00,A,4742.4458270,N,01617.9731742,E,0.0,,010125,5.1,E,D*1B
$GPGLL,4742.4458270,N,01617.9731742,E,221457.00,A,D*6A
$GPGGA,221457.00,4742.4458270,N,01617.9731742,E,2,19,0.8,625.6006,M,43.2110,M,1.8,0123*4A
$GNGNS,221457.00,4742.4458270,N,01617.9731742,E,DAAA,19,0.8,625.6006,43.2110,,*5F
$GPGNS,221457.00,,,,,,05,,,,1.8,123*76
$GLGNS,221457.00,,,,,,05,,,,,*7D
$GAGNS,221457.00,,,,,,04,,,,,*71
$GBGNS,221457.00,,,,,,05,,,,,*73
$GPLLQ,221457.00,010125,,M,,M,1,19,2.870,,M*13
$GPVTG,,T,,M,0.01,N,0.01,K,D*26
$GPHDT,,T*1B
$GPTHS,,V*0E
$GPROT,,V*08
$PSSN,HRP,221457.00,010125,,,,,,,00,0,,*66
$PTNL,AVR,221457.00,,Yaw,,Tilt,,,,0,,00*30
$GPGSA,A,3,02,08,10,21,27,,,,,,,,1.5,0.8,1.3*31
$GPGSA,A,3,68,69,75,84,85,,,,,,,,1.5,0.8,1.3*3E
$GPGSA,A,3,07,08,26,33,,,,,,,,,1.5,0.8,1.3*37
$GPGSA,A,3,27,28,30,33,41,,,,,,,,1.5,0.8,1.3*35
$GPGST,221457.00,2.753,0.841,0.688,39.712,0.782,0.754,2.656*6A
$GPGBS,221457.00,4.048,4.212,11.052,10,0.0001,1.436,0.704*61
$GPGRS,221457.00,1,-0.3,0.4,1.4,-0.8,-0.9,,,,,,,*49
$GPGRS,221457.00,1,2.7,-0.7,2.7,-4.0,-0.9,,,,,,,*40
$GPGRS,221457.00,1,-3.2,-1.6,-1.0,0.6,,,,,,,,*65
$GPGRS,221457.00,1,-2.4,-3.0,-3.3,-2.6,-2.8,,,,,,,*41
$GPGSV,4,1,15,08,68,208,48,14,14,319,31,01,37,283,,10,47,054,43*79
$GPGSV,4,2,15,27,41,162,42,02,42,291,41,32,43,110,30,21,64,300,40*70
$GPGSV,4,3,15,24,01,032,,03,08,229,,23,06,053,,36,35,170,42*7C
$GPGSV,4,4,15,34,31,208,,49,34,195,36,61,03,257,*44
$GLGSV,3,1,09,84,72,022,37,75,16,286,37,70,11,192,,83,22,106,*6F
$GLGSV,3,2,09,76,11,343,28,85,30,310,42,68,43,043,45,69,63,137,48*64
$GLGSV,3,3,09,74,00,240,*59
$GAGSV,3,1,10,26,78,028,49,31,29,289,34,29,11,169,,13,29,087,31*6B
$GAGSV,3,2,10,23,25,232,,07,39,119,23,08,29,055,38,14,41,160,*67
$GAGSV,3,3,10,33,41,286,40,24,06,335,27*64
$GBGSV,5,1,19,27,76,299,48,32,13,203,31,60,11,109,,13,17,054,28*6C
$GBGSV,5,2,19,05,24,128,,14,25,045,35,30,24,303,42,33,49,061,50*65
$GBGSV,5,3,19,41,60,163,47,28,55,124,40,57,58,262,,02,09,105,*6E
$GBGSV,5,4,19,36,05,301,29,39,09,073,,16,05,082,,42,02,036,*65
$GBGSV,5,5,19,45,01,345,,08,08,051,,06,04,085,*5A
$GPGGA,221457.00,,,,,0,00,,,M,,M,,*4F
$PTNL,GGK,221457.00,010125,4742.4458270,N,01617.9731742,E,1,19,1.5,EHT668.8116,M*46
$GPGGQ,221457.00,010125,4742.4458270,N,01617.9731742,E,1,19,2.870,625.6006,M*36
$GPGFA,221457.00,7.999,21.779,0.841,0.688,39.712,2.656,,VVV*02
$GPLLK,221457.00,010125,,M,,M,1,19,1.8,,M*0D
$GNGMP,221457.00,,,,,DAAA,19,0.8,,,,*51
$GPGMP,221457.00,,,,,,05,,,,1.8,123*76
$GLGMP,221457.00,,,,,,05,,,,,*7D
$GAGMP,221457.00,,,,,,04,,,,,*71
$GBGMP,221457.00,,,,,,05,,,,,*73
$PSSN,SNC,[0,339315000,2347]*4A
$GPZDA,221502.00,01,01,2025,,*65
$GPDTM,W84,,00.0000000,N,00.0000000,E,00.0000000,W84*5F
$GPRMC,221502.00,A,4742.4458137,N,01617.9731619,E,0.0,,010125,5.1,E,D*15
$GPGLL,4742.4458137,N,01617.9731619,E,221502.00,A,D*64
$GPGGA,221502.00,4742.4458137,N,01617.9731619,E,2,19,0.8,625.5974,M,43.2111,M,2.8,0123*49
$GNGNS,221502.00,4742.4458137,N,01617.9731619,E,DAAA,19,0.8,625.5974,43.2111,,*5F
$GPGNS,221502.00,,,,,,05,,,,2.8,123*74
$GLGNS,221502.00,,,,,,05,,,,,*7C
$GAGNS,221502.00,,,,,,03,,,,,*77
$GBGNS,221502.00,,,,,,06,,,,,*71
$GPLLQ,221502.00,010125,,M,,M,1,19,3.737,,M*1F
$GPVTG,,T,,M,0.01,N,0.02,K,D*25
$GPHDT,,T*1B
$GPTHS,,V*0E
$GPROT,,V*08
$PSSN,HRP,221502.00,010125,,,,,,,00,0,,*67
$PTNL,AVR,221502.00,,Yaw,,Tilt,,,,0,,00*31
$GPGSA,A,3,02,08,10,21,27,,,,,,,,1.5,0.8,1.3*31
$GPGSA,A,3,68,69,75,84,85,,,,,,,,1.5,0.8,1.3*3E
$GPGSA,A,3,08,26,33,,,,,,,,,,1.5,0.8,1.3*30
$GPGSA,A,3,14,27,28,30,33,41,,,,,,,1.5,0.8,1.3*30
$GPGST,221502.00,2.773,1.089,0.908,36.621,1.028,0.976,3.458*68
$GPGBS,221502.00,4.161,4.262,11.112,10,0.0001,2.478,0.718*6C
$GPGRS,221502.00,1,-0.2,0.2,2.5,-0.9,-1.0,,,,,,,*44
$GPGRS,221502.00,1,1.6,-0.1,1.8,-4.2,-2.0,,,,,,,*40
$GPGRS,221502.00,1,-1.6,-1.1,-0.4,,,,,,,,,*48
$GPGRS,221502.00,1,4.6,-1.9,-3.0,-1.3,-3.4,-2.3,,,,,,*68
$GPGSV,4,1,15,08,68,208,49,14,14,319,31,01,37,283,,10,47,054,42*79
$GPGSV,4,2,15,27,41,162,42,02,42,291,41,32,43,110,40,21,64,300,40*77
$GPGSV,4,3,15,24,01,032,,03,08,229,,23,06,053,,36,35,170,42*7C
$GPGSV,4,4,15,34,31,208,,49,34,195,38,61,03,257,*4A
$GLGSV,2,1,08,84,72,023,38,75,16,286,37,70,11,192,,83,22,106,*61
$GLGSV,2,2,08,76,11,343,34,85,30,310,41,68,43,043,44,69,63,137,49*6A
$GAGSV,3,1,10,26,77,028,50,31,29,289,34,29,11,169,,13,29,087,31*6C
$GAGSV,3,2,10,23,25,232,,07,39,118,27,08,29,055,39,14,41,160,*63
$GAGSV,3,3,10,33,41,286,40,24,06,335,27*64
$GBGSV,5,1,19,27,76,299,49,32,14,203,33,60,11,109,,13,17,054,25*65
$GBGSV,5,2,19,05,24,128,,14,25,045,35,30,24,303,42,33,49,061,50*65
$GBGSV,5,3,19,41,61,163,47,28,55,124,38,57,58,262,,02,09,105,*60
$GBGSV,5,4,19,36,05,301,28,39,09,073,,16,05,082,,42,02,036,*64
$GBGSV,5,5,19,45,01,345,,08,08,051,,06,04,085,*5A
$GPGGA,221502.00,,,,,0,00,,,M,,M,,*4E
$PTNL,GGK,221502.00,010125,4742.4458137,N,01617.9731619,E,1,19,1.5,EHT668.8084,M*42
$GPGGQ,221502.00,010125,4742.4458137,N,01617.9731619,E,1,19,3.737,625.5974,M*3A
$GPGFA,221502.00,10.350,28.353,1.089,0.908,36.621,3.458,,VVV*36
$GPLLK,221502.00,010125,,M,,M,1,19,1.8,,M*0C
$GNGMP,221502.00,,,,,DAAA,19,0.8,,,,*50
$GPGMP,221502.00,,,,,,05,,,,2.8,123*74
$GLGMP,221502.00,,,,,,05,,,,,*7C
$GAGMP,221502.00,,,,,,03,,,,,*77
$GBGMP,221502.00,,,,,,06,,,,,*71
$PSSN,SNC,[0,339320000,2347]*4C
$GPZDA,221507.00,01,01,2025,,*60
$GPDTM,W84,,00.0000000,N,00.0000000,E,00.0000000,W84*5F
$GPRMC,221507.00,A,4742.4458005,N,01617.9731436,E,0.0,,010125,5.1,E,D*1F
$GPGLL,4742.4458005,N,01617.9731436,E,221507.00,A,D*6E
$GPGGA,221507.00,4742.4458005,N,01617.9731436,E,2,20,0.7,625.5937,M,43.2111,M,2.5,0123*4C
$GNGNS,221507.00,4742.4458005,N,01617.9731436,E,DAAA,20,0.7,625.5937,43.2111,,*57
$GPGNS,221507.00,,,,,,06,,,,2.5,123*7F
$GLGNS,221507.00,,,,,,04,,,,,*78
$GAGNS,221507.00,,,,,,03,,,,,*72
$GBGNS,221507.00,,,,,,07,,,,,*75
$GPLLQ,221507.00,010125,,M,,M,1,20,4.407,,M*17
$GPVTG,,T,,M,0.00,N,0.01,K,D*27
$GPHDT,,T*1B
$GPTHS,,V*0E
$GPROT,,V*08
$PSSN,HRP,221507.00,010125,,,,,,,00,0,,*62
$PTNL,AVR,221507.00,,Yaw,,Tilt,,,,0,,00*34
$GPGSA,A,3,02,08,10,21,27,32,,,,,,,1.3,0.7,1.1*3B
$GPGSA,A,3,68,69,84,85,,,,,,,,,1.3,0.7,1.1*37
$GPGSA,A,3,08,26,33,,,,,,,,,,1.3,0.7,1.1*3B
$GPGSA,A,3,14,27,28,30,32,33,41,,,,,,1.3,0.7,1.1*3A
$GPGST,221507.00,2.846,1.271,1.001,33.018,1.197,1.088,4.100*6A
$GPGBS,221507.00,3.846,3.625,11.758,10,0.0001,2.393,0.735*67
$GPGRS,221507.00,1,-0.0,0.8,2.4,-1.2,-0.9,-3.2,,,,,,*48
$GPGRS,221507.00,1,0.7,0.8,-3.8,-1.4,,,,,,,,*4C
$GPGRS,221507.00,1,-1.3,-0.5,-1.2,,,,,,,,,*4A
$GPGRS,221507.00,1,5.5,-0.6,-3.5,0.0,-3.0,-3.6,-1.0,,,,,*49
$GPGSV,4,1,15,08,68,208,50,14,14,319,30,01,37,283,,10,47,054,42*70
$GPGSV,4,2,15,27,41,162,42,02,42,292,41,32,43,110,34,21,64,300,40*77
$GPGSV,4,3,15,24,01,032,,03,08,229,,23,06,053,,36,35,170,42*7C
$GPGSV,4,4,15,34,31,208,,49,34,195,37,61,03,257,*45
$GLGSV,2,1,08,84,72,023,37,75,16,286,34,70,11,192,,83,22,106,*6D
$GLGSV,2,2,08,76,11,343,,85,30,310,41,68,43,043,45,69,63,137,48*6D
$GAGSV,3,1,10,26,77,028,50,31,29,289,32,29,11,169,,13,29,087,30*6B
$GAGSV,3,2,10,23,25,232,,07,39,118,34,08,29,055,40,14,41,160,*6F
$GAGSV,3,3,10,33,41,286,40,24,06,335,29*6A
$GBGSV,5,1,19,27,76,299,49,32,14,203,35,60,11,109,,13,17,054,27*61
$GBGSV,5,2,19,05,24,128,,14,25,045,35,30,24,303,43,33,49,061,50*64
$GBGSV,5,3,19,41,61,163,47,28,55,124,38,57,58,262,,02,09,105,*60
$GBGSV,5,4,19,36,05,301,30,39,09,073,,16,05,082,,42,02,036,*6D
$GBGSV,5,5,19,45,01,345,,08,08,051,,06,04,085,*5A
$GPGGA,221507.00,,,,,0,00,,,M,,M,,*4B
$PTNL,GGK,221507.00,010125,4742.4458005,N,01617.9731436,E,1,20,1.3,EHT668.8047,M*4B
$GPGGQ,221507.00,010125,4742.4458005,N,01617.9731436,E,1,20,4.407,625.5937,M*3A
$GPGFA,221507.00,12.080,33.618,1.271,1.001,33.018,4.100,,VVV*3D
$GPLLK,221507.00,010125,,M,,M,1,20,1.5,,M*0E
$GNGMP,221507.00,,,,,DAAA,20,0.7,,,,*50
$GPGMP,221507.00,,,,,,06,,,,2.5,123*7F
$GLGMP,221507.00,,,,,,04,,,,,*78
$GAGMP,221507.00,,,,,,03,,,,,*72
$GBGMP,221507.00,,,,,,07,,,,,*75
$PSSN,SNC,[0,339325000,2347]*49
$GPZDA,221512.00,01,01,2025,,*64
$GPDTM,W84,,00.0000000,N,00.0000000,E,00.0000000,W84*5F
$GPRMC,221512.00,A,4742.4457905,N,01617.9731256,E,0.0,,010125,5.1,E,D*1D
$GPGLL,4742.4457905,N,01617.9731256,E,221512.00,A,D*6C
$GPGGA,221512.00,4742.4457905,N,01617.9731256,E,2,20,0.7,625.5905,M,43.2111,M,3.2,0123*49
$GNGNS,221512.00,4742.4457905,N,01617.9731256,E,DAAA,20,0.7,625.5905,43.2111,,*54
$GPGNS,221512.00,,,,,,05,,,,3.2,123*7E
$GLGNS,221512.00,,,,,,04,,,,,*7C
$GAGNS,221512.00,,,,,,04,,,,,*71
$GBGNS,221512.00,,,,,,07,,,,,*71
$GPLLQ,221512.00,010125,,M,,M,1,20,3.443,,M*14
$GPVTG,,T,,M,0.01,N,0.01,K,D*26
$GPHDT,,T*1B
$GPTHS,,V*0E
$GPROT,,V*08
$PSSN,HRP,221512.00,010125,,,,,,,00,0,,*66
$PTNL,AVR,221512.00,,Yaw,,Tilt,,,,0,,00*30
$GPGSA,A,3,02,08,10,21,27,,,,,,,,1.3,0.7,1.1*3A
$GPGSA,A,3,68,69,84,85,,,,,,,,,1.3,0.7,1.1*37
$GPGSA,A,3,07,08,26,33,,,,,,,,,1.3,0.7,1.1*3C
$GPGSA,A,3,14,27,28,30,32,33,41,,,,,,1.3,0.7,1.1*3A
$GPGST,221512.00,3.095,1.006,0.826,44.596,0.922,0.919,3.187*6B
$GPGBS,221512.00,3.951,4.445,11.796,10,0.0001,1.744,0.751*6A
$GPGRS,221512.00,1,-0.4,0.7,1.7,-0.6,-1.4,,,,,,,*4C
$GPGRS,221512.00,1,1.0,1.4,-3.5,-1.1,,,,,,,,*4B
$GPGRS,221512.00,1,7.3,-1.5,-0.2,0.1,,,,,,,,*4A
$GPGRS,221512.00,1,4.0,-0.2,-2.9,1.4,-2.8,-3.4,-1.0,,,,,*4E
$GPGSV,4,1,15,08,68,208,50,14,14,319,32,01,38,283,,10,46,054,42*7C
$GPGSV,4,2,15,27,40,162,42,02,42,292,41,32,43,110,36,21,64,300,41*75
$GPGSV,4,3,15,24,01,032,,03,08,229,,23,06,053,,36,35,170,42*7C
$GPGSV,4,4,15,34,31,208,,49,34,195,38,61,03,257,*4A
$GLGSV,2,1,08,84,72,023,37,75,16,286,30,70,11,192,,83,22,106,*69
$GLGSV,2,2,08,76,11,343,31,85,30,310,41,68,43,043,45,69,63,137,47*60
$GAGSV,3,1,10,26,77,028,50,31,29,289,29,29,11,169,,13,29,087,30*61
$GAGSV,3,2,10,23,25,232,,07,39,118,36,08,29,055,40,14,41,160,*6D
$GAGSV,3,3,10,33,41,286,39,24,06,335,22*6F
$GBGSV,5,1,19,27,76,299,49,32,14,203,36,60,11,109,,13,17,054,26*63
$GBGSV,5,2,19,05,24,128,,14,25,045,37,30,24,303,45,33,49,061,49*68
$GBGSV,5,3,19,41,61,163,47,28,55,124,37,57,58,262,,02,09,105,*6F
$GBGSV,5,4,19,36,05,301,29,39,09,073,,16,05,082,,42,02,036,*65
$GBGSV,5,5,19,45,01,345,,08,08,051,,06,04,085,*5A
$GPGGA,221512.00,,,,,0,00,,,M,,M,,*4F
$PTNL,GGK,221512.00,010125,4742.4457905,N,01617.9731256,E,1,20,1.3,EHT668.8015,M*4E
$GPGGQ,221512.00,010125,4742.4457905,N,01617.9731256,E,1,20,3.443,625.5905,M*3E
$GPGFA,221512.00,9.565,26.137,1.006,0.826,44.596,3.187,,VVV*06
$GPLLK,221512.00,010125,,M,,M,1,20,1.5,,M*0A
$GNGMP,221512.00,,,,,DAAA,20,0.7,,,,*54
$GPGMP,221512.00,,,,,,05,,,,3.2,123*7E
$GLGMP,221512.00,,,,,,04,,,,,*7C
$GAGMP,221512.00,,,,,,04,,,,,*71
$GBGMP,221512.00,,,,,,07,,,,,*71
$PSSN,SNC,[0,339330000,2347]*4D
$GPZDA,221517.00,01,01,2025,,*61
$GPDTM,W84,,00.0000000,N,00.0000000,E,00.0000000,W84*5F
$GPRMC,221517.00,A,4742.4457729,N,01617.9731115,E,0.0,,010125,5.1,E,D*1C
$GPGLL,4742.4457729,N,01617.9731115,E,221517.00,A,D*6D
$GPGGA,221517.00,4742.4457729,N,01617.9731115,E,2,23,0.6,625.5742,M,43.2111,M,2.8,0123*4C
$GNGNS,221517.00,4742.4457729,N,01617.9731115,E,DAAA,23,0.6,625.5742,43.2111,,*5A
$GPGNS,221517.00,,,,,,06,,,,2.8,123*73
$GLGNS,221517.00,,,,,,05,,,,,*78
$GAGNS,221517.00,,,,,,05,,,,,*75
$GBGNS,221517.00,,,,,,07,,,,,*74
$GPLLQ,221517.00,010125,,M,,M,1,23,3.593,,M*1E
$GPVTG,,T,,M,0.01,N,0.02,K,D*25
$GPHDT,,T*1B
$GPTHS,,V*0E
$GPROT,,V*08
$PSSN,HRP,221517.00,010125,,,,,,,00,0,,*63
$PTNL,AVR,221517.00,,Yaw,,Tilt,,,,0,,00*35
$GPGSA,A,3,02,08,10,21,27,32,,,,,,,1.2,0.6,1.0*3A
$GPGSA,A,3,68,69,76,84,85,,,,,,,,1.2,0.6,1.0*37
$GPGSA,A,3,07,08,26,31,33,,,,,,,,1.2,0.6,1.0*3F
$GPGSA,A,3,14,27,28,30,32,33,41,,,,,,1.2,0.6,1.0*3B
$GPGST,221517.00,3.187,1.061,0.775,26.836,1.010,0.841,3.344*6F
$GPGBS,221517.00,3.838,3.297,10.820,10,0.0001,2.267,0.721*6C
$GPGRS,221517.00,1,-0.5,-0.3,2.3,1.2,-1.8,-0.4,,,,,,*45
$GPGRS,221517.00,1,-0.0,0.1,1.8,-4.8,-0.9,,,,,,,*42
$GPGRS,221517.00,1,7.2,-1.7,-0.8,-1.9,-0.3,,,,,,,*62
$GPGRS,221517.00,1,4.7,-0.7,-4.2,1.9,-2.6,-3.4,-1.7,,,,,*40
$GPGSV,4,1,15,08,67,208,49,14,14,319,32,01,38,283,,10,46,054,42*7B
$GPGSV,4,2,15,27,40,162,41,02,42,292,42,32,43,110,38,21,64,301,41*7A
$GPGSV,4,3,15,24,01,032,,03,08,230,,23,06,053,,36,35,170,41*77
$GPGSV,4,4,15,34,31,208,,49,34,195,38,61,03,257,*4A
$GLGSV,2,1,08,84,72,023,36,75,16,286,33,70,11,192,,83,22,106,*6B
$GLGSV,2,2,08,76,11,343,36,85,30,310,41,68,43,043,45,69,63,137,45*65
$GAGSV,3,1,10,26,77,028,50,31,29,289,33,29,11,169,,13,29,087,29*62
$GAGSV,3,2,10,23,25,232,,07,39,118,36,08,29,055,40,14,41,160,*6D
$GAGSV,3,3,10,33,41,286,38,24,06,335,28*64
$GBGSV,5,1,19,27,76,299,50,32,14,203,37,60,11,109,,13,17,054,27*6B
$GBGSV,5,2,19,05,24,128,,14,25,045,38,30,25,303,45,33,49,061,48*67
$GBGSV,5,3,19,41,61,163,47,28,54,124,35,57,58,262,,02,09,105,*6C
$GBGSV,5,4,19,36,05,301,33,39,09,073,,16,05,082,,42,02,036,*6E
$GBGSV,5,5,19,45,01,345,,08,08,051,,06,04,085,*5A
$GPGGA,221517.00,,,,,0,00,,,M,,M,,*4A
$PTNL,GGK,221517.00,010125,4742.4457729,N,01617.9731115,E,1,23,1.2,EHT668.7853,M*48
$GPGGQ,221517.00,010125,4742.4457729,N,01617.9731115,E,1,23,3.593,625.5742,M*3D
$GPGFA,221517.00,10.090,27.420,1.061,0.775,26.836,3.344,,VVV*30
$GPLLK,221517.00,010125,,M,,M,1,23,1.4,,M*0D
$GNGMP,221517.00,,,,,DAAA,23,0.6,,,,*53
$GPGMP,221517.00,,,,,,06,,,,2.8,123*73
$GLGMP,221517.00,,,,,,05,,,,,*78
$GAGMP,221517.00,,,,,,05,,,,,*75
$GBGMP,221517.00,,,,,,07,,,,,*74
$PSSN,SNC,[0,339335000,2347]*48
$GPZDA,221522.00,01,01,2025,,*67
$GPDTM,W84,,00.0000000,N,00.0000000,E,00.0000000,W84*5F
$GPRMC,221522.00,A,4742.4457590,N,01617.9731057,E,0.0,,010125,5.1,E,D*1D
$GPGLL,4742.4457590,N,01617.9731057,E,221522.00,A,D*6C
$GPGGA,221522.00,4742.4457590,N,01617.9731057,E,2,23,0.6,625.5614,M,43.2111,M,2.4,0123*43
$GNGNS,221522.00,4742.4457590,N,01617.9731057,E,DAAA,23,0.6,625.5614,43.2111,,*59
$GPGNS,221522.00,,,,,,05,,,,2.4,123*7A
$GLGNS,221522.00,,,,,,06,,,,,*7D
$GAGNS,221522.00,,,,,,05,,,,,*73
$GBGNS,221522.00,,,,,,07,,,,,*72
$GPLLQ,221522.00,010125,,M,,M,1,23,4.007,,M*17
$GPVTG,,T,,M,0.00,N,0.01,K,D*27
$GPHDT,,T*1B
$GPTHS,,V*0E
$GPROT,,V*08
$PSSN,HRP,221522.00,010125,,,,,,,00,0,,*65
$PTNL,AVR,221522.00,,Yaw,,Tilt,,,,0,,00*33
$GPGSA,A,3,02,08,21,27,32,,,,,,,,1.1,0.6,0.9*30
$GPGSA,A,3,68,69,75,76,84,85,,,,,,,1.1,0.6,0.9*3E
$GPGSA,A,3,07,08,26,31,33,,,,,,,,1.1,0.6,0.9*34
$GPGSA,A,3,14,27,28,30,32,33,41,,,,,,1.1,0.6,0.9*30
$GPGST,221522.00,3.539,1.846,0.824,35.827,1.572,1.270,3.460*65
$GPGBS,221522.00,5.256,5.724,10.609,27,0.0001,-2.197,0.729*4D
$GPGRS,221522.00,1,-0.9,-0.3,1.1,-2.2,2.0,,,,,,,*41
$GPGRS,221522.00,1,0.1,-0.5,-2.5,2.3,-4.6,0.9,,,,,,*6E
$GPGRS,221522.00,1,9.5,-2.3,-0.8,-0.4,-1.6,,,,,,,*62
$GPGRS,221522.00,1,4.9,-0.3,-3.8,1.2,-2.9,-2.9,-1.0,,,,,*4E
$GPGSV,4,1,15,08,67,208,50,14,14,319,32,01,38,283,,10,46,054,43*72
$GPGSV,4,2,15,27,40,162,40,02,43,292,43,32,43,110,42,21,64,301,39*79
$GPGSV,4,3,15,24,01,032,,03,09,230,,23,06,053,,36,35,170,42*75
$GPGSV,4,4,15,34,31,208,,49,34,195,39,61,03,257,*4B
$GLGSV,2,1,08,84,72,023,35,75,16,286,38,70,11,192,,83,22,106,*63
$GLGSV,2,2,08,76,11,343,36,85,30,310,41,68,43,043,46,69,63,137,42*61
$GAGSV,3,1,10,26,77,029,50,31,29,289,33,29,12,169,,13,29,087,30*68
$GAGSV,3,2,10,23,24,232,,07,39,118,36,08,29,055,40,14,40,160,*6D
$GAGSV,3,3,10,33,41,286,35,24,06,335,27*66
$GBGSV,5,1,19,27,76,299,49,32,14,203,38,60,11,109,,13,17,054,27*6C
$GBGSV,5,2,19,05,24,128,,14,25,045,38,30,25,303,45,33,49,061,48*67
$GBGSV,5,3,19,41,61,163,46,28,54,124,36,57,58,262,,02,09,105,*6E
$GBGSV,5,4,19,36,05,301,34,39,09,073,,16,05,082,,42,02,036,*69
$GBGSV,5,5,19,45,01,345,,08,08,051,,06,04,085,*5A
$GPGGA,221522.00,,,,,0,00,,,M,,M,,*4C
$PTNL,GGK,221522.00,010125,4742.4457590,N,01617.9731057,E,1,23,1.1,EHT668.7725,M*44
$GPGGQ,221522.00,010125,4742.4457590,N,01617.9731057,E,1,23,4.007,625.5614,M*31
$GPGFA,221522.00,17.548,28.375,1.846,0.824,35.827,3.460,,VVV*3C
$GPLLK,221522.00,010125,,M,,M,1,23,1.3,,M*0C
$GNGMP,221522.00,,,,,DAAA,23,0.6,,,,*55
$GPGMP,221522.00,,,,,,05,,,,2.4,123*7A
$GLGMP,221522.00,,,,,,06,,,,,*7D
$GAGMP,221522.00,,,,,,05,,,,,*73
$GBGMP,221522.00,,,,,,07,,,,,*72
$PSSN,SNC,[0,339340000,2347]*4A
$GPZDA,221527.00,01,01,2025,,*62
$GPDTM,W84,,00.0000000,N,00.0000000,E,00.0000000,W84*5F
$GPRMC,221527.00,A,4742.4457537,N,01617.9730843,E,0.0,,010125,5.1,E,D*19
$GPGLL,4742.4457537,N,01617.9730843,E,221527.00,A,D*68
$GPGGA,221527.00,4742.4457537,N,01617.9730843,E,2,19,0.7,625.5564,M,43.2111,M,2.8,0123*47
$GNGNS,221527.00,4742.4457537,N,01617.9730843,E,DAAA,19,0.7,625.5564,43.2111,,*51
$GPGNS,221527.00,,,,,,04,,,,2.8,123*72
$GLGNS,221527.00,,,,,,05,,,,,*7B
$GAGNS,221527.00,,,,,,03,,,,,*70
$GBGNS,221527.00,,,,,,07,,,,,*77
$GPLLQ,221527.00,010125,,M,,M,1,19,4.979,,M*1B
$GPVTG,,T,,M,0.00,N,0.01,K,D*27
$GPHDT,,T*1B
$GPTHS,,V*0E
$GPROT,,V*08
$PSSN,HRP,221527.00,010125,,,,,,,00,0,,*60
$PTNL,AVR,221527.00,,Yaw,,Tilt,,,,0,,00*36
$GPGSA,A,3,02,08,21,32,,,,,,,,,1.2,0.7,1.0*3F
$GPGSA,A,3,68,69,75,84,85,,,,,,,,1.2,0.7,1.0*35
$GPGSA,A,3,08,13,26,,,,,,,,,,1.2,0.7,1.0*39
$GPGSA,A,3,14,27,28,30,32,33,41,,,,,,1.2,0.7,1.0*3A
$GPGST,221527.00,4.144,2.588,0.894,25.542,2.367,1.377,4.159*6E
$GPGBS,221527.00,9.396,4.672,14.978,32,0.0001,2.426,0.731*68
$GPGRS,221527.00,1,-1.0,0.1,-1.2,2.4,,,,,,,,*4A
$GPGRS,221527.00,1,0.6,7.6,0.9,-5.3,3.1,,,,,,,*46
$GPGRS,221527.00,1,-2.6,7.0,-0.7,,,,,,,,,*65
$GPGRS,221527.00,1,3.7,-0.4,-4.1,0.7,-2.7,-2.5,-0.6,,,,,*4A
$GPGSV,4,1,15,08,67,208,50,14,14,319,29,01,38,283,,10,46,054,43*78
$GPGSV,4,2,15,27,40,162,38,02,43,292,42,32,43,110,45,21,64,301,37*7E
$GPGSV,4,3,15,24,01,032,,03,09,230,,23,06,053,,36,35,170,41*76
$GPGSV,4,4,15,34,31,208,,49,34,195,38,61,03,257,*4A
$GLGSV,2,1,08,84,72,023,35,75,16,286,40,70,11,192,,83,22,106,*6C
$GLGSV,2,2,08,76,11,343,32,85,30,310,44,68,43,043,47,69,63,137,40*63
$GAGSV,3,1,10,26,77,029,50,31,29,289,28,29,12,169,,13,29,087,38*6A
$GAGSV,3,2,10,23,24,232,,07,39,118,34,08,29,055,40,14,40,160,*6F
$GAGSV,3,3,10,33,41,286,32,24,06,335,24*62
$GBGSV,5,1,19,27,76,299,49,32,14,203,39,60,11,109,,13,17,054,24*6E
$GBGSV,5,2,19,05,24,128,,14,25,045,39,30,25,303,44,33,49,061,47*68
$GBGSV,5,3,19,41,61,163,45,28,54,124,36,57,58,262,,02,09,105,*6D
$GBGSV,5,4,19,36,05,301,34,39,09,073,,16,05,082,,42,02,036,*69
$GBGSV,5,5,19,45,01,345,,08,08,051,,06,04,085,*5A
$GPGGA,221527.00,,,,,0,00,,,M,,M,,*49
$PTNL,GGK,221527.00,010125,4742.4457537,N,01617.9730843,E,1,19,1.2,EHT668.7675,M*4E
$GPGGQ,221527.00,010125,4742.4457537,N,01617.9730843,E,1,19,4.979,625.5564,M*38
$GPGFA,221527.00,24.610,34.101,2.588,0.894,25.542,4.159,,VVV*3B
$GPLLK,221527.00,010125,,M,,M,1,19,1.4,,M*07
$GNGMP,221527.00,,,,,DAAA,19,0.7,,,,*58
$GPGMP,221527.00,,,,,,04,,,,2.8,123*72
$GLGMP,221527.00,,,,,,05,,,,,*7B
$GAGMP,221527.00,,,,,,03,,,,,*70
$GBGMP,221527.00,,,,,,07,,,,,*77
$PSSN,SNC,[0,339345000,2347]*4F
$GPZDA,221532.00,01,01,2025,,*66
$GPDTM,W84,,00.0000000,N,00.0000000,E,00.0000000,W84*5F
$GPRMC,221532.00,A,4742.4457645,N,01617.9730535,E,0.0,,010125,5.1,E,D*17
$GPGLL,4742.4457645,N,01617.9730535,E,221532.00,A,D*66
$GPGGA,221532.00,4742.4457645,N,01617.9730535,E,2,18,0.7,625.5727,M,43.2111,M,1.8,0123*4E
$GNGNS,221532.00,4742.4457645,N,01617.9730535,E,DAAA,18,0.7,625.5727,43.2111,,*5B
$GPGNS,221532.00,,,,,,04,,,,1.8,123*75
$GLGNS,221532.00,,,,,,03,,,,,*79
$GAGNS,221532.00,,,,,,04,,,,,*73
$GBGNS,221532.00,,,,,,07,,,,,*73
$GPLLQ,221532.00,010125,,M,,M,1,18,5.093,,M*12
$GPVTG,,T,,M,0.00,N,0.00,K,D*26
$GPHDT,,T*1B
$GPTHS,,V*0E
$GPROT,,V*08
$PSSN,HRP,221532.00,010125,,,,,,,00,0,,*64
$PTNL,AVR,221532.00,,Yaw,,Tilt,,,,0,,00*32
$GPGSA,A,3,02,08,21,32,,,,,,,,,1.3,0.7,1.1*3F
$GPGSA,A,3,68,75,85,,,,,,,,,,1.3,0.7,1.1*36
$GPGSA,A,3,08,13,26,31,,,,,,,,,1.3,0.7,1.1*3B
$GPGSA,A,3,14,27,28,30,32,33,41,,,,,,1.3,0.7,1.1*3A
$GPGST,221532.00,3.144,2.615,0.894,24.599,2.407,1.358,4.278*61
$GPGBS,221532.00,9.098,4.556,15.564,32,0.0001,2.146,0.743*62
$GPGRS,221532.00,1,-0.9,0.5,-1.7,2.1,,,,,,,,*42
$GPGRS,221532.00,1,2.9,-0.1,5.3,,,,,,,,,*44
$GPGRS,221532.00,1,-1.9,6.2,-0.1,1.6,,,,,,,,*41
$GPGRS,221532.00,1,3.4,0.3,-1.2,1.3,-1.2,-1.6,0.0,,,,,*49
$GPGSV,4,1,15,08,67,208,50,14,14,319,21,01,38,283,,10,46,054,41*72
$GPGSV,4,2,15,27,40,162,35,02,43,292,42,32,43,110,47,21,64,301,38*7E
$GPGSV,4,3,15,24,01,032,,03,09,230,,23,06,053,,36,35,170,41*76
$GPGSV,4,4,15,34,31,208,,49,34,195,38,61,03,257,*4A
$GLGSV,2,1,08,84,72,024,35,75,16,286,40,70,11,192,,83,22,106,*6B
$GLGSV,2,2,08,76,11,343,33,85,30,310,46,68,43,043,49,69,63,137,34*6D
$GAGSV,3,1,10,26,77,029,50,31,29,289,39,29,12,169,,13,29,087,39*6B
$GAGSV,3,2,10,23,24,232,,07,39,118,32,08,29,055,40,14,40,160,*69
$GAGSV,3,3,10,33,41,287,30,24,06,335,21*64
$GBGSV,5,1,19,27,76,299,49,32,14,203,40,60,11,109,,13,17,054,21*65
$GBGSV,5,2,19,05,24,128,,14,25,045,39,30,25,303,44,33,49,061,47*68
$GBGSV,5,3,19,41,61,163,44,28,54,124,37,57,58,262,,02,09,105,*6D
$GBGSV,5,4,19,36,05,301,32,39,09,073,,16,05,082,,42,02,036,*6F
$GBGSV,5,5,19,45,01,345,,08,08,051,,06,04,085,*5A
$GPGGA,221532.00,,,,,0,00,,,M,,M,,*4D
$PTNL,GGK,221532.00,010125,4742.4457645,N,01617.9730535,E,1,18,1.3,EHT668.7838,M*47
$GPGGQ,221532.00,010125,4742.4457645,N,01617.9730535,E,1,18,5.093,625.5727,M*3E
$GPGFA,221532.00,24.863,35.077,2.615,0.894,24.599,4.278,,VVV*34
$GPLLK,221532.00,010125,,M,,M,1,18,1.5,,M*03
$GNGMP,221532.00,,,,,DAAA,18,0.7,,,,*5D
$GPGMP,221532.00,,,,,,04,,,,1.8,123*75
$GLGMP,221532.00,,,,,,03,,,,,*79
$GAGMP,221532.00,,,,,,04,,,,,*73
$GBGMP,221532.00,,,,,,07,,,,,*73
$PSSN,SNC,[0,339350000,2347]*4B
$GPZDA,221537.00,01,01,2025,,*63
$GPDTM,W84,,00.0000000,N,00.0000000,E,00.0000000,W84*5F
$GPRMC,221537.00,A,4742.4457666,N,01617.9730338,E,0.0,,010125,5.1,E,D*18
$GPGLL,4742.4457666,N,01617.9730338,E,221537.00,A,D*69
$GPGGA,221537.00,4742.4457666,N,01617.9730338,E,2,19,0.7,625.5778,M,43.2111,M,2.8,0123*49
$GNGNS,221537.00,4742.4457666,N,01617.9730338,E,DAAA,19,0.7,625.5778,43.2111,,*5F
$GPGNS,221537.00,,,,,,04,,,,2.8,123*73
$GLGNS,221537.00,,,,,,03,,,,,*7C
$GAGNS,221537.00,,,,,,05,,,,,*77
$GBGNS,221537.00,,,,,,07,,,,,*76
$GPLLQ,221537.00,010125,,M,,M,1,19,4.174,,M*1F
$GPVTG,,T,,M,0.00,N,0.01,K,D*27
$GPHDT,,T*1B
$GPTHS,,V*0E
$GPROT,,V*08
$PSSN,HRP,221537.00,010125,,,,,,,00,0,,*61
$PTNL,AVR,221537.00,,Yaw,,Tilt,,,,0,,00*37
$GPGSA,A,3,02,08,21,32,,,,,,,,,1.3,0.7,1.0*3E
$GPGSA,A,3,68,75,85,,,,,,,,,,1.3,0.7,1.0*37
$GPGSA,A,3,07,08,13,26,31,,,,,,,,1.3,0.7,1.0*3D
$GPGSA,A,3,14,27,28,30,32,33,41,,,,,,1.3,0.7,1.0*3B
$GPGST,221537.00,3.415,2.108,0.729,24.874,1.936,1.106,3.528*69
$GPGBS,221537.00,9.042,4.628,15.664,02,0.0001,-1.398,0.687*4C
$GPGRS,221537.00,1,-1.4,-0.1,0.7,1.2,,,,,,,,*4E
$GPGRS,221537.00,1,6.1,-2.7,5.8,,,,,,,,,*42
$GPGRS,221537.00,1,-2.5,-2.5,5.9,-0.3,0.5,,,,,,,*47
$GPGRS,221537.00,1,1.5,-0.2,-0.2,1.1,-1.4,-2.1,0.1,,,,,*63
$GPGSV,4,1,15,08,67,208,50,14,14,319,24,01,38,283,,10,46,054,38*79
$GPGSV,4,2,15,27,40,162,34,02,43,292,40,32,43,110,47,21,64,301,39*7C
$GPGSV,4,3,15,24,01,032,,03,09,230,,23,06,053,,36,35,170,42*75
$GPGSV,4,4,15,34,31,208,,49,34,195,37,61,03,257,*45
$GLGSV,2,1,08,84,72,024,35,75,16,286,42,70,11,192,,83,22,107,*68
$GLGSV,2,2,08,76,11,343,34,85,30,310,47,68,42,043,50,69,63,137,40*61
$GAGSV,3,1,10,26,77,029,50,31,29,289,39,29,12,169,,13,29,087,39*6B
$GAGSV,3,2,10,23,24,232,,07,39,118,42,08,29,054,39,14,40,160,*61
$GAGSV,3,3,10,33,41,287,42,24,06,335,25*65
$GBGSV,5,1,19,27,76,299,49,32,14,203,40,60,11,109,,13,17,054,28*6C
$GBGSV,5,2,19,05,24,128,,14,25,045,38,30,25,303,43,33,49,061,47*6E
$GBGSV,5,3,19,41,61,163,42,28,54,124,40,57,58,262,,02,09,105,*6B
$GBGSV,5,4,19,36,05,300,31,39,09,073,,16,05,082,,42,02,036,*6D
$GBGSV,5,5,19,45,01,345,,08,08,051,,06,04,085,*5A
$GPGGA,221537.00,,,,,0,00,,,M,,M,,*48
$PTNL,GGK,221537.00,010125,4742.4457666,N,01617.9730338,E,1,19,1.3,EHT668.7889,M*43
$GPGGQ,221537.00,010125,4742.4457666,N,01617.9730338,E,1,19,4.174,625.5778,M*33
$GPGFA,221537.00,20.038,28.931,2.108,0.729,24.874,3.528,,VVV*3D
$GPLLK,221537.00,010125,,M,,M,1,19,1.4,,M*06
$GNGMP,221537.00,,,,,DAAA,19,0.7,,,,*59
$GPGMP,221537.00,,,,,,04,,,,2.8,123*73
$GLGMP,221537.00,,,,,,03,,,,,*7C
$GAGMP,221537.00,,,,,,05,,,,,*77
$GBGMP,221537.00,,,,,,07,,,,,*76
$PSSN,SNC,[0,339355000,2347]*4E
$GPZDA,221542.00,01,01,2025,,*61
$GPDTM,W84,,00.0000000,N,00.0000000,E,00.0000000,W84*5F
$GPRMC,221542.00,A,4742.4457632,N,01617.9730249,E,0.0,,010125,5.1,E,D*1C
$GPGLL,4742.4457632,N,01617.9730249,E,221542.00,A,D*6D
$GPGGA,221542.00,4742.4457632,N,01617.9730249,E,2,19,0.7,625.5684,M,43.2111,M,2.8,0123*4F
$GNGNS,221542.00,4742.4457632,N,01617.9730249,E,DAAA,19,0.7,625.5684,43.2111,,*59
$GPGNS,221542.00,,,,,,05,,,,2.8,123*70
$GLGNS,221542.00,,,,,,03,,,,,*7E
$GAGNS,221542.00,,,,,,04,,,,,*74
$GBGNS,221542.00,,,,,,07,,,,,*74
$GPLLQ,221542.00,010125,,M,,M,1,19,3.990,,M*18
$GPVTG,,T,,M,0.00,N,0.00,K,D*26
$GPHDT,,T*1B
$GPTHS,,V*0E
$GPROT,,V*08
$PSSN,HRP,221542.00,010125,,,,,,,00,0,,*63
$PTNL,AVR,221542.00,,Yaw,,Tilt,,,,0,,00*35
$GPGSA,A,3,02,08,10,21,32,,,,,,,,1.3,0.7,1.1*3E
$GPGSA,A,3,68,75,85,,,,,,,,,,1.3,0.7,1.1*36
$GPGSA,A,3,08,13,26,31,,,,,,,,,1.3,0.7,1.1*3B
$GPGSA,A,3,14,27,28,30,32,33,41,,,,,,1.3,0.7,1.1*3A
$GPGST,221542.00,3.647,1.229,0.717,7.989,1.221,0.730,3.728*5F
$GPGBS,221542.00,5.230,3.626,14.927,21,0.0001,1.613,0.626*64
$GPGRS,221542.00,1,-0.8,-1.0,0.0,1.6,-0.0,,,,,,,*41
$GPGRS,221542.00,1,8.9,-2.1,4.8,,,,,,,,,*41
$GPGRS,221542.00,1,-3.3,5.2,-0.6,-0.1,,,,,,,,*61
$GPGRS,221542.00,1,-0.7,-0.7,-0.9,1.3,-1.7,-2.2,0.3,,,,,*41
$GPGSV,4,1,15,08,67,208,49,14,14,319,28,01,38,283,,10,46,054,36*73
$GPGSV,4,2,15,27,40,162,30,02,43,292,40,32,43,110,47,21,64,301,39*78
$GPGSV,4,3,15,24,01,032,,03,09,230,,23,06,053,,36,35,170,42*75
$GPGSV,4,4,15,34,31,208,,49,34,195,37,61,03,257,*45
$GLGSV,2,1,08,84,72,024,34,75,16,286,39,70,11,192,,83,22,107,*65
$GLGSV,2,2,08,76,11,343,,85,30,310,47,68,42,043,50,69,63,137,39*68
$GAGSV,3,1,10,26,77,029,50,31,29,289,39,29,12,169,,13,29,087,38*6A
$GAGSV,3,2,10,23,24,232,,07,39,118,32,08,29,054,38,14,40,160,*67
$GAGSV,3,3,10,33,41,287,27,24,06,335,27*64
$GBGSV,5,1,19,27,76,299,48,32,14,203,40,60,11,109,,13,16,054,29*6D
$GBGSV,5,2,19,05,24,128,,14,25,045,38,30,25,303,43,33,49,061,47*6E
$GBGSV,5,3,19,41,61,163,42,28,54,124,40,57,58,262,,02,09,105,*6B
$GBGSV,5,4,19,36,05,300,33,39,09,073,,16,05,082,,42,02,036,*6F
$GBGSV,5,5,19,45,01,345,,08,08,051,,06,04,085,*5A
$GPGGA,221542.00,,,,,0,00,,,M,,M,,*4A
$PTNL,GGK,221542.00,010125,4742.4457632,N,01617.9730249,E,1,19,1.3,EHT668.7795,M*45
$GPGGQ,221542.00,010125,4742.4457632,N,01617.9730249,E,1,19,3.990,625.5684,M*30
$GPGFA,221542.00,11.687,30.568,1.229,0.717,7.989,3.728,,VVV*08
$GPLLK,221542.00,010125,,M,,M,1,19,1.5,,M*05
$GNGMP,221542.00,,,,,DAAA,19,0.7,,,,*5B
$GPGMP,221542.00,,,,,,05,,,,2.8,123*70
$GLGMP,221542.00,,,,,,03,,,,,*7E
$GAGMP,221542.00,,,,,,04,,,,,*74
$GBGMP,221542.00,,,,,,07,,,,,*74
$PSSN,SNC,[0,339360000,2347]*48
$GPZDA,221547.00,01,01,2025,,*64
$GPDTM,W84,,00.0000000,N,00.0000000,E,00.0000000,W84*5F
$GPRMC,221547.00,A,4742.4457547,N,01617.9730197,E,0.0,,010125,5.1,E,D*18
$GPGLL,4742.4457547,N,01617.9730197,E,221547.00,A,D*69
$GPGGA,221547.00,4742.4457547,N,01617.9730197,E,2,20,0.7,625.5590,M,43.2111,M,2.8,0123*47
$GNGNS,221547.00,4742.4457547,N,01617.9730197,E,DAAA,20,0.7,625.5590,43.2111,,*51
$GPGNS,221547.00,,,,,,04,,,,2.8,123*74
$GLGNS,221547.00,,,,,,04,,,,,*7C
$GAGNS,221547.00,,,,,,05,,,,,*70
$GBGNS,221547.00,,,,,,07,,,,,*71
$GPLLQ,221547.00,010125,,M,,M,1,20,5.101,,M*11
$GPVTG,,T,,M,0.00,N,0.01,K,D*27
$GPHDT,,T*1B
$GPTHS,,V*0E
$GPROT,,V*08
$PSSN,HRP,221547.00,010125,,,,,,,00,0,,*66
$PTNL,AVR,221547.00,,Yaw,,Tilt,,,,0,,00*30
$GPGSA,A,3,02,08,21,32,,,,,,,,,1.2,0.7,1.0*3F
$GPGSA,A,3,68,69,75,85,,,,,,,,,1.2,0.7,1.0*39
$GPGSA,A,3,08,13,26,31,33,,,,,,,,1.2,0.7,1.0*3B
$GPGSA,A,3,14,27,28,30,32,33,41,,,,,,1.2,0.7,1.0*3A
$GPGST,221547.00,4.678,2.579,0.910,25.017,2.368,1.367,4.306*60
$GPGBS,221547.00,9.140,4.389,15.064,21,0.0001,1.743,0.635*67
$GPGRS,221547.00,1,-1.6,-0.7,1.7,0.1,,,,,,,,*4E
$GPGRS,221547.00,1,7.7,-7.5,-6.1,4.2,,,,,,,,*4A
$GPGRS,221547.00,1,-3.1,5.9,-0.3,0.2,7.3,,,,,,,*6C
$GPGRS,221547.00,1,0.7,-0.3,-0.6,2.3,-1.3,-1.6,-0.1,,,,,*4D
$GPGSV,4,1,15,08,67,208,49,14,14,319,32,01,38,283,,10,46,054,36*78
$GPGSV,4,2,15,27,40,162,31,02,43,292,35,32,43,110,47,21,64,301,39*7B
$GPGSV,4,3,15,24,01,032,,03,09,230,,23,06,053,,36,35,170,42*75
$GPGSV,4,4,15,34,31,208,,49,34,195,38,61,03,257,*4A
$GLGSV,2,1,08,84,72,024,33,75,16,286,35,70,11,192,,83,22,107,*6E
$GLGSV,2,2,08,76,11,343,23,85,30,310,47,68,42,043,49,69,64,137,36*69
$GAGSV,3,1,10,26,77,029,50,31,29,289,38,29,12,169,,13,29,087,37*64
$GAGSV,3,2,10,23,24,232,,07,39,118,31,08,29,054,36,14,40,160,*6A
$GAGSV,3,3,10,33,41,287,43,24,06,335,27*66
$GBGSV,5,1,19,27,76,299,48,32,14,203,39,60,11,109,,13,16,054,28*62
$GBGSV,5,2,19,05,24,128,,14,25,045,37,30,25,303,42,33,49,061,47*60
$GBGSV,5,3,19,41,61,163,41,28,54,124,41,57,59,262,,02,09,105,*68
$GBGSV,5,4,19,36,05,300,34,39,09,073,,16,05,082,,42,01,036,*6B
$GBGSV,5,5,19,45,01,345,,08,08,051,,06,04,085,*5A
$GPGGA,221547.00,,,,,0,00,,,M,,M,,*4F
$PTNL,GGK,221547.00,010125,4742.4457547,N,01617.9730197,E,1,20,1.2,EHT668.7701,M*47
$GPGGQ,221547.00,010125,4742.4457547,N,01617.9730197,E,1,20,5.101,625.5590,M*3E
$GPGFA,221547.00,24.517,35.313,2.579,0.910,25.017,4.306,,VVV*37
$GPLLK,221547.00,010125,,M,,M,1,20,1.4,,M*0B
$GNGMP,221547.00,,,,,DAAA,20,0.7,,,,*54
$GPGMP,221547.00,,,,,,04,,,,2.8,123*74
$GLGMP,221547.00,,,,,,04,,,,,*7C
$GAGMP,221547.00,,,,,,05,,,,,*70
$GBGMP,221547.00,,,,,,07,,,,,*71
$PSSN,SNC,[0,339365000,2347]*4D
$GPZDA,221552.00,01,01,2025,,*60
$GPDTM,W84,,00.0000000,N,00.0000000,E,00.0000000,W84*5F
$GPRMC,221552.00,A,4742.4457500,N,01617.9730125,E,0.0,,010125,5.1,E,D*16
$GPGLL,4742.4457500,N,01617.9730125,E,221552.00,A,D*67
$GPGGA,221552.00,4742.4457500,N,01617.9730125,E,2,16,0.7,625.5503,M,43.2111,M,1.8,0123*45
$GNGNS,221552.00,4742.4457500,N,01617.9730125,E,DAAA,16,0.7,625.5503,43.2111,,*50
$GPGNS,221552.00,,,,,,04,,,,1.8,123*73
$GLGNS,221552.00,,,,,,02,,,,,*7E
$GAGNS,221552.00,,,,,,03,,,,,*72
$GBGNS,221552.00,,,,,,07,,,,,*75
$GPLLQ,221552.00,010125,,M,,M,1,16,3.769,,M*1E
$GPVTG,,T,,M,0.00,N,0.01,K,D*27
$GPHDT,,T*1B
$GPTHS,,V*0E
$GPROT,,V*08
$PSSN,HRP,221552.00,010125,,,,,,,00,0,,*62
$PTNL,AVR,221552.00,,Yaw,,Tilt,,,,0,,00*34
$GPGSA,A,3,02,08,21,32,,,,,,,,,1.4,0.7,1.2*3B
$GPGSA,A,3,68,85,,,,,,,,,,,1.4,0.7,1.2*30
$GPGSA,A,3,08,26,31,,,,,,,,,,1.4,0.7,1.2*3D
$GPGSA,A,3,14,27,28,30,32,33,41,,,,,,1.4,0.7,1.2*3E
$GPGST,221552.00,2.547,1.895,0.648,25.228,1.736,0.998,3.193*63
$GPGBS,221552.00,9.541,4.658,16.705,08,0.0001,-1.049,0.602*43
$GPGRS,221552.00,1,0.4,-1.0,1.0,0.5,,,,,,,,*61
$GPGRS,221552.00,1,1.5,2.2,,,,,,,,,,*49
$GPGRS,221552.00,1,-3.6,-0.8,-4.0,,,,,,,,,*47
$GPGRS,221552.00,1,1.2,-0.7,-0.9,1.9,-1.2,-2.8,-1.9,,,,,*4A
$GPGSV,4,1,15,08,67,208,49,14,14,319,34,01,38,283,,10,46,054,41*7E
$GPGSV,4,2,15,27,40,162,32,02,43,292,37,32,43,110,47,21,64,301,39*7A
$GPGSV,4,3,15,24,01,032,,03,09,230,,23,06,053,,36,35,170,42*75
$GPGSV,4,4,15,34,31,208,,49,34,195,37,61,03,257,*45
$GLGSV,2,1,08,84,72,024,33,75,16,286,34,70,11,192,,83,22,107,*6F
$GLGSV,2,2,08,76,11,343,21,85,30,310,46,68,42,043,48,69,64,136,33*6F
$GAGSV,3,1,10,26,77,029,50,31,29,289,36,29,12,169,,13,29,087,34*69
$GAGSV,3,2,10,23,24,232,,14,40,160,,08,29,054,35,07,39,118,32*6A
$GAGSV,3,3,10,33,41,287,34,24,06,335,27*66
$GBGSV,5,1,19,27,76,299,47,32,14,203,39,60,11,109,,13,16,054,28*6D
$GBGSV,5,2,19,05,24,128,,14,25,045,37,30,25,303,42,33,49,060,48*6E
$GBGSV,5,3,19,41,61,163,41,28,54,124,42,57,59,262,,02,09,105,*6B
$GBGSV,5,4,19,36,05,300,35,39,09,073,,16,05,082,,42,01,036,*6A
$GBGSV,5,5,19,45,01,345,,08,08,051,,06,04,085,*5A
$GPGGA,221552.00,,,,,0,00,,,M,,M,,*4B
$PTNL,GGK,221552.00,010125,4742.4457500,N,01617.9730125,E,1,16,1.4,EHT668.7613,M*48
$GPGGQ,221552.00,010125,4742.4457500,N,01617.9730125,E,1,16,3.769,625.5503,M*31
$GPGFA,221552.00,18.018,26.184,1.895,0.648,25.228,3.193,,VVV*31
$GPLLK,221552.00,010125,,M,,M,1,16,1.6,,M*08
$GNGMP,221552.00,,,,,DAAA,16,0.7,,,,*55
$GPGMP,221552.00,,,,,,04,,,,1.8,123*73
$GLGMP,221552.00,,,,,,02,,,,,*7E
$GAGMP,221552.00,,,,,,03,,,,,*72
$GBGMP,221552.00,,,,,,07,,,,,*75
$PSSN,SNC,[0,339370000,2347]*49
$GPZDA,221557.00,01,01,2025,,*65
$GPDTM,W84,,00.0000000,N,00.0000000,E,00.0000000,W84*5F
$GPRMC,221557.00,A,4742.4457434,N,01617.9730211,E,0.0,,010125,5.1,E,D*11
$GPGLL,4742.4457434,N,01617.9730211,E,221557.00,A,D*60
$GPGGA,221557.00,4742.4457434,N,01617.9730211,E,2,17,0.8,625.5622,M,43.2111,M,2.8,0123*4F
$GNGNS,221557.00,4742.4457434,N,01617.9730211,E,DAAA,17,0.8,625.5622,43.2111,,*59
$GPGNS,221557.00,,,,,,04,,,,2.8,123*75
$GLGNS,221557.00,,,,,,03,,,,,*7A
$GAGNS,221557.00,,,,,,03,,,,,*77
$GBGNS,221557.00,,,,,,07,,,,,*70
$GPLLQ,221557.00,010125,,M,,M,1,17,4.920,,M*1E
$GPVTG,,T,,M,0.00,N,0.01,K,D*27
$GPHDT,,T*1B
$GPTHS,,V*0E
$GPROT,,V*08
$PSSN,HRP,221557.00,010125,,,,,,,00,0,,*67
$PTNL,AVR,221557.00,,Yaw,,Tilt,,,,0,,00*31
$GPGSA,A,3,02,08,21,32,,,,,,,,,1.4,0.8,1.2*34
$GPGSA,A,3,68,69,85,,,,,,,,,,1.4,0.8,1.2*30
$GPGSA,A,3,26,31,33,,,,,,,,,,1.4,0.8,1.2*3A
$GPGSA,A,3,14,27,28,30,32,33,41,,,,,,1.4,0.8,1.2*31
$GPGST,221557.00,4.153,2.480,0.845,25.501,2.268,1.312,4.164*6E
$GPGBS,221557.00,9.578,4.843,16.924,02,0.0001,1.920,0.685*6B
$GPGRS,221557.00,1,1.9,-1.2,0.4,-0.2,,,,,,,,*45
$GPGRS,221557.00,1,-1.8,-8.2,0.5,,,,,,,,,*60
$GPGRS,221557.00,1,-1.5,-1.0,7.1,,,,,,,,,*65
$GPGRS,221557.00,1,-0.9,-1.9,-0.3,0.9,-1.9,-3.9,-4.4,,,,,*6F
$GPGSV,4,1,15,08,67,208,49,14,14,319,34,01,38,283,,10,46,054,28*71
$GPGSV,4,2,15,27,40,162,34,02,43,292,41,32,43,110,48,21,64,301,39*72
$GPGSV,4,3,15,24,01,032,,03,09,230,,23,06,053,,36,35,170,42*75
$GPGSV,4,4,15,34,31,208,,49,34,195,37,61,03,257,*45
$GLGSV,2,1,08,84,72,024,35,75,16,286,32,70,11,192,,83,22,107,*6F
$GLGSV,2,2,08,76,11,343,35,85,30,310,45,68,42,042,47,69,64,136,41*62
$GAGSV,3,1,10,26,77,030,50,31,29,289,37,29,12,169,,13,29,087,33*67
$GAGSV,3,2,10,23,24,232,,14,40,160,,08,29,054,35,07,39,118,34*6C
$GAGSV,3,3,10,33,41,287,36,24,06,335,24*67
$GBGSV,5,1,19,27,76,299,47,32,14,203,39,60,11,109,,13,16,054,28*6D
$GBGSV,5,2,19,05,24,128,,14,25,045,37,30,25,303,41,33,49,060,48*6D
$GBGSV,5,3,19,41,61,163,41,28,54,124,41,57,59,262,,02,09,105,*68
$GBGSV,5,4,19,36,05,300,29,39,09,073,,16,05,082,,42,01,036,*67
$GBGSV,5,5,19,45,01,345,,08,08,051,,06,04,085,*5A
$GPGGA,221557.00,,,,,0,00,,,M,,M,,*4E
$PTNL,GGK,221557.00,010125,4742.4457434,N,01617.9730211,E,1,17,1.4,EHT668.7733,M*4D
$GPGGQ,221557.00,010125,4742.4457434,N,01617.9730211,E,1,17,4.920,625.5622,M*33
$GPGFA,221557.00,23.582,34.145,2.480,0.845,25.501,4.164,,VVV*3F
$GPLLK,221557.00,010125,,M,,M,1,17,1.7,,M*0D
$GNGMP,221557.00,,,,,DAAA,17,0.8,,,,*5E
$GPGMP,221557.00,,,,,,04,,,,2.8,123*75
$GLGMP,221557.00,,,,,,03,,,,,*7A
$GAGMP,221557.00,,,,,,03,,,,,*77
$GBGMP,221557.00,,,,,,07,,,,,*70
$PSSN,SNC,[0,339375000,2347]*4C
$GPZDA,221602.00,01,01,2025,,*66
$GPDTM,W84,,00.0000000,N,00.0000000,E,00.0000000,W84*5F
$GPRMC,221602.00,A,4742.4457314,N,01617.9730369,E,0.0,,010125,5.1,E,D*19
$GPGLL,4742.4457314,N,01617.9730369,E,221602.00,A,D*68
$GPGGA,221602.00,4742.4457314,N,01617.9730369,E,2,21,0.7,625.5662,M,43.2111,M,2.8,0123*49
$GNGNS,221602.00,4742.4457314,N,01617.9730369,E,DAAA,21,0.7,625.5662,43.2111,,*5F
$GPGNS,221602.00,,,,,,04,,,,2.8,123*76
$GLGNS,221602.00,,,,,,05,,,,,*7F
$GAGNS,221602.00,,,,,,05,,,,,*72
$GBGNS,221602.00,,,,,,07,,,,,*73
$GPLLQ,221602.00,010125,,M,,M,1,21,5.489,,M*17
$GPVTG,,T,,M,0.00,N,0.00,K,D*26
$GPHDT,,T*1B
$GPTHS,,V*0E
$GPROT,,V*08
$PSSN,HRP,221602.00,010125,,,,,,,00,0,,*64
$PTNL,AVR,221602.00,,Yaw,,Tilt,,,,0,,00*32
$GPGSA,A,3,02,08,21,32,,,,,,,,,1.2,0.7,1.0*3F
$GPGSA,A,3,68,69,75,76,85,,,,,,,,1.2,0.7,1.0*38
$GPGSA,A,3,07,08,26,31,33,,,,,,,,1.2,0.7,1.0*3E
$GPGSA,A,3,14,27,28,30,32,33,41,,,,,,1.2,0.7,1.0*3A
$GPGST,221602.00,4.818,2.774,0.975,25.275,2.543,1.477,4.635*6C
$GPGBS,221602.00,8.756,4.664,15.086,08,0.0001,-1.730,0.635*4D
$GPGRS,221602.00,1,1.6,-1.7,1.4,-0.6,,,,,,,,*49
$GPGRS,221602.00,1,-2.0,-2.9,-7.0,-8.7,-3.1,,,,,,,*4B
$GPGRS,221602.00,1,0.0,-4.4,-2.2,-0.8,9.5,,,,,,,*4C
$GPGRS,221602.00,1,-1.5,-2.4,0.4,1.1,-1.6,-4.5,-4.7,,,,,*4B
$GPGSV,4,1,15,08,67,207,48,14,14,319,30,01,38,284,,10,46,054,25*71
$GPGSV,4,2,15,27,40,162,34,02,43,292,44,32,43,110,48,21,64,301,39*77
$GPGSV,4,3,15,24,01,032,,03,09,230,,23,06,053,,36,35,170,42*75
$GPGSV,4,4,15,34,31,208,,49,34,195,38,61,03,257,*4A
$GLGSV,2,1,08,84,72,024,35,75,16,286,36,70,11,192,,83,22,107,*6B
$GLGSV,2,2,08,76,11,343,35,85,30,310,43,68,42,042,47,69,64,136,43*66
$GAGSV,3,1,10,26,77,030,50,31,29,289,39,29,12,169,,13,29,087,30*6A
$GAGSV,3,2,10,23,24,232,,14,40,160,,08,29,054,35,07,39,118,37*6F
$GAGSV,3,3,10,33,41,287,37,24,06,335,31*62
$GBGSV,5,1,19,27,76,299,47,32,14,203,38,60,11,109,,13,16,054,*66
$GBGSV,5,2,19,05,24,128,,14,25,045,36,30,25,303,41,33,48,060,49*6C
$GBGSV,5,3,19,41,61,163,43,28,54,124,42,57,59,262,,02,09,105,*69
$GBGSV,5,4,19,36,05,300,36,39,09,073,,16,05,082,,42,01,036,*69
$GBGSV,5,5,19,45,01,345,,08,08,051,,06,04,085,*5A
$GPGGA,221602.00,,,,,0,00,,,M,,M,,*4D
$PTNL,GGK,221602.00,010125,4742.4457314,N,01617.9730369,E,1,21,1.2,EHT668.7772,M*43
$GPGGQ,221602.00,010125,4742.4457314,N,01617.9730369,E,1,21,5.489,625.5662,M*35
$GPGFA,221602.00,26.376,38.003,2.774,0.975,25.275,4.635,,VVV*36
$GPLLK,221602.00,010125,,M,,M,1,21,1.4,,M*08
$GNGMP,221602.00,,,,,DAAA,21,0.7,,,,*57
$GPGMP,221602.00,,,,,,04,,,,2.8,123*76
$GLGMP,221602.00,,,,,,05,,,,,*7F
$GAGMP,221602.00,,,,,,05,,,,,*72
$GBGMP,221602.00,,,,,,07,,,,,*73
$PSSN,SNC,[0,339380000,2347]*46
$GPZDA,221607.00,01,01,2025,,*63
$GPDTM,W84,,00.0000000,N,00.0000000,E,00.0000000,W84*5F
$GPRMC,221607.00,A,4742.4457229,N,01617.9730487,E,0.0,,010125,5.1,E,D*14
$GPGLL,4742.4457229,N,01617.9730487,E,221607.00,A,D*65
$GPGGA,221607.00,4742.4457229,N,01617.9730487,E,2,21,0.7,625.5694,M,43.2111,M,3.3,0123*47
$GNGNS,221607.00,4742.4457229,N,01617.9730487,E,DAAA,21,0.7,625.5694,43.2111,,*5B
$GPGNS,221607.00,,,,,,04,,,,3.3,123*79
$GLGNS,221607.00,,,,,,05,,,,,*7A
$GAGNS,221607.00,,,,,,05,,,,,*77
$GBGNS,221607.00,,,,,,07,,,,,*76
$GPLLQ,221607.00,010125,,M,,M,1,21,5.859,,M*13
$GPVTG,,T,,M,0.01,N,0.01,K,D*26
$GPHDT,,T*1B
$GPTHS,,V*0E
$GPROT,,V*08
$PSSN,HRP,221607.00,010125,,,,,,,00,0,,*61
$PTNL,AVR,221607.00,,Yaw,,Tilt,,,,0,,00*37
$GPGSA,A,3,02,08,10,32,,,,,,,,,1.3,0.7,1.1*3D
$GPGSA,A,3,68,69,75,84,85,,,,,,,,1.3,0.7,1.1*35
$GPGSA,A,3,07,08,26,31,33,,,,,,,,1.3,0.7,1.1*3E
$GPGSA,A,3,14,27,28,30,32,33,41,,,,,,1.3,0.7,1.1*3A
$GPGST,221607.00,3.284,2.492,0.823,16.355,2.403,1.056,5.238*61
$GPGBS,221607.00,7.501,3.687,16.537,10,0.0001,-2.495,0.745*41
$GPGRS,221607.00,1,1.0,-1.2,-2.5,0.3,,,,,,,,*48
$GPGRS,221607.00,1,-0.6,-0.1,-2.1,-5.7,-4.9,,,,,,,*46
$GPGRS,221607.00,1,0.8,-3.8,-1.8,-0.2,4.7,,,,,,,*46
$GPGRS,221607.00,1,-2.0,-1.8,2.1,2.5,-0.7,-4.0,-2.4,,,,,*47
$GPGSV,4,1,15,08,67,207,47,14,14,319,30,01,38,284,,10,46,054,45*78
$GPGSV,4,2,15,27,40,162,31,02,43,292,45,32,43,109,47,21,65,301,41*7A
$GPGSV,4,3,15,24,01,032,,03,09,230,,23,06,053,,36,35,170,42*75
$GPGSV,4,4,15,34,31,208,,49,34,195,37,61,03,257,*45
$GLGSV,2,1,08,84,72,025,35,75,16,286,40,70,11,192,,83,22,107,*6B
$GLGSV,2,2,08,76,11,343,32,85,30,310,43,68,42,042,47,69,64,136,44*66
$GAGSV,3,1,10,26,77,030,50,31,29,289,41,29,12,169,,13,29,087,20*64
$GAGSV,3,2,10,23,24,232,,14,40,160,,08,29,054,35,07,39,118,38*60
$GAGSV,3,3,10,33,41,287,37,24,06,335,34*67
$GBGSV,5,1,19,27,76,299,47,32,14,203,38,60,11,109,,13,16,054,28*6C
$GBGSV,5,2,19,05,24,128,,14,25,045,36,30,25,303,40,33,48,060,49*6D
$GBGSV,5,3,19,41,61,163,44,28,54,124,43,57,59,263,,02,09,105,*6E
$GBGSV,5,4,19,36,05,300,35,39,09,073,,16,05,082,,42,01,036,*6A
$GBGSV,5,5,19,45,01,345,,08,08,052,,06,04,085,*59
$GPGGA,221607.00,,,,,0,00,,,M,,M,,*48
$PTNL,GGK,221607.00,010125,4742.4457229,N,01617.9730487,E,1,21,1.3,EHT668.7804,M*41
$GPGGQ,221607.00,010125,4742.4457229,N,01617.9730487,E,1,21,5.859,625.5694,M*30
$GPGFA,221607.00,23.695,42.955,2.492,0.823,16.355,5.238,,VVV*3B
$GPLLK,221607.00,010125,,M,,M,1,21,1.5,,M*0C
$GNGMP,221607.00,,,,,DAAA,21,0.7,,,,*52
$GPGMP,221607.00,,,,,,04,,,,3.3,123*79
$GLGMP,221607.00,,,,,,05,,,,,*7A
$GAGMP,221607.00,,,,,,05,,,,,*77
$GBGMP,221607.00,,,,,,07,,,,,*76
$PSSN,SNC,[0,339385000,2347]*43
$GPZDA,221612.00,01,01,2025,,*67
$GPDTM,W84,,00.0000000,N,00.0000000,E,00.0000000,W84*5F
$GPRMC,221612.00,A,4742.4457157,N,01617.9730427,E,0.0,,010125,5.1,E,D*10
$GPGLL,4742.4457157,N,01617.9730427,E,221612.00,A,D*61
$GPGGA,221612.00,4742.4457157,N,01617.9730427,E,2,21,0.7,625.5784,M,43.2111,M,1.3,0123*41
$GNGNS,221612.00,4742.4457157,N,01617.9730427,E,DAAA,21,0.7,625.5784,43.2111,,*5F
$GPGNS,221612.00,,,,,,04,,,,1.3,123*7F
$GLGNS,221612.00,,,,,,05,,,,,*7E
$GAGNS,221612.00,,,,,,05,,,,,*73
$GBGNS,221612.00,,,,,,07,,,,,*72
$GPLLQ,221612.00,010125,,M,,M,1,21,5.444,,M*17
$GPVTG,,T,,M,0.01,N,0.01,K,D*26
$GPHDT,,T*1B
$GPTHS,,V*0E
$GPROT,,V*08
$PSSN,HRP,221612.00,010125,,,,,,,00,0,,*65
$PTNL,AVR,221612.00,,Yaw,,Tilt,,,,0,,00*33
$GPGSA,A,3,02,08,10,32,,,,,,,,,1.3,0.7,1.1*3D
$GPGSA,A,3,68,69,75,84,85,,,,,,,,1.3,0.7,1.1*35
$GPGSA,A,3,07,08,26,31,33,,,,,,,,1.3,0.7,1.1*3E
$GPGSA,A,3,14,27,28,30,32,33,41,,,,,,1.3,0.7,1.1*3A
$GPGST,221612.00,3.090,1.761,0.834,6.898,1.751,0.855,5.084*5B
$GPGBS,221612.00,7.138,3.536,17.034,10,0.0001,2.625,0.702*62
$GPGRS,221612.00,1,0.1,-1.4,2.6,0.2,,,,,,,,*65
$GPGRS,221612.00,1,-0.8,-2.7,2.7,-5.2,-2.7,,,,,,,*6E
$GPGRS,221612.00,1,-0.1,-5.0,-2.3,-0.7,0.0,,,,,,,*66
$GPGRS,221612.00,1,-2.0,-2.1,1.8,2.2,-2.0,-4.6,-1.5,,,,,*45
$GPGSV,4,1,15,08,67,207,46,14,14,319,,01,38,284,,10,46,054,46*79
$GPGSV,4,2,15,27,40,162,29,02,43,292,46,32,43,109,47,21,65,301,41*70
$GPGSV,4,3,15,24,01,032,,03,09,230,,23,06,053,,36,35,170,42*75
$GPGSV,4,4,15,34,31,208,,49,34,195,37,61,03,257,*45
$GLGSV,2,1,08,84,72,025,36,75,16,286,40,70,11,192,,83,22,107,*68
$GLGSV,2,2,08,76,11,343,32,85,30,310,42,68,42,042,46,69,64,136,42*60
$GAGSV,3,1,10,26,77,030,49,31,29,289,42,29,12,169,,13,29,087,33*6D
$GAGSV,3,2,10,23,24,232,,14,40,160,,08,29,054,35,07,39,118,39*61
$GAGSV,3,3,10,33,41,287,36,24,06,335,26*65
$GBGSV,5,1,19,27,76,299,48,32,14,203,38,60,11,109,,13,16,054,30*6A
$GBGSV,5,2,19,05,24,128,,14,25,045,36,30,25,303,39,33,48,060,49*63
$GBGSV,5,3,19,41,61,163,45,28,54,124,43,57,59,263,,02,09,105,*6F
$GBGSV,5,4,19,36,05,300,36,39,09,073,,16,05,082,,42,01,036,*69
$GBGSV,5,5,19,45,01,345,,08,08,052,,06,04,085,*59
$GPGGA,221612.00,,,,,0,00,,,M,,M,,*4C
$PTNL,GGK,221612.00,010125,4742.4457157,N,01617.9730427,E,1,21,1.3,EHT668.7894,M*4C
$GPGGQ,221612.00,010125,4742.4457157,N,01617.9730427,E,1,21,5.444,625.5784,M*34
$GPGFA,221612.00,16.744,41.687,1.761,0.834,6.898,5.084,,VVV*03
$GPLLK,221612.00,010125,,M,,M,1,21,1.5,,M*08
$GNGMP,221612.00,,,,,DAAA,21,0.7,,,,*56
$GPGMP,221612.00,,,,,,04,,,,1.3,123*7F
$GLGMP,221612.00,,,,,,05,,,,,*7E
$GAGMP,221612.00,,,,,,05,,,,,*73
$GBGMP,221612.00,,,,,,07,,,,,*72
$PSSN,SNC,[0,339390000,2347]*47
$GPZDA,221617.00,01,01,2025,,*62
$GPDTM,W84,,00.0000000,N,00.0000000,E,00.0000000,W84*5F
$GPRMC,221617.00,A,4742.4457130,N,01617.9730362,E,0.0,,010125,5.1,E,D*12
$GPGLL,4742.4457130,N,01617.9730362,E,221617.00,A,D*63
$GPGGA,221617.00,4742.4457130,N,01617.9730362,E,2,19,0.7,625.5912,M,43.2111,M,2.3,0123*4A
$GNGNS,221617.00,4742.4457130,N,01617.9730362,E,DAAA,19,0.7,625.5912,43.2111,,*57
$GPGNS,221617.00,,,,,,03,,,,2.3,123*7E
$GLGNS,221617.00,,,,,,05,,,,,*7B
$GAGNS,221617.00,,,,,,04,,,,,*77
$GBGNS,221617.00,,,,,,07,,,,,*77
$GPLLQ,221617.00,010125,,M,,M,1,19,4.750,,M*1E
$GPVTG,,T,,M,0.01,N,0.02,K,D*25
$GPHDT,,T*1B
$GPTHS,,V*0E
$GPROT,,V*08
$PSSN,HRP,221617.00,010125,,,,,,,00,0,,*60
$PTNL,AVR,221617.00,,Yaw,,Tilt,,,,0,,00*36
$GPGSA,A,3,02,08,32,,,,,,,,,,1.3,0.7,1.1*3C
$GPGSA,A,3,68,69,75,84,85,,,,,,,,1.3,0.7,1.1*35
$GPGSA,A,3,07,26,31,33,,,,,,,,,1.3,0.7,1.1*36
$GPGSA,A,3,14,27,28,30,32,33,41,,,,,,1.3,0.7,1.1*3A
$GPGST,221617.00,2.794,2.424,0.531,19.235,2.296,0.943,4.050*65
$GPGBS,221617.00,13.379,4.613,23.801,32,0.0001,1.256,0.751*5A
$GPGRS,221617.00,1,0.0,-0.7,1.3,,,,,,,,,*49
$GPGRS,221617.00,1,-0.9,-5.3,0.9,-4.9,-0.9,,,,,,,*63
$GPGRS,221617.00,1,0.2,-1.9,-0.4,0.8,,,,,,,,*49
$GPGRS,221617.00,1,1.4,-1.4,1.8,2.7,-1.8,-3.6,-1.2,,,,,*62
$GPGSV,4,1,15,08,67,207,46,14,14,319,,01,38,284,,10,46,054,46*79
$GPGSV,4,2,15,27,40,162,34,02,43,292,46,32,43,109,47,21,65,301,41*7C
$GPGSV,4,3,15,24,01,032,,03,09,230,,23,05,053,,36,35,170,42*76
$GPGSV,4,4,15,34,31,208,,49,34,195,37,61,03,257,*45
$GLGSV,2,1,08,84,72,025,36,75,16,285,39,70,11,192,,83,22,107,*65
$GLGSV,2,2,08,76,12,343,33,85,30,310,41,68,42,042,46,69,64,136,41*62
$GAGSV,3,1,10,26,77,030,49,31,29,289,43,29,12,169,,13,29,087,30*6F
$GAGSV,3,2,10,23,24,232,,14,40,160,,08,29,054,34,07,39,118,40*6E
$GAGSV,3,3,10,33,41,287,38,24,07,335,25*69
$GBGSV,5,1,19,27,76,299,48,32,14,203,38,60,11,109,,13,16,054,30*6A
$GBGSV,5,2,19,05,24,128,,14,25,045,36,30,25,303,37,33,48,060,49*6D
$GBGSV,5,3,19,41,61,163,44,28,54,124,42,57,59,263,,02,09,105,*6F
$GBGSV,5,4,19,36,05,300,35,39,09,073,,16,05,082,,42,01,036,*6A
$GBGSV,5,5,19,45,01,345,,08,08,052,,06,04,085,*59
$GPGGA,221617.00,,,,,0,00,,,M,,M,,*49
$PTNL,GGK,221617.00,010125,4742.4457130,N,01617.9730362,E,1,19,1.3,EHT668.8023,M*4E
$GPGGQ,221617.00,010125,4742.4457130,N,01617.9730362,E,1,19,4.750,625.5912,M*3B
$GPGFA,221617.00,23.051,33.213,2.424,0.531,19.235,4.050,,VVV*3D
$GPLLK,221617.00,010125,,M,,M,1,19,1.5,,M*06
$GNGMP,221617.00,,,,,DAAA,19,0.7,,,,*58
$GPGMP,221617.00,,,,,,03,,,,2.3,123*7E
$GLGMP,221617.00,,,,,,05,,,,,*7B
$GAGMP,221617.00,,,,,,04,,,,,*77
$GBGMP,221617.00,,,,,,07,,,,,*77
$PSSN,SNC,[0,339395000,2347]*42
$GPZDA,221622.00,01,01,2025,,*64
$GPDTM,W84,,00.0000000,N,00.0000000,E,00.0000000,W84*5F
$GPRMC,221622.00,A,4742.4457100,N,01617.9730153,E,0.0,,010125,5.1,E,D*17
$GPGLL,4742.4457100,N,01617.9730153,E,221622.00,A,D*66
$GPGGA,221622.00,4742.4457100,N,01617.9730153,E,2,22,0.6,625.6006,M,43.2111,M,2.8,0123*42
$GNGNS,221622.00,4742.4457100,N,01617.9730153,E,DAAA,22,0.6,625.6006,43.2111,,*54
$GPGNS,221622.00,,,,,,05,,,,2.8,123*75
$GLGNS,221622.00,,,,,,06,,,,,*7E
$GAGNS,221622.00,,,,,,04,,,,,*71
$GBGNS,221622.00,,,,,,07,,,,,*71
$GPLLQ,221622.00,010125,,M,,M,1,22,3.969,,M*13
$GPVTG,,T,,M,0.01,N,0.01,K,D*26
$GPHDT,,T*1B
$GPTHS,,V*0E
$GPROT,,V*08
$PSSN,HRP,221622.00,010125,,,,,,,00,0,,*66
$PTNL,AVR,221622.00,,Yaw,,Tilt,,,,0,,00*30
$GPGSA,A,3,02,08,10,27,32,,,,,,,,1.2,0.6,1.0*39
$GPGSA,A,3,68,69,75,76,84,85,,,,,,,1.2,0.6,1.0*35
$GPGSA,A,3,07,26,31,33,,,,,,,,,1.2,0.6,1.0*37
$GPGSA,A,3,14,27,28,30,32,33,41,,,,,,1.2,0.6,1.0*3B
$GPGST,221622.00,3.394,1.033,0.816,18.368,1.014,0.840,3.744*6B
$GPGBS,221622.00,4.286,3.570,16.253,10,0.0001,2.125,0.733*61
$GPGRS,221622.00,1,-1.3,-0.9,2.1,0.8,0.5,,,,,,,*62
$GPGRS,221622.00,1,-1.9,-4.9,-4.0,-3.7,-6.0,-4.1,,,,,,*4F
$GPGRS,221622.00,1,-0.7,-2.3,-1.3,0.9,,,,,,,,*69
$GPGRS,221622.00,1,3.0,-1.7,-0.4,2.0,-3.1,-3.5,-2.8,,,,,*47
$GPGSV,4,1,15,08,67,207,46,14,14,319,31,01,38,284,,10,46,054,45*78
$GPGSV,4,2,15,27,40,162,35,02,43,292,46,32,43,109,47,21,65,301,40*7C
$GPGSV,4,3,15,24,01,032,,03,09,230,,23,05,053,,36,35,170,42*76
$GPGSV,4,4,15,34,31,208,,49,34,195,37,61,03,257,*45
$GLGSV,2,1,08,84,72,025,35,75,16,285,39,70,11,192,,83,22,107,*66
$GLGSV,2,2,08,76,12,342,37,85,30,310,41,68,42,042,46,69,64,136,41*67
$GAGSV,3,1,10,26,77,030,49,31,29,289,43,29,12,169,,13,29,087,32*6D
$GAGSV,3,2,10,23,24,232,,14,40,160,,08,29,054,34,07,39,118,41*6F
$GAGSV,3,3,10,33,41,287,37,24,07,335,25*66
$GBGSV,5,1,19,27,76,299,47,32,14,203,38,60,11,109,,13,16,054,30*65
$GBGSV,5,2,19,05,24,128,,14,24,045,36,30,25,303,36,33,48,060,49*6D
$GBGSV,5,3,19,41,61,163,44,28,54,124,42,57,59,263,,02,09,105,*6F
$GBGSV,5,4,19,36,05,300,35,39,09,073,,16,05,082,,42,01,036,*6A
$GBGSV,5,5,19,45,01,345,,08,08,052,,06,04,085,*59
$GPGGA,221622.00,,,,,0,00,,,M,,M,,*4F
$PTNL,GGK,221622.00,010125,4742.4457100,N,01617.9730153,E,1,22,1.2,EHT668.8117,M*44
$GPGGQ,221622.00,010125,4742.4457100,N,01617.9730153,E,1,22,3.969,625.6006,M*3A
$GPGFA,221622.00,9.822,30.702,1.033,0.816,18.368,3.744,,VVV*0D
$GPLLK,221622.00,010125,,M,,M,1,22,1.4,,M*09
$GNGMP,221622.00,,,,,DAAA,22,0.6,,,,*57
$GPGMP,221622.00,,,,,,05,,,,2.8,123*75
$GLGMP,221622.00,,,,,,06,,,,,*7E
$GAGMP,221622.00,,,,,,04,,,,,*71
$GBGMP,221622.00,,,,,,07,,,,,*71
$PSSN,SNC,[0,339400000,2347]*49
$GPZDA,221627.00,01,01,2025,,*61
$GPDTM,W84,,00.0000000,N,00.0000000,E,00.0000000,W84*5F
$GPRMC,221627.00,A,4742.4456976,N,01617.9729902,E,0.0,,010125,5.1,E,D*1E
$GPGLL,4742.4456976,N,01617.9729902,E,221627.00,A,D*6F
$GPGGA,221627.00,4742.4456976,N,01617.9729902,E,2,23,0.6,625.5814,M,43.2111,M,3.0,0123*4B
$GNGNS,221627.00,4742.4456976,N,01617.9729902,E,DAAA,23,0.6,625.5814,43.2111,,*54
$GPGNS,221627.00,,,,,,07,,,,3.0,123*7B
$GLGNS,221627.00,,,,,,06,,,,,*7B
$GAGNS,221627.00,,,,,,04,,,,,*74
$GBGNS,221627.00,,,,,,06,,,,,*75
$GPLLQ,221627.00,010125,,M,,M,1,23,3.100,,M*10
$GPVTG,,T,,M,0.00,N,0.00,K,D*26
$GPHDT,,T*1B
$GPTHS,,V*0E
$GPROT,,V*08
$PSSN,HRP,221627.00,010125,,,,,,,00,0,,*63
$PTNL,AVR,221627.00,,Yaw,,Tilt,,,,0,,00*35
$GPGSA,A,3,02,08,10,14,21,27,32,,,,,,1.1,0.6,0.9*34
$GPGSA,A,3,68,69,75,76,84,85,,,,,,,1.1,0.6,0.9*3E
$GPGSA,A,3,07,26,31,33,,,,,,,,,1.1,0.6,0.9*3C
$GPGSA,A,3,14,27,28,32,33,41,,,,,,,1.1,0.6,0.9*33
$GPGST,221627.00,3.101,1.281,0.826,31.183,1.177,0.970,2.699*62
$GPGBS,221627.00,4.006,3.050,8.534,14,0.0001,-3.402,1.153*79
$GPGRS,221627.00,1,-1.1,-0.8,1.5,-3.4,1.8,-1.3,0.7,,,,,*65
$GPGRS,221627.00,1,-0.7,-3.9,-2.7,-0.3,-5.7,-4.3,,,,,,*42
$GPGRS,221627.00,1,-0.0,-1.6,-0.8,1.7,,,,,,,,*68
$GPGRS,221627.00,1,5.7,-1.5,-0.5,-2.8,-2.4,-2.1,,,,,,*6D
$GPGSV,4,1,15,08,67,207,46,14,14,319,37,01,38,284,,10,46,054,45*7E
$GPGSV,4,2,15,27,40,162,36,02,43,292,46,32,43,109,47,21,65,301,39*71
$GPGSV,4,3,15,24,01,032,,03,09,230,,23,05,053,,36,35,170,42*76
$GPGSV,4,4,15,34,31,208,,49,34,195,37,61,03,257,*45
$GLGSV,2,1,08,84,72,025,36,75,16,285,39,70,11,192,,83,22,107,*65
$GLGSV,2,2,08,76,12,342,37,85,30,310,40,68,42,042,46,69,64,136,40*67
$GAGSV,3,1,10,26,77,030,48,31,29,289,42,29,12,169,,13,29,087,32*6D
$GAGSV,3,2,10,23,24,232,,14,40,160,,08,29,054,33,07,39,118,41*68
$GAGSV,3,3,10,33,41,287,36,24,07,335,24*66
$GBGSV,5,1,19,27,76,298,46,32,14,203,38,60,11,109,,13,16,054,30*65
$GBGSV,5,2,19,05,24,128,,14,24,045,36,30,25,303,33,33,48,060,50*60
$GBGSV,5,3,19,41,61,163,45,28,54,124,43,57,59,263,,02,09,105,*6F
$GBGSV,5,4,19,36,05,300,33,39,09,073,,16,05,082,,42,01,036,*6C
$GBGSV,5,5,19,45,01,345,,08,08,052,,06,04,085,*59
$GPGGA,221627.00,,,,,0,00,,,M,,M,,*4A
$PTNL,GGK,221627.00,010125,4742.4456976,N,01617.9729902,E,1,23,1.1,EHT668.7924,M*48
$GPGGQ,221627.00,010125,4742.4456976,N,01617.9729902,E,1,23,3.100,625.5814,M*3D
$GPGFA,221627.00,12.182,22.131,1.281,0.826,31.183,2.699,,VVV*30
$GPLLK,221627.00,010125,,M,,M,1,23,1.3,,M*0A
$GNGMP,221627.00,,,,,DAAA,23,0.6,,,,*53
$GPGMP,221627.00,,,,,,07,,,,3.0,123*7B
$GLGMP,221627.00,,,,,,06,,,,,*7B
$GAGMP,221627.00,,,,,,04,,,,,*74
$GBGMP,221627.00,,,,,,06,,,,,*75
$PSSN,SNC,[0,339405000,2347]*4C
$GPZDA,221632.00,01,01,2025,,*65
$GPDTM,W84,,00.0000000,N,00.0000000,E,00.0000000,W84*5F
$GPRMC,221632.00,A,4742.4456893,N,01617.9729754,E,0.0,,010125,5.1,E,D*1D
$GPGLL,4742.4456893,N,01617.9729754,E,221632.00,A,D*6C
$GPGGA,221632.00,4742.4456893,N,01617.9729754,E,2,22,0.6,625.5459,M,43.2111,M,1.5,0123*4B
$GNGNS,221632.00,4742.4456893,N,01617.9729754,E,DAAA,22,0.6,625.5459,43.2111,,*53
$GPGNS,221632.00,,,,,,06,,,,1.5,123*79
$GLGNS,221632.00,,,,,,06,,,,,*7F
$GAGNS,221632.00,,,,,,04,,,,,*70
$GBGNS,221632.00,,,,,,06,,,,,*71
$GPLLQ,221632.00,010125,,M,,M,1,22,2.480,,M*19
$GPVTG,,T,,M,0.00,N,0.01,K,D*27
$GPHDT,,T*1B
$GPTHS,,V*0E
$GPROT,,V*08
$PSSN,HRP,221632.00,010125,,,,,,,00,0,,*67
$PTNL,AVR,221632.00,,Yaw,,Tilt,,,,0,,00*31
$GPGSA,A,3,02,08,10,14,27,32,,,,,,,1.2,0.6,1.0*3C
$GPGSA,A,3,68,69,75,76,84,85,,,,,,,1.2,0.6,1.0*35
$GPGSA,A,3,07,26,31,33,,,,,,,,,1.2,0.6,1.0*37
$GPGSA,A,3,14,27,28,32,33,41,,,,,,,1.2,0.6,1.0*38
$GPGST,221632.00,2.876,0.901,0.634,22.785,0.866,0.681,2.222*6E
$GPGBS,221632.00,4.456,2.762,8.975,14,0.0001,-2.657,1.109*7E
$GPGRS,221632.00,1,0.6,-0.1,-0.2,-2.7,-1.2,1.3,,,,,,*49
$GPGRS,221632.00,1,-0.3,-3.2,-0.3,-3.7,-4.9,-2.3,,,,,,*41
$GPGRS,221632.00,1,0.8,-0.4,-0.0,1.6,,,,,,,,*43
$GPGRS,221632.00,1,6.9,-1.0,1.0,-2.4,-1.3,-0.0,,,,,,*43
$GPGSV,4,1,15,08,67,207,46,14,14,319,36,01,38,284,,10,46,054,44*7E
$GPGSV,4,2,15,27,40,162,35,02,43,292,46,32,43,109,46,21,65,301,39*73
$GPGSV,4,3,15,24,01,032,,03,09,230,,23,05,053,,36,35,170,41*75
$GPGSV,4,4,15,34,31,208,,49,34,195,37,61,03,257,*45
$GLGSV,2,1,08,84,72,025,36,75,16,285,37,70,11,192,,83,21,107,*68
$GLGSV,2,2,08,76,12,342,38,85,30,310,39,68,42,042,44,69,64,136,41*65
