$GPZDA,074442.00,01,01,2025,,*62
$GPDTM,W84,,00.0000000,N,00.0000000,E,00.0000000,W84*5F
$GPRMC,074442.00,A,4742.4466721,N,01617.9736456,E,0.0,,010125,5.1,E,D*10
$GPGLL,4742.4466721,N,01617.9736456,E,074442.00,A,D*61
$GPGGA,074442.00,4742.4466721,N,01617.9736456,E,2,21,0.7,625.4293,M,43.2111,M,3.0,0123*42
$GNGNS,074442.00,4742.4466721,N,01617.9736456,E,DAAA,21,0.7,625.4293,43.2111,,*5D
$GPGNS,074442.00,,,,,,06,,,,3.0,123*79
$GLGNS,074442.00,,,,,,05,,,,,*7B
$GAGNS,074442.00,,,,,,05,,,,,*76
$GBGNS,074442.00,,,,,,05,,,,,*75
$GPLLQ,074442.00,010125,,M,,M,1,21,2.304,,M*16
$GPVTG,,T,,M,0.00,N,0.00,K,D*26
$GPHDT,,T*1B
$GPTHS,,V*0E
$GPROT,,V*08
$PSSN,HRP,074442.00,010125,,,,,,,00,0,,*60
$PTNL,AVR,074442.00,,Yaw,,Tilt,,,,0,,00*36
$GPGSA,A,3,05,07,13,14,15,30,,,,,,,1.3,0.7,1.1*35
$GPGSA,A,3,65,72,74,75,76,,,,,,,,1.3,0.7,1.1*31
$GPGSA,A,3,03,05,08,24,25,,,,,,,,1.3,0.7,1.1*38
$GPGSA,A,3,21,22,36,42,45,,,,,,,,1.3,0.7,1.1*36
$GPGST,074442.00,3.126,1.010,0.601,8.357,1.003,0.612,1.982*5B
$GPGBS,074442.00,5.674,2.967,9.091,15,0.0001,2.148,1.015*5A
$GPGRS,074442.00,1,-1.1,-1.2,0.2,0.3,2.1,0.4,,,,,,*4A
$GPGRS,074442.00,1,-4.3,3.4,0.0,-4.1,-7.0,,,,,,,*4E
$GPGRS,074442.00,1,0.1,-1.3,-1.0,-1.1,0.1,,,,,,,*4F
$GPGRS,074442.00,1,2.0,4.8,0.3,1.5,0.3,,,,,,,*6B
$GPGSV,4,1,15,30,67,061,47,15,20,301,39,08,11,048,26,22,36,170,*73
$GPGSV,4,2,15,20,38,210,33,07,30,065,40,14,53,149,48,13,54,300,42*77
$GPGSV,4,3,15,05,54,258,45,27,02,018,,18,09,319,33,36,35,170,39*7A
$GPGSV,4,4,15,34,31,208,,49,34,195,,61,03,257,*41
$GLGSV,3,1,11,75,74,193,50,66,15,318,,76,14,211,40,72,50,131,44*67
$GLGSV,3,2,11,74,46,041,38,65,66,324,46,73,04,037,,71,02,135,*68
$GLGSV,3,3,11,81,05,306,32,82,10,350,32,83,02,028,*52
$GAGSV,3,1,10,03,82,328,47,24,40,060,46,02,16,188,26,13,17,297,28*6C
$GAGSV,3,2,10,08,29,296,38,05,41,108,36,25,53,142,41,16,56,095,*6A
$GAGSV,3,3,10,15,10,247,29,26,04,345,*64
$GBGSV,4,1,14,45,77,178,48,56,11,093,,09,12,067,,05,21,130,*6E
$GBGSV,4,2,14,26,23,223,34,42,25,312,38,40,22,065,29,22,44,151,38*61
$GBGSV,4,3,14,10,28,082,,36,44,057,41,50,51,301,,21,74,274,50*6D
$GBGSV,4,4,14,02,05,108,,60,07,112,*63
$GPGGA,074442.00,,,,,0,00,,,M,,M,,*49
$PTNL,GGK,074442.00,010125,4742.4466721,N,01617.9736456,E,1,21,1.3,EHT668.6403,M*4F
$GPGGQ,074442.00,010125,4742.4466721,N,01617.9736456,E,1,21,2.304,625.4293,M*32
$GPGFA,074442.00,9.599,16.251,1.010,0.601,8.357,1.982,,VVV*33
$GPLLK,074442.00,010125,,M,,M,1,21,1.5,,M*0D
$GNGMP,074442.00,,,,,DAAA,21,0.7,,,,*53
$GPGMP,074442.00,,,,,,06,,,,3.0,123*79
$GLGMP,074442.00,,,,,,05,,,,,*7B
$GAGMP,074442.00,,,,,,05,,,,,*76
$GBGMP,074442.00,,,,,,05,,,,,*75
$PSSN,SNC,[0,287100000,2347]*48
$GPZDA,074447.00,01,01,2025,,*67
$GPDTM,W84,,00.0000000,N,00.0000000,E,00.0000000,W84*5F
$GPRMC,074447.00,A,4742.4466694,N,01617.9736501,E,0.0,,010125,5.1,E,D*19
$GPGLL,4742.4466694,N,01617.9736501,E,074447.00,A,D*68
$GPGGA,074447.00,4742.4466694,N,01617.9736501,E,2,21,0.7,625.4281,M,43.2111,M,3.3,0123*4B
$GNGNS,074447.00,4742.4466694,N,01617.9736501,E,DAAA,21,0.7,625.4281,43.2111,,*57
$GPGNS,074447.00,,,,,,06,,,,3.3,123*7F
$GLGNS,074447.00,,,,,,05,,,,,*7E
$GAGNS,074447.00,,,,,,05,,,,,*73
$GBGNS,074447.00,,,,,,05,,,,,*70
$GPLLQ,074447.00,010125,,M,,M,1,21,2.538,,M*1A
$GPVTG,,T,,M,0.01,N,0.01,K,D*26
$GPHDT,,T*1B
$GPTHS,,V*0E
$GPROT,,V*08
$PSSN,HRP,074447.00,010125,,,,,,,00,0,,*65
$PTNL,AVR,074447.00,,Yaw,,Tilt,,,,0,,00*33
$GPGSA,A,3,05,07,13,14,15,30,,,,,,,1.3,0.7,1.1*35
$GPGSA,A,3,65,72,74,75,76,,,,,,,,1.3,0.7,1.1*31
$GPGSA,A,3,03,05,08,24,25,,,,,,,,1.3,0.7,1.1*38
$GPGSA,A,3,21,22,36,42,45,,,,,,,,1.3,0.7,1.1*36
$GPGST,074447.00,2.902,1.119,0.668,7.703,1.112,0.679,2.178*5E
$GPGBS,074447.00,5.810,2.960,8.852,07,0.0001,-2.140,1.004*74
$GPGRS,074447.00,1,-1.1,-2.1,0.5,0.6,1.5,0.6,,,,,,*48
$GPGRS,074447.00,1,-4.3,2.4,-0.1,-4.6,-6.1,,,,,,,*61
$GPGRS,074447.00,1,-0.0,-2.1,-0.4,-1.0,1.0,,,,,,,*63
$GPGRS,074447.00,1,1.9,2.6,2.6,0.9,1.0,,,,,,,*64
$GPGSV,4,1,15,30,67,061,48,15,20,301,40,08,11,048,25,22,36,170,*71
$GPGSV,4,2,15,20,38,210,,07,30,065,39,14,53,149,48,13,54,300,42*79
$GPGSV,4,3,15,05,54,257,45,27,02,018,,18,09,319,34,36,35,170,38*73
$GPGSV,4,4,15,34,31,208,,49,34,195,,61,03,257,*41
$GLGSV,3,1,11,75,74,193,49,66,15,318,26,76,14,211,40,72,50,131,44*6B
$GLGSV,3,2,11,74,46,041,40,65,66,324,45,73,04,037,,71,02,135,*64
$GLGSV,3,3,11,81,05,306,35,82,10,350,31,83,02,028,*56
$GAGSV,3,1,10,03,82,328,47,24,40,060,46,02,16,188,28,13,17,297,25*6F
$GAGSV,3,2,10,08,29,296,38,05,41,108,35,25,53,142,42,16,56,095,*6A
$GAGSV,3,3,10,15,09,247,29,26,04,345,*6C
$GBGSV,4,1,14,45,77,178,48,56,11,093,,09,12,067,,05,21,130,*6E
$GBGSV,4,2,14,26,23,223,35,42,26,312,37,40,22,065,31,22,44,151,38*65
$GBGSV,4,3,14,10,28,082,,36,44,057,42,50,51,301,,21,74,273,50*69
$GBGSV,4,4,14,02,05,108,,60,07,112,*63
$GPGGA,074447.00,,,,,0,00,,,M,,M,,*4C
$PTNL,GGK,074447.00,010125,4742.4466694,N,01617.9736501,E,1,21,1.3,EHT668.6391,M*4A
$GPGGQ,074447.00,010125,4742.4466694,N,01617.9736501,E,1,21,2.538,625.4281,M*31
$GPGFA,074447.00,10.635,17.858,1.119,0.668,7.703,2.178,,VVV*0A
$GPLLK,074447.00,010125,,M,,M,1,21,1.5,,M*08
$GNGMP,074447.00,,,,,DAAA,21,0.7,,,,*56
$GPGMP,074447.00,,,,,,06,,,,3.3,123*7F
$GLGMP,074447.00,,,,,,05,,,,,*7E
$GAGMP,074447.00,,,,,,05,,,,,*73
$GBGMP,074447.00,,,,,,05,,,,,*70
$PSSN,SNC,[0,287105000,2347]*4D
$GPZDA,074452.00,01,01,2025,,*63
$GPDTM,W84,,00.0000000,N,00.0000000,E,00.0000000,W84*5F
$GPRMC,074452.00,A,4742.4466685,N,01617.9736542,E,0.0,,010125,5.1,E,D*1A
$GPGLL,4742.4466685,N,01617.9736542,E,074452.00,A,D*6B
$GPGGA,074452.00,4742.4466685,N,01617.9736542,E,2,20,0.7,625.4265,M,43.2110,M,1.7,0123*44
$GNGNS,074452.00,4742.4466685,N,01617.9736542,E,DAAA,20,0.7,625.4265,43.2110,,*5E
$GPGNS,074452.00,,,,,,06,,,,1.7,123*7D
$GLGNS,074452.00,,,,,,05,,,,,*7A
$GAGNS,074452.00,,,,,,05,,,,,*77
$GBGNS,074452.00,,,,,,04,,,,,*75
$GPLLQ,074452.00,010125,,M,,M,1,20,2.713,,M*14
$GPVTG,,T,,M,0.01,N,0.02,K,D*25
$GPHDT,,T*1B
$GPTHS,,V*0E
$GPROT,,V*08
$PSSN,HRP,074452.00,010125,,,,,,,00,0,,*61
$PTNL,AVR,074452.00,,Yaw,,Tilt,,,,0,,00*37
$GPGSA,A,3,05,07,13,14,15,30,,,,,,,1.3,0.7,1.1*35
$GPGSA,A,3,65,72,74,75,76,,,,,,,,1.3,0.7,1.1*31
$GPGSA,A,3,03,05,08,24,25,,,,,,,,1.3,0.7,1.1*38
$GPGSA,A,3,21,22,36,45,,,,,,,,,1.3,0.7,1.1*30
$GPGST,074452.00,3.345,1.186,0.713,7.563,1.179,0.724,2.333*54
$GPGBS,074452.00,5.501,2.831,9.086,07,0.0001,-2.158,0.980*75
$GPGRS,074452.00,1,-1.2,-2.2,1.1,0.4,0.2,0.8,,,,,,*43
$GPGRS,074452.00,1,-4.7,4.7,2.1,-5.1,-5.9,,,,,,,*46
$GPGRS,074452.00,1,-0.3,-3.5,-0.2,-1.2,0.8,,,,,,,*6C
$GPGRS,074452.00,1,1.7,0.5,3.3,0.7,,,,,,,,*4A
$GPGSV,4,1,15,30,67,061,49,15,20,301,40,08,11,048,26,22,36,170,*73
$GPGSV,4,2,15,20,37,210,,07,30,065,37,14,53,149,47,13,54,300,40*75
$GPGSV,4,3,15,05,54,257,43,27,02,018,,18,09,319,28,36,35,170,38*78
$GPGSV,4,4,15,34,31,208,,49,34,195,,61,03,257,*41
$GLGSV,3,1,11,75,74,193,49,66,16,318,30,76,14,211,40,72,50,131,44*6F
$GLGSV,3,2,11,74,46,041,41,65,66,324,46,73,04,037,,71,02,135,*66
$GLGSV,3,3,11,81,05,306,,82,10,350,34,83,02,028,*55
$GAGSV,3,1,10,03,82,328,47,24,40,060,46,02,16,188,30,13,17,297,25*66
$GAGSV,3,2,10,08,29,296,37,05,41,108,35,25,53,142,42,16,56,095,*65
$GAGSV,3,3,10,15,09,247,29,26,04,345,*6C
$GBGSV,4,1,14,45,77,178,48,56,11,093,,09,12,067,,05,21,130,*6E
$GBGSV,4,2,14,26,23,223,34,42,26,312,35,40,22,065,31,22,44,151,39*67
$GBGSV,4,3,14,10,28,082,,36,44,057,44,50,51,301,,21,74,273,51*6E
$GBGSV,4,4,14,02,05,108,,60,07,112,*63
$GPGGA,074452.00,,,,,0,00,,,M,,M,,*48
$PTNL,GGK,074452.00,010125,4742.4466685,N,01617.9736542,E,1,20,1.3,EHT668.6376,M*41
$GPGGQ,074452.00,010125,4742.4466685,N,01617.9736542,E,1,20,2.713,625.4265,M*32
$GPGFA,074452.00,11.275,19.133,1.186,0.713,7.563,2.333,,VVV*07
$GPLLK,074452.00,010125,,M,,M,1,20,1.6,,M*0E
$GNGMP,074452.00,,,,,DAAA,20,0.7,,,,*53
$GPGMP,074452.00,,,,,,06,,,,1.7,123*7D
$GLGMP,074452.00,,,,,,05,,,,,*7A
$GAGMP,074452.00,,,,,,05,,,,,*77
$GBGMP,074452.00,,,,,,04,,,,,*75
$PSSN,SNC,[0,287110000,2347]*49
$GPZDA,074457.00,01,01,2025,,*66
$GPDTM,W84,,00.0000000,N,00.0000000,E,00.0000000,W84*5F
$GPRMC,074457.00,A,4742.4466657,N,01617.9736489,E,0.0,,010125,5.1,E,D*16
$GPGLL,4742.4466657,N,01617.9736489,E,074457.00,A,D*67
$GPGGA,074457.00,4742.4466657,N,01617.9736489,E,2,19,0.7,625.4036,M,43.2111,M,2.0,0123*43
$GNGNS,074457.00,4742.4466657,N,01617.9736489,E,DAAA,19,0.7,625.4036,43.2111,,*5D
$GPGNS,074457.00,,,,,,04,,,,2.0,123*7E
$GLGNS,074457.00,,,,,,06,,,,,*7C
$GAGNS,074457.00,,,,,,05,,,,,*72
$GBGNS,074457.00,,,,,,04,,,,,*70
$GPLLQ,074457.00,010125,,M,,M,1,19,3.183,,M*15
$GPVTG,,T,,M,0.00,N,0.00,K,D*26
$GPHDT,,T*1B
$GPTHS,,V*0E
$GPROT,,V*08
$PSSN,HRP,074457.00,010125,,,,,,,00,0,,*64
$PTNL,AVR,074457.00,,Yaw,,Tilt,,,,0,,00*32
$GPGSA,A,3,05,14,15,30,,,,,,,,,1.3,0.7,1.0*31
$GPGSA,A,3,65,72,74,75,76,82,,,,,,,1.3,0.7,1.0*3A
$GPGSA,A,3,03,05,08,24,25,,,,,,,,1.3,0.7,1.0*39
$GPGSA,A,3,21,22,36,45,,,,,,,,,1.3,0.7,1.0*31
$GPGST,074457.00,3.247,1.176,0.956,29.210,1.127,1.013,2.799*60
$GPGBS,074457.00,5.702,6.286,12.712,15,0.0001,-2.189,0.999*44
$GPGRS,074457.00,1,-0.7,0.5,-2.2,0.3,,,,,,,,*4A
$GPGRS,074457.00,1,-3.9,5.6,1.5,-5.3,-4.9,0.8,,,,,,*68
$GPGRS,074457.00,1,-0.4,-2.5,0.0,-1.1,0.9,,,,,,,*42
$GPGRS,074457.00,1,1.8,0.8,2.8,0.1,,,,,,,,*41
$GPGSV,4,1,15,30,67,061,48,15,20,301,39,08,11,048,26,22,36,170,*7C
$GPGSV,4,2,15,20,37,210,36,07,30,065,33,14,53,149,47,13,54,300,37*74
$GPGSV,4,3,15,05,54,257,43,27,02,018,,18,09,319,33,36,35,170,38*72
$GPGSV,4,4,15,34,31,208,,49,34,195,,61,03,257,*41
$GLGSV,3,1,11,75,74,193,49,66,16,318,32,76,14,211,41,72,50,131,44*6C
$GLGSV,3,2,11,74,46,041,41,65,66,324,47,73,04,037,,71,02,135,*67
$GLGSV,3,3,11,81,05,306,,82,10,350,36,83,02,028,*57
$GAGSV,3,1,10,03,82,328,47,24,40,060,46,02,16,188,30,13,17,297,24*67
$GAGSV,3,2,10,08,29,296,37,05,41,108,36,25,53,142,42,16,56,095,*66
$GAGSV,3,3,10,15,09,247,19,26,04,345,*6F
$GBGSV,4,1,14,45,77,178,47,56,11,093,,09,12,067,,05,21,130,*61
$GBGSV,4,2,14,26,23,223,33,42,26,312,33,40,22,065,31,22,44,151,40*68
$GBGSV,4,3,14,10,28,082,,36,44,057,46,50,51,301,,21,74,273,51*6C
$GBGSV,4,4,14,02,05,108,,60,07,112,*63
$GPGGA,074457.00,,,,,0,00,,,M,,M,,*4D
$PTNL,GGK,074457.00,010125,4742.4466657,N,01617.9736489,E,1,19,1.3,EHT668.6147,M*47
$GPGGQ,074457.00,010125,4742.4466657,N,01617.9736489,E,1,19,3.183,625.4036,M*3E
$GPGFA,074457.00,11.177,22.950,1.176,0.956,29.210,2.799,,VVV*3D
$GPLLK,074457.00,010125,,M,,M,1,19,1.5,,M*02
$GNGMP,074457.00,,,,,DAAA,19,0.7,,,,*5C
$GPGMP,074457.00,,,,,,04,,,,2.0,123*7E
$GLGMP,074457.00,,,,,,06,,,,,*7C
$GAGMP,074457.00,,,,,,05,,,,,*72
$GBGMP,074457.00,,,,,,04,,,,,*70
$PSSN,SNC,[0,287115000,2347]*4C
$GPZDA,074502.00,01,01,2025,,*67
$GPDTM,W84,,00.0000000,N,00.0000000,E,00.0000000,W84*5F
$GPRMC,074502.00,A,4742.4466771,N,01617.9736337,E,0.0,,010125,5.1,E,D*10
$GPGLL,4742.4466771,N,01617.9736337,E,074502.00,A,D*61
$GPGGA,074502.00,4742.4466771,N,01617.9736337,E,2,18,0.8,625.3773,M,43.2110,M,3.0,0123*4A
$GNGNS,074502.00,4742.4466771,N,01617.9736337,E,DAAA,18,0.8,625.3773,43.2110,,*55
$GPGNS,074502.00,,,,,,04,,,,3.0,123*7E
$GLGNS,074502.00,,,,,,05,,,,,*7E
$GAGNS,074502.00,,,,,,05,,,,,*73
$GBGNS,074502.00,,,,,,04,,,,,*71
$GPLLQ,074502.00,010125,,M,,M,1,18,4.183,,M*12
$GPVTG,,T,,M,0.01,N,0.02,K,D*25
$GPHDT,,T*1B
$GPTHS,,V*0E
$GPROT,,V*08
$PSSN,HRP,074502.00,010125,,,,,,,00,0,,*65
$PTNL,AVR,074502.00,,Yaw,,Tilt,,,,0,,00*33
$GPGSA,A,3,05,14,15,30,,,,,,,,,1.4,0.8,1.2*3B
$GPGSA,A,3,65,72,74,75,76,,,,,,,,1.4,0.8,1.2*3A
$GPGSA,A,3,03,05,08,24,25,,,,,,,,1.4,0.8,1.2*33
$GPGSA,A,3,21,22,36,45,,,,,,,,,1.4,0.8,1.2*3B
$GPGST,074502.00,3.220,1.558,1.281,24.922,1.512,1.334,3.665*68
$GPGBS,074502.00,5.863,6.525,13.473,15,0.0001,-3.403,1.006*4E
$GPGRS,074502.00,1,-0.0,1.5,-3.4,0.0,,,,,,,,*49
$GPGRS,074502.00,1,-2.8,5.7,1.8,-4.2,-4.7,,,,,,,*4D
$GPGRS,074502.00,1,-0.1,-0.9,0.7,-0.5,1.6,,,,,,,*44
$GPGRS,074502.00,1,2.4,1.3,2.2,0.6,,,,,,,,*48
$GPGSV,4,1,15,30,67,061,47,15,20,301,40,08,11,048,,22,36,170,*79
$GPGSV,4,2,15,20,37,210,34,07,30,065,32,14,53,149,48,13,54,300,34*7B
$GPGSV,4,3,15,05,54,257,44,27,02,018,,18,09,319,33,36,35,170,38*75
$GPGSV,4,4,15,34,31,208,,49,34,195,,61,03,257,*41
$GLGSV,3,1,11,75,74,193,49,66,16,318,33,76,14,211,40,72,50,131,44*6C
$GLGSV,3,2,11,74,46,041,41,65,67,324,47,73,04,037,,71,02,135,*66
$GLGSV,3,3,11,81,05,306,30,82,10,350,35,83,02,028,*57
$GAGSV,3,1,10,03,82,328,47,24,40,060,46,02,16,188,30,13,16,297,24*66
$GAGSV,3,2,10,08,29,296,37,05,41,108,37,25,53,141,42,16,56,095,*64
$GAGSV,3,3,10,15,09,247,30,26,04,345,*64
$GBGSV,4,1,14,45,77,178,48,56,12,093,,09,12,067,,05,21,130,*6D
$GBGSV,4,2,14,26,24,223,30,42,26,312,33,40,22,065,31,22,44,151,39*62
$GBGSV,4,3,14,10,28,082,,36,44,057,47,50,51,301,,21,74,273,52*6E
$GBGSV,4,4,14,02,05,108,,60,07,112,*63
$GPGGA,074502.00,,,,,0,00,,,M,,M,,*4C
$PTNL,GGK,074502.00,010125,4742.4466771,N,01617.9736337,E,1,18,1.4,EHT668.5883,M*45
$GPGGQ,074502.00,010125,4742.4466771,N,01617.9736337,E,1,18,4.183,625.3773,M*3F
$GPGFA,074502.00,14.809,30.052,1.558,1.281,24.922,3.665,,VVV*3D
$GPLLK,074502.00,010125,,M,,M,1,18,1.7,,M*00
$GNGMP,074502.00,,,,,DAAA,18,0.8,,,,*53
$GPGMP,074502.00,,,,,,04,,,,3.0,123*7E
$GLGMP,074502.00,,,,,,05,,,,,*7E
$GAGMP,074502.00,,,,,,05,,,,,*73
$GBGMP,074502.00,,,,,,04,,,,,*71
$PSSN,SNC,[0,287120000,2347]*4A
$GPZDA,074507.00,01,01,2025,,*62
$GPDTM,W84,,00.0000000,N,00.0000000,E,00.0000000,W84*5F
$GPRMC,074507.00,A,4742.4466879,N,01617.9736207,E,0.0,,010125,5.1,E,D*10
$GPGLL,4742.4466879,N,01617.9736207,E,074507.00,A,D*61
$GPGGA,074507.00,4742.4466879,N,01617.9736207,E,2,19,0.7,625.3604,M,43.2110,M,3.0,0123*45
$GNGNS,074507.00,4742.4466879,N,01617.9736207,E,DAAA,19,0.7,625.3604,43.2110,,*5A
$GPGNS,074507.00,,,,,,04,,,,3.0,123*7B
$GLGNS,074507.00,,,,,,05,,,,,*7B
$GAGNS,074507.00,,,,,,05,,,,,*76
$GBGNS,074507.00,,,,,,05,,,,,*75
$GPLLQ,074507.00,010125,,M,,M,1,19,3.227,,M*1C
$GPVTG,,T,,M,0.01,N,0.01,K,D*26
$GPHDT,,T*1B
$GPTHS,,V*0E
$GPROT,,V*08
$PSSN,HRP,074507.00,010125,,,,,,,00,0,,*60
$PTNL,AVR,074507.00,,Yaw,,Tilt,,,,0,,00*36
$GPGSA,A,3,05,14,15,30,,,,,,,,,1.4,0.7,1.2*34
$GPGSA,A,3,65,72,74,75,76,,,,,,,,1.4,0.7,1.2*35
$GPGSA,A,3,03,05,08,24,25,,,,,,,,1.4,0.7,1.2*3C
$GPGSA,A,3,21,22,36,42,45,,,,,,,,1.4,0.7,1.2*32
$GPGST,074507.00,2.961,1.191,0.989,26.109,1.155,1.031,2.831*6D
$GPGBS,074507.00,5.986,6.640,13.487,15,0.0001,-1.954,1.015*45
$GPGRS,074507.00,1,0.4,1.3,-2.0,-0.4,,,,,,,,*4F
$GPGRS,074507.00,1,-3.1,5.6,1.1,-3.9,-4.1,,,,,,,*42
$GPGRS,074507.00,1,-0.3,0.1,0.2,-0.6,1.0,,,,,,,*66
$GPGRS,074507.00,1,2.2,-1.9,1.1,-3.7,0.3,,,,,,,*6E
$GPGSV,4,1,15,30,67,061,47,15,21,301,41,08,11,048,,22,37,170,*78
$GPGSV,4,2,15,20,37,210,27,07,30,065,33,14,53,149,48,13,54,300,33*7F
$GPGSV,4,3,15,05,54,257,45,27,02,018,,18,09,319,31,36,35,170,38*76
$GPGSV,4,4,15,34,31,208,,49,34,195,,61,03,257,*41
$GLGSV,3,1,11,75,74,193,50,66,16,318,22,76,14,211,40,72,50,131,41*61
$GLGSV,3,2,11,74,46,041,41,65,67,324,47,73,04,037,,71,02,135,*66
$GLGSV,3,3,11,81,05,306,32,82,10,350,34,83,02,028,*54
$GAGSV,3,1,10,03,82,329,47,24,40,060,46,02,16,188,31,13,16,297,32*61
$GAGSV,3,2,10,08,29,296,38,05,41,108,38,25,53,141,42,16,56,095,*64
$GAGSV,3,3,10,15,09,247,29,26,04,345,*6C
$GBGSV,4,1,14,45,77,178,47,56,12,093,,09,12,067,,05,21,130,*62
$GBGSV,4,2,14,26,24,223,26,42,26,312,36,40,22,065,30,22,44,151,39*61
$GBGSV,4,3,14,10,28,082,,36,44,057,47,50,51,301,,21,74,273,52*6E
$GBGSV,4,4,14,02,05,108,,60,07,112,*63
$GPGGA,074507.00,,,,,0,00,,,M,,M,,*49
$PTNL,GGK,074507.00,010125,4742.4466879,N,01617.9736207,E,1,19,1.4,EHT668.5715,M*44
$GPGGQ,074507.00,010125,4742.4466879,N,01617.9736207,E,1,19,3.227,625.3604,M*35
$GPGFA,074507.00,11.323,23.212,1.191,0.989,26.109,2.831,,VVV*34
$GPLLK,074507.00,010125,,M,,M,1,19,1.6,,M*05
$GNGMP,074507.00,,,,,DAAA,19,0.7,,,,*58
$GPGMP,074507.00,,,,,,04,,,,3.0,123*7B
$GLGMP,074507.00,,,,,,05,,,,,*7B
$GAGMP,074507.00,,,,,,05,,,,,*76
$GBGMP,074507.00,,,,,,05,,,,,*75
$PSSN,SNC,[0,287125000,2347]*4F
$GPZDA,074512.00,01,01,2025,,*66
$GPDTM,W84,,00.0000000,N,00.0000000,E,00.0000000,W84*5F
$GPRMC,074512.00,A,4742.4466941,N,01617.9736194,E,0.0,,010125,5.1,E,D*17
$GPGLL,4742.4466941,N,01617.9736194,E,074512.00,A,D*66
$GPGGA,074512.00,4742.4466941,N,01617.9736194,E,2,19,0.7,625.3606,M,43.2110,M,2.0,0123*41
$GNGNS,074512.00,4742.4466941,N,01617.9736194,E,DAAA,19,0.7,625.3606,43.2110,,*5F
$GPGNS,074512.00,,,,,,04,,,,2.0,123*7E
$GLGNS,074512.00,,,,,,05,,,,,*7F
$GAGNS,074512.00,,,,,,05,,,,,*72
$GBGNS,074512.00,,,,,,05,,,,,*71
$GPLLQ,074512.00,010125,,M,,M,1,19,2.619,,M*10
$GPVTG,,T,,M,0.01,N,0.01,K,D*26
$GPHDT,,T*1B
$GPTHS,,V*0E
$GPROT,,V*08
$PSSN,HRP,074512.00,010125,,,,,,,00,0,,*64
$PTNL,AVR,074512.00,,Yaw,,Tilt,,,,0,,00*32
$GPGSA,A,3,05,14,15,30,,,,,,,,,1.4,0.7,1.2*34
$GPGSA,A,3,65,72,74,75,76,,,,,,,,1.4,0.7,1.2*35
$GPGSA,A,3,03,05,08,24,25,,,,,,,,1.4,0.7,1.2*3C
$GPGSA,A,3,21,22,36,42,45,,,,,,,,1.4,0.7,1.2*32
$GPGST,074512.00,3.715,0.952,0.798,25.383,0.925,0.829,2.306*6F
$GPGBS,074512.00,5.677,6.317,13.690,14,0.0001,0.858,0.650*65
$GPGRS,074512.00,1,-0.1,0.9,0.5,-0.7,,,,,,,,*41
$GPGRS,074512.00,1,-3.8,7.4,0.8,-4.0,-6.4,,,,,,,*4E
$GPGRS,074512.00,1,-0.7,0.9,-0.1,-1.1,0.4,,,,,,,*43
$GPGRS,074512.00,1,1.8,-3.8,-0.1,-4.1,-0.1,,,,,,,*62
$GPGSV,4,1,15,30,67,061,47,15,21,301,42,08,11,048,,22,37,170,*7B
$GPGSV,4,2,15,20,37,210,23,07,30,065,34,14,53,149,49,13,54,300,35*7B
$GPGSV,4,3,15,05,54,257,46,27,02,018,,18,09,319,30,36,35,170,39*75
$GPGSV,4,4,15,34,31,208,,49,34,195,,61,03,257,*41
$GLGSV,3,1,11,75,74,193,50,66,16,318,27,76,15,211,40,72,50,131,42*66
$GLGSV,3,2,11,74,46,041,41,65,67,324,47,73,04,037,,71,02,135,*66
$GLGSV,3,3,11,81,05,306,29,82,10,350,31,83,02,028,*5B
$GAGSV,3,1,10,03,82,329,47,24,40,060,46,02,16,188,31,13,16,297,33*60
$GAGSV,3,2,10,08,29,296,38,05,41,108,40,16,56,095,,25,53,141,42*6B
$GAGSV,3,3,10,15,09,247,29,26,04,345,*6C
$GBGSV,4,1,14,45,77,178,47,56,12,093,,09,12,067,,05,21,130,*62
$GBGSV,4,2,14,26,24,223,26,42,26,312,39,40,22,065,30,22,44,151,37*60
$GBGSV,4,3,14,10,28,082,,36,43,057,47,50,51,301,,21,74,273,51*6A
$GBGSV,4,4,14,02,05,108,,60,07,112,*63
$GPGGA,074512.00,,,,,0,00,,,M,,M,,*4D
$PTNL,GGK,074512.00,010125,4742.4466941,N,01617.9736194,E,1,19,1.4,EHT668.5716,M*40
$GPGGQ,074512.00,010125,4742.4466941,N,01617.9736194,E,1,19,2.619,625.3606,M*38
$GPGFA,074512.00,9.049,18.906,0.952,0.798,25.383,2.306,,VVV*04
$GPLLK,074512.00,010125,,M,,M,1,19,1.6,,M*01
$GNGMP,074512.00,,,,,DAAA,19,0.7,,,,*5C
$GPGMP,074512.00,,,,,,04,,,,2.0,123*7E
$GLGMP,074512.00,,,,,,05,,,,,*7F
$GAGMP,074512.00,,,,,,05,,,,,*72
$GBGMP,074512.00,,,,,,05,,,,,*71
$PSSN,SNC,[0,287130000,2347]*4B
$GPZDA,074517.00,01,01,2025,,*63
$GPDTM,W84,,00.0000000,N,00.0000000,E,00.0000000,W84*5F
$GPRMC,074517.00,A,4742.4466991,N,01617.9736208,E,0.0,,010125,5.1,E,D*19
$GPGLL,4742.4466991,N,01617.9736208,E,074517.00,A,D*68
$GPGGA,074517.00,4742.4466991,N,01617.9736208,E,2,20,0.7,625.3603,M,43.2110,M,2.0,0123*40
$GNGNS,074517.00,4742.4466991,N,01617.9736208,E,DAAA,20,0.7,625.3603,43.2110,,*5E
$GPGNS,074517.00,,,,,,05,,,,2.0,123*7A
$GLGNS,074517.00,,,,,,05,,,,,*7A
$GAGNS,074517.00,,,,,,05,,,,,*77
$GBGNS,074517.00,,,,,,05,,,,,*74
$GPLLQ,074517.00,010125,,M,,M,1,20,2.226,,M*17
$GPVTG,,T,,M,0.01,N,0.01,K,D*26
$GPHDT,,T*1B
$GPTHS,,V*0E
$GPROT,,V*08
$PSSN,HRP,074517.00,010125,,,,,,,00,0,,*61
$PTNL,AVR,074517.00,,Yaw,,Tilt,,,,0,,00*37
$GPGSA,A,3,05,07,14,15,30,,,,,,,,1.3,0.7,1.1*37
$GPGSA,A,3,65,72,74,75,76,,,,,,,,1.3,0.7,1.1*31
$GPGSA,A,3,03,05,08,24,25,,,,,,,,1.3,0.7,1.1*38
$GPGSA,A,3,21,22,36,42,45,,,,,,,,1.3,0.7,1.1*36
$GPGST,074517.00,4.221,0.973,0.590,356.993,0.972,0.591,1.913*5B
$GPGBS,074517.00,6.359,3.232,10.752,76,0.0001,-8.754,6.296*4F
$GPGRS,074517.00,1,-0.0,-0.8,0.8,0.1,-0.2,,,,,,,*4E
$GPGRS,074517.00,1,-3.9,8.4,2.3,-4.1,-8.8,,,,,,,*4F
$GPGRS,074517.00,1,-0.9,0.9,0.0,-1.1,0.4,,,,,,,*64
$GPGRS,074517.00,1,1.2,-4.5,-1.2,-4.5,-0.0,,,,,,,*60
$GPGSV,4,1,15,30,67,061,46,15,21,301,43,08,11,048,,22,37,170,*7B
$GPGSV,4,2,15,20,37,210,33,07,30,065,37,14,53,149,50,13,55,300,35*70
$GPGSV,4,3,15,05,54,257,46,27,02,018,,18,09,319,30,36,35,170,39*75
$GPGSV,4,4,15,34,31,208,,49,34,195,,61,03,257,*41
$GLGSV,3,1,11,75,74,193,50,66,16,318,26,76,15,211,38,72,50,131,42*68
$GLGSV,3,2,11,74,46,041,42,65,67,324,47,73,03,037,,71,02,135,*62
$GLGSV,3,3,11,81,05,306,28,82,10,350,31,83,02,028,*5A
$GAGSV,3,1,10,03,82,329,47,24,40,060,46,02,16,188,31,13,16,297,32*61
$GAGSV,3,2,10,08,29,296,38,05,41,108,41,16,56,095,,25,53,141,43*6B
$GAGSV,3,3,10,15,09,247,23,26,05,345,*67
$GBGSV,4,1,14,45,77,178,47,56,12,093,,09,12,067,,05,21,130,*62
$GBGSV,4,2,14,26,24,223,23,42,26,312,41,40,22,065,,22,43,151,37*6E
$GBGSV,4,3,14,10,28,082,,36,43,057,47,50,51,301,,21,74,273,50*6B
$GBGSV,4,4,14,02,05,108,,60,07,112,*63
$GPGGA,074517.00,,,,,0,00,,,M,,M,,*48
$PTNL,GGK,074517.00,010125,4742.4466991,N,01617.9736208,E,1,20,1.3,EHT668.5713,M*46
$GPGGQ,074517.00,010125,4742.4466991,N,01617.9736208,E,1,20,2.226,625.3603,M*31
$GPGFA,074517.00,9.251,15.686,0.973,0.590,356.993,1.913,,VVV*38
$GPLLK,074517.00,010125,,M,,M,1,20,1.5,,M*0D
$GNGMP,074517.00,,,,,DAAA,20,0.7,,,,*53
$GPGMP,074517.00,,,,,,05,,,,2.0,123*7A
$GLGMP,074517.00,,,,,,05,,,,,*7A
$GAGMP,074517.00,,,,,,05,,,,,*77
$GBGMP,074517.00,,,,,,05,,,,,*74
$PSSN,SNC,[0,287135000,2347]*4E
$GPZDA,074522.00,01,01,2025,,*65
$GPDTM,W84,,00.0000000,N,00.0000000,E,00.0000000,W84*5F
$GPRMC,074522.00,A,4742.4467034,N,01617.9736163,E,0.0,,010125,5.1,E,D*16
$GPGLL,4742.4467034,N,01617.9736163,E,074522.00,A,D*67
$GPGGA,074522.00,4742.4467034,N,01617.9736163,E,2,20,0.7,625.3507,M,43.2111,M,3.0,0123*48
$GNGNS,074522.00,4742.4467034,N,01617.9736163,E,DAAA,20,0.7,625.3507,43.2111,,*57
$GPGNS,074522.00,,,,,,05,,,,3.0,123*7D
$GLGNS,074522.00,,,,,,05,,,,,*7C
$GAGNS,074522.00,,,,,,05,,,,,*71
$GBGNS,074522.00,,,,,,05,,,,,*72
$GPLLQ,074522.00,010125,,M,,M,1,20,2.333,,M*14
$GPVTG,,T,,M,0.00,N,0.00,K,D*26
$GPHDT,,T*1B
$GPTHS,,V*0E
$GPROT,,V*08
$PSSN,HRP,074522.00,010125,,,,,,,00,0,,*67
$PTNL,AVR,074522.00,,Yaw,,Tilt,,,,0,,00*31
$GPGSA,A,3,05,07,14,15,30,,,,,,,,1.3,0.7,1.1*37
$GPGSA,A,3,65,72,74,75,76,,,,,,,,1.3,0.7,1.1*31
$GPGSA,A,3,03,05,08,24,25,,,,,,,,1.3,0.7,1.1*38
$GPGSA,A,3,21,22,36,42,45,,,,,,,,1.3,0.7,1.1*36
$GPGST,074522.00,4.047,1.026,0.615,357.144,1.025,0.617,2.003*56
$GPGBS,074522.00,6.467,3.252,10.987,76,0.0001,-9.418,6.296*49
$GPGRS,074522.00,1,0.2,0.3,0.8,-1.3,-0.5,,,,,,,*68
$GPGRS,074522.00,1,-3.3,7.0,2.8,-3.9,-9.4,,,,,,,*41
$GPGRS,074522.00,1,-0.6,1.5,0.6,-0.8,0.6,,,,,,,*6C
$GPGRS,074522.00,1,0.8,-4.7,-1.7,-3.0,0.1,,,,,,,*44
$GPGSV,4,1,15,30,67,061,46,15,21,301,43,08,11,048,,22,37,170,*7B
$GPGSV,4,2,15,20,37,210,36,07,30,065,39,14,53,149,50,13,55,300,36*78
$GPGSV,4,3,15,05,54,257,47,27,02,018,,18,09,319,31,36,35,170,39*75
$GPGSV,4,4,15,34,31,208,,49,34,195,,61,03,257,*41
$GLGSV,3,1,11,75,74,193,50,66,16,318,29,76,15,211,38,72,50,131,40*65
$GLGSV,3,2,11,74,46,041,42,65,67,324,47,73,03,037,,71,02,136,*61
$GLGSV,3,3,11,81,05,306,30,82,10,349,30,83,02,028,*5A
$GAGSV,3,1,10,03,82,329,46,24,40,060,45,02,16,188,31,13,16,297,32*63
$GAGSV,3,2,10,08,29,296,38,05,41,108,41,16,56,095,,25,53,141,43*6B
$GAGSV,3,3,10,15,09,247,24,26,05,345,*60
$GBGSV,4,1,14,45,77,178,47,56,12,093,,09,12,067,,05,21,130,*62
$GBGSV,4,2,14,26,24,223,24,42,26,312,42,40,22,065,29,22,43,151,36*60
$GBGSV,4,3,14,10,28,082,,36,43,057,46,50,51,301,,21,74,273,50*6A
$GBGSV,4,4,14,02,05,108,,60,07,112,*63
$GPGGA,074522.00,,,,,0,00,,,M,,M,,*4E
$PTNL,GGK,074522.00,010125,4742.4467034,N,01617.9736163,E,1,20,1.3,EHT668.5617,M*4C
$GPGGQ,074522.00,010125,4742.4467034,N,01617.9736163,E,1,20,2.333,625.3507,M*3C
$GPGFA,074522.00,9.758,16.421,1.026,0.615,357.144,2.003,,VVV*30
$GPLLK,074522.00,010125,,M,,M,1,20,1.5,,M*0B
$GNGMP,074522.00,,,,,DAAA,20,0.7,,,,*55
$GPGMP,074522.00,,,,,,05,,,,3.0,123*7D
$GLGMP,074522.00,,,,,,05,,,,,*7C
$GAGMP,074522.00,,,,,,05,,,,,*71
$GBGMP,074522.00,,,,,,05,,,,,*72
$PSSN,SNC,[0,287140000,2347]*4C
$GPZDA,074527.00,01,01,2025,,*60
$GPDTM,W84,,00.0000000,N,00.0000000,E,00.0000000,W84*5F
$GPRMC,074527.00,A,4742.4467097,N,01617.9736048,E,0.0,,010125,5.1,E,D*12
$GPGLL,4742.4467097,N,01617.9736048,E,074527.00,A,D*63
$GPGGA,074527.00,4742.4467097,N,01617.9736048,E,2,20,0.7,625.3511,M,43.2111,M,3.4,0123*4F
$GNGNS,074527.00,4742.4467097,N,01617.9736048,E,DAAA,20,0.7,625.3511,43.2111,,*54
$GPGNS,074527.00,,,,,,05,,,,3.4,123*7C
$GLGNS,074527.00,,,,,,05,,,,,*79
$GAGNS,074527.00,,,,,,05,,,,,*74
$GBGNS,074527.00,,,,,,05,,,,,*77
$GPLLQ,074527.00,010125,,M,,M,1,20,2.811,,M*1A
$GPVTG,,T,,M,0.01,N,0.02,K,D*25
$GPHDT,,T*1B
$GPTHS,,V*0E
$GPROT,,V*08
$PSSN,HRP,074527.00,010125,,,,,,,00,0,,*62
$PTNL,AVR,074527.00,,Yaw,,Tilt,,,,0,,00*34
$GPGSA,A,3,05,07,14,15,30,,,,,,,,1.3,0.7,1.1*37
$GPGSA,A,3,65,72,74,75,76,,,,,,,,1.3,0.7,1.1*31
$GPGSA,A,3,03,05,08,24,25,,,,,,,,1.3,0.7,1.1*38
$GPGSA,A,3,21,22,36,42,45,,,,,,,,1.3,0.7,1.1*36
$GPGST,074527.00,3.391,1.245,0.756,356.204,1.243,0.758,2.405*51
$GPGBS,074527.00,6.548,3.301,10.717,15,0.0001,-2.225,1.013*4E
$GPGRS,074527.00,1,0.6,1.8,0.6,-2.2,-0.7,,,,,,,*6D
$GPGRS,074527.00,1,-3.3,5.0,1.9,-3.9,-7.5,,,,,,,*4B
$GPGRS,074527.00,1,-1.0,1.8,1.0,-1.0,0.4,,,,,,,*6F
$GPGRS,074527.00,1,0.7,-3.8,-1.8,-2.0,0.0,,,,,,,*49
$GPGSV,4,1,15,30,66,061,46,15,21,301,44,08,11,048,,22,37,170,*7D
$GPGSV,4,2,15,20,37,210,37,07,30,065,40,14,53,149,50,13,55,300,38*79
$GPGSV,4,3,15,05,54,257,48,27,02,018,,18,09,319,27,36,35,170,39*7D
$GPGSV,4,4,15,34,31,208,,49,34,195,,61,03,257,*41
$GLGSV,3,1,11,75,74,193,51,66,16,318,31,76,15,211,39,72,50,131,39*62
$GLGSV,3,2,11,74,46,041,41,65,67,324,47,73,03,037,,71,02,136,*62
$GLGSV,3,3,11,81,05,306,32,82,10,349,30,83,02,028,*58
$GAGSV,3,1,10,03,82,329,46,24,40,060,44,02,16,188,29,13,16,297,32*6B
$GAGSV,3,2,10,08,30,296,37,05,41,108,41,16,56,095,,25,53,141,43*6C
$GAGSV,3,3,10,15,09,247,24,26,05,345,*60
$GBGSV,4,1,14,45,77,178,47,56,12,093,,09,12,067,,05,21,130,*62
$GBGSV,4,2,14,26,24,223,27,42,26,312,43,40,22,065,28,22,43,151,37*62
$GBGSV,4,3,14,10,28,082,,36,43,057,46,50,51,301,,21,74,273,50*6A
$GBGSV,4,4,14,02,05,108,,60,07,112,*63
$GPGGA,074527.00,,,,,0,00,,,M,,M,,*4B
$PTNL,GGK,074527.00,010125,4742.4467097,N,01617.9736048,E,1,20,1.3,EHT668.5622,M*4E
$GPGGQ,074527.00,010125,4742.4467097,N,01617.9736048,E,1,20,2.811,625.3511,M*34
$GPGFA,074527.00,11.837,19.718,1.245,0.756,356.204,2.405,,VVV*09
$GPLLK,074527.00,010125,,M,,M,1,20,1.5,,M*0E
$GNGMP,074527.00,,,,,DAAA,20,0.7,,,,*50
$GPGMP,074527.00,,,,,,05,,,,3.4,123*7C
$GLGMP,074527.00,,,,,,05,,,,,*79
$GAGMP,074527.00,,,,,,05,,,,,*74
$GBGMP,074527.00,,,,,,05,,,,,*77
$PSSN,SNC,[0,287145000,2347]*49
$GPZDA,074532.00,01,01,2025,,*64
$GPDTM,W84,,00.0000000,N,00.0000000,E,00.0000000,W84*5F
$GPRMC,074532.00,A,4742.4467143,N,01617.9735962,E,0.0,,010125,5.1,E,D*1C
$GPGLL,4742.4467143,N,01617.9735962,E,074532.00,A,D*6D
$GPGGA,074532.00,4742.4467143,N,01617.9735962,E,2,20,0.7,625.3404,M,43.2111,M,2.0,0123*41
$GNGNS,074532.00,4742.4467143,N,01617.9735962,E,DAAA,20,0.7,625.3404,43.2111,,*5F
$GPGNS,074532.00,,,,,,05,,,,2.0,123*7D
$GLGNS,074532.00,,,,,,05,,,,,*7D
$GAGNS,074532.00,,,,,,05,,,,,*70
$GBGNS,074532.00,,,,,,05,,,,,*73
$GPLLQ,074532.00,010125,,M,,M,1,20,2.006,,M*10
$GPVTG,,T,,M,0.00,N,0.01,K,D*27
$GPHDT,,T*1B
$GPTHS,,V*0E
$GPROT,,V*08
$PSSN,HRP,074532.00,010125,,,,,,,00,0,,*66
$PTNL,AVR,074532.00,,Yaw,,Tilt,,,,0,,00*30
$GPGSA,A,3,05,07,14,15,30,,,,,,,,1.3,0.7,1.1*37
$GPGSA,A,3,65,72,74,75,76,,,,,,,,1.3,0.7,1.1*31
$GPGSA,A,3,03,05,08,24,25,,,,,,,,1.3,0.7,1.1*38
$GPGSA,A,3,21,22,36,42,45,,,,,,,,1.3,0.7,1.1*36
$GPGST,074532.00,2.633,0.883,0.533,356.497,0.882,0.534,1.721*5D
$GPGBS,074532.00,6.302,3.231,10.871,15,0.0001,-1.562,1.026*4E
$GPGRS,074532.00,1,0.6,0.1,0.3,-1.6,-0.2,,,,,,,*66
$GPGRS,074532.00,1,-2.7,4.6,0.6,-3.5,-5.9,,,,,,,*41
$GPGRS,074532.00,1,-1.0,1.7,0.8,-0.7,0.2,,,,,,,*6D
$GPGRS,074532.00,1,0.6,-1.3,-1.7,-1.1,-0.0,,,,,,,*65
$GPGSV,4,1,15,30,66,061,45,15,21,301,43,08,11,048,,22,37,170,*79
$GPGSV,4,2,15,20,37,210,,07,30,065,40,14,53,149,50,13,55,300,38*7D
$GPGSV,4,3,15,05,54,257,49,27,02,018,,18,09,319,23,36,35,170,39*78
$GPGSV,4,4,15,34,31,208,,49,34,195,,61,03,257,*41
$GLGSV,3,1,11,75,74,193,51,66,16,318,33,76,15,211,40,72,50,131,39*6E
$GLGSV,3,2,11,74,46,041,39,65,67,324,47,73,03,037,,71,02,136,*6D
$GLGSV,3,3,11,81,05,306,36,82,10,349,29,83,02,028,*54
$GAGSV,3,1,10,03,82,329,46,24,40,059,44,02,16,188,29,13,16,297,31*62
$GAGSV,3,2,10,08,30,296,36,05,41,108,41,16,56,095,,25,53,141,44*6A
$GAGSV,3,3,10,15,09,247,25,26,05,345,*61
$GBGSV,4,1,14,45,77,178,48,56,12,093,,09,12,067,,05,21,130,*6D
$GBGSV,4,2,14,26,24,223,30,42,26,312,44,40,22,065,26,22,43,151,38*62
$GBGSV,4,3,14,10,28,082,,36,43,057,46,50,51,301,,21,74,272,50*6B
$GBGSV,4,4,14,02,05,108,,60,07,112,*63
$GPGGA,074532.00,,,,,0,00,,,M,,M,,*4F
$PTNL,GGK,074532.00,010125,4742.4467143,N,01617.9735962,E,1,20,1.3,EHT668.5515,M*47
$GPGGQ,074532.00,010125,4742.4467143,N,01617.9735962,E,1,20,2.006,625.3404,M*31
$GPGFA,074532.00,8.397,14.113,0.883,0.533,356.497,1.721,,VVV*3E
$GPLLK,074532.00,010125,,M,,M,1,20,1.5,,M*0A
$GNGMP,074532.00,,,,,DAAA,20,0.7,,,,*54
$GPGMP,074532.00,,,,,,05,,,,2.0,123*7D
$GLGMP,074532.00,,,,,,05,,,,,*7D
$GAGMP,074532.00,,,,,,05,,,,,*70
$GBGMP,074532.00,,,,,,05,,,,,*73
$PSSN,SNC,[0,287150000,2347]*4D
$GPZDA,074537.00,01,01,2025,,*61
$GPDTM,W84,,00.0000000,N,00.0000000,E,00.0000000,W84*5F
$GPRMC,074537.00,A,4742.4467124,N,01617.9735881,E,0.0,,010125,5.1,E,D*14
$GPGLL,4742.4467124,N,01617.9735881,E,074537.00,A,D*65
$GPGGA,074537.00,4742.4467124,N,01617.9735881,E,2,21,0.7,625.3202,M,43.2111,M,2.0,0123*48
$GNGNS,074537.00,4742.4467124,N,01617.9735881,E,DAAA,21,0.7,625.3202,43.2111,,*56
$GPGNS,074537.00,,,,,,06,,,,2.0,123*7B
$GLGNS,074537.00,,,,,,05,,,,,*78
$GAGNS,074537.00,,,,,,05,,,,,*75
$GBGNS,074537.00,,,,,,05,,,,,*76
$GPLLQ,074537.00,010125,,M,,M,1,21,2.567,,M*16
$GPVTG,,T,,M,0.00,N,0.01,K,D*27
$GPHDT,,T*1B
$GPTHS,,V*0E
$GPROT,,V*08
$PSSN,HRP,074537.00,010125,,,,,,,00,0,,*63
$PTNL,AVR,074537.00,,Yaw,,Tilt,,,,0,,00*35
$GPGSA,A,3,05,07,14,15,20,30,,,,,,,1.3,0.7,1.1*35
$GPGSA,A,3,65,72,74,75,76,,,,,,,,1.3,0.7,1.1*31
$GPGSA,A,3,03,05,08,24,25,,,,,,,,1.3,0.7,1.1*38
$GPGSA,A,3,21,22,36,42,45,,,,,,,,1.3,0.7,1.1*36
$GPGST,074537.00,2.482,0.974,0.731,337.767,0.943,0.770,2.260*5F
$GPGBS,074537.00,3.719,3.128,7.720,20,0.0001,-2.225,0.738*7E
$GPGRS,074537.00,1,0.8,-0.7,1.0,-1.0,-2.2,0.5,,,,,,*6B
$GPGRS,074537.00,1,-3.3,5.5,1.7,-2.4,-3.7,,,,,,,*4B
$GPGRS,074537.00,1,-0.3,2.1,1.5,0.3,0.6,,,,,,,*4E
$GPGRS,074537.00,1,0.9,2.3,-0.5,0.7,0.3,,,,,,,*46
$GPGSV,4,1,15,30,66,061,44,15,21,301,42,08,11,048,,22,37,170,*79
$GPGSV,4,2,15,20,37,210,39,07,30,065,40,14,53,149,50,13,55,300,38*77
$GPGSV,4,3,15,05,54,257,48,27,02,018,,18,09,319,24,36,35,170,39*7E
$GPGSV,4,4,15,34,31,208,,49,34,195,,61,03,257,*41
$GLGSV,3,1,11,75,74,193,50,66,16,318,35,76,15,211,41,72,50,131,38*69
$GLGSV,3,2,11,74,46,041,38,65,67,324,45,73,03,037,,71,02,136,*6E
$GLGSV,3,3,11,81,05,306,35,82,10,349,21,83,02,028,*5F
$GAGSV,3,1,10,03,82,329,45,24,40,059,44,02,16,188,27,13,16,297,29*66
$GAGSV,3,2,10,08,30,296,36,05,41,108,41,16,56,095,,25,54,141,44*6D
$GAGSV,3,3,10,15,09,246,25,26,05,345,*60
$GBGSV,4,1,14,45,77,177,48,56,12,093,,09,12,067,,05,21,130,*62
$GBGSV,4,2,14,26,24,223,33,42,26,312,45,40,22,065,26,22,43,151,39*61
$GBGSV,4,3,14,10,28,082,,36,43,057,46,50,51,301,,21,74,272,50*6B
$GBGSV,4,4,14,02,05,108,,60,07,112,*63
$GPGGA,074537.00,,,,,0,00,,,M,,M,,*4A
$PTNL,GGK,074537.00,010125,4742.4467124,N,01617.9735881,E,1,21,1.3,EHT668.5312,M*4F
$GPGGQ,074537.00,010125,4742.4467124,N,01617.9735881,E,1,21,2.567,625.3202,M*3A
$GPGFA,074537.00,9.262,18.532,0.974,0.731,337.767,2.260,,VVV*3B
$GPLLK,074537.00,010125,,M,,M,1,21,1.5,,M*0E
$GNGMP,074537.00,,,,,DAAA,21,0.7,,,,*50
$GPGMP,074537.00,,,,,,06,,,,2.0,123*7B
$GLGMP,074537.00,,,,,,05,,,,,*78
$GAGMP,074537.00,,,,,,05,,,,,*75
$GBGMP,074537.00,,,,,,05,,,,,*76
$PSSN,SNC,[0,287155000,2347]*48
$GPZDA,074542.00,01,01,2025,,*63
$GPDTM,W84,,00.0000000,N,00.0000000,E,00.0000000,W84*5F
$GPRMC,074542.00,A,4742.4467145,N,01617.9735795,E,0.0,,010125,5.1,E,D*1B
$GPGLL,4742.4467145,N,01617.9735795,E,074542.00,A,D*6A
$GPGGA,074542.00,4742.4467145,N,01617.9735795,E,2,20,0.7,625.2955,M,43.2111,M,2.3,0123*4D
$GNGNS,074542.00,4742.4467145,N,01617.9735795,E,DAAA,20,0.7,625.2955,43.2111,,*50
$GPGNS,074542.00,,,,,,06,,,,2.3,123*7A
$GLGNS,074542.00,,,,,,05,,,,,*7A
$GAGNS,074542.00,,,,,,04,,,,,*76
$GBGNS,074542.00,,,,,,05,,,,,*74
$GPLLQ,074542.00,010125,,M,,M,1,20,1.853,,M*1C
$GPVTG,,T,,M,0.01,N,0.01,K,D*26
$GPHDT,,T*1B
$GPTHS,,V*0E
$GPROT,,V*08
$PSSN,HRP,074542.00,010125,,,,,,,00,0,,*61
$PTNL,AVR,074542.00,,Yaw,,Tilt,,,,0,,00*37
$GPGSA,A,3,05,07,14,15,20,30,,,,,,,1.3,0.7,1.1*35
$GPGSA,A,3,65,72,74,75,76,,,,,,,,1.3,0.7,1.1*31
$GPGSA,A,3,03,05,24,25,,,,,,,,,1.3,0.7,1.1*30
$GPGSA,A,3,21,22,36,42,45,,,,,,,,1.3,0.7,1.1*36
$GPGST,074542.00,2.435,0.705,0.532,335.108,0.677,0.566,1.629*52
$GPGBS,074542.00,3.676,3.182,7.801,14,0.0001,0.986,0.686*56
$GPGRS,074542.00,1,0.3,-0.8,1.0,-1.0,-0.4,0.5,,,,,,*69
$GPGRS,074542.00,1,-5.6,4.3,1.4,-2.8,-2.4,,,,,,,*40
$GPGRS,074542.00,1,-0.4,1.5,0.2,0.4,,,,,,,,*65
$GPGRS,074542.00,1,0.4,1.8,-0.9,1.0,-0.8,,,,,,,*6D
$GPGSV,4,1,15,30,66,061,44,15,21,301,42,08,11,048,,22,37,170,*79
$GPGSV,4,2,15,20,37,210,39,07,30,065,39,14,53,149,50,13,55,300,38*79
$GPGSV,4,3,15,05,54,257,47,27,02,018,,18,09,319,28,36,35,170,39*7D
$GPGSV,4,4,15,34,31,208,,49,34,195,,61,03,257,*41
$GLGSV,3,1,11,75,74,193,51,66,16,318,29,76,15,211,42,72,49,131,38*6E
$GLGSV,3,2,11,74,46,041,38,65,67,324,42,73,03,037,,71,02,136,*69
$GLGSV,3,3,11,81,05,306,31,82,10,349,30,83,02,028,*5B
$GAGSV,3,1,10,03,82,329,45,24,40,059,44,02,16,188,25,13,16,297,27*6A
$GAGSV,3,2,10,08,30,296,34,05,41,108,41,16,56,095,,25,54,141,44*6F
$GAGSV,3,3,10,15,09,246,26,26,05,345,*63
$GBGSV,4,1,14,45,77,177,48,56,12,093,,09,12,067,,05,21,130,*62
$GBGSV,4,2,14,26,24,223,34,42,26,312,45,40,22,065,27,22,43,151,38*66
$GBGSV,4,3,14,10,28,082,,36,43,057,46,50,51,301,,21,74,272,50*6B
$GBGSV,4,4,14,02,05,108,,60,07,112,*63
$GPGGA,074542.00,,,,,0,00,,,M,,M,,*48
$PTNL,GGK,074542.00,010125,4742.4467145,N,01617.9735795,E,1,20,1.3,EHT668.5066,M*41
$GPGGQ,074542.00,010125,4742.4467145,N,01617.9735795,E,1,20,1.853,625.2955,M*35
$GPGFA,074542.00,6.701,13.359,0.705,0.532,335.108,1.629,,VVV*38
$GPLLK,074542.00,010125,,M,,M,1,20,1.5,,M*0D
$GNGMP,074542.00,,,,,DAAA,20,0.7,,,,*53
$GPGMP,074542.00,,,,,,06,,,,2.3,123*7A
$GLGMP,074542.00,,,,,,05,,,,,*7A
$GAGMP,074542.00,,,,,,04,,,,,*76
$GBGMP,074542.00,,,,,,05,,,,,*74
$PSSN,SNC,[0,287160000,2347]*4E
$GPZDA,074547.00,01,01,2025,,*66
$GPDTM,W84,,00.0000000,N,00.0000000,E,00.0000000,W84*5F
$GPRMC,074547.00,A,4742.4467202,N,01617.9735768,E,0.0,,010125,5.1,E,D*1C
$GPGLL,4742.4467202,N,01617.9735768,E,074547.00,A,D*6D
$GPGGA,074547.00,4742.4467202,N,01617.9735768,E,2,21,0.7,625.2873,M,43.2111,M,3.4,0123*48
$GNGNS,074547.00,4742.4467202,N,01617.9735768,E,DAAA,21,0.7,625.2873,43.2111,,*53
$GPGNS,074547.00,,,,,,07,,,,3.4,123*78
$GLGNS,074547.00,,,,,,05,,,,,*7F
$GAGNS,074547.00,,,,,,04,,,,,*73
$GBGNS,074547.00,,,,,,05,,,,,*71
$GPLLQ,074547.00,010125,,M,,M,1,21,2.665,,M*10
$GPVTG,,T,,M,0.00,N,0.01,K,D*27
$GPHDT,,T*1B
$GPTHS,,V*0E
$GPROT,,V*08
$PSSN,HRP,074547.00,010125,,,,,,,00,0,,*64
$PTNL,AVR,074547.00,,Yaw,,Tilt,,,,0,,00*32
$GPGSA,A,3,05,07,13,14,15,20,30,,,,,,1.3,0.7,1.1*37
$GPGSA,A,3,65,72,74,75,76,,,,,,,,1.3,0.7,1.1*31
$GPGSA,A,3,03,05,24,25,,,,,,,,,1.3,0.7,1.1*30
$GPGSA,A,3,21,22,36,42,45,,,,,,,,1.3,0.7,1.1*36
$GPGST,074547.00,2.687,0.949,0.791,0.204,0.949,0.791,2.362*5A
$GPGBS,074547.00,3.484,2.932,7.501,13,0.0001,2.564,0.721*5A
$GPGRS,074547.00,1,-0.7,-0.6,2.6,0.6,-1.2,-0.2,-0.1,,,,,*4B
$GPGRS,074547.00,1,-7.1,1.9,1.1,-3.3,-4.2,,,,,,,*40
$GPGRS,074547.00,1,-0.9,0.0,-0.4,-0.4,,,,,,,,*6F
$GPGRS,074547.00,1,-0.5,-1.3,-1.3,0.4,-2.1,,,,,,,*67
$GPGSV,4,1,15,30,66,061,44,15,21,301,40,08,11,047,,22,37,170,*74
$GPGSV,4,2,15,20,37,210,38,07,30,065,38,14,53,149,50,13,55,300,37*76
$GPGSV,4,3,15,05,54,257,45,27,02,018,,18,09,319,31,36,35,170,39*77
$GPGSV,4,4,15,34,31,208,,49,34,195,,61,03,257,*41
$GLGSV,3,1,11,75,74,193,51,66,16,318,26,76,15,211,41,72,49,131,39*63
$GLGSV,3,2,11,74,46,041,39,65,67,324,41,73,03,037,,71,02,136,*6B
$GLGSV,3,3,11,81,05,306,28,82,10,349,35,83,02,027,*59
$GAGSV,3,1,10,03,82,329,45,24,40,059,44,02,16,188,25,13,16,297,27*6A
$GAGSV,3,2,10,08,30,296,34,05,41,108,41,16,56,095,,25,54,141,44*6F
$GAGSV,3,3,10,15,09,246,27,26,05,345,*62
$GBGSV,4,1,14,45,77,177,47,56,12,093,,09,12,067,,05,21,130,*6D
$GBGSV,4,2,14,26,24,223,34,42,26,312,45,40,22,065,,22,43,151,37*6C
$GBGSV,4,3,14,10,28,082,,36,43,057,46,50,51,301,,21,74,272,50*6B
$GBGSV,4,4,14,02,05,108,,60,07,112,*63
$GPGGA,074547.00,,,,,0,00,,,M,,M,,*4D
$PTNL,GGK,074547.00,010125,4742.4467202,N,01617.9735768,E,1,21,1.3,EHT668.4984,M*43
$GPGGQ,074547.00,010125,4742.4467202,N,01617.9735768,E,1,21,2.665,625.2873,M*3E
$GPGFA,074547.00,9.019,19.369,0.949,0.791,0.204,2.362,,VVV*3B
$GPLLK,074547.00,010125,,M,,M,1,21,1.5,,M*09
$GNGMP,074547.00,,,,,DAAA,21,0.7,,,,*57
$GPGMP,074547.00,,,,,,07,,,,3.4,123*78
$GLGMP,074547.00,,,,,,05,,,,,*7F
$GAGMP,074547.00,,,,,,04,,,,,*73
$GBGMP,074547.00,,,,,,05,,,,,*71
$PSSN,SNC,[0,287165000,2347]*4B
$GPZDA,074552.00,01,01,2025,,*62
$GPDTM,W84,,00.0000000,N,00.0000000,E,00.0000000,W84*5F
$GPRMC,074552.00,A,4742.4467187,N,01617.9735628,E,0.0,,010125,5.1,E,D*13
$GPGLL,4742.4467187,N,01617.9735628,E,074552.00,A,D*62
$GPGGA,074552.00,4742.4467187,N,01617.9735628,E,2,21,0.7,625.2711,M,43.2111,M,2.3,0123*4A
$GNGNS,074552.00,4742.4467187,N,01617.9735628,E,DAAA,21,0.7,625.2711,43.2111,,*57
$GPGNS,074552.00,,,,,,06,,,,2.3,123*7B
$GLGNS,074552.00,,,,,,05,,,,,*7B
$GAGNS,074552.00,,,,,,04,,,,,*77
$GBGNS,074552.00,,,,,,06,,,,,*76
$GPLLQ,074552.00,010125,,M,,M,1,21,2.182,,M*1A
$GPVTG,,T,,M,0.00,N,0.01,K,D*27
$GPHDT,,T*1B
$GPTHS,,V*0E
$GPROT,,V*08
$PSSN,HRP,074552.00,010125,,,,,,,00,0,,*60
$PTNL,AVR,074552.00,,Yaw,,Tilt,,,,0,,00*36
$GPGSA,A,3,05,07,14,15,20,30,,,,,,,1.3,0.7,1.1*35
$GPGSA,A,3,65,72,74,75,76,,,,,,,,1.3,0.7,1.1*31
$GPGSA,A,3,03,05,24,25,,,,,,,,,1.3,0.7,1.1*30
$GPGSA,A,3,21,22,26,36,42,45,,,,,,,1.3,0.7,1.1*32
$GPGST,074552.00,2.529,0.836,0.627,335.316,0.803,0.668,1.916*59
$GPGBS,074552.00,3.647,3.074,7.707,14,0.0001,1.231,0.655*5C
$GPGRS,074552.00,1,-0.4,0.4,1.2,-1.3,-1.4,0.6,,,,,,*60
$GPGRS,074552.00,1,-5.8,1.3,2.2,-3.1,-4.8,,,,,,,*4D
$GPGRS,074552.00,1,-0.4,-0.4,0.2,-0.1,,,,,,,,*61
$GPGRS,074552.00,1,-0.1,-2.3,0.5,-0.6,1.2,-1.6,,,,,,*48
$GPGSV,4,1,15,30,66,061,44,15,21,301,37,08,11,047,,22,37,170,*74
$GPGSV,4,2,15,20,37,210,38,07,30,065,37,14,53,149,50,13,55,300,36*78
$GPGSV,4,3,15,05,54,257,43,27,02,017,,18,09,319,31,36,35,170,38*7F
$GPGSV,4,4,15,34,31,208,,49,34,195,,61,03,257,*41
$GLGSV,3,1,11,75,75,193,51,66,16,318,24,76,15,211,40,72,49,131,41*6E
$GLGSV,3,2,11,74,46,041,41,65,67,324,41,73,03,037,,71,02,136,*64
$GLGSV,3,3,11,81,05,305,29,82,10,349,34,83,02,027,*5A
$GAGSV,3,1,10,03,82,329,45,24,40,059,44,02,16,188,25,13,16,297,27*6A
$GAGSV,3,2,10,08,30,296,33,05,41,108,42,16,56,094,,25,54,141,44*6A
$GAGSV,3,3,10,15,09,246,27,26,05,345,*62
$GBGSV,4,1,14,45,77,177,46,56,12,093,,09,12,067,,05,21,130,*6C
$GBGSV,4,2,14,26,24,223,39,42,26,312,45,40,22,065,27,22,43,151,37*64
$GBGSV,4,3,14,10,28,082,,36,43,057,47,50,51,301,,21,74,272,50*6A
$GBGSV,4,4,14,02,05,108,,60,07,112,*63
$GPGGA,074552.00,,,,,0,00,,,M,,M,,*49
$PTNL,GGK,074552.00,010125,4742.4467187,N,01617.9735628,E,1,21,1.3,EHT668.4822,M*41
$GPGGQ,074552.00,010125,4742.4467187,N,01617.9735628,E,1,21,2.182,625.2711,M*34
$GPGFA,074552.00,7.944,15.709,0.836,0.627,335.316,1.916,,VVV*36
$GPLLK,074552.00,010125,,M,,M,1,21,1.5,,M*0D
$GNGMP,074552.00,,,,,DAAA,21,0.7,,,,*53
$GPGMP,074552.00,,,,,,06,,,,2.3,123*7B
$GLGMP,074552.00,,,,,,05,,,,,*7B
$GAGMP,074552.00,,,,,,04,,,,,*77
$GBGMP,074552.00,,,,,,06,,,,,*76
$PSSN,SNC,[0,287170000,2347]*4F
$GPZDA,074557.00,01,01,2025,,*67
$GPDTM,W84,,00.0000000,N,00.0000000,E,00.0000000,W84*5F
$GPRMC,074557.00,A,4742.4467171,N,01617.9735464,E,0.0,,010125,5.1,E,D*15
$GPGLL,4742.4467171,N,01617.9735464,E,074557.00,A,D*64
$GPGGA,074557.00,4742.4467171,N,01617.9735464,E,2,20,0.7,625.2577,M,43.2111,M,2.3,0123*4F
$GNGNS,074557.00,4742.4467171,N,01617.9735464,E,DAAA,20,0.7,625.2577,43.2111,,*52
$GPGNS,074557.00,,,,,,04,,,,2.3,123*7C
$GLGNS,074557.00,,,,,,05,,,,,*7E
$GAGNS,074557.00,,,,,,05,,,,,*73
$GBGNS,074557.00,,,,,,06,,,,,*73
$GPLLQ,074557.00,010125,,M,,M,1,20,5.339,,M*1B
$GPVTG,,T,,M,0.01,N,0.01,K,D*26
$GPHDT,,T*1B
$GPTHS,,V*0E
$GPROT,,V*08
$PSSN,HRP,074557.00,010125,,,,,,,00,0,,*65
$PTNL,AVR,074557.00,,Yaw,,Tilt,,,,0,,00*33
$GPGSA,A,3,05,14,20,30,,,,,,,,,1.3,0.7,1.1*36
$GPGSA,A,3,65,72,74,75,76,,,,,,,,1.3,0.7,1.1*31
$GPGSA,A,3,03,05,13,24,25,,,,,,,,1.3,0.7,1.1*32
$GPGSA,A,3,21,22,26,36,42,45,,,,,,,1.3,0.7,1.1*32
$GPGST,074557.00,3.363,1.518,0.826,16.245,1.476,0.900,5.051*6F
$GPGBS,074557.00,7.036,6.296,22.954,20,0.0001,-1.141,0.735*40
$GPGRS,074557.00,1,0.1,0.7,-1.1,0.4,,,,,,,,*65
$GPGRS,074557.00,1,-5.5,2.2,2.9,-3.8,-6.5,,,,,,,*4A
$GPGRS,074557.00,1,-0.6,-1.0,5.4,0.0,-0.1,,,,,,,*4E
$GPGRS,074557.00,1,-0.3,-3.1,0.4,-0.5,1.6,-1.3,,,,,,*4F
$GPGSV,4,1,15,30,66,061,44,15,21,301,33,08,11,047,,22,37,170,*70
$GPGSV,4,2,15,20,37,210,39,07,30,065,34,14,53,149,50,13,55,300,37*7B
$GPGSV,4,3,15,05,54,257,43,27,02,017,,18,09,319,33,36,35,170,38*7D
$GPGSV,4,4,15,34,31,208,,49,34,195,,61,03,257,*41
$GLGSV,3,1,11,75,75,193,51,66,16,318,26,76,15,211,38,72,49,131,42*60
$GLGSV,3,2,11,74,46,041,42,65,67,324,40,73,03,037,,71,02,136,*66
$GLGSV,3,3,11,81,05,305,31,82,10,349,28,83,02,027,*5E
$GAGSV,3,1,10,03,82,329,46,24,40,059,45,13,16,297,31,02,16,188,24*6E
$GAGSV,3,2,10,08,30,296,31,05,41,108,42,16,56,094,,25,54,141,44*68
$GAGSV,3,3,10,15,09,246,26,26,05,345,*63
$GBGSV,4,1,14,45,77,177,46,56,12,093,,09,12,067,,05,21,130,*6C
$GBGSV,4,2,14,26,24,223,39,42,26,312,45,40,22,065,,22,43,151,36*60
$GBGSV,4,3,14,10,28,082,,36,43,057,47,50,51,301,,21,74,272,50*6A
$GBGSV,4,4,14,02,05,108,,60,07,112,*63
$GPGGA,074557.00,,,,,0,00,,,M,,M,,*4C
$PTNL,GGK,074557.00,010125,4742.4467171,N,01617.9735464,E,1,20,1.3,EHT668.4688,M*48
$GPGGQ,074557.00,010125,4742.4467171,N,01617.9735464,E,1,20,5.339,625.2577,M*34
$GPGFA,074557.00,14.435,41.419,1.518,0.826,16.245,5.051,,VVV*3D
$GPLLK,074557.00,010125,,M,,M,1,20,1.6,,M*0A
$GNGMP,074557.00,,,,,DAAA,20,0.7,,,,*57
$GPGMP,074557.00,,,,,,04,,,,2.3,123*7C
$GLGMP,074557.00,,,,,,05,,,,,*7E
$GAGMP,074557.00,,,,,,05,,,,,*73
$GBGMP,074557.00,,,,,,06,,,,,*73
$PSSN,SNC,[0,287175000,2347]*4A
$GPZDA,074602.00,01,01,2025,,*64
$GPDTM,W84,,00.0000000,N,00.0000000,E,00.0000000,W84*5F
$GPRMC,074602.00,A,4742.4467129,N,01617.9735422,E,0.0,,010125,5.1,E,D*19
$GPGLL,4742.4467129,N,01617.9735422,E,074602.00,A,D*68
$GPGGA,074602.00,4742.4467129,N,01617.9735422,E,2,19,0.7,625.2459,M,43.2111,M,2.3,0123*44
$GNGNS,074602.00,4742.4467129,N,01617.9735422,E,DAAA,19,0.7,625.2459,43.2111,,*59
$GPGNS,074602.00,,,,,,04,,,,2.3,123*7F
$GLGNS,074602.00,,,,,,06,,,,,*7E
$GAGNS,074602.00,,,,,,04,,,,,*71
$GBGNS,074602.00,,,,,,05,,,,,*73
$GPLLQ,074602.00,010125,,M,,M,1,19,4.953,,M*15
$GPVTG,,T,,M,0.00,N,0.00,K,D*26
$GPHDT,,T*1B
$GPTHS,,V*0E
$GPROT,,V*08
$PSSN,HRP,074602.00,010125,,,,,,,00,0,,*66
$PTNL,AVR,074602.00,,Yaw,,Tilt,,,,0,,00*30
$GPGSA,A,3,05,14,20,30,,,,,,,,,1.3,0.7,1.1*36
$GPGSA,A,3,65,66,72,74,75,76,,,,,,,1.3,0.7,1.1*31
$GPGSA,A,3,03,05,24,25,,,,,,,,,1.3,0.7,1.1*30
$GPGSA,A,3,21,22,36,42,45,,,,,,,,1.3,0.7,1.1*36
$GPGST,074602.00,4.209,1.394,0.815,14.797,1.364,0.865,4.682*63
$GPGBS,074602.00,6.900,6.377,24.676,76,0.0001,-9.015,6.297*49
$GPGRS,074602.00,1,0.4,0.4,-0.8,0.1,,,,,,,,*6D
$GPGRS,074602.00,1,-4.9,-7.0,2.0,2.6,-4.5,-9.0,,,,,,*4D
$GPGRS,074602.00,1,-0.6,-1.5,-0.4,-0.5,,,,,,,,*4A
$GPGRS,074602.00,1,-0.7,-3.9,-0.6,2.5,-0.8,,,,,,,*63
$GPGSV,4,1,15,30,66,061,45,15,21,301,34,08,11,047,,22,37,170,*76
$GPGSV,4,2,15,20,37,210,38,07,30,065,28,14,53,149,49,13,55,300,36*7E
$GPGSV,4,3,15,05,54,256,42,27,02,017,,18,09,319,32,36,35,170,39*7D
$GPGSV,4,4,15,34,31,208,,49,34,195,,61,03,257,*41
$GLGSV,3,1,11,75,75,193,50,66,16,318,36,76,15,212,36,72,49,131,40*6F
$GLGSV,3,2,11,74,46,041,43,65,67,324,42,73,03,037,,71,02,136,*65
$GLGSV,3,3,11,81,05,305,34,82,10,349,31,83,02,027,*53
$GAGSV,3,1,10,03,82,330,46,24,40,059,44,13,16,297,30,02,16,188,24*66
$GAGSV,3,2,10,08,30,296,31,05,41,108,42,16,56,094,,25,54,141,44*68
$GAGSV,3,3,10,15,09,246,24,26,05,345,*61
$GBGSV,4,1,14,45,77,177,47,56,12,093,,09,12,067,,05,21,130,*6D
$GBGSV,4,2,14,26,24,223,32,42,26,312,45,40,22,065,25,22,43,151,36*6C
$GBGSV,4,3,14,10,28,082,,36,43,057,48,50,51,301,,21,74,272,50*65
$GBGSV,4,4,14,02,05,108,,60,07,112,*63
$GPGGA,074602.00,,,,,0,00,,,M,,M,,*4F
$PTNL,GGK,074602.00,010125,4742.4467129,N,01617.9735422,E,1,19,1.3,EHT668.4570,M*4A
$GPGGQ,074602.00,010125,4742.4467129,N,01617.9735422,E,1,19,4.953,625.2459,M*38
$GPGFA,074602.00,13.254,38.394,1.394,0.815,14.797,4.682,,VVV*37
$GPLLK,074602.00,010125,,M,,M,1,19,1.6,,M*03
$GNGMP,074602.00,,,,,DAAA,19,0.7,,,,*5E
$GPGMP,074602.00,,,,,,04,,,,2.3,123*7F
$GLGMP,074602.00,,,,,,06,,,,,*7E
$GAGMP,074602.00,,,,,,04,,,,,*71
$GBGMP,074602.00,,,,,,05,,,,,*73
$PSSN,SNC,[0,287180000,2347]*40
$GPZDA,074607.00,01,01,2025,,*61
$GPDTM,W84,,00.0000000,N,00.0000000,E,00.0000000,W84*5F
$GPRMC,074607.00,A,4742.4467076,N,01617.9735364,E,0.0,,010125,5.1,E,D*12
$GPGLL,4742.4467076,N,01617.9735364,E,074607.00,A,D*63
$GPGGA,074607.00,4742.4467076,N,01617.9735364,E,2,21,0.8,625.2308,M,43.2111,M,3.2,0123*48
$GNGNS,074607.00,4742.4467076,N,01617.9735364,E,DAAA,21,0.8,625.2308,43.2111,,*55
$GPGNS,074607.00,,,,,,05,,,,3.2,123*7B
$GLGNS,074607.00,,,,,,06,,,,,*7B
$GAGNS,074607.00,,,,,,05,,,,,*75
$GBGNS,074607.00,,,,,,05,,,,,*76
$GPLLQ,074607.00,010125,,M,,M,1,21,2.985,,M*16
$GPVTG,,T,,M,0.00,N,0.00,K,D*26
$GPHDT,,T*1B
$GPTHS,,V*0E
$GPROT,,V*08
$PSSN,HRP,074607.00,010125,,,,,,,00,0,,*63
$PTNL,AVR,074607.00,,Yaw,,Tilt,,,,0,,00*35
$GPGSA,A,3,05,14,15,20,30,,,,,,,,1.4,0.8,1.1*3A
$GPGSA,A,3,65,66,72,74,75,82,,,,,,,1.4,0.8,1.1*32
$GPGSA,A,3,03,05,13,24,25,,,,,,,,1.4,0.8,1.1*3A
$GPGSA,A,3,21,22,36,42,45,,,,,,,,1.4,0.8,1.1*3E
$GPGST,074607.00,3.258,1.029,0.837,82.606,0.841,1.026,2.674*6A
$GPGBS,074607.00,3.856,6.346,13.902,20,0.0001,-1.970,0.765*4E
$GPGRS,074607.00,1,0.0,0.7,0.9,-2.0,0.6,,,,,,,*45
$GPGRS,074607.00,1,-3.4,-2.3,2.7,4.0,-4.0,7.2,,,,,,*67
$GPGRS,074607.00,1,-0.1,-0.5,-0.3,-0.4,-0.6,,,,,,,*4A
$GPGRS,074607.00,1,-0.3,-5.2,-0.4,2.8,-0.2,,,,,,,*6A
$GPGSV,4,1,15,30,66,061,46,15,21,301,38,08,11,047,,22,37,170,*79
$GPGSV,4,2,15,20,37,210,39,07,30,065,20,14,53,149,49,13,55,300,34*75
$GPGSV,4,3,15,05,54,256,43,27,02,017,,18,09,319,24,36,35,170,39*7B
$GPGSV,4,4,15,34,31,208,,49,34,195,,61,03,257,*41
$GLGSV,3,1,11,75,75,193,50,66,16,318,41,76,15,212,34,72,49,131,40*6D
$GLGSV,3,2,11,74,45,041,44,65,67,324,43,73,03,037,,71,02,136,*60
$GLGSV,3,3,11,81,05,305,34,82,10,349,41,83,03,027,*55
$GAGSV,3,1,10,03,82,330,47,24,40,059,44,13,16,297,30,02,16,188,24*67
$GAGSV,3,2,10,08,30,296,31,05,41,108,42,16,56,094,,25,54,141,44*68
$GAGSV,3,3,10,15,09,246,24,26,05,345,*61
$GBGSV,4,1,14,45,78,177,47,56,12,093,,09,12,067,,05,21,130,*62
$GBGSV,4,2,14,26,24,223,32,42,26,312,45,40,22,065,,22,43,151,35*68
$GBGSV,4,3,14,10,28,082,,36,43,057,48,50,51,301,,21,74,272,51*64
$GBGSV,4,4,14,02,05,108,,60,07,112,*63
$GPGGA,074607.00,,,,,0,00,,,M,,M,,*4A
$PTNL,GGK,074607.00,010125,4742.4467076,N,01617.9735364,E,1,21,1.4,EHT668.4419,M*43
$GPGGQ,074607.00,010125,4742.4467076,N,01617.9735364,E,1,21,2.985,625.2308,M*36
$GPGFA,074607.00,9.780,21.925,1.029,0.837,82.606,2.674,,VVV*01
$GPLLK,074607.00,010125,,M,,M,1,21,1.6,,M*0D
$GNGMP,074607.00,,,,,DAAA,21,0.8,,,,*5F
$GPGMP,074607.00,,,,,,05,,,,3.2,123*7B
$GLGMP,074607.00,,,,,,06,,,,,*7B
$GAGMP,074607.00,,,,,,05,,,,,*75
$GBGMP,074607.00,,,,,,05,,,,,*76
$PSSN,SNC,[0,287185000,2347]*45
$GPZDA,074612.00,01,01,2025,,*65
$GPDTM,W84,,00.0000000,N,00.0000000,E,00.0000000,W84*5F
$GPRMC,074612.00,A,4742.4466995,N,01617.9735309,E,0.0,,010125,5.1,E,D*18
$GPGLL,4742.4466995,N,01617.9735309,E,074612.00,A,D*69
$GPGGA,074612.00,4742.4466995,N,01617.9735309,E,2,18,0.9,625.2432,M,43.2111,M,2.3,0123*47
$GNGNS,074612.00,4742.4466995,N,01617.9735309,E,DAAA,18,0.9,625.2432,43.2111,,*5A
$GPGNS,074612.00,,,,,,04,,,,2.3,123*7E
$GLGNS,074612.00,,,,,,05,,,,,*7C
$GAGNS,074612.00,,,,,,05,,,,,*71
$GBGNS,074612.00,,,,,,04,,,,,*73
$GPLLQ,074612.00,010125,,M,,M,1,18,3.394,,M*13
$GPVTG,,T,,M,0.01,N,0.01,K,D*26
$GPHDT,,T*1B
$GPTHS,,V*0E
$GPROT,,V*08
$PSSN,HRP,074612.00,010125,,,,,,,00,0,,*67
$PTNL,AVR,074612.00,,Yaw,,Tilt,,,,0,,00*31
$GPGSA,A,3,05,14,15,30,,,,,,,,,1.6,0.9,1.3*39
$GPGSA,A,3,65,66,72,74,75,,,,,,,,1.6,0.9,1.3*39
$GPGSA,A,3,03,05,13,24,25,,,,,,,,1.6,0.9,1.3*3B
$GPGSA,A,3,21,36,42,45,,,,,,,,,1.6,0.9,1.3*3F
$GPGST,074612.00,2.745,1.216,1.025,16.080,1.203,1.041,2.998*66
$GPGBS,074612.00,6.247,6.337,13.618,15,0.0001,2.321,1.022*64
$GPGRS,074612.00,1,-1.3,0.1,2.3,0.3,,,,,,,,*64
$GPGRS,074612.00,1,-3.3,-2.4,3.3,3.7,-4.3,,,,,,,*4E
$GPGRS,074612.00,1,-0.4,0.0,-1.7,-1.1,-2.0,,,,,,,*66
$GPGRS,074612.00,1,-0.6,-1.8,1.7,-0.9,,,,,,,,*65
$GPGSV,4,1,15,30,66,061,47,15,21,301,41,08,11,047,,22,37,170,*76
$GPGSV,4,2,15,20,37,210,39,07,30,065,29,14,53,149,49,13,55,300,33*7B
$GPGSV,4,3,15,05,54,256,44,27,02,017,,18,09,319,26,36,35,170,39*7E
$GPGSV,4,4,15,34,31,208,,49,34,195,,61,03,257,*41
$GLGSV,3,1,11,75,75,193,49,66,16,318,43,76,15,212,34,72,49,131,40*67
$GLGSV,3,2,11,74,45,041,44,65,67,324,44,73,03,037,,71,01,136,*64
$GLGSV,3,3,11,81,05,305,34,82,10,349,30,83,03,027,*53
$GAGSV,3,1,10,03,82,330,47,24,40,059,43,13,16,296,30,02,16,188,24*61
$GAGSV,3,2,10,08,30,296,33,05,41,108,43,16,56,094,,25,54,141,43*6C
$GAGSV,3,3,10,15,09,246,25,26,05,345,*60
$GBGSV,4,1,14,45,78,177,47,56,12,093,,09,12,067,,05,21,130,*62
$GBGSV,4,2,14,26,24,223,31,42,26,312,44,40,22,065,,22,43,151,33*6C
$GBGSV,4,3,14,10,28,082,,36,43,057,48,50,51,301,,21,74,271,52*64
$GBGSV,4,4,14,02,05,108,,60,07,112,*63
$GPGGA,074612.00,,,,,0,00,,,M,,M,,*4E
$PTNL,GGK,074612.00,010125,4742.4466995,N,01617.9735309,E,1,18,1.6,EHT668.4542,M*4E
$GPGGQ,074612.00,010125,4742.4466995,N,01617.9735309,E,1,18,3.394,625.2432,M*33
$GPGFA,074612.00,11.566,24.582,1.216,1.025,16.080,2.998,,VVV*3E
$GPLLK,074612.00,010125,,M,,M,1,18,1.9,,M*0C
$GNGMP,074612.00,,,,,DAAA,18,0.9,,,,*50
$GPGMP,074612.00,,,,,,04,,,,2.3,123*7E
$GLGMP,074612.00,,,,,,05,,,,,*7C
$GAGMP,074612.00,,,,,,05,,,,,*71
$GBGMP,074612.00,,,,,,04,,,,,*73
$PSSN,SNC,[0,287190000,2347]*41
$GPZDA,074617.00,01,01,2025,,*60
$GPDTM,W84,,00.0000000,N,00.0000000,E,00.0000000,W84*5F
$GPRMC,074617.00,A,4742.4466918,N,01617.9735289,E,0.0,,010125,5.1,E,D*11
$GPGLL,4742.4466918,N,01617.9735289,E,074617.00,A,D*60
$GPGGA,074617.00,4742.4466918,N,01617.9735289,E,2,17,1.0,625.2614,M,43.2111,M,2.3,0123*4F
$GNGNS,074617.00,4742.4466918,N,01617.9735289,E,DAAA,17,1.0,625.2614,43.2111,,*52
$GPGNS,074617.00,,,,,,04,,,,2.3,123*7B
$GLGNS,074617.00,,,,,,05,,,,,*79
$GAGNS,074617.00,,,,,,04,,,,,*75
$GBGNS,074617.00,,,,,,04,,,,,*76
$GPLLQ,074617.00,010125,,M,,M,1,17,3.796,,M*1F
$GPVTG,,T,,M,0.01,N,0.01,K,D*26
$GPHDT,,T*1B
$GPTHS,,V*0E
$GPROT,,V*08
$PSSN,HRP,074617.00,010125,,,,,,,00,0,,*62
$PTNL,AVR,074617.00,,Yaw,,Tilt,,,,0,,00*34
$GPGSA,A,3,05,14,15,30,,,,,,,,,1.7,1.0,1.4*37
$GPGSA,A,3,65,66,72,74,75,,,,,,,,1.7,1.0,1.4*37
$GPGSA,A,3,03,05,24,25,,,,,,,,,1.7,1.0,1.4*37
$GPGSA,A,3,21,36,42,45,,,,,,,,,1.7,1.0,1.4*31
$GPGST,074617.00,2.676,1.373,1.129,17.425,1.353,1.153,3.354*6A
$GPGBS,074617.00,6.387,6.448,13.461,05,0.0001,-1.769,0.665*4C
$GPGRS,074617.00,1,-1.8,0.2,2.1,0.4,,,,,,,,*6C
$GPGRS,074617.00,1,-3.1,0.2,3.8,3.1,-3.7,,,,,,,*6E
$GPGRS,074617.00,1,-0.3,0.8,-1.3,-2.4,,,,,,,,*6F
$GPGRS,074617.00,1,-0.6,-2.0,1.5,-1.1,,,,,,,,*60
$GPGSV,4,1,15,30,66,061,47,15,21,301,41,08,11,047,,22,37,170,*76
$GPGSV,4,2,15,20,37,210,39,07,30,065,24,14,54,149,50,13,55,300,31*7B
$GPGSV,4,3,15,05,54,256,42,27,02,017,,18,09,319,29,36,35,170,39*77
$GPGSV,4,4,15,34,31,208,,49,34,195,,61,03,257,*41
$GLGSV,3,1,11,75,75,193,49,66,16,318,44,76,15,212,34,72,49,131,43*63
$GLGSV,3,2,11,74,45,041,43,65,67,324,45,73,03,037,,71,01,136,*62
$GLGSV,3,3,11,81,05,305,35,82,10,349,37,83,03,027,*55
$GAGSV,3,1,10,03,82,330,48,24,40,059,42,13,16,296,31,02,16,188,24*6E
$GAGSV,3,2,10,08,30,297,34,05,41,108,42,16,56,094,,25,54,141,42*6A
$GAGSV,3,3,10,15,09,246,24,26,05,345,*61
$GBGSV,4,1,14,45,78,177,46,56,12,093,,09,12,067,,05,21,130,*63
$GBGSV,4,2,14,26,24,223,34,42,26,312,43,40,22,065,,22,43,151,31*6C
$GBGSV,4,3,14,10,28,082,,36,43,057,48,50,51,301,,21,74,271,52*64
$GBGSV,4,4,14,02,05,108,,60,07,112,*63
$GPGGA,074617.00,,,,,0,00,,,M,,M,,*4B
$PTNL,GGK,074617.00,010125,4742.4466918,N,01617.9735289,E,1,17,1.7,EHT668.4725,M*4A
$GPGGQ,074617.00,010125,4742.4466918,N,01617.9735289,E,1,17,3.796,625.2614,M*35
$GPGFA,074617.00,13.052,27.505,1.373,1.129,17.425,3.354,,VVV*39
$GPLLK,074617.00,010125,,M,,M,1,17,2.1,,M*0D
$GNGMP,074617.00,,,,,DAAA,17,1.0,,,,*52
$GPGMP,074617.00,,,,,,04,,,,2.3,123*7B
$GLGMP,074617.00,,,,,,05,,,,,*79
$GAGMP,074617.00,,,,,,04,,,,,*75
$GBGMP,074617.00,,,,,,04,,,,,*76
$PSSN,SNC,[0,287195000,2347]*44
$GPZDA,074622.00,01,01,2025,,*66
$GPDTM,W84,,00.0000000,N,00.0000000,E,00.0000000,W84*5F
$GPRMC,074622.00,A,4742.4466774,N,01617.9735137,E,0.0,,010125,5.1,E,D*15
$GPGLL,4742.4466774,N,01617.9735137,E,074622.00,A,D*64
$GPGGA,074622.00,4742.4466774,N,01617.9735137,E,2,21,0.7,625.2664,M,43.2111,M,2.2,0123*4E
$GNGNS,074622.00,4742.4466774,N,01617.9735137,E,DAAA,21,0.7,625.2664,43.2111,,*52
$GPGNS,074622.00,,,,,,05,,,,2.2,123*7D
$GLGNS,074622.00,,,,,,06,,,,,*7C
$GAGNS,074622.00,,,,,,05,,,,,*72
$GBGNS,074622.00,,,,,,05,,,,,*71
$GPLLQ,074622.00,010125,,M,,M,1,21,3.843,,M*1B
$GPVTG,,T,,M,0.00,N,0.00,K,D*26
$GPHDT,,T*1B
$GPTHS,,V*0E
$GPROT,,V*08
$PSSN,HRP,074622.00,010125,,,,,,,00,0,,*64
$PTNL,AVR,074622.00,,Yaw,,Tilt,,,,0,,00*32
$GPGSA,A,3,05,14,15,20,30,,,,,,,,1.3,0.7,1.1*32
$GPGSA,A,3,65,66,72,74,75,76,,,,,,,1.3,0.7,1.1*31
$GPGSA,A,3,03,05,08,24,25,,,,,,,,1.3,0.7,1.1*38
$GPGSA,A,3,21,22,36,42,45,,,,,,,,1.3,0.7,1.1*36
$GPGST,074622.00,2.870,1.320,1.064,79.120,1.074,1.311,3.449*6B
$GPGBS,074622.00,3.673,6.343,14.118,05,0.0001,-2.038,0.691*4A
$GPGRS,074622.00,1,-2.0,0.9,1.6,-0.9,0.9,,,,,,,*69
$GPGRS,074622.00,1,-2.6,2.3,5.6,3.8,-3.1,-1.9,,,,,,*61
$GPGRS,074622.00,1,0.8,1.0,2.3,-0.6,-1.4,,,,,,,*6E
$GPGRS,074622.00,1,0.3,-4.2,-1.4,2.3,0.5,,,,,,,*61
$GPGSV,4,1,15,30,66,061,47,15,21,301,42,08,11,047,,22,37,170,*75
$GPGSV,4,2,15,20,37,210,39,07,30,065,26,14,54,149,49,13,55,300,33*73
$GPGSV,4,3,15,05,54,256,39,27,02,017,,18,09,319,29,36,35,170,39*7B
$GPGSV,4,4,15,34,31,208,,49,34,195,,61,03,257,*41
$GLGSV,3,1,11,75,75,193,48,66,16,318,44,76,15,212,36,72,49,131,44*67
$GLGSV,3,2,11,74,45,041,43,65,67,324,45,73,03,037,,71,01,136,*62
$GLGSV,3,3,11,81,05,305,36,82,10,349,30,83,03,027,*51
$GAGSV,3,1,10,03,82,330,48,24,40,059,40,13,16,296,31,02,16,188,23*6B
$GAGSV,3,2,10,08,30,297,35,05,41,108,42,16,56,094,,25,54,141,42*6B
$GAGSV,3,3,10,15,09,246,23,26,05,345,*66
$GBGSV,4,1,14,45,78,177,46,56,12,093,,09,12,067,,05,21,130,*63
$GBGSV,4,2,14,26,24,223,33,42,26,312,41,40,22,065,28,22,43,151,38*6A
$GBGSV,4,3,14,10,28,082,,36,43,057,48,50,51,301,,21,74,271,52*64
$GBGSV,4,4,14,02,05,108,,60,07,112,*63
$GPGGA,074622.00,,,,,0,00,,,M,,M,,*4D
$PTNL,GGK,074622.00,010125,4742.4466774,N,01617.9735137,E,1,21,1.3,EHT668.4774,M*4B
$GPGGQ,074622.00,010125,4742.4466774,N,01617.9735137,E,1,21,3.843,625.2664,M*34
$GPGFA,074622.00,12.546,28.286,1.320,1.064,79.120,3.449,,VVV*30
$GPLLK,074622.00,010125,,M,,M,1,21,1.5,,M*09
$GNGMP,074622.00,,,,,DAAA,21,0.7,,,,*57
$GPGMP,074622.00,,,,,,05,,,,2.2,123*7D
$GLGMP,074622.00,,,,,,06,,,,,*7C
$GAGMP,074622.00,,,,,,05,,,,,*72
$GBGMP,074622.00,,,,,,05,,,,,*71
$PSSN,SNC,[0,287200000,2347]*4B
$GPZDA,074627.00,01,01,2025,,*63
$GPDTM,W84,,00.0000000,N,00.0000000,E,00.0000000,W84*5F
$GPRMC,074627.00,A,4742.4466775,N,01617.9735005,E,0.0,,010125,5.1,E,D*11
$GPGLL,4742.4466775,N,01617.9735005,E,074627.00,A,D*60
$GPGGA,074627.00,4742.4466775,N,01617.9735005,E,2,20,0.7,625.2702,M,43.2111,M,3.2,0123*4B
$GNGNS,074627.00,4742.4466775,N,01617.9735005,E,DAAA,20,0.7,625.2702,43.2111,,*56
$GPGNS,074627.00,,,,,,05,,,,3.2,123*79
$GLGNS,074627.00,,,,,,06,,,,,*79
$GAGNS,074627.00,,,,,,05,,,,,*77
$GBGNS,074627.00,,,,,,04,,,,,*75
$GPLLQ,074627.00,010125,,M,,M,1,20,2.777,,M*16
$GPVTG,,T,,M,0.00,N,0.00,K,D*26
$GPHDT,,T*1B
$GPTHS,,V*0E
$GPROT,,V*08
$PSSN,HRP,074627.00,010125,,,,,,,00,0,,*61
$PTNL,AVR,074627.00,,Yaw,,Tilt,,,,0,,00*37
$GPGSA,A,3,05,14,15,20,30,,,,,,,,1.3,0.7,1.1*32
$GPGSA,A,3,65,66,72,74,75,76,,,,,,,1.3,0.7,1.1*31
$GPGSA,A,3,03,05,08,24,25,,,,,,,,1.3,0.7,1.1*38
$GPGSA,A,3,21,36,42,45,,,,,,,,,1.3,0.7,1.1*36
$GPGST,074627.00,3.097,0.951,0.760,81.639,0.764,0.948,2.496*6A
$GPGBS,074627.00,3.769,6.504,14.489,05,0.0001,-1.331,0.712*4E
$GPGRS,074627.00,1,-1.3,0.7,-0.2,0.7,0.4,,,,,,,*64
$GPGRS,074627.00,1,-3.0,1.5,7.8,3.5,-4.2,-2.2,,,,,,*6B
$GPGRS,074627.00,1,0.6,0.4,1.9,-0.3,-0.4,,,,,,,*6D
$GPGRS,074627.00,1,0.5,-1.3,2.7,1.4,,,,,,,,*64
$GPGSV,4,1,15,30,66,061,47,15,21,301,42,08,11,047,,22,37,170,*75
$GPGSV,4,2,15,20,37,210,41,07,30,065,26,14,54,149,49,13,55,301,34*7A
$GPGSV,4,3,15,05,54,256,37,27,02,017,,18,09,319,29,36,35,170,39*75
$GPGSV,4,4,15,34,31,208,,49,34,195,,61,03,257,*41
$GLGSV,3,1,11,75,75,193,48,66,16,318,44,76,15,212,37,72,49,132,44*65
$GLGSV,3,2,11,74,45,041,42,65,67,324,45,73,03,037,,71,01,136,*63
$GLGSV,3,3,11,81,05,305,36,82,10,349,25,83,03,027,*55
$GAGSV,3,1,10,03,82,330,48,24,40,059,39,13,16,296,30,02,16,188,24*63
$GAGSV,3,2,10,08,30,297,35,05,41,108,41,16,56,094,,25,54,141,41*6B
$GAGSV,3,3,10,15,09,246,22,26,05,345,*67
$GBGSV,4,1,14,45,78,177,46,56,12,093,,09,12,067,,05,21,130,*63
$GBGSV,4,2,14,26,24,223,31,42,26,312,39,40,22,065,,22,43,151,35*60
$GBGSV,4,3,14,10,28,082,,36,43,057,47,50,51,301,,21,74,271,52*6B
$GBGSV,4,4,14,02,05,108,,60,07,112,*63
$GPGGA,074627.00,,,,,0,00,,,M,,M,,*48
$PTNL,GGK,074627.00,010125,4742.4466775,N,01617.9735005,E,1,20,1.3,EHT668.4812,M*41
$GPGGQ,074627.00,010125,4742.4466775,N,01617.9735005,E,1,20,2.777,625.2702,M*39
$GPGFA,074627.00,9.047,20.470,0.951,0.760,81.639,2.496,,VVV*08
$GPLLK,074627.00,010125,,M,,M,1,20,1.5,,M*0D
$GNGMP,074627.00,,,,,DAAA,20,0.7,,,,*53
$GPGMP,074627.00,,,,,,05,,,,3.2,123*79
$GLGMP,074627.00,,,,,,06,,,,,*79
$GAGMP,074627.00,,,,,,05,,,,,*77
$GBGMP,074627.00,,,,,,04,,,,,*75
$PSSN,SNC,[0,287205000,2347]*4E
$GPZDA,074632.00,01,01,2025,,*67
$GPDTM,W84,,00.0000000,N,00.0000000,E,00.0000000,W84*5F
$GPRMC,074632.00,A,4742.4466824,N,01617.9734899,E,0.0,,010125,5.1,E,D*12
$GPGLL,4742.4466824,N,01617.9734899,E,074632.00,A,D*63
$GPGGA,074632.00,4742.4466824,N,01617.9734899,E,2,20,0.7,625.2787,M,43.2111,M,2.6,0123*40
$GNGNS,074632.00,4742.4466824,N,01617.9734899,E,DAAA,20,0.7,625.2787,43.2111,,*58
$GPGNS,074632.00,,,,,,05,,,,2.6,123*78
$GLGNS,074632.00,,,,,,06,,,,,*7D
$GAGNS,074632.00,,,,,,04,,,,,*72
$GBGNS,074632.00,,,,,,05,,,,,*70
$GPLLQ,074632.00,010125,,M,,M,1,20,2.931,,M*1E
$GPVTG,,T,,M,0.00,N,0.00,K,D*26
$GPHDT,,T*1B
$GPTHS,,V*0E
$GPROT,,V*08
$PSSN,HRP,074632.00,010125,,,,,,,00,0,,*65
$PTNL,AVR,074632.00,,Yaw,,Tilt,,,,0,,00*33
$GPGSA,A,3,05,14,15,20,30,,,,,,,,1.3,0.7,1.1*32
$GPGSA,A,3,65,66,72,74,75,76,,,,,,,1.3,0.7,1.1*31
$GPGSA,A,3,03,05,24,25,,,,,,,,,1.3,0.7,1.1*30
$GPGSA,A,3,21,22,36,42,45,,,,,,,,1.3,0.7,1.1*36
$GPGST,074632.00,3.258,0.998,0.812,79.184,0.819,0.992,2.634*6E
$GPGBS,074632.00,3.676,6.194,13.765,20,0.0001,1.498,0.779*6D
$GPGRS,074632.00,1,-1.2,0.1,-0.3,1.5,0.3,,,,,,,*62
$GPGRS,074632.00,1,-4.0,-0.2,7.6,1.8,-4.8,-2.7,,,,,,*4D
$GPGRS,074632.00,1,-0.0,-0.3,0.1,-0.4,,,,,,,,*61
$GPGRS,074632.00,1,0.5,-4.3,-1.5,1.5,1.8,,,,,,,*6F
$GPGSV,4,1,15,30,66,061,48,15,21,301,43,08,11,047,,22,37,170,*7B
$GPGSV,4,2,15,20,37,210,41,07,30,065,29,14,54,148,48,13,55,301,33*72
$GPGSV,4,3,15,05,54,256,38,27,02,017,,18,09,318,25,36,35,170,39*77
$GPGSV,4,4,15,34,31,208,,49,34,195,,61,03,257,*41
$GLGSV,3,1,11,75,75,193,47,66,16,318,43,76,15,212,39,72,49,132,44*63
$GLGSV,3,2,11,74,45,040,40,65,67,324,45,73,03,037,,71,01,136,*60
$GLGSV,3,3,11,81,04,305,29,82,10,349,29,83,03,027,*56
$GAGSV,3,1,10,03,82,330,48,24,40,059,41,13,16,296,29,02,17,188,20*61
$GAGSV,3,2,10,08,30,297,35,05,41,109,40,16,56,094,,25,54,141,41*6B
$GAGSV,3,3,10,15,09,246,26,26,05,345,*63
$GBGSV,4,1,14,45,78,177,47,56,12,093,,09,12,067,,05,21,130,*62
$GBGSV,4,2,14,26,24,223,32,42,26,312,38,40,22,065,,22,43,151,37*60
$GBGSV,4,3,14,10,28,082,,36,43,057,47,50,51,301,,21,74,271,52*6B
$GBGSV,4,4,14,02,05,108,,60,07,112,*63
$GPGGA,074632.00,,,,,0,00,,,M,,M,,*4C
$PTNL,GGK,074632.00,010125,4742.4466824,N,01617.9734899,E,1,20,1.3,EHT668.4898,M*40
