$GPZDA,131442.00,01,01,2025,,*62
$GPDTM,W84,,00.0000000,N,00.0000000,E,00.0000000,W84*5F
$GPRMC,131442.00,A,4742.4453635,N,01617.9731087,E,0.0,,010125,5.1,E,D*1D
$GPGLL,4742.4453635,N,01617.9731087,E,131442.00,A,D*6C
$GPGGA,131442.00,4742.4453635,N,01617.9731087,E,2,23,0.6,626.8309,M,43.2110,M,2.7,0123*46
$GNGNS,131442.00,4742.4453635,N,01617.9731087,E,DAAA,23,0.6,626.8309,43.2110,,*5F
$GPGNS,131442.00,,,,,,06,,,,2.7,123*7F
$GLGNS,131442.00,,,,,,05,,,,,*7B
$GAGNS,131442.00,,,,,,04,,,,,*77
$GBGNS,131442.00,,,,,,08,,,,,*78
$GPLLQ,131442.00,010125,,M,,M,1,23,3.829,,M*11
$GPVTG,,T,,M,0.01,N,0.01,K,D*26
$GPHDT,,T*1B
$GPTHS,,V*0E
$GPROT,,V*08
$PSSN,HRP,131442.00,010125,,,,,,,00,0,,*60
$PTNL,AVR,131442.00,,Yaw,,Tilt,,,,0,,00*36
$GPGSA,A,3,11,12,24,25,28,29,,,,,,,1.2,0.6,1.0*35
$GPGSA,A,3,68,69,77,78,87,,,,,,,,1.2,0.6,1.0*37
$GPGSA,A,3,02,27,29,30,,,,,,,,,1.2,0.6,1.0*39
$GPGSA,A,3,12,24,25,26,34,35,41,44,,,,,1.2,0.6,1.0*34
$GPGST,131442.00,7.623,2.009,1.199,24.624,1.894,1.374,3.030*6E
$GPGBS,131442.00,5.260,4.709,9.103,28,0.0001,7.649,2.099*5B
$GPGRS,131442.00,1,0.1,0.1,0.6,-0.3,7.6,-2.2,,,,,,*4B
$GPGRS,131442.00,1,14.5,-3.2,-8.9,-3.6,-3.3,,,,,,,*54
$GPGRS,131442.00,1,-1.8,-0.7,-2.1,0.6,,,,,,,,*69
$GPGRS,131442.00,1,4.0,-0.9,12.1,-1.5,-0.8,-6.1,18.0,-2.4,,,,*69
$GPGSV,4,1,13,12,79,025,49,11,27,112,39,29,19,210,37,32,32,293,37*7C
$GPGSV,4,2,13,19,21,046,,06,29,070,32,24,47,152,47,25,50,278,44*70
$GPGSV,4,3,13,28,09,311,38,36,35,170,35,34,31,208,35,49,34,195,36*7F
$GPGSV,4,4,13,61,03,257,*4F
$GLGSV,3,1,10,87,53,085,40,88,27,161,35,86,24,032,35,76,10,098,*6D
$GLGSV,3,2,10,69,23,323,44,68,28,268,46,78,52,314,48,77,52,076,39*6D
$GLGSV,3,3,10,67,07,223,23,79,05,290,*60
$GAGSV,3,1,10,30,79,314,45,08,14,190,26,27,29,268,37,36,28,072,33*6C
$GAGSV,3,2,10,34,21,128,34,07,41,240,34,29,29,307,44,02,40,073,47*66
$GAGSV,3,3,10,18,59,086,,11,10,025,*64
$GBGSV,5,1,19,24,83,075,50,34,20,186,44,41,16,288,35,07,10,057,*65
$GBGSV,5,2,19,05,20,130,,11,23,216,,43,12,239,,12,40,162,35*6D
$GBGSV,5,3,19,26,31,109,45,10,23,059,27,25,37,295,43,56,31,052,*6F
$GBGSV,5,4,19,35,38,058,45,44,55,130,40,32,05,339,34,02,04,108,*60
$GBGSV,5,5,19,40,04,045,,33,08,241,24,60,08,110,*55
$GPGGA,131442.00,,,,,0,00,,,M,,M,,*49
$PTNL,GGK,131442.00,010125,4742.4453635,N,01617.9731087,E,1,23,1.2,EHT670.0419,M*45
$GPGGQ,131442.00,010125,4742.4453635,N,01617.9731087,E,1,23,3.829,626.8309,M*35
$GPGFA,131442.00,19.103,24.849,2.009,1.199,24.624,3.030,,VVV*36
$GPLLK,131442.00,010125,,M,,M,1,23,1.4,,M*0E
$GNGMP,131442.00,,,,,DAAA,23,0.6,,,,*50
$GPGMP,131442.00,,,,,,06,,,,2.7,123*7F
$GLGMP,131442.00,,,,,,05,,,,,*7B
$GAGMP,131442.00,,,,,,04,,,,,*77
$GBGMP,131442.00,,,,,,08,,,,,*78
$PSSN,SNC,[0,306900000,2347]*48
$GPZDA,131447.00,01,01,2025,,*67
$GPDTM,W84,,00.0000000,N,00.0000000,E,00.0000000,W84*5F
$GPRMC,131447.00,A,4742.4453540,N,01617.9731137,E,0.0,,010125,5.1,E,D*13
$GPGLL,4742.4453540,N,01617.9731137,E,131447.00,A,D*62
$GPGGA,131447.00,4742.4453540,N,01617.9731137,E,2,23,0.6,626.8383,M,43.2111,M,1.7,0123*48
$GNGNS,131447.00,4742.4453540,N,01617.9731137,E,DAAA,23,0.6,626.8383,43.2111,,*52
$GPGNS,131447.00,,,,,,06,,,,1.7,123*79
$GLGNS,131447.00,,,,,,06,,,,,*7D
$GAGNS,131447.00,,,,,,05,,,,,*73
$GBGNS,131447.00,,,,,,06,,,,,*73
$GPLLQ,131447.00,010125,,M,,M,1,23,3.786,,M*1E
$GPVTG,,T,,M,0.00,N,0.01,K,D*27
$GPHDT,,T*1B
$GPTHS,,V*0E
$GPROT,,V*08
$PSSN,HRP,131447.00,010125,,,,,,,00,0,,*65
$PTNL,AVR,131447.00,,Yaw,,Tilt,,,,0,,00*33
$GPGSA,A,3,11,12,24,25,28,29,,,,,,,1.2,0.6,1.0*35
$GPGSA,A,3,68,69,77,78,87,88,,,,,,,1.2,0.6,1.0*37
$GPGSA,A,3,02,07,27,29,30,,,,,,,,1.2,0.6,1.0*3E
$GPGSA,A,3,24,25,26,34,35,44,,,,,,,1.2,0.6,1.0*32
$GPGST,131447.00,7.738,2.007,1.195,26.337,1.875,1.392,2.979*65
$GPGBS,131447.00,5.037,4.638,9.112,28,0.0001,6.596,2.076*5C
$GPGRS,131447.00,1,-0.7,-0.1,0.2,-0.1,6.6,-2.9,,,,,,*44
$GPGRS,131447.00,1,18.7,-3.3,-8.5,-3.4,-3.6,9.0,,,,,,*72
$GPGRS,131447.00,1,-1.6,-0.2,-1.1,-2.1,0.9,,,,,,,*6B
$GPGRS,131447.00,1,-0.7,17.6,-1.9,-1.1,-5.9,2.6,,,,,,*7D
$GPGSV,4,1,13,12,79,025,50,11,27,112,38,29,19,210,36,32,32,293,38*7B
$GPGSV,4,2,13,19,21,046,,06,29,070,24,24,47,152,47,25,50,278,44*77
$GPGSV,4,3,13,28,09,311,39,36,35,170,35,34,31,208,35,49,34,195,36*7E
$GPGSV,4,4,13,61,03,257,*4F
$GLGSV,3,1,10,87,53,084,37,88,27,161,36,86,24,032,33,76,10,098,*69
$GLGSV,3,2,10,69,23,322,44,68,28,267,45,78,52,314,48,77,52,076,40*6E
$GLGSV,3,3,10,67,07,223,,79,05,290,*61
$GAGSV,3,1,10,30,79,314,45,08,14,190,24,36,29,072,35,27,29,268,37*69
$GAGSV,3,2,10,34,21,128,34,07,41,240,36,29,29,307,44,02,40,073,47*64
$GAGSV,3,3,10,18,59,086,,11,09,025,*6C
$GBGSV,5,1,19,24,83,075,50,34,20,186,44,41,16,288,30,07,10,057,*60
$GBGSV,5,2,19,05,20,130,,11,23,216,,43,12,239,,12,40,162,34*6C
$GBGSV,5,3,19,26,31,109,44,10,23,059,27,25,37,295,43,56,31,052,*6E
$GBGSV,5,4,19,35,38,058,45,44,55,130,40,32,06,339,32,02,04,108,*65
$GBGSV,5,5,19,40,04,045,,33,08,241,24,60,08,110,*55
$GPGGA,131447.00,,,,,0,00,,,M,,M,,*4C
$PTNL,GGK,131447.00,010125,4742.4453540,N,01617.9731137,E,1,23,1.2,EHT670.0494,M*4E
$GPGGQ,131447.00,010125,4742.4453540,N,01617.9731137,E,1,23,3.786,626.8383,M*33
$GPGFA,131447.00,19.081,24.430,2.007,1.195,26.337,2.979,,VVV*38
$GPLLK,131447.00,010125,,M,,M,1,23,1.4,,M*0B
$GNGMP,131447.00,,,,,DAAA,23,0.6,,,,*55
$GPGMP,131447.00,,,,,,06,,,,1.7,123*79
$GLGMP,131447.00,,,,,,06,,,,,*7D
$GAGMP,131447.00,,,,,,05,,,,,*73
$GBGMP,131447.00,,,,,,06,,,,,*73
$PSSN,SNC,[0,306905000,2347]*4D
$GPZDA,131452.00,01,01,2025,,*63
$GPDTM,W84,,00.0000000,N,00.0000000,E,00.0000000,W84*5F
$GPRMC,131452.00,A,4742.4453395,N,01617.9731192,E,0.0,,010125,5.1,E,D*16
$GPGLL,4742.4453395,N,01617.9731192,E,131452.00,A,D*67
$GPGGA,131452.00,4742.4453395,N,01617.9731192,E,2,23,0.6,626.8456,M,43.2111,M,2.7,0123*41
$GNGNS,131452.00,4742.4453395,N,01617.9731192,E,DAAA,23,0.6,626.8456,43.2111,,*58
$GPGNS,131452.00,,,,,,06,,,,2.7,123*7E
$GLGNS,131452.00,,,,,,05,,,,,*7A
$GAGNS,131452.00,,,,,,06,,,,,*74
$GBGNS,131452.00,,,,,,06,,,,,*77
$GPLLQ,131452.00,010125,,M,,M,1,23,3.890,,M*12
$GPVTG,,T,,M,0.01,N,0.01,K,D*26
$GPHDT,,T*1B
$GPTHS,,V*0E
$GPROT,,V*08
$PSSN,HRP,131452.00,010125,,,,,,,00,0,,*61
$PTNL,AVR,131452.00,,Yaw,,Tilt,,,,0,,00*37
$GPGSA,A,3,11,12,24,25,28,29,,,,,,,1.1,0.6,1.0*36
$GPGSA,A,3,68,69,77,78,88,,,,,,,,1.1,0.6,1.0*3B
$GPGSA,A,3,02,07,27,29,30,36,,,,,,,1.1,0.6,1.0*38
$GPGSA,A,3,24,25,26,34,35,44,,,,,,,1.1,0.6,1.0*31
$GPGST,131452.00,7.348,2.050,1.222,26.326,1.916,1.423,3.072*65
$GPGBS,131452.00,5.034,4.554,9.163,28,0.0001,7.223,2.080*55
$GPGRS,131452.00,1,-1.4,0.4,0.2,-0.5,7.2,-2.9,,,,,,*6B
$GPGRS,131452.00,1,14.6,0.1,-6.4,-3.5,10.5,,,,,,,*62
$GPGRS,131452.00,1,-0.8,-0.4,-0.2,-1.7,1.5,5.8,,,,,,*4F
$GPGRS,131452.00,1,-0.7,18.2,-2.3,-1.0,-5.9,3.4,,,,,,*79
$GPGSV,4,1,13,12,79,025,50,11,27,112,37,29,19,210,36,32,32,293,38*74
$GPGSV,4,2,13,19,21,046,19,06,29,070,37,24,47,152,46,25,50,278,44*7C
$GPGSV,4,3,13,28,09,311,39,36,35,170,35,34,31,208,35,49,34,195,36*7E
$GPGSV,4,4,13,61,03,257,*4F
$GLGSV,3,1,10,87,53,084,33,88,27,161,35,86,24,031,31,76,10,098,*6F
$GLGSV,3,2,10,69,23,322,46,68,28,267,46,78,52,314,48,77,52,076,42*6D
$GLGSV,3,3,10,67,07,223,,79,06,290,*62
$GAGSV,3,1,10,30,79,314,46,08,14,190,24,27,29,268,38,36,29,072,36*66
$GAGSV,3,2,10,34,21,128,33,07,41,240,37,29,29,307,44,02,40,073,47*62
$GAGSV,3,3,10,18,59,085,,11,09,025,*6F
$GBGSV,5,1,19,24,83,075,49,34,20,186,45,41,16,288,33,07,10,057,19*62
$GBGSV,5,2,19,05,20,130,,11,23,216,,43,12,239,,12,40,162,35*6D
$GBGSV,5,3,19,26,31,109,44,10,23,059,27,25,38,295,44,56,31,052,*66
$GBGSV,5,4,19,35,38,058,45,44,55,130,39,32,06,339,31,02,04,108,*68
$GBGSV,5,5,19,40,04,045,,33,08,241,25,60,08,110,*54
$GPGGA,131452.00,,,,,0,00,,,M,,M,,*48
$PTNL,GGK,131452.00,010125,4742.4453395,N,01617.9731192,E,1,23,1.1,EHT670.0566,M*44
$GPGGQ,131452.00,010125,4742.4453395,N,01617.9731192,E,1,23,3.890,626.8456,M*31
$GPGFA,131452.00,19.494,25.189,2.050,1.222,26.326,3.072,,VVV*34
$GPLLK,131452.00,010125,,M,,M,1,23,1.3,,M*08
$GNGMP,131452.00,,,,,DAAA,23,0.6,,,,*51
$GPGMP,131452.00,,,,,,06,,,,2.7,123*7E
$GLGMP,131452.00,,,,,,05,,,,,*7A
$GAGMP,131452.00,,,,,,06,,,,,*74
$GBGMP,131452.00,,,,,,06,,,,,*77
$PSSN,SNC,[0,306910000,2347]*49
$GPZDA,131457.00,01,01,2025,,*66
$GPDTM,W84,,00.0000000,N,00.0000000,E,00.0000000,W84*5F
$GPRMC,131457.00,A,4742.4453262,N,01617.9731234,E,0.0,,010125,5.1,E,D*15
$GPGLL,4742.4453262,N,01617.9731234,E,131457.00,A,D*64
$GPGGA,131457.00,4742.4453262,N,01617.9731234,E,2,24,0.6,626.8540,M,43.2110,M,3.0,0123*44
$GNGNS,131457.00,4742.4453262,N,01617.9731234,E,DAAA,24,0.6,626.8540,43.2110,,*5B
$GPGNS,131457.00,,,,,,06,,,,3.0,123*7D
$GLGNS,131457.00,,,,,,05,,,,,*7F
$GAGNS,131457.00,,,,,,06,,,,,*71
$GBGNS,131457.00,,,,,,07,,,,,*73
$GPLLQ,131457.00,010125,,M,,M,1,24,3.274,,M*10
$GPVTG,,T,,M,0.01,N,0.01,K,D*26
$GPHDT,,T*1B
$GPTHS,,V*0E
$GPROT,,V*08
$PSSN,HRP,131457.00,010125,,,,,,,00,0,,*64
$PTNL,AVR,131457.00,,Yaw,,Tilt,,,,0,,00*32
$GPGSA,A,3,11,12,24,25,28,29,,,,,,,1.1,0.6,1.0*36
$GPGSA,A,3,68,69,77,78,88,,,,,,,,1.1,0.6,1.0*3B
$GPGSA,A,3,02,07,27,29,30,36,,,,,,,1.1,0.6,1.0*38
$GPGSA,A,3,12,24,25,26,34,35,44,,,,,,1.1,0.6,1.0*32
$GPGST,131457.00,6.509,1.723,1.033,26.071,1.613,1.198,2.586*61
$GPGBS,131457.00,5.083,4.606,9.230,28,0.0001,6.351,2.086*5E
$GPGRS,131457.00,1,-1.0,0.6,-0.3,-1.0,6.4,-1.0,,,,,,*4D
$GPGRS,131457.00,1,8.7,1.2,-5.5,-3.3,-0.5,,,,,,,*41
$GPGRS,131457.00,1,-0.8,-1.5,1.1,-1.7,1.6,5.6,,,,,,*68
$GPGRS,131457.00,1,9.5,-1.0,18.8,-2.8,-0.8,-6.6,4.5,,,,,*5A
$GPGSV,4,1,13,12,79,025,51,11,27,112,36,29,19,210,35,32,32,293,37*78
$GPGSV,4,2,13,19,21,046,26,06,29,070,37,24,47,152,44,25,50,278,44*72
$GPGSV,4,3,13,28,09,311,39,36,35,170,35,34,31,208,35,49,34,195,36*7E
$GPGSV,4,4,13,61,03,257,*4F
$GLGSV,3,1,10,87,53,084,30,88,27,161,37,86,24,031,32,76,10,098,*6D
$GLGSV,3,2,10,69,23,322,46,68,28,267,46,78,52,314,47,77,52,076,42*62
$GLGSV,3,3,10,67,07,223,,79,06,291,22*63
$GAGSV,3,1,10,30,79,314,46,08,14,190,23,27,29,268,39,36,29,072,37*61
$GAGSV,3,2,10,34,21,128,32,07,41,240,37,29,29,306,44,02,40,073,47*62
$GAGSV,3,3,10,18,59,085,,11,09,025,*6F
$GBGSV,5,1,19,24,83,075,49,34,20,186,45,41,16,288,31,07,10,057,*68
$GBGSV,5,2,19,05,20,130,,11,23,216,,43,12,239,,12,40,162,35*6D
$GBGSV,5,3,19,26,31,109,43,10,23,059,27,25,38,295,43,56,31,052,*66
$GBGSV,5,4,19,35,38,058,44,44,55,130,39,32,06,339,30,02,04,108,*68
$GBGSV,5,5,19,40,04,045,,33,08,241,22,60,08,110,*53
$GPGGA,131457.00,,,,,0,00,,,M,,M,,*4D
$PTNL,GGK,131457.00,010125,4742.4453262,N,01617.9731234,E,1,24,1.1,EHT670.0650,M*46
$GPGGQ,131457.00,010125,4742.4453262,N,01617.9731234,E,1,24,3.274,626.8540,M*33
$GPGFA,131457.00,16.381,21.202,1.723,1.033,26.071,2.586,,VVV*35
$GPLLK,131457.00,010125,,M,,M,1,24,1.3,,M*0A
$GNGMP,131457.00,,,,,DAAA,24,0.6,,,,*53
$GPGMP,131457.00,,,,,,06,,,,3.0,123*7D
$GLGMP,131457.00,,,,,,05,,,,,*7F
$GAGMP,131457.00,,,,,,06,,,,,*71
$GBGMP,131457.00,,,,,,07,,,,,*73
$PSSN,SNC,[0,306915000,2347]*4C
$GPZDA,131502.00,01,01,2025,,*67
$GPDTM,W84,,00.0000000,N,00.0000000,E,00.0000000,W84*5F
$GPRMC,131502.00,A,4742.4453197,N,01617.9731301,E,0.0,,010125,5.1,E,D*1A
$GPGLL,4742.4453197,N,01617.9731301,E,131502.00,A,D*6B
$GPGGA,131502.00,4742.4453197,N,01617.9731301,E,2,21,0.7,626.8647,M,43.2111,M,2.8,0123*43
$GNGNS,131502.00,4742.4453197,N,01617.9731301,E,DAAA,21,0.7,626.8647,43.2111,,*55
$GPGNS,131502.00,,,,,,05,,,,2.8,123*76
$GLGNS,131502.00,,,,,,04,,,,,*7F
$GAGNS,131502.00,,,,,,06,,,,,*70
$GBGNS,131502.00,,,,,,06,,,,,*73
$GPLLQ,131502.00,010125,,M,,M,1,21,2.925,,M*1A
$GPVTG,,T,,M,0.00,N,0.01,K,D*27
$GPHDT,,T*1B
$GPTHS,,V*0E
$GPROT,,V*08
$PSSN,HRP,131502.00,010125,,,,,,,00,0,,*65
$PTNL,AVR,131502.00,,Yaw,,Tilt,,,,0,,00*33
$GPGSA,A,3,11,12,24,25,28,,,,,,,,1.2,0.7,1.0*3F
$GPGSA,A,3,68,69,77,78,,,,,,,,,1.2,0.7,1.0*39
$GPGSA,A,3,02,07,27,29,30,36,,,,,,,1.2,0.7,1.0*3A
$GPGSA,A,3,24,25,26,34,35,44,,,,,,,1.2,0.7,1.0*33
$GPGST,131502.00,6.545,1.790,0.820,30.061,1.603,1.143,2.163*65
$GPGBS,131502.00,8.037,5.087,10.141,25,0.0001,20.445,8.718*5F
$GPGRS,131502.00,1,-1.0,0.5,-0.6,0.1,1.9,,,,,,,*6F
$GPGRS,131502.00,1,5.9,1.0,-5.7,-2.2,,,,,,,,*45
$GPGRS,131502.00,1,-1.0,-1.6,2.2,-1.6,1.6,5.0,,,,,,*64
$GPGRS,131502.00,1,-0.4,20.4,-2.8,-1.0,-6.4,3.8,,,,,,*7A
$GPGSV,4,1,13,12,79,025,52,11,27,112,35,29,19,210,35,32,32,293,36*79
$GPGSV,4,2,13,19,21,046,30,06,29,070,38,24,47,152,42,25,50,278,45*7D
$GPGSV,4,3,13,28,09,311,39,36,35,170,35,34,31,208,35,49,34,195,36*7E
$GPGSV,4,4,13,61,03,257,*4F
$GLGSV,3,1,10,87,53,084,,88,27,161,33,86,24,031,34,76,10,098,*6C
$GLGSV,3,2,10,69,23,322,46,68,28,267,46,78,52,314,48,77,52,076,43*6C
$GLGSV,3,3,10,67,07,223,,79,06,291,*63
$GAGSV,3,1,10,30,79,314,47,08,14,190,22,36,29,072,37,27,29,268,40*6F
$GAGSV,3,2,10,34,21,128,30,07,41,240,38,29,29,306,45,02,40,073,48*61
$GAGSV,3,3,10,18,59,085,,11,09,025,*6F
$GBGSV,5,1,19,24,83,075,50,34,20,186,46,41,16,288,34,07,10,057,19*6E
$GBGSV,5,2,19,05,20,130,,11,23,216,,43,12,239,,12,40,162,34*6C
$GBGSV,5,3,19,26,31,109,41,10,23,059,27,25,38,295,41,56,31,052,*66
$GBGSV,5,4,19,35,38,058,43,44,55,129,39,32,06,339,31,02,04,108,*66
$GBGSV,5,5,19,40,04,045,,33,08,241,26,60,08,110,*57
$GPGGA,131502.00,,,,,0,00,,,M,,M,,*4C
$PTNL,GGK,131502.00,010125,4742.4453197,N,01617.9731301,E,1,21,1.2,EHT670.0758,M*46
$GPGGQ,131502.00,010125,4742.4453197,N,01617.9731301,E,1,21,2.925,626.8647,M*33
$GPGFA,131502.00,17.019,17.740,1.790,0.820,30.061,2.163,,VVV*3B
$GPLLK,131502.00,010125,,M,,M,1,21,1.4,,M*09
$GNGMP,131502.00,,,,,DAAA,21,0.7,,,,*56
$GPGMP,131502.00,,,,,,05,,,,2.8,123*76
$GLGMP,131502.00,,,,,,04,,,,,*7F
$GAGMP,131502.00,,,,,,06,,,,,*70
$GBGMP,131502.00,,,,,,06,,,,,*73
$PSSN,SNC,[0,306920000,2347]*4A
$GPZDA,131507.00,01,01,2025,,*62
$GPDTM,W84,,00.0000000,N,00.0000000,E,00.0000000,W84*5F
$GPRMC,131507.00,A,4742.4453145,N,01617.9731412,E,0.0,,010125,5.1,E,D*15
$GPGLL,4742.4453145,N,01617.9731412,E,131507.00,A,D*64
$GPGGA,131507.00,4742.4453145,N,01617.9731412,E,2,22,0.6,626.8500,M,43.2111,M,1.7,0123*42
$GNGNS,131507.00,4742.4453145,N,01617.9731412,E,DAAA,22,0.6,626.8500,43.2111,,*58
$GPGNS,131507.00,,,,,,06,,,,1.7,123*7C
$GLGNS,131507.00,,,,,,04,,,,,*7A
$GAGNS,131507.00,,,,,,06,,,,,*75
$GBGNS,131507.00,,,,,,06,,,,,*76
$GPLLQ,131507.00,010125,,M,,M,1,22,2.435,,M*10
$GPVTG,,T,,M,0.01,N,0.01,K,D*26
$GPHDT,,T*1B
$GPTHS,,V*0E
$GPROT,,V*08
$PSSN,HRP,131507.00,010125,,,,,,,00,0,,*60
$PTNL,AVR,131507.00,,Yaw,,Tilt,,,,0,,00*36
$GPGSA,A,3,11,12,24,25,28,29,,,,,,,1.2,0.6,1.0*35
$GPGSA,A,3,68,69,77,78,,,,,,,,,1.2,0.6,1.0*38
$GPGSA,A,3,02,07,27,29,30,36,,,,,,,1.2,0.6,1.0*3B
$GPGSA,A,3,24,25,26,34,35,44,,,,,,,1.2,0.6,1.0*32
$GPGST,131507.00,5.480,1.226,0.766,26.165,1.151,0.875,1.959*63
$GPGBS,131507.00,5.117,4.526,9.179,25,0.0001,16.764,8.719*6C
$GPGRS,131507.00,1,-1.3,0.6,-0.3,0.6,-1.5,-1.5,,,,,,*4E
$GPGRS,131507.00,1,5.7,0.5,-5.8,-1.4,,,,,,,,*40
$GPGRS,131507.00,1,-1.1,-0.2,2.2,-1.6,1.4,5.4,,,,,,*63
$GPGRS,131507.00,1,0.1,16.8,-2.2,-0.8,-5.3,4.6,,,,,,*50
$GPGSV,4,1,13,12,79,026,53,11,27,112,36,29,19,210,35,32,32,293,32*7C
$GPGSV,4,2,13,19,21,046,32,06,29,070,23,24,47,152,41,25,50,279,45*77
$GPGSV,4,3,13,28,09,311,39,36,35,170,35,34,31,208,35,49,34,195,36*7E
$GPGSV,4,4,13,61,03,257,*4F
$GLGSV,3,1,10,87,53,084,28,88,27,161,33,86,24,031,35,69,23,322,47*68
$GLGSV,3,2,10,68,28,267,46,77,52,077,43,78,52,314,48,76,10,098,*63
$GLGSV,3,3,10,67,07,223,,79,06,291,*63
$GAGSV,3,1,10,30,79,314,47,08,14,190,22,36,29,072,38,27,29,268,42*62
$GAGSV,3,2,10,34,21,128,28,07,41,240,39,29,29,306,44,02,40,074,48*6F
$GAGSV,3,3,10,18,59,085,,11,09,025,*6F
$GBGSV,5,1,19,24,83,076,50,34,20,186,46,41,16,288,35,07,10,057,21*67
$GBGSV,5,2,19,05,20,130,,11,23,216,,43,12,239,,12,40,162,33*6B
$GBGSV,5,3,19,26,31,109,40,10,23,059,27,25,38,295,40,56,31,052,*66
$GBGSV,5,4,19,35,38,058,44,44,55,129,40,32,06,339,30,02,04,108,*6E
$GBGSV,5,5,19,40,04,045,,33,08,241,23,60,08,110,*52
$GPGGA,131507.00,,,,,0,00,,,M,,M,,*49
$PTNL,GGK,131507.00,010125,4742.4453145,N,01617.9731412,E,1,22,1.2,EHT670.0610,M*47
$GPGGQ,131507.00,010125,4742.4453145,N,01617.9731412,E,1,22,2.435,626.8500,M*33
$GPGFA,131507.00,11.655,16.066,1.226,0.766,26.165,1.959,,VVV*31
$GPLLK,131507.00,010125,,M,,M,1,22,1.3,,M*08
$GNGMP,131507.00,,,,,DAAA,22,0.6,,,,*51
$GPGMP,131507.00,,,,,,06,,,,1.7,123*7C
$GLGMP,131507.00,,,,,,04,,,,,*7A
$GAGMP,131507.00,,,,,,06,,,,,*75
$GBGMP,131507.00,,,,,,06,,,,,*76
$PSSN,SNC,[0,306925000,2347]*4F
$GPZDA,131512.00,01,01,2025,,*66
$GPDTM,W84,,00.0000000,N,00.0000000,E,00.0000000,W84*5F
$GPRMC,131512.00,A,4742.4453128,N,01617.9731430,E,0.0,,010125,5.1,E,D*1A
$GPGLL,4742.4453128,N,01617.9731430,E,131512.00,A,D*6B
$GPGGA,131512.00,4742.4453128,N,01617.9731430,E,2,22,0.6,626.8326,M,43.2111,M,2.7,0123*4C
$GNGNS,131512.00,4742.4453128,N,01617.9731430,E,DAAA,22,0.6,626.8326,43.2111,,*55
$GPGNS,131512.00,,,,,,06,,,,2.7,123*7B
$GLGNS,131512.00,,,,,,04,,,,,*7E
$GAGNS,131512.00,,,,,,06,,,,,*71
$GBGNS,131512.00,,,,,,06,,,,,*72
$GPLLQ,131512.00,010125,,M,,M,1,22,1.865,,M*1E
$GPVTG,,T,,M,0.00,N,0.00,K,D*26
$GPHDT,,T*1B
$GPTHS,,V*0E
$GPROT,,V*08
$PSSN,HRP,131512.00,010125,,,,,,,00,0,,*64
$PTNL,AVR,131512.00,,Yaw,,Tilt,,,,0,,00*32
$GPGSA,A,3,11,12,24,25,28,29,,,,,,,1.2,0.6,1.0*35
$GPGSA,A,3,68,69,77,78,,,,,,,,,1.2,0.6,1.0*38
$GPGSA,A,3,02,07,27,29,30,36,,,,,,,1.2,0.6,1.0*3B
$GPGSA,A,3,24,25,26,34,35,44,,,,,,,1.2,0.6,1.0*32
$GPGST,131512.00,3.030,0.984,0.587,25.699,0.922,0.680,1.471*68
$GPGBS,131512.00,5.159,4.563,9.260,11,0.0001,-1.095,1.103*79
$GPGRS,131512.00,1,-1.1,0.7,0.5,0.1,-1.8,-1.2,,,,,,*6F
$GPGRS,131512.00,1,5.9,1.5,-5.6,-1.4,,,,,,,,*45
$GPGRS,131512.00,1,-1.1,0.6,1.9,-1.7,1.4,4.4,,,,,,*46
$GPGRS,131512.00,1,-0.2,0.4,-1.4,-0.9,-3.1,4.2,,,,,,*45
$GPGSV,4,1,13,12,79,026,52,11,27,112,35,29,19,210,36,32,32,293,34*7B
$GPGSV,4,2,13,19,21,046,,06,29,070,30,24,47,152,41,25,50,279,44*75
$GPGSV,4,3,13,28,09,311,38,36,35,170,34,34,31,208,35,49,34,195,36*7E
$GPGSV,4,4,13,61,03,257,*4F
$GLGSV,3,1,10,87,53,084,35,88,27,161,35,86,24,031,,69,23,322,47*64
$GLGSV,3,2,10,68,28,267,46,77,52,077,43,78,52,314,49,76,10,098,*62
$GLGSV,3,3,10,67,07,223,,79,06,291,29*68
$GAGSV,3,1,10,30,79,314,47,08,14,190,22,36,29,072,36,27,29,268,43*6D
$GAGSV,3,2,10,34,21,128,33,07,41,240,39,29,29,306,43,02,40,074,48*62
$GAGSV,3,3,10,18,59,085,,11,09,025,*6F
$GBGSV,5,1,19,24,83,076,49,34,20,186,46,41,16,288,35,07,10,057,22*6C
$GBGSV,5,2,19,05,20,130,,11,23,216,,43,12,239,,12,40,162,33*6B
$GBGSV,5,3,19,26,31,109,39,10,23,059,26,25,38,295,37,56,31,052,*69
$GBGSV,5,4,19,35,38,058,45,44,55,129,41,32,06,338,28,02,04,108,*66
$GBGSV,5,5,19,40,04,045,,33,08,241,23,60,08,110,*52
$GPGGA,131512.00,,,,,0,00,,,M,,M,,*4D
$PTNL,GGK,131512.00,010125,4742.4453128,N,01617.9731430,E,1,22,1.2,EHT670.0436,M*4E
$GPGGQ,131512.00,010125,4742.4453128,N,01617.9731430,E,1,22,1.865,626.8326,M*34
$GPGFA,131512.00,9.355,12.065,0.984,0.587,25.699,1.471,,VVV*01
$GPLLK,131512.00,010125,,M,,M,1,22,1.3,,M*0C
$GNGMP,131512.00,,,,,DAAA,22,0.6,,,,*55
$GPGMP,131512.00,,,,,,06,,,,2.7,123*7B
$GLGMP,131512.00,,,,,,04,,,,,*7E
$GAGMP,131512.00,,,,,,06,,,,,*71
$GBGMP,131512.00,,,,,,06,,,,,*72
$PSSN,SNC,[0,306930000,2347]*4B
$GPZDA,131517.00,01,01,2025,,*63
$GPDTM,W84,,00.0000000,N,00.0000000,E,00.0000000,W84*5F
$GPRMC,131517.00,A,4742.4453154,N,01617.9731374,E,0.0,,010125,5.1,E,D*13
$GPGLL,4742.4453154,N,01617.9731374,E,131517.00,A,D*62
$GPGGA,131517.00,4742.4453154,N,01617.9731374,E,2,22,0.6,626.8213,M,43.2111,M,2.8,0123*4D
$GNGNS,131517.00,4742.4453154,N,01617.9731374,E,DAAA,22,0.6,626.8213,43.2111,,*5B
$GPGNS,131517.00,,,,,,05,,,,2.8,123*72
$GLGNS,131517.00,,,,,,06,,,,,*79
$GAGNS,131517.00,,,,,,05,,,,,*77
$GBGNS,131517.00,,,,,,06,,,,,*77
$GPLLQ,131517.00,010125,,M,,M,1,22,3.257,,M*12
$GPVTG,,T,,M,0.00,N,0.00,K,D*26
$GPHDT,,T*1B
$GPTHS,,V*0E
$GPROT,,V*08
$PSSN,HRP,131517.00,010125,,,,,,,00,0,,*61
$PTNL,AVR,131517.00,,Yaw,,Tilt,,,,0,,00*37
$GPGSA,A,3,12,24,25,28,29,,,,,,,,1.2,0.6,1.1*34
$GPGSA,A,3,68,69,77,78,87,88,,,,,,,1.2,0.6,1.1*36
$GPGSA,A,3,02,07,27,29,30,,,,,,,,1.2,0.6,1.1*3F
$GPGSA,A,3,24,25,26,34,35,44,,,,,,,1.2,0.6,1.1*33
$GPGST,131517.00,4.847,1.746,0.859,48.922,1.317,1.432,2.612*6A
$GPGBS,131517.00,7.732,7.468,16.580,87,0.0001,14.294,6.183*51
$GPGRS,131517.00,1,0.0,0.6,-0.2,-1.9,-0.5,,,,,,,*44
$GPGRS,131517.00,1,4.9,0.7,-5.7,-1.6,14.3,2.2,,,,,,*77
$GPGRS,131517.00,1,-1.5,0.6,1.5,-2.0,0.8,,,,,,,*6C
$GPGRS,131517.00,1,-1.4,-6.7,-1.1,-1.5,-3.5,2.7,,,,,,*60
$GPGSV,4,1,13,12,79,026,52,11,27,112,34,29,19,210,37,32,32,293,31*7E
$GPGSV,4,2,13,19,21,046,34,06,29,070,31,24,47,152,42,25,51,279,43*76
$GPGSV,4,3,13,28,09,311,36,36,35,170,34,34,31,208,35,49,34,195,36*70
$GPGSV,4,4,13,61,03,257,*4F
$GLGSV,3,1,10,87,53,084,39,88,27,161,38,86,24,031,19,69,23,322,47*6D
$GLGSV,3,2,10,68,28,267,46,77,52,077,42,78,52,314,49,76,10,098,*63
$GLGSV,3,3,10,67,06,223,,79,06,291,31*60
$GAGSV,3,1,10,30,79,315,46,08,14,190,20,36,29,072,35,27,29,268,43*6C
$GAGSV,3,2,10,34,22,128,32,07,41,240,40,29,29,306,42,02,40,074,48*6F
$GAGSV,3,3,10,18,59,085,,11,09,025,*6F
$GBGSV,5,1,19,24,83,076,48,34,20,186,46,41,16,288,35,07,10,057,23*6C
$GBGSV,5,2,19,05,20,130,,11,23,216,,43,12,239,,12,40,162,33*6B
$GBGSV,5,3,19,26,31,109,39,10,23,059,27,25,38,295,39,56,31,052,*66
$GBGSV,5,4,19,35,38,058,46,44,55,129,42,32,06,338,27,02,04,108,*69
$GBGSV,5,5,19,40,04,045,,33,08,241,23,60,08,110,*52
$GPGGA,131517.00,,,,,0,00,,,M,,M,,*48
$PTNL,GGK,131517.00,010125,4742.4453154,N,01617.9731374,E,1,22,1.2,EHT670.0323,M*44
$GPGGQ,131517.00,010125,4742.4453154,N,01617.9731374,E,1,22,3.257,626.8213,M*33
$GPGFA,131517.00,16.599,21.421,1.746,0.859,48.922,2.612,,VVV*37
$GPLLK,131517.00,010125,,M,,M,1,22,1.4,,M*0E
$GNGMP,131517.00,,,,,DAAA,22,0.6,,,,*50
$GPGMP,131517.00,,,,,,05,,,,2.8,123*72
$GLGMP,131517.00,,,,,,06,,,,,*79
$GAGMP,131517.00,,,,,,05,,,,,*77
$GBGMP,131517.00,,,,,,06,,,,,*77
$PSSN,SNC,[0,306935000,2347]*4E
$GPZDA,131522.00,01,01,2025,,*65
$GPDTM,W84,,00.0000000,N,00.0000000,E,00.0000000,W84*5F
$GPRMC,131522.00,A,4742.4453211,N,01617.9731356,E,0.0,,010125,5.1,E,D*17
$GPGLL,4742.4453211,N,01617.9731356,E,131522.00,A,D*66
$GPGGA,131522.00,4742.4453211,N,01617.9731356,E,2,21,0.7,626.8175,M,43.2111,M,2.8,0123*48
$GNGNS,131522.00,4742.4453211,N,01617.9731356,E,DAAA,21,0.7,626.8175,43.2111,,*5E
$GPGNS,131522.00,,,,,,04,,,,2.8,123*75
$GLGNS,131522.00,,,,,,06,,,,,*7F
$GAGNS,131522.00,,,,,,05,,,,,*71
$GBGNS,131522.00,,,,,,06,,,,,*71
$GPLLQ,131522.00,010125,,M,,M,1,21,5.406,,M*13
$GPVTG,,T,,M,0.00,N,0.00,K,D*26
$GPHDT,,T*1B
$GPTHS,,V*0E
$GPROT,,V*08
$PSSN,HRP,131522.00,010125,,,,,,,00,0,,*67
$PTNL,AVR,131522.00,,Yaw,,Tilt,,,,0,,00*31
$GPGSA,A,3,12,24,25,29,,,,,,,,,1.4,0.7,1.2*3A
$GPGSA,A,3,68,69,77,78,87,88,,,,,,,1.4,0.7,1.2*32
$GPGSA,A,3,02,07,27,29,30,,,,,,,,1.4,0.7,1.2*3B
$GPGSA,A,3,24,25,26,34,35,44,,,,,,,1.4,0.7,1.2*37
$GPGST,131522.00,3.653,2.598,0.729,33.162,2.211,1.547,4.685*65
$GPGBS,131522.00,15.884,9.820,33.368,87,0.0001,7.301,6.181*52
$GPGRS,131522.00,1,-0.3,0.1,0.1,0.9,,,,,,,,*6F
$GPGRS,131522.00,1,5.0,-1.2,-6.3,-2.6,7.3,1.6,,,,,,*61
$GPGRS,131522.00,1,-1.9,0.5,1.7,-1.7,0.6,,,,,,,*6D
$GPGRS,131522.00,1,-2.0,-3.6,-1.1,-1.5,-4.9,1.5,,,,,,*6F
$GPGSV,4,1,13,12,79,026,52,11,27,112,33,29,19,210,39,32,32,293,30*76
$GPGSV,4,2,13,19,21,046,34,06,29,069,33,24,47,152,43,25,51,279,44*7A
$GPGSV,4,3,13,28,09,311,34,36,35,170,34,34,31,208,34,49,34,195,36*73
$GPGSV,4,4,13,61,03,257,*4F
$GLGSV,3,1,10,87,53,084,39,88,27,161,40,86,24,031,26,69,23,322,45*6C
$GLGSV,3,2,10,68,28,267,46,77,52,077,40,78,52,314,49,76,10,098,*61
$GLGSV,3,3,10,67,06,223,22,79,06,291,33*62
$GAGSV,3,1,10,30,79,315,46,08,14,190,20,27,29,268,44,36,29,072,32*6C
$GAGSV,3,2,10,34,22,128,31,07,41,240,41,29,29,306,41,02,40,074,47*61
$GAGSV,3,3,10,18,59,085,,11,09,025,*6F
$GBGSV,5,1,19,24,83,076,48,34,20,186,45,41,16,288,34,07,10,057,23*6E
$GBGSV,5,2,19,05,20,130,,11,23,216,,43,12,239,,12,40,162,34*6C
$GBGSV,5,3,19,26,31,109,41,10,23,059,26,25,38,295,39,56,31,052,*68
$GBGSV,5,4,19,35,38,058,46,44,55,129,43,32,06,338,29,02,04,108,*66
$GBGSV,5,5,19,40,04,046,,33,08,241,23,60,08,110,*51
$GPGGA,131522.00,,,,,0,00,,,M,,M,,*4E
$PTNL,GGK,131522.00,010125,4742.4453211,N,01617.9731356,E,1,21,1.4,EHT670.0285,M*48
$GPGGQ,131522.00,010125,4742.4453211,N,01617.9731356,E,1,21,5.406,626.8175,M*33
$GPGFA,131522.00,24.701,38.415,2.598,0.729,33.162,4.685,,VVV*3E
$GPLLK,131522.00,010125,,M,,M,1,21,1.6,,M*09
$GNGMP,131522.00,,,,,DAAA,21,0.7,,,,*54
$GPGMP,131522.00,,,,,,04,,,,2.8,123*75
$GLGMP,131522.00,,,,,,06,,,,,*7F
$GAGMP,131522.00,,,,,,05,,,,,*71
$GBGMP,131522.00,,,,,,06,,,,,*71
$PSSN,SNC,[0,306940000,2347]*4C
$GPZDA,131527.00,01,01,2025,,*60
$GPDTM,W84,,00.0000000,N,00.0000000,E,00.0000000,W84*5F
$GPRMC,131527.00,A,4742.4453250,N,01617.9731411,E,0.0,,010125,5.1,E,D*13
$GPGLL,4742.4453250,N,01617.9731411,E,131527.00,A,D*62
$GPGGA,131527.00,4742.4453250,N,01617.9731411,E,2,22,0.7,626.8250,M,43.2111,M,1.8,0123*48
$GNGNS,131527.00,4742.4453250,N,01617.9731411,E,DAAA,22,0.7,626.8250,43.2111,,*5D
$GPGNS,131527.00,,,,,,04,,,,1.8,123*73
$GLGNS,131527.00,,,,,,06,,,,,*7A
$GAGNS,131527.00,,,,,,05,,,,,*74
$GBGNS,131527.00,,,,,,07,,,,,*75
$GPLLQ,131527.00,010125,,M,,M,1,22,5.569,,M*1D
$GPVTG,,T,,M,0.00,N,0.00,K,D*26
$GPHDT,,T*1B
$GPTHS,,V*0E
$GPROT,,V*08
$PSSN,HRP,131527.00,010125,,,,,,,00,0,,*62
$PTNL,AVR,131527.00,,Yaw,,Tilt,,,,0,,00*34
$GPGSA,A,3,12,24,25,29,,,,,,,,,1.3,0.7,1.1*3E
$GPGSA,A,3,68,69,77,78,87,88,,,,,,,1.3,0.7,1.1*36
$GPGSA,A,3,02,07,27,29,30,,,,,,,,1.3,0.7,1.1*3F
$GPGSA,A,3,24,25,26,34,35,41,44,,,,,,1.3,0.7,1.1*36
$GPGST,131527.00,3.302,2.677,0.747,33.470,2.271,1.603,4.826*6F
$GPGBS,131527.00,15.347,9.659,32.329,77,0.0001,-7.148,6.190*7A
$GPGRS,131527.00,1,-0.3,-0.3,0.5,1.4,,,,,,,,*4D
$GPGRS,131527.00,1,3.9,-1.2,-7.1,-3.0,3.3,0.7,,,,,,*6B
$GPGRS,131527.00,1,-2.1,0.1,1.2,-1.6,0.8,,,,,,,*6D
$GPGRS,131527.00,1,-2.2,0.3,-0.2,-1.2,-6.5,-3.9,-0.1,,,,,*69
$GPGSV,4,1,13,12,79,026,51,11,27,112,33,29,19,210,40,32,32,293,30*7B
$GPGSV,4,2,13,19,21,046,33,06,29,069,35,24,47,152,44,25,51,279,45*7D
$GPGSV,4,3,13,28,09,311,30,36,35,170,34,34,31,208,34,49,34,195,36*77
$GPGSV,4,4,13,61,03,257,*4F
$GLGSV,3,1,10,87,53,084,37,88,27,161,41,86,24,031,29,69,23,322,44*6D
$GLGSV,3,2,10,68,28,267,46,77,52,077,38,78,52,314,48,76,10,098,*6F
$GLGSV,3,3,10,67,06,223,21,79,06,291,33*61
$GAGSV,3,1,10,30,79,315,46,08,14,190,23,27,29,268,44,36,29,071,30*6E
$GAGSV,3,2,10,34,22,128,30,07,41,240,41,29,29,306,41,02,40,074,46*61
$GAGSV,3,3,10,18,59,085,,11,09,025,*6F
$GBGSV,5,1,19,24,83,076,48,34,20,186,45,41,16,288,36,07,10,057,23*6C
$GBGSV,5,2,19,05,20,130,,11,23,216,,43,12,239,,12,40,162,34*6C
$GBGSV,5,3,19,26,31,109,42,10,23,059,26,25,38,295,39,56,31,052,*6B
$GBGSV,5,4,19,35,38,058,46,44,55,129,43,32,06,338,30,02,04,108,*6E
$GBGSV,5,5,19,40,04,046,,33,08,241,21,60,08,110,*53
$GPGGA,131527.00,,,,,0,00,,,M,,M,,*4B
$PTNL,GGK,131527.00,010125,4742.4453250,N,01617.9731411,E,1,22,1.3,EHT670.0360,M*42
$GPGGQ,131527.00,010125,4742.4453250,N,01617.9731411,E,1,22,5.569,626.8250,M*38
$GPGFA,131527.00,25.456,39.570,2.677,0.747,33.470,4.826,,VVV*33
$GPLLK,131527.00,010125,,M,,M,1,22,1.5,,M*0C
$GNGMP,131527.00,,,,,DAAA,22,0.7,,,,*52
$GPGMP,131527.00,,,,,,04,,,,1.8,123*73
$GLGMP,131527.00,,,,,,06,,,,,*7A
$GAGMP,131527.00,,,,,,05,,,,,*74
$GBGMP,131527.00,,,,,,07,,,,,*75
$PSSN,SNC,[0,306945000,2347]*49
$GPZDA,131532.00,01,01,2025,,*64
$GPDTM,W84,,00.0000000,N,00.0000000,E,00.0000000,W84*5F
$GPRMC,131532.00,A,4742.4453284,N,01617.9731514,E,0.0,,010125,5.1,E,D*1A
$GPGLL,4742.4453284,N,01617.9731514,E,131532.00,A,D*6B
$GPGGA,131532.00,4742.4453284,N,01617.9731514,E,2,24,0.6,626.8253,M,43.2111,M,2.8,0123*46
$GNGNS,131532.00,4742.4453284,N,01617.9731514,E,DAAA,24,0.6,626.8253,43.2111,,*50
$GPGNS,131532.00,,,,,,05,,,,2.8,123*75
$GLGNS,131532.00,,,,,,06,,,,,*7E
$GAGNS,131532.00,,,,,,06,,,,,*73
$GBGNS,131532.00,,,,,,07,,,,,*71
$GPLLQ,131532.00,010125,,M,,M,1,24,1.870,,M*1E
$GPVTG,,T,,M,0.01,N,0.01,K,D*26
$GPHDT,,T*1B
$GPTHS,,V*0E
$GPROT,,V*08
$PSSN,HRP,131532.00,010125,,,,,,,00,0,,*66
$PTNL,AVR,131532.00,,Yaw,,Tilt,,,,0,,00*30
$GPGSA,A,3,06,12,24,25,29,,,,,,,,1.2,0.6,1.0*39
$GPGSA,A,3,68,69,77,78,87,88,,,,,,,1.2,0.6,1.0*37
$GPGSA,A,3,02,07,27,29,30,36,,,,,,,1.2,0.6,1.0*3B
$GPGSA,A,3,24,25,26,34,35,41,44,,,,,,1.2,0.6,1.0*37
$GPGST,131532.00,3.729,0.793,0.607,355.015,0.792,0.609,1.581*5A
$GPGBS,131532.00,5.759,4.317,11.310,77,0.0001,-7.519,6.193*4E
$GPGRS,131532.00,1,-0.2,-0.0,-0.3,0.8,0.2,,,,,,,*41
$GPGRS,131532.00,1,3.7,1.1,-7.5,-3.2,4.6,-1.5,,,,,,*65
$GPGRS,131532.00,1,-2.2,-0.2,0.7,-1.0,0.9,-4.1,,,,,,*41
$GPGRS,131532.00,1,-2.2,-0.2,0.5,-1.1,-7.7,-6.3,-1.2,,,,,*66
$GPGSV,4,1,13,12,79,026,51,11,27,112,33,29,19,210,40,32,32,293,32*79
$GPGSV,4,2,13,19,21,046,31,06,29,069,36,24,47,152,45,25,51,279,45*7D
$GPGSV,4,3,13,28,09,311,28,36,35,170,34,34,31,208,34,49,34,195,36*7E
$GPGSV,4,4,13,61,03,257,*4F
$GLGSV,3,1,10,87,53,084,35,88,28,161,40,86,23,031,19,69,23,322,44*65
$GLGSV,3,2,10,68,28,267,47,77,52,077,37,78,52,314,48,76,10,098,*61
$GLGSV,3,3,10,67,06,223,,79,06,291,28*68
$GAGSV,3,1,10,30,79,315,46,08,14,190,23,36,29,071,40,27,29,268,44*69
$GAGSV,3,2,10,34,22,128,30,07,41,240,41,29,29,306,42,02,40,074,46*62
$GAGSV,3,3,10,18,59,085,,11,09,025,*6F
$GBGSV,5,1,19,24,83,077,48,34,20,186,45,41,16,288,35,07,10,057,23*6E
$GBGSV,5,2,19,05,20,130,,11,23,216,,43,12,239,,12,40,162,35*6D
$GBGSV,5,3,19,26,31,109,42,10,23,059,25,25,38,295,38,56,31,052,*69
$GBGSV,5,4,19,35,38,058,46,44,55,129,43,32,06,338,29,02,04,108,*66
$GBGSV,5,5,19,40,04,046,,33,08,241,20,60,08,110,*52
$GPGGA,131532.00,,,,,0,00,,,M,,M,,*4F
$PTNL,GGK,131532.00,010125,4742.4453284,N,01617.9731514,E,1,24,1.2,EHT670.0363,M*4F
$GPGGQ,131532.00,010125,4742.4453284,N,01617.9731514,E,1,24,1.870,626.8253,M*35
$GPGFA,131532.00,7.537,12.966,0.793,0.607,355.015,1.581,,VVV*3E
$GPLLK,131532.00,010125,,M,,M,1,24,1.4,,M*0F
$GNGMP,131532.00,,,,,DAAA,24,0.6,,,,*51
$GPGMP,131532.00,,,,,,05,,,,2.8,123*75
$GLGMP,131532.00,,,,,,06,,,,,*7E
$GAGMP,131532.00,,,,,,06,,,,,*73
$GBGMP,131532.00,,,,,,07,,,,,*71
$PSSN,SNC,[0,306950000,2347]*4D
$GPZDA,131537.00,01,01,2025,,*61
$GPDTM,W84,,00.0000000,N,00.0000000,E,00.0000000,W84*5F
$GPRMC,131537.00,A,4742.4453240,N,01617.9731517,E,0.0,,010125,5.1,E,D*14
$GPGLL,4742.4453240,N,01617.9731517,E,131537.00,A,D*65
$GPGGA,131537.00,4742.4453240,N,01617.9731517,E,2,22,0.6,626.8287,M,43.2111,M,2.0,0123*4F
$GNGNS,131537.00,4742.4453240,N,01617.9731517,E,DAAA,22,0.6,626.8287,43.2111,,*51
$GPGNS,131537.00,,,,,,05,,,,2.0,123*78
$GLGNS,131537.00,,,,,,05,,,,,*78
$GAGNS,131537.00,,,,,,05,,,,,*75
$GBGNS,131537.00,,,,,,07,,,,,*74
$GPLLQ,131537.00,010125,,M,,M,1,22,1.897,,M*14
$GPVTG,,T,,M,0.00,N,0.01,K,D*27
$GPHDT,,T*1B
$GPTHS,,V*0E
$GPROT,,V*08
$PSSN,HRP,131537.00,010125,,,,,,,00,0,,*63
$PTNL,AVR,131537.00,,Yaw,,Tilt,,,,0,,00*35
$GPGSA,A,3,06,12,24,25,29,,,,,,,,1.3,0.6,1.1*39
$GPGSA,A,3,68,69,77,78,88,,,,,,,,1.3,0.6,1.1*38
$GPGSA,A,3,02,07,27,29,30,,,,,,,,1.3,0.6,1.1*3E
$GPGSA,A,3,12,24,25,26,34,35,44,,,,,,1.3,0.6,1.1*31
$GPGST,131537.00,3.509,0.806,0.623,352.580,0.803,0.626,1.600*54
$GPGBS,131537.00,5.872,4.529,11.400,77,0.0001,-7.271,6.203*43
$GPGRS,131537.00,1,1.4,-0.1,0.1,0.0,-0.2,,,,,,,*65
$GPGRS,131537.00,1,4.0,2.8,-7.3,-3.0,-3.5,,,,,,,*40
$GPGRS,131537.00,1,-2.5,-0.8,0.5,-0.7,0.4,,,,,,,*46
$GPGRS,131537.00,1,-2.8,-2.3,0.2,0.6,-0.9,-7.9,-0.9,,,,,*4E
$GPGSV,4,1,13,12,79,027,51,11,27,112,33,29,19,210,40,32,32,293,30*7A
$GPGSV,4,2,13,19,21,046,,06,29,069,36,24,47,152,45,25,51,279,45*7F
$GPGSV,4,3,13,28,09,311,27,36,35,170,34,34,31,208,35,49,34,195,35*73
$GPGSV,4,4,13,61,03,257,*4F
$GLGSV,3,1,10,87,53,084,30,88,28,161,39,86,23,031,,69,23,322,45*67
$GLGSV,3,2,10,68,28,267,47,77,52,077,35,78,52,314,48,76,10,098,*63
$GLGSV,3,3,10,67,06,223,,79,06,291,27*67
$GAGSV,3,1,10,30,79,315,46,08,14,190,22,36,29,071,26,27,29,268,45*69
$GAGSV,3,2,10,34,22,128,30,07,41,240,41,29,29,306,43,02,40,074,45*60
$GAGSV,3,3,10,18,59,085,,11,09,025,*6F
$GBGSV,5,1,19,24,83,077,48,34,20,186,45,41,16,288,35,07,10,057,23*6E
$GBGSV,5,2,19,05,20,130,,11,23,216,,43,12,239,,12,40,162,36*6E
$GBGSV,5,3,19,26,31,109,42,10,23,059,24,25,38,295,38,56,31,052,*68
$GBGSV,5,4,19,35,38,058,45,44,55,129,43,32,06,338,28,02,04,108,*64
$GBGSV,5,5,19,40,04,046,,33,08,241,20,60,08,110,*52
$GPGGA,131537.00,,,,,0,00,,,M,,M,,*4A
$PTNL,GGK,131537.00,010125,4742.4453240,N,01617.9731517,E,1,22,1.3,EHT670.0397,M*4D
$GPGGQ,131537.00,010125,4742.4453240,N,01617.9731517,E,1,22,1.897,626.8287,M*3D
$GPGFA,131537.00,7.660,13.124,0.806,0.623,352.580,1.600,,VVV*34
$GPLLK,131537.00,010125,,M,,M,1,22,1.5,,M*0D
$GNGMP,131537.00,,,,,DAAA,22,0.6,,,,*52
$GPGMP,131537.00,,,,,,05,,,,2.0,123*78
$GLGMP,131537.00,,,,,,05,,,,,*78
$GAGMP,131537.00,,,,,,05,,,,,*75
$GBGMP,131537.00,,,,,,07,,,,,*74
$PSSN,SNC,[0,306955000,2347]*48
$GPZDA,131542.00,01,01,2025,,*63
$GPDTM,W84,,00.0000000,N,00.0000000,E,00.0000000,W84*5F
$GPRMC,131542.00,A,4742.4453210,N,01617.9731466,E,0.0,,010125,5.1,E,D*14
$GPGLL,4742.4453210,N,01617.9731466,E,131542.00,A,D*65
$GPGGA,131542.00,4742.4453210,N,01617.9731466,E,2,21,0.7,626.8355,M,43.2111,M,3.3,0123*41
$GNGNS,131542.00,4742.4453210,N,01617.9731466,E,DAAA,21,0.7,626.8355,43.2111,,*5D
$GPGNS,131542.00,,,,,,04,,,,3.3,123*79
$GLGNS,131542.00,,,,,,05,,,,,*7A
$GAGNS,131542.00,,,,,,05,,,,,*77
$GBGNS,131542.00,,,,,,07,,,,,*76
$GPLLQ,131542.00,010125,,M,,M,1,21,4.940,,M*1B
$GPVTG,,T,,M,0.01,N,0.01,K,D*26
$GPHDT,,T*1B
$GPTHS,,V*0E
$GPROT,,V*08
$PSSN,HRP,131542.00,010125,,,,,,,00,0,,*61
$PTNL,AVR,131542.00,,Yaw,,Tilt,,,,0,,00*37
$GPGSA,A,3,12,24,25,29,,,,,,,,,1.4,0.7,1.2*3A
$GPGSA,A,3,68,69,77,78,88,,,,,,,,1.4,0.7,1.2*3D
$GPGSA,A,3,02,07,27,29,30,,,,,,,,1.4,0.7,1.2*3B
$GPGSA,A,3,12,24,25,26,34,35,44,,,,,,1.4,0.7,1.2*34
$GPGST,131542.00,3.269,2.359,0.678,33.218,2.009,1.411,4.286*60
$GPGBS,131542.00,15.344,9.550,32.410,77,0.0001,-5.938,6.196*76
$GPGRS,131542.00,1,-0.1,0.1,-0.0,-0.8,,,,,,,,*6B
$GPGRS,131542.00,1,5.8,2.3,-5.9,-2.1,-2.4,,,,,,,*48
$GPGRS,131542.00,1,-2.6,-0.6,0.6,-0.6,0.4,,,,,,,*4B
$GPGRS,131542.00,1,-1.0,-2.1,0.5,1.2,-0.7,-6.9,-0.2,,,,,*43
$GPGSV,4,1,13,12,79,027,51,11,27,112,35,29,19,210,39,32,32,293,29*7A
$GPGSV,4,2,13,19,21,046,26,06,29,069,35,24,47,152,46,25,51,279,45*7B
$GPGSV,4,3,13,28,09,311,29,36,35,170,34,34,31,208,34,49,34,195,36*7F
$GPGSV,4,4,13,61,03,257,*4F
$GLGSV,3,1,10,87,53,084,27,88,28,161,37,86,23,031,35,69,23,322,45*69
$GLGSV,3,2,10,68,28,267,48,77,52,077,37,78,53,314,48,76,10,098,*6F
$GLGSV,3,3,10,67,06,223,21,79,06,291,29*6A
$GAGSV,3,1,10,30,79,315,46,08,14,190,21,36,29,071,27,27,29,268,45*6B
$GAGSV,3,2,10,34,22,128,29,07,41,240,41,29,29,306,44,02,40,074,44*6E
$GAGSV,3,3,10,18,59,085,,11,09,025,*6F
$GBGSV,5,1,19,24,83,077,48,34,20,186,45,41,16,288,34,07,10,057,22*6E
$GBGSV,5,2,19,05,20,130,,11,23,216,,43,12,239,,12,41,162,37*6E
$GBGSV,5,3,19,26,31,109,42,10,23,059,23,25,38,295,39,56,31,052,*6E
$GBGSV,5,4,19,35,38,058,45,44,55,129,44,32,06,338,29,02,04,108,*62
$GBGSV,5,5,19,40,04,046,,33,08,241,,60,08,110,*50
$GPGGA,131542.00,,,,,0,00,,,M,,M,,*48
$PTNL,GGK,131542.00,010125,4742.4453210,N,01617.9731466,E,1,21,1.4,EHT670.0466,M*40
$GPGGQ,131542.00,010125,4742.4453210,N,01617.9731466,E,1,21,4.940,626.8355,M*3E
$GPGFA,131542.00,22.433,35.149,2.359,0.678,33.218,4.286,,VVV*3A
$GPLLK,131542.00,010125,,M,,M,1,21,1.6,,M*0F
$GNGMP,131542.00,,,,,DAAA,21,0.7,,,,*52
$GPGMP,131542.00,,,,,,04,,,,3.3,123*79
$GLGMP,131542.00,,,,,,05,,,,,*7A
$GAGMP,131542.00,,,,,,05,,,,,*77
$GBGMP,131542.00,,,,,,07,,,,,*76
$PSSN,SNC,[0,306960000,2347]*4E
$GPZDA,131547.00,01,01,2025,,*66
$GPDTM,W84,,00.0000000,N,00.0000000,E,00.0000000,W84*5F
$GPRMC,131547.00,A,4742.4453167,N,01617.9731416,E,0.0,,010125,5.1,E,D*15
$GPGLL,4742.4453167,N,01617.9731416,E,131547.00,A,D*64
$GPGGA,131547.00,4742.4453167,N,01617.9731416,E,2,23,0.6,626.8378,M,43.2111,M,2.8,0123*46
$GNGNS,131547.00,4742.4453167,N,01617.9731416,E,DAAA,23,0.6,626.8378,43.2111,,*50
$GPGNS,131547.00,,,,,,05,,,,2.8,123*77
$GLGNS,131547.00,,,,,,06,,,,,*7C
$GAGNS,131547.00,,,,,,05,,,,,*72
$GBGNS,131547.00,,,,,,07,,,,,*73
$GPLLQ,131547.00,010125,,M,,M,1,23,2.844,,M*1F
$GPVTG,,T,,M,0.00,N,0.01,K,D*27
$GPHDT,,T*1B
$GPTHS,,V*0E
$GPROT,,V*08
$PSSN,HRP,131547.00,010125,,,,,,,00,0,,*64
$PTNL,AVR,131547.00,,Yaw,,Tilt,,,,0,,00*32
$GPGSA,A,3,11,12,24,25,29,,,,,,,,1.2,0.6,1.1*3E
$GPGSA,A,3,68,69,77,78,86,88,,,,,,,1.2,0.6,1.1*37
$GPGSA,A,3,02,07,27,29,30,,,,,,,,1.2,0.6,1.1*3F
$GPGSA,A,3,12,24,25,26,34,35,44,,,,,,1.2,0.6,1.1*30
$GPGST,131547.00,3.293,1.379,0.737,10.941,1.361,0.770,2.376*6E
$GPGBS,131547.00,8.048,4.423,13.229,11,0.0001,2.039,1.099*6C
$GPGRS,131547.00,1,2.0,-0.1,0.0,0.1,-1.5,,,,,,,*63
$GPGRS,131547.00,1,7.5,1.6,-5.2,-2.1,5.2,-1.5,,,,,,*64
$GPGRS,131547.00,1,-2.5,-0.2,0.4,-0.9,0.4,,,,,,,*44
$GPGRS,131547.00,1,-0.1,-1.7,1.3,1.5,-0.8,-5.5,-1.6,,,,,*46
$GPGSV,4,1,13,12,79,027,51,11,27,112,35,29,19,210,38,32,32,293,32*71
$GPGSV,4,2,13,19,21,046,28,06,29,069,32,24,47,152,46,25,51,279,45*72
$GPGSV,4,3,13,28,09,311,32,36,35,170,34,34,31,208,35,49,34,195,36*74
$GPGSV,4,4,13,61,03,257,*4F
$GLGSV,3,1,10,87,53,083,25,88,28,161,36,86,23,031,38,69,23,322,45*60
$GLGSV,3,2,10,68,27,267,48,77,52,077,37,78,53,314,50,76,10,098,*69
$GLGSV,3,3,10,67,06,223,21,79,06,291,28*6B
$GAGSV,3,1,10,30,79,315,46,08,14,190,22,27,29,268,44,36,29,071,30*6F
$GAGSV,3,2,10,34,22,128,29,07,41,240,42,29,29,306,45,02,39,074,44*62
$GAGSV,3,3,10,18,59,085,,11,09,025,*6F
$GBGSV,5,1,19,24,83,077,48,34,20,186,46,41,16,288,32,07,10,057,23*6A
$GBGSV,5,2,19,05,20,130,,11,23,216,,43,12,239,,12,41,162,38*61
$GBGSV,5,3,19,26,31,109,42,10,23,059,23,25,38,295,40,56,31,052,*60
$GBGSV,5,4,19,35,38,058,44,44,55,129,43,32,06,338,29,02,04,108,*64
$GBGSV,5,5,19,40,04,046,,33,08,241,,60,08,110,*50
$GPGGA,131547.00,,,,,0,00,,,M,,M,,*4D
$PTNL,GGK,131547.00,010125,4742.4453167,N,01617.9731416,E,1,23,1.2,EHT670.0488,M*45
$GPGGQ,131547.00,010125,4742.4453167,N,01617.9731416,E,1,23,2.844,626.8378,M*31
$GPGFA,131547.00,13.109,19.481,1.379,0.737,10.941,2.376,,VVV*3B
$GPLLK,131547.00,010125,,M,,M,1,23,1.4,,M*0A
$GNGMP,131547.00,,,,,DAAA,23,0.6,,,,*54
$GPGMP,131547.00,,,,,,05,,,,2.8,123*77
$GLGMP,131547.00,,,,,,06,,,,,*7C
$GAGMP,131547.00,,,,,,05,,,,,*72
$GBGMP,131547.00,,,,,,07,,,,,*73
$PSSN,SNC,[0,306965000,2347]*4B
$GPZDA,131552.00,01,01,2025,,*62
$GPDTM,W84,,00.0000000,N,00.0000000,E,00.0000000,W84*5F
$GPRMC,131552.00,A,4742.4453141,N,01617.9731433,E,0.0,,010125,5.1,E,D*12
$GPGLL,4742.4453141,N,01617.9731433,E,131552.00,A,D*63
$GPGGA,131552.00,4742.4453141,N,01617.9731433,E,2,22,0.6,626.8361,M,43.2111,M,2.8,0123*48
$GNGNS,131552.00,4742.4453141,N,01617.9731433,E,DAAA,22,0.6,626.8361,43.2111,,*5E
$GPGNS,131552.00,,,,,,04,,,,2.8,123*72
$GLGNS,131552.00,,,,,,06,,,,,*78
$GAGNS,131552.00,,,,,,05,,,,,*76
$GBGNS,131552.00,,,,,,07,,,,,*77
$GPLLQ,131552.00,010125,,M,,M,1,22,5.137,,M*10
$GPVTG,,T,,M,0.01,N,0.01,K,D*26
$GPHDT,,T*1B
$GPTHS,,V*0E
$GPROT,,V*08
$PSSN,HRP,131552.00,010125,,,,,,,00,0,,*60
$PTNL,AVR,131552.00,,Yaw,,Tilt,,,,0,,00*36
$GPGSA,A,3,12,24,25,29,,,,,,,,,1.2,0.6,1.1*3E
$GPGSA,A,3,68,69,77,78,86,88,,,,,,,1.2,0.6,1.1*37
$GPGSA,A,3,02,07,27,29,30,,,,,,,,1.2,0.6,1.1*3F
$GPGSA,A,3,12,24,25,26,34,35,44,,,,,,1.2,0.6,1.1*30
$GPGST,131552.00,4.109,2.421,0.807,32.995,2.078,1.482,4.458*6B
$GPGBS,131552.00,15.677,9.943,33.349,68,0.0001,9.383,6.410*58
$GPGRS,131552.00,1,-0.2,0.1,0.4,-1.0,,,,,,,,*49
$GPGRS,131552.00,1,9.4,1.9,-6.1,-1.7,9.2,1.7,,,,,,*46
$GPGRS,131552.00,1,-2.0,0.9,0.3,-1.0,0.5,,,,,,,*6D
$GPGRS,131552.00,1,-1.1,-1.2,1.7,1.2,-0.9,-4.1,-1.5,,,,,*42
$GPGSV,4,1,13,12,79,027,50,11,27,112,32,29,19,210,37,32,32,293,35*7F
$GPGSV,4,2,13,19,21,046,,06,29,069,29,24,47,152,47,25,51,279,44*72
$GPGSV,4,3,13,28,09,311,34,36,35,170,34,34,31,208,35,49,34,195,36*72
$GPGSV,4,4,13,61,03,257,*4F
$GLGSV,3,1,10,87,53,083,,88,28,161,37,86,23,031,38,69,23,322,45*66
$GLGSV,3,2,10,68,27,267,48,77,52,077,38,78,53,315,50,76,10,098,*67
$GLGSV,3,3,10,67,06,223,21,79,06,291,34*66
$GAGSV,3,1,10,30,79,316,45,08,14,190,24,36,29,071,32,27,29,268,44*6B
$GAGSV,3,2,10,34,22,128,20,07,41,240,43,29,29,306,45,02,39,074,42*6C
$GAGSV,3,3,10,18,59,085,,11,09,025,*6F
$GBGSV,5,1,19,24,83,078,48,34,20,186,46,41,16,288,33,07,10,057,23*64
$GBGSV,5,2,19,05,20,130,,11,23,216,,43,12,239,,12,41,162,37*6E
$GBGSV,5,3,19,26,31,109,40,10,23,059,23,25,38,295,41,56,31,052,*63
$GBGSV,5,4,19,35,38,058,44,44,55,129,44,32,06,338,32,02,04,108,*69
$GBGSV,5,5,19,40,04,046,,33,08,241,,60,08,110,*50
$GPGGA,131552.00,,,,,0,00,,,M,,M,,*49
$PTNL,GGK,131552.00,010125,4742.4453141,N,01617.9731433,E,1,22,1.2,EHT670.0471,M*45
$GPGGQ,131552.00,010125,4742.4453141,N,01617.9731433,E,1,22,5.137,626.8361,M*35
$GPGFA,131552.00,23.019,36.556,2.421,0.807,32.995,4.458,,VVV*3B
$GPLLK,131552.00,010125,,M,,M,1,22,1.4,,M*0F
$GNGMP,131552.00,,,,,DAAA,22,0.6,,,,*51
$GPGMP,131552.00,,,,,,04,,,,2.8,123*72
$GLGMP,131552.00,,,,,,06,,,,,*78
$GAGMP,131552.00,,,,,,05,,,,,*76
$GBGMP,131552.00,,,,,,07,,,,,*77
$PSSN,SNC,[0,306970000,2347]*4F
$GPZDA,131557.00,01,01,2025,,*67
$GPDTM,W84,,00.0000000,N,00.0000000,E,00.0000000,W84*5F
$GPRMC,131557.00,A,4742.4453108,N,01617.9731500,E,0.0,,010125,5.1,E,D*1B
$GPGLL,4742.4453108,N,01617.9731500,E,131557.00,A,D*6A
$GPGGA,131557.00,4742.4453108,N,01617.9731500,E,2,23,0.6,626.8414,M,43.2111,M,3.0,0123*4C
$GNGNS,131557.00,4742.4453108,N,01617.9731500,E,DAAA,23,0.6,626.8414,43.2111,,*53
$GPGNS,131557.00,,,,,,05,,,,3.0,123*7F
$GLGNS,131557.00,,,,,,06,,,,,*7D
$GAGNS,131557.00,,,,,,05,,,,,*73
$GBGNS,131557.00,,,,,,07,,,,,*72
$GPLLQ,131557.00,010125,,M,,M,1,23,3.121,,M*15
$GPVTG,,T,,M,0.00,N,0.01,K,D*27
$GPHDT,,T*1B
$GPTHS,,V*0E
$GPROT,,V*08
$PSSN,HRP,131557.00,010125,,,,,,,00,0,,*65
$PTNL,AVR,131557.00,,Yaw,,Tilt,,,,0,,00*33
$GPGSA,A,3,12,24,25,28,29,,,,,,,,1.1,0.6,1.0*36
$GPGSA,A,3,68,69,77,78,86,88,,,,,,,1.1,0.6,1.0*35
$GPGSA,A,3,02,07,27,29,30,,,,,,,,1.1,0.6,1.0*3D
$GPGSA,A,3,12,24,25,26,34,35,44,,,,,,1.1,0.6,1.0*32
$GPGST,131557.00,4.281,1.647,0.853,49.725,1.248,1.373,2.509*6C
$GPGBS,131557.00,7.152,7.254,15.658,86,0.0001,10.454,6.875*56
$GPGRS,131557.00,1,-0.5,0.2,0.1,-2.2,-1.5,,,,,,,*4B
$GPGRS,131557.00,1,9.5,2.0,-6.4,-1.9,10.5,3.0,,,,,,*79
$GPGRS,131557.00,1,-1.8,1.0,0.2,-1.3,0.6,,,,,,,*6A
$GPGRS,131557.00,1,-2.5,-1.0,1.9,0.1,-1.1,-3.0,0.4,,,,,*6C
$GPGSV,4,1,13,12,79,027,50,11,27,112,30,29,19,210,37,32,32,293,42*7D
$GPGSV,4,2,13,19,20,046,29,06,29,069,27,24,47,152,48,25,51,279,43*7E
$GPGSV,4,3,13,28,09,311,36,36,35,170,34,34,31,208,35,49,34,195,36*70
$GPGSV,4,4,13,61,03,257,*4F
$GLGSV,3,1,10,87,53,083,,88,28,161,39,86,23,031,38,69,23,322,45*68
$GLGSV,3,2,10,68,27,267,48,77,52,077,39,78,53,315,51,76,10,098,*67
$GLGSV,3,3,10,67,06,223,24,79,06,291,33*64
$GAGSV,3,1,10,30,79,316,45,08,14,190,22,36,29,071,32,27,29,268,44*6D
$GAGSV,3,2,10,34,22,128,21,07,41,240,44,29,29,306,45,02,39,074,42*6A
$GAGSV,3,3,10,18,59,085,,11,09,025,*6F
$GBGSV,5,1,19,24,83,078,49,34,20,186,46,41,16,288,33,07,10,057,23*65
$GBGSV,5,2,19,05,20,130,,11,23,216,,43,12,239,,12,41,162,38*61
$GBGSV,5,3,19,26,31,109,39,10,23,059,23,25,38,295,42,56,31,052,*6E
$GBGSV,5,4,19,35,38,058,44,44,55,129,44,32,06,338,32,02,04,108,*69
$GBGSV,5,5,19,40,04,046,,33,08,241,,60,08,110,*50
$GPGGA,131557.00,,,,,0,00,,,M,,M,,*4C
$PTNL,GGK,131557.00,010125,4742.4453108,N,01617.9731500,E,1,23,1.1,EHT670.0524,M*4F
$GPGGQ,131557.00,010125,4742.4453108,N,01617.9731500,E,1,23,3.121,626.8414,M*39
$GPGFA,131557.00,15.662,20.578,1.647,0.853,49.725,2.509,,VVV*30
$GPLLK,131557.00,010125,,M,,M,1,23,1.3,,M*0C
$GNGMP,131557.00,,,,,DAAA,23,0.6,,,,*55
$GPGMP,131557.00,,,,,,05,,,,3.0,123*7F
$GLGMP,131557.00,,,,,,06,,,,,*7D
$GAGMP,131557.00,,,,,,05,,,,,*73
$GBGMP,131557.00,,,,,,07,,,,,*72
$PSSN,SNC,[0,306975000,2347]*4A
$GPZDA,131602.00,01,01,2025,,*64
$GPDTM,W84,,00.0000000,N,00.0000000,E,00.0000000,W84*5F
$GPRMC,131602.00,A,4742.4453131,N,01617.9731463,E,0.0,,010125,5.1,E,D*16
$GPGLL,4742.4453131,N,01617.9731463,E,131602.00,A,D*67
$GPGGA,131602.00,4742.4453131,N,01617.9731463,E,2,23,0.6,626.8363,M,43.2111,M,1.6,0123*42
$GNGNS,131602.00,4742.4453131,N,01617.9731463,E,DAAA,23,0.6,626.8363,43.2111,,*59
$GPGNS,131602.00,,,,,,05,,,,1.6,123*78
$GLGNS,131602.00,,,,,,06,,,,,*7E
$GAGNS,131602.00,,,,,,05,,,,,*70
$GBGNS,131602.00,,,,,,07,,,,,*71
$GPLLQ,131602.00,010125,,M,,M,1,23,2.727,,M*17
$GPVTG,,T,,M,0.00,N,0.01,K,D*27
$GPHDT,,T*1B
$GPTHS,,V*0E
$GPROT,,V*08
$PSSN,HRP,131602.00,010125,,,,,,,00,0,,*66
$PTNL,AVR,131602.00,,Yaw,,Tilt,,,,0,,00*30
$GPGSA,A,3,12,24,25,28,29,,,,,,,,1.1,0.6,1.0*36
$GPGSA,A,3,68,69,77,78,86,88,,,,,,,1.1,0.6,1.0*35
$GPGSA,A,3,02,07,27,29,30,,,,,,,,1.1,0.6,1.0*3D
$GPGSA,A,3,12,24,25,26,34,35,44,,,,,,1.1,0.6,1.0*32
$GPGST,131602.00,4.440,1.442,0.743,49.837,1.090,1.202,2.192*67
$GPGBS,131602.00,7.091,7.101,15.604,86,0.0001,12.367,6.880*5E
$GPGRS,131602.00,1,-0.1,0.4,-0.2,-1.3,-0.7,,,,,,,*65
$GPGRS,131602.00,1,9.4,2.2,-5.5,-1.9,12.4,2.4,,,,,,*7D
$GPGRS,131602.00,1,-1.2,1.0,0.1,-1.6,1.0,,,,,,,*62
$GPGRS,131602.00,1,-1.4,-0.5,1.9,-2.9,-0.8,-1.7,1.7,,,,,*41
$GPGSV,4,1,13,12,79,027,51,11,27,112,37,29,19,210,37,32,32,293,43*7A
$GPGSV,4,2,13,19,20,046,30,06,29,069,29,24,47,152,48,25,51,279,42*79
$GPGSV,4,3,13,28,09,311,36,36,35,170,34,34,31,208,35,49,34,195,35*73
$GPGSV,4,4,13,61,03,257,*4F
$GLGSV,3,1,10,87,53,083,32,88,28,161,39,86,23,031,37,69,23,322,45*66
$GLGSV,3,2,10,68,27,267,45,77,52,077,40,78,53,315,51,76,10,098,*64
$GLGSV,3,3,10,67,06,223,,79,06,291,33*62
$GAGSV,3,1,10,30,79,316,45,08,13,190,21,36,29,071,29,27,29,268,43*64
$GAGSV,3,2,10,34,22,128,21,07,41,240,44,29,29,306,44,02,39,074,41*68
$GAGSV,3,3,10,18,59,085,,11,09,025,*6F
$GBGSV,5,1,19,24,83,078,50,34,20,186,47,41,16,288,34,07,10,057,23*6B
$GBGSV,5,2,19,05,20,130,,11,23,216,,43,12,239,,12,41,162,38*61
$GBGSV,5,3,19,26,31,110,37,10,23,059,22,25,38,295,42,56,31,052,*69
$GBGSV,5,4,19,35,37,058,45,44,55,129,44,32,06,338,31,02,04,108,*64
$GBGSV,5,5,19,40,04,046,,33,08,241,,60,08,110,*50
$GPGGA,131602.00,,,,,0,00,,,M,,M,,*4F
$PTNL,GGK,131602.00,010125,4742.4453131,N,01617.9731463,E,1,23,1.1,EHT670.0474,M*46
$GPGGQ,131602.00,010125,4742.4453131,N,01617.9731463,E,1,23,2.727,626.8363,M*32
$GPGFA,131602.00,13.709,17.975,1.442,0.743,49.837,2.192,,VVV*3F
$GPLLK,131602.00,010125,,M,,M,1,23,1.3,,M*0F
$GNGMP,131602.00,,,,,DAAA,23,0.6,,,,*56
$GPGMP,131602.00,,,,,,05,,,,1.6,123*78
$GLGMP,131602.00,,,,,,06,,,,,*7E
$GAGMP,131602.00,,,,,,05,,,,,*70
$GBGMP,131602.00,,,,,,07,,,,,*71
$PSSN,SNC,[0,306980000,2347]*40
$GPZDA,131607.00,01,01,2025,,*61
$GPDTM,W84,,00.0000000,N,00.0000000,E,00.0000000,W84*5F
$GPRMC,131607.00,A,4742.4453096,N,01617.9731475,E,0.0,,010125,5.1,E,D*18
$GPGLL,4742.4453096,N,01617.9731475,E,131607.00,A,D*69
$GPGGA,131607.00,4742.4453096,N,01617.9731475,E,2,23,0.6,626.8430,M,43.2111,M,2.6,0123*4E
$GNGNS,131607.00,4742.4453096,N,01617.9731475,E,DAAA,23,0.6,626.8430,43.2111,,*56
$GPGNS,131607.00,,,,,,05,,,,2.6,123*7E
$GLGNS,131607.00,,,,,,06,,,,,*7B
$GAGNS,131607.00,,,,,,05,,,,,*75
$GBGNS,131607.00,,,,,,07,,,,,*74
$GPLLQ,131607.00,010125,,M,,M,1,23,3.072,,M*14
$GPVTG,,T,,M,0.01,N,0.01,K,D*26
$GPHDT,,T*1B
$GPTHS,,V*0E
$GPROT,,V*08
$PSSN,HRP,131607.00,010125,,,,,,,00,0,,*63
$PTNL,AVR,131607.00,,Yaw,,Tilt,,,,0,,00*35
$GPGSA,A,3,12,24,25,28,29,,,,,,,,1.2,0.6,1.1*34
$GPGSA,A,3,68,69,77,78,87,88,,,,,,,1.2,0.6,1.1*36
$GPGSA,A,3,02,07,27,29,30,,,,,,,,1.2,0.6,1.1*3F
$GPGSA,A,3,12,24,25,26,34,35,44,,,,,,1.2,0.6,1.1*30
$GPGST,131607.00,3.401,1.638,0.806,49.060,1.234,1.345,2.471*6D
$GPGBS,131607.00,7.588,7.403,16.533,28,0.0001,5.876,2.060*6E
$GPGRS,131607.00,1,-0.1,-0.3,-0.3,5.9,-0.0,,,,,,,*6F
$GPGRS,131607.00,1,6.2,1.6,-6.1,-1.6,-3.7,3.0,,,,,,*65
$GPGRS,131607.00,1,-1.4,0.2,-0.6,-1.6,0.6,,,,,,,*4F
$GPGRS,131607.00,1,-0.4,-0.6,1.9,-5.5,-0.9,-1.1,2.1,,,,,*4F
$GPGSV,4,1,13,12,79,028,50,11,27,112,21,29,19,210,38,32,32,293,44*7B
$GPGSV,4,2,13,19,20,046,30,24,47,152,47,06,29,069,32,25,51,279,41*7F
$GPGSV,4,3,13,28,09,311,31,36,35,170,34,34,31,208,34,49,34,195,36*76
$GPGSV,4,4,13,61,03,257,*4F
$GLGSV,3,1,10,78,53,315,52,86,23,031,31,68,27,267,42,88,28,161,40*66
$GLGSV,3,2,10,69,23,322,45,77,52,077,40,87,53,083,37,67,06,222,*69
$GLGSV,3,3,10,79,06,291,28,76,10,098,*6D
$GAGSV,3,1,10,30,79,316,44,08,13,190,22,36,29,071,25,27,29,268,41*68
$GAGSV,3,2,10,34,22,128,22,07,41,240,44,29,29,306,44,02,39,074,41*6B
$GAGSV,3,3,10,18,59,085,,11,09,025,*6F
$GBGSV,5,1,19,24,83,078,51,34,21,186,47,41,16,288,31,07,10,057,22*6F
$GBGSV,5,2,19,05,20,130,,11,23,216,,43,12,238,,12,41,162,39*61
$GBGSV,5,3,19,26,30,110,35,10,23,059,22,25,38,295,42,56,31,052,*6A
$GBGSV,5,4,19,35,37,058,46,44,55,129,45,32,06,338,31,02,04,108,*66
$GBGSV,5,5,19,40,04,046,,33,08,241,,60,08,110,*50
$GPGGA,131607.00,,,,,0,00,,,M,,M,,*4A
$PTNL,GGK,131607.00,010125,4742.4453096,N,01617.9731475,E,1,23,1.2,EHT670.0540,M*4D
$GPGGQ,131607.00,010125,4742.4453096,N,01617.9731475,E,1,23,3.072,626.8430,M*3B
$GPGFA,131607.00,15.569,20.262,1.638,0.806,49.060,2.471,,VVV*32
$GPLLK,131607.00,010125,,M,,M,1,23,1.4,,M*0D
$GNGMP,131607.00,,,,,DAAA,23,0.6,,,,*53
$GPGMP,131607.00,,,,,,05,,,,2.6,123*7E
$GLGMP,131607.00,,,,,,06,,,,,*7B
$GAGMP,131607.00,,,,,,05,,,,,*75
$GBGMP,131607.00,,,,,,07,,,,,*74
$PSSN,SNC,[0,306985000,2347]*45
$GPZDA,131612.00,01,01,2025,,*65
$GPDTM,W84,,00.0000000,N,00.0000000,E,00.0000000,W84*5F
$GPRMC,131612.00,A,4742.4453113,N,01617.9731495,E,0.0,,010125,5.1,E,D*1E
$GPGLL,4742.4453113,N,01617.9731495,E,131612.00,A,D*6F
$GPGGA,131612.00,4742.4453113,N,01617.9731495,E,2,22,0.6,626.8505,M,43.2111,M,2.8,0123*40
$GNGNS,131612.00,4742.4453113,N,01617.9731495,E,DAAA,22,0.6,626.8505,43.2111,,*56
$GPGNS,131612.00,,,,,,04,,,,2.8,123*75
$GLGNS,131612.00,,,,,,06,,,,,*7F
$GAGNS,131612.00,,,,,,06,,,,,*72
$GBGNS,131612.00,,,,,,06,,,,,*71
$GPLLQ,131612.00,010125,,M,,M,1,22,4.463,,M*12
$GPVTG,,T,,M,0.00,N,0.00,K,D*26
$GPHDT,,T*1B
$GPTHS,,V*0E
$GPROT,,V*08
$PSSN,HRP,131612.00,010125,,,,,,,00,0,,*67
$PTNL,AVR,131612.00,,Yaw,,Tilt,,,,0,,00*31
$GPGSA,A,3,12,24,25,29,,,,,,,,,1.3,0.6,1.2*3C
$GPGSA,A,3,68,69,77,78,87,88,,,,,,,1.3,0.6,1.2*34
$GPGSA,A,3,02,07,27,29,30,36,,,,,,,1.3,0.6,1.2*38
$GPGSA,A,3,12,24,25,34,35,44,,,,,,,1.3,0.6,1.2*36
$GPGST,131612.00,3.080,2.102,0.660,32.047,1.816,1.248,3.881*6A
$GPGBS,131612.00,14.352,9.629,31.019,77,0.0001,-6.794,6.189*70
$GPGRS,131612.00,1,0.2,-0.5,-0.4,1.0,,,,,,,,*4A
$GPGRS,131612.00,1,6.0,0.7,-6.8,-2.1,0.4,4.7,,,,,,*43
$GPGRS,131612.00,1,-1.2,-0.1,-0.4,-0.8,0.7,-2.8,,,,,,*66
$GPGRS,131612.00,1,0.8,0.1,3.2,-0.5,-1.1,3.0,,,,,,*46
$GPGSV,4,1,13,12,79,028,50,11,27,112,31,29,19,210,39,32,32,293,44*7B
$GPGSV,4,2,13,19,20,046,31,24,47,152,46,06,29,069,33,25,51,279,41*7E
$GPGSV,4,3,13,28,09,311,31,36,35,170,35,34,31,208,35,49,34,195,36*76
$GPGSV,4,4,13,61,03,257,*4F
$GLGSV,3,1,10,78,53,315,52,86,23,031,30,68,27,267,38,88,28,161,41*6B
$GLGSV,3,2,10,69,23,322,44,77,52,077,40,87,53,083,39,67,06,222,24*60
$GLGSV,3,3,10,79,06,291,29,76,10,098,*6C
$GAGSV,3,1,10,30,79,316,44,08,13,190,22,36,29,071,36,27,29,268,39*65
$GAGSV,3,2,10,34,22,128,25,07,41,240,44,29,29,306,44,02,39,074,41*6C
$GAGSV,3,3,10,18,59,085,,11,09,025,*6F
$GBGSV,5,1,19,24,83,078,51,34,21,186,48,41,16,288,32,07,10,057,20*61
$GBGSV,5,2,19,05,20,130,,11,23,216,,43,12,238,,12,41,162,39*61
$GBGSV,5,3,19,26,30,110,34,10,23,059,23,25,38,295,42,56,31,052,*6A
$GBGSV,5,4,19,35,37,058,46,44,55,129,45,32,06,338,31,02,04,108,*66
$GBGSV,5,5,19,40,04,046,,33,08,241,,60,08,110,*50
$GPGGA,131612.00,,,,,0,00,,,M,,M,,*4E
$PTNL,GGK,131612.00,010125,4742.4453113,N,01617.9731495,E,1,22,1.3,EHT670.0616,M*4B
$GPGGQ,131612.00,010125,4742.4453113,N,01617.9731495,E,1,22,4.463,626.8505,M*38
$GPGFA,131612.00,19.983,31.824,2.102,0.660,32.047,3.881,,VVV*32
$GPLLK,131612.00,010125,,M,,M,1,22,1.5,,M*09
$GNGMP,131612.00,,,,,DAAA,22,0.6,,,,*56
$GPGMP,131612.00,,,,,,04,,,,2.8,123*75
$GLGMP,131612.00,,,,,,06,,,,,*7F
$GAGMP,131612.00,,,,,,06,,,,,*72
$GBGMP,131612.00,,,,,,06,,,,,*71
$PSSN,SNC,[0,306990000,2347]*41
$GPZDA,131617.00,01,01,2025,,*60
$GPDTM,W84,,00.0000000,N,00.0000000,E,00.0000000,W84*5F
$GPRMC,131617.00,A,4742.4453127,N,01617.9731545,E,0.0,,010125,5.1,E,D*10
$GPGLL,4742.4453127,N,01617.9731545,E,131617.00,A,D*61
$GPGGA,131617.00,4742.4453127,N,01617.9731545,E,2,24,0.6,626.8481,M,43.2110,M,2.4,0123*48
$GNGNS,131617.00,4742.4453127,N,01617.9731545,E,DAAA,24,0.6,626.8481,43.2110,,*52
$GPGNS,131617.00,,,,,,05,,,,2.4,123*7D
$GLGNS,131617.00,,,,,,06,,,,,*7A
$GAGNS,131617.00,,,,,,06,,,,,*77
$GBGNS,131617.00,,,,,,07,,,,,*75
$GPLLQ,131617.00,010125,,M,,M,1,24,3.110,,M*17
$GPVTG,,T,,M,0.00,N,0.01,K,D*27
$GPHDT,,T*1B
$GPTHS,,V*0E
$GPROT,,V*08
$PSSN,HRP,131617.00,010125,,,,,,,00,0,,*62
$PTNL,AVR,131617.00,,Yaw,,Tilt,,,,0,,00*34
$GPGSA,A,3,11,12,24,25,29,,,,,,,,1.3,0.6,1.1*3F
$GPGSA,A,3,68,69,77,78,87,88,,,,,,,1.3,0.6,1.1*37
$GPGSA,A,3,02,07,27,29,30,36,,,,,,,1.3,0.6,1.1*3B
$GPGSA,A,3,12,24,25,26,34,35,44,,,,,,1.3,0.6,1.1*31
$GPGST,131617.00,3.429,1.485,0.743,15.375,1.445,0.817,2.630*68
$GPGBS,131617.00,8.333,5.278,16.366,88,0.0001,9.434,6.246*66
$GPGRS,131617.00,1,-1.7,0.6,-0.8,-0.3,1.0,,,,,,,*44
$GPGRS,131617.00,1,4.7,1.2,-6.1,-2.4,1.8,9.4,,,,,,*48
$GPGRS,131617.00,1,-0.7,0.4,-0.2,-0.1,1.1,-2.2,,,,,,*4D
$GPGRS,131617.00,1,1.0,0.4,4.2,0.9,0.1,-1.3,3.0,,,,,*44
$GPGSV,4,1,13,12,79,028,50,11,27,112,36,29,19,210,41,32,32,292,43*75
$GPGSV,4,2,13,19,20,046,32,24,47,152,44,06,29,069,32,25,51,279,42*7D
$GPGSV,4,3,13,28,09,311,31,36,35,170,34,34,31,208,35,49,34,195,36*77
$GPGSV,4,4,13,61,03,257,*4F
$GLGSV,3,1,10,78,53,315,51,86,23,031,27,68,27,267,38,88,28,161,41*6E
$GLGSV,3,2,10,69,23,322,45,77,52,077,39,87,53,083,39,67,06,222,21*6A
$GLGSV,3,3,10,79,06,291,,76,10,098,*67
$GAGSV,3,1,10,30,79,316,44,08,13,190,21,36,29,071,36,27,29,268,38*67
$GAGSV,3,2,10,34,22,128,27,07,41,240,43,29,29,306,44,02,39,074,41*69
$GAGSV,3,3,10,18,59,085,,11,09,025,*6F
$GBGSV,5,1,19,24,82,078,51,34,21,186,48,41,16,288,31,07,10,057,22*61
$GBGSV,5,2,19,05,20,130,,11,23,216,,43,12,238,,12,41,162,38*60
$GBGSV,5,3,19,26,30,110,35,10,23,059,23,25,38,295,42,56,30,052,*6A
$GBGSV,5,4,19,35,37,058,47,44,55,129,45,32,06,338,31,02,04,108,*67
$GBGSV,5,5,19,40,04,046,,33,08,241,,60,08,110,*50
$GPGGA,131617.00,,,,,0,00,,,M,,M,,*4B
$PTNL,GGK,131617.00,010125,4742.4453127,N,01617.9731545,E,1,24,1.3,EHT670.0591,M*4F
$GPGGQ,131617.00,010125,4742.4453127,N,01617.9731545,E,1,24,3.110,626.8481,M*3B
$GPGFA,131617.00,14.117,21.566,1.485,0.743,15.375,2.630,,VVV*3E
$GPLLK,131617.00,010125,,M,,M,1,24,1.5,,M*0A
$GNGMP,131617.00,,,,,DAAA,24,0.6,,,,*55
$GPGMP,131617.00,,,,,,05,,,,2.4,123*7D
$GLGMP,131617.00,,,,,,06,,,,,*7A
$GAGMP,131617.00,,,,,,06,,,,,*77
$GBGMP,131617.00,,,,,,07,,,,,*75
$PSSN,SNC,[0,306995000,2347]*44
$GPZDA,131622.00,01,01,2025,,*66
$GPDTM,W84,,00.0000000,N,00.0000000,E,00.0000000,W84*5F
$GPRMC,131622.00,A,4742.4453118,N,01617.9731650,E,0.0,,010125,5.1,E,D*1D
$GPGLL,4742.4453118,N,01617.9731650,E,131622.00,A,D*6C
$GPGGA,131622.00,4742.4453118,N,01617.9731650,E,2,24,0.6,626.8442,M,43.2111,M,1.8,0123*44
$GNGNS,131622.00,4742.4453118,N,01617.9731650,E,DAAA,24,0.6,626.8442,43.2111,,*51
$GPGNS,131622.00,,,,,,05,,,,1.8,123*74
$GLGNS,131622.00,,,,,,06,,,,,*7C
$GAGNS,131622.00,,,,,,06,,,,,*71
$GBGNS,131622.00,,,,,,07,,,,,*73
$GPLLQ,131622.00,010125,,M,,M,1,24,2.730,,M*14
$GPVTG,,T,,M,0.01,N,0.01,K,D*26
$GPHDT,,T*1B
$GPTHS,,V*0E
$GPROT,,V*08
$PSSN,HRP,131622.00,010125,,,,,,,00,0,,*64
$PTNL,AVR,131622.00,,Yaw,,Tilt,,,,0,,00*32
$GPGSA,A,3,11,12,24,25,29,,,,,,,,1.3,0.6,1.1*3F
$GPGSA,A,3,68,69,77,78,87,88,,,,,,,1.3,0.6,1.1*37
$GPGSA,A,3,02,07,27,29,30,36,,,,,,,1.3,0.6,1.1*3B
$GPGSA,A,3,12,24,25,26,34,35,44,,,,,,1.3,0.6,1.1*31
$GPGST,131622.00,3.819,1.328,0.693,9.561,1.315,0.718,2.282*5C
$GPGBS,131622.00,8.240,4.304,13.477,88,0.0001,11.930,6.245*5F
$GPGRS,131622.00,1,-0.8,0.7,-0.5,-0.4,1.2,,,,,,,*45
$GPGRS,131622.00,1,2.4,1.5,-6.1,-2.5,0.4,11.9,,,,,,*74
$GPGRS,131622.00,1,-0.7,0.7,0.2,0.2,1.9,-2.1,,,,,,*40
$GPGRS,131622.00,1,-0.3,0.1,5.1,2.8,0.4,-1.7,2.1,,,,,*68
$GPGSV,4,1,13,12,79,028,50,11,27,112,39,29,19,210,42,32,32,292,41*7B
$GPGSV,4,2,13,19,20,046,,24,47,152,43,06,29,069,29,25,51,279,42*71
$GPGSV,4,3,13,28,09,311,32,36,35,170,34,34,31,208,35,49,34,195,36*74
$GPGSV,4,4,13,61,03,257,*4F
$GLGSV,3,1,10,78,53,315,51,86,23,031,29,68,27,267,35,88,28,161,42*6E
$GLGSV,3,2,10,69,23,322,44,77,52,077,38,87,53,083,39,67,06,222,21*6A
$GLGSV,3,3,10,79,06,291,30,76,10,098,*64
$GAGSV,3,1,10,30,79,316,44,08,13,190,24,36,29,071,35,27,29,268,38*61
$GAGSV,3,2,10,34,22,127,29,07,41,240,43,29,29,306,44,02,39,074,41*68
$GAGSV,3,3,10,18,59,084,,11,09,025,*6E
$GBGSV,5,1,19,24,82,079,51,34,21,186,48,41,16,288,31,07,10,057,22*60
$GBGSV,5,2,19,05,20,130,,11,23,216,,43,12,238,,12,41,162,35*6D
$GBGSV,5,3,19,26,30,110,37,10,23,059,23,25,38,296,40,56,30,052,*69
$GBGSV,5,4,19,35,37,058,47,44,55,129,45,32,06,338,31,02,04,108,*67
$GBGSV,5,5,19,40,04,046,,33,08,241,,60,08,110,*50
$GPGGA,131622.00,,,,,0,00,,,M,,M,,*4D
$PTNL,GGK,131622.00,010125,4742.4453118,N,01617.9731650,E,1,24,1.3,EHT670.0553,M*4C
$GPGGQ,131622.00,010125,4742.4453118,N,01617.9731650,E,1,24,2.730,626.8442,M*3C
$GPGFA,131622.00,12.630,18.710,1.328,0.693,9.561,2.282,,VVV*0A
$GPLLK,131622.00,010125,,M,,M,1,24,1.5,,M*0C
$GNGMP,131622.00,,,,,DAAA,24,0.6,,,,*53
$GPGMP,131622.00,,,,,,05,,,,1.8,123*74
$GLGMP,131622.00,,,,,,06,,,,,*7C
$GAGMP,131622.00,,,,,,06,,,,,*71
$GBGMP,131622.00,,,,,,07,,,,,*73
$PSSN,SNC,[0,307000000,2347]*40
$GPZDA,131627.00,01,01,2025,,*63
$GPDTM,W84,,00.0000000,N,00.0000000,E,00.0000000,W84*5F
$GPRMC,131627.00,A,4742.4453162,N,01617.9731686,E,0.0,,010125,5.1,E,D*1E
$GPGLL,4742.4453162,N,01617.9731686,E,131627.00,A,D*6F
$GPGGA,131627.00,4742.4453162,N,01617.9731686,E,2,22,0.6,626.8435,M,43.2110,M,2.8,0123*43
$GNGNS,131627.00,4742.4453162,N,01617.9731686,E,DAAA,22,0.6,626.8435,43.2110,,*55
$GPGNS,131627.00,,,,,,05,,,,2.8,123*72
$GLGNS,131627.00,,,,,,05,,,,,*7A
$GAGNS,131627.00,,,,,,06,,,,,*74
$GBGNS,131627.00,,,,,,06,,,,,*77
$GPLLQ,131627.00,010125,,M,,M,1,22,3.100,,M*13
$GPVTG,,T,,M,0.00,N,0.01,K,D*27
$GPHDT,,T*1B
$GPTHS,,V*0E
$GPROT,,V*08
$PSSN,HRP,131627.00,010125,,,,,,,00,0,,*61
$PTNL,AVR,131627.00,,Yaw,,Tilt,,,,0,,00*37
$GPGSA,A,3,11,12,24,25,29,,,,,,,,1.3,0.6,1.1*3F
$GPGSA,A,3,69,77,78,87,88,,,,,,,,1.3,0.6,1.1*39
$GPGSA,A,3,02,07,27,29,30,36,,,,,,,1.3,0.6,1.1*3B
$GPGSA,A,3,24,25,26,34,35,44,,,,,,,1.3,0.6,1.1*32
$GPGST,131627.00,4.005,1.505,0.788,10.322,1.487,0.820,2.594*68
$GPGBS,131627.00,8.378,4.389,13.617,88,0.0001,10.863,6.245*57
$GPGRS,131627.00,1,-1.0,0.8,0.3,-1.5,0.9,,,,,,,*67
$GPGRS,131627.00,1,-0.0,-6.8,-2.2,-0.6,10.9,,,,,,,*50
$GPGRS,131627.00,1,-1.1,0.5,0.5,0.1,2.4,-2.1,,,,,,*4A
$GPGRS,131627.00,1,0.4,6.1,3.4,0.4,-2.1,1.5,,,,,,*64
$GPGSV,4,1,13,12,79,028,51,11,27,112,39,29,19,210,43,32,32,292,40*7A
$GPGSV,4,2,13,19,20,046,,24,47,152,43,06,29,069,30,25,51,279,40*7B
$GPGSV,4,3,13,28,09,311,29,36,35,170,34,34,31,208,35,49,34,195,36*7E
$GPGSV,4,4,13,61,03,257,*4F
$GLGSV,3,1,10,78,53,315,50,86,23,031,24,68,27,267,34,88,28,161,42*63
$GLGSV,3,2,10,69,23,322,43,77,52,077,40,87,53,083,37,67,06,222,*6F
$GLGSV,3,3,10,79,06,291,26,76,10,098,*63
$GAGSV,3,1,10,30,79,317,44,08,13,190,26,36,29,071,35,27,29,268,38*62
$GAGSV,3,2,10,34,22,127,28,07,41,240,43,29,29,306,44,02,39,074,41*69
$GAGSV,3,3,10,18,59,084,,11,09,025,*6E
$GBGSV,5,1,19,24,82,079,51,34,21,186,47,41,16,288,32,07,10,057,21*6F
$GBGSV,5,2,19,05,20,130,,11,23,216,,43,12,238,,12,41,162,32*6A
$GBGSV,5,3,19,26,30,110,37,10,23,059,23,25,38,296,39,56,30,052,*67
$GBGSV,5,4,19,35,37,058,47,44,55,129,45,32,06,338,30,02,04,108,*66
$GBGSV,5,5,19,40,04,046,,33,08,241,,60,08,110,*50
$GPGGA,131627.00,,,,,0,00,,,M,,M,,*48
$PTNL,GGK,131627.00,010125,4742.4453162,N,01617.9731686,E,1,22,1.3,EHT670.0546,M*4D
$GPGGQ,131627.00,010125,4742.4453162,N,01617.9731686,E,1,22,3.100,626.8435,M*3D
$GPGFA,131627.00,14.306,21.267,1.505,0.788,10.322,2.594,,VVV*3D
$GPLLK,131627.00,010125,,M,,M,1,22,1.5,,M*0F
$GNGMP,131627.00,,,,,DAAA,22,0.6,,,,*50
$GPGMP,131627.00,,,,,,05,,,,2.8,123*72
$GLGMP,131627.00,,,,,,05,,,,,*7A
$GAGMP,131627.00,,,,,,06,,,,,*74
$GBGMP,131627.00,,,,,,06,,,,,*77
$PSSN,SNC,[0,307005000,2347]*45
$GPZDA,131632.00,01,01,2025,,*67
$GPDTM,W84,,00.0000000,N,00.0000000,E,00.0000000,W84*5F
$GPRMC,131632.00,A,4742.4453207,N,01617.9731633,E,0.0,,010125,5.1,E,D*14
$GPGLL,4742.4453207,N,01617.9731633,E,131632.00,A,D*65
$GPGGA,131632.00,4742.4453207,N,01617.9731633,E,2,21,0.6,626.8342,M,43.2111,M,3.0,0123*45
$GNGNS,131632.00,4742.4453207,N,01617.9731633,E,DAAA,21,0.6,626.8342,43.2111,,*5A
$GPGNS,131632.00,,,,,,05,,,,3.0,123*7F
$GLGNS,131632.00,,,,,,04,,,,,*7F
$GAGNS,131632.00,,,,,,06,,,,,*70
$GBGNS,131632.00,,,,,,06,,,,,*73
$GPLLQ,131632.00,010125,,M,,M,1,21,3.492,,M*1A
$GPVTG,,T,,M,0.00,N,0.00,K,D*26
$GPHDT,,T*1B
$GPTHS,,V*0E
$GPROT,,V*08
$PSSN,HRP,131632.00,010125,,,,,,,00,0,,*65
