$GPZDA,141442.00,01,01,2025,,*65
$GPDTM,W84,,00.0000000,N,00.0000000,E,00.0000000,W84*5F
$GPRMC,141442.00,A,4742.4456387,N,01617.9736210,E,0.0,,010125,5.1,E,D*18
$GPGLL,4742.4456387,N,01617.9736210,E,141442.00,A,D*69
$GPGGA,141442.00,4742.4456387,N,01617.9736210,E,2,19,0.9,626.5405,M,43.2110,M,2.3,0123*47
$GNGNS,141442.00,4742.4456387,N,01617.9736210,E,DAAA,19,0.9,626.5405,43.2110,,*5A
$GPGNS,141442.00,,,,,,06,,,,2.3,123*7C
$GLGNS,141442.00,,,,,,04,,,,,*7D
$GAGNS,141442.00,,,,,,04,,,,,*70
$GBGNS,141442.00,,,,,,05,,,,,*72
$GPLLQ,141442.00,010125,,M,,M,1,19,2.032,,M*1C
$GPVTG,,T,,M,0.01,N,0.02,K,D*25
$GPHDT,,T*1B
$GPTHS,,V*0E
$GPROT,,V*08
$PSSN,HRP,141442.00,010125,,,,,,,00,0,,*67
$PTNL,AVR,141442.00,,Yaw,,Tilt,,,,0,,00*31
$GPGSA,A,3,11,12,25,28,29,31,,,,,,,1.3,0.9,1.0*3F
$GPGSA,A,3,78,79,87,88,,,,,,,,,1.3,0.9,1.0*36
$GPGSA,A,3,27,29,30,34,,,,,,,,,1.3,0.9,1.0*32
$GPGSA,A,3,05,12,23,24,25,,,,,,,,1.3,0.9,1.0*3E
$GPGST,141442.00,1.419,0.913,0.553,357.916,0.913,0.553,1.729*5E
$GPGBS,141442.00,8.796,3.953,13.807,11,0.0001,-0.917,1.108*43
$GPGRS,141442.00,1,-0.9,0.1,0.1,0.4,0.4,1.7,,,,,,*6A
$GPGRS,141442.00,1,-0.5,1.0,-1.3,0.9,,,,,,,,*47
$GPGRS,141442.00,1,2.0,-1.6,-0.5,-0.1,,,,,,,,*64
$GPGRS,141442.00,1,0.6,0.8,-1.6,-1.9,-1.5,,,,,,,*4E
$GPGSV,4,1,14,25,75,312,47,06,22,043,29,24,20,157,26,32,26,263,28*7E
$GPGSV,4,2,14,28,32,309,41,29,45,220,43,11,39,082,42,12,57,080,48*70
$GPGSV,4,3,14,31,07,316,40,20,01,101,,36,35,170,35,34,31,208,35*77
$GPGSV,4,4,14,49,34,195,36,61,03,257,*7A
$GLGSV,3,1,09,78,75,014,45,69,19,291,,81,15,187,22,77,29,109,31*68
$GLGSV,3,2,09,87,40,040,35,79,29,309,46,88,60,146,52,68,05,245,27*66
$GLGSV,3,3,09,70,09,352,*56
$GAGSV,3,1,10,30,74,058,50,19,13,327,35,15,16,162,22,02,23,089,27*68
$GAGSV,3,2,10,07,22,225,34,29,30,283,35,36,27,048,29,34,40,111,41*6A
$GAGSV,3,3,10,18,37,063,,27,46,285,42*6F
$GBGSV,6,1,21,12,65,140,48,43,20,226,,26,10,124,,35,20,045,34*65
$GBGSV,6,2,21,38,10,074,,05,20,130,35,11,28,201,,10,17,065,33*6B
$GBGSV,6,3,21,56,24,054,,34,46,186,35,24,60,125,37,25,60,299,47*67
$GBGSV,6,4,21,44,60,081,33,07,04,064,,08,07,087,,13,06,095,*6C
$GBGSV,6,5,21,41,03,269,30,02,05,108,,32,06,318,32,23,09,302,36*6D
$GBGSV,6,6,21,60,09,110,*57
$GPGGA,141442.00,,,,,0,00,,,M,,M,,*4E
$PTNL,GGK,141442.00,010125,4742.4456387,N,01617.9736210,E,1,19,1.3,EHT669.7516,M*49
$GPGGQ,141442.00,010125,4742.4456387,N,01617.9736210,E,1,19,2.032,626.5405,M*3C
$GPGFA,141442.00,8.685,14.175,0.913,0.553,357.916,1.729,,VVV*3A
$GPLLK,141442.00,010125,,M,,M,1,19,1.5,,M*01
$GNGMP,141442.00,,,,,DAAA,19,0.9,,,,*51
$GPGMP,141442.00,,,,,,06,,,,2.3,123*7C
$GLGMP,141442.00,,,,,,04,,,,,*7D
$GAGMP,141442.00,,,,,,04,,,,,*70
$GBGMP,141442.00,,,,,,05,,,,,*72
$PSSN,SNC,[0,310500000,2347]*43
$GPZDA,141447.00,01,01,2025,,*60
$GPDTM,W84,,00.0000000,N,00.0000000,E,00.0000000,W84*5F
$GPRMC,141447.00,A,4742.4456413,N,01617.9736292,E,0.0,,010125,5.1,E,D*1D
$GPGLL,4742.4456413,N,01617.9736292,E,141447.00,A,D*6C
$GPGGA,141447.00,4742.4456413,N,01617.9736292,E,2,17,0.9,626.5471,M,43.2110,M,2.0,0123*4C
$GNGNS,141447.00,4742.4456413,N,01617.9736292,E,DAAA,17,0.9,626.5471,43.2110,,*52
$GPGNS,141447.00,,,,,,06,,,,2.0,123*7A
$GLGNS,141447.00,,,,,,03,,,,,*7F
$GAGNS,141447.00,,,,,,04,,,,,*75
$GBGNS,141447.00,,,,,,04,,,,,*76
$GPLLQ,141447.00,010125,,M,,M,1,17,2.052,,M*11
$GPVTG,,T,,M,0.01,N,0.01,K,D*26
$GPHDT,,T*1B
$GPTHS,,V*0E
$GPROT,,V*08
$PSSN,HRP,141447.00,010125,,,,,,,00,0,,*62
$PTNL,AVR,141447.00,,Yaw,,Tilt,,,,0,,00*34
$GPGSA,A,3,11,12,25,28,29,31,,,,,,,1.6,0.9,1.3*39
$GPGSA,A,3,78,79,88,,,,,,,,,,1.6,0.9,1.3*3F
$GPGSA,A,3,27,29,30,34,,,,,,,,,1.6,0.9,1.3*34
$GPGSA,A,3,12,24,25,34,,,,,,,,,1.6,0.9,1.3*3B
$GPGST,141447.00,1.954,0.915,0.556,357.541,0.915,0.557,1.751*5F
$GPGBS,141447.00,8.647,4.076,14.485,28,0.0001,0.804,1.259*60
$GPGRS,141447.00,1,-0.4,-0.4,0.1,0.8,0.5,-0.3,,,,,,*6F
$GPGRS,141447.00,1,-0.3,0.8,1.6,,,,,,,,,*42
$GPGRS,141447.00,1,1.4,-1.8,-0.7,-0.2,,,,,,,,*69
$GPGRS,141447.00,1,0.1,-1.5,-1.6,-4.8,,,,,,,,*6E
$GPGSV,4,1,14,25,75,312,47,06,22,043,33,24,20,157,26,32,26,263,39*75
$GPGSV,4,2,14,28,32,309,42,29,46,220,44,11,39,082,40,12,57,080,48*75
$GPGSV,4,3,14,31,07,316,40,20,01,101,,36,35,170,36,34,31,208,36*77
$GPGSV,4,4,14,49,34,195,36,61,03,257,*7A
$GLGSV,3,1,09,78,75,014,44,69,19,290,,81,15,187,,77,29,109,31*68
$GLGSV,3,2,09,87,40,040,34,79,29,309,46,88,60,146,52,68,04,245,29*68
$GLGSV,3,3,09,70,09,352,*56
$GAGSV,3,1,10,30,74,058,49,19,13,327,34,15,16,162,20,02,23,089,26*62
$GAGSV,3,2,10,07,22,225,34,29,30,283,36,36,27,048,31,34,40,111,41*60
$GAGSV,3,3,10,18,37,063,,27,46,285,42*6F
$GBGSV,6,1,21,12,65,140,47,43,20,226,,26,10,124,,35,20,045,35*6B
$GBGSV,6,2,21,38,10,074,,05,20,130,35,11,28,201,,10,17,065,33*6B
$GBGSV,6,3,21,56,24,054,,34,46,186,36,24,60,125,38,25,60,299,46*6A
$GBGSV,6,4,21,44,60,081,35,07,04,064,,08,07,087,,13,06,095,*6A
$GBGSV,6,5,21,41,03,269,28,02,05,108,,32,06,318,32,23,10,302,25*6E
$GBGSV,6,6,21,60,09,110,*57
$GPGGA,141447.00,,,,,0,00,,,M,,M,,*4B
$PTNL,GGK,141447.00,010125,4742.4456413,N,01617.9736292,E,1,17,1.6,EHT669.7582,M*4A
$GPGGQ,141447.00,010125,4742.4456413,N,01617.9736292,E,1,17,2.052,626.5471,M*32
$GPGFA,141447.00,8.704,14.355,0.915,0.556,357.541,1.751,,VVV*35
$GPLLK,141447.00,010125,,M,,M,1,17,1.9,,M*06
$GNGMP,141447.00,,,,,DAAA,17,0.9,,,,*5A
$GPGMP,141447.00,,,,,,06,,,,2.0,123*7A
$GLGMP,141447.00,,,,,,03,,,,,*7F
$GAGMP,141447.00,,,,,,04,,,,,*75
$GBGMP,141447.00,,,,,,04,,,,,*76
$PSSN,SNC,[0,310505000,2347]*46
$GPZDA,141452.00,01,01,2025,,*64
$GPDTM,W84,,00.0000000,N,00.0000000,E,00.0000000,W84*5F
$GPRMC,141452.00,A,4742.4456415,N,01617.9736367,E,0.0,,010125,5.1,E,D*14
$GPGLL,4742.4456415,N,01617.9736367,E,141452.00,A,D*65
$GPGGA,141452.00,4742.4456415,N,01617.9736367,E,2,21,0.7,626.5444,M,43.2110,M,2.9,0123*41
$GNGNS,141452.00,4742.4456415,N,01617.9736367,E,DAAA,21,0.7,626.5444,43.2110,,*56
$GPGNS,141452.00,,,,,,07,,,,2.9,123*76
$GLGNS,141452.00,,,,,,04,,,,,*7C
$GAGNS,141452.00,,,,,,04,,,,,*71
$GBGNS,141452.00,,,,,,06,,,,,*70
$GPLLQ,141452.00,010125,,M,,M,1,21,2.062,,M*13
$GPVTG,,T,,M,0.00,N,0.01,K,D*27
$GPHDT,,T*1B
$GPTHS,,V*0E
$GPROT,,V*08
$PSSN,HRP,141452.00,010125,,,,,,,00,0,,*66
$PTNL,AVR,141452.00,,Yaw,,Tilt,,,,0,,00*30
$GPGSA,A,3,11,12,25,28,29,31,32,,,,,,1.3,0.7,1.1*31
$GPGSA,A,3,78,79,87,88,,,,,,,,,1.3,0.7,1.1*39
$GPGSA,A,3,27,29,30,34,,,,,,,,,1.3,0.7,1.1*3D
$GPGSA,A,3,05,12,24,25,34,44,,,,,,,1.3,0.7,1.1*37
$GPGST,141452.00,2.334,0.978,0.572,353.647,0.974,0.579,1.723*56
$GPGBS,141452.00,7.739,4.132,13.246,32,0.0001,1.969,1.400*66
$GPGRS,141452.00,1,-0.1,-0.9,0.0,0.3,0.8,-1.9,2.0,,,,,*43
$GPGRS,141452.00,1,-0.4,0.9,-4.8,1.0,,,,,,,,*49
$GPGRS,141452.00,1,0.4,-2.5,-0.9,-0.2,,,,,,,,*6C
$GPGRS,141452.00,1,0.4,-0.6,-1.1,-1.6,-2.2,-5.0,,,,,,*64
$GPGSV,4,1,14,25,75,312,47,06,22,043,34,24,20,157,26,32,26,263,39*72
$GPGSV,4,2,14,28,32,309,43,29,46,220,44,11,39,082,40,12,57,080,47*7B
$GPGSV,4,3,14,31,07,316,39,20,01,101,,36,35,170,36,34,31,208,35*7A
$GPGSV,4,4,14,49,34,195,36,61,03,257,*7A
$GLGSV,3,1,09,78,75,014,44,69,19,290,35,81,15,187,,77,29,109,32*6D
$GLGSV,3,2,09,87,40,040,36,79,29,309,44,88,60,146,51,68,04,245,29*6B
$GLGSV,3,3,09,70,09,352,*56
$GAGSV,3,1,10,30,74,058,49,19,13,327,35,15,16,162,20,02,23,089,27*62
$GAGSV,3,2,10,07,22,225,25,29,30,283,38,36,27,048,33,34,40,111,41*6C
$GAGSV,3,3,10,18,37,063,,27,46,285,42*6F
$GBGSV,6,1,21,12,65,140,47,43,20,226,,26,10,124,,35,20,045,35*6B
$GBGSV,6,2,21,38,10,074,,05,20,130,35,11,28,201,,10,17,065,33*6B
$GBGSV,6,3,21,56,24,054,,34,46,186,39,24,60,125,40,25,61,299,45*68
$GBGSV,6,4,21,44,60,081,37,07,04,064,,08,07,087,,13,06,095,*68
$GBGSV,6,5,21,41,03,269,26,02,05,108,,32,06,318,33,23,10,302,24*60
$GBGSV,6,6,21,60,09,110,*57
$GPGGA,141452.00,,,,,0,00,,,M,,M,,*4F
$PTNL,GGK,141452.00,010125,4742.4456415,N,01617.9736367,E,1,21,1.3,EHT669.7554,M*48
$GPGGQ,141452.00,010125,4742.4456415,N,01617.9736367,E,1,21,2.062,626.5444,M*3B
$GPGFA,141452.00,9.300,14.127,0.978,0.572,353.647,1.723,,VVV*3E
$GPLLK,141452.00,010125,,M,,M,1,21,1.5,,M*0B
$GNGMP,141452.00,,,,,DAAA,21,0.7,,,,*55
$GPGMP,141452.00,,,,,,07,,,,2.9,123*76
$GLGMP,141452.00,,,,,,04,,,,,*7C
$GAGMP,141452.00,,,,,,04,,,,,*71
$GBGMP,141452.00,,,,,,06,,,,,*70
$PSSN,SNC,[0,310510000,2347]*42
$GPZDA,141457.00,01,01,2025,,*61
$GPDTM,W84,,00.0000000,N,00.0000000,E,00.0000000,W84*5F
$GPRMC,141457.00,A,4742.4456476,N,01617.9736462,E,0.0,,010125,5.1,E,D*16
$GPGLL,4742.4456476,N,01617.9736462,E,141457.00,A,D*67
$GPGGA,141457.00,4742.4456476,N,01617.9736462,E,2,21,0.7,626.5436,M,43.2110,M,2.7,0123*48
$GNGNS,141457.00,4742.4456476,N,01617.9736462,E,DAAA,21,0.7,626.5436,43.2110,,*51
$GPGNS,141457.00,,,,,,06,,,,2.7,123*7C
$GLGNS,141457.00,,,,,,04,,,,,*79
$GAGNS,141457.00,,,,,,06,,,,,*76
$GBGNS,141457.00,,,,,,05,,,,,*76
$GPLLQ,141457.00,010125,,M,,M,1,21,2.457,,M*14
$GPVTG,,T,,M,0.01,N,0.02,K,D*25
$GPHDT,,T*1B
$GPTHS,,V*0E
$GPROT,,V*08
$PSSN,HRP,141457.00,010125,,,,,,,00,0,,*63
$PTNL,AVR,141457.00,,Yaw,,Tilt,,,,0,,00*35
$GPGSA,A,3,11,12,25,28,29,31,,,,,,,1.4,0.7,1.1*37
$GPGSA,A,3,78,79,87,88,,,,,,,,,1.4,0.7,1.1*3E
$GPGSA,A,3,07,19,27,29,30,34,,,,,,,1.4,0.7,1.1*35
$GPGSA,A,3,12,24,25,34,44,,,,,,,,1.4,0.7,1.1*35
$GPGST,141457.00,3.174,1.080,0.675,356.045,1.079,0.678,2.101*5C
$GPGBS,141457.00,8.328,3.989,14.178,12,0.0001,-1.278,0.863*42
$GPGRS,141457.00,1,0.4,-1.3,0.4,0.3,0.9,-2.3,,,,,,*45
$GPGRS,141457.00,1,0.3,1.1,-4.8,1.3,,,,,,,,*6C
$GPGRS,141457.00,1,6.0,-4.3,0.4,-2.9,-0.5,0.0,,,,,,*6A
$GPGRS,141457.00,1,0.1,-0.5,-0.9,-1.4,-6.4,,,,,,,*68
$GPGSV,4,1,14,25,75,312,47,06,22,043,33,24,20,157,26,32,26,263,40*7B
$GPGSV,4,2,14,28,32,309,43,29,46,220,45,11,39,082,40,12,57,080,46*7B
$GPGSV,4,3,14,31,07,316,38,20,01,101,,36,35,170,36,34,31,208,36*78
$GPGSV,4,4,14,49,34,195,37,61,03,257,*7B
$GLGSV,3,1,09,78,75,014,45,69,19,290,26,81,15,187,,77,29,109,34*68
$GLGSV,3,2,09,87,40,040,37,79,29,309,44,88,60,146,50,68,04,245,28*6A
$GLGSV,3,3,09,70,09,352,*56
$GAGSV,3,1,10,30,74,058,50,19,13,327,35,15,16,162,,02,23,089,22*6D
$GAGSV,3,2,10,07,22,225,24,29,30,283,39,36,27,048,34,34,40,111,42*68
$GAGSV,3,3,10,18,36,063,,27,46,285,42*6E
$GBGSV,6,1,21,12,65,140,47,43,20,226,,26,10,124,,35,20,045,35*6B
$GBGSV,6,2,21,38,10,074,,05,20,130,35,11,28,201,,10,17,066,32*69
$GBGSV,6,3,21,56,24,054,,34,46,186,41,24,60,125,39,25,61,299,44*68
$GBGSV,6,4,21,44,60,081,38,07,04,064,,08,07,087,,13,06,095,*67
$GBGSV,6,5,21,41,03,269,,02,05,108,,32,06,318,34,23,10,302,37*61
$GBGSV,6,6,21,60,09,110,*57
$GPGGA,141457.00,,,,,0,00,,,M,,M,,*4A
$PTNL,GGK,141457.00,010125,4742.4456476,N,01617.9736462,E,1,21,1.4,EHT669.7546,M*4E
$GPGGQ,141457.00,010125,4742.4456476,N,01617.9736462,E,1,21,2.457,626.5436,M*3E
$GPGFA,141457.00,10.271,17.225,1.080,0.675,356.045,2.101,,VVV*09
$GPLLK,141457.00,010125,,M,,M,1,21,1.6,,M*0D
$GNGMP,141457.00,,,,,DAAA,21,0.7,,,,*50
$GPGMP,141457.00,,,,,,06,,,,2.7,123*7C
$GLGMP,141457.00,,,,,,04,,,,,*79
$GAGMP,141457.00,,,,,,06,,,,,*76
$GBGMP,141457.00,,,,,,05,,,,,*76
$PSSN,SNC,[0,310515000,2347]*47
$GPZDA,141502.00,01,01,2025,,*60
$GPDTM,W84,,00.0000000,N,00.0000000,E,00.0000000,W84*5F
$GPRMC,141502.00,A,4742.4456505,N,01617.9736510,E,0.0,,010125,5.1,E,D*16
$GPGLL,4742.4456505,N,01617.9736510,E,141502.00,A,D*67
$GPGGA,141502.00,4742.4456505,N,01617.9736510,E,2,23,0.7,626.5411,M,43.2110,M,2.3,0123*4B
$GNGNS,141502.00,4742.4456505,N,01617.9736510,E,DAAA,23,0.7,626.5411,43.2110,,*56
$GPGNS,141502.00,,,,,,06,,,,2.3,123*79
$GLGNS,141502.00,,,,,,05,,,,,*79
$GAGNS,141502.00,,,,,,06,,,,,*77
$GBGNS,141502.00,,,,,,06,,,,,*74
$GPLLQ,141502.00,010125,,M,,M,1,23,2.060,,M*17
$GPVTG,,T,,M,0.01,N,0.02,K,D*25
$GPHDT,,T*1B
$GPTHS,,V*0E
$GPROT,,V*08
$PSSN,HRP,141502.00,010125,,,,,,,00,0,,*62
$PTNL,AVR,141502.00,,Yaw,,Tilt,,,,0,,00*34
$GPGSA,A,3,11,12,25,28,29,31,,,,,,,1.2,0.7,1.0*30
$GPGSA,A,3,77,78,79,87,88,,,,,,,,1.2,0.7,1.0*39
$GPGSA,A,3,19,27,29,30,34,36,,,,,,,1.2,0.7,1.0*30
$GPGSA,A,3,05,12,24,25,34,44,,,,,,,1.2,0.7,1.0*37
$GPGST,141502.00,2.289,0.926,0.561,358.043,0.926,0.562,1.753*5F
$GPGBS,141502.00,8.531,3.823,13.426,12,0.0001,-1.135,0.875*48
$GPGRS,141502.00,1,0.5,-1.1,0.4,-0.4,0.6,-1.4,,,,,,*66
$GPGRS,141502.00,1,-1.9,0.4,2.7,-4.0,1.6,,,,,,,*69
$GPGRS,141502.00,1,-3.6,1.4,-2.3,-0.2,0.5,-1.0,,,,,,*4A
$GPGRS,141502.00,1,0.3,1.1,-1.5,-0.5,-0.9,-4.9,,,,,,*4B
$GPGSV,4,1,14,25,75,312,48,06,22,043,33,24,20,157,26,32,26,263,41*75
$GPGSV,4,2,14,28,33,309,44,29,46,220,44,11,39,082,39,12,57,080,46*72
$GPGSV,4,3,14,31,07,316,36,20,01,101,,36,35,170,35,34,31,208,35*76
$GPGSV,4,4,14,49,34,195,36,61,03,257,*7A
$GLGSV,3,1,09,78,75,014,45,69,19,290,32,81,15,187,,77,29,109,37*6E
$GLGSV,3,2,09,87,40,040,38,79,29,309,45,88,60,146,50,68,04,245,29*65
$GLGSV,3,3,09,70,09,352,*56
$GAGSV,3,1,10,30,74,059,50,19,13,327,35,15,16,162,,02,23,089,27*69
$GAGSV,3,2,10,07,22,225,24,29,30,283,41,36,27,048,35,34,41,111,42*67
$GAGSV,3,3,10,18,36,063,,27,46,285,43*6F
$GBGSV,6,1,21,12,65,140,47,43,20,226,,26,10,124,,35,20,045,35*6B
$GBGSV,6,2,21,38,11,074,,05,20,130,35,11,28,201,,10,17,066,32*68
$GBGSV,6,3,21,56,24,054,,34,46,186,42,24,60,125,38,25,61,299,44*6A
$GBGSV,6,4,21,44,60,081,39,07,04,064,,08,07,087,,13,06,095,*66
$GBGSV,6,5,21,41,03,269,23,02,05,108,,32,06,318,35,23,10,302,31*67
$GBGSV,6,6,21,60,09,110,*57
$GPGGA,141502.00,,,,,0,00,,,M,,M,,*4B
$PTNL,GGK,141502.00,010125,4742.4456505,N,01617.9736510,E,1,23,1.2,EHT669.7521,M*4B
$GPGGQ,141502.00,010125,4742.4456505,N,01617.9736510,E,1,23,2.060,626.5411,M*39
$GPGFA,141502.00,8.807,14.373,0.926,0.561,358.043,1.753,,VVV*33
$GPLLK,141502.00,010125,,M,,M,1,23,1.4,,M*0C
$GNGMP,141502.00,,,,,DAAA,23,0.7,,,,*53
$GPGMP,141502.00,,,,,,06,,,,2.3,123*79
$GLGMP,141502.00,,,,,,05,,,,,*79
$GAGMP,141502.00,,,,,,06,,,,,*77
$GBGMP,141502.00,,,,,,06,,,,,*74
$PSSN,SNC,[0,310520000,2347]*41
$GPZDA,141507.00,01,01,2025,,*65
$GPDTM,W84,,00.0000000,N,00.0000000,E,00.0000000,W84*5F
$GPRMC,141507.00,A,4742.4456549,N,01617.9736571,E,0.0,,010125,5.1,E,D*1C
$GPGLL,4742.4456549,N,01617.9736571,E,141507.00,A,D*6D
$GPGGA,141507.00,4742.4456549,N,01617.9736571,E,2,25,0.6,626.5280,M,43.2110,M,3.0,0123*4A
$GNGNS,141507.00,4742.4456549,N,01617.9736571,E,DAAA,25,0.6,626.5280,43.2110,,*55
$GPGNS,141507.00,,,,,,05,,,,3.0,123*7D
$GLGNS,141507.00,,,,,,06,,,,,*7F
$GAGNS,141507.00,,,,,,07,,,,,*73
$GBGNS,141507.00,,,,,,07,,,,,*70
$GPLLQ,141507.00,010125,,M,,M,1,25,2.594,,M*1A
$GPVTG,,T,,M,0.00,N,0.00,K,D*26
$GPHDT,,T*1B
$GPTHS,,V*0E
$GPROT,,V*08
$PSSN,HRP,141507.00,010125,,,,,,,00,0,,*67
$PTNL,AVR,141507.00,,Yaw,,Tilt,,,,0,,00*31
$GPGSA,A,3,11,12,25,28,29,,,,,,,,1.1,0.6,0.9*38
$GPGSA,A,3,69,77,78,79,87,88,,,,,,,1.1,0.6,0.9*3C
$GPGSA,A,3,07,19,27,29,30,34,36,,,,,,1.1,0.6,0.9*3D
$GPGSA,A,3,05,12,24,25,32,34,44,,,,,,1.1,0.6,0.9*3C
$GPGST,141507.00,3.269,1.099,0.665,356.108,1.097,0.668,2.254*54
$GPGBS,141507.00,7.937,3.789,14.446,12,0.0001,-1.249,0.902*4F
$GPGRS,141507.00,1,0.2,-1.2,0.8,-0.6,0.7,,,,,,,*6E
$GPGRS,141507.00,1,7.6,-2.9,0.7,4.0,-0.1,1.6,,,,,,*47
$GPGRS,141507.00,1,5.9,-4.0,2.3,-1.0,-0.2,0.3,1.5,,,,,*46
$GPGRS,141507.00,1,0.7,1.0,-3.2,-0.1,0.7,-1.8,-5.4,,,,,*6F
$GPGSV,4,1,14,25,75,312,49,06,22,043,35,24,20,157,,32,26,263,41*76
$GPGSV,4,2,14,28,33,309,43,29,46,220,43,11,39,082,39,12,56,080,46*73
$GPGSV,4,3,14,31,07,316,34,20,01,101,,36,35,170,35,34,31,208,35*74
$GPGSV,4,4,14,49,34,195,36,61,03,257,*7A
$GLGSV,3,1,09,78,75,015,46,69,19,290,39,81,15,187,29,77,29,109,37*6C
$GLGSV,3,2,09,87,40,040,40,79,29,309,47,88,60,146,50,68,04,245,29*68
$GLGSV,3,3,09,70,09,352,*56
$GAGSV,3,1,10,30,74,059,50,19,13,327,36,15,16,162,,02,23,089,32*6E
$GAGSV,3,2,10,07,22,224,25,29,30,283,41,36,27,048,36,34,41,111,42*64
$GAGSV,3,3,10,18,36,063,,27,46,285,43*6F
$GBGSV,6,1,21,12,65,140,47,43,20,226,,26,10,124,,35,19,045,34*60
$GBGSV,6,2,21,38,11,074,,05,20,130,35,11,28,201,,10,17,066,31*6B
$GBGSV,6,3,21,56,24,054,,34,46,186,42,24,60,125,36,25,61,299,44*64
$GBGSV,6,4,21,44,60,081,39,07,04,064,,08,07,087,,13,06,095,*66
$GBGSV,6,5,21,41,02,269,25,02,05,108,,32,06,318,35,23,10,302,34*65
$GBGSV,6,6,21,60,09,110,*57
$GPGGA,141507.00,,,,,0,00,,,M,,M,,*4E
$PTNL,GGK,141507.00,010125,4742.4456549,N,01617.9736571,E,1,25,1.1,EHT669.7390,M*48
$GPGGQ,141507.00,010125,4742.4456549,N,01617.9736571,E,1,25,2.594,626.5280,M*35
$GPGFA,141507.00,10.448,18.479,1.099,0.665,356.108,2.254,,VVV*03
$GPLLK,141507.00,010125,,M,,M,1,25,1.2,,M*09
$GNGMP,141507.00,,,,,DAAA,25,0.6,,,,*51
$GPGMP,141507.00,,,,,,05,,,,3.0,123*7D
$GLGMP,141507.00,,,,,,06,,,,,*7F
$GAGMP,141507.00,,,,,,07,,,,,*73
$GBGMP,141507.00,,,,,,07,,,,,*70
$PSSN,SNC,[0,310525000,2347]*44
$GPZDA,141512.00,01,01,2025,,*61
$GPDTM,W84,,00.0000000,N,00.0000000,E,00.0000000,W84*5F
$GPRMC,141512.00,A,4742.4456566,N,01617.9736634,E,0.0,,010125,5.1,E,D*17
$GPGLL,4742.4456566,N,01617.9736634,E,141512.00,A,D*66
$GPGGA,141512.00,4742.4456566,N,01617.9736634,E,2,24,0.7,626.5307,M,43.2110,M,2.4,0123*4A
$GNGNS,141512.00,4742.4456566,N,01617.9736634,E,DAAA,24,0.7,626.5307,43.2110,,*50
$GPGNS,141512.00,,,,,,05,,,,2.4,123*7C
$GLGNS,141512.00,,,,,,06,,,,,*7B
$GAGNS,141512.00,,,,,,06,,,,,*76
$GBGNS,141512.00,,,,,,07,,,,,*74
$GPLLQ,141512.00,010125,,M,,M,1,24,2.502,,M*10
$GPVTG,,T,,M,0.01,N,0.02,K,D*25
$GPHDT,,T*1B
$GPTHS,,V*0E
$GPROT,,V*08
$PSSN,HRP,141512.00,010125,,,,,,,00,0,,*63
$PTNL,AVR,141512.00,,Yaw,,Tilt,,,,0,,00*35
$GPGSA,A,3,11,12,25,28,29,,,,,,,,1.1,0.7,0.9*39
$GPGSA,A,3,69,77,78,79,87,88,,,,,,,1.1,0.7,0.9*3D
$GPGSA,A,3,19,27,29,30,34,36,,,,,,,1.1,0.7,0.9*3B
$GPGSA,A,3,05,12,23,25,32,34,44,,,,,,1.1,0.7,0.9*3A
$GPGST,141512.00,3.648,1.066,0.646,356.438,1.065,0.649,2.170*5B
$GPGBS,141512.00,8.309,3.681,14.478,87,0.0001,7.273,6.345*66
$GPGRS,141512.00,1,-0.1,-0.8,0.6,-0.9,0.3,,,,,,,*4A
$GPGRS,141512.00,1,7.3,-4.6,1.1,5.2,7.3,1.3,,,,,,*66
$GPGRS,141512.00,1,-4.4,2.3,0.9,-0.4,-0.2,3.0,,,,,,*6C
$GPGRS,141512.00,1,1.3,0.2,-0.6,-0.3,-1.1,-2.4,-4.8,,,,,*40
$GPGSV,4,1,14,25,75,312,49,06,22,043,34,24,20,157,22,32,26,263,37*76
$GPGSV,4,2,14,28,33,309,42,29,46,220,42,11,39,082,41,12,56,080,47*7D
$GPGSV,4,3,14,31,07,316,31,20,01,101,,36,35,170,36,34,31,208,35*72
$GPGSV,4,4,14,49,34,195,36,61,03,257,*7A
$GLGSV,3,1,09,78,75,015,46,69,19,290,37,81,15,187,32,77,29,109,38*67
$GLGSV,3,2,09,87,40,040,40,79,29,309,48,88,60,146,51,68,04,245,27*68
$GLGSV,3,3,09,70,09,352,*56
$GAGSV,3,1,10,30,74,059,50,19,13,327,35,15,16,162,,02,23,089,27*69
$GAGSV,3,2,10,07,22,224,24,29,30,283,41,36,27,048,35,34,41,111,41*65
$GAGSV,3,3,10,18,36,063,,27,46,285,43*6F
$GBGSV,6,1,21,12,65,140,47,43,20,226,,26,10,124,,35,19,045,34*60
$GBGSV,6,2,21,38,11,074,,05,20,130,35,11,28,201,,10,17,066,31*6B
$GBGSV,6,3,21,56,24,054,,34,46,186,41,24,60,125,33,25,61,299,44*62
$GBGSV,6,4,21,44,60,081,40,07,04,064,,08,07,087,,13,06,095,*68
$GBGSV,6,5,21,41,02,269,27,02,05,108,,32,06,318,36,23,10,302,36*66
$GBGSV,6,6,21,60,09,110,*57
$GPGGA,141512.00,,,,,0,00,,,M,,M,,*4A
$PTNL,GGK,141512.00,010125,4742.4456566,N,01617.9736634,E,1,24,1.1,EHT669.7418,M*45
$GPGGQ,141512.00,010125,4742.4456566,N,01617.9736634,E,1,24,2.502,626.5307,M*3E
$GPGFA,141512.00,10.139,17.791,1.066,0.646,356.438,2.170,,VVV*0C
$GPLLK,141512.00,010125,,M,,M,1,24,1.3,,M*0D
$GNGMP,141512.00,,,,,DAAA,24,0.7,,,,*55
$GPGMP,141512.00,,,,,,05,,,,2.4,123*7C
$GLGMP,141512.00,,,,,,06,,,,,*7B
$GAGMP,141512.00,,,,,,06,,,,,*76
$GBGMP,141512.00,,,,,,07,,,,,*74
$PSSN,SNC,[0,310530000,2347]*40
$GPZDA,141517.00,01,01,2025,,*64
$GPDTM,W84,,00.0000000,N,00.0000000,E,00.0000000,W84*5F
$GPRMC,141517.00,A,4742.4456586,N,01617.9736673,E,0.0,,010125,5.1,E,D*1F
$GPGLL,4742.4456586,N,01617.9736673,E,141517.00,A,D*6E
$GPGGA,141517.00,4742.4456586,N,01617.9736673,E,2,23,0.7,626.5253,M,43.2110,M,1.8,0123*4A
$GNGNS,141517.00,4742.4456586,N,01617.9736673,E,DAAA,23,0.7,626.5253,43.2110,,*5F
$GPGNS,141517.00,,,,,,05,,,,1.8,123*76
$GLGNS,141517.00,,,,,,06,,,,,*7E
$GAGNS,141517.00,,,,,,05,,,,,*70
$GBGNS,141517.00,,,,,,07,,,,,*71
$GPLLQ,141517.00,010125,,M,,M,1,23,2.733,,M*12
$GPVTG,,T,,M,0.01,N,0.01,K,D*26
$GPHDT,,T*1B
$GPTHS,,V*0E
$GPROT,,V*08
$PSSN,HRP,141517.00,010125,,,,,,,00,0,,*66
$PTNL,AVR,141517.00,,Yaw,,Tilt,,,,0,,00*30
$GPGSA,A,3,11,12,25,28,29,,,,,,,,1.1,0.7,0.9*39
$GPGSA,A,3,69,77,78,79,87,88,,,,,,,1.1,0.7,0.9*3D
$GPGSA,A,3,27,29,30,34,36,,,,,,,,1.1,0.7,0.9*33
$GPGSA,A,3,05,12,23,25,32,34,44,,,,,,1.1,0.7,0.9*3A
$GPGST,141517.00,3.742,1.171,0.697,356.668,1.170,0.700,2.369*5A
$GPGBS,141517.00,8.429,3.681,14.430,69,0.0001,7.647,6.770*6B
$GPGRS,141517.00,1,-0.1,-0.9,-0.1,-0.7,1.1,,,,,,,*69
$GPGRS,141517.00,1,7.6,-5.9,0.9,5.4,6.6,0.9,,,,,,*68
$GPGRS,141517.00,1,2.5,0.9,-0.4,-0.1,3.7,,,,,,,*68
$GPGRS,141517.00,1,1.4,0.3,-2.8,-0.4,0.7,-2.7,-3.9,,,,,*67
$GPGSV,4,1,14,25,75,312,49,06,22,043,32,24,20,157,,32,26,263,32*75
$GPGSV,4,2,14,28,33,309,42,29,46,220,42,11,39,082,42,12,56,080,48*71
$GPGSV,4,3,14,31,07,316,28,20,01,101,,36,35,170,36,34,31,208,36*79
$GPGSV,4,4,14,49,34,195,36,61,03,257,*7A
$GLGSV,3,1,09,78,75,015,46,69,19,290,38,81,15,187,35,77,29,109,37*60
$GLGSV,3,2,09,87,39,040,39,79,29,309,48,88,60,146,52,68,04,245,25*69
$GLGSV,3,3,09,70,09,352,*56
$GAGSV,3,1,10,30,74,059,50,19,13,327,35,15,16,162,,02,23,089,29*67
$GAGSV,3,2,10,07,22,224,25,29,30,283,41,36,27,048,36,34,41,110,41*66
$GAGSV,3,3,10,18,36,063,,27,46,285,42*6E
$GBGSV,6,1,21,12,65,140,48,43,20,226,,26,10,124,,35,19,045,33*68
$GBGSV,6,2,21,38,11,074,,05,20,130,35,11,28,201,,10,17,066,30*6A
$GBGSV,6,3,21,56,24,054,,34,46,186,40,24,60,125,31,25,61,299,44*61
$GBGSV,6,4,21,44,60,081,41,07,04,064,,08,07,087,,13,06,095,*69
$GBGSV,6,5,21,41,02,269,30,02,05,108,,32,06,318,37,23,10,302,37*60
$GBGSV,6,6,21,60,09,110,*57
$GPGGA,141517.00,,,,,0,00,,,M,,M,,*4F
$PTNL,GGK,141517.00,010125,4742.4456586,N,01617.9736673,E,1,23,1.1,EHT669.7364,M*46
$GPGGQ,141517.00,010125,4742.4456586,N,01617.9736673,E,1,23,2.733,626.5253,M*31
$GPGFA,141517.00,11.137,19.426,1.171,0.697,356.668,2.369,,VVV*01
$GPLLK,141517.00,010125,,M,,M,1,23,1.3,,M*0F
$GNGMP,141517.00,,,,,DAAA,23,0.7,,,,*57
$GPGMP,141517.00,,,,,,05,,,,1.8,123*76
$GLGMP,141517.00,,,,,,06,,,,,*7E
$GAGMP,141517.00,,,,,,05,,,,,*70
$GBGMP,141517.00,,,,,,07,,,,,*71
$PSSN,SNC,[0,310535000,2347]*45
$GPZDA,141522.00,01,01,2025,,*62
$GPDTM,W84,,00.0000000,N,00.0000000,E,00.0000000,W84*5F
$GPRMC,141522.00,A,4742.4456660,N,01617.9736749,E,0.0,,010125,5.1,E,D*1A
$GPGLL,4742.4456660,N,01617.9736749,E,141522.00,A,D*6B
$GPGGA,141522.00,4742.4456660,N,01617.9736749,E,2,25,0.6,626.5196,M,43.2110,M,3.0,0123*48
$GNGNS,141522.00,4742.4456660,N,01617.9736749,E,DAAA,25,0.6,626.5196,43.2110,,*57
$GPGNS,141522.00,,,,,,06,,,,3.0,123*79
$GLGNS,141522.00,,,,,,07,,,,,*79
$GAGNS,141522.00,,,,,,05,,,,,*76
$GBGNS,141522.00,,,,,,07,,,,,*77
$GPLLQ,141522.00,010125,,M,,M,1,25,3.576,,M*10
$GPVTG,,T,,M,0.01,N,0.01,K,D*26
$GPHDT,,T*1B
$GPTHS,,V*0E
$GPROT,,V*08
$PSSN,HRP,141522.00,010125,,,,,,,00,0,,*60
$PTNL,AVR,141522.00,,Yaw,,Tilt,,,,0,,00*36
$GPGSA,A,3,11,12,25,28,29,32,,,,,,,1.0,0.6,0.8*39
$GPGSA,A,3,69,77,78,79,81,87,88,,,,,,1.0,0.6,0.8*35
$GPGSA,A,3,27,29,30,34,36,,,,,,,,1.0,0.6,0.8*32
$GPGSA,A,3,05,12,23,25,32,34,44,,,,,,1.0,0.6,0.8*3B
$GPGST,141522.00,6.752,1.595,0.948,355.028,1.591,0.955,3.057*50
$GPGBS,141522.00,7.444,3.877,12.919,69,0.0001,15.218,6.771*52
$GPGRS,141522.00,1,-0.9,-0.6,-0.0,-0.2,1.5,-2.1,,,,,,*68
$GPGRS,141522.00,1,15.2,-6.1,-0.2,4.7,10.9,1.2,1.4,,,,,*6F
$GPGRS,141522.00,1,1.9,-3.4,-0.2,0.2,4.0,,,,,,,*6A
$GPGRS,141522.00,1,1.0,1.3,18.4,-0.1,3.4,-2.0,-3.2,,,,,*77
$GPGSV,4,1,14,25,75,312,48,06,22,043,31,24,20,157,29,32,26,263,27*78
$GPGSV,4,2,14,28,33,309,41,29,46,220,42,11,39,082,43,12,56,080,47*7C
$GPGSV,4,3,14,31,08,316,29,20,01,101,,36,35,170,36,34,31,208,36*77
$GPGSV,4,4,14,49,34,195,37,61,03,257,*7B
$GLGSV,3,1,09,78,75,015,44,69,19,290,38,81,15,187,37,77,29,109,37*60
$GLGSV,3,2,09,79,29,309,47,87,39,040,39,88,61,146,52,68,04,245,24*66
$GLGSV,3,3,09,70,09,352,*56
$GAGSV,3,1,10,30,74,059,50,19,13,327,35,15,16,162,,02,22,089,20*6F
$GAGSV,3,2,10,07,22,224,32,29,30,283,40,36,27,048,35,34,41,110,41*62
$GAGSV,3,3,10,18,36,063,,27,46,285,41*6D
$GBGSV,6,1,21,12,65,140,48,43,20,226,,26,10,124,,35,19,045,33*68
$GBGSV,6,2,21,38,11,074,,05,20,130,35,11,28,201,,10,17,066,29*62
$GBGSV,6,3,21,56,24,054,,34,46,186,38,24,60,125,28,25,61,299,45*67
$GBGSV,6,4,21,44,60,081,41,07,04,064,,08,07,087,,13,06,095,*69
$GBGSV,6,5,21,41,02,269,32,02,05,108,,32,06,318,37,23,10,302,37*62
$GBGSV,6,6,21,60,09,110,*57
$GPGGA,141522.00,,,,,0,00,,,M,,M,,*49
$PTNL,GGK,141522.00,010125,4742.4456660,N,01617.9736749,E,1,25,1.0,EHT669.7307,M*41
$GPGGQ,141522.00,010125,4742.4456660,N,01617.9736749,E,1,25,3.576,626.5196,M*3A
$GPGFA,141522.00,15.161,25.068,1.595,0.948,355.028,3.057,,VVV*0C
$GPLLK,141522.00,010125,,M,,M,1,25,1.2,,M*0E
$GNGMP,141522.00,,,,,DAAA,25,0.6,,,,*56
$GPGMP,141522.00,,,,,,06,,,,3.0,123*79
$GLGMP,141522.00,,,,,,07,,,,,*79
$GAGMP,141522.00,,,,,,05,,,,,*76
$GBGMP,141522.00,,,,,,07,,,,,*77
$PSSN,SNC,[0,310540000,2347]*47
$GPZDA,141527.00,01,01,2025,,*67
$GPDTM,W84,,00.0000000,N,00.0000000,E,00.0000000,W84*5F
$GPRMC,141527.00,A,4742.4456689,N,01617.9736894,E,0.0,,010125,5.1,E,D*17
$GPGLL,4742.4456689,N,01617.9736894,E,141527.00,A,D*66
$GPGGA,141527.00,4742.4456689,N,01617.9736894,E,2,23,0.6,626.5323,M,43.2110,M,3.0,0123*4F
$GNGNS,141527.00,4742.4456689,N,01617.9736894,E,DAAA,23,0.6,626.5323,43.2110,,*50
$GPGNS,141527.00,,,,,,05,,,,3.0,123*7F
$GLGNS,141527.00,,,,,,06,,,,,*7D
$GAGNS,141527.00,,,,,,05,,,,,*73
$GBGNS,141527.00,,,,,,07,,,,,*72
$GPLLQ,141527.00,010125,,M,,M,1,23,3.584,,M*1E
$GPVTG,,T,,M,0.01,N,0.01,K,D*26
$GPHDT,,T*1B
$GPTHS,,V*0E
$GPROT,,V*08
$PSSN,HRP,141527.00,010125,,,,,,,00,0,,*65
$PTNL,AVR,141527.00,,Yaw,,Tilt,,,,0,,00*33
$GPGSA,A,3,11,12,25,28,29,,,,,,,,1.1,0.6,0.9*38
$GPGSA,A,3,77,78,79,81,87,88,,,,,,,1.1,0.6,0.9*3A
$GPGSA,A,3,27,29,30,34,36,,,,,,,,1.1,0.6,0.9*32
$GPGSA,A,3,05,12,23,25,32,34,44,,,,,,1.1,0.6,0.9*3B
$GPGST,141527.00,6.942,1.515,0.939,356.204,1.513,0.943,3.109*5C
$GPGBS,141527.00,7.816,3.779,14.286,23,0.0001,21.730,9.647*5B
$GPGRS,141527.00,1,-1.1,-0.8,-0.1,0.3,1.3,,,,,,,*41
$GPGRS,141527.00,1,-6.4,-1.6,2.5,10.6,-5.0,1.6,,,,,,*50
$GPGRS,141527.00,1,0.5,-4.0,-0.3,-0.1,3.8,,,,,,,*41
$GPGRS,141527.00,1,1.4,0.7,21.7,-0.2,7.9,-0.7,-2.9,,,,,*7F
$GPGSV,4,1,14,25,76,313,47,06,22,042,30,24,20,158,,32,25,263,32*76
$GPGSV,4,2,14,28,33,309,41,29,46,220,42,11,39,082,44,12,56,080,47*7B
$GPGSV,4,3,14,31,08,316,31,20,01,101,,36,35,170,36,34,31,208,36*7E
$GPGSV,4,4,14,49,34,195,37,61,03,257,*7B
$GLGSV,3,1,09,78,75,015,44,69,19,290,34,81,15,187,38,77,29,109,36*62
$GLGSV,3,2,09,79,30,309,46,87,39,040,39,88,61,146,52,68,04,245,23*68
$GLGSV,3,3,09,70,09,352,*56
$GAGSV,3,1,10,30,74,059,50,19,13,327,35,15,16,162,,02,22,089,32*6C
$GAGSV,3,2,10,07,22,224,20,29,30,283,38,36,27,048,35,34,41,110,40*6F
$GAGSV,3,3,10,18,36,063,,27,46,285,38*63
$GBGSV,6,1,21,12,65,140,47,43,20,226,,26,10,124,,35,19,045,33*67
$GBGSV,6,2,21,38,11,074,,05,20,130,35,11,28,201,,10,17,066,29*62
$GBGSV,6,3,21,56,24,054,,34,46,186,36,24,60,125,26,25,61,299,45*67
$GBGSV,6,4,21,44,60,081,42,07,04,064,,08,07,087,,13,06,095,*6A
$GBGSV,6,5,21,41,02,269,33,02,05,108,,32,06,318,37,23,10,302,37*63
$GBGSV,6,6,21,60,09,110,*57
$GPGGA,141527.00,,,,,0,00,,,M,,M,,*4C
$PTNL,GGK,141527.00,010125,4742.4456689,N,01617.9736894,E,1,23,1.1,EHT669.7433,M*4B
$GPGGQ,141527.00,010125,4742.4456689,N,01617.9736894,E,1,23,3.584,626.5323,M*30
$GPGFA,141527.00,14.409,25.493,1.515,0.939,356.204,3.109,,VVV*08
$GPLLK,141527.00,010125,,M,,M,1,23,1.2,,M*0D
$GNGMP,141527.00,,,,,DAAA,23,0.6,,,,*55
$GPGMP,141527.00,,,,,,05,,,,3.0,123*7F
$GLGMP,141527.00,,,,,,06,,,,,*7D
$GAGMP,141527.00,,,,,,05,,,,,*73
$GBGMP,141527.00,,,,,,07,,,,,*72
$PSSN,SNC,[0,310545000,2347]*42
$GPZDA,141532.00,01,01,2025,,*63
$GPDTM,W84,,00.0000000,N,00.0000000,E,00.0000000,W84*5F
$GPRMC,141532.00,A,4742.4456763,N,01617.9737059,E,0.0,,010125,5.1,E,D*1E
$GPGLL,4742.4456763,N,01617.9737059,E,141532.00,A,D*6F
$GPGGA,141532.00,4742.4456763,N,01617.9737059,E,2,22,0.7,626.5337,M,43.2110,M,2.4,0123*46
$GNGNS,141532.00,4742.4456763,N,01617.9737059,E,DAAA,22,0.7,626.5337,43.2110,,*5C
$GPGNS,141532.00,,,,,,05,,,,2.4,123*7E
$GLGNS,141532.00,,,,,,07,,,,,*78
$GAGNS,141532.00,,,,,,04,,,,,*76
$GBGNS,141532.00,,,,,,06,,,,,*77
$GPLLQ,141532.00,010125,,M,,M,1,22,3.582,,M*1D
$GPVTG,,T,,M,0.01,N,0.01,K,D*26
$GPHDT,,T*1B
$GPTHS,,V*0E
$GPROT,,V*08
$PSSN,HRP,141532.00,010125,,,,,,,00,0,,*61
$PTNL,AVR,141532.00,,Yaw,,Tilt,,,,0,,00*37
$GPGSA,A,3,11,12,25,28,29,,,,,,,,1.1,0.7,0.9*39
$GPGSA,A,3,69,77,78,79,81,87,88,,,,,,1.1,0.7,0.9*34
$GPGSA,A,3,07,29,30,34,,,,,,,,,1.1,0.7,0.9*34
$GPGSA,A,3,05,12,23,25,32,44,,,,,,,1.1,0.7,0.9*3D
$GPGST,141532.00,6.491,1.511,0.933,355.752,1.508,0.937,3.110*51
$GPGBS,141532.00,7.851,3.738,14.086,23,0.0001,18.138,9.645*5D
$GPGRS,141532.00,1,-1.0,-0.7,-0.1,0.7,1.7,,,,,,,*4B
$GPGRS,141532.00,1,1.1,-6.5,-0.9,-1.8,8.9,-5.7,0.2,,,,,*62
$GPGRS,141532.00,1,0.9,-2.8,-0.3,-0.7,,,,,,,,*64
$GPGRS,141532.00,1,0.9,-0.2,18.1,-1.4,11.0,-2.2,,,,,,*65
$GPGSV,4,1,14,25,76,313,46,06,22,042,31,24,20,158,31,32,25,263,36*70
$GPGSV,4,2,14,28,33,309,41,29,46,220,44,11,39,082,44,12,56,080,48*72
$GPGSV,4,3,14,31,08,316,33,20,01,101,,36,35,170,36,34,31,208,35*7F
$GPGSV,4,4,14,49,34,195,37,61,03,257,*7B
$GLGSV,3,1,09,78,75,015,43,69,19,290,39,81,15,187,38,77,29,109,37*69
$GLGSV,3,2,09,87,39,040,39,79,30,309,44,88,61,146,51,68,04,245,22*68
$GLGSV,3,3,09,70,09,352,*56
$GAGSV,3,1,10,30,74,059,50,19,13,327,34,15,16,162,,02,22,089,33*6C
$GAGSV,3,2,10,07,22,224,31,29,30,283,38,36,27,048,35,34,41,110,40*6F
$GAGSV,3,3,10,18,36,063,,27,46,285,34*6F
$GBGSV,6,1,21,12,65,140,46,43,20,226,,26,10,124,,35,19,045,32*67
$GBGSV,6,2,21,38,11,074,,05,20,130,35,11,28,201,,10,17,066,29*62
$GBGSV,6,3,21,56,24,054,,34,46,186,34,24,60,125,28,25,61,299,45*6B
$GBGSV,6,4,21,44,60,080,43,07,04,064,,08,07,087,,13,06,095,*6A
$GBGSV,6,5,21,41,02,268,34,02,05,108,,32,06,318,36,23,10,302,36*65
$GBGSV,6,6,21,60,09,110,*57
$GPGGA,141532.00,,,,,0,00,,,M,,M,,*48
$PTNL,GGK,141532.00,010125,4742.4456763,N,01617.9737059,E,1,22,1.1,EHT669.7448,M*4F
$GPGGQ,141532.00,010125,4742.4456763,N,01617.9737059,E,1,22,3.582,626.5337,M*3B
$GPGFA,141532.00,14.365,25.505,1.511,0.933,355.752,3.110,,VVV*0C
$GPLLK,141532.00,010125,,M,,M,1,22,1.2,,M*08
$GNGMP,141532.00,,,,,DAAA,22,0.7,,,,*51
$GPGMP,141532.00,,,,,,05,,,,2.4,123*7E
$GLGMP,141532.00,,,,,,07,,,,,*78
$GAGMP,141532.00,,,,,,04,,,,,*76
$GBGMP,141532.00,,,,,,06,,,,,*77
$PSSN,SNC,[0,310550000,2347]*46
$GPZDA,141537.00,01,01,2025,,*66
$GPDTM,W84,,00.0000000,N,00.0000000,E,00.0000000,W84*5F
$GPRMC,141537.00,A,4742.4456842,N,01617.9737368,E,0.0,,010125,5.1,E,D*16
$GPGLL,4742.4456842,N,01617.9737368,E,141537.00,A,D*67
$GPGGA,141537.00,4742.4456842,N,01617.9737368,E,2,23,0.6,626.5498,M,43.2110,M,2.0,0123*48
$GNGNS,141537.00,4742.4456842,N,01617.9737368,E,DAAA,23,0.6,626.5498,43.2110,,*56
$GPGNS,141537.00,,,,,,06,,,,2.0,123*7C
$GLGNS,141537.00,,,,,,06,,,,,*7C
$GAGNS,141537.00,,,,,,05,,,,,*72
$GBGNS,141537.00,,,,,,06,,,,,*72
$GPLLQ,141537.00,010125,,M,,M,1,23,4.028,,M*1B
$GPVTG,,T,,M,0.01,N,0.01,K,D*26
$GPHDT,,T*1B
$GPTHS,,V*0E
$GPROT,,V*08
$PSSN,HRP,141537.00,010125,,,,,,,00,0,,*64
$PTNL,AVR,141537.00,,Yaw,,Tilt,,,,0,,00*32
$GPGSA,A,3,11,12,25,28,29,32,,,,,,,1.1,0.6,0.9*39
$GPGSA,A,3,77,78,79,81,87,88,,,,,,,1.1,0.6,0.9*3A
$GPGSA,A,3,07,19,29,30,34,,,,,,,,1.1,0.6,0.9*3D
$GPGSA,A,3,05,12,23,25,32,44,,,,,,,1.1,0.6,0.9*3C
$GPGST,141537.00,4.649,1.874,1.078,354.226,1.868,1.089,3.398*5B
$GPGBS,141537.00,7.300,3.924,12.809,32,0.0001,4.777,1.416*61
$GPGRS,141537.00,1,-2.0,-1.2,-0.3,0.5,1.3,4.8,,,,,,*6F
$GPGRS,141537.00,1,-8.1,-1.1,-3.1,6.4,-2.9,-0.9,,,,,,*6D
$GPGRS,141537.00,1,-0.5,-4.6,-2.7,-0.9,-1.2,,,,,,,*40
$GPGRS,141537.00,1,-0.0,-1.6,10.3,-3.4,5.8,-2.1,,,,,,*77
$GPGSV,4,1,14,25,76,313,46,06,22,042,28,24,20,158,32,32,25,263,37*7A
$GPGSV,4,2,14,28,33,309,42,29,46,221,45,11,39,082,43,12,56,080,49*77
$GPGSV,4,3,14,31,08,316,34,20,01,101,,36,35,170,36,34,31,208,36*7B
$GPGSV,4,4,14,49,34,195,36,61,03,257,*7A
$GLGSV,3,1,09,78,75,016,43,69,19,290,37,81,15,187,38,77,29,109,37*64
$GLGSV,3,2,09,87,39,040,39,79,30,309,44,88,61,146,51,68,04,245,21*6B
$GLGSV,3,3,09,70,09,352,*56
$GAGSV,3,1,10,30,74,059,49,19,13,327,35,15,16,162,,02,22,089,26*61
$GAGSV,3,2,10,07,22,224,31,29,30,283,37,36,27,048,33,34,41,110,39*68
$GAGSV,3,3,10,18,36,063,,27,46,285,30*6B
$GBGSV,6,1,21,12,65,139,45,43,20,226,,26,10,124,,35,19,045,32*6A
$GBGSV,6,2,21,38,11,074,,05,20,130,35,11,28,201,,10,17,066,28*63
$GBGSV,6,3,21,56,24,054,,34,46,186,31,24,60,125,30,25,61,299,45*67
$GBGSV,6,4,21,44,60,080,43,07,04,064,,08,07,087,,13,06,095,*6A
$GBGSV,6,5,21,41,02,268,34,02,05,108,,32,06,317,36,23,10,302,37*6B
$GBGSV,6,6,21,60,09,110,*57
$GPGGA,141537.00,,,,,0,00,,,M,,M,,*4D
$PTNL,GGK,141537.00,010125,4742.4456842,N,01617.9737368,E,1,23,1.1,EHT669.7608,M*40
$GPGGQ,141537.00,010125,4742.4456842,N,01617.9737368,E,1,23,4.028,626.5498,M*32
$GPGFA,141537.00,17.817,27.866,1.874,1.078,354.226,3.398,,VVV*02
$GPLLK,141537.00,010125,,M,,M,1,23,1.2,,M*0C
$GNGMP,141537.00,,,,,DAAA,23,0.6,,,,*54
$GPGMP,141537.00,,,,,,06,,,,2.0,123*7C
$GLGMP,141537.00,,,,,,06,,,,,*7C
$GAGMP,141537.00,,,,,,05,,,,,*72
$GBGMP,141537.00,,,,,,06,,,,,*72
$PSSN,SNC,[0,310555000,2347]*43
$GPZDA,141542.00,01,01,2025,,*64
$GPDTM,W84,,00.0000000,N,00.0000000,E,00.0000000,W84*5F
$GPRMC,141542.00,A,4742.4456925,N,01617.9737636,E,0.0,,010125,5.1,E,D*1A
$GPGLL,4742.4456925,N,01617.9737636,E,141542.00,A,D*6B
$GPGGA,141542.00,4742.4456925,N,01617.9737636,E,2,24,0.6,626.5598,M,43.2110,M,3.0,0123*43
$GNGNS,141542.00,4742.4456925,N,01617.9737636,E,DAAA,24,0.6,626.5598,43.2110,,*5C
$GPGNS,141542.00,,,,,,06,,,,3.0,123*7F
$GLGNS,141542.00,,,,,,07,,,,,*7F
$GAGNS,141542.00,,,,,,05,,,,,*70
$GBGNS,141542.00,,,,,,06,,,,,*70
$GPLLQ,141542.00,010125,,M,,M,1,24,3.201,,M*10
$GPVTG,,T,,M,0.01,N,0.01,K,D*26
$GPHDT,,T*1B
$GPTHS,,V*0E
$GPROT,,V*08
$PSSN,HRP,141542.00,010125,,,,,,,00,0,,*66
$PTNL,AVR,141542.00,,Yaw,,Tilt,,,,0,,00*30
$GPGSA,A,3,11,12,25,28,29,32,,,,,,,1.1,0.6,0.9*39
$GPGSA,A,3,69,77,78,79,81,87,88,,,,,,1.1,0.6,0.9*35
$GPGSA,A,3,07,19,29,30,34,,,,,,,,1.1,0.6,0.9*3D
$GPGSA,A,3,05,12,23,25,32,44,,,,,,,1.1,0.6,0.9*3C
$GPGST,141542.00,4.090,1.496,0.863,355.038,1.493,0.869,2.694*53
$GPGBS,141542.00,7.318,3.951,12.894,32,0.0001,3.254,1.425*6F
$GPGRS,141542.00,1,-1.7,-1.2,0.0,-0.1,1.2,3.3,,,,,,*63
$GPGRS,141542.00,1,2.0,-7.7,-0.8,-0.3,6.3,-1.5,-0.2,,,,,*40
$GPGRS,141542.00,1,-0.7,-4.0,-2.3,-0.9,-0.3,,,,,,,*42
$GPGRS,141542.00,1,0.3,-1.6,7.3,-2.5,-8.6,-1.5,,,,,,*44
$GPGSV,4,1,14,25,76,313,46,06,22,042,32,24,20,158,31,32,25,263,38*7D
$GPGSV,4,2,14,28,33,309,43,29,46,221,45,11,39,082,42,12,56,080,49*77
$GPGSV,4,3,14,31,08,316,34,20,01,101,,36,35,170,36,34,31,208,36*7B
$GPGSV,4,4,14,49,34,195,37,61,03,257,*7B
$GLGSV,3,1,09,78,75,016,44,69,19,290,38,81,15,187,38,77,29,109,38*63
$GLGSV,3,2,09,87,39,040,38,79,30,309,45,88,61,146,51,68,04,245,23*69
$GLGSV,3,3,09,70,09,352,*56
$GAGSV,3,1,10,30,74,059,49,19,13,327,35,15,16,162,29,02,22,089,33*6E
$GAGSV,3,2,10,07,22,224,30,29,30,283,35,36,27,048,29,34,41,110,38*61
$GAGSV,3,3,10,18,36,063,,27,46,285,44*68
$GBGSV,6,1,21,12,65,139,45,43,20,226,,26,10,124,,35,19,045,30*68
$GBGSV,6,2,21,38,11,074,,05,20,130,35,11,28,201,,10,17,066,27*6C
$GBGSV,6,3,21,56,24,054,,34,46,186,28,24,60,125,32,25,61,299,46*6E
$GBGSV,6,4,21,44,60,080,44,07,04,064,,08,08,087,,13,06,095,*62
$GBGSV,6,5,21,41,02,268,33,02,05,108,,32,06,317,36,23,10,302,38*63
$GBGSV,6,6,21,60,09,110,*57
$GPGGA,141542.00,,,,,0,00,,,M,,M,,*4F
$PTNL,GGK,141542.00,010125,4742.4456925,N,01617.9737636,E,1,24,1.1,EHT669.7708,M*4A
$GPGGQ,141542.00,010125,4742.4456925,N,01617.9737636,E,1,24,3.201,626.5598,M*36
$GPGFA,141542.00,14.228,22.093,1.496,0.863,355.038,2.694,,VVV*05
$GPLLK,141542.00,010125,,M,,M,1,24,1.2,,M*09
$GNGMP,141542.00,,,,,DAAA,24,0.6,,,,*51
$GPGMP,141542.00,,,,,,06,,,,3.0,123*7F
$GLGMP,141542.00,,,,,,07,,,,,*7F
$GAGMP,141542.00,,,,,,05,,,,,*70
$GBGMP,141542.00,,,,,,06,,,,,*70
$PSSN,SNC,[0,310560000,2347]*45
$GPZDA,141547.00,01,01,2025,,*61
$GPDTM,W84,,00.0000000,N,00.0000000,E,00.0000000,W84*5F
$GPRMC,141547.00,A,4742.4456997,N,01617.9737854,E,0.0,,010125,5.1,E,D*1C
$GPGLL,4742.4456997,N,01617.9737854,E,141547.00,A,D*6D
$GPGGA,141547.00,4742.4456997,N,01617.9737854,E,2,23,0.7,626.5600,M,43.2110,M,2.7,0123*47
$GNGNS,141547.00,4742.4456997,N,01617.9737854,E,DAAA,23,0.7,626.5600,43.2110,,*5E
$GPGNS,141547.00,,,,,,06,,,,2.7,123*7C
$GLGNS,141547.00,,,,,,06,,,,,*7B
$GAGNS,141547.00,,,,,,05,,,,,*75
$GBGNS,141547.00,,,,,,06,,,,,*75
$GPLLQ,141547.00,010125,,M,,M,1,23,2.668,,M*18
$GPVTG,,T,,M,0.00,N,0.01,K,D*27
$GPHDT,,T*1B
$GPTHS,,V*0E
$GPROT,,V*08
$PSSN,HRP,141547.00,010125,,,,,,,00,0,,*63
$PTNL,AVR,141547.00,,Yaw,,Tilt,,,,0,,00*35
$GPGSA,A,3,11,12,25,28,29,32,,,,,,,1.1,0.7,0.8*39
$GPGSA,A,3,77,78,79,81,87,88,,,,,,,1.1,0.7,0.8*3A
$GPGSA,A,3,19,27,29,30,34,,,,,,,,1.1,0.7,0.8*3F
$GPGSA,A,3,05,12,23,25,32,44,,,,,,,1.1,0.7,0.8*3C
$GPGST,141547.00,4.090,1.245,0.722,354.619,1.241,0.728,2.247*59
$GPGBS,141547.00,7.416,3.987,13.055,11,0.0001,-1.783,1.138*44
$GPGRS,141547.00,1,-1.8,-0.8,0.2,0.0,1.0,1.7,,,,,,*48
$GPGRS,141547.00,1,-6.2,0.3,1.0,7.8,-1.3,0.6,,,,,,*41
$GPGRS,141547.00,1,-4.4,-0.1,-2.2,-0.7,0.2,,,,,,,*66
$GPGRS,141547.00,1,0.8,-1.1,8.2,-0.4,-7.9,-0.5,,,,,,*41
$GPGSV,4,1,14,25,76,313,46,06,22,042,31,24,20,158,30,32,25,263,39*7E
$GPGSV,4,2,14,28,33,309,43,29,46,221,45,11,39,082,40,12,56,081,49*74
$GPGSV,4,3,14,31,08,316,34,20,01,101,,36,35,170,36,34,31,208,36*7B
$GPGSV,4,4,14,49,34,195,37,61,03,257,*7B
$GLGSV,3,1,09,78,75,016,47,69,19,290,35,81,15,187,37,77,28,109,39*62
$GLGSV,3,2,09,87,39,040,39,79,30,309,45,88,61,146,51,68,04,245,25*6E
$GLGSV,3,3,09,70,09,352,*56
$GAGSV,3,1,10,30,74,059,49,19,13,327,35,15,16,162,29,02,22,089,33*6E
$GAGSV,3,2,10,07,21,224,27,29,30,283,36,36,27,048,29,34,41,110,38*67
$GAGSV,3,3,10,18,36,063,,27,46,285,44*68
$GBGSV,6,1,21,12,65,139,45,43,20,226,,26,10,124,,35,19,045,29*60
$GBGSV,6,2,21,38,11,074,,05,20,130,35,11,28,201,,10,17,066,27*6C
$GBGSV,6,3,21,56,24,054,,34,46,186,26,24,60,126,34,25,61,299,47*64
$GBGSV,6,4,21,44,60,080,45,07,04,064,,08,08,087,,13,06,095,*63
$GBGSV,6,5,21,41,02,268,31,02,05,108,,32,06,317,38,23,10,302,39*6E
$GBGSV,6,6,21,60,09,110,*57
$GPGGA,141547.00,,,,,0,00,,,M,,M,,*4A
$PTNL,GGK,141547.00,010125,4742.4456997,N,01617.9737854,E,1,23,1.1,EHT669.7711,M*43
$GPGGQ,141547.00,010125,4742.4456997,N,01617.9737854,E,1,23,2.668,626.5600,M*3F
$GPGFA,141547.00,11.838,18.423,1.245,0.722,354.619,2.247,,VVV*04
$GPLLK,141547.00,010125,,M,,M,1,23,1.2,,M*0B
$GNGMP,141547.00,,,,,DAAA,23,0.7,,,,*52
$GPGMP,141547.00,,,,,,06,,,,2.7,123*7C
$GLGMP,141547.00,,,,,,06,,,,,*7B
$GAGMP,141547.00,,,,,,05,,,,,*75
$GBGMP,141547.00,,,,,,06,,,,,*75
$PSSN,SNC,[0,310565000,2347]*40
$GPZDA,141552.00,01,01,2025,,*65
$GPDTM,W84,,00.0000000,N,00.0000000,E,00.0000000,W84*5F
$GPRMC,141552.00,A,4742.4457049,N,01617.9738021,E,0.0,,010125,5.1,E,D*16
$GPGLL,4742.4457049,N,01617.9738021,E,141552.00,A,D*67
$GPGGA,141552.00,4742.4457049,N,01617.9738021,E,2,26,0.6,626.5515,M,43.2110,M,2.3,0123*4A
$GNGNS,141552.00,4742.4457049,N,01617.9738021,E,DAAA,26,0.6,626.5515,43.2110,,*57
$GPGNS,141552.00,,,,,,06,,,,2.3,123*7C
$GLGNS,141552.00,,,,,,07,,,,,*7E
$GAGNS,141552.00,,,,,,06,,,,,*72
$GBGNS,141552.00,,,,,,07,,,,,*70
$GPLLQ,141552.00,010125,,M,,M,1,26,2.498,,M*14
$GPVTG,,T,,M,0.01,N,0.02,K,D*25
$GPHDT,,T*1B
$GPTHS,,V*0E
$GPROT,,V*08
$PSSN,HRP,141552.00,010125,,,,,,,00,0,,*67
$PTNL,AVR,141552.00,,Yaw,,Tilt,,,,0,,00*31
$GPGSA,A,3,11,12,25,28,29,32,,,,,,,1.0,0.6,0.8*39
$GPGSA,A,3,69,77,78,79,81,87,88,,,,,,1.0,0.6,0.8*35
$GPGSA,A,3,07,19,27,29,30,34,,,,,,,1.0,0.6,0.8*38
$GPGSA,A,3,05,12,23,24,25,32,44,,,,,,1.0,0.6,0.8*3A
$GPGST,141552.00,4.454,1.152,0.672,354.332,1.149,0.679,2.112*51
$GPGBS,141552.00,7.231,3.870,12.855,29,0.0001,1.649,1.015*6C
$GPGRS,141552.00,1,-0.9,-0.5,-0.3,-0.2,1.6,0.1,,,,,,*43
$GPGRS,141552.00,1,6.9,-7.5,1.8,1.3,6.8,-0.5,1.2,,,,,*68
$GPGRS,141552.00,1,-0.6,-3.9,-0.1,-0.9,-0.5,0.0,,,,,,*64
$GPGRS,141552.00,1,0.9,-0.3,13.2,1.7,0.9,-4.7,-0.3,,,,,*7E
$GPGSV,4,1,14,25,76,313,44,06,22,042,30,24,20,158,28,32,25,263,39*74
$GPGSV,4,2,14,28,33,309,43,29,46,221,44,11,39,082,39,12,56,081,48*7A
$GPGSV,4,3,14,31,08,316,32,20,01,101,,36,35,170,36,34,31,208,36*7D
$GPGSV,4,4,14,49,34,195,37,61,03,257,*7B
$GLGSV,3,1,09,78,75,016,48,69,19,290,36,81,15,187,37,77,28,109,38*6F
$GLGSV,3,2,09,79,30,309,45,87,39,040,41,88,61,146,51,68,04,245,26*62
$GLGSV,3,3,09,70,09,352,*56
$GAGSV,3,1,10,30,74,059,49,19,13,327,35,15,16,162,29,02,22,089,22*6E
$GAGSV,3,2,10,07,21,224,30,29,30,283,38,36,27,048,25,34,41,110,37*6C
$GAGSV,3,3,10,18,36,063,,27,46,285,44*68
$GBGSV,6,1,21,12,65,139,45,43,20,226,,38,11,074,,05,20,130,35*6D
$GBGSV,6,2,21,35,19,045,29,11,28,201,,10,17,066,27,56,24,054,*67
$GBGSV,6,3,21,34,46,186,39,24,60,126,35,25,61,299,48,44,60,080,46*6C
$GBGSV,6,4,21,32,06,317,39,23,10,302,40,02,05,108,,07,04,064,*68
$GBGSV,6,5,21,41,02,268,30,08,08,087,,26,10,124,,13,06,095,*66
$GBGSV,6,6,21,60,09,110,*57
$GPGGA,141552.00,,,,,0,00,,,M,,M,,*4E
$PTNL,GGK,141552.00,010125,4742.4457049,N,01617.9738021,E,1,26,1.0,EHT669.7626,M*48
$GPGGQ,141552.00,010125,4742.4457049,N,01617.9738021,E,1,26,2.498,626.5515,M*3A
$GPGFA,141552.00,10.957,17.316,1.152,0.672,354.332,2.112,,VVV*09
$GPLLK,141552.00,010125,,M,,M,1,26,1.2,,M*0A
$GNGMP,141552.00,,,,,DAAA,26,0.6,,,,*52
$GPGMP,141552.00,,,,,,06,,,,2.3,123*7C
$GLGMP,141552.00,,,,,,07,,,,,*7E
$GAGMP,141552.00,,,,,,06,,,,,*72
$GBGMP,141552.00,,,,,,07,,,,,*70
$PSSN,SNC,[0,310570000,2347]*44
$GPZDA,141557.00,01,01,2025,,*60
$GPDTM,W84,,00.0000000,N,00.0000000,E,00.0000000,W84*5F
$GPRMC,141557.00,A,4742.4457124,N,01617.9738114,E,0.0,,010125,5.1,E,D*1E
$GPGLL,4742.4457124,N,01617.9738114,E,141557.00,A,D*6F
$GPGGA,141557.00,4742.4457124,N,01617.9738114,E,2,22,0.7,626.5732,M,43.2110,M,2.0,0123*43
$GNGNS,141557.00,4742.4457124,N,01617.9738114,E,DAAA,22,0.7,626.5732,43.2110,,*5D
$GPGNS,141557.00,,,,,,06,,,,2.0,123*7A
$GLGNS,141557.00,,,,,,06,,,,,*7A
$GAGNS,141557.00,,,,,,03,,,,,*72
$GBGNS,141557.00,,,,,,07,,,,,*75
$GPLLQ,141557.00,010125,,M,,M,1,22,2.660,,M*10
$GPVTG,,T,,M,0.01,N,0.01,K,D*26
$GPHDT,,T*1B
$GPTHS,,V*0E
$GPROT,,V*08
$PSSN,HRP,141557.00,010125,,,,,,,00,0,,*62
$PTNL,AVR,141557.00,,Yaw,,Tilt,,,,0,,00*34
$GPGSA,A,3,11,12,25,28,29,32,,,,,,,1.1,0.7,0.9*38
$GPGSA,A,3,77,78,79,81,87,88,,,,,,,1.1,0.7,0.9*3B
$GPGSA,A,3,29,30,34,,,,,,,,,,1.1,0.7,0.9*33
$GPGSA,A,3,05,12,23,24,25,32,44,,,,,,1.1,0.7,0.9*3B
$GPGST,141557.00,5.733,1.245,0.711,354.403,1.241,0.718,2.241*5B
$GPGBS,141557.00,7.565,3.912,12.999,23,0.0001,19.275,9.635*5F
$GPGRS,141557.00,1,-0.5,-0.4,-0.5,0.1,1.2,1.0,,,,,,*67
$GPGRS,141557.00,1,-7.7,1.6,1.6,6.5,0.3,1.3,,,,,,*62
$GPGRS,141557.00,1,-1.2,-0.6,-1.1,,,,,,,,,*4B
$GPGRS,141557.00,1,1.1,0.1,19.3,0.8,-0.1,-1.6,-1.5,,,,,*7E
$GPGSV,4,1,14,25,76,313,45,06,22,042,30,24,20,158,25,32,25,263,40*76
$GPGSV,4,2,14,28,33,309,43,29,46,221,43,11,39,082,39,12,56,081,47*72
$GPGSV,4,3,14,31,08,316,32,20,01,101,,36,35,170,36,34,31,208,36*7D
$GPGSV,4,4,14,49,34,195,37,61,03,257,*7B
$GLGSV,3,1,09,78,75,016,48,69,19,290,26,81,15,187,37,77,28,109,38*6E
$GLGSV,3,2,09,79,30,309,46,87,39,040,41,88,61,146,51,68,04,245,*65
$GLGSV,3,3,09,70,09,352,*56
$GAGSV,3,1,10,30,74,059,49,19,13,327,35,15,16,162,28,02,22,089,22*6F
$GAGSV,3,2,10,07,21,224,25,29,30,283,39,36,27,048,31,34,41,110,35*6E
$GAGSV,3,3,10,18,36,063,,27,46,285,34*6F
$GBGSV,6,1,21,12,65,139,46,43,20,226,,38,11,074,,05,20,130,35*6E
$GBGSV,6,2,21,35,19,045,24,11,28,201,,10,17,066,26,56,24,054,*6B
$GBGSV,6,3,21,34,46,186,29,24,60,126,37,25,61,299,48,44,60,080,46*6F
$GBGSV,6,4,21,32,06,317,40,23,10,302,40,02,05,108,,07,04,064,*66
$GBGSV,6,5,21,41,02,268,30,08,08,087,,26,10,124,,13,06,095,*66
$GBGSV,6,6,21,60,09,110,*57
$GPGGA,141557.00,,,,,0,00,,,M,,M,,*4B
$PTNL,GGK,141557.00,010125,4742.4457124,N,01617.9738114,E,1,22,1.1,EHT669.7842,M*49
$GPGGQ,141557.00,010125,4742.4457124,N,01617.9738114,E,1,22,2.660,626.5732,M*34
$GPGFA,141557.00,11.837,18.373,1.245,0.711,354.403,2.241,,VVV*07
$GPLLK,141557.00,010125,,M,,M,1,22,1.3,,M*0A
$GNGMP,141557.00,,,,,DAAA,22,0.7,,,,*52
$GPGMP,141557.00,,,,,,06,,,,2.0,123*7A
$GLGMP,141557.00,,,,,,06,,,,,*7A
$GAGMP,141557.00,,,,,,03,,,,,*72
$GBGMP,141557.00,,,,,,07,,,,,*75
$PSSN,SNC,[0,310575000,2347]*41
$GPZDA,141602.00,01,01,2025,,*63
$GPDTM,W84,,00.0000000,N,00.0000000,E,00.0000000,W84*5F
$GPRMC,141602.00,A,4742.4457152,N,01617.9738231,E,0.0,,010125,5.1,E,D*18
$GPGLL,4742.4457152,N,01617.9738231,E,141602.00,A,D*69
$GPGGA,141602.00,4742.4457152,N,01617.9738231,E,2,23,0.7,626.5733,M,43.2110,M,3.0,0123*44
$GNGNS,141602.00,4742.4457152,N,01617.9738231,E,DAAA,23,0.7,626.5733,43.2110,,*5B
$GPGNS,141602.00,,,,,,06,,,,3.0,123*78
$GLGNS,141602.00,,,,,,06,,,,,*79
$GAGNS,141602.00,,,,,,03,,,,,*71
$GBGNS,141602.00,,,,,,08,,,,,*79
$GPLLQ,141602.00,010125,,M,,M,1,23,4.103,,M*16
$GPVTG,,T,,M,0.01,N,0.01,K,D*26
$GPHDT,,T*1B
$GPTHS,,V*0E
$GPROT,,V*08
$PSSN,HRP,141602.00,010125,,,,,,,00,0,,*61
$PTNL,AVR,141602.00,,Yaw,,Tilt,,,,0,,00*37
$GPGSA,A,3,11,12,25,28,29,32,,,,,,,1.1,0.7,0.9*38
$GPGSA,A,3,77,78,79,81,87,88,,,,,,,1.1,0.7,0.9*3B
$GPGSA,A,3,27,29,30,,,,,,,,,,1.1,0.7,0.9*31
$GPGSA,A,3,05,12,23,24,25,32,34,44,,,,,1.1,0.7,0.9*3C
$GPGST,141602.00,8.588,1.929,1.105,354.343,1.922,1.116,3.449*5F
$GPGBS,141602.00,7.566,4.001,13.189,27,0.0001,23.241,6.266*5C
$GPGRS,141602.00,1,0.2,-0.6,-0.5,0.2,0.6,0.7,,,,,,*4C
$GPGRS,141602.00,1,-7.5,0.7,1.6,8.7,-4.3,1.0,,,,,,*45
$GPGRS,141602.00,1,23.2,-1.2,-1.1,,,,,,,,,*50
$GPGRS,141602.00,1,1.0,-0.7,21.1,0.4,-2.1,1.1,-4.7,-3.0,,,,*7D
$GPGSV,4,1,14,25,76,313,45,06,22,042,29,24,20,158,22,32,25,263,39*77
$GPGSV,4,2,14,28,33,309,44,29,46,221,43,11,39,081,41,12,56,081,47*79
$GPGSV,4,3,14,31,08,316,32,20,01,101,,36,35,170,36,34,31,208,36*7D
$GPGSV,4,4,14,49,34,195,37,61,03,257,*7B
$GLGSV,3,1,09,78,75,016,48,69,19,290,34,81,15,187,36,77,28,109,38*6C
$GLGSV,3,2,09,87,39,040,38,79,30,309,47,88,61,145,51,68,04,245,*69
$GLGSV,3,3,09,70,09,352,*56
$GAGSV,3,1,10,30,74,060,49,19,13,327,35,15,16,162,28,02,22,089,23*64
$GAGSV,3,2,10,07,21,224,23,29,30,283,39,36,27,048,33,34,41,110,34*6B
$GAGSV,3,3,10,18,36,063,,27,46,285,35*6E
$GBGSV,6,1,21,12,65,139,46,43,20,226,,38,11,074,,05,20,130,35*6E
$GBGSV,6,2,21,35,19,045,29,11,28,201,,10,17,066,25,56,24,054,*65
$GBGSV,6,3,21,34,47,186,40,24,60,126,40,25,61,299,48,44,60,080,47*60
$GBGSV,6,4,21,32,06,317,41,23,10,302,40,02,05,108,,07,04,064,*67
$GBGSV,6,5,21,41,02,268,29,08,08,087,,26,10,124,,13,07,095,*6F
$GBGSV,6,6,21,60,09,110,*57
$GPGGA,141602.00,,,,,0,00,,,M,,M,,*48
$PTNL,GGK,141602.00,010125,4742.4457152,N,01617.9738231,E,1,23,1.1,EHT669.7843,M*4F
$GPGGQ,141602.00,010125,4742.4457152,N,01617.9738231,E,1,23,4.103,626.5733,M*36
$GPGFA,141602.00,18.336,28.278,1.929,1.105,354.343,3.449,,VVV*01
$GPLLK,141602.00,010125,,M,,M,1,23,1.3,,M*08
$GNGMP,141602.00,,,,,DAAA,23,0.7,,,,*50
$GPGMP,141602.00,,,,,,06,,,,3.0,123*78
$GLGMP,141602.00,,,,,,06,,,,,*79
$GAGMP,141602.00,,,,,,03,,,,,*71
$GBGMP,141602.00,,,,,,08,,,,,*79
$PSSN,SNC,[0,310580000,2347]*4B
$GPZDA,141607.00,01,01,2025,,*66
$GPDTM,W84,,00.0000000,N,00.0000000,E,00.0000000,W84*5F
$GPRMC,141607.00,A,4742.4457189,N,01617.9738283,E,0.0,,010125,5.1,E,D*12
$GPGLL,4742.4457189,N,01617.9738283,E,141607.00,A,D*63
$GPGGA,141607.00,4742.4457189,N,01617.9738283,E,2,23,0.7,626.5807,M,43.2110,M,2.7,0123*40
$GNGNS,141607.00,4742.4457189,N,01617.9738283,E,DAAA,23,0.7,626.5807,43.2110,,*59
$GPGNS,141607.00,,,,,,06,,,,2.7,123*7B
$GLGNS,141607.00,,,,,,07,,,,,*7D
$GAGNS,141607.00,,,,,,02,,,,,*75
$GBGNS,141607.00,,,,,,08,,,,,*7C
$GPLLQ,141607.00,010125,,M,,M,1,23,3.864,,M*1C
$GPVTG,,T,,M,0.00,N,0.00,K,D*26
$GPHDT,,T*1B
$GPTHS,,V*0E
$GPROT,,V*08
$PSSN,HRP,141607.00,010125,,,,,,,00,0,,*64
$PTNL,AVR,141607.00,,Yaw,,Tilt,,,,0,,00*32
$GPGSA,A,3,11,12,25,28,29,32,,,,,,,1.1,0.7,0.9*38
$GPGSA,A,3,69,77,78,79,81,87,88,,,,,,1.1,0.7,0.9*34
$GPGSA,A,3,29,30,,,,,,,,,,,1.1,0.7,0.9*34
$GPGSA,A,3,05,12,23,24,25,32,34,44,,,,,1.1,0.7,0.9*3C
$GPGST,141607.00,7.107,1.803,1.042,354.319,1.797,1.052,3.255*58
$GPGBS,141607.00,7.437,4.042,13.261,23,0.0001,18.894,9.632*5A
$GPGRS,141607.00,1,0.2,-0.3,-0.7,0.0,1.0,-0.8,,,,,,*69
$GPGRS,141607.00,1,11.8,-7.2,-0.0,1.6,12.6,-7.1,-0.1,,,,,*6D
$GPGRS,141607.00,1,-1.2,-1.3,,,,,,,,,,*4A
$GPGRS,141607.00,1,0.2,-1.7,18.9,0.8,-2.7,1.4,-4.5,-3.2,,,,*77
$GPGSV,4,1,14,25,76,313,45,06,22,042,25,24,20,158,25,32,25,263,36*73
$GPGSV,4,2,14,28,33,309,44,29,46,221,43,11,39,081,43,12,56,081,47*7B
$GPGSV,4,3,14,31,08,316,33,20,01,101,,36,35,170,36,34,31,208,36*7C
$GPGSV,4,4,14,49,34,195,37,61,03,257,*7B
$GLGSV,3,1,09,78,75,017,48,69,18,290,36,81,15,187,36,77,28,109,37*61
$GLGSV,3,2,09,79,30,309,49,87,39,040,40,88,61,145,51,68,04,245,*68
$GLGSV,3,3,09,70,09,352,*56
$GAGSV,3,1,10,30,74,060,49,19,13,327,34,15,16,162,27,02,22,089,23*6A
$GAGSV,3,2,10,07,21,224,21,29,30,283,40,36,27,048,33,34,41,110,32*61
$GAGSV,3,3,10,18,36,063,,27,46,285,35*6E
$GBGSV,6,1,21,12,65,139,46,43,20,226,,38,11,074,,05,20,130,35*6E
$GBGSV,6,2,21,35,19,045,22,11,29,201,,10,17,066,24,56,24,054,*6E
$GBGSV,6,3,21,34,47,186,41,24,60,126,42,25,61,299,48,44,60,080,47*63
$GBGSV,6,4,21,32,06,317,41,23,10,302,40,02,05,108,,07,04,064,*67
$GBGSV,6,5,21,41,02,268,27,08,08,087,,26,10,124,,13,07,095,*61
$GBGSV,6,6,21,60,09,110,*57
$GPGGA,141607.00,,,,,0,00,,,M,,M,,*4D
$PTNL,GGK,141607.00,010125,4742.4457189,N,01617.9738283,E,1,23,1.1,EHT669.7917,M*45
$GPGGQ,141607.00,010125,4742.4457189,N,01617.9738283,E,1,23,3.864,626.5807,M*3B
$GPGFA,141607.00,17.139,26.688,1.803,1.042,354.319,3.255,,VVV*0C
$GPLLK,141607.00,010125,,M,,M,1,23,1.3,,M*0D
$GNGMP,141607.00,,,,,DAAA,23,0.7,,,,*55
$GPGMP,141607.00,,,,,,06,,,,2.7,123*7B
$GLGMP,141607.00,,,,,,07,,,,,*7D
$GAGMP,141607.00,,,,,,02,,,,,*75
$GBGMP,141607.00,,,,,,08,,,,,*7C
$PSSN,SNC,[0,310585000,2347]*4E
$GPZDA,141612.00,01,01,2025,,*62
$GPDTM,W84,,00.0000000,N,00.0000000,E,00.0000000,W84*5F
$GPRMC,141612.00,A,4742.4457240,N,01617.9738332,E,0.0,,010125,5.1,E,D*1B
$GPGLL,4742.4457240,N,01617.9738332,E,141612.00,A,D*6A
$GPGGA,141612.00,4742.4457240,N,01617.9738332,E,2,22,0.7,626.5946,M,43.2110,M,2.4,0123*4F
$GNGNS,141612.00,4742.4457240,N,01617.9738332,E,DAAA,22,0.7,626.5946,43.2110,,*55
$GPGNS,141612.00,,,,,,05,,,,2.4,123*7F
$GLGNS,141612.00,,,,,,07,,,,,*79
$GAGNS,141612.00,,,,,,02,,,,,*71
$GBGNS,141612.00,,,,,,08,,,,,*78
$GPLLQ,141612.00,010125,,M,,M,1,22,4.124,,M*13
$GPVTG,,T,,M,0.01,N,0.01,K,D*26
$GPHDT,,T*1B
$GPTHS,,V*0E
$GPROT,,V*08
$PSSN,HRP,141612.00,010125,,,,,,,00,0,,*60
$PTNL,AVR,141612.00,,Yaw,,Tilt,,,,0,,00*36
$GPGSA,A,3,11,12,25,28,29,,,,,,,,1.1,0.7,0.9*39
$GPGSA,A,3,69,77,78,79,81,87,88,,,,,,1.1,0.7,0.9*34
$GPGSA,A,3,29,30,,,,,,,,,,,1.1,0.7,0.9*34
$GPGSA,A,3,05,12,23,24,25,32,34,44,,,,,1.1,0.7,0.9*3C
$GPGST,141612.00,7.911,1.738,1.075,355.712,1.735,1.080,3.582*54
$GPGBS,141612.00,7.999,3.763,14.519,69,0.0001,17.373,6.777*57
$GPGRS,141612.00,1,-0.3,-0.2,-0.5,-0.6,1.2,,,,,,,*60
$GPGRS,141612.00,1,17.4,-7.1,-0.7,2.4,15.1,-4.6,-0.6,,,,,*65
$GPGRS,141612.00,1,-0.6,-1.5,,,,,,,,,,*4D
$GPGRS,141612.00,1,-0.3,-2.0,16.5,-0.5,-3.2,-3.1,-4.4,-3.1,,,,*55
$GPGSV,4,1,14,25,76,313,45,06,22,042,35,24,20,158,26,32,25,263,33*74
$GPGSV,4,2,14,28,33,309,44,29,46,221,43,11,39,081,44,12,56,081,47*7C
$GPGSV,4,3,14,31,08,316,34,20,01,101,,36,35,170,36,34,31,208,36*7B
$GPGSV,4,4,14,49,34,195,37,61,03,257,*7B
$GLGSV,3,1,09,78,75,017,46,69,18,290,37,81,15,187,36,77,28,109,36*6F
$GLGSV,3,2,09,79,30,309,49,87,39,040,43,88,61,145,51,68,04,245,*6B
$GLGSV,3,3,09,70,09,351,*55
$GAGSV,3,1,10,30,74,060,49,19,13,327,34,15,16,162,,02,22,090,23*67
$GAGSV,3,2,10,07,21,224,22,29,30,283,41,36,27,048,33,34,41,110,32*63
$GAGSV,3,3,10,18,36,063,,27,46,285,34*6F
$GBGSV,6,1,21,12,65,139,46,43,20,226,,38,11,074,,05,20,130,35*6E
$GBGSV,6,2,21,35,19,045,21,11,29,201,,10,17,066,22,56,24,054,*6B
$GBGSV,6,3,21,34,47,186,41,24,60,126,45,25,61,299,47,44,60,080,47*6B
$GBGSV,6,4,21,32,06,317,41,23,10,302,40,02,05,108,,07,04,064,*67
$GBGSV,6,5,21,41,02,268,,08,08,087,,26,10,124,,13,07,095,*64
$GBGSV,6,6,21,60,09,110,*57
$GPGGA,141612.00,,,,,0,00,,,M,,M,,*49
$PTNL,GGK,141612.00,010125,4742.4457240,N,01617.9738332,E,1,22,1.1,EHT669.8057,M*4F
$GPGGQ,141612.00,010125,4742.4457240,N,01617.9738332,E,1,22,4.124,626.5946,M*3D
$GPGFA,141612.00,16.526,29.370,1.738,1.075,355.712,3.582,,VVV*0E
$GPLLK,141612.00,010125,,M,,M,1,22,1.3,,M*08
$GNGMP,141612.00,,,,,DAAA,22,0.7,,,,*50
$GPGMP,141612.00,,,,,,05,,,,2.4,123*7F
$GLGMP,141612.00,,,,,,07,,,,,*79
$GAGMP,141612.00,,,,,,02,,,,,*71
$GBGMP,141612.00,,,,,,08,,,,,*78
$PSSN,SNC,[0,310590000,2347]*4A
$GPZDA,141617.00,01,01,2025,,*67
$GPDTM,W84,,00.0000000,N,00.0000000,E,00.0000000,W84*5F
$GPRMC,141617.00,A,4742.4457302,N,01617.9738406,E,0.0,,010125,5.1,E,D*19
$GPGLL,4742.4457302,N,01617.9738406,E,141617.00,A,D*68
$GPGGA,141617.00,4742.4457302,N,01617.9738406,E,2,21,0.7,626.5901,M,43.2110,M,1.8,0123*42
$GNGNS,141617.00,4742.4457302,N,01617.9738406,E,DAAA,21,0.7,626.5901,43.2110,,*57
$GPGNS,141617.00,,,,,,05,,,,1.8,123*75
$GLGNS,141617.00,,,,,,07,,,,,*7C
$GAGNS,141617.00,,,,,,02,,,,,*74
$GBGNS,141617.00,,,,,,07,,,,,*72
$GPLLQ,141617.00,010125,,M,,M,1,21,4.499,,M*16
$GPVTG,,T,,M,0.01,N,0.02,K,D*25
$GPHDT,,T*1B
$GPTHS,,V*0E
$GPROT,,V*08
$PSSN,HRP,141617.00,010125,,,,,,,00,0,,*65
$PTNL,AVR,141617.00,,Yaw,,Tilt,,,,0,,00*33
$GPGSA,A,3,11,12,25,28,29,,,,,,,,1.1,0.7,0.9*39
$GPGSA,A,3,69,77,78,79,81,87,88,,,,,,1.1,0.7,0.9*34
$GPGSA,A,3,29,30,,,,,,,,,,,1.1,0.7,0.9*34
$GPGSA,A,3,05,12,23,24,25,32,44,,,,,,1.1,0.7,0.9*3B
$GPGST,141617.00,9.043,1.919,1.169,356.359,1.916,1.173,3.898*5C
$GPGBS,141617.00,8.157,3.778,14.324,69,0.0001,21.441,6.783*5D
$GPGRS,141617.00,1,-0.3,-0.2,-0.1,-0.9,0.6,,,,,,,*6B
$GPGRS,141617.00,1,21.4,-7.1,-1.8,2.3,16.1,1.2,0.2,,,,,*6A
$GPGRS,141617.00,1,0.3,-1.7,,,,,,,,,,*62
$GPGRS,141617.00,1,0.2,-2.2,17.4,-0.9,-3.3,-5.9,-2.6,,,,,*78
$GPGSV,4,1,14,25,76,313,44,06,22,042,34,24,20,158,21,32,25,263,31*71
$GPGSV,4,2,14,28,33,309,43,29,46,221,44,11,39,081,45,12,56,081,46*7C
$GPGSV,4,3,14,31,08,316,35,20,01,101,,36,35,170,36,34,31,208,36*7A
$GPGSV,4,4,14,49,34,195,37,61,03,257,*7B
$GLGSV,3,1,09,78,75,017,46,69,18,290,36,81,15,187,36,77,28,109,37*6F
$GLGSV,3,2,09,79,30,309,49,87,39,040,44,88,61,145,52,68,04,245,19*67
$GLGSV,3,3,09,70,09,351,*55
$GAGSV,3,1,10,30,74,060,48,19,13,327,34,15,16,162,24,02,22,090,21*62
$GAGSV,3,2,10,07,21,224,29,29,30,283,41,36,27,048,31,18,36,063,*60
$GAGSV,3,3,10,34,41,110,30,27,46,285,32*61
$GBGSV,6,1,21,12,65,139,46,43,20,226,,23,10,302,40,35,19,045,21*6C
$GBGSV,6,2,21,38,11,074,,05,20,130,36,11,29,201,,10,17,066,20*69
$GBGSV,6,3,21,56,24,054,,34,47,186,30,24,60,126,47,25,61,299,47*66
$GBGSV,6,4,21,44,59,080,47,26,10,124,,08,08,087,,13,07,095,*69
$GBGSV,6,5,21,41,02,268,23,02,05,108,,32,06,317,41,07,04,064,*69
$GBGSV,6,6,21,60,09,110,*57
$GPGGA,141617.00,,,,,0,00,,,M,,M,,*4C
$PTNL,GGK,141617.00,010125,4742.4457302,N,01617.9738406,E,1,21,1.1,EHT669.8011,M*4C
$GPGGQ,141617.00,010125,4742.4457302,N,01617.9738406,E,1,21,4.499,626.5901,M*3C
$GPGFA,141617.00,18.242,31.962,1.919,1.169,356.359,3.898,,VVV*0F
$GPLLK,141617.00,010125,,M,,M,1,21,1.3,,M*0E
$GNGMP,141617.00,,,,,DAAA,21,0.7,,,,*56
$GPGMP,141617.00,,,,,,05,,,,1.8,123*75
$GLGMP,141617.00,,,,,,07,,,,,*7C
$GAGMP,141617.00,,,,,,02,,,,,*74
$GBGMP,141617.00,,,,,,07,,,,,*72
$PSSN,SNC,[0,310595000,2347]*4F
$GPZDA,141622.00,01,01,2025,,*61
$GPDTM,W84,,00.0000000,N,00.0000000,E,00.0000000,W84*5F
$GPRMC,141622.00,A,4742.4457356,N,01617.9738458,E,0.0,,010125,5.1,E,D*15
$GPGLL,4742.4457356,N,01617.9738458,E,141622.00,A,D*64
$GPGGA,141622.00,4742.4457356,N,01617.9738458,E,2,21,0.7,626.6041,M,43.2110,M,3.0,0123*4A
$GNGNS,141622.00,4742.4457356,N,01617.9738458,E,DAAA,21,0.7,626.6041,43.2110,,*55
$GPGNS,141622.00,,,,,,06,,,,3.0,123*7A
$GLGNS,141622.00,,,,,,06,,,,,*7B
$GAGNS,141622.00,,,,,,02,,,,,*72
$GBGNS,141622.00,,,,,,07,,,,,*74
$GPLLQ,141622.00,010125,,M,,M,1,21,3.469,,M*18
$GPVTG,,T,,M,0.01,N,0.02,K,D*25
$GPHDT,,T*1B
$GPTHS,,V*0E
$GPROT,,V*08
$PSSN,HRP,141622.00,010125,,,,,,,00,0,,*63
$PTNL,AVR,141622.00,,Yaw,,Tilt,,,,0,,00*35
$GPGSA,A,3,11,12,25,28,29,31,,,,,,,1.1,0.7,0.8*3A
$GPGSA,A,3,77,78,79,81,87,88,,,,,,,1.1,0.7,0.8*3A
$GPGSA,A,3,29,30,,,,,,,,,,,1.1,0.7,0.8*35
$GPGSA,A,3,05,12,23,24,25,32,44,,,,,,1.1,0.7,0.8*3A
$GPGST,141622.00,7.864,1.566,0.974,357.970,1.565,0.975,2.938*55
$GPGBS,141622.00,8.230,3.940,13.260,81,0.0001,17.588,6.577*54
$GPGRS,141622.00,1,-0.2,-0.2,-0.0,-0.8,0.3,0.6,,,,,,*41
$GPGRS,141622.00,1,-7.8,-1.5,1.4,17.6,4.9,0.9,,,,,,*76
$GPGRS,141622.00,1,0.8,-1.7,,,,,,,,,,*6F
$GPGRS,141622.00,1,0.4,-1.8,20.6,-0.7,-2.9,-4.6,-2.0,,,,,*7A
$GPGSV,4,1,14,25,76,314,45,06,22,042,35,24,20,158,25,32,25,263,31*72
$GPGSV,4,2,14,28,33,309,42,29,46,221,45,11,39,081,46,12,56,081,46*7F
$GPGSV,4,3,14,31,08,316,36,20,01,101,,36,35,170,36,34,31,208,36*79
$GPGSV,4,4,14,49,34,195,37,61,03,257,*7B
$GLGSV,3,1,09,78,75,017,47,69,18,290,26,81,15,187,35,77,28,109,38*63
$GLGSV,3,2,09,79,30,309,49,87,39,040,44,88,61,145,52,68,04,245,*6F
$GLGSV,3,3,09,70,09,351,*55
$GAGSV,3,1,10,30,74,060,47,19,13,327,34,15,16,162,23,02,22,090,19*61
$GAGSV,3,2,10,07,21,224,28,29,30,282,41,36,27,048,29,18,36,063,*69
$GAGSV,3,3,10,34,41,110,29,27,46,285,26*6C
$GBGSV,6,1,21,12,65,139,47,35,19,045,22,23,10,302,40,43,20,226,*6E
$GBGSV,6,2,21,38,11,074,,05,20,130,35,11,29,201,,10,17,066,19*60
$GBGSV,6,3,21,56,24,054,,34,47,186,29,24,59,126,48,25,61,299,47*6B
$GBGSV,6,4,21,44,59,080,48,26,10,124,,02,05,108,,13,07,095,*67
$GBGSV,6,5,21,41,02,268,20,08,08,087,,32,06,317,41,07,04,064,*6B
$GBGSV,6,6,21,60,09,110,*57
$GPGGA,141622.00,,,,,0,00,,,M,,M,,*4A
$PTNL,GGK,141622.00,010125,4742.4457356,N,01617.9738458,E,1,21,1.1,EHT669.8152,M*46
$GPGGQ,141622.00,010125,4742.4457356,N,01617.9738458,E,1,21,3.469,626.6041,M*36
$GPGFA,141622.00,14.886,24.096,1.566,0.974,357.970,2.938,,VVV*0A
$GPLLK,141622.00,010125,,M,,M,1,21,1.2,,M*09
$GNGMP,141622.00,,,,,DAAA,21,0.7,,,,*50
$GPGMP,141622.00,,,,,,06,,,,3.0,123*7A
$GLGMP,141622.00,,,,,,06,,,,,*7B
$GAGMP,141622.00,,,,,,02,,,,,*72
$GBGMP,141622.00,,,,,,07,,,,,*74
$PSSN,SNC,[0,310600000,2347]*40
$GPZDA,141627.00,01,01,2025,,*64
$GPDTM,W84,,00.0000000,N,00.0000000,E,00.0000000,W84*5F
$GPRMC,141627.00,A,4742.4457383,N,01617.9738449,E,0.0,,010125,5.1,E,D*18
$GPGLL,4742.4457383,N,01617.9738449,E,141627.00,A,D*69
$GPGGA,141627.00,4742.4457383,N,01617.9738449,E,2,23,0.7,626.6051,M,43.2110,M,2.4,0123*41
$GNGNS,141627.00,4742.4457383,N,01617.9738449,E,DAAA,23,0.7,626.6051,43.2110,,*5B
$GPGNS,141627.00,,,,,,07,,,,2.4,123*7B
$GLGNS,141627.00,,,,,,07,,,,,*7F
$GAGNS,141627.00,,,,,,02,,,,,*77
$GBGNS,141627.00,,,,,,07,,,,,*71
$GPLLQ,141627.00,010125,,M,,M,1,23,3.688,,M*12
$GPVTG,,T,,M,0.01,N,0.01,K,D*26
$GPHDT,,T*1B
$GPTHS,,V*0E
$GPROT,,V*08
$PSSN,HRP,141627.00,010125,,,,,,,00,0,,*66
$PTNL,AVR,141627.00,,Yaw,,Tilt,,,,0,,00*30
$GPGSA,A,3,11,12,25,28,29,31,32,,,,,,1.1,0.7,0.8*3B
$GPGSA,A,3,69,77,78,79,81,87,88,,,,,,1.1,0.7,0.8*35
$GPGSA,A,3,29,30,,,,,,,,,,,1.1,0.7,0.8*35
$GPGSA,A,3,05,12,23,24,25,32,44,,,,,,1.1,0.7,0.8*3A
$GPGST,141627.00,8.336,1.707,1.054,351.906,1.697,1.071,3.095*56
$GPGBS,141627.00,6.900,4.007,12.325,81,0.0001,20.747,6.577*5E
$GPGRS,141627.00,1,-0.7,0.2,0.6,-0.8,-0.5,-0.1,-1.2,,,,,*46
$GPGRS,141627.00,1,7.1,-7.3,-1.1,0.7,20.7,4.6,0.8,,,,,*5D
$GPGRS,141627.00,1,0.5,-1.5,,,,,,,,,,*65
$GPGRS,141627.00,1,0.6,-1.3,22.9,-1.6,-1.6,-3.6,-1.7,,,,,*74
$GPGSV,4,1,14,25,76,314,47,06,21,042,32,24,20,158,27,32,25,263,35*72
$GPGSV,4,2,14,28,33,309,40,29,46,221,44,11,39,081,45,12,56,081,44*7D
$GPGSV,4,3,14,31,08,316,36,20,01,101,,36,35,170,36,34,31,208,36*79
$GPGSV,4,4,14,49,34,195,37,61,03,257,*7B
$GLGSV,3,1,09,78,75,017,47,69,18,290,37,81,15,187,35,77,28,109,39*62
$GLGSV,3,2,09,79,30,309,49,87,39,040,43,88,61,145,52,68,04,245,*68
$GLGSV,3,3,09,70,09,351,*55
$GAGSV,3,1,10,30,74,060,47,19,13,327,34,15,16,162,22,02,22,090,24*6E
$GAGSV,3,2,10,07,21,224,28,29,30,282,41,36,27,048,36,18,36,063,*67
$GAGSV,3,3,10,34,41,110,27,27,46,285,25*61
$GBGSV,6,1,21,12,65,139,47,35,19,045,28,23,10,302,39,43,20,226,*6A
$GBGSV,6,2,21,38,11,074,,05,20,130,35,11,29,201,,10,17,066,*68
$GBGSV,6,3,21,56,23,054,,34,47,186,29,24,59,126,48,25,61,299,47*6C
$GBGSV,6,4,21,44,59,080,48,26,10,124,,02,05,108,,13,07,095,*67
$GBGSV,6,5,21,41,02,268,20,08,08,087,,32,06,317,40,07,04,064,*6A
$GBGSV,6,6,21,60,09,110,*57
$GPGGA,141627.00,,,,,0,00,,,M,,M,,*4F
$PTNL,GGK,141627.00,010125,4742.4457383,N,01617.9738449,E,1,23,1.1,EHT669.8161,M*49
$GPGGQ,141627.00,010125,4742.4457383,N,01617.9738449,E,1,23,3.688,626.6051,M*35
$GPGFA,141627.00,16.231,25.378,1.707,1.054,351.906,3.095,,VVV*0E
$GPLLK,141627.00,010125,,M,,M,1,23,1.2,,M*0E
