$GPZDA,021442.00,01,01,2025,,*62
$GPDTM,W84,,00.0000000,N,00.0000000,E,00.0000000,W84*5F
$GPRMC,021442.00,A,4742.4462904,N,01617.9733792,E,0.0,,010125,5.1,E,D*13
$GPGLL,4742.4462904,N,01617.9733792,E,021442.00,A,D*62
$GPGGA,021442.00,4742.4462904,N,01617.9733792,E,2,24,0.6,624.4061,M,43.2111,M,2.6,0123*4C
$GNGNS,021442.00,4742.4462904,N,01617.9733792,E,DAAA,24,0.6,624.4061,43.2111,,*54
$GPGNS,021442.00,,,,,,07,,,,2.6,123*7F
$GLGNS,021442.00,,,,,,03,,,,,*7D
$GAGNS,021442.00,,,,,,06,,,,,*75
$GBGNS,021442.00,,,,,,08,,,,,*78
$GPLLQ,021442.00,010125,,M,,M,1,24,1.541,,M*17
$GPVTG,,T,,M,0.00,N,0.00,K,D*26
$GPHDT,,T*1B
$GPTHS,,V*0E
$GPROT,,V*08
$PSSN,HRP,021442.00,010125,,,,,,,00,0,,*60
$PTNL,AVR,021442.00,,Yaw,,Tilt,,,,0,,00*36
$GPGSA,A,3,02,03,04,06,17,19,31,,,,,,1.2,0.6,1.0*39
$GPGSA,A,3,71,85,86,,,,,,,,,,1.2,0.6,1.0*33
$GPGSA,A,3,04,06,09,11,34,36,,,,,,,1.2,0.6,1.0*3F
$GPGSA,A,3,05,09,16,19,20,35,39,44,,,,,1.2,0.6,1.0*3B
$GPGST,021442.00,4.542,0.653,0.512,7.146,0.651,0.514,1.299*52
$GPGBS,021442.00,3.510,2.798,6.814,02,0.0001,-1.311,0.757*7F
$GPGRS,021442.00,1,-1.3,0.4,0.2,-1.2,0.6,0.0,0.5,,,,,*65
$GPGRS,021442.00,1,4.1,-0.5,2.0,,,,,,,,,*4E
$GPGRS,021442.00,1,0.4,0.8,0.4,1.0,-0.9,-0.4,,,,,,*4B
$GPGRS,021442.00,1,6.4,-0.3,12.4,-2.3,-0.0,-4.9,6.5,-7.6,,,,*5A
$GPGSV,4,1,15,04,73,209,50,06,28,313,43,28,18,041,23,21,13,154,*7A
$GPGSV,4,2,15,17,28,249,41,19,30,282,44,02,30,160,41,31,33,066,40*7B
$GPGSV,4,3,15,01,35,151,,09,43,227,36,03,69,067,51,36,35,170,40*7C
$GPGSV,4,4,15,34,31,208,,49,34,195,36,61,03,257,*44
$GLGSV,3,1,09,70,69,298,27,78,12,020,33,79,18,071,29,84,21,172,34*68
$GLGSV,3,2,09,71,26,253,39,86,38,320,45,69,30,050,31,85,64,223,47*60
$GLGSV,3,3,09,80,03,119,*5E
$GAGSV,3,1,10,09,82,169,46,18,22,285,,05,30,222,35,10,11,144,*60
$GAGSV,3,2,10,04,40,055,37,34,33,312,45,11,37,150,40,06,67,067,49*65
$GAGSV,3,3,10,36,78,236,47,21,01,027,*60
$GBGSV,5,1,19,48,82,002,,37,20,089,,23,11,040,,44,16,321,36*63
$GBGSV,5,2,19,05,24,128,36,39,24,042,35,16,32,050,38,29,31,199,28*6F
$GBGSV,5,3,19,35,45,277,44,06,33,054,34,09,40,069,37,19,61,270,49*61
$GBGSV,5,4,19,20,63,056,41,22,10,256,,32,09,071,,46,06,140,*6C
$GBGSV,5,5,19,02,08,106,,58,09,124,,60,09,110,*52
$GPGGA,021442.00,,,,,0,00,,,M,,M,,*49
$PTNL,GGK,021442.00,010125,4742.4462904,N,01617.9733792,E,1,24,1.2,EHT667.6171,M*47
$GPGGQ,021442.00,010125,4742.4462904,N,01617.9733792,E,1,24,1.541,624.4061,M*3E
$GPGFA,021442.00,6.208,10.650,0.653,0.512,7.146,1.299,,VVV*3D
$GPLLK,021442.00,010125,,M,,M,1,24,1.3,,M*0E
$GNGMP,021442.00,,,,,DAAA,24,0.6,,,,*57
$GPGMP,021442.00,,,,,,07,,,,2.6,123*7F
$GLGMP,021442.00,,,,,,03,,,,,*7D
$GAGMP,021442.00,,,,,,06,,,,,*75
$GBGMP,021442.00,,,,,,08,,,,,*78
$PSSN,SNC,[0,267300000,2347]*44
$GPZDA,021447.00,01,01,2025,,*67
$GPDTM,W84,,00.0000000,N,00.0000000,E,00.0000000,W84*5F
$GPRMC,021447.00,A,4742.4462855,N,01617.9733779,E,0.0,,010125,5.1,E,D*16
$GPGLL,4742.4462855,N,01617.9733779,E,021447.00,A,D*67
$GPGGA,021447.00,4742.4462855,N,01617.9733779,E,2,25,0.6,624.3995,M,43.2111,M,3.1,0123*4B
$GNGNS,021447.00,4742.4462855,N,01617.9733779,E,DAAA,25,0.6,624.3995,43.2111,,*55
$GPGNS,021447.00,,,,,,08,,,,3.1,123*73
$GLGNS,021447.00,,,,,,03,,,,,*78
$GAGNS,021447.00,,,,,,07,,,,,*71
$GBGNS,021447.00,,,,,,07,,,,,*72
$GPLLQ,021447.00,010125,,M,,M,1,25,1.994,,M*17
$GPVTG,,T,,M,0.00,N,0.01,K,D*27
$GPHDT,,T*1B
$GPTHS,,V*0E
$GPROT,,V*08
$PSSN,HRP,021447.00,010125,,,,,,,00,0,,*65
$PTNL,AVR,021447.00,,Yaw,,Tilt,,,,0,,00*33
$GPGSA,A,3,02,03,04,06,09,17,19,31,,,,,1.2,0.6,1.0*30
$GPGSA,A,3,71,85,86,,,,,,,,,,1.2,0.6,1.0*33
$GPGSA,A,3,04,05,06,09,11,34,36,,,,,,1.2,0.6,1.0*3A
$GPGSA,A,3,05,09,16,19,20,35,44,,,,,,1.2,0.6,1.0*31
$GPGST,021447.00,4.582,0.800,0.635,351.335,0.797,0.639,1.712*52
$GPGBS,021447.00,3.085,2.555,6.504,09,0.0001,-2.194,0.698*79
$GPGRS,021447.00,1,-0.7,0.6,0.4,-0.2,-2.2,0.3,1.1,0.7,,,,*64
$GPGRS,021447.00,1,3.2,-0.6,-0.1,,,,,,,,,*62
$GPGRS,021447.00,1,0.3,9.3,0.9,0.2,1.1,-0.6,-0.1,,,,,*61
$GPGRS,021447.00,1,7.5,0.2,12.0,-2.2,-2.1,-4.6,-6.3,,,,,*53
$GPGSV,4,1,15,04,73,209,50,06,28,313,43,28,18,041,26,21,13,154,*7F
$GPGSV,4,2,15,17,28,249,40,19,30,282,43,02,30,160,41,31,33,066,41*7C
$GPGSV,4,3,15,01,35,151,,09,43,227,40,03,69,067,52,36,35,170,40*7E
$GPGSV,4,4,15,34,31,208,,49,34,195,36,61,03,257,*44
$GLGSV,3,1,09,70,69,298,25,78,12,020,30,79,18,071,28,84,21,172,34*68
$GLGSV,3,2,09,71,26,253,41,86,38,320,42,69,30,050,,85,64,223,48*65
$GLGSV,3,3,09,80,03,119,*5E
$GAGSV,3,1,10,09,82,169,46,18,22,285,,05,30,222,37,10,11,144,*62
$GAGSV,3,2,10,04,40,055,37,34,33,312,46,11,37,150,39,06,67,067,49*68
$GAGSV,3,3,10,36,78,235,47,21,01,027,*63
$GBGSV,5,1,19,48,82,002,,37,20,089,,23,11,040,,44,16,321,36*63
$GBGSV,5,2,19,05,24,128,36,39,24,042,35,16,32,050,38,29,31,199,29*6E
$GBGSV,5,3,19,35,45,277,43,06,33,054,34,09,40,069,38,19,61,270,50*61
$GBGSV,5,4,19,20,63,056,41,22,10,256,22,32,09,071,,46,06,140,*6C
$GBGSV,5,5,19,02,08,106,,58,09,124,,60,09,110,*52
$GPGGA,021447.00,,,,,0,00,,,M,,M,,*4C
$PTNL,GGK,021447.00,010125,4742.4462855,N,01617.9733779,E,1,25,1.2,EHT667.6106,M*43
$GPGGQ,021447.00,010125,4742.4462855,N,01617.9733779,E,1,25,1.994,624.3995,M*3B
$GPGFA,021447.00,7.610,14.041,0.800,0.635,351.335,1.712,,VVV*38
$GPLLK,021447.00,010125,,M,,M,1,25,1.3,,M*0A
$GNGMP,021447.00,,,,,DAAA,25,0.6,,,,*53
$GPGMP,021447.00,,,,,,08,,,,3.1,123*73
$GLGMP,021447.00,,,,,,03,,,,,*78
$GAGMP,021447.00,,,,,,07,,,,,*71
$GBGMP,021447.00,,,,,,07,,,,,*72
$PSSN,SNC,[0,267305000,2347]*41
$GPZDA,021452.00,01,01,2025,,*63
$GPDTM,W84,,00.0000000,N,00.0000000,E,00.0000000,W84*5F
$GPRMC,021452.00,A,4742.4462749,N,01617.9733653,E,0.0,,010125,5.1,E,D*19
$GPGLL,4742.4462749,N,01617.9733653,E,021452.00,A,D*68
$GPGGA,021452.00,4742.4462749,N,01617.9733653,E,2,24,0.6,624.4037,M,43.2111,M,1.7,0123*47
$GNGNS,021452.00,4742.4462749,N,01617.9733653,E,DAAA,24,0.6,624.4037,43.2111,,*5D
$GPGNS,021452.00,,,,,,07,,,,1.7,123*7C
$GLGNS,021452.00,,,,,,03,,,,,*7C
$GAGNS,021452.00,,,,,,07,,,,,*75
$GBGNS,021452.00,,,,,,07,,,,,*76
$GPLLQ,021452.00,010125,,M,,M,1,24,1.454,,M*13
$GPVTG,,T,,M,0.00,N,0.01,K,D*27
$GPHDT,,T*1B
$GPTHS,,V*0E
$GPROT,,V*08
$PSSN,HRP,021452.00,010125,,,,,,,00,0,,*61
$PTNL,AVR,021452.00,,Yaw,,Tilt,,,,0,,00*37
$GPGSA,A,3,02,03,04,06,17,19,31,,,,,,1.2,0.6,1.0*39
$GPGSA,A,3,71,85,86,,,,,,,,,,1.2,0.6,1.0*33
$GPGSA,A,3,04,05,06,09,11,34,36,,,,,,1.2,0.6,1.0*3A
$GPGSA,A,3,05,09,16,19,20,35,44,,,,,,1.2,0.6,1.0*31
$GPGST,021452.00,4.597,0.614,0.481,4.514,0.614,0.482,1.227*59
$GPGBS,021452.00,3.434,2.718,6.516,16,0.0001,11.772,8.596*61
$GPGRS,021452.00,1,-0.8,-0.0,0.0,0.2,-0.8,0.7,0.8,,,,,*40
$GPGRS,021452.00,1,3.2,0.0,-7.5,,,,,,,,,*4E
$GPGRS,021452.00,1,-0.7,1.8,0.5,-0.0,0.6,-0.7,-0.3,,,,,*69
$GPGRS,021452.00,1,7.0,-0.7,11.8,-2.4,-4.2,-5.1,-6.9,,,,,*7E
$GPGSV,4,1,15,04,73,209,49,06,28,313,43,28,18,041,30,21,13,154,*70
$GPGSV,4,2,15,17,28,249,41,19,30,281,43,02,30,160,42,31,33,066,41*7D
$GPGSV,4,3,15,01,35,151,,09,43,227,34,03,69,068,52,36,35,170,40*72
$GPGSV,4,4,15,34,31,208,,49,34,195,36,61,03,257,*44
$GLGSV,3,1,09,70,69,299,,78,12,020,,79,18,071,28,84,21,172,33*6A
$GLGSV,3,2,09,71,26,253,43,86,38,320,40,69,30,050,33,85,64,223,48*65
$GLGSV,3,3,09,80,03,119,*5E
$GAGSV,3,1,10,09,82,169,45,18,22,285,,05,30,222,38,10,11,144,*6E
$GAGSV,3,2,10,04,40,055,37,34,33,312,46,11,37,150,39,06,67,067,49*68
$GAGSV,3,3,10,36,78,235,47,21,01,027,*63
$GBGSV,5,1,19,48,82,002,,37,20,089,,23,11,040,,44,16,321,36*63
$GBGSV,5,2,19,05,24,128,35,39,24,042,34,16,32,050,37,29,31,199,29*63
$GBGSV,5,3,19,35,45,277,44,06,33,054,33,09,40,069,38,19,61,270,51*60
$GBGSV,5,4,19,20,63,056,42,22,10,256,26,32,09,071,,46,06,140,*6B
$GBGSV,5,5,19,02,08,106,,58,10,124,,60,09,110,*5A
$GPGGA,021452.00,,,,,0,00,,,M,,M,,*48
$PTNL,GGK,021452.00,010125,4742.4462749,N,01617.9733653,E,1,24,1.2,EHT667.6148,M*47
$GPGGQ,021452.00,010125,4742.4462749,N,01617.9733653,E,1,24,1.454,624.4037,M*32
$GPGFA,021452.00,5.841,10.058,0.614,0.481,4.514,1.227,,VVV*3B
$GPLLK,021452.00,010125,,M,,M,1,24,1.3,,M*0F
$GNGMP,021452.00,,,,,DAAA,24,0.6,,,,*56
$GPGMP,021452.00,,,,,,07,,,,1.7,123*7C
$GLGMP,021452.00,,,,,,03,,,,,*7C
$GAGMP,021452.00,,,,,,07,,,,,*75
$GBGMP,021452.00,,,,,,07,,,,,*76
$PSSN,SNC,[0,267310000,2347]*45
$GPZDA,021457.00,01,01,2025,,*66
$GPDTM,W84,,00.0000000,N,00.0000000,E,00.0000000,W84*5F
$GPRMC,021457.00,A,4742.4462668,N,01617.9733641,E,0.0,,010125,5.1,E,D*1D
$GPGLL,4742.4462668,N,01617.9733641,E,021457.00,A,D*6C
$GPGGA,021457.00,4742.4462668,N,01617.9733641,E,2,22,0.7,624.4030,M,43.2111,M,2.7,0123*40
$GNGNS,021457.00,4742.4462668,N,01617.9733641,E,DAAA,22,0.7,624.4030,43.2111,,*59
$GPGNS,021457.00,,,,,,07,,,,2.7,123*7A
$GLGNS,021457.00,,,,,,02,,,,,*78
$GAGNS,021457.00,,,,,,07,,,,,*70
$GBGNS,021457.00,,,,,,06,,,,,*72
$GPLLQ,021457.00,010125,,M,,M,1,22,1.649,,M*1E
$GPVTG,,T,,M,0.00,N,0.00,K,D*26
$GPHDT,,T*1B
$GPTHS,,V*0E
$GPROT,,V*08
$PSSN,HRP,021457.00,010125,,,,,,,00,0,,*64
$PTNL,AVR,021457.00,,Yaw,,Tilt,,,,0,,00*32
$GPGSA,A,3,02,03,04,06,17,19,31,,,,,,1.3,0.7,1.1*38
$GPGSA,A,3,71,85,,,,,,,,,,,1.3,0.7,1.1*3C
$GPGSA,A,3,04,05,06,09,11,34,36,,,,,,1.3,0.7,1.1*3B
$GPGSA,A,3,09,16,19,20,35,44,,,,,,,1.3,0.7,1.1*35
$GPGST,021457.00,4.603,0.701,0.555,6.707,0.699,0.557,1.386*5B
$GPGBS,021457.00,3.527,2.776,6.661,02,0.0001,-1.295,0.742*7A
$GPGRS,021457.00,1,-1.3,-0.1,0.2,0.2,-0.6,0.6,0.9,,,,,*42
$GPGRS,021457.00,1,4.8,1.4,,,,,,,,,,*42
$GPGRS,021457.00,1,-0.4,4.6,0.3,-0.1,0.2,-0.8,-0.3,,,,,*68
$GPGRS,021457.00,1,-0.5,13.2,-2.2,-5.5,-5.1,-5.6,,,,,,*54
$GPGSV,4,1,15,04,73,209,49,06,28,313,43,28,18,041,31,21,13,154,*71
$GPGSV,4,2,15,17,28,249,39,19,30,281,42,02,30,160,43,31,33,066,40*73
$GPGSV,4,3,15,01,35,151,,09,43,227,35,03,69,068,52,36,35,170,39*7D
$GPGSV,4,4,15,34,31,208,,49,34,195,36,61,03,257,*44
$GLGSV,3,1,09,70,69,299,23,78,12,020,25,79,18,071,,84,21,172,32*67
$GLGSV,3,2,09,71,26,253,44,86,38,320,34,69,30,050,,85,64,223,48*61
$GLGSV,3,3,09,80,03,119,*5E
$GAGSV,3,1,10,09,82,168,45,18,22,285,,05,30,223,38,10,11,144,*6E
$GAGSV,3,2,10,04,40,055,37,34,33,312,46,11,37,150,37,06,67,067,49*66
$GAGSV,3,3,10,36,78,235,47,21,01,027,*63
$GBGSV,5,1,19,48,82,002,,37,20,089,,23,11,039,,44,16,321,38*63
$GBGSV,5,2,19,05,24,128,35,39,24,042,33,16,32,050,37,29,31,199,29*64
$GBGSV,5,3,19,35,45,277,43,06,33,054,32,09,40,069,38,19,61,270,52*65
$GBGSV,5,4,19,20,63,056,42,22,10,256,26,32,09,071,,46,06,140,*6B
$GBGSV,5,5,19,02,08,106,,58,10,124,,60,09,110,*5A
$GPGGA,021457.00,,,,,0,00,,,M,,M,,*4D
$PTNL,GGK,021457.00,010125,4742.4462668,N,01617.9733641,E,1,22,1.3,EHT667.6140,M*4C
$GPGGQ,021457.00,010125,4742.4462668,N,01617.9733641,E,1,22,1.649,624.4030,M*39
$GPGFA,021457.00,6.666,11.362,0.701,0.555,6.707,1.386,,VVV*38
$GPLLK,021457.00,010125,,M,,M,1,22,1.5,,M*0A
$GNGMP,021457.00,,,,,DAAA,22,0.7,,,,*54
$GPGMP,021457.00,,,,,,07,,,,2.7,123*7A
$GLGMP,021457.00,,,,,,02,,,,,*78
$GAGMP,021457.00,,,,,,07,,,,,*70
$GBGMP,021457.00,,,,,,06,,,,,*72
$PSSN,SNC,[0,267315000,2347]*40
$GPZDA,021502.00,01,01,2025,,*67
$GPDTM,W84,,00.0000000,N,00.0000000,E,00.0000000,W84*5F
$GPRMC,021502.00,A,4742.4462560,N,01617.9733639,E,0.0,,010125,5.1,E,D*18
$GPGLL,4742.4462560,N,01617.9733639,E,021502.00,A,D*69
$GPGGA,021502.00,4742.4462560,N,01617.9733639,E,2,23,0.6,624.3969,M,43.2111,M,2.9,0123*49
$GNGNS,021502.00,4742.4462560,N,01617.9733639,E,DAAA,23,0.6,624.3969,43.2111,,*5E
$GPGNS,021502.00,,,,,,07,,,,2.9,123*75
$GLGNS,021502.00,,,,,,02,,,,,*79
$GAGNS,021502.00,,,,,,07,,,,,*71
$GBGNS,021502.00,,,,,,07,,,,,*72
$GPLLQ,021502.00,010125,,M,,M,1,23,1.762,,M*16
$GPVTG,,T,,M,0.00,N,0.00,K,D*26
$GPHDT,,T*1B
$GPTHS,,V*0E
$GPROT,,V*08
$PSSN,HRP,021502.00,010125,,,,,,,00,0,,*65
$PTNL,AVR,021502.00,,Yaw,,Tilt,,,,0,,00*33
$GPGSA,A,3,02,03,04,06,09,19,31,,,,,,1.2,0.6,1.1*37
$GPGSA,A,3,71,85,,,,,,,,,,,1.2,0.6,1.1*3C
$GPGSA,A,3,04,05,06,09,11,34,36,,,,,,1.2,0.6,1.1*3B
$GPGSA,A,3,09,16,19,20,35,39,44,,,,,,1.2,0.6,1.1*3F
$GPGST,021502.00,5.233,0.704,0.579,355.341,0.703,0.580,1.508*5C
$GPGBS,021502.00,3.231,2.671,6.371,02,0.0001,-1.608,0.758*72
$GPGRS,021502.00,1,-1.6,0.1,0.4,0.2,0.1,0.3,0.9,,,,,*42
$GPGRS,021502.00,1,5.4,1.9,,,,,,,,,,*43
$GPGRS,021502.00,1,-0.1,8.0,0.1,0.0,-0.1,-0.8,-0.3,,,,,*66
$GPGRS,021502.00,1,-1.2,12.9,-2.3,-5.4,-4.7,9.9,-3.9,,,,,*79
$GPGSV,4,1,15,04,73,209,49,06,28,313,43,28,18,041,30,21,13,154,20*72
$GPGSV,4,2,15,17,28,249,35,19,30,281,43,02,30,160,43,31,33,066,43*7D
$GPGSV,4,3,15,01,35,151,,09,43,227,37,03,68,068,52,36,35,170,38*7F
$GPGSV,4,4,15,34,31,208,,49,34,195,35,61,03,257,*47
$GLGSV,3,1,09,70,69,299,27,78,12,020,25,79,18,071,37,84,21,172,31*64
$GLGSV,3,2,09,71,26,253,45,86,38,320,31,69,30,050,36,85,64,223,48*60
$GLGSV,3,3,09,80,03,119,*5E
$GAGSV,3,1,10,09,82,168,45,18,22,285,,05,30,223,37,10,11,144,*61
$GAGSV,3,2,10,04,40,055,38,34,33,312,46,11,37,150,37,06,67,067,49*69
$GAGSV,3,3,10,36,78,235,47,21,01,027,*63
$GBGSV,5,1,19,48,82,002,,37,20,089,,44,16,321,39,23,11,039,*62
$GBGSV,5,2,19,05,24,128,35,39,24,042,36,16,32,050,37,29,31,199,28*60
$GBGSV,5,3,19,35,45,277,41,06,33,054,33,09,40,069,38,19,61,270,52*66
$GBGSV,5,4,19,20,63,056,42,32,09,071,,22,10,256,26,46,06,140,*6B
$GBGSV,5,5,19,02,08,106,,58,10,124,,60,09,110,*5A
$GPGGA,021502.00,,,,,0,00,,,M,,M,,*4C
$PTNL,GGK,021502.00,010125,4742.4462560,N,01617.9733639,E,1,23,1.2,EHT667.6079,M*42
$GPGGQ,021502.00,010125,4742.4462560,N,01617.9733639,E,1,23,1.762,624.3969,M*37
$GPGFA,021502.00,6.690,12.367,0.704,0.579,355.341,1.508,,VVV*3E
$GPLLK,021502.00,010125,,M,,M,1,23,1.4,,M*0B
$GNGMP,021502.00,,,,,DAAA,23,0.6,,,,*55
$GPGMP,021502.00,,,,,,07,,,,2.9,123*75
$GLGMP,021502.00,,,,,,02,,,,,*79
$GAGMP,021502.00,,,,,,07,,,,,*71
$GBGMP,021502.00,,,,,,07,,,,,*72
$PSSN,SNC,[0,267320000,2347]*46
$GPZDA,021507.00,01,01,2025,,*62
$GPDTM,W84,,00.0000000,N,00.0000000,E,00.0000000,W84*5F
$GPRMC,021507.00,A,4742.4462487,N,01617.9733649,E,0.0,,010125,5.1,E,D*12
$GPGLL,4742.4462487,N,01617.9733649,E,021507.00,A,D*63
$GPGGA,021507.00,4742.4462487,N,01617.9733649,E,2,22,0.7,624.3827,M,43.2111,M,3.1,0123*41
$GNGNS,021507.00,4742.4462487,N,01617.9733649,E,DAAA,22,0.7,624.3827,43.2111,,*5F
$GPGNS,021507.00,,,,,,08,,,,3.1,123*76
$GLGNS,021507.00,,,,,,02,,,,,*7C
$GAGNS,021507.00,,,,,,06,,,,,*75
$GBGNS,021507.00,,,,,,06,,,,,*76
$GPLLQ,021507.00,010125,,M,,M,1,22,2.233,,M*10
$GPVTG,,T,,M,0.01,N,0.02,K,D*25
$GPHDT,,T*1B
$GPTHS,,V*0E
$GPROT,,V*08
$PSSN,HRP,021507.00,010125,,,,,,,00,0,,*60
$PTNL,AVR,021507.00,,Yaw,,Tilt,,,,0,,00*36
$GPGSA,A,3,02,03,04,06,09,17,19,31,,,,,1.3,0.7,1.1*31
$GPGSA,A,3,71,85,,,,,,,,,,,1.3,0.7,1.1*3C
$GPGSA,A,3,04,05,06,09,34,36,,,,,,,1.3,0.7,1.1*3B
$GPGSA,A,3,06,09,19,20,35,44,,,,,,,1.3,0.7,1.1*34
$GPGST,021507.00,3.539,0.903,0.710,350.889,0.898,0.715,1.915*5F
$GPGBS,021507.00,3.164,2.556,6.526,02,0.0001,-1.951,0.777*78
$GPGRS,021507.00,1,-2.0,-0.3,0.4,-0.0,1.6,-1.8,0.6,1.1,,,,*42
$GPGRS,021507.00,1,5.7,1.4,,,,,,,,,,*48
$GPGRS,021507.00,1,-0.2,8.3,-0.1,0.0,-1.2,-0.9,,,,,,*4D
$GPGRS,021507.00,1,-1.1,-1.2,-2.6,-5.2,-4.7,-3.6,,,,,,*49
$GPGSV,4,1,15,04,73,209,49,06,28,313,44,28,18,041,,21,13,154,*74
$GPGSV,4,2,15,17,28,249,37,19,30,281,44,02,30,160,41,31,33,066,45*7C
$GPGSV,4,3,15,01,35,151,,09,43,228,39,03,68,068,52,36,35,170,38*7E
$GPGSV,4,4,15,34,31,208,,49,34,195,34,61,03,257,*46
$GLGSV,3,1,09,70,69,299,30,78,12,020,23,79,18,071,33,84,21,172,32*63
$GLGSV,3,2,09,71,26,253,45,86,38,320,36,69,30,050,30,85,64,223,48*61
$GLGSV,3,3,09,80,03,119,*5E
$GAGSV,3,1,10,09,82,168,45,18,22,285,,05,30,223,35,10,11,145,*62
$GAGSV,3,2,10,04,40,055,38,34,33,312,45,11,37,150,35,06,67,067,49*68
$GAGSV,3,3,10,36,78,235,47,21,01,027,*63
$GBGSV,5,1,19,48,82,003,,37,20,089,,44,16,321,40,23,11,039,*6D
$GBGSV,5,2,19,05,24,128,35,39,24,042,34,16,31,050,34,29,31,199,*68
$GBGSV,5,3,19,35,45,277,42,06,33,054,35,09,40,069,38,19,61,270,52*63
$GBGSV,5,4,19,20,63,056,42,32,09,071,,22,10,256,24,46,06,140,*69
$GBGSV,5,5,19,02,08,106,,58,10,124,,60,09,110,*5A
$GPGGA,021507.00,,,,,0,00,,,M,,M,,*49
$PTNL,GGK,021507.00,010125,4742.4462487,N,01617.9733649,E,1,22,1.3,EHT667.5938,M*47
$GPGGQ,021507.00,010125,4742.4462487,N,01617.9733649,E,1,22,2.233,624.3827,M*35
$GPGFA,021507.00,8.583,15.705,0.903,0.710,350.889,1.915,,VVV*3D
$GPLLK,021507.00,010125,,M,,M,1,22,1.5,,M*0E
$GNGMP,021507.00,,,,,DAAA,22,0.7,,,,*50
$GPGMP,021507.00,,,,,,08,,,,3.1,123*76
$GLGMP,021507.00,,,,,,02,,,,,*7C
$GAGMP,021507.00,,,,,,06,,,,,*75
$GBGMP,021507.00,,,,,,06,,,,,*76
$PSSN,SNC,[0,267325000,2347]*43
$GPZDA,021512.00,01,01,2025,,*66
$GPDTM,W84,,00.0000000,N,00.0000000,E,00.0000000,W84*5F
$GPRMC,021512.00,A,4742.4462386,N,01617.9733772,E,0.0,,010125,5.1,E,D*19
$GPGLL,4742.4462386,N,01617.9733772,E,021512.00,A,D*68
$GPGGA,021512.00,4742.4462386,N,01617.9733772,E,2,22,0.7,624.3737,M,43.2110,M,1.6,0123*40
$GNGNS,021512.00,4742.4462386,N,01617.9733772,E,DAAA,22,0.7,624.3737,43.2110,,*5B
$GPGNS,021512.00,,,,,,08,,,,1.6,123*77
$GLGNS,021512.00,,,,,,03,,,,,*79
$GAGNS,021512.00,,,,,,05,,,,,*72
$GBGNS,021512.00,,,,,,06,,,,,*72
$GPLLQ,021512.00,010125,,M,,M,1,22,2.014,,M*13
$GPVTG,,T,,M,0.00,N,0.00,K,D*26
$GPHDT,,T*1B
$GPTHS,,V*0E
$GPROT,,V*08
$PSSN,HRP,021512.00,010125,,,,,,,00,0,,*64
$PTNL,AVR,021512.00,,Yaw,,Tilt,,,,0,,00*32
$GPGSA,A,3,02,03,04,06,09,17,19,31,,,,,1.3,0.7,1.1*31
$GPGSA,A,3,71,85,86,,,,,,,,,,1.3,0.7,1.1*32
$GPGSA,A,3,04,06,09,34,36,,,,,,,,1.3,0.7,1.1*3E
$GPGSA,A,3,06,09,19,20,35,44,,,,,,,1.3,0.7,1.1*34
$GPGST,021512.00,2.925,0.817,0.645,349.928,0.812,0.651,1.724*53
$GPGBS,021512.00,3.000,2.462,6.202,02,0.0001,-2.347,0.734*71
$GPGRS,021512.00,1,-2.3,-0.5,-0.1,-0.4,0.9,1.1,1.6,0.8,,,,*4C
$GPGRS,021512.00,1,4.4,1.0,-3.0,,,,,,,,,*4A
$GPGRS,021512.00,1,-0.9,-0.4,-0.1,-1.9,-1.3,,,,,,,*4E
$GPGRS,021512.00,1,1.1,-1.5,-2.7,-6.8,-4.3,-2.3,,,,,,*6F
$GPGSV,4,1,15,04,73,209,49,06,28,313,45,28,18,041,28,21,13,154,21*7C
$GPGSV,4,2,15,17,28,249,40,19,30,281,45,02,30,160,41,31,33,066,46*7E
$GPGSV,4,3,15,01,35,151,,09,43,228,37,03,68,068,52,36,35,170,38*70
$GPGSV,4,4,15,34,31,208,,49,34,195,33,61,03,257,*41
$GLGSV,3,1,09,70,69,299,31,78,12,020,36,79,18,070,28,84,20,172,33*6D
$GLGSV,3,2,09,71,26,253,46,86,38,320,38,69,30,050,34,85,64,223,47*67
$GLGSV,3,3,09,80,03,119,*5E
$GAGSV,3,1,10,09,82,168,46,18,22,285,,05,30,223,34,10,11,145,*60
$GAGSV,3,2,10,04,40,055,39,34,33,312,45,11,37,150,33,06,67,067,48*6E
$GAGSV,3,3,10,36,78,235,46,21,01,027,*62
$GBGSV,5,1,19,48,82,003,,37,20,089,,44,16,321,41,23,11,039,*6C
$GBGSV,5,2,19,05,24,128,35,39,24,042,34,16,31,050,33,29,31,199,33*6F
$GBGSV,5,3,19,35,45,277,43,06,33,054,35,09,40,069,38,19,61,270,52*62
$GBGSV,5,4,19,20,63,056,41,32,09,071,,22,10,256,26,46,06,140,*68
$GBGSV,5,5,19,02,08,106,,58,10,124,,60,09,110,*5A
$GPGGA,021512.00,,,,,0,00,,,M,,M,,*4D
$PTNL,GGK,021512.00,010125,4742.4462386,N,01617.9733772,E,1,22,1.3,EHT667.5847,M*45
$GPGGQ,021512.00,010125,4742.4462386,N,01617.9733772,E,1,22,2.014,624.3737,M*37
$GPGFA,021512.00,7.766,14.135,0.817,0.645,349.928,1.724,,VVV*30
$GPLLK,021512.00,010125,,M,,M,1,22,1.6,,M*09
$GNGMP,021512.00,,,,,DAAA,22,0.7,,,,*54
$GPGMP,021512.00,,,,,,08,,,,1.6,123*77
$GLGMP,021512.00,,,,,,03,,,,,*79
$GAGMP,021512.00,,,,,,05,,,,,*72
$GBGMP,021512.00,,,,,,06,,,,,*72
$PSSN,SNC,[0,267330000,2347]*47
$GPZDA,021517.00,01,01,2025,,*63
$GPDTM,W84,,00.0000000,N,00.0000000,E,00.0000000,W84*5F
$GPRMC,021517.00,A,4742.4462306,N,01617.9734020,E,0.0,,010125,5.1,E,D*13
$GPGLL,4742.4462306,N,01617.9734020,E,021517.00,A,D*62
$GPGGA,021517.00,4742.4462306,N,01617.9734020,E,2,22,0.7,624.3895,M,43.2111,M,2.7,0123*4E
$GNGNS,021517.00,4742.4462306,N,01617.9734020,E,DAAA,22,0.7,624.3895,43.2111,,*57
$GPGNS,021517.00,,,,,,07,,,,2.7,123*7F
$GLGNS,021517.00,,,,,,03,,,,,*7C
$GAGNS,021517.00,,,,,,05,,,,,*77
$GBGNS,021517.00,,,,,,07,,,,,*76
$GPLLQ,021517.00,010125,,M,,M,1,22,2.386,,M*1E
$GPVTG,,T,,M,0.01,N,0.01,K,D*26
$GPHDT,,T*1B
$GPTHS,,V*0E
$GPROT,,V*08
$PSSN,HRP,021517.00,010125,,,,,,,00,0,,*61
$PTNL,AVR,021517.00,,Yaw,,Tilt,,,,0,,00*37
$GPGSA,A,3,02,03,04,06,17,19,31,,,,,,1.3,0.7,1.1*38
$GPGSA,A,3,71,85,86,,,,,,,,,,1.3,0.7,1.1*32
$GPGSA,A,3,04,06,09,34,36,,,,,,,,1.3,0.7,1.1*3E
$GPGSA,A,3,06,09,19,20,29,35,44,,,,,,1.3,0.7,1.1*3F
$GPGST,021517.00,2.675,1.015,0.800,5.892,1.013,0.803,2.006*56
$GPGBS,021517.00,3.537,2.767,6.676,19,0.0001,3.135,0.813*5F
$GPGRS,021517.00,1,-2.1,-0.5,-0.3,-0.9,1.0,3.1,0.4,,,,,*6B
$GPGRS,021517.00,1,3.1,0.9,-2.2,,,,,,,,,*46
$GPGRS,021517.00,1,-1.4,-0.3,-0.6,-2.0,-1.4,,,,,,,*4A
$GPGRS,021517.00,1,0.4,-1.4,-2.7,-5.6,0.5,-4.9,-1.3,,,,,*40
$GPGSV,4,1,15,04,73,209,49,06,28,313,45,28,18,041,31,21,13,154,*77
$GPGSV,4,2,15,17,28,249,40,19,30,281,47,02,30,160,43,31,33,066,46*7E
$GPGSV,4,3,15,01,35,151,,09,43,228,35,03,68,068,52,36,35,170,39*73
$GPGSV,4,4,15,34,31,208,,49,34,195,32,61,03,257,*40
$GLGSV,3,1,09,70,69,299,30,78,12,020,35,79,18,070,,84,20,172,34*62
$GLGSV,3,2,09,71,26,253,46,86,38,320,37,69,30,050,35,85,64,222,48*67
$GLGSV,3,3,09,80,03,119,*5E
$GAGSV,3,1,10,09,82,168,45,18,22,285,,05,30,223,33,10,11,145,*64
$GAGSV,3,2,10,04,40,055,38,34,33,312,45,11,37,150,32,06,66,067,48*6F
$GAGSV,3,3,10,36,78,234,47,21,01,027,*62
$GBGSV,5,1,19,48,82,003,,37,20,089,,44,16,321,41,23,11,039,*6C
$GBGSV,5,2,19,05,24,128,35,39,24,042,34,16,31,050,34,29,31,199,37*6C
$GBGSV,5,3,19,35,45,277,44,06,33,054,36,09,40,069,39,19,61,270,52*67
$GBGSV,5,4,19,20,62,056,40,32,09,071,,22,10,256,30,46,06,140,*6F
$GBGSV,5,5,19,02,08,106,,58,10,124,,60,09,110,*5A
$GPGGA,021517.00,,,,,0,00,,,M,,M,,*48
$PTNL,GGK,021517.00,010125,4742.4462306,N,01617.9734020,E,1,22,1.3,EHT667.6006,M*41
$GPGGQ,021517.00,010125,4742.4462306,N,01617.9734020,E,1,22,2.386,624.3895,M*32
$GPGFA,021517.00,9.647,16.446,1.015,0.800,5.892,2.006,,VVV*31
$GPLLK,021517.00,010125,,M,,M,1,22,1.5,,M*0F
$GNGMP,021517.00,,,,,DAAA,22,0.7,,,,*51
$GPGMP,021517.00,,,,,,07,,,,2.7,123*7F
$GLGMP,021517.00,,,,,,03,,,,,*7C
$GAGMP,021517.00,,,,,,05,,,,,*77
$GBGMP,021517.00,,,,,,07,,,,,*76
$PSSN,SNC,[0,267335000,2347]*42
$GPZDA,021522.00,01,01,2025,,*65
$GPDTM,W84,,00.0000000,N,00.0000000,E,00.0000000,W84*5F
$GPRMC,021522.00,A,4742.4462297,N,01617.9734063,E,0.0,,010125,5.1,E,D*1B
$GPGLL,4742.4462297,N,01617.9734063,E,021522.00,A,D*6A
$GPGGA,021522.00,4742.4462297,N,01617.9734063,E,2,23,0.6,624.3865,M,43.2111,M,2.9,0123*47
$GNGNS,021522.00,4742.4462297,N,01617.9734063,E,DAAA,23,0.6,624.3865,43.2111,,*50
$GPGNS,021522.00,,,,,,07,,,,2.9,123*77
$GLGNS,021522.00,,,,,,04,,,,,*7D
$GAGNS,021522.00,,,,,,05,,,,,*71
$GBGNS,021522.00,,,,,,07,,,,,*70
$GPLLQ,021522.00,010125,,M,,M,1,23,1.120,,M*14
$GPVTG,,T,,M,0.00,N,0.00,K,D*26
$GPHDT,,T*1B
$GPTHS,,V*0E
$GPROT,,V*08
$PSSN,HRP,021522.00,010125,,,,,,,00,0,,*67
$PTNL,AVR,021522.00,,Yaw,,Tilt,,,,0,,00*31
$GPGSA,A,3,02,03,04,06,09,17,31,,,,,,1.3,0.6,1.1*38
$GPGSA,A,3,69,71,85,86,,,,,,,,,1.3,0.6,1.1*3C
$GPGSA,A,3,04,06,09,34,36,,,,,,,,1.3,0.6,1.1*3F
$GPGSA,A,3,06,09,19,20,29,35,44,,,,,,1.3,0.6,1.1*3E
$GPGST,021522.00,2.455,0.473,0.363,335.890,0.456,0.383,0.949*5E
$GPGBS,021522.00,3.249,2.481,6.438,02,0.0001,-0.950,0.759*7A
$GPGRS,021522.00,1,-1.0,-0.1,0.3,-0.7,0.3,0.7,0.3,,,,,*48
$GPGRS,021522.00,1,-1.2,2.2,2.2,-0.7,,,,,,,,*4C
$GPGRS,021522.00,1,-0.5,-0.0,-0.4,-1.7,-0.9,,,,,,,*45
$GPGRS,021522.00,1,2.0,-0.6,-2.2,-5.7,2.7,-5.2,-1.4,,,,,*4A
$GPGSV,4,1,15,04,73,209,48,06,28,313,45,28,18,041,31,21,13,154,22*76
$GPGSV,4,2,15,17,28,249,40,19,30,281,46,02,30,160,42,31,33,066,46*7E
$GPGSV,4,3,15,01,34,151,,09,43,228,36,03,68,068,51,36,35,170,39*72
$GPGSV,4,4,15,34,31,208,,49,34,195,35,61,03,257,*47
$GLGSV,3,1,09,70,69,299,32,78,12,020,32,79,18,070,23,84,20,172,34*66
$GLGSV,3,2,09,71,27,253,45,86,38,320,38,69,30,050,35,85,64,222,49*6B
$GLGSV,3,3,09,80,03,119,*5E
$GAGSV,3,1,10,09,82,168,44,18,22,285,,05,30,223,31,10,10,145,*66
$GAGSV,3,2,10,04,40,055,37,34,33,312,44,11,37,150,30,06,66,067,48*63
$GAGSV,3,3,10,36,78,234,47,21,01,027,*62
$GBGSV,5,1,19,48,82,003,,37,20,089,,44,16,321,42,23,11,039,*6F
$GBGSV,5,2,19,05,24,128,35,39,24,042,34,16,31,050,34,29,31,199,39*62
$GBGSV,5,3,19,35,45,277,44,06,33,054,36,09,40,069,39,19,61,270,52*67
$GBGSV,5,4,19,20,62,056,40,32,09,071,,22,10,257,29,46,06,140,*66
$GBGSV,5,5,19,02,08,106,,58,10,124,,60,09,110,*5A
$GPGGA,021522.00,,,,,0,00,,,M,,M,,*4E
$PTNL,GGK,021522.00,010125,4742.4462297,N,01617.9734063,E,1,23,1.3,EHT667.5975,M*46
$GPGGQ,021522.00,010125,4742.4462297,N,01617.9734063,E,1,23,1.120,624.3865,M*39
$GPGFA,021522.00,4.494,7.779,0.473,0.363,335.890,0.949,,VVV*00
$GPLLK,021522.00,010125,,M,,M,1,23,1.5,,M*08
$GNGMP,021522.00,,,,,DAAA,23,0.6,,,,*57
$GPGMP,021522.00,,,,,,07,,,,2.9,123*77
$GLGMP,021522.00,,,,,,04,,,,,*7D
$GAGMP,021522.00,,,,,,05,,,,,*71
$GBGMP,021522.00,,,,,,07,,,,,*70
$PSSN,SNC,[0,267340000,2347]*40
$GPZDA,021527.00,01,01,2025,,*60
$GPDTM,W84,,00.0000000,N,00.0000000,E,00.0000000,W84*5F
$GPRMC,021527.00,A,4742.4462303,N,01617.9734192,E,0.0,,010125,5.1,E,D*1D
$GPGLL,4742.4462303,N,01617.9734192,E,021527.00,A,D*6C
$GPGGA,021527.00,4742.4462303,N,01617.9734192,E,2,25,0.6,624.3820,M,43.2111,M,3.1,0123*4F
$GNGNS,021527.00,4742.4462303,N,01617.9734192,E,DAAA,25,0.6,624.3820,43.2111,,*51
$GPGNS,021527.00,,,,,,08,,,,3.1,123*74
$GLGNS,021527.00,,,,,,03,,,,,*7F
$GAGNS,021527.00,,,,,,05,,,,,*74
$GBGNS,021527.00,,,,,,09,,,,,*7B
$GPLLQ,021527.00,010125,,M,,M,1,25,1.955,,M*1D
$GPVTG,,T,,M,0.00,N,0.00,K,D*26
$GPHDT,,T*1B
$GPTHS,,V*0E
$GPROT,,V*08
$PSSN,HRP,021527.00,010125,,,,,,,00,0,,*62
$PTNL,AVR,021527.00,,Yaw,,Tilt,,,,0,,00*34
$GPGSA,A,3,02,03,04,06,09,17,19,31,,,,,1.2,0.6,1.0*30
$GPGSA,A,3,71,85,86,,,,,,,,,,1.2,0.6,1.0*33
$GPGSA,A,3,04,06,09,34,36,,,,,,,,1.2,0.6,1.0*3F
$GPGSA,A,3,05,06,09,16,19,20,29,35,44,,,,1.2,0.6,1.0*3C
$GPGST,021527.00,5.067,0.789,0.622,350.944,0.785,0.627,1.677*51
$GPGBS,021527.00,3.132,2.538,6.517,19,0.0001,2.028,0.785*5D
$GPGRS,021527.00,1,-0.9,-0.3,-0.5,-1.2,1.1,0.3,2.0,-0.6,,,,*6B
$GPGRS,021527.00,1,-1.0,3.3,-2.3,,,,,,,,,*63
$GPGRS,021527.00,1,-0.3,-0.8,-1.3,-2.1,-1.5,,,,,,,*40
$GPGRS,021527.00,1,5.8,3.0,-1.0,16.8,-2.7,-6.6,3.3,-5.8,-2.3,,,*77
$GPGSV,4,1,15,04,73,209,48,06,28,313,45,28,18,041,33,21,13,154,20*76
$GPGSV,4,2,15,17,28,249,41,19,30,281,46,02,30,161,42,31,33,066,45*7D
$GPGSV,4,3,15,01,34,151,,09,43,228,37,03,68,068,52,36,35,170,40*7E
$GPGSV,4,4,15,34,31,208,,49,34,195,36,61,03,257,*44
$GLGSV,3,1,09,70,69,299,32,78,12,020,32,79,18,070,24,84,20,172,35*60
$GLGSV,3,2,09,71,27,253,42,86,38,320,41,69,30,050,34,85,64,222,48*62
$GLGSV,3,3,09,80,03,119,*5E
$GAGSV,3,1,10,09,82,168,43,18,22,284,,05,30,223,32,10,10,145,*63
$GAGSV,3,2,10,04,40,055,37,34,33,312,44,11,37,150,28,06,66,067,47*65
$GAGSV,3,3,10,36,78,234,47,21,01,027,*62
$GBGSV,5,1,19,48,82,004,,37,20,089,,44,16,321,41,23,11,039,*6B
$GBGSV,5,2,19,05,24,128,35,39,24,042,32,16,31,050,37,29,31,199,40*69
$GBGSV,5,3,19,35,45,277,44,06,33,054,36,09,40,069,40,19,61,270,51*6A
$GBGSV,5,4,19,20,62,056,38,32,09,071,,22,10,257,26,46,06,140,*66
$GBGSV,5,5,19,02,08,106,,58,10,124,,60,09,110,*5A
$GPGGA,021527.00,,,,,0,00,,,M,,M,,*4B
$PTNL,GGK,021527.00,010125,4742.4462303,N,01617.9734192,E,1,25,1.2,EHT667.5931,M*47
$GPGGQ,021527.00,010125,4742.4462303,N,01617.9734192,E,1,25,1.955,624.3820,M*32
$GPGFA,021527.00,7.502,13.755,0.789,0.622,350.944,1.677,,VVV*3D
$GPLLK,021527.00,010125,,M,,M,1,25,1.3,,M*0D
$GNGMP,021527.00,,,,,DAAA,25,0.6,,,,*54
$GPGMP,021527.00,,,,,,08,,,,3.1,123*74
$GLGMP,021527.00,,,,,,03,,,,,*7F
$GAGMP,021527.00,,,,,,05,,,,,*74
$GBGMP,021527.00,,,,,,09,,,,,*7B
$PSSN,SNC,[0,267345000,2347]*45
$GPZDA,021532.00,01,01,2025,,*64
$GPDTM,W84,,00.0000000,N,00.0000000,E,00.0000000,W84*5F
$GPRMC,021532.00,A,4742.4462329,N,01617.9734289,E,0.0,,010125,5.1,E,D*18
$GPGLL,4742.4462329,N,01617.9734289,E,021532.00,A,D*69
$GPGGA,021532.00,4742.4462329,N,01617.9734289,E,2,25,0.6,624.3864,M,43.2111,M,2.6,0123*4C
$GNGNS,021532.00,4742.4462329,N,01617.9734289,E,DAAA,25,0.6,624.3864,43.2111,,*54
$GPGNS,021532.00,,,,,,08,,,,2.6,123*76
$GLGNS,021532.00,,,,,,03,,,,,*7B
$GAGNS,021532.00,,,,,,05,,,,,*70
$GBGNS,021532.00,,,,,,09,,,,,*7F
$GPLLQ,021532.00,010125,,M,,M,1,25,1.430,,M*17
$GPVTG,,T,,M,0.00,N,0.01,K,D*27
$GPHDT,,T*1B
$GPTHS,,V*0E
$GPROT,,V*08
$PSSN,HRP,021532.00,010125,,,,,,,00,0,,*66
$PTNL,AVR,021532.00,,Yaw,,Tilt,,,,0,,00*30
$GPGSA,A,3,02,03,04,06,09,17,19,31,,,,,1.2,0.6,1.0*30
$GPGSA,A,3,71,85,86,,,,,,,,,,1.2,0.6,1.0*33
$GPGSA,A,3,04,06,09,34,36,,,,,,,,1.2,0.6,1.0*3F
$GPGSA,A,3,05,06,09,16,19,20,29,35,44,,,,1.2,0.6,1.0*3C
$GPGST,021532.00,4.394,0.580,0.465,350.804,0.577,0.468,1.222*56
$GPGBS,021532.00,3.004,2.484,6.295,16,0.0001,12.825,8.597*64
$GPGRS,021532.00,1,-0.7,0.1,-0.4,-1.0,0.7,0.5,0.5,-0.2,,,,*4F
$GPGRS,021532.00,1,-0.1,2.1,-0.8,,,,,,,,,*6D
$GPGRS,021532.00,1,-0.6,-0.7,-0.8,-1.7,-1.3,,,,,,,*47
$GPGRS,021532.00,1,8.6,2.4,-1.2,12.8,-2.0,-6.3,4.0,-4.8,-2.0,,,*77
$GPGSV,4,1,15,04,73,209,47,06,28,313,44,28,18,041,33,21,13,154,20*78
$GPGSV,4,2,15,17,27,249,41,19,30,281,45,02,30,161,43,31,33,066,45*70
$GPGSV,4,3,15,01,34,151,,09,43,228,38,03,68,068,51,36,35,170,40*72
$GPGSV,4,4,15,34,31,208,,49,34,195,35,61,03,257,*47
$GLGSV,3,1,09,70,69,300,29,78,12,020,31,79,18,070,21,84,20,172,35*6D
$GLGSV,3,2,09,71,27,253,42,86,38,320,44,69,30,050,38,85,64,222,48*6B
$GLGSV,3,3,09,80,03,119,*5E
$GAGSV,3,1,10,09,82,168,42,18,22,284,,05,30,223,33,10,10,145,*63
$GAGSV,3,2,10,04,40,055,36,34,33,312,43,11,37,150,27,06,66,067,47*6C
$GAGSV,3,3,10,36,78,234,47,21,01,027,*62
$GBGSV,5,1,19,48,82,004,,37,20,089,,44,16,321,41,23,11,039,*6B
$GBGSV,5,2,19,05,24,128,36,39,24,042,30,16,31,050,36,29,31,199,42*6B
$GBGSV,5,3,19,35,45,277,44,06,33,054,37,09,40,069,40,19,61,270,51*6B
$GBGSV,5,4,19,20,62,056,40,32,08,071,,22,10,257,27,46,06,140,*69
$GBGSV,5,5,19,02,08,106,,58,10,124,,60,09,110,*5A
$GPGGA,021532.00,,,,,0,00,,,M,,M,,*4F
$PTNL,GGK,021532.00,010125,4742.4462329,N,01617.9734289,E,1,25,1.2,EHT667.5974,M*43
$GPGGQ,021532.00,010125,4742.4462329,N,01617.9734289,E,1,25,1.430,624.3864,M*39
$GPGFA,021532.00,5.516,10.019,0.580,0.465,350.804,1.222,,VVV*39
$GPLLK,021532.00,010125,,M,,M,1,25,1.3,,M*09
$GNGMP,021532.00,,,,,DAAA,25,0.6,,,,*50
$GPGMP,021532.00,,,,,,08,,,,2.6,123*76
$GLGMP,021532.00,,,,,,03,,,,,*7B
$GAGMP,021532.00,,,,,,05,,,,,*70
$GBGMP,021532.00,,,,,,09,,,,,*7F
$PSSN,SNC,[0,267350000,2347]*41
$GPZDA,021537.00,01,01,2025,,*61
$GPDTM,W84,,00.0000000,N,00.0000000,E,00.0000000,W84*5F
$GPRMC,021537.00,A,4742.4462356,N,01617.9734333,E,0.0,,010125,5.1,E,D*15
$GPGLL,4742.4462356,N,01617.9734333,E,021537.00,A,D*64
$GPGGA,021537.00,4742.4462356,N,01617.9734333,E,2,24,0.6,624.3841,M,43.2111,M,2.6,0123*47
$GNGNS,021537.00,4742.4462356,N,01617.9734333,E,DAAA,24,0.6,624.3841,43.2111,,*5F
$GPGNS,021537.00,,,,,,08,,,,2.6,123*73
$GLGNS,021537.00,,,,,,03,,,,,*7E
$GAGNS,021537.00,,,,,,04,,,,,*74
$GBGNS,021537.00,,,,,,09,,,,,*7A
$GPLLQ,021537.00,010125,,M,,M,1,24,1.448,,M*1C
$GPVTG,,T,,M,0.00,N,0.01,K,D*27
$GPHDT,,T*1B
$GPTHS,,V*0E
$GPROT,,V*08
$PSSN,HRP,021537.00,010125,,,,,,,00,0,,*63
$PTNL,AVR,021537.00,,Yaw,,Tilt,,,,0,,00*35
$GPGSA,A,3,02,03,04,06,09,17,19,31,,,,,1.2,0.6,1.0*30
$GPGSA,A,3,71,85,86,,,,,,,,,,1.2,0.6,1.0*33
$GPGSA,A,3,06,09,34,36,,,,,,,,,1.2,0.6,1.0*3B
$GPGSA,A,3,05,06,09,16,19,20,29,35,44,,,,1.2,0.6,1.0*3C
$GPGST,021537.00,3.630,0.584,0.469,351.689,0.582,0.472,1.239*56
$GPGBS,021537.00,3.016,2.543,6.463,09,0.0001,1.375,0.680*58
$GPGRS,021537.00,1,-0.7,0.2,-0.3,-1.1,1.4,-0.5,-0.1,0.3,,,,*65
$GPGRS,021537.00,1,1.4,1.4,0.5,,,,,,,,,*67
$GPGRS,021537.00,1,-0.7,-0.5,-1.9,-1.2,,,,,,,,*45
$GPGRS,021537.00,1,7.5,1.3,-0.6,9.0,-1.6,-5.3,4.1,-4.2,-2.3,,,*43
$GPGSV,4,1,15,04,73,209,46,06,28,313,43,28,18,041,31,21,13,154,*7E
$GPGSV,4,2,15,17,27,249,40,19,30,281,43,02,30,161,43,31,33,066,44*76
$GPGSV,4,3,15,01,34,151,,09,43,228,39,03,68,068,51,36,35,170,40*73
$GPGSV,4,4,15,34,31,208,,49,34,195,36,61,03,257,*44
$GLGSV,3,1,09,70,69,300,26,78,12,020,30,79,18,070,28,84,20,172,34*6B
$GLGSV,3,2,09,71,27,253,41,86,38,320,45,69,30,050,38,85,64,222,48*69
$GLGSV,3,3,09,80,04,118,*58
$GAGSV,3,1,10,09,82,167,41,18,22,284,,05,30,223,33,10,10,145,*6F
$GAGSV,3,2,10,04,40,055,34,34,33,312,43,11,37,150,24,06,66,067,46*6C
$GAGSV,3,3,10,36,78,234,47,21,01,027,*62
$GBGSV,5,1,19,48,82,004,,37,20,089,,44,16,320,41,23,11,039,*6A
$GBGSV,5,2,19,05,24,128,36,39,24,042,30,16,31,050,36,29,31,199,43*6A
$GBGSV,5,3,19,35,45,276,44,06,33,054,37,09,40,069,41,19,61,271,51*6A
$GBGSV,5,4,19,20,62,056,41,32,08,071,,22,10,257,27,46,06,140,*68
$GBGSV,5,5,19,02,08,106,,58,10,124,,60,09,110,*5A
$GPGGA,021537.00,,,,,0,00,,,M,,M,,*4A
$PTNL,GGK,021537.00,010125,4742.4462356,N,01617.9734333,E,1,24,1.2,EHT667.5952,M*4B
$GPGGQ,021537.00,010125,4742.4462356,N,01617.9734333,E,1,24,1.448,624.3841,M*3D
$GPGFA,021537.00,5.553,10.164,0.584,0.469,351.689,1.239,,VVV*3E
$GPLLK,021537.00,010125,,M,,M,1,24,1.3,,M*0D
$GNGMP,021537.00,,,,,DAAA,24,0.6,,,,*54
$GPGMP,021537.00,,,,,,08,,,,2.6,123*73
$GLGMP,021537.00,,,,,,03,,,,,*7E
$GAGMP,021537.00,,,,,,04,,,,,*74
$GBGMP,021537.00,,,,,,09,,,,,*7A
$PSSN,SNC,[0,267355000,2347]*44
$GPZDA,021542.00,01,01,2025,,*63
$GPDTM,W84,,00.0000000,N,00.0000000,E,00.0000000,W84*5F
$GPRMC,021542.00,A,4742.4462430,N,01617.9734317,E,0.0,,010125,5.1,E,D*16
$GPGLL,4742.4462430,N,01617.9734317,E,021542.00,A,D*67
$GPGGA,021542.00,4742.4462430,N,01617.9734317,E,2,25,0.6,624.3708,M,43.2111,M,3.1,0123*41
$GNGNS,021542.00,4742.4462430,N,01617.9734317,E,DAAA,25,0.6,624.3708,43.2111,,*5F
$GPGNS,021542.00,,,,,,08,,,,3.1,123*77
$GLGNS,021542.00,,,,,,04,,,,,*7B
$GAGNS,021542.00,,,,,,04,,,,,*76
$GBGNS,021542.00,,,,,,09,,,,,*78
$GPLLQ,021542.00,010125,,M,,M,1,25,2.701,,M*12
$GPVTG,,T,,M,0.00,N,0.01,K,D*27
$GPHDT,,T*1B
$GPTHS,,V*0E
$GPROT,,V*08
$PSSN,HRP,021542.00,010125,,,,,,,00,0,,*61
$PTNL,AVR,021542.00,,Yaw,,Tilt,,,,0,,00*37
$GPGSA,A,3,02,03,04,06,09,17,19,31,,,,,1.1,0.6,1.0*33
$GPGSA,A,3,69,71,85,86,,,,,,,,,1.1,0.6,1.0*3F
$GPGSA,A,3,06,09,34,36,,,,,,,,,1.1,0.6,1.0*38
$GPGSA,A,3,05,06,09,16,19,20,29,35,44,,,,1.1,0.6,1.0*3F
$GPGST,021542.00,6.340,1.091,0.858,350.659,1.086,0.865,2.318*5A
$GPGBS,021542.00,3.129,2.515,6.512,69,0.0001,22.907,6.180*6A
$GPGRS,021542.00,1,-0.7,0.2,0.4,-1.1,2.6,-1.2,-1.1,-0.6,,,,*63
$GPGRS,021542.00,1,22.9,1.8,1.1,0.5,,,,,,,,*7B
$GPGRS,021542.00,1,-1.2,-0.4,-2.0,-1.2,,,,,,,,*48
$GPGRS,021542.00,1,6.1,1.4,-0.3,8.3,-1.4,-4.3,4.6,-4.0,-3.2,,,*42
$GPGSV,4,1,15,04,73,209,45,06,28,313,43,28,18,041,30,21,13,154,*7C
$GPGSV,4,2,15,17,27,249,41,19,30,281,40,02,30,161,42,31,33,066,44*75
$GPGSV,4,3,15,01,34,151,,09,43,228,41,03,68,068,52,36,35,170,40*7F
$GPGSV,4,4,15,34,31,208,,49,34,195,36,61,03,257,*44
$GLGSV,3,1,09,70,69,300,,78,12,020,,79,18,070,30,84,20,172,33*62
$GLGSV,3,2,09,71,27,253,39,86,38,320,44,69,30,050,38,85,64,222,48*67
$GLGSV,3,3,09,80,04,118,*58
$GAGSV,3,1,10,09,82,167,40,18,22,284,,05,30,223,34,10,10,145,*69
$GAGSV,3,2,10,04,40,055,31,34,33,312,43,11,37,150,23,06,66,067,46*6E
$GAGSV,3,3,10,36,78,234,46,21,01,027,*63
$GBGSV,5,1,19,48,82,004,,37,20,089,,44,16,320,40,23,11,039,*6B
$GBGSV,5,2,19,05,24,128,36,39,24,042,30,16,31,050,37,29,31,199,43*6B
$GBGSV,5,3,19,35,45,276,45,06,33,054,38,09,40,069,41,19,61,271,51*64
$GBGSV,5,4,19,20,62,056,43,32,08,071,,22,10,257,,46,06,140,*6F
$GBGSV,5,5,19,02,08,106,,58,10,124,,60,09,110,*5A
$GPGGA,021542.00,,,,,0,00,,,M,,M,,*48
$PTNL,GGK,021542.00,010125,4742.4462430,N,01617.9734317,E,1,25,1.1,EHT667.5819,M*44
$GPGGQ,021542.00,010125,4742.4462430,N,01617.9734317,E,1,25,2.701,624.3708,M*30
$GPGFA,021542.00,10.374,19.004,1.091,0.858,350.659,2.318,,VVV*06
$GPLLK,021542.00,010125,,M,,M,1,25,1.3,,M*0E
$GNGMP,021542.00,,,,,DAAA,25,0.6,,,,*57
$GPGMP,021542.00,,,,,,08,,,,3.1,123*77
$GLGMP,021542.00,,,,,,04,,,,,*7B
$GAGMP,021542.00,,,,,,04,,,,,*76
$GBGMP,021542.00,,,,,,09,,,,,*78
$PSSN,SNC,[0,267360000,2347]*42
$GPZDA,021547.00,01,01,2025,,*66
$GPDTM,W84,,00.0000000,N,00.0000000,E,00.0000000,W84*5F
$GPRMC,021547.00,A,4742.4462470,N,01617.9734284,E,0.0,,010125,5.1,E,D*1C
$GPGLL,4742.4462470,N,01617.9734284,E,021547.00,A,D*6D
$GPGGA,021547.00,4742.4462470,N,01617.9734284,E,2,24,0.6,624.3429,M,43.2111,M,1.7,0123*4E
$GNGNS,021547.00,4742.4462470,N,01617.9734284,E,DAAA,24,0.6,624.3429,43.2111,,*54
$GPGNS,021547.00,,,,,,07,,,,1.7,123*79
$GLGNS,021547.00,,,,,,04,,,,,*7E
$GAGNS,021547.00,,,,,,04,,,,,*73
$GBGNS,021547.00,,,,,,09,,,,,*7D
$GPLLQ,021547.00,010125,,M,,M,1,24,1.825,,M*1C
$GPVTG,,T,,M,0.00,N,0.01,K,D*27
$GPHDT,,T*1B
$GPTHS,,V*0E
$GPROT,,V*08
$PSSN,HRP,021547.00,010125,,,,,,,00,0,,*64
$PTNL,AVR,021547.00,,Yaw,,Tilt,,,,0,,00*32
$GPGSA,A,3,02,03,04,06,17,19,31,,,,,,1.1,0.6,1.0*3A
$GPGSA,A,3,69,71,85,86,,,,,,,,,1.1,0.6,1.0*3F
$GPGSA,A,3,06,09,34,36,,,,,,,,,1.1,0.6,1.0*38
$GPGSA,A,3,05,06,09,16,19,20,29,35,44,,,,1.1,0.6,1.0*3F
$GPGST,021547.00,5.463,0.774,0.603,3.159,0.774,0.603,1.539*56
$GPGBS,021547.00,3.464,2.680,6.554,69,0.0001,17.085,6.181*6A
$GPGRS,021547.00,1,-0.6,0.4,0.9,-0.9,-0.2,-0.8,-0.4,,,,,*44
$GPGRS,021547.00,1,17.1,1.7,-0.2,-3.3,,,,,,,,*78
$GPGRS,021547.00,1,-1.3,0.5,-2.0,-0.6,,,,,,,,*65
$GPGRS,021547.00,1,5.9,2.1,-0.3,9.0,-0.9,-3.4,6.3,-3.3,-3.0,,,*45
$GPGSV,4,1,15,04,73,209,45,06,28,313,43,28,18,041,29,21,13,154,*74
$GPGSV,4,2,15,17,27,249,41,19,30,281,39,02,30,161,42,31,33,066,44*7B
$GPGSV,4,3,15,01,34,151,,09,43,228,43,03,68,068,52,36,35,170,41*7C
$GPGSV,4,4,15,34,31,208,,49,34,195,35,61,03,257,*47
$GLGSV,3,1,09,70,69,300,22,78,12,019,26,79,18,070,22,84,20,172,33*6F
$GLGSV,3,2,09,71,27,253,39,86,38,320,43,69,30,050,38,85,63,222,47*68
$GLGSV,3,3,09,80,04,118,*58
$GAGSV,3,1,10,09,82,167,40,18,22,284,,05,30,223,34,10,10,145,*69
$GAGSV,3,2,10,04,40,055,31,34,34,312,42,11,36,151,25,06,66,067,45*6D
$GAGSV,3,3,10,36,78,233,47,21,01,027,*65
$GBGSV,5,1,19,48,82,004,,37,20,089,,44,16,320,41,23,11,039,*6A
$GBGSV,5,2,19,05,24,128,36,39,24,042,31,16,31,050,37,29,31,199,43*6A
$GBGSV,5,3,19,35,45,276,45,06,33,054,39,09,40,069,42,19,62,271,51*65
$GBGSV,5,4,19,20,62,056,43,32,08,071,,22,10,257,,46,06,140,*6F
$GBGSV,5,5,19,02,08,106,,58,10,123,,60,09,110,*5D
$GPGGA,021547.00,,,,,0,00,,,M,,M,,*4D
$PTNL,GGK,021547.00,010125,4742.4462470,N,01617.9734284,E,1,24,1.1,EHT667.5540,M*4E
$GPGGQ,021547.00,010125,4742.4462470,N,01617.9734284,E,1,24,1.825,624.3429,M*31
$GPGFA,021547.00,7.364,12.617,0.774,0.603,3.159,1.539,,VVV*32
$GPLLK,021547.00,010125,,M,,M,1,24,1.3,,M*0A
$GNGMP,021547.00,,,,,DAAA,24,0.6,,,,*53
$GPGMP,021547.00,,,,,,07,,,,1.7,123*79
$GLGMP,021547.00,,,,,,04,,,,,*7E
$GAGMP,021547.00,,,,,,04,,,,,*73
$GBGMP,021547.00,,,,,,09,,,,,*7D
$PSSN,SNC,[0,267365000,2347]*47
$GPZDA,021552.00,01,01,2025,,*62
$GPDTM,W84,,00.0000000,N,00.0000000,E,00.0000000,W84*5F
$GPRMC,021552.00,A,4742.4462535,N,01617.9734350,E,0.0,,010125,5.1,E,D*10
$GPGLL,4742.4462535,N,01617.9734350,E,021552.00,A,D*61
$GPGGA,021552.00,4742.4462535,N,01617.9734350,E,2,25,0.6,624.3323,M,43.2111,M,2.6,0123*4C
$GNGNS,021552.00,4742.4462535,N,01617.9734350,E,DAAA,25,0.6,624.3323,43.2111,,*54
$GPGNS,021552.00,,,,,,08,,,,2.6,123*70
$GLGNS,021552.00,,,,,,04,,,,,*7A
$GAGNS,021552.00,,,,,,04,,,,,*77
$GBGNS,021552.00,,,,,,09,,,,,*79
$GPLLQ,021552.00,010125,,M,,M,1,25,2.429,,M*1A
$GPVTG,,T,,M,0.00,N,0.01,K,D*27
$GPHDT,,T*1B
$GPTHS,,V*0E
$GPROT,,V*08
$PSSN,HRP,021552.00,010125,,,,,,,00,0,,*60
$PTNL,AVR,021552.00,,Yaw,,Tilt,,,,0,,00*36
$GPGSA,A,3,02,03,04,06,09,17,19,31,,,,,1.1,0.6,1.0*33
$GPGSA,A,3,69,71,85,86,,,,,,,,,1.1,0.6,1.0*3F
$GPGSA,A,3,06,09,34,36,,,,,,,,,1.1,0.6,1.0*38
$GPGSA,A,3,05,06,09,16,19,20,29,35,44,,,,1.1,0.6,1.0*3F
$GPGST,021552.00,4.882,0.986,0.787,350.011,0.981,0.794,2.075*53
$GPGBS,021552.00,3.004,2.461,6.288,09,0.0001,2.079,0.660*58
$GPGRS,021552.00,1,-1.4,-0.5,0.0,-1.6,2.1,2.3,-0.6,-0.3,,,,*62
$GPGRS,021552.00,1,12.4,-0.2,-0.5,-7.7,,,,,,,,*52
$GPGRS,021552.00,1,-1.9,0.3,-2.9,-1.0,,,,,,,,*63
$GPGRS,021552.00,1,5.4,0.8,-0.9,8.8,-1.8,-3.3,5.8,-4.0,-4.1,,,*49
$GPGSV,4,1,15,04,73,209,46,06,28,313,44,28,18,041,,21,13,154,*7B
$GPGSV,4,2,15,17,27,249,40,19,30,281,40,02,30,161,41,31,33,066,44*77
$GPGSV,4,3,15,01,34,151,,09,43,228,43,03,68,068,52,36,35,170,41*7C
$GPGSV,4,4,15,34,31,208,,49,34,195,36,61,03,257,*44
$GLGSV,3,1,09,70,70,300,,78,12,019,35,79,18,070,27,84,20,172,31*62
$GLGSV,3,2,09,71,27,253,39,86,38,320,41,69,30,050,36,85,63,222,47*64
$GLGSV,3,3,09,80,04,118,*58
$GAGSV,3,1,10,09,82,167,40,18,22,284,,05,30,223,34,10,10,145,*69
$GAGSV,3,2,10,04,40,055,33,34,34,312,42,11,36,151,27,06,66,066,44*6D
$GAGSV,3,3,10,36,78,233,48,21,01,027,*6A
$GBGSV,5,1,19,48,82,005,,37,20,089,,44,16,320,41,23,11,039,*6B
$GBGSV,5,2,19,05,24,128,36,39,24,042,28,16,31,050,36,29,31,199,42*62
$GBGSV,5,3,19,35,45,276,45,06,33,054,39,09,40,069,42,19,62,271,51*65
$GBGSV,5,4,19,20,62,056,43,32,08,071,,22,10,257,,46,06,139,*61
$GBGSV,5,5,19,02,08,106,,58,10,123,,60,09,110,*5D
$GPGGA,021552.00,,,,,0,00,,,M,,M,,*49
$PTNL,GGK,021552.00,010125,4742.4462535,N,01617.9734350,E,1,25,1.1,EHT667.5433,M*46
$GPGGQ,021552.00,010125,4742.4462535,N,01617.9734350,E,1,25,2.429,624.3323,M*32
$GPGFA,021552.00,9.377,17.018,0.986,0.787,350.011,2.075,,VVV*3E
$GPLLK,021552.00,010125,,M,,M,1,25,1.3,,M*0F
$GNGMP,021552.00,,,,,DAAA,25,0.6,,,,*56
$GPGMP,021552.00,,,,,,08,,,,2.6,123*70
$GLGMP,021552.00,,,,,,04,,,,,*7A
$GAGMP,021552.00,,,,,,04,,,,,*77
$GBGMP,021552.00,,,,,,09,,,,,*79
$PSSN,SNC,[0,267370000,2347]*43
$GPZDA,021557.00,01,01,2025,,*67
$GPDTM,W84,,00.0000000,N,00.0000000,E,00.0000000,W84*5F
$GPRMC,021557.00,A,4742.4462557,N,01617.9734418,E,0.0,,010125,5.1,E,D*1A
$GPGLL,4742.4462557,N,01617.9734418,E,021557.00,A,D*6B
$GPGGA,021557.00,4742.4462557,N,01617.9734418,E,2,23,0.6,624.3290,M,43.2110,M,2.9,0123*47
$GNGNS,021557.00,4742.4462557,N,01617.9734418,E,DAAA,23,0.6,624.3290,43.2110,,*50
$GPGNS,021557.00,,,,,,07,,,,2.9,123*75
$GLGNS,021557.00,,,,,,03,,,,,*78
$GAGNS,021557.00,,,,,,04,,,,,*72
$GBGNS,021557.00,,,,,,09,,,,,*7C
$GPLLQ,021557.00,010125,,M,,M,1,23,1.536,,M*15
$GPVTG,,T,,M,0.00,N,0.01,K,D*27
$GPHDT,,T*1B
$GPTHS,,V*0E
$GPROT,,V*08
$PSSN,HRP,021557.00,010125,,,,,,,00,0,,*65
$PTNL,AVR,021557.00,,Yaw,,Tilt,,,,0,,00*33
$GPGSA,A,3,02,03,04,06,09,19,31,,,,,,1.2,0.6,1.0*36
$GPGSA,A,3,71,85,86,,,,,,,,,,1.2,0.6,1.0*33
$GPGSA,A,3,06,09,34,36,,,,,,,,,1.2,0.6,1.0*3B
$GPGSA,A,3,05,06,09,16,19,20,29,35,44,,,,1.2,0.6,1.0*3C
$GPGST,021557.00,4.086,0.605,0.512,359.568,0.605,0.512,1.315*5B
$GPGBS,021557.00,3.232,2.660,6.427,19,0.0001,1.205,0.774*55
$GPGRS,021557.00,1,-1.0,-0.3,0.2,-1.0,0.1,1.2,0.6,,,,,*4C
$GPGRS,021557.00,1,-0.5,-0.8,-8.6,,,,,,,,,*4A
$GPGRS,021557.00,1,-0.8,0.3,-2.8,-0.8,,,,,,,,*6E
$GPGRS,021557.00,1,6.6,2.0,-0.7,9.1,-2.0,-2.2,2.4,-4.6,-3.5,,,*44
$GPGSV,4,1,15,04,73,209,47,06,28,313,45,28,18,041,29,21,13,154,21*73
$GPGSV,4,2,15,17,27,249,39,19,30,281,42,02,30,161,42,31,33,066,43*7F
$GPGSV,4,3,15,01,34,151,,09,43,228,43,03,68,068,51,36,35,170,41*7F
$GPGSV,4,4,15,34,31,208,,49,34,195,37,61,03,257,*45
$GLGSV,3,1,09,70,70,300,26,78,12,019,37,79,18,070,,84,20,172,30*60
$GLGSV,3,2,09,71,27,253,40,86,38,320,40,69,30,050,26,85,63,222,46*6B
$GLGSV,3,3,09,80,04,118,*58
$GAGSV,3,1,10,09,82,167,39,18,22,284,,05,30,223,33,10,10,145,*60
$GAGSV,3,2,10,04,40,055,35,34,34,312,41,11,36,151,29,06,66,066,43*61
$GAGSV,3,3,10,36,78,233,47,21,01,027,*65
$GBGSV,5,1,19,48,82,005,,37,20,089,,44,16,320,42,23,11,039,*68
$GBGSV,5,2,19,22,10,257,,05,24,128,36,39,24,042,28,29,31,199,39*6A
$GBGSV,5,3,19,16,31,050,36,35,45,276,45,06,33,054,38,09,40,069,42*6D
$GBGSV,5,4,19,19,62,271,50,20,62,057,43,32,08,071,,46,06,139,*6C
$GBGSV,5,5,19,02,08,106,,58,10,123,,60,09,110,*5D
$GPGGA,021557.00,,,,,0,00,,,M,,M,,*4C
$PTNL,GGK,021557.00,010125,4742.4462557,N,01617.9734418,E,1,23,1.2,EHT667.5401,M*48
$GPGGQ,021557.00,010125,4742.4462557,N,01617.9734418,E,1,23,1.536,624.3290,M*3B
$GPGFA,021557.00,5.753,10.785,0.605,0.512,359.568,1.315,,VVV*3F
$GPLLK,021557.00,010125,,M,,M,1,23,1.4,,M*0B
$GNGMP,021557.00,,,,,DAAA,23,0.6,,,,*55
$GPGMP,021557.00,,,,,,07,,,,2.9,123*75
$GLGMP,021557.00,,,,,,03,,,,,*78
$GAGMP,021557.00,,,,,,04,,,,,*72
$GBGMP,021557.00,,,,,,09,,,,,*7C
$PSSN,SNC,[0,267375000,2347]*46
$GPZDA,021602.00,01,01,2025,,*64
$GPDTM,W84,,00.0000000,N,00.0000000,E,00.0000000,W84*5F
$GPRMC,021602.00,A,4742.4462526,N,01617.9734462,E,0.0,,010125,5.1,E,D*12
$GPGLL,4742.4462526,N,01617.9734462,E,021602.00,A,D*63
$GPGGA,021602.00,4742.4462526,N,01617.9734462,E,2,24,0.6,624.3311,M,43.2110,M,3.3,0123*4B
$GNGNS,021602.00,4742.4462526,N,01617.9734462,E,DAAA,24,0.6,624.3311,43.2110,,*57
$GPGNS,021602.00,,,,,,07,,,,3.3,123*7D
$GLGNS,021602.00,,,,,,03,,,,,*7B
$GAGNS,021602.00,,,,,,05,,,,,*70
$GBGNS,021602.00,,,,,,09,,,,,*7F
$GPLLQ,021602.00,010125,,M,,M,1,24,1.655,,M*17
$GPVTG,,T,,M,0.00,N,0.01,K,D*27
$GPHDT,,T*1B
$GPTHS,,V*0E
$GPROT,,V*08
$PSSN,HRP,021602.00,010125,,,,,,,00,0,,*66
$PTNL,AVR,021602.00,,Yaw,,Tilt,,,,0,,00*30
$GPGSA,A,3,02,03,04,06,09,19,31,,,,,,1.2,0.6,1.0*36
$GPGSA,A,3,71,85,86,,,,,,,,,,1.2,0.6,1.0*33
$GPGSA,A,3,04,06,09,34,36,,,,,,,,1.2,0.6,1.0*3F
$GPGSA,A,3,05,06,09,16,19,20,29,35,44,,,,1.2,0.6,1.0*3C
$GPGST,021602.00,3.589,0.653,0.543,359.192,0.653,0.543,1.420*55
$GPGBS,021602.00,3.353,2.648,6.484,19,0.0001,1.900,0.786*50
$GPGRS,021602.00,1,-0.8,-0.4,0.2,-0.7,-0.4,1.9,0.4,,,,,*66
$GPGRS,021602.00,1,0.5,-1.9,-6.3,,,,,,,,,*6F
$GPGRS,021602.00,1,-0.2,-0.3,0.1,-2.1,-0.9,,,,,,,*6D
$GPGRS,021602.00,1,7.2,2.5,-0.9,8.6,-2.0,-1.4,-1.6,-4.0,-2.6,,,*62
$GPGSV,4,1,15,04,73,210,48,06,28,313,45,28,18,041,27,21,13,154,21*7A
$GPGSV,4,2,15,17,27,248,37,19,30,281,42,02,29,161,42,31,33,066,42*79
$GPGSV,4,3,15,01,34,151,,09,43,228,44,03,68,069,51,36,35,170,41*79
$GPGSV,4,4,15,34,31,208,,49,34,195,35,61,03,257,*47
$GLGSV,3,1,09,70,70,300,21,78,12,019,34,79,18,070,23,84,20,172,31*64
$GLGSV,3,2,09,71,27,253,41,86,38,320,43,69,30,050,31,85,63,222,46*6F
$GLGSV,3,3,09,80,04,118,*58
$GAGSV,3,1,10,09,82,167,40,18,22,284,,05,30,223,33,10,10,145,20*6C
$GAGSV,3,2,10,04,40,055,36,34,34,312,40,11,36,151,33,06,66,066,42*69
$GAGSV,3,3,10,36,78,233,47,21,01,027,*65
$GBGSV,5,1,19,48,82,005,,37,20,089,,44,16,320,43,23,11,039,*69
$GBGSV,5,2,19,22,10,257,,05,24,128,36,39,24,042,28,29,31,199,37*64
$GBGSV,5,3,19,16,31,050,37,35,45,276,45,06,33,054,38,09,40,069,42*6C
$GBGSV,5,4,19,19,62,271,50,20,62,057,42,32,08,072,,46,06,139,*6E
$GBGSV,5,5,19,02,08,106,,58,10,123,,60,09,110,*5D
$GPGGA,021602.00,,,,,0,00,,,M,,M,,*4F
$PTNL,GGK,021602.00,010125,4742.4462526,N,01617.9734462,E,1,24,1.2,EHT667.5422,M*46
$GPGGQ,021602.00,010125,4742.4462526,N,01617.9734462,E,1,24,1.655,624.3311,M*3A
$GPGFA,021602.00,6.205,11.646,0.653,0.543,359.192,1.420,,VVV*31
$GPLLK,021602.00,010125,,M,,M,1,24,1.4,,M*0F
$GNGMP,021602.00,,,,,DAAA,24,0.6,,,,*51
$GPGMP,021602.00,,,,,,07,,,,3.3,123*7D
$GLGMP,021602.00,,,,,,03,,,,,*7B
$GAGMP,021602.00,,,,,,05,,,,,*70
$GBGMP,021602.00,,,,,,09,,,,,*7F
$PSSN,SNC,[0,267380000,2347]*4C
$GPZDA,021607.00,01,01,2025,,*61
$GPDTM,W84,,00.0000000,N,00.0000000,E,00.0000000,W84*5F
$GPRMC,021607.00,A,4742.4462502,N,01617.9734499,E,0.0,,010125,5.1,E,D*15
$GPGLL,4742.4462502,N,01617.9734499,E,021607.00,A,D*64
$GPGGA,021607.00,4742.4462502,N,01617.9734499,E,2,24,0.6,624.3387,M,43.2111,M,1.4,0123*47
$GNGNS,021607.00,4742.4462502,N,01617.9734499,E,DAAA,24,0.6,624.3387,43.2111,,*5E
$GPGNS,021607.00,,,,,,07,,,,1.4,123*7D
$GLGNS,021607.00,,,,,,03,,,,,*7E
$GAGNS,021607.00,,,,,,05,,,,,*75
$GBGNS,021607.00,,,,,,09,,,,,*7A
$GPLLQ,021607.00,010125,,M,,M,1,24,1.686,,M*1C
$GPVTG,,T,,M,0.01,N,0.01,K,D*26
$GPHDT,,T*1B
$GPTHS,,V*0E
$GPROT,,V*08
$PSSN,HRP,021607.00,010125,,,,,,,00,0,,*63
$PTNL,AVR,021607.00,,Yaw,,Tilt,,,,0,,00*35
$GPGSA,A,3,02,03,04,06,09,19,31,,,,,,1.2,0.6,1.0*36
$GPGSA,A,3,71,85,86,,,,,,,,,,1.2,0.6,1.0*33
$GPGSA,A,3,04,06,09,34,36,,,,,,,,1.2,0.6,1.0*3F
$GPGSA,A,3,05,06,09,16,19,20,29,35,44,,,,1.2,0.6,1.0*3C
$GPGST,021607.00,3.645,0.666,0.555,357.412,0.666,0.555,1.446*50
$GPGBS,021607.00,3.130,2.533,6.149,19,0.0001,1.397,0.801*5D
$GPGRS,021607.00,1,-0.5,-0.7,-0.1,-1.1,0.5,1.4,1.0,,,,,*60
$GPGRS,021607.00,1,4.8,-1.8,-4.2,,,,,,,,,*61
$GPGRS,021607.00,1,-1.3,-0.5,-0.1,-1.8,-1.1,,,,,,,*40
$GPGRS,021607.00,1,5.7,0.8,-0.5,9.3,-2.5,-1.4,-4.2,-3.7,-3.3,,,*67
$GPGSV,4,1,15,04,73,210,49,06,28,313,46,28,18,041,27,21,13,154,21*78
$GPGSV,4,2,15,17,27,248,37,19,30,281,41,02,29,161,43,31,33,066,42*7B
$GPGSV,4,3,15,01,34,151,,09,43,228,44,03,68,069,51,36,35,170,40*78
$GPGSV,4,4,15,34,31,208,,49,34,195,36,61,03,257,*44
$GLGSV,3,1,09,70,70,300,22,78,12,019,25,79,18,070,27,84,20,172,31*63
$GLGSV,3,2,09,71,27,253,43,86,38,320,44,69,30,050,35,85,63,222,45*6D
$GLGSV,3,3,09,80,04,118,*58
$GAGSV,3,1,10,09,82,167,41,18,22,284,,05,30,223,30,10,10,145,21*6F
$GAGSV,3,2,10,04,40,055,37,34,34,312,40,11,36,151,35,06,66,066,42*6E
$GAGSV,3,3,10,36,78,233,47,21,01,027,*65
$GBGSV,5,1,19,48,82,005,,37,20,089,,44,16,320,43,23,11,039,*69
$GBGSV,5,2,19,22,10,257,31,05,24,128,35,39,24,042,27,29,31,199,36*6B
$GBGSV,5,3,19,16,31,050,36,35,45,276,45,06,33,054,38,09,40,069,43*6C
$GBGSV,5,4,19,19,62,271,50,20,62,057,42,32,08,072,,46,06,139,*6E
$GBGSV,5,5,19,02,08,106,,58,10,123,,60,09,110,*5D
$GPGGA,021607.00,,,,,0,00,,,M,,M,,*4A
$PTNL,GGK,021607.00,010125,4742.4462502,N,01617.9734499,E,1,24,1.2,EHT667.5497,M*4F
$GPGGQ,021607.00,010125,4742.4462502,N,01617.9734499,E,1,24,1.686,624.3387,M*3C
$GPGFA,021607.00,6.335,11.856,0.666,0.555,357.412,1.446,,VVV*3B
$GPLLK,021607.00,010125,,M,,M,1,24,1.4,,M*0A
$GNGMP,021607.00,,,,,DAAA,24,0.6,,,,*54
$GPGMP,021607.00,,,,,,07,,,,1.4,123*7D
$GLGMP,021607.00,,,,,,03,,,,,*7E
$GAGMP,021607.00,,,,,,05,,,,,*75
$GBGMP,021607.00,,,,,,09,,,,,*7A
$PSSN,SNC,[0,267385000,2347]*49
$GPZDA,021612.00,01,01,2025,,*65
$GPDTM,W84,,00.0000000,N,00.0000000,E,00.0000000,W84*5F
$GPRMC,021612.00,A,4742.4462521,N,01617.9734538,E,0.0,,010125,5.1,E,D*1A
$GPGLL,4742.4462521,N,01617.9734538,E,021612.00,A,D*6B
$GPGGA,021612.00,4742.4462521,N,01617.9734538,E,2,25,0.6,624.3503,M,43.2111,M,2.4,0123*40
$GNGNS,021612.00,4742.4462521,N,01617.9734538,E,DAAA,25,0.6,624.3503,43.2111,,*5A
$GPGNS,021612.00,,,,,,07,,,,2.4,123*7A
$GLGNS,021612.00,,,,,,03,,,,,*7A
$GAGNS,021612.00,,,,,,06,,,,,*72
$GBGNS,021612.00,,,,,,09,,,,,*7E
$GPLLQ,021612.00,010125,,M,,M,1,25,1.607,,M*10
$GPVTG,,T,,M,0.00,N,0.01,K,D*27
$GPHDT,,T*1B
$GPTHS,,V*0E
$GPROT,,V*08
$PSSN,HRP,021612.00,010125,,,,,,,00,0,,*67
$PTNL,AVR,021612.00,,Yaw,,Tilt,,,,0,,00*31
$GPGSA,A,3,02,03,04,06,09,19,31,,,,,,1.2,0.6,1.0*36
$GPGSA,A,3,71,85,86,,,,,,,,,,1.2,0.6,1.0*33
$GPGSA,A,3,04,06,09,11,34,36,,,,,,,1.2,0.6,1.0*3F
$GPGSA,A,3,05,06,09,16,19,20,29,35,44,,,,1.2,0.6,1.0*3C
$GPGST,021612.00,4.213,0.635,0.540,357.887,0.635,0.540,1.374*52
$GPGBS,021612.00,3.141,2.576,6.247,71,0.0001,11.387,6.132*62
$GPGRS,021612.00,1,-0.3,-0.4,-0.6,-0.9,1.1,0.0,0.7,,,,,*69
$GPGRS,021612.00,1,11.4,-2.6,-4.5,,,,,,,,,*57
$GPGRS,021612.00,1,-1.0,-0.6,0.2,1.9,-1.7,-0.7,,,,,,*44
$GPGRS,021612.00,1,3.7,0.3,0.4,9.2,-2.5,-1.3,-4.5,-3.8,-3.3,,,*4C
$GPGSV,4,1,15,04,73,210,48,06,29,313,45,28,18,041,29,21,13,154,21*75
$GPGSV,4,2,15,17,27,248,35,19,30,281,40,02,29,161,45,31,33,066,44*78
$GPGSV,4,3,15,01,34,151,,09,43,228,45,03,68,069,50,36,35,170,40*78
$GPGSV,4,4,15,34,31,208,,49,34,195,36,61,03,257,*44
$GLGSV,3,1,09,70,70,301,27,78,12,019,25,79,18,070,27,84,20,172,33*65
$GLGSV,3,2,09,71,27,253,39,86,38,320,43,69,30,050,34,85,63,222,43*60
$GLGSV,3,3,09,80,04,118,*58
$GAGSV,3,1,10,09,82,166,41,18,22,284,,05,30,223,28,10,10,145,21*67
$GAGSV,3,2,10,04,40,055,38,34,34,312,39,11,36,151,35,06,66,066,41*6C
$GAGSV,3,3,10,36,78,233,47,21,01,027,*65
$GBGSV,5,1,19,48,82,006,,37,20,089,,44,16,320,44,23,11,039,*6D
$GBGSV,5,2,19,22,10,257,33,05,24,128,36,39,24,042,24,29,31,199,37*68
$GBGSV,5,3,19,16,31,050,37,35,45,276,45,06,33,054,38,09,40,069,43*6D
$GBGSV,5,4,19,19,62,271,50,20,62,057,42,32,08,072,,46,06,139,*6E
$GBGSV,5,5,19,02,08,106,,58,10,123,,60,09,110,*5D
$GPGGA,021612.00,,,,,0,00,,,M,,M,,*4E
$PTNL,GGK,021612.00,010125,4742.4462521,N,01617.9734538,E,1,25,1.2,EHT667.5613,M*4F
$GPGGQ,021612.00,010125,4742.4462521,N,01617.9734538,E,1,25,1.607,624.3503,M*31
$GPGFA,021612.00,6.041,11.269,0.635,0.540,357.887,1.374,,VVV*3D
$GPLLK,021612.00,010125,,M,,M,1,25,1.3,,M*08
$GNGMP,021612.00,,,,,DAAA,25,0.6,,,,*51
$GPGMP,021612.00,,,,,,07,,,,2.4,123*7A
$GLGMP,021612.00,,,,,,03,,,,,*7A
$GAGMP,021612.00,,,,,,06,,,,,*72
$GBGMP,021612.00,,,,,,09,,,,,*7E
$PSSN,SNC,[0,267390000,2347]*4D
$GPZDA,021617.00,01,01,2025,,*60
$GPDTM,W84,,00.0000000,N,00.0000000,E,00.0000000,W84*5F
$GPRMC,021617.00,A,4742.4462572,N,01617.9734451,E,0.0,,010125,5.1,E,D*17
$GPGLL,4742.4462572,N,01617.9734451,E,021617.00,A,D*66
$GPGGA,021617.00,4742.4462572,N,01617.9734451,E,2,25,0.6,624.3590,M,43.2110,M,2.9,0123*4B
$GNGNS,021617.00,4742.4462572,N,01617.9734451,E,DAAA,25,0.6,624.3590,43.2110,,*5C
$GPGNS,021617.00,,,,,,07,,,,2.9,123*72
$GLGNS,021617.00,,,,,,03,,,,,*7F
$GAGNS,021617.00,,,,,,06,,,,,*77
$GBGNS,021617.00,,,,,,09,,,,,*7B
$GPLLQ,021617.00,010125,,M,,M,1,25,1.719,,M*1B
$GPVTG,,T,,M,0.00,N,0.01,K,D*27
$GPHDT,,T*1B
$GPTHS,,V*0E
$GPROT,,V*08
$PSSN,HRP,021617.00,010125,,,,,,,00,0,,*62
$PTNL,AVR,021617.00,,Yaw,,Tilt,,,,0,,00*34
$GPGSA,A,3,02,03,04,06,09,19,31,,,,,,1.2,0.6,1.0*36
$GPGSA,A,3,69,85,86,,,,,,,,,,1.2,0.6,1.0*3A
$GPGSA,A,3,04,06,09,11,34,36,,,,,,,1.2,0.6,1.0*3F
$GPGSA,A,3,05,06,09,16,19,20,29,35,44,,,,1.2,0.6,1.0*3C
$GPGST,021617.00,3.406,0.678,0.573,359.271,0.678,0.573,1.472*5E
$GPGBS,021617.00,3.208,2.600,6.368,09,0.0001,1.318,0.672*5A
$GPGRS,021617.00,1,0.2,-0.4,-0.6,-0.9,1.3,-1.1,1.4,,,,,*6D
$GPGRS,021617.00,1,1.1,-3.7,-5.1,,,,,,,,,*63
$GPGRS,021617.00,1,-0.8,-0.1,0.4,1.8,-1.4,-0.2,,,,,,*4E
$GPGRS,021617.00,1,4.8,0.5,1.0,9.7,-2.4,-2.4,-3.2,-2.9,-2.5,,,*45
$GPGSV,4,1,15,04,73,210,48,06,29,313,45,28,18,041,,21,13,154,21*7E
$GPGSV,4,2,15,17,27,248,33,19,30,281,38,02,29,161,45,31,33,066,44*71
$GPGSV,4,3,15,01,34,151,,09,43,228,45,03,68,069,49,36,35,170,39*7E
$GPGSV,4,4,15,34,31,208,,49,34,195,35,61,03,257,*47
$GLGSV,3,1,09,70,70,301,27,78,12,019,26,79,18,070,,84,20,172,32*62
$GLGSV,3,2,09,71,27,253,35,86,38,320,43,69,29,050,36,85,63,222,43*66
$GLGSV,3,3,09,80,04,118,*58
$GAGSV,3,1,10,09,82,166,42,18,22,284,,05,30,223,29,10,10,145,22*66
$GAGSV,3,2,10,04,40,055,38,34,34,312,39,11,36,151,35,06,66,066,41*6C
$GAGSV,3,3,10,36,78,233,47,21,01,027,*65
$GBGSV,5,1,19,48,82,006,,37,20,089,,44,17,320,43,23,11,039,*6B
$GBGSV,5,2,19,22,10,257,31,05,24,128,35,39,24,041,24,29,31,199,36*6B
$GBGSV,5,3,19,16,31,050,36,35,45,276,44,06,33,054,38,09,40,068,43*6C
$GBGSV,5,4,19,19,62,271,51,20,62,057,43,32,08,072,,46,06,139,*6E
$GBGSV,5,5,19,02,08,106,,58,10,123,,60,09,110,*5D
$GPGGA,021617.00,,,,,0,00,,,M,,M,,*4B
$PTNL,GGK,021617.00,010125,4742.4462572,N,01617.9734451,E,1,25,1.2,EHT667.5701,M*40
$GPGGQ,021617.00,010125,4742.4462572,N,01617.9734451,E,1,25,1.719,624.3590,M*38
$GPGFA,021617.00,6.446,12.070,0.678,0.573,359.271,1.472,,VVV*37
$GPLLK,021617.00,010125,,M,,M,1,25,1.4,,M*0A
$GNGMP,021617.00,,,,,DAAA,25,0.6,,,,*54
$GPGMP,021617.00,,,,,,07,,,,2.9,123*72
$GLGMP,021617.00,,,,,,03,,,,,*7F
$GAGMP,021617.00,,,,,,06,,,,,*77
$GBGMP,021617.00,,,,,,09,,,,,*7B
$PSSN,SNC,[0,267395000,2347]*48
$GPZDA,021622.00,01,01,2025,,*66
$GPDTM,W84,,00.0000000,N,00.0000000,E,00.0000000,W84*5F
$GPRMC,021622.00,A,4742.4462618,N,01617.9734348,E,0.0,,010125,5.1,E,D*11
$GPGLL,4742.4462618,N,01617.9734348,E,021622.00,A,D*60
$GPGGA,021622.00,4742.4462618,N,01617.9734348,E,2,24,0.6,624.3647,M,43.2111,M,3.5,0123*49
$GNGNS,021622.00,4742.4462618,N,01617.9734348,E,DAAA,24,0.6,624.3647,43.2111,,*53
$GPGNS,021622.00,,,,,,06,,,,3.5,123*78
$GLGNS,021622.00,,,,,,03,,,,,*79
$GAGNS,021622.00,,,,,,06,,,,,*71
$GBGNS,021622.00,,,,,,09,,,,,*7D
$GPLLQ,021622.00,010125,,M,,M,1,24,1.296,,M*1E
$GPVTG,,T,,M,0.00,N,0.01,K,D*27
$GPHDT,,T*1B
$GPTHS,,V*0E
$GPROT,,V*08
$PSSN,HRP,021622.00,010125,,,,,,,00,0,,*64
$PTNL,AVR,021622.00,,Yaw,,Tilt,,,,0,,00*32
$GPGSA,A,3,02,03,04,06,09,31,,,,,,,1.2,0.6,1.0*3E
$GPGSA,A,3,69,85,86,,,,,,,,,,1.2,0.6,1.0*3A
$GPGSA,A,3,04,06,09,11,34,36,,,,,,,1.2,0.6,1.0*3F
$GPGSA,A,3,05,06,09,16,19,20,29,35,44,,,,1.2,0.6,1.0*3C
$GPGST,021622.00,3.444,0.518,0.446,325.083,0.496,0.471,1.101*58
$GPGBS,021622.00,3.351,2.714,6.421,16,0.0001,10.078,8.597*64
$GPGRS,021622.00,1,-0.3,0.1,-0.4,-0.5,0.7,0.7,,,,,,*65
$GPGRS,021622.00,1,-3.1,-3.1,-3.8,,,,,,,,,*43
$GPGRS,021622.00,1,-0.4,0.1,-0.2,1.5,-0.7,-0.2,,,,,,*4D
$GPGRS,021622.00,1,4.8,1.0,0.7,10.1,-2.4,-2.4,-3.0,-2.5,-3.2,,,*77
$GPGSV,4,1,15,04,73,210,48,06,29,313,44,28,18,041,,21,12,154,20*7F
$GPGSV,4,2,15,17,27,248,30,19,30,281,35,02,29,161,44,31,33,066,43*79
$GPGSV,4,3,15,01,34,151,,09,43,228,44,03,68,069,49,36,35,170,39*7F
$GPGSV,4,4,15,34,31,208,,49,34,195,36,61,03,257,*44
$GLGSV,3,1,09,70,70,301,27,78,12,019,26,79,18,070,,84,20,172,33*63
$GLGSV,3,2,09,71,27,253,26,86,38,320,46,69,29,050,39,85,63,222,42*6F
$GLGSV,3,3,09,80,04,118,*58
$GAGSV,3,1,10,09,82,166,42,18,22,284,,05,30,223,30,10,10,145,20*6C
$GAGSV,3,2,10,04,40,055,38,34,34,312,40,11,36,151,36,06,66,066,41*61
$GAGSV,3,3,10,36,78,232,48,21,01,027,*6B
$GBGSV,5,1,19,48,82,006,,37,20,089,,44,17,320,43,23,11,039,*6B
$GBGSV,5,2,19,22,10,257,29,05,24,128,36,39,24,041,27,29,31,199,38*6C
$GBGSV,5,3,19,16,31,050,36,35,45,276,43,06,33,054,38,09,40,068,42*6A
$GBGSV,5,4,19,19,62,271,52,20,62,057,43,32,08,072,,46,06,139,*6D
$GBGSV,5,5,19,02,08,106,,58,10,123,,60,09,110,*5D
$GPGGA,021622.00,,,,,0,00,,,M,,M,,*4D
$PTNL,GGK,021622.00,010125,4742.4462618,N,01617.9734348,E,1,24,1.2,EHT667.5758,M*4B
$GPGGQ,021622.00,010125,4742.4462618,N,01617.9734348,E,1,24,1.296,624.3647,M*34
$GPGFA,021622.00,4.924,9.027,0.518,0.446,325.083,1.101,,VVV*05
$GPLLK,021622.00,010125,,M,,M,1,24,1.4,,M*0D
$GNGMP,021622.00,,,,,DAAA,24,0.6,,,,*53
$GPGMP,021622.00,,,,,,06,,,,3.5,123*78
$GLGMP,021622.00,,,,,,03,,,,,*79
$GAGMP,021622.00,,,,,,06,,,,,*71
$GBGMP,021622.00,,,,,,09,,,,,*7D
$PSSN,SNC,[0,267400000,2347]*43
$GPZDA,021627.00,01,01,2025,,*63
$GPDTM,W84,,00.0000000,N,00.0000000,E,00.0000000,W84*5F
$GPRMC,021627.00,A,4742.4462562,N,01617.9734300,E,0.0,,010125,5.1,E,D*16
$GPGLL,4742.4462562,N,01617.9734300,E,021627.00,A,D*67
$GPGGA,021627.00,4742.4462562,N,01617.9734300,E,2,24,0.6,624.3648,M,43.2111,M,1.2,0123*44
$GNGNS,021627.00,4742.4462562,N,01617.9734300,E,DAAA,24,0.6,624.3648,43.2111,,*5B
$GPGNS,021627.00,,,,,,06,,,,1.2,123*78
$GLGNS,021627.00,,,,,,03,,,,,*7C
$GAGNS,021627.00,,,,,,06,,,,,*74
$GBGNS,021627.00,,,,,,09,,,,,*78
$GPLLQ,021627.00,010125,,M,,M,1,24,1.318,,M*1C
$GPVTG,,T,,M,0.00,N,0.01,K,D*27
$GPHDT,,T*1B
$GPTHS,,V*0E
$GPROT,,V*08
$PSSN,HRP,021627.00,010125,,,,,,,00,0,,*61
$PTNL,AVR,021627.00,,Yaw,,Tilt,,,,0,,00*37
$GPGSA,A,3,02,03,04,06,09,31,,,,,,,1.2,0.6,1.0*3E
$GPGSA,A,3,69,85,86,,,,,,,,,,1.2,0.6,1.0*3A
$GPGSA,A,3,04,06,09,11,34,36,,,,,,,1.2,0.6,1.0*3F
$GPGSA,A,3,05,06,09,16,19,20,29,35,44,,,,1.2,0.6,1.0*3C
$GPGST,021627.00,3.362,0.526,0.456,325.865,0.505,0.479,1.119*58
$GPGBS,021627.00,3.141,2.531,6.105,02,0.0001,-1.021,0.735*72
$GPGRS,021627.00,1,-1.0,0.5,-0.1,-0.1,0.0,0.6,,,,,,*61
$GPGRS,021627.00,1,-1.1,-1.2,-2.5,,,,,,,,,*49
$GPGRS,021627.00,1,0.0,-0.1,-0.5,3.0,-0.6,0.0,,,,,,*62
$GPGRS,021627.00,1,5.0,0.7,0.9,10.7,-2.6,-2.7,-0.8,-0.7,-3.9,,,*74
$GPGSV,4,1,15,04,73,210,49,06,29,313,44,28,18,041,31,21,12,154,20*7C
$GPGSV,4,2,15,17,27,248,23,19,30,281,32,02,29,161,43,31,33,065,39*75
$GPGSV,4,3,15,01,34,151,,09,43,228,41,03,68,069,50,36,35,170,39*72
$GPGSV,4,4,15,34,31,208,,49,34,195,37,61,03,257,*45
$GLGSV,3,1,09,70,70,301,30,78,12,019,29,79,18,070,32,84,20,172,32*6A
$GLGSV,3,2,09,71,27,253,34,86,38,320,45,69,29,050,40,85,63,221,43*63
$GLGSV,3,3,09,80,04,118,*58
$GAGSV,3,1,10,09,82,166,43,18,22,284,,05,30,223,31,10,10,145,*6E
$GAGSV,3,2,10,04,40,055,36,34,34,312,42,11,36,151,37,06,66,066,43*6E
$GAGSV,3,3,10,36,78,232,49,21,01,027,*6A
$GBGSV,5,1,19,48,82,006,,37,20,089,,58,10,123,,23,11,039,*67
$GBGSV,5,2,19,44,17,320,43,22,10,257,27,39,24,041,22,05,24,128,36*64
$GBGSV,5,3,19,29,31,199,38,16,31,050,35,06,33,054,38,35,45,276,42*6E
$GBGSV,5,4,19,09,40,068,44,19,62,271,51,20,62,057,43,46,06,139,*61
$GBGSV,5,5,19,02,08,106,,32,08,072,,60,09,110,*5D
$GPGGA,021627.00,,,,,0,00,,,M,,M,,*48
$PTNL,GGK,021627.00,010125,4742.4462562,N,01617.9734300,E,1,24,1.2,EHT667.5759,M*4D
$GPGGQ,021627.00,010125,4742.4462562,N,01617.9734300,E,1,24,1.318,624.3648,M*3B
$GPGFA,021627.00,5.005,9.176,0.526,0.456,325.865,1.119,,VVV*0B
$GPLLK,021627.00,010125,,M,,M,1,24,1.4,,M*08
$GNGMP,021627.00,,,,,DAAA,24,0.6,,,,*56
$GPGMP,021627.00,,,,,,06,,,,1.2,123*78
$GLGMP,021627.00,,,,,,03,,,,,*7C
$GAGMP,021627.00,,,,,,06,,,,,*74
$GBGMP,021627.00,,,,,,09,,,,,*78
$PSSN,SNC,[0,267405000,2347]*46
$GPZDA,021632.00,01,01,2025,,*67
$GPDTM,W84,,00.0000000,N,00.0000000,E,00.0000000,W84*5F
$GPRMC,021632.00,A,4742.4462492,N,01617.9734283,E,0.0,,010125,5.1,E,D*16
$GPGLL,4742.4462492,N,01617.9734283,E,021632.00,A,D*67
$GPGGA,021632.00,4742.4462492,N,01617.9734283,E,2,25,0.6,624.3496,M,43.2111,M,2.4,0123*41
$GNGNS,021632.00,4742.4462492,N,01617.9734283,E,DAAA,25,0.6,624.3496,43.2111,,*5B
