$GPZDA,101442.00,01,01,2025,,*61
$GPDTM,W84,,00.0000000,N,00.0000000,E,00.0000000,W84*5F
$GPRMC,101442.00,A,4742.4462950,N,01617.9731424,E,0.0,,010125,5.1,E,D*1D
$GPGLL,4742.4462950,N,01617.9731424,E,101442.00,A,D*6C
$GPGGA,101442.00,4742.4462950,N,01617.9731424,E,2,23,0.6,627.2459,M,43.2111,M,2.4,0123*4D
$GNGNS,101442.00,4742.4462950,N,01617.9731424,E,DAAA,23,0.6,627.2459,43.2111,,*57
$GPGNS,101442.00,,,,,,07,,,,2.4,123*7E
$GLGNS,101442.00,,,,,,04,,,,,*79
$GAGNS,101442.00,,,,,,05,,,,,*75
$GBGNS,101442.00,,,,,,07,,,,,*74
$GPLLQ,101442.00,010125,,M,,M,1,23,3.183,,M*1B
$GPVTG,,T,,M,0.01,N,0.01,K,D*26
$GPHDT,,T*1B
$GPTHS,,V*0E
$GPROT,,V*08
$PSSN,HRP,101442.00,010125,,,,,,,00,0,,*63
$PTNL,AVR,101442.00,,Yaw,,Tilt,,,,0,,00*35
$GPGSA,A,3,10,13,14,15,19,23,24,,,,,,1.1,0.6,1.0*38
$GPGSA,A,3,65,66,67,76,,,,,,,,,1.1,0.6,1.0*36
$GPGSA,A,3,02,03,07,08,25,,,,,,,,1.1,0.6,1.0*3C
$GPGSA,A,3,21,24,26,33,40,42,45,,,,,,1.1,0.6,1.0*37
$GPGST,101442.00,2.494,1.423,0.718,24.756,1.327,0.883,2.755*67
$GPGBS,101442.00,5.290,3.876,7.921,14,0.0001,-2.518,0.879*75
$GPGRS,101442.00,1,-0.2,-1.1,-2.5,0.3,2.1,-0.8,1.5,,,,,*6B
$GPGRS,101442.00,1,2.0,-0.1,5.4,-0.3,,,,,,,,*4D
$GPGRS,101442.00,1,0.0,-2.6,-0.3,-0.4,-0.4,,,,,,,*65
$GPGRS,101442.00,1,-2.0,2.6,-3.2,-2.8,0.7,-3.8,1.0,,,,,*62
$GPGSV,5,1,18,15,64,229,47,19,32,131,39,12,17,225,29,23,24,292,43*7A
$GPGSV,5,2,18,14,35,056,43,13,53,154,45,17,39,091,38,24,46,290,41*70
$GPGSV,5,3,18,22,57,060,,21,01,019,,05,01,203,,10,10,331,36*79
$GPGSV,5,4,18,02,03,037,,30,08,096,,36,35,170,36,34,31,208,*7F
$GPGSV,5,5,18,49,34,195,,61,03,257,*73
$GLGSV,3,1,09,76,74,331,50,85,18,070,28,84,13,018,30,75,26,053,20*67
$GLGSV,3,2,09,67,36,321,49,65,24,180,37,77,37,258,,66,65,233,50*63
$GLGSV,3,3,09,86,01,118,*5B
$GAGSV,3,1,10,02,76,196,46,07,27,311,40,16,21,051,,18,25,154,*6F
$GAGSV,3,2,10,30,23,223,29,03,41,153,45,25,45,056,40,08,74,259,46*64
$GAGSV,3,3,10,12,02,033,,33,01,345,*6B
$GBGSV,5,1,18,26,80,294,42,21,23,187,43,29,21,077,,35,11,134,*60
$GBGSV,5,2,18,40,26,043,36,05,20,130,,07,27,054,33,33,28,312,47*68
$GBGSV,5,3,18,50,39,208,,24,29,259,44,10,37,066,32,56,36,075,*62
$GBGSV,5,4,18,14,45,286,33,45,38,069,46,42,50,244,43,30,06,026,*6B
$GBGSV,5,5,18,02,04,109,,60,07,111,*6C
$GPGGA,101442.00,,,,,0,00,,,M,,M,,*4A
$PTNL,GGK,101442.00,010125,4742.4462950,N,01617.9731424,E,1,23,1.1,EHT670.4570,M*4C
$GPGGQ,101442.00,010125,4742.4462950,N,01617.9731424,E,1,23,3.183,627.2459,M*35
$GPGFA,101442.00,13.529,22.594,1.423,0.718,24.756,2.755,,VVV*38
$GPLLK,101442.00,010125,,M,,M,1,23,1.3,,M*0A
$GNGMP,101442.00,,,,,DAAA,23,0.6,,,,*53
$GPGMP,101442.00,,,,,,07,,,,2.4,123*7E
$GLGMP,101442.00,,,,,,04,,,,,*79
$GAGMP,101442.00,,,,,,05,,,,,*75
$GBGMP,101442.00,,,,,,07,,,,,*74
$PSSN,SNC,[0,296100000,2347]*48
$GPZDA,101447.00,01,01,2025,,*64
$GPDTM,W84,,00.0000000,N,00.0000000,E,00.0000000,W84*5F
$GPRMC,101447.00,A,4742.4463071,N,01617.9731563,E,0.0,,010125,5.1,E,D*11
$GPGLL,4742.4463071,N,01617.9731563,E,101447.00,A,D*60
$GPGGA,101447.00,4742.4463071,N,01617.9731563,E,2,22,0.6,627.2545,M,43.2111,M,3.4,0123*4D
$GNGNS,101447.00,4742.4463071,N,01617.9731563,E,DAAA,22,0.6,627.2545,43.2111,,*56
$GPGNS,101447.00,,,,,,07,,,,3.4,123*7A
$GLGNS,101447.00,,,,,,04,,,,,*7C
$GAGNS,101447.00,,,,,,04,,,,,*71
$GBGNS,101447.00,,,,,,07,,,,,*71
$GPLLQ,101447.00,010125,,M,,M,1,22,3.278,,M*18
$GPVTG,,T,,M,0.00,N,0.00,K,D*26
$GPHDT,,T*1B
$GPTHS,,V*0E
$GPROT,,V*08
$PSSN,HRP,101447.00,010125,,,,,,,00,0,,*66
$PTNL,AVR,101447.00,,Yaw,,Tilt,,,,0,,00*30
$GPGSA,A,3,10,13,14,15,19,23,24,,,,,,1.1,0.6,1.0*38
$GPGSA,A,3,65,66,67,76,,,,,,,,,1.1,0.6,1.0*36
$GPGSA,A,3,02,07,08,25,,,,,,,,,1.1,0.6,1.0*3F
$GPGSA,A,3,21,24,26,33,40,42,45,,,,,,1.1,0.6,1.0*37
$GPGST,101447.00,2.288,1.466,0.740,24.453,1.369,0.907,2.837*6F
$GPGBS,101447.00,5.414,3.940,8.144,14,0.0001,-2.927,0.895*78
$GPGRS,101447.00,1,-0.0,-1.0,-2.9,0.7,1.8,-0.8,1.5,,,,,*6F
$GPGRS,101447.00,1,1.4,-0.9,5.1,0.1,,,,,,,,*6D
$GPGRS,101447.00,1,0.7,-0.3,0.2,0.7,,,,,,,,*65
$GPGRS,101447.00,1,-2.0,-0.2,-2.6,-2.5,0.3,-3.8,0.8,,,,,*49
$GPGSV,5,1,18,15,64,229,48,19,32,131,38,12,17,225,27,23,24,292,42*7B
$GPGSV,5,2,18,14,35,056,42,13,52,154,44,17,39,091,,24,46,290,41*7A
$GPGSV,5,3,18,22,56,060,,21,01,019,,05,00,203,,10,10,331,37*78
$GPGSV,5,4,18,02,03,037,,30,08,096,,36,35,170,36,34,31,208,*7F
$GPGSV,5,5,18,49,34,195,,61,03,257,*73
$GLGSV,3,1,09,76,74,331,50,85,18,070,30,84,13,018,,75,26,053,26*6B
$GLGSV,3,2,09,67,36,321,48,65,24,180,36,77,37,258,28,66,65,233,49*61
$GLGSV,3,3,09,86,01,118,*5B
$GAGSV,3,1,10,02,76,196,46,07,27,311,40,16,21,051,,18,25,154,*6F
$GAGSV,3,2,10,30,23,223,29,03,41,153,22,25,45,056,41,08,74,259,46*64
$GAGSV,3,3,10,12,02,033,,33,01,345,*6B
$GBGSV,5,1,18,26,80,294,41,21,23,187,42,29,21,077,,35,11,134,*62
$GBGSV,5,2,18,40,26,043,36,05,20,130,,07,27,054,19,33,28,312,48*6F
$GBGSV,5,3,18,50,39,208,,24,29,259,43,10,37,066,32,56,36,075,*65
$GBGSV,5,4,18,14,45,286,35,45,38,069,46,42,50,244,43,30,06,026,*6D
$GBGSV,5,5,18,02,04,109,,60,07,111,*6C
$GPGGA,101447.00,,,,,0,00,,,M,,M,,*4F
$PTNL,GGK,101447.00,010125,4742.4463071,N,01617.9731563,E,1,22,1.1,EHT670.4655,M*45
$GPGGQ,101447.00,010125,4742.4463071,N,01617.9731563,E,1,22,3.278,627.2545,M*33
$GPGFA,101447.00,13.941,23.260,1.466,0.740,24.453,2.837,,VVV*33
$GPLLK,101447.00,010125,,M,,M,1,22,1.3,,M*0E
$GNGMP,101447.00,,,,,DAAA,22,0.6,,,,*57
$GPGMP,101447.00,,,,,,07,,,,3.4,123*7A
$GLGMP,101447.00,,,,,,04,,,,,*7C
$GAGMP,101447.00,,,,,,04,,,,,*71
$GBGMP,101447.00,,,,,,07,,,,,*71
$PSSN,SNC,[0,296105000,2347]*4D
$GPZDA,101452.00,01,01,2025,,*60
$GPDTM,W84,,00.0000000,N,00.0000000,E,00.0000000,W84*5F
$GPRMC,101452.00,A,4742.4463121,N,01617.9731723,E,0.0,,010125,5.1,E,D*17
$GPGLL,4742.4463121,N,01617.9731723,E,101452.00,A,D*66
$GPGGA,101452.00,4742.4463121,N,01617.9731723,E,2,22,0.7,627.2576,M,43.2111,M,2.7,0123*48
$GNGNS,101452.00,4742.4463121,N,01617.9731723,E,DAAA,22,0.7,627.2576,43.2111,,*51
$GPGNS,101452.00,,,,,,07,,,,2.7,123*7C
$GLGNS,101452.00,,,,,,03,,,,,*7F
$GAGNS,101452.00,,,,,,04,,,,,*75
$GBGNS,101452.00,,,,,,08,,,,,*7A
$GPLLQ,101452.00,010125,,M,,M,1,22,2.620,,M*14
$GPVTG,,T,,M,0.00,N,0.01,K,D*27
$GPHDT,,T*1B
$GPTHS,,V*0E
$GPROT,,V*08
$PSSN,HRP,101452.00,010125,,,,,,,00,0,,*62
$PTNL,AVR,101452.00,,Yaw,,Tilt,,,,0,,00*34
$GPGSA,A,3,10,13,14,15,19,23,24,,,,,,1.2,0.7,1.0*3A
$GPGSA,A,3,66,67,76,,,,,,,,,,1.2,0.7,1.0*37
$GPGSA,A,3,02,07,08,25,,,,,,,,,1.2,0.7,1.0*3D
$GPGSA,A,3,14,21,24,26,33,40,42,45,,,,,1.2,0.7,1.0*30
$GPGST,101452.00,2.416,1.161,0.586,23.697,1.089,0.711,2.274*64
$GPGBS,101452.00,5.505,3.898,8.760,14,0.0001,-1.979,0.858*70
$GPGRS,101452.00,1,0.8,-0.7,-2.0,0.8,0.4,-1.4,1.3,,,,,*48
$GPGRS,101452.00,1,-1.7,5.0,0.1,,,,,,,,,*4C
$GPGRS,101452.00,1,0.9,-0.2,0.1,1.3,,,,,,,,*68
$GPGRS,101452.00,1,3.8,-2.2,-1.5,-2.2,-2.1,0.3,-4.0,-0.3,,,,*45
$GPGSV,5,1,18,15,64,229,48,19,32,131,37,12,17,225,24,23,24,292,39*7B
$GPGSV,5,2,18,14,35,056,41,13,52,154,43,17,39,091,,24,46,290,42*7D
$GPGSV,5,3,18,22,56,060,,21,01,019,,05,00,203,,10,10,331,39*76
$GPGSV,5,4,18,02,03,037,,30,08,096,,36,35,170,36,34,31,208,*7F
$GPGSV,5,5,18,49,34,195,,61,03,257,*73
$GLGSV,3,1,09,76,74,332,51,85,18,070,28,84,13,018,,75,26,053,29*6F
$GLGSV,3,2,09,67,36,321,47,65,24,180,35,77,37,258,34,66,65,233,48*61
$GLGSV,3,3,09,86,01,118,*5B
$GAGSV,3,1,10,02,76,196,47,07,27,311,40,16,21,051,,18,25,154,*6E
$GAGSV,3,2,10,30,23,223,29,03,41,153,28,25,45,056,42,08,74,259,45*6E
$GAGSV,3,3,10,12,02,033,,33,01,345,*6B
$GBGSV,5,1,18,26,80,295,41,21,23,187,42,29,21,077,32,35,11,134,*62
$GBGSV,5,2,18,40,26,043,36,05,20,130,,07,27,054,33,33,28,312,48*67
$GBGSV,5,3,18,50,39,208,,24,29,259,43,10,37,066,33,56,36,075,*64
$GBGSV,5,4,18,14,45,286,36,45,38,069,45,42,50,244,43,30,06,026,*6D
$GBGSV,5,5,18,02,04,109,,60,07,111,*6C
$GPGGA,101452.00,,,,,0,00,,,M,,M,,*4B
$PTNL,GGK,101452.00,010125,4742.4463121,N,01617.9731723,E,1,22,1.2,EHT670.4687,M*4F
$GPGGQ,101452.00,010125,4742.4463121,N,01617.9731723,E,1,22,2.620,627.2576,M*3D
$GPGFA,101452.00,11.041,18.649,1.161,0.586,23.697,2.274,,VVV*31
$GPLLK,101452.00,010125,,M,,M,1,22,1.4,,M*0D
$GNGMP,101452.00,,,,,DAAA,22,0.7,,,,*52
$GPGMP,101452.00,,,,,,07,,,,2.7,123*7C
$GLGMP,101452.00,,,,,,03,,,,,*7F
$GAGMP,101452.00,,,,,,04,,,,,*75
$GBGMP,101452.00,,,,,,08,,,,,*7A
$PSSN,SNC,[0,296110000,2347]*49
$GPZDA,101457.00,01,01,2025,,*65
$GPDTM,W84,,00.0000000,N,00.0000000,E,00.0000000,W84*5F
$GPRMC,101457.00,A,4742.4463099,N,01617.9731835,E,0.0,,010125,5.1,E,D*18
$GPGLL,4742.4463099,N,01617.9731835,E,101457.00,A,D*69
$GPGGA,101457.00,4742.4463099,N,01617.9731835,E,2,23,0.6,627.2461,M,43.2111,M,1.4,0123*40
$GNGNS,101457.00,4742.4463099,N,01617.9731835,E,DAAA,23,0.6,627.2461,43.2111,,*59
$GPGNS,101457.00,,,,,,07,,,,1.4,123*79
$GLGNS,101457.00,,,,,,04,,,,,*7D
$GAGNS,101457.00,,,,,,04,,,,,*70
$GBGNS,101457.00,,,,,,08,,,,,*7F
$GPLLQ,101457.00,010125,,M,,M,1,23,3.200,,M*17
$GPVTG,,T,,M,0.00,N,0.01,K,D*27
$GPHDT,,T*1B
$GPTHS,,V*0E
$GPROT,,V*08
$PSSN,HRP,101457.00,010125,,,,,,,00,0,,*67
$PTNL,AVR,101457.00,,Yaw,,Tilt,,,,0,,00*31
$GPGSA,A,3,10,13,14,15,19,23,24,,,,,,1.2,0.6,1.0*3B
$GPGSA,A,3,66,67,76,77,,,,,,,,,1.2,0.6,1.0*36
$GPGSA,A,3,02,07,08,25,,,,,,,,,1.2,0.6,1.0*3C
$GPGSA,A,3,14,21,24,26,33,40,42,45,,,,,1.2,0.6,1.0*31
$GPGST,101457.00,3.939,1.412,0.711,23.382,1.327,0.860,2.782*6E
$GPGBS,101457.00,5.429,3.865,8.333,23,0.0001,-2.870,0.984*75
$GPGRS,101457.00,1,2.0,-0.4,-1.1,0.2,0.8,-2.9,1.8,,,,,*45
$GPGRS,101457.00,1,-2.1,4.6,-0.6,-6.9,,,,,,,,*6D
$GPGRS,101457.00,1,0.5,-0.6,-0.5,0.9,,,,,,,,*47
$GPGRS,101457.00,1,4.0,-3.1,-1.5,-2.2,-2.4,-1.2,-10.7,-1.4,,,,*51
$GPGSV,5,1,18,15,64,228,46,19,32,131,38,12,17,225,27,23,24,292,35*74
$GPGSV,5,2,18,14,35,056,41,13,52,154,44,17,39,091,,24,46,290,42*7A
$GPGSV,5,3,18,22,56,060,,21,01,019,,05,00,203,,10,10,331,40*78
$GPGSV,5,4,18,02,03,037,,30,08,096,,36,35,170,36,34,31,208,*7F
$GPGSV,5,5,18,49,34,195,,61,03,257,*73
$GLGSV,3,1,09,76,74,332,50,85,18,070,31,84,13,018,,75,26,053,31*6F
$GLGSV,3,2,09,67,36,321,47,65,24,180,32,77,37,258,37,66,65,233,48*65
$GLGSV,3,3,09,86,01,118,*5B
$GAGSV,3,1,10,02,76,196,47,07,27,311,41,16,21,051,,18,25,154,*6F
$GAGSV,3,2,10,30,23,223,31,03,41,153,31,25,45,056,43,08,74,259,45*6E
$GAGSV,3,3,10,12,02,033,,33,01,344,*6A
$GBGSV,5,1,18,26,80,295,42,21,23,187,42,29,21,077,32,35,11,134,*61
$GBGSV,5,2,18,40,26,043,36,05,20,130,,07,27,054,33,33,28,312,48*67
$GBGSV,5,3,18,50,39,208,,24,29,259,43,10,37,066,33,56,36,075,*64
$GBGSV,5,4,18,14,45,286,37,45,38,069,45,42,50,244,41,30,06,026,*6E
$GBGSV,5,5,18,02,04,109,,60,07,111,*6C
$GPGGA,101457.00,,,,,0,00,,,M,,M,,*4E
$PTNL,GGK,101457.00,010125,4742.4463099,N,01617.9731835,E,1,23,1.2,EHT670.4571,M*4B
$GPGGQ,101457.00,010125,4742.4463099,N,01617.9731835,E,1,23,3.200,627.2461,M*33
$GPGFA,101457.00,13.428,22.813,1.412,0.711,23.382,2.782,,VVV*35
$GPLLK,101457.00,010125,,M,,M,1,23,1.4,,M*09
$GNGMP,101457.00,,,,,DAAA,23,0.6,,,,*57
$GPGMP,101457.00,,,,,,07,,,,1.4,123*79
$GLGMP,101457.00,,,,,,04,,,,,*7D
$GAGMP,101457.00,,,,,,04,,,,,*70
$GBGMP,101457.00,,,,,,08,,,,,*7F
$PSSN,SNC,[0,296115000,2347]*4C
$GPZDA,101502.00,01,01,2025,,*64
$GPDTM,W84,,00.0000000,N,00.0000000,E,00.0000000,W84*5F
$GPRMC,101502.00,A,4742.4463057,N,01617.9731936,E,0.0,,010125,5.1,E,D*19
$GPGLL,4742.4463057,N,01617.9731936,E,101502.00,A,D*68
$GPGGA,101502.00,4742.4463057,N,01617.9731936,E,2,22,0.6,627.2638,M,43.2111,M,2.5,0123*4C
$GNGNS,101502.00,4742.4463057,N,01617.9731936,E,DAAA,22,0.6,627.2638,43.2111,,*57
$GPGNS,101502.00,,,,,,06,,,,2.5,123*7B
$GLGNS,101502.00,,,,,,04,,,,,*7C
$GAGNS,101502.00,,,,,,04,,,,,*71
$GBGNS,101502.00,,,,,,08,,,,,*7E
$GPLLQ,101502.00,010125,,M,,M,1,22,3.245,,M*16
$GPVTG,,T,,M,0.00,N,0.01,K,D*27
$GPHDT,,T*1B
$GPTHS,,V*0E
$GPROT,,V*08
$PSSN,HRP,101502.00,010125,,,,,,,00,0,,*66
$PTNL,AVR,101502.00,,Yaw,,Tilt,,,,0,,00*30
$GPGSA,A,3,10,13,14,15,19,24,,,,,,,1.2,0.6,1.0*3A
$GPGSA,A,3,66,67,76,77,,,,,,,,,1.2,0.6,1.0*36
$GPGSA,A,3,02,07,08,25,,,,,,,,,1.2,0.6,1.0*3C
$GPGSA,A,3,14,21,24,26,33,40,42,45,,,,,1.2,0.6,1.0*31
$GPGST,101502.00,3.389,1.364,0.697,29.368,1.237,0.903,2.860*6E
$GPGBS,101502.00,6.012,4.708,11.507,24,0.0001,1.772,0.721*64
$GPGRS,101502.00,1,1.6,-0.5,-1.2,-0.9,0.7,1.8,,,,,,*62
$GPGRS,101502.00,1,-1.8,4.4,-1.1,-8.5,,,,,,,,*60
$GPGRS,101502.00,1,-0.3,-1.4,-1.4,-0.1,,,,,,,,*4B
$GPGRS,101502.00,1,3.0,-3.7,-1.6,-2.1,-2.9,-1.2,-4.2,-2.5,,,,*6E
$GPGSV,5,1,18,15,64,228,45,19,33,131,39,12,17,225,30,23,24,292,31*75
$GPGSV,5,2,18,14,35,056,42,13,52,154,46,17,39,091,,24,46,290,40*79
$GPGSV,5,3,18,22,56,060,,21,01,018,,05,00,203,,10,10,331,40*79
$GPGSV,5,4,18,02,03,037,,30,08,096,,36,35,170,36,34,31,208,*7F
$GPGSV,5,5,18,49,34,195,,61,03,257,*73
$GLGSV,3,1,09,76,74,332,50,85,19,070,31,84,13,018,,75,26,053,30*6F
$GLGSV,3,2,09,67,36,321,46,65,24,180,29,77,37,258,39,66,65,233,48*60
$GLGSV,3,3,09,86,01,118,*5B
$GAGSV,3,1,10,02,76,196,48,07,27,311,41,16,21,051,,18,25,154,*60
$GAGSV,3,2,10,30,23,223,33,03,41,153,32,25,45,056,44,08,74,259,45*68
$GAGSV,3,3,10,12,02,033,,33,01,344,*6A
$GBGSV,5,1,18,26,80,295,41,21,23,187,41,29,21,077,29,35,11,134,*6B
$GBGSV,5,2,18,40,26,043,36,05,20,130,,07,27,054,33,33,28,312,48*67
$GBGSV,5,3,18,50,39,208,,24,29,259,42,10,37,066,34,56,36,075,*62
$GBGSV,5,4,18,14,45,286,37,45,38,069,45,42,50,243,43,30,06,026,*6B
$GBGSV,5,5,18,02,04,109,,60,07,111,*6C
$GPGGA,101502.00,,,,,0,00,,,M,,M,,*4F
$PTNL,GGK,101502.00,010125,4742.4463057,N,01617.9731936,E,1,22,1.2,EHT670.4748,M*43
$GPGGQ,101502.00,010125,4742.4463057,N,01617.9731936,E,1,22,3.245,627.2638,M*3C
$GPGFA,101502.00,12.971,23.454,1.364,0.697,29.368,2.860,,VVV*3E
$GPLLK,101502.00,010125,,M,,M,1,22,1.4,,M*09
$GNGMP,101502.00,,,,,DAAA,22,0.6,,,,*57
$GPGMP,101502.00,,,,,,06,,,,2.5,123*7B
$GLGMP,101502.00,,,,,,04,,,,,*7C
$GAGMP,101502.00,,,,,,04,,,,,*71
$GBGMP,101502.00,,,,,,08,,,,,*7E
$PSSN,SNC,[0,296120000,2347]*4A
$GPZDA,101507.00,01,01,2025,,*61
$GPDTM,W84,,00.0000000,N,00.0000000,E,00.0000000,W84*5F
$GPRMC,101507.00,A,4742.4463063,N,01617.9732004,E,0.0,,010125,5.1,E,D*10
$GPGLL,4742.4463063,N,01617.9732004,E,101507.00,A,D*61
$GPGGA,101507.00,4742.4463063,N,01617.9732004,E,2,22,0.6,627.2750,M,43.2111,M,3.5,0123*4B
$GNGNS,101507.00,4742.4463063,N,01617.9732004,E,DAAA,22,0.6,627.2750,43.2111,,*51
$GPGNS,101507.00,,,,,,06,,,,3.5,123*7F
$GLGNS,101507.00,,,,,,04,,,,,*79
$GAGNS,101507.00,,,,,,04,,,,,*74
$GBGNS,101507.00,,,,,,08,,,,,*7B
$GPLLQ,101507.00,010125,,M,,M,1,22,2.774,,M*15
$GPVTG,,T,,M,0.01,N,0.01,K,D*26
$GPHDT,,T*1B
$GPTHS,,V*0E
$GPROT,,V*08
$PSSN,HRP,101507.00,010125,,,,,,,00,0,,*63
$PTNL,AVR,101507.00,,Yaw,,Tilt,,,,0,,00*35
$GPGSA,A,3,10,13,14,15,19,24,,,,,,,1.2,0.6,1.0*3A
$GPGSA,A,3,66,67,76,77,,,,,,,,,1.2,0.6,1.0*36
$GPGSA,A,3,02,07,08,25,,,,,,,,,1.2,0.6,1.0*3C
$GPGSA,A,3,14,21,24,26,33,40,42,45,,,,,1.2,0.6,1.0*31
$GPGST,101507.00,3.316,1.167,0.599,29.369,1.059,0.775,2.444*6F
$GPGBS,101507.00,6.088,4.772,11.648,19,0.0001,2.238,0.932*6D
$GPGRS,101507.00,1,0.5,-0.3,-1.3,-0.2,2.2,0.4,,,,,,*63
$GPGRS,101507.00,1,-2.0,5.1,-0.9,-8.3,,,,,,,,*65
$GPGRS,101507.00,1,-0.2,-1.5,-1.1,-0.1,,,,,,,,*4B
$GPGRS,101507.00,1,3.9,-3.4,-2.0,-1.6,-2.8,-2.1,-1.7,-2.4,,,,*60
$GPGSV,5,1,18,15,64,228,44,19,33,131,41,12,17,225,31,23,24,292,20*7A
$GPGSV,5,2,18,14,35,056,42,13,52,154,47,17,39,091,,24,46,290,36*79
$GPGSV,5,3,18,22,56,060,,21,01,018,,05,00,203,,10,10,331,40*79
$GPGSV,5,4,18,02,03,037,,30,08,096,,36,35,170,36,34,31,208,*7F
$GPGSV,5,5,18,49,34,195,,61,03,257,*73
$GLGSV,3,1,09,76,74,332,50,85,19,070,,84,13,018,23,75,26,053,26*6B
$GLGSV,3,2,09,67,36,321,45,65,24,180,31,77,37,258,36,66,65,233,48*65
$GLGSV,3,3,09,86,01,118,*5B
$GAGSV,3,1,10,02,76,196,48,07,27,311,40,16,21,051,,18,26,154,*62
$GAGSV,3,2,10,30,23,223,33,03,41,153,33,25,45,056,44,08,74,259,45*69
$GAGSV,3,3,10,12,02,033,,33,01,344,*6A
$GBGSV,5,1,18,26,80,295,40,21,23,187,40,29,21,077,27,35,11,134,*65
$GBGSV,5,2,18,40,26,043,35,05,20,130,,07,27,054,33,33,28,312,48*64
$GBGSV,5,3,18,50,39,208,,24,29,259,41,10,37,066,35,56,36,075,*60
$GBGSV,5,4,18,14,45,285,38,45,38,069,45,42,50,243,44,30,06,026,*60
$GBGSV,5,5,18,02,04,109,,60,07,111,*6C
$GPGGA,101507.00,,,,,0,00,,,M,,M,,*4A
$PTNL,GGK,101507.00,010125,4742.4463063,N,01617.9732004,E,1,22,1.2,EHT670.4861,M*4E
$GPGGQ,101507.00,010125,4742.4463063,N,01617.9732004,E,1,22,2.774,627.2750,M*3C
$GPGFA,101507.00,11.095,20.040,1.167,0.599,29.369,2.444,,VVV*3E
$GPLLK,101507.00,010125,,M,,M,1,22,1.4,,M*0C
$GNGMP,101507.00,,,,,DAAA,22,0.6,,,,*52
$GPGMP,101507.00,,,,,,06,,,,3.5,123*7F
$GLGMP,101507.00,,,,,,04,,,,,*79
$GAGMP,101507.00,,,,,,04,,,,,*74
$GBGMP,101507.00,,,,,,08,,,,,*7B
$PSSN,SNC,[0,296125000,2347]*4F
$GPZDA,101512.00,01,01,2025,,*65
$GPDTM,W84,,00.0000000,N,00.0000000,E,00.0000000,W84*5F
$GPRMC,101512.00,A,4742.4463106,N,01617.9732067,E,0.0,,010125,5.1,E,D*13
$GPGLL,4742.4463106,N,01617.9732067,E,101512.00,A,D*62
$GPGGA,101512.00,4742.4463106,N,01617.9732067,E,2,20,0.7,627.2947,M,43.2111,M,1.8,0123*4C
$GNGNS,101512.00,4742.4463106,N,01617.9732067,E,DAAA,20,0.7,627.2947,43.2111,,*59
$GPGNS,101512.00,,,,,,04,,,,1.8,123*76
$GLGNS,101512.00,,,,,,03,,,,,*7A
$GAGNS,101512.00,,,,,,04,,,,,*70
$GBGNS,101512.00,,,,,,09,,,,,*7E
$GPLLQ,101512.00,010125,,M,,M,1,20,4.015,,M*15
$GPVTG,,T,,M,0.01,N,0.02,K,D*25
$GPHDT,,T*1B
$GPTHS,,V*0E
$GPROT,,V*08
$PSSN,HRP,101512.00,010125,,,,,,,00,0,,*67
$PTNL,AVR,101512.00,,Yaw,,Tilt,,,,0,,00*31
$GPGSA,A,3,10,13,14,15,,,,,,,,,1.3,0.7,1.1*35
$GPGSA,A,3,66,67,76,,,,,,,,,,1.3,0.7,1.1*37
$GPGSA,A,3,02,07,08,25,,,,,,,,,1.3,0.7,1.1*3D
$GPGSA,A,3,10,14,21,24,26,33,40,42,45,,,,1.3,0.7,1.1*31
$GPGST,101512.00,2.940,1.610,0.934,359.053,1.610,0.935,3.557*52
$GPGBS,101512.00,9.090,4.577,15.806,10,0.0001,3.250,1.238*6E
$GPGRS,101512.00,1,3.2,-0.4,-1.3,0.3,,,,,,,,*4C
$GPGRS,101512.00,1,-1.3,5.6,-0.7,,,,,,,,,*60
$GPGRS,101512.00,1,0.1,-1.4,-0.4,0.1,,,,,,,,*49
$GPGRS,101512.00,1,2.3,3.9,-3.3,-3.3,-0.2,-3.0,-2.3,-2.0,-2.1,,,*41
$GPGSV,5,1,18,15,64,228,44,19,33,130,41,12,17,225,32,23,24,292,*7A
$GPGSV,5,2,18,14,35,056,42,13,52,154,48,17,39,091,,24,46,290,32*72
$GPGSV,5,3,18,22,56,060,,21,01,018,,05,00,203,,10,10,331,38*76
$GPGSV,5,4,18,02,03,037,,30,08,096,,36,35,170,36,34,31,208,*7F
$GPGSV,5,5,18,49,34,195,,61,03,257,*73
$GLGSV,3,1,09,76,74,332,51,85,19,070,30,84,13,018,,75,26,053,27*69
$GLGSV,3,2,09,67,36,321,45,65,24,180,33,77,37,258,34,66,65,232,49*65
$GLGSV,3,3,09,86,01,118,*5B
$GAGSV,3,1,10,02,76,196,49,07,27,311,40,16,21,051,,18,26,154,*63
$GAGSV,3,2,10,30,23,223,34,03,41,153,33,25,45,056,44,08,74,259,46*6D
$GAGSV,3,3,10,12,02,033,,33,01,344,*6A
$GBGSV,5,1,18,26,80,295,40,21,23,187,40,29,21,077,30,35,11,134,*63
$GBGSV,5,2,18,40,26,043,35,05,20,130,,07,27,054,34,33,28,312,47*6C
$GBGSV,5,3,18,50,39,208,,24,29,259,39,10,37,066,36,56,36,075,*6C
$GBGSV,5,4,18,14,45,285,38,45,38,069,45,42,50,243,44,30,06,026,*60
$GBGSV,5,5,18,02,04,109,,60,07,111,*6C
$GPGGA,101512.00,,,,,0,00,,,M,,M,,*4E
$PTNL,GGK,101512.00,010125,4742.4463106,N,01617.9732067,E,1,20,1.3,EHT670.5058,M*4D
$GPGGQ,101512.00,010125,4742.4463106,N,01617.9732067,E,1,20,4.015,627.2947,M*33
$GPGFA,101512.00,15.312,29.169,1.610,0.934,359.053,3.557,,VVV*01
$GPLLK,101512.00,010125,,M,,M,1,20,1.5,,M*0B
$GNGMP,101512.00,,,,,DAAA,20,0.7,,,,*55
$GPGMP,101512.00,,,,,,04,,,,1.8,123*76
$GLGMP,101512.00,,,,,,03,,,,,*7A
$GAGMP,101512.00,,,,,,04,,,,,*70
$GBGMP,101512.00,,,,,,09,,,,,*7E
$PSSN,SNC,[0,296130000,2347]*4B
$GPZDA,101517.00,01,01,2025,,*60
$GPDTM,W84,,00.0000000,N,00.0000000,E,00.0000000,W84*5F
$GPRMC,101517.00,A,4742.4463051,N,01617.9732168,E,0.0,,010125,5.1,E,D*1B
$GPGLL,4742.4463051,N,01617.9732168,E,101517.00,A,D*6A
$GPGGA,101517.00,4742.4463051,N,01617.9732168,E,2,18,0.7,627.3085,M,43.2111,M,1.7,0123*46
$GNGNS,101517.00,4742.4463051,N,01617.9732168,E,DAAA,18,0.7,627.3085,43.2111,,*5C
$GPGNS,101517.00,,,,,,03,,,,1.7,123*7B
$GLGNS,101517.00,,,,,,03,,,,,*7F
$GAGNS,101517.00,,,,,,04,,,,,*75
$GBGNS,101517.00,,,,,,08,,,,,*7A
$GPLLQ,101517.00,010125,,M,,M,1,18,5.762,,M*1D
$GPVTG,,T,,M,0.01,N,0.02,K,D*25
$GPHDT,,T*1B
$GPTHS,,V*0E
$GPROT,,V*08
$PSSN,HRP,101517.00,010125,,,,,,,00,0,,*62
$PTNL,AVR,101517.00,,Yaw,,Tilt,,,,0,,00*34
$GPGSA,A,3,13,14,15,,,,,,,,,,1.4,0.7,1.2*30
$GPGSA,A,3,66,67,76,,,,,,,,,,1.4,0.7,1.2*33
$GPGSA,A,3,02,07,08,25,,,,,,,,,1.4,0.7,1.2*39
$GPGSA,A,3,10,14,21,24,26,33,42,45,,,,,1.4,0.7,1.2*31
$GPGST,101517.00,3.117,1.476,0.978,58.753,1.134,1.360,5.483*67
$GPGBS,101517.00,8.773,8.877,34.071,67,0.0001,5.500,6.132*60
$GPGRS,101517.00,1,-0.2,-0.7,0.2,,,,,,,,,*64
$GPGRS,101517.00,1,-0.7,5.5,0.1,,,,,,,,,*48
$GPGRS,101517.00,1,0.6,-1.4,0.2,0.9,,,,,,,,*68
$GPGRS,101517.00,1,3.9,5.2,-1.8,-3.6,0.7,-2.7,-2.0,-1.5,,,,*65
$GPGSV,5,1,18,15,64,228,46,19,33,130,41,12,17,225,31,23,24,292,27*7E
$GPGSV,5,2,18,14,35,056,43,13,52,154,48,17,39,091,41,24,46,290,30*74
$GPGSV,5,3,18,22,56,060,,21,01,018,,05,00,203,,10,10,331,36*78
$GPGSV,5,4,18,02,03,037,,30,08,096,,36,35,170,36,34,31,208,*7F
$GPGSV,5,5,18,49,34,195,,61,03,257,*73
$GLGSV,3,1,09,76,74,332,52,85,19,070,31,84,13,018,20,75,26,053,*6C
$GLGSV,3,2,09,67,36,321,44,65,24,180,34,77,37,258,33,66,65,232,50*6C
$GLGSV,3,3,09,86,01,118,*5B
$GAGSV,3,1,11,02,76,196,49,07,27,311,40,16,21,051,,18,26,154,*62
$GAGSV,3,2,11,30,23,223,35,03,41,153,31,25,45,056,44,08,74,258,46*6E
$GAGSV,3,3,11,12,02,033,,10,00,055,,33,01,344,*5A
$GBGSV,5,1,18,26,80,295,39,21,23,187,41,29,21,076,,35,11,134,*6E
$GBGSV,5,2,18,40,26,043,35,05,20,130,,07,27,054,34,33,28,312,46*6D
$GBGSV,5,3,18,50,39,208,,24,29,259,38,10,37,066,37,56,36,074,*6D
$GBGSV,5,4,18,14,45,285,39,45,38,069,44,42,50,243,44,30,06,026,*60
$GBGSV,5,5,18,02,04,109,,60,07,111,*6C
$GPGGA,101517.00,,,,,0,00,,,M,,M,,*4B
$PTNL,GGK,101517.00,010125,4742.4463051,N,01617.9732168,E,1,18,1.4,EHT670.5196,M*4A
$GPGGQ,101517.00,010125,4742.4463051,N,01617.9732168,E,1,18,5.762,627.3085,M*30
$GPGFA,101517.00,14.036,44.960,1.476,0.978,58.753,5.483,,VVV*3B
$GPLLK,101517.00,010125,,M,,M,1,18,1.7,,M*07
$GNGMP,101517.00,,,,,DAAA,18,0.7,,,,*5B
$GPGMP,101517.00,,,,,,03,,,,1.7,123*7B
$GLGMP,101517.00,,,,,,03,,,,,*7F
$GAGMP,101517.00,,,,,,04,,,,,*75
$GBGMP,101517.00,,,,,,08,,,,,*7A
$PSSN,SNC,[0,296135000,2347]*4E
$GPZDA,101522.00,01,01,2025,,*66
$GPDTM,W84,,00.0000000,N,00.0000000,E,00.0000000,W84*5F
$GPRMC,101522.00,A,4742.4463071,N,01617.9732169,E,0.0,,010125,5.1,E,D*1E
$GPGLL,4742.4463071,N,01617.9732169,E,101522.00,A,D*6F
$GPGGA,101522.00,4742.4463071,N,01617.9732169,E,2,19,0.7,627.3057,M,43.2111,M,2.7,0123*4E
$GNGNS,101522.00,4742.4463071,N,01617.9732169,E,DAAA,19,0.7,627.3057,43.2111,,*57
$GPGNS,101522.00,,,,,,03,,,,2.7,123*7E
$GLGNS,101522.00,,,,,,04,,,,,*7E
$GAGNS,101522.00,,,,,,04,,,,,*73
$GBGNS,101522.00,,,,,,08,,,,,*7C
$GPLLQ,101522.00,010125,,M,,M,1,19,5.641,,M*1A
$GPVTG,,T,,M,0.00,N,0.01,K,D*27
$GPHDT,,T*1B
$GPTHS,,V*0E
$GPROT,,V*08
$PSSN,HRP,101522.00,010125,,,,,,,00,0,,*64
$PTNL,AVR,101522.00,,Yaw,,Tilt,,,,0,,00*32
$GPGSA,A,3,13,14,15,,,,,,,,,,1.3,0.7,1.1*34
$GPGSA,A,3,65,66,67,76,,,,,,,,,1.3,0.7,1.1*34
$GPGSA,A,3,02,07,08,25,,,,,,,,,1.3,0.7,1.1*3D
$GPGSA,A,3,10,14,21,24,26,33,42,45,,,,,1.3,0.7,1.1*35
$GPGST,101522.00,3.805,1.463,0.977,60.867,1.112,1.364,5.359*63
$GPGBS,101522.00,7.388,7.810,31.740,14,0.0001,10.630,8.555*5C
$GPGRS,101522.00,1,-0.1,-0.3,0.1,,,,,,,,,*66
$GPGRS,101522.00,1,0.5,-0.3,4.2,-0.3,,,,,,,,*48
$GPGRS,101522.00,1,0.4,-1.7,0.3,1.1,,,,,,,,*67
$GPGRS,101522.00,1,4.3,10.6,-1.3,-2.1,0.8,-2.4,-2.5,-1.3,,,,*5C
$GPGSV,5,1,18,15,64,228,46,19,33,130,40,12,17,225,28,23,24,292,32*73
$GPGSV,5,2,18,14,35,056,44,13,52,154,49,17,39,090,40,24,46,290,31*73
$GPGSV,5,3,18,22,56,060,,21,01,018,,05,00,203,,10,10,331,33*7D
$GPGSV,5,4,18,02,03,037,,30,08,096,,36,35,170,36,34,31,208,*7F
$GPGSV,5,5,18,49,34,195,,61,03,257,*73
$GLGSV,3,1,09,76,74,333,52,85,19,070,33,84,13,018,,75,26,053,32*6C
$GLGSV,3,2,09,67,36,321,42,65,24,180,35,77,37,258,35,66,65,232,50*6D
$GLGSV,3,3,09,86,01,118,*5B
$GAGSV,3,1,11,02,76,196,48,07,27,311,40,16,21,051,,18,26,154,*63
$GAGSV,3,2,11,30,23,223,35,03,41,153,30,25,45,056,44,08,74,258,46*6F
$GAGSV,3,3,11,12,02,033,,10,00,055,,33,01,344,*5A
$GBGSV,5,1,18,26,80,295,38,21,23,187,41,29,21,076,30,35,11,134,*6C
$GBGSV,5,2,18,40,26,043,34,05,20,130,,07,27,054,34,33,28,312,46*6C
$GBGSV,5,3,18,50,39,208,,24,29,259,37,10,37,065,37,56,36,074,*61
$GBGSV,5,4,18,14,45,285,41,45,38,069,44,42,50,243,45,30,06,026,*6E
$GBGSV,5,5,18,02,04,109,,60,07,111,*6C
$GPGGA,101522.00,,,,,0,00,,,M,,M,,*4D
$PTNL,GGK,101522.00,010125,4742.4463071,N,01617.9732169,E,1,19,1.3,EHT670.5167,M*47
$GPGGQ,101522.00,010125,4742.4463071,N,01617.9732169,E,1,19,5.641,627.3057,M*3B
$GPGFA,101522.00,13.914,43.946,1.463,0.977,60.867,5.359,,VVV*38
$GPLLK,101522.00,010125,,M,,M,1,19,1.6,,M*01
$GNGMP,101522.00,,,,,DAAA,19,0.7,,,,*5C
$GPGMP,101522.00,,,,,,03,,,,2.7,123*7E
$GLGMP,101522.00,,,,,,04,,,,,*7E
$GAGMP,101522.00,,,,,,04,,,,,*73
$GBGMP,101522.00,,,,,,08,,,,,*7C
$PSSN,SNC,[0,296140000,2347]*4C
$GPZDA,101527.00,01,01,2025,,*63
$GPDTM,W84,,00.0000000,N,00.0000000,E,00.0000000,W84*5F
$GPRMC,101527.00,A,4742.4463076,N,01617.9732234,E,0.0,,010125,5.1,E,D*17
$GPGLL,4742.4463076,N,01617.9732234,E,101527.00,A,D*66
$GPGGA,101527.00,4742.4463076,N,01617.9732234,E,2,19,0.7,627.3055,M,43.2111,M,3.7,0123*44
$GNGNS,101527.00,4742.4463076,N,01617.9732234,E,DAAA,19,0.7,627.3055,43.2111,,*5C
$GPGNS,101527.00,,,,,,03,,,,3.7,123*7A
$GLGNS,101527.00,,,,,,04,,,,,*7B
$GAGNS,101527.00,,,,,,04,,,,,*76
$GBGNS,101527.00,,,,,,08,,,,,*79
$GPLLQ,101527.00,010125,,M,,M,1,19,6.287,,M*12
$GPVTG,,T,,M,0.01,N,0.02,K,D*25
$GPHDT,,T*1B
$GPTHS,,V*0E
$GPROT,,V*08
$PSSN,HRP,101527.00,010125,,,,,,,00,0,,*61
$PTNL,AVR,101527.00,,Yaw,,Tilt,,,,0,,00*37
$GPGSA,A,3,13,14,15,,,,,,,,,,1.3,0.7,1.1*34
$GPGSA,A,3,65,66,67,76,,,,,,,,,1.3,0.7,1.1*34
$GPGSA,A,3,02,07,08,25,,,,,,,,,1.3,0.7,1.1*3D
$GPGSA,A,3,10,14,21,24,26,33,42,45,,,,,1.3,0.7,1.1*35
$GPGST,101527.00,6.083,1.672,1.214,70.026,1.276,1.625,5.938*68
$GPGBS,101527.00,7.497,7.877,31.760,14,0.0001,19.681,8.555*50
$GPGRS,101527.00,1,-0.0,-0.5,-0.1,,,,,,,,,*49
$GPGRS,101527.00,1,0.8,-0.5,4.1,0.2,,,,,,,,*69
$GPGRS,101527.00,1,0.6,-1.8,0.6,1.4,,,,,,,,*6F
$GPGRS,101527.00,1,4.2,19.7,0.1,-0.8,2.1,-1.9,-2.4,-0.9,,,,*7A
$GPGSV,5,1,18,15,64,228,47,19,33,130,38,12,17,225,27,23,24,292,32*72
$GPGSV,5,2,18,14,35,056,45,13,52,154,49,17,39,090,40,24,46,290,35*76
$GPGSV,5,3,18,22,56,060,,21,01,018,,05,00,203,,10,10,331,26*79
$GPGSV,5,4,18,02,03,037,,30,08,096,,36,35,170,36,34,31,208,*7F
$GPGSV,5,5,18,49,34,195,,61,03,257,*73
$GLGSV,3,1,09,76,74,333,52,85,19,070,32,84,13,018,,75,26,053,33*6C
$GLGSV,3,2,09,67,36,321,40,65,24,180,36,77,37,258,34,66,65,232,50*6D
$GLGSV,3,3,09,86,01,118,*5B
$GAGSV,3,1,11,02,76,196,48,07,27,311,40,16,21,051,,18,26,154,*63
$GAGSV,3,2,11,30,23,223,35,03,41,153,27,25,45,056,44,08,74,258,46*69
$GAGSV,3,3,11,12,02,033,,10,00,055,,33,01,344,*5A
$GBGSV,5,1,18,26,80,296,39,21,23,187,42,29,21,076,27,35,11,134,*6B
$GBGSV,5,2,18,40,26,043,33,05,20,130,,07,27,054,34,33,28,312,46*6B
$GBGSV,5,3,18,50,39,208,,24,29,259,36,10,37,065,38,56,36,074,*6F
$GBGSV,5,4,18,14,45,285,40,45,38,069,44,42,50,243,45,30,06,026,*6F
$GBGSV,5,5,18,02,04,109,,60,07,111,*6C
$GPGGA,101527.00,,,,,0,00,,,M,,M,,*48
$PTNL,GGK,101527.00,010125,4742.4463076,N,01617.9732234,E,1,19,1.3,EHT670.5166,M*4F
$GPGGQ,101527.00,010125,4742.4463076,N,01617.9732234,E,1,19,6.287,627.3055,M*3D
$GPGFA,101527.00,15.897,48.688,1.672,1.214,70.026,5.938,,VVV*3B
$GPLLK,101527.00,010125,,M,,M,1,19,1.6,,M*04
$GNGMP,101527.00,,,,,DAAA,19,0.7,,,,*59
$GPGMP,101527.00,,,,,,03,,,,3.7,123*7A
$GLGMP,101527.00,,,,,,04,,,,,*7B
$GAGMP,101527.00,,,,,,04,,,,,*76
$GBGMP,101527.00,,,,,,08,,,,,*79
$PSSN,SNC,[0,296145000,2347]*49
$GPZDA,101532.00,01,01,2025,,*67
$GPDTM,W84,,00.0000000,N,00.0000000,E,00.0000000,W84*5F
$GPRMC,101532.00,A,4742.4463090,N,01617.9732184,E,0.0,,010125,5.1,E,D*13
$GPGLL,4742.4463090,N,01617.9732184,E,101532.00,A,D*62
$GPGGA,101532.00,4742.4463090,N,01617.9732184,E,2,21,0.6,627.3122,M,43.2111,M,2.8,0123*45
$GNGNS,101532.00,4742.4463090,N,01617.9732184,E,DAAA,21,0.6,627.3122,43.2111,,*53
$GPGNS,101532.00,,,,,,05,,,,2.8,123*76
$GLGNS,101532.00,,,,,,04,,,,,*7F
$GAGNS,101532.00,,,,,,04,,,,,*72
$GBGNS,101532.00,,,,,,08,,,,,*7D
$GPLLQ,101532.00,010125,,M,,M,1,21,6.293,,M*18
$GPVTG,,T,,M,0.01,N,0.01,K,D*26
$GPHDT,,T*1B
$GPTHS,,V*0E
$GPROT,,V*08
$PSSN,HRP,101532.00,010125,,,,,,,00,0,,*65
$PTNL,AVR,101532.00,,Yaw,,Tilt,,,,0,,00*33
$GPGSA,A,3,13,14,15,17,19,,,,,,,,1.3,0.6,1.1*3B
$GPGSA,A,3,65,66,67,76,,,,,,,,,1.3,0.6,1.1*35
$GPGSA,A,3,02,07,08,25,,,,,,,,,1.3,0.6,1.1*3C
$GPGSA,A,3,10,14,21,24,26,33,42,45,,,,,1.3,0.6,1.1*34
$GPGST,101532.00,7.566,1.915,1.240,273.570,1.243,1.913,5.864*5F
$GPGBS,101532.00,5.240,5.794,21.557,14,0.0001,26.157,8.557*5F
$GPGRS,101532.00,1,0.5,-0.3,-0.2,-0.8,-1.5,,,,,,,*6C
$GPGRS,101532.00,1,1.9,0.0,6.6,1.1,,,,,,,,*42
$GPGRS,101532.00,1,1.4,-2.0,1.4,1.9,,,,,,,,*6D
$GPGRS,101532.00,1,5.5,26.2,0.2,0.5,3.8,-1.9,-2.4,-0.3,,,,*50
$GPGSV,5,1,18,15,64,228,47,19,33,130,36,12,17,225,24,23,24,292,38*75
$GPGSV,5,2,18,14,35,056,46,13,52,154,48,17,39,090,41,24,46,290,40*77
$GPGSV,5,3,18,22,56,060,,21,01,018,,05,00,203,,10,10,331,30*7E
$GPGSV,5,4,18,02,03,037,,30,08,096,,36,35,170,36,34,31,208,*7F
$GPGSV,5,5,18,49,34,195,,61,03,257,*73
$GLGSV,3,1,09,76,74,333,53,85,19,070,26,84,13,018,26,75,26,053,*6C
$GLGSV,3,2,09,67,36,321,42,65,24,180,36,77,37,258,33,66,65,232,50*68
$GLGSV,3,3,09,86,01,118,*5B
$GAGSV,3,1,11,02,76,196,48,07,27,311,40,16,21,051,,18,26,154,*63
$GAGSV,3,2,11,30,23,223,34,03,41,153,19,25,45,056,44,08,74,258,47*64
$GAGSV,3,3,11,12,02,033,,10,00,055,,33,01,344,*5A
$GBGSV,5,1,18,26,80,296,39,21,23,187,42,29,21,076,,35,11,134,*6E
$GBGSV,5,2,18,40,26,043,33,05,20,130,,07,27,054,35,33,28,312,46*6A
$GBGSV,5,3,18,50,39,208,,24,29,259,36,10,37,065,38,56,36,074,*6F
$GBGSV,5,4,18,14,45,285,37,45,38,069,43,42,50,243,46,30,06,025,*68
$GBGSV,5,5,18,02,04,109,,60,07,111,*6C
$GPGGA,101532.00,,,,,0,00,,,M,,M,,*4C
$PTNL,GGK,101532.00,010125,4742.4463090,N,01617.9732184,E,1,21,1.3,EHT670.5233,M*43
$GPGGQ,101532.00,010125,4742.4463090,N,01617.9732184,E,1,21,6.293,627.3122,M*36
$GPGFA,101532.00,18.210,48.089,1.915,1.240,273.570,5.864,,VVV*00
$GPLLK,101532.00,010125,,M,,M,1,21,1.5,,M*08
$GNGMP,101532.00,,,,,DAAA,21,0.6,,,,*57
$GPGMP,101532.00,,,,,,05,,,,2.8,123*76
$GLGMP,101532.00,,,,,,04,,,,,*7F
$GAGMP,101532.00,,,,,,04,,,,,*72
$GBGMP,101532.00,,,,,,08,,,,,*7D
$PSSN,SNC,[0,296150000,2347]*4D
$GPZDA,101537.00,01,01,2025,,*62
$GPDTM,W84,,00.0000000,N,00.0000000,E,00.0000000,W84*5F
$GPRMC,101537.00,A,4742.4463086,N,01617.9732210,E,0.0,,010125,5.1,E,D*1F
$GPGLL,4742.4463086,N,01617.9732210,E,101537.00,A,D*6E
$GPGGA,101537.00,4742.4463086,N,01617.9732210,E,2,22,0.6,627.3066,M,43.2111,M,1.5,0123*45
$GNGNS,101537.00,4742.4463086,N,01617.9732210,E,DAAA,22,0.6,627.3066,43.2111,,*5D
$GPGNS,101537.00,,,,,,04,,,,1.5,123*7C
$GLGNS,101537.00,,,,,,04,,,,,*7A
$GAGNS,101537.00,,,,,,05,,,,,*76
$GBGNS,101537.00,,,,,,09,,,,,*79
$GPLLQ,101537.00,010125,,M,,M,1,22,5.206,,M*11
$GPVTG,,T,,M,0.01,N,0.01,K,D*26
$GPHDT,,T*1B
$GPTHS,,V*0E
$GPROT,,V*08
$PSSN,HRP,101537.00,010125,,,,,,,00,0,,*60
$PTNL,AVR,101537.00,,Yaw,,Tilt,,,,0,,00*36
$GPGSA,A,3,13,14,15,17,,,,,,,,,1.3,0.6,1.1*33
$GPGSA,A,3,65,66,67,76,,,,,,,,,1.3,0.6,1.1*35
$GPGSA,A,3,02,03,07,08,25,,,,,,,,1.3,0.6,1.1*3F
$GPGSA,A,3,07,10,14,21,24,26,33,42,45,,,,1.3,0.6,1.1*33
$GPGST,101537.00,3.402,1.306,0.950,63.486,1.031,1.243,4.949*63
$GPGBS,101537.00,6.752,6.840,30.466,67,0.0001,8.031,6.132*69
$GPGRS,101537.00,1,0.1,-0.4,-0.5,0.8,,,,,,,,*47
$GPGRS,101537.00,1,1.1,0.7,8.0,0.7,,,,,,,,*47
$GPGRS,101537.00,1,1.4,-2.8,-2.0,1.7,1.8,,,,,,,*63
$GPGRS,101537.00,1,5.2,5.9,-2.4,0.2,1.4,2.8,-2.1,-1.9,-0.0,,,*6A
$GPGSV,5,1,18,15,64,228,46,19,33,130,35,12,17,225,25,23,24,291,40*7A
$GPGSV,5,2,18,14,35,056,46,13,52,154,48,17,39,090,42,24,46,290,43*77
$GPGSV,5,3,18,22,56,060,,21,01,018,,05,00,203,,10,10,331,30*7E
$GPGSV,5,4,18,02,03,037,,30,08,096,,36,35,170,36,34,31,208,*7F
$GPGSV,5,5,18,49,34,195,,61,03,257,*73
$GLGSV,3,1,09,76,74,333,52,85,19,070,,84,13,017,25,75,26,053,35*63
$GLGSV,3,2,09,67,36,321,45,65,24,180,35,77,37,258,30,66,65,232,50*6F
$GLGSV,3,3,09,86,01,118,*5B
$GAGSV,3,1,11,02,76,196,49,07,27,311,41,16,21,051,,18,26,154,*63
$GAGSV,3,2,11,30,23,223,34,03,41,153,43,25,45,056,43,08,74,258,47*6C
$GAGSV,3,3,11,12,02,033,,10,00,055,,33,01,344,*5A
$GBGSV,5,1,18,26,80,296,40,21,23,187,42,29,21,076,22,35,11,134,*60
$GBGSV,5,2,18,40,26,043,32,05,20,130,,07,27,054,36,33,28,312,46*68
$GBGSV,5,3,18,50,39,208,,24,29,259,36,10,37,065,39,56,36,074,*6E
$GBGSV,5,4,18,14,45,285,39,45,38,069,43,42,50,243,48,30,06,025,*68
$GBGSV,5,5,18,02,04,109,,60,07,111,*6C
$GPGGA,101537.00,,,,,0,00,,,M,,M,,*49
$PTNL,GGK,101537.00,010125,4742.4463086,N,01617.9732210,E,1,22,1.3,EHT670.5177,M*4F
$GPGGQ,101537.00,010125,4742.4463086,N,01617.9732210,E,1,22,5.206,627.3066,M*37
$GPGFA,101537.00,12.414,40.582,1.306,0.950,63.486,4.949,,VVV*3C
$GPLLK,101537.00,010125,,M,,M,1,22,1.5,,M*0E
$GNGMP,101537.00,,,,,DAAA,22,0.6,,,,*51
$GPGMP,101537.00,,,,,,04,,,,1.5,123*7C
$GLGMP,101537.00,,,,,,04,,,,,*7A
$GAGMP,101537.00,,,,,,05,,,,,*76
$GBGMP,101537.00,,,,,,09,,,,,*79
$PSSN,SNC,[0,296155000,2347]*48
$GPZDA,101542.00,01,01,2025,,*60
$GPDTM,W84,,00.0000000,N,00.0000000,E,00.0000000,W84*5F
$GPRMC,101542.00,A,4742.4463082,N,01617.9732063,E,0.0,,010125,5.1,E,D*1F
$GPGLL,4742.4463082,N,01617.9732063,E,101542.00,A,D*6E
$GPGGA,101542.00,4742.4463082,N,01617.9732063,E,2,21,0.6,627.3163,M,43.2111,M,2.4,0123*40
$GNGNS,101542.00,4742.4463082,N,01617.9732063,E,DAAA,21,0.6,627.3163,43.2111,,*5A
$GPGNS,101542.00,,,,,,05,,,,2.4,123*7D
$GLGNS,101542.00,,,,,,04,,,,,*78
$GAGNS,101542.00,,,,,,04,,,,,*75
$GBGNS,101542.00,,,,,,08,,,,,*7A
$GPLLQ,101542.00,010125,,M,,M,1,21,6.942,,M*18
$GPVTG,,T,,M,0.01,N,0.01,K,D*26
$GPHDT,,T*1B
$GPTHS,,V*0E
$GPROT,,V*08
$PSSN,HRP,101542.00,010125,,,,,,,00,0,,*62
$PTNL,AVR,101542.00,,Yaw,,Tilt,,,,0,,00*34
$GPGSA,A,3,13,14,15,17,19,,,,,,,,1.3,0.6,1.1*3B
$GPGSA,A,3,65,66,67,76,,,,,,,,,1.3,0.6,1.1*35
$GPGSA,A,3,02,07,08,25,,,,,,,,,1.3,0.6,1.1*3C
$GPGSA,A,3,07,10,21,24,26,33,42,45,,,,,1.3,0.6,1.1*36
$GPGST,101542.00,3.373,2.071,1.358,272.111,1.360,2.071,6.485*52
$GPGBS,101542.00,5.286,5.688,21.031,17,0.0001,2.128,0.801*60
$GPGRS,101542.00,1,-0.3,-0.7,-1.5,2.1,1.9,,,,,,,*45
$GPGRS,101542.00,1,-1.4,-0.5,7.9,-0.4,,,,,,,,*6A
$GPGRS,101542.00,1,0.9,-2.3,1.5,1.0,,,,,,,,*6D
$GPGRS,101542.00,1,5.2,4.7,0.1,3.1,2.0,-3.0,-1.7,-0.2,,,,*62
$GPGSV,5,1,18,15,64,228,46,19,33,130,36,12,17,225,25,23,24,291,38*76
$GPGSV,5,2,18,14,35,056,46,13,52,154,47,17,39,090,42,24,46,290,43*78
$GPGSV,5,3,18,22,56,060,,21,01,018,,05,00,203,,10,10,331,31*7F
$GPGSV,5,4,18,02,03,037,,30,08,096,,36,35,170,35,34,31,208,*7C
$GPGSV,5,5,18,49,34,195,,61,03,257,*73
$GLGSV,3,1,09,76,74,333,51,85,19,070,33,84,13,017,21,75,26,053,34*65
$GLGSV,3,2,09,67,36,321,45,65,24,180,35,77,37,258,30,66,65,232,49*67
$GLGSV,3,3,09,86,01,118,*5B
$GAGSV,3,1,11,02,76,196,49,07,27,311,42,16,21,051,,18,26,154,*60
$GAGSV,3,2,11,30,23,223,33,03,41,153,29,25,45,056,42,08,74,258,47*66
$GAGSV,3,3,11,12,02,033,,10,00,055,,33,01,344,*5A
$GBGSV,5,1,18,26,80,296,39,21,23,187,42,29,21,076,23,35,11,134,*6F
$GBGSV,5,2,18,40,26,043,31,05,20,130,,07,27,054,36,33,28,312,46*6B
$GBGSV,5,3,18,50,39,208,,24,29,259,37,10,37,065,39,56,36,074,*6F
$GBGSV,5,4,18,14,45,285,33,45,38,069,43,42,50,243,48,30,06,025,*62
$GBGSV,5,5,18,02,04,109,,60,07,111,*6C
$GPGGA,101542.00,,,,,0,00,,,M,,M,,*4B
$PTNL,GGK,101542.00,010125,4742.4463082,N,01617.9732063,E,1,21,1.3,EHT670.5274,M*4C
$GPGGQ,101542.00,010125,4742.4463082,N,01617.9732063,E,1,21,6.942,627.3163,M*38
$GPGFA,101542.00,19.695,53.174,2.071,1.358,272.111,6.485,,VVV*04
$GPLLK,101542.00,010125,,M,,M,1,21,1.5,,M*0F
$GNGMP,101542.00,,,,,DAAA,21,0.6,,,,*50
$GPGMP,101542.00,,,,,,05,,,,2.4,123*7D
$GLGMP,101542.00,,,,,,04,,,,,*78
$GAGMP,101542.00,,,,,,04,,,,,*75
$GBGMP,101542.00,,,,,,08,,,,,*7A
$PSSN,SNC,[0,296160000,2347]*4E
$GPZDA,101547.00,01,01,2025,,*65
$GPDTM,W84,,00.0000000,N,00.0000000,E,00.0000000,W84*5F
$GPRMC,101547.00,A,4742.4463153,N,01617.9731851,E,0.0,,010125,5.1,E,D*1D
$GPGLL,4742.4463153,N,01617.9731851,E,101547.00,A,D*6C
$GPGGA,101547.00,4742.4463153,N,01617.9731851,E,2,22,0.6,627.3518,M,43.2111,M,3.4,0123*48
$GNGNS,101547.00,4742.4463153,N,01617.9731851,E,DAAA,22,0.6,627.3518,43.2111,,*53
$GPGNS,101547.00,,,,,,05,,,,3.4,123*79
$GLGNS,101547.00,,,,,,04,,,,,*7D
$GAGNS,101547.00,,,,,,04,,,,,*70
$GBGNS,101547.00,,,,,,09,,,,,*7E
$GPLLQ,101547.00,010125,,M,,M,1,22,8.121,,M*1D
$GPVTG,,T,,M,0.01,N,0.01,K,D*26
$GPHDT,,T*1B
$GPTHS,,V*0E
$GPROT,,V*08
$PSSN,HRP,101547.00,010125,,,,,,,00,0,,*67
$PTNL,AVR,101547.00,,Yaw,,Tilt,,,,0,,00*31
$GPGSA,A,3,13,14,15,17,19,,,,,,,,1.3,0.6,1.1*3B
$GPGSA,A,3,66,67,75,76,,,,,,,,,1.3,0.6,1.1*34
$GPGSA,A,3,02,07,08,25,,,,,,,,,1.3,0.6,1.1*3C
$GPGSA,A,3,07,10,14,21,24,26,33,42,45,,,,1.3,0.6,1.1*33
$GPGST,101547.00,3.186,2.414,1.598,271.611,1.599,2.414,7.588*5C
$GPGBS,101547.00,5.496,5.937,23.509,19,0.0001,3.303,0.933*61
$GPGRS,101547.00,1,-0.4,-1.3,-1.7,1.4,3.3,,,,,,,*4E
$GPGRS,101547.00,1,-1.3,5.2,-1.0,-0.7,,,,,,,,*66
$GPGRS,101547.00,1,0.7,-1.8,1.3,0.4,,,,,,,,*6D
$GPGRS,101547.00,1,4.6,4.5,-5.8,-1.0,2.1,0.1,-3.9,-1.5,-0.4,,,*4C
$GPGSV,5,1,18,15,64,228,46,10,10,331,32,23,24,291,38,12,17,225,26*7A
$GPGSV,5,2,18,19,33,130,37,14,34,056,46,17,39,090,43,13,52,154,47*7E
$GPGSV,5,3,18,24,46,290,42,22,56,060,,21,01,018,,05,00,203,*75
$GPGSV,5,4,18,02,03,037,,30,08,096,,36,35,170,36,34,31,208,*7F
$GPGSV,5,5,18,49,34,195,,61,03,257,*73
$GLGSV,3,1,09,76,74,333,52,85,19,070,32,84,13,017,,75,26,053,36*66
$GLGSV,3,2,09,67,37,321,44,65,24,180,34,77,37,258,28,66,65,232,48*6E
$GLGSV,3,3,09,86,01,118,*5B
$GAGSV,3,1,11,02,76,196,49,07,27,311,42,16,21,051,,18,26,154,*60
$GAGSV,3,2,11,30,23,223,32,03,41,153,31,25,45,056,42,08,74,258,48*61
$GAGSV,3,3,11,12,02,033,,10,00,055,,33,01,344,*5A
$GBGSV,5,1,18,26,80,296,38,21,23,187,41,29,22,076,27,35,11,134,*6A
$GBGSV,5,2,18,40,26,043,31,05,20,130,,07,27,054,36,33,28,312,46*6B
$GBGSV,5,3,18,50,39,208,,24,29,259,38,10,37,065,39,56,36,074,*60
$GBGSV,5,4,18,14,45,285,35,45,38,069,44,42,50,243,49,30,06,025,*62
$GBGSV,5,5,18,02,04,109,,60,07,111,*6C
$GPGGA,101547.00,,,,,0,00,,,M,,M,,*4E
$PTNL,GGK,101547.00,010125,4742.4463153,N,01617.9731851,E,1,22,1.3,EHT670.5629,M*41
$GPGGQ,101547.00,010125,4742.4463153,N,01617.9731851,E,1,22,8.121,627.3518,M*32
$GPGFA,101547.00,22.953,62.220,2.414,1.598,271.611,7.588,,VVV*08
$GPLLK,101547.00,010125,,M,,M,1,22,1.6,,M*0A
$GNGMP,101547.00,,,,,DAAA,22,0.6,,,,*56
$GPGMP,101547.00,,,,,,05,,,,3.4,123*79
$GLGMP,101547.00,,,,,,04,,,,,*7D
$GAGMP,101547.00,,,,,,04,,,,,*70
$GBGMP,101547.00,,,,,,09,,,,,*7E
$PSSN,SNC,[0,296165000,2347]*4B
$GPZDA,101552.00,01,01,2025,,*61
$GPDTM,W84,,00.0000000,N,00.0000000,E,00.0000000,W84*5F
$GPRMC,101552.00,A,4742.4463178,N,01617.9731794,E,0.0,,010125,5.1,E,D*16
$GPGLL,4742.4463178,N,01617.9731794,E,101552.00,A,D*67
$GPGGA,101552.00,4742.4463178,N,01617.9731794,E,2,22,0.6,627.3841,M,43.2111,M,3.0,0123*46
$GNGNS,101552.00,4742.4463178,N,01617.9731794,E,DAAA,22,0.6,627.3841,43.2111,,*59
$GPGNS,101552.00,,,,,,06,,,,3.0,123*7A
$GLGNS,101552.00,,,,,,04,,,,,*79
$GAGNS,101552.00,,,,,,04,,,,,*74
$GBGNS,101552.00,,,,,,08,,,,,*7B
$GPLLQ,101552.00,010125,,M,,M,1,22,6.012,,M*16
$GPVTG,,T,,M,0.01,N,0.01,K,D*26
$GPHDT,,T*1B
$GPTHS,,V*0E
$GPROT,,V*08
$PSSN,HRP,101552.00,010125,,,,,,,00,0,,*63
$PTNL,AVR,101552.00,,Yaw,,Tilt,,,,0,,00*35
$GPGSA,A,3,13,14,15,17,19,24,,,,,,,1.3,0.6,1.1*3D
$GPGSA,A,3,66,67,75,76,,,,,,,,,1.3,0.6,1.1*34
$GPGSA,A,3,02,07,08,25,,,,,,,,,1.3,0.6,1.1*3C
$GPGSA,A,3,07,10,21,24,26,33,42,45,,,,,1.3,0.6,1.1*36
$GPGST,101552.00,2.595,1.690,1.007,33.826,1.512,1.259,5.681*68
$GPGBS,101552.00,5.349,4.661,20.384,19,0.0001,3.611,0.951*6F
$GPGRS,101552.00,1,-0.5,-1.2,-1.6,0.3,3.6,0.5,,,,,,*63
$GPGRS,101552.00,1,-1.8,2.6,1.3,-0.6,,,,,,,,*45
$GPGRS,101552.00,1,0.3,-1.2,1.1,0.1,,,,,,,,*60
$GPGRS,101552.00,1,3.4,5.1,-2.4,-1.2,-1.2,-4.4,-1.8,-0.6,,,,*46
$GPGSV,5,1,18,15,64,228,45,10,10,331,31,23,24,291,37,12,17,225,25*76
$GPGSV,5,2,18,19,33,130,38,14,34,056,46,17,39,090,42,13,52,154,46*71
$GPGSV,5,3,18,24,46,290,41,22,56,060,,21,01,018,,05,00,203,*76
$GPGSV,5,4,18,02,03,037,,30,08,096,,36,35,170,36,34,31,208,*7F
$GPGSV,5,5,18,49,34,195,,61,03,257,*73
$GLGSV,3,1,09,76,74,334,51,85,19,069,,84,13,017,,75,26,053,35*68
$GLGSV,3,2,09,67,37,321,44,65,24,180,33,77,37,258,29,66,64,232,48*69
$GLGSV,3,3,09,86,01,118,*5B
$GAGSV,3,1,11,02,76,196,49,07,27,311,42,16,21,051,,18,26,154,*60
$GAGSV,3,2,11,30,24,224,29,03,41,153,32,25,45,056,41,08,74,258,48*6B
$GAGSV,3,3,11,12,02,033,,10,00,055,,33,01,344,*5A
$GBGSV,5,1,18,26,80,296,37,21,23,187,40,29,22,076,31,35,11,134,*63
$GBGSV,5,2,18,40,26,043,30,05,20,130,,07,27,054,36,33,28,312,46*6A
$GBGSV,5,3,18,50,39,207,,24,29,259,38,10,37,065,39,56,36,074,*6F
$GBGSV,5,4,18,14,45,285,33,45,38,069,45,42,50,243,49,30,06,025,*65
$GBGSV,5,5,18,02,04,109,,60,07,111,*6C
$GPGGA,101552.00,,,,,0,00,,,M,,M,,*4A
$PTNL,GGK,101552.00,010125,4742.4463178,N,01617.9731794,E,1,22,1.3,EHT670.5951,M*4A
$GPGGQ,101552.00,010125,4742.4463178,N,01617.9731794,E,1,22,6.012,627.3841,M*37
$GPGFA,101552.00,16.070,46.582,1.690,1.007,33.826,5.681,,VVV*32
$GPLLK,101552.00,010125,,M,,M,1,22,1.6,,M*0E
$GNGMP,101552.00,,,,,DAAA,22,0.6,,,,*52
$GPGMP,101552.00,,,,,,06,,,,3.0,123*7A
$GLGMP,101552.00,,,,,,04,,,,,*79
$GAGMP,101552.00,,,,,,04,,,,,*74
$GBGMP,101552.00,,,,,,08,,,,,*7B
$PSSN,SNC,[0,296170000,2347]*4F
$GPZDA,101557.00,01,01,2025,,*64
$GPDTM,W84,,00.0000000,N,00.0000000,E,00.0000000,W84*5F
$GPRMC,101557.00,A,4742.4463219,N,01617.9731736,E,0.0,,010125,5.1,E,D*1F
$GPGLL,4742.4463219,N,01617.9731736,E,101557.00,A,D*6E
$GPGGA,101557.00,4742.4463219,N,01617.9731736,E,2,21,0.7,627.3967,M,43.2111,M,1.3,0123*49
$GNGNS,101557.00,4742.4463219,N,01617.9731736,E,DAAA,21,0.7,627.3967,43.2111,,*57
$GPGNS,101557.00,,,,,,06,,,,1.3,123*7E
$GLGNS,101557.00,,,,,,03,,,,,*7B
$GAGNS,101557.00,,,,,,04,,,,,*71
$GBGNS,101557.00,,,,,,08,,,,,*7E
$GPLLQ,101557.00,010125,,M,,M,1,21,5.294,,M*1F
$GPVTG,,T,,M,0.00,N,0.01,K,D*27
$GPHDT,,T*1B
$GPTHS,,V*0E
$GPROT,,V*08
$PSSN,HRP,101557.00,010125,,,,,,,00,0,,*66
$PTNL,AVR,101557.00,,Yaw,,Tilt,,,,0,,00*30
$GPGSA,A,3,13,14,15,17,19,24,,,,,,,1.3,0.7,1.2*3F
$GPGSA,A,3,66,67,76,,,,,,,,,,1.3,0.7,1.2*34
$GPGSA,A,3,02,07,08,25,,,,,,,,,1.3,0.7,1.2*3E
$GPGSA,A,3,07,10,21,24,26,33,42,45,,,,,1.3,0.7,1.2*34
$GPGST,101557.00,2.938,1.475,0.885,34.789,1.313,1.112,5.006*63
$GPGBS,101557.00,5.281,4.472,19.785,19,0.0001,3.197,0.904*69
$GPGRS,101557.00,1,-0.8,-0.5,-1.1,0.2,3.2,0.7,,,,,,*6D
$GPGRS,101557.00,1,-1.8,4.0,-0.5,,,,,,,,,*6F
$GPGRS,101557.00,1,0.1,-0.8,1.5,0.0,,,,,,,,*69
$GPGRS,101557.00,1,3.3,5.4,-3.6,-3.4,-0.7,-4.3,-1.4,-0.6,,,,*49
$GPGSV,5,1,18,15,64,227,45,10,10,331,29,23,24,291,35,12,17,225,28*7F
$GPGSV,5,2,18,19,33,130,39,14,34,056,45,17,39,090,41,13,52,154,44*72
$GPGSV,5,3,18,24,46,290,41,22,56,060,,21,01,018,,05,00,203,*76
$GPGSV,5,4,18,02,03,037,,30,08,096,,36,35,170,36,34,31,208,*7F
$GPGSV,5,5,18,49,34,195,,61,03,257,*73
$GLGSV,3,1,09,76,74,334,50,85,19,069,29,84,13,017,,75,26,053,33*64
$GLGSV,3,2,09,67,37,321,46,65,24,180,33,77,37,259,33,66,64,232,46*6F
$GLGSV,3,3,09,86,01,118,*5B
$GAGSV,3,1,11,02,76,196,48,07,27,311,42,16,21,051,,18,26,154,*61
$GAGSV,3,2,11,30,24,224,25,03,41,153,30,25,45,056,40,08,74,258,49*65
$GAGSV,3,3,11,12,02,033,,10,00,055,,33,01,344,*5A
$GBGSV,5,1,18,26,80,296,38,21,23,187,39,29,22,076,33,35,11,134,*60
$GBGSV,5,2,18,40,26,043,30,05,20,130,,07,27,054,36,33,28,312,45*69
$GBGSV,5,3,18,50,39,207,,24,29,259,38,10,37,065,39,56,36,074,*6F
$GBGSV,5,4,18,14,45,285,32,45,38,069,46,42,50,243,49,30,06,025,*67
$GBGSV,5,5,18,02,04,109,,60,07,111,*6C
$GPGGA,101557.00,,,,,0,00,,,M,,M,,*4F
$PTNL,GGK,101557.00,010125,4742.4463219,N,01617.9731736,E,1,21,1.3,EHT670.6078,M*41
$GPGGQ,101557.00,010125,4742.4463219,N,01617.9731736,E,1,21,5.294,627.3967,M*37
$GPGFA,101557.00,14.028,41.051,1.475,0.885,34.789,5.006,,VVV*3A
$GPLLK,101557.00,010125,,M,,M,1,21,1.6,,M*08
$GNGMP,101557.00,,,,,DAAA,21,0.7,,,,*55
$GPGMP,101557.00,,,,,,06,,,,1.3,123*7E
$GLGMP,101557.00,,,,,,03,,,,,*7B
$GAGMP,101557.00,,,,,,04,,,,,*71
$GBGMP,101557.00,,,,,,08,,,,,*7E
$PSSN,SNC,[0,296175000,2347]*4A
$GPZDA,101602.00,01,01,2025,,*67
$GPDTM,W84,,00.0000000,N,00.0000000,E,00.0000000,W84*5F
$GPRMC,101602.00,A,4742.4463192,N,01617.9731695,E,0.0,,010125,5.1,E,D*14
$GPGLL,4742.4463192,N,01617.9731695,E,101602.00,A,D*65
$GPGGA,101602.00,4742.4463192,N,01617.9731695,E,2,22,0.7,627.4203,M,43.2111,M,2.3,0123*4C
$GNGNS,101602.00,4742.4463192,N,01617.9731695,E,DAAA,22,0.7,627.4203,43.2111,,*51
$GPGNS,101602.00,,,,,,06,,,,2.3,123*7E
$GLGNS,101602.00,,,,,,03,,,,,*78
$GAGNS,101602.00,,,,,,04,,,,,*72
$GBGNS,101602.00,,,,,,09,,,,,*7C
$GPLLQ,101602.00,010125,,M,,M,1,22,4.965,,M*1B
$GPVTG,,T,,M,0.01,N,0.01,K,D*26
$GPHDT,,T*1B
$GPTHS,,V*0E
$GPROT,,V*08
$PSSN,HRP,101602.00,010125,,,,,,,00,0,,*65
$PTNL,AVR,101602.00,,Yaw,,Tilt,,,,0,,00*33
$GPGSA,A,3,13,14,15,17,19,24,,,,,,,1.3,0.7,1.2*3F
$GPGSA,A,3,66,67,76,,,,,,,,,,1.3,0.7,1.2*34
$GPGSA,A,3,02,07,08,25,,,,,,,,,1.3,0.7,1.2*3E
$GPGSA,A,3,07,10,14,21,24,26,33,42,45,,,,1.3,0.7,1.2*31
$GPGST,101602.00,3.481,1.398,0.825,33.912,1.248,1.038,4.692*67
$GPGBS,101602.00,5.342,4.529,20.000,19,0.0001,1.945,0.916*6D
$GPGRS,101602.00,1,-1.3,-0.5,-1.1,0.9,1.9,1.1,,,,,,*61
$GPGRS,101602.00,1,-1.9,6.2,-1.1,,,,,,,,,*68
$GPGRS,101602.00,1,-0.3,-0.8,1.3,-0.6,,,,,,,,*68
$GPGRS,101602.00,1,2.2,5.7,4.9,-4.1,-4.3,-1.7,-4.9,-1.1,-1.4,,,*67
$GPGSV,5,1,18,15,64,227,45,10,10,331,19,23,24,291,29,12,17,225,30*78
$GPGSV,5,2,18,19,33,130,40,14,34,056,44,17,39,090,39,13,52,154,42*74
$GPGSV,5,3,18,24,47,290,40,22,56,060,,21,01,018,,05,00,203,*76
$GPGSV,5,4,18,02,03,037,,30,08,096,,36,35,170,36,34,31,208,*7F
$GPGSV,5,5,18,49,34,195,,61,03,257,*73
$GLGSV,3,1,09,76,74,334,50,85,19,069,29,84,13,017,,75,26,053,30*67
$GLGSV,3,2,09,67,37,321,47,65,24,180,33,77,37,259,34,66,64,232,46*69
$GLGSV,3,3,09,86,01,118,*5B
$GAGSV,3,1,11,02,76,196,47,07,27,311,41,16,21,051,,18,26,154,*6D
$GAGSV,3,2,11,30,24,224,35,03,41,153,29,25,45,056,38,08,74,257,49*6C
$GAGSV,3,3,11,12,02,033,,10,00,055,,33,01,344,*5A
$GBGSV,5,1,18,26,80,297,38,21,23,187,38,29,22,076,33,35,11,134,*60
$GBGSV,5,2,18,40,26,043,31,05,20,130,,07,27,054,36,33,28,312,44*69
$GBGSV,5,3,18,50,39,207,,24,29,259,37,10,37,065,39,56,36,074,*60
$GBGSV,5,4,18,14,45,285,38,45,38,069,46,42,50,243,49,30,06,025,*6D
$GBGSV,5,5,18,02,04,109,,60,07,111,*6C
$GPGGA,101602.00,,,,,0,00,,,M,,M,,*4C
$PTNL,GGK,101602.00,010125,4742.4463192,N,01617.9731695,E,1,22,1.3,EHT670.6313,M*47
$GPGGQ,101602.00,010125,4742.4463192,N,01617.9731695,E,1,22,4.965,627.4203,M*35
$GPGFA,101602.00,13.290,38.476,1.398,0.825,33.912,4.692,,VVV*3F
$GPLLK,101602.00,010125,,M,,M,1,22,1.6,,M*08
$GNGMP,101602.00,,,,,DAAA,22,0.7,,,,*55
$GPGMP,101602.00,,,,,,06,,,,2.3,123*7E
$GLGMP,101602.00,,,,,,03,,,,,*78
$GAGMP,101602.00,,,,,,04,,,,,*72
$GBGMP,101602.00,,,,,,09,,,,,*7C
$PSSN,SNC,[0,296180000,2347]*40
$GPZDA,101607.00,01,01,2025,,*62
$GPDTM,W84,,00.0000000,N,00.0000000,E,00.0000000,W84*5F
$GPRMC,101607.00,A,4742.4463166,N,01617.9731550,E,0.0,,010125,5.1,E,D*10
$GPGLL,4742.4463166,N,01617.9731550,E,101607.00,A,D*61
$GPGGA,101607.00,4742.4463166,N,01617.9731550,E,2,23,0.6,627.4301,M,43.2111,M,3.3,0123*4A
$GNGNS,101607.00,4742.4463166,N,01617.9731550,E,DAAA,23,0.6,627.4301,43.2111,,*56
$GPGNS,101607.00,,,,,,06,,,,3.3,123*7A
$GLGNS,101607.00,,,,,,04,,,,,*7A
$GAGNS,101607.00,,,,,,04,,,,,*77
$GBGNS,101607.00,,,,,,09,,,,,*79
$GPLLQ,101607.00,010125,,M,,M,1,23,5.151,,M*11
$GPVTG,,T,,M,0.00,N,0.01,K,D*27
$GPHDT,,T*1B
$GPTHS,,V*0E
$GPROT,,V*08
$PSSN,HRP,101607.00,010125,,,,,,,00,0,,*60
$PTNL,AVR,101607.00,,Yaw,,Tilt,,,,0,,00*36
$GPGSA,A,3,13,14,15,17,19,24,,,,,,,1.3,0.6,1.2*3E
$GPGSA,A,3,66,67,76,77,,,,,,,,,1.3,0.6,1.2*35
$GPGSA,A,3,02,07,08,25,,,,,,,,,1.3,0.6,1.2*3F
$GPGSA,A,3,07,10,14,21,24,26,33,42,45,,,,1.3,0.6,1.2*30
$GPGST,101607.00,4.576,1.349,0.804,38.844,1.166,1.053,4.905*69
$GPGBS,101607.00,5.260,4.514,19.497,19,0.0001,2.388,0.929*63
$GPGRS,101607.00,1,-0.6,0.2,-0.9,1.3,2.4,-0.5,,,,,,*6E
$GPGRS,101607.00,1,-1.7,8.3,-1.4,-9.1,,,,,,,,*62
$GPGRS,101607.00,1,-0.2,-0.9,1.1,-1.2,,,,,,,,*6A
$GPGRS,101607.00,1,3.5,6.5,6.4,-4.2,-4.5,-2.1,-4.9,-1.1,-1.9,,,*67
$GPGSV,5,1,18,15,64,227,44,10,10,331,,23,24,291,35,12,17,225,33*7F
$GPGSV,5,2,18,19,33,130,42,14,34,056,45,17,39,090,37,13,52,154,43*78
$GPGSV,5,3,18,24,47,290,38,22,56,060,,21,01,018,,05,00,203,*79
$GPGSV,5,4,18,02,03,037,,30,08,096,,36,35,170,35,34,31,208,*7C
$GPGSV,5,5,18,49,34,195,,61,03,257,*73
$GLGSV,3,1,09,76,74,334,50,85,19,069,26,84,13,017,27,75,26,053,32*6F
$GLGSV,3,2,09,67,37,321,48,65,24,180,34,77,37,259,36,66,64,231,45*63
$GLGSV,3,3,09,86,01,118,*5B
$GAGSV,3,1,11,02,76,196,47,07,27,311,40,16,21,051,,18,26,154,*6C
$GAGSV,3,2,11,30,24,224,18,03,40,153,28,25,45,056,37,08,74,257,49*6C
$GAGSV,3,3,11,12,02,033,,10,00,055,,33,01,344,*5A
$GBGSV,5,1,18,26,80,297,39,21,22,187,36,29,22,076,31,35,11,133,*6B
$GBGSV,5,2,18,40,26,043,32,05,20,130,,07,27,054,36,33,28,312,44*6A
$GBGSV,5,3,18,50,39,207,,24,29,259,37,10,37,065,39,56,36,074,*60
$GBGSV,5,4,18,14,45,285,38,45,37,069,46,42,50,243,49,30,06,025,*62
$GBGSV,5,5,18,02,04,109,,60,07,111,*6C
$GPGGA,101607.00,,,,,0,00,,,M,,M,,*49
$PTNL,GGK,101607.00,010125,4742.4463166,N,01617.9731550,E,1,23,1.3,EHT670.6411,M*47
$GPGGQ,101607.00,010125,4742.4463166,N,01617.9731550,E,1,23,5.151,627.4301,M*3D
$GPGFA,101607.00,12.829,40.222,1.349,0.804,38.844,4.905,,VVV*3C
$GPLLK,101607.00,010125,,M,,M,1,23,1.6,,M*0C
$GNGMP,101607.00,,,,,DAAA,23,0.6,,,,*50
$GPGMP,101607.00,,,,,,06,,,,3.3,123*7A
$GLGMP,101607.00,,,,,,04,,,,,*7A
$GAGMP,101607.00,,,,,,04,,,,,*77
$GBGMP,101607.00,,,,,,09,,,,,*79
$PSSN,SNC,[0,296185000,2347]*45
$GPZDA,101612.00,01,01,2025,,*66
$GPDTM,W84,,00.0000000,N,00.0000000,E,00.0000000,W84*5F
$GPRMC,101612.00,A,4742.4463187,N,01617.9731253,E,0.0,,010125,5.1,E,D*1F
$GPGLL,4742.4463187,N,01617.9731253,E,101612.00,A,D*6E
$GPGGA,101612.00,4742.4463187,N,01617.9731253,E,2,23,0.6,627.4493,M,43.2111,M,3.0,0123*4A
$GNGNS,101612.00,4742.4463187,N,01617.9731253,E,DAAA,23,0.6,627.4493,43.2111,,*55
$GPGNS,101612.00,,,,,,06,,,,3.0,123*7D
$GLGNS,101612.00,,,,,,04,,,,,*7E
$GAGNS,101612.00,,,,,,04,,,,,*73
$GBGNS,101612.00,,,,,,09,,,,,*7D
$GPLLQ,101612.00,010125,,M,,M,1,23,6.000,,M*13
$GPVTG,,T,,M,0.01,N,0.02,K,D*25
$GPHDT,,T*1B
$GPTHS,,V*0E
$GPROT,,V*08
$PSSN,HRP,101612.00,010125,,,,,,,00,0,,*64
$PTNL,AVR,101612.00,,Yaw,,Tilt,,,,0,,00*32
$GPGSA,A,3,13,14,15,17,19,24,,,,,,,1.3,0.6,1.2*3E
$GPGSA,A,3,66,67,76,77,,,,,,,,,1.3,0.6,1.2*35
$GPGSA,A,3,02,07,08,25,,,,,,,,,1.3,0.6,1.2*3F
$GPGSA,A,3,07,10,14,21,24,26,33,42,45,,,,1.3,0.6,1.2*30
$GPGST,101612.00,5.343,1.677,1.046,35.784,1.492,1.297,5.665*69
$GPGBS,101612.00,5.006,4.645,19.268,19,0.0001,2.442,0.869*60
$GPGRS,101612.00,1,-0.5,0.2,-0.9,2.0,2.4,-1.5,,,,,,*68
$GPGRS,101612.00,1,-2.2,9.1,-1.4,-9.7,,,,,,,,*65
$GPGRS,101612.00,1,-0.7,-1.6,0.4,-2.8,,,,,,,,*68
$GPGRS,101612.00,1,1.9,6.8,10.9,-4.7,-4.0,-1.9,-5.2,-1.5,-3.1,,,*55
$GPGSV,5,1,17,15,64,227,44,10,10,331,29,23,24,291,34,12,17,225,34*7D
$GPGSV,5,2,17,19,33,130,43,14,34,056,46,17,39,090,35,13,52,154,44*70
$GPGSV,5,3,17,24,47,290,35,22,56,060,,02,03,037,,21,01,018,*7A
$GPGSV,5,4,17,30,08,096,,36,35,170,36,34,31,208,,49,34,195,*72
$GPGSV,5,5,17,61,03,257,*4B
$GLGSV,3,1,09,76,74,334,50,85,19,069,29,84,13,017,26,75,26,053,35*66
$GLGSV,3,2,09,67,37,321,49,65,23,180,34,77,37,259,38,66,64,231,44*6A
$GLGSV,3,3,09,86,01,118,*5B
$GAGSV,3,1,11,02,76,196,47,07,27,311,40,16,21,051,,18,26,154,*6C
$GAGSV,3,2,11,30,24,224,35,03,40,153,27,25,45,056,37,08,74,257,48*6D
$GAGSV,3,3,11,12,02,033,,10,00,055,,33,01,344,*5A
$GBGSV,5,1,18,26,80,297,40,21,22,187,36,29,22,076,30,35,11,133,*64
$GBGSV,5,2,18,40,26,043,33,05,20,130,,07,27,054,36,33,28,312,44*6B
$GBGSV,5,3,18,50,39,207,,24,29,259,38,10,37,065,39,56,36,074,*6F
$GBGSV,5,4,18,14,45,285,37,45,37,069,46,42,50,243,49,30,06,025,*6D
$GBGSV,5,5,18,02,04,109,,60,07,111,*6C
$GPGGA,101612.00,,,,,0,00,,,M,,M,,*4D
$PTNL,GGK,101612.00,010125,4742.4463187,N,01617.9731253,E,1,23,1.3,EHT670.6604,M*4E
$GPGGQ,101612.00,010125,4742.4463187,N,01617.9731253,E,1,23,6.000,627.4493,M*38
$GPGFA,101612.00,15.948,46.450,1.677,1.046,35.784,5.665,,VVV*3D
$GPLLK,101612.00,010125,,M,,M,1,23,1.6,,M*08
$GNGMP,101612.00,,,,,DAAA,23,0.6,,,,*54
$GPGMP,101612.00,,,,,,06,,,,3.0,123*7D
$GLGMP,101612.00,,,,,,04,,,,,*7E
$GAGMP,101612.00,,,,,,04,,,,,*73
$GBGMP,101612.00,,,,,,09,,,,,*7D
$PSSN,SNC,[0,296190000,2347]*41
$GPZDA,101617.00,01,01,2025,,*63
$GPDTM,W84,,00.0000000,N,00.0000000,E,00.0000000,W84*5F
$GPRMC,101617.00,A,4742.4463204,N,01617.9731089,E,0.0,,010125,5.1,E,D*17
$GPGLL,4742.4463204,N,01617.9731089,E,101617.00,A,D*66
$GPGGA,101617.00,4742.4463204,N,01617.9731089,E,2,23,0.6,627.4611,M,43.2111,M,1.4,0123*4C
$GNGNS,101617.00,4742.4463204,N,01617.9731089,E,DAAA,23,0.6,627.4611,43.2111,,*55
$GPGNS,101617.00,,,,,,05,,,,1.4,123*7D
$GLGNS,101617.00,,,,,,05,,,,,*7A
$GAGNS,101617.00,,,,,,04,,,,,*76
$GBGNS,101617.00,,,,,,09,,,,,*78
$GPLLQ,101617.00,010125,,M,,M,1,23,4.744,,M*13
$GPVTG,,T,,M,0.01,N,0.02,K,D*25
$GPHDT,,T*1B
$GPTHS,,V*0E
$GPROT,,V*08
$PSSN,HRP,101617.00,010125,,,,,,,00,0,,*61
$PTNL,AVR,101617.00,,Yaw,,Tilt,,,,0,,00*37
$GPGSA,A,3,13,14,15,19,23,,,,,,,,1.3,0.6,1.1*3C
$GPGSA,A,3,66,67,75,76,77,,,,,,,,1.3,0.6,1.1*34
$GPGSA,A,3,02,07,08,25,,,,,,,,,1.3,0.6,1.1*3C
$GPGSA,A,3,07,10,14,21,24,26,33,42,45,,,,1.3,0.6,1.1*33
$GPGST,101617.00,6.515,1.904,1.122,15.563,1.859,1.195,4.198*65
$GPGBS,101617.00,6.182,3.645,10.719,23,0.0001,-3.366,0.978*43
$GPGRS,101617.00,1,-0.6,-0.1,-0.7,2.8,-3.4,,,,,,,*6D
$GPGRS,101617.00,1,-1.0,8.6,15.4,-1.0,-10.3,,,,,,,*41
$GPGRS,101617.00,1,-0.6,-2.8,0.3,-0.5,,,,,,,,*69
$GPGRS,101617.00,1,1.1,7.5,10.2,-4.0,-3.7,-1.6,-5.1,-1.0,-3.3,,,*53
$GPGSV,5,1,17,15,64,227,45,10,10,331,30,23,24,291,36,12,17,225,34*76
$GPGSV,5,2,17,19,33,130,43,14,34,056,47,17,39,090,34,13,52,154,45*71
$GPGSV,5,3,17,24,47,290,31,22,56,060,,02,03,037,,21,01,018,*7E
$GPGSV,5,4,17,30,08,096,,36,35,170,36,34,31,208,,49,34,195,*72
$GPGSV,5,5,17,61,03,257,*4B
$GLGSV,3,1,09,76,74,334,50,85,19,069,31,84,13,017,,75,26,054,37*6E
$GLGSV,3,2,09,67,37,321,49,65,23,180,33,77,37,259,37,66,64,231,46*60
$GLGSV,3,3,09,86,01,118,*5B
$GAGSV,3,1,11,02,76,196,47,07,27,311,39,16,21,051,,18,26,154,*62
$GAGSV,3,2,11,30,24,224,35,03,40,154,26,25,45,056,36,08,74,257,48*6A
$GAGSV,3,3,11,12,02,033,,10,00,054,,33,01,344,*5B
$GBGSV,5,1,18,26,80,297,40,40,26,043,34,35,11,133,,21,22,187,36*6D
$GBGSV,5,2,18,29,22,076,30,05,20,130,,07,27,054,37,33,28,312,44*64
$GBGSV,5,3,18,50,38,207,,24,29,259,39,10,37,065,39,56,36,074,*6F
$GBGSV,5,4,18,14,45,285,35,45,37,069,46,42,50,243,48,02,04,109,*62
$GBGSV,5,5,18,30,06,025,,60,07,111,*60
$GPGGA,101617.00,,,,,0,00,,,M,,M,,*48
$PTNL,GGK,101617.00,010125,4742.4463204,N,01617.9731089,E,1,23,1.3,EHT670.6722,M*43
$GPGGQ,101617.00,010125,4742.4463204,N,01617.9731089,E,1,23,4.744,627.4611,M*3D
$GPGFA,101617.00,18.104,34.425,1.904,1.122,15.563,4.198,,VVV*37
$GPLLK,101617.00,010125,,M,,M,1,23,1.5,,M*0E
$GNGMP,101617.00,,,,,DAAA,23,0.6,,,,*51
$GPGMP,101617.00,,,,,,05,,,,1.4,123*7D
$GLGMP,101617.00,,,,,,05,,,,,*7A
$GAGMP,101617.00,,,,,,04,,,,,*76
$GBGMP,101617.00,,,,,,09,,,,,*78
$PSSN,SNC,[0,296195000,2347]*44
$GPZDA,101622.00,01,01,2025,,*65
$GPDTM,W84,,00.0000000,N,00.0000000,E,00.0000000,W84*5F
$GPRMC,101622.00,A,4742.4463268,N,01617.9730920,E,0.0,,010125,5.1,E,D*10
$GPGLL,4742.4463268,N,01617.9730920,E,101622.00,A,D*61
$GPGGA,101622.00,4742.4463268,N,01617.9730920,E,2,22,0.6,627.4840,M,43.2111,M,2.4,0123*43
$GNGNS,101622.00,4742.4463268,N,01617.9730920,E,DAAA,22,0.6,627.4840,43.2111,,*59
$GPGNS,101622.00,,,,,,05,,,,2.4,123*78
$GLGNS,101622.00,,,,,,05,,,,,*7C
$GAGNS,101622.00,,,,,,04,,,,,*70
$GBGNS,101622.00,,,,,,08,,,,,*7F
$GPLLQ,101622.00,010125,,M,,M,1,22,9.634,,M*1F
$GPVTG,,T,,M,0.00,N,0.00,K,D*26
$GPHDT,,T*1B
$GPTHS,,V*0E
$GPROT,,V*08
$PSSN,HRP,101622.00,010125,,,,,,,00,0,,*67
$PTNL,AVR,101622.00,,Yaw,,Tilt,,,,0,,00*31
$GPGSA,A,3,13,14,15,17,19,,,,,,,,1.3,0.6,1.1*3B
$GPGSA,A,3,66,67,75,76,77,,,,,,,,1.3,0.6,1.1*34
$GPGSA,A,3,02,07,08,25,,,,,,,,,1.3,0.6,1.1*3C
$GPGSA,A,3,07,10,21,24,26,33,42,45,,,,,1.3,0.6,1.1*36
$GPGST,101622.00,7.578,2.905,1.899,273.945,1.905,2.901,8.987*5C
$GPGBS,101622.00,5.369,5.694,21.172,19,0.0001,2.912,0.837*64
$GPGRS,101622.00,1,-1.3,-1.1,-0.6,1.2,2.9,,,,,,,*47
$GPGRS,101622.00,1,-1.0,6.8,21.7,-1.6,-11.4,,,,,,,*43
$GPGRS,101622.00,1,-0.6,-3.7,-0.3,8.1,,,,,,,,*6D
$GPGRS,101622.00,1,1.5,7.0,-4.1,-2.4,-2.9,-4.5,-0.2,-4.1,,,,*45
$GPGSV,5,1,17,15,64,227,48,10,10,331,33,23,24,291,34,12,17,225,33*7D
$GPGSV,5,2,17,19,33,130,44,14,34,056,48,17,39,090,38,13,52,154,44*74
$GPGSV,5,3,17,24,47,290,31,22,56,060,,02,03,037,,21,01,018,*7E
$GPGSV,5,4,17,30,08,096,,36,35,170,36,34,31,208,,49,34,195,*72
$GPGSV,5,5,17,61,03,257,*4B
$GLGSV,3,1,09,76,74,335,50,85,19,069,31,84,13,017,,75,26,054,36*6E
$GLGSV,3,2,09,67,37,321,49,65,23,180,32,77,37,259,36,66,64,231,47*61
$GLGSV,3,3,09,86,02,118,*58
$GAGSV,3,1,11,02,76,195,47,07,27,311,37,16,21,051,,18,26,154,*6F
$GAGSV,3,2,11,30,24,224,27,03,40,154,28,25,45,056,35,08,74,257,47*6B
$GAGSV,3,3,11,12,02,033,,10,00,054,,33,01,344,*5B
$GBGSV,5,1,18,26,80,297,40,40,26,043,35,35,11,133,,21,22,187,37*6D
$GBGSV,5,2,18,29,22,076,31,05,20,130,,07,27,054,37,33,28,312,44*65
$GBGSV,5,3,18,50,38,207,,24,29,259,40,10,37,065,39,56,36,074,*61
$GBGSV,5,4,18,14,45,285,34,45,37,069,45,42,50,243,47,02,04,109,*6F
$GBGSV,5,5,18,30,06,025,,60,07,111,*60
$GPGGA,101622.00,,,,,0,00,,,M,,M,,*4E
$PTNL,GGK,101622.00,010125,4742.4463268,N,01617.9730920,E,1,22,1.3,EHT670.6950,M*4E
$GPGGQ,101622.00,010125,4742.4463268,N,01617.9730920,E,1,22,9.634,627.4840,M*3A
$GPGFA,101622.00,27.621,73.696,2.905,1.899,273.945,8.987,,VVV*0F
$GPLLK,101622.00,010125,,M,,M,1,22,1.5,,M*09
$GNGMP,101622.00,,,,,DAAA,22,0.6,,,,*56
$GPGMP,101622.00,,,,,,05,,,,2.4,123*78
$GLGMP,101622.00,,,,,,05,,,,,*7C
$GAGMP,101622.00,,,,,,04,,,,,*70
$GBGMP,101622.00,,,,,,08,,,,,*7F
$PSSN,SNC,[0,296200000,2347]*4B
$GPZDA,101627.00,01,01,2025,,*60
$GPDTM,W84,,00.0000000,N,00.0000000,E,00.0000000,W84*5F
$GPRMC,101627.00,A,4742.4463267,N,01617.9730733,E,0.0,,010125,5.1,E,D*16
$GPGLL,4742.4463267,N,01617.9730733,E,101627.00,A,D*67
$GPGGA,101627.00,4742.4463267,N,01617.9730733,E,2,23,0.6,627.5074,M,43.2111,M,3.3,0123*4C
$GNGNS,101627.00,4742.4463267,N,01617.9730733,E,DAAA,23,0.6,627.5074,43.2111,,*50
$GPGNS,101627.00,,,,,,06,,,,3.3,123*78
$GLGNS,101627.00,,,,,,04,,,,,*78
$GAGNS,101627.00,,,,,,03,,,,,*72
$GBGNS,101627.00,,,,,,10,,,,,*73
$GPLLQ,101627.00,010125,,M,,M,1,23,9.393,,M*13
$GPVTG,,T,,M,0.00,N,0.01,K,D*27
$GPHDT,,T*1B
$GPTHS,,V*0E
$GPROT,,V*08
$PSSN,HRP,101627.00,010125,,,,,,,00,0,,*62
$PTNL,AVR,101627.00,,Yaw,,Tilt,,,,0,,00*34
$GPGSA,A,3,13,14,15,17,19,24,,,,,,,1.3,0.6,1.1*3D
$GPGSA,A,3,66,67,76,77,,,,,,,,,1.3,0.6,1.1*36
$GPGSA,A,3,02,07,08,,,,,,,,,,1.3,0.6,1.1*3B
$GPGSA,A,3,07,10,14,21,24,26,33,40,42,45,,,1.3,0.6,1.1*37
$GPGST,101627.00,4.459,2.669,1.948,76.083,1.996,2.633,8.793*6B
$GPGBS,101627.00,5.082,4.576,19.017,17,0.0001,3.034,0.817*60
$GPGRS,101627.00,1,-2.4,-1.8,-0.4,3.0,3.0,-0.5,,,,,,*43
$GPGRS,101627.00,1,-1.4,4.3,-1.4,-11.8,,,,,,,,*5F
$GPGRS,101627.00,1,-0.8,-3.7,-0.4,,,,,,,,,*46
$GPGRS,101627.00,1,1.1,7.1,0.1,-3.9,-0.2,-3.5,-3.8,-1.7,0.0,-4.3,,*4E
$GPGSV,5,1,17,15,64,227,48,10,10,331,34,23,24,291,30,12,17,225,31*7C
$GPGSV,5,2,17,19,33,130,44,14,34,056,48,17,39,090,40,13,52,154,42*7D
$GPGSV,5,3,17,24,47,290,36,22,56,060,,02,03,037,,21,01,018,*79
$GPGSV,5,4,17,30,08,097,,36,35,170,36,34,31,208,,49,34,195,*73
$GPGSV,5,5,17,61,03,257,*4B
$GLGSV,3,1,09,76,74,335,51,85,19,069,27,84,13,017,,75,26,054,34*6A
$GLGSV,3,2,09,67,37,321,47,65,23,180,31,77,37,259,36,66,64,231,47*6C
$GLGSV,3,3,09,86,02,118,*58
$GAGSV,3,1,11,02,76,195,47,07,27,311,36,16,21,051,,18,26,154,*6E
$GAGSV,3,2,11,30,24,224,27,03,40,154,29,25,45,056,34,08,74,257,47*6B
$GAGSV,3,3,11,12,02,033,,10,00,054,,33,01,344,*5B
$GBGSV,5,1,18,26,80,297,40,40,26,043,35,35,11,133,,21,22,187,38*62
$GBGSV,5,2,18,29,22,076,33,05,20,130,,07,27,054,37,33,28,312,44*67
$GBGSV,5,3,18,50,38,207,,24,29,259,40,10,37,065,39,56,36,074,*61
$GBGSV,5,4,18,14,45,285,35,45,37,069,45,42,50,243,47,02,04,109,*6E
$GBGSV,5,5,18,30,06,025,,60,07,111,*60
$GPGGA,101627.00,,,,,0,00,,,M,,M,,*4B
$PTNL,GGK,101627.00,010125,4742.4463267,N,01617.9730733,E,1,23,1.3,EHT670.7184,M*49
$GPGGQ,101627.00,010125,4742.4463267,N,01617.9730733,E,1,23,9.393,627.5074,M*3B
$GPGFA,101627.00,25.375,72.100,2.669,1.948,76.083,8.793,,VVV*32
$GPLLK,101627.00,010125,,M,,M,1,23,1.5,,M*0D
