     3.04           OBSERVATION DATA    M                   RINEX VERSION / TYPE
ssrcrin-15.6.1x                         20250101 013000 UTC PGM / RUN BY / DATE 
(00000000023479385599111004) Septentrio proprietary         COMMENT             
rref                                                        MARKER NAME         
01                                                          MARKER NUMBER       
geodetic                                                    MARKER TYPE         
NFB                 CLIMERS@TUW                             OBSERVER / AGENCY   
3297213             SEPT ASTERX SB3 PROB4.14.4              REC # / TYPE / VERS 
Unknown             Unknown                                 ANT # / TYPE        
  4127831.6448  1207192.9616  4695247.5125                  APPROX POSITION XYZ 
        0.0000        0.0000        0.0000                  ANTENNA: DELTA H/E/N
G   23 X1  C1C L1C D1C S1C C1W S1W C2W L2W D2W S2W C2L L2L  SYS / # / OBS TYPES 
       D2L S2L C5Q L5Q D5Q S5Q C1L L1L D1L S1L              SYS / # / OBS TYPES 
E   21 X1  C1C L1C D1C S1C C6C L6C D6C S6C C5Q L5Q D5Q S5Q  SYS / # / OBS TYPES 
       C7Q L7Q D7Q S7Q C8Q L8Q D8Q S8Q                      SYS / # / OBS TYPES 
S    9 X1  C1C L1C D1C S1C C5I L5I D5I S5I                  SYS / # / OBS TYPES 
R   17 X1  C1C L1C D1C S1C C2P L2P D2P S2P C2C L2C D2C S2C  SYS / # / OBS TYPES 
       C3Q L3Q D3Q S3Q                                      SYS / # / OBS TYPES 
C   25 X1  C1P L1P D1P S1P C5P L5P D5P S5P C2I L2I D2I S2I  SYS / # / OBS TYPES 
       C7I L7I D7I S7I C6I L6I D6I S6I C7D L7D D7D S7D      SYS / # / OBS TYPES 
J   17 X1  C1C L1C D1C S1C C2L L2L D2L S2L C5Q L5Q D5Q S5Q  SYS / # / OBS TYPES 
       C1L L1L D1L S1L                                      SYS / # / OBS TYPES 
I    5 X1  C5A L5A D5A S5A                                  SYS / # / OBS TYPES 
SEPTENTRIO RECEIVERS OUTPUT ALIGNED CARRIER PHASES.         COMMENT             
NO FURTHER PHASE SHIFT APPLIED IN THE RINEX ENCODER.        COMMENT             
G L1C                                                       SYS / PHASE SHIFT   
G L2W                                                       SYS / PHASE SHIFT   
G L2L  0.00000                                              SYS / PHASE SHIFT   
G L5Q  0.00000                                              SYS / PHASE SHIFT   
G L1L  0.00000                                              SYS / PHASE SHIFT   
E L1C  0.00000                                              SYS / PHASE SHIFT   
E L6C  0.00000                                              SYS / PHASE SHIFT   
E L5Q  0.00000                                              SYS / PHASE SHIFT   
E L7Q  0.00000                                              SYS / PHASE SHIFT   
E L8Q  0.00000                                              SYS / PHASE SHIFT   
S L1C                                                       SYS / PHASE SHIFT   
S L5I                                                       SYS / PHASE SHIFT   
R L1C                                                       SYS / PHASE SHIFT   
R L2P  0.00000                                              SYS / PHASE SHIFT   
R L2C                                                       SYS / PHASE SHIFT   
R L3Q  0.00000                                              SYS / PHASE SHIFT   
C L1P  0.00000                                              SYS / PHASE SHIFT   
C L5P  0.00000                                              SYS / PHASE SHIFT   
C L2I                                                       SYS / PHASE SHIFT   
C L7I                                                       SYS / PHASE SHIFT   
C L6I                                                       SYS / PHASE SHIFT   
C L7D                                                       SYS / PHASE SHIFT   
J L1C                                                       SYS / PHASE SHIFT   
J L2L  0.00000                                              SYS / PHASE SHIFT   
J L5Q  0.00000                                              SYS / PHASE SHIFT   
J L1L  0.00000                                              SYS / PHASE SHIFT   
I L5A                                                       SYS / PHASE SHIFT   
  2025     1     1     1    30    0.0000000     GPS         TIME OF FIRST OBS   
 C1C    0.000 C2C    0.000 C2P    0.000                     GLONASS COD/PHS/BIS 
DBHZ                                                        SIGNAL STRENGTH UNIT
    18                                                      LEAP SECONDS        
 24 R01  1 R02 -4 R03  5 R04  6 R05  1 R06 -4 R07  5 R08  6 GLONASS SLOT / FRQ #
    R09 -2 R10 -7 R11  0 R12 -1 R13 -2 R14 -7 R15  0 R16 -1 GLONASS SLOT / FRQ #
    R17  4 R18 -3 R19  3 R20  2 R21  4 R22 -3 R23  3 R24  2 GLONASS SLOT / FRQ #
                                                            END OF HEADER       
> 2025 01 01 01 30  0.0000000  0 55
G28         1.000    23189758.148 7 121863016.53707     -1090.984 7        42.555                                    23189754.119 4  94958176.38904      -850.111 4        29.137    23189754.117 7  94958182.40107      -850.237 7        42.434
G31         2.000    22396634.827 7 117695119.47707       772.512 7        44.438                                    22396629.968 6  91710469.96506       601.953 6        41.347    22396630.151 6  91710468.98006       601.876 6        41.504
G09         3.000    23252391.679 6 122192169.13306      3110.376 6        41.302                                    23252390.346 6  95214683.56906      2423.673 6        38.114    23252390.729 6  95214684.57206      2423.626 6        39.733
E34         4.000    26974855.209 6 141753826.03906      2323.198 6        40.057                                                                    26974855.610 7 105855136.38207      1734.758 7        43.183    26974855.289 7 108616574.18607      1780.107 7        43.900
S21         5.000    38433191.265 7 201967618.10707      -418.959 7        42.497
E05         6.000    25882617.916 6 136014093.09106      2604.030 6        38.835                                                                    25882619.941 6 101568987.34106      1944.401 6        41.728    25882619.447 7 104218606.07507      1995.236 7        42.301
G21         7.000    23186862.613 6 121847841.05606     -3319.830 6        41.824                                    23186858.021 4  94946372.44404     -2586.879 4        27.485
E04         8.000    24177634.553 7 127054352.45607     -1769.059 7        46.062                                                                    24177632.766 8  94878255.49608     -1321.065 8        49.575    24177632.531 8  97353332.32308     -1355.534 8        50.331
R14         9.000    23317928.068 7 124297683.80107       612.615 7        44.388                                                                    23317928.513 6  96675965.74806       476.572 6        40.193
G04        10.000    21229613.511 7 111562411.21307      2075.533 7        46.612                                    21229610.443 6  86931757.12406      1617.300 6        36.178    21229610.681 7  86931752.12507      1617.325 7        45.312
E09        11.000    23898375.566 8 125586856.86608       988.385 8        48.278                                                                    23898374.939 8  93782409.41608       738.095 8        50.223    23898374.607 8  96228906.38208       757.313 8        50.810
S27        12.000    39070740.431 5 205318104.96605      -404.650 5        35.886
G06        13.000    24719567.243 6 129902221.30306      3093.469 6        38.369                                    24719566.389 5 101222512.58105      2410.491 5        31.192    24719566.282 6 101222523.57806      2410.528 6        38.054
S36        14.000    38200657.533 7 200746291.43407      -418.239 7        44.086
E27        15.000    28940547.529 5 152083597.19705      -335.634 5        35.729                                                                    28940548.605 6 113568926.19006      -250.748 6        39.228    28940548.142 6 116531591.58806      -257.285 6        40.455
E36        16.000    23575917.182 7 123892309.47707       439.344 7        47.982                                                                    23575917.271 8  92517001.71608       328.049 8        50.909    23575916.911 8  94930483.42708       336.632 8        51.052
S45        17.000    63398181.600 6 333160487.55606      -459.378 6        37.353
G03        18.000    19917800.998 8 104668808.52908      -391.904 8        50.376                                    19917798.900 8  81560130.18308      -305.380 8        52.025    19917799.317 7  81560139.17707      -305.288 7        46.230
R21        19.000    19443702.446 8 104047219.36508       431.632 8        52.634                                                                    19443700.877 7  80925625.24507       335.770 7        46.782
R20        20.000    20562470.712 6 109956806.53006     -3677.450 6        39.529                                                                    20562471.676 7  85521958.61507     -2860.164 7        46.219
R05        21.000    20151036.024 8 107718878.57308     -2934.729 8        50.482                                                                    20151035.512 7  83781355.40907     -2282.554 7        47.014
I06        22.000    38146041.350 7 149693488.17007      -219.873 7        43.371
S28        23.000    40871739.222 5 214782455.02305      -411.631 5        34.381
E10        24.000    26398651.485 6 138725966.58506     -3092.644 6        41.614                                                                    26398651.055 7 103594131.50707     -2309.498 7        45.610    26398650.587 7 106296577.78207     -2369.702 7        45.941
S23        25.000    38149673.228 7 200477872.31707      -414.915 7        44.646
E06        26.000    23380016.919 8 122862879.43408      -328.778 8        48.123                                                                    23380016.588 8  91748253.74308      -245.550 8        50.848    23380016.396 8  94141684.94308      -252.006 8        51.019
R15        27.000    24174170.249 7 129179428.73907      2967.521 7        43.272                                                                    24174171.685 6 100472897.89806      2308.108 6        38.198
E19        30.000    28389869.064 4 149189741.54204     -3367.948 4        24.857                                                                    28389871.224 4 111407910.05804     -2514.917 4        28.047    28389870.904 4 114314202.19804     -2580.593 4        29.261
G32        31.000    25798276.297 5 135570857.66505     -3873.417 5        33.731                                    25798275.350 3 105639622.07803     -3018.268 3        18.328    25798276.057 4 105639627.05704     -3017.962 4        29.735
G02        32.000    21665564.790 8 113853351.26908     -2577.467 8        48.474                                    21665558.569 6  88716893.02106     -2008.414 6        38.577
G19        33.000    22534489.898 7 118419575.24707       947.455 7        43.649                                    22534483.607 5  92275014.84905       738.280 5        31.019
G17        34.000    22291418.980 7 117142248.68607     -1089.144 7        45.541                                    22291414.277 7  91279684.63407      -848.685 7        42.984    22291414.662 7  91279684.62107      -848.535 7        42.569
E11        35.000    24178061.307 7 127056637.91107     -2197.293 7        44.239                                                                    24178057.525 7  94879974.99707     -1640.863 7        45.889    24178057.353 7  97355097.31307     -1683.631 7        46.318
C32        36.000                                                                                                                                    24975549.674 7 130054263.58907     -3190.225 7        43.302                                                                    24975549.835 7 105679752.08507     -2592.385 7        44.725
C35        37.000                                                                                                                                    23334041.611 7 121506496.31207      1046.915 7        46.903                                                                    23334040.203 7  98733980.84607       850.649 7        47.021
I09        38.000    37169679.170 7 145861802.09707      -436.141 7        42.988
C29        39.000                                                                                                                                    22546649.479 8 117406321.94308     -2454.838 8        49.054                                                                    22546647.255 8  95402247.81508     -1994.799 8        48.226
R22        40.000    22923116.310 7 122365183.62907      3623.539 7        45.238                                                                    22923115.865 7  95172933.68207      2818.414 7        43.376
S44        42.000    40609725.818 6 213405742.86106      -493.032 6        37.860
C09        43.000                                                                                                                                    38855434.016 6 202330457.77806       419.588 6        41.671    38855429.754 7 156454734.92407       324.582 7        45.797    38855427.949 6 164410051.07106       341.001 6        41.423
C05        44.000                                                                                                                                    39116799.470 6 203691478.80506      -422.663 6        37.599    39116795.371 7 157507196.10107      -326.757 7        43.297    39116796.940 6 165516114.63806      -343.310 6        39.907
R06        45.000    20104711.730 6 107282645.99606      1573.793 6        40.036
R13        46.000    24442246.738 6 130520247.69506     -2716.909 6        36.707
C39        47.000                                                                                                                                    38904802.009 7 202587525.52107      -635.650 7        42.762                                                                    38904798.396 7 164618948.18407      -516.535 7        43.268
C20        48.000                                                                                                                                    21830640.127 8 113677919.03808      -930.406 8        51.956                                                                    21830634.154 8  92372613.10008      -756.052 8        49.585
C06        49.000                                                                                                                                    38318727.997 6 199535695.99906       -67.616 6        40.427    38318722.441 7 154293640.48907       -52.336 7        44.394    38318722.282 6 162139076.65406       -54.908 6        41.628
C16        50.000                                                                                                                                    38751520.336 7 201789349.68707      -187.417 7        42.510    38751519.233 7 156036334.02807      -145.006 7        43.583    38751517.290 6 163970374.21506      -152.305 6        39.691
S48        51.000    77185043.548 6 405610466.24106      -417.779 6        37.353
C19        52.000                                                                                                                                    23263746.543 7 121140490.02307      1626.805 7        47.708                                                                    23263742.067 8  98436573.58008      1321.824 8        48.292
R04        53.000    24129527.255 7 129212547.89307     -4334.043 7        42.326                                                                    24129524.185 6 100498655.79606     -3370.823 6        37.047
C60        54.000                                                                                                                                    40609727.502 6 211465710.09206      -488.653 6        39.489                                                                    40609711.746 6 171833180.71006      -397.150 6        39.243
C30        55.000                                                                                                                                    26147915.294 6 136159031.48506     -3941.447 6        38.958                                                                    26147917.224 6 110640359.86406     -3202.848 6        39.327
C02        57.000                                                                                                                                    40568644.595 5 211251626.06905      -468.404 5        34.100    40568638.046 6 163353151.26706      -362.171 6        39.198    40568641.404 5 171659253.59205      -380.672 5        35.886
I03        58.000   132588521.321 6 444520594.28106       951.395 6        40.131
R07        59.000    23728496.721 7 127020503.73707      3304.641 7        43.162                                                                    23728498.472 6  98793720.03806      2570.254 6        39.694
> 2025 01 01 01 30  5.0000000  0 55
G28         1.000    23190797.822 7 121868479.43707     -1094.219 7        42.686                                    23190793.731 4  94962433.20104      -852.651 4        29.223    23190793.790 7  94962439.20007      -852.619 7        42.590
G31         2.000    22395900.769 7 117691264.44807       769.461 7        44.865                                    22395896.399 6  91707466.04706       599.579 6        41.168    22395896.516 6  91707465.05406       599.536 6        41.502
G09         3.000    23249431.829 6 122176618.97706      3109.560 6        40.877                                    23249431.245 6  95202566.57206      2423.032 6        38.006    23249431.534 6  95202567.58206      2423.030 6        39.670
E34         4.000    26972644.916 6 141742210.28406      2323.004 6        39.868                                                                    26972645.175 7 105846462.27807      1734.745 7        43.084    26972644.974 7 108607673.80407      1779.962 7        43.888
S21         5.000    38433589.566 7 201969711.35407      -418.663 7        42.476
E05         6.000    25880140.230 6 136001074.16806      2603.468 6        37.747                                                                    25880142.629 6 101559265.41706      1944.302 6        41.924    25880141.898 7 104208630.54507      1994.970 7        42.305
G21         7.000    23190021.946 6 121864442.25906     -3320.889 6        41.845                                    23190017.218 4  94959308.43904     -2587.708 4        27.461
E04         8.000    24179318.843 7 127063201.71307     -1770.751 7        46.142                                                                    24179316.737 8  94884863.71008     -1322.322 8        49.553    24179316.507 8  97360112.91908     -1356.774 8        50.321
R14         9.000    23317355.534 7 124294630.23607       608.754 7        45.165                                                                    23317355.807 6  96673590.76606       473.258 6        39.423
G04        10.000    21227639.526 7 111552038.15307      2073.581 7        46.455                                    21227636.468 6  86923674.22306      1615.774 6        36.095    21227636.755 7  86923669.22907      1615.695 7        45.097
E09        11.000    23897435.975 8 125581919.01908       986.636 8        48.282                                                                    23897435.262 8  93778722.07008       736.805 8        50.177    23897434.907 8  96225122.84308       755.998 8        50.800
S27        12.000    39071123.184 5 205320126.46605      -404.418 5        35.990
G06        13.000    24716623.458 6 129886753.93306      3093.343 6        38.267                                    24716622.898 5 101210460.08605      2410.399 5        31.374    24716623.092 6 101210471.08706      2410.415 6        38.144
S36        14.000    38201055.373 7 200748381.96907      -417.994 7        43.964
E27        15.000    28940868.001 5 152085280.87205      -337.715 5        35.395                                                                    28940868.741 6 113570183.52406      -252.300 6        39.306    28940868.036 6 116532881.71506      -258.943 6        40.136
E36        16.000    23575499.835 7 123890116.52007       437.853 7        47.935                                                                    23575499.955 8  92515364.12308       326.936 8        50.885    23575499.603 8  94928803.11808       335.427 8        51.021
S45        17.000    63398574.607 6 333162783.35806      -459.242 6        37.497
G03        18.000    19918174.690 8 104670772.59008      -393.760 8        50.459                                    19918172.647 8  81561660.62008      -306.827 8        51.943    19918173.094 7  81561669.62107      -306.800 7        46.067
R21        19.000    19443301.047 8 104045070.90908       427.613 8        52.610                                                                    19443299.465 7  80923954.22907       332.513 7        46.628
R20        20.000    20565910.176 6 109975200.17306     -3680.071 6        38.706                                                                    20565911.090 7  85536264.79007     -2862.394 7        46.311
R05        21.000    20153782.650 8 107733556.31308     -2936.419 8        50.935                                                                    20153781.292 7  83792771.42307     -2283.900 7        47.195
I06        22.000    38146321.311 7 149694587.27307      -219.807 7        43.390
S28        23.000    40872134.916 5 214784512.70005      -411.640 5        34.181
E10        24.000    26401594.208 7 138741431.33907     -3093.507 7        42.148                                                                    26401593.896 7 103605679.86307     -2309.978 7        45.610    26401593.011 7 106308427.39707     -2370.285 7        45.714
S23        25.000    38150066.127 7 200479945.96307      -414.506 7        44.524
E06        26.000    23380330.734 8 122864528.00108      -330.719 8        48.009                                                                    23380330.265 8  91749484.81908      -246.961 8        50.786    23380330.077 8  94142948.12408      -253.379 8        51.048
R15        27.000    24171394.846 7 129164594.30107      2966.294 7        43.585                                                                    24171395.387 6 100461360.00506      2307.179 6        38.483
E19        30.000                                                                                                                                    28393075.926 4 111420485.35004     -2514.920 4        28.142    28393075.866 4 114327105.51304     -2580.387 4        28.995
G32        31.000    25801961.802 5 135590223.77505     -3873.261 5        33.737                                    25801960.607 3 105654712.53903     -3018.123 3        18.358    25801960.666 4 105654717.51504     -3018.214 4        28.531
G02        32.000    21668018.208 8 113866243.16108     -2579.322 8        48.322                                    21668011.786 6  88726938.65006     -2009.859 6        38.504
G19        33.000    22533589.695 7 118414845.56907       944.318 7        43.092                                    22533583.626 5  92271329.38705       735.834 5        30.989
G17        34.000    22292456.156 7 117147700.43807     -1091.753 7        45.178                                    22292451.721 7  91283932.75007      -850.715 7        42.880    22292452.014 7  91283932.75607      -850.756 7        42.138
E11        35.000    24180152.852 7 127067628.11707     -2198.737 7        44.075                                                                    24180148.840 7  94888181.97307     -1641.896 7        45.842    24180148.631 7  97363518.37207     -1684.691 7        46.410
C32        36.000                                                                                                                                    24978612.692 7 130070215.19407     -3190.418 7        43.579                                                                    24978613.101 7 105692714.07007     -2592.519 7        44.602
C35        37.000                                                                                                                                    23333037.109 7 121501267.24707      1044.672 7        46.882                                                                    23333036.061 7  98729731.81007       848.739 7        47.103
I09        38.000    37170235.182 7 145863982.67807      -436.193 7        43.081
C29        39.000                                                                                                                                    22549007.582 8 117418600.96708     -2456.806 8        49.238                                                                    22549005.341 8  95412225.53608     -1996.439 8        48.141
R22        40.000    22919723.659 7 122347068.25807      3622.503 7        44.910                                                                    22919722.536 7  95158843.97007      2817.606 7        42.806
S44        42.000    40610194.091 6 213408207.62306      -493.073 6        37.887
C09        43.000                                                                                                                                    38855030.886 6 202328360.88606       419.009 6        41.685    38855027.174 7 156453113.50107       323.961 7        45.770    38855025.194 6 164408347.19606       340.306 6        41.387
C05        44.000                                                                                                                                    39117205.614 6 203693590.51506      -422.245 6        37.656    39117200.880 7 157508829.03407      -326.628 7        43.206    39117202.664 6 165517830.59406      -343.312 6        40.005
R06        45.000    20103238.324 6 107274783.41306      1571.457 6        40.212
R13        46.000    24444792.023 6 130533840.05706     -2720.090 6        36.514
C39        47.000                                                                                                                                    38905412.527 7 202590705.35807      -636.352 7        42.789                                                                    38905409.013 7 164621532.06407      -517.160 7        43.240
C20        48.000                                                                                                                                    21831534.320 8 113682574.86008      -931.965 8        52.165                                                                    21831528.266 8  92376396.33808      -757.398 8        49.551
C06        49.000                                                                                                                                    38318793.107 6 199536035.83106       -68.411 6        40.505    38318787.731 7 154293903.26407       -52.835 7        44.418    38318787.699 6 162139352.80006       -55.629 6        41.564
C16        50.000                                                                                                                                    38751700.628 7 201790288.61607      -188.170 7        42.754    38751699.866 7 156037060.06707      -145.594 7        43.437    38751697.748 6 163971137.16406      -152.874 6        39.769
S48        51.000    77185437.583 6 405612554.79106      -417.764 6        37.323
C19        52.000                                                                                                                                    23262185.267 7 121132358.85407      1625.616 7        47.793                                                                    23262180.554 8  98429966.35008      1320.793 8        48.256
R04        53.000    24133573.781 7 129234216.46507     -4333.455 7        42.453                                                                    24133571.444 6 100515509.17506     -3370.515 6        36.571
C60        54.000                                                                                                                                    40610196.642 6 211468152.43306      -488.468 6        39.649                                                                    40610180.756 6 171835165.29406      -396.814 6        39.366
C30        55.000                                                                                                                                    26151700.168 6 136178738.86606     -3941.535 6        39.159                                                                    26151701.881 6 110656373.71306     -3202.812 6        39.273
C02        57.000                                                                                                                                    40569094.749 5 211253967.40405      -468.318 5        33.748    40569087.520 6 163354961.71806      -362.039 6        39.390    40569091.209 6 171661156.09406      -380.590 6        36.015
I03        58.000   132587308.943 6 444515836.44006       951.628 6        40.210
R07        59.000    23725410.684 7 127003982.42307      3303.959 7        43.742                                                                    23725411.594 6  98780870.13706      2569.556 6        38.480
> 2025 01 01 01 30 10.0000000  0 55
G28         1.000    23191840.366 7 121873958.23907     -1097.284 7        42.415                                    23191836.111 4  94966702.40504      -855.032 4        29.014    23191836.401 7  94966708.40407      -854.997 7        42.186
G31         2.000    22395170.399 7 117687425.32107       766.376 7        45.506                                    22395165.843 6  91704474.52806       597.175 6        41.228    22395165.802 6  91704473.53806       597.052 6        41.712
G09         3.000    23246474.221 6 122161073.63006      3108.830 6        40.782                                    23246473.092 6  95190453.32406      2422.461 6        38.093    23246473.852 6  95190454.35106      2422.382 6        39.468
E34         4.000    26970434.874 6 141730595.80606      2322.828 6        40.091                                                                    26970434.894 7 105837789.13007      1734.637 7        43.185    26970434.828 7 108598774.39907      1779.912 7        44.108
S21         5.000    38433988.672 7 201971804.14207      -418.439 7        42.366
E05         6.000    25877663.139 6 135988057.40306      2603.296 6        37.013                                                                    25877665.610 6 101549545.12506      1943.833 6        41.840    25877664.918 7 104198656.66707      1994.711 7        42.205
G21         7.000    23193181.638 6 121881048.38806     -3321.568 6        40.760                                    23193177.256 4  94972248.27904     -2588.239 4        27.066
E04         8.000    24181004.329 7 127072059.13407     -1772.142 7        46.098                                                                    24181002.255 8  94891478.01108     -1323.348 8        49.500    24181002.004 8  97366899.77108     -1357.878 8        50.380
R14         9.000    23316786.400 7 124291595.88407       605.175 7        45.372                                                                    23316786.718 6  96671230.74106       470.586 6        39.174
G04        10.000    21225667.629 7 111541675.68507      2071.588 7        46.421                                    21225664.500 6  86915599.57506      1614.221 6        36.072    21225664.650 7  86915594.57307      1614.181 7        44.816
E09        11.000    23896498.146 8 125576990.32408       984.937 8        48.330                                                                    23896497.384 8  93775041.54808       735.504 8        50.126    23896497.081 8  96221346.31008       754.688 8        50.850
S27        12.000    39071510.185 5 205322147.46305      -404.189 5        35.852
G06        13.000    24713680.550 6 129871287.89506      3093.304 6        36.817                                    24713679.766 5 101198408.63205      2410.371 5        31.185    24713679.933 6 101198419.63206      2410.225 6        38.186
S36        14.000    38201453.866 7 200750471.58307      -417.636 7        44.051
E27        15.000    28941190.853 6 152086975.70506      -339.887 6        36.004                                                                    28941191.500 6 113571449.11106      -253.789 6        39.547    28941190.468 6 116534180.32606      -260.398 6        39.835
E36        16.000    23575083.771 7 123887931.62707       436.246 7        47.870                                                                    23575084.194 8  92513732.54208       325.815 8        50.839    23575083.852 8  94927128.97208       334.276 8        51.119
S45        17.000    63398970.229 6 333165078.80306      -458.997 6        37.629
G03        18.000    19918550.473 8 104672746.32308      -395.550 8        50.435                                    19918548.241 8  81563198.59608      -308.222 8        51.938    19918548.747 7  81563207.59607      -308.228 7        45.974
R21        19.000    19442903.157 8 104042943.36408       423.576 8        52.301                                                                    19442901.362 7  80922299.47307       329.374 7        46.267
R20        20.000    20569351.975 6 109993608.14506     -3682.962 6        38.685                                                                    20569353.203 7  85550582.09807     -2864.409 7        45.651
R05        21.000    20156529.832 8 107748243.38008     -2938.175 8        50.662                                                                    20156528.188 7  83804194.69707     -2285.239 7        46.959
I06        22.000    38146601.507 7 149695686.09007      -219.652 7        43.492
S28        23.000    40872523.867 5 214786569.84305      -410.982 5        34.238
E10        24.000    26404538.167 7 138756900.36707     -3094.131 7        42.072                                                                    26404537.567 7 103617231.40407     -2310.573 7        45.660    26404536.652 7 106320280.28607     -2370.869 7        45.469
S23        25.000    38150462.125 7 200482019.18107      -414.463 7        44.603
E06        26.000    23380646.224 8 122866186.51708      -332.537 8        48.109                                                                    23380645.905 8  91750723.32408      -248.386 8        50.737    23380645.696 8  94144218.94008      -254.843 8        51.101
R15        27.000    24168619.535 7 129149766.26707      2965.068 7        42.916                                                                    24168619.560 6 100449827.08006      2306.289 6        38.156
E19        30.000    28396277.635 4 149223421.39904     -3366.305 4        25.098                                                                    28396280.379 4 111433060.56104     -2515.095 4        27.772    28396280.156 4 114340008.79704     -2580.497 4        28.749
G32        31.000    25805647.407 5 135609589.96505     -3873.137 5        34.238                                    25805645.823 3 105669803.08203     -3018.021 3        18.896    25805646.001 4 105669808.03904     -3017.115 4        29.735
G02        32.000    21670473.381 8 113879144.88008     -2581.184 8        48.670                                    21670466.876 6  88736991.93506     -2011.313 6        38.571
G19        33.000    22532692.563 7 118410132.13107       941.190 7        43.431                                    22532686.748 5  92267656.58105       733.399 5        31.019
G17        34.000    22293496.201 7 117153166.45307     -1094.477 7        45.187                                    22293491.878 7  91288191.97907      -852.839 7        42.925    22293491.489 7  91288191.97607      -852.787 7        42.106
E11        35.000    24182245.711 7 127078625.79207     -2200.117 7        44.232                                                                    24182241.614 7  94896394.51707     -1642.969 7        45.755    24182241.428 7  97371945.17207     -1685.912 7        46.418
C32        36.000                                                                                                                                    24981676.259 7 130086168.21007     -3190.629 7        44.056                                                                    24981676.640 7 105705677.19307     -2592.549 7        44.552
C35        37.000                                                                                                                                    23332035.498 7 121496050.09407      1042.429 7        46.930                                                                    23332034.155 7  98725492.43307       847.110 7        47.144
I09        38.000    37170790.599 7 145866163.65207      -436.121 7        43.109
C29        39.000                                                                                                                                    22551367.818 8 117430890.81708     -2458.911 8        49.222                                                                    22551365.505 8  95422212.03808     -1997.946 8        48.307
R22        40.000    22916331.045 7 122328958.40307      3621.548 7        45.106                                                                    22916329.119 7  95144758.53207      2816.715 7        42.447
S44        42.000    40610664.277 6 213410671.91406      -492.832 6        37.743
C09        43.000                                                                                                                                    38854628.579 6 202326267.69406       418.537 6        41.518    38854625.303 7 156451494.90707       323.587 7        45.804    38854623.210 6 164406646.29806       340.052 6        41.704
C05        44.000                                                                                                                                    39117610.676 6 203695701.84706      -422.000 6        37.641    39117606.215 7 157510461.63207      -326.412 7        43.285    39117608.043 6 165519546.21106      -342.828 6        39.979
R06        45.000    20101767.230 6 107266933.65706      1568.855 6        40.076
R13        46.000    24447340.699 6 130547447.82406     -2722.878 6        37.134
C39        47.000                                                                                                                                    38906023.966 7 202593889.10807      -636.945 7        42.800                                                                    38906020.360 7 164624119.12207      -517.502 7        43.384
C20        48.000                                                                                                                                    21832429.984 8 113687238.98208      -933.559 8        52.167                                                                    21832423.974 8  92380186.30808      -758.455 8        49.653
C06        49.000                                                                                                                                    38318859.143 6 199536379.85706       -69.101 6        40.505    38318853.954 7 154294169.28507       -53.457 7        44.445    38318853.632 6 162139632.33406       -55.858 6        41.709
C16        50.000                                                                                                                                    38751881.794 7 201791231.58907      -188.816 7        42.806    38751881.096 7 156037789.23007      -146.052 7        43.532    38751878.635 6 163971903.39206      -153.313 6        39.889
S48        51.000    77185831.435 6 405614642.58006      -417.277 6        37.520
C19        52.000                                                                                                                                    23260624.885 7 121124234.21507      1624.392 7        47.946                                                                    23260620.313 8  98423364.40208      1320.050 8        48.300
R04        53.000    24137619.510 7 129255882.93707     -4332.976 7        42.066                                                                    24137617.795 6 100532360.90006     -3370.008 6        36.949
C60        54.000                                                                                                                                    40610665.461 6 211470594.32506      -488.135 6        39.796                                                                    40610649.780 6 171837149.52506      -396.550 6        39.465
C30        55.000                                                                                                                                    26155484.763 6 136198446.05706     -3941.291 6        39.144                                                                    26155486.368 6 110672387.41306     -3202.623 6        39.297
C02        57.000                                                                                                                                    40569543.834 5 211256308.35305      -467.772 5        33.778    40569537.070 6 163356771.91406      -361.970 6        39.198    40569540.719 6 171663058.30506      -380.159 6        36.072
I03        58.000   132586096.305 6 444511078.42906       951.552 6        40.303
R07        59.000    23722326.609 7 126987465.07507      3303.241 7        43.426                                                                    23722324.929 6  98768023.29606      2568.973 6        37.595
> 2025 01 01 01 30 15.0000000  0 55
G28         1.000    23192885.610 7 121879452.75907     -1100.631 7        42.842                                    23192881.581 4  94970983.85904      -857.636 4        29.090    23192882.098 7  94970989.85507      -857.469 7        42.030
G31         2.000    22394442.712 7 117683601.94307       763.037 7        44.847                                    22394438.238 6  91701495.28006       594.576 6        41.328    22394438.554 6  91701494.28806       594.573 6        41.750
G09         3.000    23243517.327 6 122145532.90806      3107.540 6        40.663                                    23243515.745 6  95178343.68306      2421.456 6        38.174    23243515.711 6  95178344.68506      2421.625 6        39.453
E34         4.000    26968225.009 6 141718982.40906      2322.529 6        40.155                                                                    26968224.972 7 105829116.78207      1734.368 7        43.058    26968224.810 7 108589875.82607      1779.561 7        44.044
S21         5.000    38434383.690 7 201973896.34707      -418.426 7        42.256
E05         6.000    25875187.270 6 135975042.57406      2602.675 6        37.206                                                                    25875189.011 6 101539826.25806      1943.639 6        41.979    25875188.068 7 104188684.27407      1994.252 7        42.157
G21         7.000    23196342.317 6 121897659.23206     -3322.669 6        41.170                                    23196338.035 4  94985191.78904     -2589.091 4        27.162
E04         8.000    24182691.164 7 127080924.49807     -1773.916 7        45.907                                                                    24182689.321 8  94898098.24908     -1324.728 8        49.461    24182688.995 8  97373692.71308     -1359.256 8        50.333
R14         9.000    23316220.419 7 124288580.42407       601.151 7        44.454                                                                    23316221.271 6  96668885.40806       467.529 6        40.062
G04        10.000    21223697.703 7 111531323.61007      2069.311 7        46.683                                    21223694.549 6  86907533.02506      1612.449 6        36.068    21223694.791 7  86907528.02307      1612.445 7        45.205
E09        11.000    23895561.857 8 125572070.56808       982.965 8        48.068                                                                    23895561.169 8  93771367.70608       734.100 8        50.159    23895560.899 8  96217576.62608       753.221 8        50.877
S27        12.000    39071894.042 6 205324168.00306      -404.204 6        36.068
G06        13.000    24710738.212 6 129855822.99506      3092.741 6        36.594                                    24710736.937 5 101186358.06205      2409.920 5        31.389    24710737.275 6 101186369.05906      2410.092 6        38.168
S36        14.000    38201851.970 7 200752561.17307      -418.083 7        44.060
E27        15.000    28941515.358 5 152088681.47805      -342.133 5        35.910                                                                    28941516.027 6 113572722.91306      -255.766 6        39.288    28941515.192 6 116535487.34906      -262.297 6        39.300
E36        16.000    23574669.605 7 123885754.57207       434.529 7        47.699                                                                    23574669.944 8  92512106.81808       324.514 8        50.825    23574669.514 8  94925460.83508       332.996 8        51.058
S45        17.000    63399362.162 6 333167373.48606      -458.779 6        37.728
G03        18.000    19918927.623 8 104674729.54908      -397.571 8        50.288                                    19918925.628 8  81564743.96708      -309.796 8        52.008    19918926.174 7  81564752.97007      -309.918 7        45.958
R21        19.000    19442509.368 8 104040836.62908       419.261 8        52.148                                                                    19442507.933 7  80920660.91007       326.056 7        46.515
R20        20.000    20572796.498 6 110012030.37206     -3685.906 6        38.775                                                                    20572798.275 7  85564910.49807     -2866.821 7        45.669
R05        21.000    20159278.274 8 107762939.55808     -2940.236 8        50.394                                                                    20159277.253 7  83815625.05707     -2286.920 7        46.545
I06        22.000    38146881.375 7 149696784.48007      -219.691 7        43.426
S28        23.000    40872917.781 5 214788626.08105      -411.176 5        34.029
E10        24.000    26407482.468 7 138772373.47107     -3095.231 7        42.267                                                                    26407482.063 7 103628785.97907     -2311.236 7        45.782    26407481.190 7 106332136.28607     -2371.488 7        45.418
S23        25.000    38150855.977 7 200484091.56707      -414.380 7        44.549
E06        26.000    23380963.697 7 122867854.79907      -334.663 7        47.987                                                                    23380963.388 8  91751969.12208      -249.937 8        50.751    23380963.172 8  94145497.23508      -256.453 8        51.074
R15        27.000    24165845.070 7 129134944.31207      2963.617 7        42.679                                                                    24165845.791 6 100438298.90206      2305.124 6        37.826
E19        30.000    28399482.484 4 149240261.09504     -3367.490 4        24.722                                                                    28399484.887 4 111445635.60604     -2515.262 4        28.265    28399484.399 4 114352911.91504     -2580.955 4        29.156
G32        31.000    25809332.543 5 135628955.96605     -3873.165 5        32.659                                    25809331.008 3 105684893.47103     -3018.056 3        18.657    25809331.795 4 105684898.48004     -3018.176 4        28.701
G02        32.000    21672930.213 8 113892056.18908     -2583.307 8        48.668                                    21672923.787 6  88747052.69206     -2012.967 6        38.610
G19        33.000    22531799.168 7 118405434.73907       937.810 7        43.124                                    22531792.822 5  92263996.28005       730.760 5        31.140
G17        34.000    22294538.975 7 117158646.54307     -1097.453 7        45.347                                    22294534.692 7  91292462.18007      -855.155 7        42.895    22294534.597 6  91292462.17706      -855.154 6        41.785
E11        35.000    24184340.015 7 127089630.74807     -2201.826 7        44.131                                                                    24184335.797 7  94904612.49507     -1644.156 7        45.869    24184335.588 7  97380377.52307     -1687.059 7        46.379
C32        36.000                                                                                                                                    24984740.279 7 130102122.41107     -3191.046 7        44.504                                                                    24984740.351 7 105718641.31107     -2592.986 7        44.301
C35        37.000                                                                                                                                    23331036.140 7 121490844.67407      1039.816 7        47.109                                                                    23331034.493 7  98721262.61507       844.912 7        47.003
I09        38.000    37171346.585 7 145868344.89307      -436.294 7        43.052
C29        39.000                                                                                                                                    22553729.993 8 117443191.27408     -2461.218 8        49.258                                                                    22553727.731 8  95432207.17808     -1999.962 8        48.093
R22        40.000    22912938.700 7 122310853.86607      3620.257 7        45.240                                                                    22912937.748 6  95130677.23706      2815.742 6        41.802
S44        42.000    40611134.531 6 213413135.53206      -492.662 6        37.599
C09        43.000                                                                                                                                    38854227.353 6 202324178.04406       417.541 6        41.683    38854223.743 7 156449879.04407       322.909 7        45.822    38854221.935 6 164404948.28606       339.303 6        41.576
C05        44.000                                                                                                                                    39118015.849 6 203697812.60606      -422.086 6        37.807    39118011.617 7 157512093.80807      -326.432 7        43.221    39118013.325 6 165521261.39006      -342.991 6        39.718
R06        45.000    20100298.753 6 107259096.50806      1566.169 6        40.174
R13        46.000    24449893.330 6 130561071.10406     -2726.161 6        36.650
C39        47.000                                                                                                                                    38906636.017 7 202597076.55907      -637.861 7        42.768                                                                    38906632.515 7 164626709.19707      -518.344 7        43.198
C20        48.000                                                                                                                                    21833327.352 8 113691911.16408      -935.308 8        52.258                                                                    21833321.229 8  92383982.85508      -759.983 8        49.545
C06        49.000                                                                                                                                    38318926.318 6 199536727.81306       -69.988 6        40.608    38318920.787 7 154294438.35307       -54.187 7        44.460    38318920.624 6 162139915.10306       -56.926 6        41.557
C16        50.000                                                                                                                                    38752063.239 7 201792178.40807      -189.717 7        42.938    38752062.650 7 156038521.36407      -146.746 7        43.352    38752060.574 6 163972672.78206      -154.089 6        39.742
S48        51.000    77186226.641 6 405616729.69506      -417.566 6        37.887
C19        52.000                                                                                                                                    23259065.916 8 121116115.87108      1623.012 8        48.072                                                                    23259061.308 8  98416767.59908      1318.761 8        48.168
R04        53.000    24141664.540 6 129277547.13106     -4332.678 6        41.845                                                                    24141664.113 6 100549210.86006     -3369.925 6        36.711
C60        54.000                                                                                                                                    40611134.105 6 211473035.56306      -488.315 6        39.733                                                                    40611118.545 6 171839133.24306      -396.666 6        39.087
C30        55.000                                                                                                                                    26159268.695 6 136218152.86306     -3941.463 6        39.030                                                                    26159270.935 6 110688400.79406     -3202.437 6        38.940
C02        57.000                                                                                                                                    40569993.048 5 211258648.74705      -467.923 5        34.067    40569986.540 6 163358581.61906      -362.005 6        39.264    40569989.799 5 171664960.07805      -380.437 5        35.429
I03        58.000   132584884.046 6 444506320.06706       951.622 6        40.319
R07        59.000    23719240.640 7 126970951.59707      3302.227 7        43.118                                                                    23719241.336 6  98755179.49906      2568.476 6        36.832
> 2025 01 01 01 30 20.0000000  0 55
G28         1.000    23193934.654 7 121884963.57207     -1103.703 7        43.050                                    23193930.270 4  94975278.00004      -860.021 4        28.882    23193931.079 7  94975284.00207      -859.956 7        42.089
G31         2.000    22393718.168 7 117679794.93107       759.869 7        44.692                                    22393713.728 6  91698528.77906       592.107 6        41.278    22393713.580 6  91698527.78006       592.204 6        41.645
G09         3.000    23240561.409 6 122129997.37406      3106.830 6        40.965                                    23240559.425 6  95166238.08006      2420.906 6        38.177    23240559.773 6  95166239.10506      2420.714 6        39.913
E34         4.000    26966014.712 6 141707370.70206      2322.217 6        39.742                                                                    26966015.324 7 105820445.70907      1734.148 7        43.316    26966015.138 7 108580978.54807      1779.361 7        44.057
S21         5.000    38434783.771 7 201975988.31807      -418.276 7        42.445
E05         6.000    25872711.716 6 135962030.33106      2602.059 6        38.207                                                                    25872712.876 7 101530109.32707      1943.218 7        42.209    25872711.898 7 104178713.84707      1993.974 7        42.002
G21         7.000    23199504.780 6 121914275.35706     -3323.604 6        41.533                                    23199500.000 4  94998139.41804     -2589.825 4        27.186
E04         8.000    24184379.777 7 127089798.43407     -1775.479 7        45.842                                                                    24184377.904 8  94904724.89608     -1325.853 8        49.508    24184377.690 8  97380492.22708     -1360.485 8        50.241
R14         9.000    23315658.078 7 124285584.53807       597.251 7        45.386                                                                    23315659.363 6  96666555.25006       464.575 6        40.307
G04        10.000    21221729.871 7 111520982.52107      2067.208 7        46.659                                    21221726.646 5  86899475.03705      1610.816 5        35.952    21221727.044 7  86899470.03307      1610.795 7        45.484
E09        11.000    23894627.397 8 125567160.36308       981.168 8        48.007                                                                    23894626.798 8  93767701.00408       732.648 8        50.209    23894626.536 8  96213814.26908       751.775 8        50.814
S27        12.000    39072277.238 6 205326188.25206      -403.841 6        36.015
G06        13.000    24707796.247 6 129840359.80806      3092.653 6        37.830                                    24707794.395 5 101174308.84405      2409.865 5        31.426    24707794.755 6 101174319.83306      2409.856 6        37.648
S36        14.000    38202246.573 7 200754651.57607      -418.149 7        43.920
E27        15.000    28941841.993 5 152090398.85405      -344.479 5        35.557                                                                    28941842.727 6 113574005.36106      -257.360 6        38.940    28941842.060 6 116536803.23106      -263.841 6        39.294
E36        16.000    23574257.030 7 123883585.97007       432.977 7        47.721                                                                    23574257.280 8  92510487.41408       323.314 8        50.871    23574256.870 8  94923799.18808       331.741 8        51.023
S45        17.000    63399757.579 6 333168068.05816      -459.033 6        37.440
G03        18.000    19919307.250 8 104676722.85408      -399.570 8        50.364                                    19919304.947 8  81566297.19208      -311.354 8        51.912    19919305.407 7  81566306.19307      -311.346 7        45.734
R21        19.000    19442120.204 8 104038751.17308       415.033 8        52.445                                                                    19442118.565 7  80919038.87907       322.799 7        46.296
R20        20.000    20576244.436 6 110030467.47906     -3688.647 6        38.207                                                                    20576246.890 7  85579250.47607     -2869.148 7        45.923
R05        21.000    20162029.422 8 107777645.71608     -2942.091 8        50.570                                                                    20162028.095 7  83827063.17207     -2288.210 7        46.328
I06        22.000    38147161.024 7 149697882.90407      -219.698 7        43.397
S28        23.000    40873310.877 5 214790682.37505      -411.058 5        34.238
E10        24.000    26410427.650 7 138787851.21507     -3096.007 7        42.290                                                                    26410427.460 7 103640344.05007     -2311.912 7        45.941    26410426.661 7 106343995.86707     -2372.195 7        45.383
S23        25.000    38151249.318 7 200486163.81307      -414.391 7        44.339
E06        26.000    23381283.266 7 122869533.43707      -336.660 7        47.829                                                                    23381282.794 8  91753222.65608      -251.453 8        50.763    23381282.601 8  94146783.47208      -257.998 8        51.076
R15        27.000    24163072.602 7 129120129.38907      2962.384 7        42.491                                                                    24163074.547 6 100426776.20006      2304.019 6        38.360
