     3.04           OBSERVATION DATA    M                   RINEX VERSION / TYPE
ssrcrin-15.6.1x                         20250101 000000 UTC PGM / RUN BY / DATE 
(00000000023479385599111004) Septentrio proprietary         COMMENT             
rref                                                        MARKER NAME         
01                                                          MARKER NUMBER       
geodetic                                                    MARKER TYPE         
NFB                 CLIMERS@TUW                             OBSERVER / AGENCY   
3297213             SEPT ASTERX SB3 PROB4.14.4              REC # / TYPE / VERS 
Unknown             Unknown                                 ANT # / TYPE        
  4127831.9488  1207193.3655  4695247.2003                  APPROX POSITION XYZ 
        0.0000        0.0000        0.0000                  ANTENNA: DELTA H/E/N
G   23 X1  C1C L1C D1C S1C C1W S1W C2W L2W D2W S2W C2L L2L  SYS / # / OBS TYPES 
       D2L S2L C5Q L5Q D5Q S5Q C1L L1L D1L S1L              SYS / # / OBS TYPES 
E   21 X1  C1C L1C D1C S1C C6C L6C D6C S6C C5Q L5Q D5Q S5Q  SYS / # / OBS TYPES 
       C7Q L7Q D7Q S7Q C8Q L8Q D8Q S8Q                      SYS / # / OBS TYPES 
S    9 X1  C1C L1C D1C S1C C5I L5I D5I S5I                  SYS / # / OBS TYPES 
R   17 X1  C1C L1C D1C S1C C2P L2P D2P S2P C2C L2C D2C S2C  SYS / # / OBS TYPES 
       C3Q L3Q D3Q S3Q                                      SYS / # / OBS TYPES 
C   25 X1  C1P L1P D1P S1P C5P L5P D5P S5P C2I L2I D2I S2I  SYS / # / OBS TYPES 
       C7I L7I D7I S7I C6I L6I D6I S6I C7D L7D D7D S7D      SYS / # / OBS TYPES 
J   17 X1  C1C L1C D1C S1C C2L L2L D2L S2L C5Q L5Q D5Q S5Q  SYS / # / OBS TYPES 
       C1L L1L D1L S1L                                      SYS / # / OBS TYPES 
I    5 X1  C5A L5A D5A S5A                                  SYS / # / OBS TYPES 
SEPTENTRIO RECEIVERS OUTPUT ALIGNED CARRIER PHASES.         COMMENT             
NO FURTHER PHASE SHIFT APPLIED IN THE RINEX ENCODER.        COMMENT             
G L1C                                                       SYS / PHASE SHIFT   
G L2W                                                       SYS / PHASE SHIFT   
G L2L  0.00000                                              SYS / PHASE SHIFT   
G L5Q  0.00000                                              SYS / PHASE SHIFT   
G L1L  0.00000                                              SYS / PHASE SHIFT   
E L1C  0.00000                                              SYS / PHASE SHIFT   
E L6C  0.00000                                              SYS / PHASE SHIFT   
E L5Q  0.00000                                              SYS / PHASE SHIFT   
E L7Q  0.00000                                              SYS / PHASE SHIFT   
E L8Q  0.00000                                              SYS / PHASE SHIFT   
S L1C                                                       SYS / PHASE SHIFT   
S L5I                                                       SYS / PHASE SHIFT   
R L1C                                                       SYS / PHASE SHIFT   
R L2P  0.00000                                              SYS / PHASE SHIFT   
R L2C                                                       SYS / PHASE SHIFT   
R L3Q  0.00000                                              SYS / PHASE SHIFT   
C L1P  0.00000                                              SYS / PHASE SHIFT   
C L5P  0.00000                                              SYS / PHASE SHIFT   
C L2I                                                       SYS / PHASE SHIFT   
C L7I                                                       SYS / PHASE SHIFT   
C L6I                                                       SYS / PHASE SHIFT   
C L7D                                                       SYS / PHASE SHIFT   
J L1C                                                       SYS / PHASE SHIFT   
J L2L  0.00000                                              SYS / PHASE SHIFT   
J L5Q  0.00000                                              SYS / PHASE SHIFT   
J L1L  0.00000                                              SYS / PHASE SHIFT   
I L5A                                                       SYS / PHASE SHIFT   
  2025     1     1     0     0    0.0000000     GPS         TIME OF FIRST OBS   
 C1C    0.000 C2C    0.000 C2P    0.000                     GLONASS COD/PHS/BIS 
DBHZ                                                        SIGNAL STRENGTH UNIT
    18                                                      LEAP SECONDS        
 24 R01  1 R02 -4 R03  5 R04  6 R05  1 R06 -4 R07  5 R08  6 GLONASS SLOT / FRQ #
    R09 -2 R10 -7 R11  0 R12 -1 R13 -2 R14 -7 R15  0 R16 -1 GLONASS SLOT / FRQ #
    R17  4 R18 -3 R19  3 R20  2 R21  4 R22 -3 R23  3 R24  2 GLONASS SLOT / FRQ #
                                                            END OF HEADER       
> 2025 01 01 00 00  0.0000000  0 56
G28         1.000    24378208.344 6 128108354.94906      1965.265 6        40.451                                    24378204.843 4  99824671.15304      1531.362 4        24.271    24378204.925 6  99824677.16206      1531.420 6        40.024
G31         2.000    25125062.625 5 132033095.83205      2826.318 5        33.994
G14         3.000    24801526.577 6 130332944.18606     -2413.781 6        37.645                                    24801523.160 3 101558142.77403     -1880.865 3        18.627    24801525.564 6 101558144.77506     -1880.911 6        36.068
G10         4.000    25223246.210 6 132549111.16406     -3533.592 6        38.234                                    25223244.899 4 103285030.49304     -2753.451 4        28.910    25223244.932 5 103285029.48105     -2753.239 5        34.390
S21         5.000    38597721.169 7 202832280.00807      -417.331 7        42.112
R12         6.000    23994118.384 6 128172301.92806     -1072.197 6        41.893                                                                    23994120.903 6  99689584.63606      -833.774 6        40.677
G21         7.000    21159236.880 7 111192604.66607     -1650.870 7        45.032                                    21159231.626 6  86643592.98606     -1286.393 6        37.267
E04         8.000    24098112.896 7 126636460.68707       562.097 7        47.412                                                                    24098111.155 8  94566192.89508       419.813 8        50.075    24098110.945 8  97033129.02608       430.714 8        50.978
G04        10.000    24845748.326 6 130565296.27706      3429.080 6        36.552                                    24845748.081 3 101739191.71103      2671.984 3        20.452    24845747.489 6 101739186.73706      2672.090 6        38.523
E09        11.000    26440454.101 7 138945556.31007      2607.648 7        42.902                                                                    26440454.271 7 103758057.98907      1947.320 7        45.699    26440453.514 7 106464789.68007      1998.114 7        46.169
S27        12.000    39254942.648 5 206286090.51605      -393.755 5        35.686
S36        14.000    38365546.486 7 201612819.42607      -416.672 7        43.911
E02        15.000    27567385.302 6 144867620.99506     -2103.976 6        38.715                                                                    27567385.016 6 108180385.62806     -1571.115 6        40.775    27567384.264 6 111002478.13806     -1612.153 6        41.230
E36        16.000    25355400.048 7 133243553.17807      1664.292 7        44.400                                                                    25355400.786 7  99500072.15107      1242.865 7        47.499    25355400.469 8 102095721.05608      1275.285 8        48.384
S45        17.000    63568033.921 6 334053043.82806      -459.360 6        37.565
G03        18.000    21229962.395 7 111564257.30907      1751.002 7        47.133                                    21229960.586 8  86933205.91508      1364.414 8        48.016    21229961.311 7  86933214.92207      1364.419 7        44.638
R21        19.000    22269480.252 7 119168517.05207      3372.910 7        46.851                                                                    22269479.116 7  92686632.28507      2623.334 7        42.133
R20        20.000    19384013.745 6 103655073.69306       254.047 6        41.483                                                                    19384014.064 7  80620612.70107       197.576 7        47.715
R05        21.000    19340633.609 8 103386811.97308       530.378 8        52.369                                                                    19340632.056 7  80411970.58207       412.522 7        47.242
I06        22.000    38449278.129 7 150883455.93407      -205.083 7        42.535
S28        23.000    41044124.985 5 215688350.84005      -409.019 5        34.471
E10        24.000    24442598.935 7 128446849.37907     -1814.658 7        47.252                                                                    24442597.623 8  95918169.92208     -1355.106 8        49.950    24442597.547 8  98420373.42508     -1390.419 8        50.718
S23        25.000    38317834.269 7 201361542.31207      -414.072 7        45.077
E06        26.000    24801312.905 7 130331833.75707      1858.153 7        46.459                                                                    24801312.839 8  97325717.85208      1387.568 8        48.443    24801312.659 8  99864648.31408      1423.771 8        49.315
E30        27.000    28670745.874 6 150665788.51506        95.974 6        36.514                                                                    28670747.348 6 112510167.91406        71.742 6        40.479    28670746.681 6 115445213.53206        73.712 6        41.342
E12        28.000    26323892.453 6 138333134.21006     -2620.563 6        39.535                                                                    26323889.286 7 103300791.08807     -1956.925 7        42.882    26323889.409 7 105995581.97607     -2007.794 7        44.322
E19        30.000    25838670.679 6 135783143.46106     -2470.570 6        38.333                                                                    25838668.894 6 101396502.06406     -1845.001 6        39.997    25838668.709 6 104041625.53206     -1893.176 6        41.066
G32        31.000    22848087.988 7 120067531.04007     -2624.656 7        46.301                                    22848085.943 7  93559112.38407     -2045.190 7        44.321    22848086.590 7  93559117.38107     -2045.137 7        42.529
G02        32.000    20846648.411 8 109549922.32608      -175.584 8        50.419                                    20846641.685 7  85363573.28007      -136.821 7        44.017
G19        33.000    25552585.065 6 134279736.15906      3294.041 6        36.945                                    25552581.180 2 104633572.19302      2566.828 2        17.208
G17        34.000    23399787.505 7 122966762.23607      1925.931 7        43.200                                    23399782.700 6  95818266.18506      1500.725 6        39.360    23399783.083 6  95818266.19006      1500.681 6        39.387
E11        35.000    23407975.311 7 123009811.98407      -495.747 7        44.233                                                                    23407970.646 7  91857996.09407      -370.194 7        46.973    23407970.648 8  94254283.99808      -379.787 8        48.043
C32        36.000                                                                                                                                    22712311.330 8 118268995.77708     -2055.980 8        49.816                                                                    22712311.412 8  96103258.14408     -1670.490 8        50.367
C35        37.000                                                                                                                                    26068899.505 6 135747601.19906      2732.153 6        40.963                                                                    26068898.689 6 110306041.86906      2220.293 6        41.199
C41        38.000                                                                                                                                    27062756.347 6 140922878.36906     -3607.013 6        38.153                                                                    27062761.436 6 114511408.59106     -2930.813 6        40.184
C29        39.000                                                                                                                                    22032521.174 8 114729125.43708       355.303 8        50.523                                                                    22032518.730 8  93226807.41708       288.876 8        48.931
G08        40.000    23722137.031 6 124660715.19106     -4027.612 6        41.731                                    23722136.733 6  97138241.52006     -3138.398 6        37.028    23722137.504 6  97138248.52506     -3138.398 6        39.324
S44        42.000    40704133.951 6 213901850.83106      -477.697 6        37.709
C09        43.000                                                                                                                                    40323472.384 6 209974914.49106      1217.646 6        38.435    40323469.326 7 162365911.69207       941.528 7        43.088    40323467.574 6 170621796.68106       989.670 6        39.450
C05        44.000                                                                                                                                    39285907.676 6 204572065.86606      -397.205 6        38.105    39285903.372 7 158188121.94807      -306.993 7        43.875    39285904.950 6 166231663.90006      -322.490 6        40.198
R06        45.000    23545255.614 5 125642018.75105      3749.283 5        34.933
R13        46.000    24374544.442 5 130158712.59905      1450.949 5        34.995
C39        47.000                                                                                                                                    39371857.809 6 205019604.47006       409.118 6        41.728                                                                    39371853.509 7 166595211.60607       332.502 7        42.929
C20        48.000                                                                                                                                    22566770.981 8 117511143.34808      1267.889 8        51.691                                                                    22566765.560 8  95487420.99108      1030.386 8        48.952
C06        49.000                                                                                                                                    39363966.640 6 204978520.13706       916.747 6        39.177    39363961.259 7 158502376.10107       709.036 7        42.728    39363960.664 6 166561816.10606       745.327 6        39.871
C16        50.000                                                                                                                                    39668447.512 6 206564034.08406       797.901 6        39.339    39668448.265 6 159728421.87906       616.949 6        41.659    39668446.058 6 167850195.63806       648.489 6        37.856
S48        51.000    77352800.855 6 406493006.51306      -425.939 6        37.074
C19        52.000                                                                                                                                    26228531.099 7 136578871.47607      2808.425 7        42.205                                                                    26228526.255 6 110981518.39106      2282.217 6        41.814
R04        53.000    20598014.800 8 110301463.30108     -3333.374 8        50.628                                                                    20598012.568 7  85790035.36607     -2592.564 7        45.780
C60        54.000                                                                                                                                    40704133.135 6 211957307.98406      -473.366 6        38.498                                                                    40704117.603 6 172232644.64706      -384.533 6        39.907
C30        55.000                                                                                                                                    23040984.259 8 119980446.39608     -2878.062 8        49.008                                                                    23040984.659 7  97493938.92907     -2338.474 7        47.632
R19        56.000    22004293.683 6 117708174.05706     -3953.670 6        38.096                                                                    22004293.622 6  91550840.30606     -3075.030 6        41.452
C02        57.000                                                                                                                                    40691349.477 5 211890580.03705      -439.456 5        33.838    40691341.971 6 163847231.20906      -339.790 6        39.856    40691345.924 6 172178456.21906      -356.915 6        36.287
I03        58.000   134522703.423 6 452110741.49906       997.752 6        40.982
C13        59.000                                                                                                                                    41023906.850 6 213622312.22906     -1144.731 6        36.401    41023908.130 6 165186364.19606      -885.166 6        37.822    41023906.444 6 173585657.28706      -930.222 6        36.552
E25        60.000    28616805.756 6 150382310.74906     -3193.242 6        36.612                                                                    28616807.812 6 112298475.67106     -2384.753 6        38.321    28616806.806 6 115228000.45706     -2446.659 6        38.393
> 2025 01 01 00 00  5.0000000  0 56
G28         1.000    24376339.417 6 128098532.24006      1963.642 6        40.417                                    24376335.513 4  99817017.09904      1530.112 4        24.602    24376336.216 6  99817023.09806      1530.187 6        39.931
G31         2.000    25122372.738 5 132018966.76505      2825.502 5        32.653
G14         3.000    24803823.885 6 130345017.47406     -2415.543 6        37.429                                    24803820.796 3 101567550.52903     -1882.253 3        18.866    24803821.016 6 101567552.52806     -1882.273 6        36.023
G10         4.000    25226608.124 6 132566777.71406     -3533.177 6        38.544                                    25226606.768 4 103298796.63304     -2753.126 4        29.403    25226606.443 5 103298795.68005     -2753.496 5        34.614
S21         5.000    38598118.978 7 202834366.12107      -417.160 7        42.271
R12         6.000    23995124.859 7 128177673.19307     -1076.256 7        43.010                                                                    23995126.339 6  99693762.22006      -836.739 6        40.572
G21         7.000    21160808.153 7 111200862.90607     -1652.486 7        44.862                                    21160803.115 6  86650027.97206     -1287.650 6        37.440
E04         8.000    24097579.052 7 126633655.40407       559.991 7        47.545                                                                    24097577.366 8  94564098.04908       418.148 8        50.045    24097577.096 8  97030979.52608       429.095 8        51.073
G04        10.000    24842486.104 6 130548150.58906      3429.210 6        36.344                                    24842485.492 3 101725831.45203      2672.115 3        19.881    24842484.868 6 101725826.47606      2672.079 6        38.213
E09        11.000    26437973.022 7 138932519.51507      2607.059 7        42.935                                                                    26437973.300 7 103748322.74007      1946.815 7        45.552    26437972.675 7 106454800.47007      1997.543 7        46.245
S27        12.000    39255309.992 5 206288058.19805      -393.536 5        35.833
S36        14.000    38365943.817 7 201614901.85207      -416.463 7        44.000
E02        15.000    27569387.428 6 144878144.32106     -2105.428 6        38.423                                                                    27569387.484 6 108188243.95306     -1572.265 6        40.880    27569386.632 6 111010541.47106     -1613.310 6        41.449
E36        16.000    25353816.769 7 133235232.41707      1663.908 7        44.167                                                                    25353817.448 7  99493858.60407      1242.532 7        47.485    25353817.045 8 102089345.41408      1274.948 8        48.418
S45        17.000    63568425.961 6 334055340.25706      -459.217 6        37.611
G03        18.000    21228297.019 7 111555506.39707      1749.365 7        47.063                                    21228295.332 8  86926387.02708      1363.141 8        48.128    21228295.930 7  86926396.02307      1363.074 7        44.551
R21        19.000    22266329.274 7 119151654.21607      3372.067 7        46.420                                                                    22266327.928 6  92673516.74706      2622.786 6        41.812
R20        20.000    19383777.176 6 103653811.49106       250.772 6        41.421                                                                    19383777.859 7  80619630.98307       195.103 7        47.051
R05        21.000    19340139.296 8 103384169.12308       526.657 8        52.083                                                                    19340137.644 7  80409915.02407       409.671 7        47.106
I06        22.000    38449539.246 7 150884480.94207      -204.978 7        42.383
S28        23.000    41044518.855 5 215690395.85305      -408.816 5        34.538
E10        24.000    24444325.730 7 128455925.04007     -1815.703 7        47.395                                                                    24444324.663 8  95924947.19908     -1355.849 8        49.926    24444324.651 8  98427327.49908     -1391.227 8        50.839
S23        25.000    38318228.129 7 201363611.83207      -413.814 7        45.208
E06        26.000    24799545.418 7 130322546.38807      1856.702 7        46.222                                                                    24799545.555 8  97318782.48208      1386.517 8        48.380    24799545.345 8  99857532.02008      1422.675 8        49.331
E30        27.000    28670655.420 6 150665313.25006        93.635 6        36.688                                                                    28670656.792 6 112509813.07706        70.117 6        41.194    28670656.464 7 115444849.43607        71.932 7        42.466
E12        28.000    26326386.286 6 138346238.48906     -2621.150 6        39.844                                                                    26326382.947 7 103310576.74907     -1957.260 7        42.792    26326383.280 7 106005622.92507     -2008.456 7        44.348
E19        30.000    25841022.099 6 135795500.15006     -2472.019 6        37.826                                                                    25841020.505 6 101405729.45006     -1846.089 6        39.685    25841020.171 6 104051093.63306     -1894.267 6        40.968
G32        31.000    22850586.312 7 120080659.70407     -2626.897 7        45.992                                    22850584.211 7  93569342.51107     -2046.933 7        44.433    22850584.739 7  93569347.51707     -2047.034 7        42.318
G02        32.000    20846816.345 8 109550804.66508      -177.427 8        50.312                                    20846809.595 7  85364260.81707      -138.256 7        44.113
G19        33.000    25549451.427 6 134263267.08106      3293.527 6        36.790                                    25549447.136 3 104620739.16003      2566.401 3        18.806
G17        34.000    23397955.312 7 122957137.63107      1923.964 7        43.283                                    23397951.195 6  95810766.49406      1499.188 6        39.504    23397951.377 6  95810766.51106      1499.158 6        39.003
E11        35.000    23408447.438 7 123012293.40207      -496.842 7        44.065                                                                    23408442.887 7  91859849.10507      -371.027 7        46.977    23408442.885 8  94256185.34808      -380.644 8        48.128
C32        36.000                                                                                                                                    22714286.146 8 118279279.43508     -2057.595 8        49.754                                                                    22714286.299 8  96111614.46208     -1671.999 8        50.336
C35        37.000                                                                                                                                    26066276.725 6 135733941.57206      2731.608 6        40.927                                                                    26066275.366 6 110294942.32006      2219.594 6        40.942
C41        38.000                                                                                                                                    27066219.533 6 140940912.92706     -3606.762 6        38.027                                                                    27066224.822 6 114526063.17006     -2930.959 6        40.095
C29        39.000                                                                                                                                    22032181.076 8 114727354.24608       353.072 8        50.504                                                                    22032178.608 8  93225368.18408       286.844 8        48.936
G08        40.000    23725969.356 6 124680854.53306     -4028.083 6        41.323                                    23725968.972 6  97153934.51206     -3138.765 6        36.907    23725969.762 6  97153941.51606     -3138.866 6        39.192
S44        42.000    40704587.342 6 213904238.42706      -477.475 6        37.660
C09        43.000                                                                                                                                    40322303.218 6 209968827.13706      1217.185 6        38.315    40322300.669 7 162361204.57307       941.255 7        43.194    40322298.552 6 170616850.22306       989.065 6        39.378
C05        44.000                                                                                                                                    39286289.284 6 204574050.52106      -396.894 6        38.192    39286284.381 7 158189656.61707      -306.811 7        43.824    39286286.035 6 166233276.59706      -322.460 6        40.417
R06        45.000    23541741.826 5 125623273.81605      3748.385 5        35.238
R13        46.000    24373187.028 5 130151465.70805      1447.378 5        35.914
C39        47.000                                                                                                                                    39371465.768 6 205017561.15706       408.261 6        41.671                                                                    39371461.091 7 166593551.24507       331.642 7        43.065
C20        48.000                                                                                                                                    22565554.575 8 117504808.33808      1266.021 8        51.525                                                                    22565548.960 8  95482273.28608      1028.684 8        49.003
C06        49.000                                                                                                                                    39363087.099 6 204973937.25906       916.257 6        39.216    39363081.348 7 158498832.33907       708.419 7        42.648    39363080.456 6 166558092.16006       744.400 6        39.760
C16        50.000                                                                                                                                    39667682.343 6 206560046.35506       797.124 6        39.565    39667682.607 6 159725338.31706       616.384 6        41.652    39667680.132 6 167846955.26106       647.791 6        37.803
S48        51.000    77353197.931 6 406495135.36906      -425.596 6        37.331
C19        52.000                                                                                                                                    26225834.344 7 136564830.14507      2808.069 7        42.396                                                                    26225829.983 6 110970108.67106      2281.623 6        41.897
R04        53.000    20601128.449 8 110318135.54808     -3335.633 8        51.168                                                                    20601126.260 7  85803002.67007     -2594.362 7        45.952
C60        54.000                                                                                                                                    40704587.501 6 211959673.88206      -473.166 6        38.541                                                                    40704571.767 6 172234567.12506      -384.599 6        39.748
C30        55.000                                                                                                                                    23043748.217 8 119994840.43608     -2879.697 8        48.957                                                                    23043749.003 7  97505635.26307     -2339.979 7        47.718
R19        56.000    22007990.558 6 117727947.08306     -3955.537 6        37.599                                                                    22007989.951 6  91566219.32106     -3076.570 6        41.311
C02        57.000                                                                                                                                    40691770.794 5 211892776.80405      -439.282 5        33.485    40691763.994 6 163848929.86906      -339.592 6        39.859    40691767.844 6 172180241.26706      -356.890 6        36.095
I03        58.000   134521432.739 6 452105752.81606       997.715 6        40.794
C13        59.000                                                                                                                                    41025005.334 6 213628034.61806     -1144.298 6        36.560    41025007.755 6 165190789.09806      -884.847 6        38.123    41025005.486 6 173590307.17706      -929.931 6        36.461
E25        60.000    28619843.870 6 150398276.33806     -3193.001 6        36.507                                                                    28619846.192 6 112310398.01406     -2384.348 6        38.204    28619844.935 6 115240233.80706     -2446.512 6        38.532
> 2025 01 01 00 00 10.0000000  0 56
G28         1.000    24374471.919 6 128088719.06206      1961.832 6        40.555                                    24374468.195 4  99809370.46504      1528.688 4        24.617    24374468.752 6  99809376.46806      1528.706 6        39.444
G31         2.000    25119685.816 5 132004839.78105      2825.241 5        33.898                                    25119682.021 3 102860898.64213      2201.484 3        19.284
G14         3.000    24806122.979 6 130357100.66106     -2417.579 6        36.733                                    24806119.984 3 101576965.98103     -1883.827 3        18.418    24806121.041 6 101576967.96306     -1883.938 6        36.042
G10         4.000    25229970.676 6 132584445.17506     -3533.529 6        38.330                                    25229968.659 4 103312563.48704     -2753.411 4        29.507    25229968.011 5 103312562.48905     -2753.277 5        34.871
S21         5.000    38598513.858 6 202836452.69906      -417.236 6        41.797
R12         6.000    23996133.928 7 128183064.86707     -1080.523 7        42.637                                                                    23996135.790 6  99697955.49006      -840.243 6        40.215
G21         7.000    21162381.621 7 111209130.83907     -1654.402 7        44.924                                    21162376.415 6  86656470.51806     -1289.145 6        37.384
E04         8.000    24097047.673 7 126630862.19507       557.601 7        47.560                                                                    24097045.809 8  94562012.21408       416.359 8        50.151    24097045.534 8  97028839.28308       427.243 8        50.957
G04        10.000    24839224.399 6 130531006.38706      3428.675 6        36.922                                    24839223.134 3 101712472.35103      2671.708 3        20.238    24839222.463 6 101712467.35506      2671.757 6        38.018
E09        11.000    26435493.010 7 138919487.71307      2605.900 7        42.840                                                                    26435493.431 7 103738591.20707      1945.993 7        45.655    26435492.943 7 106444815.06607      1996.752 7        46.305
S27        12.000    39255686.802 5 206290026.09405      -393.415 5        35.624
S36        14.000    38366339.050 7 201616986.22407      -416.719 7        43.731
E02        15.000    27571392.293 6 144888677.11906     -2107.379 6        39.009                                                                    27571391.681 6 108196109.33906     -1573.739 6        40.994    27571391.176 6 111018612.04306     -1614.799 6        41.421
E36        16.000    25352233.912 7 133226915.32007      1663.226 7        44.322                                                                    25352234.766 7  99487647.79207      1241.992 7        47.517    25352234.362 8 102082972.57808      1274.352 8        48.377
S45        17.000    63568818.037 6 334057637.46506      -459.475 6        37.569
G03        18.000    21226633.419 7 111546765.18407      1747.430 7        46.879                                    21226631.919 8  86919575.69308      1361.634 8        48.125    21226632.459 7  86919584.69807      1361.579 7        44.464
R21        19.000    22263178.310 7 119134797.12207      3370.980 7        46.400                                                                    22263177.187 7  92660405.71307      2621.770 7        42.370
R20        20.000    19383543.945 6 103652567.17006       247.252 6        41.154                                                                    19383545.116 7  80618663.19007       192.297 7        46.998
R05        21.000    19339648.141 8 103381546.65108       522.581 8        51.919                                                                    19339647.308 7  80407875.33307       406.437 7        47.238
I06        22.000    38449800.864 7 150885506.48307      -205.002 7        42.491
S28        23.000    41044909.956 5 215692441.77405      -408.944 5        34.467
E10        24.000    24446054.041 7 128465007.69107     -1817.102 7        47.467                                                                    24446053.047 8  95931729.70208     -1356.964 8        49.982    24446053.013 8  98434286.93708     -1392.319 8        50.737
S23        25.000    38318620.845 7 201365682.02407      -414.050 7        44.823
E06        26.000    24797780.006 7 130313267.92507      1854.935 7        46.270                                                                    24797779.896 8  97311853.76508      1385.200 8        48.475    24797779.697 8  99850422.55208      1421.288 8        49.292
E30        27.000    28670567.166 6 150664850.18106        91.262 6        37.289                                                                    28670568.643 6 112509467.26206        68.236 6        41.585    28670568.181 7 115444494.61107        69.948 7        42.603
E12        28.000    26328880.619 6 138359347.83706     -2622.182 6        39.733                                                                    26328877.588 7 103320366.20407     -1958.250 7        42.916    26328877.799 7 106015667.75607     -2009.307 7        44.388
E19        30.000    25843375.178 6 135807865.78606     -2473.980 6        37.928                                                                    25843373.480 6 101414963.50606     -1847.283 6        40.102    25843373.407 6 104060568.59506     -1895.587 6        41.027
G32        31.000    22853086.645 7 120093800.45407     -2629.249 7        46.096                                    22853084.779 7  93579582.05507     -2048.763 7        44.391    22853085.273 7  93579587.04907     -2048.761 7        42.263
G02        32.000    20846986.253 8 109551697.92208      -179.633 8        50.389                                    20846979.574 7  85364956.86007      -139.975 7        44.027
G19        33.000    25546318.352 6 134246802.72106      3292.569 6        37.966                                    25546314.049 3 104607909.83203      2565.609 3        18.298
G17        34.000    23396126.421 7 122947524.12607      1921.697 7        44.078                                    23396121.814 6  95803275.45606      1497.428 6        39.390    23396122.314 6  95803275.45106      1497.433 6        39.712
E11        35.000    23408921.127 7 123014782.49307      -498.415 7        44.196                                                                    23408916.562 7  91861707.84207      -372.215 7        47.057    23408916.513 8  94258092.57208      -381.828 8        48.151
C32        36.000                                                                                                                                    22716262.923 8 118289572.85808     -2059.595 8        50.024                                                                    22716263.018 8  96119978.71108     -1673.516 8        50.360
C35        37.000                                                                                                                                    26063654.457 6 135720285.61106      2730.988 6        41.979                                                                    26063652.601 6 110283845.76506      2219.079 6        40.920
C41        38.000                                                                                                                                    27069682.947 6 140958948.25406     -3607.107 6        38.213                                                                    27069688.449 6 114540718.36106     -2930.968 6        40.055
C29        39.000                                                                                                                                    22031843.518 8 114725596.06908       350.401 8        50.586                                                                    22031840.901 8  93223939.52508       284.739 8        48.939
G08        40.000    23729802.629 6 124700997.80906     -4028.925 6        41.578                                    23729802.074 6  97169630.56106     -3139.424 6        36.896    23729803.395 6  97169637.57206     -3139.455 6        39.787
S44        42.000    40705039.320 6 213906626.75806      -477.719 6        37.543
C09        43.000                                                                                                                                    40321135.162 6 209962743.30606      1216.547 6        38.459    40321132.492 7 162356500.17907       940.703 7        43.289    40321130.129 6 170611906.61106       988.588 6        39.586
C05        44.000                                                                                                                                    39286670.316 6 204576035.97206      -397.186 6        38.084    39286665.685 7 158191191.89007      -307.101 7        43.708    39286667.281 6 166234889.92306      -322.490 6        40.253
R06        45.000    23538229.189 5 125604534.58405      3747.530 5        35.390
R13        46.000    24371835.138 6 130144236.73306      1444.174 6        36.310
C39        47.000                                                                                                                                    39371074.626 6 205015523.38106       407.184 6        41.819                                                                    39371069.790 7 166591895.39607       330.727 7        42.882
C20        48.000                                                                                                                                    22564339.928 8 117498484.39808      1263.739 8        51.541                                                                    22564334.548 8  95477134.56208      1026.963 8        49.050
C06        49.000                                                                                                                                    39362207.770 6 204969359.10606       915.364 6        39.399    39362202.043 7 158495292.23707       707.815 7        42.487    39362201.244 6 166554372.05006       743.755 6        39.679
C16        50.000                                                                                                                                    39666918.026 6 206556063.46906       796.202 6        39.745    39666917.570 6 159722258.50306       615.714 6        41.661    39666915.294 6 167843718.85806       646.938 6        37.819
S48        51.000    77353595.284 6 406497264.85706      -425.811 6        37.108
C19        52.000                                                                                                                                    26223137.545 6 136550792.68106      2807.188 6        41.495                                                                    26223134.256 6 110958702.07606      2281.221 6        41.738
R04        53.000    20604244.206 8 110334821.07508     -3338.285 8        50.983                                                                    20604242.221 7  85815980.30107     -2596.433 7        46.081
C60        54.000                                                                                                                                    40705041.926 6 211962040.48606      -473.181 6        38.625                                                                    40705026.223 6 172236490.20706      -384.621 6        39.829
C30        55.000                                                                                                                                    23046514.297 8 120009244.11808     -2881.569 8        49.054                                                                    23046515.043 7  97517339.43607     -2341.455 7        47.768
R19        56.000    22011689.178 6 117747730.59106     -3957.662 6        37.902                                                                    22011688.810 6  91581606.49106     -3078.151 6        41.216
C02        57.000                                                                                                                                    40692191.882 5 211894974.35405      -439.423 5        33.665    40692185.928 6 163850629.17306      -339.746 6        39.841    40692190.099 6 172182026.97106      -356.903 6        36.348
I03        58.000   134520161.396 6 452100764.83206       997.642 6        40.963
C13        59.000                                                                                                                                    41026104.011 6 213633756.85506     -1144.402 6        36.374    41026106.873 6 165195213.89606      -885.030 6        38.456    41026104.478 6 173594956.96406      -930.001 6        36.348
E25        60.000    28622881.857 6 150414242.24806     -3192.784 6        36.715                                                                    28622884.309 6 112322320.60206     -2384.490 6        37.966    28622883.334 6 115252467.44706     -2446.678 6        38.538
> 2025 01 01 00 00 15.0000000  0 56
G28         1.000    24372605.947 6 128078914.56906      1959.978 6        39.991                                    24372602.531 4  99801730.59704      1527.244 4        24.586    24372603.352 6  99801736.61706      1527.150 6        39.946
G31         2.000    25116998.452 5 131990714.08405      2824.946 5        33.677                                    25116994.169 3 102849891.61703      2201.258 3        20.119
G14         3.000    24808424.032 6 130369192.85006     -2419.564 6        37.221                                    24808420.947 3 101586388.46303     -1885.372 3        18.687    24808421.750 6 101586390.43006     -1885.153 6        36.960
G10         4.000    25233332.463 6 132602112.64206     -3533.364 6        38.288                                    25233330.599 4 103326330.34604     -2753.272 4        29.735    25233330.746 5 103326329.36705     -2753.291 5        34.752
S21         5.000    38598912.790 6 202838538.67806      -417.022 6        41.993
R12         6.000    23997147.766 7 128188476.91707     -1084.537 7        42.832                                                                    23997149.603 6  99702164.85906      -843.357 6        41.287
G21         7.000    21163956.835 7 111217407.65907     -1656.344 7        44.634                                    21163951.441 6  86662919.98806     -1290.658 6        37.164
E04         8.000    24096518.310 7 126628080.20907       555.340 7        47.825                                                                    24096516.482 8  94559934.75708       414.731 8        50.120    24096516.158 8  97026707.63308       425.461 8        51.066
G04        10.000    24835961.358 6 130513862.78206      3428.617 6        37.505                                    24835960.840 3 101699113.70603      2671.651 3        19.940    24835960.205 6 101699108.70306      2671.806 6        38.003
E09        11.000    26433014.235 7 138906460.02107      2605.076 7        43.331                                                                    26433014.291 7 103728862.74207      1945.331 7        45.595    26433013.977 7 106434832.82007      1996.144 7        46.466
S27        12.000    39256063.170 5 206291994.25305      -393.501 5        35.648
S36        14.000    38366735.227 7 201619070.26407      -416.890 7        43.759
E02        15.000    27573398.082 6 144899218.46606     -2109.187 6        39.051                                                                    27573397.728 6 108203981.12506     -1575.060 6        40.796    27573397.286 6 111026689.18106     -1616.141 6        41.454
E36        16.000    25350651.835 7 133218601.02607      1662.551 7        44.491                                                                    25350652.535 7  99481439.06907      1241.529 7        47.542    25350652.199 8 102076601.88708      1273.922 8        48.385
S45        17.000    63569209.488 6 334059934.44606      -459.464 6        37.293
G03        18.000    21224971.749 7 111538032.84007      1745.665 7        46.842                                    21224970.197 7  86912771.27407      1360.258 7        47.983    21224970.895 7  86912780.28107      1360.200 7        44.542
R21        19.000    22260029.301 7 119117944.83007      3369.963 7        46.831                                                                    22260028.315 7  92647298.36807      2621.049 7        42.639
R20        20.000    19383314.235 6 103651339.79706       243.786 6        41.263                                                                    19383315.635 7  80617708.56907       189.595 7        47.313
R05        21.000    19339161.330 8 103378943.79708       518.601 8        51.838                                                                    19339160.558 7  80405850.89307       403.377 7        47.450
I06        22.000    38450061.900 7 150886531.91807      -205.162 7        42.650
S28        23.000    41045298.106 5 215694487.33105      -409.112 5        34.367
E10        24.000    24447783.826 7 128474096.49307     -1818.414 7        47.513                                                                    24447782.615 8  95938516.79108     -1357.895 8        49.938    24447782.573 8  98441251.08208     -1393.348 8        50.834
S23        25.000    38319016.418 7 201367752.11307      -414.090 7        44.983
E06        26.000    24796016.069 7 130303997.52507      1853.212 7        46.568                                                                    24796015.808 8  97304931.06708      1383.899 8        48.453    24796015.599 8  99843319.26208      1419.998 8        49.361
E30        27.000    28670481.476 6 150664398.46106        89.288 6        37.100                                                                    28670482.902 6 112509129.84706        66.575 6        40.813    28670482.313 7 115444148.38707        68.492 7        42.298
E12        28.000    26331376.139 6 138372461.43306     -2623.279 6        39.931                                                                    26331372.941 7 103330158.81607     -1958.792 7        42.847    26331372.998 7 106025715.82707     -2009.871 7        44.378
E19        30.000    25845729.818 6 135820239.26006     -2475.587 6        37.868                                                                    25845727.919 6 101424203.44206     -1848.554 6        39.886    25845728.024 6 104070049.55606     -1896.767 6        41.111
G32        31.000    22855589.507 7 120106952.41307     -2631.600 7        45.872                                    22855587.483 7  93589830.33707     -2050.596 7        44.175    22855588.115 7  93589835.33807     -2050.547 7        42.061
G02        32.000    20847158.144 8 109552601.32708      -181.724 8        50.289                                    20847151.486 7  85365660.81207      -141.602 7        43.926
G19        33.000    25543186.026 6 134230342.05206      3291.601 6        36.582                                    25543181.740 3 104595083.41803      2564.885 3        18.418
G17        34.000    23394299.166 7 122937920.87407      1919.602 7        43.924                                    23394294.347 6  95795792.40706      1495.794 6        39.360    23394294.876 6  95795792.41206      1495.704 6        39.471
E11        35.000    23409396.012 7 123017278.38307      -499.789 7        44.355                                                                    23409391.530 7  91863571.66207      -373.279 7        46.999    23409391.482 8  94260005.00908      -382.997 8        48.123
C32        36.000                                                                                                                                    22718241.581 8 118299875.19208     -2061.393 8        49.956                                                                    22718241.477 8  96128350.19408     -1675.034 8        50.390
C35        37.000                                                                                                                                    26061032.204 7 135706632.37407      2730.425 7        42.034                                                                    26061030.475 6 110272751.40706      2218.620 6        41.433
C41        38.000                                                                                                                                    27073146.345 6 140976983.43306     -3606.961 6        38.345                                                                    27073151.777 6 114555373.42706     -2930.883 6        40.274
C29        39.000                                                                                                                                    22031508.047 8 114723850.07908       347.983 8        50.490                                                                    22031505.618 8  93222520.75208       282.796 8        48.956
G08        40.000    23733636.610 6 124721144.14306     -4029.569 6        41.533                                    23733635.945 6  97185328.99706     -3139.923 6        37.028    23733637.155 6  97185335.99906     -3139.887 6        40.200
S44        42.000    40705495.560 6 213909014.97106      -477.682 6        37.448
C09        43.000                                                                                                                                    40319967.278 6 209956662.16006      1215.926 6        38.535    40319964.361 7 162351797.86107       940.144 7        43.278    40319962.424 6 170606965.20006       987.918 6        39.498
C05        44.000                                                                                                                                    39287051.115 6 204578021.28906      -397.075 6        37.864    39287046.775 7 158192727.06807      -307.025 7        43.702    39287048.523 6 166236503.16306      -322.780 6        40.362
R06        45.000    23534720.649 5 125585800.38105      3746.178 5        35.471
R13        46.000    24370484.723 6 130137024.85606      1440.829 6        36.280
C39        47.000                                                                                                                                    39370684.244 6 205013490.29606       406.216 6        41.828                                                                    39370679.284 7 166590243.32907       330.059 7        43.035
C20        48.000                                                                                                                                    22563127.522 8 117492170.66008      1261.726 8        51.519                                                                    22563122.019 8  95472004.12808      1025.272 8        49.014
C06        49.000                                                                                                                                    39361328.958 6 204964784.83306       914.554 6        39.291    39361323.324 7 158491755.11407       707.101 7        42.328    39361322.950 6 166550655.04906       743.104 6        39.805
C16        50.000                                                                                                                                    39666154.103 6 206552084.58806       795.231 6        40.160    39666153.713 6 159719181.77706       615.055 6        41.690    39666151.331 6 167840485.67006       646.273 6        37.709
S48        51.000    77353989.730 6 406499394.11306      -425.758 6        37.089
C19        52.000                                                                                                                                    26220442.567 6 136536758.22606      2806.599 6        41.259                                                                    26220438.792 6 110947297.93906      2280.577 6        41.395
R04        53.000    20607362.542 8 110351518.88308     -3340.806 8        51.138                                                                    20607360.123 7  85828967.48807     -2598.494 7        45.834
C60        54.000                                                                                                                                    40705496.296 6 211964406.98806      -473.178 6        38.523                                                                    40705480.777 6 172238413.16206      -384.562 6        39.865
C30        55.000                                                                                                                                    23049282.305 8 120023656.58908     -2883.328 8        49.076                                                                    23049282.783 7  97529050.74507     -2342.963 7        47.805
R19        56.000    22015389.234 6 117767523.91806     -3959.796 6        37.656                                                                    22015388.613 6  91597001.28506     -3079.823 6        40.636
C02        57.000                                                                                                                                    40692615.398 5 211897171.91205      -439.721 5        33.748    40692607.789 6 163852328.46406      -339.901 6        39.991    40692611.974 6 172183812.66606      -357.232 6        36.314
I03        58.000   134518890.256 6 452095776.93306       997.614 6        41.032
C13        59.000                                                                                                                                    41027202.874 6 213639478.11606     -1143.937 6        36.628    41027205.236 6 165199637.94606      -884.779 6        38.183    41027203.139 6 173599605.95506      -929.678 6        36.185
E25        60.000    28625920.194 6 150430207.66506     -3193.028 6        36.662                                                                    28625922.132 6 112334242.80506     -2384.353 6        37.607    28625921.553 6 115264700.66106     -2446.578 6        38.592
> 2025 01 01 00 00 20.0000000  0 56
G28         1.000    24370742.178 6 128069119.19906      1958.203 6        39.673                                    24370738.566 4  99794097.85104      1525.872 4        24.857    24370739.300 6  99794103.85006      1525.941 6        40.095
G31         2.000    25114309.856 5 131976590.21205      2824.424 5        33.401                                    25114306.317 3 102838885.99503      2200.853 3        20.595
G14         3.000    24810726.529 6 130381294.45106     -2421.296 6        37.592                                    24810724.123 3 101595818.27003     -1886.728 3        18.836    24810724.367 6 101595820.26606     -1886.588 6        36.578
G10         4.000    25236694.253 6 132619780.54006     -3533.523 6        38.213                                    25236692.633 5 103340097.53905     -2753.389 5        30.053    25236693.227 5 103340096.52505     -2753.236 5        34.314
S21         5.000    38599307.978 7 202840624.79307      -417.264 7        42.119
R12         6.000    23998164.726 7 128193909.21307     -1088.450 7        42.737                                                                    23998166.424 6  99706389.98606      -846.543 6        41.645
G21         7.000    21165533.401 7 111225693.75907     -1657.968 7        44.852                                    21165528.207 6  86669376.68506     -1291.919 6        37.395
E04         8.000    24095991.049 7 126625309.85707       553.005 7        47.957                                                                    24095989.249 8  94557865.99208       412.943 8        50.192    24095988.961 8  97024584.89908       423.693 8        51.068
G04        10.000    24832699.414 6 130496720.20506      3428.387 6        37.928                                    24832698.626 3 101685755.87703      2671.490 3        20.524    24832698.092 6 101685750.85906      2671.653 6        37.501
E09        11.000    26430535.923 7 138893436.87807      2604.279 7        43.316                                                                    26430536.021 7 103719137.68107      1944.747 7        45.544    26430535.632 7 106424854.06307      1995.486 7        46.351
S27        12.000    39256436.890 5 206293962.51505      -393.351 5        35.733
S36        14.000    38367132.200 7 201621154.89107      -416.859 7        43.591
E02        15.000    27575405.846 6 144909768.81506     -2110.917 6        39.009                                                                    27575405.340 6 108211859.63606     -1576.325 6        40.870    27575405.003 6 111034773.20506     -1617.339 6        41.209
E36        16.000    25349070.487 7 133210289.96207      1661.973 7        44.519                                                                    25349071.031 7  99475232.75207      1241.117 7        47.588    25349070.645 8 102070233.66708      1273.451 8        48.434
S45        17.000    63569603.111 6 334060631.54516      -459.195 6        37.497
G03        18.000    21223311.826 7 111529309.78607      1743.762 7        47.246                                    21223310.255 8  86905974.09408      1358.776 8        48.139    21223310.699 7  86905983.09107      1358.842 7        44.191
