     3.04           OBSERVATION DATA    M                   RINEX VERSION / TYPE
ssrcrin-15.6.1x                         20250101 004500 UTC PGM / RUN BY / DATE 
(00000000023479385599111004) Septentrio proprietary         COMMENT             
rref                                                        MARKER NAME         
01                                                          MARKER NUMBER       
geodetic                                                    MARKER TYPE         
NFB                 CLIMERS@TUW                             OBSERVER / AGENCY   
3297213             SEPT ASTERX SB3 PROB4.14.4              REC # / TYPE / VERS 
Unknown             Unknown                                 ANT # / TYPE        
  4127831.7521  1207193.1874  4695247.6717                  APPROX POSITION XYZ 
        0.0000        0.0000        0.0000                  ANTENNA: DELTA H/E/N
G   23 X1  C1C L1C D1C S1C C1W S1W C2W L2W D2W S2W C2L L2L  SYS / # / OBS TYPES 
       D2L S2L C5Q L5Q D5Q S5Q C1L L1L D1L S1L              SYS / # / OBS TYPES 
E   21 X1  C1C L1C D1C S1C C6C L6C D6C S6C C5Q L5Q D5Q S5Q  SYS / # / OBS TYPES 
       C7Q L7Q D7Q S7Q C8Q L8Q D8Q S8Q                      SYS / # / OBS TYPES 
S    9 X1  C1C L1C D1C S1C C5I L5I D5I S5I                  SYS / # / OBS TYPES 
R   17 X1  C1C L1C D1C S1C C2P L2P D2P S2P C2C L2C D2C S2C  SYS / # / OBS TYPES 
       C3Q L3Q D3Q S3Q                                      SYS / # / OBS TYPES 
C   25 X1  C1P L1P D1P S1P C5P L5P D5P S5P C2I L2I D2I S2I  SYS / # / OBS TYPES 
       C7I L7I D7I S7I C6I L6I D6I S6I C7D L7D D7D S7D      SYS / # / OBS TYPES 
J   17 X1  C1C L1C D1C S1C C2L L2L D2L S2L C5Q L5Q D5Q S5Q  SYS / # / OBS TYPES 
       C1L L1L D1L S1L                                      SYS / # / OBS TYPES 
I    5 X1  C5A L5A D5A S5A                                  SYS / # / OBS TYPES 
SEPTENTRIO RECEIVERS OUTPUT ALIGNED CARRIER PHASES.         COMMENT             
NO FURTHER PHASE SHIFT APPLIED IN THE RINEX ENCODER.        COMMENT             
G L1C                                                       SYS / PHASE SHIFT   
G L2W                                                       SYS / PHASE SHIFT   
G L2L  0.00000                                              SYS / PHASE SHIFT   
G L5Q  0.00000                                              SYS / PHASE SHIFT   
G L1L  0.00000                                              SYS / PHASE SHIFT   
E L1C  0.00000                                              SYS / PHASE SHIFT   
E L6C  0.00000                                              SYS / PHASE SHIFT   
E L5Q  0.00000                                              SYS / PHASE SHIFT   
E L7Q  0.00000                                              SYS / PHASE SHIFT   
E L8Q  0.00000                                              SYS / PHASE SHIFT   
S L1C                                                       SYS / PHASE SHIFT   
S L5I                                                       SYS / PHASE SHIFT   
R L1C                                                       SYS / PHASE SHIFT   
R L2P  0.00000                                              SYS / PHASE SHIFT   
R L2C                                                       SYS / PHASE SHIFT   
R L3Q  0.00000                                              SYS / PHASE SHIFT   
C L1P  0.00000                                              SYS / PHASE SHIFT   
C L5P  0.00000                                              SYS / PHASE SHIFT   
C L2I                                                       SYS / PHASE SHIFT   
C L7I                                                       SYS / PHASE SHIFT   
C L6I                                                       SYS / PHASE SHIFT   
C L7D                                                       SYS / PHASE SHIFT   
J L1C                                                       SYS / PHASE SHIFT   
J L2L  0.00000                                              SYS / PHASE SHIFT   
J L5Q  0.00000                                              SYS / PHASE SHIFT   
J L1L  0.00000                                              SYS / PHASE SHIFT   
I L5A                                                       SYS / PHASE SHIFT   
  2025     1     1     0    45    0.0000000     GPS         TIME OF FIRST OBS   
 C1C    0.000 C2C    0.000 C2P    0.000                     GLONASS COD/PHS/BIS 
DBHZ                                                        SIGNAL STRENGTH UNIT
    18                                                      LEAP SECONDS        
 24 R01  1 R02 -4 R03  5 R04  6 R05  1 R06 -4 R07  5 R08  6 GLONASS SLOT / FRQ #
    R09 -2 R10 -7 R11  0 R12 -1 R13 -2 R14 -7 R15  0 R16 -1 GLONASS SLOT / FRQ #
    R17  4 R18 -3 R19  3 R20  2 R21  4 R22 -3 R23  3 R24  2 GLONASS SLOT / FRQ #
                                                            END OF HEADER       
> 2025 01 01 00 45  0.0000000  0 56
G28         1.000    23380512.632 6 122865434.47806       643.065 6        41.859                                    23380508.833 4  95739280.35104       501.090 4        28.199    23380509.352 7  95739286.35807       501.191 7        42.044
G31         2.000    23493178.310 7 123457490.61907      2211.221 7        43.600                                    23493174.240 6  96200627.76506      1723.029 6        37.913    23493174.428 6  96200626.75306      1723.105 6        38.949
G09         3.000    25251788.923 5 132699055.62505      3424.210 5        35.500                                    25251787.937 4 103401863.88004      2668.207 4        27.413    25251788.028 5 103401864.89805      2668.100 5        33.605
E34         4.000    28488518.744 6 149708172.83006      2360.446 6        36.529                                                                    28488519.609 6 111795068.55106      1762.638 6        38.895    28488519.040 6 114711461.34906      1808.796 6        39.952
S21         5.000    38515051.390 6 202397811.83306      -426.241 6        41.924
R12         6.000    24744658.676 6 132181547.06506     -2967.193 6        41.478                                                                    24744660.620 6 102807885.03006     -2307.835 6        36.348
G21         7.000    21955114.196 7 115374965.55607     -2592.578 7        45.430                                    21955109.361 5  89902574.52105     -2020.191 5        34.314
E04         8.000    23833003.295 7 125243301.74207      -690.662 7        47.295                                                                    23833001.227 8  93525847.48308      -515.711 8        50.358    23833001.150 8  95965644.11208      -529.257 8        51.317
R14         9.000    24402058.538 6 130076709.76406      2344.365 6        41.745                                                                    24402058.745 6 101170764.39906      1823.390 6        37.807
G04        10.000    22861377.991 7 120137383.48407      3028.408 7        43.572                                    22861375.362 5  93613551.25705      2359.798 5        30.174    22861375.847 6  93613546.25706      2359.924 6        41.561
E09        11.000    24957616.675 7 131153202.91107      1937.128 7        46.337                                                                    24957616.256 8  97939095.35208      1446.551 8        48.430    24957615.933 8 100494027.71808      1484.311 8        49.087
S27        12.000    39161237.160 5 205793664.57405      -407.090 5        35.410
S36        14.000    38282646.669 7 201177174.05507      -426.002 7        43.609
E02        15.000    28554170.371 5 150053198.88805     -2816.653 5        34.981                                                                    28554170.123 6 112052729.62206     -2103.367 6        37.077    28554169.153 6 114975840.16906     -2158.277 6        37.289
E36        16.000    24308876.376 7 127744036.93007      1197.118 7        46.806                                                                    24308876.698 8  95393291.52108       894.025 8        49.599    24308876.567 8  97881806.90908       917.244 8        50.454
S45        17.000    63482713.176 6 333604453.17206      -467.975 6        37.108
G03        18.000    20296391.668 8 106658314.57908       699.976 8        49.961                                    20296389.663 8  83110394.44808       545.436 8        51.037    20296390.372 7  83110403.44707       545.419 7        44.748
R21        19.000    20482875.987 8 109608046.90708      2363.024 8        50.613                                                                    20482874.767 7  85250713.05407      1838.021 7        46.377
R20        20.000    19461873.996 6 104071430.06506     -1785.710 6        40.539                                                                    19461874.890 7  80944444.88907     -1388.857 7        47.146
R05        21.000    19299828.502 8 103168689.30608     -1497.138 8        51.762                                                                    19299827.559 7  80242319.88807     -1164.385 7        47.148
I06        22.000    38294889.293 6 150277601.08106      -216.947 6        41.819
S28        23.000    40957402.217 5 215232584.55505      -418.427 5        34.038
E10        24.000    25253766.235 7 132709559.30107     -2503.706 7        44.906                                                                    25253765.347 8  99101361.16008     -1869.658 8        48.320    25253765.467 8 101686604.57408     -1918.426 8        48.614
S23        25.000    38233440.433 7 200918051.83307      -422.635 7        44.615
E06        26.000    23804163.793 8 125091783.47108       817.246 8        48.215                                                                    23804163.531 8  93412694.33708       610.267 8        50.226    23804163.370 8  95849545.80808       626.193 8        50.683
E30        27.000    28650543.827 6 150559627.22406     -1171.251 6        36.896                                                                    28650545.531 6 112430891.46406      -874.820 6        39.670    28650544.742 6 115363869.01706      -897.648 6        40.703
E12        28.000    27489139.451 5 144456545.18205     -3064.231 5        35.414                                                                    27489137.056 6 107873466.61606     -2288.202 6        40.522    27489137.139 6 110687544.88306     -2347.901 6        41.392
E19        30.000    26999971.248 5 141885815.28205     -3140.578 5        34.733                                                                    26999970.293 6 105953690.71606     -2345.404 6        37.043    26999969.721 6 108717697.52406     -2406.547 6        37.263
G32        31.000    24164257.316 6 126984043.96006     -3558.911 6        41.373                                    24164255.431 5  98948601.70605     -2773.176 5        35.581    24164256.108 6  98948606.71806     -2773.302 6        37.939
G02        32.000    20941716.034 8 110049504.15008     -1381.872 8        49.277                                    20941709.344 6  85752857.32306     -1076.783 6        41.838
G19        33.000    23738610.600 6 124747267.03806      2473.256 6        40.596                                    23738604.586 4  97205682.71404      1927.215 4        26.635
G17        34.000    22448701.477 7 117968777.05107       535.135 7        45.159                                    22448696.653 7  91923733.44107       416.987 7        42.457    22448696.848 6  91923733.44406       417.038 6        41.433
E11        35.000    23571544.850 7 123869373.90607     -1325.588 7        44.533                                                                    23571540.566 7  92499876.18407      -989.895 7        46.953    23571540.272 7  94912908.85307     -1015.754 7        47.455
C32        36.000                                                                                                                                    23698673.639 7 123405239.54607     -2830.340 7        47.375                                                                    23698673.634 7 100276876.27207     -2299.901 7        47.995
C35        37.000                                                                                                                                    24482036.809 7 127484405.41907      2145.572 7        44.221                                                                    24482035.649 7 103591520.99807      1743.447 7        44.588
I09        38.000    37197351.199 7 145970393.43307      -349.606 7        42.610
C29        39.000                                                                                                                                    21916795.235 8 114126508.88908     -1086.157 8        50.641                                                                    21916792.708 8  92737131.85608      -882.566 8        48.978
G08        40.000    25527799.876 3                     -4057.965 3        22.609                                                                                                    25527799.387 3                     -3160.536 3        21.095
S44        42.000    40654730.137 6 213642231.91806      -494.787 6        38.901
C09        43.000                                                                                                                                    39484729.045 6 205607362.25106       846.888 6        40.462    39484725.732 7 158988644.56807       654.923 7        44.927    39484723.663 6 167072803.77006       688.136 6        40.920
C05        44.000                                                                                                                                    39197838.126 6 204113464.22806      -417.675 6        37.815    39197832.973 7 157833502.10207      -323.062 7        43.318    39197835.257 6 165859012.46406      -339.488 6        40.515
R06        45.000    21543801.815 6 114961898.69806      2881.450 6        41.108
R13        46.000    23862528.073 6 127424579.84906      -674.078 6        37.422
C39        47.000                                                                                                                                    39001385.880 7 203090459.46007      -135.162 7        42.919                                                                    39001381.734 7 165027623.03007      -109.795 7        43.308
C20        48.000                                                                                                                                    21909454.509 8 114088325.86508       112.170 8        51.785                                                                    21909448.633 8  92706102.08008        91.145 8        49.183
C06        49.000                                                                                                                                    38712225.210 6 201584735.14906       432.264 6        40.300    38712219.579 7 155878087.15107       334.279 7        43.560    38712219.022 6 163804088.50706       351.190 6        41.189
C16        50.000                                                                                                                                    39080747.769 6 203503725.69006       306.388 6        41.859    39080747.552 7 157361998.06407       236.823 7        43.084    39080745.267 6 165363444.95206       249.005 6        39.057
S48        51.000    77268947.920 6 406051251.84406      -429.875 6        37.176
C19        52.000                                                                                                                                    24590224.012 7 128047794.81307      2312.397 7        46.103                                                                    24590219.412 7 104049322.83807      1879.007 7        46.096
R04        53.000    22243605.738 7 119113521.19307     -4229.335 7        46.622                                                                    22243603.714 6  92643856.98706     -3289.480 6        41.497
C60        54.000                                                                                                                                    40654729.992 6 211700049.22906      -490.386 6        41.056                                                                    40654714.124 6 172023600.69006      -398.488 6        40.303
C30        55.000                                                                                                                                    24454627.707 7 127341653.49307     -3657.596 7        45.436                                                                    24454628.530 7 103475521.50607     -2972.113 7        44.623
R19        56.000    23923264.873 4 127973352.43604     -4731.401 4        28.645                                                                    23923263.533 4  99534865.10504     -3680.761 4        27.760
C02        57.000                                                                                                                                    40626025.623 5 211550428.28505      -463.152 5        33.796    40626019.736 6 163584204.13906      -357.970 6        40.088    40626022.888 6 171902054.92106      -376.266 6        36.106
I03        58.000   133547436.818 6 448283583.02906       967.307 6        40.589
C13        59.000                                                                                                                                    41303903.960 5 215080326.38205     -1099.431 5        35.133    41303907.074 6 166313791.98806      -850.058 6        39.384    41303904.123 5 174770412.19105      -893.272 5        35.771
> 2025 01 01 00 45  5.0000000  0 56
G28         1.000    23379901.867 7 122862226.17307       640.166 7        42.140                                    23379898.282 4  95736780.37404       498.826 4        28.436    23379899.022 6  95736786.37806       498.860 6        41.900
G31         2.000    23491075.105 7 123446439.17007      2209.356 7        43.247                                    23491071.191 6  96192016.24806      1721.576 6        38.087    23491071.404 6  96192015.25406      1721.632 6        39.129
G09         3.000    25248530.853 5 132681935.06205      3424.169 5        35.014                                    25248530.141 4 103388523.18804      2668.184 4        27.018    25248530.519 5 103388524.20205      2668.261 5        33.449
E34         4.000    28486272.729 6 149696369.25006      2360.815 6        36.919                                                                    28486273.387 6 111786254.17906      1762.949 6        38.910    28486272.935 6 114702417.05006      1809.002 6        39.685
S21         5.000    38515457.199 6 202399942.20906      -425.940 6        41.940
R12         6.000    24747437.861 6 132196389.50006     -2969.789 6        40.572                                                                    24747439.961 6 102819429.15906     -2309.820 6        36.189
G21         7.000    21957581.853 7 115387931.91307     -2594.041 7        45.273                                    21957576.784 5  89912678.17705     -2021.333 5        34.481
E04         8.000    23833661.325 7 125246760.07607      -692.676 7        47.426                                                                    23833659.340 8  93528430.01308      -517.257 8        50.278    23833659.250 8  95968294.00308      -530.728 8        51.350
R14         9.000    24399860.306 6 130064993.60906      2342.058 6        41.061                                                                    24399860.608 6 101161651.85306      1821.589 6        37.936
G04        10.000    22858497.285 7 120122244.16407      3027.290 7        43.264                                    22858494.528 5  93601754.39205      2358.923 5        30.294    22858495.049 6  93601749.39506      2358.837 6        41.630
E09        11.000    24955774.168 7 131143520.94607      1935.620 7        46.294                                                                    24955773.877 8  97931865.30808      1445.482 8        48.273    24955773.426 8 100486609.06908      1483.182 8        49.114
S27        12.000    39161620.369 5 205795699.22205      -406.528 5        35.581
S36        14.000    38283050.944 7 201179303.88407      -425.918 7        43.543
E02        15.000    28556850.890 5 150067284.03805     -2817.576 5        35.233                                                                    28556850.355 6 112063247.73406     -2103.853 6        36.711    28556849.605 6 114986632.66106     -2158.721 6        37.539
E36        16.000    24307738.010 7 127738053.69607      1196.168 7        46.684                                                                    24307738.143 8  95388823.53308       893.267 8        49.308    24307738.008 8  97877222.35708       916.561 8        50.460
S45        17.000    63483115.975 6 333606791.77806      -467.834 6        37.047
G03        18.000    20295726.464 8 106654819.36608       698.137 8        49.732                                    20295724.554 8  83107670.90108       544.004 8        51.231    20295725.376 7  83107679.90107       544.033 7        45.034
R21        19.000    20480669.213 8 109596238.18708      2360.381 8        50.960                                                                    20480668.181 7  85241528.49907      1835.838 7        46.196
R20        20.000    19463545.096 6 104080368.01806     -1789.518 6        40.350                                                                    19463546.618 7  80951396.63507     -1391.796 7        47.295
R05        21.000    19301230.520 8 103176182.81608     -1500.341 8        51.710                                                                    19301229.303 7  80248148.18307     -1166.969 7        47.016
I06        22.000    38295165.484 6 150278685.22206      -216.830 6        41.707
S28        23.000    40957795.518 5 215234676.63705      -418.376 5        33.784
E10        24.000    25256149.212 7 132722080.43207     -2504.821 7        44.933                                                                    25256148.036 8  99110711.36208     -1870.471 8        48.082    25256148.134 8 101696198.69208     -1919.259 8        48.634
S23        25.000    38233842.463 7 200920164.64307      -422.504 7        44.575
E06        26.000    23803387.276 8 125087702.21108       815.240 8        48.113                                                                    23803386.898 8  93409646.64308       608.835 8        50.015    23803386.747 8  95846418.61008       624.697 8        50.704
E30        27.000    28651659.106 6 150565489.59606     -1173.731 6        37.338                                                                    28651661.050 6 112435269.24206      -876.264 6        39.541    28651660.328 6 115368360.99606      -899.236 6        40.362
E12        28.000    27492055.133 5 144471868.23405     -3064.980 5        35.548                                                                    27492053.052 6 107884909.14106     -2288.587 6        40.219    27492053.210 6 110699285.91806     -2348.424 6        41.387
E19        30.000    27002959.643 5 141901520.13505     -3141.461 5        33.964                                                                    27002958.895 6 105965418.34006     -2345.806 6        37.006    27002958.193 6 108729731.08706     -2406.997 6        37.074
G32        31.000    24167644.300 6 127001840.83006     -3559.925 6        41.223                                    24167642.023 5  98962469.39605     -2773.965 5        35.919    24167642.880 6  98962474.39806     -2774.003 6        38.327
G02        32.000    20943031.876 8 110056418.85608     -1384.038 8        49.038                                    20943025.181 7  85758245.40507     -1078.471 7        42.027
G19        33.000    23736258.180 6 124734906.34906      2471.050 6        40.467                                    23736252.334 4  97196051.01704      1925.491 4        26.659
G17        34.000    22448193.576 7 117966108.32707       532.229 7        44.713                                    22448188.833 7  91921653.92007       414.724 7        42.700    22448188.970 6  91921653.92106       414.714 6        41.647
E11        35.000    23572806.970 7 123876005.59207     -1327.145 7        44.572                                                                    23572802.508 7  92504828.41607      -991.076 7        46.870    23572802.260 7  94917990.27207     -1016.925 7        47.460
C32        36.000                                                                                                                                    23701391.661 7 123419393.42107     -2831.255 7        47.564                                                                    23701391.700 8 100288377.46108     -2300.544 8        48.043
C35        37.000                                                                                                                                    24479977.658 7 127473681.44407      2144.025 7        44.405                                                                    24479976.141 7 103582806.89907      1742.238 7        44.724
I09        38.000    37197796.891 7 145972142.02807      -349.771 7        42.576
C29        39.000                                                                                                                                    21917839.406 8 114131945.96408     -1088.708 8        50.868                                                                    21917836.861 8  92741549.94408      -884.674 8        48.944
G08        40.000    25531659.767 3                     -4055.831 3        22.686                                                                                                    25531659.511 3                     -3160.069 3        21.595
S44        42.000    40655198.624 6 213644705.90006      -494.747 6        38.838
C09        43.000                                                                                                                                    39483916.063 6 205603129.63806       846.131 6        40.203    39483913.224 7 158985371.63907       654.495 7        44.775    39483910.833 6 167069364.42506       687.692 6        41.166
C05        44.000                                                                                                                                    39198238.931 6 204115553.47606      -417.777 6        37.592    39198234.251 7 157835117.64307      -323.169 7        43.109    39198236.348 6 165860710.17606      -339.575 6        40.391
R06        45.000    21541103.871 6 114947496.48006      2879.400 6        41.001
R13        46.000    23863160.758 6 127427959.76206      -678.233 6        37.637
C39        47.000                                                                                                                                    39001515.982 7 203091137.71607      -136.083 7        42.832                                                                    39001512.091 7 165028174.18407      -110.579 7        43.596
C20        48.000                                                                                                                                    21909347.823 8 114087770.09108       110.127 8        51.838                                                                    21909341.903 8  92705650.47808        89.522 8        49.309
C06        49.000                                                                                                                                    38711811.033 6 201582575.98006       431.441 6        40.434    38711804.741 7 155876417.54707       333.637 7        43.355    38711804.576 6 163802334.00506       350.645 6        41.049
C16        50.000                                                                                                                                    39080454.190 6 203502196.06406       305.525 6        41.762    39080453.977 7 157360815.24507       236.244 7        43.009    39080451.590 6 165362202.01706       248.226 6        39.132
S48        51.000    77269354.060 6 406053400.94906      -429.856 6        36.858
C19        52.000                                                                                                                                    24588003.812 7 128036235.63307      2311.359 7        45.973                                                                    24587999.588 7 104039930.06007      1878.208 7        46.132
R04        53.000    22247555.270 7 119134669.85607     -4230.088 7        47.457                                                                    22247553.292 6  92660305.95506     -3290.136 6        41.952
C60        54.000                                                                                                                                    40655200.979 6 211702500.73706      -490.329 6        40.930                                                                    40655184.878 6 172025592.74506      -398.354 6        40.291
C30        55.000                                                                                                                                    24458140.093 7 127359943.50207     -3658.481 7        45.150                                                                    24458140.789 7 103490383.64107     -2972.798 7        44.563
R19        56.000    23927686.833 4 127997010.52504     -4732.029 4        29.128                                                                    23927686.687 4  99553265.76804     -3680.663 4        27.102
C02        57.000                                                                                                                                    40626470.531 5 211552742.70905      -462.795 5        33.838    40626464.116 6 163585993.81306      -358.078 6        39.904    40626467.434 5 171903935.59605      -375.952 5        35.833
I03        58.000   133546204.410 6 448278745.77706       967.430 6        40.389
C13        59.000                                                                                                                                    41304959.856 5 215085822.73605     -1099.492 5        35.205    41304961.913 6 166318042.11606      -849.960 6        39.255    41304959.501 5 174774878.43705      -893.350 5        35.310
> 2025 01 01 00 45 10.0000000  0 56
G28         1.000    23379294.196 7 122859032.43607       637.217 7        42.315                                    23379290.499 4  95734291.75304       496.534 4        28.464    23379290.406 6  95734297.75206       496.621 6        41.425
G31         2.000    23488974.197 7 123435397.12107      2207.445 7        42.669                                    23488969.908 6  96183412.05506      1720.088 6        37.773    23488970.139 6  96183411.05306      1720.017 6        39.165
G09         3.000    25245272.610 5 132664814.72905      3424.193 5        35.395                                    25245272.233 4 103375182.69504      2668.192 4        26.766    25245272.482 5 103375183.72705      2667.856 5        33.731
E34         4.000    28484026.255 6 149684564.61806      2360.701 6        36.378                                                                    28484026.902 6 111777439.05306      1762.912 6        38.709    28484026.533 6 114693371.94406      1809.156 6        39.748
S21         5.000    38515863.580 7 202402071.98607      -426.061 7        42.136
R12         6.000    24750219.909 6 132211245.33006     -2972.446 6        40.381                                                                    24750221.634 6 102830983.64206     -2312.009 6        36.136
G21         7.000    21960050.589 7 115400905.86407     -2595.577 7        44.907                                    21960045.679 5  89922787.74805     -2022.528 5        34.443
E04         8.000    23834321.419 7 125250229.22007      -695.016 7        47.359                                                                    23834319.558 8  93531020.60508      -518.983 8        50.201    23834319.359 8  95970952.18208      -532.535 8        51.454
R14         9.000    24397663.690 6 130053288.68506      2339.787 6        41.125                                                                    24397665.292 6 101152548.01606      1819.899 6        37.452
G04        10.000    22855617.669 7 120107110.89707      3026.085 7        42.688                                    22855614.736 5  93589962.24705      2357.982 5        30.151    22855615.273 7  93589957.27007      2357.885 7        42.161
E09        11.000    24953933.325 7 131133846.36607      1934.176 7        46.341                                                                    24953932.914 8  97924640.79508      1444.338 8        48.249    24953932.464 8 100479196.08708      1482.009 8        49.262
S27        12.000    39162013.134 5 205797733.45805      -406.715 5        35.562
S36        14.000    38283457.678 7 201181433.50507      -425.937 7        43.746
E02        15.000    28559531.413 5 150081372.86405     -2818.396 5        34.586                                                                    28559531.070 6 112073768.60506     -2104.379 6        36.276    28559530.899 6 114997428.00706     -2159.533 6        37.270
E36        16.000    24306600.517 7 127732075.72207      1195.053 7        46.439                                                                    24306600.608 8  95384359.46408       892.318 8        49.421    24306600.387 8  97872641.83508       915.632 8        50.481
S45        17.000    63483515.313 6 333609130.02306      -467.756 6        37.187
G03        18.000    20295062.960 8 106651333.85108       696.129 8        49.494                                    20295061.283 8  83104954.91908       542.437 8        51.223    20295061.991 7  83104963.91607       542.501 7        45.220
R21        19.000    20478465.231 8 109584442.84708      2357.687 8        51.019                                                                    20478463.495 7  85232354.34407      1833.732 7        46.340
R20        20.000    19465221.159 6 104089324.93406     -1793.292 6        40.758                                                                    19465221.098 7  80958363.12107     -1394.846 7        46.822
R05        21.000    19302635.544 8 103183692.80808     -1503.592 8        52.203                                                                    19302634.479 7  80253989.28807     -1169.474 7        47.290
I06        22.000    38295441.804 6 150279769.13906      -216.839 6        41.866
S28        23.000    40958192.938 5 215236768.34005      -418.010 5        33.916
E10        24.000    25258532.901 7 132734607.31007     -2506.054 7        45.130                                                                    25258531.937 8  99120065.84008     -1871.382 8        48.049    25258531.864 8 101705797.19808     -1920.188 8        48.709
S23        25.000    38234244.221 7 200922277.01907      -422.425 7        44.646
E06        26.000    23802612.656 8 125083631.09808       813.161 8        48.269                                                                    23802612.204 8  93406606.53708       607.208 8        50.008    23802612.046 8  95843299.19308       623.051 8        50.728
E30        27.000    28652777.003 6 150571362.69106     -1175.675 6        37.361                                                                    28652778.663 6 112439655.03506      -878.112 6        39.171    28652778.018 6 115372861.19106      -900.891 6        40.462
E12        28.000    27494972.163 5 144487194.42805     -3065.656 5        35.290                                                                    27494969.470 6 107896354.02306     -2289.294 6        40.191    27494969.622 6 110711029.34506     -2348.813 6        41.392
E19        30.000    27005948.861 5 141917228.61105     -3142.090 5        33.928                                                                    27005947.983 6 105977148.71706     -2346.322 6        37.013    27005947.374 6 108741767.47406     -2407.736 6        36.960
G32        31.000    24171031.934 6 127019642.97106     -3561.021 6        41.032                                    24171029.773 5  98976341.18805     -2774.823 5        35.967    24171030.665 6  98976346.19206     -2774.868 6        38.925
G02        32.000    20944350.040 8 110063344.73008     -1386.346 8        49.083                                    20944343.125 7  85763642.19007     -1080.272 7        42.017
G19        33.000    23733907.471 6 124722556.36506      2468.859 6        40.579                                    23733902.107 4  97186427.65404      1923.787 4        26.647
G17        34.000    22447688.269 7 117963453.86407       529.385 7        44.649                                    22447683.714 7  91919585.51107       412.506 7        42.669    22447683.772 6  91919585.51106       412.599 6        41.788
E11        35.000    23574070.397 7 123882644.97007     -1328.739 7        44.603                                                                    23574065.925 7  92509786.39607      -992.284 7        46.629    23574065.694 7  94923077.58807     -1018.112 7        47.565
C32        36.000                                                                                                                                    23704110.708 7 123433552.03007     -2832.263 7        47.724                                                                    23704110.749 7 100299882.48807     -2301.366 7        47.833
C35        37.000                                                                                                                                    24477919.899 7 127462964.98007      2142.515 7        44.527                                                                    24477918.144 7 103574098.88107      1741.064 7        44.506
I09        38.000    37198242.447 7 145973891.26507      -349.964 7        42.684
C29        39.000                                                                                                                                    21918886.318 8 114137396.29408     -1091.477 8        50.908                                                                    21918883.527 8  92745978.76908      -886.845 8        48.860
G08        40.000    25535519.569 3                     -4055.489 3        22.190                                                                                                    25535520.028 3                     -3159.859 3        19.881
S44        42.000    40655673.757 6 213647179.60606      -494.738 6        38.793
C09        43.000                                                                                                                                    39483103.833 6 205598900.42206       845.474 6        40.267    39483100.809 7 158982101.35007       653.701 7        44.926    39483098.819 6 167065927.83506       687.167 6        40.989
C05        44.000                                                                                                                                    39198640.644 6 204117642.48806      -417.819 6        37.781    39198635.356 7 157836732.98507      -323.092 7        42.919    39198637.578 6 165862407.63906      -339.447 6        40.334
R06        45.000    21538405.386 6 114933104.53006      2877.437 6        40.722
R13        46.000    23863798.368 6 127431359.84806      -682.005 6        37.138
C39        47.000                                                                                                                                    39001646.788 7 203091820.54207      -136.988 7        42.720                                                                    39001643.208 7 165028729.03507      -111.435 7        43.435
C20        48.000                                                                                                                                    21909243.030 8 114087224.40908       108.104 8        51.715                                                                    21909237.164 8  92705207.06708        87.877 8        49.148
C06        49.000                                                                                                                                    38711397.533 6 201580421.10206       430.360 6        40.596    38711391.049 7 155874751.25707       332.902 7        43.151    38711390.689 6 163800582.98506       349.803 6        40.911
C16        50.000                                                                                                                                    39080161.225 6 203500670.72406       304.615 6        41.852    39080161.013 7 157359635.76907       235.455 7        42.828    39080158.621 6 165360962.56306       247.372 6        38.889
S48        51.000    77269752.271 6 406055549.59706      -429.827 6        37.028
C19        52.000                                                                                                                                    24585784.663 7 128024681.73707      2310.138 7        45.476                                                                    24585780.814 7 104030541.57207      1877.282 7        46.036
R04        53.000    22251505.427 7 119155822.45107     -4230.981 7        47.170                                                                    22251503.082 7  92676757.97107     -3290.727 7        42.275
C60        54.000                                                                                                                                    40655671.582 6 211704951.94706      -490.366 6        40.996                                                                    40655655.602 6 172027584.54906      -398.422 6        40.136
C30        55.000                                                                                                                                    24461653.395 7 127378238.18307     -3659.385 7        44.751                                                                    24461654.046 7 103505249.55307     -2973.571 7        44.466
R19        56.000    23932107.379 4 128020672.37104     -4732.736 4        29.772                                                                    23932106.957 4  99571669.44604     -3681.299 4        26.563
C02        57.000                                                                                                                                    40626915.028 5 211555056.92515      -463.014 5        33.868    40626908.694 6 163587783.30006      -357.935 6        39.850    40626912.030 5 171905816.07905      -376.214 5        35.595
I03        58.000   133544971.745 6 448273908.49506       967.343 6        40.551
C13        59.000                                                                                                                                    41306014.931 5 215091318.41105     -1098.886 5        35.600    41306016.999 6 166322291.73206      -850.011 6        39.036    41306014.919 5 174779344.12405      -893.047 5        35.595
> 2025 01 01 00 45 15.0000000  0 56
G28         1.000    23378689.515 6 122855853.70506       634.193 6        41.478                                    23378685.471 4  95731814.82204       494.174 4        28.531    23378686.241 7  95731820.82607       494.266 7        42.057
G31         2.000    23486874.525 6 123424364.93106      2205.419 6        41.926                                    23486870.464 6  96174815.54006      1718.511 6        37.357    23486870.715 6  96174814.54706      1718.332 6        39.189
G09         3.000    25242014.579 5 132647695.10205      3423.882 5        35.324                                    25242014.508 4 103361842.72404      2667.962 4        26.862    25242014.892 5 103361843.73305      2667.891 5        33.707
E34         4.000    28481779.393 6 149672759.27506      2361.011 6        36.321                                                                    28481780.254 6 111768623.35706      1763.203 6        38.426    28481779.865 6 114684326.29506      1809.335 6        39.483
S21         5.000    38516266.607 6 202404201.90206      -426.051 6        41.883
R12         6.000    24753002.532 6 132226114.90406     -2975.176 6        40.513                                                                    24753004.513 5 102842548.75805     -2314.165 5        35.457
G21         7.000    21962521.107 7 115413887.82307     -2597.215 7        44.743                                    21962516.058 5  89932903.55805     -2023.805 5        34.357
E04         8.000    23834983.673 7 125253709.60007      -697.230 7        47.468                                                                    23834981.806 8  93533619.59108      -520.643 8        50.305    23834981.641 8  95973618.96608      -534.213 8        51.403
R14         9.000    24395470.727 6 130041595.69606      2337.275 6        41.547                                                                    24395471.732 6 101143453.48406      1817.944 6        37.773
G04        10.000    22852739.568 7 120091984.17107      3024.621 7        43.293                                    22852736.205 5  93578175.19805      2356.846 5        30.136    22852736.440 6  93578170.19406      2356.891 6        41.859
E09        11.000    24952093.711 7 131124179.62707      1932.594 7        46.460                                                                    24952093.420 8  97917422.12408      1443.165 8        48.405    24952092.991 8 100471789.11408      1480.699 8        49.202
S27        12.000    39162402.209 5 205799767.59305      -406.975 5        35.571
S36        14.000    38283862.150 7 201183562.66107      -425.881 7        43.503
E02        15.000    28562213.373 5 150095465.81305     -2818.921 5        34.852                                                                    28562213.467 6 112084292.58806     -2105.140 6        36.590    28562212.605 6 115008226.51106     -2160.236 6        37.006
E36        16.000    24305463.965 7 127726103.44907      1193.846 7        46.457                                                                    24305464.171 8  95379899.64708       891.473 8        49.482    24305463.933 8  97868065.67608       914.738 8        50.472
S45        17.000    63483913.364 6 333611468.40606      -467.681 6        37.172
G03        18.000    20294401.775 8 106647858.46808       694.049 8        49.055                                    20294399.943 8  83102246.83108       540.819 8        51.193    20294400.452 7  83102255.83507       540.718 7        45.246
R21        19.000    20476263.712 8 109572661.45808      2354.789 8        51.353                                                                    20476262.138 7  85223191.03907      1831.547 7        46.069
R20        20.000    19466898.570 6 104098301.19406     -1797.174 6        40.508                                                                    19466900.141 7  80965344.64307     -1397.902 7        47.053
R05        21.000    19304043.697 8 103191219.45108     -1507.069 8        51.943                                                                    19304042.217 7  80259843.34007     -1172.163 7        46.958
I06        22.000    38295717.899 6 150280853.17406      -216.890 6        41.976
S28        23.000    40958594.226 5 215238860.07605      -418.398 5        33.826
E10        24.000    25260917.586 7 132747140.33407     -2507.177 7        45.144                                                                    25260917.000 8  99129424.91908     -1872.266 8        48.163    25260916.823 8 101715400.43008     -1921.141 8        48.701
S23        25.000    38234646.931 7 200924389.57407      -422.615 7        44.552
E06        26.000    23801839.735 8 125079570.58608       810.980 8        48.178                                                                    23801839.521 8  93403574.33808       605.599 8        50.108    23801839.332 8  95840187.89408       621.411 8        50.776
E30        27.000    28653896.628 6 150577246.91906     -1178.061 6        36.994                                                                    28653898.475 6 112444049.10606      -879.725 6        39.946    28653897.884 6 115377369.88906      -902.749 6        40.603
E12        28.000    27497889.347 6 144502524.17006     -3066.207 6        36.023                                                                    27497886.616 6 107907801.57106     -2289.898 6        40.210    27497887.016 6 110722775.53406     -2349.450 6        41.611
E19        30.000    27008939.094 5 141932941.22605     -3143.042 5        33.886                                                                    27008937.972 6 105988882.13806     -2347.085 6        36.828    27008937.281 6 108753806.99606     -2408.402 6        36.620
G32        31.000    24174420.167 6 127037450.83106     -3562.202 6        41.173                                    24174418.731 6  98990217.43506     -2775.739 6        36.117    24174419.554 6  98990222.42806     -2775.735 6        39.315
G02        32.000    20945670.042 8 110070282.23508     -1388.676 8        48.652                                    20945663.296 7  85769048.03707     -1082.083 7        42.006
G19        33.000    23731559.832 6 124710217.54506      2466.586 6        39.724                                    23731554.116 4  97176812.99804      1922.010 4        26.347
G17        34.000    22447186.004 7 117960814.19607       526.419 7        44.609                                    22447181.412 7  91917528.62607       410.197 7        42.679    22447181.601 6  91917528.62606       410.126 6        41.838
E11        35.000    23575335.489 7 123889292.49407     -1330.326 7        44.557                                                                    23575330.887 7  92514750.44707      -993.377 7        46.832    23575330.697 7  94928171.14807     -1019.383 7        47.522
C32        36.000                                                                                                                                    23706830.582 7 123447715.80907     -2833.354 7        47.880                                                                    23706830.792 7 100311391.72007     -2302.328 7        47.984
C35        37.000                                                                                                                                    24475863.496 7 127452256.45307      2140.846 7        44.688                                                                    24475861.669 7 103565397.34407      1739.588 7        44.682
I09        38.000    37198688.538 7 145975641.49607      -350.263 7        42.726
C29        39.000                                                                                                                                    21919935.426 8 114142860.29808     -1094.203 8        50.782                                                                    21919932.869 8  92750418.72108      -889.206 8        48.864
G08        40.000    25539373.817 3                     -4054.357 3        22.971                                                                                                    25539374.920 3                     -3159.997 3        21.429
S44        42.000    40656145.387 6 213649653.44606      -494.878 6        39.003
C09        43.000                                                                                                                                    39482292.530 6 205594675.03506       844.600 6        40.503    39482289.544 7 158978834.02707       653.092 7        45.052    39482287.418 6 167062494.37906       686.241 6        40.992
C05        44.000                                                                                                                                    39199041.060 6 204119731.66306      -417.834 6        37.667    39199036.492 7 157838348.48607      -323.241 7        43.062    39199038.794 6 165864105.27406      -339.533 6        40.391
R06        45.000    21535710.256 6 114918723.09406      2875.261 6        40.243
R13        46.000    23864437.483 6 127434780.67206      -686.472 6        36.117
C39        47.000                                                                                                                                    39001778.702 7 203092508.36807      -138.127 7        42.828                                                                    39001775.263 7 165029287.93607      -112.171 7        43.486
C20        48.000                                                                                                                                    21909140.154 8 114086689.29108       105.960 8        51.785                                                                    21909134.374 8  92704772.24208        86.072 8        49.167
C06        49.000                                                                                                                                    38710984.441 6 201578270.95106       429.503 6        40.753    38710978.263 7 155873088.61707       332.103 7        43.009    38710977.884 6 163798835.80906       348.990 6        41.077
C16        50.000                                                                                                                                    39079869.156 6 203499150.11206       303.656 6        41.909    39079868.951 7 157358459.93907       234.699 7        42.914    39079866.500 6 165359726.92806       246.749 6        38.988
S48        51.000    77270155.616 6 406057698.19606      -430.022 6        37.198
C19        52.000                                                                                                                                    24583567.058 7 128013133.57607      2309.026 7        45.193                                                                    24583563.055 7 104021157.74907      1876.282 7        46.118
R04        53.000    22255455.363 7 119176979.26607     -4231.833 7        45.866                                                                    22255454.242 7  92693213.26907     -3291.451 7        42.163
C60        54.000                                                                                                                                    40656142.345 6 211707403.29806      -490.347 6        40.877                                                                    40656126.499 6 172029576.47206      -398.463 6        40.148
C30        55.000                                                                                                                                    24465167.773 7 127396537.97807     -3660.479 7        44.281                                                                    24465168.306 7 103520119.64007     -2974.603 7        44.479
R19        56.000    23936533.847 4 128044338.38104     -4733.405 4        28.645                                                                    23936532.374 4  99590076.34104     -3681.141 4        27.425
C02        57.000                                                                                                                                    40627359.883 5 211557371.29905      -463.043 5        33.701    40627353.044 6 163589572.92206      -357.906 6        39.973    40627356.406 5 171907696.70505      -376.271 5        35.876
I03        58.000   133543739.264 6 448269071.45506       967.305 6        40.613
C13        59.000                                                                                                                                    41307070.374 5 215096814.04805     -1099.144 5        35.510    41307072.234 6 166326541.27606      -849.771 6        38.634    41307070.410 5 174783809.78005      -892.863 5        35.305
> 2025 01 01 00 45 20.0000000  0 56
G28         1.000    23378086.920 6 122852690.11106       631.138 6        41.182                                    23378083.407 4  95729349.67804       491.798 4        28.673    23378084.414 7  95729355.69307       491.864 7        42.093
G31         2.000    23484776.956 6 123413342.75106      2203.379 6        41.025                                    23484772.996 6  96166226.82906      1716.918 6        36.998    23484773.724 6  96166225.83106      1716.960 6        39.670
G09         3.000    25238756.819 5 132630576.28005      3423.636 5        35.914                                    25238756.927 4 103348503.39604      2667.770 4        27.102    25238757.209 5 103348504.41405      2667.775 5        33.737
E34         4.000    28479532.968 6 149660953.46006      2361.227 6        36.461                                                                    28479533.597 6 111759807.34206      1763.150 6        38.489    28479533.460 6 114675280.28506      1809.143 6        39.778
S21         5.000    38516673.811 6 202406331.91606      -425.985 6        41.886
R12         6.000    24755788.917 6 132240998.57006     -2978.302 6        39.622                                                                    24755791.710 5 102854124.87405     -2316.157 5        35.910
G21         7.000    21964992.888 7 115426877.94107     -2598.904 7        44.661                                    21964987.944 5  89943025.72505     -2025.121 5        34.348
E04         8.000    23835648.162 7 125257201.32207      -699.568 7        47.136                                                                    23835646.257 8  93536227.04208      -522.309 8        50.315    23835646.125 8  95976294.44008      -535.962 8        51.372
R14         9.000    24393279.432 6 130029914.68206      2335.001 6        41.428                                                                    24393279.807 6 101134368.28206      1815.996 6        37.803
G04        10.000    22849862.081 7 120076864.08507      3023.264 7        43.280                                    22849858.881 5  93566393.31505      2355.789 5        30.257    22849859.322 6  93566388.30706      2355.829 6        41.845
E09        11.000    24950255.757 7 131114520.85007      1930.859 7        46.267                                                                    24950255.362 8  97910209.40508      1441.912 8        48.438    24950254.988 8 100464388.22608      1479.556 8        49.186
S27        12.000    39162784.730 5 205801801.86905      -406.828 5        35.395
S36        14.000    38284266.469 7 201185691.69707      -425.806 7        43.494
E02        15.000    28564895.264 5 150109563.00705     -2819.943 5        34.476                                                                    28564896.157 6 112094819.69306     -2105.741 6        36.760    28564895.200 6 115019028.23306     -2160.693 6        37.085
E36        16.000    24304328.656 7 127720136.98407      1192.672 7        46.255                                                                    24304328.720 8  95375444.16708       890.662 8        49.529    24304328.548 8  97863493.96608       913.867 8        50.456
S45        17.000    63484316.762 6 333613806.99406      -467.570 6        37.365
G03        18.000    20293742.332 8 106644393.35908       691.913 8        49.172                                    20293740.567 8  83099546.74408       539.154 8        51.221    20293740.978 7  83099555.74507       539.171 7        45.308
R21        19.000    20474064.942 8 109560894.10308      2352.033 8        50.898                                                                    20474062.921 7  85214038.64507      1829.428 7        45.786
R20        20.000    19468580.794 6 104107296.93506     -1801.053 6        40.353                                                                    19468581.837 7  80972341.33807     -1400.862 7        47.013
