     3.04           OBSERVATION DATA    M                   RINEX VERSION / TYPE
ssrcrin-15.6.1x                         20250101 024500 UTC PGM / RUN BY / DATE 
(00000000023479385599111004) Septentrio proprietary         COMMENT             
rref                                                        MARKER NAME         
01                                                          MARKER NUMBER       
geodetic                                                    MARKER TYPE         
NFB                 CLIMERS@TUW                             OBSERVER / AGENCY   
3297213             SEPT ASTERX SB3 PROB4.14.4              REC # / TYPE / VERS 
Unknown             Unknown                                 ANT # / TYPE        
  4127831.6449  1207193.3461  4695247.3200                  APPROX POSITION XYZ 
        0.0000        0.0000        0.0000                  ANTENNA: DELTA H/E/N
G   23 X1  C1C L1C D1C S1C C1W S1W C2W L2W D2W S2W C2L L2L  SYS / # / OBS TYPES 
       D2L S2L C5Q L5Q D5Q S5Q C1L L1L D1L S1L              SYS / # / OBS TYPES 
E   21 X1  C1C L1C D1C S1C C6C L6C D6C S6C C5Q L5Q D5Q S5Q  SYS / # / OBS TYPES 
       C7Q L7Q D7Q S7Q C8Q L8Q D8Q S8Q                      SYS / # / OBS TYPES 
S    9 X1  C1C L1C D1C S1C C5I L5I D5I S5I                  SYS / # / OBS TYPES 
R   17 X1  C1C L1C D1C S1C C2P L2P D2P S2P C2C L2C D2C S2C  SYS / # / OBS TYPES 
       C3Q L3Q D3Q S3Q                                      SYS / # / OBS TYPES 
C   25 X1  C1P L1P D1P S1P C5P L5P D5P S5P C2I L2I D2I S2I  SYS / # / OBS TYPES 
       C7I L7I D7I S7I C6I L6I D6I S6I C7D L7D D7D S7D      SYS / # / OBS TYPES 
J   17 X1  C1C L1C D1C S1C C2L L2L D2L S2L C5Q L5Q D5Q S5Q  SYS / # / OBS TYPES 
       C1L L1L D1L S1L                                      SYS / # / OBS TYPES 
I    5 X1  C5A L5A D5A S5A                                  SYS / # / OBS TYPES 
SEPTENTRIO RECEIVERS OUTPUT ALIGNED CARRIER PHASES.         COMMENT             
NO FURTHER PHASE SHIFT APPLIED IN THE RINEX ENCODER.        COMMENT             
G L1C                                                       SYS / PHASE SHIFT   
G L2W                                                       SYS / PHASE SHIFT   
G L2L  0.00000                                              SYS / PHASE SHIFT   
G L5Q  0.00000                                              SYS / PHASE SHIFT   
G L1L  0.00000                                              SYS / PHASE SHIFT   
E L1C  0.00000                                              SYS / PHASE SHIFT   
E L6C  0.00000                                              SYS / PHASE SHIFT   
E L5Q  0.00000                                              SYS / PHASE SHIFT   
E L7Q  0.00000                                              SYS / PHASE SHIFT   
E L8Q  0.00000                                              SYS / PHASE SHIFT   
S L1C                                                       SYS / PHASE SHIFT   
S L5I                                                       SYS / PHASE SHIFT   
R L1C                                                       SYS / PHASE SHIFT   
R L2P  0.00000                                              SYS / PHASE SHIFT   
R L2C                                                       SYS / PHASE SHIFT   
R L3Q  0.00000                                              SYS / PHASE SHIFT   
C L1P  0.00000                                              SYS / PHASE SHIFT   
C L5P  0.00000                                              SYS / PHASE SHIFT   
C L2I                                                       SYS / PHASE SHIFT   
C L7I                                                       SYS / PHASE SHIFT   
C L6I                                                       SYS / PHASE SHIFT   
C L7D                                                       SYS / PHASE SHIFT   
J L1C                                                       SYS / PHASE SHIFT   
J L2L  0.00000                                              SYS / PHASE SHIFT   
J L5Q  0.00000                                              SYS / PHASE SHIFT   
J L1L  0.00000                                              SYS / PHASE SHIFT   
I L5A                                                       SYS / PHASE SHIFT   
  2025     1     1     2    45    0.0000000     GPS         TIME OF FIRST OBS   
 C1C    0.000 C2C    0.000 C2P    0.000                     GLONASS COD/PHS/BIS 
DBHZ                                                        SIGNAL STRENGTH UNIT
    18                                                      LEAP SECONDS        
 24 R01  1 R02 -4 R03  5 R04  6 R05  1 R06 -4 R07  5 R08  6 GLONASS SLOT / FRQ #
    R09 -2 R10 -7 R11  0 R12 -1 R13 -2 R14 -7 R15  0 R16 -1 GLONASS SLOT / FRQ #
    R17  4 R18 -3 R19  3 R20  2 R21  4 R22 -3 R23  3 R24  2 GLONASS SLOT / FRQ #
                                                            END OF HEADER       
> 2025 01 01 02 45  0.0000000  0 54
G28         1.000    24929600.342 6 131005928.33306     -3428.495 6        37.437                                    24929598.386 3 102082517.67703     -2671.543 3        20.238    24929598.063 6 102082523.66706     -2671.451 6        37.308
G31         2.000    22769419.200 7 119654122.79807     -2312.716 7        44.460                                    22769414.378 6  93236967.43906     -1802.118 6        39.670    22769414.432 6  93236966.44306     -1802.107 6        40.038
G09         3.000    20849250.387 8 109563592.48308      1634.301 8        48.824                                    20849248.033 8  85374238.33208      1273.480 8        50.421    20849248.323 7  85374239.33607      1273.490 7        44.217
E34         4.000    24953316.231 7 131130574.98107      1509.126 7        45.547                                                                    24953316.402 7  97922190.99907      1126.882 7        47.727    24953316.241 8 100476682.18908      1156.344 8        48.818
S21         5.000    38474359.513 7 202183946.44607      -377.516 7        43.147
E05         6.000    23642493.954 7 124242182.27307      1826.010 7        45.293                                                                    23642494.266 7  92778280.81707      1363.514 7        47.418    23642493.788 8  95198576.06808      1399.167 8        48.701
E04         8.000    25899092.770 6 136100674.39406     -2782.930 6        41.514                                                                    25899091.077 7 101633625.16407     -2078.183 7        45.609    25899090.854 7 104284929.08407     -2132.292 7        46.253
R14         9.000    24028105.462 7 128083305.59907     -2894.421 7        42.806                                                                    24028108.022 6  99620332.70106     -2251.333 6        40.734
G04        10.000    20092417.113 8 105586410.31608      -176.514 8        49.450                                    20092413.752 7  82275134.62507      -137.543 7        42.883    20092413.650 8  82275129.62708      -137.581 8        49.457
E09        11.000    23480170.213 8 123389177.49108      -676.000 8        48.497                                                                    23480169.402 8  92141286.49708      -504.813 8        50.478    23480168.980 8  94544971.41108      -518.018 8        51.344
S27        12.000    39103614.928 6 205490887.59506      -372.747 6        36.197
G06        13.000    22128763.095 7 116287466.05107      1959.010 7        45.424                                    22128762.054 7  90613614.71007      1526.501 7        44.590    22128762.784 7  90613625.71507      1526.465 7        43.439
S36        14.000    38241797.363 7 200962501.47807      -377.464 7        44.558
E21        15.000    28834496.425 5 151526304.38705      -278.054 5        32.425                                                                    28834498.225 6 113152799.29906      -207.582 6        37.353    28834497.442 6 116104606.21606      -212.770 6        37.743
E36        16.000    23634408.665 8 124199682.27908     -1350.043 8        48.292                                                                    23634408.861 8  92746532.74008     -1008.140 8        50.171    23634408.578 8  95166002.28808     -1034.405 8        51.020
S45        17.000    63434963.625 6 333354096.89606      -417.108 6        37.652
G03        18.000    20702128.551 8 108790477.95708     -2106.498 8        48.084                                    20702126.930 8  84771820.26508     -1641.425 8        49.811    20702127.387 7  84771829.26807     -1641.470 7        44.871
R21        19.000    20438320.602 8 109369617.55008     -3387.369 8        51.193                                                                    20438319.396 7  85065266.50307     -2634.611 7        45.750
R20        20.000    24123269.567 3                     -5059.518 3        22.267                                                                    24123265.473 4 100331719.44504     -3935.221 4        25.564
R05        21.000    22795457.819 7 121854827.66607     -3796.108 7        43.731                                                                    22795458.083 6  94775981.80106     -2952.517 6        41.783
I06        22.000    38092311.450 7 149482640.11407      -210.331 7        42.946
S28        23.000    40907564.230 5 214970685.92305      -372.085 5        34.571
S23        25.000    38187394.163 7 200676107.19907      -373.283 7        44.652
E06        26.000    24070087.780 7 126489226.50007     -1862.580 7        46.952                                                                    24070087.241 8  94456240.31008     -1390.911 8        49.268    24070087.230 8  96920314.61808     -1427.192 8        50.688
R15        27.000    22321059.412 7 119276989.61207       276.758 7        46.722                                                                    22321059.847 7  92771006.06607       215.306 7        43.065
G26        28.000    24953038.544 6 131129099.05106      1638.128 6        37.047                                    24953036.978 4 102178519.51704      1276.509 4        28.142    24953037.034 5 102178520.51105      1276.431 5        34.867
C22        30.000                                                                                                                                    25083562.312 7 130616706.68307      2282.004 7        43.818                                                                    25083556.784 7 106136757.88407      1854.233 7        43.623
I01        31.000   335222935.349 7  12345991.62707     -2639.028 7        42.197
G02        32.000    24202191.939 7 127183403.78307     -3836.600 7        42.292                                    24202186.485 4  99103943.90204     -2989.556 4        27.569
G19        33.000    22745752.445 7 119529762.80707     -2069.679 7        43.947                                    22745747.013 5  93140094.28705     -1612.737 5        30.332
G17        34.000    23872035.783 7 125448436.90507     -3030.852 7        42.461                                    23872032.349 5  97752036.27505     -2361.702 5        35.552    23872032.090 6  97752036.28106     -2361.863 6        37.077
E11        35.000    26293403.836 6 138172826.61106     -3338.703 6        38.402                                                                    26293400.071 6 103181022.45106     -2493.231 6        41.259    26293399.829 7 105872694.12407     -2558.310 7        42.301
G11        36.000    25430209.060 6 133636650.50406      3210.020 6        38.580                                    25430206.581 3 104132447.91303      2501.307 3        19.672    25430206.291 5 104132447.94905      2501.134 5        35.090
C35        37.000                                                                                                                                    23174628.354 8 120676387.82408     -1406.527 8        48.148                                                                    23174627.189 7  98059449.16207     -1142.894 7        47.643
I09        38.000    37426294.339 7 146868815.20807      -529.119 7        42.741
C29        39.000                                                                                                                                    25025063.957 7 130312064.47907     -3707.184 7        42.745                                                                    25025062.496 7 105889217.93007     -3012.321 7        43.336
R22        40.000    20408828.362 8 108943745.76208      1166.264 8        51.096                                                                    20408826.042 7  84734039.85407       907.090 7        47.383
S44        42.000    40716645.891 6 213967623.88306      -455.297 6        37.240
C09        43.000                                                                                                                                    38500726.777 7 200483407.98607      -280.604 7        43.016    38500722.444 7 155026479.78107      -216.946 7        46.316    38500720.403 7 162909172.55007      -227.945 7        42.523
C05        44.000                                                                                                                                    39172880.208 6 203983497.55306      -400.638 6        39.036    39172874.701 7 157733002.93307      -309.769 7        43.007    39172876.788 6 165753403.31206      -325.475 6        40.019
R06        45.000    19472199.664 7 103907445.18707      -728.475 7        42.087
C44        46.000                                                                                                                                    24558145.972 7 127880747.26407      1213.193 7        43.204                                                                    24558144.904 7 103913586.22707       985.771 7        43.839
C39        47.000                                                                                                                                    39438762.813 6 205367997.47506     -1241.373 6        41.275                                                                    39438758.647 7 166878309.41107     -1008.701 7        42.119
C20        48.000                                                                                                                                    22903210.337 8 119263073.46008     -2136.312 8        50.430                                                                    22903204.761 8  96911008.26508     -1735.908 8        49.575
C06        49.000                                                                                                                                    38401782.674 6 199968184.97306      -785.421 6        40.830    38401777.182 7 154628068.99707      -607.310 7        44.784    38401776.835 6 162490509.87006      -638.267 6        41.621
C16        50.000                                                                                                                                    38924702.188 7 202691155.79807      -869.615 7        42.296    38924701.512 7 156733668.23307      -672.441 7        42.768    38924699.051 6 164703165.98606      -706.664 6        39.823
S48        51.000    77221239.616 6 405801493.83406      -370.126 6        37.667
C19        52.000                                                                                                                                    22105336.139 8 115108348.28808       351.586 8        51.149                                                                    22105331.203 8  93534965.57208       285.676 8        49.901
C60        54.000                                                                                                                                    40716651.000 6 212022483.06306      -451.140 6        39.952                                                                    40716635.427 6 172285603.43006      -366.611 6        39.895
R16        55.000    23064682.692 7 123207400.70607      3214.703 7        45.344                                                                    23064684.207 7  95827995.52607      2500.370 7        42.743
C37        56.000                                                                                                                                    24901770.772 7 129670070.52807       551.296 7        44.262                                                                    24901774.399 7 105367572.03007       447.949 7        44.941
C02        57.000                                                                                                                                    40663779.031 5 211747013.30205      -444.308 5        34.243    40663773.211 6 163736215.04806      -343.622 6        39.718    40663776.551 6 172061795.45506      -360.952 6        36.257
I03        58.000   131197907.151 6 439063518.82306       952.589 6        40.150
R07        59.000    21104254.286 8 112972746.15908      2107.601 8        49.891                                                                    21104252.943 7  87867692.53307      1639.200 7        46.760
> 2025 01 01 02 45  5.0000000  0 54
G28         1.000    24932863.508 6 131023074.60906     -3429.984 6        37.501                                    24932861.168 3 102095878.36903     -2672.713 3        19.642    24932861.302 6 102095884.37006     -2672.868 6        36.609
G31         2.000    22771621.119 7 119665693.55707     -2315.624 7        44.749                                    22771616.178 6  93245983.62106     -1804.383 6        39.589    22771616.600 6  93245982.63406     -1804.359 6        39.613
G09         3.000    20847696.545 8 109555425.64508      1632.350 8        49.132                                    20847693.947 8  85367874.56608      1271.962 8        50.367    20847694.404 7  85367875.56507      1271.938 7        44.355
E34         4.000    24951881.022 7 131123033.06307      1507.657 7        45.664                                                                    24951881.236 7  97916559.05007      1125.821 7        47.707    24951881.107 8 100470903.32308      1155.200 8        48.836
S21         5.000    38474717.350 7 202185833.62507      -377.330 7        43.048
E05         6.000    23640757.335 7 124233055.16107      1824.897 7        45.189                                                                    23640757.444 7  92771465.12107      1362.730 7        47.577    23640757.049 8  95191582.57708      1398.207 8        48.779
E04         8.000    25901741.368 7 136114590.16107     -2783.462 7        42.146                                                                    25901739.301 7 101644016.80807     -2078.479 7        45.631    25901738.994 7 104295591.82407     -2132.717 7        46.249
R14         9.000    24030821.826 7 128097785.77007     -2897.650 7        42.993                                                                    24030823.409 6  99631594.97006     -2253.801 6        39.222
G04        10.000    20092586.223 8 105587298.93308      -179.017 8        49.572                                    20092582.837 7  82275827.05607      -139.492 7        42.828    20092582.633 8  82275822.05708      -139.441 8        49.411
E09        11.000    23480814.075 8 123392561.59008      -677.664 8        48.633                                                                    23480813.344 8  92143813.58608      -506.028 8        50.530    23480813.032 8  94547564.42508      -519.234 8        51.424
S27        12.000    39103967.578 5 205492749.58905      -372.219 5        35.952
G06        13.000    22126900.527 7 116277676.49007      1956.804 7        45.211                                    22126899.172 7  90605986.48607      1524.783 7        44.533    22126899.932 7  90605997.48907      1524.753 7        43.238
S36        14.000    38242158.487 7 200964388.02107      -377.323 7        44.603
E21        15.000    28834761.747 5 151527699.32605      -280.383 5        31.540                                                                    28834764.007 6 113153840.71706      -208.730 6        36.155    28834763.000 6 116105674.86006      -214.339 6        36.484
E36        16.000    23635694.027 8 124206437.50208     -1352.128 8        48.452                                                                    23635694.337 8  92751577.22608     -1009.625 8        50.265    23635694.030 8  95171178.37208     -1036.049 8        51.121
S45        17.000    63435318.099 6 333356181.96406      -416.997 6        37.679
G03        18.000    20704133.914 8 108801014.72108     -2108.158 8        48.436                                    20704132.010 8  84780030.73108     -1642.720 8        49.701    20704132.408 7  84780039.73407     -1642.858 7        44.770
R21        19.000    20441487.574 8 109386562.60208     -3390.761 8        51.648                                                                    20441486.331 7  85078445.97207     -2637.256 7        46.017
R20        20.000    24127998.732 3                     -5058.984 3        22.800                                                                    24127999.356 4 100351396.51514     -3935.033 4        26.683
R05        21.000    22799009.341 7 121873808.70507     -3796.254 7        44.086                                                                    22799009.041 7  94790744.83207     -2952.711 7        42.205
I06        22.000    38092579.586 7 149483691.81507      -210.248 7        42.787
S28        23.000    40907916.415 5 214972546.13505      -371.950 5        34.629
S23        25.000    38187746.505 7 200677973.09707      -373.151 7        44.494
E06        26.000    24071860.647 7 126498542.54307     -1863.855 7        47.112                                                                    24071860.132 8  94463197.09408     -1391.794 8        49.316    24071860.038 8  96927452.88608     -1428.100 8        50.750
R15        27.000    22320802.468 7 119275616.11507       272.512 7        47.314                                                                    22320802.338 7  92769937.79907       211.955 7        42.999
G26        28.000    24951480.217 6 131120912.65406      1636.446 6        37.006                                    24951479.185 4 102172140.50804      1275.158 4        27.964    24951479.373 5 102172141.48205      1275.193 5        34.400
C22        30.000                                                                                                                                    25081371.378 7 130605297.81907      2281.527 7        43.699                                                                    25081365.792 7 106127487.26307      1853.875 7        43.700
I01        31.000   335226297.744 7  12359186.99807     -2639.179 7        42.044
G02        32.000    24205842.631 6 127202588.47206     -3837.282 6        41.526                                    24205837.260 4  99118893.00704     -2990.094 4        27.198
G19        33.000    22747723.477 7 119540117.86807     -2072.360 7        43.799                                    22747717.554 5  93148163.16905     -1614.822 5        30.174
G17        34.000    23874920.363 6 125463593.77906     -3031.929 6        41.518                                    23874916.599 5  97763846.82205     -2362.536 5        35.314    23874916.442 6  97763846.81606     -2362.716 6        37.905
E11        35.000    26296580.641 6 138189522.06206     -3339.653 6        38.366                                                                    26296577.092 6 103193489.83206     -2493.824 6        41.299    26296576.846 7 105885486.73607     -2558.860 7        42.106
G11        36.000    25427154.579 6 133620601.19806      3209.793 6        38.279                                    25427152.369 3 104119942.00003      2501.121 3        20.452    25427152.884 5 104119942.02805      2500.795 5        35.776
C35        37.000                                                                                                                                    23175980.376 7 120683426.50007     -1409.054 7        47.871                                                                    23175978.954 7  98065168.66107     -1145.039 7        47.662
I09        38.000    37426968.609 7 146871460.65507      -529.230 7        42.745
C29        39.000                                                                                                                                    25028623.692 7 130330600.82507     -3707.393 7        43.268                                                                    25028622.463 7 105904280.24707     -3012.729 7        43.543
R22        40.000    20407737.383 8 108937924.68608      1162.071 8        51.363                                                                    20407735.435 7  84729512.35207       903.914 7        47.323
S44        42.000    40717082.388 6 213969900.09106      -455.313 6        37.433
C09        43.000                                                                                                                                    38500996.296 7 200484812.25307      -281.223 7        42.741    38500992.013 7 155027565.64707      -217.404 7        46.219    38500990.145 7 162910313.64607      -228.484 7        42.379
C05        44.000                                                                                                                                    39173264.691 6 203985500.29806      -400.455 6        38.619    39173259.198 7 157734551.58007      -309.744 7        42.874    39173261.268 6 165755030.71206      -325.550 6        40.048
R06        45.000    19472883.674 7 103911093.49707      -730.814 7        42.252
C44        46.000                                                                                                                                    24556982.467 7 127874687.07507      1210.802 7        43.132                                                                    24556981.046 7 103908661.83007       983.787 7        43.824
C39        47.000                                                                                                                                    39439954.997 6 205374205.25206     -1241.685 6        41.120                                                                    39439950.693 7 166883353.74807     -1009.112 7        42.030
C20        48.000                                                                                                                                    22905262.104 8 119273757.10208     -2137.213 8        50.194                                                                    22905256.391 8  96919689.60908     -1736.711 8        49.579
C06        49.000                                                                                                                                    38402537.235 6 199972113.30606      -785.982 6        40.698    38402531.760 7 154631106.64207      -607.708 7        44.567    38402531.207 6 162493701.97206      -638.738 6        41.547
C16        50.000                                                                                                                                    38925537.121 7 202695505.42607      -870.233 7        42.209    38925536.843 7 156737031.65007      -672.965 7        43.026    38925534.438 6 164706700.42306      -707.220 6        39.763
S48        51.000    77221592.985 6 405803343.99406      -369.964 6        37.917
C19        52.000                                                                                                                                    22104999.308 8 115106593.62508       350.211 8        51.020                                                                    22104994.255 8  93533539.77208       284.569 8        49.954
C60        54.000                                                                                                                                    40717083.638 6 212024738.58206      -451.116 6        39.694                                                                    40717068.691 6 172287436.22206      -366.547 6        40.005
R16        55.000    23061674.533 7 123191331.06707      3213.097 7        45.147                                                                    23061675.539 7  95815496.90807      2499.167 7        42.542
C37        56.000                                                                                                                                    24901242.762 7 129667320.21807       548.905 7        43.890                                                                    24901246.271 7 105365337.19107       445.845 7        44.951
C02        57.000                                                                                                                                    40664205.038 5 211749234.55205      -444.092 5        33.737    40664199.799 6 163737932.65606      -343.550 6        39.973    40664203.171 6 172063600.41806      -361.264 6        36.480
I03        58.000   131196692.940 6 439058755.52506       952.663 6        40.155
R07        59.000    21102286.035 8 112962212.08408      2105.994 8        49.824                                                                    21102284.694 7  87859499.37307      1637.944 7        46.231
> 2025 01 01 02 45 10.0000000  0 54
G28         1.000    24936128.279 6 131040229.28206     -3431.742 6        36.885                                    24936125.529 3 102109245.60803     -2674.079 3        19.373    24936125.719 6 102109251.60706     -2674.145 6        37.429
G31         2.000    22773825.743 7 119677279.66307     -2318.747 7        44.363                                    22773820.845 6  93255011.75406     -1806.816 6        39.754    22773821.271 6  93255010.76506     -1806.769 6        38.940
G09         3.000    20846144.258 8 109547269.49208      1630.185 8        48.686                                    20846141.883 8  85361519.12008      1270.275 8        50.604    20846142.212 7  85361520.12107      1270.264 7        44.423
E34         4.000    24950447.459 7 131115498.99607      1506.014 7        45.208                                                                    24950447.544 7  97910932.95907      1124.664 7        47.622    24950447.418 8 100465130.46708      1153.930 8        48.798
S21         5.000    38475075.612 7 202187720.45607      -377.236 7        43.120
E05         6.000    23639021.404 7 124223933.90607      1823.727 7        44.551                                                                    23639021.714 7  92764653.79807      1361.833 7        47.518    23639021.292 8  95184593.56508      1397.361 8        48.744
E04         8.000    25904389.973 7 136128508.90407     -2783.947 7        42.495                                                                    25904388.009 7 101654410.68207     -2078.912 7        45.681    25904387.486 7 104306256.84007     -2133.125 7        46.247
R14         9.000    24033541.265 7 128112281.93307     -2900.763 7        42.527                                                                    24033543.269 6  99642869.72106     -2256.237 6        39.180
G04        10.000    20092757.775 8 105588200.36108      -181.568 8        49.365                                    20092754.369 7  82276529.46907      -141.479 7        43.103    20092754.392 8  82276524.46808      -141.501 8        49.559
E09        11.000    23481459.715 8 123395954.03608      -679.324 8        48.368                                                                    23481458.926 8  92146346.90608      -507.273 8        50.459    23481458.567 8  94550163.83008      -520.531 8        51.393
S27        12.000    39104328.527 5 205494611.64505      -372.298 5        35.986
G06        13.000    22125039.915 7 116267898.39307      1954.500 7        44.898                                    22125038.467 7  90598367.18807      1522.987 7        44.722    22125039.241 7  90598378.18507      1523.015 7        43.695
S36        14.000    38242520.170 7 200966275.13707      -377.164 7        44.557
E21        15.000    28835030.092 5 151529106.04805      -282.629 5        30.951                                                                    28835031.784 6 113154891.16606      -210.913 6        37.312    28835030.971 6 116106752.70606      -216.333 6        37.777
E36        16.000    23636981.667 8 124213203.50108     -1354.243 8        48.179                                                                    23636981.875 8  92756629.75808     -1011.298 8        50.187    23636981.613 8  95176362.70908     -1037.719 8        51.057
S45        17.000    63435676.348 6 333358266.93306      -417.131 6        37.762
G03        18.000    20706140.697 8 108811560.39808     -2109.978 8        48.301                                    20706138.784 8  84788248.13508     -1644.140 8        49.918    20706139.381 7  84788257.13907     -1644.139 7        45.052
R21        19.000    20444657.330 8 109403524.91508     -3394.129 8        51.341                                                                    20444656.248 7  85091638.89307     -2639.851 7        46.023
R20        20.000                                                                                                                                    24132730.063 4 100371073.96204     -3935.448 4        25.353
R05        21.000    22802560.804 7 121892790.74407     -3796.474 7        44.737                                                                    22802559.831 7  94805508.62507     -2952.775 7        42.578
I06        22.000    38092847.573 7 149484743.56307      -210.412 7        42.978
S28        23.000    40908270.952 5 214974405.80105      -371.799 5        34.609
S23        25.000    38188100.541 7 200679838.94707      -373.197 7        44.336
E06        26.000    24073634.587 7 126507864.98107     -1865.109 7        46.736                                                                    24073634.080 8  94470158.65208     -1392.774 8        49.322    24073634.032 8  96934596.05108     -1429.120 8        50.694
R15        27.000    22320549.945 8 119274263.83908       268.362 8        48.127                                                                    22320549.539 7  92768886.02207       208.752 7        42.470
G26        28.000    24949923.826 6 131112735.72206      1634.435 6        36.991                                    24949923.190 4 102165768.86804      1273.608 4        28.275    24949923.755 5 102165769.85905      1273.448 5        34.429
C22        30.000                                                                                                                                    25079181.084 7 130593891.57607      2280.948 7        43.786                                                                    25079175.306 7 106118218.74807      1853.639 7        43.666
I01        31.000   335229660.194 7  12372382.81007     -2639.178 7        42.229
G02        32.000    24209493.701 6 127221776.40406     -3837.899 6        40.951                                    24209488.519 4  99133844.64204     -2990.572 4        27.090
G19        33.000    22749696.810 7 119550487.17507     -2075.321 7        43.166                                    22749690.765 5  93156243.14305     -1617.131 5        30.400
G17        34.000    23877805.534 7 125478756.37007     -3032.987 7        42.464                                    23877801.936 5  97775661.81205     -2363.362 5        35.410    23877801.948 6  97775661.79406     -2363.257 6        37.679
E11        35.000    26299758.400 6 138206221.84606     -3340.339 6        37.932                                                                    26299755.122 6 103205960.44606     -2494.484 6        41.387    26299754.656 7 105898282.67907     -2559.492 7        42.023
G11        36.000    25424100.487 6 133604554.68106      3208.985 6        39.105                                    25424099.105 3 104107438.25203      2500.499 3        21.000    25424099.109 6 104107438.25906      2500.607 6        37.130
C35        37.000                                                                                                                                    23177334.497 7 120690478.51707     -1411.692 7        47.729                                                                    23177333.203 7  98070898.99307     -1147.002 7        47.500
I09        38.000    37427642.935 7 146874106.58307      -529.199 7        42.819
C29        39.000                                                                                                                                    25032184.489 7 130349139.57907     -3707.984 7        43.564                                                                    25032183.015 7 105919344.48307     -3012.836 7        43.539
R22        40.000    20406650.923 8 108932124.47808      1158.029 8        51.141                                                                    20406649.273 7  84725001.07107       900.663 7        47.711
S44        42.000    40717512.943 6 213972176.12606      -455.140 6        37.134
C09        43.000                                                                                                                                    38501266.306 7 200486220.20507      -281.920 7        42.834    38501262.445 7 155028654.37007      -218.122 7        46.203    38501260.530 7 162911457.70907      -228.948 7        42.440
C05        44.000                                                                                                                                    39173649.251 6 203987502.98406      -400.514 6        39.018    39173643.793 7 157736100.18807      -309.674 7        42.800    39173646.037 6 165756658.05406      -325.370 6        39.916
R06        45.000    19473569.805 7 103914753.26007      -733.146 7        42.190
C44        46.000                                                                                                                                    24555821.958 7 127868638.99307      1208.439 7        43.937                                                                    24555819.576 7 103903747.25407       982.093 7        43.697
C39        47.000                                                                                                                                    39441147.657 6 205380415.54306     -1242.286 6        41.006                                                                    39441143.490 6 166888400.10006     -1009.415 6        41.971
C20        48.000                                                                                                                                    22907314.890 8 119284445.78408     -2138.239 8        50.225                                                                    22907309.033 8  96928375.03108     -1737.395 8        49.513
C06        49.000                                                                                                                                    38403292.169 6 199976045.04706      -786.546 6        40.670    38403286.619 7 154634146.92107      -608.234 7        44.545    38403286.176 6 162496896.83306      -639.015 6        41.490
C16        50.000                                                                                                                                    38926372.817 7 202699858.21407      -870.961 7        42.180    38926372.832 7 156740397.50207      -673.479 7        43.120    38926370.401 6 164710237.40306      -707.551 6        39.556
S48        51.000    77221943.297 6 405805193.69306      -369.955 6        37.667
C19        52.000                                                                                                                                    22104663.780 8 115104846.15108       348.757 8        51.032                                                                    22104658.682 8  93532119.79508       283.545 8        49.882
C60        54.000                                                                                                                                    40717516.854 6 212026993.93306      -451.118 6        40.026                                                                    40717501.687 6 172289268.87606      -366.458 6        39.967
R16        55.000    23058668.324 7 123175269.82107      3211.443 7        45.177                                                                    23058668.644 7  95803004.84807      2497.813 7        42.131
C37        56.000                                                                                                                                    24900716.887 7 129664582.57107       546.253 7        43.941                                                                    24900720.625 7 105363112.62207       443.961 7        44.777
C02        57.000                                                                                                                                    40664631.828 5 211751455.71905      -444.249 5        33.760    40664626.070 6 163739650.20906      -343.523 6        39.898    40664629.790 6 172065405.28706      -360.845 6        36.295
I03        58.000   131195479.390 6 439053992.27706       952.690 6        40.331
R07        59.000    21100319.602 8 112951686.32108      2104.281 8        50.195                                                                    21100318.360 7  87851312.66407      1636.710 7        46.298
> 2025 01 01 02 45 15.0000000  0 54
G28         1.000    24939394.114 6 131057392.07106     -3433.382 6        37.248                                    24939391.485 3 102122619.18703     -2675.361 3        19.731    24939391.733 6 102122625.17706     -2675.496 6        37.943
G31         2.000    22776033.178 7 119688880.80807     -2321.869 7        43.998                                    22776028.364 6  93264051.60906     -1809.247 6        39.730    22776029.546 6  93264050.61906     -1809.291 6        39.114
G09         3.000    20844594.075 8 109539123.77808      1627.929 8        48.927                                    20844591.822 8  85355171.81308      1268.518 8        50.636    20844592.035 7  85355172.81107      1268.564 7        44.465
E34         4.000    24949015.183 7 131107972.53107      1504.342 7        45.160                                                                    24949015.287 7  97905312.54307      1123.385 7        47.573    24949015.142 8 100459363.42708      1152.640 8        48.786
S21         5.000    38475438.216 7 202189606.71407      -377.388 7        43.062
E05         6.000    23637286.497 7 124214818.26307      1822.442 7        44.588                                                                    23637287.046 7  92757846.66107      1360.864 7        47.479    23637286.681 8  95177608.85208      1396.323 8        48.758
E04         8.000    25907039.010 7 136142430.37107     -2784.738 7        42.783                                                                    25907037.249 7 101664806.58107     -2079.511 7        45.711    25907036.495 7 104316923.93307     -2133.715 7        46.214
R14         9.000    24036263.465 7 128126794.05307     -2903.977 7        42.919                                                                    24036266.180 6  99654156.92706     -2258.583 6        40.768
G04        10.000    20092931.379 8 105589114.34908      -184.213 8        49.254                                    20092928.275 7  82277241.66607      -143.543 7        43.120    20092928.196 8  82277236.66708      -143.565 8        49.518
E09        11.000    23482106.850 8 123399354.58008      -681.053 8        48.221                                                                    23482106.008 8  92148886.26808      -508.636 8        50.397    23482105.641 8  94552769.43708      -521.887 8        51.307
S27        12.000    39104682.103 5 205496473.14905      -372.410 5        35.890
G06        13.000    22123181.177 7 116258131.54507      1952.006 7        44.980                                    22123179.891 7  90590756.65107      1521.044 7        44.796    22123180.577 7  90590767.65307      1521.035 7        43.321
S36        14.000    38242878.011 7 200968161.16707      -377.271 7        44.406
E21        15.000    28835299.657 5 151530523.99905      -284.634 5        30.234                                                                    28835301.491 6 113155950.00506      -212.638 6        37.153    28835300.973 6 116107839.18906      -218.401 6        37.724
E36        16.000    23638270.974 8 124219980.01708     -1356.509 8        48.120                                                                    23638271.361 8  92761690.14008     -1013.013 8        50.163    23638271.061 8  95181555.09808     -1039.427 8        50.991
S45        17.000    63436027.656 6 333358651.46416      -417.171 6        37.701
G03        18.000    20708149.166 8 108822114.71208     -2111.845 8        48.641                                    20708147.200 8  84796472.27408     -1645.596 8        49.961    20708147.765 7  84796481.27707     -1645.575 7        45.395
R21        19.000    20447830.370 8 109420504.26108     -3397.717 8        51.736                                                                    20447829.372 7  85104845.04107     -2642.745 7        45.667
R20        20.000                                                                                                                                    24137460.646 4 100390751.40504     -3935.828 4        25.308
R05        21.000    22806111.795 7 121911773.56707     -3796.831 7        44.409                                                                    22806110.307 7  94820273.05107     -2953.187 7        42.328
I06        22.000    38093115.794 7 149485795.14007      -210.508 7        42.916
S28        23.000    40908622.989 5 214976265.30405      -372.167 5        34.609
S23        25.000    38188456.429 7 200681704.35707      -373.194 7        44.403
E06        26.000    24075409.616 7 126517193.56707     -1866.489 7        46.626                                                                    24075409.275 8  94477124.79708     -1393.828 8        49.194    24075409.221 8  96941743.91908     -1430.185 8        50.667
R15        27.000    22320301.380 7 119272932.49207       264.028 7        47.372                                                                    22320299.871 7  92767850.52907       205.409 7        42.017
G26        28.000    24948369.213 6 131104567.90806      1632.457 6        36.828                                    24948368.926 4 102159404.34504      1272.031 4        28.009    24948369.263 5 102159405.36205      1271.784 5        34.462
C22        30.000                                                                                                                                    25076991.072 7 130582487.68107      2280.330 7        43.793                                                                    25076985.364 7 106108952.14407      1853.002 7        43.708
I01        31.000   335233022.941 6  12385578.86006     -2639.390 6        41.988
G02        32.000    24213145.271 6 127240967.31906     -3838.596 6        40.753                                    24213140.359 4  99148798.58804     -2991.114 4        26.575
G19        33.000    22751672.305 7 119560870.50407     -2078.228 7        43.168                                    22751666.717 5  93164334.04805     -1619.396 5        30.385
G17        34.000    23880691.892 7 125493924.43807     -3034.240 7        42.679                                    23880688.226 5  97787481.08105     -2364.343 5        35.505    23880688.024 6  97787481.08406     -2364.454 6        37.493
E11        35.000    26302936.890 6 138222925.77506     -3341.263 6        37.410                                                                    26302933.770 6 103218434.15606     -2495.077 6        41.440    26302933.311 6 105911081.78206     -2560.181 6        41.886
G11        36.000    25421047.735 6 133588510.64606      3208.326 6        38.099                                    25421046.172 3 104094936.44503      2499.996 3        19.970    25421046.299 6 104094936.44606      2500.116 6        37.051
C35        37.000                                                                                                                                    23178691.171 7 120697543.63707     -1414.534 7        47.517                                                                    23178689.998 7  98076639.97407     -1149.340 7        47.597
I09        38.000    37428317.335 7 146876752.83807      -529.525 7        42.851
C29        39.000                                                                                                                                    25035745.302 7 130367680.43007     -3708.476 7        43.371                                                                    25035743.564 7 105934410.43307     -3013.417 7        43.382
R22        40.000    20405567.881 8 108926344.89808      1153.678 8        50.856                                                                    20405566.565 7  84720505.84807       897.302 7        47.614
S44        42.000    40717947.602 6 213974451.76106      -455.175 6        37.183
C09        43.000                                                                                                                                    38501537.023 7 200487631.55007      -282.661 7        42.838    38501533.496 7 155029745.70107      -218.702 7        46.105    38501531.538 7 162912604.52907      -229.668 7        42.500
C05        44.000                                                                                                                                    39174034.275 6 203989505.38506      -400.749 6        39.021    39174028.334 7 157737648.55607      -309.821 7        42.770    39174030.615 6 165758285.14606      -325.450 6        39.886
R06        45.000    19474257.243 7 103918424.18207      -735.464 7        42.303
C44        46.000                                                                                                                                    24554662.091 7 127862602.78907      1205.911 7        43.778                                                                    24554660.409 7 103898842.33907       979.974 7        43.752
C39        47.000                                                                                                                                    39442340.664 6 205386628.11606     -1243.012 6        41.092                                                                    39442336.530 7 166893448.31507     -1009.984 7        42.064
C20        48.000                                                                                                                                    22909368.246 8 119295139.25508     -2139.327 8        50.156                                                                    22909362.625 8  96937064.34008     -1738.343 8        49.574
C06        49.000                                                                                                                                    38404047.441 6 199979979.99906      -787.528 6        40.501    38404042.234 7 154637189.65707      -608.967 7        44.182    38404041.950 6 162500094.27206      -639.696 6        41.459
C16        50.000                                                                                                                                    38927209.129 7 202704213.90907      -871.633 7        42.055    38927209.256 7 156743765.59307      -673.960 7        43.043    38927206.815 6 164713776.76406      -708.266 6        39.673
S48        51.000    77222294.766 6 405807043.07306      -370.045 6        37.319
C19        52.000                                                                                                                                    22104329.434 8 115103105.63208       347.290 8        50.920                                                                    22104324.444 8  93530705.47808       282.193 8        49.979
C60        54.000                                                                                                                                    40717949.903 6 212029248.88806      -451.209 6        39.886                                                                    40717934.813 6 172291101.20206      -366.551 6        40.050
R16        55.000    23055663.127 7 123159216.66807      3209.595 7        45.830                                                                    23055663.329 6  95790519.05706      2496.279 6        41.614
C37        56.000                                                                                                                                    24900193.540 7 129661857.34007       543.678 7        44.074                                                                    24900197.229 7 105360898.15407       441.753 7        44.834
C02        57.000                                                                                                                                    40665058.233 5 211753676.56505      -444.093 5        33.563    40665052.909 6 163741367.50606      -343.436 6        39.595    40665056.003 6 172067209.91006      -361.131 6        36.042
I03        58.000   131194265.133 6 439049228.82806       952.664 6        40.236
R07        59.000    21098355.607 8 112941168.79708      2102.517 8        50.258                                                                    21098353.402 7  87843132.36807      1635.260 7        45.317
> 2025 01 01 02 45 20.0000000  0 54
G28         1.000    24942661.876 6 131074563.65206     -3435.143 6        37.667                                    24942659.298 3 102135999.59803     -2676.732 3        19.582    24942659.557 6 102136005.60506     -2676.631 6        37.459
G31         2.000    22778243.773 7 119700497.65707     -2324.768 7        44.033                                    22778238.911 6  93273103.69806     -1811.509 6        39.727    22778240.088 6  93273102.68906     -1811.397 6        39.667
G09         3.000    20843046.131 8 109530989.17208      1625.948 8        48.987                                    20843043.858 8  85348833.16208      1266.972 8        50.637    20843044.242 7  85348834.15807      1267.047 7        44.572
E34         4.000    24947584.766 7 131100454.37207      1502.933 7        44.828                                                                    24947584.616 7  97899698.32607      1122.364 7        47.597    24947584.529 8 100453602.75408      1151.676 8        48.914
S21         5.000    38475795.427 7 202191493.29507      -377.173 7        43.109
E05         6.000    23635553.195 7 124205708.95407      1821.243 7        44.450                                                                    23635553.579 7  92751044.24707      1360.132 7        47.360    23635553.263 8  95170628.97908      1395.643 8        48.915
E04         8.000    25909688.680 7 136156355.25307     -2785.073 7        42.389                                                                    25909687.041 7 101675205.03507     -2079.774 7        45.666    25909686.274 7 104327593.65007     -2134.082 7        46.298
R14         9.000    24038988.941 7 128141322.14207     -2907.148 7        42.760                                                                    24038990.829 6  99665456.52106     -2261.174 6        39.426
G04        10.000    20093107.983 8 105590041.58208      -186.621 8        49.331                                    20093104.720 7  82277964.18607      -145.419 7        43.109    20093104.856 8  82277959.18708      -145.463 8        49.557
E09        11.000    23482755.645 8 123402763.91708      -682.583 8        48.363                                                                    23482754.740 8  92151432.20108      -509.693 8        50.339    23482754.427 8  94555381.78708      -523.014 8        51.463
S27        12.000    39105029.204 5 205498334.78305      -372.438 5        35.824
G06        13.000    22121325.012 7 116248376.62507      1949.900 7        45.345                                    22121323.573 7  90583155.41907      1519.403 7        44.799    22121323.970 7  90583166.42207      1519.359 7        43.278
S36        14.000    38243235.983 7 200970047.84507      -377.195 7        44.554
E21        15.000    28835570.835 5 151531954.05205      -287.024 5        30.287                                                                    28835573.579 6 113157017.82906      -214.133 6        36.284    28835573.260 6 116108934.87706      -219.834 6        37.183
E36        16.000    23639562.770 8 124226767.74908     -1358.468 8        48.085                                                                    23639563.062 8  92766758.89808     -1014.430 8        50.143    23639562.723 8  95186756.08608     -1040.909 8        51.134
S45        17.000    63436379.573 6 333360736.33106      -417.069 6        37.611
G03        18.000    20710159.299 8 108832678.40008     -2113.494 8        48.377                                    20710157.405 8  84804703.71908     -1646.879 8        49.968    20710158.113 7  84804712.71607     -1646.894 7        45.428
R21        19.000    20451006.819 8 109437501.29908     -3401.037 8        51.706                                                                    20451005.849 7  85118064.95907     -2645.215 7        46.208
R20        20.000                                                                                                                                    24142189.174 4 100410429.37504     -3936.114 4        24.707
R05        21.000    22809662.410 7 121930757.82007     -3796.843 7        44.518                                                                    22809661.720 7  94835038.56907     -2952.997 7        42.315
I06        22.000    38093383.710 7 149486847.07907      -210.343 7        42.931
S28        23.000    40908974.902 5 214978125.34005      -371.561 5        34.567
S23        25.000    38188812.182 7 200683569.98007      -373.059 7        44.560
E06        26.000    24077186.086 7 126526528.96607     -1867.622 7        46.678                                                                    24077185.764 8  94484096.03408     -1394.668 8        49.150    24077185.685 8  96948897.01408     -1430.978 8        50.793
R15        27.000    22320055.367 7 119271622.79607       259.960 7        47.445                                                                    22320054.450 7  92766831.88507       202.217 7        42.091
G26        28.000    24946816.603 6 131096410.02906      1630.856 6        36.650                                    24946816.531 4 102153047.54704      1270.801 4        27.713    24946816.266 5 102153048.55505      1270.644 5        34.614
C22        30.000                                                                                                                                    25074801.440 7 130571086.84107      2280.037 7        44.158                                                                    25074795.876 7 106099688.03407      1852.658 7        43.676
I01        31.000   335236385.876 7  12398775.67507     -2639.211 7        42.144
G02        32.000    24216798.090 6 127260161.88906     -3839.033 6        40.613                                    24216792.923 4  99163755.39604     -2991.452 4        26.192
G19        33.000    22753651.218 7 119571268.50007     -2080.910 7        43.659                                    22753645.406 5  93172436.38105     -1621.488 5        30.355
