     3.04           OBSERVATION DATA    M                   RINEX VERSION / TYPE
ssrcrin-15.6.1x                         20250101 020000 UTC PGM / RUN BY / DATE 
(00000000023479385599111004) Septentrio proprietary         COMMENT             
rref                                                        MARKER NAME         
01                                                          MARKER NUMBER       
geodetic                                                    MARKER TYPE         
NFB                 CLIMERS@TUW                             OBSERVER / AGENCY   
3297213             SEPT ASTERX SB3 PROB4.14.4              REC # / TYPE / VERS 
Unknown             Unknown                                 ANT # / TYPE        
  4127831.5850  1207193.1270  4695247.3417                  APPROX POSITION XYZ 
        0.0000        0.0000        0.0000                  ANTENNA: DELTA H/E/N
G   23 X1  C1C L1C D1C S1C C1W S1W C2W L2W D2W S2W C2L L2L  SYS / # / OBS TYPES 
       D2L S2L C5Q L5Q D5Q S5Q C1L L1L D1L S1L              SYS / # / OBS TYPES 
E   21 X1  C1C L1C D1C S1C C6C L6C D6C S6C C5Q L5Q D5Q S5Q  SYS / # / OBS TYPES 
       C7Q L7Q D7Q S7Q C8Q L8Q D8Q S8Q                      SYS / # / OBS TYPES 
S    9 X1  C1C L1C D1C S1C C5I L5I D5I S5I                  SYS / # / OBS TYPES 
R   17 X1  C1C L1C D1C S1C C2P L2P D2P S2P C2C L2C D2C S2C  SYS / # / OBS TYPES 
       C3Q L3Q D3Q S3Q                                      SYS / # / OBS TYPES 
C   25 X1  C1P L1P D1P S1P C5P L5P D5P S5P C2I L2I D2I S2I  SYS / # / OBS TYPES 
       C7I L7I D7I S7I C6I L6I D6I S6I C7D L7D D7D S7D      SYS / # / OBS TYPES 
J   17 X1  C1C L1C D1C S1C C2L L2L D2L S2L C5Q L5Q D5Q S5Q  SYS / # / OBS TYPES 
       C1L L1L D1L S1L                                      SYS / # / OBS TYPES 
I    5 X1  C5A L5A D5A S5A                                  SYS / # / OBS TYPES 
SEPTENTRIO RECEIVERS OUTPUT ALIGNED CARRIER PHASES.         COMMENT             
NO FURTHER PHASE SHIFT APPLIED IN THE RINEX ENCODER.        COMMENT             
G L1C                                                       SYS / PHASE SHIFT   
G L2W                                                       SYS / PHASE SHIFT   
G L2L  0.00000                                              SYS / PHASE SHIFT   
G L5Q  0.00000                                              SYS / PHASE SHIFT   
G L1L  0.00000                                              SYS / PHASE SHIFT   
E L1C  0.00000                                              SYS / PHASE SHIFT   
E L6C  0.00000                                              SYS / PHASE SHIFT   
E L5Q  0.00000                                              SYS / PHASE SHIFT   
E L7Q  0.00000                                              SYS / PHASE SHIFT   
E L8Q  0.00000                                              SYS / PHASE SHIFT   
S L1C                                                       SYS / PHASE SHIFT   
S L5I                                                       SYS / PHASE SHIFT   
R L1C                                                       SYS / PHASE SHIFT   
R L2P  0.00000                                              SYS / PHASE SHIFT   
R L2C                                                       SYS / PHASE SHIFT   
R L3Q  0.00000                                              SYS / PHASE SHIFT   
C L1P  0.00000                                              SYS / PHASE SHIFT   
C L5P  0.00000                                              SYS / PHASE SHIFT   
C L2I                                                       SYS / PHASE SHIFT   
C L7I                                                       SYS / PHASE SHIFT   
C L6I                                                       SYS / PHASE SHIFT   
C L7D                                                       SYS / PHASE SHIFT   
J L1C                                                       SYS / PHASE SHIFT   
J L2L  0.00000                                              SYS / PHASE SHIFT   
J L5Q  0.00000                                              SYS / PHASE SHIFT   
J L1L  0.00000                                              SYS / PHASE SHIFT   
I L5A                                                       SYS / PHASE SHIFT   
  2025     1     1     2     0    0.0000000     GPS         TIME OF FIRST OBS   
 C1C    0.000 C2C    0.000 C2P    0.000                     GLONASS COD/PHS/BIS 
DBHZ                                                        SIGNAL STRENGTH UNIT
    18                                                      LEAP SECONDS        
 24 R01  1 R02 -4 R03  5 R04  6 R05  1 R06 -4 R07  5 R08  6 GLONASS SLOT / FRQ #
    R09 -2 R10 -7 R11  0 R12 -1 R13 -2 R14 -7 R15  0 R16 -1 GLONASS SLOT / FRQ #
    R17  4 R18 -3 R19  3 R20  2 R21  4 R22 -3 R23  3 R24  2 GLONASS SLOT / FRQ #
                                                            END OF HEADER       
> 2025 01 01 02 00  0.0000000  0 53
G28         1.000    23757383.407 6 124845907.62206     -2197.763 6        40.958                                    23757379.035 4  97282507.13804     -1712.537 4        26.659    23757380.264 6  97282513.14406     -1712.659 6        40.672
G31         2.000    22342005.052 7 117408042.64607      -472.848 7        45.547                                    22342000.220 7  91486774.42807      -368.455 7        42.404    22342000.388 6  91486773.43806      -368.471 6        41.638
G09         3.000    22261634.367 7 116985714.26507      2642.813 7        44.513                                    22261632.447 7  91157708.25107      2059.334 7        44.873    22261632.873 6  91157709.25106      2059.476 6        41.580
E34         4.000    26207426.634 7 137720965.56907      2131.492 7        42.544                                                                    26207427.012 7 102843585.45607      1591.615 7        45.546    26207426.806 7 105526460.98107      1633.156 7        46.029
S21         5.000    38574245.768 7 202708881.90707      -403.383 7        42.440
E05         6.000    25028080.299 6 131523477.78206      2366.718 6        41.445                                                                    25028081.043 7  98215609.15107      1767.457 7        44.406    25028080.814 7 100777748.07007      1813.457 7        45.412
G21         7.000    24379214.135 6 128113686.34606     -3612.732 6        38.180                                    24379209.632 3  99828847.92103     -2815.115 3        21.405
E04         8.000    24879092.703 7 130740537.77607     -2298.274 7        44.894                                                                    24879090.918 8  97630925.89708     -1716.175 8        48.421    24879090.615 8 100177811.56608     -1761.006 8        48.904
R14         9.000    23356461.007 7 124503075.47407      -855.692 7        44.280                                                                    23356461.718 6  96835712.36106      -665.659 6        39.937
G04        10.000    20661583.975 7 108577398.17907      1220.649 7        47.125                                    20661580.810 6  84605773.47406       951.157 6        38.889    20661580.868 7  84605768.47407       951.108 7        47.030
E09        11.000    23677846.148 8 124427968.14108       298.685 8        48.801                                                                    23677845.282 8  92917006.09708       223.107 8        50.699    23677844.825 8  95340927.25408       228.900 8        51.034
S27        12.000    39207523.873 6 206036914.75806      -393.151 6        36.015
G06        13.000    23694055.180 6 124513125.65106      2852.002 6        39.583                                    23694054.158 6  97023218.39206      2222.334 6        36.998    23694055.051 6  97023229.38806      2222.439 6        40.145
S36        14.000    38341678.534 7 201487367.57107      -403.382 7        43.975
E36        16.000    23535388.301 8 123679329.51008      -220.402 8        48.091                                                                    23535388.546 8  92357958.15308      -164.600 8        50.776    23535388.328 8  94767290.90808      -168.885 8        51.144
S45        17.000    63537469.830 6 333893246.03706      -443.554 6        37.418
G03        18.000    20174423.788 8 106017369.56508     -1102.175 8        49.845                                    20174421.633 8  82610956.84008      -858.837 8        52.033    20174422.040 7  82610965.85307      -858.967 7        45.869
R21        19.000    19565035.171 8 104696493.70308     -1168.570 8        52.481                                                                    19565033.560 7  81430615.98307      -908.957 7        46.099
R20        20.000    21957761.700 6 117418053.32506     -4546.694 6        36.938                                                                    21957763.823 7  91325149.15907     -3536.300 7        43.276
R05        21.000    21239182.508 8 113535644.15908     -3475.902 8        48.814                                                                    21239181.994 7  88305505.91007     -2703.463 7        45.368
I06        22.000    38246237.236 7 150086678.04807      -216.300 7        42.840
S28        23.000    41010478.972 5 215511562.74305      -397.098 5        33.796
E10        24.000    27508751.165 6 144559575.82406     -3370.282 6        39.826                                                                    27508751.393 7 107950396.72107     -2516.716 7        44.001    27508751.229 7 110766484.87607     -2582.439 7        44.531
S23        25.000    38289382.385 7 201212066.86907      -399.821 7        44.200
E06        26.000    23615183.915 8 124098690.32008     -1028.804 8        48.222                                                                    23615183.414 8  92671099.62808      -768.275 8        50.898    23615183.379 8  95088605.05108      -788.303 8        51.353
R15        27.000    23286002.987 7 124433339.88107      2221.139 7        45.091                                                                    23286003.395 6  96781497.15106      1727.671 6        41.223
C22        30.000                                                                                                                                    26629177.691 6 138665111.33806      2502.793 6        40.343                                                                    26629173.065 6 112676741.95106      2033.834 6        39.192
I01        31.000   333720916.820 7   6451747.18407     -2600.321 7        43.759
G02        32.000    22665150.570 7 119106206.18807     -3231.382 7        46.343                                    22665144.618 5  92810025.64105     -2517.958 5        35.233
G19        33.000    22421451.738 7 117825554.44007      -299.913 7        43.839                                    22421445.194 5  91812141.31705      -233.691 5        32.305
G17        34.000    22835790.546 7 120002938.21407     -2058.017 7        44.871                                    22835786.210 6  93508792.57606     -1603.647 6        41.771    22835786.370 6  93508792.56806     -1603.656 6        40.405
E11        35.000    25023680.230 7 131500389.32607     -2728.039 7        43.024                                                                    25023676.403 7  98198359.62507     -2037.178 7        44.792    25023676.008 7 100760048.63507     -2090.297 7        44.885
C32        36.000                                                                                                                                    26093209.942 6 135874208.09606     -3258.138 6        40.343                                                                    26093210.433 7 110408932.61607     -2647.585 7        42.451
C35        37.000                                                                                                                                    23132837.405 8 120458773.75008        97.412 8        48.499                                                                    23132836.082 7  97882620.45907        79.246 7        47.447
I09        38.000    37379802.996 7 146686373.23707      -478.244 7        42.595
C29        39.000                                                                                                                                    23521731.764 8 122483825.76208     -3148.303 8        48.215                                                                    23521729.639 7  99528134.75607     -2558.310 7        46.493
R22        40.000    21797220.200 7 116355072.81807      2978.369 7        47.825                                                                    21797218.367 7  90498404.23807      2316.489 7        44.835
S44        42.000    40776694.773 6 214283172.89806      -480.513 6        37.308
C09        43.000                                                                                                                                    38760538.900 7 201836320.85607       130.452 7        42.182    38760535.788 7 156072637.23707       100.829 7        46.316    38760533.763 6 164008524.61606       106.104 6        41.895
C05        44.000                                                                                                                                    39261835.170 6 204446715.44706      -415.278 6        38.213    39261830.768 7 158091192.64807      -321.370 7        42.629    39261832.927 6 166129806.01206      -337.435 6        39.997
R06        45.000    19735491.212 6 105312418.75406       615.129 6        40.682
C44        46.000                                                                                                                                    25785621.462 6 134272523.28406      2278.636 6        40.091                                                                    25785620.556 6 109107425.89506      1851.749 6        41.049
C39        47.000                                                                                                                                    39174559.097 7 203992222.33107      -916.739 7        43.473                                                                    39174555.770 7 165760379.40507      -744.822 7        42.586
C20        48.000                                                                                                                                    22252978.293 8 115877144.00808     -1493.754 8        51.805                                                                    22252972.336 8  94159663.38808     -1213.764 8        49.571
C06        49.000                                                                                                                                    38396742.028 6 199941933.96006      -379.122 6        40.834    38396736.213 7 154607769.49107      -293.183 7        44.399    38396736.028 6 162469178.32306      -307.944 6        41.716
C16        50.000                                                                                                                                    38869212.700 7 202402206.84507      -487.981 7        43.113    38869212.483 7 156510234.14807      -377.353 7        43.556    38869210.015 6 164468370.96206      -396.570 6        39.544
S48        51.000    77324318.167 6 406342885.73106      -400.073 6        37.206
C19        52.000                                                                                                                                    22788037.377 8 118663348.12608      1122.662 8        49.898                                                                    22788032.538 8  96423693.43708       912.256 8        49.321
C60        54.000                                                                                                                                    40776697.419 6 212335163.47106      -476.081 6        38.925                                                                    40776682.025 6 172539682.17506      -386.865 6        40.112
C37        56.000                                                                                                                                    25803786.915 7 134367089.30507      1685.725 7        42.296                                                                    25803789.709 7 109184282.55607      1369.946 7        42.222
C02        57.000                                                                                                                                    40729517.633 5 212089332.87505      -460.946 5        34.571    40729511.701 6 164000918.77506      -356.465 6        40.229    40729515.162 6 172339958.58006      -374.705 6        36.336
I03        58.000   132152733.922 6 442810465.70106       949.786 6        41.647
R07        59.000    22679270.735 7 121403922.01307      2912.300 7        47.320                                                                    22679269.898 6  94425270.88206      2265.170 6        41.185
> 2025 01 01 02 00  5.0000000  0 53
G28         1.000    23759475.364 6 124856903.60206     -2200.583 6        41.037                                    23759471.624 4  97291075.43004     -1714.744 4        26.719    23759472.083 6  97291081.43106     -1714.655 6        40.541
G31         2.000    22342456.470 7 117410415.45107      -476.362 7        45.553                                    22342451.733 7  91488623.37007      -371.190 7        42.400    22342452.036 6  91488622.36606      -371.128 6        41.673
G09         3.000    22259120.640 7 116972503.67207      2641.330 7        44.752                                    22259118.564 7  91147414.28807      2058.179 7        44.792    22259118.816 6  91147415.29406      2058.184 6        41.361
E34         4.000    26205399.364 7 137710310.26107      2130.821 7        42.362                                                                    26205399.391 7 102835628.57307      1591.105 7        45.455    26205399.221 7 105518296.53307      1632.598 7        45.877
S21         5.000    38574636.279 7 202710899.37707      -403.523 7        42.544
E05         6.000    25025828.430 6 131511645.82806      2366.010 6        41.404                                                                    25025829.593 7  98206773.61507      1766.810 7        44.558    25025829.277 7 100768682.03507      1812.957 7        45.324
G21         7.000    24382651.896 6 128131751.34606     -3613.260 6        37.357                                    24382647.250 3  99842924.54703     -2815.523 3        21.548
E04         8.000    24881279.812 7 130752032.23807     -2299.395 7        45.008                                                                    24881278.214 8  97639509.42308     -1717.159 8        48.462    24881277.992 8 100186619.01208     -1761.983 8        48.789
R14         9.000    23357265.572 7 124507364.12807      -859.747 7        44.763                                                                    23357266.556 6  96839047.97806      -668.619 6        40.539
G04        10.000    20660423.660 7 108571301.32507      1218.146 7        47.011                                    20660420.590 6  84601022.68406       949.206 6        38.868    20660420.537 7  84601017.68507       949.200 7        46.795
E09        11.000    23677562.847 8 124426479.03908       296.857 8        48.788                                                                    23677561.928 8  92915894.11208       221.666 8        50.783    23677561.474 8  95339786.25908       227.490 8        50.932
S27        12.000    39207904.533 6 206038880.05306      -393.062 6        36.170
G06        13.000    23691342.546 6 124498867.87806      2851.019 6        40.110                                    23691340.996 6  97012108.44406      2221.572 6        36.972    23691341.419 6  97012119.44106      2221.694 6        39.970
S36        14.000    38342062.790 7 201489384.66407      -403.384 7        44.087
E36        16.000    23535598.892 8 123680436.27408      -222.305 8        48.172                                                                    23535599.139 8  92358784.62808      -165.998 8        50.849    23535598.888 8  94768138.94408      -170.306 8        51.034
S45        17.000    63537850.128 6 333893764.08516      -443.611 6        37.701
G03        18.000    20175473.193 8 106022885.15208     -1104.057 8        49.626                                    20175471.221 8  82615254.70308      -860.305 8        51.974    20175471.753 7  82615263.70807      -860.369 7        45.928
R21        19.000    19566128.822 8 104702347.65708     -1173.001 8        52.587                                                                    19566127.721 7  81435169.06607      -912.390 7        46.172
R20        20.000    21962013.029 6 117440791.03206     -4548.633 6        36.790                                                                    21962015.502 7  91342834.05207     -3537.796 7        43.117
R05        21.000    21242433.764 7 113553026.10807     -3476.875 7        47.988                                                                    21242433.826 7  88319025.20807     -2704.316 7        45.479
I06        22.000    38246512.650 7 150087759.47107      -216.302 7        42.629
S28        23.000    41010864.475 5 215513548.68305      -396.985 5        33.916
E10        24.000    27511957.951 6 144576428.56006     -3370.794 6        39.363                                                                    27511958.162 7 107962981.55107     -2517.102 7        43.826    27511958.079 7 110779398.00607     -2582.858 7        44.479
S23        25.000    38289760.814 7 201214065.19007      -399.642 7        43.816
E06        26.000    23616163.489 8 124103838.68008     -1030.575 8        48.220                                                                    23616163.121 8  92674944.18308      -769.550 8        51.000    23616163.068 8  95092549.90108      -789.664 8        51.277
R15        27.000    23283926.371 7 124422240.83807      2218.398 7        44.190                                                                    23283926.824 6  96772864.57706      1725.356 6        41.218
C22        30.000                                                                                                                                    26626774.318 6 138652598.56306      2502.487 6        40.148                                                                    26626769.884 6 112666574.31106      2033.382 6        39.192
I01        31.000   333724229.492 7   6464748.30207     -2600.239 7        43.484
G02        32.000    22668226.021 7 119122366.50807     -3232.843 7        46.283                                    22668219.852 5  92822618.09105     -2519.102 5        35.190
G19        33.000    22421738.758 7 117827062.78807      -303.403 7        44.402                                    22421732.236 5  91813316.65505      -236.415 5        32.216
G17        34.000    22837750.039 7 120013234.14207     -2060.393 7        44.591                                    22837745.465 6  93516815.37506     -1605.497 6        41.795    22837745.712 6  93516815.37706     -1605.359 6        40.300
E11        35.000    25026276.249 7 131514032.61107     -2729.457 7        43.022                                                                    25026272.655 7  98208547.79807     -2038.287 7        44.767    25026272.521 7 100770502.57607     -2091.294 7        44.807
C32        36.000                                                                                                                                    26096338.132 6 135890498.55206     -3258.043 6        40.791                                                                    26096338.604 7 110422169.94607     -2647.501 7        42.400
C35        37.000                                                                                                                                    23132745.165 8 120458293.51608        94.636 8        48.428                                                                    23132743.811 7  97882230.22507        76.892 7        47.582
I09        38.000    37380412.559 7 146688764.37507      -478.200 7        42.584
C29        39.000                                                                                                                                    23524755.817 8 122499571.25708     -3149.881 8        48.051                                                                    23524753.253 7  99540929.25407     -2559.647 7        46.623
R22        40.000    21794431.079 8 116340187.04308      2975.920 8        48.302                                                                    21794429.971 7  90486826.42407      2314.635 7        44.566
S44        42.000    40777152.314 6 214285574.94706      -480.398 6        36.775
C09        43.000                                                                                                                                    38760414.502 7 201835670.33707       129.696 7        42.231    38760410.770 7 156072134.20907       100.334 7        46.027    38760408.712 6 164007996.01306       105.396 6        41.862
C05        44.000                                                                                                                                    39262233.847 6 204448792.67106      -415.473 6        38.426    39262229.824 7 158092798.87907      -321.164 7        42.718    39262231.559 6 166131493.92806      -337.653 6        39.856
R06        45.000    19734916.116 6 105309349.18706       612.568 6        40.787
C44        46.000                                                                                                                                    25783434.330 6 134261133.51706      2277.292 6        40.253                                                                    25783433.386 6 109098170.80106      1850.435 6        41.461
C39        47.000                                                                                                                                    39175439.884 7 203996807.57407      -917.402 7        43.460                                                                    39175436.357 7 165764105.28907      -745.436 7        42.681
C20        48.000                                                                                                                                    22254413.206 8 115884616.27308     -1495.136 8        51.700                                                                    22254407.333 8  94165735.21508     -1214.988 8        49.726
C06        49.000                                                                                                                                    38397106.476 6 199943831.38706      -379.914 6        40.868    38397100.740 7 154609236.70207      -293.702 7        44.391    38397100.559 6 162470720.14806      -308.743 6        41.681
C16        50.000                                                                                                                                    38869682.006 7 202404648.69207      -488.727 7        43.300    38869681.051 7 156512122.34607      -377.945 7        43.464    38869678.886 6 164470355.15706      -397.303 6        39.631
S48        51.000    77324687.737 6 406344886.12106      -400.113 6        36.945
C19        52.000                                                                                                                                    22786959.897 8 118657738.35608      1121.245 8        49.949                                                                    22786955.202 8  96419135.04008       911.073 8        49.341
C60        54.000                                                                                                                                    40777154.580 6 212337543.67506      -475.900 6        39.012                                                                    40777139.306 6 172541616.27606      -386.783 6        40.341
C37        56.000                                                                                                                                    25802168.975 7 134358664.15807      1684.268 7        42.823                                                                    25802171.713 6 109177436.43206      1368.556 6        41.969
C02        57.000                                                                                                                                    40729960.082 5 212091638.01605      -461.234 5        34.443    40729954.276 6 164002701.22906      -356.415 6        40.150    40729958.175 6 172341831.68106      -374.707 6        36.280
I03        58.000   132151523.742 6 442805716.83906       949.801 6        41.471
R07        59.000    22676551.075 7 121389363.66007      2911.068 7        46.918                                                                    22676550.566 6  94413947.71906      2264.095 6        40.343
> 2025 01 01 02 00 10.0000000  0 53
G28         1.000    23761571.172 6 124867914.05706     -2203.401 6        40.644                                    23761566.942 4  97299655.00804     -1716.939 4        26.671    23761567.279 6  97299661.00906     -1716.961 6        40.749
G31         2.000    22342911.453 7 117412806.50107      -480.014 7        45.458                                    22342906.698 7  91490486.52707      -374.038 7        42.461    22342906.880 6  91490485.51906      -374.014 6        41.294
G09         3.000    22256608.361 7 116959301.22507      2639.764 7        44.707                                    22256606.205 7  91137126.66707      2056.957 7        44.880    22256606.731 6  91137127.66306      2056.998 6        41.509
E34         4.000    26203372.408 7 137699659.13507      2129.910 7        42.508                                                                    26203372.537 7 102827674.81307      1590.471 7        45.305    26203372.331 7 105510135.27607      1632.014 7        45.878
S21         5.000    38575022.887 7 202712917.17707      -403.498 7        42.586
E05         6.000    25023578.067 6 131499818.31306      2365.064 6        41.883                                                                    25023578.935 7  98197941.37907      1766.198 7        44.406    25023578.552 7 100759619.39907      1812.168 7        45.381
G21         7.000    24386090.335 6 128149819.53506     -3613.847 6        36.575                                    24386085.784 3  99857003.64003     -2815.986 3        21.952
E04         8.000    24883468.625 7 130763533.20507     -2300.767 7        45.151                                                                    24883466.875 8  97648097.81008     -1718.078 8        48.395    24883466.565 8 100195431.44408     -1762.999 8        48.828
R14         9.000    23358073.808 7 124511673.93707      -863.888 7        44.749                                                                    23358074.793 6  96842400.07806      -671.980 6        40.355
G04        10.000    20659265.957 7 108565217.45307      1215.578 7        47.205                                    20659262.882 6  84596282.00406       947.205 6        39.012    20659263.029 7  84596277.00307       947.216 7        47.085
E09        11.000    23677281.204 8 124424999.83308       294.959 8        48.722                                                                    23677280.433 8  92914789.50908       220.288 8        50.687    23677279.993 8  95338652.84308       225.996 8        50.971
S27        12.000    39208271.532 5 206040845.57005      -393.167 5        35.514
G06        13.000    23688630.447 6 124484615.65206      2850.063 6        40.446                                    23688628.872 6  97001002.81506      2220.826 6        37.096    23688629.506 6  97001013.81406      2220.824 6        40.107
S36        14.000    38342444.201 7 201491402.44807      -403.563 7        43.862
E36        16.000    23535811.353 8 123681553.25308      -224.278 8        48.228                                                                    23535811.709 8  92359618.73508      -167.460 8        50.703    23535811.423 8  94768994.81308      -171.853 8        51.078
S45        17.000    63538229.447 6 333895982.26206      -443.529 6        37.558
G03        18.000    20176524.667 8 106028410.76508     -1106.087 8        49.602                                    20176522.714 8  82619560.37408      -861.887 8        52.106    20176523.436 7  82619569.37107      -861.844 7        46.043
R21        19.000    19567227.380 8 104708224.44408     -1177.569 8        52.654                                                                    19567225.999 7  81439739.87707      -915.896 7        46.227
R20        20.000    21966266.447 6 117463538.37006     -4550.282 6        36.181                                                                    21966269.702 7  91360526.43807     -3539.151 7        43.854
R05        21.000    21245686.852 8 113570413.78708     -3478.032 8        48.476                                                                    21245686.251 7  88332548.94407     -2705.156 7        45.258
I06        22.000    38246788.193 7 150088841.09807      -216.287 7        42.449
S28        23.000    41011241.200 5 215515535.18205      -397.326 5        34.319
E10        24.000    27515165.095 6 144593284.72606     -3371.507 6        38.541                                                                    27515165.780 7 107975568.93007     -2517.672 7        43.670    27515165.652 7 110792313.74707     -2583.384 7        44.477
S23        25.000    38290141.086 7 201216063.80107      -399.731 7        44.029
E06        26.000    23617145.183 8 124108996.42608     -1032.410 8        48.192                                                                    23617144.622 8  92678795.74508      -770.929 8        50.874    23617144.549 8  95096501.93608      -791.024 8        51.312
R15        27.000    23281851.596 7 124411155.91807      2215.673 7        44.647                                                                    23281851.512 6  96764242.98906      1723.272 6        41.025
C22        30.000                                                                                                                                    26624371.942 6 138640087.67206      2502.154 6        40.141                                                                    26624366.979 6 112656408.15006      2033.257 6        39.033
I01        31.000   333727542.803 7   6477750.10407     -2600.427 7        43.232
G02        32.000    22671302.829 7 119138535.02907     -3234.415 7        45.862                                    22671296.654 5  92835216.93805     -2520.322 5        35.067
G19        33.000    22422029.002 7 117828589.11407      -306.974 7        43.835                                    22422022.682 5  91814506.00105      -239.201 5        32.359
G17        34.000    22839711.473 7 120023542.41907     -2062.737 7        45.014                                    22839707.103 6  93524847.79706     -1607.325 6        41.774    22839707.111 6  93524847.80106     -1607.305 6        40.393
E11        35.000    25028873.920 7 131527683.06607     -2730.788 7        42.597                                                                    25028870.226 7  98218741.30307     -2039.207 7        44.707    25028870.140 7 100780962.00707     -2092.404 7        44.942
C32        36.000                                                                                                                                    26099466.737 6 135906789.62506     -3258.271 6        41.549                                                                    26099467.052 7 110435407.76707     -2647.490 7        42.070
C35        37.000                                                                                                                                    23132655.813 8 120457827.52908        91.852 8        48.519                                                                    23132654.345 7  97881851.55307        74.744 7        47.561
I09        38.000    37381022.151 7 146691156.27907      -478.314 7        42.461
C29        39.000                                                                                                                                    23527780.905 7 122515325.06707     -3151.499 7        47.585                                                                    23527778.540 7  99553730.49007     -2560.751 7        46.712
R22        40.000    21791645.298 7 116325313.84807      2973.462 7        47.625                                                                    21791643.562 7  90475258.38107      2312.629 7        44.792
S44        42.000    40777609.837 6 214287977.13106      -480.357 6        37.406
C09        43.000                                                                                                                                    38760290.694 7 201835024.15607       128.850 7        42.356    38760286.589 7 156071634.54207        99.644 7        46.016    38760284.708 7 164007470.91407       104.935 7        42.028
C05        44.000                                                                                                                                    39262632.818 6 204450870.09706      -415.560 6        38.327    39262628.983 7 158094405.27007      -321.172 7        42.663    39262630.495 6 166133181.97906      -337.520 6        39.610
R06        45.000    19734343.880 6 105306293.23106       609.963 6        40.853
C44        46.000                                                                                                                                    25781248.614 6 134249751.52306      2275.757 6        40.372                                                                    25781247.542 6 109088921.99906      1849.275 6        41.847
C39        47.000                                                                                                                                    39176321.601 7 204001396.71907      -918.159 7        43.427                                                                    39176317.768 7 165767834.33407      -746.019 7        42.749
C20        48.000                                                                                                                                    22255849.431 8 115892095.91308     -1496.569 8        51.691                                                                    22255843.674 8  94171813.01308     -1215.997 8        49.769
C06        49.000                                                                                                                                    38397471.951 6 199945733.29106      -380.771 6        40.782    38397466.103 7 154610707.37207      -294.376 7        44.503    38397465.745 6 162472265.57606      -309.327 6        41.855
C16        50.000                                                                                                                                    38870151.856 7 202407094.82907      -489.572 7        43.278    38870151.004 7 156514013.85107      -378.607 7        43.473    38870148.615 6 164472342.82406      -397.691 6        39.712
S48        51.000    77325073.263 6 406346886.64306      -400.247 6        37.259
C19        52.000                                                                                                                                    22785884.175 8 118652136.03908      1119.807 8        50.032                                                                    22785879.321 8  96414582.68808       910.004 8        49.471
C60        54.000                                                                                                                                    40777611.553 6 212339924.02806      -476.071 6        38.985                                                                    40777596.328 6 172543550.48106      -386.715 6        40.312
C37        56.000                                                                                                                                    25800552.045 7 134350247.38107      1682.697 7        42.952                                                                    25800555.296 7 109170597.09807      1367.429 7        42.032
C02        57.000                                                                                                                                    40730403.354 5 212093943.30605      -461.163 5        34.552    40730396.855 6 164004483.83906      -356.463 6        39.649    40730400.807 6 172343704.91006      -374.631 6        36.189
I03        58.000   132150313.651 6 442800968.22706       949.782 6        41.461
R07        59.000    22673831.904 7 121374812.00607      2909.726 7        46.570                                                                    22673831.792 6  94402629.80206      2263.133 6        40.899
> 2025 01 01 02 00 15.0000000  0 53
G28         1.000    23763668.733 6 124878938.20406     -2206.111 6        40.779                                    23763664.991 4  97308245.24904     -1719.051 4        26.707    23763665.494 6  97308251.24106     -1718.932 6        41.125
G31         2.000    22343369.773 7 117415214.94107      -483.285 7        44.993                                    22343364.982 7  91492363.23607      -376.591 7        42.400    22343365.302 6  91492362.24006      -376.522 6        41.628
G09         3.000    22254097.268 7 116946106.08907      2638.481 7        44.960                                    22254095.223 7  91126844.74407      2055.958 7        44.789    22254095.861 7  91126845.73907      2055.931 7        42.055
E34         4.000    26201346.164 7 137689011.35007      2129.343 7        42.482                                                                    26201346.424 7 102819723.55007      1590.093 7        45.287    26201346.228 7 105501976.59407      1631.513 7        45.959
S21         5.000    38575409.664 7 202714934.37307      -403.320 7        42.703
E05         6.000    25021327.751 6 131487994.38106      2364.527 6        41.561                                                                    25021328.824 7  98189111.83407      1765.744 7        44.506    25021328.549 7 100750559.51207      1811.837 7        45.285
G21         7.000    24389529.309 6 128167890.03906     -3614.104 6        36.533                                    24389524.547 3  99871084.54503     -2816.169 3        21.381
E04         8.000    24885658.170 7 130775039.86707     -2301.810 7        44.969                                                                    24885656.445 8  97656690.44408     -1718.885 8        48.345    24885656.236 8 100204248.23108     -1763.770 8        48.877
R14         9.000    23358885.958 7 124516003.70507      -867.794 7        44.659                                                                    23358886.910 6  96845767.66606      -674.896 6        39.634
G04        10.000    20658110.555 7 108559145.74507      1213.233 7        47.529                                    20658107.473 6  84591550.80406       945.376 6        38.982    20658107.746 7  84591545.80407       945.375 7        47.212
E09        11.000    23677001.505 8 124423529.69808       293.273 8        48.749                                                                    23677000.692 8  92913691.68308       218.976 8        50.642    23677000.223 8  95337526.37408       224.659 8        50.966
S27        12.000    39208647.721 6 206042810.16406      -392.606 6        36.110
G06        13.000    23685919.345 6 124470368.18606      2849.122 6        40.100                                    23685917.629 6  96989900.90006      2220.091 6        37.123    23685918.560 6  96989911.89806      2220.164 6        40.307
S36        14.000    38342825.479 7 201493419.63007      -403.292 7        44.017
E36        16.000    23536025.817 8 123682679.63608      -226.063 8        48.163                                                                    23536026.049 8  92360459.86508      -168.846 8        50.740    23536025.807 8  94769857.88608      -173.250 8        51.049
S45        17.000    63538610.930 6 333898199.68606      -443.370 6        37.766
G03        18.000    20177578.009 8 106033945.57608     -1107.729 8        49.856                                    20177575.960 8  82623873.21508      -863.163 8        52.039    20177576.428 7  82623882.20907      -863.116 7        45.731
R21        19.000    19568330.180 8 104714123.27008     -1181.880 8        52.903                                                                    19568328.515 7  81444327.85207      -919.205 7        46.310
R20        20.000    21970523.357 6 117486294.41606     -4551.984 6        36.741                                                                    21970525.047 7  91378225.56407     -3540.405 7        44.004
R05        21.000    21248941.493 8 113587806.36108     -3478.812 8        49.004                                                                    21248939.793 7  88346076.50307     -2705.723 7        45.148
I06        22.000    38247064.027 7 150089922.29607      -216.041 7        42.411
S28        23.000    41011617.586 5 215517520.76505      -396.912 5        34.424
E10        24.000    27518373.605 6 144610143.42506     -3371.786 6        38.874                                                                    27518373.910 7 107988158.22207     -2517.982 7        43.484    27518373.865 7 110805231.45307     -2583.673 7        44.530
S23        25.000    38290521.120 7 201218061.74607      -399.479 7        43.879
E06        26.000    23618128.375 8 124114162.70408     -1033.989 8        48.176                                                                    23618127.716 8  92682653.68408      -772.124 8        50.911    23618127.657 8  95100460.51808      -792.281 8        51.279
R15        27.000    23279779.853 7 124400084.48207      2213.141 7        44.321                                                                    23279779.886 6  96755631.87806      1721.228 6        40.300
C22        30.000                                                                                                                                    26621969.557 6 138627577.82406      2501.977 6        39.850                                                                    26621964.825 6 112646242.90206      2032.950 6        39.222
I01        31.000   333730856.128 7   6490751.89107     -2600.235 7        43.173
G02        32.000    22674380.983 7 119154710.92407     -3235.751 7        45.533                                    22674374.870 5  92847821.52405     -2521.366 5        34.905
G19        33.000    22422322.657 7 117830132.61107      -310.333 7        43.850                                    22422316.396 5  91815708.71705      -241.820 5        32.263
G17        34.000    22841675.426 7 120033862.20407     -2064.928 7        45.452                                    22841670.892 6  93532889.18706     -1609.034 6        41.714    22841671.167 6  93532889.19306     -1609.101 6        40.360
E11        35.000    25031472.621 7 131541339.85507     -2731.913 7        42.736                                                                    25031468.889 7  98228939.54907     -2040.050 7        44.576    25031468.911 7 100791426.29907     -2093.217 7        44.953
C32        36.000                                                                                                                                    26102595.599 6 135923080.44106     -3257.935 6        41.583                                                                    26102595.425 7 110448645.39807     -2647.229 7        42.087
C35        37.000                                                                                                                                    23132569.045 8 120457374.97408        89.310 8        48.468                                                                    23132567.487 7  97881483.83007        72.577 7        47.564
I09        38.000    37381631.441 7 146693548.36007      -478.352 7        42.561
C29        39.000                                                                                                                                    23530807.740 7 122531086.35707     -3152.926 7        47.425                                                                    23530805.405 7  99566537.82707     -2561.876 7        46.518
R22        40.000    21788861.084 7 116310452.38207      2971.178 7        47.725                                                                    21788859.673 7  90463699.46007      2311.037 7        45.120
S44        42.000    40778069.408 6 214290378.62206      -480.192 6        37.191
C09        43.000                                                                                                                                    38760167.392 7 201834381.45307       128.280 7        42.624    38760163.237 7 156071137.57507        99.103 7        45.848    38760161.286 6 164006948.69406       104.176 6        41.883
C05        44.000                                                                                                                                    39263032.487 6 204452946.90306      -415.209 6        38.586    39263027.660 7 158096011.20507      -321.120 7        42.529    39263029.408 6 166134869.56506      -337.210 6        39.787
R06        45.000    19733773.645 6 105303249.93206       607.554 6        40.937
C44        46.000                                                                                                                                    25779063.420 6 134238376.53106      2274.388 6        39.985                                                                    25779062.917 6 109079678.89106      1848.184 6        41.018
C39        47.000                                                                                                                                    39177203.144 7 204005988.95307      -918.620 7        43.198                                                                    39177199.531 7 165771565.91007      -746.505 7        42.844
C20        48.000                                                                                                                                    22257287.207 8 115899582.08708     -1497.782 8        51.920                                                                    22257281.354 8  94177896.16108     -1217.056 8        49.637
C06        49.000                                                                                                                                    38397837.389 6 199947638.85906      -381.400 6        40.799    38397832.137 7 154612180.87907      -294.902 7        44.554    38397831.687 6 162473814.02106      -309.850 6        41.702
C16        50.000                                                                                                                                    38870622.434 7 202409544.44507      -490.135 7        43.204    38870621.186 7 156515908.04907      -378.956 7        43.287    38870619.005 6 164474333.34506      -398.211 6        39.586
S48        51.000    77325455.466 6 406348886.46306      -399.545 6        37.372
C19        52.000                                                                                                                                    22784809.638 8 118646540.37308      1118.581 8        49.915                                                                    22784804.729 8  96410035.76408       908.975 8        49.328
C60        54.000                                                                                                                                    40778068.745 6 212342303.67706      -475.687 6        39.132                                                                    40778053.082 6 172545484.16606      -386.716 6        40.191
C37        56.000                                                                                                                                    25798936.459 7 134341838.16007      1681.265 7        42.345                                                                    25798940.554 7 109163763.94407      1365.966 7        42.131
C02        57.000                                                                                                                                    40730846.090 5 212096248.00005      -460.947 5        35.005    40730839.706 6 164006265.98406      -356.276 6        39.721    40730843.140 6 172345577.70206      -374.507 6        36.083
I03        58.000   132149103.300 6 442796219.26306       950.023 6        41.504
R07        59.000    22671114.748 7 121360266.22607      2908.664 7        46.989                                                                    22671114.252 6  94391316.42206      2262.342 6        41.876
> 2025 01 01 02 00 20.0000000  0 53
G28         1.000    23765769.369 6 124889976.74906     -2209.251 6        40.915                                    23765765.617 4  97316846.72104     -1721.496 4        26.766    23765765.838 6  97316852.73006     -1721.557 6        41.280
G31         2.000    22343831.238 7 117417641.57807      -487.094 7        45.524                                    22343826.739 7  91494254.12107      -379.552 7        42.286    22343826.732 6  91494253.11506      -379.503 6        41.783
G09         3.000    22251587.662 7 116932919.05607      2636.512 7        44.343                                    22251585.803 7  91116569.13607      2054.425 7        44.618    22251586.524 7  91116570.14107      2054.359 7        42.705
E34         4.000    26199320.507 7 137678367.71007      2128.285 7        42.305                                                                    26199320.926 7 102811775.37107      1589.255 7        45.350    26199320.783 7 105493821.06507      1630.759 7        45.685
S21         5.000    38575787.633 7 202716951.72907      -403.510 7        42.711
E05         6.000    25019078.494 6 131476174.81506      2363.466 6        41.657                                                                    25019079.728 7  98180285.54207      1764.957 7        44.498    25019079.219 7 100741502.97007      1810.982 7        45.153
G21         7.000    24392968.361 6 128185963.61206     -3614.920 6        36.594                                    24392963.677 3  99885167.85503     -2816.822 3        20.595
E04         8.000    24887848.964 7 130786552.96707     -2303.369 7        44.710                                                                    24887847.338 8  97665287.87508     -1719.956 8        48.360    24887847.054 8 100213069.94408     -1764.875 8        48.733
R14         9.000    23359701.902 7 124520354.58707      -872.313 7        43.765                                                                    23359703.402 6  96849151.71706      -678.504 6        39.465
G04        10.000    20656957.609 7 108553086.96107      1210.441 7        47.366                                    20656954.532 6  84586829.67506       943.201 6        38.805    20656954.513 7  84586824.67807       943.218 7        47.337
E09        11.000    23676723.488 8 124422069.38508       291.019 8        48.798                                                                    23676722.782 8  92912601.19008       217.309 8        50.633    23676722.314 8  95336407.43208       223.006 8        50.821
S27        12.000    39209021.106 5 206044775.11405      -393.324 5        35.652
G06        13.000    23683208.375 6 124456126.22006      2847.685 6        40.324                                    23683207.454 6  96978803.27106      2218.976 6        37.047    23683208.099 6  96978814.26206      2219.072 6        40.470
S36        14.000    38343213.759 7 201495437.16407      -403.537 7        43.793
E36        16.000    23536242.215 8 123683816.17608      -228.360 8        48.016                                                                    23536242.350 8  92361308.57808      -170.512 8        50.771    23536242.113 8  94770728.73908      -174.968 8        50.989
S45        17.000    63538987.347 6 333900417.05106      -443.475 6        37.410
G03        18.000    20178633.378 8 106039490.36408     -1110.031 8        49.996                                    20178631.089 8  82628193.82808      -864.959 8        51.872    20178631.714 7  82628202.82607      -864.932 7        45.849
R21        19.000    19569436.654 8 104720044.99108     -1186.621 8        52.800                                                                    19569434.989 7  81448933.64007      -922.984 7        45.902
R20        20.000    21974780.855 5 117509059.92805     -4553.781 5        35.714                                                                    21974782.354 7  91395932.07607     -3542.035 7        43.947
R05        21.000    21252194.875 8 113605204.58908     -3480.282 8        48.454                                                                    21252194.573 7  88359608.45407     -2706.901 7        45.296
I06        22.000    38247339.457 7 150091003.64607      -216.263 7        42.681
S28        23.000    41011999.216 5 215519506.46505      -397.121 5        33.934
E10        24.000    27521582.579 6 144627005.45606     -3372.773 6        39.249                                                                    27521582.614 7 108000749.98807     -2518.615 7        43.446    27521582.559 7 110818151.69807     -2584.374 7        44.138
S23        25.000    38290902.880 7 201220059.63507      -399.643 7        44.123
E06        26.000    23619113.224 8 124119338.30208     -1036.077 8        48.054                                                                    23619112.602 8  92686518.57908      -773.695 8        50.908    23619112.561 8  95104426.23608      -793.867 8        51.190
R15        27.000    23277710.380 7 124389027.22007      2209.970 7        45.693                                                                    23277710.837 6  96747031.77006      1718.914 6        40.365
C22        30.000                                                                                                                                    26619567.870 6 138615069.80306      2501.426 6        38.718                                                                    26619562.863 6 112636079.12906      2032.511 6        39.336
I01        31.000   333734169.331 7   6503754.27507     -2600.540 7        43.141
G02        32.000    22677460.880 7 119170894.95307     -3237.614 7        45.123                                    22677454.629 5  92860432.45505     -2522.812 5        34.824
G19        33.000    22422619.803 7 117831694.02807      -314.127 7        44.333                                    22422613.508 5  91816925.41205      -244.770 5        32.162
G17        34.000    22843641.041 7 120044194.24507     -2067.656 7        45.220                                    22843637.020 6  93540940.12806     -1611.159 6        41.588    22843637.372 6  93540940.13106     -1611.134 6        40.322
E11        35.000    25034073.065 7 131555003.72007     -2733.506 7        42.711                                                                    25034069.054 7  98239143.09207     -2041.277 7        44.488    25034068.927 7 100801896.01807     -2094.479 7        44.697
C32        36.000                                                                                                                                    26105723.929 6 135939371.79106     -3258.246 6        41.895                                                                    26105724.121 6 110461883.47506     -2647.732 6        41.990
