     3.04           OBSERVATION DATA    M                   RINEX VERSION / TYPE
ssrcrin-15.6.1x                         20250101 014500 UTC PGM / RUN BY / DATE 
(00000000023479385599111004) Septentrio proprietary         COMMENT             
rref                                                        MARKER NAME         
01                                                          MARKER NUMBER       
geodetic                                                    MARKER TYPE         
NFB                 CLIMERS@TUW                             OBSERVER / AGENCY   
3297213             SEPT ASTERX SB3 PROB4.14.4              REC # / TYPE / VERS 
Unknown             Unknown                                 ANT # / TYPE        
  4127831.4982  1207193.0159  4695247.2718                  APPROX POSITION XYZ 
        0.0000        0.0000        0.0000                  ANTENNA: DELTA H/E/N
G   23 X1  C1C L1C D1C S1C C1W S1W C2W L2W D2W S2W C2L L2L  SYS / # / OBS TYPES 
       D2L S2L C5Q L5Q D5Q S5Q C1L L1L D1L S1L              SYS / # / OBS TYPES 
E   21 X1  C1C L1C D1C S1C C6C L6C D6C S6C C5Q L5Q D5Q S5Q  SYS / # / OBS TYPES 
       C7Q L7Q D7Q S7Q C8Q L8Q D8Q S8Q                      SYS / # / OBS TYPES 
S    9 X1  C1C L1C D1C S1C C5I L5I D5I S5I                  SYS / # / OBS TYPES 
R   17 X1  C1C L1C D1C S1C C2P L2P D2P S2P C2C L2C D2C S2C  SYS / # / OBS TYPES 
       C3Q L3Q D3Q S3Q                                      SYS / # / OBS TYPES 
C   25 X1  C1P L1P D1P S1P C5P L5P D5P S5P C2I L2I D2I S2I  SYS / # / OBS TYPES 
       C7I L7I D7I S7I C6I L6I D6I S6I C7D L7D D7D S7D      SYS / # / OBS TYPES 
J   17 X1  C1C L1C D1C S1C C2L L2L D2L S2L C5Q L5Q D5Q S5Q  SYS / # / OBS TYPES 
       C1L L1L D1L S1L                                      SYS / # / OBS TYPES 
I    5 X1  C5A L5A D5A S5A                                  SYS / # / OBS TYPES 
SEPTENTRIO RECEIVERS OUTPUT ALIGNED CARRIER PHASES.         COMMENT             
NO FURTHER PHASE SHIFT APPLIED IN THE RINEX ENCODER.        COMMENT             
G L1C                                                       SYS / PHASE SHIFT   
G L2W                                                       SYS / PHASE SHIFT   
G L2L  0.00000                                              SYS / PHASE SHIFT   
G L5Q  0.00000                                              SYS / PHASE SHIFT   
G L1L  0.00000                                              SYS / PHASE SHIFT   
E L1C  0.00000                                              SYS / PHASE SHIFT   
E L6C  0.00000                                              SYS / PHASE SHIFT   
E L5Q  0.00000                                              SYS / PHASE SHIFT   
E L7Q  0.00000                                              SYS / PHASE SHIFT   
E L8Q  0.00000                                              SYS / PHASE SHIFT   
S L1C                                                       SYS / PHASE SHIFT   
S L5I                                                       SYS / PHASE SHIFT   
R L1C                                                       SYS / PHASE SHIFT   
R L2P  0.00000                                              SYS / PHASE SHIFT   
R L2C                                                       SYS / PHASE SHIFT   
R L3Q  0.00000                                              SYS / PHASE SHIFT   
C L1P  0.00000                                              SYS / PHASE SHIFT   
C L5P  0.00000                                              SYS / PHASE SHIFT   
C L2I                                                       SYS / PHASE SHIFT   
C L7I                                                       SYS / PHASE SHIFT   
C L6I                                                       SYS / PHASE SHIFT   
C L7D                                                       SYS / PHASE SHIFT   
J L1C                                                       SYS / PHASE SHIFT   
J L2L  0.00000                                              SYS / PHASE SHIFT   
J L5Q  0.00000                                              SYS / PHASE SHIFT   
J L1L  0.00000                                              SYS / PHASE SHIFT   
I L5A                                                       SYS / PHASE SHIFT   
  2025     1     1     1    45    0.0000000     GPS         TIME OF FIRST OBS   
 C1C    0.000 C2C    0.000 C2P    0.000                     GLONASS COD/PHS/BIS 
DBHZ                                                        SIGNAL STRENGTH UNIT
    18                                                      LEAP SECONDS        
 24 R01  1 R02 -4 R03  5 R04  6 R05  1 R06 -4 R07  5 R08  6 GLONASS SLOT / FRQ #
    R09 -2 R10 -7 R11  0 R12 -1 R13 -2 R14 -7 R15  0 R16 -1 GLONASS SLOT / FRQ #
    R17  4 R18 -3 R19  3 R20  2 R21  4 R22 -3 R23  3 R24  2 GLONASS SLOT / FRQ #
                                                            END OF HEADER       
> 2025 01 01 01 45  0.0000000  0 52
G28         1.000    23425950.723 7 123104216.81507     -1662.371 7        42.118                                    23425946.665 4  95925345.28904     -1295.351 4        28.654    23425947.840 6  95925351.29106     -1295.468 6        41.981
G31         2.000    22315724.142 7 117269934.84407       165.357 7        45.199                                    22315719.114 7  91379157.69307       128.846 7        42.391    22315720.202 6  91379156.69706       128.881 6        41.828
G09         3.000    22736864.696 7 119483061.56907      2901.481 7        43.718                                    22736863.023 7  93103692.15707      2260.895 7        42.554    22736863.070 6  93103693.15606      2260.814 6        41.213
E34         4.000    26582861.496 6 139693886.19106      2248.147 6        40.839                                                                    26582861.802 7 104316869.95107      1678.793 7        44.042    26582861.452 7 107038179.02107      1722.647 7        45.105
S21         5.000    38504268.797 7 202341110.05807      -410.927 7        42.375
E05         6.000    25445076.304 6 133714801.17406      2500.533 6        40.141                                                                    25445077.784 7  99851985.18107      1867.339 7        42.891    25445077.385 7 102456812.37907      1916.011 7        44.373
G21         7.000    23770373.791 6 124914209.12306     -3487.468 6        39.793                                    23770369.431 4  97335749.55804     -2717.505 4        24.962
E04         8.000    24505597.996 7 128777811.08107     -2053.919 7        45.228                                                                    24505596.188 8  96165253.65308     -1533.708 8        48.533    24505595.941 8  98673904.36208     -1573.753 8        49.945
R14         9.000    23274881.195 7 124068218.42207      -109.262 7        45.136                                                                    23274882.573 6  96497492.16906       -84.985 6        40.377
G04        10.000    20908811.062 7 109876585.62307      1664.490 7        47.081                                    20908808.019 6  85618127.13006      1297.004 6        37.701    20908808.261 7  85618122.12907      1296.979 7        46.283
E09        11.000    23758427.677 8 124851427.58808       645.037 8        48.263                                                                    23758427.211 8  93233225.49708       481.687 8        50.333    23758426.784 8  95665395.89308       494.289 8        51.138
S27        12.000    39139518.547 5 205679554.58705      -398.662 5        35.962
G06        13.000    24196421.932 6 127153077.13406      3005.577 6        38.715                                    24196420.726 5  99080322.98205      2342.005 5        34.595    24196421.852 6  99080333.99006      2341.971 6        38.604
S36        14.000    38271705.815 7 201119659.26607      -411.086 7        44.077
E27        15.000    29033301.914 5 152571023.25205      -746.410 5        35.205                                                                    29033301.987 6 113932913.60606      -557.510 6        38.312    29033301.788 6 116905074.27506      -571.765 6        39.547
E36        16.000    23527273.152 7 123636683.37707       123.852 7        47.947                                                                    23527273.201 8  92326112.09608        92.527 8        50.595    23527273.051 8  94734614.07608        94.860 8        51.617
S45        17.000    63468370.509 6 333529690.29606      -451.344 6        37.656
G03        18.000    20015590.509 8 105182695.35108      -749.231 8        49.892                                    20015588.377 8  81960561.46108      -583.817 8        52.205    20015588.992 7  81960570.47507      -583.901 7        45.971
R21        19.000    19436733.746 8 104009928.99908      -355.759 8        52.317                                                                    19436732.025 7  80896621.50707      -276.692 7        45.982
R20        20.000    21223370.473 6 113490938.33606     -4160.727 6        37.879                                                                    21223372.325 7  88270727.20207     -3236.049 7        44.629
R05        21.000    20672284.274 8 110505249.14808     -3243.662 8        49.952                                                                    20672283.780 7  85948532.23207     -2522.795 7        45.840
I06        22.000    38196249.002 7 149890513.29207      -217.841 7        42.866
S28        23.000    40941632.033 5 215149732.42305      -404.551 5        34.052
E10        24.000    26941688.908 6 141579646.52906     -3244.730 6        39.622                                                                    26941688.780 7 105725125.64507     -2422.747 7        44.315    26941688.018 7 108483163.14907     -2486.079 7        45.342
S23        25.000    38220075.156 7 200847862.50107      -407.221 7        44.445
E06        26.000    23467484.538 7 123322524.87407      -689.383 7        47.884                                                                    23467484.049 8  92091495.60408      -514.817 8        50.447    23467483.858 8  94493880.92208      -528.228 8        51.381
R15        27.000    23698525.744 7 126637731.54207      2659.097 7        43.299                                                                    23698526.326 6  98496022.92406      2068.166 6        39.363
G02        32.000    22137204.004 7 116331830.16307     -2924.144 7        47.769                                    22137197.665 6  90648174.77006     -2278.555 6        37.418
G19        33.000    22424290.124 7 117840470.75007       334.198 7        43.854                                    22424283.683 5  91823764.57605       260.417 5        32.305
G17        34.000    22521899.026 7 118353430.40007     -1596.101 7        45.332                                    22521894.813 7  92223462.23207     -1243.716 7        42.849    22521895.287 6  92223462.23106     -1243.609 6        41.447
E11        35.000    24578010.658 7 129158382.53607     -2470.757 7        43.264                                                                    24578006.617 7  96449459.12207     -1844.986 7        44.972    24578006.328 7  98965524.55507     -1893.144 7        45.923
C32        36.000                                                                                                                                    25531388.357 7 132948659.07707     -3236.835 7        42.792                                                                    25531388.798 7 108031684.96607     -2630.177 7        43.898
C35        37.000                                                                                                                                    23192219.598 8 120767990.31108       588.034 8        48.301                                                                    23192217.834 7  98133884.29807       477.806 7        47.738
I09        38.000    37272234.729 7 146264251.59507      -457.742 7        43.602
C29        39.000                                                                                                                                    23004068.083 8 119788218.01908     -2829.466 8        48.979                                                                    23004065.894 7  97337733.10607     -2299.227 7        47.710
R22        40.000    22332910.122 7 119214622.91107      3359.092 7        47.366                                                                    22332908.642 7  92722498.31607      2612.725 7        44.150
S44        42.000    40693655.142 6 213846790.55706      -486.735 6        38.009
C09        43.000                                                                                                                                    38795379.774 7 202017741.38907       275.385 7        42.152    38795375.626 7 156212922.97307       212.896 7        45.880    38795373.849 7 164155943.56807       223.696 7        42.078
C05        44.000                                                                                                                                    39189523.565 6 204070165.52806      -418.991 6        38.228    39189518.576 7 157800020.60507      -323.969 7        43.464    39189519.895 6 165823828.56406      -340.360 6        39.985
R06        45.000    19879501.860 6 106080883.08606      1095.593 6        40.617
C44        46.000                                                                                                                                    26200672.296 6 136433786.95806      2515.961 6        39.517                                                                    26200672.688 6 110863626.12506      2044.378 6        40.682
C39        47.000                                                                                                                                    39027429.467 6 203226078.23106      -781.349 6        41.852                                                                    39027425.784 7 165137824.53607      -634.968 7        42.990
C20        48.000                                                                                                                                    22017366.252 8 114650251.10308     -1225.612 8        52.053                                                                    22017360.350 8  93162712.52008      -995.995 8        49.761
C06        49.000                                                                                                                                    38344166.090 6 199668159.01406      -225.907 6        41.013    38344160.539 7 154396069.26107      -174.598 7        44.169    38344160.653 6 162246713.70106      -183.492 6        41.852
C16        50.000                                                                                                                                    38797270.484 7 202027583.79807      -340.678 7        42.959    38797270.352 7 156220551.65607      -263.398 7        43.718    38797267.729 6 164163958.89906      -276.911 6        40.100
S48        51.000    77255263.490 6 405979361.97806      -408.711 6        37.512
C19        52.000                                                                                                                                    23003986.249 8 119787851.08508      1377.952 8        49.005                                                                    23003981.689 8  97337443.98608      1119.694 8        49.108
C60        54.000                                                                                                                                    40693656.016 6 211902748.25906      -482.403 6        39.387                                                                    40693640.877 6 172188309.85906      -391.898 6        40.377
C37        56.000                                                                                                                                    26117944.333 6 136002996.35006      1940.198 6        40.253                                                                    26117948.735 7 110513590.84307      1576.434 7        42.027
C02        57.000                                                                                                                                    40649301.156 5 211671625.78505      -465.003 5        33.844    40649294.831 6 163677921.50306      -359.179 6        40.048    40649298.153 5 172000537.63205      -378.010 5        35.267
I03        58.000   132370431.237 6 443664760.09306       950.526 6        40.784
R07        59.000    23187257.452 7 124123207.94707      3127.395 7        44.731                                                                    23187256.724 6  96540268.99706      2432.403 6        38.345
> 2025 01 01 01 45  5.0000000  0 52
G28         1.000    23427533.823 6 123112536.96806     -1665.341 6        41.871                                    23427530.040 4  95931828.52204     -1297.666 4        28.645    23427530.869 7  95931834.51207     -1297.599 7        42.288
G31         2.000    22315568.650 7 117269116.61607       162.242 7        45.035                                    22315563.452 7  91378520.11907       126.422 7        42.425    22315563.789 6  91378519.12806       126.465 6        41.647
G09         3.000    22734104.820 7 119468557.47707      2900.531 7        43.014                                    22734103.008 7  93092390.27307      2260.152 7        42.506    22734103.509 6  93092391.27506      2260.234 6        41.945
E34         4.000    26580722.914 6 139682646.81606      2247.958 6        41.011                                                                    26580722.971 7 104308476.91307      1678.614 7        44.078    26580722.669 7 107029567.03207      1722.507 7        45.007
S21         5.000    38504658.212 7 202343164.41607      -410.466 7        42.455
E05         6.000    25442697.448 6 133702299.92506      2500.295 6        39.691                                                                    25442698.812 7  99842649.84807      1867.184 7        42.880    25442698.487 7 102447233.50807      1915.869 7        44.271
G21         7.000    23773692.340 6 124931647.84006     -3487.989 6        40.164                                    23773687.617 4  97349338.17404     -2717.915 4        25.143
E04         8.000    24507552.840 7 128788084.33807     -2055.071 7        45.022                                                                    24507551.114 8  96172925.24108     -1534.625 8        48.556    24507550.897 8  98681776.07608     -1574.679 8        49.857
R14         9.000    23274985.772 7 124068775.00907      -113.092 7        45.102                                                                    23274986.666 6  96497925.02206       -87.947 6        40.827
G04        10.000    20907228.678 7 109868268.88107      1662.446 7        46.683                                    20907225.409 6  85611646.55306      1295.412 6        37.690    20907225.584 7  85611641.54707      1295.490 7        46.313
E09        11.000    23757815.162 8 124848207.30208       643.346 8        48.237                                                                    23757814.355 8  93230820.74108       480.520 8        50.306    23757813.976 8  95662928.40608       493.029 8        51.113
S27        12.000    39139901.045 6 205681547.68206      -398.137 6        36.163
G06        13.000    24193562.432 6 127138050.80706      3005.354 6        39.390                                    24193561.311 5  99068614.15405      2341.835 5        34.695    24193562.229 6  99068625.14306      2341.825 6        38.784
S36        14.000    38272099.108 7 201121714.49107      -410.813 7        43.998
E27        15.000    29034013.106 5 152574761.17105      -748.423 5        34.595                                                                    29034013.649 6 113935704.95706      -558.934 6        38.066    29034012.971 6 116907938.46106      -573.329 6        39.435
E36        16.000    23527156.271 8 123636068.78808       122.355 8        48.047                                                                    23527156.213 8  92325653.14908        91.369 8        50.559    23527156.084 8  94734143.15908        93.730 8        51.598
S45        17.000    63468756.383 6 333531946.78106      -450.917 6        37.512
G03        18.000    20016304.242 8 105186446.32908      -750.901 8        49.854                                    20016302.169 8  81963484.29808      -585.118 8        52.186    20016302.795 7  81963493.29907      -585.124 7        46.000
R21        19.000    19437068.494 8 104011718.75408      -359.882 8        52.604                                                                    19437066.783 7  80898013.53907      -279.988 7        45.869
R20        20.000    21227262.114 6 113511747.58006     -4162.708 6        37.618                                                                    21227263.958 7  88286912.16907     -3237.727 7        44.366
R05        21.000    20675319.127 8 110521470.88908     -3244.799 8        49.707                                                                    20675318.066 7  85961149.14007     -2523.727 7        45.583
I06        22.000    38196526.396 7 149891602.31107      -217.623 7        42.969
S28        23.000    40942016.808 5 215151753.86205      -403.856 5        34.495
E10        24.000    26944776.414 6 141595871.24706     -3245.040 6        39.661                                                                    26944776.182 7 105737241.52107     -2423.244 7        44.292    26944775.456 7 108495595.08307     -2486.522 7        45.201
S23        25.000    38220463.637 7 200849897.97407      -406.830 7        44.253
E06        26.000    23468141.431 7 123325976.69807      -691.020 7        47.668                                                                    23468140.903 8  92094073.26108      -516.021 8        50.462    23468140.766 8  94496525.82208      -529.457 8        51.262
R15        27.000    23696038.198 7 126624441.48507      2657.198 7        43.073                                                                    23696039.334 6  98485686.22906      2066.852 6        39.604
G02        32.000    22139987.069 7 116346455.36007     -2925.648 7        47.464                                    22139980.772 6  90659571.02206     -2279.727 6        37.365
G19        33.000    22423973.401 7 117838808.36407       330.995 7        43.809                                    22423967.378 5  91822469.21105       257.919 5        32.395
G17        34.000    22523419.395 7 118361417.74007     -1598.566 7        44.921                                    22523414.744 7  92229686.13107     -1245.637 7        42.781    22523415.253 6  92229686.13306     -1245.647 6        41.785
E11        35.000    24580362.056 7 129170739.82607     -2471.962 7        42.918                                                                    24580357.990 7  96458686.96407     -1845.824 7        45.067    24580357.932 7  98974993.12407     -1893.979 7        45.905
C32        36.000                                                                                                                                    25534496.312 7 132964843.56607     -3236.660 7        42.965                                                                    25534496.715 7 108044836.18107     -2630.029 7        43.663
C35        37.000                                                                                                                                    23191655.924 8 120765056.45408       585.806 8        48.332                                                                    23191654.460 7  98131500.29507       475.977 7        47.611
I09        38.000    37272818.319 7 146266540.71907      -457.660 7        43.397
C29        39.000                                                                                                                                    23006785.817 8 119802370.00708     -2831.001 8        48.842                                                                    23006783.592 7  97349232.75007     -2300.538 7        47.574
R22        40.000    22329765.410 7 119197831.96707      3357.600 7        47.020                                                                    22329763.966 7  92709438.70307      2611.434 7        44.039
S44        42.000    40694121.666 6 213849224.17706      -486.379 6        38.171
C09        43.000                                                                                                                                    38795116.004 7 202016366.89507       274.875 7        42.245    38795111.817 7 156211860.13907       212.521 7        45.732    38795109.972 6 164154826.67406       223.316 6        41.917
C05        44.000                                                                                                                                    39189925.371 6 204072259.57806      -418.505 6        38.168    39189920.566 7 157801639.85207      -323.553 7        43.348    39189922.055 6 165825530.15906      -340.152 6        39.724
R06        45.000    19878476.109 6 106075411.26306      1093.378 6        40.386
C44        46.000                                                                                                                                    26198256.847 6 136421209.52606      2515.165 6        39.063                                                                    26198257.230 6 110853405.95006      2043.759 6        40.434
C39        47.000                                                                                                                                    39028180.182 6 203229987.32706      -781.884 6        41.783                                                                    39028176.404 7 165141001.00407      -635.423 7        42.895
C20        48.000                                                                                                                                    22018543.787 8 114656382.98208     -1226.852 8        52.214                                                                    22018537.910 8  93167695.17208      -996.948 8        49.808
C06        49.000                                                                                                                                    38344383.699 6 199669290.13406      -226.409 6        40.901    38344378.224 7 154396943.91507      -175.021 7        44.324    38344377.898 6 162247632.82706      -184.033 6        41.709
C16        50.000                                                                                                                                    38797597.849 7 202029289.85407      -341.408 7        42.872    38797598.032 7 156221870.88607      -263.957 7        43.727    38797595.380 6 164165345.20606      -277.363 6        39.706
S48        51.000    77255650.643 6 405981405.68306      -408.491 6        37.410
C19        52.000                                                                                                                                    23002663.787 8 119780964.69808      1376.880 8        49.011                                                                    23002659.275 8  97331848.23908      1118.804 8        49.052
C60        54.000                                                                                                                                    40694119.142 6 211905159.75906      -482.053 6        39.631                                                                    40694103.958 6 172190269.38606      -391.716 6        40.205
C37        56.000                                                                                                                                    26116082.043 6 135993298.50806      1939.308 6        39.946                                                                    26116086.376 6 110505710.55906      1575.786 6        41.967
C02        57.000                                                                                                                                    40649746.695 5 211673949.05405      -464.225 5        33.844    40649741.116 6 163679717.99906      -358.809 6        39.784    40649744.260 5 172002425.46705      -377.449 5        35.305
I03        58.000   132369219.546 6 443660007.11806       950.817 6        40.677
R07        59.000    23184336.809 7 124107573.84107      3126.550 7        44.974                                                                    23184336.724 6  96528109.15006      2431.821 6        38.943
> 2025 01 01 01 45 10.0000000  0 52
G28         1.000    23429120.351 7 123120872.94107     -1668.623 7        42.398                                    23429116.375 4  95938324.07704     -1300.230 4        28.569    23429116.754 7  95938330.07707     -1300.215 7        42.370
G31         2.000    22315415.933 7 117268316.20407       158.538 7        45.254                                    22315411.198 7  91377896.42007       123.538 7        42.508    22315411.648 6  91377895.42006       123.471 6        41.514
G09         3.000    22731345.692 7 119454060.31507      2898.841 7        43.225                                    22731344.276 7  93081093.78507      2258.834 7        42.567    22731344.094 6  93081094.78406      2258.927 6        41.609
E34         4.000    26578584.460 6 139671410.46106      2247.213 6        40.963                                                                    26578584.720 7 104300086.11707      1678.203 7        44.182    26578584.400 7 107020957.36107      1721.824 7        44.938
S21         5.000    38505050.767 7 202345219.07707      -410.772 7        42.519
E05         6.000    25440319.168 6 133689802.35506      2499.514 6        39.294                                                                    25440320.493 7  99833317.26407      1866.392 7        43.062    25440320.281 7 102437657.46607      1915.097 7        44.232
G21         7.000    23777011.696 6 124949091.02106     -3488.838 6        40.226                                    23777006.688 4  97362930.25704     -2718.586 4        25.353
E04         8.000    24509509.278 7 128798365.31707     -2056.771 7        45.011                                                                    24509507.482 8  96180602.59108     -1535.859 8        48.704    24509507.262 8  98689653.70608     -1575.955 8        49.775
R14         9.000    23275093.805 7 124069352.45907      -117.429 7        44.962                                                                    23275095.343 6  96498374.11506       -91.331 6        40.467
G04        10.000    20905648.075 7 109859964.44607      1659.853 7        47.131                                    20905645.147 6  85605175.56806      1293.390 6        37.784    20905645.494 7  85605170.56307      1293.397 7        46.515
E09        11.000    23757204.178 8 124844997.00308       641.264 8        48.160                                                                    23757203.482 8  93228423.44608       478.872 8        50.548    23757203.054 8  95660468.56608       491.381 8        50.965
S27        12.000    39140280.659 5 205683540.62405      -398.327 5        35.971
G06        13.000    24190703.683 6 127123028.16206      3004.463 6        38.745                                    24190702.617 5  99056908.19605      2341.138 5        34.833    24190703.201 6  99056919.19006      2341.042 6        38.607
S36        14.000    38272489.597 7 201123770.15007      -411.099 7        44.065
E27        15.000    29034726.402 5 152578510.80105      -751.007 5        34.810                                                                    29034727.133 6 113938505.06906      -560.732 6        38.024    29034726.709 6 116910811.60906      -575.209 6        39.231
E36        16.000    23527041.002 8 123635463.76408       120.238 8        48.004                                                                    23527041.079 8  92325201.34608        89.839 8        50.782    23527041.001 8  94733679.56708        92.171 8        51.464
S45        17.000    63469139.914 6 333532603.38916      -451.110 6        37.240
G03        18.000    20017019.971 8 105190207.56008      -753.129 8        49.924                                    20017017.910 8  81966415.12708      -586.852 8        52.246    20017018.383 7  81966424.12807      -586.846 7        45.968
R21        19.000    19437407.290 8 104013531.30208      -364.623 8        52.477                                                                    19437405.958 7  80899423.28307      -283.584 7        46.292
R20        20.000    21231156.235 6 113532569.37006     -4165.196 6        37.656                                                                    21231158.027 7  88303106.88107     -3239.678 7        44.551
R05        21.000    20678354.992 8 110537700.55008     -3246.478 8        49.736                                                                    20678354.351 7  85973772.20507     -2525.074 7        45.813
I06        22.000    38196804.144 7 149892691.53507      -217.761 7        43.041
S28        23.000    40942403.755 5 215153775.19605      -404.276 5        34.529
E10        24.000    26947864.378 6 141612100.21006     -3245.977 6        39.778                                                                    26947864.430 7 105749360.54207     -2424.012 7        44.334    26947863.911 7 108508030.25107     -2487.226 7        45.150
S23        25.000    38220849.515 7 200851933.67007      -406.964 7        44.117
E06        26.000    23468800.302 7 123329438.64107      -693.212 7        47.637                                                                    23468799.721 8  92096658.47708      -517.650 8        50.623    23468799.517 8  94499178.47708      -531.134 8        51.194
R15        27.000    23693553.411 7 126611162.19707      2655.001 7        43.947                                                                    23693555.004 6  98475357.89306      2065.006 6        39.318
G02        32.000    22142772.018 7 116361090.06707     -2927.704 7        46.984                                    22142765.748 6  90670974.68606     -2281.325 6        37.403
G19        33.000    22423660.271 7 117837163.79007       327.391 7        43.966                                    22423654.409 5  91821187.72005       255.104 5        32.473
G17        34.000    22524941.736 7 118369418.96807     -1601.436 7        45.260                                    22524937.336 7  92235920.85107     -1247.870 7        42.900    22524937.570 6  92235920.84406     -1247.854 6        41.366
E11        35.000    24582715.205 7 129183104.87107     -2473.644 7        42.954                                                                    24582711.081 7  96467920.59807     -1847.121 7        45.159    24582710.935 7  98984467.62907     -1895.240 7        45.732
C32        36.000                                                                                                                                    25537604.819 7 132981029.32307     -3237.143 7        43.107                                                                    25537604.862 7 108057988.42707     -2630.458 7        43.579
C35        37.000                                                                                                                                    23191094.785 8 120762136.20508       582.885 8        48.385                                                                    23191093.645 7  98129127.34707       473.549 7        47.604
I09        38.000    37273401.540 7 146268830.68507      -457.862 7        43.606
C29        39.000                                                                                                                                    23009505.425 8 119816532.04008     -2833.184 8        48.949                                                                    23009503.294 7  97360740.54807     -2302.226 7        47.523
R22        40.000    22326621.879 7 119181050.34907      3355.705 7        47.125                                                                    22326619.909 7  92696386.33907      2609.872 7        43.860
S44        42.000    40694586.245 6 213851657.98206      -486.519 6        38.189
C09        43.000                                                                                                                                    38794852.679 7 202014996.81307       273.772 7        42.491    38794848.735 7 156210800.69307       211.658 7        45.831    38794846.859 6 164153713.36106       222.396 6        41.945
C05        44.000                                                                                                                                    39190327.285 6 204074353.91406      -418.727 6        38.231    39190322.757 7 157803259.31807      -323.709 7        43.259    39190324.089 6 165827231.95106      -340.280 6        39.835
R06        45.000    19877453.621 6 106069953.20406      1090.448 6        40.520
C44        46.000                                                                                                                                    26195843.337 6 136408638.17506      2513.844 6        39.661                                                                    26195842.974 6 110843190.72006      2042.657 6        40.603
C39        47.000                                                                                                                                    39028931.683 6 203233900.71306      -782.900 6        41.735                                                                    39028927.896 7 165144180.94807      -636.224 7        42.914
C20        48.000                                                                                                                                    22019723.025 8 114662523.05008     -1228.602 8        52.282                                                                    22019717.002 8  93172684.47908      -998.396 8        49.665
C06        49.000                                                                                                                                    38344601.822 6 199670425.96606      -227.467 6        41.008    38344596.185 7 154397822.21507      -175.885 7        44.376    38344595.919 6 162248555.77506      -184.843 6        41.709
C16        50.000                                                                                                                                    38797926.509 7 202031000.45107      -342.460 7        43.100    38797926.436 7 156223193.62407      -264.649 7        43.706    38797923.914 6 164166735.18706      -278.095 6        39.808
S48        51.000    77256034.693 6 405983449.42706      -408.832 6        37.353
C19        52.000                                                                                                                                    23001342.659 8 119774085.70408      1375.244 8        49.090                                                                    23001338.155 8  97326258.48808      1117.480 8        48.976
C60        54.000                                                                                                                                    40694582.112 6 211907571.43206      -482.246 6        39.673                                                                    40694567.272 6 172192229.07706      -391.831 6        40.303
C37        56.000                                                                                                                                    26114221.782 6 135983607.11506      1937.907 6        40.024                                                                    26114225.346 7 110497835.49507      1574.656 7        42.013
C02        57.000                                                                                                                                    40650192.391 5 211676272.59405      -464.323 5        33.689    40650187.071 6 163681514.73206      -359.256 6        39.742    40650190.487 5 172004313.53505      -377.511 5        34.886
I03        58.000   132368008.785 6 443655254.44506       950.572 6        40.770
R07        59.000    23181417.433 7 124091945.65707      3125.235 7        45.788                                                                    23181418.137 6  96515953.89206      2430.775 6        38.504
> 2025 01 01 01 45 15.0000000  0 52
G28         1.000    23430709.673 7 123129223.96007     -1671.742 7        42.123                                    23430705.603 4  95944831.36604     -1302.656 4        28.493    23430705.879 6  95944837.34806     -1302.536 6        41.635
G31         2.000    22315267.123 7 117267532.81607       154.980 7        45.240                                    22315262.168 7  91377285.98907       120.762 7        42.317    22315262.761 6  91377284.97206       120.840 6        41.063
G09         3.000    22728588.571 7 119439569.24307      2897.761 7        43.281                                    22728586.689 7  93069802.05107      2257.993 7        42.463    22728586.610 6  93069803.05506      2258.006 6        41.173
E34         4.000    26576446.714 6 139660176.36506      2246.673 6        41.039                                                                    26576446.925 7 104291697.02007      1677.720 7        44.349    26576446.755 7 107012349.41407      1721.448 7        45.014
S21         5.000    38505441.784 7 202347273.18907      -410.816 7        42.445
E05         6.000    25437941.202 6 133677307.70806      2498.666 6        39.096                                                                    25437942.735 7  99823986.85607      1865.810 7        43.050    25437942.602 7 102428083.64607      1914.607 7        44.193
G21         7.000    23780331.429 6 124966537.80206     -3489.641 6        39.598                                    23780326.358 4  97376525.15104     -2719.203 4        24.722
E04         8.000    24511467.087 7 128808653.23407     -2058.267 7        45.260                                                                    24511465.263 8  96188285.12908     -1536.966 8        48.857    24511465.005 8  98697536.65908     -1577.105 8        49.773
R14         9.000    23275206.185 7 124069950.23107      -121.499 7        45.985                                                                    23275206.677 6  96498839.03206       -94.597 6        40.334
G04        10.000    20904070.258 7 109851671.54607      1657.466 7        46.980                                    20904067.058 6  85598713.56806      1291.532 6        37.607    20904067.247 7  85598708.56707      1291.493 7        46.196
E09        11.000    23756595.021 8 124841795.91908       639.373 8        48.281                                                                    23756594.354 8  93226033.02508       477.429 8        50.576    23756593.940 8  95658015.78808       489.913 8        51.018
S27        12.000    39140661.565 6 205685532.79406      -398.213 6        36.030
G06        13.000    24187845.926 6 127108008.48306      3003.695 6        39.069                                    24187844.472 5  99045204.54505      2340.543 5        34.643    24187845.084 6  99045215.53706      2340.576 6        38.775
S36        14.000    38272877.796 7 201125825.41907      -410.860 7        43.918
E27        15.000    29035441.778 5 152582271.21905      -753.272 5        34.662                                                                    29035442.697 6 113941313.16206      -562.302 6        38.477    29035442.314 6 116913692.96106      -576.990 6        39.234
E36        16.000    23526927.396 8 123634867.53308       118.374 8        48.121                                                                    23526927.625 8  92324756.10808        88.392 8        50.797    23526927.506 8  94733222.71108        90.722 8        51.526
S45        17.000    63469522.908 6 333534859.33406      -451.116 6        37.391
G03        18.000    20017737.481 8 105193978.25008      -755.042 8        49.686                                    20017735.453 8  81969353.32708      -588.348 8        52.118    20017735.819 7  81969362.33107      -588.380 7        45.637
R21        19.000    19437749.603 8 104015365.89508      -369.148 8        52.594                                                                    19437748.044 7  80900850.19607      -287.018 7        45.862
R20        20.000    21235052.205 6 113553402.83706     -4167.885 6        37.720                                                                    21235054.342 7  88319310.69507     -3241.642 7        44.933
R05        21.000    20681392.967 8 110553937.23808     -3247.966 8        50.046                                                                    20681391.736 7  85986400.73707     -2526.160 7        45.664
I06        22.000    38197081.609 7 149893780.41907      -217.706 7        42.929
S28        23.000    40942784.178 5 215155795.90205      -404.324 5        34.138
E10        24.000    26950953.352 6 141628332.62406     -3246.779 6        40.093                                                                    26950953.182 7 105761482.15407     -2424.571 7        44.310    26950953.022 7 108520468.08307     -2487.847 7        45.204
S23        25.000    38221238.417 7 200853968.84107      -406.917 7        44.399
E06        26.000    23469460.661 7 123332909.92707      -695.219 7        47.958                                                                    23469460.260 8  92099250.67008      -519.089 8        50.708    23469460.105 8  94501838.29308      -532.664 8        51.233
R15        27.000    23691070.287 7 126597892.82907      2652.902 7        44.092                                                                    23691071.026 6  98465037.28806      2063.355 6        39.342
G02        32.000    22145558.859 7 116375733.46207     -2929.481 7        47.426                                    22145552.387 6  90682385.12006     -2282.713 6        37.134
G19        33.000    22423350.959 7 117835536.25407       323.903 7        43.985                                    22423344.709 5  91819919.50605       252.395 5        32.234
G17        34.000    22526466.725 7 118377433.28407     -1604.087 7        45.326                                    22526462.432 7  92242165.77007     -1249.938 7        42.690    22526462.545 6  92242165.77506     -1250.058 6        41.380
E11        35.000    24585069.419 7 129195476.90307     -2475.072 7        43.386                                                                    24585065.419 7  96477159.44907     -1848.171 7        45.285    24585065.353 7  98993947.50507     -1896.473 7        45.965
C32        36.000                                                                                                                                    25540713.455 7 132997215.58707     -3237.116 7        42.667                                                                    25540713.472 7 108071141.11107     -2630.634 7        43.374
C35        37.000                                                                                                                                    23190536.389 8 120759228.82008       580.242 8        48.248                                                                    23190535.283 7  98126764.87207       471.441 7        47.677
I09        38.000    37273984.954 7 146271120.92507      -458.020 7        43.452
C29        39.000                                                                                                                                    23012227.010 8 119830703.31908     -2835.139 8        48.950                                                                    23012224.772 7  97372255.88807     -2303.889 7        47.604
R22        40.000    22323479.495 7 119164277.31907      3353.794 7        46.892                                                                    22323477.050 7  92683340.64607      2608.457 7        43.018
S44        42.000    40695046.827 6 213854091.21006      -486.659 6        38.063
C09        43.000                                                                                                                                    38794589.841 7 202013630.32807       272.905 7        42.294    38794586.442 7 156209744.03807       211.119 7        45.741    38794584.417 7 164152602.98907       221.753 7        42.119
C05        44.000                                                                                                                                    39190729.552 6 204076447.72906      -418.623 6        38.228    39190724.922 7 157804878.39607      -323.706 7        43.253    39190726.164 6 165828933.37306      -340.307 6        39.706
R06        45.000    19876432.391 6 106064508.10106      1087.838 6        40.446
C44        46.000                                                                                                                                    26193429.931 6 136396072.10506      2512.666 6        39.721                                                                    26193429.784 6 110832979.78806      2041.635 6        39.955
C39        47.000                                                                                                                                    39029683.827 6 203237817.59306      -783.753 6        41.895                                                                    39029680.122 7 165147363.75107      -636.955 7        42.900
C20        48.000                                                                                                                                    22020903.578 8 114668670.53708     -1230.184 8        52.149                                                                    22020897.558 8  93177679.82408      -999.748 8        49.743
C06        49.000                                                                                                                                    38344820.864 6 199671565.72306      -228.244 6        40.925    38344814.999 7 154398703.55107      -176.577 7        44.460    38344814.931 6 162249481.94406      -185.600 6        41.797
C16        50.000                                                                                                                                    38798256.064 7 202032714.83507      -343.161 7        43.191    38798255.651 7 156224519.29807      -265.402 7        43.424    38798252.995 6 164168128.28106      -278.920 6        39.988
S48        51.000    77256418.546 6 405985492.74806      -408.427 6        37.474
C19        52.000                                                                                                                                    23000022.723 8 119767213.32708      1373.826 8        48.982                                                                    23000018.384 8  97320674.13308      1116.299 8        49.050
C60        54.000                                                                                                                                    40695045.363 6 211909982.54106      -482.215 6        39.489                                                                    40695030.331 6 172194188.30606      -391.901 6        40.307
C37        56.000                                                                                                                                    26112362.136 6 135973921.38806      1936.596 6        40.534                                                                    26112365.451 7 110489965.07507      1573.609 7        42.191
C02        57.000                                                                                                                                    40650640.376 5 211678595.66405      -464.407 5        34.109    40650632.861 6 163683311.06406      -359.171 6        39.619    40650636.764 5 172006201.23805      -377.691 5        35.133
I03        58.000   132366797.464 6 443650501.48506       950.692 6        40.665
R07        59.000    23178499.354 7 124076322.53907      3124.049 7        46.594                                                                    23178498.499 6  96503802.54906      2429.966 6        38.937
> 2025 01 01 01 45 20.0000000  0 52
G28         1.000    23432301.289 7 123137590.20607     -1674.886 7        42.366                                    23432297.711 4  95951350.51704     -1305.106 4        28.455    23432298.075 7  95951356.51707     -1305.098 7        42.438
G31         2.000    22315121.335 7 117266766.63007       151.416 7        45.168                                    22315116.424 7  91376688.96007       117.987 7        42.150    22315117.137 6  91376687.97606       117.985 6        41.998
G09         3.000    22725832.053 7 119425084.52307      2896.171 7        44.262                                    22725830.319 7  93058515.26407      2256.759 7        42.328    22725830.702 6  93058516.26906      2256.779 6        41.824
E34         4.000    26574309.368 6 139648944.71106      2245.962 6        41.337                                                                    26574309.633 7 104283309.76007      1677.144 7        44.304    26574309.364 7 107003743.34507      1720.925 7        44.999
S21         5.000    38505832.219 7 202349327.04407      -410.958 7        42.502
E05         6.000    25435564.613 6 133664816.15906      2497.981 6        39.613                                                                    25435565.811 7  99814658.76607      1865.252 7        42.957    25435565.537 7 102418512.22707      1913.841 7        44.104
G21         7.000    23783652.253 6 124983988.44006     -3490.675 6        39.498                                    23783646.828 4  97390123.05404     -2720.011 4        24.556
E04         8.000    24513426.132 7 128818948.26407     -2059.779 7        45.260                                                                    24513424.308 8  96195972.98308     -1538.191 8        48.805    24513424.063 8  98705425.06008     -1578.304 8        49.703
R14         9.000    23275322.444 7 124070568.27307      -125.822 7        44.659                                                                    23275323.909 6  96499319.72506       -97.870 6        41.273
G04        10.000    20902494.379 7 109843390.37307      1654.943 7        46.649                                    20902491.186 6  85592260.70906      1289.566 6        37.418    20902491.250 7  85592255.71207      1289.524 7        46.398
E09        11.000    23755987.673 8 124838604.23808       637.224 8        48.368                                                                    23755986.994 8  93223649.63308       475.868 8        50.541    23755986.639 8  95655570.22308       488.257 8        50.988
S27        12.000    39141038.612 6 205687524.91206      -398.633 6        36.076
G06        13.000    24184988.435 6 127092991.92506      3002.740 6        39.625                                    24184986.939 5  99033503.33405      2339.798 5        34.476    24184987.356 6  99033514.32806      2339.807 6        38.730
S36        14.000    38273269.215 7 201127879.88307      -410.967 7        44.017
E27        15.000    29036159.474 5 152586042.59405      -755.790 5        33.826                                                                    29036160.484 6 113944129.40806      -564.113 6        38.123    29036159.990 6 116916582.68306      -578.944 6        39.006
E36        16.000    23526815.767 8 123634280.28208       116.412 8        48.195                                                                    23526815.877 8  92324317.57908        86.885 8        50.805    23526815.746 8  94732772.74708        89.173 8        51.468
S45        17.000    63469913.755 6 333537114.80106      -451.165 6        37.694
G03        18.000    20018456.682 8 105197758.60708      -757.231 8        49.860                                    20018454.830 8  81972299.06108      -590.051 8        51.931    20018455.465 7  81972308.05907      -589.965 7        46.115
R21        19.000    19438096.981 8 104017222.65608      -373.741 8        52.490                                                                    19438095.198 7  80902294.34507      -290.697 7        46.210
R20        20.000    21238950.968 6 113574248.18206     -4170.492 6        38.420                                                                    21238952.256 7  88335523.73407     -3243.652 7        45.791
R05        21.000    20684431.675 8 110570181.08408     -3249.625 8        50.044                                                                    20684430.555 7  85999034.84507     -2527.520 7        45.929
I06        22.000    38197358.707 7 149894869.09107      -217.840 7        42.857
S28        23.000    40943166.940 5 215157816.63905      -404.286 5        34.200
E10        24.000    26954043.045 6 141644568.70106     -3247.747 6        39.895                                                                    26954042.793 7 105773606.49107     -2425.225 7        44.226    26954042.808 7 108532908.70407     -2488.511 7        45.099
S23        25.000    38221625.288 7 200856003.33307      -407.010 7        44.238
E06        26.000    23470123.245 7 123336390.73607      -697.209 7        47.754                                                                    23470122.628 8  92101849.98508      -520.692 8        50.716    23470122.453 8  94504505.41508      -534.249 8        51.172
R15        27.000    23688589.439 7 126584633.79507      2650.653 7        44.125                                                                    23688590.317 6  98454724.70606      2061.682 6        39.246
G02        32.000    22148347.111 7 116390385.72607     -2931.486 7        47.271                                    22148340.636 6  90693802.46606     -2284.272 6        36.945
G19        33.000    22423044.612 7 117833925.97607       320.102 7        44.230                                    22423038.229 5  91818664.74705       249.434 5        32.120
G17        34.000    22527994.771 7 118385460.91307     -1606.965 7        45.533                                    22527990.059 7  92248421.06307     -1252.182 7        42.595    22527990.383 6  92248421.06706     -1252.192 6        40.932
E11        35.000    24587425.276 7 129207856.10207     -2476.688 7        43.740                                                                    24587421.222 7  96486403.66907     -1849.517 7        45.339    24587420.909 7  99003432.86807     -1897.693 7        45.687
C32        36.000                                                                                                                                    25543821.979 7 133013402.57507     -3237.543 7        42.106                                                                    25543821.905 7 108084294.35807     -2630.882 7        43.162
C35        37.000                                                                                                                                    23189980.631 8 120756334.49408       577.440 8        48.117                                                                    23189979.398 7  98124413.00807       469.121 7        47.627
I09        38.000    37274569.199 7 146273411.59007      -458.262 7        43.547
C29        39.000                                                                                                                                    23014950.369 8 119844884.02808     -2837.212 8        48.906                                                                    23014948.019 7  97383778.88407     -2305.543 7        47.546
