     3.04           OBSERVATION DATA    M                   RINEX VERSION / TYPE
ssrcrin-15.6.1x                         20250101 023000 UTC PGM / RUN BY / DATE 
(00000000023479385599111004) Septentrio proprietary         COMMENT             
rref                                                        MARKER NAME         
01                                                          MARKER NUMBER       
geodetic                                                    MARKER TYPE         
NFB                 CLIMERS@TUW                             OBSERVER / AGENCY   
3297213             SEPT ASTERX SB3 PROB4.14.4              REC # / TYPE / VERS 
Unknown             Unknown                                 ANT # / TYPE        
  4127831.5831  1207193.2006  4695247.4378                  APPROX POSITION XYZ 
        0.0000        0.0000        0.0000                  ANTENNA: DELTA H/E/N
G   23 X1  C1C L1C D1C S1C C1W S1W C2W L2W D2W S2W C2L L2L  SYS / # / OBS TYPES 
       D2L S2L C5Q L5Q D5Q S5Q C1L L1L D1L S1L              SYS / # / OBS TYPES 
E   21 X1  C1C L1C D1C S1C C6C L6C D6C S6C C5Q L5Q D5Q S5Q  SYS / # / OBS TYPES 
       C7Q L7Q D7Q S7Q C8Q L8Q D8Q S8Q                      SYS / # / OBS TYPES 
S    9 X1  C1C L1C D1C S1C C5I L5I D5I S5I                  SYS / # / OBS TYPES 
R   17 X1  C1C L1C D1C S1C C2P L2P D2P S2P C2C L2C D2C S2C  SYS / # / OBS TYPES 
       C3Q L3Q D3Q S3Q                                      SYS / # / OBS TYPES 
C   25 X1  C1P L1P D1P S1P C5P L5P D5P S5P C2I L2I D2I S2I  SYS / # / OBS TYPES 
       C7I L7I D7I S7I C6I L6I D6I S6I C7D L7D D7D S7D      SYS / # / OBS TYPES 
J   17 X1  C1C L1C D1C S1C C2L L2L D2L S2L C5Q L5Q D5Q S5Q  SYS / # / OBS TYPES 
       C1L L1L D1L S1L                                      SYS / # / OBS TYPES 
I    5 X1  C5A L5A D5A S5A                                  SYS / # / OBS TYPES 
SEPTENTRIO RECEIVERS OUTPUT ALIGNED CARRIER PHASES.         COMMENT             
NO FURTHER PHASE SHIFT APPLIED IN THE RINEX ENCODER.        COMMENT             
G L1C                                                       SYS / PHASE SHIFT   
G L2W                                                       SYS / PHASE SHIFT   
G L2L  0.00000                                              SYS / PHASE SHIFT   
G L5Q  0.00000                                              SYS / PHASE SHIFT   
G L1L  0.00000                                              SYS / PHASE SHIFT   
E L1C  0.00000                                              SYS / PHASE SHIFT   
E L6C  0.00000                                              SYS / PHASE SHIFT   
E L5Q  0.00000                                              SYS / PHASE SHIFT   
E L7Q  0.00000                                              SYS / PHASE SHIFT   
E L8Q  0.00000                                              SYS / PHASE SHIFT   
S L1C                                                       SYS / PHASE SHIFT   
S L5I                                                       SYS / PHASE SHIFT   
R L1C                                                       SYS / PHASE SHIFT   
R L2P  0.00000                                              SYS / PHASE SHIFT   
R L2C                                                       SYS / PHASE SHIFT   
R L3Q  0.00000                                              SYS / PHASE SHIFT   
C L1P  0.00000                                              SYS / PHASE SHIFT   
C L5P  0.00000                                              SYS / PHASE SHIFT   
C L2I                                                       SYS / PHASE SHIFT   
C L7I                                                       SYS / PHASE SHIFT   
C L6I                                                       SYS / PHASE SHIFT   
C L7D                                                       SYS / PHASE SHIFT   
J L1C                                                       SYS / PHASE SHIFT   
J L2L  0.00000                                              SYS / PHASE SHIFT   
J L5Q  0.00000                                              SYS / PHASE SHIFT   
J L1L  0.00000                                              SYS / PHASE SHIFT   
I L5A                                                       SYS / PHASE SHIFT   
  2025     1     1     2    30    0.0000000     GPS         TIME OF FIRST OBS   
 C1C    0.000 C2C    0.000 C2P    0.000                     GLONASS COD/PHS/BIS 
DBHZ                                                        SIGNAL STRENGTH UNIT
    18                                                      LEAP SECONDS        
 24 R01  1 R02 -4 R03  5 R04  6 R05  1 R06 -4 R07  5 R08  6 GLONASS SLOT / FRQ #
    R09 -2 R10 -7 R11  0 R12 -1 R13 -2 R14 -7 R15  0 R16 -1 GLONASS SLOT / FRQ #
    R17  4 R18 -3 R19  3 R20  2 R21  4 R22 -3 R23  3 R24  2 GLONASS SLOT / FRQ #
                                                            END OF HEADER       
> 2025 01 01 02 30  0.0000000  0 56
G28         1.000    24370233.546 6 128066456.32706     -3088.995 6        39.709                                    24370230.392 3  99792024.73703     -2407.012 3        22.476    24370229.793 6  99792030.74706     -2407.081 6        38.748
G31         2.000    22422014.626 7 117828496.80607     -1733.551 7        44.715                                    22422009.949 6  91814401.56206     -1350.819 6        41.349    22422009.445 6  91814400.57006     -1350.880 6        41.254
G09         3.000    21161122.341 7 111202487.24507      2004.994 7        47.253                                    21161120.045 8  86651298.47808      1562.335 8        48.590    21161120.311 7  86651299.48607      1562.227 7        43.623
E34         4.000    25234319.927 7 132607257.15007      1766.169 7        44.119                                                                    25234320.028 7  99024907.92107      1318.853 7        47.273    25234319.686 7 101608165.67307      1353.285 7        47.755
S21         5.000    38408997.148 7 201840451.86707      -384.272 7        42.908
E05         6.000    23972602.500 7 125976912.06407      2028.041 7        43.911                                                                    23972602.790 7  94073695.43007      1514.452 7        46.686    23972602.318 7  96527784.16107      1553.943 7        47.389
G21         7.000    25340133.862 3                     -3716.385 3        20.167
E04         8.000    25432450.650 7 133648454.03707     -2658.711 7        43.045                                                                    25432449.273 7  99802421.65107     -1985.309 7        46.867    25432448.838 7 102405955.05507     -2037.171 7        47.270
R14         9.000    23590173.143 7 125748879.26507     -2277.041 7        43.812                                                                    23590175.622 6  97804667.02906     -1770.990 6        41.004
G04        10.000    20101826.967 8 105635859.47908       289.952 8        48.905                                    20101823.684 6  82313666.18206       225.935 6        41.950    20101823.859 8  82313661.17808       225.962 8        48.721
E09        11.000    23390518.661 8 122918054.04208      -365.686 8        48.300                                                                    23390517.689 8  91789473.33708      -273.081 8        50.594    23390517.346 8  94183980.53608      -280.202 8        50.994
S27        12.000    39039262.426 5 205152685.40905      -377.675 5        35.786
G06        13.000    22497247.962 7 118223864.58807      2333.357 7        43.513                                    22497246.838 7  92122496.37807      1818.199 7        42.425    22497247.353 7  92122507.38207      1818.179 7        42.777
S36        14.000    38176416.764 7 200618927.66907      -384.413 7        44.411
E21        15.000    28821957.552 4                       130.717 4        26.096                                                                    28821960.954 5 113103584.39105        97.948 5        33.635    28821960.516 5 116054107.90805       100.583 5        34.090
E36        16.000    23436198.898 8 123158083.53108      -963.063 8        48.178                                                                    23436199.087 8  91968715.74808      -719.183 8        50.770    23436198.612 8  94367894.38308      -737.905 8        50.850
S45        17.000    63370460.796 6 333015101.73506      -423.579 6        37.758
G03        18.000    20368944.975 8 107039584.87408     -1780.641 8        49.128                                    20368942.865 8  83407488.14108     -1387.510 8        50.834    20368943.315 7  83407497.13907     -1387.453 7        44.885
R21        19.000    19923607.188 8 106615285.09308     -2715.887 8        52.106                                                                    19923606.558 7  82923008.41707     -2112.367 7        46.246
R20        20.000    23275530.827 5 124464738.74305     -4994.917 5        33.192                                                                    23275532.912 6  96805901.55206     -3884.691 6        41.633
R05        21.000    22160348.662 7 118459801.03507     -3739.379 7        46.389                                                                    22160347.399 7  92135405.42707     -2908.437 7        42.586
I06        22.000    38043892.063 7 149292632.33207      -210.666 7        42.849
S28        23.000    40843136.994 5 214632146.90205      -378.721 5        34.167
E10        24.000                                                                                                                                    28392955.519 3                     -2631.382 3        20.714    28392953.932 3                     -2699.480 3        19.493
S23        25.000    38122729.976 7 200336316.09307      -380.110 7        44.351
E06        26.000    23771555.870 7 124920431.39007     -1616.062 7        47.362                                                                    23771555.432 8  93284737.54008     -1206.825 8        50.169    23771555.362 8  95718250.90008     -1238.307 8        50.965
R15        27.000    22430150.835 7 119859935.10907      1010.496 7        46.947                                                                    22430151.539 7  93224407.35007       785.938 7        42.415
G26        28.000    25259891.622 5 132741625.52305      1932.494 5        35.510                                    25259891.812 4 103435032.66004      1505.833 4        26.515    25259891.937 5 103435033.66905      1506.084 5        34.295
C22        30.000                                                                                                                                    25485508.793 7 132709741.83307      2369.179 7        42.711                                                                    25485502.729 6 107837519.59306      1925.041 6        41.795
I01        31.000   334619146.361 6   9976594.22506     -2624.935 6        41.826
G02        32.000    23556605.789 7 123790828.29507     -3690.585 7        42.485                                    23556600.243 4  96460379.23704     -2875.779 4        29.517
G19        33.000    22436992.682 7 117907219.94907     -1523.622 7        43.585                                    22436986.575 5  91875775.88005     -1187.233 5        31.215
G17        34.000    23372882.028 7 122825366.90407     -2782.558 7        43.257                                    23372877.588 6  95708086.49206     -2168.227 6        37.429    23372878.270 6  95708086.48506     -2168.186 6        38.868
E11        35.000    25735863.568 6 135242933.51606     -3164.709 6        40.110                                                                    25735859.475 7 100993115.67107     -2363.350 7        42.728    25735859.753 7 103627711.46307     -2424.788 7        43.145
C32        36.000                                                                                                                                    26917635.526 6 140167207.36006     -3238.042 6        38.862                                                                    26917636.249 6 113897345.83606     -2631.055 6        39.907
C35        37.000                                                                                                                                    22973627.972 8 119629727.47508      -913.752 8        48.735                                                                    22973626.679 7  97208952.22007      -742.460 7        47.222
I09        38.000    37306784.799 7 146399832.73207      -511.737 7        42.292
C29        39.000                                                                                                                                    24393511.638 7 127023409.25607     -3587.762 7        44.388                                                                    24393510.155 7 103216917.01007     -2915.385 7        44.482
R22        40.000    20666239.845 8 110317824.09408      1874.501 8        50.719                                                                    20666237.839 7  85802767.18907      1457.947 7        46.771
S44        42.000    40637937.432 6 213554004.97606      -462.067 6        37.535
C09        43.000                                                                                                                                    38463567.085 7 200289909.74107      -146.695 7        42.404    38463563.453 7 154876854.53607      -113.442 7        46.520    38463561.224 7 162751939.29707      -119.229 7        42.154
C05        44.000                                                                                                                                    39103221.495 6 203620768.43106      -403.758 6        38.498    39103216.802 7 157452517.52807      -312.191 7        43.192    39103218.916 6 165458656.02306      -328.136 6        40.024
R06        45.000    19384693.928 6 103440496.99406      -302.539 6        41.189
C44        46.000                                                                                                                                    24803950.039 7 129160710.51707      1624.749 7        42.135                                                                    24803948.616 7 104953661.07307      1320.327 7        42.724
C39        47.000                                                                                                                                    39232192.649 7 204292335.43907     -1144.903 7        42.391                                                                    39232189.101 7 166004246.03707      -930.368 7        42.127
C20        48.000                                                                                                                                    22550061.707 8 117424137.09108     -1944.813 8        50.969                                                                    22550056.267 8  95416721.96208     -1580.292 8        49.719
C06        49.000                                                                                                                                    38276759.991 6 199317157.72906      -657.948 6        41.049    38276754.079 7 154124653.27707      -508.618 7        44.576    38276754.061 6 161961496.79506      -534.564 6        41.661
C16        50.000                                                                                                                                    38784312.187 7 201960111.49207      -751.275 7        42.305    38784312.082 7 156168378.34407      -580.941 7        43.873    38784309.716 6 164109132.57406      -610.343 6        39.396
S48        51.000    77156997.925 6 405464040.30206      -378.123 6        37.611
C19        52.000                                                                                                                                    22188272.208 8 115540217.95308       610.019 8        50.914                                                                    22188267.402 8  93885894.90108       495.733 8        49.619
C60        54.000                                                                                                                                    40637940.981 6 211612624.32806      -457.849 6        38.952                                                                    40637925.569 6 171952559.83806      -372.086 6        39.240
R16        55.000    23627633.969 7 126214580.23507      3446.875 7        43.302                                                                    23627635.494 6  98166911.82006      2680.958 6        40.706
C37        56.000                                                                                                                                    25035006.299 7 130363853.26907       984.801 7        44.634                                                                    25035009.189 7 105931326.61807       800.258 7        44.441
C02        57.000                                                                                                                                    40586495.232 5 211344575.21005      -448.049 5        34.262    40586488.276 6 163425024.48006      -346.532 6        39.498    40586492.054 5 171734781.64805      -364.364 5        35.490
I03        58.000   131416245.888 6 439920329.59406       952.749 6        39.883
R07        59.000    21483206.931 8 115001306.05408      2399.223 8        48.837                                                                    21483205.384 7  89445460.28807      1866.025 7        44.077
> 2025 01 01 02 30  5.0000000  0 56
G28         1.000    24373173.648 6 128081905.97606     -3090.934 6        39.423                                    24373170.372 3  99804063.42803     -2408.518 3        22.267    24373170.305 6  99804069.41406     -2408.531 6        38.988
G31         2.000    22423665.462 7 117837172.69607     -1736.827 7        44.296                                    22423660.931 6  91821162.00006     -1353.372 6        41.368    22423661.042 6  91821161.00106     -1353.304 6        41.633
G09         3.000    21159215.353 7 111192466.99107      2003.031 7        47.523                                    21159213.233 8  86643490.48708      1560.804 8        48.609    21159213.765 7  86643491.48907      1560.676 7        43.513
E34         4.000    25232640.097 7 132598429.38507      1764.974 7        44.114                                                                    25232640.162 7  99018315.76707      1317.951 7        47.402    25232639.850 7 101601401.55207      1352.335 7        47.744
S21         5.000    38409358.263 7 201842372.96907      -384.136 7        43.293
E05         6.000    23970673.232 7 125966774.44807      2027.017 7        44.017                                                                    23970673.716 7  94066125.14107      1513.708 7        46.707    23970673.209 7  96520016.38307      1553.135 7        47.308
G21         7.000    25343677.574 3                     -3718.677 3        20.476
E04         8.000    25434980.702 7 133661748.72307     -2659.328 7        43.065                                                                    25434979.089 7  99812349.50507     -1985.912 7        46.894    25434978.764 7 102416141.89607     -2037.684 7        47.309
R14         9.000    23592310.978 7 125760273.00507     -2280.603 7        42.993                                                                    23592313.851 6  97813528.86306     -1773.920 6        41.056
G04        10.000    20101552.557 8 105634415.81708       287.502 8        48.657                                    20101548.948 6  82312541.25106       224.026 6        41.993    20101549.067 8  82312536.25208       224.037 8        48.660
E09        11.000    23390867.426 8 122919886.61908      -367.312 8        48.375                                                                    23390866.435 8  91790841.82108      -274.328 8        50.622    23390866.037 8  94185384.72108      -281.484 8        51.035
S27        12.000    39039618.479 6 205154572.01506      -377.342 6        36.280
G06        13.000    22495028.540 7 118212201.69907      2331.640 7        43.482                                    22495027.447 7  92113408.42207      1816.861 7        42.440    22495027.988 7  92113419.42907      1816.848 7        42.709
S36        14.000    38176787.050 7 200620848.33407      -384.011 7        44.494
E21        15.000    28821834.001 4                       129.307 4        27.090                                                                    28821836.794 5 113103098.17705        96.606 5        33.958    28821836.656 5 116053609.03805        98.906 5        34.948
E36        16.000    23437116.084 8 123162903.85008      -965.091 8        48.152                                                                    23437116.375 8  91972315.33808      -720.686 8        50.750    23437115.932 8  94371587.88108      -739.538 8        50.859
S45        17.000    63370823.221 6 333017220.38406      -423.672 6        37.800
G03        18.000    20370639.957 8 107048491.75208     -1782.264 8        49.013                                    20370637.798 8  83414428.56508     -1388.778 8        50.849    20370638.601 7  83414437.56007     -1388.770 7        45.037
R21        19.000    19926147.072 8 106628874.35008     -2719.793 8        52.113                                                                    19926145.942 7  82933577.84107     -2115.356 7        46.283
R20        20.000    23280200.181 5 124489712.89905     -4995.064 5        33.012                                                                    23280203.088 6  96825325.89606     -3885.129 6        41.600
R05        21.000    22163846.175 7 118478498.67907     -3739.703 7        46.059                                                                    22163844.846 7  92149948.03307     -2908.617 7        42.336
I06        22.000    38044160.314 7 149293685.26507      -210.530 7        42.883
S28        23.000    40843496.749 5 214634039.18005      -378.560 5        34.343
E10        24.000                                                                                                                                    28396308.556 3                     -2629.933 3        20.857    28396305.977 3                     -2699.933 3        19.075
S23        25.000    38123094.163 7 200338216.52307      -380.056 7        44.516
E06        26.000    23773094.222 7 124928515.15807     -1617.427 7        47.617                                                                    23773093.728 8  93290774.12308     -1207.843 8        50.207    23773093.637 8  95724444.95808     -1239.347 8        51.005
R15        27.000    22429206.965 7 119854891.96907      1006.700 7        47.041                                                                    22429207.073 7  93220484.90707       783.055 7        42.150
G26        28.000    25258053.626 5 132731966.28005      1931.195 5        35.748                                    25258053.689 4 103427505.98904      1504.823 4        26.156    25258053.180 5 103427506.98605      1504.796 5        33.725
C22        30.000                                                                                                                                    25483233.941 7 132697897.19407      2368.730 7        42.624                                                                    25483228.292 6 107827894.85306      1924.752 6        41.712
I01        31.000   334622490.866 6   9989719.09806     -2625.015 6        41.626
G02        32.000    23560117.646 7 123809283.06107     -3691.335 7        42.315                                    23560112.067 4  96474759.57604     -2876.368 4        29.090
G19        33.000    22438443.459 7 117914845.69107     -1526.707 7        44.126                                    22438437.813 5  91881718.01505     -1189.642 5        31.223
G17        34.000    23375530.133 7 122839283.57107     -2784.147 7        43.037                                    23375525.759 6  95718930.64706     -2169.467 6        37.474    23375526.012 6  95718930.64306     -2169.412 6        38.447
E11        35.000    25738874.671 6 135258758.82806     -3165.395 6        40.541                                                                    25738870.864 7 101004933.27807     -2363.855 7        42.684    25738871.254 7 103639837.36307     -2425.490 7        43.196
C32        36.000                                                                                                                                    26920744.479 6 140183396.70306     -3237.864 6        39.225                                                                    26920745.096 6 113910500.99006     -2630.902 6        39.748
C35        37.000                                                                                                                                    22974506.665 8 119634302.77508      -916.415 8        48.691                                                                    22974505.399 7  97212670.02107      -744.679 7        47.230
I09        38.000    37307436.683 7 146402391.20807      -511.656 7        42.584
C29        39.000                                                                                                                                    24396957.263 7 127041349.66707     -3588.392 7        44.865                                                                    24396955.356 7 103231495.06307     -2915.918 7        44.378
R22        40.000    20664485.365 8 110308460.53408      1870.901 8        51.023                                                                    20664483.556 7  85795484.42207      1455.170 7        46.931
S44        42.000    40638377.462 6 213556315.01306      -461.899 6        37.437
C09        43.000                                                                                                                                    38463708.207 7 200290644.73507      -147.365 7        42.514    38463704.361 7 154877422.88607      -113.973 7        46.605    38463702.382 7 162752536.53907      -119.685 7        42.127
C05        44.000                                                                                                                                    39103608.232 6 203622786.84506      -403.689 6        38.547    39103604.572 7 157454078.30607      -312.044 7        43.300    39103606.347 6 165460296.14606      -327.977 6        40.052
R06        45.000    19384978.441 6 103442015.54806      -304.813 6        41.097
C44        46.000                                                                                                                                    24802390.497 7 129152591.38907      1622.879 7        42.180                                                                    24802389.309 7 104947063.62707      1318.739 7        42.790
C39        47.000                                                                                                                                    39233292.742 7 204298061.28707     -1145.373 7        42.370                                                                    39233288.637 7 166008898.75207      -930.677 7        42.004
C20        48.000                                                                                                                                    22551929.666 8 117433863.55808     -1945.837 8        51.015                                                                    22551924.132 8  95424625.51308     -1581.146 8        49.761
C06        49.000                                                                                                                                    38277392.054 6 199320448.46506      -658.361 6        41.006    38277386.198 7 154127197.89607      -509.166 7        44.561    38277386.010 6 161964170.79006      -534.973 6        41.626
C16        50.000                                                                                                                                    38785033.873 7 201963869.10907      -751.728 7        42.398    38785033.662 7 156171283.97207      -581.334 7        43.833    38785031.436 6 164112185.93206      -610.896 6        39.357
S48        51.000    77157359.836 6 405465930.73106      -377.921 6        37.648
C19        52.000                                                                                                                                    22187687.302 8 115537170.92808       608.754 8        50.975                                                                    22187682.331 8  93883418.94308       494.623 8        49.577
C60        54.000                                                                                                                                    40638380.720 6 211614913.36406      -457.678 6        38.955                                                                    40638365.223 6 171954419.86406      -371.896 6        39.075
R16        55.000    23624408.040 7 126197347.67707      3446.093 7        43.681                                                                    23624410.025 6  98153508.72306      2680.317 6        40.696
C37        56.000                                                                                                                                    25034061.042 7 130358934.34907       982.692 7        44.527                                                                    25034064.622 7 105927329.59307       798.508 7        44.357
C02        57.000                                                                                                                                    40586925.724 5 211346816.17605      -448.136 5        34.343    40586918.799 6 163426757.33706      -346.482 6        39.583    40586922.846 5 171736602.60005      -364.061 5        35.419
I03        58.000   131415031.633 6 439915565.69006       952.842 6        39.784
R07        59.000    21480966.926 8 114989313.60508      2397.720 8        48.541                                                                    21480965.311 7  89436132.83407      1864.886 7        44.173
> 2025 01 01 02 30 10.0000000  0 56
G28         1.000    24376115.847 6 128097366.13306     -3093.018 6        38.568                                    24376112.293 3  99816110.27703     -2410.136 3        22.267    24376111.946 6  99816116.27406     -2410.190 6        38.523
G31         2.000    22425319.680 7 117845865.37007     -1740.092 7        44.599                                    22425315.082 6  91827935.51106     -1355.915 6        41.216    22425315.000 6  91827934.51706     -1355.923 6        41.692
G09         3.000    21157310.655 7 111182456.66207      2001.156 7        47.533                                    21157308.327 8  86635690.23208      1559.341 8        48.562    21157308.662 7  86635691.23507      1559.356 7        43.953
E34         4.000    25230961.285 7 132589608.11407      1763.718 7        44.110                                                                    25230961.497 7  99011728.44507      1317.072 7        47.519    25230961.268 7 101594642.38507      1351.441 7        47.721
S21         5.000    38409727.879 7 201844293.60607      -384.010 7        43.007
E05         6.000    23968744.779 7 125956642.20707      2026.036 7        44.116                                                                    23968745.678 7  94058558.86607      1512.893 7        46.937    23968745.100 7  96512252.72607      1552.399 7        47.310
G21         7.000    25347217.395 3                     -3717.734 3        23.981
E04         8.000    25437511.572 7 133675047.37407     -2659.863 7        43.348                                                                    25437509.671 7  99822280.32407     -1986.393 7        47.062    25437509.358 7 102426331.77807     -2038.196 7        47.253
R14         9.000    23594450.895 7 125771684.99007     -2284.096 7        42.785                                                                    23594453.557 6  97822404.81406     -1776.500 6        40.672
G04        10.000    20101280.273 8 105632985.25608       284.891 8        48.820                                    20101276.720 6  82311426.52906       221.994 6        41.919    20101276.862 8  82311421.53008       221.993 8        48.630
E09        11.000    23391217.697 8 122921728.10108      -369.143 8        48.454                                                                    23391216.885 8  91792216.95408      -275.569 8        50.776    23391216.473 8  94186795.72708      -282.821 8        50.998
S27        12.000    39039977.809 6 205156458.41706      -377.228 6        36.129
G06        13.000    22492811.516 7 118200548.21107      2329.871 7        43.600                                    22492809.862 7  92104327.78507      1815.484 7        42.394    22492810.735 7  92104338.79007      1815.416 7        42.707
S36        14.000    38177147.610 7 200622768.53407      -384.010 7        44.590
E21        15.000    28821712.686 4                       127.264 4        26.419                                                                    28821715.019 5 113102620.28005        94.920 5        33.952    28821714.772 5 116053118.63205        97.353 5        34.590
E36        16.000    23438035.373 8 123167734.89508      -967.220 8        48.292                                                                    23438035.663 8  91975922.93508      -722.262 8        50.910    23438035.216 8  94375289.58808      -741.107 8        50.849
S45        17.000    63371185.824 6 333019338.94006      -423.549 6        38.021
G03        18.000    20372336.609 8 107057407.86608     -1784.011 8        49.135                                    20372334.479 8  83421376.18108     -1390.139 8        50.788    20372335.393 7  83421385.18707     -1390.152 7        45.208
R21        19.000    19928690.648 8 106642483.54908     -2723.708 8        52.290                                                                    19928689.434 7  82944162.76207     -2118.391 7        46.631
R20        20.000    23284869.703 5 124514690.48305     -4996.009 5        33.072                                                                    23284873.683 6  96844752.86506     -3885.692 6        41.640
R05        21.000    22167343.445 7 118497198.47407     -3740.070 7        45.532                                                                    22167343.174 7  92164492.33907     -2908.966 7        42.180
I06        22.000    38044428.548 7 149294738.19407      -210.553 7        43.046
S28        23.000    40843858.857 5 214635931.23505      -378.063 5        34.148
E10        24.000                                                                                                                                    28399660.676 3                     -2631.207 3        20.905    28399658.478 3                     -2698.122 3        21.071
S23        25.000    38123453.757 7 200340116.60607      -379.897 7        44.534
E06        26.000    23774633.928 7 124936606.25607     -1618.839 7        47.687                                                                    23774633.424 8  93296816.17508     -1208.891 8        50.312    23774633.372 8  95730644.62808     -1240.425 8        50.994
R15        27.000    22428267.077 7 119849868.40907      1002.877 7        46.895                                                                    22428266.420 7  93216577.69807       780.016 7        42.694
G26        28.000    25256216.682 5 132722313.98005      1929.821 5        35.338                                    25256216.845 4 103419984.72504      1503.750 4        26.036    25256216.634 5 103419985.73205      1503.672 5        33.611
C22        30.000                                                                                                                                    25480959.556 7 132686054.84407      2368.338 7        42.576                                                                    25480953.980 6 107818271.96206      1924.457 6        41.702
I01        31.000   334625835.498 6  10002844.35806     -2625.050 6        41.928
G02        32.000    23563629.854 7 123827742.72107     -3692.294 7        42.692                                    23563624.835 4  96489143.71904     -2877.110 4        28.749
G19        33.000    22439898.146 7 117922487.46507     -1529.752 7        43.778                                    22439891.994 5  91887672.64205     -1192.019 5        31.147
G17        34.000    23378179.719 7 122853208.31207     -2785.719 7        42.737                                    23378175.509 6  95729781.08806     -2170.692 6        37.410    23378175.923 6  95729781.09306     -2170.518 6        38.105
E11        35.000    25741887.012 6 135274589.50206     -3166.423 6        40.358                                                                    25741883.349 7 101016754.87507     -2364.631 7        42.717    25741883.689 7 103651967.35207     -2426.330 7        43.268
C32        36.000                                                                                                                                    26923853.447 6 140199585.42806     -3237.552 6        39.108                                                                    26923854.055 6 113923655.64506     -2630.800 6        39.691
C35        37.000                                                                                                                                    22975387.841 8 119638892.05808      -919.193 8        48.417                                                                    22975386.645 7  97216399.18207      -746.980 7        47.283
I09        38.000    37308089.019 7 146404950.17507      -511.735 7        42.645
C29        39.000                                                                                                                                    24400403.692 7 127059294.36407     -3589.241 7        44.966                                                                    24400401.618 7 103246076.59407     -2916.600 7        44.593
R22        40.000    20662734.818 8 110299115.41508      1867.243 8        51.210                                                                    20662732.717 7  85788216.00307      1452.287 7        46.793
S44        42.000    40638818.561 6 213558624.87606      -461.805 6        37.323
C09        43.000                                                                                                                                    38463850.109 7 200291383.58107      -147.994 7        42.607    38463846.156 7 154877994.20507      -114.458 7        46.360    38463844.330 7 162753136.89807      -120.250 7        42.119
C05        44.000                                                                                                                                    39103996.839 6 203624805.15006      -403.612 6        38.468    39103992.275 7 157455638.98807      -311.987 7        43.177    39103994.028 6 165461936.18606      -327.971 6        40.050
R06        45.000    19385264.820 6 103443546.37806      -307.300 6        41.035
C44        46.000                                                                                                                                    24800833.484 7 129144483.03907      1620.683 7        42.404                                                                    24800832.214 7 104940474.92707      1316.812 7        42.984
C39        47.000                                                                                                                                    39234392.808 6 204303790.02706     -1145.934 6        41.955                                                                    39234388.762 6 166013553.81906      -931.244 6        41.883
C20        48.000                                                                                                                                    22553798.787 8 117443595.66508     -1946.874 8        50.821                                                                    22553793.075 8  95432533.63708     -1582.024 8        49.776
C06        49.000                                                                                                                                    38278024.179 6 199323742.89306      -659.212 6        40.899    38278019.094 7 154129745.35307      -509.688 7        44.567    38278018.734 6 161966847.77806      -535.614 6        41.766
C16        50.000                                                                                                                                    38785756.180 7 201967630.17707      -752.437 7        42.294    38785755.969 7 156174192.26807      -581.854 7        43.573    38785753.601 6 164115242.12506      -611.590 6        39.303
S48        51.000    77157715.692 6 405467820.82206      -377.883 6        37.357
C19        52.000                                                                                                                                    22187103.628 8 115534131.11408       607.338 8        50.915                                                                    22187098.586 8  93880948.84008       493.411 8        49.644
C60        54.000                                                                                                                                    40638820.196 6 211617202.23006      -457.681 6        39.048                                                                    40638804.471 6 171956279.74306      -371.884 6        39.090
R16        55.000    23621183.036 7 126180119.91107      3445.206 7        43.602                                                                    23621183.933 6  98140109.35506      2679.500 6        40.887
C37        56.000                                                                                                                                    25033118.301 7 130354026.85707       980.482 7        44.283                                                                    25033122.114 7 105923341.85007       796.721 7        44.448
C02        57.000                                                                                                                                    40587355.813 5 211349057.04205      -448.024 5        34.452    40587348.844 6 163428490.13406      -346.609 6        39.426    40587352.984 5 171738423.47305      -363.924 5        35.581
I03        58.000   131413817.633 6 439910801.79406       952.901 6        40.021
R07        59.000    21478727.570 7 114977328.80307      2396.312 7        47.970                                                                    21478726.970 7  89426811.33607      1863.877 7        44.217
> 2025 01 01 02 30 15.0000000  0 56
G28         1.000    24379059.737 6 128112836.45506     -3094.793 6        37.985                                    24379056.346 3  99828165.06403     -2411.513 3        22.114    24379056.288 6  99828171.06506     -2411.733 6        38.946
G31         2.000    22426976.928 7 117854574.49107     -1743.399 7        44.429                                    22426972.310 6  91834721.84206     -1358.493 6        41.411    22426972.153 6  91834720.83806     -1358.411 6        41.120
G09         3.000    21155407.479 7 111172455.91707      1999.341 7        47.331                                    21155405.235 8  86627897.44708      1557.927 8        48.586    21155405.362 7  86627898.44807      1557.966 7        43.592
E34         4.000    25229284.192 7 132580793.00107      1762.514 7        44.224                                                                    25229284.063 7  99005145.73707      1316.146 7        47.445    25229283.754 7 101587887.95607      1350.502 7        47.949
S21         5.000    38410087.089 7 201846213.69307      -383.795 7        43.003
E05         6.000    23966817.993 7 125946515.04207      2025.040 7        43.623                                                                    23966818.490 7  94050996.36507      1512.230 7        46.877    23966818.014 7  96504492.95407      1551.590 7        47.505
G21         7.000    25350756.161 3                     -3716.566 3        23.600
E04         8.000    25440043.012 7 133688349.67607     -2660.658 7        43.354                                                                    25440040.921 7  99832213.85407     -1986.880 7        46.970    25440040.754 7 102436524.44307     -2038.679 7        47.475
R14         9.000    23596595.804 7 125783114.82907     -2287.542 7        42.521                                                                    23596597.976 6  97831294.64106     -1779.281 6        40.072
G04        10.000    20101010.395 8 105631567.46108       282.382 8        48.783                                    20101006.916 6  82310321.75706       220.039 6        41.967    20101007.173 8  82310316.75208       220.018 8        48.793
E09        11.000    23391569.742 8 122923578.16508      -370.789 8        48.237                                                                    23391568.922 8  91793598.49908      -276.869 8        50.772    23391568.524 8  94188213.31408      -284.100 8        51.221
S27        12.000    39040335.284 6 205158344.15306      -377.404 6        36.106
G06        13.000    22490595.423 7 118188903.79207      2328.192 7        43.551                                    22490594.008 7  92095254.21607      1814.178 7        42.474    22490594.542 7  92095265.21307      1814.188 7        42.356
S36        14.000    38177512.866 7 200624688.47707      -383.925 7        44.372
E21        15.000    28821593.664 4                       124.849 4        26.383                                                                    28821595.550 5 113102150.30305        93.146 5        34.452    28821595.047 5 116052636.39705        95.470 5        35.386
E36        16.000    23438956.736 8 123172576.33808      -969.208 8        48.188                                                                    23438956.899 8  91979538.29708      -723.752 8        50.883    23438956.518 8  94378999.26408      -742.646 8        51.038
S45        17.000    63371543.013 6 333019857.02116      -423.523 6        38.270
G03        18.000    20374034.939 8 107066332.89108     -1785.708 8        48.890                                    20374032.860 8  83428330.74808     -1391.460 8        50.826    20374033.411 7  83428339.74507     -1391.451 7        45.059
R21        19.000    19931237.547 8 106656112.32308     -2727.609 8        52.302                                                                    19931236.211 7  82954762.91407     -2121.415 7        46.219
R20        20.000    23289542.358 5 124539670.89405     -4996.581 5        32.772                                                                    23289545.248 6  96864182.05906     -3885.920 6        41.602
R05        21.000    22170842.241 7 118515900.21607     -3740.433 7        45.538                                                                    22170841.824 7  92179038.13807     -2909.196 7        42.612
I06        22.000    38044697.022 7 149295790.86807      -210.333 7        43.018
S28        23.000    40844220.969 5 214637822.76605      -378.641 5        34.314
E10        24.000                                                                                                                                    28403013.848 3                     -2631.680 3        20.857    28403011.220 3                     -2700.157 3        20.476
S23        25.000    38123814.926 7 200342016.13707      -379.721 7        44.513
E06        26.000    23776175.031 7 124944704.35407     -1620.240 7        47.565                                                                    23776174.453 8  93302863.46208     -1209.927 8        50.289    23776174.433 8  95736849.67208     -1241.498 8        51.209
R15        27.000    22427330.591 7 119844863.90307       999.117 7        46.856                                                                    22427330.278 7  93212685.31607       777.111 7        42.969
G26        28.000    25254381.197 5 132712668.39905      1928.247 5        35.362                                    25254381.325 4 103412468.70304      1502.525 4        26.275    25254381.428 5 103412469.69605      1502.801 5        34.010
C22        30.000                                                                                                                                    25478685.632 7 132674214.42707      2368.116 7        42.396                                                                    25478680.226 6 107808650.64706      1924.192 6        41.681
I01        31.000   334629179.901 7  10015969.75907     -2624.960 7        42.155
G02        32.000    23567143.999 7 123846206.92207     -3693.153 7        43.103                                    23567138.229 4  96503531.41304     -2877.776 4        28.787
G19        33.000    22441355.029 7 117930144.94107     -1532.992 7        43.450                                    22441349.108 5  91893639.50305     -1194.540 5        31.230
G17        34.000    23380830.986 7 122867140.74607     -2787.103 7        43.179                                    23380826.747 6  95740637.52506     -2171.771 6        37.618    23380826.745 6  95740637.54006     -2171.810 6        37.569
E11        35.000    25744900.373 6 135290425.13606     -3167.477 6        39.967                                                                    25744896.837 7 101028580.17807     -2365.342 7        42.785    25744897.060 7 103664101.13907     -2426.966 7        43.608
C32        36.000                                                                                                                                    26926961.781 6 140215773.20806     -3237.393 6        39.357                                                                    26926962.678 6 113936809.53906     -2630.539 6        39.739
C35        37.000                                                                                                                                    22976271.690 8 119643495.01408      -921.871 8        48.241                                                                    22976270.615 7  97220139.44307      -749.043 7        47.222
I09        38.000    37308741.049 7 146407509.42107      -511.746 7        42.521
C29        39.000                                                                                                                                    24403850.522 7 127077243.00607     -3589.993 7        45.067                                                                    24403848.694 7 103260661.32107     -2917.087 7        44.763
R22        40.000    20660987.449 8 110289788.41808      1863.741 8        50.637                                                                    20660985.443 7  85780961.68907      1449.555 7        46.850
S44        42.000    40639257.334 6 213560934.24406      -461.839 6        37.577
C09        43.000                                                                                                                                    38463992.870 7 200292125.86607      -148.619 7        42.633    38463988.683 7 154878568.19107      -115.011 7        46.420    38463986.844 7 162753740.07407      -120.805 7        42.231
C05        44.000                                                                                                                                    39104384.586 6 203626823.10106      -403.534 6        38.595    39104379.692 7 157457199.40107      -312.021 7        43.306    39104381.632 6 165463575.92106      -327.820 6        40.038
R06        45.000    19385554.454 6 103445089.07106      -309.699 6        41.256
C44        46.000                                                                                                                                    24799279.294 7 129136385.13407      1618.699 7        42.923                                                                    24799277.045 7 104933894.70607      1315.317 7        42.868
C39        47.000                                                                                                                                    39235493.511 7 204309521.30807     -1146.339 7        42.091                                                                    39235489.401 6 166018210.95106      -931.536 6        41.952
C20        48.000                                                                                                                                    22555668.642 8 117453333.08608     -1947.867 8        50.638                                                                    22555662.981 8  95440446.07708     -1582.741 8        49.812
C06        49.000                                                                                                                                    38278657.899 6 199327040.71806      -659.851 6        40.932    38278652.555 7 154132295.44607      -510.279 7        44.739    38278652.054 6 161969527.51806      -536.042 6        41.576
C16        50.000                                                                                                                                    38786479.295 7 201971394.39207      -753.027 7        42.409    38786478.818 7 156177103.00807      -582.321 7        43.664    38786476.409 6 164118300.83906      -611.817 6        39.384
S48        51.000    77158077.348 6 405469710.40206      -377.866 6        38.012
C19        52.000                                                                                                                                    22186521.005 8 115531098.18808       606.025 8        50.928                                                                    22186516.059 8  93878484.33208       492.417 8        49.671
C60        54.000                                                                                                                                    40639259.993 6 211619490.60106      -457.523 6        38.952                                                                    40639244.161 6 171958139.22106      -371.692 6        39.192
R16        55.000    23617958.668 7 126162896.30907      3444.288 7        43.644                                                                    23617959.490 6  98126713.22006      2678.960 6        40.717
C37        56.000                                                                                                                                    25032177.991 7 130349130.46307       978.292 7        43.888                                                                    25032181.798 7 105919363.12807       794.944 7        44.393
C02        57.000                                                                                                                                    40587786.314 5 211351297.47205      -447.936 5        34.257    40587779.752 6 163430222.56806      -346.366 6        39.691    40587783.235 5 171740244.02005      -364.168 5        35.343
I03        58.000   131412603.436 6 439906037.67306       952.895 6        40.002
R07        59.000    21476489.869 8 114965351.67508      2394.799 8        48.172                                                                    21476489.211 7  89417495.79207      1862.697 7        44.110
> 2025 01 01 02 30 20.0000000  0 56
G28         1.000    24382006.094 6 128128317.54506     -3097.319 6        38.219                                    24382002.292 3  99840228.24203     -2413.495 3        21.452    24382002.400 6  99840234.23006     -2413.558 6        39.078
G31         2.000    22428637.269 7 117863300.63607     -1747.062 7        44.634                                    22428632.744 6  91841521.43206     -1361.348 6        41.292    22428632.361 6  91841520.41806     -1361.199 6        40.749
G09         3.000    21153506.161 7 111162465.38607      1997.026 7        47.311                                    21153504.107 8  86620112.62008      1556.124 8        48.531    21153504.242 7  86620113.61007      1556.192 7        43.361
E34         4.000    25227607.951 7 132571984.65307      1760.902 7        44.593                                                                    25227607.869 7  98998568.07207      1314.945 7        47.359    25227607.609 8 101581138.69808      1349.286 8        48.064
S21         5.000    38410452.389 7 201848133.95307      -384.255 7        42.976
E05         6.000    23964891.608 7 125936393.52507      2023.588 7        43.903                                                                    23964892.386 7  94043438.09007      1511.151 7        46.832    23964891.918 7  96496737.49607      1550.585 7        47.653
G21         7.000    25354292.682 3                     -3713.264 3        21.048
E04         8.000    25442574.868 7 133701656.19007     -2661.833 7        43.484                                                                    25442573.068 7  99842150.53607     -1987.762 7        46.875    25442572.850 7 102446720.34307     -2039.543 7        47.529
R14         9.000    23598743.384 7 125794563.23307     -2291.615 7        42.760                                                                    23598745.850 6  97840198.90506     -1782.454 6        40.117
G04        10.000    20100743.156 8 105630163.00408       279.463 8        48.964                                    20100739.665 6  82309227.37506       217.762 6        41.905    20100739.565 8  82309222.37408       217.734 8        48.871
E09        11.000    23391923.493 8 122925437.37508      -372.895 8        48.584                                                                    23391922.718 8  91794986.87108      -278.426 8        50.619    23391922.338 8  94189637.90008      -285.673 8        51.271
S27        12.000    39040697.875 5 205160230.79205      -377.054 5        35.952
G06        13.000    22488380.988 7 118177269.05507      2325.742 7        43.435                                    22488379.978 7  92086188.19107      1812.265 7        42.428    22488380.310 7  92086199.17807      1812.460 7        42.387
S36        14.000    38177879.454 7 200626609.40807      -384.252 7        44.391
E21        15.000    28821475.815 4                       122.465 4        27.030                                                                    28821478.292 5 113101688.94405        91.275 5        34.524    28821477.682 5 116052163.01405        93.699 5        35.281
E36        16.000    23439880.127 8 123177428.76208      -971.665 8        48.386                                                                    23439880.347 8  91983161.86108      -725.587 8        50.776    23439879.906 8  94382717.35608      -744.514 8        51.120
S45        17.000    63371903.480 6 333021975.30306      -423.848 6        37.939
G03        18.000    20375734.763 8 107075267.39208     -1787.881 8        48.918                                    20375733.056 8  83435292.69608     -1393.151 8        50.741    20375733.652 7  83435301.69007     -1393.133 7        45.174
R21        19.000    19933788.514 8 106669761.18208     -2731.871 8        52.572                                                                    19933786.445 7  82965378.69107     -2124.807 7        45.770
R20        20.000    23294215.991 5 124564654.80705     -4997.234 5        32.701                                                                    23294217.238 6  96883613.97006     -3886.777 6        41.178
