     3.04           OBSERVATION DATA    M                   RINEX VERSION / TYPE
ssrcrin-15.6.1x                         20250101 001500 UTC PGM / RUN BY / DATE 
(00000000023479385599111004) Septentrio proprietary         COMMENT             
rref                                                        MARKER NAME         
01                                                          MARKER NUMBER       
geodetic                                                    MARKER TYPE         
NFB                 CLIMERS@TUW                             OBSERVER / AGENCY   
3297213             SEPT ASTERX SB3 PROB4.14.4              REC # / TYPE / VERS 
Unknown             Unknown                                 ANT # / TYPE        
  4127831.9410  1207193.4228  4695247.3132                  APPROX POSITION XYZ 
        0.0000        0.0000        0.0000                  ANTENNA: DELTA H/E/N
G   23 X1  C1C L1C D1C S1C C1W S1W C2W L2W D2W S2W C2L L2L  SYS / # / OBS TYPES 
       D2L S2L C5Q L5Q D5Q S5Q C1L L1L D1L S1L              SYS / # / OBS TYPES 
E   21 X1  C1C L1C D1C S1C C6C L6C D6C S6C C5Q L5Q D5Q S5Q  SYS / # / OBS TYPES 
       C7Q L7Q D7Q S7Q C8Q L8Q D8Q S8Q                      SYS / # / OBS TYPES 
S    9 X1  C1C L1C D1C S1C C5I L5I D5I S5I                  SYS / # / OBS TYPES 
R   17 X1  C1C L1C D1C S1C C2P L2P D2P S2P C2C L2C D2C S2C  SYS / # / OBS TYPES 
       C3Q L3Q D3Q S3Q                                      SYS / # / OBS TYPES 
C   25 X1  C1P L1P D1P S1P C5P L5P D5P S5P C2I L2I D2I S2I  SYS / # / OBS TYPES 
       C7I L7I D7I S7I C6I L6I D6I S6I C7D L7D D7D S7D      SYS / # / OBS TYPES 
J   17 X1  C1C L1C D1C S1C C2L L2L D2L S2L C5Q L5Q D5Q S5Q  SYS / # / OBS TYPES 
       C1L L1L D1L S1L                                      SYS / # / OBS TYPES 
I    5 X1  C5A L5A D5A S5A                                  SYS / # / OBS TYPES 
SEPTENTRIO RECEIVERS OUTPUT ALIGNED CARRIER PHASES.         COMMENT             
NO FURTHER PHASE SHIFT APPLIED IN THE RINEX ENCODER.        COMMENT             
G L1C                                                       SYS / PHASE SHIFT   
G L2W                                                       SYS / PHASE SHIFT   
G L2L  0.00000                                              SYS / PHASE SHIFT   
G L5Q  0.00000                                              SYS / PHASE SHIFT   
G L1L  0.00000                                              SYS / PHASE SHIFT   
E L1C  0.00000                                              SYS / PHASE SHIFT   
E L6C  0.00000                                              SYS / PHASE SHIFT   
E L5Q  0.00000                                              SYS / PHASE SHIFT   
E L7Q  0.00000                                              SYS / PHASE SHIFT   
E L8Q  0.00000                                              SYS / PHASE SHIFT   
S L1C                                                       SYS / PHASE SHIFT   
S L5I                                                       SYS / PHASE SHIFT   
R L1C                                                       SYS / PHASE SHIFT   
R L2P  0.00000                                              SYS / PHASE SHIFT   
R L2C                                                       SYS / PHASE SHIFT   
R L3Q  0.00000                                              SYS / PHASE SHIFT   
C L1P  0.00000                                              SYS / PHASE SHIFT   
C L5P  0.00000                                              SYS / PHASE SHIFT   
C L2I                                                       SYS / PHASE SHIFT   
C L7I                                                       SYS / PHASE SHIFT   
C L6I                                                       SYS / PHASE SHIFT   
C L7D                                                       SYS / PHASE SHIFT   
J L1C                                                       SYS / PHASE SHIFT   
J L2L  0.00000                                              SYS / PHASE SHIFT   
J L5Q  0.00000                                              SYS / PHASE SHIFT   
J L1L  0.00000                                              SYS / PHASE SHIFT   
I L5A                                                       SYS / PHASE SHIFT   
  2025     1     1     0    15    0.0000000     GPS         TIME OF FIRST OBS   
 C1C    0.000 C2C    0.000 C2P    0.000                     GLONASS COD/PHS/BIS 
DBHZ                                                        SIGNAL STRENGTH UNIT
    18                                                      LEAP SECONDS        
 24 R01  1 R02 -4 R03  5 R04  6 R05  1 R06 -4 R07  5 R08  6 GLONASS SLOT / FRQ #
    R09 -2 R10 -7 R11  0 R12 -1 R13 -2 R14 -7 R15  0 R16 -1 GLONASS SLOT / FRQ #
    R17  4 R18 -3 R19  3 R20  2 R21  4 R22 -3 R23  3 R24  2 GLONASS SLOT / FRQ #
                                                            END OF HEADER       
> 2025 01 01 00 15  0.0000000  0 54
G28         1.000    23772007.977 6 124922752.77006      1600.650 6        40.410                                    23772004.718 4  97342384.33504      1247.262 4        26.251    23772004.664 6  97342390.34606      1247.309 6        40.713
G31         2.000    24349005.344 6 127954892.78806      2721.562 6        38.574                                    24349001.960 5  99705096.58505      2120.698 5        32.120    24349002.265 6  99705095.57606      2120.801 6        37.388
G14         3.000    24941664.215 5 131069369.56805     -2707.374 5        35.590                                    24941662.091 2 102131979.12702     -2109.638 2        16.906    24941662.517 5 102131981.09805     -2109.642 5        35.048
G10         4.000    25529051.987 6 134156129.90906     -3533.408 6        36.548                                    25529050.585 4 104537252.67904     -2753.308 4        26.311    25529051.221 5 104537251.69405     -2753.341 5        33.150
S21         5.000    38369761.339 6 201634320.53306      -419.720 6        41.733
R12         6.000    23935134.863 7 127857203.59307     -1775.893 7        44.089                                                                    23935135.287 6  99444506.46606     -1381.196 6        39.601
G21         7.000    21170339.314 7 111250946.60707     -1976.461 7        45.288                                    21170334.121 6  86689053.93906     -1540.102 6        36.934
E04         8.000    23737938.720 7 124743735.03107       143.865 7        46.948                                                                    23737937.127 8  93152794.16108       107.372 8        50.176    23737936.916 8  95582858.99008       110.150 8        50.983
G04        10.000    23963440.532 6 125928746.77606      3364.162 6        40.157                                    23963439.213 4  98126298.40104      2621.411 4        24.180    23963439.449 6  98126293.39906      2621.358 6        40.157
E09        11.000    25709059.997 7 135102058.78807      2426.950 7        43.380                                                                    25709059.655 7 100887914.98707      1812.233 7        45.884    25709059.316 7 103519773.23707      1859.589 7        47.586
S27        12.000    39023058.884 5 205067531.49305      -397.377 5        35.190
S36        14.000    38137498.078 7 200414420.12107      -419.045 7        43.217
E02        15.000    27653983.379 6 145322693.16106     -2397.582 6        37.467                                                                    27653983.354 6 108520211.03606     -1790.269 6        40.036    27653982.716 6 111351168.70706     -1837.156 6        40.107
E36        16.000    24780979.787 7 130224953.90307      1540.080 7        44.728                                                                    24780980.149 8  97245923.64708      1150.022 8        48.003    24780979.831 8  99782768.63708      1180.070 8        49.087
S45        17.000    63339195.327 6 332850393.37506      -461.730 6        36.741
G03        18.000    20659101.905 7 108564367.47407      1413.795 7        47.676                                    20659100.065 8  84595629.86108      1101.658 8        49.200    20659100.595 7  84595638.85807      1101.679 7        44.898
R21        19.000    21420597.397 8 114625977.44708      3142.150 8        48.646                                                                    21420596.042 7  89153546.90907      2443.878 7        43.494
R20        20.000    19095648.241 6 102113061.14606      -396.099 6        40.276                                                                    19095649.680 7  79421269.58707      -307.956 7        47.144
R05        21.000    19011602.574 8 101627954.88908      -178.939 8        52.183                                                                    19011601.343 7  79043970.85907      -139.171 7        46.802
I06        22.000    38197040.178 7 149893619.62507      -208.231 7        42.783
S28        23.000    40814794.227 5 214483190.78405      -411.366 5        33.527
E10        24.000    24473567.741 7 128609591.56907     -2046.093 7        46.317                                                                    24473566.866 8  96039697.83708     -1527.910 8        49.325    24473566.521 8  98545071.67108     -1567.786 8        50.314
S23        25.000    38089321.411 7 200160698.44007      -416.286 7        44.551
E06        26.000    24210152.942 7 127225268.36607      1540.404 7        47.210                                                                    24210152.729 8  95005880.49408      1150.374 8        48.856    24210152.497 8  97484293.41008      1180.325 8        49.839
E30        27.000    28391198.257 6 149196755.47106      -331.523 6        36.575                                                                    28391200.081 6 111413162.20406      -247.516 6        40.493    28391199.478 6 114319590.33706      -253.945 6        41.557
E12        28.000    26486683.304 6 139188605.78606     -2778.009 6        37.467                                                                    26486680.555 6 103939616.73806     -2074.538 6        41.943    26486680.409 7 106651072.71307     -2128.640 7        42.817
E19        30.000    25986207.597 6 136558454.10106     -2743.058 6        36.696                                                                    25986206.464 6 101975467.03706     -2048.250 6        39.432    25986205.735 6 104635694.02506     -2101.821 6        39.814
G32        31.000    23031554.784 7 121031655.70607     -3005.440 7        44.531                                    23031553.126 6  94310377.85506     -2341.901 6        41.857    23031553.816 6  94310382.85306     -2341.890 6        41.447
G02        32.000    20609779.792 8 108305169.90208      -560.971 8        50.178                                    20609773.168 7  84393636.25607      -437.120 7        43.680
G19        33.000    24703667.289 6 129818656.14606      3106.518 6        37.694                                    24703663.528 3 101157408.60803      2420.666 3        21.667
G17        34.000    22804597.688 7 119839022.89707      1515.634 7        44.012                                    22804593.217 6  93381067.18406      1181.015 6        40.772    22804593.335 6  93381067.18306      1180.940 6        39.982
E11        35.000    23215511.987 7 121998410.23007      -758.305 7        43.801                                                                    23215507.477 7  91102728.46207      -566.267 7        46.907    23215507.306 7  93479313.73807      -580.998 7        47.957
C32        36.000                                                                                                                                    22795223.998 8 118700742.11408     -2362.394 8        48.596                                                                    22795223.921 8  96454087.17108     -1919.646 8        49.852
C35        37.000                                                                                                                                    25308035.106 7 131785585.05207      2595.839 7        42.764                                                                    25308033.375 7 107086580.39607      2109.338 7        42.523
C29        39.000                                                                                                                                    21711061.178 8 113055197.82308      -107.284 8        50.689                                                                    21711058.484 8  91866604.10908       -87.174 8        49.145
G08        40.000    24120495.059 6 126754093.50906     -4110.529 6        39.814                                    24120494.861 5  98769444.02405     -3203.009 5        33.557    24120495.200 6  98769451.03706     -3203.176 6        36.677
S44        42.000    40486781.082 6 212759670.30406      -483.001 6        36.004
C09        43.000                                                                                                                                    39822902.027 6 207368313.70506      1105.544 6        39.261    39822898.831 7 160350323.14707       854.964 7        43.863    39822896.598 6 168503720.44706       898.438 6        39.739
C05        44.000                                                                                                                                    39055459.298 6 203372060.78906      -403.347 6        37.951    39055454.748 7 157260201.99107      -311.944 7        43.805    39055456.546 6 165256561.52306      -327.894 6        40.589
R06        45.000    22631044.085 6 120763613.13506      3526.791 6        36.129
R13        46.000    23884914.368 6 127544123.34606       791.353 6        37.452
C39        47.000                                                                                                                                    39017064.067 7 203172097.69507       228.977 7        42.100                                                                    39017059.440 7 165093960.86707       185.955 7        43.247
C20        48.000                                                                                                                                    22080949.589 8 114981345.08208       885.130 8        51.974                                                                    22080943.986 8  93431753.01208       719.235 8        49.269
C06        49.000                                                                                                                                    38919043.523 6 202661691.02206       762.964 6        39.736    38919038.373 7 156710857.17607       590.016 7        43.500    38919037.719 6 164679202.91906       620.074 6        40.122
C16        50.000                                                                                                                                    39244433.146 6 204356077.80906       640.399 6        40.861    39244433.759 7 158021090.30907       495.108 7        42.773    39244431.046 6 166056050.50706       520.442 6        38.622
S48        51.000    77124548.241 6 405292522.52206      -426.632 6        36.635
C19        52.000                                                                                                                                    25454683.926 7 132549255.83107      2673.535 7        42.944                                                                    25454680.131 7 107707126.47907      2172.463 7        43.426
R04        53.000    20893806.855 8 111885414.13208     -3734.101 8        49.691                                                                    20893804.996 7  87021996.53507     -2904.306 7        44.913
C60        54.000                                                                                                                                    40486783.853 6 210825510.95506      -478.643 6        38.357                                                                    40486767.721 6 171312966.96206      -389.003 6        40.336
C30        55.000                                                                                                                                    23265861.597 7 121151441.22007     -3184.274 7        47.874                                                                    23265862.185 7  98445467.88007     -2587.528 7        46.943
R19        56.000    22398308.979 6 119815884.28006     -4281.365 6        36.662                                                                    22398308.306 6  93190170.03606     -3329.742 6        39.168
C02        57.000                                                                                                                                    40468326.488 5 210729246.67305      -447.240 5        33.048    40468320.306 6 162949214.75606      -345.561 6        40.527    40468323.843 6 171234777.84906      -362.954 6        36.102
I03        58.000   133995402.899 6 450041500.40606       987.913 6        40.741
C13        59.000                                                                                                                                    40920160.279 6 213082078.17106     -1122.973 6        36.310    40920163.097 6 164768620.42906      -868.157 6        38.105    40920160.748 6 173146672.44106      -912.439 6        36.049
> 2025 01 01 00 15  5.0000000  0 54
G28         1.000    23770486.230 6 124914755.93006      1598.157 6        40.338                                    23770482.989 4  97336153.03104      1245.333 4        26.275    23770483.347 6  97336159.04906      1245.156 6        40.524
G31         2.000    24346416.922 6 127941288.49706      2720.240 6        38.979                                    24346413.141 5  99694495.84405      2119.664 5        32.024    24346412.971 6  99694494.84506      2119.804 6        37.172
G14         3.000    24944241.455 5 131082911.66305     -2709.206 5        35.267                                    24944238.814 2 102142531.39202     -2111.062 2        15.571    24944239.132 5 102142533.40305     -2111.162 5        33.641
G10         4.000    25532414.327 6 134173796.79906     -3533.647 6        36.877                                    25532412.597 4 104551019.07704     -2753.488 4        26.719    25532412.754 5 104551018.08505     -2753.440 5        33.425
S21         5.000    38370160.020 6 201636420.32606      -420.083 6        41.642
R12         6.000    23936797.887 7 127866093.52707     -1779.835 7        42.756                                                                    23936799.053 6  99451420.96706     -1384.462 6        40.176
G21         7.000    21172221.083 7 111260834.48807     -1978.639 7        45.145                                    21172215.717 6  86696758.77806     -1541.798 6        36.907
E04         8.000    23737803.583 7 124743023.30907       141.065 7        47.075                                                                    23737801.737 8  93152262.68508       105.349 8        50.175    23737801.457 8  95582313.65008       108.124 8        51.154
G04        10.000    23960240.119 6 125911929.03606      3363.260 6        39.934                                    23960238.729 4  98113193.68104      2620.730 4        24.406    23960239.220 6  98113188.67806      2620.674 6        40.095
E09        11.000    25706751.825 7 135089928.19907      2425.378 7        43.879                                                                    25706751.200 7 100878856.43307      1811.172 7        45.892    25706750.975 7 103510478.37507      1858.447 7        47.782
S27        12.000    39023435.891 5 205069519.93105      -397.812 5        35.338
S36        14.000    38137897.165 7 200416517.46407      -419.631 7        43.319
E02        15.000    27656265.708 6 145334685.55306     -2399.399 6        37.701                                                                    27656265.457 6 108529166.38206     -1791.455 6        39.982    27656264.812 6 111360357.67906     -1838.552 6        40.284
E36        16.000    24779515.208 7 130217256.76107      1538.960 7        44.781                                                                    24779515.490 8  97240175.78408      1149.141 8        48.075    24779515.137 8  99776870.83008      1179.159 8        49.194
S45        17.000    63339589.577 6 332852702.76406      -462.023 6        36.945
G03        18.000    20657757.695 7 108557304.31107      1411.546 7        47.513                                    20657756.003 8  84590126.09908      1099.904 8        49.160    20657756.466 7  84590135.10207      1099.935 7        44.614
R21        19.000    21417662.613 8 114610271.65508      3140.285 8        49.127                                                                    21417660.824 7  89141331.29107      2442.421 7        42.931
R20        20.000    19096021.184 6 102115051.70306      -400.248 6        40.236                                                                    19096022.348 7  79422817.78607      -311.190 7        47.244
R05        21.000    19011772.209 8 101628860.49708      -183.237 8        52.362                                                                    19011770.759 7  79044675.20907      -142.446 7        46.593
I06        22.000    38197305.670 7 149894661.41607      -208.485 7        42.737
S28        23.000    40815186.004 5 214485250.30305      -411.988 5        33.683
E10        24.000    24475515.137 7 128619826.26707     -2047.729 7        46.436                                                                    24475514.443 8  96047340.63308     -1529.178 8        49.325    24475514.064 8  98552913.83508     -1569.002 8        50.442
S23        25.000    38089717.538 7 200162781.03507      -416.663 7        44.558
E06        26.000    24208688.266 7 127217571.83707      1538.196 7        46.857                                                                    24208688.157 8  95000133.09008      1148.650 8        48.848    24208687.972 8  97478396.07508      1178.606 8        50.039
E30        27.000    28391514.987 6 149198419.24806      -334.049 6        37.372                                                                    28391516.551 6 111414404.68706      -249.572 6        40.710    28391516.092 7 114320865.22907      -255.988 7        42.059
E12        28.000    26489327.396 6 139202499.86606     -2779.437 6        37.747                                                                    26489324.662 7 103949992.18807     -2075.481 7        42.072    26489324.443 7 106661718.82607     -2129.627 7        42.631
E19        30.000    25988817.992 6 136572173.81406     -2744.846 6        36.265                                                                    25988817.029 6 101985712.26606     -2049.646 6        39.309    25988816.566 6 104646206.53706     -2103.217 6        39.667
G32        31.000    23034415.806 7 121046688.60307     -3007.643 7        44.290                                    23034413.802 6  94322091.79306     -2343.617 6        41.707    23034414.654 6  94322096.79706     -2343.635 6        41.807
G02        32.000    20610314.890 8 108307981.33208      -563.534 8        50.001                                    20610308.171 7  84395826.98207      -439.118 7        43.719
G19        33.000    24700712.387 6 129803127.35706      3104.886 6        37.353                                    24700708.622 3 101145308.24903      2419.387 3        21.762
G17        34.000    22803157.156 7 119831452.43307      1512.850 7        44.260                                    22803152.568 6  93375168.12806      1178.844 6        40.877    22803153.108 6  93375168.13706      1178.805 6        40.296
E11        35.000    23216234.531 7 122002206.57107      -760.096 7        43.771                                                                    23216229.955 7  91105563.38907      -567.642 7        46.923    23216229.727 8  93482222.61808      -582.351 8        48.119
C32        36.000                                                                                                                                    22797493.208 8 118712559.13408     -2364.316 8        49.099                                                                    22797493.245 8  96463689.46208     -1921.183 8        49.931
C35        37.000                                                                                                                                    25305542.814 7 131772609.04007      2594.518 7        42.648                                                                    25305541.540 7 107076036.31207      2108.313 7        42.307
C29        39.000                                                                                                                                    21711165.580 8 113055741.98508      -110.275 8        50.937                                                                    21711162.950 8  91867046.28008       -89.674 8        49.139
G08        40.000    24124406.089 6 126774647.84206     -4111.141 6        39.631                                    24124405.912 5  98785460.38105     -3203.489 5        32.976    24124406.390 6  98785467.38206     -3203.323 6        36.042
S44        42.000    40487242.898 5 212762086.88905      -483.463 5        35.619
C09        43.000                                                                                                                                    39821841.824 6 207362788.30606      1104.626 6        40.031    39821837.657 7 160346050.57207       854.257 7        44.027    39821835.464 6 168499230.61506       897.562 6        39.709
C05        44.000                                                                                                                                    39055846.854 6 203374079.02606      -403.756 6        38.165    39055842.241 7 157261762.61907      -312.215 7        43.863    39055844.128 6 165258201.50006      -328.079 6        40.689
R06        45.000    22627739.174 6 120745984.61306      3524.830 6        37.009
R13        46.000    23884176.347 6 127540176.62206       787.301 6        36.749
C39        47.000                                                                                                                                    39016845.152 7 203170956.55207       227.572 7        42.476                                                                    39016840.279 7 165093033.59007       184.945 7        43.179
C20        48.000                                                                                                                                    22080100.911 8 114976925.76108       882.678 8        52.039                                                                    22080095.278 8  93428161.94508       717.196 8        49.296
C06        49.000                                                                                                                                    38918312.233 6 202657879.12106       761.727 6        40.131    38918306.313 7 156707909.58407       589.060 7        43.619    38918305.617 6 164676105.43706       618.912 6        40.250
C16        50.000                                                                                                                                    39243819.498 6 204352879.47806       639.056 6        40.987    39243819.412 7 158018617.15607       494.119 7        42.806    39243816.846 6 166053451.59006       519.198 6        38.787
S48        51.000    77124943.018 6 405294656.64906      -426.864 6        37.021
C19        52.000                                                                                                                                    25452117.042 7 132535891.10707      2672.383 7        42.451                                                                    25452113.459 7 107696266.53807      2171.582 7        43.465
R04        53.000    20897294.442 8 111904090.67908     -3736.384 8        49.199                                                                    20897293.070 7  87036522.73007     -2906.070 7        45.065
C60        54.000                                                                                                                                    40487243.509 6 210827905.55106      -479.162 6        38.468                                                                    40487227.538 6 171314912.76706      -389.358 6        40.329
C30        55.000                                                                                                                                    23268920.102 8 121167367.76408     -3186.253 8        48.249                                                                    23268920.709 7  98458409.48307     -2589.046 7        46.894
R19        56.000    22402311.797 6 119837295.92506     -4283.450 6        37.130                                                                    22402311.280 6  93206823.54806     -3331.453 6        39.489
C02        57.000                                                                                                                                    40468755.800 5 210731482.30305      -447.380 5        33.114    40468749.881 6 162950943.53306      -346.067 6        40.536    40468752.814 6 171236594.49806      -363.404 6        36.280
I03        58.000   133994144.540 6 450036562.24106       987.528 6        40.682
C13        59.000                                                                                                                                    40921239.015 6 213087693.26006     -1122.744 6        36.363    40921241.131 6 164772962.40706      -868.548 6        37.822    40921239.151 6 173151235.15306      -912.519 6        36.231
> 2025 01 01 00 15 10.0000000  0 54
G28         1.000    23768966.956 6 124906770.48906      1596.014 6        40.632                                    23768963.608 4  97329930.61704      1243.648 4        26.156    23768963.415 6  97329936.62906      1243.508 6        40.808
G31         2.000    24343828.679 6 127927688.57406      2719.619 6        38.772                                    24343825.060 5  99683898.50505      2119.181 5        31.955    24343825.114 6  99683897.50306      2119.114 6        37.270
G14         3.000    24946820.412 5 131096460.81705     -2710.594 5        35.595                                    24946817.080 2 102153089.16502     -2112.145 2        15.571    24946817.793 5 102153091.13205     -2112.033 5        35.324
G10         4.000    25535776.008 6 134191463.54806     -3533.436 6        36.915                                    25535774.604 4 104564785.37804     -2753.331 4        26.778    25535774.439 5 104564784.35705     -2753.210 5        34.105
S21         5.000    38370562.247 6 201638520.23106      -419.951 6        41.816
R12         6.000    23938464.594 7 127875002.04407     -1783.591 7        43.627                                                                    23938467.108 6  99458349.73906     -1387.069 6        40.694
G21         7.000    21174104.076 7 111270731.41207     -1980.224 7        45.180                                    21174099.030 6  86704470.66506     -1543.032 6        36.862
E04         8.000    23737670.424 7 124742323.38707       138.866 7        46.910                                                                    23737668.557 8  93151740.01108       103.704 8        50.214    23737668.263 8  95581777.34408       106.389 8        51.106
G04        10.000    23957040.435 6 125895114.16906      3362.688 6        39.375                                    23957038.841 4  98100091.19204      2620.274 4        24.421    23957038.944 6  98100086.19406      2620.359 6        40.081
E09        11.000    25704444.383 7 135077803.36707      2424.470 7        44.158                                                                    25704443.924 7 100869802.18007      1810.429 7        45.952    25704443.813 7 103501187.92607      1857.657 7        47.762
S27        12.000    39023818.528 5 205071508.66005      -397.657 5        35.476
S36        14.000    38138294.500 7 200418614.65907      -419.514 7        43.354
E02        15.000    27658549.225 6 145346685.45106     -2400.539 6        37.739                                                                    27658548.845 6 108538127.34906     -1792.668 6        40.136    27658548.082 6 111369552.41206     -1839.483 6        40.358
E36        16.000    24778051.379 7 130209563.58107      1538.254 7        44.921                                                                    24778051.407 8  97234430.87908      1148.716 8        48.114    24778051.159 8  99770976.05308      1178.677 8        49.186
S45        17.000    63339984.993 6 332855012.18106      -461.850 6        36.930
G03        18.000    20656415.375 7 108550250.85007      1409.721 7        47.545                                    20656413.774 8  84584629.89808      1098.484 8        49.124    20656413.926 7  84584638.90007      1098.493 7        44.594
R21        19.000    21414729.218 8 114594573.79108      3138.840 8        49.122                                                                    21414727.684 7  89129121.82907      2441.358 7        43.547
R20        20.000    19096396.554 6 102117061.01206      -403.740 6        40.341                                                                    19096398.110 7  79424380.59207      -313.985 7        47.597
R05        21.000    19011945.148 8 101629785.65808      -186.912 8        52.314                                                                    19011943.859 7  79045394.78007      -145.410 7        46.617
I06        22.000    38197571.217 7 149895703.37907      -208.392 7        42.974
S28        23.000    40815577.445 5 214487309.83605      -411.860 5        33.778
E10        24.000    24477464.150 7 128630067.50007     -2048.822 7        46.403                                                                    24477463.345 8  96054988.30308     -1529.990 8        49.374    24477462.985 8  98560761.01608     -1569.931 8        50.373
S23        25.000    38090113.375 7 200164863.82207      -416.579 7        44.537
E06        26.000    24207225.408 7 127209884.72807      1536.497 7        46.831                                                                    24207225.341 8  94994392.71108      1147.417 8        48.911    24207225.190 8  97472505.94908      1177.326 8        50.001
E30        27.000    28391833.558 6 149200094.99406      -336.149 6        37.285                                                                    28391835.410 6 111415656.10906      -251.204 6        41.094    28391834.812 7 114322149.27707      -257.483 7        42.347
E12        28.000    26491972.119 6 139216398.29706     -2780.007 6        37.679                                                                    26491969.573 7 103960370.88307     -2076.118 7        42.229    26491969.477 7 106672368.26007     -2130.131 7        42.601
E19        30.000    25991430.266 6 136585900.50806     -2745.912 6        36.163                                                                    25991429.285 6 101995962.72506     -2050.676 6        39.207    25991428.769 6 104656724.39006     -2104.138 6        39.402
G32        31.000    23037278.199 7 121061731.24007     -3009.548 7        44.035                                    23037276.298 6  94333813.32006     -2345.100 6        41.545    23037276.983 6  94333818.30106     -2344.995 6        41.368
G02        32.000    20610851.883 8 108310803.86908      -565.588 8        49.860                                    20610845.285 7  84398026.35807      -440.717 7        43.621
G19        33.000    24697758.916 6 129787605.16806      3103.902 6        38.201                                    24697754.981 3 101133213.06103      2418.619 3        21.738
G17        34.000    22801718.976 7 119823894.29907      1510.449 7        44.181                                    22801714.288 6  93369278.66506      1176.973 6        40.775    22801714.711 6  93369278.66606      1176.977 6        40.400
E11        35.000    23216958.174 7 122006010.52907      -761.429 7        43.668                                                                    23216953.798 7  91108404.00507      -568.607 7        47.034    23216953.630 8  93485137.34708      -583.466 8        48.093
C32        36.000                                                                                                                                    22799764.286 8 118724384.08308     -2365.778 8        48.974                                                                    22799764.079 8  96473298.18908     -1922.280 8        49.967
C35        37.000                                                                                                                                    25303051.591 7 131759637.75707      2593.900 7        42.271                                                                    25303050.695 7 107065496.09407      2107.803 7        42.508
C29        39.000                                                                                                                                    21711272.495 8 113056299.47508      -112.811 8        50.631                                                                    21711270.068 8  91867499.27508       -91.612 8        49.133
G08        40.000    24128317.785 6 126795203.52506     -4111.159 6        39.174                                    24128317.097 5  98801477.79305     -3203.496 5        32.515    24128317.956 5  98801484.80305     -3203.587 5        35.952
S44        42.000    40487699.491 5 212764503.73305      -483.177 5        35.781
C09        43.000                                                                                                                                    39820781.562 6 207357266.31306      1104.067 6        39.790    39820777.165 7 160341780.60907       853.642 7        44.114    39820775.051 6 168494743.52706       897.178 6        39.646
C05        44.000                                                                                                                                    39056234.253 6 203376097.56006      -403.758 6        37.800    39056229.877 7 157263323.47207      -312.140 7        43.746    39056231.746 6 165259841.71306      -327.928 6        40.636
R06        45.000    22624436.918 6 120728363.26006      3523.621 6        36.953
R13        46.000    23883440.833 6 127536249.28906       783.780 6        37.183
C39        47.000                                                                                                                                    39016626.604 7 203169820.56307       226.665 7        42.275                                                                    39016622.132 7 165092110.48807       184.317 7        43.107
C20        48.000                                                                                                                                    22079254.337 8 114972517.28608       880.668 8        51.722                                                                    22079248.674 8  93424579.68708       715.631 8        49.229
C06        49.000                                                                                                                                    38917580.786 6 202654071.71906       761.102 6        39.667    38917575.369 7 156704965.45507       588.474 7        43.602    38917574.610 6 164673011.59606       618.470 6        40.410
C16        50.000                                                                                                                                    39243205.877 6 204349685.70806       638.351 6        40.698    39243206.108 7 158016147.53507       493.606 7        42.669    39243203.376 6 166050856.40006       518.648 6        38.745
S48        51.000    77125342.956 6 405296790.91606      -426.786 6        36.994
C19        52.000                                                                                                                                    25449552.075 7 132522530.70007      2671.726 7        42.828                                                                    25449547.715 7 107685410.11307      2171.000 7        43.585
R04        53.000    20900784.063 8 111922777.02308     -3738.208 8        49.738                                                                    20900782.465 7  87051056.55307     -2907.528 7        45.112
C60        54.000                                                                                                                                    40487703.196 6 210830300.43006      -478.936 6        38.204                                                                    40487687.596 6 171316858.77806      -389.162 6        40.200
C30        55.000                                                                                                                                    23271980.263 8 121183302.30508     -3187.658 8        48.075                                                                    23271980.826 7  98471357.60107     -2590.164 7        46.925
R19        56.000    22406316.257 6 119858715.84106     -4284.711 6        36.601                                                                    22406314.803 6  93223483.48606     -3332.641 6        39.483
C02        57.000                                                                                                                                    40469184.754 5 210733718.25805      -447.145 5        33.132    40469179.175 6 162952672.50106      -345.675 6        40.660    40469182.341 5 171238411.39205      -363.454 5        35.986
I03        58.000   133992886.476 6 450031624.40406       987.541 6        40.763
C13        59.000                                                                                                                                    40922316.649 6 213093307.91006     -1122.840 6        36.049    40922319.364 6 164777303.98806      -868.325 6        37.943    40922317.474 6 173155797.51506      -912.522 6        36.234
> 2025 01 01 00 15 15.0000000  0 54
G28         1.000    23767449.564 6 124898796.04806      1593.763 6        40.789                                    23767446.185 4  97323716.77704      1241.894 4        26.240    23767446.354 6  97323722.78106      1241.911 6        40.486
G31         2.000    24341241.536 6 127914092.61606      2718.818 6        39.264                                    24341237.752 5  99673304.25505      2118.561 5        32.090    24341237.882 6  99673303.26106      2118.513 6        37.187
G14         3.000    24949400.416 6 131110016.56706     -2711.756 6        36.212                                    24949396.719 2 102163652.08502     -2113.051 2        15.952    24949397.017 5 102163654.08405     -2113.073 5        35.648
G10         4.000    25539137.816 6 134209129.67406     -3533.255 6        36.892                                    25539136.580 4 104578551.17404     -2753.178 4        27.054    25539135.882 5 104578550.18805     -2753.068 5        33.234
S21         5.000    38370958.424 6 201640620.02906      -419.841 6        41.781
R12         6.000    23940136.659 7 127883929.00107     -1787.202 7        43.554                                                                    23940138.341 6  99465292.88206     -1389.999 6        39.501
G21         7.000    21175989.426 7 111280636.96207     -1982.006 7        45.427                                    21175984.034 6  86712189.27306     -1544.420 6        37.025
E04         8.000    23737539.431 7 124741634.84207       136.565 7        47.065                                                                    23737537.495 8  93151225.83808       101.959 8        50.183    23737537.199 8  95581249.75408       104.654 8        51.000
G04        10.000    23953840.766 6 125878301.74506      3362.233 6        39.084                                    23953839.475 4  98086990.62204      2619.923 4        24.030    23953839.724 6  98086985.62906      2619.935 6        39.799
E09        11.000    25702137.861 7 135065683.87707      2423.347 7        43.905                                                                    25702137.768 7 100860751.91107      1809.678 7        46.020    25702137.631 7 103491901.56807      1856.869 7        47.671
S27        12.000    39024195.477 5 205073496.71405      -397.729 5        35.414
S36        14.000    38138695.605 7 200420711.30907      -419.317 7        43.281
E02        15.000    27660833.682 6 145358692.42306     -2401.953 6        37.939                                                                    27660833.607 6 108547093.60206     -1793.698 6        40.043    27660833.153 6 111378752.54906     -1840.541 6        40.298
E36        16.000    24776587.915 7 130201873.94607      1537.608 7        45.070                                                                    24776588.145 8  97228688.62008      1148.194 8        48.072    24776587.907 8  99765084.00008      1178.158 8        49.160
S45        17.000    63340379.390 6 332857321.33706      -462.017 6        37.013
G03        18.000    20655075.247 7 108543206.66007      1407.913 7        47.989                                    20655073.306 8  84579140.92108      1097.075 8        49.236    20655073.756 7  84579149.91707      1097.046 7        44.385
R21        19.000    21411797.149 8 114578883.49108      3137.339 8        49.295                                                                    21411795.750 7  89116918.27107      2440.116 7        43.670
R20        20.000    19096775.387 6 102119088.71306      -407.358 6        40.095                                                                    19096777.081 7  79425957.69207      -316.824 7        47.279
R05        21.000    19012121.771 8 101630729.99008      -190.772 8        52.436                                                                    19012120.590 7  79046129.26707      -148.357 7        46.717
I06        22.000    38197836.582 7 149896745.19407      -208.448 7        42.781
S28        23.000    40815971.905 5 214489369.16505      -411.740 5        33.838
E10        24.000    24479414.260 7 128640314.85307     -2050.119 7        46.619                                                                    24479413.347 8  96062640.54108     -1530.809 8        49.307    24479413.012 8  98568612.88308     -1570.825 8        50.291
S23        25.000    38090510.120 7 200166946.48707      -416.500 7        44.513
E06        26.000    24205764.489 7 127202206.60107      1534.755 7        47.113                                                                    24205764.230 8  94988659.05108      1146.104 8        48.868    24205764.001 8  97466622.71108      1175.962 8        49.936
E30        27.000    28392154.618 6 149201782.42706      -338.698 6        36.756                                                                    28392156.352 6 111416916.28306      -253.009 6        40.996    28392155.736 7 114323442.32507      -259.506 7        42.392
E12        28.000    26494617.661 6 139230300.67006     -2780.879 6        38.048                                                                    26494615.102 7 103970752.51807     -2076.610 7        42.190    26494615.294 7 106683020.73707     -2130.676 7        42.809
E19        30.000    25994044.215 6 136599633.71706     -2747.160 6        36.261                                                                    25994042.704 6 102006218.02606     -2051.570 6        39.054    25994042.112 6 104667247.21806     -2105.085 6        39.517
G32        31.000    23040142.514 7 121076783.13807     -3011.259 7        44.257                                    23040140.528 6  94345542.06406     -2346.433 6        41.628    23040141.102 6  94345547.06406     -2346.492 6        40.687
G02        32.000    20611391.211 8 108313637.08708      -567.713 8        49.971                                    20611384.415 7  84400234.05907      -442.373 7        43.699
G19        33.000    24694806.381 6 129772088.96606      3102.636 6        36.911                                    24694802.252 3 101121122.53503      2417.627 3        21.857
G17        34.000    22800282.671 7 119816348.09307      1508.096 7        44.662                                    22800278.298 6  93363398.51206      1175.139 6        40.858    22800278.728 6  93363398.51306      1175.111 6        40.949
E11        35.000    23217683.573 7 122009821.70907      -762.925 7        43.702                                                                    23217679.008 7  91111250.01507      -569.697 7        47.004    23217678.879 7  93488057.59407      -584.543 7        47.904
C32        36.000                                                                                                                                    22802036.505 8 118736216.52808     -2367.260 8        48.825                                                                    22802036.382 8  96482913.04208     -1923.665 8        49.815
C35        37.000                                                                                                                                    25300561.018 6 131746670.75606      2592.946 6        41.981                                                                    25300560.580 7 107054959.36407      2106.927 7        42.387
C29        39.000                                                                                                                                    21711382.012 8 113056869.87408      -115.381 8        50.625                                                                    21711379.619 8  91867962.78608       -93.793 8        49.051
G08        40.000    24132229.549 6 126815760.11206     -4111.436 6        39.126                                    24132228.617 5  98817495.91305     -3203.717 5        32.419    24132230.555 6  98817502.91706     -3203.890 6        36.378
S44        42.000    40488164.253 5 212766920.40705      -483.257 5        35.790
C09        43.000                                                                                                                                    39819721.510 6 207351747.28706      1103.435 6        40.052    39819717.546 7 160337512.95007       853.341 7        44.196    39819715.207 6 168490258.89006       896.567 6        39.285
C05        44.000                                                                                                                                    39056622.014 6 203378115.96406      -403.814 6        37.913    39056617.290 7 157264884.22607      -312.053 7        43.790    39056619.306 6 165261481.84706      -328.158 6        40.343
R06        45.000    22621136.694 6 120710748.79606      3522.361 6        37.214
R13        46.000    23882707.728 6 127532340.96606       779.797 6        36.650
C39        47.000                                                                                                                                    39016409.316 7 203168689.28507       225.698 7        42.250                                                                    39016404.890 7 165091191.24707       183.363 7        43.086
C20        48.000                                                                                                                                    22078409.947 8 114968119.24308       878.577 8        51.949                                                                    22078404.113 8  93421005.94208       713.775 8        49.270
C06        49.000                                                                                                                                    38916849.924 6 202650268.42006       760.234 6        39.508    38916844.706 7 156702024.50507       587.955 7        43.439    38916844.386 6 164669921.12306       617.696 6        40.298
C16        50.000                                                                                                                                    39242593.121 6 204346496.11906       637.605 6        40.801    39242593.393 7 158013681.13807       493.028 7        42.574    39242591.001 6 166048264.59706       517.908 6        38.670
S48        51.000    77125739.732 6 405298924.87706      -426.756 6        37.013
C19        52.000                                                                                                                                    25446987.552 7 132509174.18107      2670.957 7        43.467                                                                    25446982.868 7 107674556.87107      2170.195 7        43.418
R04        53.000    20904275.556 8 111941472.74508     -3740.039 8        49.577                                                                    20904273.417 7  87065597.66207     -2908.885 7        45.317
C60        54.000                                                                                                                                    40488163.000 6 210832695.13506      -479.052 6        38.261                                                                    40488147.382 6 171318804.68606      -389.127 6        40.079
C30        55.000                                                                                                                                    23275041.534 7 121199244.43707     -3189.154 7        47.860                                                                    23275042.306 7  98484311.90407     -2591.528 7        46.812
R19        56.000    22410322.285 6 119880143.69406     -4286.397 6        37.331                                                                    22410321.439 6  93240149.58306     -3333.832 6        39.339
C02        57.000                                                                                                                                    40469614.463 5 210735954.15605      -447.138 5        33.096    40469608.822 6 162954401.44006      -345.727 6        40.451    40469611.764 5 171240228.26605      -363.612 5        35.829
I03        58.000   133991628.035 6 450026686.63106       987.531 6        40.856
C13        59.000                                                                                                                                    40923394.807 6 213098921.74906     -1122.485 6        36.548    40923397.248 6 164781644.94506      -867.946 6        37.939    40923395.717 6 173160359.23806      -912.537 6        36.389
> 2025 01 01 00 15 20.0000000  0 54
G28         1.000    23765933.761 6 124890833.07806      1591.535 6        40.381                                    23765930.864 4  97317511.86904      1240.148 4        26.012    23765930.722 6  97317517.87406      1240.064 6        39.925
G31         2.000    24338655.348 6 127900501.14306      2717.982 6        38.928                                    24338651.308 5  99662713.50005      2117.907 5        32.084    24338651.566 6  99662712.50006      2117.882 6        37.051
G14         3.000    24951981.130 5 131123579.44505     -2713.247 5        35.862                                    24951977.659 2 102174220.54902     -2114.217 2        15.857    24951978.073 5 102174222.58405     -2114.354 5        34.743
G10         4.000    25542499.215 6 134226795.63006     -3533.258 6        36.873                                    25542498.498 4 104592316.85304     -2753.190 4        26.587    25542498.264 5 104592315.87005     -2753.272 5        32.796
S21         5.000    38371359.045 6 201642719.86706      -420.165 6        41.807
R12         6.000    23941811.374 7 127892874.92407     -1791.052 7        43.462                                                                    23941812.999 6  99472250.79506     -1393.209 6        38.715
G21         7.000    21177875.874 7 111290551.58207     -1983.846 7        45.052                                    21177870.705 6  86719914.95006     -1545.855 6        36.832
E04         8.000    23737410.627 7 124740958.16407       134.200 7        47.369                                                                    23737408.746 8  93150720.53408       100.175 8        50.154    23737408.439 8  95580731.26608       102.781 8        50.975
G04        10.000    23950642.367 6 125861492.27706      3361.785 6        38.814                                    23950640.763 3  98073892.35303      2619.571 3        23.581    23950640.960 6  98073887.35906      2619.371 6        39.547
E09        11.000    25699832.663 7 135053570.20807      2422.159 7        44.045                                                                    25699832.689 7 100851706.00107      1808.740 7        46.039    25699832.441 7 103482619.67507      1855.922 7        47.778
S27        12.000    39024571.827 5 205075485.03605      -397.478 5        35.652
S36        14.000    38139091.630 7 200422808.68707      -419.459 7        43.329
E02        15.000    27663119.486 6 145370706.96406     -2403.681 6        37.508                                                                    27663120.226 6 108556065.47906     -1794.961 6        39.874    27663119.329 6 111387958.49006     -1841.884 6        40.403
E36        16.000    24775125.316 7 130194188.34007      1536.811 7        44.950                                                                    24775125.616 8  97222949.36808      1147.556 8        48.025    24775125.365 8  99759195.02708      1177.513 8        49.142
S45        17.000    63340774.905 6 332859630.79406      -461.860 6        37.009
G03        18.000    20653736.728 7 108536172.22007      1405.963 7        47.645                                    20653734.695 8  84573659.54008      1095.554 8        49.144    20653735.508 7  84573668.54107      1095.552 7        44.504
R21        19.000    21408865.800 8 114563201.22808      3135.684 8        48.904                                                                    21408864.558 7  89104720.97307      2438.852 7        43.261
R20        20.000    19097157.999 6 102121135.22406      -411.064 6        40.791                                                                    19097159.368 7  79427549.43107      -319.824 7        47.310
R05        21.000    19012302.188 8 101631693.90608      -194.699 8        52.498                                                                    19012300.558 7  79046878.97607      -151.493 7        46.589
I06        22.000    38198102.179 7 149897787.21007      -208.341 7        42.851
S28        23.000    40816361.920 5 214491428.81005      -411.709 5        33.832
E10        24.000    24481365.373 7 128650568.79407     -2051.457 7        46.622                                                                    24481364.631 8  96070297.70708     -1531.916 8        49.261    24481364.273 8  98576469.80108     -1571.884 8        50.211
S23        25.000    38090906.176 7 200169029.42607      -416.630 7        44.740
E06        26.000    24204305.342 7 127194537.94707      1532.811 7        47.210                                                                    24204304.911 8  94982932.46708      1144.600 8        48.804    24204304.727 8  97460746.73708      1174.437 8        49.918
E30        27.000    28392477.863 6 149203481.77006      -341.044 6        36.397                                                                    28392479.628 6 111418185.23506      -254.681 6        39.571    28392479.125 6 114324744.39206      -261.420 6        41.189
E12        28.000    26497264.309 6 139244207.45506     -2781.983 6        38.201                                                                    26497261.418 7 103981137.44207     -2077.250 7        42.182    26497261.724 7 106693676.58207     -2131.552 7        42.914
