     3.04           OBSERVATION DATA    M                   RINEX VERSION / TYPE
ssrcrin-15.6.1x                         20250101 011500 UTC PGM / RUN BY / DATE 
(00000000023479385599111004) Septentrio proprietary         COMMENT             
rref                                                        MARKER NAME         
01                                                          MARKER NUMBER       
geodetic                                                    MARKER TYPE         
NFB                 CLIMERS@TUW                             OBSERVER / AGENCY   
3297213             SEPT ASTERX SB3 PROB4.14.4              REC # / TYPE / VERS 
Unknown             Unknown                                 ANT # / TYPE        
  4127831.7112  1207193.0413  4695247.6274                  APPROX POSITION XYZ 
        0.0000        0.0000        0.0000                  ANTENNA: DELTA H/E/N
G   23 X1  C1C L1C D1C S1C C1W S1W C2W L2W D2W S2W C2L L2L  SYS / # / OBS TYPES 
       D2L S2L C5Q L5Q D5Q S5Q C1L L1L D1L S1L              SYS / # / OBS TYPES 
E   21 X1  C1C L1C D1C S1C C6C L6C D6C S6C C5Q L5Q D5Q S5Q  SYS / # / OBS TYPES 
       C7Q L7Q D7Q S7Q C8Q L8Q D8Q S8Q                      SYS / # / OBS TYPES 
S    9 X1  C1C L1C D1C S1C C5I L5I D5I S5I                  SYS / # / OBS TYPES 
R   17 X1  C1C L1C D1C S1C C2P L2P D2P S2P C2C L2C D2C S2C  SYS / # / OBS TYPES 
       C3Q L3Q D3Q S3Q                                      SYS / # / OBS TYPES 
C   25 X1  C1P L1P D1P S1P C5P L5P D5P S5P C2I L2I D2I S2I  SYS / # / OBS TYPES 
       C7I L7I D7I S7I C6I L6I D6I S6I C7D L7D D7D S7D      SYS / # / OBS TYPES 
J   17 X1  C1C L1C D1C S1C C2L L2L D2L S2L C5Q L5Q D5Q S5Q  SYS / # / OBS TYPES 
       C1L L1L D1L S1L                                      SYS / # / OBS TYPES 
I    5 X1  C5A L5A D5A S5A                                  SYS / # / OBS TYPES 
SEPTENTRIO RECEIVERS OUTPUT ALIGNED CARRIER PHASES.         COMMENT             
NO FURTHER PHASE SHIFT APPLIED IN THE RINEX ENCODER.        COMMENT             
G L1C                                                       SYS / PHASE SHIFT   
G L2W                                                       SYS / PHASE SHIFT   
G L2L  0.00000                                              SYS / PHASE SHIFT   
G L5Q  0.00000                                              SYS / PHASE SHIFT   
G L1L  0.00000                                              SYS / PHASE SHIFT   
E L1C  0.00000                                              SYS / PHASE SHIFT   
E L6C  0.00000                                              SYS / PHASE SHIFT   
E L5Q  0.00000                                              SYS / PHASE SHIFT   
E L7Q  0.00000                                              SYS / PHASE SHIFT   
E L8Q  0.00000                                              SYS / PHASE SHIFT   
S L1C                                                       SYS / PHASE SHIFT   
S L5I                                                       SYS / PHASE SHIFT   
R L1C                                                       SYS / PHASE SHIFT   
R L2P  0.00000                                              SYS / PHASE SHIFT   
R L2C                                                       SYS / PHASE SHIFT   
R L3Q  0.00000                                              SYS / PHASE SHIFT   
C L1P  0.00000                                              SYS / PHASE SHIFT   
C L5P  0.00000                                              SYS / PHASE SHIFT   
C L2I                                                       SYS / PHASE SHIFT   
C L7I                                                       SYS / PHASE SHIFT   
C L6I                                                       SYS / PHASE SHIFT   
C L7D                                                       SYS / PHASE SHIFT   
J L1C                                                       SYS / PHASE SHIFT   
J L2L  0.00000                                              SYS / PHASE SHIFT   
J L5Q  0.00000                                              SYS / PHASE SHIFT   
J L1L  0.00000                                              SYS / PHASE SHIFT   
I L5A                                                       SYS / PHASE SHIFT   
  2025     1     1     1    15    0.0000000     GPS         TIME OF FIRST OBS   
 C1C    0.000 C2C    0.000 C2P    0.000                     GLONASS COD/PHS/BIS 
DBHZ                                                        SIGNAL STRENGTH UNIT
    18                                                      LEAP SECONDS        
 24 R01  1 R02 -4 R03  5 R04  6 R05  1 R06 -4 R07  5 R08  6 GLONASS SLOT / FRQ #
    R09 -2 R10 -7 R11  0 R12 -1 R13 -2 R14 -7 R15  0 R16 -1 GLONASS SLOT / FRQ #
    R17  4 R18 -3 R19  3 R20  2 R21  4 R22 -3 R23  3 R24  2 GLONASS SLOT / FRQ #
                                                            END OF HEADER       
> 2025 01 01 01 15  0.0000000  0 56
G28         1.000    23053271.366 7 121145772.84907      -500.199 7        43.225                                    23053267.415 5  94399284.97205      -389.767 5        30.075    23053267.878 7  94399290.97407      -389.796 7        42.736
G31         2.000    22577372.776 7 118644904.30207      1329.091 7        44.299                                    22577368.652 6  92450561.42606      1035.658 6        40.934    22577369.051 6  92450560.43906      1035.575 6        40.753
G09         3.000    23799378.002 6 125066593.90406      3269.891 6        38.592                                    23799377.152 5  97454493.27905      2547.965 5        34.938    23799377.590 6  97454494.28906      2548.018 6        37.505
E34         4.000    27376646.889 6 143865254.75106      2364.744 6        39.222                                                                    27376647.737 7 107431852.17107      1766.067 7        42.011    27376647.395 7 110234421.75207      1812.072 7        43.172
S21         5.000    38360985.029 7 201588208.36407      -422.700 7        42.199
E05         6.000    26335249.771 6 138392684.60506      2677.996 6        37.176                                                                    26335252.196 6 103345206.85206      1999.810 6        41.192    26335251.261 6 106041161.91706      2052.010 6        41.602
G21         7.000    22635562.269 7 118950741.48007     -3110.409 7        43.323                                    22635558.002 5  92688892.73605     -2423.698 5        30.792
E04         8.000    23901950.699 7 125605624.22607     -1442.492 7        46.791                                                                    23901948.831 8  93796413.10408     -1077.155 8        50.201    23901948.653 8  96243267.94208     -1105.267 8        51.214
R14         9.000    23478618.550 7 125154256.77707      1280.640 7        44.144                                                                    23478619.040 6  97342189.56106       996.063 6        38.853
G04        10.000    21617411.646 7 113600302.22707      2446.655 7        46.132                                    21617408.634 5  88519723.65105      1906.484 5        35.267    21617408.537 7  88519718.64307      1906.591 7        44.406
E09        11.000    24096509.109 8 126628054.08308      1324.714 8        48.097                                                                    24096508.454 8  94559926.48108       989.218 8        49.789    24096508.139 8  97026706.54108      1015.037 8        50.874
S27        12.000    39001126.466 5 204952304.07505      -406.774 5        35.924
G06        13.000    25252859.780 6 132704682.94406      3126.993 6        36.276                                    25252858.642 4 103406247.00104      2436.597 4        28.322    25252859.619 5 103406258.03205      2436.368 5        34.633
S36        14.000    38128488.254 7 200367051.01007      -422.778 7        43.865
E27        15.000    28918385.001 6 151967135.00406        77.594 6        36.529                                                                    28918385.680 6 113481958.76006        57.747 6        39.949    28918384.937 6 116442355.31606        59.486 6        41.259
E36        16.000    23676022.023 7 124418364.18707       725.756 7        47.695                                                                    23676022.225 8  92909834.72708       541.949 8        50.883    23676021.887 8  95333564.26208       556.074 8        51.549
S45        17.000    63326871.374 6 332786345.57606      -463.697 6        37.104
G03        18.000    19881627.107 8 104478714.00708       -28.497 8        49.952                                    19881625.045 8  81412004.55108       -22.208 8        51.766    19881625.669 7  81412013.54307       -22.221 7        45.254
R21        19.000    19578790.460 8 104770101.42208      1164.391 8        52.382                                                                    19578788.700 7  81487866.84107       905.615 7        46.163
R20        20.000    19990414.968 6 106897773.83806     -3105.916 6        39.393                                                                    19990416.066 7  83142711.42407     -2415.668 7        46.296
R05        21.000    19688886.224 8 105248421.98408     -2539.442 8        51.991                                                                    19688884.803 7  81859889.45407     -1975.015 7        47.140
I06        22.000    38095493.489 7 149495127.81807      -219.646 7        42.313
S28        23.000    40800768.433 5 214409484.60305      -415.474 5        34.162
E10        24.000    25883810.871 7 136020463.46207     -2914.445 7        42.834                                                                    25883810.370 7 101573788.68507     -2176.351 7        46.880    25883810.153 7 104223530.31807     -2233.189 7        47.362
S23        25.000    38078123.068 7 200101874.81507      -418.997 7        44.494
E06        26.000    23355808.349 8 122735661.10408        49.562 8        48.367                                                                    23355807.894 8  91653252.77008        36.990 8        50.588    23355807.771 8  94044205.71008        37.942 8        51.363
E30        27.000    28881546.725 6 151773560.41806     -1902.343 6        36.015                                                                    28881547.612 6 113337401.53406     -1420.499 6        37.115    28881547.338 6 116294026.99206     -1457.635 6        38.565
E12        28.000    28277965.517 5 148601852.17005     -3277.127 5        32.533                                                                    28277963.606 5 110968986.90005     -2447.320 5        35.633    28277963.570 6 113863817.97706     -2510.904 6        36.783
E19        30.000    27815023.193 5 146168930.65705     -3336.493 5        32.240                                                                    27815023.108 5 109152117.21405     -2491.450 5        34.881    27815022.597 6 111999561.68906     -2556.564 6        36.026
G32        31.000    25137662.722 6 132099318.91706     -3830.390 6        38.087                                    25137661.336 5 102934529.02805     -2984.715 5        30.309    25137662.723 6 102934534.02406     -2984.741 6        36.234
G02        32.000    21256219.189 8 111702227.76108     -2196.745 8        48.915                                    21256212.688 6  87040693.32006     -1711.748 6        39.943
G19        33.000    22746489.583 7 119533640.16507      1521.099 7        42.087                                    22746483.221 5  93143117.23205      1185.274 5        30.249
G17        34.000    22150603.454 7 116402259.56507      -550.459 7        44.975                                    22150598.757 7  90703070.07607      -428.928 7        43.674    22150599.303 6  90703070.07606      -429.021 6        41.545
E11        35.000    23826066.114 7 125206889.30607     -1910.286 7        44.590                                                                    23826061.633 7  93498669.62307     -1426.540 7        46.482    23826061.467 7  95937757.83907     -1463.750 7        47.316
C32        36.000                                                                                                                                    24430519.665 7 127216150.97207     -3109.329 7        45.716                                                                    24430519.837 7 103373553.40607     -2526.687 7        46.061
C35        37.000                                                                                                                                    23551739.511 7 122640106.20807      1465.958 7        46.999                                                                    23551738.232 7  99655131.57907      1191.065 7        46.398
I09        38.000    37072447.233 7 145480243.51207      -410.202 7        42.933
C29        39.000                                                                                                                                    22158336.642 8 115384275.77308     -2030.076 8        50.196                                                                    22158334.236 8  93759169.96008     -1649.715 8        48.615
R22        40.000    23548790.449 7 125705064.73307      3782.878 7        43.065                                                                    23548790.921 6  97770615.89606      2942.251 6        41.657
S44        42.000    40524923.227 6 212960085.01906      -495.417 6        36.393
C09        43.000                                                                                                                                    38940462.503 6 202773228.28906       565.478 6        41.988    38940459.556 7 156797112.87507       437.347 7        45.469    38940457.388 6 164769838.16006       459.329 6        41.266
C05        44.000                                                                                                                                    39043634.643 6 203310481.46606      -422.414 6        38.601    39043628.773 7 157212584.89507      -326.604 7        43.589    39043630.280 6 165206523.18506      -343.331 6        40.126
R06        45.000    20409649.940 6 108909851.36906      2040.517 6        40.157
R13        46.000    24035080.355 6 128345999.44406     -2098.781 6        36.692
C39        47.000                                                                                                                                    38808373.675 7 202085397.25607      -477.074 7        43.124                                                                    38808370.054 7 164210927.60907      -387.729 7        43.221
C20        48.000                                                                                                                                    21697387.385 8 112984038.07408      -605.677 8        51.689                                                                    21697381.644 8  91808777.92608      -492.245 8        49.145
C06        49.000                                                                                                                                    38321109.515 6 199548098.21706        97.268 6        40.744    38321104.229 7 154303230.53907        75.183 7        44.149    38321104.231 6 162149154.38606        78.921 6        41.952
C16        50.000                                                                                                                                    38732872.223 7 201692243.04807       -25.982 7        43.045    38732871.636 7 155961244.88507       -20.092 7        43.441    38732869.072 6 163891467.03906       -21.303 6        39.589
S48        51.000    77113613.595 6 405235921.33906      -423.236 6        37.414
C19        52.000                                                                                                                                    23565898.231 7 122713870.55607      1869.361 7        47.258                                                                    23565893.806 8  99715073.84408      1518.978 8        48.245
R04        53.000    23397391.216 7 125291989.17507     -4367.224 7        43.645                                                                    23397390.329 6  97449331.18706     -3396.619 6        37.592
C60        54.000                                                                                                                                    40524921.660 6 211024103.69406      -490.990 6        39.778                                                                    40524905.260 6 171474339.43506      -399.059 6        39.342
C30        55.000                                                                                                                                    25468824.584 6 132622837.92906     -3905.455 6        41.542                                                                    25468826.593 6 107766914.55906     -3173.582 6        41.809
C02        57.000                                                                                                                                    40487546.484 5 210829327.49105      -468.310 5        34.538    40487540.762 6 163026603.23806      -362.042 6        40.336    40487544.124 6 171316101.39606      -380.409 6        37.108
I03        58.000   132807034.552 6 445378086.22206       955.477 6        40.598
C13        59.000                                                                                                                                    41382736.703 4 215490810.54304     -1094.158 4        27.569    41382736.143 5 166631203.02905      -846.240 5        31.457    41382734.840 4 175103963.10404      -889.018 4        29.100
> 2025 01 01 01 15  5.0000000  0 56
G28         1.000    23053749.177 7 121148283.37407      -503.831 7        42.512                                    23053745.289 5  94401241.23205      -392.598 5        30.060    23053745.355 7  94401247.22807      -392.573 7        42.457
G31         2.000    22576110.015 7 118638267.25107      1325.978 7        44.637                                    22576105.598 6  92445389.70006      1033.229 6        40.989    22576106.151 6  92445388.70406      1033.153 6        40.813
G09         3.000    23796267.523 6 125050247.64606      3268.811 6        39.168                                    23796266.602 5  97441755.94705      2547.124 5        34.895    23796266.907 6  97441756.95306      2547.129 6        37.134
E34         4.000    27374397.155 6 143853431.88106      2364.236 6        38.468                                                                    27374397.907 7 107423023.40007      1765.687 7        42.066    27374397.579 7 110225362.66507      1811.787 7        42.950
S21         5.000    38361390.086 7 201590323.08207      -423.120 7        42.226
E05         6.000    26332701.872 6 138379296.87906      2677.362 6        37.172                                                                    26332704.415 6 103335209.52306      1999.241 6        41.161    26332703.540 6 106030903.78206      2051.432 6        41.395
G21         7.000    22638522.849 7 118966297.68307     -3112.026 7        42.808                                    22638518.355 5  92701014.45105     -2424.955 5        30.792
E04         8.000    23903324.372 7 125612842.37007     -1444.648 7        46.649                                                                    23903322.414 8  93801803.27208     -1078.827 8        50.192    23903322.228 8  96248798.72808     -1106.989 8        51.194
R14         9.000    23477419.464 7 125147863.13207      1276.882 7        44.090                                                                    23477419.520 6  97337216.73106       993.019 6        38.438
G04        10.000    21615085.017 7 113588074.30507      2444.613 7        46.105                                    21615081.709 5  88510195.40605      1904.893 5        35.214    21615081.916 7  88510190.40407      1904.814 7        43.822
E09        11.000    24095249.875 8 126621436.38908      1322.590 8        48.128                                                                    24095249.184 8  94554984.69608       987.639 8        49.895    24095248.841 8  97021635.84308      1013.320 8        50.865
S27        12.000    39001518.985 5 204954338.35605      -407.218 5        35.933
G06        13.000    25249884.711 5 132689049.71505      3126.667 5        35.862                                    25249883.702 4 103394065.30104      2436.358 4        28.341    25249884.149 5 103394076.28805      2436.297 5        34.924
S36        14.000    38128891.371 7 200369165.36007      -422.756 7        43.930
E27        15.000    28918312.681 6 151966754.39606        74.934 6        37.009                                                                    28918313.081 6 113481674.51206        55.940 6        39.610    28918312.616 6 116442063.66506        57.363 6        40.989
E36        16.000    23675332.211 7 124414740.12507       723.933 7        47.720                                                                    23675332.567 8  92907128.44208       540.599 8        50.821    23675332.307 8  95330787.38108       554.701 8        51.543
S45        17.000    63327268.852 6 332788664.79806      -463.713 6        37.074
G03        18.000    19881655.430 8 104478862.69308       -30.804 8        49.915                                    19881653.351 8  81412120.40908       -24.002 8        51.760    19881654.295 7  81412129.40907       -24.041 7        45.407
R21        19.000    19577704.318 8 104764290.59508      1160.134 8        52.216                                                                    19577703.013 7  81483347.30707       902.347 7        46.546
R20        20.000    19993321.162 6 106913313.26406     -3109.589 6        40.234                                                                    19993322.574 7  83154797.65007     -2418.588 7        46.287
R05        21.000    19691262.339 8 105261126.08208     -2542.058 8        51.776                                                                    19691261.339 7  81869770.42807     -1977.221 7        47.164
I06        22.000    38095773.187 7 149496226.73207      -219.830 7        42.345
S28        23.000    40801163.447 5 214411562.67105      -415.886 5        33.958
E10        24.000    25886584.596 7 136035039.34607     -2915.888 7        42.772                                                                    25886584.228 7 101584673.26707     -2177.409 7        46.882    25886583.824 7 104234698.84607     -2234.204 7        47.158
S23        25.000    38078521.284 7 200103970.58907      -419.161 7        44.558
E06        26.000    23355762.289 8 122735419.89708        47.076 8        48.242                                                                    23355761.997 8  91653072.64508        35.168 8        50.577    23355761.935 8  94044020.88908        36.063 8        51.345
E30        27.000    28883357.599 5 151783077.31005     -1904.176 5        35.086                                                                    28883358.943 6 113344508.33906     -1421.860 6        36.590    28883358.408 6 116301319.21406     -1459.295 6        38.237
E12        28.000    28281085.142 5 148618240.54005     -3277.877 5        32.126                                                                    28281082.561 5 110981224.99205     -2448.171 5        35.671    28281082.257 6 113876375.32906     -2511.936 6        36.733
E19        30.000    27818198.699 5 146185615.23305     -3336.860 5        32.042                                                                    27818198.271 5 109164576.46205     -2491.994 5        35.067    27818197.548 5 112012345.94405     -2557.032 5        35.805
G32        31.000    25141307.777 6 132118472.62006     -3830.955 6        38.492                                    25141306.272 5 102949453.98805     -2985.160 5        30.581    25141307.231 6 102949458.97306     -2985.051 6        36.246
G02        32.000    21258310.681 8 111713218.24108     -2199.257 8        48.543                                    21258304.120 6  87049257.32906     -1713.706 6        39.973
G19        33.000    22745044.024 7 119526043.51907      1517.741 7        42.317                                    22745037.586 5  93137197.77005      1182.653 5        30.136
G17        34.000    22151128.723 7 116405021.39607      -553.951 7        44.921                                    22151124.325 7  90705222.15107      -431.647 7        43.666    22151124.894 6  90705222.15206      -431.654 6        41.969
E11        35.000    23827884.634 7 125216445.58107     -1912.187 7        44.704                                                                    23827880.187 7  93505805.79807     -1427.910 7        46.460    23827880.023 7  95945080.17307     -1465.216 7        47.317
C32        36.000                                                                                                                                    24433505.724 7 127231700.04507     -3110.163 7        45.329                                                                    24433505.777 7 103386188.28907     -2527.227 7        46.027
C35        37.000                                                                                                                                    23550333.217 7 122632783.31507      1463.399 7        46.806                                                                    23550331.924 7  99649181.11507      1189.208 7        46.379
I09        38.000    37072970.202 7 145482295.50407      -410.592 7        42.863
C29        39.000                                                                                                                                    22160287.132 8 115394433.22608     -2032.783 8        50.010                                                                    22160284.857 8  93767423.70908     -1651.757 8        48.676
R22        40.000    23545248.936 7 125686152.93207      3781.948 7        43.388                                                                    23545248.900 6  97755906.74106      2941.399 6        41.056
S44        42.000    40525390.377 6 212962563.26706      -495.679 6        36.405
C09        43.000                                                                                                                                    38939920.090 6 202770403.87106       564.415 6        41.616    38939917.193 7 156794928.85907       436.461 7        45.397    38939915.081 6 164767543.07306       458.821 6        41.421
C05        44.000                                                                                                                                    39044039.494 6 203312594.69206      -422.539 6        38.270    39044034.868 7 157214218.97307      -326.996 7        43.585    39044036.133 6 165208240.34706      -343.336 6        40.207
R06        45.000    20407739.562 6 108899656.36206      2037.651 6        40.272
R13        46.000    24037047.168 6 128356503.73906     -2102.951 6        36.541
C39        47.000                                                                                                                                    38808832.203 7 202087785.68307      -478.212 7        42.935                                                                    38808828.762 7 164212868.39707      -388.528 7        43.272
C20        48.000                                                                                                                                    21697970.019 8 112987072.06708      -607.797 8        51.584                                                                    21697964.255 8  91811243.29208      -493.811 8        49.257
C06        49.000                                                                                                                                    38321017.310 6 199547615.07106        96.063 6        40.491    38321011.500 7 154302856.93507        74.288 7        44.256    38321011.552 6 162148761.76206        78.266 6        41.750
C16        50.000                                                                                                                                    38732898.155 7 201692376.31907       -27.199 7        43.052    38732897.157 7 155961347.94107       -21.029 7        43.532    38732894.701 6 163891575.31306       -21.976 6        39.715
S48        51.000    77114017.794 6 405238039.42206      -423.698 6        37.807
C19        52.000                                                                                                                                    23564104.537 7 122704528.00007      1867.770 7        47.332                                                                    23564099.683 8  99707482.24608      1517.849 8        48.281
R04        53.000    23401468.926 7 125313826.32407     -4367.623 7        43.437                                                                    23401467.619 6  97466315.62506     -3396.997 6        38.150
C60        54.000                                                                                                                                    40525393.018 6 211026559.41706      -491.127 6        39.375                                                                    40525376.958 6 171476334.91006      -399.166 6        39.538
C30        55.000                                                                                                                                    25472575.033 6 132642366.57106     -3906.011 6        41.607                                                                    25472576.771 6 107782783.16406     -3173.850 6        41.838
C02        57.000                                                                                                                                    40487996.262 5 210831669.78505      -468.618 5        34.567    40487990.679 6 163028414.47506      -362.373 6        40.315    40487993.858 6 171318004.72906      -380.667 6        37.025
I03        58.000   132805817.225 6 445373309.95706       955.201 6        40.586
C13        59.000                                                                                                                                    41383786.700 4 215496283.11604     -1094.647 4        26.060    41383788.210 5 166635434.68205      -846.459 5        30.408    41383784.526 4 175108410.04604      -889.906 4        28.123
> 2025 01 01 01 15 10.0000000  0 56
G28         1.000    23054230.080 7 121150810.48607      -507.164 7        42.569                                    23054226.194 4  94403210.40804      -395.203 4        29.877    23054225.964 7  94403216.40907      -395.135 7        42.341
G31         2.000    22574849.763 7 118631644.90807      1323.014 7        44.218                                    22574845.369 6  92440229.43506      1030.920 6        40.882    22574846.025 6  92440228.43706      1030.934 6        40.956
G09         3.000    23793157.968 6 125033905.23706      3268.046 6        39.976                                    23793156.803 5  97429021.61705      2546.528 5        34.957    23793156.842 6  97429022.59806      2546.640 6        37.274
E34         4.000    27372147.528 6 143841609.84206      2364.506 6        37.716                                                                    27372148.253 7 107414195.29607      1765.580 7        42.286    27372147.768 7 110216304.25307      1811.612 7        43.001
S21         5.000    38361796.543 7 201592437.89007      -423.009 7        42.337
E05         6.000    26330154.875 6 138365910.87706      2677.163 6        37.221                                                                    26330157.223 6 103325213.50206      1999.164 6        41.075    26330156.448 6 106020647.00306      2051.240 6        41.116
G21         7.000    22641483.994 7 118981860.38407     -3113.079 7        42.694                                    22641479.937 5  92713141.23105     -2425.774 5        30.430
E04         8.000    23904699.579 7 125620070.25107     -1446.577 7        46.672                                                                    23904697.883 8  93807200.72108     -1080.223 8        50.213    23904697.654 8  96254336.97108     -1108.326 8        51.196
R14         9.000    23476223.378 7 125141487.23407      1273.440 7        44.634                                                                    23476223.474 6  97332257.67906       990.344 6        39.333
G04        10.000    21612759.759 7 113575856.19007      2442.733 7        46.208                                    21612756.658 5  88500674.80005      1903.424 5        34.929    21612757.114 7  88500669.81007      1903.357 7        44.464
E09        11.000    24093992.424 8 126614827.99208      1320.744 8        48.097                                                                    24093991.607 8  94550049.85708       986.343 8        49.824    24093991.350 8  97016572.26808      1012.034 8        50.846
S27        12.000    39001902.520 5 204956373.14605      -406.952 5        35.676
G06        13.000    25246909.411 6 132673416.81106      3126.299 6        36.079                                    25246908.759 4 103381883.83904      2436.070 4        28.209    25246908.937 5 103381894.81805      2436.204 5        34.990
S36        14.000    38129290.942 7 200371279.03407      -422.571 7        43.685
E27        15.000    28918242.732 6 151966385.35306        72.693 6        37.161                                                                    28918242.949 6 113481398.97306        54.229 6        39.781    28918242.413 6 116441780.93106        55.708 6        41.056
E36        16.000    23674644.079 7 124411123.71407       722.575 7        47.726                                                                    23674644.418 8  92904427.88508       539.540 8        50.832    23674644.094 8  95328016.37308       553.671 8        51.549
S45        17.000    63327664.452 6 332789384.08316      -463.887 6        37.285
G03        18.000    19881685.771 8 104479021.66008       -32.824 8        49.937                                    19881683.606 8  81412244.28308       -25.579 8        51.616    19881684.442 7  81412253.28407       -25.602 7        45.613
R21        19.000    19576621.831 8 104758499.23708      1156.336 8        51.820                                                                    19576620.757 7  81478842.91707       899.320 7        46.222
R20        20.000    19996230.848 6 106928869.74806     -3113.000 6        40.431                                                                    19996231.699 7  83166897.13407     -2421.200 7        46.530
R05        21.000    19693641.072 8 105273842.50908     -2544.474 8        51.642                                                                    19693640.139 7  81879660.98507     -1979.100 7        46.843
I06        22.000    38096053.363 7 149497325.79007      -219.845 7        42.239
S28        23.000    40801559.557 5 214413640.79505      -415.927 5        34.010
E10        24.000    25889359.436 7 136049620.61507     -2916.752 7        42.864                                                                    25889359.057 7 101595561.87807     -2178.073 7        46.973    25889358.568 7 104245871.51607     -2234.955 7        47.231
S23        25.000    38078919.572 7 200106066.31607      -419.149 7        44.551
E06        26.000    23355718.438 8 122735189.47508        45.061 8        48.170                                                                    23355718.161 8  91652900.58108        33.634 8        50.552    23355718.047 8  94043844.33308        34.553 8        51.293
E30        27.000    28885170.394 6 151792603.46406     -1906.061 6        36.767                                                                    28885171.955 6 113351622.06706     -1423.195 6        38.162    28885171.080 6 116308618.50206     -1460.629 6        39.150
E12        28.000    28284203.982 5 148634631.44105     -3278.205 5        32.126                                                                    28284201.687 5 110993464.90805     -2447.939 5        35.805    28284201.337 6 113888934.57706     -2512.225 6        36.741
E19        30.000    27821373.935 5 146202301.39605     -3337.258 5        32.156                                                                    27821373.620 5 109177036.88205     -2492.427 5        34.914    27821372.974 5 112025131.42505     -2557.476 5        35.819
G32        31.000    25144953.564 6 132137628.48306     -3831.375 6        38.658                                    25144951.547 5 102964380.62705     -2985.483 5        30.755    25144952.001 6 102964385.62306     -2985.442 6        36.257
G02        32.000    21260404.329 8 111724219.79708     -2201.417 8        48.458                                    21260397.676 6  87057829.97006     -1715.389 6        39.844
G19        33.000    22743601.145 7 119518462.20007      1514.711 7        42.216                                    22743595.009 5  93131290.25305      1180.290 5        30.008
G17        34.000    22151657.566 7 116407798.58607      -557.077 7        45.159                                    22151652.799 7  90707386.19207      -434.084 7        43.503    22151653.199 7  90707386.18207      -433.961 7        42.106
E11        35.000    23829704.513 7 125226010.09407     -1913.635 7        44.718                                                                    23829700.263 7  93512948.13907     -1429.140 7        46.478    23829700.036 7  95952408.82707     -1466.312 7        47.256
C32        36.000                                                                                                                                    24436492.622 7 127247252.01507     -3110.672 7        45.181                                                                    24436492.362 7 103398825.54907     -2527.587 7        46.111
C35        37.000                                                                                                                                    23548928.955 7 122625471.53607      1461.205 7        46.606                                                                    23548927.857 7  99643239.71407      1187.446 7        46.441
I09        38.000    37073493.226 7 145484348.39207      -410.680 7        42.838
C29        39.000                                                                                                                                    22162240.174 8 115404603.17908     -2035.260 8        49.986                                                                    22162237.919 8  93775687.63608     -1653.705 8        48.643
R22        40.000    23541706.226 7 125667244.34907      3781.541 7        43.050                                                                    23541706.180 6  97741200.11306      2941.214 6        40.868
S44        42.000    40525860.760 6 212965041.63806      -495.453 6        36.257
C09        43.000                                                                                                                                    38939378.680 6 202767583.61406       563.668 6        41.590    38939375.447 7 156792748.08207       435.856 7        45.439    38939373.583 6 164765251.41406       458.082 6        41.299
C05        44.000                                                                                                                                    39044445.956 6 203314708.06206      -422.588 6        38.589    39044440.364 7 157215853.17607      -326.873 7        43.517    39044441.938 6 165209957.65206      -343.400 6        40.091
R06        45.000    20405832.031 6 108889474.07906      2035.339 6        40.057
R13        46.000    24039017.983 6 128367026.60206     -2106.385 6        37.229
C39        47.000                                                                                                                                    38809291.810 7 202090178.81207      -479.037 7        42.864                                                                    38809288.516 7 164214813.01707      -389.243 7        43.308
C20        48.000                                                                                                                                    21698554.529 8 112990115.60008      -609.678 8        51.652                                                                    21698548.720 8  91813716.41908      -495.324 8        49.273
C06        49.000                                                                                                                                    38320925.557 6 199547136.69506        95.080 6        40.462    38320920.094 7 154302487.02307        73.620 7        44.384    38320919.689 6 162148373.06306        77.502 6        41.912
C16        50.000                                                                                                                                    38732924.635 7 201692514.28107       -28.096 7        43.318    38732923.696 7 155961454.63707       -21.647 7        43.363    38732921.194 6 163891687.44206       -22.621 6        39.703
S48        51.000    77114414.051 6 405240157.51506      -423.581 6        37.716
C19        52.000                                                                                                                                    23562311.675 7 122695192.17907      1866.531 7        47.692                                                                    23562306.840 8  99699896.14908      1516.778 8        48.303
R04        53.000    23405546.534 7 125335663.51307     -4367.426 7        42.978                                                                    23405545.079 6  97483300.11706     -3396.670 6        37.921
C60        54.000                                                                                                                                    40525864.747 6 211029015.26206      -491.323 6        39.547                                                                    40525848.580 6 171478330.48106      -398.980 6        39.357
C30        55.000                                                                                                                                    25476325.614 7 132661897.18107     -3906.327 7        42.015                                                                    25476327.611 6 107798653.39906     -3174.134 6        41.969
C02        57.000                                                                                                                                    40488446.724 5 210834012.28205      -468.764 5        34.405    40488440.193 6 163030225.82006      -362.294 6        40.455    40488443.613 6 171319908.19006      -380.538 6        36.805
I03        58.000   132804600.396 6 445368533.94906       955.112 6        40.517
C13        59.000                                                                                                                                    41384836.668 4 215501755.74804     -1094.311 4        28.588    41384838.738 5 166639666.58605      -846.361 5        31.351    41384836.574 4 175112856.97604      -889.365 4        29.062
> 2025 01 01 01 15 15.0000000  0 56
G28         1.000    23054714.285 7 121153354.04807      -510.529 7        42.358                                    23054710.247 4  94405192.41304      -397.815 4        29.782    23054710.214 7  94405198.41607      -397.766 7        42.413
G31         2.000    22573592.199 7 118625037.12607      1320.044 7        44.203                                    22573588.061 6  92435080.51206      1028.604 6        40.999    22573588.693 6  92435079.51906      1028.622 6        41.397
G09         3.000    23790048.912 6 125017566.49806      3267.314 6        40.625                                    23790047.572 5  97416290.13505      2545.956 5        35.124    23790047.728 6  97416291.16306      2545.719 6        37.236
E34         4.000    27369898.085 6 143829788.56206      2364.058 6        37.883                                                                    27369898.714 7 107405367.70807      1765.370 7        42.049    27369898.238 7 110207246.38407      1811.450 7        43.037
S21         5.000    38362196.056 7 201594552.60907      -422.892 7        42.265
E05         6.000    26327608.071 6 138352526.50406      2676.541 6        36.767                                                                    26327610.287 6 103315218.68206      1998.744 6        41.225    26327609.242 6 106010391.44206      2050.851 6        40.818
G21         7.000    22644446.693 7 118997429.41607     -3114.504 7        43.397                                    22644442.530 5  92725272.93905     -2426.885 5        30.287
E04         8.000    23906076.893 7 125627307.72207     -1448.518 7        46.449                                                                    23906075.052 8  93812605.31508     -1081.620 8        50.195    23906074.904 8  96259882.56408     -1109.919 8        51.209
R14         9.000    23475030.859 7 125135128.76807      1269.794 7        45.213                                                                    23475031.814 6  97327312.18706       987.587 6        39.568
G04        10.000    21610436.483 7 113563647.74507      2440.643 7        46.218                                    21610433.489 5  88491161.73005      1901.799 5        34.957    21610433.747 7  88491156.72907      1901.819 7        44.593
E09        11.000    24092736.578 8 126608228.72808      1318.838 8        48.042                                                                    24092735.819 8  94545121.84308       984.879 8        49.868    24092735.570 8  97011515.69408      1010.517 8        50.870
S27        12.000    39002288.614 5 204958407.58505      -406.841 5        35.476
G06        13.000    25243935.334 5 132657784.14005      3126.467 5        35.767                                    25243933.963 4 103369702.57004      2436.213 4        27.820    25243934.678 6 103369713.58406      2436.072 6        37.021
S36        14.000    38129693.625 7 200373392.32507      -422.734 7        43.562
E27        15.000    28918174.413 6 151966027.65106        70.411 6        36.715                                                                    28918174.819 6 113481131.85406        52.497 6        39.610    28918174.155 6 116441506.83706        54.035 6        40.493
E36        16.000    23673957.227 7 124407514.82207       720.938 7        47.549                                                                    23673957.620 8  92901732.93108       538.363 8        50.848    23673957.369 8  95325251.11408       552.386 8        51.529
S45        17.000    63328063.840 6 332791703.13206      -463.969 6        37.259
G03        18.000    19881717.919 8 104479190.75908       -34.893 8        49.924                                    19881715.783 8  81412376.04808       -27.191 8        51.624    19881716.327 7  81412385.04207       -27.158 7        45.752
R21        19.000    19575543.167 8 104752727.15508      1152.391 8        52.071                                                                    19575541.939 7  81474353.53407       896.232 7        46.904
R20        20.000    19999142.376 6 106944443.08906     -3116.469 6        40.014                                                                    19999143.899 7  83179009.73107     -2423.919 7        46.481
R05        21.000    19696022.396 8 105286571.08908     -2547.025 8        51.909                                                                    19696021.640 7  81889560.98607     -1981.018 7        47.517
I06        22.000    38096333.616 7 149498424.86307      -219.858 7        42.394
S28        23.000    40801951.633 5 214415718.57805      -415.586 5        34.057
E10        24.000    25892134.803 7 136064207.13207     -2917.774 7        42.753                                                                    25892134.782 7 101606454.40207     -2178.932 7        46.930    25892134.642 7 104257048.19007     -2235.829 7        47.374
S23        25.000    38079319.737 7 200108161.77607      -419.145 7        44.409
E06        26.000    23355676.709 8 122734969.70708        42.819 8        48.000                                                                    23355676.335 8  91652736.47308        31.960 8        50.626    23355676.226 8  94043675.93908        32.830 8        51.301
E30        27.000    28886984.443 5 151802138.61905     -1907.722 5        35.543                                                                    28886986.002 6 113358742.50606     -1424.653 6        38.333    28886985.235 6 116315924.68806     -1462.072 6        39.186
E12        28.000    28287323.414 5 148651024.68005     -3278.619 5        32.054                                                                    28287320.746 5 111005706.61605     -2448.376 5        35.643    28287321.119 6 113901495.62906     -2512.487 6        36.756
E19        30.000    27824549.345 5 146218989.02805     -3337.710 5        32.210                                                                    27824549.210 5 109189498.39105     -2492.521 5        34.876    27824548.316 5 112037918.00205     -2557.462 5        35.381
G32        31.000    25148598.656 6 132156786.32006     -3831.854 6        38.859                                    25148597.203 5 102979308.80905     -2985.858 5        31.125    25148597.657 6 102979313.81206     -2985.720 6        36.533
G02        32.000    21262499.869 8 111735232.29808     -2203.663 8        48.944                                    21262493.306 6  87066411.13406     -1717.139 6        39.865
G19        33.000    22742161.199 7 119510896.05907      1511.688 7        42.607                                    22742155.321 4  93125394.56204      1177.940 4        29.962
G17        34.000    22152188.660 7 116410590.93207      -560.080 7        45.642                                    22152184.171 7  90709562.04607      -436.425 7        43.558    22152184.605 7  90709562.04507      -436.435 7        42.176
E11        35.000    23831526.019 7 125235582.67807     -1915.361 7        44.444                                                                    23831521.888 7  93520096.48807     -1430.297 7        46.503    23831521.644 7  95959743.66407     -1467.698 7        47.285
C32        36.000                                                                                                                                    24439479.370 7 127262806.71307     -3111.315 7        45.523                                                                    24439479.481 7 103411465.00607     -2528.189 7        46.000
C35        37.000                                                                                                                                    23547526.716 7 122618170.75507      1458.937 7        46.623                                                                    23547525.791 7  99637307.22207      1185.542 7        46.496
I09        38.000    37074016.659 7 145486402.01907      -410.949 7        42.823
C29        39.000                                                                                                                                    22164195.525 8 115414785.47008     -2037.782 8        50.166                                                                    22164193.280 8  93783961.58108     -1655.865 8        48.601
R22        40.000    23538163.946 7 125648338.81907      3780.613 7        43.037                                                                    23538164.013 6  97726495.83006      2940.590 6        39.589
S44        42.000    40526339.068 6 212967519.97506      -495.782 6        36.015
C09        43.000                                                                                                                                    38938837.798 6 202764767.40606       562.731 6        41.409    38938834.599 7 156790570.39507       435.112 7        45.416    38938832.769 6 164762962.98806       457.372 6        41.225
C05        44.000                                                                                                                                    39044851.747 6 203316821.46506      -422.539 6        38.504    39044846.141 7 157217487.38707      -326.925 7        43.452    39044847.711 6 165211674.95806      -343.395 6        40.222
R06        45.000    20403925.294 6 108879304.53006      2032.518 6        39.856
R13        46.000    24040992.113 6 128377567.46506     -2109.914 6        36.828
C39        47.000                                                                                                                                    38809752.425 7 202092576.47307      -480.144 7        42.703                                                                    38809748.912 7 164216761.30407      -390.100 7        43.287
C20        48.000                                                                                                                                    21699140.734 8 112993168.49708      -611.605 8        51.602                                                                    21699135.034 8  91816197.13908      -496.961 8        49.288
C06        49.000                                                                                                                                    38320834.438 6 199546662.94206        94.256 6        40.818    38320829.075 7 154302120.70007        72.795 7        44.615    38320828.732 6 162147988.10106        76.537 6        41.809
C16        50.000                                                                                                                                    38732952.014 7 201692656.79007       -28.985 7        43.608    38732950.912 7 155961564.84307       -22.566 7        43.177    38732948.575 6 163891803.23806       -23.495 6        39.784
S48        51.000    77114809.105 6 405242275.58506      -423.980 6        37.301
C19        52.000                                                                                                                                    23560520.079 7 122685862.95507      1865.098 7        47.627                                                                    23560515.205 8  99692315.38208      1515.549 8        48.312
R04        53.000    23409625.063 7 125357500.62107     -4367.682 7        42.720                                                                    23409623.236 6  97500284.55806     -3396.989 6        37.531
C60        54.000                                                                                                                                    40526336.812 6 211031471.05706      -491.335 6        39.625                                                                    40526320.153 6 171480326.00706      -399.103 6        39.351
C30        55.000                                                                                                                                    25480076.835 7 132681429.59407     -3906.552 7        42.334                                                                    25480078.609 7 107814525.08107     -3174.423 7        42.197
C02        57.000                                                                                                                                    40488896.502 5 210836354.78305      -468.517 5        34.329    40488890.266 6 163032037.21106      -362.359 6        40.238    40488893.593 6 171321811.70506      -380.938 6        37.055
I03        58.000   132803383.453 6 445363758.06206       955.137 6        40.503
C13        59.000                                                                                                                                    41385885.608 4 215507228.55704     -1095.030 4        27.617    41385889.999 5 166643898.42205      -846.414 5        31.117    41385886.307 4 175117304.06204      -889.709 4        26.958
> 2025 01 01 01 15 20.0000000  0 56
G28         1.000    23055201.265 7 121155914.49007      -513.762 7        42.334                                    23055197.524 4  94407187.55704      -400.334 4        29.934    23055197.645 7  94407193.55307      -400.258 7        42.275
G31         2.000    22572338.030 7 118618444.31407      1317.066 7        44.321                                    22572333.686 6  92429943.26206      1026.283 6        41.256    22572333.989 6  92429942.26406      1026.345 6        41.812
G09         3.000    23786940.391 6 125001231.91306      3266.690 6        40.458                                    23786939.070 5  97403561.89405      2545.473 5        35.281    23786939.247 6  97403562.90806      2545.358 6        37.043
E34         4.000    27367649.128 6 143817968.42506      2364.053 6        38.790                                                                    27367649.149 7 107396540.97507      1765.267 7        42.193    27367648.788 7 110198189.39707      1811.287 7        42.963
S21         5.000    38362598.940 7 201596667.54307      -423.081 7        42.373
E05         6.000    26325061.737 6 138339144.16406      2676.236 6        37.108                                                                    26325063.750 6 103305225.37906      1998.491 6        41.354    26325062.659 6 106000137.43906      2050.733 6        40.632
G21         7.000    22647410.948 7 119013005.18107     -3115.741 7        43.064                                    22647406.380 5  92737409.89505     -2427.846 5        30.528
E04         8.000    23907456.206 7 125634555.16707     -1450.495 7        46.482                                                                    23907454.200 8  93818017.37308     -1083.144 8        50.327    23907454.034 8  96265435.79808     -1111.392 8        51.167
R14         9.000    23473840.860 7 125128788.30707      1266.416 7        44.766                                                                    23473841.618 6  97322380.68406       985.070 6        38.751
G04        10.000    21608115.199 7 113551449.37007      2438.660 7        45.744                                    21608112.274 5  88481656.50305      1900.259 5        35.205    21608112.311 7  88481651.50807      1900.362 7        44.376
E09        11.000    24091482.292 7 126601639.03907      1317.000 7        47.876                                                                    24091481.870 8  94540200.96808       983.493 8        49.996    24091481.583 8  97006466.44808      1009.142 8        50.827
S27        12.000    39002680.457 5 204960442.60705      -407.287 5        35.676
G06        13.000    25240960.194 6 132642152.18206      3126.264 6        38.348                                    25240959.399 4 103357521.84404      2436.038 4        28.209    25240960.244 6 103357532.83106      2436.180 6        36.760
S36        14.000    38130096.728 7 200375505.90307      -422.522 7        43.695
E27        15.000    28918108.434 5 151965681.60705        67.924 5        35.671                                                                    28918109.261 6 113480873.36206        50.889 6        39.562    28918108.451 6 116441241.62406        52.237 6        40.114
E36        16.000    23673272.021 7 124403913.85507       719.472 7        47.537                                                                    23673272.435 8  92899043.90108       537.242 8        50.987    23673272.141 8  95322491.93708       551.222 8        51.546
S45        17.000    63328460.084 6 332794022.41206      -463.764 6        37.444
