     3.04           OBSERVATION DATA    M                   RINEX VERSION / TYPE
ssrcrin-15.6.1x                         20250101 021500 UTC PGM / RUN BY / DATE 
(00000000023479385599111004) Septentrio proprietary         COMMENT             
rref                                                        MARKER NAME         
01                                                          MARKER NUMBER       
geodetic                                                    MARKER TYPE         
NFB                 CLIMERS@TUW                             OBSERVER / AGENCY   
3297213             SEPT ASTERX SB3 PROB4.14.4              REC # / TYPE / VERS 
Unknown             Unknown                                 ANT # / TYPE        
  4127831.7146  1207193.1457  4695247.4587                  APPROX POSITION XYZ 
        0.0000        0.0000        0.0000                  ANTENNA: DELTA H/E/N
G   23 X1  C1C L1C D1C S1C C1W S1W C2W L2W D2W S2W C2L L2L  SYS / # / OBS TYPES 
       D2L S2L C5Q L5Q D5Q S5Q C1L L1L D1L S1L              SYS / # / OBS TYPES 
E   21 X1  C1C L1C D1C S1C C6C L6C D6C S6C C5Q L5Q D5Q S5Q  SYS / # / OBS TYPES 
       C7Q L7Q D7Q S7Q C8Q L8Q D8Q S8Q                      SYS / # / OBS TYPES 
S    9 X1  C1C L1C D1C S1C C5I L5I D5I S5I                  SYS / # / OBS TYPES 
R   17 X1  C1C L1C D1C S1C C2P L2P D2P S2P C2C L2C D2C S2C  SYS / # / OBS TYPES 
       C3Q L3Q D3Q S3Q                                      SYS / # / OBS TYPES 
C   25 X1  C1P L1P D1P S1P C5P L5P D5P S5P C2I L2I D2I S2I  SYS / # / OBS TYPES 
       C7I L7I D7I S7I C6I L6I D6I S6I C7D L7D D7D S7D      SYS / # / OBS TYPES 
J   17 X1  C1C L1C D1C S1C C2L L2L D2L S2L C5Q L5Q D5Q S5Q  SYS / # / OBS TYPES 
       C1L L1L D1L S1L                                      SYS / # / OBS TYPES 
I    5 X1  C5A L5A D5A S5A                                  SYS / # / OBS TYPES 
SEPTENTRIO RECEIVERS OUTPUT ALIGNED CARRIER PHASES.         COMMENT             
NO FURTHER PHASE SHIFT APPLIED IN THE RINEX ENCODER.        COMMENT             
G L1C                                                       SYS / PHASE SHIFT   
G L2W                                                       SYS / PHASE SHIFT   
G L2L  0.00000                                              SYS / PHASE SHIFT   
G L5Q  0.00000                                              SYS / PHASE SHIFT   
G L1L  0.00000                                              SYS / PHASE SHIFT   
E L1C  0.00000                                              SYS / PHASE SHIFT   
E L6C  0.00000                                              SYS / PHASE SHIFT   
E L5Q  0.00000                                              SYS / PHASE SHIFT   
E L7Q  0.00000                                              SYS / PHASE SHIFT   
E L8Q  0.00000                                              SYS / PHASE SHIFT   
S L1C                                                       SYS / PHASE SHIFT   
S L5I                                                       SYS / PHASE SHIFT   
R L1C                                                       SYS / PHASE SHIFT   
R L2P  0.00000                                              SYS / PHASE SHIFT   
R L2C                                                       SYS / PHASE SHIFT   
R L3Q  0.00000                                              SYS / PHASE SHIFT   
C L1P  0.00000                                              SYS / PHASE SHIFT   
C L5P  0.00000                                              SYS / PHASE SHIFT   
C L2I                                                       SYS / PHASE SHIFT   
C L7I                                                       SYS / PHASE SHIFT   
C L6I                                                       SYS / PHASE SHIFT   
C L7D                                                       SYS / PHASE SHIFT   
J L1C                                                       SYS / PHASE SHIFT   
J L2L  0.00000                                              SYS / PHASE SHIFT   
J L5Q  0.00000                                              SYS / PHASE SHIFT   
J L1L  0.00000                                              SYS / PHASE SHIFT   
I L5A                                                       SYS / PHASE SHIFT   
  2025     1     1     2    15    0.0000000     GPS         TIME OF FIRST OBS   
 C1C    0.000 C2C    0.000 C2P    0.000                     GLONASS COD/PHS/BIS 
DBHZ                                                        SIGNAL STRENGTH UNIT
    18                                                      LEAP SECONDS        
 24 R01  1 R02 -4 R03  5 R04  6 R05  1 R06 -4 R07  5 R08  6 GLONASS SLOT / FRQ #
    R09 -2 R10 -7 R11  0 R12 -1 R13 -2 R14 -7 R15  0 R16 -1 GLONASS SLOT / FRQ #
    R17  4 R18 -3 R19  3 R20  2 R21  4 R22 -3 R23  3 R24  2 GLONASS SLOT / FRQ #
                                                            END OF HEADER       
> 2025 01 01 02 15  0.0000000  0 53
G28         1.000    23875636.527 6 125467328.04106     -2673.693 6        40.219                                    23875632.321 4  97766730.80204     -2083.393 4        24.917    23875631.769 6  97766736.81106     -2083.291 6        40.079
G31         2.000    22177912.270 7 116545729.33007     -1110.286 7        45.254                                    22177906.923 7  90814842.27907      -865.158 7        42.362    22177907.809 6  90814841.28906      -865.284 6        40.975
G09         3.000    21534075.074 7 113162366.11707      2345.934 7        46.555                                    21534073.044 7  88178476.42207      1828.000 7        47.205    21534073.336 7  88178477.42707      1828.060 7        43.316
E34         4.000    25555304.745 7 134294041.01107      1975.468 7        43.706                                                                    25555304.732 7 100284518.71907      1475.257 7        46.250    25555304.452 7 102900635.95407      1513.683 7        46.846
S21         5.000    38342509.831 7 201491107.97407      -390.748 7        42.590
E05         6.000    24335865.636 7 127885871.12407      2211.978 7        42.489                                                                    24335866.396 7  95499215.92707      1651.752 7        45.577    24335865.977 7  97990492.26007      1694.797 7        46.110
G21         7.000    24705181.633 6 129826652.92506     -3686.500 6        36.155                                    24705177.641 3 101163626.07703     -2872.594 3        18.925
E04         8.000    24990415.902 7 131325545.28207     -2495.448 7        44.823                                                                    24990414.290 7  98067782.09107     -1863.550 7        47.782    24990413.768 8 100626064.02808     -1912.193 8        48.132
R14         9.000    23263160.110 7 124005720.74907     -1585.313 7        44.864                                                                    23263161.067 6  96448879.69806     -1233.078 6        39.973
G04        10.000    20191826.147 8 106108807.75808       762.127 8        48.170                                    20191823.063 6  82682196.99206       593.866 6        40.534    20191823.286 7  82682191.98807       593.862 7        47.810
E09        11.000    23355745.724 8 122735321.16408       -36.498 8        48.392                                                                    23355745.052 8  91653016.74508       -27.287 8        50.508    23355744.611 8  94043964.23208       -27.994 8        50.851
S27        12.000    38974129.737 6 204810387.42606      -381.994 6        36.514
G06        13.000    22923522.160 7 120463948.17307      2633.200 7        42.021                                    22923521.044 6  93868015.51506      2051.840 6        40.045    22923521.928 7  93868026.52407      2051.906 7        42.049
S36        14.000    38109941.292 7 200269569.67507      -390.814 7        44.244
E36        16.000    23303994.694 8 122463346.19408      -581.187 8        48.212                                                                    23303994.758 8  91449918.55408      -434.035 8        50.635    23303994.367 8  93835563.33908      -445.373 8        50.990
S45        17.000    63304856.830 6 332670551.34706      -430.419 6        37.743
G03        18.000    20092683.124 8 105587819.88108     -1442.637 8        49.527                                    20092681.206 8  82276242.73308     -1124.134 8        51.789    20092682.063 7  82276251.74007     -1124.160 7        45.834
R21        19.000    19529074.273 8 104504058.26908     -1963.401 8        52.584                                                                    19529072.701 7  81280943.57807     -1527.019 7        46.230
R20        20.000    22447853.392 5 120038786.55405     -4821.533 5        34.500                                                                    22447855.154 7  93363496.13007     -3750.092 7        42.700
R05        21.000    21538805.524 8 115137297.92708     -3633.758 8        48.140                                                                    21538805.149 7  89551236.41907     -2826.206 7        44.606
I06        22.000    37995449.534 7 149102532.47607      -210.923 7        42.792
S28        23.000    40777676.884 5 214288132.60905      -384.540 5        34.614
E10        24.000    27794337.328 6 146060338.98406     -3460.096 6        37.667                                                                    27794337.709 7 109071095.47907     -2583.895 7        42.519    27794337.797 7 111916419.36407     -2651.327 7        44.309
S23        25.000    38056954.984 7 199990655.76007      -386.691 7        44.348
E06        26.000    23518260.300 7 123589353.56007     -1335.078 7        47.943                                                                    23518259.814 8  92290750.77008      -996.979 8        50.346    23518259.810 8  94698334.05608     -1022.987 8        51.300
R15        27.000    22657003.346 7 121072161.99507      1669.648 7        45.719                                                                    22657003.435 6  94167249.20406      1298.609 6        41.392
C22        30.000                                                                                                                                    25901620.473 6 134876534.54406      2445.351 6        41.661                                                                    25901614.690 6 109598214.48606      1987.105 6        40.598
I01        31.000   334018673.984 7   7620210.53007     -2610.371 7        42.999
G02        32.000    22941235.506 7 120557039.68707     -3484.892 7        44.336                                    22941230.015 5  93940544.59005     -2715.500 5        32.413
G19        33.000    22226710.825 7 116802183.42807      -923.685 7        44.032                                    22226704.756 5  91014709.01305      -719.753 5        32.204
G17        34.000    22923300.698 7 120462805.86707     -2453.364 7        44.439                                    22923296.675 6  93867130.50206     -1911.712 6        39.835    22923296.729 6  93867130.52106     -1911.840 6        39.321
E11        35.000    25211100.090 6 132485285.69406     -2957.114 6        41.347                                                                    25211096.397 7  98933833.64107     -2208.255 7        43.676    25211096.061 7 101514708.99107     -2265.884 7        43.757
C32        36.000                                                                                                                                    26356380.649 6 137244608.73906     -3253.225 6        40.386                                                                    26356381.258 6 111522495.09006     -2643.299 6        39.892
C35        37.000                                                                                                                                    22859481.698 8 119035337.71908      -404.616 8        48.420                                                                    22859480.346 7  96725961.97507      -328.673 7        47.449
I09        38.000    37191434.700 7 145947173.86107      -493.231 7        42.758
C29        39.000                                                                                                                                    23788673.147 7 123873857.85507     -3398.537 7        46.329                                                                    23788671.059 7 100657649.09807     -2761.531 7        45.242
R22        40.000    21035191.346 8 112287314.53008      2485.673 8        50.421                                                                    21035189.833 7  87334592.66307      1933.358 7        46.084
S44        42.000    40558160.462 6 213134778.08806      -468.178 6        37.066
C09        43.000                                                                                                                                    38450122.823 7 200219903.93607        -6.849 7        42.214    38450119.583 7 154822721.38307        -5.273 7        46.666    38450117.633 6 162695053.63906        -5.527 6        41.940
C05        44.000                                                                                                                                    39033094.925 6 203255599.13706      -406.505 6        39.138    39033089.669 7 157170145.63407      -314.411 7        43.206    39033092.199 6 165161926.14606      -330.050 6        40.040
R06        45.000    19371395.523 6 103369534.58306       149.990 6        40.856
C44        46.000                                                                                                                                    25116556.504 6 130788533.75206      1984.469 6        40.546                                                                    25116555.458 6 106276400.24406      1612.554 6        41.402
C39        47.000                                                                                                                                    39043568.321 6 203310114.68006     -1034.148 6        41.752                                                                    39043563.880 7 165206111.12207      -840.261 7        42.059
C20        48.000                                                                                                                                    22232104.265 8 115768448.04608     -1729.037 8        51.305                                                                    22232098.536 8  94071338.95108     -1404.944 8        49.705
C06        49.000                                                                                                                                    38174754.417 6 198785988.80706      -519.635 6        41.321    38174749.120 7 153713919.65207      -401.897 7        44.760    38174748.672 6 161529878.41106      -422.213 6        41.521
C16        50.000                                                                                                                                    38665437.076 7 201341095.63207      -621.278 7        42.584    38665436.908 7 155689715.82307      -480.551 7        44.129    38665434.384 6 163606131.28506      -504.767 6        39.219
S48        51.000    77091588.349 6 405119660.82806      -385.686 6        37.788
C19        52.000                                                                                                                                    22316051.449 8 116205596.21708       869.918 8        50.505                                                                    22316046.661 8  94426568.99408       706.963 8        49.485
C60        54.000                                                                                                                                    40558164.940 6 211197208.61606      -464.136 6        38.664                                                                    40558150.177 6 171615000.44806      -376.944 6        39.907
C37        56.000                                                                                                                                    25239102.744 7 131426635.37907      1368.865 7        42.768                                                                    25239106.105 7 106794923.46307      1112.447 7        43.755
C02        57.000                                                                                                                                    40508619.260 5 210939053.24805      -451.864 5        34.686    40508613.095 6 163111449.30906      -349.280 6        40.710    40508616.583 5 171405261.89805      -366.714 5        35.886
I03        58.000   131634719.903 6 440777668.17406       953.414 6        39.937
R07        59.000    21909690.789 8 117284304.04608      2671.677 8        48.121                                                                    21909688.947 7  91221124.90607      2077.857 7        42.322
> 2025 01 01 02 15  5.0000000  0 53
G28         1.000    23878180.818 6 125480701.88906     -2675.711 6        41.139                                    23878177.050 4  97777151.99104     -2084.978 4        25.113    23878177.126 6  97777158.00506     -2084.960 6        39.456
G31         2.000    22178970.058 7 116551289.17107     -1113.410 7        45.705                                    22178964.865 7  90819174.62607      -867.591 7        42.436    22178965.926 6  90819173.62906      -867.606 6        40.946
G09         3.000    21531843.637 7 113150640.52507      2344.597 7        46.915                                    21531841.763 7  88169339.60307      1826.957 7        47.333    21531842.011 7  88169340.60907      1826.888 7        43.242
E34         4.000    25553424.996 7 134284165.26407      1974.956 7        43.426                                                                    25553425.436 7 100277143.97907      1474.759 7        46.231    25553425.176 7 102893068.81807      1513.308 7        46.802
S21         5.000    38342889.517 7 201493060.82207      -390.319 7        42.787
E05         6.000    24333761.955 7 127874813.20307      2211.475 7        42.741                                                                    24333762.223 7  95490958.39707      1651.451 7        45.609    24333761.699 7  97982019.31007      1694.487 7        46.114
G21         7.000    24708689.432 6 129845086.55406     -3686.558 6        36.023                                    24708685.423 3 101177989.94303     -2872.649 3        18.955
E04         8.000    24992790.826 7 131338024.96607     -2496.281 7        44.646                                                                    24992789.113 7  98077101.33007     -1863.994 7        47.779    24992788.652 8 100635626.37708     -1912.662 8        48.150
R14         9.000    23264647.581 7 124013657.03707     -1589.054 7        43.843                                                                    23264649.454 6  96455052.30606     -1235.839 6        38.832
G04        10.000    20191102.442 8 106105003.03908       759.975 8        48.204                                    20191099.027 6  82679232.28106       592.188 6        40.601    20191099.471 8  82679227.28408       592.154 8        48.012
E09        11.000    23355781.337 8 122735507.80308       -37.903 8        48.400                                                                    23355780.591 8  91653156.11508       -28.307 8        50.511    23355780.138 8  94044107.23808       -29.055 8        50.857
S27        12.000    38974491.545 6 204812296.51706      -381.496 6        36.197
G06        13.000    22921017.297 7 120450785.23307      2632.181 7        42.368                                    22921016.256 6  93857758.68706      2051.053 6        40.145    22921016.282 6  93857769.68006      2051.141 6        41.478
S36        14.000    38110308.506 7 200271522.94507      -390.267 7        44.238
E36        16.000    23304548.585 8 122466257.10708      -582.938 8        48.272                                                                    23304548.688 8  91452092.28508      -435.275 8        50.610    23304548.341 8  93837793.77008      -446.619 8        50.978
S45        17.000    63305222.434 6 332672702.71306      -429.856 6        37.406
G03        18.000    20094056.488 8 105595037.38708     -1444.142 8        49.303                                    20094054.656 8  82281866.76808     -1125.306 8        51.906    20094055.126 7  82281875.77307     -1125.318 7        45.803
R21        19.000    19530910.708 8 104513885.54408     -1967.343 8        52.725                                                                    19530909.321 7  81288587.01307     -1530.164 7        45.750
R20        20.000    22452361.899 5 120062896.73305     -4822.340 5        34.048                                                                    22452363.335 7  93382248.49307     -3750.732 7        42.389
R05        21.000    21542204.135 7 115155467.90807     -3634.078 7        47.347                                                                    21542203.718 7  89565368.63007     -2826.520 7        44.370
I06        22.000    37995717.979 7 149103586.65207      -210.543 7        42.533
S28        23.000    40778042.851 5 214290055.20205      -383.938 5        34.129
E10        24.000    27797629.631 6 146077640.39106     -3460.156 6        37.690                                                                    27797630.099 7 109084015.34607     -2583.912 7        42.574    27797630.035 7 111929676.26507     -2651.257 7        44.265
S23        25.000    38057321.786 7 199992588.63207      -386.128 7        44.304
E06        26.000    23519531.265 7 123596032.49107     -1336.323 7        47.725                                                                    23519530.815 8  92295738.27708      -997.892 8        50.404    23519530.776 8  94703451.67008     -1023.863 8        51.257
R15        27.000    22655442.373 7 121063821.41107      1666.756 7        45.884                                                                    22655442.607 6  94160762.08206      1296.315 6        41.561
C22        30.000                                                                                                                                    25899271.957 6 134864308.52906      2445.455 6        41.218                                                                    25899267.009 6 109588279.86306      1987.149 6        40.813
I01        31.000   334021999.984 7   7633262.52707     -2610.185 7        43.056
G02        32.000    22944552.128 7 120574466.90407     -3485.725 7        44.262                                    22944546.211 5  93954124.22805     -2716.151 5        32.251
G19        33.000    22227591.129 7 116806809.86607      -926.686 7        44.072                                    22227585.182 5  91018314.02305      -722.095 5        32.389
G17        34.000    22925635.999 7 120475077.43107     -2454.999 7        44.128                                    22925631.832 6  93876692.76106     -1912.991 6        39.955    22925631.755 6  93876692.75206     -1912.910 6        39.432
E11        35.000    25213914.147 6 132500073.88406     -2957.960 6        41.046                                                                    25213910.403 7  98944876.76407     -2208.877 7        43.831    25213910.199 7 101526040.19507     -2266.459 7        43.784
C32        36.000                                                                                                                                    26359504.094 6 137260873.28006     -3252.534 6        40.644                                                                    26359504.759 6 111535711.38506     -2642.928 6        40.272
C35        37.000                                                                                                                                    22859871.343 8 119037367.35008      -407.025 8        48.280                                                                    22859870.144 7  96727611.23107      -330.800 7        47.596
I09        38.000    37192062.538 7 145949639.24207      -492.943 7        42.667
C29        39.000                                                                                                                                    23791937.095 7 123890853.20607     -3399.312 7        46.830                                                                    23791934.914 7 100671459.23207     -2762.315 7        45.404
R22        40.000    21032864.334 8 112274893.23508      2483.088 8        50.278                                                                    21032862.834 7  87324931.66207      1931.342 7        46.013
S44        42.000    40558607.253 6 213137118.53106      -467.827 6        37.248
C09        43.000                                                                                                                                    38450129.682 7 200219939.56507        -7.161 7        42.322    38450126.447 7 154822748.92207        -5.479 7        46.729    38450124.515 7 162695082.60407        -5.911 7        42.053
C05        44.000                                                                                                                                    39033485.553 6 203257630.90606      -405.995 6        39.393    39033480.229 7 157171716.72007      -313.979 7        43.291    39033482.308 6 165163577.15606      -330.031 6        40.157
R06        45.000    19371256.440 6 103368790.50406       147.765 6        41.139
C44        46.000                                                                                                                                    25114651.728 6 130778615.70506      1982.955 6        40.696                                                                    25114650.691 6 106268341.03806      1611.285 6        41.847
C39        47.000                                                                                                                                    39044561.454 6 203315287.03106     -1034.499 6        41.945                                                                    39044557.157 7 165210314.07507      -840.561 7        42.286
C20        48.000                                                                                                                                    22233765.115 8 115777096.14608     -1729.923 8        51.509                                                                    22233759.309 8  94078366.25908     -1405.773 8        49.736
C06        49.000                                                                                                                                    38175254.001 6 198788588.70106      -520.049 6        41.509    38175248.220 7 153715930.04407      -402.125 7        44.625    38175247.922 6 161531991.04906      -422.547 6        41.661
C16        50.000                                                                                                                                    38666033.697 7 201344203.70507      -621.704 7        42.432    38666033.630 7 155692119.16407      -480.634 7        44.125    38666031.319 6 163608656.86706      -505.197 6        39.279
S48        51.000    77091949.911 6 405121589.59706      -385.474 6        37.191
C19        52.000                                                                                                                                    22315216.756 8 116201250.00108       868.896 8        50.521                                                                    22315212.008 8  94423037.35108       705.990 8        49.571
C60        54.000                                                                                                                                    40558610.086 6 211199527.77806      -463.508 6        38.862                                                                    40558595.586 6 171616884.98306      -376.774 6        40.095
C37        56.000                                                                                                                                    25237788.871 7 131419795.67607      1367.246 7        42.650                                                                    25237792.778 7 106789365.66807      1110.976 7        44.092
C02        57.000                                                                                                                                    40509053.065 5 210941310.66505      -451.093 5        34.652    40509046.342 6 163113194.89606      -348.953 6        40.257    40509049.968 6 171407096.25206      -366.623 6        36.095
I03        58.000   131633504.912 6 440772900.45506       953.855 6        39.721
R07        59.000    21907195.230 8 117270948.75308      2670.685 8        48.034                                                                    21907194.273 7  91210737.48007      2077.223 7        43.344
> 2025 01 01 02 15 10.0000000  0 53
G28         1.000    23880728.231 6 125494088.42606     -2678.807 6        41.313                                    23880724.269 4  97787583.06104     -2087.377 4        25.188    23880724.079 6  97787589.06906     -2087.393 6        39.384
G31         2.000    22180031.650 7 116556866.87707     -1117.557 7        45.979                                    22180026.267 7  90823520.89107      -870.822 7        42.571    22180027.311 6  90823519.89606      -870.870 6        41.430
G09         3.000    21529614.226 7 113138924.08507      2342.176 7        46.432                                    21529612.216 7  88160209.91007      1825.070 7        47.383    21529612.386 7  88160210.92507      1825.025 7        43.238
E34         4.000    25551546.923 7 134274294.84507      1973.290 7        43.518                                                                    25551547.198 7 100269773.20707      1473.604 7        46.202    25551546.892 7 102885505.77507      1511.996 7        46.807
S21         5.000    38343260.389 7 201495013.66707      -390.793 7        42.442
E05         6.000    24331658.500 7 127863760.26307      2209.908 7        42.510                                                                    24331658.984 7  95482704.59307      1650.212 7        45.743    24331658.429 7  97973550.18207      1693.288 7        46.182
G21         7.000    24712197.383 5 129863521.93005     -3687.373 5        35.871                                    24712193.813 3 101192355.17203     -2873.264 3        18.716
E04         8.000    24995166.405 7 131350509.89707     -2497.748 7        44.415                                                                    24995164.919 7  98086424.49707     -1865.139 7        47.762    24995164.522 8 100645192.75008     -1913.794 8        48.182
R14         9.000    23266140.289 7 124021613.62607     -1593.563 7        43.613                                                                    23266142.521 6  96461240.75106     -1239.512 6        39.504
G04        10.000    20190380.836 8 106101211.56308       756.769 8        48.011                                    20190377.513 6  82676277.88306       589.692 6        40.684    20190377.639 7  82676272.89007       589.651 7        47.974
E09        11.000    23355818.487 8 122735703.96408       -40.437 8        48.204                                                                    23355817.905 8  91653302.60008       -30.204 8        50.514    23355817.438 8  94044257.54608       -30.983 8        50.929
S27        12.000    38974852.539 5 204814206.12005      -382.000 5        35.938
G06        13.000    22918513.916 7 120437629.73507      2630.060 7        42.629                                    22918512.867 6  93847507.65306      2049.397 6        40.184    22918513.119 6  93847518.64506      2049.403 6        41.661
S36        14.000    38110679.995 7 200273475.84707      -390.750 7        44.150
E36        16.000    23305104.512 8 122469178.62508      -585.581 8        48.016                                                                    23305104.621 8  91454273.94008      -437.280 8        50.653    23305104.315 8  93840032.34008      -448.742 8        51.014
S45        17.000    63305589.751 6 332673254.11316      -430.428 6        37.342
G03        18.000    20095431.777 8 105602264.60408     -1446.713 8        49.684                                    20095429.966 8  82287498.36508     -1127.310 8        51.955    20095430.522 7  82287507.36407     -1127.311 7        45.839
R21        19.000    19532751.163 8 104523734.74808     -1972.277 8        52.563                                                                    19532749.913 7  81296247.50507     -1533.991 7        45.591
R20        20.000    22456871.196 5 120087013.42405     -4824.287 5        33.323                                                                    22456873.690 6  93401005.91706     -3752.190 6        41.883
R05        21.000    21545604.064 7 115173641.86807     -3635.399 7        47.320                                                                    21545603.382 7  89579503.92107     -2827.449 7        44.188
I06        22.000    37995986.925 7 149104640.94307      -211.018 7        42.493
S28        23.000    40778408.867 5 214291978.00905      -384.899 5        34.181
E10        24.000    27800922.868 6 146094944.18806     -3461.087 6        37.577                                                                    27800922.756 7 109096937.01407     -2584.742 7        42.493    27800922.684 7 111942935.01807     -2652.143 7        43.996
S23        25.000    38057690.391 7 199994521.65807      -386.811 7        44.101
E06        26.000    23520803.696 7 123602719.84107     -1338.557 7        47.621                                                                    23520803.342 8  92300732.08208      -999.582 8        50.368    23520803.326 8  94708575.74708     -1025.627 8        51.325
R15        27.000    22653884.819 7 121055498.07907      1662.770 7        46.041                                                                    22653884.539 6  94154288.39206      1293.170 6        41.235
C22        30.000                                                                                                                                    25896924.443 6 134852084.62206      2444.380 6        41.306                                                                    25896919.124 6 109578346.94906      1986.206 6        40.477
I01        31.000   334025326.400 7   7646315.07307     -2610.787 7        43.111
G02        32.000    22947869.577 7 120591900.76407     -3487.638 7        44.500                                    22947863.520 5  93967709.05705     -2717.641 5        32.186
G19        33.000    22228475.042 7 116811453.68107      -930.751 7        44.193                                    22228468.909 5  91021932.58005      -725.262 5        32.419
G17        34.000    22927972.942 7 120487359.34307     -2457.676 7        44.987                                    22927968.997 6  93886263.07706     -1915.074 6        39.985    22927969.149 6  93886263.08706     -1915.081 6        39.270
E11        35.000    25216729.426 6 132514868.41806     -2959.756 6        41.406                                                                    25216725.821 7  98955924.62407     -2210.201 7        43.888    25216725.558 7 101537376.26507     -2267.816 7        43.820
C32        36.000                                                                                                                                    26362627.407 6 137277137.77506     -3253.079 6        40.958                                                                    26362628.323 6 111548927.61606     -2643.355 6        40.458
C35        37.000                                                                                                                                    22860263.897 8 119039411.35808      -410.545 8        48.333                                                                    22860262.657 7  96729272.14107      -333.473 7        47.509
I09        38.000    37192691.264 7 145952105.27707      -493.415 7        42.599
C29        39.000                                                                                                                                    23795202.570 7 123907854.93207     -3401.208 7        46.338                                                                    23795199.935 7 100685274.51207     -2763.715 7        45.344
R22        40.000    21030540.585 8 112262487.63508      2479.316 8        50.611                                                                    21030538.667 7  87315282.86207      1928.420 7        45.190
S44        42.000    40559053.118 6 213139458.98306      -468.275 6        36.994
C09        43.000                                                                                                                                    38450137.490 7 200219979.32607        -8.578 7        42.425    38450134.062 7 154822779.67507        -6.659 7        46.846    38450132.063 6 162695114.90206        -6.949 6        41.819
C05        44.000                                                                                                                                    39033876.100 6 203259662.74606      -406.564 6        39.180    39033870.526 7 157173287.88507      -314.469 7        43.534    39033872.484 6 165165228.18706      -330.279 6        40.010
R06        45.000    19371119.454 6 103368059.36906       144.787 6        41.235
C44        46.000                                                                                                                                    25112749.481 6 130768707.03206      1980.604 6        41.661                                                                    25112747.937 6 106260289.42506      1609.377 6        41.681
C39        47.000                                                                                                                                    39045555.344 6 203320462.77506     -1035.702 6        41.831                                                                    39045551.159 7 165214519.78107      -841.569 7        42.123
C20        48.000                                                                                                                                    22235427.151 8 115785750.75108     -1731.793 8        51.320                                                                    22235421.374 8  94085398.82008     -1407.182 8        49.611
C06        49.000                                                                                                                                    38175754.579 6 198791192.71806      -521.477 6        41.518    38175748.395 7 153717943.64107      -403.182 7        44.667    38175748.085 6 161534107.02406      -423.751 6        41.590
C16        50.000                                                                                                                                    38666631.314 7 201347315.67907      -623.054 7        42.610    38666631.353 7 155694525.54107      -481.774 7        44.296    38666629.030 6 163611185.57706      -506.096 6        39.312
S48        51.000    77092314.147 6 405123518.26106      -386.244 6        37.410
C19        52.000                                                                                                                                    22314383.754 8 116196911.15908       866.788 8        50.598                                                                    22314378.816 8  94419511.67908       704.374 8        49.412
C60        54.000                                                                                                                                    40559055.719 6 211201846.95106      -464.186 6        39.003                                                                    40559040.709 6 171618769.47806      -377.076 6        39.889
C37        56.000                                                                                                                                    25236477.235 7 131412966.00607      1364.730 7        42.292                                                                    25236481.101 7 106783815.99707      1109.001 7        43.882
C02        57.000                                                                                                                                    40509486.240 5 210943568.17305      -451.636 5        34.638    40509480.067 6 163114940.54606      -349.372 6        40.524    40509483.608 6 171408930.64906      -366.870 6        36.060
I03        58.000   131632289.660 6 440768132.88506       953.390 6        39.694
R07        59.000    21904702.352 8 117257600.95308      2668.616 8        48.136                                                                    21904701.050 7  91200355.84307      2075.621 7        42.146
> 2025 01 01 02 15 15.0000000  0 53
G28         1.000    23883278.012 6 125507487.83406     -2680.831 6        40.198                                    23883273.971 4  97798024.17004     -2088.949 4        24.602    23883274.156 6  97798030.16406     -2089.021 6        39.799
G31         2.000    22181096.227 7 116562462.67007     -1120.892 7        45.893                                    22181091.130 7  90827881.24907      -873.421 7        42.565    22181091.783 6  90827880.25106      -873.335 6        40.832
G09         3.000    21527385.873 7 113127217.02407      2340.580 7        46.698                                    21527384.458 7  88151087.53007      1823.828 7        47.284    21527384.649 7  88151088.53807      1823.888 7        43.372
E34         4.000    25549669.646 7 134264429.99107      1972.465 7        43.319                                                                    25549670.005 7 100262406.61007      1472.948 7        46.316    25549669.741 7 102877947.00307      1511.304 7        46.860
S21         5.000    38343632.638 7 201496966.83107      -390.493 7        42.519
E05         6.000    24329556.257 7 127852712.55607      2209.129 7        42.718                                                                    24329556.679 7  95474454.69307      1649.559 7        45.901    24329556.120 7  97965085.06307      1692.669 7        46.188
G21         7.000    24715705.543 5 129881959.29205     -3687.549 5        35.833                                    24715702.051 3 101206721.92803     -2873.406 3        18.060
E04         8.000    24997543.320 7 131363000.30107     -2498.462 7        44.327                                                                    24997541.694 7  98095751.74607     -1865.765 7        47.903    24997541.375 8 100654763.32008     -1914.449 8        48.272
R14         9.000    23267637.604 7 124029590.38007     -1597.286 7        44.969                                                                    23267638.723 6  96467444.87806     -1242.353 6        39.243
G04        10.000    20189661.911 8 106097433.56608       754.386 8        48.133                                    20189658.601 6  82673333.99206       587.832 6        40.651    20189658.813 8  82673328.99008       587.779 8        48.071
E09        11.000    23355857.877 8 122735909.86208       -42.026 8        48.119                                                                    23355857.066 8  91653456.36108       -31.421 8        50.577    23355856.646 8  94044415.31108       -32.172 8        50.933
S27        12.000    38975213.842 5 204816115.76305      -381.796 5        35.933
G06        13.000    22916012.130 7 120424481.95507      2628.913 7        42.700                                    22916010.896 6  93837262.62906      2048.504 6        40.014    22916011.374 7  93837273.61307      2048.629 7        42.190
S36        14.000    38111051.864 7 200275429.00407      -390.770 7        44.265
E36        16.000    23305662.514 7 122472110.98307      -587.327 7        47.926                                                                    23305662.647 8  91456463.69008      -438.638 8        50.745    23305662.302 8  93842279.21408      -450.098 8        51.018
S45        17.000    63305953.338 6 332675405.60506      -430.167 6        37.214
G03        18.000    20096809.282 8 105609501.73008     -1448.325 8        49.551                                    20096807.141 8  82293137.68408     -1128.565 8        51.890    20096807.766 7  82293146.68607     -1128.623 7        46.084
R21        19.000    19534596.146 8 104533606.11608     -1976.345 8        52.364                                                                    19534595.233 7  81303925.24107     -1537.154 7        46.629
R20        20.000    22461380.414 5 120111136.82605     -4825.258 5        34.014                                                                    22461384.507 7  93419768.57107     -3752.923 7        42.093
R05        21.000    21549005.399 7 115191819.83207     -3635.900 7        47.823                                                                    21549004.250 7  89593642.34207     -2827.940 7        44.512
I06        22.000    37996255.591 7 149105695.52207      -210.885 7        42.612
S28        23.000    40778774.167 5 214293901.33205      -384.504 5        34.424
E10        24.000    27804216.076 6 146112250.60706     -3461.441 6        37.422                                                                    27804216.099 7 109109860.63007     -2584.892 7        42.519    27804215.926 7 111956195.77107     -2652.224 7        43.992
S23        25.000    38058057.574 7 199996454.91407      -386.761 7        44.290
E06        26.000    23522078.200 7 123609415.84307     -1340.044 7        47.521                                                                    23522077.568 8  92305732.34108     -1000.621 8        50.402    23522077.576 8  94713706.45108     -1026.743 8        51.287
R15        27.000    22652329.733 7 121047192.04607      1659.599 7        45.141                                                                    22652330.248 6  94147828.15006      1290.842 6        41.175
C22        30.000                                                                                                                                    25894577.260 6 134839863.06606      2444.216 6        41.375                                                                    25894571.922 6 109568415.93906      1986.017 6        40.589
I01        31.000   334028652.759 7   7659368.28907     -2610.703 7        43.130
G02        32.000    22951188.667 7 120609341.48107     -3488.735 7        45.115                                    22951182.166 5  93981299.22705     -2718.495 5        32.371
G19        33.000    22229361.692 7 116816115.05807      -933.956 7        44.655                                    22229355.923 5  91025564.81905      -727.758 5        32.437
G17        34.000    22930312.416 7 120499651.67207     -2459.422 7        44.537                                    22930308.166 6  93895841.51106     -1916.430 6        39.946    22930308.685 6  93895841.50806     -1916.389 6        39.652
E11        35.000    25219546.073 6 132529669.50506     -2960.680 6        41.280                                                                    25219542.473 7  98966977.39007     -2210.911 7        43.987    25219542.066 7 101548717.35607     -2268.547 7        43.892
C32        36.000                                                                                                                                    26365751.344 6 137293402.46106     -3252.870 6        41.344                                                                    26365751.937 6 111562143.99406     -2643.168 6        40.603
C35        37.000                                                                                                                                    22860659.393 8 119041469.96408      -413.065 8        48.449                                                                    22860658.009 7  96730944.91807      -335.570 7        47.595
I09        38.000    37193320.004 7 145954572.15607      -493.429 7        42.656
C29        39.000                                                                                                                                    23798468.096 7 123924863.26307     -3402.301 7        46.130                                                                    23798466.354 7 100699095.13807     -2764.560 7        45.421
R22        40.000    21028220.011 8 112250097.89008      2476.502 8        50.671                                                                    21028217.579 7  87305646.39807      1926.087 7        45.568
S44        42.000    40559495.447 6 213141799.67306      -468.249 6        36.994
C09        43.000                                                                                                                                    38450145.923 7 200220023.41207        -9.022 7        42.499    38450142.469 7 154822813.77307        -6.949 7        46.699    38450140.496 6 162695150.71906        -7.435 6        41.990
C05        44.000                                                                                                                                    39034265.279 6 203261694.93906      -406.519 6        39.066    39034260.590 7 157174859.28007      -314.263 7        43.380    39034262.584 6 165166879.48906      -330.256 6        40.124
R06        45.000    19370984.744 6 103367341.59306       142.447 6        41.082
C44        46.000                                                                                                                                    25110848.228 6 130758807.96406      1978.880 6        41.371                                                                    25110846.961 7 106252245.62407      1608.140 7        42.051
C39        47.000                                                                                                                                    39046549.940 6 203325642.18006     -1036.073 6        41.640                                                                    39046545.785 7 165218728.47407      -842.053 7        42.216
C20        48.000                                                                                                                                    22237090.376 8 115794412.08208     -1732.815 8        51.374                                                                    22237084.719 8  94092436.85508     -1408.043 8        49.786
C06        49.000                                                                                                                                    38176255.536 6 198793801.08106      -521.857 6        41.573    38176249.348 7 153719960.61107      -403.748 7        44.667    38176248.952 6 161536226.52706      -424.135 6        41.497
C16        50.000                                                                                                                                    38667229.979 7 201350431.78907      -623.511 7        42.845    38667229.657 7 155696935.12707      -482.207 7        44.209    38667227.395 6 163613717.68206      -506.666 6        39.354
S48        51.000    77092685.167 6 405125447.00706      -385.937 6        37.357
C19        52.000                                                                                                                                    22313551.865 8 116192579.93208       865.523 8        50.816                                                                    22313547.046 8  94415992.19108       703.384 8        49.531
C60        54.000                                                                                                                                    40559500.896 6 211204166.34306      -463.793 6        39.033                                                                    40559486.079 6 171620654.16306      -376.785 6        39.790
C37        56.000                                                                                                                                    25235168.069 7 131406146.62507      1362.911 7        42.332                                                                    25235171.323 7 106778274.68307      1107.509 7        43.975
C02        57.000                                                                                                                                    40509920.296 5 210945826.00505      -451.272 5        34.829    40509913.680 6 163116686.46106      -349.153 6        40.412    40509917.185 6 171410765.33606      -366.929 6        36.166
I03        58.000   131631075.202 6 440763365.65706       953.430 6        39.742
R07        59.000    21902209.872 7 117244260.76107      2667.384 7        47.886                                                                    21902208.137 7  91189980.15607      2074.634 7        42.790
> 2025 01 01 02 15 20.0000000  0 53
G28         1.000    23885829.820 6 125520899.42906     -2683.447 6        39.435                                    23885826.020 4  97808474.76404     -2090.997 4        24.632    23885826.126 6  97808480.74506     -2090.930 6        40.026
G31         2.000    22182164.234 7 116568075.83707     -1124.275 7        46.066                                    22182159.356 7  90832255.14407      -876.061 7        42.643    22182160.377 6  90832254.16006      -876.114 6        41.456
G09         3.000    21525160.160 7 113115518.64107      2338.885 7        46.779                                    21525158.310 7  88141971.91107      1822.508 7        47.307    21525158.606 7  88141972.92007      1822.426 7        43.295
E34         4.000    25547793.261 7 134254569.97207      1971.535 7        43.297                                                                    25547793.687 7 100255043.60807      1472.314 7        46.363    25547793.463 7 102870391.92307      1510.694 7        46.887
S21         5.000    38343998.698 7 201498919.48907      -390.458 7        42.597
E05         6.000    24327454.217 7 127841669.32307      2208.280 7        42.265                                                                    24327455.190 7  95466208.12407      1649.043 7        46.054    24327454.672 7  97956623.37207      1691.975 7        46.087
G21         7.000    24719215.107 5 129900397.83605     -3687.813 5        35.971                                    24719211.005 2 101221089.62102     -2873.600 2        17.962
E04         8.000    24999921.344 7 131375495.41407     -2499.340 7        44.328                                                                    24999919.385 8  98105082.51608     -1866.427 8        48.017    24999919.137 8 100664337.50308     -1915.137 8        48.198
R14         9.000    23269138.206 7 124037586.94707     -1601.283 7        44.730                                                                    23269138.906 6  96473664.38006     -1245.462 6        38.799
G04        10.000    20188945.551 8 106093668.31308       751.829 8        48.360                                    20188942.091 6  82670400.03306       585.840 6        40.644    20188942.299 8  82670395.02508       585.846 8        48.000
E09        11.000    23355898.589 8 122736124.76208       -43.837 8        48.286                                                                    23355897.998 8  91653616.83508       -32.760 8        50.736    23355897.526 8  94044579.98008       -33.616 8        50.875
S27        12.000    38975578.753 5 204818025.03005      -381.786 5        35.857
G06        13.000    22913511.231 7 120411341.13307      2627.521 7        42.203                                    22913510.266 6  93827023.02006      2047.417 6        40.172    22913511.140 6  93827034.02306      2047.398 6        41.387
S36        14.000    38111425.924 7 200277382.12507      -390.356 7        44.129
E36        16.000    23306222.488 8 122475053.47108      -589.438 8        48.005                                                                    23306222.592 8  91458660.99208      -440.169 8        50.884    23306222.237 8  93844533.83608      -451.633 8        50.966
S45        17.000    63306324.564 6 332677556.51706      -430.225 6        37.490
G03        18.000    20098187.952 8 105616748.03208     -1450.138 8        49.613                                    20098186.064 8  82298784.15408     -1129.976 8        51.899    20098186.783 7  82298793.15207     -1129.929 7        46.221
R21        19.000    19536444.757 8 104543498.90908     -1980.631 8        52.721                                                                    19536443.875 7  81311619.62707     -1540.470 7        46.513
R20        20.000    22465895.554 5 120135266.19505     -4826.470 5        33.623                                                                    22465896.897 6  93438535.82506     -3753.811 6        41.664
R05        21.000    21552405.939 7 115210001.17207     -3636.436 7        47.567                                                                    21552405.065 7  89607783.38107     -2828.461 7        44.560
I06        22.000    37996524.214 7 149106749.83007      -210.784 7        42.468
S28        23.000    40779139.463 5 214295823.87805      -384.390 5        34.124
E10        24.000    27807509.644 6 146129558.90206     -3461.805 6        37.573                                                                    27807509.774 7 109122785.64607     -2585.147 7        42.673    27807509.657 7 111969457.95807     -2652.452 7        43.676
S23        25.000    38058424.055 7 199998387.71207      -386.496 7        44.104
E06        26.000    23523353.836 7 123616119.74407     -1341.498 7        47.554                                                                    23523353.264 8  92310738.50408     -1001.762 8        50.557    23523353.268 8  94718843.20708     -1027.909 8        51.304
R15        27.000    22650778.645 7 121038902.83107      1656.179 7        45.857                                                                    22650779.390 6  94141380.99706      1288.112 6        40.973
C22        30.000                                                                                                                                    25892230.297 6 134827643.12306      2443.893 6        40.725                                                                    25892225.589 6 109558486.24906      1985.954 6        40.782
I01        31.000   334031978.835 7   7672421.66207     -2610.656 7        43.081
G02        32.000    22954508.589 7 120626788.33307     -3489.899 7        45.135                                    22954502.117 5  93994894.17905     -2719.405 5        32.653
G19        33.000    22230251.983 7 116820793.26107      -937.223 7        44.405                                    22230246.160 5  91029210.17605      -730.306 5        32.473
G17        34.000    22932653.273 7 120511953.76107     -2461.288 7        44.722                                    22932649.190 6  93905427.55006     -1917.887 6        39.973    22932649.531 6  93905427.57006     -1917.946 6        39.030
E11        35.000    25222363.517 6 132544476.44706     -2961.901 6        41.602                                                                    25222360.104 7  98978034.51007     -2211.687 7        44.020    25222359.594 7 101560062.93107     -2269.471 7        43.865
C32        36.000                                                                                                                                    26368874.935 6 137309666.58006     -3252.732 6        41.168                                                                    26368875.228 6 111575359.94106     -2642.930 6        40.887
