     3.04           OBSERVATION DATA    M                   RINEX VERSION / TYPE
ssrcrin-15.6.1x                         20250101 010000 UTC PGM / RUN BY / DATE 
(00000000023479385599111004) Septentrio proprietary         COMMENT             
rref                                                        MARKER NAME         
01                                                          MARKER NUMBER       
geodetic                                                    MARKER TYPE         
NFB                 CLIMERS@TUW                             OBSERVER / AGENCY   
3297213             SEPT ASTERX SB3 PROB4.14.4              REC # / TYPE / VERS 
Unknown             Unknown                                 ANT # / TYPE        
  4127831.6633  1207192.9818  4695247.3798                  APPROX POSITION XYZ 
        0.0000        0.0000        0.0000                  ANTENNA: DELTA H/E/N
G   23 X1  C1C L1C D1C S1C C1W S1W C2W L2W D2W S2W C2L L2L  SYS / # / OBS TYPES 
       D2L S2L C5Q L5Q D5Q S5Q C1L L1L D1L S1L              SYS / # / OBS TYPES 
E   21 X1  C1C L1C D1C S1C C6C L6C D6C S6C C5Q L5Q D5Q S5Q  SYS / # / OBS TYPES 
       C7Q L7Q D7Q S7Q C8Q L8Q D8Q S8Q                      SYS / # / OBS TYPES 
S    9 X1  C1C L1C D1C S1C C5I L5I D5I S5I                  SYS / # / OBS TYPES 
R   17 X1  C1C L1C D1C S1C C2P L2P D2P S2P C2C L2C D2C S2C  SYS / # / OBS TYPES 
       C3Q L3Q D3Q S3Q                                      SYS / # / OBS TYPES 
C   25 X1  C1P L1P D1P S1P C5P L5P D5P S5P C2I L2I D2I S2I  SYS / # / OBS TYPES 
       C7I L7I D7I S7I C6I L6I D6I S6I C7D L7D D7D S7D      SYS / # / OBS TYPES 
J   17 X1  C1C L1C D1C S1C C2L L2L D2L S2L C5Q L5Q D5Q S5Q  SYS / # / OBS TYPES 
       C1L L1L D1L S1L                                      SYS / # / OBS TYPES 
I    5 X1  C5A L5A D5A S5A                                  SYS / # / OBS TYPES 
SEPTENTRIO RECEIVERS OUTPUT ALIGNED CARRIER PHASES.         COMMENT             
NO FURTHER PHASE SHIFT APPLIED IN THE RINEX ENCODER.        COMMENT             
G L1C                                                       SYS / PHASE SHIFT   
G L2W                                                       SYS / PHASE SHIFT   
G L2L  0.00000                                              SYS / PHASE SHIFT   
G L5Q  0.00000                                              SYS / PHASE SHIFT   
G L1L  0.00000                                              SYS / PHASE SHIFT   
E L1C  0.00000                                              SYS / PHASE SHIFT   
E L6C  0.00000                                              SYS / PHASE SHIFT   
E L5Q  0.00000                                              SYS / PHASE SHIFT   
E L7Q  0.00000                                              SYS / PHASE SHIFT   
E L8Q  0.00000                                              SYS / PHASE SHIFT   
S L1C                                                       SYS / PHASE SHIFT   
S L5I                                                       SYS / PHASE SHIFT   
R L1C                                                       SYS / PHASE SHIFT   
R L2P  0.00000                                              SYS / PHASE SHIFT   
R L2C                                                       SYS / PHASE SHIFT   
R L3Q  0.00000                                              SYS / PHASE SHIFT   
C L1P  0.00000                                              SYS / PHASE SHIFT   
C L5P  0.00000                                              SYS / PHASE SHIFT   
C L2I                                                       SYS / PHASE SHIFT   
C L7I                                                       SYS / PHASE SHIFT   
C L6I                                                       SYS / PHASE SHIFT   
C L7D                                                       SYS / PHASE SHIFT   
J L1C                                                       SYS / PHASE SHIFT   
J L2L  0.00000                                              SYS / PHASE SHIFT   
J L5Q  0.00000                                              SYS / PHASE SHIFT   
J L1L  0.00000                                              SYS / PHASE SHIFT   
I L5A                                                       SYS / PHASE SHIFT   
  2025     1     1     1     0    0.0000000     GPS         TIME OF FIRST OBS   
 C1C    0.000 C2C    0.000 C2P    0.000                     GLONASS COD/PHS/BIS 
DBHZ                                                        SIGNAL STRENGTH UNIT
    18                                                      LEAP SECONDS        
 24 R01  1 R02 -4 R03  5 R04  6 R05  1 R06 -4 R07  5 R08  6 GLONASS SLOT / FRQ #
    R09 -2 R10 -7 R11  0 R12 -1 R13 -2 R14 -7 R15  0 R16 -1 GLONASS SLOT / FRQ #
    R17  4 R18 -3 R19  3 R20  2 R21  4 R22 -3 R23  3 R24  2 GLONASS SLOT / FRQ #
                                                            END OF HEADER       
> 2025 01 01 01 00  0.0000000  0 54
G28         1.000    23317722.090 7 122535469.90207        85.487 7        42.643                                    23317718.352 4  95482165.51804        66.613 4        29.554    23317718.496 7  95482171.51607        66.576 7        42.775
G31         2.000    23147363.298 7 121640222.83807      1813.530 7        42.974                                    23147359.116 6  94784575.48106      1413.137 6        39.042    23147359.794 6  94784574.47306      1413.242 6        40.522
G09         3.000    24668912.661 6 129636024.66706      3375.086 6        37.293                                    24668912.169 5 101015087.26705      2629.943 5        31.977    24668913.092 5 101015088.27005      2629.952 5        35.395
E34         4.000    28082740.938 6 147575801.71006      2375.905 6        37.508                                                                    28082741.761 6 110202714.64306      1774.098 6        40.594    28082741.129 6 113077567.65006      1820.477 6        41.187
S21         5.000    38588109.985 7 202781727.62807      -424.987 7        42.074
E05         6.000    27097572.689 5 142398713.92205      2718.548 5        35.790                                                                    27097574.517 6 106336721.62406      2029.946 6        38.958    27097574.058 6 109110716.27206      2082.927 6        40.005
G21         7.000    22423063.240 7 117834052.09707     -2866.055 7        44.811                                    22423058.403 5  91818745.50105     -2233.290 5        32.850
E04         8.000    23985170.723 7 126042948.13207     -1080.571 7        47.093                                                                    23985168.809 8  94122986.21008      -806.950 8        50.416    23985168.555 8  96578360.33908      -827.991 8        51.530
R14         9.000    24045260.987 7 128174784.20607      1865.039 7        43.433                                                                    24045261.154 6  99691489.70106      1450.525 6        38.766
G04        10.000    22364386.656 7 117525679.00607      2766.836 7        44.944                                    22364383.800 5  91578458.07705      2155.978 5        33.269    22364383.979 7  91578453.09007      2155.968 7        43.407
E09        11.000    24650727.589 7 129540491.96507      1643.595 7        47.114                                                                    24650727.208 8  96734798.67908      1227.317 8        49.110    24650726.740 8  99258314.55408      1259.389 8        50.092
S27        12.000    39231133.400 5 206160977.04805      -407.583 5        35.829
S36        14.000    38355652.462 7 201560807.70807      -424.821 7        43.659
E36        16.000    24122207.348 7 126763083.60407       978.668 7        47.407                                                                    24122207.573 8  94660761.52808       730.865 8        50.413    24122207.177 8  97130167.42308       749.912 8        51.120
S45        17.000    63554881.644 6 333983514.45506      -466.337 6        37.248
G03        18.000    20207735.475 8 106192424.56108       336.583 8        49.896                                    20207733.443 8  82747363.37508       262.274 8        51.534    20207733.951 7  82747372.38007       262.245 7        45.684
R21        19.000    20130283.778 8 107721254.65708      1813.897 8        51.963                                                                    20130282.309 7  83783208.14807      1410.836 7        46.510
R20        20.000    19820351.670 6 105988371.08006     -2467.410 6        40.803                                                                    19820352.603 7  82435398.65107     -1919.052 7        46.613
R05        21.000    19600372.302 8 104775268.14108     -2058.532 8        51.752                                                                    19600371.558 7  81491881.15707     -1601.095 7        47.288
I06        22.000    38344972.138 7 150474136.70207      -218.517 7        42.665
S28        23.000    41029158.102 5 215609670.80505      -417.471 5        34.186
E10        24.000    25701108.030 7 135060354.37407     -2716.480 7        44.266                                                                    25701107.355 7 100856824.49107     -2028.558 7        47.457    25701107.397 8 103487862.66808     -2081.552 8        48.293
S23        25.000    38305879.632 7 201298736.90107      -421.382 7        44.773
E06        26.000    23696985.783 8 124528559.66808       434.810 8        48.138                                                                    23696985.199 8  92992105.42408       324.725 8        50.327    23696985.273 8  95417984.97708       333.171 8        51.198
E30        27.000    28884624.243 5 151789735.17005     -1554.919 5        35.448                                                                    28884626.723 6 113349479.28506     -1161.211 6        38.793    28884625.928 6 116306419.93206     -1191.708 6        39.922
E12        28.000    28024351.932 5 147269103.01205     -3181.018 5        35.429                                                                    28024349.544 6 109973752.76906     -2375.457 6        39.228    28024349.385 6 112842621.17606     -2437.529 6        40.336
E19        30.000    27549070.504 5 144771349.14605     -3261.914 5        33.090                                                                    27549069.329 6 108108471.88606     -2435.841 6        36.329    27549069.517 6 110928690.45606     -2499.432 6        37.456
G32        31.000    24789312.445 6 130268729.12706     -3727.281 6        40.651                                    24789310.929 5 101508096.09305     -2904.373 5        33.515    24789311.633 6 101508101.08306     -2904.504 6        37.422
G02        32.000    21213937.162 8 111480035.41708     -1794.547 8        48.943                                    21213930.723 6  86867556.75906     -1398.349 6        41.051
G19        33.000    23351646.237 6 122713759.79406      2034.140 6        41.371                                    23351640.500 4  95621131.99904      1585.043 4        28.398
G17        34.000    22402965.709 7 117728436.66907        -2.639 7        44.849                                    22402961.620 7  91736455.14207        -2.059 7        43.433    22402962.165 7  91736455.14807        -2.149 7        42.353
E11        35.000    23823672.832 7 125194314.22307     -1617.636 7        44.755                                                                    23823668.529 7  93489279.44707     -1207.829 7        46.812    23823668.279 7  95928122.66507     -1239.429 7        47.811
C32        36.000                                                                                                                                    24202513.703 7 126028864.61507     -2990.814 7        46.458                                                                    24202513.706 7 102408786.20507     -2430.343 7        46.912
C35        37.000                                                                                                                                    24137432.507 7 125689963.13007      1834.046 7        45.819                                                                    24137431.383 7 102133389.98407      1490.306 7        45.612
I09        38.000    37281370.681 7 146300103.44607      -381.245 7        43.395
C29        39.000                                                                                                                                    22146615.783 8 115323242.96708     -1569.107 8        50.410                                                                    22146613.260 8  93709576.07908     -1275.046 8        48.810
R22        40.000    24492888.485 7 130744691.73707      3845.588 7        42.842                                                                    24492889.895 6 101690319.52806      2990.973 6        38.237
S44        42.000    40739739.478 6 214088961.25406      -495.991 6        38.177
C09        43.000                                                                                                                                    39350363.680 6 204907692.52106       708.784 6        40.772    39350361.263 7 158447615.84707       547.998 7        44.910    39350359.377 6 166504265.02506       575.980 6        41.478
C05        44.000                                                                                                                                    39270478.638 6 204491725.47806      -420.870 6        37.883    39270474.025 7 158125997.70107      -325.381 7        43.069    39270476.122 6 166166380.69806      -341.865 6        40.217
R06        45.000    21091124.110 6 112546321.65606      2480.625 6        39.216
R13        46.000    24038480.901 6 128364152.76906     -1407.861 6        38.111
C39        47.000                                                                                                                                    39040034.778 7 203291715.43007      -309.390 7        42.779                                                                    39040030.870 7 165191159.88007      -251.338 7        43.134
C20        48.000                                                                                                                                    21922304.569 8 114155239.74008      -256.393 8        51.950                                                                    21922298.654 8  92760475.14008      -208.291 8        49.322
C06        49.000                                                                                                                                    38652117.868 6 201271745.80906       264.729 6        40.141    38652113.238 7 155636064.12107       204.817 7        44.322    38652112.867 6 163549759.16006       215.171 6        41.497
C16        50.000                                                                                                                                    39042372.980 7 203303901.93507       139.490 7        42.197    39042373.647 7 157207481.75007       107.831 7        43.297    39042371.177 6 165201071.85406       113.295 6        39.456
S48        51.000    77341415.273 6 406432982.37906      -427.428 6        37.327
C19        52.000                                                                                                                                    24208828.300 7 126061772.20707      2099.534 7        46.601                                                                    24208823.644 7 102435517.67607      1706.021 7        47.173
R04        53.000    22964734.153 7 122975133.85807     -4336.477 7        44.567                                                                    22964733.061 6  95647332.83406     -3372.739 6        40.131
C60        54.000                                                                                                                                    40739739.436 6 212142717.40406      -491.452 6        39.366                                                                    40739723.617 6 172383304.68506      -399.193 6        40.040
C30        55.000                                                                                                                                    25100948.977 7 130707212.00107     -3810.331 7        43.062                                                                    25100949.213 7 106210312.69907     -3096.129 7        42.955
C02        57.000                                                                                                                                    40706495.883 5 211969453.41105      -466.293 5        33.701    40706489.870 6 163908220.91906      -360.409 6        40.319    40706492.924 6 172242547.13306      -379.024 6        36.907
I03        58.000   133326487.190 6 447416528.45706       960.889 6        40.713
C13        59.000                                                                                                                                    41493479.594 5 216067493.49005     -1093.519 5        33.222    41493481.088 5 167077131.81205      -845.925 5        34.805    41493479.465 5 175572565.96905      -888.771 5        33.659
> 2025 01 01 01 00  5.0000000  0 54
G28         1.000    23317642.797 7 122535050.71107        82.316 7        42.356                                    23317638.494 4  95481838.87904        64.144 4        29.858    23317638.610 7  95481844.87107        64.278 7        42.618
G31         2.000    23145638.565 7 121631161.29507      1811.039 7        43.786                                    23145634.871 6  94777514.54206      1411.199 6        39.171    23145635.089 6  94777513.53706      1411.305 6        40.508
G09         3.000    24665702.535 6 129619150.79206      3374.843 6        37.195                                    24665701.141 5 101001938.80805      2629.741 5        31.502    24665702.041 5 101001939.81405      2629.516 5        35.657
E34         4.000    28080480.526 6 147563922.58706      2375.930 6        37.338                                                                    28080480.972 6 110193843.85806      1774.327 6        40.379    28080480.513 6 113068465.45206      1820.618 6        41.108
S21         5.000    38588514.103 7 202783852.80907      -424.952 7        42.136
E05         6.000    27094986.186 5 142385122.44705      2718.371 5        35.938                                                                    27094988.100 6 106326572.14406      2030.069 6        38.733    27094987.847 6 109100302.03806      2082.961 6        39.940
G21         7.000    22425791.063 7 117848385.76507     -2867.291 7        44.593                                    22425786.030 5  91829914.58905     -2234.255 5        32.772
E04         8.000    23986199.966 7 126048356.37207     -1082.524 7        47.136                                                                    23986197.925 8  94127024.83608      -808.401 8        50.418    23986197.710 8  96582504.32608      -829.493 8        51.382
R14         9.000    24043513.700 7 128165466.32907      1862.203 7        43.344                                                                    24043513.495 6  99684242.45206      1448.377 6        38.652
G04        10.000    22361754.954 7 117511848.75907      2765.352 7        45.102                                    22361751.951 5  91567681.26405      2154.818 5        33.222    22361751.901 7  91567676.26107      2154.858 7        43.494
E09        11.000    24649164.519 7 129532278.24107      1642.015 7        47.221                                                                    24649164.181 8  96728665.04908      1226.209 8        49.209    24649163.763 8  99252020.92208      1258.172 8        50.001
S27        12.000    39231522.069 5 206163014.18505      -407.551 5        35.719
S36        14.000    38356056.693 7 201562931.32807      -424.774 7        43.829
E36        16.000    24121276.716 7 126758193.09807       977.577 7        47.162                                                                    24121276.932 8  94657109.53108       729.959 8        50.510    24121276.566 8  97126420.15408       749.016 8        51.005
S45        17.000    63555283.165 6 333985846.50306      -466.435 6        37.112
G03        18.000    20207416.444 8 106190746.92108       334.669 8        49.764                                    20207414.214 8  82746056.12508       260.783 8        51.503    20207414.737 7  82746065.12907       260.709 7        45.893
R21        19.000    20128590.853 8 107712193.40508      1810.746 8        51.820                                                                    20128588.989 7  83776160.50307      1408.327 7        46.576
R20        20.000    19822659.891 6 106000717.08806     -2470.881 6        40.405                                                                    19822661.454 7  82445001.10507     -1921.825 7        46.686
R05        21.000    19602298.857 8 104785568.16008     -2061.388 8        51.899                                                                    19602298.545 7  81499892.27407     -1603.247 7        47.755
I06        22.000    38345250.463 7 150475229.20507      -218.330 7        42.660
S28        23.000    41029554.064 5 215611758.14505      -417.226 5        34.510
E10        24.000    25703692.941 7 135073939.60107     -2717.419 7        43.714                                                                    25703692.624 7 100866969.30507     -2029.333 7        47.443    25703692.521 8 103498272.12708     -2082.261 8        48.206
S23        25.000    38306281.443 7 201300843.76707      -421.185 7        44.694
E06        26.000    23696572.972 8 124526390.90708       432.771 8        48.202                                                                    23696572.558 8  92990485.90108       323.157 8        50.287    23696572.542 8  95416323.20508       331.551 8        51.086
E30        27.000    28886105.025 6 151797515.87306     -1556.936 6        36.000                                                                    28886107.481 6 113355289.54606     -1162.870 6        38.949    28886106.803 6 116312381.75206     -1192.997 6        39.664
E12        28.000    28027378.800 5 147285009.25305     -3181.345 5        35.419                                                                    28027376.315 6 109985630.83306     -2375.850 6        39.114    28027376.235 6 112854809.09206     -2437.854 6        40.162
E19        30.000    27552174.522 5 144787660.03005     -3262.403 5        32.695                                                                    27552173.402 5 108120652.04605     -2436.167 5        35.519    27552173.351 6 110941188.37606     -2499.722 6        37.021
G32        31.000    24792859.225 6 130287367.80106     -3727.997 6        40.246                                    24792857.923 5 101522619.73105     -2904.934 5        33.245    24792858.351 6 101522624.71706     -2904.976 6        37.645
G02        32.000    21215645.743 8 111489013.70708     -1796.677 8        49.103                                    21215639.209 6  86874552.82706     -1400.007 6        41.044
G19        33.000    23349712.408 6 122703595.19906      2031.615 6        41.759                                    23349706.273 4  95613211.53704      1583.078 4        28.322
G17        34.000    22402969.044 7 117728457.25107        -5.555 7        44.497                                    22402965.542 7  91736471.17807        -4.329 7        43.418    22402966.181 7  91736471.17507        -4.229 7        42.718
E11        35.000    23825212.900 7 125202406.04007     -1619.008 7        44.563                                                                    23825208.321 7  93495322.05007     -1209.012 7        46.814    23825208.121 7  95934322.90007     -1240.563 7        47.680
C32        36.000                                                                                                                                    24205385.897 7 126043820.74507     -2991.512 7        46.427                                                                    24205385.925 7 102420939.28507     -2430.863 7        46.929
C35        37.000                                                                                                                                    24135672.336 7 125680797.38507      1832.337 7        45.917                                                                    24135671.214 7 102125942.07007      1488.938 7        45.789
I09        38.000    37281856.561 7 146302010.17707      -381.318 7        43.399
C29        39.000                                                                                                                                    22148123.637 8 115331095.03708     -1571.599 8        50.358                                                                    22148121.177 8  93715956.53608     -1277.088 8        48.827
R22        40.000    24489286.528 7 130725463.73307      3845.569 7        44.352                                                                    24489286.970 6 101675364.39706      2991.152 6        39.736
S44        42.000    40740209.267 6 214091440.69006      -495.796 6        38.213
C09        43.000                                                                                                                                    39349683.559 6 204904150.97006       708.003 6        40.436    39349681.056 7 158444877.29607       547.399 7        44.841    39349679.324 6 166501387.23106       575.383 6        41.397
C05        44.000                                                                                                                                    39270882.702 6 204493829.29806      -420.599 6        37.784    39270878.076 7 158127624.51907      -325.288 7        43.048    39270880.160 6 166168090.23106      -341.823 6        40.253
R06        45.000    21088800.349 6 112533923.88406      2478.547 6        39.174
R13        46.000    24039801.222 6 128371201.70106     -1411.702 6        37.981
C39        47.000                                                                                                                                    39040332.401 7 203293264.71407      -310.165 7        42.891                                                                    39040328.420 7 165192418.81607      -252.151 7        43.189
C20        48.000                                                                                                                                    21922551.756 8 114156526.68308      -258.244 8        51.929                                                                    21922545.852 8  92761520.89208      -209.859 8        49.428
C06        49.000                                                                                                                                    38651864.197 6 201270424.05406       263.952 6        40.167    38651859.327 7 155635042.05807       204.084 7        44.430    38651859.023 6 163548685.11706       214.596 6        41.528
C16        50.000                                                                                                                                    39042240.053 7 203303206.80007       138.593 7        42.087    39042240.163 7 157206944.23007       107.153 7        43.318    39042237.735 6 165200506.99806       112.669 6        39.664
S48        51.000    77341816.677 6 406435118.41506      -427.016 6        37.338
C19        52.000                                                                                                                                    24206812.858 7 126051277.72907      2098.437 7        46.687                                                                    24206808.242 7 102426990.06307      1705.088 7        47.317
R04        53.000    22968784.194 7 122996816.92207     -4336.632 7        44.837                                                                    22968781.961 6  95664197.42106     -3372.991 6        40.102
C60        54.000                                                                                                                                    40740211.402 6 212145174.29106      -491.229 6        39.535                                                                    40740195.387 6 172385301.13806      -399.230 6        40.284
C30        55.000                                                                                                                                    25104607.968 7 130726265.05207     -3810.857 7        42.419                                                                    25104608.284 7 106225794.86407     -3096.626 7        43.035
C02        57.000                                                                                                                                    40706943.340 5 211971784.85305      -466.235 5        33.557    40706937.448 6 163910023.75006      -360.436 6        40.274    40706940.708 6 172244441.61806      -378.760 6        36.658
I03        58.000   133325262.717 6 447411724.29306       960.847 6        40.732
C13        59.000                                                                                                                                    41494528.044 5 216072961.76905     -1093.537 5        33.018    41494530.970 5 167081360.21505      -845.519 5        34.500    41494529.376 5 175577009.38505      -888.495 5        33.293
> 2025 01 01 01 00 10.0000000  0 54
G28         1.000    23317565.617 7 122534647.52407        79.116 7        42.885                                    23317561.783 4  95481524.71104        61.647 4        29.735    23317562.048 7  95481530.71007        61.617 7        42.396
G31         2.000    23143917.184 7 121622112.07907      1808.759 7        44.060                                    23143912.805 6  94770463.21006      1409.423 6        39.189    23143912.926 6  94770462.21306      1409.414 6        40.074
G09         3.000    24662492.013 6 129602279.10706      3374.248 6        37.905                                    24662490.561 5 100988792.04705      2629.283 5        31.426    24662490.911 6 100988793.05006      2629.194 6        36.147
E34         4.000    28078220.099 6 147552043.41406      2375.825 6        37.414                                                                    28078220.391 6 110184973.05706      1774.268 6        40.591    28078220.193 6 113059363.25206      1820.528 6        41.480
S21         5.000    38588919.290 6 202785978.10906      -424.973 6        41.845
E05         6.000    27092399.808 5 142371531.61405      2718.265 5        35.895                                                                    27092401.814 6 106316423.15706      2029.999 6        38.784    27092401.501 6 109089888.29106      2082.969 6        40.062
G21         7.000    22428519.851 7 117862726.62107     -2868.787 7        44.560                                    22428515.008 5  91841089.28305     -2235.419 5        32.772
E04         8.000    23987231.081 7 126053775.11007     -1084.671 7        47.048                                                                    23987229.070 8  94131071.29508      -809.970 8        50.360    23987228.852 8  96586656.33908      -831.071 8        51.406
R14         9.000    24041767.723 7 128156163.27307      1859.243 7        42.772                                                                    24041767.632 6  99677006.76306      1446.139 6        38.736
G04        10.000    22359124.437 7 117498026.62807      2763.798 7        44.773                                    22359121.689 5  91556910.77605      2153.603 5        33.204    22359121.970 7  91556905.78307      2153.585 7        43.941
E09        11.000    24647603.358 7 129524073.06307      1640.299 7        47.148                                                                    24647602.734 8  96722537.80908      1224.931 8        49.097    24647602.348 8  99245733.84108      1256.854 8        50.035
S27        12.000    39231908.493 5 206165051.02805      -407.213 5        35.657
S36        14.000    38356461.119 7 201565054.96707      -424.687 7        43.551
E36        16.000    24120347.268 7 126753309.15107       976.300 7        47.070                                                                    24120347.520 8  94653462.42808       729.035 8        50.389    24120347.159 8  97122677.90908       748.065 8        51.074
S45        17.000    63555680.759 6 333988178.50606      -466.297 6        37.093
G03        18.000    20207098.702 8 106189079.43608       332.668 8        49.482                                    20207096.898 8  82744756.78608       259.224 8        51.480    20207097.518 7  82744765.78707       259.251 7        45.786
R21        19.000    20126900.337 8 107703148.87008      1807.427 8        51.922                                                                    20126898.523 7  83769125.88207      1405.686 7        46.648
R20        20.000    19824972.499 6 106013081.59706     -2474.660 6        40.157                                                                    19824974.014 7  82454617.93007     -1924.686 7        46.634
R05        21.000    19604229.097 8 104795882.79908     -2064.204 8        51.517                                                                    19604227.811 7  81507914.77507     -1605.481 7        47.376
I06        22.000    38345529.340 7 150476321.76207      -218.466 7        42.586
S28        23.000    41029951.484 5 215613846.02405      -417.132 5        34.114
E10        24.000    25706279.500 7 135087530.57807     -2718.579 7        43.577                                                                    25706278.924 7 100877118.39707     -2030.059 7        47.521    25706278.642 8 103508685.98608     -2083.111 8        48.238
S23        25.000    38306682.328 7 201302950.55907      -421.214 7        44.573
E06        26.000    23696162.459 7 124524232.86407       430.657 7        47.980                                                                    23696161.867 8  92988874.37608       321.591 8        50.261    23696161.906 8  95414669.63808       330.003 8        51.136
E30        27.000    28887587.802 5 151805306.80505     -1559.054 5        34.790                                                                    28887589.708 6 113361107.42406     -1164.285 6        39.613    28887589.399 6 116318351.41206     -1194.669 6        39.739
E12        28.000    28030406.195 5 147300918.51005     -3182.091 5        35.005                                                                    28030403.833 6 109997511.10306     -2376.283 6        38.991    28030403.652 6 112866999.28606     -2438.255 6        39.946
E19        30.000    27555278.917 5 144803973.58005     -3262.738 5        32.784                                                                    27555277.706 5 108132834.25305     -2436.474 5        35.633    27555277.610 6 110953688.37506     -2500.079 6        36.960
G32        31.000    24796406.889 6 130306010.22506     -3728.685 6        40.095                                    24796405.569 5 101537146.29505     -2905.470 5        33.240    24796405.789 6 101537151.28906     -2905.389 6        37.671
G02        32.000    21217356.487 8 111498003.39308     -1798.962 8        49.009                                    21217349.873 6  86881557.77806     -1401.787 6        40.946
G19        33.000    23347780.383 6 122693443.86006      2029.111 6        41.204                                    23347774.537 4  95605301.40504      1581.121 4        28.379
G17        34.000    22402975.792 7 117728493.02107        -8.616 7        44.611                                    22402972.365 7  91736499.05307        -6.713 7        43.338    22402972.862 7  91736499.05307        -6.627 7        42.789
E11        35.000    23826754.017 7 125210506.04607     -1620.724 7        44.536                                                                    23826749.714 7  93501370.74607     -1210.193 7        46.883    23826749.495 7  95940529.39207     -1241.818 7        47.676
C32        36.000                                                                                                                                    24208258.756 7 126058780.74007     -2992.232 7        46.326                                                                    24208258.838 7 102433095.51807     -2431.536 7        46.867
C35        37.000                                                                                                                                    24133914.349 7 125671641.12007      1830.391 7        46.097                                                                    24133912.780 7 102118501.87807      1487.282 7        45.603
I09        38.000    37282342.544 7 146303917.75407      -381.522 7        43.378
C29        39.000                                                                                                                                    22149634.071 8 115338960.30808     -1574.267 8        50.378                                                                    22149631.625 8  93722347.72408     -1279.317 8        48.671
R22        40.000    24485684.460 7 130706236.21807      3845.595 7        43.052                                                                    24485685.236 6 101660409.69806      2990.918 6        37.546
S44        42.000    40740684.287 6 214093920.16406      -495.660 6        38.153
C09        43.000                                                                                                                                    39349004.683 6 204900613.36906       707.133 6        40.596    39349001.651 7 158442141.78807       546.844 7        44.755    39348999.940 6 166498512.64206       574.583 6        41.437
C05        44.000                                                                                                                                    39271286.347 6 204495933.19706      -420.793 6        37.584    39271281.949 7 158129251.38007      -325.339 7        43.046    39271284.144 6 166169799.83506      -341.962 6        40.105
R06        45.000    21086478.340 6 112521537.93806      2476.164 6        39.285
R13        46.000    24041123.977 6 128378270.65806     -1415.691 6        37.728
C39        47.000                                                                                                                                    39040630.872 7 203294818.77007      -311.129 7        42.880                                                                    39040626.914 7 165193681.62007      -252.912 7        43.056
C20        48.000                                                                                                                                    21922800.629 8 114157823.62708      -260.285 8        51.921                                                                    21922794.935 8  92762574.78008      -211.599 8        49.272
C06        49.000                                                                                                                                    38651611.382 6 201269106.96506       263.129 6        40.284    38651606.278 7 155634023.59907       203.427 7        44.482    38651606.208 6 163547614.90706       213.654 6        41.371
C16        50.000                                                                                                                                    39042107.821 7 203302516.29307       137.714 7        42.015    39042107.068 7 157206410.29007       106.510 7        43.401    39042105.200 6 165199945.91006       111.856 6        39.435
S48        51.000    77342216.203 6 406437254.54406      -427.273 6        37.376
C19        52.000                                                                                                                                    24204798.358 7 126040789.45907      2097.170 7        46.546                                                                    24204794.050 7 102418467.49207      1704.084 7        47.117
R04        53.000    22972834.110 7 123018501.88007     -4337.033 7        45.207                                                                    22972830.577 6  95681063.49306     -3373.229 6        39.333
C60        54.000                                                                                                                                    40740683.217 6 212147631.23906      -491.275 6        39.438                                                                    40740667.161 6 172387297.60806      -399.175 6        40.093
C30        55.000                                                                                                                                    25108267.147 7 130745321.56507     -3811.447 7        42.059                                                                    25108268.027 7 106241279.84107     -3097.281 7        43.172
C02        57.000                                                                                                                                    40707391.092 5 211974116.38205      -466.234 5        34.214    40707385.545 6 163911826.62506      -360.411 6        40.355    40707388.420 6 172246336.17306      -378.873 6        36.601
I03        58.000   133324038.817 6 447406920.29806       960.780 6        40.629
C13        59.000                                                                                                                                    41495579.900 5 216078429.90905     -1093.388 5        32.862    41495581.430 5 167085588.52205      -845.400 5        34.343    41495579.647 5 175581452.72705      -888.596 5        32.958
> 2025 01 01 01 00 15.0000000  0 54
G28         1.000    23317491.657 7 122534260.03807        76.180 7        43.247                                    23317488.041 4  95481222.77304        59.364 4        29.744    23317488.311 7  95481228.76707        59.439 7        42.629
G31         2.000    23142197.028 7 121613074.91507      1806.448 7        44.554                                    23142192.885 6  94763421.26606      1407.625 6        39.135    23142193.049 6  94763420.25406      1407.559 6        39.595
G09         3.000    24659281.091 6 129585409.29506      3373.944 6        38.375                                    24659280.531 5 100975646.75005      2629.041 5        31.623    24659280.900 6 100975647.75206      2629.028 6        36.480
E34         4.000    28075959.505 6 147540163.86006      2376.131 6        37.501                                                                    28075959.966 6 110176101.97106      1774.493 6        40.763    28075959.677 6 113050260.73906      1820.734 6        41.604
S21         5.000    38589324.044 7 202788103.23407      -424.778 7        42.148
E05         6.000    27089813.899 5 142357941.19505      2718.228 5        35.967                                                                    27089815.686 6 106306274.45506      2029.981 6        38.958    27089815.401 6 109079474.84506      2082.894 6        40.052
G21         7.000    22431250.295 7 117877074.43607     -2870.032 7        44.919                                    22431245.318 5  91852269.39405     -2236.385 5        32.713
E04         8.000    23988264.124 7 126059204.05007     -1086.575 7        46.907                                                                    23988262.172 8  94135125.37608      -811.407 8        50.438    23988261.932 8  96590816.17908      -832.531 8        51.407
R14         9.000    24040024.989 7 128146874.68907      1856.563 7        43.577                                                                    24040026.055 6  99669782.32406      1443.887 6        39.628
G04        10.000    22356495.828 7 117484212.35007      2762.302 7        45.081                                    22356492.907 5  91546146.41405      2152.440 5        33.401    22356493.057 7  91546141.41507      2152.303 7        43.954
E09        11.000    24646043.613 7 129515876.16307      1638.787 7        47.140                                                                    24646042.978 8  96716416.75308      1223.789 8        49.238    24646042.530 8  99239453.10408      1255.702 8        50.081
S27        12.000    39232296.366 5 206167087.69505      -406.876 5        35.876
S36        14.000    38356863.230 7 201567178.05207      -424.267 7        43.845
E36        16.000    24119419.141 7 126748431.49407       975.176 7        47.103                                                                    24119419.340 8  94649820.02108       728.248 8        50.484    24119418.962 8  97118940.48208       747.228 8        51.096
S45        17.000    63556079.552 6 333990510.23006      -466.056 6        37.089
G03        18.000    20206783.552 8 106187421.80008       330.768 8        49.748                                    20206781.452 8  82743465.12108       257.739 8        51.430    20206781.982 7  82743474.11407       257.760 7        45.839
R21        19.000    20125213.368 8 107694120.80508      1804.223 8        51.996                                                                    20125211.819 7  83762104.04107      1403.416 7        46.805
R20        20.000    19827288.258 6 106025464.31106     -2478.177 6        40.803                                                                    19827289.697 7  82464248.93907     -1927.419 7        46.650
R05        21.000    19606160.681 8 104806211.52108     -2066.907 8        51.847                                                                    19606160.013 7  81515948.22007     -1607.563 7        47.529
I06        22.000    38345807.524 7 150477414.15307      -218.175 7        42.766
S28        23.000    41030346.977 5 215615933.22305      -417.103 5        34.286
E10        24.000    25708866.810 7 135101127.00207     -2719.470 7        43.554                                                                    25708866.325 7 100887271.57007     -2030.801 7        47.604    25708865.912 8 103519104.01608     -2083.816 8        48.208
S23        25.000    38307083.585 7 201305056.97307      -421.004 7        44.725
E06        26.000    23695753.606 7 124522085.26207       428.721 7        47.843                                                                    23695753.194 8  92987270.64708       320.160 8        50.339    23695753.205 8  95413024.06808       328.565 8        51.220
E30        27.000    28889073.453 5 151813107.63805     -1560.849 5        34.424                                                                    28889074.181 6 113366932.70506     -1165.427 6        39.003    28889073.873 6 116324328.66006     -1196.082 6        39.721
E12        28.000    28033434.544 5 147316830.43305     -3182.368 5        35.267                                                                    28033431.861 6 110009393.38206     -2376.554 6        39.096    28033431.731 6 112879191.52806     -2438.592 6        39.868
E19        30.000    27558383.791 5 144820289.51905     -3263.451 5        32.485                                                                    27558382.539 5 108145018.23305     -2436.933 5        35.786    27558382.402 6 110966190.17906     -2500.376 6        36.960
G32        31.000    24799955.003 6 130324656.11006     -3729.363 6        40.255                                    24799953.882 5 101551675.55005     -2905.996 5        33.365    24799953.769 6 101551680.53606     -2905.993 6        37.648
G02        32.000    21219069.390 8 111507004.15708     -1801.032 8        49.027                                    21219062.661 6  86888571.36006     -1403.401 6        40.949
G19        33.000    23345850.773 6 122683305.51606      2026.753 6        41.139                                    23345845.264 4  95597401.40504      1579.287 4        28.190
G17        34.000    22402986.480 7 117728543.63107       -11.399 7        45.491                                    22402982.015 7  91736538.48707        -8.886 7        43.372    22402982.891 7  91736538.48207        -8.849 7        42.650
E11        35.000    23828296.816 7 125218613.91607     -1622.128 7        44.301                                                                    23828292.564 7  93507425.33007     -1211.336 7        46.791    23828292.425 7  95946741.91907     -1242.931 7        47.769
C32        36.000                                                                                                                                    24211132.219 7 126073744.31107     -2992.829 7        46.311                                                                    24211132.374 7 102445254.64907     -2432.093 7        46.990
C35        37.000                                                                                                                                    24132157.610 7 125662494.04507      1828.767 7        45.898                                                                    24132156.175 7 102111069.14407      1485.797 7        45.630
I09        38.000    37282829.031 7 146305825.98107      -381.463 7        43.537
C29        39.000                                                                                                                                    22151146.967 8 115346838.47608     -1576.688 8        50.447                                                                    22151144.486 8  93728749.38608     -1281.372 8        48.705
R22        40.000    24482082.723 7 130687009.12607      3845.857 7        42.337                                                                    24482082.565 6 101645455.37406      2991.108 6        37.577
S44        42.000    40741152.175 6 214096399.37206      -495.564 6        38.174
C09        43.000                                                                                                                                    39348326.493 6 204897079.38506       706.742 6        40.758    39348323.153 7 158439409.10807       546.466 7        44.615    39348321.245 6 166495641.00706       574.078 6        41.371
C05        44.000                                                                                                                                    39271690.353 6 204498036.88006      -420.417 6        37.743    39271686.134 7 158130878.07907      -325.033 7        42.910    39271688.101 6 166171509.26806      -341.789 6        40.234
R06        45.000    21084159.917 6 112509163.41506      2473.880 6        39.102
R13        46.000    24042451.515 6 128385359.27706     -1419.293 6        37.777
C39        47.000                                                                                                                                    39040930.083 7 203296377.31507      -311.863 7        42.914                                                                    39040926.278 7 165194948.08207      -253.662 7        43.084
C20        48.000                                                                                                                                    21923051.552 8 114159130.29808      -262.100 8        52.007                                                                    21923045.847 8  92763636.56308      -213.109 8        49.377
C06        49.000                                                                                                                                    38651359.785 6 201267794.26006       262.193 6        40.434    38651354.044 7 155633008.53407       202.790 7        44.459    38651354.000 6 163546548.22306       212.979 6        41.592
C16        50.000                                                                                                                                    39041976.028 7 203301830.15207       137.104 7        42.161    39041975.706 7 157205879.71807       105.959 7        43.225    39041973.375 6 165199388.39606       111.038 6        39.477
S48        51.000    77342619.641 6 406439390.30506      -426.750 6        37.263
C19        52.000                                                                                                                                    24202785.612 7 126030307.08107      2096.173 7        46.717                                                                    24202781.002 7 102409949.72607      1703.060 7        47.179
R04        53.000    22976883.252 7 123040188.38007     -4337.097 7        45.321                                                                    22976881.297 6  95697930.77006     -3373.333 6        39.390
C60        54.000                                                                                                                                    40741154.812 6 212150087.91106      -491.099 6        39.601                                                                    40741139.074 6 172389293.86906      -399.268 6        40.038
C30        55.000                                                                                                                                    25111927.127 6 130764381.22906     -3811.990 6        41.874                                                                    25111928.458 7 106256767.36907     -3097.737 7        43.560
C02        57.000                                                                                                                                    40707837.700 5 211976447.71105      -465.932 5        33.976    40707832.976 6 163913629.36806      -360.328 6        40.317    40707836.186 6 172248230.61206      -378.851 6        36.828
I03        58.000   133322814.505 6 447402116.24906       961.087 6        40.636
C13        59.000                                                                                                                                    41496629.345 5 216083897.78805     -1093.404 5        32.563    41496631.897 5 167089816.64505      -845.406 5        34.305    41496629.475 5 175585895.82105      -888.490 5        32.856
> 2025 01 01 01 00 20.0000000  0 54
G28         1.000    23317421.169 7 122533888.02207        72.943 7        43.192                                    23317417.229 4  95480932.88704        56.837 4        29.943    23317417.877 7  95480938.89707        56.782 7        42.650
G31         2.000    23140479.747 7 121604049.54007      1803.859 7        43.727                                    23140475.160 6  94756388.50006      1405.604 6        39.027    23140475.779 6  94756387.49006      1405.720 6        40.024
G09         3.000    24656070.716 6 129568541.15506      3373.266 6        38.366                                    24656070.751 5 100962502.75105      2628.509 5        31.660    24656070.619 6 100962503.74606      2628.504 6        36.144
E34         4.000    28073698.316 6 147528283.70306      2376.257 6        37.176                                                                    28073699.575 6 110167230.42906      1774.345 6        40.799    28073698.855 6 113041157.76906      1820.626 6        41.328
S21         5.000    38589728.082 7 202790228.07107      -425.084 7        42.142
E05         6.000    27087227.657 6 142344350.86506      2717.881 6        36.095                                                                    27087229.540 6 106296125.83806      2029.839 6        39.000    27087229.326 6 109069061.47506      2082.730 6        40.079
G21         7.000    22433981.787 7 117891428.89307     -2871.566 7        44.507                                    22433976.876 5  91863454.68805     -2237.587 5        32.826
E04         8.000    23989299.104 7 126064642.91807     -1088.839 7        46.708                                                                    23989297.143 8  94139186.86008      -813.082 8        50.494    23989296.919 8  96594983.61708      -834.286 8        51.341
R14         9.000    24038285.773 7 128137600.60207      1853.464 7        43.325                                                                    24038285.517 6  99662569.13406      1441.634 6        38.928
G04        10.000    22353868.736 7 117470405.66707      2760.592 7        45.293                                    22353865.623 5  91535387.97005      2151.105 5        33.515    22353865.857 7  91535382.97007      2151.114 7        44.479
E09        11.000    24644485.406 7 129507687.29507      1636.880 7        47.198                                                                    24644484.653 8  96710301.68008      1222.429 8        49.205    24644484.257 8  99233178.51208      1254.191 8        50.012
S27        12.000    39232685.223 5 206169123.75905      -407.050 5        35.900
S36        14.000    38357268.739 7 201569300.19907      -424.359 7        43.882
E36        16.000    24118492.023 7 126743559.87507       973.656 7        47.071                                                                    24118492.318 8  94646182.12008       727.141 8        50.498    24118491.930 8  97115207.68108       746.027 8        51.012
S45        17.000    63556479.986 6 333992841.41106      -466.273 6        37.021
G03        18.000    20206470.058 8 106185773.77408       328.612 8        49.755                                    20206467.835 8  82742180.94508       256.059 8        51.552    20206468.552 7  82742189.94207       256.077 7        45.821
R21        19.000    20123529.066 8 107685108.83808      1800.711 8        51.636                                                                    20123527.337 7  83755094.74107      1400.486 7        46.513
R20        20.000    19829607.957 6 106037864.99806     -2481.834 6        41.039                                                                    19829608.730 7  82473893.92507     -1930.452 7        46.844
R05        21.000    19608095.856 8 104816554.24808     -2069.970 8        51.962                                                                    19608094.935 7  81523992.56507     -1609.958 7        47.611
I06        22.000    38346085.743 7 150478506.19307      -218.455 7        42.872
S28        23.000    41030746.096 5 215618019.91805      -417.410 5        34.719
E10        24.000    25711455.214 7 135114728.61307     -2720.824 7        43.632                                                                    25711454.593 7 100897428.61107     -2031.783 7        47.763    25711454.144 8 103529526.02408     -2084.774 8        48.003
S23        25.000    38307483.209 7 201307162.64307      -421.023 7        44.736
E06        26.000    23695346.878 7 124519947.83107       426.474 7        47.729                                                                    23695346.454 8  92985674.50908       318.520 8        50.360    23695346.443 8  95411386.30108       326.751 8        51.106
E30        27.000    28890559.893 5 151820918.15105     -1563.006 5        35.324                                                                    28890560.638 6 113372765.28106     -1167.239 6        39.372    28890560.250 6 116330313.38306     -1197.672 6        40.007
E12        28.000    28036462.963 5 147332744.82005     -3183.170 5        35.090                                                                    28036460.071 6 110021277.49106     -2377.088 6        39.054    28036460.095 6 112891385.66606     -2439.115 6        40.021
E19        30.000    27561488.903 5 144836607.59605     -3263.423 5        32.335                                                                    27561487.561 5 108157203.81805     -2437.336 5        35.838    27561487.391 6 110978693.64506     -2500.868 6        36.801
