     3.04           OBSERVATION DATA    M                   RINEX VERSION / TYPE
ssrcrin-15.6.1x                         20250101 003000 UTC PGM / RUN BY / DATE 
(00000000023479385599111004) Septentrio proprietary         COMMENT             
rref                                                        MARKER NAME         
01                                                          MARKER NUMBER       
geodetic                                                    MARKER TYPE         
NFB                 CLIMERS@TUW                             OBSERVER / AGENCY   
3297213             SEPT ASTERX SB3 PROB4.14.4              REC # / TYPE / VERS 
Unknown             Unknown                                 ANT # / TYPE        
  4127831.8597  1207193.2696  4695247.4038                  APPROX POSITION XYZ 
        0.0000        0.0000        0.0000                  ANTENNA: DELTA H/E/N
G   23 X1  C1C L1C D1C S1C C1W S1W C2W L2W D2W S2W C2L L2L  SYS / # / OBS TYPES 
       D2L S2L C5Q L5Q D5Q S5Q C1L L1L D1L S1L              SYS / # / OBS TYPES 
E   21 X1  C1C L1C D1C S1C C6C L6C D6C S6C C5Q L5Q D5Q S5Q  SYS / # / OBS TYPES 
       C7Q L7Q D7Q S7Q C8Q L8Q D8Q S8Q                      SYS / # / OBS TYPES 
S    9 X1  C1C L1C D1C S1C C5I L5I D5I S5I                  SYS / # / OBS TYPES 
R   17 X1  C1C L1C D1C S1C C2P L2P D2P S2P C2C L2C D2C S2C  SYS / # / OBS TYPES 
       C3Q L3Q D3Q S3Q                                      SYS / # / OBS TYPES 
C   25 X1  C1P L1P D1P S1P C5P L5P D5P S5P C2I L2I D2I S2I  SYS / # / OBS TYPES 
       C7I L7I D7I S7I C6I L6I D6I S6I C7D L7D D7D S7D      SYS / # / OBS TYPES 
J   17 X1  C1C L1C D1C S1C C2L L2L D2L S2L C5Q L5Q D5Q S5Q  SYS / # / OBS TYPES 
       C1L L1L D1L S1L                                      SYS / # / OBS TYPES 
I    5 X1  C5A L5A D5A S5A                                  SYS / # / OBS TYPES 
SEPTENTRIO RECEIVERS OUTPUT ALIGNED CARRIER PHASES.         COMMENT             
NO FURTHER PHASE SHIFT APPLIED IN THE RINEX ENCODER.        COMMENT             
G L1C                                                       SYS / PHASE SHIFT   
G L2W                                                       SYS / PHASE SHIFT   
G L2L  0.00000                                              SYS / PHASE SHIFT   
G L5Q  0.00000                                              SYS / PHASE SHIFT   
G L1L  0.00000                                              SYS / PHASE SHIFT   
E L1C  0.00000                                              SYS / PHASE SHIFT   
E L6C  0.00000                                              SYS / PHASE SHIFT   
E L5Q  0.00000                                              SYS / PHASE SHIFT   
E L7Q  0.00000                                              SYS / PHASE SHIFT   
E L8Q  0.00000                                              SYS / PHASE SHIFT   
S L1C                                                       SYS / PHASE SHIFT   
S L5I                                                       SYS / PHASE SHIFT   
R L1C                                                       SYS / PHASE SHIFT   
R L2P  0.00000                                              SYS / PHASE SHIFT   
R L2C                                                       SYS / PHASE SHIFT   
R L3Q  0.00000                                              SYS / PHASE SHIFT   
C L1P  0.00000                                              SYS / PHASE SHIFT   
C L5P  0.00000                                              SYS / PHASE SHIFT   
C L2I                                                       SYS / PHASE SHIFT   
C L7I                                                       SYS / PHASE SHIFT   
C L6I                                                       SYS / PHASE SHIFT   
C L7D                                                       SYS / PHASE SHIFT   
J L1C                                                       SYS / PHASE SHIFT   
J L2L  0.00000                                              SYS / PHASE SHIFT   
J L5Q  0.00000                                              SYS / PHASE SHIFT   
J L1L  0.00000                                              SYS / PHASE SHIFT   
I L5A                                                       SYS / PHASE SHIFT   
  2025     1     1     0    30    0.0000000     GPS         TIME OF FIRST OBS   
 C1C    0.000 C2C    0.000 C2P    0.000                     GLONASS COD/PHS/BIS 
DBHZ                                                        SIGNAL STRENGTH UNIT
    18                                                      LEAP SECONDS        
 24 R01  1 R02 -4 R03  5 R04  6 R05  1 R06 -4 R07  5 R08  6 GLONASS SLOT / FRQ #
    R09 -2 R10 -7 R11  0 R12 -1 R13 -2 R14 -7 R15  0 R16 -1 GLONASS SLOT / FRQ #
    R17  4 R18 -3 R19  3 R20  2 R21  4 R22 -3 R23  3 R24  2 GLONASS SLOT / FRQ #
                                                            END OF HEADER       
> 2025 01 01 00 30  0.0000000  0 54
G28         1.000    23535076.243 6 123677667.35806      1154.347 6        40.996                                    23535071.989 4  96372188.55004       899.493 4        26.934    23535072.279 6  96372194.55806       899.521 6        41.781
G31         2.000    23899159.155 7 125590933.46107      2515.523 7        42.222                                    23899154.979 5  97863050.56205      1960.151 5        35.714    23899155.626 6  97863049.56206      1960.129 6        38.634
G14         3.000    25424582.605 3                     -2954.453 3        18.627
S21         5.000    38442051.128 6 202014200.22306      -423.902 6        41.542
R12         6.000    24289495.817 7 129750142.69507     -2417.086 7        43.788                                                                    24289497.330 6 100916792.57906     -1879.976 6        40.429
G21         7.000    21536232.484 7 113173728.48307     -2293.598 7        45.127                                    21536227.728 6  88187325.20706     -1787.216 6        36.098
E04         8.000    23749598.199 7 124805004.75907      -278.820 7        47.326                                                                    23749596.295 8  93198547.63908      -208.129 8        50.484    23749596.048 8  95629806.02908      -213.589 8        50.890
G04        10.000    23397952.706 6 122957095.63306      3228.851 6        41.039                                    23397950.719 4  95810728.00104      2515.986 4        26.958    23397950.826 7  95810723.01707      2515.875 7        42.222
E09        11.000    25312255.805 7 133016841.93207      2200.534 7        45.263                                                                    25312255.447 7  99330773.33107      1643.280 7        47.562    25312255.194 8 101922010.40808      1686.110 8        48.351
S27        12.000    39091663.247 5 205428066.76605      -403.056 5        35.443
S36        14.000    38209712.224 7 200793893.98407      -423.660 7        43.323
E02        15.000    28086035.614 6 147593139.26406     -2637.939 6        36.484                                                                    28086035.475 6 110215673.35706     -1969.734 6        38.823    28086034.814 6 113090860.54306     -2020.963 6        39.402
E36        16.000    24530190.936 7 128907050.63907      1383.911 7        45.934                                                                    24530191.193 8  96261775.40908      1033.469 8        48.872    24530191.005 8  98772946.92908      1060.436 8        49.778
S45        17.000    63410601.197 6 333225607.72106      -465.774 6        36.858
G03        18.000    20447080.829 8 107450190.23108      1060.754 8        49.144                                    20447078.776 8  83727440.13508       826.565 8        50.143    20447079.487 7  83727449.12907       826.514 7        45.365
R21        19.000    20918927.672 8 111941447.81108      2806.223 8        49.443                                                                    20918926.962 7  87065579.91207      2182.522 7        44.266
R20        20.000    19220024.232 6 102778152.00906     -1085.659 6        40.431                                                                    19220025.236 7  79938562.25107      -844.418 7        46.953
R05        21.000    19100007.759 8 102100532.03408      -864.187 8        51.660                                                                    19100006.888 7  79411530.86807      -672.078 7        47.438
I06        22.000    38245392.402 7 150083364.11807      -213.056 7        43.420
S28        23.000    40885730.639 5 214855959.31605      -415.958 5        34.033
E10        24.000    24843970.471 7 130556069.83807     -2278.338 7        46.032                                                                    24843969.851 8  97493236.35608     -1701.408 8        49.041    24843969.641 8 100036528.63408     -1745.740 8        49.379
S23        25.000    38161036.122 7 200537564.90407      -420.553 7        44.521
E06        26.000    23976054.408 7 125995073.75307      1189.367 7        47.978                                                                    23976054.191 8  94087228.97908       888.135 8        49.654    23976054.112 8  96541677.03908       911.319 8        50.408
E30        27.000    28484742.711 6 149688331.04106      -759.191 6        37.569                                                                    28484743.871 6 111780247.83606      -566.836 6        40.269    28484743.381 6 114696252.13406      -581.595 6        41.566
E12        28.000    26975560.890 6 141757674.59906     -2928.439 6        37.025                                                                    26975558.476 6 105858076.74506     -2186.699 6        40.553    26975558.546 6 108619579.56106     -2243.932 6        41.838
E19        30.000    26475997.349 5 139132314.71605     -2968.011 5        35.348                                                                    26475995.898 6 103897505.71006     -2216.061 6        38.021    26475995.138 6 106607872.83506     -2273.874 6        38.405
G32        31.000    23574138.685 7 123882950.40807     -3318.394 7        43.321                                    23574137.292 6  96532165.26706     -2585.762 6        39.258    23574137.641 6  96532170.26406     -2585.819 6        40.246
G02        32.000    20740463.339 8 108991914.06808      -967.142 8        49.687                                    20740456.411 7  84928761.37107      -753.618 7        42.802
G19        33.000    24193938.342 6 127140025.47306      2832.095 6        39.889                                    24193932.689 4  99070168.10804      2206.836 4        24.135
G17        34.000    22584501.195 7 118682409.22607      1046.744 7        44.995                                    22584496.760 7  92479810.13007       815.645 7        42.248    22584497.241 6  92479810.13306       815.631 6        41.521
E11        35.000    23369137.988 7 122805718.79907     -1037.352 7        44.305                                                                    23369133.480 7  91705588.49507      -774.667 7        47.151    23369133.191 7  94097900.59007      -794.888 7        47.501
C32        36.000                                                                                                                                    23226671.770 8 120947403.77308     -2621.375 8        48.356                                                                    23226671.820 8  98279683.55508     -2130.133 8        48.957
C35        37.000                                                                                                                                    24875511.154 7 129533327.77307      2399.790 7        43.865                                                                    24875510.083 7 105256437.82107      1949.989 7        43.642
I09        38.000    37121045.045 7 145670952.65007      -313.742 7        42.971
C29        39.000                                                                                                                                    21771457.512 8 113369698.28308      -593.553 8        50.763                                                                    21771455.087 8  92122161.36908      -482.325 8        49.033
G08        40.000    24826419.815 6 130463745.49906     -4120.234 6        37.388                                    24826419.951 5 101660080.16205     -3210.563 5        30.226    24826419.884 6 101660087.15606     -3210.675 6        36.873
S44        42.000    40570174.750 6 213197910.33506      -490.017 6        37.361
C09        43.000                                                                                                                                    39642546.767 6 206429159.44506       980.262 6        40.610    39642543.779 7 159624109.89807       757.849 7        43.697    39642541.649 6 167740581.00206       796.355 6        40.615
C05        44.000                                                                                                                                    39125947.765 6 203739114.87506      -411.593 6        37.845    39125943.475 7 157544031.44907      -318.344 7        43.731    39125945.397 6 165554822.98406      -334.548 6        40.503
R06        45.000    22060083.757 6 117716869.85606      3233.557 6        38.568
R13        46.000    23811661.472 6 127152945.54006        71.230 6        37.815
C39        47.000                                                                                                                                    38993398.334 7 203048863.72907        45.517 7        42.758                                                                    38993393.724 7 164993823.04707        36.946 7        43.276
C20        48.000                                                                                                                                    21961666.277 8 114360205.60408       495.714 8        52.041                                                                    21961660.459 8  92927026.48308       402.812 8        49.307
C06        49.000                                                                                                                                    38801251.579 6 202048313.45406       599.498 6        40.493    38801245.309 7 156236554.94407       463.577 7        44.063    38801244.861 6 164180783.56406       487.075 6        40.801
C16        50.000                                                                                                                                    39148068.643 7 203854279.18607       474.434 7        42.229    39148068.049 7 157633067.96907       366.917 7        43.467    39148066.002 6 165648298.15906       385.425 6        39.084
S48        51.000    77196435.982 6 405671545.73606      -429.324 6        36.696
C19        52.000                                                                                                                                    25006740.297 7 130216701.04707      2505.502 7        44.420                                                                    25006736.111 7 105811735.73707      2036.040 7        44.543
R04        53.000    21547886.086 7 115387981.46807     -4031.770 7        47.425                                                                    21547885.095 7  89746215.47007     -3135.788 7        44.144
C60        54.000                                                                                                                                    40570178.209 6 211259766.94806      -485.585 6        40.305                                                                    40570162.024 6 171665835.38606      -394.499 6        39.354
C30        55.000                                                                                                                                    23839688.374 7 124139506.06307     -3447.141 7        45.995                                                                    23839688.846 7 100873514.94607     -2801.132 7        45.619
R19        56.000    23141748.480 5 123792778.50905     -4544.066 5        35.467                                                                    23141748.163 6  96283309.15306     -3534.135 6        38.441
C02        57.000                                                                                                                                    40546408.794 5 211135840.91805      -456.164 5        34.124    40546402.509 6 163263619.07506      -352.637 6        40.496    40546405.456 5 171565168.85505      -370.547 5        35.290
I03        58.000   133770175.911 6 449157657.83306       976.812 6        40.625
C13        59.000                                                                                                                                    41112977.889 5 214086127.31105     -1109.032 5        35.781    41112980.678 6 165545014.53006      -857.410 6        38.396    41112978.473 6 173962544.26406      -901.018 6        36.771
> 2025 01 01 00 30  5.0000000  0 53
G28         1.000    23533979.169 6 123671902.60406      1151.699 6        41.220                                    23533974.966 4  96367696.54304       897.426 4        26.826    23533975.215 6  96367702.53006       897.463 6        41.032
G31         2.000    23896766.357 6 125578359.67506      2514.099 6        41.471                                    23896762.308 5  97853252.80405      1959.036 5        35.476    23896762.275 6  97853251.81206      1959.002 6        38.273
S21         5.000    38442455.358 6 202016320.25106      -423.925 6        41.425
R12         6.000    24291760.821 7 129762236.62307     -2420.589 7        43.395                                                                    24291761.344 6 100926198.87706     -1882.549 6        38.291
G21         7.000    21538416.026 7 113185201.10307     -2295.363 7        45.019                                    21538410.913 6  88196264.90706     -1788.595 6        36.011
E04         8.000    23749864.589 7 124806404.68707      -281.098 7        47.247                                                                    23749862.691 8  93199593.05108      -209.912 8        50.340    23749862.445 8  95630878.70808      -215.409 8        50.903
G04        10.000    23394880.812 6 122940953.95706      3227.887 6        40.920                                    23394879.148 4  95798150.08304      2515.230 4        26.563    23394878.676 6  95798145.07006      2515.348 6        40.923
E09        11.000    25310162.709 7 133005842.87207      2199.268 7        45.023                                                                    25310162.244 7  99322559.74907      1642.276 7        47.393    25310162.106 8 101913582.56408      1685.096 8        48.405
S27        12.000    39092050.234 5 205430082.89405      -403.296 5        35.605
S36        14.000    38210114.625 7 200796012.33307      -423.605 7        43.198
E02        15.000    28088546.197 6 147606331.09106     -2639.074 6        36.586                                                                    28088545.923 6 110225524.40206     -1970.578 6        38.811    28088544.954 6 113100968.56906     -2021.964 6        39.655
E36        16.000    24528874.774 7 128900133.43007      1383.110 7        45.756                                                                    24528874.859 8  96256609.96008      1032.766 8        48.736    24528874.730 8  98767646.72808      1059.728 8        49.874
S45        17.000    63410998.326 6 333227936.84506      -465.795 6        36.953
G03        18.000    20446072.304 8 107444891.71108      1058.754 8        49.030                                    20446070.492 8  83723311.41608       825.002 8        50.053    20446071.251 7  83723320.41807       824.977 7        45.225
R21        19.000    20916307.000 8 111927422.49908      2804.036 8        49.627                                                                    20916305.858 7  87054671.34007      2180.896 7        44.187
R20        20.000    19221041.344 6 102783590.54906     -1089.518 6        40.627                                                                    19221042.257 7  79942792.20707      -847.452 7        47.108
R05        21.000    19100817.933 8 102104862.15208      -867.842 8        51.804                                                                    19100816.737 7  79414898.74707      -674.971 7        47.511
I06        22.000    38245664.208 7 150084429.90507      -213.182 7        43.511
S28        23.000    40886128.913 5 214858040.27105      -416.047 5        33.976
E10        24.000    24846138.955 7 130567465.14607     -2279.729 7        46.154                                                                    24846138.267 8  97501745.83808     -1702.327 8        48.942    24846138.074 8 100045260.10208     -1746.742 8        49.407
S23        25.000    38161437.262 7 200539668.08107      -420.604 7        44.426
E06        26.000    23974923.680 7 125989132.49707      1187.274 7        47.476                                                                    23974923.649 8  94082792.32608       886.653 8        49.492    23974923.556 8  96537124.64808       909.741 8        50.410
E30        27.000    28485465.460 6 149692133.18006      -761.460 6        37.025                                                                    28485467.363 6 111783087.06506      -568.680 6        40.210    28485466.962 6 114699165.41906      -583.468 6        41.821
E12        28.000    26978347.847 6 141772319.35906     -2929.218 6        36.975                                                                    26978345.283 6 105869012.77306     -2187.524 6        40.267    26978345.481 6 108630800.85806     -2244.415 6        41.988
E19        30.000    26478821.351 5 139147156.38305     -2968.628 5        35.148                                                                    26478820.082 6 103908588.80206     -2216.953 6        38.126    26478819.556 6 106619245.07206     -2274.994 6        38.393
G32        31.000    23577296.573 7 123899546.79307     -3320.041 7        43.503                                    23577295.456 6  96545097.51706     -2587.043 6        39.054    23577295.705 6  96545102.52706     -2587.171 6        39.862
G02        32.000    20741384.229 8 108996755.43208      -969.375 8        49.407                                    20741377.677 7  84932533.86007      -755.358 7        42.679
G19        33.000    24191244.204 6 127125869.74306      2830.241 6        38.958                                    24191239.020 4  99059137.66604      2205.380 4        24.150
G17        34.000    22583506.577 7 118677182.70507      1043.971 7        45.198                                    22583502.190 7  92475737.51907       813.485 7        42.150    22583502.221 6  92475737.51206       813.476 6        41.135
E11        35.000    23370125.649 7 122810909.65707     -1038.988 7        44.086                                                                    23370121.245 7  91709464.78207      -775.848 7        47.102    23370121.049 7  94101877.99607      -796.118 7        47.543
C32        36.000                                                                                                                                    23229189.606 8 120960514.40808     -2622.694 8        48.588                                                                    23229189.633 8  98290337.04908     -2131.188 8        48.762
C35        37.000                                                                                                                                    24873207.203 7 129521332.14007      2398.511 7        43.663                                                                    24873206.310 7 105246690.41107      1949.125 7        43.511
I09        38.000    37121445.006 7 145672521.92407      -313.969 7        42.936
C29        39.000                                                                                                                                    21772028.817 8 113372673.26208      -596.277 8        50.939                                                                    21772026.389 8  92124578.80308      -484.488 8        48.914
G08        40.000    24830339.780 6 130484346.93306     -4120.208 6        37.588                                    24830340.384 5 101676133.20705     -3210.552 5        30.415    24830340.651 6 101676140.19306     -3210.456 6        36.635
S44        42.000    40570641.860 6 213200361.46906      -490.050 6        36.972
C09        43.000                                                                                                                                    39641606.309 6 206424260.71106       979.287 6        40.696    39641602.986 7 159620321.86607       757.327 7        43.524    39641600.980 6 167736600.39106       795.867 6        40.405
C05        44.000                                                                                                                                    39126343.079 6 203741173.70906      -411.746 6        38.087    39126338.780 7 157545623.46007      -318.374 7        43.562    39126340.774 6 165556495.96806      -334.546 6        40.377
R06        45.000    22057054.729 6 117700706.59606      3231.796 6        37.611
R13        46.000    23811596.011 6 127152600.41206        67.046 6        36.975
C39        47.000                                                                                                                                    38993355.155 7 203048639.43507        44.340 7        42.912                                                                    38993350.701 7 164993640.80907        36.150 7        43.153
C20        48.000                                                                                                                                    21961191.391 8 114357732.89108       493.527 8        52.152                                                                    21961185.637 8  92925017.22708       401.115 8        49.141
C06        49.000                                                                                                                                    38800675.903 6 202045318.68106       598.523 6        40.539    38800670.025 7 156234239.20307       462.895 7        44.086    38800669.860 6 164178350.09406       486.392 6        40.710
C16        50.000                                                                                                                                    39147613.907 7 203851909.53507       473.527 7        42.480    39147612.934 7 157631235.62107       366.187 7        43.314    39147610.924 6 165646372.65106       384.802 6        38.943
S48        51.000    77196838.624 6 405673692.74306      -429.443 6        36.775
C19        52.000                                                                                                                                    25004335.193 7 130204176.03807      2504.532 7        44.477                                                                    25004330.821 7 105801558.17107      2035.219 7        44.451
R04        53.000    21551651.683 7 115408143.76707     -4033.058 7        47.749                                                                    21551650.113 7  89761897.24907     -3136.729 7        43.913
C60        54.000                                                                                                                                    40570644.707 6 211262195.78206      -485.628 6        40.303                                                                    40570628.405 6 171667809.05706      -394.750 6        39.327
C30        55.000                                                                                                                                    23842998.956 7 124156745.82307     -3448.547 7        46.359                                                                    23842999.874 7 100887523.67607     -2802.159 7        45.637
R19        56.000    23145996.921 5 123815501.62805     -4544.959 5        35.338                                                                    23145995.913 6  96300982.68106     -3535.008 6        38.375
C02        57.000                                                                                                                                    40546847.317 5 211138121.47005      -455.960 5        34.081    40546840.554 6 163265382.54606      -352.689 6        40.317    40546843.482 5 171567022.02705      -370.356 5        35.529
I03        58.000   133768931.217 6 449152774.49406       976.797 6        40.627
C13        59.000                                                                                                                                    41114042.944 6 214091671.53606     -1108.785 6        36.174    41114045.568 6 165549301.72206      -857.451 6        38.586    41114043.029 6 173967049.45406      -900.955 6        36.612
> 2025 01 01 00 30 10.0000000  0 53
G28         1.000    23532884.377 6 123666151.23006      1148.816 6        40.784                                    23532880.380 4  96363214.94804       895.181 4        26.970    23532880.873 6  96363220.95206       895.317 6        40.517
G31         2.000    23894374.430 6 125565792.99306      2512.606 6        41.328                                    23894370.996 5  97843460.58405      1957.879 5        35.252    23894370.913 6  97843459.58306      1957.737 6        37.686
S21         5.000    38442857.446 6 202018440.44806      -424.159 6        41.628
R12         6.000    24294027.764 7 129774347.39007     -2423.784 7        44.301                                                                    24294028.646 6 100935618.42106     -1885.046 6        39.261
G21         7.000    21540600.924 7 113196682.32607     -2297.198 7        45.162                                    21540595.770 6  88205211.31106     -1790.025 6        36.038
E04         8.000    23750133.219 7 124807816.25507      -283.580 7        47.258                                                                    23750131.341 8  93200647.13408      -211.743 8        50.291    23750131.044 8  95631960.28808      -217.293 8        50.995
G04        10.000    23391810.509 6 122924816.95606      3226.843 6        41.368                                    23391807.962 4  95785575.80404      2514.431 4        26.180    23391807.293 6  95785570.81306      2514.378 6        39.937
E09        11.000    25308071.022 7 132994850.66807      2197.708 7        44.883                                                                    25308070.518 7  99314351.28407      1641.107 7        47.320    25308070.335 8 101905159.95908      1683.926 8        48.594
S27        12.000    39092436.609 5 205432099.59305      -403.377 5        35.609
S36        14.000    38210518.721 7 200798130.74107      -423.738 7        43.462
E02        15.000    28091057.537 6 147619528.76006     -2640.135 6        36.431                                                                    28091057.286 6 110235379.78206     -1971.540 6        38.598    28091056.671 6 113111081.05306     -2023.092 6        39.712
E36        16.000    24527559.240 7 128893220.97007      1382.023 7        45.837                                                                    24527559.482 8  96251448.06908      1031.955 8        48.682    24527559.350 8  98762350.17808      1058.875 8        49.918
S45        17.000    63411399.748 6 333230266.04906      -465.834 6        37.236
G03        18.000    20445065.779 8 107439603.11808      1056.661 8        48.686                                    20445064.109 8  83719190.43808       823.369 8        50.044    20445064.596 7  83719199.43207       823.338 7        45.040
R21        19.000    20913688.352 8 111913408.04208      2801.771 8        49.632                                                                    20913687.166 7  87043771.19307      2179.149 7        44.739
R20        20.000    19222061.924 6 102789048.47206     -1093.691 6        40.846                                                                    19222063.071 7  79947037.27107      -850.612 7        47.286
R05        21.000    19101631.217 8 102109210.74708      -871.594 8        51.762                                                                    19101630.198 7  79418280.98907      -677.954 7        47.173
I06        22.000    38245935.945 7 150085495.82107      -213.251 7        43.611
S28        23.000    40886521.986 5 214860120.95305      -416.067 5        33.940
E10        24.000    24848308.713 7 130578866.83207     -2281.063 7        46.071                                                                    24848307.988 8  97510260.07908     -1703.360 8        48.904    24848307.653 8 100053996.45708     -1747.845 8        49.557
S23        25.000    38161837.226 7 200541771.50207      -420.758 7        44.658
E06        26.000    23973795.112 7 125983201.33007      1185.185 7        47.307                                                                    23973794.980 8  94078363.21108       885.036 8        49.364    23973794.927 8  96532579.99208       908.110 8        50.479
E30        27.000    28486190.667 6 149695947.14806      -764.141 6        37.535                                                                    28486193.136 6 111785935.15606      -570.661 6        40.949    28486192.812 7 114702087.80507      -585.384 7        42.345
E12        28.000    26981135.632 6 141786968.12406     -2930.184 6        37.172                                                                    26981132.745 6 105879951.77206     -2188.007 6        40.377    26981133.141 7 108642025.23707     -2245.352 7        42.241
E19        30.000    26481646.674 5 139162003.64005     -2970.042 5        34.619                                                                    26481645.365 6 103919676.01806     -2217.779 6        37.989    26481644.986 6 106630621.51306     -2275.781 6        38.432
G32        31.000    23580456.500 7 123916150.85607     -3321.633 7        43.302                                    23580455.068 6  96558035.74406     -2588.287 6        38.805    23580455.860 6  96558040.73606     -2588.186 6        40.017
G02        32.000    20742307.829 8 109001608.22808      -971.772 8        49.526                                    20742301.143 7  84936315.25807      -757.226 7        42.561
G19        33.000    24188552.422 6 127111722.84206      2828.324 6        38.892                                    24188547.018 4  99048114.11904      2203.901 4        24.075
G17        34.000    22582514.878 7 118671969.85907      1041.117 7        44.742                                    22582510.228 6  92471675.56306       811.256 6        41.952    22582510.364 6  92471675.55806       811.333 6        41.175
E11        35.000    23371114.845 7 122816108.39707     -1040.587 7        43.845                                                                    23371110.559 7  91713346.96407      -777.151 7        47.038    23371110.348 7  94105861.44907      -797.425 7        47.522
C32        36.000                                                                                                                                    23231708.717 8 120973631.53908     -2624.139 8        48.694                                                                    23231708.680 8  98300995.76908     -2132.190 8        48.907
C35        37.000                                                                                                                                    24870905.168 7 129509342.75607      2397.211 7        44.101                                                                    24870903.912 7 105236948.03107      1948.093 7        43.801
I09        38.000    37121845.255 7 145674092.24507      -314.239 7        43.132
C29        39.000                                                                                                                                    21772602.593 8 113375661.91508      -599.131 8        50.906                                                                    21772600.289 8  92127007.31408      -486.775 8        49.017
G08        40.000    24834260.012 6 130504947.58606     -4120.267 6        37.951                                    24834260.611 5 101692185.65505     -3210.598 5        30.475    24834260.824 6 101692192.63106     -3210.422 6        36.779
S44        42.000    40571107.003 6 213202812.76706      -490.244 6        37.444
C09        43.000                                                                                                                                    39640666.451 6 206419365.59206       978.532 6        40.818    39640662.652 7 159616536.64707       756.657 7        43.562    39640660.994 6 167732622.68406       795.309 6        40.734
C05        44.000                                                                                                                                    39126738.134 6 203743232.71406      -411.700 6        38.015    39126734.165 7 157547215.61307      -318.448 7        43.534    39126736.239 6 165558169.06906      -334.561 6        40.615
R06        45.000    22054026.267 6 117684552.45006      3229.691 6        38.204
R13        46.000    23811534.811 6 127152276.04606        62.856 6        37.108
C39        47.000                                                                                                                                    38993312.970 7 203048420.23707        43.100 7        42.876                                                                    38993308.649 7 164993462.66007        35.285 7        43.367
C20        48.000                                                                                                                                    21960718.711 8 114355270.97508       491.201 8        52.213                                                                    21960712.847 8  92923016.70508       399.251 8        49.303
C06        49.000                                                                                                                                    38800101.400 6 202042328.50906       597.575 6        40.379    38800095.892 7 156231927.02107       462.017 7        44.009    38800095.765 6 164175920.32506       485.564 6        41.092
C16        50.000                                                                                                                                    39147159.747 7 203849544.54707       472.393 7        42.457    39147158.807 7 157629406.85007       365.344 7        43.206    39147156.628 6 165644450.88606       384.082 6        39.021
S48        51.000    77197238.437 6 405674239.86516      -429.541 6        36.987
C19        52.000                                                                                                                                    25001930.678 7 130191656.08807      2503.435 7        44.283                                                                    25001926.590 7 105791384.67307      2034.302 7        44.641
R04        53.000    21555418.154 8 115428312.90308     -4034.558 8        48.008                                                                    21555416.311 7  89777584.34707     -3138.054 7        44.072
C60        54.000                                                                                                                                    40571111.102 6 211264624.80606      -485.816 6        40.429                                                                    40571094.617 6 171669782.80906      -394.610 6        39.631
C30        55.000                                                                                                                                    23846311.312 7 124173992.16307     -3449.867 7        46.536                                                                    23846312.035 7 100901537.72807     -2803.244 7        45.989
R19        56.000    23150245.448 5 123838230.97005     -4546.583 5        35.257                                                                    23150245.005 6  96318661.01706     -3536.135 6        38.420
C02        57.000                                                                                                                                    40547285.975 5 211140402.29905      -456.626 5        34.119    40547278.621 6 163267146.21906      -352.914 6        40.369    40547281.496 5 171568875.35105      -370.489 5        35.657
I03        58.000   133767686.640 6 449147891.43706       976.569 6        40.751
C13        59.000                                                                                                                                    41115108.829 6 214097215.49906     -1108.747 6        36.250    41115109.810 6 165553588.65306      -857.490 6        38.423    41115107.630 6 173971554.36006      -900.972 6        36.809
> 2025 01 01 00 30 15.0000000  0 54
G28         1.000    23531792.305 6 123660413.23006      1146.375 6        41.235                                    23531788.414 4  96358743.78304       893.276 4        27.245    23531789.309 6  96358749.79006       893.165 6        41.094
G31         2.000    23891984.896 6 125553233.43906      2511.331 6        41.321                                    23891980.958 5  97833673.91905      1956.874 5        34.871    23891981.302 6  97833672.92106      1956.696 6        37.819
E34         4.000    28883321.975 5 151782880.58115      2327.398 5        35.057                                                                    28883323.072 6 113344363.23216      1737.979 6        36.575    28883322.997 6 116301172.45016      1783.199 6        37.410
S21         5.000    38443263.425 7 202020560.82707      -424.099 7        42.051
R12         6.000    24296296.996 7 129786474.52907     -2426.915 7        44.134                                                                    24296299.200 6 100945050.56006     -1887.813 6        39.255
G21         7.000    21542787.111 7 113208172.10007     -2298.780 7        45.515                                    21542782.192 6  88214164.38106     -1791.257 6        36.030
E04         8.000    23750403.926 7 124809239.44307      -285.845 7        47.107                                                                    23750402.199 8  93201709.91008      -213.456 8        50.126    23750401.876 8  95633050.78708      -218.981 8        50.985
G04        10.000    23388740.750 6 122908684.65206      3225.978 6        41.602                                    23388737.947 4  95773005.18604      2513.747 4        26.168    23388738.233 6  95773000.18106      2513.869 6        39.880
E09        11.000    25305980.815 7 132983865.28007      2196.375 7        44.786                                                                    25305980.238 7  99306147.91507      1640.190 7        47.133    25305979.881 8 101896742.58908      1682.964 8        48.544
S27        12.000    39092816.384 5 205434116.21905      -403.415 5        35.348
S36        14.000    38210920.805 7 200800249.42907      -423.749 7        43.780
E02        15.000    28093570.323 6 147632732.25306     -2641.352 6        36.019                                                                    28093569.816 6 110245239.52106     -1972.243 6        38.363    28093569.056 6 113121198.00206     -2023.800 6        39.562
E36        16.000    24526244.545 7 128886313.27707      1381.079 7        45.768                                                                    24526245.003 8  96246289.72508      1031.352 8        48.501    24526244.840 8  98757057.27008      1058.257 8        49.896
S45        17.000    63411798.657 6 333232595.43606      -465.886 6        37.195
G03        18.000    20444061.371 8 107434324.46408      1054.765 8        48.726                                    20444059.608 8  83715077.19808       821.894 8        49.901    20444060.088 7  83715086.19907       821.941 7        44.658
R21        19.000    20911071.189 8 111899404.34408      2799.666 8        49.659                                                                    20911070.291 7  87032879.44407      2177.540 7        44.837
R20        20.000    19223086.158 6 102794525.77906     -1097.274 6        40.625                                                                    19223087.455 7  79951297.40007      -853.483 7        46.777
R05        21.000    19102448.449 8 102113577.54108      -875.203 8        51.857                                                                    19102447.012 7  79421677.37107      -680.582 7        47.017
I06        22.000    38246207.434 7 150086561.84807      -213.188 7        43.549
S28        23.000    40886917.729 5 214862202.22105      -416.227 5        34.319
E10        24.000    24850479.537 7 130590274.86907     -2282.147 7        45.475                                                                    24850478.794 8  97518779.07208     -1704.238 8        48.623    24850478.511 8 100062737.68408     -1748.684 8        49.493
S23        25.000    38162237.016 7 200543874.83707      -420.706 7        44.913
E06        26.000    23972668.407 7 125977280.25507      1183.233 7        47.230                                                                    23972668.237 8  94073941.63008       883.604 8        49.231    23972668.094 8  96528043.06308       906.643 8        50.451
E30        27.000    28486919.094 6 149699772.75006      -766.342 6        37.202                                                                    28486921.173 6 111788791.89706      -572.091 6        40.312    28486920.787 6 114705019.09206      -587.015 6        41.807
E12        28.000    26983924.168 6 141801620.84506     -2930.816 6        36.930                                                                    26983921.170 6 105890893.75706     -2188.681 6        40.522    26983921.619 7 108653252.65807     -2245.816 7        42.097
E19        30.000    26484473.245 5 139176856.42205     -2971.203 5        34.829                                                                    26484471.933 6 103930767.37606     -2218.736 6        37.834    26484471.297 6 106642002.19406     -2276.501 6        38.081
G32        31.000    23583617.867 7 123932762.56707     -3323.099 7        43.077                                    23583616.130 6  96570979.93806     -2589.427 6        38.763    23583616.918 6  96570984.94306     -2589.500 6        39.712
G02        32.000    20743233.378 8 109006472.47408      -973.950 8        49.661                                    20743226.760 7  84940105.58007      -758.923 7        42.552
G19        33.000    24185862.130 6 127097584.80606      2826.812 6        40.191                                    24185856.590 4  99037097.48504      2202.707 4        24.286
G17        34.000    22581525.477 7 118666770.82107      1038.408 7        45.205                                    22581520.899 6  92467624.36706       809.146 6        41.986    22581520.954 6  92467624.36406       809.133 6        41.404
E11        35.000    23372105.569 7 122821315.04307     -1042.186 7        43.568                                                                    23372101.312 7  91717235.04307      -778.252 7        46.855    23372101.107 7  94109850.95507      -798.452 7        47.590
C32        36.000                                                                                                                                    23234229.087 8 120986755.11908     -2625.357 8        48.842                                                                    23234228.965 8  98311659.75408     -2133.262 8        48.805
C35        37.000                                                                                                                                    24868604.229 7 129497359.63707      2396.095 7        44.327                                                                    24868602.866 7 105227210.77407      1947.050 7        43.619
I09        38.000    37122245.791 7 145675663.59007      -314.367 7        42.933
C29        39.000                                                                                                                                    21773179.390 8 113378664.22208      -601.808 8        51.015                                                                    21773176.935 8  92129446.93408      -489.023 8        48.908
G08        40.000    24838179.892 6 130525547.41006     -4119.660 6        38.156                                    24838180.641 5 101708237.44805     -3210.123 5        30.574    24838181.038 6 101708244.44006     -3210.253 6        36.465
S44        42.000    40571572.910 6 213205264.21606      -490.165 6        37.758
C09        43.000                                                                                                                                    39639726.900 6 206414474.03906       977.970 6        40.682    39639723.333 7 159612754.18607       756.269 7        43.609    39639721.670 6 167728647.90306       794.662 6        40.508
C05        44.000                                                                                                                                    39127134.534 6 203745291.92706      -411.847 6        38.138    39127129.599 7 157548807.92307      -318.413 7        43.471    39127131.634 6 165559842.35006      -334.825 6        40.336
R06        45.000    22051001.693 6 117668407.21406      3228.126 6        38.102
R13        46.000    23811477.800 6 127151971.81306        58.855 6        37.493
C39        47.000                                                                                                                                    38993271.682 7 203048206.08407        42.279 7        42.904                                                                    38993267.598 7 164993288.64907        34.441 7        43.124
C20        48.000                                                                                                                                    21960247.979 8 114352819.82308       489.173 8        52.213                                                                    21960242.091 8  92921024.94008       397.584 8        49.082
C06        49.000                                                                                                                                    38799527.731 6 202039342.95406       596.730 6        39.850    38799522.354 7 156229618.39907       461.461 7        43.932    38799522.381 6 164173494.31406       484.797 6        40.861
C16        50.000                                                                                                                                    39146705.923 7 203847184.19107       471.580 7        42.275    39146705.493 7 157627581.68507       364.766 7        43.016    39146703.463 6 165642532.91506       383.355 6        38.835
S48        51.000    77197642.001 6 405676387.00506      -429.517 6        37.240
C19        52.000                                                                                                                                    24999527.639 7 130179141.16007      2502.450 7        44.432                                                                    24999523.247 7 105781215.28907      2033.464 7        44.482
R04        53.000    21559185.381 8 115448488.88308     -4035.898 8        48.111                                                                    21559184.029 7  89793276.77007     -3139.046 7        43.797
C60        54.000                                                                                                                                    40571577.505 6 211267053.98706      -485.855 6        40.446                                                                    40571561.204 6 171671756.71706      -394.711 6        39.348
C30        55.000                                                                                                                                    23849624.337 7 124191245.10407     -3451.240 7        46.149                                                                    23849625.321 7 100915557.14107     -2804.377 7        45.756
R19        56.000    23154495.029 5 123860966.50705     -4547.832 5        35.457                                                                    23154495.092 6  96336344.24306     -3537.052 6        38.138
C02        57.000                                                                                                                                    40547722.485 5 211142683.29205      -456.273 5        34.119    40547716.308 6 163268910.03706      -352.793 6        40.355    40547719.603 5 171570728.88805      -370.613 5        35.424
I03        58.000   133766442.660 6 449143008.64706       976.587 6        40.703
C13        59.000                                                                                                                                    41116171.686 6 214102759.11106     -1108.716 6        36.155    41116174.170 6 165557875.29206      -857.311 6        38.273    41116172.285 6 173976058.96206      -900.756 6        36.412
> 2025 01 01 00 30 20.0000000  0 54
G28         1.000    23530703.133 6 123654688.82206      1143.386 6        41.781                                    23530699.274 4  96354283.20604       890.955 4        27.413    23530700.273 7  96354289.20607       891.012 7        42.095
G31         2.000    23889596.096 6 125540681.21406      2509.580 6        41.182                                    23889592.293 5  97823892.96005      1955.518 5        34.538    23889592.730 6  97823891.95006      1955.589 6        37.728
E34         4.000    28881107.893 5 151771244.14805      2327.351 5        34.576                                                                    28881108.954 6 113335673.69706      1737.790 6        37.085    28881108.274 6 116292256.21706      1783.138 6        37.323
S21         5.000    38443666.636 6 202022681.28106      -424.301 6        41.852
R12         6.000    24298570.250 7 129798618.72507     -2430.557 7        42.927                                                                    24298572.226 6 100954496.10706     -1890.477 6        38.892
G21         7.000    21544975.452 7 113219670.58907     -2300.662 7        45.415                                    21544970.283 5  88223124.24305     -1792.729 5        35.771
E04         8.000    23750677.154 7 124810674.43307      -288.309 7        47.222                                                                    23750675.243 8  93202781.49108      -215.291 8        50.216    23750674.944 8  95634150.32808      -220.876 8        50.940
G04        10.000    23385671.970 6 122892557.21206      3224.945 6        41.833                                    23385668.987 4  95760438.35904      2512.944 4        26.407    23385669.848 6  95760433.36206      2512.894 6        41.199
E09        11.000    25303891.561 7 132972886.91107      2194.797 7        44.930                                                                    25303891.210 7  99297949.78507      1639.046 7        47.253    25303890.774 8 101888330.59908      1681.732 8        48.520
S27        12.000    39093200.769 5 205436133.11305      -403.583 5        35.900
S36        14.000    38211324.029 7 200802368.37407      -424.002 7        43.530
E02        15.000    28096083.494 5 147645941.70105     -2642.533 5        35.490                                                                    28096083.526 6 110255103.72006     -1973.452 6        38.462    28096083.042 6 113131319.53906     -2024.881 6        39.408
E36        16.000    24524931.335 7 128879410.52107      1379.969 7        45.950                                                                    24524931.441 8  96241135.07108      1030.473 8        48.638    24524931.342 8  98751768.15508      1057.353 8        49.862
S45        17.000    63412197.248 6 333234925.20406      -466.031 6        37.089
G03        18.000    20443058.862 8 107429055.92208      1052.553 8        48.721                                    20443057.039 8  83710971.84708       820.168 8        49.807    20443057.680 7  83710980.84507       820.250 7        44.984
R21        19.000    20908456.543 8 111885411.67408      2797.253 8        49.590                                                                    20908455.475 7  87021996.24807      2175.705 7        44.588
R20        20.000    19224113.786 6 102800022.71306     -1101.488 6        40.338                                                                    19224115.130 7  79955572.77407      -856.628 7        47.130
R05        21.000    19103268.778 8 102117963.03608      -879.060 8        51.743                                                                    19103267.552 7  79425088.32607      -683.780 7        46.686
I06        22.000    38246479.197 7 150087628.13507      -213.391 7        43.606
S28        23.000    40887315.990 5 214864283.61405      -416.335 5        33.683
E10        24.000    24852651.707 7 130601689.47007     -2283.760 7        45.127                                                                    24852650.852 8  97527302.95708     -1705.370 8        48.761    24852650.659 8 100071483.93108     -1749.873 8        49.381
S23        25.000    38162638.192 7 200545978.35007      -420.865 7        44.698
E06        26.000    23971543.781 7 125971369.44907      1181.028 7        47.415                                                                    23971543.469 8  94069527.72008       881.934 8        49.271    23971543.339 8  96523514.00708       904.973 8        50.434
E30        27.000    28487649.562 6 149703610.30706      -768.912 6        36.896                                                                    28487651.529 6 111791657.60406      -574.085 6        40.243    28487650.975 6 114707959.54806      -588.990 6        41.282
E12        28.000    26986713.069 6 141816277.73506     -2931.694 6        37.236                                                                    26986710.444 6 105901838.82906     -2189.364 6        40.777    26986710.848 7 108664483.25307     -2246.517 7        42.307
E19        30.000    26487300.502 5 139191714.76805     -2972.293 5        34.976                                                                    26487299.441 6 103941862.88906     -2219.764 6        38.132    26487298.941 6 106653387.17306     -2277.608 6        38.180
G32        31.000    23586780.357 7 123949382.09507     -3324.792 7        42.408                                    23586778.694 6  96583930.21306     -2590.751 6        38.664    23586779.735 6  96583935.21106     -2590.808 6        39.733
G02        32.000    20744161.329 8 109011348.34208      -976.393 8        49.804                                    20744154.618 7  84943904.95607      -760.825 7        42.533
G19        33.000    24183173.975 6 127083455.79106      2824.817 6        39.991                                    24183167.862 4  99026087.87204      2201.167 4        24.045
G17        34.000    22580538.534 7 118661585.62507      1035.511 7        44.662                                    22580534.173 6  92463583.95906       806.890 6        41.974    22580534.505 6  92463583.97406       806.915 6        41.630
E11        35.000    23373098.142 7 122826529.78107     -1043.821 7        43.977                                                                    23373093.661 7  91721129.15907      -779.473 7        46.895    23373093.457 7  94113846.66107      -799.773 7        47.512
