$GPZDA,071442.00,01,01,2025,,*67
$GPDTM,W84,,00.0000000,N,00.0000000,E,00.0000000,W84*5F
$PSSN,TFM,071442.00,,,,*6B
$GPRMC,071442.00,A,4742.1605016,N,01618.0999503,E,0.0,,010125,5.1,E,D*18
$GPGLL,4742.1605016,N,01618.0999503,E,071442.00,A,D*69
$GPGGA,071442.00,4742.1605016,N,01618.0999503,E,2,37,0.4,707.9479,M,43.2066,M,1.6,0136*41
$GNGNS,071442.00,4742.1605016,N,01618.0999503,E,DAAA,37,0.4,707.9479,43.2066,,*5E
$GPGNS,071442.00,,,,,,10,,,,1.6,136*7B
$GLGNS,071442.00,,,,,,08,,,,,*73
$GAGNS,071442.00,,,,,,09,,,,,*7F
$GBGNS,071442.00,,,,,,10,,,,,*74
$GPLLQ,071442.00,010125,,M,,M,1,37,0.899,,M*19
$GPVTG,,T,,M,0.00,N,0.00,K,D*26
$GPHDT,,T*1B
$GPTHS,,V*0E
$GPROT,,V*08
$PSSN,HRP,071442.00,010125,,,,,,,00,0,,*65
$PTNL,AVR,071442.00,,Yaw,,Tilt,,,,0,,00*33
$GPGSA,A,3,05,07,08,09,13,14,15,18,20,30,,,0.7,0.4,0.6*3F
$GPGSA,A,3,65,71,72,73,74,75,81,82,,,,,0.7,0.4,0.6*31
$GPGSA,A,3,02,03,05,08,13,15,24,25,31,,,,0.7,0.4,0.6*3E
$GPGSA,A,3,05,07,09,21,22,36,40,42,45,60,,,0.7,0.4,0.6*3F
$GPGST,071442.00,1.714,0.442,0.317,19.266,0.430,0.332,0.716*68
$GPGBS,071442.00,3.004,2.128,4.754,72,0.0001,5.470,6.064*51
$GPGRS,071442.00,1,0.0,-0.1,-0.7,0.2,0.2,0.1,0.0,0.3,-0.1,-0.0,,*4F
$GPGRS,071442.00,1,-3.0,-1.7,5.5,2.3,2.5,-3.3,0.4,-3.2,,,,*4C
$GPGRS,071442.00,1,-1.4,-0.2,0.4,-0.0,-0.3,0.6,-0.2,-0.0,-0.0,,,*4D
$GPGRS,071442.00,1,2.3,1.4,0.7,0.4,-0.1,-0.3,-0.6,-0.5,0.1,-1.1,,*60
$GPGSV,6,1,21,30,80,060,50,14,40,159,46,09,10,110,38,07,42,061,46*7C
$GPGSV,6,2,21,13,41,293,46,20,50,222,48,05,53,282,48,15,09,297,39*76
$GPGSV,6,3,21,18,08,331,38,11,03,222,39,27,05,029,36,08,09,060,37*72
$GPGSV,6,4,21,36,35,170,45,58,13,245,37,40,24,133,37,34,31,208,44*7C
$GPGSV,6,5,21,49,34,195,44,57,07,112,37,41,07,108,35,61,03,257,38*7F
$GPGSV,6,6,21*7A
$GLGSV,3,1,11,72,64,111,51,73,17,035,43,81,11,319,46,71,15,127,44*60
$GLGSV,3,2,11,75,56,190,52,74,61,051,45,65,50,321,49,76,00,206,*65
$GLGSV,3,3,11,66,03,312,44,82,07,003,41,88,00,271,*59
$GAGSV,3,1,11,03,72,309,48,15,19,254,40,25,42,150,46,08,20,290,41*62
$GAGSV,3,2,11,24,44,073,45,13,19,308,40,05,50,098,46,16,51,114,*6B
$GAGSV,3,3,11,09,00,105,,02,05,188,35,31,08,032,36*5B
$GBGSV,6,1,21,21,64,299,51,09,15,062,37,42,15,311,40,40,18,069,41*67
$GBGSV,6,2,21,05,21,129,39,07,18,077,39,26,55,181,,10,16,113,*67
$GBGSV,6,3,21,50,39,306,,45,64,189,51,36,54,064,49,22,57,144,51*6C
$GBGSV,6,4,21,19,06,135,26,02,05,108,34,06,01,064,32,24,07,208,*61
$GBGSV,6,5,21,46,06,046,,28,04,318,,56,05,095,,58,02,038,*67
$GBGSV,6,6,21,60,07,112,40*5F
$GPGGA,071442.00,,,,,0,00,,,M,,M,,*4C
$PTNL,GGK,071442.00,010125,4742.1605016,N,01618.0999503,E,1,37,0.7,EHT751.1544,M*4B
$GPGGQ,071442.00,010125,4742.1605016,N,01618.0999503,E,1,37,0.899,707.9479,M*3E
$GPGFA,071442.00,4.198,5.873,0.442,0.317,19.266,0.716,,VVV*37
$GPLLK,071442.00,010125,,M,,M,1,37,0.8,,M*03
$GNGMP,071442.00,,,,,DAAA,37,0.4,,,,*52
$GPGMP,071442.00,,,,,,10,,,,1.6,136*7B
$GLGMP,071442.00,,,,,,08,,,,,*73
$GAGMP,071442.00,,,,,,09,,,,,*7F
$GBGMP,071442.00,,,,,,10,,,,,*74
$PSSN,SNC,[0,285300000,2347]*48
$GPZDA,071447.00,01,01,2025,,*62
$GPDTM,W84,,00.0000000,N,00.0000000,E,00.0000000,W84*5F
$PSSN,TFM,071447.00,,,,*6E
$GPRMC,071447.00,A,4742.1605024,N,01618.0999486,E,0.0,,010125,5.1,E,D*10
$GPGLL,4742.1605024,N,01618.0999486,E,071447.00,A,D*61
$GPGGA,071447.00,4742.1605024,N,01618.0999486,E,2,37,0.4,707.9460,M,43.2066,M,2.2,0136*46
$GNGNS,071447.00,4742.1605024,N,01618.0999486,E,DAAA,37,0.4,707.9460,43.2066,,*5E
$GPGNS,071447.00,,,,,,10,,,,2.2,136*79
$GLGNS,071447.00,,,,,,08,,,,,*76
$GAGNS,071447.00,,,,,,09,,,,,*7A
$GBGNS,071447.00,,,,,,10,,,,,*71
$GPLLQ,071447.00,010125,,M,,M,1,37,0.891,,M*14
$GPVTG,,T,,M,0.00,N,0.00,K,D*26
$GPHDT,,T*1B
$GPTHS,,V*0E
$GPROT,,V*08
$PSSN,HRP,071447.00,010125,,,,,,,00,0,,*60
$PTNL,AVR,071447.00,,Yaw,,Tilt,,,,0,,00*36
$GPGSA,A,3,05,07,08,09,13,14,15,18,20,30,,,0.7,0.4,0.6*3F
$GPGSA,A,3,65,71,72,73,74,75,81,82,,,,,0.7,0.4,0.6*31
$GPGSA,A,3,02,03,05,08,13,15,24,25,31,,,,0.7,0.4,0.6*3E
$GPGSA,A,3,05,07,09,21,22,36,40,42,45,60,,,0.7,0.4,0.6*3F
$GPGST,071447.00,1.707,0.438,0.312,19.473,0.426,0.328,0.710*6F
$GPGBS,071447.00,3.047,2.083,4.810,72,0.0001,5.749,6.065*54
$GPGRS,071447.00,1,-0.3,0.2,-0.5,0.7,0.3,0.1,-0.6,0.6,-0.1,-0.1,,*63
$GPGRS,071447.00,1,-3.5,-1.0,5.7,2.1,2.6,-3.0,0.4,-3.2,,,,*4B
$GPGRS,071447.00,1,-1.3,-0.2,0.5,0.0,-0.2,0.5,-0.1,-0.3,0.1,,,*4D
$GPGRS,071447.00,1,1.8,1.3,-0.0,0.2,-0.4,-0.3,-0.7,-0.0,0.1,-1.0,,*46
$GPGSV,6,1,21,30,80,060,51,14,40,159,46,09,10,110,38,07,42,061,47*7C
$GPGSV,6,2,21,13,41,293,46,20,50,222,48,05,53,282,47,15,09,297,39*79
$GPGSV,6,3,21,18,08,331,38,11,03,222,39,27,05,029,35,08,09,060,37*71
$GPGSV,6,4,21,36,35,170,45,58,13,245,37,40,24,133,37,34,31,208,44*7C
$GPGSV,6,5,21,49,34,195,44,57,07,112,37,41,07,108,35,61,03,257,38*7F
$GPGSV,6,6,21*7A
$GLGSV,3,1,11,72,64,111,51,73,17,035,43,81,11,319,45,71,15,127,44*63
$GLGSV,3,2,11,75,56,190,52,74,61,051,46,65,50,321,49,76,00,206,*66
$GLGSV,3,3,11,66,03,312,41,82,07,003,42,88,00,271,*5F
$GAGSV,3,1,11,03,72,309,48,15,19,254,41,25,42,150,46,08,20,290,41*63
$GAGSV,3,2,11,24,44,073,45,13,19,308,40,05,50,098,46,16,51,114,*6B
$GAGSV,3,3,11,09,00,105,,02,05,188,36,31,08,032,36*58
$GBGSV,6,1,21,21,64,298,51,09,15,062,37,42,15,311,41,40,18,069,41*67
$GBGSV,6,2,21,05,21,129,39,07,18,077,39,26,55,181,,10,16,113,*67
$GBGSV,6,3,21,50,39,306,,45,64,189,51,36,54,064,49,22,57,145,51*6D
$GBGSV,6,4,21,19,06,135,26,02,05,108,34,06,01,064,32,24,07,208,*61
$GBGSV,6,5,21,46,06,046,,28,04,318,,56,05,095,,58,02,038,*67
$GBGSV,6,6,21,60,07,112,40*5F
$GPGGA,071447.00,,,,,0,00,,,M,,M,,*49
$PTNL,GGK,071447.00,010125,4742.1605024,N,01618.0999486,E,1,37,0.7,EHT751.1526,M*47
$GPGGQ,071447.00,010125,4742.1605024,N,01618.0999486,E,1,37,0.891,707.9460,M*36
$GPGFA,071447.00,4.167,5.822,0.438,0.312,19.473,0.710,,VVV*3A
$GPLLK,071447.00,010125,,M,,M,1,37,0.8,,M*06
$GNGMP,071447.00,,,,,DAAA,37,0.4,,,,*57
$GPGMP,071447.00,,,,,,10,,,,2.2,136*79
$GLGMP,071447.00,,,,,,08,,,,,*76
$GAGMP,071447.00,,,,,,09,,,,,*7A
$GBGMP,071447.00,,,,,,10,,,,,*71
$PSSN,SNC,[0,285305000,2347]*4D
$GPZDA,071452.00,01,01,2025,,*66
$GPDTM,W84,,00.0000000,N,00.0000000,E,00.0000000,W84*5F
$PSSN,TFM,071452.00,,,,*6A
$GPRMC,071452.00,A,4742.1605017,N,01618.0999450,E,0.0,,010125,5.1,E,D*1F
$GPGLL,4742.1605017,N,01618.0999450,E,071452.00,A,D*6E
$GPGGA,071452.00,4742.1605017,N,01618.0999450,E,2,37,0.4,707.9462,M,43.2066,M,3.2,0136*4A
$GNGNS,071452.00,4742.1605017,N,01618.0999450,E,DAAA,37,0.4,707.9462,43.2066,,*53
$GPGNS,071452.00,,,,,,10,,,,3.2,136*7C
$GLGNS,071452.00,,,,,,08,,,,,*72
$GAGNS,071452.00,,,,,,09,,,,,*7E
$GBGNS,071452.00,,,,,,10,,,,,*75
$GPLLQ,071452.00,010125,,M,,M,1,37,0.892,,M*13
$GPVTG,,T,,M,0.00,N,0.00,K,D*26
$GPHDT,,T*1B
$GPTHS,,V*0E
$GPROT,,V*08
$PSSN,HRP,071452.00,010125,,,,,,,00,0,,*64
$PTNL,AVR,071452.00,,Yaw,,Tilt,,,,0,,00*32
$GPGSA,A,3,05,07,08,09,13,14,15,18,20,30,,,0.7,0.4,0.6*3F
$GPGSA,A,3,65,71,72,73,74,75,81,82,,,,,0.7,0.4,0.6*31
$GPGSA,A,3,02,03,05,08,13,15,24,25,31,,,,0.7,0.4,0.6*3E
$GPGSA,A,3,05,07,09,21,22,36,40,42,45,60,,,0.7,0.4,0.6*3F
$GPGST,071452.00,1.708,0.443,0.315,19.223,0.431,0.332,0.707*67
$GPGBS,071452.00,3.091,2.106,4.863,72,0.0001,5.922,6.064*51
$GPGRS,071452.00,1,-0.2,0.3,-0.9,0.5,0.4,0.0,-0.1,0.4,-0.2,-0.2,,*6A
$GPGRS,071452.00,1,-3.6,-1.4,5.9,2.1,2.8,-2.7,0.0,-2.6,,,,*4F
$GPGRS,071452.00,1,-1.6,-0.3,0.2,0.0,-0.3,0.5,-0.2,-0.2,0.0,,,*48
$GPGRS,071452.00,1,1.9,1.0,-0.1,0.2,-0.2,-0.2,-1.0,-0.1,-0.2,-1.1,,*6E
$GPGSV,6,1,21,30,80,060,51,14,40,159,46,09,10,110,38,07,42,061,47*7C
$GPGSV,6,2,21,13,42,293,46,20,50,221,48,05,53,282,48,15,09,297,39*76
$GPGSV,6,3,21,18,08,331,38,11,03,222,38,27,05,029,35,08,09,060,37*70
$GPGSV,6,4,21,36,35,170,45,58,13,245,37,40,24,133,37,34,31,208,44*7C
$GPGSV,6,5,21,49,34,195,44,57,07,112,37,41,07,108,35,61,03,257,38*7F
$GPGSV,6,6,21*7A
$GLGSV,3,1,11,72,64,111,51,73,17,035,43,81,11,319,45,71,15,127,44*63
$GLGSV,3,2,11,75,56,190,53,74,61,051,46,65,50,321,49,76,00,206,*67
$GLGSV,3,3,11,66,03,312,41,82,07,003,41,88,00,271,*5C
$GAGSV,3,1,11,03,72,309,48,15,18,254,40,25,42,150,46,08,20,290,41*63
$GAGSV,3,2,11,24,44,073,46,13,19,307,40,05,50,098,46,16,51,113,*60
$GAGSV,3,3,11,09,00,105,,02,05,188,36,31,08,032,37*59
$GBGSV,6,1,21,21,64,298,51,09,15,062,38,42,15,311,41,40,18,069,41*68
$GBGSV,6,2,21,05,21,129,39,07,18,077,39,26,55,181,,10,16,113,*67
$GBGSV,6,3,21,50,39,306,,36,54,064,49,45,64,189,51,22,57,145,51*6D
$GBGSV,6,4,21,24,07,208,,02,05,108,34,06,01,065,32,19,06,135,25*63
$GBGSV,6,5,21,46,06,046,,28,04,318,,56,05,095,,58,02,038,*67
$GBGSV,6,6,21,60,07,112,41*5E
$GPGGA,071452.00,,,,,0,00,,,M,,M,,*4D
$PTNL,GGK,071452.00,010125,4742.1605017,N,01618.0999450,E,1,37,0.7,EHT751.1527,M*49
$GPGGQ,071452.00,010125,4742.1605017,N,01618.0999450,E,1,37,0.892,707.9462,M*38
$GPGFA,071452.00,4.210,5.796,0.443,0.315,19.223,0.707,,VVV*33
$GPLLK,071452.00,010125,,M,,M,1,37,0.8,,M*02
$GNGMP,071452.00,,,,,DAAA,37,0.4,,,,*53
$GPGMP,071452.00,,,,,,10,,,,3.2,136*7C
$GLGMP,071452.00,,,,,,08,,,,,*72
$GAGMP,071452.00,,,,,,09,,,,,*7E
$GBGMP,071452.00,,,,,,10,,,,,*75
$PSSN,SNC,[0,285310000,2347]*49
$GPZDA,071457.00,01,01,2025,,*63
$GPDTM,W84,,00.0000000,N,00.0000000,E,00.0000000,W84*5F
$PSSN,TFM,071457.00,,,,*6F
$GPRMC,071457.00,A,4742.1605000,N,01618.0999454,E,0.0,,010125,5.1,E,D*18
$GPGLL,4742.1605000,N,01618.0999454,E,071457.00,A,D*69
$GPGGA,071457.00,4742.1605000,N,01618.0999454,E,2,37,0.4,707.9526,M,43.2066,M,3.0,0136*4E
$GNGNS,071457.00,4742.1605000,N,01618.0999454,E,DAAA,37,0.4,707.9526,43.2066,,*55
$GPGNS,071457.00,,,,,,10,,,,3.0,136*7B
$GLGNS,071457.00,,,,,,08,,,,,*77
$GAGNS,071457.00,,,,,,09,,,,,*7B
$GBGNS,071457.00,,,,,,10,,,,,*70
$GPLLQ,071457.00,010125,,M,,M,1,37,0.905,,M*19
$GPVTG,,T,,M,0.00,N,0.00,K,D*26
$GPHDT,,T*1B
$GPTHS,,V*0E
$GPROT,,V*08
$PSSN,HRP,071457.00,010125,,,,,,,00,0,,*61
$PTNL,AVR,071457.00,,Yaw,,Tilt,,,,0,,00*37
$GPGSA,A,3,05,07,08,09,13,14,15,18,20,30,,,0.7,0.4,0.6*3F
$GPGSA,A,3,65,71,72,73,74,75,81,82,,,,,0.7,0.4,0.6*31
$GPGSA,A,3,02,03,05,08,13,15,24,25,31,,,,0.7,0.4,0.6*3E
$GPGSA,A,3,05,07,09,21,22,36,40,42,45,60,,,0.7,0.4,0.6*3F
$GPGST,071457.00,1.846,0.448,0.321,19.520,0.436,0.337,0.717*6C
$GPGBS,071457.00,2.978,2.137,4.856,72,0.0001,6.433,6.064*51
$GPGRS,071457.00,1,0.0,0.0,-0.2,-0.2,0.3,0.4,0.3,0.3,-0.3,-0.4,,*4E
$GPGRS,071457.00,1,-3.7,-1.5,6.4,2.1,3.0,-2.9,-0.8,-3.3,,,,*62
$GPGRS,071457.00,1,-1.6,-0.2,0.2,-0.1,-0.2,0.6,-0.2,-0.3,-0.2,,,*4C
$GPGRS,071457.00,1,1.7,0.4,0.3,0.2,-0.2,-0.2,-1.7,-0.7,-0.3,-1.0,,*4E
$GPGSV,6,1,21,30,80,060,51,14,40,159,46,09,10,110,38,07,42,061,47*7C
$GPGSV,6,2,21,13,42,293,47,20,50,221,48,05,53,282,48,15,09,297,40*79
$GPGSV,6,3,21,18,08,331,38,11,03,222,38,27,05,029,36,08,09,060,38*7C
$GPGSV,6,4,21,36,35,170,44,58,13,245,37,40,24,133,36,34,31,208,43*7B
$GPGSV,6,5,21,49,34,195,44,57,07,112,37,41,07,108,35,61,03,257,38*7F
$GPGSV,6,6,21*7A
$GLGSV,3,1,11,72,64,111,51,73,17,035,43,81,11,319,45,71,15,127,45*62
$GLGSV,3,2,11,75,56,190,52,74,61,051,46,65,50,321,49,76,00,206,*66
$GLGSV,3,3,11,66,03,312,44,82,07,003,42,88,00,271,*5A
$GAGSV,3,1,11,03,72,309,48,15,18,254,40,25,42,150,46,08,20,290,41*63
$GAGSV,3,2,11,24,44,073,46,13,19,307,40,05,50,098,46,16,51,113,*60
$GAGSV,3,3,11,09,00,105,,02,05,188,36,31,08,032,37*59
$GBGSV,6,1,21,21,64,298,52,09,15,062,38,42,15,311,41,40,18,069,41*6B
$GBGSV,6,2,21,05,21,129,39,07,18,077,39,26,55,181,,10,16,113,*67
$GBGSV,6,3,21,50,40,306,,36,54,064,50,45,64,189,51,22,57,145,51*6B
$GBGSV,6,4,21,24,07,208,,02,05,108,34,06,01,065,33,19,06,135,24*63
$GBGSV,6,5,21,46,06,046,,28,04,318,,56,05,095,,58,02,038,*67
$GBGSV,6,6,21,60,07,112,41*5E
$GPGGA,071457.00,,,,,0,00,,,M,,M,,*48
$PTNL,GGK,071457.00,010125,4742.1605000,N,01618.0999454,E,1,37,0.7,EHT751.1591,M*43
$GPGGQ,071457.00,010125,4742.1605000,N,01618.0999454,E,1,37,0.905,707.9526,M*31
$GPGFA,071457.00,4.260,5.882,0.448,0.321,19.520,0.717,,VVV*32
$GPLLK,071457.00,010125,,M,,M,1,37,0.8,,M*07
$GNGMP,071457.00,,,,,DAAA,37,0.4,,,,*56
$GPGMP,071457.00,,,,,,10,,,,3.0,136*7B
$GLGMP,071457.00,,,,,,08,,,,,*77
$GAGMP,071457.00,,,,,,09,,,,,*7B
$GBGMP,071457.00,,,,,,10,,,,,*70
$PSSN,SNC,[0,285315000,2347]*4C
$GPZDA,071502.00,01,01,2025,,*62
$GPDTM,W84,,00.0000000,N,00.0000000,E,00.0000000,W84*5F
$PSSN,TFM,071502.00,,,,*6E
$GPRMC,071502.00,A,4742.1604993,N,01618.0999458,E,0.0,,010125,5.1,E,D*17
$GPGLL,4742.1604993,N,01618.0999458,E,071502.00,A,D*66
$GPGGA,071502.00,4742.1604993,N,01618.0999458,E,2,37,0.4,707.9526,M,43.2066,M,1.6,0136*45
$GNGNS,071502.00,4742.1604993,N,01618.0999458,E,DAAA,37,0.4,707.9526,43.2066,,*5A
$GPGNS,071502.00,,,,,,10,,,,1.6,136*7E
$GLGNS,071502.00,,,,,,08,,,,,*76
$GAGNS,071502.00,,,,,,09,,,,,*7A
$GBGNS,071502.00,,,,,,10,,,,,*71
$GPLLQ,071502.00,010125,,M,,M,1,37,0.903,,M*1E
$GPVTG,,T,,M,0.00,N,0.00,K,D*26
$GPHDT,,T*1B
$GPTHS,,V*0E
$GPROT,,V*08
$PSSN,HRP,071502.00,010125,,,,,,,00,0,,*60
$PTNL,AVR,071502.00,,Yaw,,Tilt,,,,0,,00*36
$GPGSA,A,3,05,07,08,09,13,14,15,18,20,30,,,0.7,0.4,0.6*3F
$GPGSA,A,3,65,71,72,73,74,75,81,82,,,,,0.7,0.4,0.6*31
$GPGSA,A,3,02,03,05,08,13,15,24,25,31,,,,0.7,0.4,0.6*3E
$GPGSA,A,3,05,07,09,21,22,36,40,42,45,60,,,0.7,0.4,0.6*3F
$GPGST,071502.00,1.779,0.443,0.318,19.685,0.430,0.334,0.720*62
$GPGBS,071502.00,2.990,2.160,4.759,72,0.0001,5.603,6.065*57
$GPGRS,071502.00,1,-0.3,0.1,-0.1,-0.6,0.6,0.3,0.2,0.3,-0.3,-0.2,,*62
$GPGRS,071502.00,1,-3.9,-1.1,5.6,1.9,2.9,-3.1,-0.4,-3.3,,,,*6E
$GPGRS,071502.00,1,-1.5,-0.1,0.5,-0.2,0.5,0.4,-0.2,-0.3,-0.1,,,*62
$GPGRS,071502.00,1,1.8,0.9,0.8,0.2,-0.1,-0.3,-2.0,-0.0,-0.2,-1.2,,*44
$GPGSV,6,1,21,30,80,060,50,14,40,159,47,09,10,110,38,07,42,061,47*7C
$GPGSV,6,2,21,13,42,293,47,20,50,221,48,05,53,282,48,15,09,297,39*77
$GPGSV,6,3,21,18,08,331,38,11,03,222,39,27,05,029,35,08,10,060,39*77
$GPGSV,6,4,21,36,35,170,44,58,13,245,36,40,24,133,37,34,31,208,43*7B
$GPGSV,6,5,21,49,34,195,44,57,07,112,37,41,07,108,35,61,03,257,38*7F
$GPGSV,6,6,21*7A
$GLGSV,3,1,11,72,64,111,51,73,17,035,43,81,11,319,45,71,15,127,45*62
$GLGSV,3,2,11,75,56,191,52,74,61,051,46,65,50,321,48,76,01,206,*67
$GLGSV,3,3,11,66,03,312,39,82,07,003,41,88,00,271,*53
$GAGSV,3,1,11,03,72,309,49,15,18,254,40,25,42,150,47,08,20,291,41*62
$GAGSV,3,2,11,24,44,073,46,13,19,307,40,05,50,098,46,16,51,113,*60
$GAGSV,3,3,11,09,00,105,,02,05,188,36,31,08,032,37*59
$GBGSV,6,1,21,21,64,298,52,09,15,062,38,42,15,311,41,40,18,069,41*6B
$GBGSV,6,2,21,05,21,129,39,07,18,077,40,26,55,181,,10,16,113,*69
$GBGSV,6,3,21,50,40,306,,36,54,064,50,45,64,189,51,22,57,145,51*6B
$GBGSV,6,4,21,24,08,208,,02,05,108,34,06,01,065,34,19,06,135,23*6C
$GBGSV,6,5,21,46,06,046,,28,04,318,,56,05,095,,58,02,038,*67
$GBGSV,6,6,21,60,07,112,41*5E
$GPGGA,071502.00,,,,,0,00,,,M,,M,,*49
$PTNL,GGK,071502.00,010125,4742.1604993,N,01618.0999458,E,1,37,0.7,EHT751.1592,M*4F
$GPGGQ,071502.00,010125,4742.1604993,N,01618.0999458,E,1,37,0.903,707.9526,M*38
$GPGFA,071502.00,4.209,5.902,0.443,0.318,19.685,0.720,,VVV*3C
$GPLLK,071502.00,010125,,M,,M,1,37,0.8,,M*06
$GNGMP,071502.00,,,,,DAAA,37,0.4,,,,*57
$GPGMP,071502.00,,,,,,10,,,,1.6,136*7E
$GLGMP,071502.00,,,,,,08,,,,,*76
$GAGMP,071502.00,,,,,,09,,,,,*7A
$GBGMP,071502.00,,,,,,10,,,,,*71
$PSSN,SNC,[0,285320000,2347]*4A
$GPZDA,071507.00,01,01,2025,,*67
$GPDTM,W84,,00.0000000,N,00.0000000,E,00.0000000,W84*5F
$PSSN,TFM,071507.00,,,,*6B
$GPRMC,071507.00,A,4742.1604991,N,01618.0999486,E,0.0,,010125,5.1,E,D*13
$GPGLL,4742.1604991,N,01618.0999486,E,071507.00,A,D*62
$GPGGA,071507.00,4742.1604991,N,01618.0999486,E,2,37,0.4,707.9526,M,43.2066,M,2.2,0136*46
$GNGNS,071507.00,4742.1604991,N,01618.0999486,E,DAAA,37,0.4,707.9526,43.2066,,*5E
$GPGNS,071507.00,,,,,,10,,,,2.2,136*7C
$GLGNS,071507.00,,,,,,08,,,,,*73
$GAGNS,071507.00,,,,,,09,,,,,*7F
$GBGNS,071507.00,,,,,,10,,,,,*74
$GPLLQ,071507.00,010125,,M,,M,1,37,0.894,,M*14
$GPVTG,,T,,M,0.00,N,0.00,K,D*26
$GPHDT,,T*1B
$GPTHS,,V*0E
$GPROT,,V*08
$PSSN,HRP,071507.00,010125,,,,,,,00,0,,*65
$PTNL,AVR,071507.00,,Yaw,,Tilt,,,,0,,00*33
$GPGSA,A,3,05,07,08,09,13,14,15,18,20,30,,,0.7,0.4,0.6*3F
$GPGSA,A,3,65,71,72,73,74,75,81,82,,,,,0.7,0.4,0.6*31
$GPGSA,A,3,02,03,05,08,13,15,24,25,31,,,,0.7,0.4,0.6*3E
$GPGSA,A,3,05,07,09,21,22,36,40,42,45,60,,,0.7,0.4,0.6*3F
$GPGST,071507.00,1.768,0.439,0.313,19.944,0.426,0.330,0.713*60
$GPGBS,071507.00,3.033,2.117,4.814,72,0.0001,5.647,6.065*55
$GPGRS,071507.00,1,0.1,0.1,-0.8,-0.5,0.3,0.2,-0.2,0.1,-0.1,-0.3,,*6A
$GPGRS,071507.00,1,-3.5,-1.2,5.6,1.3,2.9,-2.8,-0.7,-4.0,,,,*61
$GPGRS,071507.00,1,-1.5,-0.2,0.5,-0.1,-0.2,0.1,-0.3,-0.2,-0.2,,,*4B
$GPGRS,071507.00,1,2.1,0.4,-0.1,0.2,-0.1,-0.5,-1.9,-0.1,-0.1,-1.1,,*6F
$GPGSV,6,1,21,30,80,060,50,14,40,159,47,09,10,110,38,07,42,061,46*7D
$GPGSV,6,2,21,13,42,293,46,20,50,221,48,05,53,282,47,15,09,297,40*77
$GPGSV,6,3,21,18,08,331,38,11,03,222,38,27,05,029,36,08,10,060,39*75
$GPGSV,6,4,21,36,35,170,44,58,13,245,36,40,24,133,36,34,31,208,43*7A
$GPGSV,6,5,21,49,34,195,44,57,07,112,37,41,07,108,35,61,03,257,38*7F
$GPGSV,6,6,21*7A
$GLGSV,3,1,11,72,64,111,51,73,17,035,43,81,11,319,44,71,15,127,45*63
$GLGSV,3,2,11,75,56,191,52,74,61,051,46,65,50,322,48,76,01,206,*64
$GLGSV,3,3,11,66,03,312,42,82,07,003,41,88,00,271,*5F
$GAGSV,3,1,11,03,72,309,49,15,18,254,41,25,42,150,46,08,21,291,41*63
$GAGSV,3,2,11,24,44,073,46,13,19,307,40,05,50,098,46,16,51,113,*60
$GAGSV,3,3,11,09,00,105,,02,05,188,36,31,08,032,37*59
$GBGSV,6,1,21,21,65,298,52,09,15,062,38,42,15,311,41,40,18,069,41*6A
$GBGSV,6,2,21,05,21,129,39,07,19,077,39,26,55,181,,10,16,113,*66
$GBGSV,6,3,21,50,40,306,,36,54,064,49,22,57,145,51,45,64,189,51*63
$GBGSV,6,4,21,24,08,208,,02,05,108,34,06,01,065,33,28,04,318,*67
$GBGSV,6,5,21,46,06,046,,19,06,135,20,56,05,095,,58,01,038,*6B
$GBGSV,6,6,21,60,07,112,41*5E
$GPGGA,071507.00,,,,,0,00,,,M,,M,,*4C
$PTNL,GGK,071507.00,010125,4742.1604991,N,01618.0999486,E,1,37,0.7,EHT751.1592,M*4B
$GPGGQ,071507.00,010125,4742.1604991,N,01618.0999486,E,1,37,0.894,707.9526,M*33
$GPGFA,071507.00,4.176,5.849,0.439,0.313,19.944,0.713,,VVV*38
$GPLLK,071507.00,010125,,M,,M,1,37,0.8,,M*03
$GNGMP,071507.00,,,,,DAAA,37,0.4,,,,*52
$GPGMP,071507.00,,,,,,10,,,,2.2,136*7C
$GLGMP,071507.00,,,,,,08,,,,,*73
$GAGMP,071507.00,,,,,,09,,,,,*7F
$GBGMP,071507.00,,,,,,10,,,,,*74
$PSSN,SNC,[0,285325000,2347]*4F
$GPZDA,071512.00,01,01,2025,,*63
$GPDTM,W84,,00.0000000,N,00.0000000,E,00.0000000,W84*5F
$PSSN,TFM,071512.00,,,,*6F
$GPRMC,071512.00,A,4742.1605007,N,01618.0999486,E,0.0,,010125,5.1,E,D*10
$GPGLL,4742.1605007,N,01618.0999486,E,071512.00,A,D*61
$GPGGA,071512.00,4742.1605007,N,01618.0999486,E,2,37,0.4,707.9514,M,43.2066,M,3.2,0136*45
$GNGNS,071512.00,4742.1605007,N,01618.0999486,E,DAAA,37,0.4,707.9514,43.2066,,*5C
$GPGNS,071512.00,,,,,,10,,,,3.2,136*79
$GLGNS,071512.00,,,,,,08,,,,,*77
$GAGNS,071512.00,,,,,,09,,,,,*7B
$GBGNS,071512.00,,,,,,10,,,,,*70
$GPLLQ,071512.00,010125,,M,,M,1,37,0.895,,M*11
$GPVTG,,T,,M,0.00,N,0.00,K,D*26
$GPHDT,,T*1B
$GPTHS,,V*0E
$GPROT,,V*08
$PSSN,HRP,071512.00,010125,,,,,,,00,0,,*61
$PTNL,AVR,071512.00,,Yaw,,Tilt,,,,0,,00*37
$GPGSA,A,3,05,07,08,09,13,14,15,18,20,30,,,0.7,0.4,0.6*3F
$GPGSA,A,3,65,71,72,73,74,75,81,82,,,,,0.7,0.4,0.6*31
$GPGSA,A,3,02,03,05,08,13,15,24,25,31,,,,0.7,0.4,0.6*3E
$GPGSA,A,3,05,07,09,21,22,36,40,42,45,60,,,0.7,0.4,0.6*3F
$GPGST,071512.00,1.710,0.444,0.316,19.686,0.431,0.333,0.710*63
$GPGBS,071512.00,3.076,2.140,4.865,72,0.0001,5.735,6.065*50
$GPGRS,071512.00,1,-0.0,0.0,-0.6,0.0,0.2,0.2,-0.4,0.2,0.3,-0.2,,*4F
$GPGRS,071512.00,1,-3.3,-1.6,5.7,2.1,2.7,-2.8,-0.9,-3.2,,,,*62
$GPGRS,071512.00,1,-1.4,-0.4,0.3,0.0,-0.3,0.5,-0.1,-0.2,-0.4,,,*63
$GPGRS,071512.00,1,1.8,0.4,-0.0,0.3,-0.1,-0.3,-1.7,-0.2,0.0,-0.9,,*4F
$GPGSV,6,1,21,30,80,060,50,14,40,159,46,09,10,110,38,07,42,061,47*7D
$GPGSV,6,2,21,13,42,293,46,20,50,221,48,05,53,282,47,15,09,297,40*77
$GPGSV,6,3,21,18,08,331,39,11,03,222,38,27,05,029,36,08,10,060,39*74
$GPGSV,6,4,21,36,35,170,44,58,13,245,36,40,24,133,36,34,31,208,43*7A
$GPGSV,6,5,21,49,34,195,44,57,07,112,37,41,07,108,35,61,03,257,38*7F
$GPGSV,6,6,21*7A
$GLGSV,3,1,11,72,64,111,51,73,17,035,43,81,11,319,44,71,15,127,44*62
$GLGSV,3,2,11,75,56,191,52,74,61,051,46,65,50,322,48,76,01,206,*64
$GLGSV,3,3,11,66,03,312,41,82,07,003,42,88,00,271,*5F
$GAGSV,3,1,11,03,72,309,49,15,18,254,40,25,42,150,46,08,21,291,41*62
$GAGSV,3,2,11,24,44,073,46,13,19,307,39,05,50,098,46,16,51,113,*6E
$GAGSV,3,3,11,09,00,105,,02,05,188,36,31,08,032,37*59
$GBGSV,6,1,21,21,65,298,52,09,15,062,38,42,15,311,41,40,18,069,41*6A
$GBGSV,6,2,21,05,21,129,39,07,19,077,39,26,55,181,,10,16,113,*66
$GBGSV,6,3,21,50,40,306,,36,54,064,50,22,57,145,51,45,64,189,51*6B
$GBGSV,6,4,21,24,08,208,,02,05,108,34,06,01,065,33,28,04,317,*68
$GBGSV,6,5,21,46,06,046,,19,06,135,28,56,05,095,,58,01,038,*63
$GBGSV,6,6,21,60,07,112,41*5E
$GPGGA,071512.00,,,,,0,00,,,M,,M,,*48
$PTNL,GGK,071512.00,010125,4742.1605007,N,01618.0999486,E,1,37,0.7,EHT751.1580,M*4B
$GPGGQ,071512.00,010125,4742.1605007,N,01618.0999486,E,1,37,0.895,707.9514,M*30
$GPGFA,071512.00,4.220,5.823,0.444,0.316,19.686,0.710,,VVV*3D
$GPLLK,071512.00,010125,,M,,M,1,37,0.8,,M*07
$GNGMP,071512.00,,,,,DAAA,37,0.4,,,,*56
$GPGMP,071512.00,,,,,,10,,,,3.2,136*79
$GLGMP,071512.00,,,,,,08,,,,,*77
$GAGMP,071512.00,,,,,,09,,,,,*7B
$GBGMP,071512.00,,,,,,10,,,,,*70
$PSSN,SNC,[0,285330000,2347]*4B
$GPZDA,071517.00,01,01,2025,,*66
$GPDTM,W84,,00.0000000,N,00.0000000,E,00.0000000,W84*5F
$PSSN,TFM,071517.00,,,,*6A
$GPRMC,071517.00,A,4742.1605011,N,01618.0999500,E,0.0,,010125,5.1,E,D*1D
$GPGLL,4742.1605011,N,01618.0999500,E,071517.00,A,D*6C
$GPGGA,071517.00,4742.1605011,N,01618.0999500,E,2,37,0.4,707.9485,M,43.2066,M,3.0,0136*43
$GNGNS,071517.00,4742.1605011,N,01618.0999500,E,DAAA,37,0.4,707.9485,43.2066,,*58
$GPGNS,071517.00,,,,,,10,,,,3.0,136*7E
$GLGNS,071517.00,,,,,,08,,,,,*72
$GAGNS,071517.00,,,,,,09,,,,,*7E
$GBGNS,071517.00,,,,,,10,,,,,*75
$GPLLQ,071517.00,010125,,M,,M,1,37,0.905,,M*1C
$GPVTG,,T,,M,0.00,N,0.00,K,D*26
$GPHDT,,T*1B
$GPTHS,,V*0E
$GPROT,,V*08
$PSSN,HRP,071517.00,010125,,,,,,,00,0,,*64
$PTNL,AVR,071517.00,,Yaw,,Tilt,,,,0,,00*32
$GPGSA,A,3,05,07,08,09,13,14,15,18,20,30,,,0.7,0.4,0.6*3F
$GPGSA,A,3,65,71,72,73,74,75,81,82,,,,,0.7,0.4,0.6*31
$GPGSA,A,3,02,03,05,08,13,15,24,25,31,,,,0.7,0.4,0.6*3E
$GPGSA,A,3,05,07,09,21,22,36,40,42,45,60,,,0.7,0.4,0.6*3F
$GPGST,071517.00,1.784,0.448,0.321,19.450,0.435,0.337,0.718*62
$GPGBS,071517.00,2.967,2.133,4.862,72,0.0001,6.012,6.065*5F
$GPGRS,071517.00,1,0.1,0.1,-0.2,0.2,0.0,-0.1,-0.6,0.3,-0.1,0.0,,*4E
$GPGRS,071517.00,1,-3.1,-1.6,6.0,2.9,3.4,-2.8,-0.1,-2.6,,,,*66
$GPGRS,071517.00,1,-1.4,-0.2,0.5,0.0,-0.3,0.7,-0.1,0.2,-0.3,,,*4E
$GPGRS,071517.00,1,2.2,-0.1,0.2,0.4,0.1,-0.2,-1.8,-0.3,0.2,-0.9,,*63
$GPGSV,6,1,21,30,80,060,50,14,40,159,45,09,10,110,39,07,42,061,47*7F
$GPGSV,6,2,21,13,42,293,46,20,50,221,48,05,53,282,48,15,09,297,39*76
$GPGSV,6,3,21,18,08,331,39,11,03,222,38,27,05,029,36,08,10,060,38*75
$GPGSV,6,4,21,36,35,170,44,58,13,245,36,40,24,133,36,34,31,208,43*7A
$GPGSV,6,5,21,49,34,195,44,57,07,112,37,41,07,108,35,61,03,257,38*7F
$GPGSV,6,6,21*7A
$GLGSV,3,1,11,72,64,111,51,73,17,035,43,81,11,319,44,71,15,127,44*62
$GLGSV,3,2,11,75,56,191,52,74,61,051,46,65,50,322,48,76,01,206,*64
$GLGSV,3,3,11,66,03,312,41,82,07,003,41,88,00,271,*5C
$GAGSV,3,1,11,03,72,309,48,15,18,254,40,25,42,150,46,08,21,291,41*63
$GAGSV,3,2,11,24,44,073,46,13,19,307,39,05,50,098,46,16,51,113,*6E
$GAGSV,3,3,11,09,00,105,,02,05,188,36,31,08,032,37*59
$GBGSV,6,1,21,21,65,298,52,09,15,062,38,42,15,311,41,40,18,069,41*6A
$GBGSV,6,2,21,05,21,129,39,07,19,077,39,26,55,181,,10,17,113,*67
$GBGSV,6,3,21,50,40,306,,36,54,064,49,22,57,145,51,45,64,189,51*63
$GBGSV,6,4,21,24,08,208,,02,05,108,34,06,01,065,33,28,04,317,*68
$GBGSV,6,5,21,46,06,046,,19,06,135,27,56,05,095,,58,01,038,*6C
$GBGSV,6,6,21,60,07,112,41*5E
$GPGGA,071517.00,,,,,0,00,,,M,,M,,*4D
$PTNL,GGK,071517.00,010125,4742.1605011,N,01618.0999500,E,1,37,0.7,EHT751.1551,M*4A
$GPGGQ,071517.00,010125,4742.1605011,N,01618.0999500,E,1,37,0.905,707.9485,M*3C
$GPGFA,071517.00,4.257,5.886,0.448,0.321,19.450,0.718,,VVV*3E
$GPLLK,071517.00,010125,,M,,M,1,37,0.8,,M*02
$GNGMP,071517.00,,,,,DAAA,37,0.4,,,,*53
$GPGMP,071517.00,,,,,,10,,,,3.0,136*7E
$GLGMP,071517.00,,,,,,08,,,,,*72
$GAGMP,071517.00,,,,,,09,,,,,*7E
$GBGMP,071517.00,,,,,,10,,,,,*75
$PSSN,SNC,[0,285335000,2347]*4E
$GPZDA,071522.00,01,01,2025,,*60
$GPDTM,W84,,00.0000000,N,00.0000000,E,00.0000000,W84*5F
$PSSN,TFM,071522.00,,,,*6C
$GPRMC,071522.00,A,4742.1604999,N,01618.0999479,E,0.0,,010125,5.1,E,D*1C
$GPGLL,4742.1604999,N,01618.0999479,E,071522.00,A,D*6D
$GPGGA,071522.00,4742.1604999,N,01618.0999479,E,2,37,0.4,707.9466,M,43.2066,M,1.6,0136*4B
$GNGNS,071522.00,4742.1604999,N,01618.0999479,E,DAAA,37,0.4,707.9466,43.2066,,*54
$GPGNS,071522.00,,,,,,10,,,,1.6,136*7C
$GLGNS,071522.00,,,,,,08,,,,,*74
$GAGNS,071522.00,,,,,,09,,,,,*78
$GBGNS,071522.00,,,,,,10,,,,,*73
$GPLLQ,071522.00,010125,,M,,M,1,37,0.903,,M*1C
$GPVTG,,T,,M,0.00,N,0.00,K,D*26
$GPHDT,,T*1B
$GPTHS,,V*0E
$GPROT,,V*08
$PSSN,HRP,071522.00,010125,,,,,,,00,0,,*62
$PTNL,AVR,071522.00,,Yaw,,Tilt,,,,0,,00*34
$GPGSA,A,3,05,07,08,09,13,14,15,18,20,30,,,0.7,0.4,0.6*3F
$GPGSA,A,3,65,71,72,73,74,75,81,82,,,,,0.7,0.4,0.6*31
$GPGSA,A,3,02,03,05,08,13,15,24,25,31,,,,0.7,0.4,0.6*3E
$GPGSA,A,3,05,07,09,21,22,36,40,42,45,60,,,0.7,0.4,0.6*3F
$GPGST,071522.00,1.874,0.442,0.318,19.624,0.430,0.334,0.720*68
$GPGBS,071522.00,2.981,2.159,4.765,72,0.0001,5.953,6.065*5A
$GPGRS,071522.00,1,0.0,0.2,-1.2,0.1,-0.1,0.2,-0.5,0.6,-0.0,0.0,,*4D
$GPGRS,071522.00,1,-3.5,-2.2,6.0,2.7,3.1,-2.9,0.5,-3.3,,,,*44
$GPGRS,071522.00,1,-1.5,-0.1,0.9,0.2,-0.2,0.8,-0.3,-0.0,-0.1,,,*65
$GPGRS,071522.00,1,2.3,-0.6,0.1,0.5,-0.0,-0.1,-1.8,-0.2,0.0,-0.8,,*4C
$GPGSV,6,1,21,30,80,060,50,14,40,159,46,13,42,293,46,07,42,061,46*71
$GPGSV,6,2,21,20,50,221,48,05,53,282,47,09,10,110,38,15,09,297,40*7A
$GPGSV,6,3,21,18,08,331,39,11,03,222,38,27,05,029,36,08,10,060,37*7A
$GPGSV,6,4,21,36,35,170,44,58,13,245,36,40,24,133,36,34,31,208,43*7A
$GPGSV,6,5,21,49,34,195,44,57,07,112,37,41,07,108,35,61,03,257,38*7F
$GPGSV,6,6,21*7A
$GLGSV,3,1,11,72,64,111,51,73,17,035,43,81,11,319,44,71,15,127,43*65
$GLGSV,3,2,11,75,56,191,52,74,61,051,46,65,51,322,49,76,01,206,*64
$GLGSV,3,3,11,66,03,312,39,82,07,003,41,88,00,271,*53
$GAGSV,3,1,11,03,72,309,48,15,18,254,40,25,42,150,46,08,21,291,41*63
$GAGSV,3,2,11,24,44,073,46,13,19,307,39,05,50,098,46,16,51,113,*6E
$GAGSV,3,3,11,09,00,106,,02,05,188,36,31,08,032,37*5A
$GBGSV,6,1,21,21,65,298,52,09,15,062,38,42,15,311,41,40,18,069,41*6A
$GBGSV,6,2,21,05,21,129,39,07,19,077,39,26,55,181,,10,17,113,*67
$GBGSV,6,3,21,50,40,306,,36,54,064,49,22,57,145,51,45,64,189,51*63
$GBGSV,6,4,21,24,08,208,,02,05,108,34,06,01,065,33,28,04,317,*68
$GBGSV,6,5,21,46,06,046,,19,06,135,27,56,05,095,,58,01,038,*6C
$GBGSV,6,6,21,60,07,112,41*5E
$GPGGA,071522.00,,,,,0,00,,,M,,M,,*4B
$PTNL,GGK,071522.00,010125,4742.1604999,N,01618.0999479,E,1,37,0.7,EHT751.1531,M*4D
$GPGGQ,071522.00,010125,4742.1604999,N,01618.0999479,E,1,37,0.903,707.9466,M*36
$GPGFA,071522.00,4.207,5.908,0.442,0.318,19.624,0.720,,VVV*30
$GPLLK,071522.00,010125,,M,,M,1,37,0.8,,M*04
$GNGMP,071522.00,,,,,DAAA,37,0.4,,,,*55
$GPGMP,071522.00,,,,,,10,,,,1.6,136*7C
$GLGMP,071522.00,,,,,,08,,,,,*74
$GAGMP,071522.00,,,,,,09,,,,,*78
$GBGMP,071522.00,,,,,,10,,,,,*73
$PSSN,SNC,[0,285340000,2347]*4C
$GPZDA,071527.00,01,01,2025,,*65
$GPDTM,W84,,00.0000000,N,00.0000000,E,00.0000000,W84*5F
$PSSN,TFM,071527.00,,,,*69
$GPRMC,071527.00,A,4742.1605014,N,01618.0999491,E,0.0,,010125,5.1,E,D*12
$GPGLL,4742.1605014,N,01618.0999491,E,071527.00,A,D*63
$GPGGA,071527.00,4742.1605014,N,01618.0999491,E,2,37,0.4,707.9481,M,43.2066,M,2.2,0136*4B
$GNGNS,071527.00,4742.1605014,N,01618.0999491,E,DAAA,37,0.4,707.9481,43.2066,,*53
$GPGNS,071527.00,,,,,,10,,,,2.2,136*7E
$GLGNS,071527.00,,,,,,08,,,,,*71
$GAGNS,071527.00,,,,,,09,,,,,*7D
$GBGNS,071527.00,,,,,,10,,,,,*76
$GPLLQ,071527.00,010125,,M,,M,1,37,0.895,,M*17
$GPVTG,,T,,M,0.00,N,0.00,K,D*26
$GPHDT,,T*1B
$GPTHS,,V*0E
$GPROT,,V*08
$PSSN,HRP,071527.00,010125,,,,,,,00,0,,*67
$PTNL,AVR,071527.00,,Yaw,,Tilt,,,,0,,00*31
$GPGSA,A,3,05,07,08,09,13,14,15,18,20,30,,,0.7,0.4,0.6*3F
$GPGSA,A,3,65,71,72,73,74,75,81,82,,,,,0.7,0.4,0.6*31
$GPGSA,A,3,02,03,05,08,13,15,24,25,31,,,,0.7,0.4,0.6*3E
$GPGSA,A,3,05,07,09,21,22,36,40,42,45,60,,,0.7,0.4,0.6*3F
$GPGST,071527.00,1.783,0.439,0.313,19.856,0.426,0.330,0.714*62
$GPGBS,071527.00,3.024,2.114,4.821,72,0.0001,5.597,6.065*5A
$GPGRS,071527.00,1,-0.1,0.0,-1.2,-0.7,0.4,0.3,0.1,-0.2,-0.0,-0.2,,*4B
$GPGRS,071527.00,1,-2.9,-2.7,5.6,2.2,3.1,-2.9,0.3,-3.1,,,,*4D
$GPGRS,071527.00,1,-1.5,-0.2,0.8,-0.2,0.2,0.8,-0.4,-0.0,0.0,,,*49
$GPGRS,071527.00,1,2.4,0.2,0.1,0.4,-0.0,-0.3,-1.7,-0.1,0.0,-0.9,,*69
$GPGSV,6,1,21,30,80,060,50,14,40,159,46,13,42,293,46,07,42,061,47*70
$GPGSV,6,2,21,20,50,221,47,05,53,282,48,09,10,110,38,15,09,297,39*74
$GPGSV,6,3,21,18,08,331,38,11,03,222,38,27,05,029,36,08,10,060,38*74
$GPGSV,6,4,21,36,35,170,44,58,13,245,36,40,24,133,36,34,31,208,43*7A
$GPGSV,6,5,21,49,34,195,44,57,07,112,37,41,07,108,35,61,03,257,38*7F
$GPGSV,6,6,21*7A
$GLGSV,3,1,11,72,64,111,51,73,17,035,43,81,11,319,44,71,15,127,43*65
$GLGSV,3,2,11,75,56,191,52,74,61,051,46,65,51,322,49,76,01,206,*64
$GLGSV,3,3,11,66,03,312,44,82,07,003,41,88,00,271,*59
$GAGSV,3,1,11,03,72,309,48,15,18,254,40,25,42,150,47,08,21,291,41*62
$GAGSV,3,2,11,24,44,073,46,13,19,307,40,05,50,098,46,16,51,113,*60
$GAGSV,3,3,11,09,00,106,,02,05,188,36,31,08,032,37*5A
$GBGSV,6,1,21,21,65,298,52,09,15,062,38,42,15,311,42,40,18,069,41*69
$GBGSV,6,2,21,05,21,129,39,07,19,077,39,26,55,181,,10,17,113,*67
$GBGSV,6,3,21,50,40,306,,36,54,064,49,22,57,145,51,45,64,189,51*63
$GBGSV,6,4,21,24,08,208,,02,05,108,34,06,01,065,33,28,04,317,*68
$GBGSV,6,5,21,46,06,046,,19,06,135,26,56,05,095,,58,01,038,*6D
$GBGSV,6,6,21,60,07,112,41*5E
$GPGGA,071527.00,,,,,0,00,,,M,,M,,*4E
$PTNL,GGK,071527.00,010125,4742.1605014,N,01618.0999491,E,1,37,0.7,EHT751.1547,M*42
$GPGGQ,071527.00,010125,4742.1605014,N,01618.0999491,E,1,37,0.895,707.9481,M*3F
$GPGFA,071527.00,4.175,5.857,0.439,0.313,19.856,0.714,,VVV*33
$GPLLK,071527.00,010125,,M,,M,1,37,0.8,,M*01
$GNGMP,071527.00,,,,,DAAA,37,0.4,,,,*50
$GPGMP,071527.00,,,,,,10,,,,2.2,136*7E
$GLGMP,071527.00,,,,,,08,,,,,*71
$GAGMP,071527.00,,,,,,09,,,,,*7D
$GBGMP,071527.00,,,,,,10,,,,,*76
$PSSN,SNC,[0,285345000,2347]*49
$GPZDA,071532.00,01,01,2025,,*61
$GPDTM,W84,,00.0000000,N,00.0000000,E,00.0000000,W84*5F
$PSSN,TFM,071532.00,,,,*6D
$GPRMC,071532.00,A,4742.1605013,N,01618.0999507,E,0.0,,010125,5.1,E,D*1F
$GPGLL,4742.1605013,N,01618.0999507,E,071532.00,A,D*6E
$GPGGA,071532.00,4742.1605013,N,01618.0999507,E,2,37,0.4,707.9465,M,43.2066,M,3.2,0136*4D
$GNGNS,071532.00,4742.1605013,N,01618.0999507,E,DAAA,37,0.4,707.9465,43.2066,,*54
$GPGNS,071532.00,,,,,,10,,,,3.2,136*7B
$GLGNS,071532.00,,,,,,08,,,,,*75
$GAGNS,071532.00,,,,,,09,,,,,*79
$GBGNS,071532.00,,,,,,10,,,,,*72
$GPLLQ,071532.00,010125,,M,,M,1,37,0.896,,M*10
$GPVTG,,T,,M,0.00,N,0.01,K,D*27
$GPHDT,,T*1B
$GPTHS,,V*0E
$GPROT,,V*08
$PSSN,HRP,071532.00,010125,,,,,,,00,0,,*63
$PTNL,AVR,071532.00,,Yaw,,Tilt,,,,0,,00*35
$GPGSA,A,3,05,07,08,09,13,14,15,18,20,30,,,0.7,0.4,0.6*3F
$GPGSA,A,3,65,71,72,73,74,75,81,82,,,,,0.7,0.4,0.6*31
$GPGSA,A,3,02,03,05,08,13,15,24,25,31,,,,0.7,0.4,0.6*3E
$GPGSA,A,3,05,07,09,21,22,36,40,42,45,60,,,0.7,0.4,0.6*3F
$GPGST,071532.00,1.788,0.444,0.317,19.624,0.431,0.333,0.711*68
$GPGBS,071532.00,3.068,2.139,4.873,72,0.0001,6.081,6.065*5F
$GPGRS,071532.00,1,-0.1,0.2,0.2,-0.3,0.5,0.0,0.0,-0.4,-0.1,-0.2,,*61
$GPGRS,071532.00,1,-2.5,-1.8,6.1,2.6,3.3,-3.0,-0.5,-3.4,,,,*6D
$GPGRS,071532.00,1,-1.2,-0.2,0.7,0.1,-0.1,0.3,-0.4,-0.1,-0.0,,,*62
$GPGRS,071532.00,1,2.0,-0.1,0.9,0.3,-0.1,-0.4,-1.5,-0.6,0.0,-0.7,,*45
$GPGSV,6,1,21,30,80,060,50,14,40,159,46,13,42,293,46,07,42,061,47*70
$GPGSV,6,2,21,20,50,221,48,05,53,281,47,09,10,110,38,15,09,297,39*77
$GPGSV,6,3,21,18,08,331,39,11,03,222,38,27,05,029,36,08,10,060,37*7A
$GPGSV,6,4,21,36,35,170,45,58,13,245,36,40,24,133,37,34,31,208,43*7A
$GPGSV,6,5,21,49,34,195,44,57,07,112,37,41,07,108,35,61,03,257,38*7F
$GPGSV,6,6,21*7A
$GLGSV,3,1,11,72,64,111,51,73,17,035,44,81,11,319,45,71,15,127,44*64
$GLGSV,3,2,11,75,56,191,52,74,61,051,46,65,51,322,49,76,01,206,*64
$GLGSV,3,3,11,66,03,312,40,82,07,003,41,88,00,271,*5D
$GAGSV,3,1,11,03,72,309,48,15,18,254,41,25,43,150,47,08,21,291,41*62
$GAGSV,3,2,11,24,44,073,46,13,19,307,39,05,50,098,46,16,51,113,*6E
$GAGSV,3,3,11,09,00,106,,02,06,188,36,31,08,032,37*59
$GBGSV,6,1,21,21,65,298,52,09,15,062,38,42,15,311,41,40,18,069,41*6A
$GBGSV,6,2,21,05,21,129,39,07,19,077,38,26,55,181,,10,17,113,*66
$GBGSV,6,3,21,50,40,306,,36,54,064,49,22,57,145,51,45,64,189,51*63
$GBGSV,6,4,21,24,08,208,,02,05,108,34,06,01,065,32,28,04,317,*69
$GBGSV,6,5,21,46,06,046,,19,06,135,27,56,05,095,,58,01,038,*6C
$GBGSV,6,6,21,60,07,112,41*5E
$GPGGA,071532.00,,,,,0,00,,,M,,M,,*4A
$PTNL,GGK,071532.00,010125,4742.1605013,N,01618.0999507,E,1,37,0.7,EHT751.1530,M*4F
$GPGGQ,071532.00,010125,4742.1605013,N,01618.0999507,E,1,37,0.896,707.9465,M*3B
$GPGFA,071532.00,4.218,5.832,0.444,0.317,19.624,0.711,,VVV*3C
$GPLLK,071532.00,010125,,M,,M,1,37,0.8,,M*05
$GNGMP,071532.00,,,,,DAAA,37,0.4,,,,*54
$GPGMP,071532.00,,,,,,10,,,,3.2,136*7B
$GLGMP,071532.00,,,,,,08,,,,,*75
$GAGMP,071532.00,,,,,,09,,,,,*79
$GBGMP,071532.00,,,,,,10,,,,,*72
$PSSN,SNC,[0,285350000,2347]*4D
$GPZDA,071537.00,01,01,2025,,*64
$GPDTM,W84,,00.0000000,N,00.0000000,E,00.0000000,W84*5F
$PSSN,TFM,071537.00,,,,*68
$GPRMC,071537.00,A,4742.1604991,N,01618.0999534,E,0.0,,010125,5.1,E,D*18
$GPGLL,4742.1604991,N,01618.0999534,E,071537.00,A,D*69
$GPGGA,071537.00,4742.1604991,N,01618.0999534,E,2,37,0.4,707.9413,M,43.2066,M,3.0,0136*49
$GNGNS,071537.00,4742.1604991,N,01618.0999534,E,DAAA,37,0.4,707.9413,43.2066,,*52
$GPGNS,071537.00,,,,,,10,,,,3.0,136*7C
$GLGNS,071537.00,,,,,,08,,,,,*70
$GAGNS,071537.00,,,,,,09,,,,,*7C
$GBGNS,071537.00,,,,,,10,,,,,*77
$GPLLQ,071537.00,010125,,M,,M,1,37,0.905,,M*1E
$GPVTG,,T,,M,0.00,N,0.01,K,D*27
$GPHDT,,T*1B
$GPTHS,,V*0E
$GPROT,,V*08
$PSSN,HRP,071537.00,010125,,,,,,,00,0,,*66
$PTNL,AVR,071537.00,,Yaw,,Tilt,,,,0,,00*30
$GPGSA,A,3,05,07,08,09,13,14,15,18,20,30,,,0.7,0.4,0.6*3F
$GPGSA,A,3,65,71,72,73,74,75,81,82,,,,,0.7,0.4,0.6*31
$GPGSA,A,3,02,03,05,08,13,15,24,25,31,,,,0.7,0.4,0.6*3E
$GPGSA,A,3,05,07,09,21,22,36,40,42,45,60,,,0.7,0.4,0.6*3F
$GPGST,071537.00,1.838,0.447,0.321,19.386,0.435,0.337,0.719*6A
$GPGBS,071537.00,2.957,2.131,4.869,72,0.0001,6.010,6.065*55
$GPGRS,071537.00,1,-0.2,0.2,-0.6,-0.1,0.2,-0.2,0.4,0.1,0.1,-0.0,,*67
$GPGRS,071537.00,1,-3.5,-1.6,6.0,2.9,2.9,-3.0,-0.7,-3.2,,,,*66
$GPGRS,071537.00,1,-1.1,-0.4,0.7,-0.0,-0.2,0.2,-0.1,-0.2,0.0,,,*67
$GPGRS,071537.00,1,2.1,-0.6,1.2,0.1,-0.1,-0.3,-1.7,-0.7,-0.2,-1.2,,*61
$GPGSV,6,1,21,30,80,060,50,14,40,159,46,13,42,293,46,07,42,061,46*71
$GPGSV,6,2,21,20,50,221,48,05,53,281,47,09,10,110,38,15,09,297,39*77
$GPGSV,6,3,21,18,08,331,39,11,03,222,37,27,05,029,35,08,10,060,37*76
$GPGSV,6,4,21,36,35,170,44,58,13,245,36,40,24,133,37,34,31,208,43*7B
$GPGSV,6,5,21,49,34,195,44,57,07,112,37,41,07,108,35,61,03,257,38*7F
$GPGSV,6,6,21*7A
$GLGSV,3,1,11,72,64,112,51,73,17,035,44,81,11,318,44,71,14,127,43*61
$GLGSV,3,2,11,75,56,191,52,74,61,051,46,65,51,322,49,76,01,206,*64
$GLGSV,3,3,11,66,03,312,45,82,07,003,42,88,00,271,*5B
$GAGSV,3,1,11,03,72,309,49,15,18,254,40,25,43,150,47,08,21,291,41*62
$GAGSV,3,2,11,24,44,072,46,13,19,307,39,05,50,098,47,16,51,113,*6E
$GAGSV,3,3,11,09,00,106,,02,06,188,36,31,08,032,37*59
$GBGSV,6,1,21,21,65,298,52,09,15,062,38,42,15,311,41,40,18,069,41*6A
$GBGSV,6,2,21,05,21,129,39,07,19,077,38,26,55,181,,10,17,113,*66
$GBGSV,6,3,21,50,40,306,,36,54,064,49,22,57,145,51,45,64,189,51*63
$GBGSV,6,4,21,24,08,208,,02,05,108,34,06,01,065,32,28,04,317,*69
$GBGSV,6,5,21,46,06,046,,19,06,135,25,56,05,095,,58,01,038,*6E
$GBGSV,6,6,21,60,07,112,41*5E
$GPGGA,071537.00,,,,,0,00,,,M,,M,,*4F
$PTNL,GGK,071537.00,010125,4742.1604991,N,01618.0999534,E,1,37,0.7,EHT751.1479,M*44
$GPGGQ,071537.00,010125,4742.1604991,N,01618.0999534,E,1,37,0.905,707.9413,M*36
$GPGFA,071537.00,4.254,5.894,0.447,0.321,19.386,0.719,,VVV*3E
$GPLLK,071537.00,010125,,M,,M,1,37,0.8,,M*00
$GNGMP,071537.00,,,,,DAAA,37,0.4,,,,*51
$GPGMP,071537.00,,,,,,10,,,,3.0,136*7C
$GLGMP,071537.00,,,,,,08,,,,,*70
$GAGMP,071537.00,,,,,,09,,,,,*7C
$GBGMP,071537.00,,,,,,10,,,,,*77
$PSSN,SNC,[0,285355000,2347]*48
$GPZDA,071542.00,01,01,2025,,*66
$GPDTM,W84,,00.0000000,N,00.0000000,E,00.0000000,W84*5F
$PSSN,TFM,071542.00,,,,*6A
$GPRMC,071542.00,A,4742.1604981,N,01618.0999515,E,0.0,,010125,5.1,E,D*18
$GPGLL,4742.1604981,N,01618.0999515,E,071542.00,A,D*69
$GPGGA,071542.00,4742.1604981,N,01618.0999515,E,2,37,0.4,707.9405,M,43.2066,M,1.6,0136*4A
$GNGNS,071542.00,4742.1604981,N,01618.0999515,E,DAAA,37,0.4,707.9405,43.2066,,*55
$GPGNS,071542.00,,,,,,10,,,,1.6,136*7A
$GLGNS,071542.00,,,,,,08,,,,,*72
$GAGNS,071542.00,,,,,,09,,,,,*7E
$GBGNS,071542.00,,,,,,10,,,,,*75
$GPLLQ,071542.00,010125,,M,,M,1,37,0.904,,M*1D
$GPVTG,,T,,M,0.00,N,0.01,K,D*27
$GPHDT,,T*1B
$GPTHS,,V*0E
$GPROT,,V*08
$PSSN,HRP,071542.00,010125,,,,,,,00,0,,*64
$PTNL,AVR,071542.00,,Yaw,,Tilt,,,,0,,00*32
$GPGSA,A,3,05,07,08,09,13,14,15,18,20,30,,,0.7,0.4,0.6*3F
$GPGSA,A,3,65,71,72,73,74,75,81,82,,,,,0.7,0.4,0.6*31
$GPGSA,A,3,02,03,05,08,13,15,24,25,31,,,,0.7,0.4,0.6*3E
$GPGSA,A,3,05,07,09,21,22,36,40,42,45,60,,,0.7,0.4,0.6*3F
$GPGST,071542.00,1.826,0.442,0.318,19.558,0.430,0.334,0.721*60
$GPGBS,071542.00,2.971,2.156,4.774,72,0.0001,6.109,6.065*58
$GPGRS,071542.00,1,-0.0,0.0,-0.4,-0.3,0.2,0.1,-0.0,-0.1,0.1,-0.1,,*4E
$GPGRS,071542.00,1,-3.3,-2.4,6.1,2.8,3.0,-3.2,-0.3,-3.1,,,,*6E
$GPGRS,071542.00,1,-1.4,-0.2,0.6,0.1,0.1,0.7,-0.3,-0.1,-0.0,,,*4C
$GPGRS,071542.00,1,1.7,0.4,0.5,0.3,0.0,-0.4,-1.5,-0.1,-0.0,-0.9,,*6A
$GPGSV,6,1,21,30,80,060,50,14,40,159,46,13,42,293,46,07,42,061,46*71
$GPGSV,6,2,21,20,50,221,48,05,53,281,47,09,10,110,38,15,09,297,38*76
$GPGSV,6,3,21,18,08,331,39,11,03,222,38,27,05,029,36,08,10,060,38*75
$GPGSV,6,4,21,36,35,170,45,58,13,245,36,40,24,133,36,34,31,208,43*7B
$GPGSV,6,5,21,49,34,195,44,57,07,112,37,41,07,108,35,61,03,257,38*7F
$GPGSV,6,6,21*7A
$GLGSV,3,1,10,72,64,112,51,73,17,035,44,81,11,318,44,71,14,127,43*60
$GLGSV,3,2,10,75,56,191,53,74,61,051,47,65,51,322,49,76,01,206,*65
$GLGSV,3,3,10,66,03,312,40,82,07,003,42*6B
$GAGSV,3,1,11,03,72,309,49,15,18,254,41,25,43,150,47,08,21,291,41*63
$GAGSV,3,2,11,24,44,072,46,13,19,307,40,05,50,098,46,16,51,113,*61
$GAGSV,3,3,11,09,00,106,,02,06,188,36,31,08,032,37*59
$GBGSV,6,1,21,21,65,298,52,09,15,062,38,42,15,311,41,40,18,069,41*6A
$GBGSV,6,2,21,05,21,129,39,07,19,077,38,26,55,181,,10,17,113,*66
$GBGSV,6,3,21,50,40,306,,36,54,064,50,22,56,145,51,45,64,189,51*6A
$GBGSV,6,4,21,24,08,208,,02,05,108,34,06,01,065,32,28,04,317,*69
$GBGSV,6,5,21,46,06,046,,19,06,135,,56,05,095,,58,01,038,*69
$GBGSV,6,6,21,60,07,112,41*5E
$GPGGA,071542.00,,,,,0,00,,,M,,M,,*4D
$PTNL,GGK,071542.00,010125,4742.1604981,N,01618.0999515,E,1,37,0.7,EHT751.1471,M*4C
$GPGGQ,071542.00,010125,4742.1604981,N,01618.0999515,E,1,37,0.904,707.9405,M*30
$GPGFA,071542.00,4.205,5.915,0.442,0.318,19.558,0.721,,VVV*31
$GPLLK,071542.00,010125,,M,,M,1,37,0.8,,M*02
$GNGMP,071542.00,,,,,DAAA,37,0.4,,,,*53
$GPGMP,071542.00,,,,,,10,,,,1.6,136*7A
$GLGMP,071542.00,,,,,,08,,,,,*72
$GAGMP,071542.00,,,,,,09,,,,,*7E
$GBGMP,071542.00,,,,,,10,,,,,*75
$PSSN,SNC,[0,285360000,2347]*4E
$GPZDA,071547.00,01,01,2025,,*63
$GPDTM,W84,,00.0000000,N,00.0000000,E,00.0000000,W84*5F
$PSSN,TFM,071547.00,,,,*6F
$GPRMC,071547.00,A,4742.1605001,N,01618.0999540,E,0.0,,010125,5.1,E,D*1D
$GPGLL,4742.1605001,N,01618.0999540,E,071547.00,A,D*6C
$GPGGA,071547.00,4742.1605001,N,01618.0999540,E,2,37,0.4,707.9353,M,43.2066,M,2.2,0136*4C
$GNGNS,071547.00,4742.1605001,N,01618.0999540,E,DAAA,37,0.4,707.9353,43.2066,,*54
$GPGNS,071547.00,,,,,,10,,,,2.2,136*78
$GLGNS,071547.00,,,,,,08,,,,,*77
$GAGNS,071547.00,,,,,,09,,,,,*7B
$GBGNS,071547.00,,,,,,10,,,,,*70
$GPLLQ,071547.00,010125,,M,,M,1,37,0.895,,M*11
$GPVTG,,T,,M,0.01,N,0.01,K,D*26
$GPHDT,,T*1B
$GPTHS,,V*0E
$GPROT,,V*08
$PSSN,HRP,071547.00,010125,,,,,,,00,0,,*61
$PTNL,AVR,071547.00,,Yaw,,Tilt,,,,0,,00*37
$GPGSA,A,3,05,07,08,09,13,14,15,18,20,30,,,0.7,0.4,0.6*3F
$GPGSA,A,3,65,71,72,73,74,75,81,82,,,,,0.7,0.4,0.6*31
$GPGSA,A,3,02,03,05,08,13,15,24,25,31,,,,0.7,0.4,0.6*3E
$GPGSA,A,3,05,07,09,21,22,36,40,42,45,60,,,0.7,0.4,0.6*3F
$GPGST,071547.00,1.819,0.439,0.313,19.802,0.426,0.330,0.715*68
$GPGBS,071547.00,3.015,2.111,4.823,72,0.0001,6.164,6.065*52
$GPGRS,071547.00,1,0.2,0.0,-0.6,-0.7,0.2,0.0,-0.2,-0.9,-0.1,0.2,,*6A
$GPGRS,071547.00,1,-3.6,-1.8,6.2,2.8,3.1,-2.4,-0.1,-3.1,,,,*66
$GPGRS,071547.00,1,-1.1,0.1,0.9,-0.1,-0.2,0.6,-0.0,-0.1,-0.0,,,*6C
$GPGRS,071547.00,1,2.1,0.5,-0.1,0.3,-0.0,-0.1,-1.5,-0.0,0.1,-0.6,,*48
$GPGSV,6,1,21,30,80,060,50,14,40,159,46,13,42,293,46,07,42,061,46*71
$GPGSV,6,2,21,20,50,221,48,05,53,281,47,09,10,110,37,15,09,297,39*78
$GPGSV,6,3,21,18,08,331,38,11,03,222,38,27,05,029,37,08,10,060,38*75
$GPGSV,6,4,21,36,35,170,45,58,13,245,37,40,24,133,37,34,31,208,44*7C
$GPGSV,6,5,21,49,34,195,44,57,07,112,37,41,07,108,35,61,03,257,38*7F
$GPGSV,6,6,21*7A
$GLGSV,3,1,10,72,64,112,51,73,17,035,44,81,11,318,45,71,14,127,43*61
$GLGSV,3,2,10,75,56,191,53,74,61,050,46,65,51,322,49,76,01,206,*65
$GLGSV,3,3,10,66,03,312,44,82,07,003,41*6C
$GAGSV,3,1,11,03,72,309,49,15,18,254,41,25,43,150,47,08,21,291,41*63
$GAGSV,3,2,11,24,44,072,46,13,19,307,40,05,50,098,47,16,51,113,*60
$GAGSV,3,3,11,09,00,106,,02,06,188,36,31,08,032,37*59
$GBGSV,6,1,21,21,65,298,52,09,15,062,38,42,15,311,41,40,18,069,41*6A
$GBGSV,6,2,21,05,21,129,39,07,19,077,38,26,55,181,,10,17,113,*66
$GBGSV,6,3,21,50,40,306,,36,54,064,50,22,56,145,51,45,64,189,51*6A
$GBGSV,6,4,21,24,08,208,,02,05,108,34,06,01,065,31,28,04,317,*6A
$GBGSV,6,5,21,46,06,046,,19,06,135,25,56,05,095,,58,01,038,*6E
$GBGSV,6,6,21,60,07,112,41*5E
$GPGGA,071547.00,,,,,0,00,,,M,,M,,*48
$PTNL,GGK,071547.00,010125,4742.1605001,N,01618.0999540,E,1,37,0.7,EHT751.1418,M*46
$GPGGQ,071547.00,010125,4742.1605001,N,01618.0999540,E,1,37,0.895,707.9353,M*38
$GPGFA,071547.00,4.173,5.862,0.439,0.313,19.802,0.715,,VVV*35
$GPLLK,071547.00,010125,,M,,M,1,37,0.8,,M*07
$GNGMP,071547.00,,,,,DAAA,37,0.4,,,,*56
$GPGMP,071547.00,,,,,,10,,,,2.2,136*78
$GLGMP,071547.00,,,,,,08,,,,,*77
$GAGMP,071547.00,,,,,,09,,,,,*7B
$GBGMP,071547.00,,,,,,10,,,,,*70
$PSSN,SNC,[0,285365000,2347]*4B
$GPZDA,071552.00,01,01,2025,,*67
$GPDTM,W84,,00.0000000,N,00.0000000,E,00.0000000,W84*5F
$PSSN,TFM,071552.00,,,,*6B
$GPRMC,071552.00,A,4742.1605000,N,01618.0999543,E,0.0,,010125,5.1,E,D*1B
$GPGLL,4742.1605000,N,01618.0999543,E,071552.00,A,D*6A
$GPGGA,071552.00,4742.1605000,N,01618.0999543,E,2,37,0.4,707.9299,M,43.2066,M,3.2,0136*4C
$GNGNS,071552.00,4742.1605000,N,01618.0999543,E,DAAA,37,0.4,707.9299,43.2066,,*55
$GPGNS,071552.00,,,,,,10,,,,3.2,136*7D
$GLGNS,071552.00,,,,,,08,,,,,*73
$GAGNS,071552.00,,,,,,09,,,,,*7F
$GBGNS,071552.00,,,,,,10,,,,,*74
$GPLLQ,071552.00,010125,,M,,M,1,37,0.896,,M*16
$GPVTG,,T,,M,0.00,N,0.01,K,D*27
$GPHDT,,T*1B
$GPTHS,,V*0E
$GPROT,,V*08
$PSSN,HRP,071552.00,010125,,,,,,,00,0,,*65
$PTNL,AVR,071552.00,,Yaw,,Tilt,,,,0,,00*33
$GPGSA,A,3,05,07,08,09,13,14,15,18,20,30,,,0.7,0.4,0.6*3F
$GPGSA,A,3,65,71,72,73,74,75,81,82,,,,,0.7,0.4,0.6*31
$GPGSA,A,3,02,03,05,08,13,15,24,25,31,,,,0.7,0.4,0.6*3E
$GPGSA,A,3,05,07,09,21,22,36,40,42,45,60,,,0.7,0.4,0.6*3F
$GPGST,071552.00,1.902,0.443,0.317,19.536,0.431,0.333,0.712*66
$GPGBS,071552.00,3.058,2.135,4.877,72,0.0001,5.786,6.065*51
$GPGRS,071552.00,1,0.1,0.3,-0.5,-0.2,0.3,0.1,-0.1,-0.4,-0.1,-0.1,,*48
$GPGRS,071552.00,1,-3.8,-2.5,5.8,2.7,3.1,-2.7,-0.2,-4.2,,,,*60
$GPGRS,071552.00,1,-1.5,-0.1,0.6,-0.1,-0.3,0.7,-0.1,-0.3,-0.1,,,*4C
$GPGRS,071552.00,1,2.0,-0.2,0.5,0.1,-0.2,-0.4,-1.6,-0.3,0.1,-0.9,,*44
$GPGSV,6,1,21,30,80,060,50,14,40,159,46,13,42,293,46,07,42,061,47*70
$GPGSV,6,2,21,20,49,221,48,05,53,281,47,09,10,110,37,15,09,297,39*70
$GPGSV,6,3,21,18,08,331,37,11,03,222,38,27,05,029,36,08,10,060,37*74
$GPGSV,6,4,21,36,35,170,44,58,13,245,36,40,24,133,36,34,31,208,43*7A
$GPGSV,6,5,21,49,34,195,44,57,07,112,37,41,07,108,35,61,03,257,38*7F
$GPGSV,6,6,21*7A
$GLGSV,3,1,10,72,64,112,51,73,17,035,44,81,11,318,45,71,14,127,43*61
$GLGSV,3,2,10,75,56,191,53,74,61,050,46,65,51,322,49,76,01,206,*65
$GLGSV,3,3,10,66,03,312,40,82,07,003,40*69
$GAGSV,3,1,11,03,72,309,49,15,18,254,41,25,43,150,47,08,21,291,41*63
$GAGSV,3,2,11,24,44,072,46,13,19,307,40,05,50,098,47,16,51,113,*60
$GAGSV,3,3,11,09,00,106,,02,06,188,37,31,08,032,36*59
$GBGSV,6,1,21,21,65,298,52,09,15,062,37,42,15,311,41,40,18,069,41*65
$GBGSV,6,2,21,05,21,129,39,07,19,077,38,26,56,181,,10,17,113,*65
$GBGSV,6,3,21,50,40,306,,36,54,063,49,22,56,145,51,45,64,189,51*65
$GBGSV,6,4,21,24,08,208,,02,05,108,34,06,01,065,31,28,04,317,*6A
$GBGSV,6,5,21,46,06,046,,19,06,136,25,56,05,095,,58,01,038,*6D
$GBGSV,6,6,21,60,07,112,41*5E
$GPGGA,071552.00,,,,,0,00,,,M,,M,,*4C
$PTNL,GGK,071552.00,010125,4742.1605000,N,01618.0999543,E,1,37,0.7,EHT751.1365,M*4D
$GPGGQ,071552.00,010125,4742.1605000,N,01618.0999543,E,1,37,0.896,707.9299,M*3A
$GPGFA,071552.00,4.215,5.835,0.443,0.317,19.536,0.712,,VVV*34
$GPLLK,071552.00,010125,,M,,M,1,37,0.8,,M*03
$GNGMP,071552.00,,,,,DAAA,37,0.4,,,,*52
$GPGMP,071552.00,,,,,,10,,,,3.2,136*7D
$GLGMP,071552.00,,,,,,08,,,,,*73
$GAGMP,071552.00,,,,,,09,,,,,*7F
$GBGMP,071552.00,,,,,,10,,,,,*74
$PSSN,SNC,[0,285370000,2347]*4F
$GPZDA,071557.00,01,01,2025,,*62
$GPDTM,W84,,00.0000000,N,00.0000000,E,00.0000000,W84*5F
$PSSN,TFM,071557.00,,,,*6E
$GPRMC,071557.00,A,4742.1604992,N,01618.0999551,E,0.0,,010125,5.1,E,D*1E
$GPGLL,4742.1604992,N,01618.0999551,E,071557.00,A,D*6F
$GPGGA,071557.00,4742.1604992,N,01618.0999551,E,2,37,0.4,707.9272,M,43.2066,M,3.0,0136*4E
$GNGNS,071557.00,4742.1604992,N,01618.0999551,E,DAAA,37,0.4,707.9272,43.2066,,*55
$GPGNS,071557.00,,,,,,10,,,,3.0,136*7A
$GLGNS,071557.00,,,,,,08,,,,,*76
$GAGNS,071557.00,,,,,,09,,,,,*7A
$GBGNS,071557.00,,,,,,10,,,,,*71
$GPLLQ,071557.00,010125,,M,,M,1,37,0.906,,M*1B
$GPVTG,,T,,M,0.00,N,0.00,K,D*26
$GPHDT,,T*1B
$GPTHS,,V*0E
$GPROT,,V*08
$PSSN,HRP,071557.00,010125,,,,,,,00,0,,*60
$PTNL,AVR,071557.00,,Yaw,,Tilt,,,,0,,00*36
$GPGSA,A,3,05,07,08,09,13,14,15,18,20,30,,,0.7,0.4,0.6*3F
$GPGSA,A,3,65,71,72,73,74,75,81,82,,,,,0.7,0.4,0.6*31
$GPGSA,A,3,02,03,05,08,13,15,24,25,31,,,,0.7,0.4,0.6*3E
$GPGSA,A,3,05,07,09,21,22,36,40,42,45,60,,,0.7,0.4,0.6*3F
$GPGST,071557.00,1.769,0.447,0.321,19.283,0.435,0.337,0.719*63
$GPGBS,071557.00,2.947,2.128,4.874,72,0.0001,5.611,6.065*52
$GPGRS,071557.00,1,0.1,0.2,-0.3,-0.8,0.1,-0.1,-0.2,0.5,0.1,-0.1,,*6D
$GPGRS,071557.00,1,-3.2,-2.2,5.6,2.4,2.8,-3.0,0.0,-3.7,,,,*46
$GPGRS,071557.00,1,-1.1,-0.2,0.6,-0.1,0.0,0.4,-0.2,-0.3,-0.4,,,*65
$GPGRS,071557.00,1,1.8,-0.5,0.3,0.2,-0.0,-0.5,-2.0,-0.5,-0.1,-0.5,,*69
$GPGSV,6,1,21,30,80,060,50,14,40,159,47,13,42,293,46,07,42,061,46*70
$GPGSV,6,2,21,20,49,221,48,05,53,281,47,09,10,110,37,15,09,297,39*70
$GPGSV,6,3,21,18,08,330,37,11,03,222,38,27,05,029,35,08,10,060,38*79
$GPGSV,6,4,21,36,35,170,44,58,13,245,36,40,24,133,37,34,31,208,43*7B
$GPGSV,6,5,21,49,34,195,44,57,07,112,37,41,07,108,35,61,03,257,38*7F
$GPGSV,6,6,21*7A
$GLGSV,3,1,10,72,64,112,51,73,17,035,44,81,11,318,45,71,14,127,42*60
$GLGSV,3,2,10,75,57,191,53,74,61,050,46,65,51,322,49,76,01,206,*64
$GLGSV,3,3,10,66,03,313,43,82,07,003,41*6A
$GAGSV,3,1,11,03,72,309,49,15,18,254,41,25,43,150,47,08,21,291,42*60
$GAGSV,3,2,11,24,44,072,46,13,19,307,40,05,50,098,47,16,52,113,*63
$GAGSV,3,3,11,09,00,106,19,02,06,188,37,31,08,032,37*50
$GBGSV,6,1,21,21,65,298,52,09,15,062,37,42,15,311,40,40,18,069,41*64
$GBGSV,6,2,21,05,21,129,39,07,19,077,38,26,56,181,,10,17,113,*65
$GBGSV,6,3,21,50,40,306,,36,54,063,49,22,56,145,51,45,64,189,51*65
$GBGSV,6,4,21,24,08,208,,02,05,108,34,06,01,065,31,28,04,317,*6A
$GBGSV,6,5,21,46,06,046,,19,06,136,25,56,05,095,,58,01,038,*6D
$GBGSV,6,6,21,60,07,112,41*5E
$GPGGA,071557.00,,,,,0,00,,,M,,M,,*49
$PTNL,GGK,071557.00,010125,4742.1604992,N,01618.0999551,E,1,37,0.7,EHT751.1338,M*40
$GPGGQ,071557.00,010125,4742.1604992,N,01618.0999551,E,1,37,0.906,707.9272,M*32
$GPGFA,071557.00,4.252,5.900,0.447,0.321,19.283,0.719,,VVV*36
$GPLLK,071557.00,010125,,M,,M,1,37,0.8,,M*06
$GNGMP,071557.00,,,,,DAAA,37,0.4,,,,*57
$GPGMP,071557.00,,,,,,10,,,,3.0,136*7A
$GLGMP,071557.00,,,,,,08,,,,,*76
$GAGMP,071557.00,,,,,,09,,,,,*7A
$GBGMP,071557.00,,,,,,10,,,,,*71
$PSSN,SNC,[0,285375000,2347]*4A
$GPZDA,071602.00,01,01,2025,,*61
$GPDTM,W84,,00.0000000,N,00.0000000,E,00.0000000,W84*5F
$PSSN,TFM,071602.00,,,,*6D
$GPRMC,071602.00,A,4742.1604976,N,01618.0999574,E,0.0,,010125,5.1,E,D*10
$GPGLL,4742.1604976,N,01618.0999574,E,071602.00,A,D*61
$GPGGA,071602.00,4742.1604976,N,01618.0999574,E,2,37,0.4,707.9274,M,43.2066,M,1.6,0136*42
$GNGNS,071602.00,4742.1604976,N,01618.0999574,E,DAAA,37,0.4,707.9274,43.2066,,*5D
$GPGNS,071602.00,,,,,,10,,,,1.6,136*7D
$GLGNS,071602.00,,,,,,08,,,,,*75
$GAGNS,071602.00,,,,,,09,,,,,*79
$GBGNS,071602.00,,,,,,10,,,,,*72
$GPLLQ,071602.00,010125,,M,,M,1,37,0.904,,M*1A
$GPVTG,,T,,M,0.00,N,0.01,K,D*27
$GPHDT,,T*1B
$GPTHS,,V*0E
$GPROT,,V*08
$PSSN,HRP,071602.00,010125,,,,,,,00,0,,*63
$PTNL,AVR,071602.00,,Yaw,,Tilt,,,,0,,00*35
$GPGSA,A,3,05,07,08,09,13,14,15,18,20,30,,,0.7,0.4,0.6*3F
$GPGSA,A,3,65,71,72,73,74,75,81,82,,,,,0.7,0.4,0.6*31
$GPGSA,A,3,02,03,05,08,13,15,24,25,31,,,,0.7,0.4,0.6*3E
$GPGSA,A,3,05,07,09,21,22,36,40,42,45,60,,,0.7,0.4,0.6*3F
$GPGST,071602.00,1.789,0.442,0.318,19.469,0.430,0.334,0.722*6D
$GPGBS,071602.00,2.962,2.152,4.776,72,0.0001,5.912,6.065*5A
$GPGRS,071602.00,1,-0.1,-0.2,-0.4,-0.4,0.3,-0.1,0.2,0.7,0.1,-0.1,,*48
$GPGRS,071602.00,1,-3.0,-1.4,5.9,2.1,3.0,-3.1,0.0,-3.5,,,,*42
$GPGRS,071602.00,1,-1.2,-0.2,0.6,0.1,0.0,0.4,-0.1,0.0,-0.0,,,*61
$GPGRS,071602.00,1,2.4,0.2,0.4,0.4,-0.0,-0.5,-2.0,-0.4,-0.2,-0.7,,*4E
$GPGSV,6,1,21,30,80,060,50,14,41,159,47,13,42,293,46,07,42,061,46*71
$GPGSV,6,2,21,20,49,221,48,05,53,281,47,09,10,110,37,15,09,297,40*7E
$GPGSV,6,3,21,18,08,330,37,11,03,222,37,27,05,029,35,08,10,060,38*76
$GPGSV,6,4,21,36,35,170,45,58,13,245,36,40,24,133,36,34,31,208,43*7B
$GPGSV,6,5,21,49,34,195,44,57,07,112,37,41,07,108,35,61,03,257,38*7F
$GPGSV,6,6,21*7A
$GLGSV,3,1,10,72,64,112,51,73,17,035,44,81,11,318,44,71,14,127,43*60
$GLGSV,3,2,10,75,57,191,52,74,61,050,46,65,51,322,49,76,01,206,*65
$GLGSV,3,3,10,66,03,313,39,82,07,003,40*66
$GAGSV,3,1,10,03,72,309,49,15,18,254,40,25,43,149,46,08,21,291,41*6A
$GAGSV,3,2,10,24,44,072,45,13,19,307,40,05,50,098,46,16,52,113,*60
$GAGSV,3,3,10,02,06,188,37,31,08,032,37*67
$GBGSV,6,1,21,21,65,298,52,09,15,062,37,42,15,311,41,40,18,069,41*65
$GBGSV,6,2,21,05,21,129,39,07,19,077,38,26,56,180,,10,17,113,*64
$GBGSV,6,3,21,50,40,306,,36,54,063,49,22,56,145,51,45,64,189,51*65
$GBGSV,6,4,21,24,08,208,,02,05,108,34,06,01,065,31,28,04,317,*6A
$GBGSV,6,5,21,46,06,046,,19,05,136,25,56,05,095,,58,01,038,*6E
$GBGSV,6,6,21,60,07,112,41*5E
$GPGGA,071602.00,,,,,0,00,,,M,,M,,*4A
$PTNL,GGK,071602.00,010125,4742.1604976,N,01618.0999574,E,1,37,0.7,EHT751.1340,M*41
$GPGGQ,071602.00,010125,4742.1604976,N,01618.0999574,E,1,37,0.904,707.9274,M*38
$GPGFA,071602.00,4.202,5.918,0.442,0.318,19.469,0.722,,VVV*3C
$GPLLK,071602.00,010125,,M,,M,1,37,0.8,,M*05
$GNGMP,071602.00,,,,,DAAA,37,0.4,,,,*54
$GPGMP,071602.00,,,,,,10,,,,1.6,136*7D
$GLGMP,071602.00,,,,,,08,,,,,*75
$GAGMP,071602.00,,,,,,09,,,,,*79
$GBGMP,071602.00,,,,,,10,,,,,*72
$PSSN,SNC,[0,285380000,2347]*40
$GPZDA,071607.00,01,01,2025,,*64
$GPDTM,W84,,00.0000000,N,00.0000000,E,00.0000000,W84*5F
$PSSN,TFM,071607.00,,,,*68
$GPRMC,071607.00,A,4742.1604949,N,01618.0999624,E,0.0,,010125,5.1,E,D*1F
$GPGLL,4742.1604949,N,01618.0999624,E,071607.00,A,D*6E
$GPGGA,071607.00,4742.1604949,N,01618.0999624,E,2,37,0.4,707.9256,M,43.2066,M,2.2,0136*4A
$GNGNS,071607.00,4742.1604949,N,01618.0999624,E,DAAA,37,0.4,707.9256,43.2066,,*52
$GPGNS,071607.00,,,,,,10,,,,2.2,136*7F
$GLGNS,071607.00,,,,,,08,,,,,*70
$GAGNS,071607.00,,,,,,09,,,,,*7C
$GBGNS,071607.00,,,,,,10,,,,,*77
$GPLLQ,071607.00,010125,,M,,M,1,37,0.895,,M*16
$GPVTG,,T,,M,0.00,N,0.00,K,D*26
$GPHDT,,T*1B
$GPTHS,,V*0E
$GPROT,,V*08
$PSSN,HRP,071607.00,010125,,,,,,,00,0,,*66
$PTNL,AVR,071607.00,,Yaw,,Tilt,,,,0,,00*30
$GPGSA,A,3,05,07,08,09,13,14,15,18,20,30,,,0.7,0.4,0.6*3F
$GPGSA,A,3,65,71,72,73,74,75,81,82,,,,,0.7,0.4,0.6*31
$GPGSA,A,3,02,03,05,08,13,15,24,25,31,,,,0.7,0.4,0.6*3E
$GPGSA,A,3,05,07,09,21,22,36,40,42,45,60,,,0.7,0.4,0.6*3F
$GPGST,071607.00,1.869,0.439,0.313,19.733,0.426,0.330,0.715*65
$GPGBS,071607.00,3.005,2.107,4.828,72,0.0001,6.355,6.065*58
$GPGRS,071607.00,1,0.1,-0.2,-0.1,-0.4,0.2,-0.4,0.3,1.0,-0.1,0.0,,*67
$GPGRS,071607.00,1,-3.5,-1.1,6.4,1.9,3.0,-3.1,0.4,-3.8,,,,*4B
$GPGRS,071607.00,1,-1.3,-0.2,0.7,0.0,0.4,0.2,-0.2,-0.1,0.0,,,*65
$GPGRS,071607.00,1,2.3,0.3,-0.0,0.3,-0.1,-0.4,-2.0,0.4,-0.1,-0.7,,*4D
$GPGSV,6,1,21,30,80,060,50,14,41,159,47,13,42,293,46,07,42,061,46*71
$GPGSV,6,2,21,20,49,221,48,05,53,281,47,09,10,110,37,15,09,297,39*70
$GPGSV,6,3,21,18,08,330,38,11,03,222,37,27,05,029,34,08,10,060,38*78
$GPGSV,6,4,21,36,35,170,44,58,13,245,36,40,24,133,37,34,31,208,43*7B
$GPGSV,6,5,21,49,34,195,44,57,07,112,37,41,07,108,35,61,03,257,38*7F
$GPGSV,6,6,21*7A
$GLGSV,3,1,10,72,64,112,51,73,17,035,43,81,11,318,45,71,14,127,43*66
$GLGSV,3,2,10,75,57,191,52,74,60,050,46,65,51,322,49,76,01,206,33*64
$GLGSV,3,3,10,66,03,313,44,82,07,003,41*6D
$GAGSV,3,1,10,03,72,309,49,15,18,254,40,25,43,149,46,08,21,291,41*6A
$GAGSV,3,2,10,24,44,072,45,13,19,307,40,05,50,098,46,16,52,113,*60
$GAGSV,3,3,10,02,06,188,37,31,08,032,37*67
$GBGSV,6,1,21,21,65,298,52,09,15,062,37,42,15,311,41,40,18,069,41*65
$GBGSV,6,2,21,05,21,129,39,07,19,077,38,26,56,180,,10,17,113,*64
$GBGSV,6,3,21,50,40,306,,36,54,063,49,22,56,145,51,45,64,189,51*65
$GBGSV,6,4,21,24,08,208,,02,05,108,34,06,01,065,31,28,04,317,*6A
$GBGSV,6,5,21,46,06,046,,19,05,136,25,56,05,095,,58,01,038,*6E
$GBGSV,6,6,21,60,07,112,41*5E
$GPGGA,071607.00,,,,,0,00,,,M,,M,,*4F
$PTNL,GGK,071607.00,010125,4742.1604949,N,01618.0999624,E,1,37,0.7,EHT751.1321,M*49
$GPGGQ,071607.00,010125,4742.1604949,N,01618.0999624,E,1,37,0.895,707.9256,M*3E
$GPGFA,071607.00,4.170,5.864,0.439,0.313,19.733,0.715,,VVV*3A
$GPLLK,071607.00,010125,,M,,M,1,37,0.8,,M*00
$GNGMP,071607.00,,,,,DAAA,37,0.4,,,,*51
$GPGMP,071607.00,,,,,,10,,,,2.2,136*7F
$GLGMP,071607.00,,,,,,08,,,,,*70
$GAGMP,071607.00,,,,,,09,,,,,*7C
$GBGMP,071607.00,,,,,,10,,,,,*77
$PSSN,SNC,[0,285385000,2347]*45
$GPZDA,071612.00,01,01,2025,,*60
$GPDTM,W84,,00.0000000,N,00.0000000,E,00.0000000,W84*5F
$PSSN,TFM,071612.00,,,,*6C
$GPRMC,071612.00,A,4742.1604927,N,01618.0999649,E,0.0,,010125,5.1,E,D*18
$GPGLL,4742.1604927,N,01618.0999649,E,071612.00,A,D*69
$GPGGA,071612.00,4742.1604927,N,01618.0999649,E,2,37,0.4,707.9264,M,43.2066,M,3.2,0136*4D
$GNGNS,071612.00,4742.1604927,N,01618.0999649,E,DAAA,37,0.4,707.9264,43.2066,,*54
$GPGNS,071612.00,,,,,,10,,,,3.2,136*7A
$GLGNS,071612.00,,,,,,08,,,,,*74
$GAGNS,071612.00,,,,,,09,,,,,*78
$GBGNS,071612.00,,,,,,10,,,,,*73
$GPLLQ,071612.00,010125,,M,,M,1,37,0.892,,M*15
$GPVTG,,T,,M,0.00,N,0.00,K,D*26
$GPHDT,,T*1B
$GPTHS,,V*0E
$GPROT,,V*08
$PSSN,HRP,071612.00,010125,,,,,,,00,0,,*62
$PTNL,AVR,071612.00,,Yaw,,Tilt,,,,0,,00*34
$GPGSA,A,3,05,07,08,09,13,14,15,18,20,30,,,0.7,0.4,0.6*3F
$GPGSA,A,3,65,71,72,73,74,75,81,82,,,,,0.7,0.4,0.6*31
$GPGSA,A,3,02,03,05,08,13,15,24,25,31,,,,0.7,0.4,0.6*3E
$GPGSA,A,3,05,07,09,21,22,36,40,42,45,60,,,0.7,0.4,0.6*3F
$GPGST,071612.00,1.862,0.438,0.315,19.620,0.426,0.331,0.711*6B
$GPGBS,071612.00,2.989,2.111,4.870,72,0.0001,6.427,6.062*5F
$GPGRS,071612.00,1,-0.3,0.2,-0.4,-0.7,0.2,-0.1,-0.3,0.5,0.0,0.1,,*66
$GPGRS,071612.00,1,-3.4,-1.7,6.4,2.3,2.6,-2.9,0.1,-3.8,,,,*4A
$GPGRS,071612.00,1,-1.8,0.1,0.6,0.1,0.5,0.7,-0.2,-0.0,-0.0,,,*6C
$GPGRS,071612.00,1,2.1,0.1,-0.4,0.3,-0.1,-0.0,-1.4,0.3,0.1,-0.6,,*65
$GPGSV,6,1,21,30,80,060,50,14,41,159,46,13,42,293,46,07,42,061,47*71
$GPGSV,6,2,21,20,49,221,48,05,53,281,47,09,10,110,37,15,09,297,40*7E
$GPGSV,6,3,21,18,08,330,39,11,03,222,37,27,05,028,35,08,10,060,38*79
$GPGSV,6,4,21,36,35,170,44,58,13,245,36,40,24,133,36,34,31,208,43*7A
$GPGSV,6,5,21,49,34,195,44,57,07,112,37,41,07,108,35,61,03,257,38*7F
$GPGSV,6,6,21*7A
$GLGSV,3,1,10,72,64,112,51,73,17,035,43,81,11,318,44,71,14,127,43*67
$GLGSV,3,2,10,75,57,191,53,74,60,050,46,65,51,322,49,76,01,206,33*65
$GLGSV,3,3,10,66,03,313,40,82,07,003,40*68
$GAGSV,3,1,10,03,72,309,48,15,18,254,40,25,43,149,46,08,21,291,41*6B
$GAGSV,3,2,10,24,44,072,45,13,19,307,40,05,50,098,46,16,52,113,*60
$GAGSV,3,3,10,02,06,188,37,31,08,032,37*67
$GBGSV,6,1,21,21,65,298,52,09,15,062,36,42,15,311,41,40,18,069,41*64
$GBGSV,6,2,21,05,21,129,39,07,19,077,38,26,56,180,,10,17,113,*64
$GBGSV,6,3,21,50,40,306,,36,54,063,49,22,56,145,51,45,65,189,51*64
$GBGSV,6,4,21,24,08,208,,02,05,108,34,06,01,065,30,28,04,317,*6B
$GBGSV,6,5,21,46,06,046,,19,05,136,26,56,05,095,,58,01,038,*6D
$GBGSV,6,6,21,60,07,112,41*5E
$GPGGA,071612.00,,,,,0,00,,,M,,M,,*4B
$PTNL,GGK,071612.00,010125,4742.1604927,N,01618.0999649,E,1,37,0.7,EHT751.1330,M*4E
$GPGGQ,071612.00,010125,4742.1604927,N,01618.0999649,E,1,37,0.892,707.9264,M*3F
$GPGFA,071612.00,4.161,5.826,0.438,0.315,19.620,0.711,,VVV*38
$GPLLK,071612.00,010125,,M,,M,1,37,0.8,,M*04
$GNGMP,071612.00,,,,,DAAA,37,0.4,,,,*55
$GPGMP,071612.00,,,,,,10,,,,3.2,136*7A
$GLGMP,071612.00,,,,,,08,,,,,*74
$GAGMP,071612.00,,,,,,09,,,,,*78
$GBGMP,071612.00,,,,,,10,,,,,*73
$PSSN,SNC,[0,285390000,2347]*41
$GPZDA,071617.00,01,01,2025,,*65
$GPDTM,W84,,00.0000000,N,00.0000000,E,00.0000000,W84*5F
$PSSN,TFM,071617.00,,,,*69
$GPRMC,071617.00,A,4742.1604904,N,01618.0999643,E,0.0,,010125,5.1,E,D*16
$GPGLL,4742.1604904,N,01618.0999643,E,071617.00,A,D*67
$GPGGA,071617.00,4742.1604904,N,01618.0999643,E,2,37,0.4,707.9217,M,43.2066,M,3.0,0136*45
$GNGNS,071617.00,4742.1604904,N,01618.0999643,E,DAAA,37,0.4,707.9217,43.2066,,*5E
$GPGNS,071617.00,,,,,,10,,,,3.0,136*7D
$GLGNS,071617.00,,,,,,08,,,,,*71
$GAGNS,071617.00,,,,,,09,,,,,*7D
$GBGNS,071617.00,,,,,,10,,,,,*76
$GPLLQ,071617.00,010125,,M,,M,1,37,0.899,,M*1B
$GPVTG,,T,,M,0.00,N,0.00,K,D*26
$GPHDT,,T*1B
$GPTHS,,V*0E
$GPROT,,V*08
$PSSN,HRP,071617.00,010125,,,,,,,00,0,,*67
$PTNL,AVR,071617.00,,Yaw,,Tilt,,,,0,,00*31
$GPGSA,A,3,05,07,08,09,13,14,15,18,20,30,,,0.7,0.4,0.6*3F
$GPGSA,A,3,65,71,72,73,74,75,81,82,,,,,0.7,0.4,0.6*31
$GPGSA,A,3,02,03,05,08,13,15,24,25,31,,,,0.7,0.4,0.6*3E
$GPGSA,A,3,05,07,09,21,22,36,40,42,45,60,,,0.7,0.4,0.6*3F
$GPGST,071617.00,1.842,0.440,0.319,19.624,0.428,0.335,0.717*67
$GPGBS,071617.00,2.870,2.103,4.867,72,0.0001,5.465,6.062*5D
$GPGRS,071617.00,1,-0.1,0.2,-0.5,-0.4,0.4,-0.1,-0.3,0.2,-0.1,-0.0,,*62
$GPGRS,071617.00,1,-4.0,-2.5,5.5,1.6,2.8,-2.8,-0.9,-4.0,,,,*6C
$GPGRS,071617.00,1,-1.7,-0.1,0.5,0.3,-0.4,0.7,-0.3,0.1,-0.1,,,*4A
$GPGRS,071617.00,1,2.2,0.8,-0.6,0.1,-0.2,-0.1,-1.6,0.9,0.3,-0.8,,*6C
$GPGSV,6,1,21,30,80,060,51,14,41,159,46,13,42,293,46,07,42,061,46*71
$GPGSV,6,2,21,20,49,221,48,05,53,281,47,09,10,110,37,15,09,297,39*70
$GPGSV,6,3,21,18,08,330,39,11,03,222,37,27,05,028,35,08,10,060,38*79
$GPGSV,6,4,21,36,35,170,45,58,13,245,37,40,24,133,36,34,31,208,43*7A
$GPGSV,6,5,21,49,34,195,44,57,07,112,37,41,07,108,35,61,03,257,38*7F
$GPGSV,6,6,21*7A
$GLGSV,3,1,10,72,64,112,51,73,17,035,43,81,11,318,44,71,14,127,44*60
$GLGSV,3,2,10,75,57,191,52,74,60,050,46,65,51,322,48,76,01,206,32*64
$GLGSV,3,3,10,66,03,313,42,82,07,003,40*6A
$GAGSV,3,1,10,03,72,309,49,15,18,253,40,25,43,149,47,08,21,291,41*6C
$GAGSV,3,2,10,24,44,072,45,13,19,307,40,05,50,098,46,16,52,113,*60
$GAGSV,3,3,10,02,06,188,37,31,08,032,37*67
$GBGSV,6,1,21,21,65,298,51,09,15,062,36,42,15,311,41,40,18,069,41*67
$GBGSV,6,2,21,05,21,129,39,07,19,077,38,26,56,180,42,10,17,113,*62
$GBGSV,6,3,21,50,40,306,,36,54,063,49,22,56,145,51,45,65,189,51*64
$GBGSV,6,4,21,24,08,208,,02,05,108,34,06,01,065,30,28,04,317,*6B
$GBGSV,6,5,21,46,06,046,,19,05,136,25,56,05,095,,58,01,038,*6E
$GBGSV,6,6,21,60,07,112,41*5E
$GPGGA,071617.00,,,,,0,00,,,M,,M,,*4E
$PTNL,GGK,071617.00,010125,4742.1604904,N,01618.0999643,E,1,37,0.7,EHT751.1283,M*49
$GPGGQ,071617.00,010125,4742.1604904,N,01618.0999643,E,1,37,0.899,707.9217,M*3E
$GPGFA,071617.00,4.182,5.876,0.440,0.319,19.624,0.717,,VVV*34
$GPLLK,071617.00,010125,,M,,M,1,37,0.8,,M*01
$GNGMP,071617.00,,,,,DAAA,37,0.4,,,,*50
$GPGMP,071617.00,,,,,,10,,,,3.0,136*7D
$GLGMP,071617.00,,,,,,08,,,,,*71
$GAGMP,071617.00,,,,,,09,,,,,*7D
$GBGMP,071617.00,,,,,,10,,,,,*76
$PSSN,SNC,[0,285395000,2347]*44
$GPZDA,071622.00,01,01,2025,,*63
$GPDTM,W84,,00.0000000,N,00.0000000,E,00.0000000,W84*5F
$PSSN,TFM,071622.00,,,,*6F
$GPRMC,071622.00,A,4742.1604899,N,01618.0999654,E,0.0,,010125,5.1,E,D*13
