$GPZDA,215942.00,01,01,2025,,*6A
$GPDTM,W84,,00.0000000,N,00.0000000,E,00.0000000,W84*5F
$PSSN,TFM,215942.00,,,,*66
$GPRMC,215942.00,A,4742.1600590,N,01618.1003395,E,0.0,,010125,5.1,E,D*19
$GPGLL,4742.1600590,N,01618.1003395,E,215942.00,A,D*68
$GPGGA,215942.00,4742.1600590,N,01618.1003395,E,2,36,0.5,708.2834,M,43.2066,M,3.1,0136*44
$GNGNS,215942.00,4742.1600590,N,01618.1003395,E,DAAA,36,0.5,708.2834,43.2066,,*5E
$GPGNS,215942.00,,,,,,08,,,,3.1,136*7A
$GLGNS,215942.00,,,,,,09,,,,,*7F
$GAGNS,215942.00,,,,,,06,,,,,*7D
$GBGNS,215942.00,,,,,,13,,,,,*7A
$GPLLQ,215942.00,010125,,M,,M,1,36,1.124,,M*1B
$GPVTG,,T,,M,0.00,N,0.00,K,D*26
$GPHDT,,T*1B
$GPTHS,,V*0E
$GPROT,,V*08
$PSSN,HRP,215942.00,010125,,,,,,,00,0,,*68
$PTNL,AVR,215942.00,,Yaw,,Tilt,,,,0,,00*3E
$GPGSA,A,3,02,08,10,14,21,23,27,32,,,,,0.8,0.5,0.6*31
$GPGSA,A,3,67,68,69,74,75,76,83,84,85,,,,0.8,0.5,0.6*33
$GPGSA,A,3,07,08,13,26,31,33,,,,,,,0.8,0.5,0.6*32
$GPGSA,A,3,05,08,13,14,27,28,30,33,36,39,41,42,0.8,0.5,0.6*33
$GPGSA,A,3,60,,,,,,,,,,,,0.8,0.5,0.6*3F
$GPGST,215942.00,2.177,0.540,0.314,22.440,0.514,0.356,0.935*65
$GPGBS,215942.00,3.896,2.449,5.315,76,0.0001,-6.575,6.389*73
$GPGRS,215942.00,1,0.3,-0.0,-0.1,0.0,0.0,-0.4,-0.1,-0.2,,,,*6F
$GPGRS,215942.00,1,3.6,6.1,0.3,-2.6,-0.7,-6.6,-1.1,-2.7,2.8,,,*49
$GPGRS,215942.00,1,-0.5,0.0,0.1,-0.1,0.2,-0.1,,,,,,*6C
$GPGRS,215942.00,1,2.1,0.2,0.4,0.7,0.5,0.1,0.5,-0.7,-1.2,-3.0,0.8,-1.0*4A
$GPGRS,215942.00,1,-1.2,,,,,,,,,,,*47
$GPGSV,5,1,19,08,72,226,50,14,11,325,39,23,12,051,38,32,39,118,46*7C
$GPGSV,5,2,19,02,36,288,46,27,48,160,48,10,53,055,48,21,58,295,46*7A
$GPGSV,5,3,19,24,00,038,,03,02,227,37,36,35,170,44,58,13,245,38*7A
$GPGSV,5,4,19,57,11,108,37,34,31,208,42,40,24,132,35,49,34,195,43*72
$GPGSV,5,5,19,41,07,108,34,61,03,257,38*72
$GLGSV,3,1,10,84,68,359,40,83,28,100,39,75,20,293,46,68,49,051,50*6D
$GLGSV,3,2,10,85,23,305,47,69,55,147,53,76,09,350,45,70,03,191,*65
$GLGSV,3,3,10,67,07,023,41,74,06,245,38*6B
$GAGSV,3,1,11,26,78,001,48,13,33,082,43,31,29,295,42,23,30,236,*67
$GAGSV,3,2,11,07,34,123,43,08,30,061,43,33,36,282,43,03,01,021,23*6F
$GAGSV,3,3,11,29,06,170,,21,04,192,20,24,03,338,36*54
$GBGSV,6,1,23,27,70,302,51,13,18,051,39,58,10,250,,05,24,128,39*66
$GBGSV,6,2,23,14,30,048,44,29,13,295,,60,11,108,40,31,12,074,*6A
$GBGSV,6,3,23,30,19,301,43,41,54,167,50,33,53,069,49,57,53,255,*62
$GBGSV,6,4,23,28,61,118,50,32,08,201,,36,07,306,40,39,06,074,39*64
$GBGSV,6,5,23,16,03,063,,42,07,037,39,43,01,121,,46,03,259,*6C
$GBGSV,6,6,23,02,08,105,34,08,10,049,35,20,00,195,*5E
$GPGGA,215942.00,,,,,0,00,,,M,,M,,*41
$PTNL,GGK,215942.00,010125,4742.1600590,N,01618.1003395,E,1,36,0.8,EHT751.4899,M*4C
$GPGGQ,215942.00,010125,4742.1600590,N,01618.1003395,E,1,36,1.124,708.2834,M*31
$GPGFA,215942.00,5.138,7.665,0.540,0.314,22.440,0.935,,VVV*3F
$GPLLK,215942.00,010125,,M,,M,1,36,0.9,,M*0E
$GNGMP,215942.00,,,,,DAAA,36,0.5,,,,*5F
$GPGMP,215942.00,,,,,,08,,,,3.1,136*7A
$GLGMP,215942.00,,,,,,09,,,,,*7F
$GAGMP,215942.00,,,,,,06,,,,,*7D
$GBGMP,215942.00,,,,,,13,,,,,*7A
$PSSN,SNC,[0,338400000,2347]*48
$GPZDA,215947.00,01,01,2025,,*6F
$GPDTM,W84,,00.0000000,N,00.0000000,E,00.0000000,W84*5F
$PSSN,TFM,215947.00,,,,*63
$GPRMC,215947.00,A,4742.1600578,N,01618.1003412,E,0.0,,010125,5.1,E,D*12
$GPGLL,4742.1600578,N,01618.1003412,E,215947.00,A,D*63
$GPGGA,215947.00,4742.1600578,N,01618.1003412,E,2,36,0.5,708.2799,M,43.2066,M,2.1,0136*46
$GNGNS,215947.00,4742.1600578,N,01618.1003412,E,DAAA,36,0.5,708.2799,43.2066,,*5D
$GPGNS,215947.00,,,,,,08,,,,2.1,136*7E
$GLGNS,215947.00,,,,,,09,,,,,*7A
$GAGNS,215947.00,,,,,,06,,,,,*78
$GBGNS,215947.00,,,,,,13,,,,,*7F
$GPLLQ,215947.00,010125,,M,,M,1,36,1.107,,M*1F
$GPVTG,,T,,M,0.00,N,0.01,K,D*27
$GPHDT,,T*1B
$GPTHS,,V*0E
$GPROT,,V*08
$PSSN,HRP,215947.00,010125,,,,,,,00,0,,*6D
$PTNL,AVR,215947.00,,Yaw,,Tilt,,,,0,,00*3B
$GPGSA,A,3,02,08,10,14,21,23,27,32,,,,,0.8,0.5,0.6*31
$GPGSA,A,3,67,68,69,74,75,76,83,84,85,,,,0.8,0.5,0.6*33
$GPGSA,A,3,07,08,13,26,31,33,,,,,,,0.8,0.5,0.6*32
$GPGSA,A,3,05,08,13,14,27,28,30,33,36,39,41,42,0.8,0.5,0.6*33
$GPGSA,A,3,60,,,,,,,,,,,,0.8,0.5,0.6*3F
$GPGST,215947.00,2.162,0.529,0.311,21.091,0.506,0.347,0.922*60
$GPGBS,215947.00,3.729,2.342,5.071,68,0.0001,6.594,6.088*5F
$GPGRS,215947.00,1,0.1,0.0,-0.0,0.3,-0.1,-0.4,0.0,0.1,,,,*69
$GPGRS,215947.00,1,4.1,6.6,0.8,-2.4,-0.5,-5.6,-1.8,-2.5,3.1,,,*40
$GPGRS,215947.00,1,-0.0,0.1,0.2,0.0,-0.1,0.0,,,,,,*40
$GPGRS,215947.00,1,2.1,0.4,0.2,0.0,0.4,0.3,0.3,-0.8,-1.6,-2.8,0.8,-0.9*47
$GPGRS,215947.00,1,-1.1,,,,,,,,,,,*41
$GPGSV,5,1,19,08,72,226,50,14,11,324,38,23,12,051,39,32,39,118,47*7C
$GPGSV,5,2,19,02,36,288,46,27,48,160,48,10,53,055,49,21,58,295,46*7B
$GPGSV,5,3,19,24,00,038,,03,03,227,38,36,35,170,44,58,13,245,38*74
$GPGSV,5,4,19,57,11,108,37,34,31,208,42,40,24,132,35,49,34,195,43*72
$GPGSV,5,5,19,41,07,108,34,61,03,257,38*72
$GLGSV,3,1,10,84,68,359,40,83,28,100,38,75,20,293,46,68,48,051,50*6D
$GLGSV,3,2,10,85,23,305,47,69,55,147,53,76,09,350,45,70,03,191,*65
$GLGSV,3,3,10,67,07,023,41,74,06,245,38*6B
$GAGSV,3,1,11,26,78,001,48,13,33,082,43,31,29,295,42,23,30,236,*67
$GAGSV,3,2,11,07,34,123,43,08,30,060,42,33,36,282,43,03,01,021,21*6D
$GAGSV,3,3,11,29,06,170,,21,04,192,21,24,03,338,36*55
$GBGSV,6,1,23,27,70,302,51,13,18,051,39,58,10,250,,05,24,128,39*66
$GBGSV,6,2,23,14,30,048,44,29,13,295,,60,11,108,40,31,12,074,*6A
$GBGSV,6,3,23,30,19,301,43,41,54,167,50,33,53,068,49,57,53,255,*63
$GBGSV,6,4,23,28,61,118,50,32,08,201,,36,07,306,39,39,06,074,38*6B
$GBGSV,6,5,23,16,03,063,,42,07,037,39,43,01,121,,46,03,259,*6C
$GBGSV,6,6,23,02,08,105,33,08,10,049,35,20,01,195,*58
$GPGGA,215947.00,,,,,0,00,,,M,,M,,*44
$PTNL,GGK,215947.00,010125,4742.1600578,N,01618.1003412,E,1,36,0.8,EHT751.4864,M*45
$GPGGQ,215947.00,010125,4742.1600578,N,01618.1003412,E,1,36,1.107,708.2799,M*33
$GPGFA,215947.00,5.032,7.557,0.529,0.311,21.091,0.922,,VVV*34
$GPLLK,215947.00,010125,,M,,M,1,36,0.9,,M*0B
$GNGMP,215947.00,,,,,DAAA,36,0.5,,,,*5A
$GPGMP,215947.00,,,,,,08,,,,2.1,136*7E
$GLGMP,215947.00,,,,,,09,,,,,*7A
$GAGMP,215947.00,,,,,,06,,,,,*78
$GBGMP,215947.00,,,,,,13,,,,,*7F
$PSSN,SNC,[0,338405000,2347]*4D
$GPZDA,215952.00,01,01,2025,,*6B
$GPDTM,W84,,00.0000000,N,00.0000000,E,00.0000000,W84*5F
$PSSN,TFM,215952.00,,,,*67
$GPRMC,215952.00,A,4742.1600598,N,01618.1003428,E,0.0,,010125,5.1,E,D*11
$GPGLL,4742.1600598,N,01618.1003428,E,215952.00,A,D*60
$GPGGA,215952.00,4742.1600598,N,01618.1003428,E,2,36,0.5,708.2850,M,43.2066,M,2.6,0136*48
$GNGNS,215952.00,4742.1600598,N,01618.1003428,E,DAAA,36,0.5,708.2850,43.2066,,*54
$GPGNS,215952.00,,,,,,08,,,,2.6,136*7D
$GLGNS,215952.00,,,,,,09,,,,,*7E
$GAGNS,215952.00,,,,,,06,,,,,*7C
$GBGNS,215952.00,,,,,,13,,,,,*7B
$GPLLQ,215952.00,010125,,M,,M,1,36,1.093,,M*17
$GPVTG,,T,,M,0.01,N,0.01,K,D*26
$GPHDT,,T*1B
$GPTHS,,V*0E
$GPROT,,V*08
$PSSN,HRP,215952.00,010125,,,,,,,00,0,,*69
$PTNL,AVR,215952.00,,Yaw,,Tilt,,,,0,,00*3F
$GPGSA,A,3,02,08,10,14,21,23,27,32,,,,,0.8,0.5,0.6*31
$GPGSA,A,3,67,68,69,74,75,76,83,84,85,,,,0.8,0.5,0.6*33
$GPGSA,A,3,07,08,13,26,31,33,,,,,,,0.8,0.5,0.6*32
$GPGSA,A,3,05,08,13,14,27,28,30,33,36,39,41,42,0.8,0.5,0.6*33
$GPGSA,A,3,60,,,,,,,,,,,,0.8,0.5,0.6*3F
$GPGST,215952.00,2.190,0.522,0.308,20.483,0.500,0.341,0.910*6D
$GPGBS,215952.00,3.676,2.342,5.194,68,0.0001,6.440,6.072*57
$GPGRS,215952.00,1,0.1,-0.1,-0.0,-0.1,-0.3,-0.5,0.3,0.3,,,,*6C
$GPGRS,215952.00,1,3.1,6.4,0.8,-1.9,-1.0,-5.9,-2.3,-3.1,3.4,,,*4C
$GPGRS,215952.00,1,0.0,0.1,0.2,0.0,-0.6,-0.1,,,,,,*42
$GPGRS,215952.00,1,1.7,0.5,-0.3,0.3,0.3,0.2,-0.0,-1.1,-1.7,-3.1,0.7,-0.9*4E
$GPGRS,215952.00,1,-1.2,,,,,,,,,,,*46
$GPGSV,5,1,19,08,72,226,50,14,11,324,38,23,12,051,39,32,39,118,47*7C
$GPGSV,5,2,19,02,37,288,46,27,48,160,48,10,53,055,49,21,58,295,46*7A
$GPGSV,5,3,19,24,00,038,,03,03,227,37,36,35,170,44,58,13,245,37*74
$GPGSV,5,4,19,57,11,108,37,34,31,208,42,40,24,132,35,49,34,195,44*75
$GPGSV,5,5,19,41,07,108,33,61,03,257,38*75
$GLGSV,3,1,10,84,68,359,40,83,28,100,38,75,20,293,45,68,48,051,50*6E
$GLGSV,3,2,10,85,23,305,47,69,55,147,53,76,09,350,44,70,03,191,*64
$GLGSV,3,3,10,67,06,023,40,74,06,245,38*6B
$GAGSV,3,1,11,26,78,002,48,13,33,082,43,31,29,295,42,23,30,236,*64
$GAGSV,3,2,11,07,34,123,43,08,30,060,43,33,36,282,44,03,01,021,22*68
$GAGSV,3,3,11,29,06,170,,21,04,192,22,24,03,338,36*56
$GBGSV,6,1,23,27,70,302,51,13,18,051,39,58,10,250,,05,24,128,39*66
$GBGSV,6,2,23,14,30,048,44,29,13,295,,60,11,108,40,31,12,074,*6A
$GBGSV,6,3,23,30,19,301,43,41,54,167,50,33,53,068,49,57,53,255,*63
$GBGSV,6,4,23,28,61,118,50,32,08,201,,36,07,306,39,39,06,074,38*6B
$GBGSV,6,5,23,16,03,063,,42,07,037,38,43,00,121,,46,03,259,*6C
$GBGSV,6,6,23,02,08,105,33,08,10,049,35,20,01,195,*58
$GPGGA,215952.00,,,,,0,00,,,M,,M,,*40
$PTNL,GGK,215952.00,010125,4742.1600598,N,01618.1003428,E,1,36,0.8,EHT751.4916,M*42
$GPGGQ,215952.00,010125,4742.1600598,N,01618.1003428,E,1,36,1.093,708.2850,M*36
$GPGFA,215952.00,4.960,7.464,0.522,0.308,20.483,0.910,,VVV*3A
$GPLLK,215952.00,010125,,M,,M,1,36,0.9,,M*0F
$GNGMP,215952.00,,,,,DAAA,36,0.5,,,,*5E
$GPGMP,215952.00,,,,,,08,,,,2.6,136*7D
$GLGMP,215952.00,,,,,,09,,,,,*7E
$GAGMP,215952.00,,,,,,06,,,,,*7C
$GBGMP,215952.00,,,,,,13,,,,,*7B
$PSSN,SNC,[0,338410000,2347]*49
$GPZDA,215957.00,01,01,2025,,*6E
$GPDTM,W84,,00.0000000,N,00.0000000,E,00.0000000,W84*5F
$PSSN,TFM,215957.00,,,,*62
$GPRMC,215957.00,A,4742.1600613,N,01618.1003403,E,0.0,,010125,5.1,E,D*1D
$GPGLL,4742.1600613,N,01618.1003403,E,215957.00,A,D*6C
$GPGGA,215957.00,4742.1600613,N,01618.1003403,E,2,36,0.5,708.2821,M,43.2066,M,2.1,0136*45
$GNGNS,215957.00,4742.1600613,N,01618.1003403,E,DAAA,36,0.5,708.2821,43.2066,,*5E
$GPGNS,215957.00,,,,,,08,,,,2.1,136*7F
$GLGNS,215957.00,,,,,,09,,,,,*7B
$GAGNS,215957.00,,,,,,06,,,,,*79
$GBGNS,215957.00,,,,,,13,,,,,*7E
$GPLLQ,215957.00,010125,,M,,M,1,36,1.100,,M*19
$GPVTG,,T,,M,0.00,N,0.01,K,D*27
$GPHDT,,T*1B
$GPTHS,,V*0E
$GPROT,,V*08
$PSSN,HRP,215957.00,010125,,,,,,,00,0,,*6C
$PTNL,AVR,215957.00,,Yaw,,Tilt,,,,0,,00*3A
$GPGSA,A,3,02,08,10,14,21,23,27,32,,,,,0.8,0.5,0.6*31
$GPGSA,A,3,67,68,69,74,75,76,83,84,85,,,,0.8,0.5,0.6*33
$GPGSA,A,3,07,08,13,26,31,33,,,,,,,0.8,0.5,0.6*32
$GPGSA,A,3,05,08,13,14,27,28,30,33,36,39,41,42,0.8,0.5,0.6*33
$GPGSA,A,3,60,,,,,,,,,,,,0.8,0.5,0.6*3F
$GPGST,215957.00,2.293,0.524,0.307,21.684,0.500,0.345,0.917*66
$GPGBS,215957.00,3.711,2.378,5.133,76,0.0001,-6.711,6.387*7A
$GPGRS,215957.00,1,-0.3,0.1,-0.1,0.3,0.1,-0.5,0.1,-0.0,,,,*46
$GPGRS,215957.00,1,3.8,6.3,1.2,-1.8,-1.8,-6.7,-0.3,-3.0,3.3,,,*4C
$GPGRS,215957.00,1,0.2,0.3,0.3,0.0,-0.4,0.3,,,,,,*6B
$GPGRS,215957.00,1,1.8,0.8,0.1,0.7,0.5,0.1,-0.1,-0.8,-1.8,-3.6,0.6,-1.0*6F
$GPGRS,215957.00,1,-1.3,,,,,,,,,,,*42
$GPGSV,5,1,19,08,72,225,51,14,11,324,39,23,12,051,39,32,39,118,47*7F
$GPGSV,5,2,19,02,37,288,46,27,48,160,48,10,53,055,49,21,58,295,46*7A
$GPGSV,5,3,19,24,00,038,,03,03,227,37,36,35,170,44,58,13,245,37*74
$GPGSV,5,4,19,57,11,108,37,34,31,208,42,40,24,132,35,49,34,195,43*72
$GPGSV,5,5,19,41,07,108,33,61,03,257,37*7A
$GLGSV,3,1,10,84,68,359,40,83,28,100,37,75,20,293,45,68,48,051,50*61
$GLGSV,3,2,10,85,23,305,47,69,55,147,53,76,09,350,44,70,03,191,*64
$GLGSV,3,3,10,67,06,023,41,74,06,245,38*6A
$GAGSV,3,1,11,26,78,002,48,13,33,082,43,31,29,295,43,23,30,235,*66
$GAGSV,3,2,11,07,34,123,43,08,30,060,43,33,36,282,44,03,01,021,21*6B
$GAGSV,3,3,11,29,06,170,,21,04,192,23,24,03,338,36*57
$GBGSV,6,1,23,27,70,302,51,13,18,051,39,58,10,250,,05,24,128,39*66
$GBGSV,6,2,23,14,30,048,44,29,13,295,,60,11,108,40,31,12,074,*6A
$GBGSV,6,3,23,30,19,301,43,41,54,167,50,33,53,068,49,57,53,255,*63
$GBGSV,6,4,23,28,61,118,50,32,08,201,,36,07,306,39,39,06,074,38*6B
$GBGSV,6,5,23,16,03,063,,42,07,037,38,43,00,121,,46,03,259,*6C
$GBGSV,6,6,23,02,08,105,33,08,10,049,35,20,01,195,*58
$GPGGA,215957.00,,,,,0,00,,,M,,M,,*45
$PTNL,GGK,215957.00,010125,4742.1600613,N,01618.1003403,E,1,36,0.8,EHT751.4886,M*46
$GPGGQ,215957.00,010125,4742.1600613,N,01618.1003403,E,1,36,1.100,708.2821,M*37
$GPGFA,215957.00,4.986,7.519,0.524,0.307,21.684,0.917,,VVV*36
$GPLLK,215957.00,010125,,M,,M,1,36,0.9,,M*0A
$GNGMP,215957.00,,,,,DAAA,36,0.5,,,,*5B
$GPGMP,215957.00,,,,,,08,,,,2.1,136*7F
$GLGMP,215957.00,,,,,,09,,,,,*7B
$GAGMP,215957.00,,,,,,06,,,,,*79
$GBGMP,215957.00,,,,,,13,,,,,*7E
$PSSN,SNC,[0,338415000,2347]*4C
$GPZDA,220002.00,01,01,2025,,*61
$GPDTM,W84,,00.0000000,N,00.0000000,E,00.0000000,W84*5F
$PSSN,TFM,220002.00,,,,*6D
$GPRMC,220002.00,A,4742.1600594,N,01618.1003412,E,0.0,,010125,5.1,E,D*1E
$GPGLL,4742.1600594,N,01618.1003412,E,220002.00,A,D*6F
$GPGGA,220002.00,4742.1600594,N,01618.1003412,E,2,35,0.5,708.2810,M,43.2066,M,3.1,0136*46
$GNGNS,220002.00,4742.1600594,N,01618.1003412,E,DAAA,35,0.5,708.2810,43.2066,,*5C
$GPGNS,220002.00,,,,,,08,,,,3.1,136*71
$GLGNS,220002.00,,,,,,09,,,,,*74
$GAGNS,220002.00,,,,,,06,,,,,*76
$GBGNS,220002.00,,,,,,12,,,,,*70
$GPLLQ,220002.00,010125,,M,,M,1,35,1.105,,M*10
$GPVTG,,T,,M,0.00,N,0.00,K,D*26
$GPHDT,,T*1B
$GPTHS,,V*0E
$GPROT,,V*08
$PSSN,HRP,220002.00,010125,,,,,,,00,0,,*63
$PTNL,AVR,220002.00,,Yaw,,Tilt,,,,0,,00*35
$GPGSA,A,3,02,08,10,14,21,23,27,32,,,,,0.8,0.5,0.7*30
$GPGSA,A,3,67,68,69,74,75,76,83,84,85,,,,0.8,0.5,0.7*32
$GPGSA,A,3,07,08,13,26,31,33,,,,,,,0.8,0.5,0.7*33
$GPGSA,A,3,05,13,14,27,28,30,33,36,39,41,42,60,0.8,0.5,0.7*3C
$GPGST,220002.00,2.320,0.525,0.308,22.955,0.498,0.350,0.922*6C
$GPGBS,220002.00,3.785,2.413,5.244,76,0.0001,-6.579,6.387*7D
$GPGRS,220002.00,1,0.2,-0.0,-0.1,0.6,-0.1,0.0,-0.2,-0.1,,,,*66
$GPGRS,220002.00,1,4.3,6.2,0.8,-2.6,-1.1,-6.6,-1.7,-3.2,2.9,,,*4C
$GPGRS,220002.00,1,-0.2,-0.2,0.4,-0.2,-0.3,0.1,,,,,,*48
$GPGRS,220002.00,1,1.8,-0.3,-0.2,0.4,0.1,0.0,-1.1,-1.2,-3.2,0.3,-0.9,-1.2*67
$GPGSV,5,1,19,08,72,225,50,14,11,324,39,23,12,051,39,32,39,118,47*7E
$GPGSV,5,2,19,02,37,288,45,27,48,160,48,10,53,055,49,21,58,295,46*79
$GPGSV,5,3,19,24,00,038,,03,03,227,37,36,35,170,44,58,13,245,38*7B
$GPGSV,5,4,19,57,11,108,37,34,31,208,42,40,24,132,35,49,34,195,44*75
$GPGSV,5,5,19,41,07,108,34,61,03,257,38*72
$GLGSV,3,1,10,84,68,359,40,83,28,100,37,75,20,293,46,68,48,051,51*63
$GLGSV,3,2,10,85,23,305,47,69,56,147,53,76,09,350,44,70,03,191,*67
$GLGSV,3,3,10,67,06,023,41,74,06,244,39*6A
$GAGSV,3,1,11,26,78,002,48,13,33,082,44,31,29,295,42,23,30,235,*60
$GAGSV,3,2,11,07,34,123,44,08,30,060,43,33,36,282,44,03,01,021,20*6D
$GAGSV,3,3,11,29,06,170,,21,04,192,24,24,03,338,36*50
$GBGSV,6,1,23,27,70,302,51,13,18,051,39,58,10,250,,05,24,128,39*66
$GBGSV,6,2,23,14,30,048,43,29,13,295,,60,11,108,40,31,12,074,*6D
$GBGSV,6,3,23,30,19,301,43,41,54,167,50,33,53,068,49,57,53,255,*63
$GBGSV,6,4,23,28,61,118,50,32,08,201,,36,07,306,39,39,06,074,38*6B
$GBGSV,6,5,23,16,03,063,,42,07,037,38,43,00,121,,46,03,259,*6C
$GBGSV,6,6,23,02,08,105,34,08,10,049,34,20,01,195,*5E
$GPGGA,220002.00,,,,,0,00,,,M,,M,,*4A
$PTNL,GGK,220002.00,010125,4742.1600594,N,01618.1003412,E,1,35,0.8,EHT751.4876,M*49
$GPGGQ,220002.00,010125,4742.1600594,N,01618.1003412,E,1,35,1.105,708.2810,M*30
$GPGFA,220002.00,4.989,7.563,0.525,0.308,22.955,0.922,,VVV*33
$GPLLK,220002.00,010125,,M,,M,1,35,0.9,,M*06
$GNGMP,220002.00,,,,,DAAA,35,0.5,,,,*57
$GPGMP,220002.00,,,,,,08,,,,3.1,136*71
$GLGMP,220002.00,,,,,,09,,,,,*74
$GAGMP,220002.00,,,,,,06,,,,,*76
$GBGMP,220002.00,,,,,,12,,,,,*70
$PSSN,SNC,[0,338420000,2347]*4A
$GPZDA,220007.00,01,01,2025,,*64
$GPDTM,W84,,00.0000000,N,00.0000000,E,00.0000000,W84*5F
$PSSN,TFM,220007.00,,,,*68
$GPRMC,220007.00,A,4742.1600583,N,01618.1003431,E,0.0,,010125,5.1,E,D*1C
$GPGLL,4742.1600583,N,01618.1003431,E,220007.00,A,D*6D
$GPGGA,220007.00,4742.1600583,N,01618.1003431,E,2,35,0.5,708.2821,M,43.2066,M,2.1,0136*47
$GNGNS,220007.00,4742.1600583,N,01618.1003431,E,DAAA,35,0.5,708.2821,43.2066,,*5C
$GPGNS,220007.00,,,,,,08,,,,2.1,136*75
$GLGNS,220007.00,,,,,,09,,,,,*71
$GAGNS,220007.00,,,,,,06,,,,,*73
$GBGNS,220007.00,,,,,,12,,,,,*75
$GPLLQ,220007.00,010125,,M,,M,1,35,1.106,,M*16
$GPVTG,,T,,M,0.00,N,0.00,K,D*26
$GPHDT,,T*1B
$GPTHS,,V*0E
$GPROT,,V*08
$PSSN,HRP,220007.00,010125,,,,,,,00,0,,*66
$PTNL,AVR,220007.00,,Yaw,,Tilt,,,,0,,00*30
$GPGSA,A,3,02,08,10,14,21,23,27,32,,,,,0.8,0.5,0.7*30
$GPGSA,A,3,67,68,69,74,75,76,83,84,85,,,,0.8,0.5,0.7*32
$GPGSA,A,3,07,08,13,26,31,33,,,,,,,0.8,0.5,0.7*33
$GPGSA,A,3,05,13,14,27,28,30,33,36,39,41,42,60,0.8,0.5,0.7*3C
$GPGST,220007.00,2.068,0.526,0.311,21.779,0.502,0.349,0.922*64
$GPGBS,220007.00,3.733,2.346,5.028,68,0.0001,5.964,6.072*52
$GPGRS,220007.00,1,0.2,-0.2,-0.1,0.2,0.0,-0.1,0.1,0.0,,,,*67
$GPGRS,220007.00,1,4.1,6.0,0.4,-1.9,-0.6,-5.7,-1.6,-2.0,2.4,,,*42
$GPGRS,220007.00,1,-0.1,0.0,0.1,-0.1,0.2,-0.2,,,,,,*65
$GPGRS,220007.00,1,2.0,-0.3,0.0,0.4,0.4,0.4,-0.8,-0.7,-3.0,0.6,-1.3,-1.0*45
$GPGSV,5,1,19,08,72,225,50,14,11,324,38,23,12,051,39,32,39,118,47*7F
$GPGSV,5,2,19,02,37,288,45,27,48,160,48,10,53,055,49,21,58,295,46*79
$GPGSV,5,3,19,24,00,038,,03,03,227,37,36,35,170,44,58,13,245,38*7B
$GPGSV,5,4,19,57,11,108,37,34,31,208,42,40,24,132,35,49,34,195,44*75
$GPGSV,5,5,19,41,07,108,34,61,03,257,38*72
$GLGSV,3,1,10,84,69,359,40,83,28,100,37,75,20,293,46,68,48,051,50*63
$GLGSV,3,2,10,85,23,305,47,69,56,146,52,76,09,349,44,70,03,191,*6F
$GLGSV,3,3,10,67,06,023,41,74,06,244,38*6B
$GAGSV,3,1,11,26,78,002,48,13,33,082,43,31,29,295,42,23,29,235,*6F
$GAGSV,3,2,11,07,34,123,43,08,30,060,43,33,36,282,44,03,01,021,25*6F
$GAGSV,3,3,11,29,06,170,,21,04,192,24,24,03,338,36*50
$GBGSV,6,1,23,27,70,302,51,13,18,051,39,58,10,250,,05,24,128,39*66
$GBGSV,6,2,23,14,30,047,44,29,13,295,,60,11,108,40,31,12,074,*65
$GBGSV,6,3,23,30,19,301,43,41,54,167,50,33,53,068,49,57,53,255,*63
$GBGSV,6,4,23,28,61,118,51,32,08,201,,36,07,306,40,39,06,074,38*64
$GBGSV,6,5,23,16,03,063,,42,07,037,38,43,00,121,,46,03,259,*6C
$GBGSV,6,6,23,02,08,105,34,08,10,049,34,20,01,195,*5E
$GPGGA,220007.00,,,,,0,00,,,M,,M,,*4F
$PTNL,GGK,220007.00,010125,4742.1600583,N,01618.1003431,E,1,35,0.8,EHT751.4886,M*44
$GPGGQ,220007.00,010125,4742.1600583,N,01618.1003431,E,1,35,1.106,708.2821,M*33
$GPGFA,220007.00,5.000,7.562,0.526,0.311,21.779,0.922,,VVV*36
$GPLLK,220007.00,010125,,M,,M,1,35,0.9,,M*03
$GNGMP,220007.00,,,,,DAAA,35,0.5,,,,*52
$GPGMP,220007.00,,,,,,08,,,,2.1,136*75
$GLGMP,220007.00,,,,,,09,,,,,*71
$GAGMP,220007.00,,,,,,06,,,,,*73
$GBGMP,220007.00,,,,,,12,,,,,*75
$PSSN,SNC,[0,338425000,2347]*4F
$GPZDA,220012.00,01,01,2025,,*60
$GPDTM,W84,,00.0000000,N,00.0000000,E,00.0000000,W84*5F
$PSSN,TFM,220012.00,,,,*6C
$GPRMC,220012.00,A,4742.1600590,N,01618.1003458,E,0.0,,010125,5.1,E,D*15
$GPGLL,4742.1600590,N,01618.1003458,E,220012.00,A,D*64
$GPGGA,220012.00,4742.1600590,N,01618.1003458,E,2,35,0.5,708.2868,M,43.2066,M,2.6,0136*44
$GNGNS,220012.00,4742.1600590,N,01618.1003458,E,DAAA,35,0.5,708.2868,43.2066,,*58
$GPGNS,220012.00,,,,,,08,,,,2.6,136*76
$GLGNS,220012.00,,,,,,09,,,,,*75
$GAGNS,220012.00,,,,,,06,,,,,*77
$GBGNS,220012.00,,,,,,12,,,,,*71
$GPLLQ,220012.00,010125,,M,,M,1,35,1.094,,M*18
$GPVTG,,T,,M,0.01,N,0.01,K,D*26
$GPHDT,,T*1B
$GPTHS,,V*0E
$GPROT,,V*08
$PSSN,HRP,220012.00,010125,,,,,,,00,0,,*62
$PTNL,AVR,220012.00,,Yaw,,Tilt,,,,0,,00*34
$GPGSA,A,3,02,08,10,14,21,23,27,32,,,,,0.8,0.5,0.7*30
$GPGSA,A,3,67,68,69,74,75,76,83,84,85,,,,0.8,0.5,0.7*32
$GPGSA,A,3,07,08,13,26,31,33,,,,,,,0.8,0.5,0.7*33
$GPGSA,A,3,05,13,14,27,28,30,33,36,39,41,42,60,0.8,0.5,0.7*3C
$GPGST,220012.00,2.124,0.521,0.308,20.602,0.500,0.342,0.911*63
$GPGBS,220012.00,3.687,2.348,5.177,68,0.0001,6.049,6.072*58
$GPGRS,220012.00,1,0.3,-0.2,-0.1,0.1,0.1,-0.0,0.1,-0.2,,,,*4E
$GPGRS,220012.00,1,3.8,6.0,0.0,-3.6,-1.3,-5.4,-0.3,-0.5,3.5,,,*45
$GPGRS,220012.00,1,-0.4,0.0,-0.0,-0.0,0.1,-0.1,,,,,,*49
$GPGRS,220012.00,1,2.0,-0.5,0.3,0.5,0.4,0.3,-0.9,-0.6,-2.9,0.6,-1.1,-1.3*4B
$GPGSV,5,1,19,08,72,225,50,14,11,324,38,23,12,051,38,32,39,118,47*7E
$GPGSV,5,2,19,02,37,288,46,27,48,160,48,10,53,055,49,21,58,295,46*7A
$GPGSV,5,3,19,24,00,038,,03,03,227,37,36,35,170,44,58,13,245,38*7B
$GPGSV,5,4,19,57,11,108,37,34,31,208,42,40,24,132,35,49,34,195,44*75
$GPGSV,5,5,19,41,07,108,34,61,03,257,38*72
$GLGSV,3,1,10,84,69,359,40,83,28,100,38,75,20,293,45,68,48,051,50*6F
$GLGSV,3,2,10,85,23,305,47,69,56,146,52,76,09,349,44,70,03,191,*6F
$GLGSV,3,3,10,67,06,023,42,74,06,244,38*68
$GAGSV,3,1,11,26,78,002,48,13,33,082,43,31,29,295,43,23,29,235,*6E
$GAGSV,3,2,11,07,34,123,43,08,30,060,43,33,36,282,44,03,01,021,26*6C
$GAGSV,3,3,11,29,06,170,,21,04,192,24,24,03,338,35*53
$GBGSV,6,1,23,27,70,302,51,13,18,051,39,60,11,108,40,14,30,047,44*61
$GBGSV,6,2,23,05,24,128,39,31,12,074,,29,13,295,,30,19,301,43*67
$GBGSV,6,3,23,41,54,167,50,33,53,068,49,57,53,255,,28,60,118,51*6D
$GBGSV,6,4,23,32,08,201,,20,01,195,,36,07,306,40,39,06,074,38*6B
$GBGSV,6,5,23,16,03,063,,42,07,037,39,43,00,121,,46,03,259,*6D
$GBGSV,6,6,23,02,08,105,34,58,10,250,,08,10,049,34*5B
$GPGGA,220012.00,,,,,0,00,,,M,,M,,*4B
$PTNL,GGK,220012.00,010125,4742.1600590,N,01618.1003458,E,1,35,0.8,EHT751.4933,M*42
$GPGGQ,220012.00,010125,4742.1600590,N,01618.1003458,E,1,35,1.094,708.2868,M*3D
$GPGFA,220012.00,4.957,7.471,0.521,0.308,20.602,0.911,,VVV*38
$GPLLK,220012.00,010125,,M,,M,1,35,0.9,,M*07
$GNGMP,220012.00,,,,,DAAA,35,0.5,,,,*56
$GPGMP,220012.00,,,,,,08,,,,2.6,136*76
$GLGMP,220012.00,,,,,,09,,,,,*75
$GAGMP,220012.00,,,,,,06,,,,,*77
$GBGMP,220012.00,,,,,,12,,,,,*71
$PSSN,SNC,[0,338430000,2347]*4B
$GPZDA,220017.00,01,01,2025,,*65
$GPDTM,W84,,00.0000000,N,00.0000000,E,00.0000000,W84*5F
$PSSN,TFM,220017.00,,,,*69
$GPRMC,220017.00,A,4742.1600576,N,01618.1003471,E,0.0,,010125,5.1,E,D*13
$GPGLL,4742.1600576,N,01618.1003471,E,220017.00,A,D*62
$GPGGA,220017.00,4742.1600576,N,01618.1003471,E,2,35,0.5,708.2841,M,43.2066,M,2.1,0136*4E
$GNGNS,220017.00,4742.1600576,N,01618.1003471,E,DAAA,35,0.5,708.2841,43.2066,,*55
$GPGNS,220017.00,,,,,,08,,,,2.1,136*74
$GLGNS,220017.00,,,,,,09,,,,,*70
$GAGNS,220017.00,,,,,,06,,,,,*72
$GBGNS,220017.00,,,,,,12,,,,,*74
$GPLLQ,220017.00,010125,,M,,M,1,35,1.101,,M*10
$GPVTG,,T,,M,0.00,N,0.01,K,D*27
$GPHDT,,T*1B
$GPTHS,,V*0E
$GPROT,,V*08
$PSSN,HRP,220017.00,010125,,,,,,,00,0,,*67
$PTNL,AVR,220017.00,,Yaw,,Tilt,,,,0,,00*31
$GPGSA,A,3,02,08,10,14,21,23,27,32,,,,,0.8,0.5,0.7*30
$GPGSA,A,3,67,68,69,74,75,76,83,84,85,,,,0.8,0.5,0.7*32
$GPGSA,A,3,07,08,13,26,31,33,,,,,,,0.8,0.5,0.7*33
$GPGSA,A,3,05,13,14,27,28,30,33,36,39,41,42,60,0.8,0.5,0.7*3C
$GPGST,220017.00,2.082,0.524,0.307,21.786,0.500,0.345,0.918*63
$GPGBS,220017.00,3.722,2.385,5.111,68,0.0001,5.881,6.072*5D
$GPGRS,220017.00,1,0.3,-0.1,-0.1,-0.1,0.2,0.1,-0.1,-0.2,,,,*67
$GPGRS,220017.00,1,3.2,5.9,0.4,-1.7,-0.6,-6.2,0.5,-1.9,3.1,,,*64
$GPGRS,220017.00,1,-0.2,-0.2,0.2,-0.0,-0.1,0.1,,,,,,*4A
$GPGRS,220017.00,1,2.1,-0.1,-0.2,0.6,-0.1,0.5,-0.5,-0.9,-3.5,0.2,-0.7,-1.3*47
$GPGSV,5,1,19,08,72,225,50,14,11,324,38,23,12,051,38,32,39,118,47*7E
$GPGSV,5,2,19,02,37,288,45,27,48,160,47,10,53,055,49,21,58,295,46*76
$GPGSV,5,3,19,24,00,038,,03,03,227,37,36,35,170,44,58,13,245,38*7B
$GPGSV,5,4,19,57,11,108,37,34,31,208,42,40,24,132,35,49,34,195,44*75
$GPGSV,5,5,19,41,07,108,34,61,03,257,38*72
$GLGSV,3,1,10,84,69,000,40,83,28,100,38,75,20,293,47,68,48,051,50*62
$GLGSV,3,2,10,85,24,305,47,69,56,146,53,76,09,349,44,70,03,191,*69
$GLGSV,3,3,10,67,06,023,41,74,06,244,39*6A
$GAGSV,3,1,11,26,78,002,48,13,33,083,43,31,29,295,42,23,29,235,*6E
$GAGSV,3,2,11,07,34,123,43,08,30,060,43,33,36,282,43,03,01,020,25*69
$GAGSV,3,3,11,29,06,170,,21,04,192,25,24,03,338,35*52
$GBGSV,6,1,23,27,70,302,51,13,18,051,39,60,11,108,40,14,30,047,43*66
$GBGSV,6,2,23,05,24,128,39,31,12,074,,29,13,295,,30,19,301,43*67
$GBGSV,6,3,23,41,54,167,50,33,53,068,49,57,53,255,,28,60,118,50*6C
$GBGSV,6,4,23,32,08,201,,20,01,195,,36,07,306,39,39,06,074,38*65
$GBGSV,6,5,23,16,03,063,,42,07,037,38,43,00,121,,46,03,259,*6C
$GBGSV,6,6,23,02,08,105,33,58,10,250,,08,10,049,35*5D
$GPGGA,220017.00,,,,,0,00,,,M,,M,,*4E
$PTNL,GGK,220017.00,010125,4742.1600576,N,01618.1003471,E,1,35,0.8,EHT751.4907,M*43
$GPGGQ,220017.00,010125,4742.1600576,N,01618.1003471,E,1,35,1.101,708.2841,M*3D
$GPGFA,220017.00,4.984,7.530,0.524,0.307,21.786,0.918,,VVV*38
$GPLLK,220017.00,010125,,M,,M,1,35,0.9,,M*02
$GNGMP,220017.00,,,,,DAAA,35,0.5,,,,*53
$GPGMP,220017.00,,,,,,08,,,,2.1,136*74
$GLGMP,220017.00,,,,,,09,,,,,*70
$GAGMP,220017.00,,,,,,06,,,,,*72
$GBGMP,220017.00,,,,,,12,,,,,*74
$PSSN,SNC,[0,338435000,2347]*4E
$GPZDA,220022.00,01,01,2025,,*63
$GPDTM,W84,,00.0000000,N,00.0000000,E,00.0000000,W84*5F
$PSSN,TFM,220022.00,,,,*6F
$GPRMC,220022.00,A,4742.1600578,N,01618.1003478,E,0.0,,010125,5.1,E,D*12
$GPGLL,4742.1600578,N,01618.1003478,E,220022.00,A,D*63
$GPGGA,220022.00,4742.1600578,N,01618.1003478,E,2,35,0.5,708.2845,M,43.2066,M,3.1,0136*4A
$GNGNS,220022.00,4742.1600578,N,01618.1003478,E,DAAA,35,0.5,708.2845,43.2066,,*50
$GPGNS,220022.00,,,,,,08,,,,3.1,136*73
$GLGNS,220022.00,,,,,,09,,,,,*76
$GAGNS,220022.00,,,,,,06,,,,,*74
$GBGNS,220022.00,,,,,,12,,,,,*72
$GPLLQ,220022.00,010125,,M,,M,1,35,1.106,,M*11
$GPVTG,,T,,M,0.00,N,0.00,K,D*26
$GPHDT,,T*1B
$GPTHS,,V*0E
$GPROT,,V*08
$PSSN,HRP,220022.00,010125,,,,,,,00,0,,*61
$PTNL,AVR,220022.00,,Yaw,,Tilt,,,,0,,00*37
$GPGSA,A,3,02,08,10,14,21,23,27,32,,,,,0.8,0.5,0.7*30
$GPGSA,A,3,67,68,69,74,75,76,83,84,85,,,,0.8,0.5,0.7*32
$GPGSA,A,3,07,08,13,26,31,33,,,,,,,0.8,0.5,0.7*33
$GPGSA,A,3,05,13,14,27,28,30,33,36,39,41,42,60,0.8,0.5,0.7*3C
$GPGST,220022.00,2.141,0.524,0.309,23.060,0.497,0.350,0.923*6B
$GPGBS,220022.00,3.794,2.417,5.223,68,0.0001,6.085,6.072*57
$GPGRS,220022.00,1,-0.2,-0.3,0.0,-0.1,0.3,-0.0,0.2,-0.2,,,,*60
$GPGRS,220022.00,1,3.0,6.1,1.1,-1.8,0.4,-6.1,-2.1,-1.2,3.9,,,*64
$GPGRS,220022.00,1,-0.1,-0.3,0.3,-0.0,-0.4,0.3,,,,,,*48
$GPGRS,220022.00,1,1.9,0.6,-0.2,0.5,0.2,0.4,-0.3,-1.4,-3.1,0.3,-0.9,-1.2*4C
$GPGSV,5,1,19,08,72,225,50,14,11,324,38,23,12,051,38,32,39,118,47*7E
$GPGSV,5,2,19,02,37,288,45,27,48,160,48,10,53,055,49,21,58,295,46*79
$GPGSV,5,3,19,24,00,038,,03,03,227,37,36,35,170,44,58,13,245,38*7B
$GPGSV,5,4,19,57,11,108,37,34,31,208,42,40,24,132,35,49,34,195,43*72
$GPGSV,5,5,19,41,07,108,34,61,03,257,38*72
$GLGSV,3,1,10,84,69,000,40,83,28,100,39,75,20,293,46,68,48,051,50*62
$GLGSV,3,2,10,85,24,306,47,69,56,146,53,76,09,349,43,70,03,191,*6D
$GLGSV,3,3,10,67,06,023,41,74,06,244,39*6A
$GAGSV,3,1,11,26,78,002,48,13,33,083,43,31,29,295,42,23,29,235,*6E
$GAGSV,3,2,11,07,34,123,43,08,30,060,43,33,36,282,43,03,01,020,27*6B
$GAGSV,3,3,11,29,06,170,,21,04,192,25,24,03,338,36*51
$GBGSV,6,1,23,27,70,302,51,13,18,051,39,60,11,108,40,14,30,047,44*61
$GBGSV,6,2,23,05,24,128,39,31,12,074,,29,13,295,,30,19,301,43*67
$GBGSV,6,3,23,41,54,167,50,33,53,068,49,57,53,255,,28,60,118,50*6C
$GBGSV,6,4,23,32,08,201,,20,01,195,,36,07,306,39,39,06,074,38*65
$GBGSV,6,5,23,16,03,063,,42,07,036,38,43,00,121,,46,03,259,*6D
$GBGSV,6,6,23,02,08,105,33,58,10,250,,08,10,049,34*5C
$GPGGA,220022.00,,,,,0,00,,,M,,M,,*48
$PTNL,GGK,220022.00,010125,4742.1600578,N,01618.1003478,E,1,35,0.8,EHT751.4910,M*44
$GPGGQ,220022.00,010125,4742.1600578,N,01618.1003478,E,1,35,1.106,708.2845,M*3F
$GPGFA,220022.00,4.985,7.570,0.524,0.309,23.060,0.923,,VVV*30
$GPLLK,220022.00,010125,,M,,M,1,35,0.9,,M*04
$GNGMP,220022.00,,,,,DAAA,35,0.5,,,,*55
$GPGMP,220022.00,,,,,,08,,,,3.1,136*73
$GLGMP,220022.00,,,,,,09,,,,,*76
$GAGMP,220022.00,,,,,,06,,,,,*74
$GBGMP,220022.00,,,,,,12,,,,,*72
$PSSN,SNC,[0,338440000,2347]*4C
$GPZDA,220027.00,01,01,2025,,*66
$GPDTM,W84,,00.0000000,N,00.0000000,E,00.0000000,W84*5F
$PSSN,TFM,220027.00,,,,*6A
$GPRMC,220027.00,A,4742.1600575,N,01618.1003466,E,0.0,,010125,5.1,E,D*15
$GPGLL,4742.1600575,N,01618.1003466,E,220027.00,A,D*64
$GPGGA,220027.00,4742.1600575,N,01618.1003466,E,2,35,0.5,708.2835,M,43.2066,M,2.1,0136*4B
$GNGNS,220027.00,4742.1600575,N,01618.1003466,E,DAAA,35,0.5,708.2835,43.2066,,*50
$GPGNS,220027.00,,,,,,08,,,,2.1,136*77
$GLGNS,220027.00,,,,,,09,,,,,*73
$GAGNS,220027.00,,,,,,06,,,,,*71
$GBGNS,220027.00,,,,,,12,,,,,*77
$GPLLQ,220027.00,010125,,M,,M,1,35,1.106,,M*14
$GPVTG,,T,,M,0.00,N,0.01,K,D*27
$GPHDT,,T*1B
$GPTHS,,V*0E
$GPROT,,V*08
$PSSN,HRP,220027.00,010125,,,,,,,00,0,,*64
$PTNL,AVR,220027.00,,Yaw,,Tilt,,,,0,,00*32
$GPGSA,A,3,02,08,10,14,21,23,27,32,,,,,0.8,0.5,0.7*30
$GPGSA,A,3,67,68,69,74,75,76,83,84,85,,,,0.8,0.5,0.7*32
$GPGSA,A,3,07,08,13,26,31,33,,,,,,,0.8,0.5,0.7*33
$GPGSA,A,3,05,13,14,27,28,30,33,36,39,41,42,60,0.8,0.5,0.7*3C
$GPGST,220027.00,2.081,0.525,0.311,21.888,0.501,0.349,0.923*61
$GPGBS,220027.00,3.740,2.351,5.011,68,0.0001,5.973,6.072*5E
$GPGRS,220027.00,1,-0.0,-0.1,-0.0,0.4,0.2,-0.2,0.2,-0.2,,,,*63
$GPGRS,220027.00,1,3.1,6.0,0.2,-2.6,-0.3,-5.6,-1.6,-1.9,3.3,,,*45
$GPGRS,220027.00,1,-0.1,-0.1,-0.1,-0.2,-0.4,0.2,,,,,,*63
$GPGRS,220027.00,1,1.9,0.3,1.0,0.5,0.1,-0.3,-0.5,-1.7,-2.9,0.1,-1.3,-1.4*48
$GPGSV,5,1,19,08,72,225,51,14,11,324,39,23,12,051,38,32,39,118,47*7E
$GPGSV,5,2,19,02,37,288,46,27,48,160,48,10,53,055,49,21,58,295,46*7A
$GPGSV,5,3,19,24,00,038,,03,03,227,36,36,35,170,45,58,13,245,38*7B
$GPGSV,5,4,19,57,11,108,37,34,31,208,43,40,24,132,36,49,34,195,44*77
$GPGSV,5,5,19,41,07,108,34,61,03,257,38*72
$GLGSV,3,1,10,84,69,000,40,83,28,100,38,75,20,293,46,68,48,051,50*63
$GLGSV,3,2,10,85,24,306,46,69,56,146,52,76,09,349,44,70,03,191,*6A
$GLGSV,3,3,10,67,06,023,41,74,06,244,38*6B
$GAGSV,3,1,11,26,78,003,48,13,33,083,43,31,29,295,42,23,29,235,*6F
$GAGSV,3,2,11,07,34,123,43,08,30,060,43,33,36,282,44,03,01,020,27*6C
$GAGSV,3,3,11,29,06,170,,21,04,192,25,24,03,338,36*51
$GBGSV,6,1,23,27,70,302,51,13,18,051,39,60,11,108,40,14,30,047,44*61
$GBGSV,6,2,23,05,24,128,39,31,12,074,,29,13,295,,30,19,301,42*66
$GBGSV,6,3,23,41,54,167,50,33,53,068,49,57,53,255,,28,60,118,50*6C
$GBGSV,6,4,23,32,08,201,,20,01,195,,36,07,306,40,39,06,074,38*6B
$GBGSV,6,5,23,16,03,063,,42,07,036,38,43,00,121,,46,03,259,*6D
$GBGSV,6,6,23,02,09,105,34,58,10,250,,08,10,049,35*5B
$GPGGA,220027.00,,,,,0,00,,,M,,M,,*4D
$PTNL,GGK,220027.00,010125,4742.1600575,N,01618.1003466,E,1,35,0.8,EHT751.4901,M*43
$GPGGQ,220027.00,010125,4742.1600575,N,01618.1003466,E,1,35,1.106,708.2835,M*3F
$GPGFA,220027.00,4.995,7.565,0.525,0.311,21.888,0.923,,VVV*34
$GPLLK,220027.00,010125,,M,,M,1,35,0.9,,M*01
$GNGMP,220027.00,,,,,DAAA,35,0.5,,,,*50
$GPGMP,220027.00,,,,,,08,,,,2.1,136*77
$GLGMP,220027.00,,,,,,09,,,,,*73
$GAGMP,220027.00,,,,,,06,,,,,*71
$GBGMP,220027.00,,,,,,12,,,,,*77
$PSSN,SNC,[0,338445000,2347]*49
$GPZDA,220032.00,01,01,2025,,*62
$GPDTM,W84,,00.0000000,N,00.0000000,E,00.0000000,W84*5F
$PSSN,TFM,220032.00,,,,*6E
$GPRMC,220032.00,A,4742.1600564,N,01618.1003472,E,0.0,,010125,5.1,E,D*14
$GPGLL,4742.1600564,N,01618.1003472,E,220032.00,A,D*65
$GPGGA,220032.00,4742.1600564,N,01618.1003472,E,2,35,0.5,708.2842,M,43.2066,M,2.6,0136*4D
$GNGNS,220032.00,4742.1600564,N,01618.1003472,E,DAAA,35,0.5,708.2842,43.2066,,*51
$GPGNS,220032.00,,,,,,08,,,,2.6,136*74
$GLGNS,220032.00,,,,,,09,,,,,*77
$GAGNS,220032.00,,,,,,06,,,,,*75
$GBGNS,220032.00,,,,,,12,,,,,*73
$GPLLQ,220032.00,010125,,M,,M,1,35,1.094,,M*1A
$GPVTG,,T,,M,0.00,N,0.00,K,D*26
$GPHDT,,T*1B
$GPTHS,,V*0E
$GPROT,,V*08
$PSSN,HRP,220032.00,010125,,,,,,,00,0,,*60
$PTNL,AVR,220032.00,,Yaw,,Tilt,,,,0,,00*36
$GPGSA,A,3,02,08,10,14,21,23,27,32,,,,,0.8,0.5,0.7*30
$GPGSA,A,3,67,68,69,74,75,76,83,84,85,,,,0.8,0.5,0.7*32
$GPGSA,A,3,07,08,13,26,31,33,,,,,,,0.8,0.5,0.7*33
$GPGSA,A,3,05,13,14,27,28,30,33,36,39,41,42,60,0.8,0.5,0.7*3C
$GPGST,220032.00,2.026,0.521,0.308,20.693,0.499,0.342,0.912*68
$GPGBS,220032.00,3.697,2.352,5.162,68,0.0001,6.164,6.072*5A
$GPGRS,220032.00,1,-0.2,-0.2,0.0,0.5,-0.2,0.3,-0.1,0.2,,,,*48
$GPGRS,220032.00,1,2.8,6.2,0.0,-1.9,-1.0,-5.0,-1.1,-2.5,2.7,,,*4C
$GPGRS,220032.00,1,0.1,-0.1,-0.1,0.1,-0.1,0.1,,,,,,*62
$GPGRS,220032.00,1,2.2,0.5,1.5,0.6,-0.0,0.1,-0.4,-1.5,-3.2,0.3,-0.9,-1.5*46
$GPGSV,5,1,19,08,72,225,51,14,11,324,39,23,12,051,38,32,39,117,47*71
$GPGSV,5,2,19,02,37,288,45,27,48,161,47,10,53,055,49,21,58,295,45*74
$GPGSV,5,3,19,24,00,038,,03,03,227,36,36,35,170,44,58,13,245,38*7A
$GPGSV,5,4,19,57,11,108,37,34,31,208,42,40,24,132,35,49,34,195,44*75
$GPGSV,5,5,19,41,07,108,34,61,03,257,38*72
$GLGSV,3,1,10,84,69,000,40,83,28,100,37,75,20,293,45,68,48,051,51*6E
$GLGSV,3,2,10,85,24,306,46,69,56,146,52,76,09,349,44,70,04,191,*6D
$GLGSV,3,3,10,67,06,023,41,74,06,244,39*6A
$GAGSV,3,1,11,26,78,003,49,13,33,083,43,31,29,295,42,23,29,235,*6E
$GAGSV,3,2,11,07,34,123,44,08,30,060,43,33,36,282,44,03,01,020,26*6A
$GAGSV,3,3,11,29,06,170,,21,03,192,25,24,03,338,37*57
$GBGSV,6,1,23,27,70,302,51,13,18,051,39,60,11,108,40,14,30,047,44*61
$GBGSV,6,2,23,05,24,128,39,31,12,074,,29,13,295,,30,19,301,43*67
$GBGSV,6,3,23,41,54,167,50,33,53,068,49,57,53,255,,28,60,118,50*6C
$GBGSV,6,4,23,32,08,201,,20,01,195,,36,07,306,39,39,06,074,38*65
$GBGSV,6,5,23,16,03,063,,42,07,036,39,43,00,121,,46,03,259,*6C
$GBGSV,6,6,23,02,09,105,33,58,10,250,,08,10,049,34*5D
$GPGGA,220032.00,,,,,0,00,,,M,,M,,*49
$PTNL,GGK,220032.00,010125,4742.1600564,N,01618.1003472,E,1,35,0.8,EHT751.4908,M*4B
$GPGGQ,220032.00,010125,4742.1600564,N,01618.1003472,E,1,35,1.094,708.2842,M*34
$GPGFA,220032.00,4.953,7.476,0.521,0.308,20.693,0.912,,VVV*32
$GPLLK,220032.00,010125,,M,,M,1,35,0.9,,M*05
$GNGMP,220032.00,,,,,DAAA,35,0.5,,,,*54
$GPGMP,220032.00,,,,,,08,,,,2.6,136*74
$GLGMP,220032.00,,,,,,09,,,,,*77
$GAGMP,220032.00,,,,,,06,,,,,*75
$GBGMP,220032.00,,,,,,12,,,,,*73
$PSSN,SNC,[0,338450000,2347]*4D
$GPZDA,220037.00,01,01,2025,,*67
$GPDTM,W84,,00.0000000,N,00.0000000,E,00.0000000,W84*5F
$PSSN,TFM,220037.00,,,,*6B
$GPRMC,220037.00,A,4742.1600547,N,01618.1003395,E,0.0,,010125,5.1,E,D*1E
$GPGLL,4742.1600547,N,01618.1003395,E,220037.00,A,D*6F
$GPGGA,220037.00,4742.1600547,N,01618.1003395,E,2,35,0.5,708.2849,M,43.2066,M,2.1,0136*4B
$GNGNS,220037.00,4742.1600547,N,01618.1003395,E,DAAA,35,0.5,708.2849,43.2066,,*50
$GPGNS,220037.00,,,,,,08,,,,2.1,136*76
$GLGNS,220037.00,,,,,,09,,,,,*72
$GAGNS,220037.00,,,,,,06,,,,,*70
$GBGNS,220037.00,,,,,,12,,,,,*76
$GPLLQ,220037.00,010125,,M,,M,1,35,1.101,,M*12
$GPVTG,,T,,M,0.00,N,0.00,K,D*26
$GPHDT,,T*1B
$GPTHS,,V*0E
$GPROT,,V*08
$PSSN,HRP,220037.00,010125,,,,,,,00,0,,*65
$PTNL,AVR,220037.00,,Yaw,,Tilt,,,,0,,00*33
$GPGSA,A,3,02,08,10,14,21,23,27,32,,,,,0.8,0.5,0.7*30
$GPGSA,A,3,67,68,69,74,75,76,83,84,85,,,,0.8,0.5,0.7*32
$GPGSA,A,3,07,08,13,26,31,33,,,,,,,0.8,0.5,0.7*33
$GPGSA,A,3,05,13,14,27,28,30,33,36,39,41,42,60,0.8,0.5,0.7*3C
$GPGST,220037.00,2.077,0.524,0.307,21.888,0.499,0.345,0.919*6A
$GPGBS,220037.00,3.730,2.388,5.091,68,0.0001,6.971,6.072*55
$GPGRS,220037.00,1,-0.3,-0.1,0.2,-0.4,-0.1,0.5,0.1,0.2,,,,*49
$GPGRS,220037.00,1,3.9,7.0,0.4,-2.2,-1.3,-5.0,-1.3,-0.8,2.1,,,*4E
$GPGRS,220037.00,1,-0.0,0.0,0.2,0.4,0.1,0.5,,,,,,*65
$GPGRS,220037.00,1,2.3,0.4,0.8,0.7,0.2,0.4,-0.2,-0.4,-2.8,0.6,-0.4,-1.3*67
$GPGSV,5,1,19,08,72,224,50,14,11,324,39,23,11,051,39,32,39,117,47*73
$GPGSV,5,2,19,02,37,288,45,27,47,161,48,10,53,055,49,21,58,295,45*74
$GPGSV,5,3,19,24,01,038,,03,03,227,36,36,35,170,44,58,13,245,38*7B
$GPGSV,5,4,19,57,11,108,37,34,31,208,42,40,24,132,36,49,34,195,44*76
$GPGSV,5,5,19,41,07,108,34,61,03,257,38*72
$GLGSV,3,1,10,84,69,000,40,83,28,100,38,75,20,293,46,68,48,050,51*63
$GLGSV,3,2,10,85,24,306,47,69,56,146,52,76,09,349,43,70,04,191,*6B
$GLGSV,3,3,10,67,06,023,41,74,06,244,38*6B
$GAGSV,3,1,11,26,78,003,49,13,33,083,43,31,29,295,42,23,29,235,*6E
$GAGSV,3,2,11,07,34,123,44,08,30,060,43,33,37,282,44,03,01,020,27*6A
$GAGSV,3,3,11,29,06,170,,21,03,192,25,24,03,338,37*57
$GBGSV,6,1,23,27,70,302,51,13,18,051,39,60,11,108,40,14,30,047,44*61
$GBGSV,6,2,23,05,24,128,39,31,12,074,,29,13,295,,30,19,301,43*67
$GBGSV,6,3,23,41,54,167,50,33,53,068,49,57,53,256,,28,60,118,50*6F
$GBGSV,6,4,23,32,08,201,,20,01,195,,36,07,306,39,39,06,074,38*65
$GBGSV,6,5,23,16,03,063,,42,07,036,39,43,00,122,,46,03,259,*6F
$GBGSV,6,6,23,02,09,105,34,58,10,250,,08,10,049,34*5A
$GPGGA,220037.00,,,,,0,00,,,M,,M,,*4C
$PTNL,GGK,220037.00,010125,4742.1600547,N,01618.1003395,E,1,35,0.8,EHT751.4914,M*4C
$GPGGQ,220037.00,010125,4742.1600547,N,01618.1003395,E,1,35,1.101,708.2849,M*38
$GPGFA,220037.00,4.979,7.533,0.524,0.307,21.888,0.919,,VVV*3B
$GPLLK,220037.00,010125,,M,,M,1,35,0.9,,M*00
$GNGMP,220037.00,,,,,DAAA,35,0.5,,,,*51
$GPGMP,220037.00,,,,,,08,,,,2.1,136*76
$GLGMP,220037.00,,,,,,09,,,,,*72
$GAGMP,220037.00,,,,,,06,,,,,*70
$GBGMP,220037.00,,,,,,12,,,,,*76
$PSSN,SNC,[0,338455000,2347]*48
$GPZDA,220042.00,01,01,2025,,*65
$GPDTM,W84,,00.0000000,N,00.0000000,E,00.0000000,W84*5F
$PSSN,TFM,220042.00,,,,*69
$GPRMC,220042.00,A,4742.1600527,N,01618.1003355,E,0.0,,010125,5.1,E,D*16
$GPGLL,4742.1600527,N,01618.1003355,E,220042.00,A,D*67
$GPGGA,220042.00,4742.1600527,N,01618.1003355,E,2,35,0.5,708.2840,M,43.2066,M,3.1,0136*4B
$GNGNS,220042.00,4742.1600527,N,01618.1003355,E,DAAA,35,0.5,708.2840,43.2066,,*51
$GPGNS,220042.00,,,,,,08,,,,3.1,136*75
$GLGNS,220042.00,,,,,,09,,,,,*70
$GAGNS,220042.00,,,,,,06,,,,,*72
$GBGNS,220042.00,,,,,,12,,,,,*74
$GPLLQ,220042.00,010125,,M,,M,1,35,1.106,,M*17
$GPVTG,,T,,M,0.00,N,0.01,K,D*27
$GPHDT,,T*1B
$GPTHS,,V*0E
$GPROT,,V*08
$PSSN,HRP,220042.00,010125,,,,,,,00,0,,*67
$PTNL,AVR,220042.00,,Yaw,,Tilt,,,,0,,00*31
$GPGSA,A,3,02,08,10,14,21,23,27,32,,,,,0.8,0.5,0.7*30
$GPGSA,A,3,67,68,69,74,75,76,83,84,85,,,,0.8,0.5,0.7*32
$GPGSA,A,3,07,08,13,26,31,33,,,,,,,0.8,0.5,0.7*33
$GPGSA,A,3,05,13,14,27,28,30,33,36,39,41,42,60,0.8,0.5,0.7*3C
$GPGST,220042.00,2.172,0.524,0.310,23.029,0.497,0.351,0.924*6E
$GPGBS,220042.00,3.825,2.426,5.195,68,0.0001,6.370,6.072*51
$GPGRS,220042.00,1,0.3,-0.2,0.1,-0.0,-0.0,0.3,-0.0,-0.0,,,,*66
$GPGRS,220042.00,1,3.5,6.4,0.3,-2.3,-1.1,-6.6,-0.8,-0.6,3.3,,,*43
$GPGRS,220042.00,1,-0.3,0.1,0.4,0.0,0.0,0.1,,,,,,*62
$GPGRS,220042.00,1,1.9,0.2,0.3,0.5,0.1,0.4,-0.4,-0.7,-3.1,0.3,-0.8,-1.2*65
$GPGSV,5,1,19,08,72,224,50,14,11,324,39,23,11,051,39,32,39,117,47*73
$GPGSV,5,2,19,02,37,288,46,27,47,161,48,10,53,055,49,21,58,295,46*74
$GPGSV,5,3,19,24,01,038,,03,03,227,36,36,35,170,44,58,13,245,38*7B
$GPGSV,5,4,19,57,11,108,37,34,31,208,42,40,24,132,35,49,34,195,44*75
$GPGSV,5,5,19,41,07,108,34,61,03,257,38*72
$GLGSV,3,1,10,84,69,000,40,83,27,100,39,75,20,293,45,68,48,050,51*6E
$GLGSV,3,2,10,85,24,306,47,69,56,146,53,76,09,349,43,70,04,191,*6A
$GLGSV,3,3,10,67,06,023,41,74,06,244,39*6A
$GAGSV,3,1,11,26,78,003,49,13,33,083,43,31,29,295,43,23,29,235,*6F
$GAGSV,3,2,11,07,34,123,44,08,30,060,43,33,37,282,44,03,01,020,26*6B
$GAGSV,3,3,11,29,07,170,,21,03,192,26,24,03,338,36*54
$GBGSV,6,1,23,27,70,302,51,13,18,051,39,60,11,108,40,14,30,047,44*61
$GBGSV,6,2,23,05,24,128,39,31,12,074,,29,13,295,,30,19,301,43*67
$GBGSV,6,3,23,41,54,167,50,33,53,068,50,57,53,256,,28,60,118,51*66
$GBGSV,6,4,23,32,08,201,,20,01,195,,36,07,306,40,39,06,074,39*6A
$GBGSV,6,5,23,16,03,063,,42,07,036,39,43,00,122,,46,03,259,*6F
$GBGSV,6,6,23,02,09,105,34,58,10,250,,08,10,049,35*5B
$GPGGA,220042.00,,,,,0,00,,,M,,M,,*4E
$PTNL,GGK,220042.00,010125,4742.1600527,N,01618.1003355,E,1,35,0.8,EHT751.4905,M*44
$GPGGQ,220042.00,010125,4742.1600527,N,01618.1003355,E,1,35,1.106,708.2840,M*3E
$GPGFA,220042.00,4.981,7.576,0.524,0.310,23.029,0.924,,VVV*36
$GPLLK,220042.00,010125,,M,,M,1,35,0.9,,M*02
$GNGMP,220042.00,,,,,DAAA,35,0.5,,,,*53
$GPGMP,220042.00,,,,,,08,,,,3.1,136*75
$GLGMP,220042.00,,,,,,09,,,,,*70
$GAGMP,220042.00,,,,,,06,,,,,*72
$GBGMP,220042.00,,,,,,12,,,,,*74
$PSSN,SNC,[0,338460000,2347]*4E
$GPZDA,220047.00,01,01,2025,,*60
$GPDTM,W84,,00.0000000,N,00.0000000,E,00.0000000,W84*5F
$PSSN,TFM,220047.00,,,,*6C
$GPRMC,220047.00,A,4742.1600518,N,01618.1003398,E,0.0,,010125,5.1,E,D*1E
$GPGLL,4742.1600518,N,01618.1003398,E,220047.00,A,D*6F
$GPGGA,220047.00,4742.1600518,N,01618.1003398,E,2,35,0.5,708.2881,M,43.2066,M,2.1,0136*4F
$GNGNS,220047.00,4742.1600518,N,01618.1003398,E,DAAA,35,0.5,708.2881,43.2066,,*54
$GPGNS,220047.00,,,,,,08,,,,2.1,136*71
$GLGNS,220047.00,,,,,,09,,,,,*75
$GAGNS,220047.00,,,,,,06,,,,,*77
$GBGNS,220047.00,,,,,,12,,,,,*71
$GPLLQ,220047.00,010125,,M,,M,1,35,1.116,,M*13
$GPVTG,,T,,M,0.00,N,0.00,K,D*26
$GPHDT,,T*1B
$GPTHS,,V*0E
$GPROT,,V*08
$PSSN,HRP,220047.00,010125,,,,,,,00,0,,*62
$PTNL,AVR,220047.00,,Yaw,,Tilt,,,,0,,00*34
$GPGSA,A,3,02,08,10,14,21,23,27,32,,,,,0.8,0.5,0.7*30
$GPGSA,A,3,67,68,69,74,75,76,83,84,85,,,,0.8,0.5,0.7*32
$GPGSA,A,3,07,08,13,26,31,33,,,,,,,0.8,0.5,0.7*33
$GPGSA,A,3,05,13,14,27,28,30,33,36,39,41,42,60,0.8,0.5,0.7*3C
$GPGST,220047.00,2.103,0.528,0.314,22.392,0.503,0.353,0.932*6E
$GPGBS,220047.00,3.770,2.419,5.029,68,0.0001,6.367,6.072*57
$GPGRS,220047.00,1,0.7,-0.3,-0.2,-0.1,0.2,0.6,-0.1,-0.3,,,,*61
$GPGRS,220047.00,1,2.8,6.4,0.5,-2.6,-1.0,-5.7,0.7,-1.4,3.1,,,*69
$GPGRS,220047.00,1,-0.3,-0.0,0.5,-0.1,-0.4,0.0,,,,,,*4E
$GPGRS,220047.00,1,2.4,0.2,-0.2,0.5,0.2,0.3,-0.5,-1.5,-3.0,0.1,-0.8,-1.5*40
$GPGSV,5,1,19,08,72,224,50,14,11,324,39,23,11,051,39,32,39,117,47*73
$GPGSV,5,2,19,02,37,288,45,27,47,161,48,10,53,055,49,21,58,295,46*77
$GPGSV,5,3,19,24,01,038,,03,03,227,36,36,35,170,45,58,13,245,38*7A
$GPGSV,5,4,19,57,11,108,37,34,31,208,42,40,24,132,35,49,34,195,44*75
$GPGSV,5,5,19,41,07,108,34,61,03,257,38*72
$GLGSV,3,1,10,84,69,000,40,83,27,100,39,75,20,293,46,68,48,050,50*6C
$GLGSV,3,2,10,85,24,306,47,69,56,146,53,76,09,349,43,70,04,191,*6A
$GLGSV,3,3,10,67,06,023,41,74,06,244,39*6A
$GAGSV,3,1,11,26,78,003,49,13,33,083,43,31,29,295,43,23,29,235,*6F
$GAGSV,3,2,11,07,34,123,44,08,30,060,43,33,37,282,44,03,01,020,26*6B
$GAGSV,3,3,11,29,07,170,,21,03,192,26,24,03,338,36*54
$GBGSV,6,1,23,27,70,302,51,13,18,051,39,60,11,108,40,14,30,047,44*61
$GBGSV,6,2,23,05,24,128,39,31,12,074,,29,13,295,,30,19,301,43*67
$GBGSV,6,3,23,41,54,167,50,33,53,068,49,57,53,256,,28,60,119,51*6F
$GBGSV,6,4,23,32,08,201,,20,01,195,,36,07,306,40,39,06,074,39*6A
$GBGSV,6,5,23,16,03,063,,42,07,036,39,43,00,122,,46,03,259,*6F
$GBGSV,6,6,23,02,09,105,34,58,10,250,,08,10,049,35*5B
$GPGGA,220047.00,,,,,0,00,,,M,,M,,*4B
$PTNL,GGK,220047.00,010125,4742.1600518,N,01618.1003398,E,1,35,0.8,EHT751.4946,M*4B
$GPGGQ,220047.00,010125,4742.1600518,N,01618.1003398,E,1,35,1.116,708.2881,M*3A
$GPGFA,220047.00,5.019,7.643,0.528,0.314,22.392,0.932,,VVV*32
$GPLLK,220047.00,010125,,M,,M,1,35,0.9,,M*07
$GNGMP,220047.00,,,,,DAAA,35,0.5,,,,*56
$GPGMP,220047.00,,,,,,08,,,,2.1,136*71
$GLGMP,220047.00,,,,,,09,,,,,*75
$GAGMP,220047.00,,,,,,06,,,,,*77
$GBGMP,220047.00,,,,,,12,,,,,*71
$PSSN,SNC,[0,338465000,2347]*4B
$GPZDA,220052.00,01,01,2025,,*64
$GPDTM,W84,,00.0000000,N,00.0000000,E,00.0000000,W84*5F
$PSSN,TFM,220052.00,,,,*68
$GPRMC,220052.00,A,4742.1600490,N,01618.1003403,E,0.0,,010125,5.1,E,D*1E
$GPGLL,4742.1600490,N,01618.1003403,E,220052.00,A,D*6F
$GPGGA,220052.00,4742.1600490,N,01618.1003403,E,2,35,0.5,708.2882,M,43.2066,M,2.6,0136*4B
$GNGNS,220052.00,4742.1600490,N,01618.1003403,E,DAAA,35,0.5,708.2882,43.2066,,*57
$GPGNS,220052.00,,,,,,08,,,,2.6,136*72
$GLGNS,220052.00,,,,,,09,,,,,*71
$GAGNS,220052.00,,,,,,06,,,,,*73
$GBGNS,220052.00,,,,,,12,,,,,*75
$GPLLQ,220052.00,010125,,M,,M,1,35,1.104,,M*14
$GPVTG,,T,,M,0.00,N,0.01,K,D*27
$GPHDT,,T*1B
$GPTHS,,V*0E
$GPROT,,V*08
$PSSN,HRP,220052.00,010125,,,,,,,00,0,,*66
$PTNL,AVR,220052.00,,Yaw,,Tilt,,,,0,,00*30
$GPGSA,A,3,02,08,10,14,21,23,27,32,,,,,0.8,0.5,0.7*30
$GPGSA,A,3,67,68,69,74,75,76,83,84,85,,,,0.8,0.5,0.7*32
$GPGSA,A,3,07,08,13,26,31,33,,,,,,,0.8,0.5,0.7*33
$GPGSA,A,3,05,13,14,27,28,30,33,36,39,41,42,60,0.8,0.5,0.7*3C
$GPGST,220052.00,2.028,0.523,0.311,21.124,0.501,0.346,0.921*64
$GPGBS,220052.00,3.735,2.417,5.087,68,0.0001,5.923,6.072*51
$GPGRS,220052.00,1,0.1,-0.2,0.1,-0.0,0.1,0.6,-0.1,-0.2,,,,*4F
$GPGRS,220052.00,1,3.2,5.9,0.3,-3.3,-0.2,-5.4,-1.5,-1.4,2.5,,,*41
$GPGRS,220052.00,1,-0.2,-0.3,0.3,-0.0,-0.2,-0.1,,,,,,*65
$GPGRS,220052.00,1,2.2,0.1,0.7,0.6,0.0,0.1,-0.7,-1.4,-2.8,-0.1,-1.2,-1.2*41
$GPGSV,5,1,19,08,72,224,50,14,11,324,39,23,11,051,40,32,39,117,47*7D
$GPGSV,5,2,19,02,37,288,46,27,47,161,47,10,53,055,49,21,58,295,46*7B
$GPGSV,5,3,19,24,01,038,,03,03,227,37,36,35,170,44,58,13,245,38*7A
$GPGSV,5,4,19,57,11,108,37,34,31,208,42,40,24,132,35,49,34,195,44*75
$GPGSV,5,5,19,41,07,108,33,61,03,257,38*75
$GLGSV,3,1,10,84,69,000,40,83,27,100,38,75,20,293,46,68,48,050,50*6D
$GLGSV,3,2,10,85,24,306,47,69,56,146,52,76,09,349,43,70,04,191,*6B
$GLGSV,3,3,10,67,06,023,41,74,06,244,39*6A
$GAGSV,3,1,11,26,78,003,49,13,33,083,43,31,29,295,42,23,29,235,*6E
$GAGSV,3,2,11,07,34,123,44,08,30,060,43,33,37,282,44,03,01,020,27*6A
$GAGSV,3,3,11,29,07,170,,21,03,192,26,24,03,338,36*54
$GBGSV,6,1,23,27,70,302,51,13,18,051,39,60,11,108,40,14,30,047,45*60
$GBGSV,6,2,23,05,24,128,39,31,11,074,,29,13,295,,30,19,301,43*64
$GBGSV,6,3,23,41,54,167,50,33,52,068,49,57,53,256,,28,60,119,51*6E
$GBGSV,6,4,23,32,08,201,,20,01,195,,36,07,305,40,39,06,074,39*69
$GBGSV,6,5,23,16,03,063,,42,07,036,39,43,00,122,,46,03,259,*6F
$GBGSV,6,6,23,02,09,105,34,58,10,250,,08,10,049,35*5B
$GPGGA,220052.00,,,,,0,00,,,M,,M,,*4F
$PTNL,GGK,220052.00,010125,4742.1600490,N,01618.1003403,E,1,35,0.8,EHT751.4948,M*45
$GPGGQ,220052.00,010125,4742.1600490,N,01618.1003403,E,1,35,1.104,708.2882,M*3A
$GPGFA,220052.00,4.973,7.556,0.523,0.311,21.124,0.921,,VVV*35
$GPLLK,220052.00,010125,,M,,M,1,35,0.9,,M*03
$GNGMP,220052.00,,,,,DAAA,35,0.5,,,,*52
$GPGMP,220052.00,,,,,,08,,,,2.6,136*72
$GLGMP,220052.00,,,,,,09,,,,,*71
$GAGMP,220052.00,,,,,,06,,,,,*73
$GBGMP,220052.00,,,,,,12,,,,,*75
$PSSN,SNC,[0,338470000,2347]*4F
$GPZDA,220057.00,01,01,2025,,*61
$GPDTM,W84,,00.0000000,N,00.0000000,E,00.0000000,W84*5F
$PSSN,TFM,220057.00,,,,*6D
$GPRMC,220057.00,A,4742.1600464,N,01618.1003381,E,0.0,,010125,5.1,E,D*1D
$GPGLL,4742.1600464,N,01618.1003381,E,220057.00,A,D*6C
$GPGGA,220057.00,4742.1600464,N,01618.1003381,E,2,35,0.5,708.2872,M,43.2066,M,2.1,0136*40
$GNGNS,220057.00,4742.1600464,N,01618.1003381,E,DAAA,35,0.5,708.2872,43.2066,,*5B
$GPGNS,220057.00,,,,,,08,,,,2.1,136*70
$GLGNS,220057.00,,,,,,09,,,,,*74
$GAGNS,220057.00,,,,,,06,,,,,*76
$GBGNS,220057.00,,,,,,12,,,,,*70
$GPLLQ,220057.00,010125,,M,,M,1,35,1.111,,M*15
$GPVTG,,T,,M,0.01,N,0.01,K,D*26
$GPHDT,,T*1B
$GPTHS,,V*0E
$GPROT,,V*08
$PSSN,HRP,220057.00,010125,,,,,,,00,0,,*63
$PTNL,AVR,220057.00,,Yaw,,Tilt,,,,0,,00*35
$GPGSA,A,3,02,08,10,14,21,23,27,32,,,,,0.8,0.5,0.7*30
$GPGSA,A,3,67,68,69,74,75,76,83,84,85,,,,0.8,0.5,0.7*32
$GPGSA,A,3,07,08,13,26,31,33,,,,,,,0.8,0.5,0.7*33
$GPGSA,A,3,05,13,14,27,28,30,33,36,39,41,42,60,0.8,0.5,0.7*3C
$GPGST,220057.00,1.968,0.526,0.310,22.321,0.501,0.350,0.928*61
$GPGBS,220057.00,3.762,2.458,5.176,68,0.0001,5.650,6.072*59
$GPGRS,220057.00,1,-0.4,-0.2,0.2,0.4,0.2,0.4,0.1,-0.3,,,,*65
$GPGRS,220057.00,1,2.7,5.6,0.3,-2.3,-0.4,-5.3,-1.6,-1.2,2.7,,,*48
$GPGRS,220057.00,1,-0.5,-0.3,0.2,0.1,-0.2,-0.2,,,,,,*49
$GPGRS,220057.00,1,2.0,0.2,1.6,0.5,0.2,0.0,-0.6,-1.3,-3.6,0.2,-0.7,-1.2*66
$GPGSV,5,1,19,08,72,224,50,14,11,324,38,23,11,051,40,32,39,117,48*73
$GPGSV,5,2,19,02,37,288,46,27,47,161,47,10,53,055,49,21,58,295,46*7B
$GPGSV,5,3,19,24,01,038,,03,03,227,37,36,35,170,44,58,13,245,38*7A
$GPGSV,5,4,19,57,11,108,37,34,31,208,42,40,24,132,35,49,34,195,44*75
$GPGSV,5,5,19,41,07,108,34,61,03,257,38*72
$GLGSV,3,1,10,84,69,000,40,83,27,100,38,75,20,293,46,68,48,050,50*6D
$GLGSV,3,2,10,85,24,306,47,69,56,146,52,76,09,349,44,70,04,191,*6C
$GLGSV,3,3,10,67,06,023,41,74,06,244,39*6A
$GAGSV,3,1,11,26,78,003,49,13,33,083,44,31,29,295,43,23,29,235,*68
$GAGSV,3,2,11,07,34,123,44,08,30,060,43,33,37,282,44,03,01,020,27*6A
$GAGSV,3,3,11,29,07,170,,21,03,192,26,24,03,338,36*54
$GBGSV,6,1,23,27,70,302,51,13,18,051,39,60,11,108,40,14,30,047,45*60
$GBGSV,6,2,23,05,24,128,39,31,11,074,,29,13,295,,30,19,301,43*64
$GBGSV,6,3,23,41,54,167,50,33,52,068,50,57,53,256,,28,60,119,51*66
$GBGSV,6,4,23,32,08,201,,20,01,195,,36,07,305,40,39,06,074,38*68
$GBGSV,6,5,23,16,03,063,,42,07,036,39,43,00,122,,46,03,259,*6F
$GBGSV,6,6,23,02,09,105,34,58,10,250,,08,10,049,35*5B
$GPGGA,220057.00,,,,,0,00,,,M,,M,,*4A
$PTNL,GGK,220057.00,010125,4742.1600464,N,01618.1003381,E,1,35,0.8,EHT751.4938,M*41
$GPGGQ,220057.00,010125,4742.1600464,N,01618.1003381,E,1,35,1.111,708.2872,M*32
$GPGFA,220057.00,5.003,7.614,0.526,0.310,22.321,0.928,,VVV*33
$GPLLK,220057.00,010125,,M,,M,1,35,0.9,,M*06
$GNGMP,220057.00,,,,,DAAA,35,0.5,,,,*57
$GPGMP,220057.00,,,,,,08,,,,2.1,136*70
$GLGMP,220057.00,,,,,,09,,,,,*74
$GAGMP,220057.00,,,,,,06,,,,,*76
$GBGMP,220057.00,,,,,,12,,,,,*70
$PSSN,SNC,[0,338475000,2347]*4A
$GPZDA,220102.00,01,01,2025,,*60
$GPDTM,W84,,00.0000000,N,00.0000000,E,00.0000000,W84*5F
$PSSN,TFM,220102.00,,,,*6C
$GPRMC,220102.00,A,4742.1600461,N,01618.1003382,E,0.0,,010125,5.1,E,D*1A
$GPGLL,4742.1600461,N,01618.1003382,E,220102.00,A,D*6B
$GPGGA,220102.00,4742.1600461,N,01618.1003382,E,2,35,0.5,708.2834,M,43.2066,M,3.1,0136*44
$GNGNS,220102.00,4742.1600461,N,01618.1003382,E,DAAA,35,0.5,708.2834,43.2066,,*5E
$GPGNS,220102.00,,,,,,08,,,,3.1,136*70
$GLGNS,220102.00,,,,,,09,,,,,*75
$GAGNS,220102.00,,,,,,06,,,,,*77
$GBGNS,220102.00,,,,,,12,,,,,*71
$GPLLQ,220102.00,010125,,M,,M,1,35,1.116,,M*13
$GPVTG,,T,,M,0.00,N,0.01,K,D*27
$GPHDT,,T*1B
$GPTHS,,V*0E
$GPROT,,V*08
$PSSN,HRP,220102.00,010125,,,,,,,00,0,,*62
$PTNL,AVR,220102.00,,Yaw,,Tilt,,,,0,,00*34
$GPGSA,A,3,02,08,10,14,21,23,27,32,,,,,0.8,0.5,0.7*30
$GPGSA,A,3,67,68,69,74,75,76,83,84,85,,,,0.8,0.5,0.7*32
$GPGSA,A,3,07,08,13,26,31,33,,,,,,,0.8,0.5,0.7*33
$GPGSA,A,3,05,13,14,27,28,30,33,36,39,41,42,60,0.8,0.5,0.7*3C
$GPGST,220102.00,2.031,0.526,0.311,23.677,0.498,0.355,0.933*6E
$GPGBS,220102.00,3.835,2.491,5.256,68,0.0001,5.948,6.072*57
$GPGRS,220102.00,1,-0.0,-0.1,-0.1,-0.1,0.5,-0.1,0.0,-0.3,,,,*4B
$GPGRS,220102.00,1,3.9,5.9,0.3,-2.8,-0.3,-4.8,-2.1,-1.0,2.8,,,*46
$GPGRS,220102.00,1,-0.6,-0.0,0.4,0.1,-0.4,-0.3,,,,,,*49
$GPGRS,220102.00,1,2.1,0.3,1.2,0.6,0.2,0.2,-0.5,-0.9,-3.1,0.6,-0.9,-1.3*66
$GPGSV,5,1,19,08,72,224,50,14,11,324,38,23,11,051,39,32,39,117,47*72
$GPGSV,5,2,19,02,37,288,45,27,47,161,48,10,53,055,49,21,58,295,46*77
$GPGSV,5,3,19,24,01,038,,03,03,227,37,36,35,170,44,58,13,245,38*7A
$GPGSV,5,4,19,57,11,108,37,34,31,208,42,40,24,132,35,49,34,195,44*75
$GPGSV,5,5,19,41,07,108,34,61,03,257,38*72
$GLGSV,3,1,10,84,69,001,41,83,27,100,38,75,20,293,46,68,48,050,50*6D
$GLGSV,3,2,10,85,24,306,47,69,56,146,52,76,09,349,44,70,04,191,*6C
$GLGSV,3,3,10,67,06,023,41,74,06,244,38*6B
$GAGSV,3,1,11,26,78,004,49,13,33,083,44,31,29,295,43,23,29,235,*6F
$GAGSV,3,2,11,07,34,123,44,08,30,060,43,33,37,282,44,03,01,020,27*6A
$GAGSV,3,3,11,29,07,170,,21,03,192,27,24,03,338,36*55
$GBGSV,6,1,23,27,70,302,51,13,18,051,40,60,11,108,40,14,30,047,44*6F
$GBGSV,6,2,23,05,24,128,39,31,11,074,,29,13,295,,30,19,301,43*64
$GBGSV,6,3,23,41,54,167,50,33,52,068,49,57,53,256,,28,60,119,50*6F
$GBGSV,6,4,23,32,08,201,,20,01,195,,36,07,305,40,39,06,074,38*68
$GBGSV,6,5,23,16,03,063,,42,07,036,39,43,00,122,,46,03,259,*6F
$GBGSV,6,6,23,02,09,105,34,58,10,250,,08,10,049,35*5B
$GPGGA,220102.00,,,,,0,00,,,M,,M,,*4B
$PTNL,GGK,220102.00,010125,4742.1600461,N,01618.1003382,E,1,35,0.8,EHT751.4900,M*4D
$GPGGQ,220102.00,010125,4742.1600461,N,01618.1003382,E,1,35,1.116,708.2834,M*30
$GPGFA,220102.00,5.004,7.650,0.526,0.311,23.677,0.933,,VVV*39
$GPLLK,220102.00,010125,,M,,M,1,35,0.9,,M*07
$GNGMP,220102.00,,,,,DAAA,35,0.5,,,,*56
$GPGMP,220102.00,,,,,,08,,,,3.1,136*70
$GLGMP,220102.00,,,,,,09,,,,,*75
$GAGMP,220102.00,,,,,,06,,,,,*77
$GBGMP,220102.00,,,,,,12,,,,,*71
$PSSN,SNC,[0,338480000,2347]*40
$GPZDA,220107.00,01,01,2025,,*65
$GPDTM,W84,,00.0000000,N,00.0000000,E,00.0000000,W84*5F
$PSSN,TFM,220107.00,,,,*69
$GPRMC,220107.00,A,4742.1600453,N,01618.1003409,E,0.0,,010125,5.1,E,D*1A
$GPGLL,4742.1600453,N,01618.1003409,E,220107.00,A,D*6B
$GPGGA,220107.00,4742.1600453,N,01618.1003409,E,2,36,0.5,708.2850,M,43.2066,M,2.1,0136*44
$GNGNS,220107.00,4742.1600453,N,01618.1003409,E,DAAA,36,0.5,708.2850,43.2066,,*5F
$GPGNS,220107.00,,,,,,08,,,,2.1,136*74
$GLGNS,220107.00,,,,,,09,,,,,*70
$GAGNS,220107.00,,,,,,06,,,,,*72
$GBGNS,220107.00,,,,,,13,,,,,*75
$GPLLQ,220107.00,010125,,M,,M,1,36,1.117,,M*14
$GPVTG,,T,,M,0.00,N,0.00,K,D*26
$GPHDT,,T*1B
$GPTHS,,V*0E
$GPROT,,V*08
$PSSN,HRP,220107.00,010125,,,,,,,00,0,,*67
$PTNL,AVR,220107.00,,Yaw,,Tilt,,,,0,,00*31
$GPGSA,A,3,02,08,10,14,21,23,27,32,,,,,0.8,0.5,0.6*31
$GPGSA,A,3,67,68,69,74,75,76,83,84,85,,,,0.8,0.5,0.6*33
$GPGSA,A,3,07,08,13,26,31,33,,,,,,,0.8,0.5,0.6*32
$GPGSA,A,3,05,08,13,14,27,28,30,33,36,39,41,42,0.8,0.5,0.6*33
$GPGSA,A,3,60,,,,,,,,,,,,0.8,0.5,0.6*3F
$GPGST,220107.00,2.142,0.527,0.314,22.479,0.502,0.353,0.933*63
$GPGBS,220107.00,3.775,2.421,5.043,68,0.0001,5.792,6.072*5D
$GPGRS,220107.00,1,-0.0,-0.1,-0.3,0.2,0.4,-0.2,0.2,-0.1,,,,*60
$GPGRS,220107.00,1,4.0,5.8,0.3,-4.3,-0.1,-5.6,-0.3,-1.4,2.7,,,*47
$GPGRS,220107.00,1,-0.2,0.1,0.3,0.1,-0.1,0.2,,,,,,*4A
$GPGRS,220107.00,1,2.5,0.1,0.5,0.5,0.7,0.1,0.8,-0.7,-1.4,-3.3,0.4,-1.1*46
$GPGRS,220107.00,1,-1.3,,,,,,,,,,,*49
$GPGSV,5,1,19,08,72,224,50,14,11,324,38,23,11,051,39,32,39,117,47*72
$GPGSV,5,2,19,02,37,288,45,27,47,161,47,10,53,055,49,21,58,295,46*78
$GPGSV,5,3,19,24,01,038,,03,03,227,36,36,35,170,44,58,13,245,38*7B
$GPGSV,5,4,19,57,11,108,37,34,31,208,42,40,24,132,35,49,34,195,44*75
$GPGSV,5,5,19,41,07,108,33,61,03,257,38*75
$GLGSV,3,1,10,84,69,001,41,83,27,100,39,75,20,293,45,68,48,050,50*6F
$GLGSV,3,2,10,85,24,306,47,69,56,146,52,76,09,349,44,70,04,191,*6C
$GLGSV,3,3,10,67,06,023,41,74,06,244,37*64
$GAGSV,3,1,11,26,78,004,49,13,33,083,43,31,29,295,43,23,29,235,*68
$GAGSV,3,2,11,07,34,123,43,08,30,060,43,33,37,282,44,03,01,020,27*6D
$GAGSV,3,3,11,29,07,170,,21,03,192,26,24,03,338,36*54
$GBGSV,6,1,23,27,70,302,51,13,18,051,40,60,11,108,40,14,30,047,44*6F
$GBGSV,6,2,23,05,24,128,39,31,11,074,,29,13,295,,30,19,301,43*64
$GBGSV,6,3,23,41,54,167,50,33,52,068,49,57,53,256,,28,60,119,50*6F
$GBGSV,6,4,23,32,08,201,,20,01,195,,36,07,305,39,39,06,074,38*66
$GBGSV,6,5,23,16,03,063,,42,07,036,39,43,00,122,,46,03,258,*6E
$GBGSV,6,6,23,02,09,105,34,58,10,250,,08,10,049,35*5B
$GPGGA,220107.00,,,,,0,00,,,M,,M,,*4E
$PTNL,GGK,220107.00,010125,4742.1600453,N,01618.1003409,E,1,36,0.8,EHT751.4916,M*49
$GPGGQ,220107.00,010125,4742.1600453,N,01618.1003409,E,1,36,1.117,708.2850,M*30
$GPGFA,220107.00,5.011,7.651,0.527,0.314,22.479,0.933,,VVV*30
$GPLLK,220107.00,010125,,M,,M,1,36,0.9,,M*01
$GNGMP,220107.00,,,,,DAAA,36,0.5,,,,*50
$GPGMP,220107.00,,,,,,08,,,,2.1,136*74
$GLGMP,220107.00,,,,,,09,,,,,*70
$GAGMP,220107.00,,,,,,06,,,,,*72
$GBGMP,220107.00,,,,,,13,,,,,*75
$PSSN,SNC,[0,338485000,2347]*45
$GPZDA,220112.00,01,01,2025,,*61
$GPDTM,W84,,00.0000000,N,00.0000000,E,00.0000000,W84*5F
$PSSN,TFM,220112.00,,,,*6D
$GPRMC,220112.00,A,4742.1600450,N,01618.1003439,E,0.0,,010125,5.1,E,D*1E
$GPGLL,4742.1600450,N,01618.1003439,E,220112.00,A,D*6F
$GPGGA,220112.00,4742.1600450,N,01618.1003439,E,2,35,0.5,708.2815,M,43.2066,M,2.6,0136*45
$GNGNS,220112.00,4742.1600450,N,01618.1003439,E,DAAA,35,0.5,708.2815,43.2066,,*59
$GPGNS,220112.00,,,,,,08,,,,2.6,136*77
$GLGNS,220112.00,,,,,,09,,,,,*74
$GAGNS,220112.00,,,,,,06,,,,,*76
$GBGNS,220112.00,,,,,,12,,,,,*70
$GPLLQ,220112.00,010125,,M,,M,1,35,1.105,,M*10
$GPVTG,,T,,M,0.00,N,0.00,K,D*26
$GPHDT,,T*1B
$GPTHS,,V*0E
$GPROT,,V*08
$PSSN,HRP,220112.00,010125,,,,,,,00,0,,*63
$PTNL,AVR,220112.00,,Yaw,,Tilt,,,,0,,00*35
$GPGSA,A,3,02,08,10,14,21,23,27,32,,,,,0.8,0.5,0.7*30
$GPGSA,A,3,67,68,69,74,75,76,83,84,85,,,,0.8,0.5,0.7*32
$GPGSA,A,3,07,08,13,26,31,33,,,,,,,0.8,0.5,0.7*33
$GPGSA,A,3,05,13,14,27,28,30,33,36,39,41,42,60,0.8,0.5,0.7*3C
$GPGST,220112.00,2.251,0.523,0.311,21.226,0.500,0.346,0.922*6E
$GPGBS,220112.00,3.743,2.420,5.106,76,0.0001,-6.650,6.373*71
$GPGRS,220112.00,1,0.1,-0.1,-0.1,0.5,0.2,-0.0,0.1,-0.3,,,,*48
$GPGRS,220112.00,1,3.9,5.9,0.4,-3.6,-1.0,-6.6,-0.5,-1.3,3.2,,,*4F
$GPGRS,220112.00,1,-0.3,0.0,0.3,-0.1,0.2,-0.3,,,,,,*61
$GPGRS,220112.00,1,2.3,1.0,0.3,0.7,0.1,0.4,-0.6,-0.9,-3.0,0.5,-1.0,-1.4*6D
$GPGSV,5,1,19,08,72,224,50,14,11,324,39,23,11,051,38,32,39,117,47*72
$GPGSV,5,2,19,02,37,288,46,27,47,161,48,10,53,055,49,21,58,295,46*74
$GPGSV,5,3,19,24,01,038,,03,03,227,37,36,35,170,44,58,13,245,38*7A
$GPGSV,5,4,19,57,11,108,37,34,31,208,42,40,24,132,35,49,34,195,44*75
$GPGSV,5,5,19,41,07,108,34,61,03,257,38*72
$GLGSV,3,1,10,84,69,001,41,83,27,100,39,75,20,293,47,68,48,050,50*6D
$GLGSV,3,2,10,85,24,306,46,69,56,146,52,76,09,349,43,70,04,191,*6A
$GLGSV,3,3,10,67,06,023,41,74,06,244,38*6B
$GAGSV,3,1,11,26,78,004,49,13,33,083,43,31,29,295,43,23,29,235,*68
$GAGSV,3,2,11,07,34,123,43,08,30,060,43,33,37,282,44,03,01,020,28*62
$GAGSV,3,3,11,29,07,170,,21,03,192,27,24,03,338,36*55
$GBGSV,6,1,23,27,70,302,51,13,18,051,39,60,11,108,40,14,30,047,44*61
$GBGSV,6,2,23,05,24,128,39,31,11,074,,29,13,295,,30,20,301,43*6E
$GBGSV,6,3,23,41,54,167,50,33,52,068,49,57,53,256,,28,60,119,50*6F
$GBGSV,6,4,23,32,08,201,,20,01,195,,36,07,305,39,39,06,074,38*66
$GBGSV,6,5,23,16,03,063,,42,07,036,39,43,00,122,,46,03,258,*6E
$GBGSV,6,6,23,02,09,105,34,58,10,250,,08,10,049,35*5B
$GPGGA,220112.00,,,,,0,00,,,M,,M,,*4A
$PTNL,GGK,220112.00,010125,4742.1600450,N,01618.1003439,E,1,35,0.8,EHT751.4880,M*40
$GPGGQ,220112.00,010125,4742.1600450,N,01618.1003439,E,1,35,1.105,708.2815,M*35
$GPGFA,220112.00,4.968,7.563,0.523,0.311,21.226,0.922,,VVV*3E
$GPLLK,220112.00,010125,,M,,M,1,35,0.9,,M*06
$GNGMP,220112.00,,,,,DAAA,35,0.5,,,,*57
$GPGMP,220112.00,,,,,,08,,,,2.6,136*77
$GLGMP,220112.00,,,,,,09,,,,,*74
$GAGMP,220112.00,,,,,,06,,,,,*76
$GBGMP,220112.00,,,,,,12,,,,,*70
$PSSN,SNC,[0,338490000,2347]*41
$GPZDA,220117.00,01,01,2025,,*64
$GPDTM,W84,,00.0000000,N,00.0000000,E,00.0000000,W84*5F
$PSSN,TFM,220117.00,,,,*68
$GPRMC,220117.00,A,4742.1600442,N,01618.1003456,E,0.0,,010125,5.1,E,D*11
$GPGLL,4742.1600442,N,01618.1003456,E,220117.00,A,D*60
$GPGGA,220117.00,4742.1600442,N,01618.1003456,E,2,36,0.5,708.2869,M,43.2066,M,2.1,0136*45
$GNGNS,220117.00,4742.1600442,N,01618.1003456,E,DAAA,36,0.5,708.2869,43.2066,,*5E
$GPGNS,220117.00,,,,,,08,,,,2.1,136*75
$GLGNS,220117.00,,,,,,09,,,,,*71
$GAGNS,220117.00,,,,,,06,,,,,*73
$GBGNS,220117.00,,,,,,13,,,,,*74
$GPLLQ,220117.00,010125,,M,,M,1,36,1.111,,M*13
$GPVTG,,T,,M,0.00,N,0.00,K,D*26
$GPHDT,,T*1B
$GPTHS,,V*0E
$GPROT,,V*08
$PSSN,HRP,220117.00,010125,,,,,,,00,0,,*66
$PTNL,AVR,220117.00,,Yaw,,Tilt,,,,0,,00*30
$GPGSA,A,3,02,08,10,14,21,23,27,32,,,,,0.8,0.5,0.6*31
$GPGSA,A,3,67,68,69,74,75,76,83,84,85,,,,0.8,0.5,0.6*33
$GPGSA,A,3,07,08,13,26,31,33,,,,,,,0.8,0.5,0.6*32
$GPGSA,A,3,05,08,13,14,27,28,30,33,36,39,41,42,0.8,0.5,0.6*33
$GPGSA,A,3,60,,,,,,,,,,,,0.8,0.5,0.6*3F
$GPGST,220117.00,2.177,0.525,0.310,22.391,0.500,0.350,0.929*69
$GPGBS,220117.00,3.767,2.459,5.189,68,0.0001,6.339,6.073*50
$GPGRS,220117.00,1,0.0,-0.2,-0.2,0.6,-0.0,0.1,0.1,-0.1,,,,*4E
$GPGRS,220117.00,1,4.2,6.3,0.5,-1.5,-1.1,-6.6,-1.7,-1.4,2.7,,,*4E
$GPGRS,220117.00,1,-0.0,0.1,0.3,-0.2,0.1,-0.1,,,,,,*64
$GPGRS,220117.00,1,2.3,0.5,0.3,0.6,0.7,0.1,0.4,-0.3,-0.6,-3.1,0.3,-1.1*4E
$GPGRS,220117.00,1,-1.2,,,,,,,,,,,*49
$GPGSV,5,1,19,08,72,224,50,14,11,324,39,23,11,051,38,32,39,117,47*72
$GPGSV,5,2,19,02,37,288,46,27,47,161,48,10,53,055,49,21,58,295,46*74
$GPGSV,5,3,19,24,01,038,,03,03,227,36,36,35,170,44,58,13,245,38*7B
$GPGSV,5,4,19,57,11,108,37,34,31,208,42,40,24,132,35,49,34,195,44*75
$GPGSV,5,5,19,41,07,108,34,61,03,257,38*72
$GLGSV,3,1,10,84,69,001,40,83,27,100,38,75,20,293,45,68,48,050,51*6E
$GLGSV,3,2,10,85,24,306,47,69,56,146,52,76,09,349,44,70,04,191,*6C
$GLGSV,3,3,10,67,06,023,41,74,06,244,39*6A
$GAGSV,3,1,11,26,78,004,49,13,33,083,43,31,29,295,43,23,29,235,*68
$GAGSV,3,2,11,07,34,123,43,08,30,060,43,33,37,282,44,03,01,020,28*62
$GAGSV,3,3,11,29,07,170,,21,03,192,27,24,03,338,36*55
$GBGSV,6,1,23,27,70,302,51,13,18,051,39,60,11,108,40,14,30,047,44*61
$GBGSV,6,2,23,05,24,128,39,31,11,074,,29,13,295,,30,20,301,43*6E
$GBGSV,6,3,23,41,54,167,50,33,52,068,49,57,53,256,,28,60,119,50*6F
$GBGSV,6,4,23,32,08,201,,20,01,195,,36,07,305,40,39,07,074,38*69
$GBGSV,6,5,23,16,03,063,,42,06,036,39,43,00,122,,46,03,258,*6F
$GBGSV,6,6,23,02,09,105,34,58,10,250,,08,10,049,35*5B
$GPGGA,220117.00,,,,,0,00,,,M,,M,,*4F
$PTNL,GGK,220117.00,010125,4742.1600442,N,01618.1003456,E,1,36,0.8,EHT751.4935,M*43
$GPGGQ,220117.00,010125,4742.1600442,N,01618.1003456,E,1,36,1.111,708.2869,M*37
$GPGFA,220117.00,4.994,7.618,0.525,0.310,22.391,0.929,,VVV*35
$GPLLK,220117.00,010125,,M,,M,1,36,0.9,,M*00
$GNGMP,220117.00,,,,,DAAA,36,0.5,,,,*51
$GPGMP,220117.00,,,,,,08,,,,2.1,136*75
$GLGMP,220117.00,,,,,,09,,,,,*71
$GAGMP,220117.00,,,,,,06,,,,,*73
$GBGMP,220117.00,,,,,,13,,,,,*74
$PSSN,SNC,[0,338495000,2347]*44
$GPZDA,220122.00,01,01,2025,,*62
$GPDTM,W84,,00.0000000,N,00.0000000,E,00.0000000,W84*5F
$PSSN,TFM,220122.00,,,,*6E
$GPRMC,220122.00,A,4742.1600439,N,01618.1003472,E,0.0,,010125,5.1,E,D*1D
$GPGLL,4742.1600439,N,01618.1003472,E,220122.00,A,D*6C
$GPGGA,220122.00,4742.1600439,N,01618.1003472,E,2,36,0.5,708.2910,M,43.2066,M,3.1,0136*47
$GNGNS,220122.00,4742.1600439,N,01618.1003472,E,DAAA,36,0.5,708.2910,43.2066,,*5D
$GPGNS,220122.00,,,,,,08,,,,3.1,136*72
$GLGNS,220122.00,,,,,,09,,,,,*77
$GAGNS,220122.00,,,,,,06,,,,,*75
