$GPZDA,012942.00,01,01,2025,,*6F
$GPDTM,W84,,00.0000000,N,00.0000000,E,00.0000000,W84*5F
$PSSN,TFM,012942.00,,,,*63
$GPRMC,012942.00,A,4742.1603587,N,01618.1001327,E,0.0,,010125,5.1,E,D*12
$GPGLL,4742.1603587,N,01618.1001327,E,012942.00,A,D*63
$GPGGA,012942.00,4742.1603587,N,01618.1001327,E,2,37,0.4,708.0269,M,43.2066,M,3.2,0136*4C
$GNGNS,012942.00,4742.1603587,N,01618.1001327,E,DAAA,37,0.4,708.0269,43.2066,,*55
$GPGNS,012942.00,,,,,,10,,,,3.2,136*75
$GLGNS,012942.00,,,,,,07,,,,,*74
$GAGNS,012942.00,,,,,,08,,,,,*76
$GBGNS,012942.00,,,,,,12,,,,,*7E
$GPLLQ,012942.00,010125,,M,,M,1,37,0.892,,M*1A
$GPVTG,,T,,M,0.00,N,0.01,K,D*27
$GPHDT,,T*1B
$GPTHS,,V*0E
$GPROT,,V*08
$PSSN,HRP,012942.00,010125,,,,,,,00,0,,*6D
$PTNL,AVR,012942.00,,Yaw,,Tilt,,,,0,,00*3B
$GPGSA,A,3,02,03,04,06,09,17,19,21,28,31,,,0.8,0.4,0.6*37
$GPGSA,A,3,69,70,71,78,84,85,86,,,,,,0.8,0.4,0.6*36
$GPGSA,A,3,04,05,06,09,10,11,34,36,,,,,0.8,0.4,0.6*35
$GPGSA,A,3,05,06,09,16,19,20,29,30,32,35,39,60,0.8,0.4,0.6*3C
$GPGST,012942.00,0.955,0.347,0.281,8.727,0.345,0.283,0.773*5B
$GPGBS,012942.00,1.687,1.757,6.289,31,0.0001,0.454,0.763*5E
$GPGRS,012942.00,1,-0.2,-0.1,0.1,-0.1,-0.2,0.1,0.3,-0.2,0.1,0.5,,*6A
$GPGRS,012942.00,1,-0.0,0.1,-1.6,-2.4,1.4,0.8,-2.9,,,,,*6A
$GPGRS,012942.00,1,-0.3,-0.3,-0.2,0.0,0.0,-0.5,0.1,-0.0,,,,*69
$GPGRS,012942.00,1,0.1,0.2,1.1,0.7,-0.2,-1.4,0.3,-1.0,0.7,-0.8,-0.7,-1.0*4A
$GPGSV,6,1,21,03,78,351,50,31,32,091,44,09,23,218,41,19,28,304,44*7B
$GPGSV,6,2,21,28,27,059,43,21,32,148,42,17,38,270,46,04,50,205,47*7C
$GPGSV,6,3,21,02,51,156,48,01,56,144,,06,10,313,38,32,02,046,34*7F
$GPGSV,6,4,21,36,35,170,45,58,13,245,37,40,24,132,36,34,31,208,42*7A
$GPGSV,6,5,21,49,34,195,44,57,09,110,38,41,07,108,34,61,03,257,37*72
$GPGSV,6,6,21*7A
$GLGSV,3,1,10,85,70,294,53,78,13,041,44,86,17,327,45,69,51,037,50*68
$GLGSV,3,2,10,84,46,166,40,70,54,252,40,79,04,089,43,77,02,348,37*6C
$GLGSV,3,3,10,68,04,049,42,71,08,236,43*6B
$GAGSV,3,1,11,06,74,113,48,05,14,214,39,34,18,311,40,10,26,136,42*63
$GAGSV,3,2,11,04,55,062,46,11,54,139,44,09,64,188,48,36,71,299,48*6A
$GAGSV,3,3,11,27,01,353,36,12,04,134,,19,01,042,25*55
$GBGSV,5,1,18,20,80,033,52,05,24,128,38,32,24,062,43,35,39,300,47*60
$GBGSV,5,2,18,39,27,047,43,16,32,057,43,09,36,077,42,29,50,208,49*6E
$GBGSV,5,3,18,06,32,061,40,19,45,250,48,22,43,237,,48,74,260,*68
$GBGSV,5,4,18,02,08,105,34,37,08,104,,30,09,166,39,44,02,327,*66
$GBGSV,5,5,18,23,00,012,,60,09,110,39*65
$GPGGA,012942.00,,,,,0,00,,,M,,M,,*44
$PTNL,GGK,012942.00,010125,4742.1603587,N,01618.1001327,E,1,37,0.8,EHT751.2335,M*4D
$GPGGQ,012942.00,010125,4742.1603587,N,01618.1001327,E,1,37,0.892,708.0269,M*3E
$GPGFA,012942.00,3.297,6.336,0.347,0.281,8.727,0.773,,VVV*02
$GPLLK,012942.00,010125,,M,,M,1,37,0.9,,M*0A
$GNGMP,012942.00,,,,,DAAA,37,0.4,,,,*5A
$GPGMP,012942.00,,,,,,10,,,,3.2,136*75
$GLGMP,012942.00,,,,,,07,,,,,*74
$GAGMP,012942.00,,,,,,08,,,,,*76
$GBGMP,012942.00,,,,,,12,,,,,*7E
$PSSN,SNC,[0,264600000,2347]*42
$GPZDA,012947.00,01,01,2025,,*6A
$GPDTM,W84,,00.0000000,N,00.0000000,E,00.0000000,W84*5F
$PSSN,TFM,012947.00,,,,*66
$GPRMC,012947.00,A,4742.1603571,N,01618.1001318,E,0.0,,010125,5.1,E,D*12
$GPGLL,4742.1603571,N,01618.1001318,E,012947.00,A,D*63
$GPGGA,012947.00,4742.1603571,N,01618.1001318,E,2,37,0.4,708.0267,M,43.2066,M,2.2,0136*43
$GNGNS,012947.00,4742.1603571,N,01618.1001318,E,DAAA,37,0.4,708.0267,43.2066,,*5B
$GPGNS,012947.00,,,,,,10,,,,2.2,136*71
$GLGNS,012947.00,,,,,,07,,,,,*71
$GAGNS,012947.00,,,,,,08,,,,,*73
$GBGNS,012947.00,,,,,,12,,,,,*7B
$GPLLQ,012947.00,010125,,M,,M,1,37,0.889,,M*15
$GPVTG,,T,,M,0.00,N,0.01,K,D*27
$GPHDT,,T*1B
$GPTHS,,V*0E
$GPROT,,V*08
$PSSN,HRP,012947.00,010125,,,,,,,00,0,,*68
$PTNL,AVR,012947.00,,Yaw,,Tilt,,,,0,,00*3E
$GPGSA,A,3,02,03,04,06,09,17,19,21,28,31,,,0.8,0.4,0.6*37
$GPGSA,A,3,69,70,71,78,84,85,86,,,,,,0.8,0.4,0.6*36
$GPGSA,A,3,04,05,06,09,10,11,34,36,,,,,0.8,0.4,0.6*35
$GPGSA,A,3,05,06,09,16,19,20,29,30,32,35,39,60,0.8,0.4,0.6*3C
$GPGST,012947.00,0.858,0.347,0.286,8.550,0.345,0.287,0.767*56
$GPGBS,012947.00,1.587,1.764,5.939,09,0.0001,-0.656,0.818*7E
$GPGRS,012947.00,1,-0.1,-0.1,0.1,-0.7,-0.7,0.1,0.3,0.2,0.0,0.2,,*44
$GPGRS,012947.00,1,0.9,0.3,-1.2,-2.3,1.5,1.0,-1.5,,,,,*4D
$GPGRS,012947.00,1,0.0,-0.5,-0.1,0.2,-0.0,-0.3,0.3,0.1,,,,*40
$GPGRS,012947.00,1,0.9,0.2,0.9,0.7,0.2,-1.2,0.4,-0.9,0.5,-1.1,-0.8,-0.8*66
$GPGSV,6,1,21,03,78,352,50,31,32,091,45,09,23,218,41,19,28,304,43*7E
$GPGSV,6,2,21,28,27,059,43,21,32,148,42,17,38,270,45,04,50,205,46*7E
$GPGSV,6,3,21,02,51,156,48,01,56,144,,06,10,313,38,32,02,046,34*7F
$GPGSV,6,4,21,36,35,170,45,58,13,245,37,40,24,132,36,34,31,208,42*7A
$GPGSV,6,5,21,49,34,195,44,57,09,110,38,41,07,108,34,61,03,257,37*72
$GPGSV,6,6,21*7A
$GLGSV,3,1,10,85,70,294,53,78,13,041,45,86,17,327,45,69,51,037,51*68
$GLGSV,3,2,10,84,46,167,39,70,54,252,40,79,04,089,44,77,02,348,37*64
$GLGSV,3,3,10,68,04,049,42,71,08,236,44*6C
$GAGSV,3,1,11,06,74,113,48,05,14,214,38,34,18,311,40,10,26,136,42*62
$GAGSV,3,2,11,04,55,062,46,09,64,188,48,11,54,139,44,36,71,299,48*6A
$GAGSV,3,3,11,27,01,353,35,12,04,134,,19,01,042,28*5B
$GBGSV,5,1,18,20,80,033,52,05,24,128,38,32,24,062,44,35,39,300,47*67
$GBGSV,5,2,18,39,27,047,43,16,32,057,43,09,36,077,42,29,50,208,49*6E
$GBGSV,5,3,18,06,32,061,41,19,45,250,48,22,43,237,,48,74,260,*69
$GBGSV,5,4,18,02,08,105,34,37,08,104,,30,09,166,39,44,02,327,*66
$GBGSV,5,5,18,23,00,012,,60,09,110,40*6B
$GPGGA,012947.00,,,,,0,00,,,M,,M,,*41
$PTNL,GGK,012947.00,010125,4742.1603571,N,01618.1001318,E,1,37,0.8,EHT751.2332,M*4A
$GPGGQ,012947.00,010125,4742.1603571,N,01618.1001318,E,1,37,0.889,708.0267,M*3A
$GPGFA,012947.00,3.295,6.287,0.347,0.286,8.550,0.767,,VVV*0E
$GPLLK,012947.00,010125,,M,,M,1,37,0.9,,M*0F
$GNGMP,012947.00,,,,,DAAA,37,0.4,,,,*5F
$GPGMP,012947.00,,,,,,10,,,,2.2,136*71
$GLGMP,012947.00,,,,,,07,,,,,*71
$GAGMP,012947.00,,,,,,08,,,,,*73
$GBGMP,012947.00,,,,,,12,,,,,*7B
$PSSN,SNC,[0,264605000,2347]*47
$GPZDA,012952.00,01,01,2025,,*6E
$GPDTM,W84,,00.0000000,N,00.0000000,E,00.0000000,W84*5F
$PSSN,TFM,012952.00,,,,*62
$GPRMC,012952.00,A,4742.1603561,N,01618.1001281,E,0.0,,010125,5.1,E,D*16
$GPGLL,4742.1603561,N,01618.1001281,E,012952.00,A,D*67
$GPGGA,012952.00,4742.1603561,N,01618.1001281,E,2,37,0.4,708.0187,M,43.2066,M,2.4,0136*4C
$GNGNS,012952.00,4742.1603561,N,01618.1001281,E,DAAA,37,0.4,708.0187,43.2066,,*52
$GPGNS,012952.00,,,,,,10,,,,2.4,136*73
$GLGNS,012952.00,,,,,,07,,,,,*75
$GAGNS,012952.00,,,,,,08,,,,,*77
$GBGNS,012952.00,,,,,,12,,,,,*7F
$GPLLQ,012952.00,010125,,M,,M,1,37,0.870,,M*17
$GPVTG,,T,,M,0.00,N,0.01,K,D*27
$GPHDT,,T*1B
$GPTHS,,V*0E
$GPROT,,V*08
$PSSN,HRP,012952.00,010125,,,,,,,00,0,,*6C
$PTNL,AVR,012952.00,,Yaw,,Tilt,,,,0,,00*3A
$GPGSA,A,3,02,03,04,06,09,17,19,21,28,31,,,0.8,0.4,0.6*37
$GPGSA,A,3,69,70,71,78,84,85,86,,,,,,0.8,0.4,0.6*36
$GPGSA,A,3,04,05,06,09,10,11,34,36,,,,,0.8,0.4,0.6*35
$GPGSA,A,3,05,06,09,16,19,20,29,30,32,35,39,60,0.8,0.4,0.6*3C
$GPGST,012952.00,0.707,0.341,0.286,6.343,0.340,0.286,0.747*5D
$GPGBS,012952.00,1.612,1.759,6.065,06,0.0001,-0.584,1.391*70
$GPGRS,012952.00,1,0.1,0.1,0.2,-0.6,-0.3,-0.2,0.1,-0.2,0.2,0.3,,*44
$GPGRS,012952.00,1,0.7,0.1,0.2,-1.9,0.6,0.8,-1.6,,,,,*68
$GPGRS,012952.00,1,0.1,-0.7,-0.2,0.3,0.3,-0.3,0.4,-0.2,,,,*42
$GPGRS,012952.00,1,0.6,0.2,0.5,0.8,-0.0,-1.2,0.6,-0.6,0.3,-0.9,-0.7,-0.9*4D
$GPGSV,6,1,21,03,78,352,50,31,32,091,46,09,23,218,41,19,28,304,43*7D
$GPGSV,6,2,21,28,27,059,42,21,32,149,41,17,38,270,45,04,50,205,46*7D
$GPGSV,6,3,21,02,51,156,49,01,56,144,,06,10,313,37,32,02,046,34*71
$GPGSV,6,4,21,36,35,170,45,58,13,245,38,40,24,132,36,34,31,208,42*75
$GPGSV,6,5,21,49,34,195,44,57,09,110,38,41,07,108,34,61,03,257,38*7D
$GPGSV,6,6,21*7A
$GLGSV,3,1,10,85,70,293,52,78,13,041,45,86,17,327,45,69,51,037,51*6E
$GLGSV,3,2,10,84,46,167,39,70,54,252,40,79,04,089,43,77,02,348,37*63
$GLGSV,3,3,10,68,04,049,42,71,08,236,43*6B
$GAGSV,3,1,11,06,74,113,48,05,14,214,37,34,19,311,40,10,26,136,42*6C
$GAGSV,3,2,11,04,54,062,46,09,64,188,48,11,54,139,44,36,71,299,48*6B
$GAGSV,3,3,11,27,01,353,36,12,04,134,,19,01,042,25*55
$GBGSV,5,1,18,20,80,033,52,05,24,128,38,32,23,062,44,35,39,300,47*60
$GBGSV,5,2,18,39,27,047,43,16,32,057,43,09,36,077,42,29,50,208,49*6E
$GBGSV,5,3,18,06,32,061,41,19,45,250,48,22,44,237,,48,74,260,*6E
$GBGSV,5,4,18,02,08,105,34,37,08,104,,30,09,166,39,44,02,327,*66
$GBGSV,5,5,18,23,00,012,,60,09,110,40*6B
$GPGGA,012952.00,,,,,0,00,,,M,,M,,*45
$PTNL,GGK,012952.00,010125,4742.1603561,N,01618.1001281,E,1,37,0.8,EHT751.2253,M*48
$GPGGQ,012952.00,010125,4742.1603561,N,01618.1001281,E,1,37,0.870,708.0187,M*35
$GPGFA,012952.00,3.241,6.127,0.341,0.286,6.343,0.747,,VVV*04
$GPLLK,012952.00,010125,,M,,M,1,37,0.9,,M*0B
$GNGMP,012952.00,,,,,DAAA,37,0.4,,,,*5B
$GPGMP,012952.00,,,,,,10,,,,2.4,136*73
$GLGMP,012952.00,,,,,,07,,,,,*75
$GAGMP,012952.00,,,,,,08,,,,,*77
$GBGMP,012952.00,,,,,,12,,,,,*7F
$PSSN,SNC,[0,264610000,2347]*43
$GPZDA,012957.00,01,01,2025,,*6B
$GPDTM,W84,,00.0000000,N,00.0000000,E,00.0000000,W84*5F
$PSSN,TFM,012957.00,,,,*67
$GPRMC,012957.00,A,4742.1603545,N,01618.1001263,E,0.0,,010125,5.1,E,D*19
$GPGLL,4742.1603545,N,01618.1001263,E,012957.00,A,D*68
$GPGGA,012957.00,4742.1603545,N,01618.1001263,E,2,37,0.4,708.0204,M,43.2066,M,2.2,0136*4D
$GNGNS,012957.00,4742.1603545,N,01618.1001263,E,DAAA,37,0.4,708.0204,43.2066,,*55
$GPGNS,012957.00,,,,,,10,,,,2.2,136*70
$GLGNS,012957.00,,,,,,07,,,,,*70
$GAGNS,012957.00,,,,,,08,,,,,*72
$GBGNS,012957.00,,,,,,12,,,,,*7A
$GPLLQ,012957.00,010125,,M,,M,1,37,0.879,,M*1B
$GPVTG,,T,,M,0.00,N,0.00,K,D*26
$GPHDT,,T*1B
$GPTHS,,V*0E
$GPROT,,V*08
$PSSN,HRP,012957.00,010125,,,,,,,00,0,,*69
$PTNL,AVR,012957.00,,Yaw,,Tilt,,,,0,,00*3F
$GPGSA,A,3,02,03,04,06,09,17,19,21,28,31,,,0.8,0.4,0.6*37
$GPGSA,A,3,69,70,71,78,84,85,86,,,,,,0.8,0.4,0.6*36
$GPGSA,A,3,04,05,06,09,10,11,34,36,,,,,0.8,0.4,0.6*35
$GPGSA,A,3,05,06,09,16,19,20,29,30,32,35,39,60,0.8,0.4,0.6*3C
$GPGST,012957.00,0.782,0.343,0.282,5.686,0.343,0.283,0.758*54
$GPGBS,012957.00,1.636,1.730,6.170,21,0.0001,-0.592,0.798*77
$GPGRS,012957.00,1,-0.1,-0.1,0.1,0.3,0.3,-0.1,0.4,-0.6,-0.2,0.3,,*68
$GPGRS,012957.00,1,-0.1,0.5,-0.7,-2.2,0.3,0.7,-2.2,,,,,*6F
$GPGRS,012957.00,1,-0.1,0.1,-0.2,0.2,0.3,-0.1,0.5,-0.1,,,,*40
$GPGRS,012957.00,1,0.4,0.5,0.6,0.5,0.1,-1.1,0.6,-1.1,0.7,-0.5,-0.7,-1.0*6A
$GPGSV,6,1,21,03,78,352,50,31,32,091,45,09,23,218,41,06,10,313,37*7E
$GPGSV,6,2,21,28,27,059,43,19,28,304,43,21,32,149,41,17,38,270,45*7A
$GPGSV,6,3,21,04,50,205,47,02,51,156,49,01,56,144,,32,02,046,33*71
$GPGSV,6,4,21,36,35,170,45,58,13,245,38,40,24,132,36,34,31,208,42*75
$GPGSV,6,5,21,49,34,195,44,57,09,110,38,41,07,108,34,61,03,257,38*7D
$GPGSV,6,6,21*7A
$GLGSV,3,1,10,85,70,293,52,78,13,041,44,86,17,327,45,69,51,037,50*6E
$GLGSV,3,2,10,84,46,167,39,70,54,252,40,79,04,089,43,77,02,348,37*63
$GLGSV,3,3,10,68,04,049,42,71,08,236,43*6B
$GAGSV,3,1,11,06,74,113,48,05,14,214,37,34,19,311,40,10,26,136,42*6C
$GAGSV,3,2,11,04,54,062,46,11,54,139,44,09,64,188,48,36,71,299,48*6B
$GAGSV,3,3,11,27,01,353,36,12,04,134,,19,01,042,25*55
$GBGSV,5,1,18,20,80,033,52,05,24,128,38,32,23,062,45,35,39,300,47*61
$GBGSV,5,2,18,39,27,047,43,16,32,057,43,09,36,077,42,29,50,208,49*6E
$GBGSV,5,3,18,06,32,061,41,19,45,250,48,22,44,237,,48,74,260,*6E
$GBGSV,5,4,18,02,08,105,34,37,08,104,,30,09,166,39,44,02,327,*66
$GBGSV,5,5,18,23,00,012,,60,09,110,40*6B
$GPGGA,012957.00,,,,,0,00,,,M,,M,,*40
$PTNL,GGK,012957.00,010125,4742.1603545,N,01618.1001263,E,1,37,0.8,EHT751.2269,M*4E
$GPGGQ,012957.00,010125,4742.1603545,N,01618.1001263,E,1,37,0.879,708.0204,M*3B
$GPGFA,012957.00,3.262,6.219,0.343,0.282,5.686,0.758,,VVV*09
$GPLLK,012957.00,010125,,M,,M,1,37,0.9,,M*0E
$GNGMP,012957.00,,,,,DAAA,37,0.4,,,,*5E
$GPGMP,012957.00,,,,,,10,,,,2.2,136*70
$GLGMP,012957.00,,,,,,07,,,,,*70
$GAGMP,012957.00,,,,,,08,,,,,*72
$GBGMP,012957.00,,,,,,12,,,,,*7A
$PSSN,SNC,[0,264615000,2347]*46
$GPZDA,013002.00,01,01,2025,,*63
$GPDTM,W84,,00.0000000,N,00.0000000,E,00.0000000,W84*5F
$PSSN,TFM,013002.00,,,,*6F
$GPRMC,013002.00,A,4742.1603542,N,01618.1001295,E,0.0,,010125,5.1,E,D*1F
$GPGLL,4742.1603542,N,01618.1001295,E,013002.00,A,D*6E
$GPGGA,013002.00,4742.1603542,N,01618.1001295,E,2,37,0.4,708.0238,M,43.2066,M,3.2,0136*45
$GNGNS,013002.00,4742.1603542,N,01618.1001295,E,DAAA,37,0.4,708.0238,43.2066,,*5C
$GPGNS,013002.00,,,,,,10,,,,3.2,136*79
$GLGNS,013002.00,,,,,,07,,,,,*78
$GAGNS,013002.00,,,,,,08,,,,,*7A
$GBGNS,013002.00,,,,,,12,,,,,*72
$GPLLQ,013002.00,010125,,M,,M,1,37,0.893,,M*17
$GPVTG,,T,,M,0.00,N,0.01,K,D*27
$GPHDT,,T*1B
$GPTHS,,V*0E
$GPROT,,V*08
$PSSN,HRP,013002.00,010125,,,,,,,00,0,,*61
$PTNL,AVR,013002.00,,Yaw,,Tilt,,,,0,,00*37
$GPGSA,A,3,02,03,04,06,09,17,19,21,28,31,,,0.8,0.4,0.6*37
$GPGSA,A,3,69,70,71,78,84,85,86,,,,,,0.8,0.4,0.6*36
$GPGSA,A,3,04,05,06,09,10,11,34,36,,,,,0.8,0.4,0.6*35
$GPGSA,A,3,05,06,09,16,19,20,29,30,32,35,39,60,0.8,0.4,0.6*3C
$GPGST,013002.00,0.836,0.346,0.281,8.518,0.345,0.283,0.773*5C
$GPGBS,013002.00,1.682,1.756,6.301,06,0.0001,0.832,1.403*5B
$GPGRS,013002.00,1,-0.1,0.0,0.1,0.8,0.4,-0.3,-0.0,-0.1,0.1,0.0,,*41
$GPGRS,013002.00,1,-0.3,0.1,-0.4,-2.7,0.3,1.1,-1.4,,,,,*65
$GPGRS,013002.00,1,-0.3,0.8,-0.2,0.0,-0.0,-0.2,-0.1,-0.1,,,,*45
$GPGRS,013002.00,1,0.0,0.8,0.3,0.3,-0.1,-1.3,0.5,-1.6,0.7,-0.9,-1.0,-1.1*48
$GPGSV,6,1,21,03,78,352,50,31,32,091,45,09,23,218,41,06,10,313,38*71
$GPGSV,6,2,21,28,27,059,43,19,28,304,43,21,32,149,42,17,38,270,45*79
$GPGSV,6,3,21,04,50,205,47,02,51,156,48,01,56,144,,32,02,046,33*70
$GPGSV,6,4,21,36,35,170,44,58,13,245,37,40,24,132,36,34,31,208,42*7B
$GPGSV,6,5,21,49,34,195,44,57,09,110,38,41,07,108,34,61,03,257,38*7D
$GPGSV,6,6,21*7A
$GLGSV,3,1,10,85,70,293,52,78,13,041,45,86,17,327,46,69,51,037,51*6D
$GLGSV,3,2,10,84,46,167,38,70,54,252,40,79,04,089,42,77,02,348,36*62
$GLGSV,3,3,10,68,04,049,42,71,09,236,44*6D
$GAGSV,3,1,11,06,74,113,48,05,14,214,38,34,19,311,40,10,26,136,42*63
$GAGSV,3,2,11,04,54,062,46,11,54,140,44,09,64,188,48,36,71,299,48*65
$GAGSV,3,3,11,27,01,353,36,12,04,134,,19,01,042,25*55
$GBGSV,5,1,18,20,80,033,52,05,24,128,38,32,23,062,44,35,39,300,47*60
$GBGSV,5,2,18,39,27,047,43,16,32,057,43,09,36,077,41,29,50,208,49*6D
$GBGSV,5,3,18,06,32,061,40,19,45,250,48,22,44,237,,48,74,260,*6F
$GBGSV,5,4,18,02,08,105,34,37,08,104,,30,09,166,39,44,02,327,*66
$GBGSV,5,5,18,23,00,012,,60,09,110,39*65
$GPGGA,013002.00,,,,,0,00,,,M,,M,,*48
$PTNL,GGK,013002.00,010125,4742.1603542,N,01618.1001295,E,1,37,0.8,EHT751.2304,M*42
$GPGGQ,013002.00,010125,4742.1603542,N,01618.1001295,E,1,37,0.893,708.0238,M*36
$GPGFA,013002.00,3.294,6.341,0.346,0.281,8.518,0.773,,VVV*02
$GPLLK,013002.00,010125,,M,,M,1,37,0.9,,M*06
$GNGMP,013002.00,,,,,DAAA,37,0.4,,,,*56
$GPGMP,013002.00,,,,,,10,,,,3.2,136*79
$GLGMP,013002.00,,,,,,07,,,,,*78
$GAGMP,013002.00,,,,,,08,,,,,*7A
$GBGMP,013002.00,,,,,,12,,,,,*72
$PSSN,SNC,[0,264620000,2347]*40
$GPZDA,013007.00,01,01,2025,,*66
$GPDTM,W84,,00.0000000,N,00.0000000,E,00.0000000,W84*5F
$PSSN,TFM,013007.00,,,,*6A
$GPRMC,013007.00,A,4742.1603563,N,01618.1001308,E,0.0,,010125,5.1,E,D*1C
$GPGLL,4742.1603563,N,01618.1001308,E,013007.00,A,D*6D
$GPGGA,013007.00,4742.1603563,N,01618.1001308,E,2,37,0.4,708.0260,M,43.2066,M,2.2,0136*4A
$GNGNS,013007.00,4742.1603563,N,01618.1001308,E,DAAA,37,0.4,708.0260,43.2066,,*52
$GPGNS,013007.00,,,,,,10,,,,2.2,136*7D
$GLGNS,013007.00,,,,,,07,,,,,*7D
$GAGNS,013007.00,,,,,,08,,,,,*7F
$GBGNS,013007.00,,,,,,12,,,,,*77
$GPLLQ,013007.00,010125,,M,,M,1,37,0.889,,M*19
$GPVTG,,T,,M,0.00,N,0.00,K,D*26
$GPHDT,,T*1B
$GPTHS,,V*0E
$GPROT,,V*08
$PSSN,HRP,013007.00,010125,,,,,,,00,0,,*64
$PTNL,AVR,013007.00,,Yaw,,Tilt,,,,0,,00*32
$GPGSA,A,3,02,03,04,06,09,17,19,21,28,31,,,0.8,0.4,0.6*37
$GPGSA,A,3,69,70,71,78,84,85,86,,,,,,0.8,0.4,0.6*36
$GPGSA,A,3,04,05,06,09,10,11,34,36,,,,,0.8,0.4,0.6*35
$GPGSA,A,3,05,06,09,16,19,20,29,30,32,35,39,60,0.8,0.4,0.6*3C
$GPGST,013007.00,0.760,0.346,0.286,8.317,0.345,0.287,0.767*5A
$GPGBS,013007.00,1.585,1.764,5.949,09,0.0001,0.618,0.815*5D
$GPGRS,013007.00,1,-0.0,-0.1,0.2,0.3,0.6,-0.3,-0.1,-0.5,-0.2,0.2,,*4A
$GPGRS,013007.00,1,0.2,0.2,-0.2,-1.8,1.2,1.1,-1.3,,,,,*42
$GPGRS,013007.00,1,-0.3,0.8,-0.2,0.1,-0.2,-0.2,0.1,0.0,,,,*42
$GPGRS,013007.00,1,0.4,0.8,0.4,0.3,-0.1,-1.4,0.3,-1.2,1.1,-0.7,-0.8,-0.9*42
$GPGSV,6,1,21,03,78,353,50,31,32,091,45,06,10,313,37,09,23,218,41*7F
$GPGSV,6,2,21,28,27,059,43,19,28,304,43,21,32,149,41,17,38,270,45*7A
$GPGSV,6,3,21,04,50,205,47,02,51,156,48,01,56,144,,32,02,046,33*70
$GPGSV,6,4,21,36,35,170,45,58,13,245,37,40,24,132,36,34,31,208,42*7A
$GPGSV,6,5,21,49,34,195,44,57,09,110,38,41,07,108,34,61,03,257,37*72
$GPGSV,6,6,21*7A
$GLGSV,3,1,10,85,70,293,52,78,13,041,45,86,17,327,46,69,51,037,51*6D
$GLGSV,3,2,10,84,45,167,39,70,54,252,40,79,04,089,43,77,02,348,37*60
$GLGSV,3,3,10,68,04,049,42,71,09,237,43*6B
$GAGSV,3,1,11,06,74,113,48,05,14,214,39,34,19,311,40,10,26,136,42*62
$GAGSV,3,2,11,04,54,062,46,11,54,140,44,09,64,188,48,36,71,299,48*65
$GAGSV,3,3,11,27,01,353,35,12,04,134,,19,01,042,25*56
$GBGSV,5,1,18,20,80,034,52,05,24,128,38,32,23,062,44,35,39,300,47*67
$GBGSV,5,2,18,39,27,047,42,16,32,057,43,09,36,077,41,29,50,208,49*6C
$GBGSV,5,3,18,06,32,061,41,19,45,250,48,22,44,237,,48,74,260,*6E
$GBGSV,5,4,18,02,08,105,34,37,08,104,,30,09,166,39,44,02,327,*66
$GBGSV,5,5,18,23,00,012,,60,09,110,39*65
$GPGGA,013007.00,,,,,0,00,,,M,,M,,*4D
$PTNL,GGK,013007.00,010125,4742.1603563,N,01618.1001308,E,1,37,0.8,EHT751.2325,M*42
$GPGGQ,013007.00,010125,4742.1603563,N,01618.1001308,E,1,37,0.889,708.0260,M*33
$GPGFA,013007.00,3.293,6.293,0.346,0.286,8.317,0.767,,VVV*05
$GPLLK,013007.00,010125,,M,,M,1,37,0.9,,M*03
$GNGMP,013007.00,,,,,DAAA,37,0.4,,,,*53
$GPGMP,013007.00,,,,,,10,,,,2.2,136*7D
$GLGMP,013007.00,,,,,,07,,,,,*7D
$GAGMP,013007.00,,,,,,08,,,,,*7F
$GBGMP,013007.00,,,,,,12,,,,,*77
$PSSN,SNC,[0,264625000,2347]*45
$GPZDA,013012.00,01,01,2025,,*62
$GPDTM,W84,,00.0000000,N,00.0000000,E,00.0000000,W84*5F
$PSSN,TFM,013012.00,,,,*6E
$GPRMC,013012.00,A,4742.1603562,N,01618.1001321,E,0.0,,010125,5.1,E,D*12
$GPGLL,4742.1603562,N,01618.1001321,E,013012.00,A,D*63
$GPGGA,013012.00,4742.1603562,N,01618.1001321,E,2,37,0.4,708.0285,M,43.2066,M,2.4,0136*49
$GNGNS,013012.00,4742.1603562,N,01618.1001321,E,DAAA,37,0.4,708.0285,43.2066,,*57
$GPGNS,013012.00,,,,,,10,,,,2.4,136*7F
$GLGNS,013012.00,,,,,,07,,,,,*79
$GAGNS,013012.00,,,,,,08,,,,,*7B
$GBGNS,013012.00,,,,,,12,,,,,*73
$GPLLQ,013012.00,010125,,M,,M,1,37,0.870,,M*1B
$GPVTG,,T,,M,0.00,N,0.00,K,D*26
$GPHDT,,T*1B
$GPTHS,,V*0E
$GPROT,,V*08
$PSSN,HRP,013012.00,010125,,,,,,,00,0,,*60
$PTNL,AVR,013012.00,,Yaw,,Tilt,,,,0,,00*36
$GPGSA,A,3,02,03,04,06,09,17,19,21,28,31,,,0.8,0.4,0.6*37
$GPGSA,A,3,69,70,71,78,84,85,86,,,,,,0.8,0.4,0.6*36
$GPGSA,A,3,04,05,06,09,10,11,34,36,,,,,0.8,0.4,0.6*35
$GPGSA,A,3,05,06,09,16,19,20,29,30,32,35,39,60,0.8,0.4,0.6*3C
$GPGST,013012.00,0.848,0.341,0.285,6.089,0.340,0.286,0.748*5C
$GPGBS,013012.00,1.609,1.758,6.074,09,0.0001,0.530,0.826*5C
$GPGRS,013012.00,1,-0.3,-0.0,0.0,-0.1,0.5,0.0,0.0,-0.2,-0.2,0.2,,*67
$GPGRS,013012.00,1,-0.1,-0.8,-0.6,-3.2,0.2,0.9,-1.1,,,,,*49
$GPGRS,013012.00,1,0.0,0.5,-0.2,0.3,-0.2,0.1,0.5,0.0,,,,*4D
$GPGRS,013012.00,1,0.4,0.8,0.6,0.6,0.3,-1.1,0.2,-1.4,0.8,-0.7,-0.6,-0.8*6B
$GPGSV,6,1,21,03,78,353,50,31,32,091,45,06,10,313,37,09,23,218,42*7C
$GPGSV,6,2,21,28,27,059,43,21,32,149,41,19,28,304,43,17,38,270,45*7A
$GPGSV,6,3,21,04,50,205,47,02,51,156,48,01,56,144,,32,02,046,33*70
$GPGSV,6,4,21,36,35,170,44,58,13,245,37,40,24,132,36,34,31,208,42*7B
$GPGSV,6,5,21,49,34,195,44,57,09,110,38,41,07,108,34,61,03,257,37*72
$GPGSV,6,6,21*7A
$GLGSV,3,1,10,85,70,293,52,78,13,041,44,86,17,327,46,69,51,037,50*6D
$GLGSV,3,2,10,84,45,167,39,70,54,252,40,79,04,089,42,77,02,348,36*60
$GLGSV,3,3,10,68,04,049,43,71,09,237,44*6D
$GAGSV,3,1,11,06,74,113,48,05,14,214,39,34,19,311,40,10,26,136,41*61
$GAGSV,3,2,11,04,54,062,46,11,54,140,44,09,64,188,48,36,71,299,48*65
$GAGSV,3,3,11,27,01,353,35,12,04,134,,19,01,042,25*56
$GBGSV,5,1,18,20,80,034,52,05,24,128,38,32,23,062,44,35,39,300,48*68
$GBGSV,5,2,18,39,27,047,43,16,32,057,43,09,36,077,42,29,50,208,49*6E
$GBGSV,5,3,18,06,32,061,41,19,45,250,48,22,44,237,,48,74,260,*6E
$GBGSV,5,4,18,02,08,105,34,37,08,104,,30,09,166,39,44,03,327,*67
$GBGSV,5,5,18,23,00,012,,60,09,110,40*6B
$GPGGA,013012.00,,,,,0,00,,,M,,M,,*49
$PTNL,GGK,013012.00,010125,4742.1603562,N,01618.1001321,E,1,37,0.8,EHT751.2351,M*4F
$GPGGQ,013012.00,010125,4742.1603562,N,01618.1001321,E,1,37,0.870,708.0285,M*30
$GPGFA,013012.00,3.237,6.130,0.341,0.285,6.089,0.748,,VVV*06
$GPLLK,013012.00,010125,,M,,M,1,37,0.9,,M*07
$GNGMP,013012.00,,,,,DAAA,37,0.4,,,,*57
$GPGMP,013012.00,,,,,,10,,,,2.4,136*7F
$GLGMP,013012.00,,,,,,07,,,,,*79
$GAGMP,013012.00,,,,,,08,,,,,*7B
$GBGMP,013012.00,,,,,,12,,,,,*73
$PSSN,SNC,[0,264630000,2347]*41
$GPZDA,013017.00,01,01,2025,,*67
$GPDTM,W84,,00.0000000,N,00.0000000,E,00.0000000,W84*5F
$PSSN,TFM,013017.00,,,,*6B
$GPRMC,013017.00,A,4742.1603580,N,01618.1001357,E,0.0,,010125,5.1,E,D*1A
$GPGLL,4742.1603580,N,01618.1001357,E,013017.00,A,D*6B
$GPGGA,013017.00,4742.1603580,N,01618.1001357,E,2,37,0.4,708.0281,M,43.2066,M,2.2,0136*43
$GNGNS,013017.00,4742.1603580,N,01618.1001357,E,DAAA,37,0.4,708.0281,43.2066,,*5B
$GPGNS,013017.00,,,,,,10,,,,2.2,136*7C
$GLGNS,013017.00,,,,,,07,,,,,*7C
$GAGNS,013017.00,,,,,,08,,,,,*7E
$GBGNS,013017.00,,,,,,12,,,,,*76
$GPLLQ,013017.00,010125,,M,,M,1,37,0.879,,M*17
$GPVTG,,T,,M,0.00,N,0.00,K,D*26
$GPHDT,,T*1B
$GPTHS,,V*0E
$GPROT,,V*08
$PSSN,HRP,013017.00,010125,,,,,,,00,0,,*65
$PTNL,AVR,013017.00,,Yaw,,Tilt,,,,0,,00*33
$GPGSA,A,3,02,03,04,06,09,17,19,21,28,31,,,0.8,0.4,0.6*37
$GPGSA,A,3,69,70,71,78,84,85,86,,,,,,0.8,0.4,0.6*36
$GPGSA,A,3,04,05,06,09,10,11,34,36,,,,,0.8,0.4,0.6*35
$GPGSA,A,3,05,06,09,16,19,20,29,30,32,35,39,60,0.8,0.4,0.6*3C
$GPGST,013017.00,0.839,0.343,0.282,5.433,0.342,0.283,0.759*5B
$GPGBS,013017.00,1.633,1.729,6.177,28,0.0001,-0.469,0.849*7E
$GPGRS,013017.00,1,0.1,-0.0,0.2,-0.2,-0.0,-0.3,0.4,-0.1,-0.5,0.2,,*4A
$GPGRS,013017.00,1,-0.6,-0.7,0.6,-3.1,0.5,0.9,-1.3,,,,,*6F
$GPGRS,013017.00,1,-0.1,0.2,-0.2,0.3,-0.3,-0.3,0.3,0.1,,,,*4A
$GPGRS,013017.00,1,0.3,0.9,0.7,0.3,0.3,-1.1,0.5,-1.0,0.6,-0.7,-0.8,-0.9*6E
$GPGSV,6,1,21,03,78,353,50,31,32,091,44,06,10,313,38,09,23,218,42*72
$GPGSV,6,2,21,28,27,059,43,21,32,149,41,19,28,304,43,17,38,270,45*7A
$GPGSV,6,3,21,04,50,205,47,02,51,156,49,01,56,144,,32,02,046,33*71
$GPGSV,6,4,21,36,35,170,44,58,13,245,37,40,24,132,36,34,31,208,42*7B
$GPGSV,6,5,21,49,34,195,44,57,09,110,38,41,07,108,34,61,03,257,37*72
$GPGSV,6,6,21*7A
$GLGSV,3,1,10,85,70,293,52,78,13,041,44,86,17,327,46,69,51,037,50*6D
$GLGSV,3,2,10,84,45,167,39,70,54,252,40,79,04,089,42,77,02,348,37*61
$GLGSV,3,3,10,68,04,049,42,71,09,237,44*6C
$GAGSV,3,1,11,06,74,113,48,05,14,214,39,34,19,311,40,10,26,136,41*61
$GAGSV,3,2,11,04,54,062,46,11,54,140,44,09,64,188,48,36,71,299,48*65
$GAGSV,3,3,11,27,01,353,36,12,04,134,,19,01,042,24*54
$GBGSV,5,1,17,20,80,034,52,05,24,128,38,32,23,062,44,35,39,300,47*68
$GBGSV,5,2,17,39,27,047,42,16,32,057,43,09,36,077,42,29,50,208,50*68
$GBGSV,5,3,17,06,32,061,41,19,45,250,48,22,44,237,,48,74,260,*61
$GBGSV,5,4,17,37,08,104,,30,08,166,38,44,03,327,,02,08,105,34*68
$GBGSV,5,5,17,60,09,110,40*56
$GPGGA,013017.00,,,,,0,00,,,M,,M,,*4C
$PTNL,GGK,013017.00,010125,4742.1603580,N,01618.1001357,E,1,37,0.8,EHT751.2346,M*41
$GPGGQ,013017.00,010125,4742.1603580,N,01618.1001357,E,1,37,0.879,708.0281,M*35
$GPGFA,013017.00,3.259,6.221,0.343,0.282,5.433,0.759,,VVV*0B
$GPLLK,013017.00,010125,,M,,M,1,37,0.9,,M*02
$GNGMP,013017.00,,,,,DAAA,37,0.4,,,,*52
$GPGMP,013017.00,,,,,,10,,,,2.2,136*7C
$GLGMP,013017.00,,,,,,07,,,,,*7C
$GAGMP,013017.00,,,,,,08,,,,,*7E
$GBGMP,013017.00,,,,,,12,,,,,*76
$PSSN,SNC,[0,264635000,2347]*44
$GPZDA,013022.00,01,01,2025,,*61
$GPDTM,W84,,00.0000000,N,00.0000000,E,00.0000000,W84*5F
$PSSN,TFM,013022.00,,,,*6D
$GPRMC,013022.00,A,4742.1603593,N,01618.1001357,E,0.0,,010125,5.1,E,D*1E
$GPGLL,4742.1603593,N,01618.1001357,E,013022.00,A,D*6F
$GPGGA,013022.00,4742.1603593,N,01618.1001357,E,2,37,0.4,708.0258,M,43.2066,M,3.2,0136*42
$GNGNS,013022.00,4742.1603593,N,01618.1001357,E,DAAA,37,0.4,708.0258,43.2066,,*5B
$GPGNS,013022.00,,,,,,10,,,,3.2,136*7B
$GLGNS,013022.00,,,,,,07,,,,,*7A
$GAGNS,013022.00,,,,,,08,,,,,*78
$GBGNS,013022.00,,,,,,12,,,,,*70
$GPLLQ,013022.00,010125,,M,,M,1,37,0.893,,M*15
$GPVTG,,T,,M,0.01,N,0.01,K,D*26
$GPHDT,,T*1B
$GPTHS,,V*0E
$GPROT,,V*08
$PSSN,HRP,013022.00,010125,,,,,,,00,0,,*63
$PTNL,AVR,013022.00,,Yaw,,Tilt,,,,0,,00*35
$GPGSA,A,3,02,03,04,06,09,17,19,21,28,31,,,0.8,0.4,0.6*37
$GPGSA,A,3,69,70,71,78,84,85,86,,,,,,0.8,0.4,0.6*36
$GPGSA,A,3,04,05,06,09,10,11,34,36,,,,,0.8,0.4,0.6*35
$GPGSA,A,3,05,06,09,16,19,20,29,30,32,35,39,60,0.8,0.4,0.6*3C
$GPGST,013022.00,0.896,0.346,0.281,8.336,0.345,0.283,0.774*59
$GPGBS,013022.00,1.679,1.757,6.312,28,0.0001,-0.544,0.863*78
$GPGRS,013022.00,1,0.1,0.2,0.2,0.6,-0.1,-0.3,0.1,-0.4,-0.5,0.2,,*4B
$GPGRS,013022.00,1,-0.1,-0.4,-0.2,-3.4,0.3,0.9,-1.3,,,,,*47
$GPGRS,013022.00,1,-0.0,-0.1,-0.2,0.3,0.2,-0.2,0.2,-0.0,,,,*63
$GPGRS,013022.00,1,0.5,1.1,0.7,0.2,0.2,-1.3,0.6,-1.3,0.6,-1.0,-0.6,-0.9*6D
$GPGSV,6,1,21,03,78,353,50,31,32,090,45,06,10,313,39,09,23,218,42*73
$GPGSV,6,2,21,28,27,059,43,21,32,149,41,19,28,304,43,17,38,270,45*7A
$GPGSV,6,3,21,04,50,205,46,02,51,156,48,01,56,144,,32,02,046,33*71
$GPGSV,6,4,21,36,35,170,44,58,13,245,37,40,24,132,36,34,31,208,42*7B
$GPGSV,6,5,21,49,34,195,44,57,09,110,38,41,07,108,34,61,03,257,37*72
$GPGSV,6,6,21*7A
$GLGSV,3,1,10,85,70,293,53,78,13,041,45,86,17,327,46,69,51,037,51*6C
$GLGSV,3,2,10,84,45,167,39,70,54,252,40,79,04,089,42,77,02,348,38*6E
$GLGSV,3,3,10,68,04,049,42,71,09,237,43*6B
$GAGSV,3,1,11,06,74,112,48,05,14,214,39,34,19,311,40,10,26,136,42*63
$GAGSV,3,2,11,04,54,062,46,11,54,140,44,09,64,188,48,36,71,299,48*65
$GAGSV,3,3,11,27,01,353,36,12,04,134,,19,01,042,25*55
$GBGSV,5,1,17,20,80,034,52,05,24,128,38,32,23,062,44,35,40,300,47*66
$GBGSV,5,2,17,39,27,047,43,16,32,057,43,09,36,077,42,29,50,208,49*61
$GBGSV,5,3,17,06,32,061,41,19,45,250,48,22,44,237,,48,74,260,*61
$GBGSV,5,4,17,37,08,104,,30,08,166,38,44,03,327,,02,08,105,34*68
$GBGSV,5,5,17,60,09,110,40*56
$GPGGA,013022.00,,,,,0,00,,,M,,M,,*4A
$PTNL,GGK,013022.00,010125,4742.1603593,N,01618.1001357,E,1,37,0.8,EHT751.2323,M*46
$GPGGQ,013022.00,010125,4742.1603593,N,01618.1001357,E,1,37,0.893,708.0258,M*31
$GPGFA,013022.00,3.292,6.346,0.346,0.281,8.336,0.774,,VVV*0C
$GPLLK,013022.00,010125,,M,,M,1,37,0.9,,M*04
$GNGMP,013022.00,,,,,DAAA,37,0.4,,,,*54
$GPGMP,013022.00,,,,,,10,,,,3.2,136*7B
$GLGMP,013022.00,,,,,,07,,,,,*7A
$GAGMP,013022.00,,,,,,08,,,,,*78
$GBGMP,013022.00,,,,,,12,,,,,*70
$PSSN,SNC,[0,264640000,2347]*46
$GPZDA,013027.00,01,01,2025,,*64
$GPDTM,W84,,00.0000000,N,00.0000000,E,00.0000000,W84*5F
$PSSN,TFM,013027.00,,,,*68
$GPRMC,013027.00,A,4742.1603574,N,01618.1001391,E,0.0,,010125,5.1,E,D*18
$GPGLL,4742.1603574,N,01618.1001391,E,013027.00,A,D*69
$GPGGA,013027.00,4742.1603574,N,01618.1001391,E,2,37,0.4,708.0200,M,43.2066,M,2.2,0136*48
$GNGNS,013027.00,4742.1603574,N,01618.1001391,E,DAAA,37,0.4,708.0200,43.2066,,*50
$GPGNS,013027.00,,,,,,10,,,,2.2,136*7F
$GLGNS,013027.00,,,,,,07,,,,,*7F
$GAGNS,013027.00,,,,,,08,,,,,*7D
$GBGNS,013027.00,,,,,,12,,,,,*75
$GPLLQ,013027.00,010125,,M,,M,1,37,0.890,,M*13
$GPVTG,,T,,M,0.00,N,0.01,K,D*27
$GPHDT,,T*1B
$GPTHS,,V*0E
$GPROT,,V*08
$PSSN,HRP,013027.00,010125,,,,,,,00,0,,*66
$PTNL,AVR,013027.00,,Yaw,,Tilt,,,,0,,00*30
$GPGSA,A,3,02,03,04,06,09,17,19,21,28,31,,,0.8,0.4,0.6*37
$GPGSA,A,3,69,70,71,78,84,85,86,,,,,,0.8,0.4,0.6*36
$GPGSA,A,3,04,05,06,09,10,11,34,36,,,,,0.8,0.4,0.6*35
$GPGSA,A,3,05,06,09,16,19,20,29,30,32,35,39,60,0.8,0.4,0.6*3C
$GPGST,013027.00,0.876,0.346,0.286,8.137,0.345,0.287,0.768*5F
$GPGBS,013027.00,1.582,1.763,5.960,19,0.0001,0.621,0.870*5C
$GPGRS,013027.00,1,-0.1,-0.1,0.1,0.2,-0.5,0.0,0.6,0.1,-0.3,0.2,,*49
$GPGRS,013027.00,1,-0.2,1.3,-0.6,-3.2,0.3,0.9,-1.0,,,,,*6B
$GPGRS,013027.00,1,0.0,-0.1,-0.1,0.4,0.3,-0.3,-0.2,-0.1,,,,*63
$GPGRS,013027.00,1,-0.2,0.3,1.1,0.3,-0.0,-1.3,0.5,-1.0,1.0,-0.8,-0.7,-1.1*6E
$GPGSV,6,1,21,03,78,353,50,31,32,090,44,06,10,313,38,09,23,218,41*70
$GPGSV,6,2,21,28,27,059,43,21,32,149,41,19,28,304,42,17,38,270,45*7B
$GPGSV,6,3,21,04,51,205,46,02,51,156,48,01,56,144,,32,02,046,32*71
$GPGSV,6,4,21,36,35,170,44,58,13,245,37,40,24,132,36,34,31,208,42*7B
$GPGSV,6,5,21,49,34,195,43,57,09,110,38,41,07,108,34,61,03,257,37*75
$GPGSV,6,6,21*7A
$GLGSV,3,1,10,85,70,293,52,78,13,041,44,86,17,327,45,69,51,037,51*6F
$GLGSV,3,2,10,84,45,167,39,70,54,252,40,79,04,089,42,77,02,348,37*61
$GLGSV,3,3,10,68,04,049,42,71,09,237,45*6D
$GAGSV,3,1,11,06,74,112,48,05,14,214,39,34,19,311,40,10,26,136,42*63
$GAGSV,3,2,11,04,54,062,46,11,54,140,44,09,64,188,48,36,71,299,48*65
$GAGSV,3,3,11,27,01,353,35,12,04,134,,19,01,042,24*57
$GBGSV,5,1,17,20,80,034,52,05,24,128,38,32,23,062,44,35,40,300,47*66
$GBGSV,5,2,17,39,27,047,43,16,32,057,42,09,36,077,42,29,50,208,49*60
$GBGSV,5,3,17,06,32,061,41,19,45,250,48,22,44,237,,48,74,261,*60
$GBGSV,5,4,17,37,08,104,,30,08,166,38,44,03,327,,02,08,105,34*68
$GBGSV,5,5,17,60,09,110,40*56
$GPGGA,013027.00,,,,,0,00,,,M,,M,,*4F
$PTNL,GGK,013027.00,010125,4742.1603574,N,01618.1001391,E,1,37,0.8,EHT751.2266,M*40
$GPGGQ,013027.00,010125,4742.1603574,N,01618.1001391,E,1,37,0.890,708.0200,M*39
$GPGFA,013027.00,3.291,6.298,0.346,0.286,8.137,0.768,,VVV*01
$GPLLK,013027.00,010125,,M,,M,1,37,0.9,,M*01
$GNGMP,013027.00,,,,,DAAA,37,0.4,,,,*51
$GPGMP,013027.00,,,,,,10,,,,2.2,136*7F
$GLGMP,013027.00,,,,,,07,,,,,*7F
$GAGMP,013027.00,,,,,,08,,,,,*7D
$GBGMP,013027.00,,,,,,12,,,,,*75
$PSSN,SNC,[0,264645000,2347]*43
$GPZDA,013032.00,01,01,2025,,*60
$GPDTM,W84,,00.0000000,N,00.0000000,E,00.0000000,W84*5F
$PSSN,TFM,013032.00,,,,*6C
$GPRMC,013032.00,A,4742.1603580,N,01618.1001385,E,0.0,,010125,5.1,E,D*12
$GPGLL,4742.1603580,N,01618.1001385,E,013032.00,A,D*63
$GPGGA,013032.00,4742.1603580,N,01618.1001385,E,2,37,0.4,708.0239,M,43.2066,M,2.4,0136*4E
$GNGNS,013032.00,4742.1603580,N,01618.1001385,E,DAAA,37,0.4,708.0239,43.2066,,*50
$GPGNS,013032.00,,,,,,10,,,,2.4,136*7D
$GLGNS,013032.00,,,,,,07,,,,,*7B
$GAGNS,013032.00,,,,,,08,,,,,*79
$GBGNS,013032.00,,,,,,12,,,,,*71
$GPLLQ,013032.00,010125,,M,,M,1,37,0.870,,M*19
$GPVTG,,T,,M,0.00,N,0.01,K,D*27
$GPHDT,,T*1B
$GPTHS,,V*0E
$GPROT,,V*08
$PSSN,HRP,013032.00,010125,,,,,,,00,0,,*62
$PTNL,AVR,013032.00,,Yaw,,Tilt,,,,0,,00*34
$GPGSA,A,3,02,03,04,06,09,17,19,21,28,31,,,0.8,0.4,0.6*37
$GPGSA,A,3,69,70,71,78,84,85,86,,,,,,0.8,0.4,0.6*36
$GPGSA,A,3,04,05,06,09,10,11,34,36,,,,,0.8,0.4,0.6*35
$GPGSA,A,3,05,06,09,16,19,20,29,30,32,35,39,60,0.8,0.4,0.6*3C
$GPGST,013032.00,0.978,0.340,0.286,5.905,0.340,0.286,0.748*50
$GPGBS,013032.00,1.607,1.759,6.087,19,0.0001,0.662,0.889*5D
$GPGRS,013032.00,1,-0.3,-0.2,0.2,-0.6,0.2,-0.1,0.7,0.3,-0.3,0.2,,*63
$GPGRS,013032.00,1,-0.4,-0.6,1.4,-3.3,0.5,1.3,-1.9,,,,,*6B
$GPGRS,013032.00,1,-0.3,0.2,-0.1,0.4,0.2,-0.3,-0.1,0.1,,,,*48
$GPGRS,013032.00,1,0.4,0.3,1.0,-0.3,-0.0,-1.3,0.5,-1.2,1.1,-0.9,-0.8,-0.9*69
$GPGSV,6,1,21,03,78,353,50,31,32,090,44,06,10,313,37,09,23,218,42*7C
$GPGSV,6,2,21,28,27,058,43,21,32,149,40,19,28,304,43,17,38,270,46*79
$GPGSV,6,3,21,04,51,205,46,02,51,156,48,01,56,144,,32,01,046,32*72
$GPGSV,6,4,21,36,35,170,44,58,13,245,37,40,24,132,36,34,31,208,42*7B
$GPGSV,6,5,21,49,34,195,44,57,09,110,38,41,07,108,34,61,03,257,37*72
$GPGSV,6,6,21*7A
$GLGSV,3,1,10,85,70,293,53,78,13,041,44,86,17,327,46,69,51,037,51*6D
$GLGSV,3,2,10,84,45,167,39,70,54,252,40,79,04,089,42,77,02,348,37*61
$GLGSV,3,3,10,68,04,049,42,71,09,237,44*6C
$GAGSV,3,1,11,06,74,112,48,05,14,214,39,34,19,311,40,10,26,136,42*63
$GAGSV,3,2,11,04,54,062,46,11,54,140,44,09,64,188,48,36,71,299,48*65
$GAGSV,3,3,11,27,01,353,36,12,04,134,,19,01,042,25*55
$GBGSV,5,1,17,20,80,034,52,05,24,128,38,32,23,062,44,35,40,300,47*66
$GBGSV,5,2,17,39,27,047,43,16,32,057,42,09,36,077,42,29,50,208,49*60
$GBGSV,5,3,17,06,33,061,41,19,45,250,48,22,44,237,,48,74,261,*61
$GBGSV,5,4,17,37,08,104,,30,08,166,38,44,03,327,,02,08,105,34*68
$GBGSV,5,5,17,60,09,110,40*56
$GPGGA,013032.00,,,,,0,00,,,M,,M,,*4B
$PTNL,GGK,013032.00,010125,4742.1603580,N,01618.1001385,E,1,37,0.8,EHT751.2304,M*4F
$GPGGQ,013032.00,010125,4742.1603580,N,01618.1001385,E,1,37,0.870,708.0239,M*37
$GPGFA,013032.00,3.236,6.136,0.340,0.286,5.905,0.748,,VVV*0F
$GPLLK,013032.00,010125,,M,,M,1,37,0.9,,M*05
$GNGMP,013032.00,,,,,DAAA,37,0.4,,,,*55
$GPGMP,013032.00,,,,,,10,,,,2.4,136*7D
$GLGMP,013032.00,,,,,,07,,,,,*7B
$GAGMP,013032.00,,,,,,08,,,,,*79
$GBGMP,013032.00,,,,,,12,,,,,*71
$PSSN,SNC,[0,264650000,2347]*47
$GPZDA,013037.00,01,01,2025,,*65
$GPDTM,W84,,00.0000000,N,00.0000000,E,00.0000000,W84*5F
$PSSN,TFM,013037.00,,,,*69
$GPRMC,013037.00,A,4742.1603580,N,01618.1001402,E,0.0,,010125,5.1,E,D*1F
$GPGLL,4742.1603580,N,01618.1001402,E,013037.00,A,D*6E
$GPGGA,013037.00,4742.1603580,N,01618.1001402,E,2,37,0.4,708.0254,M,43.2066,M,2.2,0136*4E
$GNGNS,013037.00,4742.1603580,N,01618.1001402,E,DAAA,37,0.4,708.0254,43.2066,,*56
$GPGNS,013037.00,,,,,,10,,,,2.2,136*7E
$GLGNS,013037.00,,,,,,07,,,,,*7E
$GAGNS,013037.00,,,,,,08,,,,,*7C
$GBGNS,013037.00,,,,,,12,,,,,*74
$GPLLQ,013037.00,010125,,M,,M,1,37,0.880,,M*13
$GPVTG,,T,,M,0.00,N,0.01,K,D*27
$GPHDT,,T*1B
$GPTHS,,V*0E
$GPROT,,V*08
$PSSN,HRP,013037.00,010125,,,,,,,00,0,,*67
$PTNL,AVR,013037.00,,Yaw,,Tilt,,,,0,,00*31
$GPGSA,A,3,02,03,04,06,09,17,19,21,28,31,,,0.8,0.4,0.6*37
$GPGSA,A,3,69,70,71,78,84,85,86,,,,,,0.8,0.4,0.6*36
$GPGSA,A,3,04,05,06,09,10,11,34,36,,,,,0.8,0.4,0.6*35
$GPGSA,A,3,05,06,09,16,19,20,29,30,32,35,39,60,0.8,0.4,0.6*3C
$GPGST,013037.00,0.890,0.343,0.282,5.251,0.342,0.283,0.760*52
$GPGBS,013037.00,1.630,1.731,6.191,19,0.0001,0.715,0.841*51
$GPGRS,013037.00,1,-0.1,-0.2,0.2,-0.8,0.3,-0.4,0.7,-0.0,-0.2,0.3,,*40
$GPGRS,013037.00,1,-0.4,-0.7,0.6,-3.1,0.7,1.5,-1.5,,,,,*66
$GPGRS,013037.00,1,-0.3,0.3,-0.1,0.2,0.1,-0.1,0.7,0.2,,,,*63
$GPGRS,013037.00,1,0.3,0.3,1.0,0.4,0.1,-1.1,0.4,-0.7,0.9,-0.8,-0.7,-1.0*65
$GPGSV,6,1,21,03,78,354,50,31,32,090,44,06,10,313,38,09,23,218,41*77
$GPGSV,6,2,21,28,27,058,43,21,32,149,41,19,28,304,43,17,38,270,46*78
$GPGSV,6,3,21,04,51,205,47,02,51,156,48,01,56,144,,32,01,046,31*70
$GPGSV,6,4,21,36,35,170,44,58,13,245,37,40,24,132,36,34,31,208,42*7B
$GPGSV,6,5,21,49,34,195,43,57,09,110,38,41,07,108,34,61,03,257,37*75
$GPGSV,6,6,21*7A
$GLGSV,3,1,10,85,70,292,53,78,13,041,44,86,17,327,44,69,51,037,51*6E
$GLGSV,3,2,10,84,45,167,39,70,54,253,40,79,05,089,41,77,02,348,36*63
$GLGSV,3,3,10,68,04,050,42,71,09,237,43*63
$GAGSV,3,1,11,06,74,112,48,05,14,214,39,34,19,311,40,10,26,136,42*63
$GAGSV,3,2,11,04,54,062,46,11,54,140,44,09,64,188,48,36,71,299,48*65
$GAGSV,3,3,11,27,01,353,35,12,03,134,,19,01,042,24*50
$GBGSV,5,1,17,20,80,034,52,05,24,128,38,32,23,062,44,35,40,300,47*66
$GBGSV,5,2,17,39,27,047,43,16,32,057,42,09,36,077,42,29,50,208,49*60
$GBGSV,5,3,17,06,33,061,40,19,45,250,48,22,44,237,,48,74,261,*60
$GBGSV,5,4,17,37,09,104,,30,08,166,37,44,03,327,,02,08,105,34*66
$GBGSV,5,5,17,60,09,110,40*56
$GPGGA,013037.00,,,,,0,00,,,M,,M,,*4E
$PTNL,GGK,013037.00,010125,4742.1603580,N,01618.1001402,E,1,37,0.8,EHT751.2320,M*44
$GPGGQ,013037.00,010125,4742.1603580,N,01618.1001402,E,1,37,0.880,708.0254,M*3E
$GPGFA,013037.00,3.258,6.229,0.343,0.282,5.251,0.760,,VVV*08
$GPLLK,013037.00,010125,,M,,M,1,37,0.9,,M*00
$GNGMP,013037.00,,,,,DAAA,37,0.4,,,,*50
$GPGMP,013037.00,,,,,,10,,,,2.2,136*7E
$GLGMP,013037.00,,,,,,07,,,,,*7E
$GAGMP,013037.00,,,,,,08,,,,,*7C
$GBGMP,013037.00,,,,,,12,,,,,*74
$PSSN,SNC,[0,264655000,2347]*42
$GPZDA,013042.00,01,01,2025,,*67
$GPDTM,W84,,00.0000000,N,00.0000000,E,00.0000000,W84*5F
$PSSN,TFM,013042.00,,,,*6B
$GPRMC,013042.00,A,4742.1603594,N,01618.1001388,E,0.0,,010125,5.1,E,D*1D
$GPGLL,4742.1603594,N,01618.1001388,E,013042.00,A,D*6C
$GPGGA,013042.00,4742.1603594,N,01618.1001388,E,2,37,0.4,708.0259,M,43.2066,M,3.2,0136*40
$GNGNS,013042.00,4742.1603594,N,01618.1001388,E,DAAA,37,0.4,708.0259,43.2066,,*59
$GPGNS,013042.00,,,,,,10,,,,3.2,136*7D
$GLGNS,013042.00,,,,,,07,,,,,*7C
$GAGNS,013042.00,,,,,,08,,,,,*7E
$GBGNS,013042.00,,,,,,12,,,,,*76
$GPLLQ,013042.00,010125,,M,,M,1,37,0.894,,M*14
$GPVTG,,T,,M,0.01,N,0.01,K,D*26
$GPHDT,,T*1B
$GPTHS,,V*0E
$GPROT,,V*08
$PSSN,HRP,013042.00,010125,,,,,,,00,0,,*65
$PTNL,AVR,013042.00,,Yaw,,Tilt,,,,0,,00*33
$GPGSA,A,3,02,03,04,06,09,17,19,21,28,31,,,0.8,0.4,0.6*37
$GPGSA,A,3,69,70,71,78,84,85,86,,,,,,0.8,0.4,0.6*36
$GPGSA,A,3,04,05,06,09,10,11,34,36,,,,,0.8,0.4,0.6*35
$GPGSA,A,3,05,06,09,16,19,20,29,30,32,35,39,60,0.8,0.4,0.6*3C
$GPGST,013042.00,0.878,0.346,0.281,8.165,0.345,0.283,0.775*5A
$GPGBS,013042.00,1.675,1.757,6.323,31,0.0001,0.753,0.762*5F
$GPGRS,013042.00,1,-0.3,-0.1,0.1,-0.2,0.2,-0.2,0.2,-0.0,-0.1,0.8,,*40
$GPGRS,013042.00,1,-0.9,0.0,-1.0,-2.5,0.1,1.2,-2.0,,,,,*6B
$GPGRS,013042.00,1,-0.0,-0.0,-0.3,0.1,0.0,-0.2,0.3,0.1,,,,*48
$GPGRS,013042.00,1,0.5,0.3,1.0,0.9,-0.1,-1.2,0.4,-1.3,0.9,-0.6,-0.9,-1.2*45
$GPGSV,6,1,21,03,78,354,50,31,32,090,45,06,10,313,37,09,23,218,42*7A
$GPGSV,6,2,21,28,27,058,42,21,32,149,41,19,28,304,43,17,38,270,46*79
$GPGSV,6,3,21,04,51,205,46,02,51,156,48,01,56,144,,32,01,046,31*71
$GPGSV,6,4,21,36,35,170,44,58,13,245,37,40,24,132,36,34,31,208,42*7B
$GPGSV,6,5,21,49,34,195,43,57,09,110,37,41,07,108,34,61,03,257,37*7A
$GPGSV,6,6,21*7A
$GLGSV,3,1,10,85,70,292,53,78,13,041,45,86,17,327,45,69,51,037,50*6F
$GLGSV,3,2,10,84,45,167,39,70,54,253,40,79,05,089,41,77,02,348,36*63
$GLGSV,3,3,10,68,04,050,42,71,09,237,43*63
$GAGSV,3,1,11,06,74,112,48,05,14,214,39,34,19,311,40,10,26,136,42*63
$GAGSV,3,2,11,04,54,062,46,11,54,140,44,09,64,188,48,36,71,299,48*65
$GAGSV,3,3,11,27,01,353,35,12,03,134,,19,01,042,24*50
$GBGSV,5,1,17,20,80,034,52,05,24,128,38,32,23,062,44,35,40,300,47*66
$GBGSV,5,2,17,39,27,047,43,16,32,057,42,09,36,077,42,29,50,208,49*60
$GBGSV,5,3,17,06,33,061,41,19,46,251,48,22,44,237,,48,74,261,*63
$GBGSV,5,4,17,37,09,104,,30,08,166,37,44,03,327,,02,08,105,34*66
$GBGSV,5,5,17,60,09,110,40*56
$GPGGA,013042.00,,,,,0,00,,,M,,M,,*4C
$PTNL,GGK,013042.00,010125,4742.1603594,N,01618.1001388,E,1,37,0.8,EHT751.2325,M*43
$GPGGQ,013042.00,010125,4742.1603594,N,01618.1001388,E,1,37,0.894,708.0259,M*34
$GPGFA,013042.00,3.290,6.353,0.346,0.281,8.165,0.775,,VVV*09
$GPLLK,013042.00,010125,,M,,M,1,37,0.9,,M*02
$GNGMP,013042.00,,,,,DAAA,37,0.4,,,,*52
$GPGMP,013042.00,,,,,,10,,,,3.2,136*7D
$GLGMP,013042.00,,,,,,07,,,,,*7C
$GAGMP,013042.00,,,,,,08,,,,,*7E
$GBGMP,013042.00,,,,,,12,,,,,*76
$PSSN,SNC,[0,264660000,2347]*44
$GPZDA,013047.00,01,01,2025,,*62
$GPDTM,W84,,00.0000000,N,00.0000000,E,00.0000000,W84*5F
$PSSN,TFM,013047.00,,,,*6E
$GPRMC,013047.00,A,4742.1603603,N,01618.1001364,E,0.0,,010125,5.1,E,D*17
$GPGLL,4742.1603603,N,01618.1001364,E,013047.00,A,D*66
$GPGGA,013047.00,4742.1603603,N,01618.1001364,E,2,37,0.4,708.0282,M,43.2066,M,2.2,0136*4D
$GNGNS,013047.00,4742.1603603,N,01618.1001364,E,DAAA,37,0.4,708.0282,43.2066,,*55
$GPGNS,013047.00,,,,,,10,,,,2.2,136*79
$GLGNS,013047.00,,,,,,07,,,,,*79
$GAGNS,013047.00,,,,,,08,,,,,*7B
$GBGNS,013047.00,,,,,,12,,,,,*73
$GPLLQ,013047.00,010125,,M,,M,1,37,0.890,,M*15
$GPVTG,,T,,M,0.00,N,0.00,K,D*26
$GPHDT,,T*1B
$GPTHS,,V*0E
$GPROT,,V*08
$PSSN,HRP,013047.00,010125,,,,,,,00,0,,*60
$PTNL,AVR,013047.00,,Yaw,,Tilt,,,,0,,00*36
$GPGSA,A,3,02,03,04,06,09,17,19,21,28,31,,,0.8,0.4,0.6*37
$GPGSA,A,3,69,70,71,78,84,85,86,,,,,,0.8,0.4,0.6*36
$GPGSA,A,3,04,05,06,09,10,11,34,36,,,,,0.8,0.4,0.6*35
$GPGSA,A,3,05,06,09,16,19,20,29,30,32,35,39,60,0.8,0.4,0.6*3C
$GPGST,013047.00,0.798,0.346,0.286,7.961,0.345,0.287,0.769*53
$GPGBS,013047.00,1.578,1.764,5.969,31,0.0001,0.459,0.779*50
$GPGRS,013047.00,1,-0.1,-0.1,0.3,0.6,0.1,-0.3,-0.2,0.1,-0.3,0.5,,*60
$GPGRS,013047.00,1,-0.6,-0.4,-0.7,-2.4,0.7,1.2,-1.2,,,,,*48
$GPGRS,013047.00,1,0.2,-0.6,-0.2,0.4,0.1,-0.3,0.4,-0.0,,,,*4B
$GPGRS,013047.00,1,0.3,0.5,1.0,0.8,0.2,-1.1,0.4,-1.0,0.8,-0.7,-1.0,-0.9*6D
$GPGSV,6,1,21,03,78,354,50,31,32,090,45,06,10,313,38,09,23,218,41*76
$GPGSV,6,2,21,28,27,058,43,21,32,149,41,19,28,304,43,17,38,270,46*78
$GPGSV,6,3,21,04,51,205,46,02,51,156,48,01,56,144,,32,01,046,32*72
$GPGSV,6,4,21,36,35,170,44,58,13,245,37,40,24,132,36,34,31,208,42*7B
$GPGSV,6,5,21,49,34,195,44,57,09,110,38,41,07,108,34,61,03,257,37*72
$GPGSV,6,6,21*7A
$GLGSV,3,1,10,85,70,292,52,78,13,041,45,86,17,327,44,69,51,037,50*6F
$GLGSV,3,2,10,84,45,167,39,70,54,253,40,79,05,089,42,77,02,348,36*60
$GLGSV,3,3,10,68,04,050,42,71,09,237,44*64
$GAGSV,3,1,11,06,74,112,48,05,15,214,38,34,19,311,40,10,26,136,41*60
$GAGSV,3,2,11,04,54,062,46,11,54,140,44,09,64,188,48,36,71,299,48*65
$GAGSV,3,3,11,27,01,353,34,12,03,134,,19,01,042,24*51
$GBGSV,5,1,17,20,80,034,52,05,24,128,38,32,23,062,44,35,40,300,47*66
$GBGSV,5,2,17,39,27,046,43,16,32,057,42,09,36,077,42,29,50,208,49*61
$GBGSV,5,3,17,06,33,061,41,19,46,251,48,22,44,237,,48,74,261,*63
$GBGSV,5,4,17,37,09,104,,30,08,166,37,44,03,327,,02,08,105,34*66
$GBGSV,5,5,17,60,09,110,40*56
$GPGGA,013047.00,,,,,0,00,,,M,,M,,*49
$PTNL,GGK,013047.00,010125,4742.1603603,N,01618.1001364,E,1,37,0.8,EHT751.2348,M*42
$GPGGQ,013047.00,010125,4742.1603603,N,01618.1001364,E,1,37,0.890,708.0282,M*3C
$GPGFA,013047.00,3.288,6.302,0.346,0.286,7.961,0.769,,VVV*08
$GPLLK,013047.00,010125,,M,,M,1,37,0.9,,M*07
$GNGMP,013047.00,,,,,DAAA,37,0.4,,,,*57
$GPGMP,013047.00,,,,,,10,,,,2.2,136*79
$GLGMP,013047.00,,,,,,07,,,,,*79
$GAGMP,013047.00,,,,,,08,,,,,*7B
$GBGMP,013047.00,,,,,,12,,,,,*73
$PSSN,SNC,[0,264665000,2347]*41
$GPZDA,013052.00,01,01,2025,,*66
$GPDTM,W84,,00.0000000,N,00.0000000,E,00.0000000,W84*5F
$PSSN,TFM,013052.00,,,,*6A
$GPRMC,013052.00,A,4742.1603618,N,01618.1001362,E,0.0,,010125,5.1,E,D*1F
$GPGLL,4742.1603618,N,01618.1001362,E,013052.00,A,D*6E
$GPGGA,013052.00,4742.1603618,N,01618.1001362,E,2,37,0.4,708.0297,M,43.2066,M,2.4,0136*47
$GNGNS,013052.00,4742.1603618,N,01618.1001362,E,DAAA,37,0.4,708.0297,43.2066,,*59
$GPGNS,013052.00,,,,,,10,,,,2.4,136*7B
$GLGNS,013052.00,,,,,,07,,,,,*7D
$GAGNS,013052.00,,,,,,08,,,,,*7F
$GBGNS,013052.00,,,,,,12,,,,,*77
$GPLLQ,013052.00,010125,,M,,M,1,37,0.871,,M*1E
$GPVTG,,T,,M,0.00,N,0.00,K,D*26
$GPHDT,,T*1B
$GPTHS,,V*0E
$GPROT,,V*08
$PSSN,HRP,013052.00,010125,,,,,,,00,0,,*64
$PTNL,AVR,013052.00,,Yaw,,Tilt,,,,0,,00*32
$GPGSA,A,3,02,03,04,06,09,17,19,21,28,31,,,0.8,0.4,0.6*37
$GPGSA,A,3,69,70,71,78,84,85,86,,,,,,0.8,0.4,0.6*36
$GPGSA,A,3,04,05,06,09,10,11,34,36,,,,,0.8,0.4,0.6*35
$GPGSA,A,3,05,06,09,16,19,20,29,30,32,35,39,60,0.8,0.4,0.6*3C
$GPGST,013052.00,0.731,0.340,0.285,5.813,0.340,0.286,0.749*51
$GPGBS,013052.00,1.602,1.759,6.098,04,0.0001,0.402,0.625*50
$GPGRS,013052.00,1,0.1,-0.2,0.4,0.1,0.0,-0.3,0.1,-0.4,0.2,0.2,,*66
$GPGRS,013052.00,1,0.0,0.1,0.1,-2.5,-0.1,0.8,-1.5,,,,,*42
$GPGRS,013052.00,1,-0.2,-0.5,-0.2,0.2,-0.1,-0.2,0.2,-0.1,,,,*4C
$GPGRS,013052.00,1,0.0,0.5,0.6,0.7,-0.1,-1.1,0.4,-0.7,0.7,-0.8,-0.9,-0.9*42
$GPGSV,6,1,21,03,78,354,50,31,32,090,44,06,10,313,39,09,23,218,41*76
$GPGSV,6,2,21,28,27,058,43,21,32,149,41,19,28,304,44,17,38,270,45*7C
$GPGSV,6,3,21,04,51,205,46,02,51,156,49,01,56,144,,32,01,046,31*70
$GPGSV,6,4,21,36,35,170,44,58,13,245,37,40,24,132,36,34,31,208,42*7B
$GPGSV,6,5,21,49,34,195,44,57,09,110,38,41,07,108,34,61,03,257,37*72
$GPGSV,6,6,21*7A
$GLGSV,3,1,10,85,70,292,52,78,13,041,46,86,17,327,46,69,51,037,50*6E
$GLGSV,3,2,10,84,45,167,39,70,54,253,40,79,05,088,43,77,02,348,36*60
$GLGSV,3,3,10,68,04,050,42,71,09,237,44*64
$GAGSV,3,1,11,06,74,112,48,05,15,214,37,34,19,311,40,10,26,136,41*6F
$GAGSV,3,2,11,04,54,062,46,11,54,140,44,09,64,188,48,36,71,299,48*65
$GAGSV,3,3,11,27,01,353,35,12,03,134,,19,01,042,25*51
$GBGSV,5,1,17,20,80,034,52,05,24,128,38,32,23,062,44,35,40,300,47*66
$GBGSV,5,2,17,39,27,046,42,16,32,057,42,09,36,077,42,29,50,208,49*60
$GBGSV,5,3,17,06,33,061,41,19,46,251,48,22,44,237,,48,74,261,*63
$GBGSV,5,4,17,37,09,104,,30,08,166,37,44,03,327,,02,08,105,34*66
$GBGSV,5,5,17,60,09,110,39*58
$GPGGA,013052.00,,,,,0,00,,,M,,M,,*4D
$PTNL,GGK,013052.00,010125,4742.1603618,N,01618.1001362,E,1,37,0.8,EHT751.2363,M*43
$GPGGQ,013052.00,010125,4742.1603618,N,01618.1001362,E,1,37,0.871,708.0297,M*3F
$GPGFA,013052.00,3.234,6.141,0.340,0.285,5.813,0.749,,VVV*0F
$GPLLK,013052.00,010125,,M,,M,1,37,0.9,,M*03
$GNGMP,013052.00,,,,,DAAA,37,0.4,,,,*53
$GPGMP,013052.00,,,,,,10,,,,2.4,136*7B
$GLGMP,013052.00,,,,,,07,,,,,*7D
$GAGMP,013052.00,,,,,,08,,,,,*7F
$GBGMP,013052.00,,,,,,12,,,,,*77
$PSSN,SNC,[0,264670000,2347]*45
$GPZDA,013057.00,01,01,2025,,*63
$GPDTM,W84,,00.0000000,N,00.0000000,E,00.0000000,W84*5F
$PSSN,TFM,013057.00,,,,*6F
$GPRMC,013057.00,A,4742.1603618,N,01618.1001350,E,0.0,,010125,5.1,E,D*1B
$GPGLL,4742.1603618,N,01618.1001350,E,013057.00,A,D*6A
$GPGGA,013057.00,4742.1603618,N,01618.1001350,E,2,37,0.4,708.0264,M,43.2066,M,2.2,0136*49
$GNGNS,013057.00,4742.1603618,N,01618.1001350,E,DAAA,37,0.4,708.0264,43.2066,,*51
$GPGNS,013057.00,,,,,,10,,,,2.2,136*78
$GLGNS,013057.00,,,,,,07,,,,,*78
$GAGNS,013057.00,,,,,,08,,,,,*7A
$GBGNS,013057.00,,,,,,12,,,,,*72
$GPLLQ,013057.00,010125,,M,,M,1,37,0.880,,M*15
$GPVTG,,T,,M,0.00,N,0.01,K,D*27
$GPHDT,,T*1B
$GPTHS,,V*0E
$GPROT,,V*08
$PSSN,HRP,013057.00,010125,,,,,,,00,0,,*61
$PTNL,AVR,013057.00,,Yaw,,Tilt,,,,0,,00*37
$GPGSA,A,3,02,03,04,06,09,17,19,21,28,31,,,0.8,0.4,0.6*37
$GPGSA,A,3,69,70,71,78,84,85,86,,,,,,0.8,0.4,0.6*36
$GPGSA,A,3,04,05,06,09,10,11,34,36,,,,,0.8,0.4,0.6*35
$GPGSA,A,3,05,06,09,16,19,20,29,30,32,35,39,60,0.8,0.4,0.6*3C
$GPGST,013057.00,0.773,0.342,0.282,5.106,0.342,0.283,0.760*56
$GPGBS,013057.00,1.625,1.729,6.199,04,0.0001,0.353,0.643*54
$GPGRS,013057.00,1,-0.1,-0.1,0.4,-0.1,0.2,-0.3,0.1,-0.3,-0.0,0.0,,*48
$GPGRS,013057.00,1,-0.0,0.2,0.6,-2.3,0.8,1.1,-1.2,,,,,*43
$GPGRS,013057.00,1,-0.4,0.0,-0.3,0.2,0.0,-0.1,0.5,-0.1,,,,*4E
$GPGRS,013057.00,1,0.5,0.9,0.3,0.8,-0.3,-1.2,0.6,-1.0,0.8,-0.7,-1.0,-1.2*43
$GPGSV,6,1,21,03,78,354,50,31,32,090,45,06,10,313,38,09,23,218,41*76
$GPGSV,6,2,21,28,27,058,43,21,32,149,41,19,28,304,43,17,38,270,45*7B
$GPGSV,6,3,21,04,51,205,46,02,51,156,48,01,56,144,,32,01,046,32*72
$GPGSV,6,4,21,36,35,170,44,58,13,245,37,40,24,132,36,34,31,208,42*7B
$GPGSV,6,5,21,49,34,195,44,57,09,110,38,41,07,108,35,61,03,257,37*73
$GPGSV,6,6,21*7A
$GLGSV,3,1,10,85,70,292,53,78,13,041,45,86,17,327,44,69,51,037,51*6F
$GLGSV,3,2,10,84,45,167,39,70,54,253,40,79,05,088,42,77,02,348,36*61
$GLGSV,3,3,10,68,04,050,43,71,09,237,45*64
$GAGSV,3,1,11,06,74,112,48,05,15,214,38,34,19,311,40,10,26,136,40*61
$GAGSV,3,2,11,04,54,062,45,11,54,140,44,09,65,188,48,36,71,299,48*67
$GAGSV,3,3,11,27,01,353,35,12,03,134,,19,01,042,25*51
$GBGSV,5,1,17,20,80,034,52,05,24,128,37,32,23,062,44,35,40,300,47*69
$GBGSV,5,2,17,39,27,046,42,16,32,057,42,09,36,077,42,29,50,208,49*60
$GBGSV,5,3,17,06,33,061,41,19,46,251,48,22,44,237,,48,74,261,*63
$GBGSV,5,4,17,37,09,104,,30,08,166,37,44,03,327,,02,08,105,34*66
$GBGSV,5,5,17,60,09,110,39*58
$GPGGA,013057.00,,,,,0,00,,,M,,M,,*48
$PTNL,GGK,013057.00,010125,4742.1603618,N,01618.1001350,E,1,37,0.8,EHT751.2329,M*49
$GPGGQ,013057.00,010125,4742.1603618,N,01618.1001350,E,1,37,0.880,708.0264,M*39
$GPGFA,013057.00,3.255,6.233,0.342,0.282,5.106,0.760,,VVV*08
$GPLLK,013057.00,010125,,M,,M,1,37,0.9,,M*06
$GNGMP,013057.00,,,,,DAAA,37,0.4,,,,*56
$GPGMP,013057.00,,,,,,10,,,,2.2,136*78
$GLGMP,013057.00,,,,,,07,,,,,*78
$GAGMP,013057.00,,,,,,08,,,,,*7A
$GBGMP,013057.00,,,,,,12,,,,,*72
$PSSN,SNC,[0,264675000,2347]*40
$GPZDA,013102.00,01,01,2025,,*62
$GPDTM,W84,,00.0000000,N,00.0000000,E,00.0000000,W84*5F
$PSSN,TFM,013102.00,,,,*6E
$GPRMC,013102.00,A,4742.1603640,N,01618.1001391,E,0.0,,010125,5.1,E,D*1A
$GPGLL,4742.1603640,N,01618.1001391,E,013102.00,A,D*6B
$GPGGA,013102.00,4742.1603640,N,01618.1001391,E,2,37,0.4,708.0274,M,43.2066,M,3.2,0136*48
$GNGNS,013102.00,4742.1603640,N,01618.1001391,E,DAAA,37,0.4,708.0274,43.2066,,*51
$GPGNS,013102.00,,,,,,10,,,,3.2,136*78
$GLGNS,013102.00,,,,,,07,,,,,*79
$GAGNS,013102.00,,,,,,08,,,,,*7B
$GBGNS,013102.00,,,,,,12,,,,,*73
$GPLLQ,013102.00,010125,,M,,M,1,37,0.900,,M*1D
$GPVTG,,T,,M,0.00,N,0.01,K,D*27
$GPHDT,,T*1B
$GPTHS,,V*0E
$GPROT,,V*08
$PSSN,HRP,013102.00,010125,,,,,,,00,0,,*60
$PTNL,AVR,013102.00,,Yaw,,Tilt,,,,0,,00*36
$GPGSA,A,3,02,03,04,06,09,17,19,21,28,31,,,0.8,0.4,0.6*37
$GPGSA,A,3,69,70,71,78,84,85,86,,,,,,0.8,0.4,0.6*36
$GPGSA,A,3,04,05,06,09,10,11,34,36,,,,,0.8,0.4,0.6*35
$GPGSA,A,3,05,06,09,16,19,20,29,30,32,35,39,60,0.8,0.4,0.6*3C
$GPGST,013102.00,0.954,0.350,0.284,11.014,0.348,0.287,0.779*68
$GPGBS,013102.00,1.693,1.846,6.311,04,0.0001,0.602,0.662*5E
$GPGRS,013102.00,1,-0.3,-0.1,0.6,-0.2,0.5,-0.1,-0.1,-0.5,-0.2,0.1,,*67
$GPGRS,013102.00,1,-0.5,-0.2,0.8,-2.9,-0.1,1.5,-2.6,,,,,*49
$GPGRS,013102.00,1,-0.2,0.8,-0.2,0.2,0.4,-0.1,0.5,0.1,,,,*69
$GPGRS,013102.00,1,0.6,1.2,0.2,0.8,-0.1,-1.1,0.7,-0.6,0.9,-0.6,-0.8,-0.6*41
$GPGSV,6,1,21,03,78,355,50,31,32,090,46,06,10,313,38,09,23,218,42*77
$GPGSV,6,2,21,28,27,058,43,21,32,149,40,19,28,304,43,17,38,270,45*7A
$GPGSV,6,3,21,04,51,205,46,02,51,156,48,01,56,144,,32,01,046,31*71
$GPGSV,6,4,21,36,35,170,44,58,13,245,37,40,24,132,36,34,31,208,42*7B
$GPGSV,6,5,21,49,34,195,44,57,09,110,38,41,07,108,34,61,03,257,37*72
$GPGSV,6,6,21*7A
$GLGSV,3,1,10,85,70,292,53,78,13,041,45,86,18,327,45,69,51,037,50*60
$GLGSV,3,2,10,84,45,167,39,70,54,253,40,79,05,088,42,77,02,348,35*62
$GLGSV,3,3,10,68,04,050,43,71,09,237,45*64
$GAGSV,3,1,11,06,74,111,48,05,15,214,39,34,19,311,40,10,25,136,41*61
$GAGSV,3,2,11,04,54,062,46,11,54,140,44,09,65,188,48,36,71,299,48*64
$GAGSV,3,3,11,27,01,353,34,12,03,134,,19,01,042,24*51
$GBGSV,5,1,17,20,80,034,52,05,24,128,38,32,23,062,44,35,40,300,47*66
$GBGSV,5,2,17,39,27,046,42,16,32,057,42,09,36,077,42,29,50,208,49*60
$GBGSV,5,3,17,06,33,061,41,19,46,251,48,22,44,237,,48,74,261,*63
$GBGSV,5,4,17,37,09,104,,30,08,166,36,44,03,327,,02,08,105,34*67
$GBGSV,5,5,17,60,09,110,39*58
$GPGGA,013102.00,,,,,0,00,,,M,,M,,*49
$PTNL,GGK,013102.00,010125,4742.1603640,N,01618.1001391,E,1,37,0.8,EHT751.2339,M*49
$GPGGQ,013102.00,010125,4742.1603640,N,01618.1001391,E,1,37,0.900,708.0274,M*30
$GPGFA,013102.00,3.332,6.385,0.350,0.284,11.014,0.779,,VVV*3F
$GPLLK,013102.00,010125,,M,,M,1,37,0.9,,M*07
$GNGMP,013102.00,,,,,DAAA,37,0.4,,,,*57
$GPGMP,013102.00,,,,,,10,,,,3.2,136*78
$GLGMP,013102.00,,,,,,07,,,,,*79
$GAGMP,013102.00,,,,,,08,,,,,*7B
$GBGMP,013102.00,,,,,,12,,,,,*73
$PSSN,SNC,[0,264680000,2347]*4A
$GPZDA,013107.00,01,01,2025,,*67
$GPDTM,W84,,00.0000000,N,00.0000000,E,00.0000000,W84*5F
$PSSN,TFM,013107.00,,,,*6B
$GPRMC,013107.00,A,4742.1603662,N,01618.1001414,E,0.0,,010125,5.1,E,D*15
$GPGLL,4742.1603662,N,01618.1001414,E,013107.00,A,D*64
$GPGGA,013107.00,4742.1603662,N,01618.1001414,E,2,37,0.4,708.0291,M,43.2066,M,2.2,0136*4D
$GNGNS,013107.00,4742.1603662,N,01618.1001414,E,DAAA,37,0.4,708.0291,43.2066,,*55
$GPGNS,013107.00,,,,,,10,,,,2.2,136*7C
$GLGNS,013107.00,,,,,,07,,,,,*7C
$GAGNS,013107.00,,,,,,08,,,,,*7E
$GBGNS,013107.00,,,,,,12,,,,,*76
$GPLLQ,013107.00,010125,,M,,M,1,37,0.896,,M*16
$GPVTG,,T,,M,0.00,N,0.01,K,D*27
$GPHDT,,T*1B
$GPTHS,,V*0E
$GPROT,,V*08
$PSSN,HRP,013107.00,010125,,,,,,,00,0,,*65
$PTNL,AVR,013107.00,,Yaw,,Tilt,,,,0,,00*33
$GPGSA,A,3,02,03,04,06,09,17,19,21,28,31,,,0.8,0.4,0.6*37
$GPGSA,A,3,69,70,71,78,84,85,86,,,,,,0.8,0.4,0.6*36
$GPGSA,A,3,04,05,06,09,10,11,34,36,,,,,0.8,0.4,0.6*35
$GPGSA,A,3,05,06,09,16,19,20,29,30,32,35,39,60,0.8,0.4,0.6*3C
$GPGST,013107.00,0.819,0.350,0.288,11.118,0.348,0.291,0.773*69
$GPGBS,013107.00,1.592,1.851,5.955,04,0.0001,0.454,0.610*52
$GPGRS,013107.00,1,0.1,0.1,0.5,0.3,0.3,-0.3,0.0,-0.5,-0.2,-0.0,,*4B
$GPGRS,013107.00,1,-0.3,-0.4,1.1,-2.3,0.3,0.9,-2.0,,,,,*6A
$GPGRS,013107.00,1,-0.1,0.4,-0.2,0.1,0.2,-0.3,0.5,-0.1,,,,*49
$GPGRS,013107.00,1,0.1,1.2,1.1,0.3,-0.0,-1.1,0.5,-0.5,0.9,-0.5,-0.5,-1.1*42
$GPGSV,6,1,21,03,78,355,50,31,32,090,45,06,10,313,38,09,23,218,41*77
$GPGSV,6,2,21,28,27,058,43,21,31,149,41,19,28,304,43,17,38,270,45*78
$GPGSV,6,3,21,04,51,205,46,02,51,156,48,01,56,144,,32,01,046,31*71
$GPGSV,6,4,21,36,35,170,44,58,13,245,37,40,24,132,36,34,31,208,42*7B
$GPGSV,6,5,21,49,34,195,44,57,09,110,38,41,07,108,34,61,03,257,37*72
$GPGSV,6,6,21*7A
$GLGSV,3,1,10,85,70,292,53,78,13,041,45,86,18,327,44,69,51,037,51*60
$GLGSV,3,2,10,84,45,167,39,70,54,253,40,79,05,088,42,77,02,348,35*62
$GLGSV,3,3,10,68,04,050,42,71,09,237,45*65
$GAGSV,3,1,11,06,74,111,48,05,15,214,39,34,19,311,40,10,25,136,41*61
$GAGSV,3,2,11,04,54,062,46,11,53,140,44,09,65,188,48,36,71,298,48*62
$GAGSV,3,3,11,27,01,353,34,12,03,134,,19,01,042,24*51
$GBGSV,5,1,17,20,80,034,52,05,24,128,38,32,23,062,44,35,40,300,47*66
$GBGSV,5,2,17,39,27,046,43,16,32,057,42,09,36,077,42,29,50,208,49*61
$GBGSV,5,3,17,06,33,061,41,19,46,251,48,22,44,237,,48,75,261,*62
$GBGSV,5,4,17,37,09,103,,30,08,166,36,44,03,327,,02,08,105,34*60
$GBGSV,5,5,17,60,09,110,39*58
$GPGGA,013107.00,,,,,0,00,,,M,,M,,*4C
$PTNL,GGK,013107.00,010125,4742.1603662,N,01618.1001414,E,1,37,0.8,EHT751.2357,M*4E
$GPGGQ,013107.00,010125,4742.1603662,N,01618.1001414,E,1,37,0.896,708.0291,M*3A
$GPGFA,013107.00,3.330,6.337,0.350,0.288,11.118,0.773,,VVV*3A
$GPLLK,013107.00,010125,,M,,M,1,37,0.9,,M*02
$GNGMP,013107.00,,,,,DAAA,37,0.4,,,,*52
$GPGMP,013107.00,,,,,,10,,,,2.2,136*7C
$GLGMP,013107.00,,,,,,07,,,,,*7C
$GAGMP,013107.00,,,,,,08,,,,,*7E
$GBGMP,013107.00,,,,,,12,,,,,*76
$PSSN,SNC,[0,264685000,2347]*4F
$GPZDA,013112.00,01,01,2025,,*63
$GPDTM,W84,,00.0000000,N,00.0000000,E,00.0000000,W84*5F
$PSSN,TFM,013112.00,,,,*6F
$GPRMC,013112.00,A,4742.1603662,N,01618.1001439,E,0.0,,010125,5.1,E,D*1E
$GPGLL,4742.1603662,N,01618.1001439,E,013112.00,A,D*6F
$GPGGA,013112.00,4742.1603662,N,01618.1001439,E,2,37,0.4,708.0259,M,43.2066,M,2.4,0136*44
$GNGNS,013112.00,4742.1603662,N,01618.1001439,E,DAAA,37,0.4,708.0259,43.2066,,*5A
$GPGNS,013112.00,,,,,,10,,,,2.4,136*7E
$GLGNS,013112.00,,,,,,07,,,,,*78
$GAGNS,013112.00,,,,,,08,,,,,*7A
$GBGNS,013112.00,,,,,,12,,,,,*72
$GPLLQ,013112.00,010125,,M,,M,1,37,0.871,,M*1B
$GPVTG,,T,,M,0.00,N,0.00,K,D*26
$GPHDT,,T*1B
$GPTHS,,V*0E
$GPROT,,V*08
$PSSN,HRP,013112.00,010125,,,,,,,00,0,,*61
$PTNL,AVR,013112.00,,Yaw,,Tilt,,,,0,,00*37
$GPGSA,A,3,02,03,04,06,09,17,19,21,28,31,,,0.8,0.4,0.6*37
$GPGSA,A,3,69,70,71,78,84,85,86,,,,,,0.8,0.4,0.6*36
$GPGSA,A,3,04,05,06,09,10,11,34,36,,,,,0.8,0.4,0.6*35
$GPGSA,A,3,05,06,09,16,19,20,29,30,32,35,39,60,0.8,0.4,0.6*3C
$GPGST,013112.00,0.829,0.340,0.285,5.510,0.339,0.286,0.749*52
$GPGBS,013112.00,1.598,1.758,6.108,31,0.0001,-0.468,0.735*7B
$GPGRS,013112.00,1,0.1,-0.1,0.3,-0.2,0.0,0.1,0.5,-0.0,0.0,-0.5,,*4E
$GPGRS,013112.00,1,-0.0,-0.4,0.6,-2.3,-0.3,0.8,-2.3,,,,,*44
$GPGRS,013112.00,1,-0.2,-0.1,-0.3,0.1,0.2,-0.4,0.5,0.0,,,,*4C
$GPGRS,013112.00,1,0.1,0.7,1.0,0.6,0.1,-1.1,0.4,-0.6,0.8,-0.7,-0.8,-1.4*63
$GPGSV,6,1,21,03,78,355,50,31,32,090,45,06,10,313,38,09,24,218,41*70
$GPGSV,6,2,21,28,27,058,43,21,31,149,42,19,28,304,43,17,38,270,45*7B
$GPGSV,6,3,21,04,51,205,47,02,51,156,48,01,56,144,,32,01,046,32*73
$GPGSV,6,4,21,36,35,170,44,58,13,245,37,40,24,132,36,34,31,208,42*7B
$GPGSV,6,5,21,49,34,195,44,57,09,110,38,41,07,108,34,61,03,257,37*72
$GPGSV,6,6,21*7A
$GLGSV,3,1,10,85,70,292,52,78,13,041,45,86,18,327,45,69,51,037,50*61
$GLGSV,3,2,10,84,45,167,39,70,54,253,40,79,05,088,42,77,02,347,36*6E
$GLGSV,3,3,10,68,04,050,42,71,09,237,44*64
$GAGSV,3,1,11,06,74,111,48,05,15,215,38,34,19,311,40,10,25,136,42*62
$GAGSV,3,2,11,04,54,062,46,11,53,140,44,09,65,188,48,36,71,298,48*62
$GAGSV,3,3,11,27,01,353,34,12,03,134,,19,01,042,24*51
$GBGSV,5,1,17,20,80,035,52,05,24,128,38,32,23,062,44,35,40,300,47*67
$GBGSV,5,2,17,39,27,046,43,16,32,057,43,09,36,077,42,29,50,208,50*68
$GBGSV,5,3,17,06,33,061,41,19,46,251,48,22,44,237,,48,75,261,*62
$GBGSV,5,4,17,37,09,103,,30,08,166,36,44,03,327,,02,08,105,34*60
$GBGSV,5,5,17,60,09,110,40*56
$GPGGA,013112.00,,,,,0,00,,,M,,M,,*48
$PTNL,GGK,013112.00,010125,4742.1603662,N,01618.1001439,E,1,37,0.8,EHT751.2325,M*40
$GPGGQ,013112.00,010125,4742.1603662,N,01618.1001439,E,1,37,0.871,708.0259,M*3C
$GPGFA,013112.00,3.231,6.145,0.340,0.285,5.510,0.749,,VVV*05
$GPLLK,013112.00,010125,,M,,M,1,37,0.9,,M*06
$GNGMP,013112.00,,,,,DAAA,37,0.4,,,,*56
$GPGMP,013112.00,,,,,,10,,,,2.4,136*7E
$GLGMP,013112.00,,,,,,07,,,,,*78
$GAGMP,013112.00,,,,,,08,,,,,*7A
$GBGMP,013112.00,,,,,,12,,,,,*72
$PSSN,SNC,[0,264690000,2347]*4B
$GPZDA,013117.00,01,01,2025,,*66
$GPDTM,W84,,00.0000000,N,00.0000000,E,00.0000000,W84*5F
$PSSN,TFM,013117.00,,,,*6A
$GPRMC,013117.00,A,4742.1603675,N,01618.1001489,E,0.0,,010125,5.1,E,D*16
$GPGLL,4742.1603675,N,01618.1001489,E,013117.00,A,D*67
$GPGGA,013117.00,4742.1603675,N,01618.1001489,E,2,37,0.4,708.0231,M,43.2066,M,2.2,0136*44
$GNGNS,013117.00,4742.1603675,N,01618.1001489,E,DAAA,37,0.4,708.0231,43.2066,,*5C
$GPGNS,013117.00,,,,,,10,,,,2.2,136*7D
$GLGNS,013117.00,,,,,,07,,,,,*7D
$GAGNS,013117.00,,,,,,08,,,,,*7F
$GBGNS,013117.00,,,,,,12,,,,,*77
$GPLLQ,013117.00,010125,,M,,M,1,37,0.881,,M*11
$GPVTG,,T,,M,0.00,N,0.01,K,D*27
$GPHDT,,T*1B
$GPTHS,,V*0E
$GPROT,,V*08
$PSSN,HRP,013117.00,010125,,,,,,,00,0,,*64
$PTNL,AVR,013117.00,,Yaw,,Tilt,,,,0,,00*32
$GPGSA,A,3,02,03,04,06,09,17,19,21,28,31,,,0.8,0.4,0.6*37
$GPGSA,A,3,69,70,71,78,84,85,86,,,,,,0.8,0.4,0.6*36
$GPGSA,A,3,04,05,06,09,10,11,34,36,,,,,0.8,0.4,0.6*35
$GPGSA,A,3,05,06,09,16,19,20,29,30,32,35,39,60,0.8,0.4,0.6*3C
$GPGST,013117.00,0.784,0.342,0.282,4.877,0.342,0.283,0.761*54
$GPGBS,013117.00,1.620,1.729,6.208,09,0.0001,0.341,0.834*5F
$GPGRS,013117.00,1,-0.2,-0.0,0.1,-0.5,0.3,0.2,-0.0,-0.1,-0.1,-0.2,,*63
$GPGRS,013117.00,1,-0.3,0.4,-0.2,-2.4,-0.5,1.3,-1.7,,,,,*4A
$GPGRS,013117.00,1,-0.0,-0.2,-0.1,0.3,0.7,-0.1,0.7,0.2,,,,*48
$GPGRS,013117.00,1,0.0,0.7,0.9,0.7,0.1,-1.1,0.5,-0.6,0.8,-0.7,-0.4,-1.2*65
$GPGSV,6,1,21,03,78,355,50,31,32,090,45,06,11,313,38,09,24,218,41*71
$GPGSV,6,2,21,28,27,058,43,21,31,149,42,19,29,304,43,17,38,269,45*72
$GPGSV,6,3,21,04,51,205,47,02,51,156,48,01,56,144,,32,01,046,31*70
$GPGSV,6,4,21,36,35,170,44,58,13,245,37,40,24,132,36,34,31,208,42*7B
$GPGSV,6,5,21,49,34,195,43,57,09,110,37,41,07,108,34,61,03,257,37*7A
$GPGSV,6,6,21*7A
$GLGSV,3,1,10,85,70,291,52,78,13,041,45,86,18,327,45,84,45,167,39*6F
$GLGSV,3,2,10,70,54,253,40,69,51,037,50,79,05,088,43,71,09,237,43*6B
$GLGSV,3,3,10,68,04,050,42,77,02,347,36*6A
$GAGSV,3,1,11,06,74,111,48,05,15,215,38,34,19,311,40,10,25,136,42*62
$GAGSV,3,2,11,04,54,061,46,11,53,140,44,09,65,188,48,36,71,298,48*61
$GAGSV,3,3,11,27,01,353,34,12,03,134,,19,01,042,23*56
$GBGSV,5,1,17,20,80,035,52,05,24,128,38,32,23,062,44,35,40,300,47*67
$GBGSV,5,2,17,39,27,046,43,16,32,057,42,09,36,077,42,29,50,208,50*69
$GBGSV,5,3,17,06,33,061,41,19,46,251,48,22,44,237,,48,75,261,*62
$GBGSV,5,4,17,37,09,103,,30,08,166,36,44,03,327,,02,08,105,34*60
$GBGSV,5,5,17,60,09,110,39*58
$GPGGA,013117.00,,,,,0,00,,,M,,M,,*4D
$PTNL,GGK,013117.00,010125,4742.1603675,N,01618.1001489,E,1,37,0.8,EHT751.2296,M*41
$GPGGQ,013117.00,010125,4742.1603675,N,01618.1001489,E,1,37,0.881,708.0231,M*35
$GPGFA,013117.00,3.253,6.238,0.342,0.282,4.877,0.761,,VVV*0F
$GPLLK,013117.00,010125,,M,,M,1,37,0.9,,M*03
$GNGMP,013117.00,,,,,DAAA,37,0.4,,,,*53
$GPGMP,013117.00,,,,,,10,,,,2.2,136*7D
$GLGMP,013117.00,,,,,,07,,,,,*7D
$GAGMP,013117.00,,,,,,08,,,,,*7F
$GBGMP,013117.00,,,,,,12,,,,,*77
$PSSN,SNC,[0,264695000,2347]*4E
$GPZDA,013122.00,01,01,2025,,*60
$GPDTM,W84,,00.0000000,N,00.0000000,E,00.0000000,W84*5F
$PSSN,TFM,013122.00,,,,*6C
$GPRMC,013122.00,A,4742.1603693,N,01618.1001524,E,0.0,,010125,5.1,E,D*1E
$GPGLL,4742.1603693,N,01618.1001524,E,013122.00,A,D*6F
$GPGGA,013122.00,4742.1603693,N,01618.1001524,E,2,37,0.4,708.0226,M,43.2066,M,3.2,0136*4B
$GNGNS,013122.00,4742.1603693,N,01618.1001524,E,DAAA,37,0.4,708.0226,43.2066,,*52
$GPGNS,013122.00,,,,,,10,,,,3.2,136*7A
$GLGNS,013122.00,,,,,,07,,,,,*7B
$GAGNS,013122.00,,,,,,08,,,,,*79
$GBGNS,013122.00,,,,,,12,,,,,*71
$GPLLQ,013122.00,010125,,M,,M,1,37,0.895,,M*12
$GPVTG,,T,,M,0.00,N,0.01,K,D*27
$GPHDT,,T*1B
$GPTHS,,V*0E
$GPROT,,V*08
$PSSN,HRP,013122.00,010125,,,,,,,00,0,,*62
$PTNL,AVR,013122.00,,Yaw,,Tilt,,,,0,,00*34
$GPGSA,A,3,02,03,04,06,09,17,19,21,28,31,,,0.8,0.4,0.6*37
$GPGSA,A,3,69,70,71,78,84,85,86,,,,,,0.8,0.4,0.6*36
$GPGSA,A,3,04,05,06,09,10,11,34,36,,,,,0.8,0.4,0.6*35
$GPGSA,A,3,05,06,09,16,19,20,29,30,32,35,39,60,0.8,0.4,0.6*3C
$GPGST,013122.00,0.864,0.346,0.281,7.782,0.345,0.283,0.776*53
$GPGBS,013122.00,1.666,1.758,6.344,21,0.0001,-0.561,0.816*77
$GPGRS,013122.00,1,-0.1,-0.1,0.2,-0.5,0.5,-0.1,0.2,-0.6,-0.1,-0.1,,*67
$GPGRS,013122.00,1,-0.2,0.5,-0.3,-3.4,0.6,1.2,-0.9,,,,,*6C
$GPGRS,013122.00,1,-0.1,0.2,-0.2,0.4,0.4,-0.1,0.3,0.0,,,,*63
$GPGRS,013122.00,1,0.2,0.7,1.2,0.7,0.3,-1.0,0.4,-0.6,0.7,-0.7,-0.3,-1.0*63
$GPGSV,6,1,21,03,78,356,50,31,32,090,45,06,11,313,37,09,24,218,41*7D
