$GPZDA,182942.00,01,01,2025,,*67
$GPDTM,W84,,00.0000000,N,00.0000000,E,00.0000000,W84*5F
$PSSN,TFM,182942.00,,,,*6B
$GPRMC,182942.00,A,4742.1603904,N,01618.0999976,E,0.0,,010125,5.1,E,D*1A
$GPGLL,4742.1603904,N,01618.0999976,E,182942.00,A,D*6B
$GPGGA,182942.00,4742.1603904,N,01618.0999976,E,2,39,0.4,708.4000,M,43.2066,M,2.9,0136*49
$GNGNS,182942.00,4742.1603904,N,01618.0999976,E,DAAA,39,0.4,708.4000,43.2066,,*5A
$GPGNS,182942.00,,,,,,10,,,,2.9,136*77
$GLGNS,182942.00,,,,,,10,,,,,*7A
$GAGNS,182942.00,,,,,,05,,,,,*73
$GBGNS,182942.00,,,,,,14,,,,,*70
$GPLLQ,182942.00,010125,,M,,M,1,39,0.893,,M*1D
$GPVTG,,T,,M,0.00,N,0.01,K,D*27
$GPHDT,,T*1B
$GPTHS,,V*0E
$GPROT,,V*08
$PSSN,HRP,182942.00,010125,,,,,,,00,0,,*65
$PTNL,AVR,182942.00,,Yaw,,Tilt,,,,0,,00*33
$GPGSA,A,3,05,10,15,16,18,23,26,27,29,31,,,0.8,0.4,0.6*3F
$GPGSA,A,3,65,66,67,73,74,79,80,81,82,83,,,0.8,0.4,0.6*33
$GPGSA,A,3,13,15,21,26,27,,,,,,,,0.8,0.4,0.6*3C
$GPGSA,A,3,05,08,11,13,14,21,23,28,34,37,38,42,0.8,0.4,0.6*34
$GPGSA,A,3,43,60,,,,,,,,,,,0.8,0.4,0.6*39
$GPGST,182942.00,1.947,0.410,0.346,3.538,0.410,0.346,0.714*57
$GPGBS,182942.00,2.613,2.237,3.751,10,0.0001,-1.307,1.255*72
$GPGRS,182942.00,1,0.5,-1.3,-2.6,0.3,-0.1,0.5,-0.1,-0.5,0.3,0.1,,*65
$GPGRS,182942.00,1,0.5,-3.4,6.3,3.9,-5.3,-1.0,-0.9,1.4,-0.4,-2.1,,*4B
$GPGRS,182942.00,1,0.1,0.0,0.2,-0.0,0.2,,,,,,,*48
$GPGRS,182942.00,1,1.0,0.3,0.5,-0.0,1.5,-1.0,-0.0,-0.1,-0.2,-0.3,0.1,-0.4*60
$GPGRS,182942.00,1,-0.1,-1.8,,,,,,,,,,*42
$GPGSV,6,1,21,18,68,059,48,10,14,174,41,29,23,093,43,05,12,034,39*75
$GPGSV,6,2,21,27,32,288,44,31,12,221,41,23,41,140,46,16,60,288,48*71
$GPGSV,6,3,21,26,62,215,49,15,06,084,38,08,00,285,,07,02,339,38*71
$GPGSV,6,4,21,36,35,170,45,58,13,245,37,40,24,133,36,34,31,208,42*7B
$GPGSV,6,5,21,49,34,195,44,57,09,110,37,41,07,108,34,61,03,257,38*72
$GPGSV,6,6,21*7A
$GLGSV,3,1,10,82,69,004,51,66,22,066,45,79,11,176,44,83,49,267,41*6C
$GLGSV,3,2,10,65,12,017,38,73,43,310,49,81,27,054,47,80,54,215,52*62
$GLGSV,3,3,10,74,06,337,37,67,08,116,42*6B
$GAGSV,2,1,07,13,76,218,49,23,24,313,,26,22,228,41,27,42,159,46*6A
$GAGSV,2,2,07,15,47,053,46,21,70,266,48,05,02,034,35*50
$GBGSV,6,1,24,43,72,055,51,58,11,325,,60,11,109,40,38,25,038,42*6E
$GBGSV,6,2,24,14,12,134,38,21,21,057,43,05,22,129,38,34,24,075,44*60
$GBGSV,6,3,24,23,38,214,47,42,21,109,43,50,24,082,,08,38,044,42*60
$GBGSV,6,4,24,31,35,052,,37,41,284,47,28,39,264,47,13,44,054,45*61
$GBGSV,6,5,24,27,43,254,,11,48,065,47,22,00,013,23,02,07,106,34*65
$GBGSV,6,6,24,46,06,329,,25,03,176,,33,00,155,,07,07,109,*6C
$GPGGA,182942.00,,,,,0,00,,,M,,M,,*4C
$PTNL,GGK,182942.00,010125,4742.1603904,N,01618.0999976,E,1,39,0.8,EHT751.6066,M*4A
$GPGGQ,182942.00,010125,4742.1603904,N,01618.0999976,E,1,39,0.893,708.4000,M*30
$GPGFA,182942.00,3.900,5.858,0.410,0.346,3.538,0.714,,VVV*06
$GPLLK,182942.00,010125,,M,,M,1,39,0.9,,M*0C
$GNGMP,182942.00,,,,,DAAA,39,0.4,,,,*5C
$GPGMP,182942.00,,,,,,10,,,,2.9,136*77
$GLGMP,182942.00,,,,,,10,,,,,*7A
$GAGMP,182942.00,,,,,,05,,,,,*73
$GBGMP,182942.00,,,,,,14,,,,,*70
$PSSN,SNC,[0,325800000,2347]*48
$GPZDA,182947.00,01,01,2025,,*62
$GPDTM,W84,,00.0000000,N,00.0000000,E,00.0000000,W84*5F
$PSSN,TFM,182947.00,,,,*6E
$GPRMC,182947.00,A,4742.1603899,N,01618.0999923,E,0.0,,010125,5.1,E,D*1A
$GPGLL,4742.1603899,N,01618.0999923,E,182947.00,A,D*6B
$GPGGA,182947.00,4742.1603899,N,01618.0999923,E,2,39,0.4,708.3979,M,43.2066,M,1.7,0136*44
$GNGNS,182947.00,4742.1603899,N,01618.0999923,E,DAAA,39,0.4,708.3979,43.2066,,*5A
$GPGNS,182947.00,,,,,,10,,,,1.7,136*7F
$GLGNS,182947.00,,,,,,10,,,,,*7F
$GAGNS,182947.00,,,,,,05,,,,,*76
$GBGNS,182947.00,,,,,,14,,,,,*75
$GPLLQ,182947.00,010125,,M,,M,1,39,0.888,,M*12
$GPVTG,,T,,M,0.00,N,0.01,K,D*27
$GPHDT,,T*1B
$GPTHS,,V*0E
$GPROT,,V*08
$PSSN,HRP,182947.00,010125,,,,,,,00,0,,*60
$PTNL,AVR,182947.00,,Yaw,,Tilt,,,,0,,00*36
$GPGSA,A,3,05,10,15,16,18,23,26,27,29,31,,,0.8,0.4,0.6*3F
$GPGSA,A,3,65,66,67,73,74,79,80,81,82,83,,,0.8,0.4,0.6*33
$GPGSA,A,3,13,15,21,26,27,,,,,,,,0.8,0.4,0.6*3C
$GPGSA,A,3,05,08,11,13,14,21,23,28,34,37,38,42,0.8,0.4,0.6*34
$GPGSA,A,3,43,60,,,,,,,,,,,0.8,0.4,0.6*39
$GPGST,182947.00,1.910,0.409,0.342,4.119,0.409,0.342,0.710*54
$GPGBS,182947.00,2.497,2.139,3.671,10,0.0001,-1.372,1.261*72
$GPGRS,182947.00,1,0.4,-1.4,-2.9,0.1,-0.3,0.4,0.0,-0.0,0.2,-0.2,,*6E
$GPGRS,182947.00,1,1.0,-3.3,5.9,3.8,-4.9,-0.9,-0.4,1.3,-0.4,-2.1,,*4C
$GPGRS,182947.00,1,0.1,0.0,0.2,0.1,0.0,,,,,,,*63
$GPGRS,182947.00,1,1.1,0.3,1.3,-0.1,2.4,-1.1,0.0,0.3,-0.4,-0.2,-0.1,-0.3*4E
$GPGRS,182947.00,1,-0.2,-1.8,,,,,,,,,,*44
$GPGSV,6,1,21,18,68,059,48,10,14,174,41,29,23,093,43,05,12,034,39*75
$GPGSV,6,2,21,27,32,288,44,31,12,221,41,23,41,140,47,16,60,288,48*70
$GPGSV,6,3,21,26,62,214,50,15,06,084,38,08,00,285,,07,02,339,37*77
$GPGSV,6,4,21,36,35,170,45,58,13,245,37,40,24,133,36,34,31,208,42*7B
$GPGSV,6,5,21,49,34,195,44,57,09,110,37,41,07,108,34,61,03,257,38*72
$GPGSV,6,6,21*7A
$GLGSV,3,1,10,82,69,004,52,66,22,066,46,79,11,176,44,83,49,267,41*6C
$GLGSV,3,2,10,65,12,017,39,73,43,310,50,81,27,054,47,80,54,215,52*6B
$GLGSV,3,3,10,74,07,337,37,67,08,116,42*6A
$GAGSV,2,1,07,13,76,218,49,23,24,313,,26,22,228,42,27,42,159,46*69
$GAGSV,2,2,07,15,47,053,46,21,70,265,48,05,02,034,35*53
$GBGSV,6,1,23,43,72,055,51,58,11,325,,60,11,109,40,38,25,038,42*69
$GBGSV,6,2,23,14,12,134,38,21,21,057,43,05,22,129,38,34,24,075,43*60
$GBGSV,6,3,23,23,37,214,47,42,21,109,42,50,24,082,,08,38,044,42*69
$GBGSV,6,4,23,31,35,052,,37,41,284,47,28,39,264,47,13,44,054,44*67
$GBGSV,6,5,23,27,43,254,,11,48,065,47,02,07,106,34,46,06,329,*6D
$GBGSV,6,6,23,33,00,155,,25,03,176,,07,07,109,*57
$GPGGA,182947.00,,,,,0,00,,,M,,M,,*49
$PTNL,GGK,182947.00,010125,4742.1603899,N,01618.0999923,E,1,39,0.8,EHT751.6044,M*4A
$GPGGQ,182947.00,010125,4742.1603899,N,01618.0999923,E,1,39,0.888,708.3979,M*3A
$GPGFA,182947.00,3.888,5.825,0.409,0.342,4.119,0.710,,VVV*00
$GPLLK,182947.00,010125,,M,,M,1,39,0.9,,M*09
$GNGMP,182947.00,,,,,DAAA,39,0.4,,,,*59
$GPGMP,182947.00,,,,,,10,,,,1.7,136*7F
$GLGMP,182947.00,,,,,,10,,,,,*7F
$GAGMP,182947.00,,,,,,05,,,,,*76
$GBGMP,182947.00,,,,,,14,,,,,*75
$PSSN,SNC,[0,325805000,2347]*4D
$GPZDA,182952.00,01,01,2025,,*66
$GPDTM,W84,,00.0000000,N,00.0000000,E,00.0000000,W84*5F
$PSSN,TFM,182952.00,,,,*6A
$GPRMC,182952.00,A,4742.1603883,N,01618.0999916,E,0.0,,010125,5.1,E,D*13
$GPGLL,4742.1603883,N,01618.0999916,E,182952.00,A,D*62
$GPGGA,182952.00,4742.1603883,N,01618.0999916,E,2,39,0.4,708.3980,M,43.2066,M,2.7,0136*48
$GNGNS,182952.00,4742.1603883,N,01618.0999916,E,DAAA,39,0.4,708.3980,43.2066,,*55
$GPGNS,182952.00,,,,,,10,,,,2.7,136*78
$GLGNS,182952.00,,,,,,10,,,,,*7B
$GAGNS,182952.00,,,,,,05,,,,,*72
$GBGNS,182952.00,,,,,,14,,,,,*71
$GPLLQ,182952.00,010125,,M,,M,1,39,0.877,,M*16
$GPVTG,,T,,M,0.00,N,0.01,K,D*27
$GPHDT,,T*1B
$GPTHS,,V*0E
$GPROT,,V*08
$PSSN,HRP,182952.00,010125,,,,,,,00,0,,*64
$PTNL,AVR,182952.00,,Yaw,,Tilt,,,,0,,00*32
$GPGSA,A,3,05,10,15,16,18,23,26,27,29,31,,,0.8,0.4,0.6*3F
$GPGSA,A,3,65,66,67,73,74,79,80,81,82,83,,,0.8,0.4,0.6*33
$GPGSA,A,3,13,15,21,26,27,,,,,,,,0.8,0.4,0.6*3C
$GPGSA,A,3,05,08,11,13,14,21,23,28,34,37,38,42,0.8,0.4,0.6*34
$GPGSA,A,3,43,60,,,,,,,,,,,0.8,0.4,0.6*39
$GPGST,182952.00,1.945,0.405,0.336,5.926,0.404,0.337,0.702*56
$GPGBS,182952.00,2.533,2.174,3.716,10,0.0001,-1.305,1.270*70
$GPGRS,182952.00,1,0.6,-1.3,-2.8,0.2,-0.4,0.5,-0.1,0.2,-0.3,-0.3,,*45
$GPGRS,182952.00,1,0.9,-2.8,5.6,4.0,-5.9,-0.8,-0.7,1.7,-0.6,-1.7,,*4A
$GPGRS,182952.00,1,-0.1,0.0,0.2,-0.1,-0.3,,,,,,,*49
$GPGRS,182952.00,1,1.4,0.2,1.0,-0.2,1.9,-1.2,-0.1,0.0,-0.6,-0.2,0.2,-0.6*45
$GPGRS,182952.00,1,-0.4,-1.7,,,,,,,,,,*49
$GPGSV,6,1,21,18,68,059,48,10,14,174,41,29,23,093,43,05,12,034,40*7B
$GPGSV,6,2,21,27,32,288,44,31,12,221,41,23,41,140,47,16,60,288,49*71
$GPGSV,6,3,21,26,62,214,50,15,06,084,38,08,00,285,,07,02,339,38*78
$GPGSV,6,4,21,36,35,170,44,58,13,245,37,40,24,133,36,34,31,208,42*7A
$GPGSV,6,5,21,49,34,195,44,57,09,110,37,41,07,108,34,61,03,257,38*72
$GPGSV,6,6,21*7A
$GLGSV,3,1,10,82,69,004,51,66,22,066,47,79,11,176,44,83,49,268,41*61
$GLGSV,3,2,10,65,12,017,38,73,43,310,50,81,27,054,47,80,54,215,52*6A
$GLGSV,3,3,10,74,07,337,36,67,08,116,42*6B
$GAGSV,2,1,07,13,76,218,49,23,25,313,,26,22,228,42,27,42,159,46*68
$GAGSV,2,2,07,15,47,053,45,21,70,265,48,05,02,034,35*50
$GBGSV,6,1,23,43,72,055,50,58,11,325,,60,11,109,40,38,25,038,41*6B
$GBGSV,6,2,23,14,12,134,38,21,21,057,43,05,22,129,38,34,24,075,43*60
$GBGSV,6,3,23,23,37,214,48,42,21,109,42,50,24,082,,08,38,044,42*66
$GBGSV,6,4,23,31,35,052,,37,41,284,47,28,39,264,46,13,43,054,44*61
$GBGSV,6,5,23,27,43,254,,11,48,065,47,02,07,106,34,46,06,329,*6D
$GBGSV,6,6,23,33,00,155,,25,03,176,,07,07,109,*57
$GPGGA,182952.00,,,,,0,00,,,M,,M,,*4D
$PTNL,GGK,182952.00,010125,4742.1603883,N,01618.0999916,E,1,39,0.8,EHT751.6045,M*42
$GPGGQ,182952.00,010125,4742.1603883,N,01618.0999916,E,1,39,0.877,708.3980,M*35
$GPGFA,182952.00,3.849,5.756,0.405,0.336,5.926,0.702,,VVV*0B
$GPLLK,182952.00,010125,,M,,M,1,39,0.9,,M*0D
$GNGMP,182952.00,,,,,DAAA,39,0.4,,,,*5D
$GPGMP,182952.00,,,,,,10,,,,2.7,136*78
$GLGMP,182952.00,,,,,,10,,,,,*7B
$GAGMP,182952.00,,,,,,05,,,,,*72
$GBGMP,182952.00,,,,,,14,,,,,*71
$PSSN,SNC,[0,325810000,2347]*49
$GPZDA,182957.00,01,01,2025,,*63
$GPDTM,W84,,00.0000000,N,00.0000000,E,00.0000000,W84*5F
$PSSN,TFM,182957.00,,,,*6F
$GPRMC,182957.00,A,4742.1603849,N,01618.0999945,E,0.0,,010125,5.1,E,D*16
$GPGLL,4742.1603849,N,01618.0999945,E,182957.00,A,D*67
$GPGGA,182957.00,4742.1603849,N,01618.0999945,E,2,39,0.4,708.3943,M,43.2066,M,2.8,0136*4D
$GNGNS,182957.00,4742.1603849,N,01618.0999945,E,DAAA,39,0.4,708.3943,43.2066,,*5F
$GPGNS,182957.00,,,,,,10,,,,2.8,136*72
$GLGNS,182957.00,,,,,,10,,,,,*7E
$GAGNS,182957.00,,,,,,05,,,,,*77
$GBGNS,182957.00,,,,,,14,,,,,*74
$GPLLQ,182957.00,010125,,M,,M,1,39,0.887,,M*1C
$GPVTG,,T,,M,0.00,N,0.00,K,D*26
$GPHDT,,T*1B
$GPTHS,,V*0E
$GPROT,,V*08
$PSSN,HRP,182957.00,010125,,,,,,,00,0,,*61
$PTNL,AVR,182957.00,,Yaw,,Tilt,,,,0,,00*37
$GPGSA,A,3,05,10,15,16,18,23,26,27,29,31,,,0.8,0.4,0.6*3F
$GPGSA,A,3,65,66,67,73,74,79,80,81,82,83,,,0.8,0.4,0.6*33
$GPGSA,A,3,13,15,21,26,27,,,,,,,,0.8,0.4,0.6*3C
$GPGSA,A,3,05,08,11,13,14,21,23,28,34,37,38,42,0.8,0.4,0.6*34
$GPGSA,A,3,43,60,,,,,,,,,,,0.8,0.4,0.6*39
$GPGST,182957.00,2.085,0.408,0.342,5.296,0.407,0.342,0.710*59
$GPGBS,182957.00,2.568,2.226,3.757,10,0.0001,-1.522,1.241*7B
$GPGRS,182957.00,1,0.3,-1.5,-2.5,0.3,-0.3,0.3,-0.1,0.3,-0.5,0.4,,*63
$GPGRS,182957.00,1,0.6,-2.8,6.3,4.2,-6.7,-0.9,-0.6,1.9,-0.9,-1.8,,*47
$GPGRS,182957.00,1,-0.1,-0.1,0.0,-0.4,0.1,,,,,,,*48
$GPGRS,182957.00,1,1.3,0.8,0.6,-0.0,1.1,-1.5,0.0,-0.1,-0.6,0.1,0.2,-0.2*6D
$GPGRS,182957.00,1,-0.2,-1.6,,,,,,,,,,*4B
$GPGSV,6,1,21,18,68,059,48,10,14,174,40,29,23,093,42,05,12,034,40*7B
$GPGSV,6,2,21,27,32,288,44,31,12,221,40,23,41,140,47,16,60,288,48*71
$GPGSV,6,3,21,26,62,214,49,15,06,084,38,08,00,285,,07,02,339,38*70
$GPGSV,6,4,21,36,35,170,44,58,13,245,37,40,24,133,36,34,31,208,42*7A
$GPGSV,6,5,21,49,34,195,44,57,09,110,37,41,07,108,34,61,03,257,38*72
$GPGSV,6,6,21*7A
$GLGSV,3,1,10,82,69,005,51,66,22,066,46,79,11,176,44,83,50,268,41*69
$GLGSV,3,2,10,65,12,017,38,73,43,310,50,81,27,054,48,80,54,215,53*64
$GLGSV,3,3,10,74,07,337,36,67,08,116,42*6B
$GAGSV,2,1,07,13,76,218,49,23,25,313,,26,22,228,42,27,42,159,46*68
$GAGSV,2,2,07,15,47,053,45,21,70,265,49,05,02,034,35*51
$GBGSV,6,1,23,43,72,055,51,58,11,325,,60,11,109,40,38,25,038,41*6A
$GBGSV,6,2,23,14,12,134,38,21,21,057,43,05,22,129,38,34,24,075,44*67
$GBGSV,6,3,23,23,37,214,48,42,21,109,42,50,24,082,,08,38,044,42*66
$GBGSV,6,4,23,31,35,052,,37,41,284,47,28,39,265,47,13,43,054,45*60
$GBGSV,6,5,23,27,44,254,,11,48,065,47,02,07,106,34,46,06,329,*6A
$GBGSV,6,6,23,33,00,155,,25,03,176,,07,07,109,*57
$GPGGA,182957.00,,,,,0,00,,,M,,M,,*48
$PTNL,GGK,182957.00,010125,4742.1603849,N,01618.0999945,E,1,39,0.8,EHT751.6008,M*4E
$GPGGQ,182957.00,010125,4742.1603849,N,01618.0999945,E,1,39,0.887,708.3943,M*30
$GPGFA,182957.00,3.878,5.819,0.408,0.342,5.296,0.710,,VVV*05
$GPLLK,182957.00,010125,,M,,M,1,39,0.9,,M*08
$GNGMP,182957.00,,,,,DAAA,39,0.4,,,,*58
$GPGMP,182957.00,,,,,,10,,,,2.8,136*72
$GLGMP,182957.00,,,,,,10,,,,,*7E
$GAGMP,182957.00,,,,,,05,,,,,*77
$GBGMP,182957.00,,,,,,14,,,,,*74
$PSSN,SNC,[0,325815000,2347]*4C
$GPZDA,183002.00,01,01,2025,,*6B
$GPDTM,W84,,00.0000000,N,00.0000000,E,00.0000000,W84*5F
$PSSN,TFM,183002.00,,,,*67
$GPRMC,183002.00,A,4742.1603836,N,01618.0999958,E,0.0,,010125,5.1,E,D*1A
$GPGLL,4742.1603836,N,01618.0999958,E,183002.00,A,D*6B
$GPGGA,183002.00,4742.1603836,N,01618.0999958,E,2,39,0.4,708.3952,M,43.2066,M,2.9,0136*40
$GNGNS,183002.00,4742.1603836,N,01618.0999958,E,DAAA,39,0.4,708.3952,43.2066,,*53
$GPGNS,183002.00,,,,,,10,,,,2.9,136*7B
$GLGNS,183002.00,,,,,,10,,,,,*76
$GAGNS,183002.00,,,,,,05,,,,,*7F
$GBGNS,183002.00,,,,,,14,,,,,*7C
$GPLLQ,183002.00,010125,,M,,M,1,39,0.893,,M*11
$GPVTG,,T,,M,0.00,N,0.00,K,D*26
$GPHDT,,T*1B
$GPTHS,,V*0E
$GPROT,,V*08
$PSSN,HRP,183002.00,010125,,,,,,,00,0,,*69
$PTNL,AVR,183002.00,,Yaw,,Tilt,,,,0,,00*3F
$GPGSA,A,3,05,10,15,16,18,23,26,27,29,31,,,0.8,0.4,0.6*3F
$GPGSA,A,3,65,66,67,73,74,79,80,81,82,83,,,0.8,0.4,0.6*33
$GPGSA,A,3,13,15,21,26,27,,,,,,,,0.8,0.4,0.6*3C
$GPGSA,A,3,05,08,11,13,14,21,23,28,34,37,38,42,0.8,0.4,0.6*34
$GPGSA,A,3,43,60,,,,,,,,,,,0.8,0.4,0.6*39
$GPGST,183002.00,1.994,0.409,0.346,3.661,0.409,0.347,0.715*5A
$GPGBS,183002.00,2.606,2.245,3.757,10,0.0001,-1.343,1.246*7B
$GPGRS,183002.00,1,0.3,-1.3,-2.9,0.1,0.1,0.4,-0.2,-0.1,-0.1,0.6,,*61
$GPGRS,183002.00,1,0.4,-3.2,6.3,4.3,-5.2,-1.0,-0.4,1.7,-0.5,-2.1,,*43
$GPGRS,183002.00,1,-0.1,-0.3,-0.1,-0.2,0.3,,,,,,,*6A
$GPGRS,183002.00,1,1.0,1.3,0.5,-0.2,1.1,-1.6,-0.2,-0.0,-0.5,0.0,0.1,-0.1*42
$GPGRS,183002.00,1,-0.1,-1.9,,,,,,,,,,*4F
$GPGSV,6,1,21,18,68,059,48,10,14,174,41,29,23,093,43,05,12,034,40*7B
$GPGSV,6,2,21,27,32,288,44,31,12,221,41,23,41,140,47,16,60,288,49*71
$GPGSV,6,3,21,26,62,214,50,15,06,084,38,08,00,285,,07,02,339,38*78
$GPGSV,6,4,21,36,35,170,45,58,13,245,37,40,24,133,36,34,31,208,42*7B
$GPGSV,6,5,21,49,34,195,44,57,09,110,37,41,07,108,34,61,03,257,38*72
$GPGSV,6,6,21*7A
$GLGSV,3,1,10,82,69,005,51,66,22,066,45,79,11,176,44,83,50,268,41*6A
$GLGSV,3,2,10,65,12,017,38,73,43,310,50,81,27,054,47,80,54,215,52*6A
$GLGSV,3,3,10,74,07,337,37,67,09,116,42*6B
$GAGSV,2,1,07,13,76,218,49,23,25,313,,26,22,228,41,27,41,159,46*68
$GAGSV,2,2,07,15,47,053,45,21,70,265,48,05,02,034,35*50
$GBGSV,6,1,23,43,72,055,51,58,11,325,,60,11,109,40,38,25,038,42*69
$GBGSV,6,2,23,14,12,134,38,21,21,057,42,05,22,129,38,34,24,075,44*66
$GBGSV,6,3,23,23,37,214,47,42,21,109,43,50,24,081,,08,38,044,42*6B
$GBGSV,6,4,23,31,35,052,,37,41,284,47,28,39,265,47,13,43,054,45*60
$GBGSV,6,5,23,27,44,254,,11,48,065,47,02,07,106,34,46,06,329,*6A
$GBGSV,6,6,23,33,00,155,,25,03,176,,07,07,109,*57
$GPGGA,183002.00,,,,,0,00,,,M,,M,,*40
$PTNL,GGK,183002.00,010125,4742.1603836,N,01618.0999958,E,1,39,0.8,EHT751.6018,M*43
$GPGGQ,183002.00,010125,4742.1603836,N,01618.0999958,E,1,39,0.893,708.3952,M*39
$GPGFA,183002.00,3.893,5.860,0.409,0.346,3.661,0.715,,VVV*0C
$GPLLK,183002.00,010125,,M,,M,1,39,0.9,,M*00
$GNGMP,183002.00,,,,,DAAA,39,0.4,,,,*50
$GPGMP,183002.00,,,,,,10,,,,2.9,136*7B
$GLGMP,183002.00,,,,,,10,,,,,*76
$GAGMP,183002.00,,,,,,05,,,,,*7F
$GBGMP,183002.00,,,,,,14,,,,,*7C
$PSSN,SNC,[0,325820000,2347]*4A
$GPZDA,183007.00,01,01,2025,,*6E
$GPDTM,W84,,00.0000000,N,00.0000000,E,00.0000000,W84*5F
$PSSN,TFM,183007.00,,,,*62
$GPRMC,183007.00,A,4742.1603830,N,01618.0999943,E,0.0,,010125,5.1,E,D*13
$GPGLL,4742.1603830,N,01618.0999943,E,183007.00,A,D*62
$GPGGA,183007.00,4742.1603830,N,01618.0999943,E,2,39,0.4,708.3903,M,43.2066,M,1.7,0136*40
$GNGNS,183007.00,4742.1603830,N,01618.0999943,E,DAAA,39,0.4,708.3903,43.2066,,*5E
$GPGNS,183007.00,,,,,,10,,,,1.7,136*73
$GLGNS,183007.00,,,,,,10,,,,,*73
$GAGNS,183007.00,,,,,,05,,,,,*7A
$GBGNS,183007.00,,,,,,14,,,,,*79
$GPLLQ,183007.00,010125,,M,,M,1,39,0.888,,M*1E
$GPVTG,,T,,M,0.00,N,0.01,K,D*27
$GPHDT,,T*1B
$GPTHS,,V*0E
$GPROT,,V*08
$PSSN,HRP,183007.00,010125,,,,,,,00,0,,*6C
$PTNL,AVR,183007.00,,Yaw,,Tilt,,,,0,,00*3A
$GPGSA,A,3,05,10,15,16,18,23,26,27,29,31,,,0.8,0.4,0.6*3F
$GPGSA,A,3,65,66,67,73,74,79,80,81,82,83,,,0.8,0.4,0.6*33
$GPGSA,A,3,13,15,21,26,27,,,,,,,,0.8,0.4,0.6*3C
$GPGSA,A,3,05,08,11,13,14,21,23,28,34,37,38,42,0.8,0.4,0.6*34
$GPGSA,A,3,43,60,,,,,,,,,,,0.8,0.4,0.6*39
$GPGST,183007.00,1.986,0.408,0.342,4.221,0.408,0.343,0.711*5F
$GPGBS,183007.00,2.491,2.147,3.678,67,0.0001,5.801,6.510*58
$GPGRS,183007.00,1,0.0,-0.9,-2.8,0.2,-0.0,0.2,0.2,-0.5,-0.2,0.6,,*6E
$GPGRS,183007.00,1,1.1,-3.9,5.8,4.5,-5.3,-1.4,-0.8,0.5,-0.4,-1.7,,*49
$GPGRS,183007.00,1,0.1,0.1,0.0,-0.4,0.3,,,,,,,*47
$GPGRS,183007.00,1,1.0,1.3,0.8,-0.1,1.5,-1.6,-0.2,-0.2,-0.2,0.0,0.1,0.1*65
$GPGRS,183007.00,1,-0.1,-1.8,,,,,,,,,,*4B
$GPGSV,6,1,21,18,68,059,48,10,14,174,41,29,23,093,43,05,12,034,41*7A
$GPGSV,6,2,21,27,32,288,44,31,12,221,42,23,41,140,47,16,60,288,49*72
$GPGSV,6,3,21,26,62,214,49,15,06,084,38,08,00,285,,07,02,339,39*71
$GPGSV,6,4,21,36,35,170,45,58,13,245,37,40,24,133,36,34,31,208,42*7B
$GPGSV,6,5,21,49,34,195,44,57,09,110,37,41,07,108,34,61,03,257,38*72
$GPGSV,6,6,21*7A
$GLGSV,3,1,10,82,69,005,52,66,22,066,45,79,10,176,45,73,43,310,50*6A
$GLGSV,3,2,10,81,27,054,47,65,12,017,39,83,50,268,41,80,54,215,52*68
$GLGSV,3,3,10,67,09,116,41,74,07,337,37*68
$GAGSV,2,1,07,13,76,218,49,23,25,313,,26,22,228,41,27,41,159,46*68
$GAGSV,2,2,07,15,47,053,46,21,70,265,48,05,02,034,35*53
$GBGSV,6,1,23,43,72,055,51,58,11,325,,60,11,109,39,38,25,038,42*67
$GBGSV,6,2,23,14,12,134,37,21,21,057,42,05,22,129,38,34,24,075,44*69
$GBGSV,6,3,23,23,37,214,48,42,21,109,43,50,24,081,,08,38,044,42*64
$GBGSV,6,4,23,31,35,052,,37,41,284,47,28,39,265,47,13,43,054,45*60
$GBGSV,6,5,23,27,44,254,,11,48,065,47,02,07,106,34,46,06,329,*6A
$GBGSV,6,6,23,33,00,155,,25,03,176,,07,07,109,*57
$GPGGA,183007.00,,,,,0,00,,,M,,M,,*45
$PTNL,GGK,183007.00,010125,4742.1603830,N,01618.0999943,E,1,39,0.8,EHT751.5968,M*47
$GPGGQ,183007.00,010125,4742.1603830,N,01618.0999943,E,1,39,0.888,708.3903,M*3E
$GPGFA,183007.00,3.881,5.827,0.408,0.342,4.221,0.711,,VVV*0F
$GPLLK,183007.00,010125,,M,,M,1,39,0.9,,M*05
$GNGMP,183007.00,,,,,DAAA,39,0.4,,,,*55
$GPGMP,183007.00,,,,,,10,,,,1.7,136*73
$GLGMP,183007.00,,,,,,10,,,,,*73
$GAGMP,183007.00,,,,,,05,,,,,*7A
$GBGMP,183007.00,,,,,,14,,,,,*79
$PSSN,SNC,[0,325825000,2347]*4F
$GPZDA,183012.00,01,01,2025,,*6A
$GPDTM,W84,,00.0000000,N,00.0000000,E,00.0000000,W84*5F
$PSSN,TFM,183012.00,,,,*66
$GPRMC,183012.00,A,4742.1603834,N,01618.0999946,E,0.0,,010125,5.1,E,D*16
$GPGLL,4742.1603834,N,01618.0999946,E,183012.00,A,D*67
$GPGGA,183012.00,4742.1603834,N,01618.0999946,E,2,39,0.4,708.3853,M,43.2066,M,2.7,0136*42
$GNGNS,183012.00,4742.1603834,N,01618.0999946,E,DAAA,39,0.4,708.3853,43.2066,,*5F
$GPGNS,183012.00,,,,,,10,,,,2.7,136*74
$GLGNS,183012.00,,,,,,10,,,,,*77
$GAGNS,183012.00,,,,,,05,,,,,*7E
$GBGNS,183012.00,,,,,,14,,,,,*7D
$GPLLQ,183012.00,010125,,M,,M,1,39,0.878,,M*15
$GPVTG,,T,,M,0.01,N,0.01,K,D*26
$GPHDT,,T*1B
$GPTHS,,V*0E
$GPROT,,V*08
$PSSN,HRP,183012.00,010125,,,,,,,00,0,,*68
$PTNL,AVR,183012.00,,Yaw,,Tilt,,,,0,,00*3E
$GPGSA,A,3,05,10,15,16,18,23,26,27,29,31,,,0.8,0.4,0.6*3F
$GPGSA,A,3,65,66,67,73,74,79,80,81,82,83,,,0.8,0.4,0.6*33
$GPGSA,A,3,13,15,21,26,27,,,,,,,,0.8,0.4,0.6*3C
$GPGSA,A,3,05,08,11,13,14,21,23,28,34,37,38,42,0.8,0.4,0.6*34
$GPGSA,A,3,43,60,,,,,,,,,,,0.8,0.4,0.6*39
$GPGST,183012.00,2.000,0.405,0.336,6.099,0.404,0.337,0.703*5E
$GPGBS,183012.00,2.528,2.181,3.725,67,0.0001,6.967,6.510*5E
$GPGRS,183012.00,1,0.2,-0.7,-2.6,-0.1,-0.0,0.1,0.1,0.1,-0.2,0.4,,*6D
$GPGRS,183012.00,1,0.5,-3.7,7.0,4.1,-5.0,-0.4,-0.7,0.7,-0.7,-1.8,,*4B
$GPGRS,183012.00,1,0.3,0.1,0.1,0.0,0.2,,,,,,,*68
$GPGRS,183012.00,1,1.2,1.4,0.4,-0.3,1.3,-1.7,0.2,0.3,-0.1,-0.1,0.3,-0.0*6D
$GPGRS,183012.00,1,-0.3,-1.7,,,,,,,,,,*42
$GPGSV,6,1,21,18,68,059,48,10,14,174,41,29,23,093,43,05,11,034,40*78
$GPGSV,6,2,21,27,32,288,44,31,11,221,42,23,41,140,47,16,60,288,48*70
$GPGSV,6,3,21,26,62,214,50,15,06,084,39,08,00,285,,07,02,339,38*79
$GPGSV,6,4,21,36,35,170,45,58,13,245,37,40,24,133,36,34,31,208,42*7B
$GPGSV,6,5,21,49,34,195,44,57,09,110,37,41,07,108,34,61,03,257,38*72
$GPGSV,6,6,21*7A
$GLGSV,3,1,10,82,69,005,51,66,22,066,46,79,10,176,45,73,43,310,50*6A
$GLGSV,3,2,10,81,27,054,47,65,12,017,39,83,50,268,41,80,54,215,52*68
$GLGSV,3,3,10,67,09,116,41,74,07,337,37*68
$GAGSV,2,1,07,13,76,218,49,23,25,313,,26,22,228,41,27,41,159,46*68
$GAGSV,2,2,07,15,47,053,46,21,70,265,48,05,02,034,35*53
$GBGSV,6,1,23,43,72,055,51,58,11,325,,60,11,109,40,38,25,038,41*6A
$GBGSV,6,2,23,14,12,134,37,21,21,057,42,05,22,129,38,34,24,075,43*6E
$GBGSV,6,3,23,23,37,214,47,42,21,109,43,50,24,081,,08,38,044,42*6B
$GBGSV,6,4,23,31,35,052,,37,41,284,47,28,39,265,47,13,43,054,45*60
$GBGSV,6,5,23,27,44,254,,11,48,065,47,02,07,106,34,46,07,329,*6B
$GBGSV,6,6,23,33,00,155,,25,03,176,,07,07,109,*57
$GPGGA,183012.00,,,,,0,00,,,M,,M,,*41
$PTNL,GGK,183012.00,010125,4742.1603834,N,01618.0999946,E,1,39,0.8,EHT751.5919,M*44
$GPGGQ,183012.00,010125,4742.1603834,N,01618.0999946,E,1,39,0.878,708.3853,M*30
$GPGFA,183012.00,3.847,5.763,0.405,0.336,6.099,0.703,,VVV*00
$GPLLK,183012.00,010125,,M,,M,1,39,0.9,,M*01
$GNGMP,183012.00,,,,,DAAA,39,0.4,,,,*51
$GPGMP,183012.00,,,,,,10,,,,2.7,136*74
$GLGMP,183012.00,,,,,,10,,,,,*77
$GAGMP,183012.00,,,,,,05,,,,,*7E
$GBGMP,183012.00,,,,,,14,,,,,*7D
$PSSN,SNC,[0,325830000,2347]*4B
$GPZDA,183017.00,01,01,2025,,*6F
$GPDTM,W84,,00.0000000,N,00.0000000,E,00.0000000,W84*5F
$PSSN,TFM,183017.00,,,,*63
$GPRMC,183017.00,A,4742.1603825,N,01618.0999969,E,0.0,,010125,5.1,E,D*1E
$GPGLL,4742.1603825,N,01618.0999969,E,183017.00,A,D*6F
$GPGGA,183017.00,4742.1603825,N,01618.0999969,E,2,39,0.4,708.3824,M,43.2066,M,2.8,0136*45
$GNGNS,183017.00,4742.1603825,N,01618.0999969,E,DAAA,39,0.4,708.3824,43.2066,,*57
$GPGNS,183017.00,,,,,,10,,,,2.8,136*7E
$GLGNS,183017.00,,,,,,10,,,,,*72
$GAGNS,183017.00,,,,,,05,,,,,*7B
$GBGNS,183017.00,,,,,,14,,,,,*78
$GPLLQ,183017.00,010125,,M,,M,1,39,0.888,,M*1F
$GPVTG,,T,,M,0.00,N,0.01,K,D*27
$GPHDT,,T*1B
$GPTHS,,V*0E
$GPROT,,V*08
$PSSN,HRP,183017.00,010125,,,,,,,00,0,,*6D
$PTNL,AVR,183017.00,,Yaw,,Tilt,,,,0,,00*3B
$GPGSA,A,3,05,10,15,16,18,23,26,27,29,31,,,0.8,0.4,0.6*3F
$GPGSA,A,3,65,66,67,73,74,79,80,81,82,83,,,0.8,0.4,0.6*33
$GPGSA,A,3,13,15,21,26,27,,,,,,,,0.8,0.4,0.6*3C
$GPGSA,A,3,05,08,11,13,14,21,23,28,34,37,38,42,0.8,0.4,0.6*34
$GPGSA,A,3,43,60,,,,,,,,,,,0.8,0.4,0.6*39
$GPGST,183017.00,2.129,0.408,0.342,5.465,0.407,0.343,0.711*58
$GPGBS,183017.00,2.562,2.233,3.766,10,0.0001,-1.371,1.232*7F
$GPGRS,183017.00,1,0.3,-1.4,-2.5,0.2,-0.1,0.2,0.4,0.0,-0.6,-0.1,,*6C
$GPGRS,183017.00,1,0.5,-3.8,6.8,4.3,-6.4,-0.5,-0.3,1.7,-0.9,-1.9,,*46
$GPGRS,183017.00,1,0.3,-0.1,0.2,0.5,0.1,,,,,,,*45
$GPGRS,183017.00,1,1.3,1.3,0.6,-0.1,0.7,-0.8,-0.0,0.1,-0.1,-0.2,0.3,-0.3*48
$GPGRS,183017.00,1,-0.3,-1.3,,,,,,,,,,*43
$GPGSV,6,1,21,18,68,059,48,10,14,174,41,29,23,093,43,05,11,034,40*78
$GPGSV,6,2,21,27,32,288,44,31,11,221,41,23,41,140,47,16,60,288,48*73
$GPGSV,6,3,21,26,62,214,50,15,06,084,39,08,00,285,,07,02,339,38*79
$GPGSV,6,4,21,36,35,170,44,58,13,245,37,40,24,133,36,34,31,208,42*7A
$GPGSV,6,5,21,49,34,195,44,57,09,110,37,41,07,108,34,61,03,257,38*72
$GPGSV,6,6,21*7A
$GLGSV,3,1,10,82,69,005,51,66,22,066,46,79,10,176,44,73,43,310,50*6B
$GLGSV,3,2,10,81,27,054,47,65,12,017,40,83,50,268,41,80,54,215,53*67
$GLGSV,3,3,10,67,09,116,41,74,07,337,36*69
$GAGSV,2,1,07,13,76,218,49,23,25,313,,26,22,228,42,27,41,159,46*6B
$GAGSV,2,2,07,15,47,053,46,21,70,265,48,05,02,034,35*53
$GBGSV,6,1,23,43,72,055,51,58,11,325,,60,11,109,40,38,25,038,41*6A
$GBGSV,6,2,23,14,12,134,38,21,21,056,43,05,22,129,38,34,24,075,44*66
$GBGSV,6,3,23,23,37,214,47,42,21,109,42,50,24,081,,08,38,044,42*6A
$GBGSV,6,4,23,31,35,052,,37,41,284,47,28,39,265,47,13,43,054,45*60
$GBGSV,6,5,23,27,44,254,,11,48,065,47,02,07,106,34,46,07,329,*6B
$GBGSV,6,6,23,33,00,155,,25,03,176,,07,07,109,*57
$GPGGA,183017.00,,,,,0,00,,,M,,M,,*44
$PTNL,GGK,183017.00,010125,4742.1603825,N,01618.0999969,E,1,39,0.8,EHT751.5889,M*44
$GPGGQ,183017.00,010125,4742.1603825,N,01618.0999969,E,1,39,0.888,708.3824,M*37
$GPGFA,183017.00,3.876,5.826,0.408,0.342,5.465,0.711,,VVV*00
$GPLLK,183017.00,010125,,M,,M,1,39,0.9,,M*04
$GNGMP,183017.00,,,,,DAAA,39,0.4,,,,*54
$GPGMP,183017.00,,,,,,10,,,,2.8,136*7E
$GLGMP,183017.00,,,,,,10,,,,,*72
$GAGMP,183017.00,,,,,,05,,,,,*7B
$GBGMP,183017.00,,,,,,14,,,,,*78
$PSSN,SNC,[0,325835000,2347]*4E
$GPZDA,183022.00,01,01,2025,,*69
$GPDTM,W84,,00.0000000,N,00.0000000,E,00.0000000,W84*5F
$PSSN,TFM,183022.00,,,,*65
$GPRMC,183022.00,A,4742.1603829,N,01618.0999962,E,0.0,,010125,5.1,E,D*1F
$GPGLL,4742.1603829,N,01618.0999962,E,183022.00,A,D*6E
$GPGGA,183022.00,4742.1603829,N,01618.0999962,E,2,39,0.4,708.3757,M,43.2066,M,2.9,0136*4E
$GNGNS,183022.00,4742.1603829,N,01618.0999962,E,DAAA,39,0.4,708.3757,43.2066,,*5D
$GPGNS,183022.00,,,,,,10,,,,2.9,136*79
$GLGNS,183022.00,,,,,,10,,,,,*74
$GAGNS,183022.00,,,,,,05,,,,,*7D
$GBGNS,183022.00,,,,,,14,,,,,*7E
$GPLLQ,183022.00,010125,,M,,M,1,39,0.894,,M*14
$GPVTG,,T,,M,0.00,N,0.01,K,D*27
$GPHDT,,T*1B
$GPTHS,,V*0E
$GPROT,,V*08
$PSSN,HRP,183022.00,010125,,,,,,,00,0,,*6B
$PTNL,AVR,183022.00,,Yaw,,Tilt,,,,0,,00*3D
$GPGSA,A,3,05,10,15,16,18,23,26,27,29,31,,,0.8,0.4,0.6*3F
$GPGSA,A,3,65,66,67,73,74,79,80,81,82,83,,,0.8,0.4,0.6*33
$GPGSA,A,3,13,15,21,26,27,,,,,,,,0.8,0.4,0.6*3C
$GPGSA,A,3,05,08,11,13,14,21,23,28,34,37,38,42,0.8,0.4,0.6*34
$GPGSA,A,3,43,60,,,,,,,,,,,0.8,0.4,0.6*39
$GPGST,183022.00,2.111,0.409,0.347,3.846,0.409,0.347,0.716*57
$GPGBS,183022.00,2.601,2.253,3.767,67,0.0001,6.809,6.506*51
$GPGRS,183022.00,1,0.1,-1.2,-2.1,0.3,0.0,0.1,0.3,-0.4,-0.5,0.2,,*47
$GPGRS,183022.00,1,0.0,-4.0,6.8,4.5,-5.8,-0.4,-0.3,1.9,-0.3,-2.7,,*4B
$GPGRS,183022.00,1,0.3,-0.1,0.2,-0.1,0.2,,,,,,,*69
$GPGRS,183022.00,1,1.1,0.8,0.8,0.1,1.1,-0.6,0.1,0.1,-0.3,-0.2,0.4,-0.6*40
$GPGRS,183022.00,1,-0.3,-1.6,,,,,,,,,,*40
$GPGSV,6,1,21,18,67,059,48,10,14,174,41,29,23,093,43,05,11,034,41*76
$GPGSV,6,2,21,27,32,288,44,31,11,221,41,23,41,140,47,16,60,288,49*72
$GPGSV,6,3,21,26,62,214,50,15,06,084,39,08,00,285,,07,03,339,39*79
$GPGSV,6,4,21,36,35,170,44,58,13,245,37,40,24,133,36,34,31,208,42*7A
$GPGSV,6,5,21,49,34,195,44,57,09,110,37,41,07,108,34,61,03,257,38*72
$GPGSV,6,6,21*7A
$GLGSV,3,1,10,82,69,005,52,66,22,066,46,79,10,176,44,73,43,310,50*68
$GLGSV,3,2,10,81,27,054,48,65,12,017,39,83,50,268,41,80,53,215,53*61
$GLGSV,3,3,10,67,09,116,41,74,07,337,35*6A
$GAGSV,2,1,07,13,76,218,48,23,25,313,,26,22,228,41,27,41,159,46*69
$GAGSV,2,2,07,15,47,053,45,21,70,265,48,05,02,034,34*51
$GBGSV,6,1,23,43,72,055,51,58,11,325,,60,11,109,40,38,25,038,41*6A
$GBGSV,6,2,23,14,12,134,38,21,21,056,42,05,22,129,38,34,24,075,44*67
$GBGSV,6,3,23,23,37,214,47,42,21,109,42,50,24,081,,08,38,044,42*6A
$GBGSV,6,4,23,31,35,052,,37,41,284,47,28,39,265,47,13,43,054,45*60
$GBGSV,6,5,23,27,44,254,,11,48,065,47,02,07,106,34,46,07,329,*6B
$GBGSV,6,6,23,33,00,155,,25,03,176,,07,07,109,*57
$GPGGA,183022.00,,,,,0,00,,,M,,M,,*42
$PTNL,GGK,183022.00,010125,4742.1603829,N,01618.0999962,E,1,39,0.8,EHT751.5822,M*44
$GPGGQ,183022.00,010125,4742.1603829,N,01618.0999962,E,1,39,0.894,708.3757,M*30
$GPGFA,183022.00,3.890,5.867,0.409,0.347,3.846,0.716,,VVV*03
$GPLLK,183022.00,010125,,M,,M,1,39,0.9,,M*02
$GNGMP,183022.00,,,,,DAAA,39,0.4,,,,*52
$GPGMP,183022.00,,,,,,10,,,,2.9,136*79
$GLGMP,183022.00,,,,,,10,,,,,*74
$GAGMP,183022.00,,,,,,05,,,,,*7D
$GBGMP,183022.00,,,,,,14,,,,,*7E
$PSSN,SNC,[0,325840000,2347]*4C
$GPZDA,183027.00,01,01,2025,,*6C
$GPDTM,W84,,00.0000000,N,00.0000000,E,00.0000000,W84*5F
$PSSN,TFM,183027.00,,,,*60
$GPRMC,183027.00,A,4742.1603807,N,01618.0999978,E,0.0,,010125,5.1,E,D*1D
$GPGLL,4742.1603807,N,01618.0999978,E,183027.00,A,D*6C
$GPGGA,183027.00,4742.1603807,N,01618.0999978,E,2,39,0.4,708.3682,M,43.2066,M,1.7,0136*48
$GNGNS,183027.00,4742.1603807,N,01618.0999978,E,DAAA,39,0.4,708.3682,43.2066,,*56
$GPGNS,183027.00,,,,,,10,,,,1.7,136*71
$GLGNS,183027.00,,,,,,10,,,,,*71
$GAGNS,183027.00,,,,,,05,,,,,*78
$GBGNS,183027.00,,,,,,14,,,,,*7B
$GPLLQ,183027.00,010125,,M,,M,1,39,0.889,,M*1D
$GPVTG,,T,,M,0.00,N,0.00,K,D*26
$GPHDT,,T*1B
$GPTHS,,V*0E
$GPROT,,V*08
$PSSN,HRP,183027.00,010125,,,,,,,00,0,,*6E
$PTNL,AVR,183027.00,,Yaw,,Tilt,,,,0,,00*38
$GPGSA,A,3,05,10,15,16,18,23,26,27,29,31,,,0.8,0.4,0.6*3F
$GPGSA,A,3,65,66,67,73,74,79,80,81,82,83,,,0.8,0.4,0.6*33
$GPGSA,A,3,13,15,21,26,27,,,,,,,,0.8,0.4,0.6*3C
$GPGSA,A,3,05,08,11,13,14,21,23,28,34,37,38,42,0.8,0.4,0.6*34
$GPGSA,A,3,43,60,,,,,,,,,,,0.8,0.4,0.6*39
$GPGST,183027.00,1.975,0.408,0.343,4.427,0.408,0.343,0.712*53
$GPGBS,183027.00,2.485,2.154,3.688,67,0.0001,6.535,6.505*5F
$GPGRS,183027.00,1,0.4,-1.1,-2.3,0.3,-0.0,-0.0,0.2,-0.2,-0.5,0.5,,*47
$GPGRS,183027.00,1,-0.1,-3.1,6.5,4.7,-5.1,-0.3,-0.7,1.5,-0.6,-1.8,,*64
$GPGRS,183027.00,1,0.1,0.1,0.0,-0.1,-0.1,,,,,,,*6F
$GPGRS,183027.00,1,1.5,0.5,0.7,-0.2,1.7,-0.9,0.3,-0.3,-0.5,-0.4,0.4,-0.5*4A
$GPGRS,183027.00,1,-0.3,-1.6,,,,,,,,,,*45
$GPGSV,6,1,21,18,67,059,48,10,14,174,41,29,23,093,43,05,11,034,40*77
$GPGSV,6,2,21,27,32,288,44,31,11,221,40,23,41,140,47,16,60,288,49*73
$GPGSV,6,3,21,26,62,214,49,15,06,084,39,08,00,285,,07,03,339,39*71
$GPGSV,6,4,21,36,35,170,44,58,13,245,37,40,24,133,36,34,31,208,42*7A
$GPGSV,6,5,21,49,34,195,44,57,09,110,37,41,07,108,34,61,03,257,38*72
$GPGSV,6,6,21*7A
$GLGSV,3,1,10,82,69,005,51,66,22,066,46,79,10,176,45,73,43,310,50*6A
$GLGSV,3,2,10,81,27,054,48,65,12,017,39,83,50,268,41,80,53,214,53*60
$GLGSV,3,3,10,67,09,116,41,74,07,337,37*68
$GAGSV,2,1,07,13,76,218,49,23,25,313,,26,22,228,41,27,41,159,46*68
$GAGSV,2,2,07,15,47,053,45,21,70,265,48,05,02,034,34*51
$GBGSV,6,1,23,43,72,055,51,58,11,325,,60,11,109,40,38,25,038,41*6A
$GBGSV,6,2,23,14,12,134,38,21,21,056,43,05,22,129,38,34,24,075,44*66
$GBGSV,6,3,23,23,37,214,47,42,21,109,42,50,24,081,,08,38,044,42*6A
$GBGSV,6,4,23,31,35,052,,37,41,284,47,13,43,054,45,28,39,265,47*60
$GBGSV,6,5,23,27,44,254,,11,48,065,46,02,07,106,34,46,07,329,*6A
$GBGSV,6,6,23,33,00,155,,25,03,176,,07,07,109,*57
$GPGGA,183027.00,,,,,0,00,,,M,,M,,*47
$PTNL,GGK,183027.00,010125,4742.1603807,N,01618.0999978,E,1,39,0.8,EHT751.5747,M*4A
$GPGGQ,183027.00,010125,4742.1603807,N,01618.0999978,E,1,39,0.889,708.3682,M*37
$GPGFA,183027.00,3.879,5.836,0.408,0.343,4.427,0.712,,VVV*08
$GPLLK,183027.00,010125,,M,,M,1,39,0.9,,M*07
$GNGMP,183027.00,,,,,DAAA,39,0.4,,,,*57
$GPGMP,183027.00,,,,,,10,,,,1.7,136*71
$GLGMP,183027.00,,,,,,10,,,,,*71
$GAGMP,183027.00,,,,,,05,,,,,*78
$GBGMP,183027.00,,,,,,14,,,,,*7B
$PSSN,SNC,[0,325845000,2347]*49
$GPZDA,183032.00,01,01,2025,,*68
$GPDTM,W84,,00.0000000,N,00.0000000,E,00.0000000,W84*5F
$PSSN,TFM,183032.00,,,,*64
$GPRMC,183032.00,A,4742.1603794,N,01618.1000003,E,0.0,,010125,5.1,E,D*11
$GPGLL,4742.1603794,N,01618.1000003,E,183032.00,A,D*60
$GPGGA,183032.00,4742.1603794,N,01618.1000003,E,2,39,0.4,708.3663,M,43.2066,M,2.7,0136*48
$GNGNS,183032.00,4742.1603794,N,01618.1000003,E,DAAA,39,0.4,708.3663,43.2066,,*55
$GPGNS,183032.00,,,,,,10,,,,2.7,136*76
$GLGNS,183032.00,,,,,,10,,,,,*75
$GAGNS,183032.00,,,,,,05,,,,,*7C
$GBGNS,183032.00,,,,,,14,,,,,*7F
$GPLLQ,183032.00,010125,,M,,M,1,39,0.879,,M*16
$GPVTG,,T,,M,0.00,N,0.00,K,D*26
$GPHDT,,T*1B
$GPTHS,,V*0E
$GPROT,,V*08
$PSSN,HRP,183032.00,010125,,,,,,,00,0,,*6A
$PTNL,AVR,183032.00,,Yaw,,Tilt,,,,0,,00*3C
$GPGSA,A,3,05,10,15,16,18,23,26,27,29,31,,,0.8,0.4,0.6*3F
$GPGSA,A,3,65,66,67,73,74,79,80,81,82,83,,,0.8,0.4,0.6*33
$GPGSA,A,3,13,15,21,26,27,,,,,,,,0.8,0.4,0.6*3C
$GPGSA,A,3,05,08,11,13,14,21,23,28,34,37,38,42,0.8,0.4,0.6*34
$GPGSA,A,3,43,60,,,,,,,,,,,0.8,0.4,0.6*39
$GPGST,183032.00,1.890,0.404,0.337,6.282,0.404,0.338,0.704*5E
$GPGBS,183032.00,2.522,2.188,3.735,67,0.0001,6.575,6.503*53
$GPGRS,183032.00,1,0.5,-0.6,-2.1,0.2,-0.2,0.0,0.1,-0.0,-0.3,0.3,,*69
$GPGRS,183032.00,1,0.1,-3.6,6.6,4.4,-4.2,0.2,-0.9,1.2,-1.0,-1.7,,*65
$GPGRS,183032.00,1,-0.1,0.1,0.1,-0.1,0.0,,,,,,,*6B
$GPGRS,183032.00,1,1.6,0.6,0.6,-0.2,1.6,-0.4,0.1,-0.1,-0.7,-0.3,0.3,-0.4*40
$GPGRS,183032.00,1,-0.2,-1.6,,,,,,,,,,*40
$GPGSV,6,1,21,18,67,059,48,10,14,174,41,29,23,093,43,05,11,034,40*77
$GPGSV,6,2,21,27,32,288,45,31,11,221,40,23,41,140,47,16,60,288,48*73
$GPGSV,6,3,21,26,62,214,49,15,06,084,40,08,00,285,,07,03,339,39*7F
$GPGSV,6,4,21,36,35,170,44,58,13,245,37,40,24,133,36,34,31,208,42*7A
$GPGSV,6,5,21,49,34,195,43,57,09,110,37,41,07,108,34,61,03,257,38*75
$GPGSV,6,6,21*7A
$GLGSV,3,1,10,82,69,005,51,66,22,066,46,79,10,176,45,73,43,310,49*62
$GLGSV,3,2,10,81,27,054,47,65,12,017,39,83,50,268,41,80,53,214,52*6E
$GLGSV,3,3,10,67,09,116,41,74,07,337,37*68
$GAGSV,2,1,07,13,76,218,48,23,25,313,,26,22,228,41,27,41,159,46*69
$GAGSV,2,2,07,15,47,053,45,21,70,265,48,05,02,034,34*51
$GBGSV,6,1,23,43,72,055,51,58,11,325,,60,11,109,40,38,25,038,41*6A
$GBGSV,6,2,23,14,12,134,38,21,21,056,43,05,22,129,38,34,24,075,44*66
$GBGSV,6,3,23,23,37,214,47,42,21,109,42,50,24,081,,08,38,044,42*6A
$GBGSV,6,4,23,31,35,052,,37,41,284,47,13,43,054,45,28,39,265,47*60
$GBGSV,6,5,23,27,44,254,,11,48,065,47,02,07,106,34,46,07,329,*6B
$GBGSV,6,6,23,33,00,155,,25,03,176,,07,07,109,*57
$GPGGA,183032.00,,,,,0,00,,,M,,M,,*43
$PTNL,GGK,183032.00,010125,4742.1603794,N,01618.1000003,E,1,39,0.8,EHT751.5729,M*4E
$GPGGQ,183032.00,010125,4742.1603794,N,01618.1000003,E,1,39,0.879,708.3663,M*3B
$GPGFA,183032.00,3.845,5.772,0.404,0.337,6.282,0.704,,VVV*0F
$GPLLK,183032.00,010125,,M,,M,1,39,0.9,,M*03
$GNGMP,183032.00,,,,,DAAA,39,0.4,,,,*53
$GPGMP,183032.00,,,,,,10,,,,2.7,136*76
$GLGMP,183032.00,,,,,,10,,,,,*75
$GAGMP,183032.00,,,,,,05,,,,,*7C
$GBGMP,183032.00,,,,,,14,,,,,*7F
$PSSN,SNC,[0,325850000,2347]*4D
$GPZDA,183037.00,01,01,2025,,*6D
$GPDTM,W84,,00.0000000,N,00.0000000,E,00.0000000,W84*5F
$PSSN,TFM,183037.00,,,,*61
$GPRMC,183037.00,A,4742.1603798,N,01618.1000022,E,0.0,,010125,5.1,E,D*1B
$GPGLL,4742.1603798,N,01618.1000022,E,183037.00,A,D*6A
$GPGGA,183037.00,4742.1603798,N,01618.1000022,E,2,39,0.4,708.3672,M,43.2066,M,2.8,0136*4D
$GNGNS,183037.00,4742.1603798,N,01618.1000022,E,DAAA,39,0.4,708.3672,43.2066,,*5F
$GPGNS,183037.00,,,,,,10,,,,2.8,136*7C
$GLGNS,183037.00,,,,,,10,,,,,*70
$GAGNS,183037.00,,,,,,05,,,,,*79
$GBGNS,183037.00,,,,,,14,,,,,*7A
$GPLLQ,183037.00,010125,,M,,M,1,39,0.886,,M*13
$GPVTG,,T,,M,0.00,N,0.00,K,D*26
$GPHDT,,T*1B
$GPTHS,,V*0E
$GPROT,,V*08
$PSSN,HRP,183037.00,010125,,,,,,,00,0,,*6F
$PTNL,AVR,183037.00,,Yaw,,Tilt,,,,0,,00*39
$GPGSA,A,3,05,10,15,16,18,23,26,27,29,31,,,0.8,0.4,0.6*3F
$GPGSA,A,3,65,66,67,73,74,79,80,81,82,83,,,0.8,0.4,0.6*33
$GPGSA,A,3,13,15,21,26,27,,,,,,,,0.8,0.4,0.6*3C
$GPGSA,A,3,05,08,11,13,14,21,23,28,34,37,38,42,0.8,0.4,0.6*34
$GPGSA,A,3,43,60,,,,,,,,,,,0.8,0.4,0.6*39
$GPGST,183037.00,1.859,0.405,0.343,5.714,0.405,0.343,0.709*55
$GPGBS,183037.00,2.557,2.240,3.775,67,0.0001,6.375,6.538*59
$GPGRS,183037.00,1,0.2,-0.2,-1.9,0.2,-0.2,0.0,0.0,-0.2,-0.0,0.7,,*60
$GPGRS,183037.00,1,1.3,-3.6,6.4,3.5,-4.7,-0.3,-0.6,1.2,-0.7,-2.0,,*43
$GPGRS,183037.00,1,-0.1,-0.0,0.2,-0.2,0.1,,,,,,,*43
$GPGRS,183037.00,1,1.2,1.0,0.6,-0.1,2.1,-0.3,0.3,0.1,-0.6,-0.2,-0.2,-0.0*41
$GPGRS,183037.00,1,-0.3,-1.5,,,,,,,,,,*47
$GPGSV,6,1,21,18,67,059,48,10,14,174,41,29,23,093,43,05,11,034,41*76
$GPGSV,6,2,21,27,32,288,45,31,11,221,40,23,41,140,47,16,61,288,48*72
$GPGSV,6,3,21,26,62,214,50,15,06,084,40,08,01,285,,07,03,339,39*76
$GPGSV,6,4,21,36,35,170,44,58,13,245,37,40,24,133,36,34,31,208,42*7A
$GPGSV,6,5,21,49,34,195,43,57,09,110,36,41,07,108,34,61,03,257,38*74
$GPGSV,6,6,21*7A
$GLGSV,3,1,10,82,69,005,51,66,22,066,46,79,10,176,45,73,43,310,50*6A
$GLGSV,3,2,10,81,27,054,47,65,12,017,40,83,50,268,41,80,53,214,52*60
$GLGSV,3,3,10,67,09,116,40,74,07,337,37*69
$GAGSV,2,1,07,13,76,218,49,23,25,313,,26,22,228,41,27,41,159,45*6B
$GAGSV,2,2,07,15,47,053,45,21,70,264,48,05,02,034,34*50
$GBGSV,6,1,23,43,72,055,51,58,12,325,,60,11,109,40,38,25,038,41*69
$GBGSV,6,2,23,14,12,134,39,21,21,056,43,05,22,129,39,34,24,075,44*66
$GBGSV,6,3,23,23,37,214,47,42,21,109,42,50,24,081,,08,38,044,42*6A
$GBGSV,6,4,23,31,35,052,,37,41,284,47,13,43,054,45,28,39,265,47*60
$GBGSV,6,5,23,27,44,254,,11,48,065,47,02,07,106,34,46,07,329,*6B
$GBGSV,6,6,23,33,00,155,,25,03,176,,07,07,109,*57
$GPGGA,183037.00,,,,,0,00,,,M,,M,,*46
$PTNL,GGK,183037.00,010125,4742.1603798,N,01618.1000022,E,1,39,0.8,EHT751.5738,M*44
$GPGGQ,183037.00,010125,4742.1603798,N,01618.1000022,E,1,39,0.886,708.3672,M*31
$GPGFA,183037.00,3.855,5.815,0.405,0.343,5.714,0.709,,VVV*03
$GPLLK,183037.00,010125,,M,,M,1,39,0.9,,M*06
$GNGMP,183037.00,,,,,DAAA,39,0.4,,,,*56
$GPGMP,183037.00,,,,,,10,,,,2.8,136*7C
$GLGMP,183037.00,,,,,,10,,,,,*70
$GAGMP,183037.00,,,,,,05,,,,,*79
$GBGMP,183037.00,,,,,,14,,,,,*7A
$PSSN,SNC,[0,325855000,2347]*48
$GPZDA,183042.00,01,01,2025,,*6F
$GPDTM,W84,,00.0000000,N,00.0000000,E,00.0000000,W84*5F
$PSSN,TFM,183042.00,,,,*63
$GPRMC,183042.00,A,4742.1603800,N,01618.1000018,E,0.0,,010125,5.1,E,D*1E
$GPGLL,4742.1603800,N,01618.1000018,E,183042.00,A,D*6F
$GPGGA,183042.00,4742.1603800,N,01618.1000018,E,2,39,0.4,708.3697,M,43.2066,M,2.9,0136*42
$GNGNS,183042.00,4742.1603800,N,01618.1000018,E,DAAA,39,0.4,708.3697,43.2066,,*51
$GPGNS,183042.00,,,,,,10,,,,2.9,136*7F
$GLGNS,183042.00,,,,,,10,,,,,*72
$GAGNS,183042.00,,,,,,05,,,,,*7B
$GBGNS,183042.00,,,,,,14,,,,,*78
$GPLLQ,183042.00,010125,,M,,M,1,39,0.893,,M*15
$GPVTG,,T,,M,0.00,N,0.00,K,D*26
$GPHDT,,T*1B
$GPTHS,,V*0E
$GPROT,,V*08
$PSSN,HRP,183042.00,010125,,,,,,,00,0,,*6D
$PTNL,AVR,183042.00,,Yaw,,Tilt,,,,0,,00*3B
$GPGSA,A,3,05,10,15,16,18,23,26,27,29,31,,,0.8,0.4,0.6*3F
$GPGSA,A,3,65,66,67,73,74,79,80,81,82,83,,,0.8,0.4,0.6*33
$GPGSA,A,3,13,15,21,26,27,,,,,,,,0.8,0.4,0.6*3C
$GPGSA,A,3,05,08,11,13,14,21,23,28,34,37,38,42,0.8,0.4,0.6*34
$GPGSA,A,3,43,60,,,,,,,,,,,0.8,0.4,0.6*39
$GPGST,183042.00,1.972,0.407,0.347,4.005,0.407,0.348,0.714*5A
$GPGBS,183042.00,2.596,2.260,3.778,67,0.0001,7.050,6.533*57
$GPGRS,183042.00,1,0.4,-0.8,-2.2,0.2,-0.1,-0.1,0.2,-0.5,0.1,0.7,,*60
$GPGRS,183042.00,1,1.7,-3.2,7.0,4.2,-4.6,-0.4,-0.7,1.2,-0.8,-1.7,,*48
$GPGRS,183042.00,1,0.1,-0.2,0.1,0.0,-0.0,,,,,,,*6E
$GPGRS,183042.00,1,1.2,1.0,1.0,0.1,1.8,-0.3,-0.1,-0.1,-0.3,-0.3,-0.1,0.5*4E
$GPGRS,183042.00,1,-0.2,-1.7,,,,,,,,,,*46
$GPGSV,6,1,21,18,67,059,48,10,14,174,41,29,23,093,43,05,11,034,40*77
$GPGSV,6,2,21,27,32,288,44,31,11,221,40,23,41,140,47,16,61,287,48*7C
$GPGSV,6,3,21,26,62,214,50,15,06,084,39,08,01,285,,07,03,339,38*79
$GPGSV,6,4,21,36,35,170,44,58,13,245,36,40,24,133,36,34,31,208,42*7B
$GPGSV,6,5,21,49,34,195,43,57,09,110,37,41,07,108,34,61,03,257,38*75
$GPGSV,6,6,21*7A
$GLGSV,3,1,10,82,69,005,52,66,22,066,46,79,10,176,44,73,43,310,50*68
$GLGSV,3,2,10,81,27,054,47,65,12,017,39,83,50,268,41,80,53,214,52*6E
$GLGSV,3,3,10,67,09,116,41,74,07,337,36*69
$GAGSV,2,1,07,13,76,218,48,23,25,313,,26,22,228,41,27,41,159,45*6A
$GAGSV,2,2,07,15,47,053,45,21,70,264,48,05,02,034,34*50
$GBGSV,6,1,23,43,72,055,51,58,12,325,,60,11,109,40,38,25,038,42*6A
$GBGSV,6,2,23,14,12,134,39,21,21,056,43,05,22,129,39,34,24,075,44*66
$GBGSV,6,3,23,23,37,214,47,42,22,109,43,50,24,081,,08,38,044,42*68
$GBGSV,6,4,23,31,35,052,,37,41,284,47,13,43,054,45,28,39,265,47*60
$GBGSV,6,5,23,27,44,254,,11,48,065,47,02,07,106,34,46,07,329,*6B
$GBGSV,6,6,23,33,00,155,,25,03,176,,07,07,109,*57
$GPGGA,183042.00,,,,,0,00,,,M,,M,,*44
$PTNL,GGK,183042.00,010125,4742.1603800,N,01618.1000018,E,1,39,0.8,EHT751.5763,M*4F
$GPGGQ,183042.00,010125,4742.1603800,N,01618.1000018,E,1,39,0.893,708.3697,M*3B
$GPGFA,183042.00,3.871,5.859,0.407,0.347,4.005,0.714,,VVV*03
$GPLLK,183042.00,010125,,M,,M,1,39,0.9,,M*04
$GNGMP,183042.00,,,,,DAAA,39,0.4,,,,*54
$GPGMP,183042.00,,,,,,10,,,,2.9,136*7F
$GLGMP,183042.00,,,,,,10,,,,,*72
$GAGMP,183042.00,,,,,,05,,,,,*7B
$GBGMP,183042.00,,,,,,14,,,,,*78
$PSSN,SNC,[0,325860000,2347]*4E
$GPZDA,183047.00,01,01,2025,,*6A
$GPDTM,W84,,00.0000000,N,00.0000000,E,00.0000000,W84*5F
$PSSN,TFM,183047.00,,,,*66
$GPRMC,183047.00,A,4742.1603807,N,01618.1000002,E,0.0,,010125,5.1,E,D*17
$GPGLL,4742.1603807,N,01618.1000002,E,183047.00,A,D*66
$GPGGA,183047.00,4742.1603807,N,01618.1000002,E,2,39,0.4,708.3658,M,43.2066,M,1.7,0136*45
$GNGNS,183047.00,4742.1603807,N,01618.1000002,E,DAAA,39,0.4,708.3658,43.2066,,*5B
$GPGNS,183047.00,,,,,,10,,,,1.7,136*77
$GLGNS,183047.00,,,,,,10,,,,,*77
$GAGNS,183047.00,,,,,,05,,,,,*7E
$GBGNS,183047.00,,,,,,14,,,,,*7D
$GPLLQ,183047.00,010125,,M,,M,1,39,0.888,,M*1A
$GPVTG,,T,,M,0.00,N,0.00,K,D*26
$GPHDT,,T*1B
$GPTHS,,V*0E
$GPROT,,V*08
$PSSN,HRP,183047.00,010125,,,,,,,00,0,,*68
$PTNL,AVR,183047.00,,Yaw,,Tilt,,,,0,,00*3E
$GPGSA,A,3,05,10,15,16,18,23,26,27,29,31,,,0.8,0.4,0.6*3F
$GPGSA,A,3,65,66,67,73,74,79,80,81,82,83,,,0.8,0.4,0.6*33
$GPGSA,A,3,13,15,21,26,27,,,,,,,,0.8,0.4,0.6*3C
$GPGSA,A,3,05,08,11,13,14,21,23,28,34,37,38,42,0.8,0.4,0.6*34
$GPGSA,A,3,43,60,,,,,,,,,,,0.8,0.4,0.6*39
$GPGST,183047.00,1.969,0.406,0.344,4.572,0.406,0.344,0.711*5A
$GPGBS,183047.00,2.481,2.161,3.699,67,0.0001,6.166,6.530*5F
$GPGRS,183047.00,1,0.5,-1.0,-2.7,0.3,-0.1,0.2,0.1,-0.4,-0.3,0.4,,*69
$GPGRS,183047.00,1,0.4,-3.5,6.2,4.2,-5.3,-0.3,-0.7,1.3,-0.7,-2.3,,*41
$GPGRS,183047.00,1,0.4,0.0,0.1,-0.2,0.4,,,,,,,*47
$GPGRS,183047.00,1,1.2,0.7,0.5,-0.0,2.0,-0.3,0.2,0.1,-0.2,-0.8,-0.0,0.7*64
$GPGRS,183047.00,1,-0.2,-1.6,,,,,,,,,,*42
$GPGSV,6,1,21,18,67,059,48,10,14,174,41,29,23,093,43,05,11,034,40*77
$GPGSV,6,2,21,27,32,288,44,31,11,221,41,23,41,140,46,16,61,287,49*7D
$GPGSV,6,3,21,26,62,214,50,15,06,084,39,08,01,285,,07,03,339,38*79
$GPGSV,6,4,21,36,35,170,44,58,13,245,37,40,24,133,36,34,31,208,42*7A
$GPGSV,6,5,21,49,34,195,43,57,09,110,36,41,07,108,33,61,03,257,38*73
$GPGSV,6,6,21*7A
$GLGSV,3,1,10,82,68,006,51,66,22,066,46,79,10,176,44,73,43,310,49*61
$GLGSV,3,2,10,81,27,054,47,65,12,017,39,83,50,268,41,80,53,214,52*6E
$GLGSV,3,3,10,67,09,116,41,74,07,337,36*69
$GAGSV,2,1,07,13,76,218,49,23,25,313,,26,22,228,41,27,41,159,46*68
$GAGSV,2,2,07,15,47,053,46,21,70,264,48,05,02,033,35*55
$GBGSV,6,1,23,43,72,055,51,58,12,325,,60,11,109,40,38,25,038,42*6A
$GBGSV,6,2,23,14,12,134,39,21,21,056,43,05,22,129,39,34,24,075,44*66
$GBGSV,6,3,23,23,37,214,48,42,22,109,43,50,24,081,,08,38,044,42*67
$GBGSV,6,4,23,31,35,052,,37,41,284,47,13,43,054,45,28,39,265,47*60
$GBGSV,6,5,23,27,44,254,,11,48,065,47,02,07,106,34,46,07,329,*6B
$GBGSV,6,6,23,33,01,155,,25,03,176,,07,07,109,*56
$GPGGA,183047.00,,,,,0,00,,,M,,M,,*41
$PTNL,GGK,183047.00,010125,4742.1603807,N,01618.1000002,E,1,39,0.8,EHT751.5723,M*42
$GPGGQ,183047.00,010125,4742.1603807,N,01618.1000002,E,1,39,0.888,708.3658,M*3B
$GPGFA,183047.00,3.860,5.827,0.406,0.344,4.572,0.711,,VVV*0D
$GPLLK,183047.00,010125,,M,,M,1,39,0.9,,M*01
$GNGMP,183047.00,,,,,DAAA,39,0.4,,,,*51
$GPGMP,183047.00,,,,,,10,,,,1.7,136*77
$GLGMP,183047.00,,,,,,10,,,,,*77
$GAGMP,183047.00,,,,,,05,,,,,*7E
$GBGMP,183047.00,,,,,,14,,,,,*7D
$PSSN,SNC,[0,325865000,2347]*4B
$GPZDA,183052.00,01,01,2025,,*6E
$GPDTM,W84,,00.0000000,N,00.0000000,E,00.0000000,W84*5F
$PSSN,TFM,183052.00,,,,*62
$GPRMC,183052.00,A,4742.1603805,N,01618.0999999,E,0.0,,010125,5.1,E,D*12
$GPGLL,4742.1603805,N,01618.0999999,E,183052.00,A,D*63
$GPGGA,183052.00,4742.1603805,N,01618.0999999,E,2,39,0.4,708.3596,M,43.2066,M,2.7,0136*42
$GNGNS,183052.00,4742.1603805,N,01618.0999999,E,DAAA,39,0.4,708.3596,43.2066,,*5F
$GPGNS,183052.00,,,,,,10,,,,2.7,136*70
$GLGNS,183052.00,,,,,,10,,,,,*73
$GAGNS,183052.00,,,,,,05,,,,,*7A
$GBGNS,183052.00,,,,,,14,,,,,*79
$GPLLQ,183052.00,010125,,M,,M,1,39,0.878,,M*11
$GPVTG,,T,,M,0.00,N,0.01,K,D*27
$GPHDT,,T*1B
$GPTHS,,V*0E
$GPROT,,V*08
$PSSN,HRP,183052.00,010125,,,,,,,00,0,,*6C
$PTNL,AVR,183052.00,,Yaw,,Tilt,,,,0,,00*3A
$GPGSA,A,3,05,10,15,16,18,23,26,27,29,31,,,0.8,0.4,0.6*3F
$GPGSA,A,3,65,66,67,73,74,79,80,81,82,83,,,0.8,0.4,0.6*33
$GPGSA,A,3,13,15,21,26,27,,,,,,,,0.8,0.4,0.6*3C
$GPGSA,A,3,05,08,11,13,14,21,23,28,34,37,38,42,0.8,0.4,0.6*34
$GPGSA,A,3,43,60,,,,,,,,,,,0.8,0.4,0.6*39
$GPGST,183052.00,2.093,0.403,0.337,6.518,0.402,0.338,0.703*52
$GPGBS,183052.00,2.517,2.194,3.746,67,0.0001,6.339,6.527*52
$GPGRS,183052.00,1,-0.0,-1.0,-3.0,0.5,-0.1,0.0,-0.0,-0.4,-0.2,0.2,,*6C
$GPGRS,183052.00,1,0.5,-4.4,6.3,4.2,-6.0,-0.3,-0.9,1.7,-1.1,-1.4,,*4A
$GPGRS,183052.00,1,0.4,-0.1,0.1,-0.1,0.4,,,,,,,*6C
$GPGRS,183052.00,1,1.5,0.5,0.4,-0.1,1.3,0.2,0.2,0.3,0.1,-0.5,-0.1,0.8*66
$GPGRS,183052.00,1,-0.2,-1.5,,,,,,,,,,*45
$GPGSV,6,1,21,18,67,059,48,10,14,174,41,29,23,093,42,05,11,034,40*76
$GPGSV,6,2,21,27,32,288,44,31,11,221,41,23,41,140,46,16,61,287,49*7D
$GPGSV,6,3,21,26,62,214,49,15,06,084,39,08,01,285,35,07,03,339,38*77
$GPGSV,6,4,21,36,35,170,44,58,13,245,37,40,24,133,36,34,31,208,42*7A
$GPGSV,6,5,21,49,34,195,44,57,09,110,37,41,07,108,34,61,03,257,38*72
$GPGSV,6,6,21*7A
$GLGSV,3,1,10,82,68,006,51,66,22,066,45,79,10,176,44,73,43,310,50*6A
$GLGSV,3,2,10,81,27,054,47,65,12,017,39,83,50,268,41,80,53,214,52*6E
$GLGSV,3,3,10,67,09,116,41,74,07,337,36*69
$GAGSV,2,1,07,13,76,218,48,23,25,313,,26,22,228,41,27,41,159,46*69
$GAGSV,2,2,07,15,46,053,45,21,70,264,48,05,02,033,35*57
$GBGSV,6,1,23,43,72,056,51,58,12,325,,60,11,109,40,38,25,038,42*69
$GBGSV,6,2,23,14,12,134,39,21,21,056,43,05,22,129,39,34,24,075,44*66
$GBGSV,6,3,23,23,37,214,48,42,22,109,43,50,24,081,,08,38,044,42*67
$GBGSV,6,4,23,31,35,052,,37,41,284,48,13,43,054,45,28,39,265,47*6F
$GBGSV,6,5,23,27,44,254,,11,48,065,47,02,07,106,34,46,07,329,*6B
$GBGSV,6,6,23,33,01,155,,25,03,176,18,07,07,110,*57
$GPGGA,183052.00,,,,,0,00,,,M,,M,,*45
$PTNL,GGK,183052.00,010125,4742.1603805,N,01618.0999999,E,1,39,0.8,EHT751.5662,M*43
$GPGGQ,183052.00,010125,4742.1603805,N,01618.0999999,E,1,39,0.878,708.3596,M*30
$GPGFA,183052.00,3.828,5.765,0.403,0.337,6.518,0.703,,VVV*00
$GPLLK,183052.00,010125,,M,,M,1,39,0.9,,M*05
$GNGMP,183052.00,,,,,DAAA,39,0.4,,,,*55
$GPGMP,183052.00,,,,,,10,,,,2.7,136*70
$GLGMP,183052.00,,,,,,10,,,,,*73
$GAGMP,183052.00,,,,,,05,,,,,*7A
$GBGMP,183052.00,,,,,,14,,,,,*79
$PSSN,SNC,[0,325870000,2347]*4F
$GPZDA,183057.00,01,01,2025,,*6B
$GPDTM,W84,,00.0000000,N,00.0000000,E,00.0000000,W84*5F
$PSSN,TFM,183057.00,,,,*67
$GPRMC,183057.00,A,4742.1603800,N,01618.1000007,E,0.0,,010125,5.1,E,D*14
$GPGLL,4742.1603800,N,01618.1000007,E,183057.00,A,D*65
$GPGGA,183057.00,4742.1603800,N,01618.1000007,E,2,39,0.4,708.3580,M,43.2066,M,2.8,0136*4C
$GNGNS,183057.00,4742.1603800,N,01618.1000007,E,DAAA,39,0.4,708.3580,43.2066,,*5E
$GPGNS,183057.00,,,,,,10,,,,2.8,136*7A
$GLGNS,183057.00,,,,,,10,,,,,*76
$GAGNS,183057.00,,,,,,05,,,,,*7F
$GBGNS,183057.00,,,,,,14,,,,,*7C
$GPLLQ,183057.00,010125,,M,,M,1,39,0.887,,M*14
$GPVTG,,T,,M,0.00,N,0.01,K,D*27
$GPHDT,,T*1B
$GPTHS,,V*0E
$GPROT,,V*08
$PSSN,HRP,183057.00,010125,,,,,,,00,0,,*69
$PTNL,AVR,183057.00,,Yaw,,Tilt,,,,0,,00*3F
$GPGSA,A,3,05,10,15,16,18,23,26,27,29,31,,,0.8,0.4,0.6*3F
$GPGSA,A,3,65,66,67,73,74,79,80,81,82,83,,,0.8,0.4,0.6*33
$GPGSA,A,3,13,15,21,26,27,,,,,,,,0.8,0.4,0.6*3C
$GPGSA,A,3,05,08,11,13,14,21,23,28,34,37,38,42,0.8,0.4,0.6*34
$GPGSA,A,3,43,60,,,,,,,,,,,0.8,0.4,0.6*39
$GPGST,183057.00,1.994,0.406,0.343,5.919,0.405,0.344,0.711*5D
$GPGBS,183057.00,2.552,2.246,3.787,67,0.0001,6.510,6.523*5E
$GPGRS,183057.00,1,0.2,-0.5,-2.4,0.3,-0.2,0.3,-0.1,-0.3,-0.0,0.3,,*44
$GPGRS,183057.00,1,-0.8,-4.1,6.5,4.3,-5.3,-0.0,-0.6,1.3,-1.0,-1.9,,*69
$GPGRS,183057.00,1,0.2,-0.1,0.1,-0.1,0.4,,,,,,,*6F
$GPGRS,183057.00,1,1.3,0.8,1.1,-0.4,0.8,0.3,-0.1,0.2,-0.4,-0.2,-0.4,0.4*6B
$GPGRS,183057.00,1,-0.3,-1.4,,,,,,,,,,*40
$GPGSV,6,1,21,18,67,059,48,10,14,174,41,29,23,093,42,05,11,034,40*76
$GPGSV,6,2,21,27,32,288,44,31,11,221,41,23,41,140,47,16,61,287,49*7C
$GPGSV,6,3,21,26,62,214,49,15,06,084,38,08,01,285,34,07,03,339,38*77
$GPGSV,6,4,21,36,35,170,44,58,13,245,37,40,24,133,36,34,31,208,42*7A
$GPGSV,6,5,21,49,34,195,44,57,09,110,36,41,07,108,34,61,03,257,38*73
$GPGSV,6,6,21*7A
$GLGSV,3,1,10,82,68,006,51,66,22,066,46,79,10,176,44,73,43,310,50*69
$GLGSV,3,2,10,81,27,054,47,65,12,017,40,83,50,268,41,80,53,214,52*60
$GLGSV,3,3,10,67,09,116,42,74,07,337,37*6B
$GAGSV,2,1,07,13,76,218,48,23,25,313,,26,22,228,41,27,41,159,46*69
$GAGSV,2,2,07,15,46,053,45,21,70,264,48,05,02,033,35*57
$GBGSV,6,1,23,43,71,056,51,58,12,325,,60,11,109,40,38,25,038,42*6A
$GBGSV,6,2,23,14,13,134,39,21,21,056,43,05,22,129,39,34,24,075,43*60
$GBGSV,6,3,23,23,37,214,48,42,22,108,43,50,24,081,,08,38,044,42*66
$GBGSV,6,4,23,31,35,052,,37,41,284,47,13,43,054,45,28,39,265,47*60
$GBGSV,6,5,23,27,44,254,,11,48,065,47,02,07,106,34,46,07,329,*6B
$GBGSV,6,6,23,33,01,155,,25,03,176,,07,07,110,*5E
$GPGGA,183057.00,,,,,0,00,,,M,,M,,*40
$PTNL,GGK,183057.00,010125,4742.1603800,N,01618.1000007,E,1,39,0.8,EHT751.5646,M*43
$GPGGQ,183057.00,010125,4742.1603800,N,01618.1000007,E,1,39,0.887,708.3580,M*31
$GPGFA,183057.00,3.856,5.828,0.406,0.343,5.919,0.711,,VVV*01
$GPLLK,183057.00,010125,,M,,M,1,39,0.9,,M*00
$GNGMP,183057.00,,,,,DAAA,39,0.4,,,,*50
$GPGMP,183057.00,,,,,,10,,,,2.8,136*7A
$GLGMP,183057.00,,,,,,10,,,,,*76
$GAGMP,183057.00,,,,,,05,,,,,*7F
$GBGMP,183057.00,,,,,,14,,,,,*7C
$PSSN,SNC,[0,325875000,2347]*4A
$GPZDA,183102.00,01,01,2025,,*6A
$GPDTM,W84,,00.0000000,N,00.0000000,E,00.0000000,W84*5F
$PSSN,TFM,183102.00,,,,*66
$GPRMC,183102.00,A,4742.1603793,N,01618.0999992,E,0.0,,010125,5.1,E,D*1D
$GPGLL,4742.1603793,N,01618.0999992,E,183102.00,A,D*6C
$GPGGA,183102.00,4742.1603793,N,01618.0999992,E,2,39,0.4,708.3568,M,43.2066,M,2.9,0136*42
$GNGNS,183102.00,4742.1603793,N,01618.0999992,E,DAAA,39,0.4,708.3568,43.2066,,*51
$GPGNS,183102.00,,,,,,10,,,,2.9,136*7A
$GLGNS,183102.00,,,,,,10,,,,,*77
$GAGNS,183102.00,,,,,,05,,,,,*7E
$GBGNS,183102.00,,,,,,14,,,,,*7D
$GPLLQ,183102.00,010125,,M,,M,1,39,0.902,,M*19
$GPVTG,,T,,M,0.00,N,0.01,K,D*27
$GPHDT,,T*1B
$GPTHS,,V*0E
$GPROT,,V*08
$PSSN,HRP,183102.00,010125,,,,,,,00,0,,*68
$PTNL,AVR,183102.00,,Yaw,,Tilt,,,,0,,00*3E
$GPGSA,A,3,05,10,15,16,18,23,26,27,29,31,,,0.8,0.4,0.6*3F
$GPGSA,A,3,65,66,67,73,74,79,80,81,82,83,,,0.8,0.4,0.6*33
$GPGSA,A,3,13,15,21,26,27,,,,,,,,0.8,0.4,0.6*3C
$GPGSA,A,3,05,08,11,13,14,21,23,28,34,37,38,42,0.8,0.4,0.6*34
$GPGSA,A,3,43,60,,,,,,,,,,,0.8,0.4,0.6*39
$GPGST,183102.00,2.157,0.413,0.348,5.346,0.412,0.349,0.722*5C
$GPGBS,183102.00,2.602,2.253,3.803,67,0.0001,6.919,6.520*58
$GPGRS,183102.00,1,0.2,-1.1,-2.6,0.1,-0.1,0.3,0.1,-0.1,-0.2,0.3,,*6E
$GPGRS,183102.00,1,0.3,-3.3,6.9,4.3,-6.8,0.5,-0.1,1.6,-0.6,-2.0,,*68
$GPGRS,183102.00,1,0.2,-0.1,0.2,-0.1,0.2,,,,,,,*6B
$GPGRS,183102.00,1,1.2,1.4,0.8,-0.2,1.4,0.2,0.2,0.2,-0.6,-0.1,-0.2,0.1*48
$GPGRS,183102.00,1,-0.3,-1.6,,,,,,,,,,*43
$GPGSV,6,1,21,18,67,059,48,10,14,174,41,29,23,093,43,05,11,034,40*77
$GPGSV,6,2,21,27,32,288,45,31,11,221,41,23,42,140,46,16,61,287,49*7F
$GPGSV,6,3,21,26,62,214,49,15,06,084,38,08,01,285,35,07,03,339,38*76
$GPGSV,6,4,21,36,35,170,45,58,13,245,37,40,24,133,36,34,31,208,42*7B
$GPGSV,6,5,21,49,34,195,44,57,09,110,37,41,07,108,34,61,03,257,38*72
$GPGSV,6,6,21*7A
$GLGSV,3,1,10,82,68,006,51,66,22,066,45,79,10,176,44,73,43,310,49*62
$GLGSV,3,2,10,81,27,054,47,65,12,017,39,83,50,268,40,80,53,214,53*6E
$GLGSV,3,3,10,67,09,116,41,74,07,337,36*69
$GAGSV,2,1,07,13,76,218,49,23,25,313,,26,22,228,41,27,41,159,46*68
$GAGSV,2,2,07,15,46,053,45,21,70,264,48,05,02,033,35*57
$GBGSV,6,1,23,43,71,056,51,58,12,325,,60,11,109,40,38,25,038,42*6A
$GBGSV,6,2,23,14,13,134,39,21,21,056,43,05,22,129,39,34,24,075,44*67
$GBGSV,6,3,23,23,37,214,48,42,22,108,43,50,24,081,,08,38,044,42*66
$GBGSV,6,4,23,31,35,052,,37,41,284,47,13,43,054,45,28,39,265,47*60
$GBGSV,6,5,23,27,44,254,,11,48,065,47,02,07,106,34,46,07,329,*6B
$GBGSV,6,6,23,33,01,155,,25,03,176,,07,07,110,*5E
$GPGGA,183102.00,,,,,0,00,,,M,,M,,*41
$PTNL,GGK,183102.00,010125,4742.1603793,N,01618.0999992,E,1,39,0.8,EHT751.5634,M*4F
$GPGGQ,183102.00,010125,4742.1603793,N,01618.0999992,E,1,39,0.902,708.3568,M*32
$GPGFA,183102.00,3.923,5.922,0.413,0.348,5.346,0.722,,VVV*07
$GPLLK,183102.00,010125,,M,,M,1,39,0.9,,M*01
$GNGMP,183102.00,,,,,DAAA,39,0.4,,,,*51
$GPGMP,183102.00,,,,,,10,,,,2.9,136*7A
$GLGMP,183102.00,,,,,,10,,,,,*77
$GAGMP,183102.00,,,,,,05,,,,,*7E
$GBGMP,183102.00,,,,,,14,,,,,*7D
$PSSN,SNC,[0,325880000,2347]*40
$GPZDA,183107.00,01,01,2025,,*6F
$GPDTM,W84,,00.0000000,N,00.0000000,E,00.0000000,W84*5F
$PSSN,TFM,183107.00,,,,*63
$GPRMC,183107.00,A,4742.1603777,N,01618.0999994,E,0.0,,010125,5.1,E,D*14
$GPGLL,4742.1603777,N,01618.0999994,E,183107.00,A,D*65
$GPGGA,183107.00,4742.1603777,N,01618.0999994,E,2,39,0.4,708.3479,M,43.2066,M,1.7,0136*47
$GNGNS,183107.00,4742.1603777,N,01618.0999994,E,DAAA,39,0.4,708.3479,43.2066,,*59
$GPGNS,183107.00,,,,,,10,,,,1.7,136*72
$GLGNS,183107.00,,,,,,10,,,,,*72
$GAGNS,183107.00,,,,,,05,,,,,*7B
$GBGNS,183107.00,,,,,,14,,,,,*78
$GPLLQ,183107.00,010125,,M,,M,1,39,0.897,,M*11
$GPVTG,,T,,M,0.00,N,0.00,K,D*26
$GPHDT,,T*1B
$GPTHS,,V*0E
$GPROT,,V*08
$PSSN,HRP,183107.00,010125,,,,,,,00,0,,*6D
$PTNL,AVR,183107.00,,Yaw,,Tilt,,,,0,,00*3B
$GPGSA,A,3,05,10,15,16,18,23,26,27,29,31,,,0.8,0.4,0.6*3F
$GPGSA,A,3,65,66,67,73,74,79,80,81,82,83,,,0.8,0.4,0.6*33
$GPGSA,A,3,13,15,21,26,27,,,,,,,,0.8,0.4,0.6*3C
$GPGSA,A,3,05,08,11,13,14,21,23,28,34,37,38,42,0.8,0.4,0.6*34
$GPGSA,A,3,43,60,,,,,,,,,,,0.8,0.4,0.6*39
$GPGST,183107.00,2.168,0.411,0.344,5.788,0.411,0.345,0.718*5B
$GPGBS,183107.00,2.481,2.152,3.719,10,0.0001,-1.642,1.197*76
$GPGRS,183107.00,1,0.4,-1.6,-2.7,0.5,-0.3,0.4,0.1,-0.3,-0.0,-0.3,,*47
$GPGRS,183107.00,1,0.7,-3.8,7.3,4.4,-6.1,-0.3,0.2,0.8,-0.6,-2.5,,*68
$GPGRS,183107.00,1,0.1,-0.1,0.1,-0.1,0.1,,,,,,,*6D
$GPGRS,183107.00,1,1.1,1.4,0.4,-0.3,1.4,0.1,-0.1,0.2,-0.3,-0.3,-0.0,-0.2*45
$GPGRS,183107.00,1,-0.3,-1.5,,,,,,,,,,*45
$GPGSV,6,1,21,18,67,059,48,10,14,174,40,29,23,093,42,05,11,034,39*79
$GPGSV,6,2,21,27,32,288,44,31,11,221,41,23,42,140,46,16,61,287,49*7E
$GPGSV,6,3,21,26,62,214,49,15,06,084,38,08,01,285,33,07,03,339,38*70
$GPGSV,6,4,21,36,35,170,44,58,13,245,37,40,24,133,36,34,31,208,42*7A
$GPGSV,6,5,21,49,34,195,44,57,09,110,37,41,07,108,34,61,03,257,38*72
$GPGSV,6,6,21*7A
$GLGSV,3,1,10,82,68,006,51,66,22,066,45,73,43,310,50,65,12,017,38*68
$GLGSV,3,2,10,81,27,054,46,83,50,268,41,80,53,214,52,74,07,337,35*66
$GLGSV,3,3,10,67,09,116,41,79,10,176,44*60
$GAGSV,2,1,07,13,76,218,49,23,25,313,,26,22,228,42,27,41,159,46*6B
$GAGSV,2,2,07,15,46,053,45,21,70,264,48,05,02,033,35*57
$GBGSV,6,1,23,43,71,056,51,58,12,325,,60,11,109,40,38,25,038,42*6A
$GBGSV,6,2,23,14,13,134,39,21,21,056,42,05,22,129,39,34,24,075,44*66
$GBGSV,6,3,23,23,37,214,47,42,22,108,43,50,24,081,,08,38,044,42*69
$GBGSV,6,4,23,31,35,052,,37,41,284,47,13,43,054,45,28,39,265,47*60
$GBGSV,6,5,23,27,44,254,,11,48,065,47,02,07,106,34,46,07,329,*6B
$GBGSV,6,6,23,33,01,155,,25,03,176,,07,07,110,*5E
$GPGGA,183107.00,,,,,0,00,,,M,,M,,*44
$PTNL,GGK,183107.00,010125,4742.1603777,N,01618.0999994,E,1,39,0.8,EHT751.5544,M*42
$GPGGQ,183107.00,010125,4742.1603777,N,01618.0999994,E,1,39,0.897,708.3479,M*37
$GPGFA,183107.00,3.912,5.891,0.411,0.344,5.788,0.718,,VVV*08
$GPLLK,183107.00,010125,,M,,M,1,39,0.9,,M*04
$GNGMP,183107.00,,,,,DAAA,39,0.4,,,,*54
$GPGMP,183107.00,,,,,,10,,,,1.7,136*72
$GLGMP,183107.00,,,,,,10,,,,,*72
$GAGMP,183107.00,,,,,,05,,,,,*7B
$GBGMP,183107.00,,,,,,14,,,,,*78
$PSSN,SNC,[0,325885000,2347]*45
$GPZDA,183112.00,01,01,2025,,*6B
$GPDTM,W84,,00.0000000,N,00.0000000,E,00.0000000,W84*5F
$PSSN,TFM,183112.00,,,,*67
$GPRMC,183112.00,A,4742.1603751,N,01618.0999982,E,0.0,,010125,5.1,E,D*13
$GPGLL,4742.1603751,N,01618.0999982,E,183112.00,A,D*62
$GPGGA,183112.00,4742.1603751,N,01618.0999982,E,2,38,0.5,708.3442,M,43.2066,M,2.7,0136*4B
$GNGNS,183112.00,4742.1603751,N,01618.0999982,E,DAAA,38,0.5,708.3442,43.2066,,*56
$GPGNS,183112.00,,,,,,10,,,,2.7,136*75
$GLGNS,183112.00,,,,,,09,,,,,*7E
$GAGNS,183112.00,,,,,,05,,,,,*7F
$GBGNS,183112.00,,,,,,14,,,,,*7C
$GPLLQ,183112.00,010125,,M,,M,1,38,0.889,,M*1B
$GPVTG,,T,,M,0.00,N,0.01,K,D*27
$GPHDT,,T*1B
$GPTHS,,V*0E
$GPROT,,V*08
$PSSN,HRP,183112.00,010125,,,,,,,00,0,,*69
$PTNL,AVR,183112.00,,Yaw,,Tilt,,,,0,,00*3F
$GPGSA,A,3,05,10,15,16,18,23,26,27,29,31,,,0.8,0.5,0.7*3F
$GPGSA,A,3,65,66,67,73,79,80,81,82,83,,,,0.8,0.5,0.7*30
$GPGSA,A,3,13,15,21,26,27,,,,,,,,0.8,0.5,0.7*3C
$GPGSA,A,3,05,08,11,13,14,21,23,28,34,37,38,42,0.8,0.5,0.7*34
$GPGSA,A,3,43,60,,,,,,,,,,,0.8,0.5,0.7*39
$GPGST,183112.00,1.888,0.409,0.339,6.886,0.408,0.340,0.713*5C
$GPGBS,183112.00,2.543,2.197,3.808,10,0.0001,-1.581,1.206*7C
$GPGRS,183112.00,1,0.9,-1.6,-2.5,0.3,-0.1,0.3,0.1,-0.4,-0.2,0.0,,*64
$GPGRS,183112.00,1,0.3,-4.2,7.3,4.0,-0.1,-0.7,1.2,-0.8,-1.3,,,*4F
$GPGRS,183112.00,1,0.2,0.0,-0.1,-0.1,0.1,,,,,,,*6B
$GPGRS,183112.00,1,1.1,0.9,0.9,-0.2,1.7,-0.2,-0.1,0.1,-0.2,-0.0,0.1,-0.8*4B
$GPGRS,183112.00,1,-0.1,-1.5,,,,,,,,,,*43
$GPGSV,6,1,21,18,67,059,48,10,14,174,40,29,23,093,42,05,11,034,39*79
$GPGSV,6,2,21,27,32,289,44,31,11,221,41,23,42,140,46,16,61,287,49*7F
$GPGSV,6,3,21,26,62,213,49,15,06,084,38,08,01,285,34,07,03,339,39*71
$GPGSV,6,4,21,36,35,170,45,58,13,245,37,40,24,133,36,34,31,208,42*7B
$GPGSV,6,5,21,49,34,195,44,57,09,110,37,41,07,108,34,61,03,257,38*72
$GPGSV,6,6,21*7A
$GLGSV,3,1,10,82,68,006,51,66,22,066,46,73,43,310,49,65,12,016,38*62
$GLGSV,3,2,10,81,27,054,46,83,50,268,41,80,53,214,52,74,07,337,35*66
$GLGSV,3,3,10,67,09,116,40,79,10,176,44*61
$GAGSV,2,1,07,13,76,218,48,23,25,313,,26,22,228,41,27,41,159,46*69
$GAGSV,2,2,07,15,46,053,45,21,70,264,48,05,02,033,35*57
$GBGSV,6,1,23,43,71,056,51,58,12,325,,60,11,109,40,38,25,038,42*6A
$GBGSV,6,2,23,14,13,134,39,21,21,056,43,05,22,129,39,34,24,075,44*67
$GBGSV,6,3,23,23,37,214,48,42,22,108,42,50,24,081,,08,38,044,42*67
$GBGSV,6,4,23,31,35,052,,37,41,284,47,13,43,054,45,28,40,265,47*6E
$GBGSV,6,5,23,27,44,254,,11,48,065,47,02,07,106,34,46,07,329,*6B
$GBGSV,6,6,23,33,01,155,,25,03,176,,07,07,110,*5E
$GPGGA,183112.00,,,,,0,00,,,M,,M,,*40
$PTNL,GGK,183112.00,010125,4742.1603751,N,01618.0999982,E,1,38,0.8,EHT751.5508,M*4C
$GPGGQ,183112.00,010125,4742.1603751,N,01618.0999982,E,1,38,0.889,708.3442,M*36
$GPGFA,183112.00,3.890,5.847,0.409,0.339,6.886,0.713,,VVV*06
$GPLLK,183112.00,010125,,M,,M,1,38,0.9,,M*01
$GNGMP,183112.00,,,,,DAAA,38,0.5,,,,*50
$GPGMP,183112.00,,,,,,10,,,,2.7,136*75
$GLGMP,183112.00,,,,,,09,,,,,*7E
$GAGMP,183112.00,,,,,,05,,,,,*7F
$GBGMP,183112.00,,,,,,14,,,,,*7C
$PSSN,SNC,[0,325890000,2347]*41
$GPZDA,183117.00,01,01,2025,,*6E
$GPDTM,W84,,00.0000000,N,00.0000000,E,00.0000000,W84*5F
$PSSN,TFM,183117.00,,,,*62
$GPRMC,183117.00,A,4742.1603748,N,01618.0999961,E,0.0,,010125,5.1,E,D*13
$GPGLL,4742.1603748,N,01618.0999961,E,183117.00,A,D*62
$GPGGA,183117.00,4742.1603748,N,01618.0999961,E,2,39,0.4,708.3366,M,43.2066,M,2.8,0136*45
$GNGNS,183117.00,4742.1603748,N,01618.0999961,E,DAAA,39,0.4,708.3366,43.2066,,*57
$GPGNS,183117.00,,,,,,10,,,,2.8,136*7F
$GLGNS,183117.00,,,,,,10,,,,,*73
$GAGNS,183117.00,,,,,,05,,,,,*7A
$GBGNS,183117.00,,,,,,14,,,,,*79
$GPLLQ,183117.00,010125,,M,,M,1,39,0.901,,M*1E
$GPVTG,,T,,M,0.00,N,0.01,K,D*27
$GPHDT,,T*1B
$GPTHS,,V*0E
$GPROT,,V*08
$PSSN,HRP,183117.00,010125,,,,,,,00,0,,*6C
$PTNL,AVR,183117.00,,Yaw,,Tilt,,,,0,,00*3A
$GPGSA,A,3,05,10,15,16,18,23,26,27,29,31,,,0.8,0.4,0.6*3F
$GPGSA,A,3,65,66,67,73,74,79,80,81,82,83,,,0.8,0.4,0.6*33
$GPGSA,A,3,13,15,21,26,27,,,,,,,,0.8,0.4,0.6*3C
$GPGSA,A,3,05,08,11,13,14,21,23,28,34,37,38,42,0.8,0.4,0.6*34
$GPGSA,A,3,43,60,,,,,,,,,,,0.8,0.4,0.6*39
$GPGST,183117.00,1.880,0.416,0.349,2.634,0.416,0.349,0.719*57
$GPGBS,183117.00,2.576,2.288,3.821,10,0.0001,-1.583,1.177*7E
$GPGRS,183117.00,1,0.2,-1.6,-2.2,0.3,-0.1,0.7,0.2,-0.4,-0.4,0.3,,*6F
$GPGRS,183117.00,1,0.2,-3.7,5.4,3.7,-5.5,0.4,-0.8,1.7,-0.8,-1.5,,*6B
$GPGRS,183117.00,1,0.1,0.1,0.1,0.2,0.2,,,,,,,*6C
$GPGRS,183117.00,1,1.7,0.9,0.6,0.0,1.8,-0.0,0.1,-0.1,-0.3,-0.3,0.2,-1.0*6D
$GPGRS,183117.00,1,-0.2,-1.5,,,,,,,,,,*45
$GPGSV,6,1,21,18,67,059,48,10,14,173,40,29,23,093,42,05,11,034,39*7E
$GPGSV,6,2,21,27,32,289,44,31,11,221,41,23,42,140,46,16,61,287,49*7F
$GPGSV,6,3,21,26,62,213,49,15,06,084,38,08,01,285,34,07,03,339,39*71
$GPGSV,6,4,21,36,35,170,45,58,13,245,37,40,24,133,36,34,31,208,42*7B
$GPGSV,6,5,21,49,34,195,44,57,09,110,37,41,07,108,34,61,03,257,38*72
$GPGSV,6,6,21*7A
$GLGSV,3,1,10,82,68,006,51,66,22,066,46,73,43,310,49,65,12,016,39*63
$GLGSV,3,2,10,81,27,054,46,83,50,268,41,80,53,214,52,74,07,337,37*64
$GLGSV,3,3,10,67,09,116,40,79,10,176,44*61
$GAGSV,2,1,07,13,76,218,48,23,25,313,,26,22,228,42,27,41,159,46*6A
$GAGSV,2,2,07,15,46,053,45,21,70,264,48,05,02,033,34*56
$GBGSV,6,1,23,43,71,056,51,58,12,325,,60,11,108,40,38,25,038,42*6B
$GBGSV,6,2,23,14,13,134,39,21,21,056,43,05,22,129,39,34,24,075,44*67
$GBGSV,6,3,23,23,37,214,47,42,22,108,42,50,24,081,,08,38,044,42*68
$GBGSV,6,4,23,31,35,052,,37,41,284,47,13,43,054,45,28,40,265,47*6E
$GBGSV,6,5,23,27,44,254,,11,48,065,47,02,07,106,34,46,07,329,*6B
$GBGSV,6,6,23,33,01,155,,25,02,176,,07,07,110,*5F
$GPGGA,183117.00,,,,,0,00,,,M,,M,,*45
