$GPZDA,091442.00,01,01,2025,,*69
$GPDTM,W84,,00.0000000,N,00.0000000,E,00.0000000,W84*5F
$PSSN,TFM,091442.00,,,,*65
$GPRMC,091442.00,A,4742.1599840,N,01618.1002626,E,0.0,,010125,5.1,E,D*15
$GPGLL,4742.1599840,N,01618.1002626,E,091442.00,A,D*64
$GPGGA,091442.00,4742.1599840,N,01618.1002626,E,2,33,0.5,709.0271,M,43.2066,M,1.8,0136*4E
$GNGNS,091442.00,4742.1599840,N,01618.1002626,E,DAAA,33,0.5,709.0271,43.2066,,*5F
$GPGNS,091442.00,,,,,,09,,,,1.8,136*73
$GLGNS,091442.00,,,,,,06,,,,,*73
$GAGNS,091442.00,,,,,,07,,,,,*7F
$GBGNS,091442.00,,,,,,11,,,,,*7B
$GPLLQ,091442.00,010125,,M,,M,1,33,0.923,,M*13
$GPVTG,,T,,M,0.00,N,0.01,K,D*27
$GPHDT,,T*1B
$GPTHS,,V*0E
$GPROT,,V*08
$PSSN,HRP,091442.00,010125,,,,,,,00,0,,*6B
$PTNL,AVR,091442.00,,Yaw,,Tilt,,,,0,,00*3D
$GPGSA,A,3,05,13,14,15,17,19,23,24,30,,,,0.8,0.5,0.6*35
$GPGSA,A,3,65,66,67,75,76,77,,,,,,,0.8,0.5,0.6*38
$GPGSA,A,3,02,03,05,07,08,24,25,,,,,,0.8,0.5,0.6*33
$GPGSA,A,3,05,07,10,14,21,26,36,40,42,45,60,,0.8,0.5,0.6*38
$GPGST,091442.00,2.358,0.505,0.312,12.028,0.498,0.323,0.707*6F
$GPGBS,091442.00,3.309,1.952,4.767,77,0.0001,-7.615,6.337*79
$GPGRS,091442.00,1,-0.7,0.4,0.2,-0.1,-0.1,1.0,0.1,0.2,-0.7,,,*6E
$GPGRS,091442.00,1,1.2,-1.0,7.2,-2.0,-1.4,-7.6,,,,,,*45
$GPGRS,091442.00,1,-0.5,0.2,1.4,-0.1,0.1,-0.0,0.2,,,,,*47
$GPGRS,091442.00,1,1.5,1.2,1.7,2.1,-0.2,0.1,-1.2,-0.9,0.0,-1.2,-2.8,*45
$GPGSV,5,1,20,13,83,148,49,05,24,215,43,24,22,275,42,23,19,318,41*72
$GPGSV,5,2,20,30,30,081,44,17,24,119,44,14,59,070,47,15,58,291,49*7F
$GPGSV,5,3,20,22,72,117,,20,00,193,,19,10,146,37,36,35,170,44*7D
$GPGSV,5,4,20,58,13,245,36,40,23,133,36,34,31,208,42,49,34,195,44*7C
$GPGSV,5,5,20,57,07,112,36,41,07,108,35,61,03,257,38*4B
$GLGSV,3,1,10,66,59,312,52,84,10,047,,77,12,235,39,65,59,178,50*6A
$GLGSV,3,2,10,75,55,037,51,76,58,245,52,74,04,049,38,67,09,329,44*6E
$GLGSV,3,3,10,83,06,348,34,72,05,156,*63
$GAGSV,3,1,11,03,64,140,48,24,16,045,39,05,13,131,39,16,40,054,*64
$GAGSV,3,2,11,02,51,194,48,08,59,301,48,25,63,075,48,07,08,308,37*69
$GAGSV,3,3,11,26,04,318,37,30,03,214,37,33,02,002,35*53
$GBGSV,5,1,20,50,61,234,,05,20,130,39,36,11,062,39,14,32,311,44*69
$GBGSV,5,2,20,40,29,051,43,56,28,084,,21,50,192,50,07,28,061,41*61
$GBGSV,5,3,20,10,35,075,42,42,54,286,49,24,56,229,,26,58,247,50*6B
$GBGSV,5,4,20,45,61,060,50,22,06,161,21,29,04,053,,25,07,235,*63
$GBGSV,5,5,20,33,10,324,,02,04,109,32,09,04,085,35,60,07,112,40*63
$GPGGA,091442.00,,,,,0,00,,,M,,M,,*42
$PTNL,GGK,091442.00,010125,4742.1599840,N,01618.1002626,E,1,33,0.8,EHT752.2336,M*4E
$GPGGQ,091442.00,010125,4742.1599840,N,01618.1002626,E,1,33,0.923,709.0271,M*3E
$GPGFA,091442.00,4.802,5.795,0.505,0.312,12.028,0.707,,VVV*30
$GPLLK,091442.00,010125,,M,,M,1,33,0.9,,M*08
$GNGMP,091442.00,,,,,DAAA,33,0.5,,,,*59
$GPGMP,091442.00,,,,,,09,,,,1.8,136*73
$GLGMP,091442.00,,,,,,06,,,,,*73
$GAGMP,091442.00,,,,,,07,,,,,*7F
$GBGMP,091442.00,,,,,,11,,,,,*7B
$PSSN,SNC,[0,292500000,2347]*48
$GPZDA,091447.00,01,01,2025,,*6C
$GPDTM,W84,,00.0000000,N,00.0000000,E,00.0000000,W84*5F
$PSSN,TFM,091447.00,,,,*60
$GPRMC,091447.00,A,4742.1599849,N,01618.1002601,E,0.0,,010125,5.1,E,D*1C
$GPGLL,4742.1599849,N,01618.1002601,E,091447.00,A,D*6D
$GPGGA,091447.00,4742.1599849,N,01618.1002601,E,2,33,0.5,709.0291,M,43.2066,M,2.8,0136*4A
$GNGNS,091447.00,4742.1599849,N,01618.1002601,E,DAAA,33,0.5,709.0291,43.2066,,*58
$GPGNS,091447.00,,,,,,09,,,,2.8,136*75
$GLGNS,091447.00,,,,,,06,,,,,*76
$GAGNS,091447.00,,,,,,07,,,,,*7A
$GBGNS,091447.00,,,,,,11,,,,,*7E
$GPLLQ,091447.00,010125,,M,,M,1,33,0.923,,M*16
$GPVTG,,T,,M,0.01,N,0.01,K,D*26
$GPHDT,,T*1B
$GPTHS,,V*0E
$GPROT,,V*08
$PSSN,HRP,091447.00,010125,,,,,,,00,0,,*6E
$PTNL,AVR,091447.00,,Yaw,,Tilt,,,,0,,00*38
$GPGSA,A,3,05,13,14,15,17,19,23,24,30,,,,0.8,0.5,0.6*35
$GPGSA,A,3,65,66,67,75,76,77,,,,,,,0.8,0.5,0.6*38
$GPGSA,A,3,02,03,05,07,08,24,25,,,,,,0.8,0.5,0.6*33
$GPGSA,A,3,05,07,10,14,21,26,36,40,42,45,60,,0.8,0.5,0.6*38
$GPGST,091447.00,2.381,0.506,0.308,13.099,0.498,0.322,0.707*6C
$GPGBS,091447.00,3.345,1.981,4.832,77,0.0001,-7.546,6.338*7F
$GPGRS,091447.00,1,-0.5,0.6,-0.1,-0.0,-0.5,1.6,-0.1,-0.0,-0.4,,,*47
$GPGRS,091447.00,1,1.0,-0.9,7.4,-2.0,-1.4,-7.5,,,,,,*4F
$GPGRS,091447.00,1,-0.7,0.2,1.3,0.1,0.0,0.1,0.0,,,,,*45
$GPGRS,091447.00,1,1.2,0.8,1.3,2.3,-0.3,0.1,-1.5,-1.2,-0.0,-1.1,-2.9,*69
$GPGSV,5,1,20,13,83,148,49,05,24,215,43,24,22,275,41,23,19,318,41*71
$GPGSV,5,2,20,30,30,081,44,17,24,119,44,14,59,070,47,15,58,291,49*7F
$GPGSV,5,3,20,22,72,117,,20,00,193,,19,10,146,37,36,35,170,44*7D
$GPGSV,5,4,20,58,13,245,36,40,23,133,37,34,31,208,42,49,34,195,44*7D
$GPGSV,5,5,20,57,07,112,36,41,07,108,35,61,03,257,38*4B
$GLGSV,3,1,10,66,59,312,52,84,10,047,,77,12,235,39,65,59,178,50*6A
$GLGSV,3,2,10,75,54,037,50,76,58,245,52,74,04,049,37,67,09,329,44*61
$GLGSV,3,3,10,83,06,348,33,72,05,156,*64
$GAGSV,3,1,11,03,64,140,48,24,15,045,39,05,13,131,39,16,40,054,*67
$GAGSV,3,2,11,02,51,194,48,08,59,301,48,25,63,075,48,07,08,308,38*66
$GAGSV,3,3,11,26,04,318,36,30,03,214,37,33,02,002,35*52
$GBGSV,5,1,20,50,61,234,,05,20,130,39,36,11,062,40,14,32,311,44*67
$GBGSV,5,2,20,40,29,051,44,56,28,084,,21,50,192,50,07,28,061,41*66
$GBGSV,5,3,20,10,35,075,42,42,54,286,49,24,56,229,,26,58,247,50*6B
$GBGSV,5,4,20,45,61,060,50,22,06,161,21,29,04,053,,25,07,235,*63
$GBGSV,5,5,20,33,10,324,,02,04,109,32,09,04,085,35,60,07,112,40*63
$GPGGA,091447.00,,,,,0,00,,,M,,M,,*47
$PTNL,GGK,091447.00,010125,4742.1599849,N,01618.1002601,E,1,33,0.8,EHT752.2356,M*41
$GPGGQ,091447.00,010125,4742.1599849,N,01618.1002601,E,1,33,0.923,709.0291,M*39
$GPGFA,091447.00,4.812,5.799,0.506,0.308,13.099,0.707,,VVV*3B
$GPLLK,091447.00,010125,,M,,M,1,33,0.9,,M*0D
$GNGMP,091447.00,,,,,DAAA,33,0.5,,,,*5C
$GPGMP,091447.00,,,,,,09,,,,2.8,136*75
$GLGMP,091447.00,,,,,,06,,,,,*76
$GAGMP,091447.00,,,,,,07,,,,,*7A
$GBGMP,091447.00,,,,,,11,,,,,*7E
$PSSN,SNC,[0,292505000,2347]*4D
$GPZDA,091452.00,01,01,2025,,*68
$GPDTM,W84,,00.0000000,N,00.0000000,E,00.0000000,W84*5F
$PSSN,TFM,091452.00,,,,*64
$GPRMC,091452.00,A,4742.1599836,N,01618.1002606,E,0.0,,010125,5.1,E,D*17
$GPGLL,4742.1599836,N,01618.1002606,E,091452.00,A,D*66
$GPGGA,091452.00,4742.1599836,N,01618.1002606,E,2,33,0.5,709.0230,M,43.2066,M,2.4,0136*46
$GNGNS,091452.00,4742.1599836,N,01618.1002606,E,DAAA,33,0.5,709.0230,43.2066,,*58
$GPGNS,091452.00,,,,,,09,,,,2.4,136*7D
$GLGNS,091452.00,,,,,,06,,,,,*72
$GAGNS,091452.00,,,,,,07,,,,,*7E
$GBGNS,091452.00,,,,,,11,,,,,*7A
$GPLLQ,091452.00,010125,,M,,M,1,33,0.927,,M*16
$GPVTG,,T,,M,0.00,N,0.00,K,D*26
$GPHDT,,T*1B
$GPTHS,,V*0E
$GPROT,,V*08
$PSSN,HRP,091452.00,010125,,,,,,,00,0,,*6A
$PTNL,AVR,091452.00,,Yaw,,Tilt,,,,0,,00*3C
$GPGSA,A,3,05,13,14,15,17,19,23,24,30,,,,0.8,0.5,0.6*35
$GPGSA,A,3,65,66,67,75,76,77,,,,,,,0.8,0.5,0.6*38
$GPGSA,A,3,02,03,05,07,08,24,25,,,,,,0.8,0.5,0.6*33
$GPGSA,A,3,05,07,10,14,21,26,36,40,42,45,60,,0.8,0.5,0.6*38
$GPGST,091452.00,2.283,0.507,0.313,12.718,0.499,0.325,0.710*6F
$GPGBS,091452.00,3.303,1.928,4.856,77,0.0001,-7.918,6.360*72
$GPGRS,091452.00,1,-0.5,0.4,0.2,-0.1,-0.6,0.9,-0.1,0.0,-0.3,,,*49
$GPGRS,091452.00,1,1.2,-1.0,6.3,-1.9,-1.2,-7.9,,,,,,*47
$GPGRS,091452.00,1,-0.6,-0.1,1.2,-0.2,0.0,0.0,0.0,,,,,*40
$GPGRS,091452.00,1,1.9,0.9,1.6,2.2,-0.4,0.0,-1.5,-1.0,0.1,-0.7,-2.6,*43
$GPGSV,5,1,20,13,83,148,49,05,24,215,43,24,22,275,42,23,19,318,41*72
$GPGSV,5,2,20,30,30,081,44,17,24,119,43,14,59,070,47,15,58,291,49*78
$GPGSV,5,3,20,22,72,116,,20,00,193,,19,10,146,38,36,35,170,44*73
$GPGSV,5,4,20,58,13,245,36,40,23,133,37,34,31,208,42,49,34,195,44*7D
$GPGSV,5,5,20,57,07,112,37,41,07,108,35,61,03,257,38*4A
$GLGSV,3,1,10,66,60,312,52,84,10,047,,77,12,235,38,65,59,178,49*69
$GLGSV,3,2,10,75,54,037,51,76,58,245,52,74,04,049,37,67,09,329,45*61
$GLGSV,3,3,10,83,06,348,33,72,05,156,*64
$GAGSV,3,1,11,03,64,140,48,24,15,045,39,05,13,131,39,16,40,054,*67
$GAGSV,3,2,11,02,51,194,48,08,59,301,48,25,63,075,48,07,08,308,38*66
$GAGSV,3,3,11,26,04,318,37,30,03,214,37,33,02,002,34*52
$GBGSV,5,1,20,50,61,234,,05,20,130,38,36,11,062,40,14,32,311,44*66
$GBGSV,5,2,20,40,29,051,43,56,28,084,,21,49,192,50,07,28,061,41*69
$GBGSV,5,3,20,10,35,075,42,42,54,286,49,24,56,229,,26,58,247,50*6B
$GBGSV,5,4,20,45,61,060,50,22,06,161,19,29,04,053,,25,07,235,*68
$GBGSV,5,5,20,33,10,324,,02,04,109,32,09,04,085,36,60,07,112,40*60
$GPGGA,091452.00,,,,,0,00,,,M,,M,,*43
$PTNL,GGK,091452.00,010125,4742.1599836,N,01618.1002606,E,1,33,0.8,EHT752.2295,M*44
$GPGGQ,091452.00,010125,4742.1599836,N,01618.1002606,E,1,33,0.927,709.0230,M*3D
$GPGFA,091452.00,4.822,5.826,0.507,0.313,12.718,0.710,,VVV*35
$GPLLK,091452.00,010125,,M,,M,1,33,0.9,,M*09
$GNGMP,091452.00,,,,,DAAA,33,0.5,,,,*58
$GPGMP,091452.00,,,,,,09,,,,2.4,136*7D
$GLGMP,091452.00,,,,,,06,,,,,*72
$GAGMP,091452.00,,,,,,07,,,,,*7E
$GBGMP,091452.00,,,,,,11,,,,,*7A
$PSSN,SNC,[0,292510000,2347]*49
$GPZDA,091457.00,01,01,2025,,*6D
$GPDTM,W84,,00.0000000,N,00.0000000,E,00.0000000,W84*5F
$PSSN,TFM,091457.00,,,,*61
$GPRMC,091457.00,A,4742.1599828,N,01618.1002578,E,0.0,,010125,5.1,E,D*17
$GPGLL,4742.1599828,N,01618.1002578,E,091457.00,A,D*66
$GPGGA,091457.00,4742.1599828,N,01618.1002578,E,2,33,0.5,709.0195,M,43.2066,M,3.0,0136*4F
$GNGNS,091457.00,4742.1599828,N,01618.1002578,E,DAAA,33,0.5,709.0195,43.2066,,*54
$GPGNS,091457.00,,,,,,09,,,,3.0,136*7D
$GLGNS,091457.00,,,,,,06,,,,,*77
$GAGNS,091457.00,,,,,,07,,,,,*7B
$GBGNS,091457.00,,,,,,11,,,,,*7F
$GPLLQ,091457.00,010125,,M,,M,1,33,0.922,,M*16
$GPVTG,,T,,M,0.00,N,0.00,K,D*26
$GPHDT,,T*1B
$GPTHS,,V*0E
$GPROT,,V*08
$PSSN,HRP,091457.00,010125,,,,,,,00,0,,*6F
$PTNL,AVR,091457.00,,Yaw,,Tilt,,,,0,,00*39
$GPGSA,A,3,05,13,14,15,17,19,23,24,30,,,,0.8,0.5,0.6*35
$GPGSA,A,3,65,66,67,75,76,77,,,,,,,0.8,0.5,0.6*38
$GPGSA,A,3,02,03,05,07,08,24,25,,,,,,0.8,0.5,0.6*33
$GPGSA,A,3,05,07,10,14,21,26,36,40,42,45,60,,0.8,0.5,0.6*38
$GPGST,091457.00,2.438,0.503,0.315,11.743,0.497,0.325,0.705*69
$GPGBS,091457.00,3.317,1.976,4.926,77,0.0001,-8.152,6.356*73
$GPGRS,091457.00,1,-1.0,0.2,0.1,0.1,-0.7,1.4,-0.2,0.4,-0.1,,,*68
$GPGRS,091457.00,1,0.8,-1.0,7.2,-2.1,-1.1,-8.2,,,,,,*45
$GPGRS,091457.00,1,-0.3,-0.1,1.2,-0.3,-0.2,0.2,-0.1,,,,,*40
$GPGRS,091457.00,1,1.8,1.3,1.4,2.3,-0.4,0.1,-1.2,-1.1,-0.0,-1.0,-2.8,*6C
$GPGSV,5,1,20,13,83,148,48,05,24,215,42,24,22,275,41,23,19,318,42*72
$GPGSV,5,2,20,30,30,081,44,17,24,119,44,14,59,070,47,15,58,291,49*7F
$GPGSV,5,3,20,22,72,116,,20,00,193,,19,10,146,38,36,35,170,44*73
$GPGSV,5,4,20,58,13,245,36,40,23,133,37,34,31,208,42,49,34,195,44*7D
$GPGSV,5,5,20,57,07,112,36,41,07,108,35,61,03,257,38*4B
$GLGSV,3,1,10,66,60,312,52,84,10,047,,77,12,235,39,65,59,178,49*68
$GLGSV,3,2,10,75,54,037,51,76,58,245,52,74,04,049,37,67,09,329,44*60
$GLGSV,3,3,10,83,06,348,32,72,05,156,*65
$GAGSV,3,1,11,03,64,140,48,24,15,045,39,05,13,131,39,16,40,054,*67
$GAGSV,3,2,11,02,51,194,48,08,59,301,48,25,63,075,48,07,08,308,38*66
$GAGSV,3,3,11,26,04,318,37,30,03,214,37,33,02,002,35*53
$GBGSV,5,1,20,50,61,234,,05,20,130,38,36,11,062,40,14,32,311,44*66
$GBGSV,5,2,20,40,29,051,43,56,28,084,,21,49,192,50,07,28,061,41*69
$GBGSV,5,3,20,10,35,075,42,42,54,286,49,24,56,229,,26,58,247,50*6B
$GBGSV,5,4,20,45,61,060,49,22,06,161,20,29,04,053,,25,07,235,*6A
$GBGSV,5,5,20,33,10,324,,02,04,109,32,09,04,085,36,60,07,112,40*60
$GPGGA,091457.00,,,,,0,00,,,M,,M,,*46
$PTNL,GGK,091457.00,010125,4742.1599828,N,01618.1002578,E,1,33,0.8,EHT752.2261,M*4F
$GPGGQ,091457.00,010125,4742.1599828,N,01618.1002578,E,1,33,0.922,709.0195,M*34
$GPGFA,091457.00,4.786,5.783,0.503,0.315,11.743,0.705,,VVV*3A
$GPLLK,091457.00,010125,,M,,M,1,33,0.9,,M*0C
$GNGMP,091457.00,,,,,DAAA,33,0.5,,,,*5D
$GPGMP,091457.00,,,,,,09,,,,3.0,136*7D
$GLGMP,091457.00,,,,,,06,,,,,*77
$GAGMP,091457.00,,,,,,07,,,,,*7B
$GBGMP,091457.00,,,,,,11,,,,,*7F
$PSSN,SNC,[0,292515000,2347]*4C
$GPZDA,091502.00,01,01,2025,,*6C
$GPDTM,W84,,00.0000000,N,00.0000000,E,00.0000000,W84*5F
$PSSN,TFM,091502.00,,,,*60
$GPRMC,091502.00,A,4742.1599815,N,01618.1002589,E,0.0,,010125,5.1,E,D*16
$GPGLL,4742.1599815,N,01618.1002589,E,091502.00,A,D*67
$GPGGA,091502.00,4742.1599815,N,01618.1002589,E,2,33,0.5,709.0190,M,43.2066,M,1.8,0136*41
$GNGNS,091502.00,4742.1599815,N,01618.1002589,E,DAAA,33,0.5,709.0190,43.2066,,*50
$GPGNS,091502.00,,,,,,09,,,,1.8,136*76
$GLGNS,091502.00,,,,,,06,,,,,*76
$GAGNS,091502.00,,,,,,07,,,,,*7A
$GBGNS,091502.00,,,,,,11,,,,,*7E
$GPLLQ,091502.00,010125,,M,,M,1,33,0.925,,M*10
$GPVTG,,T,,M,0.00,N,0.00,K,D*26
$GPHDT,,T*1B
$GPTHS,,V*0E
$GPROT,,V*08
$PSSN,HRP,091502.00,010125,,,,,,,00,0,,*6E
$PTNL,AVR,091502.00,,Yaw,,Tilt,,,,0,,00*38
$GPGSA,A,3,05,13,14,15,17,19,23,24,30,,,,0.8,0.5,0.6*35
$GPGSA,A,3,65,66,67,75,76,77,,,,,,,0.8,0.5,0.6*38
$GPGSA,A,3,02,03,05,07,08,24,25,,,,,,0.8,0.5,0.6*33
$GPGSA,A,3,05,07,10,14,21,26,36,40,42,45,60,,0.8,0.5,0.6*38
$GPGST,091502.00,2.287,0.505,0.313,12.026,0.498,0.324,0.708*6E
$GPGBS,091502.00,3.301,1.951,4.779,77,0.0001,-7.287,6.358*7E
$GPGRS,091502.00,1,-0.5,0.3,-0.1,-0.1,-0.6,1.2,0.1,0.4,-0.4,,,*40
$GPGRS,091502.00,1,0.7,-1.3,6.8,-2.2,-1.2,-7.3,,,,,,*4D
$GPGRS,091502.00,1,-0.4,-0.2,1.1,-0.2,-0.3,-0.2,-0.3,,,,,*69
$GPGRS,091502.00,1,1.4,1.3,1.2,2.4,-0.3,0.1,-1.2,-1.2,-0.0,-1.2,-3.1,*6E
$GPGSV,5,1,20,13,83,148,48,05,24,215,43,24,22,275,41,23,19,318,41*70
$GPGSV,5,2,20,30,30,081,43,17,24,119,43,14,59,070,47,15,58,291,48*7E
$GPGSV,5,3,20,22,72,116,,20,00,193,,19,10,146,38,36,35,170,44*73
$GPGSV,5,4,20,58,13,245,36,40,23,133,37,34,31,208,42,49,34,195,44*7D
$GPGSV,5,5,20,57,07,112,36,41,07,108,35,61,03,257,38*4B
$GLGSV,3,1,10,66,60,312,52,84,10,047,,77,12,235,39,65,59,178,49*68
$GLGSV,3,2,10,75,54,037,51,76,58,245,52,74,04,049,37,67,09,329,44*60
$GLGSV,3,3,10,83,06,348,32,72,05,156,19*6D
$GAGSV,3,1,11,03,64,140,48,24,15,045,39,05,13,131,39,16,40,053,*60
$GAGSV,3,2,11,02,51,194,48,08,59,301,48,25,63,075,48,07,08,308,38*66
$GAGSV,3,3,11,26,04,318,37,30,03,214,37,33,02,002,34*52
$GBGSV,5,1,20,50,61,234,,05,20,130,38,36,11,062,40,14,32,311,43*61
$GBGSV,5,2,20,40,29,051,43,56,28,084,,21,49,192,50,07,28,061,41*69
$GBGSV,5,3,20,10,35,075,41,42,54,286,49,24,56,229,,26,58,247,50*68
$GBGSV,5,4,20,45,61,060,49,22,06,161,25,29,04,053,,25,07,235,*6F
$GBGSV,5,5,20,33,10,324,,02,04,109,32,09,04,085,36,60,07,112,40*60
$GPGGA,091502.00,,,,,0,00,,,M,,M,,*47
$PTNL,GGK,091502.00,010125,4742.1599815,N,01618.1002589,E,1,33,0.8,EHT752.2255,M*49
$GPGGQ,091502.00,010125,4742.1599815,N,01618.1002589,E,1,33,0.925,709.0190,M*37
$GPGFA,091502.00,4.802,5.809,0.505,0.313,12.026,0.708,,VVV*3F
$GPLLK,091502.00,010125,,M,,M,1,33,0.9,,M*0D
$GNGMP,091502.00,,,,,DAAA,33,0.5,,,,*5C
$GPGMP,091502.00,,,,,,09,,,,1.8,136*76
$GLGMP,091502.00,,,,,,06,,,,,*76
$GAGMP,091502.00,,,,,,07,,,,,*7A
$GBGMP,091502.00,,,,,,11,,,,,*7E
$PSSN,SNC,[0,292520000,2347]*4A
$GPZDA,091507.00,01,01,2025,,*69
$GPDTM,W84,,00.0000000,N,00.0000000,E,00.0000000,W84*5F
$PSSN,TFM,091507.00,,,,*65
$GPRMC,091507.00,A,4742.1599822,N,01618.1002613,E,0.0,,010125,5.1,E,D*17
$GPGLL,4742.1599822,N,01618.1002613,E,091507.00,A,D*66
$GPGGA,091507.00,4742.1599822,N,01618.1002613,E,2,33,0.5,709.0189,M,43.2066,M,2.8,0136*4B
$GNGNS,091507.00,4742.1599822,N,01618.1002613,E,DAAA,33,0.5,709.0189,43.2066,,*59
$GPGNS,091507.00,,,,,,09,,,,2.8,136*70
$GLGNS,091507.00,,,,,,06,,,,,*73
$GAGNS,091507.00,,,,,,07,,,,,*7F
$GBGNS,091507.00,,,,,,11,,,,,*7B
$GPLLQ,091507.00,010125,,M,,M,1,33,0.925,,M*15
$GPVTG,,T,,M,0.00,N,0.01,K,D*27
$GPHDT,,T*1B
$GPTHS,,V*0E
$GPROT,,V*08
$PSSN,HRP,091507.00,010125,,,,,,,00,0,,*6B
$PTNL,AVR,091507.00,,Yaw,,Tilt,,,,0,,00*3D
$GPGSA,A,3,05,13,14,15,17,19,23,24,30,,,,0.8,0.5,0.6*35
$GPGSA,A,3,65,66,67,75,76,77,,,,,,,0.8,0.5,0.6*38
$GPGSA,A,3,02,03,05,07,08,24,25,,,,,,0.8,0.5,0.6*33
$GPGSA,A,3,05,07,10,14,21,26,36,40,42,45,60,,0.8,0.5,0.6*38
$GPGST,091507.00,2.400,0.506,0.310,13.087,0.498,0.323,0.709*6E
$GPGBS,091507.00,3.336,1.980,4.845,77,0.0001,-7.825,6.359*70
$GPGRS,091507.00,1,-0.1,0.4,-0.0,-0.2,-0.6,1.3,-0.6,0.2,-0.4,,,*69
$GPGRS,091507.00,1,1.0,-0.8,7.3,-2.3,-1.2,-7.8,,,,,,*44
$GPGRS,091507.00,1,-0.3,0.0,1.4,0.1,-0.2,-0.1,-0.1,,,,,*6F
$GPGRS,091507.00,1,1.8,1.0,1.3,2.1,-0.2,0.0,-1.1,-0.9,0.1,-1.1,-3.0,*47
$GPGSV,5,1,20,13,82,148,48,05,24,215,42,24,22,275,41,23,19,318,41*70
$GPGSV,5,2,20,30,30,081,43,17,24,119,43,14,59,070,47,15,59,291,49*7E
$GPGSV,5,3,20,22,72,116,,20,00,193,,19,10,146,38,36,35,170,44*73
$GPGSV,5,4,20,58,13,245,36,40,23,133,36,34,31,208,42,49,34,195,44*7C
$GPGSV,5,5,20,57,07,112,37,41,07,108,35,61,03,257,38*4A
$GLGSV,3,1,10,66,60,311,52,84,10,047,,77,12,235,38,65,58,178,49*6B
$GLGSV,3,2,10,75,54,037,51,76,58,246,52,74,04,049,37,67,09,329,44*63
$GLGSV,3,3,10,83,06,348,32,72,05,156,19*6D
$GAGSV,3,1,11,03,64,140,48,24,15,045,39,05,13,131,39,16,40,053,*60
$GAGSV,3,2,11,02,51,194,48,08,59,301,48,25,63,075,48,07,08,308,38*66
$GAGSV,3,3,11,26,04,318,37,30,03,214,37,33,02,002,33*55
$GBGSV,5,1,20,50,61,234,,05,20,130,38,36,11,063,40,14,32,311,44*67
$GBGSV,5,2,20,40,29,051,43,56,29,084,,21,49,192,50,07,28,061,41*68
$GBGSV,5,3,20,10,35,075,41,42,54,286,49,24,56,229,,26,59,247,50*69
$GBGSV,5,4,20,45,60,060,49,22,06,161,25,29,04,053,,25,07,235,*6E
$GBGSV,5,5,20,33,10,324,,02,04,109,32,09,04,085,36,60,07,112,40*60
$GPGGA,091507.00,,,,,0,00,,,M,,M,,*42
$PTNL,GGK,091507.00,010125,4742.1599822,N,01618.1002613,E,1,33,0.8,EHT752.2254,M*49
$GPGGQ,091507.00,010125,4742.1599822,N,01618.1002613,E,1,33,0.925,709.0189,M*3E
$GPGFA,091507.00,4.815,5.815,0.506,0.310,13.087,0.709,,VVV*3A
$GPLLK,091507.00,010125,,M,,M,1,33,0.9,,M*08
$GNGMP,091507.00,,,,,DAAA,33,0.5,,,,*59
$GPGMP,091507.00,,,,,,09,,,,2.8,136*70
$GLGMP,091507.00,,,,,,06,,,,,*73
$GAGMP,091507.00,,,,,,07,,,,,*7F
$GBGMP,091507.00,,,,,,11,,,,,*7B
$PSSN,SNC,[0,292525000,2347]*4F
$GPZDA,091512.00,01,01,2025,,*6D
$GPDTM,W84,,00.0000000,N,00.0000000,E,00.0000000,W84*5F
$PSSN,TFM,091512.00,,,,*61
$GPRMC,091512.00,A,4742.1599865,N,01618.1002599,E,0.0,,010125,5.1,E,D*11
$GPGLL,4742.1599865,N,01618.1002599,E,091512.00,A,D*60
$GPGGA,091512.00,4742.1599865,N,01618.1002599,E,2,33,0.5,709.0126,M,43.2066,M,2.4,0136*44
$GNGNS,091512.00,4742.1599865,N,01618.1002599,E,DAAA,33,0.5,709.0126,43.2066,,*5A
$GPGNS,091512.00,,,,,,09,,,,2.4,136*78
$GLGNS,091512.00,,,,,,06,,,,,*77
$GAGNS,091512.00,,,,,,07,,,,,*7B
$GBGNS,091512.00,,,,,,11,,,,,*7F
$GPLLQ,091512.00,010125,,M,,M,1,33,0.928,,M*1C
$GPVTG,,T,,M,0.01,N,0.01,K,D*26
$GPHDT,,T*1B
$GPTHS,,V*0E
$GPROT,,V*08
$PSSN,HRP,091512.00,010125,,,,,,,00,0,,*6F
$PTNL,AVR,091512.00,,Yaw,,Tilt,,,,0,,00*39
$GPGSA,A,3,05,13,14,15,17,19,23,24,30,,,,0.8,0.5,0.6*35
$GPGSA,A,3,65,66,67,75,76,77,,,,,,,0.8,0.5,0.6*38
$GPGSA,A,3,02,03,05,07,08,24,25,,,,,,0.8,0.5,0.6*33
$GPGSA,A,3,05,07,10,14,21,26,36,40,42,45,60,,0.8,0.5,0.6*38
$GPGST,091512.00,2.466,0.507,0.313,12.723,0.500,0.325,0.711*6F
$GPGBS,091512.00,3.296,1.923,4.862,77,0.0001,-8.564,6.359*74
$GPGRS,091512.00,1,-0.1,0.4,0.1,0.1,-0.5,1.3,-0.5,-0.0,-0.3,,,*47
$GPGRS,091512.00,1,1.1,-0.7,7.4,-1.9,-1.3,-8.6,,,,,,*40
$GPGRS,091512.00,1,-0.4,0.1,0.9,-0.0,-0.1,-0.2,0.0,,,,,*61
$GPGRS,091512.00,1,1.9,0.9,0.7,1.9,-0.3,0.2,-1.1,-0.6,0.1,-0.9,-2.9,*49
$GPGSV,5,1,20,13,82,148,49,05,24,215,42,24,22,275,41,23,19,318,41*71
$GPGSV,5,2,20,30,30,081,43,17,24,119,43,14,59,070,47,15,59,291,49*7E
$GPGSV,5,3,20,22,72,116,,20,00,193,,19,10,146,39,36,35,170,44*72
$GPGSV,5,4,20,58,13,245,36,40,23,133,36,34,31,208,42,49,34,195,44*7C
$GPGSV,5,5,20,57,07,112,36,41,07,108,35,61,03,257,38*4B
$GLGSV,3,1,10,66,60,311,52,84,10,046,,77,12,235,39,65,58,178,49*6B
$GLGSV,3,2,10,75,54,037,51,76,58,246,52,74,04,049,38,67,09,329,45*6D
$GLGSV,3,3,10,83,06,348,33,72,05,156,*64
$GAGSV,3,1,11,03,64,140,48,24,15,045,38,05,13,131,38,16,40,053,*60
$GAGSV,3,2,11,02,51,194,48,08,59,301,47,25,63,075,48,07,08,308,38*69
$GAGSV,3,3,11,26,04,318,37,30,03,214,36,33,02,002,34*53
$GBGSV,5,1,20,50,61,233,,05,20,130,38,36,11,063,40,14,32,311,43*67
$GBGSV,5,2,20,40,29,051,43,56,29,084,,21,49,192,50,07,28,061,41*68
$GBGSV,5,3,20,10,35,075,41,42,54,286,49,24,56,229,,26,59,247,50*69
$GBGSV,5,4,20,45,60,060,49,22,06,161,25,29,04,053,,25,07,235,*6E
$GBGSV,5,5,20,33,10,324,,02,04,109,32,09,04,085,36,60,07,112,40*60
$GPGGA,091512.00,,,,,0,00,,,M,,M,,*46
$PTNL,GGK,091512.00,010125,4742.1599865,N,01618.1002599,E,1,33,0.8,EHT752.2191,M*45
$GPGGQ,091512.00,010125,4742.1599865,N,01618.1002599,E,1,33,0.928,709.0126,M*30
$GPGFA,091512.00,4.823,5.829,0.507,0.313,12.723,0.711,,VVV*37
$GPLLK,091512.00,010125,,M,,M,1,33,0.9,,M*0C
$GNGMP,091512.00,,,,,DAAA,33,0.5,,,,*5D
$GPGMP,091512.00,,,,,,09,,,,2.4,136*78
$GLGMP,091512.00,,,,,,06,,,,,*77
$GAGMP,091512.00,,,,,,07,,,,,*7B
$GBGMP,091512.00,,,,,,11,,,,,*7F
$PSSN,SNC,[0,292530000,2347]*4B
$GPZDA,091517.00,01,01,2025,,*68
$GPDTM,W84,,00.0000000,N,00.0000000,E,00.0000000,W84*5F
$PSSN,TFM,091517.00,,,,*64
$GPRMC,091517.00,A,4742.1599869,N,01618.1002579,E,0.0,,010125,5.1,E,D*16
$GPGLL,4742.1599869,N,01618.1002579,E,091517.00,A,D*67
$GPGGA,091517.00,4742.1599869,N,01618.1002579,E,2,33,0.5,709.0106,M,43.2066,M,3.0,0136*44
$GNGNS,091517.00,4742.1599869,N,01618.1002579,E,DAAA,33,0.5,709.0106,43.2066,,*5F
$GPGNS,091517.00,,,,,,09,,,,3.0,136*78
$GLGNS,091517.00,,,,,,06,,,,,*72
$GAGNS,091517.00,,,,,,07,,,,,*7E
$GBGNS,091517.00,,,,,,11,,,,,*7A
$GPLLQ,091517.00,010125,,M,,M,1,33,0.922,,M*13
$GPVTG,,T,,M,0.00,N,0.00,K,D*26
$GPHDT,,T*1B
$GPTHS,,V*0E
$GPROT,,V*08
$PSSN,HRP,091517.00,010125,,,,,,,00,0,,*6A
$PTNL,AVR,091517.00,,Yaw,,Tilt,,,,0,,00*3C
$GPGSA,A,3,05,13,14,15,17,19,23,24,30,,,,0.8,0.5,0.6*35
$GPGSA,A,3,65,66,67,75,76,77,,,,,,,0.8,0.5,0.6*38
$GPGSA,A,3,02,03,05,07,08,24,25,,,,,,0.8,0.5,0.6*33
$GPGSA,A,3,05,07,10,14,21,26,36,40,42,45,60,,0.8,0.5,0.6*38
$GPGST,091517.00,2.321,0.503,0.315,11.730,0.497,0.325,0.706*64
$GPGBS,091517.00,3.310,1.971,4.931,77,0.0001,-7.522,6.354*7E
$GPGRS,091517.00,1,-0.3,0.2,0.2,-0.3,-0.2,1.3,-0.2,0.1,-0.3,,,*46
$GPGRS,091517.00,1,0.8,-0.7,7.5,-1.9,-1.1,-7.5,,,,,,*42
$GPGRS,091517.00,1,-0.7,-0.1,0.9,0.0,-0.1,-0.3,-0.2,,,,,*49
$GPGRS,091517.00,1,1.9,0.8,-0.3,1.0,-0.5,-0.1,-1.2,-0.6,-0.1,-1.1,-3.0,*6A
$GPGSV,5,1,20,13,82,148,49,05,23,215,44,24,22,275,42,23,19,318,41*73
$GPGSV,5,2,20,30,30,081,43,17,24,118,43,14,59,070,47,15,59,291,49*7F
$GPGSV,5,3,20,22,72,116,,20,00,193,,19,10,146,40,36,35,170,44*7C
$GPGSV,5,4,20,58,13,245,36,40,23,133,37,34,31,208,42,49,34,195,44*7D
$GPGSV,5,5,20,57,07,112,36,41,07,108,35,61,03,257,38*4B
$GLGSV,3,1,10,66,60,311,52,84,10,046,,77,12,235,40,65,58,178,49*65
$GLGSV,3,2,10,75,54,037,51,76,58,246,53,74,04,049,37,67,09,329,44*62
$GLGSV,3,3,10,83,06,348,31,72,05,156,*66
$GAGSV,3,1,11,03,64,140,49,24,15,045,38,05,13,131,38,16,40,053,*61
$GAGSV,3,2,11,02,51,194,48,08,59,301,48,25,63,074,48,07,08,308,38*67
$GAGSV,3,3,11,26,04,318,37,30,03,214,37,33,02,002,34*52
$GBGSV,5,1,20,50,61,233,,05,20,130,38,36,11,063,40,14,32,311,43*67
$GBGSV,5,2,20,40,29,051,43,56,29,084,,21,49,192,50,07,28,061,41*68
$GBGSV,5,3,20,10,35,075,41,42,54,286,49,24,56,229,,26,59,247,50*69
$GBGSV,5,4,20,45,60,060,49,22,06,161,25,29,04,053,,25,07,235,*6E
$GBGSV,5,5,20,33,10,324,,02,04,109,32,09,04,085,36,60,07,112,40*60
$GPGGA,091517.00,,,,,0,00,,,M,,M,,*43
$PTNL,GGK,091517.00,010125,4742.1599869,N,01618.1002579,E,1,33,0.8,EHT752.2172,M*4F
$GPGGQ,091517.00,010125,4742.1599869,N,01618.1002579,E,1,33,0.922,709.0106,M*3F
$GPGFA,091517.00,4.784,5.785,0.503,0.315,11.730,0.706,,VVV*3C
$GPLLK,091517.00,010125,,M,,M,1,33,0.9,,M*09
$GNGMP,091517.00,,,,,DAAA,33,0.5,,,,*58
$GPGMP,091517.00,,,,,,09,,,,3.0,136*78
$GLGMP,091517.00,,,,,,06,,,,,*72
$GAGMP,091517.00,,,,,,07,,,,,*7E
$GBGMP,091517.00,,,,,,11,,,,,*7A
$PSSN,SNC,[0,292535000,2347]*4E
$GPZDA,091522.00,01,01,2025,,*6E
$GPDTM,W84,,00.0000000,N,00.0000000,E,00.0000000,W84*5F
$PSSN,TFM,091522.00,,,,*62
$GPRMC,091522.00,A,4742.1599871,N,01618.1002599,E,0.0,,010125,5.1,E,D*17
$GPGLL,4742.1599871,N,01618.1002599,E,091522.00,A,D*66
$GPGGA,091522.00,4742.1599871,N,01618.1002599,E,2,33,0.5,709.0153,M,43.2066,M,1.8,0136*4F
$GNGNS,091522.00,4742.1599871,N,01618.1002599,E,DAAA,33,0.5,709.0153,43.2066,,*5E
$GPGNS,091522.00,,,,,,09,,,,1.8,136*74
$GLGNS,091522.00,,,,,,06,,,,,*74
$GAGNS,091522.00,,,,,,07,,,,,*78
$GBGNS,091522.00,,,,,,11,,,,,*7C
$GPLLQ,091522.00,010125,,M,,M,1,33,0.925,,M*12
$GPVTG,,T,,M,0.00,N,0.01,K,D*27
$GPHDT,,T*1B
$GPTHS,,V*0E
$GPROT,,V*08
$PSSN,HRP,091522.00,010125,,,,,,,00,0,,*6C
$PTNL,AVR,091522.00,,Yaw,,Tilt,,,,0,,00*3A
$GPGSA,A,3,05,13,14,15,17,19,23,24,30,,,,0.8,0.5,0.6*35
$GPGSA,A,3,65,66,67,75,76,77,,,,,,,0.8,0.5,0.6*38
$GPGSA,A,3,02,03,05,07,08,24,25,,,,,,0.8,0.5,0.6*33
$GPGSA,A,3,05,07,10,14,21,26,36,40,42,45,60,,0.8,0.5,0.6*38
$GPGST,091522.00,2.260,0.505,0.313,12.018,0.498,0.324,0.709*69
$GPGBS,091522.00,3.294,1.944,4.783,67,0.0001,7.939,6.355*5F
$GPGRS,091522.00,1,-0.0,0.1,-0.1,-0.2,-0.5,1.5,-0.0,0.5,-0.5,,,*6E
$GPGRS,091522.00,1,0.9,-0.9,7.9,-1.6,-1.1,-6.5,,,,,,*49
$GPGRS,091522.00,1,-0.4,-0.3,0.8,-0.1,-0.1,-0.3,-0.2,,,,,*63
$GPGRS,091522.00,1,1.4,1.4,-0.0,1.7,-0.6,0.0,-0.8,-0.4,-0.1,-1.1,-2.9,*46
$GPGSV,5,1,20,13,82,148,48,05,23,215,44,24,22,275,42,23,20,318,41*78
$GPGSV,5,2,20,30,30,081,43,17,24,118,44,14,59,069,47,15,59,290,48*70
$GPGSV,5,3,20,22,72,116,,20,00,193,,19,10,146,40,36,35,170,44*7C
$GPGSV,5,4,20,58,13,245,36,40,23,133,36,34,31,208,42,49,34,195,44*7C
$GPGSV,5,5,20,57,07,112,36,41,07,108,35,61,03,257,38*4B
$GLGSV,3,1,10,66,60,311,52,84,10,046,,77,12,235,39,65,58,178,49*6B
$GLGSV,3,2,10,75,54,037,51,76,58,246,52,74,04,049,37,67,09,329,45*62
$GLGSV,3,3,10,83,06,348,32,72,05,156,*65
$GAGSV,3,1,11,03,64,140,48,24,15,045,38,05,13,131,38,16,40,053,*60
$GAGSV,3,2,11,02,51,194,48,08,59,301,48,25,63,074,48,07,08,308,38*67
$GAGSV,3,3,11,26,04,318,36,30,03,214,37,33,02,002,34*53
$GBGSV,5,1,20,50,61,233,,05,20,130,38,36,11,063,40,14,32,311,44*60
$GBGSV,5,2,20,40,29,051,43,56,29,084,,21,49,192,50,07,28,061,41*68
$GBGSV,5,3,20,10,35,075,41,42,54,286,49,24,56,229,,26,59,247,50*69
$GBGSV,5,4,20,45,60,060,49,22,06,161,25,29,04,053,,25,07,235,*6E
$GBGSV,5,5,20,33,10,324,,02,04,109,32,09,04,085,36,60,07,112,40*60
$GPGGA,091522.00,,,,,0,00,,,M,,M,,*45
$PTNL,GGK,091522.00,010125,4742.1599871,N,01618.1002599,E,1,33,0.8,EHT752.2219,M*40
$GPGGQ,091522.00,010125,4742.1599871,N,01618.1002599,E,1,33,0.925,709.0153,M*39
$GPGFA,091522.00,4.801,5.811,0.505,0.313,12.018,0.709,,VVV*3B
$GPLLK,091522.00,010125,,M,,M,1,33,0.9,,M*0F
$GNGMP,091522.00,,,,,DAAA,33,0.5,,,,*5E
$GPGMP,091522.00,,,,,,09,,,,1.8,136*74
$GLGMP,091522.00,,,,,,06,,,,,*74
$GAGMP,091522.00,,,,,,07,,,,,*78
$GBGMP,091522.00,,,,,,11,,,,,*7C
$PSSN,SNC,[0,292540000,2347]*4C
$GPZDA,091527.00,01,01,2025,,*6B
$GPDTM,W84,,00.0000000,N,00.0000000,E,00.0000000,W84*5F
$PSSN,TFM,091527.00,,,,*67
$GPRMC,091527.00,A,4742.1599886,N,01618.1002626,E,0.0,,010125,5.1,E,D*1D
$GPGLL,4742.1599886,N,01618.1002626,E,091527.00,A,D*6C
$GPGGA,091527.00,4742.1599886,N,01618.1002626,E,2,33,0.5,709.0143,M,43.2066,M,2.8,0136*47
$GNGNS,091527.00,4742.1599886,N,01618.1002626,E,DAAA,33,0.5,709.0143,43.2066,,*55
$GPGNS,091527.00,,,,,,09,,,,2.8,136*72
$GLGNS,091527.00,,,,,,06,,,,,*71
$GAGNS,091527.00,,,,,,07,,,,,*7D
$GBGNS,091527.00,,,,,,11,,,,,*79
$GPLLQ,091527.00,010125,,M,,M,1,33,0.925,,M*17
$GPVTG,,T,,M,0.01,N,0.02,K,D*25
$GPHDT,,T*1B
$GPTHS,,V*0E
$GPROT,,V*08
$PSSN,HRP,091527.00,010125,,,,,,,00,0,,*69
$PTNL,AVR,091527.00,,Yaw,,Tilt,,,,0,,00*3F
$GPGSA,A,3,05,13,14,15,17,19,23,24,30,,,,0.8,0.5,0.6*35
$GPGSA,A,3,65,66,67,75,76,77,,,,,,,0.8,0.5,0.6*38
$GPGSA,A,3,02,03,05,07,08,24,25,,,,,,0.8,0.5,0.6*33
$GPGSA,A,3,05,07,10,14,21,26,36,40,42,45,60,,0.8,0.5,0.6*38
$GPGST,091527.00,2.290,0.506,0.309,13.043,0.498,0.322,0.709*62
$GPGBS,091527.00,3.337,1.974,4.847,67,0.0001,7.475,6.355*53
$GPGRS,091527.00,1,-0.4,0.3,-0.0,-0.2,-0.7,1.5,-0.1,0.6,-0.3,,,*6A
$GPGRS,091527.00,1,1.2,-0.8,7.5,-2.2,-1.3,-6.7,,,,,,*4C
$GPGRS,091527.00,1,-0.4,-0.0,0.9,-0.2,-0.2,0.2,-0.2,,,,,*48
$GPGRS,091527.00,1,1.5,1.3,0.1,2.7,-0.4,-0.0,-0.7,-0.5,-0.0,-1.3,-2.9,*48
$GPGSV,5,1,20,13,82,148,49,05,23,215,43,24,22,275,42,23,20,318,41*7E
$GPGSV,5,2,20,30,30,081,43,17,24,118,44,14,59,069,47,15,59,290,49*71
$GPGSV,5,3,20,22,72,116,,20,00,193,,19,10,146,40,36,35,170,44*7C
$GPGSV,5,4,20,58,13,245,36,40,23,133,36,34,31,208,42,49,34,195,44*7C
$GPGSV,5,5,20,57,07,112,36,41,07,108,35,61,03,257,38*4B
$GLGSV,3,1,10,66,60,311,52,84,10,046,,77,12,235,38,65,58,178,49*6A
$GLGSV,3,2,10,75,54,037,51,76,58,246,52,74,04,049,36,67,09,329,44*62
$GLGSV,3,3,10,83,06,348,33,72,05,156,*64
$GAGSV,3,1,11,03,64,140,48,24,15,045,38,05,13,131,38,16,40,053,*60
$GAGSV,3,2,11,02,51,194,48,08,59,301,48,25,63,074,48,07,08,308,38*67
$GAGSV,3,3,11,26,04,318,37,30,03,214,37,33,02,002,35*53
$GBGSV,5,1,20,50,61,233,,05,20,130,38,36,11,063,40,14,32,311,44*60
$GBGSV,5,2,20,40,29,051,43,56,29,084,,21,49,192,50,07,28,061,41*68
$GBGSV,5,3,20,10,35,075,41,42,54,286,49,24,56,229,,26,59,247,50*69
$GBGSV,5,4,20,45,60,060,49,22,06,161,25,29,04,053,,25,07,235,*6E
$GBGSV,5,5,20,33,10,324,,02,04,109,32,09,04,085,36,60,07,112,40*60
$GPGGA,091527.00,,,,,0,00,,,M,,M,,*40
$PTNL,GGK,091527.00,010125,4742.1599886,N,01618.1002626,E,1,33,0.8,EHT752.2208,M*4A
$GPGGQ,091527.00,010125,4742.1599886,N,01618.1002626,E,1,33,0.925,709.0143,M*32
$GPGFA,091527.00,4.814,5.817,0.506,0.309,13.043,0.709,,VVV*3B
$GPLLK,091527.00,010125,,M,,M,1,33,0.9,,M*0A
$GNGMP,091527.00,,,,,DAAA,33,0.5,,,,*5B
$GPGMP,091527.00,,,,,,09,,,,2.8,136*72
$GLGMP,091527.00,,,,,,06,,,,,*71
$GAGMP,091527.00,,,,,,07,,,,,*7D
$GBGMP,091527.00,,,,,,11,,,,,*79
$PSSN,SNC,[0,292545000,2347]*49
$GPZDA,091532.00,01,01,2025,,*6F
$GPDTM,W84,,00.0000000,N,00.0000000,E,00.0000000,W84*5F
$PSSN,TFM,091532.00,,,,*63
$GPRMC,091532.00,A,4742.1599875,N,01618.1002610,E,0.0,,010125,5.1,E,D*10
$GPGLL,4742.1599875,N,01618.1002610,E,091532.00,A,D*61
$GPGGA,091532.00,4742.1599875,N,01618.1002610,E,2,33,0.5,709.0123,M,43.2066,M,2.4,0136*40
$GNGNS,091532.00,4742.1599875,N,01618.1002610,E,DAAA,33,0.5,709.0123,43.2066,,*5E
$GPGNS,091532.00,,,,,,09,,,,2.4,136*7A
$GLGNS,091532.00,,,,,,06,,,,,*75
$GAGNS,091532.00,,,,,,07,,,,,*79
$GBGNS,091532.00,,,,,,11,,,,,*7D
$GPLLQ,091532.00,010125,,M,,M,1,33,0.935,,M*12
$GPVTG,,T,,M,0.01,N,0.01,K,D*26
$GPHDT,,T*1B
$GPTHS,,V*0E
$GPROT,,V*08
$PSSN,HRP,091532.00,010125,,,,,,,00,0,,*6D
$PTNL,AVR,091532.00,,Yaw,,Tilt,,,,0,,00*3B
$GPGSA,A,3,05,13,14,15,17,19,23,24,30,,,,0.8,0.5,0.6*35
$GPGSA,A,3,65,66,67,75,76,77,,,,,,,0.8,0.5,0.6*38
$GPGSA,A,3,02,03,05,07,08,24,25,,,,,,0.8,0.5,0.6*33
$GPGSA,A,3,05,07,10,14,21,26,36,40,42,45,60,,0.8,0.5,0.6*38
$GPGST,091532.00,2.270,0.511,0.317,13.719,0.502,0.331,0.715*64
$GPGBS,091532.00,3.323,1.883,4.877,77,0.0001,-7.287,6.356*7C
$GPGRS,091532.00,1,-0.7,0.3,0.0,0.1,-0.4,1.2,-0.3,-0.0,-0.1,,,*41
$GPGRS,091532.00,1,1.2,-0.7,7.2,-2.1,-1.2,-7.3,,,,,,*47
$GPGRS,091532.00,1,-0.4,-0.0,1.0,0.1,-0.2,0.3,0.1,,,,,*45
$GPGRS,091532.00,1,2.2,0.9,0.6,1.8,-0.3,0.3,-0.7,-0.5,-0.1,-0.8,-2.6,*65
$GPGSV,5,1,20,13,82,148,48,05,23,215,42,24,22,275,41,23,20,318,41*7D
$GPGSV,5,2,20,30,30,081,44,17,24,118,43,14,59,069,47,15,59,290,49*71
$GPGSV,5,3,20,22,72,115,,20,00,193,,19,10,146,40,36,35,170,44*7F
$GPGSV,5,4,20,58,13,245,36,40,23,133,36,34,31,208,42,49,34,195,44*7C
$GPGSV,5,5,20,57,07,112,36,41,07,108,35,61,03,257,38*4B
$GLGSV,3,1,10,66,60,311,52,84,10,046,,77,12,235,38,65,58,178,49*6A
$GLGSV,3,2,10,75,54,037,51,76,58,246,52,74,04,049,35,67,09,329,45*60
$GLGSV,3,3,10,83,06,348,33,72,05,156,*64
$GAGSV,3,1,11,03,64,140,48,24,15,045,39,05,13,131,38,16,40,053,*61
$GAGSV,3,2,11,02,51,194,48,08,59,301,48,25,63,074,48,07,08,308,37*68
$GAGSV,3,3,11,26,04,318,37,30,03,214,37,33,02,002,34*52
$GBGSV,5,1,20,50,61,233,,33,10,324,,36,11,063,40,05,20,130,38*63
$GBGSV,5,2,20,40,29,051,43,14,32,311,44,07,28,061,41,56,29,084,*6E
$GBGSV,5,3,20,21,49,192,50,10,35,075,41,42,54,286,49,24,56,229,*64
$GBGSV,5,4,20,26,59,248,50,45,60,060,50,25,07,235,,09,04,085,36*6E
$GBGSV,5,5,20,29,05,053,,02,04,109,32,22,06,161,25,60,07,112,40*6E
$GPGGA,091532.00,,,,,0,00,,,M,,M,,*44
$PTNL,GGK,091532.00,010125,4742.1599875,N,01618.1002610,E,1,33,0.8,EHT752.2189,M*4D
$GPGGQ,091532.00,010125,4742.1599875,N,01618.1002610,E,1,33,0.935,709.0123,M*38
$GPGFA,091532.00,4.860,5.866,0.511,0.317,13.719,0.715,,VVV*36
$GPLLK,091532.00,010125,,M,,M,1,33,0.9,,M*0E
$GNGMP,091532.00,,,,,DAAA,33,0.5,,,,*5F
$GPGMP,091532.00,,,,,,09,,,,2.4,136*7A
$GLGMP,091532.00,,,,,,06,,,,,*75
$GAGMP,091532.00,,,,,,07,,,,,*79
$GBGMP,091532.00,,,,,,11,,,,,*7D
$PSSN,SNC,[0,292550000,2347]*4D
$GPZDA,091537.00,01,01,2025,,*6A
$GPDTM,W84,,00.0000000,N,00.0000000,E,00.0000000,W84*5F
$PSSN,TFM,091537.00,,,,*66
$GPRMC,091537.00,A,4742.1599863,N,01618.1002596,E,0.0,,010125,5.1,E,D*1F
$GPGLL,4742.1599863,N,01618.1002596,E,091537.00,A,D*6E
$GPGGA,091537.00,4742.1599863,N,01618.1002596,E,2,33,0.5,709.0059,M,43.2066,M,3.0,0136*46
$GNGNS,091537.00,4742.1599863,N,01618.1002596,E,DAAA,33,0.5,709.0059,43.2066,,*5D
$GPGNS,091537.00,,,,,,09,,,,3.0,136*7A
$GLGNS,091537.00,,,,,,06,,,,,*70
$GAGNS,091537.00,,,,,,07,,,,,*7C
$GBGNS,091537.00,,,,,,11,,,,,*78
$GPLLQ,091537.00,010125,,M,,M,1,33,0.929,,M*1A
$GPVTG,,T,,M,0.00,N,0.01,K,D*27
$GPHDT,,T*1B
$GPTHS,,V*0E
$GPROT,,V*08
$PSSN,HRP,091537.00,010125,,,,,,,00,0,,*68
$PTNL,AVR,091537.00,,Yaw,,Tilt,,,,0,,00*3E
$GPGSA,A,3,05,13,14,15,17,19,23,24,30,,,,0.8,0.5,0.6*35
$GPGSA,A,3,65,66,67,75,76,77,,,,,,,0.8,0.5,0.6*38
$GPGSA,A,3,02,03,05,07,08,24,25,,,,,,0.8,0.5,0.6*33
$GPGSA,A,3,05,07,10,14,21,26,36,40,42,45,60,,0.8,0.5,0.6*38
$GPGST,091537.00,2.560,0.507,0.318,12.739,0.500,0.330,0.710*6A
$GPGBS,091537.00,3.338,1.939,4.946,67,0.0001,8.487,6.353*50
$GPGRS,091537.00,1,-0.6,0.5,0.1,0.0,-0.9,1.3,-0.3,0.1,-0.2,,,*60
$GPGRS,091537.00,1,1.5,-0.7,8.5,-2.0,-1.2,-7.9,,,,,,*46
$GPGRS,091537.00,1,-0.3,0.2,1.4,-0.0,0.1,0.5,0.0,,,,,*69
$GPGRS,091537.00,1,2.1,0.8,1.6,2.0,-0.2,0.2,-0.9,-0.4,0.1,-0.7,-3.0,*42
$GPGSV,5,1,20,13,82,148,48,05,23,215,43,24,22,275,41,19,10,146,40*7E
$GPGSV,5,2,20,30,30,081,43,23,20,318,41,17,24,118,42,14,59,069,47*75
$GPGSV,5,3,20,15,59,290,49,22,72,115,,20,00,193,,36,35,170,44*7F
$GPGSV,5,4,20,58,13,245,36,40,23,133,37,34,31,208,42,49,34,195,44*7D
$GPGSV,5,5,20,57,07,112,36,41,07,108,35,61,03,257,38*4B
$GLGSV,3,1,10,66,60,311,52,84,10,046,,77,12,235,39,65,58,178,49*6B
$GLGSV,3,2,10,75,54,037,50,76,58,246,52,74,04,049,36,67,09,329,45*62
$GLGSV,3,3,10,83,06,348,32,72,05,156,*65
$GAGSV,3,1,11,03,64,140,48,24,15,045,39,05,13,131,38,16,40,053,*61
$GAGSV,3,2,11,02,52,194,47,08,59,301,47,25,63,074,48,07,08,308,37*6B
$GAGSV,3,3,11,26,04,318,37,30,04,214,37,33,02,002,35*54
$GBGSV,5,1,20,50,61,233,,33,10,324,,36,11,063,39,05,20,130,38*6D
$GBGSV,5,2,20,40,29,051,43,14,32,311,44,07,28,061,41,56,29,084,*6E
$GBGSV,5,3,20,21,49,192,50,10,35,075,41,42,54,285,49,24,56,229,*67
$GBGSV,5,4,20,26,59,248,50,45,60,060,49,25,07,235,,09,04,085,36*66
$GBGSV,5,5,20,29,05,053,,02,04,109,32,22,06,161,24,60,07,112,40*6F
$GPGGA,091537.00,,,,,0,00,,,M,,M,,*41
$PTNL,GGK,091537.00,010125,4742.1599863,N,01618.1002596,E,1,33,0.8,EHT752.2124,M*45
$GPGGQ,091537.00,010125,4742.1599863,N,01618.1002596,E,1,33,0.929,709.0059,M*36
$GPGFA,091537.00,4.821,5.826,0.507,0.318,12.739,0.710,,VVV*3C
$GPLLK,091537.00,010125,,M,,M,1,33,0.9,,M*0B
$GNGMP,091537.00,,,,,DAAA,33,0.5,,,,*5A
$GPGMP,091537.00,,,,,,09,,,,3.0,136*7A
$GLGMP,091537.00,,,,,,06,,,,,*70
$GAGMP,091537.00,,,,,,07,,,,,*7C
$GBGMP,091537.00,,,,,,11,,,,,*78
$PSSN,SNC,[0,292555000,2347]*48
$GPZDA,091542.00,01,01,2025,,*68
$GPDTM,W84,,00.0000000,N,00.0000000,E,00.0000000,W84*5F
$PSSN,TFM,091542.00,,,,*64
$GPRMC,091542.00,A,4742.1599881,N,01618.1002583,E,0.0,,010125,5.1,E,D*15
$GPGLL,4742.1599881,N,01618.1002583,E,091542.00,A,D*64
$GPGGA,091542.00,4742.1599881,N,01618.1002583,E,2,33,0.5,709.0003,M,43.2066,M,1.8,0136*49
$GNGNS,091542.00,4742.1599881,N,01618.1002583,E,DAAA,33,0.5,709.0003,43.2066,,*58
$GPGNS,091542.00,,,,,,09,,,,1.8,136*72
$GLGNS,091542.00,,,,,,06,,,,,*72
$GAGNS,091542.00,,,,,,07,,,,,*7E
$GBGNS,091542.00,,,,,,11,,,,,*7A
$GPLLQ,091542.00,010125,,M,,M,1,33,0.932,,M*12
$GPVTG,,T,,M,0.00,N,0.01,K,D*27
$GPHDT,,T*1B
$GPTHS,,V*0E
$GPROT,,V*08
$PSSN,HRP,091542.00,010125,,,,,,,00,0,,*6A
$PTNL,AVR,091542.00,,Yaw,,Tilt,,,,0,,00*3C
$GPGSA,A,3,05,13,14,15,17,19,23,24,30,,,,0.8,0.5,0.6*35
$GPGSA,A,3,65,66,67,75,76,77,,,,,,,0.8,0.5,0.6*38
$GPGSA,A,3,02,03,05,07,08,24,25,,,,,,0.8,0.5,0.6*33
$GPGSA,A,3,05,07,10,14,21,26,36,40,42,45,60,,0.8,0.5,0.6*38
$GPGST,091542.00,2.447,0.509,0.317,13.019,0.501,0.329,0.713*63
$GPGBS,091542.00,3.324,1.909,4.794,77,0.0001,-8.487,6.352*70
$GPGRS,091542.00,1,-0.0,0.4,0.3,-0.1,-0.5,0.6,-0.7,0.1,-0.4,,,*41
$GPGRS,091542.00,1,0.8,-0.8,7.2,-2.4,-1.2,-8.5,,,,,,*48
$GPGRS,091542.00,1,-0.5,0.0,1.2,0.1,0.1,0.2,0.0,,,,,*42
$GPGRS,091542.00,1,1.5,0.9,1.5,2.2,-0.3,0.2,-0.7,-0.6,-0.1,-1.1,-2.7,*66
$GPGSV,5,1,20,13,82,148,48,05,23,215,43,24,22,275,41,19,10,146,40*7E
$GPGSV,5,2,20,30,30,081,43,23,20,318,41,17,24,118,42,14,59,069,47*75
$GPGSV,5,3,20,15,59,290,49,22,72,115,,20,00,193,,36,35,170,44*7F
$GPGSV,5,4,20,58,13,245,37,40,23,133,37,34,31,208,42,49,34,195,44*7C
$GPGSV,5,5,20,57,07,112,36,41,07,108,35,61,03,257,38*4B
$GLGSV,3,1,10,66,60,311,53,84,10,046,,77,12,235,39,65,58,178,49*6A
$GLGSV,3,2,10,75,54,037,51,76,58,246,52,74,04,049,36,67,09,329,45*63
$GLGSV,3,3,10,83,06,347,34,72,05,156,*6C
$GAGSV,3,1,11,03,64,140,48,24,15,045,39,05,13,131,38,16,40,053,*61
$GAGSV,3,2,11,02,52,194,47,08,59,301,47,25,63,074,48,07,08,308,37*6B
$GAGSV,3,3,11,26,04,318,36,30,04,214,37,33,02,002,34*54
$GBGSV,5,1,20,50,61,233,,33,10,324,,36,11,063,39,05,20,130,38*6D
$GBGSV,5,2,20,40,29,051,43,14,32,311,44,07,28,061,41,56,29,084,*6E
$GBGSV,5,3,20,21,49,192,50,10,35,075,41,42,54,285,49,24,56,229,*67
$GBGSV,5,4,20,26,59,248,50,45,60,060,49,25,07,235,,09,04,085,35*65
$GBGSV,5,5,20,29,05,053,,02,04,109,32,22,06,161,25,60,07,112,40*6E
$GPGGA,091542.00,,,,,0,00,,,M,,M,,*43
$PTNL,GGK,091542.00,010125,4742.1599881,N,01618.1002583,E,1,33,0.8,EHT752.2069,M*47
$GPGGQ,091542.00,010125,4742.1599881,N,01618.1002583,E,1,33,0.932,709.0003,M*39
$GPGFA,091542.00,4.838,5.849,0.509,0.317,13.019,0.713,,VVV*39
$GPLLK,091542.00,010125,,M,,M,1,33,0.9,,M*09
$GNGMP,091542.00,,,,,DAAA,33,0.5,,,,*58
$GPGMP,091542.00,,,,,,09,,,,1.8,136*72
$GLGMP,091542.00,,,,,,06,,,,,*72
$GAGMP,091542.00,,,,,,07,,,,,*7E
$GBGMP,091542.00,,,,,,11,,,,,*7A
$PSSN,SNC,[0,292560000,2347]*4E
$GPZDA,091547.00,01,01,2025,,*6D
$GPDTM,W84,,00.0000000,N,00.0000000,E,00.0000000,W84*5F
$PSSN,TFM,091547.00,,,,*61
$GPRMC,091547.00,A,4742.1599881,N,01618.1002565,E,0.0,,010125,5.1,E,D*18
$GPGLL,4742.1599881,N,01618.1002565,E,091547.00,A,D*69
$GPGGA,091547.00,4742.1599881,N,01618.1002565,E,2,33,0.5,708.9998,M,43.2066,M,2.8,0136*44
$GNGNS,091547.00,4742.1599881,N,01618.1002565,E,DAAA,33,0.5,708.9998,43.2066,,*56
$GPGNS,091547.00,,,,,,09,,,,2.8,136*74
$GLGNS,091547.00,,,,,,06,,,,,*77
$GAGNS,091547.00,,,,,,07,,,,,*7B
$GBGNS,091547.00,,,,,,11,,,,,*7F
$GPLLQ,091547.00,010125,,M,,M,1,33,0.931,,M*14
$GPVTG,,T,,M,0.01,N,0.01,K,D*26
$GPHDT,,T*1B
$GPTHS,,V*0E
$GPROT,,V*08
$PSSN,HRP,091547.00,010125,,,,,,,00,0,,*6F
$PTNL,AVR,091547.00,,Yaw,,Tilt,,,,0,,00*39
$GPGSA,A,3,05,13,14,15,17,19,23,24,30,,,,0.8,0.5,0.6*35
$GPGSA,A,3,65,66,67,75,76,77,,,,,,,0.8,0.5,0.6*38
$GPGSA,A,3,02,03,05,07,08,24,25,,,,,,0.8,0.5,0.6*33
$GPGSA,A,3,05,07,10,14,21,26,36,40,42,45,60,,0.8,0.5,0.6*38
$GPGST,091547.00,2.232,0.510,0.313,14.070,0.501,0.328,0.714*60
$GPGBS,091547.00,3.360,1.938,4.857,77,0.0001,-7.343,6.353*76
$GPGRS,091547.00,1,-0.6,0.2,0.1,-0.2,0.0,0.7,0.1,0.1,-0.2,,,*41
$GPGRS,091547.00,1,0.8,-0.7,6.9,-1.9,-1.0,-7.3,,,,,,*4D
$GPGRS,091547.00,1,-0.5,0.2,1.0,0.1,-0.1,-0.1,-0.2,,,,,*6B
$GPGRS,091547.00,1,1.2,0.8,1.7,2.1,-0.5,0.2,-1.2,-0.8,-0.2,-1.0,-2.6,*6B
$GPGSV,5,1,20,13,82,148,49,05,23,215,43,24,22,275,41,19,10,146,40*7F
$GPGSV,5,2,20,30,30,081,43,23,20,318,41,17,24,118,43,14,58,069,47*75
$GPGSV,5,3,20,15,59,290,49,22,72,115,,20,00,193,,36,35,170,44*7F
$GPGSV,5,4,20,58,13,245,36,40,23,133,37,34,31,208,42,49,34,195,44*7D
$GPGSV,5,5,20,57,07,112,36,41,07,108,35,61,03,257,38*4B
$GLGSV,3,1,10,66,60,311,52,84,10,046,,77,13,235,39,65,58,178,49*6A
$GLGSV,3,2,10,75,54,037,51,76,58,246,52,74,04,049,37,67,09,329,46*61
$GLGSV,3,3,10,83,06,347,34,72,05,156,*6C
$GAGSV,3,1,11,03,64,140,48,24,15,045,39,05,13,131,38,16,40,053,*61
$GAGSV,3,2,11,02,52,194,48,08,59,301,47,25,63,074,48,07,08,308,38*6B
$GAGSV,3,3,11,26,04,318,36,30,04,214,36,33,02,002,34*55
$GBGSV,5,1,20,50,61,233,,33,10,324,,36,11,063,40,05,20,130,38*63
$GBGSV,5,2,20,40,29,051,43,14,32,311,44,07,29,061,41,56,29,084,*6F
$GBGSV,5,3,20,21,49,192,50,10,35,075,41,42,54,285,49,24,56,229,*67
$GBGSV,5,4,20,26,59,248,50,45,60,060,49,25,07,235,,09,04,085,35*65
$GBGSV,5,5,20,29,05,053,,02,04,109,32,22,06,161,25,60,07,112,40*6E
$GPGGA,091547.00,,,,,0,00,,,M,,M,,*46
$PTNL,GGK,091547.00,010125,4742.1599881,N,01618.1002565,E,1,33,0.8,EHT752.2063,M*40
$GPGGQ,091547.00,010125,4742.1599881,N,01618.1002565,E,1,33,0.931,708.9998,M*34
$GPGFA,091547.00,4.852,5.851,0.510,0.313,14.070,0.714,,VVV*3A
$GPLLK,091547.00,010125,,M,,M,1,33,0.9,,M*0C
$GNGMP,091547.00,,,,,DAAA,33,0.5,,,,*5D
$GPGMP,091547.00,,,,,,09,,,,2.8,136*74
$GLGMP,091547.00,,,,,,06,,,,,*77
$GAGMP,091547.00,,,,,,07,,,,,*7B
$GBGMP,091547.00,,,,,,11,,,,,*7F
$PSSN,SNC,[0,292565000,2347]*4B
$GPZDA,091552.00,01,01,2025,,*69
$GPDTM,W84,,00.0000000,N,00.0000000,E,00.0000000,W84*5F
$PSSN,TFM,091552.00,,,,*65
$GPRMC,091552.00,A,4742.1599865,N,01618.1002538,E,0.0,,010125,5.1,E,D*1E
$GPGLL,4742.1599865,N,01618.1002538,E,091552.00,A,D*6F
$GPGGA,091552.00,4742.1599865,N,01618.1002538,E,2,33,0.5,708.9979,M,43.2066,M,2.4,0136*41
$GNGNS,091552.00,4742.1599865,N,01618.1002538,E,DAAA,33,0.5,708.9979,43.2066,,*5F
$GPGNS,091552.00,,,,,,09,,,,2.4,136*7C
$GLGNS,091552.00,,,,,,06,,,,,*73
$GAGNS,091552.00,,,,,,07,,,,,*7F
$GBGNS,091552.00,,,,,,11,,,,,*7B
$GPLLQ,091552.00,010125,,M,,M,1,33,0.981,,M*1B
$GPVTG,,T,,M,0.00,N,0.00,K,D*26
$GPHDT,,T*1B
$GPTHS,,V*0E
$GPROT,,V*08
$PSSN,HRP,091552.00,010125,,,,,,,00,0,,*6B
$PTNL,AVR,091552.00,,Yaw,,Tilt,,,,0,,00*3D
$GPGSA,A,3,05,13,14,15,17,19,23,24,30,,,,0.8,0.5,0.6*35
$GPGSA,A,3,65,66,67,75,76,77,,,,,,,0.8,0.5,0.6*38
$GPGSA,A,3,02,03,05,07,08,24,25,,,,,,0.8,0.5,0.6*33
$GPGSA,A,3,05,07,10,14,21,26,36,40,42,45,60,,0.8,0.5,0.6*38
$GPGST,091552.00,2.489,0.536,0.332,13.705,0.527,0.347,0.751*6B
$GPGBS,091552.00,3.316,1.878,4.883,67,0.0001,8.441,6.351*5B
$GPGRS,091552.00,1,-0.6,0.4,0.1,-0.3,-0.1,1.4,0.4,-0.5,-0.2,,,*40
$GPGRS,091552.00,1,1.9,-1.0,8.4,-1.8,-1.2,-7.3,,,,,,*4F
$GPGRS,091552.00,1,-0.3,-0.0,0.8,-0.1,-0.2,-0.4,-0.2,,,,,*64
$GPGRS,091552.00,1,1.6,1.2,1.6,2.5,-0.3,0.2,-1.2,-0.8,-0.4,-1.1,-2.7,*65
$GPGSV,5,1,20,13,82,148,48,05,23,215,44,24,22,275,40,19,10,146,40*78
$GPGSV,5,2,20,30,30,081,44,23,20,318,42,17,24,118,43,14,58,069,47*71
$GPGSV,5,3,20,15,59,290,49,22,72,115,,20,00,193,,36,35,170,44*7F
$GPGSV,5,4,20,58,13,245,36,40,23,133,37,34,31,208,42,49,34,195,44*7D
$GPGSV,5,5,20,57,07,112,36,41,07,108,35,61,03,257,38*4B
$GLGSV,3,1,10,66,60,311,52,84,10,046,,77,13,235,39,65,58,178,50*62
$GLGSV,3,2,10,75,54,037,51,76,58,246,52,74,04,049,37,67,09,329,45*62
$GLGSV,3,3,10,83,06,347,33,72,05,156,*6B
$GAGSV,3,1,11,03,64,141,48,24,15,045,39,05,13,131,38,16,40,053,*60
$GAGSV,3,2,11,02,52,194,48,08,59,301,47,25,63,074,48,07,08,308,38*6B
$GAGSV,3,3,11,26,03,318,37,30,04,214,36,33,02,002,34*53
$GBGSV,5,1,20,50,61,233,,33,10,324,,36,11,063,40,05,20,130,38*63
$GBGSV,5,2,20,40,29,051,43,14,32,311,43,07,29,061,41,56,29,084,*68
$GBGSV,5,3,20,21,49,192,50,10,35,075,41,42,54,285,49,24,56,229,*67
$GBGSV,5,4,20,26,59,248,50,45,60,060,49,25,07,235,,09,04,085,35*65
$GBGSV,5,5,20,29,05,053,,02,04,109,31,22,06,161,24,60,07,112,40*6C
$GPGGA,091552.00,,,,,0,00,,,M,,M,,*42
$PTNL,GGK,091552.00,010125,4742.1599865,N,01618.1002538,E,1,33,0.8,EHT752.2044,M*43
$GPGGQ,091552.00,010125,4742.1599865,N,01618.1002538,E,1,33,0.981,708.9979,M*36
$GPGFA,091552.00,5.097,6.157,0.536,0.332,13.705,0.751,,VVV*36
$GPLLK,091552.00,010125,,M,,M,1,33,0.9,,M*08
$GNGMP,091552.00,,,,,DAAA,33,0.5,,,,*59
$GPGMP,091552.00,,,,,,09,,,,2.4,136*7C
$GLGMP,091552.00,,,,,,06,,,,,*73
$GAGMP,091552.00,,,,,,07,,,,,*7F
$GBGMP,091552.00,,,,,,11,,,,,*7B
$PSSN,SNC,[0,292570000,2347]*4F
$GPZDA,091557.00,01,01,2025,,*6C
$GPDTM,W84,,00.0000000,N,00.0000000,E,00.0000000,W84*5F
$PSSN,TFM,091557.00,,,,*60
$GPRMC,091557.00,A,4742.1599845,N,01618.1002500,E,0.0,,010125,5.1,E,D*12
$GPGLL,4742.1599845,N,01618.1002500,E,091557.00,A,D*63
$GPGGA,091557.00,4742.1599845,N,01618.1002500,E,2,33,0.5,709.0009,M,43.2066,M,3.0,0136*4E
$GNGNS,091557.00,4742.1599845,N,01618.1002500,E,DAAA,33,0.5,709.0009,43.2066,,*55
$GPGNS,091557.00,,,,,,09,,,,3.0,136*7C
$GLGNS,091557.00,,,,,,06,,,,,*76
$GAGNS,091557.00,,,,,,07,,,,,*7A
$GBGNS,091557.00,,,,,,11,,,,,*7E
$GPLLQ,091557.00,010125,,M,,M,1,33,0.929,,M*1C
$GPVTG,,T,,M,0.00,N,0.01,K,D*27
$GPHDT,,T*1B
$GPTHS,,V*0E
$GPROT,,V*08
$PSSN,HRP,091557.00,010125,,,,,,,00,0,,*6E
$PTNL,AVR,091557.00,,Yaw,,Tilt,,,,0,,00*38
$GPGSA,A,3,05,13,14,15,17,19,23,24,30,,,,0.8,0.5,0.6*35
$GPGSA,A,3,65,66,67,75,76,77,,,,,,,0.8,0.5,0.6*38
$GPGSA,A,3,02,03,05,07,08,24,25,,,,,,0.8,0.5,0.6*33
$GPGSA,A,3,05,07,10,14,21,26,36,40,42,45,60,,0.8,0.5,0.6*38
$GPGST,091557.00,2.347,0.507,0.318,12.726,0.499,0.330,0.711*61
$GPGBS,091557.00,3.332,1.933,4.952,67,0.0001,8.012,6.351*59
$GPGRS,091557.00,1,-0.7,0.2,-0.1,-0.4,-0.1,1.3,0.4,0.2,-0.2,,,*45
$GPGRS,091557.00,1,1.5,-0.8,8.0,-1.9,-1.3,-6.7,,,,,,*4E
$GPGRS,091557.00,1,-0.4,-0.0,1.2,-0.1,-0.0,-0.3,-0.1,,,,,*6B
$GPGRS,091557.00,1,1.8,0.7,1.1,2.1,-0.4,0.1,-0.9,-0.9,0.1,-1.1,-3.0,*48
$GPGSV,5,1,19,13,82,148,48,05,23,215,43,24,22,275,41,19,10,146,40*74
$GPGSV,5,2,19,30,30,081,44,23,20,318,42,17,24,118,43,14,58,069,47*7B
$GPGSV,5,3,19,15,59,290,49,22,72,115,,36,35,170,44,58,13,245,36*75
$GPGSV,5,4,19,40,23,133,37,34,31,208,42,49,34,195,44,57,07,112,37*7D
$GPGSV,5,5,19,41,07,108,35,61,03,257,38*73
$GLGSV,3,1,10,66,60,311,52,84,10,046,,77,13,235,38,65,58,178,49*6B
$GLGSV,3,2,10,75,54,037,51,76,58,246,52,74,04,049,37,67,09,329,45*62
$GLGSV,3,3,10,83,06,347,33,72,05,156,19*63
$GAGSV,3,1,11,03,64,141,48,24,15,045,38,05,13,131,38,16,40,053,*61
$GAGSV,3,2,11,02,52,194,48,08,59,301,48,25,63,074,48,07,08,308,37*6B
$GAGSV,3,3,11,26,03,318,37,30,04,214,36,33,02,002,35*52
$GBGSV,5,1,20,50,61,233,,33,10,323,,36,11,063,41,05,20,130,38*65
$GBGSV,5,2,20,40,29,051,43,14,32,311,44,07,29,061,41,56,29,084,*6F
$GBGSV,5,3,20,21,49,192,50,10,35,075,41,42,54,285,49,24,56,229,*67
$GBGSV,5,4,20,26,59,248,50,45,60,060,50,25,07,235,,09,04,085,35*6D
$GBGSV,5,5,20,29,05,053,,02,04,109,32,22,06,161,23,60,07,112,40*68
$GPGGA,091557.00,,,,,0,00,,,M,,M,,*47
$PTNL,GGK,091557.00,010125,4742.1599845,N,01618.1002500,E,1,33,0.8,EHT752.2075,M*4D
$GPGGQ,091557.00,010125,4742.1599845,N,01618.1002500,E,1,33,0.929,709.0009,M*3E
$GPGFA,091557.00,4.819,5.828,0.507,0.318,12.726,0.711,,VVV*30
$GPLLK,091557.00,010125,,M,,M,1,33,0.9,,M*0D
$GNGMP,091557.00,,,,,DAAA,33,0.5,,,,*5C
$GPGMP,091557.00,,,,,,09,,,,3.0,136*7C
$GLGMP,091557.00,,,,,,06,,,,,*76
$GAGMP,091557.00,,,,,,07,,,,,*7A
$GBGMP,091557.00,,,,,,11,,,,,*7E
$PSSN,SNC,[0,292575000,2347]*4A
$GPZDA,091602.00,01,01,2025,,*6F
$GPDTM,W84,,00.0000000,N,00.0000000,E,00.0000000,W84*5F
$PSSN,TFM,091602.00,,,,*63
$GPRMC,091602.00,A,4742.1599830,N,01618.1002479,E,0.0,,010125,5.1,E,D*1C
$GPGLL,4742.1599830,N,01618.1002479,E,091602.00,A,D*6D
$GPGGA,091602.00,4742.1599830,N,01618.1002479,E,2,33,0.5,708.9996,M,43.2066,M,1.8,0136*4D
$GNGNS,091602.00,4742.1599830,N,01618.1002479,E,DAAA,33,0.5,708.9996,43.2066,,*5C
$GPGNS,091602.00,,,,,,09,,,,1.8,136*75
$GLGNS,091602.00,,,,,,06,,,,,*75
$GAGNS,091602.00,,,,,,07,,,,,*79
$GBGNS,091602.00,,,,,,11,,,,,*7D
$GPLLQ,091602.00,010125,,M,,M,1,33,0.932,,M*15
$GPVTG,,T,,M,0.00,N,0.00,K,D*26
$GPHDT,,T*1B
$GPTHS,,V*0E
$GPROT,,V*08
$PSSN,HRP,091602.00,010125,,,,,,,00,0,,*6D
$PTNL,AVR,091602.00,,Yaw,,Tilt,,,,0,,00*3B
$GPGSA,A,3,05,13,14,15,17,19,23,24,30,,,,0.8,0.5,0.6*35
$GPGSA,A,3,65,66,67,75,76,77,,,,,,,0.8,0.5,0.6*38
$GPGSA,A,3,02,03,05,07,08,24,25,,,,,,0.8,0.5,0.6*33
$GPGSA,A,3,05,07,10,14,21,26,36,40,42,45,60,,0.8,0.5,0.6*38
$GPGST,091602.00,2.247,0.509,0.316,13.002,0.501,0.329,0.714*6E
$GPGBS,091602.00,3.319,1.904,4.797,77,0.0001,-7.261,6.352*76
$GPGRS,091602.00,1,-0.9,0.5,0.2,0.0,-0.3,0.9,-0.3,0.0,-0.1,,,*6A
$GPGRS,091602.00,1,1.0,-0.7,6.9,-2.1,-0.9,-7.3,,,,,,*45
$GPGRS,091602.00,1,-0.4,0.1,1.3,0.2,0.2,-0.1,0.1,,,,,*6B
$GPGRS,091602.00,1,1.9,0.6,0.4,2.4,-0.2,0.1,-0.5,-0.7,0.3,-0.8,-2.9,*4C
$GPGSV,5,1,19,13,82,148,48,05,23,215,43,24,22,275,42,19,10,146,40*77
$GPGSV,5,2,19,30,29,081,44,23,20,318,42,17,24,118,43,14,58,069,47*73
$GPGSV,5,3,19,15,59,290,49,22,72,115,,36,35,170,44,58,13,245,36*75
$GPGSV,5,4,19,40,23,133,36,34,31,208,42,49,34,195,44,57,07,112,36*7D
$GPGSV,5,5,19,41,07,108,34,61,03,257,38*72
$GLGSV,3,1,10,66,60,311,52,84,10,046,,77,13,235,39,65,58,178,49*6A
$GLGSV,3,2,10,75,54,037,51,76,58,246,52,74,04,049,36,67,09,329,45*63
$GLGSV,3,3,10,83,06,347,32,72,05,156,*6A
$GAGSV,3,1,11,03,64,141,48,24,15,045,38,05,13,132,38,16,40,053,*62
$GAGSV,3,2,11,02,52,194,47,08,59,301,48,25,63,074,48,07,08,308,38*6B
$GAGSV,3,3,11,26,03,318,36,30,04,214,36,33,02,002,34*52
$GBGSV,5,1,20,50,61,233,,33,10,323,,36,11,063,41,05,20,130,38*65
$GBGSV,5,2,20,40,29,051,43,14,33,311,43,07,29,061,41,56,29,084,*69
$GBGSV,5,3,20,21,49,192,50,10,35,075,41,42,54,285,49,24,56,229,*67
$GBGSV,5,4,20,26,59,248,50,45,60,060,50,25,07,235,,09,04,085,35*6D
$GBGSV,5,5,20,29,05,053,,02,04,109,32,22,06,161,23,60,07,112,40*68
$GPGGA,091602.00,,,,,0,00,,,M,,M,,*44
$PTNL,GGK,091602.00,010125,4742.1599830,N,01618.1002479,E,1,33,0.8,EHT752.2061,M*46
$GPGGQ,091602.00,010125,4742.1599830,N,01618.1002479,E,1,33,0.932,708.9996,M*3D
$GPGFA,091602.00,4.837,5.852,0.509,0.316,13.002,0.714,,VVV*37
$GPLLK,091602.00,010125,,M,,M,1,33,0.9,,M*0E
$GNGMP,091602.00,,,,,DAAA,33,0.5,,,,*5F
$GPGMP,091602.00,,,,,,09,,,,1.8,136*75
$GLGMP,091602.00,,,,,,06,,,,,*75
$GAGMP,091602.00,,,,,,07,,,,,*79
$GBGMP,091602.00,,,,,,11,,,,,*7D
$PSSN,SNC,[0,292580000,2347]*40
$GPZDA,091607.00,01,01,2025,,*6A
$GPDTM,W84,,00.0000000,N,00.0000000,E,00.0000000,W84*5F
$PSSN,TFM,091607.00,,,,*66
$GPRMC,091607.00,A,4742.1599821,N,01618.1002441,E,0.0,,010125,5.1,E,D*12
$GPGLL,4742.1599821,N,01618.1002441,E,091607.00,A,D*63
$GPGGA,091607.00,4742.1599821,N,01618.1002441,E,2,33,0.5,708.9920,M,43.2066,M,2.8,0136*4D
$GNGNS,091607.00,4742.1599821,N,01618.1002441,E,DAAA,33,0.5,708.9920,43.2066,,*5F
$GPGNS,091607.00,,,,,,09,,,,2.8,136*73
$GLGNS,091607.00,,,,,,06,,,,,*70
$GAGNS,091607.00,,,,,,07,,,,,*7C
$GBGNS,091607.00,,,,,,11,,,,,*78
$GPLLQ,091607.00,010125,,M,,M,1,33,0.932,,M*10
$GPVTG,,T,,M,0.00,N,0.00,K,D*26
$GPHDT,,T*1B
$GPTHS,,V*0E
$GPROT,,V*08
$PSSN,HRP,091607.00,010125,,,,,,,00,0,,*68
$PTNL,AVR,091607.00,,Yaw,,Tilt,,,,0,,00*3E
$GPGSA,A,3,05,13,14,15,17,19,23,24,30,,,,0.8,0.5,0.6*35
$GPGSA,A,3,65,66,67,75,76,77,,,,,,,0.8,0.5,0.6*38
$GPGSA,A,3,02,03,05,07,08,24,25,,,,,,0.8,0.5,0.6*33
$GPGSA,A,3,05,07,10,14,21,26,36,40,42,45,60,,0.8,0.5,0.6*38
$GPGST,091607.00,2.374,0.510,0.313,14.047,0.501,0.328,0.714*60
$GPGBS,091607.00,3.355,1.932,4.863,77,0.0001,-7.733,6.349*72
$GPGRS,091607.00,1,-0.7,0.5,0.2,-0.2,-0.4,1.0,-0.5,-0.1,-0.2,,,*68
$GPGRS,091607.00,1,1.3,-1.0,7.6,-2.2,-0.6,-7.7,,,,,,*43
$GPGRS,091607.00,1,-0.3,0.1,1.1,-0.3,0.1,0.2,-0.0,,,,,*46
$GPGRS,091607.00,1,1.3,0.9,0.5,1.9,-0.2,0.1,-0.3,-0.7,-0.0,-1.0,-3.0,*6A
$GPGSV,5,1,19,13,82,148,48,05,23,215,44,24,22,275,42,19,10,146,40*70
$GPGSV,5,2,19,30,29,081,44,23,20,318,42,17,24,118,43,14,58,069,47*73
$GPGSV,5,3,19,15,59,290,48,22,72,114,,36,35,170,44,58,13,245,36*75
$GPGSV,5,4,19,40,23,133,37,34,31,208,42,49,34,195,44,57,07,112,37*7D
$GPGSV,5,5,19,41,07,108,35,61,03,257,38*73
$GLGSV,3,1,10,66,60,311,52,84,10,046,,77,13,235,39,65,58,178,49*6A
$GLGSV,3,2,10,75,54,037,50,76,58,246,52,74,04,049,36,67,09,329,44*63
$GLGSV,3,3,10,83,06,347,32,72,05,156,*6A
$GAGSV,3,1,11,03,64,141,48,24,15,045,38,05,13,132,38,16,40,053,*62
$GAGSV,3,2,11,02,52,194,47,08,59,301,48,25,63,074,48,07,09,308,38*6A
$GAGSV,3,3,11,26,03,318,37,30,04,214,35,33,02,002,34*50
$GBGSV,5,1,20,50,61,233,,33,10,323,,36,11,063,41,05,20,130,38*65
$GBGSV,5,2,20,40,29,051,43,14,33,311,43,07,29,061,41,56,29,084,*69
$GBGSV,5,3,20,21,49,192,50,10,35,075,41,42,54,285,49,24,56,229,*67
$GBGSV,5,4,20,26,59,248,50,45,60,060,49,25,07,235,,09,04,085,35*65
$GBGSV,5,5,20,29,05,053,,02,04,109,32,22,06,161,24,60,07,112,40*6F
$GPGGA,091607.00,,,,,0,00,,,M,,M,,*41
$PTNL,GGK,091607.00,010125,4742.1599821,N,01618.1002441,E,1,33,0.8,EHT752.1985,M*48
$GPGGQ,091607.00,010125,4742.1599821,N,01618.1002441,E,1,33,0.932,708.9920,M*3E
$GPGFA,091607.00,4.851,5.855,0.510,0.313,14.047,0.714,,VVV*3E
$GPLLK,091607.00,010125,,M,,M,1,33,0.9,,M*0B
$GNGMP,091607.00,,,,,DAAA,33,0.5,,,,*5A
$GPGMP,091607.00,,,,,,09,,,,2.8,136*73
$GLGMP,091607.00,,,,,,06,,,,,*70
$GAGMP,091607.00,,,,,,07,,,,,*7C
$GBGMP,091607.00,,,,,,11,,,,,*78
$PSSN,SNC,[0,292585000,2347]*45
$GPZDA,091612.00,01,01,2025,,*6E
$GPDTM,W84,,00.0000000,N,00.0000000,E,00.0000000,W84*5F
$PSSN,TFM,091612.00,,,,*62
$GPRMC,091612.00,A,4742.1599837,N,01618.1002416,E,0.0,,010125,5.1,E,D*13
$GPGLL,4742.1599837,N,01618.1002416,E,091612.00,A,D*62
$GPGGA,091612.00,4742.1599837,N,01618.1002416,E,2,33,0.5,708.9908,M,43.2066,M,2.4,0136*4A
$GNGNS,091612.00,4742.1599837,N,01618.1002416,E,DAAA,33,0.5,708.9908,43.2066,,*54
$GPGNS,091612.00,,,,,,09,,,,2.4,136*7B
$GLGNS,091612.00,,,,,,06,,,,,*74
$GAGNS,091612.00,,,,,,07,,,,,*78
$GBGNS,091612.00,,,,,,11,,,,,*7C
$GPLLQ,091612.00,010125,,M,,M,1,33,0.935,,M*13
$GPVTG,,T,,M,0.01,N,0.01,K,D*26
$GPHDT,,T*1B
$GPTHS,,V*0E
$GPROT,,V*08
$PSSN,HRP,091612.00,010125,,,,,,,00,0,,*6C
$PTNL,AVR,091612.00,,Yaw,,Tilt,,,,0,,00*3A
$GPGSA,A,3,05,13,14,15,17,19,23,24,30,,,,0.8,0.5,0.6*35
$GPGSA,A,3,65,66,67,75,76,77,,,,,,,0.8,0.5,0.6*38
$GPGSA,A,3,02,03,05,07,08,24,25,,,,,,0.8,0.5,0.6*33
$GPGSA,A,3,05,07,10,14,21,26,36,40,42,45,60,,0.8,0.5,0.6*38
$GPGST,091612.00,2.256,0.511,0.316,13.677,0.502,0.330,0.716*6B
$GPGBS,091612.00,3.310,1.873,4.888,67,0.0001,7.762,6.350*56
$GPGRS,091612.00,1,-0.8,0.5,0.0,-0.1,-0.1,1.4,-0.5,0.0,-0.3,,,*4E
$GPGRS,091612.00,1,1.3,-0.7,7.8,-2.0,-0.9,-6.5,,,,,,*41
$GPGRS,091612.00,1,-0.1,-0.0,1.2,0.0,0.0,0.4,0.1,,,,,*6A
$GPGRS,091612.00,1,1.7,1.2,1.0,1.8,-0.1,0.1,-0.4,-0.5,0.1,-1.0,-2.8,*46
$GPGSV,5,1,19,13,82,148,49,05,23,215,43,24,22,275,41,19,10,146,40*75
$GPGSV,5,2,19,30,29,081,44,23,20,318,41,17,24,118,43,14,58,069,47*70
$GPGSV,5,3,19,15,59,290,49,22,72,114,,36,35,170,44,58,13,245,36*74
$GPGSV,5,4,19,40,23,133,37,34,31,208,42,49,34,195,44,57,07,112,36*7C
$GPGSV,5,5,19,41,07,108,35,61,03,257,38*73
$GLGSV,3,1,10,66,60,311,52,84,10,046,39,77,13,235,39,65,58,178,49*60
$GLGSV,3,2,10,75,54,037,51,76,58,246,52,74,04,049,36,67,09,329,44*62
$GLGSV,3,3,10,83,06,347,32,72,05,156,*6A
$GAGSV,3,1,11,03,64,141,48,24,15,045,39,05,13,132,38,16,40,053,*63
$GAGSV,3,2,11,02,52,194,48,08,60,301,48,25,63,074,48,07,09,308,38*6F
$GAGSV,3,3,11,26,03,317,36,30,04,214,35,33,02,002,35*5F
$GBGSV,5,1,20,50,61,233,,33,10,323,,36,11,063,41,05,20,130,39*64
$GBGSV,5,2,20,40,29,051,43,14,33,311,43,07,29,061,41,56,29,084,*69
$GBGSV,5,3,20,21,49,192,50,10,35,074,41,42,54,285,49,24,56,229,*66
$GBGSV,5,4,20,26,59,248,50,45,60,060,49,25,07,235,,09,04,085,35*65
$GBGSV,5,5,20,29,05,052,,02,04,109,32,22,06,161,24,60,07,112,40*6E
$GPGGA,091612.00,,,,,0,00,,,M,,M,,*45
$PTNL,GGK,091612.00,010125,4742.1599837,N,01618.1002416,E,1,33,0.8,EHT752.1974,M*47
$GPGGQ,091612.00,010125,4742.1599837,N,01618.1002416,E,1,33,0.935,708.9908,M*32
$GPGFA,091612.00,4.857,5.871,0.511,0.316,13.677,0.716,,VVV*3E
$GPLLK,091612.00,010125,,M,,M,1,33,0.9,,M*0F
$GNGMP,091612.00,,,,,DAAA,33,0.5,,,,*5E
$GPGMP,091612.00,,,,,,09,,,,2.4,136*7B
$GLGMP,091612.00,,,,,,06,,,,,*74
$GAGMP,091612.00,,,,,,07,,,,,*78
$GBGMP,091612.00,,,,,,11,,,,,*7C
$PSSN,SNC,[0,292590000,2347]*41
$GPZDA,091617.00,01,01,2025,,*6B
$GPDTM,W84,,00.0000000,N,00.0000000,E,00.0000000,W84*5F
$PSSN,TFM,091617.00,,,,*67
$GPRMC,091617.00,A,4742.1599822,N,01618.1002373,E,0.0,,010125,5.1,E,D*16
$GPGLL,4742.1599822,N,01618.1002373,E,091617.00,A,D*67
$GPGGA,091617.00,4742.1599822,N,01618.1002373,E,2,33,0.5,708.9801,M,43.2066,M,3.0,0136*42
$GNGNS,091617.00,4742.1599822,N,01618.1002373,E,DAAA,33,0.5,708.9801,43.2066,,*59
$GPGNS,091617.00,,,,,,09,,,,3.0,136*7B
$GLGNS,091617.00,,,,,,06,,,,,*71
$GAGNS,091617.00,,,,,,07,,,,,*7D
$GBGNS,091617.00,,,,,,11,,,,,*79
$GPLLQ,091617.00,010125,,M,,M,1,33,0.929,,M*1B
$GPVTG,,T,,M,0.00,N,0.01,K,D*27
$GPHDT,,T*1B
$GPTHS,,V*0E
$GPROT,,V*08
$PSSN,HRP,091617.00,010125,,,,,,,00,0,,*69
$PTNL,AVR,091617.00,,Yaw,,Tilt,,,,0,,00*3F
$GPGSA,A,3,05,13,14,15,17,19,23,24,30,,,,0.8,0.5,0.6*35
$GPGSA,A,3,65,66,67,75,76,77,,,,,,,0.8,0.5,0.6*38
$GPGSA,A,3,02,03,05,07,08,24,25,,,,,,0.8,0.5,0.6*33
$GPGSA,A,3,05,07,10,14,21,26,36,40,42,45,60,,0.8,0.5,0.6*38
$GPGST,091617.00,2.206,0.507,0.318,12.701,0.499,0.330,0.711*67
$GPGBS,091617.00,3.327,1.928,4.959,67,0.0001,7.129,6.349*54
$GPGRS,091617.00,1,-0.8,0.5,0.2,0.0,-0.3,0.9,-0.4,-0.0,-0.2,,,*46
$GPGRS,091617.00,1,1.1,-0.6,7.1,-1.7,-1.2,-6.8,,,,,,*4D
$GPGRS,091617.00,1,-0.3,-0.2,1.0,-0.1,-0.1,0.3,-0.1,,,,,*47
$GPGRS,091617.00,1,2.0,1.2,1.4,1.6,-0.3,0.2,-0.5,-0.6,0.2,-1.2,-2.8,*4F
$GPGSV,5,1,19,13,82,148,49,05,23,215,43,24,22,275,41,19,10,146,41*74
$GPGSV,5,2,19,30,29,081,43,23,20,318,41,17,25,118,43,14,58,069,47*76
$GPGSV,5,3,19,15,59,290,49,22,72,114,,36,35,170,44,58,13,245,36*74
$GPGSV,5,4,19,40,23,133,37,34,31,208,42,49,34,195,44,57,07,112,36*7C
$GPGSV,5,5,19,41,07,108,35,61,03,257,38*73
$GLGSV,3,1,10,66,60,311,52,84,10,046,39,77,13,235,39,65,58,178,49*60
$GLGSV,3,2,10,75,54,038,50,76,58,246,52,74,04,049,36,67,10,329,44*64
$GLGSV,3,3,10,83,06,347,31,72,05,156,*69
$GAGSV,3,1,11,03,64,141,48,24,15,045,39,05,13,132,38,16,40,053,*63
$GAGSV,3,2,11,02,52,194,48,08,60,301,48,25,63,074,48,07,09,308,38*6F
$GAGSV,3,3,11,26,03,317,35,30,04,214,35,33,02,002,34*5D
$GBGSV,5,1,20,50,61,233,,33,10,323,,36,11,063,40,05,20,130,39*65
$GBGSV,5,2,20,40,29,051,43,14,33,311,43,07,29,061,41,56,29,084,*69
$GBGSV,5,3,20,21,49,192,50,10,35,074,41,42,54,285,49,24,56,229,*66
$GBGSV,5,4,20,26,59,248,50,45,60,060,49,25,07,235,,09,04,085,34*64
$GBGSV,5,5,20,29,05,052,,02,04,109,32,22,06,161,23,60,07,112,40*69
$GPGGA,091617.00,,,,,0,00,,,M,,M,,*40
$PTNL,GGK,091617.00,010125,4742.1599822,N,01618.1002373,E,1,33,0.8,EHT752.1866,M*40
$GPGGQ,091617.00,010125,4742.1599822,N,01618.1002373,E,1,33,0.929,708.9801,M*32
$GPGFA,091617.00,4.820,5.832,0.507,0.318,12.701,0.711,,VVV*33
$GPLLK,091617.00,010125,,M,,M,1,33,0.9,,M*0A
$GNGMP,091617.00,,,,,DAAA,33,0.5,,,,*5B
$GPGMP,091617.00,,,,,,09,,,,3.0,136*7B
$GLGMP,091617.00,,,,,,06,,,,,*71
$GAGMP,091617.00,,,,,,07,,,,,*7D
$GBGMP,091617.00,,,,,,11,,,,,*79
$PSSN,SNC,[0,292595000,2347]*44
$GPZDA,091622.00,01,01,2025,,*6D
$GPDTM,W84,,00.0000000,N,00.0000000,E,00.0000000,W84*5F
$PSSN,TFM,091622.00,,,,*61
$GPRMC,091622.00,A,4742.1599826,N,01618.1002336,E,0.0,,010125,5.1,E,D*15
$GPGLL,4742.1599826,N,01618.1002336,E,091622.00,A,D*64
$GPGGA,091622.00,4742.1599826,N,01618.1002336,E,2,33,0.5,708.9783,M,43.2066,M,1.8,0136*4E
$GNGNS,091622.00,4742.1599826,N,01618.1002336,E,DAAA,33,0.5,708.9783,43.2066,,*5F
$GPGNS,091622.00,,,,,,09,,,,1.8,136*77
$GLGNS,091622.00,,,,,,06,,,,,*77
$GAGNS,091622.00,,,,,,07,,,,,*7B
$GBGNS,091622.00,,,,,,11,,,,,*7F
$GPLLQ,091622.00,010125,,M,,M,1,33,0.932,,M*17
$GPVTG,,T,,M,0.01,N,0.01,K,D*26
$GPHDT,,T*1B
$GPTHS,,V*0E
$GPROT,,V*08
$PSSN,HRP,091622.00,010125,,,,,,,00,0,,*6F
$PTNL,AVR,091622.00,,Yaw,,Tilt,,,,0,,00*39
$GPGSA,A,3,05,13,14,15,17,19,23,24,30,,,,0.8,0.5,0.6*35
$GPGSA,A,3,65,66,67,75,76,77,,,,,,,0.8,0.5,0.6*38
$GPGSA,A,3,02,03,05,07,08,24,25,,,,,,0.8,0.5,0.6*33
$GPGSA,A,3,05,07,10,14,21,26,36,40,42,45,60,,0.8,0.5,0.6*38
$GPGST,091622.00,2.187,0.509,0.316,13.024,0.501,0.329,0.714*67
$GPGBS,091622.00,3.313,1.898,4.801,67,0.0001,7.246,6.349*59
$GPGRS,091622.00,1,-0.1,0.5,0.0,-0.3,-0.3,1.1,-0.0,-0.3,-0.3,,,*6A
$GPGRS,091622.00,1,1.3,-0.6,7.2,-1.7,-1.3,-6.4,,,,,,*47
$GPGRS,091622.00,1,-0.3,0.1,1.0,-0.3,-0.2,0.3,-0.0,,,,,*6F
$GPGRS,091622.00,1,1.9,1.9,1.6,1.5,-0.4,0.0,-0.4,-0.6,0.1,-1.2,-2.7,*41
$GPGSV,5,1,19,13,82,148,49,05,23,215,42,24,22,275,41,19,10,146,41*75
$GPGSV,5,2,19,30,29,081,43,23,20,318,42,17,25,118,43,14,58,069,47*75
$GPGSV,5,3,19,15,59,290,49,22,72,114,,36,35,170,44,58,13,245,36*74
$GPGSV,5,4,19,40,23,133,36,34,31,208,42,49,34,195,44,57,07,112,36*7D
$GPGSV,5,5,19,41,07,108,35,61,03,257,38*73
$GLGSV,3,1,10,66,60,311,52,84,10,046,40,77,13,235,39,65,58,178,49*6E
$GLGSV,3,2,10,75,54,038,50,76,58,246,52,74,04,049,36,67,10,329,44*64
$GLGSV,3,3,10,83,06,347,32,72,05,156,*6A
$GAGSV,3,1,11,03,64,141,48,24,15,045,39,05,13,132,38,16,40,053,*63
$GAGSV,3,2,11,02,52,194,48,08,60,301,48,25,63,074,48,07,09,308,38*6F
