$GPZDA,224442.00,01,01,2025,,*65
$GPDTM,W84,,00.0000000,N,00.0000000,E,00.0000000,W84*5F
$PSSN,TFM,224442.00,,,,*69
$GPRMC,224442.00,A,4742.1601133,N,01618.1004126,E,0.0,,010125,5.1,E,D*17
$GPGLL,4742.1601133,N,01618.1004126,E,224442.00,A,D*66
$GPGGA,224442.00,4742.1601133,N,01618.1004126,E,2,36,0.4,708.2900,M,43.2066,M,3.1,0136*4D
$GNGNS,224442.00,4742.1601133,N,01618.1004126,E,DAAA,36,0.4,708.2900,43.2066,,*57
$GPGNS,224442.00,,,,,,08,,,,3.1,136*75
$GLGNS,224442.00,,,,,,07,,,,,*7E
$GAGNS,224442.00,,,,,,08,,,,,*7C
$GBGNS,224442.00,,,,,,13,,,,,*75
$GPLLQ,224442.00,010125,,M,,M,1,36,0.936,,M*1E
$GPVTG,,T,,M,0.00,N,0.01,K,D*27
$GPHDT,,T*1B
$GPTHS,,V*0E
$GPROT,,V*08
$PSSN,HRP,224442.00,010125,,,,,,,00,0,,*67
$PTNL,AVR,224442.00,,Yaw,,Tilt,,,,0,,00*31
$GPGSA,A,3,02,03,08,10,14,21,27,32,,,,,0.8,0.4,0.6*32
$GPGSA,A,3,68,69,70,75,76,84,85,,,,,,0.8,0.4,0.6*3C
$GPGSA,A,3,07,08,13,24,26,29,31,33,,,,,0.8,0.4,0.6*3E
$GPGSA,A,3,05,06,13,14,16,27,28,30,32,33,39,41,0.8,0.4,0.6*39
$GPGSA,A,3,60,,,,,,,,,,,,0.8,0.4,0.6*3E
$GPGST,224442.00,1.659,0.385,0.339,13.814,0.383,0.342,0.783*63
$GPGBS,224442.00,2.220,2.227,4.855,68,0.0001,6.043,6.168*55
$GPGRS,224442.00,1,0.1,0.5,-0.1,-0.2,-0.3,-0.1,-0.2,0.3,,,,*61
$GPGRS,224442.00,1,6.0,0.3,-2.0,-0.8,-4.7,-1.6,2.6,,,,,*69
$GPGRS,224442.00,1,0.2,0.1,0.3,-0.7,-0.0,0.0,-0.6,-0.1,,,,*48
$GPGRS,224442.00,1,1.4,-0.6,-0.0,0.1,-0.5,0.1,-0.1,0.2,0.3,-0.6,-0.2,-0.3*64
$GPGRS,224442.00,1,-1.6,,,,,,,,,,,*4C
$GPGSV,5,1,19,21,76,316,45,03,20,236,41,27,27,164,42,10,34,055,46*70
$GPGSV,5,2,19,14,16,307,40,32,48,091,48,08,55,193,48,02,54,299,48*7F
$GPGSV,5,3,19,24,01,021,,17,02,321,39,36,35,170,44,58,13,245,38*7F
$GPGSV,5,4,19,57,12,108,38,49,34,195,44,40,24,132,35,34,31,208,42*79
$GPGSV,5,5,19,41,07,108,34,61,03,257,38*72
$GLGSV,3,1,09,69,72,095,52,70,26,195,38,83,11,117,33,76,13,329,45*6C
$GLGSV,3,2,09,68,29,034,48,85,43,319,50,84,70,076,40,75,07,274,43*6A
$GLGSV,3,3,09,77,02,011,36*5B
$GAGSV,3,1,09,26,72,066,48,24,11,328,38,23,15,226,,29,22,167,41*67
$GAGSV,3,2,09,13,21,096,40,08,24,045,41,31,26,278,42,33,49,295,47*6D
$GAGSV,3,3,09,07,46,106,46*51
$GBGSV,6,1,22,27,85,236,52,05,24,128,38,20,18,197,,60,10,109,40*68
$GBGSV,6,2,22,14,15,043,40,06,10,083,36,32,26,206,45,29,28,301,*67
$GBGSV,6,3,22,16,11,079,38,13,13,059,38,30,35,305,47,39,15,070,41*67
$GBGSV,6,4,22,28,43,132,49,33,39,052,48,41,72,144,51,57,68,280,*6B
$GBGSV,6,5,22,02,09,105,34,26,02,339,,31,08,083,,45,01,335,*6B
$GBGSV,6,6,22,09,05,093,,08,04,057,35*65
$GPGGA,224442.00,,,,,0,00,,,M,,M,,*4E
$PTNL,GGK,224442.00,010125,4742.1601133,N,01618.1004126,E,1,36,0.8,EHT751.4966,M*43
$GPGGQ,224442.00,010125,4742.1601133,N,01618.1004126,E,1,36,0.936,708.2900,M*33
$GPGFA,224442.00,3.662,6.418,0.385,0.339,13.814,0.783,,VVV*3B
$GPLLK,224442.00,010125,,M,,M,1,36,0.8,,M*00
$GNGMP,224442.00,,,,,DAAA,36,0.4,,,,*51
$GPGMP,224442.00,,,,,,08,,,,3.1,136*75
$GLGMP,224442.00,,,,,,07,,,,,*7E
$GAGMP,224442.00,,,,,,08,,,,,*7C
$GBGMP,224442.00,,,,,,13,,,,,*75
$PSSN,SNC,[0,341100000,2347]*43
$GPZDA,224447.00,01,01,2025,,*60
$GPDTM,W84,,00.0000000,N,00.0000000,E,00.0000000,W84*5F
$PSSN,TFM,224447.00,,,,*6C
$GPRMC,224447.00,A,4742.1601140,N,01618.1004130,E,0.0,,010125,5.1,E,D*11
$GPGLL,4742.1601140,N,01618.1004130,E,224447.00,A,D*60
$GPGGA,224447.00,4742.1601140,N,01618.1004130,E,2,36,0.4,708.2900,M,43.2066,M,3.1,0136*4B
$GNGNS,224447.00,4742.1601140,N,01618.1004130,E,DAAA,36,0.4,708.2900,43.2066,,*51
$GPGNS,224447.00,,,,,,08,,,,3.1,136*70
$GLGNS,224447.00,,,,,,07,,,,,*7B
$GAGNS,224447.00,,,,,,08,,,,,*79
$GBGNS,224447.00,,,,,,13,,,,,*70
$GPLLQ,224447.00,010125,,M,,M,1,36,0.943,,M*19
$GPVTG,,T,,M,0.00,N,0.01,K,D*27
$GPHDT,,T*1B
$GPTHS,,V*0E
$GPROT,,V*08
$PSSN,HRP,224447.00,010125,,,,,,,00,0,,*62
$PTNL,AVR,224447.00,,Yaw,,Tilt,,,,0,,00*34
$GPGSA,A,3,02,03,08,10,14,21,27,32,,,,,0.8,0.4,0.6*32
$GPGSA,A,3,68,69,70,75,76,84,85,,,,,,0.8,0.4,0.6*3C
$GPGSA,A,3,07,08,13,24,26,29,31,33,,,,,0.8,0.4,0.6*3E
$GPGSA,A,3,05,06,13,14,16,27,28,30,32,33,39,41,0.8,0.4,0.6*39
$GPGSA,A,3,60,,,,,,,,,,,,0.8,0.4,0.6*3E
$GPGST,224447.00,1.833,0.390,0.344,15.894,0.387,0.348,0.786*6F
$GPGBS,224447.00,2.256,2.249,4.956,68,0.0001,6.317,6.168*59
$GPGRS,224447.00,1,0.0,0.2,0.3,-0.3,-0.0,-0.1,-0.3,0.2,,,,*4F
$GPGRS,224447.00,1,6.3,0.4,-2.7,-1.6,-5.0,-1.0,3.4,,,,,*63
$GPGRS,224447.00,1,0.3,0.4,0.8,-0.5,0.0,0.1,-0.3,0.0,,,,*45
$GPGRS,224447.00,1,1.5,-0.8,-0.4,0.7,-0.8,0.4,-0.0,0.3,0.0,-0.5,-0.4,-0.2*63
$GPGRS,224447.00,1,-1.8,,,,,,,,,,,*47
$GPGSV,5,1,19,21,76,316,45,03,20,236,41,27,27,164,43,10,34,055,45*72
$GPGSV,5,2,19,14,16,307,41,32,48,091,48,08,55,193,49,02,54,299,48*7F
$GPGSV,5,3,19,24,01,021,,17,02,321,39,36,35,170,45,58,13,245,38*7E
$GPGSV,5,4,19,57,12,108,38,49,34,195,44,40,24,132,36,34,31,208,42*7A
$GPGSV,5,5,19,41,07,108,34,61,03,257,38*72
$GLGSV,3,1,09,69,72,095,52,70,26,195,38,83,11,117,33,76,13,329,44*6D
$GLGSV,3,2,09,68,29,034,48,85,43,319,50,84,70,076,39,75,07,274,41*66
$GLGSV,3,3,09,77,02,011,36*5B
$GAGSV,3,1,09,26,72,066,48,24,11,328,39,23,15,226,,29,22,167,41*66
$GAGSV,3,2,09,13,21,096,41,08,24,045,42,31,26,278,42,33,50,295,46*66
$GAGSV,3,3,09,07,46,106,46*51
$GBGSV,6,1,22,27,85,235,52,05,24,128,38,20,18,197,,60,10,109,40*6B
$GBGSV,6,2,22,14,15,043,41,06,10,083,36,32,26,206,45,29,28,301,*66
$GBGSV,6,3,22,16,11,079,38,13,13,059,38,30,35,305,47,39,15,070,41*67
$GBGSV,6,4,22,28,43,132,49,33,39,052,48,41,72,144,51,57,68,280,*6B
$GBGSV,6,5,22,02,09,105,33,26,02,339,,31,08,083,,45,01,335,*6C
$GBGSV,6,6,22,09,05,093,,08,04,057,36*66
$GPGGA,224447.00,,,,,0,00,,,M,,M,,*4B
$PTNL,GGK,224447.00,010125,4742.1601140,N,01618.1004130,E,1,36,0.8,EHT751.4966,M*45
$GPGGQ,224447.00,010125,4742.1601140,N,01618.1004130,E,1,36,0.943,708.2900,M*37
$GPGFA,224447.00,3.708,6.446,0.390,0.344,15.894,0.786,,VVV*3D
$GPLLK,224447.00,010125,,M,,M,1,36,0.8,,M*05
$GNGMP,224447.00,,,,,DAAA,36,0.4,,,,*54
$GPGMP,224447.00,,,,,,08,,,,3.1,136*70
$GLGMP,224447.00,,,,,,07,,,,,*7B
$GAGMP,224447.00,,,,,,08,,,,,*79
$GBGMP,224447.00,,,,,,13,,,,,*70
$PSSN,SNC,[0,341105000,2347]*46
$GPZDA,224452.00,01,01,2025,,*64
$GPDTM,W84,,00.0000000,N,00.0000000,E,00.0000000,W84*5F
$PSSN,TFM,224452.00,,,,*68
$GPRMC,224452.00,A,4742.1601162,N,01618.1004142,E,0.0,,010125,5.1,E,D*10
$GPGLL,4742.1601162,N,01618.1004142,E,224452.00,A,D*61
$GPGGA,224452.00,4742.1601162,N,01618.1004142,E,2,36,0.4,708.2880,M,43.2066,M,1.6,0136*46
$GNGNS,224452.00,4742.1601162,N,01618.1004142,E,DAAA,36,0.4,708.2880,43.2066,,*59
$GPGNS,224452.00,,,,,,08,,,,1.6,136*71
$GLGNS,224452.00,,,,,,07,,,,,*7F
$GAGNS,224452.00,,,,,,08,,,,,*7D
$GBGNS,224452.00,,,,,,13,,,,,*74
$GPLLQ,224452.00,010125,,M,,M,1,36,0.928,,M*10
$GPVTG,,T,,M,0.00,N,0.01,K,D*27
$GPHDT,,T*1B
$GPTHS,,V*0E
$GPROT,,V*08
$PSSN,HRP,224452.00,010125,,,,,,,00,0,,*66
$PTNL,AVR,224452.00,,Yaw,,Tilt,,,,0,,00*30
$GPGSA,A,3,02,03,08,10,14,21,27,32,,,,,0.8,0.4,0.6*32
$GPGSA,A,3,68,69,70,75,76,84,85,,,,,,0.8,0.4,0.6*3C
$GPGSA,A,3,07,08,13,24,26,29,31,33,,,,,0.8,0.4,0.6*3E
$GPGSA,A,3,05,06,13,14,16,27,28,30,32,33,39,41,0.8,0.4,0.6*39
$GPGSA,A,3,60,,,,,,,,,,,,0.8,0.4,0.6*3E
$GPGST,224452.00,1.852,0.386,0.343,18.481,0.381,0.347,0.772*6B
$GPGBS,224452.00,2.143,2.160,4.708,68,0.0001,5.773,6.168*52
$GPGRS,224452.00,1,-0.2,0.7,0.1,-0.2,-0.3,-0.2,-0.1,0.2,,,,*60
$GPGRS,224452.00,1,5.8,-0.0,-2.7,-2.4,-5.1,-2.3,3.5,,,,,*47
$GPGRS,224452.00,1,0.3,0.5,0.9,-0.3,-0.0,-0.1,-0.5,0.2,,,,*43
$GPGRS,224452.00,1,1.3,-0.7,-0.5,0.6,-0.9,0.2,0.1,0.3,-0.1,-0.9,-0.3,-0.6*66
$GPGRS,224452.00,1,-1.7,,,,,,,,,,,*4C
$GPGSV,5,1,19,21,76,316,45,03,20,236,41,27,27,164,43,14,16,307,40*77
$GPGSV,5,2,19,10,34,055,46,32,48,091,48,08,55,193,48,02,54,299,48*79
$GPGSV,5,3,19,24,01,021,,17,02,321,36,36,35,170,45,58,13,245,38*71
$GPGSV,5,4,19,57,12,108,38,49,34,195,44,40,24,132,36,34,31,208,42*7A
$GPGSV,5,5,19,41,07,108,34,61,03,257,38*72
$GLGSV,3,1,09,69,72,095,52,70,26,195,39,83,10,117,34,76,13,329,45*6B
$GLGSV,3,2,09,68,29,034,48,85,43,319,50,84,69,076,39,75,07,274,42*6D
$GLGSV,3,3,09,77,02,010,36*5A
$GAGSV,3,1,09,26,72,066,48,24,11,328,39,23,15,226,,29,22,167,41*66
$GAGSV,3,2,09,13,21,096,41,08,24,045,42,31,26,278,42,33,50,295,46*66
$GAGSV,3,3,09,07,46,106,47*50
$GBGSV,6,1,22,27,85,235,52,05,24,128,38,20,18,197,,60,10,109,40*6B
$GBGSV,6,2,22,14,14,043,41,06,10,083,36,32,26,206,45,29,28,301,*67
$GBGSV,6,3,22,16,11,079,38,13,13,059,39,30,35,305,47,39,15,070,41*66
$GBGSV,6,4,22,28,43,133,49,33,39,052,48,41,72,144,51,57,68,280,*6A
$GBGSV,6,5,22,02,09,105,33,26,02,339,,31,08,083,,45,01,335,*6C
$GBGSV,6,6,22,09,05,093,,08,04,057,36*66
$GPGGA,224452.00,,,,,0,00,,,M,,M,,*4F
$PTNL,GGK,224452.00,010125,4742.1601162,N,01618.1004142,E,1,36,0.8,EHT751.4946,M*46
$GPGGQ,224452.00,010125,4742.1601162,N,01618.1004142,E,1,36,0.928,708.2880,M*32
$GPGFA,224452.00,3.665,6.328,0.386,0.343,18.481,0.772,,VVV*32
$GPLLK,224452.00,010125,,M,,M,1,36,0.8,,M*01
$GNGMP,224452.00,,,,,DAAA,36,0.4,,,,*50
$GPGMP,224452.00,,,,,,08,,,,1.6,136*71
$GLGMP,224452.00,,,,,,07,,,,,*7F
$GAGMP,224452.00,,,,,,08,,,,,*7D
$GBGMP,224452.00,,,,,,13,,,,,*74
$PSSN,SNC,[0,341110000,2347]*42
$GPZDA,224457.00,01,01,2025,,*61
$GPDTM,W84,,00.0000000,N,00.0000000,E,00.0000000,W84*5F
$PSSN,TFM,224457.00,,,,*6D
$GPRMC,224457.00,A,4742.1601185,N,01618.1004122,E,0.0,,010125,5.1,E,D*1A
$GPGLL,4742.1601185,N,01618.1004122,E,224457.00,A,D*6B
$GPGGA,224457.00,4742.1601185,N,01618.1004122,E,2,36,0.4,708.2883,M,43.2066,M,2.1,0136*4B
$GNGNS,224457.00,4742.1601185,N,01618.1004122,E,DAAA,36,0.4,708.2883,43.2066,,*50
$GPGNS,224457.00,,,,,,08,,,,2.1,136*70
$GLGNS,224457.00,,,,,,07,,,,,*7A
$GAGNS,224457.00,,,,,,08,,,,,*78
$GBGNS,224457.00,,,,,,13,,,,,*71
$GPLLQ,224457.00,010125,,M,,M,1,36,0.921,,M*1C
$GPVTG,,T,,M,0.00,N,0.00,K,D*26
$GPHDT,,T*1B
$GPTHS,,V*0E
$GPROT,,V*08
$PSSN,HRP,224457.00,010125,,,,,,,00,0,,*63
$PTNL,AVR,224457.00,,Yaw,,Tilt,,,,0,,00*35
$GPGSA,A,3,02,03,08,10,14,21,27,32,,,,,0.8,0.4,0.6*32
$GPGSA,A,3,68,69,70,75,76,84,85,,,,,,0.8,0.4,0.6*3C
$GPGSA,A,3,07,08,13,24,26,29,31,33,,,,,0.8,0.4,0.6*3E
$GPGSA,A,3,05,06,13,14,16,27,28,30,32,33,39,41,0.8,0.4,0.6*39
$GPGSA,A,3,60,,,,,,,,,,,,0.8,0.4,0.6*3E
$GPGST,224457.00,1.534,0.379,0.338,15.841,0.376,0.341,0.768*67
$GPGBS,224457.00,2.175,2.202,4.774,68,0.0001,5.516,6.168*5F
$GPGRS,224457.00,1,-0.3,0.4,0.2,-0.1,-0.3,0.0,-0.5,0.3,,,,*4D
$GPGRS,224457.00,1,5.5,0.4,-1.9,-0.8,-3.5,-1.4,3.4,,,,,*62
$GPGRS,224457.00,1,-0.1,0.3,0.8,-0.5,0.1,-0.2,-0.3,0.3,,,,*40
$GPGRS,224457.00,1,1.2,-0.1,-0.1,0.8,-0.3,0.1,-0.0,0.2,0.1,-0.6,-0.1,-0.4*68
$GPGRS,224457.00,1,-1.6,,,,,,,,,,,*48
$GPGSV,5,1,19,21,76,316,45,03,20,236,40,27,27,164,43,14,16,307,40*76
$GPGSV,5,2,19,10,34,055,46,32,48,091,48,08,55,193,48,02,54,299,48*79
$GPGSV,5,3,19,24,01,021,,17,02,321,36,36,35,170,45,58,13,245,38*71
$GPGSV,5,4,19,57,12,108,38,49,34,195,44,40,24,132,36,34,31,208,42*7A
$GPGSV,5,5,19,41,07,108,34,61,03,257,38*72
$GLGSV,3,1,09,69,72,095,52,70,26,195,39,83,10,117,33,76,13,329,46*6F
$GLGSV,3,2,09,68,29,034,48,85,43,319,50,84,69,076,40,75,07,274,43*62
$GLGSV,3,3,09,77,02,010,37*5B
$GAGSV,3,1,09,26,72,066,48,24,11,328,38,23,15,226,,29,22,167,41*67
$GAGSV,3,2,09,13,21,096,41,08,24,045,42,31,26,278,42,33,50,295,46*66
$GAGSV,3,3,09,07,46,106,46*51
$GBGSV,6,1,22,27,85,235,52,05,24,128,38,20,18,197,,60,10,109,40*6B
$GBGSV,6,2,22,14,14,043,41,06,10,083,36,32,26,206,45,29,28,301,*67
$GBGSV,6,3,22,16,11,079,38,13,13,059,39,30,35,305,47,39,15,070,40*67
$GBGSV,6,4,22,28,43,133,48,33,39,052,48,41,72,144,51,57,69,280,*6A
$GBGSV,6,5,22,02,09,105,34,26,02,339,,31,08,083,,45,01,335,*6B
$GBGSV,6,6,22,09,05,093,,08,04,057,36*66
$GPGGA,224457.00,,,,,0,00,,,M,,M,,*4A
$PTNL,GGK,224457.00,010125,4742.1601185,N,01618.1004122,E,1,36,0.8,EHT751.4948,M*42
$GPGGQ,224457.00,010125,4742.1601185,N,01618.1004122,E,1,36,0.921,708.2883,M*32
$GPGFA,224457.00,3.606,6.298,0.379,0.338,15.841,0.768,,VVV*32
$GPLLK,224457.00,010125,,M,,M,1,36,0.8,,M*04
$GNGMP,224457.00,,,,,DAAA,36,0.4,,,,*55
$GPGMP,224457.00,,,,,,08,,,,2.1,136*70
$GLGMP,224457.00,,,,,,07,,,,,*7A
$GAGMP,224457.00,,,,,,08,,,,,*78
$GBGMP,224457.00,,,,,,13,,,,,*71
$PSSN,SNC,[0,341115000,2347]*47
$GPZDA,224502.00,01,01,2025,,*60
$GPDTM,W84,,00.0000000,N,00.0000000,E,00.0000000,W84*5F
$PSSN,TFM,224502.00,,,,*6C
$GPRMC,224502.00,A,4742.1601201,N,01618.1004133,E,0.0,,010125,5.1,E,D*14
$GPGLL,4742.1601201,N,01618.1004133,E,224502.00,A,D*65
$GPGGA,224502.00,4742.1601201,N,01618.1004133,E,2,36,0.4,708.2854,M,43.2066,M,3.1,0136*4E
$GNGNS,224502.00,4742.1601201,N,01618.1004133,E,DAAA,36,0.4,708.2854,43.2066,,*54
$GPGNS,224502.00,,,,,,08,,,,3.1,136*70
$GLGNS,224502.00,,,,,,07,,,,,*7B
$GAGNS,224502.00,,,,,,08,,,,,*79
$GBGNS,224502.00,,,,,,13,,,,,*70
$GPLLQ,224502.00,010125,,M,,M,1,36,0.935,,M*18
$GPVTG,,T,,M,0.01,N,0.01,K,D*26
$GPHDT,,T*1B
$GPTHS,,V*0E
$GPROT,,V*08
$PSSN,HRP,224502.00,010125,,,,,,,00,0,,*62
$PTNL,AVR,224502.00,,Yaw,,Tilt,,,,0,,00*34
$GPGSA,A,3,02,03,08,10,14,21,27,32,,,,,0.8,0.4,0.6*32
$GPGSA,A,3,68,69,70,75,76,84,85,,,,,,0.8,0.4,0.6*3C
$GPGSA,A,3,07,08,13,24,26,29,31,33,,,,,0.8,0.4,0.6*3E
$GPGSA,A,3,05,06,13,14,16,27,28,30,32,33,39,41,0.8,0.4,0.6*39
$GPGSA,A,3,60,,,,,,,,,,,,0.8,0.4,0.6*3E
$GPGST,224502.00,1.546,0.385,0.340,13.380,0.383,0.342,0.782*62
$GPGBS,224502.00,2.218,2.227,4.854,68,0.0001,5.341,6.169*59
$GPGRS,224502.00,1,-0.3,0.5,0.3,-0.2,0.1,0.0,-0.6,0.2,,,,*62
$GPGRS,224502.00,1,5.3,0.4,-1.7,-0.6,-3.8,-1.2,3.7,,,,,*6D
$GPGRS,224502.00,1,-0.2,-0.0,0.6,-0.6,-0.0,0.2,-0.1,-0.1,,,,*4D
$GPGRS,224502.00,1,1.5,-0.0,0.5,0.6,0.3,0.2,-0.2,-0.1,0.1,-0.6,-0.1,-0.3*4D
$GPGRS,224502.00,1,-1.5,,,,,,,,,,,*4A
$GPGSV,5,1,19,21,77,316,45,03,20,236,41,27,27,164,43,10,34,055,46*70
$GPGSV,5,2,19,14,16,307,40,32,48,091,49,08,55,193,49,02,54,299,48*7F
$GPGSV,5,3,19,24,01,021,,17,02,321,36,36,35,170,45,58,13,245,38*71
$GPGSV,5,4,19,57,12,108,38,49,34,195,44,40,24,132,36,34,31,208,42*7A
$GPGSV,5,5,19,41,07,108,34,61,03,257,38*72
$GLGSV,3,1,09,69,72,094,52,70,26,195,39,83,10,118,33,76,13,329,45*62
$GLGSV,3,2,09,68,29,034,48,85,43,319,51,84,69,076,40,75,07,274,42*62
$GLGSV,3,3,09,77,02,010,36*5A
$GAGSV,3,1,09,26,72,066,48,24,11,328,38,23,15,226,,29,22,167,41*67
$GAGSV,3,2,09,13,21,096,41,08,24,045,42,31,26,278,42,33,50,295,46*66
$GAGSV,3,3,09,07,46,106,46*51
$GBGSV,6,1,22,27,85,234,52,05,24,128,38,20,18,197,,60,10,109,40*6A
$GBGSV,6,2,22,14,14,043,40,06,10,083,36,32,26,206,45,29,28,301,*66
$GBGSV,6,3,22,16,11,079,39,13,13,059,39,30,35,305,47,39,15,070,41*67
$GBGSV,6,4,22,28,43,133,48,33,39,052,48,41,72,144,51,57,69,280,*6A
$GBGSV,6,5,22,02,09,105,34,26,02,339,,31,08,083,,45,01,335,*6B
$GBGSV,6,6,22,09,05,093,,08,04,057,36*66
$GPGGA,224502.00,,,,,0,00,,,M,,M,,*4B
$PTNL,GGK,224502.00,010125,4742.1601201,N,01618.1004133,E,1,36,0.8,EHT751.4919,M*48
$GPGGQ,224502.00,010125,4742.1601201,N,01618.1004133,E,1,36,0.935,708.2854,M*33
$GPGFA,224502.00,3.661,6.411,0.385,0.340,13.380,0.782,,VVV*3D
$GPLLK,224502.00,010125,,M,,M,1,36,0.8,,M*05
$GNGMP,224502.00,,,,,DAAA,36,0.4,,,,*54
$GPGMP,224502.00,,,,,,08,,,,3.1,136*70
$GLGMP,224502.00,,,,,,07,,,,,*7B
$GAGMP,224502.00,,,,,,08,,,,,*79
$GBGMP,224502.00,,,,,,13,,,,,*70
$PSSN,SNC,[0,341120000,2347]*41
$GPZDA,224507.00,01,01,2025,,*65
$GPDTM,W84,,00.0000000,N,00.0000000,E,00.0000000,W84*5F
$PSSN,TFM,224507.00,,,,*69
$GPRMC,224507.00,A,4742.1601189,N,01618.1004139,E,0.0,,010125,5.1,E,D*18
$GPGLL,4742.1601189,N,01618.1004139,E,224507.00,A,D*69
$GPGGA,224507.00,4742.1601189,N,01618.1004139,E,2,36,0.4,708.2873,M,43.2066,M,3.1,0136*47
$GNGNS,224507.00,4742.1601189,N,01618.1004139,E,DAAA,36,0.4,708.2873,43.2066,,*5D
$GPGNS,224507.00,,,,,,08,,,,3.1,136*75
$GLGNS,224507.00,,,,,,07,,,,,*7E
$GAGNS,224507.00,,,,,,08,,,,,*7C
$GBGNS,224507.00,,,,,,13,,,,,*75
$GPLLQ,224507.00,010125,,M,,M,1,36,0.942,,M*1D
$GPVTG,,T,,M,0.00,N,0.00,K,D*26
$GPHDT,,T*1B
$GPTHS,,V*0E
$GPROT,,V*08
$PSSN,HRP,224507.00,010125,,,,,,,00,0,,*67
$PTNL,AVR,224507.00,,Yaw,,Tilt,,,,0,,00*31
$GPGSA,A,3,02,03,08,10,14,21,27,32,,,,,0.8,0.4,0.6*32
$GPGSA,A,3,68,69,70,75,76,84,85,,,,,,0.8,0.4,0.6*3C
$GPGSA,A,3,07,08,13,24,26,29,31,33,,,,,0.8,0.4,0.6*3E
$GPGSA,A,3,05,06,13,14,16,27,28,30,32,33,39,41,0.8,0.4,0.6*39
$GPGSA,A,3,60,,,,,,,,,,,,0.8,0.4,0.6*3E
$GPGST,224507.00,1.751,0.390,0.344,15.423,0.387,0.348,0.786*61
$GPGBS,224507.00,2.255,2.248,4.954,68,0.0001,5.480,6.169*57
$GPGRS,224507.00,1,-0.0,0.6,0.0,-0.2,0.2,-0.2,-0.6,0.3,,,,*49
$GPGRS,224507.00,1,5.5,-0.1,-2.3,-1.3,-5.2,-1.9,3.5,,,,,*40
$GPGRS,224507.00,1,0.1,0.1,0.4,-0.6,-0.0,-0.1,-0.4,0.1,,,,*4E
$GPGRS,224507.00,1,1.7,-0.8,0.9,0.2,-0.1,0.3,-0.2,0.1,0.0,-0.6,-0.0,-0.2*48
$GPGRS,224507.00,1,-1.6,,,,,,,,,,,*4C
$GPGSV,5,1,19,21,77,316,45,03,20,236,41,27,27,164,43,10,34,055,46*70
$GPGSV,5,2,19,14,16,307,40,32,48,091,49,08,55,193,49,02,54,299,48*7F
$GPGSV,5,3,19,24,01,021,,17,02,321,38,36,35,170,45,58,13,245,38*7F
$GPGSV,5,4,19,57,12,108,38,49,34,195,44,40,24,132,36,34,31,208,42*7A
$GPGSV,5,5,19,41,07,108,34,61,03,257,38*72
$GLGSV,3,1,09,69,72,094,52,70,26,195,39,83,10,118,33,76,13,329,46*61
$GLGSV,3,2,09,68,29,034,48,85,43,319,50,84,69,076,39,75,07,274,42*6D
$GLGSV,3,3,09,77,02,010,36*5A
$GAGSV,3,1,09,26,72,066,48,24,11,328,39,23,15,226,,29,22,167,42*65
$GAGSV,3,2,09,13,21,096,41,08,24,045,42,31,26,278,43,33,50,295,47*66
$GAGSV,3,3,09,07,46,106,46*51
$GBGSV,6,1,22,27,85,234,52,05,24,128,39,20,18,197,,60,10,109,40*6B
$GBGSV,6,2,22,14,14,043,40,06,10,083,36,32,26,206,46,29,28,301,*65
$GBGSV,6,3,22,16,11,079,39,13,13,059,40,30,35,305,47,39,15,070,40*68
$GBGSV,6,4,22,28,42,133,48,33,39,052,48,41,72,143,51,57,69,280,*6C
$GBGSV,6,5,22,02,09,105,33,26,02,339,,31,08,083,,45,01,335,*6C
$GBGSV,6,6,22,09,05,093,,08,04,057,35*65
$GPGGA,224507.00,,,,,0,00,,,M,,M,,*4E
$PTNL,GGK,224507.00,010125,4742.1601189,N,01618.1004139,E,1,36,0.8,EHT751.4939,M*46
$GPGGQ,224507.00,010125,4742.1601189,N,01618.1004139,E,1,36,0.942,708.2873,M*3A
$GPGFA,224507.00,3.708,6.442,0.390,0.344,15.423,0.786,,VVV*3C
$GPLLK,224507.00,010125,,M,,M,1,36,0.8,,M*00
$GNGMP,224507.00,,,,,DAAA,36,0.4,,,,*51
$GPGMP,224507.00,,,,,,08,,,,3.1,136*75
$GLGMP,224507.00,,,,,,07,,,,,*7E
$GAGMP,224507.00,,,,,,08,,,,,*7C
$GBGMP,224507.00,,,,,,13,,,,,*75
$PSSN,SNC,[0,341125000,2347]*44
$GPZDA,224512.00,01,01,2025,,*61
$GPDTM,W84,,00.0000000,N,00.0000000,E,00.0000000,W84*5F
$PSSN,TFM,224512.00,,,,*6D
$GPRMC,224512.00,A,4742.1601178,N,01618.1004184,E,0.0,,010125,5.1,E,D*14
$GPGLL,4742.1601178,N,01618.1004184,E,224512.00,A,D*65
$GPGGA,224512.00,4742.1601178,N,01618.1004184,E,2,36,0.4,708.2879,M,43.2066,M,1.6,0136*44
$GNGNS,224512.00,4742.1601178,N,01618.1004184,E,DAAA,36,0.4,708.2879,43.2066,,*5B
$GPGNS,224512.00,,,,,,08,,,,1.6,136*74
$GLGNS,224512.00,,,,,,07,,,,,*7A
$GAGNS,224512.00,,,,,,08,,,,,*78
$GBGNS,224512.00,,,,,,13,,,,,*71
$GPLLQ,224512.00,010125,,M,,M,1,36,0.927,,M*1A
$GPVTG,,T,,M,0.00,N,0.00,K,D*26
$GPHDT,,T*1B
$GPTHS,,V*0E
$GPROT,,V*08
$PSSN,HRP,224512.00,010125,,,,,,,00,0,,*63
$PTNL,AVR,224512.00,,Yaw,,Tilt,,,,0,,00*35
$GPGSA,A,3,02,03,08,10,14,21,27,32,,,,,0.8,0.4,0.6*32
$GPGSA,A,3,68,69,70,75,76,84,85,,,,,,0.8,0.4,0.6*3C
$GPGSA,A,3,07,08,13,24,26,29,31,33,,,,,0.8,0.4,0.6*3E
$GPGSA,A,3,05,06,13,14,16,27,28,30,32,33,39,41,0.8,0.4,0.6*39
$GPGSA,A,3,60,,,,,,,,,,,,0.8,0.4,0.6*3E
$GPGST,224512.00,1.583,0.385,0.343,18.076,0.381,0.347,0.771*63
$GPGBS,224512.00,2.150,2.156,4.706,03,0.0001,0.801,0.855*5D
$GPGRS,224512.00,1,0.2,0.8,0.1,-0.0,0.1,-0.5,-0.4,-0.0,,,,*47
$GPGRS,224512.00,1,5.2,-0.0,-2.0,-2.4,-3.9,-1.3,3.2,,,,,*45
$GPGRS,224512.00,1,0.2,0.3,0.4,-0.4,0.0,-0.1,-0.3,-0.1,,,,*4E
$GPGRS,224512.00,1,1.5,-0.6,0.9,-0.2,-0.1,0.3,-0.1,-0.0,-0.5,-0.7,-0.1,-0.3*6B
$GPGRS,224512.00,1,-1.8,,,,,,,,,,,*46
$GPGSV,5,1,19,21,77,316,45,03,20,236,42,27,27,164,43,10,34,055,46*73
$GPGSV,5,2,19,14,16,307,41,32,48,091,49,08,55,193,49,02,55,299,48*7F
$GPGSV,5,3,19,24,01,021,,17,02,321,39,36,35,170,45,58,13,245,38*7E
$GPGSV,5,4,19,57,12,108,38,49,34,195,44,40,24,132,36,34,31,208,42*7A
$GPGSV,5,5,19,41,07,108,34,61,03,257,38*72
$GLGSV,3,1,09,69,72,094,52,70,26,195,38,83,10,118,34,76,13,329,46*67
$GLGSV,3,2,09,68,29,034,48,85,44,319,50,84,69,076,40,75,07,274,42*64
$GLGSV,3,3,09,77,02,010,36*5A
$GAGSV,3,1,09,26,72,066,48,24,11,328,39,23,15,226,,29,22,167,42*65
$GAGSV,3,2,09,13,21,096,41,08,24,045,41,31,26,278,42,33,50,295,47*64
$GAGSV,3,3,09,07,46,106,46*51
$GBGSV,6,1,22,27,85,233,52,05,24,128,39,20,18,197,,60,10,109,40*6C
$GBGSV,6,2,22,14,14,043,40,06,10,083,36,32,26,206,46,29,28,301,*65
$GBGSV,6,3,22,16,11,079,39,13,13,059,40,30,35,305,47,39,15,070,41*69
$GBGSV,6,4,22,28,42,133,49,33,39,052,48,41,72,143,51,57,69,280,*6D
$GBGSV,6,5,22,02,09,105,33,26,02,339,,31,08,083,,45,01,335,*6C
$GBGSV,6,6,22,09,05,093,,08,04,057,35*65
$GPGGA,224512.00,,,,,0,00,,,M,,M,,*4A
$PTNL,GGK,224512.00,010125,4742.1601178,N,01618.1004184,E,1,36,0.8,EHT751.4945,M*41
$GPGGQ,224512.00,010125,4742.1601178,N,01618.1004184,E,1,36,0.927,708.2879,M*3F
$GPGFA,224512.00,3.663,6.320,0.385,0.343,18.076,0.771,,VVV*35
$GPLLK,224512.00,010125,,M,,M,1,36,0.8,,M*04
$GNGMP,224512.00,,,,,DAAA,36,0.4,,,,*55
$GPGMP,224512.00,,,,,,08,,,,1.6,136*74
$GLGMP,224512.00,,,,,,07,,,,,*7A
$GAGMP,224512.00,,,,,,08,,,,,*78
$GBGMP,224512.00,,,,,,13,,,,,*71
$PSSN,SNC,[0,341130000,2347]*40
$GPZDA,224517.00,01,01,2025,,*64
$GPDTM,W84,,00.0000000,N,00.0000000,E,00.0000000,W84*5F
$PSSN,TFM,224517.00,,,,*68
$GPRMC,224517.00,A,4742.1601186,N,01618.1004205,E,0.0,,010125,5.1,E,D*1A
$GPGLL,4742.1601186,N,01618.1004205,E,224517.00,A,D*6B
$GPGGA,224517.00,4742.1601186,N,01618.1004205,E,2,36,0.4,708.2945,M,43.2066,M,2.1,0136*40
$GNGNS,224517.00,4742.1601186,N,01618.1004205,E,DAAA,36,0.4,708.2945,43.2066,,*5B
$GPGNS,224517.00,,,,,,08,,,,2.1,136*75
$GLGNS,224517.00,,,,,,07,,,,,*7F
$GAGNS,224517.00,,,,,,08,,,,,*7D
$GBGNS,224517.00,,,,,,13,,,,,*74
$GPLLQ,224517.00,010125,,M,,M,1,36,0.919,,M*12
$GPVTG,,T,,M,0.01,N,0.01,K,D*26
$GPHDT,,T*1B
$GPTHS,,V*0E
$GPROT,,V*08
$PSSN,HRP,224517.00,010125,,,,,,,00,0,,*66
$PTNL,AVR,224517.00,,Yaw,,Tilt,,,,0,,00*30
$GPGSA,A,3,02,03,08,10,14,21,27,32,,,,,0.8,0.4,0.6*32
$GPGSA,A,3,68,69,70,75,76,84,85,,,,,,0.8,0.4,0.6*3C
$GPGSA,A,3,07,08,13,24,26,29,31,33,,,,,0.8,0.4,0.6*3E
$GPGSA,A,3,05,06,13,14,16,27,28,30,32,33,39,41,0.8,0.4,0.6*39
$GPGSA,A,3,60,,,,,,,,,,,,0.8,0.4,0.6*3E
$GPGST,224517.00,1.632,0.379,0.338,15.534,0.376,0.341,0.767*67
$GPGBS,224517.00,2.172,2.201,4.771,68,0.0001,5.352,6.170*54
$GPGRS,224517.00,1,-0.2,0.5,0.2,-0.1,0.1,-0.1,-0.5,0.1,,,,*49
$GPGRS,224517.00,1,5.4,0.2,-2.6,-1.9,-4.1,-1.6,3.3,,,,,*6A
$GPGRS,224517.00,1,0.5,0.2,0.3,-0.7,-0.1,-0.0,-0.3,-0.0,,,,*65
$GPGRS,224517.00,1,1.2,-0.4,0.6,-0.2,-0.6,0.3,0.1,0.1,-0.9,-1.0,0.0,-0.3*44
$GPGRS,224517.00,1,-1.7,,,,,,,,,,,*4C
$GPGSV,5,1,19,21,77,316,45,03,20,236,42,27,27,164,43,10,34,055,45*70
$GPGSV,5,2,19,14,16,307,41,32,48,091,49,08,55,193,49,02,55,299,48*7F
$GPGSV,5,3,19,24,01,021,,17,02,321,37,36,35,170,45,58,13,245,38*70
$GPGSV,5,4,19,57,12,108,38,49,34,195,44,40,24,132,36,34,31,208,42*7A
$GPGSV,5,5,19,41,07,108,34,61,03,257,37*7D
$GLGSV,3,1,09,69,72,094,52,70,26,195,38,83,10,118,33,76,13,329,46*60
$GLGSV,3,2,09,68,29,034,47,85,44,319,50,84,69,076,39,75,07,274,42*65
$GLGSV,3,3,09,77,02,010,37*5B
$GAGSV,3,1,09,26,72,066,48,24,11,328,38,23,15,226,,29,22,167,42*64
$GAGSV,3,2,09,13,21,096,41,08,24,045,41,31,26,278,42,33,50,295,47*64
$GAGSV,3,3,09,07,46,106,46*51
$GBGSV,6,1,22,27,85,233,51,05,24,128,38,20,18,197,,60,10,109,40*6E
$GBGSV,6,2,22,14,14,043,39,06,10,083,36,32,26,206,45,29,28,301,*68
$GBGSV,6,3,22,16,11,079,39,13,13,059,39,30,36,305,47,39,15,070,41*64
$GBGSV,6,4,22,28,42,133,49,33,39,052,48,41,72,143,51,57,69,280,*6D
$GBGSV,6,5,22,02,09,105,33,26,02,339,,31,08,083,,45,01,335,*6C
$GBGSV,6,6,22,09,05,093,,08,04,057,35*65
$GPGGA,224517.00,,,,,0,00,,,M,,M,,*4F
$PTNL,GGK,224517.00,010125,4742.1601186,N,01618.1004205,E,1,36,0.8,EHT751.5011,M*46
$GPGGQ,224517.00,010125,4742.1601186,N,01618.1004205,E,1,36,0.919,708.2945,M*32
$GPGFA,224517.00,3.604,6.287,0.379,0.338,15.534,0.767,,VVV*3B
$GPLLK,224517.00,010125,,M,,M,1,36,0.8,,M*01
$GNGMP,224517.00,,,,,DAAA,36,0.4,,,,*50
$GPGMP,224517.00,,,,,,08,,,,2.1,136*75
$GLGMP,224517.00,,,,,,07,,,,,*7F
$GAGMP,224517.00,,,,,,08,,,,,*7D
$GBGMP,224517.00,,,,,,13,,,,,*74
$PSSN,SNC,[0,341135000,2347]*45
$GPZDA,224522.00,01,01,2025,,*62
$GPDTM,W84,,00.0000000,N,00.0000000,E,00.0000000,W84*5F
$PSSN,TFM,224522.00,,,,*6E
$GPRMC,224522.00,A,4742.1601176,N,01618.1004236,E,0.0,,010125,5.1,E,D*13
$GPGLL,4742.1601176,N,01618.1004236,E,224522.00,A,D*62
$GPGGA,224522.00,4742.1601176,N,01618.1004236,E,2,36,0.4,708.2939,M,43.2066,M,3.1,0136*43
$GNGNS,224522.00,4742.1601176,N,01618.1004236,E,DAAA,36,0.4,708.2939,43.2066,,*59
$GPGNS,224522.00,,,,,,08,,,,3.1,136*72
$GLGNS,224522.00,,,,,,07,,,,,*79
$GAGNS,224522.00,,,,,,08,,,,,*7B
$GBGNS,224522.00,,,,,,13,,,,,*72
$GPLLQ,224522.00,010125,,M,,M,1,36,0.935,,M*1A
$GPVTG,,T,,M,0.00,N,0.00,K,D*26
$GPHDT,,T*1B
$GPTHS,,V*0E
$GPROT,,V*08
$PSSN,HRP,224522.00,010125,,,,,,,00,0,,*60
$PTNL,AVR,224522.00,,Yaw,,Tilt,,,,0,,00*36
$GPGSA,A,3,02,03,08,10,14,21,27,32,,,,,0.8,0.4,0.6*32
$GPGSA,A,3,68,69,70,75,76,84,85,,,,,,0.8,0.4,0.6*3C
$GPGSA,A,3,07,08,13,24,26,29,31,33,,,,,0.8,0.4,0.6*3E
$GPGSA,A,3,05,06,13,14,16,27,28,30,32,33,39,41,0.8,0.4,0.6*39
$GPGSA,A,3,60,,,,,,,,,,,,0.8,0.4,0.6*3E
$GPGST,224522.00,1.650,0.385,0.340,12.955,0.383,0.342,0.781*64
$GPGBS,224522.00,2.216,2.226,4.851,03,0.0001,0.754,0.877*59
$GPGRS,224522.00,1,-0.1,0.8,0.0,0.0,-0.1,-0.2,-0.5,0.2,,,,*42
$GPGRS,224522.00,1,5.0,0.5,-1.7,-2.5,-4.5,-1.4,3.5,,,,,*62
$GPGRS,224522.00,1,0.2,0.0,0.5,-1.1,0.0,-0.1,-0.3,0.3,,,,*64
$GPGRS,224522.00,1,1.5,-0.0,0.2,-0.4,-0.7,0.2,0.1,0.1,-0.9,-0.7,0.0,-0.3*45
$GPGRS,224522.00,1,-1.6,,,,,,,,,,,*4B
$GPGSV,5,1,19,21,77,316,45,03,20,236,42,27,27,164,43,10,34,055,45*70
$GPGSV,5,2,19,14,16,307,40,32,48,091,49,08,55,193,49,02,55,299,48*7E
$GPGSV,5,3,19,24,01,021,,17,02,321,37,36,35,170,44,58,13,245,38*71
$GPGSV,5,4,19,57,12,108,38,49,34,195,44,40,24,132,36,34,31,208,42*7A
$GPGSV,5,5,19,41,07,108,34,61,03,257,38*72
$GLGSV,3,1,09,69,72,094,52,70,26,195,40,83,10,118,32,76,13,329,46*6E
$GLGSV,3,2,09,68,29,034,47,85,44,319,51,84,69,077,40,75,07,274,41*68
$GLGSV,3,3,09,77,03,010,37*5A
$GAGSV,3,1,09,26,72,066,49,24,11,328,39,23,15,226,,29,22,167,42*64
$GAGSV,3,2,09,13,21,096,40,08,24,045,41,31,25,278,42,33,50,295,47*66
$GAGSV,3,3,09,07,46,106,46*51
$GBGSV,6,1,22,27,85,232,51,05,24,128,38,20,18,197,,60,10,109,40*6F
$GBGSV,6,2,22,14,14,043,40,06,10,083,36,32,26,206,44,29,29,301,*66
$GBGSV,6,3,22,16,11,079,38,13,13,059,39,30,36,305,47,39,15,070,41*65
$GBGSV,6,4,22,28,42,133,48,33,39,052,48,41,72,143,51,57,69,280,*6C
$GBGSV,6,5,22,02,09,105,33,26,02,339,,31,08,083,,45,01,335,*6C
$GBGSV,6,6,22,09,05,093,,08,04,057,35*65
$GPGGA,224522.00,,,,,0,00,,,M,,M,,*49
$PTNL,GGK,224522.00,010125,4742.1601176,N,01618.1004236,E,1,36,0.8,EHT751.5004,M*4B
$GPGGQ,224522.00,010125,4742.1601176,N,01618.1004236,E,1,36,0.935,708.2939,M*3E
$GPGFA,224522.00,3.660,6.406,0.385,0.340,12.955,0.781,,VVV*38
$GPLLK,224522.00,010125,,M,,M,1,36,0.8,,M*07
$GNGMP,224522.00,,,,,DAAA,36,0.4,,,,*56
$GPGMP,224522.00,,,,,,08,,,,3.1,136*72
$GLGMP,224522.00,,,,,,07,,,,,*79
$GAGMP,224522.00,,,,,,08,,,,,*7B
$GBGMP,224522.00,,,,,,13,,,,,*72
$PSSN,SNC,[0,341140000,2347]*47
$GPZDA,224527.00,01,01,2025,,*67
$GPDTM,W84,,00.0000000,N,00.0000000,E,00.0000000,W84*5F
$PSSN,TFM,224527.00,,,,*6B
$GPRMC,224527.00,A,4742.1601196,N,01618.1004237,E,0.0,,010125,5.1,E,D*19
$GPGLL,4742.1601196,N,01618.1004237,E,224527.00,A,D*68
$GPGGA,224527.00,4742.1601196,N,01618.1004237,E,2,36,0.4,708.2948,M,43.2066,M,3.1,0136*4F
$GNGNS,224527.00,4742.1601196,N,01618.1004237,E,DAAA,36,0.4,708.2948,43.2066,,*55
$GPGNS,224527.00,,,,,,08,,,,3.1,136*77
$GLGNS,224527.00,,,,,,07,,,,,*7C
$GAGNS,224527.00,,,,,,08,,,,,*7E
$GBGNS,224527.00,,,,,,13,,,,,*77
$GPLLQ,224527.00,010125,,M,,M,1,36,0.941,,M*1C
$GPVTG,,T,,M,0.01,N,0.01,K,D*26
$GPHDT,,T*1B
$GPTHS,,V*0E
$GPROT,,V*08
$PSSN,HRP,224527.00,010125,,,,,,,00,0,,*65
$PTNL,AVR,224527.00,,Yaw,,Tilt,,,,0,,00*33
$GPGSA,A,3,02,03,08,10,14,21,27,32,,,,,0.8,0.4,0.6*32
$GPGSA,A,3,68,69,70,75,76,84,85,,,,,,0.8,0.4,0.6*3C
$GPGSA,A,3,07,08,13,24,26,29,31,33,,,,,0.8,0.4,0.6*3E
$GPGSA,A,3,05,06,13,14,16,27,28,30,32,33,39,41,0.8,0.4,0.6*39
$GPGSA,A,3,60,,,,,,,,,,,,0.8,0.4,0.6*3E
$GPGST,224527.00,1.858,0.390,0.344,14.780,0.387,0.347,0.784*63
$GPGBS,224527.00,2.254,2.245,4.941,03,0.0001,0.898,0.892*5B
$GPGRS,224527.00,1,-0.3,0.9,0.0,0.3,-0.3,-0.1,-0.5,0.2,,,,*46
$GPGRS,224527.00,1,5.6,0.3,-1.4,-2.7,-4.7,-1.8,4.2,,,,,*68
$GPGRS,224527.00,1,0.2,0.1,0.2,-1.1,0.1,0.2,-0.6,0.3,,,,*4D
$GPGRS,224527.00,1,0.7,2.5,-0.2,0.1,1.3,0.3,-0.2,0.1,-0.2,-0.5,-0.2,-0.2*4C
$GPGRS,224527.00,1,-1.8,,,,,,,,,,,*40
$GPGSV,5,1,19,21,77,316,45,03,20,236,41,27,26,164,43,10,34,055,45*72
$GPGSV,5,2,19,14,16,307,40,32,48,091,49,08,55,193,49,02,55,299,48*7E
$GPGSV,5,3,19,24,01,021,,17,02,321,36,36,35,170,45,58,13,245,38*71
$GPGSV,5,4,19,57,12,108,38,49,34,195,44,40,24,132,36,34,31,208,42*7A
$GPGSV,5,5,19,41,07,108,34,61,03,257,38*72
$GLGSV,3,1,09,69,72,094,52,70,26,195,39,83,10,118,33,76,13,329,45*62
$GLGSV,3,2,09,68,29,034,48,85,44,319,51,84,69,077,40,75,07,274,42*64
$GLGSV,3,3,09,77,03,010,36*5B
$GAGSV,3,1,09,26,72,066,49,24,11,328,38,23,15,226,,29,22,167,42*65
$GAGSV,3,2,09,13,21,096,40,08,24,045,41,31,25,278,42,33,50,295,47*66
$GAGSV,3,3,09,07,46,106,47*50
$GBGSV,6,1,22,27,85,232,52,05,24,128,38,20,18,197,,60,10,109,40*6C
$GBGSV,6,2,22,14,14,043,40,06,10,083,36,29,29,301,,32,26,206,44*66
$GBGSV,6,3,22,16,11,079,38,13,13,059,39,30,36,305,46,39,15,070,40*65
$GBGSV,6,4,22,28,42,133,48,33,39,052,48,41,72,143,51,57,69,280,*6C
$GBGSV,6,5,22,02,09,105,33,09,05,093,,31,08,083,,45,01,335,*65
$GBGSV,6,6,22,26,02,339,,08,04,057,35*6C
$GPGGA,224527.00,,,,,0,00,,,M,,M,,*4C
$PTNL,GGK,224527.00,010125,4742.1601196,N,01618.1004237,E,1,36,0.8,EHT751.5013,M*47
$GPGGQ,224527.00,010125,4742.1601196,N,01618.1004237,E,1,36,0.941,708.2948,M*31
$GPGFA,224527.00,3.706,6.427,0.390,0.344,14.780,0.784,,VVV*3A
$GPLLK,224527.00,010125,,M,,M,1,36,0.8,,M*02
$GNGMP,224527.00,,,,,DAAA,36,0.4,,,,*53
$GPGMP,224527.00,,,,,,08,,,,3.1,136*77
$GLGMP,224527.00,,,,,,07,,,,,*7C
$GAGMP,224527.00,,,,,,08,,,,,*7E
$GBGMP,224527.00,,,,,,13,,,,,*77
$PSSN,SNC,[0,341145000,2347]*42
$GPZDA,224532.00,01,01,2025,,*63
$GPDTM,W84,,00.0000000,N,00.0000000,E,00.0000000,W84*5F
$PSSN,TFM,224532.00,,,,*6F
$GPRMC,224532.00,A,4742.1601183,N,01618.1004217,E,0.0,,010125,5.1,E,D*1B
$GPGLL,4742.1601183,N,01618.1004217,E,224532.00,A,D*6A
$GPGGA,224532.00,4742.1601183,N,01618.1004217,E,2,36,0.4,708.2996,M,43.2066,M,1.6,0136*4B
$GNGNS,224532.00,4742.1601183,N,01618.1004217,E,DAAA,36,0.4,708.2996,43.2066,,*54
$GPGNS,224532.00,,,,,,08,,,,1.6,136*76
$GLGNS,224532.00,,,,,,07,,,,,*78
$GAGNS,224532.00,,,,,,08,,,,,*7A
$GBGNS,224532.00,,,,,,13,,,,,*73
$GPLLQ,224532.00,010125,,M,,M,1,36,0.926,,M*19
$GPVTG,,T,,M,0.00,N,0.00,K,D*26
$GPHDT,,T*1B
$GPTHS,,V*0E
$GPROT,,V*08
$PSSN,HRP,224532.00,010125,,,,,,,00,0,,*61
$PTNL,AVR,224532.00,,Yaw,,Tilt,,,,0,,00*37
$GPGSA,A,3,02,03,08,10,14,21,27,32,,,,,0.8,0.4,0.6*32
$GPGSA,A,3,68,69,70,75,76,84,85,,,,,,0.8,0.4,0.6*3C
$GPGSA,A,3,07,08,13,24,26,29,31,33,,,,,0.8,0.4,0.6*3E
$GPGSA,A,3,05,06,13,14,16,27,28,30,32,33,39,41,0.8,0.4,0.6*39
$GPGSA,A,3,60,,,,,,,,,,,,0.8,0.4,0.6*3E
$GPGST,224532.00,1.825,0.385,0.343,17.345,0.382,0.347,0.769*66
$GPGBS,224532.00,2.156,2.147,4.694,68,0.0001,6.191,6.170*50
$GPGRS,224532.00,1,-0.4,0.3,-0.1,0.3,-0.1,0.0,-0.3,0.3,,,,*4A
$GPGRS,224532.00,1,6.2,0.4,-1.7,-1.4,-5.1,-0.9,3.9,,,,,*64
$GPGRS,224532.00,1,0.5,0.2,0.2,-1.0,0.0,-0.2,-0.5,0.2,,,,*62
$GPGRS,224532.00,1,0.6,1.6,-0.2,0.4,1.4,0.3,-0.2,-0.3,0.9,-0.4,-0.1,-0.0*42
$GPGRS,224532.00,1,-1.8,,,,,,,,,,,*44
$GPGSV,5,1,19,21,77,317,45,03,20,236,42,27,26,164,43,10,34,055,46*73
$GPGSV,5,2,19,14,16,307,40,32,48,091,49,08,55,193,49,02,55,299,48*7E
$GPGSV,5,3,19,24,01,021,,17,02,321,37,36,35,170,45,58,13,245,38*70
$GPGSV,5,4,19,57,12,108,38,49,34,195,44,40,24,132,36,34,31,208,43*7B
$GPGSV,5,5,19,41,07,108,34,61,03,257,38*72
$GLGSV,3,1,09,69,72,093,52,70,26,195,38,83,10,118,33,76,13,329,44*65
$GLGSV,3,2,09,68,29,034,48,85,44,319,50,84,69,077,40,75,07,274,42*65
$GLGSV,3,3,09,77,03,010,37*5A
$GAGSV,3,1,09,26,72,066,48,24,11,328,38,23,15,226,,29,22,167,41*67
$GAGSV,3,2,09,13,21,096,40,08,24,045,41,31,25,278,42,33,50,295,47*66
$GAGSV,3,3,09,07,46,106,47*50
$GBGSV,6,1,22,27,85,232,52,05,24,128,38,20,18,197,,60,10,109,40*6C
$GBGSV,6,2,22,14,14,043,40,06,10,083,36,29,29,301,,32,26,206,45*67
$GBGSV,6,3,22,16,11,079,38,13,13,059,39,30,36,305,47,39,15,070,40*64
$GBGSV,6,4,22,28,42,133,49,33,39,052,48,41,72,143,51,57,69,281,*6C
$GBGSV,6,5,22,02,09,105,33,09,05,093,,31,08,083,,45,01,335,*65
$GBGSV,6,6,22,26,02,339,,08,04,057,35*6C
$GPGGA,224532.00,,,,,0,00,,,M,,M,,*48
$PTNL,GGK,224532.00,010125,4742.1601183,N,01618.1004217,E,1,36,0.8,EHT751.5061,M*40
$GPGGQ,224532.00,010125,4742.1601183,N,01618.1004217,E,1,36,0.926,708.2996,M*31
$GPGFA,224532.00,3.662,6.308,0.385,0.343,17.345,0.769,,VVV*39
$GPLLK,224532.00,010125,,M,,M,1,36,0.8,,M*06
$GNGMP,224532.00,,,,,DAAA,36,0.4,,,,*57
$GPGMP,224532.00,,,,,,08,,,,1.6,136*76
$GLGMP,224532.00,,,,,,07,,,,,*78
$GAGMP,224532.00,,,,,,08,,,,,*7A
$GBGMP,224532.00,,,,,,13,,,,,*73
$PSSN,SNC,[0,341150000,2347]*46
$GPZDA,224537.00,01,01,2025,,*66
$GPDTM,W84,,00.0000000,N,00.0000000,E,00.0000000,W84*5F
$PSSN,TFM,224537.00,,,,*6A
$GPRMC,224537.00,A,4742.1601182,N,01618.1004172,E,0.0,,010125,5.1,E,D*1F
$GPGLL,4742.1601182,N,01618.1004172,E,224537.00,A,D*6E
$GPGGA,224537.00,4742.1601182,N,01618.1004172,E,2,36,0.4,708.3015,M,43.2066,M,2.1,0136*48
$GNGNS,224537.00,4742.1601182,N,01618.1004172,E,DAAA,36,0.4,708.3015,43.2066,,*53
$GPGNS,224537.00,,,,,,08,,,,2.1,136*77
$GLGNS,224537.00,,,,,,07,,,,,*7D
$GAGNS,224537.00,,,,,,08,,,,,*7F
$GBGNS,224537.00,,,,,,13,,,,,*76
$GPLLQ,224537.00,010125,,M,,M,1,36,0.918,,M*11
$GPVTG,,T,,M,0.00,N,0.00,K,D*26
$GPHDT,,T*1B
$GPTHS,,V*0E
$GPROT,,V*08
$PSSN,HRP,224537.00,010125,,,,,,,00,0,,*64
$PTNL,AVR,224537.00,,Yaw,,Tilt,,,,0,,00*32
$GPGSA,A,3,02,03,08,10,14,21,27,32,,,,,0.8,0.4,0.6*32
$GPGSA,A,3,68,69,70,75,76,84,85,,,,,,0.8,0.4,0.6*3C
$GPGSA,A,3,07,08,13,24,26,29,31,33,,,,,0.8,0.4,0.6*3E
$GPGSA,A,3,05,06,13,14,16,27,28,30,32,33,39,41,0.8,0.4,0.6*39
$GPGSA,A,3,60,,,,,,,,,,,,0.8,0.4,0.6*3E
$GPGST,224537.00,1.792,0.379,0.338,14.777,0.376,0.340,0.765*69
$GPGBS,224537.00,2.175,2.197,4.758,68,0.0001,6.073,6.171*54
$GPGRS,224537.00,1,-0.0,0.3,-0.0,0.2,0.0,-0.2,-0.4,0.3,,,,*4F
$GPGRS,224537.00,1,6.1,0.1,-2.5,-1.4,-5.2,-1.5,2.8,,,,,*68
$GPGRS,224537.00,1,-0.2,0.4,0.6,-1.0,-0.1,-0.5,-0.3,-0.2,,,,*4F
$GPGRS,224537.00,1,0.9,1.4,-0.2,0.9,1.4,0.1,0.0,0.1,0.4,-0.6,-0.0,-0.3*48
$GPGRS,224537.00,1,-1.4,,,,,,,,,,,*4D
$GPGSV,5,1,19,21,77,317,45,03,20,236,42,27,26,164,43,10,34,055,46*73
$GPGSV,5,2,19,14,16,307,40,32,48,091,49,08,54,192,49,02,55,299,49*7F
$GPGSV,5,3,19,24,01,021,,17,02,321,38,36,35,170,45,58,13,245,38*7F
$GPGSV,5,4,19,57,12,108,38,49,34,195,44,40,24,132,37,34,31,208,43*7A
$GPGSV,5,5,19,41,07,108,34,61,03,257,38*72
$GLGSV,3,1,09,69,72,093,52,70,26,195,38,83,10,118,33,76,13,329,45*64
$GLGSV,3,2,09,68,29,034,48,85,44,319,50,84,69,077,40,75,07,274,41*66
$GLGSV,3,3,09,77,03,010,36*5B
$GAGSV,3,1,09,26,72,066,48,24,11,328,38,23,14,226,,29,22,167,41*66
$GAGSV,3,2,09,13,21,096,40,08,24,045,41,31,25,277,42,33,50,295,47*69
$GAGSV,3,3,09,07,46,106,46*51
$GBGSV,6,1,22,27,85,231,51,05,24,128,38,20,19,197,,60,10,109,40*6D
$GBGSV,6,2,22,14,14,043,41,06,10,083,36,29,29,301,,32,26,206,45*66
$GBGSV,6,3,22,16,11,079,38,13,13,059,39,30,36,305,46,39,15,070,40*65
$GBGSV,6,4,22,28,42,133,48,33,39,052,47,41,72,143,51,57,69,281,*62
$GBGSV,6,5,22,02,09,105,34,09,05,093,,31,08,083,,45,01,335,*62
$GBGSV,6,6,22,26,02,339,,08,04,057,35*6C
$GPGGA,224537.00,,,,,0,00,,,M,,M,,*4D
$PTNL,GGK,224537.00,010125,4742.1601182,N,01618.1004172,E,1,36,0.8,EHT751.5081,M*4A
$GPGGQ,224537.00,010125,4742.1601182,N,01618.1004172,E,1,36,0.918,708.3015,M*3B
$GPGFA,224537.00,3.602,6.275,0.379,0.338,14.777,0.765,,VVV*34
$GPLLK,224537.00,010125,,M,,M,1,36,0.8,,M*03
$GNGMP,224537.00,,,,,DAAA,36,0.4,,,,*52
$GPGMP,224537.00,,,,,,08,,,,2.1,136*77
$GLGMP,224537.00,,,,,,07,,,,,*7D
$GAGMP,224537.00,,,,,,08,,,,,*7F
$GBGMP,224537.00,,,,,,13,,,,,*76
$PSSN,SNC,[0,341155000,2347]*43
$GPZDA,224542.00,01,01,2025,,*64
$GPDTM,W84,,00.0000000,N,00.0000000,E,00.0000000,W84*5F
$PSSN,TFM,224542.00,,,,*68
$GPRMC,224542.00,A,4742.1601168,N,01618.1004160,E,0.0,,010125,5.1,E,D*1A
$GPGLL,4742.1601168,N,01618.1004160,E,224542.00,A,D*6B
$GPGGA,224542.00,4742.1601168,N,01618.1004160,E,2,36,0.4,708.2982,M,43.2066,M,3.1,0136*4A
$GNGNS,224542.00,4742.1601168,N,01618.1004160,E,DAAA,36,0.4,708.2982,43.2066,,*50
$GPGNS,224542.00,,,,,,08,,,,3.1,136*74
$GLGNS,224542.00,,,,,,07,,,,,*7F
$GAGNS,224542.00,,,,,,08,,,,,*7D
$GBGNS,224542.00,,,,,,13,,,,,*74
$GPLLQ,224542.00,010125,,M,,M,1,36,0.933,,M*1A
$GPVTG,,T,,M,0.00,N,0.01,K,D*27
$GPHDT,,T*1B
$GPTHS,,V*0E
$GPROT,,V*08
$PSSN,HRP,224542.00,010125,,,,,,,00,0,,*66
$PTNL,AVR,224542.00,,Yaw,,Tilt,,,,0,,00*30
$GPGSA,A,3,02,03,08,10,14,21,27,32,,,,,0.8,0.4,0.6*32
$GPGSA,A,3,68,69,70,75,76,84,85,,,,,,0.8,0.4,0.6*3C
$GPGSA,A,3,07,08,13,24,26,29,31,33,,,,,0.8,0.4,0.6*3E
$GPGSA,A,3,05,06,13,14,16,27,28,30,32,33,39,41,0.8,0.4,0.6*39
$GPGSA,A,3,60,,,,,,,,,,,,0.8,0.4,0.6*3E
$GPGST,224542.00,1.788,0.385,0.340,12.252,0.383,0.342,0.779*6D
$GPGBS,224542.00,2.214,2.221,4.838,68,0.0001,5.951,6.171*5F
$GPGRS,224542.00,1,-0.1,0.4,0.0,-0.1,-0.2,0.0,-0.5,0.1,,,,*4B
$GPGRS,224542.00,1,6.0,0.2,-2.3,-2.4,-4.7,-1.8,2.9,,,,,*65
$GPGRS,224542.00,1,-0.0,0.5,0.5,-0.7,0.1,-0.5,-0.5,-0.1,,,,*63
$GPGRS,224542.00,1,0.8,1.7,0.2,1.3,1.4,0.1,0.0,-0.1,-0.1,-0.7,-0.5,-0.3*6F
$GPGRS,224542.00,1,-1.6,,,,,,,,,,,*4D
$GPGSV,5,1,19,21,77,317,45,03,20,236,42,27,26,164,42,10,34,056,46*71
$GPGSV,5,2,19,14,16,307,41,32,48,091,49,08,54,192,49,02,55,299,48*7F
$GPGSV,5,3,19,24,01,021,,17,02,321,38,36,35,170,45,58,13,245,38*7F
$GPGSV,5,4,19,57,12,108,38,49,34,195,44,40,24,132,36,34,31,208,42*7A
$GPGSV,5,5,19,41,07,108,34,61,03,257,38*72
$GLGSV,3,1,09,69,72,093,52,70,26,195,39,83,10,118,33,76,13,329,44*64
$GLGSV,3,2,09,68,29,034,48,85,44,319,50,84,69,077,39,75,07,274,42*6B
$GLGSV,3,3,09,77,03,010,35*58
$GAGSV,3,1,09,26,72,066,48,24,11,328,38,23,14,226,,29,22,167,41*66
$GAGSV,3,2,09,13,21,096,40,08,24,045,41,31,25,277,42,33,50,296,47*6A
$GAGSV,3,3,09,07,46,106,46*51
$GBGSV,6,1,22,27,85,231,51,05,24,128,38,20,19,197,,60,10,109,40*6D
$GBGSV,6,2,22,14,14,043,41,06,10,083,36,29,29,301,,32,26,206,45*66
$GBGSV,6,3,22,16,11,079,38,13,13,059,39,30,36,305,47,39,15,070,40*64
$GBGSV,6,4,22,28,42,133,48,33,39,052,48,41,72,143,51,57,69,281,*6D
$GBGSV,6,5,22,02,09,105,33,09,05,093,,31,08,083,,45,01,335,*65
$GBGSV,6,6,22,26,02,339,,08,04,057,36*6F
$GPGGA,224542.00,,,,,0,00,,,M,,M,,*4F
$PTNL,GGK,224542.00,010125,4742.1601168,N,01618.1004160,E,1,36,0.8,EHT751.5047,M*45
$GPGGQ,224542.00,010125,4742.1601168,N,01618.1004160,E,1,36,0.933,708.2982,M*31
$GPGFA,224542.00,3.659,6.391,0.385,0.340,12.252,0.779,,VVV*36
$GPLLK,224542.00,010125,,M,,M,1,36,0.8,,M*01
$GNGMP,224542.00,,,,,DAAA,36,0.4,,,,*50
$GPGMP,224542.00,,,,,,08,,,,3.1,136*74
$GLGMP,224542.00,,,,,,07,,,,,*7F
$GAGMP,224542.00,,,,,,08,,,,,*7D
$GBGMP,224542.00,,,,,,13,,,,,*74
$PSSN,SNC,[0,341160000,2347]*45
$GPZDA,224547.00,01,01,2025,,*61
$GPDTM,W84,,00.0000000,N,00.0000000,E,00.0000000,W84*5F
$PSSN,TFM,224547.00,,,,*6D
$GPRMC,224547.00,A,4742.1601170,N,01618.1004177,E,0.0,,010125,5.1,E,D*10
$GPGLL,4742.1601170,N,01618.1004177,E,224547.00,A,D*61
$GPGGA,224547.00,4742.1601170,N,01618.1004177,E,2,36,0.4,708.2988,M,43.2066,M,3.1,0136*4A
$GNGNS,224547.00,4742.1601170,N,01618.1004177,E,DAAA,36,0.4,708.2988,43.2066,,*50
$GPGNS,224547.00,,,,,,08,,,,3.1,136*71
$GLGNS,224547.00,,,,,,07,,,,,*7A
$GAGNS,224547.00,,,,,,08,,,,,*78
$GBGNS,224547.00,,,,,,13,,,,,*71
$GPLLQ,224547.00,010125,,M,,M,1,36,0.940,,M*1B
$GPVTG,,T,,M,0.00,N,0.00,K,D*26
$GPHDT,,T*1B
$GPTHS,,V*0E
$GPROT,,V*08
$PSSN,HRP,224547.00,010125,,,,,,,00,0,,*63
$PTNL,AVR,224547.00,,Yaw,,Tilt,,,,0,,00*35
$GPGSA,A,3,02,03,08,10,14,21,27,32,,,,,0.8,0.4,0.6*32
$GPGSA,A,3,68,69,70,75,76,84,85,,,,,,0.8,0.4,0.6*3C
$GPGSA,A,3,07,08,13,24,26,29,31,33,,,,,0.8,0.4,0.6*3E
$GPGSA,A,3,05,06,13,14,16,27,28,30,32,33,39,41,0.8,0.4,0.6*39
$GPGSA,A,3,60,,,,,,,,,,,,0.8,0.4,0.6*3E
$GPGST,224547.00,1.766,0.390,0.344,14.330,0.387,0.347,0.783*6F
$GPGBS,224547.00,2.252,2.244,4.939,68,0.0001,5.689,6.171*51
$GPGRS,224547.00,1,-0.2,0.3,0.0,-0.1,0.2,-0.0,-0.5,0.2,,,,*49
$GPGRS,224547.00,1,5.7,0.3,-2.6,-1.8,-4.9,-2.1,3.1,,,,,*62
$GPGRS,224547.00,1,0.3,0.5,0.6,-0.2,0.1,-0.1,-0.6,-0.1,,,,*49
$GPGRS,224547.00,1,0.8,0.9,1.0,1.1,1.5,0.3,-0.1,0.2,-0.5,-0.7,-0.2,-0.2*67
$GPGRS,224547.00,1,-1.6,,,,,,,,,,,*48
$GPGSV,5,1,19,21,77,317,45,03,20,237,41,27,26,164,43,10,34,056,46*72
$GPGSV,5,2,19,14,16,307,41,32,48,091,49,08,54,192,49,02,55,299,48*7F
$GPGSV,5,3,19,24,01,021,,17,02,321,38,36,35,170,45,58,13,245,38*7F
$GPGSV,5,4,19,57,12,108,38,49,34,195,44,40,24,132,36,34,31,208,42*7A
$GPGSV,5,5,19,41,07,108,34,61,03,257,38*72
$GLGSV,3,1,09,69,72,093,52,70,26,195,39,83,10,118,33,76,13,329,44*64
$GLGSV,3,2,09,68,29,034,48,85,44,319,50,84,69,077,40,75,07,274,40*67
$GLGSV,3,3,09,77,03,010,36*5B
$GAGSV,3,1,09,26,72,067,48,24,11,327,38,23,14,226,,29,23,167,41*69
$GAGSV,3,2,09,13,21,096,40,08,24,045,41,31,25,277,42,33,50,296,47*6A
$GAGSV,3,3,09,07,46,106,46*51
$GBGSV,6,1,22,27,85,230,52,05,24,128,38,20,19,197,,60,10,109,40*6F
$GBGSV,6,2,22,14,14,043,41,06,10,083,36,29,29,301,,32,26,206,45*66
$GBGSV,6,3,22,16,11,079,38,13,13,059,39,30,36,305,47,39,15,070,40*64
$GBGSV,6,4,22,28,42,133,48,33,39,052,48,41,72,143,51,57,69,281,*6D
$GBGSV,6,5,22,02,09,105,33,09,05,093,,31,08,083,,45,01,335,*65
$GBGSV,6,6,22,26,02,339,,08,04,057,35*6C
$GPGGA,224547.00,,,,,0,00,,,M,,M,,*4A
$PTNL,GGK,224547.00,010125,4742.1601170,N,01618.1004177,E,1,36,0.8,EHT751.5054,M*4D
$GPGGQ,224547.00,010125,4742.1601170,N,01618.1004177,E,1,36,0.940,708.2988,M*35
$GPGFA,224547.00,3.706,6.421,0.390,0.344,14.330,0.783,,VVV*32
$GPLLK,224547.00,010125,,M,,M,1,36,0.8,,M*04
$GNGMP,224547.00,,,,,DAAA,36,0.4,,,,*55
$GPGMP,224547.00,,,,,,08,,,,3.1,136*71
$GLGMP,224547.00,,,,,,07,,,,,*7A
$GAGMP,224547.00,,,,,,08,,,,,*78
$GBGMP,224547.00,,,,,,13,,,,,*71
$PSSN,SNC,[0,341165000,2347]*40
$GPZDA,224552.00,01,01,2025,,*65
$GPDTM,W84,,00.0000000,N,00.0000000,E,00.0000000,W84*5F
$PSSN,TFM,224552.00,,,,*69
$GPRMC,224552.00,A,4742.1601167,N,01618.1004141,E,0.0,,010125,5.1,E,D*17
$GPGLL,4742.1601167,N,01618.1004141,E,224552.00,A,D*66
$GPGGA,224552.00,4742.1601167,N,01618.1004141,E,2,36,0.4,708.2965,M,43.2066,M,1.6,0136*4B
$GNGNS,224552.00,4742.1601167,N,01618.1004141,E,DAAA,36,0.4,708.2965,43.2066,,*54
$GPGNS,224552.00,,,,,,08,,,,1.6,136*70
$GLGNS,224552.00,,,,,,07,,,,,*7E
$GAGNS,224552.00,,,,,,08,,,,,*7C
$GBGNS,224552.00,,,,,,13,,,,,*75
$GPLLQ,224552.00,010125,,M,,M,1,36,0.926,,M*1F
$GPVTG,,T,,M,0.00,N,0.01,K,D*27
$GPHDT,,T*1B
$GPTHS,,V*0E
$GPROT,,V*08
$PSSN,HRP,224552.00,010125,,,,,,,00,0,,*67
$PTNL,AVR,224552.00,,Yaw,,Tilt,,,,0,,00*31
$GPGSA,A,3,02,03,08,10,14,21,27,32,,,,,0.8,0.4,0.6*32
$GPGSA,A,3,68,69,70,75,76,84,85,,,,,,0.8,0.4,0.6*3C
$GPGSA,A,3,07,08,13,24,26,29,31,33,,,,,0.8,0.4,0.6*3E
$GPGSA,A,3,05,06,13,14,16,27,28,30,32,33,39,41,0.8,0.4,0.6*39
$GPGSA,A,3,60,,,,,,,,,,,,0.8,0.4,0.6*3E
$GPGST,224552.00,1.794,0.385,0.343,16.864,0.382,0.347,0.769*6C
$GPGBS,224552.00,2.164,2.144,4.692,68,0.0001,6.296,6.171*57
$GPGRS,224552.00,1,-0.0,0.1,0.0,-0.1,-0.3,0.0,-0.3,0.4,,,,*4C
$GPGRS,224552.00,1,6.3,0.2,-2.2,-1.4,-4.4,-1.3,3.5,,,,,*60
$GPGRS,224552.00,1,0.3,0.5,0.5,-0.3,-0.1,0.2,-0.2,0.3,,,,*67
$GPGRS,224552.00,1,0.9,1.6,0.9,0.9,2.1,0.3,0.0,0.0,-0.2,-0.3,0.2,-0.1*69
$GPGRS,224552.00,1,-1.6,,,,,,,,,,,*4C
$GPGSV,5,1,19,21,77,317,45,03,20,237,42,27,26,164,43,10,33,056,45*75
$GPGSV,5,2,19,14,16,307,41,32,48,091,49,08,54,192,49,02,55,299,48*7F
$GPGSV,5,3,19,24,01,021,,17,02,321,38,36,35,170,45,58,13,245,38*7F
$GPGSV,5,4,19,57,12,108,38,49,34,195,44,40,24,132,36,34,31,208,42*7A
$GPGSV,5,5,19,41,07,108,34,61,03,257,39*73
$GLGSV,3,1,09,69,72,093,52,70,26,195,39,83,10,118,33,76,13,329,45*65
$GLGSV,3,2,09,68,29,034,48,85,44,319,50,84,69,077,39,75,07,274,42*6B
$GLGSV,3,3,09,77,03,010,37*5A
$GAGSV,3,1,09,26,72,067,48,24,11,327,38,23,14,226,,29,23,167,41*69
$GAGSV,3,2,09,13,21,096,40,08,24,045,41,31,25,277,42,33,50,296,47*6A
$GAGSV,3,3,09,07,46,106,47*50
$GBGSV,6,1,22,27,85,230,52,05,24,128,38,20,19,197,,60,10,109,40*6F
$GBGSV,6,2,22,14,14,043,40,06,10,083,36,29,29,301,,32,26,206,46*64
$GBGSV,6,3,22,16,11,079,38,13,13,059,39,30,36,305,47,39,15,070,40*64
$GBGSV,6,4,22,28,42,133,48,33,39,052,48,41,72,143,51,57,69,281,*6D
$GBGSV,6,5,22,02,09,105,34,09,05,093,,31,08,083,,45,01,335,*62
$GBGSV,6,6,22,26,02,339,,08,04,057,35*6C
$GPGGA,224552.00,,,,,0,00,,,M,,M,,*4E
$PTNL,GGK,224552.00,010125,4742.1601167,N,01618.1004141,E,1,36,0.8,EHT751.5031,M*49
$GPGGQ,224552.00,010125,4742.1601167,N,01618.1004141,E,1,36,0.926,708.2965,M*31
$GPGFA,224552.00,3.662,6.302,0.385,0.343,16.864,0.769,,VVV*3C
$GPLLK,224552.00,010125,,M,,M,1,36,0.8,,M*00
$GNGMP,224552.00,,,,,DAAA,36,0.4,,,,*51
$GPGMP,224552.00,,,,,,08,,,,1.6,136*70
$GLGMP,224552.00,,,,,,07,,,,,*7E
$GAGMP,224552.00,,,,,,08,,,,,*7C
$GBGMP,224552.00,,,,,,13,,,,,*75
$PSSN,SNC,[0,341170000,2347]*44
$GPZDA,224557.00,01,01,2025,,*60
$GPDTM,W84,,00.0000000,N,00.0000000,E,00.0000000,W84*5F
$PSSN,TFM,224557.00,,,,*6C
$GPRMC,224557.00,A,4742.1601176,N,01618.1004109,E,0.0,,010125,5.1,E,D*1E
$GPGLL,4742.1601176,N,01618.1004109,E,224557.00,A,D*6F
$GPGGA,224557.00,4742.1601176,N,01618.1004109,E,2,36,0.4,708.2946,M,43.2066,M,2.1,0136*47
$GNGNS,224557.00,4742.1601176,N,01618.1004109,E,DAAA,36,0.4,708.2946,43.2066,,*5C
$GPGNS,224557.00,,,,,,08,,,,2.1,136*71
$GLGNS,224557.00,,,,,,07,,,,,*7B
$GAGNS,224557.00,,,,,,08,,,,,*79
$GBGNS,224557.00,,,,,,13,,,,,*70
$GPLLQ,224557.00,010125,,M,,M,1,36,0.918,,M*17
$GPVTG,,T,,M,0.00,N,0.00,K,D*26
$GPHDT,,T*1B
$GPTHS,,V*0E
$GPROT,,V*08
$PSSN,HRP,224557.00,010125,,,,,,,00,0,,*62
$PTNL,AVR,224557.00,,Yaw,,Tilt,,,,0,,00*34
$GPGSA,A,3,02,03,08,10,14,21,27,32,,,,,0.8,0.4,0.6*32
$GPGSA,A,3,68,69,70,75,76,84,85,,,,,,0.8,0.4,0.6*3C
$GPGSA,A,3,07,08,13,24,26,29,31,33,,,,,0.8,0.4,0.6*3E
$GPGSA,A,3,05,06,13,14,16,27,28,30,32,33,39,41,0.8,0.4,0.6*39
$GPGSA,A,3,60,,,,,,,,,,,,0.8,0.4,0.6*3E
$GPGST,224557.00,1.790,0.379,0.338,14.274,0.377,0.340,0.765*6A
$GPGBS,224557.00,2.183,2.198,4.757,68,0.0001,5.935,6.172*50
$GPGRS,224557.00,1,-0.3,0.7,0.1,0.0,-0.6,-0.0,-0.3,0.4,,,,*49
$GPGRS,224557.00,1,5.9,-0.0,-2.6,-0.6,-3.9,-1.7,3.7,,,,,*48
$GPGRS,224557.00,1,0.2,0.8,0.7,-0.6,0.1,0.1,-0.7,0.2,,,,*43
$GPGRS,224557.00,1,0.9,2.9,0.4,0.5,1.8,0.2,-0.1,-0.1,-0.4,-0.5,0.1,-0.3*6B
$GPGRS,224557.00,1,-1.5,,,,,,,,,,,*4A
$GPGSV,5,1,19,21,77,317,45,03,21,237,42,27,26,164,43,10,33,056,45*74
$GPGSV,5,2,19,14,16,307,40,32,48,090,49,08,54,192,49,02,55,299,48*7F
$GPGSV,5,3,19,24,01,021,,17,02,321,38,36,35,170,45,58,13,245,38*7F
$GPGSV,5,4,19,57,12,108,38,49,34,195,44,40,24,132,36,34,31,208,42*7A
$GPGSV,5,5,19,41,07,108,34,61,03,257,38*72
$GLGSV,3,1,09,69,72,093,52,70,27,195,38,83,10,118,33,76,13,329,45*65
$GLGSV,3,2,09,68,29,034,48,85,44,319,50,84,69,077,39,75,07,274,42*6B
$GLGSV,3,3,09,77,03,010,37*5A
$GAGSV,3,1,09,26,72,067,48,24,11,327,38,23,14,226,,29,23,167,41*69
$GAGSV,3,2,09,13,21,096,40,08,24,045,41,31,25,277,42,33,50,296,46*6B
$GAGSV,3,3,09,07,46,106,46*51
$GBGSV,6,1,22,27,85,229,52,05,24,128,38,20,19,197,,60,10,109,40*67
$GBGSV,6,2,22,14,14,043,40,06,10,083,36,29,29,301,,32,26,206,45*67
$GBGSV,6,3,22,16,11,079,39,13,13,059,39,30,36,305,47,39,15,070,40*65
$GBGSV,6,4,22,28,42,133,48,33,39,052,48,41,72,143,51,57,69,281,*6D
$GBGSV,6,5,22,02,09,105,34,09,05,093,,31,08,083,,45,01,335,*62
$GBGSV,6,6,22,26,02,339,,08,04,057,35*6C
$GPGGA,224557.00,,,,,0,00,,,M,,M,,*4B
$PTNL,GGK,224557.00,010125,4742.1601176,N,01618.1004109,E,1,36,0.8,EHT751.5011,M*42
$GPGGQ,224557.00,010125,4742.1601176,N,01618.1004109,E,1,36,0.918,708.2946,M*34
$GPGFA,224557.00,3.603,6.271,0.379,0.338,14.274,0.765,,VVV*31
$GPLLK,224557.00,010125,,M,,M,1,36,0.8,,M*05
$GNGMP,224557.00,,,,,DAAA,36,0.4,,,,*54
$GPGMP,224557.00,,,,,,08,,,,2.1,136*71
$GLGMP,224557.00,,,,,,07,,,,,*7B
$GAGMP,224557.00,,,,,,08,,,,,*79
$GBGMP,224557.00,,,,,,13,,,,,*70
$PSSN,SNC,[0,341175000,2347]*41
$GPZDA,224602.00,01,01,2025,,*63
$GPDTM,W84,,00.0000000,N,00.0000000,E,00.0000000,W84*5F
$PSSN,TFM,224602.00,,,,*6F
$GPRMC,224602.00,A,4742.1601180,N,01618.1004076,E,0.0,,010125,5.1,E,D*1D
$GPGLL,4742.1601180,N,01618.1004076,E,224602.00,A,D*6C
$GPGGA,224602.00,4742.1601180,N,01618.1004076,E,2,36,0.4,708.2951,M,43.2066,M,3.1,0136*43
$GNGNS,224602.00,4742.1601180,N,01618.1004076,E,DAAA,36,0.4,708.2951,43.2066,,*59
$GPGNS,224602.00,,,,,,08,,,,3.1,136*73
$GLGNS,224602.00,,,,,,07,,,,,*78
$GAGNS,224602.00,,,,,,08,,,,,*7A
$GBGNS,224602.00,,,,,,13,,,,,*73
$GPLLQ,224602.00,010125,,M,,M,1,36,0.933,,M*1D
$GPVTG,,T,,M,0.00,N,0.01,K,D*27
$GPHDT,,T*1B
$GPTHS,,V*0E
$GPROT,,V*08
$PSSN,HRP,224602.00,010125,,,,,,,00,0,,*61
$PTNL,AVR,224602.00,,Yaw,,Tilt,,,,0,,00*37
$GPGSA,A,3,02,03,08,10,14,21,27,32,,,,,0.8,0.4,0.6*32
$GPGSA,A,3,68,69,70,75,76,84,85,,,,,,0.8,0.4,0.6*3C
$GPGSA,A,3,07,08,13,24,26,29,31,33,,,,,0.8,0.4,0.6*3E
$GPGSA,A,3,05,06,13,14,16,27,28,30,32,33,39,41,0.8,0.4,0.6*39
$GPGSA,A,3,60,,,,,,,,,,,,0.8,0.4,0.6*3E
$GPGST,224602.00,1.948,0.385,0.340,11.766,0.383,0.342,0.779*69
$GPGBS,224602.00,2.213,2.222,4.837,68,0.0001,5.794,6.172*57
$GPGRS,224602.00,1,-0.3,0.2,0.2,0.2,-0.2,-0.3,-0.3,0.3,,,,*4E
$GPGRS,224602.00,1,5.8,0.6,-2.3,-2.2,-4.9,-2.6,3.7,,,,,*67
$GPGRS,224602.00,1,0.3,0.5,0.7,-0.5,0.4,-0.0,-0.8,0.6,,,,*6D
$GPGRS,224602.00,1,1.0,2.8,0.0,-0.0,2.6,0.2,-0.0,-0.0,-0.4,-0.8,0.5,-0.1*4B
$GPGRS,224602.00,1,-1.6,,,,,,,,,,,*4A
$GPGSV,5,1,19,21,77,317,45,03,21,237,42,27,26,164,42,10,33,056,46*76
$GPGSV,5,2,19,14,16,307,40,32,48,090,49,08,54,192,49,02,55,299,48*7F
$GPGSV,5,3,19,24,01,021,,17,02,321,39,36,35,170,45,58,13,245,38*7E
$GPGSV,5,4,19,57,12,108,38,49,34,195,44,40,24,132,37,34,31,208,42*7B
$GPGSV,5,5,19,41,07,108,34,61,03,257,39*73
$GLGSV,3,1,09,69,72,093,52,70,27,195,39,83,10,118,34,76,13,328,45*62
$GLGSV,3,2,09,68,29,034,47,85,44,319,51,84,69,078,39,75,06,274,42*6B
$GLGSV,3,3,09,77,03,010,37*5A
$GAGSV,3,1,09,26,72,067,48,24,11,327,38,23,14,226,,29,23,167,41*69
$GAGSV,3,2,09,13,21,096,40,08,24,045,41,31,25,277,42,33,50,296,46*6B
$GAGSV,3,3,09,07,46,106,46*51
$GBGSV,6,1,22,27,85,229,52,05,24,128,39,20,19,197,,60,10,109,41*67
$GBGSV,6,2,22,14,14,043,39,06,10,083,37,29,29,301,,32,26,206,45*68
$GBGSV,6,3,22,16,11,079,39,13,13,059,39,30,36,305,47,39,15,070,40*65
$GBGSV,6,4,22,28,42,133,48,33,39,052,48,41,72,142,51,57,69,281,*6C
$GBGSV,6,5,22,02,09,105,34,09,05,093,,31,08,083,,45,01,335,*62
$GBGSV,6,6,22,26,02,339,,08,04,057,35*6C
$GPGGA,224602.00,,,,,0,00,,,M,,M,,*48
$PTNL,GGK,224602.00,010125,4742.1601180,N,01618.1004076,E,1,36,0.8,EHT751.5016,M*46
$GPGGQ,224602.00,010125,4742.1601180,N,01618.1004076,E,1,36,0.933,708.2951,M*38
$GPGFA,224602.00,3.660,6.388,0.385,0.340,11.766,0.779,,VVV*32
$GPLLK,224602.00,010125,,M,,M,1,36,0.8,,M*06
$GNGMP,224602.00,,,,,DAAA,36,0.4,,,,*57
$GPGMP,224602.00,,,,,,08,,,,3.1,136*73
$GLGMP,224602.00,,,,,,07,,,,,*78
$GAGMP,224602.00,,,,,,08,,,,,*7A
$GBGMP,224602.00,,,,,,13,,,,,*73
$PSSN,SNC,[0,341180000,2347]*4B
$GPZDA,224607.00,01,01,2025,,*66
$GPDTM,W84,,00.0000000,N,00.0000000,E,00.0000000,W84*5F
$PSSN,TFM,224607.00,,,,*6A
$GPRMC,224607.00,A,4742.1601179,N,01618.1004041,E,0.0,,010125,5.1,E,D*1A
$GPGLL,4742.1601179,N,01618.1004041,E,224607.00,A,D*6B
$GPGGA,224607.00,4742.1601179,N,01618.1004041,E,2,36,0.4,708.2915,M,43.2066,M,3.1,0136*44
$GNGNS,224607.00,4742.1601179,N,01618.1004041,E,DAAA,36,0.4,708.2915,43.2066,,*5E
$GPGNS,224607.00,,,,,,08,,,,3.1,136*76
$GLGNS,224607.00,,,,,,07,,,,,*7D
$GAGNS,224607.00,,,,,,08,,,,,*7F
$GBGNS,224607.00,,,,,,13,,,,,*76
$GPLLQ,224607.00,010125,,M,,M,1,36,0.940,,M*1C
$GPVTG,,T,,M,0.00,N,0.00,K,D*26
$GPHDT,,T*1B
$GPTHS,,V*0E
$GPROT,,V*08
$PSSN,HRP,224607.00,010125,,,,,,,00,0,,*64
$PTNL,AVR,224607.00,,Yaw,,Tilt,,,,0,,00*32
$GPGSA,A,3,02,03,08,10,14,21,27,32,,,,,0.8,0.4,0.6*32
$GPGSA,A,3,68,69,70,75,76,84,85,,,,,,0.8,0.4,0.6*3C
$GPGSA,A,3,07,08,13,24,26,29,31,33,,,,,0.8,0.4,0.6*3E
$GPGSA,A,3,05,06,13,14,16,27,28,30,32,33,39,41,0.8,0.4,0.6*39
$GPGSA,A,3,60,,,,,,,,,,,,0.8,0.4,0.6*3E
$GPGST,224607.00,1.795,0.390,0.345,13.808,0.387,0.347,0.783*62
$GPGBS,224607.00,2.251,2.243,4.938,68,0.0001,5.509,6.172*5B
$GPGRS,224607.00,1,-0.1,0.1,0.1,0.1,0.1,0.1,-0.5,0.2,,,,*4C
$GPGRS,224607.00,1,5.5,0.5,-1.1,-2.0,-5.5,-1.6,3.2,,,,,*64
$GPGRS,224607.00,1,0.4,0.1,0.6,-0.6,0.2,-0.2,-0.5,0.2,,,,*64
$GPGRS,224607.00,1,1.0,2.2,-0.1,0.3,2.1,0.2,0.0,0.0,0.2,-0.7,0.5,-0.1*65
$GPGRS,224607.00,1,-1.4,,,,,,,,,,,*4D
$GPGSV,5,1,19,21,77,317,45,03,21,237,41,27,26,164,42,10,33,056,46*75
$GPGSV,5,2,19,14,16,307,41,32,48,090,49,08,54,192,48,02,55,299,48*7F
$GPGSV,5,3,19,24,01,021,,17,02,321,39,36,35,170,45,58,13,245,38*7E
$GPGSV,5,4,19,57,12,108,38,49,34,195,44,40,24,132,37,34,31,208,42*7B
$GPGSV,5,5,19,41,07,108,34,61,03,257,38*72
$GLGSV,3,1,09,69,72,092,52,70,27,195,40,76,13,328,44,68,29,034,47*68
$GLGSV,3,2,09,85,44,319,51,84,69,078,39,83,10,118,34,77,03,010,37*6A
$GLGSV,3,3,09,75,06,274,42*5F
$GAGSV,3,1,09,26,72,067,48,24,11,327,37,23,14,226,,29,23,167,41*66
$GAGSV,3,2,09,13,21,096,40,08,24,045,41,31,25,277,42,33,50,296,46*6B
$GAGSV,3,3,09,07,46,105,46*52
$GBGSV,6,1,22,27,85,228,52,05,24,128,38,20,19,197,,60,10,109,40*66
$GBGSV,6,2,22,14,14,043,40,06,10,083,37,29,29,301,,32,26,206,46*65
$GBGSV,6,3,22,16,11,079,39,13,13,059,39,30,36,305,47,39,15,070,41*64
$GBGSV,6,4,22,28,42,133,48,33,39,052,48,41,72,142,51,57,69,281,*6C
$GBGSV,6,5,22,02,09,105,33,09,05,093,,31,08,083,,45,01,335,*65
$GBGSV,6,6,22,26,02,339,,08,04,057,35*6C
$GPGGA,224607.00,,,,,0,00,,,M,,M,,*4D
$PTNL,GGK,224607.00,010125,4742.1601179,N,01618.1004041,E,1,36,0.8,EHT751.4981,M*47
$GPGGQ,224607.00,010125,4742.1601179,N,01618.1004041,E,1,36,0.940,708.2915,M*3B
$GPGFA,224607.00,3.707,6.417,0.390,0.345,13.808,0.783,,VVV*37
$GPLLK,224607.00,010125,,M,,M,1,36,0.8,,M*03
$GNGMP,224607.00,,,,,DAAA,36,0.4,,,,*52
$GPGMP,224607.00,,,,,,08,,,,3.1,136*76
$GLGMP,224607.00,,,,,,07,,,,,*7D
$GAGMP,224607.00,,,,,,08,,,,,*7F
$GBGMP,224607.00,,,,,,13,,,,,*76
$PSSN,SNC,[0,341185000,2347]*4E
$GPZDA,224612.00,01,01,2025,,*62
$GPDTM,W84,,00.0000000,N,00.0000000,E,00.0000000,W84*5F
$PSSN,TFM,224612.00,,,,*6E
$GPRMC,224612.00,A,4742.1601152,N,01618.1004064,E,0.0,,010125,5.1,E,D*10
$GPGLL,4742.1601152,N,01618.1004064,E,224612.00,A,D*61
$GPGGA,224612.00,4742.1601152,N,01618.1004064,E,2,36,0.4,708.2940,M,43.2066,M,1.6,0136*4B
$GNGNS,224612.00,4742.1601152,N,01618.1004064,E,DAAA,36,0.4,708.2940,43.2066,,*54
$GPGNS,224612.00,,,,,,08,,,,1.6,136*77
$GLGNS,224612.00,,,,,,07,,,,,*79
$GAGNS,224612.00,,,,,,08,,,,,*7B
$GBGNS,224612.00,,,,,,13,,,,,*72
$GPLLQ,224612.00,010125,,M,,M,1,36,0.921,,M*1F
$GPVTG,,T,,M,0.00,N,0.00,K,D*26
$GPHDT,,T*1B
$GPTHS,,V*0E
$GPROT,,V*08
$PSSN,HRP,224612.00,010125,,,,,,,00,0,,*60
$PTNL,AVR,224612.00,,Yaw,,Tilt,,,,0,,00*36
$GPGSA,A,3,02,03,08,10,14,21,27,32,,,,,0.8,0.4,0.6*32
$GPGSA,A,3,68,69,70,75,76,84,85,,,,,,0.8,0.4,0.6*3C
$GPGSA,A,3,07,08,13,24,26,29,31,33,,,,,0.8,0.4,0.6*3E
$GPGSA,A,3,05,06,13,14,16,27,28,30,32,33,39,41,0.8,0.4,0.6*39
$GPGSA,A,3,60,,,,,,,,,,,,0.8,0.4,0.6*3E
$GPGST,224612.00,1.655,0.382,0.342,13.072,0.380,0.344,0.766*65
$GPGBS,224612.00,2.159,2.134,4.694,27,0.0001,-0.852,0.853*72
$GPGRS,224612.00,1,-0.0,0.2,-0.0,0.1,0.6,0.1,-0.9,0.1,,,,*6E
$GPGRS,224612.00,1,5.3,0.3,-1.5,-1.5,-4.4,-1.7,3.5,,,,,*64
$GPGRS,224612.00,1,0.0,-0.1,0.2,-0.6,-0.1,-0.1,-0.6,-0.1,,,,*4D
$GPGRS,224612.00,1,1.1,1.9,0.1,-0.6,1.3,0.2,-0.2,-0.2,-0.2,-0.6,0.4,-0.4*44
$GPGRS,224612.00,1,-1.8,,,,,,,,,,,*45
$GPGSV,5,1,19,21,77,317,45,03,21,237,41,27,26,164,43,10,33,056,46*74
$GPGSV,5,2,19,14,16,307,40,32,48,090,49,08,54,192,49,02,55,299,48*7F
$GPGSV,5,3,19,24,01,021,,17,02,321,39,36,35,170,45,58,13,245,38*7E
$GPGSV,5,4,19,57,12,108,38,49,34,195,44,40,24,132,37,34,31,208,42*7B
$GPGSV,5,5,19,41,07,108,34,61,03,257,38*72
$GLGSV,3,1,09,69,72,092,52,70,27,195,39,76,13,328,45,68,29,034,47*67
$GLGSV,3,2,09,85,44,319,51,84,69,078,40,83,10,118,34,77,03,010,37*64
$GLGSV,3,3,09,75,06,274,43*5E
$GAGSV,3,1,09,26,72,067,48,24,11,327,38,23,14,226,,29,23,167,41*69
$GAGSV,3,2,09,13,20,096,39,08,24,045,41,31,25,277,42,33,50,296,46*64
$GAGSV,3,3,09,07,46,105,46*52
$GBGSV,6,1,22,27,85,228,52,05,24,128,38,20,19,197,,60,10,109,40*66
$GBGSV,6,2,22,14,14,043,39,06,10,083,37,29,29,301,,32,26,206,45*68
$GBGSV,6,3,22,16,11,079,39,13,13,059,39,30,36,305,47,39,15,070,41*64
$GBGSV,6,4,22,28,42,133,49,33,39,052,48,41,72,142,51,57,69,281,*6D
$GBGSV,6,5,22,02,09,105,34,09,05,093,,31,07,083,,45,01,335,*6D
$GBGSV,6,6,22,26,02,339,,08,04,057,35*6C
$GPGGA,224612.00,,,,,0,00,,,M,,M,,*49
$PTNL,GGK,224612.00,010125,4742.1601152,N,01618.1004064,E,1,36,0.8,EHT751.5006,M*4A
$GPGGQ,224612.00,010125,4742.1601152,N,01618.1004064,E,1,36,0.921,708.2940,M*36
$GPGFA,224612.00,3.634,6.278,0.382,0.342,13.072,0.766,,VVV*37
$GPLLK,224612.00,010125,,M,,M,1,36,0.8,,M*07
$GNGMP,224612.00,,,,,DAAA,36,0.4,,,,*56
$GPGMP,224612.00,,,,,,08,,,,1.6,136*77
$GLGMP,224612.00,,,,,,07,,,,,*79
$GAGMP,224612.00,,,,,,08,,,,,*7B
$GBGMP,224612.00,,,,,,13,,,,,*72
$PSSN,SNC,[0,341190000,2347]*4A
$GPZDA,224617.00,01,01,2025,,*67
$GPDTM,W84,,00.0000000,N,00.0000000,E,00.0000000,W84*5F
$PSSN,TFM,224617.00,,,,*6B
$GPRMC,224617.00,A,4742.1601155,N,01618.1004057,E,0.0,,010125,5.1,E,D*12
$GPGLL,4742.1601155,N,01618.1004057,E,224617.00,A,D*63
$GPGGA,224617.00,4742.1601155,N,01618.1004057,E,2,36,0.4,708.2937,M,43.2066,M,2.1,0136*4D
$GNGNS,224617.00,4742.1601155,N,01618.1004057,E,DAAA,36,0.4,708.2937,43.2066,,*56
$GPGNS,224617.00,,,,,,08,,,,2.1,136*76
$GLGNS,224617.00,,,,,,07,,,,,*7C
$GAGNS,224617.00,,,,,,08,,,,,*7E
$GBGNS,224617.00,,,,,,13,,,,,*77
$GPLLQ,224617.00,010125,,M,,M,1,36,0.914,,M*1C
$GPVTG,,T,,M,0.00,N,0.00,K,D*26
$GPHDT,,T*1B
$GPTHS,,V*0E
$GPROT,,V*08
$PSSN,HRP,224617.00,010125,,,,,,,00,0,,*65
$PTNL,AVR,224617.00,,Yaw,,Tilt,,,,0,,00*33
$GPGSA,A,3,02,03,08,10,14,21,27,32,,,,,0.8,0.4,0.6*32
$GPGSA,A,3,68,69,70,75,76,84,85,,,,,,0.8,0.4,0.6*3C
$GPGSA,A,3,07,08,13,24,26,29,31,33,,,,,0.8,0.4,0.6*3E
$GPGSA,A,3,05,06,13,14,16,27,28,30,32,33,39,41,0.8,0.4,0.6*39
$GPGSA,A,3,60,,,,,,,,,,,,0.8,0.4,0.6*3E
$GPGST,224617.00,1.612,0.376,0.336,10.996,0.375,0.338,0.762*6E
$GPGBS,224617.00,2.177,2.156,4.757,68,0.0001,5.032,6.168*5B
$GPGRS,224617.00,1,-0.3,0.5,0.3,0.1,-0.4,-0.1,-0.1,0.2,,,,*48
$GPGRS,224617.00,1,5.0,0.3,-2.4,-1.1,-3.7,-2.4,3.5,,,,,*60
$GPGRS,224617.00,1,0.1,-0.0,0.2,-0.2,0.0,0.3,-0.6,0.3,,,,*60
$GPGRS,224617.00,1,1.5,1.8,0.2,-0.5,1.4,0.2,0.0,0.3,-0.5,-0.6,0.2,-0.2*47
$GPGRS,224617.00,1,-1.1,,,,,,,,,,,*49
$GPGSV,5,1,19,21,77,317,45,03,21,237,42,27,26,164,43,10,33,056,46*77
$GPGSV,5,2,19,14,16,307,41,32,48,090,49,08,54,192,49,02,55,299,48*7E
$GPGSV,5,3,19,24,01,020,,17,02,321,40,36,35,170,45,58,13,245,38*71
$GPGSV,5,4,19,57,12,108,38,49,34,195,44,40,24,132,36,34,31,208,43*7B
$GPGSV,5,5,19,41,07,108,34,61,03,257,38*72
$GLGSV,3,1,09,69,72,092,52,70,27,195,39,76,13,328,45,68,29,034,47*67
$GLGSV,3,2,09,85,44,319,50,84,69,078,40,83,10,118,35,77,03,010,36*65
$GLGSV,3,3,09,75,06,274,42*5F
$GAGSV,3,1,09,26,72,067,48,24,11,327,38,23,14,226,,29,23,167,41*69
$GAGSV,3,2,09,13,20,096,39,08,24,045,42,31,25,277,42,33,50,296,46*67
$GAGSV,3,3,09,07,46,105,46*52
$GBGSV,6,1,22,27,85,228,52,05,24,128,38,20,19,197,,60,10,109,40*66
$GBGSV,6,2,22,14,14,043,40,06,10,083,37,29,29,301,,32,26,206,45*66
$GBGSV,6,3,22,16,11,079,38,13,13,059,39,30,36,305,47,39,15,070,41*65
$GBGSV,6,4,22,28,42,133,49,33,38,052,48,41,72,142,51,57,69,281,*6C
$GBGSV,6,5,22,02,09,105,33,09,05,093,,31,07,083,,45,01,335,*6A
$GBGSV,6,6,22,26,02,339,,08,04,057,35*6C
$GPGGA,224617.00,,,,,0,00,,,M,,M,,*4C
$PTNL,GGK,224617.00,010125,4742.1601155,N,01618.1004057,E,1,36,0.8,EHT751.5003,M*4D
$GPGGQ,224617.00,010125,4742.1601155,N,01618.1004057,E,1,36,0.914,708.2937,M*32
$GPGFA,224617.00,3.579,6.250,0.376,0.336,10.996,0.762,,VVV*3E
$GPLLK,224617.00,010125,,M,,M,1,36,0.8,,M*02
$GNGMP,224617.00,,,,,DAAA,36,0.4,,,,*53
$GPGMP,224617.00,,,,,,08,,,,2.1,136*76
$GLGMP,224617.00,,,,,,07,,,,,*7C
$GAGMP,224617.00,,,,,,08,,,,,*7E
$GBGMP,224617.00,,,,,,13,,,,,*77
$PSSN,SNC,[0,341195000,2347]*4F
$GPZDA,224622.00,01,01,2025,,*61
$GPDTM,W84,,00.0000000,N,00.0000000,E,00.0000000,W84*5F
$PSSN,TFM,224622.00,,,,*6D
$GPRMC,224622.00,A,4742.1601163,N,01618.1004028,E,0.0,,010125,5.1,E,D*19
$GPGLL,4742.1601163,N,01618.1004028,E,224622.00,A,D*68
