$GPZDA,081442.00,01,01,2025,,*68
$GPDTM,W84,,00.0000000,N,00.0000000,E,00.0000000,W84*5F
$PSSN,TFM,081442.00,,,,*64
$GPRMC,081442.00,A,4742.1602742,N,01618.1001616,E,0.0,,010125,5.1,E,D*18
$GPGLL,4742.1602742,N,01618.1001616,E,081442.00,A,D*69
$GPGGA,081442.00,4742.1602742,N,01618.1001616,E,2,37,0.4,708.3865,M,43.2066,M,1.7,0136*44
$GNGNS,081442.00,4742.1602742,N,01618.1001616,E,DAAA,37,0.4,708.3865,43.2066,,*5A
$GPGNS,081442.00,,,,,,09,,,,1.7,136*7D
$GLGNS,081442.00,,,,,,07,,,,,*73
$GAGNS,081442.00,,,,,,08,,,,,*71
$GBGNS,081442.00,,,,,,13,,,,,*78
$GPLLQ,081442.00,010125,,M,,M,1,37,0.947,,M*14
$GPVTG,,T,,M,0.01,N,0.01,K,D*26
$GPHDT,,T*1B
$GPTHS,,V*0E
$GPROT,,V*08
$PSSN,HRP,081442.00,010125,,,,,,,00,0,,*6A
$PTNL,AVR,081442.00,,Yaw,,Tilt,,,,0,,00*3C
$GPGSA,A,3,05,07,08,13,14,15,18,20,30,,,,0.8,0.4,0.6*39
$GPGSA,A,3,65,66,72,74,75,76,82,,,,,,0.8,0.4,0.6*34
$GPGSA,A,3,02,03,05,08,13,24,25,26,,,,,0.8,0.4,0.6*33
$GPGSA,A,3,05,07,09,10,14,21,22,26,36,40,42,45,0.8,0.4,0.6*36
$GPGSA,A,3,60,,,,,,,,,,,,0.8,0.4,0.6*3E
$GPGST,081442.00,1.974,0.437,0.348,342.874,0.430,0.357,0.765*54
$GPGBS,081442.00,3.351,1.775,4.681,07,0.0001,-1.623,1.468*79
$GPGRS,081442.00,1,-0.4,-1.6,0.0,-0.1,0.5,0.2,0.2,-0.3,0.0,,,*6F
$GPGRS,081442.00,1,-1.4,-4.0,5.5,5.1,-2.8,-2.0,-1.4,,,,,*4E
$GPGRS,081442.00,1,-0.8,-0.1,0.7,0.0,0.2,-0.3,0.2,0.5,,,,*60
$GPGRS,081442.00,1,0.4,2.0,-0.1,1.9,2.9,-0.4,0.0,0.5,-1.2,-2.2,-0.3,-1.4*45
$GPGRS,081442.00,1,-0.4,,,,,,,,,,,*42
$GPGSV,6,1,22,13,68,307,49,20,25,203,42,07,19,071,42,15,33,303,45*73
$GPGSV,6,2,22,22,51,165,,05,47,237,48,30,54,066,48,14,63,129,48*7F
$GPGSV,6,3,22,08,10,036,38,18,07,307,38,23,02,333,36,24,00,260,*7D
$GPGSV,6,4,22,17,03,136,,36,35,170,44,58,13,245,36,40,24,133,36*70
$GPGSV,6,5,22,34,31,208,43,49,34,195,44,57,07,112,37,41,07,108,35*7B
$GPGSV,6,6,22,61,03,257,38*46
$GLGSV,2,1,08,75,88,049,52,66,29,321,48,76,29,219,49,72,35,142,47*6B
$GLGSV,2,2,08,74,31,040,43,65,83,304,48,82,07,336,42,83,08,015,32*67
$GAGSV,3,1,10,03,86,088,48,02,27,189,42,13,11,287,38,24,33,051,43*6A
$GAGSV,3,2,10,05,32,117,43,08,39,301,44,16,54,076,,25,62,126,48*61
$GAGSV,3,3,10,15,00,240,,26,07,336,37*6A
$GBGSV,5,1,17,45,83,103,50,24,31,216,,14,12,317,38,40,26,061,43*6D
$GBGSV,5,2,17,05,21,130,38,22,31,155,46,07,25,070,41,56,18,091,*64
$GBGSV,5,3,17,26,35,229,47,42,36,309,46,36,33,056,46,10,29,083,40*69
$GBGSV,5,4,17,50,60,288,,21,73,225,52,09,10,073,36,02,04,109,33*6F
$GBGSV,5,5,17,60,07,112,41*5B
$GPGGA,081442.00,,,,,0,00,,,M,,M,,*43
$PTNL,GGK,081442.00,010125,4742.1602742,N,01618.1001616,E,1,37,0.8,EHT751.5931,M*4E
$GPGGQ,081442.00,010125,4742.1602742,N,01618.1001616,E,1,37,0.947,708.3865,M*38
$GPGFA,081442.00,4.158,6.269,0.437,0.348,342.874,0.765,,VVV*0E
$GPLLK,081442.00,010125,,M,,M,1,37,0.8,,M*0C
$GNGMP,081442.00,,,,,DAAA,37,0.4,,,,*5D
$GPGMP,081442.00,,,,,,09,,,,1.7,136*7D
$GLGMP,081442.00,,,,,,07,,,,,*73
$GAGMP,081442.00,,,,,,08,,,,,*71
$GBGMP,081442.00,,,,,,13,,,,,*78
$PSSN,SNC,[0,288900000,2347]*4F
$GPZDA,081447.00,01,01,2025,,*6D
$GPDTM,W84,,00.0000000,N,00.0000000,E,00.0000000,W84*5F
$PSSN,TFM,081447.00,,,,*61
$GPRMC,081447.00,A,4742.1602735,N,01618.1001605,E,0.0,,010125,5.1,E,D*1F
$GPGLL,4742.1602735,N,01618.1001605,E,081447.00,A,D*6E
$GPGGA,081447.00,4742.1602735,N,01618.1001605,E,2,37,0.4,708.3790,M,43.2066,M,2.2,0136*40
$GNGNS,081447.00,4742.1602735,N,01618.1001605,E,DAAA,37,0.4,708.3790,43.2066,,*58
$GPGNS,081447.00,,,,,,09,,,,2.2,136*7E
$GLGNS,081447.00,,,,,,07,,,,,*76
$GAGNS,081447.00,,,,,,08,,,,,*74
$GBGNS,081447.00,,,,,,13,,,,,*7D
$GPLLQ,081447.00,010125,,M,,M,1,37,0.939,,M*18
$GPVTG,,T,,M,0.00,N,0.01,K,D*27
$GPHDT,,T*1B
$GPTHS,,V*0E
$GPROT,,V*08
$PSSN,HRP,081447.00,010125,,,,,,,00,0,,*6F
$PTNL,AVR,081447.00,,Yaw,,Tilt,,,,0,,00*39
$GPGSA,A,3,05,07,08,13,14,15,18,20,30,,,,0.8,0.4,0.6*39
$GPGSA,A,3,65,66,72,74,75,76,82,,,,,,0.8,0.4,0.6*34
$GPGSA,A,3,02,03,05,08,13,24,25,26,,,,,0.8,0.4,0.6*33
$GPGSA,A,3,05,07,09,10,14,21,22,26,36,40,42,45,0.8,0.4,0.6*36
$GPGSA,A,3,60,,,,,,,,,,,,0.8,0.4,0.6*3E
$GPGST,081447.00,1.863,0.437,0.344,342.757,0.429,0.353,0.757*59
$GPGBS,081447.00,3.386,1.798,4.672,07,0.0001,-2.106,1.478*7B
$GPGRS,081447.00,1,-0.2,-2.1,-0.1,-0.1,0.4,0.2,0.3,-0.2,0.2,,,*47
$GPGRS,081447.00,1,-1.1,-2.7,5.1,5.2,-2.6,-2.4,-1.7,,,,,*41
$GPGRS,081447.00,1,-0.8,0.0,0.7,0.2,0.0,0.1,0.1,0.7,,,,*67
$GPGRS,081447.00,1,0.5,1.6,-0.4,1.3,2.7,-0.5,0.5,0.5,-1.0,-2.0,-0.2,-1.4*40
$GPGRS,081447.00,1,-0.6,,,,,,,,,,,*45
$GPGSV,6,1,22,13,68,307,49,20,24,203,42,07,19,071,41,15,33,303,44*70
$GPGSV,6,2,22,22,51,165,,05,47,237,48,30,54,066,48,14,63,129,48*7F
$GPGSV,6,3,22,08,10,036,38,18,07,307,38,23,02,333,36,24,00,260,*7D
$GPGSV,6,4,22,17,03,136,,36,35,170,44,58,13,245,36,40,24,133,36*70
$GPGSV,6,5,22,34,31,208,43,49,34,195,44,57,07,112,37,41,07,108,35*7B
$GPGSV,6,6,22,61,03,257,38*46
$GLGSV,2,1,08,75,88,048,52,66,29,321,48,76,29,219,49,72,35,142,47*6A
$GLGSV,2,2,08,74,31,040,44,65,83,304,49,82,07,336,43,83,08,015,33*61
$GAGSV,3,1,10,03,86,088,48,02,27,189,42,13,11,287,38,24,33,051,43*6A
$GAGSV,3,2,10,05,32,117,42,08,39,301,44,16,54,076,,25,62,126,48*60
$GAGSV,3,3,10,15,00,240,,26,07,336,37*6A
$GBGSV,5,1,17,45,83,103,50,24,31,216,,14,12,317,37,40,26,061,43*62
$GBGSV,5,2,17,05,21,130,38,22,31,155,47,07,25,070,40,56,18,091,*64
$GBGSV,5,3,17,26,35,229,47,42,36,309,46,36,32,056,46,10,29,083,40*68
$GBGSV,5,4,17,50,60,288,,21,73,225,52,09,09,073,36,02,04,109,33*67
$GBGSV,5,5,17,60,07,112,40*5A
$GPGGA,081447.00,,,,,0,00,,,M,,M,,*46
$PTNL,GGK,081447.00,010125,4742.1602735,N,01618.1001605,E,1,37,0.8,EHT751.5855,M*4A
$GPGGQ,081447.00,010125,4742.1602735,N,01618.1001605,E,1,37,0.939,708.3790,M*33
$GPGFA,081447.00,4.151,6.204,0.437,0.344,342.757,0.757,,VVV*0A
$GPLLK,081447.00,010125,,M,,M,1,37,0.8,,M*09
$GNGMP,081447.00,,,,,DAAA,37,0.4,,,,*58
$GPGMP,081447.00,,,,,,09,,,,2.2,136*7E
$GLGMP,081447.00,,,,,,07,,,,,*76
$GAGMP,081447.00,,,,,,08,,,,,*74
$GBGMP,081447.00,,,,,,13,,,,,*7D
$PSSN,SNC,[0,288905000,2347]*4A
$GPZDA,081452.00,01,01,2025,,*69
$GPDTM,W84,,00.0000000,N,00.0000000,E,00.0000000,W84*5F
$PSSN,TFM,081452.00,,,,*65
$GPRMC,081452.00,A,4742.1602740,N,01618.1001625,E,0.0,,010125,5.1,E,D*1B
$GPGLL,4742.1602740,N,01618.1001625,E,081452.00,A,D*6A
$GPGGA,081452.00,4742.1602740,N,01618.1001625,E,2,37,0.4,708.3717,M,43.2066,M,3.2,0136*4A
$GNGNS,081452.00,4742.1602740,N,01618.1001625,E,DAAA,37,0.4,708.3717,43.2066,,*53
$GPGNS,081452.00,,,,,,09,,,,3.2,136*7B
$GLGNS,081452.00,,,,,,07,,,,,*72
$GAGNS,081452.00,,,,,,08,,,,,*70
$GBGNS,081452.00,,,,,,13,,,,,*79
$GPLLQ,081452.00,010125,,M,,M,1,37,0.950,,M*13
$GPVTG,,T,,M,0.00,N,0.00,K,D*26
$GPHDT,,T*1B
$GPTHS,,V*0E
$GPROT,,V*08
$PSSN,HRP,081452.00,010125,,,,,,,00,0,,*6B
$PTNL,AVR,081452.00,,Yaw,,Tilt,,,,0,,00*3D
$GPGSA,A,3,05,07,08,13,14,15,18,20,30,,,,0.8,0.4,0.6*39
$GPGSA,A,3,65,66,72,74,75,76,82,,,,,,0.8,0.4,0.6*34
$GPGSA,A,3,02,03,05,08,13,24,25,26,,,,,0.8,0.4,0.6*33
$GPGSA,A,3,05,07,09,10,14,21,22,26,36,40,42,45,0.8,0.4,0.6*36
$GPGSA,A,3,60,,,,,,,,,,,,0.8,0.4,0.6*3E
$GPGST,081452.00,1.891,0.444,0.346,342.278,0.435,0.356,0.766*54
$GPGBS,081452.00,3.445,1.828,4.723,07,0.0001,-1.477,1.489*78
$GPGRS,081452.00,1,0.0,-1.5,-0.2,0.1,0.4,0.0,0.2,-0.3,-0.1,,,*69
$GPGRS,081452.00,1,-1.2,-3.2,5.6,5.0,-3.0,-2.4,-1.0,,,,,*47
$GPGRS,081452.00,1,-0.7,0.0,0.6,-0.2,-0.1,-0.1,0.0,0.6,,,,*41
$GPGRS,081452.00,1,0.1,1.4,-0.4,1.0,2.7,-0.6,0.3,0.2,-1.3,-2.1,-0.3,-1.4*40
$GPGRS,081452.00,1,-0.7,,,,,,,,,,,*40
$GPGSV,6,1,22,13,68,307,49,20,24,203,42,07,19,071,40,15,33,303,44*71
$GPGSV,6,2,22,22,51,165,,05,47,237,47,30,54,066,47,14,63,129,48*7F
$GPGSV,6,3,22,08,10,036,37,18,07,307,38,23,02,333,37,24,00,260,*73
$GPGSV,6,4,22,17,03,136,,36,35,170,44,58,13,245,36,40,24,133,36*70
$GPGSV,6,5,22,34,31,208,43,49,34,195,44,57,07,112,37,41,07,108,35*7B
$GPGSV,6,6,22,61,03,257,38*46
$GLGSV,2,1,08,75,88,047,52,66,30,321,47,76,29,219,48,72,35,142,47*63
$GLGSV,2,2,08,74,31,040,43,65,83,304,48,82,07,336,43,83,08,015,33*67
$GAGSV,3,1,10,03,86,088,48,02,27,189,42,13,11,287,37,24,33,051,43*65
$GAGSV,3,2,10,05,32,117,42,08,39,301,43,16,54,076,,25,62,126,48*67
$GAGSV,3,3,10,15,00,240,,26,07,336,37*6A
$GBGSV,5,1,17,45,83,102,51,24,31,216,,14,12,317,38,40,26,061,43*6D
$GBGSV,5,2,17,05,21,130,38,22,31,155,47,07,25,070,41,56,18,091,*65
$GBGSV,5,3,17,26,35,229,47,42,36,309,47,36,32,056,46,10,29,083,40*69
$GBGSV,5,4,17,50,60,288,,21,73,225,52,09,09,073,36,02,04,109,33*67
$GBGSV,5,5,17,60,07,112,41*5B
$GPGGA,081452.00,,,,,0,00,,,M,,M,,*42
$PTNL,GGK,081452.00,010125,4742.1602740,N,01618.1001625,E,1,37,0.8,EHT751.5783,M*4A
$GPGGQ,081452.00,010125,4742.1602740,N,01618.1001625,E,1,37,0.950,708.3717,M*37
$GPGFA,081452.00,4.217,6.280,0.444,0.346,342.278,0.766,,VVV*0F
$GPLLK,081452.00,010125,,M,,M,1,37,0.8,,M*0D
$GNGMP,081452.00,,,,,DAAA,37,0.4,,,,*5C
$GPGMP,081452.00,,,,,,09,,,,3.2,136*7B
$GLGMP,081452.00,,,,,,07,,,,,*72
$GAGMP,081452.00,,,,,,08,,,,,*70
$GBGMP,081452.00,,,,,,13,,,,,*79
$PSSN,SNC,[0,288910000,2347]*4E
$GPZDA,081457.00,01,01,2025,,*6C
$GPDTM,W84,,00.0000000,N,00.0000000,E,00.0000000,W84*5F
$PSSN,TFM,081457.00,,,,*60
$GPRMC,081457.00,A,4742.1602748,N,01618.1001641,E,0.0,,010125,5.1,E,D*14
$GPGLL,4742.1602748,N,01618.1001641,E,081457.00,A,D*65
$GPGGA,081457.00,4742.1602748,N,01618.1001641,E,2,37,0.4,708.3710,M,43.2066,M,2.9,0136*48
$GNGNS,081457.00,4742.1602748,N,01618.1001641,E,DAAA,37,0.4,708.3710,43.2066,,*5B
$GPGNS,081457.00,,,,,,09,,,,2.9,136*74
$GLGNS,081457.00,,,,,,07,,,,,*77
$GAGNS,081457.00,,,,,,08,,,,,*75
$GBGNS,081457.00,,,,,,13,,,,,*7C
$GPLLQ,081457.00,010125,,M,,M,1,37,0.957,,M*11
$GPVTG,,T,,M,0.00,N,0.01,K,D*27
$GPHDT,,T*1B
$GPTHS,,V*0E
$GPROT,,V*08
$PSSN,HRP,081457.00,010125,,,,,,,00,0,,*6E
$PTNL,AVR,081457.00,,Yaw,,Tilt,,,,0,,00*38
$GPGSA,A,3,05,07,08,13,14,15,18,20,30,,,,0.8,0.4,0.6*39
$GPGSA,A,3,65,66,72,74,75,76,82,,,,,,0.8,0.4,0.6*34
$GPGSA,A,3,02,03,05,08,13,24,25,26,,,,,0.8,0.4,0.6*33
$GPGSA,A,3,05,07,09,10,14,21,22,26,36,40,42,45,0.8,0.4,0.6*36
$GPGSA,A,3,60,,,,,,,,,,,,0.8,0.4,0.6*3E
$GPGST,081457.00,1.917,0.444,0.350,342.133,0.436,0.360,0.772*56
$GPGBS,081457.00,3.469,1.870,4.703,72,0.0001,5.709,6.141*5B
$GPGRS,081457.00,1,0.1,-1.3,0.5,0.0,0.3,0.0,-0.3,-0.0,-0.2,,,*6B
$GPGRS,081457.00,1,-1.3,-4.1,5.7,4.1,-3.0,-2.6,-1.1,,,,,*45
$GPGRS,081457.00,1,-0.7,-0.1,1.0,-0.0,-0.1,-0.3,0.1,0.2,,,,*6A
$GPGRS,081457.00,1,0.2,1.5,-0.1,1.1,2.9,-0.5,0.2,-0.4,-1.6,-2.1,-0.3,-1.5*60
$GPGRS,081457.00,1,-0.6,,,,,,,,,,,*44
$GPGSV,6,1,22,13,68,307,49,20,24,203,42,07,19,071,40,15,33,303,44*71
$GPGSV,6,2,22,22,51,165,,05,47,237,48,30,54,066,47,14,63,129,48*70
$GPGSV,6,3,22,08,10,036,38,18,07,307,39,23,02,333,37,24,00,260,*7D
$GPGSV,6,4,22,17,03,136,,36,35,170,44,58,13,245,36,40,24,133,36*70
$GPGSV,6,5,22,34,31,208,43,49,34,195,44,57,07,112,37,41,07,108,35*7B
$GPGSV,6,6,22,61,03,257,38*46
$GLGSV,2,1,08,75,88,047,52,66,30,322,48,76,29,219,49,72,35,143,47*6F
$GLGSV,2,2,08,74,31,040,43,65,83,304,48,82,07,336,43,83,08,015,33*67
$GAGSV,3,1,10,03,86,089,48,02,27,189,42,13,11,287,38,24,33,051,43*6B
$GAGSV,3,2,10,05,32,117,43,08,39,301,44,16,54,076,,25,62,126,48*61
$GAGSV,3,3,10,15,00,240,,26,07,336,37*6A
$GBGSV,5,1,17,45,83,102,51,24,31,216,,14,12,317,38,40,26,061,43*6D
$GBGSV,5,2,17,05,21,130,38,22,31,155,47,07,25,070,40,56,18,091,*64
$GBGSV,5,3,17,26,35,229,46,42,36,309,47,36,32,056,46,10,29,083,40*68
$GBGSV,5,4,17,50,60,288,,21,73,225,52,09,09,073,36,02,04,109,33*67
$GBGSV,5,5,17,60,07,112,41*5B
$GPGGA,081457.00,,,,,0,00,,,M,,M,,*47
$PTNL,GGK,081457.00,010125,4742.1602748,N,01618.1001641,E,1,37,0.8,EHT751.5776,M*4F
$GPGGQ,081457.00,010125,4742.1602748,N,01618.1001641,E,1,37,0.957,708.3710,M*38
$GPGFA,081457.00,4.226,6.328,0.444,0.350,342.133,0.772,,VVV*05
$GPLLK,081457.00,010125,,M,,M,1,37,0.8,,M*08
$GNGMP,081457.00,,,,,DAAA,37,0.4,,,,*59
$GPGMP,081457.00,,,,,,09,,,,2.9,136*74
$GLGMP,081457.00,,,,,,07,,,,,*77
$GAGMP,081457.00,,,,,,08,,,,,*75
$GBGMP,081457.00,,,,,,13,,,,,*7C
$PSSN,SNC,[0,288915000,2347]*4B
$GPZDA,081502.00,01,01,2025,,*6D
$GPDTM,W84,,00.0000000,N,00.0000000,E,00.0000000,W84*5F
$PSSN,TFM,081502.00,,,,*61
$GPRMC,081502.00,A,4742.1602767,N,01618.1001656,E,0.0,,010125,5.1,E,D*1E
$GPGLL,4742.1602767,N,01618.1001656,E,081502.00,A,D*6F
$GPGGA,081502.00,4742.1602767,N,01618.1001656,E,2,37,0.4,708.3698,M,43.2066,M,1.7,0136*4E
$GNGNS,081502.00,4742.1602767,N,01618.1001656,E,DAAA,37,0.4,708.3698,43.2066,,*50
$GPGNS,081502.00,,,,,,09,,,,1.7,136*78
$GLGNS,081502.00,,,,,,07,,,,,*76
$GAGNS,081502.00,,,,,,08,,,,,*74
$GBGNS,081502.00,,,,,,13,,,,,*7D
$GPLLQ,081502.00,010125,,M,,M,1,37,0.946,,M*10
$GPVTG,,T,,M,0.00,N,0.01,K,D*27
$GPHDT,,T*1B
$GPTHS,,V*0E
$GPROT,,V*08
$PSSN,HRP,081502.00,010125,,,,,,,00,0,,*6F
$PTNL,AVR,081502.00,,Yaw,,Tilt,,,,0,,00*39
$GPGSA,A,3,05,07,08,13,14,15,18,20,30,,,,0.8,0.4,0.6*39
$GPGSA,A,3,65,66,72,74,75,76,82,,,,,,0.8,0.4,0.6*34
$GPGSA,A,3,02,03,05,08,13,24,25,26,,,,,0.8,0.4,0.6*33
$GPGSA,A,3,05,07,09,10,14,21,22,26,36,40,42,45,0.8,0.4,0.6*36
$GPGSA,A,3,60,,,,,,,,,,,,0.8,0.4,0.6*3E
$GPGST,081502.00,1.880,0.438,0.348,342.749,0.431,0.357,0.763*52
$GPGBS,081502.00,3.347,1.781,4.676,07,0.0001,-1.405,1.475*72
$GPGRS,081502.00,1,-0.0,-1.4,0.1,0.1,0.3,0.1,-0.2,0.1,-0.1,,,*6B
$GPGRS,081502.00,1,-1.4,-2.7,5.8,4.8,-2.9,-2.1,-1.6,,,,,*4D
$GPGRS,081502.00,1,-0.9,-0.2,0.8,0.0,0.5,-0.3,0.1,0.3,,,,*6A
$GPGRS,081502.00,1,0.2,2.0,-0.2,1.2,2.5,-0.5,0.2,-0.6,-1.1,-2.2,-0.6,-1.5*68
$GPGRS,081502.00,1,-0.3,,,,,,,,,,,*40
$GPGSV,6,1,22,13,68,307,49,20,24,203,42,07,19,071,41,15,33,303,45*71
$GPGSV,6,2,22,22,51,165,,05,47,237,48,30,54,067,47,14,63,129,48*71
$GPGSV,6,3,22,08,10,036,37,18,07,307,38,23,02,333,37,24,00,260,*73
$GPGSV,6,4,22,17,03,136,,36,35,170,44,58,13,245,36,40,24,133,36*70
$GPGSV,6,5,22,34,31,208,43,49,34,195,44,57,07,112,37,41,07,108,35*7B
$GPGSV,6,6,22,61,03,257,38*46
$GLGSV,2,1,08,75,88,046,52,66,30,322,48,76,29,219,48,72,35,143,47*6F
$GLGSV,2,2,08,74,31,040,43,65,83,303,49,82,07,336,42,83,08,015,34*67
$GAGSV,3,1,10,03,86,089,48,02,27,189,42,13,11,287,38,24,33,051,43*6B
$GAGSV,3,2,10,05,32,117,42,08,39,301,43,16,54,075,,25,62,126,48*64
$GAGSV,3,3,10,15,00,240,,26,07,336,37*6A
$GBGSV,5,1,17,45,83,102,51,24,31,216,,14,12,317,37,40,26,061,43*62
$GBGSV,5,2,17,05,21,130,38,22,31,155,46,07,25,070,40,56,18,091,*65
$GBGSV,5,3,17,26,35,229,46,42,37,309,46,36,32,056,46,10,29,083,40*68
$GBGSV,5,4,17,50,60,288,,21,73,225,52,09,09,073,36,02,04,109,33*67
$GBGSV,5,5,17,60,07,112,41*5B
$GPGGA,081502.00,,,,,0,00,,,M,,M,,*46
$PTNL,GGK,081502.00,010125,4742.1602767,N,01618.1001656,E,1,37,0.8,EHT751.5764,M*46
$GPGGQ,081502.00,010125,4742.1602767,N,01618.1001656,E,1,37,0.946,708.3698,M*33
$GPGFA,081502.00,4.161,6.260,0.438,0.348,342.749,0.763,,VVV*00
$GPLLK,081502.00,010125,,M,,M,1,37,0.8,,M*09
$GNGMP,081502.00,,,,,DAAA,37,0.4,,,,*58
$GPGMP,081502.00,,,,,,09,,,,1.7,136*78
$GLGMP,081502.00,,,,,,07,,,,,*76
$GAGMP,081502.00,,,,,,08,,,,,*74
$GBGMP,081502.00,,,,,,13,,,,,*7D
$PSSN,SNC,[0,288920000,2347]*4D
$GPZDA,081507.00,01,01,2025,,*68
$GPDTM,W84,,00.0000000,N,00.0000000,E,00.0000000,W84*5F
$PSSN,TFM,081507.00,,,,*64
$GPRMC,081507.00,A,4742.1602780,N,01618.1001663,E,0.0,,010125,5.1,E,D*14
$GPGLL,4742.1602780,N,01618.1001663,E,081507.00,A,D*65
$GPGGA,081507.00,4742.1602780,N,01618.1001663,E,2,37,0.4,708.3661,M,43.2066,M,2.2,0136*44
$GNGNS,081507.00,4742.1602780,N,01618.1001663,E,DAAA,37,0.4,708.3661,43.2066,,*5C
$GPGNS,081507.00,,,,,,09,,,,2.2,136*7B
$GLGNS,081507.00,,,,,,07,,,,,*73
$GAGNS,081507.00,,,,,,08,,,,,*71
$GBGNS,081507.00,,,,,,13,,,,,*78
$GPLLQ,081507.00,010125,,M,,M,1,37,0.938,,M*1C
$GPVTG,,T,,M,0.00,N,0.01,K,D*27
$GPHDT,,T*1B
$GPTHS,,V*0E
$GPROT,,V*08
$PSSN,HRP,081507.00,010125,,,,,,,00,0,,*6A
$PTNL,AVR,081507.00,,Yaw,,Tilt,,,,0,,00*3C
$GPGSA,A,3,05,07,08,13,14,15,18,20,30,,,,0.8,0.4,0.6*39
$GPGSA,A,3,65,66,72,74,75,76,82,,,,,,0.8,0.4,0.6*34
$GPGSA,A,3,02,03,05,08,13,24,25,26,,,,,0.8,0.4,0.6*33
$GPGSA,A,3,05,07,09,10,14,21,22,26,36,40,42,45,0.8,0.4,0.6*36
$GPGSA,A,3,60,,,,,,,,,,,,0.8,0.4,0.6*3E
$GPGST,081507.00,1.876,0.437,0.344,342.634,0.429,0.353,0.755*5E
$GPGBS,081507.00,3.382,1.804,4.668,07,0.0001,-1.919,1.485*7C
$GPGRS,081507.00,1,0.0,-1.9,0.4,0.3,0.4,-0.2,0.3,-0.2,-0.3,,,*60
$GPGRS,081507.00,1,-1.0,-2.8,5.3,5.3,-2.8,-2.6,-2.0,,,,,*41
$GPGRS,081507.00,1,-1.1,-0.3,0.6,-0.4,0.4,-0.2,-0.1,0.1,,,,*6F
$GPGRS,081507.00,1,0.1,1.6,-0.2,1.2,1.6,-0.5,0.2,0.0,-1.2,-1.9,-0.6,-1.4*4A
$GPGRS,081507.00,1,-0.3,,,,,,,,,,,*45
$GPGSV,6,1,22,13,68,307,49,20,24,203,42,07,19,071,41,15,33,303,45*71
$GPGSV,6,2,22,05,47,237,48,22,51,164,,30,54,067,48,14,63,129,48*7F
$GPGSV,6,3,22,08,10,036,37,18,07,307,38,23,02,333,37,24,00,260,*73
$GPGSV,6,4,22,17,03,136,,36,35,170,44,58,13,245,36,40,24,133,36*70
$GPGSV,6,5,22,34,31,208,43,49,34,195,44,57,07,112,37,41,07,108,34*7A
$GPGSV,6,6,22,61,03,257,38*46
$GLGSV,2,1,08,75,88,046,52,66,30,322,48,76,29,219,49,72,35,143,47*6E
$GLGSV,2,2,08,74,31,040,43,65,83,303,48,82,07,336,42,83,08,015,33*61
$GAGSV,3,1,10,03,86,089,48,02,27,189,42,13,11,287,38,24,33,051,43*6B
$GAGSV,3,2,10,05,32,117,42,08,39,301,44,16,54,075,,25,62,126,48*63
$GAGSV,3,3,10,15,00,240,,26,07,336,37*6A
$GBGSV,5,1,17,45,83,101,51,24,31,216,,14,12,317,38,40,26,061,43*6E
$GBGSV,5,2,17,05,21,130,38,22,31,155,46,07,25,070,41,56,18,091,*64
$GBGSV,5,3,17,26,35,229,46,42,37,309,46,36,32,056,46,10,29,083,40*68
$GBGSV,5,4,17,50,60,288,,21,73,225,52,09,09,073,36,02,04,109,33*67
$GBGSV,5,5,17,60,07,112,41*5B
$GPGGA,081507.00,,,,,0,00,,,M,,M,,*43
$PTNL,GGK,081507.00,010125,4742.1602780,N,01618.1001663,E,1,37,0.8,EHT751.5726,M*4A
$GPGGQ,081507.00,010125,4742.1602780,N,01618.1001663,E,1,37,0.938,708.3661,M*36
$GPGFA,081507.00,4.152,6.194,0.437,0.344,342.634,0.755,,VVV*00
$GPLLK,081507.00,010125,,M,,M,1,37,0.8,,M*0C
$GNGMP,081507.00,,,,,DAAA,37,0.4,,,,*5D
$GPGMP,081507.00,,,,,,09,,,,2.2,136*7B
$GLGMP,081507.00,,,,,,07,,,,,*73
$GAGMP,081507.00,,,,,,08,,,,,*71
$GBGMP,081507.00,,,,,,13,,,,,*78
$PSSN,SNC,[0,288925000,2347]*48
$GPZDA,081512.00,01,01,2025,,*6C
$GPDTM,W84,,00.0000000,N,00.0000000,E,00.0000000,W84*5F
$PSSN,TFM,081512.00,,,,*60
$GPRMC,081512.00,A,4742.1602763,N,01618.1001681,E,0.0,,010125,5.1,E,D*11
$GPGLL,4742.1602763,N,01618.1001681,E,081512.00,A,D*60
$GPGGA,081512.00,4742.1602763,N,01618.1001681,E,2,37,0.4,708.3609,M,43.2066,M,3.2,0136*4E
$GNGNS,081512.00,4742.1602763,N,01618.1001681,E,DAAA,37,0.4,708.3609,43.2066,,*57
$GPGNS,081512.00,,,,,,09,,,,3.2,136*7E
$GLGNS,081512.00,,,,,,07,,,,,*77
$GAGNS,081512.00,,,,,,08,,,,,*75
$GBGNS,081512.00,,,,,,13,,,,,*7C
$GPLLQ,081512.00,010125,,M,,M,1,37,0.949,,M*1E
$GPVTG,,T,,M,0.00,N,0.01,K,D*27
$GPHDT,,T*1B
$GPTHS,,V*0E
$GPROT,,V*08
$PSSN,HRP,081512.00,010125,,,,,,,00,0,,*6E
$PTNL,AVR,081512.00,,Yaw,,Tilt,,,,0,,00*38
$GPGSA,A,3,05,07,08,13,14,15,18,20,30,,,,0.8,0.4,0.6*39
$GPGSA,A,3,65,66,72,74,75,76,82,,,,,,0.8,0.4,0.6*34
$GPGSA,A,3,02,03,05,08,13,24,25,26,,,,,0.8,0.4,0.6*33
$GPGSA,A,3,05,07,09,10,14,21,22,26,36,40,42,45,0.8,0.4,0.6*36
$GPGSA,A,3,60,,,,,,,,,,,,0.8,0.4,0.6*3E
$GPGST,081512.00,1.815,0.444,0.346,342.177,0.435,0.356,0.765*52
$GPGBS,081512.00,3.440,1.834,4.717,07,0.0001,-1.667,1.496*7F
$GPGRS,081512.00,1,-0.0,-1.7,0.2,0.2,0.5,-0.2,0.3,-0.3,-0.3,,,*40
$GPGRS,081512.00,1,-1.7,-3.0,5.4,4.2,-2.8,-2.1,-1.5,,,,,*4D
$GPGRS,081512.00,1,-0.8,-0.2,0.6,-0.2,-0.2,-0.3,0.1,0.3,,,,*61
$GPGRS,081512.00,1,0.1,1.1,0.5,1.2,2.9,-0.7,0.1,0.3,-1.2,-1.9,-0.6,-1.5*6C
$GPGRS,081512.00,1,-0.5,,,,,,,,,,,*47
$GPGSV,6,1,22,13,68,307,49,20,24,203,42,07,19,071,41,15,33,303,45*71
$GPGSV,6,2,22,05,47,237,48,22,51,164,,30,54,067,48,14,63,129,49*7E
$GPGSV,6,3,22,08,10,036,36,18,07,307,38,23,02,333,37,24,00,260,*72
$GPGSV,6,4,22,17,03,136,,36,35,170,44,58,13,245,36,40,24,133,36*70
$GPGSV,6,5,22,34,31,208,43,49,34,195,44,57,07,112,37,41,07,108,35*7B
$GPGSV,6,6,22,61,03,257,38*46
$GLGSV,2,1,08,75,88,046,52,66,30,322,49,76,29,219,48,72,35,143,47*6E
$GLGSV,2,2,08,74,31,040,43,65,83,303,48,82,07,336,42,83,08,015,34*66
$GAGSV,3,1,10,03,86,090,48,02,27,189,42,13,11,287,38,24,33,051,43*63
$GAGSV,3,2,10,05,32,117,42,08,39,301,44,16,54,075,,25,62,126,48*63
$GAGSV,3,3,10,15,00,240,,26,07,336,38*65
$GBGSV,5,1,17,45,83,101,51,24,31,216,,14,12,317,38,40,26,061,43*6E
$GBGSV,5,2,17,05,21,130,38,22,31,155,46,07,25,069,41,56,18,091,*6C
$GBGSV,5,3,17,26,35,229,47,42,37,309,46,36,32,056,46,10,29,083,40*69
$GBGSV,5,4,17,50,60,288,,21,73,225,52,09,09,073,36,02,04,109,33*67
$GBGSV,5,5,17,60,07,112,41*5B
$GPGGA,081512.00,,,,,0,00,,,M,,M,,*47
$PTNL,GGK,081512.00,010125,4742.1602763,N,01618.1001681,E,1,37,0.8,EHT751.5675,M*48
$GPGGQ,081512.00,010125,4742.1602763,N,01618.1001681,E,1,37,0.949,708.3609,M*3B
$GPGFA,081512.00,4.218,6.270,0.444,0.346,342.177,0.765,,VVV*05
$GPLLK,081512.00,010125,,M,,M,1,37,0.8,,M*08
$GNGMP,081512.00,,,,,DAAA,37,0.4,,,,*59
$GPGMP,081512.00,,,,,,09,,,,3.2,136*7E
$GLGMP,081512.00,,,,,,07,,,,,*77
$GAGMP,081512.00,,,,,,08,,,,,*75
$GBGMP,081512.00,,,,,,13,,,,,*7C
$PSSN,SNC,[0,288930000,2347]*4C
$GPZDA,081517.00,01,01,2025,,*69
$GPDTM,W84,,00.0000000,N,00.0000000,E,00.0000000,W84*5F
$PSSN,TFM,081517.00,,,,*65
$GPRMC,081517.00,A,4742.1602778,N,01618.1001704,E,0.0,,010125,5.1,E,D*12
$GPGLL,4742.1602778,N,01618.1001704,E,081517.00,A,D*63
$GPGGA,081517.00,4742.1602778,N,01618.1001704,E,2,37,0.4,708.3507,M,43.2066,M,2.9,0136*4A
$GNGNS,081517.00,4742.1602778,N,01618.1001704,E,DAAA,37,0.4,708.3507,43.2066,,*59
$GPGNS,081517.00,,,,,,09,,,,2.9,136*71
$GLGNS,081517.00,,,,,,07,,,,,*72
$GAGNS,081517.00,,,,,,08,,,,,*70
$GBGNS,081517.00,,,,,,13,,,,,*79
$GPLLQ,081517.00,010125,,M,,M,1,37,0.956,,M*15
$GPVTG,,T,,M,0.01,N,0.01,K,D*26
$GPHDT,,T*1B
$GPTHS,,V*0E
$GPROT,,V*08
$PSSN,HRP,081517.00,010125,,,,,,,00,0,,*6B
$PTNL,AVR,081517.00,,Yaw,,Tilt,,,,0,,00*3D
$GPGSA,A,3,05,07,08,13,14,15,18,20,30,,,,0.8,0.4,0.6*39
$GPGSA,A,3,65,66,72,74,75,76,82,,,,,,0.8,0.4,0.6*34
$GPGSA,A,3,02,03,05,08,13,24,25,26,,,,,0.8,0.4,0.6*33
$GPGSA,A,3,05,07,09,10,14,21,22,26,36,40,42,45,0.8,0.4,0.6*36
$GPGSA,A,3,60,,,,,,,,,,,,0.8,0.4,0.6*3E
$GPGST,081517.00,1.890,0.445,0.350,342.025,0.436,0.360,0.771*59
$GPGBS,081517.00,3.464,1.878,4.696,07,0.0001,-1.568,1.508*76
$GPGRS,081517.00,1,-0.2,-1.6,-0.3,0.6,0.5,0.1,-0.1,-0.5,-0.2,,,*68
$GPGRS,081517.00,1,-1.4,-2.1,5.6,4.9,-3.1,-2.5,-2.1,,,,,*49
$GPGRS,081517.00,1,-0.5,-0.1,0.9,-0.1,-0.1,0.0,0.2,-0.1,,,,*67
$GPGRS,081517.00,1,0.5,1.5,0.5,1.3,2.9,-0.5,0.2,0.5,-0.9,-1.9,-0.4,-1.3*61
$GPGRS,081517.00,1,-0.2,,,,,,,,,,,*45
$GPGSV,6,1,22,13,68,307,48,20,24,203,43,07,19,071,42,15,33,303,45*72
$GPGSV,6,2,22,05,47,237,48,22,51,164,,30,54,067,48,14,63,129,49*7E
$GPGSV,6,3,22,08,10,036,37,18,07,307,38,23,02,333,37,24,00,260,*73
$GPGSV,6,4,22,17,03,136,,36,35,170,44,58,13,245,36,40,24,133,36*70
$GPGSV,6,5,22,34,31,208,43,49,34,195,44,57,07,112,37,41,07,108,35*7B
$GPGSV,6,6,22,61,03,257,38*46
$GLGSV,2,1,08,75,88,045,52,66,30,322,49,76,29,219,49,72,35,143,47*6C
$GLGSV,2,2,08,74,31,040,43,65,83,303,48,82,07,336,42,83,08,015,32*60
$GAGSV,3,1,10,03,86,090,48,02,27,190,42,13,11,287,38,24,33,051,43*6B
$GAGSV,3,2,10,05,32,117,43,08,39,301,44,16,54,075,,25,62,126,48*62
$GAGSV,3,3,10,15,00,240,,26,07,336,38*65
$GBGSV,5,1,17,45,83,101,51,24,31,216,,14,12,317,38,40,26,061,43*6E
$GBGSV,5,2,17,05,21,130,38,22,31,156,46,07,25,069,40,56,18,091,*6E
$GBGSV,5,3,17,26,35,229,47,42,37,309,46,36,32,056,45,10,29,083,40*6A
$GBGSV,5,4,17,50,60,288,,21,73,225,52,09,09,073,36,02,04,109,33*67
$GBGSV,5,5,17,60,07,112,40*5A
$GPGGA,081517.00,,,,,0,00,,,M,,M,,*42
$PTNL,GGK,081517.00,010125,4742.1602778,N,01618.1001704,E,1,37,0.8,EHT751.5573,M*4E
$GPGGQ,081517.00,010125,4742.1602778,N,01618.1001704,E,1,37,0.956,708.3507,M*3B
$GPGFA,081517.00,4.227,6.319,0.445,0.350,342.025,0.771,,VVV*07
$GPLLK,081517.00,010125,,M,,M,1,37,0.8,,M*0D
$GNGMP,081517.00,,,,,DAAA,37,0.4,,,,*5C
$GPGMP,081517.00,,,,,,09,,,,2.9,136*71
$GLGMP,081517.00,,,,,,07,,,,,*72
$GAGMP,081517.00,,,,,,08,,,,,*70
$GBGMP,081517.00,,,,,,13,,,,,*79
$PSSN,SNC,[0,288935000,2347]*49
$GPZDA,081522.00,01,01,2025,,*6F
$GPDTM,W84,,00.0000000,N,00.0000000,E,00.0000000,W84*5F
$PSSN,TFM,081522.00,,,,*63
$GPRMC,081522.00,A,4742.1602756,N,01618.1001710,E,0.0,,010125,5.1,E,D*1D
$GPGLL,4742.1602756,N,01618.1001710,E,081522.00,A,D*6C
$GPGGA,081522.00,4742.1602756,N,01618.1001710,E,2,37,0.4,708.3427,M,43.2066,M,1.7,0136*4B
$GNGNS,081522.00,4742.1602756,N,01618.1001710,E,DAAA,37,0.4,708.3427,43.2066,,*55
$GPGNS,081522.00,,,,,,09,,,,1.7,136*7A
$GLGNS,081522.00,,,,,,07,,,,,*74
$GAGNS,081522.00,,,,,,08,,,,,*76
$GBGNS,081522.00,,,,,,13,,,,,*7F
$GPLLQ,081522.00,010125,,M,,M,1,37,0.945,,M*11
$GPVTG,,T,,M,0.00,N,0.01,K,D*27
$GPHDT,,T*1B
$GPTHS,,V*0E
$GPROT,,V*08
$PSSN,HRP,081522.00,010125,,,,,,,00,0,,*6D
$PTNL,AVR,081522.00,,Yaw,,Tilt,,,,0,,00*3B
$GPGSA,A,3,05,07,08,13,14,15,18,20,30,,,,0.8,0.4,0.6*39
$GPGSA,A,3,65,66,72,74,75,76,82,,,,,,0.8,0.4,0.6*34
$GPGSA,A,3,02,03,05,08,13,24,25,26,,,,,0.8,0.4,0.6*33
$GPGSA,A,3,05,07,09,10,14,21,22,26,36,40,42,45,0.8,0.4,0.6*36
$GPGSA,A,3,60,,,,,,,,,,,,0.8,0.4,0.6*3E
$GPGST,081522.00,1.815,0.438,0.348,342.616,0.431,0.357,0.762*56
$GPGBS,081522.00,3.343,1.788,4.668,72,0.0001,5.368,6.143*52
$GPGRS,081522.00,1,-0.0,-0.7,0.3,0.3,0.1,-0.2,-0.3,-0.5,0.1,,,*42
$GPGRS,081522.00,1,-0.8,-2.6,5.4,5.2,-2.9,-1.7,-2.0,,,,,*44
$GPGRS,081522.00,1,-0.5,0.1,0.7,-0.4,-0.4,0.1,0.1,-0.0,,,,*41
$GPGRS,081522.00,1,0.3,1.4,0.4,1.8,2.5,-0.5,0.4,-0.0,-1.0,-1.8,-0.3,-1.3*46
$GPGRS,081522.00,1,-0.4,,,,,,,,,,,*45
$GPGSV,6,1,22,13,68,307,48,20,24,203,42,07,19,071,43,15,33,303,45*72
$GPGSV,6,2,22,05,47,236,48,22,51,164,,30,54,067,48,14,63,129,48*7E
$GPGSV,6,3,22,08,10,036,37,18,07,307,38,23,02,333,38,24,00,260,*7C
$GPGSV,6,4,22,17,03,136,,36,35,170,44,58,13,245,36,40,24,133,36*70
$GPGSV,6,5,22,34,31,208,43,49,34,195,44,57,07,112,37,41,07,108,35*7B
$GPGSV,6,6,22,61,03,257,38*46
$GLGSV,2,1,08,75,88,045,52,66,30,322,49,76,29,219,48,72,35,143,46*6C
$GLGSV,2,2,08,74,31,040,43,65,83,302,48,82,07,336,43,83,08,015,32*60
$GAGSV,3,1,10,03,86,090,48,02,27,190,43,13,11,287,37,24,33,051,43*65
$GAGSV,3,2,10,05,32,117,43,08,39,301,44,16,54,075,,25,62,126,48*62
$GAGSV,3,3,10,15,00,240,,26,07,336,37*6A
$GBGSV,5,1,17,45,83,101,50,24,31,216,,14,12,317,37,40,26,061,43*60
$GBGSV,5,2,17,05,21,130,38,22,31,156,46,07,26,069,40,56,18,091,*6D
$GBGSV,5,3,17,26,35,229,47,42,37,309,46,36,32,056,45,10,29,083,40*6A
$GBGSV,5,4,17,50,60,288,,21,73,224,52,09,09,073,35,02,04,109,33*65
$GBGSV,5,5,17,60,07,112,41*5B
$GPGGA,081522.00,,,,,0,00,,,M,,M,,*44
$PTNL,GGK,081522.00,010125,4742.1602756,N,01618.1001710,E,1,37,0.8,EHT751.5493,M*4E
$GPGGQ,081522.00,010125,4742.1602756,N,01618.1001710,E,1,37,0.945,708.3427,M*35
$GPGFA,081522.00,4.162,6.250,0.438,0.348,342.616,0.762,,VVV*08
$GPLLK,081522.00,010125,,M,,M,1,37,0.8,,M*0B
$GNGMP,081522.00,,,,,DAAA,37,0.4,,,,*5A
$GPGMP,081522.00,,,,,,09,,,,1.7,136*7A
$GLGMP,081522.00,,,,,,07,,,,,*74
$GAGMP,081522.00,,,,,,08,,,,,*76
$GBGMP,081522.00,,,,,,13,,,,,*7F
$PSSN,SNC,[0,288940000,2347]*4B
$GPZDA,081527.00,01,01,2025,,*6A
$GPDTM,W84,,00.0000000,N,00.0000000,E,00.0000000,W84*5F
$PSSN,TFM,081527.00,,,,*66
$GPRMC,081527.00,A,4742.1602744,N,01618.1001687,E,0.0,,010125,5.1,E,D*14
$GPGLL,4742.1602744,N,01618.1001687,E,081527.00,A,D*65
$GPGGA,081527.00,4742.1602744,N,01618.1001687,E,2,36,0.4,708.3359,M,43.2066,M,2.2,0136*4B
$GNGNS,081527.00,4742.1602744,N,01618.1001687,E,DAAA,36,0.4,708.3359,43.2066,,*53
$GPGNS,081527.00,,,,,,09,,,,2.2,136*79
$GLGNS,081527.00,,,,,,07,,,,,*71
$GAGNS,081527.00,,,,,,08,,,,,*73
$GBGNS,081527.00,,,,,,12,,,,,*7B
$GPLLQ,081527.00,010125,,M,,M,1,36,0.938,,M*1F
$GPVTG,,T,,M,0.00,N,0.00,K,D*26
$GPHDT,,T*1B
$GPTHS,,V*0E
$GPROT,,V*08
$PSSN,HRP,081527.00,010125,,,,,,,00,0,,*68
$PTNL,AVR,081527.00,,Yaw,,Tilt,,,,0,,00*3E
$GPGSA,A,3,05,07,08,13,14,15,18,20,30,,,,0.8,0.4,0.6*39
$GPGSA,A,3,65,66,72,74,75,76,82,,,,,,0.8,0.4,0.6*34
$GPGSA,A,3,02,03,05,08,13,24,25,26,,,,,0.8,0.4,0.6*33
$GPGSA,A,3,05,07,10,14,21,22,26,36,40,42,45,60,0.8,0.4,0.6*39
$GPGST,081527.00,1.661,0.437,0.344,342.548,0.430,0.354,0.755*53
$GPGBS,081527.00,3.379,1.811,4.670,72,0.0001,5.534,6.143*57
$GPGRS,081527.00,1,-0.0,-1.0,-0.4,0.3,-0.1,0.1,0.3,-0.3,0.2,,,*40
$GPGRS,081527.00,1,-1.2,-2.6,5.5,3.8,-2.8,-2.2,-1.5,,,,,*46
$GPGRS,081527.00,1,-0.8,-0.0,0.8,-0.1,0.0,0.1,-0.2,0.1,,,,*44
$GPGRS,081527.00,1,0.3,0.9,1.2,0.8,-0.5,0.1,-0.0,-1.1,-1.5,-0.3,-1.4,-0.5*68
$GPGSV,6,1,22,13,68,307,48,20,24,203,41,07,19,071,43,15,33,303,45*71
$GPGSV,6,2,22,05,47,236,47,22,51,164,,30,54,067,48,14,63,129,48*71
$GPGSV,6,3,22,08,10,036,37,18,07,307,39,23,02,333,37,24,00,260,*72
$GPGSV,6,4,22,17,03,136,,36,35,170,44,58,13,245,36,40,24,133,36*70
$GPGSV,6,5,22,34,31,208,43,49,34,195,44,57,07,112,37,41,07,108,35*7B
$GPGSV,6,6,22,61,03,257,38*46
$GLGSV,2,1,08,75,88,044,52,66,30,322,49,76,29,219,49,72,35,143,47*6D
$GLGSV,2,2,08,74,31,040,42,65,83,302,48,82,07,336,41,83,08,015,33*62
$GAGSV,3,1,10,03,86,090,48,02,27,190,42,13,11,287,37,24,33,051,43*64
$GAGSV,3,2,10,05,32,117,42,08,39,301,44,16,54,075,,25,62,126,48*63
$GAGSV,3,3,10,15,00,240,,26,07,336,37*6A
$GBGSV,5,1,17,45,83,100,50,24,31,216,,14,12,317,37,40,26,061,43*61
$GBGSV,5,2,17,05,21,130,38,22,30,156,47,07,26,069,40,56,18,091,*6D
$GBGSV,5,3,17,26,35,229,47,42,37,309,46,36,32,056,45,10,29,083,40*6A
$GBGSV,5,4,17,50,60,288,,21,73,224,52,09,09,073,35,02,04,109,33*65
$GBGSV,5,5,17,60,07,112,41*5B
$GPGGA,081527.00,,,,,0,00,,,M,,M,,*41
$PTNL,GGK,081527.00,010125,4742.1602744,N,01618.1001687,E,1,36,0.8,EHT751.5424,M*4A
$GPGGQ,081527.00,010125,4742.1602744,N,01618.1001687,E,1,36,0.938,708.3359,M*39
$GPGFA,081527.00,4.155,6.187,0.437,0.344,342.548,0.755,,VVV*0F
$GPLLK,081527.00,010125,,M,,M,1,36,0.9,,M*0E
$GNGMP,081527.00,,,,,DAAA,36,0.4,,,,*5E
$GPGMP,081527.00,,,,,,09,,,,2.2,136*79
$GLGMP,081527.00,,,,,,07,,,,,*71
$GAGMP,081527.00,,,,,,08,,,,,*73
$GBGMP,081527.00,,,,,,12,,,,,*7B
$PSSN,SNC,[0,288945000,2347]*4E
$GPZDA,081532.00,01,01,2025,,*6E
$GPDTM,W84,,00.0000000,N,00.0000000,E,00.0000000,W84*5F
$PSSN,TFM,081532.00,,,,*62
$GPRMC,081532.00,A,4742.1602727,N,01618.1001724,E,0.0,,010125,5.1,E,D*1D
$GPGLL,4742.1602727,N,01618.1001724,E,081532.00,A,D*6C
$GPGGA,081532.00,4742.1602727,N,01618.1001724,E,2,36,0.4,708.3296,M,43.2066,M,3.2,0136*41
$GNGNS,081532.00,4742.1602727,N,01618.1001724,E,DAAA,36,0.4,708.3296,43.2066,,*58
$GPGNS,081532.00,,,,,,09,,,,3.2,136*7C
$GLGNS,081532.00,,,,,,07,,,,,*75
$GAGNS,081532.00,,,,,,08,,,,,*77
$GBGNS,081532.00,,,,,,12,,,,,*7F
$GPLLQ,081532.00,010125,,M,,M,1,36,0.949,,M*1D
$GPVTG,,T,,M,0.00,N,0.01,K,D*27
$GPHDT,,T*1B
$GPTHS,,V*0E
$GPROT,,V*08
$PSSN,HRP,081532.00,010125,,,,,,,00,0,,*6C
$PTNL,AVR,081532.00,,Yaw,,Tilt,,,,0,,00*3A
$GPGSA,A,3,05,07,08,13,14,15,18,20,30,,,,0.8,0.4,0.6*39
$GPGSA,A,3,65,66,72,74,75,76,82,,,,,,0.8,0.4,0.6*34
$GPGSA,A,3,02,03,05,08,13,24,25,26,,,,,0.8,0.4,0.6*33
$GPGSA,A,3,05,07,10,14,21,22,26,36,40,42,45,60,0.8,0.4,0.6*39
$GPGST,081532.00,1.899,0.444,0.346,342.042,0.436,0.357,0.764*50
$GPGBS,081532.00,3.437,1.842,4.716,07,0.0001,-1.910,1.502*7E
$GPGRS,081532.00,1,0.1,-1.9,-0.3,0.3,0.2,0.0,0.3,-0.3,-0.1,,,*67
$GPGRS,081532.00,1,-1.5,-3.2,5.9,4.6,-2.9,-2.4,-2.5,,,,,*41
$GPGRS,081532.00,1,-0.7,-0.3,0.9,-0.2,0.0,-0.1,-0.0,-0.1,,,,*4C
$GPGRS,081532.00,1,0.5,0.5,1.0,1.2,-0.7,0.2,-0.1,-1.3,-1.7,-0.4,-1.3,-0.3*69
$GPGSV,6,1,22,13,68,307,48,20,24,203,41,07,19,071,42,15,33,303,45*70
$GPGSV,6,2,22,05,47,236,47,22,51,164,,30,54,067,47,14,63,129,48*7E
$GPGSV,6,3,22,08,10,036,36,18,07,307,38,23,02,333,38,24,00,260,*7D
$GPGSV,6,4,22,17,03,136,,36,35,170,44,58,13,245,36,40,24,133,36*70
$GPGSV,6,5,22,34,31,208,43,49,34,195,44,57,07,112,37,41,07,108,35*7B
$GPGSV,6,6,22,61,03,257,38*46
$GLGSV,2,1,08,75,87,044,52,66,30,322,49,76,29,219,49,72,34,143,47*63
$GLGSV,2,2,08,74,31,040,43,65,83,302,48,82,07,336,41,83,08,015,33*63
$GAGSV,3,1,10,03,86,091,48,02,27,190,43,13,11,287,38,24,33,051,43*6B
$GAGSV,3,2,10,05,32,117,42,08,39,301,44,16,54,075,,25,62,125,48*60
$GAGSV,3,3,10,15,00,240,,26,07,336,37*6A
$GBGSV,5,1,17,45,83,100,50,24,31,216,,14,12,317,38,40,26,061,42*6F
$GBGSV,5,2,17,05,21,130,38,22,30,156,47,07,26,069,40,56,18,091,*6D
$GBGSV,5,3,17,26,35,229,46,42,37,309,46,36,32,056,45,10,29,083,40*6B
$GBGSV,5,4,17,50,60,288,,21,73,224,52,09,09,073,35,02,04,109,33*65
$GBGSV,5,5,17,60,07,112,41*5B
$GPGGA,081532.00,,,,,0,00,,,M,,M,,*45
$PTNL,GGK,081532.00,010125,4742.1602727,N,01618.1001724,E,1,36,0.8,EHT751.5362,M*46
$GPGGQ,081532.00,010125,4742.1602727,N,01618.1001724,E,1,36,0.949,708.3296,M*34
$GPGFA,081532.00,4.221,6.263,0.444,0.346,342.042,0.764,,VVV*09
$GPLLK,081532.00,010125,,M,,M,1,36,0.9,,M*0A
$GNGMP,081532.00,,,,,DAAA,36,0.4,,,,*5A
$GPGMP,081532.00,,,,,,09,,,,3.2,136*7C
$GLGMP,081532.00,,,,,,07,,,,,*75
$GAGMP,081532.00,,,,,,08,,,,,*77
$GBGMP,081532.00,,,,,,12,,,,,*7F
$PSSN,SNC,[0,288950000,2347]*4A
$GPZDA,081537.00,01,01,2025,,*6B
$GPDTM,W84,,00.0000000,N,00.0000000,E,00.0000000,W84*5F
$PSSN,TFM,081537.00,,,,*67
$GPRMC,081537.00,A,4742.1602759,N,01618.1001758,E,0.0,,010125,5.1,E,D*1A
$GPGLL,4742.1602759,N,01618.1001758,E,081537.00,A,D*6B
$GPGGA,081537.00,4742.1602759,N,01618.1001758,E,2,36,0.4,708.3235,M,43.2066,M,2.9,0136*45
$GNGNS,081537.00,4742.1602759,N,01618.1001758,E,DAAA,36,0.4,708.3235,43.2066,,*56
$GPGNS,081537.00,,,,,,09,,,,2.9,136*73
$GLGNS,081537.00,,,,,,07,,,,,*70
$GAGNS,081537.00,,,,,,08,,,,,*72
$GBGNS,081537.00,,,,,,12,,,,,*7A
$GPLLQ,081537.00,010125,,M,,M,1,36,0.956,,M*16
$GPVTG,,T,,M,0.00,N,0.00,K,D*26
$GPHDT,,T*1B
$GPTHS,,V*0E
$GPROT,,V*08
$PSSN,HRP,081537.00,010125,,,,,,,00,0,,*69
$PTNL,AVR,081537.00,,Yaw,,Tilt,,,,0,,00*3F
$GPGSA,A,3,05,07,08,13,14,15,18,20,30,,,,0.8,0.4,0.6*39
$GPGSA,A,3,65,66,72,74,75,76,82,,,,,,0.8,0.4,0.6*34
$GPGSA,A,3,02,03,05,08,13,24,25,26,,,,,0.8,0.4,0.6*33
$GPGSA,A,3,05,07,10,14,21,22,26,36,40,42,45,60,0.8,0.4,0.6*39
$GPGST,081537.00,1.901,0.445,0.350,341.896,0.437,0.360,0.770*51
$GPGBS,081537.00,3.460,1.884,4.695,07,0.0001,-2.135,1.514*72
$GPGRS,081537.00,1,0.1,-2.1,0.1,0.4,0.3,-0.5,-0.3,0.2,-0.1,,,*69
$GPGRS,081537.00,1,-1.0,-3.2,5.2,4.7,-2.8,-2.0,-1.6,,,,,*4E
$GPGRS,081537.00,1,-0.6,-0.2,0.8,-0.1,-0.2,-0.4,0.1,-0.1,,,,*4D
$GPGRS,081537.00,1,0.2,1.2,1.0,3.7,-0.7,0.7,-0.4,-1.3,-1.5,-0.5,-1.4,-0.2*6F
$GPGSV,6,1,22,13,68,307,49,20,24,203,42,07,19,071,42,15,33,303,45*72
$GPGSV,6,2,22,05,47,236,48,22,51,164,,30,53,067,48,14,63,128,48*78
$GPGSV,6,3,22,08,10,036,37,18,07,307,38,23,02,333,38,24,01,260,*7D
$GPGSV,6,4,22,17,03,136,,36,35,170,44,58,13,245,36,40,24,133,36*70
$GPGSV,6,5,22,34,31,208,43,49,34,195,44,57,07,112,37,41,07,108,35*7B
$GPGSV,6,6,22,61,03,257,38*46
$GLGSV,2,1,08,75,87,043,52,66,30,322,49,76,29,219,49,72,34,143,46*65
$GLGSV,2,2,08,74,31,040,43,65,83,302,48,82,07,336,41,83,08,015,33*63
$GAGSV,3,1,10,03,86,091,48,02,28,190,43,13,11,287,38,24,33,051,43*64
$GAGSV,3,2,10,05,32,117,43,08,39,301,44,16,54,075,,25,62,125,48*61
$GAGSV,3,3,10,15,00,240,,26,07,336,36*6B
$GBGSV,5,1,17,45,83,100,50,24,31,216,,14,12,317,38,40,26,061,42*6F
$GBGSV,5,2,17,05,21,130,38,22,30,156,46,07,26,069,40,56,18,091,*6C
$GBGSV,5,3,17,26,35,229,46,42,37,309,46,36,32,056,46,10,29,083,40*68
$GBGSV,5,4,17,50,60,288,,21,73,224,52,09,09,073,35,02,04,109,33*65
$GBGSV,5,5,17,60,07,112,41*5B
$GPGGA,081537.00,,,,,0,00,,,M,,M,,*40
$PTNL,GGK,081537.00,010125,4742.1602759,N,01618.1001758,E,1,36,0.8,EHT751.5301,M*44
$GPGGQ,081537.00,010125,4742.1602759,N,01618.1001758,E,1,36,0.956,708.3235,M*34
$GPGFA,081537.00,4.230,6.313,0.445,0.350,341.896,0.770,,VVV*0B
$GPLLK,081537.00,010125,,M,,M,1,36,0.9,,M*0F
$GNGMP,081537.00,,,,,DAAA,36,0.4,,,,*5F
$GPGMP,081537.00,,,,,,09,,,,2.9,136*73
$GLGMP,081537.00,,,,,,07,,,,,*70
$GAGMP,081537.00,,,,,,08,,,,,*72
$GBGMP,081537.00,,,,,,12,,,,,*7A
$PSSN,SNC,[0,288955000,2347]*4F
$GPZDA,081542.00,01,01,2025,,*69
$GPDTM,W84,,00.0000000,N,00.0000000,E,00.0000000,W84*5F
$PSSN,TFM,081542.00,,,,*65
$GPRMC,081542.00,A,4742.1602772,N,01618.1001769,E,0.0,,010125,5.1,E,D*13
$GPGLL,4742.1602772,N,01618.1001769,E,081542.00,A,D*62
$GPGGA,081542.00,4742.1602772,N,01618.1001769,E,2,37,0.4,708.3161,M,43.2066,M,1.7,0136*42
$GNGNS,081542.00,4742.1602772,N,01618.1001769,E,DAAA,37,0.4,708.3161,43.2066,,*5C
$GPGNS,081542.00,,,,,,09,,,,1.7,136*7C
$GLGNS,081542.00,,,,,,07,,,,,*72
$GAGNS,081542.00,,,,,,08,,,,,*70
$GBGNS,081542.00,,,,,,13,,,,,*79
$GPLLQ,081542.00,010125,,M,,M,1,37,0.945,,M*17
$GPVTG,,T,,M,0.00,N,0.01,K,D*27
$GPHDT,,T*1B
$GPTHS,,V*0E
$GPROT,,V*08
$PSSN,HRP,081542.00,010125,,,,,,,00,0,,*6B
$PTNL,AVR,081542.00,,Yaw,,Tilt,,,,0,,00*3D
$GPGSA,A,3,05,07,08,13,14,15,18,20,30,,,,0.8,0.4,0.6*39
$GPGSA,A,3,65,66,72,74,75,76,82,,,,,,0.8,0.4,0.6*34
$GPGSA,A,3,02,03,05,08,13,24,25,26,,,,,0.8,0.4,0.6*33
$GPGSA,A,3,05,07,09,10,14,21,22,26,36,40,42,45,0.8,0.4,0.6*36
$GPGSA,A,3,60,,,,,,,,,,,,0.8,0.4,0.6*3E
$GPGST,081542.00,1.888,0.438,0.349,342.522,0.431,0.358,0.761*5D
$GPGBS,081542.00,3.339,1.793,4.664,07,0.0001,-1.996,1.489*7B
$GPGRS,081542.00,1,0.1,-2.0,-0.1,0.4,0.4,-0.5,-0.5,0.0,0.1,,,*69
$GPGRS,081542.00,1,-1.6,-3.0,5.7,4.5,-3.2,-2.3,-1.1,,,,,*40
$GPGRS,081542.00,1,-0.8,-0.1,0.9,0.0,-0.4,-0.2,0.3,-0.0,,,,*6C
$GPGRS,081542.00,1,-0.1,2.1,-1.2,1.5,2.5,-0.3,0.3,0.1,-1.0,-1.5,-0.3,-1.3*6E
$GPGRS,081542.00,1,-0.3,,,,,,,,,,,*44
$GPGSV,6,1,22,13,68,307,49,20,24,203,42,07,19,071,42,15,33,303,45*72
$GPGSV,6,2,22,05,47,236,48,22,51,164,,30,53,067,48,14,63,128,48*78
$GPGSV,6,3,22,08,10,036,36,18,07,307,38,23,02,333,38,24,01,260,*7C
$GPGSV,6,4,22,17,03,136,,36,35,170,44,58,13,245,36,40,24,133,36*70
$GPGSV,6,5,22,34,31,208,43,49,34,195,44,57,07,112,37,41,07,108,35*7B
$GPGSV,6,6,22,61,03,257,38*46
$GLGSV,2,1,08,75,87,043,52,66,30,322,48,76,29,219,48,72,34,143,47*64
$GLGSV,2,2,08,74,31,040,42,65,83,302,48,82,07,336,43,83,08,015,33*60
$GAGSV,3,1,10,03,86,091,48,02,28,190,43,13,11,287,38,24,33,051,43*64
$GAGSV,3,2,10,05,32,117,42,08,39,301,44,16,54,075,,25,62,125,48*60
$GAGSV,3,3,10,15,00,240,,26,07,336,36*6B
$GBGSV,5,1,17,45,83,100,50,24,31,216,,14,12,317,37,40,26,061,42*60
$GBGSV,5,2,17,05,21,130,38,22,30,156,46,07,26,069,40,56,18,091,*6C
$GBGSV,5,3,17,26,35,229,46,42,37,309,46,36,32,056,46,10,29,083,40*68
$GBGSV,5,4,17,50,60,288,,21,73,224,52,09,09,073,36,02,04,109,34*61
$GBGSV,5,5,17,60,07,112,41*5B
$GPGGA,081542.00,,,,,0,00,,,M,,M,,*42
$PTNL,GGK,081542.00,010125,4742.1602772,N,01618.1001769,E,1,37,0.8,EHT751.5227,M*49
$GPGGQ,081542.00,010125,4742.1602772,N,01618.1001769,E,1,37,0.945,708.3161,M*3C
$GPGFA,081542.00,4.164,6.239,0.438,0.349,342.522,0.761,,VVV*01
$GPLLK,081542.00,010125,,M,,M,1,37,0.8,,M*0D
$GNGMP,081542.00,,,,,DAAA,37,0.4,,,,*5C
$GPGMP,081542.00,,,,,,09,,,,1.7,136*7C
$GLGMP,081542.00,,,,,,07,,,,,*72
$GAGMP,081542.00,,,,,,08,,,,,*70
$GBGMP,081542.00,,,,,,13,,,,,*79
$PSSN,SNC,[0,288960000,2347]*49
$GPZDA,081547.00,01,01,2025,,*6C
$GPDTM,W84,,00.0000000,N,00.0000000,E,00.0000000,W84*5F
$PSSN,TFM,081547.00,,,,*60
$GPRMC,081547.00,A,4742.1602786,N,01618.1001768,E,0.0,,010125,5.1,E,D*1C
$GPGLL,4742.1602786,N,01618.1001768,E,081547.00,A,D*6D
$GPGGA,081547.00,4742.1602786,N,01618.1001768,E,2,37,0.4,708.3097,M,43.2066,M,2.2,0136*43
$GNGNS,081547.00,4742.1602786,N,01618.1001768,E,DAAA,37,0.4,708.3097,43.2066,,*5B
$GPGNS,081547.00,,,,,,09,,,,2.2,136*7F
$GLGNS,081547.00,,,,,,07,,,,,*77
$GAGNS,081547.00,,,,,,08,,,,,*75
$GBGNS,081547.00,,,,,,13,,,,,*7C
$GPLLQ,081547.00,010125,,M,,M,1,37,0.936,,M*16
$GPVTG,,T,,M,0.00,N,0.01,K,D*27
$GPHDT,,T*1B
$GPTHS,,V*0E
$GPROT,,V*08
$PSSN,HRP,081547.00,010125,,,,,,,00,0,,*6E
$PTNL,AVR,081547.00,,Yaw,,Tilt,,,,0,,00*38
$GPGSA,A,3,05,07,08,13,14,15,18,20,30,,,,0.8,0.4,0.6*39
$GPGSA,A,3,65,66,72,74,75,76,82,,,,,,0.8,0.4,0.6*34
$GPGSA,A,3,02,03,05,08,13,24,25,26,,,,,0.8,0.4,0.6*33
$GPGSA,A,3,05,07,09,10,14,21,22,26,36,40,42,45,0.8,0.4,0.6*36
$GPGSA,A,3,60,,,,,,,,,,,,0.8,0.4,0.6*3E
$GPGST,081547.00,1.990,0.437,0.344,342.396,0.430,0.354,0.753*57
$GPGBS,081547.00,3.374,1.817,4.657,07,0.0001,-1.855,1.499*7B
$GPGRS,081547.00,1,0.1,-1.9,0.2,0.2,0.1,0.1,0.3,-0.1,0.0,,,*64
$GPGRS,081547.00,1,-1.7,-3.6,6.7,4.5,-3.2,-2.7,-0.8,,,,,*4D
$GPGRS,081547.00,1,-1.4,-0.4,1.0,-0.4,-0.3,-0.2,0.3,0.2,,,,*68
$GPGRS,081547.00,1,-0.2,1.8,-0.2,1.4,1.1,-0.5,0.2,0.2,-1.1,-1.4,-0.6,-1.4*63
$GPGRS,081547.00,1,-0.7,,,,,,,,,,,*45
$GPGSV,6,1,22,13,68,307,48,20,24,203,42,07,19,071,41,15,33,303,45*70
$GPGSV,6,2,22,05,47,236,48,22,51,164,,30,53,067,48,14,63,128,48*78
$GPGSV,6,3,22,08,10,036,36,18,07,307,38,23,02,333,37,24,01,260,*73
$GPGSV,6,4,22,17,03,136,,36,35,170,44,58,13,245,36,40,24,133,36*70
$GPGSV,6,5,22,34,31,208,43,49,34,195,44,57,07,112,37,41,07,108,35*7B
$GPGSV,6,6,22,61,03,257,38*46
$GLGSV,2,1,08,75,87,043,52,66,30,322,48,76,29,219,49,72,34,143,46*64
$GLGSV,2,2,08,74,31,040,42,65,83,301,48,82,07,336,43,83,08,015,32*62
$GAGSV,3,1,10,03,86,092,48,02,28,190,42,13,11,287,38,24,33,051,43*66
$GAGSV,3,2,10,05,32,117,43,08,39,301,44,16,54,075,,25,62,125,48*61
$GAGSV,3,3,10,15,00,240,,26,07,336,36*6B
$GBGSV,5,1,17,45,83,099,50,24,31,216,,14,12,317,38,40,26,061,42*6E
$GBGSV,5,2,17,05,21,130,38,22,30,156,46,07,26,069,41,56,18,091,*6D
$GBGSV,5,3,17,26,35,229,47,42,37,309,46,36,32,056,46,10,29,083,40*69
$GBGSV,5,4,17,50,60,288,,21,73,224,52,09,09,073,36,02,04,109,33*66
$GBGSV,5,5,17,60,07,112,41*5B
$GPGGA,081547.00,,,,,0,00,,,M,,M,,*47
$PTNL,GGK,081547.00,010125,4742.1602786,N,01618.1001768,E,1,37,0.8,EHT751.5163,M*45
$GPGGQ,081547.00,010125,4742.1602786,N,01618.1001768,E,1,37,0.936,708.3097,M*3F
$GPGFA,081547.00,4.156,6.174,0.437,0.344,342.396,0.753,,VVV*05
$GPLLK,081547.00,010125,,M,,M,1,37,0.8,,M*08
$GNGMP,081547.00,,,,,DAAA,37,0.4,,,,*59
$GPGMP,081547.00,,,,,,09,,,,2.2,136*7F
$GLGMP,081547.00,,,,,,07,,,,,*77
$GAGMP,081547.00,,,,,,08,,,,,*75
$GBGMP,081547.00,,,,,,13,,,,,*7C
$PSSN,SNC,[0,288965000,2347]*4C
$GPZDA,081552.00,01,01,2025,,*68
$GPDTM,W84,,00.0000000,N,00.0000000,E,00.0000000,W84*5F
$PSSN,TFM,081552.00,,,,*64
$GPRMC,081552.00,A,4742.1602787,N,01618.1001821,E,0.0,,010125,5.1,E,D*1B
$GPGLL,4742.1602787,N,01618.1001821,E,081552.00,A,D*6A
$GPGGA,081552.00,4742.1602787,N,01618.1001821,E,2,37,0.4,708.3076,M,43.2066,M,3.2,0136*4A
$GNGNS,081552.00,4742.1602787,N,01618.1001821,E,DAAA,37,0.4,708.3076,43.2066,,*53
$GPGNS,081552.00,,,,,,09,,,,3.2,136*7A
$GLGNS,081552.00,,,,,,07,,,,,*73
$GAGNS,081552.00,,,,,,08,,,,,*71
$GBGNS,081552.00,,,,,,13,,,,,*78
$GPLLQ,081552.00,010125,,M,,M,1,37,0.947,,M*14
$GPVTG,,T,,M,0.00,N,0.01,K,D*27
$GPHDT,,T*1B
$GPTHS,,V*0E
$GPROT,,V*08
$PSSN,HRP,081552.00,010125,,,,,,,00,0,,*6A
$PTNL,AVR,081552.00,,Yaw,,Tilt,,,,0,,00*3C
$GPGSA,A,3,05,07,08,13,14,15,18,20,30,,,,0.8,0.4,0.6*39
$GPGSA,A,3,65,66,72,74,75,76,82,,,,,,0.8,0.4,0.6*34
$GPGSA,A,3,02,03,05,08,13,24,25,26,,,,,0.8,0.4,0.6*33
$GPGSA,A,3,05,07,09,10,14,21,22,26,36,40,42,45,0.8,0.4,0.6*36
$GPGSA,A,3,60,,,,,,,,,,,,0.8,0.4,0.6*3E
$GPGST,081552.00,1.849,0.444,0.346,341.896,0.435,0.357,0.762*5C
$GPGBS,081552.00,3.431,1.847,4.704,07,0.0001,-1.743,1.510*73
$GPGRS,081552.00,1,-0.0,-1.7,-0.0,0.2,0.0,0.5,0.1,0.0,-0.2,,,*69
$GPGRS,081552.00,1,-1.5,-3.3,6.0,4.0,-2.8,-2.1,-1.4,,,,,*4C
$GPGRS,081552.00,1,-1.3,-0.3,0.9,-0.5,-0.5,-0.3,-0.0,0.2,,,,*4C
$GPGRS,081552.00,1,-0.2,1.4,0.5,1.5,1.9,-0.7,0.1,0.1,-1.4,-1.4,-0.7,-1.6*4C
$GPGRS,081552.00,1,-0.7,,,,,,,,,,,*41
$GPGSV,6,1,22,13,68,307,49,20,24,203,42,07,19,071,41,15,33,303,46*72
$GPGSV,6,2,22,05,47,236,48,22,51,164,,30,53,067,48,14,63,128,48*78
$GPGSV,6,3,22,08,10,035,37,18,07,307,39,23,02,333,37,24,01,260,*70
$GPGSV,6,4,22,17,03,136,,36,35,170,44,58,13,245,36,40,24,133,36*70
$GPGSV,6,5,22,34,31,208,42,49,34,195,44,57,07,112,37,41,07,108,35*7A
$GPGSV,6,6,22,61,03,257,38*46
$GLGSV,2,1,08,75,87,042,52,66,30,322,48,76,29,219,48,72,34,143,47*65
$GLGSV,2,2,08,74,31,040,42,65,83,301,48,82,07,335,43,83,08,015,34*67
$GAGSV,3,1,10,03,86,092,48,02,28,190,42,13,11,287,37,24,33,051,43*69
$GAGSV,3,2,10,05,32,117,43,08,39,301,44,16,54,075,,25,62,125,48*61
$GAGSV,3,3,10,15,00,240,,26,07,336,37*6A
$GBGSV,5,1,17,45,83,099,50,24,31,216,,14,12,317,38,40,26,061,42*6E
$GBGSV,5,2,17,05,21,130,38,22,30,156,46,07,26,069,40,56,18,091,*6C
$GBGSV,5,3,17,26,35,229,46,42,37,309,46,36,32,056,45,10,29,083,40*6B
$GBGSV,5,4,17,50,60,287,,21,73,224,52,09,09,073,36,02,04,109,33*69
$GBGSV,5,5,17,60,07,112,40*5A
$GPGGA,081552.00,,,,,0,00,,,M,,M,,*43
$PTNL,GGK,081552.00,010125,4742.1602787,N,01618.1001821,E,1,37,0.8,EHT751.5142,M*41
$GPGGQ,081552.00,010125,4742.1602787,N,01618.1001821,E,1,37,0.947,708.3076,M*31
$GPGFA,081552.00,4.221,6.248,0.444,0.346,341.896,0.762,,VVV*02
$GPLLK,081552.00,010125,,M,,M,1,37,0.8,,M*0C
$GNGMP,081552.00,,,,,DAAA,37,0.4,,,,*5D
$GPGMP,081552.00,,,,,,09,,,,3.2,136*7A
$GLGMP,081552.00,,,,,,07,,,,,*73
$GAGMP,081552.00,,,,,,08,,,,,*71
$GBGMP,081552.00,,,,,,13,,,,,*78
$PSSN,SNC,[0,288970000,2347]*48
$GPZDA,081557.00,01,01,2025,,*6D
$GPDTM,W84,,00.0000000,N,00.0000000,E,00.0000000,W84*5F
$PSSN,TFM,081557.00,,,,*61
$GPRMC,081557.00,A,4742.1602784,N,01618.1001873,E,0.0,,010125,5.1,E,D*1A
$GPGLL,4742.1602784,N,01618.1001873,E,081557.00,A,D*6B
$GPGGA,081557.00,4742.1602784,N,01618.1001873,E,2,37,0.4,708.3009,M,43.2066,M,2.9,0136*49
$GNGNS,081557.00,4742.1602784,N,01618.1001873,E,DAAA,37,0.4,708.3009,43.2066,,*5A
$GPGNS,081557.00,,,,,,09,,,,2.9,136*75
$GLGNS,081557.00,,,,,,07,,,,,*76
$GAGNS,081557.00,,,,,,08,,,,,*74
$GBGNS,081557.00,,,,,,13,,,,,*7D
$GPLLQ,081557.00,010125,,M,,M,1,37,0.954,,M*13
$GPVTG,,T,,M,0.01,N,0.01,K,D*26
$GPHDT,,T*1B
$GPTHS,,V*0E
$GPROT,,V*08
$PSSN,HRP,081557.00,010125,,,,,,,00,0,,*6F
$PTNL,AVR,081557.00,,Yaw,,Tilt,,,,0,,00*39
$GPGSA,A,3,05,07,08,13,14,15,18,20,30,,,,0.8,0.4,0.6*39
$GPGSA,A,3,65,66,72,74,75,76,82,,,,,,0.8,0.4,0.6*34
$GPGSA,A,3,02,03,05,08,13,24,25,26,,,,,0.8,0.4,0.6*33
$GPGSA,A,3,05,07,09,10,14,21,22,26,36,40,42,45,0.8,0.4,0.6*36
$GPGSA,A,3,60,,,,,,,,,,,,0.8,0.4,0.6*3E
$GPGST,081557.00,1.931,0.445,0.350,341.781,0.437,0.360,0.768*54
$GPGBS,081557.00,3.455,1.890,4.682,07,0.0001,-1.663,1.522*73
$GPGRS,081557.00,1,-0.1,-1.7,0.0,0.3,0.1,-0.0,-0.1,-0.2,-0.0,,,*68
$GPGRS,081557.00,1,-1.2,-2.7,6.1,4.5,-2.8,-2.4,-1.0,,,,,*4E
$GPGRS,081557.00,1,-0.9,-0.1,0.8,-0.4,-0.3,-0.3,0.2,0.6,,,,*6D
$GPGRS,081557.00,1,0.2,1.7,0.8,1.6,3.6,-0.6,0.5,-0.2,-1.3,-1.3,-0.3,-1.6*4B
$GPGRS,081557.00,1,-0.3,,,,,,,,,,,*40
$GPGSV,6,1,22,13,68,307,49,20,24,203,42,07,19,071,41,15,33,303,46*72
$GPGSV,6,2,22,05,47,236,48,22,51,164,,30,53,067,48,14,63,128,48*78
$GPGSV,6,3,22,08,10,035,37,18,07,307,38,23,02,333,37,24,01,260,*71
$GPGSV,6,4,22,17,03,136,,36,35,170,44,58,13,245,36,40,24,133,36*70
$GPGSV,6,5,22,34,31,208,42,49,34,195,44,57,07,112,37,41,07,108,34*7B
$GPGSV,6,6,22,61,03,257,38*46
$GLGSV,2,1,08,75,87,042,52,66,30,322,48,76,29,219,48,72,34,143,47*65
$GLGSV,2,2,08,74,31,040,42,65,83,301,48,82,07,335,44,83,08,015,32*66
$GAGSV,3,1,10,03,86,092,48,02,28,190,42,13,11,287,37,24,33,051,43*69
$GAGSV,3,2,10,05,32,117,43,08,39,301,44,16,54,075,,25,62,125,48*61
$GAGSV,3,3,10,15,00,240,,26,07,336,37*6A
$GBGSV,5,1,17,45,83,099,50,24,31,216,,14,12,317,38,40,26,061,42*6E
$GBGSV,5,2,17,05,21,130,38,22,30,156,46,07,26,069,40,56,18,091,*6C
$GBGSV,5,3,17,26,35,229,46,42,37,309,46,36,32,056,45,10,29,083,40*6B
$GBGSV,5,4,17,50,60,287,,21,73,224,52,09,09,073,36,02,04,109,33*69
$GBGSV,5,5,17,60,07,112,40*5A
$GPGGA,081557.00,,,,,0,00,,,M,,M,,*46
$PTNL,GGK,081557.00,010125,4742.1602784,N,01618.1001873,E,1,37,0.8,EHT751.5075,M*45
$GPGGQ,081557.00,010125,4742.1602784,N,01618.1001873,E,1,37,0.954,708.3009,M*3A
$GPGFA,081557.00,4.231,6.297,0.445,0.350,341.781,0.768,,VVV*01
$GPLLK,081557.00,010125,,M,,M,1,37,0.8,,M*09
$GNGMP,081557.00,,,,,DAAA,37,0.4,,,,*58
$GPGMP,081557.00,,,,,,09,,,,2.9,136*75
$GLGMP,081557.00,,,,,,07,,,,,*76
$GAGMP,081557.00,,,,,,08,,,,,*74
$GBGMP,081557.00,,,,,,13,,,,,*7D
$PSSN,SNC,[0,288975000,2347]*4D
$GPZDA,081602.00,01,01,2025,,*6E
$GPDTM,W84,,00.0000000,N,00.0000000,E,00.0000000,W84*5F
$PSSN,TFM,081602.00,,,,*62
$GPRMC,081602.00,A,4742.1602787,N,01618.1001860,E,0.0,,010125,5.1,E,D*18
$GPGLL,4742.1602787,N,01618.1001860,E,081602.00,A,D*69
$GPGGA,081602.00,4742.1602787,N,01618.1001860,E,2,37,0.4,708.2943,M,43.2066,M,1.7,0136*40
$GNGNS,081602.00,4742.1602787,N,01618.1001860,E,DAAA,37,0.4,708.2943,43.2066,,*5E
$GPGNS,081602.00,,,,,,09,,,,1.7,136*7B
$GLGNS,081602.00,,,,,,07,,,,,*75
$GAGNS,081602.00,,,,,,08,,,,,*77
$GBGNS,081602.00,,,,,,13,,,,,*7E
$GPLLQ,081602.00,010125,,M,,M,1,37,0.944,,M*11
$GPVTG,,T,,M,0.00,N,0.01,K,D*27
$GPHDT,,T*1B
$GPTHS,,V*0E
$GPROT,,V*08
$PSSN,HRP,081602.00,010125,,,,,,,00,0,,*6C
$PTNL,AVR,081602.00,,Yaw,,Tilt,,,,0,,00*3A
$GPGSA,A,3,05,07,08,13,14,15,18,20,30,,,,0.8,0.4,0.6*39
$GPGSA,A,3,65,66,72,74,75,76,82,,,,,,0.8,0.4,0.6*34
$GPGSA,A,3,02,03,05,08,13,24,25,26,,,,,0.8,0.4,0.6*33
$GPGSA,A,3,05,07,09,10,14,21,22,26,36,40,42,45,0.8,0.4,0.6*36
$GPGSA,A,3,60,,,,,,,,,,,,0.8,0.4,0.6*3E
$GPGST,081602.00,1.807,0.438,0.349,342.388,0.431,0.358,0.760*5A
$GPGBS,081602.00,3.334,1.800,4.656,72,0.0001,5.348,6.145*55
$GPGRS,081602.00,1,0.2,-1.2,0.0,0.3,0.3,-0.2,-0.5,-0.3,0.0,,,*68
$GPGRS,081602.00,1,-1.6,-2.5,5.3,5.0,-2.8,-2.4,-0.1,,,,,*4E
$GPGRS,081602.00,1,-0.8,0.1,0.9,-0.1,0.5,-0.2,0.1,0.4,,,,*6D
$GPGRS,081602.00,1,0.4,1.7,-0.4,1.5,2.7,-0.4,0.7,-0.1,-1.0,-1.3,-0.3,-1.4*6E
$GPGRS,081602.00,1,-0.1,,,,,,,,,,,*41
$GPGSV,6,1,22,13,69,307,49,20,24,203,42,07,19,071,42,15,34,303,45*74
$GPGSV,6,2,22,05,46,236,48,22,51,164,,30,53,067,47,14,63,128,48*76
$GPGSV,6,3,22,08,10,035,37,18,07,307,38,23,02,333,38,24,01,260,*7E
$GPGSV,6,4,22,17,03,136,,36,35,170,44,58,13,245,36,40,24,133,36*70
$GPGSV,6,5,22,34,31,208,42,49,34,195,44,57,07,112,37,41,07,108,34*7B
$GPGSV,6,6,22,61,03,257,37*49
$GLGSV,2,1,08,75,87,042,52,66,30,322,49,76,29,219,48,72,34,143,47*64
$GLGSV,2,2,08,74,30,040,43,65,84,300,49,82,07,335,43,83,08,015,33*67
$GAGSV,3,1,10,03,85,093,48,02,28,190,42,13,11,287,38,24,33,051,43*64
$GAGSV,3,2,10,05,32,117,43,08,39,301,44,16,54,075,,25,62,125,48*61
$GAGSV,3,3,10,15,00,240,,26,07,336,36*6B
$GBGSV,5,1,17,45,83,099,50,24,31,216,,14,12,317,36,40,26,061,42*60
$GBGSV,5,2,17,05,21,130,38,22,30,156,46,07,26,069,40,56,18,091,*6C
$GBGSV,5,3,17,26,36,229,46,42,37,309,46,36,32,056,46,10,29,083,40*6B
$GBGSV,5,4,17,50,61,287,,21,73,224,52,09,09,073,36,02,04,109,33*68
$GBGSV,5,5,17,60,07,112,40*5A
$GPGGA,081602.00,,,,,0,00,,,M,,M,,*45
$PTNL,GGK,081602.00,010125,4742.1602787,N,01618.1001860,E,1,37,0.8,EHT751.5009,M*4C
$GPGGQ,081602.00,010125,4742.1602787,N,01618.1001860,E,1,37,0.944,708.2943,M*3F
$GPGFA,081602.00,4.166,6.229,0.438,0.349,342.388,0.760,,VVV*02
$GPLLK,081602.00,010125,,M,,M,1,37,0.8,,M*0A
$GNGMP,081602.00,,,,,DAAA,37,0.4,,,,*5B
$GPGMP,081602.00,,,,,,09,,,,1.7,136*7B
$GLGMP,081602.00,,,,,,07,,,,,*75
$GAGMP,081602.00,,,,,,08,,,,,*77
$GBGMP,081602.00,,,,,,13,,,,,*7E
$PSSN,SNC,[0,288980000,2347]*47
$GPZDA,081607.00,01,01,2025,,*6B
$GPDTM,W84,,00.0000000,N,00.0000000,E,00.0000000,W84*5F
$PSSN,TFM,081607.00,,,,*67
$GPRMC,081607.00,A,4742.1602805,N,01618.1001852,E,0.0,,010125,5.1,E,D*19
$GPGLL,4742.1602805,N,01618.1001852,E,081607.00,A,D*68
$GPGGA,081607.00,4742.1602805,N,01618.1001852,E,2,37,0.4,708.2838,M,43.2066,M,2.2,0136*4A
$GNGNS,081607.00,4742.1602805,N,01618.1001852,E,DAAA,37,0.4,708.2838,43.2066,,*52
$GPGNS,081607.00,,,,,,09,,,,2.2,136*78
$GLGNS,081607.00,,,,,,07,,,,,*70
$GAGNS,081607.00,,,,,,08,,,,,*72
$GBGNS,081607.00,,,,,,13,,,,,*7B
$GPLLQ,081607.00,010125,,M,,M,1,37,0.936,,M*11
$GPVTG,,T,,M,0.00,N,0.01,K,D*27
$GPHDT,,T*1B
$GPTHS,,V*0E
$GPROT,,V*08
$PSSN,HRP,081607.00,010125,,,,,,,00,0,,*69
$PTNL,AVR,081607.00,,Yaw,,Tilt,,,,0,,00*3F
$GPGSA,A,3,05,07,08,13,14,15,18,20,30,,,,0.8,0.4,0.6*39
$GPGSA,A,3,65,66,72,74,75,76,82,,,,,,0.8,0.4,0.6*34
$GPGSA,A,3,02,03,05,08,13,24,25,26,,,,,0.8,0.4,0.6*33
$GPGSA,A,3,05,07,09,10,14,21,22,26,36,40,42,45,0.8,0.4,0.6*36
$GPGSA,A,3,60,,,,,,,,,,,,0.8,0.4,0.6*3E
$GPGST,081607.00,1.836,0.437,0.345,342.259,0.430,0.354,0.752*5F
$GPGBS,081607.00,3.369,1.823,4.653,74,0.0001,5.543,6.184*5A
$GPGRS,081607.00,1,0.2,-1.3,-0.8,0.5,0.3,-0.3,-0.4,-0.5,0.1,,,*48
$GPGRS,081607.00,1,-1.4,-2.7,5.4,5.5,-2.7,-2.2,-2.2,,,,,*41
$GPGRS,081607.00,1,-0.6,0.2,0.8,-0.1,0.4,0.0,0.0,0.7,,,,*48
$GPGRS,081607.00,1,0.0,1.6,-0.3,0.9,0.3,-0.4,0.5,0.2,-1.1,-1.3,-0.5,-1.6*4B
$GPGRS,081607.00,1,-0.2,,,,,,,,,,,*47
$GPGSV,6,1,22,13,69,307,49,20,24,203,42,07,19,071,41,15,34,303,45*77
$GPGSV,6,2,22,05,46,236,47,22,51,164,,30,53,067,47,14,64,128,48*7E
$GPGSV,6,3,22,08,10,035,36,18,07,307,38,23,02,333,38,24,01,260,*7F
$GPGSV,6,4,22,17,03,136,,36,35,170,44,58,13,245,36,40,24,133,35*73
$GPGSV,6,5,22,34,31,208,43,49,34,195,44,57,07,112,38,41,07,108,35*74
$GPGSV,6,6,22,61,03,257,38*46
$GLGSV,2,1,08,75,87,041,52,66,30,322,48,76,29,219,49,72,34,143,47*67
$GLGSV,2,2,08,74,30,040,43,65,84,300,48,82,07,335,43,83,08,015,32*67
$GAGSV,3,1,10,03,85,093,48,02,28,190,43,13,11,287,38,24,33,051,43*65
$GAGSV,3,2,10,05,32,117,43,08,39,301,44,16,54,075,,25,62,125,48*61
$GAGSV,3,3,10,15,00,240,,26,07,336,36*6B
$GBGSV,5,1,17,45,83,098,50,24,31,216,,14,12,317,36,40,26,061,42*61
$GBGSV,5,2,17,05,21,130,38,22,30,156,46,07,26,069,40,56,18,091,*6C
$GBGSV,5,3,17,26,36,229,46,42,37,309,46,36,32,056,46,10,29,083,40*6B
$GBGSV,5,4,17,50,61,287,,21,73,223,52,09,09,073,36,02,04,109,33*6F
$GBGSV,5,5,17,60,07,112,40*5A
$GPGGA,081607.00,,,,,0,00,,,M,,M,,*40
$PTNL,GGK,081607.00,010125,4742.1602805,N,01618.1001852,E,1,37,0.8,EHT751.4904,M*48
$GPGGQ,081607.00,010125,4742.1602805,N,01618.1001852,E,1,37,0.936,708.2838,M*36
$GPGFA,081607.00,4.158,6.165,0.437,0.345,342.259,0.752,,VVV*0E
$GPLLK,081607.00,010125,,M,,M,1,37,0.8,,M*0F
$GNGMP,081607.00,,,,,DAAA,37,0.4,,,,*5E
$GPGMP,081607.00,,,,,,09,,,,2.2,136*78
$GLGMP,081607.00,,,,,,07,,,,,*70
$GAGMP,081607.00,,,,,,08,,,,,*72
$GBGMP,081607.00,,,,,,13,,,,,*7B
$PSSN,SNC,[0,288985000,2347]*42
$GPZDA,081612.00,01,01,2025,,*6F
$GPDTM,W84,,00.0000000,N,00.0000000,E,00.0000000,W84*5F
$PSSN,TFM,081612.00,,,,*63
$GPRMC,081612.00,A,4742.1602821,N,01618.1001882,E,0.0,,010125,5.1,E,D*16
$GPGLL,4742.1602821,N,01618.1001882,E,081612.00,A,D*67
$GPGGA,081612.00,4742.1602821,N,01618.1001882,E,2,37,0.4,708.2751,M,43.2066,M,3.2,0136*44
$GNGNS,081612.00,4742.1602821,N,01618.1001882,E,DAAA,37,0.4,708.2751,43.2066,,*5D
$GPGNS,081612.00,,,,,,09,,,,3.2,136*7D
$GLGNS,081612.00,,,,,,07,,,,,*74
$GAGNS,081612.00,,,,,,08,,,,,*76
$GBGNS,081612.00,,,,,,13,,,,,*7F
$GPLLQ,081612.00,010125,,M,,M,1,37,0.947,,M*13
$GPVTG,,T,,M,0.01,N,0.01,K,D*26
$GPHDT,,T*1B
$GPTHS,,V*0E
$GPROT,,V*08
$PSSN,HRP,081612.00,010125,,,,,,,00,0,,*6D
$PTNL,AVR,081612.00,,Yaw,,Tilt,,,,0,,00*3B
$GPGSA,A,3,05,07,08,13,14,15,18,20,30,,,,0.8,0.4,0.6*39
$GPGSA,A,3,65,66,72,74,75,76,82,,,,,,0.8,0.4,0.6*34
$GPGSA,A,3,02,03,05,08,13,24,25,26,,,,,0.8,0.4,0.6*33
$GPGSA,A,3,05,07,09,10,14,21,22,26,36,40,42,45,0.8,0.4,0.6*36
$GPGSA,A,3,60,,,,,,,,,,,,0.8,0.4,0.6*3E
$GPGST,081612.00,1.847,0.444,0.346,341.785,0.436,0.357,0.761*58
$GPGBS,081612.00,3.428,1.854,4.700,07,0.0001,-1.739,1.517*70
$GPGRS,081612.00,1,0.2,-1.7,-0.2,0.1,0.4,-0.3,0.7,-0.1,-0.2,,,*45
$GPGRS,081612.00,1,-1.2,-3.2,5.9,4.5,-2.9,-1.9,-2.8,,,,,*47
$GPGRS,081612.00,1,-0.7,-0.1,0.6,-0.4,0.0,-0.1,0.1,0.5,,,,*43
$GPGRS,081612.00,1,0.3,1.3,-0.3,0.9,1.5,-0.7,0.6,0.1,-1.1,-1.3,-0.4,-1.7*4D
$GPGRS,081612.00,1,-0.4,,,,,,,,,,,*45
$GPGSV,6,1,22,13,69,307,49,20,24,203,41,07,19,071,41,15,34,303,45*74
$GPGSV,6,2,22,05,46,236,47,22,51,164,,30,53,067,47,14,64,128,48*7E
$GPGSV,6,3,22,08,10,035,37,18,07,307,38,23,02,333,38,24,01,260,33*7E
$GPGSV,6,4,22,17,04,136,,36,35,170,44,58,13,245,36,40,24,133,36*77
$GPGSV,6,5,22,34,31,208,42,49,34,195,44,57,07,112,37,41,07,108,35*7A
$GPGSV,6,6,22,61,03,257,38*46
$GLGSV,2,1,08,75,87,041,52,66,30,322,48,76,29,219,49,72,34,143,47*67
$GLGSV,2,2,08,74,30,040,42,65,84,300,48,82,07,335,41,83,08,015,33*65
$GAGSV,3,1,10,03,85,093,48,02,28,190,43,13,11,287,38,24,33,051,43*65
$GAGSV,3,2,10,05,31,117,43,08,39,301,44,16,54,075,,25,63,125,48*63
$GAGSV,3,3,10,15,00,240,,26,07,336,36*6B
$GBGSV,5,1,17,45,83,098,51,24,31,216,,14,12,317,38,40,26,061,42*6E
$GBGSV,5,2,17,05,21,130,38,22,30,156,46,07,26,069,40,56,18,091,*6C
$GBGSV,5,3,17,26,36,229,46,42,37,309,46,36,32,056,46,10,29,083,40*6B
$GBGSV,5,4,17,50,61,287,,21,73,223,52,09,09,073,36,02,04,109,33*6F
$GBGSV,5,5,17,60,07,112,40*5A
$GPGGA,081612.00,,,,,0,00,,,M,,M,,*44
$PTNL,GGK,081612.00,010125,4742.1602821,N,01618.1001882,E,1,37,0.8,EHT751.4817,M*44
$GPGGQ,081612.00,010125,4742.1602821,N,01618.1001882,E,1,37,0.947,708.2751,M*3F
$GPGFA,081612.00,4.225,6.239,0.444,0.346,341.785,0.761,,VVV*09
$GPLLK,081612.00,010125,,M,,M,1,37,0.8,,M*0B
$GNGMP,081612.00,,,,,DAAA,37,0.4,,,,*5A
$GPGMP,081612.00,,,,,,09,,,,3.2,136*7D
$GLGMP,081612.00,,,,,,07,,,,,*74
$GAGMP,081612.00,,,,,,08,,,,,*76
$GBGMP,081612.00,,,,,,13,,,,,*7F
$PSSN,SNC,[0,288990000,2347]*46
$GPZDA,081617.00,01,01,2025,,*6A
$GPDTM,W84,,00.0000000,N,00.0000000,E,00.0000000,W84*5F
$PSSN,TFM,081617.00,,,,*66
$GPRMC,081617.00,A,4742.1602824,N,01618.1001895,E,0.0,,010125,5.1,E,D*10
$GPGLL,4742.1602824,N,01618.1001895,E,081617.00,A,D*61
$GPGGA,081617.00,4742.1602824,N,01618.1001895,E,2,37,0.4,708.2731,M,43.2066,M,2.9,0136*4E
$GNGNS,081617.00,4742.1602824,N,01618.1001895,E,DAAA,37,0.4,708.2731,43.2066,,*5D
$GPGNS,081617.00,,,,,,09,,,,2.9,136*72
$GLGNS,081617.00,,,,,,07,,,,,*71
$GAGNS,081617.00,,,,,,08,,,,,*73
$GBGNS,081617.00,,,,,,13,,,,,*7A
$GPLLQ,081617.00,010125,,M,,M,1,37,0.954,,M*14
$GPVTG,,T,,M,0.00,N,0.00,K,D*26
$GPHDT,,T*1B
$GPTHS,,V*0E
$GPROT,,V*08
$PSSN,HRP,081617.00,010125,,,,,,,00,0,,*68
$PTNL,AVR,081617.00,,Yaw,,Tilt,,,,0,,00*3E
$GPGSA,A,3,05,07,08,13,14,15,18,20,30,,,,0.8,0.4,0.6*39
$GPGSA,A,3,65,66,72,74,75,76,82,,,,,,0.8,0.4,0.6*34
$GPGSA,A,3,02,03,05,08,13,24,25,26,,,,,0.8,0.4,0.6*33
$GPGSA,A,3,05,07,09,10,14,21,22,26,36,40,42,45,0.8,0.4,0.6*36
$GPGSA,A,3,60,,,,,,,,,,,,0.8,0.4,0.6*3E
$GPGST,081617.00,1.955,0.445,0.350,341.682,0.437,0.361,0.767*5D
$GPGBS,081617.00,3.452,1.897,4.678,07,0.0001,-1.848,1.529*7D
$GPGRS,081617.00,1,0.0,-1.8,0.3,-0.0,0.4,-0.2,0.9,-0.2,-0.1,,,*42
$GPGRS,081617.00,1,-1.4,-3.4,5.7,4.2,-2.8,-2.6,-2.4,,,,,*4A
$GPGRS,081617.00,1,-1.1,-0.4,0.8,-0.3,0.4,-0.4,0.2,0.6,,,,*4C
$GPGRS,081617.00,1,-0.2,0.8,-0.2,0.5,3.9,-0.7,0.4,0.0,-1.2,-1.6,-0.3,-1.6*6E
$GPGRS,081617.00,1,-0.3,,,,,,,,,,,*47
$GPGSV,6,1,22,13,69,307,48,20,24,203,41,07,19,071,41,15,34,303,45*75
$GPGSV,6,2,22,05,46,236,47,22,51,164,,30,53,067,47,14,64,128,48*7E
$GPGSV,6,3,22,08,10,035,36,18,07,307,37,23,02,333,37,24,01,260,33*7F
$GPGSV,6,4,22,17,04,136,,36,35,170,44,58,13,245,36,40,24,133,35*74
$GPGSV,6,5,22,34,31,208,42,49,34,195,44,57,07,112,37,41,07,108,35*7A
$GPGSV,6,6,22,61,03,257,38*46
$GLGSV,2,1,08,75,87,041,52,66,30,322,49,76,30,219,48,72,34,143,47*6F
$GLGSV,2,2,08,74,30,040,42,65,84,300,48,82,07,335,42,83,08,015,33*66
$GAGSV,3,1,09,03,85,093,48,02,28,190,43,13,11,287,38,24,33,051,43*6D
$GAGSV,3,2,09,05,31,117,43,08,39,301,44,16,54,075,,25,63,125,48*6B
$GAGSV,3,3,09,26,07,336,37*50
$GBGSV,5,1,17,45,83,098,51,24,31,216,,14,12,317,38,40,26,060,42*6F
$GBGSV,5,2,17,05,21,130,38,22,30,156,46,07,26,069,40,56,18,091,*6C
$GBGSV,5,3,17,26,36,229,47,42,37,309,46,36,32,056,46,10,29,083,40*6A
$GBGSV,5,4,17,50,61,287,,21,73,223,52,09,09,073,37,02,04,109,33*6E
$GBGSV,5,5,17,60,07,112,41*5B
$GPGGA,081617.00,,,,,0,00,,,M,,M,,*41
$PTNL,GGK,081617.00,010125,4742.1602824,N,01618.1001895,E,1,37,0.8,EHT751.4797,M*45
$GPGGQ,081617.00,010125,4742.1602824,N,01618.1001895,E,1,37,0.954,708.2731,M*3D
$GPGFA,081617.00,4.235,6.292,0.445,0.350,341.682,0.767,,VVV*0A
$GPLLK,081617.00,010125,,M,,M,1,37,0.8,,M*0E
$GNGMP,081617.00,,,,,DAAA,37,0.4,,,,*5F
$GPGMP,081617.00,,,,,,09,,,,2.9,136*72
$GLGMP,081617.00,,,,,,07,,,,,*71
$GAGMP,081617.00,,,,,,08,,,,,*73
$GBGMP,081617.00,,,,,,13,,,,,*7A
$PSSN,SNC,[0,288995000,2347]*43
$GPZDA,081622.00,01,01,2025,,*6C
$GPDTM,W84,,00.0000000,N,00.0000000,E,00.0000000,W84*5F
$PSSN,TFM,081622.00,,,,*60
$GPRMC,081622.00,A,4742.1602834,N,01618.1001887,E,0.0,,010125,5.1,E,D*14
$GPGLL,4742.1602834,N,01618.1001887,E,081622.00,A,D*65
$GPGGA,081622.00,4742.1602834,N,01618.1001887,E,2,37,0.4,708.2708,M,43.2066,M,1.7,0136*4D
$GNGNS,081622.00,4742.1602834,N,01618.1001887,E,DAAA,37,0.4,708.2708,43.2066,,*53
$GPGNS,081622.00,,,,,,09,,,,1.7,136*79
$GLGNS,081622.00,,,,,,07,,,,,*77
$GAGNS,081622.00,,,,,,08,,,,,*75
$GBGNS,081622.00,,,,,,13,,,,,*7C
$GPLLQ,081622.00,010125,,M,,M,1,37,0.943,,M*14
$GPVTG,,T,,M,0.00,N,0.01,K,D*27
$GPHDT,,T*1B
$GPTHS,,V*0E
$GPROT,,V*08
$PSSN,HRP,081622.00,010125,,,,,,,00,0,,*6E
$PTNL,AVR,081622.00,,Yaw,,Tilt,,,,0,,00*38
$GPGSA,A,3,05,07,08,13,14,15,18,20,30,,,,0.8,0.4,0.6*39
$GPGSA,A,3,65,66,72,74,75,76,82,,,,,,0.8,0.4,0.6*34
$GPGSA,A,3,02,03,05,08,13,24,25,26,,,,,0.8,0.4,0.6*33
$GPGSA,A,3,05,07,09,10,14,21,22,26,36,40,42,45,0.8,0.4,0.6*36
$GPGSA,A,3,60,,,,,,,,,,,,0.8,0.4,0.6*3E
$GPGST,081622.00,1.822,0.438,0.349,342.275,0.431,0.358,0.759*56
$GPGBS,081622.00,3.329,1.806,4.649,07,0.0001,-1.684,1.504*7B
