$GPZDA,065942.00,01,01,2025,,*6F
$GPDTM,W84,,00.0000000,N,00.0000000,E,00.0000000,W84*5F
$PSSN,TFM,065942.00,,,,*63
$GPRMC,065942.00,A,4742.1603969,N,01618.0999605,E,0.0,,010125,5.1,E,D*12
$GPGLL,4742.1603969,N,01618.0999605,E,065942.00,A,D*63
$GPGGA,065942.00,4742.1603969,N,01618.0999605,E,2,36,0.4,708.2044,M,43.2066,M,2.4,0136*45
$GNGNS,065942.00,4742.1603969,N,01618.0999605,E,DAAA,36,0.4,708.2044,43.2066,,*5B
$GPGNS,065942.00,,,,,,10,,,,2.4,136*72
$GLGNS,065942.00,,,,,,08,,,,,*7B
$GAGNS,065942.00,,,,,,08,,,,,*76
$GBGNS,065942.00,,,,,,10,,,,,*7C
$GPLLQ,065942.00,010125,,M,,M,1,36,0.892,,M*1B
$GPVTG,,T,,M,0.00,N,0.00,K,D*26
$GPHDT,,T*1B
$GPTHS,,V*0E
$GPROT,,V*08
$PSSN,HRP,065942.00,010125,,,,,,,00,0,,*6D
$PTNL,AVR,065942.00,,Yaw,,Tilt,,,,0,,00*3B
$GPGSA,A,3,05,07,08,09,11,13,14,18,20,30,,,0.7,0.4,0.6*3B
$GPGSA,A,3,65,71,72,73,74,75,81,88,,,,,0.7,0.4,0.6*3B
$GPGSA,A,3,03,05,08,13,15,24,25,31,,,,,0.7,0.4,0.6*3C
$GPGSA,A,3,05,07,09,19,21,22,36,40,45,60,,,0.7,0.4,0.6*31
$GPGST,065942.00,1.613,0.400,0.355,9.941,0.399,0.356,0.715*5C
$GPGBS,065942.00,2.789,2.452,4.231,72,0.0001,4.877,6.051*58
$GPGRS,065942.00,1,-0.0,0.1,-0.2,0.5,-0.5,0.2,0.2,0.3,-0.1,-0.2,,*6C
$GPGRS,065942.00,1,-3.0,-1.2,4.9,2.2,2.2,-3.2,-0.6,-2.0,,,,*67
$GPGRS,065942.00,1,-0.2,0.8,0.0,0.2,0.4,0.2,0.2,-0.1,,,,*4F
$GPGRS,065942.00,1,2.5,1.4,0.2,-2.1,0.1,-0.3,0.1,-0.9,0.1,-1.4,,*4F
$GPGSV,6,1,21,30,87,082,51,14,33,162,46,09,16,106,40,07,49,060,47*7F
$GPGSV,6,2,21,13,35,289,45,20,55,230,48,05,50,292,47,15,03,295,39*7E
$GPGSV,6,3,21,18,06,336,39,11,08,226,40,27,05,035,36,08,07,066,38*71
$GPGSV,6,4,21,36,35,170,44,58,13,245,36,40,24,133,37,34,31,208,43*7B
$GPGSV,6,5,21,49,34,195,44,57,07,112,36,41,07,108,35,61,03,257,38*7E
$GPGSV,6,6,21*7A
$GLGSV,3,1,09,72,70,094,51,81,13,326,44,73,24,036,45,71,21,121,46*6A
$GLGSV,3,2,09,75,47,189,51,65,43,319,48,74,67,065,46,82,04,010,39*6D
$GLGSV,3,3,09,88,06,276,42*5F
$GAGSV,3,1,12,03,67,303,48,31,12,034,38,08,16,287,39,13,19,313,40*6D
$GAGSV,3,2,12,15,23,258,41,25,36,152,45,24,45,081,45,16,47,121,*69
$GAGSV,3,3,12,05,55,092,47,09,04,102,36,02,00,188,,34,04,212,37*68
$GBGSV,6,1,23,22,64,141,52,46,11,045,,19,11,132,41,09,17,060,38*60
$GBGSV,6,2,23,10,13,114,,40,15,071,40,05,21,129,39,07,16,079,38*68
$GBGSV,6,3,23,26,48,182,,50,34,306,,45,57,190,50,36,59,071,50*6F
$GBGSV,6,4,23,21,59,303,51,28,05,323,,24,02,207,,16,00,061,29*64
$GBGSV,6,5,23,42,09,309,,02,05,108,33,11,00,293,21,06,03,062,35*6E
$GBGSV,6,6,23,56,02,096,,58,07,038,,60,07,112,40*52
$GPGGA,065942.00,,,,,0,00,,,M,,M,,*44
$PTNL,GGK,065942.00,010125,4742.1603969,N,01618.0999605,E,1,36,0.7,EHT751.4110,M*40
$GPGGQ,065942.00,010125,4742.1603969,N,01618.0999605,E,1,36,0.892,708.2044,M*30
$GPGFA,065942.00,3.803,5.860,0.400,0.355,9.941,0.715,,VVV*0D
$GPLLK,065942.00,010125,,M,,M,1,36,0.8,,M*0A
$GNGMP,065942.00,,,,,DAAA,36,0.4,,,,*5B
$GPGMP,065942.00,,,,,,10,,,,2.4,136*72
$GLGMP,065942.00,,,,,,08,,,,,*7B
$GAGMP,065942.00,,,,,,08,,,,,*76
$GBGMP,065942.00,,,,,,10,,,,,*7C
$PSSN,SNC,[0,284400000,2347]*4E
$GPZDA,065947.00,01,01,2025,,*6A
$GPDTM,W84,,00.0000000,N,00.0000000,E,00.0000000,W84*5F
$PSSN,TFM,065947.00,,,,*66
$GPRMC,065947.00,A,4742.1603966,N,01618.0999599,E,0.0,,010125,5.1,E,D*1E
$GPGLL,4742.1603966,N,01618.0999599,E,065947.00,A,D*6F
$GPGGA,065947.00,4742.1603966,N,01618.0999599,E,2,36,0.4,708.2016,M,43.2066,M,3.0,0136*4B
$GNGNS,065947.00,4742.1603966,N,01618.0999599,E,DAAA,36,0.4,708.2016,43.2066,,*50
$GPGNS,065947.00,,,,,,10,,,,3.0,136*72
$GLGNS,065947.00,,,,,,08,,,,,*7E
$GAGNS,065947.00,,,,,,08,,,,,*73
$GBGNS,065947.00,,,,,,10,,,,,*79
$GPLLQ,065947.00,010125,,M,,M,1,36,0.899,,M*15
$GPVTG,,T,,M,0.00,N,0.00,K,D*26
$GPHDT,,T*1B
$GPTHS,,V*0E
$GPROT,,V*08
$PSSN,HRP,065947.00,010125,,,,,,,00,0,,*68
$PTNL,AVR,065947.00,,Yaw,,Tilt,,,,0,,00*3E
$GPGSA,A,3,05,07,08,09,11,13,14,18,20,30,,,0.7,0.4,0.6*3B
$GPGSA,A,3,65,71,72,73,74,75,81,88,,,,,0.7,0.4,0.6*3B
$GPGSA,A,3,03,05,08,13,15,24,25,31,,,,,0.7,0.4,0.6*3C
$GPGSA,A,3,05,07,09,19,21,22,36,40,45,60,,,0.7,0.4,0.6*31
$GPGST,065947.00,1.600,0.406,0.360,9.651,0.405,0.362,0.716*53
$GPGBS,065947.00,2.830,2.443,4.343,72,0.0001,4.789,6.051*5A
$GPGRS,065947.00,1,0.1,-0.1,-0.6,0.5,-0.4,0.2,0.1,0.3,0.0,-0.1,,*41
$GPGRS,065947.00,1,-3.1,-1.8,4.8,2.4,1.9,-2.7,0.2,-2.2,,,,*49
$GPGRS,065947.00,1,-0.0,0.5,-0.2,-0.1,0.5,0.4,0.2,-0.1,,,,*43
$GPGRS,065947.00,1,2.3,1.1,0.4,-2.3,0.1,-0.4,-0.0,-1.0,0.1,-1.4,,*6E
$GPGSV,6,1,21,30,87,081,51,14,33,162,45,09,16,106,40,07,49,060,47*7F
$GPGSV,6,2,21,13,35,289,45,20,55,230,48,05,50,292,47,15,03,295,38*7F
$GPGSV,6,3,21,18,06,336,39,11,08,226,40,27,05,035,37,08,07,066,38*70
$GPGSV,6,4,21,36,35,170,44,58,13,245,36,40,24,133,36,34,31,208,43*7A
$GPGSV,6,5,21,49,34,195,44,57,07,112,36,41,07,108,35,61,03,257,38*7E
$GPGSV,6,6,21*7A
$GLGSV,3,1,09,72,70,094,50,81,13,326,44,73,24,036,45,71,21,122,46*68
$GLGSV,3,2,09,75,47,189,51,65,43,319,48,74,67,065,46,82,04,010,39*6D
$GLGSV,3,3,09,88,06,276,43*5E
$GAGSV,3,1,12,03,67,303,48,31,12,034,38,08,16,287,39,13,19,313,39*63
$GAGSV,3,2,12,15,23,258,41,25,37,152,45,24,45,081,45,16,48,121,*67
$GAGSV,3,3,12,05,55,092,47,09,04,102,36,02,00,188,,34,04,212,37*68
$GBGSV,6,1,23,22,64,141,52,46,11,045,,19,11,132,41,09,17,060,38*60
$GBGSV,6,2,23,10,13,114,,40,15,071,40,05,21,129,39,07,16,079,38*68
$GBGSV,6,3,23,26,48,182,,50,34,306,,45,57,190,51,36,59,071,50*6E
$GBGSV,6,4,23,21,59,303,51,28,05,323,,24,02,207,,16,00,061,28*65
$GBGSV,6,5,23,42,09,309,,02,05,108,33,11,00,293,22,06,03,062,36*6E
$GBGSV,6,6,23,56,02,096,,58,07,038,,60,07,112,40*52
$GPGGA,065947.00,,,,,0,00,,,M,,M,,*41
$PTNL,GGK,065947.00,010125,4742.1603966,N,01618.0999599,E,1,36,0.7,EHT751.4082,M*46
$GPGGQ,065947.00,010125,4742.1603966,N,01618.0999599,E,1,36,0.899,708.2016,M*30
$GPGFA,065947.00,3.864,5.875,0.406,0.360,9.651,0.716,,VVV*00
$GPLLK,065947.00,010125,,M,,M,1,36,0.8,,M*0F
$GNGMP,065947.00,,,,,DAAA,36,0.4,,,,*5E
$GPGMP,065947.00,,,,,,10,,,,3.0,136*72
$GLGMP,065947.00,,,,,,08,,,,,*7E
$GAGMP,065947.00,,,,,,08,,,,,*73
$GBGMP,065947.00,,,,,,10,,,,,*79
$PSSN,SNC,[0,284405000,2347]*4B
$GPZDA,065952.00,01,01,2025,,*6E
$GPDTM,W84,,00.0000000,N,00.0000000,E,00.0000000,W84*5F
$PSSN,TFM,065952.00,,,,*62
$GPRMC,065952.00,A,4742.1603950,N,01618.0999611,E,0.0,,010125,5.1,E,D*1C
$GPGLL,4742.1603950,N,01618.0999611,E,065952.00,A,D*6D
$GPGGA,065952.00,4742.1603950,N,01618.0999611,E,2,36,0.4,708.1987,M,43.2066,M,3.1,0136*4A
$GNGNS,065952.00,4742.1603950,N,01618.0999611,E,DAAA,36,0.4,708.1987,43.2066,,*50
$GPGNS,065952.00,,,,,,10,,,,3.1,136*77
$GLGNS,065952.00,,,,,,08,,,,,*7A
$GAGNS,065952.00,,,,,,08,,,,,*77
$GBGNS,065952.00,,,,,,10,,,,,*7D
$GPLLQ,065952.00,010125,,M,,M,1,36,0.899,,M*11
$GPVTG,,T,,M,0.01,N,0.01,K,D*26
$GPHDT,,T*1B
$GPTHS,,V*0E
$GPROT,,V*08
$PSSN,HRP,065952.00,010125,,,,,,,00,0,,*6C
$PTNL,AVR,065952.00,,Yaw,,Tilt,,,,0,,00*3A
$GPGSA,A,3,05,07,08,09,11,13,14,18,20,30,,,0.7,0.4,0.6*3B
$GPGSA,A,3,65,71,72,73,74,75,81,88,,,,,0.7,0.4,0.6*3B
$GPGSA,A,3,03,05,08,13,15,24,25,31,,,,,0.7,0.4,0.6*3C
$GPGSA,A,3,05,07,09,19,21,22,36,40,45,60,,,0.7,0.4,0.6*31
$GPGST,065952.00,1.729,0.410,0.366,7.853,0.409,0.367,0.712*53
$GPGBS,065952.00,2.799,2.450,4.265,72,0.0001,4.502,6.051*54
$GPGRS,065952.00,1,0.1,-0.1,0.1,0.6,-0.4,0.3,0.2,-0.3,-0.1,-0.0,,*6E
$GPGRS,065952.00,1,-3.1,-3.0,4.5,2.1,2.9,-3.1,0.8,-2.5,,,,*46
$GPGRS,065952.00,1,-0.0,0.8,-0.4,-0.6,0.5,0.7,-0.2,-0.4,,,,*60
$GPGRS,065952.00,1,2.7,0.8,0.5,-2.0,0.1,-0.3,0.0,-0.7,0.0,-1.6,,*4B
$GPGSV,6,1,21,30,87,081,51,14,33,162,45,09,16,106,39,07,49,060,47*71
$GPGSV,6,2,21,13,35,289,45,20,55,230,48,05,50,292,47,15,03,295,38*7F
$GPGSV,6,3,21,18,06,336,38,11,08,226,40,27,05,035,37,08,07,066,38*71
$GPGSV,6,4,21,36,35,170,45,58,13,245,36,40,24,133,37,34,31,208,43*7A
$GPGSV,6,5,21,49,34,195,44,57,07,112,37,41,07,108,35,61,03,257,38*7F
$GPGSV,6,6,21*7A
$GLGSV,3,1,09,72,70,094,50,81,13,326,46,73,24,036,44,71,21,122,45*68
$GLGSV,3,2,09,75,47,189,51,65,43,319,48,74,67,065,46,82,04,010,39*6D
$GLGSV,3,3,09,88,06,276,42*5F
$GAGSV,3,1,12,03,67,303,48,31,12,034,38,08,16,287,39,13,19,313,40*6D
$GAGSV,3,2,12,15,23,258,41,25,37,152,44,24,45,080,45,16,48,121,*67
$GAGSV,3,3,12,05,55,092,47,09,04,102,36,02,00,188,,34,04,212,37*68
$GBGSV,6,1,23,22,63,141,52,46,11,045,,19,11,133,41,09,17,060,38*66
$GBGSV,6,2,23,10,13,114,,40,15,071,40,05,21,129,39,07,16,079,38*68
$GBGSV,6,3,23,26,48,182,,50,34,306,,45,57,190,50,36,59,071,50*6F
$GBGSV,6,4,23,21,59,303,51,28,05,323,,24,02,207,,16,00,061,29*64
$GBGSV,6,5,23,42,09,309,,02,05,108,33,11,00,293,22,06,03,062,36*6E
$GBGSV,6,6,23,56,02,096,,58,07,038,,60,07,112,40*52
$GPGGA,065952.00,,,,,0,00,,,M,,M,,*45
$PTNL,GGK,065952.00,010125,4742.1603950,N,01618.0999611,E,1,36,0.7,EHT751.4053,M*48
$GPGGQ,065952.00,010125,4742.1603950,N,01618.0999611,E,1,36,0.899,708.1987,M*30
$GPGFA,065952.00,3.894,5.839,0.410,0.366,7.853,0.712,,VVV*04
$GPLLK,065952.00,010125,,M,,M,1,36,0.8,,M*0B
$GNGMP,065952.00,,,,,DAAA,36,0.4,,,,*5A
$GPGMP,065952.00,,,,,,10,,,,3.1,136*77
$GLGMP,065952.00,,,,,,08,,,,,*7A
$GAGMP,065952.00,,,,,,08,,,,,*77
$GBGMP,065952.00,,,,,,10,,,,,*7D
$PSSN,SNC,[0,284410000,2347]*4F
$GPZDA,065957.00,01,01,2025,,*6B
$GPDTM,W84,,00.0000000,N,00.0000000,E,00.0000000,W84*5F
$PSSN,TFM,065957.00,,,,*67
$GPRMC,065957.00,A,4742.1603966,N,01618.0999596,E,0.0,,010125,5.1,E,D*10
$GPGLL,4742.1603966,N,01618.0999596,E,065957.00,A,D*61
$GPGGA,065957.00,4742.1603966,N,01618.0999596,E,2,36,0.4,708.1947,M,43.2066,M,1.4,0136*4D
$GNGNS,065957.00,4742.1603966,N,01618.0999596,E,DAAA,36,0.4,708.1947,43.2066,,*50
$GPGNS,065957.00,,,,,,10,,,,1.4,136*75
$GLGNS,065957.00,,,,,,08,,,,,*7F
$GAGNS,065957.00,,,,,,08,,,,,*72
$GBGNS,065957.00,,,,,,10,,,,,*78
$GPLLQ,065957.00,010125,,M,,M,1,36,0.895,,M*18
$GPVTG,,T,,M,0.00,N,0.00,K,D*26
$GPHDT,,T*1B
$GPTHS,,V*0E
$GPROT,,V*08
$PSSN,HRP,065957.00,010125,,,,,,,00,0,,*69
$PTNL,AVR,065957.00,,Yaw,,Tilt,,,,0,,00*3F
$GPGSA,A,3,05,07,08,09,11,13,14,18,20,30,,,0.7,0.4,0.6*3B
$GPGSA,A,3,65,71,72,73,74,75,81,88,,,,,0.7,0.4,0.6*3B
$GPGSA,A,3,03,05,08,13,15,24,25,31,,,,,0.7,0.4,0.6*3C
$GPGSA,A,3,05,07,09,19,21,22,36,40,45,60,,,0.7,0.4,0.6*31
$GPGST,065957.00,1.579,0.404,0.362,7.395,0.404,0.363,0.712*58
$GPGBS,065957.00,2.753,2.425,4.205,72,0.0001,4.415,6.051*54
$GPGRS,065957.00,1,-0.0,0.0,-0.8,0.5,-0.3,0.0,0.3,-0.0,0.2,0.0,,*49
$GPGRS,065957.00,1,-3.0,-2.0,4.4,1.7,2.9,-3.0,0.6,-1.9,,,,*47
$GPGRS,065957.00,1,-0.1,0.9,-0.8,-0.6,0.5,0.2,-0.0,-0.3,,,,*69
$GPGRS,065957.00,1,2.3,0.8,0.3,-2.0,-0.1,-0.2,0.0,-0.5,-0.1,-1.3,,*4B
$GPGSV,6,1,21,30,87,081,51,14,33,162,45,09,16,106,39,07,48,060,47*70
$GPGSV,6,2,21,13,35,289,45,20,55,230,48,05,50,292,47,15,03,295,36*71
$GPGSV,6,3,21,18,06,336,39,11,08,226,40,27,05,035,36,08,07,066,37*7E
$GPGSV,6,4,21,36,35,170,44,58,13,245,36,40,24,133,37,34,31,208,43*7B
$GPGSV,6,5,21,49,34,195,44,57,07,112,36,41,07,108,35,61,03,257,38*7E
$GPGSV,6,6,21*7A
$GLGSV,3,1,09,72,70,094,50,81,13,326,45,73,24,036,45,71,21,122,46*69
$GLGSV,3,2,09,75,47,189,51,65,43,319,48,74,67,065,46,82,04,010,39*6D
$GLGSV,3,3,09,88,06,276,43*5E
$GAGSV,3,1,12,03,67,303,48,31,12,034,38,08,16,287,40,13,19,313,40*63
$GAGSV,3,2,12,15,23,258,41,25,37,152,45,24,45,080,46,16,48,121,*65
$GAGSV,3,3,12,05,55,092,47,09,04,102,36,02,00,188,,34,04,212,37*68
$GBGSV,6,1,23,22,63,141,52,46,11,045,,19,11,133,41,09,17,060,38*66
$GBGSV,6,2,23,10,13,114,,40,15,071,41,05,21,129,39,07,16,079,38*69
$GBGSV,6,3,23,26,48,182,,50,34,306,,45,57,190,50,36,59,071,50*6F
$GBGSV,6,4,23,21,59,303,51,28,05,323,,24,02,207,,16,00,062,26*68
$GBGSV,6,5,23,42,09,309,,02,05,108,34,11,00,293,20,06,03,062,36*6B
$GBGSV,6,6,23,56,02,096,,58,07,038,,60,07,112,40*52
$GPGGA,065957.00,,,,,0,00,,,M,,M,,*40
$PTNL,GGK,065957.00,010125,4742.1603966,N,01618.0999596,E,1,36,0.7,EHT751.4013,M*40
$GPGGQ,065957.00,010125,4742.1603966,N,01618.0999596,E,1,36,0.895,708.1947,M*3C
$GPGFA,065957.00,3.845,5.839,0.404,0.362,7.395,0.712,,VVV*0D
$GPLLK,065957.00,010125,,M,,M,1,36,0.8,,M*0E
$GNGMP,065957.00,,,,,DAAA,36,0.4,,,,*5F
$GPGMP,065957.00,,,,,,10,,,,1.4,136*75
$GLGMP,065957.00,,,,,,08,,,,,*7F
$GAGMP,065957.00,,,,,,08,,,,,*72
$GBGMP,065957.00,,,,,,10,,,,,*78
$PSSN,SNC,[0,284415000,2347]*4A
$GPZDA,070002.00,01,01,2025,,*66
$GPDTM,W84,,00.0000000,N,00.0000000,E,00.0000000,W84*5F
$PSSN,TFM,070002.00,,,,*6A
$GPRMC,070002.00,A,4742.1603952,N,01618.0999608,E,0.0,,010125,5.1,E,D*1E
$GPGLL,4742.1603952,N,01618.0999608,E,070002.00,A,D*6F
$GPGGA,070002.00,4742.1603952,N,01618.0999608,E,2,36,0.4,708.1946,M,43.2066,M,2.4,0136*41
$GNGNS,070002.00,4742.1603952,N,01618.0999608,E,DAAA,36,0.4,708.1946,43.2066,,*5F
$GPGNS,070002.00,,,,,,10,,,,2.4,136*7B
$GLGNS,070002.00,,,,,,08,,,,,*72
$GAGNS,070002.00,,,,,,08,,,,,*7F
$GBGNS,070002.00,,,,,,10,,,,,*75
$GPLLQ,070002.00,010125,,M,,M,1,36,0.893,,M*13
$GPVTG,,T,,M,0.01,N,0.01,K,D*26
$GPHDT,,T*1B
$GPTHS,,V*0E
$GPROT,,V*08
$PSSN,HRP,070002.00,010125,,,,,,,00,0,,*64
$PTNL,AVR,070002.00,,Yaw,,Tilt,,,,0,,00*32
$GPGSA,A,3,05,07,08,09,11,13,14,18,20,30,,,0.7,0.4,0.6*3B
$GPGSA,A,3,65,71,72,73,74,75,81,88,,,,,0.7,0.4,0.6*3B
$GPGSA,A,3,03,05,08,13,15,24,25,31,,,,,0.7,0.4,0.6*3C
$GPGSA,A,3,05,07,09,19,21,22,36,40,45,60,,,0.7,0.4,0.6*31
$GPGST,070002.00,1.569,0.400,0.354,9.647,0.398,0.356,0.715*52
$GPGBS,070002.00,2.787,2.448,4.234,72,0.0001,4.671,6.051*59
$GPGRS,070002.00,1,-0.1,-0.1,-0.4,0.3,-0.4,0.5,0.1,0.3,-0.0,-0.2,,*4D
$GPGRS,070002.00,1,-3.0,-1.3,4.7,2.3,2.6,-2.7,-0.8,-1.6,,,,*6B
$GPGRS,070002.00,1,-0.3,0.7,-0.8,-0.4,0.5,-0.0,0.2,-0.6,,,,*6F
$GPGRS,070002.00,1,2.3,0.4,-0.0,-2.2,-0.1,-0.3,-0.3,-0.7,0.2,-1.7,,*61
$GPGSV,6,1,21,30,87,080,51,14,33,162,45,09,16,106,39,07,48,060,47*71
$GPGSV,6,2,21,13,35,289,45,20,55,230,48,05,50,292,47,15,03,295,38*7F
$GPGSV,6,3,21,18,06,336,39,11,08,226,40,27,05,035,37,08,07,066,37*7F
$GPGSV,6,4,21,36,35,170,45,58,13,245,36,40,24,133,37,34,31,208,43*7A
$GPGSV,6,5,21,49,34,195,44,57,07,112,36,41,07,108,35,61,03,257,38*7E
$GPGSV,6,6,21*7A
$GLGSV,3,1,09,72,70,094,51,81,13,326,45,73,24,036,45,71,21,122,46*68
$GLGSV,3,2,09,75,47,189,51,65,43,319,48,74,67,064,46,82,04,010,39*6C
$GLGSV,3,3,09,88,05,276,43*5D
$GAGSV,3,1,12,03,67,303,48,31,12,034,38,08,16,287,39,13,19,313,40*6D
$GAGSV,3,2,12,15,23,258,41,25,37,152,45,24,45,080,45,16,48,121,*66
$GAGSV,3,3,12,05,55,092,47,09,04,102,36,02,00,188,,34,04,212,37*68
$GBGSV,6,1,22,22,63,141,52,46,11,045,,19,11,133,41,09,17,060,38*67
$GBGSV,6,2,22,10,13,114,,40,15,071,41,05,21,129,39,07,16,079,38*68
$GBGSV,6,3,22,26,48,182,,50,34,306,,45,57,190,51,36,59,071,50*6F
$GBGSV,6,4,22,21,59,303,51,28,05,323,,06,03,062,36,42,10,309,*66
$GBGSV,6,5,22,24,02,207,,16,00,062,26,02,05,108,34,56,02,096,*69
$GBGSV,6,6,22,58,07,038,,60,07,112,40*6D
$GPGGA,070002.00,,,,,0,00,,,M,,M,,*4D
$PTNL,GGK,070002.00,010125,4742.1603952,N,01618.0999608,E,1,36,0.7,EHT751.4011,M*4C
$GPGGQ,070002.00,010125,4742.1603952,N,01618.0999608,E,1,36,0.893,708.1946,M*35
$GPGFA,070002.00,3.800,5.863,0.400,0.354,9.647,0.715,,VVV*0C
$GPLLK,070002.00,010125,,M,,M,1,36,0.8,,M*03
$GNGMP,070002.00,,,,,DAAA,36,0.4,,,,*52
$GPGMP,070002.00,,,,,,10,,,,2.4,136*7B
$GLGMP,070002.00,,,,,,08,,,,,*72
$GAGMP,070002.00,,,,,,08,,,,,*7F
$GBGMP,070002.00,,,,,,10,,,,,*75
$PSSN,SNC,[0,284420000,2347]*4C
$GPZDA,070007.00,01,01,2025,,*63
$GPDTM,W84,,00.0000000,N,00.0000000,E,00.0000000,W84*5F
$PSSN,TFM,070007.00,,,,*6F
$GPRMC,070007.00,A,4742.1603945,N,01618.0999620,E,0.0,,010125,5.1,E,D*17
$GPGLL,4742.1603945,N,01618.0999620,E,070007.00,A,D*66
$GPGGA,070007.00,4742.1603945,N,01618.0999620,E,2,36,0.4,708.1960,M,43.2066,M,3.0,0136*49
$GNGNS,070007.00,4742.1603945,N,01618.0999620,E,DAAA,36,0.4,708.1960,43.2066,,*52
$GPGNS,070007.00,,,,,,10,,,,3.0,136*7B
$GLGNS,070007.00,,,,,,08,,,,,*77
$GAGNS,070007.00,,,,,,08,,,,,*7A
$GBGNS,070007.00,,,,,,10,,,,,*70
$GPLLQ,070007.00,010125,,M,,M,1,36,0.899,,M*1C
$GPVTG,,T,,M,0.00,N,0.00,K,D*26
$GPHDT,,T*1B
$GPTHS,,V*0E
$GPROT,,V*08
$PSSN,HRP,070007.00,010125,,,,,,,00,0,,*61
$PTNL,AVR,070007.00,,Yaw,,Tilt,,,,0,,00*37
$GPGSA,A,3,05,07,08,09,11,13,14,18,20,30,,,0.7,0.4,0.6*3B
$GPGSA,A,3,65,71,72,73,74,75,81,88,,,,,0.7,0.4,0.6*3B
$GPGSA,A,3,03,05,08,13,15,24,25,31,,,,,0.7,0.4,0.6*3C
$GPGSA,A,3,05,07,09,19,21,22,36,40,45,60,,,0.7,0.4,0.6*31
$GPGST,070007.00,1.593,0.406,0.360,9.385,0.405,0.362,0.717*5E
$GPGBS,070007.00,2.829,2.439,4.346,72,0.0001,4.547,6.051*53
$GPGRS,070007.00,1,-0.0,0.1,-0.5,0.7,-0.5,0.4,0.1,-0.3,-0.1,-0.1,,*4E
$GPGRS,070007.00,1,-3.5,-2.0,4.5,2.0,2.3,-3.0,-1.1,-1.2,,,,*65
$GPGRS,070007.00,1,-0.1,0.7,-0.7,0.0,0.6,0.4,0.2,-0.6,,,,*64
$GPGRS,070007.00,1,2.1,0.0,0.2,-2.4,-0.2,-0.3,-0.2,-0.6,0.3,-1.5,,*4B
$GPGSV,6,1,21,30,87,080,51,14,33,162,45,09,15,106,39,07,48,060,47*72
$GPGSV,6,2,21,13,36,289,45,20,55,230,48,05,50,292,47,15,03,295,36*72
$GPGSV,6,3,21,18,06,336,38,11,08,226,39,27,05,035,37,08,07,066,37*70
$GPGSV,6,4,21,36,35,170,44,58,13,245,36,40,24,133,37,34,31,208,43*7B
$GPGSV,6,5,21,49,34,195,44,57,07,112,36,41,07,108,35,61,03,257,38*7E
$GPGSV,6,6,21*7A
$GLGSV,3,1,09,72,70,094,51,81,13,326,44,73,24,036,44,71,21,122,45*6B
$GLGSV,3,2,09,75,47,189,51,65,43,319,48,74,67,064,46,82,04,010,39*6C
$GLGSV,3,3,09,88,05,276,42*5C
$GAGSV,3,1,12,03,67,303,48,31,12,034,38,08,16,287,39,13,19,313,39*63
$GAGSV,3,2,12,15,23,258,41,25,37,152,45,24,45,080,46,16,48,121,*65
$GAGSV,3,3,12,05,55,092,47,09,04,102,37,02,00,188,,34,04,212,37*69
$GBGSV,6,1,22,22,63,141,52,46,11,045,,19,11,133,41,09,17,060,38*67
$GBGSV,6,2,22,10,13,114,,40,15,071,41,05,21,129,39,07,16,079,38*68
$GBGSV,6,3,22,26,48,182,,50,34,306,,45,57,190,51,36,59,071,50*6F
$GBGSV,6,4,22,21,59,303,51,28,05,323,,06,03,062,36,42,10,309,*66
$GBGSV,6,5,22,24,02,207,,16,00,062,26,02,05,108,34,56,02,096,*69
$GBGSV,6,6,22,58,07,038,,60,07,112,40*6D
$GPGGA,070007.00,,,,,0,00,,,M,,M,,*48
$PTNL,GGK,070007.00,010125,4742.1603945,N,01618.0999620,E,1,36,0.7,EHT751.4025,M*42
$GPGGQ,070007.00,010125,4742.1603945,N,01618.0999620,E,1,36,0.899,708.1960,M*32
$GPGFA,070007.00,3.862,5.879,0.406,0.360,9.385,0.717,,VVV*0E
$GPLLK,070007.00,010125,,M,,M,1,36,0.8,,M*06
$GNGMP,070007.00,,,,,DAAA,36,0.4,,,,*57
$GPGMP,070007.00,,,,,,10,,,,3.0,136*7B
$GLGMP,070007.00,,,,,,08,,,,,*77
$GAGMP,070007.00,,,,,,08,,,,,*7A
$GBGMP,070007.00,,,,,,10,,,,,*70
$PSSN,SNC,[0,284425000,2347]*49
$GPZDA,070012.00,01,01,2025,,*67
$GPDTM,W84,,00.0000000,N,00.0000000,E,00.0000000,W84*5F
$PSSN,TFM,070012.00,,,,*6B
$GPRMC,070012.00,A,4742.1603948,N,01618.0999616,E,0.0,,010125,5.1,E,D*1B
$GPGLL,4742.1603948,N,01618.0999616,E,070012.00,A,D*6A
$GPGGA,070012.00,4742.1603948,N,01618.0999616,E,2,36,0.4,708.1924,M,43.2066,M,3.1,0136*44
$GNGNS,070012.00,4742.1603948,N,01618.0999616,E,DAAA,36,0.4,708.1924,43.2066,,*5E
$GPGNS,070012.00,,,,,,10,,,,3.1,136*7E
$GLGNS,070012.00,,,,,,08,,,,,*73
$GAGNS,070012.00,,,,,,08,,,,,*7E
$GBGNS,070012.00,,,,,,10,,,,,*74
$GPLLQ,070012.00,010125,,M,,M,1,36,0.899,,M*18
$GPVTG,,T,,M,0.00,N,0.00,K,D*26
$GPHDT,,T*1B
$GPTHS,,V*0E
$GPROT,,V*08
$PSSN,HRP,070012.00,010125,,,,,,,00,0,,*65
$PTNL,AVR,070012.00,,Yaw,,Tilt,,,,0,,00*33
$GPGSA,A,3,05,07,08,09,11,13,14,18,20,30,,,0.7,0.4,0.6*3B
$GPGSA,A,3,65,71,72,73,74,75,81,88,,,,,0.7,0.4,0.6*3B
$GPGSA,A,3,03,05,08,13,15,24,25,31,,,,,0.7,0.4,0.6*3C
$GPGSA,A,3,05,07,09,19,21,22,36,40,45,60,,,0.7,0.4,0.6*31
$GPGST,070012.00,1.775,0.409,0.366,7.506,0.408,0.367,0.712*57
$GPGBS,070012.00,2.796,2.445,4.267,72,0.0001,4.915,6.051*5E
$GPGRS,070012.00,1,-0.1,-0.2,-0.3,0.5,-0.3,0.4,0.2,-0.4,-0.0,0.1,,*4F
$GPGRS,070012.00,1,-3.8,-2.0,4.9,1.3,3.5,-3.0,-0.1,-2.9,,,,*6E
$GPGRS,070012.00,1,0.2,0.5,-0.0,0.3,0.5,0.4,-0.1,-0.4,,,,*67
$GPGRS,070012.00,1,2.8,0.3,0.1,-2.2,0.2,-0.2,-0.2,-0.6,0.3,-1.5,,*6C
$GPGSV,6,1,21,30,87,080,51,14,33,162,45,09,15,106,39,07,48,060,47*72
$GPGSV,6,2,21,13,36,289,44,20,55,230,48,05,50,292,47,15,03,295,37*72
$GPGSV,6,3,21,18,06,336,39,11,08,226,40,27,05,035,37,08,07,066,37*7F
$GPGSV,6,4,21,36,35,170,44,58,13,245,36,40,24,133,36,34,31,208,43*7A
$GPGSV,6,5,21,49,34,195,44,57,07,112,36,41,07,108,35,61,03,257,38*7E
$GPGSV,6,6,21*7A
$GLGSV,3,1,09,72,70,094,51,81,13,326,45,73,24,036,44,71,21,122,46*69
$GLGSV,3,2,09,75,47,189,51,65,43,319,48,74,67,064,46,82,04,010,39*6C
$GLGSV,3,3,09,88,05,276,42*5C
$GAGSV,3,1,12,03,67,303,48,31,12,034,38,08,16,287,40,13,19,313,39*6D
$GAGSV,3,2,12,15,23,258,41,25,37,152,45,24,45,080,46,16,48,121,*65
$GAGSV,3,3,12,05,55,092,47,09,04,102,37,02,00,188,,34,04,212,37*69
$GBGSV,6,1,22,22,63,141,52,46,11,045,,19,11,133,42,09,17,060,37*6B
$GBGSV,6,2,22,10,13,114,,40,15,071,41,05,21,129,39,07,16,079,38*68
$GBGSV,6,3,22,26,48,182,,50,34,306,,45,57,190,51,36,59,071,50*6F
$GBGSV,6,4,22,21,59,303,51,28,05,323,,06,03,062,36,42,10,309,*66
$GBGSV,6,5,22,24,02,207,,16,00,062,26,02,05,108,34,56,02,096,*69
$GBGSV,6,6,22,58,07,038,,60,07,112,40*6D
$GPGGA,070012.00,,,,,0,00,,,M,,M,,*4C
$PTNL,GGK,070012.00,010125,4742.1603948,N,01618.0999616,E,1,36,0.7,EHT751.3990,M*4E
$GPGGQ,070012.00,010125,4742.1603948,N,01618.0999616,E,1,36,0.899,708.1924,M*3E
$GPGFA,070012.00,3.890,5.841,0.409,0.366,7.506,0.712,,VVV*03
$GPLLK,070012.00,010125,,M,,M,1,36,0.8,,M*02
$GNGMP,070012.00,,,,,DAAA,36,0.4,,,,*53
$GPGMP,070012.00,,,,,,10,,,,3.1,136*7E
$GLGMP,070012.00,,,,,,08,,,,,*73
$GAGMP,070012.00,,,,,,08,,,,,*7E
$GBGMP,070012.00,,,,,,10,,,,,*74
$PSSN,SNC,[0,284430000,2347]*4D
$GPZDA,070017.00,01,01,2025,,*62
$GPDTM,W84,,00.0000000,N,00.0000000,E,00.0000000,W84*5F
$PSSN,TFM,070017.00,,,,*6E
$GPRMC,070017.00,A,4742.1603948,N,01618.0999615,E,0.0,,010125,5.1,E,D*1D
$GPGLL,4742.1603948,N,01618.0999615,E,070017.00,A,D*6C
$GPGGA,070017.00,4742.1603948,N,01618.0999615,E,2,36,0.4,708.1923,M,43.2066,M,1.4,0136*42
$GNGNS,070017.00,4742.1603948,N,01618.0999615,E,DAAA,36,0.4,708.1923,43.2066,,*5F
$GPGNS,070017.00,,,,,,10,,,,1.4,136*7C
$GLGNS,070017.00,,,,,,08,,,,,*76
$GAGNS,070017.00,,,,,,08,,,,,*7B
$GBGNS,070017.00,,,,,,10,,,,,*71
$GPLLQ,070017.00,010125,,M,,M,1,36,0.898,,M*1C
$GPVTG,,T,,M,0.00,N,0.01,K,D*27
$GPHDT,,T*1B
$GPTHS,,V*0E
$GPROT,,V*08
$PSSN,HRP,070017.00,010125,,,,,,,00,0,,*60
$PTNL,AVR,070017.00,,Yaw,,Tilt,,,,0,,00*36
$GPGSA,A,3,05,07,08,09,11,13,14,18,20,30,,,0.7,0.4,0.6*3B
$GPGSA,A,3,65,71,72,73,74,75,81,88,,,,,0.7,0.4,0.6*3B
$GPGSA,A,3,03,05,08,13,15,24,25,31,,,,,0.7,0.4,0.6*3C
$GPGSA,A,3,05,07,09,19,21,22,36,40,45,60,,,0.7,0.4,0.6*31
$GPGST,070017.00,1.774,0.405,0.364,6.707,0.405,0.364,0.715*56
$GPGBS,070017.00,2.768,2.426,4.223,72,0.0001,5.173,6.051*56
$GPGRS,070017.00,1,-0.0,0.0,0.2,-0.2,-0.6,0.3,0.3,0.2,-0.3,-0.2,,*67
$GPGRS,070017.00,1,-3.9,-1.5,5.2,2.1,3.4,-2.7,1.2,-2.0,,,,*46
$GPGRS,070017.00,1,0.2,0.7,-0.3,-0.1,0.4,0.1,0.2,-0.5,,,,*67
$GPGRS,070017.00,1,3.0,0.9,0.3,-1.9,0.3,0.3,-0.2,-0.9,0.3,-1.3,,*44
$GPGSV,6,1,21,30,87,079,51,14,34,162,45,09,15,106,39,07,48,060,48*7C
$GPGSV,6,2,21,13,36,289,45,20,55,230,48,05,50,292,47,15,03,295,37*73
$GPGSV,6,3,21,18,06,336,39,11,08,226,39,27,05,035,36,08,07,066,37*70
$GPGSV,6,4,21,36,35,170,44,58,13,245,36,40,24,133,36,34,31,208,43*7A
$GPGSV,6,5,21,49,34,195,44,57,07,112,36,41,07,108,35,61,03,257,38*7E
$GPGSV,6,6,21*7A
$GLGSV,3,1,09,72,70,095,50,81,13,326,44,73,24,036,44,71,21,122,47*69
$GLGSV,3,2,09,75,47,189,51,65,43,319,48,74,67,064,46,82,04,009,39*64
$GLGSV,3,3,09,88,05,276,41*5F
$GAGSV,3,1,12,03,67,303,48,31,12,034,38,08,16,287,40,13,19,313,39*6D
$GAGSV,3,2,12,15,23,258,41,25,37,152,46,24,45,080,46,16,48,121,*66
$GAGSV,3,3,12,05,55,092,47,09,04,102,37,02,00,188,,34,04,212,37*69
$GBGSV,6,1,22,22,63,141,52,46,11,045,,19,11,133,42,09,17,060,38*64
$GBGSV,6,2,22,10,13,114,,40,15,071,41,05,21,129,39,07,16,079,38*68
$GBGSV,6,3,22,26,49,182,,50,34,306,,45,57,190,51,36,59,071,50*6E
$GBGSV,6,4,22,21,59,303,51,28,05,323,,06,03,062,36,42,10,309,*66
$GBGSV,6,5,22,24,02,207,,16,00,062,27,02,05,108,34,56,02,096,*68
$GBGSV,6,6,22,58,07,038,,60,07,112,40*6D
$GPGGA,070017.00,,,,,0,00,,,M,,M,,*49
$PTNL,GGK,070017.00,010125,4742.1603948,N,01618.0999615,E,1,36,0.7,EHT751.3988,M*41
$GPGGQ,070017.00,010125,4742.1603948,N,01618.0999615,E,1,36,0.898,708.1923,M*3E
$GPGFA,070017.00,3.852,5.859,0.405,0.364,6.707,0.715,,VVV*0A
$GPLLK,070017.00,010125,,M,,M,1,36,0.8,,M*07
$GNGMP,070017.00,,,,,DAAA,36,0.4,,,,*56
$GPGMP,070017.00,,,,,,10,,,,1.4,136*7C
$GLGMP,070017.00,,,,,,08,,,,,*76
$GAGMP,070017.00,,,,,,08,,,,,*7B
$GBGMP,070017.00,,,,,,10,,,,,*71
$PSSN,SNC,[0,284435000,2347]*48
$GPZDA,070022.00,01,01,2025,,*64
$GPDTM,W84,,00.0000000,N,00.0000000,E,00.0000000,W84*5F
$PSSN,TFM,070022.00,,,,*68
$GPRMC,070022.00,A,4742.1603924,N,01618.0999611,E,0.0,,010125,5.1,E,D*15
$GPGLL,4742.1603924,N,01618.0999611,E,070022.00,A,D*64
$GPGGA,070022.00,4742.1603924,N,01618.0999611,E,2,36,0.4,708.1925,M,43.2066,M,2.4,0136*4F
$GNGNS,070022.00,4742.1603924,N,01618.0999611,E,DAAA,36,0.4,708.1925,43.2066,,*51
$GPGNS,070022.00,,,,,,10,,,,2.4,136*79
$GLGNS,070022.00,,,,,,08,,,,,*70
$GAGNS,070022.00,,,,,,08,,,,,*7D
$GBGNS,070022.00,,,,,,10,,,,,*77
$GPLLQ,070022.00,010125,,M,,M,1,36,0.897,,M*15
$GPVTG,,T,,M,0.00,N,0.01,K,D*27
$GPHDT,,T*1B
$GPTHS,,V*0E
$GPROT,,V*08
$PSSN,HRP,070022.00,010125,,,,,,,00,0,,*66
$PTNL,AVR,070022.00,,Yaw,,Tilt,,,,0,,00*30
$GPGSA,A,3,05,07,08,09,11,13,14,18,20,30,,,0.7,0.4,0.6*3B
$GPGSA,A,3,65,71,72,73,74,75,81,88,,,,,0.7,0.4,0.6*3B
$GPGSA,A,3,03,05,08,13,15,24,25,31,,,,,0.7,0.4,0.6*3C
$GPGSA,A,3,05,07,09,19,21,22,36,40,45,60,,,0.7,0.4,0.6*31
$GPGST,070022.00,1.837,0.401,0.356,8.990,0.400,0.358,0.719*55
$GPGBS,070022.00,2.803,2.449,4.254,13,0.0001,0.677,0.754*5E
$GPGRS,070022.00,1,-0.4,0.0,0.2,0.0,-0.3,0.7,0.2,0.3,-0.2,-0.0,,*48
$GPGRS,070022.00,1,-3.5,-1.7,5.1,2.8,3.8,-2.8,1.2,-2.4,,,,*43
$GPGRS,070022.00,1,0.0,1.0,-0.5,-0.3,0.5,0.4,0.1,-0.9,,,,*6A
$GPGRS,070022.00,1,2.7,1.5,0.9,-1.6,0.3,0.4,-0.0,-0.9,0.3,-1.3,,*49
$GPGSV,6,1,21,30,87,079,51,14,34,162,45,09,15,106,38,07,48,060,48*7D
$GPGSV,6,2,21,13,36,289,44,20,55,230,49,05,50,292,47,15,03,295,35*71
$GPGSV,6,3,21,18,06,336,38,11,08,226,39,27,05,035,36,08,07,066,38*7E
$GPGSV,6,4,21,36,35,170,44,58,13,245,36,40,24,133,36,34,31,208,43*7A
$GPGSV,6,5,21,49,34,195,44,57,07,112,36,41,07,108,35,61,03,257,38*7E
$GPGSV,6,6,21*7A
$GLGSV,3,1,09,72,70,095,50,81,13,326,45,73,24,036,45,71,21,122,46*68
$GLGSV,3,2,09,75,47,189,51,65,43,319,48,74,67,064,46,82,05,009,39*65
$GLGSV,3,3,09,88,05,276,42*5C
$GAGSV,3,1,12,03,67,303,48,31,12,034,37,08,16,287,40,13,19,313,39*62
$GAGSV,3,2,12,15,23,258,41,25,37,152,45,24,45,080,45,16,48,120,*67
$GAGSV,3,3,12,05,55,092,47,09,04,102,37,02,00,188,,34,04,212,36*68
$GBGSV,6,1,22,22,63,141,52,46,11,045,,19,11,133,42,09,17,060,37*6B
$GBGSV,6,2,22,10,13,114,,40,15,071,41,05,21,129,39,07,16,079,39*69
$GBGSV,6,3,22,26,49,182,,50,34,306,,45,57,190,51,36,59,070,50*6F
$GBGSV,6,4,22,21,59,303,51,28,05,323,,06,03,062,36,42,10,309,*66
$GBGSV,6,5,22,24,02,207,,16,00,062,27,02,05,108,34,56,02,096,*68
$GBGSV,6,6,22,58,07,038,,60,07,112,40*6D
$GPGGA,070022.00,,,,,0,00,,,M,,M,,*4F
$PTNL,GGK,070022.00,010125,4742.1603924,N,01618.0999611,E,1,36,0.7,EHT751.3991,M*41
$GPGGQ,070022.00,010125,4742.1603924,N,01618.0999611,E,1,36,0.897,708.1925,M*3F
$GPGFA,070022.00,3.808,5.898,0.401,0.356,8.990,0.719,,VVV*09
$GPLLK,070022.00,010125,,M,,M,1,36,0.8,,M*01
$GNGMP,070022.00,,,,,DAAA,36,0.4,,,,*50
$GPGMP,070022.00,,,,,,10,,,,2.4,136*79
$GLGMP,070022.00,,,,,,08,,,,,*70
$GAGMP,070022.00,,,,,,08,,,,,*7D
$GBGMP,070022.00,,,,,,10,,,,,*77
$PSSN,SNC,[0,284440000,2347]*4A
$GPZDA,070027.00,01,01,2025,,*61
$GPDTM,W84,,00.0000000,N,00.0000000,E,00.0000000,W84*5F
$PSSN,TFM,070027.00,,,,*6D
$GPRMC,070027.00,A,4742.1603922,N,01618.0999592,E,0.0,,010125,5.1,E,D*1E
$GPGLL,4742.1603922,N,01618.0999592,E,070027.00,A,D*6F
$GPGGA,070027.00,4742.1603922,N,01618.0999592,E,2,36,0.4,708.1940,M,43.2066,M,3.0,0136*42
$GNGNS,070027.00,4742.1603922,N,01618.0999592,E,DAAA,36,0.4,708.1940,43.2066,,*59
$GPGNS,070027.00,,,,,,10,,,,3.0,136*79
$GLGNS,070027.00,,,,,,08,,,,,*75
$GAGNS,070027.00,,,,,,08,,,,,*78
$GBGNS,070027.00,,,,,,10,,,,,*72
$GPLLQ,070027.00,010125,,M,,M,1,36,0.904,,M*1B
$GPVTG,,T,,M,0.01,N,0.01,K,D*26
$GPHDT,,T*1B
$GPTHS,,V*0E
$GPROT,,V*08
$PSSN,HRP,070027.00,010125,,,,,,,00,0,,*63
$PTNL,AVR,070027.00,,Yaw,,Tilt,,,,0,,00*35
$GPGSA,A,3,05,07,08,09,11,13,14,18,20,30,,,0.7,0.4,0.6*3B
$GPGSA,A,3,65,71,72,73,74,75,81,88,,,,,0.7,0.4,0.6*3B
$GPGSA,A,3,03,05,08,13,15,24,25,31,,,,,0.7,0.4,0.6*3C
$GPGSA,A,3,05,07,09,19,21,22,36,40,45,60,,,0.7,0.4,0.6*31
$GPGST,070027.00,1.851,0.407,0.362,8.704,0.406,0.363,0.721*57
$GPGBS,070027.00,2.843,2.441,4.366,72,0.0001,5.003,6.054*51
$GPGRS,070027.00,1,-0.3,-0.3,0.1,-0.3,-0.5,0.6,0.3,0.2,-0.3,0.1,,*63
$GPGRS,070027.00,1,-3.3,-2.0,5.0,3.0,3.3,-3.0,1.6,-2.4,,,,*4A
$GPGRS,070027.00,1,-0.2,0.9,-0.4,0.1,0.5,0.5,-0.2,-0.7,,,,*47
$GPGRS,070027.00,1,2.6,2.2,1.0,-1.7,0.3,0.3,-0.2,-1.0,0.1,-1.5,,*49
$GPGSV,6,1,21,30,87,079,51,14,34,162,45,09,15,106,38,07,48,060,47*72
$GPGSV,6,2,21,13,36,289,45,20,55,230,49,05,50,292,47,15,03,295,37*72
$GPGSV,6,3,21,18,06,336,38,11,08,226,39,27,05,035,37,08,07,066,37*70
$GPGSV,6,4,21,36,35,170,44,58,13,245,36,40,24,133,37,34,31,208,44*7C
$GPGSV,6,5,21,49,34,195,44,57,07,112,36,41,07,108,35,61,03,257,38*7E
$GPGSV,6,6,21*7A
$GLGSV,3,1,09,72,70,095,50,81,13,326,46,73,24,036,46,71,21,122,46*68
$GLGSV,3,2,09,75,47,189,52,65,43,319,48,74,67,064,46,82,05,009,40*68
$GLGSV,3,3,09,88,05,276,42*5C
$GAGSV,3,1,12,03,67,303,48,31,12,034,37,08,16,287,40,13,19,313,39*62
$GAGSV,3,2,12,15,23,258,41,25,37,152,45,24,45,080,46,16,48,120,*64
$GAGSV,3,3,12,05,55,092,47,09,04,102,37,02,00,188,,34,04,212,36*68
$GBGSV,6,1,22,22,63,141,52,46,11,045,,19,11,133,42,09,17,060,37*6B
$GBGSV,6,2,22,10,13,114,,40,15,071,41,05,21,129,39,07,16,079,39*69
$GBGSV,6,3,22,26,49,182,,50,34,306,,45,57,190,51,36,59,070,50*6F
$GBGSV,6,4,22,21,59,303,51,28,05,323,,06,03,062,36,42,10,309,*66
$GBGSV,6,5,22,24,02,207,,16,00,062,28,02,05,108,34,56,02,096,*67
$GBGSV,6,6,22,58,07,038,,60,07,112,40*6D
$GPGGA,070027.00,,,,,0,00,,,M,,M,,*4A
$PTNL,GGK,070027.00,010125,4742.1603922,N,01618.0999592,E,1,36,0.7,EHT751.4006,M*4A
$GPGGQ,070027.00,010125,4742.1603922,N,01618.0999592,E,1,36,0.904,708.1940,M*3C
$GPGFA,070027.00,3.869,5.913,0.407,0.362,8.704,0.721,,VVV*00
$GPLLK,070027.00,010125,,M,,M,1,36,0.8,,M*04
$GNGMP,070027.00,,,,,DAAA,36,0.4,,,,*55
$GPGMP,070027.00,,,,,,10,,,,3.0,136*79
$GLGMP,070027.00,,,,,,08,,,,,*75
$GAGMP,070027.00,,,,,,08,,,,,*78
$GBGMP,070027.00,,,,,,10,,,,,*72
$PSSN,SNC,[0,284445000,2347]*4F
$GPZDA,070032.00,01,01,2025,,*65
$GPDTM,W84,,00.0000000,N,00.0000000,E,00.0000000,W84*5F
$PSSN,TFM,070032.00,,,,*69
$GPRMC,070032.00,A,4742.1603898,N,01618.0999617,E,0.0,,010125,5.1,E,D*14
$GPGLL,4742.1603898,N,01618.0999617,E,070032.00,A,D*65
$GPGGA,070032.00,4742.1603898,N,01618.0999617,E,2,36,0.4,708.1945,M,43.2066,M,3.1,0136*4C
$GNGNS,070032.00,4742.1603898,N,01618.0999617,E,DAAA,36,0.4,708.1945,43.2066,,*56
$GPGNS,070032.00,,,,,,10,,,,3.1,136*7C
$GLGNS,070032.00,,,,,,08,,,,,*71
$GAGNS,070032.00,,,,,,08,,,,,*7C
$GBGNS,070032.00,,,,,,10,,,,,*76
$GPLLQ,070032.00,010125,,M,,M,1,36,0.904,,M*1F
$GPVTG,,T,,M,0.00,N,0.01,K,D*27
$GPHDT,,T*1B
$GPTHS,,V*0E
$GPROT,,V*08
$PSSN,HRP,070032.00,010125,,,,,,,00,0,,*67
$PTNL,AVR,070032.00,,Yaw,,Tilt,,,,0,,00*31
$GPGSA,A,3,05,07,08,09,11,13,14,18,20,30,,,0.7,0.4,0.6*3B
$GPGSA,A,3,65,71,72,73,74,75,81,88,,,,,0.7,0.4,0.6*3B
$GPGSA,A,3,03,05,08,13,15,24,25,31,,,,,0.7,0.4,0.6*3C
$GPGSA,A,3,05,07,09,19,21,22,36,40,45,60,,,0.7,0.4,0.6*31
$GPGST,070032.00,1.787,0.410,0.367,6.925,0.409,0.368,0.717*56
$GPGBS,070032.00,2.811,2.448,4.290,13,0.0001,0.754,0.785*59
$GPGRS,070032.00,1,-0.2,-0.3,-0.1,-0.5,-0.5,0.8,0.1,0.4,-0.3,0.2,,*44
$GPGRS,070032.00,1,-3.9,-1.7,4.9,2.5,3.4,-2.7,0.9,-2.4,,,,*43
$GPGRS,070032.00,1,-0.1,0.8,-0.8,-0.1,0.6,0.2,-0.1,-0.7,,,,*67
$GPGRS,070032.00,1,2.4,1.8,0.4,-1.6,0.2,-0.1,-0.3,-1.3,0.2,-1.4,,*6C
$GPGSV,6,1,21,30,87,078,51,14,34,162,46,09,15,106,37,07,48,060,47*7F
$GPGSV,6,2,21,13,36,289,45,20,55,230,48,05,50,292,47,15,03,295,36*72
$GPGSV,6,3,21,18,06,336,37,11,08,226,39,27,05,035,36,08,07,066,37*7E
$GPGSV,6,4,21,36,35,170,44,58,13,245,36,40,24,133,36,34,31,208,43*7A
$GPGSV,6,5,21,49,34,195,44,57,07,112,36,41,07,108,35,61,03,257,38*7E
$GPGSV,6,6,21*7A
$GLGSV,3,1,09,72,70,095,50,73,24,036,45,81,13,326,46,71,21,122,46*6B
$GLGSV,3,2,09,75,47,189,51,65,43,319,48,74,67,064,46,82,05,009,40*6B
$GLGSV,3,3,09,88,05,276,41*5F
$GAGSV,3,1,12,03,67,303,48,31,12,034,37,08,16,287,40,13,19,313,40*6C
$GAGSV,3,2,12,15,23,258,41,25,37,152,45,24,45,080,46,16,48,120,*64
$GAGSV,3,3,12,05,55,092,47,09,04,102,37,02,00,188,,34,04,212,36*68
$GBGSV,6,1,22,22,63,141,52,46,11,045,,19,11,133,41,09,17,060,37*68
$GBGSV,6,2,22,10,13,114,,40,15,071,41,05,21,129,39,07,16,079,39*69
$GBGSV,6,3,22,26,49,182,,50,34,306,,45,57,190,51,36,59,070,50*6F
$GBGSV,6,4,22,21,59,303,51,28,05,323,,06,03,062,36,42,10,309,*66
$GBGSV,6,5,22,24,02,207,,16,00,062,29,02,05,108,34,56,02,096,*66
$GBGSV,6,6,22,58,07,038,,60,07,112,40*6D
$GPGGA,070032.00,,,,,0,00,,,M,,M,,*4E
$PTNL,GGK,070032.00,010125,4742.1603898,N,01618.0999617,E,1,36,0.7,EHT751.4010,M*47
$GPGGQ,070032.00,010125,4742.1603898,N,01618.0999617,E,1,36,0.904,708.1945,M*33
$GPGFA,070032.00,3.898,5.876,0.410,0.367,6.925,0.717,,VVV*0D
$GPLLK,070032.00,010125,,M,,M,1,36,0.8,,M*00
$GNGMP,070032.00,,,,,DAAA,36,0.4,,,,*51
$GPGMP,070032.00,,,,,,10,,,,3.1,136*7C
$GLGMP,070032.00,,,,,,08,,,,,*71
$GAGMP,070032.00,,,,,,08,,,,,*7C
$GBGMP,070032.00,,,,,,10,,,,,*76
$PSSN,SNC,[0,284450000,2347]*4B
$GPZDA,070037.00,01,01,2025,,*60
$GPDTM,W84,,00.0000000,N,00.0000000,E,00.0000000,W84*5F
$PSSN,TFM,070037.00,,,,*6C
$GPRMC,070037.00,A,4742.1603886,N,01618.0999606,E,0.0,,010125,5.1,E,D*1E
$GPGLL,4742.1603886,N,01618.0999606,E,070037.00,A,D*6F
$GPGGA,070037.00,4742.1603886,N,01618.0999606,E,2,36,0.4,708.1931,M,43.2066,M,1.4,0136*42
$GNGNS,070037.00,4742.1603886,N,01618.0999606,E,DAAA,36,0.4,708.1931,43.2066,,*5F
$GPGNS,070037.00,,,,,,10,,,,1.4,136*7E
$GLGNS,070037.00,,,,,,08,,,,,*74
$GAGNS,070037.00,,,,,,08,,,,,*79
$GBGNS,070037.00,,,,,,10,,,,,*73
$GPLLQ,070037.00,010125,,M,,M,1,36,0.900,,M*1E
$GPVTG,,T,,M,0.00,N,0.01,K,D*27
$GPHDT,,T*1B
$GPTHS,,V*0E
$GPROT,,V*08
$PSSN,HRP,070037.00,010125,,,,,,,00,0,,*62
$PTNL,AVR,070037.00,,Yaw,,Tilt,,,,0,,00*34
$GPGSA,A,3,05,07,08,09,11,13,14,18,20,30,,,0.7,0.4,0.6*3B
$GPGSA,A,3,65,71,72,73,74,75,81,88,,,,,0.7,0.4,0.6*3B
$GPGSA,A,3,03,05,08,13,15,24,25,31,,,,,0.7,0.4,0.6*3C
$GPGSA,A,3,05,07,09,19,21,22,36,40,45,60,,,0.7,0.4,0.6*31
$GPGST,070037.00,1.794,0.405,0.364,6.390,0.404,0.364,0.717*53
$GPGBS,070037.00,2.767,2.422,4.228,72,0.0001,5.306,6.054*51
$GPGRS,070037.00,1,-0.2,-0.2,0.2,-0.3,-0.7,0.6,0.2,0.6,-0.5,0.2,,*63
$GPGRS,070037.00,1,-3.5,-2.3,5.3,1.3,3.4,-2.8,-0.1,-2.7,,,,*6A
$GPGRS,070037.00,1,-0.1,1.1,-0.6,-0.1,0.7,0.3,0.1,-0.5,,,,*4B
$GPGRS,070037.00,1,2.4,2.0,-0.1,-1.6,0.2,0.1,-0.1,-1.1,0.4,-1.4,,*61
$GPGSV,6,1,21,30,87,078,51,14,34,162,45,09,15,106,38,07,48,060,47*73
$GPGSV,6,2,21,13,36,289,45,20,55,230,48,05,50,292,48,15,03,295,37*7C
$GPGSV,6,3,21,18,06,336,38,11,08,226,40,27,05,035,36,08,07,066,37*7F
$GPGSV,6,4,21,36,35,170,44,58,13,245,36,40,24,133,36,34,31,208,43*7A
$GPGSV,6,5,21,49,34,195,44,57,07,112,36,41,07,108,35,61,03,257,38*7E
$GPGSV,6,6,21*7A
$GLGSV,3,1,09,72,70,095,51,73,24,036,44,81,13,326,45,71,21,122,46*68
$GLGSV,3,2,09,75,48,189,51,65,43,319,48,74,67,064,47,82,05,009,40*65
$GLGSV,3,3,09,88,05,276,41*5F
$GAGSV,3,1,12,03,67,303,48,31,12,034,37,08,16,287,40,13,19,313,39*62
$GAGSV,3,2,12,15,23,258,41,25,37,152,45,24,45,080,45,16,48,120,*67
$GAGSV,3,3,12,05,55,092,47,09,04,102,37,02,00,188,,34,04,212,36*68
$GBGSV,6,1,22,22,63,141,52,46,11,045,,19,11,133,41,09,17,060,37*68
$GBGSV,6,2,22,10,13,114,,40,15,071,41,05,21,129,39,07,16,079,39*69
$GBGSV,6,3,22,26,49,182,,50,34,306,,45,57,190,51,36,59,070,50*6F
$GBGSV,6,4,22,21,59,303,51,28,05,322,,06,03,062,36,42,10,309,*67
$GBGSV,6,5,22,24,02,207,,16,00,062,28,02,05,108,34,56,02,096,*67
$GBGSV,6,6,22,58,06,038,,60,07,112,40*6C
$GPGGA,070037.00,,,,,0,00,,,M,,M,,*4B
$PTNL,GGK,070037.00,010125,4742.1603886,N,01618.0999606,E,1,36,0.7,EHT751.3997,M*4C
$GPGGQ,070037.00,010125,4742.1603886,N,01618.0999606,E,1,36,0.900,708.1931,M*3E
$GPGFA,070037.00,3.850,5.876,0.405,0.364,6.390,0.717,,VVV*0F
$GPLLK,070037.00,010125,,M,,M,1,36,0.8,,M*05
$GNGMP,070037.00,,,,,DAAA,36,0.4,,,,*54
$GPGMP,070037.00,,,,,,10,,,,1.4,136*7E
$GLGMP,070037.00,,,,,,08,,,,,*74
$GAGMP,070037.00,,,,,,08,,,,,*79
$GBGMP,070037.00,,,,,,10,,,,,*73
$PSSN,SNC,[0,284455000,2347]*4E
$GPZDA,070042.00,01,01,2025,,*62
$GPDTM,W84,,00.0000000,N,00.0000000,E,00.0000000,W84*5F
$PSSN,TFM,070042.00,,,,*6E
$GPRMC,070042.00,A,4742.1603864,N,01618.0999619,E,0.0,,010125,5.1,E,D*1E
$GPGLL,4742.1603864,N,01618.0999619,E,070042.00,A,D*6F
$GPGGA,070042.00,4742.1603864,N,01618.0999619,E,2,36,0.4,708.1969,M,43.2066,M,2.4,0136*4C
$GNGNS,070042.00,4742.1603864,N,01618.0999619,E,DAAA,36,0.4,708.1969,43.2066,,*52
$GPGNS,070042.00,,,,,,10,,,,2.4,136*7F
$GLGNS,070042.00,,,,,,08,,,,,*76
$GAGNS,070042.00,,,,,,08,,,,,*7B
$GBGNS,070042.00,,,,,,10,,,,,*71
$GPLLQ,070042.00,010125,,M,,M,1,36,0.897,,M*13
$GPVTG,,T,,M,0.00,N,0.00,K,D*26
$GPHDT,,T*1B
$GPTHS,,V*0E
$GPROT,,V*08
$PSSN,HRP,070042.00,010125,,,,,,,00,0,,*60
$PTNL,AVR,070042.00,,Yaw,,Tilt,,,,0,,00*36
$GPGSA,A,3,05,07,08,09,11,13,14,18,20,30,,,0.7,0.4,0.6*3B
$GPGSA,A,3,65,71,72,73,74,75,81,88,,,,,0.7,0.4,0.6*3B
$GPGSA,A,3,03,05,08,13,15,24,25,31,,,,,0.7,0.4,0.6*3C
$GPGSA,A,3,05,07,09,19,21,22,36,40,45,60,,,0.7,0.4,0.6*31
$GPGST,070042.00,1.860,0.400,0.356,8.674,0.399,0.357,0.719*5D
$GPGBS,070042.00,2.800,2.444,4.255,72,0.0001,5.634,6.054*53
$GPGRS,070042.00,1,-0.0,-0.2,0.1,0.2,-0.4,0.7,-0.0,0.6,-0.0,-0.2,,*49
$GPGRS,070042.00,1,-3.7,-2.4,5.6,1.9,3.5,-3.1,-0.3,-2.3,,,,*6D
$GPGRS,070042.00,1,-0.4,1.1,-0.4,-0.5,0.5,0.1,0.2,-0.3,,,,*4F
$GPGRS,070042.00,1,2.4,1.8,0.3,-1.6,0.2,0.5,-0.3,-1.1,0.6,-1.4,,*43
$GPGSV,6,1,21,30,87,078,50,14,34,162,45,09,15,106,39,07,48,060,47*73
$GPGSV,6,2,21,13,36,289,45,20,55,230,49,05,50,292,48,15,03,295,37*7D
$GPGSV,6,3,21,18,06,336,38,11,08,226,40,27,05,035,36,08,07,066,37*7F
$GPGSV,6,4,21,36,35,170,45,58,13,245,36,40,24,133,37,34,31,208,43*7A
$GPGSV,6,5,21,49,34,195,44,57,07,112,36,41,07,108,35,61,03,257,38*7E
$GPGSV,6,6,21*7A
$GLGSV,3,1,09,72,70,095,50,73,24,036,45,81,13,326,45,71,21,122,45*6B
$GLGSV,3,2,09,75,48,189,51,65,43,319,48,74,67,064,46,82,05,009,40*64
$GLGSV,3,3,09,88,05,276,42*5C
$GAGSV,3,1,12,03,67,303,48,31,12,034,37,08,16,287,40,13,19,313,40*6C
$GAGSV,3,2,12,15,23,258,41,25,37,152,45,24,45,080,46,16,48,120,*64
$GAGSV,3,3,12,05,55,092,47,09,04,102,37,02,01,188,,34,04,212,35*6A
$GBGSV,6,1,22,22,63,141,52,46,11,045,,19,11,133,41,09,17,060,37*68
$GBGSV,6,2,22,10,13,114,,40,15,071,41,05,21,129,39,07,16,079,39*69
$GBGSV,6,3,22,26,49,182,,50,34,306,,45,57,190,51,36,59,070,50*6F
$GBGSV,6,4,22,21,59,303,51,28,05,322,,06,03,062,36,42,10,309,*67
$GBGSV,6,5,22,24,02,207,,16,00,062,28,02,05,108,34,56,02,096,*67
$GBGSV,6,6,22,58,06,038,,60,07,112,40*6C
$GPGGA,070042.00,,,,,0,00,,,M,,M,,*49
$PTNL,GGK,070042.00,010125,4742.1603864,N,01618.0999619,E,1,36,0.7,EHT751.4035,M*4A
$GPGGQ,070042.00,010125,4742.1603864,N,01618.0999619,E,1,36,0.897,708.1969,M*3C
$GPGFA,070042.00,3.804,5.899,0.400,0.356,8.674,0.719,,VVV*06
$GPLLK,070042.00,010125,,M,,M,1,36,0.8,,M*07
$GNGMP,070042.00,,,,,DAAA,36,0.4,,,,*56
$GPGMP,070042.00,,,,,,10,,,,2.4,136*7F
$GLGMP,070042.00,,,,,,08,,,,,*76
$GAGMP,070042.00,,,,,,08,,,,,*7B
$GBGMP,070042.00,,,,,,10,,,,,*71
$PSSN,SNC,[0,284460000,2347]*48
$GPZDA,070047.00,01,01,2025,,*67
$GPDTM,W84,,00.0000000,N,00.0000000,E,00.0000000,W84*5F
$PSSN,TFM,070047.00,,,,*6B
$GPRMC,070047.00,A,4742.1603843,N,01618.0999643,E,0.0,,010125,5.1,E,D*11
$GPGLL,4742.1603843,N,01618.0999643,E,070047.00,A,D*60
$GPGGA,070047.00,4742.1603843,N,01618.0999643,E,2,36,0.4,708.1970,M,43.2066,M,3.0,0136*4E
$GNGNS,070047.00,4742.1603843,N,01618.0999643,E,DAAA,36,0.4,708.1970,43.2066,,*55
$GPGNS,070047.00,,,,,,10,,,,3.0,136*7F
$GLGNS,070047.00,,,,,,08,,,,,*73
$GAGNS,070047.00,,,,,,08,,,,,*7E
$GBGNS,070047.00,,,,,,10,,,,,*74
$GPLLQ,070047.00,010125,,M,,M,1,36,0.904,,M*1D
$GPVTG,,T,,M,0.00,N,0.01,K,D*27
$GPHDT,,T*1B
$GPTHS,,V*0E
$GPROT,,V*08
$PSSN,HRP,070047.00,010125,,,,,,,00,0,,*65
$PTNL,AVR,070047.00,,Yaw,,Tilt,,,,0,,00*33
$GPGSA,A,3,05,07,08,09,11,13,14,18,20,30,,,0.7,0.4,0.6*3B
$GPGSA,A,3,65,71,72,73,74,75,81,88,,,,,0.7,0.4,0.6*3B
$GPGSA,A,3,03,05,08,13,15,24,25,31,,,,,0.7,0.4,0.6*3C
$GPGSA,A,3,05,07,09,19,21,22,36,40,45,60,,,0.7,0.4,0.6*31
$GPGST,070047.00,1.742,0.407,0.362,8.431,0.406,0.363,0.721*59
$GPGBS,070047.00,2.841,2.436,4.367,72,0.0001,5.078,6.054*58
$GPGRS,070047.00,1,-0.3,-0.3,-0.2,0.5,-0.7,0.5,0.2,0.4,-0.1,0.1,,*64
$GPGRS,070047.00,1,-3.5,-1.8,5.1,1.9,3.6,-3.3,0.8,-0.8,,,,*4C
$GPGRS,070047.00,1,-0.5,0.8,-1.0,-0.3,0.5,0.2,0.0,-0.4,,,,*46
$GPGRS,070047.00,1,2.3,1.8,-0.1,-1.6,0.1,0.3,-0.3,-1.2,0.5,-1.2,,*6D
$GPGSV,6,1,21,30,87,077,51,14,34,162,45,09,15,106,39,07,48,060,47*7D
$GPGSV,6,2,21,13,36,289,45,20,55,230,49,05,50,292,48,15,03,295,38*72
$GPGSV,6,3,21,18,06,336,39,11,08,226,39,27,05,035,35,08,07,066,37*73
$GPGSV,6,4,21,36,35,170,44,58,13,245,36,40,24,133,37,34,31,208,43*7B
$GPGSV,6,5,21,49,34,195,44,57,07,112,36,41,07,108,35,61,03,257,38*7E
$GPGSV,6,6,21*7A
$GLGSV,3,1,09,72,70,095,50,73,24,036,45,81,13,326,46,71,21,122,46*6B
$GLGSV,3,2,09,75,48,189,51,65,43,319,48,74,67,064,47,82,05,009,40*65
$GLGSV,3,3,09,88,05,276,42*5C
$GAGSV,3,1,12,03,67,303,48,31,12,034,37,08,16,287,40,13,19,312,40*6D
$GAGSV,3,2,12,15,23,258,41,25,37,152,45,24,45,080,46,16,48,120,*64
$GAGSV,3,3,12,05,55,092,47,09,04,102,37,02,01,188,,34,03,212,36*6E
$GBGSV,6,1,22,22,63,141,52,46,11,045,,19,11,133,42,09,17,060,37*6B
$GBGSV,6,2,22,10,13,114,,40,15,071,41,05,21,129,39,07,16,079,39*69
$GBGSV,6,3,22,26,49,182,,50,34,306,,45,58,190,51,36,59,070,50*60
$GBGSV,6,4,22,21,59,303,51,28,05,322,,06,03,062,36,42,10,309,*67
$GBGSV,6,5,22,24,02,207,,16,00,062,27,02,05,108,34,56,02,096,*68
$GBGSV,6,6,22,58,06,038,,60,07,112,40*6C
$GPGGA,070047.00,,,,,0,00,,,M,,M,,*4C
$PTNL,GGK,070047.00,010125,4742.1603843,N,01618.0999643,E,1,36,0.7,EHT751.4036,M*46
$GPGGQ,070047.00,010125,4742.1603843,N,01618.0999643,E,1,36,0.904,708.1970,M*30
$GPGFA,070047.00,3.866,5.915,0.407,0.362,8.431,0.721,,VVV*0A
$GPLLK,070047.00,010125,,M,,M,1,36,0.8,,M*02
$GNGMP,070047.00,,,,,DAAA,36,0.4,,,,*53
$GPGMP,070047.00,,,,,,10,,,,3.0,136*7F
$GLGMP,070047.00,,,,,,08,,,,,*73
$GAGMP,070047.00,,,,,,08,,,,,*7E
$GBGMP,070047.00,,,,,,10,,,,,*74
$PSSN,SNC,[0,284465000,2347]*4D
$GPZDA,070052.00,01,01,2025,,*63
$GPDTM,W84,,00.0000000,N,00.0000000,E,00.0000000,W84*5F
$PSSN,TFM,070052.00,,,,*6F
$GPRMC,070052.00,A,4742.1603842,N,01618.0999628,E,0.0,,010125,5.1,E,D*19
$GPGLL,4742.1603842,N,01618.0999628,E,070052.00,A,D*68
$GPGGA,070052.00,4742.1603842,N,01618.0999628,E,2,36,0.4,708.1941,M,43.2066,M,3.1,0136*45
$GNGNS,070052.00,4742.1603842,N,01618.0999628,E,DAAA,36,0.4,708.1941,43.2066,,*5F
$GPGNS,070052.00,,,,,,10,,,,3.1,136*7A
$GLGNS,070052.00,,,,,,08,,,,,*77
$GAGNS,070052.00,,,,,,08,,,,,*7A
$GBGNS,070052.00,,,,,,10,,,,,*70
$GPLLQ,070052.00,010125,,M,,M,1,36,0.903,,M*1E
$GPVTG,,T,,M,0.00,N,0.00,K,D*26
$GPHDT,,T*1B
$GPTHS,,V*0E
$GPROT,,V*08
$PSSN,HRP,070052.00,010125,,,,,,,00,0,,*61
$PTNL,AVR,070052.00,,Yaw,,Tilt,,,,0,,00*37
$GPGSA,A,3,05,07,08,09,11,13,14,18,20,30,,,0.7,0.4,0.6*3B
$GPGSA,A,3,65,71,72,73,74,75,81,88,,,,,0.7,0.4,0.6*3B
$GPGSA,A,3,03,05,08,13,15,24,25,31,,,,,0.7,0.4,0.6*3C
$GPGSA,A,3,05,07,09,19,21,22,36,40,45,60,,,0.7,0.4,0.6*31
$GPGST,070052.00,1.646,0.410,0.367,6.522,0.409,0.368,0.717*57
$GPGBS,070052.00,2.808,2.443,4.292,72,0.0001,5.151,6.054*52
$GPGRS,070052.00,1,-0.5,-0.0,-0.3,0.0,-0.7,-0.3,0.6,0.8,-0.1,0.3,,*40
$GPGRS,070052.00,1,-3.4,-1.6,5.2,1.4,3.5,-2.7,0.3,-0.3,,,,*4F
$GPGRS,070052.00,1,-0.2,0.8,-0.8,-0.0,0.2,0.4,-0.0,-0.3,,,,*64
$GPGRS,070052.00,1,2.3,1.7,0.1,-1.5,0.2,0.2,-0.2,-0.8,0.1,-1.2,,*44
$GPGSV,6,1,21,30,86,077,51,14,34,162,45,09,15,106,39,07,48,060,47*7C
$GPGSV,6,2,21,13,36,289,45,20,55,230,49,05,50,292,48,15,03,295,37*7D
$GPGSV,6,3,21,18,06,336,39,11,08,226,40,27,05,035,35,08,07,066,37*7D
$GPGSV,6,4,21,36,35,170,44,58,13,245,36,40,24,133,37,34,31,208,43*7B
$GPGSV,6,5,21,49,34,195,44,57,07,112,36,41,07,108,35,61,03,257,38*7E
$GPGSV,6,6,21*7A
$GLGSV,3,1,09,72,70,095,50,73,24,036,44,81,13,326,46,71,21,122,46*6A
$GLGSV,3,2,09,75,48,189,51,65,43,319,48,74,67,063,46,82,05,009,39*6D
$GLGSV,3,3,09,88,05,276,43*5D
$GAGSV,3,1,12,03,67,303,48,31,12,034,38,08,16,287,40,13,19,312,40*62
$GAGSV,3,2,12,15,22,258,41,25,37,152,45,24,45,080,46,16,48,120,*65
$GAGSV,3,3,12,05,55,092,47,09,04,102,37,02,01,188,,34,03,212,36*6E
$GBGSV,6,1,22,22,63,141,52,46,11,045,,19,11,133,42,09,17,060,37*6B
$GBGSV,6,2,22,10,14,114,,40,15,071,41,05,21,129,39,07,16,079,39*6E
$GBGSV,6,3,22,26,49,182,,50,34,306,,45,58,190,51,36,59,070,50*60
$GBGSV,6,4,22,21,59,303,51,28,05,322,,06,03,062,36,42,10,309,*67
$GBGSV,6,5,22,24,02,207,,16,00,062,28,02,05,108,34,56,02,096,*67
$GBGSV,6,6,22,58,06,038,,60,07,112,40*6C
$GPGGA,070052.00,,,,,0,00,,,M,,M,,*48
$PTNL,GGK,070052.00,010125,4742.1603842,N,01618.0999628,E,1,36,0.7,EHT751.4007,M*4C
$GPGGQ,070052.00,010125,4742.1603842,N,01618.0999628,E,1,36,0.903,708.1941,M*3D
$GPGFA,070052.00,3.894,5.877,0.410,0.367,6.522,0.717,,VVV*0D
$GPLLK,070052.00,010125,,M,,M,1,36,0.8,,M*06
$GNGMP,070052.00,,,,,DAAA,36,0.4,,,,*57
$GPGMP,070052.00,,,,,,10,,,,3.1,136*7A
$GLGMP,070052.00,,,,,,08,,,,,*77
$GAGMP,070052.00,,,,,,08,,,,,*7A
$GBGMP,070052.00,,,,,,10,,,,,*70
$PSSN,SNC,[0,284470000,2347]*49
$GPZDA,070057.00,01,01,2025,,*66
$GPDTM,W84,,00.0000000,N,00.0000000,E,00.0000000,W84*5F
$PSSN,TFM,070057.00,,,,*6A
$GPRMC,070057.00,A,4742.1603855,N,01618.0999554,E,0.0,,010125,5.1,E,D*12
$GPGLL,4742.1603855,N,01618.0999554,E,070057.00,A,D*63
$GPGGA,070057.00,4742.1603855,N,01618.0999554,E,2,36,0.4,708.1957,M,43.2066,M,1.4,0136*4E
$GNGNS,070057.00,4742.1603855,N,01618.0999554,E,DAAA,36,0.4,708.1957,43.2066,,*53
$GPGNS,070057.00,,,,,,10,,,,1.4,136*78
$GLGNS,070057.00,,,,,,08,,,,,*72
$GAGNS,070057.00,,,,,,08,,,,,*7F
$GBGNS,070057.00,,,,,,10,,,,,*75
$GPLLQ,070057.00,010125,,M,,M,1,36,0.900,,M*18
$GPVTG,,T,,M,0.00,N,0.00,K,D*26
$GPHDT,,T*1B
$GPTHS,,V*0E
$GPROT,,V*08
$PSSN,HRP,070057.00,010125,,,,,,,00,0,,*64
$PTNL,AVR,070057.00,,Yaw,,Tilt,,,,0,,00*32
$GPGSA,A,3,05,07,08,09,11,13,14,18,20,30,,,0.7,0.4,0.6*3B
$GPGSA,A,3,65,71,72,73,74,75,81,88,,,,,0.7,0.4,0.6*3B
$GPGSA,A,3,03,05,08,13,15,24,25,31,,,,,0.7,0.4,0.6*3C
$GPGSA,A,3,05,07,09,19,21,22,36,40,45,60,,,0.7,0.4,0.6*31
$GPGST,070057.00,1.733,0.404,0.363,6.028,0.404,0.364,0.717*5E
$GPGBS,070057.00,2.765,2.418,4.230,72,0.0001,5.290,6.054*5B
$GPGRS,070057.00,1,-0.3,0.1,0.6,0.2,-0.5,0.3,0.4,0.1,-0.3,0.0,,*60
$GPGRS,070057.00,1,-3.7,-2.4,5.3,1.2,3.3,-3.0,0.1,-1.8,,,,*47
$GPGRS,070057.00,1,0.0,0.7,-0.3,-0.3,0.6,0.3,-0.1,-0.7,,,,*4F
$GPGRS,070057.00,1,2.4,1.5,-0.7,-1.4,0.2,0.1,-0.0,-1.0,0.1,-1.1,,*65
$GPGSV,6,1,21,30,86,077,51,14,34,162,45,09,15,106,39,07,48,060,47*7C
$GPGSV,6,2,21,13,36,289,45,20,55,230,48,05,50,292,48,15,03,295,37*7C
$GPGSV,6,3,21,18,06,336,38,11,08,226,40,27,05,035,36,08,07,066,37*7F
$GPGSV,6,4,21,36,35,170,45,58,13,245,36,40,24,133,37,34,31,208,43*7A
$GPGSV,6,5,21,49,34,195,44,57,07,112,36,41,07,108,35,61,03,257,37*71
$GPGSV,6,6,21*7A
$GLGSV,3,1,09,72,70,095,50,73,24,036,44,81,13,325,45,71,21,122,46*6A
$GLGSV,3,2,09,75,48,189,52,65,43,319,48,74,67,063,47,82,05,009,40*61
$GLGSV,3,3,09,88,05,276,43*5D
$GAGSV,3,1,12,03,67,303,48,31,12,034,38,08,16,287,40,13,19,312,40*62
$GAGSV,3,2,12,15,22,258,41,25,37,152,45,24,45,080,46,16,48,120,*65
$GAGSV,3,3,12,05,55,092,47,09,04,102,37,02,01,188,,34,03,212,37*6F
$GBGSV,6,1,22,22,63,141,52,46,11,045,,19,11,133,42,09,17,060,37*6B
$GBGSV,6,2,22,10,14,114,,40,15,071,41,05,21,129,39,07,16,078,39*6F
$GBGSV,6,3,22,26,49,182,,50,34,306,,45,58,190,51,36,59,070,50*60
$GBGSV,6,4,22,21,59,303,51,28,05,322,,06,03,062,36,42,10,309,*67
$GBGSV,6,5,22,24,02,207,,16,00,062,28,02,05,108,34,56,02,096,*67
$GBGSV,6,6,22,58,06,038,,60,07,112,40*6C
$GPGGA,070057.00,,,,,0,00,,,M,,M,,*4D
$PTNL,GGK,070057.00,010125,4742.1603855,N,01618.0999554,E,1,36,0.7,EHT751.4023,M*41
$GPGGQ,070057.00,010125,4742.1603855,N,01618.0999554,E,1,36,0.900,708.1957,M*32
$GPGFA,070057.00,3.846,5.878,0.404,0.363,6.028,0.717,,VVV*06
$GPLLK,070057.00,010125,,M,,M,1,36,0.8,,M*03
$GNGMP,070057.00,,,,,DAAA,36,0.4,,,,*52
$GPGMP,070057.00,,,,,,10,,,,1.4,136*78
$GLGMP,070057.00,,,,,,08,,,,,*72
$GAGMP,070057.00,,,,,,08,,,,,*7F
$GBGMP,070057.00,,,,,,10,,,,,*75
$PSSN,SNC,[0,284475000,2347]*4C
$GPZDA,070102.00,01,01,2025,,*67
$GPDTM,W84,,00.0000000,N,00.0000000,E,00.0000000,W84*5F
$PSSN,TFM,070102.00,,,,*6B
$GPRMC,070102.00,A,4742.1603837,N,01618.0999554,E,0.0,,010125,5.1,E,D*17
$GPGLL,4742.1603837,N,01618.0999554,E,070102.00,A,D*66
$GPGGA,070102.00,4742.1603837,N,01618.0999554,E,2,36,0.4,708.1963,M,43.2066,M,2.4,0136*4F
$GNGNS,070102.00,4742.1603837,N,01618.0999554,E,DAAA,36,0.4,708.1963,43.2066,,*51
$GPGNS,070102.00,,,,,,10,,,,2.4,136*7A
$GLGNS,070102.00,,,,,,08,,,,,*73
$GAGNS,070102.00,,,,,,08,,,,,*7E
$GBGNS,070102.00,,,,,,10,,,,,*74
$GPLLQ,070102.00,010125,,M,,M,1,36,0.897,,M*16
$GPVTG,,T,,M,0.00,N,0.01,K,D*27
$GPHDT,,T*1B
$GPTHS,,V*0E
$GPROT,,V*08
$PSSN,HRP,070102.00,010125,,,,,,,00,0,,*65
$PTNL,AVR,070102.00,,Yaw,,Tilt,,,,0,,00*33
$GPGSA,A,3,05,07,08,09,11,13,14,18,20,30,,,0.7,0.4,0.6*3B
$GPGSA,A,3,65,71,72,73,74,75,81,88,,,,,0.7,0.4,0.6*3B
$GPGSA,A,3,03,05,08,13,15,24,25,31,,,,,0.7,0.4,0.6*3C
$GPGSA,A,3,05,07,09,19,21,22,36,40,45,60,,,0.7,0.4,0.6*31
$GPGST,070102.00,1.872,0.400,0.356,8.397,0.399,0.357,0.720*59
$GPGBS,070102.00,2.800,2.440,4.260,72,0.0001,5.469,6.054*5E
$GPGRS,070102.00,1,-0.4,0.0,-0.5,0.1,-0.4,0.7,-0.2,0.5,-0.1,0.1,,*63
$GPGRS,070102.00,1,-4.4,-2.0,5.5,2.0,3.5,-2.5,-0.4,-2.9,,,,*69
$GPGRS,070102.00,1,-0.1,0.9,-0.5,-0.3,0.6,0.4,0.4,-0.7,,,,*45
$GPGRS,070102.00,1,2.7,1.5,-0.6,-1.4,0.2,0.2,-0.1,-0.5,0.3,-1.2,,*61
$GPGSV,6,1,21,30,86,076,51,14,34,162,45,09,15,106,38,07,48,060,47*7C
$GPGSV,6,2,21,13,36,289,45,20,55,229,48,05,50,291,47,15,04,295,36*7E
$GPGSV,6,3,21,18,06,336,38,11,08,226,39,27,05,034,36,08,07,066,37*70
$GPGSV,6,4,21,36,35,170,45,58,13,245,37,40,24,133,37,34,31,208,44*7C
$GPGSV,6,5,21,49,34,195,44,57,07,112,36,41,07,108,35,61,03,257,38*7E
$GPGSV,6,6,21*7A
$GLGSV,3,1,09,72,70,096,51,73,24,036,44,81,13,325,45,71,21,122,46*68
$GLGSV,3,2,09,75,48,189,52,65,43,319,48,74,67,063,46,82,05,009,40*60
$GLGSV,3,3,09,88,05,276,42*5C
$GAGSV,3,1,12,03,67,303,48,31,12,034,38,08,17,287,40,13,19,312,40*63
$GAGSV,3,2,12,15,22,258,41,25,37,152,45,24,45,080,46,16,48,120,*65
$GAGSV,3,3,12,05,55,092,47,09,04,102,37,02,01,188,,34,03,212,37*6F
$GBGSV,6,1,22,22,63,141,52,46,11,045,,19,11,133,42,09,17,060,37*6B
$GBGSV,6,2,22,10,14,114,,40,15,071,41,05,21,129,39,07,16,078,38*6E
$GBGSV,6,3,22,26,49,182,,50,34,306,,45,58,190,51,36,59,070,50*60
$GBGSV,6,4,22,21,59,303,51,28,05,322,,06,03,062,36,42,10,309,*67
$GBGSV,6,5,22,24,02,207,,16,00,062,27,02,05,108,33,56,02,096,*6F
$GBGSV,6,6,22,58,06,038,,60,07,112,40*6C
$GPGGA,070102.00,,,,,0,00,,,M,,M,,*4C
$PTNL,GGK,070102.00,010125,4742.1603837,N,01618.0999554,E,1,36,0.7,EHT751.4029,M*4E
$GPGGQ,070102.00,010125,4742.1603837,N,01618.0999554,E,1,36,0.897,708.1963,M*3F
$GPGFA,070102.00,3.801,5.902,0.400,0.356,8.397,0.720,,VVV*07
$GPLLK,070102.00,010125,,M,,M,1,36,0.8,,M*02
$GNGMP,070102.00,,,,,DAAA,36,0.4,,,,*53
$GPGMP,070102.00,,,,,,10,,,,2.4,136*7A
$GLGMP,070102.00,,,,,,08,,,,,*73
$GAGMP,070102.00,,,,,,08,,,,,*7E
$GBGMP,070102.00,,,,,,10,,,,,*74
$PSSN,SNC,[0,284480000,2347]*46
$GPZDA,070107.00,01,01,2025,,*62
$GPDTM,W84,,00.0000000,N,00.0000000,E,00.0000000,W84*5F
$PSSN,TFM,070107.00,,,,*6E
$GPRMC,070107.00,A,4742.1603830,N,01618.0999524,E,0.0,,010125,5.1,E,D*12
$GPGLL,4742.1603830,N,01618.0999524,E,070107.00,A,D*63
$GPGGA,070107.00,4742.1603830,N,01618.0999524,E,2,36,0.4,708.1896,M,43.2066,M,3.0,0136*44
$GNGNS,070107.00,4742.1603830,N,01618.0999524,E,DAAA,36,0.4,708.1896,43.2066,,*5F
$GPGNS,070107.00,,,,,,10,,,,3.0,136*7A
$GLGNS,070107.00,,,,,,08,,,,,*76
$GAGNS,070107.00,,,,,,08,,,,,*7B
$GBGNS,070107.00,,,,,,10,,,,,*71
$GPLLQ,070107.00,010125,,M,,M,1,36,0.904,,M*18
$GPVTG,,T,,M,0.01,N,0.01,K,D*26
$GPHDT,,T*1B
$GPTHS,,V*0E
$GPROT,,V*08
$PSSN,HRP,070107.00,010125,,,,,,,00,0,,*60
$PTNL,AVR,070107.00,,Yaw,,Tilt,,,,0,,00*36
$GPGSA,A,3,05,07,08,09,11,13,14,18,20,30,,,0.7,0.4,0.6*3B
$GPGSA,A,3,65,71,72,73,74,75,81,88,,,,,0.7,0.4,0.6*3B
$GPGSA,A,3,03,05,08,13,15,24,25,31,,,,,0.7,0.4,0.6*3C
$GPGSA,A,3,05,07,09,19,21,22,36,40,45,60,,,0.7,0.4,0.6*31
$GPGST,070107.00,1.823,0.406,0.362,8.096,0.406,0.363,0.722*5F
$GPGBS,070107.00,2.844,2.432,4.376,72,0.0001,4.889,6.054*5B
$GPGRS,070107.00,1,-0.4,-0.1,-0.3,-0.1,-0.7,0.4,0.1,-0.3,0.1,0.3,,*4B
$GPGRS,070107.00,1,-4.1,-2.6,4.9,2.7,3.2,-2.3,-0.5,-3.1,,,,*6C
$GPGRS,070107.00,1,-0.2,0.8,-0.4,-0.9,0.3,0.3,0.2,-0.7,,,,*4D
$GPGRS,070107.00,1,2.2,1.5,-0.0,-1.7,-0.0,0.3,-0.2,-0.6,0.1,-1.7,,*4D
$GPGSV,6,1,21,30,86,076,51,14,34,162,44,09,15,106,38,07,48,060,47*7D
$GPGSV,6,2,21,13,36,289,45,20,55,229,48,05,51,291,47,15,04,295,37*7E
$GPGSV,6,3,21,18,06,336,39,11,08,226,39,27,05,034,36,08,08,066,37*7E
$GPGSV,6,4,21,36,35,170,45,58,13,245,36,40,24,133,36,34,31,208,44*7C
$GPGSV,6,5,21,49,34,195,44,57,07,112,37,41,07,108,35,61,03,257,37*70
$GPGSV,6,6,21*7A
$GLGSV,3,1,09,72,70,096,51,73,24,036,44,81,13,325,45,71,21,122,45*6B
$GLGSV,3,2,09,75,48,189,52,65,43,319,48,74,67,063,46,82,05,009,39*6E
$GLGSV,3,3,09,88,05,276,43*5D
$GAGSV,3,1,12,03,67,303,48,31,12,034,38,08,17,288,40,13,19,312,40*6C
$GAGSV,3,2,12,15,22,258,41,25,37,152,46,24,45,080,46,16,48,120,*66
$GAGSV,3,3,12,05,54,092,47,09,04,102,37,02,01,188,,34,03,212,37*6E
$GBGSV,6,1,22,22,63,141,52,46,11,045,,19,11,133,42,09,17,060,37*6B
$GBGSV,6,2,22,10,14,114,,40,15,071,41,05,21,129,39,07,16,078,38*6E
$GBGSV,6,3,22,26,49,182,,50,34,306,,45,58,190,51,36,59,070,50*60
$GBGSV,6,4,22,21,59,302,51,28,05,322,,06,03,062,36,42,10,309,*66
$GBGSV,6,5,22,24,02,207,,16,00,062,27,02,05,108,34,56,02,096,*68
$GBGSV,6,6,22,58,06,038,,60,07,112,40*6C
$GPGGA,070107.00,,,,,0,00,,,M,,M,,*49
$PTNL,GGK,070107.00,010125,4742.1603830,N,01618.0999524,E,1,36,0.7,EHT751.3961,M*49
$GPGGQ,070107.00,010125,4742.1603830,N,01618.0999524,E,1,36,0.904,708.1896,M*3A
$GPGFA,070107.00,3.864,5.922,0.406,0.362,8.096,0.722,,VVV*02
$GPLLK,070107.00,010125,,M,,M,1,36,0.8,,M*07
$GNGMP,070107.00,,,,,DAAA,36,0.4,,,,*56
$GPGMP,070107.00,,,,,,10,,,,3.0,136*7A
$GLGMP,070107.00,,,,,,08,,,,,*76
$GAGMP,070107.00,,,,,,08,,,,,*7B
$GBGMP,070107.00,,,,,,10,,,,,*71
$PSSN,SNC,[0,284485000,2347]*43
$GPZDA,070112.00,01,01,2025,,*66
$GPDTM,W84,,00.0000000,N,00.0000000,E,00.0000000,W84*5F
$PSSN,TFM,070112.00,,,,*6A
$GPRMC,070112.00,A,4742.1603837,N,01618.0999533,E,0.0,,010125,5.1,E,D*17
$GPGLL,4742.1603837,N,01618.0999533,E,070112.00,A,D*66
$GPGGA,070112.00,4742.1603837,N,01618.0999533,E,2,36,0.4,708.1828,M,43.2066,M,3.1,0136*45
$GNGNS,070112.00,4742.1603837,N,01618.0999533,E,DAAA,36,0.4,708.1828,43.2066,,*5F
$GPGNS,070112.00,,,,,,10,,,,3.1,136*7F
$GLGNS,070112.00,,,,,,08,,,,,*72
$GAGNS,070112.00,,,,,,08,,,,,*7F
$GBGNS,070112.00,,,,,,10,,,,,*75
$GPLLQ,070112.00,010125,,M,,M,1,36,0.904,,M*1C
$GPVTG,,T,,M,0.00,N,0.01,K,D*27
$GPHDT,,T*1B
$GPTHS,,V*0E
$GPROT,,V*08
$PSSN,HRP,070112.00,010125,,,,,,,00,0,,*64
$PTNL,AVR,070112.00,,Yaw,,Tilt,,,,0,,00*32
$GPGSA,A,3,05,07,08,09,11,13,14,18,20,30,,,0.7,0.4,0.6*3B
$GPGSA,A,3,65,71,72,73,74,75,81,88,,,,,0.7,0.4,0.6*3B
$GPGSA,A,3,03,05,08,13,15,24,25,31,,,,,0.7,0.4,0.6*3C
$GPGSA,A,3,05,07,09,19,21,22,36,40,45,60,,,0.7,0.4,0.6*31
$GPGST,070112.00,1.793,0.409,0.367,6.166,0.409,0.368,0.717*57
$GPGBS,070112.00,2.808,2.439,4.299,72,0.0001,5.331,6.054*55
$GPGRS,070112.00,1,-0.2,-0.2,-0.7,0.4,-0.3,0.1,0.4,0.0,-0.0,0.0,,*63
$GPGRS,070112.00,1,-4.0,-3.2,5.3,2.2,3.1,-2.8,0.1,-1.5,,,,*45
$GPGRS,070112.00,1,-0.2,0.7,-0.4,-0.3,0.3,0.2,0.0,-0.4,,,,*4C
$GPGRS,070112.00,1,2.4,0.5,0.7,-1.3,0.0,0.1,-0.1,-0.9,0.2,-1.6,,*41
$GPGSV,6,1,21,30,86,076,51,14,34,162,44,09,15,106,37,07,48,060,47*72
$GPGSV,6,2,21,13,36,289,45,20,55,229,48,05,51,291,47,15,04,295,37*7E
$GPGSV,6,3,21,18,06,336,39,11,08,226,39,27,05,034,36,08,08,066,38*71
$GPGSV,6,4,21,36,35,170,44,58,13,245,36,40,24,133,37,34,31,208,43*7B
$GPGSV,6,5,21,49,34,195,44,57,07,112,36,41,07,108,35,61,03,257,37*71
$GPGSV,6,6,21*7A
$GLGSV,3,1,09,72,70,096,51,73,24,036,44,81,13,325,46,71,21,122,45*68
$GLGSV,3,2,09,75,48,189,51,65,43,319,48,74,67,063,46,82,05,009,40*63
$GLGSV,3,3,09,88,05,276,43*5D
$GAGSV,3,1,12,03,67,303,48,31,12,034,38,08,17,288,40,13,19,312,40*6C
$GAGSV,3,2,12,15,22,258,41,25,37,152,45,24,45,080,46,16,48,120,*65
$GAGSV,3,3,12,05,54,092,47,09,04,102,37,02,01,188,,34,03,212,37*6E
$GBGSV,6,1,22,22,63,141,52,46,11,045,,19,11,133,41,09,17,060,37*68
$GBGSV,6,2,22,10,14,114,,40,15,071,41,05,21,129,39,07,16,078,38*6E
$GBGSV,6,3,22,26,49,182,,50,34,306,,45,58,190,51,36,59,070,50*60
$GBGSV,6,4,22,21,59,302,51,28,05,322,,06,03,062,35,42,10,309,*65
$GBGSV,6,5,22,24,02,207,,16,00,062,28,02,05,108,34,56,02,096,*67
$GBGSV,6,6,22,58,06,038,,60,07,112,40*6C
$GPGGA,070112.00,,,,,0,00,,,M,,M,,*4D
$PTNL,GGK,070112.00,010125,4742.1603837,N,01618.0999533,E,1,36,0.7,EHT751.3894,M*47
$GPGGQ,070112.00,010125,4742.1603837,N,01618.0999533,E,1,36,0.904,708.1828,M*3A
$GPGFA,070112.00,3.892,5.881,0.409,0.367,6.166,0.717,,VVV*0B
$GPLLK,070112.00,010125,,M,,M,1,36,0.8,,M*03
$GNGMP,070112.00,,,,,DAAA,36,0.4,,,,*52
$GPGMP,070112.00,,,,,,10,,,,3.1,136*7F
$GLGMP,070112.00,,,,,,08,,,,,*72
$GAGMP,070112.00,,,,,,08,,,,,*7F
$GBGMP,070112.00,,,,,,10,,,,,*75
$PSSN,SNC,[0,284490000,2347]*47
$GPZDA,070117.00,01,01,2025,,*63
$GPDTM,W84,,00.0000000,N,00.0000000,E,00.0000000,W84*5F
$PSSN,TFM,070117.00,,,,*6F
$GPRMC,070117.00,A,4742.1603861,N,01618.0999509,E,0.0,,010125,5.1,E,D*18
$GPGLL,4742.1603861,N,01618.0999509,E,070117.00,A,D*69
$GPGGA,070117.00,4742.1603861,N,01618.0999509,E,2,36,0.4,708.1823,M,43.2066,M,1.4,0136*46
$GNGNS,070117.00,4742.1603861,N,01618.0999509,E,DAAA,36,0.4,708.1823,43.2066,,*5B
$GPGNS,070117.00,,,,,,10,,,,1.4,136*7D
$GLGNS,070117.00,,,,,,08,,,,,*77
$GAGNS,070117.00,,,,,,08,,,,,*7A
$GBGNS,070117.00,,,,,,10,,,,,*70
$GPLLQ,070117.00,010125,,M,,M,1,36,0.903,,M*1E
$GPVTG,,T,,M,0.01,N,0.01,K,D*26
$GPHDT,,T*1B
$GPTHS,,V*0E
$GPROT,,V*08
$PSSN,HRP,070117.00,010125,,,,,,,00,0,,*61
$PTNL,AVR,070117.00,,Yaw,,Tilt,,,,0,,00*37
$GPGSA,A,3,05,07,08,09,11,13,14,18,20,30,,,0.7,0.4,0.6*3B
$GPGSA,A,3,65,71,72,73,74,75,81,88,,,,,0.7,0.4,0.6*3B
$GPGSA,A,3,03,05,08,13,15,24,25,31,,,,,0.7,0.4,0.6*3C
$GPGSA,A,3,05,07,09,19,21,22,36,40,45,60,,,0.7,0.4,0.6*31
$GPGST,070117.00,1.734,0.407,0.365,5.153,0.407,0.365,0.718*5A
$GPGBS,070117.00,2.775,2.428,4.225,72,0.0001,5.140,6.054*56
$GPGRS,070117.00,1,-0.4,-0.1,-1.2,0.5,-0.1,0.1,0.4,0.3,0.2,-0.0,,*65
$GPGRS,070117.00,1,-3.5,-2.2,5.1,1.9,3.7,-3.1,1.1,-1.2,,,,*41
$GPGRS,070117.00,1,-0.2,0.8,-0.4,-0.3,0.4,-0.1,-0.3,-0.2,,,,*47
$GPGRS,070117.00,1,2.5,-0.2,0.4,-1.5,0.3,0.1,-0.1,-0.6,0.2,-1.3,,*63
$GPGSV,6,1,21,30,86,075,51,14,34,162,45,09,15,106,38,07,48,060,47*7F
$GPGSV,6,2,21,13,36,289,45,20,55,229,48,05,51,291,47,15,04,295,38*71
$GPGSV,6,3,21,18,06,336,38,11,08,226,40,27,05,034,37,08,08,066,37*70
$GPGSV,6,4,21,36,35,170,44,58,13,245,36,40,24,133,37,34,31,208,43*7B
$GPGSV,6,5,21,49,34,195,44,57,07,112,36,41,07,108,35,61,03,257,37*71
$GPGSV,6,6,21*7A
$GLGSV,3,1,09,72,70,096,51,73,24,036,44,81,13,325,46,71,21,122,45*68
$GLGSV,3,2,09,75,48,189,52,65,43,319,47,74,67,063,47,82,05,009,40*6E
$GLGSV,3,3,09,88,05,276,43*5D
$GAGSV,3,1,12,03,67,303,48,31,12,034,38,08,17,288,40,13,19,312,40*6C
$GAGSV,3,2,12,15,22,258,41,25,37,152,45,24,45,080,46,16,48,120,*65
$GAGSV,3,3,12,05,54,092,47,09,04,102,37,02,01,188,,34,03,212,37*6E
$GBGSV,6,1,22,22,63,141,52,46,11,045,,19,11,133,41,09,17,060,38*67
$GBGSV,6,2,22,10,14,114,,40,15,071,41,05,21,129,39,07,16,078,37*61
$GBGSV,6,3,22,26,49,182,,50,34,306,,45,58,190,51,36,59,070,50*60
$GBGSV,6,4,22,21,59,302,51,28,05,322,,06,03,062,35,42,10,310,*6D
$GBGSV,6,5,22,24,02,207,,16,00,062,26,02,05,108,34,56,02,096,*69
$GBGSV,6,6,22,58,06,038,,60,07,112,40*6C
$GPGGA,070117.00,,,,,0,00,,,M,,M,,*48
$PTNL,GGK,070117.00,010125,4742.1603861,N,01618.0999509,E,1,36,0.7,EHT751.3888,M*45
$GPGGQ,070117.00,010125,4742.1603861,N,01618.0999509,E,1,36,0.903,708.1823,M*39
$GPGFA,070117.00,3.868,5.891,0.407,0.365,5.153,0.718,,VVV*0C
$GPLLK,070117.00,010125,,M,,M,1,36,0.8,,M*06
$GNGMP,070117.00,,,,,DAAA,36,0.4,,,,*57
$GPGMP,070117.00,,,,,,10,,,,1.4,136*7D
$GLGMP,070117.00,,,,,,08,,,,,*77
$GAGMP,070117.00,,,,,,08,,,,,*7A
$GBGMP,070117.00,,,,,,10,,,,,*70
$PSSN,SNC,[0,284495000,2347]*42
$GPZDA,070122.00,01,01,2025,,*65
$GPDTM,W84,,00.0000000,N,00.0000000,E,00.0000000,W84*5F
$PSSN,TFM,070122.00,,,,*69
$GPRMC,070122.00,A,4742.1603891,N,01618.0999528,E,0.0,,010125,5.1,E,D*12
