$GPZDA,201442.00,01,01,2025,,*62
$GPDTM,W84,,00.0000000,N,00.0000000,E,00.0000000,W84*5F
$PSSN,TFM,201442.00,,,,*6E
$GPRMC,201442.00,A,4742.1604973,N,01618.1003506,E,0.0,,010125,5.1,E,D*18
$GPGLL,4742.1604973,N,01618.1003506,E,201442.00,A,D*69
$GPGGA,201442.00,4742.1604973,N,01618.1003506,E,2,39,0.4,708.2367,M,43.2066,M,1.7,0136*42
$GNGNS,201442.00,4742.1604973,N,01618.1003506,E,DAAA,39,0.4,708.2367,43.2066,,*5C
$GPGNS,201442.00,,,,,,10,,,,1.7,136*7F
$GLGNS,201442.00,,,,,,08,,,,,*76
$GAGNS,201442.00,,,,,,08,,,,,*7B
$GBGNS,201442.00,,,,,,13,,,,,*72
$GPLLQ,201442.00,010125,,M,,M,1,39,0.807,,M*15
$GPVTG,,T,,M,0.01,N,0.01,K,D*26
$GPHDT,,T*1B
$GPTHS,,V*0E
$GPROT,,V*08
$PSSN,HRP,201442.00,010125,,,,,,,00,0,,*60
$PTNL,AVR,201442.00,,Yaw,,Tilt,,,,0,,00*36
$GPGSA,A,3,07,08,10,15,16,18,21,23,26,27,,,0.8,0.4,0.6*3F
$GPGSA,A,3,66,67,68,73,74,82,83,84,,,,,0.8,0.4,0.6*3D
$GPGSA,A,3,03,08,13,15,21,26,31,33,,,,,0.8,0.4,0.6*30
$GPGSA,A,3,05,08,11,13,14,27,28,33,37,38,42,43,0.8,0.4,0.6*33
$GPGSA,A,3,60,,,,,,,,,,,,0.8,0.4,0.6*3E
$GPGST,201442.00,2.382,0.381,0.314,332.746,0.368,0.329,0.639*5F
$GPGBS,201442.00,2.311,1.824,4.087,67,0.0001,6.134,6.127*59
$GPGRS,201442.00,1,0.2,0.1,0.2,0.2,0.1,-0.3,0.1,-0.0,-0.6,0.0,,*64
$GPGRS,201442.00,1,-5.1,6.1,6.1,5.3,-4.8,-1.5,-2.9,-1.4,,,,*66
$GPGRS,201442.00,1,0.5,-0.9,-0.2,-0.3,0.0,-0.4,1.3,0.2,,,,*46
$GPGRS,201442.00,1,2.2,-0.0,0.7,0.4,0.6,-0.6,-0.9,-0.7,-1.2,-0.6,-0.7,0.7*6A
$GPGRS,201442.00,1,-1.9,,,,,,,,,,,*44
$GPGSV,6,1,22,27,78,299,51,15,13,041,39,26,17,188,40,21,17,262,38*74
$GPGSV,6,2,22,18,23,069,42,08,41,302,46,16,43,205,47,10,62,155,51*76
$GPGSV,6,3,22,23,53,066,47,13,01,013,28,07,05,302,39,30,02,333,38*73
$GPGSV,6,4,22,32,01,148,,36,35,170,44,58,13,245,37,57,11,108,38*7B
$GPGSV,6,5,22,34,31,208,42,40,24,133,36,49,34,195,44,41,07,108,34*7E
$GPGSV,6,6,22,61,03,257,38*46
$GLGSV,3,1,10,83,63,027,41,84,30,286,38,68,32,128,49,73,31,239,49*6A
$GLGSV,3,2,10,82,29,073,47,74,37,295,44,67,39,064,49,69,00,164,*62
$GLGSV,3,3,10,66,10,017,43,75,10,343,*63
$GAGSV,3,1,11,13,65,050,47,31,12,324,39,15,14,066,39,08,16,099,38*6C
$GAGSV,3,2,11,03,14,048,38,21,43,201,45,23,49,282,,26,55,262,47*6B
$GAGSV,3,3,11,27,03,167,,07,00,144,,33,07,252,37*5E
$GBGSV,6,1,24,28,75,314,51,38,11,039,39,60,11,108,40,57,14,225,*62
$GBGSV,6,2,24,05,23,128,39,50,19,040,,11,13,093,41,08,25,038,37*68
$GBGSV,6,3,24,46,23,296,,37,21,239,43,33,39,134,48,31,23,057,*6F
$GBGSV,6,4,24,13,33,043,42,58,31,291,,27,30,285,46,30,29,278,*67
$GBGSV,6,5,24,42,35,062,46,43,35,095,48,14,44,097,46,02,08,105,34*69
$GBGSV,6,6,24,41,09,176,,10,04,129,,36,02,340,,21,03,025,37*6D
$GPGGA,201442.00,,,,,0,00,,,M,,M,,*49
$PTNL,GGK,201442.00,010125,4742.1604973,N,01618.1003506,E,1,39,0.8,EHT751.4432,M*4F
$GPGGQ,201442.00,010125,4742.1604973,N,01618.1003506,E,1,39,0.807,708.2367,M*3B
$GPGFA,201442.00,3.623,5.237,0.381,0.314,332.746,0.639,,VVV*02
$GPLLK,201442.00,010125,,M,,M,1,39,0.9,,M*09
$GNGMP,201442.00,,,,,DAAA,39,0.4,,,,*59
$GPGMP,201442.00,,,,,,10,,,,1.7,136*7F
$GLGMP,201442.00,,,,,,08,,,,,*76
$GAGMP,201442.00,,,,,,08,,,,,*7B
$GBGMP,201442.00,,,,,,13,,,,,*72
$PSSN,SNC,[0,332100000,2347]*47
$GPZDA,201447.00,01,01,2025,,*67
$GPDTM,W84,,00.0000000,N,00.0000000,E,00.0000000,W84*5F
$PSSN,TFM,201447.00,,,,*6B
$GPRMC,201447.00,A,4742.1604988,N,01618.1003486,E,0.0,,010125,5.1,E,D*10
$GPGLL,4742.1604988,N,01618.1003486,E,201447.00,A,D*61
$GPGGA,201447.00,4742.1604988,N,01618.1003486,E,2,39,0.4,708.2323,M,43.2066,M,2.7,0136*49
$GNGNS,201447.00,4742.1604988,N,01618.1003486,E,DAAA,39,0.4,708.2323,43.2066,,*54
$GPGNS,201447.00,,,,,,10,,,,2.7,136*79
$GLGNS,201447.00,,,,,,08,,,,,*73
$GAGNS,201447.00,,,,,,08,,,,,*7E
$GBGNS,201447.00,,,,,,13,,,,,*77
$GPLLQ,201447.00,010125,,M,,M,1,39,0.813,,M*15
$GPVTG,,T,,M,0.01,N,0.01,K,D*26
$GPHDT,,T*1B
$GPTHS,,V*0E
$GPROT,,V*08
$PSSN,HRP,201447.00,010125,,,,,,,00,0,,*65
$PTNL,AVR,201447.00,,Yaw,,Tilt,,,,0,,00*33
$GPGSA,A,3,07,08,10,15,16,18,21,23,26,27,,,0.8,0.4,0.6*3F
$GPGSA,A,3,66,67,68,73,74,82,83,84,,,,,0.8,0.4,0.6*3D
$GPGSA,A,3,03,08,13,15,21,26,31,33,,,,,0.8,0.4,0.6*30
$GPGSA,A,3,05,08,11,13,14,27,28,33,37,38,42,43,0.8,0.4,0.6*33
$GPGSA,A,3,60,,,,,,,,,,,,0.8,0.4,0.6*3E
$GPGST,201447.00,2.489,0.380,0.317,334.589,0.369,0.330,0.645*51
$GPGBS,201447.00,2.362,1.852,4.128,68,0.0001,6.918,6.160*57
$GPGRS,201447.00,1,-0.6,-0.3,0.1,0.3,0.6,-0.2,0.2,0.0,-0.7,-0.1,,*60
$GPGRS,201447.00,1,-5.2,5.9,6.9,5.2,-4.9,-1.6,-3.5,-2.4,,,,*6E
$GPGRS,201447.00,1,0.3,-0.6,-0.0,-0.3,-0.1,-0.3,0.3,-0.2,,,,*4F
$GPGRS,201447.00,1,2.1,-0.2,1.1,0.4,1.0,-0.6,-0.8,-0.7,-1.0,-1.0,-0.4,0.6*68
$GPGRS,201447.00,1,-2.0,,,,,,,,,,,*4B
$GPGSV,6,1,22,27,79,299,50,15,13,041,40,26,17,188,40,21,17,262,38*7A
$GPGSV,6,2,22,18,23,069,43,08,41,302,45,16,43,205,47,10,62,155,51*74
$GPGSV,6,3,22,23,53,066,47,13,01,013,28,07,05,302,38,30,02,333,37*7D
$GPGSV,6,4,22,32,01,148,,36,35,170,44,58,13,245,37,57,11,108,38*7B
$GPGSV,6,5,22,34,31,208,42,40,24,133,35,49,34,195,43,41,07,108,34*7A
$GPGSV,6,6,22,61,03,257,37*49
$GLGSV,3,1,10,83,63,027,41,84,30,286,39,68,32,128,49,73,31,239,48*6A
$GLGSV,3,2,10,82,29,073,46,74,37,294,45,67,39,064,49,69,00,164,*63
$GLGSV,3,3,10,66,10,017,44,75,10,343,*64
$GAGSV,3,1,11,13,65,050,47,31,12,324,38,15,14,066,39,08,16,099,38*6D
$GAGSV,3,2,11,03,14,048,38,21,43,201,46,23,49,282,,26,55,262,47*68
$GAGSV,3,3,11,27,03,167,,07,00,144,,33,07,252,37*5E
$GBGSV,6,1,24,28,75,314,51,38,11,039,39,60,11,108,40,57,14,225,*62
$GBGSV,6,2,24,05,23,128,39,50,19,040,,11,13,093,40,08,25,038,38*66
$GBGSV,6,3,24,46,23,296,,37,21,239,43,33,39,134,48,31,23,057,*6F
$GBGSV,6,4,24,13,33,043,42,58,31,291,,27,30,285,46,30,29,278,*67
$GBGSV,6,5,24,42,35,062,46,43,35,095,47,14,44,097,46,02,08,105,34*66
$GBGSV,6,6,24,41,09,176,,10,04,129,,36,02,340,,21,03,025,38*62
$GPGGA,201447.00,,,,,0,00,,,M,,M,,*4C
$PTNL,GGK,201447.00,010125,4742.1604988,N,01618.1003486,E,1,39,0.8,EHT751.4389,M*40
$GPGGQ,201447.00,010125,4742.1604988,N,01618.1003486,E,1,39,0.813,708.2323,M*36
$GPGFA,201447.00,3.612,5.287,0.380,0.317,334.589,0.645,,VVV*00
$GPLLK,201447.00,010125,,M,,M,1,39,0.9,,M*0C
$GNGMP,201447.00,,,,,DAAA,39,0.4,,,,*5C
$GPGMP,201447.00,,,,,,10,,,,2.7,136*79
$GLGMP,201447.00,,,,,,08,,,,,*73
$GAGMP,201447.00,,,,,,08,,,,,*7E
$GBGMP,201447.00,,,,,,13,,,,,*77
$PSSN,SNC,[0,332105000,2347]*42
$GPZDA,201452.00,01,01,2025,,*63
$GPDTM,W84,,00.0000000,N,00.0000000,E,00.0000000,W84*5F
$PSSN,TFM,201452.00,,,,*6F
$GPRMC,201452.00,A,4742.1604996,N,01618.1003500,E,0.0,,010125,5.1,E,D*14
$GPGLL,4742.1604996,N,01618.1003500,E,201452.00,A,D*65
$GPGGA,201452.00,4742.1604996,N,01618.1003500,E,2,39,0.4,708.2298,M,43.2066,M,3.7,0136*4D
$GNGNS,201452.00,4742.1604996,N,01618.1003500,E,DAAA,39,0.4,708.2298,43.2066,,*51
$GPGNS,201452.00,,,,,,10,,,,3.7,136*7C
$GLGNS,201452.00,,,,,,08,,,,,*77
$GAGNS,201452.00,,,,,,08,,,,,*7A
$GBGNS,201452.00,,,,,,13,,,,,*73
$GPLLQ,201452.00,010125,,M,,M,1,39,0.826,,M*17
$GPVTG,,T,,M,0.00,N,0.01,K,D*27
$GPHDT,,T*1B
$GPTHS,,V*0E
$GPROT,,V*08
$PSSN,HRP,201452.00,010125,,,,,,,00,0,,*61
$PTNL,AVR,201452.00,,Yaw,,Tilt,,,,0,,00*37
$GPGSA,A,3,07,08,10,15,16,18,21,23,26,27,,,0.8,0.4,0.6*3F
$GPGSA,A,3,66,67,68,73,74,82,83,84,,,,,0.8,0.4,0.6*3D
$GPGSA,A,3,03,08,13,15,21,26,31,33,,,,,0.8,0.4,0.6*30
$GPGSA,A,3,05,08,11,13,14,27,28,33,37,38,42,43,0.8,0.4,0.6*33
$GPGSA,A,3,60,,,,,,,,,,,,0.8,0.4,0.6*3E
$GPGST,201452.00,2.395,0.387,0.322,334.544,0.375,0.335,0.655*56
$GPGBS,201452.00,2.421,1.883,4.178,68,0.0001,6.818,6.159*51
$GPGRS,201452.00,1,-0.3,0.0,0.2,0.4,0.3,-0.4,0.3,-0.1,-1.1,0.2,,*4C
$GPGRS,201452.00,1,-4.9,5.4,6.8,5.2,-4.3,-1.6,-3.9,-2.2,,,,*6C
$GPGRS,201452.00,1,-0.2,-0.1,-0.1,-0.4,0.1,-0.4,-0.0,-0.2,,,,*62
$GPGRS,201452.00,1,1.9,-0.2,0.8,0.2,1.1,-0.6,-0.6,-0.5,-0.8,-1.1,-0.3,0.7*6A
$GPGRS,201452.00,1,-1.9,,,,,,,,,,,*45
$GPGSV,6,1,22,27,79,299,51,15,13,041,39,26,17,188,40,21,17,262,38*75
$GPGSV,6,2,22,18,23,069,43,08,41,302,45,16,43,205,47,10,62,155,51*74
$GPGSV,6,3,22,23,53,065,47,13,01,013,29,07,05,302,38,30,02,333,37*7F
$GPGSV,6,4,22,32,01,148,,36,35,170,44,58,13,245,37,57,11,108,37*74
$GPGSV,6,5,22,34,31,208,42,40,24,133,35,49,34,195,43,41,07,108,34*7A
$GPGSV,6,6,22,61,03,257,37*49
$GLGSV,3,1,10,83,63,027,40,84,30,286,38,68,32,128,49,73,31,239,49*6B
$GLGSV,3,2,10,82,29,073,47,74,37,294,46,67,39,064,49,69,00,164,*61
$GLGSV,3,3,10,66,10,017,43,75,10,343,*63
$GAGSV,3,1,11,13,65,050,47,31,12,324,38,15,14,066,39,08,16,098,39*6D
$GAGSV,3,2,11,03,14,048,38,21,42,201,46,23,49,282,,26,55,262,47*69
$GAGSV,3,3,11,27,03,167,,07,00,144,,33,08,252,37*51
$GBGSV,6,1,24,28,75,314,51,38,11,039,39,60,11,108,40,57,14,225,*62
$GBGSV,6,2,24,05,23,128,39,50,19,040,,11,13,094,39,08,25,038,38*6F
$GBGSV,6,3,24,46,23,296,,37,21,239,43,33,39,134,48,31,22,057,*6E
$GBGSV,6,4,24,13,33,043,42,58,31,291,,27,30,285,46,30,29,278,*67
$GBGSV,6,5,24,42,35,062,46,43,35,095,47,14,44,097,46,02,08,105,34*66
$GBGSV,6,6,24,41,09,176,,10,04,129,,36,02,340,,21,03,025,38*62
$GPGGA,201452.00,,,,,0,00,,,M,,M,,*48
$PTNL,GGK,201452.00,010125,4742.1604996,N,01618.1003500,E,1,39,0.8,EHT751.4364,M*47
$GPGGQ,201452.00,010125,4742.1604996,N,01618.1003500,E,1,39,0.826,708.2298,M*35
$GPGFA,201452.00,3.675,5.370,0.387,0.322,334.544,0.655,,VVV*0D
$GPLLK,201452.00,010125,,M,,M,1,39,0.9,,M*08
$GNGMP,201452.00,,,,,DAAA,39,0.4,,,,*58
$GPGMP,201452.00,,,,,,10,,,,3.7,136*7C
$GLGMP,201452.00,,,,,,08,,,,,*77
$GAGMP,201452.00,,,,,,08,,,,,*7A
$GBGMP,201452.00,,,,,,13,,,,,*73
$PSSN,SNC,[0,332110000,2347]*46
$GPZDA,201457.00,01,01,2025,,*66
$GPDTM,W84,,00.0000000,N,00.0000000,E,00.0000000,W84*5F
$PSSN,TFM,201457.00,,,,*6A
$GPRMC,201457.00,A,4742.1604992,N,01618.1003509,E,0.0,,010125,5.1,E,D*1C
$GPGLL,4742.1604992,N,01618.1003509,E,201457.00,A,D*6D
$GPGGA,201457.00,4742.1604992,N,01618.1003509,E,2,39,0.4,708.2224,M,43.2066,M,1.9,0136*4E
$GNGNS,201457.00,4742.1604992,N,01618.1003509,E,DAAA,39,0.4,708.2224,43.2066,,*5E
$GPGNS,201457.00,,,,,,10,,,,1.9,136*75
$GLGNS,201457.00,,,,,,08,,,,,*72
$GAGNS,201457.00,,,,,,08,,,,,*7F
$GBGNS,201457.00,,,,,,13,,,,,*76
$GPLLQ,201457.00,010125,,M,,M,1,39,0.823,,M*17
$GPVTG,,T,,M,0.00,N,0.01,K,D*27
$GPHDT,,T*1B
$GPTHS,,V*0E
$GPROT,,V*08
$PSSN,HRP,201457.00,010125,,,,,,,00,0,,*64
$PTNL,AVR,201457.00,,Yaw,,Tilt,,,,0,,00*32
$GPGSA,A,3,07,08,10,15,16,18,21,23,26,27,,,0.8,0.4,0.6*3F
$GPGSA,A,3,66,67,68,73,74,82,83,84,,,,,0.8,0.4,0.6*3D
$GPGSA,A,3,03,08,13,15,21,26,31,33,,,,,0.8,0.4,0.6*30
$GPGSA,A,3,05,08,11,13,14,27,28,33,37,38,42,43,0.8,0.4,0.6*33
$GPGSA,A,3,60,,,,,,,,,,,,0.8,0.4,0.6*3E
$GPGST,201457.00,2.493,0.388,0.320,333.348,0.376,0.335,0.651*55
$GPGBS,201457.00,2.339,1.819,4.172,68,0.0001,6.376,6.159*50
$GPGRS,201457.00,1,-0.3,0.1,0.2,0.5,0.1,-1.0,0.0,0.2,-0.9,0.2,,*6A
$GPGRS,201457.00,1,-5.7,6.1,6.4,5.5,-4.1,-1.1,-3.8,-2.9,,,,*64
$GPGRS,201457.00,1,-0.0,-0.1,-0.1,-0.7,-0.3,-0.5,0.4,0.3,,,,*4D
$GPGRS,201457.00,1,1.9,0.5,-0.1,0.2,0.8,-0.2,-0.7,-0.6,-0.8,-1.3,-0.9,0.6*66
$GPGRS,201457.00,1,-2.0,,,,,,,,,,,*4A
$GPGSV,6,1,22,27,79,299,51,15,13,041,39,26,17,187,40,21,17,262,37*75
$GPGSV,6,2,22,18,23,069,43,08,41,302,46,16,43,205,47,10,62,155,51*77
$GPGSV,6,3,22,23,53,065,47,13,01,013,29,07,05,301,39,30,02,333,37*7D
$GPGSV,6,4,22,32,01,148,,36,35,170,44,58,13,245,37,57,11,108,38*7B
$GPGSV,6,5,22,34,31,208,42,40,24,133,35,49,34,195,44,41,07,108,33*7A
$GPGSV,6,6,22,61,03,257,38*46
$GLGSV,3,1,10,83,63,027,41,84,30,286,39,68,32,128,48,73,31,239,49*6A
$GLGSV,3,2,10,82,29,073,47,74,37,294,45,67,39,064,49,69,00,164,*62
$GLGSV,3,3,10,66,10,017,43,75,10,343,*63
$GAGSV,3,1,11,13,65,050,47,31,12,324,38,15,14,066,39,08,16,098,39*6D
$GAGSV,3,2,11,03,14,048,38,21,42,201,46,23,49,282,,26,55,262,47*69
$GAGSV,3,3,11,27,03,167,,07,00,144,,33,08,252,37*51
$GBGSV,6,1,24,28,75,314,51,57,14,225,,38,11,039,39,60,11,108,40*62
$GBGSV,6,2,24,05,23,128,38,50,19,040,,11,13,094,39,08,25,038,37*61
$GBGSV,6,3,24,46,23,296,,37,21,239,43,33,39,134,48,31,22,057,*6E
$GBGSV,6,4,24,13,33,043,42,58,31,291,,27,30,285,46,30,29,278,*67
$GBGSV,6,5,24,42,35,062,46,43,35,095,47,14,44,097,46,02,08,105,34*66
$GBGSV,6,6,24,21,03,025,38,41,09,176,,36,02,340,,10,04,129,*62
$GPGGA,201457.00,,,,,0,00,,,M,,M,,*4D
$PTNL,GGK,201457.00,010125,4742.1604992,N,01618.1003509,E,1,39,0.8,EHT751.4290,M*45
$GPGGQ,201457.00,010125,4742.1604992,N,01618.1003509,E,1,39,0.823,708.2224,M*3F
$GPGFA,201457.00,3.693,5.341,0.388,0.320,333.348,0.651,,VVV*06
$GPLLK,201457.00,010125,,M,,M,1,39,0.9,,M*0D
$GNGMP,201457.00,,,,,DAAA,39,0.4,,,,*5D
$GPGMP,201457.00,,,,,,10,,,,1.9,136*75
$GLGMP,201457.00,,,,,,08,,,,,*72
$GAGMP,201457.00,,,,,,08,,,,,*7F
$GBGMP,201457.00,,,,,,13,,,,,*76
$PSSN,SNC,[0,332115000,2347]*43
$GPZDA,201502.00,01,01,2025,,*67
$GPDTM,W84,,00.0000000,N,00.0000000,E,00.0000000,W84*5F
$PSSN,TFM,201502.00,,,,*6B
$GPRMC,201502.00,A,4742.1605001,N,01618.1003511,E,0.0,,010125,5.1,E,D*16
$GPGLL,4742.1605001,N,01618.1003511,E,201502.00,A,D*67
$GPGGA,201502.00,4742.1605001,N,01618.1003511,E,2,39,0.4,708.2138,M,43.2066,M,1.7,0136*44
$GNGNS,201502.00,4742.1605001,N,01618.1003511,E,DAAA,39,0.4,708.2138,43.2066,,*5A
$GPGNS,201502.00,,,,,,10,,,,1.7,136*7A
$GLGNS,201502.00,,,,,,08,,,,,*73
$GAGNS,201502.00,,,,,,08,,,,,*7E
$GBGNS,201502.00,,,,,,13,,,,,*77
$GPLLQ,201502.00,010125,,M,,M,1,39,0.807,,M*10
$GPVTG,,T,,M,0.00,N,0.00,K,D*26
$GPHDT,,T*1B
$GPTHS,,V*0E
$GPROT,,V*08
$PSSN,HRP,201502.00,010125,,,,,,,00,0,,*65
$PTNL,AVR,201502.00,,Yaw,,Tilt,,,,0,,00*33
$GPGSA,A,3,07,08,10,15,16,18,21,23,26,27,,,0.8,0.4,0.6*3F
$GPGSA,A,3,66,67,68,73,74,82,83,84,,,,,0.8,0.4,0.6*3D
$GPGSA,A,3,03,08,13,15,21,26,31,33,,,,,0.8,0.4,0.6*30
$GPGSA,A,3,05,08,11,13,14,27,28,33,37,38,42,43,0.8,0.4,0.6*33
$GPGSA,A,3,60,,,,,,,,,,,,0.8,0.4,0.6*3E
$GPGST,201502.00,2.408,0.381,0.314,332.701,0.368,0.329,0.638*5D
$GPGBS,201502.00,2.310,1.823,4.074,68,0.0001,6.307,6.159*52
$GPGRS,201502.00,1,-0.5,0.2,0.2,0.3,0.5,-1.1,-0.4,0.2,-0.7,-0.1,,*64
$GPGRS,201502.00,1,-4.7,6.1,6.3,5.5,-4.3,-0.5,-3.7,-2.4,,,,*66
$GPGRS,201502.00,1,-0.1,-0.4,0.2,-0.6,-0.1,-0.1,1.3,0.7,,,,*63
$GPGRS,201502.00,1,2.2,0.1,-0.4,0.7,1.0,-0.0,-0.6,-0.9,-0.8,-0.6,-0.7,0.8*6A
$GPGRS,201502.00,1,-1.8,,,,,,,,,,,*40
$GPGSV,6,1,22,27,79,299,51,15,13,041,40,26,17,187,40,21,17,262,38*74
$GPGSV,6,2,22,18,23,069,43,08,41,302,46,16,43,204,47,10,62,155,52*75
$GPGSV,6,3,22,23,53,065,47,13,01,013,29,07,05,301,39,30,02,333,37*7D
$GPGSV,6,4,22,32,01,148,,36,35,170,44,58,13,245,37,57,11,108,37*74
$GPGSV,6,5,22,34,31,208,42,40,24,133,35,49,34,195,43,41,07,108,33*7D
$GPGSV,6,6,22,61,03,257,37*49
$GLGSV,3,1,10,83,63,027,40,68,32,128,49,82,29,073,47,84,30,286,39*6F
$GLGSV,3,2,10,73,30,239,49,74,37,294,45,67,39,064,49,75,10,343,*6D
$GLGSV,3,3,10,66,10,017,43,69,00,164,*68
$GAGSV,3,1,11,13,65,050,47,31,12,324,38,15,14,066,38,08,16,098,39*6C
$GAGSV,3,2,11,03,14,048,39,21,42,201,46,23,49,282,,26,55,262,47*68
$GAGSV,3,3,11,27,03,167,,07,00,144,,33,08,252,37*51
$GBGSV,6,1,24,28,75,314,51,57,14,225,,38,11,039,39,60,11,108,40*62
$GBGSV,6,2,24,05,23,128,39,50,18,040,,11,13,094,39,08,25,038,38*6E
$GBGSV,6,3,24,46,23,296,,37,21,239,43,33,40,134,47,31,22,057,*6F
$GBGSV,6,4,24,13,33,043,42,58,31,291,,27,30,285,46,30,29,278,*67
$GBGSV,6,5,24,42,35,062,46,43,35,095,47,14,44,097,46,02,08,105,34*66
$GBGSV,6,6,24,21,03,025,37,41,09,176,,36,02,340,,10,04,129,*6D
$GPGGA,201502.00,,,,,0,00,,,M,,M,,*4C
$PTNL,GGK,201502.00,010125,4742.1605001,N,01618.1003511,E,1,39,0.8,EHT751.4204,M*42
$GPGGQ,201502.00,010125,4742.1605001,N,01618.1003511,E,1,39,0.807,708.2138,M*3D
$GPGFA,201502.00,3.626,5.229,0.381,0.314,332.701,0.638,,VVV*0F
$GPLLK,201502.00,010125,,M,,M,1,39,0.9,,M*0C
$GNGMP,201502.00,,,,,DAAA,39,0.4,,,,*5C
$GPGMP,201502.00,,,,,,10,,,,1.7,136*7A
$GLGMP,201502.00,,,,,,08,,,,,*73
$GAGMP,201502.00,,,,,,08,,,,,*7E
$GBGMP,201502.00,,,,,,13,,,,,*77
$PSSN,SNC,[0,332120000,2347]*45
$GPZDA,201507.00,01,01,2025,,*62
$GPDTM,W84,,00.0000000,N,00.0000000,E,00.0000000,W84*5F
$PSSN,TFM,201507.00,,,,*6E
$GPRMC,201507.00,A,4742.1605004,N,01618.1003531,E,0.0,,010125,5.1,E,D*14
$GPGLL,4742.1605004,N,01618.1003531,E,201507.00,A,D*65
$GPGGA,201507.00,4742.1605004,N,01618.1003531,E,2,38,0.4,708.2087,M,43.2066,M,2.8,0136*4E
$GNGNS,201507.00,4742.1605004,N,01618.1003531,E,DAAA,38,0.4,708.2087,43.2066,,*5C
$GPGNS,201507.00,,,,,,09,,,,2.8,136*7B
$GLGNS,201507.00,,,,,,08,,,,,*76
$GAGNS,201507.00,,,,,,08,,,,,*7B
$GBGNS,201507.00,,,,,,13,,,,,*72
$GPLLQ,201507.00,010125,,M,,M,1,38,0.837,,M*17
$GPVTG,,T,,M,0.00,N,0.01,K,D*27
$GPHDT,,T*1B
$GPTHS,,V*0E
$GPROT,,V*08
$PSSN,HRP,201507.00,010125,,,,,,,00,0,,*60
$PTNL,AVR,201507.00,,Yaw,,Tilt,,,,0,,00*36
$GPGSA,A,3,08,10,15,16,18,21,23,26,27,,,,0.8,0.4,0.7*39
$GPGSA,A,3,66,67,68,73,74,82,83,84,,,,,0.8,0.4,0.7*3C
$GPGSA,A,3,03,08,13,15,21,26,31,33,,,,,0.8,0.4,0.7*31
$GPGSA,A,3,05,08,11,13,14,27,28,33,37,38,42,43,0.8,0.4,0.7*32
$GPGSA,A,3,60,,,,,,,,,,,,0.8,0.4,0.7*3F
$GPGST,201507.00,2.378,0.391,0.320,331.613,0.376,0.337,0.667*55
$GPGBS,201507.00,2.269,2.093,4.267,18,0.0001,-1.164,1.066*78
$GPGRS,201507.00,1,0.2,0.1,0.8,0.4,-1.2,-0.0,-0.1,-0.4,0.0,,,*68
$GPGRS,201507.00,1,-4.6,6.1,6.0,5.0,-4.4,-1.0,-3.9,-2.1,,,,*6C
$GPGRS,201507.00,1,0.0,-0.3,-0.1,-0.7,0.0,-0.3,1.1,0.3,,,,*4A
$GPGRS,201507.00,1,1.9,-0.2,0.6,0.5,0.5,-1.0,-0.9,-0.8,-0.8,-0.4,-0.4,0.8*6E
$GPGRS,201507.00,1,-1.9,,,,,,,,,,,*44
$GPGSV,6,1,22,27,79,299,51,15,13,041,40,26,17,187,40,21,17,262,38*74
$GPGSV,6,2,22,18,23,069,43,08,41,302,46,16,43,204,47,10,62,155,51*76
$GPGSV,6,3,22,23,53,065,47,13,01,013,27,07,05,301,36,30,02,333,36*7D
$GPGSV,6,4,22,32,01,148,,36,35,170,44,58,13,245,37,57,11,108,38*7B
$GPGSV,6,5,22,34,31,208,42,40,24,133,35,49,34,195,43,41,07,108,33*7D
$GPGSV,6,6,22,61,03,257,38*46
$GLGSV,3,1,10,83,63,028,41,68,32,128,48,82,29,073,46,84,30,286,39*61
$GLGSV,3,2,10,73,30,239,48,74,37,294,45,67,39,064,49,75,10,343,*6C
$GLGSV,3,3,10,66,10,017,43,69,00,164,*68
$GAGSV,3,1,11,13,65,050,47,31,12,324,38,15,14,066,38,08,16,098,39*6C
$GAGSV,3,2,11,03,14,048,39,21,42,201,46,23,49,282,,26,55,262,47*68
$GAGSV,3,3,11,27,03,167,,07,00,144,,33,08,252,37*51
$GBGSV,6,1,24,28,75,314,51,57,14,225,,38,11,039,39,60,11,108,40*62
$GBGSV,6,2,24,05,23,128,39,50,18,040,,11,13,094,39,08,25,038,37*61
$GBGSV,6,3,24,46,23,296,,37,21,239,44,33,40,134,47,31,22,057,*68
$GBGSV,6,4,24,13,33,043,42,58,31,290,,27,30,285,46,30,29,278,*66
$GBGSV,6,5,24,42,35,062,46,43,35,095,47,14,44,097,46,02,08,105,34*66
$GBGSV,6,6,24,21,03,025,37,41,09,176,,36,02,340,,10,04,129,*6D
$GPGGA,201507.00,,,,,0,00,,,M,,M,,*49
$PTNL,GGK,201507.00,010125,4742.1605004,N,01618.1003531,E,1,38,0.8,EHT751.4153,M*40
$GPGGQ,201507.00,010125,4742.1605004,N,01618.1003531,E,1,38,0.837,708.2087,M*38
$GPGFA,201507.00,3.715,5.473,0.391,0.320,331.613,0.667,,VVV*0F
$GPLLK,201507.00,010125,,M,,M,1,38,0.9,,M*08
$GNGMP,201507.00,,,,,DAAA,38,0.4,,,,*58
$GPGMP,201507.00,,,,,,09,,,,2.8,136*7B
$GLGMP,201507.00,,,,,,08,,,,,*76
$GAGMP,201507.00,,,,,,08,,,,,*7B
$GBGMP,201507.00,,,,,,13,,,,,*72
$PSSN,SNC,[0,332125000,2347]*40
$GPZDA,201512.00,01,01,2025,,*66
$GPDTM,W84,,00.0000000,N,00.0000000,E,00.0000000,W84*5F
$PSSN,TFM,201512.00,,,,*6A
$GPRMC,201512.00,A,4742.1605014,N,01618.1003571,E,0.0,,010125,5.1,E,D*15
$GPGLL,4742.1605014,N,01618.1003571,E,201512.00,A,D*64
$GPGGA,201512.00,4742.1605014,N,01618.1003571,E,2,38,0.4,708.2058,M,43.2066,M,3.8,0136*4C
$GNGNS,201512.00,4742.1605014,N,01618.1003571,E,DAAA,38,0.4,708.2058,43.2066,,*5F
$GPGNS,201512.00,,,,,,09,,,,3.8,136*7E
$GLGNS,201512.00,,,,,,08,,,,,*72
$GAGNS,201512.00,,,,,,08,,,,,*7F
$GBGNS,201512.00,,,,,,13,,,,,*76
$GPLLQ,201512.00,010125,,M,,M,1,38,0.881,,M*1E
$GPVTG,,T,,M,0.00,N,0.01,K,D*27
$GPHDT,,T*1B
$GPTHS,,V*0E
$GPROT,,V*08
$PSSN,HRP,201512.00,010125,,,,,,,00,0,,*64
$PTNL,AVR,201512.00,,Yaw,,Tilt,,,,0,,00*32
$GPGSA,A,3,08,10,15,16,18,21,23,26,27,,,,0.8,0.4,0.7*39
$GPGSA,A,3,66,67,68,73,74,82,83,84,,,,,0.8,0.4,0.7*3C
$GPGSA,A,3,03,08,13,15,21,26,31,33,,,,,0.8,0.4,0.7*31
$GPGSA,A,3,05,08,11,13,14,27,28,33,37,38,42,43,0.8,0.4,0.7*32
$GPGSA,A,3,60,,,,,,,,,,,,0.8,0.4,0.7*3F
$GPGST,201512.00,2.490,0.412,0.324,329.284,0.391,0.349,0.708*53
$GPGBS,201512.00,2.327,2.127,4.324,67,0.0001,6.220,6.126*5C
$GPGRS,201512.00,1,0.2,-0.0,0.5,0.0,-0.8,0.6,-0.0,-1.1,0.1,,,*6D
$GPGRS,201512.00,1,-5.8,6.2,5.8,5.3,-4.5,-1.5,-3.6,-2.4,,,,*62
$GPGRS,201512.00,1,-0.3,-0.4,-0.1,-1.0,-0.0,-0.1,1.0,0.4,,,,*48
$GPGRS,201512.00,1,2.0,-0.2,0.1,0.2,1.1,-0.5,-0.9,-0.4,-0.8,-0.6,-0.4,0.8*6F
$GPGRS,201512.00,1,-2.1,,,,,,,,,,,*4B
$GPGSV,6,1,22,27,79,299,50,15,13,041,39,26,17,187,40,21,17,262,38*7B
$GPGSV,6,2,22,18,23,069,42,08,41,302,46,16,43,204,47,10,62,155,51*77
$GPGSV,6,3,22,23,53,065,47,13,01,013,27,07,05,301,37,30,02,333,36*7C
$GPGSV,6,4,22,32,01,148,,36,35,170,44,58,13,245,37,57,11,108,37*74
$GPGSV,6,5,22,34,31,208,42,40,24,133,36,49,34,195,44,41,07,108,33*79
$GPGSV,6,6,22,61,03,257,38*46
$GLGSV,3,1,10,83,63,028,41,68,32,128,48,82,29,073,47,84,31,286,38*60
$GLGSV,3,2,10,73,30,239,49,74,37,294,45,67,39,064,50,75,10,343,*65
$GLGSV,3,3,10,66,10,017,43,69,00,164,*68
$GAGSV,3,1,11,13,65,050,47,31,12,324,38,15,13,066,38,08,16,098,39*6B
$GAGSV,3,2,11,03,14,048,38,21,42,201,46,23,49,282,,26,55,262,47*69
$GAGSV,3,3,11,27,03,167,,07,00,144,,33,08,252,37*51
$GBGSV,6,1,24,28,75,314,50,57,14,225,,38,11,039,39,60,11,108,40*63
$GBGSV,6,2,24,05,23,128,38,50,18,040,,11,13,094,39,08,25,038,37*60
$GBGSV,6,3,24,46,23,296,,37,21,239,44,33,40,134,47,31,22,057,*68
$GBGSV,6,4,24,13,33,043,42,58,31,290,,27,30,285,46,30,29,278,*66
$GBGSV,6,5,24,42,35,062,46,43,35,095,47,14,44,097,46,02,08,105,34*66
$GBGSV,6,6,24,21,03,025,36,41,09,176,,36,02,340,,10,04,129,*6C
$GPGGA,201512.00,,,,,0,00,,,M,,M,,*4D
$PTNL,GGK,201512.00,010125,4742.1605014,N,01618.1003571,E,1,38,0.8,EHT751.4124,M*41
$GPGGQ,201512.00,010125,4742.1605014,N,01618.1003571,E,1,38,0.881,708.2058,M*36
$GPGFA,201512.00,3.920,5.808,0.412,0.324,329.284,0.708,,VVV*00
$GPLLK,201512.00,010125,,M,,M,1,38,0.9,,M*0C
$GNGMP,201512.00,,,,,DAAA,38,0.4,,,,*5C
$GPGMP,201512.00,,,,,,09,,,,3.8,136*7E
$GLGMP,201512.00,,,,,,08,,,,,*72
$GAGMP,201512.00,,,,,,08,,,,,*7F
$GBGMP,201512.00,,,,,,13,,,,,*76
$PSSN,SNC,[0,332130000,2347]*44
$GPZDA,201517.00,01,01,2025,,*63
$GPDTM,W84,,00.0000000,N,00.0000000,E,00.0000000,W84*5F
$PSSN,TFM,201517.00,,,,*6F
$GPRMC,201517.00,A,4742.1604986,N,01618.1003603,E,0.0,,010125,5.1,E,D*15
$GPGLL,4742.1604986,N,01618.1003603,E,201517.00,A,D*64
$GPGGA,201517.00,4742.1604986,N,01618.1003603,E,2,38,0.4,708.2021,M,43.2066,M,1.7,0136*4F
$GNGNS,201517.00,4742.1604986,N,01618.1003603,E,DAAA,38,0.4,708.2021,43.2066,,*51
$GPGNS,201517.00,,,,,,09,,,,1.7,136*76
$GLGNS,201517.00,,,,,,08,,,,,*77
$GAGNS,201517.00,,,,,,08,,,,,*7A
$GBGNS,201517.00,,,,,,13,,,,,*73
$GPLLQ,201517.00,010125,,M,,M,1,38,0.944,,M*13
$GPVTG,,T,,M,0.01,N,0.01,K,D*26
$GPHDT,,T*1B
$GPTHS,,V*0E
$GPROT,,V*08
$PSSN,HRP,201517.00,010125,,,,,,,00,0,,*61
$PTNL,AVR,201517.00,,Yaw,,Tilt,,,,0,,00*37
$GPGSA,A,3,08,10,15,16,18,21,23,26,27,,,,0.8,0.4,0.7*39
$GPGSA,A,3,66,67,68,73,74,82,83,84,,,,,0.8,0.4,0.7*3C
$GPGSA,A,3,03,08,13,15,21,26,31,33,,,,,0.8,0.4,0.7*31
$GPGSA,A,3,05,08,11,13,14,27,28,33,37,38,42,43,0.8,0.4,0.7*32
$GPGSA,A,3,60,,,,,,,,,,,,0.8,0.4,0.7*3F
$GPGST,201517.00,2.506,0.447,0.346,328.681,0.422,0.376,0.757*55
$GPGBS,201517.00,2.256,2.051,4.297,26,0.0001,-1.455,1.006*78
$GPGRS,201517.00,1,-0.1,0.0,0.4,0.3,-0.5,0.4,-0.0,-1.5,0.2,,,*61
$GPGRS,201517.00,1,-4.8,5.9,6.1,6.2,-4.6,-1.2,-3.2,-2.6,,,,*64
$GPGRS,201517.00,1,-0.3,0.3,0.1,-0.5,0.1,-0.1,1.3,0.4,,,,*61
$GPGRS,201517.00,1,2.2,-0.4,-0.8,0.4,1.5,-0.1,-0.7,0.0,-1.0,-1.0,-0.6,1.0*6E
$GPGRS,201517.00,1,-2.0,,,,,,,,,,,*4F
$GPGSV,6,1,22,27,79,299,50,15,13,041,37,26,17,187,39,21,17,262,38*7B
$GPGSV,6,2,22,18,23,069,42,08,41,302,46,16,43,204,47,10,62,155,51*77
$GPGSV,6,3,22,23,53,065,46,13,01,013,27,07,05,301,37,30,02,332,36*7C
$GPGSV,6,4,22,32,01,148,,36,35,170,44,58,13,245,37,57,11,108,38*7B
$GPGSV,6,5,22,34,31,208,42,40,24,133,35,49,34,195,44,41,07,108,33*7A
$GPGSV,6,6,22,61,03,257,38*46
$GLGSV,3,1,10,83,63,028,41,68,32,128,49,75,10,343,,82,29,073,47*6F
$GLGSV,3,2,10,73,30,239,49,84,31,286,38,74,37,294,45,67,39,064,49*63
$GLGSV,3,3,10,66,10,017,44,69,00,164,*6F
$GAGSV,3,1,11,13,65,050,47,31,12,324,39,15,13,066,38,08,16,098,39*6A
$GAGSV,3,2,11,03,14,048,38,21,42,201,46,23,49,282,,26,55,262,47*69
$GAGSV,3,3,11,27,03,167,,07,00,144,,33,08,252,37*51
$GBGSV,6,1,24,28,76,314,51,57,14,225,,38,11,039,40,60,11,108,40*6F
$GBGSV,6,2,24,05,23,128,38,50,18,040,,11,13,094,39,08,25,038,37*60
$GBGSV,6,3,24,46,23,296,,37,21,238,43,33,40,134,47,31,22,057,*6E
$GBGSV,6,4,24,13,33,043,42,58,31,290,,27,30,285,46,30,30,278,*6E
$GBGSV,6,5,24,42,35,062,46,43,35,095,47,14,44,097,46,02,08,105,34*66
$GBGSV,6,6,24,21,03,025,37,41,09,176,,36,02,340,,10,04,129,*6D
$GPGGA,201517.00,,,,,0,00,,,M,,M,,*48
$PTNL,GGK,201517.00,010125,4742.1604986,N,01618.1003603,E,1,38,0.8,EHT751.4087,M*49
$GPGGQ,201517.00,010125,4742.1604986,N,01618.1003603,E,1,38,0.944,708.2021,M*30
$GPGFA,201517.00,4.245,6.206,0.447,0.346,328.681,0.757,,VVV*03
$GPLLK,201517.00,010125,,M,,M,1,38,0.9,,M*09
$GNGMP,201517.00,,,,,DAAA,38,0.4,,,,*59
$GPGMP,201517.00,,,,,,09,,,,1.7,136*76
$GLGMP,201517.00,,,,,,08,,,,,*77
$GAGMP,201517.00,,,,,,08,,,,,*7A
$GBGMP,201517.00,,,,,,13,,,,,*73
$PSSN,SNC,[0,332135000,2347]*41
$GPZDA,201522.00,01,01,2025,,*65
$GPDTM,W84,,00.0000000,N,00.0000000,E,00.0000000,W84*5F
$PSSN,TFM,201522.00,,,,*69
$GPRMC,201522.00,A,4742.1604977,N,01618.1003616,E,0.0,,010125,5.1,E,D*19
$GPGLL,4742.1604977,N,01618.1003616,E,201522.00,A,D*68
$GPGGA,201522.00,4742.1604977,N,01618.1003616,E,2,38,0.4,708.1944,M,43.2066,M,1.8,0136*45
$GNGNS,201522.00,4742.1604977,N,01618.1003616,E,DAAA,38,0.4,708.1944,43.2066,,*54
$GPGNS,201522.00,,,,,,09,,,,1.8,136*7F
$GLGNS,201522.00,,,,,,08,,,,,*71
$GAGNS,201522.00,,,,,,08,,,,,*7C
$GBGNS,201522.00,,,,,,13,,,,,*75
$GPLLQ,201522.00,010125,,M,,M,1,38,0.861,,M*13
$GPVTG,,T,,M,0.00,N,0.00,K,D*26
$GPHDT,,T*1B
$GPTHS,,V*0E
$GPROT,,V*08
$PSSN,HRP,201522.00,010125,,,,,,,00,0,,*67
$PTNL,AVR,201522.00,,Yaw,,Tilt,,,,0,,00*31
$GPGSA,A,3,08,10,15,16,18,21,23,26,27,,,,0.8,0.4,0.7*39
$GPGSA,A,3,66,67,68,73,74,82,83,84,,,,,0.8,0.4,0.7*3C
$GPGSA,A,3,03,08,13,15,21,26,31,33,,,,,0.8,0.4,0.7*31
$GPGSA,A,3,05,08,11,13,14,27,28,33,37,38,42,43,0.8,0.4,0.7*32
$GPGSA,A,3,60,,,,,,,,,,,,0.8,0.4,0.7*3F
$GPGST,201522.00,2.482,0.408,0.316,328.288,0.385,0.344,0.689*54
$GPGBS,201522.00,2.218,2.062,4.220,26,0.0001,-1.172,1.017*78
$GPGRS,201522.00,1,-0.1,0.3,0.5,0.1,-0.3,0.1,0.1,-1.2,-0.0,,,*60
$GPGRS,201522.00,1,-4.7,5.8,7.1,5.8,-3.9,-1.2,-3.4,-2.6,,,,*6A
$GPGRS,201522.00,1,0.1,-0.1,-0.2,-0.3,-0.0,-0.1,0.9,0.7,,,,*6B
$GPGRS,201522.00,1,2.0,-0.1,-0.9,0.2,0.9,-0.3,-0.5,-0.3,-1.2,-0.7,-0.8,0.8*48
$GPGRS,201522.00,1,-2.1,,,,,,,,,,,*48
$GPGSV,6,1,22,27,79,299,51,15,13,041,38,26,17,187,39,21,17,262,38*75
$GPGSV,6,2,22,18,23,069,42,08,41,302,46,16,43,204,47,10,63,155,52*75
$GPGSV,6,3,22,23,53,065,47,13,01,013,27,07,05,301,38,30,02,332,37*73
$GPGSV,6,4,22,32,01,148,,36,35,170,44,58,13,245,37,57,11,108,37*74
$GPGSV,6,5,22,34,31,208,42,40,24,133,35,49,34,195,44,41,07,108,34*7D
$GPGSV,6,6,22,61,03,257,38*46
$GLGSV,3,1,10,83,63,028,41,68,32,128,49,75,10,343,,82,29,073,47*6F
$GLGSV,3,2,10,73,30,239,49,84,31,286,38,74,37,294,45,67,39,064,49*63
$GLGSV,3,3,10,66,10,017,44,69,00,164,*6F
$GAGSV,3,1,11,13,65,050,47,31,12,324,39,15,13,066,38,08,16,098,40*64
$GAGSV,3,2,11,03,14,048,38,21,42,201,46,23,49,282,,26,55,262,47*69
$GAGSV,3,3,11,27,03,167,,07,00,144,,33,08,252,37*51
$GBGSV,6,1,24,28,76,315,51,57,14,225,,38,11,039,39,60,11,108,40*60
$GBGSV,6,2,24,05,23,128,38,50,18,040,,11,13,094,39,08,25,038,37*60
$GBGSV,6,3,24,46,23,296,,37,21,238,44,33,40,134,47,31,22,057,*69
$GBGSV,6,4,24,13,33,043,42,58,31,290,,27,30,285,46,30,30,278,*6E
$GBGSV,6,5,24,42,35,062,46,43,35,095,47,14,44,097,46,02,08,105,34*66
$GBGSV,6,6,24,21,03,025,36,41,09,176,,36,02,340,,10,04,129,*6C
$GPGGA,201522.00,,,,,0,00,,,M,,M,,*4E
$PTNL,GGK,201522.00,010125,4742.1604977,N,01618.1003616,E,1,38,0.8,EHT751.4010,M*4B
$GPGGQ,201522.00,010125,4742.1604977,N,01618.1003616,E,1,38,0.861,708.1944,M*33
$GPGFA,201522.00,3.878,5.648,0.408,0.316,328.288,0.689,,VVV*0A
$GPLLK,201522.00,010125,,M,,M,1,38,0.9,,M*0F
$GNGMP,201522.00,,,,,DAAA,38,0.4,,,,*5F
$GPGMP,201522.00,,,,,,09,,,,1.8,136*7F
$GLGMP,201522.00,,,,,,08,,,,,*71
$GAGMP,201522.00,,,,,,08,,,,,*7C
$GBGMP,201522.00,,,,,,13,,,,,*75
$PSSN,SNC,[0,332140000,2347]*43
$GPZDA,201527.00,01,01,2025,,*60
$GPDTM,W84,,00.0000000,N,00.0000000,E,00.0000000,W84*5F
$PSSN,TFM,201527.00,,,,*6C
$GPRMC,201527.00,A,4742.1604963,N,01618.1003583,E,0.0,,010125,5.1,E,D*16
$GPGLL,4742.1604963,N,01618.1003583,E,201527.00,A,D*67
$GPGGA,201527.00,4742.1604963,N,01618.1003583,E,2,38,0.4,708.1910,M,43.2066,M,2.8,0136*48
$GNGNS,201527.00,4742.1604963,N,01618.1003583,E,DAAA,38,0.4,708.1910,43.2066,,*5A
$GPGNS,201527.00,,,,,,09,,,,2.8,136*79
$GLGNS,201527.00,,,,,,08,,,,,*74
$GAGNS,201527.00,,,,,,08,,,,,*79
$GBGNS,201527.00,,,,,,13,,,,,*70
$GPLLQ,201527.00,010125,,M,,M,1,38,0.866,,M*11
$GPVTG,,T,,M,0.00,N,0.01,K,D*27
$GPHDT,,T*1B
$GPTHS,,V*0E
$GPROT,,V*08
$PSSN,HRP,201527.00,010125,,,,,,,00,0,,*62
$PTNL,AVR,201527.00,,Yaw,,Tilt,,,,0,,00*34
$GPGSA,A,3,08,10,15,16,18,21,23,26,27,,,,0.8,0.4,0.7*39
$GPGSA,A,3,66,67,68,73,74,82,83,84,,,,,0.8,0.4,0.7*3C
$GPGSA,A,3,03,08,13,15,21,26,31,33,,,,,0.8,0.4,0.7*31
$GPGSA,A,3,05,08,11,13,14,27,28,33,37,38,42,43,0.8,0.4,0.7*32
$GPGSA,A,3,60,,,,,,,,,,,,0.8,0.4,0.7*3F
$GPGST,201527.00,2.445,0.405,0.319,329.363,0.384,0.344,0.696*52
$GPGBS,201527.00,2.267,2.095,4.263,68,0.0001,6.877,6.158*5B
$GPGRS,201527.00,1,0.0,-0.0,1.2,0.1,-0.5,0.4,0.2,-0.8,-0.1,,,*6B
$GPGRS,201527.00,1,-5.2,5.9,6.9,4.6,-4.7,-1.3,-3.9,-1.8,,,,*64
$GPGRS,201527.00,1,0.5,-0.5,-0.3,-0.7,-0.2,-0.2,0.5,0.4,,,,*65
$GPGRS,201527.00,1,1.7,-0.4,0.3,0.3,1.1,-0.3,-0.7,-0.6,-0.6,-0.6,-0.7,0.6*61
$GPGRS,201527.00,1,-1.7,,,,,,,,,,,*48
$GPGSV,6,1,22,27,79,299,51,15,13,041,39,26,17,187,40,21,17,262,37*75
$GPGSV,6,2,22,18,23,069,42,08,41,302,46,16,43,204,47,10,63,155,51*76
$GPGSV,6,3,22,23,53,065,47,13,01,013,28,07,05,301,39,30,02,332,37*7D
$GPGSV,6,4,22,32,01,148,,36,35,170,44,58,13,245,37,57,11,108,37*74
$GPGSV,6,5,22,34,31,208,42,40,24,133,35,49,34,195,43,41,07,108,33*7D
$GPGSV,6,6,22,61,03,257,37*49
$GLGSV,3,1,10,83,63,028,41,68,32,128,49,75,10,343,,82,29,073,47*6F
$GLGSV,3,2,10,73,30,239,48,84,31,286,39,74,37,294,45,67,39,064,49*63
$GLGSV,3,3,10,66,10,017,44,69,01,164,*6E
$GAGSV,3,1,11,13,65,050,47,31,12,324,39,15,13,066,39,08,16,098,40*65
$GAGSV,3,2,11,03,14,048,39,21,42,201,46,23,49,282,,26,55,262,47*68
$GAGSV,3,3,11,27,03,167,,07,00,144,,33,08,252,38*5E
$GBGSV,6,1,24,28,76,315,51,57,14,225,,38,11,039,40,60,11,108,40*6E
$GBGSV,6,2,24,05,23,128,39,50,18,040,,11,13,094,40,08,25,038,37*6F
$GBGSV,6,3,24,46,23,295,,37,21,238,44,33,40,134,47,31,22,057,*6A
$GBGSV,6,4,24,13,33,043,42,58,31,290,,27,30,285,46,30,30,278,*6E
$GBGSV,6,5,24,42,35,062,46,43,35,095,47,14,44,097,47,02,08,105,34*67
$GBGSV,6,6,24,21,03,025,37,41,09,176,,36,02,340,,10,04,129,*6D
$GPGGA,201527.00,,,,,0,00,,,M,,M,,*4B
$PTNL,GGK,201527.00,010125,4742.1604963,N,01618.1003583,E,1,38,0.8,EHT751.3976,M*4A
$GPGGQ,201527.00,010125,4742.1604963,N,01618.1003583,E,1,38,0.866,708.1910,M*3A
$GPGFA,201527.00,3.849,5.706,0.405,0.319,329.363,0.696,,VVV*0F
$GPLLK,201527.00,010125,,M,,M,1,38,0.9,,M*0A
$GNGMP,201527.00,,,,,DAAA,38,0.4,,,,*5A
$GPGMP,201527.00,,,,,,09,,,,2.8,136*79
$GLGMP,201527.00,,,,,,08,,,,,*74
$GAGMP,201527.00,,,,,,08,,,,,*79
$GBGMP,201527.00,,,,,,13,,,,,*70
$PSSN,SNC,[0,332145000,2347]*46
$GPZDA,201532.00,01,01,2025,,*64
$GPDTM,W84,,00.0000000,N,00.0000000,E,00.0000000,W84*5F
$PSSN,TFM,201532.00,,,,*68
$GPRMC,201532.00,A,4742.1604928,N,01618.1003592,E,0.0,,010125,5.1,E,D*1D
$GPGLL,4742.1604928,N,01618.1003592,E,201532.00,A,D*6C
$GPGGA,201532.00,4742.1604928,N,01618.1003592,E,2,38,0.4,708.1920,M,43.2066,M,3.8,0136*41
$GNGNS,201532.00,4742.1604928,N,01618.1003592,E,DAAA,38,0.4,708.1920,43.2066,,*52
$GPGNS,201532.00,,,,,,09,,,,3.8,136*7C
$GLGNS,201532.00,,,,,,08,,,,,*70
$GAGNS,201532.00,,,,,,08,,,,,*7D
$GBGNS,201532.00,,,,,,13,,,,,*74
$GPLLQ,201532.00,010125,,M,,M,1,38,0.881,,M*1C
$GPVTG,,T,,M,0.00,N,0.00,K,D*26
$GPHDT,,T*1B
$GPTHS,,V*0E
$GPROT,,V*08
$PSSN,HRP,201532.00,010125,,,,,,,00,0,,*66
$PTNL,AVR,201532.00,,Yaw,,Tilt,,,,0,,00*30
$GPGSA,A,3,08,10,15,16,18,21,23,26,27,,,,0.8,0.4,0.7*39
$GPGSA,A,3,66,67,68,73,74,82,83,84,,,,,0.8,0.4,0.7*3C
$GPGSA,A,3,03,08,13,15,21,26,31,33,,,,,0.8,0.4,0.7*31
$GPGSA,A,3,05,08,11,13,14,27,28,33,37,38,42,43,0.8,0.4,0.7*32
$GPGSA,A,3,60,,,,,,,,,,,,0.8,0.4,0.7*3F
$GPGST,201532.00,2.333,0.413,0.324,329.288,0.392,0.350,0.707*56
$GPGBS,201532.00,2.324,2.128,4.316,67,0.0001,6.102,6.126*50
$GPGRS,201532.00,1,-0.1,-0.2,1.0,-0.0,-0.1,0.4,0.1,-0.5,-0.1,,,*65
$GPGRS,201532.00,1,-4.9,6.1,5.9,4.4,-4.6,-1.5,-3.2,-1.7,,,,*63
$GPGRS,201532.00,1,0.4,-0.6,-0.2,-0.6,-0.2,-0.2,0.5,-0.4,,,,*4E
$GPGRS,201532.00,1,2.0,-0.5,1.0,0.3,1.7,-0.4,-0.7,-0.2,-0.8,-0.6,-0.7,0.6*69
$GPGRS,201532.00,1,-1.9,,,,,,,,,,,*42
$GPGSV,6,1,22,27,79,299,50,15,13,041,39,26,17,187,40,21,17,262,38*7B
$GPGSV,6,2,22,18,23,069,42,08,42,302,46,16,43,204,47,10,63,155,51*75
$GPGSV,6,3,22,23,53,065,46,13,01,013,28,07,05,301,38,30,02,332,37*7D
$GPGSV,6,4,22,32,01,148,,36,35,170,44,58,13,245,37,57,11,108,37*74
$GPGSV,6,5,22,34,31,208,42,40,24,133,35,49,34,195,43,41,07,108,33*7D
$GPGSV,6,6,22,61,03,257,37*49
$GLGSV,3,1,10,83,63,028,41,68,32,128,48,75,10,343,,82,29,073,47*6E
$GLGSV,3,2,10,73,30,239,47,84,31,286,39,74,37,294,45,67,39,064,50*64
$GLGSV,3,3,10,66,10,017,43,69,01,164,*69
$GAGSV,3,1,11,13,65,051,47,31,12,324,39,15,13,066,39,08,16,098,39*6A
$GAGSV,3,2,11,03,14,048,39,21,42,201,46,23,49,282,,26,55,262,47*68
$GAGSV,3,3,11,27,03,167,,07,00,144,,33,08,252,38*5E
$GBGSV,6,1,24,28,76,315,51,57,14,225,,38,11,039,39,60,11,108,40*60
$GBGSV,6,2,24,05,23,128,39,50,18,040,,11,13,094,40,08,25,038,38*60
$GBGSV,6,3,24,46,23,295,,37,21,238,44,33,40,134,48,31,22,057,*65
$GBGSV,6,4,24,13,33,043,43,58,31,290,,27,31,285,47,30,30,278,*6F
$GBGSV,6,5,24,42,35,062,46,43,35,095,47,14,44,096,47,02,08,105,34*66
$GBGSV,6,6,24,21,03,025,37,41,09,176,,36,02,340,,10,04,129,*6D
$GPGGA,201532.00,,,,,0,00,,,M,,M,,*4F
$PTNL,GGK,201532.00,010125,4742.1604928,N,01618.1003592,E,1,38,0.8,EHT751.3986,M*4E
$GPGGQ,201532.00,010125,4742.1604928,N,01618.1003592,E,1,38,0.881,708.1920,M*3B
$GPGFA,201532.00,3.923,5.801,0.413,0.324,329.288,0.707,,VVV*0A
$GPLLK,201532.00,010125,,M,,M,1,38,0.9,,M*0E
$GNGMP,201532.00,,,,,DAAA,38,0.4,,,,*5E
$GPGMP,201532.00,,,,,,09,,,,3.8,136*7C
$GLGMP,201532.00,,,,,,08,,,,,*70
$GAGMP,201532.00,,,,,,08,,,,,*7D
$GBGMP,201532.00,,,,,,13,,,,,*74
$PSSN,SNC,[0,332150000,2347]*42
$GPZDA,201537.00,01,01,2025,,*61
$GPDTM,W84,,00.0000000,N,00.0000000,E,00.0000000,W84*5F
$PSSN,TFM,201537.00,,,,*6D
$GPRMC,201537.00,A,4742.1604917,N,01618.1003595,E,0.0,,010125,5.1,E,D*13
$GPGLL,4742.1604917,N,01618.1003595,E,201537.00,A,D*62
$GPGGA,201537.00,4742.1604917,N,01618.1003595,E,2,38,0.4,708.1968,M,43.2066,M,1.7,0136*4E
$GNGNS,201537.00,4742.1604917,N,01618.1003595,E,DAAA,38,0.4,708.1968,43.2066,,*50
$GPGNS,201537.00,,,,,,09,,,,1.7,136*74
$GLGNS,201537.00,,,,,,08,,,,,*75
$GAGNS,201537.00,,,,,,08,,,,,*78
$GBGNS,201537.00,,,,,,13,,,,,*71
$GPLLQ,201537.00,010125,,M,,M,1,38,0.873,,M*14
$GPVTG,,T,,M,0.00,N,0.01,K,D*27
$GPHDT,,T*1B
$GPTHS,,V*0E
$GPROT,,V*08
$PSSN,HRP,201537.00,010125,,,,,,,00,0,,*63
$PTNL,AVR,201537.00,,Yaw,,Tilt,,,,0,,00*35
$GPGSA,A,3,08,10,15,16,18,21,23,26,27,,,,0.8,0.4,0.7*39
$GPGSA,A,3,66,67,68,73,74,82,83,84,,,,,0.8,0.4,0.7*3C
$GPGSA,A,3,03,08,13,15,21,26,31,33,,,,,0.8,0.4,0.7*31
$GPGSA,A,3,05,08,11,13,14,27,28,33,37,38,42,43,0.8,0.4,0.7*32
$GPGSA,A,3,60,,,,,,,,,,,,0.8,0.4,0.7*3F
$GPGST,201537.00,2.463,0.414,0.320,328.268,0.390,0.349,0.699*51
$GPGBS,201537.00,2.255,2.052,4.291,67,0.0001,6.555,6.126*56
$GPGRS,201537.00,1,-0.3,-0.2,0.7,0.1,-0.4,1.0,0.2,-0.2,0.0,,,*60
$GPGRS,201537.00,1,-5.4,6.6,5.5,4.7,-4.8,-1.9,-3.8,-2.3,,,,*6D
$GPGRS,201537.00,1,0.3,-0.4,-0.0,-0.7,0.0,-0.1,0.8,0.2,,,,*47
$GPGRS,201537.00,1,2.1,-0.1,0.7,0.2,1.2,-0.1,-0.8,-0.3,-0.8,-0.3,-0.9,0.6*6B
$GPGRS,201537.00,1,-2.2,,,,,,,,,,,*4F
$GPGSV,6,1,22,27,79,299,51,15,13,041,39,26,17,187,40,21,17,262,38*7A
$GPGSV,6,2,22,18,23,069,42,08,42,302,46,16,43,204,47,10,63,155,51*75
$GPGSV,6,3,22,23,53,065,46,13,01,013,28,07,05,301,38,30,02,332,37*7D
$GPGSV,6,4,22,32,01,148,,36,35,170,44,58,13,245,37,57,11,108,37*74
$GPGSV,6,5,22,34,31,208,42,40,24,133,35,49,34,195,43,41,07,108,33*7D
$GPGSV,6,6,22,61,03,257,37*49
$GLGSV,3,1,10,83,63,028,41,68,32,127,49,75,10,343,,82,29,073,46*61
$GLGSV,3,2,10,73,30,239,48,84,31,286,39,74,37,294,46,67,39,064,50*68
$GLGSV,3,3,10,66,10,016,42,69,01,164,*69
$GAGSV,3,1,11,13,65,051,47,31,12,324,39,15,13,066,39,08,16,098,39*6A
$GAGSV,3,2,11,03,14,048,40,21,42,201,46,23,49,282,,26,55,262,47*66
$GAGSV,3,3,11,27,02,167,,07,00,144,,33,08,252,38*5F
$GBGSV,6,1,24,28,76,315,51,57,14,225,,38,11,039,39,60,11,108,40*60
$GBGSV,6,2,24,05,23,128,39,50,18,040,,11,13,094,40,08,25,038,38*60
$GBGSV,6,3,24,46,23,295,,37,21,238,44,33,40,134,48,31,22,057,*65
$GBGSV,6,4,24,13,33,043,43,58,31,290,,27,31,285,46,30,30,278,*6E
$GBGSV,6,5,24,42,35,062,46,43,35,095,47,14,44,096,46,02,08,105,34*67
$GBGSV,6,6,24,21,03,025,37,41,09,176,,36,02,340,,10,04,129,*6D
$GPGGA,201537.00,,,,,0,00,,,M,,M,,*4A
$PTNL,GGK,201537.00,010125,4742.1604917,N,01618.1003595,E,1,38,0.8,EHT751.4034,M*47
$GPGGQ,201537.00,010125,4742.1604917,N,01618.1003595,E,1,38,0.873,708.1968,M*34
$GPGFA,201537.00,3.934,5.730,0.414,0.320,328.268,0.699,,VVV*0E
$GPLLK,201537.00,010125,,M,,M,1,38,0.9,,M*0B
$GNGMP,201537.00,,,,,DAAA,38,0.4,,,,*5B
$GPGMP,201537.00,,,,,,09,,,,1.7,136*74
$GLGMP,201537.00,,,,,,08,,,,,*75
$GAGMP,201537.00,,,,,,08,,,,,*78
$GBGMP,201537.00,,,,,,13,,,,,*71
$PSSN,SNC,[0,332155000,2347]*47
$GPZDA,201542.00,01,01,2025,,*63
$GPDTM,W84,,00.0000000,N,00.0000000,E,00.0000000,W84*5F
$PSSN,TFM,201542.00,,,,*6F
$GPRMC,201542.00,A,4742.1604927,N,01618.1003605,E,0.0,,010125,5.1,E,D*18
$GPGLL,4742.1604927,N,01618.1003605,E,201542.00,A,D*69
$GPGGA,201542.00,4742.1604927,N,01618.1003605,E,2,38,0.4,708.1987,M,43.2066,M,1.8,0136*4B
$GNGNS,201542.00,4742.1604927,N,01618.1003605,E,DAAA,38,0.4,708.1987,43.2066,,*5A
$GPGNS,201542.00,,,,,,09,,,,1.8,136*79
$GLGNS,201542.00,,,,,,08,,,,,*77
$GAGNS,201542.00,,,,,,08,,,,,*7A
$GBGNS,201542.00,,,,,,13,,,,,*73
$GPLLQ,201542.00,010125,,M,,M,1,38,0.860,,M*14
$GPVTG,,T,,M,0.00,N,0.00,K,D*26
$GPHDT,,T*1B
$GPTHS,,V*0E
$GPROT,,V*08
$PSSN,HRP,201542.00,010125,,,,,,,00,0,,*61
$PTNL,AVR,201542.00,,Yaw,,Tilt,,,,0,,00*37
$GPGSA,A,3,08,10,15,16,18,21,23,26,27,,,,0.8,0.4,0.7*39
$GPGSA,A,3,66,67,68,73,74,82,83,84,,,,,0.8,0.4,0.7*3C
$GPGSA,A,3,03,08,13,15,21,26,31,33,,,,,0.8,0.4,0.7*31
$GPGSA,A,3,05,08,11,13,14,27,28,33,37,38,42,43,0.8,0.4,0.7*32
$GPGSA,A,3,60,,,,,,,,,,,,0.8,0.4,0.7*3F
$GPGST,201542.00,2.416,0.408,0.316,328.229,0.385,0.344,0.688*55
$GPGBS,201542.00,2.216,2.066,4.210,68,0.0001,6.380,6.157*5A
$GPGRS,201542.00,1,0.1,-0.0,0.2,0.1,-0.4,-0.0,0.2,-0.7,0.1,,,*62
$GPGRS,201542.00,1,-5.5,5.7,6.4,5.5,-4.2,-1.6,-3.3,-2.4,,,,*64
$GPGRS,201542.00,1,-0.0,-0.6,-0.1,-0.6,-0.0,-0.2,0.7,0.2,,,,*48
$GPGRS,201542.00,1,1.7,-0.1,-0.0,0.3,0.3,-0.3,-0.6,-0.6,-0.8,-0.3,-0.8,0.7*4E
$GPGRS,201542.00,1,-2.0,,,,,,,,,,,*4F
$GPGSV,6,1,22,27,79,299,50,15,13,041,39,26,17,187,39,21,17,262,38*75
$GPGSV,6,2,22,18,23,069,42,08,42,302,45,16,43,204,47,10,63,155,51*76
$GPGSV,6,3,22,23,53,065,46,13,01,013,27,07,05,301,38,30,02,332,36*73
$GPGSV,6,4,22,32,01,148,,36,35,170,44,58,13,245,37,57,11,108,37*74
$GPGSV,6,5,22,34,31,208,42,40,24,133,36,49,34,195,44,41,07,108,33*79
$GPGSV,6,6,22,61,03,257,38*46
$GLGSV,3,1,10,83,63,028,41,68,32,127,49,75,10,343,,82,29,073,47*60
$GLGSV,3,2,10,73,30,239,48,84,31,286,39,74,37,294,45,67,39,064,49*63
$GLGSV,3,3,10,66,10,016,43,69,01,164,*68
$GAGSV,3,1,11,13,65,051,47,31,12,324,39,15,13,066,39,08,16,098,39*6A
$GAGSV,3,2,11,03,14,048,39,21,42,201,46,23,49,282,,26,55,262,47*68
$GAGSV,3,3,11,27,02,167,,07,00,144,,33,08,252,37*50
$GBGSV,6,1,24,28,76,315,51,57,14,225,,38,11,039,39,60,11,108,40*60
$GBGSV,6,2,24,05,23,128,39,50,18,040,,11,13,094,40,08,25,038,38*60
$GBGSV,6,3,24,46,23,295,,37,21,238,43,33,40,134,48,31,22,057,*62
$GBGSV,6,4,24,13,33,043,43,58,31,290,,27,31,285,46,30,30,278,*6E
$GBGSV,6,5,24,42,35,062,47,43,35,095,47,14,44,096,46,02,08,105,34*66
$GBGSV,6,6,24,21,03,025,36,41,09,176,,36,02,340,,10,04,129,*6C
$GPGGA,201542.00,,,,,0,00,,,M,,M,,*48
$PTNL,GGK,201542.00,010125,4742.1604927,N,01618.1003605,E,1,38,0.8,EHT751.4053,M*4D
$GPGGQ,201542.00,010125,4742.1604927,N,01618.1003605,E,1,38,0.860,708.1987,M*3C
$GPGFA,201542.00,3.882,5.642,0.408,0.316,328.229,0.688,,VVV*09
$GPLLK,201542.00,010125,,M,,M,1,38,0.9,,M*09
$GNGMP,201542.00,,,,,DAAA,38,0.4,,,,*59
$GPGMP,201542.00,,,,,,09,,,,1.8,136*79
$GLGMP,201542.00,,,,,,08,,,,,*77
$GAGMP,201542.00,,,,,,08,,,,,*7A
$GBGMP,201542.00,,,,,,13,,,,,*73
$PSSN,SNC,[0,332160000,2347]*41
$GPZDA,201547.00,01,01,2025,,*66
$GPDTM,W84,,00.0000000,N,00.0000000,E,00.0000000,W84*5F
$PSSN,TFM,201547.00,,,,*6A
$GPRMC,201547.00,A,4742.1604913,N,01618.1003601,E,0.0,,010125,5.1,E,D*1E
$GPGLL,4742.1604913,N,01618.1003601,E,201547.00,A,D*6F
$GPGGA,201547.00,4742.1604913,N,01618.1003601,E,2,38,0.4,708.1929,M,43.2066,M,2.8,0136*4A
$GNGNS,201547.00,4742.1604913,N,01618.1003601,E,DAAA,38,0.4,708.1929,43.2066,,*58
$GPGNS,201547.00,,,,,,09,,,,2.8,136*7F
$GLGNS,201547.00,,,,,,08,,,,,*72
$GAGNS,201547.00,,,,,,08,,,,,*7F
$GBGNS,201547.00,,,,,,13,,,,,*76
$GPLLQ,201547.00,010125,,M,,M,1,38,0.865,,M*14
$GPVTG,,T,,M,0.00,N,0.01,K,D*27
$GPHDT,,T*1B
$GPTHS,,V*0E
$GPROT,,V*08
$PSSN,HRP,201547.00,010125,,,,,,,00,0,,*64
$PTNL,AVR,201547.00,,Yaw,,Tilt,,,,0,,00*32
$GPGSA,A,3,08,10,15,16,18,21,23,26,27,,,,0.8,0.4,0.7*39
$GPGSA,A,3,66,67,68,73,74,82,83,84,,,,,0.8,0.4,0.7*3C
$GPGSA,A,3,03,08,13,15,21,26,31,33,,,,,0.8,0.4,0.7*31
$GPGSA,A,3,05,08,11,13,14,27,28,33,37,38,42,43,0.8,0.4,0.7*32
$GPGSA,A,3,60,,,,,,,,,,,,0.8,0.4,0.7*3F
$GPGST,201547.00,2.500,0.405,0.319,329.441,0.385,0.343,0.695*56
$GPGBS,201547.00,2.265,2.093,4.253,68,0.0001,6.983,6.157*5F
$GPGRS,201547.00,1,0.0,-0.1,0.6,0.1,-0.2,0.4,0.1,-0.8,0.1,,,*40
$GPGRS,201547.00,1,-4.8,5.0,7.0,6.2,-4.4,-1.3,-4.0,-2.6,,,,*6E
$GPGRS,201547.00,1,0.0,-0.4,-0.1,-0.4,-0.2,-0.4,0.4,-0.1,,,,*49
$GPGRS,201547.00,1,1.9,0.4,0.9,0.6,0.3,-0.5,-0.8,-1.1,-0.9,-0.3,-0.7,0.8*43
$GPGRS,201547.00,1,-1.8,,,,,,,,,,,*41
$GPGSV,6,1,22,27,79,299,51,15,13,041,40,26,17,187,39,21,17,263,38*7B
$GPGSV,6,2,22,18,23,069,42,08,42,302,46,16,43,204,47,10,63,155,51*75
$GPGSV,6,3,22,23,53,065,47,13,01,013,26,07,05,301,38,30,02,332,36*73
$GPGSV,6,4,22,32,01,148,,36,35,170,44,58,13,245,37,57,11,108,38*7B
$GPGSV,6,5,22,34,31,208,42,40,24,133,36,49,34,195,43,41,07,108,33*7E
$GPGSV,6,6,22,61,03,257,38*46
$GLGSV,3,1,10,83,63,028,41,68,32,127,49,75,10,343,,82,29,073,46*61
$GLGSV,3,2,10,73,30,239,49,84,31,286,39,74,37,294,45,67,39,064,49*62
$GLGSV,3,3,10,66,10,016,44,69,01,164,*6F
$GAGSV,3,1,11,13,65,051,47,31,12,324,39,15,13,066,39,08,16,098,39*6A
$GAGSV,3,2,11,03,14,048,39,21,42,201,46,23,49,282,,26,55,262,47*68
$GAGSV,3,3,11,27,02,167,,07,00,144,,33,08,252,37*50
$GBGSV,6,1,24,28,76,315,51,57,14,225,,38,11,039,39,60,11,108,40*60
$GBGSV,6,2,24,05,23,128,39,50,18,040,,11,13,094,40,08,25,038,38*60
$GBGSV,6,3,24,46,23,295,,37,20,238,44,33,40,134,48,31,22,057,*64
$GBGSV,6,4,24,13,33,043,43,58,31,290,,27,31,285,47,30,30,278,*6F
$GBGSV,6,5,24,42,35,062,46,43,35,095,48,14,44,096,46,02,08,105,34*68
$GBGSV,6,6,24,21,03,025,37,41,09,176,,36,02,340,,10,04,129,*6D
$GPGGA,201547.00,,,,,0,00,,,M,,M,,*4D
$PTNL,GGK,201547.00,010125,4742.1604913,N,01618.1003601,E,1,38,0.8,EHT751.3995,M*4F
$GPGGQ,201547.00,010125,4742.1604913,N,01618.1003601,E,1,38,0.865,708.1929,M*3B
$GPGFA,201547.00,3.851,5.696,0.405,0.319,329.441,0.695,,VVV*0C
$GPLLK,201547.00,010125,,M,,M,1,38,0.9,,M*0C
$GNGMP,201547.00,,,,,DAAA,38,0.4,,,,*5C
$GPGMP,201547.00,,,,,,09,,,,2.8,136*7F
$GLGMP,201547.00,,,,,,08,,,,,*72
$GAGMP,201547.00,,,,,,08,,,,,*7F
$GBGMP,201547.00,,,,,,13,,,,,*76
$PSSN,SNC,[0,332165000,2347]*44
$GPZDA,201552.00,01,01,2025,,*62
$GPDTM,W84,,00.0000000,N,00.0000000,E,00.0000000,W84*5F
$PSSN,TFM,201552.00,,,,*6E
$GPRMC,201552.00,A,4742.1604900,N,01618.1003602,E,0.0,,010125,5.1,E,D*1B
$GPGLL,4742.1604900,N,01618.1003602,E,201552.00,A,D*6A
$GPGGA,201552.00,4742.1604900,N,01618.1003602,E,2,38,0.4,708.1958,M,43.2066,M,3.8,0136*48
$GNGNS,201552.00,4742.1604900,N,01618.1003602,E,DAAA,38,0.4,708.1958,43.2066,,*5B
$GPGNS,201552.00,,,,,,09,,,,3.8,136*7A
$GLGNS,201552.00,,,,,,08,,,,,*76
$GAGNS,201552.00,,,,,,08,,,,,*7B
$GBGNS,201552.00,,,,,,13,,,,,*72
$GPLLQ,201552.00,010125,,M,,M,1,38,0.880,,M*1B
$GPVTG,,T,,M,0.00,N,0.00,K,D*26
$GPHDT,,T*1B
$GPTHS,,V*0E
$GPROT,,V*08
$PSSN,HRP,201552.00,010125,,,,,,,00,0,,*60
$PTNL,AVR,201552.00,,Yaw,,Tilt,,,,0,,00*36
$GPGSA,A,3,08,10,15,16,18,21,23,26,27,,,,0.8,0.4,0.7*39
$GPGSA,A,3,66,67,68,73,74,82,83,84,,,,,0.8,0.4,0.7*3C
$GPGSA,A,3,03,08,13,15,21,26,31,33,,,,,0.8,0.4,0.7*31
$GPGSA,A,3,05,08,11,13,14,27,28,33,37,38,42,43,0.8,0.4,0.7*32
$GPGSA,A,3,60,,,,,,,,,,,,0.8,0.4,0.7*3F
$GPGST,201552.00,2.440,0.413,0.324,329.218,0.392,0.350,0.707*5A
$GPGBS,201552.00,2.322,2.134,4.306,68,0.0001,6.417,6.156*55
$GPGRS,201552.00,1,-0.0,0.0,0.6,0.2,-0.0,0.0,0.1,-0.7,-0.0,,,*63
$GPGRS,201552.00,1,-4.8,5.2,6.4,5.5,-5.0,-1.6,-3.5,-2.3,,,,*6E
$GPGRS,201552.00,1,-0.2,-0.9,-0.2,-0.5,-0.0,-0.5,0.2,0.6,,,,*42
$GPGRS,201552.00,1,2.2,0.6,0.5,0.7,0.4,-0.5,-0.7,-1.2,-0.5,-0.4,-1.0,1.0*4F
$GPGRS,201552.00,1,-1.9,,,,,,,,,,,*44
$GPGSV,6,1,22,27,79,299,50,15,13,041,39,26,17,187,39,21,17,263,36*7A
$GPGSV,6,2,22,18,23,069,43,08,42,302,45,16,43,204,47,10,63,154,51*76
$GPGSV,6,3,22,23,53,065,46,13,01,013,25,07,05,301,36,30,02,332,36*7F
$GPGSV,6,4,22,32,01,148,,36,35,170,44,58,13,245,37,57,11,108,38*7B
$GPGSV,6,5,22,34,31,208,42,40,24,133,36,49,34,195,44,41,07,108,33*79
$GPGSV,6,6,22,61,03,257,38*46
$GLGSV,3,1,10,83,63,028,41,68,32,127,48,75,10,343,,82,29,073,47*61
$GLGSV,3,2,10,73,30,239,48,84,31,286,39,74,37,294,45,67,39,064,50*6B
$GLGSV,3,3,10,66,10,016,44,69,01,164,*6F
$GAGSV,3,1,11,13,65,051,47,31,12,324,39,15,13,067,39,08,16,098,39*6B
$GAGSV,3,2,11,03,14,048,38,21,42,201,46,23,49,282,,26,55,262,47*69
$GAGSV,3,3,11,27,02,167,,07,00,144,,33,08,252,38*5F
$GBGSV,6,1,24,28,76,315,51,57,14,225,,38,11,039,39,60,11,108,40*60
$GBGSV,6,2,24,05,23,128,39,50,18,040,,11,13,094,40,08,25,038,38*60
$GBGSV,6,3,24,46,23,295,,37,20,238,43,33,40,133,47,31,22,057,*6B
$GBGSV,6,4,24,13,32,043,43,58,31,290,,27,31,285,46,30,30,278,*6F
$GBGSV,6,5,24,42,35,062,46,43,35,095,47,14,44,096,46,02,08,105,34*67
$GBGSV,6,6,24,21,02,024,37,41,09,176,,36,02,340,,10,04,129,*6D
$GPGGA,201552.00,,,,,0,00,,,M,,M,,*49
$PTNL,GGK,201552.00,010125,4742.1604900,N,01618.1003602,E,1,38,0.8,EHT751.4023,M*49
$GPGGQ,201552.00,010125,4742.1604900,N,01618.1003602,E,1,38,0.880,708.1958,M*33
$GPGFA,201552.00,3.926,5.794,0.413,0.324,329.218,0.707,,VVV*03
$GPLLK,201552.00,010125,,M,,M,1,38,0.9,,M*08
$GNGMP,201552.00,,,,,DAAA,38,0.4,,,,*58
$GPGMP,201552.00,,,,,,09,,,,3.8,136*7A
$GLGMP,201552.00,,,,,,08,,,,,*76
$GAGMP,201552.00,,,,,,08,,,,,*7B
$GBGMP,201552.00,,,,,,13,,,,,*72
$PSSN,SNC,[0,332170000,2347]*40
$GPZDA,201557.00,01,01,2025,,*67
$GPDTM,W84,,00.0000000,N,00.0000000,E,00.0000000,W84*5F
$PSSN,TFM,201557.00,,,,*6B
$GPRMC,201557.00,A,4742.1604891,N,01618.1003596,E,0.0,,010125,5.1,E,D*19
$GPGLL,4742.1604891,N,01618.1003596,E,201557.00,A,D*68
$GPGGA,201557.00,4742.1604891,N,01618.1003596,E,2,38,0.4,708.1939,M,43.2066,M,1.7,0136*40
$GNGNS,201557.00,4742.1604891,N,01618.1003596,E,DAAA,38,0.4,708.1939,43.2066,,*5E
$GPGNS,201557.00,,,,,,09,,,,1.7,136*72
$GLGNS,201557.00,,,,,,08,,,,,*73
$GAGNS,201557.00,,,,,,08,,,,,*7E
$GBGNS,201557.00,,,,,,13,,,,,*77
$GPLLQ,201557.00,010125,,M,,M,1,38,0.877,,M*16
$GPVTG,,T,,M,0.00,N,0.00,K,D*26
$GPHDT,,T*1B
$GPTHS,,V*0E
$GPROT,,V*08
$PSSN,HRP,201557.00,010125,,,,,,,00,0,,*65
$PTNL,AVR,201557.00,,Yaw,,Tilt,,,,0,,00*33
$GPGSA,A,3,08,10,15,16,18,21,23,26,27,,,,0.8,0.4,0.7*39
$GPGSA,A,3,66,67,68,73,74,82,83,84,,,,,0.8,0.4,0.7*3C
$GPGSA,A,3,03,08,13,15,21,26,31,33,,,,,0.8,0.4,0.7*31
$GPGSA,A,3,05,08,11,13,14,27,28,33,37,38,42,43,0.8,0.4,0.7*32
$GPGSA,A,3,60,,,,,,,,,,,,0.8,0.4,0.7*3F
$GPGST,201557.00,2.354,0.416,0.322,328.565,0.393,0.350,0.702*56
$GPGBS,201557.00,2.253,2.053,4.284,68,0.0001,5.947,6.156*57
$GPGRS,201557.00,1,0.1,0.1,0.6,0.1,-0.5,0.4,0.2,-0.7,-0.2,,,*48
$GPGRS,201557.00,1,-4.5,5.7,5.9,5.1,-4.5,-0.9,-3.7,-2.1,,,,*63
$GPGRS,201557.00,1,-0.2,-0.8,-0.2,-0.5,0.0,-0.4,0.2,0.7,,,,*6B
$GPGRS,201557.00,1,2.0,0.1,-0.9,0.8,1.3,-0.5,-0.5,-0.5,-1.0,-0.2,-1.1,0.9*68
$GPGRS,201557.00,1,-2.1,,,,,,,,,,,*4A
$GPGSV,6,1,22,27,79,299,51,15,13,041,39,26,17,187,40,21,17,263,37*74
$GPGSV,6,2,22,18,23,069,43,08,42,302,45,16,43,204,47,10,63,154,51*76
$GPGSV,6,3,22,23,53,065,46,13,01,013,26,07,05,301,38,30,02,332,37*73
$GPGSV,6,4,22,32,01,148,,36,35,170,44,58,13,245,37,57,11,108,38*7B
$GPGSV,6,5,22,34,31,208,42,40,24,133,36,49,34,195,44,41,07,108,33*79
$GPGSV,6,6,22,61,03,257,38*46
$GLGSV,3,1,10,83,63,028,40,68,32,127,49,75,10,343,,82,29,074,47*66
$GLGSV,3,2,10,73,30,239,48,84,31,286,39,74,37,294,45,67,39,064,50*6B
$GLGSV,3,3,10,66,09,016,44,69,01,164,*67
$GAGSV,3,1,11,13,65,051,47,31,12,324,39,15,13,067,39,08,16,098,39*6B
$GAGSV,3,2,11,03,14,048,38,21,42,201,45,23,49,282,,26,55,262,47*6A
$GAGSV,3,3,11,27,02,167,,07,00,144,,33,08,252,37*50
$GBGSV,6,1,24,28,76,315,51,57,14,225,,38,11,039,39,60,11,108,40*60
$GBGSV,6,2,24,05,23,128,39,50,18,040,,11,13,094,40,08,25,038,38*60
$GBGSV,6,3,24,46,23,295,,37,20,238,43,33,40,133,47,31,22,058,*64
$GBGSV,6,4,24,13,32,043,43,58,31,290,,27,31,285,46,30,30,278,*6F
$GBGSV,6,5,24,42,35,062,46,43,35,095,47,14,44,096,46,02,08,105,34*67
$GBGSV,6,6,24,21,02,024,37,41,09,176,,36,02,340,,10,04,129,*6D
$GPGGA,201557.00,,,,,0,00,,,M,,M,,*4C
$PTNL,GGK,201557.00,010125,4742.1604891,N,01618.1003596,E,1,38,0.8,EHT751.4004,M*4E
$GPGGQ,201557.00,010125,4742.1604891,N,01618.1003596,E,1,38,0.877,708.1939,M*3E
$GPGFA,201557.00,3.955,5.755,0.416,0.322,328.565,0.702,,VVV*05
$GPLLK,201557.00,010125,,M,,M,1,38,0.9,,M*0D
$GNGMP,201557.00,,,,,DAAA,38,0.4,,,,*5D
$GPGMP,201557.00,,,,,,09,,,,1.7,136*72
$GLGMP,201557.00,,,,,,08,,,,,*73
$GAGMP,201557.00,,,,,,08,,,,,*7E
$GBGMP,201557.00,,,,,,13,,,,,*77
$PSSN,SNC,[0,332175000,2347]*45
$GPZDA,201602.00,01,01,2025,,*64
$GPDTM,W84,,00.0000000,N,00.0000000,E,00.0000000,W84*5F
$PSSN,TFM,201602.00,,,,*68
$GPRMC,201602.00,A,4742.1604871,N,01618.1003633,E,0.0,,010125,5.1,E,D*18
$GPGLL,4742.1604871,N,01618.1003633,E,201602.00,A,D*69
$GPGGA,201602.00,4742.1604871,N,01618.1003633,E,2,38,0.4,708.1943,M,43.2066,M,1.8,0136*43
$GNGNS,201602.00,4742.1604871,N,01618.1003633,E,DAAA,38,0.4,708.1943,43.2066,,*52
$GPGNS,201602.00,,,,,,09,,,,1.8,136*7E
$GLGNS,201602.00,,,,,,08,,,,,*70
$GAGNS,201602.00,,,,,,08,,,,,*7D
$GBGNS,201602.00,,,,,,13,,,,,*74
$GPLLQ,201602.00,010125,,M,,M,1,38,0.860,,M*13
$GPVTG,,T,,M,0.00,N,0.00,K,D*26
$GPHDT,,T*1B
$GPTHS,,V*0E
$GPROT,,V*08
$PSSN,HRP,201602.00,010125,,,,,,,00,0,,*66
$PTNL,AVR,201602.00,,Yaw,,Tilt,,,,0,,00*30
$GPGSA,A,3,08,10,15,16,18,21,23,26,27,,,,0.8,0.4,0.7*39
$GPGSA,A,3,66,67,68,73,74,82,83,84,,,,,0.8,0.4,0.7*3C
$GPGSA,A,3,03,08,13,15,21,26,31,33,,,,,0.8,0.4,0.7*31
$GPGSA,A,3,05,08,11,13,14,27,28,33,37,38,42,43,0.8,0.4,0.7*32
$GPGSA,A,3,60,,,,,,,,,,,,0.8,0.4,0.7*3F
$GPGST,201602.00,2.477,0.409,0.316,328.160,0.385,0.344,0.687*55
$GPGBS,201602.00,2.213,2.072,4.202,68,0.0001,6.343,6.156*50
$GPGRS,201602.00,1,0.1,-0.0,0.3,-0.2,-0.6,0.7,0.1,-0.6,0.1,,,*60
$GPGRS,201602.00,1,-5.4,5.8,6.3,5.8,-4.8,-1.0,-3.4,-1.1,,,,*6A
$GPGRS,201602.00,1,-0.2,-0.5,-0.3,-0.6,-0.2,-0.4,0.1,0.4,,,,*48
$GPGRS,201602.00,1,1.9,-0.0,-0.6,0.8,1.6,-0.6,-0.8,0.1,-0.9,-0.5,-0.6,0.5*65
$GPGRS,201602.00,1,-2.1,,,,,,,,,,,*49
$GPGSV,6,1,22,27,79,298,51,15,13,041,40,26,17,187,40,21,17,263,37*7B
$GPGSV,6,2,22,18,23,069,42,08,42,302,46,16,42,204,47,10,63,154,51*75
$GPGSV,6,3,22,23,53,065,46,13,01,013,27,07,05,301,37,30,02,332,36*7C
$GPGSV,6,4,22,32,01,148,,36,35,170,44,58,13,245,37,57,11,108,37*74
$GPGSV,6,5,22,34,31,208,42,40,24,133,36,49,34,195,43,41,07,108,33*7E
$GPGSV,6,6,22,61,03,257,38*46
$GLGSV,3,1,10,83,63,029,41,68,32,127,49,75,10,343,,82,29,074,47*66
$GLGSV,3,2,10,73,30,239,48,84,31,286,39,74,37,294,45,67,39,064,50*6B
$GLGSV,3,3,10,66,09,016,44,69,01,164,*67
$GAGSV,3,1,11,13,65,051,47,31,12,324,39,15,13,067,38,08,16,098,39*6A
$GAGSV,3,2,11,03,14,048,38,21,42,201,45,23,49,282,,26,55,262,47*6A
$GAGSV,3,3,11,27,02,167,,07,01,144,,33,08,252,37*51
$GBGSV,6,1,24,28,76,315,51,57,14,225,,38,11,039,39,60,11,108,40*60
$GBGSV,6,2,24,05,23,128,39,50,18,040,,11,13,094,40,08,25,038,38*60
$GBGSV,6,3,24,46,23,295,,37,20,238,43,33,40,133,47,31,22,058,*64
$GBGSV,6,4,24,13,32,043,43,58,31,290,,27,31,285,46,30,30,278,*6F
$GBGSV,6,5,24,42,35,061,46,43,35,095,47,14,44,096,46,02,08,105,34*64
$GBGSV,6,6,24,21,02,024,37,41,09,176,,36,02,340,,10,04,129,*6D
$GPGGA,201602.00,,,,,0,00,,,M,,M,,*4F
$PTNL,GGK,201602.00,010125,4742.1604871,N,01618.1003633,E,1,38,0.8,EHT751.4009,M*42
$GPGGQ,201602.00,010125,4742.1604871,N,01618.1003633,E,1,38,0.860,708.1943,M*34
$GPGFA,201602.00,3.884,5.636,0.409,0.316,328.160,0.687,,VVV*0B
$GPLLK,201602.00,010125,,M,,M,1,38,0.9,,M*0E
$GNGMP,201602.00,,,,,DAAA,38,0.4,,,,*5E
$GPGMP,201602.00,,,,,,09,,,,1.8,136*7E
$GLGMP,201602.00,,,,,,08,,,,,*70
$GAGMP,201602.00,,,,,,08,,,,,*7D
$GBGMP,201602.00,,,,,,13,,,,,*74
$PSSN,SNC,[0,332180000,2347]*4F
$GPZDA,201607.00,01,01,2025,,*61
$GPDTM,W84,,00.0000000,N,00.0000000,E,00.0000000,W84*5F
$PSSN,TFM,201607.00,,,,*6D
$GPRMC,201607.00,A,4742.1604857,N,01618.1003651,E,0.0,,010125,5.1,E,D*1D
$GPGLL,4742.1604857,N,01618.1003651,E,201607.00,A,D*6C
$GPGGA,201607.00,4742.1604857,N,01618.1003651,E,2,38,0.4,708.1918,M,43.2066,M,2.8,0136*4B
$GNGNS,201607.00,4742.1604857,N,01618.1003651,E,DAAA,38,0.4,708.1918,43.2066,,*59
$GPGNS,201607.00,,,,,,09,,,,2.8,136*78
$GLGNS,201607.00,,,,,,08,,,,,*75
$GAGNS,201607.00,,,,,,08,,,,,*78
$GBGNS,201607.00,,,,,,13,,,,,*71
$GPLLQ,201607.00,010125,,M,,M,1,38,0.876,,M*11
$GPVTG,,T,,M,0.00,N,0.00,K,D*26
$GPHDT,,T*1B
$GPTHS,,V*0E
$GPROT,,V*08
$PSSN,HRP,201607.00,010125,,,,,,,00,0,,*63
$PTNL,AVR,201607.00,,Yaw,,Tilt,,,,0,,00*35
$GPGSA,A,3,08,10,15,16,18,21,23,26,27,,,,0.8,0.4,0.7*39
$GPGSA,A,3,66,67,68,73,74,82,83,84,,,,,0.8,0.4,0.7*3C
$GPGSA,A,3,03,08,13,15,21,26,31,33,,,,,0.8,0.4,0.7*31
$GPGSA,A,3,05,08,11,13,14,27,28,33,37,38,42,43,0.8,0.4,0.7*32
$GPGSA,A,3,60,,,,,,,,,,,,0.8,0.4,0.7*3F
$GPGST,201607.00,2.463,0.410,0.323,329.459,0.390,0.348,0.703*50
$GPGBS,201607.00,2.263,2.097,4.243,68,0.0001,7.050,6.156*5C
$GPGRS,201607.00,1,0.1,0.0,0.9,-0.2,-0.7,0.7,0.2,-0.9,0.0,,,*4E
$GPGRS,201607.00,1,-5.1,5.7,7.0,5.3,-4.5,-1.1,-3.2,-2.3,,,,*67
$GPGRS,201607.00,1,0.2,-0.7,-0.2,-0.8,-0.2,-0.2,0.3,0.0,,,,*6D
$GPGRS,201607.00,1,1.9,-0.5,-0.1,1.1,0.7,-0.4,-1.0,-0.2,-0.3,-0.8,-0.6,0.6*4B
$GPGRS,201607.00,1,-1.8,,,,,,,,,,,*46
$GPGSV,6,1,22,27,79,298,51,15,13,040,40,26,17,187,40,21,17,263,37*7A
$GPGSV,6,2,22,18,23,069,42,08,42,302,46,16,42,204,47,10,63,154,51*75
$GPGSV,6,3,22,23,52,065,47,13,01,013,26,07,05,301,38,30,02,332,36*72
$GPGSV,6,4,22,32,01,148,,36,35,170,44,58,13,245,37,57,11,108,37*74
$GPGSV,6,5,22,34,31,208,42,40,24,133,35,49,34,195,43,41,07,108,33*7D
$GPGSV,6,6,22,61,03,257,38*46
$GLGSV,3,1,10,83,63,029,41,68,32,127,49,75,10,343,,82,29,074,47*66
$GLGSV,3,2,10,73,30,239,49,84,31,286,39,74,37,294,45,67,39,063,50*6D
$GLGSV,3,3,10,66,09,016,44,69,01,164,*67
$GAGSV,3,1,11,13,65,051,47,31,12,324,39,15,13,067,38,08,16,098,39*6A
$GAGSV,3,2,11,03,14,048,38,21,42,201,46,23,49,282,,26,55,262,47*69
$GAGSV,3,3,11,27,02,167,,07,01,144,,33,08,252,37*51
$GBGSV,6,1,24,28,76,315,51,57,15,225,,38,11,039,39,60,11,108,40*61
$GBGSV,6,2,24,05,23,128,39,50,18,040,,11,13,094,40,08,25,038,38*60
$GBGSV,6,3,24,46,23,295,,37,20,238,43,33,40,133,47,31,22,058,*64
$GBGSV,6,4,24,13,32,043,43,58,31,290,,27,31,285,46,30,30,278,*6F
$GBGSV,6,5,24,42,35,061,46,43,35,095,47,14,44,096,46,02,08,105,34*64
$GBGSV,6,6,24,21,02,024,38,41,09,176,,36,02,340,,10,04,129,*62
$GPGGA,201607.00,,,,,0,00,,,M,,M,,*4A
$PTNL,GGK,201607.00,010125,4742.1604857,N,01618.1003651,E,1,38,0.8,EHT751.3983,M*4B
$GPGGQ,201607.00,010125,4742.1604857,N,01618.1003651,E,1,38,0.876,708.1918,M*38
$GPGFA,201607.00,3.902,5.763,0.410,0.323,329.459,0.703,,VVV*0D
$GPLLK,201607.00,010125,,M,,M,1,38,0.9,,M*0B
$GNGMP,201607.00,,,,,DAAA,38,0.4,,,,*5B
$GPGMP,201607.00,,,,,,09,,,,2.8,136*78
$GLGMP,201607.00,,,,,,08,,,,,*75
$GAGMP,201607.00,,,,,,08,,,,,*78
$GBGMP,201607.00,,,,,,13,,,,,*71
$PSSN,SNC,[0,332185000,2347]*4A
$GPZDA,201612.00,01,01,2025,,*65
$GPDTM,W84,,00.0000000,N,00.0000000,E,00.0000000,W84*5F
$PSSN,TFM,201612.00,,,,*69
$GPRMC,201612.00,A,4742.1604834,N,01618.1003678,E,0.0,,010125,5.1,E,D*17
$GPGLL,4742.1604834,N,01618.1003678,E,201612.00,A,D*66
$GPGGA,201612.00,4742.1604834,N,01618.1003678,E,2,38,0.4,708.1924,M,43.2066,M,3.8,0136*4F
$GNGNS,201612.00,4742.1604834,N,01618.1003678,E,DAAA,38,0.4,708.1924,43.2066,,*5C
$GPGNS,201612.00,,,,,,09,,,,3.8,136*7D
$GLGNS,201612.00,,,,,,08,,,,,*71
$GAGNS,201612.00,,,,,,08,,,,,*7C
$GBGNS,201612.00,,,,,,13,,,,,*75
$GPLLQ,201612.00,010125,,M,,M,1,38,0.879,,M*1A
$GPVTG,,T,,M,0.00,N,0.00,K,D*26
$GPHDT,,T*1B
$GPTHS,,V*0E
$GPROT,,V*08
$PSSN,HRP,201612.00,010125,,,,,,,00,0,,*67
$PTNL,AVR,201612.00,,Yaw,,Tilt,,,,0,,00*31
$GPGSA,A,3,08,10,15,16,18,21,23,26,27,,,,0.8,0.4,0.7*39
$GPGSA,A,3,66,67,68,73,74,82,83,84,,,,,0.8,0.4,0.7*3C
$GPGSA,A,3,03,08,13,15,21,26,31,33,,,,,0.8,0.4,0.7*31
$GPGSA,A,3,05,08,11,13,14,27,28,33,37,38,42,43,0.8,0.4,0.7*32
$GPGSA,A,3,60,,,,,,,,,,,,0.8,0.4,0.7*3F
$GPGST,201612.00,2.335,0.413,0.324,329.300,0.392,0.349,0.705*5A
$GPGBS,201612.00,2.320,2.128,4.295,21,0.0001,1.010,0.950*57
$GPGRS,201612.00,1,0.1,-0.1,0.6,-0.2,-0.5,1.0,0.2,-0.6,-0.2,,,*4D
$GPGRS,201612.00,1,-4.4,5.8,6.3,5.2,-4.1,-1.3,-3.7,-1.8,,,,*60
$GPGRS,201612.00,1,-0.1,-0.5,-0.1,-0.5,0.0,-0.2,0.5,0.4,,,,*66
$GPGRS,201612.00,1,1.7,0.2,-0.0,0.9,0.7,-0.4,-0.9,-0.2,-1.0,-0.6,-0.8,0.4*6B
$GPGRS,201612.00,1,-1.8,,,,,,,,,,,*42
$GPGSV,6,1,22,27,79,298,51,15,13,040,40,26,17,187,40,21,17,263,38*75
$GPGSV,6,2,22,18,23,069,42,08,42,302,46,16,42,204,47,10,63,154,51*75
$GPGSV,6,3,22,23,52,065,47,13,01,013,23,07,05,301,38,30,02,332,36*77
$GPGSV,6,4,22,32,01,148,,36,35,170,44,58,13,245,37,57,11,108,38*7B
$GPGSV,6,5,22,34,31,208,42,40,24,133,35,49,34,195,43,41,07,108,33*7D
$GPGSV,6,6,22,61,03,257,38*46
$GLGSV,3,1,10,83,63,029,41,68,32,127,48,75,10,343,,82,29,074,47*67
$GLGSV,3,2,10,73,30,238,49,84,31,286,39,74,37,294,45,67,39,063,50*6C
$GLGSV,3,3,10,66,09,016,43,69,01,164,*60
$GAGSV,3,1,11,13,65,051,47,31,12,324,39,15,13,067,37,08,16,098,39*65
$GAGSV,3,2,11,03,14,048,38,21,42,201,46,23,49,282,,26,55,262,47*69
$GAGSV,3,3,11,27,02,167,,07,01,144,,33,08,252,38*5E
$GBGSV,6,1,24,28,76,315,51,57,15,225,,38,11,039,39,60,11,108,40*61
$GBGSV,6,2,24,05,23,128,39,50,18,040,,11,13,094,40,08,25,038,38*60
$GBGSV,6,3,24,46,23,295,,37,20,238,43,33,40,133,47,31,22,058,*64
$GBGSV,6,4,24,13,32,043,43,58,31,290,,27,31,285,46,30,30,278,*6F
$GBGSV,6,5,24,42,35,061,46,43,35,095,47,14,44,096,46,02,08,105,34*64
$GBGSV,6,6,24,21,02,024,37,41,09,176,,36,02,340,,10,04,130,*65
$GPGGA,201612.00,,,,,0,00,,,M,,M,,*4E
$PTNL,GGK,201612.00,010125,4742.1604834,N,01618.1003678,E,1,38,0.8,EHT751.3989,M*4B
$GPGGQ,201612.00,010125,4742.1604834,N,01618.1003678,E,1,38,0.879,708.1924,M*32
$GPGFA,201612.00,3.926,5.780,0.413,0.324,329.300,0.705,,VVV*0B
$GPLLK,201612.00,010125,,M,,M,1,38,0.9,,M*0F
$GNGMP,201612.00,,,,,DAAA,38,0.4,,,,*5F
$GPGMP,201612.00,,,,,,09,,,,3.8,136*7D
$GLGMP,201612.00,,,,,,08,,,,,*71
$GAGMP,201612.00,,,,,,08,,,,,*7C
$GBGMP,201612.00,,,,,,13,,,,,*75
$PSSN,SNC,[0,332190000,2347]*4E
$GPZDA,201617.00,01,01,2025,,*60
$GPDTM,W84,,00.0000000,N,00.0000000,E,00.0000000,W84*5F
$PSSN,TFM,201617.00,,,,*6C
$GPRMC,201617.00,A,4742.1604821,N,01618.1003718,E,0.0,,010125,5.1,E,D*11
$GPGLL,4742.1604821,N,01618.1003718,E,201617.00,A,D*60
$GPGGA,201617.00,4742.1604821,N,01618.1003718,E,2,38,0.4,708.1958,M,43.2066,M,1.7,0136*4F
$GNGNS,201617.00,4742.1604821,N,01618.1003718,E,DAAA,38,0.4,708.1958,43.2066,,*51
$GPGNS,201617.00,,,,,,09,,,,1.7,136*75
$GLGNS,201617.00,,,,,,08,,,,,*74
$GAGNS,201617.00,,,,,,08,,,,,*79
$GBGNS,201617.00,,,,,,13,,,,,*70
$GPLLQ,201617.00,010125,,M,,M,1,38,0.880,,M*19
$GPVTG,,T,,M,0.00,N,0.00,K,D*26
$GPHDT,,T*1B
$GPTHS,,V*0E
$GPROT,,V*08
$PSSN,HRP,201617.00,010125,,,,,,,00,0,,*62
$PTNL,AVR,201617.00,,Yaw,,Tilt,,,,0,,00*34
$GPGSA,A,3,08,10,15,16,18,21,23,26,27,,,,0.8,0.4,0.7*39
$GPGSA,A,3,66,67,68,73,74,82,83,84,,,,,0.8,0.4,0.7*3C
