$GPZDA,035942.00,01,01,2025,,*6A
$GPDTM,W84,,00.0000000,N,00.0000000,E,00.0000000,W84*5F
$PSSN,TFM,035942.00,,,,*66
$GPRMC,035942.00,A,4742.1603062,N,01618.1003175,E,0.0,,010125,5.1,E,D*1E
$GPGLL,4742.1603062,N,01618.1003175,E,035942.00,A,D*6F
$GPGGA,035942.00,4742.1603062,N,01618.1003175,E,2,42,0.4,708.3779,M,43.2066,M,3.0,0136*47
$GNGNS,035942.00,4742.1603062,N,01618.1003175,E,DAAA,42,0.4,708.3779,43.2066,,*5C
$GPGNS,035942.00,,,,,,10,,,,3.0,136*72
$GLGNS,035942.00,,,,,,08,,,,,*7E
$GAGNS,035942.00,,,,,,09,,,,,*72
$GBGNS,035942.00,,,,,,15,,,,,*7C
$GPLLQ,035942.00,010125,,M,,M,1,42,0.827,,M*13
$GPVTG,,T,,M,0.01,N,0.01,K,D*26
$GPHDT,,T*1B
$GPTHS,,V*0E
$GPROT,,V*08
$PSSN,HRP,035942.00,010125,,,,,,,00,0,,*68
$PTNL,AVR,035942.00,,Yaw,,Tilt,,,,0,,00*3E
$GPGSA,A,3,03,04,06,07,09,11,16,20,26,30,,,0.7,0.4,0.6*3A
$GPGSA,A,3,70,71,72,79,80,85,86,87,,,,,0.7,0.4,0.6*39
$GPGSA,A,3,03,04,05,06,09,15,31,34,36,,,,0.7,0.4,0.6*3E
$GPGSA,A,3,02,05,06,09,12,16,19,20,22,35,36,37,0.7,0.4,0.6*36
$GPGSA,A,3,39,44,60,,,,,,,,,,0.7,0.4,0.6*3B
$GPGST,035942.00,1.810,0.377,0.327,12.994,0.375,0.329,0.659*67
$GPGBS,035942.00,2.521,1.693,4.096,72,0.0001,7.018,6.192*52
$GPGRS,035942.00,1,0.5,-0.1,-0.3,0.2,0.2,0.2,0.1,0.2,-1.5,-0.5,,*40
$GPGRS,035942.00,1,-1.4,1.4,7.0,2.5,-2.7,1.5,-2.7,-4.6,,,,*41
$GPGRS,035942.00,1,-0.5,-0.7,0.2,0.1,0.3,0.4,0.5,-0.1,0.4,,,*42
$GPGRS,035942.00,1,1.4,1.3,0.2,0.2,0.2,-0.2,-0.0,1.7,0.0,-0.6,-1.0,-0.9*65
$GPGRS,035942.00,1,-0.9,-0.1,-1.9,,,,,,,,,*44
$GPGSV,6,1,21,09,83,344,51,16,13,078,38,26,13,048,38,20,13,305,39*74
$GPGSV,6,2,21,03,28,117,44,07,40,180,47,11,32,308,45,04,57,059,47*7B
$GPGSV,6,3,21,06,54,261,49,19,03,240,38,30,09,200,39,31,04,036,39*7D
$GPGSV,6,4,21,36,35,170,45,58,13,245,38,40,24,132,36,34,31,208,43*74
$GPGSV,6,5,21,49,34,195,45,57,08,111,37,41,07,108,35,61,03,257,38*72
$GPGSV,6,6,21*7A
$GLGSV,3,1,09,71,63,322,52,79,12,020,44,72,21,279,48,80,37,072,50*6C
$GLGSV,3,2,09,73,25,136,46,86,42,244,51,87,37,310,47,70,47,061,41*6A
$GLGSV,3,3,09,85,08,197,43*51
$GAGSV,3,1,10,05,65,257,48,15,20,321,40,23,11,042,,31,13,091,38*67
$GAGSV,3,2,10,36,39,188,45,03,14,249,39,06,32,064,43,34,57,272,48*68
$GAGSV,3,3,10,09,56,059,47,04,08,065,37*67
$GBGSV,5,1,20,19,74,055,52,36,18,163,43,05,23,128,38,39,12,040,41*62
$GBGSV,5,2,20,12,23,308,42,16,22,043,41,20,26,089,46,37,22,047,43*61
$GBGSV,5,3,20,44,27,282,45,35,21,231,45,06,24,045,40,58,32,099,*6E
$GBGSV,5,4,20,46,39,109,,09,37,052,42,22,44,287,49,21,44,278,*6A
$GBGSV,5,5,20,48,47,085,,34,08,331,,02,07,106,35,60,08,111,40*6A
$GPGGA,035942.00,,,,,0,00,,,M,,M,,*41
$PTNL,GGK,035942.00,010125,4742.1603062,N,01618.1003175,E,1,42,0.7,EHT751.5844,M*46
$GPGGQ,035942.00,010125,4742.1603062,N,01618.1003175,E,1,42,0.827,708.3779,M*39
$GPGFA,035942.00,3.588,5.406,0.377,0.327,12.994,0.659,,VVV*33
$GPLLK,035942.00,010125,,M,,M,1,42,0.8,,M*0C
$GNGMP,035942.00,,,,,DAAA,42,0.4,,,,*5D
$GPGMP,035942.00,,,,,,10,,,,3.0,136*72
$GLGMP,035942.00,,,,,,08,,,,,*7E
$GAGMP,035942.00,,,,,,09,,,,,*72
$GBGMP,035942.00,,,,,,15,,,,,*7C
$PSSN,SNC,[0,273600000,2347]*44
$GPZDA,035947.00,01,01,2025,,*6F
$GPDTM,W84,,00.0000000,N,00.0000000,E,00.0000000,W84*5F
$PSSN,TFM,035947.00,,,,*63
$GPRMC,035947.00,A,4742.1603081,N,01618.1003165,E,0.0,,010125,5.1,E,D*17
$GPGLL,4742.1603081,N,01618.1003165,E,035947.00,A,D*66
$GPGGA,035947.00,4742.1603081,N,01618.1003165,E,2,42,0.4,708.3763,M,43.2066,M,1.6,0136*41
$GNGNS,035947.00,4742.1603081,N,01618.1003165,E,DAAA,42,0.4,708.3763,43.2066,,*5E
$GPGNS,035947.00,,,,,,10,,,,1.6,136*73
$GLGNS,035947.00,,,,,,08,,,,,*7B
$GAGNS,035947.00,,,,,,09,,,,,*77
$GBGNS,035947.00,,,,,,15,,,,,*79
$GPLLQ,035947.00,010125,,M,,M,1,42,0.824,,M*15
$GPVTG,,T,,M,0.00,N,0.00,K,D*26
$GPHDT,,T*1B
$GPTHS,,V*0E
$GPROT,,V*08
$PSSN,HRP,035947.00,010125,,,,,,,00,0,,*6D
$PTNL,AVR,035947.00,,Yaw,,Tilt,,,,0,,00*3B
$GPGSA,A,3,03,04,06,07,09,11,16,20,26,30,,,0.7,0.4,0.6*3A
$GPGSA,A,3,70,71,72,79,80,85,86,87,,,,,0.7,0.4,0.6*39
$GPGSA,A,3,03,04,05,06,09,15,31,34,36,,,,0.7,0.4,0.6*3E
$GPGSA,A,3,02,05,06,09,12,16,19,20,22,35,36,37,0.7,0.4,0.6*36
$GPGSA,A,3,39,44,60,,,,,,,,,,0.7,0.4,0.6*3B
$GPGST,035947.00,1.778,0.375,0.325,11.804,0.373,0.327,0.658*61
$GPGBS,035947.00,2.527,1.650,4.037,72,0.0001,6.973,6.192*50
$GPGRS,035947.00,1,0.2,-0.0,-0.3,0.3,0.1,0.1,0.8,0.1,-1.2,-0.3,,*49
$GPGRS,035947.00,1,-1.2,0.7,7.0,2.4,-2.5,1.9,-3.3,-4.2,,,,*4E
$GPGRS,035947.00,1,-0.6,-0.6,0.3,-0.1,0.2,0.3,0.2,-0.1,0.5,,,*69
$GPGRS,035947.00,1,0.7,1.2,0.2,0.6,-0.4,-0.6,-0.4,1.7,0.1,-0.7,-1.2,-0.7*40
$GPGRS,035947.00,1,-1.0,0.3,-1.6,,,,,,,,,*69
$GPGSV,6,1,21,09,83,344,51,16,13,078,39,26,13,048,39,20,13,305,40*7A
$GPGSV,6,2,21,03,28,117,44,07,40,180,48,11,32,308,44,04,57,059,47*75
$GPGSV,6,3,21,06,54,261,48,19,03,240,38,30,09,200,39,31,04,036,39*7C
$GPGSV,6,4,21,36,35,170,45,58,13,245,38,40,24,132,36,34,31,208,43*74
$GPGSV,6,5,21,49,34,195,45,57,08,111,37,41,07,108,35,61,03,257,38*72
$GPGSV,6,6,21*7A
$GLGSV,3,1,09,71,63,322,52,79,12,020,43,72,21,279,47,80,37,072,50*64
$GLGSV,3,2,09,73,25,136,45,86,42,244,50,87,37,310,47,70,47,061,41*68
$GLGSV,3,3,09,85,08,197,43*51
$GAGSV,3,1,10,05,65,257,48,15,20,321,40,23,11,042,,31,13,091,39*66
$GAGSV,3,2,10,36,39,188,46,03,14,249,39,06,32,064,43,34,57,272,48*6B
$GAGSV,3,3,10,09,56,059,47,04,08,065,38*68
$GBGSV,5,1,20,19,74,055,52,36,18,163,42,12,23,308,42,39,12,040,40*69
$GBGSV,5,2,20,05,23,128,38,16,22,043,40,20,26,089,46,37,22,047,43*6B
$GBGSV,5,3,20,44,27,282,45,35,21,231,45,06,24,045,39,58,32,099,*60
$GBGSV,5,4,20,46,39,109,,09,37,052,42,22,44,287,49,21,44,278,*6A
$GBGSV,5,5,20,48,47,085,,34,08,331,,02,07,106,35,60,08,111,40*6A
$GPGGA,035947.00,,,,,0,00,,,M,,M,,*44
$PTNL,GGK,035947.00,010125,4742.1603081,N,01618.1003165,E,1,42,0.7,EHT751.5828,M*45
$GPGGQ,035947.00,010125,4742.1603081,N,01618.1003165,E,1,42,0.824,708.3763,M*38
$GPGFA,035947.00,3.567,5.392,0.375,0.325,11.804,0.658,,VVV*37
$GPLLK,035947.00,010125,,M,,M,1,42,0.8,,M*09
$GNGMP,035947.00,,,,,DAAA,42,0.4,,,,*58
$GPGMP,035947.00,,,,,,10,,,,1.6,136*73
$GLGMP,035947.00,,,,,,08,,,,,*7B
$GAGMP,035947.00,,,,,,09,,,,,*77
$GBGMP,035947.00,,,,,,15,,,,,*79
$PSSN,SNC,[0,273605000,2347]*41
$GPZDA,035952.00,01,01,2025,,*6B
$GPDTM,W84,,00.0000000,N,00.0000000,E,00.0000000,W84*5F
$PSSN,TFM,035952.00,,,,*67
$GPRMC,035952.00,A,4742.1603081,N,01618.1003166,E,0.0,,010125,5.1,E,D*10
$GPGLL,4742.1603081,N,01618.1003166,E,035952.00,A,D*61
$GPGGA,035952.00,4742.1603081,N,01618.1003166,E,2,42,0.4,708.3739,M,43.2066,M,2.2,0136*4E
$GNGNS,035952.00,4742.1603081,N,01618.1003166,E,DAAA,42,0.4,708.3739,43.2066,,*56
$GPGNS,035952.00,,,,,,10,,,,2.2,136*70
$GLGNS,035952.00,,,,,,08,,,,,*7F
$GAGNS,035952.00,,,,,,09,,,,,*73
$GBGNS,035952.00,,,,,,15,,,,,*7D
$GPLLQ,035952.00,010125,,M,,M,1,42,0.811,,M*17
$GPVTG,,T,,M,0.00,N,0.00,K,D*26
$GPHDT,,T*1B
$GPTHS,,V*0E
$GPROT,,V*08
$PSSN,HRP,035952.00,010125,,,,,,,00,0,,*69
$PTNL,AVR,035952.00,,Yaw,,Tilt,,,,0,,00*3F
$GPGSA,A,3,03,04,06,07,09,11,16,20,26,30,,,0.7,0.4,0.6*3A
$GPGSA,A,3,70,71,72,79,80,85,86,87,,,,,0.7,0.4,0.6*39
$GPGSA,A,3,03,04,05,06,09,15,31,34,36,,,,0.7,0.4,0.6*3E
$GPGSA,A,3,02,05,06,09,12,16,19,20,22,35,36,37,0.7,0.4,0.6*36
$GPGSA,A,3,39,44,60,,,,,,,,,,0.7,0.4,0.6*3B
$GPGST,035952.00,1.727,0.369,0.320,11.987,0.367,0.322,0.648*6C
$GPGBS,035952.00,2.503,1.676,4.046,72,0.0001,6.837,6.192*51
$GPGRS,035952.00,1,0.1,0.1,-0.3,0.1,0.1,-0.1,0.6,1.0,-0.6,-0.4,,*41
$GPGRS,035952.00,1,-1.5,0.8,6.8,1.9,-2.5,1.5,-3.2,-4.1,,,,*4B
$GPGRS,035952.00,1,-0.2,-0.4,0.4,-0.2,0.4,-0.2,0.2,-0.3,0.5,,,*47
$GPGRS,035952.00,1,0.8,1.5,0.7,0.2,-0.2,-0.5,-0.3,1.4,0.3,-0.5,-0.9,-0.8*49
$GPGRS,035952.00,1,-0.9,0.3,-1.6,,,,,,,,,*65
$GPGSV,6,1,21,09,83,344,51,16,13,078,39,26,13,048,39,20,13,305,40*7A
$GPGSV,6,2,21,03,28,117,43,07,40,180,48,11,32,308,45,06,54,261,48*74
$GPGSV,6,3,21,04,57,059,47,19,03,240,38,30,09,200,38,31,04,036,39*7A
$GPGSV,6,4,21,36,35,170,45,58,13,245,37,40,24,132,36,34,31,208,44*7C
$GPGSV,6,5,21,49,34,195,45,57,08,111,37,41,07,108,35,61,03,257,38*72
$GPGSV,6,6,21*7A
$GLGSV,3,1,09,71,63,322,52,79,12,020,44,72,21,279,48,80,37,071,50*6F
$GLGSV,3,2,09,73,25,136,46,86,42,244,51,87,37,310,47,70,47,061,41*6A
$GLGSV,3,3,09,85,08,197,43*51
$GAGSV,3,1,10,05,65,257,48,15,20,321,40,23,11,042,,31,13,091,39*66
$GAGSV,3,2,10,36,39,188,46,03,14,249,39,06,32,064,43,34,57,272,48*6B
$GAGSV,3,3,10,09,56,059,47,04,08,066,38*6B
$GBGSV,5,1,20,19,74,055,52,36,18,163,42,05,23,128,38,39,12,040,41*63
$GBGSV,5,2,20,12,23,308,41,16,22,043,41,20,26,089,46,37,22,047,43*62
$GBGSV,5,3,20,44,27,281,45,35,21,231,45,06,24,045,39,58,32,099,*63
$GBGSV,5,4,20,46,39,109,,09,37,052,42,22,44,287,49,21,44,278,*6A
$GBGSV,5,5,20,48,47,085,,34,08,331,,02,07,106,35,60,08,111,40*6A
$GPGGA,035952.00,,,,,0,00,,,M,,M,,*40
$PTNL,GGK,035952.00,010125,4742.1603081,N,01618.1003166,E,1,42,0.7,EHT751.5805,M*4D
$GPGGQ,035952.00,010125,4742.1603081,N,01618.1003166,E,1,42,0.811,708.3739,M*36
$GPGFA,035952.00,3.510,5.311,0.369,0.320,11.987,0.648,,VVV*3B
$GPLLK,035952.00,010125,,M,,M,1,42,0.8,,M*0D
$GNGMP,035952.00,,,,,DAAA,42,0.4,,,,*5C
$GPGMP,035952.00,,,,,,10,,,,2.2,136*70
$GLGMP,035952.00,,,,,,08,,,,,*7F
$GAGMP,035952.00,,,,,,09,,,,,*73
$GBGMP,035952.00,,,,,,15,,,,,*7D
$PSSN,SNC,[0,273610000,2347]*45
$GPZDA,035957.00,01,01,2025,,*6E
$GPDTM,W84,,00.0000000,N,00.0000000,E,00.0000000,W84*5F
$PSSN,TFM,035957.00,,,,*62
$GPRMC,035957.00,A,4742.1603077,N,01618.1003189,E,0.0,,010125,5.1,E,D*1D
$GPGLL,4742.1603077,N,01618.1003189,E,035957.00,A,D*6C
$GPGGA,035957.00,4742.1603077,N,01618.1003189,E,2,41,0.4,708.3791,M,43.2066,M,3.2,0136*43
$GNGNS,035957.00,4742.1603077,N,01618.1003189,E,DAAA,41,0.4,708.3791,43.2066,,*5A
$GPGNS,035957.00,,,,,,10,,,,3.2,136*74
$GLGNS,035957.00,,,,,,08,,,,,*7A
$GAGNS,035957.00,,,,,,09,,,,,*76
$GBGNS,035957.00,,,,,,14,,,,,*79
$GPLLQ,035957.00,010125,,M,,M,1,41,0.821,,M*12
$GPVTG,,T,,M,0.00,N,0.00,K,D*26
$GPHDT,,T*1B
$GPTHS,,V*0E
$GPROT,,V*08
$PSSN,HRP,035957.00,010125,,,,,,,00,0,,*6C
$PTNL,AVR,035957.00,,Yaw,,Tilt,,,,0,,00*3A
$GPGSA,A,3,03,04,06,07,09,11,16,20,26,30,,,0.7,0.4,0.6*3A
$GPGSA,A,3,70,71,72,79,80,85,86,87,,,,,0.7,0.4,0.6*39
$GPGSA,A,3,03,04,05,06,09,15,31,34,36,,,,0.7,0.4,0.6*3E
$GPGSA,A,3,05,06,09,12,16,19,20,22,35,36,37,39,0.7,0.4,0.6*3E
$GPGSA,A,3,44,60,,,,,,,,,,,0.7,0.4,0.6*31
$GPGST,035957.00,1.864,0.373,0.324,11.394,0.371,0.326,0.656*6A
$GPGBS,035957.00,2.519,1.703,4.102,72,0.0001,7.579,6.192*5B
$GPGRS,035957.00,1,-0.2,-0.1,-0.2,0.2,0.1,0.4,0.3,0.6,-0.9,-0.2,,*66
$GPGRS,035957.00,1,-2.1,1.1,7.6,2.2,-2.6,1.6,-3.3,-4.0,,,,*46
$GPGRS,035957.00,1,-0.4,-0.4,0.4,-0.0,0.5,-0.3,0.9,-0.2,0.3,,,*4A
$GPGRS,035957.00,1,1.6,0.4,0.3,-0.0,-0.1,-0.2,1.6,-0.0,-0.1,-0.1,-0.8,-0.6*49
$GPGRS,035957.00,1,0.2,-2.1,,,,,,,,,,*6F
$GPGSV,6,1,21,09,83,345,51,16,13,078,39,26,13,048,39,20,13,305,40*7B
$GPGSV,6,2,21,03,28,117,43,07,40,180,48,11,32,308,45,06,54,261,49*75
$GPGSV,6,3,21,04,57,059,47,19,03,240,37,30,09,200,38,31,04,036,39*75
$GPGSV,6,4,21,36,35,170,45,58,13,245,38,40,24,132,36,34,31,208,43*74
$GPGSV,6,5,21,49,34,195,45,57,08,111,38,41,07,108,35,61,03,257,38*7D
$GPGSV,6,6,21*7A
$GLGSV,3,1,09,71,63,322,52,79,12,020,45,72,21,279,47,80,37,071,50*61
$GLGSV,3,2,09,73,25,136,45,86,42,244,50,87,37,310,47,70,47,061,41*68
$GLGSV,3,3,09,85,08,197,42*50
$GAGSV,3,1,10,05,65,257,48,15,20,321,40,23,11,042,,31,13,091,39*66
$GAGSV,3,2,10,36,39,188,46,03,14,249,39,06,32,064,44,34,57,271,48*6F
$GAGSV,3,3,10,09,56,059,47,04,08,066,38*6B
$GBGSV,5,1,20,19,74,055,52,36,18,163,42,05,23,128,38,39,12,040,40*62
$GBGSV,5,2,20,12,23,308,41,16,22,043,41,20,26,089,45,37,22,047,43*61
$GBGSV,5,3,20,44,27,281,45,35,21,231,45,06,24,045,39,58,32,099,*63
$GBGSV,5,4,20,46,39,109,,09,37,052,42,22,44,287,49,21,44,278,*6A
$GBGSV,5,5,20,48,47,085,,34,08,331,,02,07,106,35,60,08,111,40*6A
$GPGGA,035957.00,,,,,0,00,,,M,,M,,*45
$PTNL,GGK,035957.00,010125,4742.1603077,N,01618.1003189,E,1,41,0.7,EHT751.5857,M*44
$GPGGQ,035957.00,010125,4742.1603077,N,01618.1003189,E,1,41,0.821,708.3791,M*39
$GPGFA,035957.00,3.545,5.378,0.373,0.324,11.394,0.656,,VVV*39
$GPLLK,035957.00,010125,,M,,M,1,41,0.8,,M*0B
$GNGMP,035957.00,,,,,DAAA,41,0.4,,,,*5A
$GPGMP,035957.00,,,,,,10,,,,3.2,136*74
$GLGMP,035957.00,,,,,,08,,,,,*7A
$GAGMP,035957.00,,,,,,09,,,,,*76
$GBGMP,035957.00,,,,,,14,,,,,*79
$PSSN,SNC,[0,273615000,2347]*40
$GPZDA,040002.00,01,01,2025,,*65
$GPDTM,W84,,00.0000000,N,00.0000000,E,00.0000000,W84*5F
$PSSN,TFM,040002.00,,,,*69
$GPRMC,040002.00,A,4742.1603072,N,01618.1003218,E,0.0,,010125,5.1,E,D*18
$GPGLL,4742.1603072,N,01618.1003218,E,040002.00,A,D*69
$GPGGA,040002.00,4742.1603072,N,01618.1003218,E,2,42,0.4,708.3742,M,43.2066,M,3.0,0136*49
$GNGNS,040002.00,4742.1603072,N,01618.1003218,E,DAAA,42,0.4,708.3742,43.2066,,*52
$GPGNS,040002.00,,,,,,10,,,,3.0,136*7D
$GLGNS,040002.00,,,,,,08,,,,,*71
$GAGNS,040002.00,,,,,,09,,,,,*7D
$GBGNS,040002.00,,,,,,15,,,,,*73
$GPLLQ,040002.00,010125,,M,,M,1,42,0.831,,M*1B
$GPVTG,,T,,M,0.00,N,0.00,K,D*26
$GPHDT,,T*1B
$GPTHS,,V*0E
$GPROT,,V*08
$PSSN,HRP,040002.00,010125,,,,,,,00,0,,*67
$PTNL,AVR,040002.00,,Yaw,,Tilt,,,,0,,00*31
$GPGSA,A,3,03,04,06,07,09,11,16,20,26,30,,,0.7,0.4,0.6*3A
$GPGSA,A,3,70,71,72,79,80,85,86,87,,,,,0.7,0.4,0.6*39
$GPGSA,A,3,03,04,05,06,09,15,31,34,36,,,,0.7,0.4,0.6*3E
$GPGSA,A,3,02,05,06,09,12,16,19,20,22,35,36,37,0.7,0.4,0.6*36
$GPGSA,A,3,39,44,60,,,,,,,,,,0.7,0.4,0.6*3B
$GPGST,040002.00,1.777,0.378,0.328,11.269,0.376,0.330,0.664*69
$GPGBS,040002.00,2.520,1.695,4.125,26,0.0001,-1.530,1.340*7C
$GPGRS,040002.00,1,0.5,0.0,-0.2,0.2,0.0,0.3,0.5,0.4,-1.5,-0.5,,*63
$GPGRS,040002.00,1,-1.4,0.9,6.6,3.4,-2.3,2.0,-2.9,-4.1,,,,*4E
$GPGRS,040002.00,1,-0.8,-0.8,0.1,-0.0,0.1,-0.4,0.5,-0.0,0.5,,,*4F
$GPGRS,040002.00,1,1.6,1.7,0.1,0.3,-0.6,-0.1,-0.3,1.3,-0.0,-0.6,0.1,-0.5*4F
$GPGRS,040002.00,1,-1.0,0.0,-1.6,,,,,,,,,*60
$GPGSV,6,1,21,09,83,345,51,16,13,078,39,26,13,048,39,20,13,305,40*7B
$GPGSV,6,2,21,03,27,117,43,07,40,180,48,11,33,307,45,06,54,261,49*74
$GPGSV,6,3,21,04,57,059,47,19,03,240,37,30,09,200,38,31,04,036,39*75
$GPGSV,6,4,21,36,35,170,45,58,13,245,38,40,24,132,36,34,31,208,43*74
$GPGSV,6,5,21,49,34,195,45,57,08,111,38,41,07,108,35,61,03,257,38*7D
$GPGSV,6,6,21*7A
$GLGSV,3,1,09,71,63,322,52,79,12,020,45,72,21,279,48,80,38,071,50*61
$GLGSV,3,2,09,73,25,136,46,86,42,244,50,87,37,310,48,70,47,061,41*64
$GLGSV,3,3,09,85,08,197,42*50
$GAGSV,3,1,10,05,65,257,48,15,20,321,40,23,11,042,,31,13,091,39*66
$GAGSV,3,2,10,36,39,188,46,03,14,249,39,06,32,064,44,34,57,271,48*6F
$GAGSV,3,3,10,09,56,059,47,04,08,066,38*6B
$GBGSV,5,1,20,19,74,055,52,36,18,163,43,05,23,128,38,39,12,040,40*63
$GBGSV,5,2,20,12,23,308,41,16,22,043,41,20,26,089,45,37,22,047,43*61
$GBGSV,5,3,20,44,27,281,45,35,21,231,44,06,24,045,39,58,32,099,*62
$GBGSV,5,4,20,46,39,109,,09,37,052,42,22,44,287,49,21,44,278,*6A
$GBGSV,5,5,20,48,47,085,,34,08,331,,02,07,106,35,60,08,111,40*6A
$GPGGA,040002.00,,,,,0,00,,,M,,M,,*4E
$PTNL,GGK,040002.00,010125,4742.1603072,N,01618.1003218,E,1,42,0.7,EHT751.5807,M*47
$GPGGQ,040002.00,010125,4742.1603072,N,01618.1003218,E,1,42,0.831,708.3742,M*30
$GPGFA,040002.00,3.589,5.444,0.378,0.328,11.269,0.664,,VVV*3F
$GPLLK,040002.00,010125,,M,,M,1,42,0.8,,M*03
$GNGMP,040002.00,,,,,DAAA,42,0.4,,,,*52
$GPGMP,040002.00,,,,,,10,,,,3.0,136*7D
$GLGMP,040002.00,,,,,,08,,,,,*71
$GAGMP,040002.00,,,,,,09,,,,,*7D
$GBGMP,040002.00,,,,,,15,,,,,*73
$PSSN,SNC,[0,273620000,2347]*46
$GPZDA,040007.00,01,01,2025,,*60
$GPDTM,W84,,00.0000000,N,00.0000000,E,00.0000000,W84*5F
$PSSN,TFM,040007.00,,,,*6C
$GPRMC,040007.00,A,4742.1603080,N,01618.1003224,E,0.0,,010125,5.1,E,D*1F
$GPGLL,4742.1603080,N,01618.1003224,E,040007.00,A,D*6E
$GPGGA,040007.00,4742.1603080,N,01618.1003224,E,2,41,0.4,708.3757,M,43.2066,M,1.6,0136*4D
$GNGNS,040007.00,4742.1603080,N,01618.1003224,E,DAAA,41,0.4,708.3757,43.2066,,*52
$GPGNS,040007.00,,,,,,10,,,,1.6,136*7C
$GLGNS,040007.00,,,,,,08,,,,,*74
$GAGNS,040007.00,,,,,,09,,,,,*78
$GBGNS,040007.00,,,,,,14,,,,,*77
$GPLLQ,040007.00,010125,,M,,M,1,41,0.824,,M*19
$GPVTG,,T,,M,0.00,N,0.01,K,D*27
$GPHDT,,T*1B
$GPTHS,,V*0E
$GPROT,,V*08
$PSSN,HRP,040007.00,010125,,,,,,,00,0,,*62
$PTNL,AVR,040007.00,,Yaw,,Tilt,,,,0,,00*34
$GPGSA,A,3,03,04,06,07,09,11,16,20,26,30,,,0.7,0.4,0.6*3A
$GPGSA,A,3,70,71,72,79,80,85,86,87,,,,,0.7,0.4,0.6*39
$GPGSA,A,3,03,04,05,06,09,15,31,34,36,,,,0.7,0.4,0.6*3E
$GPGSA,A,3,05,06,09,12,16,19,20,22,35,36,37,39,0.7,0.4,0.6*3E
$GPGSA,A,3,44,60,,,,,,,,,,,0.7,0.4,0.6*31
$GPGST,040007.00,1.623,0.375,0.325,11.391,0.373,0.327,0.658*66
$GPGBS,040007.00,2.519,1.648,4.049,26,0.0001,-1.613,1.347*7D
$GPGRS,040007.00,1,0.4,-0.0,-0.3,0.0,0.0,0.2,0.2,1.1,-1.6,-0.6,,*4B
$GPGRS,040007.00,1,-1.1,0.5,6.0,2.3,-2.5,1.1,-3.2,-3.3,,,,*49
$GPGRS,040007.00,1,-0.7,-1.2,0.1,-0.1,0.2,0.2,0.7,-0.2,0.3,,,*61
$GPGRS,040007.00,1,1.4,0.1,0.5,0.3,-0.1,-0.3,1.3,0.1,-0.8,-0.2,-0.7,-1.2*40
$GPGRS,040007.00,1,0.1,-2.1,,,,,,,,,,*62
$GPGSV,6,1,21,09,83,345,51,16,13,078,39,26,13,048,39,20,13,305,39*75
$GPGSV,6,2,21,03,27,117,43,07,40,180,48,11,33,307,45,06,54,261,48*75
$GPGSV,6,3,21,04,57,059,47,19,03,240,36,30,09,200,38,31,04,036,38*75
$GPGSV,6,4,21,36,35,170,45,58,13,245,38,40,24,132,36,34,31,208,44*73
$GPGSV,6,5,21,49,34,195,45,57,08,111,38,41,07,108,35,61,03,257,38*7D
$GPGSV,6,6,21*7A
$GLGSV,3,1,09,71,63,323,52,79,12,020,45,72,21,279,48,80,38,071,49*68
$GLGSV,3,2,09,73,25,136,47,86,42,244,50,87,37,310,48,70,47,061,41*65
$GLGSV,3,3,09,85,08,197,42*50
$GAGSV,3,1,10,05,65,257,48,15,20,321,40,23,11,042,,31,13,091,39*66
$GAGSV,3,2,10,36,39,188,45,03,14,249,39,06,32,064,44,34,57,271,48*6C
$GAGSV,3,3,10,09,56,059,47,04,08,066,37*64
$GBGSV,5,1,20,19,74,055,52,36,18,163,43,12,23,308,42,39,12,040,40*68
$GBGSV,5,2,20,05,23,128,38,16,22,043,41,20,26,089,46,35,21,231,45*6E
$GBGSV,5,3,20,44,27,281,45,37,22,047,43,06,24,045,39,58,32,099,*67
$GBGSV,5,4,20,46,39,108,,09,37,052,42,22,44,287,49,21,44,278,*6B
$GBGSV,5,5,20,48,47,085,,34,08,331,,02,07,106,35,60,08,111,40*6A
$GPGGA,040007.00,,,,,0,00,,,M,,M,,*4B
$PTNL,GGK,040007.00,010125,4742.1603080,N,01618.1003224,E,1,41,0.7,EHT751.5823,M*45
$GPGGQ,040007.00,010125,4742.1603080,N,01618.1003224,E,1,41,0.824,708.3757,M*34
$GPGFA,040007.00,3.561,5.397,0.375,0.325,11.391,0.658,,VVV*3C
$GPLLK,040007.00,010125,,M,,M,1,41,0.8,,M*05
$GNGMP,040007.00,,,,,DAAA,41,0.4,,,,*54
$GPGMP,040007.00,,,,,,10,,,,1.6,136*7C
$GLGMP,040007.00,,,,,,08,,,,,*74
$GAGMP,040007.00,,,,,,09,,,,,*78
$GBGMP,040007.00,,,,,,14,,,,,*77
$PSSN,SNC,[0,273625000,2347]*43
$GPZDA,040012.00,01,01,2025,,*64
$GPDTM,W84,,00.0000000,N,00.0000000,E,00.0000000,W84*5F
$PSSN,TFM,040012.00,,,,*68
$GPRMC,040012.00,A,4742.1603065,N,01618.1003247,E,0.0,,010125,5.1,E,D*15
$GPGLL,4742.1603065,N,01618.1003247,E,040012.00,A,D*64
$GPGGA,040012.00,4742.1603065,N,01618.1003247,E,2,42,0.4,708.3761,M,43.2066,M,2.2,0136*46
$GNGNS,040012.00,4742.1603065,N,01618.1003247,E,DAAA,42,0.4,708.3761,43.2066,,*5E
$GPGNS,040012.00,,,,,,10,,,,2.2,136*7F
$GLGNS,040012.00,,,,,,09,,,,,*71
$GAGNS,040012.00,,,,,,09,,,,,*7C
$GBGNS,040012.00,,,,,,14,,,,,*73
$GPLLQ,040012.00,010125,,M,,M,1,42,0.811,,M*18
$GPVTG,,T,,M,0.00,N,0.00,K,D*26
$GPHDT,,T*1B
$GPTHS,,V*0E
$GPROT,,V*08
$PSSN,HRP,040012.00,010125,,,,,,,00,0,,*66
$PTNL,AVR,040012.00,,Yaw,,Tilt,,,,0,,00*30
$GPGSA,A,3,03,04,06,07,09,11,16,20,26,30,,,0.7,0.4,0.6*3A
$GPGSA,A,3,70,71,72,73,79,80,85,86,87,,,,0.7,0.4,0.6*3D
$GPGSA,A,3,03,04,05,06,09,15,31,34,36,,,,0.7,0.4,0.6*3E
$GPGSA,A,3,05,06,09,12,16,19,20,22,35,36,37,39,0.7,0.4,0.6*3E
$GPGSA,A,3,44,60,,,,,,,,,,,0.7,0.4,0.6*31
$GPGST,040012.00,1.859,0.368,0.319,12.309,0.366,0.321,0.648*63
$GPGBS,040012.00,2.482,1.667,4.056,72,0.0001,6.590,6.191*54
$GPGRS,040012.00,1,0.1,-0.1,-0.5,0.0,0.2,0.4,0.4,0.8,-1.3,0.0,,*69
$GPGRS,040012.00,1,-2.4,0.6,6.6,4.9,1.2,-1.9,1.3,-2.6,-3.9,,,*6D
$GPGRS,040012.00,1,-0.7,-0.9,0.4,-0.1,0.4,0.2,0.7,-0.3,0.5,,,*6B
$GPGRS,040012.00,1,1.4,0.3,0.5,1.3,0.0,-0.2,1.7,0.3,-0.3,-0.5,-0.1,-1.0*64
$GPGRS,040012.00,1,0.2,-2.0,,,,,,,,,,*64
$GPGSV,6,1,21,09,83,346,51,16,13,078,39,26,13,048,39,20,13,305,40*78
$GPGSV,6,2,21,03,27,117,43,07,40,180,47,11,33,307,45,06,54,261,48*7A
$GPGSV,6,3,21,04,57,059,47,19,03,240,37,30,09,200,39,31,03,036,38*72
$GPGSV,6,4,21,36,35,170,45,58,13,245,38,40,24,132,36,34,31,208,43*74
$GPGSV,6,5,21,49,34,195,45,57,08,111,38,41,07,108,35,61,03,257,38*7D
$GPGSV,6,6,21*7A
$GLGSV,3,1,09,71,63,323,52,79,12,020,44,72,21,279,48,80,38,071,49*69
$GLGSV,3,2,09,73,25,136,47,86,42,244,50,87,37,310,48,70,47,061,41*65
$GLGSV,3,3,09,85,08,197,42*50
$GAGSV,3,1,10,05,65,257,48,15,20,321,40,23,11,042,,31,13,091,39*66
$GAGSV,3,2,10,36,39,188,45,03,14,249,40,06,32,064,44,34,57,271,48*62
$GAGSV,3,3,10,09,56,059,47,04,08,066,37*64
$GBGSV,5,1,20,19,74,055,52,36,18,163,43,05,23,128,38,39,12,040,40*63
$GBGSV,5,2,20,12,23,308,42,16,22,043,41,20,26,089,46,35,21,231,44*64
$GBGSV,5,3,20,44,27,281,45,37,22,047,43,06,24,045,39,58,33,099,*66
$GBGSV,5,4,20,46,39,108,,09,37,052,42,22,44,287,49,21,44,278,*6B
$GBGSV,5,5,20,48,47,085,,34,08,331,,02,07,106,35,60,08,111,40*6A
$GPGGA,040012.00,,,,,0,00,,,M,,M,,*4F
$PTNL,GGK,040012.00,010125,4742.1603065,N,01618.1003247,E,1,42,0.7,EHT751.5827,M*48
$GPGGQ,040012.00,010125,4742.1603065,N,01618.1003247,E,1,42,0.811,708.3761,M*3E
$GPGFA,040012.00,3.498,5.315,0.368,0.319,12.309,0.648,,VVV*35
$GPLLK,040012.00,010125,,M,,M,1,42,0.8,,M*02
$GNGMP,040012.00,,,,,DAAA,42,0.4,,,,*53
$GPGMP,040012.00,,,,,,10,,,,2.2,136*7F
$GLGMP,040012.00,,,,,,09,,,,,*71
$GAGMP,040012.00,,,,,,09,,,,,*7C
$GBGMP,040012.00,,,,,,14,,,,,*73
$PSSN,SNC,[0,273630000,2347]*47
$GPZDA,040017.00,01,01,2025,,*61
$GPDTM,W84,,00.0000000,N,00.0000000,E,00.0000000,W84*5F
$PSSN,TFM,040017.00,,,,*6D
$GPRMC,040017.00,A,4742.1603074,N,01618.1003262,E,0.0,,010125,5.1,E,D*17
$GPGLL,4742.1603074,N,01618.1003262,E,040017.00,A,D*66
$GPGGA,040017.00,4742.1603074,N,01618.1003262,E,2,43,0.4,708.3800,M,43.2066,M,3.2,0136*4C
$GNGNS,040017.00,4742.1603074,N,01618.1003262,E,DAAA,43,0.4,708.3800,43.2066,,*55
$GPGNS,040017.00,,,,,,10,,,,3.2,136*7B
$GLGNS,040017.00,,,,,,09,,,,,*74
$GAGNS,040017.00,,,,,,09,,,,,*79
$GBGNS,040017.00,,,,,,15,,,,,*77
$GPLLQ,040017.00,010125,,M,,M,1,43,0.821,,M*1F
$GPVTG,,T,,M,0.00,N,0.00,K,D*26
$GPHDT,,T*1B
$GPTHS,,V*0E
$GPROT,,V*08
$PSSN,HRP,040017.00,010125,,,,,,,00,0,,*63
$PTNL,AVR,040017.00,,Yaw,,Tilt,,,,0,,00*35
$GPGSA,A,3,03,04,06,07,09,11,16,20,26,30,,,0.7,0.4,0.6*3A
$GPGSA,A,3,70,71,72,73,79,80,85,86,87,,,,0.7,0.4,0.6*3D
$GPGSA,A,3,03,04,05,06,09,15,31,34,36,,,,0.7,0.4,0.6*3E
$GPGSA,A,3,02,05,06,09,12,16,19,20,22,35,36,37,0.7,0.4,0.6*36
$GPGSA,A,3,39,44,60,,,,,,,,,,0.7,0.4,0.6*3B
$GPGST,040017.00,1.884,0.372,0.323,11.905,0.370,0.326,0.657*6F
$GPGBS,040017.00,2.498,1.685,4.105,72,0.0001,6.825,6.191*52
$GPGRS,040017.00,1,0.3,-0.1,-0.3,0.0,0.2,0.2,0.4,0.4,-1.2,0.1,,*62
$GPGRS,040017.00,1,-2.5,0.4,6.8,4.7,1.0,-1.8,1.5,-2.8,-4.6,,,*68
$GPGRS,040017.00,1,-1.0,-0.5,0.3,-0.5,0.3,-0.1,0.7,-0.4,0.3,,,*4F
$GPGRS,040017.00,1,1.1,1.2,0.2,0.1,0.4,0.1,-0.2,1.1,-0.1,-1.4,-0.9,-0.5*6E
$GPGRS,040017.00,1,-1.3,-0.1,-1.9,,,,,,,,,*44
$GPGSV,6,1,21,09,83,346,51,16,13,078,40,26,13,048,38,20,13,305,40*77
$GPGSV,6,2,21,03,27,117,43,07,41,180,48,11,33,307,45,06,54,261,48*74
$GPGSV,6,3,21,04,57,059,47,19,03,240,38,30,09,200,39,31,03,036,38*7D
$GPGSV,6,4,21,36,35,170,45,58,13,245,38,40,24,132,36,34,31,208,43*74
$GPGSV,6,5,21,49,34,195,45,57,08,111,38,41,07,108,35,61,03,257,38*7D
$GPGSV,6,6,21*7A
$GLGSV,3,1,09,71,63,323,52,79,12,020,44,72,21,279,48,80,38,071,49*69
$GLGSV,3,2,09,73,25,136,47,86,42,244,51,87,37,310,48,70,47,061,41*64
$GLGSV,3,3,09,85,07,197,42*5F
$GAGSV,3,1,10,05,65,257,48,15,20,321,39,23,11,042,,31,13,091,40*66
$GAGSV,3,2,10,36,39,188,45,03,14,249,40,06,32,064,43,34,57,271,48*65
$GAGSV,3,3,10,09,56,059,47,04,08,066,38*6B
$GBGSV,5,1,20,19,73,055,52,36,18,163,43,05,23,128,38,39,12,040,40*64
$GBGSV,5,2,20,12,23,308,42,16,22,043,41,20,26,089,46,35,21,231,44*64
$GBGSV,5,3,20,44,27,281,45,37,22,047,43,06,24,045,40,58,33,099,*68
$GBGSV,5,4,20,46,39,108,,09,37,052,42,22,44,287,49,21,44,278,*6B
$GBGSV,5,5,20,48,47,085,,34,08,331,,02,07,106,35,60,08,111,40*6A
$GPGGA,040017.00,,,,,0,00,,,M,,M,,*4A
$PTNL,GGK,040017.00,010125,4742.1603074,N,01618.1003262,E,1,43,0.7,EHT751.5866,M*4E
$GPGGQ,040017.00,010125,4742.1603074,N,01618.1003262,E,1,43,0.821,708.3800,M*36
$GPGFA,040017.00,3.535,5.383,0.372,0.323,11.905,0.657,,VVV*30
$GPLLK,040017.00,010125,,M,,M,1,43,0.8,,M*06
$GNGMP,040017.00,,,,,DAAA,43,0.4,,,,*57
$GPGMP,040017.00,,,,,,10,,,,3.2,136*7B
$GLGMP,040017.00,,,,,,09,,,,,*74
$GAGMP,040017.00,,,,,,09,,,,,*79
$GBGMP,040017.00,,,,,,15,,,,,*77
$PSSN,SNC,[0,273635000,2347]*42
$GPZDA,040022.00,01,01,2025,,*67
$GPDTM,W84,,00.0000000,N,00.0000000,E,00.0000000,W84*5F
$PSSN,TFM,040022.00,,,,*6B
$GPRMC,040022.00,A,4742.1603089,N,01618.1003263,E,0.0,,010125,5.1,E,D*12
$GPGLL,4742.1603089,N,01618.1003263,E,040022.00,A,D*63
$GPGGA,040022.00,4742.1603089,N,01618.1003263,E,2,42,0.4,708.3767,M,43.2066,M,3.0,0136*44
$GNGNS,040022.00,4742.1603089,N,01618.1003263,E,DAAA,42,0.4,708.3767,43.2066,,*5F
$GPGNS,040022.00,,,,,,10,,,,3.0,136*7F
$GLGNS,040022.00,,,,,,09,,,,,*72
$GAGNS,040022.00,,,,,,09,,,,,*7F
$GBGNS,040022.00,,,,,,14,,,,,*70
$GPLLQ,040022.00,010125,,M,,M,1,42,0.831,,M*19
$GPVTG,,T,,M,0.00,N,0.01,K,D*27
$GPHDT,,T*1B
$GPTHS,,V*0E
$GPROT,,V*08
$PSSN,HRP,040022.00,010125,,,,,,,00,0,,*65
$PTNL,AVR,040022.00,,Yaw,,Tilt,,,,0,,00*33
$GPGSA,A,3,03,04,06,07,09,11,16,20,26,30,,,0.7,0.4,0.6*3A
$GPGSA,A,3,70,71,72,73,79,80,85,86,87,,,,0.7,0.4,0.6*3D
$GPGSA,A,3,03,04,05,06,09,15,31,34,36,,,,0.7,0.4,0.6*3E
$GPGSA,A,3,05,06,09,12,16,19,20,22,35,36,37,39,0.7,0.4,0.6*3E
$GPGSA,A,3,44,60,,,,,,,,,,,0.7,0.4,0.6*31
$GPGST,040022.00,2.049,0.376,0.328,11.619,0.375,0.330,0.665*6D
$GPGBS,040022.00,2.501,1.686,4.139,72,0.0001,6.289,6.190*54
$GPGRS,040022.00,1,0.5,-0.1,-0.2,0.3,0.2,-0.0,0.6,0.2,-1.2,-0.6,,*61
$GPGRS,040022.00,1,-4.0,0.3,6.3,5.3,1.4,-1.6,1.7,-2.8,-5.6,,,*6D
$GPGRS,040022.00,1,-1.0,-0.8,0.4,-0.3,0.4,-0.3,0.6,-0.3,0.7,,,*42
$GPGRS,040022.00,1,1.1,0.3,0.2,0.1,0.7,-0.1,1.1,-0.2,-0.9,-0.7,-0.9,-1.2*4A
$GPGRS,040022.00,1,-0.4,-2.1,,,,,,,,,,*4D
$GPGSV,6,1,21,09,83,346,51,16,13,078,39,26,13,048,38,20,13,305,38*76
$GPGSV,6,2,21,03,27,117,43,07,41,180,47,11,33,307,45,06,54,261,48*7B
$GPGSV,6,3,21,04,57,059,47,19,03,240,39,30,09,200,39,31,03,036,37*73
$GPGSV,6,4,21,36,35,170,45,58,13,245,38,40,24,132,36,34,31,208,43*74
$GPGSV,6,5,21,49,34,195,45,57,08,111,38,41,07,108,35,61,03,257,38*7D
$GPGSV,6,6,21*7A
$GLGSV,3,1,09,71,63,323,52,79,12,020,44,72,21,279,48,80,38,071,49*69
$GLGSV,3,2,09,73,25,136,47,86,42,244,51,87,37,310,48,70,47,061,40*65
$GLGSV,3,3,09,85,07,197,43*5E
$GAGSV,3,1,10,05,65,258,48,15,20,321,40,23,11,042,,31,13,091,40*67
$GAGSV,3,2,10,36,39,188,45,03,14,249,40,06,32,064,43,34,57,271,48*65
$GAGSV,3,3,10,09,56,059,47,04,08,066,37*64
$GBGSV,5,1,20,19,73,055,52,36,18,163,43,05,23,128,38,39,12,040,40*64
$GBGSV,5,2,20,12,23,308,41,16,22,043,41,20,26,089,46,35,21,231,45*66
$GBGSV,5,3,20,44,27,281,46,37,22,047,43,06,24,045,40,58,33,099,*6B
$GBGSV,5,4,20,46,39,108,,09,37,052,42,22,44,287,49,21,44,278,*6B
$GBGSV,5,5,20,48,47,085,,34,08,331,,02,07,106,35,60,08,111,40*6A
$GPGGA,040022.00,,,,,0,00,,,M,,M,,*4C
$PTNL,GGK,040022.00,010125,4742.1603089,N,01618.1003263,E,1,42,0.7,EHT751.5833,M*4A
$GPGGQ,040022.00,010125,4742.1603089,N,01618.1003263,E,1,42,0.831,708.3767,M*3D
$GPGFA,040022.00,3.579,5.452,0.376,0.328,11.619,0.665,,VVV*39
$GPLLK,040022.00,010125,,M,,M,1,42,0.8,,M*01
$GNGMP,040022.00,,,,,DAAA,42,0.4,,,,*50
$GPGMP,040022.00,,,,,,10,,,,3.0,136*7F
$GLGMP,040022.00,,,,,,09,,,,,*72
$GAGMP,040022.00,,,,,,09,,,,,*7F
$GBGMP,040022.00,,,,,,14,,,,,*70
$PSSN,SNC,[0,273640000,2347]*40
$GPZDA,040027.00,01,01,2025,,*62
$GPDTM,W84,,00.0000000,N,00.0000000,E,00.0000000,W84*5F
$PSSN,TFM,040027.00,,,,*6E
$GPRMC,040027.00,A,4742.1603105,N,01618.1003256,E,0.0,,010125,5.1,E,D*14
$GPGLL,4742.1603105,N,01618.1003256,E,040027.00,A,D*65
$GPGGA,040027.00,4742.1603105,N,01618.1003256,E,2,43,0.4,708.3754,M,43.2066,M,1.6,0136*47
$GNGNS,040027.00,4742.1603105,N,01618.1003256,E,DAAA,43,0.4,708.3754,43.2066,,*58
$GPGNS,040027.00,,,,,,10,,,,1.6,136*7E
$GLGNS,040027.00,,,,,,09,,,,,*77
$GAGNS,040027.00,,,,,,09,,,,,*7A
$GBGNS,040027.00,,,,,,15,,,,,*74
$GPLLQ,040027.00,010125,,M,,M,1,43,0.823,,M*1E
$GPVTG,,T,,M,0.00,N,0.01,K,D*27
$GPHDT,,T*1B
$GPTHS,,V*0E
$GPROT,,V*08
$PSSN,HRP,040027.00,010125,,,,,,,00,0,,*60
$PTNL,AVR,040027.00,,Yaw,,Tilt,,,,0,,00*36
$GPGSA,A,3,03,04,06,07,09,11,16,20,26,30,,,0.7,0.4,0.6*3A
$GPGSA,A,3,70,71,72,73,79,80,85,86,87,,,,0.7,0.4,0.6*3D
$GPGSA,A,3,03,04,05,06,09,15,31,34,36,,,,0.7,0.4,0.6*3E
$GPGSA,A,3,02,05,06,09,12,16,19,20,22,35,36,37,0.7,0.4,0.6*36
$GPGSA,A,3,39,44,60,,,,,,,,,,0.7,0.4,0.6*3B
$GPGST,040027.00,1.922,0.373,0.324,11.854,0.371,0.326,0.659*6D
$GPGBS,040027.00,2.498,1.632,4.053,72,0.0001,6.864,6.190*5B
$GPGRS,040027.00,1,0.1,0.0,-0.3,0.2,0.4,0.0,0.4,-0.4,-0.9,-0.4,,*46
$GPGRS,040027.00,1,-2.2,0.5,6.9,5.0,1.6,-2.0,2.0,-2.4,-4.8,,,*63
$GPGRS,040027.00,1,-0.7,-0.9,0.6,0.2,0.6,0.6,0.6,-0.3,0.6,,,*45
$GPGRS,040027.00,1,0.6,1.3,0.7,0.9,0.5,1.0,0.1,1.1,-0.3,-0.8,-0.3,-0.8*40
$GPGRS,040027.00,1,-1.4,0.0,-1.9,,,,,,,,,*6C
$GPGSV,6,1,21,09,83,347,51,16,13,078,39,26,13,048,39,20,13,305,39*77
$GPGSV,6,2,21,03,27,117,43,07,41,180,47,11,33,307,45,06,54,261,48*7B
$GPGSV,6,3,21,04,57,059,47,19,03,240,39,30,09,200,39,31,03,036,37*73
$GPGSV,6,4,21,36,35,170,45,58,13,245,37,40,24,132,36,34,31,208,44*7C
$GPGSV,6,5,21,49,34,195,45,57,08,111,38,41,07,108,35,61,03,257,37*72
$GPGSV,6,6,21*7A
$GLGSV,3,1,09,71,63,323,52,79,12,020,44,72,21,279,48,80,38,071,50*61
$GLGSV,3,2,09,73,25,136,46,86,42,244,51,87,37,310,47,70,47,061,41*6A
$GLGSV,3,3,09,85,07,197,43*5E
$GAGSV,3,1,10,05,65,258,48,15,20,321,40,23,11,042,,31,13,091,39*69
$GAGSV,3,2,10,36,39,188,45,03,14,249,40,06,32,064,43,34,57,271,48*65
$GAGSV,3,3,10,09,56,059,47,04,08,066,37*64
$GBGSV,5,1,20,19,73,055,52,36,18,163,43,05,23,128,38,39,12,040,40*64
$GBGSV,5,2,20,12,23,308,41,16,22,043,41,20,26,089,46,35,21,231,45*66
$GBGSV,5,3,20,44,27,281,46,37,22,047,42,06,24,045,40,58,33,099,*6A
$GBGSV,5,4,20,46,39,108,,09,37,052,42,22,44,287,49,21,44,278,*6B
$GBGSV,5,5,20,48,47,085,,34,08,331,,02,07,106,35,60,08,111,40*6A
$GPGGA,040027.00,,,,,0,00,,,M,,M,,*49
$PTNL,GGK,040027.00,010125,4742.1603105,N,01618.1003256,E,1,43,0.7,EHT751.5819,M*45
$GPGGQ,040027.00,010125,4742.1603105,N,01618.1003256,E,1,43,0.823,708.3754,M*39
$GPGFA,040027.00,3.549,5.400,0.373,0.324,11.854,0.659,,VVV*39
$GPLLK,040027.00,010125,,M,,M,1,43,0.8,,M*05
$GNGMP,040027.00,,,,,DAAA,43,0.4,,,,*54
$GPGMP,040027.00,,,,,,10,,,,1.6,136*7E
$GLGMP,040027.00,,,,,,09,,,,,*77
$GAGMP,040027.00,,,,,,09,,,,,*7A
$GBGMP,040027.00,,,,,,15,,,,,*74
$PSSN,SNC,[0,273645000,2347]*45
$GPZDA,040032.00,01,01,2025,,*66
$GPDTM,W84,,00.0000000,N,00.0000000,E,00.0000000,W84*5F
$PSSN,TFM,040032.00,,,,*6A
$GPRMC,040032.00,A,4742.1603103,N,01618.1003249,E,0.0,,010125,5.1,E,D*18
$GPGLL,4742.1603103,N,01618.1003249,E,040032.00,A,D*69
$GPGGA,040032.00,4742.1603103,N,01618.1003249,E,2,42,0.4,708.3704,M,43.2066,M,2.2,0136*48
$GNGNS,040032.00,4742.1603103,N,01618.1003249,E,DAAA,42,0.4,708.3704,43.2066,,*50
$GPGNS,040032.00,,,,,,10,,,,2.2,136*7D
$GLGNS,040032.00,,,,,,09,,,,,*73
$GAGNS,040032.00,,,,,,09,,,,,*7E
$GBGNS,040032.00,,,,,,14,,,,,*71
$GPLLQ,040032.00,010125,,M,,M,1,42,0.811,,M*1A
$GPVTG,,T,,M,0.00,N,0.01,K,D*27
$GPHDT,,T*1B
$GPTHS,,V*0E
$GPROT,,V*08
$PSSN,HRP,040032.00,010125,,,,,,,00,0,,*64
$PTNL,AVR,040032.00,,Yaw,,Tilt,,,,0,,00*32
$GPGSA,A,3,03,04,06,07,09,11,16,20,26,30,,,0.7,0.4,0.6*3A
$GPGSA,A,3,70,71,72,73,79,80,85,86,87,,,,0.7,0.4,0.6*3D
$GPGSA,A,3,03,04,05,06,09,15,31,34,36,,,,0.7,0.4,0.6*3E
$GPGSA,A,3,05,06,09,12,16,19,20,22,35,36,37,39,0.7,0.4,0.6*3E
$GPGSA,A,3,44,60,,,,,,,,,,,0.7,0.4,0.6*31
$GPGST,040032.00,1.913,0.367,0.319,11.966,0.365,0.321,0.649*63
$GPGBS,040032.00,2.475,1.661,4.066,72,0.0001,6.797,6.190*5F
$GPGRS,040032.00,1,0.4,-0.2,-0.3,0.1,0.2,0.2,0.9,1.1,-1.4,-0.6,,*45
$GPGRS,040032.00,1,-2.6,0.7,6.8,3.4,2.2,-2.1,1.5,-3.0,-4.9,,,*66
$GPGRS,040032.00,1,-0.9,-0.5,0.3,0.1,0.4,0.0,0.4,-0.2,0.5,,,*41
$GPGRS,040032.00,1,1.2,0.6,0.5,0.4,0.8,-0.1,0.9,-0.4,-1.3,-0.5,-0.1,-1.3*4F
$GPGRS,040032.00,1,-0.0,-2.1,,,,,,,,,,*48
$GPGSV,6,1,21,09,83,347,51,16,13,078,38,26,13,048,38,20,13,305,39*77
$GPGSV,6,2,21,03,27,117,43,07,41,180,47,11,33,307,45,06,54,261,48*7B
$GPGSV,6,3,21,04,57,059,47,19,03,240,39,30,09,200,39,31,03,036,37*73
$GPGSV,6,4,21,36,35,170,45,58,13,245,37,40,24,132,36,34,31,208,44*7C
$GPGSV,6,5,21,49,34,195,45,57,08,111,38,41,07,108,35,61,03,257,38*7D
$GPGSV,6,6,21*7A
$GLGSV,3,1,09,71,63,323,52,79,12,020,44,72,21,279,47,80,38,071,49*66
$GLGSV,3,2,09,73,25,136,46,86,42,244,50,87,37,310,47,70,46,061,40*6B
$GLGSV,3,3,09,85,07,197,43*5E
$GAGSV,3,1,10,05,65,258,48,15,20,321,39,23,11,042,,31,13,091,39*67
$GAGSV,3,2,10,36,39,188,45,03,14,249,39,06,32,064,43,34,57,271,48*6B
$GAGSV,3,3,10,09,56,059,47,04,08,066,37*64
$GBGSV,5,1,20,19,73,056,52,36,18,163,43,05,23,128,38,39,12,040,40*67
$GBGSV,5,2,20,12,23,308,41,16,22,043,41,20,26,089,46,35,21,231,46*65
$GBGSV,5,3,20,44,27,281,46,37,22,047,42,06,24,045,40,58,33,099,*6A
$GBGSV,5,4,20,46,39,108,,09,37,052,42,22,44,287,49,21,44,278,*6B
$GBGSV,5,5,20,48,47,085,,34,08,331,,02,07,106,35,60,08,111,40*6A
$GPGGA,040032.00,,,,,0,00,,,M,,M,,*4D
$PTNL,GGK,040032.00,010125,4742.1603103,N,01618.1003249,E,1,42,0.7,EHT751.5769,M*40
$GPGGQ,040032.00,010125,4742.1603103,N,01618.1003249,E,1,42,0.811,708.3704,M*30
$GPGFA,040032.00,3.494,5.321,0.367,0.319,11.966,0.649,,VVV*32
$GPLLK,040032.00,010125,,M,,M,1,42,0.8,,M*00
$GNGMP,040032.00,,,,,DAAA,42,0.4,,,,*51
$GPGMP,040032.00,,,,,,10,,,,2.2,136*7D
$GLGMP,040032.00,,,,,,09,,,,,*73
$GAGMP,040032.00,,,,,,09,,,,,*7E
$GBGMP,040032.00,,,,,,14,,,,,*71
$PSSN,SNC,[0,273650000,2347]*41
$GPZDA,040037.00,01,01,2025,,*63
$GPDTM,W84,,00.0000000,N,00.0000000,E,00.0000000,W84*5F
$PSSN,TFM,040037.00,,,,*6F
$GPRMC,040037.00,A,4742.1603107,N,01618.1003272,E,0.0,,010125,5.1,E,D*11
$GPGLL,4742.1603107,N,01618.1003272,E,040037.00,A,D*60
$GPGGA,040037.00,4742.1603107,N,01618.1003272,E,2,43,0.4,708.3691,M,43.2066,M,3.2,0136*4C
$GNGNS,040037.00,4742.1603107,N,01618.1003272,E,DAAA,43,0.4,708.3691,43.2066,,*55
$GPGNS,040037.00,,,,,,10,,,,3.2,136*79
$GLGNS,040037.00,,,,,,09,,,,,*76
$GAGNS,040037.00,,,,,,09,,,,,*7B
$GBGNS,040037.00,,,,,,15,,,,,*75
$GPLLQ,040037.00,010125,,M,,M,1,43,0.821,,M*1D
$GPVTG,,T,,M,0.00,N,0.00,K,D*26
$GPHDT,,T*1B
$GPTHS,,V*0E
$GPROT,,V*08
$PSSN,HRP,040037.00,010125,,,,,,,00,0,,*61
$PTNL,AVR,040037.00,,Yaw,,Tilt,,,,0,,00*37
$GPGSA,A,3,03,04,06,07,09,11,16,20,26,30,,,0.7,0.4,0.6*3A
$GPGSA,A,3,70,71,72,73,79,80,85,86,87,,,,0.7,0.4,0.6*3D
$GPGSA,A,3,03,04,05,06,09,15,31,34,36,,,,0.7,0.4,0.6*3E
$GPGSA,A,3,02,05,06,09,12,16,19,20,22,35,36,37,0.7,0.4,0.6*36
$GPGSA,A,3,39,44,60,,,,,,,,,,0.7,0.4,0.6*3B
$GPGST,040037.00,1.882,0.371,0.323,11.537,0.369,0.325,0.657*6E
$GPGBS,040037.00,2.490,1.680,4.115,26,0.0001,-2.033,1.364*74
$GPGRS,040037.00,1,0.4,-0.0,-0.1,0.2,0.2,-0.1,0.1,1.0,-2.0,-0.9,,*6C
$GPGRS,040037.00,1,-3.5,0.6,5.7,3.9,1.5,-2.7,2.0,-2.8,-5.2,,,*66
$GPGRS,040037.00,1,-0.8,-0.7,0.3,0.1,0.3,-0.0,0.6,0.2,0.3,,,*44
$GPGRS,040037.00,1,-0.3,1.5,0.9,0.9,0.1,0.9,0.2,0.7,-0.6,-0.4,-0.7,-0.5*69
$GPGRS,040037.00,1,-1.3,-0.4,-1.9,,,,,,,,,*43
$GPGSV,6,1,21,09,83,347,51,16,13,078,38,26,13,048,38,20,13,305,39*77
$GPGSV,6,2,21,03,27,117,43,07,41,180,47,11,33,307,45,06,54,261,48*7B
$GPGSV,6,3,21,04,57,059,47,19,03,240,39,30,09,200,39,31,03,036,38*7C
$GPGSV,6,4,21,36,35,170,45,58,13,245,38,40,24,132,36,34,31,208,44*73
$GPGSV,6,5,21,49,34,195,45,57,08,111,38,41,07,108,35,61,03,257,38*7D
$GPGSV,6,6,21*7A
$GLGSV,3,1,09,71,63,323,52,79,12,020,44,72,21,279,47,80,38,071,50*6E
$GLGSV,3,2,09,73,25,136,46,86,42,244,51,87,37,310,47,70,46,061,41*6B
$GLGSV,3,3,09,85,07,197,43*5E
$GAGSV,3,1,10,05,65,258,48,15,20,321,40,23,11,042,,31,13,091,38*68
$GAGSV,3,2,10,36,39,188,45,03,14,249,39,06,32,064,43,34,57,271,48*6B
$GAGSV,3,3,10,09,56,059,47,04,08,066,37*64
$GBGSV,5,1,20,19,73,056,52,36,18,162,43,05,23,128,38,39,12,040,40*66
$GBGSV,5,2,20,12,23,308,41,16,22,043,41,20,26,089,46,35,21,231,45*66
$GBGSV,5,3,20,44,27,281,45,37,22,047,42,06,24,045,40,58,33,099,*69
$GBGSV,5,4,20,46,39,108,,09,37,052,42,22,44,287,49,21,44,278,*6B
$GBGSV,5,5,20,48,47,085,,34,08,331,,02,07,106,35,60,08,111,40*6A
$GPGGA,040037.00,,,,,0,00,,,M,,M,,*48
$PTNL,GGK,040037.00,010125,4742.1603107,N,01618.1003272,E,1,43,0.7,EHT751.5756,M*44
$GPGGQ,040037.00,010125,4742.1603107,N,01618.1003272,E,1,43,0.821,708.3691,M*36
$GPGFA,040037.00,3.530,5.388,0.371,0.323,11.537,0.657,,VVV*32
$GPLLK,040037.00,010125,,M,,M,1,43,0.8,,M*04
$GNGMP,040037.00,,,,,DAAA,43,0.4,,,,*55
$GPGMP,040037.00,,,,,,10,,,,3.2,136*79
$GLGMP,040037.00,,,,,,09,,,,,*76
$GAGMP,040037.00,,,,,,09,,,,,*7B
$GBGMP,040037.00,,,,,,15,,,,,*75
$PSSN,SNC,[0,273655000,2347]*44
$GPZDA,040042.00,01,01,2025,,*61
$GPDTM,W84,,00.0000000,N,00.0000000,E,00.0000000,W84*5F
$PSSN,TFM,040042.00,,,,*6D
$GPRMC,040042.00,A,4742.1603123,N,01618.1003267,E,0.0,,010125,5.1,E,D*11
$GPGLL,4742.1603123,N,01618.1003267,E,040042.00,A,D*60
$GPGGA,040042.00,4742.1603123,N,01618.1003267,E,2,43,0.4,708.3680,M,43.2066,M,3.0,0136*4E
$GNGNS,040042.00,4742.1603123,N,01618.1003267,E,DAAA,43,0.4,708.3680,43.2066,,*55
$GPGNS,040042.00,,,,,,10,,,,3.0,136*79
$GLGNS,040042.00,,,,,,09,,,,,*74
$GAGNS,040042.00,,,,,,09,,,,,*79
$GBGNS,040042.00,,,,,,15,,,,,*77
$GPLLQ,040042.00,010125,,M,,M,1,43,0.831,,M*1E
$GPVTG,,T,,M,0.00,N,0.01,K,D*27
$GPHDT,,T*1B
$GPTHS,,V*0E
$GPROT,,V*08
$PSSN,HRP,040042.00,010125,,,,,,,00,0,,*63
$PTNL,AVR,040042.00,,Yaw,,Tilt,,,,0,,00*35
$GPGSA,A,3,03,04,06,07,09,11,16,20,26,30,,,0.7,0.4,0.6*3A
$GPGSA,A,3,70,71,72,73,79,80,85,86,87,,,,0.7,0.4,0.6*3D
$GPGSA,A,3,03,04,05,06,09,15,31,34,36,,,,0.7,0.4,0.6*3E
$GPGSA,A,3,02,05,06,09,12,16,19,20,22,35,36,37,0.7,0.4,0.6*36
$GPGSA,A,3,39,44,60,,,,,,,,,,0.7,0.4,0.6*3B
$GPGST,040042.00,1.864,0.376,0.327,11.339,0.374,0.329,0.665*6E
$GPGBS,040042.00,2.491,1.677,4.143,26,0.0001,-1.725,1.339*77
$GPGRS,040042.00,1,0.7,-0.1,-0.2,0.2,0.0,-0.2,1.1,1.3,-1.7,-0.6,,*67
$GPGRS,040042.00,1,-3.0,0.7,6.1,4.3,1.8,-2.0,1.7,-3.0,-4.4,,,*68
$GPGRS,040042.00,1,-0.6,-0.5,0.1,-0.1,0.1,0.3,0.6,-0.1,0.4,,,*60
$GPGRS,040042.00,1,0.7,1.7,0.9,0.9,0.1,0.7,0.3,0.5,-0.3,-0.9,-0.9,-0.1*4F
$GPGRS,040042.00,1,-1.3,-0.4,-1.7,,,,,,,,,*4F
$GPGSV,6,1,21,09,83,348,51,16,13,078,39,26,13,048,39,20,13,305,39*78
$GPGSV,6,2,21,03,27,117,43,07,41,180,48,11,33,307,45,06,54,261,49*75
$GPGSV,6,3,21,04,57,059,47,19,03,240,38,30,09,200,40,31,03,036,38*73
$GPGSV,6,4,21,36,35,170,45,58,13,245,38,40,24,132,35,34,31,208,44*70
$GPGSV,6,5,21,49,34,195,45,57,08,111,38,41,07,108,35,61,03,257,38*7D
$GPGSV,6,6,21*7A
$GLGSV,3,1,09,71,63,323,52,79,12,020,45,72,21,279,47,80,38,071,50*6F
$GLGSV,3,2,09,73,25,136,45,86,42,244,50,87,37,310,48,70,46,061,40*67
$GLGSV,3,3,09,85,07,197,43*5E
$GAGSV,3,1,10,05,65,258,48,15,20,321,40,23,11,042,,31,13,091,39*69
$GAGSV,3,2,10,36,39,188,45,03,14,249,39,06,32,064,44,34,57,271,48*6C
$GAGSV,3,3,10,09,56,059,47,04,08,066,36*65
$GBGSV,5,1,20,19,73,056,52,36,18,162,43,05,23,128,38,39,12,040,40*66
$GBGSV,5,2,20,12,23,308,41,16,22,043,41,20,26,089,46,35,21,231,45*66
$GBGSV,5,3,20,44,27,281,45,37,22,047,43,06,24,045,40,58,33,099,*68
$GBGSV,5,4,20,46,39,108,,09,37,052,42,22,44,287,49,21,44,278,*6B
$GBGSV,5,5,20,48,47,085,,34,08,331,,02,07,106,35,60,08,111,40*6A
$GPGGA,040042.00,,,,,0,00,,,M,,M,,*4A
$PTNL,GGK,040042.00,010125,4742.1603123,N,01618.1003267,E,1,43,0.7,EHT751.5745,M*46
$GPGGQ,040042.00,010125,4742.1603123,N,01618.1003267,E,1,43,0.831,708.3680,M*37
$GPGFA,040042.00,3.573,5.454,0.376,0.327,11.339,0.665,,VVV*3B
$GPLLK,040042.00,010125,,M,,M,1,43,0.8,,M*06
$GNGMP,040042.00,,,,,DAAA,43,0.4,,,,*57
$GPGMP,040042.00,,,,,,10,,,,3.0,136*79
$GLGMP,040042.00,,,,,,09,,,,,*74
$GAGMP,040042.00,,,,,,09,,,,,*79
$GBGMP,040042.00,,,,,,15,,,,,*77
$PSSN,SNC,[0,273660000,2347]*42
$GPZDA,040047.00,01,01,2025,,*64
$GPDTM,W84,,00.0000000,N,00.0000000,E,00.0000000,W84*5F
$PSSN,TFM,040047.00,,,,*68
$GPRMC,040047.00,A,4742.1603124,N,01618.1003256,E,0.0,,010125,5.1,E,D*11
$GPGLL,4742.1603124,N,01618.1003256,E,040047.00,A,D*60
$GPGGA,040047.00,4742.1603124,N,01618.1003256,E,2,43,0.4,708.3733,M,43.2066,M,1.6,0136*43
$GNGNS,040047.00,4742.1603124,N,01618.1003256,E,DAAA,43,0.4,708.3733,43.2066,,*5C
$GPGNS,040047.00,,,,,,10,,,,1.6,136*78
$GLGNS,040047.00,,,,,,09,,,,,*71
$GAGNS,040047.00,,,,,,09,,,,,*7C
$GBGNS,040047.00,,,,,,15,,,,,*72
$GPLLQ,040047.00,010125,,M,,M,1,43,0.824,,M*1F
$GPVTG,,T,,M,0.00,N,0.01,K,D*27
$GPHDT,,T*1B
$GPTHS,,V*0E
$GPROT,,V*08
$PSSN,HRP,040047.00,010125,,,,,,,00,0,,*66
$PTNL,AVR,040047.00,,Yaw,,Tilt,,,,0,,00*30
$GPGSA,A,3,03,04,06,07,09,11,16,20,26,30,,,0.7,0.4,0.6*3A
$GPGSA,A,3,70,71,72,73,79,80,85,86,87,,,,0.7,0.4,0.6*3D
$GPGSA,A,3,03,04,05,06,09,15,31,34,36,,,,0.7,0.4,0.6*3E
$GPGSA,A,3,02,05,06,09,12,16,19,20,22,35,36,37,0.7,0.4,0.6*36
$GPGSA,A,3,39,44,60,,,,,,,,,,0.7,0.4,0.6*3B
$GPGST,040047.00,1.743,0.373,0.324,11.582,0.371,0.326,0.659*64
$GPGBS,040047.00,2.490,1.627,4.063,72,0.0001,6.344,6.189*53
$GPGRS,040047.00,1,0.6,-0.2,-0.4,0.3,-0.0,0.2,0.7,0.6,-0.9,-0.4,,*69
$GPGRS,040047.00,1,-2.6,0.5,6.3,3.5,1.1,-2.1,1.6,-3.3,-4.0,,,*65
$GPGRS,040047.00,1,-0.8,-0.8,0.1,-0.2,-0.0,-0.1,0.4,-0.3,0.3,,,*61
$GPGRS,040047.00,1,0.9,1.1,0.8,0.6,0.7,0.3,0.0,0.4,-0.2,-0.5,-0.4,-0.5*48
$GPGRS,040047.00,1,-1.8,0.1,-1.9,,,,,,,,,*67
$GPGSV,6,1,21,09,83,348,51,16,13,078,39,20,13,305,40,26,13,048,38*77
$GPGSV,6,2,21,03,27,117,43,07,41,180,47,11,33,307,45,06,54,260,49*7B
$GPGSV,6,3,21,04,57,059,47,19,03,240,38,30,09,200,39,31,03,036,38*7D
$GPGSV,6,4,21,36,35,170,45,58,13,245,38,40,24,132,36,34,31,208,43*74
$GPGSV,6,5,21,49,34,195,45,57,08,111,38,41,07,108,35,61,03,257,38*7D
$GPGSV,6,6,21*7A
$GLGSV,3,1,09,71,63,323,52,79,12,020,44,72,21,279,48,80,38,071,50*61
$GLGSV,3,2,09,73,25,136,45,86,42,244,50,87,37,310,48,70,46,061,40*67
$GLGSV,3,3,09,85,07,197,43*5E
$GAGSV,3,1,10,05,65,258,48,15,20,321,40,23,11,042,,31,13,091,38*68
$GAGSV,3,2,10,36,39,188,45,03,14,249,40,06,32,064,44,34,57,271,48*62
$GAGSV,3,3,10,09,56,059,47,04,08,066,36*65
$GBGSV,5,1,20,19,73,056,52,36,18,162,43,05,23,128,39,39,12,040,40*67
$GBGSV,5,2,20,12,23,308,42,16,22,043,41,20,26,089,46,35,21,231,45*65
$GBGSV,5,3,20,44,27,281,45,37,22,047,43,06,24,045,41,58,33,099,*69
$GBGSV,5,4,20,46,39,108,,09,37,052,42,22,44,287,49,21,44,278,*6B
$GBGSV,5,5,20,48,47,085,,34,08,331,,02,07,106,35,60,08,111,40*6A
$GPGGA,040047.00,,,,,0,00,,,M,,M,,*4F
$PTNL,GGK,040047.00,010125,4742.1603124,N,01618.1003256,E,1,43,0.7,EHT751.5798,M*46
$GPGGQ,040047.00,010125,4742.1603124,N,01618.1003256,E,1,43,0.824,708.3733,M*3A
$GPGFA,040047.00,3.544,5.405,0.373,0.324,11.582,0.659,,VVV*31
$GPLLK,040047.00,010125,,M,,M,1,43,0.8,,M*03
$GNGMP,040047.00,,,,,DAAA,43,0.4,,,,*52
$GPGMP,040047.00,,,,,,10,,,,1.6,136*78
$GLGMP,040047.00,,,,,,09,,,,,*71
$GAGMP,040047.00,,,,,,09,,,,,*7C
$GBGMP,040047.00,,,,,,15,,,,,*72
$PSSN,SNC,[0,273665000,2347]*47
$GPZDA,040052.00,01,01,2025,,*60
$GPDTM,W84,,00.0000000,N,00.0000000,E,00.0000000,W84*5F
$PSSN,TFM,040052.00,,,,*6C
$GPRMC,040052.00,A,4742.1603148,N,01618.1003272,E,0.0,,010125,5.1,E,D*19
$GPGLL,4742.1603148,N,01618.1003272,E,040052.00,A,D*68
$GPGGA,040052.00,4742.1603148,N,01618.1003272,E,2,43,0.4,708.3747,M,43.2066,M,2.2,0136*4F
$GNGNS,040052.00,4742.1603148,N,01618.1003272,E,DAAA,43,0.4,708.3747,43.2066,,*57
$GPGNS,040052.00,,,,,,10,,,,2.2,136*7B
$GLGNS,040052.00,,,,,,09,,,,,*75
$GAGNS,040052.00,,,,,,09,,,,,*78
$GBGNS,040052.00,,,,,,15,,,,,*76
$GPLLQ,040052.00,010125,,M,,M,1,43,0.811,,M*1D
$GPVTG,,T,,M,0.00,N,0.00,K,D*26
$GPHDT,,T*1B
$GPTHS,,V*0E
$GPROT,,V*08
$PSSN,HRP,040052.00,010125,,,,,,,00,0,,*62
$PTNL,AVR,040052.00,,Yaw,,Tilt,,,,0,,00*34
$GPGSA,A,3,03,04,06,07,09,11,16,20,26,30,,,0.7,0.4,0.6*3A
$GPGSA,A,3,70,71,72,73,79,80,85,86,87,,,,0.7,0.4,0.6*3D
$GPGSA,A,3,03,04,05,06,09,15,31,34,36,,,,0.7,0.4,0.6*3E
$GPGSA,A,3,02,05,06,09,12,16,19,20,22,35,36,37,0.7,0.4,0.6*36
$GPGSA,A,3,39,44,60,,,,,,,,,,0.7,0.4,0.6*3B
$GPGST,040052.00,1.796,0.367,0.318,11.735,0.365,0.321,0.649*6F
$GPGBS,040052.00,2.467,1.653,4.072,72,0.0001,6.574,6.189*59
$GPGRS,040052.00,1,0.2,-0.2,-0.3,0.2,0.1,-0.0,0.2,0.5,-1.0,-0.0,,*66
$GPGRS,040052.00,1,-2.7,0.4,6.6,3.7,1.1,-2.0,2.1,-2.8,-4.2,,,*6B
$GPGRS,040052.00,1,-0.7,-0.8,0.0,0.0,0.0,-0.0,0.4,-0.4,0.4,,,*68
$GPGRS,040052.00,1,0.6,1.3,0.9,0.7,1.5,0.4,-0.1,0.5,-0.2,-0.7,-0.3,-1.1*68
$GPGRS,040052.00,1,-1.4,-0.5,-1.7,,,,,,,,,*48
$GPGSV,6,1,21,09,83,348,51,16,13,078,39,20,13,305,39,26,13,047,38*76
$GPGSV,6,2,21,03,27,117,43,07,41,180,47,11,33,307,45,06,54,260,48*7A
$GPGSV,6,3,21,04,57,059,47,19,03,240,37,30,09,200,39,31,03,036,37*7D
$GPGSV,6,4,21,36,35,170,45,58,13,245,38,40,24,132,36,34,31,208,44*73
$GPGSV,6,5,21,49,34,195,45,57,08,111,38,41,07,108,35,61,03,257,38*7D
$GPGSV,6,6,21*7A
$GLGSV,3,1,09,71,63,323,52,79,12,020,44,72,21,279,47,80,38,071,50*6E
$GLGSV,3,2,09,73,25,136,45,86,42,244,51,87,37,310,48,70,46,061,40*66
$GLGSV,3,3,09,85,07,197,43*5E
$GAGSV,3,1,10,05,65,258,48,15,20,321,40,23,11,042,,31,13,091,39*69
$GAGSV,3,2,10,36,39,188,45,03,14,249,39,06,32,064,44,34,57,271,48*6C
$GAGSV,3,3,10,09,56,059,47,04,07,066,36*6A
$GBGSV,5,1,20,19,73,056,52,36,18,162,43,05,23,128,39,39,12,040,40*67
$GBGSV,5,2,20,12,23,308,42,16,22,043,41,20,26,089,46,35,21,231,44*64
$GBGSV,5,3,20,44,27,281,45,37,22,047,43,06,24,045,40,58,33,099,*68
$GBGSV,5,4,20,46,39,108,,09,37,052,42,22,44,287,49,21,44,278,*6B
$GBGSV,5,5,20,48,47,085,,34,08,331,,02,07,106,35,60,08,111,40*6A
$GPGGA,040052.00,,,,,0,00,,,M,,M,,*4B
$PTNL,GGK,040052.00,010125,4742.1603148,N,01618.1003272,E,1,43,0.7,EHT751.5813,M*42
$GPGGQ,040052.00,010125,4742.1603148,N,01618.1003272,E,1,43,0.811,708.3747,M*37
$GPGFA,040052.00,3.489,5.325,0.367,0.318,11.735,0.649,,VVV*35
$GPLLK,040052.00,010125,,M,,M,1,43,0.8,,M*07
$GNGMP,040052.00,,,,,DAAA,43,0.4,,,,*56
$GPGMP,040052.00,,,,,,10,,,,2.2,136*7B
$GLGMP,040052.00,,,,,,09,,,,,*75
$GAGMP,040052.00,,,,,,09,,,,,*78
$GBGMP,040052.00,,,,,,15,,,,,*76
$PSSN,SNC,[0,273670000,2347]*43
$GPZDA,040057.00,01,01,2025,,*65
$GPDTM,W84,,00.0000000,N,00.0000000,E,00.0000000,W84*5F
$PSSN,TFM,040057.00,,,,*69
$GPRMC,040057.00,A,4742.1603152,N,01618.1003273,E,0.0,,010125,5.1,E,D*16
$GPGLL,4742.1603152,N,01618.1003273,E,040057.00,A,D*67
$GPGGA,040057.00,4742.1603152,N,01618.1003273,E,2,43,0.4,708.3733,M,43.2066,M,3.2,0136*42
$GNGNS,040057.00,4742.1603152,N,01618.1003273,E,DAAA,43,0.4,708.3733,43.2066,,*5B
$GPGNS,040057.00,,,,,,10,,,,3.2,136*7F
$GLGNS,040057.00,,,,,,09,,,,,*70
$GAGNS,040057.00,,,,,,09,,,,,*7D
$GBGNS,040057.00,,,,,,15,,,,,*73
$GPLLQ,040057.00,010125,,M,,M,1,43,0.821,,M*1B
$GPVTG,,T,,M,0.01,N,0.02,K,D*25
$GPHDT,,T*1B
$GPTHS,,V*0E
$GPROT,,V*08
$PSSN,HRP,040057.00,010125,,,,,,,00,0,,*67
$PTNL,AVR,040057.00,,Yaw,,Tilt,,,,0,,00*31
$GPGSA,A,3,03,04,06,07,09,11,16,20,26,30,,,0.7,0.4,0.6*3A
$GPGSA,A,3,70,71,72,73,79,80,85,86,87,,,,0.7,0.4,0.6*3D
$GPGSA,A,3,03,04,05,06,09,15,31,34,36,,,,0.7,0.4,0.6*3E
$GPGSA,A,3,02,05,06,09,12,16,19,20,22,35,36,37,0.7,0.4,0.6*36
$GPGSA,A,3,39,44,60,,,,,,,,,,0.7,0.4,0.6*3B
$GPGST,040057.00,1.980,0.371,0.323,11.182,0.369,0.325,0.658*6E
$GPGBS,040057.00,2.483,1.675,4.126,72,0.0001,6.804,6.188*59
$GPGRS,040057.00,1,-0.1,0.0,-0.4,0.2,0.4,-0.2,0.4,0.6,-1.1,-0.7,,*61
$GPGRS,040057.00,1,-2.7,0.7,6.8,4.9,2.2,-2.1,2.4,-2.2,-4.8,,,*6E
$GPGRS,040057.00,1,-1.0,-0.8,0.2,0.1,0.2,-0.0,0.4,-0.1,0.7,,,*6C
$GPGRS,040057.00,1,0.8,1.9,1.0,0.7,0.6,0.0,0.2,0.6,-0.2,-1.2,-0.7,-0.8*42
$GPGRS,040057.00,1,-1.4,-0.3,-1.8,,,,,,,,,*44
$GPGSV,6,1,21,09,83,349,51,16,13,078,38,20,13,305,39,26,13,047,38*76
$GPGSV,6,2,21,03,27,117,43,07,41,180,47,11,33,307,45,06,54,260,48*7A
$GPGSV,6,3,21,04,57,059,47,19,03,239,37,30,09,200,39,31,03,036,37*73
$GPGSV,6,4,21,36,35,170,45,58,13,245,38,40,24,132,36,34,31,208,44*73
$GPGSV,6,5,21,49,34,195,45,57,08,111,38,41,07,108,36,61,03,257,38*7E
$GPGSV,6,6,21*7A
$GLGSV,3,1,09,71,63,323,52,79,12,020,45,72,21,279,48,80,38,071,50*60
$GLGSV,3,2,09,73,25,136,45,86,42,244,50,87,37,310,47,70,46,061,41*69
$GLGSV,3,3,09,85,07,197,43*5E
$GAGSV,3,1,10,05,65,258,48,15,20,321,41,23,11,042,,31,13,091,39*68
$GAGSV,3,2,10,36,39,188,45,03,14,249,39,06,32,064,44,34,57,271,48*6C
$GAGSV,3,3,10,09,56,059,47,04,07,066,36*6A
$GBGSV,5,1,20,19,73,056,52,36,18,162,43,05,23,128,39,39,12,040,40*67
$GBGSV,5,2,20,12,23,308,42,16,22,043,40,20,26,089,46,35,20,231,45*65
$GBGSV,5,3,20,44,27,281,46,37,22,047,43,06,24,045,40,58,33,099,*6B
$GBGSV,5,4,20,46,39,108,,09,37,052,42,22,44,287,49,21,44,278,*6B
$GBGSV,5,5,20,48,47,085,,34,08,331,,02,07,106,35,60,08,111,40*6A
$GPGGA,040057.00,,,,,0,00,,,M,,M,,*4E
$PTNL,GGK,040057.00,010125,4742.1603152,N,01618.1003273,E,1,43,0.7,EHT751.5798,M*41
$GPGGQ,040057.00,010125,4742.1603152,N,01618.1003273,E,1,43,0.821,708.3733,M*38
$GPGFA,040057.00,3.525,5.394,0.371,0.323,11.182,0.658,,VVV*38
$GPLLK,040057.00,010125,,M,,M,1,43,0.8,,M*02
$GNGMP,040057.00,,,,,DAAA,43,0.4,,,,*53
$GPGMP,040057.00,,,,,,10,,,,3.2,136*7F
$GLGMP,040057.00,,,,,,09,,,,,*70
$GAGMP,040057.00,,,,,,09,,,,,*7D
$GBGMP,040057.00,,,,,,15,,,,,*73
$PSSN,SNC,[0,273675000,2347]*46
$GPZDA,040102.00,01,01,2025,,*64
$GPDTM,W84,,00.0000000,N,00.0000000,E,00.0000000,W84*5F
$PSSN,TFM,040102.00,,,,*68
$GPRMC,040102.00,A,4742.1603149,N,01618.1003249,E,0.0,,010125,5.1,E,D*14
$GPGLL,4742.1603149,N,01618.1003249,E,040102.00,A,D*65
$GPGGA,040102.00,4742.1603149,N,01618.1003249,E,2,43,0.4,708.3712,M,43.2066,M,3.0,0136*41
$GNGNS,040102.00,4742.1603149,N,01618.1003249,E,DAAA,43,0.4,708.3712,43.2066,,*5A
$GPGNS,040102.00,,,,,,10,,,,3.0,136*7C
$GLGNS,040102.00,,,,,,09,,,,,*71
$GAGNS,040102.00,,,,,,09,,,,,*7C
$GBGNS,040102.00,,,,,,15,,,,,*72
$GPLLQ,040102.00,010125,,M,,M,1,43,0.831,,M*1B
$GPVTG,,T,,M,0.00,N,0.01,K,D*27
$GPHDT,,T*1B
$GPTHS,,V*0E
$GPROT,,V*08
$PSSN,HRP,040102.00,010125,,,,,,,00,0,,*66
$PTNL,AVR,040102.00,,Yaw,,Tilt,,,,0,,00*30
$GPGSA,A,3,03,04,06,07,09,11,16,20,26,30,,,0.7,0.4,0.6*3A
$GPGSA,A,3,70,71,72,73,79,80,85,86,87,,,,0.7,0.4,0.6*3D
$GPGSA,A,3,03,04,05,06,09,15,31,34,36,,,,0.7,0.4,0.6*3E
$GPGSA,A,3,02,05,06,09,12,16,19,20,22,35,36,37,0.7,0.4,0.6*36
$GPGSA,A,3,39,44,60,,,,,,,,,,0.7,0.4,0.6*3B
$GPGST,040102.00,2.002,0.375,0.327,10.817,0.374,0.329,0.665*65
$GPGBS,040102.00,2.483,1.658,4.148,72,0.0001,7.590,6.188*5E
$GPGRS,040102.00,1,0.3,0.1,-0.3,0.3,0.1,-0.2,0.1,0.6,-0.4,-0.5,,*4E
$GPGRS,040102.00,1,-2.6,0.6,7.6,4.0,2.5,-2.3,1.9,-2.8,-5.0,,,*61
$GPGRS,040102.00,1,-0.6,-0.9,0.3,-0.1,0.0,-0.1,0.7,0.0,0.5,,,*69
$GPGRS,040102.00,1,1.0,1.5,1.1,0.1,-0.3,-0.2,0.2,0.9,-0.3,-0.7,-0.9,-0.9*43
$GPGRS,040102.00,1,-1.2,0.2,-1.9,,,,,,,,,*6E
$GPGSV,6,1,21,09,83,349,51,16,13,078,38,20,13,305,40,26,13,047,38*78
$GPGSV,6,2,21,03,27,117,43,07,41,180,47,11,33,307,45,06,54,260,48*7A
$GPGSV,6,3,21,04,57,059,47,19,03,239,37,30,09,200,39,31,03,036,37*73
$GPGSV,6,4,21,36,35,170,45,58,13,245,38,40,24,132,36,34,31,208,44*73
$GPGSV,6,5,21,49,34,195,45,57,08,111,38,41,07,108,35,61,03,257,38*7D
$GPGSV,6,6,21*7A
$GLGSV,3,1,09,71,63,324,52,79,12,020,44,72,21,279,48,80,38,071,50*66
$GLGSV,3,2,09,73,25,136,46,86,42,244,51,87,37,309,48,70,46,061,41*6C
$GLGSV,3,3,09,85,07,197,43*5E
$GAGSV,3,1,10,05,65,258,48,15,20,321,40,23,11,041,,31,13,091,39*6A
$GAGSV,3,2,10,36,39,188,45,03,14,249,39,06,32,064,43,34,57,271,48*6B
$GAGSV,3,3,10,09,56,059,47,04,07,066,36*6A
$GBGSV,5,1,20,19,73,056,52,36,18,162,43,05,23,128,39,39,12,040,40*67
$GBGSV,5,2,20,12,23,308,42,16,22,043,40,20,26,089,46,35,20,231,45*65
$GBGSV,5,3,20,44,27,281,45,37,22,047,43,06,24,045,40,58,33,099,*68
$GBGSV,5,4,20,46,40,108,,09,37,052,42,22,44,287,49,21,44,278,*65
$GBGSV,5,5,20,48,47,085,,34,08,331,,02,07,106,35,60,08,111,40*6A
$GPGGA,040102.00,,,,,0,00,,,M,,M,,*4F
$PTNL,GGK,040102.00,010125,4742.1603149,N,01618.1003249,E,1,43,0.7,EHT751.5777,M*42
$GPGGQ,040102.00,010125,4742.1603149,N,01618.1003249,E,1,43,0.831,708.3712,M*38
$GPGFA,040102.00,3.567,5.454,0.375,0.327,10.817,0.665,,VVV*3E
$GPLLK,040102.00,010125,,M,,M,1,43,0.8,,M*03
$GNGMP,040102.00,,,,,DAAA,43,0.4,,,,*52
$GPGMP,040102.00,,,,,,10,,,,3.0,136*7C
$GLGMP,040102.00,,,,,,09,,,,,*71
$GAGMP,040102.00,,,,,,09,,,,,*7C
$GBGMP,040102.00,,,,,,15,,,,,*72
$PSSN,SNC,[0,273680000,2347]*4C
$GPZDA,040107.00,01,01,2025,,*61
$GPDTM,W84,,00.0000000,N,00.0000000,E,00.0000000,W84*5F
$PSSN,TFM,040107.00,,,,*6D
$GPRMC,040107.00,A,4742.1603161,N,01618.1003228,E,0.0,,010125,5.1,E,D*1C
$GPGLL,4742.1603161,N,01618.1003228,E,040107.00,A,D*6D
$GPGGA,040107.00,4742.1603161,N,01618.1003228,E,2,43,0.4,708.3725,M,43.2066,M,1.6,0136*49
$GNGNS,040107.00,4742.1603161,N,01618.1003228,E,DAAA,43,0.4,708.3725,43.2066,,*56
$GPGNS,040107.00,,,,,,10,,,,1.6,136*7D
$GLGNS,040107.00,,,,,,09,,,,,*74
$GAGNS,040107.00,,,,,,09,,,,,*79
$GBGNS,040107.00,,,,,,15,,,,,*77
$GPLLQ,040107.00,010125,,M,,M,1,43,0.822,,M*1C
$GPVTG,,T,,M,0.00,N,0.01,K,D*27
$GPHDT,,T*1B
$GPTHS,,V*0E
$GPROT,,V*08
$PSSN,HRP,040107.00,010125,,,,,,,00,0,,*63
$PTNL,AVR,040107.00,,Yaw,,Tilt,,,,0,,00*35
$GPGSA,A,3,03,04,06,07,09,11,16,20,26,30,,,0.7,0.4,0.6*3A
$GPGSA,A,3,70,71,72,73,79,80,85,86,87,,,,0.7,0.4,0.6*3D
$GPGSA,A,3,03,04,05,06,09,15,31,34,36,,,,0.7,0.4,0.6*3E
$GPGSA,A,3,02,05,06,09,12,16,19,20,22,35,36,37,0.7,0.4,0.6*36
$GPGSA,A,3,39,44,60,,,,,,,,,,0.7,0.4,0.6*3B
$GPGST,040107.00,1.869,0.372,0.323,10.734,0.370,0.325,0.659*6C
$GPGBS,040107.00,2.483,1.609,4.067,72,0.0001,6.217,6.188*5A
$GPGRS,040107.00,1,0.4,0.0,-0.2,0.3,0.1,-0.1,-0.1,0.7,-1.2,-0.6,,*67
$GPGRS,040107.00,1,-2.1,0.2,6.2,5.0,1.7,-2.4,1.5,-3.6,-3.9,,,*69
$GPGRS,040107.00,1,-0.5,-1.1,0.3,-0.2,-0.1,-0.6,0.2,-0.2,0.6,,,*67
$GPGRS,040107.00,1,0.8,1.3,0.7,0.3,0.1,-0.7,0.1,0.6,-0.2,-1.1,-0.7,-1.1*6B
$GPGRS,040107.00,1,-1.5,0.2,-2.0,,,,,,,,,*66
$GPGSV,6,1,21,09,83,349,51,16,13,078,38,20,13,305,40,26,13,047,39*79
$GPGSV,6,2,21,03,27,117,43,07,41,180,48,11,33,307,45,06,54,260,48*75
$GPGSV,6,3,21,04,57,059,47,19,03,239,39,30,09,200,39,31,03,036,37*7D
$GPGSV,6,4,21,36,35,170,45,58,13,245,38,40,24,132,36,34,31,208,43*74
$GPGSV,6,5,21,49,34,195,45,57,08,111,38,41,07,108,35,61,03,257,38*7D
$GPGSV,6,6,21*7A
$GLGSV,3,1,09,71,63,324,52,79,12,019,44,72,21,279,47,80,38,071,50*63
$GLGSV,3,2,09,73,25,136,47,86,42,244,50,87,37,309,48,70,46,061,41*6C
$GLGSV,3,3,09,85,07,197,43*5E
$GAGSV,3,1,10,05,66,258,48,15,20,321,40,23,11,041,,31,13,091,39*69
$GAGSV,3,2,10,36,39,188,45,03,14,249,40,06,32,064,43,34,57,271,48*65
$GAGSV,3,3,10,09,56,059,47,04,07,066,36*6A
$GBGSV,5,1,20,19,73,056,52,36,18,162,42,05,23,128,39,39,12,040,40*66
$GBGSV,5,2,20,12,23,308,41,16,22,043,40,20,26,089,46,35,20,231,45*66
$GBGSV,5,3,20,44,27,281,45,37,22,047,42,06,24,045,40,58,33,099,*69
$GBGSV,5,4,20,46,40,108,,09,37,052,42,22,44,287,49,21,44,278,*65
$GBGSV,5,5,20,48,47,085,,34,08,331,,02,07,106,35,60,08,111,40*6A
$GPGGA,040107.00,,,,,0,00,,,M,,M,,*4A
$PTNL,GGK,040107.00,010125,4742.1603161,N,01618.1003228,E,1,43,0.7,EHT751.5790,M*43
$GPGGQ,040107.00,010125,4742.1603161,N,01618.1003228,E,1,43,0.822,708.3725,M*36
$GPGFA,040107.00,3.537,5.400,0.372,0.323,10.734,0.659,,VVV*3D
$GPLLK,040107.00,010125,,M,,M,1,43,0.8,,M*06
$GNGMP,040107.00,,,,,DAAA,43,0.4,,,,*57
$GPGMP,040107.00,,,,,,10,,,,1.6,136*7D
$GLGMP,040107.00,,,,,,09,,,,,*74
$GAGMP,040107.00,,,,,,09,,,,,*79
$GBGMP,040107.00,,,,,,15,,,,,*77
$PSSN,SNC,[0,273685000,2347]*49
$GPZDA,040112.00,01,01,2025,,*65
$GPDTM,W84,,00.0000000,N,00.0000000,E,00.0000000,W84*5F
$PSSN,TFM,040112.00,,,,*69
$GPRMC,040112.00,A,4742.1603165,N,01618.1003253,E,0.0,,010125,5.1,E,D*10
$GPGLL,4742.1603165,N,01618.1003253,E,040112.00,A,D*61
$GPGGA,040112.00,4742.1603165,N,01618.1003253,E,2,43,0.4,708.3713,M,43.2066,M,2.2,0136*47
$GNGNS,040112.00,4742.1603165,N,01618.1003253,E,DAAA,43,0.4,708.3713,43.2066,,*5F
$GPGNS,040112.00,,,,,,10,,,,2.2,136*7E
$GLGNS,040112.00,,,,,,09,,,,,*70
$GAGNS,040112.00,,,,,,09,,,,,*7D
$GBGNS,040112.00,,,,,,15,,,,,*73
$GPLLQ,040112.00,010125,,M,,M,1,43,0.810,,M*19
$GPVTG,,T,,M,0.00,N,0.00,K,D*26
$GPHDT,,T*1B
$GPTHS,,V*0E
$GPROT,,V*08
$PSSN,HRP,040112.00,010125,,,,,,,00,0,,*67
$PTNL,AVR,040112.00,,Yaw,,Tilt,,,,0,,00*31
$GPGSA,A,3,03,04,06,07,09,11,16,20,26,30,,,0.7,0.4,0.6*3A
$GPGSA,A,3,70,71,72,73,79,80,85,86,87,,,,0.7,0.4,0.6*3D
$GPGSA,A,3,03,04,05,06,09,15,31,34,36,,,,0.7,0.4,0.6*3E
$GPGSA,A,3,02,05,06,09,12,16,19,20,22,35,36,37,0.7,0.4,0.6*36
$GPGSA,A,3,39,44,60,,,,,,,,,,0.7,0.4,0.6*3B
$GPGST,040112.00,1.841,0.366,0.318,10.820,0.364,0.320,0.649*64
$GPGBS,040112.00,2.457,1.634,4.074,72,0.0001,5.946,6.188*57
$GPGRS,040112.00,1,0.0,-0.1,-0.3,0.2,0.2,0.1,0.3,0.7,-1.2,-0.3,,*4F
$GPGRS,040112.00,1,-2.9,0.4,5.9,5.0,1.4,-2.2,1.9,-3.3,-3.9,,,*67
$GPGRS,040112.00,1,-0.5,-1.0,0.5,-0.2,0.2,-0.1,0.4,-0.4,0.5,,,*4E
$GPGRS,040112.00,1,1.1,2.0,0.2,0.5,0.2,-0.5,0.1,0.5,-0.2,-1.3,0.0,-0.9*47
$GPGRS,040112.00,1,-1.1,-0.1,-1.5,,,,,,,,,*4E
$GPGSV,6,1,21,09,83,350,51,16,13,078,39,20,13,305,40,26,13,047,39*70
$GPGSV,6,2,21,03,27,117,43,07,41,180,48,11,33,307,45,06,54,260,49*74
$GPGSV,6,3,21,04,57,059,47,19,03,239,39,30,10,200,39,31,03,036,37*75
$GPGSV,6,4,21,36,35,170,45,58,13,245,38,40,24,132,36,34,31,208,43*74
$GPGSV,6,5,21,49,34,195,45,57,08,111,38,41,07,108,35,61,03,257,38*7D
$GPGSV,6,6,21*7A
$GLGSV,3,1,09,71,63,324,52,79,12,019,44,72,21,279,47,80,38,071,50*63
$GLGSV,3,2,09,73,25,136,47,86,42,244,50,87,37,309,48,70,46,061,40*6D
$GLGSV,3,3,09,85,07,197,43*5E
$GAGSV,3,1,11,05,66,258,48,15,20,321,40,23,11,041,,31,13,091,39*68
$GAGSV,3,2,11,36,39,188,45,03,14,249,40,06,32,064,43,34,57,271,48*64
$GAGSV,3,3,11,09,56,059,47,24,00,136,,04,07,066,36*59
$GBGSV,5,1,20,19,73,056,52,36,18,162,42,05,23,128,39,39,12,040,40*66
$GBGSV,5,2,20,12,23,308,42,16,22,043,40,20,26,089,46,35,20,231,45*65
$GBGSV,5,3,20,44,27,281,46,37,22,047,43,06,24,045,39,58,33,099,*65
$GBGSV,5,4,20,46,40,108,,09,37,052,42,22,44,287,49,21,44,278,*65
$GBGSV,5,5,20,48,47,085,,34,08,331,,02,07,106,36,60,08,111,40*69
$GPGGA,040112.00,,,,,0,00,,,M,,M,,*4E
$PTNL,GGK,040112.00,010125,4742.1603165,N,01618.1003253,E,1,43,0.7,EHT751.5778,M*49
$GPGGQ,040112.00,010125,4742.1603165,N,01618.1003253,E,1,43,0.810,708.3713,M*3E
$GPGFA,040112.00,3.480,5.318,0.366,0.318,10.820,0.649,,VVV*3C
$GPLLK,040112.00,010125,,M,,M,1,43,0.8,,M*02
$GNGMP,040112.00,,,,,DAAA,43,0.4,,,,*53
$GPGMP,040112.00,,,,,,10,,,,2.2,136*7E
$GLGMP,040112.00,,,,,,09,,,,,*70
$GAGMP,040112.00,,,,,,09,,,,,*7D
$GBGMP,040112.00,,,,,,15,,,,,*73
$PSSN,SNC,[0,273690000,2347]*4D
$GPZDA,040117.00,01,01,2025,,*60
$GPDTM,W84,,00.0000000,N,00.0000000,E,00.0000000,W84*5F
$PSSN,TFM,040117.00,,,,*6C
$GPRMC,040117.00,A,4742.1603179,N,01618.1003261,E,0.0,,010125,5.1,E,D*19
$GPGLL,4742.1603179,N,01618.1003261,E,040117.00,A,D*68
$GPGGA,040117.00,4742.1603179,N,01618.1003261,E,2,43,0.4,708.3692,M,43.2066,M,3.2,0136*47
$GNGNS,040117.00,4742.1603179,N,01618.1003261,E,DAAA,43,0.4,708.3692,43.2066,,*5E
$GPGNS,040117.00,,,,,,10,,,,3.2,136*7A
$GLGNS,040117.00,,,,,,09,,,,,*75
$GAGNS,040117.00,,,,,,09,,,,,*78
$GBGNS,040117.00,,,,,,15,,,,,*76
$GPLLQ,040117.00,010125,,M,,M,1,43,0.817,,M*1B
$GPVTG,,T,,M,0.00,N,0.01,K,D*27
$GPHDT,,T*1B
$GPTHS,,V*0E
$GPROT,,V*08
$PSSN,HRP,040117.00,010125,,,,,,,00,0,,*62
$PTNL,AVR,040117.00,,Yaw,,Tilt,,,,0,,00*34
$GPGSA,A,3,03,04,06,07,09,11,16,20,26,30,,,0.7,0.4,0.6*3A
$GPGSA,A,3,70,71,72,73,79,80,85,86,87,,,,0.7,0.4,0.6*3D
$GPGSA,A,3,03,04,05,06,09,15,31,34,36,,,,0.7,0.4,0.6*3E
$GPGSA,A,3,02,05,06,09,12,16,19,20,22,35,36,37,0.7,0.4,0.6*36
$GPGSA,A,3,39,44,60,,,,,,,,,,0.7,0.4,0.6*3B
$GPGST,040117.00,1.915,0.369,0.321,9.268,0.368,0.323,0.654*59
$GPGBS,040117.00,2.472,1.600,4.101,72,0.0001,6.563,6.188*59
$GPGRS,040117.00,1,0.2,0.1,-0.2,-0.0,0.3,-0.3,0.4,0.1,-1.0,-0.2,,*67
$GPGRS,040117.00,1,-3.4,0.4,6.6,4.5,1.1,-1.8,1.9,-2.5,-5.2,,,*60
$GPGRS,040117.00,1,-0.5,-0.9,0.4,-0.1,0.2,0.2,0.5,-0.1,0.5,,,*6B
$GPGRS,040117.00,1,1.8,1.7,-0.1,0.4,-0.3,-0.7,0.2,0.9,-0.4,-0.8,0.7,-0.5*46
$GPGRS,040117.00,1,-1.0,0.1,-1.4,,,,,,,,,*66
$GPGSV,6,1,21,09,83,350,51,16,13,078,39,20,13,305,40,26,13,047,39*70
$GPGSV,6,2,21,03,27,117,43,07,41,180,48,11,33,307,45,06,54,260,49*74
$GPGSV,6,3,21,04,57,059,47,19,03,239,38,30,10,200,39,31,03,036,37*74
$GPGSV,6,4,21,36,35,170,45,58,13,245,38,40,24,132,36,34,31,208,43*74
$GPGSV,6,5,21,49,34,195,45,57,08,111,38,41,07,108,35,61,03,257,38*7D
$GPGSV,6,6,21*7A
$GLGSV,3,1,09,71,63,324,52,79,12,019,45,72,21,279,48,80,38,070,50*6C
$GLGSV,3,2,09,73,25,135,46,86,42,244,51,87,37,309,47,70,46,062,41*63
$GLGSV,3,3,09,85,07,197,43*5E
$GAGSV,3,1,11,05,66,258,48,15,20,321,40,23,11,041,,31,14,091,39*6F
$GAGSV,3,2,11,36,38,188,45,03,14,249,40,06,32,064,43,34,57,271,48*65
$GAGSV,3,3,11,09,56,059,47,24,00,136,,04,07,066,36*59
$GBGSV,5,1,20,19,73,056,52,36,18,162,43,05,23,128,39,39,12,040,40*67
