$GPZDA,044442.00,01,01,2025,,*61
$GPDTM,W84,,00.0000000,N,00.0000000,E,00.0000000,W84*5F
$PSSN,TFM,044442.00,,,,*6D
$GPRMC,044442.00,A,4742.1603301,N,01618.1003200,E,0.0,,010125,5.1,E,D*12
$GPGLL,4742.1603301,N,01618.1003200,E,044442.00,A,D*63
$GPGGA,044442.00,4742.1603301,N,01618.1003200,E,2,44,0.4,707.8303,M,43.2066,M,2.5,0136*44
$GNGNS,044442.00,4742.1603301,N,01618.1003200,E,DAAA,44,0.4,707.8303,43.2066,,*5B
$GPGNS,044442.00,,,,,,10,,,,2.5,136*7D
$GLGNS,044442.00,,,,,,09,,,,,*74
$GAGNS,044442.00,,,,,,09,,,,,*79
$GBGNS,044442.00,,,,,,16,,,,,*74
$GPLLQ,044442.00,010125,,M,,M,1,44,0.886,,M*15
$GPVTG,,T,,M,0.00,N,0.00,K,D*26
$GPHDT,,T*1B
$GPTHS,,V*0E
$GPROT,,V*08
$PSSN,HRP,044442.00,010125,,,,,,,00,0,,*63
$PTNL,AVR,044442.00,,Yaw,,Tilt,,,,0,,00*35
$GPGSA,A,3,03,04,06,07,09,11,16,20,26,30,,,0.7,0.4,0.6*3A
$GPGSA,A,3,70,71,72,73,74,80,86,87,88,,,,0.7,0.4,0.6*3D
$GPGSA,A,3,03,05,06,09,15,24,31,34,36,,,,0.7,0.4,0.6*3C
$GPGSA,A,3,02,05,06,09,12,16,19,20,22,34,35,36,0.7,0.4,0.6*35
$GPGSA,A,3,37,39,44,60,,,,,,,,,0.7,0.4,0.6*3F
$GPGST,044442.00,1.830,0.368,0.293,340.267,0.361,0.303,0.750*58
$GPGBS,044442.00,2.139,1.697,4.891,72,0.0001,6.035,6.101*5B
$GPGRS,044442.00,1,-0.6,-0.2,-0.2,0.2,0.0,0.2,0.2,0.1,0.1,-0.1,,*49
$GPGRS,044442.00,1,-1.7,-0.4,6.0,4.6,1.9,-2.1,-3.1,-4.8,-1.1,,,*61
$GPGRS,044442.00,1,-0.2,0.3,0.2,-0.0,0.1,-0.3,0.3,-0.0,-0.0,,,*4D
$GPGRS,044442.00,1,1.1,2.0,0.1,1.6,0.7,0.6,0.1,0.7,-0.3,0.7,-1.7,0.1*4C
$GPGRS,044442.00,1,-0.3,-1.8,-0.1,-2.1,,,,,,,,*44
$GPGSV,5,1,20,09,68,058,50,03,10,128,40,30,28,203,44,20,31,307,44*71
$GPGSV,5,2,20,16,18,059,40,11,41,286,46,06,43,232,47,04,39,070,45*78
$GPGSV,5,3,20,07,61,174,50,29,01,344,37,26,07,031,36,36,35,170,45*77
$GPGSV,5,4,20,58,13,245,37,40,24,132,35,34,31,208,44,49,34,195,45*7F
$GPGSV,5,5,20,57,08,111,38,41,07,108,35,61,03,257,38*49
$GLGSV,3,1,09,71,67,022,51,72,38,298,50,86,22,227,46,88,14,340,44*6C
$GLGSV,3,2,09,70,30,083,39,74,17,161,38,87,37,280,47,80,33,043,49*60
$GLGSV,3,3,09,73,45,118,50*54
$GAGSV,3,1,11,05,78,295,49,36,21,187,41,06,19,072,41,24,13,128,40*6B
$GAGSV,3,2,11,31,22,077,42,15,31,311,43,03,26,261,43,09,42,068,46*69
$GAGSV,3,3,11,34,50,243,48,16,03,150,,23,09,028,*51
$GBGSV,6,1,22,22,60,301,52,37,11,036,40,34,13,317,41,16,17,044,41*6B
$GBGSV,6,2,22,20,12,102,43,06,19,046,38,05,22,129,39,44,19,264,44*60
$GBGSV,6,3,22,36,36,156,48,09,33,050,42,12,22,290,40,48,32,099,*6B
$GBGSV,6,4,22,58,38,077,,46,45,084,,21,59,295,,19,59,089,51*60
$GBGSV,6,5,22,39,06,044,39,45,00,189,,11,06,339,,02,06,107,35*64
$GBGSV,6,6,22,35,06,221,41,60,08,111,40*64
$GPGGA,044442.00,,,,,0,00,,,M,,M,,*4A
$PTNL,GGK,044442.00,010125,4742.1603301,N,01618.1003200,E,1,44,0.7,EHT751.0369,M*4D
$GPGGQ,044442.00,010125,4742.1603301,N,01618.1003200,E,1,44,0.886,707.8303,M*35
$GPGFA,044442.00,3.501,6.153,0.368,0.293,340.267,0.750,,VVV*04
$GPLLK,044442.00,010125,,M,,M,1,44,0.8,,M*01
$GNGMP,044442.00,,,,,DAAA,44,0.4,,,,*50
$GPGMP,044442.00,,,,,,10,,,,2.5,136*7D
$GLGMP,044442.00,,,,,,09,,,,,*74
$GAGMP,044442.00,,,,,,09,,,,,*79
$GBGMP,044442.00,,,,,,16,,,,,*74
$PSSN,SNC,[0,276300000,2347]*44
$GPZDA,044447.00,01,01,2025,,*64
$GPDTM,W84,,00.0000000,N,00.0000000,E,00.0000000,W84*5F
$PSSN,TFM,044447.00,,,,*68
$GPRMC,044447.00,A,4742.1603294,N,01618.1003216,E,0.0,,010125,5.1,E,D*1D
$GPGLL,4742.1603294,N,01618.1003216,E,044447.00,A,D*6C
$GPGGA,044447.00,4742.1603294,N,01618.1003216,E,2,44,0.4,707.8258,M,43.2066,M,3.1,0136*41
$GNGNS,044447.00,4742.1603294,N,01618.1003216,E,DAAA,44,0.4,707.8258,43.2066,,*5B
$GPGNS,044447.00,,,,,,10,,,,3.1,136*7D
$GLGNS,044447.00,,,,,,09,,,,,*71
$GAGNS,044447.00,,,,,,09,,,,,*7C
$GBGNS,044447.00,,,,,,16,,,,,*71
$GPLLQ,044447.00,010125,,M,,M,1,44,0.898,,M*1F
$GPVTG,,T,,M,0.00,N,0.00,K,D*26
$GPHDT,,T*1B
$GPTHS,,V*0E
$GPROT,,V*08
$PSSN,HRP,044447.00,010125,,,,,,,00,0,,*66
$PTNL,AVR,044447.00,,Yaw,,Tilt,,,,0,,00*30
$GPGSA,A,3,03,04,06,07,09,11,16,20,26,30,,,0.7,0.4,0.6*3A
$GPGSA,A,3,70,71,72,73,74,80,86,87,88,,,,0.7,0.4,0.6*3D
$GPGSA,A,3,03,05,06,09,15,24,31,34,36,,,,0.7,0.4,0.6*3C
$GPGSA,A,3,02,05,06,09,12,16,19,20,22,34,35,36,0.7,0.4,0.6*35
$GPGSA,A,3,37,39,44,60,,,,,,,,,0.7,0.4,0.6*3F
$GPGST,044447.00,1.962,0.373,0.298,339.311,0.364,0.308,0.761*58
$GPGBS,044447.00,2.195,1.716,4.913,72,0.0001,6.399,6.101*5E
$GPGRS,044447.00,1,-0.4,0.2,-0.4,0.2,-0.1,-0.2,0.1,0.3,-0.4,0.5,,*64
$GPGRS,044447.00,1,-2.3,0.2,6.4,4.3,2.1,-3.0,-3.8,-4.9,-1.5,,,*4E
$GPGRS,044447.00,1,0.0,0.4,0.3,0.1,-0.1,-0.8,0.2,-0.3,-0.0,,,*69
$GPGRS,044447.00,1,1.6,2.0,0.5,1.5,-0.2,0.4,0.1,0.5,-0.5,1.3,-1.7,-0.2*4C
$GPGRS,044447.00,1,-0.7,-1.7,-0.1,-1.9,,,,,,,,*41
$GPGSV,5,1,20,09,68,058,50,03,10,128,40,30,28,203,44,20,31,307,43*76
$GPGSV,5,2,20,16,18,059,40,11,41,286,46,06,43,232,47,04,39,070,45*78
$GPGSV,5,3,20,07,61,174,50,29,02,344,37,26,07,031,36,36,35,170,45*74
$GPGSV,5,4,20,58,13,245,38,40,24,132,36,34,31,208,44,49,34,195,45*73
$GPGSV,5,5,20,57,08,111,38,41,07,108,35,61,03,257,38*49
$GLGSV,3,1,09,71,67,022,51,72,38,298,50,86,22,227,46,88,14,339,45*63
$GLGSV,3,2,09,70,30,083,39,74,17,161,39,87,37,280,47,80,33,043,48*60
$GLGSV,3,3,09,73,45,118,50*54
$GAGSV,3,1,11,05,78,295,49,36,21,187,41,06,19,072,40,24,13,128,40*6A
$GAGSV,3,2,11,31,22,077,41,15,31,311,43,03,26,261,43,09,42,068,46*6A
$GAGSV,3,3,11,34,50,243,47,16,03,150,,23,09,028,*5E
$GBGSV,6,1,22,22,60,301,52,37,11,036,40,34,13,317,41,16,16,044,41*6A
$GBGSV,6,2,22,20,12,102,43,06,19,046,39,05,22,129,39,44,19,264,44*61
$GBGSV,6,3,22,36,36,156,48,09,33,050,42,12,22,290,41,48,32,099,*6A
$GBGSV,6,4,22,58,38,077,,46,45,084,,21,59,295,,19,59,089,51*60
$GBGSV,6,5,22,39,06,044,40,45,01,189,,11,06,338,,02,06,107,36*69
$GBGSV,6,6,22,35,06,221,41,60,08,111,40*64
$GPGGA,044447.00,,,,,0,00,,,M,,M,,*4F
$PTNL,GGK,044447.00,010125,4742.1603294,N,01618.1003216,E,1,44,0.7,EHT751.0324,M*4B
$GPGGQ,044447.00,010125,4742.1603294,N,01618.1003216,E,1,44,0.898,707.8258,M*3A
$GPGFA,044447.00,3.543,6.239,0.373,0.298,339.311,0.761,,VVV*05
$GPLLK,044447.00,010125,,M,,M,1,44,0.8,,M*04
$GNGMP,044447.00,,,,,DAAA,44,0.4,,,,*55
$GPGMP,044447.00,,,,,,10,,,,3.1,136*7D
$GLGMP,044447.00,,,,,,09,,,,,*71
$GAGMP,044447.00,,,,,,09,,,,,*7C
$GBGMP,044447.00,,,,,,16,,,,,*71
$PSSN,SNC,[0,276305000,2347]*41
$GPZDA,044452.00,01,01,2025,,*60
$GPDTM,W84,,00.0000000,N,00.0000000,E,00.0000000,W84*5F
$PSSN,TFM,044452.00,,,,*6C
$GPRMC,044452.00,A,4742.1603294,N,01618.1003216,E,0.0,,010125,5.1,E,D*19
$GPGLL,4742.1603294,N,01618.1003216,E,044452.00,A,D*68
$GPGGA,044452.00,4742.1603294,N,01618.1003216,E,2,44,0.4,707.8243,M,43.2066,M,2.9,0136*46
$GNGNS,044452.00,4742.1603294,N,01618.1003216,E,DAAA,44,0.4,707.8243,43.2066,,*55
$GPGNS,044452.00,,,,,,10,,,,2.9,136*70
$GLGNS,044452.00,,,,,,09,,,,,*75
$GAGNS,044452.00,,,,,,09,,,,,*78
$GBGNS,044452.00,,,,,,16,,,,,*75
$GPLLQ,044452.00,010125,,M,,M,1,44,0.908,,M*13
$GPVTG,,T,,M,0.00,N,0.01,K,D*27
$GPHDT,,T*1B
$GPTHS,,V*0E
$GPROT,,V*08
$PSSN,HRP,044452.00,010125,,,,,,,00,0,,*62
$PTNL,AVR,044452.00,,Yaw,,Tilt,,,,0,,00*34
$GPGSA,A,3,03,04,06,07,09,11,16,20,26,30,,,0.7,0.4,0.6*3A
$GPGSA,A,3,70,71,72,73,74,80,86,87,88,,,,0.7,0.4,0.6*3D
$GPGSA,A,3,03,05,06,09,15,24,31,34,36,,,,0.7,0.4,0.6*3C
$GPGSA,A,3,02,05,06,09,12,16,19,20,22,34,35,36,0.7,0.4,0.6*35
$GPGSA,A,3,37,39,44,60,,,,,,,,,0.7,0.4,0.6*3F
$GPGST,044452.00,1.958,0.373,0.301,338.669,0.365,0.311,0.771*57
$GPGBS,044452.00,2.237,1.656,5.012,72,0.0001,6.114,6.100*5B
$GPGRS,044452.00,1,-0.5,0.0,-0.2,0.0,-0.1,-0.2,0.5,0.6,-0.8,0.3,,*6C
$GPGRS,044452.00,1,-2.7,-0.3,6.1,4.3,2.0,-3.2,-3.4,-4.6,-0.5,,,*66
$GPGRS,044452.00,1,-0.2,0.3,0.2,0.3,-0.1,-0.8,0.1,-0.3,-0.1,,,*44
$GPGRS,044452.00,1,1.6,2.0,1.0,1.5,-0.4,0.8,0.1,0.7,-0.7,1.3,-2.2,-0.1*43
$GPGRS,044452.00,1,-1.0,-2.3,-0.0,-2.2,,,,,,,,*4D
$GPGSV,5,1,20,09,68,058,50,03,10,128,39,30,28,203,43,20,31,307,44*78
$GPGSV,5,2,20,16,18,058,40,11,41,286,46,06,43,232,47,04,39,070,45*79
$GPGSV,5,3,20,07,62,173,50,29,02,344,36,26,07,031,36,36,35,170,45*71
$GPGSV,5,4,20,58,13,245,37,40,24,132,36,34,31,208,44,49,34,195,45*7C
$GPGSV,5,5,20,57,08,111,38,41,07,108,35,61,03,257,38*49
$GLGSV,3,1,09,71,67,022,51,72,38,298,50,86,22,227,45,88,14,339,45*60
$GLGSV,3,2,09,70,30,083,38,74,17,161,40,87,37,280,48,80,33,043,48*60
$GLGSV,3,3,09,73,45,118,50*54
$GAGSV,3,1,11,05,78,295,49,36,21,187,41,06,19,072,41,24,13,128,39*65
$GAGSV,3,2,11,31,22,077,42,15,31,311,43,03,27,261,43,09,42,068,46*68
$GAGSV,3,3,11,34,50,243,48,16,03,150,,23,09,028,*51
$GBGSV,6,1,22,22,60,301,52,37,11,036,40,34,13,317,42,16,16,044,40*68
$GBGSV,6,2,22,20,12,102,43,06,19,046,38,05,22,129,39,44,18,264,44*61
$GBGSV,6,3,22,36,36,156,47,09,33,050,42,12,22,290,41,48,32,099,*65
$GBGSV,6,4,22,58,38,077,,46,45,084,,21,59,295,,19,59,089,52*63
$GBGSV,6,5,22,39,06,044,40,45,01,189,,11,06,338,,02,06,107,36*69
$GBGSV,6,6,22,35,06,221,41,60,08,111,40*64
$GPGGA,044452.00,,,,,0,00,,,M,,M,,*4B
$PTNL,GGK,044452.00,010125,4742.1603294,N,01618.1003216,E,1,44,0.7,EHT751.0308,M*41
$GPGGQ,044452.00,010125,4742.1603294,N,01618.1003216,E,1,44,0.908,707.8243,M*3C
$GPGFA,044452.00,3.550,6.318,0.373,0.301,338.669,0.771,,VVV*0A
$GPLLK,044452.00,010125,,M,,M,1,44,0.8,,M*00
$GNGMP,044452.00,,,,,DAAA,44,0.4,,,,*51
$GPGMP,044452.00,,,,,,10,,,,2.9,136*70
$GLGMP,044452.00,,,,,,09,,,,,*75
$GAGMP,044452.00,,,,,,09,,,,,*78
$GBGMP,044452.00,,,,,,16,,,,,*75
$PSSN,SNC,[0,276310000,2347]*45
$GPZDA,044457.00,01,01,2025,,*65
$GPDTM,W84,,00.0000000,N,00.0000000,E,00.0000000,W84*5F
$PSSN,TFM,044457.00,,,,*69
$GPRMC,044457.00,A,4742.1603294,N,01618.1003241,E,0.0,,010125,5.1,E,D*1E
$GPGLL,4742.1603294,N,01618.1003241,E,044457.00,A,D*6F
$GPGGA,044457.00,4742.1603294,N,01618.1003241,E,2,44,0.4,707.8240,M,43.2066,M,1.5,0136*4D
$GNGNS,044457.00,4742.1603294,N,01618.1003241,E,DAAA,44,0.4,707.8240,43.2066,,*51
$GPGNS,044457.00,,,,,,10,,,,1.5,136*7A
$GLGNS,044457.00,,,,,,09,,,,,*70
$GAGNS,044457.00,,,,,,09,,,,,*7D
$GBGNS,044457.00,,,,,,16,,,,,*70
$GPLLQ,044457.00,010125,,M,,M,1,44,0.899,,M*1F
$GPVTG,,T,,M,0.00,N,0.00,K,D*26
$GPHDT,,T*1B
$GPTHS,,V*0E
$GPROT,,V*08
$PSSN,HRP,044457.00,010125,,,,,,,00,0,,*67
$PTNL,AVR,044457.00,,Yaw,,Tilt,,,,0,,00*31
$GPGSA,A,3,03,04,06,07,09,11,16,20,26,30,,,0.7,0.4,0.6*3A
$GPGSA,A,3,70,71,72,73,74,80,86,87,88,,,,0.7,0.4,0.6*3D
$GPGSA,A,3,03,05,06,09,15,24,31,34,36,,,,0.7,0.4,0.6*3C
$GPGSA,A,3,02,05,06,09,12,16,19,20,22,34,35,36,0.7,0.4,0.6*35
$GPGSA,A,3,37,39,44,60,,,,,,,,,0.7,0.4,0.6*3F
$GPGST,044457.00,1.817,0.371,0.297,339.848,0.363,0.307,0.763*5A
$GPGBS,044457.00,2.115,1.677,4.833,72,0.0001,5.775,6.100*56
$GPGRS,044457.00,1,-0.7,0.2,-0.1,0.0,-0.4,-0.1,0.4,0.3,0.0,0.2,,*4C
$GPGRS,044457.00,1,-1.7,-0.4,5.8,4.5,2.5,-2.7,-2.1,-4.7,-0.3,,,*69
$GPGRS,044457.00,1,-0.3,0.2,0.3,0.1,0.2,-0.4,0.2,-0.3,-0.3,,,*61
$GPGRS,044457.00,1,0.9,1.8,0.5,1.4,-0.5,0.7,0.2,1.0,-0.6,1.2,-1.8,0.1*69
$GPGRS,044457.00,1,-0.8,-2.3,-0.6,-2.0,,,,,,,,*45
$GPGSV,5,1,20,09,68,058,50,03,10,128,39,30,28,203,43,20,31,307,43*7F
$GPGSV,5,2,20,16,18,058,40,11,41,285,46,06,43,232,47,04,39,070,45*7A
$GPGSV,5,3,20,07,62,173,49,29,02,344,37,26,07,031,36,36,35,170,45*78
$GPGSV,5,4,20,58,13,245,37,40,24,132,36,34,31,208,44,49,34,195,45*7C
$GPGSV,5,5,20,57,08,111,38,41,07,108,35,61,03,257,38*49
$GLGSV,3,1,09,71,67,022,51,72,38,298,49,86,22,227,46,88,14,339,45*6B
$GLGSV,3,2,09,70,30,083,39,74,17,161,40,87,37,280,48,80,33,043,49*60
$GLGSV,3,3,09,73,45,118,50*54
$GAGSV,3,1,11,05,78,295,49,36,21,187,40,06,19,072,41,24,13,128,39*64
$GAGSV,3,2,11,31,22,077,41,15,31,311,43,03,27,261,43,09,42,068,46*6B
$GAGSV,3,3,11,34,50,243,47,16,03,150,,23,09,028,*5E
$GBGSV,6,1,22,22,60,301,51,37,11,036,40,34,13,317,42,16,16,044,40*6B
$GBGSV,6,2,22,20,12,102,43,06,19,046,38,05,22,129,38,44,18,264,44*60
$GBGSV,6,3,22,36,36,156,48,09,33,050,42,12,22,290,40,48,32,099,*6B
$GBGSV,6,4,22,58,38,077,,46,45,084,,21,59,295,,19,59,089,51*60
$GBGSV,6,5,22,39,06,044,40,45,01,189,,11,06,338,,02,06,107,35*6A
$GBGSV,6,6,22,35,06,221,41,60,08,111,40*64
$GPGGA,044457.00,,,,,0,00,,,M,,M,,*4E
$PTNL,GGK,044457.00,010125,4742.1603294,N,01618.1003241,E,1,44,0.7,EHT751.0306,M*48
$GPGGQ,044457.00,010125,4742.1603294,N,01618.1003241,E,1,44,0.899,707.8240,M*31
$GPGFA,044457.00,3.527,6.260,0.371,0.297,339.848,0.763,,VVV*02
$GPLLK,044457.00,010125,,M,,M,1,44,0.8,,M*05
$GNGMP,044457.00,,,,,DAAA,44,0.4,,,,*54
$GPGMP,044457.00,,,,,,10,,,,1.5,136*7A
$GLGMP,044457.00,,,,,,09,,,,,*70
$GAGMP,044457.00,,,,,,09,,,,,*7D
$GBGMP,044457.00,,,,,,16,,,,,*70
$PSSN,SNC,[0,276315000,2347]*40
$GPZDA,044502.00,01,01,2025,,*64
$GPDTM,W84,,00.0000000,N,00.0000000,E,00.0000000,W84*5F
$PSSN,TFM,044502.00,,,,*68
$GPRMC,044502.00,A,4742.1603295,N,01618.1003243,E,0.0,,010125,5.1,E,D*1C
$GPGLL,4742.1603295,N,01618.1003243,E,044502.00,A,D*6D
$GPGGA,044502.00,4742.1603295,N,01618.1003243,E,2,44,0.4,707.8282,M,43.2066,M,2.5,0136*42
$GNGNS,044502.00,4742.1603295,N,01618.1003243,E,DAAA,44,0.4,707.8282,43.2066,,*5D
$GPGNS,044502.00,,,,,,10,,,,2.5,136*78
$GLGNS,044502.00,,,,,,09,,,,,*71
$GAGNS,044502.00,,,,,,09,,,,,*7C
$GBGNS,044502.00,,,,,,16,,,,,*71
$GPLLQ,044502.00,010125,,M,,M,1,44,0.890,,M*17
$GPVTG,,T,,M,0.00,N,0.01,K,D*27
$GPHDT,,T*1B
$GPTHS,,V*0E
$GPROT,,V*08
$PSSN,HRP,044502.00,010125,,,,,,,00,0,,*66
$PTNL,AVR,044502.00,,Yaw,,Tilt,,,,0,,00*30
$GPGSA,A,3,03,04,06,07,09,11,16,20,26,30,,,0.7,0.4,0.6*3A
$GPGSA,A,3,70,71,72,73,74,80,86,87,88,,,,0.7,0.4,0.6*3D
$GPGSA,A,3,03,05,06,09,15,24,31,34,36,,,,0.7,0.4,0.6*3C
$GPGSA,A,3,02,05,06,09,12,16,19,20,22,34,35,36,0.7,0.4,0.6*35
$GPGSA,A,3,37,39,44,60,,,,,,,,,0.7,0.4,0.6*3F
$GPGST,044502.00,1.867,0.370,0.293,340.647,0.362,0.302,0.755*57
$GPGBS,044502.00,2.141,1.696,4.901,72,0.0001,5.949,6.100*58
$GPGRS,044502.00,1,-0.7,0.0,-0.0,-0.0,-0.2,-0.4,0.3,0.3,0.1,0.7,,*63
$GPGRS,044502.00,1,-1.2,-0.1,5.9,4.6,2.8,-2.4,-2.6,-4.8,-1.3,,,*6D
$GPGRS,044502.00,1,-0.5,0.2,0.4,0.2,0.0,-0.6,0.2,-0.3,-0.2,,,*63
$GPGRS,044502.00,1,1.4,2.2,0.2,1.8,-0.2,0.6,0.1,1.2,-0.5,0.7,-1.7,0.6*6E
$GPGRS,044502.00,1,-1.1,-1.5,-0.1,-1.8,,,,,,,,*45
$GPGSV,5,1,20,09,68,058,50,03,10,128,39,30,28,203,44,20,31,307,43*78
$GPGSV,5,2,20,16,18,058,40,11,41,285,46,06,43,232,47,04,39,070,46*79
$GPGSV,5,3,20,07,62,173,49,29,02,343,38,26,07,031,36,36,35,170,45*70
$GPGSV,5,4,20,58,13,245,37,40,24,132,35,34,31,208,43,49,34,195,45*78
$GPGSV,5,5,20,57,08,111,38,41,07,108,35,61,03,257,38*49
$GLGSV,3,1,09,71,67,022,51,72,38,298,50,86,22,227,46,88,14,339,45*63
$GLGSV,3,2,09,70,30,083,39,74,17,161,40,87,37,280,48,80,33,043,48*61
$GLGSV,3,3,09,73,45,118,51*55
$GAGSV,3,1,11,05,78,295,49,36,21,187,40,06,19,072,41,24,13,128,39*64
$GAGSV,3,2,11,31,22,077,41,15,31,311,43,03,27,261,43,09,42,068,46*6B
$GAGSV,3,3,11,34,50,243,48,16,03,150,,23,09,028,*51
$GBGSV,6,1,22,22,60,301,51,37,11,036,40,34,13,317,42,16,16,044,40*6B
$GBGSV,6,2,22,20,12,102,43,06,19,046,38,05,22,129,39,44,18,264,43*66
$GBGSV,6,3,22,36,36,156,48,09,33,050,42,12,22,290,41,48,32,099,*6A
$GBGSV,6,4,22,58,38,077,,46,45,084,,21,60,295,,19,59,089,51*6A
$GBGSV,6,5,22,39,06,044,40,45,01,189,,11,06,338,,02,06,107,35*6A
$GBGSV,6,6,22,35,06,221,40,60,08,111,40*65
$GPGGA,044502.00,,,,,0,00,,,M,,M,,*4F
$PTNL,GGK,044502.00,010125,4742.1603295,N,01618.1003243,E,1,44,0.7,EHT751.0348,M*40
$GPGGQ,044502.00,010125,4742.1603295,N,01618.1003243,E,1,44,0.890,707.8282,M*34
$GPGFA,044502.00,3.516,6.189,0.370,0.293,340.647,0.755,,VVV*0A
$GPLLK,044502.00,010125,,M,,M,1,44,0.8,,M*04
$GNGMP,044502.00,,,,,DAAA,44,0.4,,,,*55
$GPGMP,044502.00,,,,,,10,,,,2.5,136*78
$GLGMP,044502.00,,,,,,09,,,,,*71
$GAGMP,044502.00,,,,,,09,,,,,*7C
$GBGMP,044502.00,,,,,,16,,,,,*71
$PSSN,SNC,[0,276320000,2347]*46
$GPZDA,044507.00,01,01,2025,,*61
$GPDTM,W84,,00.0000000,N,00.0000000,E,00.0000000,W84*5F
$PSSN,TFM,044507.00,,,,*6D
$GPRMC,044507.00,A,4742.1603292,N,01618.1003242,E,0.0,,010125,5.1,E,D*1F
$GPGLL,4742.1603292,N,01618.1003242,E,044507.00,A,D*6E
$GPGGA,044507.00,4742.1603292,N,01618.1003242,E,2,44,0.4,707.8294,M,43.2066,M,3.1,0136*43
$GNGNS,044507.00,4742.1603292,N,01618.1003242,E,DAAA,44,0.4,707.8294,43.2066,,*59
$GPGNS,044507.00,,,,,,10,,,,3.1,136*78
$GLGNS,044507.00,,,,,,09,,,,,*74
$GAGNS,044507.00,,,,,,09,,,,,*79
$GBGNS,044507.00,,,,,,16,,,,,*74
$GPLLQ,044507.00,010125,,M,,M,1,44,0.899,,M*1B
$GPVTG,,T,,M,0.00,N,0.00,K,D*26
$GPHDT,,T*1B
$GPTHS,,V*0E
$GPROT,,V*08
$PSSN,HRP,044507.00,010125,,,,,,,00,0,,*63
$PTNL,AVR,044507.00,,Yaw,,Tilt,,,,0,,00*35
$GPGSA,A,3,03,04,06,07,09,11,16,20,26,30,,,0.7,0.4,0.6*3A
$GPGSA,A,3,70,71,72,73,74,80,86,87,88,,,,0.7,0.4,0.6*3D
$GPGSA,A,3,03,05,06,09,15,24,31,34,36,,,,0.7,0.4,0.6*3C
$GPGSA,A,3,02,05,06,09,12,16,19,20,22,34,35,36,0.7,0.4,0.6*35
$GPGSA,A,3,37,39,44,60,,,,,,,,,0.7,0.4,0.6*3F
$GPGST,044507.00,2.010,0.373,0.294,339.329,0.365,0.305,0.763*5B
$GPGBS,044507.00,2.194,1.711,4.912,30,0.0001,0.823,0.804*5C
$GPGRS,044507.00,1,-0.7,-0.1,-0.2,-0.0,-0.2,-0.5,0.5,0.4,0.4,0.8,,*42
$GPGRS,044507.00,1,-2.6,-0.5,5.8,4.8,3.2,-2.9,-2.6,-5.6,-1.5,,,*6B
$GPGRS,044507.00,1,-0.2,-0.0,0.1,0.2,0.0,-0.9,0.1,-0.3,-0.2,,,*47
$GPGRS,044507.00,1,0.9,2.0,0.5,1.2,0.8,0.2,0.0,1.0,-0.5,0.3,-2.0,-0.4*67
$GPGRS,044507.00,1,-1.3,-1.8,-0.7,-2.2,,,,,,,,*40
$GPGSV,5,1,20,09,68,058,50,20,31,307,43,30,29,203,45,16,18,058,41*7D
$GPGSV,5,2,20,11,41,285,46,04,38,070,46,07,62,173,49,06,43,232,48*7B
$GPGSV,5,3,20,26,07,031,36,29,02,343,37,03,10,128,39,36,35,170,45*77
$GPGSV,5,4,20,58,13,245,38,40,24,132,36,34,31,208,43,49,34,195,45*74
$GPGSV,5,5,20,57,08,111,38,41,07,108,35,61,03,257,38*49
$GLGSV,3,1,09,71,67,023,51,72,38,298,50,86,22,227,46,88,14,339,45*62
$GLGSV,3,2,09,70,30,083,38,74,17,161,39,87,37,280,47,80,33,043,49*60
$GLGSV,3,3,09,73,45,118,50*54
$GAGSV,3,1,11,05,78,296,49,36,21,187,41,06,19,072,40,24,13,128,39*67
$GAGSV,3,2,11,31,22,077,41,15,31,311,43,03,27,261,43,09,42,068,46*6B
$GAGSV,3,3,11,34,50,243,47,16,03,150,,23,09,028,*5E
$GBGSV,6,1,22,22,60,301,51,37,11,036,40,34,13,317,42,16,16,044,40*6B
$GBGSV,6,2,22,20,12,102,42,06,19,046,38,05,22,129,38,44,18,264,43*66
$GBGSV,6,3,22,36,36,156,48,09,33,050,42,12,22,290,41,48,32,099,*6A
$GBGSV,6,4,22,58,38,077,,46,45,084,,21,60,295,,19,59,089,51*6A
$GBGSV,6,5,22,39,06,044,40,45,01,189,,11,06,338,,02,06,107,36*69
$GBGSV,6,6,22,35,06,221,41,60,08,111,40*64
$GPGGA,044507.00,,,,,0,00,,,M,,M,,*4A
$PTNL,GGK,044507.00,010125,4742.1603292,N,01618.1003242,E,1,44,0.7,EHT751.0360,M*49
$GPGGQ,044507.00,010125,4742.1603292,N,01618.1003242,E,1,44,0.899,707.8294,M*39
$GPGFA,044507.00,3.551,6.254,0.373,0.294,339.329,0.763,,VVV*0D
$GPLLK,044507.00,010125,,M,,M,1,44,0.8,,M*01
$GNGMP,044507.00,,,,,DAAA,44,0.4,,,,*50
$GPGMP,044507.00,,,,,,10,,,,3.1,136*78
$GLGMP,044507.00,,,,,,09,,,,,*74
$GAGMP,044507.00,,,,,,09,,,,,*79
$GBGMP,044507.00,,,,,,16,,,,,*74
$PSSN,SNC,[0,276325000,2347]*43
$GPZDA,044512.00,01,01,2025,,*65
$GPDTM,W84,,00.0000000,N,00.0000000,E,00.0000000,W84*5F
$PSSN,TFM,044512.00,,,,*69
$GPRMC,044512.00,A,4742.1603298,N,01618.1003270,E,0.0,,010125,5.1,E,D*10
$GPGLL,4742.1603298,N,01618.1003270,E,044512.00,A,D*61
$GPGGA,044512.00,4742.1603298,N,01618.1003270,E,2,44,0.4,707.8331,M,43.2066,M,2.9,0136*4B
$GNGNS,044512.00,4742.1603298,N,01618.1003270,E,DAAA,44,0.4,707.8331,43.2066,,*58
$GPGNS,044512.00,,,,,,10,,,,2.9,136*75
$GLGNS,044512.00,,,,,,09,,,,,*70
$GAGNS,044512.00,,,,,,09,,,,,*7D
$GBGNS,044512.00,,,,,,16,,,,,*70
$GPLLQ,044512.00,010125,,M,,M,1,44,0.903,,M*1D
$GPVTG,,T,,M,0.00,N,0.01,K,D*27
$GPHDT,,T*1B
$GPTHS,,V*0E
$GPROT,,V*08
$PSSN,HRP,044512.00,010125,,,,,,,00,0,,*67
$PTNL,AVR,044512.00,,Yaw,,Tilt,,,,0,,00*31
$GPGSA,A,3,03,04,06,07,09,11,16,20,26,30,,,0.7,0.4,0.6*3A
$GPGSA,A,3,70,71,72,73,74,80,86,87,88,,,,0.7,0.4,0.6*3D
$GPGSA,A,3,03,05,06,09,15,24,31,34,36,,,,0.7,0.4,0.6*3C
$GPGSA,A,3,02,05,06,09,12,16,19,20,22,34,35,36,0.7,0.4,0.6*35
$GPGSA,A,3,37,39,44,60,,,,,,,,,0.7,0.4,0.6*3F
$GPGST,044512.00,1.872,0.374,0.297,338.357,0.364,0.308,0.767*54
$GPGBS,044512.00,2.230,1.654,5.003,72,0.0001,5.982,6.100*5F
$GPGRS,044512.00,1,-1.0,-0.2,0.1,0.3,-0.3,-0.0,0.4,0.4,-0.1,0.2,,*64
$GPGRS,044512.00,1,-2.4,-0.6,6.0,4.2,1.7,-2.4,-3.2,-5.2,-0.7,,,*67
$GPGRS,044512.00,1,-0.4,0.0,-0.0,0.4,0.1,-0.6,0.1,-0.1,0.2,,,*63
$GPGRS,044512.00,1,1.5,1.9,0.1,1.0,0.9,0.0,0.1,0.6,-0.3,0.2,-2.2,-0.0*66
$GPGRS,044512.00,1,-0.8,-1.8,-0.1,-2.0,,,,,,,,*4A
$GPGSV,5,1,20,09,68,058,50,20,31,307,43,30,29,203,44,16,18,058,41*7C
$GPGSV,5,2,20,11,41,285,46,04,38,070,46,07,62,173,49,06,43,232,47*74
$GPGSV,5,3,20,26,07,031,37,29,02,343,36,03,10,128,39,36,35,170,45*77
$GPGSV,5,4,20,58,13,245,37,40,24,132,36,34,31,208,43,49,34,195,45*7B
$GPGSV,5,5,20,57,08,111,38,41,07,108,35,61,03,257,38*49
$GLGSV,3,1,09,71,67,023,51,72,38,298,50,86,22,227,45,88,14,339,43*67
$GLGSV,3,2,09,70,30,083,38,74,17,161,39,87,37,280,47,80,33,043,48*61
$GLGSV,3,3,09,73,45,118,50*54
$GAGSV,3,1,11,05,78,296,48,36,21,187,41,06,19,072,40,24,13,128,39*66
$GAGSV,3,2,11,31,22,077,41,15,31,311,43,03,27,261,43,09,42,068,46*6B
$GAGSV,3,3,11,34,50,243,47,16,03,150,,23,09,028,*5E
$GBGSV,6,1,22,22,60,301,51,37,11,036,40,34,13,317,42,16,16,044,40*6B
$GBGSV,6,2,22,20,12,102,42,06,19,046,38,05,22,129,38,44,18,264,44*61
$GBGSV,6,3,22,36,36,156,48,09,33,050,41,12,22,289,41,48,32,099,*61
$GBGSV,6,4,22,58,38,077,,46,45,084,,21,60,295,,19,59,089,51*6A
$GBGSV,6,5,22,39,06,044,40,45,01,189,,11,06,338,,02,06,107,36*69
$GBGSV,6,6,22,35,06,221,41,60,08,111,40*64
$GPGGA,044512.00,,,,,0,00,,,M,,M,,*4E
$PTNL,GGK,044512.00,010125,4742.1603298,N,01618.1003270,E,1,44,0.7,EHT751.0397,M*4E
$GPGGQ,044512.00,010125,4742.1603298,N,01618.1003270,E,1,44,0.903,707.8331,M*3A
$GPGFA,044512.00,3.554,6.288,0.374,0.297,338.357,0.767,,VVV*05
$GPLLK,044512.00,010125,,M,,M,1,44,0.8,,M*05
$GNGMP,044512.00,,,,,DAAA,44,0.4,,,,*54
$GPGMP,044512.00,,,,,,10,,,,2.9,136*75
$GLGMP,044512.00,,,,,,09,,,,,*70
$GAGMP,044512.00,,,,,,09,,,,,*7D
$GBGMP,044512.00,,,,,,16,,,,,*70
$PSSN,SNC,[0,276330000,2347]*47
$GPZDA,044517.00,01,01,2025,,*60
$GPDTM,W84,,00.0000000,N,00.0000000,E,00.0000000,W84*5F
$PSSN,TFM,044517.00,,,,*6C
$GPRMC,044517.00,A,4742.1603278,N,01618.1003298,E,0.0,,010125,5.1,E,D*1D
$GPGLL,4742.1603278,N,01618.1003298,E,044517.00,A,D*6C
$GPGGA,044517.00,4742.1603278,N,01618.1003298,E,2,44,0.4,707.8306,M,43.2066,M,1.5,0136*4D
$GNGNS,044517.00,4742.1603278,N,01618.1003298,E,DAAA,44,0.4,707.8306,43.2066,,*51
$GPGNS,044517.00,,,,,,10,,,,1.5,136*7F
$GLGNS,044517.00,,,,,,09,,,,,*75
$GAGNS,044517.00,,,,,,09,,,,,*78
$GBGNS,044517.00,,,,,,16,,,,,*75
$GPLLQ,044517.00,010125,,M,,M,1,44,0.895,,M*16
$GPVTG,,T,,M,0.00,N,0.00,K,D*26
$GPHDT,,T*1B
$GPTHS,,V*0E
$GPROT,,V*08
$PSSN,HRP,044517.00,010125,,,,,,,00,0,,*62
$PTNL,AVR,044517.00,,Yaw,,Tilt,,,,0,,00*34
$GPGSA,A,3,03,04,06,07,09,11,16,20,26,30,,,0.7,0.4,0.6*3A
$GPGSA,A,3,70,71,72,73,74,80,86,87,88,,,,0.7,0.4,0.6*3D
$GPGSA,A,3,03,05,06,09,15,24,31,34,36,,,,0.7,0.4,0.6*3C
$GPGSA,A,3,02,05,06,09,12,16,19,20,22,34,35,36,0.7,0.4,0.6*35
$GPGSA,A,3,37,39,44,60,,,,,,,,,0.7,0.4,0.6*3F
$GPGST,044517.00,1.868,0.371,0.294,339.583,0.362,0.304,0.760*5F
$GPGBS,044517.00,2.106,1.676,4.813,72,0.0001,6.045,6.100*55
$GPGRS,044517.00,1,-0.8,-0.1,-0.4,0.2,0.1,-0.0,0.4,0.6,0.1,-0.0,,*6D
$GPGRS,044517.00,1,-1.8,-0.5,6.0,4.2,2.0,-2.7,-3.6,-4.6,-1.3,,,*6D
$GPGRS,044517.00,1,-0.4,0.2,0.0,0.4,0.2,-0.7,0.1,-0.2,0.1,,,*4B
$GPGRS,044517.00,1,1.7,2.2,-0.4,0.8,0.6,0.2,0.2,0.8,-0.3,1.1,-1.9,0.4*6B
$GPGRS,044517.00,1,-1.2,-1.2,0.0,-2.0,,,,,,,,*62
$GPGSV,5,1,20,09,68,058,50,20,31,307,44,30,29,203,44,16,18,058,40*7A
$GPGSV,5,2,20,11,41,285,47,04,38,070,45,07,62,173,49,06,43,232,47*76
$GPGSV,5,3,20,26,07,031,37,29,02,343,37,03,10,128,39,36,35,170,45*76
$GPGSV,5,4,20,58,13,245,38,40,24,132,36,34,31,208,43,49,34,195,45*74
$GPGSV,5,5,20,57,08,111,38,41,07,108,35,61,03,257,38*49
$GLGSV,3,1,09,71,67,023,51,72,38,298,50,86,22,227,46,88,14,339,44*63
$GLGSV,3,2,09,70,30,083,39,74,17,161,40,87,37,279,47,80,33,043,48*68
$GLGSV,3,3,09,73,45,118,50*54
$GAGSV,3,1,11,05,78,296,48,36,21,187,41,06,19,073,40,24,13,128,39*67
$GAGSV,3,2,11,31,22,077,41,15,31,311,43,03,27,261,43,09,42,068,46*6B
$GAGSV,3,3,11,34,50,243,47,16,03,150,,23,09,028,*5E
$GBGSV,6,1,22,22,60,301,51,37,11,036,40,34,13,316,42,16,16,044,40*6A
$GBGSV,6,2,22,20,12,102,42,06,19,046,38,05,22,129,38,44,18,264,43*66
$GBGSV,6,3,22,36,36,156,48,09,33,050,41,12,22,289,41,48,32,099,*61
$GBGSV,6,4,22,58,38,077,,46,45,084,,21,60,295,,19,59,089,51*6A
$GBGSV,6,5,22,39,06,044,40,45,01,189,,11,06,338,,02,06,107,36*69
$GBGSV,6,6,22,35,06,221,41,60,08,111,40*64
$GPGGA,044517.00,,,,,0,00,,,M,,M,,*4B
$PTNL,GGK,044517.00,010125,4742.1603278,N,01618.1003298,E,1,44,0.7,EHT751.0372,M*48
$GPGGQ,044517.00,010125,4742.1603278,N,01618.1003298,E,1,44,0.895,707.8306,M*3D
$GPGFA,044517.00,3.527,6.229,0.371,0.294,339.583,0.760,,VVV*00
$GPLLK,044517.00,010125,,M,,M,1,44,0.8,,M*00
$GNGMP,044517.00,,,,,DAAA,44,0.4,,,,*51
$GPGMP,044517.00,,,,,,10,,,,1.5,136*7F
$GLGMP,044517.00,,,,,,09,,,,,*75
$GAGMP,044517.00,,,,,,09,,,,,*78
$GBGMP,044517.00,,,,,,16,,,,,*75
$PSSN,SNC,[0,276335000,2347]*42
$GPZDA,044522.00,01,01,2025,,*66
$GPDTM,W84,,00.0000000,N,00.0000000,E,00.0000000,W84*5F
$PSSN,TFM,044522.00,,,,*6A
$GPRMC,044522.00,A,4742.1603265,N,01618.1003318,E,0.0,,010125,5.1,E,D*1E
$GPGLL,4742.1603265,N,01618.1003318,E,044522.00,A,D*6F
$GPGGA,044522.00,4742.1603265,N,01618.1003318,E,2,44,0.4,707.8249,M,43.2066,M,2.5,0136*47
$GNGNS,044522.00,4742.1603265,N,01618.1003318,E,DAAA,44,0.4,707.8249,43.2066,,*58
$GPGNS,044522.00,,,,,,10,,,,2.5,136*7A
$GLGNS,044522.00,,,,,,09,,,,,*73
$GAGNS,044522.00,,,,,,09,,,,,*7E
$GBGNS,044522.00,,,,,,16,,,,,*73
$GPLLQ,044522.00,010125,,M,,M,1,44,0.883,,M*17
$GPVTG,,T,,M,0.00,N,0.00,K,D*26
$GPHDT,,T*1B
$GPTHS,,V*0E
$GPROT,,V*08
$PSSN,HRP,044522.00,010125,,,,,,,00,0,,*64
$PTNL,AVR,044522.00,,Yaw,,Tilt,,,,0,,00*32
$GPGSA,A,3,03,04,06,07,09,11,16,20,26,30,,,0.7,0.4,0.6*3A
$GPGSA,A,3,70,71,72,73,74,80,86,87,88,,,,0.7,0.4,0.6*3D
$GPGSA,A,3,03,05,06,09,15,24,31,34,36,,,,0.7,0.4,0.6*3C
$GPGSA,A,3,02,05,06,09,12,16,19,20,22,34,35,36,0.7,0.4,0.6*35
$GPGSA,A,3,37,39,44,60,,,,,,,,,0.7,0.4,0.6*3F
$GPGST,044522.00,1.856,0.369,0.290,339.967,0.361,0.300,0.748*52
$GPGBS,044522.00,2.133,1.695,4.880,72,0.0001,5.732,6.100*56
$GPGRS,044522.00,1,-0.9,-0.1,-0.3,0.2,0.1,-0.1,-0.1,0.4,-0.6,0.2,,*43
$GPGRS,044522.00,1,-0.8,-0.2,5.7,4.3,3.0,-2.6,-2.9,-5.4,-0.1,,,*66
$GPGRS,044522.00,1,-0.5,0.2,0.2,0.3,-0.4,-0.6,0.2,-0.1,-0.1,,,*4E
$GPGRS,044522.00,1,1.8,2.3,-0.1,0.5,0.3,-0.2,0.0,0.9,-0.3,1.1,-1.6,-0.1*67
$GPGRS,044522.00,1,-0.6,-1.2,0.0,-2.0,,,,,,,,*61
$GPGSV,5,1,20,09,68,058,50,20,31,307,44,30,29,203,44,16,18,058,40*7A
$GPGSV,5,2,20,11,41,285,46,04,38,070,45,07,62,173,50,06,43,232,47*7F
$GPGSV,5,3,20,26,07,031,37,29,02,343,37,03,10,128,38,36,35,170,45*77
$GPGSV,5,4,20,58,13,245,37,40,24,132,36,34,31,208,44,49,34,195,45*7C
$GPGSV,5,5,20,57,08,111,38,41,07,108,35,61,03,257,38*49
$GLGSV,3,1,09,71,67,023,52,72,38,298,49,86,22,227,46,88,14,339,45*69
$GLGSV,3,2,09,70,30,083,39,74,17,161,40,87,37,279,47,80,33,043,48*68
$GLGSV,3,3,09,73,45,118,50*54
$GAGSV,3,1,11,05,78,296,49,36,21,187,41,06,19,073,40,24,13,128,39*66
$GAGSV,3,2,11,31,22,077,41,15,31,311,43,03,27,261,43,09,42,068,46*6B
$GAGSV,3,3,11,34,50,243,47,16,03,150,,23,09,028,*5E
$GBGSV,6,1,22,22,60,301,51,37,11,036,41,34,13,316,42,16,16,044,39*65
$GBGSV,6,2,22,20,12,102,42,06,19,046,38,05,22,129,38,44,18,264,44*61
$GBGSV,6,3,22,36,36,156,48,09,33,050,41,12,22,289,41,48,32,099,*61
$GBGSV,6,4,22,58,38,077,,46,45,084,,21,60,295,,19,59,089,51*6A
$GBGSV,6,5,22,39,06,044,40,45,01,189,,11,06,338,,02,06,107,35*6A
$GBGSV,6,6,22,35,06,221,41,60,08,111,40*64
$GPGGA,044522.00,,,,,0,00,,,M,,M,,*4D
$PTNL,GGK,044522.00,010125,4742.1603265,N,01618.1003318,E,1,44,0.7,EHT751.0315,M*4A
$GPGGQ,044522.00,010125,4742.1603265,N,01618.1003318,E,1,44,0.883,707.8249,M*33
$GPGFA,044522.00,3.511,6.136,0.369,0.290,339.967,0.748,,VVV*0F
$GPLLK,044522.00,010125,,M,,M,1,44,0.8,,M*06
$GNGMP,044522.00,,,,,DAAA,44,0.4,,,,*57
$GPGMP,044522.00,,,,,,10,,,,2.5,136*7A
$GLGMP,044522.00,,,,,,09,,,,,*73
$GAGMP,044522.00,,,,,,09,,,,,*7E
$GBGMP,044522.00,,,,,,16,,,,,*73
$PSSN,SNC,[0,276340000,2347]*40
$GPZDA,044527.00,01,01,2025,,*63
$GPDTM,W84,,00.0000000,N,00.0000000,E,00.0000000,W84*5F
$PSSN,TFM,044527.00,,,,*6F
$GPRMC,044527.00,A,4742.1603265,N,01618.1003340,E,0.0,,010125,5.1,E,D*16
$GPGLL,4742.1603265,N,01618.1003340,E,044527.00,A,D*67
$GPGGA,044527.00,4742.1603265,N,01618.1003340,E,2,44,0.4,707.8218,M,43.2066,M,3.1,0136*4E
$GNGNS,044527.00,4742.1603265,N,01618.1003340,E,DAAA,44,0.4,707.8218,43.2066,,*54
$GPGNS,044527.00,,,,,,10,,,,3.1,136*7A
$GLGNS,044527.00,,,,,,09,,,,,*76
$GAGNS,044527.00,,,,,,09,,,,,*7B
$GBGNS,044527.00,,,,,,16,,,,,*76
$GPLLQ,044527.00,010125,,M,,M,1,44,0.898,,M*18
$GPVTG,,T,,M,0.01,N,0.01,K,D*26
$GPHDT,,T*1B
$GPTHS,,V*0E
$GPROT,,V*08
$PSSN,HRP,044527.00,010125,,,,,,,00,0,,*61
$PTNL,AVR,044527.00,,Yaw,,Tilt,,,,0,,00*37
$GPGSA,A,3,03,04,06,07,09,11,16,20,26,30,,,0.7,0.4,0.6*3A
$GPGSA,A,3,70,71,72,73,74,80,86,87,88,,,,0.7,0.4,0.6*3D
$GPGSA,A,3,03,05,06,09,15,24,31,34,36,,,,0.7,0.4,0.6*3C
$GPGSA,A,3,02,05,06,09,12,16,19,20,22,34,35,36,0.7,0.4,0.6*35
$GPGSA,A,3,37,39,44,60,,,,,,,,,0.7,0.4,0.6*3F
$GPGST,044527.00,2.014,0.374,0.295,339.337,0.365,0.306,0.761*55
$GPGBS,044527.00,2.190,1.716,4.894,72,0.0001,6.306,6.100*55
$GPGRS,044527.00,1,-0.7,-0.1,-0.2,0.3,-0.3,-0.2,0.3,0.4,-0.1,0.5,,*4B
$GPGRS,044527.00,1,-2.6,-0.1,6.3,5.1,3.9,-2.4,-2.5,-5.2,0.4,,,*41
$GPGRS,044527.00,1,-0.2,0.4,0.4,0.3,0.1,-0.8,0.6,0.2,-0.2,,,*43
$GPGRS,044527.00,1,1.6,1.9,0.1,0.9,-0.1,-0.2,0.5,1.2,-0.3,0.5,-1.8,0.2*41
$GPGRS,044527.00,1,-0.5,-1.5,0.4,-1.9,,,,,,,,*6E
$GPGSV,5,1,20,09,68,058,50,20,31,307,44,30,29,203,45,16,18,058,40*7B
$GPGSV,5,2,20,11,41,285,47,04,38,070,46,07,62,173,49,06,43,232,46*74
$GPGSV,5,3,20,26,07,031,36,29,02,343,38,03,10,128,38,36,35,170,45*79
$GPGSV,5,4,20,58,13,245,37,40,24,132,36,34,31,208,43,49,34,195,45*7B
$GPGSV,5,5,20,57,08,111,38,41,07,108,35,61,03,257,38*49
$GLGSV,3,1,09,71,67,023,51,72,38,298,50,86,22,227,47,88,14,339,45*63
$GLGSV,3,2,09,70,30,084,39,74,17,161,40,87,37,279,47,80,33,043,49*6E
$GLGSV,3,3,09,73,45,118,50*54
$GAGSV,3,1,11,05,78,296,49,36,21,187,41,06,19,073,40,24,13,128,39*66
$GAGSV,3,2,11,31,22,077,41,15,31,311,43,03,27,261,43,09,42,068,45*68
$GAGSV,3,3,11,34,50,243,47,16,03,150,,23,09,028,*5E
$GBGSV,6,1,22,22,60,301,51,37,11,036,41,34,13,316,42,16,16,044,39*65
$GBGSV,6,2,22,20,12,102,42,06,19,046,38,05,22,129,38,44,18,264,44*61
$GBGSV,6,3,22,36,36,156,48,09,33,050,41,12,22,289,40,48,32,099,*60
$GBGSV,6,4,22,58,38,077,,46,45,084,,21,60,295,,19,59,089,51*6A
$GBGSV,6,5,22,39,06,044,40,45,01,189,,11,06,338,,02,06,107,35*6A
$GBGSV,6,6,22,35,06,221,40,60,08,111,40*65
$GPGGA,044527.00,,,,,0,00,,,M,,M,,*48
$PTNL,GGK,044527.00,010125,4742.1603265,N,01618.1003340,E,1,44,0.7,EHT751.0283,M*4C
$GPGGQ,044527.00,010125,4742.1603265,N,01618.1003340,E,1,44,0.898,707.8218,M*35
$GPGFA,044527.00,3.554,6.243,0.374,0.295,339.337,0.761,,VVV*07
$GPLLK,044527.00,010125,,M,,M,1,44,0.8,,M*03
$GNGMP,044527.00,,,,,DAAA,44,0.4,,,,*52
$GPGMP,044527.00,,,,,,10,,,,3.1,136*7A
$GLGMP,044527.00,,,,,,09,,,,,*76
$GAGMP,044527.00,,,,,,09,,,,,*7B
$GBGMP,044527.00,,,,,,16,,,,,*76
$PSSN,SNC,[0,276345000,2347]*45
$GPZDA,044532.00,01,01,2025,,*67
$GPDTM,W84,,00.0000000,N,00.0000000,E,00.0000000,W84*5F
$PSSN,TFM,044532.00,,,,*6B
$GPRMC,044532.00,A,4742.1603261,N,01618.1003341,E,0.0,,010125,5.1,E,D*17
$GPGLL,4742.1603261,N,01618.1003341,E,044532.00,A,D*66
$GPGGA,044532.00,4742.1603261,N,01618.1003341,E,2,44,0.4,707.8219,M,43.2066,M,2.9,0136*47
$GNGNS,044532.00,4742.1603261,N,01618.1003341,E,DAAA,44,0.4,707.8219,43.2066,,*54
$GPGNS,044532.00,,,,,,10,,,,2.9,136*77
$GLGNS,044532.00,,,,,,09,,,,,*72
$GAGNS,044532.00,,,,,,09,,,,,*7F
$GBGNS,044532.00,,,,,,16,,,,,*72
$GPLLQ,044532.00,010125,,M,,M,1,44,0.906,,M*1A
$GPVTG,,T,,M,0.00,N,0.00,K,D*26
$GPHDT,,T*1B
$GPTHS,,V*0E
$GPROT,,V*08
$PSSN,HRP,044532.00,010125,,,,,,,00,0,,*65
$PTNL,AVR,044532.00,,Yaw,,Tilt,,,,0,,00*33
$GPGSA,A,3,03,04,06,07,09,11,16,20,26,30,,,0.7,0.4,0.6*3A
$GPGSA,A,3,70,71,72,73,74,80,86,87,88,,,,0.7,0.4,0.6*3D
$GPGSA,A,3,03,05,06,09,15,24,31,34,36,,,,0.7,0.4,0.6*3C
$GPGSA,A,3,02,05,06,09,12,16,19,20,22,34,35,36,0.7,0.4,0.6*35
$GPGSA,A,3,37,39,44,60,,,,,,,,,0.7,0.4,0.6*3F
$GPGST,044532.00,2.056,0.374,0.298,338.548,0.365,0.309,0.770*5A
$GPGBS,044532.00,2.230,1.656,4.986,72,0.0001,6.914,6.099*57
$GPGRS,044532.00,1,-0.6,0.0,-0.3,-0.0,0.0,-0.0,0.2,0.3,0.3,0.1,,*4C
$GPGRS,044532.00,1,-2.8,-0.2,6.9,4.5,3.4,-2.5,-2.7,-5.3,-0.3,,,*62
$GPGRS,044532.00,1,-0.5,0.2,0.5,0.1,0.0,-0.7,0.6,-0.2,0.0,,,*49
$GPGRS,044532.00,1,1.7,2.2,-0.1,0.8,-0.7,0.4,0.2,1.1,-0.5,0.3,-2.5,0.3*46
$GPGRS,044532.00,1,-0.7,-1.8,-0.2,-2.1,,,,,,,,*45
$GPGSV,5,1,20,09,68,058,50,20,31,307,44,30,29,203,44,16,18,058,41*7B
$GPGSV,5,2,20,11,41,285,46,04,38,070,46,07,62,173,49,06,43,232,46*75
$GPGSV,5,3,20,26,07,031,37,29,02,343,36,03,10,128,38,36,35,170,45*76
$GPGSV,5,4,20,58,13,245,38,40,24,132,36,34,31,208,44,49,34,195,45*73
$GPGSV,5,5,20,57,08,111,38,41,07,108,35,61,03,257,38*49
$GLGSV,3,1,09,71,67,023,51,72,38,298,50,86,21,227,45,88,14,339,44*63
$GLGSV,3,2,09,70,30,084,38,74,17,161,40,87,36,279,47,80,33,043,48*6F
$GLGSV,3,3,09,73,45,118,50*54
$GAGSV,3,1,11,05,78,296,49,36,21,187,41,06,19,073,40,24,13,128,39*66
$GAGSV,3,2,11,31,22,077,42,15,31,311,43,03,27,261,43,09,42,068,46*68
$GAGSV,3,3,11,34,50,243,48,16,03,150,,23,09,028,*51
$GBGSV,6,1,22,22,60,301,51,37,11,036,41,34,13,316,42,16,16,044,39*65
$GBGSV,6,2,22,20,12,102,42,06,19,046,38,05,22,129,38,44,18,264,44*61
$GBGSV,6,3,22,36,36,156,48,09,33,050,41,12,22,289,40,48,32,100,*61
$GBGSV,6,4,22,58,38,077,,46,45,084,,21,60,295,,19,59,089,51*6A
$GBGSV,6,5,22,39,06,044,40,45,01,189,,11,06,338,,02,06,107,35*6A
$GBGSV,6,6,22,35,06,221,40,60,08,111,40*65
$GPGGA,044532.00,,,,,0,00,,,M,,M,,*4C
$PTNL,GGK,044532.00,010125,4742.1603261,N,01618.1003341,E,1,44,0.7,EHT751.0285,M*4B
$GPGGQ,044532.00,010125,4742.1603261,N,01618.1003341,E,1,44,0.906,707.8219,M*33
$GPGFA,044532.00,3.559,6.311,0.374,0.298,338.548,0.770,,VVV*0A
$GPLLK,044532.00,010125,,M,,M,1,44,0.8,,M*07
$GNGMP,044532.00,,,,,DAAA,44,0.4,,,,*56
$GPGMP,044532.00,,,,,,10,,,,2.9,136*77
$GLGMP,044532.00,,,,,,09,,,,,*72
$GAGMP,044532.00,,,,,,09,,,,,*7F
$GBGMP,044532.00,,,,,,16,,,,,*72
$PSSN,SNC,[0,276350000,2347]*41
$GPZDA,044537.00,01,01,2025,,*62
$GPDTM,W84,,00.0000000,N,00.0000000,E,00.0000000,W84*5F
$PSSN,TFM,044537.00,,,,*6E
$GPRMC,044537.00,A,4742.1603232,N,01618.1003333,E,0.0,,010125,5.1,E,D*11
$GPGLL,4742.1603232,N,01618.1003333,E,044537.00,A,D*60
$GPGGA,044537.00,4742.1603232,N,01618.1003333,E,2,44,0.4,707.8211,M,43.2066,M,1.5,0136*46
$GNGNS,044537.00,4742.1603232,N,01618.1003333,E,DAAA,44,0.4,707.8211,43.2066,,*5A
$GPGNS,044537.00,,,,,,10,,,,1.5,136*7D
$GLGNS,044537.00,,,,,,09,,,,,*77
$GAGNS,044537.00,,,,,,09,,,,,*7A
$GBGNS,044537.00,,,,,,16,,,,,*77
$GPLLQ,044537.00,010125,,M,,M,1,44,0.898,,M*19
$GPVTG,,T,,M,0.01,N,0.01,K,D*26
$GPHDT,,T*1B
$GPTHS,,V*0E
$GPROT,,V*08
$PSSN,HRP,044537.00,010125,,,,,,,00,0,,*60
$PTNL,AVR,044537.00,,Yaw,,Tilt,,,,0,,00*36
$GPGSA,A,3,03,04,06,07,09,11,16,20,26,30,,,0.7,0.4,0.6*3A
$GPGSA,A,3,70,71,72,73,74,80,86,87,88,,,,0.7,0.4,0.6*3D
$GPGSA,A,3,03,05,06,09,15,24,31,34,36,,,,0.7,0.4,0.6*3C
$GPGSA,A,3,02,05,06,09,12,16,19,20,22,34,35,36,0.7,0.4,0.6*35
$GPGSA,A,3,37,39,44,60,,,,,,,,,0.7,0.4,0.6*3F
$GPGST,044537.00,1.933,0.371,0.295,339.771,0.363,0.305,0.762*5E
$GPGBS,044537.00,2.107,1.677,4.795,72,0.0001,6.128,6.099*5D
$GPGRS,044537.00,1,-0.8,0.1,0.1,0.0,0.1,-0.3,0.6,0.1,0.3,0.0,,*41
$GPGRS,044537.00,1,-2.2,-0.5,6.1,4.3,3.1,-2.2,-3.5,-5.0,-1.2,,,*66
$GPGRS,044537.00,1,-0.0,0.2,0.5,0.4,-0.1,-0.8,0.7,-0.1,0.1,,,*6C
$GPGRS,044537.00,1,2.1,2.0,0.4,0.7,0.0,-0.0,0.2,1.0,-0.3,0.9,-2.2,-0.2*46
$GPGRS,044537.00,1,-0.6,-1.4,-0.3,-1.9,,,,,,,,*47
$GPGSV,5,1,20,09,68,058,50,20,31,307,43,30,29,203,44,16,18,058,40*7D
$GPGSV,5,2,20,11,41,285,46,04,38,070,45,07,62,173,49,06,43,232,47*77
$GPGSV,5,3,20,26,07,031,36,29,02,343,36,03,10,128,39,36,35,170,45*76
$GPGSV,5,4,20,58,13,245,38,40,24,132,36,34,31,208,44,49,34,195,45*73
$GPGSV,5,5,20,57,08,111,38,41,07,108,35,61,03,257,38*49
$GLGSV,3,1,09,71,67,023,51,72,38,298,50,86,21,227,46,88,14,339,45*61
$GLGSV,3,2,09,70,30,084,38,74,17,161,39,87,36,279,47,80,33,043,49*60
$GLGSV,3,3,09,73,45,118,50*54
$GAGSV,3,1,11,05,78,296,49,36,21,187,41,06,18,073,40,24,14,128,39*60
$GAGSV,3,2,11,31,22,077,42,15,31,311,43,03,27,261,43,09,42,068,46*68
$GAGSV,3,3,11,34,50,243,48,16,03,150,,23,09,028,*51
$GBGSV,6,1,22,22,60,301,51,37,11,036,40,34,13,316,42,16,16,044,39*64
$GBGSV,6,2,22,20,12,102,42,06,19,046,38,05,22,129,38,44,18,264,43*66
$GBGSV,6,3,22,36,36,156,48,09,33,050,41,12,22,289,41,48,32,100,*60
$GBGSV,6,4,22,58,38,077,,46,45,083,,21,60,295,,19,59,089,51*6D
$GBGSV,6,5,22,39,06,044,40,45,01,189,,11,06,338,,02,06,107,35*6A
$GBGSV,6,6,22,35,05,221,40,60,08,111,40*66
$GPGGA,044537.00,,,,,0,00,,,M,,M,,*49
$PTNL,GGK,044537.00,010125,4742.1603232,N,01618.1003333,E,1,44,0.7,EHT751.0276,M*41
$GPGGQ,044537.00,010125,4742.1603232,N,01618.1003333,E,1,44,0.898,707.8211,M*3B
$GPGFA,044537.00,3.530,6.251,0.371,0.295,339.771,0.762,,VVV*07
$GPLLK,044537.00,010125,,M,,M,1,44,0.8,,M*02
$GNGMP,044537.00,,,,,DAAA,44,0.4,,,,*53
$GPGMP,044537.00,,,,,,10,,,,1.5,136*7D
$GLGMP,044537.00,,,,,,09,,,,,*77
$GAGMP,044537.00,,,,,,09,,,,,*7A
$GBGMP,044537.00,,,,,,16,,,,,*77
$PSSN,SNC,[0,276355000,2347]*44
$GPZDA,044542.00,01,01,2025,,*60
$GPDTM,W84,,00.0000000,N,00.0000000,E,00.0000000,W84*5F
$PSSN,TFM,044542.00,,,,*6C
$GPRMC,044542.00,A,4742.1603235,N,01618.1003311,E,0.0,,010125,5.1,E,D*14
$GPGLL,4742.1603235,N,01618.1003311,E,044542.00,A,D*65
$GPGGA,044542.00,4742.1603235,N,01618.1003311,E,2,44,0.4,707.8166,M,43.2066,M,2.5,0136*43
$GNGNS,044542.00,4742.1603235,N,01618.1003311,E,DAAA,44,0.4,707.8166,43.2066,,*5C
$GPGNS,044542.00,,,,,,10,,,,2.5,136*7C
$GLGNS,044542.00,,,,,,09,,,,,*75
$GAGNS,044542.00,,,,,,09,,,,,*78
$GBGNS,044542.00,,,,,,16,,,,,*75
$GPLLQ,044542.00,010125,,M,,M,1,44,0.886,,M*14
$GPVTG,,T,,M,0.00,N,0.00,K,D*26
$GPHDT,,T*1B
$GPTHS,,V*0E
$GPROT,,V*08
$PSSN,HRP,044542.00,010125,,,,,,,00,0,,*62
$PTNL,AVR,044542.00,,Yaw,,Tilt,,,,0,,00*34
$GPGSA,A,3,03,04,06,07,09,11,16,20,26,30,,,0.7,0.4,0.6*3A
$GPGSA,A,3,70,71,72,73,74,80,86,87,88,,,,0.7,0.4,0.6*3D
$GPGSA,A,3,03,05,06,09,15,24,31,34,36,,,,0.7,0.4,0.6*3C
$GPGSA,A,3,02,05,06,09,12,16,19,20,22,34,35,36,0.7,0.4,0.6*35
$GPGSA,A,3,37,39,44,60,,,,,,,,,0.7,0.4,0.6*3F
$GPGST,044542.00,1.856,0.370,0.291,340.146,0.362,0.301,0.751*52
$GPGBS,044542.00,2.134,1.697,4.863,72,0.0001,6.319,6.099*57
$GPGRS,044542.00,1,-0.5,0.2,-0.0,-0.0,0.2,-0.3,-0.1,0.3,-0.7,0.3,,*4D
$GPGRS,044542.00,1,-2.1,-0.6,6.3,4.6,2.1,-2.5,-2.5,-4.6,-0.3,,,*63
$GPGRS,044542.00,1,-0.4,0.1,0.5,0.4,-0.2,-0.7,0.4,-0.1,0.1,,,*66
$GPGRS,044542.00,1,1.3,2.1,0.5,0.8,0.8,-0.1,0.3,1.0,-0.3,1.1,-1.9,-0.4*45
$GPGRS,044542.00,1,-0.5,-1.8,-0.4,-1.8,,,,,,,,*4C
$GPGSV,5,1,20,09,68,058,50,20,31,307,43,30,29,203,44,16,18,058,41*7C
$GPGSV,5,2,20,11,41,285,46,04,38,070,45,07,62,173,49,06,43,232,47*77
$GPGSV,5,3,20,26,07,031,36,29,02,343,37,03,10,128,38,36,35,170,45*76
$GPGSV,5,4,20,58,13,245,37,40,24,132,36,34,31,208,44,49,34,195,45*7C
$GPGSV,5,5,20,57,08,111,38,41,07,108,35,61,03,257,38*49
$GLGSV,3,1,09,71,67,023,51,72,38,298,50,86,21,227,45,88,14,339,44*63
$GLGSV,3,2,09,70,30,084,38,74,17,161,39,87,36,279,47,80,33,043,48*61
$GLGSV,3,3,09,73,45,118,50*54
$GAGSV,3,1,11,05,78,296,48,36,21,187,40,06,18,073,40,24,14,128,39*60
$GAGSV,3,2,11,31,22,077,42,15,31,311,43,03,27,261,42,09,42,068,45*6A
$GAGSV,3,3,11,34,50,243,48,16,03,150,,23,09,028,*51
$GBGSV,6,1,22,22,60,302,51,37,11,036,40,34,13,316,42,16,16,044,39*67
$GBGSV,6,2,22,20,12,102,42,06,19,046,38,05,22,129,38,44,18,264,43*66
$GBGSV,6,3,22,36,36,156,47,09,33,050,41,12,22,289,41,48,32,100,*6F
$GBGSV,6,4,22,58,38,076,,46,45,083,,21,60,296,,19,59,089,51*6F
$GBGSV,6,5,22,39,06,044,39,45,01,189,,11,06,338,,02,06,107,35*64
$GBGSV,6,6,22,35,05,221,41,60,08,111,40*67
$GPGGA,044542.00,,,,,0,00,,,M,,M,,*4B
$PTNL,GGK,044542.00,010125,4742.1603235,N,01618.1003311,E,1,44,0.7,EHT751.0232,M*44
$GPGGQ,044542.00,010125,4742.1603235,N,01618.1003311,E,1,44,0.886,707.8166,M*32
$GPGFA,044542.00,3.516,6.158,0.370,0.291,340.146,0.751,,VVV*02
$GPLLK,044542.00,010125,,M,,M,1,44,0.8,,M*00
$GNGMP,044542.00,,,,,DAAA,44,0.4,,,,*51
$GPGMP,044542.00,,,,,,10,,,,2.5,136*7C
$GLGMP,044542.00,,,,,,09,,,,,*75
$GAGMP,044542.00,,,,,,09,,,,,*78
$GBGMP,044542.00,,,,,,16,,,,,*75
$PSSN,SNC,[0,276360000,2347]*42
$GPZDA,044547.00,01,01,2025,,*65
$GPDTM,W84,,00.0000000,N,00.0000000,E,00.0000000,W84*5F
$PSSN,TFM,044547.00,,,,*69
$GPRMC,044547.00,A,4742.1603224,N,01618.1003306,E,0.0,,010125,5.1,E,D*17
$GPGLL,4742.1603224,N,01618.1003306,E,044547.00,A,D*66
$GPGGA,044547.00,4742.1603224,N,01618.1003306,E,2,44,0.4,707.8152,M,43.2066,M,3.1,0136*42
$GNGNS,044547.00,4742.1603224,N,01618.1003306,E,DAAA,44,0.4,707.8152,43.2066,,*58
$GPGNS,044547.00,,,,,,10,,,,3.1,136*7C
$GLGNS,044547.00,,,,,,09,,,,,*70
$GAGNS,044547.00,,,,,,09,,,,,*7D
$GBGNS,044547.00,,,,,,16,,,,,*70
$GPLLQ,044547.00,010125,,M,,M,1,44,0.898,,M*1E
$GPVTG,,T,,M,0.00,N,0.01,K,D*27
$GPHDT,,T*1B
$GPTHS,,V*0E
$GPROT,,V*08
$PSSN,HRP,044547.00,010125,,,,,,,00,0,,*67
$PTNL,AVR,044547.00,,Yaw,,Tilt,,,,0,,00*31
$GPGSA,A,3,03,04,06,07,09,11,16,20,26,30,,,0.7,0.4,0.6*3A
$GPGSA,A,3,70,71,72,73,74,80,86,87,88,,,,0.7,0.4,0.6*3D
$GPGSA,A,3,03,05,06,09,15,24,31,34,36,,,,0.7,0.4,0.6*3C
$GPGSA,A,3,02,05,06,09,12,16,19,20,22,34,35,36,0.7,0.4,0.6*35
$GPGSA,A,3,37,39,44,60,,,,,,,,,0.7,0.4,0.6*3F
$GPGST,044547.00,1.888,0.374,0.295,339.296,0.365,0.306,0.762*54
$GPGBS,044547.00,2.191,1.716,4.886,72,0.0001,6.210,6.099*56
$GPGRS,044547.00,1,-0.4,0.0,-0.2,-0.0,0.1,-0.2,0.3,0.4,0.1,0.0,,*4B
$GPGRS,044547.00,1,-1.7,-0.4,6.2,4.7,2.5,-2.8,-2.9,-4.8,-0.9,,,*60
$GPGRS,044547.00,1,-0.1,0.2,0.6,0.4,-0.4,-0.7,0.2,-0.1,-0.1,,,*4B
$GPGRS,044547.00,1,1.5,1.9,0.2,1.0,-0.0,-0.3,0.2,1.0,-0.2,0.6,-2.1,-0.1*6C
$GPGRS,044547.00,1,-0.7,-1.1,-0.2,-2.3,,,,,,,,*4C
$GPGSV,5,1,20,09,68,058,50,20,31,307,44,30,29,203,44,16,18,058,40*7A
$GPGSV,5,2,20,11,41,285,47,04,38,070,46,07,62,173,49,06,43,232,46*74
$GPGSV,5,3,20,26,07,031,36,29,02,343,36,03,10,128,38,36,35,170,45*77
$GPGSV,5,4,20,58,13,245,38,40,24,132,36,34,31,208,44,49,34,195,45*73
$GPGSV,5,5,20,57,08,111,38,41,07,108,35,61,03,257,38*49
$GLGSV,3,1,09,71,67,024,51,72,38,298,50,86,21,227,46,88,14,339,45*66
$GLGSV,3,2,09,70,30,084,39,74,17,161,39,87,36,279,47,80,33,043,48*60
$GLGSV,3,3,09,73,45,118,50*54
$GAGSV,3,1,11,05,78,297,48,36,21,187,40,06,18,073,40,24,14,128,39*61
$GAGSV,3,2,11,31,22,077,41,15,31,311,43,03,27,261,43,09,42,068,45*68
$GAGSV,3,3,11,34,50,243,47,16,03,150,,23,09,028,*5E
$GBGSV,6,1,22,22,60,302,51,37,11,035,40,34,13,316,43,16,16,044,39*65
$GBGSV,6,2,22,20,12,102,42,06,19,046,38,05,22,129,38,44,18,264,44*61
$GBGSV,6,3,22,36,36,156,48,09,33,050,41,12,22,289,40,48,32,100,*61
$GBGSV,6,4,22,58,38,076,,46,45,083,,21,60,296,,19,59,089,51*6F
$GBGSV,6,5,22,39,06,044,39,45,01,189,,11,06,338,,02,06,107,35*64
$GBGSV,6,6,22,35,05,221,41,60,08,111,40*67
$GPGGA,044547.00,,,,,0,00,,,M,,M,,*4E
$PTNL,GGK,044547.00,010125,4742.1603224,N,01618.1003306,E,1,44,0.7,EHT751.0218,M*4F
$GPGGQ,044547.00,010125,4742.1603224,N,01618.1003306,E,1,44,0.898,707.8152,M*39
$GPGFA,044547.00,3.557,6.245,0.374,0.295,339.296,0.762,,VVV*0D
$GPLLK,044547.00,010125,,M,,M,1,44,0.8,,M*05
$GNGMP,044547.00,,,,,DAAA,44,0.4,,,,*54
$GPGMP,044547.00,,,,,,10,,,,3.1,136*7C
$GLGMP,044547.00,,,,,,09,,,,,*70
$GAGMP,044547.00,,,,,,09,,,,,*7D
$GBGMP,044547.00,,,,,,16,,,,,*70
$PSSN,SNC,[0,276365000,2347]*47
$GPZDA,044552.00,01,01,2025,,*61
$GPDTM,W84,,00.0000000,N,00.0000000,E,00.0000000,W84*5F
$PSSN,TFM,044552.00,,,,*6D
$GPRMC,044552.00,A,4742.1603210,N,01618.1003310,E,0.0,,010125,5.1,E,D*13
$GPGLL,4742.1603210,N,01618.1003310,E,044552.00,A,D*62
$GPGGA,044552.00,4742.1603210,N,01618.1003310,E,2,44,0.4,707.8126,M,43.2066,M,2.9,0136*4C
$GNGNS,044552.00,4742.1603210,N,01618.1003310,E,DAAA,44,0.4,707.8126,43.2066,,*5F
$GPGNS,044552.00,,,,,,10,,,,2.9,136*71
$GLGNS,044552.00,,,,,,09,,,,,*74
$GAGNS,044552.00,,,,,,09,,,,,*79
$GBGNS,044552.00,,,,,,16,,,,,*74
$GPLLQ,044552.00,010125,,M,,M,1,44,0.904,,M*1E
$GPVTG,,T,,M,0.00,N,0.01,K,D*27
$GPHDT,,T*1B
$GPTHS,,V*0E
$GPROT,,V*08
$PSSN,HRP,044552.00,010125,,,,,,,00,0,,*63
$PTNL,AVR,044552.00,,Yaw,,Tilt,,,,0,,00*35
$GPGSA,A,3,03,04,06,07,09,11,16,20,26,30,,,0.7,0.4,0.6*3A
$GPGSA,A,3,70,71,72,73,74,80,86,87,88,,,,0.7,0.4,0.6*3D
$GPGSA,A,3,03,05,06,09,15,24,31,34,36,,,,0.7,0.4,0.6*3C
$GPGSA,A,3,02,05,06,09,12,16,19,20,22,34,35,36,0.7,0.4,0.6*35
$GPGSA,A,3,37,39,44,60,,,,,,,,,0.7,0.4,0.6*3F
$GPGST,044552.00,1.825,0.375,0.297,338.311,0.365,0.308,0.768*5F
$GPGBS,044552.00,2.231,1.656,4.990,72,0.0001,5.831,6.099*52
$GPGRS,044552.00,1,-1.1,-0.1,-0.1,0.1,0.1,0.1,0.1,0.1,0.5,0.1,,*64
$GPGRS,044552.00,1,-1.1,-0.1,5.8,4.4,2.6,-3.0,-2.2,-5.2,-1.2,,,*6D
$GPGRS,044552.00,1,-0.3,0.2,0.4,0.3,-0.1,-0.2,0.0,-0.4,0.0,,,*63
$GPGRS,044552.00,1,1.9,1.5,0.1,1.1,-0.7,-0.1,0.3,0.9,-0.4,0.4,-1.7,-0.0*66
$GPGRS,044552.00,1,-0.8,-1.3,-0.0,-1.9,,,,,,,,*4E
$GPGSV,5,1,20,09,68,058,50,20,31,307,44,30,29,203,44,16,18,058,40*7A
$GPGSV,5,2,20,11,41,285,46,04,38,070,45,07,62,173,49,06,43,232,46*76
$GPGSV,5,3,20,26,07,031,36,29,02,343,36,03,10,128,38,36,35,170,45*77
$GPGSV,5,4,20,58,13,245,38,40,24,132,36,34,31,208,44,49,34,195,45*73
$GPGSV,5,5,20,57,08,111,38,41,07,108,35,61,03,257,38*49
$GLGSV,3,1,09,71,67,024,51,72,38,298,50,86,21,227,46,88,14,339,44*67
$GLGSV,3,2,09,70,30,084,38,74,17,161,39,87,36,279,47,80,33,042,48*60
$GLGSV,3,3,09,73,46,118,50*57
$GAGSV,3,1,11,05,78,297,48,36,21,187,40,06,18,073,40,24,14,128,39*61
$GAGSV,3,2,11,31,22,077,41,15,31,311,43,03,27,261,42,09,42,068,45*69
$GAGSV,3,3,11,34,50,243,47,16,03,150,,23,09,028,*5E
$GBGSV,6,1,22,22,60,302,51,37,11,035,40,34,13,316,43,16,16,044,39*65
$GBGSV,6,2,22,20,12,102,42,06,19,046,38,05,22,129,38,44,18,264,43*66
$GBGSV,6,3,22,36,36,156,48,09,33,050,41,12,22,289,41,48,32,100,*60
$GBGSV,6,4,22,58,38,076,,46,45,083,,21,60,296,,19,59,089,51*6F
$GBGSV,6,5,22,39,06,044,39,45,01,189,,11,06,338,,02,06,107,35*64
$GBGSV,6,6,22,35,05,221,41,60,08,111,40*67
$GPGGA,044552.00,,,,,0,00,,,M,,M,,*4A
$PTNL,GGK,044552.00,010125,4742.1603210,N,01618.1003310,E,1,44,0.7,EHT751.0192,M*4A
$GPGGQ,044552.00,010125,4742.1603210,N,01618.1003310,E,1,44,0.904,707.8126,M*3A
$GPGFA,044552.00,3.561,6.296,0.375,0.297,338.311,0.768,,VVV*04
$GPLLK,044552.00,010125,,M,,M,1,44,0.8,,M*01
$GNGMP,044552.00,,,,,DAAA,44,0.4,,,,*50
$GPGMP,044552.00,,,,,,10,,,,2.9,136*71
$GLGMP,044552.00,,,,,,09,,,,,*74
$GAGMP,044552.00,,,,,,09,,,,,*79
$GBGMP,044552.00,,,,,,16,,,,,*74
$PSSN,SNC,[0,276370000,2347]*43
$GPZDA,044557.00,01,01,2025,,*64
$GPDTM,W84,,00.0000000,N,00.0000000,E,00.0000000,W84*5F
$PSSN,TFM,044557.00,,,,*68
$GPRMC,044557.00,A,4742.1603190,N,01618.1003335,E,0.0,,010125,5.1,E,D*1A
$GPGLL,4742.1603190,N,01618.1003335,E,044557.00,A,D*6B
$GPGGA,044557.00,4742.1603190,N,01618.1003335,E,2,44,0.4,707.8080,M,43.2066,M,1.5,0136*47
$GNGNS,044557.00,4742.1603190,N,01618.1003335,E,DAAA,44,0.4,707.8080,43.2066,,*5B
$GPGNS,044557.00,,,,,,10,,,,1.5,136*7B
$GLGNS,044557.00,,,,,,09,,,,,*71
$GAGNS,044557.00,,,,,,09,,,,,*7C
$GBGNS,044557.00,,,,,,16,,,,,*71
$GPLLQ,044557.00,010125,,M,,M,1,44,0.896,,M*11
$GPVTG,,T,,M,0.00,N,0.00,K,D*26
$GPHDT,,T*1B
$GPTHS,,V*0E
$GPROT,,V*08
$PSSN,HRP,044557.00,010125,,,,,,,00,0,,*66
$PTNL,AVR,044557.00,,Yaw,,Tilt,,,,0,,00*30
$GPGSA,A,3,03,04,06,07,09,11,16,20,26,30,,,0.7,0.4,0.6*3A
$GPGSA,A,3,70,71,72,73,74,80,86,87,88,,,,0.7,0.4,0.6*3D
$GPGSA,A,3,03,05,06,09,15,24,31,34,36,,,,0.7,0.4,0.6*3C
$GPGSA,A,3,02,05,06,09,12,16,19,20,22,34,35,36,0.7,0.4,0.6*35
$GPGSA,A,3,37,39,44,60,,,,,,,,,0.7,0.4,0.6*3F
$GPGST,044557.00,1.837,0.372,0.294,339.534,0.363,0.304,0.761*5E
$GPGBS,044557.00,2.107,1.677,4.796,72,0.0001,5.808,6.099*50
$GPGRS,044557.00,1,-0.8,-0.2,0.2,0.1,-0.2,-0.3,-0.1,0.4,0.5,0.4,,*68
$GPGRS,044557.00,1,-2.4,-0.6,5.8,4.0,2.3,-2.4,-2.9,-5.2,-0.9,,,*6C
$GPGRS,044557.00,1,-0.5,0.3,0.3,0.2,0.1,-0.5,-0.1,-0.3,-0.0,,,*4B
$GPGRS,044557.00,1,1.8,1.6,0.4,1.0,0.4,-0.4,-0.0,0.6,-0.5,0.1,-1.9,-0.4*61
$GPGRS,044557.00,1,-0.8,-1.3,-0.2,-2.3,,,,,,,,*40
$GPGSV,5,1,20,09,67,058,50,20,31,307,44,30,29,203,43,16,18,058,40*72
$GPGSV,5,2,20,11,41,285,46,04,38,070,45,07,62,173,49,06,43,232,47*77
$GPGSV,5,3,20,26,07,031,35,29,02,343,37,03,10,128,38,36,35,170,45*75
$GPGSV,5,4,20,58,13,245,38,40,24,132,36,34,31,208,44,49,34,195,45*73
$GPGSV,5,5,20,57,08,111,38,41,07,108,35,61,03,257,39*48
$GLGSV,3,1,09,71,67,024,51,72,38,298,50,86,21,227,46,88,14,339,44*67
$GLGSV,3,2,09,70,30,084,39,74,18,161,39,87,36,279,47,80,33,042,48*6E
$GLGSV,3,3,09,73,46,118,50*57
$GAGSV,3,1,11,05,78,297,48,36,21,187,41,06,18,073,40,24,14,128,40*6E
$GAGSV,3,2,11,31,22,076,40,15,31,311,43,03,27,261,42,09,41,068,46*69
$GAGSV,3,3,11,34,50,243,47,16,03,150,,23,09,028,*5E
$GBGSV,6,1,22,22,60,302,51,37,11,035,40,34,13,316,43,16,16,044,39*65
$GBGSV,6,2,22,20,12,102,42,06,19,046,38,05,22,129,38,44,18,264,44*61
$GBGSV,6,3,22,36,36,156,47,09,33,050,41,12,22,289,40,48,32,100,*6E
$GBGSV,6,4,22,58,38,076,,46,45,083,,21,60,296,,19,59,089,51*6F
$GBGSV,6,5,22,39,06,044,39,45,01,189,,11,06,338,,02,06,107,35*64
$GBGSV,6,6,22,35,05,221,41,60,08,111,40*67
$GPGGA,044557.00,,,,,0,00,,,M,,M,,*4F
$PTNL,GGK,044557.00,010125,4742.1603190,N,01618.1003335,E,1,44,0.7,EHT751.0145,M*49
$GPGGQ,044557.00,010125,4742.1603190,N,01618.1003335,E,1,44,0.896,707.8080,M*34
$GPGFA,044557.00,3.534,6.238,0.372,0.294,339.534,0.761,,VVV*08
$GPLLK,044557.00,010125,,M,,M,1,44,0.8,,M*04
$GNGMP,044557.00,,,,,DAAA,44,0.4,,,,*55
$GPGMP,044557.00,,,,,,10,,,,1.5,136*7B
$GLGMP,044557.00,,,,,,09,,,,,*71
$GAGMP,044557.00,,,,,,09,,,,,*7C
$GBGMP,044557.00,,,,,,16,,,,,*71
$PSSN,SNC,[0,276375000,2347]*46
$GPZDA,044602.00,01,01,2025,,*67
$GPDTM,W84,,00.0000000,N,00.0000000,E,00.0000000,W84*5F
$PSSN,TFM,044602.00,,,,*6B
$GPRMC,044602.00,A,4742.1603216,N,01618.1003376,E,0.0,,010125,5.1,E,D*13
$GPGLL,4742.1603216,N,01618.1003376,E,044602.00,A,D*62
$GPGGA,044602.00,4742.1603216,N,01618.1003376,E,2,43,0.4,707.8114,M,43.2066,M,2.4,0136*47
$GNGNS,044602.00,4742.1603216,N,01618.1003376,E,DAAA,43,0.4,707.8114,43.2066,,*59
$GPGNS,044602.00,,,,,,09,,,,2.4,136*72
$GLGNS,044602.00,,,,,,09,,,,,*72
$GAGNS,044602.00,,,,,,09,,,,,*7F
$GBGNS,044602.00,,,,,,16,,,,,*72
$GPLLQ,044602.00,010125,,M,,M,1,43,0.913,,M*19
$GPVTG,,T,,M,0.00,N,0.00,K,D*26
$GPHDT,,T*1B
$GPTHS,,V*0E
$GPROT,,V*08
$PSSN,HRP,044602.00,010125,,,,,,,00,0,,*65
$PTNL,AVR,044602.00,,Yaw,,Tilt,,,,0,,00*33
$GPGSA,A,3,03,04,06,07,09,11,16,20,30,,,,0.7,0.4,0.6*3E
$GPGSA,A,3,70,71,72,73,74,80,86,87,88,,,,0.7,0.4,0.6*3D
$GPGSA,A,3,03,05,06,09,15,24,31,34,36,,,,0.7,0.4,0.6*3C
$GPGSA,A,3,02,05,06,09,12,16,19,20,22,34,35,36,0.7,0.4,0.6*35
$GPGSA,A,3,37,39,44,60,,,,,,,,,0.7,0.4,0.6*3F
$GPGST,044602.00,1.817,0.376,0.292,342.745,0.369,0.300,0.779*52
$GPGBS,044602.00,2.148,1.666,5.012,72,0.0001,5.851,6.099*5E
$GPGRS,044602.00,1,-1.0,-0.2,0.1,0.3,-0.2,-0.5,0.4,0.4,0.6,,,*64
$GPGRS,044602.00,1,-1.4,-0.3,5.9,4.6,2.7,-2.8,-2.6,-4.5,-0.8,,,*6E
$GPGRS,044602.00,1,-0.1,0.4,0.6,0.3,0.3,-0.4,0.2,0.0,0.3,,,*62
$GPGRS,044602.00,1,1.5,1.6,0.5,1.0,0.8,0.2,0.4,0.7,-0.5,0.2,-1.5,-0.2*68
$GPGRS,044602.00,1,-0.7,-1.1,0.2,-1.9,,,,,,,,*6A
$GPGSV,5,1,20,09,67,058,50,20,31,307,44,30,29,203,44,16,18,058,40*75
$GPGSV,5,2,20,11,41,285,46,04,38,070,45,07,62,173,49,06,43,232,46*76
$GPGSV,5,3,20,26,07,031,35,29,02,343,37,03,10,129,38,36,35,170,45*74
$GPGSV,5,4,20,58,13,245,37,40,24,132,36,34,31,208,43,49,34,195,45*7B
$GPGSV,5,5,20,57,08,111,38,41,07,108,35,61,03,257,38*49
$GLGSV,3,1,09,71,67,024,51,72,38,298,49,86,21,227,46,88,14,339,45*6E
$GLGSV,3,2,09,70,29,084,39,74,18,161,39,80,33,042,49,87,36,279,47*67
$GLGSV,3,3,09,73,46,118,50*57
$GAGSV,3,1,11,05,78,297,49,36,21,187,41,06,18,073,40,24,14,128,40*6F
$GAGSV,3,2,11,31,22,076,40,15,31,311,43,03,27,261,43,09,41,068,46*68
$GAGSV,3,3,11,34,50,243,47,16,03,150,,23,09,028,*5E
$GBGSV,6,1,22,22,60,302,51,37,11,035,40,34,13,316,42,16,16,044,39*64
$GBGSV,6,2,22,20,12,102,42,06,19,046,38,05,22,129,38,44,18,264,44*61
$GBGSV,6,3,22,36,36,156,47,09,33,050,41,12,22,289,41,48,32,100,*6F
$GBGSV,6,4,22,58,38,076,,46,45,083,,21,60,296,,19,59,089,51*6F
$GBGSV,6,5,22,39,06,044,39,45,01,189,,11,06,338,,02,06,107,35*64
$GBGSV,6,6,22,35,05,221,41,60,08,111,40*67
$GPGGA,044602.00,,,,,0,00,,,M,,M,,*4C
$PTNL,GGK,044602.00,010125,4742.1603216,N,01618.1003376,E,1,43,0.7,EHT751.0179,M*48
$GPGGQ,044602.00,010125,4742.1603216,N,01618.1003376,E,1,43,0.913,707.8114,M*3A
$GPGFA,044602.00,3.574,6.389,0.376,0.292,342.745,0.779,,VVV*07
$GPLLK,044602.00,010125,,M,,M,1,43,0.8,,M*00
$GNGMP,044602.00,,,,,DAAA,43,0.4,,,,*51
$GPGMP,044602.00,,,,,,09,,,,2.4,136*72
$GLGMP,044602.00,,,,,,09,,,,,*72
$GAGMP,044602.00,,,,,,09,,,,,*7F
$GBGMP,044602.00,,,,,,16,,,,,*72
$PSSN,SNC,[0,276380000,2347]*4C
$GPZDA,044607.00,01,01,2025,,*62
$GPDTM,W84,,00.0000000,N,00.0000000,E,00.0000000,W84*5F
$PSSN,TFM,044607.00,,,,*6E
$GPRMC,044607.00,A,4742.1603226,N,01618.1003374,E,0.0,,010125,5.1,E,D*17
$GPGLL,4742.1603226,N,01618.1003374,E,044607.00,A,D*66
$GPGGA,044607.00,4742.1603226,N,01618.1003374,E,2,44,0.4,707.8084,M,43.2066,M,3.1,0136*48
$GNGNS,044607.00,4742.1603226,N,01618.1003374,E,DAAA,44,0.4,707.8084,43.2066,,*52
$GPGNS,044607.00,,,,,,10,,,,3.1,136*7B
$GLGNS,044607.00,,,,,,09,,,,,*77
$GAGNS,044607.00,,,,,,09,,,,,*7A
$GBGNS,044607.00,,,,,,16,,,,,*77
$GPLLQ,044607.00,010125,,M,,M,1,44,0.896,,M*17
$GPVTG,,T,,M,0.00,N,0.01,K,D*27
$GPHDT,,T*1B
$GPTHS,,V*0E
$GPROT,,V*08
$PSSN,HRP,044607.00,010125,,,,,,,00,0,,*60
$PTNL,AVR,044607.00,,Yaw,,Tilt,,,,0,,00*36
$GPGSA,A,3,03,04,06,07,09,11,16,20,26,30,,,0.7,0.4,0.6*3A
$GPGSA,A,3,70,71,72,73,74,80,86,87,88,,,,0.7,0.4,0.6*3D
$GPGSA,A,3,03,05,06,09,15,24,31,34,36,,,,0.7,0.4,0.6*3C
$GPGSA,A,3,02,05,06,09,12,16,19,20,22,34,35,36,0.7,0.4,0.6*35
$GPGSA,A,3,37,39,44,60,,,,,,,,,0.7,0.4,0.6*3F
$GPGST,044607.00,1.873,0.375,0.292,339.042,0.365,0.304,0.760*5A
$GPGBS,044607.00,2.192,1.714,4.902,72,0.0001,5.979,6.099*5A
$GPGRS,044607.00,1,-0.2,0.0,-0.3,0.3,-0.1,-0.5,0.3,0.3,0.2,0.4,,*4F
$GPGRS,044607.00,1,-2.0,-1.0,6.0,4.6,2.8,-2.8,-3.2,-4.6,-0.5,,,*60
$GPGRS,044607.00,1,-0.2,0.2,0.5,0.2,0.0,-0.4,0.5,-0.0,0.0,,,*4A
$GPGRS,044607.00,1,1.6,2.2,0.1,1.1,0.2,0.5,0.5,0.8,-0.5,0.4,-1.7,0.2*46
$GPGRS,044607.00,1,-0.7,-1.4,0.1,-2.1,,,,,,,,*62
$GPGSV,5,1,20,09,67,058,50,20,31,307,44,30,29,203,44,16,18,058,39*7B
$GPGSV,5,2,20,11,41,285,46,04,38,070,46,07,62,173,49,06,43,231,47*77
$GPGSV,5,3,20,26,07,031,35,29,02,343,36,03,10,129,38,36,35,170,45*75
$GPGSV,5,4,20,58,13,245,37,40,24,132,36,34,31,208,43,49,34,195,45*7B
$GPGSV,5,5,20,57,08,111,38,41,07,108,35,61,03,257,38*49
$GLGSV,3,1,09,71,67,024,51,72,38,299,49,86,21,227,45,88,14,339,45*6C
$GLGSV,3,2,09,70,29,084,39,74,18,161,39,80,33,042,48,87,36,279,47*66
$GLGSV,3,3,09,73,46,117,50*58
$GAGSV,3,1,11,05,78,297,48,36,20,187,41,06,18,073,40,24,14,128,40*6F
$GAGSV,3,2,11,31,22,076,41,15,31,311,43,03,27,261,43,09,41,068,46*69
$GAGSV,3,3,11,34,50,243,47,16,03,150,,23,09,028,*5E
$GBGSV,6,1,22,22,60,302,51,37,11,035,39,34,13,316,42,16,16,044,40*64
$GBGSV,6,2,22,20,12,102,42,06,19,046,38,05,22,129,38,44,18,264,44*61
$GBGSV,6,3,22,36,36,156,47,09,33,050,41,12,22,289,41,48,32,100,*6F
$GBGSV,6,4,22,58,38,076,,46,45,083,,21,60,296,,19,59,089,51*6F
$GBGSV,6,5,22,39,06,044,39,45,01,189,,11,06,338,,02,06,107,36*67
$GBGSV,6,6,22,35,05,221,41,60,08,111,40*67
$GPGGA,044607.00,,,,,0,00,,,M,,M,,*49
$PTNL,GGK,044607.00,010125,4742.1603226,N,01618.1003374,E,1,44,0.7,EHT751.0150,M*40
$GPGGQ,044607.00,010125,4742.1603226,N,01618.1003374,E,1,44,0.896,707.8084,M*3D
$GPGFA,044607.00,3.563,6.230,0.375,0.292,339.042,0.760,,VVV*00
$GPLLK,044607.00,010125,,M,,M,1,44,0.8,,M*02
$GNGMP,044607.00,,,,,DAAA,44,0.4,,,,*53
$GPGMP,044607.00,,,,,,10,,,,3.1,136*7B
$GLGMP,044607.00,,,,,,09,,,,,*77
$GAGMP,044607.00,,,,,,09,,,,,*7A
$GBGMP,044607.00,,,,,,16,,,,,*77
$PSSN,SNC,[0,276385000,2347]*49
$GPZDA,044612.00,01,01,2025,,*66
$GPDTM,W84,,00.0000000,N,00.0000000,E,00.0000000,W84*5F
$PSSN,TFM,044612.00,,,,*6A
$GPRMC,044612.00,A,4742.1603243,N,01618.1003337,E,0.0,,010125,5.1,E,D*17
$GPGLL,4742.1603243,N,01618.1003337,E,044612.00,A,D*66
$GPGGA,044612.00,4742.1603243,N,01618.1003337,E,2,44,0.4,707.8138,M,43.2066,M,2.9,0136*47
$GNGNS,044612.00,4742.1603243,N,01618.1003337,E,DAAA,44,0.4,707.8138,43.2066,,*54
$GPGNS,044612.00,,,,,,10,,,,2.9,136*76
$GLGNS,044612.00,,,,,,09,,,,,*73
$GAGNS,044612.00,,,,,,09,,,,,*7E
$GBGNS,044612.00,,,,,,16,,,,,*73
$GPLLQ,044612.00,010125,,M,,M,1,44,0.904,,M*19
$GPVTG,,T,,M,0.00,N,0.00,K,D*26
$GPHDT,,T*1B
$GPTHS,,V*0E
$GPROT,,V*08
$PSSN,HRP,044612.00,010125,,,,,,,00,0,,*64
$PTNL,AVR,044612.00,,Yaw,,Tilt,,,,0,,00*32
$GPGSA,A,3,03,04,06,07,09,11,16,20,26,30,,,0.7,0.4,0.6*3A
$GPGSA,A,3,70,71,72,73,74,80,86,87,88,,,,0.7,0.4,0.6*3D
$GPGSA,A,3,03,05,06,09,15,24,31,34,36,,,,0.7,0.4,0.6*3C
$GPGSA,A,3,02,05,06,09,12,16,19,20,22,34,35,36,0.7,0.4,0.6*35
$GPGSA,A,3,37,39,44,60,,,,,,,,,0.7,0.4,0.6*3F
$GPGST,044612.00,1.802,0.375,0.295,338.267,0.365,0.307,0.768*50
$GPGBS,044612.00,2.232,1.655,4.996,72,0.0001,6.176,6.099*5A
$GPGRS,044612.00,1,-0.2,-0.1,0.0,0.2,-0.1,-0.5,0.4,0.1,0.2,0.3,,*4A
$GPGRS,044612.00,1,-2.0,-0.4,6.2,4.5,1.2,-2.6,-3.2,-4.2,-0.6,,,*60
$GPGRS,044612.00,1,-0.2,0.1,0.4,0.1,-0.3,-0.5,0.9,-0.0,-0.2,,,*43
$GPGRS,044612.00,1,2.4,1.8,-0.1,0.7,-0.5,0.2,0.2,0.9,-0.4,0.3,-1.9,0.4*45
$GPGRS,044612.00,1,-0.4,-1.0,0.2,-2.0,,,,,,,,*63
$GPGSV,5,1,20,09,67,059,50,20,31,307,44,30,29,203,44,16,18,058,40*74
$GPGSV,5,2,20,11,41,285,46,04,38,070,45,07,62,173,49,06,43,231,47*74
$GPGSV,5,3,20,26,07,031,36,29,02,343,36,03,10,129,38,36,35,170,45*76
$GPGSV,5,4,20,58,13,245,37,40,24,132,36,34,31,208,43,49,34,195,45*7B
$GPGSV,5,5,20,57,08,111,38,41,07,108,35,61,03,257,38*49
$GLGSV,3,1,09,71,67,024,51,72,38,299,49,86,21,227,46,88,14,339,45*6F
$GLGSV,3,2,09,70,29,084,39,74,18,161,38,80,33,042,49,87,36,279,47*66
$GLGSV,3,3,09,73,46,117,51*59
$GAGSV,3,1,11,05,78,297,49,36,20,187,41,06,18,073,40,24,14,128,40*6E
$GAGSV,3,2,11,31,22,076,41,15,31,311,43,03,27,261,43,09,41,068,46*69
$GAGSV,3,3,11,34,50,243,47,16,03,150,,23,09,028,*5E
$GBGSV,6,1,22,22,60,302,51,37,11,035,39,34,13,316,42,16,16,044,40*64
$GBGSV,6,2,22,20,12,102,42,06,19,046,37,05,22,129,38,44,18,264,44*6E
$GBGSV,6,3,22,36,36,156,47,09,33,050,41,12,22,289,40,48,32,100,*6E
$GBGSV,6,4,22,58,38,076,,46,45,083,,21,60,296,,19,59,090,51*67
$GBGSV,6,5,22,39,06,044,39,45,01,189,,11,06,338,,02,06,107,36*67
$GBGSV,6,6,22,35,05,221,41,60,08,111,40*67
$GPGGA,044612.00,,,,,0,00,,,M,,M,,*4D
$PTNL,GGK,044612.00,010125,4742.1603243,N,01618.1003337,E,1,44,0.7,EHT751.0204,M*42
$GPGGQ,044612.00,010125,4742.1603243,N,01618.1003337,E,1,44,0.904,707.8138,M*31
$GPGFA,044612.00,3.567,6.299,0.375,0.295,338.267,0.768,,VVV*08
$GPLLK,044612.00,010125,,M,,M,1,44,0.8,,M*06
$GNGMP,044612.00,,,,,DAAA,44,0.4,,,,*57
$GPGMP,044612.00,,,,,,10,,,,2.9,136*76
$GLGMP,044612.00,,,,,,09,,,,,*73
$GAGMP,044612.00,,,,,,09,,,,,*7E
$GBGMP,044612.00,,,,,,16,,,,,*73
$PSSN,SNC,[0,276390000,2347]*4D
$GPZDA,044617.00,01,01,2025,,*63
$GPDTM,W84,,00.0000000,N,00.0000000,E,00.0000000,W84*5F
$PSSN,TFM,044617.00,,,,*6F
$GPRMC,044617.00,A,4742.1603242,N,01618.1003323,E,0.0,,010125,5.1,E,D*16
$GPGLL,4742.1603242,N,01618.1003323,E,044617.00,A,D*67
$GPGGA,044617.00,4742.1603242,N,01618.1003323,E,2,44,0.4,707.8116,M,43.2066,M,1.5,0136*45
$GNGNS,044617.00,4742.1603242,N,01618.1003323,E,DAAA,44,0.4,707.8116,43.2066,,*59
$GPGNS,044617.00,,,,,,10,,,,1.5,136*7C
$GLGNS,044617.00,,,,,,09,,,,,*76
$GAGNS,044617.00,,,,,,09,,,,,*7B
$GBGNS,044617.00,,,,,,16,,,,,*76
$GPLLQ,044617.00,010125,,M,,M,1,44,0.896,,M*16
$GPVTG,,T,,M,0.00,N,0.01,K,D*27
$GPHDT,,T*1B
$GPTHS,,V*0E
$GPROT,,V*08
$PSSN,HRP,044617.00,010125,,,,,,,00,0,,*61
$PTNL,AVR,044617.00,,Yaw,,Tilt,,,,0,,00*37
$GPGSA,A,3,03,04,06,07,09,11,16,20,26,30,,,0.7,0.4,0.6*3A
$GPGSA,A,3,70,71,72,73,74,80,86,87,88,,,,0.7,0.4,0.6*3D
$GPGSA,A,3,03,05,06,09,15,24,31,34,36,,,,0.7,0.4,0.6*3C
$GPGSA,A,3,02,05,06,09,12,16,19,20,22,34,35,36,0.7,0.4,0.6*35
$GPGSA,A,3,37,39,44,60,,,,,,,,,0.7,0.4,0.6*3F
$GPGST,044617.00,1.860,0.372,0.292,339.454,0.363,0.303,0.761*5D
$GPGBS,044617.00,2.110,1.676,4.800,72,0.0001,6.419,6.099*5F
$GPGRS,044617.00,1,-1.2,0.1,0.1,0.1,-0.2,-0.3,1.1,0.2,0.0,-0.0,,*4F
$GPGRS,044617.00,1,-1.9,0.2,6.4,5.0,0.8,-2.6,-2.6,-4.5,-0.7,,,*4E
$GPGRS,044617.00,1,-0.3,0.2,0.4,-0.0,-0.2,-0.7,0.6,-0.1,-0.4,,,*63
$GPGRS,044617.00,1,1.5,1.8,-0.4,0.4,-0.8,0.4,0.2,0.9,-0.4,0.8,-1.9,0.5*45
$GPGRS,044617.00,1,-0.5,-1.4,-0.7,-2.0,,,,,,,,*4B
$GPGSV,5,1,20,09,67,059,50,20,31,307,44,30,29,203,44,16,18,058,41*75
$GPGSV,5,2,20,11,41,285,46,04,38,070,45,07,62,173,49,06,42,231,46*74
