$GPZDA,124442.00,01,01,2025,,*66
$GPDTM,W84,,00.0000000,N,00.0000000,E,00.0000000,W84*5F
$PSSN,TFM,124442.00,,,,*6A
$GPRMC,124442.00,A,4742.1603222,N,01618.1007096,E,0.0,,010125,5.1,E,D*1C
$GPGLL,4742.1603222,N,01618.1007096,E,124442.00,A,D*6D
$GPGGA,124442.00,4742.1603222,N,01618.1007096,E,2,41,0.4,708.4942,M,43.2065,M,2.9,0136*4C
$GNGNS,124442.00,4742.1603222,N,01618.1007096,E,DAAA,41,0.4,708.4942,43.2065,,*5F
$GPGNS,124442.00,,,,,,09,,,,2.9,136*7E
$GLGNS,124442.00,,,,,,09,,,,,*73
$GAGNS,124442.00,,,,,,08,,,,,*7F
$GBGNS,124442.00,,,,,,15,,,,,*70
$GPLLQ,124442.00,010125,,M,,M,1,41,1.047,,M*13
$GPVTG,,T,,M,0.00,N,0.00,K,D*26
$GPHDT,,T*1B
$GPTHS,,V*0E
$GPROT,,V*08
$PSSN,HRP,124442.00,010125,,,,,,,00,0,,*64
$PTNL,AVR,124442.00,,Yaw,,Tilt,,,,0,,00*32
$GPGSA,A,3,06,11,12,17,19,24,25,29,32,,,,0.7,0.4,0.6*37
$GPGSA,A,3,67,68,69,76,77,78,86,87,88,,,,0.7,0.4,0.6*38
$GPGSA,A,3,02,07,08,27,29,30,34,36,,,,,0.7,0.4,0.6*35
$GPGSA,A,3,05,07,10,12,14,24,25,26,33,34,35,40,0.7,0.4,0.6*32
$GPGSA,A,3,41,44,60,,,,,,,,,,0.7,0.4,0.6*34
$GPGST,124442.00,2.126,0.536,0.373,5.234,0.534,0.375,0.819*51
$GPGBS,124442.00,3.129,2.394,5.043,68,0.0001,7.075,6.221*50
$GPGRS,124442.00,1,-0.6,0.1,-0.1,1.5,0.0,0.3,-0.2,-0.5,0.3,,,*60
$GPGRS,124442.00,1,6.0,7.1,0.4,-2.1,-5.7,-1.9,0.9,-1.8,-2.3,,,*44
$GPGRS,124442.00,1,0.5,0.2,-0.3,-0.2,1.0,0.0,-0.0,0.3,,,,*62
$GPGRS,124442.00,1,1.8,0.5,0.5,-1.3,1.0,0.6,-0.0,-0.2,-0.6,1.0,-0.6,-0.2*46
$GPGRS,124442.00,1,1.1,0.7,-1.2,,,,,,,,,*4C
$GPGSV,5,1,19,12,79,302,51,19,33,051,44,11,17,122,42,06,25,085,43*7B
$GPGSV,5,2,19,32,28,307,45,25,38,268,45,24,62,148,50,15,03,186,23*7A
$GPGSV,5,3,19,29,06,207,39,17,06,040,39,36,35,170,46,58,13,245,36*75
$GPGSV,5,4,19,40,23,133,37,34,31,208,43,49,34,195,45,57,08,111,38*7E
$GPGSV,5,5,19,41,07,108,36,61,03,257,38*70
$GLGSV,3,1,09,77,62,051,47,69,17,336,45,76,21,086,46,88,12,164,45*6C
$GLGSV,3,2,09,67,21,230,47,68,35,285,50,86,33,045,49,78,40,299,51*60
$GLGSV,3,3,09,87,45,109,48*56
$GAGSV,3,1,11,30,72,280,49,08,25,192,42,34,11,134,39,11,14,034,35*67
$GAGSV,3,2,11,27,20,260,41,29,23,315,41,36,24,083,41,02,49,066,46*67
$GAGSV,3,3,11,07,49,253,47,25,00,074,32,10,01,011,31*52
$GBGSV,5,1,20,24,81,330,51,07,13,054,38,33,18,249,44,05,20,130,38*61
$GBGSV,5,2,20,12,27,165,42,10,26,058,39,41,20,300,43,23,26,281,*63
$GBGSV,5,3,20,56,34,053,,25,27,290,45,44,45,143,48,35,43,072,48*66
$GBGSV,5,4,20,26,41,100,48,34,08,186,40,32,01,347,,40,08,042,39*60
$GBGSV,5,5,20,02,04,109,32,31,09,098,,14,09,225,39,60,08,111,39*6A
$GPGGA,124442.00,,,,,0,00,,,M,,M,,*4D
$PTNL,GGK,124442.00,010125,4742.1603222,N,01618.1007096,E,1,41,0.7,EHT751.7007,M*4A
$GPGGQ,124442.00,010125,4742.1603222,N,01618.1007096,E,1,41,1.047,708.4942,M*36
$GPGFA,124442.00,5.092,6.712,0.536,0.373,5.234,0.819,,VVV*0D
$GPLLK,124442.00,010125,,M,,M,1,41,0.8,,M*03
$GNGMP,124442.00,,,,,DAAA,41,0.4,,,,*52
$GPGMP,124442.00,,,,,,09,,,,2.9,136*7E
$GLGMP,124442.00,,,,,,09,,,,,*73
$GAGMP,124442.00,,,,,,08,,,,,*7F
$GBGMP,124442.00,,,,,,15,,,,,*70
$PSSN,SNC,[0,305100000,2347]*43
$GPZDA,124447.00,01,01,2025,,*63
$GPDTM,W84,,00.0000000,N,00.0000000,E,00.0000000,W84*5F
$PSSN,TFM,124447.00,,,,*6F
$GPRMC,124447.00,A,4742.1603213,N,01618.1007124,E,0.0,,010125,5.1,E,D*13
$GPGLL,4742.1603213,N,01618.1007124,E,124447.00,A,D*62
$GPGGA,124447.00,4742.1603213,N,01618.1007124,E,2,41,0.4,708.4931,M,43.2065,M,2.6,0136*48
$GNGNS,124447.00,4742.1603213,N,01618.1007124,E,DAAA,41,0.4,708.4931,43.2065,,*54
$GPGNS,124447.00,,,,,,09,,,,2.6,136*74
$GLGNS,124447.00,,,,,,09,,,,,*76
$GAGNS,124447.00,,,,,,08,,,,,*7A
$GBGNS,124447.00,,,,,,15,,,,,*75
$GPLLQ,124447.00,010125,,M,,M,1,41,1.053,,M*13
$GPVTG,,T,,M,0.01,N,0.01,K,D*26
$GPHDT,,T*1B
$GPTHS,,V*0E
$GPROT,,V*08
$PSSN,HRP,124447.00,010125,,,,,,,00,0,,*61
$PTNL,AVR,124447.00,,Yaw,,Tilt,,,,0,,00*37
$GPGSA,A,3,06,11,12,17,19,24,25,29,32,,,,0.7,0.4,0.6*37
$GPGSA,A,3,67,68,69,76,77,78,86,87,88,,,,0.7,0.4,0.6*38
$GPGSA,A,3,02,07,08,27,29,30,34,36,,,,,0.7,0.4,0.6*35
$GPGSA,A,3,05,07,10,12,14,24,25,26,33,34,35,40,0.7,0.4,0.6*32
$GPGSA,A,3,41,44,60,,,,,,,,,,0.7,0.4,0.6*34
$GPGST,124447.00,1.998,0.542,0.376,5.168,0.541,0.377,0.821*5D
$GPGBS,124447.00,3.126,2.381,5.099,68,0.0001,6.279,6.221*56
$GPGRS,124447.00,1,-0.2,0.3,-0.0,1.5,-0.2,0.2,-0.3,-0.5,0.9,,,*47
$GPGRS,124447.00,1,5.1,6.3,0.7,-2.5,-5.9,-2.2,1.8,-1.1,-2.0,,,*4B
$GPGRS,124447.00,1,0.5,0.1,-0.4,-0.4,0.9,0.0,-0.0,0.1,,,,*6F
$GPGRS,124447.00,1,0.9,0.2,1.0,-0.6,1.1,0.5,0.4,0.2,-0.9,1.4,-0.7,0.1*66
$GPGRS,124447.00,1,1.2,0.7,-1.3,,,,,,,,,*4B
$GPGSV,5,1,19,12,79,303,51,19,33,051,44,11,17,122,41,06,25,084,43*78
$GPGSV,5,2,19,32,28,307,45,25,38,268,45,24,62,148,50,15,03,186,24*7D
$GPGSV,5,3,19,29,06,207,39,17,06,040,39,36,35,170,46,58,13,245,37*74
$GPGSV,5,4,19,40,23,133,37,34,31,208,43,49,34,195,45,57,08,111,38*7E
$GPGSV,5,5,19,41,07,108,36,61,03,257,39*71
$GLGSV,3,1,09,77,62,051,47,69,17,336,46,76,21,086,46,88,12,164,44*6E
$GLGSV,3,2,09,67,21,230,47,68,35,285,49,86,33,045,48,78,40,299,50*68
$GLGSV,3,3,09,87,45,109,48*56
$GAGSV,3,1,11,30,72,280,49,08,25,192,42,34,11,133,39,11,14,034,35*60
$GAGSV,3,2,11,27,20,260,41,29,23,315,41,36,24,083,41,02,49,066,46*67
$GAGSV,3,3,11,07,49,253,46,25,00,074,31,10,01,011,31*50
$GBGSV,5,1,20,24,81,330,51,07,13,054,38,33,18,249,43,05,20,130,38*66
$GBGSV,5,2,20,12,27,165,42,10,26,058,39,41,20,300,43,23,26,281,*63
$GBGSV,5,3,20,56,34,053,,25,27,290,45,44,45,143,49,35,43,072,48*67
$GBGSV,5,4,20,26,41,100,48,34,08,186,40,32,01,347,,40,08,042,39*60
$GBGSV,5,5,20,02,04,109,32,31,09,098,,14,09,225,38,60,08,111,39*6B
$GPGGA,124447.00,,,,,0,00,,,M,,M,,*48
$PTNL,GGK,124447.00,010125,4742.1603213,N,01618.1007124,E,1,41,0.7,EHT751.6996,M*45
$GPGGQ,124447.00,010125,4742.1603213,N,01618.1007124,E,1,41,1.053,708.4931,M*38
$GPGFA,124447.00,5.150,6.735,0.542,0.376,5.168,0.821,,VVV*05
$GPLLK,124447.00,010125,,M,,M,1,41,0.8,,M*06
$GNGMP,124447.00,,,,,DAAA,41,0.4,,,,*57
$GPGMP,124447.00,,,,,,09,,,,2.6,136*74
$GLGMP,124447.00,,,,,,09,,,,,*76
$GAGMP,124447.00,,,,,,08,,,,,*7A
$GBGMP,124447.00,,,,,,15,,,,,*75
$PSSN,SNC,[0,305105000,2347]*46
$GPZDA,124452.00,01,01,2025,,*67
$GPDTM,W84,,00.0000000,N,00.0000000,E,00.0000000,W84*5F
$PSSN,TFM,124452.00,,,,*6B
$GPRMC,124452.00,A,4742.1603207,N,01618.1007135,E,0.0,,010125,5.1,E,D*12
$GPGLL,4742.1603207,N,01618.1007135,E,124452.00,A,D*63
$GPGGA,124452.00,4742.1603207,N,01618.1007135,E,2,41,0.4,708.4952,M,43.2065,M,2.7,0136*4D
$GNGNS,124452.00,4742.1603207,N,01618.1007135,E,DAAA,41,0.4,708.4952,43.2065,,*50
$GPGNS,124452.00,,,,,,09,,,,2.7,136*71
$GLGNS,124452.00,,,,,,09,,,,,*72
$GAGNS,124452.00,,,,,,08,,,,,*7E
$GBGNS,124452.00,,,,,,15,,,,,*71
$GPLLQ,124452.00,010125,,M,,M,1,41,1.056,,M*12
$GPVTG,,T,,M,0.00,N,0.00,K,D*26
$GPHDT,,T*1B
$GPTHS,,V*0E
$GPROT,,V*08
$PSSN,HRP,124452.00,010125,,,,,,,00,0,,*65
$PTNL,AVR,124452.00,,Yaw,,Tilt,,,,0,,00*33
$GPGSA,A,3,06,11,12,17,19,24,25,29,32,,,,0.7,0.4,0.6*37
$GPGSA,A,3,67,68,69,76,77,78,86,87,88,,,,0.7,0.4,0.6*38
$GPGSA,A,3,02,07,08,27,29,30,34,36,,,,,0.7,0.4,0.6*35
$GPGSA,A,3,05,07,10,12,14,24,25,26,33,34,35,40,0.7,0.4,0.6*32
$GPGSA,A,3,41,44,60,,,,,,,,,,0.7,0.4,0.6*34
$GPGST,124452.00,1.922,0.546,0.377,5.643,0.545,0.379,0.821*59
$GPGBS,124452.00,3.116,2.359,5.211,77,0.0001,-5.764,6.108*77
$GPGRS,124452.00,1,-0.4,0.4,-0.2,1.1,0.1,-0.1,0.1,-0.5,0.4,,,*66
$GPGRS,124452.00,1,5.3,5.5,0.3,-2.1,-5.8,-2.2,1.1,-1.9,-2.6,,,*4E
$GPGRS,124452.00,1,0.2,-0.1,-0.6,-0.5,0.8,-0.0,0.0,-0.1,,,,*6E
$GPGRS,124452.00,1,0.8,0.2,0.9,-0.6,0.8,0.3,-0.0,0.0,-0.7,1.2,-0.8,0.2*4A
$GPGRS,124452.00,1,0.8,0.7,-1.5,,,,,,,,,*42
$GPGSV,5,1,19,12,79,303,51,19,33,051,45,11,17,122,41,06,25,084,42*78
$GPGSV,5,2,19,32,28,307,45,25,38,268,45,24,62,148,50,15,03,186,23*7A
$GPGSV,5,3,19,29,06,207,39,17,06,040,39,36,35,170,46,58,13,245,37*74
$GPGSV,5,4,19,40,23,133,37,34,31,208,43,49,34,195,45,57,08,111,38*7E
$GPGSV,5,5,19,41,07,108,35,61,03,257,38*73
$GLGSV,3,1,09,77,62,051,47,69,17,336,45,76,21,086,46,88,12,164,44*6D
$GLGSV,3,2,09,67,20,230,46,68,35,284,50,86,33,045,48,78,40,299,51*60
$GLGSV,3,3,09,87,45,109,48*56
$GAGSV,3,1,11,30,72,280,49,08,25,192,42,34,11,133,39,11,14,034,35*60
$GAGSV,3,2,11,27,20,260,41,29,23,315,41,36,24,083,41,02,49,066,46*67
$GAGSV,3,3,11,07,49,253,47,25,00,074,33,10,01,011,31*53
$GBGSV,5,1,20,24,81,330,51,07,13,054,38,33,18,249,43,05,20,130,38*66
$GBGSV,5,2,20,12,27,165,42,10,26,058,39,41,20,300,43,23,26,281,*63
$GBGSV,5,3,20,56,34,053,,25,27,290,45,44,45,143,49,35,43,072,48*67
$GBGSV,5,4,20,26,41,100,48,34,08,186,40,32,01,347,,40,08,042,39*60
$GBGSV,5,5,20,02,04,109,33,31,09,098,,14,09,225,38,60,08,111,39*6A
$GPGGA,124452.00,,,,,0,00,,,M,,M,,*4C
$PTNL,GGK,124452.00,010125,4742.1603207,N,01618.1007135,E,1,41,0.7,EHT751.7017,M*45
$GPGGQ,124452.00,010125,4742.1603207,N,01618.1007135,E,1,41,1.056,708.4952,M*39
$GPGFA,124452.00,5.195,6.734,0.546,0.377,5.643,0.821,,VVV*02
$GPLLK,124452.00,010125,,M,,M,1,41,0.8,,M*02
$GNGMP,124452.00,,,,,DAAA,41,0.4,,,,*53
$GPGMP,124452.00,,,,,,09,,,,2.7,136*71
$GLGMP,124452.00,,,,,,09,,,,,*72
$GAGMP,124452.00,,,,,,08,,,,,*7E
$GBGMP,124452.00,,,,,,15,,,,,*71
$PSSN,SNC,[0,305110000,2347]*42
$GPZDA,124457.00,01,01,2025,,*62
$GPDTM,W84,,00.0000000,N,00.0000000,E,00.0000000,W84*5F
$PSSN,TFM,124457.00,,,,*6E
$GPRMC,124457.00,A,4742.1603195,N,01618.1007161,E,0.0,,010125,5.1,E,D*1E
$GPGLL,4742.1603195,N,01618.1007161,E,124457.00,A,D*6F
$GPGGA,124457.00,4742.1603195,N,01618.1007161,E,2,42,0.4,708.4981,M,43.2065,M,1.9,0136*41
$GNGNS,124457.00,4742.1603195,N,01618.1007161,E,DAAA,42,0.4,708.4981,43.2065,,*51
$GPGNS,124457.00,,,,,,09,,,,1.9,136*79
$GLGNS,124457.00,,,,,,09,,,,,*77
$GAGNS,124457.00,,,,,,09,,,,,*7A
$GBGNS,124457.00,,,,,,15,,,,,*74
$GPLLQ,124457.00,010125,,M,,M,1,42,1.052,,M*10
$GPVTG,,T,,M,0.00,N,0.01,K,D*27
$GPHDT,,T*1B
$GPTHS,,V*0E
$GPROT,,V*08
$PSSN,HRP,124457.00,010125,,,,,,,00,0,,*60
$PTNL,AVR,124457.00,,Yaw,,Tilt,,,,0,,00*36
$GPGSA,A,3,06,11,12,17,19,24,25,29,32,,,,0.7,0.4,0.6*37
$GPGSA,A,3,67,68,69,76,77,78,86,87,88,,,,0.7,0.4,0.6*38
$GPGSA,A,3,02,07,08,11,27,29,30,34,36,,,,0.7,0.4,0.6*35
$GPGSA,A,3,05,07,10,12,14,24,25,26,33,34,35,40,0.7,0.4,0.6*32
$GPGSA,A,3,41,44,60,,,,,,,,,,0.7,0.4,0.6*34
$GPGST,124457.00,2.014,0.540,0.375,5.627,0.539,0.377,0.821*50
$GPGBS,124457.00,3.082,2.390,5.038,77,0.0001,-6.052,6.108*73
$GPGRS,124457.00,1,-0.9,0.6,-0.1,0.7,0.3,0.1,0.1,-0.9,0.5,,,*4A
$GPGRS,124457.00,1,5.4,6.2,0.5,-1.8,-6.1,-2.5,0.7,-1.9,-2.6,,,*4E
$GPGRS,124457.00,1,0.4,0.1,-0.6,-1.8,-0.1,0.6,0.1,0.0,-0.1,,,*6C
$GPGRS,124457.00,1,1.1,0.4,1.5,-1.3,0.5,0.4,0.2,-0.1,-0.6,1.1,-0.7,0.6*48
$GPGRS,124457.00,1,0.7,0.4,-1.3,,,,,,,,,*4D
$GPGSV,5,1,19,12,79,303,51,19,33,051,45,11,17,122,42,06,25,084,42*7B
$GPGSV,5,2,19,32,28,307,45,25,38,268,45,24,62,148,50,15,03,186,24*7D
$GPGSV,5,3,19,29,06,207,39,17,06,040,39,36,35,170,46,58,13,245,36*75
$GPGSV,5,4,19,40,23,133,37,34,31,208,43,49,34,195,45,57,08,111,38*7E
$GPGSV,5,5,19,41,07,108,35,61,03,257,38*73
$GLGSV,3,1,09,77,62,051,47,69,17,336,45,76,21,086,46,88,12,164,44*6D
$GLGSV,3,2,09,67,20,230,46,68,35,284,49,86,33,045,48,78,40,299,50*69
$GLGSV,3,3,09,87,45,109,48*56
$GAGSV,3,1,11,30,72,280,49,08,25,192,42,34,11,133,39,11,14,034,35*60
$GAGSV,3,2,11,27,20,260,42,29,23,315,41,36,24,083,41,02,49,066,46*64
$GAGSV,3,3,11,07,49,253,47,25,00,074,32,10,01,011,30*53
$GBGSV,5,1,20,24,81,330,51,07,13,054,38,33,17,249,44,05,20,130,39*6F
$GBGSV,5,2,20,12,27,165,42,10,26,058,40,41,20,300,43,23,26,281,*6D
$GBGSV,5,3,20,56,34,053,,25,27,290,45,44,45,143,49,35,43,072,48*67
$GBGSV,5,4,20,26,41,100,48,34,08,186,40,32,01,347,,40,08,042,39*60
$GBGSV,5,5,20,02,04,109,32,31,09,098,,14,09,225,38,60,08,111,39*6B
$GPGGA,124457.00,,,,,0,00,,,M,,M,,*49
$PTNL,GGK,124457.00,010125,4742.1603195,N,01618.1007161,E,1,42,0.7,EHT751.7047,M*4F
$GPGGQ,124457.00,010125,4742.1603195,N,01618.1007161,E,1,42,1.052,708.4981,M*3C
$GPGFA,124457.00,5.133,6.734,0.540,0.375,5.627,0.821,,VVV*0D
$GPLLK,124457.00,010125,,M,,M,1,42,0.8,,M*04
$GNGMP,124457.00,,,,,DAAA,42,0.4,,,,*55
$GPGMP,124457.00,,,,,,09,,,,1.9,136*79
$GLGMP,124457.00,,,,,,09,,,,,*77
$GAGMP,124457.00,,,,,,09,,,,,*7A
$GBGMP,124457.00,,,,,,15,,,,,*74
$PSSN,SNC,[0,305115000,2347]*47
$GPZDA,124502.00,01,01,2025,,*63
$GPDTM,W84,,00.0000000,N,00.0000000,E,00.0000000,W84*5F
$PSSN,TFM,124502.00,,,,*6F
$GPRMC,124502.00,A,4742.1603183,N,01618.1007170,E,0.0,,010125,5.1,E,D*18
$GPGLL,4742.1603183,N,01618.1007170,E,124502.00,A,D*69
$GPGGA,124502.00,4742.1603183,N,01618.1007170,E,2,42,0.4,708.4945,M,43.2065,M,2.9,0136*4C
$GNGNS,124502.00,4742.1603183,N,01618.1007170,E,DAAA,42,0.4,708.4945,43.2065,,*5F
$GPGNS,124502.00,,,,,,09,,,,2.9,136*7B
$GLGNS,124502.00,,,,,,09,,,,,*76
$GAGNS,124502.00,,,,,,09,,,,,*7B
$GBGNS,124502.00,,,,,,15,,,,,*75
$GPLLQ,124502.00,010125,,M,,M,1,42,1.055,,M*16
$GPVTG,,T,,M,0.00,N,0.00,K,D*26
$GPHDT,,T*1B
$GPTHS,,V*0E
$GPROT,,V*08
$PSSN,HRP,124502.00,010125,,,,,,,00,0,,*61
$PTNL,AVR,124502.00,,Yaw,,Tilt,,,,0,,00*37
$GPGSA,A,3,06,11,12,17,19,24,25,29,32,,,,0.7,0.4,0.6*37
$GPGSA,A,3,67,68,69,76,77,78,86,87,88,,,,0.7,0.4,0.6*38
$GPGSA,A,3,02,07,08,11,27,29,30,34,36,,,,0.7,0.4,0.6*35
$GPGSA,A,3,05,07,10,12,14,24,25,26,33,34,35,40,0.7,0.4,0.6*32
$GPGSA,A,3,41,44,60,,,,,,,,,,0.7,0.4,0.6*34
$GPGST,124502.00,2.117,0.538,0.376,6.116,0.536,0.378,0.826*5E
$GPGBS,124502.00,3.133,2.419,5.107,77,0.0001,-6.222,6.108*77
$GPGRS,124502.00,1,-0.9,0.6,0.1,1.0,0.1,0.2,-0.1,-0.8,0.5,,,*4D
$GPGRS,124502.00,1,6.3,6.2,0.8,-1.8,-6.2,-2.3,0.7,-1.8,-2.3,,,*47
$GPGRS,124502.00,1,0.5,0.1,-0.4,-1.5,-0.2,0.6,-0.0,0.1,0.2,,,*63
$GPGRS,124502.00,1,1.4,0.5,1.0,-2.5,-0.0,0.3,0.1,0.0,-0.3,1.2,-0.9,0.4*47
$GPGRS,124502.00,1,1.2,0.4,-1.2,,,,,,,,,*49
$GPGSV,5,1,19,12,79,303,51,19,33,051,45,11,17,122,42,06,25,084,42*7B
$GPGSV,5,2,19,32,28,307,45,25,38,268,45,24,62,148,50,15,03,186,23*7A
$GPGSV,5,3,19,29,06,207,39,17,06,040,38,36,35,170,46,58,13,245,36*74
$GPGSV,5,4,19,40,23,133,37,34,31,208,43,49,34,195,45,57,08,111,37*71
$GPGSV,5,5,19,41,07,108,35,61,03,257,39*72
$GLGSV,3,1,09,77,62,051,46,69,17,336,45,76,21,086,46,88,12,164,44*6C
$GLGSV,3,2,09,67,20,230,47,68,35,284,49,86,33,044,48,78,40,299,51*68
$GLGSV,3,3,09,87,45,108,48*57
$GAGSV,3,1,11,30,72,280,49,08,25,192,42,34,11,133,39,11,14,034,36*63
$GAGSV,3,2,11,27,20,260,41,29,23,315,41,36,24,083,41,02,49,066,46*67
$GAGSV,3,3,11,07,49,253,47,25,00,074,32,10,01,011,31*52
$GBGSV,5,1,20,24,81,331,52,07,13,054,38,33,17,249,44,05,20,130,39*6D
$GBGSV,5,2,20,12,27,165,42,10,26,058,40,41,20,300,43,23,26,281,*6D
$GBGSV,5,3,20,56,34,053,,25,27,290,46,44,45,143,49,35,43,072,48*64
$GBGSV,5,4,20,26,41,100,48,34,08,186,40,32,01,347,,40,08,042,39*60
$GBGSV,5,5,20,02,04,109,33,31,09,098,,14,09,225,38,60,08,111,39*6A
$GPGGA,124502.00,,,,,0,00,,,M,,M,,*48
$PTNL,GGK,124502.00,010125,4742.1603183,N,01618.1007170,E,1,42,0.7,EHT751.7010,M*4B
$GPGGQ,124502.00,010125,4742.1603183,N,01618.1007170,E,1,42,1.055,708.4945,M*35
$GPGFA,124502.00,5.111,6.771,0.538,0.376,6.116,0.826,,VVV*00
$GPLLK,124502.00,010125,,M,,M,1,42,0.8,,M*05
$GNGMP,124502.00,,,,,DAAA,42,0.4,,,,*54
$GPGMP,124502.00,,,,,,09,,,,2.9,136*7B
$GLGMP,124502.00,,,,,,09,,,,,*76
$GAGMP,124502.00,,,,,,09,,,,,*7B
$GBGMP,124502.00,,,,,,15,,,,,*75
$PSSN,SNC,[0,305120000,2347]*41
$GPZDA,124507.00,01,01,2025,,*66
$GPDTM,W84,,00.0000000,N,00.0000000,E,00.0000000,W84*5F
$PSSN,TFM,124507.00,,,,*6A
$GPRMC,124507.00,A,4742.1603168,N,01618.1007191,E,0.0,,010125,5.1,E,D*17
$GPGLL,4742.1603168,N,01618.1007191,E,124507.00,A,D*66
$GPGGA,124507.00,4742.1603168,N,01618.1007191,E,2,42,0.4,708.4936,M,43.2065,M,2.6,0136*48
$GNGNS,124507.00,4742.1603168,N,01618.1007191,E,DAAA,42,0.4,708.4936,43.2065,,*54
$GPGNS,124507.00,,,,,,09,,,,2.6,136*71
$GLGNS,124507.00,,,,,,09,,,,,*73
$GAGNS,124507.00,,,,,,09,,,,,*7E
$GBGNS,124507.00,,,,,,15,,,,,*70
$GPLLQ,124507.00,010125,,M,,M,1,42,1.060,,M*15
$GPVTG,,T,,M,0.00,N,0.01,K,D*27
$GPHDT,,T*1B
$GPTHS,,V*0E
$GPROT,,V*08
$PSSN,HRP,124507.00,010125,,,,,,,00,0,,*64
$PTNL,AVR,124507.00,,Yaw,,Tilt,,,,0,,00*32
$GPGSA,A,3,06,11,12,17,19,24,25,29,32,,,,0.7,0.4,0.6*37
$GPGSA,A,3,67,68,69,76,77,78,86,87,88,,,,0.7,0.4,0.6*38
$GPGSA,A,3,02,07,08,11,27,29,30,34,36,,,,0.7,0.4,0.6*35
$GPGSA,A,3,05,07,10,12,14,24,25,26,33,34,35,40,0.7,0.4,0.6*32
$GPGSA,A,3,41,44,60,,,,,,,,,,0.7,0.4,0.6*34
$GPGST,124507.00,2.110,0.542,0.379,5.930,0.540,0.381,0.828*58
$GPGBS,124507.00,3.131,2.408,5.161,68,0.0001,6.394,6.222*54
$GPGRS,124507.00,1,-0.2,-0.0,0.1,1.3,-0.2,0.1,-0.0,-0.6,0.0,,,*4C
$GPGRS,124507.00,1,5.8,6.4,0.5,-1.7,-6.1,-2.4,1.6,-1.9,-2.0,,,*48
$GPGRS,124507.00,1,0.7,0.0,-0.5,-1.8,-0.4,0.8,0.0,0.2,0.1,,,*4C
$GPGRS,124507.00,1,1.1,0.6,0.9,-3.1,0.1,0.3,-0.1,-0.2,-0.9,1.5,-0.8,0.4*6B
$GPGRS,124507.00,1,0.8,0.6,-1.1,,,,,,,,,*46
$GPGSV,5,1,19,12,79,303,51,19,33,051,45,11,17,122,42,06,25,084,42*7B
$GPGSV,5,2,19,32,28,307,45,25,38,268,45,24,62,148,50,15,03,186,23*7A
$GPGSV,5,3,19,29,06,207,40,17,06,040,38,36,35,170,46,58,13,245,36*7A
$GPGSV,5,4,19,40,23,133,37,34,31,208,43,49,34,195,45,57,08,111,38*7E
$GPGSV,5,5,19,41,07,108,35,61,03,257,38*73
$GLGSV,3,1,09,77,62,051,47,69,17,336,46,76,21,086,46,88,12,164,44*6E
$GLGSV,3,2,09,67,20,230,46,68,35,284,49,86,33,044,49,78,40,299,51*68
$GLGSV,3,3,09,87,45,108,48*57
$GAGSV,3,1,10,30,72,280,49,08,25,192,42,34,11,133,39,11,14,034,36*62
$GAGSV,3,2,10,27,20,260,41,29,23,315,41,36,24,083,41,02,49,066,47*67
$GAGSV,3,3,10,07,49,253,47,10,01,011,29*6F
$GBGSV,5,1,20,24,81,331,51,07,13,054,38,33,17,249,43,05,20,130,39*69
$GBGSV,5,2,20,12,27,165,42,10,26,058,40,41,20,300,43,23,26,281,*6D
$GBGSV,5,3,20,56,34,053,,25,27,290,45,44,45,143,49,35,43,072,48*67
$GBGSV,5,4,20,26,41,100,48,34,08,186,40,32,01,347,,40,08,042,39*60
$GBGSV,5,5,20,02,04,109,32,31,09,098,,14,09,225,39,60,08,111,39*6A
$GPGGA,124507.00,,,,,0,00,,,M,,M,,*4D
$PTNL,GGK,124507.00,010125,4742.1603168,N,01618.1007191,E,1,42,0.7,EHT751.7002,M*47
$GPGGQ,124507.00,010125,4742.1603168,N,01618.1007191,E,1,42,1.060,708.4936,M*38
$GPGFA,124507.00,5.152,6.791,0.542,0.379,5.930,0.828,,VVV*0F
$GPLLK,124507.00,010125,,M,,M,1,42,0.8,,M*00
$GNGMP,124507.00,,,,,DAAA,42,0.4,,,,*51
$GPGMP,124507.00,,,,,,09,,,,2.6,136*71
$GLGMP,124507.00,,,,,,09,,,,,*73
$GAGMP,124507.00,,,,,,09,,,,,*7E
$GBGMP,124507.00,,,,,,15,,,,,*70
$PSSN,SNC,[0,305125000,2347]*44
$GPZDA,124512.00,01,01,2025,,*62
$GPDTM,W84,,00.0000000,N,00.0000000,E,00.0000000,W84*5F
$PSSN,TFM,124512.00,,,,*6E
$GPRMC,124512.00,A,4742.1603177,N,01618.1007203,E,0.0,,010125,5.1,E,D*15
$GPGLL,4742.1603177,N,01618.1007203,E,124512.00,A,D*64
$GPGGA,124512.00,4742.1603177,N,01618.1007203,E,2,42,0.4,708.4909,M,43.2065,M,2.7,0136*47
$GNGNS,124512.00,4742.1603177,N,01618.1007203,E,DAAA,42,0.4,708.4909,43.2065,,*5A
$GPGNS,124512.00,,,,,,09,,,,2.7,136*74
$GLGNS,124512.00,,,,,,09,,,,,*77
$GAGNS,124512.00,,,,,,09,,,,,*7A
$GBGNS,124512.00,,,,,,15,,,,,*74
$GPLLQ,124512.00,010125,,M,,M,1,42,1.057,,M*15
$GPVTG,,T,,M,0.00,N,0.00,K,D*26
$GPHDT,,T*1B
$GPTHS,,V*0E
$GPROT,,V*08
$PSSN,HRP,124512.00,010125,,,,,,,00,0,,*60
$PTNL,AVR,124512.00,,Yaw,,Tilt,,,,0,,00*36
$GPGSA,A,3,06,11,12,17,19,24,25,29,32,,,,0.7,0.4,0.6*37
$GPGSA,A,3,67,68,69,76,77,78,86,87,88,,,,0.7,0.4,0.6*38
$GPGSA,A,3,02,07,08,11,27,29,30,34,36,,,,0.7,0.4,0.6*35
$GPGSA,A,3,05,07,10,12,14,24,25,26,33,34,35,40,0.7,0.4,0.6*32
$GPGSA,A,3,41,44,60,,,,,,,,,,0.7,0.4,0.6*34
$GPGST,124512.00,2.140,0.543,0.379,5.945,0.542,0.382,0.823*50
$GPGBS,124512.00,3.096,2.365,5.226,67,0.0001,6.906,6.299*5E
$GPGRS,124512.00,1,-0.4,-0.2,-0.1,1.4,-0.2,0.3,-0.6,-0.1,0.5,,,*60
$GPGRS,124512.00,1,6.9,6.5,0.5,-2.0,-5.3,-1.8,1.5,-1.5,-1.5,,,*4C
$GPGRS,124512.00,1,0.8,0.2,-0.4,-1.9,-0.2,1.5,0.1,-0.0,-0.0,,,*4D
$GPGRS,124512.00,1,1.3,0.6,1.3,-2.5,0.7,0.4,-0.3,0.1,-0.7,1.6,-0.6,0.6*4F
$GPGRS,124512.00,1,1.2,1.1,-1.3,,,,,,,,,*4D
$GPGSV,5,1,19,12,79,303,51,19,33,051,45,11,17,122,42,06,25,084,42*7B
$GPGSV,5,2,19,32,28,307,46,25,38,268,46,24,62,148,50,15,03,186,22*7B
$GPGSV,5,3,19,29,06,207,40,17,06,040,38,36,35,170,45,58,13,245,36*79
$GPGSV,5,4,19,40,23,133,37,34,31,208,43,49,34,195,45,57,08,111,38*7E
$GPGSV,5,5,19,41,07,108,35,61,03,257,38*73
$GLGSV,3,1,09,77,62,051,47,69,17,336,46,76,21,086,46,88,12,164,44*6E
$GLGSV,3,2,09,67,20,230,47,68,35,284,49,86,33,044,48,78,40,299,51*68
$GLGSV,3,3,09,87,45,108,48*57
$GAGSV,3,1,10,30,72,280,49,08,25,192,42,34,11,133,39,11,14,034,36*62
$GAGSV,3,2,10,27,20,260,42,29,23,315,41,36,24,083,41,02,49,066,47*64
$GAGSV,3,3,10,07,49,253,47,10,01,011,29*6F
$GBGSV,5,1,20,24,81,331,51,07,13,054,38,33,17,249,44,05,20,130,39*6E
$GBGSV,5,2,20,12,27,165,42,10,26,058,40,41,20,300,43,23,26,281,*6D
$GBGSV,5,3,20,56,34,053,,25,27,290,45,44,45,143,49,35,43,072,48*67
$GBGSV,5,4,20,26,41,100,48,34,08,186,40,32,01,347,,40,08,042,39*60
$GBGSV,5,5,20,02,04,109,32,31,09,098,,14,09,225,38,60,08,111,39*6B
$GPGGA,124512.00,,,,,0,00,,,M,,M,,*49
$PTNL,GGK,124512.00,010125,4742.1603177,N,01618.1007203,E,1,42,0.7,EHT751.6975,M*4D
$GPGGQ,124512.00,010125,4742.1603177,N,01618.1007203,E,1,42,1.057,708.4909,M*32
$GPGFA,124512.00,5.165,6.747,0.543,0.379,5.945,0.823,,VVV*0C
$GPLLK,124512.00,010125,,M,,M,1,42,0.8,,M*04
$GNGMP,124512.00,,,,,DAAA,42,0.4,,,,*55
$GPGMP,124512.00,,,,,,09,,,,2.7,136*74
$GLGMP,124512.00,,,,,,09,,,,,*77
$GAGMP,124512.00,,,,,,09,,,,,*7A
$GBGMP,124512.00,,,,,,15,,,,,*74
$PSSN,SNC,[0,305130000,2347]*40
$GPZDA,124517.00,01,01,2025,,*67
$GPDTM,W84,,00.0000000,N,00.0000000,E,00.0000000,W84*5F
$PSSN,TFM,124517.00,,,,*6B
$GPRMC,124517.00,A,4742.1603177,N,01618.1007241,E,0.0,,010125,5.1,E,D*16
$GPGLL,4742.1603177,N,01618.1007241,E,124517.00,A,D*67
$GPGGA,124517.00,4742.1603177,N,01618.1007241,E,2,42,0.4,708.4922,M,43.2066,M,1.9,0136*43
$GNGNS,124517.00,4742.1603177,N,01618.1007241,E,DAAA,42,0.4,708.4922,43.2066,,*53
$GPGNS,124517.00,,,,,,09,,,,1.9,136*7C
$GLGNS,124517.00,,,,,,09,,,,,*72
$GAGNS,124517.00,,,,,,09,,,,,*7F
$GBGNS,124517.00,,,,,,15,,,,,*71
$GPLLQ,124517.00,010125,,M,,M,1,42,1.057,,M*10
$GPVTG,,T,,M,0.00,N,0.01,K,D*27
$GPHDT,,T*1B
$GPTHS,,V*0E
$GPROT,,V*08
$PSSN,HRP,124517.00,010125,,,,,,,00,0,,*65
$PTNL,AVR,124517.00,,Yaw,,Tilt,,,,0,,00*33
$GPGSA,A,3,06,11,12,17,19,24,25,29,32,,,,0.7,0.4,0.6*37
$GPGSA,A,3,67,68,69,76,77,78,86,87,88,,,,0.7,0.4,0.6*38
$GPGSA,A,3,02,07,08,11,27,29,30,34,36,,,,0.7,0.4,0.6*35
$GPGSA,A,3,05,07,10,12,14,24,25,26,33,34,35,40,0.7,0.4,0.6*32
$GPGSA,A,3,41,44,60,,,,,,,,,,0.7,0.4,0.6*34
$GPGST,124517.00,2.129,0.541,0.378,6.315,0.539,0.380,0.826*5E
$GPGBS,124517.00,3.113,2.406,5.078,68,0.0001,6.452,6.222*5F
$GPGRS,124517.00,1,-0.3,0.2,0.3,1.4,-0.6,0.2,-0.4,-0.5,0.5,,,*63
$GPGRS,124517.00,1,6.4,6.5,0.6,-2.6,-5.8,-2.3,0.5,-2.3,-1.3,,,*40
$GPGRS,124517.00,1,0.7,0.1,-0.3,-1.9,-0.0,1.5,0.1,-0.2,0.2,,,*6C
$GPGRS,124517.00,1,1.2,0.1,1.0,-1.7,0.0,0.6,-0.3,0.1,-0.5,1.8,-0.7,0.6*46
$GPGRS,124517.00,1,1.2,0.8,-1.3,,,,,,,,,*40
$GPGSV,5,1,19,12,79,304,51,19,33,051,45,11,17,122,42,06,25,084,42*7C
$GPGSV,5,2,19,32,28,307,45,25,38,268,45,24,62,148,50,15,02,186,22*7A
$GPGSV,5,3,19,29,06,207,40,17,06,040,38,36,35,170,46,58,13,245,37*7B
$GPGSV,5,4,19,40,23,133,36,34,31,208,43,49,34,195,45,57,08,111,38*7F
$GPGSV,5,5,19,41,07,108,35,61,03,257,38*73
$GLGSV,3,1,09,77,62,051,47,69,17,336,45,76,21,086,45,88,12,164,44*6E
$GLGSV,3,2,09,67,20,230,46,68,35,284,49,86,33,044,47,78,40,299,50*67
$GLGSV,3,3,09,87,45,108,48*57
$GAGSV,3,1,10,30,72,280,49,08,25,192,42,34,11,133,39,11,14,034,35*61
$GAGSV,3,2,10,27,20,260,41,29,23,315,42,36,24,083,41,02,49,066,47*64
$GAGSV,3,3,10,07,49,253,47,10,01,011,29*6F
$GBGSV,5,1,20,24,81,331,52,07,13,054,37,33,17,249,43,05,20,130,39*65
$GBGSV,5,2,20,12,27,165,42,10,26,058,40,41,20,300,43,23,26,281,*6D
$GBGSV,5,3,20,56,34,053,,25,27,290,45,44,45,143,49,35,43,072,48*67
$GBGSV,5,4,20,26,41,100,48,34,08,186,40,32,01,347,,40,08,042,39*60
$GBGSV,5,5,20,02,04,109,33,31,09,098,,14,09,225,37,60,08,111,39*65
$GPGGA,124517.00,,,,,0,00,,,M,,M,,*4C
$PTNL,GGK,124517.00,010125,4742.1603177,N,01618.1007241,E,1,42,0.7,EHT751.6988,M*4C
$GPGGQ,124517.00,010125,4742.1603177,N,01618.1007241,E,1,42,1.057,708.4922,M*38
$GPGFA,124517.00,5.143,6.770,0.541,0.378,6.315,0.826,,VVV*03
$GPLLK,124517.00,010125,,M,,M,1,42,0.8,,M*01
$GNGMP,124517.00,,,,,DAAA,42,0.4,,,,*50
$GPGMP,124517.00,,,,,,09,,,,1.9,136*7C
$GLGMP,124517.00,,,,,,09,,,,,*72
$GAGMP,124517.00,,,,,,09,,,,,*7F
$GBGMP,124517.00,,,,,,15,,,,,*71
$PSSN,SNC,[0,305135000,2347]*45
$GPZDA,124522.00,01,01,2025,,*61
$GPDTM,W84,,00.0000000,N,00.0000000,E,00.0000000,W84*5F
$PSSN,TFM,124522.00,,,,*6D
$GPRMC,124522.00,A,4742.1603184,N,01618.1007240,E,0.0,,010125,5.1,E,D*1D
$GPGLL,4742.1603184,N,01618.1007240,E,124522.00,A,D*6C
$GPGGA,124522.00,4742.1603184,N,01618.1007240,E,2,42,0.4,708.4853,M,43.2066,M,2.9,0136*4C
$GNGNS,124522.00,4742.1603184,N,01618.1007240,E,DAAA,42,0.4,708.4853,43.2066,,*5F
$GPGNS,124522.00,,,,,,09,,,,2.9,136*79
$GLGNS,124522.00,,,,,,09,,,,,*74
$GAGNS,124522.00,,,,,,09,,,,,*79
$GBGNS,124522.00,,,,,,15,,,,,*77
$GPLLQ,124522.00,010125,,M,,M,1,42,1.057,,M*16
$GPVTG,,T,,M,0.00,N,0.01,K,D*27
$GPHDT,,T*1B
$GPTHS,,V*0E
$GPROT,,V*08
$PSSN,HRP,124522.00,010125,,,,,,,00,0,,*63
$PTNL,AVR,124522.00,,Yaw,,Tilt,,,,0,,00*35
$GPGSA,A,3,06,11,12,17,19,24,25,29,32,,,,0.7,0.4,0.6*37
$GPGSA,A,3,67,68,69,76,77,78,86,87,88,,,,0.7,0.4,0.6*38
$GPGSA,A,3,02,07,08,11,27,29,30,34,36,,,,0.7,0.4,0.6*35
$GPGSA,A,3,05,07,10,12,14,24,25,26,33,34,35,40,0.7,0.4,0.6*32
$GPGSA,A,3,41,44,60,,,,,,,,,,0.7,0.4,0.6*34
$GPGST,124522.00,2.091,0.538,0.376,6.284,0.536,0.379,0.828*54
$GPGBS,124522.00,3.135,2.420,5.143,77,0.0001,-6.318,6.108*71
$GPGRS,124522.00,1,0.1,0.3,0.1,1.1,-0.5,0.3,-0.4,-0.7,0.3,,,*4A
$GPGRS,124522.00,1,5.6,6.4,0.4,-2.4,-6.3,-2.6,0.6,-2.0,-1.7,,,*4F
$GPGRS,124522.00,1,0.5,0.0,-0.3,-2.0,-0.3,1.4,0.1,-0.3,0.4,,,*66
$GPGRS,124522.00,1,0.9,0.5,0.9,-1.8,-1.1,0.5,0.3,0.1,-0.3,1.4,-0.9,0.4*4C
$GPGRS,124522.00,1,0.8,0.6,-1.7,,,,,,,,,*47
$GPGSV,5,1,19,12,79,304,51,19,32,051,45,11,17,122,42,06,25,084,42*7D
$GPGSV,5,2,19,32,28,307,45,25,38,268,45,24,62,148,50,15,02,186,23*7B
$GPGSV,5,3,19,29,06,207,40,17,06,040,37,36,35,170,46,58,13,245,36*75
$GPGSV,5,4,19,40,23,133,36,34,31,208,43,49,34,195,45,57,08,111,38*7F
$GPGSV,5,5,19,41,07,108,35,61,03,257,38*73
$GLGSV,3,1,09,77,62,051,46,69,17,336,45,76,21,087,45,88,12,164,43*69
$GLGSV,3,2,09,67,20,230,47,68,35,284,49,86,33,044,48,78,40,299,50*69
$GLGSV,3,3,09,87,45,108,48*57
$GAGSV,3,1,10,30,72,280,49,08,25,192,42,34,11,133,39,11,14,034,35*61
$GAGSV,3,2,10,27,20,260,41,29,23,315,42,36,24,083,41,02,49,066,46*65
$GAGSV,3,3,10,07,49,253,47,10,01,011,30*67
$GBGSV,5,1,20,24,81,331,51,07,13,054,38,33,17,249,44,05,20,130,38*6F
$GBGSV,5,2,20,12,27,165,42,10,26,058,40,41,20,300,43,23,26,281,*6D
$GBGSV,5,3,20,56,34,053,,25,27,290,45,44,45,143,49,35,43,072,48*67
$GBGSV,5,4,20,26,41,100,48,34,08,186,40,32,01,347,37,40,08,042,39*64
$GBGSV,5,5,20,02,04,109,33,31,09,098,,14,09,225,38,60,08,111,39*6A
$GPGGA,124522.00,,,,,0,00,,,M,,M,,*4A
$PTNL,GGK,124522.00,010125,4742.1603184,N,01618.1007240,E,1,42,0.7,EHT751.6919,M*4F
$GPGGQ,124522.00,010125,4742.1603184,N,01618.1007240,E,1,42,1.057,708.4853,M*34
$GPGFA,124522.00,5.113,6.792,0.538,0.376,6.284,0.828,,VVV*0B
$GPLLK,124522.00,010125,,M,,M,1,42,0.8,,M*07
$GNGMP,124522.00,,,,,DAAA,42,0.4,,,,*56
$GPGMP,124522.00,,,,,,09,,,,2.9,136*79
$GLGMP,124522.00,,,,,,09,,,,,*74
$GAGMP,124522.00,,,,,,09,,,,,*79
$GBGMP,124522.00,,,,,,15,,,,,*77
$PSSN,SNC,[0,305140000,2347]*47
$GPZDA,124527.00,01,01,2025,,*64
$GPDTM,W84,,00.0000000,N,00.0000000,E,00.0000000,W84*5F
$PSSN,TFM,124527.00,,,,*68
$GPRMC,124527.00,A,4742.1603183,N,01618.1007241,E,0.0,,010125,5.1,E,D*1E
$GPGLL,4742.1603183,N,01618.1007241,E,124527.00,A,D*6F
$GPGGA,124527.00,4742.1603183,N,01618.1007241,E,2,42,0.4,708.4885,M,43.2066,M,2.6,0136*4B
$GNGNS,124527.00,4742.1603183,N,01618.1007241,E,DAAA,42,0.4,708.4885,43.2066,,*57
$GPGNS,124527.00,,,,,,09,,,,2.6,136*73
$GLGNS,124527.00,,,,,,09,,,,,*71
$GAGNS,124527.00,,,,,,09,,,,,*7C
$GBGNS,124527.00,,,,,,15,,,,,*72
$GPLLQ,124527.00,010125,,M,,M,1,42,1.065,,M*12
$GPVTG,,T,,M,0.00,N,0.01,K,D*27
$GPHDT,,T*1B
$GPTHS,,V*0E
$GPROT,,V*08
$PSSN,HRP,124527.00,010125,,,,,,,00,0,,*66
$PTNL,AVR,124527.00,,Yaw,,Tilt,,,,0,,00*30
$GPGSA,A,3,06,11,12,17,19,24,25,29,32,,,,0.7,0.4,0.6*37
$GPGSA,A,3,67,68,69,76,77,78,86,87,88,,,,0.7,0.4,0.6*38
$GPGSA,A,3,02,07,08,11,27,29,30,34,36,,,,0.7,0.4,0.6*35
$GPGSA,A,3,05,07,10,12,14,24,25,26,33,34,35,40,0.7,0.4,0.6*32
$GPGSA,A,3,41,44,60,,,,,,,,,,0.7,0.4,0.6*34
$GPGST,124527.00,2.148,0.545,0.380,6.067,0.543,0.382,0.833*54
$GPGBS,124527.00,3.115,2.413,5.229,68,0.0001,6.908,6.222*5A
$GPGRS,124527.00,1,0.1,0.1,-0.2,1.0,0.1,0.2,-0.3,-0.6,0.4,,,*4B
$GPGRS,124527.00,1,5.9,6.9,1.3,-1.7,-6.3,-2.5,0.8,-2.0,-2.6,,,*41
$GPGRS,124527.00,1,0.5,-0.2,-0.2,-2.0,-0.5,0.9,0.1,-0.1,0.3,,,*42
$GPGRS,124527.00,1,0.9,0.3,1.2,-1.4,-0.2,0.5,0.2,-0.0,-0.5,1.4,-0.5,0.0*68
$GPGRS,124527.00,1,0.6,0.4,-1.6,,,,,,,,,*4F
$GPGSV,5,1,19,12,79,304,51,19,32,051,44,11,17,122,42,06,25,084,43*7D
$GPGSV,5,2,19,32,28,307,45,25,38,268,45,24,62,148,50,15,02,186,22*7A
$GPGSV,5,3,19,29,06,207,39,17,06,040,37,36,35,170,46,58,13,245,36*7B
$GPGSV,5,4,19,40,23,133,36,34,31,208,43,49,34,195,45,57,08,111,38*7F
$GPGSV,5,5,19,41,07,108,35,61,03,257,38*73
$GLGSV,3,1,09,77,62,051,46,69,17,336,46,76,21,087,46,88,12,164,43*69
$GLGSV,3,2,09,67,20,230,47,68,35,284,49,86,33,044,48,78,40,299,51*68
$GLGSV,3,3,09,87,46,108,48*54
$GAGSV,3,1,10,30,72,280,49,08,25,192,42,34,11,133,39,11,14,034,35*61
$GAGSV,3,2,10,27,20,260,41,29,23,315,42,36,24,083,42,02,49,066,46*66
$GAGSV,3,3,10,07,49,253,47,10,01,011,29*6F
$GBGSV,5,1,20,24,81,331,51,07,13,054,38,33,17,249,43,05,20,130,38*68
$GBGSV,5,2,20,12,27,165,42,10,26,058,40,41,20,300,43,23,26,281,*6D
$GBGSV,5,3,20,56,34,053,,25,27,290,45,44,45,143,49,35,43,072,48*67
$GBGSV,5,4,20,26,41,100,48,34,08,186,40,32,01,347,37,40,08,042,38*65
$GBGSV,5,5,20,02,04,109,33,31,09,098,,14,09,225,38,60,08,111,39*6A
$GPGGA,124527.00,,,,,0,00,,,M,,M,,*4F
$PTNL,GGK,124527.00,010125,4742.1603183,N,01618.1007241,E,1,42,0.7,EHT751.6950,M*41
$GPGGQ,124527.00,010125,4742.1603183,N,01618.1007241,E,1,42,1.065,708.4885,M*3D
$GPGFA,124527.00,5.180,6.830,0.545,0.380,6.067,0.833,,VVV*05
$GPLLK,124527.00,010125,,M,,M,1,42,0.8,,M*02
$GNGMP,124527.00,,,,,DAAA,42,0.4,,,,*53
$GPGMP,124527.00,,,,,,09,,,,2.6,136*73
$GLGMP,124527.00,,,,,,09,,,,,*71
$GAGMP,124527.00,,,,,,09,,,,,*7C
$GBGMP,124527.00,,,,,,15,,,,,*72
$PSSN,SNC,[0,305145000,2347]*42
$GPZDA,124532.00,01,01,2025,,*60
$GPDTM,W84,,00.0000000,N,00.0000000,E,00.0000000,W84*5F
$PSSN,TFM,124532.00,,,,*6C
$GPRMC,124532.00,A,4742.1603188,N,01618.1007230,E,0.0,,010125,5.1,E,D*17
$GPGLL,4742.1603188,N,01618.1007230,E,124532.00,A,D*66
$GPGGA,124532.00,4742.1603188,N,01618.1007230,E,2,41,0.4,708.4858,M,43.2066,M,2.7,0136*40
$GNGNS,124532.00,4742.1603188,N,01618.1007230,E,DAAA,41,0.4,708.4858,43.2066,,*5D
$GPGNS,124532.00,,,,,,09,,,,2.7,136*76
$GLGNS,124532.00,,,,,,09,,,,,*75
$GAGNS,124532.00,,,,,,08,,,,,*79
$GBGNS,124532.00,,,,,,15,,,,,*76
$GPLLQ,124532.00,010125,,M,,M,1,41,1.064,,M*14
$GPVTG,,T,,M,0.01,N,0.01,K,D*26
$GPHDT,,T*1B
$GPTHS,,V*0E
$GPROT,,V*08
$PSSN,HRP,124532.00,010125,,,,,,,00,0,,*62
$PTNL,AVR,124532.00,,Yaw,,Tilt,,,,0,,00*34
$GPGSA,A,3,06,11,12,17,19,24,25,29,32,,,,0.7,0.4,0.6*37
$GPGSA,A,3,67,68,69,76,77,78,86,87,88,,,,0.7,0.4,0.6*38
$GPGSA,A,3,02,07,08,27,29,30,34,36,,,,,0.7,0.4,0.6*35
$GPGSA,A,3,05,07,10,12,14,24,25,26,33,34,35,40,0.7,0.4,0.6*32
$GPGSA,A,3,41,44,60,,,,,,,,,,0.7,0.4,0.6*34
$GPGST,124532.00,2.163,0.546,0.381,5.734,0.545,0.383,0.829*55
$GPGBS,124532.00,3.128,2.374,5.305,67,0.0001,6.726,6.320*57
$GPGRS,124532.00,1,-0.1,0.3,0.1,1.1,0.1,0.2,-0.2,-0.6,0.2,,,*48
$GPGRS,124532.00,1,6.7,6.5,1.5,-1.6,-6.2,-2.0,0.9,-1.6,-2.8,,,*4D
$GPGRS,124532.00,1,0.3,0.2,-0.4,-0.2,0.6,0.1,-0.2,0.1,,,,*63
$GPGRS,124532.00,1,1.0,0.9,1.1,-0.9,-0.0,0.5,0.1,0.0,-1.0,1.6,-0.6,0.2*4A
$GPGRS,124532.00,1,0.5,0.4,-1.5,,,,,,,,,*4B
$GPGSV,5,1,19,12,79,304,51,19,32,050,45,11,17,122,42,06,25,084,43*7D
$GPGSV,5,2,19,32,28,307,45,25,38,268,45,24,62,148,50,15,02,186,23*7B
$GPGSV,5,3,19,29,06,207,39,17,06,040,37,36,35,170,45,58,13,245,36*78
$GPGSV,5,4,19,40,23,133,36,34,31,208,43,49,34,195,45,57,08,111,38*7F
$GPGSV,5,5,19,41,07,108,35,61,03,257,38*73
$GLGSV,3,1,09,77,62,052,46,69,17,336,45,76,21,087,46,88,12,164,43*69
$GLGSV,3,2,09,67,20,230,47,68,35,284,49,86,33,044,48,78,40,299,50*69
$GLGSV,3,3,09,87,46,108,48*54
$GAGSV,3,1,10,30,72,280,49,08,25,192,42,34,11,133,39,11,13,034,35*66
$GAGSV,3,2,10,27,20,260,41,29,23,315,41,36,24,083,41,02,49,066,46*66
$GAGSV,3,3,10,07,49,253,47,10,01,011,29*6F
$GBGSV,5,1,20,24,82,332,51,07,13,054,38,33,17,249,43,05,20,130,38*68
$GBGSV,5,2,20,12,27,165,43,10,26,058,40,41,20,300,43,23,26,281,*6C
$GBGSV,5,3,20,56,34,053,,25,27,290,45,44,45,143,49,35,43,072,48*67
$GBGSV,5,4,20,26,41,100,48,34,08,186,41,32,01,347,38,40,08,042,38*6B
$GBGSV,5,5,20,02,04,109,33,31,09,098,,14,09,225,38,60,08,111,39*6A
$GPGGA,124532.00,,,,,0,00,,,M,,M,,*4B
$PTNL,GGK,124532.00,010125,4742.1603188,N,01618.1007230,E,1,41,0.7,EHT751.6924,M*48
$GPGGQ,124532.00,010125,4742.1603188,N,01618.1007230,E,1,41,1.064,708.4858,M*36
$GPGFA,124532.00,5.191,6.799,0.546,0.381,5.734,0.829,,VVV*06
$GPLLK,124532.00,010125,,M,,M,1,41,0.8,,M*05
$GNGMP,124532.00,,,,,DAAA,41,0.4,,,,*54
$GPGMP,124532.00,,,,,,09,,,,2.7,136*76
$GLGMP,124532.00,,,,,,09,,,,,*75
$GAGMP,124532.00,,,,,,08,,,,,*79
$GBGMP,124532.00,,,,,,15,,,,,*76
$PSSN,SNC,[0,305150000,2347]*46
$GPZDA,124537.00,01,01,2025,,*65
$GPDTM,W84,,00.0000000,N,00.0000000,E,00.0000000,W84*5F
$PSSN,TFM,124537.00,,,,*69
$GPRMC,124537.00,A,4742.1603158,N,01618.1007247,E,0.0,,010125,5.1,E,D*1F
$GPGLL,4742.1603158,N,01618.1007247,E,124537.00,A,D*6E
$GPGGA,124537.00,4742.1603158,N,01618.1007247,E,2,41,0.4,708.4848,M,43.2066,M,1.9,0136*44
$GNGNS,124537.00,4742.1603158,N,01618.1007247,E,DAAA,41,0.4,708.4848,43.2066,,*54
$GPGNS,124537.00,,,,,,09,,,,1.9,136*7E
$GLGNS,124537.00,,,,,,09,,,,,*70
$GAGNS,124537.00,,,,,,08,,,,,*7C
$GBGNS,124537.00,,,,,,15,,,,,*73
$GPLLQ,124537.00,010125,,M,,M,1,41,1.064,,M*11
$GPVTG,,T,,M,0.00,N,0.00,K,D*26
$GPHDT,,T*1B
$GPTHS,,V*0E
$GPROT,,V*08
$PSSN,HRP,124537.00,010125,,,,,,,00,0,,*67
$PTNL,AVR,124537.00,,Yaw,,Tilt,,,,0,,00*31
$GPGSA,A,3,06,11,12,17,19,24,25,29,32,,,,0.7,0.4,0.6*37
$GPGSA,A,3,67,68,69,76,77,78,86,87,88,,,,0.7,0.4,0.6*38
$GPGSA,A,3,02,07,08,27,29,30,34,36,,,,,0.7,0.4,0.6*35
$GPGSA,A,3,05,07,10,12,14,24,25,26,33,34,35,40,0.7,0.4,0.6*32
$GPGSA,A,3,41,44,60,,,,,,,,,,0.7,0.4,0.6*34
$GPGST,124537.00,2.123,0.545,0.380,6.157,0.543,0.382,0.832*5B
$GPGBS,124537.00,3.137,2.412,5.152,68,0.0001,6.371,6.222*51
$GPGRS,124537.00,1,-0.3,-0.1,0.3,1.7,0.0,0.1,-0.3,-0.7,0.4,,,*60
$GPGRS,124537.00,1,6.0,6.4,1.1,-2.1,-6.2,-2.4,1.0,-1.9,-2.5,,,*40
$GPGRS,124537.00,1,0.4,-0.2,-0.7,-0.4,1.0,0.0,-0.4,0.1,,,,*49
$GPGRS,124537.00,1,1.2,0.4,1.1,-0.8,-0.4,0.4,0.2,0.1,-1.1,1.3,-0.6,0.0*40
$GPGRS,124537.00,1,-0.1,0.6,-1.8,,,,,,,,,*68
$GPGSV,5,1,19,12,79,304,51,19,32,050,45,11,17,122,42,06,25,084,43*7D
$GPGSV,5,2,19,32,28,307,46,25,39,268,46,24,62,148,50,15,02,186,22*7B
$GPGSV,5,3,19,29,06,207,39,17,06,040,37,36,35,170,45,58,13,245,36*78
$GPGSV,5,4,19,40,23,133,36,34,31,208,43,49,34,195,45,57,08,111,37*70
$GPGSV,5,5,19,41,07,108,35,61,03,257,38*73
$GLGSV,3,1,09,77,62,052,46,69,17,336,46,76,21,087,45,88,12,164,43*69
$GLGSV,3,2,09,67,20,230,47,68,35,284,50,86,33,044,48,78,40,299,50*61
$GLGSV,3,3,09,87,46,108,48*54
$GAGSV,3,1,10,30,72,280,49,08,25,192,42,34,11,133,39,11,13,033,35*61
$GAGSV,3,2,10,27,20,260,41,29,24,315,41,36,24,083,41,02,49,066,46*61
$GAGSV,3,3,10,07,49,253,47,10,01,011,29*6F
$GBGSV,5,1,20,24,82,332,51,07,13,054,38,33,17,249,43,05,20,130,38*68
$GBGSV,5,2,20,12,27,165,43,10,26,058,40,41,20,300,43,23,26,281,*6C
$GBGSV,5,3,20,56,34,053,,25,27,290,45,44,45,143,49,35,43,072,48*67
$GBGSV,5,4,20,26,41,100,48,34,08,186,41,32,01,347,39,40,08,042,38*6A
$GBGSV,5,5,20,02,04,109,33,31,09,098,,14,09,225,39,60,08,111,39*6B
$GPGGA,124537.00,,,,,0,00,,,M,,M,,*4E
$PTNL,GGK,124537.00,010125,4742.1603158,N,01618.1007247,E,1,41,0.7,EHT751.6913,M*44
$GPGGQ,124537.00,010125,4742.1603158,N,01618.1007247,E,1,41,1.064,708.4848,M*3F
$GPGFA,124537.00,5.178,6.820,0.545,0.380,6.157,0.832,,VVV*01
$GPLLK,124537.00,010125,,M,,M,1,41,0.8,,M*00
$GNGMP,124537.00,,,,,DAAA,41,0.4,,,,*51
$GPGMP,124537.00,,,,,,09,,,,1.9,136*7E
$GLGMP,124537.00,,,,,,09,,,,,*70
$GAGMP,124537.00,,,,,,08,,,,,*7C
$GBGMP,124537.00,,,,,,15,,,,,*73
$PSSN,SNC,[0,305155000,2347]*43
$GPZDA,124542.00,01,01,2025,,*67
$GPDTM,W84,,00.0000000,N,00.0000000,E,00.0000000,W84*5F
$PSSN,TFM,124542.00,,,,*6B
$GPRMC,124542.00,A,4742.1603135,N,01618.1007269,E,0.0,,010125,5.1,E,D*1A
$GPGLL,4742.1603135,N,01618.1007269,E,124542.00,A,D*6B
$GPGGA,124542.00,4742.1603135,N,01618.1007269,E,2,41,0.4,708.4864,M,43.2066,M,2.9,0136*4C
$GNGNS,124542.00,4742.1603135,N,01618.1007269,E,DAAA,41,0.4,708.4864,43.2066,,*5F
$GPGNS,124542.00,,,,,,09,,,,2.9,136*7F
$GLGNS,124542.00,,,,,,09,,,,,*72
$GAGNS,124542.00,,,,,,08,,,,,*7E
$GBGNS,124542.00,,,,,,15,,,,,*71
$GPLLQ,124542.00,010125,,M,,M,1,41,1.064,,M*13
$GPVTG,,T,,M,0.00,N,0.00,K,D*26
$GPHDT,,T*1B
$GPTHS,,V*0E
$GPROT,,V*08
$PSSN,HRP,124542.00,010125,,,,,,,00,0,,*65
$PTNL,AVR,124542.00,,Yaw,,Tilt,,,,0,,00*33
$GPGSA,A,3,06,11,12,17,19,24,25,29,32,,,,0.7,0.4,0.6*37
$GPGSA,A,3,67,68,69,76,77,78,86,87,88,,,,0.7,0.4,0.6*38
$GPGSA,A,3,02,07,08,27,29,30,34,36,,,,,0.7,0.4,0.6*35
$GPGSA,A,3,05,07,10,12,14,24,25,26,33,34,35,40,0.7,0.4,0.6*32
$GPGSA,A,3,41,44,60,,,,,,,,,,0.7,0.4,0.6*34
$GPGST,124542.00,2.125,0.541,0.378,6.113,0.540,0.380,0.835*5A
$GPGBS,124542.00,3.158,2.426,5.218,68,0.0001,6.988,6.222*5C
$GPGRS,124542.00,1,-0.5,0.5,0.2,1.2,-0.2,-0.2,-0.4,-0.4,0.7,,,*4F
$GPGRS,124542.00,1,5.1,7.0,1.7,-3.1,-5.8,-2.3,0.8,-1.8,-2.9,,,*48
$GPGRS,124542.00,1,0.5,-0.2,-0.6,-0.5,0.5,0.1,-0.5,0.0,,,,*4F
$GPGRS,124542.00,1,1.2,0.9,1.0,-1.0,-0.3,0.4,-0.0,-0.1,-1.0,1.4,-1.1,-0.0*6F
$GPGRS,124542.00,1,0.4,0.5,-1.3,,,,,,,,,*4A
$GPGSV,5,1,19,12,79,304,51,19,32,050,44,11,17,122,42,06,25,084,43*7C
$GPGSV,5,2,19,32,28,307,46,25,39,268,45,24,62,148,50,15,02,186,24*7E
$GPGSV,5,3,19,29,06,207,39,17,06,040,37,36,35,170,45,58,13,245,36*78
$GPGSV,5,4,19,40,23,133,36,34,31,208,43,49,34,195,45,57,08,111,37*70
$GPGSV,5,5,19,41,07,108,35,61,03,257,38*73
$GLGSV,3,1,09,77,62,052,46,69,17,336,46,76,21,087,45,88,12,164,43*69
$GLGSV,3,2,09,67,20,230,47,68,35,284,49,86,33,044,47,78,40,299,50*66
$GLGSV,3,3,09,87,46,108,48*54
$GAGSV,3,1,10,30,72,280,49,08,25,192,43,34,11,133,38,11,13,033,35*61
$GAGSV,3,2,10,27,20,260,41,29,24,315,41,36,24,083,42,02,49,066,47*63
$GAGSV,3,3,10,07,48,253,47,10,01,011,30*66
$GBGSV,5,1,20,24,82,332,51,07,13,054,38,33,17,249,43,05,20,130,39*69
$GBGSV,5,2,20,12,28,165,43,10,26,058,40,41,20,300,43,23,26,281,*63
$GBGSV,5,3,20,56,34,053,,25,27,290,46,44,45,143,49,35,43,072,48*64
$GBGSV,5,4,20,26,41,100,48,34,08,186,41,32,01,347,38,40,08,042,39*6A
$GBGSV,5,5,20,02,04,109,33,31,09,098,,14,09,225,38,60,08,111,39*6A
$GPGGA,124542.00,,,,,0,00,,,M,,M,,*4C
$PTNL,GGK,124542.00,010125,4742.1603135,N,01618.1007269,E,1,41,0.7,EHT751.6930,M*40
$GPGGQ,124542.00,010125,4742.1603135,N,01618.1007269,E,1,41,1.064,708.4864,M*34
$GPGFA,124542.00,5.147,6.846,0.541,0.378,6.113,0.835,,VVV*0B
$GPLLK,124542.00,010125,,M,,M,1,41,0.8,,M*02
$GNGMP,124542.00,,,,,DAAA,41,0.4,,,,*53
$GPGMP,124542.00,,,,,,09,,,,2.9,136*7F
$GLGMP,124542.00,,,,,,09,,,,,*72
$GAGMP,124542.00,,,,,,08,,,,,*7E
$GBGMP,124542.00,,,,,,15,,,,,*71
$PSSN,SNC,[0,305160000,2347]*45
$GPZDA,124547.00,01,01,2025,,*62
$GPDTM,W84,,00.0000000,N,00.0000000,E,00.0000000,W84*5F
$PSSN,TFM,124547.00,,,,*6E
$GPRMC,124547.00,A,4742.1603126,N,01618.1007266,E,0.0,,010125,5.1,E,D*12
$GPGLL,4742.1603126,N,01618.1007266,E,124547.00,A,D*63
$GPGGA,124547.00,4742.1603126,N,01618.1007266,E,2,42,0.4,708.4836,M,43.2066,M,2.6,0136*4F
$GNGNS,124547.00,4742.1603126,N,01618.1007266,E,DAAA,42,0.4,708.4836,43.2066,,*53
$GPGNS,124547.00,,,,,,09,,,,2.6,136*75
$GLGNS,124547.00,,,,,,09,,,,,*77
$GAGNS,124547.00,,,,,,09,,,,,*7A
$GBGNS,124547.00,,,,,,15,,,,,*74
$GPLLQ,124547.00,010125,,M,,M,1,42,1.067,,M*16
$GPVTG,,T,,M,0.00,N,0.01,K,D*27
$GPHDT,,T*1B
$GPTHS,,V*0E
$GPROT,,V*08
$PSSN,HRP,124547.00,010125,,,,,,,00,0,,*60
$PTNL,AVR,124547.00,,Yaw,,Tilt,,,,0,,00*36
$GPGSA,A,3,06,11,12,17,19,24,25,29,32,,,,0.7,0.4,0.6*37
$GPGSA,A,3,67,68,69,76,77,78,86,87,88,,,,0.7,0.4,0.6*38
$GPGSA,A,3,02,07,08,11,27,29,30,34,36,,,,0.7,0.4,0.6*35
$GPGSA,A,3,05,07,10,12,14,24,25,26,33,34,35,40,0.7,0.4,0.6*32
$GPGSA,A,3,41,44,60,,,,,,,,,,0.7,0.4,0.6*34
$GPGST,124547.00,2.043,0.545,0.380,6.100,0.543,0.382,0.835*5E
$GPGBS,124547.00,3.128,2.407,5.222,68,0.0001,6.452,6.222*5E
$GPGRS,124547.00,1,-0.5,0.3,0.2,1.6,-0.0,0.1,-0.6,-0.4,0.2,,,*63
$GPGRS,124547.00,1,5.1,6.5,1.4,-2.5,-5.5,-2.7,1.4,-1.6,-2.1,,,*4D
$GPGRS,124547.00,1,0.6,0.1,-0.5,-1.9,-0.3,0.9,0.3,-0.2,0.0,,,*60
$GPGRS,124547.00,1,1.2,0.9,1.4,-1.8,-0.3,0.5,0.1,-0.2,-0.5,1.6,-0.7,-0.2*4B
$GPGRS,124547.00,1,0.9,0.5,-1.4,,,,,,,,,*45
$GPGSV,5,1,19,12,79,305,51,19,32,050,44,11,17,122,42,06,25,084,43*7D
$GPGSV,5,2,19,32,28,307,45,25,39,268,45,24,61,148,50,15,02,186,22*78
$GPGSV,5,3,19,29,06,207,39,17,06,040,37,36,35,170,45,58,13,245,36*78
$GPGSV,5,4,19,40,23,133,36,34,31,208,43,49,34,195,45,57,08,111,37*70
$GPGSV,5,5,19,41,07,108,35,61,03,257,38*73
$GLGSV,3,1,09,77,62,052,47,69,17,336,44,76,21,087,45,88,12,164,43*6A
$GLGSV,3,2,09,67,20,230,46,68,35,284,50,86,33,044,48,78,40,299,50*60
$GLGSV,3,3,09,87,46,108,48*54
$GAGSV,3,1,10,30,72,280,49,08,25,192,42,34,12,133,39,11,13,033,35*62
$GAGSV,3,2,10,27,20,260,41,29,24,315,41,36,24,083,42,02,49,066,46*62
$GAGSV,3,3,10,07,48,253,47,10,01,011,30*66
$GBGSV,5,1,20,24,82,332,51,07,13,054,38,33,17,249,44,05,20,130,39*6E
$GBGSV,5,2,20,12,28,165,42,10,26,058,40,41,20,300,44,23,26,281,*65
$GBGSV,5,3,20,56,34,053,,25,27,290,46,44,45,143,49,35,43,072,49*65
$GBGSV,5,4,20,26,41,101,48,34,08,186,41,32,01,347,38,40,08,042,39*6B
$GBGSV,5,5,20,02,04,109,33,31,09,098,,14,08,225,38,60,08,111,39*6B
$GPGGA,124547.00,,,,,0,00,,,M,,M,,*49
$PTNL,GGK,124547.00,010125,4742.1603126,N,01618.1007266,E,1,42,0.7,EHT751.6902,M*4A
$GPGGQ,124547.00,010125,4742.1603126,N,01618.1007266,E,1,42,1.067,708.4836,M*3B
$GPGFA,124547.00,5.177,6.849,0.545,0.380,6.100,0.835,,VVV*03
$GPLLK,124547.00,010125,,M,,M,1,42,0.8,,M*04
$GNGMP,124547.00,,,,,DAAA,42,0.4,,,,*55
$GPGMP,124547.00,,,,,,09,,,,2.6,136*75
$GLGMP,124547.00,,,,,,09,,,,,*77
$GAGMP,124547.00,,,,,,09,,,,,*7A
$GBGMP,124547.00,,,,,,15,,,,,*74
$PSSN,SNC,[0,305165000,2347]*40
$GPZDA,124552.00,01,01,2025,,*66
$GPDTM,W84,,00.0000000,N,00.0000000,E,00.0000000,W84*5F
$PSSN,TFM,124552.00,,,,*6A
$GPRMC,124552.00,A,4742.1603123,N,01618.1007263,E,0.0,,010125,5.1,E,D*16
$GPGLL,4742.1603123,N,01618.1007263,E,124552.00,A,D*67
$GPGGA,124552.00,4742.1603123,N,01618.1007263,E,2,42,0.4,708.4796,M,43.2066,M,2.7,0136*4F
$GNGNS,124552.00,4742.1603123,N,01618.1007263,E,DAAA,42,0.4,708.4796,43.2066,,*52
$GPGNS,124552.00,,,,,,09,,,,2.7,136*70
$GLGNS,124552.00,,,,,,09,,,,,*73
$GAGNS,124552.00,,,,,,09,,,,,*7E
$GBGNS,124552.00,,,,,,15,,,,,*70
$GPLLQ,124552.00,010125,,M,,M,1,42,1.059,,M*1F
$GPVTG,,T,,M,0.01,N,0.01,K,D*26
$GPHDT,,T*1B
$GPTHS,,V*0E
$GPROT,,V*08
$PSSN,HRP,124552.00,010125,,,,,,,00,0,,*64
$PTNL,AVR,124552.00,,Yaw,,Tilt,,,,0,,00*32
$GPGSA,A,3,06,11,12,17,19,24,25,29,32,,,,0.7,0.4,0.6*37
$GPGSA,A,3,67,68,69,76,77,78,86,87,88,,,,0.7,0.4,0.6*38
$GPGSA,A,3,02,07,08,11,27,29,30,34,36,,,,0.7,0.4,0.6*35
$GPGSA,A,3,05,07,10,12,14,24,25,26,33,34,35,40,0.7,0.4,0.6*32
$GPGSA,A,3,41,44,60,,,,,,,,,,0.7,0.4,0.6*34
$GPGST,124552.00,2.115,0.543,0.379,6.181,0.541,0.382,0.827*50
$GPGBS,124552.00,3.094,2.363,5.288,68,0.0001,6.395,6.222*55
$GPGRS,124552.00,1,-0.4,0.2,0.0,1.0,0.2,0.2,-0.1,-0.2,-0.3,,,*62
$GPGRS,124552.00,1,5.8,6.4,0.7,-2.0,-5.9,-2.4,1.3,-2.3,-2.1,,,*48
$GPGRS,124552.00,1,0.6,0.3,-0.8,-2.0,-0.1,1.2,0.1,0.0,-0.3,,,*6A
$GPGRS,124552.00,1,1.1,0.8,1.2,-2.6,-1.3,0.4,-0.1,0.2,-0.7,1.6,-0.6,-0.6*41
$GPGRS,124552.00,1,0.9,0.6,-1.3,,,,,,,,,*45
$GPGSV,5,1,19,12,79,305,51,19,32,050,44,11,17,122,41,06,25,084,43*7E
$GPGSV,5,2,19,32,28,307,45,25,39,268,45,24,61,148,50,15,02,186,23*79
$GPGSV,5,3,19,29,06,207,39,17,06,040,37,36,35,170,45,58,13,245,37*79
$GPGSV,5,4,19,40,23,133,36,34,31,208,43,49,34,195,45,57,08,111,38*7F
$GPGSV,5,5,19,41,07,108,35,61,03,257,38*73
$GLGSV,3,1,09,77,61,052,46,69,17,336,44,76,21,087,45,88,12,164,43*68
$GLGSV,3,2,09,67,20,230,47,68,35,284,49,86,33,044,48,78,40,300,50*68
$GLGSV,3,3,09,87,46,108,47*5B
$GAGSV,3,1,10,30,72,281,49,08,25,192,41,34,12,133,39,11,13,033,35*60
$GAGSV,3,2,10,27,20,260,41,29,24,315,41,36,24,083,41,02,49,066,46*61
$GAGSV,3,3,10,07,48,253,47,10,01,011,31*67
$GBGSV,5,1,20,24,82,332,51,07,13,054,38,33,17,249,44,05,20,130,39*6E
$GBGSV,5,2,20,12,28,165,42,10,26,058,40,41,20,300,44,23,26,281,*65
$GBGSV,5,3,20,56,34,053,,25,27,290,46,44,45,143,49,35,43,072,49*65
$GBGSV,5,4,20,26,41,101,48,34,08,186,41,32,01,347,38,40,08,042,39*6B
$GBGSV,5,5,20,02,04,109,33,31,09,098,,14,08,225,38,60,08,111,39*6B
$GPGGA,124552.00,,,,,0,00,,,M,,M,,*4D
$PTNL,GGK,124552.00,010125,4742.1603123,N,01618.1007263,E,1,42,0.7,EHT751.6861,M*4A
$GPGGQ,124552.00,010125,4742.1603123,N,01618.1007263,E,1,42,1.059,708.4796,M*37
$GPGFA,124552.00,5.162,6.779,0.543,0.379,6.181,0.827,,VVV*05
$GPLLK,124552.00,010125,,M,,M,1,42,0.8,,M*00
$GNGMP,124552.00,,,,,DAAA,42,0.4,,,,*51
$GPGMP,124552.00,,,,,,09,,,,2.7,136*70
$GLGMP,124552.00,,,,,,09,,,,,*73
$GAGMP,124552.00,,,,,,09,,,,,*7E
$GBGMP,124552.00,,,,,,15,,,,,*70
$PSSN,SNC,[0,305170000,2347]*44
$GPZDA,124557.00,01,01,2025,,*63
$GPDTM,W84,,00.0000000,N,00.0000000,E,00.0000000,W84*5F
$PSSN,TFM,124557.00,,,,*6F
$GPRMC,124557.00,A,4742.1603126,N,01618.1007274,E,0.0,,010125,5.1,E,D*10
$GPGLL,4742.1603126,N,01618.1007274,E,124557.00,A,D*61
$GPGGA,124557.00,4742.1603126,N,01618.1007274,E,2,42,0.4,708.4817,M,43.2066,M,1.9,0136*42
$GNGNS,124557.00,4742.1603126,N,01618.1007274,E,DAAA,42,0.4,708.4817,43.2066,,*52
$GPGNS,124557.00,,,,,,09,,,,1.9,136*78
$GLGNS,124557.00,,,,,,09,,,,,*76
$GAGNS,124557.00,,,,,,09,,,,,*7B
$GBGNS,124557.00,,,,,,15,,,,,*75
$GPLLQ,124557.00,010125,,M,,M,1,42,1.059,,M*1A
$GPVTG,,T,,M,0.00,N,0.01,K,D*27
$GPHDT,,T*1B
$GPTHS,,V*0E
$GPROT,,V*08
$PSSN,HRP,124557.00,010125,,,,,,,00,0,,*61
$PTNL,AVR,124557.00,,Yaw,,Tilt,,,,0,,00*37
$GPGSA,A,3,06,11,12,17,19,24,25,29,32,,,,0.7,0.4,0.6*37
$GPGSA,A,3,67,68,69,76,77,78,86,87,88,,,,0.7,0.4,0.6*38
$GPGSA,A,3,02,07,08,11,27,29,30,34,36,,,,0.7,0.4,0.6*35
$GPGSA,A,3,05,07,10,12,14,24,25,26,33,34,35,40,0.7,0.4,0.6*32
$GPGSA,A,3,41,44,60,,,,,,,,,,0.7,0.4,0.6*34
$GPGST,124557.00,2.080,0.540,0.378,6.498,0.538,0.380,0.829*55
$GPGBS,124557.00,3.106,2.402,5.136,77,0.0001,-6.153,6.108*7C
$GPGRS,124557.00,1,-0.6,0.5,0.1,1.5,0.1,0.0,-0.2,-0.3,0.4,,,*4F
$GPGRS,124557.00,1,5.6,6.0,0.7,-1.5,-6.2,-2.3,1.1,-2.5,-2.3,,,*48
$GPGRS,124557.00,1,0.5,0.1,-0.7,-1.9,-0.2,1.1,-0.0,-0.0,-0.4,,,*6D
$GPGRS,124557.00,1,1.1,0.9,1.0,-2.5,-1.1,0.5,-0.1,0.1,-0.8,1.1,-0.5,-0.2*4B
$GPGRS,124557.00,1,0.5,0.5,-1.5,,,,,,,,,*49
$GPGSV,5,1,19,12,79,305,51,19,32,050,45,11,17,122,41,06,25,084,42*7E
$GPGSV,5,2,19,32,28,307,45,25,39,268,45,24,61,148,49,15,02,186,22*70
$GPGSV,5,3,19,29,06,207,38,17,06,040,37,36,35,170,45,58,13,245,36*79
$GPGSV,5,4,19,40,23,133,36,34,31,208,43,49,34,195,45,57,08,111,37*70
$GPGSV,5,5,19,41,07,108,35,61,03,257,38*73
$GLGSV,3,1,09,77,61,052,46,69,17,336,45,76,21,087,46,88,12,164,43*6A
$GLGSV,3,2,09,67,20,230,46,68,35,284,49,86,33,044,48,78,40,300,51*68
$GLGSV,3,3,09,87,46,108,47*5B
$GAGSV,3,1,10,30,72,281,49,08,25,192,42,34,12,133,39,11,13,033,36*60
$GAGSV,3,2,10,27,21,260,42,29,24,315,41,36,24,083,41,02,49,066,46*63
$GAGSV,3,3,10,07,48,253,47,10,01,011,30*66
$GBGSV,5,1,20,24,82,332,51,07,13,054,38,33,17,249,44,05,20,130,39*6E
$GBGSV,5,2,20,12,28,165,42,10,26,058,40,41,20,300,43,23,26,281,*62
$GBGSV,5,3,20,56,34,053,,25,27,290,46,44,45,143,49,35,43,072,49*65
$GBGSV,5,4,20,26,41,101,48,34,09,186,41,32,01,347,38,40,08,042,39*6A
$GBGSV,5,5,20,02,04,109,33,31,09,098,,14,08,225,38,60,08,111,39*6B
$GPGGA,124557.00,,,,,0,00,,,M,,M,,*48
$PTNL,GGK,124557.00,010125,4742.1603126,N,01618.1007274,E,1,42,0.7,EHT751.6882,M*41
$GPGGQ,124557.00,010125,4742.1603126,N,01618.1007274,E,1,42,1.059,708.4817,M*37
$GPGFA,124557.00,5.135,6.797,0.540,0.378,6.498,0.829,,VVV*03
$GPLLK,124557.00,010125,,M,,M,1,42,0.8,,M*05
$GNGMP,124557.00,,,,,DAAA,42,0.4,,,,*54
$GPGMP,124557.00,,,,,,09,,,,1.9,136*78
$GLGMP,124557.00,,,,,,09,,,,,*76
$GAGMP,124557.00,,,,,,09,,,,,*7B
$GBGMP,124557.00,,,,,,15,,,,,*75
$PSSN,SNC,[0,305175000,2347]*41
$GPZDA,124602.00,01,01,2025,,*60
$GPDTM,W84,,00.0000000,N,00.0000000,E,00.0000000,W84*5F
$PSSN,TFM,124602.00,,,,*6C
$GPRMC,124602.00,A,4742.1603095,N,01618.1007304,E,0.0,,010125,5.1,E,D*1C
$GPGLL,4742.1603095,N,01618.1007304,E,124602.00,A,D*6D
$GPGGA,124602.00,4742.1603095,N,01618.1007304,E,2,42,0.4,708.4835,M,43.2065,M,2.9,0136*4E
$GNGNS,124602.00,4742.1603095,N,01618.1007304,E,DAAA,42,0.4,708.4835,43.2065,,*5D
$GPGNS,124602.00,,,,,,09,,,,2.9,136*78
$GLGNS,124602.00,,,,,,09,,,,,*75
$GAGNS,124602.00,,,,,,09,,,,,*78
$GBGNS,124602.00,,,,,,15,,,,,*76
$GPLLQ,124602.00,010125,,M,,M,1,42,1.059,,M*19
$GPVTG,,T,,M,0.01,N,0.01,K,D*26
$GPHDT,,T*1B
$GPTHS,,V*0E
$GPROT,,V*08
$PSSN,HRP,124602.00,010125,,,,,,,00,0,,*62
$PTNL,AVR,124602.00,,Yaw,,Tilt,,,,0,,00*34
$GPGSA,A,3,06,11,12,17,19,24,25,29,32,,,,0.7,0.4,0.6*37
$GPGSA,A,3,67,68,69,76,77,78,86,87,88,,,,0.7,0.4,0.6*38
$GPGSA,A,3,02,07,08,11,27,29,30,34,36,,,,0.7,0.4,0.6*35
$GPGSA,A,3,05,07,10,12,14,24,25,26,33,34,35,40,0.7,0.4,0.6*32
$GPGSA,A,3,41,44,60,,,,,,,,,,0.7,0.4,0.6*34
$GPGST,124602.00,1.984,0.537,0.376,6.472,0.535,0.378,0.832*52
$GPGBS,124602.00,3.127,2.415,5.200,77,0.0001,-5.906,6.108*77
$GPGRS,124602.00,1,-0.4,0.6,0.1,1.2,0.1,-0.3,-0.1,-0.5,0.5,,,*60
$GPGRS,124602.00,1,5.4,5.8,1.2,-1.6,-5.9,-1.7,1.2,-2.0,-2.4,,,*4B
$GPGRS,124602.00,1,0.5,-0.3,-0.6,-2.3,-0.5,1.2,0.1,-0.1,-0.2,,,*66
$GPGRS,124602.00,1,1.2,0.9,1.3,-1.4,-0.0,0.5,0.2,-0.1,-1.1,0.9,-0.6,-0.2*4B
$GPGRS,124602.00,1,0.4,0.4,-1.6,,,,,,,,,*49
$GPGSV,5,1,19,12,79,305,51,19,32,050,45,11,17,122,42,06,25,084,43*7C
$GPGSV,5,2,19,32,28,307,45,25,39,268,45,24,61,148,50,15,02,186,23*79
$GPGSV,5,3,19,29,06,207,39,17,06,040,37,36,35,170,45,58,13,245,36*78
$GPGSV,5,4,19,40,23,133,36,34,31,208,43,49,34,195,45,57,08,111,37*70
$GPGSV,5,5,19,41,07,108,35,61,03,257,38*73
$GLGSV,3,1,09,77,61,052,46,69,17,336,45,76,21,087,46,88,12,164,43*6A
$GLGSV,3,2,09,67,20,230,47,68,35,284,49,86,33,044,48,78,40,300,51*69
$GLGSV,3,3,09,87,46,108,48*54
$GAGSV,3,1,10,30,72,281,49,08,25,192,42,34,12,133,39,11,13,033,35*63
$GAGSV,3,2,10,27,21,260,42,29,24,315,41,36,24,083,41,02,49,066,46*63
$GAGSV,3,3,10,07,48,253,47,10,01,011,30*66
$GBGSV,5,1,20,24,82,332,51,07,13,054,38,33,17,249,44,05,20,130,39*6E
$GBGSV,5,2,20,12,28,165,42,10,26,058,40,41,20,300,43,23,26,281,*62
$GBGSV,5,3,20,56,34,053,,25,27,290,46,44,45,143,49,35,43,072,49*65
$GBGSV,5,4,20,26,41,101,48,34,09,186,41,32,01,347,39,40,08,042,39*6B
$GBGSV,5,5,20,02,04,109,33,31,09,098,,14,08,225,39,60,08,111,39*6A
$GPGGA,124602.00,,,,,0,00,,,M,,M,,*4B
$PTNL,GGK,124602.00,010125,4742.1603095,N,01618.1007304,E,1,42,0.7,EHT751.6900,M*46
$GPGGQ,124602.00,010125,4742.1603095,N,01618.1007304,E,1,42,1.059,708.4835,M*3B
$GPGFA,124602.00,5.101,6.822,0.537,0.376,6.472,0.832,,VVV*06
$GPLLK,124602.00,010125,,M,,M,1,42,0.8,,M*06
$GNGMP,124602.00,,,,,DAAA,42,0.4,,,,*57
$GPGMP,124602.00,,,,,,09,,,,2.9,136*78
$GLGMP,124602.00,,,,,,09,,,,,*75
$GAGMP,124602.00,,,,,,09,,,,,*78
$GBGMP,124602.00,,,,,,15,,,,,*76
$PSSN,SNC,[0,305180000,2347]*4B
$GPZDA,124607.00,01,01,2025,,*65
$GPDTM,W84,,00.0000000,N,00.0000000,E,00.0000000,W84*5F
$PSSN,TFM,124607.00,,,,*69
$GPRMC,124607.00,A,4742.1603083,N,01618.1007301,E,0.0,,010125,5.1,E,D*1B
$GPGLL,4742.1603083,N,01618.1007301,E,124607.00,A,D*6A
$GPGGA,124607.00,4742.1603083,N,01618.1007301,E,2,41,0.4,708.4844,M,43.2066,M,2.6,0136*40
$GNGNS,124607.00,4742.1603083,N,01618.1007301,E,DAAA,41,0.4,708.4844,43.2066,,*5C
$GPGNS,124607.00,,,,,,09,,,,2.6,136*72
$GLGNS,124607.00,,,,,,09,,,,,*70
$GAGNS,124607.00,,,,,,08,,,,,*7C
$GBGNS,124607.00,,,,,,15,,,,,*73
$GPLLQ,124607.00,010125,,M,,M,1,41,1.066,,M*13
$GPVTG,,T,,M,0.00,N,0.00,K,D*26
$GPHDT,,T*1B
$GPTHS,,V*0E
$GPROT,,V*08
$PSSN,HRP,124607.00,010125,,,,,,,00,0,,*67
$PTNL,AVR,124607.00,,Yaw,,Tilt,,,,0,,00*31
$GPGSA,A,3,06,11,12,17,19,24,25,29,32,,,,0.7,0.4,0.6*37
$GPGSA,A,3,67,68,69,76,77,78,86,87,88,,,,0.7,0.4,0.6*38
$GPGSA,A,3,02,07,08,27,29,30,34,36,,,,,0.7,0.4,0.6*35
$GPGSA,A,3,05,07,10,12,14,24,25,26,33,34,35,40,0.7,0.4,0.6*32
$GPGSA,A,3,41,44,60,,,,,,,,,,0.7,0.4,0.6*34
$GPGST,124607.00,2.157,0.544,0.379,6.525,0.542,0.381,0.835*5B
$GPGBS,124607.00,3.170,2.408,5.260,67,0.0001,6.478,6.324*5D
$GPGRS,124607.00,1,-0.3,0.4,0.1,1.8,-0.0,0.0,-0.4,-0.5,0.5,,,*6D
$GPGRS,124607.00,1,6.5,6.4,1.3,-2.8,-6.0,-2.1,1.4,-1.2,-2.8,,,*4B
$GPGRS,124607.00,1,0.5,0.2,-0.5,-0.3,1.3,0.2,-0.1,-0.1,,,,*49
$GPGRS,124607.00,1,1.2,0.9,1.2,-0.9,0.4,0.3,-0.0,0.0,-1.0,0.9,-0.3,-0.2*6B
$GPGRS,124607.00,1,0.4,0.2,-1.3,,,,,,,,,*4F
$GPGSV,5,1,19,12,79,305,51,19,32,050,45,11,17,122,42,06,25,084,43*7C
$GPGSV,5,2,19,32,28,307,45,25,39,269,45,24,61,148,49,15,02,186,22*71
$GPGSV,5,3,19,29,07,207,39,17,06,040,37,36,35,170,45,58,13,245,36*79
$GPGSV,5,4,19,40,23,133,36,34,31,208,43,49,34,195,45,57,08,111,38*7F
$GPGSV,5,5,19,41,07,108,35,61,03,257,38*73
$GLGSV,3,1,09,77,61,052,46,69,17,336,45,76,20,087,46,88,12,164,43*6B
$GLGSV,3,2,09,67,20,230,46,68,35,284,49,86,33,044,48,78,41,300,50*68
$GLGSV,3,3,09,87,46,108,49*55
$GAGSV,3,1,10,30,72,281,49,08,25,192,41,34,12,133,39,11,13,033,35*60
$GAGSV,3,2,10,27,21,260,42,29,24,315,41,36,24,083,41,02,49,066,46*63
$GAGSV,3,3,10,07,48,253,47,10,01,011,30*66
$GBGSV,5,1,20,24,82,333,51,07,13,054,39,33,17,249,43,05,20,130,39*69
$GBGSV,5,2,20,12,28,165,42,10,26,058,40,41,20,300,43,23,26,281,*62
$GBGSV,5,3,20,56,34,053,,25,27,290,46,44,45,143,49,35,43,072,49*65
$GBGSV,5,4,20,26,41,101,48,34,09,186,41,32,01,347,39,40,08,042,39*6B
$GBGSV,5,5,20,02,04,109,33,31,09,098,,14,08,225,39,60,08,111,39*6A
$GPGGA,124607.00,,,,,0,00,,,M,,M,,*4E
$PTNL,GGK,124607.00,010125,4742.1603083,N,01618.1007301,E,1,41,0.7,EHT751.6910,M*43
$GPGGQ,124607.00,010125,4742.1603083,N,01618.1007301,E,1,41,1.066,708.4844,M*35
$GPGFA,124607.00,5.175,6.850,0.544,0.379,6.525,0.835,,VVV*0A
$GPLLK,124607.00,010125,,M,,M,1,41,0.8,,M*00
$GNGMP,124607.00,,,,,DAAA,41,0.4,,,,*51
$GPGMP,124607.00,,,,,,09,,,,2.6,136*72
$GLGMP,124607.00,,,,,,09,,,,,*70
$GAGMP,124607.00,,,,,,08,,,,,*7C
$GBGMP,124607.00,,,,,,15,,,,,*73
$PSSN,SNC,[0,305185000,2347]*4E
$GPZDA,124612.00,01,01,2025,,*61
$GPDTM,W84,,00.0000000,N,00.0000000,E,00.0000000,W84*5F
$PSSN,TFM,124612.00,,,,*6D
$GPRMC,124612.00,A,4742.1603073,N,01618.1007310,E,0.0,,010125,5.1,E,D*10
$GPGLL,4742.1603073,N,01618.1007310,E,124612.00,A,D*61
$GPGGA,124612.00,4742.1603073,N,01618.1007310,E,2,41,0.4,708.4823,M,43.2065,M,2.7,0136*48
$GNGNS,124612.00,4742.1603073,N,01618.1007310,E,DAAA,41,0.4,708.4823,43.2065,,*55
$GPGNS,124612.00,,,,,,09,,,,2.7,136*77
$GLGNS,124612.00,,,,,,09,,,,,*74
$GAGNS,124612.00,,,,,,08,,,,,*78
$GBGNS,124612.00,,,,,,15,,,,,*77
$GPLLQ,124612.00,010125,,M,,M,1,41,1.063,,M*12
$GPVTG,,T,,M,0.00,N,0.00,K,D*26
$GPHDT,,T*1B
$GPTHS,,V*0E
$GPROT,,V*08
$PSSN,HRP,124612.00,010125,,,,,,,00,0,,*63
$PTNL,AVR,124612.00,,Yaw,,Tilt,,,,0,,00*35
$GPGSA,A,3,06,11,12,17,19,24,25,29,32,,,,0.7,0.4,0.6*37
$GPGSA,A,3,67,68,69,76,77,78,86,87,88,,,,0.7,0.4,0.6*38
$GPGSA,A,3,02,07,08,27,29,30,34,36,,,,,0.7,0.4,0.6*35
$GPGSA,A,3,05,07,10,12,14,24,25,26,33,34,35,40,0.7,0.4,0.6*32
$GPGSA,A,3,41,44,60,,,,,,,,,,0.7,0.4,0.6*34
$GPGST,124612.00,2.093,0.546,0.379,6.498,0.544,0.382,0.830*53
$GPGBS,124612.00,3.137,2.364,5.326,68,0.0001,6.467,6.222*52
$GPGRS,124612.00,1,-0.3,-0.1,0.1,1.6,-0.2,0.4,-0.3,-0.7,0.3,,,*4A
$GPGRS,124612.00,1,5.9,6.5,1.8,-1.4,-6.0,-2.3,1.5,-1.4,-2.0,,,*48
$GPGRS,124612.00,1,0.6,0.1,-0.4,-0.3,1.3,0.3,-0.2,0.3,,,,*61
$GPGRS,124612.00,1,1.3,1.0,1.1,-1.1,0.8,0.4,-0.4,0.1,-0.8,1.1,-0.6,0.1*49
$GPGRS,124612.00,1,0.9,0.4,-1.5,,,,,,,,,*46
$GPGSV,5,1,19,12,79,306,51,19,32,050,45,11,17,122,41,06,25,084,43*7C
$GPGSV,5,2,19,32,28,307,45,25,39,269,45,24,61,148,49,15,02,186,21*72
$GPGSV,5,3,19,29,07,207,39,17,06,040,37,36,35,170,45,58,13,245,36*79
$GPGSV,5,4,19,40,23,133,36,34,31,208,43,49,34,195,45,57,08,111,37*70
$GPGSV,5,5,19,41,07,108,35,61,03,257,38*73
$GLGSV,3,1,09,77,61,052,47,69,17,336,45,76,20,087,46,88,12,164,44*6D
$GLGSV,3,2,09,67,20,230,46,68,35,284,49,86,33,044,49,78,41,300,50*69
$GLGSV,3,3,09,87,46,108,48*54
$GAGSV,3,1,10,30,72,281,49,08,25,192,41,34,12,133,40,11,13,033,35*6E
$GAGSV,3,2,10,27,21,260,42,29,24,315,41,36,24,083,41,02,49,066,47*62
$GAGSV,3,3,10,07,48,253,47,10,01,011,30*66
$GBGSV,5,1,20,24,82,333,51,07,13,054,39,33,17,249,43,05,20,130,39*69
$GBGSV,5,2,20,12,28,165,42,10,26,058,40,41,20,300,43,23,26,281,*62
$GBGSV,5,3,20,56,34,053,,25,27,290,45,44,45,143,49,35,43,072,49*66
$GBGSV,5,4,20,26,41,101,48,34,09,186,40,32,01,347,39,40,08,042,39*6A
$GBGSV,5,5,20,02,04,109,33,31,09,098,,14,08,225,39,60,08,111,39*6A
$GPGGA,124612.00,,,,,0,00,,,M,,M,,*4A
$PTNL,GGK,124612.00,010125,4742.1603073,N,01618.1007310,E,1,41,0.7,EHT751.6888,M*48
$GPGGQ,124612.00,010125,4742.1603073,N,01618.1007310,E,1,41,1.063,708.4823,M*3A
$GPGFA,124612.00,5.188,6.804,0.546,0.379,6.498,0.830,,VVV*0D
$GPLLK,124612.00,010125,,M,,M,1,41,0.8,,M*04
$GNGMP,124612.00,,,,,DAAA,41,0.4,,,,*55
$GPGMP,124612.00,,,,,,09,,,,2.7,136*77
$GLGMP,124612.00,,,,,,09,,,,,*74
$GAGMP,124612.00,,,,,,08,,,,,*78
$GBGMP,124612.00,,,,,,15,,,,,*77
$PSSN,SNC,[0,305190000,2347]*4A
$GPZDA,124617.00,01,01,2025,,*64
$GPDTM,W84,,00.0000000,N,00.0000000,E,00.0000000,W84*5F
$PSSN,TFM,124617.00,,,,*68
$GPRMC,124617.00,A,4742.1603061,N,01618.1007332,E,0.0,,010125,5.1,E,D*16
$GPGLL,4742.1603061,N,01618.1007332,E,124617.00,A,D*67
$GPGGA,124617.00,4742.1603061,N,01618.1007332,E,2,41,0.4,708.4782,M,43.2065,M,1.9,0136*47
$GNGNS,124617.00,4742.1603061,N,01618.1007332,E,DAAA,41,0.4,708.4782,43.2065,,*57
$GPGNS,124617.00,,,,,,09,,,,1.9,136*7F
$GLGNS,124617.00,,,,,,09,,,,,*71
$GAGNS,124617.00,,,,,,08,,,,,*7D
$GBGNS,124617.00,,,,,,15,,,,,*72
$GPLLQ,124617.00,010125,,M,,M,1,41,1.062,,M*16
$GPVTG,,T,,M,0.00,N,0.01,K,D*27
$GPHDT,,T*1B
$GPTHS,,V*0E
$GPROT,,V*08
$PSSN,HRP,124617.00,010125,,,,,,,00,0,,*66
$PTNL,AVR,124617.00,,Yaw,,Tilt,,,,0,,00*30
$GPGSA,A,3,06,11,12,17,19,24,25,29,32,,,,0.7,0.4,0.6*37
$GPGSA,A,3,67,68,69,76,77,78,86,87,88,,,,0.7,0.4,0.6*38
$GPGSA,A,3,02,07,08,27,29,30,34,36,,,,,0.7,0.4,0.6*35
$GPGSA,A,3,05,07,10,12,14,24,25,26,33,34,35,40,0.7,0.4,0.6*32
$GPGSA,A,3,41,44,60,,,,,,,,,,0.7,0.4,0.6*34
$GPGST,124617.00,2.118,0.543,0.378,6.791,0.541,0.380,0.832*5F
$GPGBS,124617.00,3.146,2.402,5.170,68,0.0001,6.344,6.222*51
$GPGRS,124617.00,1,-0.7,0.0,0.0,2.2,-0.3,0.1,-0.0,-0.4,0.5,,,*63
$GPGRS,124617.00,1,5.7,6.3,1.5,-2.2,-5.9,-2.5,1.5,-2.2,-1.5,,,*42
$GPGRS,124617.00,1,0.6,0.1,-0.2,-0.5,1.3,0.2,-0.1,0.2,,,,*67
$GPGRS,124617.00,1,1.1,0.7,1.6,-0.7,0.8,0.6,-0.8,-0.1,-1.2,1.3,-0.9,0.4*68
$GPGRS,124617.00,1,0.8,0.5,-1.6,,,,,,,,,*40
$GPGSV,5,1,19,12,79,306,51,19,32,050,44,11,17,122,41,06,25,084,43*7D
$GPGSV,5,2,19,32,28,307,45,25,39,269,45,24,61,148,49,15,02,186,20*73
$GPGSV,5,3,19,29,07,207,39,17,06,040,38,36,35,170,45,58,13,245,36*76
$GPGSV,5,4,19,40,23,133,36,34,31,208,43,49,34,195,45,57,08,111,37*70
$GPGSV,5,5,19,41,07,108,35,61,03,257,38*73
$GLGSV,3,1,09,77,61,052,47,69,17,336,46,76,20,087,45,88,12,164,44*6D
$GLGSV,3,2,09,67,20,230,47,68,35,284,49,86,33,044,48,78,41,300,50*69
$GLGSV,3,3,09,87,46,108,48*54
$GAGSV,3,1,10,30,72,281,49,08,25,192,43,34,12,133,40,11,13,033,34*6D
$GAGSV,3,2,10,27,21,260,42,29,24,315,41,36,24,083,41,02,49,066,47*62
$GAGSV,3,3,10,07,48,253,47,10,01,011,29*6E
$GBGSV,5,1,20,24,82,333,51,07,13,054,39,33,17,249,43,05,20,130,39*69
$GBGSV,5,2,20,12,28,165,43,10,26,058,40,41,19,299,43,23,26,281,*68
$GBGSV,5,3,20,56,34,053,,25,27,290,45,44,45,143,49,35,43,072,49*66
$GBGSV,5,4,20,26,41,101,48,34,09,186,40,32,01,347,38,40,08,042,39*6B
$GBGSV,5,5,20,02,04,109,33,31,09,098,,14,08,225,38,60,08,111,39*6B
$GPGGA,124617.00,,,,,0,00,,,M,,M,,*4F
$PTNL,GGK,124617.00,010125,4742.1603061,N,01618.1007332,E,1,41,0.7,EHT751.6848,M*42
$GPGGQ,124617.00,010125,4742.1603061,N,01618.1007332,E,1,41,1.062,708.4782,M*39
$GPGFA,124617.00,5.159,6.819,0.543,0.378,6.791,0.832,,VVV*04
$GPLLK,124617.00,010125,,M,,M,1,41,0.8,,M*01
$GNGMP,124617.00,,,,,DAAA,41,0.4,,,,*50
$GPGMP,124617.00,,,,,,09,,,,1.9,136*7F
$GLGMP,124617.00,,,,,,09,,,,,*71
$GAGMP,124617.00,,,,,,08,,,,,*7D
$GBGMP,124617.00,,,,,,15,,,,,*72
$PSSN,SNC,[0,305195000,2347]*4F
$GPZDA,124622.00,01,01,2025,,*62
$GPDTM,W84,,00.0000000,N,00.0000000,E,00.0000000,W84*5F
