$GPZDA,174442.00,01,01,2025,,*63
$GPDTM,W84,,00.0000000,N,00.0000000,E,00.0000000,W84*5F
$PSSN,TFM,174442.00,,,,*6F
$GPRMC,174442.00,A,4742.1600932,N,01618.1004270,E,0.0,,010125,5.1,E,D*19
$GPGLL,4742.1600932,N,01618.1004270,E,174442.00,A,D*68
$GPGGA,174442.00,4742.1600932,N,01618.1004270,E,2,39,0.4,708.0884,M,43.2066,M,3.3,0136*41
$GNGNS,174442.00,4742.1600932,N,01618.1004270,E,DAAA,39,0.4,708.0884,43.2066,,*59
$GPGNS,174442.00,,,,,,10,,,,3.3,136*78
$GLGNS,174442.00,,,,,,08,,,,,*77
$GAGNS,174442.00,,,,,,07,,,,,*75
$GBGNS,174442.00,,,,,,14,,,,,*74
$GPLLQ,174442.00,010125,,M,,M,1,39,0.913,,M*10
$GPVTG,,T,,M,0.01,N,0.01,K,D*26
$GPHDT,,T*1B
$GPTHS,,V*0E
$GPROT,,V*08
$PSSN,HRP,174442.00,010125,,,,,,,00,0,,*61
$PTNL,AVR,174442.00,,Yaw,,Tilt,,,,0,,00*37
$GPGSA,A,3,05,16,18,23,25,26,27,28,29,31,,,0.7,0.4,0.6*38
$GPGSA,A,3,65,66,73,79,80,81,82,83,,,,,0.7,0.4,0.6*3E
$GPGSA,A,3,13,15,21,26,27,30,34,,,,,,0.7,0.4,0.6*37
$GPGSA,A,3,05,08,11,12,13,22,23,25,28,34,37,38,0.7,0.4,0.6*3F
$GPGSA,A,3,43,60,,,,,,,,,,,0.7,0.4,0.6*36
$GPGST,174442.00,1.271,0.453,0.329,359.482,0.453,0.329,0.721*57
$GPGBS,174442.00,2.640,2.047,4.996,23,0.0001,0.711,0.951*56
$GPGRS,174442.00,1,0.4,0.0,-0.3,0.7,-0.2,-0.2,-0.9,-0.5,0.2,0.3,,*6E
$GPGRS,174442.00,1,0.5,-4.0,3.7,1.2,-0.3,0.7,-0.7,-1.4,,,,*4E
$GPGRS,174442.00,1,0.2,0.4,-0.2,1.2,0.3,-1.3,-1.4,,,,,*4E
$GPGRS,174442.00,1,2.3,0.7,-0.1,-0.6,0.0,-0.6,-0.2,0.4,-0.6,0.6,-0.5,-0.2*65
$GPGRS,174442.00,1,0.5,-1.4,,,,,,,,,,*63
$GPGSV,5,1,20,18,81,133,50,28,14,210,41,27,14,277,40,05,24,048,42*7D
$GPGSV,5,2,20,25,10,143,38,31,28,234,44,23,22,152,41,29,40,079,47*7A
$GPGSV,5,3,20,16,42,305,46,26,68,266,50,20,01,026,29,36,35,170,44*7C
$GPGSV,5,4,20,58,13,245,37,40,23,133,35,34,31,208,42,49,34,195,44*7E
$GPGSV,5,5,20,57,08,111,38,41,07,108,34,61,03,257,38*48
$GLGSV,3,1,09,82,71,282,51,65,15,039,41,73,24,326,47,83,31,243,38*67
$GLGSV,3,2,09,79,35,174,50,81,48,040,51,80,70,263,52,66,09,086,43*68
$GLGSV,3,3,09,72,02,348,37*50
$GAGSV,3,1,09,15,62,061,47,23,10,312,,34,12,045,38,27,59,151,48*69
$GAGSV,3,2,09,13,57,205,47,21,60,297,47,26,07,219,37,30,10,137,38*6F
$GAGSV,3,3,09,09,01,000,35*5F
$GBGSV,6,1,22,43,85,328,52,12,12,065,37,25,20,178,43,07,11,100,*65
$GBGSV,6,2,22,60,10,109,39,38,29,042,44,05,22,129,38,27,27,240,*6E
$GBGSV,6,3,22,50,14,098,,28,24,251,45,37,34,305,46,31,40,055,*65
$GBGSV,6,4,22,08,40,053,42,34,40,065,48,13,44,064,45,23,53,232,50*69
$GBGSV,6,5,22,11,65,053,48,42,07,121,,02,07,106,34,22,07,026,39*6E
$GBGSV,6,6,22,56,02,086,,21,06,028,*6B
$GPGGA,174442.00,,,,,0,00,,,M,,M,,*48
$PTNL,GGK,174442.00,010125,4742.1600932,N,01618.1004270,E,1,39,0.7,EHT751.2949,M*46
$GPGGQ,174442.00,010125,4742.1600932,N,01618.1004270,E,1,39,0.913,708.0884,M*3A
$GPGFA,174442.00,4.307,5.911,0.453,0.329,359.482,0.721,,VVV*00
$GPLLK,174442.00,010125,,M,,M,1,39,0.8,,M*09
$GNGMP,174442.00,,,,,DAAA,39,0.4,,,,*58
$GPGMP,174442.00,,,,,,10,,,,3.3,136*78
$GLGMP,174442.00,,,,,,08,,,,,*77
$GAGMP,174442.00,,,,,,07,,,,,*75
$GBGMP,174442.00,,,,,,14,,,,,*74
$PSSN,SNC,[0,323100000,2347]*47
$GPZDA,174447.00,01,01,2025,,*66
$GPDTM,W84,,00.0000000,N,00.0000000,E,00.0000000,W84*5F
$PSSN,TFM,174447.00,,,,*6A
$GPRMC,174447.00,A,4742.1600924,N,01618.1004238,E,0.0,,010125,5.1,E,D*17
$GPGLL,4742.1600924,N,01618.1004238,E,174447.00,A,D*66
$GPGGA,174447.00,4742.1600924,N,01618.1004238,E,2,39,0.4,708.0917,M,43.2066,M,1.9,0136*4C
$GNGNS,174447.00,4742.1600924,N,01618.1004238,E,DAAA,39,0.4,708.0917,43.2066,,*5C
$GPGNS,174447.00,,,,,,10,,,,1.9,136*75
$GLGNS,174447.00,,,,,,08,,,,,*72
$GAGNS,174447.00,,,,,,07,,,,,*70
$GBGNS,174447.00,,,,,,14,,,,,*71
$GPLLQ,174447.00,010125,,M,,M,1,39,0.909,,M*1E
$GPVTG,,T,,M,0.00,N,0.00,K,D*26
$GPHDT,,T*1B
$GPTHS,,V*0E
$GPROT,,V*08
$PSSN,HRP,174447.00,010125,,,,,,,00,0,,*64
$PTNL,AVR,174447.00,,Yaw,,Tilt,,,,0,,00*32
$GPGSA,A,3,05,16,18,23,25,26,27,28,29,31,,,0.7,0.4,0.6*38
$GPGSA,A,3,65,66,73,79,80,81,82,83,,,,,0.7,0.4,0.6*3E
$GPGSA,A,3,13,15,21,26,27,30,34,,,,,,0.7,0.4,0.6*37
$GPGSA,A,3,05,08,11,12,13,22,23,25,28,34,37,38,0.7,0.4,0.6*3F
$GPGSA,A,3,43,60,,,,,,,,,,,0.7,0.4,0.6*36
$GPGST,174447.00,1.281,0.453,0.331,1.140,0.453,0.331,0.716*5C
$GPGBS,174447.00,2.585,2.026,4.773,23,0.0001,1.149,0.915*51
$GPGRS,174447.00,1,0.5,-0.0,-0.3,1.1,-0.2,-0.0,-1.0,-0.6,-0.1,0.5,,*61
$GPGRS,174447.00,1,0.3,-4.5,3.3,0.4,-0.5,1.0,-0.5,-0.8,,,,*44
$GPGRS,174447.00,1,0.3,0.3,-0.2,1.4,0.3,-1.5,-1.6,,,,,*4F
$GPGRS,174447.00,1,1.9,0.5,-0.2,-0.3,-0.0,-0.8,-0.1,0.3,-0.8,0.4,-0.6,-0.2*45
$GPGRS,174447.00,1,0.6,-1.4,,,,,,,,,,*65
$GPGSV,5,1,20,18,81,133,50,28,13,210,40,27,14,277,40,05,24,048,42*7B
$GPGSV,5,2,20,25,10,143,38,31,28,234,44,23,22,152,41,29,40,079,47*7A
$GPGSV,5,3,20,16,42,305,46,26,68,266,50,20,01,026,29,36,35,170,45*7D
$GPGSV,5,4,20,58,13,245,37,40,23,133,36,34,31,208,42,49,34,195,44*7D
$GPGSV,5,5,20,57,08,111,38,41,07,108,35,61,03,257,38*49
$GLGSV,3,1,09,82,71,282,52,65,15,039,41,73,24,325,46,83,31,243,38*66
$GLGSV,3,2,09,79,34,174,49,81,48,040,51,80,70,263,52,66,09,086,42*60
$GLGSV,3,3,09,72,01,348,36*52
$GAGSV,3,1,09,15,62,061,47,23,10,312,,34,12,045,38,27,59,151,48*69
$GAGSV,3,2,09,13,57,205,47,21,60,297,47,26,07,219,38,30,10,137,38*60
$GAGSV,3,3,09,09,01,000,36*5C
$GBGSV,6,1,22,43,85,328,52,12,12,065,37,25,20,178,43,07,11,101,*64
$GBGSV,6,2,22,60,10,109,39,38,29,042,43,05,22,129,38,27,27,241,*68
$GBGSV,6,3,22,50,14,098,,28,24,251,45,37,34,305,46,31,40,055,*65
$GBGSV,6,4,22,08,40,053,42,34,40,065,47,13,44,064,45,23,53,232,50*66
$GBGSV,6,5,22,11,65,053,48,42,07,121,,02,07,106,34,22,07,026,39*6E
$GBGSV,6,6,22,56,02,086,,21,06,028,*6B
$GPGGA,174447.00,,,,,0,00,,,M,,M,,*4D
$PTNL,GGK,174447.00,010125,4742.1600924,N,01618.1004238,E,1,39,0.7,EHT751.2983,M*4E
$GPGGQ,174447.00,010125,4742.1600924,N,01618.1004238,E,1,39,0.909,708.0917,M*34
$GPGFA,174447.00,4.309,5.867,0.453,0.331,1.140,0.716,,VVV*03
$GPLLK,174447.00,010125,,M,,M,1,39,0.8,,M*0C
$GNGMP,174447.00,,,,,DAAA,39,0.4,,,,*5D
$GPGMP,174447.00,,,,,,10,,,,1.9,136*75
$GLGMP,174447.00,,,,,,08,,,,,*72
$GAGMP,174447.00,,,,,,07,,,,,*70
$GBGMP,174447.00,,,,,,14,,,,,*71
$PSSN,SNC,[0,323105000,2347]*42
$GPZDA,174452.00,01,01,2025,,*62
$GPDTM,W84,,00.0000000,N,00.0000000,E,00.0000000,W84*5F
$PSSN,TFM,174452.00,,,,*6E
$GPRMC,174452.00,A,4742.1600951,N,01618.1004238,E,0.0,,010125,5.1,E,D*11
$GPGLL,4742.1600951,N,01618.1004238,E,174452.00,A,D*60
$GPGGA,174452.00,4742.1600951,N,01618.1004238,E,2,39,0.4,708.0910,M,43.2066,M,2.5,0136*42
$GNGNS,174452.00,4742.1600951,N,01618.1004238,E,DAAA,39,0.4,708.0910,43.2066,,*5D
$GPGNS,174452.00,,,,,,10,,,,2.5,136*7E
$GLGNS,174452.00,,,,,,08,,,,,*76
$GAGNS,174452.00,,,,,,07,,,,,*74
$GBGNS,174452.00,,,,,,14,,,,,*75
$GPLLQ,174452.00,010125,,M,,M,1,39,0.894,,M*1F
$GPVTG,,T,,M,0.01,N,0.01,K,D*26
$GPHDT,,T*1B
$GPTHS,,V*0E
$GPROT,,V*08
$PSSN,HRP,174452.00,010125,,,,,,,00,0,,*60
$PTNL,AVR,174452.00,,Yaw,,Tilt,,,,0,,00*36
$GPGSA,A,3,05,16,18,23,25,26,27,28,29,31,,,0.7,0.4,0.6*38
$GPGSA,A,3,65,66,73,79,80,81,82,83,,,,,0.7,0.4,0.6*3E
$GPGSA,A,3,13,15,21,26,27,30,34,,,,,,0.7,0.4,0.6*37
$GPGSA,A,3,05,08,11,12,13,22,23,25,28,34,37,38,0.7,0.4,0.6*3F
$GPGSA,A,3,43,60,,,,,,,,,,,0.7,0.4,0.6*36
$GPGST,174452.00,1.176,0.448,0.329,3.051,0.448,0.330,0.700*5F
$GPGBS,174452.00,2.641,2.011,4.823,23,0.0001,0.836,0.924*52
$GPGRS,174452.00,1,0.1,-0.1,-0.1,0.8,-0.7,0.0,-1.1,-0.4,-0.0,0.4,,*41
$GPGRS,174452.00,1,0.2,-3.9,2.7,0.5,-0.1,0.8,0.0,-1.4,,,,*66
$GPGRS,174452.00,1,0.2,0.3,-0.1,1.3,0.3,-1.4,-1.4,,,,,*4D
$GPGRS,174452.00,1,2.3,0.4,-0.3,-0.4,-0.2,-1.0,-0.3,0.3,-0.7,0.1,-0.4,-0.1*4D
$GPGRS,174452.00,1,0.4,-1.4,,,,,,,,,,*63
$GPGSV,5,1,20,18,81,133,50,28,13,210,39,27,14,277,40,05,24,048,41*76
$GPGSV,5,2,20,23,22,152,41,31,28,234,45,16,42,305,46,29,40,079,46*74
$GPGSV,5,3,20,26,68,266,50,20,01,026,29,25,10,143,38,36,35,170,45*73
$GPGSV,5,4,20,58,13,245,37,40,23,133,36,34,31,208,42,49,34,195,44*7D
$GPGSV,5,5,20,57,08,111,38,41,07,108,34,61,03,257,38*48
$GLGSV,3,1,09,82,71,283,51,65,15,038,41,73,24,325,46,83,31,243,38*65
$GLGSV,3,2,09,79,34,174,50,81,48,040,50,80,70,263,52,66,09,086,41*6A
$GLGSV,3,3,09,72,01,348,36*52
$GAGSV,3,1,09,15,62,061,47,23,10,312,,34,12,045,38,27,59,151,48*69
$GAGSV,3,2,09,13,57,205,47,21,60,297,48,26,07,219,38,30,10,137,38*6F
$GAGSV,3,3,09,09,01,000,35*5F
$GBGSV,6,1,22,43,85,329,51,12,12,065,37,25,20,178,43,07,11,101,*66
$GBGSV,6,2,22,60,10,109,39,38,29,042,44,05,22,129,38,27,27,241,*6F
$GBGSV,6,3,22,50,14,098,,28,24,251,45,37,34,305,46,31,40,055,*65
$GBGSV,6,4,22,08,40,053,42,34,40,065,47,13,44,064,45,23,53,231,50*65
$GBGSV,6,5,22,11,65,053,48,42,07,121,,02,07,106,34,22,07,026,39*6E
$GBGSV,6,6,22,56,02,086,,21,06,028,*6B
$GPGGA,174452.00,,,,,0,00,,,M,,M,,*49
$PTNL,GGK,174452.00,010125,4742.1600951,N,01618.1004238,E,1,39,0.7,EHT751.2976,M*42
$GPGGQ,174452.00,010125,4742.1600951,N,01618.1004238,E,1,39,0.894,708.0910,M*30
$GPGFA,174452.00,4.261,5.737,0.448,0.329,3.051,0.700,,VVV*05
$GPLLK,174452.00,010125,,M,,M,1,39,0.8,,M*08
$GNGMP,174452.00,,,,,DAAA,39,0.4,,,,*59
$GPGMP,174452.00,,,,,,10,,,,2.5,136*7E
$GLGMP,174452.00,,,,,,08,,,,,*76
$GAGMP,174452.00,,,,,,07,,,,,*74
$GBGMP,174452.00,,,,,,14,,,,,*75
$PSSN,SNC,[0,323110000,2347]*46
$GPZDA,174457.00,01,01,2025,,*67
$GPDTM,W84,,00.0000000,N,00.0000000,E,00.0000000,W84*5F
$PSSN,TFM,174457.00,,,,*6B
$GPRMC,174457.00,A,4742.1600974,N,01618.1004196,E,0.0,,010125,5.1,E,D*14
$GPGLL,4742.1600974,N,01618.1004196,E,174457.00,A,D*65
$GPGGA,174457.00,4742.1600974,N,01618.1004196,E,2,39,0.4,708.0903,M,43.2066,M,2.3,0136*43
$GNGNS,174457.00,4742.1600974,N,01618.1004196,E,DAAA,39,0.4,708.0903,43.2066,,*5A
$GPGNS,174457.00,,,,,,10,,,,2.3,136*7D
$GLGNS,174457.00,,,,,,08,,,,,*73
$GAGNS,174457.00,,,,,,07,,,,,*71
$GBGNS,174457.00,,,,,,14,,,,,*70
$GPLLQ,174457.00,010125,,M,,M,1,39,0.902,,M*14
$GPVTG,,T,,M,0.00,N,0.01,K,D*27
$GPHDT,,T*1B
$GPTHS,,V*0E
$GPROT,,V*08
$PSSN,HRP,174457.00,010125,,,,,,,00,0,,*65
$PTNL,AVR,174457.00,,Yaw,,Tilt,,,,0,,00*33
$GPGSA,A,3,05,16,18,23,25,26,27,28,29,31,,,0.7,0.4,0.6*38
$GPGSA,A,3,65,66,73,79,80,81,82,83,,,,,0.7,0.4,0.6*3E
$GPGSA,A,3,13,15,21,26,27,30,34,,,,,,0.7,0.4,0.6*37
$GPGSA,A,3,05,08,11,12,13,22,23,25,28,34,37,38,0.7,0.4,0.6*3F
$GPGSA,A,3,43,60,,,,,,,,,,,0.7,0.4,0.6*36
$GPGST,174457.00,1.307,0.450,0.330,1.445,0.450,0.330,0.709*5C
$GPGBS,174457.00,2.604,2.029,4.902,23,0.0001,0.998,0.935*5A
$GPGRS,174457.00,1,0.7,-0.3,-0.1,1.0,-0.8,0.0,-0.9,-0.1,-0.1,0.5,,*4A
$GPGRS,174457.00,1,0.9,-4.4,2.7,1.0,-0.1,0.9,-0.5,-2.3,,,,*4B
$GPGRS,174457.00,1,0.5,0.3,-0.1,1.0,0.4,-1.5,-1.7,,,,,*49
$GPGRS,174457.00,1,1.9,0.5,-0.3,-0.1,-0.6,-1.4,-0.5,0.0,-0.7,0.2,-0.7,-0.2*43
$GPGRS,174457.00,1,0.2,-1.5,,,,,,,,,,*61
$GPGSV,5,1,20,18,81,133,50,28,13,210,39,27,14,277,40,05,24,048,41*76
$GPGSV,5,2,20,23,22,152,42,31,28,234,45,16,42,304,46,29,40,079,46*76
$GPGSV,5,3,20,26,68,265,50,20,01,026,29,25,10,143,37,36,35,170,45*7F
$GPGSV,5,4,20,58,13,245,37,40,23,133,36,34,31,208,42,49,34,195,44*7D
$GPGSV,5,5,20,57,08,111,38,41,07,108,35,61,03,257,38*49
$GLGSV,3,1,09,82,72,283,52,65,15,038,40,73,24,325,46,83,31,243,38*64
$GLGSV,3,2,09,79,34,174,50,81,48,040,50,80,70,263,52,66,09,086,41*6A
$GLGSV,3,3,09,72,01,348,36*52
$GAGSV,3,1,09,15,62,061,47,23,10,312,,34,12,045,38,27,59,151,48*69
$GAGSV,3,2,09,13,57,205,48,21,60,297,47,26,07,219,38,30,10,137,38*6F
$GAGSV,3,3,09,09,01,000,36*5C
$GBGSV,6,1,22,43,85,329,51,12,12,065,37,25,20,178,43,07,11,101,*66
$GBGSV,6,2,22,60,10,109,39,38,29,042,44,05,22,129,38,27,27,241,*6F
$GBGSV,6,3,22,50,14,098,,28,24,251,44,37,34,305,46,31,40,055,*64
$GBGSV,6,4,22,08,40,053,42,34,40,065,47,13,44,064,45,23,53,231,50*65
$GBGSV,6,5,22,11,65,053,49,42,07,121,,02,07,106,34,22,07,026,40*61
$GBGSV,6,6,22,56,02,086,,21,06,028,*6B
$GPGGA,174457.00,,,,,0,00,,,M,,M,,*4C
$PTNL,GGK,174457.00,010125,4742.1600974,N,01618.1004196,E,1,39,0.7,EHT751.2969,M*49
$GPGGQ,174457.00,010125,4742.1600974,N,01618.1004196,E,1,39,0.902,708.0903,M*39
$GPGFA,174457.00,4.278,5.813,0.450,0.330,1.445,0.709,,VVV*0A
$GPLLK,174457.00,010125,,M,,M,1,39,0.8,,M*0D
$GNGMP,174457.00,,,,,DAAA,39,0.4,,,,*5C
$GPGMP,174457.00,,,,,,10,,,,2.3,136*7D
$GLGMP,174457.00,,,,,,08,,,,,*73
$GAGMP,174457.00,,,,,,07,,,,,*71
$GBGMP,174457.00,,,,,,14,,,,,*70
$PSSN,SNC,[0,323115000,2347]*43
$GPZDA,174502.00,01,01,2025,,*66
$GPDTM,W84,,00.0000000,N,00.0000000,E,00.0000000,W84*5F
$PSSN,TFM,174502.00,,,,*6A
$GPRMC,174502.00,A,4742.1600972,N,01618.1004171,E,0.0,,010125,5.1,E,D*1A
$GPGLL,4742.1600972,N,01618.1004171,E,174502.00,A,D*6B
$GPGGA,174502.00,4742.1600972,N,01618.1004171,E,2,39,0.4,708.0914,M,43.2066,M,3.3,0136*4A
$GNGNS,174502.00,4742.1600972,N,01618.1004171,E,DAAA,39,0.4,708.0914,43.2066,,*52
$GPGNS,174502.00,,,,,,10,,,,3.3,136*7D
$GLGNS,174502.00,,,,,,08,,,,,*72
$GAGNS,174502.00,,,,,,07,,,,,*70
$GBGNS,174502.00,,,,,,14,,,,,*71
$GPLLQ,174502.00,010125,,M,,M,1,39,0.913,,M*15
$GPVTG,,T,,M,0.01,N,0.01,K,D*26
$GPHDT,,T*1B
$GPTHS,,V*0E
$GPROT,,V*08
$PSSN,HRP,174502.00,010125,,,,,,,00,0,,*64
$PTNL,AVR,174502.00,,Yaw,,Tilt,,,,0,,00*32
$GPGSA,A,3,05,16,18,23,25,26,27,28,29,31,,,0.7,0.4,0.6*38
$GPGSA,A,3,65,66,73,79,80,81,82,83,,,,,0.7,0.4,0.6*3E
$GPGSA,A,3,13,15,21,26,27,30,34,,,,,,0.7,0.4,0.6*37
$GPGSA,A,3,05,08,11,12,13,22,23,25,28,34,37,38,0.7,0.4,0.6*3F
$GPGSA,A,3,43,60,,,,,,,,,,,0.7,0.4,0.6*36
$GPGST,174502.00,1.240,0.453,0.329,359.556,0.453,0.329,0.721*58
$GPGBS,174502.00,2.646,2.050,4.985,27,0.0001,-0.850,1.268*72
$GPGRS,174502.00,1,0.8,-0.1,-0.2,0.6,-0.8,-0.1,-0.8,-0.0,-0.1,0.3,,*68
$GPGRS,174502.00,1,-0.2,-4.5,2.6,0.7,-0.4,0.7,-0.5,-1.3,,,,*62
$GPGRS,174502.00,1,0.6,0.3,-0.1,1.0,0.3,-1.4,-1.5,,,,,*4F
$GPGRS,174502.00,1,2.1,0.6,0.1,0.5,-0.6,-1.5,-0.3,-0.1,-0.5,0.2,-0.8,-0.0*68
$GPGRS,174502.00,1,0.4,-1.6,,,,,,,,,,*65
$GPGSV,5,1,20,18,81,132,50,28,13,210,39,27,15,277,41,05,24,048,41*77
$GPGSV,5,2,20,23,22,152,41,31,28,233,44,16,42,304,46,29,40,079,46*73
$GPGSV,5,3,20,26,68,265,50,20,01,026,28,25,10,143,37,36,35,170,45*7E
$GPGSV,5,4,20,58,13,245,37,40,23,133,36,34,31,208,42,49,34,195,44*7D
$GPGSV,5,5,20,57,08,111,38,41,07,108,34,61,03,257,38*48
$GLGSV,3,1,09,82,72,283,52,65,15,038,41,73,25,325,46,83,31,243,39*65
$GLGSV,3,2,09,79,34,174,50,81,47,040,50,80,70,263,52,66,09,086,41*65
$GLGSV,3,3,09,72,01,348,36*52
$GAGSV,3,1,09,15,62,061,47,23,10,312,,34,12,045,37,27,59,151,48*66
$GAGSV,3,2,09,13,58,205,48,21,60,297,47,26,07,219,38,30,10,137,38*60
$GAGSV,3,3,09,09,01,000,35*5F
$GBGSV,6,1,22,43,85,329,52,12,12,065,38,60,10,109,39,25,20,178,43*68
$GBGSV,6,2,22,50,14,098,,38,29,042,44,05,22,129,38,27,27,241,*6B
$GBGSV,6,3,22,07,11,101,,28,24,251,45,37,34,304,46,31,40,055,*62
$GBGSV,6,4,22,08,40,053,42,34,40,065,47,13,44,064,45,23,53,231,50*65
$GBGSV,6,5,22,11,65,053,49,42,07,121,,02,07,106,34,21,06,028,*69
$GBGSV,6,6,22,56,02,086,,22,07,026,40*63
$GPGGA,174502.00,,,,,0,00,,,M,,M,,*4D
$PTNL,GGK,174502.00,010125,4742.1600972,N,01618.1004171,E,1,39,0.7,EHT751.2979,M*46
$GPGGQ,174502.00,010125,4742.1600972,N,01618.1004171,E,1,39,0.913,708.0914,M*31
$GPGFA,174502.00,4.311,5.911,0.453,0.329,359.556,0.721,,VVV*0A
$GPLLK,174502.00,010125,,M,,M,1,39,0.8,,M*0C
$GNGMP,174502.00,,,,,DAAA,39,0.4,,,,*5D
$GPGMP,174502.00,,,,,,10,,,,3.3,136*7D
$GLGMP,174502.00,,,,,,08,,,,,*72
$GAGMP,174502.00,,,,,,07,,,,,*70
$GBGMP,174502.00,,,,,,14,,,,,*71
$PSSN,SNC,[0,323120000,2347]*45
$GPZDA,174507.00,01,01,2025,,*63
$GPDTM,W84,,00.0000000,N,00.0000000,E,00.0000000,W84*5F
$PSSN,TFM,174507.00,,,,*6F
$GPRMC,174507.00,A,4742.1600990,N,01618.1004135,E,0.0,,010125,5.1,E,D*13
$GPGLL,4742.1600990,N,01618.1004135,E,174507.00,A,D*62
$GPGGA,174507.00,4742.1600990,N,01618.1004135,E,2,39,0.4,708.0910,M,43.2066,M,1.9,0136*4F
$GNGNS,174507.00,4742.1600990,N,01618.1004135,E,DAAA,39,0.4,708.0910,43.2066,,*5F
$GPGNS,174507.00,,,,,,10,,,,1.9,136*70
$GLGNS,174507.00,,,,,,08,,,,,*77
$GAGNS,174507.00,,,,,,07,,,,,*75
$GBGNS,174507.00,,,,,,14,,,,,*74
$GPLLQ,174507.00,010125,,M,,M,1,39,0.909,,M*1B
$GPVTG,,T,,M,0.01,N,0.01,K,D*26
$GPHDT,,T*1B
$GPTHS,,V*0E
$GPROT,,V*08
$PSSN,HRP,174507.00,010125,,,,,,,00,0,,*61
$PTNL,AVR,174507.00,,Yaw,,Tilt,,,,0,,00*37
$GPGSA,A,3,05,16,18,23,25,26,27,28,29,31,,,0.7,0.4,0.6*38
$GPGSA,A,3,65,66,73,79,80,81,82,83,,,,,0.7,0.4,0.6*3E
$GPGSA,A,3,13,15,21,26,27,30,34,,,,,,0.7,0.4,0.6*37
$GPGSA,A,3,05,08,11,12,13,22,23,25,28,34,37,38,0.7,0.4,0.6*3F
$GPGSA,A,3,43,60,,,,,,,,,,,0.7,0.4,0.6*36
$GPGST,174507.00,1.179,0.454,0.331,1.214,0.454,0.331,0.715*5C
$GPGBS,174507.00,2.592,2.028,4.763,27,0.0001,-0.998,1.236*7A
$GPGRS,174507.00,1,0.5,-0.1,-0.3,0.6,-0.9,-0.1,-1.0,0.1,0.4,0.4,,*6A
$GPGRS,174507.00,1,0.2,-3.8,2.7,0.5,-0.3,1.0,-0.2,-0.8,,,,*4F
$GPGRS,174507.00,1,0.4,0.5,-0.0,1.0,0.3,-1.6,-1.6,,,,,*4E
$GPGRS,174507.00,1,1.9,0.7,-0.3,0.5,-0.5,-1.7,-0.2,-0.0,-0.6,0.1,-0.3,-0.2*40
$GPGRS,174507.00,1,0.5,-1.6,,,,,,,,,,*61
$GPGSV,5,1,20,18,81,132,50,28,13,210,40,27,15,277,40,05,24,048,41*78
$GPGSV,5,2,20,23,22,152,41,31,28,233,44,16,42,304,46,29,40,079,46*73
$GPGSV,5,3,20,26,68,265,50,20,01,026,28,25,10,143,37,36,35,170,45*7E
$GPGSV,5,4,20,58,13,245,37,40,23,133,36,34,31,208,43,49,34,195,44*7C
$GPGSV,5,5,20,57,08,111,38,41,07,108,34,61,03,257,38*48
$GLGSV,3,1,09,82,72,283,52,65,15,038,40,73,25,325,46,83,31,243,39*64
$GLGSV,3,2,09,79,34,174,49,81,47,040,50,80,70,262,52,66,09,086,41*6C
$GLGSV,3,3,09,72,01,348,36*52
$GAGSV,3,1,09,15,62,061,47,23,10,312,,34,12,045,37,27,59,151,48*66
$GAGSV,3,2,09,13,58,205,48,21,60,297,48,26,07,219,38,30,10,137,38*6F
$GAGSV,3,3,09,09,01,000,35*5F
$GBGSV,6,1,22,43,85,330,52,12,12,065,38,60,10,109,39,25,20,178,43*60
$GBGSV,6,2,22,50,14,098,,38,29,042,44,05,22,129,38,27,27,241,*6B
$GBGSV,6,3,22,07,11,101,,28,24,251,44,37,34,304,46,31,40,055,*63
$GBGSV,6,4,22,08,40,053,42,34,40,065,47,13,44,064,45,23,53,231,50*65
$GBGSV,6,5,22,11,65,053,48,42,07,121,,02,07,106,34,21,06,028,*68
$GBGSV,6,6,22,56,02,086,,22,07,026,39*6D
$GPGGA,174507.00,,,,,0,00,,,M,,M,,*48
$PTNL,GGK,174507.00,010125,4742.1600990,N,01618.1004135,E,1,39,0.7,EHT751.2975,M*43
$GPGGQ,174507.00,010125,4742.1600990,N,01618.1004135,E,1,39,0.909,708.0910,M*37
$GPGFA,174507.00,4.313,5.867,0.454,0.331,1.214,0.715,,VVV*0B
$GPLLK,174507.00,010125,,M,,M,1,39,0.8,,M*09
$GNGMP,174507.00,,,,,DAAA,39,0.4,,,,*58
$GPGMP,174507.00,,,,,,10,,,,1.9,136*70
$GLGMP,174507.00,,,,,,08,,,,,*77
$GAGMP,174507.00,,,,,,07,,,,,*75
$GBGMP,174507.00,,,,,,14,,,,,*74
$PSSN,SNC,[0,323125000,2347]*40
$GPZDA,174512.00,01,01,2025,,*67
$GPDTM,W84,,00.0000000,N,00.0000000,E,00.0000000,W84*5F
$PSSN,TFM,174512.00,,,,*6B
$GPRMC,174512.00,A,4742.1601011,N,01618.1004093,E,0.0,,010125,5.1,E,D*1B
$GPGLL,4742.1601011,N,01618.1004093,E,174512.00,A,D*6A
$GPGGA,174512.00,4742.1601011,N,01618.1004093,E,2,39,0.4,708.0920,M,43.2065,M,2.5,0136*48
$GNGNS,174512.00,4742.1601011,N,01618.1004093,E,DAAA,39,0.4,708.0920,43.2065,,*57
$GPGNS,174512.00,,,,,,10,,,,2.5,136*7B
$GLGNS,174512.00,,,,,,08,,,,,*73
$GAGNS,174512.00,,,,,,07,,,,,*71
$GBGNS,174512.00,,,,,,14,,,,,*70
$GPLLQ,174512.00,010125,,M,,M,1,39,0.894,,M*1A
$GPVTG,,T,,M,0.00,N,0.00,K,D*26
$GPHDT,,T*1B
$GPTHS,,V*0E
$GPROT,,V*08
$PSSN,HRP,174512.00,010125,,,,,,,00,0,,*65
$PTNL,AVR,174512.00,,Yaw,,Tilt,,,,0,,00*33
$GPGSA,A,3,05,16,18,23,25,26,27,28,29,31,,,0.7,0.4,0.6*38
$GPGSA,A,3,65,66,73,79,80,81,82,83,,,,,0.7,0.4,0.6*3E
$GPGSA,A,3,13,15,21,26,27,30,34,,,,,,0.7,0.4,0.6*37
$GPGSA,A,3,05,08,11,12,13,22,23,25,28,34,37,38,0.7,0.4,0.6*3F
$GPGSA,A,3,43,60,,,,,,,,,,,0.7,0.4,0.6*36
$GPGST,174512.00,1.214,0.448,0.329,3.087,0.448,0.330,0.700*56
$GPGBS,174512.00,2.648,2.013,4.811,27,0.0001,-1.157,1.244*77
$GPGRS,174512.00,1,0.4,-0.5,-0.0,0.8,-0.9,-0.2,-1.2,0.2,0.5,0.4,,*65
$GPGRS,174512.00,1,-0.3,-3.7,2.8,1.3,-0.1,0.9,0.0,-1.4,,,,*48
$GPGRS,174512.00,1,0.3,0.4,-0.0,0.9,0.4,-1.3,-1.1,,,,,*41
$GPGRS,174512.00,1,2.2,1.2,-0.7,0.0,-0.1,-1.6,-0.2,0.2,-0.5,0.3,-0.7,-0.1*65
$GPGRS,174512.00,1,0.6,-1.6,,,,,,,,,,*66
$GPGSV,5,1,20,18,81,132,50,28,13,210,39,27,15,277,40,05,24,048,41*76
$GPGSV,5,2,20,23,22,152,42,31,28,233,44,16,43,304,46,29,40,079,46*71
$GPGSV,5,3,20,26,68,265,50,20,01,026,28,25,10,143,37,36,35,170,45*7E
$GPGSV,5,4,20,58,13,245,37,40,23,133,36,34,31,208,43,49,34,195,44*7C
$GPGSV,5,5,20,57,08,111,38,41,07,108,35,61,03,257,38*49
$GLGSV,3,1,09,82,72,283,52,65,15,038,40,73,25,325,45,83,31,243,38*66
$GLGSV,3,2,09,79,34,174,50,81,47,040,50,80,70,262,52,66,09,086,42*67
$GLGSV,3,3,09,72,01,348,37*53
$GAGSV,3,1,09,15,62,061,47,23,10,312,,34,12,045,38,27,59,151,48*69
$GAGSV,3,2,09,13,58,205,47,21,60,297,47,26,07,219,38,30,10,137,38*6F
$GAGSV,3,3,09,09,01,000,35*5F
$GBGSV,6,1,22,43,85,330,52,12,12,065,38,60,10,109,39,25,20,178,43*60
$GBGSV,6,2,22,50,14,098,,38,29,042,43,05,22,129,38,27,27,241,*6C
$GBGSV,6,3,22,07,11,101,,28,24,251,44,37,34,304,46,31,40,055,*63
$GBGSV,6,4,22,08,40,053,42,34,40,065,47,13,44,064,45,23,53,231,50*65
$GBGSV,6,5,22,11,65,053,48,42,07,121,,02,07,106,34,21,06,028,*68
$GBGSV,6,6,22,56,02,086,,22,07,026,39*6D
$GPGGA,174512.00,,,,,0,00,,,M,,M,,*4C
$PTNL,GGK,174512.00,010125,4742.1601011,N,01618.1004093,E,1,39,0.7,EHT751.2986,M*47
$GPGGQ,174512.00,010125,4742.1601011,N,01618.1004093,E,1,39,0.894,708.0920,M*39
$GPGFA,174512.00,4.264,5.736,0.448,0.329,3.087,0.700,,VVV*0F
$GPLLK,174512.00,010125,,M,,M,1,39,0.8,,M*0D
$GNGMP,174512.00,,,,,DAAA,39,0.4,,,,*5C
$GPGMP,174512.00,,,,,,10,,,,2.5,136*7B
$GLGMP,174512.00,,,,,,08,,,,,*73
$GAGMP,174512.00,,,,,,07,,,,,*71
$GBGMP,174512.00,,,,,,14,,,,,*70
$PSSN,SNC,[0,323130000,2347]*44
$GPZDA,174517.00,01,01,2025,,*62
$GPDTM,W84,,00.0000000,N,00.0000000,E,00.0000000,W84*5F
$PSSN,TFM,174517.00,,,,*6E
$GPRMC,174517.00,A,4742.1601018,N,01618.1004013,E,0.0,,010125,5.1,E,D*1F
$GPGLL,4742.1601018,N,01618.1004013,E,174517.00,A,D*6E
$GPGGA,174517.00,4742.1601018,N,01618.1004013,E,2,39,0.4,708.0910,M,43.2066,M,2.3,0136*4A
$GNGNS,174517.00,4742.1601018,N,01618.1004013,E,DAAA,39,0.4,708.0910,43.2066,,*53
$GPGNS,174517.00,,,,,,10,,,,2.3,136*78
$GLGNS,174517.00,,,,,,08,,,,,*76
$GAGNS,174517.00,,,,,,07,,,,,*74
$GBGNS,174517.00,,,,,,14,,,,,*75
$GPLLQ,174517.00,010125,,M,,M,1,39,0.904,,M*17
$GPVTG,,T,,M,0.00,N,0.01,K,D*27
$GPHDT,,T*1B
$GPTHS,,V*0E
$GPROT,,V*08
$PSSN,HRP,174517.00,010125,,,,,,,00,0,,*60
$PTNL,AVR,174517.00,,Yaw,,Tilt,,,,0,,00*36
$GPGSA,A,3,05,16,18,23,25,26,27,28,29,31,,,0.7,0.4,0.6*38
$GPGSA,A,3,65,66,73,79,80,81,82,83,,,,,0.7,0.4,0.6*3E
$GPGSA,A,3,13,15,21,26,27,30,34,,,,,,0.7,0.4,0.6*37
$GPGSA,A,3,05,08,11,12,13,22,23,25,28,34,37,38,0.7,0.4,0.6*3F
$GPGSA,A,3,43,60,,,,,,,,,,,0.7,0.4,0.6*36
$GPGST,174517.00,1.295,0.451,0.331,1.150,0.451,0.331,0.711*5B
$GPGBS,174517.00,2.605,2.042,4.896,05,0.0001,1.171,1.204*5D
$GPGRS,174517.00,1,1.2,-0.4,-0.2,0.9,-0.4,-0.1,-0.9,-0.6,0.4,0.4,,*49
$GPGRS,174517.00,1,0.6,-3.7,2.4,1.9,0.1,0.7,-0.5,-1.6,,,,*6A
$GPGRS,174517.00,1,0.2,0.5,-0.1,0.7,0.3,-1.4,-1.4,,,,,*4E
$GPGRS,174517.00,1,2.6,1.1,-0.2,0.5,-0.4,-2.7,-0.3,0.1,-0.4,0.3,-0.7,-0.3*61
$GPGRS,174517.00,1,0.5,-1.2,,,,,,,,,,*64
$GPGSV,5,1,20,18,81,132,50,28,13,210,39,27,15,277,39,05,24,048,41*78
$GPGSV,5,2,20,23,22,151,43,31,28,233,44,16,43,304,46,29,40,079,46*73
$GPGSV,5,3,20,26,68,265,50,20,01,026,28,25,10,143,37,36,35,170,45*7E
$GPGSV,5,4,20,58,13,245,37,40,23,133,36,34,31,208,42,49,34,195,44*7D
$GPGSV,5,5,20,57,08,111,38,41,07,108,35,61,03,257,38*49
$GLGSV,3,1,09,82,72,283,51,65,15,038,39,73,25,325,45,83,31,244,38*6C
$GLGSV,3,2,09,79,34,174,51,81,47,040,50,80,70,262,52,66,09,086,42*66
$GLGSV,3,3,09,72,01,348,36*52
$GAGSV,3,1,09,15,62,061,47,23,11,312,,34,12,045,38,27,59,151,48*68
$GAGSV,3,2,09,13,58,205,48,21,60,297,48,26,07,219,38,30,09,137,38*67
$GAGSV,3,3,09,09,01,000,35*5F
$GBGSV,6,1,22,43,85,330,52,12,12,065,38,60,10,109,39,25,20,178,43*60
$GBGSV,6,2,22,50,14,098,,38,29,042,43,05,22,129,38,27,28,241,*63
$GBGSV,6,3,22,07,11,101,,28,24,251,44,37,34,304,46,31,40,055,*63
$GBGSV,6,4,22,08,40,053,42,34,40,065,47,13,44,064,45,23,53,231,50*65
$GBGSV,6,5,22,11,65,053,49,42,07,121,,02,07,106,34,21,06,027,*66
$GBGSV,6,6,22,56,02,086,,22,07,026,39*6D
$GPGGA,174517.00,,,,,0,00,,,M,,M,,*49
$PTNL,GGK,174517.00,010125,4742.1601018,N,01618.1004013,E,1,39,0.7,EHT751.2975,M*4F
$GPGGQ,174517.00,010125,4742.1601018,N,01618.1004013,E,1,39,0.904,708.0910,M*36
$GPGFA,174517.00,4.288,5.827,0.451,0.331,1.150,0.711,,VVV*0F
$GPLLK,174517.00,010125,,M,,M,1,39,0.8,,M*08
$GNGMP,174517.00,,,,,DAAA,39,0.4,,,,*59
$GPGMP,174517.00,,,,,,10,,,,2.3,136*78
$GLGMP,174517.00,,,,,,08,,,,,*76
$GAGMP,174517.00,,,,,,07,,,,,*74
$GBGMP,174517.00,,,,,,14,,,,,*75
$PSSN,SNC,[0,323135000,2347]*41
$GPZDA,174522.00,01,01,2025,,*64
$GPDTM,W84,,00.0000000,N,00.0000000,E,00.0000000,W84*5F
$PSSN,TFM,174522.00,,,,*68
$GPRMC,174522.00,A,4742.1601035,N,01618.1003949,E,0.0,,010125,5.1,E,D*17
$GPGLL,4742.1601035,N,01618.1003949,E,174522.00,A,D*66
$GPGGA,174522.00,4742.1601035,N,01618.1003949,E,2,39,0.4,708.0941,M,43.2066,M,3.3,0136*47
$GNGNS,174522.00,4742.1601035,N,01618.1003949,E,DAAA,39,0.4,708.0941,43.2066,,*5F
$GPGNS,174522.00,,,,,,10,,,,3.3,136*7F
$GLGNS,174522.00,,,,,,08,,,,,*70
$GAGNS,174522.00,,,,,,07,,,,,*72
$GBGNS,174522.00,,,,,,14,,,,,*73
$GPLLQ,174522.00,010125,,M,,M,1,39,0.915,,M*11
$GPVTG,,T,,M,0.01,N,0.01,K,D*26
$GPHDT,,T*1B
$GPTHS,,V*0E
$GPROT,,V*08
$PSSN,HRP,174522.00,010125,,,,,,,00,0,,*66
$PTNL,AVR,174522.00,,Yaw,,Tilt,,,,0,,00*30
$GPGSA,A,3,05,16,18,23,25,26,27,28,29,31,,,0.7,0.4,0.6*38
$GPGSA,A,3,65,66,73,79,80,81,82,83,,,,,0.7,0.4,0.6*3E
$GPGSA,A,3,13,15,21,26,27,30,34,,,,,,0.7,0.4,0.6*37
$GPGSA,A,3,05,08,11,12,13,22,23,25,28,34,37,38,0.7,0.4,0.6*3F
$GPGSA,A,3,43,60,,,,,,,,,,,0.7,0.4,0.6*36
$GPGST,174522.00,1.251,0.455,0.330,359.289,0.454,0.330,0.722*5D
$GPGBS,174522.00,2.646,2.063,4.978,27,0.0001,-1.305,1.265*75
$GPGRS,174522.00,1,0.3,-0.0,-0.3,0.5,-0.3,-0.2,-1.3,-0.4,0.5,0.6,,*48
$GPGRS,174522.00,1,-0.7,-3.8,2.6,1.1,-0.1,0.2,-0.5,-1.7,,,,*6C
$GPGRS,174522.00,1,0.3,0.2,-0.1,0.7,0.2,-1.3,-1.5,,,,,*49
$GPGRS,174522.00,1,2.1,0.8,-0.0,0.6,-0.4,-2.5,-0.2,-0.2,-0.4,0.4,-0.8,-0.4*4B
$GPGRS,174522.00,1,0.5,-1.7,,,,,,,,,,*67
$GPGSV,5,1,20,18,81,131,50,28,13,210,39,27,15,277,41,05,24,048,42*77
$GPGSV,5,2,20,23,22,151,43,31,28,233,45,16,43,304,46,29,40,079,46*72
$GPGSV,5,3,20,26,68,265,50,20,01,026,29,25,10,143,37,36,35,170,45*7F
$GPGSV,5,4,20,58,13,245,37,40,23,133,36,34,31,208,43,49,34,195,44*7C
$GPGSV,5,5,20,57,08,111,38,41,07,108,34,61,03,257,38*48
$GLGSV,3,1,09,82,72,283,52,65,15,038,39,73,25,325,46,83,31,244,38*6C
$GLGSV,3,2,09,79,34,174,50,81,47,040,50,80,70,262,52,66,09,086,42*67
$GLGSV,3,3,09,72,01,348,36*52
$GAGSV,3,1,09,15,62,060,47,23,11,312,,34,12,045,38,27,59,151,48*69
$GAGSV,3,2,09,13,58,205,48,21,60,297,48,26,07,219,37,30,09,138,39*66
$GAGSV,3,3,09,09,01,000,35*5F
$GBGSV,6,1,22,43,85,331,52,12,12,065,39,60,10,109,40,25,20,178,43*6E
$GBGSV,6,2,22,50,14,098,,38,29,042,43,05,22,129,38,27,28,241,*63
$GBGSV,6,3,22,07,11,101,,28,24,251,45,37,34,304,46,31,39,055,*6C
$GBGSV,6,4,22,08,40,053,42,34,40,066,48,13,44,064,45,23,53,231,50*69
$GBGSV,6,5,22,11,65,053,49,42,07,121,,02,07,106,34,21,06,027,*66
$GBGSV,6,6,22,56,02,086,,22,07,026,39*6D
$GPGGA,174522.00,,,,,0,00,,,M,,M,,*4F
$PTNL,GGK,174522.00,010125,4742.1601035,N,01618.1003949,E,1,39,0.7,EHT751.3007,M*4A
$GPGGQ,174522.00,010125,4742.1601035,N,01618.1003949,E,1,39,0.915,708.0941,M*3A
$GPGFA,174522.00,4.321,5.924,0.455,0.330,359.289,0.722,,VVV*05
$GPLLK,174522.00,010125,,M,,M,1,39,0.8,,M*0E
$GNGMP,174522.00,,,,,DAAA,39,0.4,,,,*5F
$GPGMP,174522.00,,,,,,10,,,,3.3,136*7F
$GLGMP,174522.00,,,,,,08,,,,,*70
$GAGMP,174522.00,,,,,,07,,,,,*72
$GBGMP,174522.00,,,,,,14,,,,,*73
$PSSN,SNC,[0,323140000,2347]*43
$GPZDA,174527.00,01,01,2025,,*61
$GPDTM,W84,,00.0000000,N,00.0000000,E,00.0000000,W84*5F
$PSSN,TFM,174527.00,,,,*6D
$GPRMC,174527.00,A,4742.1601039,N,01618.1003914,E,0.0,,010125,5.1,E,D*16
$GPGLL,4742.1601039,N,01618.1003914,E,174527.00,A,D*67
$GPGGA,174527.00,4742.1601039,N,01618.1003914,E,2,39,0.4,708.0900,M,43.2066,M,1.9,0136*4B
$GNGNS,174527.00,4742.1601039,N,01618.1003914,E,DAAA,39,0.4,708.0900,43.2066,,*5B
$GPGNS,174527.00,,,,,,10,,,,1.9,136*72
$GLGNS,174527.00,,,,,,08,,,,,*75
$GAGNS,174527.00,,,,,,07,,,,,*77
$GBGNS,174527.00,,,,,,14,,,,,*76
$GPLLQ,174527.00,010125,,M,,M,1,39,0.911,,M*10
$GPVTG,,T,,M,0.01,N,0.01,K,D*26
$GPHDT,,T*1B
$GPTHS,,V*0E
$GPROT,,V*08
$PSSN,HRP,174527.00,010125,,,,,,,00,0,,*63
$PTNL,AVR,174527.00,,Yaw,,Tilt,,,,0,,00*35
$GPGSA,A,3,05,16,18,23,25,26,27,28,29,31,,,0.7,0.4,0.6*38
$GPGSA,A,3,65,66,73,79,80,81,82,83,,,,,0.7,0.4,0.6*3E
$GPGSA,A,3,13,15,21,26,27,30,34,,,,,,0.7,0.4,0.6*37
$GPGSA,A,3,05,08,11,12,13,22,23,25,28,34,37,38,0.7,0.4,0.6*3F
$GPGSA,A,3,43,60,,,,,,,,,,,0.7,0.4,0.6*36
$GPGST,174527.00,1.332,0.454,0.332,0.913,0.454,0.332,0.717*5C
$GPGBS,174527.00,2.592,2.039,4.754,66,0.0001,-4.131,6.945*7E
$GPGRS,174527.00,1,0.6,-0.3,-0.1,0.5,-0.7,-0.2,-0.5,-0.0,0.4,0.1,,*48
$GPGRS,174527.00,1,0.1,-4.1,3.7,-0.0,-0.3,0.5,-0.5,-1.8,,,,*6B
$GPGRS,174527.00,1,0.5,0.3,-0.1,0.8,0.4,-1.5,-1.6,,,,,*47
$GPGRS,174527.00,1,1.9,1.1,-0.3,1.3,0.1,-2.2,-0.4,0.2,-0.3,0.2,-0.2,-0.5*44
$GPGRS,174527.00,1,0.6,-1.5,,,,,,,,,,*63
$GPGSV,5,1,20,18,81,131,50,28,13,210,40,27,15,277,41,05,24,048,43*78
$GPGSV,5,2,20,23,22,151,43,31,28,233,45,16,43,304,46,29,40,079,47*73
$GPGSV,5,3,20,26,68,265,50,20,01,026,30,25,10,143,38,36,35,170,45*78
$GPGSV,5,4,20,58,13,245,37,40,23,133,36,34,31,208,42,49,34,195,44*7D
$GPGSV,5,5,20,57,08,111,38,41,07,108,34,61,03,257,38*48
$GLGSV,3,1,09,82,72,284,52,65,15,038,40,73,25,325,46,83,32,244,39*67
$GLGSV,3,2,09,79,34,174,49,81,47,040,50,80,70,262,52,66,09,086,42*6F
$GLGSV,3,3,09,72,01,348,37*53
$GAGSV,3,1,09,15,62,060,47,23,11,312,,34,12,045,38,27,59,151,48*69
$GAGSV,3,2,09,13,58,206,48,21,60,297,48,26,07,219,37,30,09,138,39*65
$GAGSV,3,3,09,09,01,000,34*5E
$GBGSV,6,1,22,43,85,331,52,12,12,065,39,60,10,109,39,25,20,178,42*61
$GBGSV,6,2,22,50,14,098,,38,29,042,43,05,22,129,38,27,28,241,*63
$GBGSV,6,3,22,07,11,101,,28,24,251,45,37,34,304,46,31,39,055,*6C
$GBGSV,6,4,22,08,40,053,42,34,40,066,47,13,44,064,45,23,53,231,50*66
$GBGSV,6,5,22,11,65,053,48,42,07,121,,02,07,106,34,21,06,027,*67
$GBGSV,6,6,22,56,02,086,,22,07,026,39*6D
$GPGGA,174527.00,,,,,0,00,,,M,,M,,*4A
$PTNL,GGK,174527.00,010125,4742.1601039,N,01618.1003914,E,1,39,0.7,EHT751.2966,M*44
$GPGGQ,174527.00,010125,4742.1601039,N,01618.1003914,E,1,39,0.911,708.0900,M*3A
$GPGFA,174527.00,4.321,5.878,0.454,0.332,0.913,0.717,,VVV*0A
$GPLLK,174527.00,010125,,M,,M,1,39,0.8,,M*0B
$GNGMP,174527.00,,,,,DAAA,39,0.4,,,,*5A
$GPGMP,174527.00,,,,,,10,,,,1.9,136*72
$GLGMP,174527.00,,,,,,08,,,,,*75
$GAGMP,174527.00,,,,,,07,,,,,*77
$GBGMP,174527.00,,,,,,14,,,,,*76
$PSSN,SNC,[0,323145000,2347]*46
$GPZDA,174532.00,01,01,2025,,*65
$GPDTM,W84,,00.0000000,N,00.0000000,E,00.0000000,W84*5F
$PSSN,TFM,174532.00,,,,*69
$GPRMC,174532.00,A,4742.1601042,N,01618.1003867,E,0.0,,010125,5.1,E,D*1B
$GPGLL,4742.1601042,N,01618.1003867,E,174532.00,A,D*6A
$GPGGA,174532.00,4742.1601042,N,01618.1003867,E,2,39,0.4,708.0941,M,43.2066,M,2.5,0136*4C
$GNGNS,174532.00,4742.1601042,N,01618.1003867,E,DAAA,39,0.4,708.0941,43.2066,,*53
$GPGNS,174532.00,,,,,,10,,,,2.5,136*79
$GLGNS,174532.00,,,,,,08,,,,,*71
$GAGNS,174532.00,,,,,,07,,,,,*73
$GBGNS,174532.00,,,,,,14,,,,,*72
$GPLLQ,174532.00,010125,,M,,M,1,39,0.896,,M*1A
$GPVTG,,T,,M,0.00,N,0.00,K,D*26
$GPHDT,,T*1B
$GPTHS,,V*0E
$GPROT,,V*08
$PSSN,HRP,174532.00,010125,,,,,,,00,0,,*67
$PTNL,AVR,174532.00,,Yaw,,Tilt,,,,0,,00*31
$GPGSA,A,3,05,16,18,23,25,26,27,28,29,31,,,0.7,0.4,0.6*38
$GPGSA,A,3,65,66,73,79,80,81,82,83,,,,,0.7,0.4,0.6*3E
$GPGSA,A,3,13,15,21,26,27,30,34,,,,,,0.7,0.4,0.6*37
$GPGSA,A,3,05,08,11,12,13,22,23,25,28,34,37,38,0.7,0.4,0.6*3F
$GPGSA,A,3,43,60,,,,,,,,,,,0.7,0.4,0.6*36
$GPGST,174532.00,1.297,0.449,0.330,2.776,0.449,0.330,0.701*5E
$GPGBS,174532.00,2.647,2.024,4.803,23,0.0001,1.000,0.918*54
$GPGRS,174532.00,1,0.5,-0.3,-0.2,1.0,-1.1,-0.3,-0.3,-0.3,0.2,0.5,,*49
$GPGRS,174532.00,1,0.2,-4.1,3.7,0.6,-0.3,1.1,-0.3,-0.0,,,,*4D
$GPGRS,174532.00,1,0.4,0.4,-0.2,1.0,0.4,-1.2,-1.7,,,,,*49
$GPGRS,174532.00,1,1.8,1.5,-0.4,1.6,-0.1,-1.4,-0.2,-0.1,-0.3,0.2,-0.2,-0.1*43
$GPGRS,174532.00,1,0.7,-1.3,,,,,,,,,,*60
$GPGSV,5,1,20,18,81,131,50,28,13,210,41,27,15,277,40,05,24,048,43*78
$GPGSV,5,2,20,23,22,151,42,31,28,233,46,16,43,304,46,29,40,079,47*71
$GPGSV,5,3,20,26,68,265,50,20,01,026,31,25,10,143,37,36,35,170,45*76
$GPGSV,5,4,20,58,13,245,37,40,23,133,36,34,31,208,42,49,34,195,44*7D
$GPGSV,5,5,20,57,08,111,38,41,07,108,35,61,03,257,38*49
$GLGSV,3,1,09,82,72,284,51,65,15,038,40,73,25,325,46,83,32,244,38*65
$GLGSV,3,2,09,79,34,174,50,81,47,040,50,80,70,262,52,66,09,086,42*67
$GLGSV,3,3,09,72,01,347,37*5C
$GAGSV,3,1,09,15,62,060,47,23,11,312,,34,12,045,38,27,59,151,48*69
$GAGSV,3,2,09,13,58,206,48,21,61,297,48,26,07,219,38,30,09,138,38*6A
$GAGSV,3,3,09,09,01,359,35*50
$GBGSV,6,1,22,43,85,332,52,12,12,065,39,60,10,109,40,25,20,178,42*6C
$GBGSV,6,2,22,50,14,098,,38,29,042,43,05,22,129,38,07,11,101,*6C
$GBGSV,6,3,22,27,28,241,,28,24,251,45,37,34,304,46,31,39,055,*63
$GBGSV,6,4,22,08,40,053,42,34,40,066,47,13,44,064,45,23,53,231,50*66
$GBGSV,6,5,22,11,65,053,49,42,07,121,,02,07,106,34,22,07,026,40*61
$GBGSV,6,6,22,56,02,086,,21,06,027,*64
$GPGGA,174532.00,,,,,0,00,,,M,,M,,*4E
$PTNL,GGK,174532.00,010125,4742.1601042,N,01618.1003867,E,1,39,0.7,EHT751.3006,M*47
$GPGGQ,174532.00,010125,4742.1601042,N,01618.1003867,E,1,39,0.896,708.0941,M*3C
$GPGFA,174532.00,4.271,5.748,0.449,0.330,2.776,0.701,,VVV*00
$GPLLK,174532.00,010125,,M,,M,1,39,0.8,,M*0F
$GNGMP,174532.00,,,,,DAAA,39,0.4,,,,*5E
$GPGMP,174532.00,,,,,,10,,,,2.5,136*79
$GLGMP,174532.00,,,,,,08,,,,,*71
$GAGMP,174532.00,,,,,,07,,,,,*73
$GBGMP,174532.00,,,,,,14,,,,,*72
$PSSN,SNC,[0,323150000,2347]*42
$GPZDA,174537.00,01,01,2025,,*60
$GPDTM,W84,,00.0000000,N,00.0000000,E,00.0000000,W84*5F
$PSSN,TFM,174537.00,,,,*6C
$GPRMC,174537.00,A,4742.1601071,N,01618.1003810,E,0.0,,010125,5.1,E,D*1E
$GPGLL,4742.1601071,N,01618.1003810,E,174537.00,A,D*6F
$GPGGA,174537.00,4742.1601071,N,01618.1003810,E,2,39,0.4,708.0957,M,43.2066,M,2.3,0136*48
$GNGNS,174537.00,4742.1601071,N,01618.1003810,E,DAAA,39,0.4,708.0957,43.2066,,*51
$GPGNS,174537.00,,,,,,10,,,,2.3,136*7A
$GLGNS,174537.00,,,,,,08,,,,,*74
$GAGNS,174537.00,,,,,,07,,,,,*76
$GBGNS,174537.00,,,,,,14,,,,,*77
$GPLLQ,174537.00,010125,,M,,M,1,39,0.904,,M*15
$GPVTG,,T,,M,0.00,N,0.00,K,D*26
$GPHDT,,T*1B
$GPTHS,,V*0E
$GPROT,,V*08
$PSSN,HRP,174537.00,010125,,,,,,,00,0,,*62
$PTNL,AVR,174537.00,,Yaw,,Tilt,,,,0,,00*34
$GPGSA,A,3,05,16,18,23,25,26,27,28,29,31,,,0.7,0.4,0.6*38
$GPGSA,A,3,65,66,73,79,80,81,82,83,,,,,0.7,0.4,0.6*3E
$GPGSA,A,3,13,15,21,26,27,30,34,,,,,,0.7,0.4,0.6*37
$GPGSA,A,3,05,08,11,12,13,22,23,25,28,34,37,38,0.7,0.4,0.6*3F
$GPGSA,A,3,43,60,,,,,,,,,,,0.7,0.4,0.6*36
$GPGST,174537.00,1.255,0.451,0.331,1.170,0.451,0.331,0.710*56
$GPGBS,174537.00,2.611,2.043,4.883,23,0.0001,0.759,0.929*53
$GPGRS,174537.00,1,0.0,-0.2,-0.0,0.8,-0.3,-0.3,-0.9,-0.1,0.3,0.5,,*49
$GPGRS,174537.00,1,0.2,-3.4,3.4,1.2,-0.0,0.7,-0.2,-0.6,,,,*4F
$GPGRS,174537.00,1,0.3,0.3,-0.2,1.5,0.5,-1.4,-1.8,,,,,*41
$GPGRS,174537.00,1,2.0,1.6,-0.4,0.9,0.0,-2.0,0.1,0.0,-0.4,0.2,-0.2,-0.1*6E
$GPGRS,174537.00,1,0.7,-1.6,,,,,,,,,,*60
$GPGSV,5,1,20,18,81,130,50,28,13,210,41,27,15,277,41,05,24,048,42*79
$GPGSV,5,2,20,23,22,151,42,31,28,233,45,16,43,304,46,29,40,080,46*75
$GPGSV,5,3,20,26,68,265,50,20,01,026,30,25,10,143,37,36,35,170,45*77
$GPGSV,5,4,20,58,13,245,37,40,23,133,35,34,31,208,42,49,34,195,44*7E
$GPGSV,5,5,20,57,08,111,38,41,07,108,35,61,03,257,38*49
$GLGSV,3,1,09,82,72,284,52,65,15,038,39,73,25,325,47,83,32,244,38*69
$GLGSV,3,2,09,79,34,174,50,81,47,040,51,80,70,261,52,66,09,086,42*65
$GLGSV,3,3,09,72,01,347,36*5D
$GAGSV,3,1,09,15,62,060,47,23,11,312,,34,12,045,38,27,59,151,48*69
$GAGSV,3,2,09,13,58,206,48,21,61,297,48,26,07,219,38,30,09,138,39*6B
$GAGSV,3,3,09,09,01,359,35*50
$GBGSV,6,1,22,43,85,332,52,12,12,065,38,60,10,109,39,25,20,178,43*62
$GBGSV,6,2,22,50,14,097,,38,29,042,43,05,22,129,38,07,11,101,*63
$GBGSV,6,3,22,27,28,241,,28,24,251,45,37,34,304,46,31,39,055,*63
$GBGSV,6,4,22,08,40,053,42,34,39,066,47,13,44,064,45,23,53,231,50*68
$GBGSV,6,5,22,11,65,053,48,42,07,121,,02,07,106,34,22,07,026,39*6E
$GBGSV,6,6,22,56,02,086,,21,06,027,*64
$GPGGA,174537.00,,,,,0,00,,,M,,M,,*4B
$PTNL,GGK,174537.00,010125,4742.1601071,N,01618.1003810,E,1,39,0.7,EHT751.3023,M*45
$GPGGQ,174537.00,010125,4742.1601071,N,01618.1003810,E,1,39,0.904,708.0957,M*34
$GPGFA,174537.00,4.290,5.823,0.451,0.331,1.170,0.710,,VVV*03
$GPLLK,174537.00,010125,,M,,M,1,39,0.8,,M*0A
$GNGMP,174537.00,,,,,DAAA,39,0.4,,,,*5B
$GPGMP,174537.00,,,,,,10,,,,2.3,136*7A
$GLGMP,174537.00,,,,,,08,,,,,*74
$GAGMP,174537.00,,,,,,07,,,,,*76
$GBGMP,174537.00,,,,,,14,,,,,*77
$PSSN,SNC,[0,323155000,2347]*47
$GPZDA,174542.00,01,01,2025,,*62
$GPDTM,W84,,00.0000000,N,00.0000000,E,00.0000000,W84*5F
$PSSN,TFM,174542.00,,,,*6E
$GPRMC,174542.00,A,4742.1601088,N,01618.1003791,E,0.0,,010125,5.1,E,D*1C
$GPGLL,4742.1601088,N,01618.1003791,E,174542.00,A,D*6D
$GPGGA,174542.00,4742.1601088,N,01618.1003791,E,2,39,0.4,708.0968,M,43.2066,M,3.3,0136*47
$GNGNS,174542.00,4742.1601088,N,01618.1003791,E,DAAA,39,0.4,708.0968,43.2066,,*5F
$GPGNS,174542.00,,,,,,10,,,,3.3,136*79
$GLGNS,174542.00,,,,,,08,,,,,*76
$GAGNS,174542.00,,,,,,07,,,,,*74
$GBGNS,174542.00,,,,,,14,,,,,*75
$GPLLQ,174542.00,010125,,M,,M,1,39,0.913,,M*11
$GPVTG,,T,,M,0.00,N,0.01,K,D*27
$GPHDT,,T*1B
$GPTHS,,V*0E
$GPROT,,V*08
$PSSN,HRP,174542.00,010125,,,,,,,00,0,,*60
$PTNL,AVR,174542.00,,Yaw,,Tilt,,,,0,,00*36
$GPGSA,A,3,05,16,18,23,25,26,27,28,29,31,,,0.7,0.4,0.6*38
$GPGSA,A,3,65,66,73,79,80,81,82,83,,,,,0.7,0.4,0.6*3E
$GPGSA,A,3,13,15,21,26,27,30,34,,,,,,0.7,0.4,0.6*37
$GPGSA,A,3,05,08,11,12,13,22,23,25,28,34,37,38,0.7,0.4,0.6*3F
$GPGSA,A,3,43,60,,,,,,,,,,,0.7,0.4,0.6*36
$GPGST,174542.00,1.376,0.454,0.330,359.613,0.454,0.330,0.720*5B
$GPGBS,174542.00,2.660,2.054,4.963,23,0.0001,1.094,0.943*55
$GPGRS,174542.00,1,0.1,0.1,-0.3,1.1,-0.7,-0.2,-0.7,-0.1,0.1,0.2,,*61
$GPGRS,174542.00,1,-0.5,-3.7,4.0,0.8,-0.0,1.2,-0.3,-1.0,,,,*6E
$GPGRS,174542.00,1,0.0,0.4,-0.0,1.3,0.6,-1.3,-1.7,,,,,*48
$GPGRS,174542.00,1,2.1,1.5,-0.2,0.1,-0.3,-2.9,-0.1,-0.3,-0.6,0.2,-0.0,0.1*69
$GPGRS,174542.00,1,0.6,-1.4,,,,,,,,,,*61
$GPGSV,5,1,20,18,81,130,50,28,13,210,41,27,15,277,40,05,24,048,42*78
$GPGSV,5,2,20,23,22,151,42,31,28,233,44,16,43,304,46,29,40,080,46*74
$GPGSV,5,3,20,26,68,265,50,20,01,026,28,25,10,143,37,36,35,170,45*7E
$GPGSV,5,4,20,58,13,245,37,40,23,133,36,34,31,208,42,49,34,195,44*7D
$GPGSV,5,5,20,57,08,111,38,41,07,108,35,61,03,257,38*49
$GLGSV,3,1,09,82,72,284,52,65,15,038,40,73,25,325,47,83,32,244,38*67
$GLGSV,3,2,09,79,34,174,50,81,47,040,51,80,70,261,52,66,09,086,42*65
$GLGSV,3,3,09,72,01,347,37*5C
$GAGSV,3,1,09,15,62,060,47,23,11,312,,34,12,045,37,27,59,151,48*66
$GAGSV,3,2,09,13,58,206,48,21,61,297,47,26,07,219,37,30,09,138,39*6B
$GAGSV,3,3,09,09,01,359,35*50
$GBGSV,6,1,22,43,85,332,51,12,12,065,37,60,10,109,39,25,20,178,43*6E
$GBGSV,6,2,22,50,14,097,,38,29,042,43,05,22,129,38,07,11,101,*63
$GBGSV,6,3,22,27,28,241,,28,24,251,45,37,34,304,46,31,39,055,*63
$GBGSV,6,4,22,08,40,053,42,34,39,066,47,13,44,064,45,23,53,231,50*68
$GBGSV,6,5,22,11,65,053,48,42,07,121,,02,07,106,34,22,07,026,39*6E
$GBGSV,6,6,22,56,02,086,,21,06,027,*64
$GPGGA,174542.00,,,,,0,00,,,M,,M,,*49
$PTNL,GGK,174542.00,010125,4742.1601088,N,01618.1003791,E,1,39,0.7,EHT751.3034,M*41
$GPGGQ,174542.00,010125,4742.1601088,N,01618.1003791,E,1,39,0.913,708.0968,M*3C
$GPGFA,174542.00,4.317,5.907,0.454,0.330,359.613,0.720,,VVV*03
$GPLLK,174542.00,010125,,M,,M,1,39,0.8,,M*08
$GNGMP,174542.00,,,,,DAAA,39,0.4,,,,*59
$GPGMP,174542.00,,,,,,10,,,,3.3,136*79
$GLGMP,174542.00,,,,,,08,,,,,*76
$GAGMP,174542.00,,,,,,07,,,,,*74
$GBGMP,174542.00,,,,,,14,,,,,*75
$PSSN,SNC,[0,323160000,2347]*41
$GPZDA,174547.00,01,01,2025,,*67
$GPDTM,W84,,00.0000000,N,00.0000000,E,00.0000000,W84*5F
$PSSN,TFM,174547.00,,,,*6B
$GPRMC,174547.00,A,4742.1601096,N,01618.1003774,E,0.0,,010125,5.1,E,D*1D
$GPGLL,4742.1601096,N,01618.1003774,E,174547.00,A,D*6C
$GPGGA,174547.00,4742.1601096,N,01618.1003774,E,2,39,0.4,708.1011,M,43.2066,M,1.9,0136*48
$GNGNS,174547.00,4742.1601096,N,01618.1003774,E,DAAA,39,0.4,708.1011,43.2066,,*58
$GPGNS,174547.00,,,,,,10,,,,1.9,136*74
$GLGNS,174547.00,,,,,,08,,,,,*73
$GAGNS,174547.00,,,,,,07,,,,,*71
$GBGNS,174547.00,,,,,,14,,,,,*70
$GPLLQ,174547.00,010125,,M,,M,1,39,0.909,,M*1F
$GPVTG,,T,,M,0.00,N,0.01,K,D*27
$GPHDT,,T*1B
$GPTHS,,V*0E
$GPROT,,V*08
$PSSN,HRP,174547.00,010125,,,,,,,00,0,,*65
$PTNL,AVR,174547.00,,Yaw,,Tilt,,,,0,,00*33
$GPGSA,A,3,05,16,18,23,25,26,27,28,29,31,,,0.7,0.4,0.6*38
$GPGSA,A,3,65,66,73,79,80,81,82,83,,,,,0.7,0.4,0.6*3E
$GPGSA,A,3,13,15,21,26,27,30,34,,,,,,0.7,0.4,0.6*37
$GPGSA,A,3,05,08,11,12,13,22,23,25,28,34,37,38,0.7,0.4,0.6*3F
$GPGSA,A,3,43,60,,,,,,,,,,,0.7,0.4,0.6*36
$GPGST,174547.00,1.347,0.454,0.331,1.263,0.454,0.331,0.715*57
$GPGBS,174547.00,2.605,2.031,4.739,23,0.0001,1.208,0.907*56
$GPGRS,174547.00,1,0.3,0.3,-0.4,1.2,-1.2,-0.2,-0.6,-0.2,0.4,0.3,,*62
$GPGRS,174547.00,1,-0.4,-4.1,3.6,1.0,-0.3,0.8,-0.3,-1.9,,,,*62
$GPGRS,174547.00,1,0.2,0.3,-0.2,1.1,0.3,-1.3,-1.9,,,,,*43
$GPGRS,174547.00,1,1.5,0.9,0.1,-0.0,-0.6,-2.4,-0.1,-0.3,-0.5,0.1,-0.1,0.2*6E
$GPGRS,174547.00,1,0.4,-1.5,,,,,,,,,,*67
$GPGSV,5,1,20,18,81,130,50,28,13,210,40,27,15,277,41,05,24,048,42*78
$GPGSV,5,2,20,23,22,151,42,31,27,233,45,16,43,304,46,29,40,080,46*7A
$GPGSV,5,3,20,26,68,264,50,20,01,026,28,25,10,143,37,36,35,170,45*7F
$GPGSV,5,4,20,58,13,245,37,40,23,133,35,34,31,208,42,49,34,195,44*7E
$GPGSV,5,5,20,57,08,111,38,41,07,108,34,61,03,257,38*48
$GLGSV,3,1,09,82,72,284,51,65,15,038,40,73,25,325,47,83,32,244,38*64
$GLGSV,3,2,09,79,34,174,50,81,47,040,50,80,70,261,52,66,09,086,42*64
$GLGSV,3,3,09,72,01,347,36*5D
$GAGSV,3,1,09,15,62,060,47,23,11,312,,34,12,045,37,27,59,151,48*66
$GAGSV,3,2,09,13,58,206,48,21,61,297,47,26,07,219,37,30,09,138,39*6B
$GAGSV,3,3,09,09,01,359,34*51
$GBGSV,6,1,22,43,85,333,52,12,12,065,37,60,10,109,39,25,20,178,44*6B
$GBGSV,6,2,22,50,14,097,,38,29,042,43,05,22,129,38,07,11,101,*63
$GBGSV,6,3,22,27,28,241,,28,24,251,45,37,34,304,46,31,39,055,*63
$GBGSV,6,4,22,08,40,053,42,34,39,066,47,13,44,064,45,23,53,231,50*68
$GBGSV,6,5,22,11,65,053,49,42,07,121,,02,07,106,33,22,07,026,39*68
$GBGSV,6,6,22,56,02,086,,21,06,027,*64
$GPGGA,174547.00,,,,,0,00,,,M,,M,,*4C
$PTNL,GGK,174547.00,010125,4742.1601096,N,01618.1003774,E,1,39,0.7,EHT751.3076,M*46
$GPGGQ,174547.00,010125,4742.1601096,N,01618.1003774,E,1,39,0.909,708.1011,M*30
$GPGFA,174547.00,4.318,5.862,0.454,0.331,1.263,0.715,,VVV*01
$GPLLK,174547.00,010125,,M,,M,1,39,0.8,,M*0D
$GNGMP,174547.00,,,,,DAAA,39,0.4,,,,*5C
$GPGMP,174547.00,,,,,,10,,,,1.9,136*74
$GLGMP,174547.00,,,,,,08,,,,,*73
$GAGMP,174547.00,,,,,,07,,,,,*71
$GBGMP,174547.00,,,,,,14,,,,,*70
$PSSN,SNC,[0,323165000,2347]*44
$GPZDA,174552.00,01,01,2025,,*63
$GPDTM,W84,,00.0000000,N,00.0000000,E,00.0000000,W84*5F
$PSSN,TFM,174552.00,,,,*6F
$GPRMC,174552.00,A,4742.1601118,N,01618.1003762,E,0.0,,010125,5.1,E,D*19
$GPGLL,4742.1601118,N,01618.1003762,E,174552.00,A,D*68
$GPGGA,174552.00,4742.1601118,N,01618.1003762,E,2,39,0.4,708.1011,M,43.2066,M,2.5,0136*43
$GNGNS,174552.00,4742.1601118,N,01618.1003762,E,DAAA,39,0.4,708.1011,43.2066,,*5C
$GPGNS,174552.00,,,,,,10,,,,2.5,136*7F
$GLGNS,174552.00,,,,,,08,,,,,*77
$GAGNS,174552.00,,,,,,07,,,,,*75
$GBGNS,174552.00,,,,,,14,,,,,*74
$GPLLQ,174552.00,010125,,M,,M,1,39,0.894,,M*1E
$GPVTG,,T,,M,0.00,N,0.00,K,D*26
$GPHDT,,T*1B
$GPTHS,,V*0E
$GPROT,,V*08
$PSSN,HRP,174552.00,010125,,,,,,,00,0,,*61
$PTNL,AVR,174552.00,,Yaw,,Tilt,,,,0,,00*37
$GPGSA,A,3,05,16,18,23,25,26,27,28,29,31,,,0.7,0.4,0.6*38
$GPGSA,A,3,65,66,73,79,80,81,82,83,,,,,0.7,0.4,0.6*3E
$GPGSA,A,3,13,15,21,26,27,30,34,,,,,,0.7,0.4,0.6*37
$GPGSA,A,3,05,08,11,12,13,22,23,25,28,34,37,38,0.7,0.4,0.6*3F
$GPGSA,A,3,43,60,,,,,,,,,,,0.7,0.4,0.6*36
$GPGST,174552.00,1.404,0.449,0.329,3.136,0.449,0.330,0.699*5F
$GPGBS,174552.00,2.661,2.016,4.789,31,0.0001,1.131,0.946*51
$GPGRS,174552.00,1,-0.3,0.0,-0.2,0.9,-1.3,-0.3,-1.0,-0.2,0.3,1.1,,*47
$GPGRS,174552.00,1,0.3,-4.1,3.9,1.4,-0.1,0.6,-0.3,-0.6,,,,*45
$GPGRS,174552.00,1,0.3,0.3,-0.2,1.5,0.4,-1.2,-1.9,,,,,*44
$GPGRS,174552.00,1,1.6,0.7,0.3,-0.0,-0.5,-3.1,-0.4,-0.1,-0.4,0.2,-0.1,0.1*64
$GPGRS,174552.00,1,0.4,-1.6,,,,,,,,,,*60
$GPGSV,5,1,20,18,81,130,50,28,13,210,40,27,15,277,40,05,24,048,42*79
$GPGSV,5,2,20,23,22,151,42,31,27,233,44,16,43,304,46,29,40,080,46*7B
$GPGSV,5,3,20,26,68,264,50,20,01,026,28,25,10,143,36,36,35,170,45*7E
$GPGSV,5,4,20,58,13,245,37,40,23,133,36,34,31,208,43,49,34,195,44*7C
$GPGSV,5,5,20,57,08,111,38,41,07,108,34,61,03,257,38*48
$GLGSV,3,1,09,82,72,284,51,65,15,038,41,73,25,325,46,83,32,244,39*65
$GLGSV,3,2,09,79,34,174,50,81,47,040,50,80,70,261,52,66,09,086,42*64
$GLGSV,3,3,09,72,01,347,36*5D
$GAGSV,3,1,09,15,62,060,47,23,11,312,,34,12,045,36,27,59,151,48*67
$GAGSV,3,2,09,13,58,206,48,21,61,297,47,26,07,219,37,30,09,138,39*6B
$GAGSV,3,3,09,09,01,359,35*50
$GBGSV,6,1,22,43,85,333,51,12,12,065,37,60,10,109,39,25,20,178,43*6F
$GBGSV,6,2,22,50,14,097,,38,29,042,43,05,22,129,38,07,11,101,*63
$GBGSV,6,3,22,27,28,241,,28,24,252,45,37,34,304,46,31,39,055,*60
$GBGSV,6,4,22,08,40,053,42,34,39,066,47,13,44,064,45,23,53,231,50*68
$GBGSV,6,5,22,11,65,054,49,42,07,121,,02,07,106,33,22,07,026,38*6E
$GBGSV,6,6,22,56,02,086,,21,06,027,*64
$GPGGA,174552.00,,,,,0,00,,,M,,M,,*48
$PTNL,GGK,174552.00,010125,4742.1601118,N,01618.1003762,E,1,39,0.7,EHT751.3077,M*43
$GPGGQ,174552.00,010125,4742.1601118,N,01618.1003762,E,1,39,0.894,708.1011,M*31
$GPGFA,174552.00,4.270,5.734,0.449,0.329,3.136,0.699,,VVV*07
$GPLLK,174552.00,010125,,M,,M,1,39,0.8,,M*09
$GNGMP,174552.00,,,,,DAAA,39,0.4,,,,*58
$GPGMP,174552.00,,,,,,10,,,,2.5,136*7F
$GLGMP,174552.00,,,,,,08,,,,,*77
$GAGMP,174552.00,,,,,,07,,,,,*75
$GBGMP,174552.00,,,,,,14,,,,,*74
$PSSN,SNC,[0,323170000,2347]*40
$GPZDA,174557.00,01,01,2025,,*66
$GPDTM,W84,,00.0000000,N,00.0000000,E,00.0000000,W84*5F
$PSSN,TFM,174557.00,,,,*6A
$GPRMC,174557.00,A,4742.1601158,N,01618.1003753,E,0.0,,010125,5.1,E,D*1A
$GPGLL,4742.1601158,N,01618.1003753,E,174557.00,A,D*6B
$GPGGA,174557.00,4742.1601158,N,01618.1003753,E,2,39,0.4,708.1038,M,43.2066,M,2.3,0136*4D
$GNGNS,174557.00,4742.1601158,N,01618.1003753,E,DAAA,39,0.4,708.1038,43.2066,,*54
$GPGNS,174557.00,,,,,,10,,,,2.3,136*7C
$GLGNS,174557.00,,,,,,08,,,,,*72
$GAGNS,174557.00,,,,,,07,,,,,*70
$GBGNS,174557.00,,,,,,14,,,,,*71
$GPLLQ,174557.00,010125,,M,,M,1,39,0.906,,M*11
$GPVTG,,T,,M,0.00,N,0.01,K,D*27
$GPHDT,,T*1B
$GPTHS,,V*0E
$GPROT,,V*08
$PSSN,HRP,174557.00,010125,,,,,,,00,0,,*64
$PTNL,AVR,174557.00,,Yaw,,Tilt,,,,0,,00*32
$GPGSA,A,3,05,16,18,23,25,26,27,28,29,31,,,0.7,0.4,0.6*38
$GPGSA,A,3,65,66,73,79,80,81,82,83,,,,,0.7,0.4,0.6*3E
$GPGSA,A,3,13,15,21,26,27,30,34,,,,,,0.7,0.4,0.6*37
$GPGSA,A,3,05,08,11,12,13,22,23,25,28,34,37,38,0.7,0.4,0.6*3F
$GPGSA,A,3,43,60,,,,,,,,,,,0.7,0.4,0.6*36
$GPGST,174557.00,1.293,0.452,0.332,1.027,0.452,0.332,0.712*5B
$GPGBS,174557.00,2.635,2.039,4.905,23,0.0001,0.935,0.927*5B
$GPGRS,174557.00,1,-0.0,-0.3,-0.3,0.9,-0.7,-0.2,-0.7,0.0,0.2,0.9,,*4B
$GPGRS,174557.00,1,1.1,-3.8,3.2,0.8,-0.3,1.1,-0.7,0.0,,,,*60
$GPGRS,174557.00,1,0.2,0.4,-0.3,1.3,0.3,-1.3,-1.4,,,,,*4B
$GPGRS,174557.00,1,1.9,0.7,0.1,-0.4,-0.2,-3.0,-0.2,0.3,-0.3,0.0,-0.2,0.4*44
$GPGRS,174557.00,1,0.5,-1.7,,,,,,,,,,*65
$GPGSV,5,1,20,18,81,130,50,28,13,210,40,27,15,277,41,05,24,048,43*79
$GPGSV,5,2,20,23,22,151,42,31,27,233,44,16,43,304,47,29,40,080,46*7A
$GPGSV,5,3,20,26,68,264,50,20,01,026,28,25,10,143,36,36,35,170,45*7E
$GPGSV,5,4,20,58,13,245,37,40,23,133,35,34,31,208,42,49,34,195,44*7E
$GPGSV,5,5,20,57,08,111,38,41,07,108,34,61,03,257,38*48
$GLGSV,3,1,09,82,72,284,51,65,15,038,41,73,25,325,47,83,32,244,39*64
$GLGSV,3,2,09,79,34,174,50,81,47,040,51,80,70,261,52,66,09,086,42*65
$GLGSV,3,3,09,72,01,347,36*5D
$GAGSV,3,1,09,15,62,060,47,23,11,312,,34,12,045,37,27,59,151,48*66
$GAGSV,3,2,09,13,58,206,48,21,61,297,47,26,07,219,37,30,09,138,39*6B
$GAGSV,3,3,09,09,01,359,34*51
$GBGSV,6,1,22,43,85,333,52,12,12,065,37,60,10,109,40,25,20,178,43*62
$GBGSV,6,2,22,50,14,097,,38,29,042,43,05,22,129,38,07,11,101,*63
$GBGSV,6,3,22,27,28,241,,28,24,252,45,37,34,304,46,31,39,055,*60
$GBGSV,6,4,22,08,40,053,42,34,39,066,47,13,44,064,45,23,53,231,50*68
$GBGSV,6,5,22,11,65,054,49,42,07,121,,02,07,106,34,22,07,026,38*69
$GBGSV,6,6,22,56,02,086,,21,06,027,*64
$GPGGA,174557.00,,,,,0,00,,,M,,M,,*4D
$PTNL,GGK,174557.00,010125,4742.1601158,N,01618.1003753,E,1,39,0.7,EHT751.3104,M*45
$GPGGQ,174557.00,010125,4742.1601158,N,01618.1003753,E,1,39,0.906,708.1038,M*33
$GPGFA,174557.00,4.295,5.836,0.452,0.332,1.027,0.712,,VVV*05
$GPLLK,174557.00,010125,,M,,M,1,39,0.8,,M*0C
$GNGMP,174557.00,,,,,DAAA,39,0.4,,,,*5D
$GPGMP,174557.00,,,,,,10,,,,2.3,136*7C
$GLGMP,174557.00,,,,,,08,,,,,*72
$GAGMP,174557.00,,,,,,07,,,,,*70
$GBGMP,174557.00,,,,,,14,,,,,*71
$PSSN,SNC,[0,323175000,2347]*45
$GPZDA,174602.00,01,01,2025,,*65
$GPDTM,W84,,00.0000000,N,00.0000000,E,00.0000000,W84*5F
$PSSN,TFM,174602.00,,,,*69
$GPRMC,174602.00,A,4742.1601173,N,01618.1003748,E,0.0,,010125,5.1,E,D*1A
$GPGLL,4742.1601173,N,01618.1003748,E,174602.00,A,D*6B
$GPGGA,174602.00,4742.1601173,N,01618.1003748,E,2,39,0.4,708.1017,M,43.2066,M,3.3,0136*41
$GNGNS,174602.00,4742.1601173,N,01618.1003748,E,DAAA,39,0.4,708.1017,43.2066,,*59
$GPGNS,174602.00,,,,,,10,,,,3.3,136*7E
$GLGNS,174602.00,,,,,,08,,,,,*71
$GAGNS,174602.00,,,,,,07,,,,,*73
$GBGNS,174602.00,,,,,,14,,,,,*72
$GPLLQ,174602.00,010125,,M,,M,1,39,0.917,,M*12
$GPVTG,,T,,M,0.00,N,0.01,K,D*27
$GPHDT,,T*1B
$GPTHS,,V*0E
$GPROT,,V*08
$PSSN,HRP,174602.00,010125,,,,,,,00,0,,*67
$PTNL,AVR,174602.00,,Yaw,,Tilt,,,,0,,00*31
$GPGSA,A,3,05,16,18,23,25,26,27,28,29,31,,,0.7,0.4,0.6*38
$GPGSA,A,3,65,66,73,79,80,81,82,83,,,,,0.7,0.4,0.6*3E
$GPGSA,A,3,13,15,21,26,27,30,34,,,,,,0.7,0.4,0.6*37
$GPGSA,A,3,05,08,11,12,13,22,23,25,28,34,37,38,0.7,0.4,0.6*3F
$GPGSA,A,3,43,60,,,,,,,,,,,0.7,0.4,0.6*36
$GPGST,174602.00,1.460,0.455,0.331,359.166,0.455,0.331,0.724*5D
$GPGBS,174602.00,2.678,2.061,4.987,25,0.0001,-1.541,1.385*70
$GPGRS,174602.00,1,0.1,0.0,-0.3,0.8,-1.5,-0.2,-0.9,-0.3,0.5,0.9,,*6F
$GPGRS,174602.00,1,0.2,-4.6,3.3,0.8,-0.2,1.3,-0.5,-2.0,,,,*47
$GPGRS,174602.00,1,-0.0,0.3,-0.6,1.6,0.2,-1.7,-1.5,,,,,*64
$GPGRS,174602.00,1,1.9,1.0,-0.6,-0.5,-0.1,-2.9,-0.1,-0.1,0.0,-0.1,-0.2,0.0*4B
$GPGRS,174602.00,1,0.4,-1.6,,,,,,,,,,*66
$GPGSV,5,1,20,18,81,129,50,28,13,210,40,27,15,277,40,05,24,048,42*71
$GPGSV,5,2,20,23,22,151,43,31,27,233,44,16,43,304,47,29,40,080,46*7B
$GPGSV,5,3,20,26,68,264,50,20,01,026,27,25,10,143,36,36,35,170,45*71
$GPGSV,5,4,20,58,13,245,37,40,23,133,36,34,31,208,42,49,34,195,44*7D
$GPGSV,5,5,20,57,08,111,38,41,07,108,34,61,03,257,38*48
$GLGSV,3,1,09,82,72,285,51,65,15,038,41,73,25,325,47,83,32,244,38*64
$GLGSV,3,2,09,79,34,174,50,81,47,040,51,80,70,261,52,66,09,086,42*65
$GLGSV,3,3,09,72,01,347,36*5D
$GAGSV,3,1,09,15,62,060,47,23,11,312,,34,12,045,37,27,59,151,48*66
$GAGSV,3,2,09,13,58,206,47,21,61,297,47,26,07,219,37,30,09,138,39*64
$GAGSV,3,3,09,09,01,359,35*50
$GBGSV,6,1,22,43,85,334,52,12,12,065,37,60,10,109,40,25,20,178,43*65
$GBGSV,6,2,22,50,14,097,,38,29,042,43,05,22,129,38,07,11,101,*63
$GBGSV,6,3,22,27,28,241,,28,24,252,45,37,34,304,46,31,39,055,*60
$GBGSV,6,4,22,08,40,053,42,34,39,066,48,13,44,064,45,23,53,231,50*67
$GBGSV,6,5,22,11,65,054,49,42,07,121,,02,07,106,34,22,07,026,39*68
$GBGSV,6,6,22,56,02,086,,21,06,027,*64
$GPGGA,174602.00,,,,,0,00,,,M,,M,,*4E
$PTNL,GGK,174602.00,010125,4742.1601173,N,01618.1003748,E,1,39,0.7,EHT751.3083,M*4B
$GPGGQ,174602.00,010125,4742.1601173,N,01618.1003748,E,1,39,0.917,708.1017,M*3E
$GPGFA,174602.00,4.329,5.934,0.455,0.331,359.166,0.724,,VVV*08
$GPLLK,174602.00,010125,,M,,M,1,39,0.8,,M*0F
$GNGMP,174602.00,,,,,DAAA,39,0.4,,,,*5E
$GPGMP,174602.00,,,,,,10,,,,3.3,136*7E
$GLGMP,174602.00,,,,,,08,,,,,*71
$GAGMP,174602.00,,,,,,07,,,,,*73
$GBGMP,174602.00,,,,,,14,,,,,*72
$PSSN,SNC,[0,323180000,2347]*4F
$GPZDA,174607.00,01,01,2025,,*60
$GPDTM,W84,,00.0000000,N,00.0000000,E,00.0000000,W84*5F
$PSSN,TFM,174607.00,,,,*6C
$GPRMC,174607.00,A,4742.1601196,N,01618.1003729,E,0.0,,010125,5.1,E,D*13
$GPGLL,4742.1601196,N,01618.1003729,E,174607.00,A,D*62
$GPGGA,174607.00,4742.1601196,N,01618.1003729,E,2,39,0.4,708.1051,M,43.2066,M,1.9,0136*42
$GNGNS,174607.00,4742.1601196,N,01618.1003729,E,DAAA,39,0.4,708.1051,43.2066,,*52
$GPGNS,174607.00,,,,,,10,,,,1.9,136*73
$GLGNS,174607.00,,,,,,08,,,,,*74
$GAGNS,174607.00,,,,,,07,,,,,*76
$GBGNS,174607.00,,,,,,14,,,,,*77
$GPLLQ,174607.00,010125,,M,,M,1,39,0.913,,M*13
$GPVTG,,T,,M,0.00,N,0.00,K,D*26
$GPHDT,,T*1B
$GPTHS,,V*0E
$GPROT,,V*08
$PSSN,HRP,174607.00,010125,,,,,,,00,0,,*62
$PTNL,AVR,174607.00,,Yaw,,Tilt,,,,0,,00*34
$GPGSA,A,3,05,16,18,23,25,26,27,28,29,31,,,0.7,0.4,0.6*38
$GPGSA,A,3,65,66,73,79,80,81,82,83,,,,,0.7,0.4,0.6*3E
$GPGSA,A,3,13,15,21,26,27,30,34,,,,,,0.7,0.4,0.6*37
$GPGSA,A,3,05,08,11,12,13,22,23,25,28,34,37,38,0.7,0.4,0.6*3F
$GPGSA,A,3,43,60,,,,,,,,,,,0.7,0.4,0.6*36
$GPGST,174607.00,1.394,0.455,0.333,0.820,0.455,0.333,0.718*5F
$GPGBS,174607.00,2.621,2.037,4.767,31,0.0001,1.027,0.930*52
$GPGRS,174607.00,1,-0.0,-0.1,-0.3,0.7,-1.0,-0.2,-0.9,-0.0,0.4,1.0,,*6A
$GPGRS,174607.00,1,0.4,-4.1,3.9,0.1,-0.4,0.7,-0.4,-2.2,,,,*40
$GPGRS,174607.00,1,0.1,0.3,-0.1,1.4,0.2,-1.5,-1.4,,,,,*4B
$GPGRS,174607.00,1,1.8,1.1,-0.2,-0.8,-0.4,-2.5,-0.2,-0.2,-0.1,0.3,-0.1,0.2*4C
$GPGRS,174607.00,1,0.5,-1.5,,,,,,,,,,*61
$GPGSV,5,1,20,18,81,129,50,28,13,210,40,27,15,277,40,05,24,048,42*71
$GPGSV,5,2,20,23,23,151,43,31,27,233,45,16,43,304,47,29,40,080,46*7B
$GPGSV,5,3,20,26,68,264,50,20,01,026,27,25,09,143,36,36,35,170,44*78
$GPGSV,5,4,20,58,13,245,37,40,23,133,35,34,31,208,42,49,34,195,44*7E
$GPGSV,5,5,20,57,08,111,38,41,07,108,34,61,03,257,38*48
$GLGSV,3,1,09,82,72,285,51,65,15,038,41,73,25,325,46,83,32,244,38*65
$GLGSV,3,2,09,79,34,174,49,81,47,040,51,80,70,261,52,66,09,085,43*6F
$GLGSV,3,3,09,72,01,347,36*5D
$GAGSV,3,1,09,15,62,060,47,23,11,312,,34,12,045,37,27,59,151,48*66
$GAGSV,3,2,09,13,58,206,48,21,61,297,47,26,07,219,37,30,09,138,39*6B
$GAGSV,3,3,09,09,01,359,35*50
$GBGSV,6,1,22,43,85,334,52,12,12,065,37,60,10,109,40,25,20,178,44*62
$GBGSV,6,2,22,50,14,097,,38,29,042,43,05,22,129,38,07,11,101,*63
$GBGSV,6,3,22,27,28,241,,28,24,252,45,37,34,304,46,08,40,053,42*64
$GBGSV,6,4,22,31,39,055,,34,39,066,48,13,44,064,45,23,53,231,50*63
$GBGSV,6,5,22,11,65,054,49,42,07,121,,02,07,106,34,22,07,026,40*66
$GBGSV,6,6,22,56,02,086,,21,06,027,*64
$GPGGA,174607.00,,,,,0,00,,,M,,M,,*4B
$PTNL,GGK,174607.00,010125,4742.1601196,N,01618.1003729,E,1,39,0.7,EHT751.3116,M*4F
$GPGGQ,174607.00,010125,4742.1601196,N,01618.1003729,E,1,39,0.913,708.1051,M*31
$GPGFA,174607.00,4.329,5.890,0.455,0.333,0.820,0.718,,VVV*0B
$GPLLK,174607.00,010125,,M,,M,1,39,0.8,,M*0A
$GNGMP,174607.00,,,,,DAAA,39,0.4,,,,*5B
$GPGMP,174607.00,,,,,,10,,,,1.9,136*73
$GLGMP,174607.00,,,,,,08,,,,,*74
$GAGMP,174607.00,,,,,,07,,,,,*76
$GBGMP,174607.00,,,,,,14,,,,,*77
$PSSN,SNC,[0,323185000,2347]*4A
$GPZDA,174612.00,01,01,2025,,*64
$GPDTM,W84,,00.0000000,N,00.0000000,E,00.0000000,W84*5F
$PSSN,TFM,174612.00,,,,*68
$GPRMC,174612.00,A,4742.1601229,N,01618.1003710,E,0.0,,010125,5.1,E,D*1A
$GPGLL,4742.1601229,N,01618.1003710,E,174612.00,A,D*6B
$GPGGA,174612.00,4742.1601229,N,01618.1003710,E,2,39,0.4,708.1076,M,43.2066,M,2.5,0136*41
$GNGNS,174612.00,4742.1601229,N,01618.1003710,E,DAAA,39,0.4,708.1076,43.2066,,*5E
$GPGNS,174612.00,,,,,,10,,,,2.5,136*78
$GLGNS,174612.00,,,,,,08,,,,,*70
$GAGNS,174612.00,,,,,,07,,,,,*72
$GBGNS,174612.00,,,,,,14,,,,,*73
$GPLLQ,174612.00,010125,,M,,M,1,39,0.898,,M*15
$GPVTG,,T,,M,0.00,N,0.01,K,D*27
$GPHDT,,T*1B
$GPTHS,,V*0E
$GPROT,,V*08
$PSSN,HRP,174612.00,010125,,,,,,,00,0,,*66
$PTNL,AVR,174612.00,,Yaw,,Tilt,,,,0,,00*30
$GPGSA,A,3,05,16,18,23,25,26,27,28,29,31,,,0.7,0.4,0.6*38
$GPGSA,A,3,65,66,73,79,80,81,82,83,,,,,0.7,0.4,0.6*3E
$GPGSA,A,3,13,15,21,26,27,30,34,,,,,,0.7,0.4,0.6*37
$GPGSA,A,3,05,08,11,12,13,22,23,25,28,34,37,38,0.7,0.4,0.6*3F
$GPGSA,A,3,43,60,,,,,,,,,,,0.7,0.4,0.6*36
$GPGST,174612.00,1.259,0.450,0.331,2.664,0.450,0.331,0.703*5D
$GPGBS,174612.00,2.676,2.024,4.815,25,0.0001,-1.257,1.368*77
$GPGRS,174612.00,1,0.3,-0.2,-0.2,0.5,-1.3,-0.2,-0.5,0.3,0.4,0.8,,*68
$GPGRS,174612.00,1,-0.1,-3.2,3.1,1.1,-0.5,0.6,-0.3,-1.9,,,,*6E
$GPGRS,174612.00,1,0.5,0.5,0.1,1.4,0.4,-1.5,-1.4,,,,,*66
$GPGRS,174612.00,1,1.6,0.9,0.4,-1.4,-0.5,-2.5,-0.3,0.5,-0.5,0.5,-0.1,0.4*47
$GPGRS,174612.00,1,0.5,-1.4,,,,,,,,,,*64
$GPGSV,5,1,20,18,81,129,50,28,13,210,40,27,15,277,41,05,24,048,42*70
$GPGSV,5,2,20,23,23,151,42,31,27,233,45,16,43,304,46,29,39,080,46*75
$GPGSV,5,3,20,26,68,264,50,20,01,026,26,25,09,143,36,36,35,170,45*78
$GPGSV,5,4,20,58,13,245,37,40,23,133,36,34,31,208,42,49,34,195,44*7D
$GPGSV,5,5,20,57,08,111,38,41,07,108,34,61,03,257,38*48
$GLGSV,3,1,09,82,72,285,51,65,15,038,40,73,25,325,46,83,32,244,38*64
$GLGSV,3,2,09,79,34,174,50,81,47,040,50,80,70,261,52,66,09,085,43*66
$GLGSV,3,3,09,72,01,347,37*5C
$GAGSV,3,1,09,15,62,060,47,23,11,312,,34,12,045,37,27,59,151,48*66
$GAGSV,3,2,09,13,58,206,48,21,61,297,48,26,07,219,37,30,09,138,39*64
$GAGSV,3,3,09,09,01,359,34*51
$GBGSV,6,1,22,43,85,335,52,12,12,065,37,60,10,109,39,25,20,178,43*6A
$GBGSV,6,2,22,50,14,097,,38,29,042,43,05,22,129,38,07,11,101,*63
$GBGSV,6,3,22,27,28,241,,28,24,252,45,37,34,304,46,08,40,053,42*64
$GBGSV,6,4,22,31,39,055,,34,39,066,48,13,44,064,45,23,53,231,50*63
$GBGSV,6,5,22,11,65,054,49,42,07,121,,02,07,106,34,22,07,025,39*6B
$GBGSV,6,6,22,56,02,086,,21,06,027,*64
$GPGGA,174612.00,,,,,0,00,,,M,,M,,*4F
$PTNL,GGK,174612.00,010125,4742.1601229,N,01618.1003710,E,1,39,0.7,EHT751.3141,M*44
$GPGGQ,174612.00,010125,4742.1601229,N,01618.1003710,E,1,39,0.898,708.1076,M*3F
$GPGFA,174612.00,4.281,5.761,0.450,0.331,2.664,0.703,,VVV*0C
$GPLLK,174612.00,010125,,M,,M,1,39,0.8,,M*0E
$GNGMP,174612.00,,,,,DAAA,39,0.4,,,,*5F
$GPGMP,174612.00,,,,,,10,,,,2.5,136*78
$GLGMP,174612.00,,,,,,08,,,,,*70
$GAGMP,174612.00,,,,,,07,,,,,*72
$GBGMP,174612.00,,,,,,14,,,,,*73
$PSSN,SNC,[0,323190000,2347]*4E
$GPZDA,174617.00,01,01,2025,,*61
$GPDTM,W84,,00.0000000,N,00.0000000,E,00.0000000,W84*5F
$PSSN,TFM,174617.00,,,,*6D
$GPRMC,174617.00,A,4742.1601240,N,01618.1003697,E,0.0,,010125,5.1,E,D*1E
$GPGLL,4742.1601240,N,01618.1003697,E,174617.00,A,D*6F
$GPGGA,174617.00,4742.1601240,N,01618.1003697,E,2,39,0.4,708.1076,M,43.2066,M,2.3,0136*43
$GNGNS,174617.00,4742.1601240,N,01618.1003697,E,DAAA,39,0.4,708.1076,43.2066,,*5A
$GPGNS,174617.00,,,,,,10,,,,2.3,136*7B
$GLGNS,174617.00,,,,,,08,,,,,*75
$GAGNS,174617.00,,,,,,07,,,,,*77
$GBGNS,174617.00,,,,,,14,,,,,*76
$GPLLQ,174617.00,010125,,M,,M,1,39,0.906,,M*16
$GPVTG,,T,,M,0.00,N,0.00,K,D*26
$GPHDT,,T*1B
$GPTHS,,V*0E
$GPROT,,V*08
$PSSN,HRP,174617.00,010125,,,,,,,00,0,,*63
$PTNL,AVR,174617.00,,Yaw,,Tilt,,,,0,,00*35
$GPGSA,A,3,05,16,18,23,25,26,27,28,29,31,,,0.7,0.4,0.6*38
$GPGSA,A,3,65,66,73,79,80,81,82,83,,,,,0.7,0.4,0.6*3E
$GPGSA,A,3,13,15,21,26,27,30,34,,,,,,0.7,0.4,0.6*37
$GPGSA,A,3,05,08,11,12,13,22,23,25,28,34,37,38,0.7,0.4,0.6*3F
$GPGSA,A,3,43,60,,,,,,,,,,,0.7,0.4,0.6*36
$GPGST,174617.00,1.278,0.452,0.332,1.052,0.452,0.332,0.712*5B
$GPGBS,174617.00,2.642,2.042,4.893,25,0.0001,-1.189,1.376*74
$GPGRS,174617.00,1,-0.2,-0.1,-0.1,0.6,-1.2,-0.1,-0.7,0.4,0.3,0.3,,*49
$GPGRS,174617.00,1,0.9,-3.9,3.6,0.8,-0.4,0.5,-0.2,-0.9,,,,*48
$GPGRS,174617.00,1,0.4,0.3,-0.2,0.9,0.2,-1.4,-1.5,,,,,*40
$GPGRS,174617.00,1,1.6,1.0,0.2,-0.9,-0.6,-2.3,-0.0,0.3,-0.2,0.3,0.0,0.2*6B
$GPGRS,174617.00,1,0.6,-1.7,,,,,,,,,,*61
$GPGSV,5,1,20,18,81,128,50,28,13,210,40,27,15,277,41,05,24,048,42*71
$GPGSV,5,2,20,23,23,151,42,31,27,233,45,16,43,304,46,29,39,080,46*75
$GPGSV,5,3,20,26,68,264,50,20,01,026,27,25,09,143,36,36,35,170,45*79
$GPGSV,5,4,20,58,13,245,37,40,23,133,36,34,31,208,42,49,34,195,44*7D
$GPGSV,5,5,20,57,08,111,38,41,07,108,34,61,03,257,38*48
$GLGSV,3,1,09,82,72,285,51,65,15,038,41,73,25,325,46,83,32,244,39*64
$GLGSV,3,2,09,79,34,174,50,81,47,040,51,80,70,260,52,66,09,085,42*67
$GLGSV,3,3,09,72,01,347,37*5C
$GAGSV,3,1,09,15,62,060,47,23,11,312,,34,12,045,38,27,59,151,48*69
$GAGSV,3,2,09,13,58,206,48,21,61,297,48,26,07,219,37,30,09,138,39*64
$GAGSV,3,3,09,09,01,359,36*53
$GBGSV,6,1,22,43,85,335,52,12,12,065,37,60,10,109,40,25,20,178,43*64
$GBGSV,6,2,22,50,14,097,,38,29,042,43,05,22,129,38,07,11,101,*63
$GBGSV,6,3,22,27,28,241,,28,24,252,45,37,34,304,46,31,39,055,*60
$GBGSV,6,4,22,08,40,053,42,34,39,066,47,13,44,064,45,23,53,231,50*68
$GBGSV,6,5,22,11,64,054,49,42,08,121,,02,07,106,34,22,07,025,39*65
$GBGSV,6,6,22,56,02,086,,21,06,027,*64
$GPGGA,174617.00,,,,,0,00,,,M,,M,,*4A
$PTNL,GGK,174617.00,010125,4742.1601240,N,01618.1003697,E,1,39,0.7,EHT751.3142,M*43
$GPGGQ,174617.00,010125,4742.1601240,N,01618.1003697,E,1,39,0.906,708.1076,M*3D
