$GPZDA,085942.00,01,01,2025,,*61
$GPDTM,W84,,00.0000000,N,00.0000000,E,00.0000000,W84*5F
$PSSN,TFM,085942.00,,,,*6D
$GPRMC,085942.00,A,4742.1601308,N,01618.1003147,E,0.0,,010125,5.1,E,D*19
$GPGLL,4742.1601308,N,01618.1003147,E,085942.00,A,D*68
$GPGGA,085942.00,4742.1601308,N,01618.1003147,E,2,34,0.5,709.0976,M,43.2066,M,1.8,0136*49
$GNGNS,085942.00,4742.1601308,N,01618.1003147,E,DAAA,34,0.5,709.0976,43.2066,,*58
$GPGNS,085942.00,,,,,,09,,,,1.8,136*7B
$GLGNS,085942.00,,,,,,06,,,,,*7B
$GAGNS,085942.00,,,,,,07,,,,,*77
$GBGNS,085942.00,,,,,,12,,,,,*70
$GPLLQ,085942.00,010125,,M,,M,1,34,0.918,,M*14
$GPVTG,,T,,M,0.00,N,0.00,K,D*26
$GPHDT,,T*1B
$GPTHS,,V*0E
$GPROT,,V*08
$PSSN,HRP,085942.00,010125,,,,,,,00,0,,*63
$PTNL,AVR,085942.00,,Yaw,,Tilt,,,,0,,00*35
$GPGSA,A,3,05,13,14,15,17,20,23,24,30,,,,0.8,0.5,0.6*3F
$GPGSA,A,3,65,66,72,74,75,76,,,,,,,0.8,0.5,0.6*3F
$GPGSA,A,3,02,03,05,08,24,25,26,,,,,,0.8,0.5,0.6*30
$GPGSA,A,3,05,07,10,14,21,22,26,36,40,42,45,60,0.8,0.5,0.6*38
$GPGST,085942.00,1.956,0.481,0.334,7.729,0.479,0.337,0.707*51
$GPGBS,085942.00,3.233,2.243,4.593,17,0.0001,0.962,1.112*59
$GPGRS,085942.00,1,-0.3,0.1,-0.0,0.0,1.0,-0.1,-0.0,-0.0,-0.4,,,*64
$GPGRS,085942.00,1,-1.8,-3.0,5.3,5.6,-2.6,-2.8,,,,,,*4D
$GPGRS,085942.00,1,-0.8,-0.3,1.0,-0.4,0.2,-0.0,-0.6,,,,,*45
$GPGRS,085942.00,1,2.0,0.3,0.5,1.2,-0.8,0.8,-0.3,-0.8,-0.8,-0.5,-1.9,-0.9*61
$GPGSV,6,1,22,13,89,247,48,23,16,323,40,05,30,219,45,17,19,124,43*73
$GPGSV,6,2,22,24,16,271,40,30,36,077,45,15,52,297,48,22,69,137,*72
$GPGSV,6,3,22,14,63,081,47,19,04,149,,07,03,081,37,20,06,196,37*71
$GPGSV,6,4,22,08,01,021,28,36,35,170,44,58,13,245,36,40,23,133,36*76
$GPGSV,6,5,22,34,31,208,42,49,34,195,44,57,07,112,37,41,07,108,35*7A
$GPGSV,6,6,22,61,03,257,38*46
$GLGSV,3,1,10,65,68,179,50,74,10,046,38,72,13,153,41,76,51,236,52*6A
$GLGSV,3,2,10,66,52,318,52,75,62,034,51,67,02,328,,77,06,230,*67
$GLGSV,3,3,10,83,08,354,33,84,06,053,*69
$GAGSV,3,1,11,03,70,135,49,24,20,045,40,05,18,128,40,16,45,057,*62
$GAGSV,3,2,11,02,45,193,47,08,54,303,47,25,65,086,48,13,01,275,28*67
$GAGSV,3,3,11,07,04,306,34,26,05,322,37,33,00,007,29*53
$GBGSV,6,1,21,45,67,060,50,22,12,160,42,05,20,130,37,36,17,060,41*6F
$GBGSV,6,2,21,14,27,314,41,40,28,053,43,56,26,086,,07,28,063,41*64
$GBGSV,6,3,21,10,34,077,41,21,56,195,51,42,51,295,48,24,49,225,*69
$GBGSV,6,4,21,26,53,242,49,50,64,247,,09,05,082,35,29,02,058,*63
$GBGSV,6,5,21,30,00,009,,02,04,109,32,33,05,324,,25,02,232,*68
$GBGSV,6,6,21,60,07,112,40*5F
$GPGGA,085942.00,,,,,0,00,,,M,,M,,*4A
$PTNL,GGK,085942.00,010125,4742.1601308,N,01618.1003147,E,1,34,0.8,EHT752.3042,M*44
$GPGGQ,085942.00,010125,4742.1601308,N,01618.1003147,E,1,34,0.918,709.0976,M*31
$GPGFA,085942.00,4.573,5.800,0.481,0.334,7.729,0.707,,VVV*0B
$GPLLK,085942.00,010125,,M,,M,1,34,0.9,,M*07
$GNGMP,085942.00,,,,,DAAA,34,0.5,,,,*56
$GPGMP,085942.00,,,,,,09,,,,1.8,136*7B
$GLGMP,085942.00,,,,,,06,,,,,*7B
$GAGMP,085942.00,,,,,,07,,,,,*77
$GBGMP,085942.00,,,,,,12,,,,,*70
$PSSN,SNC,[0,291600000,2347]*48
$GPZDA,085947.00,01,01,2025,,*64
$GPDTM,W84,,00.0000000,N,00.0000000,E,00.0000000,W84*5F
$PSSN,TFM,085947.00,,,,*68
$GPRMC,085947.00,A,4742.1601318,N,01618.1003101,E,0.0,,010125,5.1,E,D*1F
$GPGLL,4742.1601318,N,01618.1003101,E,085947.00,A,D*6E
$GPGGA,085947.00,4742.1601318,N,01618.1003101,E,2,35,0.4,709.1049,M,43.2066,M,2.8,0136*48
$GNGNS,085947.00,4742.1601318,N,01618.1003101,E,DAAA,35,0.4,709.1049,43.2066,,*5A
$GPGNS,085947.00,,,,,,09,,,,2.8,136*7D
$GLGNS,085947.00,,,,,,06,,,,,*7E
$GAGNS,085947.00,,,,,,07,,,,,*72
$GBGNS,085947.00,,,,,,13,,,,,*74
$GPLLQ,085947.00,010125,,M,,M,1,35,0.918,,M*10
$GPVTG,,T,,M,0.00,N,0.00,K,D*26
$GPHDT,,T*1B
$GPTHS,,V*0E
$GPROT,,V*08
$PSSN,HRP,085947.00,010125,,,,,,,00,0,,*66
$PTNL,AVR,085947.00,,Yaw,,Tilt,,,,0,,00*30
$GPGSA,A,3,05,13,14,15,17,20,23,24,30,,,,0.7,0.4,0.6*31
$GPGSA,A,3,65,66,72,74,75,76,,,,,,,0.7,0.4,0.6*31
$GPGSA,A,3,02,03,05,08,24,25,26,,,,,,0.7,0.4,0.6*3E
$GPGSA,A,3,05,07,09,10,14,21,22,26,36,40,42,45,0.7,0.4,0.6*39
$GPGSA,A,3,60,,,,,,,,,,,,0.7,0.4,0.6*31
$GPGST,085947.00,1.908,0.480,0.332,9.245,0.477,0.337,0.708*58
$GPGBS,085947.00,3.277,2.269,4.644,17,0.0001,1.082,1.119*50
$GPGRS,085947.00,1,-0.4,0.2,0.2,-0.2,1.1,0.7,0.5,-0.3,-0.7,,,*67
$GPGRS,085947.00,1,-2.0,-2.9,5.0,5.4,-2.5,-2.9,,,,,,*48
$GPGRS,085947.00,1,-1.0,-0.4,0.8,-0.4,0.3,-0.2,0.1,,,,,*6E
$GPGRS,085947.00,1,1.3,0.6,2.2,0.5,1.1,-1.0,0.7,-0.2,-0.5,-1.1,-0.3,-1.7*4C
$GPGRS,085947.00,1,-0.9,,,,,,,,,,,*43
$GPGSV,6,1,22,13,89,243,48,23,16,323,40,05,30,219,45,17,19,124,43*77
$GPGSV,6,2,22,24,16,271,39,30,36,077,44,15,52,297,48,22,69,137,*7D
$GPGSV,6,3,22,14,63,081,47,19,04,149,,07,03,081,37,20,06,196,37*71
$GPGSV,6,4,22,08,01,021,28,36,35,170,44,58,13,245,36,40,23,133,36*76
$GPGSV,6,5,22,34,31,208,42,49,34,195,44,57,07,112,37,41,07,108,35*7A
$GPGSV,6,6,22,61,03,257,38*46
$GLGSV,3,1,10,65,68,179,50,74,10,046,38,72,13,153,41,76,51,236,52*6A
$GLGSV,3,2,10,66,52,318,52,75,62,034,51,67,02,328,,77,06,230,*67
$GLGSV,3,3,10,83,08,354,33,84,06,053,*69
$GAGSV,3,1,11,03,70,135,49,24,20,045,41,05,18,128,40,16,45,057,*63
$GAGSV,3,2,11,02,45,193,47,08,54,303,47,25,65,086,48,13,01,275,25*6A
$GAGSV,3,3,11,07,04,306,36,26,05,322,37,33,00,007,29*51
$GBGSV,6,1,21,45,67,060,50,22,12,160,42,05,20,130,37,36,16,060,42*6D
$GBGSV,6,2,21,14,27,314,41,40,28,053,43,56,26,086,,07,28,063,40*65
$GBGSV,6,3,21,10,34,077,41,21,56,195,51,42,51,295,49,24,49,225,*68
$GBGSV,6,4,21,26,53,242,49,50,64,247,,09,05,082,35,29,02,058,*63
$GBGSV,6,5,21,30,00,009,,02,04,109,32,33,05,324,,25,02,232,*68
$GBGSV,6,6,21,60,07,112,40*5F
$GPGGA,085947.00,,,,,0,00,,,M,,M,,*4F
$PTNL,GGK,085947.00,010125,4742.1601318,N,01618.1003101,E,1,35,0.7,EHT752.3115,M*4F
$GPGGQ,085947.00,010125,4742.1601318,N,01618.1003101,E,1,35,0.918,709.1049,M*32
$GPGFA,085947.00,4.567,5.810,0.480,0.332,9.245,0.708,,VVV*03
$GPLLK,085947.00,010125,,M,,M,1,35,0.8,,M*02
$GNGMP,085947.00,,,,,DAAA,35,0.4,,,,*53
$GPGMP,085947.00,,,,,,09,,,,2.8,136*7D
$GLGMP,085947.00,,,,,,06,,,,,*7E
$GAGMP,085947.00,,,,,,07,,,,,*72
$GBGMP,085947.00,,,,,,13,,,,,*74
$PSSN,SNC,[0,291605000,2347]*4D
$GPZDA,085952.00,01,01,2025,,*60
$GPDTM,W84,,00.0000000,N,00.0000000,E,00.0000000,W84*5F
$PSSN,TFM,085952.00,,,,*6C
$GPRMC,085952.00,A,4742.1601326,N,01618.1003062,E,0.0,,010125,5.1,E,D*12
$GPGLL,4742.1601326,N,01618.1003062,E,085952.00,A,D*63
$GPGGA,085952.00,4742.1601326,N,01618.1003062,E,2,35,0.4,709.1056,M,43.2066,M,2.4,0136*47
$GNGNS,085952.00,4742.1601326,N,01618.1003062,E,DAAA,35,0.4,709.1056,43.2066,,*59
$GPGNS,085952.00,,,,,,09,,,,2.4,136*75
$GLGNS,085952.00,,,,,,06,,,,,*7A
$GAGNS,085952.00,,,,,,07,,,,,*76
$GBGNS,085952.00,,,,,,13,,,,,*70
$GPLLQ,085952.00,010125,,M,,M,1,35,0.922,,M*1D
$GPVTG,,T,,M,0.00,N,0.00,K,D*26
$GPHDT,,T*1B
$GPTHS,,V*0E
$GPROT,,V*08
$PSSN,HRP,085952.00,010125,,,,,,,00,0,,*62
$PTNL,AVR,085952.00,,Yaw,,Tilt,,,,0,,00*34
$GPGSA,A,3,05,13,14,15,17,20,23,24,30,,,,0.7,0.4,0.6*31
$GPGSA,A,3,65,66,72,74,75,76,,,,,,,0.7,0.4,0.6*31
$GPGSA,A,3,02,03,05,08,24,25,26,,,,,,0.7,0.4,0.6*3E
$GPGSA,A,3,05,07,09,10,14,21,22,26,36,40,42,45,0.7,0.4,0.6*39
$GPGSA,A,3,60,,,,,,,,,,,,0.7,0.4,0.6*31
$GPGST,085952.00,2.113,0.483,0.336,8.796,0.480,0.340,0.710*51
$GPGBS,085952.00,3.256,2.211,4.631,72,0.0001,6.387,6.409*5B
$GPGRS,085952.00,1,-0.5,0.1,0.4,-0.2,0.9,0.2,0.2,-0.0,-0.6,,,*6E
$GPGRS,085952.00,1,-1.9,-3.3,6.4,5.5,-2.5,-3.2,,,,,,*41
$GPGRS,085952.00,1,-0.9,-0.4,0.8,-0.5,0.5,-0.2,0.2,,,,,*66
$GPGRS,085952.00,1,1.5,0.6,2.2,0.3,1.7,-1.0,0.6,-0.4,-0.1,-1.3,0.0,-1.9*6F
$GPGRS,085952.00,1,-1.2,,,,,,,,,,,*4D
$GPGSV,6,1,22,13,89,240,49,23,16,323,40,24,16,271,40,05,30,219,45*7A
$GPGSV,6,2,22,17,19,124,43,30,36,077,44,15,52,297,48,22,69,137,*7C
$GPGSV,6,3,22,14,63,081,47,19,04,149,,07,03,081,37,08,01,021,27*70
$GPGSV,6,4,22,20,06,196,37,36,35,170,44,58,13,245,36,40,23,133,36*78
$GPGSV,6,5,22,34,31,208,42,49,34,195,44,57,07,112,37,41,07,108,35*7A
$GPGSV,6,6,22,61,03,257,38*46
$GLGSV,3,1,10,65,68,179,50,74,10,046,38,72,13,153,41,76,51,236,52*6A
$GLGSV,3,2,10,66,52,318,51,75,62,034,51,67,02,328,,77,06,230,*64
$GLGSV,3,3,10,83,08,354,33,84,07,053,*68
$GAGSV,3,1,11,03,70,135,48,24,20,045,40,05,18,128,40,16,45,057,*63
$GAGSV,3,2,11,02,45,193,47,08,54,303,47,25,65,086,48,13,01,275,23*6C
$GAGSV,3,3,11,07,04,306,36,26,05,322,37,33,00,007,29*51
$GBGSV,6,1,21,45,67,060,50,22,12,160,42,05,20,130,37,36,16,060,41*6E
$GBGSV,6,2,21,14,27,314,41,40,28,053,43,56,26,086,,07,28,063,41*64
$GBGSV,6,3,21,10,34,077,41,21,56,195,51,42,51,295,49,24,49,225,*68
$GBGSV,6,4,21,26,53,242,49,50,64,247,,09,05,082,35,29,02,058,*63
$GBGSV,6,5,21,30,00,009,,02,04,109,32,33,05,324,,25,02,232,*68
$GBGSV,6,6,21,60,07,112,40*5F
$GPGGA,085952.00,,,,,0,00,,,M,,M,,*4B
$PTNL,GGK,085952.00,010125,4742.1601326,N,01618.1003062,E,1,35,0.7,EHT752.3121,M*45
$GPGGQ,085952.00,010125,4742.1601326,N,01618.1003062,E,1,35,0.922,709.1056,M*38
$GPGFA,085952.00,4.590,5.822,0.483,0.336,8.796,0.710,,VVV*0A
$GPLLK,085952.00,010125,,M,,M,1,35,0.8,,M*06
$GNGMP,085952.00,,,,,DAAA,35,0.4,,,,*57
$GPGMP,085952.00,,,,,,09,,,,2.4,136*75
$GLGMP,085952.00,,,,,,06,,,,,*7A
$GAGMP,085952.00,,,,,,07,,,,,*76
$GBGMP,085952.00,,,,,,13,,,,,*70
$PSSN,SNC,[0,291610000,2347]*49
$GPZDA,085957.00,01,01,2025,,*65
$GPDTM,W84,,00.0000000,N,00.0000000,E,00.0000000,W84*5F
$PSSN,TFM,085957.00,,,,*69
$GPRMC,085957.00,A,4742.1601345,N,01618.1003025,E,0.0,,010125,5.1,E,D*11
$GPGLL,4742.1601345,N,01618.1003025,E,085957.00,A,D*60
$GPGGA,085957.00,4742.1601345,N,01618.1003025,E,2,34,0.5,709.1072,M,43.2066,M,3.0,0136*47
$GNGNS,085957.00,4742.1601345,N,01618.1003025,E,DAAA,34,0.5,709.1072,43.2066,,*5C
$GPGNS,085957.00,,,,,,09,,,,3.0,136*75
$GLGNS,085957.00,,,,,,06,,,,,*7F
$GAGNS,085957.00,,,,,,07,,,,,*73
$GBGNS,085957.00,,,,,,12,,,,,*74
$GPLLQ,085957.00,010125,,M,,M,1,34,0.917,,M*1F
$GPVTG,,T,,M,0.01,N,0.01,K,D*26
$GPHDT,,T*1B
$GPTHS,,V*0E
$GPROT,,V*08
$PSSN,HRP,085957.00,010125,,,,,,,00,0,,*67
$PTNL,AVR,085957.00,,Yaw,,Tilt,,,,0,,00*31
$GPGSA,A,3,05,13,14,15,17,20,23,24,30,,,,0.8,0.5,0.6*3F
$GPGSA,A,3,65,66,72,74,75,76,,,,,,,0.8,0.5,0.6*3F
$GPGSA,A,3,02,03,05,08,24,25,26,,,,,,0.8,0.5,0.6*30
$GPGSA,A,3,05,07,10,14,21,22,26,36,40,42,45,60,0.8,0.5,0.6*38
$GPGST,085957.00,2.210,0.481,0.336,7.381,0.479,0.339,0.704*56
$GPGBS,085957.00,3.270,2.256,4.701,72,0.0001,6.547,6.411*58
$GPGRS,085957.00,1,-0.4,0.3,0.2,-0.5,0.8,0.2,-0.4,0.4,-0.3,,,*6F
$GPGRS,085957.00,1,-2.1,-3.6,6.5,5.9,-3.0,-3.5,,,,,,*44
$GPGRS,085957.00,1,-1.0,-0.2,0.6,-0.5,0.3,-0.1,0.3,,,,,*67
$GPGRS,085957.00,1,1.6,0.5,-0.4,1.2,-0.9,0.7,-0.4,-0.3,-1.2,-0.2,-1.9,-0.9*44
$GPGSV,6,1,22,13,89,238,49,23,16,323,40,24,16,271,40,05,30,219,45*75
$GPGSV,6,2,22,17,19,124,42,30,36,077,44,15,53,297,48,22,69,137,*7C
$GPGSV,6,3,22,14,63,081,47,19,04,149,,07,03,081,37,08,01,021,28*7F
$GPGSV,6,4,22,20,06,196,37,36,35,170,44,58,13,245,36,40,23,133,36*78
$GPGSV,6,5,22,34,31,208,43,49,34,195,44,57,07,112,37,41,07,108,35*7B
$GPGSV,6,6,22,61,03,257,38*46
$GLGSV,3,1,10,65,68,179,50,74,10,046,38,72,12,153,41,76,51,236,52*6B
$GLGSV,3,2,10,66,52,318,51,75,62,034,51,67,02,328,,77,06,230,*64
$GLGSV,3,3,10,83,08,354,32,84,07,053,*69
$GAGSV,3,1,11,03,70,135,48,24,20,045,40,05,18,128,40,16,45,057,*63
$GAGSV,3,2,11,02,45,193,47,08,54,303,47,25,65,086,48,13,01,275,22*6D
$GAGSV,3,3,11,07,04,306,35,26,05,322,37,33,00,007,29*52
$GBGSV,5,1,20,45,67,060,50,22,12,160,42,05,20,130,37,36,16,060,41*6C
$GBGSV,5,2,20,14,27,314,41,40,28,053,43,56,26,086,,07,28,063,41*66
$GBGSV,5,3,20,10,34,077,41,21,56,195,51,42,51,295,49,24,49,225,*6A
$GBGSV,5,4,20,26,53,242,49,50,64,247,,29,02,058,,33,05,324,*61
$GBGSV,5,5,20,02,04,109,32,09,05,082,35,25,02,232,,60,07,112,40*67
$GPGGA,085957.00,,,,,0,00,,,M,,M,,*4E
$PTNL,GGK,085957.00,010125,4742.1601345,N,01618.1003025,E,1,34,0.8,EHT752.3138,M*40
$GPGGQ,085957.00,010125,4742.1601345,N,01618.1003025,E,1,34,0.917,709.1072,M*3A
$GPGFA,085957.00,4.575,5.775,0.481,0.336,7.381,0.704,,VVV*03
$GPLLK,085957.00,010125,,M,,M,1,34,0.9,,M*03
$GNGMP,085957.00,,,,,DAAA,34,0.5,,,,*52
$GPGMP,085957.00,,,,,,09,,,,3.0,136*75
$GLGMP,085957.00,,,,,,06,,,,,*7F
$GAGMP,085957.00,,,,,,07,,,,,*73
$GBGMP,085957.00,,,,,,12,,,,,*74
$PSSN,SNC,[0,291615000,2347]*4C
$GPZDA,090002.00,01,01,2025,,*68
$GPDTM,W84,,00.0000000,N,00.0000000,E,00.0000000,W84*5F
$PSSN,TFM,090002.00,,,,*64
$GPRMC,090002.00,A,4742.1601351,N,01618.1002980,E,0.0,,010125,5.1,E,D*1E
$GPGLL,4742.1601351,N,01618.1002980,E,090002.00,A,D*6F
$GPGGA,090002.00,4742.1601351,N,01618.1002980,E,2,34,0.5,709.1081,M,43.2066,M,1.8,0136*4E
$GNGNS,090002.00,4742.1601351,N,01618.1002980,E,DAAA,34,0.5,709.1081,43.2066,,*5F
$GPGNS,090002.00,,,,,,09,,,,1.8,136*72
$GLGNS,090002.00,,,,,,06,,,,,*72
$GAGNS,090002.00,,,,,,07,,,,,*7E
$GBGNS,090002.00,,,,,,12,,,,,*79
$GPLLQ,090002.00,010125,,M,,M,1,34,0.919,,M*1C
$GPVTG,,T,,M,0.01,N,0.01,K,D*26
$GPHDT,,T*1B
$GPTHS,,V*0E
$GPROT,,V*08
$PSSN,HRP,090002.00,010125,,,,,,,00,0,,*6A
$PTNL,AVR,090002.00,,Yaw,,Tilt,,,,0,,00*3C
$GPGSA,A,3,05,13,14,15,17,20,23,24,30,,,,0.8,0.5,0.6*3F
$GPGSA,A,3,65,66,72,74,75,76,,,,,,,0.8,0.5,0.6*3F
$GPGSA,A,3,02,03,05,08,24,25,26,,,,,,0.8,0.5,0.6*30
$GPGSA,A,3,05,07,10,14,21,22,26,36,40,42,45,60,0.8,0.5,0.6*38
$GPGST,090002.00,2.093,0.482,0.334,7.675,0.480,0.337,0.708*59
$GPGBS,090002.00,3.240,2.240,4.600,72,0.0001,6.125,6.411*51
$GPGRS,090002.00,1,-0.5,0.2,0.3,-0.4,-0.1,0.3,-0.0,0.2,-0.1,,,*47
$GPGRS,090002.00,1,-1.8,-3.1,6.1,5.6,-3.2,-2.9,,,,,,*40
$GPGRS,090002.00,1,-1.1,-0.3,0.6,-0.3,0.2,-0.1,0.4,,,,,*6A
$GPGRS,090002.00,1,1.7,0.0,-0.1,1.9,-0.8,0.8,-0.3,-0.4,-1.4,-0.3,-1.8,-1.1*42
$GPGSV,6,1,22,13,89,235,49,23,16,323,40,24,16,271,39,05,30,219,44*77
$GPGSV,6,2,22,17,19,124,41,30,36,077,45,15,53,297,48,22,69,137,*7E
$GPGSV,6,3,22,14,63,080,48,19,04,149,,07,03,081,37,08,01,021,28*71
$GPGSV,6,4,22,20,06,196,37,36,35,170,45,58,13,245,36,40,23,133,36*79
$GPGSV,6,5,22,34,31,208,43,49,34,195,44,57,07,112,37,41,07,108,35*7B
$GPGSV,6,6,22,61,03,257,38*46
$GLGSV,3,1,10,65,68,179,50,74,10,046,38,72,12,153,41,76,51,236,52*6B
$GLGSV,3,2,10,66,52,318,52,75,62,034,51,67,02,328,,77,06,230,*67
$GLGSV,3,3,10,83,08,354,31,84,07,053,*6A
$GAGSV,3,1,11,03,70,135,49,24,20,045,40,05,18,128,40,16,45,057,*62
$GAGSV,3,2,11,02,45,193,47,08,54,303,47,25,65,086,48,13,00,275,19*64
$GAGSV,3,3,11,07,04,306,36,26,05,322,37,33,00,007,29*51
$GBGSV,5,1,20,45,67,060,50,22,12,160,42,05,20,130,37,36,16,060,41*6C
$GBGSV,5,2,20,14,27,314,42,40,28,053,44,56,26,086,,07,28,063,41*62
$GBGSV,5,3,20,10,34,077,41,21,56,195,51,42,51,295,49,24,49,225,*6A
$GBGSV,5,4,20,26,53,242,49,50,64,247,,29,02,058,,33,05,324,*61
$GBGSV,5,5,20,02,04,109,32,09,05,082,34,25,02,232,,60,07,112,40*66
$GPGGA,090002.00,,,,,0,00,,,M,,M,,*43
$PTNL,GGK,090002.00,010125,4742.1601351,N,01618.1002980,E,1,34,0.8,EHT752.3147,M*47
$GPGGQ,090002.00,010125,4742.1601351,N,01618.1002980,E,1,34,0.919,709.1081,M*37
$GPGFA,090002.00,4.581,5.802,0.482,0.334,7.675,0.708,,VVV*09
$GPLLK,090002.00,010125,,M,,M,1,34,0.9,,M*0E
$GNGMP,090002.00,,,,,DAAA,34,0.5,,,,*5F
$GPGMP,090002.00,,,,,,09,,,,1.8,136*72
$GLGMP,090002.00,,,,,,06,,,,,*72
$GAGMP,090002.00,,,,,,07,,,,,*7E
$GBGMP,090002.00,,,,,,12,,,,,*79
$PSSN,SNC,[0,291620000,2347]*4A
$GPZDA,090007.00,01,01,2025,,*6D
$GPDTM,W84,,00.0000000,N,00.0000000,E,00.0000000,W84*5F
$PSSN,TFM,090007.00,,,,*61
$GPRMC,090007.00,A,4742.1601350,N,01618.1002939,E,0.0,,010125,5.1,E,D*18
$GPGLL,4742.1601350,N,01618.1002939,E,090007.00,A,D*69
$GPGGA,090007.00,4742.1601350,N,01618.1002939,E,2,34,0.5,709.1104,M,43.2066,M,2.8,0136*47
$GNGNS,090007.00,4742.1601350,N,01618.1002939,E,DAAA,34,0.5,709.1104,43.2066,,*55
$GPGNS,090007.00,,,,,,09,,,,2.8,136*74
$GLGNS,090007.00,,,,,,06,,,,,*77
$GAGNS,090007.00,,,,,,07,,,,,*7B
$GBGNS,090007.00,,,,,,12,,,,,*7C
$GPLLQ,090007.00,010125,,M,,M,1,34,0.919,,M*19
$GPVTG,,T,,M,0.00,N,0.01,K,D*27
$GPHDT,,T*1B
$GPTHS,,V*0E
$GPROT,,V*08
$PSSN,HRP,090007.00,010125,,,,,,,00,0,,*6F
$PTNL,AVR,090007.00,,Yaw,,Tilt,,,,0,,00*39
$GPGSA,A,3,05,13,14,15,17,20,23,24,30,,,,0.8,0.5,0.6*3F
$GPGSA,A,3,65,66,72,74,75,76,,,,,,,0.8,0.5,0.6*3F
$GPGSA,A,3,02,03,05,08,24,25,26,,,,,,0.8,0.5,0.6*30
$GPGSA,A,3,05,07,10,14,21,22,26,36,40,42,45,60,0.8,0.5,0.6*38
$GPGST,090007.00,1.927,0.481,0.332,9.200,0.478,0.336,0.709*53
$GPGBS,090007.00,3.284,2.269,4.657,72,0.0001,6.019,6.412*58
$GPGRS,090007.00,1,-0.4,0.1,0.3,0.0,-0.0,0.9,0.1,-0.3,-0.4,,,*67
$GPGRS,090007.00,1,-2.0,-2.8,6.0,4.6,-2.7,-2.7,,,,,,*4C
$GPGRS,090007.00,1,-1.1,-0.3,0.7,-0.3,0.4,-0.1,0.8,,,,,*64
$GPGRS,090007.00,1,1.8,0.5,-0.4,1.4,-1.0,1.0,-0.5,-0.5,-1.3,-0.4,-1.5,-0.9*46
$GPGSV,6,1,22,13,89,231,49,23,16,323,40,24,16,271,40,17,19,124,41*7D
$GPGSV,6,2,22,05,30,219,45,30,36,077,45,15,53,297,48,22,69,137,*7F
$GPGSV,6,3,22,14,63,080,48,19,04,149,,07,03,081,38,08,01,021,29*7F
$GPGSV,6,4,22,20,06,196,37,36,35,170,44,58,13,245,36,40,23,133,36*78
$GPGSV,6,5,22,34,31,208,43,49,34,195,44,57,07,112,37,41,07,108,35*7B
$GPGSV,6,6,22,61,03,257,38*46
$GLGSV,3,1,10,65,68,179,50,74,10,046,37,72,12,153,41,76,51,236,52*64
$GLGSV,3,2,10,66,52,318,52,75,62,034,51,67,02,328,,77,06,230,*67
$GLGSV,3,3,10,83,08,354,32,84,07,053,*69
$GAGSV,3,1,11,03,70,135,48,24,20,045,40,05,18,128,40,16,44,057,*62
$GAGSV,3,2,11,02,45,193,47,08,54,303,47,25,65,086,48,13,00,275,19*64
$GAGSV,3,3,11,07,04,306,36,26,05,322,37,33,00,007,29*51
$GBGSV,5,1,20,45,67,060,50,22,12,160,42,05,20,130,37,36,16,060,41*6C
$GBGSV,5,2,20,14,27,314,41,40,28,053,44,56,26,086,,07,28,063,41*61
$GBGSV,5,3,20,10,34,077,41,21,56,195,51,42,51,295,48,24,49,225,*6B
$GBGSV,5,4,20,26,53,242,49,50,64,247,,29,02,058,,33,05,324,*61
$GBGSV,5,5,20,02,04,109,32,09,05,082,35,25,02,232,,60,07,112,40*67
$GPGGA,090007.00,,,,,0,00,,,M,,M,,*46
$PTNL,GGK,090007.00,010125,4742.1601350,N,01618.1002939,E,1,34,0.8,EHT752.3169,M*4D
$GPGGQ,090007.00,010125,4742.1601350,N,01618.1002939,E,1,34,0.919,709.1104,M*3D
$GPGFA,090007.00,4.577,5.818,0.481,0.332,9.200,0.709,,VVV*02
$GPLLK,090007.00,010125,,M,,M,1,34,0.9,,M*0B
$GNGMP,090007.00,,,,,DAAA,34,0.5,,,,*5A
$GPGMP,090007.00,,,,,,09,,,,2.8,136*74
$GLGMP,090007.00,,,,,,06,,,,,*77
$GAGMP,090007.00,,,,,,07,,,,,*7B
$GBGMP,090007.00,,,,,,12,,,,,*7C
$PSSN,SNC,[0,291625000,2347]*4F
$GPZDA,090012.00,01,01,2025,,*69
$GPDTM,W84,,00.0000000,N,00.0000000,E,00.0000000,W84*5F
$PSSN,TFM,090012.00,,,,*65
$GPRMC,090012.00,A,4742.1601355,N,01618.1002936,E,0.0,,010125,5.1,E,D*16
$GPGLL,4742.1601355,N,01618.1002936,E,090012.00,A,D*67
$GPGGA,090012.00,4742.1601355,N,01618.1002936,E,2,34,0.5,709.1104,M,43.2066,M,2.4,0136*45
$GNGNS,090012.00,4742.1601355,N,01618.1002936,E,DAAA,34,0.5,709.1104,43.2066,,*5B
$GPGNS,090012.00,,,,,,09,,,,2.4,136*7C
$GLGNS,090012.00,,,,,,06,,,,,*73
$GAGNS,090012.00,,,,,,07,,,,,*7F
$GBGNS,090012.00,,,,,,12,,,,,*78
$GPLLQ,090012.00,010125,,M,,M,1,34,0.922,,M*15
$GPVTG,,T,,M,0.00,N,0.00,K,D*26
$GPHDT,,T*1B
$GPTHS,,V*0E
$GPROT,,V*08
$PSSN,HRP,090012.00,010125,,,,,,,00,0,,*6B
$PTNL,AVR,090012.00,,Yaw,,Tilt,,,,0,,00*3D
$GPGSA,A,3,05,13,14,15,17,20,23,24,30,,,,0.8,0.5,0.6*3F
$GPGSA,A,3,65,66,72,74,75,76,,,,,,,0.8,0.5,0.6*3F
$GPGSA,A,3,02,03,05,08,24,25,26,,,,,,0.8,0.5,0.6*30
$GPGSA,A,3,05,07,10,14,21,22,26,36,40,42,45,60,0.8,0.5,0.6*38
$GPGST,090012.00,2.038,0.483,0.335,8.759,0.481,0.339,0.710*5F
$GPGBS,090012.00,3.262,2.211,4.643,72,0.0001,6.354,6.413*55
$GPGRS,090012.00,1,-0.1,0.0,0.0,-0.0,0.6,-0.4,0.4,0.2,-0.5,,,*6A
$GPGRS,090012.00,1,-0.9,-2.6,6.4,5.0,-3.7,-3.1,,,,,,*48
$GPGRS,090012.00,1,-0.6,-0.4,0.7,-0.3,0.5,0.1,-0.4,,,,,*6C
$GPGRS,090012.00,1,1.7,0.9,-0.6,1.4,-0.9,0.8,-0.5,-0.4,-1.5,-0.2,-1.5,-0.9*43
$GPGSV,6,1,22,13,89,229,49,23,16,323,41,24,16,271,40,17,19,123,42*71
$GPGSV,6,2,22,05,30,219,45,30,36,077,45,15,53,297,48,22,69,137,*7F
$GPGSV,6,3,22,14,63,080,48,19,04,149,,07,03,081,37,08,01,021,28*71
$GPGSV,6,4,22,20,06,196,37,36,35,170,44,58,13,245,36,40,23,133,36*78
$GPGSV,6,5,22,34,31,208,43,49,34,195,44,57,07,112,37,41,07,108,35*7B
$GPGSV,6,6,22,61,03,257,38*46
$GLGSV,3,1,10,65,67,179,50,74,10,046,37,72,12,153,41,76,51,236,52*6B
$GLGSV,3,2,10,66,52,318,52,75,62,034,51,67,02,328,,77,06,230,*67
$GLGSV,3,3,10,83,08,354,34,84,07,053,*6F
$GAGSV,3,1,11,03,70,135,48,24,20,045,40,05,18,128,39,16,44,057,*6C
$GAGSV,3,2,11,02,45,193,47,08,54,303,47,25,65,086,48,13,00,275,20*6E
$GAGSV,3,3,11,07,04,306,36,26,05,322,37,33,00,006,29*50
$GBGSV,5,1,20,45,66,060,50,22,12,160,42,05,20,130,37,36,16,060,41*6D
$GBGSV,5,2,20,14,27,314,42,40,28,053,44,56,26,086,,07,28,063,41*62
$GBGSV,5,3,20,10,34,077,41,21,56,195,51,42,51,295,48,24,50,225,*63
$GBGSV,5,4,20,26,53,242,49,50,64,247,,29,02,058,,33,05,324,*61
$GBGSV,5,5,20,02,04,109,32,09,05,082,35,25,02,232,,60,07,112,40*67
$GPGGA,090012.00,,,,,0,00,,,M,,M,,*42
$PTNL,GGK,090012.00,010125,4742.1601355,N,01618.1002936,E,1,34,0.8,EHT752.3169,M*43
$GPGGQ,090012.00,010125,4742.1601355,N,01618.1002936,E,1,34,0.922,709.1104,M*3B
$GPGFA,090012.00,4.597,5.825,0.483,0.335,8.759,0.710,,VVV*03
$GPLLK,090012.00,010125,,M,,M,1,34,0.9,,M*0F
$GNGMP,090012.00,,,,,DAAA,34,0.5,,,,*5E
$GPGMP,090012.00,,,,,,09,,,,2.4,136*7C
$GLGMP,090012.00,,,,,,06,,,,,*73
$GAGMP,090012.00,,,,,,07,,,,,*7F
$GBGMP,090012.00,,,,,,12,,,,,*78
$PSSN,SNC,[0,291630000,2347]*4B
$GPZDA,090017.00,01,01,2025,,*6C
$GPDTM,W84,,00.0000000,N,00.0000000,E,00.0000000,W84*5F
$PSSN,TFM,090017.00,,,,*60
$GPRMC,090017.00,A,4742.1601363,N,01618.1002923,E,0.0,,010125,5.1,E,D*12
$GPGLL,4742.1601363,N,01618.1002923,E,090017.00,A,D*63
$GPGGA,090017.00,4742.1601363,N,01618.1002923,E,2,35,0.4,709.1139,M,43.2066,M,3.0,0136*4A
$GNGNS,090017.00,4742.1601363,N,01618.1002923,E,DAAA,35,0.4,709.1139,43.2066,,*51
$GPGNS,090017.00,,,,,,09,,,,3.0,136*7C
$GLGNS,090017.00,,,,,,06,,,,,*76
$GAGNS,090017.00,,,,,,07,,,,,*7A
$GBGNS,090017.00,,,,,,13,,,,,*7C
$GPLLQ,090017.00,010125,,M,,M,1,35,0.917,,M*17
$GPVTG,,T,,M,0.00,N,0.01,K,D*27
$GPHDT,,T*1B
$GPTHS,,V*0E
$GPROT,,V*08
$PSSN,HRP,090017.00,010125,,,,,,,00,0,,*6E
$PTNL,AVR,090017.00,,Yaw,,Tilt,,,,0,,00*38
$GPGSA,A,3,05,13,14,15,17,20,23,24,30,,,,0.7,0.4,0.6*31
$GPGSA,A,3,65,66,72,74,75,76,,,,,,,0.7,0.4,0.6*31
$GPGSA,A,3,02,03,05,08,24,25,26,,,,,,0.7,0.4,0.6*3E
$GPGSA,A,3,05,07,09,10,14,21,22,26,36,40,42,45,0.7,0.4,0.6*39
$GPGSA,A,3,60,,,,,,,,,,,,0.7,0.4,0.6*31
$GPGST,090017.00,2.063,0.482,0.336,7.292,0.480,0.338,0.704*5E
$GPGBS,090017.00,3.273,2.249,4.701,72,0.0001,5.769,6.415*55
$GPGRS,090017.00,1,-0.2,0.1,-0.0,-0.3,0.9,0.4,0.4,0.2,-0.4,,,*60
$GPGRS,090017.00,1,-0.6,-2.2,5.8,5.2,-3.6,-3.5,,,,,,*4E
$GPGRS,090017.00,1,-0.9,-0.3,0.8,-0.2,0.7,0.0,-0.5,,,,,*6D
$GPGRS,090017.00,1,1.9,0.9,2.7,-0.2,2.7,-0.5,0.8,-0.2,-0.2,-1.7,-0.3,-0.8*6F
$GPGRS,090017.00,1,-1.0,,,,,,,,,,,*43
$GPGSV,6,1,22,13,89,226,49,23,16,323,41,24,16,271,40,17,19,123,42*7E
$GPGSV,6,2,22,05,30,219,45,30,35,077,45,15,53,297,49,22,69,137,*7D
$GPGSV,6,3,22,14,63,080,48,19,04,149,,07,03,081,37,08,01,021,28*71
$GPGSV,6,4,22,20,06,196,37,36,35,170,44,58,13,245,36,40,23,133,36*78
$GPGSV,6,5,22,34,31,208,42,49,34,195,44,57,07,112,37,41,07,108,35*7A
$GPGSV,6,6,22,61,03,257,38*46
$GLGSV,3,1,10,65,67,179,50,74,10,046,37,72,12,154,41,76,51,237,52*6D
$GLGSV,3,2,10,66,52,318,52,75,62,034,51,67,03,328,,77,06,230,*66
$GLGSV,3,3,10,83,08,354,33,84,07,053,*68
$GAGSV,3,1,11,03,70,136,48,24,20,045,40,05,18,128,39,16,44,057,*6F
$GAGSV,3,2,11,02,45,193,46,08,54,303,47,25,65,086,48,13,00,275,19*65
$GAGSV,3,3,11,07,04,306,37,26,05,322,37,33,00,006,28*50
$GBGSV,5,1,20,45,66,060,50,22,12,160,41,05,20,130,38,36,16,060,41*61
$GBGSV,5,2,20,14,27,314,42,40,28,053,44,56,26,086,,07,28,063,41*62
$GBGSV,5,3,20,10,34,077,41,21,56,195,51,42,51,295,49,24,50,225,*62
$GBGSV,5,4,20,26,53,242,49,50,64,246,,29,02,058,,33,05,324,*60
$GBGSV,5,5,20,02,04,109,32,09,05,082,35,25,02,232,,60,07,112,40*67
$GPGGA,090017.00,,,,,0,00,,,M,,M,,*47
$PTNL,GGK,090017.00,010125,4742.1601363,N,01618.1002923,E,1,35,0.7,EHT752.3204,M*41
$GPGGQ,090017.00,010125,4742.1601363,N,01618.1002923,E,1,35,0.917,709.1139,M*36
$GPGFA,090017.00,4.581,5.772,0.482,0.336,7.292,0.704,,VVV*06
$GPLLK,090017.00,010125,,M,,M,1,35,0.8,,M*0A
$GNGMP,090017.00,,,,,DAAA,35,0.4,,,,*5B
$GPGMP,090017.00,,,,,,09,,,,3.0,136*7C
$GLGMP,090017.00,,,,,,06,,,,,*76
$GAGMP,090017.00,,,,,,07,,,,,*7A
$GBGMP,090017.00,,,,,,13,,,,,*7C
$PSSN,SNC,[0,291635000,2347]*4E
$GPZDA,090022.00,01,01,2025,,*6A
$GPDTM,W84,,00.0000000,N,00.0000000,E,00.0000000,W84*5F
$PSSN,TFM,090022.00,,,,*66
$GPRMC,090022.00,A,4742.1601349,N,01618.1002911,E,0.0,,010125,5.1,E,D*1D
$GPGLL,4742.1601349,N,01618.1002911,E,090022.00,A,D*6C
$GPGGA,090022.00,4742.1601349,N,01618.1002911,E,2,35,0.4,709.1199,M,43.2066,M,1.8,0136*45
$GNGNS,090022.00,4742.1601349,N,01618.1002911,E,DAAA,35,0.4,709.1199,43.2066,,*54
$GPGNS,090022.00,,,,,,09,,,,1.8,136*70
$GLGNS,090022.00,,,,,,06,,,,,*70
$GAGNS,090022.00,,,,,,07,,,,,*7C
$GBGNS,090022.00,,,,,,13,,,,,*7A
$GPLLQ,090022.00,010125,,M,,M,1,35,0.919,,M*1F
$GPVTG,,T,,M,0.01,N,0.01,K,D*26
$GPHDT,,T*1B
$GPTHS,,V*0E
$GPROT,,V*08
$PSSN,HRP,090022.00,010125,,,,,,,00,0,,*68
$PTNL,AVR,090022.00,,Yaw,,Tilt,,,,0,,00*3E
$GPGSA,A,3,05,13,14,15,17,20,23,24,30,,,,0.7,0.4,0.6*31
$GPGSA,A,3,65,66,72,74,75,76,,,,,,,0.7,0.4,0.6*31
$GPGSA,A,3,02,03,05,08,24,25,26,,,,,,0.7,0.4,0.6*3E
$GPGSA,A,3,05,07,09,10,14,21,22,26,36,40,42,45,0.7,0.4,0.6*39
$GPGSA,A,3,60,,,,,,,,,,,,0.7,0.4,0.6*31
$GPGST,090022.00,2.134,0.482,0.333,7.591,0.480,0.337,0.707*56
$GPGBS,090022.00,3.243,2.232,4.599,72,0.0001,5.805,6.415*5A
$GPGRS,090022.00,1,-0.4,0.3,0.2,-0.2,0.2,-0.0,-0.1,0.5,-0.6,,,*43
$GPGRS,090022.00,1,-1.6,-2.2,5.8,5.9,-3.8,-3.5,,,,,,*4C
$GPGRS,090022.00,1,-0.9,-0.2,0.8,0.0,0.9,0.0,0.1,,,,,*62
$GPGRS,090022.00,1,1.7,1.0,2.9,0.1,1.9,-0.3,0.8,-0.2,0.0,-1.8,-0.1,-1.0*6F
$GPGRS,090022.00,1,-1.0,,,,,,,,,,,*45
$GPGSV,6,1,22,13,89,222,49,23,16,323,40,24,16,271,40,17,19,123,42*7B
$GPGSV,6,2,22,05,30,219,45,30,35,077,45,15,53,297,49,22,69,136,*7C
$GPGSV,6,3,22,14,63,080,48,19,05,149,,07,03,081,37,08,01,021,27*7F
$GPGSV,6,4,22,20,06,196,37,36,35,170,45,58,13,245,36,40,23,133,36*79
$GPGSV,6,5,22,34,31,208,43,49,34,195,44,57,07,112,37,41,07,108,35*7B
$GPGSV,6,6,22,61,03,257,38*46
$GLGSV,3,1,10,65,67,179,49,74,10,046,38,72,12,154,41,76,51,237,51*69
$GLGSV,3,2,10,66,52,318,51,75,62,034,51,67,03,328,,77,06,230,*65
$GLGSV,3,3,10,83,08,354,33,84,07,053,*68
$GAGSV,3,1,11,03,70,136,48,24,20,045,40,05,18,128,39,16,44,056,*6E
$GAGSV,3,2,11,02,45,193,46,08,54,303,47,25,65,086,48,13,00,275,*6D
$GAGSV,3,3,11,07,04,306,37,26,05,322,37,33,00,006,28*50
$GBGSV,5,1,20,45,66,060,50,22,12,160,41,05,20,130,37,36,16,060,41*6E
$GBGSV,5,2,20,14,27,314,41,40,28,053,43,56,26,086,,07,28,063,42*65
$GBGSV,5,3,20,10,34,077,41,21,56,195,51,42,51,294,49,24,50,225,*63
$GBGSV,5,4,20,26,53,242,49,50,64,246,,29,02,058,,33,05,324,*60
$GBGSV,5,5,20,02,04,109,32,09,05,082,35,25,02,232,,60,07,112,40*67
$GPGGA,090022.00,,,,,0,00,,,M,,M,,*41
$PTNL,GGK,090022.00,010125,4742.1601349,N,01618.1002911,E,1,35,0.7,EHT752.3265,M*49
$GPGGQ,090022.00,010125,4742.1601349,N,01618.1002911,E,1,35,0.919,709.1199,M*3D
$GPGFA,090022.00,4.587,5.800,0.482,0.333,7.591,0.707,,VVV*0E
$GPLLK,090022.00,010125,,M,,M,1,35,0.8,,M*0C
$GNGMP,090022.00,,,,,DAAA,35,0.4,,,,*5D
$GPGMP,090022.00,,,,,,09,,,,1.8,136*70
$GLGMP,090022.00,,,,,,06,,,,,*70
$GAGMP,090022.00,,,,,,07,,,,,*7C
$GBGMP,090022.00,,,,,,13,,,,,*7A
$PSSN,SNC,[0,291640000,2347]*4C
$GPZDA,090027.00,01,01,2025,,*6F
$GPDTM,W84,,00.0000000,N,00.0000000,E,00.0000000,W84*5F
$PSSN,TFM,090027.00,,,,*63
$GPRMC,090027.00,A,4742.1601361,N,01618.1002928,E,0.0,,010125,5.1,E,D*18
$GPGLL,4742.1601361,N,01618.1002928,E,090027.00,A,D*69
$GPGGA,090027.00,4742.1601361,N,01618.1002928,E,2,35,0.4,709.1205,M,43.2066,M,2.8,0136*45
$GNGNS,090027.00,4742.1601361,N,01618.1002928,E,DAAA,35,0.4,709.1205,43.2066,,*57
$GPGNS,090027.00,,,,,,09,,,,2.8,136*76
$GLGNS,090027.00,,,,,,06,,,,,*75
$GAGNS,090027.00,,,,,,07,,,,,*79
$GBGNS,090027.00,,,,,,13,,,,,*7F
$GPLLQ,090027.00,010125,,M,,M,1,35,0.919,,M*1A
$GPVTG,,T,,M,0.01,N,0.01,K,D*26
$GPHDT,,T*1B
$GPTHS,,V*0E
$GPROT,,V*08
$PSSN,HRP,090027.00,010125,,,,,,,00,0,,*6D
$PTNL,AVR,090027.00,,Yaw,,Tilt,,,,0,,00*3B
$GPGSA,A,3,05,13,14,15,17,20,23,24,30,,,,0.7,0.4,0.6*31
$GPGSA,A,3,65,66,72,74,75,76,,,,,,,0.7,0.4,0.6*31
$GPGSA,A,3,02,03,05,08,24,25,26,,,,,,0.7,0.4,0.6*3E
$GPGSA,A,3,05,07,09,10,14,21,22,26,36,40,42,45,0.7,0.4,0.6*39
$GPGSA,A,3,60,,,,,,,,,,,,0.7,0.4,0.6*31
$GPGST,090027.00,2.070,0.482,0.331,9.009,0.479,0.335,0.709*50
$GPGBS,090027.00,3.283,2.263,4.658,72,0.0001,5.734,6.415*54
$GPGRS,090027.00,1,-0.5,0.3,0.1,-0.1,0.6,0.1,0.1,-0.1,-0.6,,,*6B
$GPGRS,090027.00,1,-1.1,-2.4,5.7,5.9,-3.4,-3.1,,,,,,*4F
$GPGRS,090027.00,1,-0.7,-0.1,1.0,-0.1,0.8,-0.0,0.7,,,,,*65
$GPGRS,090027.00,1,1.6,1.3,2.9,0.0,1.4,-0.4,1.2,-0.2,0.0,-1.7,-0.1,-0.8*6E
$GPGRS,090027.00,1,-0.9,,,,,,,,,,,*48
$GPGSV,6,1,22,13,89,220,49,17,19,123,42,23,16,323,40,24,16,271,40*79
$GPGSV,6,2,22,05,30,219,45,30,35,077,45,15,53,297,48,14,63,080,48*72
$GPGSV,6,3,22,22,69,136,,20,06,196,37,08,01,021,26,19,05,149,*76
$GPGSV,6,4,22,07,03,081,36,36,35,170,44,58,13,245,36,40,23,133,36*7E
$GPGSV,6,5,22,34,31,208,42,49,34,195,44,57,07,112,37,41,07,108,35*7A
$GPGSV,6,6,22,61,03,257,38*46
$GLGSV,3,1,10,65,67,179,50,74,10,046,39,72,12,154,41,76,51,237,51*60
$GLGSV,3,2,10,66,52,318,52,75,62,034,51,67,03,328,,77,06,230,*66
$GLGSV,3,3,10,83,08,354,33,84,07,053,*68
$GAGSV,3,1,11,03,70,136,49,24,20,045,40,05,18,128,40,16,44,056,*61
$GAGSV,3,2,11,02,45,193,47,08,54,303,47,25,65,086,48,13,00,275,*6C
$GAGSV,3,3,11,07,04,306,37,26,05,322,38,33,01,006,27*51
$GBGSV,5,1,20,45,66,060,50,22,12,160,41,05,20,130,37,36,16,060,42*6D
$GBGSV,5,2,20,14,27,314,42,40,28,053,43,56,26,086,,07,28,063,41*65
$GBGSV,5,3,20,10,34,077,41,21,56,195,51,42,51,294,49,24,50,225,*63
$GBGSV,5,4,20,26,53,242,49,50,64,246,,29,02,058,,33,05,324,*60
$GBGSV,5,5,20,02,04,109,33,09,05,082,35,25,02,232,,60,07,112,40*66
$GPGGA,090027.00,,,,,0,00,,,M,,M,,*44
$PTNL,GGK,090027.00,010125,4742.1601361,N,01618.1002928,E,1,35,0.7,EHT752.3271,M*49
$GPGGQ,090027.00,010125,4742.1601361,N,01618.1002928,E,1,35,0.919,709.1205,M*3E
$GPGFA,090027.00,4.582,5.813,0.482,0.331,9.009,0.709,,VVV*0A
$GPLLK,090027.00,010125,,M,,M,1,35,0.8,,M*09
$GNGMP,090027.00,,,,,DAAA,35,0.4,,,,*58
$GPGMP,090027.00,,,,,,09,,,,2.8,136*76
$GLGMP,090027.00,,,,,,06,,,,,*75
$GAGMP,090027.00,,,,,,07,,,,,*79
$GBGMP,090027.00,,,,,,13,,,,,*7F
$PSSN,SNC,[0,291645000,2347]*49
$GPZDA,090032.00,01,01,2025,,*6B
$GPDTM,W84,,00.0000000,N,00.0000000,E,00.0000000,W84*5F
$PSSN,TFM,090032.00,,,,*67
$GPRMC,090032.00,A,4742.1601395,N,01618.1002899,E,0.0,,010125,5.1,E,D*1C
$GPGLL,4742.1601395,N,01618.1002899,E,090032.00,A,D*6D
$GPGGA,090032.00,4742.1601395,N,01618.1002899,E,2,34,0.5,709.1197,M,43.2066,M,2.4,0136*45
$GNGNS,090032.00,4742.1601395,N,01618.1002899,E,DAAA,34,0.5,709.1197,43.2066,,*5B
$GPGNS,090032.00,,,,,,09,,,,2.4,136*7E
$GLGNS,090032.00,,,,,,06,,,,,*71
$GAGNS,090032.00,,,,,,07,,,,,*7D
$GBGNS,090032.00,,,,,,12,,,,,*7A
$GPLLQ,090032.00,010125,,M,,M,1,34,0.918,,M*1E
$GPVTG,,T,,M,0.00,N,0.01,K,D*27
$GPHDT,,T*1B
$GPTHS,,V*0E
$GPROT,,V*08
$PSSN,HRP,090032.00,010125,,,,,,,00,0,,*69
$PTNL,AVR,090032.00,,Yaw,,Tilt,,,,0,,00*3F
$GPGSA,A,3,05,13,14,15,17,20,23,24,30,,,,0.8,0.5,0.6*3F
$GPGSA,A,3,65,66,72,74,75,76,,,,,,,0.8,0.5,0.6*3F
$GPGSA,A,3,02,03,05,08,24,25,26,,,,,,0.8,0.5,0.6*30
$GPGSA,A,3,05,07,10,14,21,22,26,36,40,42,45,60,0.8,0.5,0.6*38
$GPGST,090032.00,2.092,0.483,0.330,8.946,0.480,0.335,0.706*52
$GPGBS,090032.00,3.260,2.153,4.634,72,0.0001,6.541,6.417*56
$GPGRS,090032.00,1,-0.0,0.5,-0.0,-0.3,0.6,0.2,-0.0,-0.1,-0.8,,,*63
$GPGRS,090032.00,1,-0.7,-2.2,6.5,5.8,-3.5,-2.9,,,,,,*42
$GPGRS,090032.00,1,-0.4,-0.0,0.7,-0.1,0.6,0.1,1.2,,,,,*43
$GPGRS,090032.00,1,1.4,0.8,0.8,2.0,-0.4,0.9,-0.1,0.1,-1.6,-0.0,-0.7,-1.0*4D
$GPGSV,6,1,22,13,89,217,49,17,19,123,42,23,16,323,40,24,16,271,41*7C
$GPGSV,6,2,22,05,30,219,45,30,35,077,45,15,53,297,48,14,63,080,48*72
$GPGSV,6,3,22,22,69,136,,20,06,196,37,08,01,021,25,19,05,149,*75
$GPGSV,6,4,22,07,03,081,36,36,35,170,44,58,13,245,36,40,23,133,36*7E
$GPGSV,6,5,22,34,31,208,42,49,34,195,44,57,07,112,37,41,07,108,35*7A
$GPGSV,6,6,22,61,03,257,38*46
$GLGSV,3,1,10,65,67,179,49,74,10,046,39,72,12,154,41,76,51,237,52*6B
$GLGSV,3,2,10,66,53,318,52,75,62,034,51,67,03,328,,77,06,231,*66
$GLGSV,3,3,10,83,08,354,33,84,07,053,*68
$GAGSV,3,1,11,03,70,136,49,24,20,045,40,05,18,128,40,16,44,056,*61
$GAGSV,3,2,11,02,45,193,47,08,54,303,47,25,65,086,48,13,00,275,*6C
$GAGSV,3,3,11,07,04,306,37,26,05,322,38,33,01,006,29*5F
$GBGSV,5,1,20,45,66,060,50,22,12,160,41,05,20,130,37,36,16,060,41*6E
$GBGSV,5,2,20,14,28,314,42,40,28,053,43,56,26,086,,07,28,063,41*6A
$GBGSV,5,3,20,10,34,077,41,21,56,195,51,42,51,294,48,24,50,225,*62
$GBGSV,5,4,20,26,53,242,49,50,64,246,,29,02,058,,33,05,324,*60
$GBGSV,5,5,20,02,04,109,32,09,05,082,35,25,02,232,,60,07,112,40*67
$GPGGA,090032.00,,,,,0,00,,,M,,M,,*40
$PTNL,GGK,090032.00,010125,4742.1601395,N,01618.1002899,E,1,34,0.8,EHT752.3262,M*41
$GPGGQ,090032.00,010125,4742.1601395,N,01618.1002899,E,1,34,0.918,709.1197,M*32
$GPGFA,090032.00,4.596,5.793,0.483,0.330,8.946,0.706,,VVV*00
$GPLLK,090032.00,010125,,M,,M,1,34,0.9,,M*0D
$GNGMP,090032.00,,,,,DAAA,34,0.5,,,,*5C
$GPGMP,090032.00,,,,,,09,,,,2.4,136*7E
$GLGMP,090032.00,,,,,,06,,,,,*71
$GAGMP,090032.00,,,,,,07,,,,,*7D
$GBGMP,090032.00,,,,,,12,,,,,*7A
$PSSN,SNC,[0,291650000,2347]*4D
$GPZDA,090037.00,01,01,2025,,*6E
$GPDTM,W84,,00.0000000,N,00.0000000,E,00.0000000,W84*5F
$PSSN,TFM,090037.00,,,,*62
$GPRMC,090037.00,A,4742.1601401,N,01618.1002898,E,0.0,,010125,5.1,E,D*12
$GPGLL,4742.1601401,N,01618.1002898,E,090037.00,A,D*63
$GPGGA,090037.00,4742.1601401,N,01618.1002898,E,2,34,0.5,709.1208,M,43.2066,M,3.0,0136*4B
$GNGNS,090037.00,4742.1601401,N,01618.1002898,E,DAAA,34,0.5,709.1208,43.2066,,*50
$GPGNS,090037.00,,,,,,09,,,,3.0,136*7E
$GLGNS,090037.00,,,,,,06,,,,,*74
$GAGNS,090037.00,,,,,,07,,,,,*78
$GBGNS,090037.00,,,,,,12,,,,,*7F
$GPLLQ,090037.00,010125,,M,,M,1,34,0.912,,M*11
$GPVTG,,T,,M,0.00,N,0.01,K,D*27
$GPHDT,,T*1B
$GPTHS,,V*0E
$GPROT,,V*08
$PSSN,HRP,090037.00,010125,,,,,,,00,0,,*6C
$PTNL,AVR,090037.00,,Yaw,,Tilt,,,,0,,00*3A
$GPGSA,A,3,05,13,14,15,17,20,23,24,30,,,,0.8,0.5,0.6*3F
$GPGSA,A,3,65,66,72,74,75,76,,,,,,,0.8,0.5,0.6*3F
$GPGSA,A,3,02,03,05,08,24,25,26,,,,,,0.8,0.5,0.6*30
$GPGSA,A,3,05,07,10,14,21,22,26,36,40,42,45,60,0.8,0.5,0.6*38
$GPGST,090037.00,1.966,0.482,0.331,7.574,0.479,0.334,0.700*55
$GPGBS,090037.00,3.271,2.196,4.698,72,0.0001,5.773,6.419*52
$GPGRS,090037.00,1,-0.2,0.3,0.1,-0.4,0.4,0.4,0.3,0.6,-0.7,,,*46
$GPGRS,090037.00,1,-1.3,-2.4,5.8,5.1,-3.7,-3.1,,,,,,*48
$GPGRS,090037.00,1,-0.6,-0.3,0.6,-0.0,0.5,0.1,0.4,,,,,*43
$GPGRS,090037.00,1,1.2,-0.1,0.8,2.1,-0.3,0.8,-0.2,-0.2,-1.4,-0.2,-1.1,-1.3*44
$GPGSV,6,1,22,13,89,214,49,17,19,123,43,23,16,323,40,24,16,271,40*7F
$GPGSV,6,2,22,05,29,219,45,30,35,077,45,15,53,297,48,14,63,080,48*7A
$GPGSV,6,3,22,22,69,136,,20,06,196,37,08,01,021,26,19,05,149,*76
$GPGSV,6,4,22,07,03,081,37,36,35,170,44,58,13,245,36,40,23,133,36*7F
$GPGSV,6,5,22,34,31,208,42,49,34,195,44,57,07,112,37,41,07,108,35*7A
$GPGSV,6,6,22,61,03,257,38*46
$GLGSV,3,1,10,65,67,179,49,74,10,046,39,72,12,154,41,76,51,237,51*68
$GLGSV,3,2,10,66,53,318,52,75,62,034,51,67,03,328,,77,06,231,*66
$GLGSV,3,3,10,83,08,354,33,84,07,053,*68
$GAGSV,3,1,11,03,70,136,49,24,20,045,40,05,18,128,39,16,44,056,*6F
$GAGSV,3,2,11,02,45,193,47,08,54,303,47,25,65,086,48,13,00,275,*6C
$GAGSV,3,3,11,07,04,306,36,26,05,322,38,33,01,006,29*5E
$GBGSV,5,1,20,45,66,060,50,22,12,160,41,05,20,130,37,36,16,060,41*6E
$GBGSV,5,2,20,14,28,314,42,40,28,053,43,56,26,086,,07,28,063,41*6A
$GBGSV,5,3,20,10,34,077,41,21,56,195,51,42,51,294,49,24,50,225,*63
$GBGSV,5,4,20,26,53,242,49,50,64,246,,29,02,058,,33,05,324,*60
$GBGSV,5,5,20,02,04,109,32,09,05,082,34,25,02,232,,60,07,112,40*66
$GPGGA,090037.00,,,,,0,00,,,M,,M,,*45
$PTNL,GGK,090037.00,010125,4742.1601401,N,01618.1002898,E,1,34,0.8,EHT752.3274,M*48
$GPGGQ,090037.00,010125,4742.1601401,N,01618.1002898,E,1,34,0.912,709.1208,M*33
$GPGFA,090037.00,4.579,5.743,0.482,0.331,7.574,0.700,,VVV*0D
$GPLLK,090037.00,010125,,M,,M,1,34,0.9,,M*08
$GNGMP,090037.00,,,,,DAAA,34,0.5,,,,*59
$GPGMP,090037.00,,,,,,09,,,,3.0,136*7E
$GLGMP,090037.00,,,,,,06,,,,,*74
$GAGMP,090037.00,,,,,,07,,,,,*78
$GBGMP,090037.00,,,,,,12,,,,,*7F
$PSSN,SNC,[0,291655000,2347]*48
$GPZDA,090042.00,01,01,2025,,*6C
$GPDTM,W84,,00.0000000,N,00.0000000,E,00.0000000,W84*5F
$PSSN,TFM,090042.00,,,,*60
$GPRMC,090042.00,A,4742.1601422,N,01618.1002891,E,0.0,,010125,5.1,E,D*18
$GPGLL,4742.1601422,N,01618.1002891,E,090042.00,A,D*69
$GPGGA,090042.00,4742.1601422,N,01618.1002891,E,2,34,0.5,709.1265,M,43.2066,M,1.8,0136*40
$GNGNS,090042.00,4742.1601422,N,01618.1002891,E,DAAA,34,0.5,709.1265,43.2066,,*51
$GPGNS,090042.00,,,,,,09,,,,1.8,136*76
$GLGNS,090042.00,,,,,,06,,,,,*76
$GAGNS,090042.00,,,,,,07,,,,,*7A
$GBGNS,090042.00,,,,,,12,,,,,*7D
$GPLLQ,090042.00,010125,,M,,M,1,34,0.914,,M*15
$GPVTG,,T,,M,0.00,N,0.01,K,D*27
$GPHDT,,T*1B
$GPTHS,,V*0E
$GPROT,,V*08
$PSSN,HRP,090042.00,010125,,,,,,,00,0,,*6E
$PTNL,AVR,090042.00,,Yaw,,Tilt,,,,0,,00*38
$GPGSA,A,3,05,13,14,15,17,20,23,24,30,,,,0.8,0.5,0.6*3F
$GPGSA,A,3,65,66,72,74,75,76,,,,,,,0.8,0.5,0.6*3F
$GPGSA,A,3,02,03,05,08,24,25,26,,,,,,0.8,0.5,0.6*30
$GPGSA,A,3,05,07,10,14,21,22,26,36,40,42,45,60,0.8,0.5,0.6*38
$GPGST,090042.00,1.936,0.482,0.329,7.893,0.480,0.332,0.704*5B
$GPGBS,090042.00,3.242,2.176,4.596,30,0.0001,-0.767,0.825*7D
$GPGRS,090042.00,1,-0.3,0.0,0.3,-0.3,0.9,0.8,0.6,0.3,-0.8,,,*4D
$GPGRS,090042.00,1,-1.1,-2.4,5.4,4.9,-3.7,-3.5,,,,,,*49
$GPGRS,090042.00,1,-0.8,-0.4,0.6,-0.1,0.2,0.1,0.2,,,,,*48
$GPGRS,090042.00,1,1.0,-0.0,0.6,2.1,-0.4,0.8,-0.3,-0.3,-1.2,-0.0,-1.2,-1.0*48
$GPGSV,6,1,22,13,89,212,49,17,19,123,42,24,16,271,40,23,16,323,40*78
$GPGSV,6,2,22,05,29,219,44,30,35,077,44,15,53,297,48,14,63,080,47*75
$GPGSV,6,3,22,22,69,136,,20,06,196,37,19,05,149,,08,01,021,25*75
$GPGSV,6,4,22,07,03,081,38,36,35,170,44,58,13,245,36,40,23,133,36*70
$GPGSV,6,5,22,34,31,208,42,49,34,195,44,57,07,112,37,41,07,108,35*7A
$GPGSV,6,6,22,61,03,257,38*46
$GLGSV,3,1,10,65,67,179,49,74,10,046,39,72,12,154,41,76,51,237,52*6B
$GLGSV,3,2,10,66,53,318,51,75,62,034,51,67,03,328,,77,06,231,*65
$GLGSV,3,3,10,83,08,354,34,84,07,053,*6F
$GAGSV,3,1,11,03,70,136,48,24,20,045,40,05,18,128,38,16,44,056,*6F
$GAGSV,3,2,11,02,45,193,47,08,54,303,47,25,65,086,48,13,00,275,*6C
$GAGSV,3,3,11,07,04,306,36,26,05,322,38,33,01,006,29*5E
$GBGSV,5,1,20,45,66,060,50,22,12,160,41,05,20,130,37,36,16,060,41*6E
$GBGSV,5,2,20,14,28,314,42,40,28,053,43,56,26,086,,07,28,063,41*6A
$GBGSV,5,3,20,10,34,077,41,21,56,195,51,42,51,294,49,24,50,225,*63
$GBGSV,5,4,20,26,53,242,49,50,64,246,,29,02,058,,33,05,324,*60
$GBGSV,5,5,20,02,04,109,33,09,05,082,34,25,02,232,,60,07,112,40*67
$GPGGA,090042.00,,,,,0,00,,,M,,M,,*47
$PTNL,GGK,090042.00,010125,4742.1601422,N,01618.1002891,E,1,34,0.8,EHT752.3331,M*42
$GPGGQ,090042.00,010125,4742.1601422,N,01618.1002891,E,1,34,0.914,709.1265,M*34
$GPGFA,090042.00,4.585,5.770,0.482,0.329,7.893,0.704,,VVV*05
$GPLLK,090042.00,010125,,M,,M,1,34,0.9,,M*0A
$GNGMP,090042.00,,,,,DAAA,34,0.5,,,,*5B
$GPGMP,090042.00,,,,,,09,,,,1.8,136*76
$GLGMP,090042.00,,,,,,06,,,,,*76
$GAGMP,090042.00,,,,,,07,,,,,*7A
$GBGMP,090042.00,,,,,,12,,,,,*7D
$PSSN,SNC,[0,291660000,2347]*4E
$GPZDA,090047.00,01,01,2025,,*69
$GPDTM,W84,,00.0000000,N,00.0000000,E,00.0000000,W84*5F
$PSSN,TFM,090047.00,,,,*65
$GPRMC,090047.00,A,4742.1601416,N,01618.1002900,E,0.0,,010125,5.1,E,D*13
$GPGLL,4742.1601416,N,01618.1002900,E,090047.00,A,D*62
$GPGGA,090047.00,4742.1601416,N,01618.1002900,E,2,34,0.5,709.1306,M,43.2066,M,2.8,0136*4C
$GNGNS,090047.00,4742.1601416,N,01618.1002900,E,DAAA,34,0.5,709.1306,43.2066,,*5E
$GPGNS,090047.00,,,,,,09,,,,2.8,136*70
$GLGNS,090047.00,,,,,,06,,,,,*73
$GAGNS,090047.00,,,,,,07,,,,,*7F
$GBGNS,090047.00,,,,,,12,,,,,*78
$GPLLQ,090047.00,010125,,M,,M,1,34,0.915,,M*11
$GPVTG,,T,,M,0.00,N,0.01,K,D*27
$GPHDT,,T*1B
$GPTHS,,V*0E
$GPROT,,V*08
$PSSN,HRP,090047.00,010125,,,,,,,00,0,,*6B
$PTNL,AVR,090047.00,,Yaw,,Tilt,,,,0,,00*3D
$GPGSA,A,3,05,13,14,15,17,20,23,24,30,,,,0.8,0.5,0.6*3F
$GPGSA,A,3,65,66,72,74,75,76,,,,,,,0.8,0.5,0.6*3F
$GPGSA,A,3,02,03,05,08,24,25,26,,,,,,0.8,0.5,0.6*30
$GPGSA,A,3,05,07,10,14,21,22,26,36,40,42,45,60,0.8,0.5,0.6*38
$GPGST,090047.00,2.039,0.482,0.327,9.361,0.478,0.332,0.705*5B
$GPGBS,090047.00,3.286,2.205,4.654,05,0.0001,-0.900,0.865*77
$GPGRS,090047.00,1,-0.9,0.4,0.1,0.1,0.5,0.4,0.3,0.1,-0.8,,,*6C
$GPGRS,090047.00,1,-0.9,-2.2,5.9,6.0,-3.9,-2.9,,,,,,*46
$GPGRS,090047.00,1,-0.6,-0.1,0.5,-0.1,0.3,-0.1,0.4,,,,,*6F
$GPGRS,090047.00,1,1.2,0.4,0.6,1.6,-0.5,0.9,-0.2,-0.2,-1.3,-0.1,-1.0,-1.0*60
$GPGSV,6,1,22,13,89,209,49,17,19,123,42,24,17,271,40,23,16,323,40*73
$GPGSV,6,2,22,05,29,219,45,30,35,077,45,15,53,297,48,14,63,080,48*7A
$GPGSV,6,3,22,22,69,136,,20,06,196,37,19,05,149,,08,01,021,22*72
$GPGSV,6,4,22,07,03,081,38,36,35,170,44,58,13,245,36,40,23,133,36*70
$GPGSV,6,5,22,34,31,208,42,49,34,195,44,57,07,112,37,41,07,108,35*7A
$GPGSV,6,6,22,61,03,257,38*46
$GLGSV,3,1,10,65,67,179,49,74,10,046,39,72,12,154,41,76,51,237,52*6B
$GLGSV,3,2,10,66,53,318,52,75,62,034,51,67,03,328,,77,06,231,*66
$GLGSV,3,3,10,83,08,354,33,84,07,053,*68
$GAGSV,3,1,11,03,70,136,48,24,20,045,39,05,18,128,38,16,44,056,*61
$GAGSV,3,2,11,02,45,193,47,08,54,303,47,25,65,085,48,13,00,275,*6F
$GAGSV,3,3,11,07,04,306,37,26,05,322,38,33,01,006,29*5F
$GBGSV,5,1,20,45,66,060,50,22,12,160,41,05,20,130,38,36,16,060,41*61
$GBGSV,5,2,20,14,28,314,42,40,28,053,43,56,26,086,,07,28,063,41*6A
$GBGSV,5,3,20,10,34,077,41,21,56,195,51,42,51,294,49,24,50,225,*63
$GBGSV,5,4,20,26,53,242,49,50,64,246,,29,02,058,,33,05,324,*60
$GBGSV,5,5,20,02,04,109,33,09,05,082,34,25,02,232,,60,07,112,40*67
$GPGGA,090047.00,,,,,0,00,,,M,,M,,*42
$PTNL,GGK,090047.00,010125,4742.1601416,N,01618.1002900,E,1,34,0.8,EHT752.3372,M*4E
$GPGGQ,090047.00,010125,4742.1601416,N,01618.1002900,E,1,34,0.915,709.1306,M*3A
$GPGFA,090047.00,4.582,5.785,0.482,0.327,9.361,0.705,,VVV*0A
$GPLLK,090047.00,010125,,M,,M,1,34,0.8,,M*0E
$GNGMP,090047.00,,,,,DAAA,34,0.5,,,,*5E
$GPGMP,090047.00,,,,,,09,,,,2.8,136*70
$GLGMP,090047.00,,,,,,06,,,,,*73
$GAGMP,090047.00,,,,,,07,,,,,*7F
$GBGMP,090047.00,,,,,,12,,,,,*78
$PSSN,SNC,[0,291665000,2347]*4B
$GPZDA,090052.00,01,01,2025,,*6D
$GPDTM,W84,,00.0000000,N,00.0000000,E,00.0000000,W84*5F
$PSSN,TFM,090052.00,,,,*61
$GPRMC,090052.00,A,4742.1601400,N,01618.1002887,E,0.0,,010125,5.1,E,D*1E
$GPGLL,4742.1601400,N,01618.1002887,E,090052.00,A,D*6F
$GPGGA,090052.00,4742.1601400,N,01618.1002887,E,2,34,0.5,709.1333,M,43.2066,M,2.4,0136*4B
$GNGNS,090052.00,4742.1601400,N,01618.1002887,E,DAAA,34,0.5,709.1333,43.2066,,*55
$GPGNS,090052.00,,,,,,09,,,,2.4,136*78
$GLGNS,090052.00,,,,,,06,,,,,*77
$GAGNS,090052.00,,,,,,07,,,,,*7B
$GBGNS,090052.00,,,,,,12,,,,,*7C
$GPLLQ,090052.00,010125,,M,,M,1,34,0.918,,M*18
$GPVTG,,T,,M,0.00,N,0.00,K,D*26
$GPHDT,,T*1B
$GPTHS,,V*0E
$GPROT,,V*08
$PSSN,HRP,090052.00,010125,,,,,,,00,0,,*6F
$PTNL,AVR,090052.00,,Yaw,,Tilt,,,,0,,00*39
$GPGSA,A,3,05,13,14,15,17,20,23,24,30,,,,0.8,0.5,0.6*3F
$GPGSA,A,3,65,66,72,74,75,76,,,,,,,0.8,0.5,0.6*3F
$GPGSA,A,3,02,03,05,08,24,25,26,,,,,,0.8,0.5,0.6*30
$GPGSA,A,3,05,07,10,14,21,22,26,36,40,42,45,60,0.8,0.5,0.6*38
$GPGST,090052.00,1.852,0.484,0.330,8.918,0.481,0.335,0.707*5F
$GPGBS,090052.00,3.265,2.149,4.640,30,0.0001,-0.851,0.854*71
$GPGRS,090052.00,1,-0.2,0.4,0.1,-0.2,0.5,0.3,0.6,0.0,-0.9,,,*4F
$GPGRS,090052.00,1,-1.1,-2.2,4.6,5.3,-3.7,-3.3,,,,,,*40
$GPGRS,090052.00,1,-0.4,-0.2,0.3,-0.2,0.4,0.0,0.1,,,,,*41
$GPGRS,090052.00,1,1.3,0.2,-0.2,1.7,-0.6,0.6,-0.6,-0.5,-1.1,-0.2,-1.4,-1.1*40
$GPGSV,6,1,22,13,89,206,49,17,19,123,42,24,17,271,40,23,16,323,41*7D
$GPGSV,6,2,22,05,29,219,45,30,35,077,45,15,53,297,48,14,63,080,48*7A
$GPGSV,6,3,22,22,69,136,,20,06,196,37,19,05,149,,08,01,021,23*73
$GPGSV,6,4,22,07,03,081,37,36,35,170,44,58,13,245,36,40,23,133,36*7F
$GPGSV,6,5,22,34,31,208,42,49,34,195,44,57,07,112,37,41,07,108,35*7A
$GPGSV,6,6,22,61,03,257,38*46
$GLGSV,3,1,10,65,67,179,49,76,51,237,51,72,12,154,41,66,53,318,52*69
$GLGSV,3,2,10,75,62,034,51,74,10,046,38,67,03,328,,77,06,231,*66
$GLGSV,3,3,10,83,08,354,34,84,07,053,*6F
$GAGSV,3,1,11,03,70,136,48,24,20,045,40,05,17,128,38,16,44,056,*60
$GAGSV,3,2,11,02,46,193,46,08,54,303,47,25,65,085,48,13,00,275,*6D
$GAGSV,3,3,11,07,04,306,37,26,05,322,38,33,01,006,29*5F
$GBGSV,5,1,20,45,66,060,50,22,12,160,41,05,20,130,37,36,16,060,41*6E
$GBGSV,5,2,20,14,28,314,42,40,28,053,43,56,26,086,,07,28,063,41*6A
$GBGSV,5,3,20,10,34,077,41,21,56,195,51,42,51,294,49,24,50,225,*63
$GBGSV,5,4,20,26,53,242,49,50,64,246,,29,02,058,,33,05,324,*60
$GBGSV,5,5,20,02,04,109,32,09,05,082,34,25,02,232,,60,07,112,40*66
$GPGGA,090052.00,,,,,0,00,,,M,,M,,*46
$PTNL,GGK,090052.00,010125,4742.1601400,N,01618.1002887,E,1,34,0.8,EHT752.3399,M*46
$GPGGQ,090052.00,010125,4742.1601400,N,01618.1002887,E,1,34,0.918,709.1333,M*3C
$GPGFA,090052.00,4.602,5.794,0.484,0.330,8.918,0.707,,VVV*02
$GPLLK,090052.00,010125,,M,,M,1,34,0.8,,M*0A
$GNGMP,090052.00,,,,,DAAA,34,0.5,,,,*5A
$GPGMP,090052.00,,,,,,09,,,,2.4,136*78
$GLGMP,090052.00,,,,,,06,,,,,*77
$GAGMP,090052.00,,,,,,07,,,,,*7B
$GBGMP,090052.00,,,,,,12,,,,,*7C
$PSSN,SNC,[0,291670000,2347]*4F
$GPZDA,090057.00,01,01,2025,,*68
$GPDTM,W84,,00.0000000,N,00.0000000,E,00.0000000,W84*5F
$PSSN,TFM,090057.00,,,,*64
$GPRMC,090057.00,A,4742.1601410,N,01618.1002903,E,0.0,,010125,5.1,E,D*17
$GPGLL,4742.1601410,N,01618.1002903,E,090057.00,A,D*66
$GPGGA,090057.00,4742.1601410,N,01618.1002903,E,2,34,0.5,709.1348,M,43.2066,M,3.0,0136*4B
$GNGNS,090057.00,4742.1601410,N,01618.1002903,E,DAAA,34,0.5,709.1348,43.2066,,*50
$GPGNS,090057.00,,,,,,09,,,,3.0,136*78
$GLGNS,090057.00,,,,,,06,,,,,*72
$GAGNS,090057.00,,,,,,07,,,,,*7E
$GBGNS,090057.00,,,,,,12,,,,,*79
$GPLLQ,090057.00,010125,,M,,M,1,34,0.913,,M*16
$GPVTG,,T,,M,0.00,N,0.01,K,D*27
$GPHDT,,T*1B
$GPTHS,,V*0E
$GPROT,,V*08
$PSSN,HRP,090057.00,010125,,,,,,,00,0,,*6A
$PTNL,AVR,090057.00,,Yaw,,Tilt,,,,0,,00*3C
$GPGSA,A,3,05,13,14,15,17,20,23,24,30,,,,0.8,0.5,0.6*3F
$GPGSA,A,3,65,66,72,74,75,76,,,,,,,0.8,0.5,0.6*3F
$GPGSA,A,3,02,03,05,08,24,25,26,,,,,,0.8,0.5,0.6*30
$GPGSA,A,3,05,07,10,14,21,22,26,36,40,42,45,60,0.8,0.5,0.6*38
$GPGST,090057.00,1.930,0.483,0.331,7.519,0.480,0.334,0.701*5D
$GPGBS,090057.00,3.276,2.192,4.706,72,0.0001,5.482,6.423*55
$GPGRS,090057.00,1,-0.4,0.3,0.1,-0.3,0.4,0.4,0.4,0.6,-0.6,,,*47
$GPGRS,090057.00,1,-0.8,-2.5,5.5,5.0,-3.5,-3.4,,,,,,*4E
$GPGRS,090057.00,1,-0.8,-0.4,0.4,-0.3,0.4,-0.1,0.2,,,,,*67
$GPGRS,090057.00,1,1.0,0.6,-0.1,2.2,-0.6,0.8,-0.6,-0.8,-1.2,-0.2,-1.2,-1.4*44
$GPGSV,6,1,22,13,89,204,48,17,19,123,42,24,17,271,39,23,16,323,40*71
$GPGSV,6,2,22,05,29,219,44,30,35,077,45,15,53,297,48,14,63,080,48*7B
$GPGSV,6,3,22,22,69,136,,20,06,196,37,19,05,149,,08,01,021,21*71
$GPGSV,6,4,22,07,03,081,37,36,35,170,44,58,13,245,36,40,23,133,36*7F
$GPGSV,6,5,22,34,31,208,42,49,34,195,44,57,07,112,37,41,07,108,35*7A
$GPGSV,6,6,22,61,03,257,38*46
$GLGSV,3,1,10,65,67,179,50,76,51,237,51,72,12,154,41,66,53,318,52*61
$GLGSV,3,2,10,75,62,034,51,74,10,046,38,67,03,328,,77,06,231,*66
$GLGSV,3,3,10,83,08,354,32,84,07,053,*69
$GAGSV,3,1,11,03,70,136,48,24,20,045,40,05,17,128,39,16,44,056,*61
$GAGSV,3,2,11,02,46,193,46,08,54,303,46,25,65,085,48,13,00,275,*6C
$GAGSV,3,3,11,07,04,306,37,26,05,322,38,33,01,006,31*56
$GBGSV,5,1,20,45,66,060,50,22,12,160,41,05,20,130,37,36,16,060,41*6E
$GBGSV,5,2,20,14,28,314,42,40,28,053,43,56,26,086,,07,28,063,41*6A
$GBGSV,5,3,20,10,34,077,41,21,56,195,51,42,51,294,49,24,50,225,*63
$GBGSV,5,4,20,26,53,242,49,50,64,246,,29,02,058,,33,05,324,*60
$GBGSV,5,5,20,02,04,109,32,09,05,082,35,25,02,232,,60,07,112,40*67
$GPGGA,090057.00,,,,,0,00,,,M,,M,,*43
$PTNL,GGK,090057.00,010125,4742.1601410,N,01618.1002903,E,1,34,0.8,EHT752.3413,M*4A
$GPGGQ,090057.00,010125,4742.1601410,N,01618.1002903,E,1,34,0.913,709.1348,M*32
$GPGFA,090057.00,4.588,5.747,0.483,0.331,7.519,0.701,,VVV*0A
$GPLLK,090057.00,010125,,M,,M,1,34,0.8,,M*0F
$GNGMP,090057.00,,,,,DAAA,34,0.5,,,,*5F
$GPGMP,090057.00,,,,,,09,,,,3.0,136*78
$GLGMP,090057.00,,,,,,06,,,,,*72
$GAGMP,090057.00,,,,,,07,,,,,*7E
$GBGMP,090057.00,,,,,,12,,,,,*79
$PSSN,SNC,[0,291675000,2347]*4A
$GPZDA,090102.00,01,01,2025,,*69
$GPDTM,W84,,00.0000000,N,00.0000000,E,00.0000000,W84*5F
$PSSN,TFM,090102.00,,,,*65
$GPRMC,090102.00,A,4742.1601435,N,01618.1002878,E,0.0,,010125,5.1,E,D*1C
$GPGLL,4742.1601435,N,01618.1002878,E,090102.00,A,D*6D
$GPGGA,090102.00,4742.1601435,N,01618.1002878,E,2,34,0.5,709.1386,M,43.2066,M,1.8,0136*48
$GNGNS,090102.00,4742.1601435,N,01618.1002878,E,DAAA,34,0.5,709.1386,43.2066,,*59
$GPGNS,090102.00,,,,,,09,,,,1.8,136*73
$GLGNS,090102.00,,,,,,06,,,,,*73
$GAGNS,090102.00,,,,,,07,,,,,*7F
$GBGNS,090102.00,,,,,,12,,,,,*78
$GPLLQ,090102.00,010125,,M,,M,1,34,0.915,,M*11
$GPVTG,,T,,M,0.00,N,0.00,K,D*26
$GPHDT,,T*1B
$GPTHS,,V*0E
$GPROT,,V*08
$PSSN,HRP,090102.00,010125,,,,,,,00,0,,*6B
$PTNL,AVR,090102.00,,Yaw,,Tilt,,,,0,,00*3D
$GPGSA,A,3,05,13,14,15,17,20,23,24,30,,,,0.8,0.5,0.6*3F
$GPGSA,A,3,65,66,72,74,75,76,,,,,,,0.8,0.5,0.6*3F
$GPGSA,A,3,02,03,05,08,24,25,26,,,,,,0.8,0.5,0.6*30
$GPGSA,A,3,05,07,10,14,21,22,26,36,40,42,45,60,0.8,0.5,0.6*38
$GPGST,090102.00,1.895,0.483,0.329,7.835,0.481,0.332,0.704*5A
$GPGBS,090102.00,3.248,2.172,4.603,17,0.0001,1.040,1.043*5B
$GPGRS,090102.00,1,-0.3,0.2,0.2,-0.5,1.0,0.0,0.2,0.3,-0.6,,,*47
$GPGRS,090102.00,1,-1.1,-2.1,6.0,4.1,-3.7,-3.2,,,,,,*41
$GPGRS,090102.00,1,-0.7,-0.2,0.8,-0.0,0.4,0.2,0.4,,,,,*48
$GPGRS,090102.00,1,1.4,0.8,0.0,1.9,-0.3,1.1,-0.4,-0.5,-0.9,0.0,-1.1,-1.0*4B
$GPGSV,6,1,22,13,89,201,48,17,19,123,42,24,17,271,39,23,16,323,40*74
$GPGSV,6,2,22,05,29,219,45,30,35,077,45,15,53,297,48,14,63,080,47*75
$GPGSV,6,3,22,22,69,136,,20,06,196,36,19,05,149,,08,01,021,22*73
$GPGSV,6,4,22,07,03,081,38,36,35,170,44,58,13,245,36,40,23,133,36*70
$GPGSV,6,5,22,34,31,208,42,49,34,195,44,57,07,112,37,41,07,108,35*7A
$GPGSV,6,6,22,61,03,257,38*46
$GLGSV,3,1,10,65,67,179,49,76,51,237,51,72,12,154,41,66,53,318,52*69
$GLGSV,3,2,10,75,62,034,51,74,10,046,37,67,03,328,,77,06,231,*69
$GLGSV,3,3,10,83,08,354,32,84,07,053,*69
$GAGSV,3,1,11,03,69,136,48,24,20,045,40,05,17,128,39,16,44,056,*69
$GAGSV,3,2,11,02,46,193,46,08,54,303,47,25,65,085,48,13,00,275,*6D
$GAGSV,3,3,11,07,04,306,37,26,05,322,38,33,01,006,31*56
$GBGSV,5,1,20,45,66,060,50,22,12,160,42,05,20,130,37,36,16,060,41*6D
$GBGSV,5,2,20,14,28,314,42,40,28,053,43,56,26,086,,07,28,063,41*6A
$GBGSV,5,3,20,10,34,077,41,21,56,195,51,42,51,294,49,24,50,225,*63
$GBGSV,5,4,20,26,53,242,49,50,64,246,,29,02,057,,33,05,324,*6F
$GBGSV,5,5,20,02,04,109,32,09,05,082,35,25,02,232,,60,07,112,40*67
$GPGGA,090102.00,,,,,0,00,,,M,,M,,*42
$PTNL,GGK,090102.00,010125,4742.1601435,N,01618.1002878,E,1,34,0.8,EHT752.3452,M*44
$GPGGQ,090102.00,010125,4742.1601435,N,01618.1002878,E,1,34,0.915,709.1386,M*3D
$GPGFA,090102.00,4.593,5.774,0.483,0.329,7.835,0.704,,VVV*0E
$GPLLK,090102.00,010125,,M,,M,1,34,0.8,,M*0E
$GNGMP,090102.00,,,,,DAAA,34,0.5,,,,*5E
$GPGMP,090102.00,,,,,,09,,,,1.8,136*73
$GLGMP,090102.00,,,,,,06,,,,,*73
$GAGMP,090102.00,,,,,,07,,,,,*7F
$GBGMP,090102.00,,,,,,12,,,,,*78
$PSSN,SNC,[0,291680000,2347]*40
$GPZDA,090107.00,01,01,2025,,*6C
$GPDTM,W84,,00.0000000,N,00.0000000,E,00.0000000,W84*5F
$PSSN,TFM,090107.00,,,,*60
$GPRMC,090107.00,A,4742.1601447,N,01618.1002863,E,0.0,,010125,5.1,E,D*16
$GPGLL,4742.1601447,N,01618.1002863,E,090107.00,A,D*67
$GPGGA,090107.00,4742.1601447,N,01618.1002863,E,2,34,0.5,709.1429,M,43.2066,M,2.8,0136*43
$GNGNS,090107.00,4742.1601447,N,01618.1002863,E,DAAA,34,0.5,709.1429,43.2066,,*51
$GPGNS,090107.00,,,,,,09,,,,2.8,136*75
$GLGNS,090107.00,,,,,,06,,,,,*76
$GAGNS,090107.00,,,,,,07,,,,,*7A
$GBGNS,090107.00,,,,,,12,,,,,*7D
$GPLLQ,090107.00,010125,,M,,M,1,34,0.915,,M*14
$GPVTG,,T,,M,0.00,N,0.01,K,D*27
$GPHDT,,T*1B
$GPTHS,,V*0E
$GPROT,,V*08
$PSSN,HRP,090107.00,010125,,,,,,,00,0,,*6E
$PTNL,AVR,090107.00,,Yaw,,Tilt,,,,0,,00*38
$GPGSA,A,3,05,13,14,15,17,20,23,24,30,,,,0.8,0.5,0.6*3F
$GPGSA,A,3,65,66,72,74,75,76,,,,,,,0.8,0.5,0.6*3F
$GPGSA,A,3,02,03,05,08,24,25,26,,,,,,0.8,0.5,0.6*30
$GPGSA,A,3,05,07,10,14,21,22,26,36,40,42,45,60,0.8,0.5,0.6*38
$GPGST,090107.00,2.003,0.483,0.326,9.312,0.479,0.331,0.706*52
$GPGBS,090107.00,3.292,2.201,4.661,72,0.0001,6.385,6.424*56
$GPGRS,090107.00,1,-0.3,0.2,0.3,-0.3,0.7,-0.2,0.3,0.6,-0.7,,,*69
$GPGRS,090107.00,1,-1.1,-2.5,6.4,5.1,-3.5,-3.0,,,,,,*45
$GPGRS,090107.00,1,-0.6,-0.3,1.0,-0.1,0.3,0.1,0.5,,,,,*40
$GPGRS,090107.00,1,1.1,0.6,0.1,1.6,-0.3,0.7,-0.5,-0.2,-1.3,-0.1,-1.1,-1.0*6D
$GPGSV,6,1,22,13,89,199,48,24,17,271,40,23,16,323,40,05,29,219,45*75
$GPGSV,6,2,22,17,19,123,42,30,35,077,45,15,53,297,48,14,63,080,47*78
$GPGSV,6,3,22,22,69,136,,20,05,196,36,08,01,021,22,07,03,081,38*77
$GPGSV,6,4,22,19,05,149,,36,35,170,44,58,13,245,36,40,23,133,36*77
$GPGSV,6,5,22,34,31,208,42,49,34,195,44,57,07,112,37,41,07,108,35*7A
$GPGSV,6,6,22,61,03,257,38*46
$GLGSV,3,1,10,65,67,179,49,76,51,237,51,72,12,154,41,66,53,318,51*6A
$GLGSV,3,2,10,75,62,034,51,74,10,046,37,67,03,328,,77,06,231,*69
$GLGSV,3,3,10,83,08,354,33,84,07,053,*68
$GAGSV,3,1,11,03,69,136,48,24,20,045,40,05,17,128,40,16,44,056,*67
$GAGSV,3,2,11,02,46,193,46,08,54,303,47,25,65,085,48,13,00,275,*6D
$GAGSV,3,3,11,07,04,306,37,26,05,322,37,33,01,006,31*59
$GBGSV,5,1,20,45,66,060,50,22,12,160,42,05,20,130,37,36,16,060,42*6E
$GBGSV,5,2,20,14,28,314,42,40,28,053,43,56,26,086,,07,28,063,41*6A
$GBGSV,5,3,20,10,34,077,41,21,56,195,51,42,51,294,49,24,50,225,*63
$GBGSV,5,4,20,26,53,242,49,50,64,246,,29,02,057,,33,05,324,*6F
$GBGSV,5,5,20,02,04,109,32,09,05,082,35,25,02,232,,60,07,112,40*67
$GPGGA,090107.00,,,,,0,00,,,M,,M,,*47
$PTNL,GGK,090107.00,010125,4742.1601447,N,01618.1002863,E,1,34,0.8,EHT752.3495,M*45
$GPGGQ,090107.00,010125,4742.1601447,N,01618.1002863,E,1,34,0.915,709.1429,M*35
$GPGFA,090107.00,4.591,5.789,0.483,0.326,9.312,0.706,,VVV*06
$GPLLK,090107.00,010125,,M,,M,1,34,0.8,,M*0B
$GNGMP,090107.00,,,,,DAAA,34,0.5,,,,*5B
$GPGMP,090107.00,,,,,,09,,,,2.8,136*75
$GLGMP,090107.00,,,,,,06,,,,,*76
$GAGMP,090107.00,,,,,,07,,,,,*7A
$GBGMP,090107.00,,,,,,12,,,,,*7D
$PSSN,SNC,[0,291685000,2347]*45
$GPZDA,090112.00,01,01,2025,,*68
$GPDTM,W84,,00.0000000,N,00.0000000,E,00.0000000,W84*5F
$PSSN,TFM,090112.00,,,,*64
$GPRMC,090112.00,A,4742.1601439,N,01618.1002876,E,0.0,,010125,5.1,E,D*1F
$GPGLL,4742.1601439,N,01618.1002876,E,090112.00,A,D*6E
$GPGGA,090112.00,4742.1601439,N,01618.1002876,E,2,35,0.4,709.1460,M,43.2066,M,2.4,0136*4B
$GNGNS,090112.00,4742.1601439,N,01618.1002876,E,DAAA,35,0.4,709.1460,43.2066,,*55
$GPGNS,090112.00,,,,,,09,,,,2.4,136*7D
$GLGNS,090112.00,,,,,,06,,,,,*72
$GAGNS,090112.00,,,,,,07,,,,,*7E
$GBGNS,090112.00,,,,,,13,,,,,*78
$GPLLQ,090112.00,010125,,M,,M,1,35,0.919,,M*1D
$GPVTG,,T,,M,0.00,N,0.00,K,D*26
$GPHDT,,T*1B
$GPTHS,,V*0E
$GPROT,,V*08
$PSSN,HRP,090112.00,010125,,,,,,,00,0,,*6A
$PTNL,AVR,090112.00,,Yaw,,Tilt,,,,0,,00*3C
$GPGSA,A,3,05,13,14,15,17,20,23,24,30,,,,0.7,0.4,0.6*31
$GPGSA,A,3,65,66,72,74,75,76,,,,,,,0.7,0.4,0.6*31
$GPGSA,A,3,02,03,05,08,24,25,26,,,,,,0.7,0.4,0.6*3E
$GPGSA,A,3,05,07,09,10,14,21,22,26,36,40,42,45,0.7,0.4,0.6*39
$GPGSA,A,3,60,,,,,,,,,,,,0.7,0.4,0.6*31
$GPGST,090112.00,2.238,0.485,0.330,8.842,0.482,0.334,0.707*52
$GPGBS,090112.00,3.268,2.143,4.644,30,0.0001,-1.042,0.856*7E
$GPGRS,090112.00,1,-0.7,0.4,0.2,-0.2,0.4,-0.1,0.4,0.8,-1.0,,,*60
$GPGRS,090112.00,1,-0.9,-2.7,6.7,6.1,-3.9,-3.0,,,,,,*46
$GPGRS,090112.00,1,-0.9,-0.3,0.9,-0.3,0.2,-0.2,0.7,,,,,*6C
$GPGRS,090112.00,1,1.2,0.1,2.0,0.1,2.9,-0.4,0.9,-0.5,-0.2,-1.3,-0.2,-1.0*44
$GPGRS,090112.00,1,-1.3,,,,,,,,,,,*44
$GPGSV,6,1,22,13,89,197,48,24,17,271,40,23,16,323,41,05,29,219,44*7B
$GPGSV,6,2,22,17,19,123,42,30,35,077,45,15,53,297,48,14,63,079,47*7E
$GPGSV,6,3,22,22,69,135,,20,05,196,36,08,01,021,21,07,03,081,37*78
$GPGSV,6,4,22,19,05,149,,36,35,170,44,58,13,245,36,40,23,133,36*77
$GPGSV,6,5,22,34,31,208,42,49,34,195,44,57,07,112,37,41,07,108,35*7A
$GPGSV,6,6,22,61,03,257,38*46
$GLGSV,3,1,10,65,67,179,50,76,51,237,52,72,12,154,41,66,53,318,51*61
$GLGSV,3,2,10,75,62,034,51,74,10,046,38,67,03,328,,77,06,231,*66
$GLGSV,3,3,10,83,08,354,33,84,07,052,*69
$GAGSV,3,1,11,03,69,136,48,24,20,045,40,05,17,128,40,16,44,056,*67
$GAGSV,3,2,11,02,46,193,46,08,54,303,47,25,65,085,48,13,00,275,*6D
$GAGSV,3,3,11,07,04,306,36,26,05,322,37,33,01,006,30*59
$GBGSV,5,1,20,45,66,060,50,22,12,160,42,05,20,130,37,36,16,060,41*6D
$GBGSV,5,2,20,14,28,314,42,40,28,053,43,56,26,086,,07,28,063,41*6A
$GBGSV,5,3,20,10,34,077,41,21,56,195,51,42,51,294,49,24,50,225,*63
$GBGSV,5,4,20,26,53,242,49,50,64,246,,29,02,057,,33,05,324,*6F
$GBGSV,5,5,20,02,04,109,32,09,05,082,35,25,02,232,,60,07,112,40*67
$GPGGA,090112.00,,,,,0,00,,,M,,M,,*43
$PTNL,GGK,090112.00,010125,4742.1601439,N,01618.1002876,E,1,35,0.7,EHT752.3525,M*48
$GPGGQ,090112.00,010125,4742.1601439,N,01618.1002876,E,1,35,0.919,709.1460,M*3C
$GPGFA,090112.00,4.612,5.797,0.485,0.330,8.842,0.707,,VVV*0A
$GPLLK,090112.00,010125,,M,,M,1,35,0.8,,M*0E
$GNGMP,090112.00,,,,,DAAA,35,0.4,,,,*5F
$GPGMP,090112.00,,,,,,09,,,,2.4,136*7D
$GLGMP,090112.00,,,,,,06,,,,,*72
$GAGMP,090112.00,,,,,,07,,,,,*7E
$GBGMP,090112.00,,,,,,13,,,,,*78
$PSSN,SNC,[0,291690000,2347]*41
$GPZDA,090117.00,01,01,2025,,*6D
$GPDTM,W84,,00.0000000,N,00.0000000,E,00.0000000,W84*5F
$PSSN,TFM,090117.00,,,,*61
$GPRMC,090117.00,A,4742.1601432,N,01618.1002898,E,0.0,,010125,5.1,E,D*11
$GPGLL,4742.1601432,N,01618.1002898,E,090117.00,A,D*60
$GPGGA,090117.00,4742.1601432,N,01618.1002898,E,2,35,0.4,709.1444,M,43.2066,M,3.0,0136*46
$GNGNS,090117.00,4742.1601432,N,01618.1002898,E,DAAA,35,0.4,709.1444,43.2066,,*5D
$GPGNS,090117.00,,,,,,09,,,,3.0,136*7D
$GLGNS,090117.00,,,,,,06,,,,,*77
$GAGNS,090117.00,,,,,,07,,,,,*7B
$GBGNS,090117.00,,,,,,13,,,,,*7D
$GPLLQ,090117.00,010125,,M,,M,1,35,0.913,,M*12
$GPVTG,,T,,M,0.01,N,0.01,K,D*26
$GPHDT,,T*1B
$GPTHS,,V*0E
$GPROT,,V*08
$PSSN,HRP,090117.00,010125,,,,,,,00,0,,*6F
$PTNL,AVR,090117.00,,Yaw,,Tilt,,,,0,,00*39
$GPGSA,A,3,05,13,14,15,17,20,23,24,30,,,,0.7,0.4,0.6*31
$GPGSA,A,3,65,66,72,74,75,76,,,,,,,0.7,0.4,0.6*31
$GPGSA,A,3,02,03,05,08,24,25,26,,,,,,0.7,0.4,0.6*3E
$GPGSA,A,3,05,07,09,10,14,21,22,26,36,40,42,45,0.7,0.4,0.6*39
$GPGSA,A,3,60,,,,,,,,,,,,0.7,0.4,0.6*31
$GPGST,090117.00,2.186,0.483,0.330,7.439,0.481,0.334,0.701*5D
$GPGBS,090117.00,3.280,2.186,4.708,30,0.0001,-0.973,0.816*73
$GPGRS,090117.00,1,-0.6,0.3,0.2,-0.2,0.6,0.2,0.4,0.3,-1.0,,,*44
$GPGRS,090117.00,1,-0.8,-2.4,6.1,6.9,-3.6,-3.0,,,,,,*40
$GPGRS,090117.00,1,-0.6,-0.3,0.9,-0.1,0.2,-0.0,1.0,,,,,*60
$GPGRS,090117.00,1,0.8,0.1,2.0,-0.0,2.2,-0.6,0.8,-0.4,-0.0,-1.7,0.0,-1.1*47
$GPGRS,090117.00,1,-0.8,,,,,,,,,,,*4B
$GPGSV,6,1,22,13,89,195,48,24,17,271,40,23,16,323,40,05,29,219,44*78
$GPGSV,6,2,22,17,19,123,42,30,35,078,45,15,53,297,48,14,63,079,47*71
$GPGSV,6,3,22,22,70,135,,20,05,196,36,08,01,021,21,07,03,081,37*70
$GPGSV,6,4,22,19,05,149,,36,35,170,44,58,13,245,36,40,23,133,36*77
$GPGSV,6,5,22,34,31,208,43,49,34,195,44,57,07,112,37,41,07,108,35*7B
$GPGSV,6,6,22,61,03,257,38*46
$GLGSV,3,1,10,65,67,179,50,76,51,237,51,72,12,154,41,66,53,318,52*61
$GLGSV,3,2,10,75,62,034,51,74,10,046,39,67,03,328,,77,06,231,*67
$GLGSV,3,3,10,83,08,354,33,84,07,052,*69
$GAGSV,3,1,11,03,69,136,48,24,20,045,40,05,17,128,40,16,44,056,*67
$GAGSV,3,2,11,02,46,193,47,08,54,303,47,25,65,085,48,13,00,275,*6C
$GAGSV,3,3,11,07,04,306,36,26,05,322,37,33,01,006,30*59
$GBGSV,5,1,20,45,66,060,50,22,12,160,42,05,20,130,37,36,16,060,41*6D
$GBGSV,5,2,20,14,28,314,42,40,28,053,43,56,26,086,,07,28,063,41*6A
$GBGSV,5,3,20,10,34,077,41,21,56,195,51,42,51,294,49,24,50,225,*63
$GBGSV,5,4,20,26,53,242,49,50,64,245,,29,02,057,,33,05,324,*6C
$GBGSV,5,5,20,02,04,109,32,09,05,082,35,25,02,232,,60,07,112,40*67
$GPGGA,090117.00,,,,,0,00,,,M,,M,,*46
$PTNL,GGK,090117.00,010125,4742.1601432,N,01618.1002898,E,1,35,0.7,EHT752.3510,M*40
$GPGGQ,090117.00,010125,4742.1601432,N,01618.1002898,E,1,35,0.913,709.1444,M*3E
$GPGFA,090117.00,4.595,5.746,0.483,0.330,7.439,0.701,,VVV*00
$GPLLK,090117.00,010125,,M,,M,1,35,0.8,,M*0B
$GNGMP,090117.00,,,,,DAAA,35,0.4,,,,*5A
$GPGMP,090117.00,,,,,,09,,,,3.0,136*7D
$GLGMP,090117.00,,,,,,06,,,,,*77
$GAGMP,090117.00,,,,,,07,,,,,*7B
$GBGMP,090117.00,,,,,,13,,,,,*7D
$PSSN,SNC,[0,291695000,2347]*44
$GPZDA,090122.00,01,01,2025,,*6B
$GPDTM,W84,,00.0000000,N,00.0000000,E,00.0000000,W84*5F
$PSSN,TFM,090122.00,,,,*67
$GPRMC,090122.00,A,4742.1601449,N,01618.1002856,E,0.0,,010125,5.1,E,D*19
$GPGLL,4742.1601449,N,01618.1002856,E,090122.00,A,D*68
$GPGGA,090122.00,4742.1601449,N,01618.1002856,E,2,35,0.4,709.1465,M,43.2066,M,1.8,0136*47
$GNGNS,090122.00,4742.1601449,N,01618.1002856,E,DAAA,35,0.4,709.1465,43.2066,,*56
$GPGNS,090122.00,,,,,,09,,,,1.8,136*71
