$GPZDA,225942.00,01,01,2025,,*69
$GPDTM,W84,,00.0000000,N,00.0000000,E,00.0000000,W84*5F
$PSSN,TFM,225942.00,,,,*65
$GPRMC,225942.00,A,4742.1601470,N,01618.1003599,E,0.0,,010125,5.1,E,D*1E
$GPGLL,4742.1601470,N,01618.1003599,E,225942.00,A,D*6F
$GPGGA,225942.00,4742.1601470,N,01618.1003599,E,2,37,0.4,708.2078,M,43.2066,M,3.1,0136*43
$GNGNS,225942.00,4742.1601470,N,01618.1003599,E,DAAA,37,0.4,708.2078,43.2066,,*59
$GPGNS,225942.00,,,,,,09,,,,3.1,136*78
$GLGNS,225942.00,,,,,,07,,,,,*72
$GAGNS,225942.00,,,,,,08,,,,,*70
$GBGNS,225942.00,,,,,,13,,,,,*79
$GPLLQ,225942.00,010125,,M,,M,1,37,0.854,,M*16
$GPVTG,,T,,M,0.00,N,0.01,K,D*27
$GPHDT,,T*1B
$GPTHS,,V*0E
$GPROT,,V*08
$PSSN,HRP,225942.00,010125,,,,,,,00,0,,*6B
$PTNL,AVR,225942.00,,Yaw,,Tilt,,,,0,,00*3D
$GPGSA,A,3,02,03,08,10,14,17,21,27,32,,,,0.8,0.4,0.6*34
$GPGSA,A,3,68,69,70,76,77,84,85,,,,,,0.8,0.4,0.6*3E
$GPGSA,A,3,07,08,13,24,26,29,31,33,,,,,0.8,0.4,0.6*3E
$GPGSA,A,3,05,06,13,14,16,27,28,30,32,33,39,41,0.8,0.4,0.6*39
$GPGSA,A,3,60,,,,,,,,,,,,0.8,0.4,0.6*3E
$GPGST,225942.00,2.984,0.373,0.344,2.130,0.373,0.344,0.687*53
$GPGBS,225942.00,2.259,2.189,4.288,77,0.0001,-13.004,6.415*41
$GPGRS,225942.00,1,-0.1,0.2,0.2,-0.2,-0.3,-0.0,0.3,-0.9,0.2,,,*4F
$GPGRS,225942.00,1,7.1,1.7,-1.7,-2.8,-13.0,-0.9,4.3,,,,,*5A
$GPGRS,225942.00,1,0.1,-0.1,0.7,-0.2,-0.2,0.2,-0.4,0.0,,,,*45
$GPGRS,225942.00,1,1.3,1.9,0.1,-0.9,1.2,0.1,-0.3,0.2,-0.1,-0.7,-0.9,-0.1*4B
$GPGRS,225942.00,1,-1.9,,,,,,,,,,,*4F
$GPGSV,5,1,18,21,82,333,45,03,26,240,43,14,16,301,41,10,28,057,44*75
$GPGSV,5,2,18,27,20,164,40,32,48,081,49,08,48,189,48,02,61,302,49*7F
$GPGSV,5,3,18,17,07,321,40,36,35,170,45,58,13,245,38,57,11,108,38*70
$GPGSV,5,4,18,34,31,208,43,40,24,132,36,49,34,195,44,41,07,108,34*75
$GPGSV,5,5,18,61,03,257,38*4F
$GLGSV,3,1,09,69,70,069,52,76,12,322,44,68,22,033,46,70,34,197,40*68
$GLGSV,3,2,09,85,51,323,51,84,65,095,39,83,05,122,23,77,05,005,37*61
$GLGSV,3,3,09,75,02,269,39*5B
$GAGSV,3,1,11,26,68,078,48,29,28,166,43,24,13,323,39,08,21,041,41*63
$GAGSV,3,2,11,13,17,100,41,31,23,273,42,33,54,300,47,07,49,098,47*63
$GAGSV,3,3,11,16,02,345,,23,10,223,,12,03,286,33*50
$GBGSV,6,1,22,27,82,183,52,06,13,082,37,60,10,109,40,20,24,198,*6B
$GBGSV,6,2,22,13,12,061,40,05,24,128,38,16,14,078,39,32,32,208,46*61
$GBGSV,6,3,22,29,34,303,,39,17,068,41,28,37,136,47,33,34,050,47*6D
$GBGSV,6,4,22,30,41,304,48,57,73,293,,41,75,123,51,14,09,043,38*69
$GBGSV,6,5,22,02,09,105,34,26,02,334,,31,06,086,,45,00,330,*69
$GBGSV,6,6,22,08,03,060,35,09,08,092,*6A
$GPGGA,225942.00,,,,,0,00,,,M,,M,,*42
$PTNL,GGK,225942.00,010125,4742.1601470,N,01618.1003599,E,1,37,0.8,EHT751.4143,M*44
$GPGGQ,225942.00,010125,4742.1601470,N,01618.1003599,E,1,37,0.854,708.2078,M*38
$GPGFA,225942.00,3.546,5.637,0.373,0.344,2.130,0.687,,VVV*07
$GPLLK,225942.00,010125,,M,,M,1,37,0.8,,M*0D
$GNGMP,225942.00,,,,,DAAA,37,0.4,,,,*5C
$GPGMP,225942.00,,,,,,09,,,,3.1,136*78
$GLGMP,225942.00,,,,,,07,,,,,*72
$GAGMP,225942.00,,,,,,08,,,,,*70
$GBGMP,225942.00,,,,,,13,,,,,*79
$PSSN,SNC,[0,342000000,2347]*41
$GPZDA,225947.00,01,01,2025,,*6C
$GPDTM,W84,,00.0000000,N,00.0000000,E,00.0000000,W84*5F
$PSSN,TFM,225947.00,,,,*60
$GPRMC,225947.00,A,4742.1601490,N,01618.1003615,E,0.0,,010125,5.1,E,D*12
$GPGLL,4742.1601490,N,01618.1003615,E,225947.00,A,D*63
$GPGGA,225947.00,4742.1601490,N,01618.1003615,E,2,37,0.4,708.2006,M,43.2066,M,2.8,0136*4E
$GNGNS,225947.00,4742.1601490,N,01618.1003615,E,DAAA,37,0.4,708.2006,43.2066,,*5C
$GPGNS,225947.00,,,,,,09,,,,2.8,136*75
$GLGNS,225947.00,,,,,,07,,,,,*77
$GAGNS,225947.00,,,,,,08,,,,,*75
$GBGNS,225947.00,,,,,,13,,,,,*7C
$GPLLQ,225947.00,010125,,M,,M,1,37,0.917,,M*15
$GPVTG,,T,,M,0.00,N,0.00,K,D*26
$GPHDT,,T*1B
$GPTHS,,V*0E
$GPROT,,V*08
$PSSN,HRP,225947.00,010125,,,,,,,00,0,,*6E
$PTNL,AVR,225947.00,,Yaw,,Tilt,,,,0,,00*38
$GPGSA,A,3,02,03,08,10,14,17,21,27,32,,,,0.8,0.4,0.6*34
$GPGSA,A,3,68,69,70,76,77,84,85,,,,,,0.8,0.4,0.6*3E
$GPGSA,A,3,07,08,13,24,26,29,31,33,,,,,0.8,0.4,0.6*3E
$GPGSA,A,3,05,06,13,14,16,27,28,30,32,33,39,41,0.8,0.4,0.6*39
$GPGSA,A,3,60,,,,,,,,,,,,0.8,0.4,0.6*3E
$GPGST,225947.00,3.044,0.403,0.370,2.841,0.403,0.370,0.736*56
$GPGBS,225947.00,2.215,2.215,4.373,77,0.0001,-13.201,6.413*4E
$GPGRS,225947.00,1,0.1,0.4,0.5,-0.3,-0.1,-1.2,0.1,-1.0,0.2,,,*6C
$GPGRS,225947.00,1,5.8,1.8,-1.9,-4.8,-13.2,-0.8,4.6,,,,,*55
$GPGRS,225947.00,1,-0.4,-0.6,0.3,-0.0,-0.4,0.1,-0.6,-0.0,,,,*43
$GPGRS,225947.00,1,1.3,1.4,-0.0,-1.3,1.3,0.1,-0.6,0.3,0.2,-0.9,-1.5,-0.3*4E
$GPGRS,225947.00,1,-2.0,,,,,,,,,,,*40
$GPGSV,5,1,18,21,82,333,44,03,26,240,43,14,16,301,40,10,28,057,44*75
$GPGSV,5,2,18,27,20,164,39,32,48,081,49,08,48,189,48,02,61,302,49*71
$GPGSV,5,3,18,17,07,321,40,36,35,170,45,58,13,245,38,57,11,108,38*70
$GPGSV,5,4,18,34,31,208,43,40,24,132,37,49,34,195,44,41,07,108,34*74
$GPGSV,5,5,18,61,03,257,39*4E
$GLGSV,3,1,09,69,70,069,52,76,12,322,44,68,22,033,45,70,34,197,40*6B
$GLGSV,3,2,09,85,51,323,52,84,65,095,40,83,05,122,24,77,05,004,38*65
$GLGSV,3,3,09,75,02,269,40*55
$GAGSV,3,1,11,26,68,078,48,29,28,166,43,24,13,323,40,08,21,041,41*6D
$GAGSV,3,2,11,13,17,100,41,31,23,273,42,33,54,300,47,07,49,098,47*63
$GAGSV,3,3,11,16,02,345,,23,10,223,,12,03,286,30*53
$GBGSV,6,1,22,27,82,183,52,06,13,082,37,60,10,109,40,20,24,198,*6B
$GBGSV,6,2,22,13,12,061,40,05,24,128,38,16,14,078,39,32,32,208,47*60
$GBGSV,6,3,22,29,34,303,,39,17,068,41,28,37,136,48,33,34,050,47*62
$GBGSV,6,4,22,30,41,304,48,57,73,293,,41,75,123,51,14,09,043,38*69
$GBGSV,6,5,22,02,09,105,34,26,02,334,,31,06,086,,45,00,330,*69
$GBGSV,6,6,22,08,03,060,35,09,08,092,*6A
$GPGGA,225947.00,,,,,0,00,,,M,,M,,*47
$PTNL,GGK,225947.00,010125,4742.1601490,N,01618.1003615,E,1,37,0.8,EHT751.4072,M*4B
$GPGGQ,225947.00,010125,4742.1601490,N,01618.1003615,E,1,37,0.917,708.2006,M*3B
$GPGFA,225947.00,3.830,6.038,0.403,0.370,2.841,0.736,,VVV*07
$GPLLK,225947.00,010125,,M,,M,1,37,0.8,,M*08
$GNGMP,225947.00,,,,,DAAA,37,0.4,,,,*59
$GPGMP,225947.00,,,,,,09,,,,2.8,136*75
$GLGMP,225947.00,,,,,,07,,,,,*77
$GAGMP,225947.00,,,,,,08,,,,,*75
$GBGMP,225947.00,,,,,,13,,,,,*7C
$PSSN,SNC,[0,342005000,2347]*44
$GPZDA,225952.00,01,01,2025,,*68
$GPDTM,W84,,00.0000000,N,00.0000000,E,00.0000000,W84*5F
$PSSN,TFM,225952.00,,,,*64
$GPRMC,225952.00,A,4742.1601525,N,01618.1003600,E,0.0,,010125,5.1,E,D*1D
$GPGLL,4742.1601525,N,01618.1003600,E,225952.00,A,D*6C
$GPGGA,225952.00,4742.1601525,N,01618.1003600,E,2,37,0.4,708.1957,M,43.2066,M,3.4,0136*42
$GNGNS,225952.00,4742.1601525,N,01618.1003600,E,DAAA,37,0.4,708.1957,43.2066,,*5D
$GPGNS,225952.00,,,,,,09,,,,3.4,136*7C
$GLGNS,225952.00,,,,,,07,,,,,*73
$GAGNS,225952.00,,,,,,08,,,,,*71
$GBGNS,225952.00,,,,,,13,,,,,*78
$GPLLQ,225952.00,010125,,M,,M,1,37,0.856,,M*15
$GPVTG,,T,,M,0.00,N,0.00,K,D*26
$GPHDT,,T*1B
$GPTHS,,V*0E
$GPROT,,V*08
$PSSN,HRP,225952.00,010125,,,,,,,00,0,,*6A
$PTNL,AVR,225952.00,,Yaw,,Tilt,,,,0,,00*3C
$GPGSA,A,3,02,03,08,10,14,17,21,27,32,,,,0.8,0.4,0.6*34
$GPGSA,A,3,68,69,70,76,77,84,85,,,,,,0.8,0.4,0.6*3E
$GPGSA,A,3,07,08,13,24,26,29,31,33,,,,,0.8,0.4,0.6*3E
$GPGSA,A,3,05,06,13,14,16,27,28,30,32,33,39,41,0.8,0.4,0.6*39
$GPGSA,A,3,60,,,,,,,,,,,,0.8,0.4,0.6*3E
$GPGST,225952.00,3.051,0.376,0.348,3.435,0.375,0.349,0.685*53
$GPGBS,225952.00,2.240,2.241,4.457,77,0.0001,-13.112,6.414*4C
$GPGRS,225952.00,1,0.0,0.1,0.5,0.2,-0.2,-0.5,-0.2,-0.5,0.2,,,*6F
$GPGRS,225952.00,1,7.7,1.5,-0.7,-3.4,-13.1,-0.2,4.1,,,,,*5B
$GPGRS,225952.00,1,-0.3,-0.4,0.6,0.6,-0.2,0.1,-0.3,-0.0,,,,*6F
$GPGRS,225952.00,1,1.3,1.6,0.4,-0.9,1.7,0.1,-0.2,0.1,0.2,-0.6,-1.3,-0.4*66
$GPGRS,225952.00,1,-2.0,,,,,,,,,,,*44
$GPGSV,5,1,18,21,82,334,45,03,26,240,43,14,16,301,40,10,28,057,44*73
$GPGSV,5,2,18,27,20,164,40,32,48,081,49,08,48,189,48,02,61,302,49*7F
$GPGSV,5,3,18,17,07,321,39,36,35,170,45,58,13,245,38,57,11,108,38*7E
$GPGSV,5,4,18,34,31,208,43,40,24,132,36,49,34,195,44,41,07,108,34*75
$GPGSV,5,5,18,61,03,257,38*4F
$GLGSV,3,1,09,69,70,069,52,76,12,322,45,68,22,033,46,70,34,197,40*69
$GLGSV,3,2,09,85,51,323,51,84,65,095,40,83,05,122,24,77,05,004,37*69
$GLGSV,3,3,09,75,02,269,39*5B
$GAGSV,3,1,11,26,68,078,48,29,28,166,43,24,13,323,40,08,21,041,40*6C
$GAGSV,3,2,11,13,17,100,41,31,23,273,42,33,54,300,47,07,49,098,46*62
$GAGSV,3,3,11,16,02,345,,23,10,223,,12,03,287,33*51
$GBGSV,6,1,22,27,82,183,52,06,13,082,37,60,10,109,40,20,24,198,*6B
$GBGSV,6,2,22,13,12,061,39,05,24,128,38,16,14,078,39,32,32,208,47*6E
$GBGSV,6,3,22,29,34,303,,39,17,068,41,28,37,136,48,33,34,050,47*62
$GBGSV,6,4,22,30,41,304,48,57,73,294,,41,75,122,51,14,09,043,38*6F
$GBGSV,6,5,22,02,09,105,34,26,02,334,,31,06,086,,45,00,330,*69
$GBGSV,6,6,22,08,03,060,35,09,08,092,*6A
$GPGGA,225952.00,,,,,0,00,,,M,,M,,*43
$PTNL,GGK,225952.00,010125,4742.1601525,N,01618.1003600,E,1,37,0.8,EHT751.4022,M*41
$GPGGQ,225952.00,010125,4742.1601525,N,01618.1003600,E,1,37,0.856,708.1957,M*3E
$GPGFA,225952.00,3.570,5.621,0.376,0.348,3.435,0.685,,VVV*0E
$GPLLK,225952.00,010125,,M,,M,1,37,0.8,,M*0C
$GNGMP,225952.00,,,,,DAAA,37,0.4,,,,*5D
$GPGMP,225952.00,,,,,,09,,,,3.4,136*7C
$GLGMP,225952.00,,,,,,07,,,,,*73
$GAGMP,225952.00,,,,,,08,,,,,*71
$GBGMP,225952.00,,,,,,13,,,,,*78
$PSSN,SNC,[0,342010000,2347]*40
$GPZDA,225957.00,01,01,2025,,*6D
$GPDTM,W84,,00.0000000,N,00.0000000,E,00.0000000,W84*5F
$PSSN,TFM,225957.00,,,,*61
$GPRMC,225957.00,A,4742.1601544,N,01618.1003584,E,0.0,,010125,5.1,E,D*10
$GPGLL,4742.1601544,N,01618.1003584,E,225957.00,A,D*61
$GPGGA,225957.00,4742.1601544,N,01618.1003584,E,2,37,0.4,708.1881,M,43.2066,M,1.7,0136*44
$GNGNS,225957.00,4742.1601544,N,01618.1003584,E,DAAA,37,0.4,708.1881,43.2066,,*5A
$GPGNS,225957.00,,,,,,09,,,,1.7,136*78
$GLGNS,225957.00,,,,,,07,,,,,*76
$GAGNS,225957.00,,,,,,08,,,,,*74
$GBGNS,225957.00,,,,,,13,,,,,*7D
$GPLLQ,225957.00,010125,,M,,M,1,37,0.897,,M*1D
$GPVTG,,T,,M,0.00,N,0.01,K,D*27
$GPHDT,,T*1B
$GPTHS,,V*0E
$GPROT,,V*08
$PSSN,HRP,225957.00,010125,,,,,,,00,0,,*6F
$PTNL,AVR,225957.00,,Yaw,,Tilt,,,,0,,00*39
$GPGSA,A,3,02,03,08,10,14,17,21,27,32,,,,0.8,0.4,0.6*34
$GPGSA,A,3,68,69,70,76,77,84,85,,,,,,0.8,0.4,0.6*3E
$GPGSA,A,3,07,08,13,24,26,29,31,33,,,,,0.8,0.4,0.6*3E
$GPGSA,A,3,05,06,13,14,16,27,28,30,32,33,39,41,0.8,0.4,0.6*39
$GPGSA,A,3,60,,,,,,,,,,,,0.8,0.4,0.6*3E
$GPGST,225957.00,3.278,0.395,0.369,6.739,0.394,0.369,0.716*5D
$GPGBS,225957.00,2.222,2.114,4.157,77,0.0001,-14.321,6.417*4D
$GPGRS,225957.00,1,0.0,0.3,-0.1,0.0,0.2,-0.7,-0.2,0.1,0.1,,,*46
$GPGRS,225957.00,1,8.2,1.9,-0.6,-3.8,-14.3,-1.2,3.8,,,,,*5F
$GPGRS,225957.00,1,-0.2,-0.3,0.8,-0.1,-0.2,-0.2,-0.7,-0.2,,,,*60
$GPGRS,225957.00,1,1.3,1.3,0.2,-0.5,1.3,0.0,-0.4,-0.1,-0.3,-0.9,-1.4,-0.6*64
$GPGRS,225957.00,1,-2.1,,,,,,,,,,,*40
$GPGSV,5,1,18,21,82,334,45,03,26,240,43,14,16,301,41,10,28,057,45*73
$GPGSV,5,2,18,27,20,164,41,32,48,081,49,08,48,189,48,02,61,302,49*7E
$GPGSV,5,3,18,17,07,321,40,36,35,170,45,58,13,245,38,57,11,108,38*70
$GPGSV,5,4,18,34,31,208,42,40,24,132,36,49,34,195,44,41,07,108,34*74
$GPGSV,5,5,18,61,03,257,38*4F
$GLGSV,3,1,09,69,70,069,52,76,12,322,44,68,22,033,47,70,34,197,41*68
$GLGSV,3,2,09,85,51,323,51,84,65,095,40,83,05,123,23,77,05,004,37*6F
$GLGSV,3,3,09,75,02,269,38*5A
$GAGSV,3,1,11,26,68,078,48,29,28,166,42,24,13,323,39,08,21,041,40*63
$GAGSV,3,2,11,13,17,100,41,31,23,272,41,33,54,300,47,07,49,098,46*60
$GAGSV,3,3,11,16,02,345,,23,10,223,,12,03,287,29*5A
$GBGSV,6,1,22,27,82,183,52,06,13,082,37,60,10,109,39,20,24,198,*65
$GBGSV,6,2,22,13,12,061,39,05,24,128,38,16,14,078,39,32,32,208,46*6F
$GBGSV,6,3,22,29,34,303,,39,17,068,40,28,37,136,47,33,34,050,46*6D
$GBGSV,6,4,22,30,41,304,48,57,73,294,,41,75,122,51,14,09,043,38*6F
$GBGSV,6,5,22,02,09,105,34,26,02,334,,31,06,086,,45,00,330,*69
$GBGSV,6,6,22,08,03,060,35,09,08,092,*6A
$GPGGA,225957.00,,,,,0,00,,,M,,M,,*46
$PTNL,GGK,225957.00,010125,4742.1601544,N,01618.1003584,E,1,37,0.8,EHT751.3947,M*41
$GPGGQ,225957.00,010125,4742.1601544,N,01618.1003584,E,1,37,0.897,708.1881,M*34
$GPGFA,225957.00,3.751,5.874,0.395,0.369,6.739,0.716,,VVV*0B
$GPLLK,225957.00,010125,,M,,M,1,37,0.8,,M*09
$GNGMP,225957.00,,,,,DAAA,37,0.4,,,,*58
$GPGMP,225957.00,,,,,,09,,,,1.7,136*78
$GLGMP,225957.00,,,,,,07,,,,,*76
$GAGMP,225957.00,,,,,,08,,,,,*74
$GBGMP,225957.00,,,,,,13,,,,,*7D
$PSSN,SNC,[0,342015000,2347]*45
$GPZDA,230002.00,01,01,2025,,*60
$GPDTM,W84,,00.0000000,N,00.0000000,E,00.0000000,W84*5F
$PSSN,TFM,230002.00,,,,*6C
$GPRMC,230002.00,A,4742.1601570,N,01618.1003596,E,0.0,,010125,5.1,E,D*19
$GPGLL,4742.1601570,N,01618.1003596,E,230002.00,A,D*68
$GPGGA,230002.00,4742.1601570,N,01618.1003596,E,2,37,0.4,708.1911,M,43.2066,M,2.2,0136*43
$GNGNS,230002.00,4742.1601570,N,01618.1003596,E,DAAA,37,0.4,708.1911,43.2066,,*5B
$GPGNS,230002.00,,,,,,09,,,,2.2,136*73
$GLGNS,230002.00,,,,,,07,,,,,*7B
$GAGNS,230002.00,,,,,,08,,,,,*79
$GBGNS,230002.00,,,,,,13,,,,,*70
$GPLLQ,230002.00,010125,,M,,M,1,37,0.873,,M*1A
$GPVTG,,T,,M,0.00,N,0.00,K,D*26
$GPHDT,,T*1B
$GPTHS,,V*0E
$GPROT,,V*08
$PSSN,HRP,230002.00,010125,,,,,,,00,0,,*62
$PTNL,AVR,230002.00,,Yaw,,Tilt,,,,0,,00*34
$GPGSA,A,3,02,03,08,10,14,17,21,27,32,,,,0.8,0.4,0.6*34
$GPGSA,A,3,68,69,70,76,77,84,85,,,,,,0.8,0.4,0.6*3E
$GPGSA,A,3,07,08,13,24,26,29,31,33,,,,,0.8,0.4,0.6*3E
$GPGSA,A,3,05,06,13,14,16,27,28,30,32,33,39,41,0.8,0.4,0.6*39
$GPGSA,A,3,60,,,,,,,,,,,,0.8,0.4,0.6*3E
$GPGST,230002.00,3.274,0.381,0.355,1.989,0.381,0.355,0.701*59
$GPGBS,230002.00,2.244,2.162,4.212,77,0.0001,-14.014,6.415*44
$GPGRS,230002.00,1,-0.1,0.3,0.3,-0.1,0.1,-0.5,-0.2,0.2,0.0,,,*67
$GPGRS,230002.00,1,8.0,2.0,-1.4,-4.3,-14.0,-1.0,4.3,,,,,*58
$GPGRS,230002.00,1,-0.1,0.2,0.5,-0.9,-0.2,-0.2,-0.7,-0.0,,,,*45
$GPGRS,230002.00,1,1.1,1.6,-0.4,-0.1,1.4,-0.2,-0.5,-0.2,-0.2,-1.1,-1.4,-0.6*63
$GPGRS,230002.00,1,-2.4,,,,,,,,,,,*48
$GPGSV,5,1,18,21,83,334,44,03,26,240,43,14,16,301,41,10,28,057,44*72
$GPGSV,5,2,18,27,20,164,41,32,48,081,49,08,48,189,48,02,61,302,49*7E
$GPGSV,5,3,18,17,07,321,41,36,35,170,45,58,13,245,38,57,11,108,38*71
$GPGSV,5,4,18,34,31,208,42,40,24,132,36,49,34,195,44,41,07,108,34*74
$GPGSV,5,5,18,61,03,257,38*4F
$GLGSV,3,1,09,69,70,068,52,76,12,322,45,68,22,033,47,70,34,197,40*69
$GLGSV,3,2,09,85,51,323,51,84,65,095,39,83,05,123,23,77,05,004,38*6E
$GLGSV,3,3,09,75,02,269,40*55
$GAGSV,3,1,11,26,68,078,48,29,28,166,42,24,13,323,39,08,21,041,41*62
$GAGSV,3,2,11,13,17,100,41,31,23,272,42,33,54,300,47,07,49,098,46*63
$GAGSV,3,3,11,16,02,345,,23,10,223,,12,03,287,32*50
$GBGSV,6,1,22,27,82,183,51,06,13,081,38,60,10,109,39,20,25,198,*6B
$GBGSV,6,2,22,13,12,061,39,05,24,128,38,16,14,078,39,32,32,208,47*6E
$GBGSV,6,3,22,29,34,303,,39,17,068,40,28,37,136,47,33,34,050,46*6D
$GBGSV,6,4,22,30,41,304,48,57,73,294,,41,75,122,51,14,09,043,38*6F
$GBGSV,6,5,22,02,09,105,33,26,02,334,,31,06,086,,45,00,330,*6E
$GBGSV,6,6,22,08,03,060,35,09,08,092,*6A
$GPGGA,230002.00,,,,,0,00,,,M,,M,,*4B
$PTNL,GGK,230002.00,010125,4742.1601570,N,01618.1003596,E,1,37,0.8,EHT751.3976,M*4A
$GPGGQ,230002.00,010125,4742.1601570,N,01618.1003596,E,1,37,0.873,708.1911,M*3F
$GPGFA,230002.00,3.626,5.746,0.381,0.355,1.989,0.701,,VVV*07
$GPLLK,230002.00,010125,,M,,M,1,37,0.8,,M*04
$GNGMP,230002.00,,,,,DAAA,37,0.4,,,,*55
$GPGMP,230002.00,,,,,,09,,,,2.2,136*73
$GLGMP,230002.00,,,,,,07,,,,,*7B
$GAGMP,230002.00,,,,,,08,,,,,*79
$GBGMP,230002.00,,,,,,13,,,,,*70
$PSSN,SNC,[0,342020000,2347]*43
$GPZDA,230007.00,01,01,2025,,*65
$GPDTM,W84,,00.0000000,N,00.0000000,E,00.0000000,W84*5F
$PSSN,TFM,230007.00,,,,*69
$GPRMC,230007.00,A,4742.1601589,N,01618.1003598,E,0.0,,010125,5.1,E,D*14
$GPGLL,4742.1601589,N,01618.1003598,E,230007.00,A,D*65
$GPGGA,230007.00,4742.1601589,N,01618.1003598,E,2,37,0.4,708.1851,M,43.2066,M,3.2,0136*4A
$GNGNS,230007.00,4742.1601589,N,01618.1003598,E,DAAA,37,0.4,708.1851,43.2066,,*53
$GPGNS,230007.00,,,,,,09,,,,3.2,136*77
$GLGNS,230007.00,,,,,,07,,,,,*7E
$GAGNS,230007.00,,,,,,08,,,,,*7C
$GBGNS,230007.00,,,,,,13,,,,,*75
$GPLLQ,230007.00,010125,,M,,M,1,37,0.834,,M*1C
$GPVTG,,T,,M,0.01,N,0.01,K,D*26
$GPHDT,,T*1B
$GPTHS,,V*0E
$GPROT,,V*08
$PSSN,HRP,230007.00,010125,,,,,,,00,0,,*67
$PTNL,AVR,230007.00,,Yaw,,Tilt,,,,0,,00*31
$GPGSA,A,3,02,03,08,10,14,17,21,27,32,,,,0.8,0.4,0.6*34
$GPGSA,A,3,68,69,70,76,77,84,85,,,,,,0.8,0.4,0.6*3E
$GPGSA,A,3,07,08,13,24,26,29,31,33,,,,,0.8,0.4,0.6*3E
$GPGSA,A,3,05,06,13,14,16,27,28,30,32,33,39,41,0.8,0.4,0.6*39
$GPGSA,A,3,60,,,,,,,,,,,,0.8,0.4,0.6*3E
$GPGST,230007.00,2.876,0.365,0.335,0.114,0.365,0.335,0.671*5E
$GPGBS,230007.00,2.267,2.183,4.282,77,0.0001,-12.578,6.416*4C
$GPGRS,230007.00,1,0.0,-0.1,0.1,-0.1,0.1,-0.2,0.1,-0.3,-0.0,,,*4B
$GPGRS,230007.00,1,6.6,1.6,-1.9,-3.3,-12.6,-0.9,4.0,,,,,*51
$GPGRS,230007.00,1,-0.0,0.5,0.2,-0.2,-0.2,-0.1,-0.6,-0.1,,,,*49
$GPGRS,230007.00,1,0.9,1.4,-0.1,0.0,1.2,-0.1,-0.1,0.1,-0.7,-0.7,-0.7,-0.5*68
$GPGRS,230007.00,1,-2.6,,,,,,,,,,,*4F
$GPGSV,5,1,18,21,83,334,44,03,26,240,43,14,16,301,41,10,28,057,44*72
$GPGSV,5,2,18,27,20,164,41,32,48,081,49,08,48,189,48,02,61,302,49*7E
$GPGSV,5,3,18,17,07,321,40,36,35,170,45,58,13,245,38,57,11,108,38*70
$GPGSV,5,4,18,34,31,208,42,40,24,132,36,49,34,195,44,41,07,108,34*74
$GPGSV,5,5,18,61,03,257,38*4F
$GLGSV,3,1,09,69,70,068,52,76,12,322,45,68,22,033,46,70,34,197,40*68
$GLGSV,3,2,09,85,51,323,51,84,65,096,40,83,05,123,23,77,05,004,38*63
$GLGSV,3,3,09,75,01,269,40*56
$GAGSV,3,1,11,26,68,078,48,29,28,166,42,24,13,323,39,08,21,041,41*62
$GAGSV,3,2,11,13,17,100,40,31,23,272,42,33,54,300,47,07,49,098,46*62
$GAGSV,3,3,11,16,02,345,,23,10,223,,12,03,287,30*52
$GBGSV,6,1,22,27,82,183,52,06,13,081,37,60,10,109,40,20,25,198,*69
$GBGSV,6,2,22,13,12,061,39,05,24,128,38,16,14,078,40,32,32,208,46*61
$GBGSV,6,3,22,29,34,303,,39,17,068,40,28,36,136,48,33,33,050,47*65
$GBGSV,6,4,22,30,41,304,48,57,73,294,,41,75,122,51,14,09,043,39*6E
$GBGSV,6,5,22,02,09,105,33,26,02,334,,31,06,086,,45,00,330,*6E
$GBGSV,6,6,22,08,03,060,34,09,08,092,*6B
$GPGGA,230007.00,,,,,0,00,,,M,,M,,*4E
$PTNL,GGK,230007.00,010125,4742.1601589,N,01618.1003598,E,1,37,0.8,EHT751.3916,M*41
$GPGGQ,230007.00,010125,4742.1601589,N,01618.1003598,E,1,37,0.834,708.1851,M*34
$GPGFA,230007.00,3.466,5.506,0.365,0.335,0.114,0.671,,VVV*05
$GPLLK,230007.00,010125,,M,,M,1,37,0.8,,M*01
$GNGMP,230007.00,,,,,DAAA,37,0.4,,,,*50
$GPGMP,230007.00,,,,,,09,,,,3.2,136*77
$GLGMP,230007.00,,,,,,07,,,,,*7E
$GAGMP,230007.00,,,,,,08,,,,,*7C
$GBGMP,230007.00,,,,,,13,,,,,*75
$PSSN,SNC,[0,342025000,2347]*46
$GPZDA,230012.00,01,01,2025,,*61
$GPDTM,W84,,00.0000000,N,00.0000000,E,00.0000000,W84*5F
$PSSN,TFM,230012.00,,,,*6D
$GPRMC,230012.00,A,4742.1601598,N,01618.1003597,E,0.0,,010125,5.1,E,D*1F
$GPGLL,4742.1601598,N,01618.1003597,E,230012.00,A,D*6E
$GPGGA,230012.00,4742.1601598,N,01618.1003597,E,2,37,0.4,708.1789,M,43.2066,M,2.9,0136*41
$GNGNS,230012.00,4742.1601598,N,01618.1003597,E,DAAA,37,0.4,708.1789,43.2066,,*52
$GPGNS,230012.00,,,,,,09,,,,2.9,136*79
$GLGNS,230012.00,,,,,,07,,,,,*7A
$GAGNS,230012.00,,,,,,08,,,,,*78
$GBGNS,230012.00,,,,,,13,,,,,*71
$GPLLQ,230012.00,010125,,M,,M,1,37,0.835,,M*19
$GPVTG,,T,,M,0.00,N,0.00,K,D*26
$GPHDT,,T*1B
$GPTHS,,V*0E
$GPROT,,V*08
$PSSN,HRP,230012.00,010125,,,,,,,00,0,,*63
$PTNL,AVR,230012.00,,Yaw,,Tilt,,,,0,,00*35
$GPGSA,A,3,02,03,08,10,14,17,21,27,32,,,,0.8,0.4,0.6*34
$GPGSA,A,3,68,69,70,76,77,84,85,,,,,,0.8,0.4,0.6*3E
$GPGSA,A,3,07,08,13,24,26,29,31,33,,,,,0.8,0.4,0.6*3E
$GPGSA,A,3,05,06,13,14,16,27,28,30,32,33,39,41,0.8,0.4,0.6*39
$GPGSA,A,3,60,,,,,,,,,,,,0.8,0.4,0.6*3E
$GPGST,230012.00,2.744,0.366,0.340,6.087,0.365,0.340,0.669*53
$GPGBS,230012.00,2.187,2.188,4.314,77,0.0001,-11.903,6.414*41
$GPGRS,230012.00,1,-0.2,0.2,0.3,0.0,-0.1,-0.2,0.1,-0.5,0.0,,,*66
$GPGRS,230012.00,1,6.7,0.9,-1.6,-3.0,-11.9,-1.2,3.9,,,,,*5E
$GPGRS,230012.00,1,0.1,0.2,0.4,-0.0,-0.2,0.2,-0.5,0.2,,,,*61
$GPGRS,230012.00,1,0.7,0.9,0.6,0.2,1.5,0.2,-0.0,-0.2,-0.5,-0.5,-0.6,-0.5*41
$GPGRS,230012.00,1,-1.9,,,,,,,,,,,*47
$GPGSV,5,1,18,21,83,334,44,03,26,240,43,14,16,301,40,10,28,057,44*73
$GPGSV,5,2,18,27,20,164,41,32,48,081,49,08,48,189,48,02,61,302,49*7E
$GPGSV,5,3,18,17,07,321,40,36,35,170,45,58,13,245,38,57,11,108,38*70
$GPGSV,5,4,18,34,31,208,43,40,24,132,36,49,34,195,44,41,07,108,35*74
$GPGSV,5,5,18,61,03,257,38*4F
$GLGSV,3,1,09,69,69,068,52,76,12,322,44,68,22,033,46,70,34,197,41*60
$GLGSV,3,2,09,85,51,323,51,84,65,096,40,83,05,123,23,77,05,004,38*63
$GLGSV,3,3,09,75,01,269,39*58
$GAGSV,3,1,11,26,68,078,48,29,28,166,42,24,13,323,39,08,21,041,41*62
$GAGSV,3,2,11,13,17,100,40,31,23,272,42,33,54,300,47,07,49,098,46*62
$GAGSV,3,3,11,16,02,345,,23,10,223,,12,03,287,32*50
$GBGSV,6,1,22,27,81,183,52,06,13,081,38,60,10,109,40,20,25,198,*65
$GBGSV,6,2,22,13,12,061,39,05,24,128,38,16,14,078,40,32,32,208,47*60
$GBGSV,6,3,22,29,34,303,,39,17,068,40,28,36,136,48,33,33,050,46*64
$GBGSV,6,4,22,30,41,304,48,57,73,294,,41,75,122,51,14,09,043,39*6E
$GBGSV,6,5,22,02,09,105,33,26,02,334,,31,06,086,,45,00,330,*6E
$GBGSV,6,6,22,08,03,060,35,09,08,092,*6A
$GPGGA,230012.00,,,,,0,00,,,M,,M,,*4A
$PTNL,GGK,230012.00,010125,4742.1601598,N,01618.1003597,E,1,37,0.8,EHT751.3855,M*4C
$GPGGQ,230012.00,010125,4742.1601598,N,01618.1003597,E,1,37,0.835,708.1789,M*34
$GPGFA,230012.00,3.476,5.489,0.366,0.340,6.087,0.669,,VVV*03
$GPLLK,230012.00,010125,,M,,M,1,37,0.8,,M*05
$GNGMP,230012.00,,,,,DAAA,37,0.4,,,,*54
$GPGMP,230012.00,,,,,,09,,,,2.9,136*79
$GLGMP,230012.00,,,,,,07,,,,,*7A
$GAGMP,230012.00,,,,,,08,,,,,*78
$GBGMP,230012.00,,,,,,13,,,,,*71
$PSSN,SNC,[0,342030000,2347]*42
$GPZDA,230017.00,01,01,2025,,*64
$GPDTM,W84,,00.0000000,N,00.0000000,E,00.0000000,W84*5F
$PSSN,TFM,230017.00,,,,*68
$GPRMC,230017.00,A,4742.1601616,N,01618.1003581,E,0.0,,010125,5.1,E,D*18
$GPGLL,4742.1601616,N,01618.1003581,E,230017.00,A,D*69
$GPGGA,230017.00,4742.1601616,N,01618.1003581,E,2,37,0.4,708.1771,M,43.2066,M,1.7,0136*4C
$GNGNS,230017.00,4742.1601616,N,01618.1003581,E,DAAA,37,0.4,708.1771,43.2066,,*52
$GPGNS,230017.00,,,,,,09,,,,1.7,136*71
$GLGNS,230017.00,,,,,,07,,,,,*7F
$GAGNS,230017.00,,,,,,08,,,,,*7D
$GBGNS,230017.00,,,,,,13,,,,,*74
$GPLLQ,230017.00,010125,,M,,M,1,37,0.835,,M*1C
$GPVTG,,T,,M,0.00,N,0.00,K,D*26
$GPHDT,,T*1B
$GPTHS,,V*0E
$GPROT,,V*08
$PSSN,HRP,230017.00,010125,,,,,,,00,0,,*66
$PTNL,AVR,230017.00,,Yaw,,Tilt,,,,0,,00*30
$GPGSA,A,3,02,03,08,10,14,17,21,27,32,,,,0.8,0.4,0.6*34
$GPGSA,A,3,68,69,70,76,77,84,85,,,,,,0.8,0.4,0.6*3E
$GPGSA,A,3,07,08,13,24,26,29,31,33,,,,,0.8,0.4,0.6*3E
$GPGSA,A,3,05,06,13,14,16,27,28,30,32,33,39,41,0.8,0.4,0.6*39
$GPGSA,A,3,60,,,,,,,,,,,,0.8,0.4,0.6*3E
$GPGST,230017.00,3.021,0.366,0.344,15.039,0.365,0.346,0.667*68
$GPGBS,230017.00,2.148,2.097,4.103,77,0.0001,-13.191,6.423*49
$GPGRS,230017.00,1,-0.2,0.4,0.3,0.1,-0.4,-0.3,0.1,-0.4,-0.0,,,*4C
$GPGRS,230017.00,1,7.6,1.3,-1.5,-3.7,-13.2,-0.5,3.7,,,,,*55
$GPGRS,230017.00,1,-0.1,-0.0,0.6,-0.3,0.1,0.2,-0.6,0.2,,,,*4A
$GPGRS,230017.00,1,0.9,0.7,0.3,0.4,1.1,0.1,0.4,0.1,-0.1,-0.5,-0.7,-0.9*4E
$GPGRS,230017.00,1,-2.0,,,,,,,,,,,*48
$GPGSV,5,1,18,21,83,334,44,03,26,240,43,14,16,301,40,10,28,057,44*73
$GPGSV,5,2,18,27,20,164,41,32,48,081,49,08,48,189,49,02,61,302,49*7F
$GPGSV,5,3,18,17,08,321,40,36,35,170,45,58,13,245,38,57,11,108,38*7F
$GPGSV,5,4,18,34,31,208,42,40,24,132,36,49,34,195,44,41,07,108,34*74
$GPGSV,5,5,18,61,03,257,38*4F
$GLGSV,3,1,10,69,69,068,52,76,12,322,44,68,22,033,46,70,34,197,41*68
$GLGSV,3,2,10,85,51,323,51,84,65,096,40,83,04,123,22,77,05,004,36*65
$GLGSV,3,3,10,75,01,269,40,86,00,308,*6B
$GAGSV,3,1,11,26,68,078,48,29,28,166,42,24,13,323,39,08,21,041,41*62
$GAGSV,3,2,11,13,17,100,40,31,23,272,42,33,54,300,47,07,49,098,46*62
$GAGSV,3,3,11,16,02,345,,23,10,223,,12,03,287,28*5B
$GBGSV,6,1,22,27,81,183,52,06,13,081,38,60,10,109,40,20,25,198,*65
$GBGSV,6,2,22,13,12,061,39,05,24,128,38,16,14,078,40,32,32,208,47*60
$GBGSV,6,3,22,28,36,136,48,39,17,068,40,29,34,303,,33,33,050,46*64
$GBGSV,6,4,22,30,41,304,48,57,73,294,,41,75,122,51,14,09,043,39*6E
$GBGSV,6,5,22,08,03,060,35,26,02,334,,31,06,086,,45,00,330,*6A
$GBGSV,6,6,22,02,09,105,34,09,08,092,*69
$GPGGA,230017.00,,,,,0,00,,,M,,M,,*4F
$PTNL,GGK,230017.00,010125,4742.1601616,N,01618.1003581,E,1,37,0.8,EHT751.3836,M*4E
$GPGGQ,230017.00,010125,4742.1601616,N,01618.1003581,E,1,37,0.835,708.1771,M*34
$GPGFA,230017.00,3.481,5.466,0.366,0.344,15.039,0.667,,VVV*32
$GPLLK,230017.00,010125,,M,,M,1,37,0.8,,M*00
$GNGMP,230017.00,,,,,DAAA,37,0.4,,,,*51
$GPGMP,230017.00,,,,,,09,,,,1.7,136*71
$GLGMP,230017.00,,,,,,07,,,,,*7F
$GAGMP,230017.00,,,,,,08,,,,,*7D
$GBGMP,230017.00,,,,,,13,,,,,*74
$PSSN,SNC,[0,342035000,2347]*47
$GPZDA,230022.00,01,01,2025,,*62
$GPDTM,W84,,00.0000000,N,00.0000000,E,00.0000000,W84*5F
$PSSN,TFM,230022.00,,,,*6E
$GPRMC,230022.00,A,4742.1601643,N,01618.1003585,E,0.0,,010125,5.1,E,D*1A
$GPGLL,4742.1601643,N,01618.1003585,E,230022.00,A,D*6B
$GPGGA,230022.00,4742.1601643,N,01618.1003585,E,2,37,0.4,708.1727,M,43.2066,M,2.2,0136*4B
$GNGNS,230022.00,4742.1601643,N,01618.1003585,E,DAAA,37,0.4,708.1727,43.2066,,*53
$GPGNS,230022.00,,,,,,09,,,,2.2,136*71
$GLGNS,230022.00,,,,,,07,,,,,*79
$GAGNS,230022.00,,,,,,08,,,,,*7B
$GBGNS,230022.00,,,,,,13,,,,,*72
$GPLLQ,230022.00,010125,,M,,M,1,37,0.858,,M*11
$GPVTG,,T,,M,0.00,N,0.01,K,D*27
$GPHDT,,T*1B
$GPTHS,,V*0E
$GPROT,,V*08
$PSSN,HRP,230022.00,010125,,,,,,,00,0,,*60
$PTNL,AVR,230022.00,,Yaw,,Tilt,,,,0,,00*36
$GPGSA,A,3,02,03,08,10,14,17,21,27,32,,,,0.8,0.4,0.6*34
$GPGSA,A,3,68,69,70,76,77,84,85,,,,,,0.8,0.4,0.6*3E
$GPGSA,A,3,07,08,13,24,26,29,31,33,,,,,0.8,0.4,0.6*3E
$GPGSA,A,3,05,06,13,14,16,27,28,30,32,33,39,41,0.8,0.4,0.6*39
$GPGSA,A,3,60,,,,,,,,,,,,0.8,0.4,0.6*3E
$GPGST,230022.00,3.170,0.373,0.351,8.968,0.372,0.351,0.688*5B
$GPGBS,230022.00,2.169,2.145,4.155,77,0.0001,-14.071,6.414*4D
$GPGRS,230022.00,1,-0.2,0.3,0.2,0.1,-0.0,-0.4,0.1,-0.5,0.2,,,*61
$GPGRS,230022.00,1,7.9,1.2,-1.3,-3.8,-14.1,-1.4,3.1,,,,,*56
$GPGRS,230022.00,1,-0.3,-0.0,0.3,0.1,0.0,0.3,-0.5,0.1,,,,*64
$GPGRS,230022.00,1,1.6,1.4,-0.1,0.7,0.9,0.1,0.2,0.3,-0.1,-0.6,-0.4,-0.9*65
$GPGRS,230022.00,1,-2.0,,,,,,,,,,,*4E
$GPGSV,5,1,18,21,83,335,44,03,26,240,43,14,16,301,41,10,28,057,44*73
$GPGSV,5,2,18,27,20,164,41,32,48,081,49,08,48,189,48,02,61,302,49*7E
$GPGSV,5,3,18,17,08,321,39,36,35,170,45,58,13,245,38,57,11,108,38*71
$GPGSV,5,4,18,34,31,208,43,40,24,132,36,49,34,195,44,41,07,108,34*75
$GPGSV,5,5,18,61,03,257,38*4F
$GLGSV,3,1,10,69,69,068,52,76,12,322,43,68,22,033,46,70,34,197,41*6F
$GLGSV,3,2,10,85,51,323,51,84,65,096,40,83,04,123,21,77,06,004,37*64
$GLGSV,3,3,10,75,01,269,40,86,00,308,*6B
$GAGSV,3,1,11,26,68,079,48,29,28,166,43,24,13,323,39,08,21,041,41*62
$GAGSV,3,2,11,13,17,100,39,31,23,272,42,33,54,300,47,07,49,098,46*6C
$GAGSV,3,3,11,16,02,345,,23,10,223,,12,03,287,32*50
$GBGSV,6,1,22,27,81,182,52,06,13,081,38,60,10,109,40,20,25,198,*64
$GBGSV,6,2,22,13,12,061,39,05,24,128,38,16,14,078,40,32,32,208,46*61
$GBGSV,6,3,22,28,36,136,48,39,17,068,40,29,34,303,,33,33,050,46*64
$GBGSV,6,4,22,30,41,304,48,57,73,294,,41,75,122,51,14,09,043,38*6F
$GBGSV,6,5,22,08,03,060,34,26,02,334,,31,06,086,,45,00,330,*6B
$GBGSV,6,6,22,02,09,105,33,09,08,092,*6E
$GPGGA,230022.00,,,,,0,00,,,M,,M,,*49
$PTNL,GGK,230022.00,010125,4742.1601643,N,01618.1003585,E,1,37,0.8,EHT751.3793,M*4C
$GPGGQ,230022.00,010125,4742.1601643,N,01618.1003585,E,1,37,0.858,708.1727,M*3E
$GPGFA,230022.00,3.546,5.643,0.373,0.351,8.968,0.688,,VVV*0B
$GPLLK,230022.00,010125,,M,,M,1,37,0.8,,M*06
$GNGMP,230022.00,,,,,DAAA,37,0.4,,,,*57
$GPGMP,230022.00,,,,,,09,,,,2.2,136*71
$GLGMP,230022.00,,,,,,07,,,,,*79
$GAGMP,230022.00,,,,,,08,,,,,*7B
$GBGMP,230022.00,,,,,,13,,,,,*72
$PSSN,SNC,[0,342040000,2347]*45
$GPZDA,230027.00,01,01,2025,,*67
$GPDTM,W84,,00.0000000,N,00.0000000,E,00.0000000,W84*5F
$PSSN,TFM,230027.00,,,,*6B
$GPRMC,230027.00,A,4742.1601648,N,01618.1003564,E,0.0,,010125,5.1,E,D*1B
$GPGLL,4742.1601648,N,01618.1003564,E,230027.00,A,D*6A
$GPGGA,230027.00,4742.1601648,N,01618.1003564,E,2,37,0.4,708.1683,M,43.2066,M,3.2,0136*44
$GNGNS,230027.00,4742.1601648,N,01618.1003564,E,DAAA,37,0.4,708.1683,43.2066,,*5D
$GPGNS,230027.00,,,,,,09,,,,3.2,136*75
$GLGNS,230027.00,,,,,,07,,,,,*7C
$GAGNS,230027.00,,,,,,08,,,,,*7E
$GBGNS,230027.00,,,,,,13,,,,,*77
$GPLLQ,230027.00,010125,,M,,M,1,37,0.860,,M*1F
$GPVTG,,T,,M,0.00,N,0.00,K,D*26
$GPHDT,,T*1B
$GPTHS,,V*0E
$GPROT,,V*08
$PSSN,HRP,230027.00,010125,,,,,,,00,0,,*65
$PTNL,AVR,230027.00,,Yaw,,Tilt,,,,0,,00*33
$GPGSA,A,3,02,03,08,10,14,17,21,27,32,,,,0.8,0.4,0.6*34
$GPGSA,A,3,68,69,70,76,77,84,85,,,,,,0.8,0.4,0.6*3E
$GPGSA,A,3,07,08,13,24,26,29,31,33,,,,,0.8,0.4,0.6*3E
$GPGSA,A,3,05,06,13,14,16,27,28,30,32,33,39,41,0.8,0.4,0.6*39
$GPGSA,A,3,60,,,,,,,,,,,,0.8,0.4,0.6*3E
$GPGST,230027.00,2.960,0.374,0.347,5.765,0.374,0.347,0.692*52
$GPGBS,230027.00,2.186,2.165,4.221,77,0.0001,-13.211,6.417*4B
$GPGRS,230027.00,1,-0.1,0.1,0.2,0.0,0.1,-0.6,0.2,-0.3,0.1,,,*4C
$GPGRS,230027.00,1,6.2,1.4,-2.0,-4.4,-13.2,-1.3,3.3,,,,,*55
$GPGRS,230027.00,1,-0.3,0.1,-0.1,0.6,0.0,0.2,-0.5,0.1,,,,*64
$GPGRS,230027.00,1,1.2,1.7,-0.1,0.8,0.6,0.1,0.1,0.1,0.2,-0.6,-0.3,-0.9*4F
$GPGRS,230027.00,1,-1.8,,,,,,,,,,,*40
$GPGSV,5,1,18,21,83,335,45,03,26,240,43,14,16,300,40,10,28,057,44*72
$GPGSV,5,2,18,27,20,164,41,32,48,081,49,08,48,189,48,02,61,302,49*7E
$GPGSV,5,3,18,17,08,321,40,36,35,170,45,58,13,245,38,57,11,108,37*70
$GPGSV,5,4,18,34,31,208,42,40,24,132,36,49,34,195,44,41,07,108,34*74
$GPGSV,5,5,18,61,03,257,38*4F
$GLGSV,3,1,10,69,69,068,52,76,12,322,43,68,22,033,45,70,34,197,40*6D
$GLGSV,3,2,10,85,51,323,51,84,65,096,40,83,04,123,22,77,06,004,36*66
$GLGSV,3,3,10,75,01,269,40,86,00,308,*6B
$GAGSV,3,1,11,26,68,079,48,29,28,166,43,24,13,323,39,08,21,041,41*62
$GAGSV,3,2,11,13,17,100,39,31,23,272,41,33,54,300,47,07,49,098,46*6F
$GAGSV,3,3,11,16,02,345,,23,10,223,,12,03,287,30*52
$GBGSV,6,1,22,27,81,182,52,06,13,081,38,60,10,109,40,20,25,198,*64
$GBGSV,6,2,22,13,12,061,38,05,24,128,38,16,14,078,40,32,32,208,46*60
$GBGSV,6,3,22,28,36,136,47,39,17,068,41,29,34,303,,33,33,050,47*6B
$GBGSV,6,4,22,30,41,304,48,57,73,294,,41,75,121,51,14,09,043,38*6C
$GBGSV,6,5,22,08,03,060,34,26,02,334,,31,06,086,,45,00,330,*6B
$GBGSV,6,6,22,02,09,105,33,09,08,092,*6E
$GPGGA,230027.00,,,,,0,00,,,M,,M,,*4C
$PTNL,GGK,230027.00,010125,4742.1601648,N,01618.1003564,E,1,37,0.8,EHT751.3748,M*4B
$GPGGQ,230027.00,010125,4742.1601648,N,01618.1003564,E,1,37,0.860,708.1683,M*3B
$GPGFA,230027.00,3.554,5.676,0.374,0.347,5.765,0.692,,VVV*0E
$GPLLK,230027.00,010125,,M,,M,1,37,0.8,,M*03
$GNGMP,230027.00,,,,,DAAA,37,0.4,,,,*52
$GPGMP,230027.00,,,,,,09,,,,3.2,136*75
$GLGMP,230027.00,,,,,,07,,,,,*7C
$GAGMP,230027.00,,,,,,08,,,,,*7E
$GBGMP,230027.00,,,,,,13,,,,,*77
$PSSN,SNC,[0,342045000,2347]*40
$GPZDA,230032.00,01,01,2025,,*63
$GPDTM,W84,,00.0000000,N,00.0000000,E,00.0000000,W84*5F
$PSSN,TFM,230032.00,,,,*6F
$GPRMC,230032.00,A,4742.1601645,N,01618.1003564,E,0.0,,010125,5.1,E,D*12
$GPGLL,4742.1601645,N,01618.1003564,E,230032.00,A,D*63
$GPGGA,230032.00,4742.1601645,N,01618.1003564,E,2,37,0.4,708.1610,M,43.2066,M,2.9,0136*4D
$GNGNS,230032.00,4742.1601645,N,01618.1003564,E,DAAA,37,0.4,708.1610,43.2066,,*5E
$GPGNS,230032.00,,,,,,09,,,,2.9,136*7B
$GLGNS,230032.00,,,,,,07,,,,,*78
$GAGNS,230032.00,,,,,,08,,,,,*7A
$GBGNS,230032.00,,,,,,13,,,,,*73
$GPLLQ,230032.00,010125,,M,,M,1,37,0.827,,M*18
$GPVTG,,T,,M,0.00,N,0.00,K,D*26
$GPHDT,,T*1B
$GPTHS,,V*0E
$GPROT,,V*08
$PSSN,HRP,230032.00,010125,,,,,,,00,0,,*61
$PTNL,AVR,230032.00,,Yaw,,Tilt,,,,0,,00*37
$GPGSA,A,3,02,03,08,10,14,17,21,27,32,,,,0.8,0.4,0.6*34
$GPGSA,A,3,68,69,70,76,77,84,85,,,,,,0.8,0.4,0.6*3E
$GPGSA,A,3,07,08,13,24,26,29,31,33,,,,,0.8,0.4,0.6*3E
$GPGSA,A,3,05,06,13,14,16,27,28,30,32,33,39,41,0.8,0.4,0.6*39
$GPGSA,A,3,60,,,,,,,,,,,,0.8,0.4,0.6*3E
$GPGST,230032.00,2.918,0.361,0.339,9.664,0.361,0.339,0.663*5B
$GPGBS,230032.00,2.185,2.187,4.308,77,0.0001,-12.688,6.415*4D
$GPGRS,230032.00,1,-0.0,0.2,0.3,0.1,0.3,-0.3,-0.1,-0.7,0.1,,,*67
$GPGRS,230032.00,1,7.2,1.4,-1.9,-3.6,-12.7,-1.5,3.6,,,,,*58
$GPGRS,230032.00,1,-0.2,-0.1,-0.0,0.5,-0.0,0.1,-0.1,0.1,,,,*64
$GPGRS,230032.00,1,0.4,1.7,-0.0,-0.1,0.8,0.0,0.4,0.4,0.4,-0.3,0.0,-0.9*4B
$GPGRS,230032.00,1,-1.7,,,,,,,,,,,*4B
$GPGSV,5,1,18,21,83,335,44,03,26,240,43,14,16,300,40,10,27,057,45*7D
$GPGSV,5,2,18,27,20,164,41,32,48,081,49,08,48,189,48,02,61,302,49*7E
$GPGSV,5,3,18,17,08,321,40,36,35,170,44,58,13,245,38,57,11,108,37*71
$GPGSV,5,4,18,34,31,208,42,40,24,132,36,49,34,195,44,41,07,108,34*74
$GPGSV,5,5,18,61,03,257,38*4F
$GLGSV,3,1,10,69,69,068,52,76,12,322,44,68,22,033,45,70,34,197,40*6A
$GLGSV,3,2,10,85,51,323,52,84,65,096,39,83,04,123,20,77,06,004,37*68
$GLGSV,3,3,10,75,01,269,40,86,00,308,*6B
$GAGSV,3,1,11,26,68,079,48,29,28,166,43,24,13,323,39,08,21,041,41*62
$GAGSV,3,2,11,13,17,100,39,31,23,272,41,33,54,300,47,07,49,098,46*6F
$GAGSV,3,3,11,16,02,345,,23,10,223,,12,03,287,31*53
$GBGSV,6,1,22,27,81,182,52,06,13,081,38,60,10,109,40,20,25,198,*64
$GBGSV,6,2,22,13,12,062,38,05,24,128,38,16,14,078,40,32,32,208,47*62
$GBGSV,6,3,22,28,36,136,47,39,17,068,41,29,34,303,,33,33,050,47*6B
$GBGSV,6,4,22,30,41,304,48,57,73,294,,41,75,121,51,14,09,043,38*6C
$GBGSV,6,5,22,08,03,060,34,26,02,334,,31,06,086,,45,00,330,*6B
$GBGSV,6,6,22,02,09,105,34,09,08,092,*69
$GPGGA,230032.00,,,,,0,00,,,M,,M,,*48
$PTNL,GGK,230032.00,010125,4742.1601645,N,01618.1003564,E,1,37,0.8,EHT751.3675,M*4D
$GPGGQ,230032.00,010125,4742.1601645,N,01618.1003564,E,1,37,0.827,708.1610,M*3B
$GPGFA,230032.00,3.437,5.435,0.361,0.339,9.664,0.663,,VVV*04
$GPLLK,230032.00,010125,,M,,M,1,37,0.8,,M*07
$GNGMP,230032.00,,,,,DAAA,37,0.4,,,,*56
$GPGMP,230032.00,,,,,,09,,,,2.9,136*7B
$GLGMP,230032.00,,,,,,07,,,,,*78
$GAGMP,230032.00,,,,,,08,,,,,*7A
$GBGMP,230032.00,,,,,,13,,,,,*73
$PSSN,SNC,[0,342050000,2347]*44
$GPZDA,230037.00,01,01,2025,,*66
$GPDTM,W84,,00.0000000,N,00.0000000,E,00.0000000,W84*5F
$PSSN,TFM,230037.00,,,,*6A
$GPRMC,230037.00,A,4742.1601646,N,01618.1003592,E,0.0,,010125,5.1,E,D*1D
$GPGLL,4742.1601646,N,01618.1003592,E,230037.00,A,D*6C
$GPGGA,230037.00,4742.1601646,N,01618.1003592,E,2,37,0.4,708.1578,M,43.2066,M,1.7,0136*42
$GNGNS,230037.00,4742.1601646,N,01618.1003592,E,DAAA,37,0.4,708.1578,43.2066,,*5C
$GPGNS,230037.00,,,,,,09,,,,1.7,136*73
$GLGNS,230037.00,,,,,,07,,,,,*7D
$GAGNS,230037.00,,,,,,08,,,,,*7F
$GBGNS,230037.00,,,,,,13,,,,,*76
$GPLLQ,230037.00,010125,,M,,M,1,37,0.884,,M*14
$GPVTG,,T,,M,0.00,N,0.01,K,D*27
$GPHDT,,T*1B
$GPTHS,,V*0E
$GPROT,,V*08
$PSSN,HRP,230037.00,010125,,,,,,,00,0,,*64
$PTNL,AVR,230037.00,,Yaw,,Tilt,,,,0,,00*32
$GPGSA,A,3,02,03,08,10,14,17,21,27,32,,,,0.8,0.4,0.6*34
$GPGSA,A,3,68,69,70,76,77,84,85,,,,,,0.8,0.4,0.6*3E
$GPGSA,A,3,07,08,13,24,26,29,31,33,,,,,0.8,0.4,0.6*3E
$GPGSA,A,3,05,06,13,14,16,27,28,30,32,33,39,41,0.8,0.4,0.6*39
$GPGSA,A,3,60,,,,,,,,,,,,0.8,0.4,0.6*3E
$GPGST,230037.00,3.228,0.388,0.367,21.023,0.385,0.370,0.704*63
$GPGBS,230037.00,2.157,2.118,4.095,77,0.0001,-13.710,6.414*46
$GPGRS,230037.00,1,-0.1,0.3,0.4,-0.1,0.4,-0.5,-0.2,-0.6,-0.1,,,*66
$GPGRS,230037.00,1,9.3,1.4,-1.6,-2.8,-13.7,-0.7,3.9,,,,,*5F
$GPGRS,230037.00,1,0.1,-0.2,0.4,0.1,-0.0,0.0,-0.7,-0.1,,,,*4B
$GPGRS,230037.00,1,0.9,1.6,0.0,0.1,0.5,0.0,0.4,0.4,0.7,-0.3,-0.2,-0.7*6D
$GPGRS,230037.00,1,-1.9,,,,,,,,,,,*40
$GPGSV,5,1,18,21,83,335,45,03,26,241,43,14,16,300,40,10,27,057,45*7D
$GPGSV,5,2,18,27,20,164,41,32,48,080,49,08,47,189,49,02,61,302,49*71
$GPGSV,5,3,18,17,08,321,39,36,35,170,45,58,13,245,38,57,11,108,37*7E
$GPGSV,5,4,18,34,31,208,42,40,24,132,36,49,34,195,44,41,07,108,34*74
$GPGSV,5,5,18,61,03,257,38*4F
$GLGSV,3,1,10,69,69,068,52,76,12,322,45,68,22,033,46,70,34,197,41*69
$GLGSV,3,2,10,85,51,323,51,84,65,096,40,83,04,123,22,77,06,004,36*66
$GLGSV,3,3,10,75,01,269,40,86,00,308,38*60
$GAGSV,3,1,11,26,68,079,48,29,28,166,42,24,13,323,39,08,21,041,41*63
$GAGSV,3,2,11,13,17,100,39,31,23,272,41,33,54,300,47,07,49,098,46*6F
$GAGSV,3,3,11,16,02,345,,23,10,223,,12,03,287,32*50
$GBGSV,6,1,22,27,81,182,52,06,13,081,38,60,10,109,40,20,25,198,*64
$GBGSV,6,2,22,13,11,062,38,05,24,128,39,16,14,078,40,32,32,208,47*60
$GBGSV,6,3,22,28,36,136,47,39,17,068,41,29,34,303,,33,33,050,46*6A
$GBGSV,6,4,22,30,41,304,48,57,73,294,,41,75,121,51,14,09,043,37*63
$GBGSV,6,5,22,08,03,060,34,26,02,334,,31,06,086,,45,00,330,*6B
$GBGSV,6,6,22,02,09,105,34,09,08,092,*69
$GPGGA,230037.00,,,,,0,00,,,M,,M,,*4D
$PTNL,GGK,230037.00,010125,4742.1601646,N,01618.1003592,E,1,37,0.8,EHT751.3643,M*47
$GPGGQ,230037.00,010125,4742.1601646,N,01618.1003592,E,1,37,0.884,708.1578,M*30
$GPGFA,230037.00,3.689,5.776,0.388,0.367,21.023,0.704,,VVV*31
$GPLLK,230037.00,010125,,M,,M,1,37,0.8,,M*02
$GNGMP,230037.00,,,,,DAAA,37,0.4,,,,*53
$GPGMP,230037.00,,,,,,09,,,,1.7,136*73
$GLGMP,230037.00,,,,,,07,,,,,*7D
$GAGMP,230037.00,,,,,,08,,,,,*7F
$GBGMP,230037.00,,,,,,13,,,,,*76
$PSSN,SNC,[0,342055000,2347]*41
$GPZDA,230042.00,01,01,2025,,*64
$GPDTM,W84,,00.0000000,N,00.0000000,E,00.0000000,W84*5F
$PSSN,TFM,230042.00,,,,*68
$GPRMC,230042.00,A,4742.1601663,N,01618.1003603,E,0.0,,010125,5.1,E,D*13
$GPGLL,4742.1601663,N,01618.1003603,E,230042.00,A,D*62
$GPGGA,230042.00,4742.1601663,N,01618.1003603,E,2,37,0.4,708.1527,M,43.2066,M,2.2,0136*40
$GNGNS,230042.00,4742.1601663,N,01618.1003603,E,DAAA,37,0.4,708.1527,43.2066,,*58
$GPGNS,230042.00,,,,,,09,,,,2.2,136*77
$GLGNS,230042.00,,,,,,07,,,,,*7F
$GAGNS,230042.00,,,,,,08,,,,,*7D
$GBGNS,230042.00,,,,,,13,,,,,*74
$GPLLQ,230042.00,010125,,M,,M,1,37,0.944,,M*1B
$GPVTG,,T,,M,0.00,N,0.01,K,D*27
$GPHDT,,T*1B
$GPTHS,,V*0E
$GPROT,,V*08
$PSSN,HRP,230042.00,010125,,,,,,,00,0,,*66
$PTNL,AVR,230042.00,,Yaw,,Tilt,,,,0,,00*30
$GPGSA,A,3,02,03,08,10,14,17,21,27,32,,,,0.8,0.4,0.6*34
$GPGSA,A,3,68,69,70,76,77,84,85,,,,,,0.8,0.4,0.6*3E
$GPGSA,A,3,07,08,13,24,26,29,31,33,,,,,0.8,0.4,0.6*3E
$GPGSA,A,3,05,06,13,14,16,27,28,30,32,33,39,41,0.8,0.4,0.6*39
$GPGSA,A,3,60,,,,,,,,,,,,0.8,0.4,0.6*3E
$GPGST,230042.00,3.232,0.411,0.388,15.453,0.409,0.390,0.756*62
$GPGBS,230042.00,2.178,2.167,4.148,77,0.0001,-14.102,6.421*44
$GPGRS,230042.00,1,-0.2,0.4,0.5,-0.3,-0.1,-0.2,0.0,-1.1,0.4,,,*4D
$GPGRS,230042.00,1,8.6,1.2,-1.6,-2.9,-14.1,-0.6,3.7,,,,,*50
$GPGRS,230042.00,1,-0.2,-0.2,0.4,-0.1,-0.1,-0.2,-0.7,-0.2,,,,*67
$GPGRS,230042.00,1,1.2,1.9,-0.5,0.1,-0.1,0.0,0.1,0.1,-0.1,-1.0,-0.2,-1.0*44
$GPGRS,230042.00,1,-2.1,,,,,,,,,,,*49
$GPGSV,5,1,18,21,83,335,45,03,26,241,42,14,16,300,41,10,27,057,45*7D
$GPGSV,5,2,18,27,20,164,41,32,48,080,49,08,47,189,49,02,61,302,49*71
$GPGSV,5,3,18,17,08,321,38,36,35,170,44,58,13,245,38,57,11,108,37*7E
$GPGSV,5,4,18,34,31,208,42,40,24,132,36,49,34,195,44,41,07,108,34*74
$GPGSV,5,5,18,61,03,257,38*4F
$GLGSV,3,1,10,69,69,068,52,76,12,321,45,68,22,033,46,70,34,197,41*6A
$GLGSV,3,2,10,85,51,323,51,84,64,096,40,83,04,123,21,77,06,004,35*67
$GLGSV,3,3,10,75,01,269,39,86,00,308,39*6F
$GAGSV,3,1,11,26,68,079,48,29,28,166,43,24,13,323,39,08,21,041,41*62
$GAGSV,3,2,11,13,17,100,39,31,23,272,41,33,54,300,47,07,49,098,46*6F
$GAGSV,3,3,11,16,02,345,,23,10,223,,12,03,287,30*52
$GBGSV,6,1,22,27,81,182,52,06,13,081,37,60,10,109,40,20,25,198,*6B
$GBGSV,6,2,22,13,11,062,38,05,24,128,38,16,14,078,40,32,32,208,47*61
$GBGSV,6,3,22,28,36,136,47,39,17,068,42,29,34,303,,33,33,050,46*69
$GBGSV,6,4,22,30,41,304,48,57,73,294,,41,75,121,51,14,09,043,37*63
$GBGSV,6,5,22,08,03,060,34,26,02,334,,31,06,086,,45,00,330,*6B
$GBGSV,6,6,22,02,09,105,34,09,08,092,*69
$GPGGA,230042.00,,,,,0,00,,,M,,M,,*4F
$PTNL,GGK,230042.00,010125,4742.1601663,N,01618.1003603,E,1,37,0.8,EHT751.3592,M*46
$GPGGQ,230042.00,010125,4742.1601663,N,01618.1003603,E,1,37,0.944,708.1527,M*39
$GPGFA,230042.00,3.904,6.198,0.411,0.388,15.453,0.756,,VVV*39
$GPLLK,230042.00,010125,,M,,M,1,37,0.8,,M*00
$GNGMP,230042.00,,,,,DAAA,37,0.4,,,,*51
$GPGMP,230042.00,,,,,,09,,,,2.2,136*77
$GLGMP,230042.00,,,,,,07,,,,,*7F
$GAGMP,230042.00,,,,,,08,,,,,*7D
$GBGMP,230042.00,,,,,,13,,,,,*74
$PSSN,SNC,[0,342060000,2347]*47
$GPZDA,230047.00,01,01,2025,,*61
$GPDTM,W84,,00.0000000,N,00.0000000,E,00.0000000,W84*5F
$PSSN,TFM,230047.00,,,,*6D
$GPRMC,230047.00,A,4742.1601681,N,01618.1003617,E,0.0,,010125,5.1,E,D*1F
$GPGLL,4742.1601681,N,01618.1003617,E,230047.00,A,D*6E
$GPGGA,230047.00,4742.1601681,N,01618.1003617,E,2,37,0.4,708.1489,M,43.2066,M,3.2,0136*48
$GNGNS,230047.00,4742.1601681,N,01618.1003617,E,DAAA,37,0.4,708.1489,43.2066,,*51
$GPGNS,230047.00,,,,,,09,,,,3.2,136*73
$GLGNS,230047.00,,,,,,07,,,,,*7A
$GAGNS,230047.00,,,,,,08,,,,,*78
$GBGNS,230047.00,,,,,,13,,,,,*71
$GPLLQ,230047.00,010125,,M,,M,1,37,0.892,,M*14
$GPVTG,,T,,M,0.00,N,0.00,K,D*26
$GPHDT,,T*1B
$GPTHS,,V*0E
$GPROT,,V*08
$PSSN,HRP,230047.00,010125,,,,,,,00,0,,*63
$PTNL,AVR,230047.00,,Yaw,,Tilt,,,,0,,00*35
$GPGSA,A,3,02,03,08,10,14,17,21,27,32,,,,0.8,0.4,0.6*34
$GPGSA,A,3,68,69,70,76,77,84,85,,,,,,0.8,0.4,0.6*3E
$GPGSA,A,3,07,08,13,24,26,29,31,33,,,,,0.8,0.4,0.6*3E
$GPGSA,A,3,05,06,13,14,16,27,28,30,32,33,39,41,0.8,0.4,0.6*39
$GPGSA,A,3,60,,,,,,,,,,,,0.8,0.4,0.6*3E
$GPGST,230047.00,3.111,0.388,0.363,10.831,0.387,0.364,0.717*65
$GPGBS,230047.00,2.194,2.186,4.214,77,0.0001,-14.130,6.417*42
$GPGRS,230047.00,1,-0.3,0.4,0.2,-0.4,0.3,0.3,0.0,-0.7,0.2,,,*4B
$GPGRS,230047.00,1,7.2,1.1,-0.9,-3.4,-14.1,-1.4,3.4,,,,,*5F
$GPGRS,230047.00,1,-0.2,0.1,0.3,0.3,-0.0,0.2,-0.6,0.0,,,,*66
$GPGRS,230047.00,1,1.0,1.4,0.5,-0.2,0.4,0.0,-0.1,0.2,-0.5,-0.9,-0.5,-1.0*40
$GPGRS,230047.00,1,-2.1,,,,,,,,,,,*4C
$GPGSV,5,1,18,21,83,335,45,03,26,241,43,14,16,300,41,10,27,057,44*7D
$GPGSV,5,2,18,27,20,164,41,32,48,080,49,08,47,189,48,02,61,302,49*70
$GPGSV,5,3,18,17,08,321,38,36,35,170,45,58,13,245,38,57,11,108,37*7F
$GPGSV,5,4,18,34,31,208,42,40,24,132,36,49,34,195,44,41,07,108,34*74
$GPGSV,5,5,18,61,03,257,38*4F
$GLGSV,3,1,10,69,69,067,52,76,12,321,45,68,22,033,45,70,35,197,41*67
$GLGSV,3,2,10,85,51,323,51,84,64,096,39,83,04,123,20,77,06,004,36*6B
$GLGSV,3,3,10,75,01,269,39,86,00,308,38*6E
$GAGSV,3,1,11,26,68,079,48,29,28,166,43,24,13,323,39,08,21,041,40*63
$GAGSV,3,2,11,13,17,100,39,31,23,272,42,33,55,300,47,07,49,098,46*6D
$GAGSV,3,3,11,16,02,345,,23,10,223,,12,03,287,32*50
$GBGSV,6,1,22,27,81,182,52,06,13,081,38,60,10,109,40,20,25,198,*64
$GBGSV,6,2,22,13,11,062,38,05,24,128,39,16,14,078,39,32,32,208,47*6E
$GBGSV,6,3,22,28,36,136,47,39,17,068,42,29,34,303,,33,33,050,47*68
$GBGSV,6,4,22,30,41,304,48,57,73,295,,41,75,121,51,14,09,043,37*62
$GBGSV,6,5,22,08,03,060,35,26,02,334,,31,06,086,,45,00,330,*6A
$GBGSV,6,6,22,02,09,105,34,09,08,092,*69
$GPGGA,230047.00,,,,,0,00,,,M,,M,,*4A
$PTNL,GGK,230047.00,010125,4742.1601681,N,01618.1003617,E,1,37,0.8,EHT751.3555,M*41
$GPGGQ,230047.00,010125,4742.1601681,N,01618.1003617,E,1,37,0.892,708.1489,M*3A
$GPGFA,230047.00,3.686,5.877,0.388,0.363,10.831,0.717,,VVV*38
$GPLLK,230047.00,010125,,M,,M,1,37,0.8,,M*05
$GNGMP,230047.00,,,,,DAAA,37,0.4,,,,*54
$GPGMP,230047.00,,,,,,09,,,,3.2,136*73
$GLGMP,230047.00,,,,,,07,,,,,*7A
$GAGMP,230047.00,,,,,,08,,,,,*78
$GBGMP,230047.00,,,,,,13,,,,,*71
$PSSN,SNC,[0,342065000,2347]*42
$GPZDA,230052.00,01,01,2025,,*65
$GPDTM,W84,,00.0000000,N,00.0000000,E,00.0000000,W84*5F
$PSSN,TFM,230052.00,,,,*69
$GPRMC,230052.00,A,4742.1601676,N,01618.1003652,E,0.0,,010125,5.1,E,D*12
$GPGLL,4742.1601676,N,01618.1003652,E,230052.00,A,D*63
$GPGGA,230052.00,4742.1601676,N,01618.1003652,E,2,37,0.4,708.1472,M,43.2066,M,2.9,0136*4B
$GNGNS,230052.00,4742.1601676,N,01618.1003652,E,DAAA,37,0.4,708.1472,43.2066,,*58
$GPGNS,230052.00,,,,,,09,,,,2.9,136*7D
$GLGNS,230052.00,,,,,,07,,,,,*7E
$GAGNS,230052.00,,,,,,08,,,,,*7C
$GBGNS,230052.00,,,,,,13,,,,,*75
$GPLLQ,230052.00,010125,,M,,M,1,37,0.910,,M*1B
$GPVTG,,T,,M,0.00,N,0.01,K,D*27
$GPHDT,,T*1B
$GPTHS,,V*0E
$GPROT,,V*08
$PSSN,HRP,230052.00,010125,,,,,,,00,0,,*67
$PTNL,AVR,230052.00,,Yaw,,Tilt,,,,0,,00*31
$GPGSA,A,3,02,03,08,10,14,17,21,27,32,,,,0.8,0.4,0.6*34
$GPGSA,A,3,68,69,70,76,77,84,85,,,,,,0.8,0.4,0.6*3E
$GPGSA,A,3,07,08,13,24,26,29,31,33,,,,,0.8,0.4,0.6*3E
$GPGSA,A,3,05,06,13,14,16,27,28,30,32,33,39,41,0.8,0.4,0.6*39
$GPGSA,A,3,60,,,,,,,,,,,,0.8,0.4,0.6*3E
$GPGST,230052.00,3.045,0.398,0.374,15.607,0.396,0.376,0.728*67
$GPGBS,230052.00,2.173,2.206,4.300,77,0.0001,-13.470,6.412*43
$GPGRS,230052.00,1,-0.1,0.9,0.0,-0.0,-0.3,0.5,-0.1,-0.5,-0.0,,,*6C
$GPGRS,230052.00,1,7.2,1.2,-1.2,-3.9,-13.5,-1.3,3.6,,,,,*59
$GPGRS,230052.00,1,-0.2,0.1,0.2,-0.3,-0.0,0.4,-0.6,0.2,,,,*4A
$GPGRS,230052.00,1,0.5,1.3,0.1,0.0,0.7,0.2,0.3,0.2,-0.5,-0.7,-0.9,-0.7*46
$GPGRS,230052.00,1,-2.2,,,,,,,,,,,*4B
$GPGSV,5,1,18,21,83,336,45,03,26,241,43,14,16,300,41,10,27,057,44*7E
$GPGSV,5,2,18,27,20,164,42,32,48,080,49,08,47,189,48,02,61,302,49*73
$GPGSV,5,3,18,17,08,321,40,36,35,170,45,58,13,245,38,57,11,108,38*7F
$GPGSV,5,4,18,34,31,208,42,40,24,132,36,49,34,195,44,41,07,108,34*74
$GPGSV,5,5,18,61,03,257,38*4F
$GLGSV,3,1,10,69,69,067,52,76,12,321,45,68,22,033,44,70,35,197,40*67
$GLGSV,3,2,10,85,51,323,51,84,64,096,39,83,04,123,24,77,06,004,37*6E
$GLGSV,3,3,10,75,01,268,41,86,00,308,40*6F
$GAGSV,3,1,11,26,68,079,48,29,28,166,43,24,13,323,39,08,21,041,40*63
$GAGSV,3,2,11,13,16,100,39,31,23,272,42,33,55,300,47,07,49,098,46*6C
$GAGSV,3,3,11,16,02,345,,23,10,223,,12,03,287,30*52
$GBGSV,6,1,22,27,81,182,52,06,13,081,37,60,10,109,40,20,25,198,*6B
$GBGSV,6,2,22,13,11,062,38,05,24,128,38,16,14,078,39,32,32,208,47*6F
$GBGSV,6,3,22,28,36,136,47,39,17,068,42,29,34,303,,33,33,050,47*68
$GBGSV,6,4,22,30,41,304,48,57,73,295,,41,75,121,51,14,09,043,38*6D
$GBGSV,6,5,22,08,03,060,34,26,02,334,,31,06,086,,45,00,330,*6B
$GBGSV,6,6,22,02,09,105,34,09,08,092,*69
$GPGGA,230052.00,,,,,0,00,,,M,,M,,*4E
$PTNL,GGK,230052.00,010125,4742.1601676,N,01618.1003652,E,1,37,0.8,EHT751.3537,M*48
$GPGGQ,230052.00,010125,4742.1601676,N,01618.1003652,E,1,37,0.910,708.1472,M*38
$GPGFA,230052.00,3.782,5.967,0.398,0.374,15.607,0.728,,VVV*3C
$GPLLK,230052.00,010125,,M,,M,1,37,0.8,,M*01
$GNGMP,230052.00,,,,,DAAA,37,0.4,,,,*50
$GPGMP,230052.00,,,,,,09,,,,2.9,136*7D
$GLGMP,230052.00,,,,,,07,,,,,*7E
$GAGMP,230052.00,,,,,,08,,,,,*7C
$GBGMP,230052.00,,,,,,13,,,,,*75
$PSSN,SNC,[0,342070000,2347]*46
$GPZDA,230057.00,01,01,2025,,*60
$GPDTM,W84,,00.0000000,N,00.0000000,E,00.0000000,W84*5F
$PSSN,TFM,230057.00,,,,*6C
$GPRMC,230057.00,A,4742.1601692,N,01618.1003680,E,0.0,,010125,5.1,E,D*12
$GPGLL,4742.1601692,N,01618.1003680,E,230057.00,A,D*63
$GPGGA,230057.00,4742.1601692,N,01618.1003680,E,2,37,0.4,708.1525,M,43.2066,M,1.7,0136*45
$GNGNS,230057.00,4742.1601692,N,01618.1003680,E,DAAA,37,0.4,708.1525,43.2066,,*5B
$GPGNS,230057.00,,,,,,09,,,,1.7,136*75
$GLGNS,230057.00,,,,,,07,,,,,*7B
$GAGNS,230057.00,,,,,,08,,,,,*79
$GBGNS,230057.00,,,,,,13,,,,,*70
$GPLLQ,230057.00,010125,,M,,M,1,37,0.840,,M*1A
$GPVTG,,T,,M,0.00,N,0.00,K,D*26
$GPHDT,,T*1B
$GPTHS,,V*0E
$GPROT,,V*08
$PSSN,HRP,230057.00,010125,,,,,,,00,0,,*62
$PTNL,AVR,230057.00,,Yaw,,Tilt,,,,0,,00*34
$GPGSA,A,3,02,03,08,10,14,17,21,27,32,,,,0.8,0.4,0.6*34
$GPGSA,A,3,68,69,70,76,77,84,85,,,,,,0.8,0.4,0.6*3E
$GPGSA,A,3,07,08,13,24,26,29,31,33,,,,,0.8,0.4,0.6*3E
$GPGSA,A,3,05,06,13,14,16,27,28,30,32,33,39,41,0.8,0.4,0.6*39
$GPGSA,A,3,60,,,,,,,,,,,,0.8,0.4,0.6*3E
$GPGST,230057.00,2.892,0.369,0.349,21.912,0.366,0.352,0.669*60
$GPGBS,230057.00,2.162,2.117,4.088,77,0.0001,-11.835,6.411*4A
$GPGRS,230057.00,1,-0.2,0.5,0.3,-0.1,-0.4,0.9,-0.3,-0.1,0.1,,,*45
$GPGRS,230057.00,1,8.3,1.4,-1.9,-3.1,-11.8,-0.7,3.8,,,,,*53
$GPGRS,230057.00,1,-0.1,-0.1,0.3,-0.2,-0.1,0.1,-0.6,0.0,,,,*67
$GPGRS,230057.00,1,0.9,1.2,-0.6,0.6,0.8,-0.0,0.2,0.1,-0.5,-0.6,-1.3,-0.8*45
$GPGRS,230057.00,1,-2.0,,,,,,,,,,,*4C
$GPGSV,5,1,18,21,83,336,45,03,27,241,44,14,16,300,41,10,27,057,45*79
$GPGSV,5,2,18,27,20,164,42,32,48,080,49,08,47,189,49,02,61,302,49*72
$GPGSV,5,3,18,17,08,321,40,36,35,170,44,58,13,245,38,57,11,108,37*71
$GPGSV,5,4,18,34,31,208,42,40,24,132,36,49,34,195,44,41,07,108,34*74
$GPGSV,5,5,18,61,03,257,38*4F
$GLGSV,3,1,10,69,69,067,52,76,12,321,45,68,22,033,45,70,35,197,41*67
$GLGSV,3,2,10,85,51,323,51,84,64,096,39,83,04,123,,77,06,004,38*67
$GLGSV,3,3,10,75,01,268,40,86,00,308,41*6F
$GAGSV,3,1,11,26,68,079,48,29,28,166,43,24,13,323,39,08,21,041,40*63
$GAGSV,3,2,11,13,16,100,39,31,23,272,42,33,55,300,47,07,49,098,46*6C
$GAGSV,3,3,11,16,02,345,,23,10,223,,12,03,287,32*50
$GBGSV,6,1,22,27,81,182,52,06,13,081,37,60,10,109,40,20,25,198,*6B
$GBGSV,6,2,22,13,11,062,38,05,24,128,38,16,14,078,39,32,32,208,46*6E
$GBGSV,6,3,22,28,36,136,47,39,17,068,41,29,34,303,,33,33,050,46*6A
$GBGSV,6,4,22,30,41,304,48,57,73,295,,41,75,121,51,14,09,043,38*6D
$GBGSV,6,5,22,08,03,060,34,26,02,334,,31,06,086,,45,00,330,*6B
$GBGSV,6,6,22,02,09,105,34,09,08,092,*69
$GPGGA,230057.00,,,,,0,00,,,M,,M,,*4B
$PTNL,GGK,230057.00,010125,4742.1601692,N,01618.1003680,E,1,37,0.8,EHT751.3590,M*45
$GPGGQ,230057.00,010125,4742.1601692,N,01618.1003680,E,1,37,0.840,708.1525,M*3F
$GPGFA,230057.00,3.508,5.484,0.369,0.349,21.912,0.669,,VVV*31
$GPLLK,230057.00,010125,,M,,M,1,37,0.8,,M*04
$GNGMP,230057.00,,,,,DAAA,37,0.4,,,,*55
$GPGMP,230057.00,,,,,,09,,,,1.7,136*75
$GLGMP,230057.00,,,,,,07,,,,,*7B
$GAGMP,230057.00,,,,,,08,,,,,*79
$GBGMP,230057.00,,,,,,13,,,,,*70
$PSSN,SNC,[0,342075000,2347]*43
$GPZDA,230102.00,01,01,2025,,*61
$GPDTM,W84,,00.0000000,N,00.0000000,E,00.0000000,W84*5F
$PSSN,TFM,230102.00,,,,*6D
$GPRMC,230102.00,A,4742.1601694,N,01618.1003694,E,0.0,,010125,5.1,E,D*10
$GPGLL,4742.1601694,N,01618.1003694,E,230102.00,A,D*61
$GPGGA,230102.00,4742.1601694,N,01618.1003694,E,2,37,0.4,708.1530,M,43.2066,M,2.2,0136*45
$GNGNS,230102.00,4742.1601694,N,01618.1003694,E,DAAA,37,0.4,708.1530,43.2066,,*5D
$GPGNS,230102.00,,,,,,09,,,,2.2,136*72
$GLGNS,230102.00,,,,,,07,,,,,*7A
$GAGNS,230102.00,,,,,,08,,,,,*78
$GBGNS,230102.00,,,,,,13,,,,,*71
$GPLLQ,230102.00,010125,,M,,M,1,37,0.863,,M*1A
$GPVTG,,T,,M,0.00,N,0.01,K,D*27
$GPHDT,,T*1B
$GPTHS,,V*0E
$GPROT,,V*08
$PSSN,HRP,230102.00,010125,,,,,,,00,0,,*63
$PTNL,AVR,230102.00,,Yaw,,Tilt,,,,0,,00*35
$GPGSA,A,3,02,03,08,10,14,17,21,27,32,,,,0.8,0.4,0.6*34
$GPGSA,A,3,68,69,70,76,77,84,85,,,,,,0.8,0.4,0.6*3E
$GPGSA,A,3,07,08,13,24,26,29,31,33,,,,,0.8,0.4,0.6*3E
$GPGSA,A,3,05,06,13,14,16,27,28,30,32,33,39,41,0.8,0.4,0.6*39
$GPGSA,A,3,60,,,,,,,,,,,,0.8,0.4,0.6*3E
$GPGST,230102.00,2.936,0.375,0.356,15.066,0.374,0.357,0.690*60
$GPGBS,230102.00,2.183,2.166,4.143,77,0.0001,-12.684,6.408*4B
$GPGRS,230102.00,1,-0.3,0.5,-0.0,-0.1,0.0,0.2,0.0,-0.6,0.1,,,*60
$GPGRS,230102.00,1,7.7,1.1,-1.6,-3.2,-12.7,-0.3,3.6,,,,,*56
$GPGRS,230102.00,1,-0.2,-0.1,0.0,-0.1,-0.1,-0.2,-0.3,0.1,,,,*4F
$GPGRS,230102.00,1,0.7,1.4,-0.6,0.4,0.2,-0.1,-0.3,0.4,-0.1,-0.9,-1.5,-1.1*69
$GPGRS,230102.00,1,-1.8,,,,,,,,,,,*46
$GPGSV,5,1,18,21,83,336,45,03,27,241,44,14,16,300,41,10,27,057,45*79
$GPGSV,5,2,18,27,20,164,41,32,48,080,49,08,47,189,48,02,61,302,49*70
$GPGSV,5,3,18,17,08,321,40,36,35,170,45,58,13,245,38,57,11,108,38*7F
$GPGSV,5,4,18,34,31,208,42,40,24,132,36,49,34,195,44,41,07,108,34*74
$GPGSV,5,5,18,61,03,257,38*4F
$GLGSV,3,1,10,69,69,067,52,76,12,321,46,68,22,033,45,70,35,197,40*65
$GLGSV,3,2,10,85,51,323,51,84,64,097,39,83,04,123,23,77,06,004,38*67
$GLGSV,3,3,10,75,01,268,37,86,00,309,39*61
$GAGSV,3,1,11,26,68,079,48,29,28,166,43,24,13,323,39,08,21,041,40*63
$GAGSV,3,2,11,13,16,100,38,31,23,272,42,33,55,300,47,07,49,098,46*6D
$GAGSV,3,3,11,16,02,345,,23,10,223,,12,03,287,29*5A
$GBGSV,6,1,22,27,81,181,52,06,13,081,37,60,10,109,40,20,25,198,*68
$GBGSV,6,2,22,13,11,062,38,05,24,128,38,16,14,078,39,32,32,208,47*6F
$GBGSV,6,3,22,28,36,136,47,39,17,068,41,29,34,303,,33,33,050,47*6B
$GBGSV,6,4,22,30,41,304,48,57,73,295,,41,75,120,51,14,09,043,38*6C
$GBGSV,6,5,22,08,03,060,34,26,02,334,,31,06,086,,45,00,330,*6B
$GBGSV,6,6,22,02,09,105,34,09,08,092,*69
$GPGGA,230102.00,,,,,0,00,,,M,,M,,*4A
$PTNL,GGK,230102.00,010125,4742.1601694,N,01618.1003694,E,1,37,0.8,EHT751.3596,M*41
$GPGGQ,230102.00,010125,4742.1601694,N,01618.1003694,E,1,37,0.863,708.1530,M*38
$GPGFA,230102.00,3.569,5.661,0.375,0.356,15.066,0.690,,VVV*36
$GPLLK,230102.00,010125,,M,,M,1,37,0.8,,M*05
$GNGMP,230102.00,,,,,DAAA,37,0.4,,,,*54
$GPGMP,230102.00,,,,,,09,,,,2.2,136*72
$GLGMP,230102.00,,,,,,07,,,,,*7A
$GAGMP,230102.00,,,,,,08,,,,,*78
$GBGMP,230102.00,,,,,,13,,,,,*71
$PSSN,SNC,[0,342080000,2347]*49
$GPZDA,230107.00,01,01,2025,,*64
$GPDTM,W84,,00.0000000,N,00.0000000,E,00.0000000,W84*5F
$PSSN,TFM,230107.00,,,,*68
$GPRMC,230107.00,A,4742.1601684,N,01618.1003717,E,0.0,,010125,5.1,E,D*1E
$GPGLL,4742.1601684,N,01618.1003717,E,230107.00,A,D*6F
$GPGGA,230107.00,4742.1601684,N,01618.1003717,E,2,37,0.4,708.1501,M,43.2066,M,3.2,0136*48
$GNGNS,230107.00,4742.1601684,N,01618.1003717,E,DAAA,37,0.4,708.1501,43.2066,,*51
$GPGNS,230107.00,,,,,,09,,,,3.2,136*76
$GLGNS,230107.00,,,,,,07,,,,,*7F
$GAGNS,230107.00,,,,,,08,,,,,*7D
$GBGNS,230107.00,,,,,,13,,,,,*74
$GPLLQ,230107.00,010125,,M,,M,1,37,0.855,,M*1A
$GPVTG,,T,,M,0.01,N,0.01,K,D*26
$GPHDT,,T*1B
$GPTHS,,V*0E
$GPROT,,V*08
$PSSN,HRP,230107.00,010125,,,,,,,00,0,,*66
$PTNL,AVR,230107.00,,Yaw,,Tilt,,,,0,,00*30
$GPGSA,A,3,02,03,08,10,14,17,21,27,32,,,,0.8,0.4,0.6*34
$GPGSA,A,3,68,69,70,76,77,84,85,,,,,,0.8,0.4,0.6*3E
$GPGSA,A,3,07,08,13,24,26,29,31,33,,,,,0.8,0.4,0.6*3E
$GPGSA,A,3,05,06,13,14,16,27,28,30,32,33,39,41,0.8,0.4,0.6*39
$GPGSA,A,3,60,,,,,,,,,,,,0.8,0.4,0.6*3E
$GPGST,230107.00,3.041,0.372,0.349,10.360,0.371,0.350,0.687*60
$GPGBS,230107.00,2.202,2.186,4.209,77,0.0001,-12.861,6.411*4A
$GPGRS,230107.00,1,-0.1,0.0,0.0,0.1,-0.1,0.3,0.3,-0.9,0.1,,,*43
$GPGRS,230107.00,1,8.0,1.8,-1.3,-3.6,-12.9,-0.7,4.2,,,,,*5A
$GPGRS,230107.00,1,-0.2,0.2,-0.0,0.2,0.2,-0.3,-0.2,0.3,,,,*4B
$GPGRS,230107.00,1,1.2,1.4,0.1,0.9,0.5,0.0,0.2,0.5,0.2,-0.6,-1.2,-0.9*66
$GPGRS,230107.00,1,-1.7,,,,,,,,,,,*4C
$GPGSV,5,1,18,21,83,336,45,03,27,241,43,14,16,300,41,10,27,057,44*7F
$GPGSV,5,2,18,27,20,164,41,32,48,080,49,08,47,189,48,02,61,302,49*70
$GPGSV,5,3,18,17,08,321,40,36,35,170,45,58,13,245,38,57,11,108,37*70
$GPGSV,5,4,18,34,31,208,42,40,24,132,36,49,34,195,44,41,07,108,34*74
$GPGSV,5,5,18,61,03,257,38*4F
$GLGSV,3,1,10,69,69,067,52,76,12,321,45,68,22,033,45,70,35,197,41*67
$GLGSV,3,2,10,85,51,323,52,84,64,097,39,83,04,123,22,77,06,004,37*6A
$GLGSV,3,3,10,75,01,268,35,86,00,309,40*6D
$GAGSV,3,1,11,26,68,079,48,29,28,166,42,24,13,323,39,08,21,041,40*62
$GAGSV,3,2,11,13,16,100,38,31,23,272,42,33,55,300,47,07,49,098,46*6D
$GAGSV,3,3,11,16,02,345,,23,09,223,,12,03,287,31*5B
$GBGSV,6,1,22,27,81,181,52,06,13,081,37,60,10,109,40,20,25,198,*68
$GBGSV,6,2,22,13,11,062,39,05,24,128,38,16,14,078,39,32,32,208,47*6E
$GBGSV,6,3,22,28,36,136,47,39,17,068,40,29,34,303,,33,33,050,47*6A
$GBGSV,6,4,22,30,41,304,48,57,73,295,,41,75,120,51,14,09,043,39*6D
$GBGSV,6,5,22,08,03,060,34,26,02,334,,31,06,086,,45,00,330,*6B
$GBGSV,6,6,22,02,09,105,34,09,08,092,*69
$GPGGA,230107.00,,,,,0,00,,,M,,M,,*4F
$PTNL,GGK,230107.00,010125,4742.1601684,N,01618.1003717,E,1,37,0.8,EHT751.3566,M*40
$GPGGQ,230107.00,010125,4742.1601684,N,01618.1003717,E,1,37,0.855,708.1501,M*31
$GPGFA,230107.00,3.535,5.631,0.372,0.349,10.360,0.687,,VVV*30
$GPLLK,230107.00,010125,,M,,M,1,37,0.8,,M*00
$GNGMP,230107.00,,,,,DAAA,37,0.4,,,,*51
$GPGMP,230107.00,,,,,,09,,,,3.2,136*76
$GLGMP,230107.00,,,,,,07,,,,,*7F
$GAGMP,230107.00,,,,,,08,,,,,*7D
$GBGMP,230107.00,,,,,,13,,,,,*74
$PSSN,SNC,[0,342085000,2347]*4C
$GPZDA,230112.00,01,01,2025,,*60
$GPDTM,W84,,00.0000000,N,00.0000000,E,00.0000000,W84*5F
$PSSN,TFM,230112.00,,,,*6C
$GPRMC,230112.00,A,4742.1601673,N,01618.1003687,E,0.0,,010125,5.1,E,D*1A
$GPGLL,4742.1601673,N,01618.1003687,E,230112.00,A,D*6B
$GPGGA,230112.00,4742.1601673,N,01618.1003687,E,2,37,0.4,708.1453,M,43.2066,M,2.9,0136*40
$GNGNS,230112.00,4742.1601673,N,01618.1003687,E,DAAA,37,0.4,708.1453,43.2066,,*53
$GPGNS,230112.00,,,,,,09,,,,2.9,136*78
$GLGNS,230112.00,,,,,,07,,,,,*7B
$GAGNS,230112.00,,,,,,08,,,,,*79
$GBGNS,230112.00,,,,,,13,,,,,*70
$GPLLQ,230112.00,010125,,M,,M,1,37,0.888,,M*1E
$GPVTG,,T,,M,0.00,N,0.01,K,D*27
$GPHDT,,T*1B
$GPTHS,,V*0E
$GPROT,,V*08
$PSSN,HRP,230112.00,010125,,,,,,,00,0,,*62
$PTNL,AVR,230112.00,,Yaw,,Tilt,,,,0,,00*34
$GPGSA,A,3,02,03,08,10,14,17,21,27,32,,,,0.8,0.4,0.6*34
$GPGSA,A,3,68,69,70,76,77,84,85,,,,,,0.8,0.4,0.6*3E
$GPGSA,A,3,07,08,13,24,26,29,31,33,,,,,0.8,0.4,0.6*3E
$GPGSA,A,3,05,06,13,14,16,27,28,30,32,33,39,41,0.8,0.4,0.6*39
$GPGSA,A,3,60,,,,,,,,,,,,0.8,0.4,0.6*3E
$GPGST,230112.00,3.179,0.388,0.366,15.529,0.387,0.367,0.710*6A
$GPGBS,230112.00,2.171,2.205,4.296,77,0.0001,-13.692,6.410*45
$GPGRS,230112.00,1,-0.3,0.1,0.2,-0.1,0.0,-0.1,0.1,-0.5,0.3,,,*64
$GPGRS,230112.00,1,8.1,1.7,-1.2,-3.6,-13.7,-0.6,4.7,,,,,*5A
$GPGRS,230112.00,1,-0.1,0.3,0.2,-0.2,0.1,-0.5,-0.3,0.1,,,,*49
$GPGRS,230112.00,1,1.2,1.1,-0.2,1.0,0.5,0.1,0.1,0.5,0.2,-0.3,-1.1,-0.9*45
$GPGRS,230112.00,1,-1.8,,,,,,,,,,,*47
$GPGSV,5,1,18,21,83,336,45,03,27,241,42,14,16,300,40,10,27,057,44*7F
$GPGSV,5,2,18,27,20,164,41,32,48,080,49,08,47,189,48,02,61,302,48*71
$GPGSV,5,3,18,17,08,321,40,36,35,170,45,58,13,245,38,57,11,108,38*7F
$GPGSV,5,4,18,34,31,208,42,40,24,132,36,49,34,195,44,41,07,108,34*74
$GPGSV,5,5,18,61,03,257,38*4F
$GLGSV,3,1,10,69,69,067,52,76,12,321,44,68,22,033,46,70,35,197,40*64
$GLGSV,3,2,10,85,51,323,52,84,64,097,39,83,04,123,21,77,06,004,37*69
$GLGSV,3,3,10,75,01,268,31,86,00,308,41*69
$GAGSV,3,1,11,26,68,079,48,29,28,166,42,24,13,323,39,08,21,041,40*62
$GAGSV,3,2,11,13,16,100,39,31,23,272,41,33,55,300,47,07,49,098,46*6F
$GAGSV,3,3,11,16,02,345,,23,09,223,,12,03,287,31*5B
$GBGSV,6,1,21,27,81,181,52,06,13,081,37,60,10,109,40,20,25,198,*6B
$GBGSV,6,2,21,13,11,062,38,05,24,128,38,16,14,078,38,32,32,208,47*6D
$GBGSV,6,3,21,28,36,136,47,39,17,068,40,29,34,303,,33,33,050,46*68
$GBGSV,6,4,21,30,41,304,48,57,74,295,,41,75,120,51,14,09,043,39*69
$GBGSV,6,5,21,08,03,060,34,26,02,334,,31,06,086,,02,09,105,33*66
$GBGSV,6,6,21,09,08,092,*52
$GPGGA,230112.00,,,,,0,00,,,M,,M,,*4B
$PTNL,GGK,230112.00,010125,4742.1601673,N,01618.1003687,E,1,37,0.8,EHT751.3518,M*4D
$GPGGQ,230112.00,010125,4742.1601673,N,01618.1003687,E,1,37,0.888,708.1453,M*33
$GPGFA,230112.00,3.693,5.820,0.388,0.366,15.529,0.710,,VVV*3C
$GPLLK,230112.00,010125,,M,,M,1,37,0.8,,M*04
$GNGMP,230112.00,,,,,DAAA,37,0.4,,,,*55
$GPGMP,230112.00,,,,,,09,,,,2.9,136*78
$GLGMP,230112.00,,,,,,07,,,,,*7B
$GAGMP,230112.00,,,,,,08,,,,,*79
$GBGMP,230112.00,,,,,,13,,,,,*70
$PSSN,SNC,[0,342090000,2347]*48
$GPZDA,230117.00,01,01,2025,,*65
$GPDTM,W84,,00.0000000,N,00.0000000,E,00.0000000,W84*5F
$PSSN,TFM,230117.00,,,,*69
$GPRMC,230117.00,A,4742.1601699,N,01618.1003689,E,0.0,,010125,5.1,E,D*15
$GPGLL,4742.1601699,N,01618.1003689,E,230117.00,A,D*64
$GPGGA,230117.00,4742.1601699,N,01618.1003689,E,2,37,0.4,708.1404,M,43.2066,M,1.7,0136*40
$GNGNS,230117.00,4742.1601699,N,01618.1003689,E,DAAA,37,0.4,708.1404,43.2066,,*5E
$GPGNS,230117.00,,,,,,09,,,,1.7,136*70
$GLGNS,230117.00,,,,,,07,,,,,*7E
$GAGNS,230117.00,,,,,,08,,,,,*7C
$GBGNS,230117.00,,,,,,13,,,,,*75
$GPLLQ,230117.00,010125,,M,,M,1,37,0.881,,M*12
$GPVTG,,T,,M,0.00,N,0.00,K,D*26
$GPHDT,,T*1B
$GPTHS,,V*0E
$GPROT,,V*08
$PSSN,HRP,230117.00,010125,,,,,,,00,0,,*67
$PTNL,AVR,230117.00,,Yaw,,Tilt,,,,0,,00*31
$GPGSA,A,3,02,03,08,10,14,17,21,27,32,,,,0.8,0.4,0.6*34
$GPGSA,A,3,68,69,70,76,77,84,85,,,,,,0.8,0.4,0.6*3E
$GPGSA,A,3,07,08,13,24,26,29,31,33,,,,,0.8,0.4,0.6*3E
$GPGSA,A,3,05,06,13,14,16,27,28,30,32,33,39,41,0.8,0.4,0.6*39
$GPGSA,A,3,60,,,,,,,,,,,,0.8,0.4,0.6*3E
$GPGST,230117.00,3.163,0.387,0.367,21.126,0.385,0.370,0.702*61
$GPGBS,230117.00,2.170,2.117,4.084,77,0.0001,-13.189,6.413*4E
$GPGRS,230117.00,1,-0.2,0.3,0.2,-0.1,0.3,-0.4,-0.1,-0.5,0.2,,,*48
$GPGRS,230117.00,1,8.9,1.4,-1.9,-3.2,-13.2,-1.1,4.0,,,,,*5F
$GPGRS,230117.00,1,0.2,0.0,0.6,0.2,-0.1,-0.2,-0.5,0.2,,,,*67
$GPGRS,230117.00,1,1.4,1.7,0.3,1.1,0.4,0.1,0.1,0.5,0.1,-0.7,-0.8,-0.8*62
$GPGRS,230117.00,1,-1.6,,,,,,,,,,,*4C
$GPGSV,5,1,18,21,83,336,45,03,27,241,43,14,16,300,39,10,27,057,44*70
$GPGSV,5,2,18,27,19,164,41,32,48,080,49,08,47,189,48,02,61,302,49*7A
$GPGSV,5,3,18,17,08,321,39,36,35,170,45,58,13,245,38,57,11,108,37*7E
$GPGSV,5,4,18,34,31,208,42,40,24,132,36,49,34,195,44,41,07,108,34*74
$GPGSV,5,5,18,61,03,257,38*4F
$GLGSV,3,1,10,69,69,067,52,76,12,321,45,68,22,033,46,70,35,197,41*64
$GLGSV,3,2,10,85,51,323,51,84,64,097,39,83,04,123,22,77,06,004,36*68
$GLGSV,3,3,10,75,01,268,29,86,00,308,42*63
$GAGSV,3,1,11,26,68,079,48,29,28,166,42,24,13,323,39,08,21,041,40*62
$GAGSV,3,2,11,13,16,100,40,31,23,272,41,33,55,300,47,07,49,098,46*61
$GAGSV,3,3,11,16,02,345,,23,09,223,,12,03,287,30*5A
$GBGSV,6,1,21,27,81,181,51,06,13,081,37,60,10,109,40,20,25,198,*68
$GBGSV,6,2,21,13,11,062,39,05,24,128,38,16,14,078,38,32,33,208,47*6D
$GBGSV,6,3,21,28,36,136,47,39,17,068,40,29,34,303,,33,33,050,46*68
$GBGSV,6,4,21,30,42,304,48,57,74,295,,41,75,120,51,14,09,043,39*6A
$GBGSV,6,5,21,08,03,060,34,26,02,334,,31,06,086,,02,09,105,34*61
$GBGSV,6,6,21,09,08,092,*52
$GPGGA,230117.00,,,,,0,00,,,M,,M,,*4E
$PTNL,GGK,230117.00,010125,4742.1601699,N,01618.1003689,E,1,37,0.8,EHT751.3470,M*4D
$GPGGQ,230117.00,010125,4742.1601699,N,01618.1003689,E,1,37,0.881,708.1404,M*37
$GPGFA,230117.00,3.682,5.754,0.387,0.367,21.126,0.702,,VVV*34
