$GPZDA,051442.00,01,01,2025,,*65
$GPDTM,W84,,00.0000000,N,00.0000000,E,00.0000000,W84*5F
$PSSN,TFM,051442.00,,,,*69
$GPRMC,051442.00,A,4742.1603736,N,01618.1002916,E,0.0,,010125,5.1,E,D*1B
$GPGLL,4742.1603736,N,01618.1002916,E,051442.00,A,D*6A
$GPGGA,051442.00,4742.1603736,N,01618.1002916,E,2,39,0.4,707.9660,M,43.2066,M,2.4,0136*47
$GNGNS,051442.00,4742.1603736,N,01618.1002916,E,DAAA,39,0.4,707.9660,43.2066,,*59
$GPGNS,051442.00,,,,,,09,,,,2.4,136*70
$GLGNS,051442.00,,,,,,09,,,,,*70
$GAGNS,051442.00,,,,,,09,,,,,*7D
$GBGNS,051442.00,,,,,,12,,,,,*74
$GPLLQ,051442.00,010125,,M,,M,1,39,0.990,,M*1D
$GPVTG,,T,,M,0.00,N,0.00,K,D*26
$GPHDT,,T*1B
$GPTHS,,V*0E
$GPROT,,V*08
$PSSN,HRP,051442.00,010125,,,,,,,00,0,,*67
$PTNL,AVR,051442.00,,Yaw,,Tilt,,,,0,,00*31
$GPGSA,A,3,04,05,06,07,09,11,16,20,30,,,,0.8,0.4,0.6*37
$GPGSA,A,3,70,71,72,73,74,80,86,87,88,,,,0.8,0.4,0.6*32
$GPGSA,A,3,03,05,06,09,15,24,31,34,36,,,,0.8,0.4,0.6*33
$GPGSA,A,3,02,05,06,09,12,16,19,22,34,36,44,60,0.8,0.4,0.6*38
$GPGST,051442.00,1.951,0.435,0.283,338.929,0.418,0.307,0.843*5A
$GPGBS,051442.00,2.591,1.951,5.215,72,0.0001,6.380,6.068*58
$GPGRS,051442.00,1,0.3,-0.4,-0.1,0.2,-0.2,-0.3,-0.0,-0.1,0.3,,,*61
$GPGRS,051442.00,1,-2.2,-0.4,6.4,3.9,2.8,-2.9,-2.9,-5.0,-1.4,,,*60
$GPGRS,051442.00,1,-0.3,0.3,0.9,0.4,-0.1,-0.0,0.1,0.5,-1.0,,,*6F
$GPGRS,051442.00,1,0.5,0.3,1.1,1.5,-0.4,0.5,-0.5,-0.3,-0.3,-0.2,-0.7,-1.1*66
$GPGSV,5,1,19,07,74,154,50,16,16,045,40,05,10,312,40,04,27,078,44*7F
$GPGSV,5,2,19,06,31,221,44,20,43,304,47,30,42,206,47,11,40,267,47*74
$GPGSV,5,3,19,09,56,072,48,29,01,332,37,36,35,170,45,58,13,245,38*7B
$GPGSV,5,4,19,40,24,132,38,34,31,208,44,49,34,195,45,57,07,111,38*7F
$GPGSV,5,5,19,41,07,108,35,61,03,257,39*72
$GLGSV,3,1,09,71,61,059,51,88,21,327,45,70,19,096,36,80,23,031,45*6C
$GLGSV,3,2,09,74,33,157,44,87,28,263,45,72,49,313,51,73,54,096,50*6C
$GLGSV,3,3,09,86,08,220,43*5D
$GAGSV,3,1,12,05,81,355,49,06,11,079,39,16,12,146,,31,25,066,42*6D
$GAGSV,3,2,12,24,23,122,41,34,41,232,46,03,35,269,44,15,35,300,44*63
$GAGSV,3,3,12,09,33,075,44,13,01,339,35,23,04,021,,36,10,187,38*6B
$GBGSV,6,1,23,22,71,313,52,16,13,047,38,45,12,189,,12,17,278,40*6E
$GBGSV,6,2,23,44,11,255,42,34,13,306,42,06,15,048,38,05,22,129,38*6D
$GBGSV,6,3,23,09,29,050,42,48,22,108,,36,48,149,50,58,37,062,*66
$GBGSV,6,4,23,46,43,067,,19,49,102,50,21,70,310,,39,02,047,35*64
$GBGSV,6,5,23,43,00,347,,11,10,329,,02,06,107,35,20,03,109,33*6A
$GBGSV,6,6,23,37,02,032,33,26,05,185,,60,07,111,40*54
$GPGGA,051442.00,,,,,0,00,,,M,,M,,*4E
$PTNL,GGK,051442.00,010125,4742.1603736,N,01618.1002916,E,1,39,0.8,EHT751.1725,M*4C
$GPGGQ,051442.00,010125,4742.1603736,N,01618.1002916,E,1,39,0.990,707.9660,M*31
$GPGFA,051442.00,4.133,6.912,0.435,0.283,338.929,0.843,,VVV*02
$GPLLK,051442.00,010125,,M,,M,1,39,0.8,,M*0F
$GNGMP,051442.00,,,,,DAAA,39,0.4,,,,*5E
$GPGMP,051442.00,,,,,,09,,,,2.4,136*70
$GLGMP,051442.00,,,,,,09,,,,,*70
$GAGMP,051442.00,,,,,,09,,,,,*7D
$GBGMP,051442.00,,,,,,12,,,,,*74
$PSSN,SNC,[0,278100000,2347]*48
$GPZDA,051447.00,01,01,2025,,*60
$GPDTM,W84,,00.0000000,N,00.0000000,E,00.0000000,W84*5F
$PSSN,TFM,051447.00,,,,*6C
$GPRMC,051447.00,A,4742.1603742,N,01618.1002874,E,0.0,,010125,5.1,E,D*18
$GPGLL,4742.1603742,N,01618.1002874,E,051447.00,A,D*69
$GPGGA,051447.00,4742.1603742,N,01618.1002874,E,2,38,0.4,707.9688,M,43.2066,M,3.0,0136*46
$GNGNS,051447.00,4742.1603742,N,01618.1002874,E,DAAA,38,0.4,707.9688,43.2066,,*5D
$GPGNS,051447.00,,,,,,09,,,,3.0,136*70
$GLGNS,051447.00,,,,,,09,,,,,*75
$GAGNS,051447.00,,,,,,09,,,,,*78
$GBGNS,051447.00,,,,,,11,,,,,*72
$GPLLQ,051447.00,010125,,M,,M,1,38,1.003,,M*1B
$GPVTG,,T,,M,0.00,N,0.01,K,D*27
$GPHDT,,T*1B
$GPTHS,,V*0E
$GPROT,,V*08
$PSSN,HRP,051447.00,010125,,,,,,,00,0,,*62
$PTNL,AVR,051447.00,,Yaw,,Tilt,,,,0,,00*34
$GPGSA,A,3,04,05,06,07,09,11,16,20,30,,,,0.8,0.4,0.6*37
$GPGSA,A,3,70,71,72,73,74,80,86,87,88,,,,0.8,0.4,0.6*32
$GPGSA,A,3,03,05,06,09,15,24,31,34,36,,,,0.8,0.4,0.6*33
$GPGSA,A,3,05,06,09,12,16,19,22,34,36,44,60,,0.8,0.4,0.6*3A
$GPGST,051447.00,1.952,0.440,0.286,338.280,0.422,0.311,0.855*5A
$GPGBS,051447.00,2.674,1.951,5.302,72,0.0001,6.241,6.068*5E
$GPGRS,051447.00,1,0.1,-0.0,0.1,-0.2,0.0,-0.5,0.5,-0.0,0.2,,,*63
$GPGRS,051447.00,1,-0.5,0.2,6.2,4.5,2.6,-2.1,-3.8,-4.6,-1.5,,,*46
$GPGRS,051447.00,1,-0.4,0.3,1.2,0.3,0.2,0.2,0.6,0.3,-1.2,,,*62
$GPGRS,051447.00,1,0.7,0.8,1.4,0.6,0.8,-0.5,-0.3,-0.3,-0.1,-0.3,-1.1,*60
$GPGSV,5,1,19,07,74,154,50,16,16,045,40,05,10,312,41,04,27,078,44*7E
$GPGSV,5,2,19,06,31,221,44,20,43,304,47,30,42,206,48,11,40,267,47*7B
$GPGSV,5,3,19,09,56,072,48,29,01,332,38,36,35,170,45,58,13,245,38*74
$GPGSV,5,4,19,40,24,132,37,34,31,208,44,49,34,195,45,57,07,111,38*70
$GPGSV,5,5,19,41,07,108,35,61,03,257,38*73
$GLGSV,3,1,09,71,61,059,51,88,21,327,46,70,19,096,36,80,23,031,45*6F
$GLGSV,3,2,09,74,33,157,44,87,28,263,46,72,50,313,51,73,54,096,50*67
$GLGSV,3,3,09,86,08,220,43*5D
$GAGSV,3,1,12,05,81,355,49,06,10,079,39,16,12,146,,31,25,066,43*6D
$GAGSV,3,2,12,24,23,122,42,34,41,232,46,03,35,269,44,15,35,300,44*60
$GAGSV,3,3,12,09,33,075,44,13,01,339,35,23,04,021,,36,10,187,38*6B
$GBGSV,6,1,23,22,71,313,52,16,13,047,38,45,12,189,,12,17,278,40*6E
$GBGSV,6,2,23,44,11,255,42,34,13,306,42,06,15,048,38,05,22,129,38*6D
$GBGSV,6,3,23,09,29,050,42,48,22,108,,36,48,149,50,58,37,062,*66
$GBGSV,6,4,23,46,43,067,,19,49,102,50,21,70,311,,39,02,047,35*65
$GBGSV,6,5,23,43,00,347,,11,10,329,,02,06,107,35,20,03,109,34*6D
$GBGSV,6,6,23,37,02,032,34,26,05,185,,60,07,111,40*53
$GPGGA,051447.00,,,,,0,00,,,M,,M,,*4B
$PTNL,GGK,051447.00,010125,4742.1603742,N,01618.1002874,E,1,38,0.8,EHT751.1753,M*4F
$GPGGQ,051447.00,010125,4742.1603742,N,01618.1002874,E,1,38,1.003,707.9688,M*37
$GPGFA,051447.00,4.181,7.012,0.440,0.286,338.280,0.855,,VVV*0E
$GPLLK,051447.00,010125,,M,,M,1,38,0.9,,M*0A
$GNGMP,051447.00,,,,,DAAA,38,0.4,,,,*5A
$GPGMP,051447.00,,,,,,09,,,,3.0,136*70
$GLGMP,051447.00,,,,,,09,,,,,*75
$GAGMP,051447.00,,,,,,09,,,,,*78
$GBGMP,051447.00,,,,,,11,,,,,*72
$PSSN,SNC,[0,278105000,2347]*4D
$GPZDA,051452.00,01,01,2025,,*64
$GPDTM,W84,,00.0000000,N,00.0000000,E,00.0000000,W84*5F
$PSSN,TFM,051452.00,,,,*68
$GPRMC,051452.00,A,4742.1603756,N,01618.1002870,E,0.0,,010125,5.1,E,D*1D
$GPGLL,4742.1603756,N,01618.1002870,E,051452.00,A,D*6C
$GPGGA,051452.00,4742.1603756,N,01618.1002870,E,2,39,0.4,707.9726,M,43.2066,M,3.1,0136*46
$GNGNS,051452.00,4742.1603756,N,01618.1002870,E,DAAA,39,0.4,707.9726,43.2066,,*5C
$GPGNS,051452.00,,,,,,09,,,,3.1,136*75
$GLGNS,051452.00,,,,,,09,,,,,*71
$GAGNS,051452.00,,,,,,09,,,,,*7C
$GBGNS,051452.00,,,,,,12,,,,,*75
$GPLLQ,051452.00,010125,,M,,M,1,39,1.008,,M*15
$GPVTG,,T,,M,0.00,N,0.00,K,D*26
$GPHDT,,T*1B
$GPTHS,,V*0E
$GPROT,,V*08
$PSSN,HRP,051452.00,010125,,,,,,,00,0,,*66
$PTNL,AVR,051452.00,,Yaw,,Tilt,,,,0,,00*30
$GPGSA,A,3,04,05,06,07,09,11,16,20,30,,,,0.8,0.4,0.6*37
$GPGSA,A,3,70,71,72,73,74,80,86,87,88,,,,0.8,0.4,0.6*32
$GPGSA,A,3,03,05,06,09,15,24,31,34,36,,,,0.8,0.4,0.6*33
$GPGSA,A,3,02,05,06,09,12,16,19,22,34,36,44,60,0.8,0.4,0.6*38
$GPGST,051452.00,1.938,0.437,0.287,337.825,0.419,0.313,0.862*57
$GPGBS,051452.00,2.668,1.911,5.282,30,0.0001,0.730,0.664*55
$GPGRS,051452.00,1,0.1,0.7,0.1,-0.3,-0.3,-0.3,-0.0,-0.1,0.7,,,*48
$GPGRS,051452.00,1,-1.3,-0.4,6.6,4.3,2.7,-2.3,-3.7,-4.5,-0.8,,,*6F
$GPGRS,051452.00,1,-0.3,0.3,1.0,0.1,0.3,0.3,0.3,0.1,-1.2,,,*66
$GPGRS,051452.00,1,-0.2,0.7,0.6,1.6,0.6,0.2,-0.5,-0.3,-0.3,-0.1,-0.5,-1.2*66
$GPGSV,5,1,19,07,74,154,50,16,16,045,40,05,10,312,41,04,27,078,44*7E
$GPGSV,5,2,19,06,31,221,45,20,43,304,46,30,42,206,47,11,40,267,46*75
$GPGSV,5,3,19,09,56,072,49,29,01,332,39,36,35,170,45,58,13,245,37*7B
$GPGSV,5,4,19,40,24,132,37,34,31,208,44,49,34,195,45,57,07,111,37*7F
$GPGSV,5,5,19,41,07,108,35,61,03,257,38*73
$GLGSV,3,1,09,71,61,059,51,88,21,326,45,70,19,096,37,80,23,031,45*6C
$GLGSV,3,2,09,74,33,157,44,87,28,263,47,72,50,313,51,73,54,095,51*64
$GLGSV,3,3,09,86,08,220,42*5C
$GAGSV,3,1,12,05,81,355,48,06,10,079,39,16,12,146,,31,25,066,42*6D
$GAGSV,3,2,12,24,23,122,42,34,41,232,46,03,35,269,44,15,36,300,44*63
$GAGSV,3,3,12,09,33,075,44,13,01,339,35,23,04,021,,36,10,187,38*6B
$GBGSV,6,1,23,22,71,313,52,16,13,047,39,45,12,189,,12,17,278,40*6F
$GBGSV,6,2,23,44,11,255,41,34,13,306,42,06,15,048,38,05,22,129,38*6E
$GBGSV,6,3,23,09,29,050,42,48,22,108,,36,48,149,50,58,37,062,*66
$GBGSV,6,4,23,46,43,067,,19,49,102,50,21,70,311,,39,02,047,35*65
$GBGSV,6,5,23,43,00,347,,11,10,329,,02,06,107,35,20,03,109,33*6A
$GBGSV,6,6,23,37,02,032,34,26,05,185,,60,07,111,40*53
$GPGGA,051452.00,,,,,0,00,,,M,,M,,*4F
$PTNL,GGK,051452.00,010125,4742.1603756,N,01618.1002870,E,1,39,0.8,EHT751.1791,M*45
$GPGGQ,051452.00,010125,4742.1603756,N,01618.1002870,E,1,39,1.008,707.9726,M*3D
$GPGFA,051452.00,4.152,7.071,0.437,0.287,337.825,0.862,,VVV*0E
$GPLLK,051452.00,010125,,M,,M,1,39,0.8,,M*0E
$GNGMP,051452.00,,,,,DAAA,39,0.4,,,,*5F
$GPGMP,051452.00,,,,,,09,,,,3.1,136*75
$GLGMP,051452.00,,,,,,09,,,,,*71
$GAGMP,051452.00,,,,,,09,,,,,*7C
$GBGMP,051452.00,,,,,,12,,,,,*75
$PSSN,SNC,[0,278110000,2347]*49
$GPZDA,051457.00,01,01,2025,,*61
$GPDTM,W84,,00.0000000,N,00.0000000,E,00.0000000,W84*5F
$PSSN,TFM,051457.00,,,,*6D
$GPRMC,051457.00,A,4742.1603780,N,01618.1002860,E,0.0,,010125,5.1,E,D*12
$GPGLL,4742.1603780,N,01618.1002860,E,051457.00,A,D*63
$GPGGA,051457.00,4742.1603780,N,01618.1002860,E,2,39,0.4,707.9800,M,43.2066,M,1.4,0136*45
$GNGNS,051457.00,4742.1603780,N,01618.1002860,E,DAAA,39,0.4,707.9800,43.2066,,*58
$GPGNS,051457.00,,,,,,09,,,,1.4,136*77
$GLGNS,051457.00,,,,,,09,,,,,*74
$GAGNS,051457.00,,,,,,09,,,,,*79
$GBGNS,051457.00,,,,,,12,,,,,*70
$GPLLQ,051457.00,010125,,M,,M,1,39,0.996,,M*1F
$GPVTG,,T,,M,0.00,N,0.01,K,D*27
$GPHDT,,T*1B
$GPTHS,,V*0E
$GPROT,,V*08
$PSSN,HRP,051457.00,010125,,,,,,,00,0,,*63
$PTNL,AVR,051457.00,,Yaw,,Tilt,,,,0,,00*35
$GPGSA,A,3,04,05,06,07,09,11,16,20,30,,,,0.8,0.4,0.6*37
$GPGSA,A,3,70,71,72,73,74,80,86,87,88,,,,0.8,0.4,0.6*32
$GPGSA,A,3,03,05,06,09,15,24,31,34,36,,,,0.8,0.4,0.6*33
$GPGSA,A,3,02,05,06,09,12,16,19,22,34,36,44,60,0.8,0.4,0.6*38
$GPGST,051457.00,1.973,0.433,0.284,338.584,0.416,0.308,0.850*57
$GPGBS,051457.00,2.553,1.883,5.125,72,0.0001,6.431,6.068*51
$GPGRS,051457.00,1,0.0,0.8,0.2,-0.0,-0.2,-0.6,0.0,-0.2,0.4,,,*6A
$GPGRS,051457.00,1,-1.6,-0.5,6.4,4.5,3.2,-1.5,-3.7,-4.4,-2.1,,,*61
$GPGRS,051457.00,1,-0.1,0.4,1.0,0.4,0.5,0.4,0.1,0.2,-0.9,,,*69
$GPGRS,051457.00,1,0.5,0.4,0.4,1.8,-0.1,0.3,-0.4,-0.2,0.3,0.1,-0.8,-1.2*60
$GPGSV,5,1,19,07,74,154,50,16,16,045,40,05,10,312,39,04,27,078,44*71
$GPGSV,5,2,19,06,31,221,45,20,43,304,46,30,42,206,48,11,40,267,46*7A
$GPGSV,5,3,19,09,56,072,49,29,01,332,38,36,35,170,45,58,13,245,37*7A
$GPGSV,5,4,19,40,24,132,37,34,31,208,43,49,34,195,45,57,07,111,37*78
$GPGSV,5,5,19,41,07,108,35,61,03,257,38*73
$GLGSV,3,1,09,71,61,059,51,88,21,326,45,70,19,096,36,80,23,031,45*6D
$GLGSV,3,2,09,74,33,157,44,87,28,263,46,72,50,313,51,73,54,095,50*64
$GLGSV,3,3,09,86,08,220,42*5C
$GAGSV,3,1,12,05,81,355,48,06,10,079,39,16,12,146,,31,25,066,42*6D
$GAGSV,3,2,12,24,23,122,42,34,41,232,46,03,35,269,44,15,36,300,44*63
$GAGSV,3,3,12,09,33,075,44,13,01,339,35,23,04,021,,36,10,187,38*6B
$GBGSV,6,1,23,22,71,313,52,16,13,047,39,45,12,189,,12,17,278,40*6F
$GBGSV,6,2,23,44,11,255,42,34,13,306,42,06,15,048,38,05,22,129,38*6D
$GBGSV,6,3,23,09,29,050,42,48,22,108,,36,48,149,50,58,37,062,*66
$GBGSV,6,4,23,46,43,067,,19,49,102,50,21,70,311,,39,02,047,35*65
$GBGSV,6,5,23,43,00,347,,11,10,329,,02,06,107,35,20,03,109,32*6B
$GBGSV,6,6,23,37,02,032,34,26,05,185,,60,07,111,40*53
$GPGGA,051457.00,,,,,0,00,,,M,,M,,*4A
$PTNL,GGK,051457.00,010125,4742.1603780,N,01618.1002860,E,1,39,0.8,EHT751.1866,M*4D
$GPGGQ,051457.00,010125,4742.1603780,N,01618.1002860,E,1,39,0.996,707.9800,M*36
$GPGFA,051457.00,4.119,6.970,0.433,0.284,338.584,0.850,,VVV*02
$GPLLK,051457.00,010125,,M,,M,1,39,0.8,,M*0B
$GNGMP,051457.00,,,,,DAAA,39,0.4,,,,*5A
$GPGMP,051457.00,,,,,,09,,,,1.4,136*77
$GLGMP,051457.00,,,,,,09,,,,,*74
$GAGMP,051457.00,,,,,,09,,,,,*79
$GBGMP,051457.00,,,,,,12,,,,,*70
$PSSN,SNC,[0,278115000,2347]*4C
$GPZDA,051502.00,01,01,2025,,*60
$GPDTM,W84,,00.0000000,N,00.0000000,E,00.0000000,W84*5F
$PSSN,TFM,051502.00,,,,*6C
$GPRMC,051502.00,A,4742.1603801,N,01618.1002839,E,0.0,,010125,5.1,E,D*19
$GPGLL,4742.1603801,N,01618.1002839,E,051502.00,A,D*68
$GPGGA,051502.00,4742.1603801,N,01618.1002839,E,2,38,0.4,707.9797,M,43.2066,M,2.4,0136*4D
$GNGNS,051502.00,4742.1603801,N,01618.1002839,E,DAAA,38,0.4,707.9797,43.2066,,*53
$GPGNS,051502.00,,,,,,09,,,,2.4,136*75
$GLGNS,051502.00,,,,,,09,,,,,*75
$GAGNS,051502.00,,,,,,09,,,,,*78
$GBGNS,051502.00,,,,,,11,,,,,*72
$GPLLQ,051502.00,010125,,M,,M,1,38,0.984,,M*1C
$GPVTG,,T,,M,0.00,N,0.00,K,D*26
$GPHDT,,T*1B
$GPTHS,,V*0E
$GPROT,,V*08
$PSSN,HRP,051502.00,010125,,,,,,,00,0,,*62
$PTNL,AVR,051502.00,,Yaw,,Tilt,,,,0,,00*34
$GPGSA,A,3,04,05,06,07,09,11,16,20,30,,,,0.8,0.4,0.6*37
$GPGSA,A,3,70,71,72,73,74,80,86,87,88,,,,0.8,0.4,0.6*32
$GPGSA,A,3,03,05,06,09,15,24,31,34,36,,,,0.8,0.4,0.6*33
$GPGSA,A,3,05,06,09,12,16,19,22,34,36,44,60,,0.8,0.4,0.6*3A
$GPGST,051502.00,2.047,0.435,0.281,338.698,0.418,0.305,0.837*54
$GPGBS,051502.00,2.582,1.917,5.190,72,0.0001,6.809,6.068*59
$GPGRS,051502.00,1,0.1,0.2,0.1,-0.0,-0.0,-0.2,0.1,-0.2,0.4,,,*64
$GPGRS,051502.00,1,-2.5,0.2,6.8,4.0,2.5,-1.8,-4.2,-4.6,-2.0,,,*49
$GPGRS,051502.00,1,-0.1,0.4,1.2,0.4,0.5,0.1,-0.1,-0.0,-1.0,,,*65
$GPGRS,051502.00,1,0.2,0.3,1.5,-0.8,0.8,-0.4,-0.3,0.2,0.4,-0.5,-1.1,*4F
$GPGSV,5,1,19,07,74,153,50,16,16,045,40,05,10,312,40,04,27,078,43*7F
$GPGSV,5,2,19,06,31,221,44,20,43,304,46,30,42,206,47,11,40,267,46*74
$GPGSV,5,3,19,09,56,072,48,29,01,332,38,36,35,170,45,58,13,245,37*7B
$GPGSV,5,4,19,40,24,132,37,34,31,208,44,49,34,195,45,57,07,111,38*70
$GPGSV,5,5,19,41,07,108,35,61,03,257,38*73
$GLGSV,3,1,09,71,61,059,51,88,21,326,46,70,19,096,36,80,23,031,46*6D
$GLGSV,3,2,09,74,33,157,44,87,28,263,46,72,50,313,51,73,54,095,50*64
$GLGSV,3,3,09,86,08,220,42*5C
$GAGSV,3,1,12,05,81,355,48,06,10,079,39,16,12,146,,31,25,066,42*6D
$GAGSV,3,2,12,24,23,122,42,34,41,232,46,03,35,269,44,15,36,300,44*63
$GAGSV,3,3,12,09,33,075,44,13,01,339,35,23,04,021,,36,10,187,38*6B
$GBGSV,6,1,23,22,71,313,52,16,13,047,39,45,12,189,,12,17,278,40*6F
$GBGSV,6,2,23,44,10,255,42,34,13,305,42,06,15,048,38,05,22,129,38*6F
$GBGSV,6,3,23,09,29,050,42,48,22,108,,36,48,149,50,58,37,062,*66
$GBGSV,6,4,23,46,43,067,,19,49,102,50,21,70,311,,39,02,047,35*65
$GBGSV,6,5,23,43,00,347,,11,10,329,,02,06,107,35,20,03,109,32*6B
$GBGSV,6,6,23,37,02,032,34,26,05,185,,60,07,111,40*53
$GPGGA,051502.00,,,,,0,00,,,M,,M,,*4B
$PTNL,GGK,051502.00,010125,4742.1603801,N,01618.1002839,E,1,38,0.8,EHT751.1862,M*43
$GPGGQ,051502.00,010125,4742.1603801,N,01618.1002839,E,1,38,0.984,707.9797,M*3E
$GPGFA,051502.00,4.135,6.860,0.435,0.281,338.698,0.837,,VVV*01
$GPLLK,051502.00,010125,,M,,M,1,38,0.8,,M*0B
$GNGMP,051502.00,,,,,DAAA,38,0.4,,,,*5A
$GPGMP,051502.00,,,,,,09,,,,2.4,136*75
$GLGMP,051502.00,,,,,,09,,,,,*75
$GAGMP,051502.00,,,,,,09,,,,,*78
$GBGMP,051502.00,,,,,,11,,,,,*72
$PSSN,SNC,[0,278120000,2347]*4A
$GPZDA,051507.00,01,01,2025,,*65
$GPDTM,W84,,00.0000000,N,00.0000000,E,00.0000000,W84*5F
$PSSN,TFM,051507.00,,,,*69
$GPRMC,051507.00,A,4742.1603792,N,01618.1002858,E,0.0,,010125,5.1,E,D*1E
$GPGLL,4742.1603792,N,01618.1002858,E,051507.00,A,D*6F
$GPGGA,051507.00,4742.1603792,N,01618.1002858,E,2,38,0.4,707.9840,M,43.2066,M,3.0,0136*4A
$GNGNS,051507.00,4742.1603792,N,01618.1002858,E,DAAA,38,0.4,707.9840,43.2066,,*51
$GPGNS,051507.00,,,,,,09,,,,3.0,136*75
$GLGNS,051507.00,,,,,,08,,,,,*71
$GAGNS,051507.00,,,,,,09,,,,,*7D
$GBGNS,051507.00,,,,,,12,,,,,*74
$GPLLQ,051507.00,010125,,M,,M,1,38,0.999,,M*15
$GPVTG,,T,,M,0.00,N,0.01,K,D*27
$GPHDT,,T*1B
$GPTHS,,V*0E
$GPROT,,V*08
$PSSN,HRP,051507.00,010125,,,,,,,00,0,,*67
$PTNL,AVR,051507.00,,Yaw,,Tilt,,,,0,,00*31
$GPGSA,A,3,04,05,06,07,09,11,16,20,30,,,,0.8,0.4,0.6*37
$GPGSA,A,3,71,72,73,74,80,86,87,88,,,,,0.8,0.4,0.6*35
$GPGSA,A,3,03,05,06,09,15,24,31,34,36,,,,0.8,0.4,0.6*33
$GPGSA,A,3,02,05,06,09,12,16,19,22,34,36,44,60,0.8,0.4,0.6*38
$GPGST,051507.00,2.049,0.440,0.285,338.126,0.422,0.311,0.851*57
$GPGBS,051507.00,2.665,1.959,5.305,72,0.0001,6.842,6.068*5D
$GPGRS,051507.00,1,-0.3,0.8,-0.0,-0.2,-0.0,-0.5,0.5,0.3,0.2,,,*43
$GPGRS,051507.00,1,-0.0,6.8,4.3,2.9,-2.0,-3.3,-5.3,-1.5,,,,*67
$GPGRS,051507.00,1,-0.2,0.4,0.5,0.1,0.1,0.0,-0.0,0.0,-0.8,,,*40
$GPGRS,051507.00,1,-0.1,0.3,0.9,1.9,-0.8,0.8,-0.5,-0.4,-0.2,0.1,-0.7,-1.3*61
$GPGSV,5,1,19,07,74,153,50,16,16,045,40,05,11,312,41,04,27,078,43*7F
$GPGSV,5,2,19,06,31,221,44,20,43,304,46,30,42,206,47,11,40,267,46*74
$GPGSV,5,3,19,09,56,072,48,29,01,332,38,36,35,170,45,58,13,245,37*7B
$GPGSV,5,4,19,40,24,132,37,34,31,208,43,49,34,195,45,57,07,111,37*78
$GPGSV,5,5,19,41,07,108,35,61,03,257,38*73
$GLGSV,3,1,09,71,61,059,51,88,21,326,46,70,19,096,35,80,23,031,46*6E
$GLGSV,3,2,09,74,33,157,45,87,28,263,46,72,50,313,51,73,54,095,50*65
$GLGSV,3,3,09,86,08,220,42*5C
$GAGSV,3,1,12,05,81,356,49,06,10,079,39,16,12,146,,31,25,066,42*6F
$GAGSV,3,2,12,24,23,122,42,34,41,231,46,03,35,269,44,15,36,300,44*60
$GAGSV,3,3,12,09,33,075,44,13,01,339,36,23,04,021,,36,10,186,39*68
$GBGSV,6,1,23,22,71,313,52,16,13,047,39,45,12,189,,12,17,278,40*6F
$GBGSV,6,2,23,44,10,254,43,34,13,305,42,06,15,048,37,05,22,129,38*60
$GBGSV,6,3,23,09,29,050,42,48,22,108,,36,48,149,50,58,37,062,*66
$GBGSV,6,4,23,46,43,067,,19,49,102,50,21,70,311,,39,02,047,35*65
$GBGSV,6,5,23,43,00,347,,11,10,329,,02,06,107,35,20,03,109,32*6B
$GBGSV,6,6,23,37,02,032,34,26,05,185,,60,07,111,40*53
$GPGGA,051507.00,,,,,0,00,,,M,,M,,*4E
$PTNL,GGK,051507.00,010125,4742.1603792,N,01618.1002858,E,1,38,0.8,EHT751.1906,M*47
$GPGGQ,051507.00,010125,4742.1603792,N,01618.1002858,E,1,38,0.999,707.9840,M*30
$GPGFA,051507.00,4.182,6.974,0.440,0.285,338.126,0.851,,VVV*08
$GPLLK,051507.00,010125,,M,,M,1,38,0.8,,M*0E
$GNGMP,051507.00,,,,,DAAA,38,0.4,,,,*5F
$GPGMP,051507.00,,,,,,09,,,,3.0,136*75
$GLGMP,051507.00,,,,,,08,,,,,*71
$GAGMP,051507.00,,,,,,09,,,,,*7D
$GBGMP,051507.00,,,,,,12,,,,,*74
$PSSN,SNC,[0,278125000,2347]*4F
$GPZDA,051512.00,01,01,2025,,*61
$GPDTM,W84,,00.0000000,N,00.0000000,E,00.0000000,W84*5F
$PSSN,TFM,051512.00,,,,*6D
$GPRMC,051512.00,A,4742.1603776,N,01618.1002858,E,0.0,,010125,5.1,E,D*10
$GPGLL,4742.1603776,N,01618.1002858,E,051512.00,A,D*61
$GPGGA,051512.00,4742.1603776,N,01618.1002858,E,2,38,0.4,707.9879,M,43.2066,M,3.1,0136*4F
$GNGNS,051512.00,4742.1603776,N,01618.1002858,E,DAAA,38,0.4,707.9879,43.2066,,*55
$GPGNS,051512.00,,,,,,09,,,,3.1,136*70
$GLGNS,051512.00,,,,,,09,,,,,*74
$GAGNS,051512.00,,,,,,09,,,,,*79
$GBGNS,051512.00,,,,,,11,,,,,*73
$GPLLQ,051512.00,010125,,M,,M,1,38,1.008,,M*11
$GPVTG,,T,,M,0.00,N,0.01,K,D*27
$GPHDT,,T*1B
$GPTHS,,V*0E
$GPROT,,V*08
$PSSN,HRP,051512.00,010125,,,,,,,00,0,,*63
$PTNL,AVR,051512.00,,Yaw,,Tilt,,,,0,,00*35
$GPGSA,A,3,04,05,06,07,09,11,16,20,30,,,,0.8,0.4,0.6*37
$GPGSA,A,3,70,71,72,73,74,80,86,87,88,,,,0.8,0.4,0.6*32
$GPGSA,A,3,03,05,06,09,15,24,31,34,36,,,,0.8,0.4,0.6*33
$GPGSA,A,3,05,06,09,12,16,19,22,34,36,44,60,,0.8,0.4,0.6*3A
$GPGST,051512.00,2.095,0.437,0.287,337.743,0.419,0.313,0.862*50
$GPGBS,051512.00,2.664,1.915,5.298,72,0.0001,6.463,6.068*5A
$GPGRS,051512.00,1,0.2,0.7,-0.2,-0.2,-0.3,-0.2,-0.1,0.2,0.3,,,*4B
$GPGRS,051512.00,1,-2.4,-0.6,6.5,4.4,3.2,-1.7,-3.7,-5.6,-1.4,,,*64
$GPGRS,051512.00,1,-0.0,0.2,0.4,0.1,0.0,-0.1,-0.1,-0.0,-1.0,,,*49
$GPGRS,051512.00,1,0.5,0.6,1.1,-0.8,0.6,-0.5,-0.3,0.1,-0.4,-0.4,-1.3,*6A
$GPGSV,5,1,19,07,74,153,49,16,16,045,40,05,11,312,40,04,27,078,43*76
$GPGSV,5,2,19,06,31,221,45,20,43,304,46,30,42,206,48,11,40,267,46*7A
$GPGSV,5,3,19,09,56,072,48,29,01,332,38,36,35,170,45,58,13,245,37*7B
$GPGSV,5,4,19,40,24,132,37,34,31,208,43,49,34,195,45,57,07,111,37*78
$GPGSV,5,5,19,41,07,108,35,61,03,257,39*72
$GLGSV,3,1,09,71,61,059,51,88,21,326,46,80,23,031,46,70,19,096,36*6D
$GLGSV,3,2,09,74,33,157,44,87,28,263,46,72,50,313,51,73,54,095,50*64
$GLGSV,3,3,09,86,08,220,42*5C
$GAGSV,3,1,12,05,81,356,48,06,10,079,39,16,12,146,,31,25,066,42*6E
$GAGSV,3,2,12,24,23,122,42,34,41,231,46,03,35,269,44,15,36,300,44*60
$GAGSV,3,3,12,09,33,075,44,13,01,339,36,23,04,021,,36,10,186,38*69
$GBGSV,6,1,23,22,72,313,52,16,13,047,39,45,12,189,,12,17,278,40*6C
$GBGSV,6,2,23,44,10,254,43,34,13,305,42,06,15,048,37,05,22,129,38*60
$GBGSV,6,3,23,09,29,050,41,48,22,108,,36,48,149,50,58,37,062,*65
$GBGSV,6,4,23,46,43,067,,19,49,103,50,21,70,311,,39,02,047,35*64
$GBGSV,6,5,23,43,00,347,,11,10,329,,02,06,107,35,20,03,109,32*6B
$GBGSV,6,6,23,37,02,032,34,26,05,185,,60,07,111,40*53
$GPGGA,051512.00,,,,,0,00,,,M,,M,,*4A
$PTNL,GGK,051512.00,010125,4742.1603776,N,01618.1002858,E,1,38,0.8,EHT751.1945,M*4E
$GPGGQ,051512.00,010125,4742.1603776,N,01618.1002858,E,1,38,1.008,707.9879,M*34
$GPGFA,051512.00,4.155,7.065,0.437,0.287,337.743,0.862,,VVV*06
$GPLLK,051512.00,010125,,M,,M,1,38,0.8,,M*0A
$GNGMP,051512.00,,,,,DAAA,38,0.4,,,,*5B
$GPGMP,051512.00,,,,,,09,,,,3.1,136*70
$GLGMP,051512.00,,,,,,09,,,,,*74
$GAGMP,051512.00,,,,,,09,,,,,*79
$GBGMP,051512.00,,,,,,11,,,,,*73
$PSSN,SNC,[0,278130000,2347]*4B
$GPZDA,051517.00,01,01,2025,,*64
$GPDTM,W84,,00.0000000,N,00.0000000,E,00.0000000,W84*5F
$PSSN,TFM,051517.00,,,,*68
$GPRMC,051517.00,A,4742.1603784,N,01618.1002862,E,0.0,,010125,5.1,E,D*11
$GPGLL,4742.1603784,N,01618.1002862,E,051517.00,A,D*60
$GPGGA,051517.00,4742.1603784,N,01618.1002862,E,2,38,0.4,707.9924,M,43.2066,M,1.4,0136*40
$GNGNS,051517.00,4742.1603784,N,01618.1002862,E,DAAA,38,0.4,707.9924,43.2066,,*5D
$GPGNS,051517.00,,,,,,09,,,,1.4,136*72
$GLGNS,051517.00,,,,,,09,,,,,*71
$GAGNS,051517.00,,,,,,09,,,,,*7C
$GBGNS,051517.00,,,,,,11,,,,,*76
$GPLLQ,051517.00,010125,,M,,M,1,38,0.997,,M*1A
$GPVTG,,T,,M,0.00,N,0.01,K,D*27
$GPHDT,,T*1B
$GPTHS,,V*0E
$GPROT,,V*08
$PSSN,HRP,051517.00,010125,,,,,,,00,0,,*66
$PTNL,AVR,051517.00,,Yaw,,Tilt,,,,0,,00*30
$GPGSA,A,3,04,05,06,07,09,11,16,20,30,,,,0.8,0.4,0.6*37
$GPGSA,A,3,70,71,72,73,74,80,86,87,88,,,,0.8,0.4,0.6*32
$GPGSA,A,3,03,05,06,09,15,24,31,34,36,,,,0.8,0.4,0.6*33
$GPGSA,A,3,05,06,09,12,16,19,22,34,36,44,60,,0.8,0.4,0.6*3A
$GPGST,051517.00,1.912,0.434,0.285,338.496,0.417,0.309,0.851*50
$GPGBS,051517.00,2.549,1.888,5.140,72,0.0001,6.012,6.068*52
$GPGRS,051517.00,1,0.3,0.3,0.3,-0.3,-0.0,-0.5,0.1,0.1,0.4,,,*4B
$GPGRS,051517.00,1,-0.3,-0.1,6.0,4.0,2.9,-1.7,-3.6,-4.9,-2.3,,,*63
$GPGRS,051517.00,1,-0.5,0.1,0.7,0.4,0.1,-0.0,-0.2,0.0,-1.0,,,*62
$GPGRS,051517.00,1,0.3,0.4,1.3,0.2,0.6,-0.3,-0.4,-0.2,-0.4,-0.8,-1.4,*6A
$GPGSV,5,1,19,07,74,153,50,16,16,045,40,05,11,312,40,04,27,078,44*79
$GPGSV,5,2,19,06,31,221,45,20,43,304,46,30,42,206,48,11,40,267,46*7A
$GPGSV,5,3,19,09,56,072,48,29,01,332,38,36,35,170,45,58,13,245,37*7B
$GPGSV,5,4,19,40,24,132,37,34,31,208,43,49,34,195,45,57,07,111,37*78
$GPGSV,5,5,19,41,07,108,35,61,03,257,38*73
$GLGSV,3,1,09,71,61,059,51,88,21,326,46,80,23,031,45,70,19,096,36*6E
$GLGSV,3,2,09,74,33,157,45,87,28,263,46,72,50,313,51,73,54,095,50*65
$GLGSV,3,3,09,86,08,220,42*5C
$GAGSV,3,1,12,05,81,356,49,06,10,079,39,16,12,146,,31,25,066,42*6F
$GAGSV,3,2,12,24,23,122,42,34,41,231,47,03,35,269,44,15,36,300,44*61
$GAGSV,3,3,12,09,33,075,44,13,01,339,37,23,04,021,,36,10,186,39*69
$GBGSV,6,1,23,22,72,313,52,16,13,047,39,45,12,189,,12,17,278,40*6C
$GBGSV,6,2,23,44,10,254,43,34,13,305,43,06,15,048,37,05,22,129,38*61
$GBGSV,6,3,23,09,29,050,41,48,22,108,,36,48,149,49,58,37,062,*6D
$GBGSV,6,4,23,46,43,067,,19,49,103,50,21,70,311,,39,02,047,35*64
$GBGSV,6,5,23,43,00,347,,11,10,329,,02,06,107,35,20,03,109,32*6B
$GBGSV,6,6,23,37,02,032,34,26,05,185,,60,07,111,40*53
$GPGGA,051517.00,,,,,0,00,,,M,,M,,*4F
$PTNL,GGK,051517.00,010125,4742.1603784,N,01618.1002862,E,1,38,0.8,EHT751.1990,M*47
$GPGGQ,051517.00,010125,4742.1603784,N,01618.1002862,E,1,38,0.997,707.9924,M*32
$GPGFA,051517.00,4.128,6.975,0.434,0.285,338.496,0.851,,VVV*05
$GPLLK,051517.00,010125,,M,,M,1,38,0.8,,M*0F
$GNGMP,051517.00,,,,,DAAA,38,0.4,,,,*5E
$GPGMP,051517.00,,,,,,09,,,,1.4,136*72
$GLGMP,051517.00,,,,,,09,,,,,*71
$GAGMP,051517.00,,,,,,09,,,,,*7C
$GBGMP,051517.00,,,,,,11,,,,,*76
$PSSN,SNC,[0,278135000,2347]*4E
$GPZDA,051522.00,01,01,2025,,*62
$GPDTM,W84,,00.0000000,N,00.0000000,E,00.0000000,W84*5F
$PSSN,TFM,051522.00,,,,*6E
$GPRMC,051522.00,A,4742.1603785,N,01618.1002827,E,0.0,,010125,5.1,E,D*17
$GPGLL,4742.1603785,N,01618.1002827,E,051522.00,A,D*66
$GPGGA,051522.00,4742.1603785,N,01618.1002827,E,2,39,0.4,707.9939,M,43.2066,M,2.4,0136*48
$GNGNS,051522.00,4742.1603785,N,01618.1002827,E,DAAA,39,0.4,707.9939,43.2066,,*56
$GPGNS,051522.00,,,,,,09,,,,2.4,136*77
$GLGNS,051522.00,,,,,,09,,,,,*77
$GAGNS,051522.00,,,,,,09,,,,,*7A
$GBGNS,051522.00,,,,,,12,,,,,*73
$GPLLQ,051522.00,010125,,M,,M,1,39,0.982,,M*19
$GPVTG,,T,,M,0.00,N,0.01,K,D*27
$GPHDT,,T*1B
$GPTHS,,V*0E
$GPROT,,V*08
$PSSN,HRP,051522.00,010125,,,,,,,00,0,,*60
$PTNL,AVR,051522.00,,Yaw,,Tilt,,,,0,,00*36
$GPGSA,A,3,04,05,06,07,09,11,16,20,30,,,,0.7,0.4,0.6*38
$GPGSA,A,3,70,71,72,73,74,80,86,87,88,,,,0.7,0.4,0.6*3D
$GPGSA,A,3,03,05,06,09,15,24,31,34,36,,,,0.7,0.4,0.6*3C
$GPGSA,A,3,02,05,06,09,12,16,19,22,34,36,44,60,0.7,0.4,0.6*37
$GPGST,051522.00,1.975,0.435,0.280,338.837,0.418,0.305,0.834*54
$GPGBS,051522.00,2.568,1.907,5.185,72,0.0001,6.409,6.068*56
$GPGRS,051522.00,1,0.5,0.3,-0.3,-0.1,-0.1,-0.2,0.2,-0.2,0.3,,,*48
$GPGRS,051522.00,1,-0.6,-0.1,6.4,3.5,3.8,-3.4,-3.0,-5.0,-1.9,,,*60
$GPGRS,051522.00,1,-0.6,0.3,0.6,0.3,0.0,-0.1,-0.2,-0.1,-0.9,,,*47
$GPGRS,051522.00,1,-0.3,0.1,-0.4,1.4,0.7,0.6,-0.5,-0.4,-0.3,0.3,-0.4,-1.3*67
$GPGSV,5,1,19,07,74,153,50,16,16,045,40,05,11,312,39,04,27,078,44*77
$GPGSV,5,2,19,06,31,221,45,20,43,304,46,30,42,206,48,11,40,267,46*7A
$GPGSV,5,3,19,09,55,072,48,29,01,332,37,36,35,170,45,58,13,245,37*77
$GPGSV,5,4,19,40,24,132,37,34,31,208,43,49,34,195,45,57,07,111,37*78
$GPGSV,5,5,19,41,07,108,35,61,03,257,38*73
$GLGSV,3,1,09,71,61,059,51,88,21,326,47,80,23,031,45,70,19,096,35*6C
$GLGSV,3,2,09,74,33,157,45,87,28,263,46,72,50,313,51,73,54,095,50*65
$GLGSV,3,3,09,86,08,220,43*5D
$GAGSV,3,1,12,05,81,356,49,06,10,079,39,16,12,146,,31,25,066,42*6F
$GAGSV,3,2,12,24,23,121,43,34,41,231,47,03,35,269,44,15,36,300,44*63
$GAGSV,3,3,12,09,33,075,44,13,01,339,37,23,04,021,,36,10,186,39*69
$GBGSV,6,1,23,22,72,313,52,16,13,047,39,45,12,189,,12,17,278,40*6C
$GBGSV,6,2,23,44,10,254,43,34,13,305,42,06,15,048,37,05,22,129,38*60
$GBGSV,6,3,23,09,29,050,41,48,22,108,,36,48,149,50,58,37,062,*65
$GBGSV,6,4,23,46,43,067,,19,49,103,50,21,70,311,,39,02,047,35*64
$GBGSV,6,5,23,43,00,347,,11,10,329,,02,06,107,35,20,03,110,32*63
$GBGSV,6,6,23,37,02,032,33,26,05,185,,60,07,111,40*54
$GPGGA,051522.00,,,,,0,00,,,M,,M,,*49
$PTNL,GGK,051522.00,010125,4742.1603785,N,01618.1002827,E,1,39,0.7,EHT751.2004,M*48
$GPGGQ,051522.00,010125,4742.1603785,N,01618.1002827,E,1,39,0.982,707.9939,M*3D
$GPGFA,051522.00,4.132,6.843,0.435,0.280,338.837,0.834,,VVV*0C
$GPLLK,051522.00,010125,,M,,M,1,39,0.8,,M*08
$GNGMP,051522.00,,,,,DAAA,39,0.4,,,,*59
$GPGMP,051522.00,,,,,,09,,,,2.4,136*77
$GLGMP,051522.00,,,,,,09,,,,,*77
$GAGMP,051522.00,,,,,,09,,,,,*7A
$GBGMP,051522.00,,,,,,12,,,,,*73
$PSSN,SNC,[0,278140000,2347]*4C
$GPZDA,051527.00,01,01,2025,,*67
$GPDTM,W84,,00.0000000,N,00.0000000,E,00.0000000,W84*5F
$PSSN,TFM,051527.00,,,,*6B
$GPRMC,051527.00,A,4742.1603771,N,01618.1002810,E,0.0,,010125,5.1,E,D*1D
$GPGLL,4742.1603771,N,01618.1002810,E,051527.00,A,D*6C
$GPGGA,051527.00,4742.1603771,N,01618.1002810,E,2,39,0.4,707.9952,M,43.2066,M,3.0,0136*4A
$GNGNS,051527.00,4742.1603771,N,01618.1002810,E,DAAA,39,0.4,707.9952,43.2066,,*51
$GPGNS,051527.00,,,,,,09,,,,3.0,136*77
$GLGNS,051527.00,,,,,,09,,,,,*72
$GAGNS,051527.00,,,,,,09,,,,,*7F
$GBGNS,051527.00,,,,,,12,,,,,*76
$GPLLQ,051527.00,010125,,M,,M,1,39,0.996,,M*19
$GPVTG,,T,,M,0.01,N,0.01,K,D*26
$GPHDT,,T*1B
$GPTHS,,V*0E
$GPROT,,V*08
$PSSN,HRP,051527.00,010125,,,,,,,00,0,,*65
$PTNL,AVR,051527.00,,Yaw,,Tilt,,,,0,,00*33
$GPGSA,A,3,04,05,06,07,09,11,16,20,30,,,,0.7,0.4,0.6*38
$GPGSA,A,3,70,71,72,73,74,80,86,87,88,,,,0.7,0.4,0.6*3D
$GPGSA,A,3,03,05,06,09,15,24,31,34,36,,,,0.7,0.4,0.6*3C
$GPGSA,A,3,02,05,06,09,12,16,19,22,34,36,44,60,0.7,0.4,0.6*37
$GPGST,051527.00,1.938,0.439,0.284,338.363,0.421,0.310,0.847*50
$GPGBS,051527.00,2.651,1.937,5.299,72,0.0001,6.587,6.068*50
$GPGRS,051527.00,1,0.0,0.7,-0.4,-0.0,-0.0,-0.1,-0.2,0.0,0.2,,,*4B
$GPGRS,051527.00,1,-2.7,-0.3,6.6,3.9,3.0,-2.5,-2.8,-4.8,-1.0,,,*6B
$GPGRS,051527.00,1,-0.3,0.2,0.4,0.1,0.4,-0.0,-0.1,0.0,-1.1,,,*65
$GPGRS,051527.00,1,-0.0,0.3,-0.3,0.4,0.2,0.5,-0.7,-0.5,-0.0,0.4,-0.3,-1.5*65
$GPGSV,5,1,19,07,74,153,50,16,16,045,40,05,11,312,40,04,27,078,44*79
$GPGSV,5,2,19,06,31,221,44,20,43,304,46,30,42,206,47,11,40,267,46*74
$GPGSV,5,3,19,09,55,072,48,29,01,332,38,36,35,170,45,58,13,245,37*78
$GPGSV,5,4,19,40,24,132,37,34,31,208,43,49,34,195,45,57,07,111,38*77
$GPGSV,5,5,19,41,07,108,35,61,03,257,38*73
$GLGSV,3,1,09,71,61,059,51,88,21,326,46,80,23,031,45,70,19,096,36*6E
$GLGSV,3,2,09,74,33,157,44,87,28,263,46,72,50,313,51,73,54,095,50*64
$GLGSV,3,3,09,86,08,220,42*5C
$GAGSV,3,1,12,05,81,356,49,06,10,079,38,16,12,146,,31,25,066,42*6E
$GAGSV,3,2,12,24,23,121,42,34,41,231,46,03,35,269,44,15,36,300,44*63
$GAGSV,3,3,12,09,33,075,44,13,01,339,36,23,04,021,,36,10,186,39*68
$GBGSV,6,1,23,22,72,313,52,16,13,047,39,45,12,189,,12,17,278,40*6C
$GBGSV,6,2,23,44,10,254,42,34,13,305,42,06,15,048,37,05,22,129,38*61
$GBGSV,6,3,23,09,29,050,41,48,22,108,,36,48,149,50,58,37,062,*65
$GBGSV,6,4,23,46,43,067,,19,49,103,50,21,70,311,,39,02,047,35*64
$GBGSV,6,5,23,43,00,347,,11,10,329,,02,06,107,35,20,03,110,32*63
$GBGSV,6,6,23,37,02,032,33,26,05,185,,60,07,111,40*54
$GPGGA,051527.00,,,,,0,00,,,M,,M,,*4C
$PTNL,GGK,051527.00,010125,4742.1603771,N,01618.1002810,E,1,39,0.7,EHT751.2017,M*40
$GPGGQ,051527.00,010125,4742.1603771,N,01618.1002810,E,1,39,0.996,707.9952,M*3F
$GPGFA,051527.00,4.173,6.948,0.439,0.284,338.363,0.847,,VVV*00
$GPLLK,051527.00,010125,,M,,M,1,39,0.8,,M*0D
$GNGMP,051527.00,,,,,DAAA,39,0.4,,,,*5C
$GPGMP,051527.00,,,,,,09,,,,3.0,136*77
$GLGMP,051527.00,,,,,,09,,,,,*72
$GAGMP,051527.00,,,,,,09,,,,,*7F
$GBGMP,051527.00,,,,,,12,,,,,*76
$PSSN,SNC,[0,278145000,2347]*49
$GPZDA,051532.00,01,01,2025,,*63
$GPDTM,W84,,00.0000000,N,00.0000000,E,00.0000000,W84*5F
$PSSN,TFM,051532.00,,,,*6F
$GPRMC,051532.00,A,4742.1603764,N,01618.1002832,E,0.0,,010125,5.1,E,D*1D
$GPGLL,4742.1603764,N,01618.1002832,E,051532.00,A,D*6C
$GPGGA,051532.00,4742.1603764,N,01618.1002832,E,2,39,0.4,707.9956,M,43.2066,M,3.1,0136*4F
$GNGNS,051532.00,4742.1603764,N,01618.1002832,E,DAAA,39,0.4,707.9956,43.2066,,*55
$GPGNS,051532.00,,,,,,09,,,,3.1,136*72
$GLGNS,051532.00,,,,,,09,,,,,*76
$GAGNS,051532.00,,,,,,09,,,,,*7B
$GBGNS,051532.00,,,,,,12,,,,,*72
$GPLLQ,051532.00,010125,,M,,M,1,39,1.005,,M*1F
$GPVTG,,T,,M,0.00,N,0.01,K,D*27
$GPHDT,,T*1B
$GPTHS,,V*0E
$GPROT,,V*08
$PSSN,HRP,051532.00,010125,,,,,,,00,0,,*61
$PTNL,AVR,051532.00,,Yaw,,Tilt,,,,0,,00*37
$GPGSA,A,3,04,05,06,07,09,11,16,20,30,,,,0.7,0.4,0.6*38
$GPGSA,A,3,70,71,72,73,74,80,86,87,88,,,,0.7,0.4,0.6*3D
$GPGSA,A,3,03,05,06,09,15,24,31,34,36,,,,0.7,0.4,0.6*3C
$GPGSA,A,3,02,05,06,09,12,16,19,22,34,36,44,60,0.7,0.4,0.6*37
$GPGST,051532.00,1.997,0.436,0.287,337.947,0.419,0.312,0.859*58
$GPGBS,051532.00,2.652,1.905,5.290,72,0.0001,6.732,6.068*53
$GPGRS,051532.00,1,0.1,1.0,-0.1,-0.1,-0.1,-0.3,-0.2,-0.1,0.3,,,*62
$GPGRS,051532.00,1,-2.3,-0.5,6.7,4.3,1.9,-2.2,-4.0,-5.0,-1.6,,,*6C
$GPGRS,051532.00,1,-0.0,0.3,0.3,0.4,0.3,-0.3,-0.3,-0.2,-1.0,,,*49
$GPGRS,051532.00,1,-0.3,0.1,0.2,0.5,-1.0,0.1,-0.6,-0.3,0.2,0.2,-0.6,-1.3*4A
$GPGSV,5,1,19,07,74,153,49,16,16,045,41,05,11,312,40,04,27,078,44*70
$GPGSV,5,2,19,06,31,221,44,20,43,304,46,30,42,206,47,11,40,267,46*74
$GPGSV,5,3,19,09,55,072,49,29,01,332,38,36,35,170,45,58,13,245,37*79
$GPGSV,5,4,19,40,24,132,37,34,31,208,44,49,34,195,45,57,07,111,38*70
$GPGSV,5,5,19,41,07,108,35,61,03,257,38*73
$GLGSV,3,1,09,71,61,060,51,88,21,326,46,80,23,031,45,70,19,096,36*64
$GLGSV,3,2,09,74,33,157,44,87,28,263,46,72,50,313,51,73,54,095,50*64
$GLGSV,3,3,09,86,08,220,42*5C
$GAGSV,3,1,12,05,81,357,49,06,10,079,38,16,12,145,,31,25,066,42*6C
$GAGSV,3,2,12,24,23,121,42,34,41,231,46,03,35,269,44,15,36,300,44*63
$GAGSV,3,3,12,09,33,075,44,13,01,339,36,23,04,020,,36,10,186,39*69
$GBGSV,6,1,23,22,72,313,52,16,13,047,39,45,12,189,,12,17,278,40*6C
$GBGSV,6,2,23,44,10,254,42,34,13,305,42,06,15,048,38,05,22,129,38*6E
$GBGSV,6,3,23,09,29,050,40,48,22,108,,36,48,148,50,58,37,061,*66
$GBGSV,6,4,23,46,43,067,,19,49,103,50,21,70,311,,39,02,047,34*65
$GBGSV,6,5,23,43,00,347,,11,10,329,,02,06,107,35,20,03,110,33*62
$GBGSV,6,6,23,37,02,032,33,26,05,185,,60,07,111,40*54
$GPGGA,051532.00,,,,,0,00,,,M,,M,,*48
$PTNL,GGK,051532.00,010125,4742.1603764,N,01618.1002832,E,1,39,0.7,EHT751.2021,M*45
$GPGGQ,051532.00,010125,4742.1603764,N,01618.1002832,E,1,39,1.005,707.9956,M*39
$GPGFA,051532.00,4.149,7.041,0.436,0.287,337.947,0.859,,VVV*0C
$GPLLK,051532.00,010125,,M,,M,1,39,0.8,,M*09
$GNGMP,051532.00,,,,,DAAA,39,0.4,,,,*58
$GPGMP,051532.00,,,,,,09,,,,3.1,136*72
$GLGMP,051532.00,,,,,,09,,,,,*76
$GAGMP,051532.00,,,,,,09,,,,,*7B
$GBGMP,051532.00,,,,,,12,,,,,*72
$PSSN,SNC,[0,278150000,2347]*4D
$GPZDA,051537.00,01,01,2025,,*66
$GPDTM,W84,,00.0000000,N,00.0000000,E,00.0000000,W84*5F
$PSSN,TFM,051537.00,,,,*6A
$GPRMC,051537.00,A,4742.1603755,N,01618.1002826,E,0.0,,010125,5.1,E,D*1F
$GPGLL,4742.1603755,N,01618.1002826,E,051537.00,A,D*6E
$GPGGA,051537.00,4742.1603755,N,01618.1002826,E,2,39,0.4,707.9978,M,43.2066,M,1.4,0136*46
$GNGNS,051537.00,4742.1603755,N,01618.1002826,E,DAAA,39,0.4,707.9978,43.2066,,*5B
$GPGNS,051537.00,,,,,,09,,,,1.4,136*70
$GLGNS,051537.00,,,,,,09,,,,,*73
$GAGNS,051537.00,,,,,,09,,,,,*7E
$GBGNS,051537.00,,,,,,12,,,,,*77
$GPLLQ,051537.00,010125,,M,,M,1,39,0.993,,M*1D
$GPVTG,,T,,M,0.00,N,0.01,K,D*27
$GPHDT,,T*1B
$GPTHS,,V*0E
$GPROT,,V*08
$PSSN,HRP,051537.00,010125,,,,,,,00,0,,*64
$PTNL,AVR,051537.00,,Yaw,,Tilt,,,,0,,00*32
$GPGSA,A,3,04,05,06,07,09,11,16,20,30,,,,0.7,0.4,0.6*38
$GPGSA,A,3,70,71,72,73,74,80,86,87,88,,,,0.7,0.4,0.6*3D
$GPGSA,A,3,03,05,06,09,15,24,31,34,36,,,,0.7,0.4,0.6*3C
$GPGSA,A,3,02,05,06,09,12,16,19,22,34,36,44,60,0.7,0.4,0.6*37
$GPGST,051537.00,2.057,0.433,0.284,338.687,0.417,0.308,0.847*5B
$GPGBS,051537.00,2.536,1.878,5.134,72,0.0001,6.285,6.068*58
$GPGRS,051537.00,1,-0.2,1.1,-0.1,-0.3,0.0,-0.2,0.3,-0.1,0.3,,,*4B
$GPGRS,051537.00,1,-2.7,0.1,6.3,4.2,2.2,-2.0,-4.9,-5.3,-2.1,,,*45
$GPGRS,051537.00,1,-0.4,0.2,0.6,0.5,0.2,-0.4,0.3,0.0,-1.1,,,*48
$GPGRS,051537.00,1,0.4,0.2,0.1,0.2,0.1,0.1,-0.5,-0.2,0.0,0.2,-0.4,-1.1*4F
$GPGSV,5,1,19,07,74,153,49,16,16,045,40,05,11,312,40,04,27,078,43*76
$GPGSV,5,2,19,06,31,221,44,20,43,304,47,30,43,206,47,11,40,267,46*74
$GPGSV,5,3,19,09,55,072,49,29,01,332,37,36,35,170,45,58,13,245,37*76
$GPGSV,5,4,19,40,24,132,37,34,31,208,44,49,34,195,45,57,07,111,38*70
$GPGSV,5,5,19,41,07,108,35,61,03,257,39*72
$GLGSV,3,1,09,71,61,060,51,88,21,326,46,80,23,031,46,70,19,096,36*67
$GLGSV,3,2,09,74,33,157,44,87,28,263,45,72,50,313,51,73,54,095,50*67
$GLGSV,3,3,09,86,07,220,43*52
$GAGSV,3,1,12,05,81,357,49,06,10,079,38,16,13,145,,31,25,066,42*6D
$GAGSV,3,2,12,24,23,121,42,34,41,231,46,03,35,269,44,15,36,300,44*63
$GAGSV,3,3,12,09,33,075,45,13,01,339,35,23,04,020,,36,09,186,38*62
$GBGSV,6,1,23,22,72,313,52,16,13,047,39,45,12,189,,12,17,278,41*6D
$GBGSV,6,2,23,44,10,254,42,34,13,305,42,06,15,048,38,05,22,129,38*6E
$GBGSV,6,3,23,09,29,050,40,48,22,108,,36,48,148,50,58,36,061,*67
$GBGSV,6,4,23,46,43,067,,19,49,103,50,21,70,311,,39,02,047,34*65
$GBGSV,6,5,23,43,00,347,,11,10,329,,02,06,107,35,20,03,110,34*65
$GBGSV,6,6,23,37,02,032,33,26,05,185,,60,07,111,41*55
$GPGGA,051537.00,,,,,0,00,,,M,,M,,*4D
$PTNL,GGK,051537.00,010125,4742.1603755,N,01618.1002826,E,1,39,0.7,EHT751.2043,M*43
$GPGGQ,051537.00,010125,4742.1603755,N,01618.1002826,E,1,39,0.993,707.9978,M*30
$GPGFA,051537.00,4.120,6.948,0.433,0.284,338.687,0.847,,VVV*02
$GPLLK,051537.00,010125,,M,,M,1,39,0.8,,M*0C
$GNGMP,051537.00,,,,,DAAA,39,0.4,,,,*5D
$GPGMP,051537.00,,,,,,09,,,,1.4,136*70
$GLGMP,051537.00,,,,,,09,,,,,*73
$GAGMP,051537.00,,,,,,09,,,,,*7E
$GBGMP,051537.00,,,,,,12,,,,,*77
$PSSN,SNC,[0,278155000,2347]*48
$GPZDA,051542.00,01,01,2025,,*64
$GPDTM,W84,,00.0000000,N,00.0000000,E,00.0000000,W84*5F
$PSSN,TFM,051542.00,,,,*68
$GPRMC,051542.00,A,4742.1603739,N,01618.1002827,E,0.0,,010125,5.1,E,D*16
$GPGLL,4742.1603739,N,01618.1002827,E,051542.00,A,D*67
$GPGGA,051542.00,4742.1603739,N,01618.1002827,E,2,39,0.4,707.9977,M,43.2066,M,2.4,0136*43
$GNGNS,051542.00,4742.1603739,N,01618.1002827,E,DAAA,39,0.4,707.9977,43.2066,,*5D
$GPGNS,051542.00,,,,,,09,,,,2.4,136*71
$GLGNS,051542.00,,,,,,09,,,,,*71
$GAGNS,051542.00,,,,,,09,,,,,*7C
$GBGNS,051542.00,,,,,,12,,,,,*75
$GPLLQ,051542.00,010125,,M,,M,1,39,0.980,,M*1D
$GPVTG,,T,,M,0.00,N,0.00,K,D*26
$GPHDT,,T*1B
$GPTHS,,V*0E
$GPROT,,V*08
$PSSN,HRP,051542.00,010125,,,,,,,00,0,,*66
$PTNL,AVR,051542.00,,Yaw,,Tilt,,,,0,,00*30
$GPGSA,A,3,04,05,06,07,09,11,16,20,30,,,,0.7,0.4,0.6*38
$GPGSA,A,3,70,71,72,73,74,80,86,87,88,,,,0.7,0.4,0.6*3D
$GPGSA,A,3,03,05,06,09,15,24,31,34,36,,,,0.7,0.4,0.6*3C
$GPGSA,A,3,02,05,06,09,12,16,19,22,34,36,44,60,0.7,0.4,0.6*37
$GPGST,051542.00,2.011,0.434,0.280,338.912,0.418,0.305,0.833*5A
$GPGBS,051542.00,2.559,1.905,5.189,72,0.0001,6.037,6.068*55
$GPGRS,051542.00,1,-0.0,0.4,-0.1,-0.1,-0.1,-0.3,0.1,0.3,0.2,,,*4C
$GPGRS,051542.00,1,-2.0,-0.1,6.0,4.1,2.8,-1.9,-4.2,-5.6,-2.0,,,*62
$GPGRS,051542.00,1,-0.5,0.2,0.7,0.2,0.0,-0.2,0.3,-0.1,-1.2,,,*66
$GPGRS,051542.00,1,0.4,0.1,-0.1,0.5,1.3,0.5,-0.6,-0.2,-0.4,0.0,-0.5,-1.3*48
$GPGSV,5,1,19,07,74,153,49,16,16,045,41,05,11,312,40,04,27,078,43*77
$GPGSV,5,2,19,06,31,221,44,20,43,304,47,30,43,206,47,11,40,267,46*74
$GPGSV,5,3,19,09,55,072,48,29,01,332,38,36,35,170,45,58,13,245,37*78
$GPGSV,5,4,19,40,24,132,37,34,31,208,44,49,34,195,45,57,07,111,38*70
$GPGSV,5,5,19,41,07,108,35,61,03,257,39*72
$GLGSV,3,1,09,71,61,060,51,88,21,326,46,80,23,031,46,70,18,096,36*66
$GLGSV,3,2,09,74,33,157,44,87,28,263,45,72,50,313,51,73,54,095,50*67
$GLGSV,3,3,09,86,07,220,43*52
$GAGSV,3,1,12,05,81,357,49,06,10,079,38,16,13,145,,31,25,065,42*6E
$GAGSV,3,2,12,24,23,121,42,34,40,231,46,03,35,269,44,15,36,300,44*62
$GAGSV,3,3,12,09,33,075,44,13,01,339,36,23,04,020,,36,09,186,38*60
$GBGSV,6,1,23,22,72,313,52,16,13,047,39,45,12,189,,12,17,278,41*6D
$GBGSV,6,2,23,44,10,254,42,34,13,305,42,06,15,048,37,05,22,129,38*61
$GBGSV,6,3,23,09,29,050,40,48,22,108,,36,48,148,50,58,36,061,*67
$GBGSV,6,4,23,46,43,067,,19,49,103,50,21,70,311,,39,02,047,35*64
$GBGSV,6,5,23,43,00,347,,11,10,329,,02,06,107,35,20,03,110,34*65
$GBGSV,6,6,23,37,02,032,34,26,05,185,,60,07,111,40*53
$GPGGA,051542.00,,,,,0,00,,,M,,M,,*4F
$PTNL,GGK,051542.00,010125,4742.1603739,N,01618.1002827,E,1,39,0.7,EHT751.2043,M*4A
$GPGGQ,051542.00,010125,4742.1603739,N,01618.1002827,E,1,39,0.980,707.9977,M*34
$GPGFA,051542.00,4.129,6.827,0.434,0.280,338.912,0.833,,VVV*02
$GPLLK,051542.00,010125,,M,,M,1,39,0.8,,M*0E
$GNGMP,051542.00,,,,,DAAA,39,0.4,,,,*5F
$GPGMP,051542.00,,,,,,09,,,,2.4,136*71
$GLGMP,051542.00,,,,,,09,,,,,*71
$GAGMP,051542.00,,,,,,09,,,,,*7C
$GBGMP,051542.00,,,,,,12,,,,,*75
$PSSN,SNC,[0,278160000,2347]*4E
$GPZDA,051547.00,01,01,2025,,*61
$GPDTM,W84,,00.0000000,N,00.0000000,E,00.0000000,W84*5F
$PSSN,TFM,051547.00,,,,*6D
$GPRMC,051547.00,A,4742.1603731,N,01618.1002848,E,0.0,,010125,5.1,E,D*12
$GPGLL,4742.1603731,N,01618.1002848,E,051547.00,A,D*63
$GPGGA,051547.00,4742.1603731,N,01618.1002848,E,2,39,0.4,708.0031,M,43.2066,M,3.0,0136*4F
$GNGNS,051547.00,4742.1603731,N,01618.1002848,E,DAAA,39,0.4,708.0031,43.2066,,*54
$GPGNS,051547.00,,,,,,09,,,,3.0,136*71
$GLGNS,051547.00,,,,,,09,,,,,*74
$GAGNS,051547.00,,,,,,09,,,,,*79
$GBGNS,051547.00,,,,,,12,,,,,*70
$GPLLQ,051547.00,010125,,M,,M,1,39,1.000,,M*18
$GPVTG,,T,,M,0.00,N,0.00,K,D*26
$GPHDT,,T*1B
$GPTHS,,V*0E
$GPROT,,V*08
$PSSN,HRP,051547.00,010125,,,,,,,00,0,,*63
$PTNL,AVR,051547.00,,Yaw,,Tilt,,,,0,,00*35
$GPGSA,A,3,04,05,06,07,09,11,16,20,30,,,,0.7,0.4,0.6*38
$GPGSA,A,3,70,71,72,73,74,80,86,87,88,,,,0.7,0.4,0.6*3D
$GPGSA,A,3,03,05,06,09,15,24,31,34,36,,,,0.7,0.4,0.6*3C
$GPGSA,A,3,02,05,06,09,12,16,19,22,34,36,44,60,0.7,0.4,0.6*37
$GPGST,051547.00,1.978,0.439,0.287,338.596,0.422,0.311,0.852*5B
$GPGBS,051547.00,2.648,1.976,5.345,72,0.0001,6.898,6.068*58
$GPGRS,051547.00,1,0.3,0.1,-0.0,0.0,-0.4,-0.5,0.1,0.2,0.4,,,*4B
$GPGRS,051547.00,1,-0.3,-0.2,6.9,4.1,2.2,-2.4,-3.7,-5.0,-1.2,,,*6D
$GPGRS,051547.00,1,-0.4,0.4,0.6,0.2,0.1,-0.4,0.1,0.3,-1.0,,,*4D
$GPGRS,051547.00,1,0.4,-0.1,0.2,0.7,1.7,0.7,-0.4,-0.2,0.4,0.0,-0.5,-1.5*63
$GPGSV,5,1,19,07,74,152,50,16,16,045,41,05,11,312,40,04,27,078,43*7E
$GPGSV,5,2,19,06,31,221,44,20,43,304,46,30,43,206,48,11,40,267,46*7A
$GPGSV,5,3,19,09,55,072,48,29,01,332,38,36,35,170,45,58,13,245,37*78
$GPGSV,5,4,19,40,24,132,37,34,31,208,44,49,34,195,45,57,07,111,38*70
$GPGSV,5,5,19,41,07,108,35,61,03,257,38*73
$GLGSV,3,1,09,71,61,060,51,88,21,326,46,80,23,030,45,70,18,096,37*65
$GLGSV,3,2,09,74,33,157,44,87,28,262,45,72,50,313,51,73,54,095,50*66
$GLGSV,3,3,09,86,07,220,42*53
$GAGSV,3,1,12,05,81,357,49,06,10,079,38,16,13,145,,31,25,065,42*6E
$GAGSV,3,2,12,24,23,121,41,34,40,231,46,03,35,269,44,15,36,300,44*61
$GAGSV,3,3,12,09,33,075,44,13,01,339,36,23,04,020,,36,09,186,38*60
$GBGSV,6,1,23,22,72,313,52,16,13,047,39,45,12,189,,12,17,278,40*6C
$GBGSV,6,2,23,44,10,254,42,34,13,305,42,06,15,048,38,05,22,129,38*6E
$GBGSV,6,3,23,09,29,050,40,48,22,108,,36,48,148,50,58,36,061,*67
$GBGSV,6,4,23,46,43,067,,19,49,103,50,21,70,311,,39,02,047,35*64
$GBGSV,6,5,23,43,00,347,,11,10,329,,02,06,107,35,20,03,110,33*62
$GBGSV,6,6,23,37,02,032,34,26,05,185,,60,07,111,40*53
$GPGGA,051547.00,,,,,0,00,,,M,,M,,*4A
$PTNL,GGK,051547.00,010125,4742.1603731,N,01618.1002848,E,1,39,0.7,EHT751.2097,M*47
$GPGGQ,051547.00,010125,4742.1603731,N,01618.1002848,E,1,39,1.000,708.0031,M*3D
$GPGFA,051547.00,4.175,6.984,0.439,0.287,338.596,0.852,,VVV*0B
$GPLLK,051547.00,010125,,M,,M,1,39,0.8,,M*0B
$GNGMP,051547.00,,,,,DAAA,39,0.4,,,,*5A
$GPGMP,051547.00,,,,,,09,,,,3.0,136*71
$GLGMP,051547.00,,,,,,09,,,,,*74
$GAGMP,051547.00,,,,,,09,,,,,*79
$GBGMP,051547.00,,,,,,12,,,,,*70
$PSSN,SNC,[0,278165000,2347]*4B
$GPZDA,051552.00,01,01,2025,,*65
$GPDTM,W84,,00.0000000,N,00.0000000,E,00.0000000,W84*5F
$PSSN,TFM,051552.00,,,,*69
$GPRMC,051552.00,A,4742.1603736,N,01618.1002822,E,0.0,,010125,5.1,E,D*1D
$GPGLL,4742.1603736,N,01618.1002822,E,051552.00,A,D*6C
$GPGGA,051552.00,4742.1603736,N,01618.1002822,E,2,38,0.4,708.0004,M,43.2066,M,3.1,0136*46
$GNGNS,051552.00,4742.1603736,N,01618.1002822,E,DAAA,38,0.4,708.0004,43.2066,,*5C
$GPGNS,051552.00,,,,,,09,,,,3.1,136*74
$GLGNS,051552.00,,,,,,09,,,,,*70
$GAGNS,051552.00,,,,,,09,,,,,*7D
$GBGNS,051552.00,,,,,,11,,,,,*77
$GPLLQ,051552.00,010125,,M,,M,1,38,1.010,,M*1C
$GPVTG,,T,,M,0.00,N,0.00,K,D*26
$GPHDT,,T*1B
$GPTHS,,V*0E
$GPROT,,V*08
$PSSN,HRP,051552.00,010125,,,,,,,00,0,,*67
$PTNL,AVR,051552.00,,Yaw,,Tilt,,,,0,,00*31
$GPGSA,A,3,04,05,06,07,09,11,16,20,30,,,,0.8,0.4,0.6*37
$GPGSA,A,3,70,71,72,73,74,80,86,87,88,,,,0.8,0.4,0.6*32
$GPGSA,A,3,03,05,06,09,15,24,31,34,36,,,,0.8,0.4,0.6*33
$GPGSA,A,3,05,06,09,12,16,19,22,34,36,44,60,,0.8,0.4,0.6*3A
$GPGST,051552.00,2.029,0.437,0.289,338.114,0.420,0.314,0.864*5D
$GPGBS,051552.00,2.653,1.950,5.347,72,0.0001,7.137,6.067*52
$GPGRS,051552.00,1,0.4,0.2,-0.1,0.1,-0.1,-0.1,0.1,-0.3,0.2,,,*60
$GPGRS,051552.00,1,-0.6,-0.2,7.1,4.2,3.0,-2.8,-3.7,-4.5,-0.9,,,*67
$GPGRS,051552.00,1,-0.3,0.4,0.9,0.1,0.3,-0.1,0.1,0.5,-0.7,,,*45
$GPGRS,051552.00,1,0.2,0.7,0.6,-0.3,-0.0,-0.2,-0.4,0.0,-0.1,-0.9,-1.6,*42
$GPGSV,5,1,19,07,74,152,50,16,16,045,42,05,11,312,39,04,27,078,44*74
$GPGSV,5,2,19,06,31,221,44,20,43,304,46,30,43,206,47,11,40,267,46*75
$GPGSV,5,3,19,09,55,073,48,29,01,332,39,36,35,170,45,58,13,245,37*78
$GPGSV,5,4,19,40,24,132,37,34,31,208,44,49,34,195,45,57,07,111,38*70
$GPGSV,5,5,19,41,07,108,35,61,03,257,39*72
$GLGSV,3,1,09,71,61,060,51,88,21,326,46,80,23,030,45,70,18,096,37*65
$GLGSV,3,2,09,74,33,157,44,87,28,262,46,72,50,313,51,73,54,095,51*64
$GLGSV,3,3,09,86,07,220,42*53
$GAGSV,3,1,12,05,81,357,49,06,10,079,38,16,13,145,,31,25,065,42*6E
$GAGSV,3,2,12,24,23,121,41,34,40,231,46,03,35,270,44,15,36,300,44*69
$GAGSV,3,3,12,09,33,075,44,13,01,339,36,23,04,020,,36,09,186,38*60
$GBGSV,6,1,23,22,72,313,52,16,13,047,39,45,12,189,,12,17,278,40*6C
$GBGSV,6,2,23,44,10,254,42,34,13,305,42,06,15,048,38,05,22,129,38*6E
$GBGSV,6,3,23,09,29,050,40,48,22,108,,36,48,148,50,58,36,061,*67
$GBGSV,6,4,23,46,43,067,,19,49,103,50,21,70,311,,39,02,047,34*65
$GBGSV,6,5,23,43,00,347,,11,10,329,,02,06,107,35,20,02,110,32*62
$GBGSV,6,6,23,37,02,032,34,26,05,185,,60,07,111,40*53
$GPGGA,051552.00,,,,,0,00,,,M,,M,,*4E
$PTNL,GGK,051552.00,010125,4742.1603736,N,01618.1002822,E,1,38,0.8,EHT751.2070,M*4F
$GPGGQ,051552.00,010125,4742.1603736,N,01618.1002822,E,1,38,1.010,708.0004,M*34
$GPGFA,051552.00,4.154,7.083,0.437,0.289,338.114,0.864,,VVV*08
$GPLLK,051552.00,010125,,M,,M,1,38,0.8,,M*0E
$GNGMP,051552.00,,,,,DAAA,38,0.4,,,,*5F
$GPGMP,051552.00,,,,,,09,,,,3.1,136*74
$GLGMP,051552.00,,,,,,09,,,,,*70
$GAGMP,051552.00,,,,,,09,,,,,*7D
$GBGMP,051552.00,,,,,,11,,,,,*77
$PSSN,SNC,[0,278170000,2347]*4F
$GPZDA,051557.00,01,01,2025,,*60
$GPDTM,W84,,00.0000000,N,00.0000000,E,00.0000000,W84*5F
$PSSN,TFM,051557.00,,,,*6C
$GPRMC,051557.00,A,4742.1603727,N,01618.1002771,E,0.0,,010125,5.1,E,D*11
$GPGLL,4742.1603727,N,01618.1002771,E,051557.00,A,D*60
$GPGGA,051557.00,4742.1603727,N,01618.1002771,E,2,38,0.4,708.0036,M,43.2066,M,1.4,0136*4C
$GNGNS,051557.00,4742.1603727,N,01618.1002771,E,DAAA,38,0.4,708.0036,43.2066,,*51
$GPGNS,051557.00,,,,,,09,,,,1.4,136*76
$GLGNS,051557.00,,,,,,09,,,,,*75
$GAGNS,051557.00,,,,,,09,,,,,*78
$GBGNS,051557.00,,,,,,11,,,,,*72
$GPLLQ,051557.00,010125,,M,,M,1,38,0.999,,M*10
$GPVTG,,T,,M,0.00,N,0.01,K,D*27
$GPHDT,,T*1B
$GPTHS,,V*0E
$GPROT,,V*08
$PSSN,HRP,051557.00,010125,,,,,,,00,0,,*62
$PTNL,AVR,051557.00,,Yaw,,Tilt,,,,0,,00*34
$GPGSA,A,3,04,05,06,07,09,11,16,20,30,,,,0.8,0.4,0.6*37
$GPGSA,A,3,70,71,72,73,74,80,86,87,88,,,,0.8,0.4,0.6*32
$GPGSA,A,3,03,05,06,09,15,24,31,34,36,,,,0.8,0.4,0.6*33
$GPGSA,A,3,05,06,09,12,16,19,22,34,36,44,60,,0.8,0.4,0.6*3A
$GPGST,051557.00,2.062,0.434,0.287,338.830,0.418,0.310,0.853*5E
$GPGBS,051557.00,2.539,1.921,5.191,72,0.0001,6.679,6.067*5B
$GPGRS,051557.00,1,0.3,0.2,-0.1,-0.2,0.2,-0.2,-0.1,-0.0,0.2,,,*4F
$GPGRS,051557.00,1,-2.3,-0.3,6.7,4.3,2.9,-2.2,-3.8,-4.9,-1.2,,,*69
$GPGRS,051557.00,1,-0.5,0.2,1.0,0.3,0.2,-0.0,0.2,0.2,-1.1,,,*49
$GPGRS,051557.00,1,0.1,0.6,0.7,-1.8,0.6,-0.3,-0.4,0.1,0.0,-0.7,-1.3,*42
$GPGSV,5,1,19,07,74,152,50,16,16,045,41,05,11,312,40,04,27,078,44*79
$GPGSV,5,2,19,06,31,221,44,20,43,304,46,30,43,206,47,11,40,267,46*75
$GPGSV,5,3,19,09,55,073,49,29,01,332,40,36,35,170,45,58,13,245,37*77
$GPGSV,5,4,19,40,24,132,37,34,31,208,44,49,34,195,45,57,07,111,38*70
$GPGSV,5,5,19,41,07,108,36,61,03,257,39*71
$GLGSV,3,1,09,71,61,060,51,88,21,326,47,80,23,030,45,70,18,096,36*65
$GLGSV,3,2,09,74,33,157,45,87,28,262,45,72,50,313,51,73,54,094,50*66
$GLGSV,3,3,09,86,07,220,41*50
$GAGSV,3,1,12,05,81,358,49,06,10,079,38,16,13,145,,31,25,065,42*61
$GAGSV,3,2,12,24,23,121,42,34,40,231,46,03,35,270,44,15,36,300,44*6A
$GAGSV,3,3,12,09,33,075,44,13,01,339,37,23,04,020,,36,09,186,38*61
$GBGSV,6,1,23,22,72,313,52,16,12,047,39,45,12,189,,12,17,278,39*63
$GBGSV,6,2,23,44,10,254,42,34,13,305,42,06,15,048,38,05,22,129,38*6E
$GBGSV,6,3,23,09,29,050,40,48,22,108,,36,48,148,50,58,36,061,*67
$GBGSV,6,4,23,46,43,067,,19,49,103,50,21,70,311,,39,02,047,34*65
$GBGSV,6,5,23,43,00,347,,11,10,329,,02,06,107,35,20,02,110,32*62
$GBGSV,6,6,23,37,02,032,34,26,05,185,,60,07,111,40*53
$GPGGA,051557.00,,,,,0,00,,,M,,M,,*4B
$PTNL,GGK,051557.00,010125,4742.1603727,N,01618.1002771,E,1,38,0.8,EHT751.2102,M*47
$GPGGQ,051557.00,010125,4742.1603727,N,01618.1002771,E,1,38,0.999,708.0036,M*30
$GPGFA,051557.00,4.130,6.996,0.434,0.287,338.830,0.853,,VVV*05
$GPLLK,051557.00,010125,,M,,M,1,38,0.8,,M*0B
$GNGMP,051557.00,,,,,DAAA,38,0.4,,,,*5A
$GPGMP,051557.00,,,,,,09,,,,1.4,136*76
$GLGMP,051557.00,,,,,,09,,,,,*75
$GAGMP,051557.00,,,,,,09,,,,,*78
$GBGMP,051557.00,,,,,,11,,,,,*72
$PSSN,SNC,[0,278175000,2347]*4A
$GPZDA,051602.00,01,01,2025,,*63
$GPDTM,W84,,00.0000000,N,00.0000000,E,00.0000000,W84*5F
$PSSN,TFM,051602.00,,,,*6F
$GPRMC,051602.00,A,4742.1603729,N,01618.1002793,E,0.0,,010125,5.1,E,D*10
$GPGLL,4742.1603729,N,01618.1002793,E,051602.00,A,D*61
$GPGGA,051602.00,4742.1603729,N,01618.1002793,E,2,38,0.4,708.0003,M,43.2066,M,2.4,0136*48
$GNGNS,051602.00,4742.1603729,N,01618.1002793,E,DAAA,38,0.4,708.0003,43.2066,,*56
$GPGNS,051602.00,,,,,,09,,,,2.4,136*76
$GLGNS,051602.00,,,,,,09,,,,,*76
$GAGNS,051602.00,,,,,,09,,,,,*7B
$GBGNS,051602.00,,,,,,11,,,,,*71
$GPLLQ,051602.00,010125,,M,,M,1,38,0.985,,M*1E
$GPVTG,,T,,M,0.00,N,0.01,K,D*27
$GPHDT,,T*1B
$GPTHS,,V*0E
$GPROT,,V*08
$PSSN,HRP,051602.00,010125,,,,,,,00,0,,*61
$PTNL,AVR,051602.00,,Yaw,,Tilt,,,,0,,00*37
$GPGSA,A,3,04,05,06,07,09,11,16,20,30,,,,0.8,0.4,0.6*37
$GPGSA,A,3,70,71,72,73,74,80,86,87,88,,,,0.8,0.4,0.6*32
$GPGSA,A,3,03,05,06,09,15,24,31,34,36,,,,0.8,0.4,0.6*33
$GPGSA,A,3,05,06,09,12,16,19,22,34,36,44,60,,0.8,0.4,0.6*3A
$GPGST,051602.00,2.045,0.435,0.283,338.982,0.419,0.306,0.838*5E
$GPGBS,051602.00,2.557,1.949,5.248,72,0.0001,6.396,6.067*5D
$GPGRS,051602.00,1,-0.2,0.9,0.0,-0.1,-0.3,-0.3,-0.6,0.2,0.3,,,*40
$GPGRS,051602.00,1,-1.1,-0.4,6.4,4.1,3.3,-1.7,-3.9,-5.4,-1.7,,,*68
$GPGRS,051602.00,1,-0.4,0.2,0.8,0.3,-0.0,-0.3,0.0,0.1,-0.9,,,*66
$GPGRS,051602.00,1,-0.1,0.7,0.2,-1.6,0.4,-0.5,-0.1,-0.0,0.0,-0.2,-1.6,*4B
$GPGSV,5,1,19,07,74,152,50,16,16,045,40,05,11,312,40,04,27,078,43*7F
$GPGSV,5,2,19,06,31,221,43,20,43,304,46,30,43,206,47,11,40,267,46*72
$GPGSV,5,3,19,09,55,073,48,29,01,332,39,36,35,170,45,58,13,245,37*78
$GPGSV,5,4,19,40,24,132,37,34,31,208,44,49,34,195,45,57,07,111,38*70
$GPGSV,5,5,19,41,07,108,35,61,03,257,38*73
$GLGSV,3,1,09,71,61,060,51,88,21,326,46,80,23,030,45,70,18,096,36*64
$GLGSV,3,2,09,74,33,157,45,87,28,262,46,72,50,313,51,73,54,094,50*65
$GLGSV,3,3,09,86,07,220,41*50
$GAGSV,3,1,12,05,81,358,49,06,10,079,38,16,13,145,,31,25,065,42*61
$GAGSV,3,2,12,24,23,121,42,34,40,231,46,03,35,270,44,15,36,300,44*6A
$GAGSV,3,3,12,09,33,075,44,13,01,339,36,23,04,020,,36,09,186,37*6F
$GBGSV,6,1,23,22,72,313,52,16,12,047,39,45,12,189,,12,17,278,39*63
$GBGSV,6,2,23,44,10,254,41,34,13,305,42,06,15,048,38,05,22,129,38*6D
$GBGSV,6,3,23,09,29,050,40,48,22,108,,36,48,148,50,58,36,061,*67
$GBGSV,6,4,23,46,43,067,,19,48,103,50,21,70,311,,39,02,047,34*64
$GBGSV,6,5,23,43,00,347,,11,10,329,,02,06,107,35,20,02,110,31*61
$GBGSV,6,6,23,37,01,032,33,26,05,185,,60,07,111,40*57
$GPGGA,051602.00,,,,,0,00,,,M,,M,,*48
$PTNL,GGK,051602.00,010125,4742.1603729,N,01618.1002793,E,1,38,0.8,EHT751.2069,M*4A
$GPGGQ,051602.00,010125,4742.1603729,N,01618.1002793,E,1,38,0.985,708.0003,M*3A
$GPGFA,051602.00,4.137,6.870,0.435,0.283,338.982,0.838,,VVV*08
$GPLLK,051602.00,010125,,M,,M,1,38,0.8,,M*08
$GNGMP,051602.00,,,,,DAAA,38,0.4,,,,*59
$GPGMP,051602.00,,,,,,09,,,,2.4,136*76
$GLGMP,051602.00,,,,,,09,,,,,*76
$GAGMP,051602.00,,,,,,09,,,,,*7B
$GBGMP,051602.00,,,,,,11,,,,,*71
$PSSN,SNC,[0,278180000,2347]*40
$GPZDA,051607.00,01,01,2025,,*66
$GPDTM,W84,,00.0000000,N,00.0000000,E,00.0000000,W84*5F
$PSSN,TFM,051607.00,,,,*6A
$GPRMC,051607.00,A,4742.1603738,N,01618.1002831,E,0.0,,010125,5.1,E,D*12
$GPGLL,4742.1603738,N,01618.1002831,E,051607.00,A,D*63
$GPGGA,051607.00,4742.1603738,N,01618.1002831,E,2,38,0.4,708.0010,M,43.2066,M,3.0,0136*4D
$GNGNS,051607.00,4742.1603738,N,01618.1002831,E,DAAA,38,0.4,708.0010,43.2066,,*56
$GPGNS,051607.00,,,,,,09,,,,3.0,136*76
$GLGNS,051607.00,,,,,,09,,,,,*73
$GAGNS,051607.00,,,,,,09,,,,,*7E
$GBGNS,051607.00,,,,,,11,,,,,*74
$GPLLQ,051607.00,010125,,M,,M,1,38,1.000,,M*1E
$GPVTG,,T,,M,0.00,N,0.01,K,D*27
$GPHDT,,T*1B
$GPTHS,,V*0E
$GPROT,,V*08
$PSSN,HRP,051607.00,010125,,,,,,,00,0,,*64
$PTNL,AVR,051607.00,,Yaw,,Tilt,,,,0,,00*32
$GPGSA,A,3,04,05,06,07,09,11,16,20,30,,,,0.8,0.4,0.6*37
$GPGSA,A,3,70,71,72,73,74,80,86,87,88,,,,0.8,0.4,0.6*32
$GPGSA,A,3,03,05,06,09,15,24,31,34,36,,,,0.8,0.4,0.6*33
$GPGSA,A,3,05,06,09,12,16,19,22,34,36,44,60,,0.8,0.4,0.6*3A
$GPGST,051607.00,2.146,0.440,0.287,338.436,0.422,0.312,0.852*5C
$GPGBS,051607.00,2.635,1.982,5.362,72,0.0001,6.741,6.067*5F
$GPGRS,051607.00,1,-0.2,0.7,0.0,-0.1,-0.2,-0.1,-0.6,0.2,0.4,,,*4F
$GPGRS,051607.00,1,-1.8,-0.3,6.7,4.2,3.1,-2.4,-4.5,-5.1,-2.9,,,*62
$GPGRS,051607.00,1,-0.4,0.3,0.6,0.2,0.1,0.1,0.1,0.1,-0.8,,,*6E
$GPGRS,051607.00,1,0.1,0.8,0.6,-0.9,0.2,-0.1,-0.1,0.5,0.0,-0.7,-1.4,*4B
$GPGSV,5,1,19,07,74,152,49,16,16,045,40,05,11,312,40,04,27,078,43*77
$GPGSV,5,2,19,06,31,221,44,20,43,304,46,30,43,206,47,11,40,267,46*75
$GPGSV,5,3,19,09,55,073,48,29,01,332,39,36,35,170,45,58,13,245,37*78
$GPGSV,5,4,19,40,24,132,37,34,31,208,43,49,34,195,45,57,07,111,38*77
$GPGSV,5,5,19,41,07,108,35,61,03,257,38*73
$GLGSV,3,1,09,71,61,060,51,88,21,326,46,80,23,030,45,70,18,096,35*67
$GLGSV,3,2,09,74,33,157,45,87,28,262,45,72,50,313,51,73,54,094,50*66
$GLGSV,3,3,09,86,07,220,42*53
$GAGSV,3,1,12,05,81,358,48,06,10,079,38,16,13,145,,31,25,065,42*60
$GAGSV,3,2,12,24,23,121,42,34,40,231,46,03,35,270,44,15,36,300,44*6A
$GAGSV,3,3,12,09,32,075,44,13,01,339,37,23,04,020,,36,09,186,37*6F
$GBGSV,6,1,23,22,72,313,52,16,12,047,39,45,12,189,,12,17,277,39*6C
$GBGSV,6,2,23,44,10,254,41,34,12,305,42,06,15,048,38,05,22,129,38*6C
$GBGSV,6,3,23,09,29,050,41,48,22,108,,58,36,061,,36,48,148,50*66
$GBGSV,6,4,23,46,43,067,,19,48,103,50,21,71,311,,39,02,047,34*65
$GBGSV,6,5,23,43,00,347,,11,10,329,,26,05,185,,20,02,110,31*68
$GBGSV,6,6,23,37,01,032,33,02,06,107,35,60,07,111,40*5E
$GPGGA,051607.00,,,,,0,00,,,M,,M,,*4D
$PTNL,GGK,051607.00,010125,4742.1603738,N,01618.1002831,E,1,38,0.8,EHT751.2075,M*45
$GPGGQ,051607.00,010125,4742.1603738,N,01618.1002831,E,1,38,1.000,708.0010,M*3F
$GPGFA,051607.00,4.180,6.984,0.440,0.287,338.436,0.852,,VVV*03
$GPLLK,051607.00,010125,,M,,M,1,38,0.8,,M*0D
$GNGMP,051607.00,,,,,DAAA,38,0.4,,,,*5C
$GPGMP,051607.00,,,,,,09,,,,3.0,136*76
$GLGMP,051607.00,,,,,,09,,,,,*73
$GAGMP,051607.00,,,,,,09,,,,,*7E
$GBGMP,051607.00,,,,,,11,,,,,*74
$PSSN,SNC,[0,278185000,2347]*45
$GPZDA,051612.00,01,01,2025,,*62
$GPDTM,W84,,00.0000000,N,00.0000000,E,00.0000000,W84*5F
$PSSN,TFM,051612.00,,,,*6E
$GPRMC,051612.00,A,4742.1603748,N,01618.1002862,E,0.0,,010125,5.1,E,D*17
$GPGLL,4742.1603748,N,01618.1002862,E,051612.00,A,D*66
$GPGGA,051612.00,4742.1603748,N,01618.1002862,E,2,39,0.4,708.0025,M,43.2066,M,3.1,0136*4E
$GNGNS,051612.00,4742.1603748,N,01618.1002862,E,DAAA,39,0.4,708.0025,43.2066,,*54
$GPGNS,051612.00,,,,,,09,,,,3.1,136*73
$GLGNS,051612.00,,,,,,09,,,,,*77
$GAGNS,051612.00,,,,,,09,,,,,*7A
$GBGNS,051612.00,,,,,,12,,,,,*73
$GPLLQ,051612.00,010125,,M,,M,1,39,1.009,,M*12
$GPVTG,,T,,M,0.00,N,0.01,K,D*27
$GPHDT,,T*1B
$GPTHS,,V*0E
$GPROT,,V*08
$PSSN,HRP,051612.00,010125,,,,,,,00,0,,*60
$PTNL,AVR,051612.00,,Yaw,,Tilt,,,,0,,00*36
$GPGSA,A,3,04,05,06,07,09,11,16,20,30,,,,0.7,0.4,0.6*38
$GPGSA,A,3,70,71,72,73,74,80,86,87,88,,,,0.7,0.4,0.6*3D
$GPGSA,A,3,03,05,06,09,15,24,31,34,36,,,,0.7,0.4,0.6*3C
$GPGSA,A,3,02,05,06,09,12,16,19,22,34,36,44,60,0.7,0.4,0.6*37
$GPGST,051612.00,2.018,0.437,0.289,338.026,0.419,0.314,0.862*54
$GPGBS,051612.00,2.630,1.942,5.338,72,0.0001,6.200,6.067*5D
$GPGRS,051612.00,1,-0.1,0.0,0.2,-0.1,-0.2,-0.4,-0.1,0.2,0.5,,,*4E
$GPGRS,051612.00,1,-1.1,-0.5,6.2,4.6,3.0,-2.3,-4.3,-5.2,-1.9,,,*68
$GPGRS,051612.00,1,-0.1,0.3,0.6,0.1,0.1,0.2,0.2,0.3,-0.8,,,*6E
$GPGRS,051612.00,1,0.9,0.2,0.7,0.4,-0.3,0.2,-0.3,-0.4,0.3,-0.1,-0.4,-1.5*43
$GPGSV,5,1,19,07,74,152,49,16,16,045,39,05,11,312,40,04,27,078,43*79
$GPGSV,5,2,19,06,31,221,44,20,43,304,46,30,43,206,47,11,40,267,46*75
$GPGSV,5,3,19,09,55,073,48,29,01,332,38,36,35,170,45,58,13,245,37*79
$GPGSV,5,4,19,40,24,132,37,34,31,208,44,49,34,195,45,57,07,111,38*70
$GPGSV,5,5,19,41,07,108,35,61,03,257,39*72
$GLGSV,3,1,09,71,61,060,51,88,21,326,45,80,23,030,46,70,18,096,36*64
$GLGSV,3,2,09,74,34,157,45,87,28,262,46,72,50,313,51,73,54,094,50*62
$GLGSV,3,3,09,86,07,220,42*53
$GAGSV,3,1,12,05,81,358,48,06,10,079,38,16,13,145,,31,25,065,42*60
$GAGSV,3,2,12,24,23,121,42,34,40,231,46,03,35,270,44,15,36,300,44*6A
$GAGSV,3,3,12,09,32,075,44,13,01,339,37,23,04,020,,36,09,186,37*6F
$GBGSV,6,1,23,22,72,313,52,16,12,047,39,45,12,189,,12,17,277,40*62
$GBGSV,6,2,23,44,10,254,42,34,12,305,42,06,15,048,38,05,22,129,38*6F
$GBGSV,6,3,23,09,29,050,41,48,22,108,,58,36,061,,36,48,148,50*66
$GBGSV,6,4,23,46,43,067,,19,48,103,50,21,71,311,,39,02,047,34*65
$GBGSV,6,5,23,43,00,347,,11,10,329,,26,05,185,,20,02,110,31*68
$GBGSV,6,6,23,37,01,032,32,02,06,107,35,60,07,111,40*5F
$GPGGA,051612.00,,,,,0,00,,,M,,M,,*49
$PTNL,GGK,051612.00,010125,4742.1603748,N,01618.1002862,E,1,39,0.7,EHT751.2090,M*45
$GPGGQ,051612.00,010125,4742.1603748,N,01618.1002862,E,1,39,1.009,708.0025,M*34
$GPGFA,051612.00,4.151,7.068,0.437,0.289,338.026,0.862,,VVV*09
$GPLLK,051612.00,010125,,M,,M,1,39,0.8,,M*08
$GNGMP,051612.00,,,,,DAAA,39,0.4,,,,*59
$GPGMP,051612.00,,,,,,09,,,,3.1,136*73
$GLGMP,051612.00,,,,,,09,,,,,*77
$GAGMP,051612.00,,,,,,09,,,,,*7A
$GBGMP,051612.00,,,,,,12,,,,,*73
$PSSN,SNC,[0,278190000,2347]*41
$GPZDA,051617.00,01,01,2025,,*67
$GPDTM,W84,,00.0000000,N,00.0000000,E,00.0000000,W84*5F
$PSSN,TFM,051617.00,,,,*6B
$GPRMC,051617.00,A,4742.1603754,N,01618.1002859,E,0.0,,010125,5.1,E,D*17
$GPGLL,4742.1603754,N,01618.1002859,E,051617.00,A,D*66
$GPGGA,051617.00,4742.1603754,N,01618.1002859,E,2,38,0.4,708.0008,M,43.2066,M,1.4,0136*47
$GNGNS,051617.00,4742.1603754,N,01618.1002859,E,DAAA,38,0.4,708.0008,43.2066,,*5A
$GPGNS,051617.00,,,,,,09,,,,1.4,136*71
$GLGNS,051617.00,,,,,,08,,,,,*73
$GAGNS,051617.00,,,,,,09,,,,,*7F
$GBGNS,051617.00,,,,,,12,,,,,*76
$GPLLQ,051617.00,010125,,M,,M,1,38,0.998,,M*16
$GPVTG,,T,,M,0.00,N,0.01,K,D*27
$GPHDT,,T*1B
$GPTHS,,V*0E
$GPROT,,V*08
$PSSN,HRP,051617.00,010125,,,,,,,00,0,,*65
$PTNL,AVR,051617.00,,Yaw,,Tilt,,,,0,,00*33
$GPGSA,A,3,04,05,06,07,09,11,16,20,30,,,,0.8,0.4,0.6*37
$GPGSA,A,3,71,72,73,74,80,86,87,88,,,,,0.8,0.4,0.6*35
$GPGSA,A,3,03,05,06,09,15,24,31,34,36,,,,0.8,0.4,0.6*33
$GPGSA,A,3,02,05,06,09,12,16,19,22,34,36,44,60,0.8,0.4,0.6*38
$GPGST,051617.00,2.057,0.434,0.287,338.581,0.418,0.311,0.852*58
$GPGBS,051617.00,2.534,1.928,5.197,72,0.0001,6.593,6.067*59
$GPGRS,051617.00,1,-0.1,0.3,-0.3,-0.1,0.0,-0.0,-0.1,0.0,0.4,,,*4C
$GPGRS,051617.00,1,-0.4,6.6,3.8,2.6,-2.1,-4.2,-5.4,-2.4,,,,*6E
$GPGRS,051617.00,1,-0.4,0.1,0.5,0.0,-0.3,-0.4,0.2,0.1,-1.3,,,*62
$GPGRS,051617.00,1,-0.4,0.4,0.1,0.4,0.5,-0.0,-0.7,-0.6,0.3,-0.3,-1.2,-1.7*63
$GPGSV,5,1,19,07,74,152,49,16,16,045,40,05,11,312,39,04,27,078,43*79
$GPGSV,5,2,19,06,31,221,44,20,43,304,46,30,43,206,48,11,40,266,46*7B
$GPGSV,5,3,19,09,55,073,48,29,01,332,38,36,35,170,45,58,13,245,37*79
$GPGSV,5,4,19,40,24,132,37,34,31,208,44,49,34,195,45,57,07,111,38*70
$GPGSV,5,5,19,41,07,108,35,61,03,257,39*72
$GLGSV,3,1,09,71,61,060,51,88,21,326,46,80,23,030,46,70,18,096,34*65
$GLGSV,3,2,09,74,34,157,45,87,28,262,45,72,50,314,51,73,54,094,50*66
$GLGSV,3,3,09,86,07,220,42*53
$GAGSV,3,1,12,05,81,358,49,06,10,079,38,16,13,145,,31,25,065,42*61
$GAGSV,3,2,12,24,23,121,42,34,40,231,46,03,35,270,44,15,36,300,44*6A
$GAGSV,3,3,12,09,32,075,44,13,01,339,37,23,04,020,,36,09,186,38*60
$GBGSV,6,1,23,22,72,313,52,16,12,047,39,45,12,189,,12,17,277,41*63
$GBGSV,6,2,23,44,10,254,42,34,12,305,43,06,15,048,38,05,22,129,38*6E
$GBGSV,6,3,23,09,29,050,41,48,22,108,,58,36,061,,36,48,148,50*66
$GBGSV,6,4,23,46,42,067,,19,48,103,50,21,71,311,,39,02,047,34*64
$GBGSV,6,5,23,43,00,347,,11,10,328,,26,05,185,,20,02,110,31*69
$GBGSV,6,6,23,37,01,032,33,02,06,107,35,60,07,111,41*5F
$GPGGA,051617.00,,,,,0,00,,,M,,M,,*4C
$PTNL,GGK,051617.00,010125,4742.1603754,N,01618.1002859,E,1,38,0.8,EHT751.2073,M*46
$GPGGQ,051617.00,010125,4742.1603754,N,01618.1002859,E,1,38,0.998,708.0008,M*3A
$GPGFA,051617.00,4.129,6.985,0.434,0.287,338.581,0.852,,VVV*0E
$GPLLK,051617.00,010125,,M,,M,1,38,0.8,,M*0C
$GNGMP,051617.00,,,,,DAAA,38,0.4,,,,*5D
$GPGMP,051617.00,,,,,,09,,,,1.4,136*71
$GLGMP,051617.00,,,,,,08,,,,,*73
$GAGMP,051617.00,,,,,,09,,,,,*7F
$GBGMP,051617.00,,,,,,12,,,,,*76
$PSSN,SNC,[0,278195000,2347]*44
$GPZDA,051622.00,01,01,2025,,*61
$GPDTM,W84,,00.0000000,N,00.0000000,E,00.0000000,W84*5F
$PSSN,TFM,051622.00,,,,*6D
$GPRMC,051622.00,A,4742.1603742,N,01618.1002859,E,0.0,,010125,5.1,E,D*16
$GPGLL,4742.1603742,N,01618.1002859,E,051622.00,A,D*67
$GPGGA,051622.00,4742.1603742,N,01618.1002859,E,2,38,0.4,708.0003,M,43.2066,M,2.4,0136*4E
$GNGNS,051622.00,4742.1603742,N,01618.1002859,E,DAAA,38,0.4,708.0003,43.2066,,*50
