$GPZDA,015942.00,01,01,2025,,*68
$GPDTM,W84,,00.0000000,N,00.0000000,E,00.0000000,W84*5F
$PSSN,TFM,015942.00,,,,*64
$GPRMC,015942.00,A,4742.1603009,N,01618.1002747,E,0.0,,010125,5.1,E,D*17
$GPGLL,4742.1603009,N,01618.1002747,E,015942.00,A,D*66
$GPGGA,015942.00,4742.1603009,N,01618.1002747,E,2,39,0.4,707.8935,M,43.2066,M,2.7,0136*46
$GNGNS,015942.00,4742.1603009,N,01618.1002747,E,DAAA,39,0.4,707.8935,43.2066,,*5B
$GPGNS,015942.00,,,,,,10,,,,2.7,136*76
$GLGNS,015942.00,,,,,,08,,,,,*7C
$GAGNS,015942.00,,,,,,08,,,,,*71
$GBGNS,015942.00,,,,,,13,,,,,*78
$GPLLQ,015942.00,010125,,M,,M,1,39,0.894,,M*15
$GPVTG,,T,,M,0.00,N,0.01,K,D*27
$GPHDT,,T*1B
$GPTHS,,V*0E
$GPROT,,V*08
$PSSN,HRP,015942.00,010125,,,,,,,00,0,,*6A
$PTNL,AVR,015942.00,,Yaw,,Tilt,,,,0,,00*3C
$GPGSA,A,3,02,03,04,06,09,17,19,21,28,31,,,0.8,0.4,0.7*36
$GPGSA,A,3,69,70,71,78,79,84,85,86,,,,,0.8,0.4,0.7*39
$GPGSA,A,3,04,05,06,09,10,11,34,36,,,,,0.8,0.4,0.7*34
$GPGSA,A,3,05,06,09,16,19,20,29,32,35,37,39,44,0.8,0.4,0.7*3C
$GPGSA,A,3,60,,,,,,,,,,,,0.8,0.4,0.7*3F
$GPGST,015942.00,0.858,0.345,0.296,358.988,0.345,0.296,0.769*56
$GPGBS,015942.00,1.772,1.682,5.373,21,0.0001,-0.554,0.942*7C
$GPGRS,015942.00,1,-0.3,-0.0,-0.1,-0.3,0.2,0.2,0.4,-0.6,-0.0,0.2,,*44
$GPGRS,015942.00,1,-0.0,-0.0,0.9,-1.8,1.3,-0.2,2.2,-2.0,,,,*6A
$GPGRS,015942.00,1,0.0,0.2,0.0,0.3,-0.1,0.1,-0.2,-0.1,,,,*6A
$GPGRS,015942.00,1,0.6,0.8,0.3,0.5,0.1,-1.4,0.5,0.8,-1.1,1.0,-1.0,0.2*6B
$GPGRS,015942.00,1,-0.6,,,,,,,,,,,*40
$GPGSV,5,1,20,03,74,051,50,06,22,313,40,21,19,153,38,28,22,046,41*77
$GPGSV,5,2,20,19,31,290,44,17,32,255,45,02,37,159,46,09,36,224,45*79
$GPGSV,5,3,20,31,34,075,46,01,42,149,,04,65,208,47,36,35,170,44*78
$GPGSV,5,4,20,58,13,245,37,40,24,132,36,34,31,208,42,49,34,195,44*7B
$GPGSV,5,5,20,57,09,110,37,41,07,108,34,61,03,257,37*48
$GLGSV,2,1,08,85,70,241,52,86,31,324,48,78,14,027,44,79,14,077,45*64
$GLGSV,2,2,08,84,29,171,37,71,20,247,47,69,37,045,49,70,65,278,41*64
$GAGSV,3,1,09,36,78,266,48,10,16,142,40,05,24,219,41,18,21,294,*6B
$GAGSV,3,2,09,34,28,312,43,04,45,056,45,11,43,147,43,06,71,077,48*63
$GAGSV,3,3,09,09,76,182,49*5F
$GBGSV,5,1,18,48,83,313,,39,26,043,43,44,12,324,40,32,14,068,40*62
$GBGSV,5,2,18,37,16,095,42,29,38,201,48,05,24,128,38,16,32,052,43*66
$GBGSV,5,3,18,06,33,056,41,35,44,286,48,09,39,072,42,19,56,262,50*6A
$GBGSV,5,4,18,20,68,050,52,21,05,243,,22,05,252,40,46,01,143,*6F
$GBGSV,5,5,18,02,08,105,35,60,09,110,39*6F
$GPGGA,015942.00,,,,,0,00,,,M,,M,,*43
$PTNL,GGK,015942.00,010125,4742.1603009,N,01618.1002747,E,1,39,0.8,EHT751.1000,M*40
$GPGGQ,015942.00,010125,4742.1603009,N,01618.1002747,E,1,39,0.894,707.8935,M*36
$GPGFA,015942.00,3.284,6.307,0.345,0.296,358.988,0.769,,VVV*07
$GPLLK,015942.00,010125,,M,,M,1,39,0.9,,M*03
$GNGMP,015942.00,,,,,DAAA,39,0.4,,,,*53
$GPGMP,015942.00,,,,,,10,,,,2.7,136*76
$GLGMP,015942.00,,,,,,08,,,,,*7C
$GAGMP,015942.00,,,,,,08,,,,,*71
$GBGMP,015942.00,,,,,,13,,,,,*78
$PSSN,SNC,[0,266400000,2347]*42
$GPZDA,015947.00,01,01,2025,,*6D
$GPDTM,W84,,00.0000000,N,00.0000000,E,00.0000000,W84*5F
$PSSN,TFM,015947.00,,,,*61
$GPRMC,015947.00,A,4742.1603003,N,01618.1002779,E,0.0,,010125,5.1,E,D*15
$GPGLL,4742.1603003,N,01618.1002779,E,015947.00,A,D*64
$GPGGA,015947.00,4742.1603003,N,01618.1002779,E,2,40,0.4,707.8945,M,43.2066,M,1.7,0136*4E
$GNGNS,015947.00,4742.1603003,N,01618.1002779,E,DAAA,40,0.4,707.8945,43.2066,,*50
$GPGNS,015947.00,,,,,,10,,,,1.7,136*70
$GLGNS,015947.00,,,,,,08,,,,,*79
$GAGNS,015947.00,,,,,,08,,,,,*74
$GBGNS,015947.00,,,,,,14,,,,,*7A
$GPLLQ,015947.00,010125,,M,,M,1,40,0.882,,M*19
$GPVTG,,T,,M,0.00,N,0.00,K,D*26
$GPHDT,,T*1B
$GPTHS,,V*0E
$GPROT,,V*08
$PSSN,HRP,015947.00,010125,,,,,,,00,0,,*6F
$PTNL,AVR,015947.00,,Yaw,,Tilt,,,,0,,00*39
$GPGSA,A,3,02,03,04,06,09,17,19,21,28,31,,,0.8,0.4,0.6*37
$GPGSA,A,3,69,70,71,78,79,84,85,86,,,,,0.8,0.4,0.6*38
$GPGSA,A,3,04,05,06,09,10,11,34,36,,,,,0.8,0.4,0.6*35
$GPGSA,A,3,05,06,09,16,19,20,22,29,32,35,37,39,0.8,0.4,0.6*3D
$GPGSA,A,3,44,60,,,,,,,,,,,0.8,0.4,0.6*3E
$GPGST,015947.00,0.928,0.342,0.293,1.273,0.342,0.293,0.758*57
$GPGBS,015947.00,1.764,1.639,5.019,17,0.0001,0.432,0.744*50
$GPGRS,015947.00,1,-0.0,-0.2,-0.3,0.0,0.2,0.4,0.4,-0.3,-0.4,0.1,,*68
$GPGRS,015947.00,1,-0.5,-0.2,0.8,-1.8,1.6,-1.0,1.9,-2.6,,,,*61
$GPGRS,015947.00,1,-0.1,-0.3,-0.1,0.4,-0.3,-0.2,0.0,-0.2,,,,*44
$GPGRS,015947.00,1,0.2,0.7,0.7,0.9,-0.1,-1.5,-0.2,0.8,0.8,-1.1,1.0,-0.8*68
$GPGRS,015947.00,1,0.2,-0.7,,,,,,,,,,*68
$GPGSV,5,1,20,03,74,051,50,06,22,313,40,21,19,153,37,28,22,046,41*78
$GPGSV,5,2,20,19,31,289,44,17,32,255,45,02,37,159,46,09,36,224,45*71
$GPGSV,5,3,20,31,34,074,46,01,42,149,,04,65,208,47,36,35,170,44*79
$GPGSV,5,4,20,58,13,245,38,40,24,132,36,34,31,208,43,49,34,195,44*75
$GPGSV,5,5,20,57,09,110,37,41,07,108,34,61,03,257,37*48
$GLGSV,2,1,08,85,70,240,53,86,31,324,48,78,14,027,45,79,14,077,44*64
$GLGSV,2,2,08,84,29,171,37,71,20,247,47,69,37,045,48,70,65,278,41*65
$GAGSV,3,1,09,36,78,265,48,10,16,142,39,05,24,219,41,18,21,294,*66
$GAGSV,3,2,09,34,28,312,42,04,45,056,45,11,43,147,43,06,71,077,48*62
$GAGSV,3,3,09,09,76,182,49*5F
$GBGSV,5,1,18,48,83,313,,39,26,043,43,44,12,324,40,32,13,068,41*64
$GBGSV,5,2,18,37,16,095,43,29,38,201,48,05,24,128,38,16,32,052,43*67
$GBGSV,5,3,18,06,33,056,41,35,44,286,48,09,39,072,42,19,56,262,50*6A
$GBGSV,5,4,18,20,68,050,52,21,05,243,,22,05,252,40,46,01,143,*6F
$GBGSV,5,5,18,02,08,105,34,60,09,110,39*6E
$GPGGA,015947.00,,,,,0,00,,,M,,M,,*46
$PTNL,GGK,015947.00,010125,4742.1603003,N,01618.1002779,E,1,40,0.8,EHT751.1010,M*4D
$GPGGQ,015947.00,010125,4742.1603003,N,01618.1002779,E,1,40,0.882,707.8945,M*3A
$GPGFA,015947.00,3.252,6.218,0.342,0.293,1.273,0.758,,VVV*06
$GPLLK,015947.00,010125,,M,,M,1,40,0.8,,M*09
$GNGMP,015947.00,,,,,DAAA,40,0.4,,,,*58
$GPGMP,015947.00,,,,,,10,,,,1.7,136*70
$GLGMP,015947.00,,,,,,08,,,,,*79
$GAGMP,015947.00,,,,,,08,,,,,*74
$GBGMP,015947.00,,,,,,14,,,,,*7A
$PSSN,SNC,[0,266405000,2347]*47
$GPZDA,015952.00,01,01,2025,,*69
$GPDTM,W84,,00.0000000,N,00.0000000,E,00.0000000,W84*5F
$PSSN,TFM,015952.00,,,,*65
$GPRMC,015952.00,A,4742.1602993,N,01618.1002800,E,0.0,,010125,5.1,E,D*11
$GPGLL,4742.1602993,N,01618.1002800,E,015952.00,A,D*60
$GPGGA,015952.00,4742.1602993,N,01618.1002800,E,2,40,0.4,707.9021,M,43.2066,M,2.7,0136*43
$GNGNS,015952.00,4742.1602993,N,01618.1002800,E,DAAA,40,0.4,707.9021,43.2066,,*5E
$GPGNS,015952.00,,,,,,10,,,,2.7,136*77
$GLGNS,015952.00,,,,,,08,,,,,*7D
$GAGNS,015952.00,,,,,,08,,,,,*70
$GBGNS,015952.00,,,,,,14,,,,,*7E
$GPLLQ,015952.00,010125,,M,,M,1,40,0.868,,M*19
$GPVTG,,T,,M,0.00,N,0.01,K,D*27
$GPHDT,,T*1B
$GPTHS,,V*0E
$GPROT,,V*08
$PSSN,HRP,015952.00,010125,,,,,,,00,0,,*6B
$PTNL,AVR,015952.00,,Yaw,,Tilt,,,,0,,00*3D
$GPGSA,A,3,02,03,04,06,09,17,19,21,28,31,,,0.8,0.4,0.6*37
$GPGSA,A,3,69,70,71,78,79,84,85,86,,,,,0.8,0.4,0.6*38
$GPGSA,A,3,04,05,06,09,10,11,34,36,,,,,0.8,0.4,0.6*35
$GPGSA,A,3,05,06,09,16,19,20,22,29,32,35,37,39,0.8,0.4,0.6*3D
$GPGSA,A,3,44,60,,,,,,,,,,,0.8,0.4,0.6*3E
$GPGST,015952.00,0.904,0.338,0.294,1.363,0.338,0.294,0.743*57
$GPGBS,015952.00,1.789,1.660,5.114,04,0.0001,-0.268,0.601*71
$GPGRS,015952.00,1,-0.0,-0.3,-0.3,0.2,0.3,0.2,0.2,-0.1,0.1,0.1,,*44
$GPGRS,015952.00,1,-0.2,0.1,0.1,-2.0,1.1,-1.2,2.2,-2.3,,,,*46
$GPGRS,015952.00,1,0.1,0.1,-0.0,0.2,-0.7,-0.1,-0.1,-0.3,,,,*6F
$GPGRS,015952.00,1,0.3,0.9,0.9,1.0,-0.1,-1.7,0.0,0.5,0.8,-1.1,0.4,-0.5*4D
$GPGRS,015952.00,1,0.4,-0.8,,,,,,,,,,*65
$GPGSV,5,1,20,03,73,051,50,06,22,313,40,21,19,153,37,28,22,046,41*7F
$GPGSV,5,2,20,19,31,289,44,17,32,255,45,02,37,159,46,09,36,224,45*71
$GPGSV,5,3,20,31,34,074,45,01,42,149,,04,65,208,47,36,35,170,44*7A
$GPGSV,5,4,20,58,13,245,38,40,24,132,36,34,31,208,43,49,34,195,44*75
$GPGSV,5,5,20,57,09,110,37,41,07,108,34,61,03,257,37*48
$GLGSV,2,1,08,85,70,240,53,86,31,324,48,78,14,027,45,79,14,077,45*65
$GLGSV,2,2,08,84,29,171,36,71,20,247,47,69,37,045,48,70,65,278,41*64
$GAGSV,3,1,09,36,78,265,48,10,16,142,39,05,24,219,42,18,21,294,*65
$GAGSV,3,2,09,34,28,312,43,04,45,056,45,11,43,147,43,06,71,077,48*63
$GAGSV,3,3,09,09,76,182,49*5F
$GBGSV,5,1,18,48,83,313,,39,26,043,43,44,12,324,40,32,13,068,42*67
$GBGSV,5,2,18,37,16,095,43,29,38,201,48,05,24,128,38,16,32,052,43*67
$GBGSV,5,3,18,06,33,056,41,35,44,286,49,09,39,072,42,19,56,262,50*6B
$GBGSV,5,4,18,20,68,051,52,21,05,243,,22,05,252,40,46,01,143,*6E
$GBGSV,5,5,18,02,08,105,35,60,09,110,39*6F
$GPGGA,015952.00,,,,,0,00,,,M,,M,,*42
$PTNL,GGK,015952.00,010125,4742.1602993,N,01618.1002800,E,1,40,0.8,EHT751.1086,M*46
$GPGGQ,015952.00,010125,4742.1602993,N,01618.1002800,E,1,40,0.868,707.9021,M*30
$GPGFA,015952.00,3.216,6.091,0.338,0.294,1.363,0.743,,VVV*01
$GPLLK,015952.00,010125,,M,,M,1,40,0.8,,M*0D
$GNGMP,015952.00,,,,,DAAA,40,0.4,,,,*5C
$GPGMP,015952.00,,,,,,10,,,,2.7,136*77
$GLGMP,015952.00,,,,,,08,,,,,*7D
$GAGMP,015952.00,,,,,,08,,,,,*70
$GBGMP,015952.00,,,,,,14,,,,,*7E
$PSSN,SNC,[0,266410000,2347]*43
$GPZDA,015957.00,01,01,2025,,*6C
$GPDTM,W84,,00.0000000,N,00.0000000,E,00.0000000,W84*5F
$PSSN,TFM,015957.00,,,,*60
$GPRMC,015957.00,A,4742.1602986,N,01618.1002857,E,0.0,,010125,5.1,E,D*12
$GPGLL,4742.1602986,N,01618.1002857,E,015957.00,A,D*63
$GPGGA,015957.00,4742.1602986,N,01618.1002857,E,2,40,0.4,707.9053,M,43.2066,M,2.9,0136*4B
$GNGNS,015957.00,4742.1602986,N,01618.1002857,E,DAAA,40,0.4,707.9053,43.2066,,*58
$GPGNS,015957.00,,,,,,10,,,,2.9,136*7C
$GLGNS,015957.00,,,,,,08,,,,,*78
$GAGNS,015957.00,,,,,,08,,,,,*75
$GBGNS,015957.00,,,,,,14,,,,,*7B
$GPLLQ,015957.00,010125,,M,,M,1,40,0.883,,M*19
$GPVTG,,T,,M,0.00,N,0.01,K,D*27
$GPHDT,,T*1B
$GPTHS,,V*0E
$GPROT,,V*08
$PSSN,HRP,015957.00,010125,,,,,,,00,0,,*6E
$PTNL,AVR,015957.00,,Yaw,,Tilt,,,,0,,00*38
$GPGSA,A,3,02,03,04,06,09,17,19,21,28,31,,,0.8,0.4,0.6*37
$GPGSA,A,3,69,70,71,78,79,84,85,86,,,,,0.8,0.4,0.6*38
$GPGSA,A,3,04,05,06,09,10,11,34,36,,,,,0.8,0.4,0.6*35
$GPGSA,A,3,05,06,09,16,19,20,22,29,32,35,37,39,0.8,0.4,0.6*3D
$GPGSA,A,3,44,60,,,,,,,,,,,0.8,0.4,0.6*3E
$GPGST,015957.00,0.981,0.343,0.297,359.403,0.343,0.297,0.757*55
$GPGBS,015957.00,1.832,1.692,5.278,17,0.0001,0.378,0.775*52
$GPGRS,015957.00,1,0.0,-0.2,-0.3,0.4,0.1,0.4,-0.1,-0.1,-0.0,0.1,,*6D
$GPGRS,015957.00,1,0.7,0.3,0.1,-2.2,1.4,-0.3,2.6,-2.5,,,,*6C
$GPGRS,015957.00,1,-0.0,-0.1,0.1,0.2,-0.5,-0.2,-0.1,-0.2,,,,*47
$GPGRS,015957.00,1,1.1,0.6,1.1,1.0,0.0,-1.7,-0.1,0.4,1.2,-0.9,-0.3,-0.8*69
$GPGRS,015957.00,1,-0.3,-0.7,,,,,,,,,,*45
$GPGSV,5,1,20,03,73,051,50,06,22,313,40,21,19,153,37,28,22,046,41*7F
$GPGSV,5,2,20,19,31,289,44,17,32,255,45,02,37,159,46,09,36,224,45*71
$GPGSV,5,3,20,31,34,074,45,01,42,149,,04,65,208,48,36,35,170,44*75
$GPGSV,5,4,20,58,13,245,38,40,24,132,36,34,31,208,43,49,34,195,44*75
$GPGSV,5,5,20,57,09,110,37,41,07,108,34,61,03,257,37*48
$GLGSV,2,1,08,85,70,240,53,86,31,324,48,78,14,027,45,79,14,077,44*64
$GLGSV,2,2,08,84,29,171,37,71,20,247,47,69,37,045,49,70,65,279,41*65
$GAGSV,3,1,09,36,78,265,48,10,16,142,39,05,25,219,42,18,21,294,*64
$GAGSV,3,2,09,34,28,312,42,04,45,056,45,11,43,147,43,06,71,077,48*62
$GAGSV,3,3,09,09,76,182,49*5F
$GBGSV,5,1,18,48,83,314,,39,26,043,43,44,12,324,40,32,13,068,42*60
$GBGSV,5,2,18,37,16,095,42,29,38,201,47,05,24,128,39,16,32,052,43*68
$GBGSV,5,3,18,06,33,056,41,35,44,286,48,09,39,072,43,19,56,263,50*6A
$GBGSV,5,4,18,20,68,051,52,21,05,243,,22,05,252,40,46,01,143,*6E
$GBGSV,5,5,18,02,08,105,35,60,09,110,39*6F
$GPGGA,015957.00,,,,,0,00,,,M,,M,,*47
$PTNL,GGK,015957.00,010125,4742.1602986,N,01618.1002857,E,1,40,0.8,EHT751.1119,M*42
$GPGGQ,015957.00,010125,4742.1602986,N,01618.1002857,E,1,40,0.883,707.9053,M*33
$GPGFA,015957.00,3.262,6.208,0.343,0.297,359.403,0.757,,VVV*00
$GPLLK,015957.00,010125,,M,,M,1,40,0.8,,M*08
$GNGMP,015957.00,,,,,DAAA,40,0.4,,,,*59
$GPGMP,015957.00,,,,,,10,,,,2.9,136*7C
$GLGMP,015957.00,,,,,,08,,,,,*78
$GAGMP,015957.00,,,,,,08,,,,,*75
$GBGMP,015957.00,,,,,,14,,,,,*7B
$PSSN,SNC,[0,266415000,2347]*46
$GPZDA,020002.00,01,01,2025,,*63
$GPDTM,W84,,00.0000000,N,00.0000000,E,00.0000000,W84*5F
$PSSN,TFM,020002.00,,,,*6F
$GPRMC,020002.00,A,4742.1603002,N,01618.1002869,E,0.0,,010125,5.1,E,D*14
$GPGLL,4742.1603002,N,01618.1002869,E,020002.00,A,D*65
$GPGGA,020002.00,4742.1603002,N,01618.1002869,E,2,40,0.4,707.9102,M,43.2066,M,2.7,0136*46
$GNGNS,020002.00,4742.1603002,N,01618.1002869,E,DAAA,40,0.4,707.9102,43.2066,,*5B
$GPGNS,020002.00,,,,,,10,,,,2.7,136*7D
$GLGNS,020002.00,,,,,,08,,,,,*77
$GAGNS,020002.00,,,,,,08,,,,,*7A
$GBGNS,020002.00,,,,,,14,,,,,*74
$GPLLQ,020002.00,010125,,M,,M,1,40,0.892,,M*16
$GPVTG,,T,,M,0.00,N,0.01,K,D*27
$GPHDT,,T*1B
$GPTHS,,V*0E
$GPROT,,V*08
$PSSN,HRP,020002.00,010125,,,,,,,00,0,,*61
$PTNL,AVR,020002.00,,Yaw,,Tilt,,,,0,,00*37
$GPGSA,A,3,02,03,04,06,09,17,19,21,28,31,,,0.8,0.4,0.6*37
$GPGSA,A,3,69,70,71,78,79,84,85,86,,,,,0.8,0.4,0.6*38
$GPGSA,A,3,04,05,06,09,10,11,34,36,,,,,0.8,0.4,0.6*35
$GPGSA,A,3,05,06,09,16,19,20,22,29,32,35,37,39,0.8,0.4,0.6*3D
$GPGSA,A,3,44,60,,,,,,,,,,,0.8,0.4,0.6*3E
$GPGST,020002.00,0.989,0.346,0.295,358.462,0.345,0.295,0.768*5B
$GPGBS,020002.00,1.783,1.677,5.330,06,0.0001,-0.488,1.011*7F
$GPGRS,020002.00,1,0.3,0.1,-0.2,-0.5,0.0,0.0,0.1,-0.0,-0.0,-0.2,,*65
$GPGRS,020002.00,1,-0.3,0.4,0.7,-2.4,1.0,0.3,2.6,-2.8,,,,*69
$GPGRS,020002.00,1,-0.1,-0.2,0.1,0.2,-0.0,0.1,-0.3,-0.1,,,,*60
$GPGRS,020002.00,1,1.0,-0.2,1.0,1.1,-0.3,-1.4,0.3,0.5,0.9,-1.0,-0.9,-0.8*45
$GPGRS,020002.00,1,0.0,-0.6,,,,,,,,,,*65
$GPGSV,5,1,20,03,73,051,50,06,22,313,40,21,19,153,37,28,22,046,41*7F
$GPGSV,5,2,20,19,31,289,44,17,32,255,45,02,37,159,45,09,36,224,44*73
$GPGSV,5,3,20,31,34,074,46,01,42,149,,04,65,208,47,36,35,170,44*79
$GPGSV,5,4,20,58,13,245,37,40,24,132,36,34,31,208,43,49,34,195,44*7A
$GPGSV,5,5,20,57,09,110,37,41,07,108,34,61,03,257,37*48
$GLGSV,2,1,08,85,70,240,53,86,31,324,48,78,14,027,44,79,14,077,46*67
$GLGSV,2,2,08,84,29,171,36,71,20,247,47,69,37,045,48,70,65,279,41*65
$GAGSV,3,1,09,36,79,265,48,10,16,142,39,05,25,219,42,18,21,293,*62
$GAGSV,3,2,09,34,28,312,42,04,45,056,45,11,42,147,43,06,71,076,48*62
$GAGSV,3,3,09,09,76,182,49*5F
$GBGSV,5,1,18,48,83,314,,39,26,043,43,32,13,068,42,44,12,324,39*6E
$GBGSV,5,2,18,37,16,095,41,29,38,201,47,05,24,128,38,16,32,052,43*6A
$GBGSV,5,3,18,06,33,056,41,35,44,285,48,09,39,072,42,19,56,263,50*68
$GBGSV,5,4,18,20,68,051,52,21,05,243,,22,05,253,39,46,01,143,*61
$GBGSV,5,5,18,02,08,105,35,60,09,110,39*6F
$GPGGA,020002.00,,,,,0,00,,,M,,M,,*48
$PTNL,GGK,020002.00,010125,4742.1603002,N,01618.1002869,E,1,40,0.8,EHT751.1168,M*42
$GPGGQ,020002.00,010125,4742.1603002,N,01618.1002869,E,1,40,0.892,707.9102,M*30
$GPGFA,020002.00,3.285,6.295,0.346,0.295,358.462,0.768,,VVV*0F
$GPLLK,020002.00,010125,,M,,M,1,40,0.8,,M*07
$GNGMP,020002.00,,,,,DAAA,40,0.4,,,,*56
$GPGMP,020002.00,,,,,,10,,,,2.7,136*7D
$GLGMP,020002.00,,,,,,08,,,,,*77
$GAGMP,020002.00,,,,,,08,,,,,*7A
$GBGMP,020002.00,,,,,,14,,,,,*74
$PSSN,SNC,[0,266420000,2347]*40
$GPZDA,020007.00,01,01,2025,,*66
$GPDTM,W84,,00.0000000,N,00.0000000,E,00.0000000,W84*5F
$PSSN,TFM,020007.00,,,,*6A
$GPRMC,020007.00,A,4742.1603003,N,01618.1002834,E,0.0,,010125,5.1,E,D*18
$GPGLL,4742.1603003,N,01618.1002834,E,020007.00,A,D*69
$GPGGA,020007.00,4742.1603003,N,01618.1002834,E,2,40,0.4,707.9065,M,43.2066,M,1.7,0136*49
$GNGNS,020007.00,4742.1603003,N,01618.1002834,E,DAAA,40,0.4,707.9065,43.2066,,*57
$GPGNS,020007.00,,,,,,10,,,,1.7,136*7B
$GLGNS,020007.00,,,,,,08,,,,,*72
$GAGNS,020007.00,,,,,,08,,,,,*7F
$GBGNS,020007.00,,,,,,14,,,,,*71
$GPLLQ,020007.00,010125,,M,,M,1,40,0.881,,M*11
$GPVTG,,T,,M,0.00,N,0.00,K,D*26
$GPHDT,,T*1B
$GPTHS,,V*0E
$GPROT,,V*08
$PSSN,HRP,020007.00,010125,,,,,,,00,0,,*64
$PTNL,AVR,020007.00,,Yaw,,Tilt,,,,0,,00*32
$GPGSA,A,3,02,03,04,06,09,17,19,21,28,31,,,0.8,0.4,0.6*37
$GPGSA,A,3,69,70,71,78,79,84,85,86,,,,,0.8,0.4,0.6*38
$GPGSA,A,3,04,05,06,09,10,11,34,36,,,,,0.8,0.4,0.6*35
$GPGSA,A,3,05,06,09,16,19,20,22,29,32,35,37,39,0.8,0.4,0.6*3D
$GPGSA,A,3,44,60,,,,,,,,,,,0.8,0.4,0.6*3E
$GPGST,020007.00,0.915,0.342,0.293,1.182,0.342,0.293,0.757*50
$GPGBS,020007.00,1.771,1.638,4.995,31,0.0001,0.379,0.866*51
$GPGRS,020007.00,1,0.1,-0.0,-0.1,-0.3,-0.1,0.1,0.1,-0.2,0.2,0.4,,*60
$GPGRS,020007.00,1,-0.3,-0.0,0.7,-2.6,2.1,-0.0,2.2,-2.0,,,,*67
$GPGRS,020007.00,1,-0.1,-0.3,-0.1,0.1,0.1,0.1,-0.1,0.1,,,,*49
$GPGRS,020007.00,1,0.6,0.1,0.5,0.5,0.1,-1.5,0.7,0.2,1.2,-1.2,0.1,-0.6*66
$GPGRS,020007.00,1,0.5,-0.5,,,,,,,,,,*66
$GPGSV,5,1,20,03,73,051,50,06,22,313,40,21,19,153,37,28,22,046,41*7F
$GPGSV,5,2,20,19,31,289,44,17,32,255,45,02,37,159,46,09,36,224,45*71
$GPGSV,5,3,20,31,34,074,45,01,42,149,,04,65,208,47,36,35,170,44*7A
$GPGSV,5,4,20,58,13,245,38,40,24,132,36,34,31,208,43,49,34,195,44*75
$GPGSV,5,5,20,57,09,110,37,41,07,108,34,61,03,257,37*48
$GLGSV,2,1,08,85,70,240,53,86,31,324,49,78,14,027,44,79,14,077,46*66
$GLGSV,2,2,08,84,29,171,36,71,21,247,48,69,37,045,48,70,65,279,41*6B
$GAGSV,3,1,09,36,79,265,48,10,16,142,40,05,25,219,42,18,21,293,*6C
$GAGSV,3,2,09,34,28,312,43,04,45,056,45,11,42,147,43,06,71,076,48*63
$GAGSV,3,3,09,09,76,182,49*5F
$GBGSV,5,1,18,48,83,314,,39,26,043,43,32,13,068,42,44,12,324,40*60
$GBGSV,5,2,18,37,16,094,42,29,37,201,47,05,24,128,38,16,32,052,43*67
$GBGSV,5,3,18,06,33,056,41,35,44,285,48,09,39,072,42,19,56,263,50*68
$GBGSV,5,4,18,20,68,051,52,21,05,243,,22,05,253,39,46,01,143,*61
$GBGSV,5,5,18,02,08,105,35,60,09,110,39*6F
$GPGGA,020007.00,,,,,0,00,,,M,,M,,*4D
$PTNL,GGK,020007.00,010125,4742.1603003,N,01618.1002834,E,1,40,0.8,EHT751.1130,M*43
$GPGGQ,020007.00,010125,4742.1603003,N,01618.1002834,E,1,40,0.881,707.9065,M*3E
$GPGFA,020007.00,3.253,6.205,0.342,0.293,1.182,0.757,,VVV*02
$GPLLK,020007.00,010125,,M,,M,1,40,0.8,,M*02
$GNGMP,020007.00,,,,,DAAA,40,0.4,,,,*53
$GPGMP,020007.00,,,,,,10,,,,1.7,136*7B
$GLGMP,020007.00,,,,,,08,,,,,*72
$GAGMP,020007.00,,,,,,08,,,,,*7F
$GBGMP,020007.00,,,,,,14,,,,,*71
$PSSN,SNC,[0,266425000,2347]*45
$GPZDA,020012.00,01,01,2025,,*62
$GPDTM,W84,,00.0000000,N,00.0000000,E,00.0000000,W84*5F
$PSSN,TFM,020012.00,,,,*6E
$GPRMC,020012.00,A,4742.1603003,N,01618.1002827,E,0.0,,010125,5.1,E,D*1E
$GPGLL,4742.1603003,N,01618.1002827,E,020012.00,A,D*6F
$GPGGA,020012.00,4742.1603003,N,01618.1002827,E,2,40,0.4,707.9138,M,43.2066,M,2.7,0136*45
$GNGNS,020012.00,4742.1603003,N,01618.1002827,E,DAAA,40,0.4,707.9138,43.2066,,*58
$GPGNS,020012.00,,,,,,10,,,,2.7,136*7C
$GLGNS,020012.00,,,,,,08,,,,,*76
$GAGNS,020012.00,,,,,,08,,,,,*7B
$GBGNS,020012.00,,,,,,14,,,,,*75
$GPLLQ,020012.00,010125,,M,,M,1,40,0.867,,M*1D
$GPVTG,,T,,M,0.00,N,0.01,K,D*27
$GPHDT,,T*1B
$GPTHS,,V*0E
$GPROT,,V*08
$PSSN,HRP,020012.00,010125,,,,,,,00,0,,*60
$PTNL,AVR,020012.00,,Yaw,,Tilt,,,,0,,00*36
$GPGSA,A,3,02,03,04,06,09,17,19,21,28,31,,,0.8,0.4,0.6*37
$GPGSA,A,3,69,70,71,78,79,84,85,86,,,,,0.8,0.4,0.6*38
$GPGSA,A,3,04,05,06,09,10,11,34,36,,,,,0.8,0.4,0.6*35
$GPGSA,A,3,05,06,09,16,19,20,22,29,32,35,37,39,0.8,0.4,0.6*3D
$GPGSA,A,3,44,60,,,,,,,,,,,0.8,0.4,0.6*3E
$GPGST,020012.00,0.970,0.338,0.294,1.367,0.338,0.294,0.742*5A
$GPGBS,020012.00,1.790,1.658,5.083,03,0.0001,-0.304,0.600*7B
$GPGRS,020012.00,1,0.1,-0.3,-0.2,-0.2,0.1,0.1,0.1,0.1,0.2,0.1,,*63
$GPGRS,020012.00,1,-1.2,-1.2,1.6,-2.6,1.6,0.6,1.6,-1.3,,,,*48
$GPGRS,020012.00,1,0.0,0.1,-0.1,-0.0,-0.0,-0.1,-0.0,-0.1,,,,*4F
$GPGRS,020012.00,1,0.1,0.2,0.1,0.7,-0.3,-1.6,1.6,0.6,1.4,-1.1,1.0,-1.0*4A
$GPGRS,020012.00,1,0.3,-0.5,,,,,,,,,,*64
$GPGSV,5,1,20,03,73,051,50,06,22,313,40,21,19,153,37,28,22,046,41*7F
$GPGSV,5,2,20,19,31,289,44,17,32,255,45,02,37,159,47,09,36,224,45*70
$GPGSV,5,3,20,31,34,074,45,01,42,149,,04,65,208,47,36,35,170,44*7A
$GPGSV,5,4,20,58,13,245,37,40,24,132,36,34,31,208,42,49,34,195,44*7B
$GPGSV,5,5,20,57,09,110,37,41,07,108,34,61,03,257,37*48
$GLGSV,2,1,08,85,70,240,53,86,31,324,48,78,14,027,45,79,14,077,45*65
$GLGSV,2,2,08,84,29,171,36,71,21,247,47,69,37,045,49,70,65,279,41*65
$GAGSV,3,1,09,36,79,265,48,10,16,142,40,05,25,219,42,18,21,293,*6C
$GAGSV,3,2,09,34,28,312,43,04,45,056,45,11,42,147,43,06,71,076,48*63
$GAGSV,3,3,09,09,76,182,49*5F
$GBGSV,5,1,18,48,83,314,,39,26,043,43,32,13,068,42,44,12,324,40*60
$GBGSV,5,2,18,37,16,094,42,29,37,201,47,05,24,128,38,16,32,052,43*67
$GBGSV,5,3,18,06,33,056,41,35,44,285,48,09,39,072,42,19,56,263,50*68
$GBGSV,5,4,18,20,68,051,51,21,05,243,,22,05,253,40,46,01,143,*6C
$GBGSV,5,5,18,02,08,105,35,60,09,110,39*6F
$GPGGA,020012.00,,,,,0,00,,,M,,M,,*49
$PTNL,GGK,020012.00,010125,4742.1603003,N,01618.1002827,E,1,40,0.8,EHT751.1204,M*41
$GPGGQ,020012.00,010125,4742.1603003,N,01618.1002827,E,1,40,0.867,707.9138,M*39
$GPGFA,020012.00,3.215,6.082,0.338,0.294,1.367,0.742,,VVV*0E
$GPLLK,020012.00,010125,,M,,M,1,40,0.8,,M*06
$GNGMP,020012.00,,,,,DAAA,40,0.4,,,,*57
$GPGMP,020012.00,,,,,,10,,,,2.7,136*7C
$GLGMP,020012.00,,,,,,08,,,,,*76
$GAGMP,020012.00,,,,,,08,,,,,*7B
$GBGMP,020012.00,,,,,,14,,,,,*75
$PSSN,SNC,[0,266430000,2347]*41
$GPZDA,020017.00,01,01,2025,,*67
$GPDTM,W84,,00.0000000,N,00.0000000,E,00.0000000,W84*5F
$PSSN,TFM,020017.00,,,,*6B
$GPRMC,020017.00,A,4742.1603014,N,01618.1002844,E,0.0,,010125,5.1,E,D*18
$GPGLL,4742.1603014,N,01618.1002844,E,020017.00,A,D*69
$GPGGA,020017.00,4742.1603014,N,01618.1002844,E,2,40,0.4,707.9147,M,43.2066,M,2.9,0136*45
$GNGNS,020017.00,4742.1603014,N,01618.1002844,E,DAAA,40,0.4,707.9147,43.2066,,*56
$GPGNS,020017.00,,,,,,10,,,,2.9,136*77
$GLGNS,020017.00,,,,,,08,,,,,*73
$GAGNS,020017.00,,,,,,08,,,,,*7E
$GBGNS,020017.00,,,,,,14,,,,,*70
$GPLLQ,020017.00,010125,,M,,M,1,40,0.881,,M*10
$GPVTG,,T,,M,0.00,N,0.00,K,D*26
$GPHDT,,T*1B
$GPTHS,,V*0E
$GPROT,,V*08
$PSSN,HRP,020017.00,010125,,,,,,,00,0,,*65
$PTNL,AVR,020017.00,,Yaw,,Tilt,,,,0,,00*33
$GPGSA,A,3,02,03,04,06,09,17,19,21,28,31,,,0.8,0.4,0.6*37
$GPGSA,A,3,69,70,71,78,79,84,85,86,,,,,0.8,0.4,0.6*38
$GPGSA,A,3,04,05,06,09,10,11,34,36,,,,,0.8,0.4,0.6*35
$GPGSA,A,3,05,06,09,16,19,20,22,29,32,35,37,39,0.8,0.4,0.6*3D
$GPGSA,A,3,44,60,,,,,,,,,,,0.8,0.4,0.6*3E
$GPGST,020017.00,0.901,0.343,0.297,359.412,0.343,0.297,0.756*57
$GPGBS,020017.00,1.839,1.691,5.254,17,0.0001,0.407,0.776*53
$GPGRS,020017.00,1,-0.1,-0.2,0.0,0.1,-0.1,0.4,0.1,-0.4,0.1,0.1,,*48
$GPGRS,020017.00,1,-0.8,-1.1,1.6,-2.0,1.0,0.8,2.0,-1.7,,,,*4A
$GPGRS,020017.00,1,0.1,0.1,0.1,0.2,0.1,-0.1,-0.1,-0.0,,,,*65
$GPGRS,020017.00,1,0.5,0.8,0.3,1.1,-0.7,-1.5,0.8,-0.4,0.8,-0.9,1.1,-0.8*6F
$GPGRS,020017.00,1,0.4,-0.7,,,,,,,,,,*64
$GPGSV,5,1,20,03,73,052,50,21,19,153,37,06,22,313,41,28,22,046,41*7D
$GPGSV,5,2,20,19,31,289,44,17,32,255,45,02,37,159,47,09,36,224,45*70
$GPGSV,5,3,20,31,34,074,46,01,42,149,,04,65,208,47,36,35,170,44*79
$GPGSV,5,4,20,58,13,245,37,40,24,132,36,34,31,208,43,49,34,195,44*7A
$GPGSV,5,5,20,57,09,110,37,41,07,108,34,61,03,257,37*48
$GLGSV,2,1,08,85,70,240,53,86,31,324,49,78,14,027,45,79,14,077,44*65
$GLGSV,2,2,08,84,29,171,37,71,21,247,47,69,37,046,49,70,65,279,41*67
$GAGSV,3,1,09,36,79,264,48,10,16,142,40,05,25,220,41,18,21,293,*64
$GAGSV,3,2,09,34,28,312,43,04,45,056,45,11,42,147,43,06,71,076,48*63
$GAGSV,3,3,09,09,76,182,48*5E
$GBGSV,5,1,18,48,83,315,,39,26,043,43,32,13,068,42,44,12,323,40*66
$GBGSV,5,2,18,37,16,094,42,29,37,201,47,05,24,128,38,16,32,052,43*67
$GBGSV,5,3,18,06,33,056,41,35,44,285,48,09,39,072,42,19,56,263,50*68
$GBGSV,5,4,18,20,68,051,51,21,05,243,,22,05,253,40,46,01,143,*6C
$GBGSV,5,5,18,02,08,105,35,60,09,110,39*6F
$GPGGA,020017.00,,,,,0,00,,,M,,M,,*4C
$PTNL,GGK,020017.00,010125,4742.1603014,N,01618.1002844,E,1,40,0.8,EHT751.1213,M*41
$GPGGQ,020017.00,010125,4742.1603014,N,01618.1002844,E,1,40,0.881,707.9147,M*3F
$GPGFA,020017.00,3.260,6.197,0.343,0.297,359.412,0.756,,VVV*0D
$GPLLK,020017.00,010125,,M,,M,1,40,0.8,,M*03
$GNGMP,020017.00,,,,,DAAA,40,0.4,,,,*52
$GPGMP,020017.00,,,,,,10,,,,2.9,136*77
$GLGMP,020017.00,,,,,,08,,,,,*73
$GAGMP,020017.00,,,,,,08,,,,,*7E
$GBGMP,020017.00,,,,,,14,,,,,*70
$PSSN,SNC,[0,266435000,2347]*44
$GPZDA,020022.00,01,01,2025,,*61
$GPDTM,W84,,00.0000000,N,00.0000000,E,00.0000000,W84*5F
$PSSN,TFM,020022.00,,,,*6D
$GPRMC,020022.00,A,4742.1603009,N,01618.1002869,E,0.0,,010125,5.1,E,D*1D
$GPGLL,4742.1603009,N,01618.1002869,E,020022.00,A,D*6C
$GPGGA,020022.00,4742.1603009,N,01618.1002869,E,2,40,0.4,707.9166,M,43.2066,M,2.7,0136*4D
$GNGNS,020022.00,4742.1603009,N,01618.1002869,E,DAAA,40,0.4,707.9166,43.2066,,*50
$GPGNS,020022.00,,,,,,10,,,,2.7,136*7F
$GLGNS,020022.00,,,,,,08,,,,,*75
$GAGNS,020022.00,,,,,,08,,,,,*78
$GBGNS,020022.00,,,,,,14,,,,,*76
$GPLLQ,020022.00,010125,,M,,M,1,40,0.891,,M*17
$GPVTG,,T,,M,0.01,N,0.01,K,D*26
$GPHDT,,T*1B
$GPTHS,,V*0E
$GPROT,,V*08
$PSSN,HRP,020022.00,010125,,,,,,,00,0,,*63
$PTNL,AVR,020022.00,,Yaw,,Tilt,,,,0,,00*35
$GPGSA,A,3,02,03,04,06,09,17,19,21,28,31,,,0.8,0.4,0.6*37
$GPGSA,A,3,69,70,71,78,79,84,85,86,,,,,0.8,0.4,0.6*38
$GPGSA,A,3,04,05,06,09,10,11,34,36,,,,,0.8,0.4,0.6*35
$GPGSA,A,3,05,06,09,16,19,20,22,29,32,35,37,39,0.8,0.4,0.6*3D
$GPGSA,A,3,44,60,,,,,,,,,,,0.8,0.4,0.6*3E
$GPGST,020022.00,0.899,0.345,0.295,358.467,0.345,0.295,0.766*51
$GPGBS,020022.00,1.783,1.675,5.298,17,0.0001,0.331,0.732*53
$GPGRS,020022.00,1,-0.2,-0.2,-0.1,0.1,0.3,0.3,-0.0,-0.1,0.1,0.1,,*60
$GPGRS,020022.00,1,-0.5,-1.2,1.9,-2.0,-0.2,-0.3,2.0,-1.4,,,,*46
$GPGRS,020022.00,1,0.0,-0.2,-0.1,0.1,-0.0,-0.2,-0.3,-0.1,,,,*4E
$GPGRS,020022.00,1,0.2,1.1,0.0,1.1,-0.7,-1.5,-0.1,-0.3,0.9,-1.2,0.8,-0.8*45
$GPGRS,020022.00,1,0.4,-1.2,,,,,,,,,,*66
$GPGSV,5,1,20,03,73,052,50,21,19,153,37,06,22,313,41,28,22,046,41*7D
$GPGSV,5,2,20,19,31,289,44,17,32,255,45,02,37,159,46,09,36,224,44*70
$GPGSV,5,3,20,31,34,074,46,01,42,149,,04,65,208,47,36,35,170,44*79
$GPGSV,5,4,20,58,13,245,38,40,24,132,36,34,31,208,43,49,34,195,44*75
$GPGSV,5,5,20,57,09,110,38,41,07,108,34,61,03,257,37*47
$GLGSV,2,1,08,85,70,240,53,86,31,324,48,78,14,027,45,79,14,077,45*65
$GLGSV,2,2,08,84,28,171,36,71,21,247,47,69,37,046,49,70,65,279,41*67
$GAGSV,3,1,09,36,79,264,48,10,16,142,39,05,25,220,41,18,21,293,*6A
$GAGSV,3,2,09,34,28,312,42,04,45,056,44,11,42,147,42,06,71,076,48*62
$GAGSV,3,3,09,09,76,182,48*5E
$GBGSV,5,1,18,48,83,315,,39,26,043,43,32,13,068,42,44,12,323,40*66
$GBGSV,5,2,18,37,16,094,42,29,37,201,48,05,24,128,38,16,32,052,43*68
$GBGSV,5,3,18,06,33,056,41,35,44,285,49,09,39,072,42,19,56,263,50*69
$GBGSV,5,4,18,20,68,051,52,21,05,243,,22,05,253,40,46,01,143,*6F
$GBGSV,5,5,18,02,08,105,35,60,09,110,39*6F
$GPGGA,020022.00,,,,,0,00,,,M,,M,,*4A
$PTNL,GGK,020022.00,010125,4742.1603009,N,01618.1002869,E,1,40,0.8,EHT751.1231,M*44
$GPGGQ,020022.00,010125,4742.1603009,N,01618.1002869,E,1,40,0.891,707.9166,M*38
$GPGFA,020022.00,3.284,6.285,0.345,0.295,358.467,0.766,,VVV*05
$GPLLK,020022.00,010125,,M,,M,1,40,0.8,,M*05
$GNGMP,020022.00,,,,,DAAA,40,0.4,,,,*54
$GPGMP,020022.00,,,,,,10,,,,2.7,136*7F
$GLGMP,020022.00,,,,,,08,,,,,*75
$GAGMP,020022.00,,,,,,08,,,,,*78
$GBGMP,020022.00,,,,,,14,,,,,*76
$PSSN,SNC,[0,266440000,2347]*46
$GPZDA,020027.00,01,01,2025,,*64
$GPDTM,W84,,00.0000000,N,00.0000000,E,00.0000000,W84*5F
$PSSN,TFM,020027.00,,,,*68
$GPRMC,020027.00,A,4742.1603028,N,01618.1002887,E,0.0,,010125,5.1,E,D*1B
$GPGLL,4742.1603028,N,01618.1002887,E,020027.00,A,D*6A
$GPGGA,020027.00,4742.1603028,N,01618.1002887,E,2,40,0.4,707.9189,M,43.2066,M,1.7,0136*49
$GNGNS,020027.00,4742.1603028,N,01618.1002887,E,DAAA,40,0.4,707.9189,43.2066,,*57
$GPGNS,020027.00,,,,,,10,,,,1.7,136*79
$GLGNS,020027.00,,,,,,08,,,,,*70
$GAGNS,020027.00,,,,,,08,,,,,*7D
$GBGNS,020027.00,,,,,,14,,,,,*73
$GPLLQ,020027.00,010125,,M,,M,1,40,0.880,,M*12
$GPVTG,,T,,M,0.00,N,0.00,K,D*26
$GPHDT,,T*1B
$GPTHS,,V*0E
$GPROT,,V*08
$PSSN,HRP,020027.00,010125,,,,,,,00,0,,*66
$PTNL,AVR,020027.00,,Yaw,,Tilt,,,,0,,00*30
$GPGSA,A,3,02,03,04,06,09,17,19,21,28,31,,,0.8,0.4,0.6*37
$GPGSA,A,3,69,70,71,78,79,84,85,86,,,,,0.8,0.4,0.6*38
$GPGSA,A,3,04,05,06,09,10,11,34,36,,,,,0.8,0.4,0.6*35
$GPGSA,A,3,05,06,09,16,19,20,22,29,32,35,37,39,0.8,0.4,0.6*3D
$GPGSA,A,3,44,60,,,,,,,,,,,0.8,0.4,0.6*3E
$GPGST,020027.00,0.866,0.342,0.293,1.008,0.342,0.293,0.756*55
$GPGBS,020027.00,1.773,1.636,4.965,03,0.0001,-0.407,0.584*73
$GPGRS,020027.00,1,-0.2,-0.4,0.1,-0.2,0.4,0.1,0.1,0.4,-0.1,0.2,,*4F
$GPGRS,020027.00,1,-1.0,-0.2,0.9,-2.5,0.6,-1.1,1.9,-1.6,,,,*60
$GPGRS,020027.00,1,-0.0,0.0,-0.0,0.3,-0.2,-0.1,-0.2,-0.0,,,,*4B
$GPGRS,020027.00,1,1.2,0.4,-0.1,0.9,-0.4,-1.5,0.4,-0.2,0.7,-1.0,0.9,-0.5*4A
$GPGRS,020027.00,1,0.2,-1.0,,,,,,,,,,*67
$GPGSV,5,1,20,03,73,052,50,21,19,153,38,06,22,313,40,28,22,046,41*73
$GPGSV,5,2,20,19,31,289,44,17,32,255,45,02,37,159,46,09,36,224,45*71
$GPGSV,5,3,20,31,34,074,45,01,42,149,,04,65,208,47,36,35,170,44*7A
$GPGSV,5,4,20,58,13,245,38,40,24,132,36,34,31,208,43,49,34,195,44*75
$GPGSV,5,5,20,57,09,110,37,41,07,108,33,61,03,257,37*4F
$GLGSV,2,1,08,85,70,239,53,86,31,324,48,78,14,027,44,79,14,077,45*6A
$GLGSV,2,2,08,84,28,171,37,71,21,247,47,69,37,046,48,70,66,279,41*64
$GAGSV,3,1,09,36,79,264,48,10,16,142,39,05,25,220,41,18,21,293,*6A
$GAGSV,3,2,09,34,28,312,42,04,45,056,45,11,42,147,42,06,71,076,48*63
$GAGSV,3,3,09,09,76,182,48*5E
$GBGSV,5,1,18,48,83,315,,39,26,043,43,32,13,068,41,44,12,323,40*65
$GBGSV,5,2,18,37,16,094,42,29,37,201,47,05,24,128,38,16,32,052,43*67
$GBGSV,5,3,18,06,33,056,41,35,44,285,48,09,39,072,42,19,56,263,50*68
$GBGSV,5,4,18,20,68,051,51,21,05,243,,22,05,253,40,46,01,143,*6C
$GBGSV,5,5,18,02,08,105,35,60,09,110,39*6F
$GPGGA,020027.00,,,,,0,00,,,M,,M,,*4F
$PTNL,GGK,020027.00,010125,4742.1603028,N,01618.1002887,E,1,40,0.8,EHT751.1255,M*40
$GPGGQ,020027.00,010125,4742.1603028,N,01618.1002887,E,1,40,0.880,707.9189,M*3F
$GPGFA,020027.00,3.253,6.202,0.342,0.293,1.008,0.756,,VVV*05
$GPLLK,020027.00,010125,,M,,M,1,40,0.8,,M*00
$GNGMP,020027.00,,,,,DAAA,40,0.4,,,,*51
$GPGMP,020027.00,,,,,,10,,,,1.7,136*79
$GLGMP,020027.00,,,,,,08,,,,,*70
$GAGMP,020027.00,,,,,,08,,,,,*7D
$GBGMP,020027.00,,,,,,14,,,,,*73
$PSSN,SNC,[0,266445000,2347]*43
$GPZDA,020032.00,01,01,2025,,*60
$GPDTM,W84,,00.0000000,N,00.0000000,E,00.0000000,W84*5F
$PSSN,TFM,020032.00,,,,*6C
$GPRMC,020032.00,A,4742.1603052,N,01618.1002936,E,0.0,,010125,5.1,E,D*19
$GPGLL,4742.1603052,N,01618.1002936,E,020032.00,A,D*68
$GPGGA,020032.00,4742.1603052,N,01618.1002936,E,2,40,0.4,707.9253,M,43.2066,M,2.7,0136*4C
$GNGNS,020032.00,4742.1603052,N,01618.1002936,E,DAAA,40,0.4,707.9253,43.2066,,*51
$GPGNS,020032.00,,,,,,10,,,,2.7,136*7E
$GLGNS,020032.00,,,,,,08,,,,,*74
$GAGNS,020032.00,,,,,,08,,,,,*79
$GBGNS,020032.00,,,,,,14,,,,,*77
$GPLLQ,020032.00,010125,,M,,M,1,40,0.866,,M*1E
$GPVTG,,T,,M,0.01,N,0.01,K,D*26
$GPHDT,,T*1B
$GPTHS,,V*0E
$GPROT,,V*08
$PSSN,HRP,020032.00,010125,,,,,,,00,0,,*62
$PTNL,AVR,020032.00,,Yaw,,Tilt,,,,0,,00*34
$GPGSA,A,3,02,03,04,06,09,17,19,21,28,31,,,0.8,0.4,0.6*37
$GPGSA,A,3,69,70,71,78,79,84,85,86,,,,,0.8,0.4,0.6*38
$GPGSA,A,3,04,05,06,09,10,11,34,36,,,,,0.8,0.4,0.6*35
$GPGSA,A,3,05,06,09,16,19,20,22,29,32,35,37,39,0.8,0.4,0.6*3D
$GPGSA,A,3,44,60,,,,,,,,,,,0.8,0.4,0.6*3E
$GPGST,020032.00,1.001,0.338,0.294,1.209,0.338,0.294,0.741*5C
$GPGBS,020032.00,1.795,1.656,5.055,03,0.0001,-0.391,0.600*75
$GPGRS,020032.00,1,-0.2,-0.4,0.1,-0.3,0.3,0.3,0.3,0.3,0.2,0.0,,*66
$GPGRS,020032.00,1,-1.5,-0.7,1.0,-2.6,1.2,0.8,1.9,-2.1,,,,*4B
$GPGRS,020032.00,1,-0.0,0.0,-0.2,0.1,-0.0,-0.1,-0.4,-0.2,,,,*49
$GPGRS,020032.00,1,1.3,0.6,-0.4,0.8,-0.6,-1.6,0.6,-0.5,0.6,-1.2,1.3,-0.9*49
$GPGRS,020032.00,1,-0.0,-1.1,,,,,,,,,,*4D
$GPGSV,5,1,20,03,73,052,50,21,19,153,37,06,22,313,40,28,22,046,40*7D
$GPGSV,5,2,20,19,31,289,44,17,32,255,44,02,37,159,46,09,36,224,44*71
$GPGSV,5,3,20,31,34,074,45,01,41,149,,04,65,208,47,36,35,170,44*79
$GPGSV,5,4,20,58,13,245,37,40,24,132,36,34,31,208,43,49,34,195,44*7A
$GPGSV,5,5,20,57,09,110,37,41,07,108,34,61,03,257,37*48
$GLGSV,2,1,08,85,70,239,53,86,31,324,48,78,14,027,44,79,14,077,46*69
$GLGSV,2,2,08,84,28,171,37,71,21,247,47,69,36,046,48,70,66,279,41*65
$GAGSV,3,1,09,36,79,264,48,10,15,142,39,05,25,220,41,18,21,293,*69
$GAGSV,3,2,09,34,28,312,42,04,45,056,45,11,42,147,42,06,71,076,48*63
$GAGSV,3,3,09,09,76,182,48*5E
$GBGSV,5,1,18,48,83,315,,39,26,043,43,32,13,068,41,44,12,323,40*65
$GBGSV,5,2,18,37,16,094,42,29,37,201,48,05,24,128,38,16,32,052,43*68
$GBGSV,5,3,18,06,33,056,41,35,44,285,48,09,39,072,42,19,56,263,50*68
$GBGSV,5,4,18,20,68,051,52,21,05,243,,22,05,253,40,46,01,143,*6F
$GBGSV,5,5,18,02,08,105,35,60,09,110,39*6F
$GPGGA,020032.00,,,,,0,00,,,M,,M,,*4B
$PTNL,GGK,020032.00,010125,4742.1603052,N,01618.1002936,E,1,40,0.8,EHT751.1318,M*4A
$GPGGQ,020032.00,010125,4742.1603052,N,01618.1002936,E,1,40,0.866,707.9253,M*31
$GPGFA,020032.00,3.217,6.074,0.338,0.294,1.209,0.741,,VVV*0D
$GPLLK,020032.00,010125,,M,,M,1,40,0.8,,M*04
$GNGMP,020032.00,,,,,DAAA,40,0.4,,,,*55
$GPGMP,020032.00,,,,,,10,,,,2.7,136*7E
$GLGMP,020032.00,,,,,,08,,,,,*74
$GAGMP,020032.00,,,,,,08,,,,,*79
$GBGMP,020032.00,,,,,,14,,,,,*77
$PSSN,SNC,[0,266450000,2347]*47
$GPZDA,020037.00,01,01,2025,,*65
$GPDTM,W84,,00.0000000,N,00.0000000,E,00.0000000,W84*5F
$PSSN,TFM,020037.00,,,,*69
$GPRMC,020037.00,A,4742.1603062,N,01618.1002957,E,0.0,,010125,5.1,E,D*18
$GPGLL,4742.1603062,N,01618.1002957,E,020037.00,A,D*69
$GPGGA,020037.00,4742.1603062,N,01618.1002957,E,2,40,0.4,707.9291,M,43.2066,M,2.9,0136*4D
$GNGNS,020037.00,4742.1603062,N,01618.1002957,E,DAAA,40,0.4,707.9291,43.2066,,*5E
$GPGNS,020037.00,,,,,,10,,,,2.9,136*75
$GLGNS,020037.00,,,,,,08,,,,,*71
$GAGNS,020037.00,,,,,,08,,,,,*7C
$GBGNS,020037.00,,,,,,14,,,,,*72
$GPLLQ,020037.00,010125,,M,,M,1,40,0.881,,M*12
$GPVTG,,T,,M,0.00,N,0.00,K,D*26
$GPHDT,,T*1B
$GPTHS,,V*0E
$GPROT,,V*08
$PSSN,HRP,020037.00,010125,,,,,,,00,0,,*67
$PTNL,AVR,020037.00,,Yaw,,Tilt,,,,0,,00*31
$GPGSA,A,3,02,03,04,06,09,17,19,21,28,31,,,0.8,0.4,0.6*37
$GPGSA,A,3,69,70,71,78,79,84,85,86,,,,,0.8,0.4,0.6*38
$GPGSA,A,3,04,05,06,09,10,11,34,36,,,,,0.8,0.4,0.6*35
$GPGSA,A,3,05,06,09,16,19,20,22,29,32,35,37,39,0.8,0.4,0.6*3D
$GPGSA,A,3,44,60,,,,,,,,,,,0.8,0.4,0.6*3E
$GPGST,020037.00,0.993,0.343,0.297,359.328,0.343,0.297,0.755*53
$GPGBS,020037.00,1.842,1.689,5.224,09,0.0001,0.460,0.709*55
$GPGRS,020037.00,1,0.1,-0.2,-0.1,0.1,0.5,-0.0,-0.3,0.0,0.1,0.1,,*4D
$GPGRS,020037.00,1,-1.3,-0.4,1.1,-3.0,1.0,1.4,1.9,-2.0,,,,*43
$GPGRS,020037.00,1,0.2,0.0,0.0,0.0,-0.1,-0.2,-0.4,-0.5,,,,*48
$GPGRS,020037.00,1,0.9,0.1,-0.0,0.7,-0.5,-1.5,0.1,-0.4,0.4,-1.2,1.0,-0.6*43
$GPGRS,020037.00,1,-0.1,-1.1,,,,,,,,,,*49
$GPGSV,5,1,20,03,73,052,50,21,19,153,37,06,22,313,40,28,22,046,41*7C
$GPGSV,5,2,20,19,31,289,44,17,32,255,45,02,37,159,46,09,36,224,45*71
$GPGSV,5,3,20,31,34,074,45,01,41,149,,04,65,208,47,36,35,170,44*79
$GPGSV,5,4,20,58,13,245,37,40,24,132,35,34,31,208,43,49,34,195,44*79
$GPGSV,5,5,20,57,09,110,37,41,07,108,34,61,03,257,37*48
$GLGSV,2,1,08,85,70,239,53,86,31,324,48,78,14,027,44,79,14,077,45*6A
$GLGSV,2,2,08,84,28,171,37,71,21,247,47,69,36,046,48,70,66,279,41*65
$GAGSV,3,1,09,36,79,264,48,10,15,142,39,05,25,220,42,18,21,293,*6A
$GAGSV,3,2,09,34,29,312,42,04,45,056,45,11,42,147,42,06,71,076,48*62
$GAGSV,3,3,09,09,76,182,48*5E
$GBGSV,5,1,18,48,83,316,,39,26,043,42,32,13,068,41,44,12,323,40*67
$GBGSV,5,2,18,37,16,094,42,29,37,201,48,05,24,128,38,16,32,052,43*68
$GBGSV,5,3,18,06,33,056,41,35,44,285,48,09,39,072,42,19,56,263,50*68
$GBGSV,5,4,18,20,68,051,52,21,05,243,,22,05,253,40,46,01,143,*6F
$GBGSV,5,5,18,02,08,105,34,60,09,110,39*6E
$GPGGA,020037.00,,,,,0,00,,,M,,M,,*4E
$PTNL,GGK,020037.00,010125,4742.1603062,N,01618.1002957,E,1,40,0.8,EHT751.1357,M*40
$GPGGQ,020037.00,010125,4742.1603062,N,01618.1002957,E,1,40,0.881,707.9291,M*37
$GPGFA,020037.00,3.261,6.188,0.343,0.297,359.328,0.755,,VVV*0D
$GPLLK,020037.00,010125,,M,,M,1,40,0.8,,M*01
$GNGMP,020037.00,,,,,DAAA,40,0.4,,,,*50
$GPGMP,020037.00,,,,,,10,,,,2.9,136*75
$GLGMP,020037.00,,,,,,08,,,,,*71
$GAGMP,020037.00,,,,,,08,,,,,*7C
$GBGMP,020037.00,,,,,,14,,,,,*72
$PSSN,SNC,[0,266455000,2347]*42
$GPZDA,020042.00,01,01,2025,,*67
$GPDTM,W84,,00.0000000,N,00.0000000,E,00.0000000,W84*5F
$PSSN,TFM,020042.00,,,,*6B
$GPRMC,020042.00,A,4742.1603084,N,01618.1002966,E,0.0,,010125,5.1,E,D*10
$GPGLL,4742.1603084,N,01618.1002966,E,020042.00,A,D*61
$GPGGA,020042.00,4742.1603084,N,01618.1002966,E,2,40,0.4,707.9355,M,43.2066,M,2.7,0136*42
$GNGNS,020042.00,4742.1603084,N,01618.1002966,E,DAAA,40,0.4,707.9355,43.2066,,*5F
$GPGNS,020042.00,,,,,,10,,,,2.7,136*79
$GLGNS,020042.00,,,,,,08,,,,,*73
$GAGNS,020042.00,,,,,,08,,,,,*7E
$GBGNS,020042.00,,,,,,14,,,,,*70
$GPLLQ,020042.00,010125,,M,,M,1,40,0.890,,M*10
$GPVTG,,T,,M,0.00,N,0.01,K,D*27
$GPHDT,,T*1B
$GPTHS,,V*0E
$GPROT,,V*08
$PSSN,HRP,020042.00,010125,,,,,,,00,0,,*65
$PTNL,AVR,020042.00,,Yaw,,Tilt,,,,0,,00*33
$GPGSA,A,3,02,03,04,06,09,17,19,21,28,31,,,0.8,0.4,0.6*37
$GPGSA,A,3,69,70,71,78,79,84,85,86,,,,,0.8,0.4,0.6*38
$GPGSA,A,3,04,05,06,09,10,11,34,36,,,,,0.8,0.4,0.6*35
$GPGSA,A,3,05,06,09,16,19,20,22,29,32,35,37,39,0.8,0.4,0.6*3D
$GPGSA,A,3,44,60,,,,,,,,,,,0.8,0.4,0.6*3E
$GPGST,020042.00,0.904,0.346,0.295,358.314,0.346,0.295,0.765*52
$GPGBS,020042.00,1.787,1.674,5.268,17,0.0001,0.407,0.732*5D
$GPGRS,020042.00,1,-0.0,-0.2,-0.2,-0.1,0.4,0.4,-0.4,0.2,-0.0,0.3,,*4E
$GPGRS,020042.00,1,-1.3,-0.4,1.0,-2.4,0.3,0.2,1.7,-2.2,,,,*4C
$GPGRS,020042.00,1,-0.2,-0.1,-0.3,0.2,-0.4,-0.1,-0.1,-0.3,,,,*62
$GPGRS,020042.00,1,0.7,-0.3,0.6,0.5,-0.8,-1.4,-0.8,-0.4,0.5,-1.4,0.7,-0.8*6E
$GPGRS,020042.00,1,0.3,-1.2,,,,,,,,,,*67
$GPGSV,5,1,20,03,73,052,50,21,19,153,38,06,22,313,40,28,22,046,40*72
$GPGSV,5,2,20,19,31,289,44,17,32,255,45,02,37,159,47,09,36,224,44*71
$GPGSV,5,3,20,31,34,074,45,01,41,149,,04,66,208,47,36,35,170,44*7A
$GPGSV,5,4,20,58,13,245,37,40,24,132,36,34,31,208,43,49,34,195,44*7A
$GPGSV,5,5,20,57,09,110,37,41,07,108,34,61,03,257,38*47
$GLGSV,2,1,08,85,70,239,53,86,31,324,48,78,14,027,45,79,14,077,45*6B
$GLGSV,2,2,08,84,28,171,36,71,21,247,47,69,36,046,48,70,66,279,41*64
$GAGSV,3,1,09,36,79,264,48,10,15,142,39,05,25,220,41,18,21,293,*69
$GAGSV,3,2,09,34,29,312,43,04,45,056,45,11,42,147,43,06,71,076,48*62
$GAGSV,3,3,09,09,76,182,48*5E
$GBGSV,5,1,18,48,83,316,,39,26,043,42,32,13,068,41,44,12,323,40*67
$GBGSV,5,2,18,37,16,094,42,29,37,201,48,05,24,128,38,16,32,052,43*68
$GBGSV,5,3,18,06,33,056,41,35,44,285,49,09,39,072,42,19,56,263,50*69
$GBGSV,5,4,18,20,68,051,51,21,05,243,,22,05,253,39,46,01,143,*62
$GBGSV,5,5,18,02,08,105,35,60,09,110,39*6F
$GPGGA,020042.00,,,,,0,00,,,M,,M,,*4C
$PTNL,GGK,020042.00,010125,4742.1603084,N,01618.1002966,E,1,40,0.8,EHT751.1420,M*4F
$GPGGQ,020042.00,010125,4742.1603084,N,01618.1002966,E,1,40,0.890,707.9355,M*36
$GPGFA,020042.00,3.285,6.277,0.346,0.295,358.314,0.765,,VVV*0C
$GPLLK,020042.00,010125,,M,,M,1,40,0.9,,M*02
$GNGMP,020042.00,,,,,DAAA,40,0.4,,,,*52
$GPGMP,020042.00,,,,,,10,,,,2.7,136*79
$GLGMP,020042.00,,,,,,08,,,,,*73
$GAGMP,020042.00,,,,,,08,,,,,*7E
$GBGMP,020042.00,,,,,,14,,,,,*70
$PSSN,SNC,[0,266460000,2347]*44
$GPZDA,020047.00,01,01,2025,,*62
$GPDTM,W84,,00.0000000,N,00.0000000,E,00.0000000,W84*5F
$PSSN,TFM,020047.00,,,,*6E
$GPRMC,020047.00,A,4742.1603102,N,01618.1002958,E,0.0,,010125,5.1,E,D*17
$GPGLL,4742.1603102,N,01618.1002958,E,020047.00,A,D*66
$GPGGA,020047.00,4742.1603102,N,01618.1002958,E,2,40,0.4,707.9415,M,43.2066,M,1.7,0136*45
$GNGNS,020047.00,4742.1603102,N,01618.1002958,E,DAAA,40,0.4,707.9415,43.2066,,*5B
$GPGNS,020047.00,,,,,,10,,,,1.7,136*7F
$GLGNS,020047.00,,,,,,08,,,,,*76
$GAGNS,020047.00,,,,,,08,,,,,*7B
$GBGNS,020047.00,,,,,,14,,,,,*75
$GPLLQ,020047.00,010125,,M,,M,1,40,0.879,,M*12
$GPVTG,,T,,M,0.00,N,0.01,K,D*27
$GPHDT,,T*1B
$GPTHS,,V*0E
$GPROT,,V*08
$PSSN,HRP,020047.00,010125,,,,,,,00,0,,*60
$PTNL,AVR,020047.00,,Yaw,,Tilt,,,,0,,00*36
$GPGSA,A,3,02,03,04,06,09,17,19,21,28,31,,,0.8,0.4,0.6*37
$GPGSA,A,3,69,70,71,78,79,84,85,86,,,,,0.8,0.4,0.6*38
$GPGSA,A,3,04,05,06,09,10,11,34,36,,,,,0.8,0.4,0.6*35
$GPGSA,A,3,05,06,09,16,19,20,22,29,32,35,37,39,0.8,0.4,0.6*3D
$GPGSA,A,3,44,60,,,,,,,,,,,0.8,0.4,0.6*3E
$GPGST,020047.00,0.919,0.342,0.293,0.970,0.342,0.293,0.755*5E
$GPGBS,020047.00,1.776,1.634,4.936,84,0.0001,-2.355,6.125*70
$GPGRS,020047.00,1,-0.1,-0.0,-0.2,0.1,0.1,0.2,-0.3,0.1,0.4,0.1,,*49
$GPGRS,020047.00,1,-1.0,-0.9,1.2,-2.1,1.0,-2.4,1.6,-1.4,,,,*6F
$GPGRS,020047.00,1,-0.1,0.0,0.1,0.3,-0.3,-0.2,0.0,-0.0,,,,*4D
$GPGRS,020047.00,1,0.6,-0.3,0.6,0.5,-0.9,-1.4,-0.3,-0.2,0.7,-1.1,1.0,-0.4*6B
$GPGRS,020047.00,1,0.7,-1.0,,,,,,,,,,*64
$GPGSV,5,1,20,03,73,052,50,21,19,153,37,06,22,313,41,28,22,046,40*7C
$GPGSV,5,2,20,19,31,289,44,17,32,255,46,02,37,159,46,09,36,224,44*73
$GPGSV,5,3,20,31,34,074,45,01,41,149,,04,66,208,47,36,35,170,44*7A
$GPGSV,5,4,20,58,13,245,38,40,24,132,36,34,31,208,43,49,34,195,44*75
$GPGSV,5,5,20,57,09,110,37,41,07,108,35,61,03,257,38*46
$GLGSV,2,1,08,85,70,239,53,86,31,324,49,78,14,026,44,79,14,077,45*6A
$GLGSV,2,2,08,84,28,171,36,71,21,247,47,69,36,046,48,70,66,280,41*62
$GAGSV,3,1,09,36,79,263,48,10,15,142,39,05,25,220,42,18,21,293,*6D
$GAGSV,3,2,09,34,29,312,43,04,45,056,45,11,42,147,43,06,71,076,48*62
$GAGSV,3,3,09,09,77,182,49*5E
$GBGSV,5,1,18,48,83,316,,39,26,043,42,32,13,068,41,44,12,323,41*66
$GBGSV,5,2,18,37,16,094,42,29,37,201,48,05,24,128,38,16,32,052,43*68
$GBGSV,5,3,18,06,33,056,41,35,44,285,49,09,39,071,42,19,56,263,50*6A
$GBGSV,5,4,18,20,68,051,51,21,05,243,,22,05,253,40,46,01,143,*6C
$GBGSV,5,5,18,02,08,105,35,60,09,110,39*6F
$GPGGA,020047.00,,,,,0,00,,,M,,M,,*49
$PTNL,GGK,020047.00,010125,4742.1603102,N,01618.1002958,E,1,40,0.8,EHT751.1481,M*43
$GPGGQ,020047.00,010125,4742.1603102,N,01618.1002958,E,1,40,0.879,707.9415,M*35
$GPGFA,020047.00,3.254,6.193,0.342,0.293,0.970,0.755,,VVV*0B
$GPLLK,020047.00,010125,,M,,M,1,40,0.9,,M*07
$GNGMP,020047.00,,,,,DAAA,40,0.4,,,,*57
$GPGMP,020047.00,,,,,,10,,,,1.7,136*7F
$GLGMP,020047.00,,,,,,08,,,,,*76
$GAGMP,020047.00,,,,,,08,,,,,*7B
$GBGMP,020047.00,,,,,,14,,,,,*75
$PSSN,SNC,[0,266465000,2347]*41
$GPZDA,020052.00,01,01,2025,,*66
$GPDTM,W84,,00.0000000,N,00.0000000,E,00.0000000,W84*5F
$PSSN,TFM,020052.00,,,,*6A
$GPRMC,020052.00,A,4742.1603076,N,01618.1002964,E,0.0,,010125,5.1,E,D*1E
$GPGLL,4742.1603076,N,01618.1002964,E,020052.00,A,D*6F
$GPGGA,020052.00,4742.1603076,N,01618.1002964,E,2,40,0.4,707.9414,M,43.2066,M,2.7,0136*4E
$GNGNS,020052.00,4742.1603076,N,01618.1002964,E,DAAA,40,0.4,707.9414,43.2066,,*53
$GPGNS,020052.00,,,,,,10,,,,2.7,136*78
$GLGNS,020052.00,,,,,,08,,,,,*72
$GAGNS,020052.00,,,,,,08,,,,,*7F
$GBGNS,020052.00,,,,,,14,,,,,*71
$GPLLQ,020052.00,010125,,M,,M,1,40,0.865,,M*1B
$GPVTG,,T,,M,0.00,N,0.01,K,D*27
$GPHDT,,T*1B
$GPTHS,,V*0E
$GPROT,,V*08
$PSSN,HRP,020052.00,010125,,,,,,,00,0,,*64
$PTNL,AVR,020052.00,,Yaw,,Tilt,,,,0,,00*32
$GPGSA,A,3,02,03,04,06,09,17,19,21,28,31,,,0.8,0.4,0.6*37
$GPGSA,A,3,69,70,71,78,79,84,85,86,,,,,0.8,0.4,0.6*38
$GPGSA,A,3,04,05,06,09,10,11,34,36,,,,,0.8,0.4,0.6*35
$GPGSA,A,3,05,06,09,16,19,20,22,29,32,35,37,39,0.8,0.4,0.6*3D
$GPGSA,A,3,44,60,,,,,,,,,,,0.8,0.4,0.6*3E
$GPGST,020052.00,0.790,0.338,0.294,1.119,0.338,0.294,0.739*59
$GPGBS,020052.00,1.800,1.654,5.029,09,0.0001,0.342,0.693*5A
$GPGRS,020052.00,1,-0.3,-0.1,-0.1,0.2,0.3,-0.1,0.0,-0.2,0.5,0.4,,*66
$GPGRS,020052.00,1,-0.6,-1.0,0.6,-2.3,0.7,-0.1,1.8,-1.2,,,,*6A
$GPGRS,020052.00,1,-0.2,0.0,0.1,0.2,-0.6,-0.1,-0.3,-0.1,,,,*62
$GPGRS,020052.00,1,0.4,0.1,0.3,0.2,-0.8,-1.7,0.0,-0.2,0.7,-0.9,0.9,-0.5*6C
$GPGRS,020052.00,1,0.1,-0.8,,,,,,,,,,*6F
$GPGSV,5,1,20,03,73,052,50,21,19,153,37,06,22,313,41,28,22,046,41*7D
$GPGSV,5,2,20,19,31,289,44,17,32,255,45,02,37,159,45,09,36,224,44*73
$GPGSV,5,3,20,31,34,074,45,01,41,149,,04,66,208,47,36,35,170,45*7B
$GPGSV,5,4,20,58,13,245,37,40,24,132,36,34,31,208,43,49,34,195,44*7A
$GPGSV,5,5,20,57,09,110,37,41,07,108,34,61,03,257,37*48
$GLGSV,2,1,08,85,70,239,53,86,31,324,49,78,14,026,45,79,14,077,45*6B
$GLGSV,2,2,08,84,28,171,36,71,21,247,47,69,36,046,49,70,66,280,41*63
$GAGSV,3,1,09,36,79,263,48,10,15,142,39,05,25,220,42,18,21,293,*6D
$GAGSV,3,2,09,34,29,312,43,04,45,055,45,11,42,147,43,06,71,076,48*61
$GAGSV,3,3,09,09,77,182,49*5E
$GBGSV,5,1,18,48,83,317,,39,26,043,42,32,13,068,41,44,12,323,41*67
$GBGSV,5,2,18,37,16,094,42,29,37,201,47,05,24,128,38,16,32,052,43*67
$GBGSV,5,3,18,06,33,056,41,35,44,285,48,09,39,071,42,19,56,263,50*6B
$GBGSV,5,4,18,20,68,051,52,21,05,243,,22,05,253,40,46,01,143,*6F
$GBGSV,5,5,18,02,08,105,35,60,09,110,39*6F
$GPGGA,020052.00,,,,,0,00,,,M,,M,,*4D
$PTNL,GGK,020052.00,010125,4742.1603076,N,01618.1002964,E,1,40,0.8,EHT751.1480,M*4B
$GPGGQ,020052.00,010125,4742.1603076,N,01618.1002964,E,1,40,0.865,707.9414,M*30
$GPGFA,020052.00,3.217,6.063,0.338,0.294,1.119,0.739,,VVV*00
$GPLLK,020052.00,010125,,M,,M,1,40,0.9,,M*03
$GNGMP,020052.00,,,,,DAAA,40,0.4,,,,*53
$GPGMP,020052.00,,,,,,10,,,,2.7,136*78
$GLGMP,020052.00,,,,,,08,,,,,*72
$GAGMP,020052.00,,,,,,08,,,,,*7F
$GBGMP,020052.00,,,,,,14,,,,,*71
$PSSN,SNC,[0,266470000,2347]*45
$GPZDA,020057.00,01,01,2025,,*63
$GPDTM,W84,,00.0000000,N,00.0000000,E,00.0000000,W84*5F
$PSSN,TFM,020057.00,,,,*6F
$GPRMC,020057.00,A,4742.1603056,N,01618.1002951,E,0.0,,010125,5.1,E,D*1F
$GPGLL,4742.1603056,N,01618.1002951,E,020057.00,A,D*6E
$GPGGA,020057.00,4742.1603056,N,01618.1002951,E,2,40,0.4,707.9440,M,43.2066,M,2.9,0136*40
$GNGNS,020057.00,4742.1603056,N,01618.1002951,E,DAAA,40,0.4,707.9440,43.2066,,*53
$GPGNS,020057.00,,,,,,10,,,,2.9,136*73
$GLGNS,020057.00,,,,,,08,,,,,*77
$GAGNS,020057.00,,,,,,08,,,,,*7A
$GBGNS,020057.00,,,,,,14,,,,,*74
$GPLLQ,020057.00,010125,,M,,M,1,40,0.880,,M*15
$GPVTG,,T,,M,0.00,N,0.01,K,D*27
$GPHDT,,T*1B
$GPTHS,,V*0E
$GPROT,,V*08
$PSSN,HRP,020057.00,010125,,,,,,,00,0,,*61
$PTNL,AVR,020057.00,,Yaw,,Tilt,,,,0,,00*37
$GPGSA,A,3,02,03,04,06,09,17,19,21,28,31,,,0.8,0.4,0.6*37
$GPGSA,A,3,69,70,71,78,79,84,85,86,,,,,0.8,0.4,0.6*38
$GPGSA,A,3,04,05,06,09,10,11,34,36,,,,,0.8,0.4,0.6*35
$GPGSA,A,3,05,06,09,16,19,20,22,29,32,35,37,39,0.8,0.4,0.6*3D
$GPGSA,A,3,44,60,,,,,,,,,,,0.8,0.4,0.6*3E
$GPGST,020057.00,0.827,0.343,0.297,359.033,0.343,0.297,0.754*53
$GPGBS,020057.00,1.848,1.688,5.198,09,0.0001,0.465,0.708*58
$GPGRS,020057.00,1,-0.1,-0.1,-0.2,-0.3,0.5,-0.1,0.1,-0.1,-0.2,0.4,,*60
$GPGRS,020057.00,1,-0.3,-1.0,1.2,-2.1,0.9,1.0,1.6,-1.5,,,,*47
$GPGRS,020057.00,1,-0.1,-0.1,-0.1,0.1,-0.4,-0.4,-0.4,0.0,,,,*4A
$GPGRS,020057.00,1,0.8,0.8,0.5,0.6,-0.7,-1.5,-0.6,-0.2,0.7,-0.8,0.8,-0.2*4F
$GPGRS,020057.00,1,-0.3,-1.1,,,,,,,,,,*4D
$GPGSV,5,1,20,03,73,052,50,21,19,153,37,06,22,313,41,28,22,046,41*7D
$GPGSV,5,2,20,19,31,289,43,17,32,255,45,02,36,159,46,09,37,224,45*76
$GPGSV,5,3,20,31,34,074,45,01,41,149,,04,66,208,47,36,35,170,44*7A
$GPGSV,5,4,20,58,13,245,38,40,24,132,36,34,31,208,42,49,34,195,44*74
$GPGSV,5,5,20,57,09,110,37,41,07,108,34,61,03,257,37*48
$GLGSV,2,1,08,85,70,239,53,86,31,324,48,78,14,026,45,79,14,077,45*6A
$GLGSV,2,2,08,84,28,171,36,71,21,247,47,69,36,046,49,70,66,280,41*63
$GAGSV,3,1,09,36,79,263,48,10,15,142,39,05,25,220,42,18,21,293,*6D
$GAGSV,3,2,09,34,29,312,43,04,45,055,45,11,42,147,43,06,71,076,48*61
$GAGSV,3,3,09,09,77,182,49*5E
$GBGSV,5,1,18,48,83,317,,39,26,043,43,32,13,068,41,44,12,323,41*66
$GBGSV,5,2,18,37,16,094,42,16,32,052,43,05,24,128,38,29,37,201,48*68
$GBGSV,5,3,18,06,33,056,41,35,44,285,49,09,39,071,43,19,56,263,50*6B
$GBGSV,5,4,18,20,68,051,52,21,05,243,,22,05,253,40,46,01,143,*6F
$GBGSV,5,5,18,02,08,105,35,60,09,110,39*6F
$GPGGA,020057.00,,,,,0,00,,,M,,M,,*48
$PTNL,GGK,020057.00,010125,4742.1603056,N,01618.1002951,E,1,40,0.8,EHT751.1506,M*45
$GPGGQ,020057.00,010125,4742.1603056,N,01618.1002951,E,1,40,0.880,707.9440,M*3B
$GPGFA,020057.00,3.263,6.183,0.343,0.297,359.033,0.754,,VVV*0A
$GPLLK,020057.00,010125,,M,,M,1,40,0.9,,M*06
$GNGMP,020057.00,,,,,DAAA,40,0.4,,,,*56
$GPGMP,020057.00,,,,,,10,,,,2.9,136*73
$GLGMP,020057.00,,,,,,08,,,,,*77
$GAGMP,020057.00,,,,,,08,,,,,*7A
$GBGMP,020057.00,,,,,,14,,,,,*74
$PSSN,SNC,[0,266475000,2347]*40
$GPZDA,020102.00,01,01,2025,,*62
$GPDTM,W84,,00.0000000,N,00.0000000,E,00.0000000,W84*5F
$PSSN,TFM,020102.00,,,,*6E
$GPRMC,020102.00,A,4742.1603081,N,01618.1002968,E,0.0,,010125,5.1,E,D*1E
$GPGLL,4742.1603081,N,01618.1002968,E,020102.00,A,D*6F
$GPGGA,020102.00,4742.1603081,N,01618.1002968,E,2,40,0.4,707.9459,M,43.2066,M,2.7,0136*47
$GNGNS,020102.00,4742.1603081,N,01618.1002968,E,DAAA,40,0.4,707.9459,43.2066,,*5A
$GPGNS,020102.00,,,,,,10,,,,2.7,136*7C
$GLGNS,020102.00,,,,,,08,,,,,*76
$GAGNS,020102.00,,,,,,08,,,,,*7B
$GBGNS,020102.00,,,,,,14,,,,,*75
$GPLLQ,020102.00,010125,,M,,M,1,40,0.890,,M*15
$GPVTG,,T,,M,0.00,N,0.01,K,D*27
$GPHDT,,T*1B
$GPTHS,,V*0E
$GPROT,,V*08
$PSSN,HRP,020102.00,010125,,,,,,,00,0,,*60
$PTNL,AVR,020102.00,,Yaw,,Tilt,,,,0,,00*36
$GPGSA,A,3,02,03,04,06,09,17,19,21,28,31,,,0.8,0.4,0.6*37
$GPGSA,A,3,69,70,71,78,79,84,85,86,,,,,0.8,0.4,0.6*38
$GPGSA,A,3,04,05,06,09,10,11,34,36,,,,,0.8,0.4,0.6*35
$GPGSA,A,3,05,06,09,16,19,20,22,29,32,35,37,39,0.8,0.4,0.6*3D
$GPGSA,A,3,44,60,,,,,,,,,,,0.8,0.4,0.6*3E
$GPGST,020102.00,0.885,0.346,0.295,358.076,0.346,0.296,0.765*5B
$GPGBS,020102.00,1.799,1.674,5.249,09,0.0001,0.461,0.726*5E
$GPGRS,020102.00,1,0.1,-0.1,-0.2,-0.4,0.5,-0.0,0.0,-0.3,-0.2,0.3,,*4E
$GPGRS,020102.00,1,-0.4,-0.7,0.9,-1.7,0.5,0.9,1.8,-1.8,,,,*4F
$GPGRS,020102.00,1,0.3,0.1,-0.1,0.1,-0.3,-0.2,-0.4,-0.3,,,,*66
$GPGRS,020102.00,1,0.9,0.6,1.1,0.9,-0.6,-1.4,-1.6,-0.2,0.8,-0.9,0.8,-0.5*43
$GPGRS,020102.00,1,-0.4,-1.5,,,,,,,,,,*4F
$GPGSV,5,1,20,03,73,053,50,21,19,153,36,06,22,313,41,28,22,046,41*7D
$GPGSV,5,2,20,19,31,289,44,17,32,255,45,02,36,159,45,09,37,224,45*72
$GPGSV,5,3,20,31,34,074,46,01,41,149,,04,66,208,47,36,35,170,44*79
$GPGSV,5,4,20,58,13,245,38,40,24,132,36,34,31,208,43,49,34,195,44*75
$GPGSV,5,5,20,57,09,110,37,41,07,108,34,61,03,257,37*48
$GLGSV,2,1,08,85,70,239,53,86,31,324,48,78,14,026,45,79,14,077,44*6B
$GLGSV,2,2,08,84,28,171,37,71,21,247,47,69,36,046,49,70,66,280,41*62
$GAGSV,3,1,09,36,79,263,48,10,15,142,40,05,25,220,42,18,21,293,*63
$GAGSV,3,2,09,34,29,312,43,04,45,055,45,11,42,147,43,06,70,076,48*60
$GAGSV,3,3,09,09,77,182,49*5E
$GBGSV,5,1,18,48,83,317,,39,26,043,43,32,13,068,41,44,12,323,40*67
$GBGSV,5,2,18,37,16,094,42,16,32,052,43,05,24,128,38,29,37,201,47*67
$GBGSV,5,3,18,06,33,056,41,35,44,285,48,09,39,071,43,19,56,263,50*6A
$GBGSV,5,4,18,20,68,051,52,21,05,243,,22,05,253,39,46,01,143,*61
$GBGSV,5,5,18,02,08,105,35,60,09,110,39*6F
$GPGGA,020102.00,,,,,0,00,,,M,,M,,*49
$PTNL,GGK,020102.00,010125,4742.1603081,N,01618.1002968,E,1,40,0.8,EHT751.1525,M*45
$GPGGQ,020102.00,010125,4742.1603081,N,01618.1002968,E,1,40,0.890,707.9459,M*33
$GPGFA,020102.00,3.288,6.273,0.346,0.295,358.076,0.765,,VVV*07
$GPLLK,020102.00,010125,,M,,M,1,40,0.9,,M*07
$GNGMP,020102.00,,,,,DAAA,40,0.4,,,,*57
$GPGMP,020102.00,,,,,,10,,,,2.7,136*7C
$GLGMP,020102.00,,,,,,08,,,,,*76
$GAGMP,020102.00,,,,,,08,,,,,*7B
$GBGMP,020102.00,,,,,,14,,,,,*75
$PSSN,SNC,[0,266480000,2347]*4A
$GPZDA,020107.00,01,01,2025,,*67
$GPDTM,W84,,00.0000000,N,00.0000000,E,00.0000000,W84*5F
$PSSN,TFM,020107.00,,,,*6B
$GPRMC,020107.00,A,4742.1603080,N,01618.1002964,E,0.0,,010125,5.1,E,D*16
$GPGLL,4742.1603080,N,01618.1002964,E,020107.00,A,D*67
$GPGGA,020107.00,4742.1603080,N,01618.1002964,E,2,40,0.4,707.9466,M,43.2066,M,1.7,0136*40
$GNGNS,020107.00,4742.1603080,N,01618.1002964,E,DAAA,40,0.4,707.9466,43.2066,,*5E
$GPGNS,020107.00,,,,,,10,,,,1.7,136*7A
$GLGNS,020107.00,,,,,,08,,,,,*73
$GAGNS,020107.00,,,,,,08,,,,,*7E
$GBGNS,020107.00,,,,,,14,,,,,*70
$GPLLQ,020107.00,010125,,M,,M,1,40,0.879,,M*17
$GPVTG,,T,,M,0.00,N,0.01,K,D*27
$GPHDT,,T*1B
$GPTHS,,V*0E
$GPROT,,V*08
$PSSN,HRP,020107.00,010125,,,,,,,00,0,,*65
$PTNL,AVR,020107.00,,Yaw,,Tilt,,,,0,,00*33
$GPGSA,A,3,02,03,04,06,09,17,19,21,28,31,,,0.8,0.4,0.6*37
$GPGSA,A,3,69,70,71,78,79,84,85,86,,,,,0.8,0.4,0.6*38
$GPGSA,A,3,04,05,06,09,10,11,34,36,,,,,0.8,0.4,0.6*35
$GPGSA,A,3,05,06,09,16,19,20,22,29,32,35,37,39,0.8,0.4,0.6*3D
$GPGSA,A,3,44,60,,,,,,,,,,,0.8,0.4,0.6*3E
$GPGST,020107.00,0.917,0.342,0.293,0.568,0.342,0.293,0.755*50
$GPGBS,020107.00,1.785,1.634,4.915,31,0.0001,0.436,0.867*52
$GPGRS,020107.00,1,0.0,-0.1,-0.2,-0.2,0.2,-0.1,0.1,-0.3,-0.3,0.4,,*4D
$GPGRS,020107.00,1,-1.3,-0.6,1.3,-2.3,-0.2,0.8,1.9,-1.5,,,,*66
$GPGRS,020107.00,1,0.2,-0.4,-0.1,0.1,-0.0,-0.0,0.0,-0.2,,,,*63
$GPGRS,020107.00,1,1.1,0.8,1.2,1.1,-0.5,-1.3,-0.2,-0.3,0.9,-1.1,1.2,-0.2*4F
$GPGRS,020107.00,1,0.4,-0.8,,,,,,,,,,*6B
$GPGSV,5,1,20,03,73,053,50,21,19,153,37,06,22,313,41,28,22,046,40*7D
$GPGSV,5,2,20,19,31,289,43,17,32,255,45,02,36,159,46,09,37,224,45*76
$GPGSV,5,3,20,31,34,074,46,01,41,149,,04,66,208,47,36,35,170,44*79
$GPGSV,5,4,20,58,13,245,37,40,24,132,36,34,31,208,43,49,34,195,44*7A
$GPGSV,5,5,20,57,09,110,37,41,07,108,34,61,03,257,37*48
$GLGSV,2,1,08,85,70,238,53,86,32,324,48,78,14,026,45,79,14,077,44*69
$GLGSV,2,2,08,84,28,171,36,71,21,247,48,69,36,046,49,70,66,280,41*6C
$GAGSV,3,1,09,36,79,263,48,10,15,142,40,05,25,220,42,18,21,293,*63
$GAGSV,3,2,09,34,29,312,43,04,45,055,45,11,42,147,43,06,70,076,48*60
$GAGSV,3,3,09,09,77,182,49*5E
$GBGSV,5,1,18,48,83,317,,39,26,043,43,32,13,068,41,44,12,323,40*67
$GBGSV,5,2,18,37,16,094,42,16,32,052,43,05,24,128,38,29,37,201,47*67
$GBGSV,5,3,18,06,33,056,41,35,44,285,48,09,39,071,43,19,56,263,50*6A
$GBGSV,5,4,18,20,68,051,52,21,05,243,,22,05,253,39,46,01,143,*61
$GBGSV,5,5,18,02,08,105,35,60,09,110,39*6F
$GPGGA,020107.00,,,,,0,00,,,M,,M,,*4C
$PTNL,GGK,020107.00,010125,4742.1603080,N,01618.1002964,E,1,40,0.8,EHT751.1532,M*4B
$GPGGQ,020107.00,010125,4742.1603080,N,01618.1002964,E,1,40,0.879,707.9466,M*30
$GPGFA,020107.00,3.256,6.189,0.342,0.293,0.568,0.755,,VVV*02
$GPLLK,020107.00,010125,,M,,M,1,40,0.9,,M*02
$GNGMP,020107.00,,,,,DAAA,40,0.4,,,,*52
$GPGMP,020107.00,,,,,,10,,,,1.7,136*7A
$GLGMP,020107.00,,,,,,08,,,,,*73
$GAGMP,020107.00,,,,,,08,,,,,*7E
$GBGMP,020107.00,,,,,,14,,,,,*70
$PSSN,SNC,[0,266485000,2347]*4F
$GPZDA,020112.00,01,01,2025,,*63
$GPDTM,W84,,00.0000000,N,00.0000000,E,00.0000000,W84*5F
$PSSN,TFM,020112.00,,,,*6F
$GPRMC,020112.00,A,4742.1603073,N,01618.1002957,E,0.0,,010125,5.1,E,D*1E
$GPGLL,4742.1603073,N,01618.1002957,E,020112.00,A,D*6F
$GPGGA,020112.00,4742.1603073,N,01618.1002957,E,2,40,0.4,707.9450,M,43.2066,M,2.7,0136*4E
$GNGNS,020112.00,4742.1603073,N,01618.1002957,E,DAAA,40,0.4,707.9450,43.2066,,*53
$GPGNS,020112.00,,,,,,10,,,,2.7,136*7D
$GLGNS,020112.00,,,,,,08,,,,,*77
$GAGNS,020112.00,,,,,,08,,,,,*7A
$GBGNS,020112.00,,,,,,14,,,,,*74
$GPLLQ,020112.00,010125,,M,,M,1,40,0.864,,M*1F
$GPVTG,,T,,M,0.01,N,0.01,K,D*26
$GPHDT,,T*1B
$GPTHS,,V*0E
$GPROT,,V*08
$PSSN,HRP,020112.00,010125,,,,,,,00,0,,*61
$PTNL,AVR,020112.00,,Yaw,,Tilt,,,,0,,00*37
$GPGSA,A,3,02,03,04,06,09,17,19,21,28,31,,,0.8,0.4,0.6*37
$GPGSA,A,3,69,70,71,78,79,84,85,86,,,,,0.8,0.4,0.6*38
$GPGSA,A,3,04,05,06,09,10,11,34,36,,,,,0.8,0.4,0.6*35
$GPGSA,A,3,05,06,09,16,19,20,22,29,32,35,37,39,0.8,0.4,0.6*3D
$GPGSA,A,3,44,60,,,,,,,,,,,0.8,0.4,0.6*3E
$GPGST,020112.00,1.050,0.339,0.294,0.893,0.338,0.294,0.739*5D
$GPGBS,020112.00,1.804,1.653,5.000,71,0.0001,2.673,6.162*52
$GPGRS,020112.00,1,0.0,-0.0,-0.1,-0.3,-0.0,0.3,0.2,-0.1,0.3,0.0,,*62
$GPGRS,020112.00,1,-0.9,-0.5,2.7,-2.5,-0.0,-1.1,2.1,-1.5,,,,*47
$GPGRS,020112.00,1,0.2,0.2,0.1,0.3,-0.5,-0.1,-0.1,0.1,,,,*65
$GPGRS,020112.00,1,1.6,0.8,0.9,1.0,-0.6,-1.3,-0.3,-0.3,1.3,-1.0,1.6,-0.2*4B
$GPGRS,020112.00,1,0.2,-1.0,,,,,,,,,,*60
$GPGSV,5,1,20,03,73,053,50,21,19,153,38,06,22,313,40,28,22,046,40*73
$GPGSV,5,2,20,19,31,289,43,17,32,255,45,02,36,159,46,09,37,224,45*76
$GPGSV,5,3,20,31,34,074,45,01,41,149,,04,66,208,47,36,35,170,44*7A
$GPGSV,5,4,20,58,13,245,37,40,24,132,36,34,31,208,43,49,34,195,44*7A
$GPGSV,5,5,20,57,09,110,37,41,07,108,34,61,03,257,37*48
$GLGSV,2,1,08,85,69,238,53,86,32,324,48,78,14,026,45,79,14,077,44*61
$GLGSV,2,2,08,84,28,171,36,71,21,247,47,69,36,046,48,70,66,280,40*63
$GAGSV,3,1,09,36,79,263,48,10,15,142,39,05,25,220,42,18,21,293,*6D
$GAGSV,3,2,09,34,29,312,43,04,45,055,45,11,42,147,43,06,70,076,48*60
$GAGSV,3,3,09,09,77,181,49*5D
$GBGSV,5,1,18,48,83,318,,39,26,043,43,32,13,068,41,44,12,323,41*69
$GBGSV,5,2,18,37,16,094,42,16,32,052,43,05,24,128,38,29,37,201,47*67
$GBGSV,5,3,18,06,33,056,41,35,44,285,48,09,39,071,42,19,56,263,50*6B
$GBGSV,5,4,18,20,68,051,51,21,05,243,,22,05,253,39,46,01,143,*62
$GBGSV,5,5,18,02,08,105,35,60,09,110,39*6F
$GPGGA,020112.00,,,,,0,00,,,M,,M,,*48
$PTNL,GGK,020112.00,010125,4742.1603073,N,01618.1002957,E,1,40,0.8,EHT751.1516,M*45
$GPGGQ,020112.00,010125,4742.1603073,N,01618.1002957,E,1,40,0.864,707.9450,M*31
$GPGFA,020112.00,3.218,6.059,0.339,0.294,0.893,0.739,,VVV*08
$GPLLK,020112.00,010125,,M,,M,1,40,0.9,,M*06
$GNGMP,020112.00,,,,,DAAA,40,0.4,,,,*56
$GPGMP,020112.00,,,,,,10,,,,2.7,136*7D
$GLGMP,020112.00,,,,,,08,,,,,*77
$GAGMP,020112.00,,,,,,08,,,,,*7A
$GBGMP,020112.00,,,,,,14,,,,,*74
$PSSN,SNC,[0,266490000,2347]*4B
$GPZDA,020117.00,01,01,2025,,*66
$GPDTM,W84,,00.0000000,N,00.0000000,E,00.0000000,W84*5F
$PSSN,TFM,020117.00,,,,*6A
$GPRMC,020117.00,A,4742.1603088,N,01618.1002985,E,0.0,,010125,5.1,E,D*10
$GPGLL,4742.1603088,N,01618.1002985,E,020117.00,A,D*61
$GPGGA,020117.00,4742.1603088,N,01618.1002985,E,2,40,0.4,707.9471,M,43.2066,M,2.9,0136*4D
$GNGNS,020117.00,4742.1603088,N,01618.1002985,E,DAAA,40,0.4,707.9471,43.2066,,*5E
$GPGNS,020117.00,,,,,,10,,,,2.9,136*76
$GLGNS,020117.00,,,,,,08,,,,,*72
$GAGNS,020117.00,,,,,,08,,,,,*7F
$GBGNS,020117.00,,,,,,14,,,,,*71
$GPLLQ,020117.00,010125,,M,,M,1,40,0.879,,M*16
$GPVTG,,T,,M,0.00,N,0.01,K,D*27
$GPHDT,,T*1B
$GPTHS,,V*0E
$GPROT,,V*08
$PSSN,HRP,020117.00,010125,,,,,,,00,0,,*64
$PTNL,AVR,020117.00,,Yaw,,Tilt,,,,0,,00*32
$GPGSA,A,3,02,03,04,06,09,17,19,21,28,31,,,0.8,0.4,0.6*37
$GPGSA,A,3,69,70,71,78,79,84,85,86,,,,,0.8,0.4,0.6*38
$GPGSA,A,3,04,05,06,09,10,11,34,36,,,,,0.8,0.4,0.6*35
$GPGSA,A,3,05,06,09,16,19,20,22,29,32,35,37,39,0.8,0.4,0.6*3D
$GPGSA,A,3,44,60,,,,,,,,,,,0.8,0.4,0.6*3E
$GPGST,020117.00,0.845,0.343,0.297,359.082,0.343,0.297,0.753*5F
$GPGBS,020117.00,1.850,1.686,5.168,19,0.0001,0.447,0.817*55
$GPGRS,020117.00,1,-0.0,-0.2,-0.1,-0.0,0.2,-0.2,0.4,-0.5,0.0,0.2,,*4B
$GPGRS,020117.00,1,-1.1,0.1,1.4,-1.5,0.6,-1.3,1.9,-1.3,,,,*45
$GPGRS,020117.00,1,0.2,0.3,0.3,0.3,-0.1,-0.1,-0.1,0.0,,,,*66
$GPGRS,020117.00,1,1.3,0.8,1.0,0.8,-0.5,-1.4,0.6,-0.3,1.1,-0.6,1.1,-0.4*62
$GPGRS,020117.00,1,-0.1,-0.8,,,,,,,,,,*42
$GPGSV,5,1,20,03,73,053,50,21,19,153,37,06,22,313,40,28,22,046,40*7C
$GPGSV,5,2,20,19,31,289,44,17,32,255,45,02,36,159,46,09,37,224,45*71
$GPGSV,5,3,20,31,34,074,45,01,41,149,,04,66,208,47,36,35,170,44*7A
$GPGSV,5,4,20,58,13,245,37,40,24,132,36,34,31,208,43,49,34,195,44*7A
$GPGSV,5,5,20,57,09,110,36,41,07,108,34,61,03,257,37*49
$GLGSV,2,1,08,85,69,238,53,86,32,324,48,78,14,026,44,79,14,077,45*61
$GLGSV,2,2,08,84,28,171,36,71,21,247,47,69,36,046,49,70,66,280,41*63
$GAGSV,3,1,09,36,79,262,48,10,15,142,39,05,25,220,42,18,21,293,*6C
$GAGSV,3,2,09,34,29,312,43,04,45,055,45,11,42,148,43,06,70,075,49*6D
$GAGSV,3,3,09,09,77,181,49*5D
$GBGSV,5,1,18,48,83,318,,39,25,043,43,32,13,068,42,44,12,323,40*68
$GBGSV,5,2,18,37,16,094,42,16,32,052,43,05,24,128,38,29,37,201,47*67
$GBGSV,5,3,18,06,33,056,41,35,44,285,48,09,39,071,42,19,56,263,50*6B
$GBGSV,5,4,18,20,68,051,52,21,05,243,,22,05,253,40,46,01,143,*6F
$GBGSV,5,5,18,02,08,105,35,60,09,110,39*6F
$GPGGA,020117.00,,,,,0,00,,,M,,M,,*4D
$PTNL,GGK,020117.00,010125,4742.1603088,N,01618.1002985,E,1,40,0.8,EHT751.1537,M*48
$GPGGQ,020117.00,010125,4742.1603088,N,01618.1002985,E,1,40,0.879,707.9471,M*30
$GPGFA,020117.00,3.262,6.172,0.343,0.297,359.082,0.753,,VVV*0D
$GPLLK,020117.00,010125,,M,,M,1,40,0.9,,M*03
$GNGMP,020117.00,,,,,DAAA,40,0.4,,,,*53
$GPGMP,020117.00,,,,,,10,,,,2.9,136*76
$GLGMP,020117.00,,,,,,08,,,,,*72
$GAGMP,020117.00,,,,,,08,,,,,*7F
$GBGMP,020117.00,,,,,,14,,,,,*71
$PSSN,SNC,[0,266495000,2347]*4E
$GPZDA,020122.00,01,01,2025,,*60
$GPDTM,W84,,00.0000000,N,00.0000000,E,00.0000000,W84*5F
$PSSN,TFM,020122.00,,,,*6C
$GPRMC,020122.00,A,4742.1603050,N,01618.1003016,E,0.0,,010125,5.1,E,D*11
$GPGLL,4742.1603050,N,01618.1003016,E,020122.00,A,D*60
$GPGGA,020122.00,4742.1603050,N,01618.1003016,E,2,40,0.4,707.9518,M,43.2066,M,2.7,0136*4C
$GNGNS,020122.00,4742.1603050,N,01618.1003016,E,DAAA,40,0.4,707.9518,43.2066,,*51
$GPGNS,020122.00,,,,,,10,,,,2.7,136*7E
$GLGNS,020122.00,,,,,,08,,,,,*74
$GAGNS,020122.00,,,,,,08,,,,,*79
$GBGNS,020122.00,,,,,,14,,,,,*77
$GPLLQ,020122.00,010125,,M,,M,1,40,0.889,,M*1F
$GPVTG,,T,,M,0.00,N,0.00,K,D*26
$GPHDT,,T*1B
$GPTHS,,V*0E
$GPROT,,V*08
$PSSN,HRP,020122.00,010125,,,,,,,00,0,,*62
$PTNL,AVR,020122.00,,Yaw,,Tilt,,,,0,,00*34
$GPGSA,A,3,02,03,04,06,09,17,19,21,28,31,,,0.8,0.4,0.6*37
$GPGSA,A,3,69,70,71,78,79,84,85,86,,,,,0.8,0.4,0.6*38
$GPGSA,A,3,04,05,06,09,10,11,34,36,,,,,0.8,0.4,0.6*35
$GPGSA,A,3,05,06,09,16,19,20,22,29,32,35,37,39,0.8,0.4,0.6*3D
$GPGSA,A,3,44,60,,,,,,,,,,,0.8,0.4,0.6*3E
$GPGST,020122.00,0.850,0.346,0.295,358.069,0.346,0.296,0.763*59
$GPGBS,020122.00,1.798,1.671,5.213,17,0.0001,0.370,0.734*5C
$GPGRS,020122.00,1,-0.2,-0.1,-0.2,-0.3,-0.1,0.4,0.3,-0.3,0.4,0.4,,*4A
$GPGRS,020122.00,1,-0.6,-1.1,1.0,-2.2,1.2,-0.0,1.6,-1.2,,,,*60
$GPGRS,020122.00,1,0.1,-0.2,-0.0,0.1,-0.3,-0.2,-0.2,-0.0,,,,*4C
$GPGRS,020122.00,1,1.2,1.2,0.5,0.8,-0.4,-1.5,-0.6,-0.1,0.6,-1.0,0.9,-0.5*4C
