$GPZDA,152942.00,01,01,2025,,*6A
$GPDTM,W84,,00.0000000,N,00.0000000,E,00.0000000,W84*5F
$PSSN,TFM,152942.00,,,,*66
$GPRMC,152942.00,A,4742.1604555,N,01618.1010572,E,0.0,,010125,5.1,E,D*19
$GPGLL,4742.1604555,N,01618.1010572,E,152942.00,A,D*68
$GPGGA,152942.00,4742.1604555,N,01618.1010572,E,2,40,0.4,708.3822,M,43.2065,M,2.4,0136*45
$GNGNS,152942.00,4742.1604555,N,01618.1010572,E,DAAA,40,0.4,708.3822,43.2065,,*5B
$GPGNS,152942.00,,,,,,10,,,,2.4,136*77
$GLGNS,152942.00,,,,,,08,,,,,*7E
$GAGNS,152942.00,,,,,,08,,,,,*73
$GBGNS,152942.00,,,,,,14,,,,,*7D
$GPLLQ,152942.00,010125,,M,,M,1,40,1.288,,M*1F
$GPVTG,,T,,M,0.01,N,0.01,K,D*26
$GPHDT,,T*1B
$GPTHS,,V*0E
$GPROT,,V*08
$PSSN,HRP,152942.00,010125,,,,,,,00,0,,*68
$PTNL,AVR,152942.00,,Yaw,,Tilt,,,,0,,00*3E
$GPGSA,A,3,05,11,12,18,20,25,26,28,29,31,,,0.7,0.4,0.6*3A
$GPGSA,A,3,71,78,79,80,81,82,87,88,,,,,0.7,0.4,0.6*34
$GPGSA,A,3,15,19,21,27,29,30,34,36,,,,,0.7,0.4,0.6*37
$GPGSA,A,3,05,08,10,11,12,13,23,24,25,34,38,43,0.7,0.4,0.6*31
$GPGSA,A,3,44,60,,,,,,,,,,,0.7,0.4,0.6*31
$GPGST,152942.00,1.507,0.692,0.447,10.496,0.686,0.458,0.989*64
$GPGBS,152942.00,5.511,2.272,5.361,11,0.0001,-1.272,1.372*7F
$GPGRS,152942.00,1,-0.1,-1.3,0.3,-0.5,0.6,0.1,-0.1,-0.2,0.2,0.4,,*6D
$GPGRS,152942.00,1,2.6,-0.8,1.3,-4.2,3.8,0.4,-4.0,0.1,,,,*68
$GPGRS,152942.00,1,0.5,-1.2,0.6,-0.1,0.4,0.2,0.7,-1.6,,,,*6D
$GPGRS,152942.00,1,1.1,-0.1,0.0,1.4,1.2,-0.8,-0.5,-0.1,-0.8,-0.4,-1.1,-0.3*43
$GPGRS,152942.00,1,-0.5,-1.3,,,,,,,,,,*40
$GPGSV,6,1,21,29,80,257,51,18,19,186,43,26,16,297,40,11,26,047,43*78
$GPGSV,6,2,21,12,27,107,44,20,18,074,42,31,35,305,46,28,53,274,47*7E
$GPGSV,6,3,21,25,68,106,49,04,00,347,36,05,09,107,39,32,03,238,39*7C
$GPGSV,6,4,21,36,35,170,45,58,13,245,36,40,23,133,37,34,31,208,44*7A
$GPGSV,6,5,21,49,34,195,45,57,05,113,37,41,07,108,35,61,03,257,38*7D
$GPGSV,6,6,21*7A
$GLGSV,3,1,09,79,66,326,52,88,61,048,51,80,13,316,46,81,56,197,52*61
$GLGSV,3,2,09,78,55,127,52,70,08,318,32,82,09,207,43,87,05,032,38*64
$GLGSV,3,3,09,71,08,002,42*56
$GAGSV,3,1,10,27,70,307,49,29,15,258,40,15,45,155,47,21,17,292,40*6B
$GAGSV,3,2,10,34,48,071,47,19,16,303,35,30,53,101,48,13,05,191,32*69
$GAGSV,3,3,10,02,02,108,29,36,10,032,37*6A
$GBGSV,5,1,20,34,78,161,51,56,15,062,,05,20,130,39,28,20,207,*66
$GBGSV,5,2,20,13,24,089,41,38,24,065,43,24,30,143,46,08,25,080,39*6B
$GBGSV,5,3,20,43,34,218,46,23,36,305,46,44,36,055,47,31,39,079,*66
$GBGSV,5,4,20,11,56,204,49,12,62,064,48,25,77,214,51,02,05,108,34*64
$GBGSV,5,5,20,20,01,297,,10,10,077,35,19,03,340,,60,09,110,39*69
$GPGGA,152942.00,,,,,0,00,,,M,,M,,*41
$PTNL,GGK,152942.00,010125,4742.1604555,N,01618.1010572,E,1,40,0.7,EHT751.5888,M*43
$GPGGQ,152942.00,010125,4742.1604555,N,01618.1010572,E,1,40,1.288,708.3822,M*33
$GPGFA,152942.00,6.583,8.113,0.692,0.447,10.496,0.989,,VVV*31
$GPLLK,152942.00,010125,,M,,M,1,40,0.8,,M*0E
$GNGMP,152942.00,,,,,DAAA,40,0.4,,,,*5F
$GPGMP,152942.00,,,,,,10,,,,2.4,136*77
$GLGMP,152942.00,,,,,,08,,,,,*7E
$GAGMP,152942.00,,,,,,08,,,,,*73
$GBGMP,152942.00,,,,,,14,,,,,*7D
$PSSN,SNC,[0,315000000,2347]*43
$GPZDA,152947.00,01,01,2025,,*6F
$GPDTM,W84,,00.0000000,N,00.0000000,E,00.0000000,W84*5F
$PSSN,TFM,152947.00,,,,*63
$GPRMC,152947.00,A,4742.1604568,N,01618.1010578,E,0.0,,010125,5.1,E,D*18
$GPGLL,4742.1604568,N,01618.1010578,E,152947.00,A,D*69
$GPGGA,152947.00,4742.1604568,N,01618.1010578,E,2,39,0.4,708.3816,M,43.2065,M,2.1,0136*48
$GNGNS,152947.00,4742.1604568,N,01618.1010578,E,DAAA,39,0.4,708.3816,43.2065,,*53
$GPGNS,152947.00,,,,,,10,,,,2.1,136*77
$GLGNS,152947.00,,,,,,08,,,,,*7B
$GAGNS,152947.00,,,,,,08,,,,,*76
$GBGNS,152947.00,,,,,,13,,,,,*7F
$GPLLQ,152947.00,010125,,M,,M,1,39,1.289,,M*15
$GPVTG,,T,,M,0.00,N,0.01,K,D*27
$GPHDT,,T*1B
$GPTHS,,V*0E
$GPROT,,V*08
$PSSN,HRP,152947.00,010125,,,,,,,00,0,,*6D
$PTNL,AVR,152947.00,,Yaw,,Tilt,,,,0,,00*3B
$GPGSA,A,3,05,11,12,18,20,25,26,28,29,31,,,0.7,0.4,0.6*3A
$GPGSA,A,3,71,78,79,80,81,82,87,88,,,,,0.7,0.4,0.6*34
$GPGSA,A,3,15,19,21,27,29,30,34,36,,,,,0.7,0.4,0.6*37
$GPGSA,A,3,05,08,11,12,13,23,24,25,34,38,43,44,0.7,0.4,0.6*30
$GPGSA,A,3,60,,,,,,,,,,,,0.7,0.4,0.6*31
$GPGST,152947.00,1.395,0.692,0.447,10.657,0.685,0.457,0.992*65
$GPGBS,152947.00,5.527,2.269,5.347,11,0.0001,-0.797,1.380*73
$GPGRS,152947.00,1,0.2,-0.8,0.1,-0.2,0.4,0.1,0.0,-0.1,0.1,0.2,,*61
$GPGRS,152947.00,1,1.3,-0.7,1.0,-3.8,3.5,1.1,-3.7,0.2,,,,*60
$GPGRS,152947.00,1,0.4,-0.7,1.2,-0.1,0.6,0.2,0.6,-1.7,,,,*6A
$GPGRS,152947.00,1,1.1,0.5,2.0,1.0,-0.6,-0.7,0.1,-0.7,-0.2,-0.9,-0.4,-0.4*65
$GPGRS,152947.00,1,-1.5,,,,,,,,,,,*45
$GPGSV,6,1,21,29,80,257,50,18,19,186,43,26,16,297,40,11,26,047,44*7E
$GPGSV,6,2,21,12,27,107,43,20,18,074,42,31,35,305,46,28,53,274,47*79
$GPGSV,6,3,21,25,68,106,49,04,00,347,37,05,09,107,40,32,03,238,40*7D
$GPGSV,6,4,21,36,35,170,45,58,13,245,36,40,23,133,37,34,31,208,43*7D
$GPGSV,6,5,21,49,34,195,45,57,05,113,37,41,07,108,35,61,03,257,38*7D
$GPGSV,6,6,21*7A
$GLGSV,3,1,09,79,66,326,52,88,61,048,51,80,13,316,45,81,56,197,52*62
$GLGSV,3,2,09,78,55,127,52,70,08,317,33,82,09,207,44,87,05,032,39*6C
$GLGSV,3,3,09,71,08,002,42*56
$GAGSV,3,1,10,27,70,307,48,29,15,258,40,15,45,155,47,21,17,292,41*6B
$GAGSV,3,2,10,34,48,071,47,19,16,303,35,30,53,101,48,13,05,191,33*68
$GAGSV,3,3,10,02,02,108,29,36,10,032,36*6B
$GBGSV,5,1,20,34,79,161,51,56,15,062,,05,20,130,39,28,20,207,*67
$GBGSV,5,2,20,13,24,089,41,38,24,065,42,24,30,143,46,08,25,080,39*6A
$GBGSV,5,3,20,43,34,218,46,23,36,305,46,44,36,054,46,31,39,079,*66
$GBGSV,5,4,20,11,56,204,49,12,62,064,48,25,77,214,51,02,05,108,34*64
$GBGSV,5,5,20,20,01,296,,10,10,077,35,19,03,340,,60,09,110,39*68
$GPGGA,152947.00,,,,,0,00,,,M,,M,,*44
$PTNL,GGK,152947.00,010125,4742.1604568,N,01618.1010578,E,1,39,0.7,EHT751.5882,M*46
$GPGGQ,152947.00,010125,4742.1604568,N,01618.1010578,E,1,39,1.289,708.3816,M*3A
$GPGFA,152947.00,6.583,8.130,0.692,0.447,10.657,0.992,,VVV*30
$GPLLK,152947.00,010125,,M,,M,1,39,0.8,,M*05
$GNGMP,152947.00,,,,,DAAA,39,0.4,,,,*54
$GPGMP,152947.00,,,,,,10,,,,2.1,136*77
$GLGMP,152947.00,,,,,,08,,,,,*7B
$GAGMP,152947.00,,,,,,08,,,,,*76
$GBGMP,152947.00,,,,,,13,,,,,*7F
$PSSN,SNC,[0,315005000,2347]*46
$GPZDA,152952.00,01,01,2025,,*6B
$GPDTM,W84,,00.0000000,N,00.0000000,E,00.0000000,W84*5F
$PSSN,TFM,152952.00,,,,*67
$GPRMC,152952.00,A,4742.1604565,N,01618.1010582,E,0.0,,010125,5.1,E,D*14
$GPGLL,4742.1604565,N,01618.1010582,E,152952.00,A,D*65
$GPGGA,152952.00,4742.1604565,N,01618.1010582,E,2,40,0.4,708.3795,M,43.2065,M,3.1,0136*4F
$GNGNS,152952.00,4742.1604565,N,01618.1010582,E,DAAA,40,0.4,708.3795,43.2065,,*55
$GPGNS,152952.00,,,,,,10,,,,3.1,136*72
$GLGNS,152952.00,,,,,,08,,,,,*7F
$GAGNS,152952.00,,,,,,08,,,,,*72
$GBGNS,152952.00,,,,,,14,,,,,*7C
$GPLLQ,152952.00,010125,,M,,M,1,40,1.289,,M*1F
$GPVTG,,T,,M,0.01,N,0.01,K,D*26
$GPHDT,,T*1B
$GPTHS,,V*0E
$GPROT,,V*08
$PSSN,HRP,152952.00,010125,,,,,,,00,0,,*69
$PTNL,AVR,152952.00,,Yaw,,Tilt,,,,0,,00*3F
$GPGSA,A,3,05,11,12,18,20,25,26,28,29,31,,,0.7,0.4,0.6*3A
$GPGSA,A,3,71,78,79,80,81,82,87,88,,,,,0.7,0.4,0.6*34
$GPGSA,A,3,15,19,21,27,29,30,34,36,,,,,0.7,0.4,0.6*37
$GPGSA,A,3,05,08,10,11,12,13,23,24,25,34,38,43,0.7,0.4,0.6*31
$GPGSA,A,3,44,60,,,,,,,,,,,0.7,0.4,0.6*31
$GPGST,152952.00,1.418,0.694,0.446,10.759,0.687,0.457,0.991*6A
$GPGBS,152952.00,5.547,2.269,5.392,11,0.0001,-1.179,1.389*77
$GPGRS,152952.00,1,-0.2,-1.2,0.2,-1.0,0.3,0.0,-0.3,-0.2,0.3,0.6,,*6E
$GPGRS,152952.00,1,1.2,-0.8,1.3,-4.5,3.5,1.0,-3.1,0.3,,,,*65
$GPGRS,152952.00,1,0.1,-0.8,0.8,0.0,0.2,0.4,0.7,-1.6,,,,*41
$GPGRS,152952.00,1,1.5,-0.3,0.6,1.7,1.3,-0.3,-0.4,0.1,-0.8,-0.3,-0.9,-0.0*6A
$GPGRS,152952.00,1,-0.6,-1.5,,,,,,,,,,*44
$GPGSV,6,1,21,29,80,257,51,18,19,186,42,26,16,297,40,11,26,047,43*79
$GPGSV,6,2,21,12,27,107,43,20,18,074,42,31,35,305,46,28,53,274,48*76
$GPGSV,6,3,21,25,68,106,49,04,00,347,37,05,09,107,39,32,03,238,39*7D
$GPGSV,6,4,21,36,35,170,45,58,13,245,36,40,23,133,37,34,31,208,43*7D
$GPGSV,6,5,21,49,34,195,45,57,05,113,37,41,07,108,35,61,03,257,38*7D
$GPGSV,6,6,21*7A
$GLGSV,3,1,09,79,66,326,52,88,61,048,51,80,13,316,45,81,56,197,52*62
$GLGSV,3,2,09,78,55,127,52,70,08,317,33,82,09,207,44,87,05,032,39*6C
$GLGSV,3,3,09,71,08,002,41*55
$GAGSV,3,1,10,27,70,307,48,29,15,258,39,15,45,155,46,21,17,292,40*65
$GAGSV,3,2,10,34,48,071,46,19,16,303,35,30,53,101,48,13,05,191,33*69
$GAGSV,3,3,10,02,02,108,29,36,10,032,36*6B
$GBGSV,5,1,20,34,79,161,51,56,15,062,,05,20,130,39,28,20,207,*67
$GBGSV,5,2,20,13,24,089,41,38,24,065,42,24,30,143,45,08,25,080,39*69
$GBGSV,5,3,20,43,34,218,46,23,36,305,46,44,36,054,46,31,39,079,*66
$GBGSV,5,4,20,11,56,204,49,12,62,064,48,25,77,213,51,02,05,108,34*63
$GBGSV,5,5,20,20,01,296,,10,10,077,35,19,03,340,,60,09,109,39*60
$GPGGA,152952.00,,,,,0,00,,,M,,M,,*40
$PTNL,GGK,152952.00,010125,4742.1604565,N,01618.1010582,E,1,40,0.7,EHT751.5860,M*48
$GPGGQ,152952.00,010125,4742.1604565,N,01618.1010582,E,1,40,1.289,708.3795,M*3C
$GPGFA,152952.00,6.598,8.126,0.694,0.446,10.759,0.991,,VVV*32
$GPLLK,152952.00,010125,,M,,M,1,40,0.8,,M*0F
$GNGMP,152952.00,,,,,DAAA,40,0.4,,,,*5E
$GPGMP,152952.00,,,,,,10,,,,3.1,136*72
$GLGMP,152952.00,,,,,,08,,,,,*7F
$GAGMP,152952.00,,,,,,08,,,,,*72
$GBGMP,152952.00,,,,,,14,,,,,*7C
$PSSN,SNC,[0,315010000,2347]*42
$GPZDA,152957.00,01,01,2025,,*6E
$GPDTM,W84,,00.0000000,N,00.0000000,E,00.0000000,W84*5F
$PSSN,TFM,152957.00,,,,*62
$GPRMC,152957.00,A,4742.1604583,N,01618.1010601,E,0.0,,010125,5.1,E,D*11
$GPGLL,4742.1604583,N,01618.1010601,E,152957.00,A,D*60
$GPGGA,152957.00,4742.1604583,N,01618.1010601,E,2,39,0.4,708.3706,M,43.2065,M,2.3,0136*4D
$GNGNS,152957.00,4742.1604583,N,01618.1010601,E,DAAA,39,0.4,708.3706,43.2065,,*54
$GPGNS,152957.00,,,,,,10,,,,2.3,136*74
$GLGNS,152957.00,,,,,,08,,,,,*7A
$GAGNS,152957.00,,,,,,07,,,,,*78
$GBGNS,152957.00,,,,,,14,,,,,*79
$GPLLQ,152957.00,010125,,M,,M,1,39,1.295,,M*19
$GPVTG,,T,,M,0.01,N,0.01,K,D*26
$GPHDT,,T*1B
$GPTHS,,V*0E
$GPROT,,V*08
$PSSN,HRP,152957.00,010125,,,,,,,00,0,,*6C
$PTNL,AVR,152957.00,,Yaw,,Tilt,,,,0,,00*3A
$GPGSA,A,3,05,11,12,18,20,25,26,28,29,31,,,0.7,0.4,0.6*3A
$GPGSA,A,3,71,78,79,80,81,82,87,88,,,,,0.7,0.4,0.6*34
$GPGSA,A,3,15,21,27,29,30,34,36,,,,,,0.7,0.4,0.6*3F
$GPGSA,A,3,05,08,10,11,12,13,23,24,25,34,38,43,0.7,0.4,0.6*31
$GPGSA,A,3,44,60,,,,,,,,,,,0.7,0.4,0.6*31
$GPGST,152957.00,1.513,0.695,0.450,10.445,0.688,0.460,0.996*61
$GPGBS,152957.00,5.543,2.289,5.336,18,0.0001,-1.465,1.586*7E
$GPGRS,152957.00,1,-0.6,-0.9,0.4,-1.5,0.2,0.0,0.4,-0.1,0.4,0.2,,*4D
$GPGRS,152957.00,1,1.3,-0.8,1.6,-4.3,3.5,1.0,-4.1,0.3,,,,*65
$GPGRS,152957.00,1,-0.1,0.7,-0.1,0.1,0.2,0.6,-1.7,,,,,*44
$GPGRS,152957.00,1,1.4,-0.6,0.8,1.5,1.4,-0.1,-0.5,0.0,-0.8,-0.3,-0.8,0.1*4F
$GPGRS,152957.00,1,-0.6,-1.4,,,,,,,,,,*40
$GPGSV,6,1,21,29,80,257,51,18,19,186,42,26,16,297,40,11,26,047,43*79
$GPGSV,6,2,21,12,27,107,43,20,18,074,41,31,35,305,46,28,53,274,47*7A
$GPGSV,6,3,21,25,68,106,50,04,00,347,36,05,09,107,39,32,03,238,39*74
$GPGSV,6,4,21,36,35,170,45,58,13,245,36,40,23,133,37,34,31,208,43*7D
$GPGSV,6,5,21,49,34,195,45,57,05,113,37,41,07,108,34,61,03,257,38*7C
$GPGSV,6,6,21*7A
$GLGSV,3,1,09,79,66,326,52,88,61,048,51,80,13,316,45,81,56,197,52*62
$GLGSV,3,2,09,78,55,127,52,70,07,317,34,82,09,207,44,87,05,032,39*64
$GLGSV,3,3,09,71,08,002,42*56
$GAGSV,3,1,10,27,70,307,48,29,15,258,40,15,45,155,46,21,17,292,39*65
$GAGSV,3,2,10,34,48,071,46,19,16,303,35,30,53,101,47,13,05,191,33*66
$GAGSV,3,3,10,02,02,108,28,36,10,032,36*6A
$GBGSV,5,1,20,34,79,161,51,56,15,062,,05,20,130,39,28,21,207,*66
$GBGSV,5,2,20,13,24,089,41,38,24,065,42,24,29,143,45,08,25,080,39*61
$GBGSV,5,3,20,43,34,218,46,23,36,305,46,44,36,054,47,31,39,079,*67
$GBGSV,5,4,20,11,56,204,49,12,62,064,47,25,77,213,51,02,05,108,34*6C
$GBGSV,5,5,20,20,01,296,,10,10,077,35,19,03,340,,60,09,109,39*60
$GPGGA,152957.00,,,,,0,00,,,M,,M,,*45
$PTNL,GGK,152957.00,010125,4742.1604583,N,01618.1010601,E,1,39,0.7,EHT751.5772,M*4F
$GPGGQ,152957.00,010125,4742.1604583,N,01618.1010601,E,1,39,1.295,708.3706,M*30
$GPGFA,152957.00,6.606,8.164,0.695,0.450,10.445,0.996,,VVV*3A
$GPLLK,152957.00,010125,,M,,M,1,39,0.8,,M*04
$GNGMP,152957.00,,,,,DAAA,39,0.4,,,,*55
$GPGMP,152957.00,,,,,,10,,,,2.3,136*74
$GLGMP,152957.00,,,,,,08,,,,,*7A
$GAGMP,152957.00,,,,,,07,,,,,*78
$GBGMP,152957.00,,,,,,14,,,,,*79
$PSSN,SNC,[0,315015000,2347]*47
$GPZDA,153002.00,01,01,2025,,*66
$GPDTM,W84,,00.0000000,N,00.0000000,E,00.0000000,W84*5F
$PSSN,TFM,153002.00,,,,*6A
$GPRMC,153002.00,A,4742.1604580,N,01618.1010587,E,0.0,,010125,5.1,E,D*17
$GPGLL,4742.1604580,N,01618.1010587,E,153002.00,A,D*66
$GPGGA,153002.00,4742.1604580,N,01618.1010587,E,2,40,0.4,708.3630,M,43.2065,M,2.4,0136*46
$GNGNS,153002.00,4742.1604580,N,01618.1010587,E,DAAA,40,0.4,708.3630,43.2065,,*58
$GPGNS,153002.00,,,,,,10,,,,2.4,136*7B
$GLGNS,153002.00,,,,,,08,,,,,*72
$GAGNS,153002.00,,,,,,08,,,,,*7F
$GBGNS,153002.00,,,,,,14,,,,,*71
$GPLLQ,153002.00,010125,,M,,M,1,40,1.287,,M*1C
$GPVTG,,T,,M,0.01,N,0.01,K,D*26
$GPHDT,,T*1B
$GPTHS,,V*0E
$GPROT,,V*08
$PSSN,HRP,153002.00,010125,,,,,,,00,0,,*64
$PTNL,AVR,153002.00,,Yaw,,Tilt,,,,0,,00*32
$GPGSA,A,3,05,11,12,18,20,25,26,28,29,31,,,0.7,0.4,0.6*3A
$GPGSA,A,3,71,78,79,80,81,82,87,88,,,,,0.7,0.4,0.6*34
$GPGSA,A,3,15,19,21,27,29,30,34,36,,,,,0.7,0.4,0.6*37
$GPGSA,A,3,05,08,10,11,12,13,23,24,25,34,38,43,0.7,0.4,0.6*31
$GPGSA,A,3,44,60,,,,,,,,,,,0.7,0.4,0.6*31
$GPGST,153002.00,1.462,0.691,0.447,10.541,0.685,0.457,0.989*6E
$GPGBS,153002.00,5.506,2.269,5.344,11,0.0001,-1.063,1.376*7E
$GPGRS,153002.00,1,-0.8,-1.1,0.5,-1.0,0.4,0.4,0.6,-0.4,0.2,0.3,,*44
$GPGRS,153002.00,1,1.8,-0.6,1.1,-3.5,3.7,0.5,-4.3,0.3,,,,*6A
$GPGRS,153002.00,1,0.2,-1.3,0.5,-0.1,0.2,0.3,0.9,-1.9,,,,*62
$GPGRS,153002.00,1,1.5,-0.9,0.1,1.5,1.0,0.1,-0.2,0.0,-0.9,-0.3,-0.8,0.2*6C
$GPGRS,153002.00,1,-0.4,-1.8,,,,,,,,,,*46
$GPGSV,6,1,21,29,80,257,51,18,19,186,42,26,16,297,40,11,26,047,43*79
$GPGSV,6,2,21,12,27,107,44,20,18,074,41,31,35,305,46,28,53,274,47*7D
$GPGSV,6,3,21,25,68,106,50,04,00,347,36,05,09,107,39,32,03,238,39*74
$GPGSV,6,4,21,36,35,170,45,58,13,245,36,40,23,133,37,34,31,208,43*7D
$GPGSV,6,5,21,49,34,195,45,57,05,113,37,41,07,108,34,61,03,257,38*7C
$GPGSV,6,6,21*7A
$GLGSV,3,1,09,79,66,326,52,88,61,048,51,80,13,316,46,81,56,197,53*60
$GLGSV,3,2,09,78,55,127,52,70,07,317,34,82,09,207,44,87,05,032,38*65
$GLGSV,3,3,09,71,08,002,42*56
$GAGSV,3,1,10,27,70,307,48,29,15,258,40,15,45,155,47,21,17,292,40*6A
$GAGSV,3,2,10,34,48,071,46,19,16,303,35,30,53,101,47,13,05,191,33*66
$GAGSV,3,3,10,02,02,108,28,36,10,032,36*6A
$GBGSV,5,1,20,34,79,161,51,56,15,062,,05,20,130,39,28,21,207,*66
$GBGSV,5,2,20,13,24,089,41,38,24,065,42,24,29,143,46,08,25,080,39*62
$GBGSV,5,3,20,43,34,218,47,23,36,305,46,44,36,054,47,31,39,079,*66
$GBGSV,5,4,20,11,56,204,49,12,62,064,48,25,77,213,51,02,05,108,34*63
$GBGSV,5,5,20,20,01,296,,10,10,077,35,19,03,340,,60,09,109,39*60
$GPGGA,153002.00,,,,,0,00,,,M,,M,,*4D
$PTNL,GGK,153002.00,010125,4742.1604580,N,01618.1010587,E,1,40,0.7,EHT751.5695,M*4F
$GPGGQ,153002.00,010125,4742.1604580,N,01618.1010587,E,1,40,1.287,708.3630,M*3F
$GPGFA,153002.00,6.573,8.111,0.691,0.447,10.541,0.989,,VVV*38
$GPLLK,153002.00,010125,,M,,M,1,40,0.8,,M*02
$GNGMP,153002.00,,,,,DAAA,40,0.4,,,,*53
$GPGMP,153002.00,,,,,,10,,,,2.4,136*7B
$GLGMP,153002.00,,,,,,08,,,,,*72
$GAGMP,153002.00,,,,,,08,,,,,*7F
$GBGMP,153002.00,,,,,,14,,,,,*71
$PSSN,SNC,[0,315020000,2347]*41
$GPZDA,153007.00,01,01,2025,,*63
$GPDTM,W84,,00.0000000,N,00.0000000,E,00.0000000,W84*5F
$PSSN,TFM,153007.00,,,,*6F
$GPRMC,153007.00,A,4742.1604590,N,01618.1010599,E,0.0,,010125,5.1,E,D*1C
$GPGLL,4742.1604590,N,01618.1010599,E,153007.00,A,D*6D
$GPGGA,153007.00,4742.1604590,N,01618.1010599,E,2,39,0.4,708.3585,M,43.2065,M,2.1,0136*4B
$GNGNS,153007.00,4742.1604590,N,01618.1010599,E,DAAA,39,0.4,708.3585,43.2065,,*50
$GPGNS,153007.00,,,,,,10,,,,2.1,136*7B
$GLGNS,153007.00,,,,,,08,,,,,*77
$GAGNS,153007.00,,,,,,07,,,,,*75
$GBGNS,153007.00,,,,,,14,,,,,*74
$GPLLQ,153007.00,010125,,M,,M,1,39,1.291,,M*10
$GPVTG,,T,,M,0.00,N,0.01,K,D*27
$GPHDT,,T*1B
$GPTHS,,V*0E
$GPROT,,V*08
$PSSN,HRP,153007.00,010125,,,,,,,00,0,,*61
$PTNL,AVR,153007.00,,Yaw,,Tilt,,,,0,,00*37
$GPGSA,A,3,05,11,12,18,20,25,26,28,29,31,,,0.7,0.4,0.6*3A
$GPGSA,A,3,71,78,79,80,81,82,87,88,,,,,0.7,0.4,0.6*34
$GPGSA,A,3,15,21,27,29,30,34,36,,,,,,0.7,0.4,0.6*3F
$GPGSA,A,3,05,08,10,11,12,13,23,24,25,34,38,43,0.7,0.4,0.6*31
$GPGSA,A,3,44,60,,,,,,,,,,,0.7,0.4,0.6*31
$GPGST,153007.00,1.409,0.692,0.448,10.507,0.685,0.459,0.993*6D
$GPGBS,153007.00,5.518,2.275,5.377,11,0.0001,-1.501,1.383*72
$GPGRS,153007.00,1,-0.2,-1.5,0.2,-0.4,0.1,-0.1,0.8,0.0,0.2,0.7,,*43
$GPGRS,153007.00,1,1.6,-1.0,1.0,-2.7,3.7,0.8,-4.3,0.2,,,,*68
$GPGRS,153007.00,1,0.1,0.8,-0.2,0.3,-0.1,0.8,-1.9,,,,,*44
$GPGRS,153007.00,1,1.0,-0.3,-0.3,1.7,0.8,0.1,0.0,0.1,-0.8,-0.4,-0.7,-0.1*4B
$GPGRS,153007.00,1,-0.6,-1.8,,,,,,,,,,*41
$GPGSV,6,1,21,29,80,258,50,18,19,186,41,26,16,297,40,11,26,047,43*74
$GPGSV,6,2,21,12,27,107,44,20,18,074,41,31,36,305,46,28,53,274,47*7E
$GPGSV,6,3,21,25,68,106,50,04,00,347,35,05,09,107,40,32,03,238,38*78
$GPGSV,6,4,21,36,35,170,45,58,13,245,36,40,23,133,37,34,31,208,43*7D
$GPGSV,6,5,21,49,34,195,45,57,05,113,37,41,07,108,35,61,03,257,39*7C
$GPGSV,6,6,21*7A
$GLGSV,3,1,09,79,66,326,52,88,61,048,51,80,13,316,46,81,56,197,52*61
$GLGSV,3,2,09,78,55,127,52,70,07,317,34,82,09,207,43,87,05,032,38*62
$GLGSV,3,3,09,71,08,002,43*57
$GAGSV,3,1,10,27,70,307,48,29,15,258,40,15,45,155,47,21,17,292,40*6A
$GAGSV,3,2,10,34,48,071,46,19,16,303,35,30,53,101,47,13,05,191,33*66
$GAGSV,3,3,10,02,02,108,27,36,10,032,36*65
$GBGSV,5,1,20,34,79,160,51,56,15,062,,05,20,130,40,28,21,207,*69
$GBGSV,5,2,20,13,24,089,42,38,24,065,43,24,29,143,46,08,25,080,39*60
$GBGSV,5,3,20,43,34,218,47,23,36,305,46,44,36,054,47,31,39,079,*66
$GBGSV,5,4,20,11,56,204,49,12,62,064,48,25,77,213,52,02,05,108,34*60
$GBGSV,5,5,20,20,01,296,,10,10,077,36,19,03,340,,60,09,109,39*63
$GPGGA,153007.00,,,,,0,00,,,M,,M,,*48
$PTNL,GGK,153007.00,010125,4742.1604590,N,01618.1010599,E,1,39,0.7,EHT751.5651,M*42
$GPGGQ,153007.00,010125,4742.1604590,N,01618.1010599,E,1,39,1.291,708.3585,M*30
$GPGFA,153007.00,6.576,8.146,0.692,0.448,10.507,0.993,,VVV*3F
$GPLLK,153007.00,010125,,M,,M,1,39,0.8,,M*09
$GNGMP,153007.00,,,,,DAAA,39,0.4,,,,*58
$GPGMP,153007.00,,,,,,10,,,,2.1,136*7B
$GLGMP,153007.00,,,,,,08,,,,,*77
$GAGMP,153007.00,,,,,,07,,,,,*75
$GBGMP,153007.00,,,,,,14,,,,,*74
$PSSN,SNC,[0,315025000,2347]*44
$GPZDA,153012.00,01,01,2025,,*67
$GPDTM,W84,,00.0000000,N,00.0000000,E,00.0000000,W84*5F
$PSSN,TFM,153012.00,,,,*6B
$GPRMC,153012.00,A,4742.1604593,N,01618.1010653,E,0.0,,010125,5.1,E,D*1E
$GPGLL,4742.1604593,N,01618.1010653,E,153012.00,A,D*6F
$GPGGA,153012.00,4742.1604593,N,01618.1010653,E,2,38,0.4,708.3604,M,43.2065,M,3.1,0136*43
$GNGNS,153012.00,4742.1604593,N,01618.1010653,E,DAAA,38,0.4,708.3604,43.2065,,*59
$GPGNS,153012.00,,,,,,10,,,,3.1,136*7E
$GLGNS,153012.00,,,,,,07,,,,,*7C
$GAGNS,153012.00,,,,,,07,,,,,*71
$GBGNS,153012.00,,,,,,14,,,,,*70
$GPLLQ,153012.00,010125,,M,,M,1,38,1.294,,M*10
$GPVTG,,T,,M,0.00,N,0.01,K,D*27
$GPHDT,,T*1B
$GPTHS,,V*0E
$GPROT,,V*08
$PSSN,HRP,153012.00,010125,,,,,,,00,0,,*65
$PTNL,AVR,153012.00,,Yaw,,Tilt,,,,0,,00*33
$GPGSA,A,3,05,11,12,18,20,25,26,28,29,31,,,0.7,0.4,0.6*3A
$GPGSA,A,3,71,78,79,80,81,82,88,,,,,,0.7,0.4,0.6*3B
$GPGSA,A,3,15,21,27,29,30,34,36,,,,,,0.7,0.4,0.6*3F
$GPGSA,A,3,05,08,10,11,12,13,23,24,25,34,38,43,0.7,0.4,0.6*31
$GPGSA,A,3,44,60,,,,,,,,,,,0.7,0.4,0.6*31
$GPGST,153012.00,1.232,0.697,0.446,10.809,0.690,0.458,0.995*6C
$GPGBS,153012.00,5.573,2.285,5.489,11,0.0001,-1.271,1.392*72
$GPGRS,153012.00,1,-0.5,-1.3,0.2,-0.3,0.0,-0.0,0.2,0.1,0.2,0.5,,*48
$GPGRS,153012.00,1,0.8,-0.7,0.9,-4.4,2.3,1.1,0.4,,,,,*67
$GPGRS,153012.00,1,-0.1,0.7,0.0,0.6,0.0,0.7,-2.3,,,,,*62
$GPGRS,153012.00,1,0.8,-0.1,0.4,1.6,1.2,0.1,0.0,-0.2,-0.8,-0.4,-0.8,-0.2*46
$GPGRS,153012.00,1,-0.9,-1.8,,,,,,,,,,*4A
$GPGSV,6,1,21,29,80,258,51,18,19,186,42,26,16,297,40,11,26,047,43*76
$GPGSV,6,2,21,12,27,107,44,20,18,074,40,31,36,305,46,28,53,274,47*7F
$GPGSV,6,3,21,25,68,106,50,04,00,347,36,05,09,107,40,32,03,238,38*7B
$GPGSV,6,4,21,36,35,170,45,58,13,245,37,40,23,133,37,34,31,208,43*7C
$GPGSV,6,5,21,49,34,195,45,57,05,113,37,41,07,108,35,61,03,257,39*7C
$GPGSV,6,6,21*7A
$GLGSV,3,1,09,79,66,326,52,88,61,048,51,80,13,316,45,81,56,197,52*62
$GLGSV,3,2,09,78,54,127,52,70,07,317,33,82,09,207,43,87,05,032,38*64
$GLGSV,3,3,09,71,08,002,42*56
$GAGSV,3,1,10,27,70,307,48,29,15,258,40,15,45,155,46,21,17,292,40*6B
$GAGSV,3,2,10,34,48,071,46,19,16,303,35,30,53,101,47,13,05,191,33*66
$GAGSV,3,3,10,02,02,108,27,36,10,032,36*65
$GBGSV,5,1,20,34,79,160,51,56,15,062,,05,20,130,40,28,21,207,*69
$GBGSV,5,2,20,13,24,089,42,38,24,065,42,24,29,143,46,08,25,080,39*61
$GBGSV,5,3,20,43,34,218,47,23,36,305,46,44,36,054,47,31,39,079,*66
$GBGSV,5,4,20,11,56,204,49,12,61,064,48,25,77,213,52,02,05,108,34*63
$GBGSV,5,5,20,20,01,296,,10,10,077,36,19,03,340,,60,09,109,39*63
$GPGGA,153012.00,,,,,0,00,,,M,,M,,*4C
$PTNL,GGK,153012.00,010125,4742.1604593,N,01618.1010653,E,1,38,0.7,EHT751.5669,M*4A
$GPGGQ,153012.00,010125,4742.1604593,N,01618.1010653,E,1,38,1.294,708.3604,M*3C
$GPGFA,153012.00,6.627,8.158,0.697,0.446,10.809,0.995,,VVV*3D
$GPLLK,153012.00,010125,,M,,M,1,38,0.8,,M*0C
$GNGMP,153012.00,,,,,DAAA,38,0.4,,,,*5D
$GPGMP,153012.00,,,,,,10,,,,3.1,136*7E
$GLGMP,153012.00,,,,,,07,,,,,*7C
$GAGMP,153012.00,,,,,,07,,,,,*71
$GBGMP,153012.00,,,,,,14,,,,,*70
$PSSN,SNC,[0,315030000,2347]*40
$GPZDA,153017.00,01,01,2025,,*62
$GPDTM,W84,,00.0000000,N,00.0000000,E,00.0000000,W84*5F
$PSSN,TFM,153017.00,,,,*6E
$GPRMC,153017.00,A,4742.1604628,N,01618.1010699,E,0.0,,010125,5.1,E,D*1E
$GPGLL,4742.1604628,N,01618.1010699,E,153017.00,A,D*6F
$GPGGA,153017.00,4742.1604628,N,01618.1010699,E,2,39,0.4,708.3552,M,43.2065,M,2.3,0136*41
$GNGNS,153017.00,4742.1604628,N,01618.1010699,E,DAAA,39,0.4,708.3552,43.2065,,*58
$GPGNS,153017.00,,,,,,10,,,,2.3,136*78
$GLGNS,153017.00,,,,,,07,,,,,*79
$GAGNS,153017.00,,,,,,08,,,,,*7B
$GBGNS,153017.00,,,,,,14,,,,,*75
$GPLLQ,153017.00,010125,,M,,M,1,39,1.295,,M*15
$GPVTG,,T,,M,0.00,N,0.01,K,D*27
$GPHDT,,T*1B
$GPTHS,,V*0E
$GPROT,,V*08
$PSSN,HRP,153017.00,010125,,,,,,,00,0,,*60
$PTNL,AVR,153017.00,,Yaw,,Tilt,,,,0,,00*36
$GPGSA,A,3,05,11,12,18,20,25,26,28,29,31,,,0.7,0.4,0.6*3A
$GPGSA,A,3,71,78,79,80,81,82,88,,,,,,0.7,0.4,0.6*3B
$GPGSA,A,3,15,19,21,27,29,30,34,36,,,,,0.7,0.4,0.6*37
$GPGSA,A,3,05,08,10,11,12,13,23,24,25,34,38,43,0.7,0.4,0.6*31
$GPGSA,A,3,44,60,,,,,,,,,,,0.7,0.4,0.6*31
$GPGST,153017.00,1.325,0.697,0.447,10.819,0.690,0.459,0.995*6F
$GPGBS,153017.00,5.572,2.280,5.282,11,0.0001,-1.389,1.402*76
$GPGRS,153017.00,1,0.0,-1.4,-0.1,-0.0,0.3,0.1,-0.1,0.1,0.3,0.3,,*49
$GPGRS,153017.00,1,0.9,-0.8,0.9,-5.1,2.2,1.2,0.2,,,,,*6C
$GPGRS,153017.00,1,-0.0,-1.5,0.7,0.2,0.1,0.3,0.7,-2.0,,,,*64
$GPGRS,153017.00,1,1.1,-0.2,1.2,1.7,1.5,0.2,-0.1,-0.2,-0.9,-0.3,-0.9,-0.5*66
$GPGRS,153017.00,1,-0.4,-1.7,,,,,,,,,,*4D
$GPGSV,6,1,21,29,80,258,50,18,19,186,41,26,16,297,40,11,26,047,43*74
$GPGSV,6,2,21,12,27,107,44,20,18,074,39,31,36,305,46,28,53,273,47*76
$GPGSV,6,3,21,25,68,106,49,04,00,347,36,05,09,107,40,32,03,238,39*72
$GPGSV,6,4,21,36,35,170,45,58,13,245,37,40,23,133,37,34,31,208,44*7B
$GPGSV,6,5,21,49,34,195,45,57,05,113,38,41,07,108,35,61,03,257,39*73
$GPGSV,6,6,21*7A
$GLGSV,3,1,09,79,66,326,52,88,61,047,51,80,13,316,45,81,56,197,52*6D
$GLGSV,3,2,09,78,54,127,52,70,07,317,33,82,09,207,43,87,05,032,38*64
$GLGSV,3,3,09,71,08,002,42*56
$GAGSV,3,1,10,27,70,307,49,29,15,258,40,15,45,155,47,21,17,292,40*6B
$GAGSV,3,2,10,34,48,071,46,19,16,303,35,30,52,101,47,13,05,191,34*60
$GAGSV,3,3,10,02,02,108,27,36,10,032,37*64
$GBGSV,5,1,20,34,79,160,51,56,15,062,,05,20,130,39,28,21,207,*67
$GBGSV,5,2,20,13,24,089,42,38,24,065,43,24,29,143,46,08,25,080,39*60
$GBGSV,5,3,20,43,34,218,46,23,36,305,46,44,36,054,47,31,39,079,*67
$GBGSV,5,4,20,11,56,204,49,12,61,064,48,25,77,213,52,02,05,108,34*63
$GBGSV,5,5,20,20,01,296,,10,10,077,36,19,03,340,,60,09,109,39*63
$GPGGA,153017.00,,,,,0,00,,,M,,M,,*49
$PTNL,GGK,153017.00,010125,4742.1604628,N,01618.1010699,E,1,39,0.7,EHT751.5617,M*42
$GPGGQ,153017.00,010125,4742.1604628,N,01618.1010699,E,1,39,1.295,708.3552,M*3C
$GPGFA,153017.00,6.632,8.161,0.697,0.447,10.819,0.995,,VVV*36
$GPLLK,153017.00,010125,,M,,M,1,39,0.8,,M*08
$GNGMP,153017.00,,,,,DAAA,39,0.4,,,,*59
$GPGMP,153017.00,,,,,,10,,,,2.3,136*78
$GLGMP,153017.00,,,,,,07,,,,,*79
$GAGMP,153017.00,,,,,,08,,,,,*7B
$GBGMP,153017.00,,,,,,14,,,,,*75
$PSSN,SNC,[0,315035000,2347]*45
$GPZDA,153022.00,01,01,2025,,*64
$GPDTM,W84,,00.0000000,N,00.0000000,E,00.0000000,W84*5F
$PSSN,TFM,153022.00,,,,*68
$GPRMC,153022.00,A,4742.1604642,N,01618.1010729,E,0.0,,010125,5.1,E,D*1E
$GPGLL,4742.1604642,N,01618.1010729,E,153022.00,A,D*6F
$GPGGA,153022.00,4742.1604642,N,01618.1010729,E,2,39,0.4,708.3515,M,43.2065,M,2.4,0136*45
$GNGNS,153022.00,4742.1604642,N,01618.1010729,E,DAAA,39,0.4,708.3515,43.2065,,*5B
$GPGNS,153022.00,,,,,,10,,,,2.4,136*79
$GLGNS,153022.00,,,,,,07,,,,,*7F
$GAGNS,153022.00,,,,,,08,,,,,*7D
$GBGNS,153022.00,,,,,,14,,,,,*73
$GPLLQ,153022.00,010125,,M,,M,1,39,1.291,,M*17
$GPVTG,,T,,M,0.00,N,0.00,K,D*26
$GPHDT,,T*1B
$GPTHS,,V*0E
$GPROT,,V*08
$PSSN,HRP,153022.00,010125,,,,,,,00,0,,*66
$PTNL,AVR,153022.00,,Yaw,,Tilt,,,,0,,00*30
$GPGSA,A,3,05,11,12,18,20,25,26,28,29,31,,,0.7,0.4,0.6*3A
$GPGSA,A,3,71,78,79,80,81,82,88,,,,,,0.7,0.4,0.6*3B
$GPGSA,A,3,15,19,21,27,29,30,34,36,,,,,0.7,0.4,0.6*37
$GPGSA,A,3,05,08,10,11,12,13,23,24,25,34,38,43,0.7,0.4,0.6*31
$GPGSA,A,3,44,60,,,,,,,,,,,0.7,0.4,0.6*31
$GPGST,153022.00,1.306,0.694,0.447,10.711,0.687,0.458,0.992*6C
$GPGBS,153022.00,5.534,2.273,5.359,11,0.0001,-1.090,1.379*79
$GPGRS,153022.00,1,-0.4,-1.1,0.0,-0.4,0.2,-0.1,0.4,0.0,0.1,0.7,,*48
$GPGRS,153022.00,1,0.9,-0.9,1.2,-4.8,2.2,1.0,-0.0,,,,,*44
$GPGRS,153022.00,1,-0.1,-1.2,0.4,0.1,-0.4,0.2,0.6,-1.9,,,,*46
$GPGRS,153022.00,1,1.1,-0.1,1.2,2.1,1.4,-0.6,0.0,-0.1,-0.9,-0.7,-1.0,-0.1*69
$GPGRS,153022.00,1,-0.6,-1.8,,,,,,,,,,*46
$GPGSV,6,1,21,29,80,258,50,18,19,186,41,26,16,297,40,11,26,047,43*74
$GPGSV,6,2,21,12,27,107,44,20,18,074,40,31,36,305,46,28,53,273,47*78
$GPGSV,6,3,21,25,68,107,49,04,00,347,35,05,09,107,41,32,03,237,39*7E
$GPGSV,6,4,21,36,35,170,45,58,13,245,37,40,23,133,37,34,31,208,43*7C
$GPGSV,6,5,21,49,34,195,45,57,05,113,38,41,07,108,35,61,03,257,39*73
$GPGSV,6,6,21*7A
$GLGSV,3,1,09,79,67,326,53,88,61,047,51,80,13,316,46,81,57,197,52*6F
$GLGSV,3,2,09,78,54,127,52,70,07,317,33,82,10,207,44,87,05,032,38*6B
$GLGSV,3,3,09,71,08,002,43*57
$GAGSV,3,1,10,27,70,307,49,29,15,258,40,15,45,155,47,21,17,292,40*6B
$GAGSV,3,2,10,34,48,071,46,19,16,303,35,30,52,102,47,13,05,191,35*62
$GAGSV,3,3,10,02,02,108,27,36,10,032,37*64
$GBGSV,5,1,20,34,79,160,51,56,15,062,,05,20,130,40,28,21,207,*69
$GBGSV,5,2,20,13,24,089,41,38,24,065,43,24,29,143,46,08,25,080,39*63
$GBGSV,5,3,20,43,34,218,47,23,36,305,46,44,36,054,47,31,39,079,*66
$GBGSV,5,4,20,11,56,204,49,12,61,063,48,25,77,213,52,02,05,108,34*64
$GBGSV,5,5,20,20,01,296,,10,10,077,37,19,03,340,,60,09,109,40*6C
$GPGGA,153022.00,,,,,0,00,,,M,,M,,*4F
$PTNL,GGK,153022.00,010125,4742.1604642,N,01618.1010729,E,1,39,0.7,EHT751.5580,M*4F
$GPGGQ,153022.00,010125,4742.1604642,N,01618.1010729,E,1,39,1.291,708.3515,M*3B
$GPGFA,153022.00,6.603,8.135,0.694,0.447,10.711,0.992,,VVV*30
$GPLLK,153022.00,010125,,M,,M,1,39,0.8,,M*0E
$GNGMP,153022.00,,,,,DAAA,39,0.4,,,,*5F
$GPGMP,153022.00,,,,,,10,,,,2.4,136*79
$GLGMP,153022.00,,,,,,07,,,,,*7F
$GAGMP,153022.00,,,,,,08,,,,,*7D
$GBGMP,153022.00,,,,,,14,,,,,*73
$PSSN,SNC,[0,315040000,2347]*47
$GPZDA,153027.00,01,01,2025,,*61
$GPDTM,W84,,00.0000000,N,00.0000000,E,00.0000000,W84*5F
$PSSN,TFM,153027.00,,,,*6D
$GPRMC,153027.00,A,4742.1604646,N,01618.1010752,E,0.0,,010125,5.1,E,D*13
$GPGLL,4742.1604646,N,01618.1010752,E,153027.00,A,D*62
$GPGGA,153027.00,4742.1604646,N,01618.1010752,E,2,39,0.4,708.3504,M,43.2065,M,2.1,0136*4D
$GNGNS,153027.00,4742.1604646,N,01618.1010752,E,DAAA,39,0.4,708.3504,43.2065,,*56
$GPGNS,153027.00,,,,,,10,,,,2.1,136*79
$GLGNS,153027.00,,,,,,07,,,,,*7A
$GAGNS,153027.00,,,,,,08,,,,,*78
$GBGNS,153027.00,,,,,,14,,,,,*76
$GPLLQ,153027.00,010125,,M,,M,1,39,1.292,,M*11
$GPVTG,,T,,M,0.00,N,0.01,K,D*27
$GPHDT,,T*1B
$GPTHS,,V*0E
$GPROT,,V*08
$PSSN,HRP,153027.00,010125,,,,,,,00,0,,*63
$PTNL,AVR,153027.00,,Yaw,,Tilt,,,,0,,00*35
$GPGSA,A,3,05,11,12,18,20,25,26,28,29,31,,,0.7,0.4,0.6*3A
$GPGSA,A,3,71,78,79,80,81,82,88,,,,,,0.7,0.4,0.6*3B
$GPGSA,A,3,15,19,21,27,29,30,34,36,,,,,0.7,0.4,0.6*37
$GPGSA,A,3,05,08,10,11,12,13,23,24,25,34,38,43,0.7,0.4,0.6*31
$GPGSA,A,3,44,60,,,,,,,,,,,0.7,0.4,0.6*31
$GPGST,153027.00,1.182,0.694,0.446,10.825,0.687,0.457,0.994*67
$GPGBS,153027.00,5.546,2.267,5.427,11,0.0001,-1.149,1.386*77
$GPGRS,153027.00,1,-0.6,-1.1,0.0,-0.4,0.6,-0.1,-0.2,-0.0,0.1,0.7,,*4D
$GPGRS,153027.00,1,-0.2,-1.0,1.1,-3.2,2.0,1.8,0.1,,,,,*47
$GPGRS,153027.00,1,0.2,-1.2,0.6,-0.1,-0.2,0.2,0.9,-2.1,,,,*40
$GPGRS,153027.00,1,1.0,-0.2,1.5,1.5,1.5,-0.8,0.0,-0.1,-0.9,-0.6,-0.8,-0.3*6B
$GPGRS,153027.00,1,-0.9,-2.1,,,,,,,,,,*46
$GPGSV,6,1,21,29,80,258,51,18,19,186,41,26,16,297,40,11,26,047,43*75
$GPGSV,6,2,21,12,27,107,44,20,18,074,41,31,36,305,46,28,53,273,47*79
$GPGSV,6,3,21,25,68,107,49,04,00,347,36,05,09,107,41,32,03,237,39*7D
$GPGSV,6,4,21,36,35,170,45,58,13,245,36,40,23,133,37,34,31,208,43*7D
$GPGSV,6,5,21,49,34,195,45,57,05,113,37,41,07,108,35,61,03,257,39*7C
$GPGSV,6,6,21*7A
$GLGSV,3,1,09,79,67,326,52,88,61,047,51,80,13,316,47,81,57,197,52*6F
$GLGSV,3,2,09,78,54,127,52,70,07,317,34,82,10,207,44,87,05,032,38*6C
$GLGSV,3,3,09,71,08,002,42*56
$GAGSV,3,1,10,27,70,307,48,29,15,258,40,15,45,155,47,21,17,293,40*6B
$GAGSV,3,2,10,34,48,071,46,19,16,303,36,30,52,102,48,13,05,191,35*6E
$GAGSV,3,3,10,02,02,108,26,36,10,032,36*64
$GBGSV,5,1,20,34,79,160,51,56,15,062,,05,20,130,40,28,21,207,*69
$GBGSV,5,2,20,13,24,089,41,38,24,065,43,24,29,143,46,08,25,080,39*63
$GBGSV,5,3,20,43,34,218,46,23,36,305,47,44,36,054,47,31,39,079,*66
$GBGSV,5,4,20,11,56,204,49,12,61,063,48,25,77,212,52,02,05,108,34*65
$GBGSV,5,5,20,20,01,296,,10,10,077,36,19,03,340,,60,09,109,39*63
$GPGGA,153027.00,,,,,0,00,,,M,,M,,*4A
$PTNL,GGK,153027.00,010125,4742.1604646,N,01618.1010752,E,1,39,0.7,EHT751.5569,M*45
$GPGGQ,153027.00,010125,4742.1604646,N,01618.1010752,E,1,39,1.292,708.3504,M*35
$GPGFA,153027.00,6.601,8.147,0.694,0.446,10.825,0.994,,VVV*3D
$GPLLK,153027.00,010125,,M,,M,1,39,0.8,,M*0B
$GNGMP,153027.00,,,,,DAAA,39,0.4,,,,*5A
$GPGMP,153027.00,,,,,,10,,,,2.1,136*79
$GLGMP,153027.00,,,,,,07,,,,,*7A
$GAGMP,153027.00,,,,,,08,,,,,*78
$GBGMP,153027.00,,,,,,14,,,,,*76
$PSSN,SNC,[0,315045000,2347]*42
$GPZDA,153032.00,01,01,2025,,*65
$GPDTM,W84,,00.0000000,N,00.0000000,E,00.0000000,W84*5F
$PSSN,TFM,153032.00,,,,*69
$GPRMC,153032.00,A,4742.1604651,N,01618.1010791,E,0.0,,010125,5.1,E,D*1E
$GPGLL,4742.1604651,N,01618.1010791,E,153032.00,A,D*6F
$GPGGA,153032.00,4742.1604651,N,01618.1010791,E,2,40,0.4,708.3463,M,43.2065,M,3.1,0136*4F
$GNGNS,153032.00,4742.1604651,N,01618.1010791,E,DAAA,40,0.4,708.3463,43.2065,,*55
$GPGNS,153032.00,,,,,,10,,,,3.1,136*7C
$GLGNS,153032.00,,,,,,07,,,,,*7E
$GAGNS,153032.00,,,,,,09,,,,,*7D
$GBGNS,153032.00,,,,,,14,,,,,*72
$GPLLQ,153032.00,010125,,M,,M,1,40,1.289,,M*11
$GPVTG,,T,,M,0.01,N,0.01,K,D*26
$GPHDT,,T*1B
$GPTHS,,V*0E
$GPROT,,V*08
$PSSN,HRP,153032.00,010125,,,,,,,00,0,,*67
$PTNL,AVR,153032.00,,Yaw,,Tilt,,,,0,,00*31
$GPGSA,A,3,05,11,12,18,20,25,26,28,29,31,,,0.7,0.4,0.5*39
$GPGSA,A,3,71,78,79,80,81,82,88,,,,,,0.7,0.4,0.5*38
$GPGSA,A,3,13,15,19,21,27,29,30,34,36,,,,0.7,0.4,0.5*36
$GPGSA,A,3,05,08,10,11,12,13,23,24,25,34,38,43,0.7,0.4,0.5*32
$GPGSA,A,3,44,60,,,,,,,,,,,0.7,0.4,0.5*32
$GPGST,153032.00,1.161,0.693,0.445,10.897,0.686,0.456,0.992*65
$GPGBS,153032.00,5.452,2.268,5.459,11,0.0001,-1.125,1.395*79
$GPGRS,153032.00,1,-0.9,-1.1,0.1,-0.2,0.2,0.1,0.3,-0.0,0.1,0.4,,*47
$GPGRS,153032.00,1,0.7,-0.8,0.6,-2.3,2.4,1.4,0.1,,,,,*6C
$GPGRS,153032.00,1,-2.5,0.2,-0.7,1.5,0.0,0.1,0.3,0.8,-2.0,,,*45
$GPGRS,153032.00,1,1.1,0.2,0.8,1.5,1.2,-1.4,-0.1,0.3,-1.0,-0.6,-0.9,-0.3*4F
$GPGRS,153032.00,1,-0.7,-1.9,,,,,,,,,,*47
$GPGSV,6,1,21,29,80,258,51,18,20,186,42,26,16,297,39,11,26,047,43*72
$GPGSV,6,2,21,12,27,107,43,20,18,074,41,31,36,305,46,28,53,273,47*7E
$GPGSV,6,3,21,25,68,107,49,04,01,347,36,05,09,107,40,32,03,237,39*7D
$GPGSV,6,4,21,36,35,170,45,58,13,245,36,40,23,133,37,34,31,208,43*7D
$GPGSV,6,5,21,49,34,195,45,57,05,113,38,41,07,108,35,61,03,257,38*72
$GPGSV,6,6,21*7A
$GLGSV,3,1,09,79,67,326,52,88,61,047,51,80,13,316,45,81,57,197,53*6C
$GLGSV,3,2,09,78,54,127,52,70,07,317,34,82,10,207,43,87,05,032,38*6B
$GLGSV,3,3,09,71,08,002,41*55
$GAGSV,3,1,10,27,70,307,49,29,15,258,39,15,46,155,47,21,17,293,40*67
$GAGSV,3,2,10,34,48,071,46,19,16,303,36,30,52,102,48,13,05,191,35*6E
$GAGSV,3,3,10,02,02,108,26,36,10,032,37*65
$GBGSV,5,1,20,34,79,160,51,56,15,062,,05,20,130,39,28,21,207,*67
$GBGSV,5,2,20,13,24,089,41,38,24,065,43,24,29,143,46,08,25,080,40*6D
$GBGSV,5,3,20,43,34,218,47,23,36,305,46,44,36,054,47,31,39,079,*66
$GBGSV,5,4,20,11,56,204,49,12,61,063,48,25,77,212,52,02,05,108,34*65
$GBGSV,5,5,20,20,01,296,,10,10,077,36,19,03,340,,60,09,109,40*6D
$GPGGA,153032.00,,,,,0,00,,,M,,M,,*4E
$PTNL,GGK,153032.00,010125,4742.1604651,N,01618.1010791,E,1,40,0.7,EHT751.5528,M*43
$GPGGQ,153032.00,010125,4742.1604651,N,01618.1010791,E,1,40,1.289,708.3463,M*3C
$GPGFA,153032.00,6.592,8.131,0.693,0.445,10.897,0.992,,VVV*3A
$GPLLK,153032.00,010125,,M,,M,1,40,0.8,,M*01
$GNGMP,153032.00,,,,,DAAA,40,0.4,,,,*50
$GPGMP,153032.00,,,,,,10,,,,3.1,136*7C
$GLGMP,153032.00,,,,,,07,,,,,*7E
$GAGMP,153032.00,,,,,,09,,,,,*7D
$GBGMP,153032.00,,,,,,14,,,,,*72
$PSSN,SNC,[0,315050000,2347]*46
$GPZDA,153037.00,01,01,2025,,*60
$GPDTM,W84,,00.0000000,N,00.0000000,E,00.0000000,W84*5F
$PSSN,TFM,153037.00,,,,*6C
$GPRMC,153037.00,A,4742.1604672,N,01618.1010830,E,0.0,,010125,5.1,E,D*1E
$GPGLL,4742.1604672,N,01618.1010830,E,153037.00,A,D*6F
$GPGGA,153037.00,4742.1604672,N,01618.1010830,E,2,40,0.4,708.3453,M,43.2065,M,2.3,0136*4F
$GNGNS,153037.00,4742.1604672,N,01618.1010830,E,DAAA,40,0.4,708.3453,43.2065,,*56
$GPGNS,153037.00,,,,,,10,,,,2.3,136*7A
$GLGNS,153037.00,,,,,,07,,,,,*7B
$GAGNS,153037.00,,,,,,09,,,,,*78
$GBGNS,153037.00,,,,,,14,,,,,*77
$GPLLQ,153037.00,010125,,M,,M,1,40,1.288,,M*15
$GPVTG,,T,,M,0.01,N,0.01,K,D*26
$GPHDT,,T*1B
$GPTHS,,V*0E
$GPROT,,V*08
$PSSN,HRP,153037.00,010125,,,,,,,00,0,,*62
$PTNL,AVR,153037.00,,Yaw,,Tilt,,,,0,,00*34
$GPGSA,A,3,05,11,12,18,20,25,26,28,29,31,,,0.7,0.4,0.5*39
$GPGSA,A,3,71,78,79,80,81,82,88,,,,,,0.7,0.4,0.5*38
$GPGSA,A,3,13,15,19,21,27,29,30,34,36,,,,0.7,0.4,0.5*36
$GPGSA,A,3,05,08,10,11,12,13,23,24,25,34,38,43,0.7,0.4,0.5*32
$GPGSA,A,3,44,60,,,,,,,,,,,0.7,0.4,0.5*32
$GPGST,153037.00,1.326,0.690,0.447,10.788,0.683,0.458,0.991*69
$GPGBS,153037.00,5.447,2.276,5.263,11,0.0001,-1.304,1.405*77
$GPGRS,153037.00,1,-0.7,-1.3,0.2,-0.4,0.1,0.0,0.8,-0.0,-0.0,0.5,,*6F
$GPGRS,153037.00,1,1.1,-0.7,0.6,-4.4,2.6,1.0,-0.2,,,,,*48
$GPGRS,153037.00,1,-2.1,-0.0,-1.0,1.3,-0.0,0.1,0.1,0.6,-1.8,,,*41
$GPGRS,153037.00,1,1.2,0.3,0.8,2.0,1.0,-1.2,-0.3,0.4,-0.8,-0.3,-1.2,0.1*66
$GPGRS,153037.00,1,-0.4,-2.0,,,,,,,,,,*4B
$GPGSV,6,1,21,29,80,258,50,18,20,186,42,26,16,297,39,11,26,047,43*73
$GPGSV,6,2,21,12,27,107,44,20,18,074,41,31,36,305,46,28,53,273,47*79
$GPGSV,6,3,21,25,68,107,50,04,01,347,37,05,09,107,40,32,03,237,40*7A
$GPGSV,6,4,21,36,35,170,45,58,13,245,36,40,23,133,37,34,31,208,43*7D
$GPGSV,6,5,21,49,34,195,45,57,05,113,38,41,07,108,34,61,03,257,38*73
$GPGSV,6,6,21*7A
$GLGSV,3,1,09,79,67,326,52,88,61,047,51,80,13,316,45,81,57,197,52*6D
$GLGSV,3,2,09,78,54,127,52,70,07,317,34,82,10,207,43,87,05,032,38*6B
$GLGSV,3,3,09,71,08,002,43*57
$GAGSV,3,1,10,27,70,307,49,29,15,258,39,15,46,155,47,21,17,293,40*67
$GAGSV,3,2,10,34,48,071,47,19,16,303,36,30,52,102,47,13,05,191,35*60
$GAGSV,3,3,10,02,02,108,25,36,10,032,37*66
$GBGSV,5,1,20,34,79,160,51,56,15,062,,05,20,130,40,28,21,207,*69
$GBGSV,5,2,20,13,24,089,41,38,24,065,43,24,29,143,46,08,25,080,40*6D
$GBGSV,5,3,20,43,34,218,47,23,36,305,47,44,36,054,47,31,39,079,*67
$GBGSV,5,4,20,11,56,204,49,12,61,063,48,25,77,212,52,02,05,108,34*65
$GBGSV,5,5,20,20,01,296,,10,10,077,36,19,03,340,,60,09,109,39*63
$GPGGA,153037.00,,,,,0,00,,,M,,M,,*4B
$PTNL,GGK,153037.00,010125,4742.1604672,N,01618.1010830,E,1,40,0.7,EHT751.5518,M*40
$GPGGQ,153037.00,010125,4742.1604672,N,01618.1010830,E,1,40,1.288,708.3453,M*3E
$GPGFA,153037.00,6.564,8.124,0.690,0.447,10.788,0.991,,VVV*31
$GPLLK,153037.00,010125,,M,,M,1,40,0.8,,M*04
$GNGMP,153037.00,,,,,DAAA,40,0.4,,,,*55
$GPGMP,153037.00,,,,,,10,,,,2.3,136*7A
$GLGMP,153037.00,,,,,,07,,,,,*7B
$GAGMP,153037.00,,,,,,09,,,,,*78
$GBGMP,153037.00,,,,,,14,,,,,*77
$PSSN,SNC,[0,315055000,2347]*43
$GPZDA,153042.00,01,01,2025,,*62
$GPDTM,W84,,00.0000000,N,00.0000000,E,00.0000000,W84*5F
$PSSN,TFM,153042.00,,,,*6E
$GPRMC,153042.00,A,4742.1604687,N,01618.1010836,E,0.0,,010125,5.1,E,D*10
$GPGLL,4742.1604687,N,01618.1010836,E,153042.00,A,D*61
$GPGGA,153042.00,4742.1604687,N,01618.1010836,E,2,39,0.4,708.3431,M,43.2065,M,2.4,0136*4C
$GNGNS,153042.00,4742.1604687,N,01618.1010836,E,DAAA,39,0.4,708.3431,43.2065,,*52
$GPGNS,153042.00,,,,,,10,,,,2.4,136*7F
$GLGNS,153042.00,,,,,,07,,,,,*79
$GAGNS,153042.00,,,,,,08,,,,,*7B
$GBGNS,153042.00,,,,,,14,,,,,*75
$GPLLQ,153042.00,010125,,M,,M,1,39,1.287,,M*16
$GPVTG,,T,,M,0.01,N,0.01,K,D*26
$GPHDT,,T*1B
$GPTHS,,V*0E
$GPROT,,V*08
$PSSN,HRP,153042.00,010125,,,,,,,00,0,,*60
$PTNL,AVR,153042.00,,Yaw,,Tilt,,,,0,,00*36
$GPGSA,A,3,05,11,12,18,20,25,26,28,29,31,,,0.7,0.4,0.6*3A
$GPGSA,A,3,71,78,79,80,81,82,88,,,,,,0.7,0.4,0.6*3B
$GPGSA,A,3,13,15,21,27,29,30,34,36,,,,,0.7,0.4,0.6*3D
$GPGSA,A,3,05,08,10,11,12,13,23,24,25,34,38,43,0.7,0.4,0.6*31
$GPGSA,A,3,44,60,,,,,,,,,,,0.7,0.4,0.6*31
$GPGST,153042.00,1.391,0.688,0.449,10.419,0.681,0.459,0.990*69
$GPGBS,153042.00,5.410,2.280,5.353,11,0.0001,-1.429,1.381*7F
$GPGRS,153042.00,1,-0.3,-1.4,0.4,-0.4,-0.1,0.1,0.4,-0.1,0.1,0.4,,*64
$GPGRS,153042.00,1,1.2,-0.7,1.2,-4.9,2.3,1.2,-0.2,,,,,*46
$GPGRS,153042.00,1,-2.2,0.1,1.4,0.0,0.8,-0.1,0.6,-1.6,,,,*6E
$GPGRS,153042.00,1,0.9,0.4,1.1,1.6,1.4,-0.9,-0.1,0.2,-0.9,-0.4,-1.4,-0.3*41
$GPGRS,153042.00,1,-0.8,-1.9,,,,,,,,,,*4F
$GPGSV,6,1,21,29,81,258,50,18,20,186,42,26,16,297,39,11,26,047,43*72
$GPGSV,6,2,21,12,27,107,44,20,19,074,41,31,36,305,45,28,53,273,47*7B
$GPGSV,6,3,21,25,68,107,50,04,01,347,37,05,09,107,40,32,03,237,39*74
$GPGSV,6,4,21,36,35,170,45,58,13,245,37,40,23,133,37,34,31,208,43*7C
$GPGSV,6,5,21,49,34,195,45,57,05,113,38,41,07,108,35,61,03,257,38*72
$GPGSV,6,6,21*7A
$GLGSV,3,1,09,79,67,326,52,88,61,047,51,80,13,316,45,81,57,197,52*6D
$GLGSV,3,2,09,78,54,127,52,70,07,317,34,82,10,207,44,87,05,032,38*6C
$GLGSV,3,3,09,71,08,002,43*57
$GAGSV,3,1,10,27,70,307,48,29,15,258,39,15,46,155,47,21,17,293,39*68
$GAGSV,3,2,10,34,48,071,46,19,16,303,35,30,52,102,47,13,05,191,35*62
$GAGSV,3,3,10,02,02,108,23,36,10,032,37*60
$GBGSV,5,1,20,34,79,160,51,56,15,062,,05,20,130,39,28,21,207,*67
$GBGSV,5,2,20,13,24,089,41,38,24,065,43,24,29,143,45,08,25,080,40*6E
$GBGSV,5,3,20,43,34,218,47,23,36,305,46,44,36,054,46,31,39,079,*67
$GBGSV,5,4,20,11,56,204,49,12,61,063,48,25,77,212,52,02,05,108,34*65
$GBGSV,5,5,20,20,01,296,,10,10,077,37,19,03,340,,60,09,109,40*6C
$GPGGA,153042.00,,,,,0,00,,,M,,M,,*49
$PTNL,GGK,153042.00,010125,4742.1604687,N,01618.1010836,E,1,39,0.7,EHT751.5496,M*47
$GPGGQ,153042.00,010125,4742.1604687,N,01618.1010836,E,1,39,1.287,708.3431,M*35
$GPGFA,153042.00,6.541,8.119,0.688,0.449,10.419,0.990,,VVV*37
$GPLLK,153042.00,010125,,M,,M,1,39,0.8,,M*08
$GNGMP,153042.00,,,,,DAAA,39,0.4,,,,*59
$GPGMP,153042.00,,,,,,10,,,,2.4,136*7F
$GLGMP,153042.00,,,,,,07,,,,,*79
$GAGMP,153042.00,,,,,,08,,,,,*7B
$GBGMP,153042.00,,,,,,14,,,,,*75
$PSSN,SNC,[0,315060000,2347]*45
$GPZDA,153047.00,01,01,2025,,*67
$GPDTM,W84,,00.0000000,N,00.0000000,E,00.0000000,W84*5F
$PSSN,TFM,153047.00,,,,*6B
$GPRMC,153047.00,A,4742.1604711,N,01618.1010863,E,0.0,,010125,5.1,E,D*1B
$GPGLL,4742.1604711,N,01618.1010863,E,153047.00,A,D*6A
$GPGGA,153047.00,4742.1604711,N,01618.1010863,E,2,39,0.4,708.3439,M,43.2065,M,2.1,0136*4A
$GNGNS,153047.00,4742.1604711,N,01618.1010863,E,DAAA,39,0.4,708.3439,43.2065,,*51
$GPGNS,153047.00,,,,,,10,,,,2.1,136*7F
$GLGNS,153047.00,,,,,,07,,,,,*7C
$GAGNS,153047.00,,,,,,08,,,,,*7E
$GBGNS,153047.00,,,,,,14,,,,,*70
$GPLLQ,153047.00,010125,,M,,M,1,39,1.292,,M*17
$GPVTG,,T,,M,0.01,N,0.01,K,D*26
$GPHDT,,T*1B
$GPTHS,,V*0E
$GPROT,,V*08
$PSSN,HRP,153047.00,010125,,,,,,,00,0,,*65
$PTNL,AVR,153047.00,,Yaw,,Tilt,,,,0,,00*33
$GPGSA,A,3,05,11,12,18,20,25,26,28,29,31,,,0.7,0.4,0.6*3A
$GPGSA,A,3,71,78,79,80,81,82,88,,,,,,0.7,0.4,0.6*3B
$GPGSA,A,3,13,15,21,27,29,30,34,36,,,,,0.7,0.4,0.6*3D
$GPGSA,A,3,05,08,10,11,12,13,23,24,25,34,38,43,0.7,0.4,0.6*31
$GPGSA,A,3,44,60,,,,,,,,,,,0.7,0.4,0.6*31
$GPGST,153047.00,1.376,0.692,0.448,10.604,0.685,0.458,0.995*61
$GPGBS,153047.00,5.421,2.274,5.436,11,0.0001,-1.344,1.389*73
$GPGRS,153047.00,1,0.0,-1.3,0.3,-0.5,0.2,0.0,0.9,0.3,0.2,-0.1,,*68
$GPGRS,153047.00,1,1.8,-1.0,1.3,-3.8,2.4,1.2,0.1,,,,,*61
$GPGRS,153047.00,1,-2.3,-0.1,1.4,0.2,0.7,0.3,0.9,-1.7,,,,*6B
$GPGRS,153047.00,1,0.7,0.7,2.1,1.8,1.6,-0.2,-0.1,0.3,-0.7,-0.7,-1.6,-0.1*41
$GPGRS,153047.00,1,-1.0,-1.7,,,,,,,,,,*4D
$GPGSV,6,1,21,29,81,259,50,18,20,186,42,26,17,297,40,11,26,047,44*7B
$GPGSV,6,2,21,12,27,107,43,20,19,074,41,31,36,305,46,28,53,273,47*7F
$GPGSV,6,3,21,25,67,107,49,04,01,347,37,05,09,107,41,32,03,237,39*72
$GPGSV,6,4,21,36,35,170,45,58,13,245,37,40,23,133,37,34,31,208,43*7C
$GPGSV,6,5,21,49,34,195,45,57,05,113,38,41,07,108,35,61,03,257,38*72
$GPGSV,6,6,21*7A
$GLGSV,3,1,09,79,67,326,52,88,61,047,51,80,13,316,45,81,57,197,52*6D
$GLGSV,3,2,09,78,54,127,51,70,07,317,33,82,10,207,44,87,05,032,38*68
$GLGSV,3,3,09,71,08,002,43*57
$GAGSV,3,1,10,27,70,307,48,29,15,258,40,15,46,155,47,21,17,293,40*68
$GAGSV,3,2,10,34,48,071,46,19,16,303,35,30,52,102,47,13,05,191,35*62
$GAGSV,3,3,10,02,02,108,24,36,10,032,38*68
$GBGSV,5,1,20,34,79,159,51,56,15,062,,05,20,130,40,28,21,207,*63
$GBGSV,5,2,20,13,24,089,41,38,24,065,43,24,29,143,45,08,25,080,40*6E
$GBGSV,5,3,20,43,34,218,47,23,36,305,47,44,36,054,47,31,39,079,*67
$GBGSV,5,4,20,11,56,204,49,12,61,063,48,25,77,212,52,02,05,108,34*65
$GBGSV,5,5,20,20,01,296,,10,10,077,37,19,03,340,,60,09,109,39*62
$GPGGA,153047.00,,,,,0,00,,,M,,M,,*4C
$PTNL,GGK,153047.00,010125,4742.1604711,N,01618.1010863,E,1,39,0.7,EHT751.5504,M*46
$GPGGQ,153047.00,010125,4742.1604711,N,01618.1010863,E,1,39,1.292,708.3439,M*32
$GPGFA,153047.00,6.577,8.157,0.692,0.448,10.604,0.995,,VVV*3C
$GPLLK,153047.00,010125,,M,,M,1,39,0.8,,M*0D
$GNGMP,153047.00,,,,,DAAA,39,0.4,,,,*5C
$GPGMP,153047.00,,,,,,10,,,,2.1,136*7F
$GLGMP,153047.00,,,,,,07,,,,,*7C
$GAGMP,153047.00,,,,,,08,,,,,*7E
$GBGMP,153047.00,,,,,,14,,,,,*70
$PSSN,SNC,[0,315065000,2347]*40
$GPZDA,153052.00,01,01,2025,,*63
$GPDTM,W84,,00.0000000,N,00.0000000,E,00.0000000,W84*5F
$PSSN,TFM,153052.00,,,,*6F
$GPRMC,153052.00,A,4742.1604710,N,01618.1010903,E,0.0,,010125,5.1,E,D*19
$GPGLL,4742.1604710,N,01618.1010903,E,153052.00,A,D*68
$GPGGA,153052.00,4742.1604710,N,01618.1010903,E,2,39,0.4,708.3396,M,43.2065,M,3.1,0136*4B
$GNGNS,153052.00,4742.1604710,N,01618.1010903,E,DAAA,39,0.4,708.3396,43.2065,,*51
$GPGNS,153052.00,,,,,,10,,,,3.1,136*7A
$GLGNS,153052.00,,,,,,07,,,,,*78
$GAGNS,153052.00,,,,,,08,,,,,*7A
$GBGNS,153052.00,,,,,,14,,,,,*74
$GPLLQ,153052.00,010125,,M,,M,1,39,1.287,,M*17
$GPVTG,,T,,M,0.01,N,0.01,K,D*26
$GPHDT,,T*1B
$GPTHS,,V*0E
$GPROT,,V*08
$PSSN,HRP,153052.00,010125,,,,,,,00,0,,*61
$PTNL,AVR,153052.00,,Yaw,,Tilt,,,,0,,00*37
$GPGSA,A,3,05,11,12,18,20,25,26,28,29,31,,,0.7,0.4,0.6*3A
$GPGSA,A,3,71,78,79,80,81,82,88,,,,,,0.7,0.4,0.6*3B
$GPGSA,A,3,13,15,21,27,29,30,34,36,,,,,0.7,0.4,0.6*3D
$GPGSA,A,3,05,08,10,11,12,13,23,24,25,34,38,43,0.7,0.4,0.6*31
$GPGSA,A,3,44,60,,,,,,,,,,,0.7,0.4,0.6*31
$GPGST,153052.00,1.317,0.689,0.447,10.673,0.682,0.457,0.991*6B
$GPGBS,153052.00,5.441,2.277,5.499,11,0.0001,-1.272,1.398*73
$GPGRS,153052.00,1,-0.1,-1.3,0.5,-0.5,-0.3,-0.3,1.0,-0.2,0.4,0.9,,*43
$GPGRS,153052.00,1,-0.1,-1.2,0.9,-3.5,2.1,1.6,0.3,,,,,*47
$GPGRS,153052.00,1,-2.5,-0.2,1.3,0.0,0.3,0.1,0.9,-2.0,,,,*6D
$GPGRS,153052.00,1,0.6,0.3,1.3,1.8,1.2,-0.0,-0.1,0.3,-0.7,-0.8,-1.9,-0.4*42
$GPGRS,153052.00,1,-0.9,-2.0,,,,,,,,,,*45
$GPGSV,6,1,21,29,81,259,50,18,20,186,42,26,17,297,40,11,26,047,43*7C
$GPGSV,6,2,21,12,27,107,44,20,19,074,41,31,36,305,46,28,53,273,47*78
$GPGSV,6,3,21,25,67,107,50,04,01,347,36,05,09,107,40,32,03,237,39*7A
$GPGSV,6,4,21,36,35,170,45,58,13,245,36,40,23,133,37,34,31,208,43*7D
$GPGSV,6,5,21,49,34,195,45,57,05,113,37,41,07,108,35,61,03,257,38*7D
$GPGSV,6,6,21*7A
$GLGSV,3,1,09,79,67,326,52,88,61,047,51,80,13,316,45,81,57,197,52*6D
$GLGSV,3,2,09,78,54,127,52,70,07,317,33,82,10,207,44,87,05,032,38*6B
$GLGSV,3,3,09,71,08,002,41*55
$GAGSV,3,1,10,27,70,307,49,29,15,258,40,15,46,155,47,21,17,293,40*69
$GAGSV,3,2,10,34,48,070,47,19,16,303,35,30,52,102,47,13,05,191,35*62
$GAGSV,3,3,10,02,02,108,24,36,09,032,38*60
$GBGSV,5,1,20,34,79,159,51,56,15,062,,05,20,130,40,28,21,207,*63
$GBGSV,5,2,20,13,24,089,42,38,24,065,43,24,29,144,45,08,25,080,40*6A
$GBGSV,5,3,20,43,34,218,46,23,37,305,47,44,36,054,47,31,39,079,*67
$GBGSV,5,4,20,11,56,204,49,12,61,063,48,25,77,212,52,02,05,108,34*65
$GBGSV,5,5,20,20,01,296,,10,10,077,37,19,03,340,,60,09,109,39*62
$GPGGA,153052.00,,,,,0,00,,,M,,M,,*48
$PTNL,GGK,153052.00,010125,4742.1604710,N,01618.1010903,E,1,39,0.7,EHT751.5461,M*46
$GPGGQ,153052.00,010125,4742.1604710,N,01618.1010903,E,1,39,1.287,708.3396,M*36
$GPGFA,153052.00,6.553,8.127,0.689,0.447,10.673,0.991,,VVV*38
$GPLLK,153052.00,010125,,M,,M,1,39,0.8,,M*09
$GNGMP,153052.00,,,,,DAAA,39,0.4,,,,*58
$GPGMP,153052.00,,,,,,10,,,,3.1,136*7A
$GLGMP,153052.00,,,,,,07,,,,,*78
$GAGMP,153052.00,,,,,,08,,,,,*7A
$GBGMP,153052.00,,,,,,14,,,,,*74
$PSSN,SNC,[0,315070000,2347]*44
$GPZDA,153057.00,01,01,2025,,*66
$GPDTM,W84,,00.0000000,N,00.0000000,E,00.0000000,W84*5F
$PSSN,TFM,153057.00,,,,*6A
$GPRMC,153057.00,A,4742.1604709,N,01618.1010956,E,0.0,,010125,5.1,E,D*14
$GPGLL,4742.1604709,N,01618.1010956,E,153057.00,A,D*65
$GPGGA,153057.00,4742.1604709,N,01618.1010956,E,2,39,0.4,708.3383,M,43.2065,M,2.3,0136*41
$GNGNS,153057.00,4742.1604709,N,01618.1010956,E,DAAA,39,0.4,708.3383,43.2065,,*58
$GPGNS,153057.00,,,,,,10,,,,2.3,136*7C
$GLGNS,153057.00,,,,,,07,,,,,*7D
$GAGNS,153057.00,,,,,,08,,,,,*7F
$GBGNS,153057.00,,,,,,14,,,,,*71
$GPLLQ,153057.00,010125,,M,,M,1,39,1.289,,M*1C
$GPVTG,,T,,M,0.01,N,0.01,K,D*26
$GPHDT,,T*1B
$GPTHS,,V*0E
$GPROT,,V*08
$PSSN,HRP,153057.00,010125,,,,,,,00,0,,*64
$PTNL,AVR,153057.00,,Yaw,,Tilt,,,,0,,00*32
$GPGSA,A,3,05,11,12,18,20,25,26,28,29,31,,,0.7,0.4,0.6*3A
$GPGSA,A,3,71,78,79,80,81,82,88,,,,,,0.7,0.4,0.6*3B
$GPGSA,A,3,13,15,21,27,29,30,34,36,,,,,0.7,0.4,0.6*3D
$GPGSA,A,3,05,08,10,11,12,13,23,24,25,34,38,43,0.7,0.4,0.6*31
$GPGSA,A,3,44,60,,,,,,,,,,,0.7,0.4,0.6*31
$GPGST,153057.00,1.264,0.690,0.449,10.596,0.683,0.459,0.993*68
$GPGBS,153057.00,5.439,2.284,5.305,11,0.0001,-1.650,1.408*7D
$GPGRS,153057.00,1,-0.6,-1.7,0.6,-0.6,-0.2,-0.2,0.5,-0.1,0.2,0.8,,*45
$GPGRS,153057.00,1,-0.3,-0.6,1.0,-3.4,2.4,1.4,-0.1,,,,,*64
$GPGRS,153057.00,1,-2.5,-0.1,1.0,0.1,-0.1,-0.0,0.7,-1.8,,,,*6F
$GPGRS,153057.00,1,0.8,-0.4,0.3,1.7,1.2,-0.5,-0.1,0.1,-0.9,-0.6,-2.0,-0.0*64
$GPGRS,153057.00,1,-0.3,-2.0,,,,,,,,,,*4A
$GPGSV,6,1,21,29,81,259,50,18,20,186,42,26,17,297,40,11,26,047,43*7C
$GPGSV,6,2,21,12,27,107,44,20,19,074,41,31,36,305,46,28,53,273,47*78
$GPGSV,6,3,21,25,67,107,50,04,01,347,37,05,10,107,39,32,03,237,38*7C
$GPGSV,6,4,21,36,35,170,45,58,13,245,36,40,23,133,37,34,31,208,43*7D
$GPGSV,6,5,21,49,34,195,44,57,05,113,37,41,07,108,35,61,03,257,38*7C
$GPGSV,6,6,21*7A
$GLGSV,3,1,09,79,67,326,52,88,61,047,51,80,13,316,46,81,57,198,52*61
$GLGSV,3,2,09,78,54,127,52,70,07,317,32,82,10,207,43,87,05,032,38*6D
$GLGSV,3,3,09,71,08,002,43*57
$GAGSV,3,1,10,27,70,307,49,29,15,258,40,15,46,155,47,21,17,293,40*69
$GAGSV,3,2,10,34,48,070,46,19,16,303,35,30,52,102,47,13,05,191,35*63
$GAGSV,3,3,10,02,02,109,24,36,09,032,38*61
$GBGSV,5,1,20,34,79,159,51,56,15,062,,05,20,130,39,28,21,207,*6D
$GBGSV,5,2,20,13,24,089,41,38,24,065,42,24,29,144,45,08,25,080,39*66
$GBGSV,5,3,20,43,34,218,47,23,37,305,47,44,36,054,47,31,39,079,*66
$GBGSV,5,4,20,11,56,204,49,12,61,063,48,25,77,212,51,02,05,108,34*66
$GBGSV,5,5,20,20,01,296,,10,10,077,37,19,03,340,,60,09,109,39*62
$GPGGA,153057.00,,,,,0,00,,,M,,M,,*4D
$PTNL,GGK,153057.00,010125,4742.1604709,N,01618.1010956,E,1,39,0.7,EHT751.5448,M*40
$GPGGQ,153057.00,010125,4742.1604709,N,01618.1010956,E,1,39,1.289,708.3383,M*31
$GPGFA,153057.00,6.558,8.140,0.690,0.449,10.596,0.993,,VVV*3B
$GPLLK,153057.00,010125,,M,,M,1,39,0.8,,M*0C
$GNGMP,153057.00,,,,,DAAA,39,0.4,,,,*5D
$GPGMP,153057.00,,,,,,10,,,,2.3,136*7C
$GLGMP,153057.00,,,,,,07,,,,,*7D
$GAGMP,153057.00,,,,,,08,,,,,*7F
$GBGMP,153057.00,,,,,,14,,,,,*71
$PSSN,SNC,[0,315075000,2347]*41
$GPZDA,153102.00,01,01,2025,,*67
$GPDTM,W84,,00.0000000,N,00.0000000,E,00.0000000,W84*5F
$PSSN,TFM,153102.00,,,,*6B
$GPRMC,153102.00,A,4742.1604726,N,01618.1011007,E,0.0,,010125,5.1,E,D*14
$GPGLL,4742.1604726,N,01618.1011007,E,153102.00,A,D*65
$GPGGA,153102.00,4742.1604726,N,01618.1011007,E,2,39,0.4,708.3332,M,43.2065,M,2.4,0136*4C
$GNGNS,153102.00,4742.1604726,N,01618.1011007,E,DAAA,39,0.4,708.3332,43.2065,,*52
$GPGNS,153102.00,,,,,,10,,,,2.4,136*7A
$GLGNS,153102.00,,,,,,07,,,,,*7C
$GAGNS,153102.00,,,,,,08,,,,,*7E
$GBGNS,153102.00,,,,,,14,,,,,*70
$GPLLQ,153102.00,010125,,M,,M,1,39,1.285,,M*11
$GPVTG,,T,,M,0.01,N,0.02,K,D*25
$GPHDT,,T*1B
$GPTHS,,V*0E
$GPROT,,V*08
$PSSN,HRP,153102.00,010125,,,,,,,00,0,,*65
$PTNL,AVR,153102.00,,Yaw,,Tilt,,,,0,,00*33
$GPGSA,A,3,05,11,12,18,20,25,26,28,29,31,,,0.7,0.4,0.6*3A
$GPGSA,A,3,71,78,79,80,81,82,88,,,,,,0.7,0.4,0.6*3B
$GPGSA,A,3,13,15,21,27,29,30,34,36,,,,,0.7,0.4,0.6*3D
$GPGSA,A,3,05,08,10,11,12,13,23,24,25,34,38,43,0.7,0.4,0.6*31
$GPGSA,A,3,44,60,,,,,,,,,,,0.7,0.4,0.6*31
$GPGST,153102.00,1.181,0.687,0.448,10.484,0.680,0.458,0.989*6D
$GPGBS,153102.00,5.400,2.276,5.339,11,0.0001,-1.248,1.385*7B
$GPGRS,153102.00,1,-0.6,-1.2,0.1,-0.3,0.1,0.0,0.7,-0.1,0.2,0.7,,*4F
$GPGRS,153102.00,1,0.9,-0.9,0.9,-3.0,2.2,1.0,-0.1,,,,,*43
$GPGRS,153102.00,1,-2.3,-0.1,1.0,0.0,0.1,0.1,0.7,-1.9,,,,*69
$GPGRS,153102.00,1,1.0,-0.3,0.9,1.6,1.2,-0.5,-0.1,-0.1,-1.0,-0.4,-1.8,-0.1*4D
$GPGRS,153102.00,1,-0.6,-1.7,,,,,,,,,,*4A
$GPGSV,6,1,21,29,81,259,50,18,20,186,43,26,17,297,41,11,26,047,43*7C
$GPGSV,6,2,21,12,27,107,44,20,19,074,41,31,36,304,46,28,53,273,47*79
$GPGSV,6,3,21,25,67,107,49,04,01,347,36,05,10,107,39,32,03,237,37*7A
$GPGSV,6,4,21,36,35,170,45,58,13,245,36,40,23,133,37,34,31,208,43*7D
$GPGSV,6,5,21,49,34,195,45,57,05,113,38,41,07,108,35,61,03,257,38*72
$GPGSV,6,6,21*7A
$GLGSV,3,1,09,79,67,326,52,88,61,047,51,80,13,316,46,81,57,198,52*61
$GLGSV,3,2,09,78,54,127,51,70,07,317,33,82,10,207,43,87,05,032,38*6F
$GLGSV,3,3,09,71,08,002,43*57
$GAGSV,3,1,10,27,70,307,49,29,15,258,41,15,46,155,47,21,17,293,40*68
$GAGSV,3,2,10,34,48,070,46,19,16,303,35,30,52,102,47,13,05,191,36*60
$GAGSV,3,3,10,02,02,109,33,36,09,032,38*67
$GBGSV,5,1,20,34,79,159,51,56,15,062,,05,20,130,40,28,21,207,*63
$GBGSV,5,2,20,13,24,089,41,38,24,065,42,24,29,144,45,08,25,080,39*66
$GBGSV,5,3,20,43,34,218,46,23,37,305,47,44,36,054,47,31,39,079,*67
$GBGSV,5,4,20,11,56,204,49,12,61,063,48,25,77,212,51,02,05,107,34*69
$GBGSV,5,5,20,20,01,296,,10,10,077,36,19,03,340,,60,09,109,39*63
$GPGGA,153102.00,,,,,0,00,,,M,,M,,*4C
$PTNL,GGK,153102.00,010125,4742.1604726,N,01618.1011007,E,1,39,0.7,EHT751.5398,M*4A
$GPGGQ,153102.00,010125,4742.1604726,N,01618.1011007,E,1,39,1.285,708.3332,M*37
$GPGFA,153102.00,6.528,8.114,0.687,0.448,10.484,0.989,,VVV*32
$GPLLK,153102.00,010125,,M,,M,1,39,0.8,,M*0D
$GNGMP,153102.00,,,,,DAAA,39,0.4,,,,*5C
$GPGMP,153102.00,,,,,,10,,,,2.4,136*7A
$GLGMP,153102.00,,,,,,07,,,,,*7C
$GAGMP,153102.00,,,,,,08,,,,,*7E
$GBGMP,153102.00,,,,,,14,,,,,*70
$PSSN,SNC,[0,315080000,2347]*4B
$GPZDA,153107.00,01,01,2025,,*62
$GPDTM,W84,,00.0000000,N,00.0000000,E,00.0000000,W84*5F
$PSSN,TFM,153107.00,,,,*6E
$GPRMC,153107.00,A,4742.1604705,N,01618.1011033,E,0.0,,010125,5.1,E,D*17
$GPGLL,4742.1604705,N,01618.1011033,E,153107.00,A,D*66
$GPGGA,153107.00,4742.1604705,N,01618.1011033,E,2,39,0.4,708.3327,M,43.2065,M,2.1,0136*4E
$GNGNS,153107.00,4742.1604705,N,01618.1011033,E,DAAA,39,0.4,708.3327,43.2065,,*55
$GPGNS,153107.00,,,,,,10,,,,2.1,136*7A
$GLGNS,153107.00,,,,,,07,,,,,*79
$GAGNS,153107.00,,,,,,08,,,,,*7B
$GBGNS,153107.00,,,,,,14,,,,,*75
$GPLLQ,153107.00,010125,,M,,M,1,39,1.284,,M*15
$GPVTG,,T,,M,0.00,N,0.01,K,D*27
$GPHDT,,T*1B
$GPTHS,,V*0E
$GPROT,,V*08
$PSSN,HRP,153107.00,010125,,,,,,,00,0,,*60
$PTNL,AVR,153107.00,,Yaw,,Tilt,,,,0,,00*36
$GPGSA,A,3,05,11,12,18,20,25,26,28,29,31,,,0.7,0.4,0.6*3A
$GPGSA,A,3,71,78,79,80,81,82,88,,,,,,0.7,0.4,0.6*3B
$GPGSA,A,3,13,15,21,27,29,30,34,36,,,,,0.7,0.4,0.6*3D
$GPGSA,A,3,05,08,10,11,12,13,23,24,25,34,38,43,0.7,0.4,0.6*31
$GPGSA,A,3,44,60,,,,,,,,,,,0.7,0.4,0.6*31
$GPGST,153107.00,1.232,0.686,0.446,10.713,0.679,0.457,0.990*60
$GPGBS,153107.00,5.410,2.271,5.458,11,0.0001,-1.202,1.392*70
$GPGRS,153107.00,1,-0.7,-1.2,0.5,-0.7,0.3,-0.1,0.9,-0.2,0.2,0.6,,*69
$GPGRS,153107.00,1,0.7,-0.8,0.9,-3.9,2.2,0.6,-0.5,,,,,*43
$GPGRS,153107.00,1,-2.1,0.0,0.6,0.0,-0.4,0.2,0.7,-1.9,,,,*6E
$GPGRS,153107.00,1,1.1,-0.4,1.0,1.0,1.3,-0.6,-0.4,-0.1,-0.8,-0.3,-1.7,-0.3*44
$GPGRS,153107.00,1,-0.6,-1.8,,,,,,,,,,*40
$GPGSV,6,1,21,29,81,259,50,18,20,186,43,26,17,297,41,11,26,047,43*7C
$GPGSV,6,2,21,12,27,107,44,20,19,074,40,31,36,304,46,28,53,273,47*78
$GPGSV,6,3,21,25,67,107,50,04,01,347,35,05,10,107,39,32,03,237,37*71
$GPGSV,6,4,21,36,35,170,45,58,13,245,36,40,23,133,37,34,31,208,43*7D
$GPGSV,6,5,21,49,34,195,45,57,05,113,38,41,07,108,35,61,03,257,38*72
$GPGSV,6,6,21*7A
$GLGSV,3,1,09,79,67,326,52,88,61,047,51,80,13,316,45,81,57,198,52*62
$GLGSV,3,2,09,78,54,127,52,70,07,317,33,82,10,207,44,87,05,032,39*6A
$GLGSV,3,3,09,71,08,001,43*54
$GAGSV,3,1,10,27,70,307,49,29,15,258,40,15,46,155,47,21,17,293,41*68
$GAGSV,3,2,10,34,48,070,46,19,16,303,35,30,52,102,47,13,05,191,36*60
$GAGSV,3,3,10,02,02,109,24,36,09,032,37*6E
$GBGSV,5,1,20,34,79,159,51,56,15,062,,05,20,130,40,28,21,207,*63
$GBGSV,5,2,20,13,24,089,41,38,24,065,42,24,29,144,45,08,25,080,39*66
$GBGSV,5,3,20,43,34,218,47,23,37,305,47,44,36,054,47,31,39,079,*66
$GBGSV,5,4,20,11,56,204,49,12,61,063,48,25,77,211,52,02,05,107,34*69
$GBGSV,5,5,20,20,01,296,,10,10,077,36,19,03,340,,60,09,109,39*63
$GPGGA,153107.00,,,,,0,00,,,M,,M,,*49
$PTNL,GGK,153107.00,010125,4742.1604705,N,01618.1011033,E,1,39,0.7,EHT751.5392,M*43
$GPGGQ,153107.00,010125,4742.1604705,N,01618.1011033,E,1,39,1.284,708.3327,M*31
$GPGFA,153107.00,6.524,8.116,0.686,0.446,10.713,0.990,,VVV*33
$GPLLK,153107.00,010125,,M,,M,1,39,0.8,,M*08
$GNGMP,153107.00,,,,,DAAA,39,0.4,,,,*59
$GPGMP,153107.00,,,,,,10,,,,2.1,136*7A
$GLGMP,153107.00,,,,,,07,,,,,*79
$GAGMP,153107.00,,,,,,08,,,,,*7B
$GBGMP,153107.00,,,,,,14,,,,,*75
$PSSN,SNC,[0,315085000,2347]*4E
$GPZDA,153112.00,01,01,2025,,*66
$GPDTM,W84,,00.0000000,N,00.0000000,E,00.0000000,W84*5F
$PSSN,TFM,153112.00,,,,*6A
$GPRMC,153112.00,A,4742.1604707,N,01618.1011064,E,0.0,,010125,5.1,E,D*13
$GPGLL,4742.1604707,N,01618.1011064,E,153112.00,A,D*62
$GPGGA,153112.00,4742.1604707,N,01618.1011064,E,2,39,0.4,708.3291,M,43.2065,M,3.1,0136*47
$GNGNS,153112.00,4742.1604707,N,01618.1011064,E,DAAA,39,0.4,708.3291,43.2065,,*5D
$GPGNS,153112.00,,,,,,10,,,,3.1,136*7F
$GLGNS,153112.00,,,,,,07,,,,,*7D
$GAGNS,153112.00,,,,,,08,,,,,*7F
$GBGNS,153112.00,,,,,,14,,,,,*71
$GPLLQ,153112.00,010125,,M,,M,1,39,1.286,,M*13
$GPVTG,,T,,M,0.01,N,0.02,K,D*25
$GPHDT,,T*1B
$GPTHS,,V*0E
$GPROT,,V*08
$PSSN,HRP,153112.00,010125,,,,,,,00,0,,*64
$PTNL,AVR,153112.00,,Yaw,,Tilt,,,,0,,00*32
$GPGSA,A,3,05,11,12,18,20,25,26,28,29,31,,,0.7,0.4,0.6*3A
$GPGSA,A,3,71,78,79,80,81,82,88,,,,,,0.7,0.4,0.6*3B
$GPGSA,A,3,13,15,21,27,29,30,34,36,,,,,0.7,0.4,0.6*3D
$GPGSA,A,3,05,08,10,11,12,13,23,24,25,34,38,43,0.7,0.4,0.6*31
$GPGSA,A,3,44,60,,,,,,,,,,,0.7,0.4,0.6*31
$GPGST,153112.00,1.274,0.688,0.447,10.722,0.681,0.457,0.991*6D
$GPGBS,153112.00,5.430,2.274,5.522,11,0.0001,-1.521,1.401*74
$GPGRS,153112.00,1,-0.5,-1.5,0.2,-1.0,0.2,0.1,0.4,-0.1,0.4,0.8,,*43
$GPGRS,153112.00,1,1.0,-0.3,0.4,-4.1,2.3,0.7,-0.5,,,,,*48
$GPGRS,153112.00,1,-2.3,0.0,0.6,0.1,-0.3,0.3,0.8,-1.9,,,,*60
$GPGRS,153112.00,1,1.4,-0.4,0.6,1.1,1.2,-0.8,-0.3,0.7,-0.7,-0.3,-1.0,-0.6*6D
$GPGRS,153112.00,1,-0.5,-2.1,,,,,,,,,,*4D
$GPGSV,6,1,21,29,81,259,51,18,20,186,42,26,17,297,41,11,26,047,43*7C
$GPGSV,6,2,21,12,27,107,44,20,19,073,40,31,36,304,46,28,53,273,47*7F
$GPGSV,6,3,21,25,67,107,49,04,01,347,35,05,10,107,39,32,03,237,38*76
$GPGSV,6,4,21,36,35,170,45,58,13,245,36,40,23,133,37,34,31,208,43*7D
$GPGSV,6,5,21,49,34,195,45,57,05,113,38,41,07,108,35,61,03,257,38*72
$GPGSV,6,6,21*7A
$GLGSV,3,1,09,79,67,326,52,88,61,047,51,80,13,316,45,81,57,198,52*62
$GLGSV,3,2,09,78,54,127,52,70,07,317,33,82,10,207,44,87,05,032,38*6B
$GLGSV,3,3,09,71,08,001,42*55
$GAGSV,3,1,10,27,70,307,49,29,15,258,40,15,46,155,46,21,17,293,40*68
$GAGSV,3,2,10,34,48,070,46,19,16,303,35,30,52,102,47,13,05,191,36*60
$GAGSV,3,3,10,02,02,109,23,36,09,032,37*69
$GBGSV,5,1,20,34,79,159,51,56,15,062,,05,20,130,40,28,21,207,*63
$GBGSV,5,2,20,13,24,089,41,38,24,065,42,24,29,144,45,08,25,080,39*66
$GBGSV,5,3,20,43,34,218,46,23,37,305,47,44,36,054,47,31,39,079,*67
$GBGSV,5,4,20,11,56,204,49,12,61,063,48,25,77,211,51,02,05,107,34*6A
$GBGSV,5,5,20,20,01,296,,10,10,077,36,19,03,340,,60,09,109,39*63
$GPGGA,153112.00,,,,,0,00,,,M,,M,,*4D
$PTNL,GGK,153112.00,010125,4742.1604707,N,01618.1011064,E,1,39,0.7,EHT751.5357,M*4E
$GPGGQ,153112.00,010125,4742.1604707,N,01618.1011064,E,1,39,1.286,708.3291,M*3B
$GPGFA,153112.00,6.542,8.123,0.688,0.447,10.722,0.991,,VVV*3D
$GPLLK,153112.00,010125,,M,,M,1,39,0.8,,M*0C
$GNGMP,153112.00,,,,,DAAA,39,0.4,,,,*5D
$GPGMP,153112.00,,,,,,10,,,,3.1,136*7F
$GLGMP,153112.00,,,,,,07,,,,,*7D
$GAGMP,153112.00,,,,,,08,,,,,*7F
$GBGMP,153112.00,,,,,,14,,,,,*71
$PSSN,SNC,[0,315090000,2347]*4A
$GPZDA,153117.00,01,01,2025,,*63
$GPDTM,W84,,00.0000000,N,00.0000000,E,00.0000000,W84*5F
$PSSN,TFM,153117.00,,,,*6F
$GPRMC,153117.00,A,4742.1604718,N,01618.1011088,E,0.0,,010125,5.1,E,D*1A
$GPGLL,4742.1604718,N,01618.1011088,E,153117.00,A,D*6B
$GPGGA,153117.00,4742.1604718,N,01618.1011088,E,2,39,0.4,708.3227,M,43.2065,M,2.3,0136*40
$GNGNS,153117.00,4742.1604718,N,01618.1011088,E,DAAA,39,0.4,708.3227,43.2065,,*59
$GPGNS,153117.00,,,,,,10,,,,2.3,136*79
$GLGNS,153117.00,,,,,,07,,,,,*78
$GAGNS,153117.00,,,,,,08,,,,,*7A
$GBGNS,153117.00,,,,,,14,,,,,*74
$GPLLQ,153117.00,010125,,M,,M,1,39,1.288,,M*18
$GPVTG,,T,,M,0.01,N,0.02,K,D*25
$GPHDT,,T*1B
$GPTHS,,V*0E
$GPROT,,V*08
$PSSN,HRP,153117.00,010125,,,,,,,00,0,,*61
$PTNL,AVR,153117.00,,Yaw,,Tilt,,,,0,,00*37
$GPGSA,A,3,05,11,12,18,20,25,26,28,29,31,,,0.7,0.4,0.6*3A
$GPGSA,A,3,71,78,79,80,81,82,88,,,,,,0.7,0.4,0.6*3B
$GPGSA,A,3,13,15,21,27,29,30,34,36,,,,,0.7,0.4,0.6*3D
$GPGSA,A,3,05,08,10,11,12,13,23,24,25,34,38,43,0.7,0.4,0.6*31
$GPGSA,A,3,44,60,,,,,,,,,,,0.7,0.4,0.6*31
$GPGST,153117.00,1.205,0.689,0.448,10.657,0.682,0.459,0.992*6D
$GPGBS,153117.00,5.428,2.281,5.328,11,0.0001,-1.339,1.411*70
$GPGRS,153117.00,1,-0.1,-1.3,0.1,-1.0,0.2,0.2,-0.1,-0.0,0.1,0.4,,*64
$GPGRS,153117.00,1,1.1,-0.6,0.5,-3.4,2.0,1.5,-0.3,,,,,*4C
$GPGRS,153117.00,1,-2.2,0.4,0.6,0.1,0.1,0.4,0.9,-1.8,,,,*48
$GPGRS,153117.00,1,1.4,-0.3,1.0,1.7,1.3,-0.4,-0.0,0.7,-0.7,-0.3,-0.7,-0.2*62
$GPGRS,153117.00,1,-0.4,-2.0,,,,,,,,,,*48
$GPGSV,6,1,21,29,81,259,51,18,20,186,42,26,17,297,40,11,26,047,43*7D
$GPGSV,6,2,21,12,27,107,44,20,19,073,40,31,36,304,46,28,53,273,47*7F
$GPGSV,6,3,21,25,67,107,49,04,01,347,34,05,10,107,39,32,03,237,38*77
$GPGSV,6,4,21,36,35,170,45,58,13,245,36,40,23,133,37,34,31,208,43*7D
$GPGSV,6,5,21,49,34,195,45,57,05,113,38,41,07,108,35,61,03,257,38*72
$GPGSV,6,6,21*7A
$GLGSV,3,1,09,79,67,327,52,88,61,047,51,80,13,316,46,81,57,198,52*60
$GLGSV,3,2,09,78,54,127,52,70,07,317,33,82,10,207,44,87,04,032,39*6B
$GLGSV,3,3,09,71,08,001,42*55
$GAGSV,3,1,10,27,70,307,49,29,15,258,40,15,46,155,47,21,18,293,40*66
$GAGSV,3,2,10,34,48,070,46,19,16,303,35,30,52,102,47,13,05,191,36*60
$GAGSV,3,3,10,02,02,109,32,36,09,032,37*69
$GBGSV,5,1,20,34,79,159,51,56,15,062,,05,20,130,40,28,21,207,*63
$GBGSV,5,2,20,13,24,089,41,38,24,065,42,24,29,144,45,08,25,080,39*66
$GBGSV,5,3,20,43,34,218,46,23,37,305,47,44,36,054,46,31,39,079,*66
$GBGSV,5,4,20,11,57,204,49,12,61,063,48,25,77,211,52,02,05,107,34*68
$GBGSV,5,5,20,20,01,296,,10,10,077,36,19,03,340,,60,09,109,39*63
$GPGGA,153117.00,,,,,0,00,,,M,,M,,*48
