$GPZDA,235942.00,31,12,2024,,*68
$GPDTM,W84,,00.0000000,N,00.0000000,E,00.0000000,W84*5F
$PSSN,TFM,235942.00,,,,*64
$GPRMC,235942.00,A,4742.1600846,N,01618.1003757,E,0.0,,311224,5.1,E,D*17
$GPGLL,4742.1600846,N,01618.1003757,E,235942.00,A,D*66
$GPGGA,235942.00,4742.1600846,N,01618.1003757,E,2,39,0.4,708.0661,M,43.2066,M,1.8,0136*43
$GNGNS,235942.00,4742.1600846,N,01618.1003757,E,DAAA,39,0.4,708.0661,43.2066,,*52
$GPGNS,235942.00,,,,,,10,,,,1.8,136*7A
$GLGNS,235942.00,,,,,,06,,,,,*72
$GAGNS,235942.00,,,,,,10,,,,,*78
$GBGNS,235942.00,,,,,,13,,,,,*78
$GPLLQ,235942.00,123124,,M,,M,1,39,0.844,,M*18
$GPVTG,,T,,M,0.00,N,0.01,K,D*27
$GPHDT,,T*1B
$GPTHS,,V*0E
$GPROT,,V*08
$PSSN,HRP,235942.00,311224,,,,,,,00,0,,*6A
$PTNL,AVR,235942.00,,Yaw,,Tilt,,,,0,,00*3C
$GPGSA,A,3,02,03,04,08,10,14,17,21,28,32,,,0.7,0.4,0.6*30
$GPGSA,A,3,68,69,76,83,84,85,,,,,,,0.7,0.4,0.6*3D
$GPGSA,A,3,02,04,06,09,10,11,12,19,30,36,,,0.7,0.4,0.6*32
$GPGSA,A,3,05,06,09,13,16,19,20,29,30,32,35,39,0.7,0.4,0.6*37
$GPGSA,A,3,60,,,,,,,,,,,,0.7,0.4,0.6*31
$GPGST,235942.00,1.359,0.428,0.358,4.475,0.428,0.359,0.633*57
$GPGBS,235942.00,2.706,2.136,3.599,68,0.0001,4.448,6.091*5A
$GPGRS,235942.00,1,-0.2,0.3,-0.5,-0.6,-2.4,0.2,0.2,0.0,0.5,0.0,,*44
$GPGRS,235942.00,1,4.4,0.5,-4.0,-2.5,0.1,0.3,,,,,,*41
$GPGRS,235942.00,1,-0.2,-0.0,0.3,0.5,0.6,-0.3,0.2,-0.8,-0.0,-0.4,,*4A
$GPGRS,235942.00,1,1.4,0.4,0.8,-1.0,-1.1,-0.1,-0.4,0.3,0.7,-0.5,-1.2,-0.4*63
$GPGRS,235942.00,1,-1.0,,,,,,,,,,,*47
$GPGSV,6,1,21,02,85,302,50,08,22,184,42,28,16,099,40,32,36,053,46*7C
$GPGSV,6,2,21,17,27,313,43,03,49,259,47,21,72,125,45,19,02,328,37*7E
$GPGSV,6,3,21,10,07,068,38,04,09,197,37,31,06,125,34,14,08,278,38*74
$GPGSV,6,4,21,36,35,170,45,58,12,245,38,57,10,109,38,34,31,208,42*73
$GPGSV,6,5,21,40,24,132,36,49,34,195,44,41,07,108,34,61,03,257,37*75
$GPGSV,6,6,21*7A
$GLGSV,2,1,08,84,81,349,41,70,12,216,35,83,29,134,38,85,26,321,47*60
$GLGSV,2,2,08,68,46,039,51,69,78,198,52,77,04,027,35,76,08,345,42*62
$GAGSV,3,1,11,11,83,055,44,02,13,285,39,09,27,185,43,12,31,111,40*67
$GAGSV,3,2,11,19,28,047,38,36,40,302,44,06,46,166,46,10,56,106,47*62
$GAGSV,3,3,11,04,59,125,47,30,06,334,37,25,04,238,37*5E
$GBGSV,5,1,20,29,64,281,51,19,12,226,42,35,11,315,41,39,24,061,42*69
$GBGSV,5,2,20,05,24,128,38,48,38,223,,57,20,086,,30,46,161,49*6D
$GBGSV,5,3,20,16,24,072,39,09,21,089,38,06,23,075,39,20,60,217,52*69
$GBGSV,5,4,20,32,58,057,50,31,02,098,,02,08,105,34,27,02,143,*6A
$GBGSV,5,5,20,41,05,050,38,22,09,217,,13,06,073,36,60,10,109,38*6B
$GPGGA,235942.00,,,,,0,00,,,M,,M,,*43
$PTNL,GGK,235942.00,123124,4742.1600846,N,01618.1003757,E,1,39,0.7,EHT751.2726,M*4F
$GPGGQ,235942.00,123124,4742.1600846,N,01618.1003757,E,1,39,0.844,708.0661,M*32
$GPGFA,235942.00,4.072,5.187,0.428,0.358,4.475,0.633,,VVV*06
$GPLLK,235942.00,123124,,M,,M,1,39,0.8,,M*02
$GNGMP,235942.00,,,,,DAAA,39,0.4,,,,*53
$GPGMP,235942.00,,,,,,10,,,,1.8,136*7A
$GLGMP,235942.00,,,,,,06,,,,,*72
$GAGMP,235942.00,,,,,,10,,,,,*78
$GBGMP,235942.00,,,,,,13,,,,,*78
$PSSN,SNC,[0,259200000,2347]*48
$GPZDA,235947.00,31,12,2024,,*6D
$GPDTM,W84,,00.0000000,N,00.0000000,E,00.0000000,W84*5F
$PSSN,TFM,235947.00,,,,*61
$GPRMC,235947.00,A,4742.1600809,N,01618.1003766,E,0.0,,311224,5.1,E,D*1B
$GPGLL,4742.1600809,N,01618.1003766,E,235947.00,A,D*6A
$GPGGA,235947.00,4742.1600809,N,01618.1003766,E,2,40,0.4,708.0713,M,43.2066,M,2.0,0136*4E
$GNGNS,235947.00,4742.1600809,N,01618.1003766,E,DAAA,40,0.4,708.0713,43.2066,,*54
$GPGNS,235947.00,,,,,,10,,,,2.0,136*74
$GLGNS,235947.00,,,,,,07,,,,,*76
$GAGNS,235947.00,,,,,,10,,,,,*7D
$GBGNS,235947.00,,,,,,13,,,,,*7D
$GPLLQ,235947.00,123124,,M,,M,1,40,0.835,,M*15
$GPVTG,,T,,M,0.00,N,0.01,K,D*27
$GPHDT,,T*1B
$GPTHS,,V*0E
$GPROT,,V*08
$PSSN,HRP,235947.00,311224,,,,,,,00,0,,*6F
$PTNL,AVR,235947.00,,Yaw,,Tilt,,,,0,,00*39
$GPGSA,A,3,02,03,04,08,10,14,17,21,28,32,,,0.7,0.4,0.5*33
$GPGSA,A,3,68,69,70,76,83,84,85,,,,,,0.7,0.4,0.5*39
$GPGSA,A,3,02,04,06,09,10,11,12,19,30,36,,,0.7,0.4,0.5*31
$GPGSA,A,3,05,06,09,13,16,19,20,29,30,32,35,39,0.7,0.4,0.5*34
$GPGSA,A,3,60,,,,,,,,,,,,0.7,0.4,0.5*32
$GPGST,235947.00,1.246,0.424,0.355,2.999,0.424,0.355,0.626*51
$GPGBS,235947.00,2.681,2.105,3.652,68,0.0001,4.543,6.091*5F
$GPGRS,235947.00,1,-0.1,0.4,-0.2,-0.5,-2.1,0.1,-0.3,-0.3,0.7,0.1,,*46
$GPGRS,235947.00,1,4.5,0.8,-0.3,-2.9,-2.0,-0.3,0.5,,,,,*6B
$GPGRS,235947.00,1,-0.6,0.0,0.2,0.5,0.5,-0.3,0.5,-0.6,0.1,-0.3,,*46
$GPGRS,235947.00,1,2.0,0.9,0.9,-1.4,-0.5,-0.1,-0.2,0.3,0.5,-0.5,-0.9,-0.0*66
$GPGRS,235947.00,1,-1.1,,,,,,,,,,,*43
$GPGSV,6,1,21,02,85,302,50,08,22,184,41,28,16,099,40,32,35,053,46*7C
$GPGSV,6,2,21,17,27,313,43,03,49,259,47,21,72,125,45,19,02,328,37*7E
$GPGSV,6,3,21,10,07,068,39,04,09,197,36,31,06,125,33,14,08,278,37*7C
$GPGSV,6,4,21,36,35,170,45,58,12,245,38,57,10,109,38,34,31,208,42*73
$GPGSV,6,5,21,40,24,132,36,49,34,195,44,41,07,108,35,61,03,257,37*74
$GPGSV,6,6,21*7A
$GLGSV,2,1,08,84,81,349,41,70,12,216,35,83,29,134,38,85,26,321,46*61
$GLGSV,2,2,08,68,46,039,51,69,78,198,52,77,04,027,36,76,08,345,43*60
$GAGSV,3,1,11,11,83,055,44,02,13,285,38,09,27,185,43,12,31,111,40*66
$GAGSV,3,2,11,19,28,047,38,36,40,302,44,06,46,166,46,10,56,106,47*62
$GAGSV,3,3,11,04,59,125,48,30,06,334,37,25,04,238,37*51
$GBGSV,5,1,20,29,64,281,51,19,12,226,42,35,11,315,41,39,24,061,42*69
$GBGSV,5,2,20,05,24,128,38,48,38,223,,57,20,086,,30,46,161,49*6D
$GBGSV,5,3,20,16,24,072,40,09,21,089,38,06,23,075,39,20,60,217,52*67
$GBGSV,5,4,20,32,58,057,50,31,02,098,,02,08,105,33,27,02,143,*6D
$GBGSV,5,5,20,41,05,050,38,22,09,217,,13,06,073,37,60,10,109,39*6B
$GPGGA,235947.00,,,,,0,00,,,M,,M,,*46
$PTNL,GGK,235947.00,123124,4742.1600809,N,01618.1003766,E,1,40,0.7,EHT751.2778,M*46
$GPGGQ,235947.00,123124,4742.1600809,N,01618.1003766,E,1,40,0.835,708.0713,M*32
$GPGFA,235947.00,4.036,5.132,0.424,0.355,2.999,0.626,,VVV*01
$GPLLK,235947.00,123124,,M,,M,1,40,0.7,,M*06
$GNGMP,235947.00,,,,,DAAA,40,0.4,,,,*58
$GPGMP,235947.00,,,,,,10,,,,2.0,136*74
$GLGMP,235947.00,,,,,,07,,,,,*76
$GAGMP,235947.00,,,,,,10,,,,,*7D
$GBGMP,235947.00,,,,,,13,,,,,*7D
$PSSN,SNC,[0,259205000,2347]*4D
$GPZDA,235952.00,31,12,2024,,*69
$GPDTM,W84,,00.0000000,N,00.0000000,E,00.0000000,W84*5F
$PSSN,TFM,235952.00,,,,*65
$GPRMC,235952.00,A,4742.1600797,N,01618.1003745,E,0.0,,311224,5.1,E,D*16
$GPGLL,4742.1600797,N,01618.1003745,E,235952.00,A,D*67
$GPGGA,235952.00,4742.1600797,N,01618.1003745,E,2,40,0.4,708.0744,M,43.2066,M,3.0,0136*40
$GNGNS,235952.00,4742.1600797,N,01618.1003745,E,DAAA,40,0.4,708.0744,43.2066,,*5B
$GPGNS,235952.00,,,,,,10,,,,3.0,136*71
$GLGNS,235952.00,,,,,,07,,,,,*72
$GAGNS,235952.00,,,,,,10,,,,,*79
$GBGNS,235952.00,,,,,,13,,,,,*79
$GPLLQ,235952.00,123124,,M,,M,1,40,0.842,,M*11
$GPVTG,,T,,M,0.00,N,0.00,K,D*26
$GPHDT,,T*1B
$GPTHS,,V*0E
$GPROT,,V*08
$PSSN,HRP,235952.00,311224,,,,,,,00,0,,*6B
$PTNL,AVR,235952.00,,Yaw,,Tilt,,,,0,,00*3D
$GPGSA,A,3,02,03,04,08,10,14,17,21,28,32,,,0.7,0.4,0.5*33
$GPGSA,A,3,68,69,70,76,83,84,85,,,,,,0.7,0.4,0.5*39
$GPGSA,A,3,02,04,06,09,10,11,12,19,30,36,,,0.7,0.4,0.5*31
$GPGSA,A,3,05,06,09,13,16,19,20,29,30,32,35,39,0.7,0.4,0.5*34
$GPGSA,A,3,60,,,,,,,,,,,,0.7,0.4,0.5*32
$GPGST,235952.00,1.292,0.426,0.356,0.583,0.426,0.356,0.633*5D
$GPGBS,235952.00,2.705,2.141,3.721,68,0.0001,4.614,6.092*51
$GPGRS,235952.00,1,-0.2,0.2,0.6,-0.5,-1.3,-0.2,0.2,0.0,0.6,-0.1,,*6F
$GPGRS,235952.00,1,4.6,0.3,-1.8,-3.1,-2.0,-1.0,-0.2,,,,,*4C
$GPGRS,235952.00,1,-0.0,0.2,0.4,0.2,0.4,-0.3,0.2,-0.7,-0.1,-0.3,,*6D
$GPGRS,235952.00,1,1.8,1.1,1.0,-1.7,0.1,-1.1,-0.4,0.4,0.5,-0.5,-0.6,0.2*62
$GPGRS,235952.00,1,-1.1,,,,,,,,,,,*47
$GPGSV,6,1,21,02,85,302,50,08,22,184,42,28,16,099,41,32,35,053,46*7E
$GPGSV,6,2,21,17,27,313,44,03,49,259,47,21,72,125,45,19,02,328,38*76
$GPGSV,6,3,21,10,07,068,38,04,09,197,37,31,06,125,34,14,08,278,37*7B
$GPGSV,6,4,21,36,35,170,45,58,12,245,38,57,10,109,38,34,31,208,42*73
$GPGSV,6,5,21,40,24,132,36,49,34,195,44,41,07,108,34,61,03,257,37*75
$GPGSV,6,6,21*7A
$GLGSV,2,1,08,84,81,349,41,70,12,216,35,83,29,134,38,85,26,321,46*61
$GLGSV,2,2,08,68,46,039,51,69,78,198,52,77,04,027,36,76,08,345,43*60
$GAGSV,3,1,11,11,83,055,44,02,13,285,39,09,27,185,43,12,31,111,40*67
$GAGSV,3,2,11,19,28,047,38,36,40,302,44,06,46,166,46,10,56,106,47*62
$GAGSV,3,3,11,04,59,125,48,30,06,334,37,25,04,238,37*51
$GBGSV,5,1,20,29,64,281,51,19,12,226,41,35,11,315,42,39,24,061,42*69
$GBGSV,5,2,20,05,24,128,38,48,38,223,,57,20,086,,30,46,161,49*6D
$GBGSV,5,3,20,16,24,072,40,09,21,089,38,06,23,075,39,20,60,217,52*67
$GBGSV,5,4,20,32,58,057,50,31,02,098,,02,08,105,34,27,02,143,*6A
$GBGSV,5,5,20,41,05,050,38,22,09,217,,13,06,073,36,60,10,109,39*6A
$GPGGA,235952.00,,,,,0,00,,,M,,M,,*42
$PTNL,GGK,235952.00,123124,4742.1600797,N,01618.1003745,E,1,40,0.7,EHT751.2810,M*4A
$GPGGQ,235952.00,123124,4742.1600797,N,01618.1003745,E,1,40,0.842,708.0744,M*3D
$GPGFA,235952.00,4.053,5.193,0.426,0.356,0.583,0.633,,VVV*0D
$GPLLK,235952.00,123124,,M,,M,1,40,0.7,,M*02
$GNGMP,235952.00,,,,,DAAA,40,0.4,,,,*5C
$GPGMP,235952.00,,,,,,10,,,,3.0,136*71
$GLGMP,235952.00,,,,,,07,,,,,*72
$GAGMP,235952.00,,,,,,10,,,,,*79
$GBGMP,235952.00,,,,,,13,,,,,*79
$PSSN,SNC,[0,259210000,2347]*49
$GPZDA,235957.00,31,12,2024,,*6C
$GPDTM,W84,,00.0000000,N,00.0000000,E,00.0000000,W84*5F
$PSSN,TFM,235957.00,,,,*60
$GPRMC,235957.00,A,4742.1600804,N,01618.1003723,E,0.0,,311224,5.1,E,D*16
$GPGLL,4742.1600804,N,01618.1003723,E,235957.00,A,D*67
$GPGGA,235957.00,4742.1600804,N,01618.1003723,E,2,40,0.4,708.0721,M,43.2066,M,3.2,0136*41
$GNGNS,235957.00,4742.1600804,N,01618.1003723,E,DAAA,40,0.4,708.0721,43.2066,,*58
$GPGNS,235957.00,,,,,,10,,,,3.2,136*76
$GLGNS,235957.00,,,,,,07,,,,,*77
$GAGNS,235957.00,,,,,,10,,,,,*7C
$GBGNS,235957.00,,,,,,13,,,,,*7C
$GPLLQ,235957.00,123124,,M,,M,1,40,0.849,,M*1F
$GPVTG,,T,,M,0.01,N,0.01,K,D*26
$GPHDT,,T*1B
$GPTHS,,V*0E
$GPROT,,V*08
$PSSN,HRP,235957.00,311224,,,,,,,00,0,,*6E
$PTNL,AVR,235957.00,,Yaw,,Tilt,,,,0,,00*38
$GPGSA,A,3,02,03,04,08,10,14,17,21,28,32,,,0.7,0.4,0.5*33
$GPGSA,A,3,68,69,70,76,83,84,85,,,,,,0.7,0.4,0.5*39
$GPGSA,A,3,02,04,06,09,10,11,12,19,30,36,,,0.7,0.4,0.5*31
$GPGSA,A,3,05,06,09,13,16,19,20,29,30,32,35,39,0.7,0.4,0.5*34
$GPGSA,A,3,60,,,,,,,,,,,,0.7,0.4,0.5*32
$GPGST,235957.00,1.204,0.429,0.360,2.353,0.429,0.360,0.639*54
$GPGBS,235957.00,2.680,2.165,3.552,68,0.0001,4.594,6.092*53
$GPGRS,235957.00,1,-0.3,0.1,0.2,-0.3,-1.7,-0.3,0.4,0.1,0.4,-0.0,,*6B
$GPGRS,235957.00,1,4.6,0.2,0.7,-2.5,-2.0,-1.1,-0.2,,,,,*6F
$GPGRS,235957.00,1,-0.4,0.2,0.5,0.5,0.6,-0.4,0.1,-0.6,0.2,-0.3,,*43
$GPGRS,235957.00,1,1.3,0.6,1.0,-1.5,0.3,-1.2,-0.3,0.2,0.7,-0.3,-0.7,0.2*6D
$GPGRS,235957.00,1,-1.2,,,,,,,,,,,*41
$GPGSV,6,1,21,02,85,302,50,08,22,184,42,28,16,099,40,32,35,053,46*7F
$GPGSV,6,2,21,17,27,313,44,03,49,259,47,21,72,125,45,19,02,328,37*79
$GPGSV,6,3,21,10,07,068,38,04,09,197,38,31,06,125,34,14,08,278,37*74
$GPGSV,6,4,21,36,35,170,45,58,12,245,37,57,10,109,37,34,31,208,42*73
$GPGSV,6,5,21,40,24,132,36,49,34,195,44,41,07,108,34,61,03,257,37*75
$GPGSV,6,6,21*7A
$GLGSV,2,1,08,84,81,349,41,70,12,216,35,83,29,134,38,85,26,321,47*60
$GLGSV,2,2,08,68,46,039,51,69,78,198,52,77,04,027,36,76,08,345,43*60
$GAGSV,3,1,11,11,83,055,44,02,13,285,39,09,27,185,43,12,31,111,40*67
$GAGSV,3,2,11,19,28,047,38,36,40,302,44,06,46,166,47,10,56,106,48*6C
$GAGSV,3,3,11,04,59,125,48,30,06,334,37,25,04,238,37*51
$GBGSV,5,1,20,29,64,281,50,19,12,226,41,35,11,315,42,39,24,061,42*68
$GBGSV,5,2,20,05,24,128,38,48,38,223,,57,20,086,,30,46,161,49*6D
$GBGSV,5,3,20,16,24,072,40,09,21,089,39,06,23,075,39,20,60,217,52*66
$GBGSV,5,4,20,32,57,057,50,31,02,098,,02,08,105,34,27,02,143,*65
$GBGSV,5,5,20,41,05,050,38,22,09,217,,13,06,073,37,60,10,109,39*6B
$GPGGA,235957.00,,,,,0,00,,,M,,M,,*47
$PTNL,GGK,235957.00,123124,4742.1600804,N,01618.1003723,E,1,40,0.7,EHT751.2786,M*4A
$GPGGQ,235957.00,123124,4742.1600804,N,01618.1003723,E,1,40,0.849,708.0721,M*35
$GPGFA,235957.00,4.077,5.237,0.429,0.360,2.353,0.639,,VVV*0A
$GPLLK,235957.00,123124,,M,,M,1,40,0.7,,M*07
$GNGMP,235957.00,,,,,DAAA,40,0.4,,,,*59
$GPGMP,235957.00,,,,,,10,,,,3.2,136*76
$GLGMP,235957.00,,,,,,07,,,,,*77
$GAGMP,235957.00,,,,,,10,,,,,*7C
$GBGMP,235957.00,,,,,,13,,,,,*7C
$PSSN,SNC,[0,259215000,2347]*4C
$GPZDA,000002.00,01,01,2025,,*61
$GPDTM,W84,,00.0000000,N,00.0000000,E,00.0000000,W84*5F
$PSSN,TFM,000002.00,,,,*6D
$GPRMC,000002.00,A,4742.1600801,N,01618.1003736,E,0.0,,010125,5.1,E,D*1A
$GPGLL,4742.1600801,N,01618.1003736,E,000002.00,A,D*6B
$GPGGA,000002.00,4742.1600801,N,01618.1003736,E,2,40,0.4,708.0763,M,43.2066,M,1.8,0136*43
$GNGNS,000002.00,4742.1600801,N,01618.1003736,E,DAAA,40,0.4,708.0763,43.2066,,*52
$GPGNS,000002.00,,,,,,10,,,,1.8,136*73
$GLGNS,000002.00,,,,,,07,,,,,*7A
$GAGNS,000002.00,,,,,,10,,,,,*71
$GBGNS,000002.00,,,,,,13,,,,,*71
$GPLLQ,000002.00,010125,,M,,M,1,40,0.843,,M*18
$GPVTG,,T,,M,0.00,N,0.00,K,D*26
$GPHDT,,T*1B
$GPTHS,,V*0E
$GPROT,,V*08
$PSSN,HRP,000002.00,010125,,,,,,,00,0,,*63
$PTNL,AVR,000002.00,,Yaw,,Tilt,,,,0,,00*35
$GPGSA,A,3,02,03,04,08,10,14,17,21,28,32,,,0.7,0.4,0.5*33
$GPGSA,A,3,68,69,70,76,83,84,85,,,,,,0.7,0.4,0.5*39
$GPGSA,A,3,02,04,06,09,10,11,12,19,30,36,,,0.7,0.4,0.5*31
$GPGSA,A,3,05,06,09,13,16,19,20,29,30,32,35,39,0.7,0.4,0.5*34
$GPGSA,A,3,60,,,,,,,,,,,,0.7,0.4,0.5*32
$GPGST,000002.00,1.184,0.427,0.358,4.539,0.427,0.359,0.632*54
$GPGBS,000002.00,2.672,2.136,3.594,68,0.0001,4.328,6.092*5E
$GPGRS,000002.00,1,-0.2,0.2,0.5,-0.4,-1.9,-0.7,0.0,-0.0,0.8,-0.2,,*48
$GPGRS,000002.00,1,4.3,0.3,0.9,-2.4,-1.8,-1.0,0.4,,,,,*48
$GPGRS,000002.00,1,-0.1,0.2,0.7,0.5,0.6,-0.3,0.2,-0.8,0.2,-0.1,,*41
$GPGRS,000002.00,1,1.3,0.2,1.5,-1.1,0.4,-0.5,-0.2,0.3,0.6,-0.3,-1.3,0.1*63
$GPGRS,000002.00,1,-1.1,,,,,,,,,,,*4F
$GPGSV,6,1,21,02,85,301,50,08,22,184,41,28,16,099,40,32,35,053,45*7C
$GPGSV,6,2,21,17,27,313,44,03,49,259,47,21,71,125,45,19,02,328,37*7A
$GPGSV,6,3,21,10,07,068,38,04,09,197,38,31,06,125,33,14,08,278,38*7C
$GPGSV,6,4,21,36,35,170,45,58,12,245,37,57,10,109,37,34,31,208,42*73
$GPGSV,6,5,21,40,24,132,36,49,34,195,44,41,07,108,34,61,03,257,37*75
$GPGSV,6,6,21*7A
$GLGSV,2,1,08,84,81,350,41,70,13,216,36,83,29,134,38,85,26,321,47*6A
$GLGSV,2,2,08,68,46,039,51,69,78,198,52,77,04,027,36,76,08,345,43*60
$GAGSV,3,1,11,11,83,056,45,02,13,285,39,09,27,185,43,12,31,111,40*65
$GAGSV,3,2,11,19,28,047,38,06,46,166,47,36,40,302,45,10,56,106,48*6D
$GAGSV,3,3,11,04,59,125,48,30,06,334,38,25,04,238,37*5E
$GBGSV,5,1,20,29,64,281,50,19,12,226,42,35,11,315,42,39,24,061,42*6B
$GBGSV,5,2,20,05,24,128,38,48,38,223,,57,20,086,,30,46,161,49*6D
$GBGSV,5,3,20,16,24,072,41,09,21,089,39,06,23,075,39,20,60,217,52*67
$GBGSV,5,4,20,32,57,057,50,31,02,098,,02,08,105,34,27,02,143,*65
$GBGSV,5,5,20,41,05,050,38,22,09,217,,13,06,073,37,60,10,109,38*6A
$GPGGA,000002.00,,,,,0,00,,,M,,M,,*4A
$PTNL,GGK,000002.00,010125,4742.1600801,N,01618.1003736,E,1,40,0.7,EHT751.2829,M*4C
$GPGGQ,000002.00,010125,4742.1600801,N,01618.1003736,E,1,40,0.843,708.0763,M*35
$GPGFA,000002.00,4.063,5.184,0.427,0.358,4.539,0.632,,VVV*0B
$GPLLK,000002.00,010125,,M,,M,1,40,0.7,,M*0A
$GNGMP,000002.00,,,,,DAAA,40,0.4,,,,*54
$GPGMP,000002.00,,,,,,10,,,,1.8,136*73
$GLGMP,000002.00,,,,,,07,,,,,*7A
$GAGMP,000002.00,,,,,,10,,,,,*71
$GBGMP,000002.00,,,,,,13,,,,,*71
$PSSN,SNC,[0,259220000,2347]*4A
$GPZDA,000007.00,01,01,2025,,*64
$GPDTM,W84,,00.0000000,N,00.0000000,E,00.0000000,W84*5F
$PSSN,TFM,000007.00,,,,*68
$GPRMC,000007.00,A,4742.1600823,N,01618.1003739,E,0.0,,010125,5.1,E,D*10
$GPGLL,4742.1600823,N,01618.1003739,E,000007.00,A,D*61
$GPGGA,000007.00,4742.1600823,N,01618.1003739,E,2,40,0.4,708.0757,M,43.2066,M,2.0,0136*45
$GNGNS,000007.00,4742.1600823,N,01618.1003739,E,DAAA,40,0.4,708.0757,43.2066,,*5F
$GPGNS,000007.00,,,,,,10,,,,2.0,136*7D
$GLGNS,000007.00,,,,,,07,,,,,*7F
$GAGNS,000007.00,,,,,,10,,,,,*74
$GBGNS,000007.00,,,,,,13,,,,,*74
$GPLLQ,000007.00,010125,,M,,M,1,40,0.835,,M*1C
$GPVTG,,T,,M,0.01,N,0.01,K,D*26
$GPHDT,,T*1B
$GPTHS,,V*0E
$GPROT,,V*08
$PSSN,HRP,000007.00,010125,,,,,,,00,0,,*66
$PTNL,AVR,000007.00,,Yaw,,Tilt,,,,0,,00*30
$GPGSA,A,3,02,03,04,08,10,14,17,21,28,32,,,0.7,0.4,0.5*33
$GPGSA,A,3,68,69,70,76,83,84,85,,,,,,0.7,0.4,0.5*39
$GPGSA,A,3,02,04,06,09,10,11,12,19,30,36,,,0.7,0.4,0.5*31
$GPGSA,A,3,05,06,09,13,16,19,20,29,30,32,35,39,0.7,0.4,0.5*34
$GPGSA,A,3,60,,,,,,,,,,,,0.7,0.4,0.5*32
$GPGST,000007.00,1.250,0.424,0.355,3.342,0.424,0.356,0.625*52
$GPGBS,000007.00,2.663,2.107,3.649,68,0.0001,4.253,6.092*57
$GPGRS,000007.00,1,-0.3,0.2,0.7,-0.2,-2.0,0.0,-0.1,0.2,0.8,-0.5,,*6C
$GPGRS,000007.00,1,4.3,0.2,0.9,-2.6,-2.1,-1.4,-0.2,,,,,*6B
$GPGRS,000007.00,1,-0.4,-0.0,0.4,0.2,0.4,-0.3,0.2,-0.6,-0.1,-0.4,,*4D
$GPGRS,000007.00,1,1.1,0.5,1.8,-1.3,0.7,-0.7,-0.4,0.2,0.5,-0.5,-1.6,-0.0*46
$GPGRS,000007.00,1,-1.2,,,,,,,,,,,*49
$GPGSV,6,1,21,02,86,301,50,08,22,183,41,28,16,099,39,32,35,053,46*75
$GPGSV,6,2,21,17,27,313,44,03,49,260,47,21,71,125,45,19,02,328,35*72
$GPGSV,6,3,21,10,07,068,38,04,09,197,38,31,06,125,34,14,08,278,37*74
$GPGSV,6,4,21,36,35,170,45,58,12,245,37,57,10,109,37,34,31,208,42*73
$GPGSV,6,5,21,40,24,132,36,49,34,195,44,41,07,108,34,61,03,257,37*75
$GPGSV,6,6,21*7A
$GLGSV,2,1,08,84,81,350,41,70,13,216,35,83,29,134,38,85,26,321,46*68
$GLGSV,2,2,08,68,46,039,51,69,78,198,52,77,04,027,34,76,08,345,43*62
$GAGSV,3,1,11,11,83,056,44,02,13,285,38,09,28,185,43,12,31,111,39*64
$GAGSV,3,2,11,19,28,047,38,06,46,166,47,36,40,302,44,10,56,106,48*6C
$GAGSV,3,3,11,04,59,124,48,30,06,334,38,25,03,238,36*59
$GBGSV,5,1,20,29,64,281,50,19,12,226,42,35,11,315,42,39,24,061,42*6B
$GBGSV,5,2,20,05,24,128,38,48,38,223,,57,20,086,,30,46,161,49*6D
$GBGSV,5,3,20,16,24,072,41,09,21,089,39,06,23,075,39,20,60,217,51*64
$GBGSV,5,4,20,32,57,057,50,31,02,098,,02,08,105,34,27,02,143,*65
$GBGSV,5,5,20,41,05,050,39,22,09,217,,13,06,073,37,60,10,109,38*6B
$GPGGA,000007.00,,,,,0,00,,,M,,M,,*4F
$PTNL,GGK,000007.00,010125,4742.1600823,N,01618.1003739,E,1,40,0.7,EHT751.2822,M*4D
$GPGGQ,000007.00,010125,4742.1600823,N,01618.1003739,E,1,40,0.835,708.0757,M*39
$GPGFA,000007.00,4.029,5.129,0.424,0.355,3.342,0.625,,VVV*02
$GPLLK,000007.00,010125,,M,,M,1,40,0.7,,M*0F
$GNGMP,000007.00,,,,,DAAA,40,0.4,,,,*51
$GPGMP,000007.00,,,,,,10,,,,2.0,136*7D
$GLGMP,000007.00,,,,,,07,,,,,*7F
$GAGMP,000007.00,,,,,,10,,,,,*74
$GBGMP,000007.00,,,,,,13,,,,,*74
$PSSN,SNC,[0,259225000,2347]*4F
$GPZDA,000012.00,01,01,2025,,*60
$GPDTM,W84,,00.0000000,N,00.0000000,E,00.0000000,W84*5F
$PSSN,TFM,000012.00,,,,*6C
$GPRMC,000012.00,A,4742.1600844,N,01618.1003708,E,0.0,,010125,5.1,E,D*17
$GPGLL,4742.1600844,N,01618.1003708,E,000012.00,A,D*66
$GPGGA,000012.00,4742.1600844,N,01618.1003708,E,2,40,0.4,708.0811,M,43.2066,M,3.0,0136*4E
$GNGNS,000012.00,4742.1600844,N,01618.1003708,E,DAAA,40,0.4,708.0811,43.2066,,*55
$GPGNS,000012.00,,,,,,10,,,,3.0,136*78
$GLGNS,000012.00,,,,,,07,,,,,*7B
$GAGNS,000012.00,,,,,,10,,,,,*70
$GBGNS,000012.00,,,,,,13,,,,,*70
$GPLLQ,000012.00,010125,,M,,M,1,40,0.841,,M*1B
$GPVTG,,T,,M,0.00,N,0.00,K,D*26
$GPHDT,,T*1B
$GPTHS,,V*0E
$GPROT,,V*08
$PSSN,HRP,000012.00,010125,,,,,,,00,0,,*62
$PTNL,AVR,000012.00,,Yaw,,Tilt,,,,0,,00*34
$GPGSA,A,3,02,03,04,08,10,14,17,21,28,32,,,0.7,0.4,0.5*33
$GPGSA,A,3,68,69,70,76,83,84,85,,,,,,0.7,0.4,0.5*39
$GPGSA,A,3,02,04,06,09,10,11,12,19,30,36,,,0.7,0.4,0.5*31
$GPGSA,A,3,05,06,09,13,16,19,20,29,30,32,35,39,0.7,0.4,0.5*34
$GPGSA,A,3,60,,,,,,,,,,,,0.7,0.4,0.5*32
$GPGST,000012.00,1.335,0.425,0.356,0.901,0.425,0.356,0.633*5E
$GPGBS,000012.00,2.687,2.143,3.718,68,0.0001,4.788,6.092*5F
$GPGRS,000012.00,1,-0.4,-0.0,0.3,-0.2,-1.3,-0.0,-0.0,0.2,0.6,0.2,,*4C
$GPGRS,000012.00,1,4.8,0.3,0.1,-3.6,-1.6,-1.5,0.0,,,,,*46
$GPGRS,000012.00,1,0.1,-0.0,0.3,0.3,0.4,-0.3,0.2,-0.5,-0.2,-0.4,,*67
$GPGRS,000012.00,1,1.4,0.4,1.9,-1.2,0.6,-1.3,-0.4,0.3,0.4,-0.4,-1.9,-0.1*4D
$GPGRS,000012.00,1,-1.3,,,,,,,,,,,*4C
$GPGSV,6,1,21,02,86,301,50,08,22,183,41,28,16,099,39,32,35,053,46*75
$GPGSV,6,2,21,17,27,313,44,03,49,260,47,21,71,125,45,19,02,328,36*71
$GPGSV,6,3,21,10,07,068,38,04,09,197,39,31,06,125,34,14,08,278,36*74
$GPGSV,6,4,21,36,35,170,45,58,12,245,37,57,10,109,37,34,31,208,42*73
$GPGSV,6,5,21,40,24,132,36,49,34,195,44,41,07,108,35,61,03,257,37*74
$GPGSV,6,6,21*7A
$GLGSV,2,1,08,84,81,350,41,70,13,216,36,83,29,134,38,85,26,321,47*6A
$GLGSV,2,2,08,68,46,039,50,69,78,198,52,77,04,027,36,76,08,345,43*61
$GAGSV,3,1,11,11,83,056,44,02,13,285,39,09,28,185,43,12,31,112,39*66
$GAGSV,3,2,11,19,28,047,38,06,46,166,47,36,40,302,45,10,56,107,47*63
$GAGSV,3,3,11,04,59,124,48,30,06,334,37,25,03,238,36*56
$GBGSV,5,1,20,29,64,281,51,19,12,226,41,35,11,315,42,39,24,061,42*69
$GBGSV,5,2,20,05,24,128,38,48,38,223,,57,20,086,,30,46,161,49*6D
$GBGSV,5,3,20,16,24,072,41,09,21,089,39,06,23,075,39,20,60,217,52*67
$GBGSV,5,4,20,32,57,057,50,31,02,098,,02,08,105,34,27,02,143,*65
$GBGSV,5,5,20,41,05,050,39,22,09,217,,13,06,073,37,60,10,109,38*6B
$GPGGA,000012.00,,,,,0,00,,,M,,M,,*4B
$PTNL,GGK,000012.00,010125,4742.1600844,N,01618.1003708,E,1,40,0.7,EHT751.2876,M*4B
$GPGGQ,000012.00,010125,4742.1600844,N,01618.1003708,E,1,40,0.841,708.0811,M*30
$GPGFA,000012.00,4.045,5.187,0.425,0.356,0.901,0.633,,VVV*03
$GPLLK,000012.00,010125,,M,,M,1,40,0.7,,M*0B
$GNGMP,000012.00,,,,,DAAA,40,0.4,,,,*55
$GPGMP,000012.00,,,,,,10,,,,3.0,136*78
$GLGMP,000012.00,,,,,,07,,,,,*7B
$GAGMP,000012.00,,,,,,10,,,,,*70
$GBGMP,000012.00,,,,,,13,,,,,*70
$PSSN,SNC,[0,259230000,2347]*4B
$GPZDA,000017.00,01,01,2025,,*65
$GPDTM,W84,,00.0000000,N,00.0000000,E,00.0000000,W84*5F
$PSSN,TFM,000017.00,,,,*69
$GPRMC,000017.00,A,4742.1600845,N,01618.1003687,E,0.0,,010125,5.1,E,D*15
$GPGLL,4742.1600845,N,01618.1003687,E,000017.00,A,D*64
$GPGGA,000017.00,4742.1600845,N,01618.1003687,E,2,40,0.4,708.0877,M,43.2066,M,3.2,0136*4E
$GNGNS,000017.00,4742.1600845,N,01618.1003687,E,DAAA,40,0.4,708.0877,43.2066,,*57
$GPGNS,000017.00,,,,,,10,,,,3.2,136*7F
$GLGNS,000017.00,,,,,,07,,,,,*7E
$GAGNS,000017.00,,,,,,10,,,,,*75
$GBGNS,000017.00,,,,,,13,,,,,*75
$GPLLQ,000017.00,010125,,M,,M,1,40,0.848,,M*17
$GPVTG,,T,,M,0.00,N,0.01,K,D*27
$GPHDT,,T*1B
$GPTHS,,V*0E
$GPROT,,V*08
$PSSN,HRP,000017.00,010125,,,,,,,00,0,,*67
$PTNL,AVR,000017.00,,Yaw,,Tilt,,,,0,,00*31
$GPGSA,A,3,02,03,04,08,10,14,17,21,28,32,,,0.7,0.4,0.5*33
$GPGSA,A,3,68,69,70,76,83,84,85,,,,,,0.7,0.4,0.5*39
$GPGSA,A,3,02,04,06,09,10,11,12,19,30,36,,,0.7,0.4,0.5*31
$GPGSA,A,3,05,06,09,13,16,19,20,29,30,32,35,39,0.7,0.4,0.5*34
$GPGSA,A,3,60,,,,,,,,,,,,0.7,0.4,0.5*32
$GPGST,000017.00,1.322,0.428,0.360,2.690,0.428,0.360,0.638*53
$GPGBS,000017.00,2.664,2.166,3.550,68,0.0001,4.751,6.092*5A
$GPGRS,000017.00,1,-0.2,0.1,0.4,-0.1,-2.1,0.3,-0.0,-0.1,0.5,0.0,,*67
$GPGRS,000017.00,1,4.8,0.2,0.2,-3.3,-0.7,-1.5,0.5,,,,,*41
$GPGRS,000017.00,1,-0.1,0.0,0.2,0.5,0.3,-0.3,0.3,-0.6,0.0,-0.5,,*4E
$GPGRS,000017.00,1,1.7,0.1,1.3,-0.9,1.1,-0.7,-0.2,0.1,0.6,0.1,-2.2,-0.1*6B
$GPGRS,000017.00,1,-1.4,,,,,,,,,,,*4E
$GPGSV,6,1,21,02,86,301,50,08,22,183,41,28,16,099,39,32,35,053,46*75
$GPGSV,6,2,21,17,27,313,44,03,49,260,47,21,71,125,45,19,02,328,36*71
$GPGSV,6,3,21,10,06,068,38,04,09,197,39,31,06,125,34,14,07,278,38*74
$GPGSV,6,4,21,36,35,170,45,58,12,245,38,57,10,109,37,34,31,208,42*7C
$GPGSV,6,5,21,40,24,132,36,49,34,195,44,41,07,108,35,61,03,257,37*74
$GPGSV,6,6,21*7A
$GLGSV,2,1,08,84,81,350,41,70,13,216,36,83,29,134,38,85,26,321,46*6B
$GLGSV,2,2,08,68,46,039,51,69,78,198,52,77,04,027,36,76,08,345,44*67
$GAGSV,3,1,11,11,83,057,44,02,13,285,38,09,28,185,43,12,31,112,40*68
$GAGSV,3,2,11,19,28,047,38,06,46,166,47,36,40,302,44,10,55,107,47*61
$GAGSV,3,3,11,04,59,124,48,30,06,334,36,25,03,238,35*54
$GBGSV,5,1,20,29,64,281,51,19,12,226,41,35,11,315,41,39,24,060,43*6A
$GBGSV,5,2,20,05,24,128,38,48,38,223,,57,20,086,,30,46,161,50*65
$GBGSV,5,3,20,16,24,072,42,09,21,089,40,06,23,075,39,20,60,217,52*6A
$GBGSV,5,4,20,32,57,057,50,31,02,098,,02,08,105,34,27,02,143,*65
$GBGSV,5,5,20,41,05,050,39,22,09,217,,13,06,073,37,60,10,109,38*6B
$GPGGA,000017.00,,,,,0,00,,,M,,M,,*4E
$PTNL,GGK,000017.00,010125,4742.1600845,N,01618.1003687,E,1,40,0.7,EHT751.2942,M*4F
$GPGGQ,000017.00,010125,4742.1600845,N,01618.1003687,E,1,40,0.848,708.0877,M*3B
$GPGFA,000017.00,4.069,5.231,0.428,0.360,2.690,0.638,,VVV*00
$GPLLK,000017.00,010125,,M,,M,1,40,0.7,,M*0E
$GNGMP,000017.00,,,,,DAAA,40,0.4,,,,*50
$GPGMP,000017.00,,,,,,10,,,,3.2,136*7F
$GLGMP,000017.00,,,,,,07,,,,,*7E
$GAGMP,000017.00,,,,,,10,,,,,*75
$GBGMP,000017.00,,,,,,13,,,,,*75
$PSSN,SNC,[0,259235000,2347]*4E
$GPZDA,000022.00,01,01,2025,,*63
$GPDTM,W84,,00.0000000,N,00.0000000,E,00.0000000,W84*5F
$PSSN,TFM,000022.00,,,,*6F
$GPRMC,000022.00,A,4742.1600852,N,01618.1003667,E,0.0,,010125,5.1,E,D*1B
$GPGLL,4742.1600852,N,01618.1003667,E,000022.00,A,D*6A
$GPGGA,000022.00,4742.1600852,N,01618.1003667,E,2,40,0.4,708.0898,M,43.2066,M,1.8,0136*49
$GNGNS,000022.00,4742.1600852,N,01618.1003667,E,DAAA,40,0.4,708.0898,43.2066,,*58
$GPGNS,000022.00,,,,,,10,,,,1.8,136*71
$GLGNS,000022.00,,,,,,07,,,,,*78
$GAGNS,000022.00,,,,,,10,,,,,*73
$GBGNS,000022.00,,,,,,13,,,,,*73
$GPLLQ,000022.00,010125,,M,,M,1,40,0.842,,M*1B
$GPVTG,,T,,M,0.01,N,0.01,K,D*26
$GPHDT,,T*1B
$GPTHS,,V*0E
$GPROT,,V*08
$PSSN,HRP,000022.00,010125,,,,,,,00,0,,*61
$PTNL,AVR,000022.00,,Yaw,,Tilt,,,,0,,00*37
$GPGSA,A,3,02,03,04,08,10,14,17,21,28,32,,,0.7,0.4,0.5*33
$GPGSA,A,3,68,69,70,76,83,84,85,,,,,,0.7,0.4,0.5*39
$GPGSA,A,3,02,04,06,09,10,11,12,19,30,36,,,0.7,0.4,0.5*31
$GPGSA,A,3,05,06,09,13,16,19,20,29,30,32,35,39,0.7,0.4,0.5*34
$GPGSA,A,3,60,,,,,,,,,,,,0.7,0.4,0.5*32
$GPGST,000022.00,1.309,0.426,0.358,4.889,0.426,0.359,0.631*54
$GPGBS,000022.00,2.656,2.137,3.591,28,0.0001,1.036,1.214*58
$GPGRS,000022.00,1,-0.2,0.1,0.4,-0.2,-2.4,-0.0,-0.5,-0.1,1.0,-0.2,,*67
$GPGRS,000022.00,1,5.0,0.5,-0.5,-2.8,-1.5,-1.0,0.0,,,,,*6A
$GPGRS,000022.00,1,-0.6,0.1,0.4,0.4,0.4,-0.2,0.4,-0.9,0.0,-0.3,,*41
$GPGRS,000022.00,1,1.4,0.0,1.2,-1.6,0.9,-0.1,-0.2,0.3,0.6,-0.0,-1.3,-0.5*47
$GPGRS,000022.00,1,-1.0,,,,,,,,,,,*4C
$GPGSV,6,1,21,02,86,301,50,08,22,183,42,28,16,099,40,32,35,053,46*78
$GPGSV,6,2,21,17,27,313,44,03,49,260,47,21,71,125,45,19,02,328,37*70
$GPGSV,6,3,21,10,06,068,37,04,09,197,39,31,06,125,35,14,07,278,37*75
$GPGSV,6,4,21,36,35,170,45,58,12,245,38,57,10,109,37,34,31,208,42*7C
$GPGSV,6,5,21,40,24,132,36,49,34,195,44,41,07,108,34,61,03,257,37*75
$GPGSV,6,6,21*7A
$GLGSV,2,1,08,84,81,350,41,70,13,216,36,83,29,134,39,85,26,321,47*6B
$GLGSV,2,2,08,68,46,039,51,69,78,199,52,77,04,027,36,76,08,345,43*61
$GAGSV,3,1,11,11,83,057,44,02,13,285,39,09,28,185,43,12,31,112,40*69
$GAGSV,3,2,11,19,28,047,38,06,46,166,47,36,40,302,44,10,55,107,47*61
$GAGSV,3,3,11,04,59,124,48,30,06,334,37,25,03,238,36*56
$GBGSV,5,1,20,29,65,281,51,19,13,226,42,35,11,315,42,39,24,060,43*6A
$GBGSV,5,2,20,05,24,128,38,48,39,223,,57,20,086,,30,46,161,49*6C
$GBGSV,5,3,20,16,24,072,42,09,21,089,40,06,23,075,39,20,60,217,52*6A
$GBGSV,5,4,20,32,57,057,50,31,02,098,,02,08,105,34,27,02,143,*65
$GBGSV,5,5,20,41,05,050,39,22,09,217,,13,06,073,37,60,10,109,39*6A
$GPGGA,000022.00,,,,,0,00,,,M,,M,,*48
$PTNL,GGK,000022.00,010125,4742.1600852,N,01618.1003667,E,1,40,0.7,EHT751.2964,M*45
$GPGGQ,000022.00,010125,4742.1600852,N,01618.1003667,E,1,40,0.842,708.0898,M*3E
$GPGFA,000022.00,4.055,5.178,0.426,0.358,4.889,0.631,,VVV*0B
$GPLLK,000022.00,010125,,M,,M,1,40,0.7,,M*08
$GNGMP,000022.00,,,,,DAAA,40,0.4,,,,*56
$GPGMP,000022.00,,,,,,10,,,,1.8,136*71
$GLGMP,000022.00,,,,,,07,,,,,*78
$GAGMP,000022.00,,,,,,10,,,,,*73
$GBGMP,000022.00,,,,,,13,,,,,*73
$PSSN,SNC,[0,259240000,2347]*4C
$GPZDA,000027.00,01,01,2025,,*66
$GPDTM,W84,,00.0000000,N,00.0000000,E,00.0000000,W84*5F
$PSSN,TFM,000027.00,,,,*6A
$GPRMC,000027.00,A,4742.1600870,N,01618.1003633,E,0.0,,010125,5.1,E,D*1F
$GPGLL,4742.1600870,N,01618.1003633,E,000027.00,A,D*6E
$GPGGA,000027.00,4742.1600870,N,01618.1003633,E,2,40,0.4,708.0952,M,43.2066,M,2.0,0136*41
$GNGNS,000027.00,4742.1600870,N,01618.1003633,E,DAAA,40,0.4,708.0952,43.2066,,*5B
$GPGNS,000027.00,,,,,,10,,,,2.0,136*7F
$GLGNS,000027.00,,,,,,07,,,,,*7D
$GAGNS,000027.00,,,,,,10,,,,,*76
$GBGNS,000027.00,,,,,,13,,,,,*76
$GPLLQ,000027.00,010125,,M,,M,1,40,0.835,,M*1E
$GPVTG,,T,,M,0.01,N,0.01,K,D*26
$GPHDT,,T*1B
$GPTHS,,V*0E
$GPROT,,V*08
$PSSN,HRP,000027.00,010125,,,,,,,00,0,,*64
$PTNL,AVR,000027.00,,Yaw,,Tilt,,,,0,,00*32
$GPGSA,A,3,02,03,04,08,10,14,17,21,28,32,,,0.7,0.4,0.5*33
$GPGSA,A,3,68,69,70,76,83,84,85,,,,,,0.7,0.4,0.5*39
$GPGSA,A,3,02,04,06,09,10,11,12,19,30,36,,,0.7,0.4,0.5*31
$GPGSA,A,3,05,06,09,13,16,19,20,29,30,32,35,39,0.7,0.4,0.5*34
$GPGSA,A,3,60,,,,,,,,,,,,0.7,0.4,0.5*32
$GPGST,000027.00,1.425,0.423,0.355,3.564,0.423,0.356,0.625*56
$GPGBS,000027.00,2.654,2.108,3.652,68,0.0001,5.060,6.093*56
$GPGRS,000027.00,1,-0.3,0.2,-0.2,-0.2,-2.7,-0.1,-0.0,0.1,0.9,-0.0,,*6B
$GPGRS,000027.00,1,5.1,0.1,-1.5,-3.0,-2.2,-2.0,-0.2,,,,,*4A
$GPGRS,000027.00,1,-0.6,0.2,0.4,0.5,0.4,-0.3,0.3,-0.7,0.2,-0.1,,*4E
$GPGRS,000027.00,1,1.2,-0.1,1.5,-1.7,0.6,-0.2,-0.1,0.1,0.6,0.2,-1.0,-0.6*4C
$GPGRS,000027.00,1,-1.5,,,,,,,,,,,*4C
$GPGSV,6,1,21,02,86,301,50,08,22,183,42,28,16,099,40,32,35,053,46*78
$GPGSV,6,2,21,17,27,313,44,03,49,260,47,21,71,125,45,19,02,328,36*71
$GPGSV,6,3,21,10,06,068,37,04,09,197,39,31,06,125,35,14,07,278,37*75
$GPGSV,6,4,21,36,35,170,45,58,12,245,38,57,10,109,37,34,31,208,42*7C
$GPGSV,6,5,21,40,24,132,36,49,34,195,44,41,07,108,34,61,03,257,37*75
$GPGSV,6,6,21*7A
$GLGSV,2,1,08,84,81,350,41,70,13,216,36,83,29,134,38,85,26,321,47*6A
$GLGSV,2,2,08,68,46,039,51,69,78,199,52,77,04,027,37,76,08,345,43*60
$GAGSV,3,1,11,11,83,057,44,02,13,285,38,09,28,185,42,12,31,112,39*67
$GAGSV,3,2,11,19,28,047,38,06,46,166,47,36,40,302,44,10,55,107,47*61
$GAGSV,3,3,11,04,59,124,48,30,06,334,38,25,03,238,36*59
$GBGSV,5,1,20,29,65,281,51,19,13,226,42,35,11,315,42,39,24,060,43*6A
$GBGSV,5,2,20,05,24,128,38,48,39,223,,57,20,086,,30,46,161,49*6C
$GBGSV,5,3,20,16,24,072,41,09,21,089,40,06,23,075,39,20,61,217,52*68
$GBGSV,5,4,20,32,57,057,50,31,02,098,,02,08,105,34,27,02,143,*65
$GBGSV,5,5,20,41,05,050,39,22,09,217,,13,06,073,37,60,10,109,38*6B
$GPGGA,000027.00,,,,,0,00,,,M,,M,,*4D
$PTNL,GGK,000027.00,010125,4742.1600870,N,01618.1003633,E,1,40,0.7,EHT751.3017,M*4D
$GPGGQ,000027.00,010125,4742.1600870,N,01618.1003633,E,1,40,0.835,708.0952,M*3D
$GPGFA,000027.00,4.026,5.126,0.423,0.355,3.564,0.625,,VVV*05
$GPLLK,000027.00,010125,,M,,M,1,40,0.7,,M*0D
$GNGMP,000027.00,,,,,DAAA,40,0.4,,,,*53
$GPGMP,000027.00,,,,,,10,,,,2.0,136*7F
$GLGMP,000027.00,,,,,,07,,,,,*7D
$GAGMP,000027.00,,,,,,10,,,,,*76
$GBGMP,000027.00,,,,,,13,,,,,*76
$PSSN,SNC,[0,259245000,2347]*49
$GPZDA,000032.00,01,01,2025,,*62
$GPDTM,W84,,00.0000000,N,00.0000000,E,00.0000000,W84*5F
$PSSN,TFM,000032.00,,,,*6E
$GPRMC,000032.00,A,4742.1600868,N,01618.1003632,E,0.0,,010125,5.1,E,D*13
$GPGLL,4742.1600868,N,01618.1003632,E,000032.00,A,D*62
$GPGGA,000032.00,4742.1600868,N,01618.1003632,E,2,39,0.4,708.0936,M,43.2066,M,3.0,0136*40
$GNGNS,000032.00,4742.1600868,N,01618.1003632,E,DAAA,39,0.4,708.0936,43.2066,,*5B
$GPGNS,000032.00,,,,,,10,,,,3.0,136*7A
$GLGNS,000032.00,,,,,,06,,,,,*78
$GAGNS,000032.00,,,,,,10,,,,,*72
$GBGNS,000032.00,,,,,,13,,,,,*72
$GPLLQ,000032.00,010125,,M,,M,1,39,0.840,,M*16
$GPVTG,,T,,M,0.00,N,0.01,K,D*27
$GPHDT,,T*1B
$GPTHS,,V*0E
$GPROT,,V*08
$PSSN,HRP,000032.00,010125,,,,,,,00,0,,*60
$PTNL,AVR,000032.00,,Yaw,,Tilt,,,,0,,00*36
$GPGSA,A,3,02,03,04,08,10,14,17,21,28,32,,,0.7,0.4,0.6*30
$GPGSA,A,3,68,69,76,83,84,85,,,,,,,0.7,0.4,0.6*3D
$GPGSA,A,3,02,04,06,09,10,11,12,19,30,36,,,0.7,0.4,0.6*32
$GPGSA,A,3,05,06,09,13,16,19,20,29,30,32,35,39,0.7,0.4,0.6*37
$GPGSA,A,3,60,,,,,,,,,,,,0.7,0.4,0.6*31
$GPGST,000032.00,1.503,0.425,0.355,1.332,0.425,0.355,0.631*56
$GPGBS,000032.00,2.662,2.137,3.705,68,0.0001,4.784,6.093*54
$GPGRS,000032.00,1,-0.2,0.3,-0.2,-0.2,-1.9,-0.1,-0.2,-0.0,0.8,-0.3,,*4E
$GPGRS,000032.00,1,4.8,-0.2,-3.5,-3.5,-1.7,0.8,,,,,,*4F
$GPGRS,000032.00,1,-0.5,-0.0,0.1,0.6,0.6,-0.4,0.1,-0.8,-0.0,-0.1,,*47
$GPGRS,000032.00,1,1.6,-0.2,1.6,-0.7,-0.4,-1.0,-0.2,0.0,0.3,0.3,-2.1,-0.8*6B
$GPGRS,000032.00,1,-1.4,,,,,,,,,,,*49
$GPGSV,6,1,21,02,86,301,50,08,22,183,42,28,16,099,40,32,35,053,46*78
$GPGSV,6,2,21,17,27,313,44,03,49,260,47,21,71,125,45,19,02,328,37*70
$GPGSV,6,3,21,10,06,068,38,04,09,197,38,31,06,125,34,14,07,278,37*7A
$GPGSV,6,4,21,36,35,170,45,58,12,245,37,40,24,132,36,34,31,208,42*7B
$GPGSV,6,5,21,49,34,195,44,57,10,109,37,41,07,108,34,61,03,257,37*7D
$GPGSV,6,6,21*7A
$GLGSV,2,1,08,84,81,350,41,70,13,216,35,83,29,134,38,85,26,321,47*69
$GLGSV,2,2,08,68,46,039,51,69,78,199,52,77,04,027,37,76,08,345,43*60
$GAGSV,3,1,11,11,83,057,44,02,13,285,38,09,28,185,43,12,31,112,39*66
$GAGSV,3,2,11,19,28,047,38,06,47,166,47,36,40,302,44,10,55,107,47*60
$GAGSV,3,3,11,04,59,124,47,30,06,334,37,25,03,238,36*59
$GBGSV,5,1,20,29,65,281,51,19,13,226,42,35,11,315,41,39,25,060,43*68
$GBGSV,5,2,20,05,24,128,38,48,39,223,,57,20,086,,30,46,161,49*6C
$GBGSV,5,3,20,16,24,071,41,09,21,089,40,06,23,075,39,20,61,218,52*64
$GBGSV,5,4,20,32,57,057,50,31,02,098,,02,08,105,34,27,02,143,*65
$GBGSV,5,5,20,41,05,050,39,22,09,217,,13,06,073,37,60,10,109,38*6B
$GPGGA,000032.00,,,,,0,00,,,M,,M,,*49
$PTNL,GGK,000032.00,010125,4742.1600868,N,01618.1003632,E,1,39,0.7,EHT751.3002,M*4B
$GPGGQ,000032.00,010125,4742.1600868,N,01618.1003632,E,1,39,0.840,708.0936,M*3F
$GPGFA,000032.00,4.038,5.176,0.425,0.355,1.332,0.631,,VVV*0F
$GPLLK,000032.00,010125,,M,,M,1,39,0.8,,M*08
$GNGMP,000032.00,,,,,DAAA,39,0.4,,,,*59
$GPGMP,000032.00,,,,,,10,,,,3.0,136*7A
$GLGMP,000032.00,,,,,,06,,,,,*78
$GAGMP,000032.00,,,,,,10,,,,,*72
$GBGMP,000032.00,,,,,,13,,,,,*72
$PSSN,SNC,[0,259250000,2347]*4D
$GPZDA,000037.00,01,01,2025,,*67
$GPDTM,W84,,00.0000000,N,00.0000000,E,00.0000000,W84*5F
$PSSN,TFM,000037.00,,,,*6B
$GPRMC,000037.00,A,4742.1600872,N,01618.1003591,E,0.0,,010125,5.1,E,D*17
$GPGLL,4742.1600872,N,01618.1003591,E,000037.00,A,D*66
$GPGGA,000037.00,4742.1600872,N,01618.1003591,E,2,40,0.4,708.0943,M,43.2066,M,3.2,0136*4A
$GNGNS,000037.00,4742.1600872,N,01618.1003591,E,DAAA,40,0.4,708.0943,43.2066,,*53
$GPGNS,000037.00,,,,,,10,,,,3.2,136*7D
$GLGNS,000037.00,,,,,,07,,,,,*7C
$GAGNS,000037.00,,,,,,10,,,,,*77
$GBGNS,000037.00,,,,,,13,,,,,*77
$GPLLQ,000037.00,010125,,M,,M,1,40,0.843,,M*1E
$GPVTG,,T,,M,0.00,N,0.01,K,D*27
$GPHDT,,T*1B
$GPTHS,,V*0E
$GPROT,,V*08
$PSSN,HRP,000037.00,010125,,,,,,,00,0,,*65
$PTNL,AVR,000037.00,,Yaw,,Tilt,,,,0,,00*33
$GPGSA,A,3,02,03,04,08,10,14,17,21,28,32,,,0.7,0.4,0.5*33
$GPGSA,A,3,68,69,70,76,83,84,85,,,,,,0.7,0.4,0.5*39
$GPGSA,A,3,02,04,06,09,10,11,12,19,30,36,,,0.7,0.4,0.5*31
$GPGSA,A,3,05,06,09,13,16,19,20,29,30,32,35,39,0.7,0.4,0.5*34
$GPGSA,A,3,60,,,,,,,,,,,,0.7,0.4,0.5*32
$GPGST,000037.00,1.352,0.421,0.359,3.669,0.421,0.359,0.635*5C
$GPGBS,000037.00,2.629,2.156,3.526,28,0.0001,0.991,1.202*5D
$GPGRS,000037.00,1,-0.1,-0.1,-0.4,-0.1,-1.4,-0.2,-0.1,0.1,1.0,-0.0,,*49
$GPGRS,000037.00,1,5.0,0.2,-0.5,-3.0,-2.8,-1.4,0.7,,,,,*6D
$GPGRS,000037.00,1,-0.2,0.1,0.2,0.5,0.7,-0.4,0.5,-0.3,0.3,-0.0,,*48
$GPGRS,000037.00,1,1.5,0.3,1.4,0.2,-0.1,-1.2,-0.2,0.0,0.5,0.3,-1.6,-0.9*6F
$GPGRS,000037.00,1,-1.4,,,,,,,,,,,*4C
$GPGSV,6,1,21,02,86,300,50,08,22,183,42,28,16,099,39,32,35,053,47*76
$GPGSV,6,2,21,17,27,313,44,03,49,260,47,21,71,125,45,19,02,328,37*70
$GPGSV,6,3,21,10,06,068,38,04,09,197,38,31,06,125,34,14,07,278,36*7B
$GPGSV,6,4,21,36,35,170,45,58,12,245,37,40,24,132,36,34,31,208,42*7B
$GPGSV,6,5,21,49,34,195,44,57,10,109,37,41,07,108,34,61,03,257,37*7D
$GPGSV,6,6,21*7A
$GLGSV,2,1,08,84,81,350,41,70,13,216,35,83,29,134,37,85,26,321,47*66
$GLGSV,2,2,08,68,46,039,51,69,78,199,52,77,04,027,36,76,08,345,44*66
$GAGSV,3,1,11,11,83,058,44,02,13,285,39,09,28,185,43,12,31,112,39*68
$GAGSV,3,2,11,19,28,047,38,06,47,166,47,36,40,302,44,10,55,107,47*60
$GAGSV,3,3,11,04,59,124,48,30,06,334,37,25,03,238,36*56
$GBGSV,5,1,20,29,65,281,51,19,13,226,42,35,11,315,41,39,25,060,42*69
$GBGSV,5,2,20,05,24,128,38,48,39,223,,57,20,086,,30,46,161,49*6C
$GBGSV,5,3,20,16,24,071,41,09,22,089,40,06,23,075,39,20,61,218,52*67
$GBGSV,5,4,20,32,57,057,50,31,02,098,,02,08,105,34,27,01,143,*66
$GBGSV,5,5,20,41,05,050,39,22,09,217,,13,06,073,37,60,10,109,38*6B
$GPGGA,000037.00,,,,,0,00,,,M,,M,,*4C
$PTNL,GGK,000037.00,010125,4742.1600872,N,01618.1003591,E,1,40,0.7,EHT751.3008,M*4B
$GPGGQ,000037.00,010125,4742.1600872,N,01618.1003591,E,1,40,0.843,708.0943,M*34
$GPGFA,000037.00,4.005,5.210,0.421,0.359,3.669,0.635,,VVV*02
$GPLLK,000037.00,010125,,M,,M,1,40,0.7,,M*0C
$GNGMP,000037.00,,,,,DAAA,40,0.4,,,,*52
$GPGMP,000037.00,,,,,,10,,,,3.2,136*7D
$GLGMP,000037.00,,,,,,07,,,,,*7C
$GAGMP,000037.00,,,,,,10,,,,,*77
$GBGMP,000037.00,,,,,,13,,,,,*77
$PSSN,SNC,[0,259255000,2347]*48
$GPZDA,000042.00,01,01,2025,,*65
$GPDTM,W84,,00.0000000,N,00.0000000,E,00.0000000,W84*5F
$PSSN,TFM,000042.00,,,,*69
$GPRMC,000042.00,A,4742.1600843,N,01618.1003567,E,0.0,,010125,5.1,E,D*1E
$GPGLL,4742.1600843,N,01618.1003567,E,000042.00,A,D*6F
$GPGGA,000042.00,4742.1600843,N,01618.1003567,E,2,40,0.4,708.1006,M,43.2066,M,1.8,0136*42
$GNGNS,000042.00,4742.1600843,N,01618.1003567,E,DAAA,40,0.4,708.1006,43.2066,,*53
$GPGNS,000042.00,,,,,,10,,,,1.8,136*77
$GLGNS,000042.00,,,,,,07,,,,,*7E
$GAGNS,000042.00,,,,,,10,,,,,*75
$GBGNS,000042.00,,,,,,13,,,,,*75
$GPLLQ,000042.00,010125,,M,,M,1,40,0.835,,M*1D
$GPVTG,,T,,M,0.00,N,0.01,K,D*27
$GPHDT,,T*1B
$GPTHS,,V*0E
$GPROT,,V*08
$PSSN,HRP,000042.00,010125,,,,,,,00,0,,*67
$PTNL,AVR,000042.00,,Yaw,,Tilt,,,,0,,00*31
$GPGSA,A,3,02,03,04,08,10,14,17,21,28,32,,,0.7,0.4,0.5*33
$GPGSA,A,3,68,69,70,76,83,84,85,,,,,,0.7,0.4,0.5*39
$GPGSA,A,3,02,04,06,09,10,11,12,19,30,36,,,0.7,0.4,0.5*31
$GPGSA,A,3,05,06,09,13,16,19,20,29,30,32,35,39,0.7,0.4,0.5*34
$GPGSA,A,3,60,,,,,,,,,,,,0.7,0.4,0.5*32
$GPGST,000042.00,1.400,0.419,0.357,5.767,0.418,0.358,0.628*55
$GPGBS,000042.00,2.616,2.125,3.563,28,0.0001,1.173,1.213*53
$GPGRS,000042.00,1,-0.1,0.2,-0.4,-0.8,-1.4,1.1,-0.1,0.0,1.2,0.1,,*6C
$GPGRS,000042.00,1,5.3,0.5,-1.7,-2.9,-2.6,-1.5,-0.6,,,,,*43
$GPGRS,000042.00,1,-0.1,0.1,0.1,0.4,0.4,-0.3,0.3,-0.6,0.5,-0.2,,*48
$GPGRS,000042.00,1,1.5,0.4,1.1,-0.4,-0.3,-0.9,-0.4,0.0,0.5,0.2,-1.1,-0.9*4C
$GPGRS,000042.00,1,-1.5,,,,,,,,,,,*4F
$GPGSV,6,1,21,02,86,300,50,08,22,183,41,28,16,099,39,32,35,053,47*75
$GPGSV,6,2,21,17,27,313,43,03,49,260,47,21,71,125,45,19,02,328,38*78
$GPGSV,6,3,21,10,06,068,38,04,09,197,37,31,06,125,34,14,07,278,36*74
$GPGSV,6,4,21,36,35,170,45,58,12,245,38,40,24,132,36,34,31,208,42*74
$GPGSV,6,5,21,49,34,195,44,57,10,109,37,41,07,108,34,61,03,257,37*7D
$GPGSV,6,6,21*7A
$GLGSV,2,1,08,84,81,350,41,70,13,216,35,83,29,134,37,85,26,321,47*66
$GLGSV,2,2,08,68,46,039,52,69,78,199,52,77,04,027,36,76,08,345,43*62
$GAGSV,3,1,11,11,83,058,44,02,13,285,38,09,28,185,43,12,31,112,40*67
$GAGSV,3,2,11,19,28,047,38,06,47,166,47,36,40,302,44,10,55,107,47*60
$GAGSV,3,3,11,04,59,124,48,30,06,334,37,25,03,238,36*56
$GBGSV,5,1,20,29,65,281,51,19,13,226,42,35,11,315,42,39,25,060,42*6A
$GBGSV,5,2,20,05,24,128,38,48,39,223,,57,20,086,,30,46,161,49*6C
$GBGSV,5,3,20,16,24,071,41,09,22,089,40,06,23,075,39,20,61,218,52*67
$GBGSV,5,4,20,32,57,057,50,31,02,098,,02,08,105,34,27,01,143,*66
$GBGSV,5,5,20,41,05,050,39,22,09,217,,13,06,073,37,60,10,109,39*6A
$GPGGA,000042.00,,,,,0,00,,,M,,M,,*4E
$PTNL,GGK,000042.00,010125,4742.1600843,N,01618.1003567,E,1,40,0.7,EHT751.3072,M*4F
$GPGGQ,000042.00,010125,4742.1600843,N,01618.1003567,E,1,40,0.835,708.1006,M*35
$GPGFA,000042.00,3.982,5.153,0.419,0.357,5.767,0.628,,VVV*05
$GPLLK,000042.00,010125,,M,,M,1,40,0.7,,M*0E
$GNGMP,000042.00,,,,,DAAA,40,0.4,,,,*50
$GPGMP,000042.00,,,,,,10,,,,1.8,136*77
$GLGMP,000042.00,,,,,,07,,,,,*7E
$GAGMP,000042.00,,,,,,10,,,,,*75
$GBGMP,000042.00,,,,,,13,,,,,*75
$PSSN,SNC,[0,259260000,2347]*4E
$GPZDA,000047.00,01,01,2025,,*60
$GPDTM,W84,,00.0000000,N,00.0000000,E,00.0000000,W84*5F
$PSSN,TFM,000047.00,,,,*6C
$GPRMC,000047.00,A,4742.1600803,N,01618.1003588,E,0.0,,010125,5.1,E,D*1E
$GPGLL,4742.1600803,N,01618.1003588,E,000047.00,A,D*6F
$GPGGA,000047.00,4742.1600803,N,01618.1003588,E,2,41,0.4,708.0975,M,43.2066,M,1.9,0136*4E
$GNGNS,000047.00,4742.1600803,N,01618.1003588,E,DAAA,41,0.4,708.0975,43.2066,,*5E
$GPGNS,000047.00,,,,,,11,,,,1.9,136*72
$GLGNS,000047.00,,,,,,07,,,,,*7B
$GAGNS,000047.00,,,,,,10,,,,,*70
$GBGNS,000047.00,,,,,,13,,,,,*70
$GPLLQ,000047.00,010125,,M,,M,1,41,0.826,,M*1B
$GPVTG,,T,,M,0.01,N,0.02,K,D*25
$GPHDT,,T*1B
$GPTHS,,V*0E
$GPROT,,V*08
$PSSN,HRP,000047.00,010125,,,,,,,00,0,,*62
$PTNL,AVR,000047.00,,Yaw,,Tilt,,,,0,,00*34
$GPGSA,A,3,02,03,04,08,10,14,17,21,28,31,32,,0.7,0.4,0.5*31
$GPGSA,A,3,68,69,70,76,83,84,85,,,,,,0.7,0.4,0.5*39
$GPGSA,A,3,02,04,06,09,10,11,12,19,30,36,,,0.7,0.4,0.5*31
$GPGSA,A,3,05,06,09,13,16,19,20,29,30,32,35,39,0.7,0.4,0.5*34
$GPGSA,A,3,60,,,,,,,,,,,,0.7,0.4,0.5*32
$GPGST,000047.00,1.391,0.416,0.353,4.608,0.415,0.354,0.620*54
$GPGBS,000047.00,2.604,2.047,3.597,03,0.0001,0.547,0.655*57
$GPGRS,000047.00,1,-0.1,0.5,-0.3,-0.6,-1.7,0.4,-0.3,0.0,0.8,-0.2,-0.2,*46
$GPGRS,000047.00,1,4.8,-0.2,-1.6,-3.7,-2.3,-1.5,-0.3,,,,,*68
$GPGRS,000047.00,1,0.2,-0.0,0.2,0.3,0.4,-0.5,0.2,-0.7,0.2,-0.3,,*4B
$GPGRS,000047.00,1,1.6,0.3,0.8,-1.7,-0.8,-0.6,-0.3,-0.1,0.7,0.2,-1.2,-0.9*69
$GPGRS,000047.00,1,-1.6,,,,,,,,,,,*49
$GPGSV,6,1,21,02,86,300,50,08,22,183,40,28,16,099,39,32,35,053,47*74
$GPGSV,6,2,21,17,27,313,43,03,49,260,47,21,71,125,45,19,02,328,37*77
$GPGSV,6,3,21,10,06,068,39,04,09,197,37,31,06,125,35,14,07,278,36*74
$GPGSV,6,4,21,36,35,170,45,58,12,245,38,40,24,132,36,34,31,208,42*74
$GPGSV,6,5,21,49,34,195,44,57,10,109,37,41,07,108,34,61,03,257,37*7D
$GPGSV,6,6,21*7A
$GLGSV,2,1,08,84,81,351,41,70,13,216,35,83,28,134,38,85,26,321,46*68
$GLGSV,2,2,08,68,46,039,51,69,78,199,52,77,04,027,35,76,08,345,42*63
$GAGSV,3,1,11,11,83,058,44,02,13,285,38,09,28,185,43,12,31,112,40*67
$GAGSV,3,2,11,19,28,047,38,06,47,166,47,36,40,302,44,10,55,107,47*60
$GAGSV,3,3,11,04,60,124,48,30,06,334,37,25,03,238,35*5F
$GBGSV,5,1,20,29,65,280,51,19,13,226,41,35,11,315,42,39,25,060,42*68
$GBGSV,5,2,20,05,24,128,38,48,39,223,,57,20,086,,30,46,161,49*6C
$GBGSV,5,3,20,16,24,071,40,09,22,089,40,06,23,075,39,20,61,218,52*66
$GBGSV,5,4,20,32,57,057,50,31,02,098,,02,08,105,34,27,01,143,*66
$GBGSV,5,5,20,41,05,050,39,22,09,217,,13,06,073,37,60,10,109,38*6B
$GPGGA,000047.00,,,,,0,00,,,M,,M,,*4B
$PTNL,GGK,000047.00,010125,4742.1600803,N,01618.1003588,E,1,41,0.7,EHT751.3040,M*4F
$GPGGQ,000047.00,010125,4742.1600803,N,01618.1003588,E,1,41,0.826,708.0975,M*3A
$GPGFA,000047.00,3.952,5.083,0.416,0.353,4.608,0.620,,VVV*0B
$GPLLK,000047.00,010125,,M,,M,1,41,0.7,,M*0A
$GNGMP,000047.00,,,,,DAAA,41,0.4,,,,*54
$GPGMP,000047.00,,,,,,11,,,,1.9,136*72
$GLGMP,000047.00,,,,,,07,,,,,*7B
$GAGMP,000047.00,,,,,,10,,,,,*70
$GBGMP,000047.00,,,,,,13,,,,,*70
$PSSN,SNC,[0,259265000,2347]*4B
$GPZDA,000052.00,01,01,2025,,*64
$GPDTM,W84,,00.0000000,N,00.0000000,E,00.0000000,W84*5F
$PSSN,TFM,000052.00,,,,*68
$GPRMC,000052.00,A,4742.1600791,N,01618.1003555,E,0.0,,010125,5.1,E,D*1E
$GPGLL,4742.1600791,N,01618.1003555,E,000052.00,A,D*6F
$GPGGA,000052.00,4742.1600791,N,01618.1003555,E,2,41,0.4,708.0993,M,43.2066,M,2.9,0136*45
$GNGNS,000052.00,4742.1600791,N,01618.1003555,E,DAAA,41,0.4,708.0993,43.2066,,*56
$GPGNS,000052.00,,,,,,11,,,,2.9,136*75
$GLGNS,000052.00,,,,,,07,,,,,*7F
$GAGNS,000052.00,,,,,,10,,,,,*74
$GBGNS,000052.00,,,,,,13,,,,,*74
$GPLLQ,000052.00,010125,,M,,M,1,41,0.831,,M*19
$GPVTG,,T,,M,0.01,N,0.01,K,D*26
$GPHDT,,T*1B
$GPTHS,,V*0E
$GPROT,,V*08
$PSSN,HRP,000052.00,010125,,,,,,,00,0,,*66
$PTNL,AVR,000052.00,,Yaw,,Tilt,,,,0,,00*30
$GPGSA,A,3,02,03,04,08,10,14,17,21,28,31,32,,0.7,0.4,0.5*31
$GPGSA,A,3,68,69,70,76,83,84,85,,,,,,0.7,0.4,0.5*39
$GPGSA,A,3,02,04,06,09,10,11,12,19,30,36,,,0.7,0.4,0.5*31
$GPGSA,A,3,05,06,09,13,16,19,20,29,30,32,35,39,0.7,0.4,0.5*34
$GPGSA,A,3,60,,,,,,,,,,,,0.7,0.4,0.5*32
$GPGST,000052.00,1.376,0.418,0.353,2.569,0.418,0.353,0.626*59
$GPGBS,000052.00,2.628,2.082,3.665,68,0.0001,4.672,6.093*5C
$GPGRS,000052.00,1,-0.3,0.2,-0.1,-0.2,-1.6,0.0,0.0,0.0,0.8,-0.8,0.2,*4D
$GPGRS,000052.00,1,4.7,-0.1,-1.0,-4.3,-1.5,-1.5,-0.5,,,,,*66
$GPGRS,000052.00,1,-0.2,0.0,0.2,0.3,0.3,-0.5,-0.1,-0.6,-0.3,-0.2,,*4A
$GPGRS,000052.00,1,1.4,0.4,0.9,-2.1,-0.6,0.2,-0.2,-0.1,0.3,0.1,-1.5,-0.8*4B
$GPGRS,000052.00,1,-1.6,,,,,,,,,,,*4D
$GPGSV,6,1,21,02,86,300,50,08,22,183,41,28,16,099,39,32,35,053,47*75
$GPGSV,6,2,21,17,27,313,44,03,49,260,47,21,71,125,45,19,02,328,38*7F
$GPGSV,6,3,21,10,06,068,39,04,09,197,37,31,06,125,35,14,07,278,37*75
$GPGSV,6,4,21,36,35,170,45,58,12,245,38,40,24,132,36,34,31,208,42*74
$GPGSV,6,5,21,49,34,195,44,57,10,109,37,41,07,108,34,61,03,257,37*7D
$GPGSV,6,6,21*7A
$GLGSV,2,1,08,84,81,351,41,70,13,217,35,83,28,134,38,85,26,321,46*69
$GLGSV,2,2,08,68,46,039,51,69,78,199,52,77,04,027,37,76,08,345,42*61
$GAGSV,3,1,11,11,83,058,44,02,13,285,38,09,28,185,43,12,31,112,39*69
$GAGSV,3,2,11,19,28,047,38,06,47,166,47,36,40,302,44,10,55,107,47*60
$GAGSV,3,3,11,04,60,124,48,30,06,334,37,25,03,238,35*5F
$GBGSV,5,1,20,29,65,280,51,19,13,226,42,35,11,315,42,39,25,060,42*6B
$GBGSV,5,2,20,05,24,128,38,48,39,223,,57,20,086,,30,46,161,49*6C
$GBGSV,5,3,20,16,24,071,40,09,22,089,39,06,23,075,40,20,61,218,51*65
$GBGSV,5,4,20,32,57,057,50,31,02,098,,02,08,105,34,27,01,143,*66
$GBGSV,5,5,20,41,05,050,39,22,09,217,,13,06,073,37,60,10,109,38*6B
$GPGGA,000052.00,,,,,0,00,,,M,,M,,*4F
$PTNL,GGK,000052.00,010125,4742.1600791,N,01618.1003555,E,1,41,0.7,EHT751.3059,M*47
$GPGGQ,000052.00,010125,4742.1600791,N,01618.1003555,E,1,41,0.831,708.0993,M*34
$GPGFA,000052.00,3.972,5.132,0.418,0.353,2.569,0.626,,VVV*0C
$GPLLK,000052.00,010125,,M,,M,1,41,0.7,,M*0E
$GNGMP,000052.00,,,,,DAAA,41,0.4,,,,*50
$GPGMP,000052.00,,,,,,11,,,,2.9,136*75
$GLGMP,000052.00,,,,,,07,,,,,*7F
$GAGMP,000052.00,,,,,,10,,,,,*74
$GBGMP,000052.00,,,,,,13,,,,,*74
$PSSN,SNC,[0,259270000,2347]*4F
$GPZDA,000057.00,01,01,2025,,*61
$GPDTM,W84,,00.0000000,N,00.0000000,E,00.0000000,W84*5F
$PSSN,TFM,000057.00,,,,*6D
$GPRMC,000057.00,A,4742.1600797,N,01618.1003546,E,0.0,,010125,5.1,E,D*1F
$GPGLL,4742.1600797,N,01618.1003546,E,000057.00,A,D*6E
$GPGGA,000057.00,4742.1600797,N,01618.1003546,E,2,40,0.4,708.0990,M,43.2066,M,3.2,0136*4C
$GNGNS,000057.00,4742.1600797,N,01618.1003546,E,DAAA,40,0.4,708.0990,43.2066,,*55
$GPGNS,000057.00,,,,,,10,,,,3.2,136*7B
$GLGNS,000057.00,,,,,,07,,,,,*7A
$GAGNS,000057.00,,,,,,10,,,,,*71
$GBGNS,000057.00,,,,,,13,,,,,*71
$GPLLQ,000057.00,010125,,M,,M,1,40,0.841,,M*1A
$GPVTG,,T,,M,0.01,N,0.01,K,D*26
$GPHDT,,T*1B
$GPTHS,,V*0E
$GPROT,,V*08
$PSSN,HRP,000057.00,010125,,,,,,,00,0,,*63
$PTNL,AVR,000057.00,,Yaw,,Tilt,,,,0,,00*35
$GPGSA,A,3,02,03,04,08,10,14,17,21,28,32,,,0.7,0.4,0.5*33
$GPGSA,A,3,68,69,70,76,83,84,85,,,,,,0.7,0.4,0.5*39
$GPGSA,A,3,02,04,06,09,10,11,12,19,30,36,,,0.7,0.4,0.5*31
$GPGSA,A,3,05,06,09,13,16,19,20,29,30,32,35,39,0.7,0.4,0.5*34
$GPGSA,A,3,60,,,,,,,,,,,,0.7,0.4,0.5*32
$GPGST,000057.00,1.281,0.420,0.359,3.581,0.420,0.359,0.635*50
$GPGBS,000057.00,2.621,2.157,3.530,68,0.0001,4.209,6.093*52
$GPGRS,000057.00,1,-0.3,0.3,-0.0,-0.3,-2.0,-0.2,0.0,-0.0,0.6,-0.1,,*65
$GPGRS,000057.00,1,4.2,0.2,-2.0,-3.1,-1.9,-1.2,-0.1,,,,,*41
$GPGRS,000057.00,1,-0.0,-0.1,0.3,0.5,0.4,-0.3,-0.1,-0.9,-0.5,-0.2,,*6E
$GPGRS,000057.00,1,1.6,0.8,0.9,-1.4,0.0,0.6,-0.0,0.2,0.4,0.4,-1.7,-0.6*4B
$GPGRS,000057.00,1,-1.3,,,,,,,,,,,*4D
$GPGSV,6,1,21,02,86,300,50,08,22,183,42,28,16,099,39,32,35,053,46*77
$GPGSV,6,2,21,17,27,313,43,03,49,260,48,21,71,125,45,19,02,328,37*78
$GPGSV,6,3,21,10,06,068,39,04,09,197,38,31,06,125,34,14,07,278,37*7B
$GPGSV,6,4,21,36,35,170,45,58,12,245,37,40,24,132,36,34,31,208,42*7B
$GPGSV,6,5,21,49,34,195,44,57,10,109,37,41,07,108,34,61,03,257,37*7D
$GPGSV,6,6,21*7A
$GLGSV,2,1,08,84,81,351,41,70,13,217,35,83,28,134,38,85,26,321,46*69
$GLGSV,2,2,08,68,46,039,50,69,78,199,52,77,04,027,37,76,08,345,43*61
$GAGSV,3,1,11,11,83,059,44,02,13,285,38,09,28,185,43,12,31,112,39*68
$GAGSV,3,2,11,19,28,047,38,06,47,166,47,36,40,302,45,10,55,107,47*61
$GAGSV,3,3,11,04,60,124,47,30,06,334,37,25,03,238,36*53
$GBGSV,5,1,20,29,65,280,51,19,13,226,42,35,11,315,42,39,25,060,42*6B
$GBGSV,5,2,20,05,24,128,38,48,39,223,,57,20,086,,30,46,161,50*64
$GBGSV,5,3,20,16,24,071,40,09,22,089,39,06,23,075,40,20,61,218,52*66
$GBGSV,5,4,20,32,57,057,50,31,02,098,,02,08,105,34,27,01,143,*66
$GBGSV,5,5,20,41,05,050,39,22,09,217,,13,06,073,37,60,10,109,38*6B
$GPGGA,000057.00,,,,,0,00,,,M,,M,,*4A
$PTNL,GGK,000057.00,010125,4742.1600797,N,01618.1003546,E,1,40,0.7,EHT751.3056,M*48
$GPGGQ,000057.00,010125,4742.1600797,N,01618.1003546,E,1,40,0.841,708.0990,M*30
$GPGFA,000057.00,3.994,5.204,0.420,0.359,3.581,0.635,,VVV*03
$GPLLK,000057.00,010125,,M,,M,1,40,0.7,,M*0A
$GNGMP,000057.00,,,,,DAAA,40,0.4,,,,*54
$GPGMP,000057.00,,,,,,10,,,,3.2,136*7B
$GLGMP,000057.00,,,,,,07,,,,,*7A
$GAGMP,000057.00,,,,,,10,,,,,*71
$GBGMP,000057.00,,,,,,13,,,,,*71
$PSSN,SNC,[0,259275000,2347]*4A
$GPZDA,000102.00,01,01,2025,,*60
$GPDTM,W84,,00.0000000,N,00.0000000,E,00.0000000,W84*5F
$PSSN,TFM,000102.00,,,,*6C
$GPRMC,000102.00,A,4742.1600804,N,01618.1003528,E,0.0,,010125,5.1,E,D*13
$GPGLL,4742.1600804,N,01618.1003528,E,000102.00,A,D*62
$GPGGA,000102.00,4742.1600804,N,01618.1003528,E,2,40,0.4,708.0993,M,43.2066,M,1.8,0136*4B
$GNGNS,000102.00,4742.1600804,N,01618.1003528,E,DAAA,40,0.4,708.0993,43.2066,,*5A
$GPGNS,000102.00,,,,,,10,,,,1.8,136*72
$GLGNS,000102.00,,,,,,07,,,,,*7B
$GAGNS,000102.00,,,,,,10,,,,,*70
$GBGNS,000102.00,,,,,,13,,,,,*70
$GPLLQ,000102.00,010125,,M,,M,1,40,0.835,,M*18
$GPVTG,,T,,M,0.00,N,0.01,K,D*27
$GPHDT,,T*1B
$GPTHS,,V*0E
$GPROT,,V*08
$PSSN,HRP,000102.00,010125,,,,,,,00,0,,*62
$PTNL,AVR,000102.00,,Yaw,,Tilt,,,,0,,00*34
$GPGSA,A,3,02,03,04,08,10,14,17,21,28,32,,,0.7,0.4,0.5*33
$GPGSA,A,3,68,69,70,76,83,84,85,,,,,,0.7,0.4,0.5*39
$GPGSA,A,3,02,04,06,09,10,11,12,19,30,36,,,0.7,0.4,0.5*31
$GPGSA,A,3,05,06,09,13,16,19,20,29,30,32,35,39,0.7,0.4,0.5*34
$GPGSA,A,3,60,,,,,,,,,,,,0.7,0.4,0.5*32
$GPGST,000102.00,1.152,0.418,0.357,6.123,0.418,0.358,0.628*56
$GPGBS,000102.00,2.608,2.126,3.564,28,0.0001,0.874,1.211*50
$GPGRS,000102.00,1,-0.2,0.2,0.6,0.0,-1.7,-0.5,-0.3,-0.2,0.9,0.2,,*6F
$GPGRS,000102.00,1,3.7,-0.1,-0.5,-2.3,-2.2,-1.3,-0.1,,,,,*61
$GPGRS,000102.00,1,-0.2,-0.2,0.4,0.2,0.2,-0.5,0.3,-0.9,-0.9,-0.2,,*4D
$GPGRS,000102.00,1,1.6,0.9,0.8,-1.3,0.5,0.0,0.1,0.2,0.8,0.3,-1.4,-0.2*6E
$GPGRS,000102.00,1,-1.4,,,,,,,,,,,*4B
$GPGSV,6,1,21,02,86,300,50,08,22,183,42,28,16,099,40,32,35,053,46*79
$GPGSV,6,2,21,17,27,313,44,03,49,260,48,21,71,125,45,19,02,328,39*71
$GPGSV,6,3,21,10,06,068,39,04,09,197,38,31,06,125,33,14,07,278,37*7C
$GPGSV,6,4,21,36,35,170,45,58,12,245,38,40,24,132,36,34,31,208,42*74
$GPGSV,6,5,21,49,34,195,44,57,10,109,37,41,07,108,35,61,03,257,37*7C
$GPGSV,6,6,21*7A
$GLGSV,2,1,08,84,81,351,41,70,13,217,35,83,28,134,38,85,26,321,47*68
$GLGSV,2,2,08,68,46,039,51,69,78,199,52,77,04,027,37,76,08,345,44*67
$GAGSV,3,1,11,11,83,059,44,02,13,285,38,09,28,185,43,12,31,112,39*68
$GAGSV,3,2,11,19,28,046,38,06,47,166,47,36,40,302,44,10,55,107,47*61
$GAGSV,3,3,11,04,60,124,47,30,06,334,38,25,03,238,37*5D
$GBGSV,5,1,20,29,65,280,51,19,13,226,43,35,11,315,42,39,25,060,42*6A
$GBGSV,5,2,20,05,24,128,38,48,39,223,,57,20,086,,30,46,161,50*64
$GBGSV,5,3,20,16,24,071,41,09,22,089,39,06,23,075,40,20,61,218,52*67
$GBGSV,5,4,20,32,57,057,50,31,02,098,,02,08,105,34,27,01,143,*66
$GBGSV,5,5,20,41,05,050,39,22,10,217,,13,06,073,37,60,10,109,38*63
$GPGGA,000102.00,,,,,0,00,,,M,,M,,*4B
$PTNL,GGK,000102.00,010125,4742.1600804,N,01618.1003528,E,1,40,0.7,EHT751.3058,M*4A
$GPGGQ,000102.00,010125,4742.1600804,N,01618.1003528,E,1,40,0.835,708.0993,M*3C
$GPGFA,000102.00,3.978,5.149,0.418,0.357,6.123,0.628,,VVV*0A
$GPLLK,000102.00,010125,,M,,M,1,40,0.7,,M*0B
$GNGMP,000102.00,,,,,DAAA,40,0.4,,,,*55
$GPGMP,000102.00,,,,,,10,,,,1.8,136*72
$GLGMP,000102.00,,,,,,07,,,,,*7B
$GAGMP,000102.00,,,,,,10,,,,,*70
$GBGMP,000102.00,,,,,,13,,,,,*70
$PSSN,SNC,[0,259280000,2347]*40
$GPZDA,000107.00,01,01,2025,,*65
$GPDTM,W84,,00.0000000,N,00.0000000,E,00.0000000,W84*5F
$PSSN,TFM,000107.00,,,,*69
$GPRMC,000107.00,A,4742.1600797,N,01618.1003500,E,0.0,,010125,5.1,E,D*19
$GPGLL,4742.1600797,N,01618.1003500,E,000107.00,A,D*68
$GPGGA,000107.00,4742.1600797,N,01618.1003500,E,2,40,0.4,708.1059,M,43.2066,M,2.0,0136*44
$GNGNS,000107.00,4742.1600797,N,01618.1003500,E,DAAA,40,0.4,708.1059,43.2066,,*5E
$GPGNS,000107.00,,,,,,10,,,,2.0,136*7C
$GLGNS,000107.00,,,,,,07,,,,,*7E
$GAGNS,000107.00,,,,,,10,,,,,*75
$GBGNS,000107.00,,,,,,13,,,,,*75
$GPLLQ,000107.00,010125,,M,,M,1,40,0.827,,M*1E
$GPVTG,,T,,M,0.01,N,0.01,K,D*26
$GPHDT,,T*1B
$GPTHS,,V*0E
$GPROT,,V*08
$PSSN,HRP,000107.00,010125,,,,,,,00,0,,*67
$PTNL,AVR,000107.00,,Yaw,,Tilt,,,,0,,00*31
$GPGSA,A,3,02,03,04,08,10,14,17,21,28,32,,,0.7,0.4,0.5*33
$GPGSA,A,3,68,69,70,76,83,84,85,,,,,,0.7,0.4,0.5*39
$GPGSA,A,3,02,04,06,09,10,11,12,19,30,36,,,0.7,0.4,0.5*31
$GPGSA,A,3,05,06,09,13,16,19,20,29,30,32,35,39,0.7,0.4,0.5*34
$GPGSA,A,3,60,,,,,,,,,,,,0.7,0.4,0.5*32
$GPGST,000107.00,1.493,0.415,0.354,4.676,0.415,0.355,0.622*5A
$GPGBS,000107.00,2.608,2.099,3.627,68,0.0001,4.426,6.094*57
$GPGRS,000107.00,1,-0.3,0.0,0.1,-0.2,-2.1,-0.0,0.2,-0.0,0.7,0.4,,*67
$GPGRS,000107.00,1,4.4,0.1,-1.5,-3.8,-3.5,-1.1,1.6,,,,,*69
$GPGRS,000107.00,1,-0.5,-0.2,0.2,0.4,0.3,-0.5,0.3,-0.9,-0.6,-0.1,,*42
$GPGRS,000107.00,1,1.6,1.0,0.6,-1.5,0.7,-0.7,-0.2,-0.0,0.4,0.0,-1.7,-0.7*4B
$GPGRS,000107.00,1,-1.8,,,,,,,,,,,*42
$GPGSV,6,1,21,02,86,300,50,08,22,183,42,28,16,099,40,32,35,053,46*79
$GPGSV,6,2,21,17,27,312,44,03,49,260,47,21,71,126,45,19,02,328,37*72
$GPGSV,6,3,21,10,06,068,39,04,09,197,38,31,06,125,32,14,07,278,36*7C
$GPGSV,6,4,21,36,35,170,45,58,12,245,37,40,24,132,36,34,31,208,42*7B
$GPGSV,6,5,21,49,34,195,44,57,10,109,37,41,07,108,34,61,03,257,37*7D
$GPGSV,6,6,21*7A
$GLGSV,2,1,08,84,81,351,41,70,13,217,35,83,28,134,38,85,27,321,48*66
$GLGSV,2,2,08,68,46,039,51,69,79,199,52,77,04,027,37,76,08,345,42*60
$GAGSV,3,1,11,11,83,059,44,02,13,285,39,09,28,185,43,12,31,112,40*67
$GAGSV,3,2,11,19,28,046,38,06,47,166,47,36,40,302,44,10,55,107,47*61
$GAGSV,3,3,11,04,60,124,47,30,06,334,37,25,03,238,36*53
$GBGSV,5,1,20,29,65,280,51,19,13,226,42,35,11,315,42,39,25,060,42*6B
$GBGSV,5,2,20,05,24,128,38,48,39,223,,57,20,086,,30,46,161,49*6C
$GBGSV,5,3,20,16,24,071,41,09,22,089,39,06,23,075,40,20,61,218,52*67
$GBGSV,5,4,20,32,57,057,50,31,02,098,,02,08,105,34,27,01,143,*66
$GBGSV,5,5,20,41,04,050,39,22,10,217,,13,06,073,37,60,10,109,38*62
$GPGGA,000107.00,,,,,0,00,,,M,,M,,*4E
$PTNL,GGK,000107.00,010125,4742.1600797,N,01618.1003500,E,1,40,0.7,EHT751.3124,M*4A
$GPGGQ,000107.00,010125,4742.1600797,N,01618.1003500,E,1,40,0.827,708.1059,M*3B
$GPGFA,000107.00,3.947,5.098,0.415,0.354,4.676,0.622,,VVV*0F
$GPLLK,000107.00,010125,,M,,M,1,40,0.7,,M*0E
$GNGMP,000107.00,,,,,DAAA,40,0.4,,,,*50
$GPGMP,000107.00,,,,,,10,,,,2.0,136*7C
$GLGMP,000107.00,,,,,,07,,,,,*7E
$GAGMP,000107.00,,,,,,10,,,,,*75
$GBGMP,000107.00,,,,,,13,,,,,*75
$PSSN,SNC,[0,259285000,2347]*45
$GPZDA,000112.00,01,01,2025,,*61
$GPDTM,W84,,00.0000000,N,00.0000000,E,00.0000000,W84*5F
$PSSN,TFM,000112.00,,,,*6D
$GPRMC,000112.00,A,4742.1600776,N,01618.1003472,E,0.0,,010125,5.1,E,D*16
$GPGLL,4742.1600776,N,01618.1003472,E,000112.00,A,D*67
$GPGGA,000112.00,4742.1600776,N,01618.1003472,E,2,40,0.4,708.1084,M,43.2066,M,3.0,0136*4A
$GNGNS,000112.00,4742.1600776,N,01618.1003472,E,DAAA,40,0.4,708.1084,43.2066,,*51
$GPGNS,000112.00,,,,,,10,,,,3.0,136*79
$GLGNS,000112.00,,,,,,07,,,,,*7A
$GAGNS,000112.00,,,,,,10,,,,,*71
$GBGNS,000112.00,,,,,,13,,,,,*71
$GPLLQ,000112.00,010125,,M,,M,1,40,0.834,,M*18
$GPVTG,,T,,M,0.00,N,0.01,K,D*27
$GPHDT,,T*1B
$GPTHS,,V*0E
$GPROT,,V*08
$PSSN,HRP,000112.00,010125,,,,,,,00,0,,*63
$PTNL,AVR,000112.00,,Yaw,,Tilt,,,,0,,00*35
$GPGSA,A,3,02,03,04,08,10,14,17,21,28,32,,,0.7,0.4,0.5*33
$GPGSA,A,3,68,69,70,76,83,84,85,,,,,,0.7,0.4,0.5*39
$GPGSA,A,3,02,04,06,09,10,11,12,19,30,36,,,0.7,0.4,0.5*31
$GPGSA,A,3,05,06,09,13,16,19,20,29,30,32,35,39,0.7,0.4,0.5*34
$GPGSA,A,3,60,,,,,,,,,,,,0.7,0.4,0.5*32
$GPGST,000112.00,1.483,0.417,0.355,1.933,0.417,0.355,0.629*5E
$GPGBS,000112.00,2.632,2.136,3.696,68,0.0001,4.306,6.094*51
$GPGRS,000112.00,1,-0.2,-0.1,0.1,-0.6,-2.3,0.2,0.2,0.2,0.3,0.2,,*4A
$GPGRS,000112.00,1,4.3,0.1,-0.9,-3.8,-3.8,-1.0,1.1,,,,,*6C
$GPGRS,000112.00,1,-0.1,-0.1,0.0,0.6,0.5,-0.3,0.4,-0.9,0.2,-0.1,,*6F
$GPGRS,000112.00,1,1.4,0.8,1.0,-1.3,0.3,-1.2,-0.3,-0.1,0.3,0.1,-2.1,-0.8*49
$GPGRS,000112.00,1,-1.5,,,,,,,,,,,*4B
$GPGSV,6,1,21,02,86,299,50,08,22,183,41,28,16,099,40,32,35,053,46*7B
$GPGSV,6,2,21,17,27,312,44,03,49,260,47,21,71,126,44,19,02,327,35*7E
$GPGSV,6,3,21,10,06,068,38,04,09,197,38,31,06,125,33,14,07,278,37*7D
$GPGSV,6,4,21,36,35,170,45,58,12,245,38,40,24,132,36,34,31,208,42*74
$GPGSV,6,5,21,49,34,195,43,57,10,109,37,41,07,108,34,61,03,257,37*7A
$GPGSV,6,6,21*7A
$GLGSV,2,1,08,84,81,351,41,70,13,217,36,83,28,134,38,85,27,321,47*6A
$GLGSV,2,2,08,68,46,039,50,69,79,199,52,77,04,027,37,76,08,345,43*60
$GAGSV,3,1,11,11,83,059,44,02,13,285,39,09,28,185,43,12,31,112,40*67
$GAGSV,3,2,11,19,28,046,38,06,47,166,46,36,40,302,44,10,55,107,47*60
$GAGSV,3,3,11,04,60,124,47,30,06,334,37,25,03,238,36*53
$GBGSV,5,1,20,29,65,280,51,19,13,226,42,35,11,315,41,39,25,060,42*68
$GBGSV,5,2,20,05,24,128,38,48,39,223,,57,20,086,,30,46,161,49*6C
$GBGSV,5,3,20,16,24,071,41,09,22,089,39,06,23,075,40,20,61,218,52*67
$GBGSV,5,4,20,32,57,057,50,31,02,098,,02,08,105,34,27,01,143,*66
$GBGSV,5,5,20,41,04,050,39,22,10,217,,13,06,073,37,60,10,109,38*62
$GPGGA,000112.00,,,,,0,00,,,M,,M,,*4A
$PTNL,GGK,000112.00,010125,4742.1600776,N,01618.1003472,E,1,40,0.7,EHT751.3150,M*46
$GPGGQ,000112.00,010125,4742.1600776,N,01618.1003472,E,1,40,0.834,708.1084,M*36
$GPGFA,000112.00,3.963,5.156,0.417,0.355,1.933,0.629,,VVV*0D
$GPLLK,000112.00,010125,,M,,M,1,40,0.7,,M*0A
$GNGMP,000112.00,,,,,DAAA,40,0.4,,,,*54
$GPGMP,000112.00,,,,,,10,,,,3.0,136*79
$GLGMP,000112.00,,,,,,07,,,,,*7A
$GAGMP,000112.00,,,,,,10,,,,,*71
$GBGMP,000112.00,,,,,,13,,,,,*71
$PSSN,SNC,[0,259290000,2347]*41
$GPZDA,000117.00,01,01,2025,,*64
$GPDTM,W84,,00.0000000,N,00.0000000,E,00.0000000,W84*5F
$PSSN,TFM,000117.00,,,,*68
$GPRMC,000117.00,A,4742.1600766,N,01618.1003440,E,0.0,,010125,5.1,E,D*13
$GPGLL,4742.1600766,N,01618.1003440,E,000117.00,A,D*62
$GPGGA,000117.00,4742.1600766,N,01618.1003440,E,2,40,0.4,708.1096,M,43.2066,M,3.2,0136*4E
$GNGNS,000117.00,4742.1600766,N,01618.1003440,E,DAAA,40,0.4,708.1096,43.2066,,*57
$GPGNS,000117.00,,,,,,10,,,,3.2,136*7E
$GLGNS,000117.00,,,,,,07,,,,,*7F
$GAGNS,000117.00,,,,,,10,,,,,*74
$GBGNS,000117.00,,,,,,13,,,,,*74
$GPLLQ,000117.00,010125,,M,,M,1,40,0.841,,M*1F
$GPVTG,,T,,M,0.00,N,0.01,K,D*27
$GPHDT,,T*1B
$GPTHS,,V*0E
$GPROT,,V*08
$PSSN,HRP,000117.00,010125,,,,,,,00,0,,*66
$PTNL,AVR,000117.00,,Yaw,,Tilt,,,,0,,00*30
$GPGSA,A,3,02,03,04,08,10,14,17,21,28,32,,,0.7,0.4,0.5*33
$GPGSA,A,3,68,69,70,76,83,84,85,,,,,,0.7,0.4,0.5*39
$GPGSA,A,3,02,04,06,09,10,11,12,19,30,36,,,0.7,0.4,0.5*31
$GPGSA,A,3,05,06,09,13,16,19,20,29,30,32,35,39,0.7,0.4,0.5*34
$GPGSA,A,3,60,,,,,,,,,,,,0.7,0.4,0.5*32
$GPGST,000117.00,1.378,0.420,0.359,3.848,0.420,0.359,0.635*5A
$GPGBS,000117.00,2.609,2.159,3.534,68,0.0001,4.502,6.094*5C
$GPGRS,000117.00,1,-0.2,0.1,0.3,-0.3,-2.1,0.3,-0.5,0.1,0.6,0.0,,*48
$GPGRS,000117.00,1,4.5,0.1,1.1,-3.9,-2.9,-1.6,-0.6,,,,,*67
$GPGRS,000117.00,1,-0.4,0.2,0.2,0.5,0.5,-0.3,0.2,-0.5,0.5,-0.1,,*4D
$GPGRS,000117.00,1,1.2,0.7,0.6,-0.2,-0.1,-0.8,-0.3,0.1,0.6,0.1,-1.4,-0.6*46
$GPGRS,000117.00,1,-1.5,,,,,,,,,,,*4E
$GPGSV,6,1,21,02,86,299,50,08,22,183,40,28,16,099,39,32,35,053,46*74
$GPGSV,6,2,21,17,27,312,43,03,49,260,47,21,71,126,44,19,02,327,36*7A
$GPGSV,6,3,21,10,06,068,38,04,10,197,38,31,06,125,33,14,07,278,38*7A
$GPGSV,6,4,21,36,35,170,45,58,12,245,38,40,24,132,36,34,31,208,42*74
$GPGSV,6,5,21,49,34,195,44,57,10,109,37,41,07,108,34,61,03,257,37*7D
$GPGSV,6,6,21*7A
$GLGSV,2,1,08,84,81,351,41,70,13,217,36,83,28,134,38,85,27,321,47*6A
$GLGSV,2,2,08,68,45,039,51,69,79,199,52,77,04,027,36,76,08,344,43*62
$GAGSV,3,1,11,11,83,060,44,02,13,285,39,09,28,185,43,12,31,112,40*6D
$GAGSV,3,2,11,19,28,046,37,06,47,166,47,36,40,302,44,10,55,107,47*6E
$GAGSV,3,3,11,04,60,124,47,30,06,334,37,25,03,238,35*50
$GBGSV,5,1,20,29,65,280,51,19,13,226,42,35,11,315,41,39,25,060,42*68
$GBGSV,5,2,20,05,24,128,38,48,39,223,,57,20,086,,30,46,161,49*6C
$GBGSV,5,3,20,16,24,071,40,09,22,089,39,06,23,075,39,20,61,218,52*68
$GBGSV,5,4,20,32,57,057,50,31,02,098,,02,08,105,34,27,01,143,*66
$GBGSV,5,5,20,41,04,050,39,22,10,217,,13,06,073,37,60,10,109,38*62
$GPGGA,000117.00,,,,,0,00,,,M,,M,,*4F
$PTNL,GGK,000117.00,010125,4742.1600766,N,01618.1003440,E,1,40,0.7,EHT751.3162,M*42
$GPGGQ,000117.00,010125,4742.1600766,N,01618.1003440,E,1,40,0.841,708.1096,M*32
$GPGFA,000117.00,3.993,5.204,0.420,0.359,3.848,0.635,,VVV*09
$GPLLK,000117.00,010125,,M,,M,1,40,0.7,,M*0F
