$GPZDA,212942.00,01,01,2025,,*6D
$GPDTM,W84,,00.0000000,N,00.0000000,E,00.0000000,W84*5F
$PSSN,TFM,212942.00,,,,*61
$GPRMC,212942.00,A,4742.1602643,N,01618.1001610,E,0.0,,010125,5.1,E,D*1B
$GPGLL,4742.1602643,N,01618.1001610,E,212942.00,A,D*6A
$GPGGA,212942.00,4742.1602643,N,01618.1001610,E,2,37,0.4,709.0904,M,43.2066,M,2.4,0136*43
$GNGNS,212942.00,4742.1602643,N,01618.1001610,E,DAAA,37,0.4,709.0904,43.2066,,*5D
$GPGNS,212942.00,,,,,,08,,,,2.4,136*79
$GLGNS,212942.00,,,,,,08,,,,,*79
$GAGNS,212942.00,,,,,,08,,,,,*74
$GBGNS,212942.00,,,,,,13,,,,,*7D
$GPLLQ,212942.00,010125,,M,,M,1,37,0.919,,M*1A
$GPVTG,,T,,M,0.00,N,0.01,K,D*27
$GPHDT,,T*1B
$GPTHS,,V*0E
$GPROT,,V*08
$PSSN,HRP,212942.00,010125,,,,,,,00,0,,*6F
$PTNL,AVR,212942.00,,Yaw,,Tilt,,,,0,,00*39
$GPGSA,A,3,02,08,10,16,21,23,27,32,,,,,0.8,0.4,0.6*32
$GPGSA,A,3,67,68,69,74,75,83,84,85,,,,,0.8,0.4,0.6*33
$GPGSA,A,3,03,07,08,13,21,26,31,33,,,,,0.8,0.4,0.6*33
$GPGSA,A,3,05,08,13,14,27,28,30,33,36,41,42,43,0.8,0.4,0.6*3F
$GPGSA,A,3,60,,,,,,,,,,,,0.8,0.4,0.6*3E
$GPGST,212942.00,1.972,0.461,0.322,14.006,0.454,0.332,0.727*62
$GPGBS,212942.00,3.164,1.914,4.002,68,0.0001,6.852,6.071*5C
$GPGRS,212942.00,1,-0.2,0.1,0.2,-0.0,-0.1,-0.0,0.0,-0.2,,,,*6F
$GPGRS,212942.00,1,3.7,6.9,0.8,-4.6,-3.3,-1.1,-2.3,1.8,,,,*49
$GPGRS,212942.00,1,-1.2,0.2,0.2,0.5,0.3,0.5,-0.3,-0.0,,,,*6E
$GPGRS,212942.00,1,1.0,0.2,1.0,0.7,0.7,0.7,-0.1,-0.5,-0.2,0.8,0.1,-0.0*4A
$GPGRS,212942.00,1,-2.4,,,,,,,,,,,*45
$GPGSV,5,1,18,08,72,274,50,16,11,193,38,32,29,130,44,23,24,049,41*7D
$GPGSV,5,2,18,02,25,280,44,21,46,285,44,27,63,159,50,10,66,066,51*7B
$GPGSV,5,3,18,14,04,333,37,36,35,170,44,58,13,245,37,57,11,108,37*72
$GPGSV,5,4,18,34,31,208,42,40,24,132,36,49,34,195,44,41,07,108,34*74
$GPGSV,5,5,18,61,03,257,38*4F
$GLGSV,3,1,10,84,58,328,41,74,18,254,42,67,19,028,45,85,12,296,45*64
$GLGSV,3,2,10,75,24,309,46,69,39,155,49,83,39,085,40,68,55,076,51*63
$GLGSV,3,3,10,76,01,000,40,82,02,103,35*6C
$GAGSV,3,1,09,26,75,315,48,21,14,195,39,33,28,273,42,08,30,073,43*6D
$GAGSV,3,2,09,07,24,131,40,23,39,245,,31,28,307,42,13,42,073,44*64
$GAGSV,3,3,09,03,08,026,36*5B
$GBGSV,5,1,20,28,72,102,51,42,17,039,42,05,23,128,38,08,14,044,36*65
$GBGSV,5,2,20,43,10,115,40,31,14,068,,41,40,171,47,46,11,268,*6B
$GBGSV,5,3,20,60,11,108,39,13,22,047,41,58,19,259,,14,39,056,46*6B
$GBGSV,5,4,20,57,42,244,,27,58,300,50,33,56,090,50,36,09,316,39*6D
$GBGSV,5,5,20,29,03,289,,38,01,048,27,02,08,105,33,30,09,297,40*6D
$GPGGA,212942.00,,,,,0,00,,,M,,M,,*46
$PTNL,GGK,212942.00,010125,4742.1602643,N,01618.1001610,E,1,37,0.8,EHT752.2969,M*44
$GPGGQ,212942.00,010125,4742.1602643,N,01618.1001610,E,1,37,0.919,709.0904,M*34
$GPGFA,212942.00,4.385,5.959,0.461,0.322,14.006,0.727,,VVV*36
$GPLLK,212942.00,010125,,M,,M,1,37,0.8,,M*09
$GNGMP,212942.00,,,,,DAAA,37,0.4,,,,*58
$GPGMP,212942.00,,,,,,08,,,,2.4,136*79
$GLGMP,212942.00,,,,,,08,,,,,*79
$GAGMP,212942.00,,,,,,08,,,,,*74
$GBGMP,212942.00,,,,,,13,,,,,*7D
$PSSN,SNC,[0,336600000,2347]*44
$GPZDA,212947.00,01,01,2025,,*68
$GPDTM,W84,,00.0000000,N,00.0000000,E,00.0000000,W84*5F
$PSSN,TFM,212947.00,,,,*64
$GPRMC,212947.00,A,4742.1602635,N,01618.1001599,E,0.0,,010125,5.1,E,D*1D
$GPGLL,4742.1602635,N,01618.1001599,E,212947.00,A,D*6C
$GPGGA,212947.00,4742.1602635,N,01618.1001599,E,2,37,0.4,709.0835,M,43.2066,M,2.9,0136*4B
$GNGNS,212947.00,4742.1602635,N,01618.1001599,E,DAAA,37,0.4,709.0835,43.2066,,*58
$GPGNS,212947.00,,,,,,08,,,,2.9,136*71
$GLGNS,212947.00,,,,,,08,,,,,*7C
$GAGNS,212947.00,,,,,,08,,,,,*71
$GBGNS,212947.00,,,,,,13,,,,,*78
$GPLLQ,212947.00,010125,,M,,M,1,37,0.917,,M*11
$GPVTG,,T,,M,0.00,N,0.01,K,D*27
$GPHDT,,T*1B
$GPTHS,,V*0E
$GPROT,,V*08
$PSSN,HRP,212947.00,010125,,,,,,,00,0,,*6A
$PTNL,AVR,212947.00,,Yaw,,Tilt,,,,0,,00*3C
$GPGSA,A,3,02,08,10,16,21,23,27,32,,,,,0.8,0.4,0.6*32
$GPGSA,A,3,67,68,69,74,75,83,84,85,,,,,0.8,0.4,0.6*33
$GPGSA,A,3,03,07,08,13,21,26,31,33,,,,,0.8,0.4,0.6*33
$GPGSA,A,3,05,08,13,14,27,28,30,33,36,41,42,43,0.8,0.4,0.6*3F
$GPGSA,A,3,60,,,,,,,,,,,,0.8,0.4,0.6*3E
$GPGST,212947.00,1.971,0.465,0.320,13.749,0.458,0.330,0.723*63
$GPGBS,212947.00,3.244,1.905,4.013,68,0.0001,6.275,6.071*57
$GPGRS,212947.00,1,-0.2,0.0,0.4,-0.1,0.2,-0.4,-0.0,-0.5,,,,*6C
$GPGRS,212947.00,1,4.8,6.3,0.6,-3.1,-4.8,-0.5,-2.3,1.5,,,,*44
$GPGRS,212947.00,1,-1.4,0.1,0.2,0.8,0.2,0.6,-0.2,0.3,,,,*4E
$GPGRS,212947.00,1,1.1,-0.3,0.9,0.7,0.6,0.5,-0.1,-0.4,0.5,1.1,-0.1,-0.1*66
$GPGRS,212947.00,1,-2.2,,,,,,,,,,,*46
$GPGSV,5,1,18,08,72,273,50,16,11,193,38,32,29,130,44,23,24,049,41*7A
$GPGSV,5,2,18,02,25,280,44,21,46,285,44,27,63,159,50,10,66,066,50*7A
$GPGSV,5,3,18,14,04,333,37,36,35,170,44,58,13,245,37,57,11,108,37*72
$GPGSV,5,4,18,34,31,208,42,40,24,132,36,49,34,195,43,41,07,108,33*74
$GPGSV,5,5,18,61,03,257,38*4F
$GLGSV,3,1,10,84,58,328,41,74,18,254,42,67,19,028,46,85,12,296,45*67
$GLGSV,3,2,10,75,24,309,47,69,39,155,49,83,39,085,40,68,55,076,51*62
$GLGSV,3,3,10,76,01,000,40,82,02,103,34*6D
$GAGSV,3,1,09,26,75,315,48,21,14,195,39,33,28,273,42,08,30,073,43*6D
$GAGSV,3,2,09,07,24,131,40,23,39,245,,31,28,307,42,13,42,073,44*64
$GAGSV,3,3,09,03,08,026,35*58
$GBGSV,6,1,21,28,72,102,51,42,17,039,42,05,23,128,38,08,14,044,36*67
$GBGSV,6,2,21,43,10,115,40,31,14,068,,41,40,171,48,46,11,268,*66
$GBGSV,6,3,21,60,11,108,40,13,22,047,40,58,19,259,,14,39,056,45*65
$GBGSV,6,4,21,57,42,244,,27,58,300,50,33,56,090,50,39,00,077,*67
$GBGSV,6,5,21,36,09,316,40,29,03,289,,38,01,048,26,02,08,105,33*60
$GBGSV,6,6,21,30,09,297,40*5A
$GPGGA,212947.00,,,,,0,00,,,M,,M,,*43
$PTNL,GGK,212947.00,010125,4742.1602635,N,01618.1001599,E,1,37,0.8,EHT752.2901,M*4C
$GPGGQ,212947.00,010125,4742.1602635,N,01618.1001599,E,1,37,0.917,709.0835,M*3F
$GPGFA,212947.00,4.418,5.928,0.465,0.320,13.749,0.723,,VVV*3F
$GPLLK,212947.00,010125,,M,,M,1,37,0.8,,M*0C
$GNGMP,212947.00,,,,,DAAA,37,0.4,,,,*5D
$GPGMP,212947.00,,,,,,08,,,,2.9,136*71
$GLGMP,212947.00,,,,,,08,,,,,*7C
$GAGMP,212947.00,,,,,,08,,,,,*71
$GBGMP,212947.00,,,,,,13,,,,,*78
$PSSN,SNC,[0,336605000,2347]*41
$GPZDA,212952.00,01,01,2025,,*6C
$GPDTM,W84,,00.0000000,N,00.0000000,E,00.0000000,W84*5F
$PSSN,TFM,212952.00,,,,*60
$GPRMC,212952.00,A,4742.1602635,N,01618.1001607,E,0.0,,010125,5.1,E,D*1D
$GPGLL,4742.1602635,N,01618.1001607,E,212952.00,A,D*6C
$GPGGA,212952.00,4742.1602635,N,01618.1001607,E,2,37,0.4,709.0793,M,43.2066,M,1.9,0136*4B
$GNGNS,212952.00,4742.1602635,N,01618.1001607,E,DAAA,37,0.4,709.0793,43.2066,,*5B
$GPGNS,212952.00,,,,,,08,,,,1.9,136*76
$GLGNS,212952.00,,,,,,08,,,,,*78
$GAGNS,212952.00,,,,,,08,,,,,*75
$GBGNS,212952.00,,,,,,13,,,,,*7C
$GPLLQ,212952.00,010125,,M,,M,1,37,0.918,,M*1A
$GPVTG,,T,,M,0.00,N,0.01,K,D*27
$GPHDT,,T*1B
$GPTHS,,V*0E
$GPROT,,V*08
$PSSN,HRP,212952.00,010125,,,,,,,00,0,,*6E
$PTNL,AVR,212952.00,,Yaw,,Tilt,,,,0,,00*38
$GPGSA,A,3,02,08,10,16,21,23,27,32,,,,,0.8,0.4,0.6*32
$GPGSA,A,3,67,68,69,74,75,83,84,85,,,,,0.8,0.4,0.6*33
$GPGSA,A,3,03,07,08,13,21,26,31,33,,,,,0.8,0.4,0.6*33
$GPGSA,A,3,05,08,13,14,27,28,30,33,36,41,42,43,0.8,0.4,0.6*3F
$GPGSA,A,3,60,,,,,,,,,,,,0.8,0.4,0.6*3E
$GPGST,212952.00,2.094,0.463,0.320,14.414,0.455,0.330,0.726*64
$GPGBS,212952.00,3.153,1.918,3.919,68,0.0001,6.409,6.071*53
$GPGRS,212952.00,1,-0.0,0.1,0.1,-0.4,0.0,0.2,0.1,-0.3,,,,*68
$GPGRS,212952.00,1,5.6,6.4,0.5,-3.9,-4.5,-1.8,-1.8,1.6,,,,*49
$GPGRS,212952.00,1,-1.6,0.2,0.4,0.8,0.1,0.5,0.1,0.1,,,,*61
$GPGRS,212952.00,1,0.8,-1.0,0.3,-0.1,0.9,0.6,0.1,-0.6,0.8,0.9,-0.3,0.1*41
$GPGRS,212952.00,1,-2.2,,,,,,,,,,,*42
$GPGSV,5,1,18,08,72,273,50,16,11,193,38,32,29,129,44,23,24,049,42*71
$GPGSV,5,2,18,02,25,280,44,21,46,285,44,27,63,159,50,10,66,066,50*7A
$GPGSV,5,3,18,14,04,333,37,36,35,170,44,58,13,245,38,57,11,108,37*7D
$GPGSV,5,4,18,34,31,208,42,40,24,132,36,49,34,195,43,41,07,108,33*74
$GPGSV,5,5,18,61,03,257,38*4F
$GLGSV,3,1,10,84,59,328,41,74,18,254,42,67,19,028,45,85,12,296,43*63
$GLGSV,3,2,10,75,24,309,47,69,39,155,50,83,39,085,40,68,54,076,51*6B
$GLGSV,3,3,10,76,01,000,40,82,02,103,34*6D
$GAGSV,3,1,09,26,75,315,48,21,14,195,39,33,28,273,42,08,30,073,43*6D
$GAGSV,3,2,09,07,24,131,40,23,39,245,,31,28,307,42,13,42,073,44*64
$GAGSV,3,3,09,03,08,026,36*5B
$GBGSV,6,1,21,28,72,102,51,42,17,039,42,05,23,128,38,08,14,044,36*67
$GBGSV,6,2,21,43,10,115,40,31,14,069,,41,40,171,47,46,11,268,*68
$GBGSV,6,3,21,60,11,108,40,13,22,047,40,58,19,259,,14,39,056,45*65
$GBGSV,6,4,21,57,42,244,,27,58,300,50,33,56,089,50,39,00,077,*6F
$GBGSV,6,5,21,36,09,316,40,29,03,289,,38,01,048,26,02,08,105,33*60
$GBGSV,6,6,21,30,09,297,40*5A
$GPGGA,212952.00,,,,,0,00,,,M,,M,,*47
$PTNL,GGK,212952.00,010125,4742.1602635,N,01618.1001607,E,1,37,0.8,EHT752.2859,M*40
$GPGGQ,212952.00,010125,4742.1602635,N,01618.1001607,E,1,37,0.918,709.0793,M*33
$GPGFA,212952.00,4.399,5.949,0.463,0.320,14.414,0.726,,VVV*3D
$GPLLK,212952.00,010125,,M,,M,1,37,0.8,,M*08
$GNGMP,212952.00,,,,,DAAA,37,0.4,,,,*59
$GPGMP,212952.00,,,,,,08,,,,1.9,136*76
$GLGMP,212952.00,,,,,,08,,,,,*78
$GAGMP,212952.00,,,,,,08,,,,,*75
$GBGMP,212952.00,,,,,,13,,,,,*7C
$PSSN,SNC,[0,336610000,2347]*45
$GPZDA,212957.00,01,01,2025,,*69
$GPDTM,W84,,00.0000000,N,00.0000000,E,00.0000000,W84*5F
$PSSN,TFM,212957.00,,,,*65
$GPRMC,212957.00,A,4742.1602605,N,01618.1001582,E,0.0,,010125,5.1,E,D*15
$GPGLL,4742.1602605,N,01618.1001582,E,212957.00,A,D*64
$GPGGA,212957.00,4742.1602605,N,01618.1001582,E,2,37,0.4,709.0778,M,43.2066,M,2.9,0136*45
$GNGNS,212957.00,4742.1602605,N,01618.1001582,E,DAAA,37,0.4,709.0778,43.2066,,*56
$GPGNS,212957.00,,,,,,08,,,,2.9,136*70
$GLGNS,212957.00,,,,,,08,,,,,*7D
$GAGNS,212957.00,,,,,,08,,,,,*70
$GBGNS,212957.00,,,,,,13,,,,,*79
$GPLLQ,212957.00,010125,,M,,M,1,37,0.914,,M*13
$GPVTG,,T,,M,0.00,N,0.00,K,D*26
$GPHDT,,T*1B
$GPTHS,,V*0E
$GPROT,,V*08
$PSSN,HRP,212957.00,010125,,,,,,,00,0,,*6B
$PTNL,AVR,212957.00,,Yaw,,Tilt,,,,0,,00*3D
$GPGSA,A,3,02,08,10,16,21,23,27,32,,,,,0.8,0.4,0.6*32
$GPGSA,A,3,67,68,69,74,75,83,84,85,,,,,0.8,0.4,0.6*33
$GPGSA,A,3,03,07,08,13,21,26,31,33,,,,,0.8,0.4,0.6*33
$GPGSA,A,3,05,08,13,14,27,28,30,33,36,41,42,43,0.8,0.4,0.6*3F
$GPGSA,A,3,60,,,,,,,,,,,,0.8,0.4,0.6*3E
$GPGST,212957.00,2.028,0.456,0.320,14.634,0.449,0.330,0.725*6E
$GPGBS,212957.00,3.196,1.945,3.973,68,0.0001,6.750,6.071*54
$GPGRS,212957.00,1,-0.2,0.2,0.2,0.1,-0.2,0.0,-0.3,0.2,,,,*69
$GPGRS,212957.00,1,4.0,6.7,0.6,-4.6,-4.1,-1.4,-2.7,0.7,,,,*47
$GPGRS,212957.00,1,-1.3,-0.1,0.6,0.8,-0.2,0.3,0.2,0.5,,,,*62
$GPGRS,212957.00,1,0.7,-0.9,0.5,-0.1,0.7,0.6,0.2,-0.7,0.0,0.7,-0.7,-0.1*66
$GPGRS,212957.00,1,-2.3,,,,,,,,,,,*46
$GPGSV,5,1,18,08,72,273,50,16,11,193,38,32,29,129,45,23,24,049,42*70
$GPGSV,5,2,18,02,25,280,43,21,46,285,44,27,63,159,50,10,66,066,50*7D
$GPGSV,5,3,18,14,04,333,37,36,35,170,44,58,13,245,37,57,11,108,37*72
$GPGSV,5,4,18,34,31,208,42,40,24,132,36,49,34,195,44,41,07,108,34*74
$GPGSV,5,5,18,61,03,257,38*4F
$GLGSV,3,1,10,84,59,328,41,74,18,254,42,67,19,028,44,85,12,296,44*65
$GLGSV,3,2,10,75,24,309,46,69,39,155,50,83,39,085,39,68,54,076,51*64
$GLGSV,3,3,10,76,01,000,41,82,02,103,35*6D
$GAGSV,3,1,09,26,75,315,48,21,14,195,38,33,28,273,42,08,30,073,43*6C
$GAGSV,3,2,09,07,24,131,40,23,39,245,,31,28,307,42,13,42,073,44*64
$GAGSV,3,3,09,03,08,026,36*5B
$GBGSV,6,1,21,28,72,102,51,42,17,039,42,05,23,128,38,08,14,044,36*67
$GBGSV,6,2,21,43,10,115,40,31,14,069,,41,40,171,48,46,11,268,*67
$GBGSV,6,3,21,60,11,108,40,13,22,047,40,58,19,259,,14,39,056,45*65
$GBGSV,6,4,21,57,42,244,,27,58,300,50,33,56,089,50,39,00,077,*6F
$GBGSV,6,5,21,36,09,316,40,29,03,289,,38,01,048,27,02,08,105,34*66
$GBGSV,6,6,21,30,09,297,41*5B
$GPGGA,212957.00,,,,,0,00,,,M,,M,,*42
$PTNL,GGK,212957.00,010125,4742.1602605,N,01618.1001582,E,1,37,0.8,EHT752.2844,M*44
$GPGGQ,212957.00,010125,4742.1602605,N,01618.1001582,E,1,37,0.914,709.0778,M*32
$GPGFA,212957.00,4.340,5.942,0.456,0.320,14.634,0.725,,VVV*32
$GPLLK,212957.00,010125,,M,,M,1,37,0.8,,M*0D
$GNGMP,212957.00,,,,,DAAA,37,0.4,,,,*5C
$GPGMP,212957.00,,,,,,08,,,,2.9,136*70
$GLGMP,212957.00,,,,,,08,,,,,*7D
$GAGMP,212957.00,,,,,,08,,,,,*70
$GBGMP,212957.00,,,,,,13,,,,,*79
$PSSN,SNC,[0,336615000,2347]*40
$GPZDA,213002.00,01,01,2025,,*61
$GPDTM,W84,,00.0000000,N,00.0000000,E,00.0000000,W84*5F
$PSSN,TFM,213002.00,,,,*6D
$GPRMC,213002.00,A,4742.1602597,N,01618.1001534,E,0.0,,010125,5.1,E,D*18
$GPGLL,4742.1602597,N,01618.1001534,E,213002.00,A,D*69
$GPGGA,213002.00,4742.1602597,N,01618.1001534,E,2,37,0.4,709.0771,M,43.2066,M,2.4,0136*4C
$GNGNS,213002.00,4742.1602597,N,01618.1001534,E,DAAA,37,0.4,709.0771,43.2066,,*52
$GPGNS,213002.00,,,,,,08,,,,2.4,136*75
$GLGNS,213002.00,,,,,,08,,,,,*75
$GAGNS,213002.00,,,,,,08,,,,,*78
$GBGNS,213002.00,,,,,,13,,,,,*71
$GPLLQ,213002.00,010125,,M,,M,1,37,0.919,,M*16
$GPVTG,,T,,M,0.00,N,0.01,K,D*27
$GPHDT,,T*1B
$GPTHS,,V*0E
$GPROT,,V*08
$PSSN,HRP,213002.00,010125,,,,,,,00,0,,*63
$PTNL,AVR,213002.00,,Yaw,,Tilt,,,,0,,00*35
$GPGSA,A,3,02,08,10,16,21,23,27,32,,,,,0.8,0.4,0.6*32
$GPGSA,A,3,67,68,69,74,75,83,84,85,,,,,0.8,0.4,0.6*33
$GPGSA,A,3,03,07,08,13,21,26,31,33,,,,,0.8,0.4,0.6*33
$GPGSA,A,3,05,08,13,14,27,28,30,33,36,41,42,43,0.8,0.4,0.6*3F
$GPGSA,A,3,60,,,,,,,,,,,,0.8,0.4,0.6*3E
$GPGST,213002.00,2.082,0.461,0.322,14.030,0.454,0.332,0.727*6E
$GPGBS,213002.00,3.153,1.907,4.001,68,0.0001,6.397,6.071*57
$GPGRS,213002.00,1,-0.2,-0.1,0.3,-0.0,-0.0,0.0,-0.1,-0.0,,,,*4D
$GPGRS,213002.00,1,4.7,6.4,0.8,-4.4,-4.9,-2.4,-2.2,0.3,,,,*4D
$GPGRS,213002.00,1,-0.9,-0.0,0.2,0.9,-0.2,0.3,0.1,0.1,,,,*62
$GPGRS,213002.00,1,1.3,-0.4,0.6,0.6,0.5,0.6,-0.8,-0.6,-0.3,0.6,-0.5,-0.1*46
$GPGRS,213002.00,1,-2.2,,,,,,,,,,,*4F
$GPGSV,5,1,18,08,72,273,50,16,11,193,38,32,29,129,44,23,24,049,42*71
$GPGSV,5,2,18,02,25,280,43,21,46,285,44,27,63,159,50,10,65,066,50*7E
$GPGSV,5,3,18,14,04,333,37,36,35,170,44,58,13,245,37,57,11,108,37*72
$GPGSV,5,4,18,34,31,208,42,40,24,132,36,49,34,195,44,41,07,108,34*74
$GPGSV,5,5,18,61,03,257,38*4F
$GLGSV,3,1,10,84,59,328,41,74,18,254,41,67,19,028,45,85,12,296,44*67
$GLGSV,3,2,10,75,24,309,46,69,39,155,50,83,39,085,39,68,54,076,51*64
$GLGSV,3,3,10,76,01,000,41,82,02,103,34*6C
$GAGSV,3,1,09,26,75,315,48,21,14,195,38,33,28,273,43,08,30,072,43*6C
$GAGSV,3,2,09,07,24,131,41,23,39,245,,31,28,307,42,13,42,073,45*64
$GAGSV,3,3,09,03,08,026,36*5B
$GBGSV,6,1,21,28,72,102,51,42,17,039,42,05,23,128,38,08,14,044,36*67
$GBGSV,6,2,21,43,10,115,40,31,14,069,,41,40,171,48,46,11,268,*67
$GBGSV,6,3,21,60,11,108,40,13,22,047,40,58,19,259,,14,39,056,45*65
$GBGSV,6,4,21,57,42,244,,27,58,300,50,33,56,089,50,39,00,077,*6F
$GBGSV,6,5,21,36,09,316,40,29,03,289,,38,01,048,27,02,08,105,33*61
$GBGSV,6,6,21,30,09,297,41*5B
$GPGGA,213002.00,,,,,0,00,,,M,,M,,*4A
$PTNL,GGK,213002.00,010125,4742.1602597,N,01618.1001534,E,1,37,0.8,EHT752.2837,M*4D
$GPGGQ,213002.00,010125,4742.1602597,N,01618.1001534,E,1,37,0.919,709.0771,M*3B
$GPGFA,213002.00,4.381,5.960,0.461,0.322,14.030,0.727,,VVV*31
$GPLLK,213002.00,010125,,M,,M,1,37,0.8,,M*05
$GNGMP,213002.00,,,,,DAAA,37,0.4,,,,*54
$GPGMP,213002.00,,,,,,08,,,,2.4,136*75
$GLGMP,213002.00,,,,,,08,,,,,*75
$GAGMP,213002.00,,,,,,08,,,,,*78
$GBGMP,213002.00,,,,,,13,,,,,*71
$PSSN,SNC,[0,336620000,2347]*46
$GPZDA,213007.00,01,01,2025,,*64
$GPDTM,W84,,00.0000000,N,00.0000000,E,00.0000000,W84*5F
$PSSN,TFM,213007.00,,,,*68
$GPRMC,213007.00,A,4742.1602588,N,01618.1001536,E,0.0,,010125,5.1,E,D*11
$GPGLL,4742.1602588,N,01618.1001536,E,213007.00,A,D*60
$GPGGA,213007.00,4742.1602588,N,01618.1001536,E,2,37,0.4,709.0719,M,43.2066,M,2.9,0136*46
$GNGNS,213007.00,4742.1602588,N,01618.1001536,E,DAAA,37,0.4,709.0719,43.2066,,*55
$GPGNS,213007.00,,,,,,08,,,,2.9,136*7D
$GLGNS,213007.00,,,,,,08,,,,,*70
$GAGNS,213007.00,,,,,,08,,,,,*7D
$GBGNS,213007.00,,,,,,13,,,,,*74
$GPLLQ,213007.00,010125,,M,,M,1,37,0.917,,M*1D
$GPVTG,,T,,M,0.01,N,0.01,K,D*26
$GPHDT,,T*1B
$GPTHS,,V*0E
$GPROT,,V*08
$PSSN,HRP,213007.00,010125,,,,,,,00,0,,*66
$PTNL,AVR,213007.00,,Yaw,,Tilt,,,,0,,00*30
$GPGSA,A,3,02,08,10,16,21,23,27,32,,,,,0.8,0.4,0.6*32
$GPGSA,A,3,67,68,69,74,75,83,84,85,,,,,0.8,0.4,0.6*33
$GPGSA,A,3,03,07,08,13,21,26,31,33,,,,,0.8,0.4,0.6*33
$GPGSA,A,3,05,08,13,14,27,28,30,33,36,41,42,43,0.8,0.4,0.6*3F
$GPGSA,A,3,60,,,,,,,,,,,,0.8,0.4,0.6*3E
$GPGST,213007.00,2.109,0.464,0.320,13.745,0.457,0.330,0.723*69
$GPGBS,213007.00,3.233,1.897,4.014,68,0.0001,6.147,6.071*54
$GPGRS,213007.00,1,0.1,0.1,0.4,-0.2,0.2,-0.2,-0.4,-0.4,,,,*4F
$GPGRS,213007.00,1,5.1,6.1,0.7,-4.8,-4.8,-1.3,-2.9,1.5,,,,*40
$GPGRS,213007.00,1,-1.2,0.2,0.5,0.8,0.0,0.4,0.0,0.2,,,,*6E
$GPGRS,213007.00,1,1.0,0.1,0.1,0.4,0.6,0.5,-0.2,-0.5,0.2,0.6,-0.5,-0.2*4B
$GPGRS,213007.00,1,-2.2,,,,,,,,,,,*4A
$GPGSV,5,1,18,08,72,273,50,16,11,192,39,32,29,129,44,23,24,049,42*71
$GPGSV,5,2,18,02,25,280,43,21,46,285,44,27,63,159,50,10,65,066,51*7F
$GPGSV,5,3,18,14,04,333,38,36,35,170,44,58,13,245,37,57,11,108,37*7D
$GPGSV,5,4,18,34,31,208,42,40,24,132,36,49,34,195,43,41,07,108,33*74
$GPGSV,5,5,18,61,03,257,38*4F
$GLGSV,3,1,10,84,59,328,41,74,18,254,41,67,19,028,45,85,12,296,43*60
$GLGSV,3,2,10,75,24,309,46,69,39,155,50,83,39,085,40,68,54,076,51*6A
$GLGSV,3,3,10,76,01,000,40,82,02,103,33*6A
$GAGSV,3,1,09,26,75,315,48,21,14,195,39,33,28,273,43,08,30,072,44*6A
$GAGSV,3,2,09,07,24,131,41,23,39,245,,31,28,307,42,13,42,073,45*64
$GAGSV,3,3,09,03,07,026,37*55
$GBGSV,6,1,21,28,72,102,51,42,17,039,42,05,23,128,38,08,14,044,36*67
$GBGSV,6,2,21,43,10,115,40,31,14,069,,41,40,171,47,46,11,268,*68
$GBGSV,6,3,21,60,11,108,39,13,22,048,39,58,19,259,,14,39,056,45*6A
$GBGSV,6,4,21,57,42,244,,27,58,300,50,33,56,089,50,39,00,077,*6F
$GBGSV,6,5,21,36,09,316,40,29,03,289,,38,01,048,27,02,08,105,33*61
$GBGSV,6,6,21,30,09,297,40*5A
$GPGGA,213007.00,,,,,0,00,,,M,,M,,*4F
$PTNL,GGK,213007.00,010125,4742.1602588,N,01618.1001536,E,1,37,0.8,EHT752.2785,M*42
$GPGGQ,213007.00,010125,4742.1602588,N,01618.1001536,E,1,37,0.917,709.0719,M*32
$GPGFA,213007.00,4.411,5.929,0.464,0.320,13.745,0.723,,VVV*36
$GPLLK,213007.00,010125,,M,,M,1,37,0.8,,M*00
$GNGMP,213007.00,,,,,DAAA,37,0.4,,,,*51
$GPGMP,213007.00,,,,,,08,,,,2.9,136*7D
$GLGMP,213007.00,,,,,,08,,,,,*70
$GAGMP,213007.00,,,,,,08,,,,,*7D
$GBGMP,213007.00,,,,,,13,,,,,*74
$PSSN,SNC,[0,336625000,2347]*43
$GPZDA,213012.00,01,01,2025,,*60
$GPDTM,W84,,00.0000000,N,00.0000000,E,00.0000000,W84*5F
$PSSN,TFM,213012.00,,,,*6C
$GPRMC,213012.00,A,4742.1602556,N,01618.1001549,E,0.0,,010125,5.1,E,D*1E
$GPGLL,4742.1602556,N,01618.1001549,E,213012.00,A,D*6F
$GPGGA,213012.00,4742.1602556,N,01618.1001549,E,2,37,0.4,709.0666,M,43.2066,M,1.9,0136*43
$GNGNS,213012.00,4742.1602556,N,01618.1001549,E,DAAA,37,0.4,709.0666,43.2066,,*53
$GPGNS,213012.00,,,,,,08,,,,1.9,136*7A
$GLGNS,213012.00,,,,,,08,,,,,*74
$GAGNS,213012.00,,,,,,08,,,,,*79
$GBGNS,213012.00,,,,,,13,,,,,*70
$GPLLQ,213012.00,010125,,M,,M,1,37,0.918,,M*16
$GPVTG,,T,,M,0.00,N,0.00,K,D*26
$GPHDT,,T*1B
$GPTHS,,V*0E
$GPROT,,V*08
$PSSN,HRP,213012.00,010125,,,,,,,00,0,,*62
$PTNL,AVR,213012.00,,Yaw,,Tilt,,,,0,,00*34
$GPGSA,A,3,02,08,10,16,21,23,27,32,,,,,0.8,0.4,0.6*32
$GPGSA,A,3,67,68,69,74,75,83,84,85,,,,,0.8,0.4,0.6*33
$GPGSA,A,3,03,07,08,13,21,26,31,33,,,,,0.8,0.4,0.6*33
$GPGSA,A,3,05,08,13,14,27,28,30,33,36,41,42,43,0.8,0.4,0.6*3F
$GPGSA,A,3,60,,,,,,,,,,,,0.8,0.4,0.6*3E
$GPGST,213012.00,2.001,0.462,0.320,14.414,0.454,0.330,0.726*64
$GPGBS,213012.00,3.143,1.911,3.921,68,0.0001,6.683,6.071*5C
$GPGRS,213012.00,1,-0.3,-0.0,0.4,0.3,0.3,-0.2,-0.2,-0.2,,,,*65
$GPGRS,213012.00,1,5.1,6.7,0.5,-4.8,-1.7,-0.4,-2.9,1.1,,,,*48
$GPGRS,213012.00,1,-1.6,-0.2,0.3,0.5,0.2,0.3,-0.1,0.1,,,,*62
$GPGRS,213012.00,1,0.3,0.8,0.2,-0.7,0.6,0.5,-0.3,-0.7,0.3,0.4,-0.3,0.2*42
$GPGRS,213012.00,1,-2.5,,,,,,,,,,,*49
$GPGSV,5,1,18,08,72,273,50,16,11,192,39,32,29,129,44,23,24,049,42*71
$GPGSV,5,2,18,02,25,280,43,21,46,285,44,27,63,159,50,10,65,066,51*7F
$GPGSV,5,3,18,14,04,333,38,36,35,170,44,58,13,245,37,57,11,108,37*7D
$GPGSV,5,4,18,34,31,208,42,40,24,132,36,49,34,195,43,41,07,108,33*74
$GPGSV,5,5,18,61,03,257,38*4F
$GLGSV,3,1,10,84,59,328,41,74,18,254,42,67,19,028,45,85,12,296,45*65
$GLGSV,3,2,10,75,24,309,46,69,39,155,49,83,39,085,40,68,54,076,51*62
$GLGSV,3,3,10,76,01,000,39,82,02,103,33*64
$GAGSV,3,1,09,26,75,315,48,21,14,195,39,33,28,273,43,08,30,072,43*6D
$GAGSV,3,2,09,07,24,131,41,23,39,245,,31,28,307,42,13,42,073,45*64
$GAGSV,3,3,09,03,07,026,37*55
$GBGSV,6,1,21,28,72,102,51,42,17,039,42,05,23,128,38,08,14,044,36*67
$GBGSV,6,2,21,43,10,115,40,31,14,069,,41,40,171,47,46,11,268,*68
$GBGSV,6,3,21,60,11,108,40,13,22,048,39,58,19,259,,14,39,056,45*64
$GBGSV,6,4,21,57,42,244,,27,58,300,50,33,56,089,50,39,00,077,*6F
$GBGSV,6,5,21,36,09,316,40,29,03,289,,38,01,048,27,02,08,105,33*61
$GBGSV,6,6,21,30,09,297,40*5A
$GPGGA,213012.00,,,,,0,00,,,M,,M,,*4B
$PTNL,GGK,213012.00,010125,4742.1602556,N,01618.1001549,E,1,37,0.8,EHT752.2732,M*41
$GPGGQ,213012.00,010125,4742.1602556,N,01618.1001549,E,1,37,0.918,709.0666,M*3B
$GPGFA,213012.00,4.393,5.950,0.462,0.320,14.414,0.726,,VVV*32
$GPLLK,213012.00,010125,,M,,M,1,37,0.8,,M*04
$GNGMP,213012.00,,,,,DAAA,37,0.4,,,,*55
$GPGMP,213012.00,,,,,,08,,,,1.9,136*7A
$GLGMP,213012.00,,,,,,08,,,,,*74
$GAGMP,213012.00,,,,,,08,,,,,*79
$GBGMP,213012.00,,,,,,13,,,,,*70
$PSSN,SNC,[0,336630000,2347]*47
$GPZDA,213017.00,01,01,2025,,*65
$GPDTM,W84,,00.0000000,N,00.0000000,E,00.0000000,W84*5F
$PSSN,TFM,213017.00,,,,*69
$GPRMC,213017.00,A,4742.1602542,N,01618.1001540,E,0.0,,010125,5.1,E,D*17
$GPGLL,4742.1602542,N,01618.1001540,E,213017.00,A,D*66
$GPGGA,213017.00,4742.1602542,N,01618.1001540,E,2,37,0.4,709.0652,M,43.2066,M,2.9,0136*4E
$GNGNS,213017.00,4742.1602542,N,01618.1001540,E,DAAA,37,0.4,709.0652,43.2066,,*5D
$GPGNS,213017.00,,,,,,08,,,,2.9,136*7C
$GLGNS,213017.00,,,,,,08,,,,,*71
$GAGNS,213017.00,,,,,,08,,,,,*7C
$GBGNS,213017.00,,,,,,13,,,,,*75
$GPLLQ,213017.00,010125,,M,,M,1,37,0.914,,M*1F
$GPVTG,,T,,M,0.01,N,0.01,K,D*26
$GPHDT,,T*1B
$GPTHS,,V*0E
$GPROT,,V*08
$PSSN,HRP,213017.00,010125,,,,,,,00,0,,*67
$PTNL,AVR,213017.00,,Yaw,,Tilt,,,,0,,00*31
$GPGSA,A,3,02,08,10,16,21,23,27,32,,,,,0.8,0.4,0.6*32
$GPGSA,A,3,67,68,69,74,75,83,84,85,,,,,0.8,0.4,0.6*33
$GPGSA,A,3,03,07,08,13,21,26,31,33,,,,,0.8,0.4,0.6*33
$GPGSA,A,3,05,08,13,14,27,28,30,33,36,41,42,43,0.8,0.4,0.6*3F
$GPGSA,A,3,60,,,,,,,,,,,,0.8,0.4,0.6*3E
$GPGST,213017.00,1.941,0.456,0.320,14.667,0.449,0.330,0.725*61
$GPGBS,213017.00,3.187,1.939,3.974,68,0.0001,6.847,6.071*5D
$GPGRS,213017.00,1,0.0,0.0,0.3,0.2,0.2,-0.3,-0.4,-0.2,,,,*63
$GPGRS,213017.00,1,4.6,6.8,0.6,-4.7,-1.7,-0.3,-2.4,1.6,,,,*45
$GPGRS,213017.00,1,-1.6,-0.1,-0.2,0.3,0.2,0.3,-0.1,-0.2,,,,*60
$GPGRS,213017.00,1,0.6,0.4,0.4,-0.4,1.0,0.6,-0.6,-0.6,-0.4,0.6,-0.3,-0.2*4E
$GPGRS,213017.00,1,-2.1,,,,,,,,,,,*48
$GPGSV,5,1,18,08,72,273,50,16,11,192,39,02,25,280,42,23,24,049,42*78
$GPGSV,5,2,18,32,29,129,44,21,46,285,44,27,62,159,50,10,65,066,51*76
$GPGSV,5,3,18,14,04,333,38,36,35,170,44,58,13,245,37,57,11,108,37*7D
$GPGSV,5,4,18,34,31,208,42,40,24,132,36,49,34,195,43,41,07,108,33*74
$GPGSV,5,5,18,61,03,257,38*4F
$GLGSV,3,1,10,84,59,328,41,74,18,254,42,67,19,028,44,85,12,296,45*64
$GLGSV,3,2,10,75,24,309,47,69,39,155,50,83,39,085,40,68,54,076,51*6B
$GLGSV,3,3,10,76,01,000,39,82,02,103,33*64
$GAGSV,3,1,09,26,75,315,48,21,14,195,39,33,28,273,43,08,30,072,43*6D
$GAGSV,3,2,09,07,24,131,40,23,39,245,,31,28,306,42,13,42,073,45*64
$GAGSV,3,3,09,03,07,026,36*54
$GBGSV,6,1,21,28,72,102,51,42,17,039,42,05,23,128,38,08,14,044,36*67
$GBGSV,6,2,21,43,10,115,40,31,14,069,,41,41,171,47,46,11,268,*69
$GBGSV,6,3,21,60,11,108,40,13,22,048,40,58,19,259,,14,39,056,45*6A
$GBGSV,6,4,21,57,42,244,,27,58,300,50,33,56,089,50,39,00,077,*6F
$GBGSV,6,5,21,36,09,316,40,29,03,289,,38,01,048,26,02,08,105,33*60
$GBGSV,6,6,21,30,09,297,40*5A
$GPGGA,213017.00,,,,,0,00,,,M,,M,,*4E
$PTNL,GGK,213017.00,010125,4742.1602542,N,01618.1001540,E,1,37,0.8,EHT752.2718,M*40
$GPGGQ,213017.00,010125,4742.1602542,N,01618.1001540,E,1,37,0.914,709.0652,M*39
$GPGFA,213017.00,4.335,5.944,0.456,0.320,14.667,0.725,,VVV*3C
$GPLLK,213017.00,010125,,M,,M,1,37,0.8,,M*01
$GNGMP,213017.00,,,,,DAAA,37,0.4,,,,*50
$GPGMP,213017.00,,,,,,08,,,,2.9,136*7C
$GLGMP,213017.00,,,,,,08,,,,,*71
$GAGMP,213017.00,,,,,,08,,,,,*7C
$GBGMP,213017.00,,,,,,13,,,,,*75
$PSSN,SNC,[0,336635000,2347]*42
$GPZDA,213022.00,01,01,2025,,*63
$GPDTM,W84,,00.0000000,N,00.0000000,E,00.0000000,W84*5F
$PSSN,TFM,213022.00,,,,*6F
$GPRMC,213022.00,A,4742.1602534,N,01618.1001548,E,0.0,,010125,5.1,E,D*18
$GPGLL,4742.1602534,N,01618.1001548,E,213022.00,A,D*69
$GPGGA,213022.00,4742.1602534,N,01618.1001548,E,2,37,0.4,709.0630,M,43.2066,M,2.4,0136*48
$GNGNS,213022.00,4742.1602534,N,01618.1001548,E,DAAA,37,0.4,709.0630,43.2066,,*56
$GPGNS,213022.00,,,,,,08,,,,2.4,136*77
$GLGNS,213022.00,,,,,,08,,,,,*77
$GAGNS,213022.00,,,,,,08,,,,,*7A
$GBGNS,213022.00,,,,,,13,,,,,*73
$GPLLQ,213022.00,010125,,M,,M,1,37,0.919,,M*14
$GPVTG,,T,,M,0.00,N,0.00,K,D*26
$GPHDT,,T*1B
$GPTHS,,V*0E
$GPROT,,V*08
$PSSN,HRP,213022.00,010125,,,,,,,00,0,,*61
$PTNL,AVR,213022.00,,Yaw,,Tilt,,,,0,,00*37
$GPGSA,A,3,02,08,10,16,21,23,27,32,,,,,0.7,0.4,0.6*3D
$GPGSA,A,3,67,68,69,74,75,83,84,85,,,,,0.7,0.4,0.6*3C
$GPGSA,A,3,03,07,08,13,21,26,31,33,,,,,0.7,0.4,0.6*3C
$GPGSA,A,3,05,08,13,14,27,28,30,33,36,41,42,43,0.7,0.4,0.6*30
$GPGSA,A,3,60,,,,,,,,,,,,0.7,0.4,0.6*31
$GPGST,213022.00,1.969,0.461,0.322,14.069,0.454,0.332,0.727*6F
$GPGBS,213022.00,3.144,1.900,4.002,68,0.0001,6.415,6.071*5A
$GPGRS,213022.00,1,-0.2,0.3,0.3,0.3,0.1,-0.5,-0.2,-0.2,,,,*4B
$GPGRS,213022.00,1,4.4,6.4,0.9,-5.0,-2.0,-1.9,-2.4,1.8,,,,*45
$GPGRS,213022.00,1,-1.7,-0.1,-0.2,0.2,0.1,0.3,-0.3,-0.3,,,,*66
$GPGRS,213022.00,1,1.3,-0.0,-0.2,0.3,1.1,0.5,-0.5,-0.8,-0.2,0.8,-0.2,-0.2*62
$GPGRS,213022.00,1,-2.1,,,,,,,,,,,*4E
$GPGSV,5,1,18,08,72,273,50,16,11,192,39,02,26,280,43,23,24,049,42*7A
$GPGSV,5,2,18,32,29,129,44,21,46,285,45,27,62,159,50,10,65,066,51*77
$GPGSV,5,3,18,14,04,333,38,36,35,170,44,58,13,245,37,57,11,108,37*7D
$GPGSV,5,4,18,34,31,208,42,40,24,132,36,49,34,195,43,41,07,108,33*74
$GPGSV,5,5,18,61,03,257,37*40
$GLGSV,3,1,10,84,59,329,40,74,18,254,41,67,19,028,45,85,12,296,43*60
$GLGSV,3,2,10,75,24,309,46,83,39,085,40,69,39,155,50,68,54,075,51*69
$GLGSV,3,3,10,82,02,103,33,76,01,000,40*6A
$GAGSV,3,1,09,26,75,315,48,21,14,195,39,33,28,273,42,08,30,072,43*6C
$GAGSV,3,2,09,07,24,131,40,23,38,244,,31,28,306,42,13,42,073,44*65
$GAGSV,3,3,09,03,07,026,36*54
$GBGSV,6,1,21,28,72,102,51,42,17,039,42,05,23,128,38,08,14,044,36*67
$GBGSV,6,2,21,43,10,115,40,31,14,069,,41,41,171,48,46,11,268,*66
$GBGSV,6,3,21,60,11,108,40,13,22,048,39,58,19,259,,14,39,056,45*64
$GBGSV,6,4,21,57,42,244,,27,58,300,50,33,56,089,50,39,00,077,*6F
$GBGSV,6,5,21,36,09,316,40,29,03,289,,38,01,048,26,02,08,105,33*60
$GBGSV,6,6,21,30,09,297,40*5A
$GPGGA,213022.00,,,,,0,00,,,M,,M,,*48
$PTNL,GGK,213022.00,010125,4742.1602534,N,01618.1001548,E,1,37,0.7,EHT752.2696,M*47
$GPGGQ,213022.00,010125,4742.1602534,N,01618.1001548,E,1,37,0.919,709.0630,M*3F
$GPGFA,213022.00,4.379,5.965,0.461,0.322,14.069,0.727,,VVV*3D
$GPLLK,213022.00,010125,,M,,M,1,37,0.8,,M*07
$GNGMP,213022.00,,,,,DAAA,37,0.4,,,,*56
$GPGMP,213022.00,,,,,,08,,,,2.4,136*77
$GLGMP,213022.00,,,,,,08,,,,,*77
$GAGMP,213022.00,,,,,,08,,,,,*7A
$GBGMP,213022.00,,,,,,13,,,,,*73
$PSSN,SNC,[0,336640000,2347]*40
$GPZDA,213027.00,01,01,2025,,*66
$GPDTM,W84,,00.0000000,N,00.0000000,E,00.0000000,W84*5F
$PSSN,TFM,213027.00,,,,*6A
$GPRMC,213027.00,A,4742.1602537,N,01618.1001578,E,0.0,,010125,5.1,E,D*1D
$GPGLL,4742.1602537,N,01618.1001578,E,213027.00,A,D*6C
$GPGGA,213027.00,4742.1602537,N,01618.1001578,E,2,37,0.4,709.0603,M,43.2066,M,2.9,0136*40
$GNGNS,213027.00,4742.1602537,N,01618.1001578,E,DAAA,37,0.4,709.0603,43.2066,,*53
$GPGNS,213027.00,,,,,,08,,,,2.9,136*7F
$GLGNS,213027.00,,,,,,08,,,,,*72
$GAGNS,213027.00,,,,,,08,,,,,*7F
$GBGNS,213027.00,,,,,,13,,,,,*76
$GPLLQ,213027.00,010125,,M,,M,1,37,0.917,,M*1F
$GPVTG,,T,,M,0.00,N,0.00,K,D*26
$GPHDT,,T*1B
$GPTHS,,V*0E
$GPROT,,V*08
$PSSN,HRP,213027.00,010125,,,,,,,00,0,,*64
$PTNL,AVR,213027.00,,Yaw,,Tilt,,,,0,,00*32
$GPGSA,A,3,02,08,10,16,21,23,27,32,,,,,0.7,0.4,0.6*3D
$GPGSA,A,3,67,68,69,74,75,83,84,85,,,,,0.7,0.4,0.6*3C
$GPGSA,A,3,03,07,08,13,21,26,31,33,,,,,0.7,0.4,0.6*3C
$GPGSA,A,3,05,08,13,14,27,28,30,33,36,41,42,43,0.7,0.4,0.6*30
$GPGSA,A,3,60,,,,,,,,,,,,0.7,0.4,0.6*31
$GPGST,213027.00,2.048,0.464,0.320,13.777,0.457,0.330,0.723*6E
$GPGBS,213027.00,3.224,1.890,4.013,68,0.0001,6.586,6.071*59
$GPGRS,213027.00,1,0.3,-0.1,0.2,0.2,0.0,-0.3,-0.1,-0.6,,,,*4D
$GPGRS,213027.00,1,4.9,6.6,1.0,-5.9,-2.0,-1.5,-1.6,0.4,,,,*4E
$GPGRS,213027.00,1,-1.3,0.3,0.4,0.5,0.2,0.5,-0.2,-0.0,,,,*63
$GPGRS,213027.00,1,1.0,-0.1,0.0,0.8,0.9,0.4,-0.4,-0.9,-0.7,0.8,-0.3,-0.4*4B
$GPGRS,213027.00,1,-2.2,,,,,,,,,,,*48
$GPGSV,5,1,18,08,72,273,50,16,11,192,38,02,26,280,43,23,24,049,42*7B
$GPGSV,5,2,18,32,29,129,44,21,46,285,44,27,62,159,50,10,65,066,50*77
$GPGSV,5,3,18,14,04,333,38,36,35,170,44,58,13,245,37,57,11,108,37*7D
$GPGSV,5,4,18,34,31,208,42,40,24,132,36,49,34,195,43,41,07,108,33*74
$GPGSV,5,5,18,61,03,257,38*4F
$GLGSV,3,1,10,84,59,329,41,74,18,254,41,67,19,028,45,85,12,296,44*66
$GLGSV,3,2,10,75,24,309,46,83,39,085,40,69,39,155,50,68,54,075,51*69
$GLGSV,3,3,10,82,02,103,33,76,01,000,41*6B
$GAGSV,3,1,09,26,75,316,48,21,14,195,38,33,28,273,42,08,30,072,43*6E
$GAGSV,3,2,09,07,24,131,40,23,38,244,,31,28,306,42,13,42,074,44*62
$GAGSV,3,3,09,03,07,026,36*54
$GBGSV,6,1,21,28,72,102,51,42,17,039,42,05,23,128,38,08,14,044,37*66
$GBGSV,6,2,21,43,10,115,40,31,14,069,,41,41,171,48,46,11,267,*69
$GBGSV,6,3,21,60,11,108,40,13,22,048,40,58,19,259,,14,39,056,45*6A
$GBGSV,6,4,21,57,42,244,,27,58,300,50,33,56,089,50,39,00,077,*6F
$GBGSV,6,5,21,36,09,316,40,29,03,289,,38,01,048,27,02,08,105,33*61
$GBGSV,6,6,21,30,09,297,40*5A
$GPGGA,213027.00,,,,,0,00,,,M,,M,,*4D
$PTNL,GGK,213027.00,010125,4742.1602537,N,01618.1001578,E,1,37,0.7,EHT752.2669,M*42
$GPGGQ,213027.00,010125,4742.1602537,N,01618.1001578,E,1,37,0.917,709.0603,M*34
$GPGFA,213027.00,4.409,5.932,0.464,0.320,13.777,0.723,,VVV*36
$GPLLK,213027.00,010125,,M,,M,1,37,0.8,,M*02
$GNGMP,213027.00,,,,,DAAA,37,0.4,,,,*53
$GPGMP,213027.00,,,,,,08,,,,2.9,136*7F
$GLGMP,213027.00,,,,,,08,,,,,*72
$GAGMP,213027.00,,,,,,08,,,,,*7F
$GBGMP,213027.00,,,,,,13,,,,,*76
$PSSN,SNC,[0,336645000,2347]*45
$GPZDA,213032.00,01,01,2025,,*62
$GPDTM,W84,,00.0000000,N,00.0000000,E,00.0000000,W84*5F
$PSSN,TFM,213032.00,,,,*6E
$GPRMC,213032.00,A,4742.1602524,N,01618.1001604,E,0.0,,010125,5.1,E,D*13
$GPGLL,4742.1602524,N,01618.1001604,E,213032.00,A,D*62
$GPGGA,213032.00,4742.1602524,N,01618.1001604,E,2,37,0.4,709.0601,M,43.2066,M,1.9,0136*4F
$GNGNS,213032.00,4742.1602524,N,01618.1001604,E,DAAA,37,0.4,709.0601,43.2066,,*5F
$GPGNS,213032.00,,,,,,08,,,,1.9,136*78
$GLGNS,213032.00,,,,,,08,,,,,*76
$GAGNS,213032.00,,,,,,08,,,,,*7B
$GBGNS,213032.00,,,,,,13,,,,,*72
$GPLLQ,213032.00,010125,,M,,M,1,37,0.918,,M*14
$GPVTG,,T,,M,0.00,N,0.01,K,D*27
$GPHDT,,T*1B
$GPTHS,,V*0E
$GPROT,,V*08
$PSSN,HRP,213032.00,010125,,,,,,,00,0,,*60
$PTNL,AVR,213032.00,,Yaw,,Tilt,,,,0,,00*36
$GPGSA,A,3,02,08,10,16,21,23,27,32,,,,,0.7,0.4,0.6*3D
$GPGSA,A,3,67,68,69,74,75,83,84,85,,,,,0.7,0.4,0.6*3C
$GPGSA,A,3,03,07,08,13,21,26,31,33,,,,,0.7,0.4,0.6*3C
$GPGSA,A,3,05,08,13,14,27,28,30,33,36,41,42,43,0.7,0.4,0.6*30
$GPGSA,A,3,60,,,,,,,,,,,,0.7,0.4,0.6*31
$GPGST,213032.00,1.848,0.462,0.320,14.464,0.455,0.330,0.726*66
$GPGBS,213032.00,3.137,1.905,3.923,68,0.0001,6.345,6.071*55
$GPGRS,213032.00,1,0.4,-0.1,0.2,0.3,0.0,-0.2,0.0,-0.3,,,,*67
$GPGRS,213032.00,1,4.3,6.3,0.7,-4.6,-2.3,-0.7,-2.0,-0.2,,,,*63
$GPGRS,213032.00,1,-1.4,0.2,0.1,0.5,-0.0,0.4,-0.1,-0.2,,,,*4B
$GPGRS,213032.00,1,1.1,0.3,0.2,0.6,0.8,0.5,-0.3,-0.9,-0.6,0.7,-0.3,-0.3*63
$GPGRS,213032.00,1,-2.1,,,,,,,,,,,*4F
$GPGSV,5,1,18,08,72,272,50,16,11,192,38,02,26,280,43,23,24,049,42*7A
$GPGSV,5,2,18,32,29,129,44,21,46,285,44,27,62,159,50,10,65,066,50*77
$GPGSV,5,3,18,14,04,333,37,36,35,170,44,58,13,245,37,57,11,108,37*72
$GPGSV,5,4,18,34,31,208,42,40,24,132,36,49,34,195,43,41,07,108,33*74
$GPGSV,5,5,18,61,03,257,38*4F
$GLGSV,3,1,10,84,59,329,41,74,18,254,41,67,19,028,44,85,12,296,43*60
$GLGSV,3,2,10,75,24,309,47,83,39,085,40,69,39,155,49,68,54,075,51*60
$GLGSV,3,3,10,82,02,103,31,76,01,000,40*68
$GAGSV,3,1,09,26,75,316,48,21,14,195,38,33,28,273,42,08,30,072,43*6E
$GAGSV,3,2,09,07,24,131,40,23,38,244,,31,28,306,42,13,42,074,44*62
$GAGSV,3,3,09,03,07,026,36*54
$GBGSV,6,1,21,28,72,102,51,42,17,039,42,05,23,128,38,08,14,044,37*66
$GBGSV,6,2,21,60,11,108,40,31,14,069,,41,41,171,48,46,11,267,*65
$GBGSV,6,3,21,13,22,048,40,58,19,259,,14,39,056,45,27,58,300,50*6F
$GBGSV,6,4,21,57,42,244,,33,56,089,50,02,08,105,33,30,09,297,40*67
$GBGSV,6,5,21,43,10,115,40,29,03,289,,38,01,048,27,36,09,316,40*68
$GBGSV,6,6,21,39,00,076,*53
$GPGGA,213032.00,,,,,0,00,,,M,,M,,*49
$PTNL,GGK,213032.00,010125,4742.1602524,N,01618.1001604,E,1,37,0.7,EHT752.2667,M*42
$GPGGQ,213032.00,010125,4742.1602524,N,01618.1001604,E,1,37,0.918,709.0601,M*37
$GPGFA,213032.00,4.394,5.956,0.462,0.320,14.464,0.726,,VVV*36
$GPLLK,213032.00,010125,,M,,M,1,37,0.8,,M*06
$GNGMP,213032.00,,,,,DAAA,37,0.4,,,,*57
$GPGMP,213032.00,,,,,,08,,,,1.9,136*78
$GLGMP,213032.00,,,,,,08,,,,,*76
$GAGMP,213032.00,,,,,,08,,,,,*7B
$GBGMP,213032.00,,,,,,13,,,,,*72
$PSSN,SNC,[0,336650000,2347]*41
$GPZDA,213037.00,01,01,2025,,*67
$GPDTM,W84,,00.0000000,N,00.0000000,E,00.0000000,W84*5F
$PSSN,TFM,213037.00,,,,*6B
$GPRMC,213037.00,A,4742.1602518,N,01618.1001579,E,0.0,,010125,5.1,E,D*10
$GPGLL,4742.1602518,N,01618.1001579,E,213037.00,A,D*61
$GPGGA,213037.00,4742.1602518,N,01618.1001579,E,2,37,0.4,709.0599,M,43.2066,M,2.9,0136*4D
$GNGNS,213037.00,4742.1602518,N,01618.1001579,E,DAAA,37,0.4,709.0599,43.2066,,*5E
$GPGNS,213037.00,,,,,,08,,,,2.9,136*7E
$GLGNS,213037.00,,,,,,08,,,,,*73
$GAGNS,213037.00,,,,,,08,,,,,*7E
$GBGNS,213037.00,,,,,,13,,,,,*77
$GPLLQ,213037.00,010125,,M,,M,1,37,0.915,,M*1C
$GPVTG,,T,,M,0.00,N,0.00,K,D*26
$GPHDT,,T*1B
$GPTHS,,V*0E
$GPROT,,V*08
$PSSN,HRP,213037.00,010125,,,,,,,00,0,,*65
$PTNL,AVR,213037.00,,Yaw,,Tilt,,,,0,,00*33
$GPGSA,A,3,02,08,10,16,21,23,27,32,,,,,0.7,0.4,0.6*3D
$GPGSA,A,3,67,68,69,74,75,83,84,85,,,,,0.7,0.4,0.6*3C
$GPGSA,A,3,03,07,08,13,21,26,31,33,,,,,0.7,0.4,0.6*3C
$GPGSA,A,3,05,08,13,14,27,28,30,33,36,41,42,43,0.7,0.4,0.6*30
$GPGSA,A,3,60,,,,,,,,,,,,0.7,0.4,0.6*31
$GPGST,213037.00,1.757,0.456,0.320,14.714,0.449,0.330,0.726*6C
$GPGBS,213037.00,3.180,1.933,3.975,68,0.0001,6.319,6.071*53
$GPGRS,213037.00,1,-0.1,-0.1,0.3,-0.2,-0.1,-0.3,-0.0,-0.1,,,,*65
$GPGRS,213037.00,1,4.1,6.3,0.2,-4.3,-1.6,-1.0,-1.4,0.9,,,,*45
$GPGRS,213037.00,1,-1.3,0.1,0.0,0.6,-0.1,0.5,0.2,0.2,,,,*4B
$GPGRS,213037.00,1,1.1,0.4,0.3,-0.2,0.8,0.6,-0.1,-0.9,0.3,0.7,-0.1,-0.1*60
$GPGRS,213037.00,1,-2.1,,,,,,,,,,,*4A
$GPGSV,5,1,18,08,72,272,50,16,10,192,37,32,29,129,44,23,23,049,42*78
$GPGSV,5,2,18,02,26,280,43,21,46,285,44,27,62,159,49,10,65,065,50*77
$GPGSV,5,3,18,14,04,333,37,36,35,170,44,58,13,245,37,57,11,108,37*72
$GPGSV,5,4,18,34,31,208,42,40,24,132,36,49,34,195,43,41,07,108,34*73
$GPGSV,5,5,18,61,03,257,37*40
$GLGSV,3,1,10,84,59,329,41,74,18,254,41,67,19,028,44,85,12,296,44*67
$GLGSV,3,2,10,75,24,309,46,83,39,085,40,69,39,155,49,68,54,075,51*61
$GLGSV,3,3,10,82,02,103,31,76,01,000,39*66
$GAGSV,3,1,09,26,75,316,48,21,14,195,38,33,28,273,42,08,30,072,43*6E
$GAGSV,3,2,09,07,25,131,40,23,38,244,,31,28,306,42,13,42,074,45*62
$GAGSV,3,3,09,03,07,026,36*54
$GBGSV,6,1,21,28,72,102,51,42,17,039,42,05,23,128,38,08,14,044,37*66
$GBGSV,6,2,21,60,11,108,40,31,14,069,,41,41,171,48,46,11,267,*65
$GBGSV,6,3,21,13,22,048,40,58,19,259,,14,39,056,45,27,58,300,50*6F
$GBGSV,6,4,21,57,42,244,,33,56,089,50,02,08,105,33,30,09,297,40*67
$GBGSV,6,5,21,43,10,115,40,29,04,289,,38,01,048,28,36,09,316,40*60
$GBGSV,6,6,21,39,00,076,*53
$GPGGA,213037.00,,,,,0,00,,,M,,M,,*4C
$PTNL,GGK,213037.00,010125,4742.1602518,N,01618.1001579,E,1,37,0.7,EHT752.2665,M*43
$GPGGQ,213037.00,010125,4742.1602518,N,01618.1001579,E,1,37,0.915,709.0599,M*3B
$GPGFA,213037.00,4.337,5.951,0.456,0.320,14.714,0.726,,VVV*3E
$GPLLK,213037.00,010125,,M,,M,1,37,0.8,,M*03
$GNGMP,213037.00,,,,,DAAA,37,0.4,,,,*52
$GPGMP,213037.00,,,,,,08,,,,2.9,136*7E
$GLGMP,213037.00,,,,,,08,,,,,*73
$GAGMP,213037.00,,,,,,08,,,,,*7E
$GBGMP,213037.00,,,,,,13,,,,,*77
$PSSN,SNC,[0,336655000,2347]*44
$GPZDA,213042.00,01,01,2025,,*65
$GPDTM,W84,,00.0000000,N,00.0000000,E,00.0000000,W84*5F
$PSSN,TFM,213042.00,,,,*69
$GPRMC,213042.00,A,4742.1602520,N,01618.1001588,E,0.0,,010125,5.1,E,D*17
$GPGLL,4742.1602520,N,01618.1001588,E,213042.00,A,D*66
$GPGGA,213042.00,4742.1602520,N,01618.1001588,E,2,37,0.4,709.0592,M,43.2066,M,2.4,0136*4C
$GNGNS,213042.00,4742.1602520,N,01618.1001588,E,DAAA,37,0.4,709.0592,43.2066,,*52
$GPGNS,213042.00,,,,,,08,,,,2.4,136*71
$GLGNS,213042.00,,,,,,08,,,,,*71
$GAGNS,213042.00,,,,,,08,,,,,*7C
$GBGNS,213042.00,,,,,,13,,,,,*75
$GPLLQ,213042.00,010125,,M,,M,1,37,0.920,,M*18
$GPVTG,,T,,M,0.00,N,0.01,K,D*27
$GPHDT,,T*1B
$GPTHS,,V*0E
$GPROT,,V*08
$PSSN,HRP,213042.00,010125,,,,,,,00,0,,*67
$PTNL,AVR,213042.00,,Yaw,,Tilt,,,,0,,00*31
$GPGSA,A,3,02,08,10,16,21,23,27,32,,,,,0.7,0.4,0.6*3D
$GPGSA,A,3,67,68,69,74,75,83,84,85,,,,,0.7,0.4,0.6*3C
$GPGSA,A,3,03,07,08,13,21,26,31,33,,,,,0.7,0.4,0.6*3C
$GPGSA,A,3,05,08,13,14,27,28,30,33,36,41,42,43,0.7,0.4,0.6*30
$GPGSA,A,3,60,,,,,,,,,,,,0.7,0.4,0.6*31
$GPGST,213042.00,1.930,0.461,0.322,14.082,0.454,0.332,0.728*6F
$GPGBS,213042.00,3.135,1.894,4.001,68,0.0001,6.380,6.071*5E
$GPGRS,213042.00,1,0.1,0.1,0.2,0.7,-0.2,-0.1,-0.2,-0.5,,,,*49
$GPGRS,213042.00,1,5.3,6.4,0.2,-4.7,-2.0,-0.7,-1.8,1.3,,,,*43
$GPGRS,213042.00,1,-1.2,0.1,-0.1,0.4,0.2,0.5,0.1,0.2,,,,*4B
$GPGRS,213042.00,1,1.0,0.5,0.3,-0.1,0.6,0.6,-0.4,-1.0,-0.2,0.8,0.3,-0.7*68
$GPGRS,213042.00,1,-2.2,,,,,,,,,,,*4B
$GPGSV,5,1,18,08,72,272,50,16,10,192,37,32,29,129,43,23,23,049,41*7C
$GPGSV,5,2,18,02,26,280,43,21,46,285,44,27,62,159,49,10,65,065,50*77
$GPGSV,5,3,18,14,04,333,37,36,35,170,44,58,13,245,37,57,11,108,37*72
$GPGSV,5,4,18,34,31,208,42,40,24,132,36,49,34,195,43,41,07,108,34*73
$GPGSV,5,5,18,61,03,257,38*4F
$GLGSV,3,1,10,84,59,329,41,74,18,254,41,67,19,028,45,85,12,296,43*61
$GLGSV,3,2,10,75,24,309,47,83,39,085,40,69,39,155,50,68,54,075,51*68
$GLGSV,3,3,10,82,02,103,31,76,01,000,40*68
$GAGSV,3,1,09,26,75,316,48,21,14,195,38,33,28,273,42,08,30,072,43*6E
$GAGSV,3,2,09,07,25,131,41,23,38,244,,31,28,306,42,13,42,074,45*63
$GAGSV,3,3,09,03,07,026,36*54
$GBGSV,6,1,21,28,72,103,51,42,17,039,42,05,23,128,38,08,14,044,37*67
$GBGSV,6,2,21,60,11,108,40,31,14,069,,41,41,171,48,46,11,267,*65
$GBGSV,6,3,21,13,22,048,40,58,19,259,,14,39,056,45,27,58,300,50*6F
$GBGSV,6,4,21,57,42,244,,33,56,089,50,02,08,105,34,30,09,297,40*60
$GBGSV,6,5,21,43,10,115,41,29,04,289,,38,01,048,29,36,09,316,40*60
$GBGSV,6,6,21,39,00,076,*53
$GPGGA,213042.00,,,,,0,00,,,M,,M,,*4E
$PTNL,GGK,213042.00,010125,4742.1602520,N,01618.1001588,E,1,37,0.7,EHT752.2657,M*45
$GPGGQ,213042.00,010125,4742.1602520,N,01618.1001588,E,1,37,0.920,709.0592,M*31
$GPGFA,213042.00,4.380,5.971,0.461,0.322,14.082,0.728,,VVV*32
$GPLLK,213042.00,010125,,M,,M,1,37,0.8,,M*01
$GNGMP,213042.00,,,,,DAAA,37,0.4,,,,*50
$GPGMP,213042.00,,,,,,08,,,,2.4,136*71
$GLGMP,213042.00,,,,,,08,,,,,*71
$GAGMP,213042.00,,,,,,08,,,,,*7C
$GBGMP,213042.00,,,,,,13,,,,,*75
$PSSN,SNC,[0,336660000,2347]*42
$GPZDA,213047.00,01,01,2025,,*60
$GPDTM,W84,,00.0000000,N,00.0000000,E,00.0000000,W84*5F
$PSSN,TFM,213047.00,,,,*6C
$GPRMC,213047.00,A,4742.1602481,N,01618.1001609,E,0.0,,010125,5.1,E,D*12
$GPGLL,4742.1602481,N,01618.1001609,E,213047.00,A,D*63
$GPGGA,213047.00,4742.1602481,N,01618.1001609,E,2,37,0.4,709.0588,M,43.2066,M,2.9,0136*4F
$GNGNS,213047.00,4742.1602481,N,01618.1001609,E,DAAA,37,0.4,709.0588,43.2066,,*5C
$GPGNS,213047.00,,,,,,08,,,,2.9,136*79
$GLGNS,213047.00,,,,,,08,,,,,*74
$GAGNS,213047.00,,,,,,08,,,,,*79
$GBGNS,213047.00,,,,,,13,,,,,*70
$GPLLQ,213047.00,010125,,M,,M,1,37,0.918,,M*16
$GPVTG,,T,,M,0.00,N,0.01,K,D*27
$GPHDT,,T*1B
$GPTHS,,V*0E
$GPROT,,V*08
$PSSN,HRP,213047.00,010125,,,,,,,00,0,,*62
$PTNL,AVR,213047.00,,Yaw,,Tilt,,,,0,,00*34
$GPGSA,A,3,02,08,10,16,21,23,27,32,,,,,0.7,0.4,0.6*3D
$GPGSA,A,3,67,68,69,74,75,83,84,85,,,,,0.7,0.4,0.6*3C
$GPGSA,A,3,03,07,08,13,21,26,31,33,,,,,0.7,0.4,0.6*3C
$GPGSA,A,3,05,08,13,14,27,28,30,33,36,41,42,43,0.7,0.4,0.6*30
$GPGSA,A,3,60,,,,,,,,,,,,0.7,0.4,0.6*31
$GPGST,213047.00,1.913,0.464,0.320,13.781,0.457,0.330,0.724*62
$GPGBS,213047.00,3.215,1.884,4.014,68,0.0001,6.424,6.071*56
$GPGRS,213047.00,1,-0.0,0.1,0.3,0.4,-0.0,0.0,-0.5,-0.5,,,,*4B
$GPGRS,213047.00,1,5.2,6.4,0.9,-4.3,-1.6,-0.9,-2.2,0.6,,,,*4E
$GPGRS,213047.00,1,-1.4,-0.2,0.3,0.6,0.2,0.4,-0.0,0.2,,,,*66
$GPGRS,213047.00,1,1.2,-0.3,0.5,0.2,0.5,0.6,-0.9,-0.6,-0.6,0.7,0.1,-0.3*68
$GPGRS,213047.00,1,-2.3,,,,,,,,,,,*4F
$GPGSV,5,1,18,08,72,272,50,16,10,192,37,32,29,129,44,23,23,049,41*7B
$GPGSV,5,2,18,02,26,280,43,21,46,285,44,27,62,159,49,10,65,065,50*77
$GPGSV,5,3,18,14,04,333,37,36,35,170,44,58,13,245,37,57,11,108,37*72
$GPGSV,5,4,18,34,31,208,42,40,24,132,36,49,34,195,44,41,07,108,34*74
$GPGSV,5,5,18,61,03,257,38*4F
$GLGSV,3,1,10,84,59,329,41,74,18,254,41,67,19,028,45,85,12,296,43*61
$GLGSV,3,2,10,75,24,309,46,83,39,085,40,69,39,155,50,68,54,075,51*69
$GLGSV,3,3,10,82,02,103,30,76,01,000,40*69
$GAGSV,3,1,09,26,75,316,48,21,14,195,38,33,28,273,42,08,30,072,43*6E
$GAGSV,3,2,09,07,25,131,40,23,38,244,,31,28,306,42,13,42,074,44*63
$GAGSV,3,3,09,03,07,026,36*54
$GBGSV,6,1,21,28,72,103,51,42,17,039,42,05,23,128,38,08,14,044,37*67
$GBGSV,6,2,21,60,11,108,40,31,14,069,,41,41,171,48,46,11,267,*65
$GBGSV,6,3,21,13,22,048,40,58,19,259,,14,39,056,46,27,58,300,50*6C
$GBGSV,6,4,21,57,42,244,,33,56,089,50,02,08,105,34,30,09,297,40*60
$GBGSV,6,5,21,43,10,115,41,29,04,289,,38,01,048,28,36,09,316,41*60
$GBGSV,6,6,21,39,00,076,*53
$GPGGA,213047.00,,,,,0,00,,,M,,M,,*4B
$PTNL,GGK,213047.00,010125,4742.1602481,N,01618.1001609,E,1,37,0.7,EHT752.2654,M*43
$GPGGQ,213047.00,010125,4742.1602481,N,01618.1001609,E,1,37,0.918,709.0588,M*34
$GPGFA,213047.00,4.410,5.939,0.464,0.320,13.781,0.724,,VVV*3D
$GPLLK,213047.00,010125,,M,,M,1,37,0.8,,M*04
$GNGMP,213047.00,,,,,DAAA,37,0.4,,,,*55
$GPGMP,213047.00,,,,,,08,,,,2.9,136*79
$GLGMP,213047.00,,,,,,08,,,,,*74
$GAGMP,213047.00,,,,,,08,,,,,*79
$GBGMP,213047.00,,,,,,13,,,,,*70
$PSSN,SNC,[0,336665000,2347]*47
$GPZDA,213052.00,01,01,2025,,*64
$GPDTM,W84,,00.0000000,N,00.0000000,E,00.0000000,W84*5F
$PSSN,TFM,213052.00,,,,*68
$GPRMC,213052.00,A,4742.1602477,N,01618.1001583,E,0.0,,010125,5.1,E,D*1E
$GPGLL,4742.1602477,N,01618.1001583,E,213052.00,A,D*6F
$GPGGA,213052.00,4742.1602477,N,01618.1001583,E,2,37,0.4,709.0561,M,43.2066,M,1.9,0136*47
$GNGNS,213052.00,4742.1602477,N,01618.1001583,E,DAAA,37,0.4,709.0561,43.2066,,*57
$GPGNS,213052.00,,,,,,08,,,,1.9,136*7E
$GLGNS,213052.00,,,,,,08,,,,,*70
$GAGNS,213052.00,,,,,,08,,,,,*7D
$GBGNS,213052.00,,,,,,13,,,,,*74
$GPLLQ,213052.00,010125,,M,,M,1,37,0.919,,M*13
$GPVTG,,T,,M,0.00,N,0.00,K,D*26
$GPHDT,,T*1B
$GPTHS,,V*0E
$GPROT,,V*08
$PSSN,HRP,213052.00,010125,,,,,,,00,0,,*66
$PTNL,AVR,213052.00,,Yaw,,Tilt,,,,0,,00*30
$GPGSA,A,3,02,08,10,16,21,23,27,32,,,,,0.7,0.4,0.6*3D
$GPGSA,A,3,67,68,69,74,75,83,84,85,,,,,0.7,0.4,0.6*3C
$GPGSA,A,3,03,07,08,13,21,26,31,33,,,,,0.7,0.4,0.6*3C
$GPGSA,A,3,05,08,13,14,27,28,30,33,36,41,42,43,0.7,0.4,0.6*30
$GPGSA,A,3,60,,,,,,,,,,,,0.7,0.4,0.6*31
$GPGST,213052.00,1.812,0.462,0.320,14.480,0.454,0.330,0.727*65
$GPGBS,213052.00,3.128,1.899,3.923,68,0.0001,6.249,6.071*54
$GPGRS,213052.00,1,-0.5,0.1,0.4,-0.1,0.0,-0.0,-0.2,0.1,,,,*4B
$GPGRS,213052.00,1,3.3,6.2,1.0,-4.3,-2.1,-2.2,-2.7,0.9,,,,*44
$GPGRS,213052.00,1,-1.2,-0.4,-0.1,0.5,0.3,0.4,-0.5,0.4,,,,*4C
$GPGRS,213052.00,1,1.3,-0.2,0.4,0.6,0.4,0.5,-0.7,-0.4,-0.1,0.7,-0.1,-0.2*4C
$GPGRS,213052.00,1,-2.2,,,,,,,,,,,*4A
$GPGSV,5,1,18,08,72,272,50,16,10,192,37,32,29,129,44,23,23,049,42*78
$GPGSV,5,2,18,02,26,280,43,21,46,285,44,27,62,159,49,10,65,065,50*77
$GPGSV,5,3,18,14,04,333,37,36,35,170,44,58,13,245,37,57,11,108,37*72
$GPGSV,5,4,18,34,31,208,42,40,24,132,36,49,34,195,43,41,07,108,33*74
$GPGSV,5,5,18,61,03,257,37*40
$GLGSV,3,1,10,84,59,329,41,74,18,254,42,67,19,028,44,85,12,296,44*64
$GLGSV,3,2,10,75,24,309,46,83,39,085,40,69,39,155,50,68,54,075,51*69
$GLGSV,3,3,10,82,02,103,30,76,01,000,40*69
$GAGSV,3,1,09,26,75,316,48,21,14,194,38,33,28,273,43,08,30,072,43*6E
$GAGSV,3,2,09,07,25,131,39,23,38,244,,31,28,306,42,13,42,074,44*6D
$GAGSV,3,3,09,03,07,026,36*54
$GBGSV,6,1,21,28,72,103,51,42,17,039,41,05,23,128,38,08,14,044,37*64
$GBGSV,6,2,21,60,11,108,40,31,14,069,,41,41,171,48,46,11,267,*65
$GBGSV,6,3,21,13,22,048,40,58,19,259,,14,39,056,46,27,58,300,51*6D
$GBGSV,6,4,21,57,42,245,,33,56,089,50,02,08,105,34,30,09,297,40*61
$GBGSV,6,5,21,43,10,115,41,29,04,289,,38,01,048,29,36,09,316,40*60
$GBGSV,6,6,21,39,00,076,*53
$GPGGA,213052.00,,,,,0,00,,,M,,M,,*4F
$PTNL,GGK,213052.00,010125,4742.1602477,N,01618.1001583,E,1,37,0.7,EHT752.2627,M*4B
$GPGGQ,213052.00,010125,4742.1602477,N,01618.1001583,E,1,37,0.919,709.0561,M*3E
$GPGFA,213052.00,4.392,5.960,0.462,0.320,14.480,0.727,,VVV*38
$GPLLK,213052.00,010125,,M,,M,1,37,0.8,,M*00
$GNGMP,213052.00,,,,,DAAA,37,0.4,,,,*51
$GPGMP,213052.00,,,,,,08,,,,1.9,136*7E
$GLGMP,213052.00,,,,,,08,,,,,*70
$GAGMP,213052.00,,,,,,08,,,,,*7D
$GBGMP,213052.00,,,,,,13,,,,,*74
$PSSN,SNC,[0,336670000,2347]*43
$GPZDA,213057.00,01,01,2025,,*61
$GPDTM,W84,,00.0000000,N,00.0000000,E,00.0000000,W84*5F
$PSSN,TFM,213057.00,,,,*6D
$GPRMC,213057.00,A,4742.1602502,N,01618.1001554,E,0.0,,010125,5.1,E,D*12
$GPGLL,4742.1602502,N,01618.1001554,E,213057.00,A,D*63
$GPGGA,213057.00,4742.1602502,N,01618.1001554,E,2,37,0.4,709.0510,M,43.2066,M,2.9,0136*4E
$GNGNS,213057.00,4742.1602502,N,01618.1001554,E,DAAA,37,0.4,709.0510,43.2066,,*5D
$GPGNS,213057.00,,,,,,08,,,,2.9,136*78
$GLGNS,213057.00,,,,,,08,,,,,*75
$GAGNS,213057.00,,,,,,08,,,,,*78
$GBGNS,213057.00,,,,,,13,,,,,*71
$GPLLQ,213057.00,010125,,M,,M,1,37,0.915,,M*1A
$GPVTG,,T,,M,0.01,N,0.01,K,D*26
$GPHDT,,T*1B
$GPTHS,,V*0E
$GPROT,,V*08
$PSSN,HRP,213057.00,010125,,,,,,,00,0,,*63
$PTNL,AVR,213057.00,,Yaw,,Tilt,,,,0,,00*35
$GPGSA,A,3,02,08,10,16,21,23,27,32,,,,,0.7,0.4,0.6*3D
$GPGSA,A,3,67,68,69,74,75,83,84,85,,,,,0.7,0.4,0.6*3C
$GPGSA,A,3,03,07,08,13,21,26,31,33,,,,,0.7,0.4,0.6*3C
$GPGSA,A,3,05,08,13,14,27,28,30,33,36,41,42,43,0.7,0.4,0.6*30
$GPGSA,A,3,60,,,,,,,,,,,,0.7,0.4,0.6*31
$GPGST,213057.00,1.974,0.456,0.320,14.755,0.448,0.330,0.726*61
$GPGBS,213057.00,3.172,1.927,3.977,68,0.0001,6.621,6.071*51
$GPGRS,213057.00,1,-0.2,0.2,0.2,0.2,-0.1,-0.4,0.1,-0.0,,,,*48
$GPGRS,213057.00,1,4.3,6.6,0.5,-4.8,-2.4,-1.7,-2.9,1.1,,,,*49
$GPGRS,213057.00,1,-1.3,0.0,-0.1,0.5,0.2,0.5,-0.2,0.4,,,,*66
$GPGRS,213057.00,1,1.0,0.5,0.3,0.7,0.6,0.5,0.2,-0.6,-0.3,0.9,-0.5,-0.5*41
$GPGRS,213057.00,1,-2.5,,,,,,,,,,,*48
$GPGSV,5,1,18,08,72,272,50,16,10,192,37,02,26,280,43,23,23,049,42*73
$GPGSV,5,2,18,32,29,129,44,21,46,285,44,27,62,159,49,10,65,065,50*7C
$GPGSV,5,3,18,14,04,333,38,36,35,170,44,58,13,245,37,57,11,108,37*7D
$GPGSV,5,4,18,34,31,208,42,40,24,132,36,49,34,195,43,41,07,108,33*74
$GPGSV,5,5,18,61,03,257,38*4F
$GLGSV,3,1,10,84,59,329,41,74,18,254,41,67,19,028,45,85,12,296,44*66
$GLGSV,3,2,10,75,24,309,46,83,39,086,39,69,39,155,50,68,54,075,51*64
$GLGSV,3,3,10,82,02,103,28,76,01,000,41*61
$GAGSV,3,1,09,26,75,316,48,21,14,194,38,33,28,273,42,08,30,072,43*6F
$GAGSV,3,2,09,07,25,130,39,23,38,244,,31,28,306,42,13,42,074,44*6C
$GAGSV,3,3,09,03,07,026,36*54
$GBGSV,6,1,21,28,72,103,51,42,17,039,42,05,23,128,38,08,14,044,36*66
$GBGSV,6,2,21,60,11,108,40,31,14,069,,41,41,171,48,46,11,267,*65
$GBGSV,6,3,21,13,22,048,40,58,18,259,,14,39,056,46,27,58,300,50*6D
$GBGSV,6,4,21,57,42,245,,33,56,089,50,02,08,105,33,30,09,297,40*66
$GBGSV,6,5,21,43,10,115,40,29,04,289,,38,00,048,28,36,09,316,40*61
$GBGSV,6,6,21,39,00,076,*53
$GPGGA,213057.00,,,,,0,00,,,M,,M,,*4A
$PTNL,GGK,213057.00,010125,4742.1602502,N,01618.1001554,E,1,37,0.7,EHT752.2576,M*40
$GPGGQ,213057.00,010125,4742.1602502,N,01618.1001554,E,1,37,0.915,709.0510,M*38
$GPGFA,213057.00,4.336,5.956,0.456,0.320,14.755,0.726,,VVV*3B
$GPLLK,213057.00,010125,,M,,M,1,37,0.8,,M*05
$GNGMP,213057.00,,,,,DAAA,37,0.4,,,,*54
$GPGMP,213057.00,,,,,,08,,,,2.9,136*78
$GLGMP,213057.00,,,,,,08,,,,,*75
$GAGMP,213057.00,,,,,,08,,,,,*78
$GBGMP,213057.00,,,,,,13,,,,,*71
$PSSN,SNC,[0,336675000,2347]*46
$GPZDA,213102.00,01,01,2025,,*60
$GPDTM,W84,,00.0000000,N,00.0000000,E,00.0000000,W84*5F
$PSSN,TFM,213102.00,,,,*6C
$GPRMC,213102.00,A,4742.1602493,N,01618.1001563,E,0.0,,010125,5.1,E,D*1E
$GPGLL,4742.1602493,N,01618.1001563,E,213102.00,A,D*6F
$GPGGA,213102.00,4742.1602493,N,01618.1001563,E,2,37,0.4,709.0470,M,43.2066,M,2.4,0136*48
$GNGNS,213102.00,4742.1602493,N,01618.1001563,E,DAAA,37,0.4,709.0470,43.2066,,*56
$GPGNS,213102.00,,,,,,08,,,,2.4,136*74
$GLGNS,213102.00,,,,,,08,,,,,*74
$GAGNS,213102.00,,,,,,08,,,,,*79
$GBGNS,213102.00,,,,,,13,,,,,*70
$GPLLQ,213102.00,010125,,M,,M,1,37,0.920,,M*1D
$GPVTG,,T,,M,0.00,N,0.00,K,D*26
$GPHDT,,T*1B
$GPTHS,,V*0E
$GPROT,,V*08
$PSSN,HRP,213102.00,010125,,,,,,,00,0,,*62
$PTNL,AVR,213102.00,,Yaw,,Tilt,,,,0,,00*34
$GPGSA,A,3,02,08,10,16,21,23,27,32,,,,,0.7,0.4,0.6*3D
$GPGSA,A,3,67,68,69,74,75,83,84,85,,,,,0.7,0.4,0.6*3C
$GPGSA,A,3,03,07,08,13,21,26,31,33,,,,,0.7,0.4,0.6*3C
$GPGSA,A,3,05,08,13,14,27,28,30,33,36,41,42,43,0.7,0.4,0.6*30
$GPGSA,A,3,60,,,,,,,,,,,,0.7,0.4,0.6*31
$GPGST,213102.00,2.040,0.460,0.322,14.128,0.453,0.332,0.729*61
$GPGBS,213102.00,3.126,1.887,4.000,68,0.0001,6.198,6.071*51
$GPGRS,213102.00,1,-0.1,0.1,0.4,0.1,0.2,-0.3,-0.3,-0.3,,,,*49
$GPGRS,213102.00,1,5.6,6.2,0.3,-5.6,-2.1,-1.7,-2.3,0.7,,,,*49
$GPGRS,213102.00,1,-1.2,0.3,0.2,0.5,0.1,0.3,0.0,0.1,,,,*64
$GPGRS,213102.00,1,0.8,0.3,-0.1,0.7,0.6,0.5,0.1,-0.8,-0.6,1.0,-0.1,-0.4*65
$GPGRS,213102.00,1,-2.0,,,,,,,,,,,*4C
$GPGSV,5,1,18,08,72,272,50,16,10,192,37,02,26,280,44,23,23,049,41*77
$GPGSV,5,2,18,32,29,129,45,21,46,285,44,27,62,159,49,10,65,065,50*7D
$GPGSV,5,3,18,14,04,333,38,36,35,170,44,58,13,245,37,57,11,108,37*7D
$GPGSV,5,4,18,34,31,208,42,40,24,132,36,49,34,195,43,41,07,108,33*74
$GPGSV,5,5,18,61,03,257,38*4F
$GLGSV,3,1,10,84,59,329,41,74,18,254,43,67,19,028,45,85,12,296,44*64
$GLGSV,3,2,10,75,24,308,47,83,39,086,40,69,39,155,50,68,54,075,51*6A
$GLGSV,3,3,10,82,02,103,28,76,01,000,40*60
$GAGSV,3,1,09,26,75,316,48,21,14,194,38,33,28,273,42,08,30,072,43*6F
$GAGSV,3,2,09,07,25,130,39,23,38,244,,31,28,306,42,13,42,074,44*6C
$GAGSV,3,3,09,03,07,026,36*54
$GBGSV,6,1,21,28,72,103,51,42,17,039,42,05,23,128,38,08,14,044,36*66
$GBGSV,6,2,21,60,11,108,40,31,14,069,,41,41,171,48,46,11,267,*65
$GBGSV,6,3,21,13,22,048,40,58,18,259,,14,39,056,46,27,58,300,50*6D
$GBGSV,6,4,21,57,42,245,,33,56,089,50,02,08,105,33,30,09,297,40*66
$GBGSV,6,5,21,43,10,115,40,29,04,289,,38,00,048,29,36,09,316,39*6E
$GBGSV,6,6,21,39,00,076,*53
$GPGGA,213102.00,,,,,0,00,,,M,,M,,*4B
$PTNL,GGK,213102.00,010125,4742.1602493,N,01618.1001563,E,1,37,0.7,EHT752.2536,M*48
$GPGGQ,213102.00,010125,4742.1602493,N,01618.1001563,E,1,37,0.920,709.0470,M*35
$GPGFA,213102.00,4.378,5.975,0.460,0.322,14.128,0.729,,VVV*35
$GPLLK,213102.00,010125,,M,,M,1,37,0.8,,M*04
$GNGMP,213102.00,,,,,DAAA,37,0.4,,,,*55
$GPGMP,213102.00,,,,,,08,,,,2.4,136*74
$GLGMP,213102.00,,,,,,08,,,,,*74
$GAGMP,213102.00,,,,,,08,,,,,*79
$GBGMP,213102.00,,,,,,13,,,,,*70
$PSSN,SNC,[0,336680000,2347]*4C
$GPZDA,213107.00,01,01,2025,,*65
$GPDTM,W84,,00.0000000,N,00.0000000,E,00.0000000,W84*5F
$PSSN,TFM,213107.00,,,,*69
$GPRMC,213107.00,A,4742.1602479,N,01618.1001587,E,0.0,,010125,5.1,E,D*15
$GPGLL,4742.1602479,N,01618.1001587,E,213107.00,A,D*64
$GPGGA,213107.00,4742.1602479,N,01618.1001587,E,2,37,0.4,709.0450,M,43.2066,M,2.9,0136*4C
$GNGNS,213107.00,4742.1602479,N,01618.1001587,E,DAAA,37,0.4,709.0450,43.2066,,*5F
$GPGNS,213107.00,,,,,,08,,,,2.9,136*7C
$GLGNS,213107.00,,,,,,08,,,,,*71
$GAGNS,213107.00,,,,,,08,,,,,*7C
$GBGNS,213107.00,,,,,,13,,,,,*75
$GPLLQ,213107.00,010125,,M,,M,1,37,0.918,,M*13
$GPVTG,,T,,M,0.00,N,0.01,K,D*27
$GPHDT,,T*1B
$GPTHS,,V*0E
$GPROT,,V*08
$PSSN,HRP,213107.00,010125,,,,,,,00,0,,*67
$PTNL,AVR,213107.00,,Yaw,,Tilt,,,,0,,00*31
$GPGSA,A,3,02,08,10,16,21,23,27,32,,,,,0.7,0.4,0.6*3D
$GPGSA,A,3,67,68,69,74,75,83,84,85,,,,,0.7,0.4,0.6*3C
$GPGSA,A,3,03,07,08,13,21,26,31,33,,,,,0.7,0.4,0.6*3C
$GPGSA,A,3,05,08,13,14,27,28,30,33,36,41,42,43,0.7,0.4,0.6*30
$GPGSA,A,3,60,,,,,,,,,,,,0.7,0.4,0.6*31
$GPGST,213107.00,1.932,0.463,0.320,13.810,0.456,0.330,0.724*65
$GPGBS,213107.00,3.205,1.877,4.013,68,0.0001,6.674,6.071*5E
$GPGRS,213107.00,1,-0.0,-0.1,0.2,-0.3,0.5,-0.6,-0.3,-0.1,,,,*49
$GPGRS,213107.00,1,4.6,6.7,0.3,-4.6,-1.6,-1.2,-2.8,0.5,,,,*41
$GPGRS,213107.00,1,-1.6,0.4,-0.2,0.4,-0.1,0.4,0.1,-0.1,,,,*48
$GPGRS,213107.00,1,1.4,0.0,0.0,0.6,0.5,0.4,0.2,-0.7,0.3,0.5,0.0,-0.3*4A
$GPGRS,213107.00,1,-2.2,,,,,,,,,,,*4B
$GPGSV,5,1,18,08,72,272,50,16,10,192,38,02,26,280,43,23,23,049,42*7C
$GPGSV,5,2,18,32,29,129,44,21,46,285,44,27,62,159,49,10,65,065,51*7D
$GPGSV,5,3,18,14,04,333,38,36,35,170,44,58,13,245,37,57,11,108,37*7D
$GPGSV,5,4,18,34,31,208,42,40,24,132,36,49,34,195,43,41,07,108,33*74
$GPGSV,5,5,18,61,03,257,38*4F
$GLGSV,3,1,10,84,59,329,41,74,18,254,41,67,19,028,45,85,12,296,43*61
$GLGSV,3,2,10,75,24,308,46,83,39,086,40,69,39,155,50,68,54,075,51*6B
$GLGSV,3,3,10,82,02,103,29,76,01,000,40*61
$GAGSV,3,1,09,26,75,316,48,21,13,194,38,33,28,273,42,08,30,072,43*68
$GAGSV,3,2,09,07,25,130,40,23,38,244,,31,28,306,42,13,41,074,44*61
$GAGSV,3,3,09,03,07,026,36*54
$GBGSV,6,1,21,28,72,103,51,42,17,039,42,05,23,128,38,08,14,044,36*66
$GBGSV,6,2,21,60,11,108,40,31,14,069,,41,41,171,48,46,11,267,*65
$GBGSV,6,3,21,13,22,048,40,58,18,259,,14,39,056,46,27,58,300,50*6D
$GBGSV,6,4,21,57,42,245,,33,56,088,49,02,08,105,33,30,09,297,40*6F
$GBGSV,6,5,21,43,10,115,40,29,04,289,,38,00,048,28,36,09,316,40*61
$GBGSV,6,6,21,39,00,076,*53
$GPGGA,213107.00,,,,,0,00,,,M,,M,,*4E
$PTNL,GGK,213107.00,010125,4742.1602479,N,01618.1001587,E,1,37,0.7,EHT752.2515,M*42
$GPGGQ,213107.00,010125,4742.1602479,N,01618.1001587,E,1,37,0.918,709.0450,M*37
$GPGFA,213107.00,4.406,5.941,0.463,0.320,13.810,0.724,,VVV*30
$GPLLK,213107.00,010125,,M,,M,1,37,0.8,,M*01
$GNGMP,213107.00,,,,,DAAA,37,0.4,,,,*50
$GPGMP,213107.00,,,,,,08,,,,2.9,136*7C
$GLGMP,213107.00,,,,,,08,,,,,*71
$GAGMP,213107.00,,,,,,08,,,,,*7C
$GBGMP,213107.00,,,,,,13,,,,,*75
$PSSN,SNC,[0,336685000,2347]*49
$GPZDA,213112.00,01,01,2025,,*61
$GPDTM,W84,,00.0000000,N,00.0000000,E,00.0000000,W84*5F
$PSSN,TFM,213112.00,,,,*6D
$GPRMC,213112.00,A,4742.1602450,N,01618.1001606,E,0.0,,010125,5.1,E,D*10
$GPGLL,4742.1602450,N,01618.1001606,E,213112.00,A,D*61
$GPGGA,213112.00,4742.1602450,N,01618.1001606,E,2,37,0.4,709.0384,M,43.2066,M,1.9,0136*44
$GNGNS,213112.00,4742.1602450,N,01618.1001606,E,DAAA,37,0.4,709.0384,43.2066,,*54
$GPGNS,213112.00,,,,,,08,,,,1.9,136*7B
$GLGNS,213112.00,,,,,,08,,,,,*75
$GAGNS,213112.00,,,,,,08,,,,,*78
$GBGNS,213112.00,,,,,,13,,,,,*71
$GPLLQ,213112.00,010125,,M,,M,1,37,0.919,,M*16
$GPVTG,,T,,M,0.00,N,0.01,K,D*27
$GPHDT,,T*1B
$GPTHS,,V*0E
$GPROT,,V*08
$PSSN,HRP,213112.00,010125,,,,,,,00,0,,*63
$PTNL,AVR,213112.00,,Yaw,,Tilt,,,,0,,00*35
$GPGSA,A,3,02,08,10,16,21,23,27,32,,,,,0.7,0.4,0.6*3D
$GPGSA,A,3,67,68,69,74,75,83,84,85,,,,,0.7,0.4,0.6*3C
$GPGSA,A,3,03,07,08,13,21,26,31,33,,,,,0.7,0.4,0.6*3C
$GPGSA,A,3,05,08,13,14,27,28,30,33,36,41,42,43,0.7,0.4,0.6*30
$GPGSA,A,3,60,,,,,,,,,,,,0.7,0.4,0.6*31
$GPGST,213112.00,1.964,0.461,0.320,14.504,0.454,0.330,0.727*6E
$GPGBS,213112.00,3.118,1.892,3.925,68,0.0001,6.714,6.071*52
$GPGRS,213112.00,1,-0.0,-0.0,0.1,0.1,0.2,-0.1,-0.1,-0.3,,,,*60
$GPGRS,213112.00,1,4.0,6.7,0.5,-4.8,-2.4,-0.8,-3.3,1.0,,,,*4F
$GPGRS,213112.00,1,-1.3,0.2,0.3,0.7,0.2,0.5,-0.1,0.1,,,,*4F
$GPGRS,213112.00,1,1.3,-0.3,0.3,0.3,0.8,0.6,-0.2,-0.4,0.8,0.7,-0.1,0.1*4A
$GPGRS,213112.00,1,-2.3,,,,,,,,,,,*4E
$GPGSV,5,1,18,08,72,272,50,16,10,192,38,02,26,280,43,23,23,049,42*7C
$GPGSV,5,2,18,32,29,129,44,21,46,285,44,27,62,159,50,10,65,065,51*75
$GPGSV,5,3,18,14,04,333,38,36,35,170,44,58,13,245,37,57,11,108,37*7D
$GPGSV,5,4,18,34,31,208,42,40,24,132,36,49,34,195,43,41,07,108,33*74
$GPGSV,5,5,18,61,03,257,38*4F
$GLGSV,3,1,10,84,59,329,41,74,18,254,41,67,19,028,44,85,12,296,44*67
$GLGSV,3,2,10,75,24,308,45,83,39,086,40,69,40,155,49,68,54,075,51*6E
$GLGSV,3,3,10,82,02,103,29,76,01,000,40*61
$GAGSV,3,1,09,26,75,316,48,21,13,194,38,33,28,273,42,08,30,072,43*68
$GAGSV,3,2,09,07,25,130,41,23,38,244,,31,28,306,42,13,41,074,44*60
$GAGSV,3,3,09,03,07,026,36*54
$GBGSV,6,1,21,28,72,103,51,42,17,039,42,05,23,128,38,08,14,044,36*66
$GBGSV,6,2,21,60,11,108,40,31,14,069,,41,41,171,48,46,11,267,*65
$GBGSV,6,3,21,13,22,048,40,58,18,259,,14,39,055,46,27,58,300,50*6E
$GBGSV,6,4,21,57,42,245,,33,56,088,50,02,08,105,33,30,09,297,41*66
$GBGSV,6,5,21,43,10,115,40,29,04,289,,38,00,048,28,36,09,316,40*61
$GBGSV,6,6,21,39,00,076,*53
$GPGGA,213112.00,,,,,0,00,,,M,,M,,*4A
$PTNL,GGK,213112.00,010125,4742.1602450,N,01618.1001606,E,1,37,0.7,EHT752.2450,M*47
$GPGGQ,213112.00,010125,4742.1602450,N,01618.1001606,E,1,37,0.919,709.0384,M*3D
$GPGFA,213112.00,4.387,5.962,0.461,0.320,14.504,0.727,,VVV*35
$GPLLK,213112.00,010125,,M,,M,1,37,0.8,,M*05
$GNGMP,213112.00,,,,,DAAA,37,0.4,,,,*54
$GPGMP,213112.00,,,,,,08,,,,1.9,136*7B
$GLGMP,213112.00,,,,,,08,,,,,*75
$GAGMP,213112.00,,,,,,08,,,,,*78
$GBGMP,213112.00,,,,,,13,,,,,*71
$PSSN,SNC,[0,336690000,2347]*4D
$GPZDA,213117.00,01,01,2025,,*64
$GPDTM,W84,,00.0000000,N,00.0000000,E,00.0000000,W84*5F
$PSSN,TFM,213117.00,,,,*68
$GPRMC,213117.00,A,4742.1602467,N,01618.1001647,E,0.0,,010125,5.1,E,D*14
$GPGLL,4742.1602467,N,01618.1001647,E,213117.00,A,D*65
$GPGGA,213117.00,4742.1602467,N,01618.1001647,E,2,37,0.4,709.0387,M,43.2066,M,2.9,0136*40
$GNGNS,213117.00,4742.1602467,N,01618.1001647,E,DAAA,37,0.4,709.0387,43.2066,,*53
$GPGNS,213117.00,,,,,,08,,,,2.9,136*7D
$GLGNS,213117.00,,,,,,08,,,,,*70
$GAGNS,213117.00,,,,,,08,,,,,*7D
$GBGNS,213117.00,,,,,,13,,,,,*74
$GPLLQ,213117.00,010125,,M,,M,1,37,0.915,,M*1F
$GPVTG,,T,,M,0.00,N,0.00,K,D*26
$GPHDT,,T*1B
$GPTHS,,V*0E
$GPROT,,V*08
$PSSN,HRP,213117.00,010125,,,,,,,00,0,,*66
$PTNL,AVR,213117.00,,Yaw,,Tilt,,,,0,,00*30
$GPGSA,A,3,02,08,10,16,21,23,27,32,,,,,0.7,0.4,0.6*3D
$GPGSA,A,3,67,68,69,74,75,83,84,85,,,,,0.7,0.4,0.6*3C
$GPGSA,A,3,03,07,08,13,21,26,31,33,,,,,0.7,0.4,0.6*3C
$GPGSA,A,3,05,08,13,14,27,28,30,33,36,41,42,43,0.7,0.4,0.6*30
$GPGSA,A,3,60,,,,,,,,,,,,0.7,0.4,0.6*31
$GPGST,213117.00,2.042,0.456,0.320,14.802,0.448,0.330,0.726*66
$GPGBS,213117.00,3.162,1.920,3.980,68,0.0001,6.670,6.071*5E
$GPGRS,213117.00,1,-0.3,0.0,-0.1,0.3,0.5,-0.6,0.2,-0.4,,,,*4D
$GPGRS,213117.00,1,4.9,6.7,-0.2,-5.1,-2.6,-1.0,-2.6,1.9,,,,*67
$GPGRS,213117.00,1,-1.5,-0.1,0.4,0.6,0.2,0.6,0.1,0.2,,,,*49
$GPGRS,213117.00,1,1.2,-0.7,0.3,-0.0,0.5,0.6,0.1,-0.4,-0.1,0.8,-0.1,-0.0*40
$GPGRS,213117.00,1,-2.2,,,,,,,,,,,*4A
$GPGSV,5,1,18,08,72,271,50,16,10,192,39,02,26,280,43,23,23,049,42*7E
$GPGSV,5,2,18,32,29,129,43,21,46,285,44,27,62,159,49,10,65,065,50*7B
$GPGSV,5,3,18,14,04,333,38,36,35,170,44,58,13,245,37,57,11,108,37*7D
$GPGSV,5,4,18,34,31,208,42,40,24,132,36,49,34,195,43,41,07,108,34*73
$GPGSV,5,5,18,61,03,257,38*4F
$GLGSV,3,1,10,84,59,329,41,74,18,254,41,67,19,028,44,85,12,296,45*66
$GLGSV,3,2,10,75,24,308,46,83,39,086,40,69,40,155,50,68,54,075,51*65
$GLGSV,3,3,10,82,02,103,28,76,01,000,40*60
$GAGSV,3,1,09,26,75,317,48,21,13,194,39,33,28,273,42,08,30,072,43*68
$GAGSV,3,2,09,07,25,130,40,23,38,244,,31,28,306,42,13,41,074,44*61
$GAGSV,3,3,09,03,07,026,36*54
$GBGSV,6,1,21,28,72,103,51,42,17,039,42,05,23,128,38,08,14,044,36*66
$GBGSV,6,2,21,60,11,108,39,31,14,069,,41,41,171,48,46,11,267,*6B
$GBGSV,6,3,21,13,22,048,39,58,18,259,,14,39,055,45,27,58,300,50*63
$GBGSV,6,4,21,57,42,245,,33,56,088,50,02,08,105,33,30,09,297,41*66
$GBGSV,6,5,21,43,10,115,40,29,04,289,,38,00,048,28,36,09,316,39*6F
$GBGSV,6,6,21,39,00,076,*53
$GPGGA,213117.00,,,,,0,00,,,M,,M,,*4F
$PTNL,GGK,213117.00,010125,4742.1602467,N,01618.1001647,E,1,37,0.7,EHT752.2453,M*40
$GPGGQ,213117.00,010125,4742.1602467,N,01618.1001647,E,1,37,0.915,709.0387,M*36
$GPGFA,213117.00,4.332,5.957,0.456,0.320,14.802,0.726,,VVV*36
$GPLLK,213117.00,010125,,M,,M,1,37,0.8,,M*00
$GNGMP,213117.00,,,,,DAAA,37,0.4,,,,*51
$GPGMP,213117.00,,,,,,08,,,,2.9,136*7D
$GLGMP,213117.00,,,,,,08,,,,,*70
$GAGMP,213117.00,,,,,,08,,,,,*7D
$GBGMP,213117.00,,,,,,13,,,,,*74
$PSSN,SNC,[0,336695000,2347]*48
$GPZDA,213122.00,01,01,2025,,*62
$GPDTM,W84,,00.0000000,N,00.0000000,E,00.0000000,W84*5F
$PSSN,TFM,213122.00,,,,*6E
$GPRMC,213122.00,A,4742.1602477,N,01618.1001670,E,0.0,,010125,5.1,E,D*17
$GPGLL,4742.1602477,N,01618.1001670,E,213122.00,A,D*66
$GPGGA,213122.00,4742.1602477,N,01618.1001670,E,2,37,0.4,709.0318,M,43.2066,M,2.4,0136*48
$GNGNS,213122.00,4742.1602477,N,01618.1001670,E,DAAA,37,0.4,709.0318,43.2066,,*56
$GPGNS,213122.00,,,,,,08,,,,2.4,136*76
