$GPZDA,221442.00,01,01,2025,,*60
$GPDTM,W84,,00.0000000,N,00.0000000,E,00.0000000,W84*5F
$PSSN,TFM,221442.00,,,,*6C
$GPRMC,221442.00,A,4742.1601390,N,01618.1006729,E,0.0,,010125,5.1,E,D*12
$GPGLL,4742.1601390,N,01618.1006729,E,221442.00,A,D*63
$GPGGA,221442.00,4742.1601390,N,01618.1006729,E,2,35,0.4,708.4292,M,43.2066,M,2.8,0136*45
$GNGNS,221442.00,4742.1601390,N,01618.1006729,E,DAAA,35,0.4,708.4292,43.2066,,*57
$GPGNS,221442.00,,,,,,09,,,,2.8,136*79
$GLGNS,221442.00,,,,,,07,,,,,*7B
$GAGNS,221442.00,,,,,,08,,,,,*79
$GBGNS,221442.00,,,,,,11,,,,,*72
$GPLLQ,221442.00,010125,,M,,M,1,35,1.024,,M*13
$GPVTG,,T,,M,0.00,N,0.01,K,D*27
$GPHDT,,T*1B
$GPTHS,,V*0E
$GPROT,,V*08
$PSSN,HRP,221442.00,010125,,,,,,,00,0,,*62
$PTNL,AVR,221442.00,,Yaw,,Tilt,,,,0,,00*34
$GPGSA,A,3,02,03,08,10,14,21,23,27,32,,,,0.8,0.4,0.6*33
$GPGSA,A,3,68,69,75,76,83,84,85,,,,,,0.8,0.4,0.6*30
$GPGSA,A,3,07,08,13,24,26,29,31,33,,,,,0.8,0.4,0.6*3E
$GPGSA,A,3,05,13,14,27,28,30,32,33,39,41,60,,0.8,0.4,0.6*3E
$GPGST,221442.00,1.796,0.456,0.340,30.309,0.429,0.373,0.851*60
$GPGBS,221442.00,2.639,2.449,5.255,68,0.0001,5.789,6.129*5E
$GPGRS,221442.00,1,0.1,0.5,-0.1,0.2,0.1,-0.1,-1.5,-0.2,0.0,,,*62
$GPGRS,221442.00,1,5.8,0.5,-0.6,-4.5,-2.2,-1.7,2.8,,,,,*60
$GPGRS,221442.00,1,-0.2,0.2,0.5,-1.6,0.1,0.2,-0.1,-0.1,,,,*4C
$GPGRS,221442.00,1,1.7,0.0,0.2,0.6,0.0,0.6,0.1,0.0,-3.0,0.2,-1.5,*63
$GPGSV,5,1,19,08,68,209,50,14,14,319,40,02,42,291,47,10,47,054,48*70
$GPGSV,5,2,19,27,41,162,46,32,43,110,48,21,64,300,46,24,01,033,*7C
$GPGSV,5,3,19,03,08,229,38,23,06,053,38,36,35,170,44,58,13,245,38*76
$GPGSV,5,4,19,57,12,107,37,49,34,195,44,40,24,132,35,34,31,208,42*79
$GPGSV,5,5,19,41,07,108,34,61,03,257,38*72
$GLGSV,3,1,09,84,71,022,39,75,16,286,45,70,10,192,35,83,22,106,37*64
$GLGSV,3,2,09,76,11,343,45,85,30,310,47,68,43,043,50,69,63,137,53*64
$GLGSV,3,3,09,74,00,240,*59
$GAGSV,3,1,09,26,78,027,48,31,29,289,43,29,11,169,38,13,29,087,43*63
$GAGSV,3,2,09,23,25,232,,07,39,119,44,08,29,055,43,33,41,286,45*6D
$GAGSV,3,3,09,24,06,335,37*50
$GBGSV,6,1,23,27,76,299,51,32,13,203,42,31,10,077,,60,11,109,40*62
$GBGSV,6,2,23,13,17,053,39,05,24,128,39,14,25,045,42,29,18,297,*6F
$GBGSV,6,3,23,30,24,303,44,33,49,061,49,41,60,163,51,28,55,124,50*66
$GBGSV,6,4,23,57,58,262,,16,06,062,,02,09,105,34,36,05,301,39*64
$GBGSV,6,5,23,39,09,073,39,20,06,195,,42,02,036,33,45,01,345,*6E
$GBGSV,6,6,23,06,00,094,,58,06,246,,08,08,051,35*58
$GPGGA,221442.00,,,,,0,00,,,M,,M,,*4B
$PTNL,GGK,221442.00,010125,4742.1601390,N,01618.1006729,E,1,35,0.8,EHT751.6357,M*4F
$GPGGQ,221442.00,010125,4742.1601390,N,01618.1006729,E,1,35,1.024,708.4292,M*38
$GPGFA,221442.00,4.333,6.981,0.456,0.340,30.309,0.851,,VVV*34
$GPLLK,221442.00,010125,,M,,M,1,35,0.8,,M*06
$GNGMP,221442.00,,,,,DAAA,35,0.4,,,,*57
$GPGMP,221442.00,,,,,,09,,,,2.8,136*79
$GLGMP,221442.00,,,,,,07,,,,,*7B
$GAGMP,221442.00,,,,,,08,,,,,*79
$GBGMP,221442.00,,,,,,11,,,,,*72
$PSSN,SNC,[0,339300000,2347]*4E
$GPZDA,221447.00,01,01,2025,,*65
$GPDTM,W84,,00.0000000,N,00.0000000,E,00.0000000,W84*5F
$PSSN,TFM,221447.00,,,,*69
$GPRMC,221447.00,A,4742.1601369,N,01618.1006731,E,0.0,,010125,5.1,E,D*18
$GPGLL,4742.1601369,N,01618.1006731,E,221447.00,A,D*69
$GPGGA,221447.00,4742.1601369,N,01618.1006731,E,2,36,0.4,708.4264,M,43.2066,M,1.6,0136*48
$GNGNS,221447.00,4742.1601369,N,01618.1006731,E,DAAA,36,0.4,708.4264,43.2066,,*57
$GPGNS,221447.00,,,,,,09,,,,1.6,136*71
$GLGNS,221447.00,,,,,,07,,,,,*7E
$GAGNS,221447.00,,,,,,08,,,,,*7C
$GBGNS,221447.00,,,,,,12,,,,,*74
$GPLLQ,221447.00,010125,,M,,M,1,36,1.011,,M*13
$GPVTG,,T,,M,0.00,N,0.01,K,D*27
$GPHDT,,T*1B
$GPTHS,,V*0E
$GPROT,,V*08
$PSSN,HRP,221447.00,010125,,,,,,,00,0,,*67
$PTNL,AVR,221447.00,,Yaw,,Tilt,,,,0,,00*31
$GPGSA,A,3,02,03,08,10,14,21,23,27,32,,,,0.7,0.4,0.6*3C
$GPGSA,A,3,68,69,75,76,83,84,85,,,,,,0.7,0.4,0.6*3F
$GPGSA,A,3,07,08,13,24,26,29,31,33,,,,,0.7,0.4,0.6*31
$GPGSA,A,3,05,08,13,14,27,28,30,32,33,39,41,60,0.7,0.4,0.6*39
$GPGST,221447.00,1.826,0.448,0.345,31.937,0.422,0.377,0.838*6D
$GPGBS,221447.00,2.539,2.434,5.196,68,0.0001,5.517,6.129*5B
$GPGRS,221447.00,1,-0.1,-0.2,0.0,0.2,-0.2,0.4,-1.8,-0.4,-0.1,,,*6D
$GPGRS,221447.00,1,5.5,0.4,-1.3,-5.4,-1.5,-1.3,3.0,,,,,*64
$GPGRS,221447.00,1,-0.2,0.2,0.6,-1.3,0.1,0.2,0.0,-0.0,,,,*62
$GPGRS,221447.00,1,1.8,-1.5,0.2,-0.1,0.6,0.0,0.5,0.4,-0.1,-2.8,-0.1,-1.7*4D
$GPGSV,5,1,19,08,68,209,50,14,14,319,39,02,42,291,47,10,47,054,49*7F
$GPGSV,5,2,19,27,41,162,47,32,43,110,48,21,64,300,46,24,01,033,*7D
$GPGSV,5,3,19,03,08,229,38,23,06,053,38,36,35,170,44,58,13,245,37*79
$GPGSV,5,4,19,57,12,107,37,49,34,195,44,40,24,132,34,34,31,208,42*78
$GPGSV,5,5,19,41,07,108,33,61,03,257,38*75
$GLGSV,3,1,09,84,71,022,39,75,16,286,44,70,11,192,35,83,22,106,37*64
$GLGSV,3,2,09,76,11,343,45,85,30,310,47,68,43,043,50,69,63,137,53*64
$GLGSV,3,3,09,74,00,240,*59
$GAGSV,3,1,09,26,78,028,48,31,29,289,43,29,11,169,38,13,29,087,43*6C
$GAGSV,3,2,09,23,25,232,,07,39,119,44,08,29,055,43,33,41,286,45*6D
$GAGSV,3,3,09,24,06,335,37*50
$GBGSV,6,1,23,27,76,299,51,32,13,203,43,31,10,077,,60,11,109,40*63
$GBGSV,6,2,23,13,17,054,40,05,24,128,39,14,25,045,43,29,18,297,*67
$GBGSV,6,3,23,30,24,303,45,33,49,061,49,41,60,163,51,28,55,124,50*67
$GBGSV,6,4,23,57,58,262,,16,06,062,,02,09,105,34,36,05,301,39*64
$GBGSV,6,5,23,39,09,073,39,20,06,195,,42,02,036,32,45,01,345,*6F
$GBGSV,6,6,23,06,00,094,,58,06,246,,08,08,051,35*58
$GPGGA,221447.00,,,,,0,00,,,M,,M,,*4E
$PTNL,GGK,221447.00,010125,4742.1601369,N,01618.1006731,E,1,36,0.7,EHT751.6329,M*40
$GPGGQ,221447.00,010125,4742.1601369,N,01618.1006731,E,1,36,1.011,708.4264,M*3E
$GPGFA,221447.00,4.258,6.868,0.448,0.345,31.937,0.838,,VVV*38
$GPLLK,221447.00,010125,,M,,M,1,36,0.8,,M*00
$GNGMP,221447.00,,,,,DAAA,36,0.4,,,,*51
$GPGMP,221447.00,,,,,,09,,,,1.6,136*71
$GLGMP,221447.00,,,,,,07,,,,,*7E
$GAGMP,221447.00,,,,,,08,,,,,*7C
$GBGMP,221447.00,,,,,,12,,,,,*74
$PSSN,SNC,[0,339305000,2347]*4B
$GPZDA,221452.00,01,01,2025,,*61
$GPDTM,W84,,00.0000000,N,00.0000000,E,00.0000000,W84*5F
$PSSN,TFM,221452.00,,,,*6D
$GPRMC,221452.00,A,4742.1601345,N,01618.1006694,E,0.0,,010125,5.1,E,D*1C
$GPGLL,4742.1601345,N,01618.1006694,E,221452.00,A,D*6D
$GPGGA,221452.00,4742.1601345,N,01618.1006694,E,2,36,0.4,708.4210,M,43.2066,M,2.6,0136*4C
$GNGNS,221452.00,4742.1601345,N,01618.1006694,E,DAAA,36,0.4,708.4210,43.2066,,*50
$GPGNS,221452.00,,,,,,09,,,,2.6,136*76
$GLGNS,221452.00,,,,,,07,,,,,*7A
$GAGNS,221452.00,,,,,,08,,,,,*78
$GBGNS,221452.00,,,,,,12,,,,,*70
$GPLLQ,221452.00,010125,,M,,M,1,36,1.002,,M*15
$GPVTG,,T,,M,0.00,N,0.00,K,D*26
$GPHDT,,T*1B
$GPTHS,,V*0E
$GPROT,,V*08
$PSSN,HRP,221452.00,010125,,,,,,,00,0,,*63
$PTNL,AVR,221452.00,,Yaw,,Tilt,,,,0,,00*35
$GPGSA,A,3,02,03,08,10,14,21,23,27,32,,,,0.7,0.4,0.6*3C
$GPGSA,A,3,68,69,75,76,83,84,85,,,,,,0.7,0.4,0.6*3F
$GPGSA,A,3,07,08,13,24,26,29,31,33,,,,,0.7,0.4,0.6*31
$GPGSA,A,3,05,08,13,14,27,28,30,32,33,39,41,60,0.7,0.4,0.6*39
$GPGST,221452.00,1.841,0.443,0.346,30.844,0.419,0.374,0.830*67
$GPGBS,221452.00,2.567,2.466,5.256,68,0.0001,5.645,6.129*58
$GPGRS,221452.00,1,-0.1,-0.0,-0.4,0.3,-0.1,0.2,-1.6,0.1,0.2,,,*4E
$GPGRS,221452.00,1,5.6,0.1,-0.9,-5.5,-1.7,-1.1,3.2,,,,,*6E
$GPGRS,221452.00,1,0.0,0.1,0.5,-1.3,0.1,0.1,0.6,0.1,,,,*60
$GPGRS,221452.00,1,2.1,-0.8,0.7,0.4,0.7,-0.0,0.4,-0.1,-0.1,-2.7,0.1,-1.5*47
$GPGSV,5,1,19,08,68,208,50,14,14,319,40,02,42,291,47,10,47,054,48*71
$GPGSV,5,2,19,27,41,162,47,32,43,110,48,21,64,300,46,24,01,033,*7D
$GPGSV,5,3,19,03,08,229,38,23,06,053,37,36,35,170,44,58,13,245,37*76
$GPGSV,5,4,19,57,12,107,37,49,34,195,43,40,24,132,35,34,31,208,42*7E
$GPGSV,5,5,19,41,07,108,34,61,03,257,38*72
$GLGSV,3,1,09,84,72,022,39,75,16,286,45,70,11,192,35,83,22,106,36*67
$GLGSV,3,2,09,76,11,343,44,85,30,310,47,68,43,043,50,69,63,137,52*64
$GLGSV,3,3,09,74,00,240,*59
$GAGSV,3,1,09,26,78,028,48,31,29,289,43,29,11,169,38,13,29,087,43*6C
$GAGSV,3,2,09,23,25,232,,07,39,119,44,08,29,055,42,33,41,286,44*6D
$GAGSV,3,3,09,24,06,335,37*50
$GBGSV,6,1,23,27,76,299,51,32,13,203,42,31,10,077,,60,11,109,40*62
$GBGSV,6,2,23,13,17,054,40,05,24,128,39,14,25,045,43,29,18,297,*67
$GBGSV,6,3,23,30,24,303,44,33,49,061,49,41,60,163,51,28,55,124,50*66
$GBGSV,6,4,23,57,58,262,,16,06,062,,02,09,105,34,36,05,301,38*65
$GBGSV,6,5,23,39,09,073,39,20,06,195,,42,02,036,32,45,01,345,*6F
$GBGSV,6,6,23,06,00,094,,58,06,246,,08,08,051,35*58
$GPGGA,221452.00,,,,,0,00,,,M,,M,,*4A
$PTNL,GGK,221452.00,010125,4742.1601345,N,01618.1006694,E,1,36,0.7,EHT751.6275,M*4C
$GPGGQ,221452.00,010125,4742.1601345,N,01618.1006694,E,1,36,1.002,708.4210,M*3B
$GPGFA,221452.00,4.209,6.807,0.443,0.346,30.844,0.830,,VVV*35
$GPLLK,221452.00,010125,,M,,M,1,36,0.8,,M*04
$GNGMP,221452.00,,,,,DAAA,36,0.4,,,,*55
$GPGMP,221452.00,,,,,,09,,,,2.6,136*76
$GLGMP,221452.00,,,,,,07,,,,,*7A
$GAGMP,221452.00,,,,,,08,,,,,*78
$GBGMP,221452.00,,,,,,12,,,,,*70
$PSSN,SNC,[0,339310000,2347]*4F
$GPZDA,221457.00,01,01,2025,,*64
$GPDTM,W84,,00.0000000,N,00.0000000,E,00.0000000,W84*5F
$PSSN,TFM,221457.00,,,,*68
$GPRMC,221457.00,A,4742.1601359,N,01618.1006693,E,0.0,,010125,5.1,E,D*13
$GPGLL,4742.1601359,N,01618.1006693,E,221457.00,A,D*62
$GPGGA,221457.00,4742.1601359,N,01618.1006693,E,2,36,0.4,708.4204,M,43.2066,M,3.1,0136*40
$GNGNS,221457.00,4742.1601359,N,01618.1006693,E,DAAA,36,0.4,708.4204,43.2066,,*5A
$GPGNS,221457.00,,,,,,09,,,,3.1,136*75
$GLGNS,221457.00,,,,,,07,,,,,*7F
$GAGNS,221457.00,,,,,,08,,,,,*7D
$GBGNS,221457.00,,,,,,12,,,,,*75
$GPLLQ,221457.00,010125,,M,,M,1,36,1.015,,M*16
$GPVTG,,T,,M,0.01,N,0.01,K,D*26
$GPHDT,,T*1B
$GPTHS,,V*0E
$GPROT,,V*08
$PSSN,HRP,221457.00,010125,,,,,,,00,0,,*66
$PTNL,AVR,221457.00,,Yaw,,Tilt,,,,0,,00*30
$GPGSA,A,3,02,03,08,10,14,21,23,27,32,,,,0.7,0.4,0.6*3C
$GPGSA,A,3,68,69,75,76,83,84,85,,,,,,0.7,0.4,0.6*3F
$GPGSA,A,3,07,08,13,24,26,29,31,33,,,,,0.7,0.4,0.6*31
$GPGSA,A,3,05,08,13,14,27,28,30,32,33,39,41,60,0.7,0.4,0.6*39
$GPGST,221457.00,1.877,0.447,0.350,30.622,0.424,0.377,0.842*62
$GPGBS,221457.00,2.590,2.390,5.322,68,0.0001,6.355,6.129*5E
$GPGRS,221457.00,1,0.0,0.3,0.1,-0.1,0.1,0.1,-1.6,-0.3,0.1,,,*4C
$GPGRS,221457.00,1,6.4,-0.0,-0.8,-5.3,-1.8,-0.9,2.8,,,,,*4C
$GPGRS,221457.00,1,0.1,0.3,0.5,-1.7,0.2,0.1,0.1,-0.0,,,,*4A
$GPGRS,221457.00,1,2.1,-0.5,0.3,-0.1,0.6,-0.3,0.2,-0.2,-0.3,-2.7,-0.0,-1.7*48
$GPGSV,5,1,19,08,68,208,50,14,14,319,40,02,42,291,47,10,47,054,48*71
$GPGSV,5,2,19,27,41,162,47,32,43,110,48,21,64,300,46,24,01,032,*7C
$GPGSV,5,3,19,03,08,229,38,23,06,053,37,36,35,170,44,58,13,245,38*79
$GPGSV,5,4,19,57,12,107,37,49,34,195,43,40,24,132,35,34,31,208,42*7E
$GPGSV,5,5,19,41,07,108,34,61,03,257,38*72
$GLGSV,3,1,09,84,72,022,40,75,16,286,45,70,11,192,35,83,22,106,37*68
$GLGSV,3,2,09,76,11,343,44,85,30,310,48,68,43,043,51,69,63,137,52*6A
$GLGSV,3,3,09,74,00,240,*59
$GAGSV,3,1,09,26,78,028,48,31,29,289,43,29,11,169,38,13,29,087,43*6C
$GAGSV,3,2,09,23,25,232,,07,39,119,44,08,29,055,43,33,41,286,45*6D
$GAGSV,3,3,09,24,06,335,37*50
$GBGSV,6,1,23,27,76,299,51,32,13,203,42,31,10,077,,60,11,109,40*62
$GBGSV,6,2,23,13,17,054,40,05,24,128,39,14,25,045,42,29,18,297,*66
$GBGSV,6,3,23,30,24,303,45,33,49,061,49,41,60,163,51,28,55,124,50*67
$GBGSV,6,4,23,57,58,262,,16,06,062,,02,09,105,34,36,05,301,39*64
$GBGSV,6,5,23,39,09,073,39,20,06,195,,42,02,036,33,45,01,345,*6E
$GBGSV,6,6,23,06,00,094,,58,06,246,,08,08,051,36*5B
$GPGGA,221457.00,,,,,0,00,,,M,,M,,*4F
$PTNL,GGK,221457.00,010125,4742.1601359,N,01618.1006693,E,1,36,0.7,EHT751.6270,M*46
$GPGGQ,221457.00,010125,4742.1601359,N,01618.1006693,E,1,36,1.015,708.4204,M*37
$GPGFA,221457.00,4.251,6.902,0.447,0.350,30.622,0.842,,VVV*31
$GPLLK,221457.00,010125,,M,,M,1,36,0.8,,M*01
$GNGMP,221457.00,,,,,DAAA,36,0.4,,,,*50
$GPGMP,221457.00,,,,,,09,,,,3.1,136*75
$GLGMP,221457.00,,,,,,07,,,,,*7F
$GAGMP,221457.00,,,,,,08,,,,,*7D
$GBGMP,221457.00,,,,,,12,,,,,*75
$PSSN,SNC,[0,339315000,2347]*4A
$GPZDA,221502.00,01,01,2025,,*65
$GPDTM,W84,,00.0000000,N,00.0000000,E,00.0000000,W84*5F
$PSSN,TFM,221502.00,,,,*69
$GPRMC,221502.00,A,4742.1601337,N,01618.1006697,E,0.0,,010125,5.1,E,D*1E
$GPGLL,4742.1601337,N,01618.1006697,E,221502.00,A,D*6F
$GPGGA,221502.00,4742.1601337,N,01618.1006697,E,2,37,0.4,708.4212,M,43.2066,M,2.8,0136*43
$GNGNS,221502.00,4742.1601337,N,01618.1006697,E,DAAA,37,0.4,708.4212,43.2066,,*51
$GPGNS,221502.00,,,,,,09,,,,2.8,136*7C
$GLGNS,221502.00,,,,,,08,,,,,*71
$GAGNS,221502.00,,,,,,08,,,,,*7C
$GBGNS,221502.00,,,,,,12,,,,,*74
$GPLLQ,221502.00,010125,,M,,M,1,37,1.022,,M*12
$GPVTG,,T,,M,0.00,N,0.00,K,D*26
$GPHDT,,T*1B
$GPTHS,,V*0E
$GPROT,,V*08
$PSSN,HRP,221502.00,010125,,,,,,,00,0,,*67
$PTNL,AVR,221502.00,,Yaw,,Tilt,,,,0,,00*31
$GPGSA,A,3,02,03,08,10,14,21,23,27,32,,,,0.7,0.4,0.6*3C
$GPGSA,A,3,68,69,70,75,76,83,84,85,,,,,0.7,0.4,0.6*38
$GPGSA,A,3,07,08,13,24,26,29,31,33,,,,,0.7,0.4,0.6*31
$GPGSA,A,3,05,08,13,14,27,28,30,32,33,39,41,60,0.7,0.4,0.6*39
$GPGST,221502.00,1.758,0.451,0.348,31.005,0.426,0.378,0.848*6A
$GPGBS,221502.00,2.600,2.422,5.188,68,0.0001,6.038,6.130*59
$GPGRS,221502.00,1,0.1,-0.2,-0.2,0.2,0.0,0.2,-1.6,-0.3,0.1,,,*62
$GPGRS,221502.00,1,6.0,0.4,-0.9,-0.4,-5.0,-0.2,-0.8,3.1,,,,*67
$GPGRS,221502.00,1,0.3,0.3,0.9,-1.4,0.2,0.2,0.4,0.1,,,,*6C
$GPGRS,221502.00,1,2.2,-0.1,0.3,0.6,0.6,-0.0,0.4,-0.4,-0.2,-2.3,0.0,-1.4*4C
$GPGSV,5,1,19,08,68,208,51,14,14,319,40,02,42,291,47,10,47,054,48*70
$GPGSV,5,2,19,27,41,162,47,32,43,110,48,21,64,300,46,24,01,032,*7C
$GPGSV,5,3,19,03,08,229,38,23,06,053,37,36,35,170,44,58,13,245,38*79
$GPGSV,5,4,19,57,12,107,37,49,34,195,43,40,24,132,35,34,31,208,42*7E
$GPGSV,5,5,19,41,07,108,34,61,03,257,38*72
$GLGSV,3,1,09,84,72,023,39,75,16,286,44,70,11,192,35,83,22,106,37*66
$GLGSV,3,2,09,76,11,343,43,85,30,310,48,68,43,043,50,69,63,137,53*6D
$GLGSV,3,3,09,74,00,240,*59
$GAGSV,3,1,09,26,77,028,48,31,29,289,43,29,11,169,39,13,29,087,43*62
$GAGSV,3,2,09,23,25,232,,07,39,118,45,08,29,055,43,33,41,286,45*6D
$GAGSV,3,3,09,24,06,335,38*5F
$GBGSV,6,1,23,27,76,299,51,32,14,203,42,31,10,077,,60,11,109,40*65
$GBGSV,6,2,23,13,17,054,39,05,24,128,39,14,25,045,42,29,18,297,*68
$GBGSV,6,3,23,30,24,303,45,33,49,061,49,41,61,163,50,28,55,124,50*67
$GBGSV,6,4,23,57,58,262,,16,06,062,,02,09,105,34,36,05,301,37*6A
$GBGSV,6,5,23,39,09,073,39,20,06,195,,42,02,036,32,45,01,345,*6F
$GBGSV,6,6,23,06,00,094,,58,05,246,,08,08,051,36*58
$GPGGA,221502.00,,,,,0,00,,,M,,M,,*4E
$PTNL,GGK,221502.00,010125,4742.1601337,N,01618.1006697,E,1,37,0.7,EHT751.6277,M*4D
$GPGGQ,221502.00,010125,4742.1601337,N,01618.1006697,E,1,37,1.022,708.4212,M*38
$GPGFA,221502.00,4.289,6.955,0.451,0.348,31.005,0.848,,VVV*31
$GPLLK,221502.00,010125,,M,,M,1,37,0.8,,M*01
$GNGMP,221502.00,,,,,DAAA,37,0.4,,,,*50
$GPGMP,221502.00,,,,,,09,,,,2.8,136*7C
$GLGMP,221502.00,,,,,,08,,,,,*71
$GAGMP,221502.00,,,,,,08,,,,,*7C
$GBGMP,221502.00,,,,,,12,,,,,*74
$PSSN,SNC,[0,339320000,2347]*4C
$GPZDA,221507.00,01,01,2025,,*60
$GPDTM,W84,,00.0000000,N,00.0000000,E,00.0000000,W84*5F
$PSSN,TFM,221507.00,,,,*6C
$GPRMC,221507.00,A,4742.1601321,N,01618.1006680,E,0.0,,010125,5.1,E,D*1A
$GPGLL,4742.1601321,N,01618.1006680,E,221507.00,A,D*6B
$GPGGA,221507.00,4742.1601321,N,01618.1006680,E,2,37,0.4,708.4127,M,43.2066,M,1.6,0136*4F
$GNGNS,221507.00,4742.1601321,N,01618.1006680,E,DAAA,37,0.4,708.4127,43.2066,,*50
$GPGNS,221507.00,,,,,,09,,,,1.6,136*74
$GLGNS,221507.00,,,,,,08,,,,,*74
$GAGNS,221507.00,,,,,,08,,,,,*79
$GBGNS,221507.00,,,,,,12,,,,,*71
$GPLLQ,221507.00,010125,,M,,M,1,37,1.010,,M*16
$GPVTG,,T,,M,0.00,N,0.01,K,D*27
$GPHDT,,T*1B
$GPTHS,,V*0E
$GPROT,,V*08
$PSSN,HRP,221507.00,010125,,,,,,,00,0,,*62
$PTNL,AVR,221507.00,,Yaw,,Tilt,,,,0,,00*34
$GPGSA,A,3,02,03,08,10,14,21,23,27,32,,,,0.7,0.4,0.6*3C
$GPGSA,A,3,68,69,70,75,76,83,84,85,,,,,0.7,0.4,0.6*38
$GPGSA,A,3,07,08,13,24,26,29,31,33,,,,,0.7,0.4,0.6*31
$GPGSA,A,3,05,08,13,14,27,28,30,32,33,39,41,60,0.7,0.4,0.6*39
$GPGST,221507.00,1.927,0.446,0.345,32.226,0.420,0.377,0.837*63
$GPGBS,221507.00,2.497,2.425,5.133,76,0.0001,-5.956,6.307*71
$GPGRS,221507.00,1,0.1,-0.3,0.1,0.1,-0.5,0.1,-1.7,-0.3,0.4,,,*64
$GPGRS,221507.00,1,5.6,0.4,-1.4,-1.4,-6.0,0.1,-2.2,3.8,,,,*46
$GPGRS,221507.00,1,-0.1,0.2,0.4,-1.4,0.2,0.2,0.1,-0.0,,,,*63
$GPGRS,221507.00,1,1.7,0.2,0.1,1.3,0.5,0.0,-0.0,-0.3,-0.3,-2.6,0.4,-1.7*64
$GPGSV,5,1,19,08,68,208,50,14,14,319,40,02,42,292,46,10,47,054,48*73
$GPGSV,5,2,19,27,41,162,47,32,43,110,48,21,64,300,46,24,01,032,*7C
$GPGSV,5,3,19,03,08,229,37,23,06,053,37,36,35,170,44,58,13,245,38*76
$GPGSV,5,4,19,57,12,107,37,49,34,195,43,40,24,132,35,34,31,208,42*7E
$GPGSV,5,5,19,41,07,108,34,61,03,257,38*72
$GLGSV,2,1,08,84,72,023,39,75,16,286,44,70,11,192,35,83,22,106,37*66
$GLGSV,2,2,08,76,11,343,44,85,30,310,48,68,43,043,50,69,63,137,52*6B
$GAGSV,3,1,09,26,77,028,48,31,29,289,43,29,11,169,39,13,29,087,43*62
$GAGSV,3,2,09,23,25,232,,07,39,118,45,08,29,055,43,33,41,286,45*6D
$GAGSV,3,3,09,24,06,335,38*5F
$GBGSV,6,1,23,27,76,299,51,32,14,203,42,31,10,077,,60,11,109,40*65
$GBGSV,6,2,23,13,17,054,39,05,24,128,39,14,25,045,42,29,18,297,*68
$GBGSV,6,3,23,30,24,303,44,33,49,061,49,41,61,163,51,28,55,124,50*67
$GBGSV,6,4,23,57,58,262,,16,06,062,,02,09,105,34,36,05,301,37*6A
$GBGSV,6,5,23,39,09,073,39,20,06,195,,42,02,036,31,45,01,345,*6C
$GBGSV,6,6,23,06,00,094,,58,05,246,,08,08,051,35*5B
$GPGGA,221507.00,,,,,0,00,,,M,,M,,*4B
$PTNL,GGK,221507.00,010125,4742.1601321,N,01618.1006680,E,1,37,0.7,EHT751.6192,M*41
$GPGGQ,221507.00,010125,4742.1601321,N,01618.1006680,E,1,37,1.010,708.4127,M*38
$GPGFA,221507.00,4.243,6.867,0.446,0.345,32.226,0.837,,VVV*31
$GPLLK,221507.00,010125,,M,,M,1,37,0.8,,M*04
$GNGMP,221507.00,,,,,DAAA,37,0.4,,,,*55
$GPGMP,221507.00,,,,,,09,,,,1.6,136*74
$GLGMP,221507.00,,,,,,08,,,,,*74
$GAGMP,221507.00,,,,,,08,,,,,*79
$GBGMP,221507.00,,,,,,12,,,,,*71
$PSSN,SNC,[0,339325000,2347]*49
$GPZDA,221512.00,01,01,2025,,*64
$GPDTM,W84,,00.0000000,N,00.0000000,E,00.0000000,W84*5F
$PSSN,TFM,221512.00,,,,*68
$GPRMC,221512.00,A,4742.1601306,N,01618.1006645,E,0.0,,010125,5.1,E,D*12
$GPGLL,4742.1601306,N,01618.1006645,E,221512.00,A,D*63
$GPGGA,221512.00,4742.1601306,N,01618.1006645,E,2,37,0.4,708.4114,M,43.2066,M,2.6,0136*44
$GNGNS,221512.00,4742.1601306,N,01618.1006645,E,DAAA,37,0.4,708.4114,43.2066,,*58
$GPGNS,221512.00,,,,,,09,,,,2.6,136*73
$GLGNS,221512.00,,,,,,08,,,,,*70
$GAGNS,221512.00,,,,,,08,,,,,*7D
$GBGNS,221512.00,,,,,,12,,,,,*75
$GPLLQ,221512.00,010125,,M,,M,1,37,1.000,,M*13
$GPVTG,,T,,M,0.00,N,0.01,K,D*27
$GPHDT,,T*1B
$GPTHS,,V*0E
$GPROT,,V*08
$PSSN,HRP,221512.00,010125,,,,,,,00,0,,*66
$PTNL,AVR,221512.00,,Yaw,,Tilt,,,,0,,00*30
$GPGSA,A,3,02,03,08,10,14,21,23,27,32,,,,0.7,0.4,0.6*3C
$GPGSA,A,3,68,69,70,75,76,83,84,85,,,,,0.7,0.4,0.6*38
$GPGSA,A,3,07,08,13,24,26,29,31,33,,,,,0.7,0.4,0.6*31
$GPGSA,A,3,05,08,13,14,27,28,30,32,33,39,41,60,0.7,0.4,0.6*39
$GPGST,221512.00,1.959,0.439,0.346,31.445,0.416,0.374,0.829*6C
$GPGBS,221512.00,2.524,2.456,5.194,76,0.0001,-6.481,6.306*70
$GPGRS,221512.00,1,0.1,0.2,-0.2,-0.0,0.0,0.1,-1.5,-0.1,0.1,,,*63
$GPGRS,221512.00,1,5.1,0.2,-1.2,-0.8,-6.5,-1.2,-3.0,3.3,,,,*6A
$GPGRS,221512.00,1,0.1,0.4,0.4,-1.6,0.2,0.1,0.2,-0.3,,,,*4D
$GPGRS,221512.00,1,2.1,-1.2,0.2,1.2,0.6,-0.1,0.1,-0.4,-0.3,-2.6,0.3,-1.8*47
$GPGSV,5,1,19,08,68,208,50,14,14,319,40,02,42,292,47,10,46,054,48*73
$GPGSV,5,2,19,27,40,162,46,32,43,110,48,21,64,301,46,24,01,032,*7D
$GPGSV,5,3,19,03,08,229,37,23,06,053,38,36,35,170,44,58,13,245,38*79
$GPGSV,5,4,19,57,12,107,37,49,34,195,43,40,24,132,35,34,31,208,42*7E
$GPGSV,5,5,19,41,07,108,34,61,03,257,38*72
$GLGSV,2,1,08,84,72,023,39,75,16,286,45,70,11,192,35,83,22,106,38*68
$GLGSV,2,2,08,76,11,343,44,85,30,310,48,68,43,043,50,69,63,137,52*6B
$GAGSV,3,1,09,26,77,028,48,31,29,289,43,29,11,169,39,13,29,087,43*62
$GAGSV,3,2,09,23,25,232,,07,39,118,44,08,29,055,43,33,41,286,45*6C
$GAGSV,3,3,09,24,06,335,38*5F
$GBGSV,6,1,23,27,76,299,51,32,14,203,41,31,10,077,,60,11,109,40*66
$GBGSV,6,2,23,13,17,054,40,05,24,128,39,14,25,045,43,29,18,297,*67
$GBGSV,6,3,23,30,24,303,45,33,49,061,49,41,61,163,51,28,55,124,50*66
$GBGSV,6,4,23,57,58,262,,16,06,062,,02,09,105,34,36,05,301,37*6A
$GBGSV,6,5,23,39,09,073,39,20,06,195,,42,02,036,31,45,01,345,*6C
$GBGSV,6,6,23,06,00,094,,58,05,246,,08,08,051,36*58
$GPGGA,221512.00,,,,,0,00,,,M,,M,,*4F
$PTNL,GGK,221512.00,010125,4742.1601306,N,01618.1006645,E,1,37,0.7,EHT751.6179,M*4C
$GPGGQ,221512.00,010125,4742.1601306,N,01618.1006645,E,1,37,1.000,708.4114,M*31
$GPGFA,221512.00,4.177,6.796,0.439,0.346,31.445,0.829,,VVV*34
$GPLLK,221512.00,010125,,M,,M,1,37,0.8,,M*00
$GNGMP,221512.00,,,,,DAAA,37,0.4,,,,*51
$GPGMP,221512.00,,,,,,09,,,,2.6,136*73
$GLGMP,221512.00,,,,,,08,,,,,*70
$GAGMP,221512.00,,,,,,08,,,,,*7D
$GBGMP,221512.00,,,,,,12,,,,,*75
$PSSN,SNC,[0,339330000,2347]*4D
$GPZDA,221517.00,01,01,2025,,*61
$GPDTM,W84,,00.0000000,N,00.0000000,E,00.0000000,W84*5F
$PSSN,TFM,221517.00,,,,*6D
$GPRMC,221517.00,A,4742.1601321,N,01618.1006673,E,0.0,,010125,5.1,E,D*17
$GPGLL,4742.1601321,N,01618.1006673,E,221517.00,A,D*66
$GPGGA,221517.00,4742.1601321,N,01618.1006673,E,2,37,0.4,708.4126,M,43.2066,M,3.1,0136*46
$GNGNS,221517.00,4742.1601321,N,01618.1006673,E,DAAA,37,0.4,708.4126,43.2066,,*5C
$GPGNS,221517.00,,,,,,09,,,,3.1,136*70
$GLGNS,221517.00,,,,,,08,,,,,*75
$GAGNS,221517.00,,,,,,08,,,,,*78
$GBGNS,221517.00,,,,,,12,,,,,*70
$GPLLQ,221517.00,010125,,M,,M,1,37,1.014,,M*13
$GPVTG,,T,,M,0.00,N,0.01,K,D*27
$GPHDT,,T*1B
$GPTHS,,V*0E
$GPROT,,V*08
$PSSN,HRP,221517.00,010125,,,,,,,00,0,,*63
$PTNL,AVR,221517.00,,Yaw,,Tilt,,,,0,,00*35
$GPGSA,A,3,02,03,08,10,14,21,23,27,32,,,,0.7,0.4,0.6*3C
$GPGSA,A,3,68,69,70,75,76,83,84,85,,,,,0.7,0.4,0.6*38
$GPGSA,A,3,07,08,13,24,26,29,31,33,,,,,0.7,0.4,0.6*31
$GPGSA,A,3,05,08,13,14,27,28,30,32,33,39,41,60,0.7,0.4,0.6*39
$GPGST,221517.00,1.962,0.446,0.350,30.674,0.423,0.377,0.842*67
$GPGBS,221517.00,2.546,2.391,5.259,68,0.0001,5.642,6.130*54
$GPGRS,221517.00,1,0.3,0.7,-0.2,-0.0,-0.6,-0.0,-1.4,-0.1,0.2,,,*64
$GPGRS,221517.00,1,5.6,0.3,-2.9,-0.5,-5.6,-1.1,-2.2,4.1,,,,*69
$GPGRS,221517.00,1,0.3,0.5,0.7,-1.9,0.2,0.0,0.1,-0.3,,,,*45
$GPGRS,221517.00,1,1.9,-0.2,0.1,1.2,0.7,-0.0,0.5,-0.3,-0.4,-1.7,0.2,-1.9*4D
$GPGSV,5,1,19,08,67,208,50,14,14,319,40,02,42,292,46,10,46,054,48*7D
$GPGSV,5,2,19,27,40,162,46,32,43,110,47,21,64,301,46,24,01,032,*72
$GPGSV,5,3,19,03,08,230,38,23,06,053,38,36,35,170,44,58,13,245,38*7E
$GPGSV,5,4,19,57,12,107,37,49,34,195,43,40,24,132,35,34,31,208,42*7E
$GPGSV,5,5,19,41,07,108,34,61,03,257,38*72
$GLGSV,2,1,08,84,72,023,40,75,16,286,45,70,11,192,35,83,22,106,37*69
$GLGSV,2,2,08,76,11,343,44,85,30,310,48,68,43,043,50,69,63,137,52*6B
$GAGSV,3,1,09,26,77,028,48,31,29,289,42,29,11,169,39,13,29,087,42*62
$GAGSV,3,2,09,23,25,232,,07,39,118,44,08,29,055,43,33,41,286,45*6C
$GAGSV,3,3,09,24,06,335,38*5F
$GBGSV,6,1,23,27,76,299,51,32,14,203,41,31,10,077,,60,11,109,40*66
$GBGSV,6,2,23,13,17,054,40,05,24,128,39,14,25,045,42,29,18,297,*66
$GBGSV,6,3,23,30,25,303,45,33,49,061,49,41,61,163,51,28,54,124,50*66
$GBGSV,6,4,23,57,58,262,,16,06,062,36,02,09,105,34,36,05,301,38*60
$GBGSV,6,5,23,39,09,073,39,20,06,195,,42,02,036,32,45,01,345,*6F
$GBGSV,6,6,23,06,00,094,,58,05,246,,08,08,051,36*58
$GPGGA,221517.00,,,,,0,00,,,M,,M,,*4A
$PTNL,GGK,221517.00,010125,4742.1601321,N,01618.1006673,E,1,37,0.7,EHT751.6192,M*4C
$GPGGQ,221517.00,010125,4742.1601321,N,01618.1006673,E,1,37,1.014,708.4126,M*30
$GPGFA,221517.00,4.237,6.901,0.446,0.350,30.674,0.842,,VVV*35
$GPLLK,221517.00,010125,,M,,M,1,37,0.8,,M*05
$GNGMP,221517.00,,,,,DAAA,37,0.4,,,,*54
$GPGMP,221517.00,,,,,,09,,,,3.1,136*70
$GLGMP,221517.00,,,,,,08,,,,,*75
$GAGMP,221517.00,,,,,,08,,,,,*78
$GBGMP,221517.00,,,,,,12,,,,,*70
$PSSN,SNC,[0,339335000,2347]*48
$GPZDA,221522.00,01,01,2025,,*67
$GPDTM,W84,,00.0000000,N,00.0000000,E,00.0000000,W84*5F
$PSSN,TFM,221522.00,,,,*6B
$GPRMC,221522.00,A,4742.1601332,N,01618.1006669,E,0.0,,010125,5.1,E,D*18
$GPGLL,4742.1601332,N,01618.1006669,E,221522.00,A,D*69
$GPGGA,221522.00,4742.1601332,N,01618.1006669,E,2,36,0.4,708.4166,M,43.2066,M,2.8,0136*44
$GNGNS,221522.00,4742.1601332,N,01618.1006669,E,DAAA,36,0.4,708.4166,43.2066,,*56
$GPGNS,221522.00,,,,,,09,,,,2.8,136*7E
$GLGNS,221522.00,,,,,,07,,,,,*7C
$GAGNS,221522.00,,,,,,08,,,,,*7E
$GBGNS,221522.00,,,,,,12,,,,,*76
$GPLLQ,221522.00,010125,,M,,M,1,36,1.024,,M*17
$GPVTG,,T,,M,0.00,N,0.00,K,D*26
$GPHDT,,T*1B
$GPTHS,,V*0E
$GPROT,,V*08
$PSSN,HRP,221522.00,010125,,,,,,,00,0,,*65
$PTNL,AVR,221522.00,,Yaw,,Tilt,,,,0,,00*33
$GPGSA,A,3,02,03,08,10,14,21,23,27,32,,,,0.7,0.4,0.6*3C
$GPGSA,A,3,68,69,75,76,83,84,85,,,,,,0.7,0.4,0.6*3F
$GPGSA,A,3,07,08,13,24,26,29,31,33,,,,,0.7,0.4,0.6*31
$GPGSA,A,3,05,08,13,14,27,28,30,32,33,39,41,60,0.7,0.4,0.6*39
$GPGST,221522.00,2.038,0.453,0.349,30.379,0.429,0.378,0.850*66
$GPGBS,221522.00,2.637,2.428,5.233,68,0.0001,6.258,6.130*52
$GPGRS,221522.00,1,0.2,0.7,-0.3,-0.0,-0.8,0.1,-1.5,-0.0,0.1,,,*43
$GPGRS,221522.00,1,6.3,0.6,-0.8,-5.6,-2.3,-1.5,4.2,,,,,*6F
$GPGRS,221522.00,1,0.1,0.4,0.6,-1.8,0.1,-0.0,0.1,-0.1,,,,*6C
$GPGRS,221522.00,1,2.1,-0.1,0.1,0.8,0.7,-0.2,0.4,-0.9,-0.5,-2.5,-0.0,-1.7*60
$GPGSV,5,1,19,08,67,208,50,14,14,319,40,02,43,292,47,10,46,054,48*7D
$GPGSV,5,2,19,27,40,162,47,32,43,110,48,21,64,301,46,24,01,032,*7C
$GPGSV,5,3,19,03,09,230,38,23,06,053,38,36,35,170,44,58,13,245,38*7F
$GPGSV,5,4,19,57,12,107,37,49,34,195,43,40,24,132,35,34,31,208,42*7E
$GPGSV,5,5,19,41,07,108,34,61,03,257,38*72
$GLGSV,2,1,08,84,72,023,39,75,16,286,45,70,11,192,34,83,22,106,36*67
$GLGSV,2,2,08,76,11,343,44,85,30,310,49,68,43,043,50,69,63,137,52*6A
$GAGSV,3,1,09,26,77,029,48,31,29,289,42,29,12,169,39,13,29,087,42*60
$GAGSV,3,2,09,23,24,232,,07,39,118,45,08,29,055,43,33,41,286,45*6C
$GAGSV,3,3,09,24,06,335,38*5F
$GBGSV,6,1,23,27,76,299,51,32,14,203,41,31,10,077,,60,11,109,40*66
$GBGSV,6,2,23,13,17,054,40,05,24,128,39,14,25,045,42,29,18,297,*66
$GBGSV,6,3,23,30,25,303,44,33,49,061,49,41,61,163,51,28,54,124,50*67
$GBGSV,6,4,23,57,58,262,,16,06,062,36,02,09,105,34,36,05,301,39*61
$GBGSV,6,5,23,39,09,073,39,20,06,196,,42,02,036,32,45,01,345,*6C
$GBGSV,6,6,23,06,00,094,,58,05,246,,08,08,051,36*58
$GPGGA,221522.00,,,,,0,00,,,M,,M,,*4C
$PTNL,GGK,221522.00,010125,4742.1601332,N,01618.1006669,E,1,36,0.7,EHT751.6231,M*48
$GPGGQ,221522.00,010125,4742.1601332,N,01618.1006669,E,1,36,1.024,708.4166,M*39
$GPGFA,221522.00,4.307,6.969,0.453,0.349,30.379,0.850,,VVV*38
$GPLLK,221522.00,010125,,M,,M,1,36,0.8,,M*02
$GNGMP,221522.00,,,,,DAAA,36,0.4,,,,*53
$GPGMP,221522.00,,,,,,09,,,,2.8,136*7E
$GLGMP,221522.00,,,,,,07,,,,,*7C
$GAGMP,221522.00,,,,,,08,,,,,*7E
$GBGMP,221522.00,,,,,,12,,,,,*76
$PSSN,SNC,[0,339340000,2347]*4A
$GPZDA,221527.00,01,01,2025,,*62
$GPDTM,W84,,00.0000000,N,00.0000000,E,00.0000000,W84*5F
$PSSN,TFM,221527.00,,,,*6E
$GPRMC,221527.00,A,4742.1601335,N,01618.1006660,E,0.0,,010125,5.1,E,D*13
$GPGLL,4742.1601335,N,01618.1006660,E,221527.00,A,D*62
$GPGGA,221527.00,4742.1601335,N,01618.1006660,E,2,36,0.4,708.4162,M,43.2066,M,1.6,0136*46
$GNGNS,221527.00,4742.1601335,N,01618.1006660,E,DAAA,36,0.4,708.4162,43.2066,,*59
$GPGNS,221527.00,,,,,,09,,,,1.6,136*76
$GLGNS,221527.00,,,,,,07,,,,,*79
$GAGNS,221527.00,,,,,,08,,,,,*7B
$GBGNS,221527.00,,,,,,12,,,,,*73
$GPLLQ,221527.00,010125,,M,,M,1,36,1.012,,M*17
$GPVTG,,T,,M,0.00,N,0.00,K,D*26
$GPHDT,,T*1B
$GPTHS,,V*0E
$GPROT,,V*08
$PSSN,HRP,221527.00,010125,,,,,,,00,0,,*60
$PTNL,AVR,221527.00,,Yaw,,Tilt,,,,0,,00*36
$GPGSA,A,3,02,03,08,10,14,21,23,27,32,,,,0.7,0.4,0.6*3C
$GPGSA,A,3,68,69,75,76,83,84,85,,,,,,0.7,0.4,0.6*3F
$GPGSA,A,3,07,08,13,24,26,29,31,33,,,,,0.7,0.4,0.6*31
$GPGSA,A,3,05,08,13,14,27,28,30,32,33,39,41,60,0.7,0.4,0.6*39
$GPGST,221527.00,1.983,0.448,0.346,31.599,0.422,0.377,0.838*6F
$GPGBS,221527.00,2.529,2.428,5.177,68,0.0001,6.258,6.131*59
$GPGRS,221527.00,1,0.3,0.2,-0.1,0.2,-0.4,-0.1,-1.8,-0.2,0.3,,,*43
$GPGRS,221527.00,1,6.3,0.5,-1.0,-5.6,-1.2,-1.9,3.7,,,,,*6C
$GPGRS,221527.00,1,0.4,0.4,0.7,-2.1,0.2,-0.0,0.1,0.0,,,,*48
$GPGRS,221527.00,1,1.8,-0.8,0.0,-0.0,0.7,-0.1,-0.0,-0.7,-0.4,-2.5,-0.1,-1.7*66
$GPGSV,5,1,19,08,67,208,51,14,14,319,40,02,43,292,47,10,46,054,48*7C
$GPGSV,5,2,19,27,40,162,47,32,43,110,48,21,64,301,46,24,01,032,*7C
$GPGSV,5,3,19,03,09,230,39,23,06,053,38,36,35,170,44,58,13,245,38*7E
$GPGSV,5,4,19,57,12,107,37,49,34,195,44,40,24,132,35,34,31,208,42*79
$GPGSV,5,5,19,41,07,108,34,61,03,257,38*72
$GLGSV,2,1,08,84,72,023,39,75,16,286,45,70,11,192,35,83,22,106,36*66
$GLGSV,2,2,08,76,11,343,44,85,30,310,48,68,43,043,50,69,63,137,52*6B
$GAGSV,3,1,09,26,77,029,48,31,29,289,43,29,12,169,39,13,29,087,43*60
$GAGSV,3,2,09,23,24,232,,07,39,118,45,08,29,055,43,33,41,287,45*6D
$GAGSV,3,3,09,24,06,335,38*5F
$GBGSV,6,1,23,27,76,299,51,32,14,203,41,31,10,077,,60,11,109,40*66
$GBGSV,6,2,23,13,17,054,40,05,24,128,39,14,25,045,42,29,18,297,*66
$GBGSV,6,3,23,30,25,303,44,33,49,061,49,41,61,163,51,28,54,124,50*67
$GBGSV,6,4,23,57,58,262,,16,06,062,36,02,09,105,34,36,05,301,39*61
$GBGSV,6,5,23,39,09,073,39,20,06,196,,42,02,036,31,45,01,345,*6F
$GBGSV,6,6,23,06,00,094,,58,05,246,,08,08,051,36*58
$GPGGA,221527.00,,,,,0,00,,,M,,M,,*49
$PTNL,GGK,221527.00,010125,4742.1601335,N,01618.1006660,E,1,36,0.7,EHT751.6228,M*4B
$GPGGQ,221527.00,010125,4742.1601335,N,01618.1006660,E,1,36,1.012,708.4162,M*33
$GPGFA,221527.00,4.257,6.875,0.448,0.346,31.599,0.838,,VVV*37
$GPLLK,221527.00,010125,,M,,M,1,36,0.8,,M*07
$GNGMP,221527.00,,,,,DAAA,36,0.4,,,,*56
$GPGMP,221527.00,,,,,,09,,,,1.6,136*76
$GLGMP,221527.00,,,,,,07,,,,,*79
$GAGMP,221527.00,,,,,,08,,,,,*7B
$GBGMP,221527.00,,,,,,12,,,,,*73
$PSSN,SNC,[0,339345000,2347]*4F
$GPZDA,221532.00,01,01,2025,,*66
$GPDTM,W84,,00.0000000,N,00.0000000,E,00.0000000,W84*5F
$PSSN,TFM,221532.00,,,,*6A
$GPRMC,221532.00,A,4742.1601334,N,01618.1006636,E,0.0,,010125,5.1,E,D*15
$GPGLL,4742.1601334,N,01618.1006636,E,221532.00,A,D*64
$GPGGA,221532.00,4742.1601334,N,01618.1006636,E,2,36,0.4,708.4151,M,43.2066,M,2.6,0136*43
$GNGNS,221532.00,4742.1601334,N,01618.1006636,E,DAAA,36,0.4,708.4151,43.2066,,*5F
$GPGNS,221532.00,,,,,,09,,,,2.6,136*71
$GLGNS,221532.00,,,,,,07,,,,,*7D
$GAGNS,221532.00,,,,,,08,,,,,*7F
$GBGNS,221532.00,,,,,,12,,,,,*77
$GPLLQ,221532.00,010125,,M,,M,1,36,1.002,,M*12
$GPVTG,,T,,M,0.00,N,0.01,K,D*27
$GPHDT,,T*1B
$GPTHS,,V*0E
$GPROT,,V*08
$PSSN,HRP,221532.00,010125,,,,,,,00,0,,*64
$PTNL,AVR,221532.00,,Yaw,,Tilt,,,,0,,00*32
$GPGSA,A,3,02,03,08,10,14,21,23,27,32,,,,0.7,0.4,0.6*3C
$GPGSA,A,3,68,69,75,76,83,84,85,,,,,,0.7,0.4,0.6*3F
$GPGSA,A,3,07,08,13,24,26,29,31,33,,,,,0.7,0.4,0.6*31
$GPGSA,A,3,05,08,13,14,27,28,30,32,33,39,41,60,0.7,0.4,0.6*39
$GPGST,221532.00,1.999,0.441,0.346,30.798,0.418,0.374,0.830*69
$GPGBS,221532.00,2.557,2.460,5.238,76,0.0001,-6.119,6.305*71
$GPGRS,221532.00,1,-0.0,-0.1,-0.1,0.2,0.1,-0.1,-2.2,-0.1,0.2,,,*64
$GPGRS,221532.00,1,5.9,0.1,-1.8,-6.1,-0.4,-2.1,3.5,,,,,*67
$GPGRS,221532.00,1,0.0,0.4,0.6,-2.1,0.1,-0.1,0.2,-0.3,,,,*66
$GPGRS,221532.00,1,1.5,-0.2,0.1,-0.9,0.6,-0.0,0.7,-0.1,-0.4,-2.5,0.1,-2.0*68
$GPGSV,5,1,19,08,67,208,50,14,14,319,40,02,43,292,47,10,46,054,48*7D
$GPGSV,5,2,19,27,40,162,47,32,43,110,48,21,64,301,46,24,01,032,*7C
$GPGSV,5,3,19,03,09,230,38,23,06,053,38,36,35,170,44,58,13,245,37*70
$GPGSV,5,4,19,57,12,107,37,49,34,195,43,40,24,132,34,34,31,208,42*7F
$GPGSV,5,5,19,41,07,108,34,61,03,257,38*72
$GLGSV,2,1,08,84,72,024,39,75,16,286,45,70,11,192,35,83,22,106,37*60
$GLGSV,2,2,08,76,11,343,45,85,30,310,49,68,43,043,50,69,63,137,53*6A
$GAGSV,3,1,09,26,77,029,48,31,29,289,43,29,12,169,38,13,29,087,43*61
$GAGSV,3,2,09,23,24,232,,07,39,118,45,08,29,055,43,33,41,287,44*6C
$GAGSV,3,3,09,24,06,335,37*50
$GBGSV,6,1,23,27,76,299,51,32,14,203,41,31,10,077,,60,11,109,40*66
$GBGSV,6,2,23,13,17,054,40,05,24,128,39,14,25,045,41,29,18,297,*65
$GBGSV,6,3,23,30,25,303,45,33,49,061,50,41,61,163,51,28,54,124,50*6E
$GBGSV,6,4,23,57,58,262,,16,06,062,36,02,09,105,34,36,05,301,38*60
$GBGSV,6,5,23,39,09,073,40,20,06,196,,42,02,036,31,45,01,345,*61
$GBGSV,6,6,23,06,00,094,,58,05,246,,08,08,051,36*58
$GPGGA,221532.00,,,,,0,00,,,M,,M,,*4D
$PTNL,GGK,221532.00,010125,4742.1601334,N,01618.1006636,E,1,36,0.7,EHT751.6216,M*40
$GPGGQ,221532.00,010125,4742.1601334,N,01618.1006636,E,1,36,1.002,708.4151,M*34
$GPGFA,221532.00,4.191,6.805,0.441,0.346,30.798,0.830,,VVV*3E
$GPLLK,221532.00,010125,,M,,M,1,36,0.8,,M*03
$GNGMP,221532.00,,,,,DAAA,36,0.4,,,,*52
$GPGMP,221532.00,,,,,,09,,,,2.6,136*71
$GLGMP,221532.00,,,,,,07,,,,,*7D
$GAGMP,221532.00,,,,,,08,,,,,*7F
$GBGMP,221532.00,,,,,,12,,,,,*77
$PSSN,SNC,[0,339350000,2347]*4B
$GPZDA,221537.00,01,01,2025,,*63
$GPDTM,W84,,00.0000000,N,00.0000000,E,00.0000000,W84*5F
$PSSN,TFM,221537.00,,,,*6F
$GPRMC,221537.00,A,4742.1601316,N,01618.1006604,E,0.0,,010125,5.1,E,D*11
$GPGLL,4742.1601316,N,01618.1006604,E,221537.00,A,D*60
$GPGGA,221537.00,4742.1601316,N,01618.1006604,E,2,37,0.4,708.4126,M,43.2066,M,3.1,0136*40
$GNGNS,221537.00,4742.1601316,N,01618.1006604,E,DAAA,37,0.4,708.4126,43.2066,,*5A
$GPGNS,221537.00,,,,,,09,,,,3.1,136*72
$GLGNS,221537.00,,,,,,08,,,,,*77
$GAGNS,221537.00,,,,,,08,,,,,*7A
$GBGNS,221537.00,,,,,,12,,,,,*72
$GPLLQ,221537.00,010125,,M,,M,1,37,1.014,,M*11
$GPVTG,,T,,M,0.01,N,0.01,K,D*26
$GPHDT,,T*1B
$GPTHS,,V*0E
$GPROT,,V*08
$PSSN,HRP,221537.00,010125,,,,,,,00,0,,*61
$PTNL,AVR,221537.00,,Yaw,,Tilt,,,,0,,00*37
$GPGSA,A,3,02,03,08,10,14,21,23,27,32,,,,0.7,0.4,0.6*3C
$GPGSA,A,3,68,69,70,75,76,83,84,85,,,,,0.7,0.4,0.6*38
$GPGSA,A,3,07,08,13,24,26,29,31,33,,,,,0.7,0.4,0.6*31
$GPGSA,A,3,05,08,13,14,27,28,30,32,33,39,41,60,0.7,0.4,0.6*39
$GPGST,221537.00,1.936,0.445,0.350,30.671,0.422,0.377,0.841*60
$GPGBS,221537.00,2.541,2.391,5.250,68,0.0001,5.728,6.131*54
$GPGRS,221537.00,1,0.1,-0.3,-0.2,0.1,-0.1,-0.0,-1.7,-0.1,0.3,,,*64
$GPGRS,221537.00,1,5.7,0.8,-1.8,-1.2,-5.5,0.7,-2.4,4.0,,,,*4B
$GPGRS,221537.00,1,0.3,0.4,1.0,-1.5,0.4,0.3,0.2,0.5,,,,*61
$GPGRS,221537.00,1,1.8,0.3,0.8,-0.5,0.6,-0.1,0.5,0.6,-0.1,-2.5,0.3,-1.7*63
$GPGSV,5,1,19,08,67,208,50,14,14,319,41,02,43,292,46,10,46,054,48*7D
$GPGSV,5,2,19,27,40,162,47,32,43,110,48,21,64,301,46,24,01,032,*7C
$GPGSV,5,3,19,03,09,230,38,23,06,053,38,36,35,170,44,58,13,245,37*70
$GPGSV,5,4,19,57,12,107,37,49,34,195,43,40,24,132,34,34,31,208,42*7F
$GPGSV,5,5,19,41,07,108,34,61,03,257,38*72
$GLGSV,2,1,08,84,72,024,40,75,16,286,44,70,11,192,35,83,22,106,38*60
$GLGSV,2,2,08,76,11,343,44,85,30,310,49,68,42,043,50,69,63,137,53*6A
$GAGSV,3,1,09,26,77,029,48,31,29,289,43,29,12,169,38,13,29,087,43*61
$GAGSV,3,2,09,23,24,232,,07,39,118,45,08,29,054,43,33,41,287,45*6C
$GAGSV,3,3,09,24,06,335,37*50
$GBGSV,6,1,23,27,76,299,51,32,14,203,42,31,10,077,,60,11,109,40*65
$GBGSV,6,2,23,13,17,054,40,05,24,128,39,14,25,045,42,29,18,297,*66
$GBGSV,6,3,23,30,25,303,44,33,49,061,49,41,61,163,51,28,54,124,50*67
$GBGSV,6,4,23,57,58,262,,16,06,062,37,02,09,105,34,36,05,300,38*60
$GBGSV,6,5,23,39,09,073,39,20,07,196,,42,02,036,31,45,01,345,*6E
$GBGSV,6,6,23,06,00,094,,58,05,246,,08,08,051,36*58
$GPGGA,221537.00,,,,,0,00,,,M,,M,,*48
$PTNL,GGK,221537.00,010125,4742.1601316,N,01618.1006604,E,1,37,0.7,EHT751.6191,M*49
$GPGGQ,221537.00,010125,4742.1601316,N,01618.1006604,E,1,37,1.014,708.4126,M*36
$GPGFA,221537.00,4.227,6.899,0.445,0.350,30.671,0.841,,VVV*33
$GPLLK,221537.00,010125,,M,,M,1,37,0.8,,M*07
$GNGMP,221537.00,,,,,DAAA,37,0.4,,,,*56
$GPGMP,221537.00,,,,,,09,,,,3.1,136*72
$GLGMP,221537.00,,,,,,08,,,,,*77
$GAGMP,221537.00,,,,,,08,,,,,*7A
$GBGMP,221537.00,,,,,,12,,,,,*72
$PSSN,SNC,[0,339355000,2347]*4E
$GPZDA,221542.00,01,01,2025,,*61
$GPDTM,W84,,00.0000000,N,00.0000000,E,00.0000000,W84*5F
$PSSN,TFM,221542.00,,,,*6D
$GPRMC,221542.00,A,4742.1601296,N,01618.1006590,E,0.0,,010125,5.1,E,D*14
$GPGLL,4742.1601296,N,01618.1006590,E,221542.00,A,D*65
$GPGGA,221542.00,4742.1601296,N,01618.1006590,E,2,37,0.4,708.4098,M,43.2065,M,2.8,0136*4A
$GNGNS,221542.00,4742.1601296,N,01618.1006590,E,DAAA,37,0.4,708.4098,43.2065,,*58
$GPGNS,221542.00,,,,,,09,,,,2.8,136*78
$GLGNS,221542.00,,,,,,08,,,,,*75
$GAGNS,221542.00,,,,,,08,,,,,*78
$GBGNS,221542.00,,,,,,12,,,,,*70
$GPLLQ,221542.00,010125,,M,,M,1,37,1.022,,M*16
$GPVTG,,T,,M,0.00,N,0.00,K,D*26
$GPHDT,,T*1B
$GPTHS,,V*0E
$GPROT,,V*08
$PSSN,HRP,221542.00,010125,,,,,,,00,0,,*63
$PTNL,AVR,221542.00,,Yaw,,Tilt,,,,0,,00*35
$GPGSA,A,3,02,03,08,10,14,21,23,27,32,,,,0.7,0.4,0.6*3C
$GPGSA,A,3,68,69,70,75,76,83,84,85,,,,,0.7,0.4,0.6*38
$GPGSA,A,3,07,08,13,24,26,29,31,33,,,,,0.7,0.4,0.6*31
$GPGSA,A,3,05,08,13,14,27,28,30,32,33,39,41,60,0.7,0.4,0.6*39
$GPGST,221542.00,1.842,0.449,0.348,30.934,0.425,0.378,0.849*6B
$GPGBS,221542.00,2.593,2.416,5.170,68,0.0001,5.483,6.131*52
$GPGRS,221542.00,1,0.2,-0.1,-0.2,0.0,0.0,0.2,-1.7,-0.0,0.1,,,*66
$GPGRS,221542.00,1,5.5,0.6,-0.7,-1.5,-5.5,-0.1,-1.3,3.3,,,,*67
$GPGRS,221542.00,1,0.4,0.4,0.8,-1.3,0.2,-0.0,-0.1,0.4,,,,*6C
$GPGRS,221542.00,1,2.3,1.2,0.4,0.6,0.6,-0.0,0.1,0.8,-0.7,-2.9,0.1,-1.8*47
$GPGSV,5,1,19,08,67,208,50,14,14,319,40,02,43,292,46,10,46,054,48*7C
$GPGSV,5,2,19,27,40,162,47,32,43,110,48,21,64,301,46,24,01,032,*7C
$GPGSV,5,3,19,03,09,230,38,23,06,053,37,36,35,170,44,58,13,245,37*7F
$GPGSV,5,4,19,57,12,107,37,49,34,195,43,40,24,132,34,34,31,208,42*7F
$GPGSV,5,5,19,41,07,108,34,61,03,257,38*72
$GLGSV,2,1,08,84,72,024,39,75,16,286,44,70,11,192,36,83,22,106,37*62
$GLGSV,2,2,08,76,11,343,45,85,30,310,48,68,42,043,50,69,63,137,53*6A
$GAGSV,3,1,09,26,77,029,48,31,29,289,43,29,12,169,38,13,29,087,43*61
$GAGSV,3,2,09,23,24,232,,07,39,118,45,08,29,054,43,33,41,287,45*6C
$GAGSV,3,3,09,24,06,335,37*50
$GBGSV,6,1,23,27,76,299,51,32,14,203,42,31,10,077,,60,11,109,40*65
$GBGSV,6,2,23,13,16,054,40,05,24,128,39,14,25,045,42,29,18,297,*67
$GBGSV,6,3,23,30,25,303,44,33,49,061,49,41,61,163,50,28,54,124,50*66
$GBGSV,6,4,23,57,58,262,,16,06,062,37,02,09,105,34,36,05,300,38*60
$GBGSV,6,5,23,39,09,073,39,20,07,196,,42,02,036,31,45,01,345,*6E
$GBGSV,6,6,23,06,01,094,,58,05,246,,08,08,051,36*59
$GPGGA,221542.00,,,,,0,00,,,M,,M,,*4A
$PTNL,GGK,221542.00,010125,4742.1601296,N,01618.1006590,E,1,37,0.7,EHT751.6163,M*41
$GPGGQ,221542.00,010125,4742.1601296,N,01618.1006590,E,1,37,1.022,708.4098,M*32
$GPGFA,221542.00,4.274,6.959,0.449,0.348,30.934,0.849,,VVV*39
$GPLLK,221542.00,010125,,M,,M,1,37,0.8,,M*05
$GNGMP,221542.00,,,,,DAAA,37,0.4,,,,*54
$GPGMP,221542.00,,,,,,09,,,,2.8,136*78
$GLGMP,221542.00,,,,,,08,,,,,*75
$GAGMP,221542.00,,,,,,08,,,,,*78
$GBGMP,221542.00,,,,,,12,,,,,*70
$PSSN,SNC,[0,339360000,2347]*48
$GPZDA,221547.00,01,01,2025,,*64
$GPDTM,W84,,00.0000000,N,00.0000000,E,00.0000000,W84*5F
$PSSN,TFM,221547.00,,,,*68
$GPRMC,221547.00,A,4742.1601300,N,01618.1006617,E,0.0,,010125,5.1,E,D*13
$GPGLL,4742.1601300,N,01618.1006617,E,221547.00,A,D*62
$GPGGA,221547.00,4742.1601300,N,01618.1006617,E,2,37,0.4,708.4098,M,43.2066,M,1.6,0136*43
$GNGNS,221547.00,4742.1601300,N,01618.1006617,E,DAAA,37,0.4,708.4098,43.2066,,*5C
$GPGNS,221547.00,,,,,,09,,,,1.6,136*70
$GLGNS,221547.00,,,,,,08,,,,,*70
$GAGNS,221547.00,,,,,,08,,,,,*7D
$GBGNS,221547.00,,,,,,12,,,,,*75
$GPLLQ,221547.00,010125,,M,,M,1,37,1.009,,M*1A
$GPVTG,,T,,M,0.01,N,0.01,K,D*26
$GPHDT,,T*1B
$GPTHS,,V*0E
$GPROT,,V*08
$PSSN,HRP,221547.00,010125,,,,,,,00,0,,*66
$PTNL,AVR,221547.00,,Yaw,,Tilt,,,,0,,00*30
$GPGSA,A,3,02,03,08,10,14,21,23,27,32,,,,0.7,0.4,0.6*3C
$GPGSA,A,3,68,69,70,75,76,83,84,85,,,,,0.7,0.4,0.6*38
$GPGSA,A,3,07,08,13,24,26,29,31,33,,,,,0.7,0.4,0.6*31
$GPGSA,A,3,05,08,13,14,27,28,30,32,33,39,41,60,0.7,0.4,0.6*39
$GPGST,221547.00,1.974,0.444,0.346,32.163,0.419,0.376,0.837*69
$GPGBS,221547.00,2.489,2.419,5.120,68,0.0001,6.078,6.131*54
$GPGRS,221547.00,1,0.4,-0.0,0.0,0.0,-0.5,0.0,-1.6,-0.2,-0.1,,,*4F
$GPGRS,221547.00,1,6.1,0.5,-0.4,-1.2,-5.9,-1.2,-2.3,3.0,,,,*6C
$GPGRS,221547.00,1,0.2,0.2,0.7,-1.3,0.2,-0.0,0.4,0.5,,,,*4F
$GPGRS,221547.00,1,2.1,0.2,1.1,0.7,0.7,0.1,0.2,0.5,-0.3,-3.5,0.2,-1.6*63
$GPGSV,5,1,19,08,67,208,50,14,14,319,40,02,43,292,46,10,46,054,48*7C
$GPGSV,5,2,19,27,40,162,47,32,43,110,47,21,64,301,46,24,01,032,*73
$GPGSV,5,3,19,03,09,230,37,23,06,053,37,36,35,170,44,58,13,245,37*70
$GPGSV,5,4,19,57,12,107,37,49,34,195,43,40,24,132,34,34,31,208,42*7F
$GPGSV,5,5,19,41,07,108,34,61,03,257,37*7D
$GLGSV,2,1,08,84,72,024,39,75,16,286,44,70,11,192,35,83,22,106,36*60
$GLGSV,2,2,08,76,11,343,44,85,30,310,48,68,42,043,50,69,64,137,53*6C
$GAGSV,3,1,09,26,77,029,48,31,29,289,43,29,12,169,38,13,29,087,43*61
$GAGSV,3,2,09,23,24,232,,07,39,118,45,08,29,054,43,33,41,287,45*6C
$GAGSV,3,3,09,24,06,335,37*50
$GBGSV,6,1,23,27,76,299,51,32,14,203,43,31,10,077,,60,11,109,40*64
$GBGSV,6,2,23,13,16,054,41,05,24,128,39,14,25,045,42,29,18,297,*66
$GBGSV,6,3,23,30,25,303,44,33,49,061,49,41,61,163,50,28,54,124,50*66
$GBGSV,6,4,23,57,59,262,,16,05,082,37,02,09,105,34,36,05,300,38*6C
$GBGSV,6,5,23,39,09,073,39,20,07,196,,42,01,036,31,45,01,345,*6D
$GBGSV,6,6,23,06,01,094,,58,05,246,,08,08,051,35*5A
$GPGGA,221547.00,,,,,0,00,,,M,,M,,*4F
$PTNL,GGK,221547.00,010125,4742.1601300,N,01618.1006617,E,1,37,0.7,EHT751.6164,M*41
$GPGGQ,221547.00,010125,4742.1601300,N,01618.1006617,E,1,37,1.009,708.4098,M*3C
$GPGFA,221547.00,4.226,6.866,0.444,0.346,32.163,0.837,,VVV*34
$GPLLK,221547.00,010125,,M,,M,1,37,0.8,,M*00
$GNGMP,221547.00,,,,,DAAA,37,0.4,,,,*51
$GPGMP,221547.00,,,,,,09,,,,1.6,136*70
$GLGMP,221547.00,,,,,,08,,,,,*70
$GAGMP,221547.00,,,,,,08,,,,,*7D
$GBGMP,221547.00,,,,,,12,,,,,*75
$PSSN,SNC,[0,339365000,2347]*4D
$GPZDA,221552.00,01,01,2025,,*60
$GPDTM,W84,,00.0000000,N,00.0000000,E,00.0000000,W84*5F
$PSSN,TFM,221552.00,,,,*6C
$GPRMC,221552.00,A,4742.1601279,N,01618.1006624,E,0.0,,010125,5.1,E,D*18
$GPGLL,4742.1601279,N,01618.1006624,E,221552.00,A,D*69
$GPGGA,221552.00,4742.1601279,N,01618.1006624,E,2,37,0.4,708.4051,M,43.2066,M,2.6,0136*4E
$GNGNS,221552.00,4742.1601279,N,01618.1006624,E,DAAA,37,0.4,708.4051,43.2066,,*52
$GPGNS,221552.00,,,,,,09,,,,2.6,136*77
$GLGNS,221552.00,,,,,,08,,,,,*74
$GAGNS,221552.00,,,,,,08,,,,,*79
$GBGNS,221552.00,,,,,,12,,,,,*71
$GPLLQ,221552.00,010125,,M,,M,1,37,1.002,,M*15
$GPVTG,,T,,M,0.00,N,0.01,K,D*27
$GPHDT,,T*1B
$GPTHS,,V*0E
$GPROT,,V*08
$PSSN,HRP,221552.00,010125,,,,,,,00,0,,*62
$PTNL,AVR,221552.00,,Yaw,,Tilt,,,,0,,00*34
$GPGSA,A,3,02,03,08,10,14,21,23,27,32,,,,0.7,0.4,0.6*3C
$GPGSA,A,3,68,69,70,75,76,83,84,85,,,,,0.7,0.4,0.6*38
$GPGSA,A,3,07,08,13,24,26,29,31,33,,,,,0.7,0.4,0.6*31
$GPGSA,A,3,05,08,13,14,27,28,30,32,33,39,41,60,0.7,0.4,0.6*39
$GPGST,221552.00,2.023,0.439,0.347,31.064,0.416,0.373,0.831*67
$GPGBS,221552.00,2.517,2.451,5.180,68,0.0001,5.881,6.131*5D
$GPGRS,221552.00,1,0.3,-0.9,-0.1,0.1,0.1,0.1,-1.1,-0.5,0.3,,,*6F
$GPGRS,221552.00,1,5.9,0.7,-2.6,-0.2,-5.7,-2.5,-2.1,3.6,,,,*6E
$GPGRS,221552.00,1,-0.0,0.0,0.5,-1.4,0.4,-0.1,0.3,0.2,,,,*64
$GPGRS,221552.00,1,1.9,-1.2,1.6,-0.0,0.6,-0.1,0.3,-0.1,-0.1,-3.2,0.4,-1.4*68
$GPGSV,5,1,19,08,67,208,50,14,14,319,39,02,43,292,47,10,46,054,48*73
$GPGSV,5,2,19,27,40,162,47,32,43,110,48,21,64,301,46,24,01,032,*7C
$GPGSV,5,3,19,03,09,230,37,23,06,053,37,36,35,170,44,58,13,245,37*70
$GPGSV,5,4,19,57,12,107,37,49,34,195,44,40,24,132,34,34,31,208,42*78
$GPGSV,5,5,19,41,07,108,34,61,03,257,37*7D
$GLGSV,2,1,08,84,72,024,39,75,16,286,45,70,11,192,35,83,22,107,37*61
$GLGSV,2,2,08,76,11,343,44,85,30,310,48,68,42,042,50,69,64,136,53*6C
$GAGSV,3,1,09,26,77,029,48,31,29,289,43,29,12,169,38,13,29,087,43*61
$GAGSV,3,2,09,23,24,232,,07,39,118,45,08,29,054,43,33,41,287,45*6C
$GAGSV,3,3,09,24,06,335,37*50
$GBGSV,6,1,23,27,76,299,51,32,14,203,43,31,10,077,,60,11,109,40*64
$GBGSV,6,2,23,13,16,054,40,05,24,128,39,14,25,045,42,29,18,297,*67
$GBGSV,6,3,23,30,25,303,44,33,49,060,49,41,61,163,50,28,54,124,50*67
$GBGSV,6,4,23,57,59,262,,16,05,082,37,02,09,105,34,36,05,300,38*6C
$GBGSV,6,5,23,39,09,073,39,20,07,196,,42,01,036,30,45,01,345,*6C
$GBGSV,6,6,23,06,01,094,,58,05,246,,08,08,051,36*59
$GPGGA,221552.00,,,,,0,00,,,M,,M,,*4B
$PTNL,GGK,221552.00,010125,4742.1601279,N,01618.1006624,E,1,37,0.7,EHT751.6117,M*4E
$GPGGQ,221552.00,010125,4742.1601279,N,01618.1006624,E,1,37,1.002,708.4051,M*39
$GPGFA,221552.00,4.173,6.813,0.439,0.347,31.064,0.831,,VVV*39
$GPLLK,221552.00,010125,,M,,M,1,37,0.8,,M*04
$GNGMP,221552.00,,,,,DAAA,37,0.4,,,,*55
$GPGMP,221552.00,,,,,,09,,,,2.6,136*77
$GLGMP,221552.00,,,,,,08,,,,,*74
$GAGMP,221552.00,,,,,,08,,,,,*79
$GBGMP,221552.00,,,,,,12,,,,,*71
$PSSN,SNC,[0,339370000,2347]*49
$GPZDA,221557.00,01,01,2025,,*65
$GPDTM,W84,,00.0000000,N,00.0000000,E,00.0000000,W84*5F
$PSSN,TFM,221557.00,,,,*69
$GPRMC,221557.00,A,4742.1601266,N,01618.1006601,E,0.0,,010125,5.1,E,D*14
$GPGLL,4742.1601266,N,01618.1006601,E,221557.00,A,D*65
$GPGGA,221557.00,4742.1601266,N,01618.1006601,E,2,37,0.4,708.4013,M,43.2065,M,3.1,0136*41
$GNGNS,221557.00,4742.1601266,N,01618.1006601,E,DAAA,37,0.4,708.4013,43.2065,,*5B
$GPGNS,221557.00,,,,,,09,,,,3.1,136*74
$GLGNS,221557.00,,,,,,07,,,,,*7E
$GAGNS,221557.00,,,,,,08,,,,,*7C
$GBGNS,221557.00,,,,,,13,,,,,*75
$GPLLQ,221557.00,010125,,M,,M,1,37,1.016,,M*15
$GPVTG,,T,,M,0.01,N,0.02,K,D*25
$GPHDT,,T*1B
$GPTHS,,V*0E
$GPROT,,V*08
$PSSN,HRP,221557.00,010125,,,,,,,00,0,,*67
$PTNL,AVR,221557.00,,Yaw,,Tilt,,,,0,,00*31
$GPGSA,A,3,02,03,08,10,14,21,23,27,32,,,,0.7,0.4,0.6*3C
$GPGSA,A,3,68,69,75,76,83,84,85,,,,,,0.7,0.4,0.6*3F
$GPGSA,A,3,07,08,13,24,26,29,31,33,,,,,0.7,0.4,0.6*31
$GPGSA,A,3,05,08,13,14,16,27,28,30,32,33,39,41,0.7,0.4,0.6*38
$GPGSA,A,3,60,,,,,,,,,,,,0.7,0.4,0.6*31
$GPGST,221557.00,1.897,0.446,0.350,29.803,0.425,0.376,0.843*68
$GPGBS,221557.00,2.579,2.390,5.299,68,0.0001,5.221,6.132*52
$GPGRS,221557.00,1,0.1,0.1,-0.1,0.3,-0.6,0.0,-1.5,-0.3,0.2,,,*67
$GPGRS,221557.00,1,5.2,0.5,-0.4,-5.3,-1.4,-1.3,4.0,,,,,*65
$GPGRS,221557.00,1,-0.0,0.2,0.7,-1.4,0.4,-0.2,-0.1,0.0,,,,*4F
$GPGRS,221557.00,1,1.9,-1.9,1.5,0.2,0.1,0.7,-0.1,0.5,-1.2,-0.1,-3.6,0.4*62
$GPGRS,221557.00,1,-1.7,,,,,,,,,,,*4D
$GPGSV,5,1,19,08,67,208,50,14,14,319,39,02,43,292,47,10,46,054,48*73
$GPGSV,5,2,19,27,40,162,47,32,43,110,48,21,64,301,46,24,01,032,*7C
$GPGSV,5,3,19,03,09,230,38,23,06,053,37,36,35,170,44,58,13,245,37*7F
$GPGSV,5,4,19,57,12,107,37,49,34,195,43,40,24,132,35,34,31,208,42*7E
$GPGSV,5,5,19,41,07,108,33,61,03,257,38*75
$GLGSV,2,1,08,84,72,024,39,75,16,286,45,70,11,192,35,83,22,107,37*61
$GLGSV,2,2,08,76,11,343,45,85,30,310,47,68,42,042,50,69,64,136,53*62
$GAGSV,3,1,09,26,77,029,48,31,29,289,43,29,12,169,38,13,29,087,43*61
$GAGSV,3,2,09,23,24,232,,07,39,118,45,08,29,054,43,33,41,287,45*6C
$GAGSV,3,3,09,24,06,335,37*50
$GBGSV,6,1,23,27,76,299,51,32,14,203,42,31,10,077,,60,11,109,40*65
$GBGSV,6,2,23,13,16,054,40,05,24,128,39,14,25,045,42,29,18,297,*67
$GBGSV,6,3,23,30,25,303,44,33,49,060,49,41,61,163,50,28,54,124,50*67
$GBGSV,6,4,23,57,59,262,,16,05,082,37,02,09,105,34,36,05,300,38*6C
$GBGSV,6,5,23,39,09,073,38,20,07,196,,42,01,036,30,45,01,345,*6D
$GBGSV,6,6,23,06,01,094,,58,05,246,,08,08,051,36*59
$GPGGA,221557.00,,,,,0,00,,,M,,M,,*4E
$PTNL,GGK,221557.00,010125,4742.1601266,N,01618.1006601,E,1,37,0.7,EHT751.6078,M*4A
$GPGGQ,221557.00,010125,4742.1601266,N,01618.1006601,E,1,37,1.016,708.4013,M*36
$GPGFA,221557.00,4.244,6.910,0.446,0.350,29.803,0.843,,VVV*32
$GPLLK,221557.00,010125,,M,,M,1,37,0.8,,M*01
$GNGMP,221557.00,,,,,DAAA,37,0.4,,,,*50
$GPGMP,221557.00,,,,,,09,,,,3.1,136*74
$GLGMP,221557.00,,,,,,07,,,,,*7E
$GAGMP,221557.00,,,,,,08,,,,,*7C
$GBGMP,221557.00,,,,,,13,,,,,*75
$PSSN,SNC,[0,339375000,2347]*4C
$GPZDA,221602.00,01,01,2025,,*66
$GPDTM,W84,,00.0000000,N,00.0000000,E,00.0000000,W84*5F
$PSSN,TFM,221602.00,,,,*6A
$GPRMC,221602.00,A,4742.1601240,N,01618.1006590,E,0.0,,010125,5.1,E,D*18
$GPGLL,4742.1601240,N,01618.1006590,E,221602.00,A,D*69
$GPGGA,221602.00,4742.1601240,N,01618.1006590,E,2,37,0.4,708.3999,M,43.2065,M,2.8,0136*49
$GNGNS,221602.00,4742.1601240,N,01618.1006590,E,DAAA,37,0.4,708.3999,43.2065,,*5B
$GPGNS,221602.00,,,,,,09,,,,2.8,136*7F
$GLGNS,221602.00,,,,,,07,,,,,*7D
$GAGNS,221602.00,,,,,,08,,,,,*7F
$GBGNS,221602.00,,,,,,13,,,,,*76
$GPLLQ,221602.00,010125,,M,,M,1,37,1.023,,M*10
$GPVTG,,T,,M,0.00,N,0.01,K,D*27
$GPHDT,,T*1B
$GPTHS,,V*0E
$GPROT,,V*08
$PSSN,HRP,221602.00,010125,,,,,,,00,0,,*64
$PTNL,AVR,221602.00,,Yaw,,Tilt,,,,0,,00*32
$GPGSA,A,3,02,03,08,10,14,21,23,27,32,,,,0.7,0.4,0.6*3C
$GPGSA,A,3,68,69,75,76,83,84,85,,,,,,0.7,0.4,0.6*3F
$GPGSA,A,3,07,08,13,24,26,29,31,33,,,,,0.7,0.4,0.6*31
$GPGSA,A,3,05,08,13,14,16,27,28,30,32,33,39,41,0.7,0.4,0.6*38
$GPGSA,A,3,60,,,,,,,,,,,,0.7,0.4,0.6*31
$GPGST,221602.00,1.810,0.451,0.348,30.116,0.428,0.377,0.850*60
$GPGBS,221602.00,2.630,2.410,5.210,68,0.0001,5.015,6.132*54
$GPGRS,221602.00,1,0.1,0.7,-0.2,0.2,-0.2,-0.0,-1.8,-0.5,0.4,,,*44
$GPGRS,221602.00,1,5.0,0.3,-1.1,-5.0,-1.4,-1.2,3.5,,,,,*66
$GPGRS,221602.00,1,0.1,0.1,0.6,-1.5,0.1,-0.0,-0.1,-0.1,,,,*48
$GPGRS,221602.00,1,1.6,-1.2,0.8,1.1,-0.2,0.5,0.1,0.4,-1.8,-0.1,-3.6,0.2*67
$GPGRS,221602.00,1,-1.7,,,,,,,,,,,*4E
$GPGSV,5,1,19,08,67,207,50,14,14,319,40,02,43,292,47,10,46,054,48*72
$GPGSV,5,2,19,27,40,162,47,32,43,109,48,21,64,301,46,24,01,032,*74
$GPGSV,5,3,19,03,09,230,38,23,06,053,37,36,35,170,44,58,13,245,37*7F
$GPGSV,5,4,19,57,12,107,37,49,34,195,43,40,24,132,35,34,31,208,42*7E
$GPGSV,5,5,19,41,07,108,34,61,03,257,38*72
$GLGSV,2,1,08,84,72,024,39,75,16,286,45,70,11,192,35,83,22,107,37*61
$GLGSV,2,2,08,76,11,343,45,85,30,310,48,68,42,042,50,69,64,136,53*6D
$GAGSV,3,1,09,26,77,030,48,31,29,289,43,29,12,169,39,13,29,087,43*68
$GAGSV,3,2,09,23,24,232,,07,39,118,45,08,29,054,43,33,41,287,45*6C
$GAGSV,3,3,09,24,06,335,38*5F
$GBGSV,6,1,23,27,76,299,51,32,14,203,41,31,10,077,,60,11,109,40*66
$GBGSV,6,2,23,13,16,054,40,05,24,128,39,14,25,045,42,29,18,297,*67
$GBGSV,6,3,23,30,25,303,44,33,48,060,49,41,61,163,51,28,54,124,50*67
$GBGSV,6,4,23,57,59,262,,16,05,082,37,02,09,105,34,36,05,300,39*6D
$GBGSV,6,5,23,39,09,073,38,20,07,196,,42,01,036,31,45,01,345,*6C
$GBGSV,6,6,23,06,01,094,,58,05,246,,08,08,051,36*59
$GPGGA,221602.00,,,,,0,00,,,M,,M,,*4D
$PTNL,GGK,221602.00,010125,4742.1601240,N,01618.1006590,E,1,37,0.7,EHT751.6064,M*4B
$GPGGQ,221602.00,010125,4742.1601240,N,01618.1006590,E,1,37,1.023,708.3999,M*30
$GPGFA,221602.00,4.289,6.966,0.451,0.348,30.116,0.850,,VVV*39
$GPLLK,221602.00,010125,,M,,M,1,37,0.8,,M*02
$GNGMP,221602.00,,,,,DAAA,37,0.4,,,,*53
$GPGMP,221602.00,,,,,,09,,,,2.8,136*7F
$GLGMP,221602.00,,,,,,07,,,,,*7D
$GAGMP,221602.00,,,,,,08,,,,,*7F
$GBGMP,221602.00,,,,,,13,,,,,*76
$PSSN,SNC,[0,339380000,2347]*46
$GPZDA,221607.00,01,01,2025,,*63
$GPDTM,W84,,00.0000000,N,00.0000000,E,00.0000000,W84*5F
$PSSN,TFM,221607.00,,,,*6F
$GPRMC,221607.00,A,4742.1601230,N,01618.1006583,E,0.0,,010125,5.1,E,D*18
$GPGLL,4742.1601230,N,01618.1006583,E,221607.00,A,D*69
$GPGGA,221607.00,4742.1601230,N,01618.1006583,E,2,38,0.4,708.4026,M,43.2065,M,1.6,0136*41
$GNGNS,221607.00,4742.1601230,N,01618.1006583,E,DAAA,38,0.4,708.4026,43.2065,,*5E
$GPGNS,221607.00,,,,,,09,,,,1.6,136*77
$GLGNS,221607.00,,,,,,08,,,,,*77
$GAGNS,221607.00,,,,,,08,,,,,*7A
$GBGNS,221607.00,,,,,,13,,,,,*73
$GPLLQ,221607.00,010125,,M,,M,1,38,1.010,,M*1A
$GPVTG,,T,,M,0.01,N,0.01,K,D*26
$GPHDT,,T*1B
$GPTHS,,V*0E
$GPROT,,V*08
$PSSN,HRP,221607.00,010125,,,,,,,00,0,,*61
$PTNL,AVR,221607.00,,Yaw,,Tilt,,,,0,,00*37
$GPGSA,A,3,02,03,08,10,14,21,23,27,32,,,,0.7,0.4,0.6*3C
$GPGSA,A,3,68,69,70,75,76,83,84,85,,,,,0.7,0.4,0.6*38
$GPGSA,A,3,07,08,13,24,26,29,31,33,,,,,0.7,0.4,0.6*31
$GPGSA,A,3,05,08,13,14,16,27,28,30,32,33,39,41,0.7,0.4,0.6*38
$GPGSA,A,3,60,,,,,,,,,,,,0.7,0.4,0.6*31
$GPGST,221607.00,1.959,0.445,0.346,31.648,0.420,0.376,0.838*68
$GPGBS,221607.00,2.483,2.404,5.108,68,0.0001,5.981,6.132*50
$GPGRS,221607.00,1,0.1,0.3,-0.2,0.2,0.0,0.0,-1.7,-0.1,0.2,,,*4A
$GPGRS,221607.00,1,6.0,0.3,-2.4,-0.4,-5.7,-1.0,-2.2,3.9,,,,*6D
$GPGRS,221607.00,1,0.1,0.1,0.5,-1.0,0.3,0.2,-0.2,-0.0,,,,*64
$GPGRS,221607.00,1,1.4,-0.2,0.7,0.4,0.7,0.6,-0.1,0.6,-0.9,-0.0,-3.3,0.3*6B
$GPGRS,221607.00,1,-1.7,,,,,,,,,,,*4B
$GPGSV,5,1,19,08,67,207,50,14,14,319,40,02,43,292,47,10,46,054,48*72
$GPGSV,5,2,19,27,40,162,46,32,43,109,48,21,65,301,46,24,01,032,*74
$GPGSV,5,3,19,03,09,230,39,23,06,053,37,36,35,170,44,58,13,245,37*7E
$GPGSV,5,4,19,57,12,107,37,49,34,195,43,40,24,132,35,34,31,208,42*7E
$GPGSV,5,5,19,41,07,108,33,61,03,257,38*75
$GLGSV,2,1,08,84,72,025,39,75,16,286,45,70,11,192,35,83,22,107,37*60
$GLGSV,2,2,08,76,11,343,45,85,30,310,48,68,42,042,50,69,64,136,53*6D
$GAGSV,3,1,09,26,77,030,48,31,29,289,43,29,12,169,39,13,29,087,43*68
$GAGSV,3,2,09,23,24,232,,07,39,118,45,08,29,054,44,33,41,287,45*6B
$GAGSV,3,3,09,24,06,335,37*50
$GBGSV,6,1,23,27,76,299,51,32,14,203,41,31,10,077,,60,11,109,41*67
$GBGSV,6,2,23,13,16,054,40,05,24,128,39,14,25,045,42,29,18,297,*67
$GBGSV,6,3,23,30,25,303,45,33,48,060,49,41,61,163,51,28,54,124,50*66
$GBGSV,6,4,23,57,59,263,,16,05,082,37,02,09,105,34,36,05,300,39*6C
$GBGSV,6,5,23,39,09,073,38,20,07,196,,42,01,036,30,45,01,345,*6D
$GBGSV,6,6,23,06,01,094,,58,05,246,,08,08,052,37*5B
$GPGGA,221607.00,,,,,0,00,,,M,,M,,*48
$PTNL,GGK,221607.00,010125,4742.1601230,N,01618.1006583,E,1,38,0.7,EHT751.6091,M*4E
$GPGGQ,221607.00,010125,4742.1601230,N,01618.1006583,E,1,38,1.010,708.4026,M*35
$GPGFA,221607.00,4.227,6.872,0.445,0.346,31.648,0.838,,VVV*34
$GPLLK,221607.00,010125,,M,,M,1,38,0.8,,M*08
$GNGMP,221607.00,,,,,DAAA,38,0.4,,,,*59
$GPGMP,221607.00,,,,,,09,,,,1.6,136*77
$GLGMP,221607.00,,,,,,08,,,,,*77
$GAGMP,221607.00,,,,,,08,,,,,*7A
$GBGMP,221607.00,,,,,,13,,,,,*73
$PSSN,SNC,[0,339385000,2347]*43
$GPZDA,221612.00,01,01,2025,,*67
$GPDTM,W84,,00.0000000,N,00.0000000,E,00.0000000,W84*5F
$PSSN,TFM,221612.00,,,,*6B
$GPRMC,221612.00,A,4742.1601220,N,01618.1006579,E,0.0,,010125,5.1,E,D*18
$GPGLL,4742.1601220,N,01618.1006579,E,221612.00,A,D*69
$GPGGA,221612.00,4742.1601220,N,01618.1006579,E,2,37,0.4,708.4015,M,43.2065,M,2.6,0136*4D
$GNGNS,221612.00,4742.1601220,N,01618.1006579,E,DAAA,37,0.4,708.4015,43.2065,,*51
$GPGNS,221612.00,,,,,,09,,,,2.6,136*70
$GLGNS,221612.00,,,,,,07,,,,,*7C
$GAGNS,221612.00,,,,,,08,,,,,*7E
$GBGNS,221612.00,,,,,,13,,,,,*77
$GPLLQ,221612.00,010125,,M,,M,1,37,0.999,,M*18
$GPVTG,,T,,M,0.01,N,0.01,K,D*26
$GPHDT,,T*1B
$GPTHS,,V*0E
$GPROT,,V*08
$PSSN,HRP,221612.00,010125,,,,,,,00,0,,*65
$PTNL,AVR,221612.00,,Yaw,,Tilt,,,,0,,00*33
$GPGSA,A,3,02,03,08,10,14,21,23,27,32,,,,0.7,0.4,0.6*3C
$GPGSA,A,3,68,69,75,76,83,84,85,,,,,,0.7,0.4,0.6*3F
$GPGSA,A,3,07,08,13,24,26,29,31,33,,,,,0.7,0.4,0.6*31
$GPGSA,A,3,05,08,13,14,16,27,28,30,32,33,39,41,0.7,0.4,0.6*38
$GPGSA,A,3,60,,,,,,,,,,,,0.7,0.4,0.6*31
$GPGST,221612.00,1.869,0.438,0.346,30.921,0.415,0.372,0.829*67
$GPGBS,221612.00,2.550,2.444,5.222,68,0.0001,5.874,6.132*5F
$GPGRS,221612.00,1,-0.0,0.0,-0.0,-0.0,-0.3,0.1,-1.9,-0.2,0.0,,,*6C
$GPGRS,221612.00,1,5.9,0.5,-0.4,-5.7,-0.4,-1.6,3.5,,,,,*6E
$GPGRS,221612.00,1,0.1,0.4,0.6,-1.3,0.4,0.3,-0.3,-0.3,,,,*61
$GPGRS,221612.00,1,1.7,-0.3,0.4,-0.8,0.4,0.5,-0.1,0.3,0.2,-0.2,-3.0,0.4*6A
$GPGRS,221612.00,1,-1.8,,,,,,,,,,,*40
$GPGSV,5,1,19,08,67,207,50,14,14,319,39,02,43,292,47,10,46,054,48*7C
$GPGSV,5,2,19,27,40,162,46,32,43,109,48,21,65,301,46,24,01,032,*74
$GPGSV,5,3,19,03,09,230,38,23,06,053,36,36,35,170,44,58,13,245,37*7E
$GPGSV,5,4,19,57,12,107,37,49,34,195,44,40,24,132,35,34,31,208,42*79
$GPGSV,5,5,19,41,07,108,34,61,03,257,38*72
$GLGSV,2,1,08,84,72,025,40,75,16,286,45,70,11,192,35,83,22,107,37*6E
$GLGSV,2,2,08,76,11,343,44,85,30,310,48,68,42,042,50,69,64,136,53*6C
$GAGSV,3,1,09,26,77,030,48,31,29,289,43,29,12,169,39,13,29,087,43*68
$GAGSV,3,2,09,23,24,232,,07,39,118,45,08,29,054,44,33,41,287,45*6B
$GAGSV,3,3,09,24,06,335,37*50
$GBGSV,6,1,23,27,76,299,52,32,14,203,42,31,10,077,,60,11,109,41*67
$GBGSV,6,2,23,13,16,054,40,05,24,128,39,14,25,045,42,29,18,297,*67
$GBGSV,6,3,23,30,25,303,45,33,48,060,49,41,61,163,51,28,54,124,50*66
$GBGSV,6,4,23,57,59,263,,16,05,082,38,02,09,105,34,36,05,300,39*63
$GBGSV,6,5,23,39,09,073,38,20,07,196,,42,01,036,30,45,01,345,*6D
$GBGSV,6,6,23,06,01,094,,58,05,246,,08,08,052,37*5B
$GPGGA,221612.00,,,,,0,00,,,M,,M,,*4C
$PTNL,GGK,221612.00,010125,4742.1601220,N,01618.1006579,E,1,37,0.7,EHT751.6081,M*40
$GPGGQ,221612.00,010125,4742.1601220,N,01618.1006579,E,1,37,0.999,708.4015,M*33
$GPGFA,221612.00,4.160,6.795,0.438,0.346,30.921,0.829,,VVV*3D
$GPLLK,221612.00,010125,,M,,M,1,37,0.8,,M*03
$GNGMP,221612.00,,,,,DAAA,37,0.4,,,,*52
$GPGMP,221612.00,,,,,,09,,,,2.6,136*70
$GLGMP,221612.00,,,,,,07,,,,,*7C
$GAGMP,221612.00,,,,,,08,,,,,*7E
$GBGMP,221612.00,,,,,,13,,,,,*77
$PSSN,SNC,[0,339390000,2347]*47
$GPZDA,221617.00,01,01,2025,,*62
$GPDTM,W84,,00.0000000,N,00.0000000,E,00.0000000,W84*5F
$PSSN,TFM,221617.00,,,,*6E
$GPRMC,221617.00,A,4742.1601225,N,01618.1006564,E,0.0,,010125,5.1,E,D*14
$GPGLL,4742.1601225,N,01618.1006564,E,221617.00,A,D*65
$GPGGA,221617.00,4742.1601225,N,01618.1006564,E,2,38,0.4,708.3982,M,43.2065,M,3.1,0136*48
$GNGNS,221617.00,4742.1601225,N,01618.1006564,E,DAAA,38,0.4,708.3982,43.2065,,*52
$GPGNS,221617.00,,,,,,09,,,,3.1,136*73
$GLGNS,221617.00,,,,,,08,,,,,*76
$GAGNS,221617.00,,,,,,08,,,,,*7B
$GBGNS,221617.00,,,,,,13,,,,,*72
$GPLLQ,221617.00,010125,,M,,M,1,38,1.012,,M*19
$GPVTG,,T,,M,0.01,N,0.01,K,D*26
$GPHDT,,T*1B
$GPTHS,,V*0E
$GPROT,,V*08
$PSSN,HRP,221617.00,010125,,,,,,,00,0,,*60
$PTNL,AVR,221617.00,,Yaw,,Tilt,,,,0,,00*36
$GPGSA,A,3,02,03,08,10,14,21,23,27,32,,,,0.7,0.4,0.6*3C
$GPGSA,A,3,68,69,70,75,76,83,84,85,,,,,0.7,0.4,0.6*38
$GPGSA,A,3,07,08,13,24,26,29,31,33,,,,,0.7,0.4,0.6*31
$GPGSA,A,3,05,08,13,14,16,27,28,30,32,33,39,41,0.7,0.4,0.6*38
$GPGSA,A,3,60,,,,,,,,,,,,0.7,0.4,0.6*31
$GPGST,221617.00,1.854,0.443,0.350,30.380,0.421,0.376,0.841*6B
$GPGBS,221617.00,2.533,2.391,5.233,68,0.0001,5.686,6.132*53
$GPGRS,221617.00,1,0.0,0.3,-0.1,0.0,-0.4,0.1,-1.8,0.1,-0.1,,,*6F
$GPGRS,221617.00,1,5.7,0.4,-2.0,-1.3,-5.6,-0.0,-1.3,3.8,,,,*6E
$GPGRS,221617.00,1,0.3,0.2,0.7,-1.6,0.1,0.3,0.5,-0.1,,,,*48
$GPGRS,221617.00,1,2.3,-0.2,0.6,0.0,0.7,0.7,0.1,0.2,0.7,-0.1,-2.1,0.4*65
$GPGRS,221617.00,1,-1.4,,,,,,,,,,,*49
$GPGSV,5,1,19,08,67,207,50,14,14,319,39,02,43,292,47,10,46,054,48*7C
$GPGSV,5,2,19,27,40,162,46,32,43,109,48,21,65,301,46,24,01,032,*74
$GPGSV,5,3,19,03,09,230,39,23,05,053,36,36,35,170,44,58,13,245,37*7C
$GPGSV,5,4,19,57,12,107,38,49,34,195,44,40,24,132,35,34,31,208,42*76
$GPGSV,5,5,19,41,07,108,33,61,03,257,38*75
$GLGSV,2,1,08,84,72,025,39,75,16,286,45,70,11,192,36,83,22,107,38*6C
$GLGSV,2,2,08,76,12,343,44,85,30,310,48,68,42,042,50,69,64,136,53*6F
$GAGSV,3,1,09,26,77,030,48,31,29,289,43,29,12,169,39,13,29,087,43*68
$GAGSV,3,2,09,23,24,232,,07,39,118,44,08,29,054,43,33,41,287,45*6D
$GAGSV,3,3,09,24,07,335,37*51
$GBGSV,6,1,23,27,76,299,51,32,14,203,42,31,10,077,,60,11,109,40*65
$GBGSV,6,2,23,13,16,054,40,05,24,128,39,14,25,045,42,29,18,297,*67
$GBGSV,6,3,23,30,25,303,44,33,48,060,49,41,61,163,51,28,54,124,50*67
$GBGSV,6,4,23,57,59,263,,16,05,082,38,02,09,105,34,36,05,300,39*63
$GBGSV,6,5,23,39,09,073,38,20,07,196,,42,01,036,31,45,01,345,*6C
$GBGSV,6,6,23,06,01,094,,58,05,246,,08,08,052,36*5A
$GPGGA,221617.00,,,,,0,00,,,M,,M,,*49
$PTNL,GGK,221617.00,010125,4742.1601225,N,01618.1006564,E,1,38,0.7,EHT751.6047,M*49
$GPGGQ,221617.00,010125,4742.1601225,N,01618.1006564,E,1,38,1.012,708.3982,M*3B
$GPGFA,221617.00,4.208,6.894,0.443,0.350,30.380,0.841,,VVV*3F
$GPLLK,221617.00,010125,,M,,M,1,38,0.8,,M*09
$GNGMP,221617.00,,,,,DAAA,38,0.4,,,,*58
$GPGMP,221617.00,,,,,,09,,,,3.1,136*73
$GLGMP,221617.00,,,,,,08,,,,,*76
$GAGMP,221617.00,,,,,,08,,,,,*7B
$GBGMP,221617.00,,,,,,13,,,,,*72
$PSSN,SNC,[0,339395000,2347]*42
$GPZDA,221622.00,01,01,2025,,*64
$GPDTM,W84,,00.0000000,N,00.0000000,E,00.0000000,W84*5F
$PSSN,TFM,221622.00,,,,*68
$GPRMC,221622.00,A,4742.1601221,N,01618.1006570,E,0.0,,010125,5.1,E,D*13
$GPGLL,4742.1601221,N,01618.1006570,E,221622.00,A,D*62
$GPGGA,221622.00,4742.1601221,N,01618.1006570,E,2,38,0.4,708.3996,M,43.2065,M,2.8,0136*42
$GNGNS,221622.00,4742.1601221,N,01618.1006570,E,DAAA,38,0.4,708.3996,43.2065,,*50
$GPGNS,221622.00,,,,,,09,,,,2.8,136*7D
$GLGNS,221622.00,,,,,,08,,,,,*70
$GAGNS,221622.00,,,,,,08,,,,,*7D
$GBGNS,221622.00,,,,,,13,,,,,*74
$GPLLQ,221622.00,010125,,M,,M,1,38,1.020,,M*1E
$GPVTG,,T,,M,0.00,N,0.01,K,D*27
$GPHDT,,T*1B
$GPTHS,,V*0E
$GPROT,,V*08
$PSSN,HRP,221622.00,010125,,,,,,,00,0,,*66
$PTNL,AVR,221622.00,,Yaw,,Tilt,,,,0,,00*30
$GPGSA,A,3,02,03,08,10,14,21,23,27,32,,,,0.7,0.4,0.6*3C
$GPGSA,A,3,68,69,70,75,76,83,84,85,,,,,0.7,0.4,0.6*38
$GPGSA,A,3,07,08,13,24,26,29,31,33,,,,,0.7,0.4,0.6*31
$GPGSA,A,3,05,08,13,14,16,27,28,30,32,33,39,41,0.7,0.4,0.6*38
$GPGSA,A,3,60,,,,,,,,,,,,0.7,0.4,0.6*31
$GPGST,221622.00,1.867,0.447,0.348,30.641,0.424,0.376,0.848*64
$GPGBS,221622.00,2.584,2.399,5.150,68,0.0001,5.544,6.132*5A
$GPGRS,221622.00,1,0.1,0.4,-0.1,-0.0,-0.1,0.0,-1.8,0.0,0.1,,,*6A
$GPGRS,221622.00,1,5.5,0.1,-2.6,-1.4,-5.6,1.0,-1.8,3.6,,,,*47
$GPGRS,221622.00,1,0.3,-0.1,0.8,-1.7,-0.0,-0.1,0.2,0.1,,,,*47
$GPGRS,221622.00,1,1.4,-1.1,0.1,0.4,0.5,0.7,-0.2,-0.2,-0.3,-0.4,-2.2,0.3*4F
$GPGRS,221622.00,1,-1.7,,,,,,,,,,,*4C
$GPGSV,5,1,19,08,67,207,50,14,14,319,40,02,43,292,46,10,46,054,48*73
