$GPZDA,141442.00,01,01,2025,,*65
$GPDTM,W84,,00.0000000,N,00.0000000,E,00.0000000,W84*5F
$PSSN,TFM,141442.00,,,,*69
$GPRMC,141442.00,A,4742.1600071,N,01618.1013118,E,0.0,,010125,5.1,E,D*1A
$GPGLL,4742.1600071,N,01618.1013118,E,141442.00,A,D*6B
$GPGGA,141442.00,4742.1600071,N,01618.1013118,E,2,40,0.4,708.1555,M,43.2065,M,1.8,0136*46
$GNGNS,141442.00,4742.1600071,N,01618.1013118,E,DAAA,40,0.4,708.1555,43.2065,,*57
$GPGNS,141442.00,,,,,,09,,,,1.8,136*7F
$GLGNS,141442.00,,,,,,07,,,,,*7E
$GAGNS,141442.00,,,,,,08,,,,,*7C
$GBGNS,141442.00,,,,,,16,,,,,*70
$GPLLQ,141442.00,010125,,M,,M,1,40,1.340,,M*15
$GPVTG,,T,,M,0.01,N,0.01,K,D*26
$GPHDT,,T*1B
$GPTHS,,V*0E
$GPROT,,V*08
$PSSN,HRP,141442.00,010125,,,,,,,00,0,,*67
$PTNL,AVR,141442.00,,Yaw,,Tilt,,,,0,,00*31
$GPGSA,A,3,06,11,12,24,25,28,29,31,32,,,,0.7,0.4,0.6*31
$GPGSA,A,3,69,77,78,79,81,87,88,,,,,,0.7,0.4,0.6*3F
$GPGSA,A,3,02,07,15,27,29,30,34,36,,,,,0.7,0.4,0.6*39
$GPGSA,A,3,05,08,10,11,12,13,23,24,25,26,32,34,0.7,0.4,0.6*38
$GPGSA,A,3,35,38,44,60,,,,,,,,,0.7,0.4,0.6*3C
$GPGST,141442.00,1.554,0.585,0.442,355.954,0.584,0.442,1.122*5E
$GPGBS,141442.00,3.709,2.366,7.501,32,0.0001,-1.298,1.392*70
$GPGRS,141442.00,1,-0.6,0.4,0.2,-0.2,-0.2,0.6,0.2,2.3,-1.3,,,*61
$GPGRS,141442.00,1,0.9,-4.9,-1.0,2.0,3.1,-2.1,-0.3,,,,,*63
$GPGRS,141442.00,1,0.7,-0.7,-0.1,0.1,-0.2,-0.2,1.0,-0.4,,,,*60
$GPGRS,141442.00,1,-0.0,0.7,0.2,0.4,1.0,-4.3,0.2,-0.1,-0.2,1.0,0.0,1.2*4C
$GPGRS,141442.00,1,-1.0,-0.4,0.4,-1.3,,,,,,,,*66
$GPGSV,5,1,19,25,75,312,50,06,22,043,41,24,20,157,40,32,26,263,45*71
$GPGSV,5,2,19,28,32,309,45,29,45,220,48,11,39,082,46,12,57,080,49*76
$GPGSV,5,3,19,31,07,316,39,20,01,101,,36,35,170,45,58,13,245,36*72
$GPGSV,5,4,19,40,23,133,37,34,31,208,43,49,34,195,45,57,04,114,37*78
$GPGSV,5,5,19,41,07,108,35,61,03,257,38*73
$GLGSV,3,1,09,78,75,014,52,69,19,291,45,81,15,187,45,77,29,109,42*6A
$GLGSV,3,2,09,87,40,040,47,79,29,309,48,88,60,146,52,68,05,245,43*6F
$GLGSV,3,3,09,70,09,352,33*56
$GAGSV,3,1,09,30,74,058,48,19,13,327,34,15,16,162,39,02,23,089,41*62
$GAGSV,3,2,09,07,22,225,41,29,30,283,43,36,27,048,41,34,40,111,45*6B
$GAGSV,3,3,09,27,46,285,46*5B
$GBGSV,6,1,23,12,65,140,48,35,20,045,43,26,10,124,41,38,10,074,39*62
$GBGSV,6,2,23,11,23,196,42,05,20,130,37,10,17,065,37,56,24,054,*62
$GBGSV,6,3,23,31,28,091,,34,46,186,49,24,60,125,51,25,60,299,51*6D
$GBGSV,6,4,23,44,60,081,50,20,10,323,,32,06,318,40,23,09,302,39*69
$GBGSV,6,5,23,02,05,108,33,08,07,087,36,41,03,269,37,43,05,208,*65
$GBGSV,6,6,23,07,04,064,35,13,06,095,38,60,09,110,40*55
$GPGGA,141442.00,,,,,0,00,,,M,,M,,*4E
$PTNL,GGK,141442.00,010125,4742.1600071,N,01618.1013118,E,1,40,0.7,EHT751.3621,M*4B
$GPGGQ,141442.00,010125,4742.1600071,N,01618.1013118,E,1,40,1.340,708.1555,M*3A
$GPGFA,141442.00,5.560,9.201,0.585,0.442,355.954,1.122,,VVV*08
$GPLLK,141442.00,010125,,M,,M,1,40,0.8,,M*01
$GNGMP,141442.00,,,,,DAAA,40,0.4,,,,*50
$GPGMP,141442.00,,,,,,09,,,,1.8,136*7F
$GLGMP,141442.00,,,,,,07,,,,,*7E
$GAGMP,141442.00,,,,,,08,,,,,*7C
$GBGMP,141442.00,,,,,,16,,,,,*70
$PSSN,SNC,[0,310500000,2347]*43
$GPZDA,141447.00,01,01,2025,,*60
$GPDTM,W84,,00.0000000,N,00.0000000,E,00.0000000,W84*5F
$PSSN,TFM,141447.00,,,,*6C
$GPRMC,141447.00,A,4742.1600077,N,01618.1013111,E,0.0,,010125,5.1,E,D*10
$GPGLL,4742.1600077,N,01618.1013111,E,141447.00,A,D*61
$GPGGA,141447.00,4742.1600077,N,01618.1013111,E,2,40,0.4,708.1550,M,43.2065,M,2.8,0136*4A
$GNGNS,141447.00,4742.1600077,N,01618.1013111,E,DAAA,40,0.4,708.1550,43.2065,,*58
$GPGNS,141447.00,,,,,,09,,,,2.8,136*79
$GLGNS,141447.00,,,,,,07,,,,,*7B
$GAGNS,141447.00,,,,,,08,,,,,*79
$GBGNS,141447.00,,,,,,16,,,,,*75
$GPLLQ,141447.00,010125,,M,,M,1,40,1.345,,M*15
$GPVTG,,T,,M,0.01,N,0.01,K,D*26
$GPHDT,,T*1B
$GPTHS,,V*0E
$GPROT,,V*08
$PSSN,HRP,141447.00,010125,,,,,,,00,0,,*62
$PTNL,AVR,141447.00,,Yaw,,Tilt,,,,0,,00*34
$GPGSA,A,3,06,11,12,24,25,28,29,31,32,,,,0.7,0.4,0.6*31
$GPGSA,A,3,69,77,78,79,81,87,88,,,,,,0.7,0.4,0.6*3F
$GPGSA,A,3,02,07,15,27,29,30,34,36,,,,,0.7,0.4,0.6*39
$GPGSA,A,3,05,08,10,11,12,13,23,24,25,26,32,34,0.7,0.4,0.6*38
$GPGSA,A,3,35,38,44,60,,,,,,,,,0.7,0.4,0.6*3C
$GPGST,141447.00,1.596,0.584,0.442,355.743,0.583,0.443,1.128*50
$GPGBS,141447.00,3.734,2.380,7.553,77,0.0001,-4.874,6.346*76
$GPGRS,141447.00,1,-0.9,0.6,0.3,-0.5,-0.3,0.3,0.2,2.0,-0.8,,,*62
$GPGRS,141447.00,1,1.5,-4.9,-1.2,1.2,3.3,-2.1,-0.1,,,,,*68
$GPGRS,141447.00,1,0.5,-0.2,-0.5,-0.1,-0.4,-0.2,0.9,-0.2,,,,*43
$GPGRS,141447.00,1,-0.2,0.3,0.3,1.6,0.7,-4.7,1.1,-0.3,-0.3,0.8,0.5,0.9*48
$GPGRS,141447.00,1,-0.8,-0.8,0.2,-1.4,,,,,,,,*67
$GPGSV,5,1,19,25,75,312,50,06,22,043,41,24,20,157,40,32,26,263,45*71
$GPGSV,5,2,19,28,32,309,44,29,46,220,48,11,39,082,46,12,57,080,49*74
$GPGSV,5,3,19,31,07,316,39,20,01,101,,36,35,170,45,58,13,245,36*72
$GPGSV,5,4,19,40,23,133,37,34,31,208,43,49,34,195,45,57,04,114,37*78
$GPGSV,5,5,19,41,07,108,35,61,03,257,38*73
$GLGSV,3,1,09,78,75,014,52,69,19,290,46,81,15,187,44,77,29,109,42*69
$GLGSV,3,2,09,87,40,040,47,79,29,309,48,88,60,146,52,68,04,245,43*6E
$GLGSV,3,3,09,70,09,352,33*56
$GAGSV,3,1,09,30,74,058,48,19,13,327,34,15,16,162,40,02,23,089,41*6C
$GAGSV,3,2,09,07,22,225,42,29,30,283,43,36,27,048,42,34,40,111,45*6B
$GAGSV,3,3,09,27,46,285,46*5B
$GBGSV,6,1,23,12,65,140,48,35,20,045,43,26,10,124,41,38,10,074,40*6C
$GBGSV,6,2,23,11,23,196,43,05,20,130,37,10,17,065,37,56,24,054,*63
$GBGSV,6,3,23,31,28,091,,34,46,186,49,24,60,125,51,25,60,299,51*6D
$GBGSV,6,4,23,44,60,081,50,20,10,322,,32,06,318,41,23,10,302,40*6F
$GBGSV,6,5,23,02,05,108,33,08,07,087,37,41,03,269,37,43,05,208,*64
$GBGSV,6,6,23,07,04,064,35,13,06,095,38,60,09,110,39*5B
$GPGGA,141447.00,,,,,0,00,,,M,,M,,*4B
$PTNL,GGK,141447.00,010125,4742.1600077,N,01618.1013111,E,1,40,0.7,EHT751.3615,M*46
$GPGGQ,141447.00,010125,4742.1600077,N,01618.1013111,E,1,40,1.345,708.1550,M*30
$GPGFA,141447.00,5.549,9.253,0.584,0.442,355.743,1.128,,VVV*02
$GPLLK,141447.00,010125,,M,,M,1,40,0.8,,M*04
$GNGMP,141447.00,,,,,DAAA,40,0.4,,,,*55
$GPGMP,141447.00,,,,,,09,,,,2.8,136*79
$GLGMP,141447.00,,,,,,07,,,,,*7B
$GAGMP,141447.00,,,,,,08,,,,,*79
$GBGMP,141447.00,,,,,,16,,,,,*75
$PSSN,SNC,[0,310505000,2347]*46
$GPZDA,141452.00,01,01,2025,,*64
$GPDTM,W84,,00.0000000,N,00.0000000,E,00.0000000,W84*5F
$PSSN,TFM,141452.00,,,,*68
$GPRMC,141452.00,A,4742.1600068,N,01618.1013087,E,0.0,,010125,5.1,E,D*14
$GPGLL,4742.1600068,N,01618.1013087,E,141452.00,A,D*65
$GPGGA,141452.00,4742.1600068,N,01618.1013087,E,2,40,0.4,708.1538,M,43.2065,M,2.9,0136*41
$GNGNS,141452.00,4742.1600068,N,01618.1013087,E,DAAA,40,0.4,708.1538,43.2065,,*52
$GPGNS,141452.00,,,,,,09,,,,2.9,136*7C
$GLGNS,141452.00,,,,,,07,,,,,*7F
$GAGNS,141452.00,,,,,,08,,,,,*7D
$GBGNS,141452.00,,,,,,16,,,,,*71
$GPLLQ,141452.00,010125,,M,,M,1,40,1.346,,M*12
$GPVTG,,T,,M,0.01,N,0.01,K,D*26
$GPHDT,,T*1B
$GPTHS,,V*0E
$GPROT,,V*08
$PSSN,HRP,141452.00,010125,,,,,,,00,0,,*66
$PTNL,AVR,141452.00,,Yaw,,Tilt,,,,0,,00*30
$GPGSA,A,3,06,11,12,24,25,28,29,31,32,,,,0.7,0.4,0.6*31
$GPGSA,A,3,69,77,78,79,81,87,88,,,,,,0.7,0.4,0.6*3F
$GPGSA,A,3,02,07,15,27,29,30,34,36,,,,,0.7,0.4,0.6*39
$GPGSA,A,3,05,08,10,11,12,13,23,24,25,26,32,34,0.7,0.4,0.6*38
$GPGSA,A,3,35,38,44,60,,,,,,,,,0.7,0.4,0.6*3C
$GPGST,141452.00,1.702,0.585,0.445,356.111,0.585,0.446,1.127*53
$GPGBS,141452.00,3.729,2.390,7.527,06,0.0001,-1.241,1.604*77
$GPGRS,141452.00,1,-1.2,0.6,0.5,0.2,-0.4,0.0,-0.0,2.2,-0.9,,,*68
$GPGRS,141452.00,1,2.8,-4.7,-1.1,1.6,3.0,-1.9,-0.1,,,,,*63
$GPGRS,141452.00,1,0.5,-0.6,-0.4,-0.1,0.0,0.1,0.7,0.0,,,,*64
$GPGRS,141452.00,1,0.1,1.3,0.7,2.7,0.7,-4.7,1.5,-0.3,-0.2,1.1,0.1,0.8*6D
$GPGRS,141452.00,1,-0.8,-0.7,0.4,-1.4,,,,,,,,*6A
$GPGSV,5,1,19,25,75,312,50,06,22,043,41,24,20,157,41,32,26,263,45*70
$GPGSV,5,2,19,28,32,309,44,29,46,220,48,11,39,082,46,12,57,080,49*74
$GPGSV,5,3,19,31,07,316,39,20,01,101,,36,35,170,45,58,13,245,36*72
$GPGSV,5,4,19,40,23,133,37,34,31,208,43,49,34,195,45,57,04,114,37*78
$GPGSV,5,5,19,41,07,108,35,61,03,257,38*73
$GLGSV,3,1,09,78,75,014,52,69,19,290,46,81,15,187,45,77,29,109,43*69
$GLGSV,3,2,09,87,40,040,47,79,29,309,48,88,60,146,52,68,04,245,43*6E
$GLGSV,3,3,09,70,09,352,34*51
$GAGSV,3,1,09,30,74,058,48,19,13,327,33,15,16,162,40,02,23,089,41*6B
$GAGSV,3,2,09,07,22,225,41,29,30,283,43,36,27,048,41,34,40,111,45*6B
$GAGSV,3,3,09,27,46,285,45*58
$GBGSV,6,1,23,12,65,140,48,35,20,045,43,26,10,124,41,38,10,074,40*6C
$GBGSV,6,2,23,11,23,196,43,05,20,130,37,10,17,065,38,56,24,054,*6C
$GBGSV,6,3,23,31,28,091,,34,46,186,49,24,60,125,51,25,61,299,51*6C
$GBGSV,6,4,23,44,60,081,50,20,10,322,,32,06,318,41,23,10,302,41*6E
$GBGSV,6,5,23,02,05,108,33,08,07,087,37,41,03,269,37,43,05,208,*64
$GBGSV,6,6,23,07,04,064,35,13,06,095,38,60,09,110,40*55
$GPGGA,141452.00,,,,,0,00,,,M,,M,,*4F
$PTNL,GGK,141452.00,010125,4742.1600068,N,01618.1013087,E,1,40,0.7,EHT751.3603,M*45
$GPGGQ,141452.00,010125,4742.1600068,N,01618.1013087,E,1,40,1.346,708.1538,M*39
$GPGFA,141452.00,5.566,9.243,0.585,0.445,356.111,1.127,,VVV*01
$GPLLK,141452.00,010125,,M,,M,1,40,0.8,,M*00
$GNGMP,141452.00,,,,,DAAA,40,0.4,,,,*51
$GPGMP,141452.00,,,,,,09,,,,2.9,136*7C
$GLGMP,141452.00,,,,,,07,,,,,*7F
$GAGMP,141452.00,,,,,,08,,,,,*7D
$GBGMP,141452.00,,,,,,16,,,,,*71
$PSSN,SNC,[0,310510000,2347]*42
$GPZDA,141457.00,01,01,2025,,*61
$GPDTM,W84,,00.0000000,N,00.0000000,E,00.0000000,W84*5F
$PSSN,TFM,141457.00,,,,*6D
$GPRMC,141457.00,A,4742.1600077,N,01618.1013067,E,0.0,,010125,5.1,E,D*11
$GPGLL,4742.1600077,N,01618.1013067,E,141457.00,A,D*60
$GPGGA,141457.00,4742.1600077,N,01618.1013067,E,2,40,0.4,708.1527,M,43.2065,M,2.6,0136*45
$GNGNS,141457.00,4742.1600077,N,01618.1013067,E,DAAA,40,0.4,708.1527,43.2065,,*59
$GPGNS,141457.00,,,,,,09,,,,2.6,136*76
$GLGNS,141457.00,,,,,,07,,,,,*7A
$GAGNS,141457.00,,,,,,08,,,,,*78
$GBGNS,141457.00,,,,,,16,,,,,*74
$GPLLQ,141457.00,010125,,M,,M,1,40,1.337,,M*11
$GPVTG,,T,,M,0.00,N,0.01,K,D*27
$GPHDT,,T*1B
$GPTHS,,V*0E
$GPROT,,V*08
$PSSN,HRP,141457.00,010125,,,,,,,00,0,,*63
$PTNL,AVR,141457.00,,Yaw,,Tilt,,,,0,,00*35
$GPGSA,A,3,06,11,12,24,25,28,29,31,32,,,,0.7,0.4,0.6*31
$GPGSA,A,3,69,77,78,79,81,87,88,,,,,,0.7,0.4,0.6*3F
$GPGSA,A,3,02,07,15,27,29,30,34,36,,,,,0.7,0.4,0.6*39
$GPGSA,A,3,05,08,10,11,12,13,23,24,25,26,32,34,0.7,0.4,0.6*38
$GPGSA,A,3,35,38,44,60,,,,,,,,,0.7,0.4,0.6*3C
$GPGST,141457.00,1.728,0.585,0.445,356.273,0.585,0.446,1.117*5A
$GPGBS,141457.00,3.771,2.365,7.448,77,0.0001,-4.856,6.347*77
$GPGRS,141457.00,1,-0.6,0.6,0.2,-0.5,-0.2,0.3,0.2,2.5,-0.7,,,*66
$GPGRS,141457.00,1,2.3,-4.9,-0.9,1.9,3.4,-1.3,0.4,,,,,*43
$GPGRS,141457.00,1,0.7,-1.2,-0.3,-0.1,0.1,-0.0,1.0,-0.3,,,,*64
$GPGRS,141457.00,1,0.2,2.2,0.7,2.3,0.9,-4.8,0.9,-0.2,0.0,1.1,0.5,0.6*45
$GPGRS,141457.00,1,-1.1,-1.0,0.5,-1.3,,,,,,,,*67
$GPGSV,5,1,19,25,75,312,50,06,22,043,42,24,20,157,41,32,26,263,45*73
$GPGSV,5,2,19,28,32,309,45,29,46,220,48,11,39,082,46,12,57,080,49*75
$GPGSV,5,3,19,31,07,316,39,20,01,101,,36,35,170,46,58,13,245,36*71
$GPGSV,5,4,19,40,23,133,36,34,31,208,43,49,34,195,45,57,04,114,37*79
$GPGSV,5,5,19,41,07,108,35,61,03,257,38*73
$GLGSV,3,1,09,78,75,014,52,69,19,290,46,81,15,187,45,77,29,109,42*68
$GLGSV,3,2,09,87,40,040,47,79,29,309,48,88,60,146,52,68,04,245,43*6E
$GLGSV,3,3,09,70,09,352,33*56
$GAGSV,3,1,09,30,74,058,48,19,13,327,34,15,16,162,40,02,23,089,41*6C
$GAGSV,3,2,09,07,22,225,41,29,30,283,43,36,27,048,42,34,40,111,45*68
$GAGSV,3,3,09,27,46,285,46*5B
$GBGSV,6,1,23,12,65,140,48,35,20,045,42,26,10,124,41,38,10,074,40*6D
$GBGSV,6,2,23,11,23,196,43,05,20,130,37,10,17,066,38,56,24,054,*6F
$GBGSV,6,3,23,31,28,091,,34,46,186,49,24,60,125,51,25,61,299,51*6C
$GBGSV,6,4,23,44,60,081,50,20,10,322,,32,06,318,40,23,10,302,40*6E
$GBGSV,6,5,23,02,05,108,33,08,07,087,37,41,03,269,37,43,05,208,*64
$GBGSV,6,6,23,07,04,064,35,13,06,095,38,60,09,110,39*5B
$GPGGA,141457.00,,,,,0,00,,,M,,M,,*4A
$PTNL,GGK,141457.00,010125,4742.1600077,N,01618.1013067,E,1,40,0.7,EHT751.3592,M*4B
$GPGGQ,141457.00,010125,4742.1600077,N,01618.1013067,E,1,40,1.337,708.1527,M*34
$GPGFA,141457.00,5.566,9.161,0.585,0.445,356.273,1.117,,VVV*03
$GPLLK,141457.00,010125,,M,,M,1,40,0.8,,M*05
$GNGMP,141457.00,,,,,DAAA,40,0.4,,,,*54
$GPGMP,141457.00,,,,,,09,,,,2.6,136*76
$GLGMP,141457.00,,,,,,07,,,,,*7A
$GAGMP,141457.00,,,,,,08,,,,,*78
$GBGMP,141457.00,,,,,,16,,,,,*74
$PSSN,SNC,[0,310515000,2347]*47
$GPZDA,141502.00,01,01,2025,,*60
$GPDTM,W84,,00.0000000,N,00.0000000,E,00.0000000,W84*5F
$PSSN,TFM,141502.00,,,,*6C
$GPRMC,141502.00,A,4742.1600053,N,01618.1013076,E,0.0,,010125,5.1,E,D*16
$GPGLL,4742.1600053,N,01618.1013076,E,141502.00,A,D*67
$GPGGA,141502.00,4742.1600053,N,01618.1013076,E,2,40,0.4,708.1545,M,43.2065,M,1.8,0136*4B
$GNGNS,141502.00,4742.1600053,N,01618.1013076,E,DAAA,40,0.4,708.1545,43.2065,,*5A
$GPGNS,141502.00,,,,,,09,,,,1.8,136*7A
$GLGNS,141502.00,,,,,,07,,,,,*7B
$GAGNS,141502.00,,,,,,08,,,,,*79
$GBGNS,141502.00,,,,,,16,,,,,*75
$GPLLQ,141502.00,010125,,M,,M,1,40,1.338,,M*1F
$GPVTG,,T,,M,0.01,N,0.01,K,D*26
$GPHDT,,T*1B
$GPTHS,,V*0E
$GPROT,,V*08
$PSSN,HRP,141502.00,010125,,,,,,,00,0,,*62
$PTNL,AVR,141502.00,,Yaw,,Tilt,,,,0,,00*34
$GPGSA,A,3,06,11,12,24,25,28,29,31,32,,,,0.7,0.4,0.6*31
$GPGSA,A,3,69,77,78,79,81,87,88,,,,,,0.7,0.4,0.6*3F
$GPGSA,A,3,02,07,15,27,29,30,34,36,,,,,0.7,0.4,0.6*39
$GPGSA,A,3,05,08,10,11,12,13,23,24,25,26,32,34,0.7,0.4,0.6*38
$GPGSA,A,3,35,38,44,60,,,,,,,,,0.7,0.4,0.6*3C
$GPGST,141502.00,1.706,0.585,0.442,355.945,0.584,0.442,1.119*56
$GPGBS,141502.00,3.712,2.364,7.488,77,0.0001,-5.806,6.347*7A
$GPGRS,141502.00,1,-0.8,0.4,0.3,-0.5,-0.1,0.8,-0.0,1.9,-0.6,,,*43
$GPGRS,141502.00,1,1.9,-5.8,-1.1,2.3,3.2,-1.4,-0.1,,,,,*62
$GPGRS,141502.00,1,0.6,-1.0,-0.2,-0.3,-0.4,-0.1,0.7,-0.6,,,,*4F
$GPGRS,141502.00,1,0.3,2.1,0.7,1.2,0.8,-4.1,0.2,-0.3,-0.3,0.7,0.5,0.6*6F
$GPGRS,141502.00,1,-1.4,-1.3,0.3,-1.7,,,,,,,,*62
$GPGSV,5,1,19,25,75,312,50,06,22,043,41,24,20,157,41,32,26,263,44*71
$GPGSV,5,2,19,28,33,309,45,29,46,220,48,11,39,082,46,12,57,080,48*75
$GPGSV,5,3,19,31,07,316,38,20,01,101,,36,35,170,46,58,13,245,37*71
$GPGSV,5,4,19,40,23,133,37,34,31,208,43,49,34,195,45,57,04,114,37*78
$GPGSV,5,5,19,41,07,108,35,61,03,257,38*73
$GLGSV,3,1,09,78,75,014,52,69,19,290,46,81,15,187,45,77,29,109,41*6B
$GLGSV,3,2,09,87,40,040,48,79,29,309,48,88,60,146,52,68,04,245,43*61
$GLGSV,3,3,09,70,09,352,32*57
$GAGSV,3,1,09,30,74,059,48,19,13,327,34,15,16,162,40,02,23,089,41*6D
$GAGSV,3,2,09,07,22,225,41,29,30,283,43,36,27,048,42,34,41,111,45*69
$GAGSV,3,3,09,27,46,285,46*5B
$GBGSV,6,1,23,12,65,140,48,35,20,045,42,26,10,124,40,38,11,074,39*63
$GBGSV,6,2,23,11,23,196,42,05,20,130,37,10,17,066,37,56,24,054,*61
$GBGSV,6,3,23,31,28,091,,34,46,186,49,24,60,125,51,25,61,299,50*6D
$GBGSV,6,4,23,44,60,081,50,20,10,322,,32,06,318,39,23,10,302,40*60
$GBGSV,6,5,23,02,05,108,33,08,07,087,37,41,03,269,36,43,05,208,*65
$GBGSV,6,6,23,07,04,064,35,13,06,095,38,60,09,110,39*5B
$GPGGA,141502.00,,,,,0,00,,,M,,M,,*4B
$PTNL,GGK,141502.00,010125,4742.1600053,N,01618.1013076,E,1,40,0.7,EHT751.3610,M*45
$GPGGQ,141502.00,010125,4742.1600053,N,01618.1013076,E,1,40,1.338,708.1545,M*38
$GPGFA,141502.00,5.558,9.177,0.585,0.442,355.945,1.119,,VVV*0C
$GPLLK,141502.00,010125,,M,,M,1,40,0.8,,M*04
$GNGMP,141502.00,,,,,DAAA,40,0.4,,,,*55
$GPGMP,141502.00,,,,,,09,,,,1.8,136*7A
$GLGMP,141502.00,,,,,,07,,,,,*7B
$GAGMP,141502.00,,,,,,08,,,,,*79
$GBGMP,141502.00,,,,,,16,,,,,*75
$PSSN,SNC,[0,310520000,2347]*41
$GPZDA,141507.00,01,01,2025,,*65
$GPDTM,W84,,00.0000000,N,00.0000000,E,00.0000000,W84*5F
$PSSN,TFM,141507.00,,,,*69
$GPRMC,141507.00,A,4742.1600041,N,01618.1013077,E,0.0,,010125,5.1,E,D*11
$GPGLL,4742.1600041,N,01618.1013077,E,141507.00,A,D*60
$GPGGA,141507.00,4742.1600041,N,01618.1013077,E,2,40,0.4,708.1524,M,43.2065,M,2.8,0136*48
$GNGNS,141507.00,4742.1600041,N,01618.1013077,E,DAAA,40,0.4,708.1524,43.2065,,*5A
$GPGNS,141507.00,,,,,,09,,,,2.8,136*7C
$GLGNS,141507.00,,,,,,07,,,,,*7E
$GAGNS,141507.00,,,,,,08,,,,,*7C
$GBGNS,141507.00,,,,,,16,,,,,*70
$GPLLQ,141507.00,010125,,M,,M,1,40,1.343,,M*16
$GPVTG,,T,,M,0.00,N,0.00,K,D*26
$GPHDT,,T*1B
$GPTHS,,V*0E
$GPROT,,V*08
$PSSN,HRP,141507.00,010125,,,,,,,00,0,,*67
$PTNL,AVR,141507.00,,Yaw,,Tilt,,,,0,,00*31
$GPGSA,A,3,06,11,12,24,25,28,29,31,32,,,,0.7,0.4,0.6*31
$GPGSA,A,3,69,77,78,79,81,87,88,,,,,,0.7,0.4,0.6*3F
$GPGSA,A,3,02,07,15,27,29,30,34,36,,,,,0.7,0.4,0.6*39
$GPGSA,A,3,05,08,10,11,12,13,23,24,25,26,32,34,0.7,0.4,0.6*38
$GPGSA,A,3,35,38,44,60,,,,,,,,,0.7,0.4,0.6*3C
$GPGST,141507.00,1.549,0.584,0.442,355.723,0.583,0.443,1.125*5C
$GPGBS,141507.00,3.737,2.378,7.541,77,0.0001,-4.881,6.348*70
$GPGRS,141507.00,1,-0.8,0.5,0.2,-0.3,-0.1,0.7,-0.2,1.7,-0.9,,,*4C
$GPGRS,141507.00,1,2.0,-4.9,-1.0,1.8,2.7,-1.8,-0.0,,,,,*6D
$GPGRS,141507.00,1,0.6,-0.8,-0.4,-0.3,-0.6,-0.1,0.9,-0.4,,,,*4B
$GPGRS,141507.00,1,0.6,1.4,0.2,0.2,0.9,-4.2,0.6,-0.4,-0.4,0.9,0.4,0.9*6B
$GPGRS,141507.00,1,-1.6,-1.1,0.2,-1.3,,,,,,,,*62
$GPGSV,5,1,19,25,75,312,50,06,22,043,40,24,20,157,41,32,26,263,45*71
$GPGSV,5,2,19,28,33,309,45,29,46,220,48,11,39,082,46,12,56,080,49*75
$GPGSV,5,3,19,31,07,316,39,20,01,101,,36,35,170,46,58,13,245,36*71
$GPGSV,5,4,19,40,23,133,37,34,31,208,43,49,34,195,45,57,04,114,37*78
$GPGSV,5,5,19,41,07,108,35,61,03,257,38*73
$GLGSV,3,1,09,78,75,015,52,69,19,290,46,81,15,187,45,77,29,109,41*6A
$GLGSV,3,2,09,87,40,040,47,79,29,309,48,88,60,146,52,68,04,245,43*6E
$GLGSV,3,3,09,70,09,352,34*51
$GAGSV,3,1,09,30,74,059,48,19,13,327,35,15,16,162,40,02,23,089,41*6C
$GAGSV,3,2,09,07,22,224,41,29,30,283,43,36,27,048,41,34,41,111,45*6B
$GAGSV,3,3,09,27,46,285,46*5B
$GBGSV,6,1,23,12,65,140,48,35,19,045,42,26,10,124,40,38,11,074,39*69
$GBGSV,6,2,23,11,23,196,42,05,20,130,37,10,17,066,38,56,24,054,*6E
$GBGSV,6,3,23,31,28,091,,34,46,186,49,24,60,125,51,25,61,299,50*6D
$GBGSV,6,4,23,44,60,081,50,20,10,322,,32,06,318,39,23,10,302,40*60
$GBGSV,6,5,23,02,05,108,33,08,07,087,37,41,02,269,37,43,05,208,*65
$GBGSV,6,6,23,07,04,064,35,13,06,095,38,60,09,110,39*5B
$GPGGA,141507.00,,,,,0,00,,,M,,M,,*4E
$PTNL,GGK,141507.00,010125,4742.1600041,N,01618.1013077,E,1,40,0.7,EHT751.3589,M*41
$GPGGQ,141507.00,010125,4742.1600041,N,01618.1013077,E,1,40,1.343,708.1524,M*34
$GPGFA,141507.00,5.548,9.229,0.584,0.442,355.723,1.125,,VVV*00
$GPLLK,141507.00,010125,,M,,M,1,40,0.8,,M*01
$GNGMP,141507.00,,,,,DAAA,40,0.4,,,,*50
$GPGMP,141507.00,,,,,,09,,,,2.8,136*7C
$GLGMP,141507.00,,,,,,07,,,,,*7E
$GAGMP,141507.00,,,,,,08,,,,,*7C
$GBGMP,141507.00,,,,,,16,,,,,*70
$PSSN,SNC,[0,310525000,2347]*44
$GPZDA,141512.00,01,01,2025,,*61
$GPDTM,W84,,00.0000000,N,00.0000000,E,00.0000000,W84*5F
$PSSN,TFM,141512.00,,,,*6D
$GPRMC,141512.00,A,4742.1600032,N,01618.1013082,E,0.0,,010125,5.1,E,D*1B
$GPGLL,4742.1600032,N,01618.1013082,E,141512.00,A,D*6A
$GPGGA,141512.00,4742.1600032,N,01618.1013082,E,2,40,0.4,708.1510,M,43.2065,M,2.9,0136*44
$GNGNS,141512.00,4742.1600032,N,01618.1013082,E,DAAA,40,0.4,708.1510,43.2065,,*57
$GPGNS,141512.00,,,,,,09,,,,2.9,136*79
$GLGNS,141512.00,,,,,,07,,,,,*7A
$GAGNS,141512.00,,,,,,08,,,,,*78
$GBGNS,141512.00,,,,,,16,,,,,*74
$GPLLQ,141512.00,010125,,M,,M,1,40,1.343,,M*12
$GPVTG,,T,,M,0.00,N,0.00,K,D*26
$GPHDT,,T*1B
$GPTHS,,V*0E
$GPROT,,V*08
$PSSN,HRP,141512.00,010125,,,,,,,00,0,,*63
$PTNL,AVR,141512.00,,Yaw,,Tilt,,,,0,,00*35
$GPGSA,A,3,06,11,12,24,25,28,29,31,32,,,,0.7,0.4,0.6*31
$GPGSA,A,3,69,77,78,79,81,87,88,,,,,,0.7,0.4,0.6*3F
$GPGSA,A,3,02,07,15,27,29,30,34,36,,,,,0.7,0.4,0.6*39
$GPGSA,A,3,05,08,10,11,12,13,23,24,25,26,32,34,0.7,0.4,0.6*38
$GPGSA,A,3,35,38,44,60,,,,,,,,,0.7,0.4,0.6*3C
$GPGST,141512.00,1.700,0.585,0.445,356.103,0.585,0.446,1.124*54
$GPGBS,141512.00,3.731,2.388,7.514,77,0.0001,-5.619,6.348*73
$GPGRS,141512.00,1,-1.1,0.4,0.3,-0.6,0.1,0.3,0.1,2.4,-0.6,,,*4D
$GPGRS,141512.00,1,1.2,-5.6,-0.8,1.7,2.7,-2.0,0.1,,,,,*47
$GPGRS,141512.00,1,0.6,-0.7,-0.5,-0.3,-0.3,-0.1,1.0,-0.0,,,,*48
$GPGRS,141512.00,1,0.1,1.3,0.3,1.1,0.6,-5.0,0.8,-0.3,-0.4,0.5,0.4,1.0*6D
$GPGRS,141512.00,1,-1.9,-1.0,0.2,-1.5,,,,,,,,*6E
$GPGSV,5,1,19,25,75,312,50,06,22,043,40,24,20,157,41,32,26,263,44*70
$GPGSV,5,2,19,28,33,309,45,29,46,220,48,11,39,082,46,12,56,080,49*75
$GPGSV,5,3,19,31,07,316,39,20,01,101,,36,35,170,46,58,13,245,36*71
$GPGSV,5,4,19,40,23,133,37,34,31,208,44,49,34,195,45,57,04,114,37*7F
$GPGSV,5,5,19,41,07,108,35,61,03,257,38*73
$GLGSV,3,1,09,78,75,015,53,69,19,290,46,81,15,187,44,77,29,109,41*6A
$GLGSV,3,2,09,87,40,040,47,79,29,309,47,88,60,146,52,68,04,245,43*61
$GLGSV,3,3,09,70,09,352,33*56
$GAGSV,3,1,09,30,74,059,48,19,13,327,34,15,16,162,39,02,23,089,41*63
$GAGSV,3,2,09,07,22,224,41,29,30,283,43,36,27,048,42,34,41,111,46*6B
$GAGSV,3,3,09,27,46,285,46*5B
$GBGSV,6,1,23,12,65,140,48,35,19,045,43,26,10,124,41,38,11,074,40*67
$GBGSV,6,2,23,11,23,196,42,05,20,130,37,10,17,066,38,56,24,054,*6E
$GBGSV,6,3,23,31,28,091,,34,46,186,49,24,60,125,51,25,61,299,51*6C
$GBGSV,6,4,23,44,60,081,50,20,10,322,,32,06,318,40,23,10,302,41*6F
$GBGSV,6,5,23,02,05,108,33,08,07,087,37,41,02,269,38,43,05,208,*6A
$GBGSV,6,6,23,07,04,064,35,13,06,095,38,60,09,110,40*55
$GPGGA,141512.00,,,,,0,00,,,M,,M,,*4A
$PTNL,GGK,141512.00,010125,4742.1600032,N,01618.1013082,E,1,40,0.7,EHT751.3575,M*48
$GPGGQ,141512.00,010125,4742.1600032,N,01618.1013082,E,1,40,1.343,708.1510,M*39
$GPGFA,141512.00,5.564,9.219,0.585,0.445,356.103,1.124,,VVV*09
$GPLLK,141512.00,010125,,M,,M,1,40,0.8,,M*05
$GNGMP,141512.00,,,,,DAAA,40,0.4,,,,*54
$GPGMP,141512.00,,,,,,09,,,,2.9,136*79
$GLGMP,141512.00,,,,,,07,,,,,*7A
$GAGMP,141512.00,,,,,,08,,,,,*78
$GBGMP,141512.00,,,,,,16,,,,,*74
$PSSN,SNC,[0,310530000,2347]*40
$GPZDA,141517.00,01,01,2025,,*64
$GPDTM,W84,,00.0000000,N,00.0000000,E,00.0000000,W84*5F
$PSSN,TFM,141517.00,,,,*68
$GPRMC,141517.00,A,4742.1600005,N,01618.1013091,E,0.0,,010125,5.1,E,D*18
$GPGLL,4742.1600005,N,01618.1013091,E,141517.00,A,D*69
$GPGGA,141517.00,4742.1600005,N,01618.1013091,E,2,40,0.4,708.1497,M,43.2065,M,2.6,0136*46
$GNGNS,141517.00,4742.1600005,N,01618.1013091,E,DAAA,40,0.4,708.1497,43.2065,,*5A
$GPGNS,141517.00,,,,,,09,,,,2.6,136*73
$GLGNS,141517.00,,,,,,07,,,,,*7F
$GAGNS,141517.00,,,,,,08,,,,,*7D
$GBGNS,141517.00,,,,,,16,,,,,*71
$GPLLQ,141517.00,010125,,M,,M,1,40,1.335,,M*16
$GPVTG,,T,,M,0.00,N,0.01,K,D*27
$GPHDT,,T*1B
$GPTHS,,V*0E
$GPROT,,V*08
$PSSN,HRP,141517.00,010125,,,,,,,00,0,,*66
$PTNL,AVR,141517.00,,Yaw,,Tilt,,,,0,,00*30
$GPGSA,A,3,06,11,12,24,25,28,29,31,32,,,,0.7,0.4,0.6*31
$GPGSA,A,3,69,77,78,79,81,87,88,,,,,,0.7,0.4,0.6*3F
$GPGSA,A,3,02,07,15,27,29,30,34,36,,,,,0.7,0.4,0.6*39
$GPGSA,A,3,05,08,10,11,12,13,23,24,25,26,32,34,0.7,0.4,0.6*38
$GPGSA,A,3,35,38,44,60,,,,,,,,,0.7,0.4,0.6*3C
$GPGST,141517.00,1.636,0.585,0.445,356.245,0.585,0.446,1.114*57
$GPGBS,141517.00,3.774,2.363,7.438,77,0.0001,-4.700,6.348*75
$GPGRS,141517.00,1,-0.8,0.6,0.4,-0.6,-0.6,0.6,0.0,2.0,-0.7,,,*6E
$GPGRS,141517.00,1,2.3,-4.7,-0.9,1.2,2.6,-2.3,0.1,,,,,*46
$GPGRS,141517.00,1,0.8,-0.5,-0.4,-0.0,0.3,0.0,0.9,-0.1,,,,*4B
$GPGRS,141517.00,1,0.4,0.9,0.8,2.2,0.6,-4.9,0.1,-0.2,-0.2,0.6,1.0,1.2*6F
$GPGRS,141517.00,1,-1.4,-0.8,0.2,-1.3,,,,,,,,*69
$GPGSV,5,1,19,25,75,312,50,06,22,043,41,24,20,157,41,32,26,263,45*70
$GPGSV,5,2,19,28,33,309,45,29,46,220,48,11,39,082,46,12,56,080,49*75
$GPGSV,5,3,19,31,07,316,39,20,01,101,,36,35,170,46,58,13,245,36*71
$GPGSV,5,4,19,40,23,133,37,34,31,208,44,49,34,195,45,57,04,114,37*7F
$GPGSV,5,5,19,41,07,108,35,61,03,257,38*73
$GLGSV,3,1,09,78,75,015,52,69,19,290,45,81,15,187,44,77,29,109,42*6B
$GLGSV,3,2,09,87,39,040,47,79,29,309,47,88,60,146,52,68,04,245,42*6E
$GLGSV,3,3,09,70,09,352,33*56
$GAGSV,3,1,09,30,74,059,48,19,13,327,34,15,16,162,39,02,23,089,42*60
$GAGSV,3,2,09,07,22,224,41,29,30,283,42,36,27,048,42,34,41,110,45*68
$GAGSV,3,3,09,27,46,285,46*5B
$GBGSV,6,1,23,12,65,140,48,35,19,045,44,26,10,124,41,38,11,074,40*60
$GBGSV,6,2,23,11,23,196,43,05,20,130,37,10,17,066,38,56,24,054,*6F
$GBGSV,6,3,23,31,28,091,,34,46,186,49,24,60,125,51,25,61,299,51*6C
$GBGSV,6,4,23,44,60,081,50,20,10,322,,32,06,318,41,23,10,302,41*6E
$GBGSV,6,5,23,02,05,108,33,08,07,087,37,41,02,269,37,43,05,208,*65
$GBGSV,6,6,23,07,04,064,36,13,06,095,38,60,09,110,39*58
$GPGGA,141517.00,,,,,0,00,,,M,,M,,*4F
$PTNL,GGK,141517.00,010125,4742.1600005,N,01618.1013091,E,1,40,0.7,EHT751.3562,M*4D
$GPGGQ,141517.00,010125,4742.1600005,N,01618.1013091,E,1,40,1.335,708.1497,M*35
$GPGFA,141517.00,5.566,9.138,0.585,0.445,356.245,1.114,,VVV*0C
$GPLLK,141517.00,010125,,M,,M,1,40,0.8,,M*00
$GNGMP,141517.00,,,,,DAAA,40,0.4,,,,*51
$GPGMP,141517.00,,,,,,09,,,,2.6,136*73
$GLGMP,141517.00,,,,,,07,,,,,*7F
$GAGMP,141517.00,,,,,,08,,,,,*7D
$GBGMP,141517.00,,,,,,16,,,,,*71
$PSSN,SNC,[0,310535000,2347]*45
$GPZDA,141522.00,01,01,2025,,*62
$GPDTM,W84,,00.0000000,N,00.0000000,E,00.0000000,W84*5F
$PSSN,TFM,141522.00,,,,*6E
$GPRMC,141522.00,A,4742.1600013,N,01618.1013068,E,0.0,,010125,5.1,E,D*1F
$GPGLL,4742.1600013,N,01618.1013068,E,141522.00,A,D*6E
$GPGGA,141522.00,4742.1600013,N,01618.1013068,E,2,40,0.4,708.1500,M,43.2065,M,1.8,0136*43
$GNGNS,141522.00,4742.1600013,N,01618.1013068,E,DAAA,40,0.4,708.1500,43.2065,,*52
$GPGNS,141522.00,,,,,,09,,,,1.8,136*78
$GLGNS,141522.00,,,,,,07,,,,,*79
$GAGNS,141522.00,,,,,,08,,,,,*7B
$GBGNS,141522.00,,,,,,16,,,,,*77
$GPLLQ,141522.00,010125,,M,,M,1,40,1.335,,M*10
$GPVTG,,T,,M,0.01,N,0.01,K,D*26
$GPHDT,,T*1B
$GPTHS,,V*0E
$GPROT,,V*08
$PSSN,HRP,141522.00,010125,,,,,,,00,0,,*60
$PTNL,AVR,141522.00,,Yaw,,Tilt,,,,0,,00*36
$GPGSA,A,3,06,11,12,24,25,28,29,31,32,,,,0.7,0.4,0.6*31
$GPGSA,A,3,69,77,78,79,81,87,88,,,,,,0.7,0.4,0.6*3F
$GPGSA,A,3,02,07,15,27,29,30,34,36,,,,,0.7,0.4,0.6*39
$GPGSA,A,3,05,08,10,11,12,13,23,24,25,26,32,34,0.7,0.4,0.6*38
$GPGSA,A,3,35,38,44,60,,,,,,,,,0.7,0.4,0.6*3C
$GPGST,141522.00,1.586,0.585,0.442,355.908,0.584,0.442,1.116*58
$GPGBS,141522.00,3.714,2.362,7.477,77,0.0001,-4.177,6.348*79
$GPGRS,141522.00,1,-0.4,0.5,0.2,-0.3,-0.4,0.3,0.1,1.9,-0.5,,,*6A
$GPGRS,141522.00,1,2.5,-4.2,-1.2,1.7,2.7,-1.8,0.2,,,,,*46
$GPGRS,141522.00,1,0.9,-0.7,-0.4,-0.0,0.3,0.0,0.8,-0.3,,,,*4D
$GPGRS,141522.00,1,0.2,0.3,1.0,3.0,0.7,-4.5,-0.4,-0.3,-0.1,0.6,0.5,1.0*4E
$GPGRS,141522.00,1,-1.3,-1.1,0.0,-1.4,,,,,,,,*65
$GPGSV,5,1,19,25,75,312,50,06,22,043,41,24,20,157,40,32,26,263,44*70
$GPGSV,5,2,19,28,33,309,44,29,46,220,48,11,39,082,46,12,56,080,49*74
$GPGSV,5,3,19,31,08,316,40,20,01,101,,36,35,170,46,58,13,245,37*71
$GPGSV,5,4,19,40,23,133,37,34,31,208,43,49,34,195,45,57,04,114,37*78
$GPGSV,5,5,19,41,07,108,35,61,03,257,38*73
$GLGSV,3,1,09,78,75,015,52,69,19,290,47,81,15,187,45,77,29,109,42*68
$GLGSV,3,2,09,79,29,309,47,87,39,040,48,88,61,146,52,68,04,245,42*60
$GLGSV,3,3,09,70,09,352,33*56
$GAGSV,3,1,09,30,74,059,48,19,13,327,34,15,16,162,39,02,22,089,42*61
$GAGSV,3,2,09,07,22,224,41,29,30,283,43,36,27,048,42,34,41,110,45*69
$GAGSV,3,3,09,27,46,285,46*5B
$GBGSV,6,1,23,12,65,140,48,35,19,045,43,26,10,124,41,38,11,074,40*67
$GBGSV,6,2,23,11,23,196,43,05,20,130,37,10,17,066,38,56,24,054,*6F
$GBGSV,6,3,23,31,28,091,,34,46,186,49,24,60,125,51,25,61,299,51*6C
$GBGSV,6,4,23,44,60,081,50,20,10,322,,32,06,318,40,23,10,302,40*6E
$GBGSV,6,5,23,02,05,108,33,08,07,087,36,41,02,269,36,43,05,208,*65
$GBGSV,6,6,23,07,04,064,36,13,06,095,38,60,09,110,40*56
$GPGGA,141522.00,,,,,0,00,,,M,,M,,*49
$PTNL,GGK,141522.00,010125,4742.1600013,N,01618.1013068,E,1,40,0.7,EHT751.3565,M*4D
$GPGGQ,141522.00,010125,4742.1600013,N,01618.1013068,E,1,40,1.335,708.1500,M*3D
$GPGFA,141522.00,5.559,9.155,0.585,0.442,355.908,1.116,,VVV*09
$GPLLK,141522.00,010125,,M,,M,1,40,0.8,,M*06
$GNGMP,141522.00,,,,,DAAA,40,0.4,,,,*57
$GPGMP,141522.00,,,,,,09,,,,1.8,136*78
$GLGMP,141522.00,,,,,,07,,,,,*79
$GAGMP,141522.00,,,,,,08,,,,,*7B
$GBGMP,141522.00,,,,,,16,,,,,*77
$PSSN,SNC,[0,310540000,2347]*47
$GPZDA,141527.00,01,01,2025,,*67
$GPDTM,W84,,00.0000000,N,00.0000000,E,00.0000000,W84*5F
$PSSN,TFM,141527.00,,,,*6B
$GPRMC,141527.00,A,4742.1599993,N,01618.1013086,E,0.0,,010125,5.1,E,D*18
$GPGLL,4742.1599993,N,01618.1013086,E,141527.00,A,D*69
$GPGGA,141527.00,4742.1599993,N,01618.1013086,E,2,40,0.4,708.1515,M,43.2065,M,2.8,0136*43
$GNGNS,141527.00,4742.1599993,N,01618.1013086,E,DAAA,40,0.4,708.1515,43.2065,,*51
$GPGNS,141527.00,,,,,,09,,,,2.8,136*7E
$GLGNS,141527.00,,,,,,07,,,,,*7C
$GAGNS,141527.00,,,,,,08,,,,,*7E
$GBGNS,141527.00,,,,,,16,,,,,*72
$GPLLQ,141527.00,010125,,M,,M,1,40,1.340,,M*17
$GPVTG,,T,,M,0.00,N,0.01,K,D*27
$GPHDT,,T*1B
$GPTHS,,V*0E
$GPROT,,V*08
$PSSN,HRP,141527.00,010125,,,,,,,00,0,,*65
$PTNL,AVR,141527.00,,Yaw,,Tilt,,,,0,,00*33
$GPGSA,A,3,06,11,12,24,25,28,29,31,32,,,,0.7,0.4,0.6*31
$GPGSA,A,3,69,77,78,79,81,87,88,,,,,,0.7,0.4,0.6*3F
$GPGSA,A,3,02,07,15,27,29,30,34,36,,,,,0.7,0.4,0.6*39
$GPGSA,A,3,05,08,10,11,12,13,23,24,25,26,32,34,0.7,0.4,0.6*38
$GPGSA,A,3,35,38,44,60,,,,,,,,,0.7,0.4,0.6*3C
$GPGST,141527.00,1.716,0.584,0.442,355.682,0.583,0.443,1.123*5A
$GPGBS,141527.00,3.740,2.376,7.529,32,0.0001,-1.028,1.404*75
$GPGRS,141527.00,1,-0.7,0.5,0.2,-0.7,-0.1,0.3,0.1,1.9,-1.0,,,*69
$GPGRS,141527.00,1,2.3,-4.3,-1.2,1.7,3.6,-2.2,0.3,,,,,*4C
$GPGRS,141527.00,1,1.1,-0.7,-0.3,-0.1,0.1,-0.1,1.0,-0.3,,,,*60
$GPGRS,141527.00,1,0.2,0.6,1.6,2.9,1.2,-5.0,-0.1,-0.4,0.0,0.6,0.2,0.8*60
$GPGRS,141527.00,1,-1.4,-0.5,-0.0,-1.3,,,,,,,,*48
$GPGSV,5,1,19,25,75,313,50,06,22,042,41,24,20,158,40,32,25,263,45*7D
$GPGSV,5,2,19,28,33,309,44,29,46,220,48,11,39,082,46,12,56,080,49*74
$GPGSV,5,3,19,31,08,316,39,20,01,101,,36,35,170,46,58,13,245,36*7E
$GPGSV,5,4,19,40,23,133,37,34,31,208,44,49,34,195,45,57,04,114,37*7F
$GPGSV,5,5,19,41,07,108,35,61,03,257,38*73
$GLGSV,3,1,09,78,75,015,52,69,19,290,46,81,15,187,45,77,29,109,42*69
$GLGSV,3,2,09,79,30,309,47,87,39,040,47,88,61,146,52,68,04,245,43*66
$GLGSV,3,3,09,70,09,352,33*56
$GAGSV,3,1,09,30,74,059,48,19,13,327,34,15,16,162,39,02,22,089,42*61
$GAGSV,3,2,09,07,22,224,41,29,30,283,43,36,27,048,42,34,41,110,45*69
$GAGSV,3,3,09,27,46,285,46*5B
$GBGSV,6,1,23,12,65,140,48,35,19,045,43,26,10,124,41,38,11,074,40*67
$GBGSV,6,2,23,11,23,196,43,05,20,130,37,10,17,066,38,56,24,054,*6F
$GBGSV,6,3,23,31,28,091,,34,46,186,49,24,60,125,51,25,61,299,51*6C
$GBGSV,6,4,23,44,60,081,50,20,10,322,,32,06,318,41,23,10,302,40*6F
$GBGSV,6,5,23,02,05,108,33,08,07,087,37,41,02,269,36,43,05,208,*64
$GBGSV,6,6,23,07,04,064,36,13,06,095,38,60,09,110,39*58
$GPGGA,141527.00,,,,,0,00,,,M,,M,,*4C
$PTNL,GGK,141527.00,010125,4742.1599993,N,01618.1013086,E,1,40,0.7,EHT751.3581,M*40
$GPGGQ,141527.00,010125,4742.1599993,N,01618.1013086,E,1,40,1.340,708.1515,M*3C
$GPGFA,141527.00,5.548,9.206,0.584,0.442,355.682,1.123,,VVV*03
$GPLLK,141527.00,010125,,M,,M,1,40,0.8,,M*03
$GNGMP,141527.00,,,,,DAAA,40,0.4,,,,*52
$GPGMP,141527.00,,,,,,09,,,,2.8,136*7E
$GLGMP,141527.00,,,,,,07,,,,,*7C
$GAGMP,141527.00,,,,,,08,,,,,*7E
$GBGMP,141527.00,,,,,,16,,,,,*72
$PSSN,SNC,[0,310545000,2347]*42
$GPZDA,141532.00,01,01,2025,,*63
$GPDTM,W84,,00.0000000,N,00.0000000,E,00.0000000,W84*5F
$PSSN,TFM,141532.00,,,,*6F
$GPRMC,141532.00,A,4742.1599982,N,01618.1013057,E,0.0,,010125,5.1,E,D*10
$GPGLL,4742.1599982,N,01618.1013057,E,141532.00,A,D*61
$GPGGA,141532.00,4742.1599982,N,01618.1013057,E,2,40,0.4,708.1492,M,43.2065,M,2.9,0136*44
$GNGNS,141532.00,4742.1599982,N,01618.1013057,E,DAAA,40,0.4,708.1492,43.2065,,*57
$GPGNS,141532.00,,,,,,09,,,,2.9,136*7B
$GLGNS,141532.00,,,,,,07,,,,,*78
$GAGNS,141532.00,,,,,,08,,,,,*7A
$GBGNS,141532.00,,,,,,16,,,,,*76
$GPLLQ,141532.00,010125,,M,,M,1,40,1.345,,M*16
$GPVTG,,T,,M,0.00,N,0.01,K,D*27
$GPHDT,,T*1B
$GPTHS,,V*0E
$GPROT,,V*08
$PSSN,HRP,141532.00,010125,,,,,,,00,0,,*61
$PTNL,AVR,141532.00,,Yaw,,Tilt,,,,0,,00*37
$GPGSA,A,3,06,11,12,24,25,28,29,31,32,,,,0.7,0.4,0.6*31
$GPGSA,A,3,69,77,78,79,81,87,88,,,,,,0.7,0.4,0.6*3F
$GPGSA,A,3,02,07,15,27,29,30,34,36,,,,,0.7,0.4,0.6*39
$GPGSA,A,3,05,08,10,11,12,13,23,24,25,26,32,34,0.7,0.4,0.6*38
$GPGSA,A,3,35,38,44,60,,,,,,,,,0.7,0.4,0.6*3C
$GPGST,141532.00,1.801,0.587,0.445,355.825,0.586,0.446,1.125*56
$GPGBS,141532.00,3.734,2.385,7.520,77,0.0001,-5.402,6.349*77
$GPGRS,141532.00,1,-0.9,0.5,0.3,-0.3,-0.3,0.6,-0.1,1.9,-0.4,,,*49
$GPGRS,141532.00,1,2.1,-5.4,-0.8,1.8,3.8,-2.6,-0.2,,,,,*6E
$GPGRS,141532.00,1,0.9,-0.5,-0.3,0.0,0.2,-0.0,0.9,-0.3,,,,*49
$GPGRS,141532.00,1,0.5,0.7,1.6,1.6,1.4,-5.0,0.5,-0.2,-0.1,0.6,1.1,0.8*69
$GPGRS,141532.00,1,-1.8,0.0,0.1,-1.3,,,,,,,,*44
$GPGSV,5,1,19,25,76,313,50,06,22,042,41,24,20,158,40,32,25,263,45*7E
$GPGSV,5,2,19,28,33,309,45,29,46,221,48,11,39,082,46,12,56,080,48*75
$GPGSV,5,3,19,31,08,316,39,20,01,101,,36,35,170,46,58,13,245,37*7F
$GPGSV,5,4,19,40,23,133,37,34,31,208,44,49,34,195,45,57,04,114,37*7F
$GPGSV,5,5,19,41,07,108,35,61,03,257,38*73
$GLGSV,3,1,09,78,75,015,52,69,19,290,47,81,15,187,45,77,29,109,42*68
$GLGSV,3,2,09,87,39,040,47,79,30,309,47,88,61,146,52,68,04,245,42*67
$GLGSV,3,3,09,70,09,352,33*56
$GAGSV,3,1,09,30,74,059,48,19,13,327,34,15,16,162,39,02,22,089,41*62
$GAGSV,3,2,09,07,22,224,41,29,30,283,43,36,27,048,41,34,41,110,45*6A
$GAGSV,3,3,09,27,46,285,46*5B
$GBGSV,6,1,23,12,65,140,48,35,19,045,42,26,10,124,41,38,11,074,40*66
$GBGSV,6,2,23,11,23,196,43,05,20,130,37,10,17,066,38,56,24,054,*6F
$GBGSV,6,3,23,31,28,091,,34,46,186,49,24,60,125,51,25,61,299,51*6C
$GBGSV,6,4,23,44,60,080,50,20,10,322,,32,06,318,41,23,10,302,41*6F
$GBGSV,6,5,23,02,05,108,33,08,07,087,36,41,02,268,37,43,05,208,*65
$GBGSV,6,6,23,07,04,064,36,13,06,095,38,60,09,110,40*56
$GPGGA,141532.00,,,,,0,00,,,M,,M,,*48
$PTNL,GGK,141532.00,010125,4742.1599982,N,01618.1013057,E,1,40,0.7,EHT751.3557,M*43
$GPGGQ,141532.00,010125,4742.1599982,N,01618.1013057,E,1,40,1.345,708.1492,M*3F
$GPGFA,141532.00,5.578,9.228,0.587,0.445,355.825,1.125,,VVV*09
$GPLLK,141532.00,010125,,M,,M,1,40,0.8,,M*07
$GNGMP,141532.00,,,,,DAAA,40,0.4,,,,*56
$GPGMP,141532.00,,,,,,09,,,,2.9,136*7B
$GLGMP,141532.00,,,,,,07,,,,,*78
$GAGMP,141532.00,,,,,,08,,,,,*7A
$GBGMP,141532.00,,,,,,16,,,,,*76
$PSSN,SNC,[0,310550000,2347]*46
$GPZDA,141537.00,01,01,2025,,*66
$GPDTM,W84,,00.0000000,N,00.0000000,E,00.0000000,W84*5F
$PSSN,TFM,141537.00,,,,*6A
$GPRMC,141537.00,A,4742.1599979,N,01618.1013067,E,0.0,,010125,5.1,E,D*12
$GPGLL,4742.1599979,N,01618.1013067,E,141537.00,A,D*63
$GPGGA,141537.00,4742.1599979,N,01618.1013067,E,2,40,0.4,708.1515,M,43.2065,M,2.6,0136*47
$GNGNS,141537.00,4742.1599979,N,01618.1013067,E,DAAA,40,0.4,708.1515,43.2065,,*5B
$GPGNS,141537.00,,,,,,09,,,,2.6,136*71
$GLGNS,141537.00,,,,,,07,,,,,*7D
$GAGNS,141537.00,,,,,,08,,,,,*7F
$GBGNS,141537.00,,,,,,16,,,,,*73
$GPLLQ,141537.00,010125,,M,,M,1,40,1.337,,M*16
$GPVTG,,T,,M,0.00,N,0.00,K,D*26
$GPHDT,,T*1B
$GPTHS,,V*0E
$GPROT,,V*08
$PSSN,HRP,141537.00,010125,,,,,,,00,0,,*64
$PTNL,AVR,141537.00,,Yaw,,Tilt,,,,0,,00*32
$GPGSA,A,3,06,11,12,24,25,28,29,31,32,,,,0.7,0.4,0.6*31
$GPGSA,A,3,69,77,78,79,81,87,88,,,,,,0.7,0.4,0.6*3F
$GPGSA,A,3,02,07,15,27,29,30,34,36,,,,,0.7,0.4,0.6*39
$GPGSA,A,3,05,08,10,11,12,13,23,24,25,26,32,34,0.7,0.4,0.6*38
$GPGSA,A,3,35,38,44,60,,,,,,,,,0.7,0.4,0.6*3C
$GPGST,141537.00,1.664,0.587,0.445,355.970,0.586,0.446,1.116*5F
$GPGBS,141537.00,3.776,2.360,7.445,77,0.0001,-4.902,6.350*79
$GPGRS,141537.00,1,-1.0,0.5,0.4,-0.3,-0.4,0.7,-0.1,2.0,-0.8,,,*43
$GPGRS,141537.00,1,2.8,-4.9,-1.0,2.0,3.0,-1.9,0.1,,,,,*46
$GPGRS,141537.00,1,0.9,-0.2,-0.4,-0.1,-0.0,0.1,1.0,-0.1,,,,*69
$GPGRS,141537.00,1,0.3,-0.7,1.5,1.2,0.5,-4.7,0.2,-0.1,-0.1,0.4,0.4,0.9*45
$GPGRS,141537.00,1,-2.0,-0.0,0.0,-1.2,,,,,,,,*67
$GPGSV,5,1,19,25,76,313,50,06,22,042,40,24,20,158,40,32,25,263,44*7E
$GPGSV,5,2,19,28,33,309,45,29,46,221,48,11,39,082,46,12,56,080,49*74
$GPGSV,5,3,19,31,08,316,40,20,01,101,,36,35,170,46,58,13,245,36*70
$GPGSV,5,4,19,40,23,133,37,34,31,208,43,49,34,195,45,57,04,114,37*78
$GPGSV,5,5,19,41,07,108,35,61,03,257,38*73
$GLGSV,3,1,09,78,75,016,52,69,19,290,47,81,15,187,44,77,29,109,42*6A
$GLGSV,3,2,09,87,39,040,47,79,30,309,47,88,61,146,53,68,04,245,43*67
$GLGSV,3,3,09,70,09,352,33*56
$GAGSV,3,1,09,30,74,059,48,19,13,327,34,15,16,162,39,02,22,089,41*62
$GAGSV,3,2,09,07,22,224,41,29,30,283,43,36,27,048,42,34,41,110,45*69
$GAGSV,3,3,09,27,46,285,46*5B
$GBGSV,6,1,23,12,65,139,48,35,19,045,42,26,10,124,41,38,11,074,40*68
$GBGSV,6,2,23,11,23,196,43,05,20,130,37,10,17,066,38,56,24,054,*6F
$GBGSV,6,3,23,31,28,090,,34,46,186,49,24,60,125,51,25,61,299,51*6D
$GBGSV,6,4,23,44,60,080,50,20,10,322,,32,06,317,41,23,10,302,40*61
$GBGSV,6,5,23,02,05,108,33,08,07,087,36,41,02,268,37,43,05,208,*65
$GBGSV,6,6,23,07,04,064,36,13,06,095,38,60,09,110,39*58
$GPGGA,141537.00,,,,,0,00,,,M,,M,,*4D
$PTNL,GGK,141537.00,010125,4742.1599979,N,01618.1013067,E,1,40,0.7,EHT751.3581,M*4A
$GPGGQ,141537.00,010125,4742.1599979,N,01618.1013067,E,1,40,1.337,708.1515,M*36
$GPGFA,141537.00,5.579,9.148,0.587,0.445,355.970,1.116,,VVV*09
$GPLLK,141537.00,010125,,M,,M,1,40,0.8,,M*02
$GNGMP,141537.00,,,,,DAAA,40,0.4,,,,*53
$GPGMP,141537.00,,,,,,09,,,,2.6,136*71
$GLGMP,141537.00,,,,,,07,,,,,*7D
$GAGMP,141537.00,,,,,,08,,,,,*7F
$GBGMP,141537.00,,,,,,16,,,,,*73
$PSSN,SNC,[0,310555000,2347]*43
$GPZDA,141542.00,01,01,2025,,*64
$GPDTM,W84,,00.0000000,N,00.0000000,E,00.0000000,W84*5F
$PSSN,TFM,141542.00,,,,*68
$GPRMC,141542.00,A,4742.1599962,N,01618.1013046,E,0.0,,010125,5.1,E,D*19
$GPGLL,4742.1599962,N,01618.1013046,E,141542.00,A,D*68
$GPGGA,141542.00,4742.1599962,N,01618.1013046,E,2,40,0.4,708.1511,M,43.2065,M,1.8,0136*45
$GNGNS,141542.00,4742.1599962,N,01618.1013046,E,DAAA,40,0.4,708.1511,43.2065,,*54
$GPGNS,141542.00,,,,,,09,,,,1.8,136*7E
$GLGNS,141542.00,,,,,,07,,,,,*7F
$GAGNS,141542.00,,,,,,08,,,,,*7D
$GBGNS,141542.00,,,,,,16,,,,,*71
$GPLLQ,141542.00,010125,,M,,M,1,40,1.316,,M*17
$GPVTG,,T,,M,0.00,N,0.01,K,D*27
$GPHDT,,T*1B
$GPTHS,,V*0E
$GPROT,,V*08
$PSSN,HRP,141542.00,010125,,,,,,,00,0,,*66
$PTNL,AVR,141542.00,,Yaw,,Tilt,,,,0,,00*30
$GPGSA,A,3,06,11,12,24,25,28,29,31,32,,,,0.7,0.4,0.6*31
$GPGSA,A,3,69,77,78,79,81,87,88,,,,,,0.7,0.4,0.6*3F
$GPGSA,A,3,02,07,15,27,29,30,34,36,,,,,0.7,0.4,0.6*39
$GPGSA,A,3,05,08,10,11,12,13,23,24,25,26,32,34,0.7,0.4,0.6*38
$GPGSA,A,3,35,38,44,60,,,,,,,,,0.7,0.4,0.6*3C
$GPGST,141542.00,1.663,0.574,0.435,352.485,0.572,0.438,1.102*56
$GPGBS,141542.00,3.528,2.334,7.358,77,0.0001,-5.319,6.350*79
$GPGRS,141542.00,1,-1.1,0.7,0.4,0.2,-0.3,0.5,0.0,1.8,-0.6,,,*42
$GPGRS,141542.00,1,1.7,-5.3,-0.8,2.5,2.5,-2.2,0.5,,,,,*47
$GPGRS,141542.00,1,0.6,-0.3,-0.4,-0.4,0.1,-0.1,1.0,-0.6,,,,*66
$GPGRS,141542.00,1,0.2,-0.4,1.1,1.6,0.2,-4.8,-0.4,-0.3,-0.4,0.5,0.7,0.6*6C
$GPGRS,141542.00,1,-1.8,0.2,-0.0,-1.3,,,,,,,,*6D
$GPGSV,5,1,19,25,76,313,50,06,22,042,41,24,20,158,40,32,25,263,45*7E
$GPGSV,5,2,19,28,33,309,45,29,46,221,48,11,39,082,46,12,56,080,49*74
$GPGSV,5,3,19,31,08,316,40,20,01,101,,36,35,170,45,58,13,245,36*73
$GPGSV,5,4,19,40,23,133,37,34,31,208,43,49,34,195,45,57,04,114,37*78
$GPGSV,5,5,19,41,07,108,35,61,03,257,38*73
$GLGSV,3,1,09,78,75,016,52,69,19,290,46,81,15,187,44,77,29,109,41*68
$GLGSV,3,2,09,87,39,040,47,79,30,309,48,88,61,146,52,68,04,245,44*6E
$GLGSV,3,3,09,70,09,352,33*56
$GAGSV,3,1,09,30,74,059,48,19,13,327,34,15,16,162,39,02,22,089,41*62
$GAGSV,3,2,09,07,22,224,41,29,30,283,43,36,27,048,42,34,41,110,46*6A
$GAGSV,3,3,09,27,46,285,46*5B
$GBGSV,6,1,23,12,65,139,48,35,19,045,43,26,10,124,41,38,11,074,40*69
$GBGSV,6,2,23,11,23,196,43,05,20,130,37,10,17,066,38,56,24,054,*6F
$GBGSV,6,3,23,31,28,090,,34,46,186,49,24,60,125,51,25,61,299,51*6D
$GBGSV,6,4,23,44,60,080,50,20,10,322,,32,06,317,41,23,10,302,40*61
$GBGSV,6,5,23,02,05,108,33,08,08,087,35,41,02,268,38,43,05,208,*66
$GBGSV,6,6,23,07,04,064,36,13,06,095,38,60,09,110,39*58
$GPGGA,141542.00,,,,,0,00,,,M,,M,,*4F
$PTNL,GGK,141542.00,010125,4742.1599962,N,01618.1013046,E,1,40,0.7,EHT751.3576,M*49
$GPGGQ,141542.00,010125,4742.1599962,N,01618.1013046,E,1,40,1.316,708.1511,M*3A
$GPGFA,141542.00,5.454,9.038,0.574,0.435,352.485,1.102,,VVV*0D
$GPLLK,141542.00,010125,,M,,M,1,40,0.8,,M*00
$GNGMP,141542.00,,,,,DAAA,40,0.4,,,,*51
$GPGMP,141542.00,,,,,,09,,,,1.8,136*7E
$GLGMP,141542.00,,,,,,07,,,,,*7F
$GAGMP,141542.00,,,,,,08,,,,,*7D
$GBGMP,141542.00,,,,,,16,,,,,*71
$PSSN,SNC,[0,310560000,2347]*45
$GPZDA,141547.00,01,01,2025,,*61
$GPDTM,W84,,00.0000000,N,00.0000000,E,00.0000000,W84*5F
$PSSN,TFM,141547.00,,,,*6D
$GPRMC,141547.00,A,4742.1599969,N,01618.1013039,E,0.0,,010125,5.1,E,D*1F
$GPGLL,4742.1599969,N,01618.1013039,E,141547.00,A,D*6E
$GPGGA,141547.00,4742.1599969,N,01618.1013039,E,2,39,0.4,708.1490,M,43.2065,M,2.8,0136*46
$GNGNS,141547.00,4742.1599969,N,01618.1013039,E,DAAA,39,0.4,708.1490,43.2065,,*54
$GPGNS,141547.00,,,,,,09,,,,2.8,136*78
$GLGNS,141547.00,,,,,,07,,,,,*7A
$GAGNS,141547.00,,,,,,08,,,,,*78
$GBGNS,141547.00,,,,,,15,,,,,*77
$GPLLQ,141547.00,010125,,M,,M,1,39,1.324,,M*1D
$GPVTG,,T,,M,0.00,N,0.00,K,D*26
$GPHDT,,T*1B
$GPTHS,,V*0E
$GPROT,,V*08
$PSSN,HRP,141547.00,010125,,,,,,,00,0,,*63
$PTNL,AVR,141547.00,,Yaw,,Tilt,,,,0,,00*35
$GPGSA,A,3,06,11,12,24,25,28,29,31,32,,,,0.7,0.4,0.6*31
$GPGSA,A,3,69,77,78,79,81,87,88,,,,,,0.7,0.4,0.6*3F
$GPGSA,A,3,02,07,15,27,29,30,34,36,,,,,0.7,0.4,0.6*39
$GPGSA,A,3,05,10,11,12,13,23,24,25,26,32,34,35,0.7,0.4,0.6*36
$GPGSA,A,3,38,44,60,,,,,,,,,,0.7,0.4,0.6*3A
$GPGST,141547.00,1.622,0.574,0.436,352.529,0.572,0.439,1.111*51
$GPGBS,141547.00,3.554,2.356,7.443,77,0.0001,-4.824,6.350*7A
$GPGRS,141547.00,1,-0.7,0.4,0.2,-0.1,-0.3,0.6,0.1,1.7,-1.0,,,*61
$GPGRS,141547.00,1,1.5,-4.8,-1.1,2.3,2.7,-1.9,0.2,,,,,*49
$GPGRS,141547.00,1,0.6,-0.4,-0.3,-0.3,-0.0,-0.1,0.9,-0.6,,,,*40
$GPGRS,141547.00,1,0.6,1.0,1.9,0.5,-4.9,-0.0,-0.5,-0.3,0.6,0.7,0.3,-1.6*65
$GPGRS,141547.00,1,-0.1,0.1,-1.4,,,,,,,,,*67
$GPGSV,5,1,19,25,76,313,50,06,22,042,41,24,20,158,40,32,25,263,45*7E
$GPGSV,5,2,19,28,33,309,45,29,46,221,47,11,39,082,46,12,56,081,49*7A
$GPGSV,5,3,19,31,08,316,39,20,01,101,,36,35,170,45,58,13,245,36*7D
$GPGSV,5,4,19,40,23,133,36,34,31,208,43,49,34,195,45,57,04,114,37*79
$GPGSV,5,5,19,41,07,108,35,61,03,257,38*73
$GLGSV,3,1,09,78,75,016,52,69,19,290,45,81,15,187,45,77,28,109,42*68
$GLGSV,3,2,09,87,39,040,48,79,30,309,48,88,61,146,52,68,04,245,44*61
$GLGSV,3,3,09,70,09,352,34*51
$GAGSV,3,1,09,30,74,059,48,19,13,327,34,15,16,162,39,02,22,089,41*62
$GAGSV,3,2,09,07,21,224,41,29,30,283,43,36,27,048,42,34,41,110,46*69
$GAGSV,3,3,09,27,46,285,46*5B
$GBGSV,6,1,23,12,65,139,48,35,19,045,43,26,10,124,41,38,11,074,41*68
$GBGSV,6,2,23,11,23,196,43,05,20,130,37,10,17,066,38,56,24,054,*6F
$GBGSV,6,3,23,31,28,090,,34,46,186,49,24,60,126,51,25,61,299,51*6E
$GBGSV,6,4,23,44,60,080,50,20,10,322,,32,06,317,40,23,10,302,40*60
$GBGSV,6,5,23,02,05,108,33,08,08,087,35,41,02,268,37,43,05,208,*69
$GBGSV,6,6,23,07,04,064,36,13,06,095,38,60,09,110,39*58
$GPGGA,141547.00,,,,,0,00,,,M,,M,,*4A
$PTNL,GGK,141547.00,010125,4742.1599969,N,01618.1013039,E,1,39,0.7,EHT751.3555,M*40
$GPGGQ,141547.00,010125,4742.1599969,N,01618.1013039,E,1,39,1.324,708.1490,M*3B
$GPGFA,141547.00,5.456,9.107,0.574,0.436,352.529,1.111,,VVV*01
$GPLLK,141547.00,010125,,M,,M,1,39,0.8,,M*0B
$GNGMP,141547.00,,,,,DAAA,39,0.4,,,,*5A
$GPGMP,141547.00,,,,,,09,,,,2.8,136*78
$GLGMP,141547.00,,,,,,07,,,,,*7A
$GAGMP,141547.00,,,,,,08,,,,,*78
$GBGMP,141547.00,,,,,,15,,,,,*77
$PSSN,SNC,[0,310565000,2347]*40
$GPZDA,141552.00,01,01,2025,,*65
$GPDTM,W84,,00.0000000,N,00.0000000,E,00.0000000,W84*5F
$PSSN,TFM,141552.00,,,,*69
$GPRMC,141552.00,A,4742.1599959,N,01618.1013048,E,0.0,,010125,5.1,E,D*1E
$GPGLL,4742.1599959,N,01618.1013048,E,141552.00,A,D*6F
$GPGGA,141552.00,4742.1599959,N,01618.1013048,E,2,39,0.4,708.1488,M,43.2065,M,2.9,0136*4F
$GNGNS,141552.00,4742.1599959,N,01618.1013048,E,DAAA,39,0.4,708.1488,43.2065,,*5C
$GPGNS,141552.00,,,,,,09,,,,2.9,136*7D
$GLGNS,141552.00,,,,,,07,,,,,*7E
$GAGNS,141552.00,,,,,,08,,,,,*7C
$GBGNS,141552.00,,,,,,15,,,,,*73
$GPLLQ,141552.00,010125,,M,,M,1,39,1.324,,M*19
$GPVTG,,T,,M,0.00,N,0.01,K,D*27
$GPHDT,,T*1B
$GPTHS,,V*0E
$GPROT,,V*08
$PSSN,HRP,141552.00,010125,,,,,,,00,0,,*67
$PTNL,AVR,141552.00,,Yaw,,Tilt,,,,0,,00*31
$GPGSA,A,3,06,11,12,24,25,28,29,31,32,,,,0.7,0.4,0.6*31
$GPGSA,A,3,69,77,78,79,81,87,88,,,,,,0.7,0.4,0.6*3F
$GPGSA,A,3,02,07,15,27,29,30,34,36,,,,,0.7,0.4,0.6*39
$GPGSA,A,3,05,10,11,12,13,23,24,25,26,32,34,35,0.7,0.4,0.6*36
$GPGSA,A,3,38,44,60,,,,,,,,,,0.7,0.4,0.6*3A
$GPGST,141552.00,1.628,0.576,0.440,352.920,0.574,0.442,1.109*5A
$GPGBS,141552.00,3.551,2.366,7.407,77,0.0001,-4.459,6.350*7E
$GPGRS,141552.00,1,-0.9,0.5,0.2,0.0,-0.3,0.5,-0.0,1.7,-0.6,,,*6E
$GPGRS,141552.00,1,2.5,-4.5,-0.9,2.4,3.5,-1.1,0.3,,,,,*47
$GPGRS,141552.00,1,0.5,-0.5,-0.2,-0.2,-0.1,0.2,0.7,-0.4,,,,*65
$GPGRS,141552.00,1,0.1,0.9,1.6,0.9,-4.6,1.0,-0.3,-0.1,1.0,0.7,0.9,-1.2*43
$GPGRS,141552.00,1,-0.4,-0.0,-1.2,,,,,,,,,*4C
$GPGSV,5,1,19,25,76,313,50,06,22,042,41,24,20,158,39,32,25,263,45*70
$GPGSV,5,2,19,28,33,309,45,29,46,221,48,11,39,082,45,12,56,081,49*76
$GPGSV,5,3,19,31,08,316,39,20,01,101,,36,35,170,45,58,13,245,36*7D
$GPGSV,5,4,19,40,23,133,36,34,31,208,43,49,34,195,45,57,04,114,37*79
$GPGSV,5,5,19,41,07,108,35,61,03,257,38*73
$GLGSV,3,1,09,78,75,016,52,69,19,290,46,81,15,187,45,77,28,109,42*6B
$GLGSV,3,2,09,79,30,309,48,87,39,040,48,88,61,146,52,68,04,245,43*66
$GLGSV,3,3,09,70,09,352,32*57
$GAGSV,3,1,09,30,74,059,48,19,13,327,35,15,16,162,39,02,22,089,40*62
$GAGSV,3,2,09,07,21,224,41,29,30,283,43,36,27,048,42,34,41,110,45*6A
$GAGSV,3,3,09,27,46,285,45*58
$GBGSV,6,1,23,12,65,139,48,35,19,045,43,26,10,124,42,38,11,074,41*6B
$GBGSV,6,2,23,11,23,196,43,05,20,130,37,10,17,066,38,56,24,054,*6F
$GBGSV,6,3,23,31,28,090,,34,46,186,49,24,60,126,51,25,61,299,51*6E
$GBGSV,6,4,23,44,60,080,50,20,10,322,,32,06,317,40,23,10,302,40*60
$GBGSV,6,5,23,02,05,108,33,08,08,087,35,41,02,268,38,43,05,208,*66
$GBGSV,6,6,23,07,04,064,36,13,06,095,38,60,09,110,40*56
$GPGGA,141552.00,,,,,0,00,,,M,,M,,*4E
$PTNL,GGK,141552.00,010125,4742.1599959,N,01618.1013048,E,1,39,0.7,EHT751.3553,M*47
$GPGGQ,141552.00,010125,4742.1599959,N,01618.1013048,E,1,39,1.324,708.1488,M*33
$GPGFA,141552.00,5.473,9.093,0.576,0.440,352.920,1.109,,VVV*01
$GPLLK,141552.00,010125,,M,,M,1,39,0.8,,M*0F
$GNGMP,141552.00,,,,,DAAA,39,0.4,,,,*5E
$GPGMP,141552.00,,,,,,09,,,,2.9,136*7D
$GLGMP,141552.00,,,,,,07,,,,,*7E
$GAGMP,141552.00,,,,,,08,,,,,*7C
$GBGMP,141552.00,,,,,,15,,,,,*73
$PSSN,SNC,[0,310570000,2347]*44
$GPZDA,141557.00,01,01,2025,,*60
$GPDTM,W84,,00.0000000,N,00.0000000,E,00.0000000,W84*5F
$PSSN,TFM,141557.00,,,,*6C
$GPRMC,141557.00,A,4742.1599979,N,01618.1013035,E,0.0,,010125,5.1,E,D*13
$GPGLL,4742.1599979,N,01618.1013035,E,141557.00,A,D*62
$GPGGA,141557.00,4742.1599979,N,01618.1013035,E,2,39,0.4,708.1556,M,43.2065,M,2.6,0136*4F
$GNGNS,141557.00,4742.1599979,N,01618.1013035,E,DAAA,39,0.4,708.1556,43.2065,,*53
$GPGNS,141557.00,,,,,,09,,,,2.6,136*77
$GLGNS,141557.00,,,,,,07,,,,,*7B
$GAGNS,141557.00,,,,,,08,,,,,*79
$GBGNS,141557.00,,,,,,15,,,,,*76
$GPLLQ,141557.00,010125,,M,,M,1,39,1.316,,M*1D
$GPVTG,,T,,M,0.00,N,0.00,K,D*26
$GPHDT,,T*1B
$GPTHS,,V*0E
$GPROT,,V*08
$PSSN,HRP,141557.00,010125,,,,,,,00,0,,*62
$PTNL,AVR,141557.00,,Yaw,,Tilt,,,,0,,00*34
$GPGSA,A,3,06,11,12,24,25,28,29,31,32,,,,0.7,0.4,0.6*31
$GPGSA,A,3,69,77,78,79,81,87,88,,,,,,0.7,0.4,0.6*3F
$GPGSA,A,3,02,07,15,27,29,30,34,36,,,,,0.7,0.4,0.6*39
$GPGSA,A,3,05,10,11,12,13,23,24,25,26,32,34,35,0.7,0.4,0.6*36
$GPGSA,A,3,38,44,60,,,,,,,,,,0.7,0.4,0.6*3A
$GPGST,141557.00,1.619,0.576,0.439,353.188,0.574,0.442,1.099*50
$GPGBS,141557.00,3.599,2.339,7.343,77,0.0001,-4.496,6.351*70
$GPGRS,141557.00,1,-0.6,0.7,0.3,-0.2,-0.6,0.5,0.4,1.5,-0.8,,,*68
$GPGRS,141557.00,1,2.4,-4.5,-0.9,1.9,3.7,-1.5,0.0,,,,,*48
$GPGRS,141557.00,1,0.5,-0.6,-0.0,-0.1,-0.1,0.0,0.8,-0.5,,,,*6E
$GPGRS,141557.00,1,-0.0,0.9,1.4,1.0,-4.5,0.7,-0.3,-0.3,0.7,1.0,1.2,-1.4*6B
$GPGRS,141557.00,1,-0.7,-0.1,-1.4,,,,,,,,,*4D
$GPGSV,5,1,19,25,76,313,49,06,22,042,41,24,20,158,40,32,25,263,45*76
$GPGSV,5,2,19,28,33,309,44,29,46,221,48,11,39,082,46,12,56,081,49*74
$GPGSV,5,3,19,31,08,316,39,20,01,101,,36,35,170,45,58,13,245,36*7D
$GPGSV,5,4,19,40,23,133,37,34,31,208,43,49,34,195,45,57,04,114,37*78
$GPGSV,5,5,19,41,07,108,35,61,03,257,38*73
$GLGSV,3,1,09,78,75,016,52,69,19,290,46,81,15,187,44,77,28,109,42*6A
$GLGSV,3,2,09,79,30,309,48,87,39,040,47,88,61,146,52,68,04,245,43*69
$GLGSV,3,3,09,70,09,352,33*56
$GAGSV,3,1,09,30,74,059,48,19,13,327,34,15,16,162,40,02,22,089,40*6D
$GAGSV,3,2,09,07,21,224,41,29,30,283,43,36,27,048,41,34,41,110,45*69
$GAGSV,3,3,09,27,46,285,46*5B
$GBGSV,6,1,23,12,65,139,48,35,19,045,43,38,11,074,41,05,20,130,37*6E
$GBGSV,6,2,23,11,23,196,43,10,17,066,38,56,24,054,,31,28,090,*6F
$GBGSV,6,3,23,34,46,186,49,24,60,126,51,25,61,299,51,44,60,080,50*64
$GBGSV,6,4,23,26,10,124,42,13,07,095,38,32,06,317,40,20,10,322,*68
$GBGSV,6,5,23,08,08,087,35,07,04,064,36,41,02,268,38,43,05,208,*6C
$GBGSV,6,6,23,23,10,302,41,02,05,108,34,60,09,110,40*5C
$GPGGA,141557.00,,,,,0,00,,,M,,M,,*4B
$PTNL,GGK,141557.00,010125,4742.1599979,N,01618.1013035,E,1,39,0.7,EHT751.3621,M*4C
$GPGGQ,141557.00,010125,4742.1599979,N,01618.1013035,E,1,39,1.316,708.1556,M*3D
$GPGFA,141557.00,5.477,9.011,0.576,0.439,353.188,1.099,,VVV*07
$GPLLK,141557.00,010125,,M,,M,1,39,0.8,,M*0A
$GNGMP,141557.00,,,,,DAAA,39,0.4,,,,*5B
$GPGMP,141557.00,,,,,,09,,,,2.6,136*77
$GLGMP,141557.00,,,,,,07,,,,,*7B
$GAGMP,141557.00,,,,,,08,,,,,*79
$GBGMP,141557.00,,,,,,15,,,,,*76
$PSSN,SNC,[0,310575000,2347]*41
$GPZDA,141602.00,01,01,2025,,*63
$GPDTM,W84,,00.0000000,N,00.0000000,E,00.0000000,W84*5F
$PSSN,TFM,141602.00,,,,*6F
$GPRMC,141602.00,A,4742.1599980,N,01618.1013011,E,0.0,,010125,5.1,E,D*10
$GPGLL,4742.1599980,N,01618.1013011,E,141602.00,A,D*61
$GPGGA,141602.00,4742.1599980,N,01618.1013011,E,2,39,0.4,708.1564,M,43.2065,M,1.8,0136*40
$GNGNS,141602.00,4742.1599980,N,01618.1013011,E,DAAA,39,0.4,708.1564,43.2065,,*51
$GPGNS,141602.00,,,,,,09,,,,1.8,136*79
$GLGNS,141602.00,,,,,,07,,,,,*78
$GAGNS,141602.00,,,,,,08,,,,,*7A
$GBGNS,141602.00,,,,,,15,,,,,*75
$GPLLQ,141602.00,010125,,M,,M,1,39,1.315,,M*1D
$GPVTG,,T,,M,0.00,N,0.01,K,D*27
$GPHDT,,T*1B
$GPTHS,,V*0E
$GPROT,,V*08
$PSSN,HRP,141602.00,010125,,,,,,,00,0,,*61
$PTNL,AVR,141602.00,,Yaw,,Tilt,,,,0,,00*37
$GPGSA,A,3,06,11,12,24,25,28,29,31,32,,,,0.7,0.4,0.6*31
$GPGSA,A,3,69,77,78,79,81,87,88,,,,,,0.7,0.4,0.6*3F
$GPGSA,A,3,02,07,15,27,29,30,34,36,,,,,0.7,0.4,0.6*39
$GPGSA,A,3,05,10,11,12,13,23,24,25,26,32,34,35,0.7,0.4,0.6*36
$GPGSA,A,3,38,44,60,,,,,,,,,,0.7,0.4,0.6*3A
$GPGST,141602.00,1.468,0.575,0.435,352.832,0.573,0.438,1.100*5A
$GPGBS,141602.00,3.529,2.333,7.351,25,0.0001,-0.728,0.813*7F
$GPGRS,141602.00,1,-0.5,0.5,0.1,-0.1,-0.7,0.5,0.4,1.6,-0.6,,,*67
$GPGRS,141602.00,1,2.5,-5.0,-0.9,1.7,3.4,-2.2,0.1,,,,,*46
$GPGRS,141602.00,1,0.7,-0.1,-0.0,-0.3,-0.2,-0.2,0.8,-0.5,,,,*46
$GPGRS,141602.00,1,0.8,0.4,1.5,1.0,-0.5,0.5,-0.4,-0.5,0.8,0.9,0.8,-1.5*4B
$GPGRS,141602.00,1,-0.6,0.0,-1.5,,,,,,,,,*62
$GPGSV,5,1,19,25,76,313,49,06,22,042,40,24,20,158,40,32,25,263,44*76
$GPGSV,5,2,19,28,33,309,44,29,46,221,48,11,39,081,46,12,56,081,49*77
$GPGSV,5,3,19,31,08,316,39,20,01,101,,36,35,170,45,58,13,245,37*7C
$GPGSV,5,4,19,40,23,133,37,34,31,208,44,49,34,195,45,57,04,114,37*7F
$GPGSV,5,5,19,41,07,108,35,61,03,257,38*73
$GLGSV,3,1,09,78,75,016,52,69,19,290,46,81,15,187,44,77,28,109,42*6A
$GLGSV,3,2,09,87,39,040,48,79,30,309,48,88,61,145,52,68,04,245,43*65
$GLGSV,3,3,09,70,09,351,33*55
$GAGSV,3,1,09,30,74,060,48,19,13,327,34,15,16,162,40,02,22,089,40*67
$GAGSV,3,2,09,07,21,224,41,29,30,283,43,36,27,048,41,34,41,110,46*6A
$GAGSV,3,3,09,27,46,285,46*5B
$GBGSV,6,1,23,12,65,139,48,35,19,045,42,38,11,074,40,05,20,130,37*6E
$GBGSV,6,2,23,11,23,196,42,10,17,066,38,56,24,054,,31,28,090,*6E
$GBGSV,6,3,23,34,47,186,49,24,60,126,51,25,61,299,51,44,60,080,50*65
$GBGSV,6,4,23,26,10,124,42,13,07,095,38,32,06,317,40,20,10,322,*68
$GBGSV,6,5,23,08,08,087,35,07,04,064,36,41,02,268,37,43,05,208,*63
$GBGSV,6,6,23,23,10,302,41,02,05,108,33,60,09,110,40*5B
$GPGGA,141602.00,,,,,0,00,,,M,,M,,*48
$PTNL,GGK,141602.00,010125,4742.1599980,N,01618.1013011,E,1,39,0.7,EHT751.3629,M*47
$GPGGQ,141602.00,010125,4742.1599980,N,01618.1013011,E,1,39,1.315,708.1564,M*3C
$GPGFA,141602.00,5.469,9.019,0.575,0.435,352.832,1.100,,VVV*04
$GPLLK,141602.00,010125,,M,,M,1,39,0.8,,M*09
$GNGMP,141602.00,,,,,DAAA,39,0.4,,,,*58
$GPGMP,141602.00,,,,,,09,,,,1.8,136*79
$GLGMP,141602.00,,,,,,07,,,,,*78
$GAGMP,141602.00,,,,,,08,,,,,*7A
$GBGMP,141602.00,,,,,,15,,,,,*75
$PSSN,SNC,[0,310580000,2347]*4B
$GPZDA,141607.00,01,01,2025,,*66
$GPDTM,W84,,00.0000000,N,00.0000000,E,00.0000000,W84*5F
$PSSN,TFM,141607.00,,,,*6A
$GPRMC,141607.00,A,4742.1599986,N,01618.1013009,E,0.0,,010125,5.1,E,D*1A
$GPGLL,4742.1599986,N,01618.1013009,E,141607.00,A,D*6B
$GPGGA,141607.00,4742.1599986,N,01618.1013009,E,2,39,0.4,708.1601,M,43.2065,M,2.8,0136*49
$GNGNS,141607.00,4742.1599986,N,01618.1013009,E,DAAA,39,0.4,708.1601,43.2065,,*5B
$GPGNS,141607.00,,,,,,09,,,,2.8,136*7F
$GLGNS,141607.00,,,,,,07,,,,,*7D
$GAGNS,141607.00,,,,,,08,,,,,*7F
$GBGNS,141607.00,,,,,,15,,,,,*70
$GPLLQ,141607.00,010125,,M,,M,1,39,1.320,,M*1E
$GPVTG,,T,,M,0.00,N,0.01,K,D*27
$GPHDT,,T*1B
$GPTHS,,V*0E
$GPROT,,V*08
$PSSN,HRP,141607.00,010125,,,,,,,00,0,,*64
$PTNL,AVR,141607.00,,Yaw,,Tilt,,,,0,,00*32
$GPGSA,A,3,06,11,12,24,25,28,29,31,32,,,,0.7,0.4,0.6*31
$GPGSA,A,3,69,77,78,79,81,87,88,,,,,,0.7,0.4,0.6*3F
$GPGSA,A,3,02,07,15,27,29,30,34,36,,,,,0.7,0.4,0.6*39
$GPGSA,A,3,05,10,11,12,13,23,24,25,26,32,34,35,0.7,0.4,0.6*36
$GPGSA,A,3,38,44,60,,,,,,,,,,0.7,0.4,0.6*3A
$GPGST,141607.00,1.484,0.574,0.436,352.459,0.571,0.438,1.106*5A
$GPGBS,141607.00,3.558,2.348,7.403,77,0.0001,-5.688,6.352*71
$GPGRS,141607.00,1,-1.0,0.7,0.3,-0.1,-0.6,0.7,0.1,2.1,-0.9,,,*6B
$GPGRS,141607.00,1,2.4,-5.7,-0.7,1.7,2.7,-1.4,0.3,,,,,*4E
$GPGRS,141607.00,1,0.9,-0.7,0.0,-0.3,0.1,-0.1,0.8,-0.2,,,,*4C
$GPGRS,141607.00,1,0.2,1.1,0.9,0.9,-0.1,0.3,-0.2,-0.4,0.4,0.7,1.0,-1.8*46
$GPGRS,141607.00,1,-0.3,0.2,-1.3,,,,,,,,,*66
$GPGSV,5,1,19,25,76,313,49,06,22,042,41,24,20,158,40,32,25,263,44*77
$GPGSV,5,2,19,28,33,309,44,29,46,221,48,11,39,081,46,12,56,081,49*77
$GPGSV,5,3,19,31,08,316,40,20,01,101,,36,35,170,46,58,13,245,37*71
$GPGSV,5,4,19,40,23,133,36,34,31,208,43,49,34,195,45,57,04,114,37*79
$GPGSV,5,5,19,41,07,108,35,61,03,257,38*73
$GLGSV,3,1,09,78,75,017,52,69,18,290,46,81,15,187,44,77,28,109,41*69
$GLGSV,3,2,09,79,30,309,48,87,39,040,48,88,61,145,52,68,04,245,42*64
$GLGSV,3,3,09,70,09,351,33*55
$GAGSV,3,1,09,30,74,060,48,19,13,327,35,15,16,162,40,02,22,089,40*66
$GAGSV,3,2,09,07,21,224,41,29,30,283,43,36,27,048,42,34,41,110,46*69
$GAGSV,3,3,09,27,46,285,46*5B
$GBGSV,6,1,23,12,65,139,48,35,19,045,42,38,11,074,40,05,20,130,37*6E
$GBGSV,6,2,23,11,23,196,42,10,17,066,38,56,24,054,,31,28,090,*6E
$GBGSV,6,3,23,34,47,186,49,24,60,126,51,25,61,299,50,44,60,080,50*64
$GBGSV,6,4,23,26,10,124,42,13,07,095,38,32,06,317,40,20,10,322,*68
$GBGSV,6,5,23,08,08,087,35,07,04,064,36,41,02,268,37,43,05,208,*63
$GBGSV,6,6,23,23,10,302,40,02,05,108,33,60,09,110,39*54
$GPGGA,141607.00,,,,,0,00,,,M,,M,,*4D
$PTNL,GGK,141607.00,010125,4742.1599986,N,01618.1013009,E,1,39,0.7,EHT751.3666,M*46
$GPGGQ,141607.00,010125,4742.1599986,N,01618.1013009,E,1,39,1.320,708.1601,M*30
$GPGFA,141607.00,5.453,9.070,0.574,0.436,352.459,1.106,,VVV*02
$GPLLK,141607.00,010125,,M,,M,1,39,0.8,,M*0C
$GNGMP,141607.00,,,,,DAAA,39,0.4,,,,*5D
$GPGMP,141607.00,,,,,,09,,,,2.8,136*7F
$GLGMP,141607.00,,,,,,07,,,,,*7D
$GAGMP,141607.00,,,,,,08,,,,,*7F
$GBGMP,141607.00,,,,,,15,,,,,*70
$PSSN,SNC,[0,310585000,2347]*4E
$GPZDA,141612.00,01,01,2025,,*62
$GPDTM,W84,,00.0000000,N,00.0000000,E,00.0000000,W84*5F
$PSSN,TFM,141612.00,,,,*6E
$GPRMC,141612.00,A,4742.1599987,N,01618.1013004,E,0.0,,010125,5.1,E,D*12
$GPGLL,4742.1599987,N,01618.1013004,E,141612.00,A,D*63
$GPGGA,141612.00,4742.1599987,N,01618.1013004,E,2,39,0.4,708.1624,M,43.2065,M,2.9,0136*47
$GNGNS,141612.00,4742.1599987,N,01618.1013004,E,DAAA,39,0.4,708.1624,43.2065,,*54
$GPGNS,141612.00,,,,,,09,,,,2.9,136*7A
$GLGNS,141612.00,,,,,,07,,,,,*79
$GAGNS,141612.00,,,,,,08,,,,,*7B
$GBGNS,141612.00,,,,,,15,,,,,*74
$GPLLQ,141612.00,010125,,M,,M,1,39,1.321,,M*1B
$GPVTG,,T,,M,0.00,N,0.01,K,D*27
$GPHDT,,T*1B
$GPTHS,,V*0E
$GPROT,,V*08
$PSSN,HRP,141612.00,010125,,,,,,,00,0,,*60
$PTNL,AVR,141612.00,,Yaw,,Tilt,,,,0,,00*36
$GPGSA,A,3,06,11,12,24,25,28,29,31,32,,,,0.7,0.4,0.6*31
$GPGSA,A,3,69,77,78,79,81,87,88,,,,,,0.7,0.4,0.6*3F
$GPGSA,A,3,02,07,15,27,29,30,34,36,,,,,0.7,0.4,0.6*39
$GPGSA,A,3,05,10,11,12,13,23,24,25,26,32,34,35,0.7,0.4,0.6*36
$GPGSA,A,3,38,44,60,,,,,,,,,,0.7,0.4,0.6*3A
$GPGST,141612.00,1.524,0.576,0.439,352.880,0.574,0.442,1.105*5B
$GPGBS,141612.00,3.556,2.359,7.369,77,0.0001,-5.334,6.353*73
$GPGRS,141612.00,1,-1.3,0.8,0.2,-0.4,-0.4,0.5,0.1,2.3,-0.7,,,*6B
$GPGRS,141612.00,1,1.7,-5.3,-0.7,2.7,3.2,-1.5,0.4,,,,,*4F
$GPGRS,141612.00,1,1.0,-0.4,-0.1,0.2,-0.0,0.0,0.8,-0.1,,,,*40
$GPGRS,141612.00,1,0.5,1.4,0.8,0.9,-0.3,0.1,-0.2,-0.2,0.5,1.0,1.1,-1.8*41
$GPGRS,141612.00,1,-0.4,0.2,-1.5,,,,,,,,,*63
$GPGSV,5,1,19,25,76,313,50,06,22,042,41,24,20,158,40,32,25,263,44*7F
$GPGSV,5,2,19,28,33,309,44,29,46,221,48,11,39,081,46,12,56,081,48*76
$GPGSV,5,3,19,31,08,316,39,20,01,101,,36,35,170,45,58,13,245,36*7D
$GPGSV,5,4,19,40,23,133,37,34,31,208,43,49,34,195,45,57,04,114,37*78
$GPGSV,5,5,19,41,07,108,35,61,03,257,38*73
$GLGSV,3,1,09,78,75,017,52,69,18,290,46,81,15,187,45,77,28,109,41*68
$GLGSV,3,2,09,79,30,309,48,87,39,040,47,88,61,145,52,68,04,245,42*6B
$GLGSV,3,3,09,70,09,351,33*55
$GAGSV,3,1,09,30,74,060,48,19,13,327,34,15,16,162,40,02,22,090,41*6E
$GAGSV,3,2,09,07,21,224,41,29,30,283,43,36,27,048,41,34,41,110,45*69
$GAGSV,3,3,09,27,46,285,46*5B
$GBGSV,6,1,23,12,65,139,48,35,19,045,42,38,11,074,40,05,20,130,37*6E
$GBGSV,6,2,23,11,23,196,42,10,17,066,38,56,24,054,,31,28,090,*6E
$GBGSV,6,3,23,34,47,186,49,24,60,126,51,25,61,299,51,44,60,080,50*65
$GBGSV,6,4,23,26,10,124,41,13,07,095,38,32,06,317,41,20,10,322,*6A
$GBGSV,6,5,23,08,08,087,35,07,04,064,36,41,02,268,37,43,05,208,*63
$GBGSV,6,6,23,23,10,302,40,02,05,108,33,60,09,110,39*54
$GPGGA,141612.00,,,,,0,00,,,M,,M,,*49
$PTNL,GGK,141612.00,010125,4742.1599987,N,01618.1013004,E,1,39,0.7,EHT751.3689,M*4F
$GPGGQ,141612.00,010125,4742.1599987,N,01618.1013004,E,1,39,1.321,708.1624,M*3E
$GPGFA,141612.00,5.473,9.059,0.576,0.439,352.880,1.105,,VVV*09
$GPLLK,141612.00,010125,,M,,M,1,39,0.8,,M*08
$GNGMP,141612.00,,,,,DAAA,39,0.4,,,,*59
$GPGMP,141612.00,,,,,,09,,,,2.9,136*7A
$GLGMP,141612.00,,,,,,07,,,,,*79
$GAGMP,141612.00,,,,,,08,,,,,*7B
$GBGMP,141612.00,,,,,,15,,,,,*74
$PSSN,SNC,[0,310590000,2347]*4A
$GPZDA,141617.00,01,01,2025,,*67
$GPDTM,W84,,00.0000000,N,00.0000000,E,00.0000000,W84*5F
$PSSN,TFM,141617.00,,,,*6B
$GPRMC,141617.00,A,4742.1599991,N,01618.1012998,E,0.0,,010125,5.1,E,D*1D
$GPGLL,4742.1599991,N,01618.1012998,E,141617.00,A,D*6C
$GPGGA,141617.00,4742.1599991,N,01618.1012998,E,2,40,0.4,708.1589,M,43.2065,M,2.6,0136*4D
$GNGNS,141617.00,4742.1599991,N,01618.1012998,E,DAAA,40,0.4,708.1589,43.2065,,*51
$GPGNS,141617.00,,,,,,09,,,,2.6,136*70
$GLGNS,141617.00,,,,,,07,,,,,*7C
$GAGNS,141617.00,,,,,,08,,,,,*7E
$GBGNS,141617.00,,,,,,16,,,,,*72
$GPLLQ,141617.00,010125,,M,,M,1,40,1.312,,M*10
$GPVTG,,T,,M,0.00,N,0.01,K,D*27
$GPHDT,,T*1B
$GPTHS,,V*0E
$GPROT,,V*08
$PSSN,HRP,141617.00,010125,,,,,,,00,0,,*65
$PTNL,AVR,141617.00,,Yaw,,Tilt,,,,0,,00*33
$GPGSA,A,3,06,11,12,24,25,28,29,31,32,,,,0.7,0.4,0.6*31
$GPGSA,A,3,69,77,78,79,81,87,88,,,,,,0.7,0.4,0.6*3F
$GPGSA,A,3,02,07,15,27,29,30,34,36,,,,,0.7,0.4,0.6*39
$GPGSA,A,3,05,08,10,11,12,13,23,24,25,26,32,34,0.7,0.4,0.6*38
$GPGSA,A,3,35,38,44,60,,,,,,,,,0.7,0.4,0.6*3C
$GPGST,141617.00,1.314,0.576,0.439,353.144,0.574,0.441,1.094*51
$GPGBS,141617.00,3.607,2.326,7.277,77,0.0001,-4.342,6.352*76
$GPGRS,141617.00,1,-0.7,0.3,0.2,-0.1,-0.3,0.5,0.2,1.8,-0.5,,,*6B
$GPGRS,141617.00,1,1.3,-4.3,-0.8,2.5,2.9,-2.0,-0.1,,,,,*66
$GPGRS,141617.00,1,0.6,-0.2,-0.1,-0.0,-0.0,-0.1,0.6,-0.2,,,,*4A
$GPGRS,141617.00,1,0.0,0.5,1.5,0.9,0.8,-0.1,0.5,-0.4,-0.2,0.2,1.2,0.9*6D
$GPGRS,141617.00,1,-1.6,-0.8,0.0,-1.4,,,,,,,,*6D
$GPGSV,5,1,19,25,76,313,50,06,22,042,41,24,20,158,40,32,25,263,45*7E
$GPGSV,5,2,19,28,33,309,44,29,46,221,48,11,39,081,46,12,56,081,48*76
$GPGSV,5,3,19,31,08,316,38,20,01,101,,36,35,170,46,58,13,245,36*7F
$GPGSV,5,4,19,40,23,133,37,34,31,208,43,49,34,195,45,57,04,114,37*78
$GPGSV,5,5,19,41,07,108,35,61,03,257,38*73
$GLGSV,3,1,09,78,75,017,52,69,18,290,46,81,15,187,45,77,28,109,42*6B
$GLGSV,3,2,09,79,30,309,48,87,39,040,47,88,61,145,52,68,04,245,43*6A
$GLGSV,3,3,09,70,09,351,33*55
$GAGSV,3,1,09,30,74,060,48,19,13,327,35,15,16,162,39,02,22,090,41*61
$GAGSV,3,2,09,07,21,224,41,29,30,283,43,36,27,048,42,34,41,110,45*6A
$GAGSV,3,3,09,27,46,285,46*5B
$GBGSV,6,1,23,12,65,139,48,35,19,045,42,23,10,302,40,38,11,074,40*6A
$GBGSV,6,2,23,11,23,196,42,05,20,130,37,10,17,066,38,56,24,054,*6E
$GBGSV,6,3,23,31,28,090,,34,47,186,49,24,60,126,50,25,61,299,51*6E
$GBGSV,6,4,23,44,59,080,50,20,10,322,,32,06,317,41,07,04,064,35*69
$GBGSV,6,5,23,02,05,108,33,08,08,087,35,41,02,268,37,43,05,208,*69
