$GPZDA,191442.00,01,01,2025,,*68
$GPDTM,W84,,00.0000000,N,00.0000000,E,00.0000000,W84*5F
$PSSN,TFM,191442.00,,,,*64
$GPRMC,191442.00,A,4742.1605352,N,01618.1000964,E,0.0,,010125,5.1,E,D*11
$GPGLL,4742.1605352,N,01618.1000964,E,191442.00,A,D*60
$GPGGA,191442.00,4742.1605352,N,01618.1000964,E,2,40,0.4,708.3617,M,43.2066,M,2.7,0136*45
$GNGNS,191442.00,4742.1605352,N,01618.1000964,E,DAAA,40,0.4,708.3617,43.2066,,*58
$GPGNS,191442.00,,,,,,10,,,,2.7,136*76
$GLGNS,191442.00,,,,,,08,,,,,*7C
$GAGNS,191442.00,,,,,,06,,,,,*7F
$GBGNS,191442.00,,,,,,16,,,,,*7D
$GPLLQ,191442.00,010125,,M,,M,1,40,0.931,,M*15
$GPVTG,,T,,M,0.00,N,0.00,K,D*26
$GPHDT,,T*1B
$GPTHS,,V*0E
$GPROT,,V*08
$PSSN,HRP,191442.00,010125,,,,,,,00,0,,*6A
$PTNL,AVR,191442.00,,Yaw,,Tilt,,,,0,,00*3C
$GPGSA,A,3,07,08,10,15,16,18,23,26,27,29,,,0.8,0.4,0.7*36
$GPGSA,A,3,66,67,73,74,80,81,82,83,,,,,0.8,0.4,0.7*3F
$GPGSA,A,3,03,13,15,21,26,27,,,,,,,0.8,0.4,0.7*3E
$GPGSA,A,3,05,08,11,13,14,21,23,27,28,33,34,37,0.8,0.4,0.7*3D
$GPGSA,A,3,38,42,43,60,,,,,,,,,0.8,0.4,0.7*35
$GPGST,191442.00,1.732,0.376,0.319,19.896,0.370,0.326,0.790*60
$GPGBS,191442.00,2.609,1.863,4.002,67,0.0001,4.877,6.159*54
$GPGRS,191442.00,1,0.8,-0.7,-0.1,0.1,-0.0,0.4,0.0,-0.1,-0.2,-0.6,,*4B
$GPGRS,191442.00,1,-3.7,4.9,4.2,-4.8,-0.5,0.2,-0.9,-1.1,,,,*65
$GPGRS,191442.00,1,-0.7,0.4,0.7,0.0,-0.5,-0.6,,,,,,*6F
$GPGRS,191442.00,1,1.5,-0.0,0.1,0.6,1.9,-0.1,-0.9,-0.1,-0.4,-1.9,0.9,-0.2*6D
$GPGRS,191442.00,1,-0.1,-0.6,0.0,-2.0,,,,,,,,*6D
$GPGSV,5,1,20,16,65,241,49,10,34,170,46,08,17,294,41,15,14,067,40*73
$GPGSV,5,2,20,26,43,196,47,27,51,298,48,18,48,058,46,23,56,115,48*7D
$GPGSV,5,3,20,13,04,036,36,07,08,324,40,29,07,105,38,36,35,170,45*72
$GPGSV,5,4,20,58,13,245,37,57,11,108,38,34,31,208,42,40,24,133,35*7E
$GPGSV,5,5,20,49,34,195,44,41,07,108,34,61,03,257,38*4F
$GLGSV,3,1,10,83,63,308,43,66,25,042,47,74,25,327,41,80,29,203,49*6E
$GLGSV,3,2,10,67,26,100,48,82,52,043,49,73,49,276,51,81,10,069,44*63
$GLGSV,3,3,10,68,03,143,,84,09,261,34*68
$GAGSV,2,1,08,13,86,009,48,23,38,307,,15,32,056,43,27,24,164,42*63
$GAGSV,2,2,08,26,36,240,44,21,64,221,48,05,04,020,35,03,08,067,37*60
$GBGSV,6,1,23,43,56,075,50,33,16,148,42,21,17,040,42,60,11,108,40*6E
$GBGSV,6,2,23,23,20,205,42,46,18,318,,30,10,262,,38,19,037,41*6B
$GBGSV,6,3,23,05,22,128,39,27,11,270,41,58,24,315,,31,30,052,*64
$GBGSV,6,4,23,14,28,123,42,08,34,039,40,50,27,062,,13,40,047,44*61
$GBGSV,6,5,23,42,33,092,46,11,33,077,44,37,37,261,46,28,55,280,49*6C
$GBGSV,6,6,23,34,10,085,41,02,08,106,34,07,03,118,*52
$GPGGA,191442.00,,,,,0,00,,,M,,M,,*43
$PTNL,GGK,191442.00,010125,4742.1605352,N,01618.1000964,E,1,40,0.8,EHT751.5683,M*41
$GPGGQ,191442.00,010125,4742.1605352,N,01618.1000964,E,1,40,0.931,708.3617,M*3B
$GPGFA,191442.00,3.578,6.475,0.376,0.319,19.896,0.790,,VVV*39
$GPLLK,191442.00,010125,,M,,M,1,40,0.9,,M*0D
$GNGMP,191442.00,,,,,DAAA,40,0.4,,,,*5D
$GPGMP,191442.00,,,,,,10,,,,2.7,136*76
$GLGMP,191442.00,,,,,,08,,,,,*7C
$GAGMP,191442.00,,,,,,06,,,,,*7F
$GBGMP,191442.00,,,,,,16,,,,,*7D
$PSSN,SNC,[0,328500000,2347]*48
$GPZDA,191447.00,01,01,2025,,*6D
$GPDTM,W84,,00.0000000,N,00.0000000,E,00.0000000,W84*5F
$PSSN,TFM,191447.00,,,,*61
$GPRMC,191447.00,A,4742.1605341,N,01618.1000953,E,0.0,,010125,5.1,E,D*12
$GPGLL,4742.1605341,N,01618.1000953,E,191447.00,A,D*63
$GPGGA,191447.00,4742.1605341,N,01618.1000953,E,2,40,0.4,708.3586,M,43.2066,M,3.7,0136*4C
$GNGNS,191447.00,4742.1605341,N,01618.1000953,E,DAAA,40,0.4,708.3586,43.2066,,*50
$GPGNS,191447.00,,,,,,10,,,,3.7,136*72
$GLGNS,191447.00,,,,,,08,,,,,*79
$GAGNS,191447.00,,,,,,06,,,,,*7A
$GBGNS,191447.00,,,,,,16,,,,,*78
$GPLLQ,191447.00,010125,,M,,M,1,40,0.948,,M*1E
$GPVTG,,T,,M,0.00,N,0.01,K,D*27
$GPHDT,,T*1B
$GPTHS,,V*0E
$GPROT,,V*08
$PSSN,HRP,191447.00,010125,,,,,,,00,0,,*6F
$PTNL,AVR,191447.00,,Yaw,,Tilt,,,,0,,00*39
$GPGSA,A,3,07,08,10,15,16,18,23,26,27,29,,,0.8,0.4,0.7*36
$GPGSA,A,3,66,67,73,74,80,81,82,83,,,,,0.8,0.4,0.7*3F
$GPGSA,A,3,03,13,15,21,26,27,,,,,,,0.8,0.4,0.7*3E
$GPGSA,A,3,05,08,11,13,14,21,23,27,28,33,34,37,0.8,0.4,0.7*3D
$GPGSA,A,3,38,42,43,60,,,,,,,,,0.8,0.4,0.7*35
$GPGST,191447.00,1.878,0.384,0.325,19.881,0.378,0.333,0.803*69
$GPGBS,191447.00,2.666,1.885,4.053,67,0.0001,5.245,6.159*5E
$GPGRS,191447.00,1,0.7,-0.7,-0.1,-0.4,0.1,0.3,0.2,-0.2,-0.0,-0.5,,*42
$GPGRS,191447.00,1,-4.5,5.2,4.6,-4.8,-0.4,0.2,-1.1,-1.7,,,,*65
$GPGRS,191447.00,1,-0.9,0.5,0.7,0.1,-0.3,-0.6,,,,,,*62
$GPGRS,191447.00,1,1.1,0.1,0.6,0.5,1.8,-0.2,-1.0,-0.2,-0.7,-2.0,0.4,-0.5*4E
$GPGRS,191447.00,1,-0.3,-0.7,0.1,-2.2,,,,,,,,*68
$GPGSV,5,1,20,16,65,241,49,10,34,170,46,08,17,294,41,15,14,067,40*73
$GPGSV,5,2,20,26,43,196,47,27,51,298,48,18,48,058,46,23,56,115,48*7D
$GPGSV,5,3,20,13,04,036,36,07,08,324,39,29,07,105,38,36,35,170,45*7C
$GPGSV,5,4,20,58,13,245,37,57,11,108,37,34,31,208,42,40,24,133,35*71
$GPGSV,5,5,20,49,34,195,44,41,07,108,34,61,03,257,38*4F
$GLGSV,3,1,10,83,63,308,43,66,25,042,46,74,25,327,41,80,29,203,49*6F
$GLGSV,3,2,10,67,27,100,48,82,52,043,49,73,49,276,51,81,10,069,43*65
$GLGSV,3,3,10,68,03,143,,84,09,261,34*68
$GAGSV,2,1,08,13,86,010,48,23,38,307,,15,32,056,43,27,24,164,42*6B
$GAGSV,2,2,08,26,36,240,44,21,64,221,48,05,04,020,35,03,08,067,36*61
$GBGSV,6,1,23,43,56,075,50,33,16,148,41,21,17,040,42,60,11,108,40*6D
$GBGSV,6,2,23,23,20,205,43,46,18,318,,30,10,262,,38,19,037,41*6A
$GBGSV,6,3,23,05,22,128,39,27,11,270,41,58,24,315,,31,30,052,*64
$GBGSV,6,4,23,14,28,123,42,08,34,039,40,50,27,062,,13,40,047,44*61
$GBGSV,6,5,23,42,33,092,46,11,32,077,45,37,37,261,47,28,55,280,49*6D
$GBGSV,6,6,23,34,10,086,41,02,08,106,34,07,03,118,*51
$GPGGA,191447.00,,,,,0,00,,,M,,M,,*46
$PTNL,GGK,191447.00,010125,4742.1605341,N,01618.1000953,E,1,40,0.8,EHT751.5651,M*4D
$GPGGQ,191447.00,010125,4742.1605341,N,01618.1000953,E,1,40,0.948,708.3586,M*3D
$GPGFA,191447.00,3.650,6.586,0.384,0.325,19.881,0.803,,VVV*39
$GPLLK,191447.00,010125,,M,,M,1,40,0.9,,M*08
$GNGMP,191447.00,,,,,DAAA,40,0.4,,,,*58
$GPGMP,191447.00,,,,,,10,,,,3.7,136*72
$GLGMP,191447.00,,,,,,08,,,,,*79
$GAGMP,191447.00,,,,,,06,,,,,*7A
$GBGMP,191447.00,,,,,,16,,,,,*78
$PSSN,SNC,[0,328505000,2347]*4D
$GPZDA,191452.00,01,01,2025,,*69
$GPDTM,W84,,00.0000000,N,00.0000000,E,00.0000000,W84*5F
$PSSN,TFM,191452.00,,,,*65
$GPRMC,191452.00,A,4742.1605322,N,01618.1000922,E,0.0,,010125,5.1,E,D*15
$GPGLL,4742.1605322,N,01618.1000922,E,191452.00,A,D*64
$GPGGA,191452.00,4742.1605322,N,01618.1000922,E,2,41,0.4,708.3578,M,43.2066,M,2.0,0136*4D
$GNGNS,191452.00,4742.1605322,N,01618.1000922,E,DAAA,41,0.4,708.3578,43.2066,,*57
$GPGNS,191452.00,,,,,,10,,,,2.0,136*70
$GLGNS,191452.00,,,,,,09,,,,,*7C
$GAGNS,191452.00,,,,,,06,,,,,*7E
$GBGNS,191452.00,,,,,,16,,,,,*7C
$GPLLQ,191452.00,010125,,M,,M,1,41,0.944,,M*17
$GPVTG,,T,,M,0.00,N,0.00,K,D*26
$GPHDT,,T*1B
$GPTHS,,V*0E
$GPROT,,V*08
$PSSN,HRP,191452.00,010125,,,,,,,00,0,,*6B
$PTNL,AVR,191452.00,,Yaw,,Tilt,,,,0,,00*3D
$GPGSA,A,3,07,08,10,15,16,18,23,26,27,29,,,0.8,0.4,0.6*37
$GPGSA,A,3,66,67,73,74,80,81,82,83,84,,,,0.8,0.4,0.6*32
$GPGSA,A,3,03,13,15,21,26,27,,,,,,,0.8,0.4,0.6*3F
$GPGSA,A,3,05,08,11,13,14,21,23,27,28,33,34,37,0.8,0.4,0.6*3C
$GPGSA,A,3,38,42,43,60,,,,,,,,,0.8,0.4,0.6*34
$GPGST,191452.00,1.717,0.381,0.323,17.367,0.376,0.329,0.801*62
$GPGBS,191452.00,2.487,1.811,3.915,67,0.0001,5.521,6.159*53
$GPGRS,191452.00,1,0.6,-0.2,-0.1,0.2,-0.2,0.2,0.0,-0.3,0.0,-0.5,,*68
$GPGRS,191452.00,1,-3.8,5.5,4.0,-4.4,-0.2,-0.0,-0.4,-1.5,-2.1,,,*49
$GPGRS,191452.00,1,-0.6,0.4,0.6,0.2,-0.1,-0.7,,,,,,*69
$GPGRS,191452.00,1,1.2,0.1,1.4,0.1,0.8,-0.1,-0.8,0.3,-0.5,-1.8,0.1,-0.4*64
$GPGRS,191452.00,1,0.1,-0.7,-0.0,-1.5,,,,,,,,*6B
$GPGSV,5,1,20,16,65,241,49,10,34,170,46,08,17,294,41,15,14,066,40*72
$GPGSV,5,2,20,26,43,196,47,27,51,298,48,18,48,058,47,23,56,115,48*7C
$GPGSV,5,3,20,13,04,036,36,07,08,324,40,29,07,105,38,36,35,170,45*72
$GPGSV,5,4,20,58,13,245,37,57,11,108,37,34,31,208,42,40,24,133,35*71
$GPGSV,5,5,20,49,34,195,44,41,07,108,34,61,03,257,38*4F
$GLGSV,3,1,10,83,63,308,43,66,25,042,47,74,25,327,41,80,29,203,49*6E
$GLGSV,3,2,10,67,27,100,48,82,52,043,50,73,49,276,51,81,10,069,42*6C
$GLGSV,3,3,10,68,04,143,,84,09,261,36*6D
$GAGSV,2,1,08,13,86,010,48,23,38,307,,15,32,056,43,27,24,164,42*6B
$GAGSV,2,2,08,26,36,240,44,21,64,221,48,05,04,020,35,03,08,067,36*61
$GBGSV,6,1,23,43,56,075,49,33,16,148,42,21,17,039,41,60,11,108,40*6B
$GBGSV,6,2,23,23,20,205,43,46,18,318,,30,10,262,,38,19,037,41*6A
$GBGSV,6,3,23,05,22,128,39,27,11,270,42,58,24,315,,31,30,052,*67
$GBGSV,6,4,23,14,28,123,41,08,34,039,40,50,27,062,,13,40,046,44*63
$GBGSV,6,5,23,42,33,092,46,11,32,077,45,37,37,261,46,28,55,280,49*6C
$GBGSV,6,6,23,34,10,086,41,02,08,106,34,07,03,118,*51
$GPGGA,191452.00,,,,,0,00,,,M,,M,,*42
$PTNL,GGK,191452.00,010125,4742.1605322,N,01618.1000922,E,1,41,0.8,EHT751.5643,M*48
$GPGGQ,191452.00,010125,4742.1605322,N,01618.1000922,E,1,41,0.944,708.3578,M*36
$GPGFA,191452.00,3.625,6.567,0.381,0.323,17.367,0.801,,VVV*3C
$GPLLK,191452.00,010125,,M,,M,1,41,0.8,,M*0C
$GNGMP,191452.00,,,,,DAAA,41,0.4,,,,*5D
$GPGMP,191452.00,,,,,,10,,,,2.0,136*70
$GLGMP,191452.00,,,,,,09,,,,,*7C
$GAGMP,191452.00,,,,,,06,,,,,*7E
$GBGMP,191452.00,,,,,,16,,,,,*7C
$PSSN,SNC,[0,328510000,2347]*49
$GPZDA,191457.00,01,01,2025,,*6C
$GPDTM,W84,,00.0000000,N,00.0000000,E,00.0000000,W84*5F
$PSSN,TFM,191457.00,,,,*60
$GPRMC,191457.00,A,4742.1605286,N,01618.1000890,E,0.0,,010125,5.1,E,D*17
$GPGLL,4742.1605286,N,01618.1000890,E,191457.00,A,D*66
$GPGGA,191457.00,4742.1605286,N,01618.1000890,E,2,41,0.4,708.3597,M,43.2066,M,1.7,0136*4A
$GNGNS,191457.00,4742.1605286,N,01618.1000890,E,DAAA,41,0.4,708.3597,43.2066,,*54
$GPGNS,191457.00,,,,,,10,,,,1.7,136*71
$GLGNS,191457.00,,,,,,09,,,,,*79
$GAGNS,191457.00,,,,,,06,,,,,*7B
$GBGNS,191457.00,,,,,,16,,,,,*79
$GPLLQ,191457.00,010125,,M,,M,1,41,0.925,,M*15
$GPVTG,,T,,M,0.00,N,0.01,K,D*27
$GPHDT,,T*1B
$GPTHS,,V*0E
$GPROT,,V*08
$PSSN,HRP,191457.00,010125,,,,,,,00,0,,*6E
$PTNL,AVR,191457.00,,Yaw,,Tilt,,,,0,,00*38
$GPGSA,A,3,07,08,10,15,16,18,23,26,27,29,,,0.8,0.4,0.6*37
$GPGSA,A,3,66,67,73,74,80,81,82,83,84,,,,0.8,0.4,0.6*32
$GPGSA,A,3,03,13,15,21,26,27,,,,,,,0.8,0.4,0.6*3F
$GPGSA,A,3,05,08,11,13,14,21,23,27,28,33,34,37,0.8,0.4,0.6*3C
$GPGSA,A,3,38,42,43,60,,,,,,,,,0.8,0.4,0.6*34
$GPGST,191457.00,1.701,0.372,0.316,16.958,0.368,0.321,0.786*6A
$GPGBS,191457.00,2.545,1.823,3.949,07,0.0001,1.395,1.119*59
$GPGRS,191457.00,1,1.4,-0.3,-0.2,0.3,0.1,0.2,-0.2,-0.3,-0.1,0.1,,*69
$GPGRS,191457.00,1,-3.0,6.0,4.0,-3.9,-0.9,-0.2,-0.2,-2.2,-0.8,,,*48
$GPGRS,191457.00,1,-0.4,0.1,0.6,0.2,0.1,-0.6,,,,,,*47
$GPGRS,191457.00,1,1.6,0.2,1.3,0.2,0.5,0.2,-0.9,0.3,-0.4,-1.4,0.3,-0.3*48
$GPGRS,191457.00,1,0.0,-0.7,-0.3,-2.0,,,,,,,,*6A
$GPGSV,5,1,20,16,65,241,49,10,34,170,47,08,17,294,40,15,14,066,39*7C
$GPGSV,5,2,20,26,43,196,47,27,51,298,48,18,47,058,47,23,56,115,48*73
$GPGSV,5,3,20,13,04,036,37,07,08,324,40,29,07,105,38,36,35,170,44*72
$GPGSV,5,4,20,58,13,245,37,57,11,108,38,34,31,208,42,40,24,133,35*7E
$GPGSV,5,5,20,49,34,195,44,41,07,108,34,61,03,257,38*4F
$GLGSV,3,1,10,83,63,308,43,66,25,042,47,74,25,327,40,80,29,203,49*6F
$GLGSV,3,2,10,67,27,100,48,82,52,043,50,73,49,276,50,81,10,069,41*6E
$GLGSV,3,3,10,68,04,143,,84,09,261,35*6E
$GAGSV,2,1,08,13,86,010,48,23,38,307,,15,32,056,43,27,24,164,41*68
$GAGSV,2,2,08,26,36,240,44,21,64,221,48,05,04,020,35,03,08,067,37*60
$GBGSV,6,1,23,43,56,075,50,33,16,148,42,21,17,039,42,60,11,108,40*60
$GBGSV,6,2,23,23,20,205,44,46,18,318,,30,10,262,,38,19,037,41*6D
$GBGSV,6,3,23,05,22,128,39,27,11,270,42,58,24,315,,31,30,052,*67
$GBGSV,6,4,23,14,28,123,41,08,33,039,40,50,27,062,,13,40,046,44*64
$GBGSV,6,5,23,42,33,091,46,11,32,077,45,37,37,261,46,28,55,280,49*6F
$GBGSV,6,6,23,34,10,086,40,02,08,106,34,07,03,118,*50
$GPGGA,191457.00,,,,,0,00,,,M,,M,,*47
$PTNL,GGK,191457.00,010125,4742.1605286,N,01618.1000890,E,1,41,0.8,EHT751.5663,M*48
$GPGGQ,191457.00,010125,4742.1605286,N,01618.1000890,E,1,41,0.925,708.3597,M*32
$GPGFA,191457.00,3.537,6.442,0.372,0.316,16.958,0.786,,VVV*32
$GPLLK,191457.00,010125,,M,,M,1,41,0.8,,M*09
$GNGMP,191457.00,,,,,DAAA,41,0.4,,,,*58
$GPGMP,191457.00,,,,,,10,,,,1.7,136*71
$GLGMP,191457.00,,,,,,09,,,,,*79
$GAGMP,191457.00,,,,,,06,,,,,*7B
$GBGMP,191457.00,,,,,,16,,,,,*79
$PSSN,SNC,[0,328515000,2347]*4C
$GPZDA,191502.00,01,01,2025,,*6D
$GPDTM,W84,,00.0000000,N,00.0000000,E,00.0000000,W84*5F
$PSSN,TFM,191502.00,,,,*61
$GPRMC,191502.00,A,4742.1605262,N,01618.1000876,E,0.0,,010125,5.1,E,D*14
$GPGLL,4742.1605262,N,01618.1000876,E,191502.00,A,D*65
$GPGGA,191502.00,4742.1605262,N,01618.1000876,E,2,40,0.4,708.3606,M,43.2066,M,2.7,0136*40
$GNGNS,191502.00,4742.1605262,N,01618.1000876,E,DAAA,40,0.4,708.3606,43.2066,,*5D
$GPGNS,191502.00,,,,,,10,,,,2.7,136*73
$GLGNS,191502.00,,,,,,08,,,,,*79
$GAGNS,191502.00,,,,,,06,,,,,*7A
$GBGNS,191502.00,,,,,,16,,,,,*78
$GPLLQ,191502.00,010125,,M,,M,1,40,0.933,,M*12
$GPVTG,,T,,M,0.00,N,0.00,K,D*26
$GPHDT,,T*1B
$GPTHS,,V*0E
$GPROT,,V*08
$PSSN,HRP,191502.00,010125,,,,,,,00,0,,*6F
$PTNL,AVR,191502.00,,Yaw,,Tilt,,,,0,,00*39
$GPGSA,A,3,07,08,10,15,16,18,23,26,27,29,,,0.8,0.4,0.7*36
$GPGSA,A,3,66,67,73,74,80,81,82,83,,,,,0.8,0.4,0.7*3F
$GPGSA,A,3,03,13,15,21,26,27,,,,,,,0.8,0.4,0.7*3E
$GPGSA,A,3,05,08,11,13,14,21,23,27,28,33,34,37,0.8,0.4,0.7*3D
$GPGSA,A,3,38,42,43,60,,,,,,,,,0.8,0.4,0.7*35
$GPGST,191502.00,1.789,0.376,0.319,19.744,0.370,0.326,0.791*64
$GPGBS,191502.00,2.604,1.862,3.997,74,0.0001,-5.618,6.144*7A
$GPGRS,191502.00,1,0.8,-0.5,-0.0,-0.0,0.1,0.2,0.0,-0.1,-0.3,-0.5,,*49
$GPGRS,191502.00,1,-2.8,5.1,4.5,-5.6,-0.8,0.5,-0.1,-2.2,,,,*6D
$GPGRS,191502.00,1,-0.9,0.1,0.4,0.2,0.4,-0.8,,,,,,*42
$GPGRS,191502.00,1,1.3,0.1,0.6,0.0,1.4,0.3,-0.6,-0.1,-0.2,-1.5,-0.2,-0.3*43
$GPGRS,191502.00,1,-0.4,-0.5,-0.1,-1.8,,,,,,,,*49
$GPGSV,5,1,20,16,65,240,49,08,17,294,40,10,34,170,46,15,14,066,40*72
$GPGSV,5,2,20,26,43,196,47,27,51,298,48,18,47,058,47,23,56,115,48*73
$GPGSV,5,3,20,13,04,036,37,07,08,324,40,29,07,105,39,36,35,170,45*72
$GPGSV,5,4,20,58,13,245,37,57,11,108,38,34,31,208,42,40,24,133,35*7E
$GPGSV,5,5,20,49,34,195,44,41,07,108,34,61,03,257,38*4F
$GLGSV,3,1,10,83,63,308,43,66,25,042,47,74,25,327,41,80,29,203,49*6E
$GLGSV,3,2,10,67,27,100,48,82,52,043,50,73,49,276,50,81,10,069,42*6D
$GLGSV,3,3,10,68,04,143,,84,09,261,35*6E
$GAGSV,2,1,08,13,86,011,48,23,38,307,,15,32,056,43,27,24,164,41*69
$GAGSV,2,2,08,26,36,240,44,21,64,221,48,05,04,020,35,03,08,067,36*61
$GBGSV,6,1,23,43,56,075,50,33,16,148,42,21,17,039,41,60,11,108,40*63
$GBGSV,6,2,23,23,20,205,44,46,18,318,,30,10,262,,38,19,037,41*6D
$GBGSV,6,3,23,05,22,128,39,27,11,270,42,58,24,315,,31,30,052,*67
$GBGSV,6,4,23,14,28,123,41,08,33,039,40,50,27,062,,13,40,046,44*64
$GBGSV,6,5,23,42,33,091,45,11,32,077,44,37,37,261,47,28,55,280,49*6C
$GBGSV,6,6,23,34,10,086,40,02,08,106,34,07,03,118,*50
$GPGGA,191502.00,,,,,0,00,,,M,,M,,*46
$PTNL,GGK,191502.00,010125,4742.1605262,N,01618.1000876,E,1,40,0.8,EHT751.5672,M*4A
$GPGGQ,191502.00,010125,4742.1605262,N,01618.1000876,E,1,40,0.933,708.3606,M*3C
$GPGFA,191502.00,3.576,6.488,0.376,0.319,19.744,0.791,,VVV*31
$GPLLK,191502.00,010125,,M,,M,1,40,0.9,,M*08
$GNGMP,191502.00,,,,,DAAA,40,0.4,,,,*58
$GPGMP,191502.00,,,,,,10,,,,2.7,136*73
$GLGMP,191502.00,,,,,,08,,,,,*79
$GAGMP,191502.00,,,,,,06,,,,,*7A
$GBGMP,191502.00,,,,,,16,,,,,*78
$PSSN,SNC,[0,328520000,2347]*4A
$GPZDA,191507.00,01,01,2025,,*68
$GPDTM,W84,,00.0000000,N,00.0000000,E,00.0000000,W84*5F
$PSSN,TFM,191507.00,,,,*64
$GPRMC,191507.00,A,4742.1605259,N,01618.1000851,E,0.0,,010125,5.1,E,D*1C
$GPGLL,4742.1605259,N,01618.1000851,E,191507.00,A,D*6D
$GPGGA,191507.00,4742.1605259,N,01618.1000851,E,2,41,0.4,708.3591,M,43.2066,M,3.7,0136*45
$GNGNS,191507.00,4742.1605259,N,01618.1000851,E,DAAA,41,0.4,708.3591,43.2066,,*59
$GPGNS,191507.00,,,,,,10,,,,3.7,136*77
$GLGNS,191507.00,,,,,,09,,,,,*7D
$GAGNS,191507.00,,,,,,06,,,,,*7F
$GBGNS,191507.00,,,,,,16,,,,,*7D
$GPLLQ,191507.00,010125,,M,,M,1,41,0.945,,M*17
$GPVTG,,T,,M,0.00,N,0.01,K,D*27
$GPHDT,,T*1B
$GPTHS,,V*0E
$GPROT,,V*08
$PSSN,HRP,191507.00,010125,,,,,,,00,0,,*6A
$PTNL,AVR,191507.00,,Yaw,,Tilt,,,,0,,00*3C
$GPGSA,A,3,07,08,10,15,16,18,23,26,27,29,,,0.8,0.4,0.6*37
$GPGSA,A,3,66,67,73,74,80,81,82,83,84,,,,0.8,0.4,0.6*32
$GPGSA,A,3,03,13,15,21,26,27,,,,,,,0.8,0.4,0.6*3F
$GPGSA,A,3,05,08,11,13,14,21,23,27,28,33,34,37,0.8,0.4,0.6*3C
$GPGSA,A,3,38,42,43,60,,,,,,,,,0.8,0.4,0.6*34
$GPGST,191507.00,1.718,0.382,0.325,18.923,0.377,0.331,0.801*64
$GPGBS,191507.00,2.648,1.863,4.033,67,0.0001,5.722,6.158*5C
$GPGRS,191507.00,1,0.2,-0.1,-0.5,0.1,0.3,-0.1,0.1,0.2,-0.1,-0.0,,*6F
$GPGRS,191507.00,1,-3.5,5.7,4.4,-3.9,-0.6,1.6,-0.3,-1.9,-0.8,,,*67
$GPGRS,191507.00,1,-0.5,0.4,0.4,0.2,0.2,-0.8,,,,,,*48
$GPGRS,191507.00,1,1.0,0.3,-0.0,0.2,1.9,0.3,-0.5,0.1,-0.2,-1.7,0.0,-0.3*60
$GPGRS,191507.00,1,-0.3,-0.2,-0.0,-1.8,,,,,,,,*4D
$GPGSV,5,1,20,16,65,240,48,08,17,294,40,10,34,170,45,15,14,066,40*70
$GPGSV,5,2,20,26,43,196,47,27,51,298,48,18,47,058,47,23,56,115,48*73
$GPGSV,5,3,20,13,04,036,37,07,08,324,40,29,07,105,39,36,35,170,44*73
$GPGSV,5,4,20,58,13,245,37,57,11,108,37,34,31,208,42,40,24,133,35*71
$GPGSV,5,5,20,49,34,195,44,41,07,108,34,61,03,257,38*4F
$GLGSV,3,1,10,83,64,308,43,66,24,042,46,74,25,327,41,80,29,203,49*69
$GLGSV,3,2,10,67,27,100,48,82,52,043,50,73,49,276,51,81,10,069,43*6D
$GLGSV,3,3,10,68,04,143,,84,09,261,35*6E
$GAGSV,2,1,08,13,86,011,48,23,38,307,,15,32,056,43,27,24,164,41*69
$GAGSV,2,2,08,26,36,240,44,21,64,221,48,05,04,020,35,03,08,067,36*61
$GBGSV,6,1,23,43,56,075,50,33,16,148,42,21,17,039,41,60,11,108,40*63
$GBGSV,6,2,23,23,20,205,43,46,18,318,,30,10,262,,38,19,037,42*69
$GBGSV,6,3,23,05,22,128,39,27,11,270,42,58,24,315,,31,30,052,*67
$GBGSV,6,4,23,14,28,123,42,08,33,039,40,50,27,062,,13,40,046,44*67
$GBGSV,6,5,23,42,33,091,45,11,32,077,44,37,37,261,47,28,55,280,49*6C
$GBGSV,6,6,23,34,10,086,40,02,08,106,34,07,03,118,*50
$GPGGA,191507.00,,,,,0,00,,,M,,M,,*43
$PTNL,GGK,191507.00,010125,4742.1605259,N,01618.1000851,E,1,41,0.8,EHT751.5656,M*45
$GPGGQ,191507.00,010125,4742.1605259,N,01618.1000851,E,1,41,0.945,708.3591,M*39
$GPGFA,191507.00,3.635,6.571,0.382,0.325,18.923,0.801,,VVV*3B
$GPLLK,191507.00,010125,,M,,M,1,41,0.8,,M*0D
$GNGMP,191507.00,,,,,DAAA,41,0.4,,,,*5C
$GPGMP,191507.00,,,,,,10,,,,3.7,136*77
$GLGMP,191507.00,,,,,,09,,,,,*7D
$GAGMP,191507.00,,,,,,06,,,,,*7F
$GBGMP,191507.00,,,,,,16,,,,,*7D
$PSSN,SNC,[0,328525000,2347]*4F
$GPZDA,191512.00,01,01,2025,,*6C
$GPDTM,W84,,00.0000000,N,00.0000000,E,00.0000000,W84*5F
$PSSN,TFM,191512.00,,,,*60
$GPRMC,191512.00,A,4742.1605259,N,01618.1000851,E,0.0,,010125,5.1,E,D*18
$GPGLL,4742.1605259,N,01618.1000851,E,191512.00,A,D*69
$GPGGA,191512.00,4742.1605259,N,01618.1000851,E,2,40,0.4,708.3578,M,43.2066,M,2.0,0136*41
$GNGNS,191512.00,4742.1605259,N,01618.1000851,E,DAAA,40,0.4,708.3578,43.2066,,*5B
$GPGNS,191512.00,,,,,,10,,,,2.0,136*75
$GLGNS,191512.00,,,,,,08,,,,,*78
$GAGNS,191512.00,,,,,,06,,,,,*7B
$GBGNS,191512.00,,,,,,16,,,,,*79
$GPLLQ,191512.00,010125,,M,,M,1,40,0.944,,M*13
$GPVTG,,T,,M,0.00,N,0.01,K,D*27
$GPHDT,,T*1B
$GPTHS,,V*0E
$GPROT,,V*08
$PSSN,HRP,191512.00,010125,,,,,,,00,0,,*6E
$PTNL,AVR,191512.00,,Yaw,,Tilt,,,,0,,00*38
$GPGSA,A,3,07,08,10,15,16,18,23,26,27,29,,,0.8,0.4,0.7*36
$GPGSA,A,3,66,67,73,74,80,81,82,83,,,,,0.8,0.4,0.7*3F
$GPGSA,A,3,03,13,15,21,26,27,,,,,,,0.8,0.4,0.7*3E
$GPGSA,A,3,05,08,11,13,14,21,23,27,28,33,34,37,0.8,0.4,0.7*3D
$GPGSA,A,3,38,42,43,60,,,,,,,,,0.8,0.4,0.7*35
$GPGST,191512.00,1.786,0.381,0.323,17.537,0.376,0.329,0.802*6F
$GPGBS,191512.00,2.490,1.826,3.899,67,0.0001,5.556,6.158*50
$GPGRS,191512.00,1,0.3,0.0,-0.2,0.1,0.1,-0.2,0.2,-0.1,-0.1,-0.6,,*6B
$GPGRS,191512.00,1,-3.7,5.6,4.4,-4.9,-1.4,0.3,-0.5,-1.8,,,,*6C
$GPGRS,191512.00,1,-1.0,0.4,0.1,0.1,-0.0,-0.6,,,,,,*6F
$GPGRS,191512.00,1,0.9,0.4,0.1,-0.0,1.2,0.3,-0.8,-0.5,-0.3,-1.5,-0.2,-0.5*6D
$GPGRS,191512.00,1,-0.3,-0.2,-0.4,-1.9,,,,,,,,*4C
$GPGSV,5,1,20,16,65,240,48,08,17,294,40,10,34,170,45,15,14,066,40*70
$GPGSV,5,2,20,26,43,196,46,27,51,298,48,18,47,058,47,23,56,115,48*72
$GPGSV,5,3,20,13,04,036,37,07,08,324,40,29,07,105,38,36,35,170,44*72
$GPGSV,5,4,20,58,13,245,37,57,11,108,38,34,31,208,42,40,24,133,35*7E
$GPGSV,5,5,20,49,34,195,44,41,07,108,34,61,03,257,38*4F
$GLGSV,3,1,10,83,64,308,43,66,24,042,47,74,25,327,41,80,29,203,48*69
$GLGSV,3,2,10,67,27,100,48,82,52,043,50,73,49,276,51,81,10,069,42*6C
$GLGSV,3,3,10,68,04,143,,84,09,261,34*6F
$GAGSV,2,1,08,13,86,011,49,23,38,307,,15,32,056,42,27,24,164,42*6A
$GAGSV,2,2,08,26,36,240,44,21,64,220,48,05,04,020,35,03,08,067,37*61
$GBGSV,6,1,23,43,56,075,50,33,16,148,42,21,17,039,41,60,11,108,40*63
$GBGSV,6,2,23,23,20,205,43,46,18,318,,30,10,262,,38,19,037,42*69
$GBGSV,6,3,23,05,22,128,39,27,11,270,41,58,24,315,,31,30,052,*64
$GBGSV,6,4,23,14,28,123,42,08,33,039,40,50,27,062,,13,40,046,44*67
$GBGSV,6,5,23,42,33,091,45,11,32,077,44,37,37,261,47,28,55,280,49*6C
$GBGSV,6,6,23,34,10,086,40,02,08,106,34,07,03,118,*50
$GPGGA,191512.00,,,,,0,00,,,M,,M,,*47
$PTNL,GGK,191512.00,010125,4742.1605259,N,01618.1000851,E,1,40,0.8,EHT751.5643,M*44
$GPGGQ,191512.00,010125,4742.1605259,N,01618.1000851,E,1,40,0.944,708.3578,M*3A
$GPGFA,191512.00,3.624,6.573,0.381,0.323,17.537,0.802,,VVV*3D
$GPLLK,191512.00,010125,,M,,M,1,40,0.9,,M*09
$GNGMP,191512.00,,,,,DAAA,40,0.4,,,,*59
$GPGMP,191512.00,,,,,,10,,,,2.0,136*75
$GLGMP,191512.00,,,,,,08,,,,,*78
$GAGMP,191512.00,,,,,,06,,,,,*7B
$GBGMP,191512.00,,,,,,16,,,,,*79
$PSSN,SNC,[0,328530000,2347]*4B
$GPZDA,191517.00,01,01,2025,,*69
$GPDTM,W84,,00.0000000,N,00.0000000,E,00.0000000,W84*5F
$PSSN,TFM,191517.00,,,,*65
$GPRMC,191517.00,A,4742.1605278,N,01618.1000860,E,0.0,,010125,5.1,E,D*1C
$GPGLL,4742.1605278,N,01618.1000860,E,191517.00,A,D*6D
$GPGGA,191517.00,4742.1605278,N,01618.1000860,E,2,40,0.4,708.3612,M,43.2066,M,1.7,0136*4E
$GNGNS,191517.00,4742.1605278,N,01618.1000860,E,DAAA,40,0.4,708.3612,43.2066,,*50
$GPGNS,191517.00,,,,,,10,,,,1.7,136*74
$GLGNS,191517.00,,,,,,08,,,,,*7D
$GAGNS,191517.00,,,,,,06,,,,,*7E
$GBGNS,191517.00,,,,,,16,,,,,*7C
$GPLLQ,191517.00,010125,,M,,M,1,40,0.927,,M*13
$GPVTG,,T,,M,0.00,N,0.01,K,D*27
$GPHDT,,T*1B
$GPTHS,,V*0E
$GPROT,,V*08
$PSSN,HRP,191517.00,010125,,,,,,,00,0,,*6B
$PTNL,AVR,191517.00,,Yaw,,Tilt,,,,0,,00*3D
$GPGSA,A,3,07,08,10,15,16,18,23,26,27,29,,,0.8,0.4,0.7*36
$GPGSA,A,3,66,67,73,74,80,81,82,83,,,,,0.8,0.4,0.7*3F
$GPGSA,A,3,03,13,15,21,26,27,,,,,,,0.8,0.4,0.7*3E
$GPGSA,A,3,05,08,11,13,14,21,23,27,28,33,34,37,0.8,0.4,0.7*3D
$GPGSA,A,3,38,42,43,60,,,,,,,,,0.8,0.4,0.7*35
$GPGST,191517.00,1.704,0.373,0.316,17.384,0.368,0.322,0.788*6C
$GPGBS,191517.00,2.548,1.837,3.935,67,0.0001,4.912,6.158*5B
$GPGRS,191517.00,1,0.7,0.3,0.6,-0.3,-0.0,-0.3,0.0,-0.3,0.0,-0.4,,*6C
$GPGRS,191517.00,1,-3.8,4.9,4.3,-4.3,-1.0,0.5,-1.1,-1.7,,,,*6D
$GPGRS,191517.00,1,-1.0,0.3,0.1,-0.0,0.1,-0.7,,,,,,*6C
$GPGRS,191517.00,1,0.5,0.6,0.4,0.1,1.2,0.2,-1.0,-0.7,-0.0,-1.9,0.3,-0.5*66
$GPGRS,191517.00,1,-0.4,0.2,-0.3,-2.0,,,,,,,,*6E
$GPGSV,5,1,20,16,65,240,49,08,17,294,41,10,34,170,46,15,14,066,39*7D
$GPGSV,5,2,20,26,43,196,47,27,51,298,48,18,47,058,47,23,56,115,49*72
$GPGSV,5,3,20,13,04,036,38,07,08,324,40,29,07,105,39,36,35,170,45*7D
$GPGSV,5,4,20,58,13,245,37,57,11,108,38,34,31,208,42,40,24,133,35*7E
$GPGSV,5,5,20,49,34,195,44,41,07,108,34,61,03,257,38*4F
$GLGSV,3,1,10,83,64,309,43,66,24,042,46,74,25,327,41,80,29,203,48*69
$GLGSV,3,2,10,67,27,100,49,82,52,043,49,73,49,276,50,81,10,069,43*65
$GLGSV,3,3,10,68,04,143,,84,09,261,35*6E
$GAGSV,2,1,08,13,86,011,49,23,38,307,,15,32,056,43,27,24,164,42*6B
$GAGSV,2,2,08,26,36,240,44,21,64,220,48,05,04,020,35,03,08,067,36*60
$GBGSV,6,1,23,43,56,075,50,33,16,148,42,21,17,039,41,60,11,108,40*63
$GBGSV,6,2,23,23,20,205,43,46,18,318,,30,10,262,,38,19,037,42*69
$GBGSV,6,3,23,05,22,128,39,27,11,270,40,58,24,315,,31,30,052,*65
$GBGSV,6,4,23,14,28,123,42,08,33,039,40,50,27,062,,13,40,046,44*67
$GBGSV,6,5,23,42,33,091,45,11,32,077,45,37,37,261,47,28,55,280,49*6D
$GBGSV,6,6,23,34,10,086,40,02,08,106,34,07,03,118,*50
$GPGGA,191517.00,,,,,0,00,,,M,,M,,*42
$PTNL,GGK,191517.00,010125,4742.1605278,N,01618.1000860,E,1,40,0.8,EHT751.5677,M*47
$GPGGQ,191517.00,010125,4742.1605278,N,01618.1000860,E,1,40,0.927,708.3612,M*34
$GPGFA,191517.00,3.543,6.459,0.373,0.316,17.384,0.788,,VVV*3B
$GPLLK,191517.00,010125,,M,,M,1,40,0.9,,M*0C
$GNGMP,191517.00,,,,,DAAA,40,0.4,,,,*5C
$GPGMP,191517.00,,,,,,10,,,,1.7,136*74
$GLGMP,191517.00,,,,,,08,,,,,*7D
$GAGMP,191517.00,,,,,,06,,,,,*7E
$GBGMP,191517.00,,,,,,16,,,,,*7C
$PSSN,SNC,[0,328535000,2347]*4E
$GPZDA,191522.00,01,01,2025,,*6F
$GPDTM,W84,,00.0000000,N,00.0000000,E,00.0000000,W84*5F
$PSSN,TFM,191522.00,,,,*63
$GPRMC,191522.00,A,4742.1605282,N,01618.1000892,E,0.0,,010125,5.1,E,D*12
$GPGLL,4742.1605282,N,01618.1000892,E,191522.00,A,D*63
$GPGGA,191522.00,4742.1605282,N,01618.1000892,E,2,40,0.4,708.3679,M,43.2066,M,2.7,0136*4E
$GNGNS,191522.00,4742.1605282,N,01618.1000892,E,DAAA,40,0.4,708.3679,43.2066,,*53
$GPGNS,191522.00,,,,,,10,,,,2.7,136*71
$GLGNS,191522.00,,,,,,08,,,,,*7B
$GAGNS,191522.00,,,,,,06,,,,,*78
$GBGNS,191522.00,,,,,,16,,,,,*7A
$GPLLQ,191522.00,010125,,M,,M,1,40,0.932,,M*11
$GPVTG,,T,,M,0.00,N,0.01,K,D*27
$GPHDT,,T*1B
$GPTHS,,V*0E
$GPROT,,V*08
$PSSN,HRP,191522.00,010125,,,,,,,00,0,,*6D
$PTNL,AVR,191522.00,,Yaw,,Tilt,,,,0,,00*3B
$GPGSA,A,3,07,08,10,15,16,18,23,26,27,29,,,0.8,0.4,0.7*36
$GPGSA,A,3,66,67,73,74,80,81,82,83,,,,,0.8,0.4,0.7*3F
$GPGSA,A,3,03,13,15,21,26,27,,,,,,,0.8,0.4,0.7*3E
$GPGSA,A,3,05,08,11,13,14,21,23,27,28,33,34,37,0.8,0.4,0.7*3D
$GPGSA,A,3,38,42,43,60,,,,,,,,,0.8,0.4,0.7*35
$GPGST,191522.00,1.811,0.376,0.319,19.394,0.370,0.326,0.791*61
$GPGBS,191522.00,2.597,1.858,3.977,67,0.0001,6.167,6.157*57
$GPGRS,191522.00,1,0.3,0.1,0.3,-0.4,0.0,-0.1,-0.2,0.1,-0.2,-0.3,,*69
$GPGRS,191522.00,1,-3.9,6.2,3.9,-4.2,-0.9,1.2,-1.2,-2.0,,,,*66
$GPGRS,191522.00,1,-0.9,0.2,0.4,-0.2,-0.1,-0.8,,,,,,*46
$GPGRS,191522.00,1,0.6,0.6,0.8,-0.1,0.9,0.1,-0.8,-0.1,-0.2,-2.1,0.2,-0.5*4C
$GPGRS,191522.00,1,-0.2,0.3,-0.3,-2.0,,,,,,,,*6F
$GPGSV,5,1,20,16,65,240,49,08,17,294,41,10,34,170,47,15,14,066,39*7C
$GPGSV,5,2,20,26,43,196,47,27,51,298,48,18,47,058,47,23,56,115,48*73
$GPGSV,5,3,20,13,04,036,38,07,08,324,40,29,07,105,39,36,35,170,45*7D
$GPGSV,5,4,20,58,13,245,37,57,11,108,38,34,31,208,42,40,24,133,35*7E
$GPGSV,5,5,20,49,34,195,44,41,07,108,34,61,03,257,37*40
$GLGSV,3,1,10,83,64,309,43,66,24,042,47,74,25,327,42,80,29,203,48*6B
$GLGSV,3,2,10,67,27,100,48,82,52,043,50,73,49,276,51,81,10,069,43*6D
$GLGSV,3,3,10,68,04,143,,84,09,261,35*6E
$GAGSV,2,1,08,13,86,012,49,23,38,307,,15,32,056,43,27,24,164,42*68
$GAGSV,2,2,08,26,37,240,44,21,64,220,48,05,04,020,36,03,08,067,36*62
$GBGSV,6,1,23,43,56,075,50,33,17,148,41,21,17,039,41,60,11,108,40*61
$GBGSV,6,2,23,23,20,205,43,46,18,318,,30,10,262,,38,19,037,42*69
$GBGSV,6,3,23,05,22,128,39,27,11,270,41,58,24,315,,31,30,052,*64
$GBGSV,6,4,23,14,28,123,42,08,33,039,40,50,27,062,,13,40,046,44*67
$GBGSV,6,5,23,42,33,091,46,11,32,077,45,37,37,261,47,28,55,280,50*66
$GBGSV,6,6,23,34,10,086,41,02,08,106,34,07,03,118,*51
$GPGGA,191522.00,,,,,0,00,,,M,,M,,*44
$PTNL,GGK,191522.00,010125,4742.1605282,N,01618.1000892,E,1,40,0.8,EHT751.5745,M*49
$GPGGQ,191522.00,010125,4742.1605282,N,01618.1000892,E,1,40,0.932,708.3679,M*33
$GPGFA,191522.00,3.570,6.484,0.376,0.319,19.394,0.791,,VVV*30
$GPLLK,191522.00,010125,,M,,M,1,40,0.9,,M*0A
$GNGMP,191522.00,,,,,DAAA,40,0.4,,,,*5A
$GPGMP,191522.00,,,,,,10,,,,2.7,136*71
$GLGMP,191522.00,,,,,,08,,,,,*7B
$GAGMP,191522.00,,,,,,06,,,,,*78
$GBGMP,191522.00,,,,,,16,,,,,*7A
$PSSN,SNC,[0,328540000,2347]*4C
$GPZDA,191527.00,01,01,2025,,*6A
$GPDTM,W84,,00.0000000,N,00.0000000,E,00.0000000,W84*5F
$PSSN,TFM,191527.00,,,,*66
$GPRMC,191527.00,A,4742.1605301,N,01618.1000900,E,0.0,,010125,5.1,E,D*17
$GPGLL,4742.1605301,N,01618.1000900,E,191527.00,A,D*66
$GPGGA,191527.00,4742.1605301,N,01618.1000900,E,2,40,0.4,708.3671,M,43.2066,M,3.7,0136*42
$GNGNS,191527.00,4742.1605301,N,01618.1000900,E,DAAA,40,0.4,708.3671,43.2066,,*5E
$GPGNS,191527.00,,,,,,10,,,,3.7,136*75
$GLGNS,191527.00,,,,,,08,,,,,*7E
$GAGNS,191527.00,,,,,,06,,,,,*7D
$GBGNS,191527.00,,,,,,16,,,,,*7F
$GPLLQ,191527.00,010125,,M,,M,1,40,0.948,,M*19
$GPVTG,,T,,M,0.00,N,0.01,K,D*27
$GPHDT,,T*1B
$GPTHS,,V*0E
$GPROT,,V*08
$PSSN,HRP,191527.00,010125,,,,,,,00,0,,*68
$PTNL,AVR,191527.00,,Yaw,,Tilt,,,,0,,00*3E
$GPGSA,A,3,07,08,10,15,16,18,23,26,27,29,,,0.8,0.4,0.7*36
$GPGSA,A,3,66,67,73,74,80,81,82,83,,,,,0.8,0.4,0.7*3F
$GPGSA,A,3,03,13,15,21,26,27,,,,,,,0.8,0.4,0.7*3E
$GPGSA,A,3,05,08,11,13,14,21,23,27,28,33,34,37,0.8,0.4,0.7*3D
$GPGSA,A,3,38,42,43,60,,,,,,,,,0.8,0.4,0.7*35
$GPGST,191527.00,1.783,0.383,0.325,19.387,0.377,0.332,0.804*66
$GPGBS,191527.00,2.654,1.881,4.025,67,0.0001,5.982,6.157*53
$GPGRS,191527.00,1,0.6,0.1,0.1,-0.0,0.2,-0.1,-0.1,-0.0,-0.3,-0.3,,*43
$GPGRS,191527.00,1,-3.3,6.0,4.3,-4.4,-0.5,0.8,-0.3,-1.9,,,,*6D
$GPGRS,191527.00,1,-0.8,0.4,0.8,-0.1,0.1,-0.6,,,,,,*68
$GPGRS,191527.00,1,1.1,0.3,1.5,0.4,0.7,0.5,-0.5,0.7,-0.1,-1.9,-0.1,-0.5*64
$GPGRS,191527.00,1,0.1,0.5,-0.3,-2.0,,,,,,,,*42
$GPGSV,5,1,20,16,64,240,49,08,17,294,41,10,34,170,47,15,14,066,40*73
$GPGSV,5,2,20,26,43,196,46,27,51,298,49,18,47,058,46,23,56,115,48*72
$GPGSV,5,3,20,13,04,036,37,07,08,324,40,29,07,105,39,36,35,170,44*73
$GPGSV,5,4,20,58,13,245,37,57,11,108,38,34,31,208,42,40,24,133,35*7E
$GPGSV,5,5,20,49,34,195,44,41,07,108,34,61,03,257,38*4F
$GLGSV,3,1,10,83,64,309,43,66,24,042,46,74,25,327,42,80,29,203,48*6A
$GLGSV,3,2,10,67,27,100,49,82,52,043,50,73,49,276,51,81,09,069,43*64
$GLGSV,3,3,10,68,04,142,,84,09,261,35*6F
$GAGSV,2,1,08,13,86,012,48,23,38,307,,15,32,056,43,27,24,164,42*69
$GAGSV,2,2,08,26,37,240,44,21,64,220,48,05,04,020,35,03,08,067,36*61
$GBGSV,6,1,23,43,55,075,50,33,17,148,41,21,17,039,42,60,11,108,40*61
$GBGSV,6,2,23,23,20,205,43,46,18,318,,30,10,262,,38,19,037,42*69
$GBGSV,6,3,23,05,22,128,39,27,11,270,42,58,24,315,,31,30,052,*67
$GBGSV,6,4,23,14,28,123,41,08,33,039,40,50,27,062,,13,40,046,44*64
$GBGSV,6,5,23,42,33,091,46,11,32,077,45,37,37,261,47,28,55,280,50*66
$GBGSV,6,6,23,34,10,086,41,02,08,106,34,07,03,118,*51
$GPGGA,191527.00,,,,,0,00,,,M,,M,,*41
$PTNL,GGK,191527.00,010125,4742.1605301,N,01618.1000900,E,1,40,0.8,EHT751.5736,M*48
$GPGGQ,191527.00,010125,4742.1605301,N,01618.1000900,E,1,40,0.948,708.3671,M*33
$GPGFA,191527.00,3.642,6.594,0.383,0.325,19.387,0.804,,VVV*33
$GPLLK,191527.00,010125,,M,,M,1,40,0.9,,M*0F
$GNGMP,191527.00,,,,,DAAA,40,0.4,,,,*5F
$GPGMP,191527.00,,,,,,10,,,,3.7,136*75
$GLGMP,191527.00,,,,,,08,,,,,*7E
$GAGMP,191527.00,,,,,,06,,,,,*7D
$GBGMP,191527.00,,,,,,16,,,,,*7F
$PSSN,SNC,[0,328545000,2347]*49
$GPZDA,191532.00,01,01,2025,,*6E
$GPDTM,W84,,00.0000000,N,00.0000000,E,00.0000000,W84*5F
$PSSN,TFM,191532.00,,,,*62
$GPRMC,191532.00,A,4742.1605289,N,01618.1000900,E,0.0,,010125,5.1,E,D*12
$GPGLL,4742.1605289,N,01618.1000900,E,191532.00,A,D*63
$GPGGA,191532.00,4742.1605289,N,01618.1000900,E,2,40,0.4,708.3715,M,43.2066,M,2.0,0136*42
$GNGNS,191532.00,4742.1605289,N,01618.1000900,E,DAAA,40,0.4,708.3715,43.2066,,*58
$GPGNS,191532.00,,,,,,10,,,,2.0,136*77
$GLGNS,191532.00,,,,,,08,,,,,*7A
$GAGNS,191532.00,,,,,,06,,,,,*79
$GBGNS,191532.00,,,,,,16,,,,,*7B
$GPLLQ,191532.00,010125,,M,,M,1,40,0.947,,M*12
$GPVTG,,T,,M,0.00,N,0.00,K,D*26
$GPHDT,,T*1B
$GPTHS,,V*0E
$GPROT,,V*08
$PSSN,HRP,191532.00,010125,,,,,,,00,0,,*6C
$PTNL,AVR,191532.00,,Yaw,,Tilt,,,,0,,00*3A
$GPGSA,A,3,07,08,10,15,16,18,23,26,27,29,,,0.8,0.4,0.7*36
$GPGSA,A,3,66,67,73,74,80,81,82,83,,,,,0.8,0.4,0.7*3F
$GPGSA,A,3,03,13,15,21,26,27,,,,,,,0.8,0.4,0.7*3E
$GPGSA,A,3,05,08,11,13,14,21,23,27,28,33,34,37,0.8,0.4,0.7*3D
$GPGSA,A,3,38,42,43,60,,,,,,,,,0.8,0.4,0.7*35
$GPGST,191532.00,1.721,0.382,0.323,17.576,0.377,0.329,0.804*61
$GPGBS,191532.00,2.484,1.824,3.890,67,0.0001,5.498,6.157*50
$GPGRS,191532.00,1,0.9,-0.1,-0.0,0.1,0.0,0.1,-0.1,-0.1,-0.2,-0.4,,*4D
$GPGRS,191532.00,1,-3.8,5.5,4.3,-4.5,-0.7,0.1,-0.3,-1.7,,,,*60
$GPGRS,191532.00,1,-0.4,0.3,0.7,0.0,0.1,-0.5,,,,,,*47
$GPGRS,191532.00,1,1.3,0.3,0.7,0.5,0.3,0.5,-0.4,0.4,-0.1,-1.5,0.0,-0.5*46
$GPGRS,191532.00,1,0.1,0.0,-0.0,-1.7,,,,,,,,*44
$GPGSV,5,1,20,16,64,240,49,08,17,294,41,10,35,170,47,15,14,066,40*72
$GPGSV,5,2,20,26,43,196,47,27,51,298,49,18,47,058,47,23,56,115,48*72
$GPGSV,5,3,20,13,04,036,36,07,08,324,41,29,07,105,39,36,35,170,44*73
$GPGSV,5,4,20,58,13,245,37,57,11,108,38,34,31,208,42,40,24,133,36*7D
$GPGSV,5,5,20,49,34,195,44,41,07,108,34,61,03,257,38*4F
$GLGSV,3,1,10,83,64,309,43,66,24,041,46,74,25,327,41,80,29,203,48*6A
$GLGSV,3,2,10,67,27,100,48,82,52,044,50,73,49,276,50,81,09,069,43*63
$GLGSV,3,3,10,68,04,142,,84,09,261,33*69
$GAGSV,2,1,08,13,86,012,48,23,38,307,,15,31,056,43,27,24,164,42*6A
$GAGSV,2,2,08,26,37,240,44,21,64,220,48,05,04,020,35,03,08,067,36*61
$GBGSV,6,1,23,43,55,075,50,33,17,148,41,21,17,039,42,60,11,108,40*61
$GBGSV,6,2,23,23,20,205,43,46,18,318,,30,10,262,,38,19,037,42*69
$GBGSV,6,3,23,05,22,128,39,27,11,270,42,58,24,315,,31,30,052,*67
$GBGSV,6,4,23,14,28,123,41,08,33,039,40,50,27,062,,13,40,046,44*64
$GBGSV,6,5,23,42,33,091,46,11,32,077,45,37,37,261,47,28,55,280,50*66
$GBGSV,6,6,23,34,10,086,40,02,08,106,34,07,03,118,*50
$GPGGA,191532.00,,,,,0,00,,,M,,M,,*45
$PTNL,GGK,191532.00,010125,4742.1605289,N,01618.1000900,E,1,40,0.8,EHT751.5781,M*41
$GPGGQ,191532.00,010125,4742.1605289,N,01618.1000900,E,1,40,0.947,708.3715,M*3A
$GPGFA,191532.00,3.629,6.593,0.382,0.323,17.576,0.804,,VVV*3C
$GPLLK,191532.00,010125,,M,,M,1,40,0.9,,M*0B
$GNGMP,191532.00,,,,,DAAA,40,0.4,,,,*5B
$GPGMP,191532.00,,,,,,10,,,,2.0,136*77
$GLGMP,191532.00,,,,,,08,,,,,*7A
$GAGMP,191532.00,,,,,,06,,,,,*79
$GBGMP,191532.00,,,,,,16,,,,,*7B
$PSSN,SNC,[0,328550000,2347]*4D
$GPZDA,191537.00,01,01,2025,,*6B
$GPDTM,W84,,00.0000000,N,00.0000000,E,00.0000000,W84*5F
$PSSN,TFM,191537.00,,,,*67
$GPRMC,191537.00,A,4742.1605272,N,01618.1000885,E,0.0,,010125,5.1,E,D*1F
$GPGLL,4742.1605272,N,01618.1000885,E,191537.00,A,D*6E
$GPGGA,191537.00,4742.1605272,N,01618.1000885,E,2,40,0.4,708.3764,M,43.2066,M,1.7,0136*4D
$GNGNS,191537.00,4742.1605272,N,01618.1000885,E,DAAA,40,0.4,708.3764,43.2066,,*53
$GPGNS,191537.00,,,,,,10,,,,1.7,136*76
$GLGNS,191537.00,,,,,,08,,,,,*7F
$GAGNS,191537.00,,,,,,06,,,,,*7C
$GBGNS,191537.00,,,,,,16,,,,,*7E
$GPLLQ,191537.00,010125,,M,,M,1,40,0.928,,M*1E
$GPVTG,,T,,M,0.00,N,0.01,K,D*27
$GPHDT,,T*1B
$GPTHS,,V*0E
$GPROT,,V*08
$PSSN,HRP,191537.00,010125,,,,,,,00,0,,*69
$PTNL,AVR,191537.00,,Yaw,,Tilt,,,,0,,00*3F
$GPGSA,A,3,07,08,10,15,16,18,23,26,27,29,,,0.8,0.4,0.7*36
$GPGSA,A,3,66,67,73,74,80,81,82,83,,,,,0.8,0.4,0.7*3F
$GPGSA,A,3,03,13,15,21,26,27,,,,,,,0.8,0.4,0.7*3E
$GPGSA,A,3,05,08,11,13,14,21,23,27,28,33,34,37,0.8,0.4,0.7*3D
$GPGSA,A,3,38,42,43,60,,,,,,,,,0.8,0.4,0.7*35
$GPGST,191537.00,1.788,0.372,0.316,17.147,0.368,0.321,0.789*64
$GPGBS,191537.00,2.543,1.836,3.926,67,0.0001,5.906,6.157*5A
$GPGRS,191537.00,1,0.4,-0.4,0.1,0.2,-0.2,0.2,-0.1,0.1,-0.1,-0.2,,*6B
$GPGRS,191537.00,1,-3.1,5.9,4.3,-5.2,-0.7,0.6,-0.3,-1.8,,,,*6E
$GPGRS,191537.00,1,-0.8,0.3,0.7,0.2,-0.1,-0.8,,,,,,*6C
$GPGRS,191537.00,1,1.0,0.3,0.8,0.5,1.3,0.5,-0.5,0.2,-0.1,-1.1,0.1,-0.3*4A
$GPGRS,191537.00,1,-0.0,-0.5,0.1,-1.8,,,,,,,,*66
$GPGSV,5,1,20,16,64,240,49,08,17,294,41,10,35,170,47,15,14,066,41*73
$GPGSV,5,2,20,26,43,196,46,27,51,298,49,18,47,058,47,23,56,115,48*73
$GPGSV,5,3,20,13,04,036,36,07,08,324,41,29,07,105,39,36,35,170,45*72
$GPGSV,5,4,20,58,13,245,38,57,11,108,38,34,31,208,42,40,24,133,35*71
$GPGSV,5,5,20,49,34,195,44,41,07,108,34,61,03,257,38*4F
$GLGSV,3,1,10,83,64,309,43,66,24,041,47,74,25,327,41,80,29,203,48*6B
$GLGSV,3,2,10,67,27,100,49,82,52,044,50,73,49,276,50,81,09,069,43*62
$GLGSV,3,3,10,68,04,142,,84,09,261,33*69
$GAGSV,2,1,08,13,86,012,48,23,38,307,,15,31,056,43,27,24,164,42*6A
$GAGSV,2,2,08,26,37,240,44,21,64,220,48,05,04,020,36,03,08,067,36*62
$GBGSV,6,1,23,43,55,075,50,33,17,148,41,21,17,039,42,60,11,108,40*61
$GBGSV,6,2,23,23,20,205,43,46,18,318,,30,11,262,,38,19,037,41*6B
$GBGSV,6,3,23,05,22,128,39,27,11,270,42,58,24,315,,31,30,052,*67
$GBGSV,6,4,23,14,28,123,42,08,33,039,40,50,27,062,,13,40,046,44*67
$GBGSV,6,5,23,42,33,091,46,11,32,077,45,37,37,261,47,28,55,281,50*67
$GBGSV,6,6,23,34,10,086,40,02,08,106,34,07,03,118,*50
$GPGGA,191537.00,,,,,0,00,,,M,,M,,*40
$PTNL,GGK,191537.00,010125,4742.1605272,N,01618.1000885,E,1,40,0.8,EHT751.5829,M*41
$GPGGQ,191537.00,010125,4742.1605272,N,01618.1000885,E,1,40,0.928,708.3764,M*38
$GPGFA,191537.00,3.540,6.466,0.372,0.316,17.147,0.789,,VVV*3B
$GPLLK,191537.00,010125,,M,,M,1,40,0.9,,M*0E
$GNGMP,191537.00,,,,,DAAA,40,0.4,,,,*5E
$GPGMP,191537.00,,,,,,10,,,,1.7,136*76
$GLGMP,191537.00,,,,,,08,,,,,*7F
$GAGMP,191537.00,,,,,,06,,,,,*7C
$GBGMP,191537.00,,,,,,16,,,,,*7E
$PSSN,SNC,[0,328555000,2347]*48
$GPZDA,191542.00,01,01,2025,,*69
$GPDTM,W84,,00.0000000,N,00.0000000,E,00.0000000,W84*5F
$PSSN,TFM,191542.00,,,,*65
$GPRMC,191542.00,A,4742.1605277,N,01618.1000863,E,0.0,,010125,5.1,E,D*10
$GPGLL,4742.1605277,N,01618.1000863,E,191542.00,A,D*61
$GPGGA,191542.00,4742.1605277,N,01618.1000863,E,2,41,0.4,708.3750,M,43.2066,M,2.7,0136*47
$GNGNS,191542.00,4742.1605277,N,01618.1000863,E,DAAA,41,0.4,708.3750,43.2066,,*5A
$GPGNS,191542.00,,,,,,10,,,,2.7,136*77
$GLGNS,191542.00,,,,,,09,,,,,*7C
$GAGNS,191542.00,,,,,,06,,,,,*7E
$GBGNS,191542.00,,,,,,16,,,,,*7C
$GPLLQ,191542.00,010125,,M,,M,1,41,0.929,,M*1C
$GPVTG,,T,,M,0.00,N,0.00,K,D*26
$GPHDT,,T*1B
$GPTHS,,V*0E
$GPROT,,V*08
$PSSN,HRP,191542.00,010125,,,,,,,00,0,,*6B
$PTNL,AVR,191542.00,,Yaw,,Tilt,,,,0,,00*3D
$GPGSA,A,3,07,08,10,15,16,18,23,26,27,29,,,0.8,0.4,0.6*37
$GPGSA,A,3,66,67,73,74,80,81,82,83,84,,,,0.8,0.4,0.6*32
$GPGSA,A,3,03,13,15,21,26,27,,,,,,,0.8,0.4,0.6*3F
$GPGSA,A,3,05,08,11,13,14,21,23,27,28,33,34,37,0.8,0.4,0.6*3C
$GPGSA,A,3,38,42,43,60,,,,,,,,,0.8,0.4,0.6*34
$GPGST,191542.00,1.811,0.374,0.318,18.447,0.369,0.324,0.789*6F
$GPGBS,191542.00,2.582,1.836,3.964,67,0.0001,6.014,6.157*5A
$GPGRS,191542.00,1,0.5,-0.1,-0.4,0.3,0.2,0.1,-0.1,0.0,-0.2,-0.3,,*69
$GPGRS,191542.00,1,-2.9,6.0,4.6,-4.4,-0.1,0.5,-0.5,-1.5,-2.9,,,*6B
$GPGRS,191542.00,1,-0.7,0.3,0.5,0.3,0.2,-0.6,,,,,,*42
$GPGRS,191542.00,1,1.0,-0.0,1.7,0.8,1.9,-0.0,-0.8,0.2,-0.2,-1.0,-0.3,-0.2*66
$GPGRS,191542.00,1,0.1,-0.8,-0.1,-1.5,,,,,,,,*65
$GPGSV,5,1,20,16,64,240,49,08,17,294,41,10,35,170,47,15,14,066,40*72
$GPGSV,5,2,20,26,43,196,47,27,51,298,48,18,47,058,47,23,56,115,48*73
$GPGSV,5,3,20,13,04,036,36,07,08,324,41,29,07,105,39,36,35,170,45*72
$GPGSV,5,4,20,58,13,245,38,57,11,108,38,34,31,208,42,40,24,133,35*71
$GPGSV,5,5,20,49,34,195,44,41,07,108,34,61,03,257,38*4F
$GLGSV,3,1,10,83,64,309,43,66,24,041,46,74,25,327,42,80,29,203,48*69
$GLGSV,3,2,10,67,27,100,48,82,52,044,50,73,49,276,51,81,09,069,43*62
$GLGSV,3,3,10,68,04,142,,84,09,261,35*6F
$GAGSV,2,1,08,13,86,012,48,23,38,306,,15,31,056,43,27,24,164,41*68
$GAGSV,2,2,08,26,37,240,44,21,64,220,48,05,04,020,36,03,08,067,36*62
$GBGSV,6,1,23,43,55,075,50,33,17,148,41,21,17,039,42,60,11,108,40*61
$GBGSV,6,2,23,23,20,205,43,46,18,318,,30,11,262,,38,19,037,41*6B
$GBGSV,6,3,23,05,22,128,39,27,11,270,42,58,24,315,,31,30,052,*67
$GBGSV,6,4,23,14,28,123,41,08,33,039,40,50,27,062,,13,40,046,44*64
$GBGSV,6,5,23,42,33,091,46,11,32,077,45,37,37,260,47,28,55,281,49*6E
$GBGSV,6,6,23,34,10,086,40,02,08,106,34,07,03,118,*50
$GPGGA,191542.00,,,,,0,00,,,M,,M,,*42
$PTNL,GGK,191542.00,010125,4742.1605277,N,01618.1000863,E,1,41,0.8,EHT751.5816,M*43
$GPGGQ,191542.00,010125,4742.1605277,N,01618.1000863,E,1,41,0.929,708.3750,M*30
$GPGFA,191542.00,3.554,6.471,0.374,0.318,18.447,0.789,,VVV*38
$GPLLK,191542.00,010125,,M,,M,1,41,0.8,,M*0C
$GNGMP,191542.00,,,,,DAAA,41,0.4,,,,*5D
$GPGMP,191542.00,,,,,,10,,,,2.7,136*77
$GLGMP,191542.00,,,,,,09,,,,,*7C
$GAGMP,191542.00,,,,,,06,,,,,*7E
$GBGMP,191542.00,,,,,,16,,,,,*7C
$PSSN,SNC,[0,328560000,2347]*4E
$GPZDA,191547.00,01,01,2025,,*6C
$GPDTM,W84,,00.0000000,N,00.0000000,E,00.0000000,W84*5F
$PSSN,TFM,191547.00,,,,*60
$GPRMC,191547.00,A,4742.1605259,N,01618.1000832,E,0.0,,010125,5.1,E,D*1D
$GPGLL,4742.1605259,N,01618.1000832,E,191547.00,A,D*6C
$GPGGA,191547.00,4742.1605259,N,01618.1000832,E,2,40,0.4,708.3814,M,43.2066,M,3.7,0136*45
$GNGNS,191547.00,4742.1605259,N,01618.1000832,E,DAAA,40,0.4,708.3814,43.2066,,*59
$GPGNS,191547.00,,,,,,10,,,,3.7,136*73
$GLGNS,191547.00,,,,,,08,,,,,*78
$GAGNS,191547.00,,,,,,06,,,,,*7B
$GBGNS,191547.00,,,,,,16,,,,,*79
$GPLLQ,191547.00,010125,,M,,M,1,40,0.949,,M*1E
$GPVTG,,T,,M,0.00,N,0.00,K,D*26
$GPHDT,,T*1B
$GPTHS,,V*0E
$GPROT,,V*08
$PSSN,HRP,191547.00,010125,,,,,,,00,0,,*6E
$PTNL,AVR,191547.00,,Yaw,,Tilt,,,,0,,00*38
$GPGSA,A,3,07,08,10,15,16,18,23,26,27,29,,,0.8,0.4,0.7*36
$GPGSA,A,3,66,67,73,74,80,81,82,83,,,,,0.8,0.4,0.7*3F
$GPGSA,A,3,03,13,15,21,26,27,,,,,,,0.8,0.4,0.7*3E
$GPGSA,A,3,05,08,11,13,14,21,23,27,28,33,34,37,0.8,0.4,0.7*3D
$GPGSA,A,3,38,42,43,60,,,,,,,,,0.8,0.4,0.7*35
$GPGST,191547.00,1.556,0.383,0.325,19.114,0.377,0.332,0.805*63
$GPGBS,191547.00,2.649,1.879,4.018,67,0.0001,5.277,6.156*50
$GPGRS,191547.00,1,0.6,-0.1,-0.1,0.2,-0.1,0.2,0.3,-0.2,-0.4,-0.1,,*42
$GPGRS,191547.00,1,-3.2,5.3,4.2,-3.0,0.1,-0.1,-0.6,-1.6,,,,*6F
$GPGRS,191547.00,1,-0.6,0.4,0.5,0.0,0.1,-0.4,,,,,,*43
$GPGRS,191547.00,1,1.0,-0.4,1.8,0.5,0.5,-0.0,-0.8,0.0,-0.3,-1.2,-0.2,-0.3*69
$GPGRS,191547.00,1,0.2,-0.6,0.1,-1.7,,,,,,,,*42
$GPGSV,5,1,20,16,64,240,49,08,17,294,40,10,35,170,47,15,14,066,40*73
$GPGSV,5,2,20,26,43,196,46,27,51,298,48,18,47,058,47,23,57,115,48*73
$GPGSV,5,3,20,13,04,036,36,07,08,324,41,29,07,106,38,36,35,170,45*70
$GPGSV,5,4,20,58,13,245,37,57,11,108,38,34,31,208,42,40,24,133,36*7D
$GPGSV,5,5,20,49,34,195,44,41,07,108,34,61,03,257,38*4F
$GLGSV,3,1,10,83,64,309,43,66,24,041,47,74,25,327,43,80,29,203,49*68
$GLGSV,3,2,10,67,27,100,48,82,52,044,50,73,49,276,50,81,09,069,43*63
$GLGSV,3,3,10,68,04,142,,84,09,261,34*6E
$GAGSV,2,1,08,13,86,013,49,23,38,306,,15,31,056,43,27,24,164,42*6B
$GAGSV,2,2,08,26,37,240,44,21,64,220,48,05,04,020,36,03,08,067,37*63
$GBGSV,6,1,23,43,55,076,50,33,17,148,41,21,17,039,42,60,11,108,40*62
$GBGSV,6,2,23,23,20,205,43,46,18,318,,30,11,262,,38,19,037,41*6B
$GBGSV,6,3,23,05,22,128,39,27,11,270,42,58,24,315,,31,30,052,*67
$GBGSV,6,4,23,50,27,062,,14,28,123,41,08,33,039,40,13,40,046,44*64
$GBGSV,6,5,23,42,33,091,46,11,32,077,44,37,37,260,47,28,55,281,49*6F
$GBGSV,6,6,23,07,03,118,,02,08,106,34,34,10,086,40*50
$GPGGA,191547.00,,,,,0,00,,,M,,M,,*47
$PTNL,GGK,191547.00,010125,4742.1605259,N,01618.1000832,E,1,40,0.8,EHT751.5880,M*40
$GPGGQ,191547.00,010125,4742.1605259,N,01618.1000832,E,1,40,0.949,708.3814,M*35
$GPGFA,191547.00,3.639,6.602,0.383,0.325,19.114,0.805,,VVV*3C
$GPLLK,191547.00,010125,,M,,M,1,40,0.9,,M*09
$GNGMP,191547.00,,,,,DAAA,40,0.4,,,,*59
$GPGMP,191547.00,,,,,,10,,,,3.7,136*73
$GLGMP,191547.00,,,,,,08,,,,,*78
$GAGMP,191547.00,,,,,,06,,,,,*7B
$GBGMP,191547.00,,,,,,16,,,,,*79
$PSSN,SNC,[0,328565000,2347]*4B
$GPZDA,191552.00,01,01,2025,,*68
$GPDTM,W84,,00.0000000,N,00.0000000,E,00.0000000,W84*5F
$PSSN,TFM,191552.00,,,,*64
$GPRMC,191552.00,A,4742.1605243,N,01618.1000819,E,0.0,,010125,5.1,E,D*1B
$GPGLL,4742.1605243,N,01618.1000819,E,191552.00,A,D*6A
$GPGGA,191552.00,4742.1605243,N,01618.1000819,E,2,40,0.4,708.3795,M,43.2066,M,2.0,0136*43
$GNGNS,191552.00,4742.1605243,N,01618.1000819,E,DAAA,40,0.4,708.3795,43.2066,,*59
$GPGNS,191552.00,,,,,,10,,,,2.0,136*71
$GLGNS,191552.00,,,,,,08,,,,,*7C
$GAGNS,191552.00,,,,,,06,,,,,*7F
$GBGNS,191552.00,,,,,,16,,,,,*7D
$GPLLQ,191552.00,010125,,M,,M,1,40,0.948,,M*1B
$GPVTG,,T,,M,0.00,N,0.01,K,D*27
$GPHDT,,T*1B
$GPTHS,,V*0E
$GPROT,,V*08
$PSSN,HRP,191552.00,010125,,,,,,,00,0,,*6A
$PTNL,AVR,191552.00,,Yaw,,Tilt,,,,0,,00*3C
$GPGSA,A,3,07,08,10,15,16,18,23,26,27,29,,,0.8,0.4,0.7*36
$GPGSA,A,3,66,67,73,74,80,81,82,83,,,,,0.8,0.4,0.7*3F
$GPGSA,A,3,03,13,15,21,26,27,,,,,,,0.8,0.4,0.7*3E
$GPGSA,A,3,05,08,11,13,14,21,23,27,28,33,34,37,0.8,0.4,0.7*3D
$GPGSA,A,3,38,42,43,60,,,,,,,,,0.8,0.4,0.7*35
$GPGST,191552.00,1.690,0.381,0.324,17.306,0.377,0.329,0.805*68
$GPGBS,191552.00,2.478,1.823,3.883,67,0.0001,5.510,6.156*50
$GPGRS,191552.00,1,0.8,0.1,-0.1,-0.4,0.1,-0.1,0.1,-0.1,-0.2,-0.3,,*48
$GPGRS,191552.00,1,-3.1,5.5,4.5,-4.3,0.0,1.0,-0.1,-1.8,,,,*48
$GPGRS,191552.00,1,-0.3,0.5,0.5,0.2,0.1,-0.6,,,,,,*43
$GPGRS,191552.00,1,1.4,-0.0,0.8,0.3,-0.0,-0.0,-0.8,-0.1,-0.1,-1.3,0.3,-0.4*46
$GPGRS,191552.00,1,0.3,-0.5,-0.0,-2.0,,,,,,,,*6C
$GPGSV,5,1,20,16,64,240,48,08,17,294,40,10,35,170,46,15,14,066,40*73
$GPGSV,5,2,20,26,43,196,46,27,51,298,48,18,47,058,47,23,57,114,48*72
$GPGSV,5,3,20,13,04,036,36,07,08,324,39,29,07,106,38,36,35,170,45*7F
$GPGSV,5,4,20,58,13,245,37,57,11,108,38,34,31,208,42,40,24,133,36*7D
$GPGSV,5,5,20,49,34,195,44,41,07,108,34,61,03,257,38*4F
$GLGSV,3,1,10,83,64,309,42,66,24,041,47,74,25,327,42,80,29,203,49*68
$GLGSV,3,2,10,67,27,100,48,82,52,044,50,73,49,275,51,81,09,069,43*61
$GLGSV,3,3,10,68,04,142,,84,09,261,35*6F
$GAGSV,2,1,08,13,86,013,48,23,38,306,,15,31,056,43,27,24,164,41*69
$GAGSV,2,2,08,26,37,240,44,21,64,220,48,05,04,020,35,03,08,067,36*61
$GBGSV,6,1,23,43,55,076,50,33,17,148,41,21,17,039,42,60,11,108,40*62
$GBGSV,6,2,23,23,19,205,43,46,18,318,,30,11,263,,38,19,037,41*60
$GBGSV,6,3,23,05,22,128,39,27,11,270,42,58,24,315,,31,30,052,*67
$GBGSV,6,4,23,50,27,062,,14,28,122,41,08,33,039,40,13,40,046,44*65
$GBGSV,6,5,23,42,33,091,45,11,32,077,44,37,37,260,47,28,55,281,49*6C
$GBGSV,6,6,23,07,03,118,,02,08,106,34,34,10,086,40*50
$GPGGA,191552.00,,,,,0,00,,,M,,M,,*43
$PTNL,GGK,191552.00,010125,4742.1605243,N,01618.1000819,E,1,40,0.8,EHT751.5861,M*49
$GPGGQ,191552.00,010125,4742.1605243,N,01618.1000819,E,1,40,0.948,708.3795,M*34
$GPGFA,191552.00,3.626,6.605,0.381,0.324,17.306,0.805,,VVV*3D
$GPLLK,191552.00,010125,,M,,M,1,40,0.9,,M*0D
$GNGMP,191552.00,,,,,DAAA,40,0.4,,,,*5D
$GPGMP,191552.00,,,,,,10,,,,2.0,136*71
$GLGMP,191552.00,,,,,,08,,,,,*7C
$GAGMP,191552.00,,,,,,06,,,,,*7F
$GBGMP,191552.00,,,,,,16,,,,,*7D
$PSSN,SNC,[0,328570000,2347]*4F
$GPZDA,191557.00,01,01,2025,,*6D
$GPDTM,W84,,00.0000000,N,00.0000000,E,00.0000000,W84*5F
$PSSN,TFM,191557.00,,,,*61
$GPRMC,191557.00,A,4742.1605236,N,01618.1000832,E,0.0,,010125,5.1,E,D*15
$GPGLL,4742.1605236,N,01618.1000832,E,191557.00,A,D*64
$GPGGA,191557.00,4742.1605236,N,01618.1000832,E,2,41,0.4,708.3776,M,43.2066,M,1.7,0136*45
$GNGNS,191557.00,4742.1605236,N,01618.1000832,E,DAAA,41,0.4,708.3776,43.2066,,*5B
$GPGNS,191557.00,,,,,,10,,,,1.7,136*70
$GLGNS,191557.00,,,,,,09,,,,,*78
$GAGNS,191557.00,,,,,,06,,,,,*7A
$GBGNS,191557.00,,,,,,16,,,,,*78
$GPLLQ,191557.00,010125,,M,,M,1,41,0.928,,M*19
$GPVTG,,T,,M,0.00,N,0.01,K,D*27
$GPHDT,,T*1B
$GPTHS,,V*0E
$GPROT,,V*08
$PSSN,HRP,191557.00,010125,,,,,,,00,0,,*6F
$PTNL,AVR,191557.00,,Yaw,,Tilt,,,,0,,00*39
$GPGSA,A,3,07,08,10,15,16,18,23,26,27,29,,,0.8,0.4,0.6*37
$GPGSA,A,3,66,67,73,74,80,81,82,83,84,,,,0.8,0.4,0.6*32
$GPGSA,A,3,03,13,15,21,26,27,,,,,,,0.8,0.4,0.6*3F
$GPGSA,A,3,05,08,11,13,14,21,23,27,28,33,34,37,0.8,0.4,0.6*3C
$GPGSA,A,3,38,42,43,60,,,,,,,,,0.8,0.4,0.6*34
$GPGST,191557.00,1.861,0.372,0.316,16.533,0.367,0.321,0.789*63
$GPGBS,191557.00,2.529,1.816,3.916,67,0.0001,5.519,6.156*52
$GPGRS,191557.00,1,0.2,-0.1,-0.3,-0.1,0.2,-0.1,0.1,0.1,0.1,-0.5,,*6B
$GPGRS,191557.00,1,-3.5,5.5,4.6,-4.8,-0.8,0.9,-0.6,-2.0,-3.7,,,*67
$GPGRS,191557.00,1,-0.3,0.3,0.4,0.2,-0.1,-0.6,,,,,,*6C
$GPGRS,191557.00,1,0.9,0.0,-0.4,0.3,1.8,-0.4,-0.8,-0.5,-0.1,-1.2,0.1,-0.3*63
$GPGRS,191557.00,1,0.1,-0.4,-0.2,-1.7,,,,,,,,*6C
$GPGSV,5,1,20,16,64,239,48,08,17,294,40,10,35,170,46,15,14,066,40*7D
$GPGSV,5,2,20,26,43,196,47,27,51,298,48,18,47,058,46,23,57,114,48*72
$GPGSV,5,3,20,13,04,036,36,07,08,324,40,29,07,106,39,36,35,170,45*70
$GPGSV,5,4,20,58,13,245,37,57,11,108,37,34,31,208,42,40,24,133,36*72
$GPGSV,5,5,20,49,34,195,44,41,07,108,34,61,03,257,38*4F
$GLGSV,3,1,10,83,64,309,43,66,24,041,47,74,25,327,42,80,29,203,49*69
$GLGSV,3,2,10,67,27,100,49,82,52,044,50,73,49,275,50,81,09,069,43*61
$GLGSV,3,3,10,68,04,142,,84,09,261,34*6E
$GAGSV,2,1,08,13,86,013,48,23,38,306,,15,31,056,43,27,24,164,41*69
$GAGSV,2,2,08,26,37,240,44,21,64,220,48,05,04,020,35,03,08,067,36*61
$GBGSV,6,1,23,43,55,076,50,33,17,148,41,21,17,039,42,60,11,108,40*62
$GBGSV,6,2,23,23,19,205,43,46,18,318,,30,11,263,,38,19,037,41*60
$GBGSV,6,3,23,05,22,128,39,27,11,270,41,58,24,315,,31,30,052,*64
$GBGSV,6,4,23,50,27,062,,14,28,122,42,08,33,039,40,13,40,046,44*66
$GBGSV,6,5,23,42,33,091,45,11,32,077,44,37,37,260,47,28,55,281,49*6C
$GBGSV,6,6,23,07,03,118,,02,08,106,34,34,10,086,41*51
$GPGGA,191557.00,,,,,0,00,,,M,,M,,*46
$PTNL,GGK,191557.00,010125,4742.1605236,N,01618.1000832,E,1,41,0.8,EHT751.5842,M*47
$GPGGQ,191557.00,010125,4742.1605236,N,01618.1000832,E,1,41,0.928,708.3776,M*30
$GPGFA,191557.00,3.533,6.469,0.372,0.316,16.533,0.789,,VVV*30
$GPLLK,191557.00,010125,,M,,M,1,41,0.8,,M*08
$GNGMP,191557.00,,,,,DAAA,41,0.4,,,,*59
$GPGMP,191557.00,,,,,,10,,,,1.7,136*70
$GLGMP,191557.00,,,,,,09,,,,,*78
$GAGMP,191557.00,,,,,,06,,,,,*7A
$GBGMP,191557.00,,,,,,16,,,,,*78
$PSSN,SNC,[0,328575000,2347]*4A
$GPZDA,191602.00,01,01,2025,,*6E
$GPDTM,W84,,00.0000000,N,00.0000000,E,00.0000000,W84*5F
$PSSN,TFM,191602.00,,,,*62
$GPRMC,191602.00,A,4742.1605230,N,01618.1000848,E,0.0,,010125,5.1,E,D*1D
$GPGLL,4742.1605230,N,01618.1000848,E,191602.00,A,D*6C
$GPGGA,191602.00,4742.1605230,N,01618.1000848,E,2,40,0.4,708.3773,M,43.2066,M,2.7,0136*4A
$GNGNS,191602.00,4742.1605230,N,01618.1000848,E,DAAA,40,0.4,708.3773,43.2066,,*57
$GPGNS,191602.00,,,,,,10,,,,2.7,136*70
$GLGNS,191602.00,,,,,,08,,,,,*7A
$GAGNS,191602.00,,,,,,06,,,,,*79
$GBGNS,191602.00,,,,,,16,,,,,*7B
$GPLLQ,191602.00,010125,,M,,M,1,40,0.933,,M*11
$GPVTG,,T,,M,0.00,N,0.00,K,D*26
$GPHDT,,T*1B
$GPTHS,,V*0E
$GPROT,,V*08
$PSSN,HRP,191602.00,010125,,,,,,,00,0,,*6C
$PTNL,AVR,191602.00,,Yaw,,Tilt,,,,0,,00*3A
$GPGSA,A,3,07,08,10,15,16,18,23,26,27,29,,,0.8,0.4,0.7*36
$GPGSA,A,3,66,67,73,74,80,81,82,83,,,,,0.8,0.4,0.7*3F
$GPGSA,A,3,03,13,15,21,26,27,,,,,,,0.8,0.4,0.7*3E
$GPGSA,A,3,05,08,11,13,14,21,23,27,28,33,34,37,0.8,0.4,0.7*3D
$GPGSA,A,3,38,42,43,60,,,,,,,,,0.8,0.4,0.7*35
$GPGST,191602.00,1.835,0.375,0.319,18.849,0.370,0.325,0.793*6E
$GPGBS,191602.00,2.586,1.855,3.962,67,0.0001,6.317,6.155*58
$GPGRS,191602.00,1,0.2,0.3,-0.1,0.2,0.1,-0.2,0.1,-0.2,-0.1,-0.3,,*6E
$GPGRS,191602.00,1,-3.4,6.3,4.5,-4.0,-0.3,-0.0,-1.1,-2.0,,,,*45
$GPGRS,191602.00,1,-0.6,0.4,0.5,0.2,0.1,-0.7,,,,,,*40
$GPGRS,191602.00,1,0.9,0.1,-0.3,0.7,3.2,-0.2,-0.8,-0.1,0.0,-1.2,0.1,-0.4*43
$GPGRS,191602.00,1,-0.0,-0.1,-0.0,-1.6,,,,,,,,*45
$GPGSV,5,1,20,16,64,239,48,08,17,294,40,10,35,170,46,15,14,066,40*7D
$GPGSV,5,2,20,26,43,196,47,27,51,298,48,18,47,058,46,23,57,114,48*72
$GPGSV,5,3,20,13,04,035,36,07,08,324,40,29,07,106,38,36,35,170,45*72
$GPGSV,5,4,20,58,13,245,37,57,11,108,38,34,31,208,42,40,24,133,36*7D
$GPGSV,5,5,20,49,34,195,44,41,07,108,34,61,03,257,38*4F
$GLGSV,3,1,10,83,64,309,43,66,24,041,47,74,25,327,42,80,29,203,49*69
$GLGSV,3,2,10,67,27,100,49,82,52,044,50,73,49,275,50,81,09,069,42*60
$GLGSV,3,3,10,68,04,142,,84,09,261,34*6E
$GAGSV,2,1,08,13,86,013,48,23,38,306,,15,31,056,43,27,24,164,41*69
$GAGSV,2,2,08,26,37,240,44,21,64,220,48,05,04,020,35,03,08,067,37*60
$GBGSV,6,1,23,43,55,076,50,33,17,147,41,21,17,039,43,60,11,108,40*6C
$GBGSV,6,2,23,23,19,205,44,46,18,318,,30,11,263,,38,19,037,41*67
$GBGSV,6,3,23,05,22,128,39,27,11,270,41,58,24,315,,31,30,052,*64
$GBGSV,6,4,23,50,27,062,,14,28,122,43,08,33,039,40,13,40,046,44*67
$GBGSV,6,5,23,42,33,091,46,11,32,077,44,37,37,260,47,28,55,281,50*67
$GBGSV,6,6,23,07,03,118,,02,08,106,34,34,10,086,41*51
$GPGGA,191602.00,,,,,0,00,,,M,,M,,*45
$PTNL,GGK,191602.00,010125,4742.1605230,N,01618.1000848,E,1,40,0.8,EHT751.5839,M*42
$GPGGQ,191602.00,010125,4742.1605230,N,01618.1000848,E,1,40,0.933,708.3773,M*36
$GPGFA,191602.00,3.565,6.503,0.375,0.319,18.849,0.793,,VVV*30
$GPLLK,191602.00,010125,,M,,M,1,40,0.9,,M*0B
$GNGMP,191602.00,,,,,DAAA,40,0.4,,,,*5B
$GPGMP,191602.00,,,,,,10,,,,2.7,136*70
$GLGMP,191602.00,,,,,,08,,,,,*7A
$GAGMP,191602.00,,,,,,06,,,,,*79
$GBGMP,191602.00,,,,,,16,,,,,*7B
$PSSN,SNC,[0,328580000,2347]*40
$GPZDA,191607.00,01,01,2025,,*6B
$GPDTM,W84,,00.0000000,N,00.0000000,E,00.0000000,W84*5F
$PSSN,TFM,191607.00,,,,*67
$GPRMC,191607.00,A,4742.1605222,N,01618.1000837,E,0.0,,010125,5.1,E,D*13
$GPGLL,4742.1605222,N,01618.1000837,E,191607.00,A,D*62
$GPGGA,191607.00,4742.1605222,N,01618.1000837,E,2,40,0.4,708.3834,M,43.2066,M,3.7,0136*49
$GNGNS,191607.00,4742.1605222,N,01618.1000837,E,DAAA,40,0.4,708.3834,43.2066,,*55
$GPGNS,191607.00,,,,,,10,,,,3.7,136*74
$GLGNS,191607.00,,,,,,08,,,,,*7F
$GAGNS,191607.00,,,,,,06,,,,,*7C
$GBGNS,191607.00,,,,,,16,,,,,*7E
$GPLLQ,191607.00,010125,,M,,M,1,40,0.950,,M*11
$GPVTG,,T,,M,0.01,N,0.01,K,D*26
$GPHDT,,T*1B
$GPTHS,,V*0E
$GPROT,,V*08
$PSSN,HRP,191607.00,010125,,,,,,,00,0,,*69
$PTNL,AVR,191607.00,,Yaw,,Tilt,,,,0,,00*3F
$GPGSA,A,3,07,08,10,15,16,18,23,26,27,29,,,0.8,0.4,0.7*36
$GPGSA,A,3,66,67,73,74,80,81,82,83,,,,,0.8,0.4,0.7*3F
$GPGSA,A,3,03,13,15,21,26,27,,,,,,,0.8,0.4,0.7*3E
$GPGSA,A,3,05,08,11,13,14,21,23,27,28,33,34,37,0.8,0.4,0.7*3D
$GPGSA,A,3,38,42,43,60,,,,,,,,,0.8,0.4,0.7*35
$GPGST,191607.00,1.867,0.382,0.325,18.855,0.377,0.331,0.806*67
$GPGBS,191607.00,2.642,1.877,4.012,67,0.0001,7.008,6.155*53
$GPGRS,191607.00,1,0.5,0.5,0.1,0.1,0.1,-0.0,0.1,-0.4,-0.4,-0.9,,*4F
$GPGRS,191607.00,1,-3.2,7.0,4.3,-4.0,-0.6,-0.4,-0.5,-2.2,,,,*44
$GPGRS,191607.00,1,-0.7,0.2,0.2,0.2,-0.4,-0.4,,,,,,*6E
$GPGRS,191607.00,1,1.0,-1.0,0.3,0.4,2.1,-0.0,-0.7,0.1,-0.0,-1.3,0.7,-0.6*47
$GPGRS,191607.00,1,0.1,0.0,0.0,-1.7,,,,,,,,*6C
$GPGSV,5,1,20,16,64,239,49,08,17,294,40,10,35,170,47,15,14,066,40*7D
$GPGSV,5,2,20,26,43,195,47,27,51,298,48,18,47,058,47,23,57,114,48*70
$GPGSV,5,3,20,13,04,035,36,07,08,324,40,29,07,106,39,36,35,170,45*73
$GPGSV,5,4,20,58,13,245,38,57,11,108,38,34,31,208,42,40,24,133,35*71
$GPGSV,5,5,20,49,34,195,44,41,07,108,34,61,03,257,38*4F
$GLGSV,3,1,10,83,64,310,43,66,24,041,47,74,25,326,42,80,28,203,49*61
$GLGSV,3,2,10,67,27,100,49,82,52,044,50,73,49,275,50,81,09,069,42*60
$GLGSV,3,3,10,68,04,142,,84,09,261,35*6F
$GAGSV,2,1,08,13,86,014,48,23,38,306,,15,31,056,42,27,24,164,41*6F
$GAGSV,2,2,08,26,37,240,44,21,64,220,48,05,04,020,35,03,08,067,37*60
$GBGSV,6,1,23,43,55,076,50,33,17,147,42,21,17,039,43,60,11,108,40*6F
$GBGSV,6,2,23,23,19,205,43,46,18,318,,30,11,263,,38,19,037,41*60
$GBGSV,6,3,23,05,22,128,39,27,11,270,41,58,24,315,,31,30,052,*64
$GBGSV,6,4,23,50,27,062,,14,28,122,43,08,33,039,40,13,40,046,45*66
$GBGSV,6,5,23,42,33,091,46,11,32,077,45,37,37,260,47,28,55,281,50*66
$GBGSV,6,6,23,07,03,118,,02,08,106,34,34,10,086,42*52
$GPGGA,191607.00,,,,,0,00,,,M,,M,,*40
$PTNL,GGK,191607.00,010125,4742.1605222,N,01618.1000837,E,1,40,0.8,EHT751.5900,M*47
$GPGGQ,191607.00,010125,4742.1605222,N,01618.1000837,E,1,40,0.950,708.3834,M*31
$GPGFA,191607.00,3.635,6.611,0.382,0.325,18.855,0.806,,VVV*3A
$GPLLK,191607.00,010125,,M,,M,1,40,0.9,,M*0E
$GNGMP,191607.00,,,,,DAAA,40,0.4,,,,*5E
$GPGMP,191607.00,,,,,,10,,,,3.7,136*74
$GLGMP,191607.00,,,,,,08,,,,,*7F
$GAGMP,191607.00,,,,,,06,,,,,*7C
$GBGMP,191607.00,,,,,,16,,,,,*7E
$PSSN,SNC,[0,328585000,2347]*45
$GPZDA,191612.00,01,01,2025,,*6F
$GPDTM,W84,,00.0000000,N,00.0000000,E,00.0000000,W84*5F
$PSSN,TFM,191612.00,,,,*63
$GPRMC,191612.00,A,4742.1605225,N,01618.1000809,E,0.0,,010125,5.1,E,D*1D
$GPGLL,4742.1605225,N,01618.1000809,E,191612.00,A,D*6C
$GPGGA,191612.00,4742.1605225,N,01618.1000809,E,2,40,0.4,708.3832,M,43.2066,M,2.0,0136*47
$GNGNS,191612.00,4742.1605225,N,01618.1000809,E,DAAA,40,0.4,708.3832,43.2066,,*5D
$GPGNS,191612.00,,,,,,10,,,,2.0,136*76
$GLGNS,191612.00,,,,,,08,,,,,*7B
$GAGNS,191612.00,,,,,,06,,,,,*78
$GBGNS,191612.00,,,,,,16,,,,,*7A
$GPLLQ,191612.00,010125,,M,,M,1,40,0.940,,M*14
$GPVTG,,T,,M,0.00,N,0.00,K,D*26
$GPHDT,,T*1B
$GPTHS,,V*0E
$GPROT,,V*08
$PSSN,HRP,191612.00,010125,,,,,,,00,0,,*6D
$PTNL,AVR,191612.00,,Yaw,,Tilt,,,,0,,00*3B
$GPGSA,A,3,07,08,10,15,16,18,23,26,27,29,,,0.8,0.4,0.7*36
$GPGSA,A,3,66,67,73,74,80,81,82,83,,,,,0.8,0.4,0.7*3F
$GPGSA,A,3,03,13,15,21,26,27,,,,,,,0.8,0.4,0.7*3E
$GPGSA,A,3,05,08,11,13,14,21,23,27,28,33,34,37,0.8,0.4,0.7*3D
$GPGSA,A,3,38,42,43,60,,,,,,,,,0.8,0.4,0.7*35
$GPGST,191612.00,1.724,0.380,0.320,15.041,0.376,0.324,0.798*61
$GPGBS,191612.00,2.480,1.757,3.760,67,0.0001,5.828,6.155*5B
$GPGRS,191612.00,1,0.3,-0.3,0.1,0.0,-0.0,0.2,0.1,-0.2,-0.0,-0.2,,*6D
$GPGRS,191612.00,1,-3.3,5.8,4.2,-4.7,-0.5,0.2,0.1,-1.7,,,,*4A
$GPGRS,191612.00,1,-0.1,0.3,0.4,0.0,-0.0,-0.6,,,,,,*6F
$GPGRS,191612.00,1,1.2,-0.8,0.9,0.6,0.8,0.7,-0.8,0.6,-0.1,-1.1,0.6,-0.7*6A
$GPGRS,191612.00,1,0.1,0.0,-0.1,-1.5,,,,,,,,*46
$GPGSV,5,1,20,16,64,239,49,08,17,294,40,10,35,170,46,15,14,066,40*7C
$GPGSV,5,2,20,26,43,195,47,27,51,298,48,18,47,058,47,23,57,114,48*70
$GPGSV,5,3,20,13,04,035,36,07,08,324,40,29,07,106,38,36,35,170,44*73
$GPGSV,5,4,20,58,13,245,37,57,11,108,37,34,31,208,42,40,24,133,35*71
$GPGSV,5,5,20,49,34,195,44,41,07,108,34,61,03,257,38*4F
$GLGSV,3,1,10,83,64,310,43,66,24,041,47,74,25,326,42,80,28,203,49*61
$GLGSV,3,2,10,67,27,100,48,82,52,044,50,73,49,275,51,81,09,069,42*60
$GLGSV,3,3,10,68,04,142,,84,09,261,35*6F
$GAGSV,2,1,08,13,86,014,48,23,38,306,,15,31,056,43,27,24,164,41*6E
$GAGSV,2,2,08,26,37,240,44,21,64,220,48,05,04,020,34,03,08,067,38*6E
$GBGSV,6,1,23,43,55,076,50,33,17,147,42,21,17,039,43,60,11,108,40*6F
$GBGSV,6,2,23,23,19,205,43,46,18,318,,30,11,263,,38,19,037,41*60
$GBGSV,6,3,23,05,22,128,39,27,11,270,42,58,24,315,,31,30,052,*67
$GBGSV,6,4,23,50,27,062,,14,28,122,42,08,33,039,40,13,40,046,44*66
$GBGSV,6,5,23,42,33,091,46,11,32,077,45,37,37,260,47,28,55,281,50*66
$GBGSV,6,6,23,07,03,118,,02,08,106,34,34,10,086,41*51
$GPGGA,191612.00,,,,,0,00,,,M,,M,,*44
$PTNL,GGK,191612.00,010125,4742.1605225,N,01618.1000809,E,1,40,0.8,EHT751.5898,M*49
$GPGGQ,191612.00,010125,4742.1605225,N,01618.1000809,E,1,40,0.940,708.3832,M*38
$GPGFA,191612.00,3.612,6.540,0.380,0.320,15.041,0.798,,VVV*33
$GPLLK,191612.00,010125,,M,,M,1,40,0.9,,M*0A
$GNGMP,191612.00,,,,,DAAA,40,0.4,,,,*5A
$GPGMP,191612.00,,,,,,10,,,,2.0,136*76
$GLGMP,191612.00,,,,,,08,,,,,*7B
$GAGMP,191612.00,,,,,,06,,,,,*78
$GBGMP,191612.00,,,,,,16,,,,,*7A
$PSSN,SNC,[0,328590000,2347]*41
$GPZDA,191617.00,01,01,2025,,*6A
$GPDTM,W84,,00.0000000,N,00.0000000,E,00.0000000,W84*5F
$PSSN,TFM,191617.00,,,,*66
$GPRMC,191617.00,A,4742.1605204,N,01618.1000802,E,0.0,,010125,5.1,E,D*10
$GPGLL,4742.1605204,N,01618.1000802,E,191617.00,A,D*61
$GPGGA,191617.00,4742.1605204,N,01618.1000802,E,2,41,0.4,708.3823,M,43.2066,M,1.7,0136*4F
$GNGNS,191617.00,4742.1605204,N,01618.1000802,E,DAAA,41,0.4,708.3823,43.2066,,*51
$GPGNS,191617.00,,,,,,10,,,,1.7,136*77
$GLGNS,191617.00,,,,,,09,,,,,*7F
$GAGNS,191617.00,,,,,,06,,,,,*7D
$GBGNS,191617.00,,,,,,16,,,,,*7F
$GPLLQ,191617.00,010125,,M,,M,1,41,0.918,,M*1D
$GPVTG,,T,,M,0.00,N,0.00,K,D*26
$GPHDT,,T*1B
$GPTHS,,V*0E
$GPROT,,V*08
$PSSN,HRP,191617.00,010125,,,,,,,00,0,,*68
$PTNL,AVR,191617.00,,Yaw,,Tilt,,,,0,,00*3E
$GPGSA,A,3,07,08,10,15,16,18,23,26,27,29,,,0.8,0.4,0.6*37
$GPGSA,A,3,66,67,73,74,80,81,82,83,84,,,,0.8,0.4,0.6*32
$GPGSA,A,3,03,13,15,21,26,27,,,,,,,0.8,0.4,0.6*3F
$GPGSA,A,3,05,08,11,13,14,21,23,27,28,33,34,37,0.8,0.4,0.6*3C
$GPGSA,A,3,38,42,43,60,,,,,,,,,0.8,0.4,0.6*34
$GPGST,191617.00,1.682,0.370,0.312,13.911,0.366,0.316,0.780*64
$GPGBS,191617.00,2.532,1.750,3.800,67,0.0001,5.460,6.155*58
$GPGRS,191617.00,1,0.0,-0.2,-0.1,0.0,0.1,-0.0,-0.0,-0.1,0.3,-0.2,,*45
$GPGRS,191617.00,1,-2.7,5.5,4.4,-4.7,-0.4,1.0,-0.3,-2.0,-1.0,,,*6A
$GPGRS,191617.00,1,-0.5,0.5,0.5,0.1,-0.1,-0.4,,,,,,*6B
$GPGRS,191617.00,1,1.1,-0.3,1.7,0.8,0.8,0.2,-0.9,0.5,-0.1,-0.6,0.3,-0.6*63
$GPGRS,191617.00,1,0.1,-0.0,-0.1,-1.6,,,,,,,,*6D
$GPGSV,5,1,20,16,64,239,49,08,17,294,40,10,35,170,46,15,14,066,40*7C
$GPGSV,5,2,20,26,43,195,47,27,51,298,48,18,47,058,47,23,57,114,48*70
$GPGSV,5,3,20,13,04,035,36,07,08,324,40,29,07,106,39,36,35,170,45*73
$GPGSV,5,4,20,58,13,245,37,57,11,108,37,34,31,208,42,40,24,133,35*71
$GPGSV,5,5,20,49,34,195,44,41,07,108,34,61,03,257,38*4F
$GLGSV,3,1,10,83,64,310,43,66,24,041,47,74,25,326,42,80,28,203,48*60
$GLGSV,3,2,10,67,27,100,48,82,51,044,50,73,49,275,51,81,09,069,43*62
$GLGSV,3,3,10,68,04,142,,84,09,262,36*6F
$GAGSV,2,1,08,13,86,014,48,23,38,306,,15,31,056,43,27,24,164,41*6E
$GAGSV,2,2,08,26,37,240,44,21,64,220,48,05,04,020,35,03,08,067,37*60
$GBGSV,6,1,23,43,55,076,50,33,17,147,42,21,17,039,42,60,11,108,40*6E
$GBGSV,6,2,23,23,19,205,43,46,18,318,,30,11,263,,38,19,037,41*60
$GBGSV,6,3,23,05,22,128,39,27,12,270,42,58,24,315,,31,30,052,*64
$GBGSV,6,4,23,50,27,062,,14,28,122,42,08,33,039,40,13,40,046,44*66
$GBGSV,6,5,23,42,33,091,46,11,32,077,45,37,37,260,47,28,55,281,50*66
$GBGSV,6,6,23,07,03,118,,02,08,106,34,34,09,086,41*59
$GPGGA,191617.00,,,,,0,00,,,M,,M,,*41
$PTNL,GGK,191617.00,010125,4742.1605204,N,01618.1000802,E,1,41,0.8,EHT751.5888,M*44
