$GPZDA,042942.00,01,01,2025,,*6A
$GPDTM,W84,,00.0000000,N,00.0000000,E,00.0000000,W84*5F
$PSSN,TFM,042942.00,,,,*66
$GPRMC,042942.00,A,4742.1603618,N,01618.1003650,E,0.0,,010125,5.1,E,D*15
$GPGLL,4742.1603618,N,01618.1003650,E,042942.00,A,D*64
$GPGGA,042942.00,4742.1603618,N,01618.1003650,E,2,42,0.4,708.1101,M,43.2066,M,2.5,0136*43
$GNGNS,042942.00,4742.1603618,N,01618.1003650,E,DAAA,42,0.4,708.1101,43.2066,,*5C
$GPGNS,042942.00,,,,,,10,,,,2.5,136*76
$GLGNS,042942.00,,,,,,09,,,,,*7F
$GAGNS,042942.00,,,,,,09,,,,,*72
$GBGNS,042942.00,,,,,,14,,,,,*7D
$GPLLQ,042942.00,010125,,M,,M,1,42,0.829,,M*1D
$GPVTG,,T,,M,0.00,N,0.01,K,D*27
$GPHDT,,T*1B
$GPTHS,,V*0E
$GPROT,,V*08
$PSSN,HRP,042942.00,010125,,,,,,,00,0,,*68
$PTNL,AVR,042942.00,,Yaw,,Tilt,,,,0,,00*3E
$GPGSA,A,3,03,04,06,07,09,11,16,20,26,30,,,0.8,0.4,0.7*34
$GPGSA,A,3,70,71,72,73,74,80,86,87,88,,,,0.8,0.4,0.7*33
$GPGSA,A,3,03,05,06,09,15,24,31,34,36,,,,0.8,0.4,0.7*32
$GPGSA,A,3,05,06,09,12,16,19,20,22,35,36,37,39,0.8,0.4,0.7*30
$GPGSA,A,3,44,60,,,,,,,,,,,0.8,0.4,0.7*3F
$GPGST,042942.00,2.019,0.347,0.291,345.267,0.344,0.295,0.694*59
$GPGBS,042942.00,1.955,1.603,4.769,72,0.0001,6.924,6.125*5B
$GPGRS,042942.00,1,-0.1,0.0,-0.4,0.2,0.0,-0.1,0.6,0.6,-0.5,-0.3,,*6A
$GPGRS,042942.00,1,-1.6,0.4,6.9,5.1,2.7,-2.3,-4.0,-3.8,-1.3,,,*45
$GPGRS,042942.00,1,-0.0,0.4,0.3,0.2,0.6,-0.9,-0.1,-0.1,0.1,,,*62
$GPGRS,042942.00,1,2.5,0.5,0.7,1.0,0.7,0.2,1.4,-0.5,-1.7,-0.6,-0.5,-1.8*67
$GPGRS,042942.00,1,-0.0,-1.1,,,,,,,,,,*47
$GPGSV,5,1,20,09,74,047,50,03,16,125,41,30,22,202,42,20,24,307,43*76
$GPGSV,5,2,20,16,17,065,41,11,39,294,46,07,54,177,49,04,45,066,46*71
$GPGSV,5,3,20,06,48,240,47,29,01,349,37,26,10,036,37,36,35,170,45*72
$GPGSV,5,4,20,58,13,245,37,40,24,132,36,34,31,208,43,49,34,195,45*7B
$GPGSV,5,5,20,57,08,111,39,41,07,108,35,61,03,257,38*48
$GLGSV,3,1,10,71,67,001,51,70,36,076,40,72,32,291,49,86,29,232,47*65
$GLGSV,3,2,10,73,39,126,49,80,36,052,50,87,39,290,47,74,09,162,37*6A
$GLGSV,3,3,10,79,02,012,35,88,09,344,43*60
$GAGSV,3,1,10,05,74,278,49,36,27,188,43,23,10,033,,15,28,316,43*66
$GAGSV,3,2,10,31,20,082,41,06,23,069,42,03,22,256,42,09,47,064,47*66
$GAGSV,3,3,10,34,54,251,48,24,09,131,37*6D
$GBGSV,6,1,21,19,64,080,51,34,12,322,,35,11,224,42,05,23,129,39*6E
$GBGSV,6,2,21,37,15,039,42,36,29,159,46,16,18,043,40,20,17,097,44*66
$GBGSV,6,3,21,12,23,296,42,06,21,045,38,44,22,269,44,09,35,050,41*69
$GBGSV,6,4,21,48,37,095,,58,37,085,,22,54,296,51,46,44,093,*6A
$GBGSV,6,5,21,21,54,289,,39,08,042,39,11,03,343,,02,06,107,35*67
$GBGSV,6,6,21,60,08,111,41*52
$GPGGA,042942.00,,,,,0,00,,,M,,M,,*41
$PTNL,GGK,042942.00,010125,4742.1603618,N,01618.1003650,E,1,42,0.8,EHT751.3166,M*4D
$GPGGQ,042942.00,010125,4742.1603618,N,01618.1003650,E,1,42,0.829,708.1101,M*37
$GPGFA,042942.00,3.300,5.690,0.347,0.291,345.267,0.694,,VVV*00
$GPLLK,042942.00,010125,,M,,M,1,42,0.8,,M*0C
$GNGMP,042942.00,,,,,DAAA,42,0.4,,,,*5D
$GPGMP,042942.00,,,,,,10,,,,2.5,136*76
$GLGMP,042942.00,,,,,,09,,,,,*7F
$GAGMP,042942.00,,,,,,09,,,,,*72
$GBGMP,042942.00,,,,,,14,,,,,*7D
$PSSN,SNC,[0,275400000,2347]*40
$GPZDA,042947.00,01,01,2025,,*6F
$GPDTM,W84,,00.0000000,N,00.0000000,E,00.0000000,W84*5F
$PSSN,TFM,042947.00,,,,*63
$GPRMC,042947.00,A,4742.1603622,N,01618.1003608,E,0.0,,010125,5.1,E,D*14
$GPGLL,4742.1603622,N,01618.1003608,E,042947.00,A,D*65
$GPGGA,042947.00,4742.1603622,N,01618.1003608,E,2,42,0.4,708.1056,M,43.2066,M,3.1,0136*44
$GNGNS,042947.00,4742.1603622,N,01618.1003608,E,DAAA,42,0.4,708.1056,43.2066,,*5E
$GPGNS,042947.00,,,,,,10,,,,3.1,136*76
$GLGNS,042947.00,,,,,,09,,,,,*7A
$GAGNS,042947.00,,,,,,09,,,,,*77
$GBGNS,042947.00,,,,,,14,,,,,*78
$GPLLQ,042947.00,010125,,M,,M,1,42,0.841,,M*16
$GPVTG,,T,,M,0.00,N,0.01,K,D*27
$GPHDT,,T*1B
$GPTHS,,V*0E
$GPROT,,V*08
$PSSN,HRP,042947.00,010125,,,,,,,00,0,,*6D
$PTNL,AVR,042947.00,,Yaw,,Tilt,,,,0,,00*3B
$GPGSA,A,3,03,04,06,07,09,11,16,20,26,30,,,0.8,0.4,0.7*34
$GPGSA,A,3,70,71,72,73,74,80,86,87,88,,,,0.8,0.4,0.7*33
$GPGSA,A,3,03,05,06,09,15,24,31,34,36,,,,0.8,0.4,0.7*32
$GPGSA,A,3,05,06,09,12,16,19,20,22,35,36,37,39,0.8,0.4,0.7*30
$GPGSA,A,3,44,60,,,,,,,,,,,0.8,0.4,0.7*3F
$GPGST,042947.00,2.048,0.351,0.296,344.378,0.348,0.300,0.704*5F
$GPGBS,042947.00,2.005,1.622,4.778,72,0.0001,7.075,6.125*5E
$GPGRS,042947.00,1,-0.0,-0.1,-0.2,0.2,0.3,-0.6,0.0,0.5,-0.8,-0.0,,*4B
$GPGRS,042947.00,1,-0.5,0.7,7.1,5.1,3.3,-2.5,-3.7,-4.4,-0.8,,,*4A
$GPGRS,042947.00,1,0.2,0.6,0.5,0.4,0.4,-0.6,0.2,0.0,0.1,,,*45
$GPGRS,042947.00,1,2.1,0.7,0.6,1.4,0.9,0.2,1.6,-0.2,-1.3,-0.3,-0.3,-2.1*67
$GPGRS,042947.00,1,-0.1,-0.9,,,,,,,,,,*4A
$GPGSV,5,1,20,09,74,047,50,03,16,125,40,30,22,202,42,20,25,307,42*77
$GPGSV,5,2,20,16,17,065,40,11,39,294,46,07,54,177,49,04,45,066,46*70
$GPGSV,5,3,20,06,48,240,48,29,01,349,36,26,10,036,37,36,35,170,45*7C
$GPGSV,5,4,20,58,13,245,38,40,24,132,36,34,31,208,44,49,34,195,45*73
$GPGSV,5,5,20,57,08,111,39,41,07,108,35,61,03,257,38*48
$GLGSV,3,1,10,71,67,001,52,70,36,076,40,72,32,291,49,86,29,232,48*69
$GLGSV,3,2,10,73,39,126,48,80,36,052,50,87,39,290,47,74,09,162,36*6A
$GLGSV,3,3,10,79,02,012,35,88,09,344,43*60
$GAGSV,3,1,10,05,74,278,49,36,27,188,43,23,10,032,,15,28,316,42*66
$GAGSV,3,2,10,31,20,082,41,06,23,069,41,03,22,256,41,09,47,064,46*67
$GAGSV,3,3,10,34,54,251,48,24,09,131,37*6D
$GBGSV,6,1,21,19,64,080,51,34,12,322,,35,11,224,42,05,23,129,38*6F
$GBGSV,6,2,21,37,15,039,42,36,30,159,45,16,18,043,40,20,17,097,44*6D
$GBGSV,6,3,21,12,23,296,42,06,21,045,39,44,22,269,44,09,35,050,41*68
$GBGSV,6,4,21,48,37,095,,58,37,085,,22,54,296,51,46,44,093,*6A
$GBGSV,6,5,21,21,54,289,,39,08,042,39,11,03,343,,02,06,107,34*66
$GBGSV,6,6,21,60,08,111,41*52
$GPGGA,042947.00,,,,,0,00,,,M,,M,,*44
$PTNL,GGK,042947.00,010125,4742.1603622,N,01618.1003608,E,1,42,0.8,EHT751.3121,M*4F
$GPGGQ,042947.00,010125,4742.1603622,N,01618.1003608,E,1,42,0.841,708.1056,M*3B
$GPGFA,042947.00,3.339,5.775,0.351,0.296,344.378,0.704,,VVV*03
$GPLLK,042947.00,010125,,M,,M,1,42,0.8,,M*09
$GNGMP,042947.00,,,,,DAAA,42,0.4,,,,*58
$GPGMP,042947.00,,,,,,10,,,,3.1,136*76
$GLGMP,042947.00,,,,,,09,,,,,*7A
$GAGMP,042947.00,,,,,,09,,,,,*77
$GBGMP,042947.00,,,,,,14,,,,,*78
$PSSN,SNC,[0,275405000,2347]*45
$GPZDA,042952.00,01,01,2025,,*6B
$GPDTM,W84,,00.0000000,N,00.0000000,E,00.0000000,W84*5F
$PSSN,TFM,042952.00,,,,*67
$GPRMC,042952.00,A,4742.1603633,N,01618.1003635,E,0.0,,010125,5.1,E,D*1E
$GPGLL,4742.1603633,N,01618.1003635,E,042952.00,A,D*6F
$GPGGA,042952.00,4742.1603633,N,01618.1003635,E,2,43,0.4,708.1009,M,43.2066,M,2.9,0136*4C
$GNGNS,042952.00,4742.1603633,N,01618.1003635,E,DAAA,43,0.4,708.1009,43.2066,,*5F
$GPGNS,042952.00,,,,,,10,,,,2.9,136*7B
$GLGNS,042952.00,,,,,,09,,,,,*7E
$GAGNS,042952.00,,,,,,09,,,,,*73
$GBGNS,042952.00,,,,,,15,,,,,*7D
$GPLLQ,042952.00,010125,,M,,M,1,43,0.847,,M*15
$GPVTG,,T,,M,0.00,N,0.00,K,D*26
$GPHDT,,T*1B
$GPTHS,,V*0E
$GPROT,,V*08
$PSSN,HRP,042952.00,010125,,,,,,,00,0,,*69
$PTNL,AVR,042952.00,,Yaw,,Tilt,,,,0,,00*3F
$GPGSA,A,3,03,04,06,07,09,11,16,20,26,30,,,0.8,0.4,0.6*35
$GPGSA,A,3,70,71,72,73,74,80,86,87,88,,,,0.8,0.4,0.6*32
$GPGSA,A,3,03,05,06,09,15,24,31,34,36,,,,0.8,0.4,0.6*33
$GPGSA,A,3,02,05,06,09,12,16,19,20,22,35,36,37,0.8,0.4,0.6*39
$GPGSA,A,3,39,44,60,,,,,,,,,,0.8,0.4,0.6*34
$GPGST,042952.00,1.945,0.353,0.298,343.355,0.349,0.303,0.710*5F
$GPGBS,042952.00,2.061,1.579,4.844,72,0.0001,7.249,6.125*58
$GPGRS,042952.00,1,-0.6,-0.1,-0.2,0.1,0.1,0.3,-0.3,0.4,-0.5,0.4,,*6B
$GPGRS,042952.00,1,-2.0,0.7,7.2,4.6,2.1,-2.2,-3.3,-4.2,-1.0,,,*43
$GPGRS,042952.00,1,-0.2,0.5,0.3,0.2,0.2,-0.8,0.1,-0.1,-0.2,,,*66
$GPGRS,042952.00,1,1.0,1.9,0.7,0.4,0.7,0.7,0.0,1.5,-0.4,-1.4,-0.5,-0.3*4F
$GPGRS,042952.00,1,-2.0,0.0,-1.2,,,,,,,,,*69
$GPGSV,5,1,20,09,74,047,50,03,16,125,39,30,22,202,43,20,25,307,43*79
$GPGSV,5,2,20,16,17,065,40,11,39,294,46,07,55,177,49,04,45,066,46*71
$GPGSV,5,3,20,06,48,240,48,29,01,349,37,26,10,036,37,36,35,170,45*7D
$GPGSV,5,4,20,58,13,245,37,40,24,132,36,34,31,208,43,49,34,195,45*7B
$GPGSV,5,5,20,57,08,111,39,41,07,108,35,61,03,257,38*48
$GLGSV,3,1,10,71,67,001,52,70,35,076,40,72,32,291,49,86,29,232,48*6A
$GLGSV,3,2,10,73,39,126,49,80,36,052,50,87,39,290,47,74,10,162,37*62
$GLGSV,3,3,10,79,01,012,35,88,09,344,42*62
$GAGSV,3,1,10,05,74,278,49,36,27,188,42,23,10,032,,15,28,316,42*67
$GAGSV,3,2,10,31,20,082,40,06,23,069,41,03,22,256,41,09,47,064,46*66
$GAGSV,3,3,10,34,54,251,48,24,09,131,37*6D
$GBGSV,6,1,21,19,64,080,51,34,12,322,,35,11,224,42,05,23,129,38*6F
$GBGSV,6,2,21,37,15,039,41,36,30,159,45,16,18,043,39,20,17,097,43*67
$GBGSV,6,3,21,12,23,296,42,06,21,045,39,44,22,269,44,09,35,050,41*68
$GBGSV,6,4,21,48,37,095,,58,37,085,,22,54,296,51,46,44,093,*6A
$GBGSV,6,5,21,21,54,289,,39,08,042,40,11,03,343,,02,06,107,35*69
$GBGSV,6,6,21,60,08,111,41*52
$GPGGA,042952.00,,,,,0,00,,,M,,M,,*40
$PTNL,GGK,042952.00,010125,4742.1603633,N,01618.1003635,E,1,43,0.8,EHT751.3075,M*44
$GPGGQ,042952.00,010125,4742.1603633,N,01618.1003635,E,1,43,0.847,708.1009,M*3C
$GPGFA,042952.00,3.356,5.820,0.353,0.298,343.355,0.710,,VVV*00
$GPLLK,042952.00,010125,,M,,M,1,43,0.8,,M*0C
$GNGMP,042952.00,,,,,DAAA,43,0.4,,,,*5D
$GPGMP,042952.00,,,,,,10,,,,2.9,136*7B
$GLGMP,042952.00,,,,,,09,,,,,*7E
$GAGMP,042952.00,,,,,,09,,,,,*73
$GBGMP,042952.00,,,,,,15,,,,,*7D
$PSSN,SNC,[0,275410000,2347]*41
$GPZDA,042957.00,01,01,2025,,*6E
$GPDTM,W84,,00.0000000,N,00.0000000,E,00.0000000,W84*5F
$PSSN,TFM,042957.00,,,,*62
$GPRMC,042957.00,A,4742.1603651,N,01618.1003693,E,0.0,,010125,5.1,E,D*13
$GPGLL,4742.1603651,N,01618.1003693,E,042957.00,A,D*62
$GPGGA,042957.00,4742.1603651,N,01618.1003693,E,2,42,0.4,708.1002,M,43.2066,M,1.5,0136*44
$GNGNS,042957.00,4742.1603651,N,01618.1003693,E,DAAA,42,0.4,708.1002,43.2066,,*58
$GPGNS,042957.00,,,,,,10,,,,1.5,136*71
$GLGNS,042957.00,,,,,,09,,,,,*7B
$GAGNS,042957.00,,,,,,09,,,,,*76
$GBGNS,042957.00,,,,,,14,,,,,*79
$GPLLQ,042957.00,010125,,M,,M,1,42,0.838,,M*19
$GPVTG,,T,,M,0.00,N,0.00,K,D*26
$GPHDT,,T*1B
$GPTHS,,V*0E
$GPROT,,V*08
$PSSN,HRP,042957.00,010125,,,,,,,00,0,,*6C
$PTNL,AVR,042957.00,,Yaw,,Tilt,,,,0,,00*3A
$GPGSA,A,3,03,04,06,07,09,11,16,20,26,30,,,0.8,0.4,0.7*34
$GPGSA,A,3,70,71,72,73,74,80,86,87,88,,,,0.8,0.4,0.7*33
$GPGSA,A,3,03,05,06,09,15,24,31,34,36,,,,0.8,0.4,0.7*32
$GPGSA,A,3,05,06,09,12,16,19,20,22,35,36,37,39,0.8,0.4,0.7*30
$GPGSA,A,3,44,60,,,,,,,,,,,0.8,0.4,0.7*3F
$GPGST,042957.00,2.045,0.350,0.294,344.124,0.346,0.298,0.702*53
$GPGBS,042957.00,1.930,1.588,4.711,72,0.0001,7.177,6.125*5C
$GPGRS,042957.00,1,-0.6,-0.4,-0.2,0.4,-0.0,-0.0,0.2,0.6,-0.8,0.5,,*4E
$GPGRS,042957.00,1,-1.8,0.5,7.2,5.0,2.7,-2.2,-4.1,-3.8,-1.5,,,*43
$GPGRS,042957.00,1,-0.3,0.4,0.1,0.1,0.1,-0.9,0.0,-0.3,-0.2,,,*63
$GPGRS,042957.00,1,2.0,0.8,0.7,0.1,0.5,-0.0,1.7,-0.5,-1.8,0.1,-0.8,-2.0*66
$GPGRS,042957.00,1,0.0,-1.3,,,,,,,,,,*6C
$GPGSV,5,1,20,09,74,047,50,03,16,125,38,30,22,202,43,20,25,307,42*79
$GPGSV,5,2,20,16,17,065,39,11,39,294,46,07,55,177,48,04,45,066,46*7E
$GPGSV,5,3,20,06,48,240,48,29,01,349,37,26,10,036,37,36,35,170,45*7D
$GPGSV,5,4,20,58,13,245,38,40,24,132,36,34,31,208,43,49,34,195,45*74
$GPGSV,5,5,20,57,08,111,39,41,07,108,35,61,03,257,38*48
$GLGSV,3,1,10,71,67,001,51,70,35,076,40,72,32,291,49,86,29,232,47*66
$GLGSV,3,2,10,73,39,126,49,80,36,052,50,87,39,290,47,74,10,162,37*62
$GLGSV,3,3,10,79,01,012,34,88,09,344,43*62
$GAGSV,3,1,10,05,74,278,49,36,27,188,42,23,10,032,,15,28,316,42*67
$GAGSV,3,2,10,31,20,082,40,06,23,069,41,03,22,257,42,09,46,064,46*65
$GAGSV,3,3,10,34,54,251,48,24,09,131,37*6D
$GBGSV,6,1,21,19,64,080,51,34,12,322,,35,11,224,42,05,23,129,39*6E
$GBGSV,6,2,21,37,15,039,41,36,30,159,45,16,18,043,39,20,17,097,43*67
$GBGSV,6,3,21,12,23,296,42,06,21,045,39,44,22,269,44,09,35,050,41*68
$GBGSV,6,4,21,48,37,095,,58,38,085,,22,54,296,51,46,44,093,*65
$GBGSV,6,5,21,21,54,289,,39,08,042,39,11,03,343,,02,06,107,35*67
$GBGSV,6,6,21,60,08,111,41*52
$GPGGA,042957.00,,,,,0,00,,,M,,M,,*45
$PTNL,GGK,042957.00,010125,4742.1603651,N,01618.1003693,E,1,42,0.8,EHT751.3067,M*4B
$GPGGQ,042957.00,010125,4742.1603651,N,01618.1003693,E,1,42,0.838,708.1002,M*33
$GPGFA,042957.00,3.329,5.757,0.350,0.294,344.124,0.702,,VVV*0D
$GPLLK,042957.00,010125,,M,,M,1,42,0.8,,M*08
$GNGMP,042957.00,,,,,DAAA,42,0.4,,,,*59
$GPGMP,042957.00,,,,,,10,,,,1.5,136*71
$GLGMP,042957.00,,,,,,09,,,,,*7B
$GAGMP,042957.00,,,,,,09,,,,,*76
$GBGMP,042957.00,,,,,,14,,,,,*79
$PSSN,SNC,[0,275415000,2347]*44
$GPZDA,043002.00,01,01,2025,,*66
$GPDTM,W84,,00.0000000,N,00.0000000,E,00.0000000,W84*5F
$PSSN,TFM,043002.00,,,,*6A
$GPRMC,043002.00,A,4742.1603657,N,01618.1003708,E,0.0,,010125,5.1,E,D*1E
$GPGLL,4742.1603657,N,01618.1003708,E,043002.00,A,D*6F
$GPGGA,043002.00,4742.1603657,N,01618.1003708,E,2,42,0.4,708.0984,M,43.2066,M,2.5,0136*4C
$GNGNS,043002.00,4742.1603657,N,01618.1003708,E,DAAA,42,0.4,708.0984,43.2066,,*53
$GPGNS,043002.00,,,,,,10,,,,2.5,136*7A
$GLGNS,043002.00,,,,,,09,,,,,*73
$GAGNS,043002.00,,,,,,09,,,,,*7E
$GBGNS,043002.00,,,,,,14,,,,,*71
$GPLLQ,043002.00,010125,,M,,M,1,42,0.829,,M*11
$GPVTG,,T,,M,0.00,N,0.01,K,D*27
$GPHDT,,T*1B
$GPTHS,,V*0E
$GPROT,,V*08
$PSSN,HRP,043002.00,010125,,,,,,,00,0,,*64
$PTNL,AVR,043002.00,,Yaw,,Tilt,,,,0,,00*32
$GPGSA,A,3,03,04,06,07,09,11,16,20,26,30,,,0.8,0.4,0.7*34
$GPGSA,A,3,70,71,72,73,74,80,86,87,88,,,,0.8,0.4,0.7*33
$GPGSA,A,3,03,05,06,09,15,24,31,34,36,,,,0.8,0.4,0.7*32
$GPGSA,A,3,05,06,09,12,16,19,20,22,35,36,37,39,0.8,0.4,0.7*30
$GPGSA,A,3,44,60,,,,,,,,,,,0.8,0.4,0.7*3F
$GPGST,043002.00,2.084,0.347,0.291,344.765,0.344,0.295,0.695*56
$GPGBS,043002.00,1.956,1.608,4.768,72,0.0001,7.012,6.125*53
$GPGRS,043002.00,1,0.2,-0.2,-0.3,0.4,0.0,-0.1,0.5,0.2,-0.7,-0.1,,*61
$GPGRS,043002.00,1,-2.0,0.5,7.0,5.1,3.6,-2.3,-3.3,-4.2,-0.0,,,*4E
$GPGRS,043002.00,1,-0.2,0.7,0.1,0.1,0.7,-1.0,0.1,-0.2,0.1,,,*49
$GPGRS,043002.00,1,2.3,0.9,1.3,0.2,0.2,0.4,1.8,-0.3,-1.7,0.9,-0.7,-2.3*46
$GPGRS,043002.00,1,0.3,-1.1,,,,,,,,,,*65
$GPGSV,5,1,20,09,74,047,50,03,16,125,38,30,22,202,43,20,25,307,42*79
$GPGSV,5,2,20,16,17,065,40,11,39,294,46,07,55,177,49,04,45,066,46*71
$GPGSV,5,3,20,06,48,240,48,29,01,349,38,26,10,036,37,36,35,170,45*72
$GPGSV,5,4,20,58,13,245,38,40,24,132,36,34,31,208,43,49,34,195,45*74
$GPGSV,5,5,20,57,08,111,39,41,07,108,35,61,03,257,38*48
$GLGSV,3,1,10,71,67,001,52,70,35,076,40,72,32,291,49,86,29,232,48*6A
$GLGSV,3,2,10,73,39,126,48,80,36,051,50,87,39,290,47,74,10,162,37*60
$GLGSV,3,3,10,79,01,012,34,88,09,344,43*62
$GAGSV,3,1,10,05,74,278,49,36,27,188,42,23,10,032,,15,28,316,42*67
$GAGSV,3,2,10,31,20,082,40,06,23,069,41,03,22,257,42,09,46,064,46*65
$GAGSV,3,3,10,34,53,251,48,24,09,131,37*6A
$GBGSV,6,1,21,19,64,080,51,34,12,322,,35,11,224,42,05,23,129,38*6F
$GBGSV,6,2,21,37,15,039,42,36,30,159,45,16,18,044,39,20,17,098,43*6C
$GBGSV,6,3,21,12,23,296,42,06,21,045,39,44,22,269,45,09,35,050,42*6A
$GBGSV,6,4,21,48,37,095,,58,38,085,,22,54,296,51,46,44,093,*65
$GBGSV,6,5,21,21,54,289,,39,08,042,40,11,03,342,,02,06,107,35*68
$GBGSV,6,6,21,60,08,111,41*52
$GPGGA,043002.00,,,,,0,00,,,M,,M,,*4D
$PTNL,GGK,043002.00,010125,4742.1603657,N,01618.1003708,E,1,42,0.8,EHT751.3049,M*4A
$GPGGQ,043002.00,010125,4742.1603657,N,01618.1003708,E,1,42,0.829,708.0984,M*38
$GPGFA,043002.00,3.303,5.696,0.347,0.291,344.765,0.695,,VVV*0E
$GPLLK,043002.00,010125,,M,,M,1,42,0.8,,M*00
$GNGMP,043002.00,,,,,DAAA,42,0.4,,,,*51
$GPGMP,043002.00,,,,,,10,,,,2.5,136*7A
$GLGMP,043002.00,,,,,,09,,,,,*73
$GAGMP,043002.00,,,,,,09,,,,,*7E
$GBGMP,043002.00,,,,,,14,,,,,*71
$PSSN,SNC,[0,275420000,2347]*42
$GPZDA,043007.00,01,01,2025,,*63
$GPDTM,W84,,00.0000000,N,00.0000000,E,00.0000000,W84*5F
$PSSN,TFM,043007.00,,,,*6F
$GPRMC,043007.00,A,4742.1603677,N,01618.1003695,E,0.0,,010125,5.1,E,D*1C
$GPGLL,4742.1603677,N,01618.1003695,E,043007.00,A,D*6D
$GPGGA,043007.00,4742.1603677,N,01618.1003695,E,2,42,0.4,708.0992,M,43.2066,M,3.1,0136*4C
$GNGNS,043007.00,4742.1603677,N,01618.1003695,E,DAAA,42,0.4,708.0992,43.2066,,*56
$GPGNS,043007.00,,,,,,10,,,,3.1,136*7A
$GLGNS,043007.00,,,,,,09,,,,,*76
$GAGNS,043007.00,,,,,,09,,,,,*7B
$GBGNS,043007.00,,,,,,14,,,,,*74
$GPLLQ,043007.00,010125,,M,,M,1,42,0.844,,M*1F
$GPVTG,,T,,M,0.00,N,0.01,K,D*27
$GPHDT,,T*1B
$GPTHS,,V*0E
$GPROT,,V*08
$PSSN,HRP,043007.00,010125,,,,,,,00,0,,*61
$PTNL,AVR,043007.00,,Yaw,,Tilt,,,,0,,00*37
$GPGSA,A,3,03,04,06,07,09,11,16,20,26,30,,,0.8,0.4,0.7*34
$GPGSA,A,3,70,71,72,73,74,80,86,87,88,,,,0.8,0.4,0.7*33
$GPGSA,A,3,03,05,06,09,15,24,31,34,36,,,,0.8,0.4,0.7*32
$GPGSA,A,3,05,06,09,12,16,19,20,22,35,36,37,39,0.8,0.4,0.7*30
$GPGSA,A,3,44,60,,,,,,,,,,,0.8,0.4,0.7*3F
$GPGST,043007.00,1.935,0.352,0.297,344.466,0.348,0.301,0.707*5B
$GPGBS,043007.00,2.005,1.624,4.777,72,0.0001,6.849,6.125*5D
$GPGRS,043007.00,1,-0.2,-0.2,-0.3,0.3,0.3,-0.3,0.4,0.4,-0.8,0.3,,*68
$GPGRS,043007.00,1,-2.3,1.0,6.8,4.4,2.4,-2.7,-2.5,-4.0,-0.1,,,*42
$GPGRS,043007.00,1,-0.6,0.5,0.1,-0.1,0.5,-0.6,0.4,-0.2,0.3,,,*65
$GPGRS,043007.00,1,2.2,1.3,1.3,0.4,-0.0,0.1,1.5,-0.5,-1.3,0.8,-1.2,-2.2*6E
$GPGRS,043007.00,1,0.0,-1.1,,,,,,,,,,*63
$GPGSV,5,1,20,09,74,047,50,03,16,125,39,30,22,202,43,20,25,307,42*78
$GPGSV,5,2,20,16,17,065,40,11,39,294,47,07,55,177,49,04,45,066,46*70
$GPGSV,5,3,20,06,48,240,48,29,01,349,38,26,10,036,37,36,35,170,45*72
$GPGSV,5,4,20,58,13,245,37,40,24,132,36,34,31,208,43,49,34,195,45*7B
$GPGSV,5,5,20,57,08,111,39,41,07,108,35,61,03,257,38*48
$GLGSV,3,1,10,71,67,001,52,70,35,076,39,72,32,291,49,86,29,231,49*66
$GLGSV,3,2,10,73,39,126,49,80,36,051,50,87,39,290,47,74,10,162,37*61
$GLGSV,3,3,10,79,01,012,33,88,09,344,43*65
$GAGSV,3,1,10,05,74,278,49,36,27,188,42,23,10,032,,15,28,316,42*67
$GAGSV,3,2,10,31,20,082,40,06,23,069,41,03,22,257,41,09,46,064,46*66
$GAGSV,3,3,10,34,53,251,48,24,09,131,37*6A
$GBGSV,6,1,21,19,64,080,51,34,12,322,,35,11,224,42,05,23,129,39*6E
$GBGSV,6,2,21,37,15,039,42,36,30,159,46,16,18,044,39,20,17,098,43*6F
$GBGSV,6,3,21,12,23,296,42,06,21,045,39,44,22,269,44,09,34,050,42*6A
$GBGSV,6,4,21,48,37,095,,58,38,085,,22,54,296,50,46,44,093,*64
$GBGSV,6,5,21,21,54,289,,39,08,042,40,11,03,342,,02,06,107,35*68
$GBGSV,6,6,21,60,08,111,41*52
$GPGGA,043007.00,,,,,0,00,,,M,,M,,*48
$PTNL,GGK,043007.00,010125,4742.1603677,N,01618.1003695,E,1,42,0.8,EHT751.3057,M*47
$GPGGQ,043007.00,010125,4742.1603677,N,01618.1003695,E,1,42,0.844,708.0992,M*36
$GPGFA,043007.00,3.343,5.801,0.352,0.297,344.466,0.707,,VVV*07
$GPLLK,043007.00,010125,,M,,M,1,42,0.8,,M*05
$GNGMP,043007.00,,,,,DAAA,42,0.4,,,,*54
$GPGMP,043007.00,,,,,,10,,,,3.1,136*7A
$GLGMP,043007.00,,,,,,09,,,,,*76
$GAGMP,043007.00,,,,,,09,,,,,*7B
$GBGMP,043007.00,,,,,,14,,,,,*74
$PSSN,SNC,[0,275425000,2347]*47
$GPZDA,043012.00,01,01,2025,,*67
$GPDTM,W84,,00.0000000,N,00.0000000,E,00.0000000,W84*5F
$PSSN,TFM,043012.00,,,,*6B
$GPRMC,043012.00,A,4742.1603683,N,01618.1003692,E,0.0,,010125,5.1,E,D*14
$GPGLL,4742.1603683,N,01618.1003692,E,043012.00,A,D*65
$GPGGA,043012.00,4742.1603683,N,01618.1003692,E,2,42,0.4,708.0980,M,43.2066,M,2.9,0136*4E
$GNGNS,043012.00,4742.1603683,N,01618.1003692,E,DAAA,42,0.4,708.0980,43.2066,,*5D
$GPGNS,043012.00,,,,,,10,,,,2.9,136*77
$GLGNS,043012.00,,,,,,09,,,,,*72
$GAGNS,043012.00,,,,,,09,,,,,*7F
$GBGNS,043012.00,,,,,,14,,,,,*70
$GPLLQ,043012.00,010125,,M,,M,1,42,0.851,,M*1F
$GPVTG,,T,,M,0.00,N,0.00,K,D*26
$GPHDT,,T*1B
$GPTHS,,V*0E
$GPROT,,V*08
$PSSN,HRP,043012.00,010125,,,,,,,00,0,,*65
$PTNL,AVR,043012.00,,Yaw,,Tilt,,,,0,,00*33
$GPGSA,A,3,03,04,06,07,09,11,16,20,26,30,,,0.8,0.4,0.7*34
$GPGSA,A,3,70,71,72,73,74,80,86,87,88,,,,0.8,0.4,0.7*33
$GPGSA,A,3,03,05,06,09,15,24,31,34,36,,,,0.8,0.4,0.7*32
$GPGSA,A,3,05,06,09,12,16,19,20,22,35,36,37,39,0.8,0.4,0.7*30
$GPGSA,A,3,44,60,,,,,,,,,,,0.8,0.4,0.7*3F
$GPGST,043012.00,1.916,0.353,0.300,343.595,0.349,0.304,0.714*5C
$GPGBS,043012.00,2.061,1.585,4.845,72,0.0001,7.066,6.124*58
$GPGRS,043012.00,1,0.2,-0.1,-0.2,0.2,-0.0,-0.0,0.5,0.5,-1.3,-0.2,,*49
$GPGRS,043012.00,1,-2.0,1.0,7.1,4.5,1.8,-2.1,-2.9,-3.7,-0.6,,,*4E
$GPGRS,043012.00,1,-0.3,0.4,0.3,-0.0,0.1,-0.7,0.5,-0.2,0.2,,,*63
$GPGRS,043012.00,1,2.1,1.1,1.1,-0.9,-0.3,0.0,1.3,-0.5,-1.7,0.5,-0.9,-2.0*4C
$GPGRS,043012.00,1,-0.3,-1.4,,,,,,,,,,*4C
$GPGSV,5,1,20,09,74,047,50,03,16,125,39,30,22,202,42,20,25,307,43*78
$GPGSV,5,2,20,16,17,065,41,11,39,294,47,07,55,177,49,04,44,066,47*71
$GPGSV,5,3,20,06,48,240,48,29,01,349,38,26,10,036,37,36,35,170,45*72
$GPGSV,5,4,20,58,13,245,37,40,24,132,36,34,31,208,43,49,34,195,45*7B
$GPGSV,5,5,20,57,08,111,39,41,07,108,35,61,03,257,38*48
$GLGSV,3,1,10,71,67,001,52,70,35,076,40,72,32,291,49,86,29,231,47*66
$GLGSV,3,2,10,73,39,126,48,80,36,051,49,87,39,290,47,74,10,162,37*68
$GLGSV,3,3,10,79,01,012,34,88,09,344,44*65
$GAGSV,3,1,10,05,74,278,49,36,27,188,42,23,10,032,,15,28,316,42*67
$GAGSV,3,2,10,31,20,082,41,06,23,069,42,03,22,257,42,09,46,064,46*67
$GAGSV,3,3,10,34,53,251,48,24,09,131,37*6A
$GBGSV,6,1,21,19,64,080,51,34,12,322,,35,11,224,42,05,23,129,38*6F
$GBGSV,6,2,21,37,15,039,41,36,30,159,46,16,18,044,39,20,17,098,43*6C
$GBGSV,6,3,21,12,23,296,41,06,21,045,40,44,22,269,44,09,34,050,42*67
$GBGSV,6,4,21,48,37,095,,58,38,085,,22,55,296,51,46,44,093,*64
$GBGSV,6,5,21,21,54,289,,39,08,042,40,11,03,342,,02,06,107,35*68
$GBGSV,6,6,21,60,08,111,41*52
$GPGGA,043012.00,,,,,0,00,,,M,,M,,*4C
$PTNL,GGK,043012.00,010125,4742.1603683,N,01618.1003692,E,1,42,0.8,EHT751.3045,M*4C
$GPGGQ,043012.00,010125,4742.1603683,N,01618.1003692,E,1,42,0.851,708.0980,M*39
$GPGFA,043012.00,3.358,5.856,0.353,0.300,343.595,0.714,,VVV*0D
$GPLLK,043012.00,010125,,M,,M,1,42,0.8,,M*01
$GNGMP,043012.00,,,,,DAAA,42,0.4,,,,*50
$GPGMP,043012.00,,,,,,10,,,,2.9,136*77
$GLGMP,043012.00,,,,,,09,,,,,*72
$GAGMP,043012.00,,,,,,09,,,,,*7F
$GBGMP,043012.00,,,,,,14,,,,,*70
$PSSN,SNC,[0,275430000,2347]*43
$GPZDA,043017.00,01,01,2025,,*62
$GPDTM,W84,,00.0000000,N,00.0000000,E,00.0000000,W84*5F
$PSSN,TFM,043017.00,,,,*6E
$GPRMC,043017.00,A,4742.1603688,N,01618.1003699,E,0.0,,010125,5.1,E,D*11
$GPGLL,4742.1603688,N,01618.1003699,E,043017.00,A,D*60
$GPGGA,043017.00,4742.1603688,N,01618.1003699,E,2,42,0.4,708.0965,M,43.2066,M,1.5,0136*4F
$GNGNS,043017.00,4742.1603688,N,01618.1003699,E,DAAA,42,0.4,708.0965,43.2066,,*53
$GPGNS,043017.00,,,,,,10,,,,1.5,136*7D
$GLGNS,043017.00,,,,,,09,,,,,*77
$GAGNS,043017.00,,,,,,09,,,,,*7A
$GBGNS,043017.00,,,,,,14,,,,,*75
$GPLLQ,043017.00,010125,,M,,M,1,42,0.846,,M*1C
$GPVTG,,T,,M,0.00,N,0.00,K,D*26
$GPHDT,,T*1B
$GPTHS,,V*0E
$GPROT,,V*08
$PSSN,HRP,043017.00,010125,,,,,,,00,0,,*60
$PTNL,AVR,043017.00,,Yaw,,Tilt,,,,0,,00*36
$GPGSA,A,3,03,04,06,07,09,11,16,20,26,30,,,0.8,0.4,0.7*34
$GPGSA,A,3,70,71,72,73,74,80,86,87,88,,,,0.8,0.4,0.7*33
$GPGSA,A,3,03,05,06,09,15,24,31,34,36,,,,0.8,0.4,0.7*32
$GPGSA,A,3,05,06,09,12,16,19,20,22,35,36,37,39,0.8,0.4,0.7*30
$GPGSA,A,3,44,60,,,,,,,,,,,0.8,0.4,0.7*3F
$GPGST,043017.00,1.845,0.351,0.298,345.349,0.347,0.302,0.710*51
$GPGBS,043017.00,1.926,1.591,4.707,72,0.0001,6.949,6.124*5D
$GPGRS,043017.00,1,-0.1,0.1,-0.2,0.0,-0.0,-0.0,0.7,0.6,-1.0,-0.2,,*4F
$GPGRS,043017.00,1,-1.3,0.8,6.9,4.0,2.5,-2.0,-2.8,-3.5,-0.7,,,*43
$GPGRS,043017.00,1,0.2,0.5,0.6,0.1,0.5,-1.0,0.3,-0.2,-0.0,,,*49
$GPGRS,043017.00,1,2.1,0.7,1.3,-1.0,-0.1,0.2,1.1,-0.1,-1.6,0.0,-0.4,-2.1*4A
$GPGRS,043017.00,1,0.0,-1.3,,,,,,,,,,*60
$GPGSV,5,1,20,09,74,047,50,03,16,125,39,30,22,202,42,20,25,307,43*78
$GPGSV,5,2,20,16,17,065,40,11,39,294,47,07,55,177,48,04,44,066,46*70
$GPGSV,5,3,20,06,48,240,47,29,01,349,38,26,10,036,37,36,35,170,45*7D
$GPGSV,5,4,20,58,13,245,37,40,24,132,36,34,31,208,43,49,34,195,45*7B
$GPGSV,5,5,20,57,08,111,39,41,07,108,35,61,03,257,38*48
$GLGSV,3,1,10,71,67,001,52,70,35,077,40,72,32,291,48,86,29,231,48*69
$GLGSV,3,2,10,73,39,126,48,80,36,051,49,87,39,290,48,74,10,162,38*68
$GLGSV,3,3,10,79,01,012,35,88,09,344,43*63
$GAGSV,3,1,10,05,74,278,49,36,27,188,42,23,10,032,,15,28,316,42*67
$GAGSV,3,2,10,31,20,082,41,06,23,069,42,03,22,257,41,09,46,065,46*65
$GAGSV,3,3,10,34,53,251,48,24,09,131,37*6A
$GBGSV,6,1,21,19,64,080,51,34,12,322,,35,11,224,42,05,23,129,39*6E
$GBGSV,6,2,21,37,15,039,41,36,30,158,46,16,18,044,39,20,17,098,43*6D
$GBGSV,6,3,21,12,23,296,41,06,21,045,40,44,22,269,44,09,34,050,42*67
$GBGSV,6,4,21,48,37,095,,58,38,085,,22,55,296,51,46,44,092,*65
$GBGSV,6,5,21,21,54,289,,39,08,042,40,11,03,342,,02,06,107,35*68
$GBGSV,6,6,21,60,08,111,41*52
$GPGGA,043017.00,,,,,0,00,,,M,,M,,*49
$PTNL,GGK,043017.00,010125,4742.1603688,N,01618.1003699,E,1,42,0.8,EHT751.3030,M*4B
$GPGGQ,043017.00,010125,4742.1603688,N,01618.1003699,E,1,42,0.846,708.0965,M*31
$GPGFA,043017.00,3.333,5.821,0.351,0.298,345.349,0.710,,VVV*02
$GPLLK,043017.00,010125,,M,,M,1,42,0.8,,M*04
$GNGMP,043017.00,,,,,DAAA,42,0.4,,,,*55
$GPGMP,043017.00,,,,,,10,,,,1.5,136*7D
$GLGMP,043017.00,,,,,,09,,,,,*77
$GAGMP,043017.00,,,,,,09,,,,,*7A
$GBGMP,043017.00,,,,,,14,,,,,*75
$PSSN,SNC,[0,275435000,2347]*46
$GPZDA,043022.00,01,01,2025,,*64
$GPDTM,W84,,00.0000000,N,00.0000000,E,00.0000000,W84*5F
$PSSN,TFM,043022.00,,,,*68
$GPRMC,043022.00,A,4742.1603685,N,01618.1003707,E,0.0,,010125,5.1,E,D*1C
$GPGLL,4742.1603685,N,01618.1003707,E,043022.00,A,D*6D
$GPGGA,043022.00,4742.1603685,N,01618.1003707,E,2,42,0.4,708.0911,M,43.2066,M,2.5,0136*42
$GNGNS,043022.00,4742.1603685,N,01618.1003707,E,DAAA,42,0.4,708.0911,43.2066,,*5D
$GPGNS,043022.00,,,,,,10,,,,2.5,136*78
$GLGNS,043022.00,,,,,,09,,,,,*71
$GAGNS,043022.00,,,,,,09,,,,,*7C
$GBGNS,043022.00,,,,,,14,,,,,*73
$GPLLQ,043022.00,010125,,M,,M,1,42,0.835,,M*1E
$GPVTG,,T,,M,0.00,N,0.01,K,D*27
$GPHDT,,T*1B
$GPTHS,,V*0E
$GPROT,,V*08
$PSSN,HRP,043022.00,010125,,,,,,,00,0,,*66
$PTNL,AVR,043022.00,,Yaw,,Tilt,,,,0,,00*30
$GPGSA,A,3,03,04,06,07,09,11,16,20,26,30,,,0.8,0.4,0.7*34
$GPGSA,A,3,70,71,72,73,74,80,86,87,88,,,,0.8,0.4,0.7*33
$GPGSA,A,3,03,05,06,09,15,24,31,34,36,,,,0.8,0.4,0.7*32
$GPGSA,A,3,05,06,09,12,16,19,20,22,35,36,37,39,0.8,0.4,0.7*30
$GPGSA,A,3,44,60,,,,,,,,,,,0.8,0.4,0.7*3F
$GPGST,043022.00,1.793,0.348,0.293,345.586,0.345,0.297,0.700*5B
$GPGBS,043022.00,1.957,1.609,4.772,72,0.0001,6.505,6.124*59
$GPGRS,043022.00,1,-0.4,-0.3,-0.2,0.2,0.3,-0.4,0.2,0.7,-0.6,0.2,,*65
$GPGRS,043022.00,1,-1.7,0.7,6.5,4.5,2.2,-1.8,-2.6,-3.6,0.0,,,*6C
$GPGRS,043022.00,1,-0.0,0.5,0.5,0.2,0.2,-0.8,0.3,-0.2,-0.0,,,*6E
$GPGRS,043022.00,1,2.0,1.2,1.1,-0.6,-0.5,0.3,1.1,-0.2,-1.1,-0.4,-0.4,-2.0*65
$GPGRS,043022.00,1,0.1,-1.0,,,,,,,,,,*64
$GPGSV,5,1,20,09,74,047,50,03,16,125,39,30,22,202,42,20,25,307,42*79
$GPGSV,5,2,20,16,17,065,39,11,39,294,46,07,55,177,48,04,44,066,46*7F
$GPGSV,5,3,20,06,48,240,47,29,01,349,38,26,10,036,37,36,35,170,45*7D
$GPGSV,5,4,20,58,13,245,37,40,24,132,36,34,31,208,43,49,34,195,45*7B
$GPGSV,5,5,20,57,08,111,39,41,07,108,35,61,03,257,38*48
$GLGSV,3,1,10,71,67,002,52,70,35,077,40,72,32,292,49,86,29,231,48*68
$GLGSV,3,2,10,73,39,126,49,80,36,051,49,87,39,290,47,74,10,162,38*66
$GLGSV,3,3,10,79,01,012,35,88,09,344,42*62
$GAGSV,3,1,10,05,74,279,49,36,27,188,42,23,10,032,,15,28,316,42*66
$GAGSV,3,2,10,31,20,082,41,06,23,069,42,03,22,257,42,09,46,065,46*66
$GAGSV,3,3,10,34,53,251,48,24,09,131,37*6A
$GBGSV,6,1,21,19,64,081,51,34,12,322,,35,11,224,42,05,23,129,39*6F
$GBGSV,6,2,21,37,15,039,41,36,30,158,46,16,18,044,39,20,17,098,43*6D
$GBGSV,6,3,21,12,23,296,42,06,21,045,39,44,22,269,44,09,34,050,42*6A
$GBGSV,6,4,21,48,37,095,,58,38,085,,22,55,296,51,46,44,092,*65
$GBGSV,6,5,21,21,54,289,,39,08,042,39,11,03,342,,02,06,107,35*66
$GBGSV,6,6,21,60,08,111,41*52
$GPGGA,043022.00,,,,,0,00,,,M,,M,,*4F
$PTNL,GGK,043022.00,010125,4742.1603685,N,01618.1003707,E,1,42,0.8,EHT751.2977,M*4D
$GPGGQ,043022.00,010125,4742.1603685,N,01618.1003707,E,1,42,0.835,708.0911,M*3B
$GPGFA,043022.00,3.306,5.741,0.348,0.293,345.586,0.700,,VVV*0C
$GPLLK,043022.00,010125,,M,,M,1,42,0.8,,M*02
$GNGMP,043022.00,,,,,DAAA,42,0.4,,,,*53
$GPGMP,043022.00,,,,,,10,,,,2.5,136*78
$GLGMP,043022.00,,,,,,09,,,,,*71
$GAGMP,043022.00,,,,,,09,,,,,*7C
$GBGMP,043022.00,,,,,,14,,,,,*73
$PSSN,SNC,[0,275440000,2347]*44
$GPZDA,043027.00,01,01,2025,,*61
$GPDTM,W84,,00.0000000,N,00.0000000,E,00.0000000,W84*5F
$PSSN,TFM,043027.00,,,,*6D
$GPRMC,043027.00,A,4742.1603710,N,01618.1003721,E,0.0,,010125,5.1,E,D*10
$GPGLL,4742.1603710,N,01618.1003721,E,043027.00,A,D*61
$GPGGA,043027.00,4742.1603710,N,01618.1003721,E,2,42,0.4,708.0934,M,43.2066,M,3.1,0136*4C
$GNGNS,043027.00,4742.1603710,N,01618.1003721,E,DAAA,42,0.4,708.0934,43.2066,,*56
$GPGNS,043027.00,,,,,,10,,,,3.1,136*78
$GLGNS,043027.00,,,,,,09,,,,,*74
$GAGNS,043027.00,,,,,,09,,,,,*79
$GBGNS,043027.00,,,,,,14,,,,,*76
$GPLLQ,043027.00,010125,,M,,M,1,42,0.846,,M*1F
$GPVTG,,T,,M,0.00,N,0.00,K,D*26
$GPHDT,,T*1B
$GPTHS,,V*0E
$GPROT,,V*08
$PSSN,HRP,043027.00,010125,,,,,,,00,0,,*63
$PTNL,AVR,043027.00,,Yaw,,Tilt,,,,0,,00*35
$GPGSA,A,3,03,04,06,07,09,11,16,20,26,30,,,0.8,0.4,0.7*34
$GPGSA,A,3,70,71,72,73,74,80,86,87,88,,,,0.8,0.4,0.7*33
$GPGSA,A,3,03,05,06,09,15,24,31,34,36,,,,0.8,0.4,0.7*32
$GPGSA,A,3,05,06,09,12,16,19,20,22,35,36,37,39,0.8,0.4,0.7*30
$GPGSA,A,3,44,60,,,,,,,,,,,0.8,0.4,0.7*3F
$GPGST,043027.00,1.919,0.352,0.298,344.683,0.348,0.302,0.710*54
$GPGBS,043027.00,2.006,1.626,4.780,72,0.0001,6.661,6.124*53
$GPGRS,043027.00,1,-0.4,-0.2,-0.2,0.1,0.2,-0.5,0.6,0.7,-0.9,0.7,,*6C
$GPGRS,043027.00,1,-2.0,0.6,6.7,4.5,1.9,-2.1,-2.9,-4.3,-2.0,,,*4E
$GPGRS,043027.00,1,-0.2,0.3,0.2,-0.1,-0.1,-0.9,0.2,-0.1,-0.0,,,*6B
$GPGRS,043027.00,1,2.4,0.9,0.6,0.2,-0.5,-0.1,1.0,-0.5,-1.3,-0.6,-0.7,-2.3*68
$GPGRS,043027.00,1,-0.2,-0.8,,,,,,,,,,*46
$GPGSV,5,1,20,09,74,047,50,03,16,125,39,30,22,202,43,20,25,307,42*78
$GPGSV,5,2,20,16,17,065,39,11,39,294,46,07,55,177,49,04,44,066,46*7E
$GPGSV,5,3,20,06,48,239,48,29,01,349,37,26,10,036,37,36,35,170,45*73
$GPGSV,5,4,20,58,13,245,37,40,24,132,36,34,31,208,43,49,34,195,45*7B
$GPGSV,5,5,20,57,08,111,39,41,07,108,35,61,03,257,38*48
$GLGSV,3,1,10,71,67,002,52,70,35,077,40,72,32,292,49,86,29,231,48*68
$GLGSV,3,2,10,73,39,125,49,80,36,051,49,87,39,289,47,74,10,162,38*6D
$GLGSV,3,3,10,79,01,012,33,88,09,344,42*64
$GAGSV,3,1,10,05,74,279,49,36,27,188,42,23,10,032,,15,28,316,42*66
$GAGSV,3,2,10,31,20,082,41,06,23,069,42,03,22,257,41,09,46,065,46*65
$GAGSV,3,3,10,34,53,251,48,24,09,131,37*6A
$GBGSV,6,1,21,19,64,081,51,34,12,322,,35,10,224,42,05,23,129,39*6E
$GBGSV,6,2,21,37,15,039,41,36,30,158,46,16,18,044,39,20,17,098,44*6A
$GBGSV,6,3,21,12,23,296,42,06,21,045,39,44,22,269,44,09,34,050,41*69
$GBGSV,6,4,21,48,37,095,,58,38,085,,22,55,296,51,46,44,092,*65
$GBGSV,6,5,21,21,54,289,,39,08,042,39,11,03,342,,02,06,107,35*66
$GBGSV,6,6,21,60,08,111,41*52
$GPGGA,043027.00,,,,,0,00,,,M,,M,,*4A
$PTNL,GGK,043027.00,010125,4742.1603710,N,01618.1003721,E,1,42,0.8,EHT751.2999,M*41
$GPGGQ,043027.00,010125,4742.1603710,N,01618.1003721,E,1,42,0.846,708.0934,M*34
$GPGFA,043027.00,3.345,5.823,0.352,0.298,344.683,0.710,,VVV*03
$GPLLK,043027.00,010125,,M,,M,1,42,0.8,,M*07
$GNGMP,043027.00,,,,,DAAA,42,0.4,,,,*56
$GPGMP,043027.00,,,,,,10,,,,3.1,136*78
$GLGMP,043027.00,,,,,,09,,,,,*74
$GAGMP,043027.00,,,,,,09,,,,,*79
$GBGMP,043027.00,,,,,,14,,,,,*76
$PSSN,SNC,[0,275445000,2347]*41
$GPZDA,043032.00,01,01,2025,,*65
$GPDTM,W84,,00.0000000,N,00.0000000,E,00.0000000,W84*5F
$PSSN,TFM,043032.00,,,,*69
$GPRMC,043032.00,A,4742.1603733,N,01618.1003720,E,0.0,,010125,5.1,E,D*14
$GPGLL,4742.1603733,N,01618.1003720,E,043032.00,A,D*65
$GPGGA,043032.00,4742.1603733,N,01618.1003720,E,2,42,0.4,708.0921,M,43.2066,M,2.9,0136*45
$GNGNS,043032.00,4742.1603733,N,01618.1003720,E,DAAA,42,0.4,708.0921,43.2066,,*56
$GPGNS,043032.00,,,,,,10,,,,2.9,136*75
$GLGNS,043032.00,,,,,,09,,,,,*70
$GAGNS,043032.00,,,,,,09,,,,,*7D
$GBGNS,043032.00,,,,,,14,,,,,*72
$GPLLQ,043032.00,010125,,M,,M,1,42,0.854,,M*18
$GPVTG,,T,,M,0.00,N,0.00,K,D*26
$GPHDT,,T*1B
$GPTHS,,V*0E
$GPROT,,V*08
$PSSN,HRP,043032.00,010125,,,,,,,00,0,,*67
$PTNL,AVR,043032.00,,Yaw,,Tilt,,,,0,,00*31
$GPGSA,A,3,03,04,06,07,09,11,16,20,26,30,,,0.8,0.4,0.7*34
$GPGSA,A,3,70,71,72,73,74,80,86,87,88,,,,0.8,0.4,0.7*33
$GPGSA,A,3,03,05,06,09,15,24,31,34,36,,,,0.8,0.4,0.7*32
$GPGSA,A,3,05,06,09,12,16,19,20,22,35,36,37,39,0.8,0.4,0.7*30
$GPGSA,A,3,44,60,,,,,,,,,,,0.8,0.4,0.7*3F
$GPGST,043032.00,1.952,0.354,0.301,343.775,0.350,0.305,0.717*5E
$GPGBS,043032.00,2.061,1.588,4.848,72,0.0001,6.500,6.124*5E
$GPGRS,043032.00,1,0.1,-0.1,-0.4,0.4,-0.1,-0.3,0.6,0.7,-1.0,0.2,,*65
$GPGRS,043032.00,1,-2.9,0.0,6.5,4.4,2.3,-2.1,-2.5,-4.6,-1.7,,,*42
$GPGRS,043032.00,1,-0.2,0.3,-0.1,-0.2,0.3,-0.9,0.0,-0.1,-0.1,,,*6E
$GPGRS,043032.00,1,2.4,0.4,0.9,0.5,-0.6,-0.1,1.3,-0.6,-1.8,-0.7,-1.0,-2.2*67
$GPGRS,043032.00,1,-0.0,-1.2,,,,,,,,,,*4B
$GPGSV,5,1,20,09,74,047,50,03,16,125,39,30,22,202,42,20,25,307,42*79
$GPGSV,5,2,20,16,17,065,39,11,39,294,47,07,55,177,49,04,44,066,46*7F
$GPGSV,5,3,20,06,48,239,47,29,01,349,38,26,10,036,37,36,35,170,45*73
$GPGSV,5,4,20,58,13,245,38,40,24,132,36,34,31,208,43,49,34,195,45*74
$GPGSV,5,5,20,57,08,111,39,41,07,108,35,61,03,257,38*48
$GLGSV,3,1,10,71,67,002,52,70,35,077,40,72,32,292,49,86,29,231,48*68
$GLGSV,3,2,10,73,39,125,49,80,36,051,50,87,39,289,47,74,10,162,38*65
$GLGSV,3,3,10,79,01,012,32,88,09,344,43*64
$GAGSV,3,1,10,05,74,279,49,36,27,188,43,23,10,032,,15,28,315,43*65
$GAGSV,3,2,10,31,20,082,41,06,23,069,41,03,22,257,42,09,46,065,46*65
$GAGSV,3,3,10,34,53,251,48,24,09,131,37*6A
$GBGSV,6,1,21,19,64,081,51,34,12,322,,35,10,224,41,05,23,129,39*6D
$GBGSV,6,2,21,37,15,039,41,36,30,158,46,16,18,044,39,20,17,098,44*6A
$GBGSV,6,3,21,12,23,296,42,06,21,045,39,44,22,269,45,09,34,050,41*68
$GBGSV,6,4,21,48,37,095,,58,38,084,,22,55,296,51,46,44,092,*64
$GBGSV,6,5,21,21,54,289,,39,08,042,39,11,03,342,,02,06,107,35*66
$GBGSV,6,6,21,60,08,111,41*52
$GPGGA,043032.00,,,,,0,00,,,M,,M,,*4E
$PTNL,GGK,043032.00,010125,4742.1603733,N,01618.1003720,E,1,42,0.8,EHT751.2987,M*4A
$GPGGQ,043032.00,010125,4742.1603733,N,01618.1003720,E,1,42,0.854,708.0921,M*37
$GPGFA,043032.00,3.361,5.880,0.354,0.301,343.775,0.717,,VVV*07
$GPLLK,043032.00,010125,,M,,M,1,42,0.8,,M*03
$GNGMP,043032.00,,,,,DAAA,42,0.4,,,,*52
$GPGMP,043032.00,,,,,,10,,,,2.9,136*75
$GLGMP,043032.00,,,,,,09,,,,,*70
$GAGMP,043032.00,,,,,,09,,,,,*7D
$GBGMP,043032.00,,,,,,14,,,,,*72
$PSSN,SNC,[0,275450000,2347]*45
$GPZDA,043037.00,01,01,2025,,*60
$GPDTM,W84,,00.0000000,N,00.0000000,E,00.0000000,W84*5F
$PSSN,TFM,043037.00,,,,*6C
$GPRMC,043037.00,A,4742.1603731,N,01618.1003738,E,0.0,,010125,5.1,E,D*1A
$GPGLL,4742.1603731,N,01618.1003738,E,043037.00,A,D*6B
$GPGGA,043037.00,4742.1603731,N,01618.1003738,E,2,42,0.4,708.0917,M,43.2066,M,1.5,0136*41
$GNGNS,043037.00,4742.1603731,N,01618.1003738,E,DAAA,42,0.4,708.0917,43.2066,,*5D
$GPGNS,043037.00,,,,,,10,,,,1.5,136*7F
$GLGNS,043037.00,,,,,,09,,,,,*75
$GAGNS,043037.00,,,,,,09,,,,,*78
$GBGNS,043037.00,,,,,,14,,,,,*77
$GPLLQ,043037.00,010125,,M,,M,1,42,0.846,,M*1E
$GPVTG,,T,,M,0.00,N,0.00,K,D*26
$GPHDT,,T*1B
$GPTHS,,V*0E
$GPROT,,V*08
$PSSN,HRP,043037.00,010125,,,,,,,00,0,,*62
$PTNL,AVR,043037.00,,Yaw,,Tilt,,,,0,,00*34
$GPGSA,A,3,03,04,06,07,09,11,16,20,26,30,,,0.8,0.4,0.7*34
$GPGSA,A,3,70,71,72,73,74,80,86,87,88,,,,0.8,0.4,0.7*33
$GPGSA,A,3,03,05,06,09,15,24,31,34,36,,,,0.8,0.4,0.7*32
$GPGSA,A,3,05,06,09,12,16,19,20,22,35,36,37,39,0.8,0.4,0.7*30
$GPGSA,A,3,44,60,,,,,,,,,,,0.8,0.4,0.7*3F
$GPGST,043037.00,1.822,0.351,0.298,345.092,0.347,0.301,0.710*54
$GPGBS,043037.00,1.927,1.592,4.709,72,0.0001,6.436,6.124*56
$GPGRS,043037.00,1,-0.5,-0.0,-0.4,0.3,-0.1,0.0,0.6,0.7,-0.9,0.2,,*69
$GPGRS,043037.00,1,-2.7,0.6,6.4,4.1,1.2,-1.4,-2.7,-4.2,-0.3,,,*4C
$GPGRS,043037.00,1,-0.3,0.3,-0.3,0.0,-0.1,-0.9,0.2,-0.0,-0.2,,,*68
$GPGRS,043037.00,1,2.2,0.3,0.0,0.8,-0.2,0.0,1.2,-0.5,-1.8,-0.2,-1.2,-2.4*4C
$GPGRS,043037.00,1,-0.3,-0.9,,,,,,,,,,*47
$GPGSV,5,1,20,09,74,048,50,03,16,125,40,30,22,202,42,20,25,307,42*78
$GPGSV,5,2,20,16,17,065,40,11,39,294,46,07,55,177,49,04,44,066,46*70
$GPGSV,5,3,20,06,48,239,48,29,01,349,37,26,10,036,36,36,35,170,45*72
$GPGSV,5,4,20,58,13,245,38,40,24,132,36,34,31,208,43,49,34,195,45*74
$GPGSV,5,5,20,57,08,111,39,41,07,108,35,61,03,257,38*48
$GLGSV,3,1,10,71,67,002,52,70,35,077,39,72,32,292,50,86,29,231,48*6E
$GLGSV,3,2,10,73,39,125,49,80,36,051,50,87,39,289,48,74,10,162,38*6A
$GLGSV,3,3,10,79,01,012,32,88,09,344,43*64
$GAGSV,3,1,10,05,74,279,49,36,27,188,42,23,10,032,,15,28,315,43*64
$GAGSV,3,2,10,31,20,082,41,06,23,069,41,03,22,257,42,09,46,065,46*65
$GAGSV,3,3,10,34,53,251,48,24,09,131,37*6A
$GBGSV,6,1,21,19,64,081,51,34,12,322,,35,10,224,42,05,23,129,39*6E
$GBGSV,6,2,21,37,15,039,41,36,30,158,46,16,18,044,39,20,17,098,43*6D
$GBGSV,6,3,21,12,23,296,42,06,21,045,39,44,22,269,45,09,34,050,41*68
$GBGSV,6,4,21,48,37,095,,58,38,084,,22,55,297,51,46,44,092,*65
$GBGSV,6,5,21,21,54,289,,39,08,042,39,11,03,342,,02,06,107,35*66
$GBGSV,6,6,21,60,08,111,41*52
$GPGGA,043037.00,,,,,0,00,,,M,,M,,*4B
$PTNL,GGK,043037.00,010125,4742.1603731,N,01618.1003738,E,1,42,0.8,EHT751.2982,M*41
$GPGGQ,043037.00,010125,4742.1603731,N,01618.1003738,E,1,42,0.846,708.0917,M*3F
$GPGFA,043037.00,3.334,5.825,0.351,0.298,345.092,0.710,,VVV*06
$GPLLK,043037.00,010125,,M,,M,1,42,0.8,,M*06
$GNGMP,043037.00,,,,,DAAA,42,0.4,,,,*57
$GPGMP,043037.00,,,,,,10,,,,1.5,136*7F
$GLGMP,043037.00,,,,,,09,,,,,*75
$GAGMP,043037.00,,,,,,09,,,,,*78
$GBGMP,043037.00,,,,,,14,,,,,*77
$PSSN,SNC,[0,275455000,2347]*40
$GPZDA,043042.00,01,01,2025,,*62
$GPDTM,W84,,00.0000000,N,00.0000000,E,00.0000000,W84*5F
$PSSN,TFM,043042.00,,,,*6E
$GPRMC,043042.00,A,4742.1603749,N,01618.1003764,E,0.0,,010125,5.1,E,D*1E
$GPGLL,4742.1603749,N,01618.1003764,E,043042.00,A,D*6F
$GPGGA,043042.00,4742.1603749,N,01618.1003764,E,2,42,0.4,708.0928,M,43.2066,M,2.5,0136*4A
$GNGNS,043042.00,4742.1603749,N,01618.1003764,E,DAAA,42,0.4,708.0928,43.2066,,*55
$GPGNS,043042.00,,,,,,10,,,,2.5,136*7E
$GLGNS,043042.00,,,,,,09,,,,,*77
$GAGNS,043042.00,,,,,,09,,,,,*7A
$GBGNS,043042.00,,,,,,14,,,,,*75
$GPLLQ,043042.00,010125,,M,,M,1,42,0.835,,M*18
$GPVTG,,T,,M,0.00,N,0.00,K,D*26
$GPHDT,,T*1B
$GPTHS,,V*0E
$GPROT,,V*08
$PSSN,HRP,043042.00,010125,,,,,,,00,0,,*60
$PTNL,AVR,043042.00,,Yaw,,Tilt,,,,0,,00*36
$GPGSA,A,3,03,04,06,07,09,11,16,20,26,30,,,0.8,0.4,0.7*34
$GPGSA,A,3,70,71,72,73,74,80,86,87,88,,,,0.8,0.4,0.7*33
$GPGSA,A,3,03,05,06,09,15,24,31,34,36,,,,0.8,0.4,0.7*32
$GPGSA,A,3,05,06,09,12,16,19,20,22,35,36,37,39,0.8,0.4,0.7*30
$GPGSA,A,3,44,60,,,,,,,,,,,0.8,0.4,0.7*3F
$GPGST,043042.00,1.872,0.348,0.293,345.424,0.345,0.297,0.700*54
$GPGBS,043042.00,1.956,1.609,4.774,26,0.0001,-1.684,1.321*79
$GPGRS,043042.00,1,-0.1,-0.1,-0.2,0.1,0.0,-0.4,0.6,0.9,-1.7,0.2,,*6E
$GPGRS,043042.00,1,-2.0,0.9,6.9,4.3,2.3,-1.8,-2.5,-3.6,-0.0,,,*45
$GPGRS,043042.00,1,-0.5,0.4,0.1,0.2,-0.1,-0.8,0.3,-0.2,-0.0,,,*46
$GPGRS,043042.00,1,2.4,0.3,0.3,1.4,0.3,0.2,1.2,-0.2,-1.4,-0.1,-1.0,-2.1*67
$GPGRS,043042.00,1,-0.1,-0.9,,,,,,,,,,*47
$GPGSV,5,1,20,09,74,048,50,03,16,125,40,30,22,202,42,20,25,307,42*78
$GPGSV,5,2,20,16,17,065,40,11,40,294,46,07,55,177,49,04,44,066,46*7E
$GPGSV,5,3,20,06,48,239,48,29,01,349,37,26,10,036,37,36,35,170,45*73
$GPGSV,5,4,20,58,13,245,38,40,24,132,36,34,31,208,43,49,34,195,45*74
$GPGSV,5,5,20,57,08,111,39,41,07,108,35,61,03,257,38*48
$GLGSV,3,1,10,71,67,002,52,70,35,077,39,72,32,292,49,86,28,231,48*67
$GLGSV,3,2,10,73,39,125,49,80,36,051,49,87,39,289,48,74,10,162,38*62
$GLGSV,3,3,10,79,01,012,32,88,09,344,44*63
$GAGSV,3,1,10,05,74,279,49,36,27,188,42,23,10,032,,15,28,315,42*65
$GAGSV,3,2,10,31,20,082,41,06,23,069,41,03,23,257,42,09,46,065,46*64
$GAGSV,3,3,10,34,53,251,48,24,09,131,37*6A
$GBGSV,6,1,21,19,64,081,51,34,12,322,,35,10,224,42,05,23,129,39*6E
$GBGSV,6,2,21,37,15,039,41,36,30,158,46,16,18,044,40,20,16,098,43*62
$GBGSV,6,3,21,12,23,296,42,06,21,045,39,44,22,269,44,09,34,050,41*69
$GBGSV,6,4,21,48,37,095,,58,38,084,,22,55,297,51,46,44,092,*65
$GBGSV,6,5,21,21,54,289,,39,08,042,39,11,03,342,,02,06,107,35*66
$GBGSV,6,6,21,60,08,111,41*52
$GPGGA,043042.00,,,,,0,00,,,M,,M,,*49
$PTNL,GGK,043042.00,010125,4742.1603749,N,01618.1003764,E,1,42,0.8,EHT751.2993,M*45
$GPGGQ,043042.00,010125,4742.1603749,N,01618.1003764,E,1,42,0.835,708.0928,M*33
$GPGFA,043042.00,3.307,5.744,0.348,0.293,345.424,0.700,,VVV*07
$GPLLK,043042.00,010125,,M,,M,1,42,0.8,,M*04
$GNGMP,043042.00,,,,,DAAA,42,0.4,,,,*55
$GPGMP,043042.00,,,,,,10,,,,2.5,136*7E
$GLGMP,043042.00,,,,,,09,,,,,*77
$GAGMP,043042.00,,,,,,09,,,,,*7A
$GBGMP,043042.00,,,,,,14,,,,,*75
$PSSN,SNC,[0,275460000,2347]*46
$GPZDA,043047.00,01,01,2025,,*67
$GPDTM,W84,,00.0000000,N,00.0000000,E,00.0000000,W84*5F
$PSSN,TFM,043047.00,,,,*6B
$GPRMC,043047.00,A,4742.1603751,N,01618.1003751,E,0.0,,010125,5.1,E,D*14
$GPGLL,4742.1603751,N,01618.1003751,E,043047.00,A,D*65
$GPGGA,043047.00,4742.1603751,N,01618.1003751,E,2,42,0.4,708.0934,M,43.2066,M,3.1,0136*48
$GNGNS,043047.00,4742.1603751,N,01618.1003751,E,DAAA,42,0.4,708.0934,43.2066,,*52
$GPGNS,043047.00,,,,,,10,,,,3.1,136*7E
$GLGNS,043047.00,,,,,,09,,,,,*72
$GAGNS,043047.00,,,,,,09,,,,,*7F
$GBGNS,043047.00,,,,,,14,,,,,*70
$GPLLQ,043047.00,010125,,M,,M,1,42,0.849,,M*16
$GPVTG,,T,,M,0.00,N,0.00,K,D*26
$GPHDT,,T*1B
$GPTHS,,V*0E
$GPROT,,V*08
$PSSN,HRP,043047.00,010125,,,,,,,00,0,,*65
$PTNL,AVR,043047.00,,Yaw,,Tilt,,,,0,,00*33
$GPGSA,A,3,03,04,06,07,09,11,16,20,26,30,,,0.8,0.4,0.7*34
$GPGSA,A,3,70,71,72,73,74,80,86,87,88,,,,0.8,0.4,0.7*33
$GPGSA,A,3,03,05,06,09,15,24,31,34,36,,,,0.8,0.4,0.7*32
$GPGSA,A,3,05,06,09,12,16,19,20,22,35,36,37,39,0.8,0.4,0.7*30
$GPGSA,A,3,44,60,,,,,,,,,,,0.8,0.4,0.7*3F
$GPGST,043047.00,1.906,0.352,0.299,344.875,0.349,0.303,0.713*59
$GPGBS,043047.00,2.006,1.628,4.781,72,0.0001,6.909,6.123*5C
$GPGRS,043047.00,1,-0.0,-0.0,-0.4,0.1,0.2,-0.4,0.8,0.6,-0.4,0.0,,*6E
$GPGRS,043047.00,1,-2.0,0.5,6.9,4.5,1.2,-2.2,-2.8,-4.3,-1.0,,,*4F
$GPGRS,043047.00,1,-0.6,0.2,0.2,0.1,0.2,-1.0,-0.1,0.1,0.2,,,*4F
$GPGRS,043047.00,1,2.3,0.4,0.4,0.9,-0.6,0.1,1.2,-0.2,-1.5,-0.3,-1.0,-2.1*41
$GPGRS,043047.00,1,-0.0,-1.1,,,,,,,,,,*4A
$GPGSV,5,1,20,09,74,048,50,03,15,125,40,30,22,202,42,20,25,307,42*7B
$GPGSV,5,2,20,16,17,065,40,11,40,294,45,07,55,177,49,04,44,066,46*7D
$GPGSV,5,3,20,06,48,239,48,29,01,349,37,26,10,036,38,36,35,170,45*7C
$GPGSV,5,4,20,58,13,245,38,40,24,132,36,34,31,208,44,49,34,195,45*73
$GPGSV,5,5,20,57,08,111,39,41,07,108,35,61,03,257,38*48
$GLGSV,3,1,10,71,67,002,52,70,35,077,40,72,32,292,49,86,28,231,48*69
$GLGSV,3,2,10,73,39,125,49,80,36,051,49,87,39,289,47,74,10,162,37*62
$GLGSV,3,3,10,79,01,012,32,88,09,344,44*63
$GAGSV,3,1,10,05,74,279,49,36,26,188,42,23,10,032,,15,28,315,42*64
$GAGSV,3,2,10,31,20,082,40,06,23,070,41,03,23,257,42,09,46,065,46*6D
$GAGSV,3,3,10,34,53,251,48,24,09,131,37*6A
$GBGSV,6,1,21,19,64,081,51,34,12,322,,35,10,224,42,05,23,129,38*6F
$GBGSV,6,2,21,37,15,039,41,16,18,044,39,12,23,296,42,36,30,158,46*66
$GBGSV,6,3,21,20,16,098,44,06,21,045,39,44,22,269,45,09,34,050,41*65
$GBGSV,6,4,21,48,37,095,,58,38,084,,22,55,297,51,46,44,092,*65
$GBGSV,6,5,21,21,55,289,,39,08,042,39,11,03,342,,02,06,107,35*67
$GBGSV,6,6,21,60,08,111,41*52
$GPGGA,043047.00,,,,,0,00,,,M,,M,,*4C
$PTNL,GGK,043047.00,010125,4742.1603751,N,01618.1003751,E,1,42,0.8,EHT751.2999,M*45
$GPGGQ,043047.00,010125,4742.1603751,N,01618.1003751,E,1,42,0.849,708.0934,M*3F
$GPGFA,043047.00,3.347,5.843,0.352,0.299,344.875,0.713,,VVV*04
$GPLLK,043047.00,010125,,M,,M,1,42,0.8,,M*01
$GNGMP,043047.00,,,,,DAAA,42,0.4,,,,*50
$GPGMP,043047.00,,,,,,10,,,,3.1,136*7E
$GLGMP,043047.00,,,,,,09,,,,,*72
$GAGMP,043047.00,,,,,,09,,,,,*7F
$GBGMP,043047.00,,,,,,14,,,,,*70
$PSSN,SNC,[0,275465000,2347]*43
$GPZDA,043052.00,01,01,2025,,*63
$GPDTM,W84,,00.0000000,N,00.0000000,E,00.0000000,W84*5F
$PSSN,TFM,043052.00,,,,*6F
$GPRMC,043052.00,A,4742.1603731,N,01618.1003728,E,0.0,,010125,5.1,E,D*18
$GPGLL,4742.1603731,N,01618.1003728,E,043052.00,A,D*69
$GPGGA,043052.00,4742.1603731,N,01618.1003728,E,2,42,0.4,708.0905,M,43.2066,M,2.9,0136*4F
$GNGNS,043052.00,4742.1603731,N,01618.1003728,E,DAAA,42,0.4,708.0905,43.2066,,*5C
$GPGNS,043052.00,,,,,,10,,,,2.9,136*73
$GLGNS,043052.00,,,,,,09,,,,,*76
$GAGNS,043052.00,,,,,,09,,,,,*7B
$GBGNS,043052.00,,,,,,14,,,,,*74
$GPLLQ,043052.00,010125,,M,,M,1,42,0.857,,M*1D
$GPVTG,,T,,M,0.00,N,0.01,K,D*27
$GPHDT,,T*1B
$GPTHS,,V*0E
$GPROT,,V*08
$PSSN,HRP,043052.00,010125,,,,,,,00,0,,*61
$PTNL,AVR,043052.00,,Yaw,,Tilt,,,,0,,00*37
$GPGSA,A,3,03,04,06,07,09,11,16,20,26,30,,,0.8,0.4,0.7*34
$GPGSA,A,3,70,71,72,73,74,80,86,87,88,,,,0.8,0.4,0.7*33
$GPGSA,A,3,03,05,06,09,15,24,31,34,36,,,,0.8,0.4,0.7*32
$GPGSA,A,3,05,06,09,12,16,19,20,22,35,36,37,39,0.8,0.4,0.7*30
$GPGSA,A,3,44,60,,,,,,,,,,,0.8,0.4,0.7*3F
$GPGST,043052.00,1.945,0.354,0.302,344.049,0.350,0.306,0.720*55
$GPGBS,043052.00,2.061,1.589,4.850,72,0.0001,7.304,6.123*54
$GPGRS,043052.00,1,-0.2,0.2,-0.4,0.1,0.1,-0.1,0.9,0.4,-0.8,-0.1,,*62
$GPGRS,043052.00,1,-2.3,0.4,7.3,4.0,1.0,-2.2,-3.3,-4.4,-1.1,,,*49
$GPGRS,043052.00,1,-0.9,0.2,0.1,-0.0,0.2,-1.2,-0.0,-0.3,-0.1,,,*69
$GPGRS,043052.00,1,2.0,-0.2,0.3,0.6,-0.3,-0.1,1.3,-0.4,-1.9,-0.2,-0.7,-2.2*42
$GPGRS,043052.00,1,0.1,-1.1,,,,,,,,,,*62
$GPGSV,5,1,20,09,74,048,50,03,15,125,40,30,22,202,42,20,25,307,42*7B
$GPGSV,5,2,20,16,17,065,40,11,40,294,45,07,55,177,49,04,44,066,46*7D
$GPGSV,5,3,20,06,48,239,48,29,01,349,36,26,10,036,37,36,35,170,45*72
$GPGSV,5,4,20,58,13,245,38,40,24,132,36,34,31,208,44,49,34,195,45*73
$GPGSV,5,5,20,57,08,111,39,41,07,108,35,61,03,257,38*48
$GLGSV,3,1,10,71,67,002,51,70,35,077,40,72,32,292,50,86,28,231,48*62
$GLGSV,3,2,10,73,39,125,49,80,36,051,50,87,39,289,47,74,10,162,37*6A
$GLGSV,3,3,10,79,01,012,32,88,09,344,44*63
$GAGSV,3,1,10,05,74,279,49,36,26,188,42,23,10,032,,15,28,315,42*64
$GAGSV,3,2,10,31,20,082,40,06,23,070,42,03,23,257,42,09,46,065,46*6E
$GAGSV,3,3,10,34,53,251,48,24,09,131,37*6A
$GBGSV,6,1,21,19,64,081,51,34,12,322,,35,10,224,42,05,23,129,39*6E
$GBGSV,6,2,21,37,15,038,42,16,18,044,40,12,23,295,42,36,30,158,46*69
$GBGSV,6,3,21,20,16,098,43,06,21,045,39,44,22,269,45,09,34,050,42*61
$GBGSV,6,4,21,48,37,095,,58,38,084,,22,55,297,51,46,45,092,*64
$GBGSV,6,5,21,21,55,289,,39,08,042,39,11,03,342,,02,06,107,35*67
$GBGSV,6,6,21,60,08,111,41*52
$GPGGA,043052.00,,,,,0,00,,,M,,M,,*48
$PTNL,GGK,043052.00,010125,4742.1603731,N,01618.1003728,E,1,42,0.8,EHT751.2970,M*4E
$GPGGQ,043052.00,010125,4742.1603731,N,01618.1003728,E,1,42,0.857,708.0905,M*3E
$GPGFA,043052.00,3.364,5.903,0.354,0.302,344.049,0.720,,VVV*06
$GPLLK,043052.00,010125,,M,,M,1,42,0.8,,M*05
$GNGMP,043052.00,,,,,DAAA,42,0.4,,,,*54
$GPGMP,043052.00,,,,,,10,,,,2.9,136*73
$GLGMP,043052.00,,,,,,09,,,,,*76
$GAGMP,043052.00,,,,,,09,,,,,*7B
$GBGMP,043052.00,,,,,,14,,,,,*74
$PSSN,SNC,[0,275470000,2347]*47
$GPZDA,043057.00,01,01,2025,,*66
$GPDTM,W84,,00.0000000,N,00.0000000,E,00.0000000,W84*5F
$PSSN,TFM,043057.00,,,,*6A
$GPRMC,043057.00,A,4742.1603725,N,01618.1003727,E,0.0,,010125,5.1,E,D*17
$GPGLL,4742.1603725,N,01618.1003727,E,043057.00,A,D*66
$GPGGA,043057.00,4742.1603725,N,01618.1003727,E,2,42,0.4,708.0858,M,43.2066,M,1.5,0136*46
$GNGNS,043057.00,4742.1603725,N,01618.1003727,E,DAAA,42,0.4,708.0858,43.2066,,*5A
$GPGNS,043057.00,,,,,,10,,,,1.5,136*79
$GLGNS,043057.00,,,,,,09,,,,,*73
$GAGNS,043057.00,,,,,,09,,,,,*7E
$GBGNS,043057.00,,,,,,14,,,,,*71
$GPLLQ,043057.00,010125,,M,,M,1,42,0.849,,M*17
$GPVTG,,T,,M,0.00,N,0.00,K,D*26
$GPHDT,,T*1B
$GPTHS,,V*0E
$GPROT,,V*08
$PSSN,HRP,043057.00,010125,,,,,,,00,0,,*64
$PTNL,AVR,043057.00,,Yaw,,Tilt,,,,0,,00*32
$GPGSA,A,3,03,04,06,07,09,11,16,20,26,30,,,0.8,0.4,0.7*34
$GPGSA,A,3,70,71,72,73,74,80,86,87,88,,,,0.8,0.4,0.7*33
$GPGSA,A,3,03,05,06,09,15,24,31,34,36,,,,0.8,0.4,0.7*32
$GPGSA,A,3,05,06,09,12,16,19,20,22,35,36,37,39,0.8,0.4,0.7*30
$GPGSA,A,3,44,60,,,,,,,,,,,0.8,0.4,0.7*3F
$GPGST,043057.00,1.972,0.351,0.299,345.325,0.348,0.302,0.713*57
$GPGBS,043057.00,1.927,1.593,4.711,72,0.0001,7.125,6.123*59
$GPGRS,043057.00,1,-0.3,-0.1,-0.7,0.3,0.3,0.3,0.3,0.5,-1.3,-0.0,,*64
$GPGRS,043057.00,1,-3.0,0.8,7.1,3.6,1.1,-1.6,-3.4,-5.0,-0.8,,,*4D
$GPGRS,043057.00,1,-0.4,0.2,-0.0,0.1,0.0,-1.1,0.1,-0.2,-0.1,,,*4D
$GPGRS,043057.00,1,2.0,-0.6,0.9,0.8,-0.0,-0.1,0.8,-0.4,-2.1,-0.2,-0.6,-1.9*4C
$GPGRS,043057.00,1,-0.4,-1.2,,,,,,,,,,*4C
$GPGSV,5,1,20,09,74,048,50,03,15,125,40,30,22,202,42,20,25,307,42*7B
$GPGSV,5,2,20,16,17,065,40,11,40,293,46,07,55,177,49,04,44,067,46*78
$GPGSV,5,3,20,06,48,239,48,29,01,349,37,26,10,036,37,36,35,170,45*73
$GPGSV,5,4,20,58,13,245,38,40,24,132,36,34,31,208,44,49,34,195,45*73
$GPGSV,5,5,20,57,08,111,39,41,07,108,35,61,03,257,38*48
$GLGSV,3,1,10,71,67,002,52,70,35,077,39,74,10,162,37,72,32,292,50*64
$GLGSV,3,2,10,86,28,231,47,73,39,125,49,80,36,051,49,87,39,289,46*67
$GLGSV,3,3,10,79,01,012,32,88,09,344,43*64
$GAGSV,3,1,10,05,74,279,49,36,26,188,43,23,10,032,,15,28,315,42*65
$GAGSV,3,2,10,31,20,082,40,06,23,070,42,03,23,257,42,09,46,065,46*6E
$GAGSV,3,3,10,34,53,251,48,24,09,131,37*6A
$GBGSV,6,1,21,19,64,081,52,34,12,322,,35,10,224,42,05,23,129,39*6D
$GBGSV,6,2,21,37,15,038,42,16,18,044,40,12,23,295,42,36,30,158,46*69
$GBGSV,6,3,21,20,16,098,43,06,21,045,39,44,22,269,44,09,34,050,42*60
$GBGSV,6,4,21,48,37,095,,58,38,084,,22,55,297,51,46,45,092,*64
$GBGSV,6,5,21,21,55,289,,39,08,042,40,11,03,342,,02,06,107,35*69
$GBGSV,6,6,21,60,08,111,41*52
$GPGGA,043057.00,,,,,0,00,,,M,,M,,*4D
$PTNL,GGK,043057.00,010125,4742.1603725,N,01618.1003727,E,1,42,0.8,EHT751.2924,M*40
$GPGGQ,043057.00,010125,4742.1603725,N,01618.1003727,E,1,42,0.849,708.0858,M*37
$GPGFA,043057.00,3.335,5.846,0.351,0.299,345.325,0.713,,VVV*09
$GPLLK,043057.00,010125,,M,,M,1,42,0.8,,M*00
$GNGMP,043057.00,,,,,DAAA,42,0.4,,,,*51
$GPGMP,043057.00,,,,,,10,,,,1.5,136*79
$GLGMP,043057.00,,,,,,09,,,,,*73
$GAGMP,043057.00,,,,,,09,,,,,*7E
$GBGMP,043057.00,,,,,,14,,,,,*71
$PSSN,SNC,[0,275475000,2347]*42
$GPZDA,043102.00,01,01,2025,,*67
$GPDTM,W84,,00.0000000,N,00.0000000,E,00.0000000,W84*5F
$PSSN,TFM,043102.00,,,,*6B
$GPRMC,043102.00,A,4742.1603713,N,01618.1003745,E,0.0,,010125,5.1,E,D*17
$GPGLL,4742.1603713,N,01618.1003745,E,043102.00,A,D*66
$GPGGA,043102.00,4742.1603713,N,01618.1003745,E,2,42,0.4,708.0841,M,43.2066,M,2.5,0136*4D
$GNGNS,043102.00,4742.1603713,N,01618.1003745,E,DAAA,42,0.4,708.0841,43.2066,,*52
$GPGNS,043102.00,,,,,,10,,,,2.5,136*7B
$GLGNS,043102.00,,,,,,09,,,,,*72
$GAGNS,043102.00,,,,,,09,,,,,*7F
$GBGNS,043102.00,,,,,,14,,,,,*70
$GPLLQ,043102.00,010125,,M,,M,1,42,0.838,,M*10
$GPVTG,,T,,M,0.00,N,0.01,K,D*27
$GPHDT,,T*1B
$GPTHS,,V*0E
$GPROT,,V*08
$PSSN,HRP,043102.00,010125,,,,,,,00,0,,*65
$PTNL,AVR,043102.00,,Yaw,,Tilt,,,,0,,00*33
$GPGSA,A,3,03,04,06,07,09,11,16,20,26,30,,,0.8,0.4,0.7*34
$GPGSA,A,3,70,71,72,73,74,80,86,87,88,,,,0.8,0.4,0.7*33
$GPGSA,A,3,03,05,06,09,15,24,31,34,36,,,,0.8,0.4,0.7*32
$GPGSA,A,3,05,06,09,12,16,19,20,22,35,36,37,39,0.8,0.4,0.7*30
$GPGSA,A,3,44,60,,,,,,,,,,,0.8,0.4,0.7*3F
$GPGST,043102.00,1.954,0.348,0.294,345.693,0.345,0.298,0.703*51
$GPGBS,043102.00,1.957,1.610,4.775,26,0.0001,-1.483,1.322*72
$GPGRS,043102.00,1,-0.4,0.2,-0.7,0.2,-0.1,0.3,0.4,0.8,-1.5,0.3,,*40
$GPGRS,043102.00,1,-2.3,1.2,6.6,4.1,2.1,-1.8,-3.0,-5.1,-2.0,,,*41
$GPGRS,043102.00,1,-0.4,0.2,-0.0,0.1,0.2,-0.8,0.2,-0.4,0.1,,,*6E
$GPGRS,043102.00,1,2.0,-0.1,1.0,-0.3,-0.0,0.1,0.6,-0.5,-1.8,-0.3,-0.8,-2.0*49
$GPGRS,043102.00,1,-0.1,-1.2,,,,,,,,,,*48
$GPGSV,5,1,20,09,74,048,50,03,15,125,41,30,22,202,42,20,25,307,43*7B
$GPGSV,5,2,20,16,17,065,40,11,40,293,46,07,55,177,49,04,44,067,46*78
$GPGSV,5,3,20,06,48,239,48,29,01,349,37,26,10,036,37,36,35,170,45*73
$GPGSV,5,4,20,58,13,245,37,40,24,132,36,34,31,208,43,49,34,195,45*7B
$GPGSV,5,5,20,57,08,111,39,41,07,108,35,61,03,257,38*48
$GLGSV,3,1,10,71,67,003,52,70,35,077,40,74,10,162,38,72,32,292,49*6C
$GLGSV,3,2,10,86,28,231,48,73,39,125,49,80,36,051,49,87,39,289,47*69
$GLGSV,3,3,10,79,01,012,32,88,09,344,43*64
$GAGSV,3,1,10,05,74,279,49,36,26,188,43,23,10,032,,15,28,315,42*65
$GAGSV,3,2,10,31,20,082,41,06,23,070,42,03,23,257,42,09,46,065,46*6F
$GAGSV,3,3,10,34,53,251,47,24,09,131,37*65
$GBGSV,6,1,21,19,64,081,52,34,12,322,,35,10,224,42,05,23,129,39*6D
$GBGSV,6,2,21,37,15,038,42,16,18,044,40,12,23,295,42,36,30,158,46*69
$GBGSV,6,3,21,20,16,098,42,06,21,045,39,44,22,269,45,09,34,050,42*60
$GBGSV,6,4,21,48,37,095,,58,38,084,,22,55,297,51,46,45,092,*64
$GBGSV,6,5,21,21,55,289,,39,08,042,40,11,03,342,,02,06,107,35*69
$GBGSV,6,6,21,60,08,111,41*52
$GPGGA,043102.00,,,,,0,00,,,M,,M,,*4C
$PTNL,GGK,043102.00,010125,4742.1603713,N,01618.1003745,E,1,42,0.8,EHT751.2906,M*40
$GPGGQ,043102.00,010125,4742.1603713,N,01618.1003745,E,1,42,0.838,708.0841,M*39
$GPGFA,043102.00,3.308,5.765,0.348,0.294,345.693,0.703,,VVV*04
$GPLLK,043102.00,010125,,M,,M,1,42,0.8,,M*01
$GNGMP,043102.00,,,,,DAAA,42,0.4,,,,*50
$GPGMP,043102.00,,,,,,10,,,,2.5,136*7B
$GLGMP,043102.00,,,,,,09,,,,,*72
$GAGMP,043102.00,,,,,,09,,,,,*7F
$GBGMP,043102.00,,,,,,14,,,,,*70
$PSSN,SNC,[0,275480000,2347]*48
$GPZDA,043107.00,01,01,2025,,*62
$GPDTM,W84,,00.0000000,N,00.0000000,E,00.0000000,W84*5F
$PSSN,TFM,043107.00,,,,*6E
$GPRMC,043107.00,A,4742.1603708,N,01618.1003763,E,0.0,,010125,5.1,E,D*1C
$GPGLL,4742.1603708,N,01618.1003763,E,043107.00,A,D*6D
$GPGGA,043107.00,4742.1603708,N,01618.1003763,E,2,42,0.4,708.0807,M,43.2066,M,3.1,0136*41
$GNGNS,043107.00,4742.1603708,N,01618.1003763,E,DAAA,42,0.4,708.0807,43.2066,,*5B
$GPGNS,043107.00,,,,,,10,,,,3.1,136*7B
$GLGNS,043107.00,,,,,,09,,,,,*77
$GAGNS,043107.00,,,,,,09,,,,,*7A
$GBGNS,043107.00,,,,,,14,,,,,*75
$GPLLQ,043107.00,010125,,M,,M,1,42,0.850,,M*1B
$GPVTG,,T,,M,0.00,N,0.01,K,D*27
$GPHDT,,T*1B
$GPTHS,,V*0E
$GPROT,,V*08
$PSSN,HRP,043107.00,010125,,,,,,,00,0,,*60
$PTNL,AVR,043107.00,,Yaw,,Tilt,,,,0,,00*36
$GPGSA,A,3,03,04,06,07,09,11,16,20,26,30,,,0.8,0.4,0.7*34
$GPGSA,A,3,70,71,72,73,74,80,86,87,88,,,,0.8,0.4,0.7*33
$GPGSA,A,3,03,05,06,09,15,24,31,34,36,,,,0.8,0.4,0.7*32
$GPGSA,A,3,05,06,09,12,16,19,20,22,35,36,37,39,0.8,0.4,0.7*30
$GPGSA,A,3,44,60,,,,,,,,,,,0.8,0.4,0.7*3F
$GPGST,043107.00,1.797,0.352,0.298,344.733,0.349,0.302,0.713*57
$GPGBS,043107.00,2.008,1.629,4.784,72,0.0001,6.400,6.123*57
$GPGRS,043107.00,1,-0.2,-0.0,-0.2,0.0,0.1,0.3,0.6,0.1,-1.2,0.1,,*48
$GPGRS,043107.00,1,-1.7,1.1,6.4,4.0,1.9,-2.2,-2.7,-4.0,-1.5,,,*41
$GPGRS,043107.00,1,-0.5,0.3,0.1,0.0,-0.2,-0.9,0.7,-0.2,-0.3,,,*46
$GPGRS,043107.00,1,1.7,0.5,0.8,0.8,0.1,0.2,0.2,-0.5,-1.7,-0.8,-0.6,-2.1*6E
$GPGRS,043107.00,1,-0.0,-1.1,,,,,,,,,,*4F
$GPGSV,5,1,20,09,74,048,50,03,15,125,40,30,22,202,43,20,25,307,42*7A
$GPGSV,5,2,20,16,17,065,41,11,40,293,46,07,55,177,49,04,44,067,46*79
$GPGSV,5,3,20,06,48,239,48,29,01,349,38,26,10,036,37,36,35,170,45*7C
$GPGSV,5,4,20,58,13,245,38,40,24,132,36,34,31,208,43,49,34,195,45*74
$GPGSV,5,5,20,57,08,111,39,41,07,108,35,61,03,257,38*48
$GLGSV,3,1,10,71,67,003,52,70,35,077,40,74,10,162,37,72,33,292,49*62
$GLGSV,3,2,10,86,28,231,47,73,39,125,49,80,36,051,49,87,39,289,47*66
$GLGSV,3,3,10,79,01,012,34,88,10,344,44*6D
$GAGSV,3,1,10,05,74,279,49,36,26,188,43,23,10,032,,15,28,315,43*64
$GAGSV,3,2,10,31,20,082,41,06,23,070,42,03,23,257,42,09,46,065,47*6E
$GAGSV,3,3,10,34,53,251,48,24,09,131,37*6A
$GBGSV,6,1,21,19,64,081,52,34,12,321,,35,10,224,42,05,23,129,39*6E
$GBGSV,6,2,21,37,15,038,42,16,18,044,40,12,23,295,42,36,30,158,45*6A
$GBGSV,6,3,21,20,16,098,42,06,21,045,39,44,22,269,44,09,34,050,42*61
$GBGSV,6,4,21,48,37,095,,58,38,084,,22,55,297,51,46,45,092,*64
$GBGSV,6,5,21,21,55,290,,39,08,042,40,11,03,342,,02,06,107,35*61
$GBGSV,6,6,21,60,08,111,41*52
$GPGGA,043107.00,,,,,0,00,,,M,,M,,*49
$PTNL,GGK,043107.00,010125,4742.1603708,N,01618.1003763,E,1,42,0.8,EHT751.2872,M*49
$GPGGQ,043107.00,010125,4742.1603708,N,01618.1003763,E,1,42,0.850,708.0807,M*3E
$GPGFA,043107.00,3.348,5.849,0.352,0.298,344.733,0.713,,VVV*08
$GPLLK,043107.00,010125,,M,,M,1,42,0.8,,M*04
$GNGMP,043107.00,,,,,DAAA,42,0.4,,,,*55
$GPGMP,043107.00,,,,,,10,,,,3.1,136*7B
$GLGMP,043107.00,,,,,,09,,,,,*77
$GAGMP,043107.00,,,,,,09,,,,,*7A
$GBGMP,043107.00,,,,,,14,,,,,*75
$PSSN,SNC,[0,275485000,2347]*4D
$GPZDA,043112.00,01,01,2025,,*66
$GPDTM,W84,,00.0000000,N,00.0000000,E,00.0000000,W84*5F
$PSSN,TFM,043112.00,,,,*6A
$GPRMC,043112.00,A,4742.1603704,N,01618.1003777,E,0.0,,010125,5.1,E,D*11
$GPGLL,4742.1603704,N,01618.1003777,E,043112.00,A,D*60
$GPGGA,043112.00,4742.1603704,N,01618.1003777,E,2,42,0.4,708.0767,M,43.2066,M,2.9,0136*4C
$GNGNS,043112.00,4742.1603704,N,01618.1003777,E,DAAA,42,0.4,708.0767,43.2066,,*5F
$GPGNS,043112.00,,,,,,10,,,,2.9,136*76
$GLGNS,043112.00,,,,,,09,,,,,*73
$GAGNS,043112.00,,,,,,09,,,,,*7E
$GBGNS,043112.00,,,,,,14,,,,,*71
$GPLLQ,043112.00,010125,,M,,M,1,42,0.856,,M*19
$GPVTG,,T,,M,0.00,N,0.00,K,D*26
$GPHDT,,T*1B
$GPTHS,,V*0E
$GPROT,,V*08
$PSSN,HRP,043112.00,010125,,,,,,,00,0,,*64
$PTNL,AVR,043112.00,,Yaw,,Tilt,,,,0,,00*32
$GPGSA,A,3,03,04,06,07,09,11,16,20,26,30,,,0.8,0.4,0.7*34
$GPGSA,A,3,70,71,72,73,74,80,86,87,88,,,,0.8,0.4,0.7*33
$GPGSA,A,3,03,05,06,09,15,24,31,34,36,,,,0.8,0.4,0.7*32
$GPGSA,A,3,05,06,09,12,16,19,20,22,35,36,37,39,0.8,0.4,0.7*30
$GPGSA,A,3,44,60,,,,,,,,,,,0.8,0.4,0.7*3F
$GPGST,043112.00,1.798,0.353,0.301,343.860,0.349,0.305,0.720*55
$GPGBS,043112.00,2.060,1.585,4.835,72,0.0001,6.481,6.123*54
$GPGRS,043112.00,1,-0.3,-0.1,-0.5,0.1,0.3,0.0,0.7,0.4,-1.4,-0.1,,*64
$GPGRS,043112.00,1,-2.0,0.8,6.5,4.5,1.6,-1.9,-2.6,-3.8,-1.2,,,*43
$GPGRS,043112.00,1,-0.2,0.3,0.2,0.1,0.2,-0.7,0.3,-0.0,-0.3,,,*62
$GPGRS,043112.00,1,1.8,0.5,0.8,0.1,0.3,0.1,0.5,-0.5,-1.9,0.1,-0.2,-2.0*45
$GPGRS,043112.00,1,-0.1,-1.0,,,,,,,,,,*4B
$GPGSV,5,1,20,09,73,048,50,03,15,125,41,30,22,202,43,20,25,307,42*7C
$GPGSV,5,2,20,16,17,065,40,11,40,293,46,07,55,177,49,04,44,067,46*78
$GPGSV,5,3,20,06,48,239,48,29,01,349,37,26,10,036,37,36,35,170,45*73
$GPGSV,5,4,20,58,13,245,38,40,24,132,36,34,31,208,44,49,34,195,45*73
$GPGSV,5,5,20,57,08,111,39,41,07,108,35,61,03,257,38*48
$GLGSV,3,1,10,71,67,003,51,70,35,077,39,74,10,162,37,72,33,292,49*6F
$GLGSV,3,2,10,86,28,231,48,73,39,125,49,80,36,051,50,87,39,289,47*61
$GLGSV,3,3,10,79,01,012,34,88,10,344,43*6A
$GAGSV,3,1,10,05,74,279,49,36,26,188,42,23,10,032,,15,28,315,43*65
$GAGSV,3,2,10,31,20,082,41,06,23,070,41,03,23,257,42,09,46,065,46*6C
$GAGSV,3,3,10,34,53,251,47,24,09,131,37*65
$GBGSV,6,1,21,19,64,081,51,34,12,321,,35,10,224,42,05,23,129,39*6D
$GBGSV,6,2,21,37,15,038,42,16,18,044,40,12,23,295,42,36,30,158,45*6A
$GBGSV,6,3,21,20,16,098,43,06,21,045,39,44,22,269,44,09,34,050,42*60
$GBGSV,6,4,21,48,37,095,,58,38,084,,22,55,297,51,46,45,092,*64
$GBGSV,6,5,21,21,55,290,,39,08,042,40,11,03,342,,02,06,107,35*61
$GBGSV,6,6,21,60,08,111,41*52
$GPGGA,043112.00,,,,,0,00,,,M,,M,,*4D
$PTNL,GGK,043112.00,010125,4742.1603704,N,01618.1003777,E,1,42,0.8,EHT751.2832,M*40
$GPGGQ,043112.00,010125,4742.1603704,N,01618.1003777,E,1,42,0.856,708.0767,M*3C
$GPGFA,043112.00,3.355,5.903,0.353,0.301,343.860,0.720,,VVV*01
$GPLLK,043112.00,010125,,M,,M,1,42,0.8,,M*00
$GNGMP,043112.00,,,,,DAAA,42,0.4,,,,*51
$GPGMP,043112.00,,,,,,10,,,,2.9,136*76
$GLGMP,043112.00,,,,,,09,,,,,*73
$GAGMP,043112.00,,,,,,09,,,,,*7E
$GBGMP,043112.00,,,,,,14,,,,,*71
$PSSN,SNC,[0,275490000,2347]*49
$GPZDA,043117.00,01,01,2025,,*63
$GPDTM,W84,,00.0000000,N,00.0000000,E,00.0000000,W84*5F
$PSSN,TFM,043117.00,,,,*6F
$GPRMC,043117.00,A,4742.1603714,N,01618.1003793,E,0.0,,010125,5.1,E,D*1F
$GPGLL,4742.1603714,N,01618.1003793,E,043117.00,A,D*6E
$GPGGA,043117.00,4742.1603714,N,01618.1003793,E,2,42,0.4,708.0765,M,43.2066,M,1.5,0136*4F
$GNGNS,043117.00,4742.1603714,N,01618.1003793,E,DAAA,42,0.4,708.0765,43.2066,,*53
$GPGNS,043117.00,,,,,,10,,,,1.5,136*7C
$GLGNS,043117.00,,,,,,09,,,,,*76
$GAGNS,043117.00,,,,,,09,,,,,*7B
$GBGNS,043117.00,,,,,,14,,,,,*74
$GPLLQ,043117.00,010125,,M,,M,1,42,0.847,,M*1C
$GPVTG,,T,,M,0.00,N,0.00,K,D*26
$GPHDT,,T*1B
$GPTHS,,V*0E
$GPROT,,V*08
$PSSN,HRP,043117.00,010125,,,,,,,00,0,,*61
$PTNL,AVR,043117.00,,Yaw,,Tilt,,,,0,,00*37
$GPGSA,A,3,03,04,06,07,09,11,16,20,26,30,,,0.8,0.4,0.7*34
$GPGSA,A,3,70,71,72,73,74,80,86,87,88,,,,0.8,0.4,0.7*33
$GPGSA,A,3,03,05,06,09,15,24,31,34,36,,,,0.8,0.4,0.7*32
$GPGSA,A,3,05,06,09,12,16,19,20,22,35,36,37,39,0.8,0.4,0.7*30
$GPGSA,A,3,44,60,,,,,,,,,,,0.8,0.4,0.7*3F
$GPGST,043117.00,1.884,0.350,0.297,344.798,0.346,0.301,0.712*5A
$GPGBS,043117.00,1.926,1.588,4.697,26,0.0001,-1.416,1.316*74
$GPGRS,043117.00,1,-0.2,-0.4,-0.5,0.3,0.2,0.1,0.4,0.6,-1.4,0.3,,*49
$GPGRS,043117.00,1,-2.9,0.2,6.5,4.7,2.2,-1.0,-3.0,-3.8,-1.2,,,*4E
$GPGRS,043117.00,1,-0.1,0.4,0.3,-0.1,0.2,-1.0,0.2,0.0,-0.3,,,*65
$GPGRS,043117.00,1,2.2,0.4,0.6,-0.2,0.3,-0.1,0.4,-0.5,-2.0,0.5,-0.3,-2.0*4B
$GPGRS,043117.00,1,0.1,-1.2,,,,,,,,,,*61
$GPGSV,5,1,20,09,73,048,50,03,15,125,41,30,22,202,43,20,25,307,42*7C
$GPGSV,5,2,20,16,17,065,40,11,40,293,46,07,55,177,49,04,44,067,46*78
$GPGSV,5,3,20,06,48,239,48,29,01,349,36,26,10,036,36,36,35,170,45*73
$GPGSV,5,4,20,58,13,245,37,40,24,132,36,34,31,208,43,49,34,195,45*7B
$GPGSV,5,5,20,57,08,111,39,41,07,108,35,61,03,257,38*48
$GLGSV,3,1,10,71,67,003,52,70,35,077,39,74,10,162,38,72,33,292,49*63
$GLGSV,3,2,10,86,28,231,48,73,39,125,49,80,36,051,50,87,39,289,47*61
$GLGSV,3,3,10,79,01,012,33,88,10,344,43*6D
$GAGSV,3,1,10,05,74,279,49,36,26,188,42,23,10,032,,15,28,315,42*64
