$GPZDA,094442.00,01,01,2025,,*6C
$GPDTM,W84,,00.0000000,N,00.0000000,E,00.0000000,W84*5F
$PSSN,TFM,094442.00,,,,*60
$GPRMC,094442.00,A,4742.1600261,N,01618.1001035,E,0.0,,010125,5.1,E,D*1D
$GPGLL,4742.1600261,N,01618.1001035,E,094442.00,A,D*6C
$GPGGA,094442.00,4742.1600261,N,01618.1001035,E,2,34,0.5,708.9023,M,43.2066,M,2.4,0136*43
$GNGNS,094442.00,4742.1600261,N,01618.1001035,E,DAAA,34,0.5,708.9023,43.2066,,*5D
$GPGNS,094442.00,,,,,,09,,,,2.4,136*79
$GLGNS,094442.00,,,,,,07,,,,,*77
$GAGNS,094442.00,,,,,,07,,,,,*7A
$GBGNS,094442.00,,,,,,11,,,,,*7E
$GPLLQ,094442.00,010125,,M,,M,1,34,0.955,,M*10
$GPVTG,,T,,M,0.01,N,0.01,K,D*26
$GPHDT,,T*1B
$GPTHS,,V*0E
$GPROT,,V*08
$PSSN,HRP,094442.00,010125,,,,,,,00,0,,*6E
$PTNL,AVR,094442.00,,Yaw,,Tilt,,,,0,,00*38
$GPGSA,A,3,05,13,14,15,17,19,23,24,30,,,,0.8,0.5,0.7*34
$GPGSA,A,3,65,66,67,75,76,77,85,,,,,,0.8,0.5,0.7*34
$GPGSA,A,3,02,03,07,08,24,25,30,,,,,,0.8,0.5,0.7*34
$GPGSA,A,3,05,07,10,14,21,26,33,40,42,45,60,,0.8,0.5,0.7*3C
$GPGST,094442.00,2.365,0.496,0.303,11.197,0.490,0.313,0.758*68
$GPGBS,094442.00,2.877,1.670,4.738,67,0.0001,8.674,6.212*58
$GPGRS,094442.00,1,-0.2,-0.1,-0.4,-0.1,-0.2,0.8,0.6,0.1,-0.0,,,*64
$GPGRS,094442.00,1,0.8,-0.8,8.7,-1.9,-0.8,-6.5,3.1,,,,,*61
$GPGRS,094442.00,1,-0.0,-0.0,0.4,-0.0,1.5,-0.2,-0.3,,,,,*43
$GPGRS,094442.00,1,1.1,1.2,-0.3,2.5,0.0,0.2,-0.4,-1.3,0.2,-1.3,-1.2,*42
$GPGSV,6,1,22,22,68,077,,19,21,139,42,05,12,209,41,23,24,306,43*7B
$GPGSV,6,2,22,30,19,089,41,17,33,107,45,14,47,059,46,24,33,282,43*72
$GPGSV,6,3,22,13,68,150,50,15,66,265,49,21,00,030,,10,03,340,39*76
$GPGSV,6,4,22,12,05,220,39,36,35,170,44,58,13,245,36,40,23,133,36*7A
$GPGSV,6,5,22,34,31,208,42,49,34,195,44,57,07,112,37,41,07,108,35*7A
$GPGSV,6,6,22,61,03,257,38*46
$GLGSV,2,1,08,76,70,275,52,84,14,033,32,67,23,328,47,77,24,245,41*6D
$GLGSV,2,2,08,65,41,179,47,75,40,045,50,66,70,279,52,85,09,083,41*63
$GAGSV,3,1,10,08,69,291,48,30,13,218,39,07,17,310,39,16,31,051,*62
$GAGSV,3,2,10,03,53,148,47,25,55,061,46,02,63,196,49,05,04,137,*61
$GAGSV,3,3,10,24,06,046,36,33,03,353,34*6F
$GBGSV,5,1,20,26,70,262,51,33,20,320,43,40,28,046,43,05,20,130,38*6D
$GBGSV,5,2,20,25,17,241,,21,36,189,48,07,28,058,41,14,40,301,45*65
$GBGSV,5,3,20,56,33,080,,10,36,070,42,50,51,217,,45,49,063,48*61
$GBGSV,5,4,20,42,55,264,50,24,68,239,,36,02,068,37,35,01,140,*64
$GBGSV,5,5,20,09,02,091,31,29,07,043,,02,04,109,31,60,07,112,40*68
$GPGGA,094442.00,,,,,0,00,,,M,,M,,*47
$PTNL,GGK,094442.00,010125,4742.1600261,N,01618.1001035,E,1,34,0.8,EHT752.1089,M*45
$GPGGQ,094442.00,010125,4742.1600261,N,01618.1001035,E,1,34,0.955,708.9023,M*3D
$GPGFA,094442.00,4.716,6.213,0.496,0.303,11.197,0.758,,VVV*30
$GPLLK,094442.00,010125,,M,,M,1,34,0.9,,M*0A
$GNGMP,094442.00,,,,,DAAA,34,0.5,,,,*5B
$GPGMP,094442.00,,,,,,09,,,,2.4,136*79
$GLGMP,094442.00,,,,,,07,,,,,*77
$GAGMP,094442.00,,,,,,07,,,,,*7A
$GBGMP,094442.00,,,,,,11,,,,,*7E
$PSSN,SNC,[0,294300000,2347]*48
$GPZDA,094447.00,01,01,2025,,*69
$GPDTM,W84,,00.0000000,N,00.0000000,E,00.0000000,W84*5F
$PSSN,TFM,094447.00,,,,*65
$GPRMC,094447.00,A,4742.1600275,N,01618.1001043,E,0.0,,010125,5.1,E,D*1C
$GPGLL,4742.1600275,N,01618.1001043,E,094447.00,A,D*6D
$GPGGA,094447.00,4742.1600275,N,01618.1001043,E,2,34,0.5,708.9058,M,43.2066,M,3.4,0136*4F
$GNGNS,094447.00,4742.1600275,N,01618.1001043,E,DAAA,34,0.5,708.9058,43.2066,,*50
$GPGNS,094447.00,,,,,,09,,,,3.4,136*7D
$GLGNS,094447.00,,,,,,07,,,,,*72
$GAGNS,094447.00,,,,,,07,,,,,*7F
$GBGNS,094447.00,,,,,,11,,,,,*7B
$GPLLQ,094447.00,010125,,M,,M,1,34,0.969,,M*1A
$GPVTG,,T,,M,0.00,N,0.01,K,D*27
$GPHDT,,T*1B
$GPTHS,,V*0E
$GPROT,,V*08
$PSSN,HRP,094447.00,010125,,,,,,,00,0,,*6B
$PTNL,AVR,094447.00,,Yaw,,Tilt,,,,0,,00*3D
$GPGSA,A,3,05,13,14,15,17,19,23,24,30,,,,0.8,0.5,0.7*34
$GPGSA,A,3,65,66,67,75,76,77,85,,,,,,0.8,0.5,0.7*34
$GPGSA,A,3,02,03,07,08,24,25,30,,,,,,0.8,0.5,0.7*34
$GPGSA,A,3,05,07,10,14,21,26,33,40,42,45,60,,0.8,0.5,0.7*3C
$GPGST,094447.00,2.477,0.502,0.307,10.937,0.497,0.317,0.770*6B
$GPGBS,094447.00,2.914,1.695,4.830,67,0.0001,8.339,6.212*59
$GPGRS,094447.00,1,-0.1,0.2,-0.5,-0.1,-0.2,0.7,0.6,-0.4,0.1,,,*46
$GPGRS,094447.00,1,0.3,-0.8,8.3,-1.9,-0.7,-8.2,2.4,,,,,*69
$GPGRS,094447.00,1,0.0,-0.2,-0.0,0.0,1.4,-0.3,-0.0,,,,,*6E
$GPGRS,094447.00,1,1.1,1.5,-0.1,2.5,-0.0,0.1,-0.3,-1.3,0.1,-1.6,-1.0,*6F
$GPGSV,6,1,22,22,68,076,,19,21,139,42,05,12,209,40,23,24,306,43*7B
$GPGSV,6,2,22,30,19,089,41,17,33,107,46,14,47,059,46,24,33,282,43*71
$GPGSV,6,3,22,13,67,150,50,15,66,264,49,21,00,030,,10,03,340,39*78
$GPGSV,6,4,22,12,05,220,39,36,35,170,44,58,13,245,36,40,23,133,36*7A
$GPGSV,6,5,22,34,31,208,42,49,34,195,44,57,07,112,37,41,07,108,35*7A
$GPGSV,6,6,22,61,03,257,38*46
$GLGSV,2,1,08,76,70,275,52,84,14,032,32,67,23,328,46,77,24,245,41*6D
$GLGSV,2,2,08,65,41,179,47,75,40,045,50,66,70,279,53,85,09,083,42*61
$GAGSV,3,1,10,08,69,291,48,30,13,218,39,07,17,310,39,16,31,051,*62
$GAGSV,3,2,10,03,53,148,47,25,55,061,46,02,63,196,49,05,04,137,*61
$GAGSV,3,3,10,24,06,046,36,33,03,353,34*6F
$GBGSV,5,1,20,26,70,262,51,33,20,320,43,40,28,046,43,05,20,130,38*6D
$GBGSV,5,2,20,25,17,241,,21,36,189,48,07,28,058,42,14,40,301,46*65
$GBGSV,5,3,20,56,33,080,,10,36,070,42,50,51,217,,45,49,063,48*61
$GBGSV,5,4,20,42,55,264,50,24,68,239,,36,02,068,37,35,01,140,*64
$GBGSV,5,5,20,09,02,091,31,29,07,043,,02,04,109,31,60,07,112,40*68
$GPGGA,094447.00,,,,,0,00,,,M,,M,,*42
$PTNL,GGK,094447.00,010125,4742.1600275,N,01618.1001043,E,1,34,0.8,EHT752.1124,M*42
$GPGGQ,094447.00,010125,4742.1600275,N,01618.1001043,E,1,34,0.969,708.9058,M*3F
$GPGFA,094447.00,4.777,6.312,0.502,0.307,10.937,0.770,,VVV*33
$GPLLK,094447.00,010125,,M,,M,1,34,0.9,,M*0F
$GNGMP,094447.00,,,,,DAAA,34,0.5,,,,*5E
$GPGMP,094447.00,,,,,,09,,,,3.4,136*7D
$GLGMP,094447.00,,,,,,07,,,,,*72
$GAGMP,094447.00,,,,,,07,,,,,*7F
$GBGMP,094447.00,,,,,,11,,,,,*7B
$PSSN,SNC,[0,294305000,2347]*4D
$GPZDA,094452.00,01,01,2025,,*6D
$GPDTM,W84,,00.0000000,N,00.0000000,E,00.0000000,W84*5F
$PSSN,TFM,094452.00,,,,*61
$GPRMC,094452.00,A,4742.1600258,N,01618.1001044,E,0.0,,010125,5.1,E,D*10
$GPGLL,4742.1600258,N,01618.1001044,E,094452.00,A,D*61
$GPGGA,094452.00,4742.1600258,N,01618.1001044,E,2,34,0.5,708.9086,M,43.2066,M,2.2,0136*47
$GNGNS,094452.00,4742.1600258,N,01618.1001044,E,DAAA,34,0.5,708.9086,43.2066,,*5F
$GPGNS,094452.00,,,,,,09,,,,2.2,136*7E
$GLGNS,094452.00,,,,,,07,,,,,*76
$GAGNS,094452.00,,,,,,07,,,,,*7B
$GBGNS,094452.00,,,,,,11,,,,,*7F
$GPLLQ,094452.00,010125,,M,,M,1,34,0.974,,M*12
$GPVTG,,T,,M,0.00,N,0.01,K,D*27
$GPHDT,,T*1B
$GPTHS,,V*0E
$GPROT,,V*08
$PSSN,HRP,094452.00,010125,,,,,,,00,0,,*6F
$PTNL,AVR,094452.00,,Yaw,,Tilt,,,,0,,00*39
$GPGSA,A,3,05,13,14,15,17,19,23,24,30,,,,0.8,0.5,0.7*34
$GPGSA,A,3,65,66,67,75,76,77,85,,,,,,0.8,0.5,0.7*34
$GPGSA,A,3,02,03,07,08,24,25,30,,,,,,0.8,0.5,0.7*34
$GPGSA,A,3,05,07,10,14,21,26,33,40,42,45,60,,0.8,0.5,0.7*3C
$GPGST,094452.00,2.229,0.507,0.306,11.479,0.500,0.317,0.773*6C
$GPGBS,094452.00,2.931,1.644,4.571,67,0.0001,7.271,6.211*5F
$GPGRS,094452.00,1,-0.8,0.0,-0.1,-0.2,-0.1,0.5,0.5,0.3,-0.2,,,*48
$GPGRS,094452.00,1,0.4,-0.7,7.3,-1.7,-0.7,-7.2,3.2,,,,,*6C
$GPGRS,094452.00,1,-0.2,-0.3,0.0,-0.0,1.3,-0.3,-0.1,,,,,*42
$GPGRS,094452.00,1,1.4,1.4,0.2,2.0,0.0,-0.0,-0.3,-1.1,0.2,-1.5,-0.9,*4F
$GPGSV,6,1,22,22,68,076,,19,21,139,42,05,12,209,40,23,24,306,43*7B
$GPGSV,6,2,22,30,19,089,41,17,33,106,46,14,47,059,46,24,34,282,43*77
$GPGSV,6,3,22,13,67,150,49,15,66,264,49,21,00,030,,10,03,340,40*7E
$GPGSV,6,4,22,12,05,220,39,36,35,170,44,58,13,245,36,40,23,133,36*7A
$GPGSV,6,5,22,34,31,208,42,49,34,195,44,57,07,112,37,41,07,108,35*7A
$GPGSV,6,6,22,61,03,257,38*46
$GLGSV,2,1,08,76,70,275,52,84,14,032,32,67,23,328,46,77,25,245,41*6C
$GLGSV,2,2,08,65,41,179,47,75,40,045,49,66,70,279,52,85,09,083,42*68
$GAGSV,3,1,10,08,69,290,48,30,13,218,39,07,17,310,38,16,31,051,*62
$GAGSV,3,2,10,03,53,148,47,25,55,061,46,02,64,196,48,05,04,137,*67
$GAGSV,3,3,10,24,06,046,36,33,03,353,34*6F
$GBGSV,5,1,20,26,70,262,51,33,20,320,42,40,28,046,43,05,20,130,38*6C
$GBGSV,5,2,20,25,17,241,,21,36,189,48,07,28,058,41,14,40,301,45*65
$GBGSV,5,3,20,56,33,080,,10,36,070,42,50,51,217,,45,49,063,48*61
$GBGSV,5,4,20,42,55,264,50,24,68,240,,36,02,068,36,35,01,140,*6B
$GBGSV,5,5,20,09,02,092,31,29,07,043,,02,04,109,31,60,07,112,40*6B
$GPGGA,094452.00,,,,,0,00,,,M,,M,,*46
$PTNL,GGK,094452.00,010125,4742.1600258,N,01618.1001044,E,1,34,0.8,EHT752.1151,M*4C
$GPGGQ,094452.00,010125,4742.1600258,N,01618.1001044,E,1,34,0.974,708.9086,M*3C
$GPGFA,094452.00,4.816,6.339,0.507,0.306,11.479,0.773,,VVV*37
$GPLLK,094452.00,010125,,M,,M,1,34,0.9,,M*0B
$GNGMP,094452.00,,,,,DAAA,34,0.5,,,,*5A
$GPGMP,094452.00,,,,,,09,,,,2.2,136*7E
$GLGMP,094452.00,,,,,,07,,,,,*76
$GAGMP,094452.00,,,,,,07,,,,,*7B
$GBGMP,094452.00,,,,,,11,,,,,*7F
$PSSN,SNC,[0,294310000,2347]*49
$GPZDA,094457.00,01,01,2025,,*68
$GPDTM,W84,,00.0000000,N,00.0000000,E,00.0000000,W84*5F
$PSSN,TFM,094457.00,,,,*64
$GPRMC,094457.00,A,4742.1600250,N,01618.1001070,E,0.0,,010125,5.1,E,D*1A
$GPGLL,4742.1600250,N,01618.1001070,E,094457.00,A,D*6B
$GPGGA,094457.00,4742.1600250,N,01618.1001070,E,2,34,0.5,708.9123,M,43.2066,M,1.9,0136*4B
$GNGNS,094457.00,4742.1600250,N,01618.1001070,E,DAAA,34,0.5,708.9123,43.2066,,*5B
$GPGNS,094457.00,,,,,,09,,,,1.9,136*73
$GLGNS,094457.00,,,,,,07,,,,,*73
$GAGNS,094457.00,,,,,,07,,,,,*7E
$GBGNS,094457.00,,,,,,11,,,,,*7A
$GPLLQ,094457.00,010125,,M,,M,1,34,0.960,,M*12
$GPVTG,,T,,M,0.01,N,0.01,K,D*26
$GPHDT,,T*1B
$GPTHS,,V*0E
$GPROT,,V*08
$PSSN,HRP,094457.00,010125,,,,,,,00,0,,*6A
$PTNL,AVR,094457.00,,Yaw,,Tilt,,,,0,,00*3C
$GPGSA,A,3,05,13,14,15,17,19,23,24,30,,,,0.8,0.5,0.7*34
$GPGSA,A,3,65,66,67,75,76,77,85,,,,,,0.8,0.5,0.7*34
$GPGSA,A,3,02,03,07,08,24,25,30,,,,,,0.8,0.5,0.7*34
$GPGSA,A,3,05,07,10,14,21,26,33,40,42,45,60,,0.8,0.5,0.7*3C
$GPGST,094457.00,2.208,0.501,0.301,11.806,0.494,0.312,0.761*65
$GPGBS,094457.00,2.841,1.651,4.661,67,0.0001,7.421,6.211*59
$GPGRS,094457.00,1,-0.5,0.2,-0.0,-0.2,-0.3,0.5,0.4,0.2,-0.5,,,*46
$GPGRS,094457.00,1,0.5,-0.8,7.4,-2.3,-0.5,-6.7,3.6,,,,,*65
$GPGRS,094457.00,1,0.0,-0.2,0.2,0.1,1.6,-0.1,-0.4,,,,,*45
$GPGRS,094457.00,1,0.4,1.6,0.8,1.6,-0.1,0.1,0.2,-1.0,0.0,-1.4,-0.6,*67
$GPGSV,6,1,22,22,68,076,,19,21,139,42,05,12,209,39,23,24,306,43*75
$GPGSV,6,2,22,30,19,089,40,17,33,106,46,14,47,059,46,24,34,282,44*71
$GPGSV,6,3,22,13,67,150,50,15,66,264,49,21,00,030,,10,03,340,40*76
$GPGSV,6,4,22,12,05,220,39,36,35,170,44,58,13,245,36,40,23,133,36*7A
$GPGSV,6,5,22,34,31,208,42,49,34,195,44,57,07,112,37,41,07,108,35*7A
$GPGSV,6,6,22,61,03,257,38*46
$GLGSV,2,1,08,76,70,275,52,84,14,032,33,67,23,328,47,77,25,245,42*6F
$GLGSV,2,2,08,65,41,179,47,75,40,045,49,66,70,279,52,85,09,083,43*69
$GAGSV,3,1,10,08,69,290,48,30,13,218,39,07,17,310,38,16,31,051,*62
$GAGSV,3,2,10,03,53,148,47,25,55,061,46,02,64,196,48,05,04,137,*67
$GAGSV,3,3,10,24,06,046,36,33,03,353,34*6F
$GBGSV,5,1,20,26,70,262,51,33,20,320,43,40,28,046,43,05,20,130,37*62
$GBGSV,5,2,20,25,17,241,,21,36,189,48,07,28,058,41,14,40,301,45*65
$GBGSV,5,3,20,56,33,080,,10,36,070,42,50,51,217,,45,49,063,48*61
$GBGSV,5,4,20,42,55,264,49,24,68,240,,36,02,068,37,35,01,140,*62
$GBGSV,5,5,20,09,02,092,31,29,07,043,,02,04,109,31,60,07,112,40*6B
$GPGGA,094457.00,,,,,0,00,,,M,,M,,*43
$PTNL,GGK,094457.00,010125,4742.1600250,N,01618.1001070,E,1,34,0.8,EHT752.1189,M*43
$GPGGQ,094457.00,010125,4742.1600250,N,01618.1001070,E,1,34,0.960,708.9123,M*3D
$GPGFA,094457.00,4.761,6.242,0.501,0.301,11.806,0.761,,VVV*36
$GPLLK,094457.00,010125,,M,,M,1,34,0.9,,M*0E
$GNGMP,094457.00,,,,,DAAA,34,0.5,,,,*5F
$GPGMP,094457.00,,,,,,09,,,,1.9,136*73
$GLGMP,094457.00,,,,,,07,,,,,*73
$GAGMP,094457.00,,,,,,07,,,,,*7E
$GBGMP,094457.00,,,,,,11,,,,,*7A
$PSSN,SNC,[0,294315000,2347]*4C
$GPZDA,094502.00,01,01,2025,,*69
$GPDTM,W84,,00.0000000,N,00.0000000,E,00.0000000,W84*5F
$PSSN,TFM,094502.00,,,,*65
$GPRMC,094502.00,A,4742.1600216,N,01618.1001076,E,0.0,,010125,5.1,E,D*1F
$GPGLL,4742.1600216,N,01618.1001076,E,094502.00,A,D*6E
$GPGGA,094502.00,4742.1600216,N,01618.1001076,E,2,34,0.5,708.9104,M,43.2066,M,2.4,0136*45
$GNGNS,094502.00,4742.1600216,N,01618.1001076,E,DAAA,34,0.5,708.9104,43.2066,,*5B
$GPGNS,094502.00,,,,,,09,,,,2.4,136*7C
$GLGNS,094502.00,,,,,,07,,,,,*72
$GAGNS,094502.00,,,,,,07,,,,,*7F
$GBGNS,094502.00,,,,,,11,,,,,*7B
$GPLLQ,094502.00,010125,,M,,M,1,34,0.956,,M*16
$GPVTG,,T,,M,0.00,N,0.01,K,D*27
$GPHDT,,T*1B
$GPTHS,,V*0E
$GPROT,,V*08
$PSSN,HRP,094502.00,010125,,,,,,,00,0,,*6B
$PTNL,AVR,094502.00,,Yaw,,Tilt,,,,0,,00*3D
$GPGSA,A,3,05,13,14,15,17,19,23,24,30,,,,0.8,0.5,0.7*34
$GPGSA,A,3,65,66,67,75,76,77,85,,,,,,0.8,0.5,0.7*34
$GPGSA,A,3,02,03,07,08,24,25,30,,,,,,0.8,0.5,0.7*34
$GPGSA,A,3,05,07,10,14,21,26,33,40,42,45,60,,0.8,0.5,0.7*3C
$GPGST,094502.00,2.421,0.496,0.303,11.226,0.490,0.313,0.759*62
$GPGBS,094502.00,2.875,1.671,4.728,67,0.0001,8.592,6.210*56
$GPGRS,094502.00,1,-0.6,0.2,0.0,0.1,-0.4,0.3,0.5,0.0,-1.0,,,*41
$GPGRS,094502.00,1,0.8,-0.7,8.6,-2.3,-0.5,-6.7,4.2,,,,,*68
$GPGRS,094502.00,1,0.1,-0.2,0.1,-0.1,1.6,-0.2,-0.4,,,,,*68
$GPGRS,094502.00,1,0.9,1.2,1.1,1.6,0.0,-0.2,0.5,-1.1,-0.2,-1.3,-1.0,*4C
$GPGSV,6,1,22,22,68,076,,19,21,139,41,05,12,209,39,23,24,306,43*76
$GPGSV,6,2,22,30,19,089,40,17,33,106,46,14,47,059,46,24,34,282,44*71
$GPGSV,6,3,22,13,67,150,49,15,66,264,49,21,00,030,,10,03,340,40*7E
$GPGSV,6,4,22,12,05,220,38,36,35,170,44,58,13,245,36,40,23,133,36*7B
$GPGSV,6,5,22,34,31,208,42,49,34,195,44,57,07,112,37,41,07,108,35*7A
$GPGSV,6,6,22,61,03,257,38*46
$GLGSV,2,1,08,76,70,276,52,84,14,032,33,67,23,328,48,77,25,245,42*63
$GLGSV,2,2,08,65,41,179,47,75,40,045,49,66,70,278,53,85,09,083,42*68
$GAGSV,3,1,10,08,69,290,48,30,13,218,39,07,17,310,38,16,31,051,*62
$GAGSV,3,2,10,03,53,148,47,25,55,061,46,02,64,196,48,05,04,137,*67
$GAGSV,3,3,10,24,06,046,36,33,03,353,34*6F
$GBGSV,5,1,20,26,70,262,50,33,20,320,43,40,28,046,43,05,20,130,37*63
$GBGSV,5,2,20,25,17,241,,21,36,189,48,07,28,058,41,14,40,301,45*65
$GBGSV,5,3,20,56,33,080,,10,36,070,42,50,51,217,,45,49,063,48*61
$GBGSV,5,4,20,42,55,264,49,24,68,240,,36,02,068,38,35,01,140,*6D
$GBGSV,5,5,20,09,02,092,31,29,07,043,,02,04,109,31,60,07,112,40*6B
$GPGGA,094502.00,,,,,0,00,,,M,,M,,*42
$PTNL,GGK,094502.00,010125,4742.1600216,N,01618.1001076,E,1,34,0.8,EHT752.1170,M*40
$GPGGQ,094502.00,010125,4742.1600216,N,01618.1001076,E,1,34,0.956,708.9104,M*38
$GPGFA,094502.00,4.718,6.222,0.496,0.303,11.226,0.759,,VVV*31
$GPLLK,094502.00,010125,,M,,M,1,34,0.9,,M*0F
$GNGMP,094502.00,,,,,DAAA,34,0.5,,,,*5E
$GPGMP,094502.00,,,,,,09,,,,2.4,136*7C
$GLGMP,094502.00,,,,,,07,,,,,*72
$GAGMP,094502.00,,,,,,07,,,,,*7F
$GBGMP,094502.00,,,,,,11,,,,,*7B
$PSSN,SNC,[0,294320000,2347]*4A
$GPZDA,094507.00,01,01,2025,,*6C
$GPDTM,W84,,00.0000000,N,00.0000000,E,00.0000000,W84*5F
$PSSN,TFM,094507.00,,,,*60
$GPRMC,094507.00,A,4742.1600193,N,01618.1001123,E,0.0,,010125,5.1,E,D*15
$GPGLL,4742.1600193,N,01618.1001123,E,094507.00,A,D*64
$GPGGA,094507.00,4742.1600193,N,01618.1001123,E,2,34,0.5,708.9014,M,43.2066,M,3.4,0136*4E
$GNGNS,094507.00,4742.1600193,N,01618.1001123,E,DAAA,34,0.5,708.9014,43.2066,,*51
$GPGNS,094507.00,,,,,,09,,,,3.4,136*78
$GLGNS,094507.00,,,,,,07,,,,,*77
$GAGNS,094507.00,,,,,,07,,,,,*7A
$GBGNS,094507.00,,,,,,11,,,,,*7E
$GPLLQ,094507.00,010125,,M,,M,1,34,0.970,,M*17
$GPVTG,,T,,M,0.01,N,0.01,K,D*26
$GPHDT,,T*1B
$GPTHS,,V*0E
$GPROT,,V*08
$PSSN,HRP,094507.00,010125,,,,,,,00,0,,*6E
$PTNL,AVR,094507.00,,Yaw,,Tilt,,,,0,,00*38
$GPGSA,A,3,05,13,14,15,17,19,23,24,30,,,,0.8,0.5,0.7*34
$GPGSA,A,3,65,66,67,75,76,77,85,,,,,,0.8,0.5,0.7*34
$GPGSA,A,3,02,03,07,08,24,25,30,,,,,,0.8,0.5,0.7*34
$GPGSA,A,3,05,07,10,14,21,26,33,40,42,45,60,,0.8,0.5,0.7*3C
$GPGST,094507.00,2.603,0.503,0.307,10.952,0.497,0.317,0.771*6C
$GPGBS,094507.00,2.912,1.696,4.820,67,0.0001,9.535,6.210*51
$GPGRS,094507.00,1,-0.6,0.4,-0.2,-0.0,-0.2,0.0,0.4,-0.1,-0.4,,,*6C
$GPGRS,094507.00,1,0.7,-0.4,9.5,-2.2,-0.3,-7.5,3.9,,,,,*6B
$GPGRS,094507.00,1,0.2,-0.1,0.2,-0.2,1.4,-0.0,-0.5,,,,,*6C
$GPGRS,094507.00,1,1.6,0.8,0.4,2.2,-0.1,-0.1,0.0,-1.0,0.1,-1.4,-0.8,*44
$GPGSV,6,1,22,22,68,076,,19,21,139,41,05,12,209,39,23,24,306,42*77
$GPGSV,6,2,22,30,19,089,40,17,33,106,46,14,47,059,47,24,34,282,44*70
$GPGSV,6,3,22,13,67,150,50,15,66,264,49,21,00,029,,10,03,340,38*71
$GPGSV,6,4,22,12,05,220,38,36,35,170,44,58,13,245,36,40,23,133,36*7B
$GPGSV,6,5,22,34,31,208,42,49,34,195,44,57,07,112,37,41,07,108,35*7A
$GPGSV,6,6,22,61,03,257,38*46
$GLGSV,2,1,08,76,70,276,52,84,14,032,32,67,23,328,46,77,25,245,41*6F
$GLGSV,2,2,08,65,41,179,47,75,40,045,49,66,70,278,52,85,10,083,42*61
$GAGSV,3,1,10,08,69,290,48,30,13,218,39,07,17,310,39,16,31,051,*63
$GAGSV,3,2,10,03,52,148,47,25,55,061,46,02,64,196,48,05,04,137,*66
$GAGSV,3,3,10,24,06,046,36,33,03,353,34*6F
$GBGSV,5,1,20,26,70,262,51,33,20,320,43,40,28,046,43,05,20,130,38*6D
$GBGSV,5,2,20,25,17,241,,21,36,189,48,07,28,057,41,14,40,301,45*6A
$GBGSV,5,3,20,56,33,080,,10,36,070,42,50,51,216,,45,49,063,48*60
$GBGSV,5,4,20,42,55,264,49,24,68,240,,36,02,068,38,35,01,140,*6D
$GBGSV,5,5,20,09,02,092,32,29,07,042,,02,04,109,31,60,07,112,40*69
$GPGGA,094507.00,,,,,0,00,,,M,,M,,*47
$PTNL,GGK,094507.00,010125,4742.1600193,N,01618.1001123,E,1,34,0.8,EHT752.1080,M*44
$GPGGQ,094507.00,010125,4742.1600193,N,01618.1001123,E,1,34,0.970,708.9014,M*36
$GPGFA,094507.00,4.779,6.322,0.503,0.307,10.952,0.771,,VVV*38
$GPLLK,094507.00,010125,,M,,M,1,34,0.9,,M*0A
$GNGMP,094507.00,,,,,DAAA,34,0.5,,,,*5B
$GPGMP,094507.00,,,,,,09,,,,3.4,136*78
$GLGMP,094507.00,,,,,,07,,,,,*77
$GAGMP,094507.00,,,,,,07,,,,,*7A
$GBGMP,094507.00,,,,,,11,,,,,*7E
$PSSN,SNC,[0,294325000,2347]*4F
$GPZDA,094512.00,01,01,2025,,*68
$GPDTM,W84,,00.0000000,N,00.0000000,E,00.0000000,W84*5F
$PSSN,TFM,094512.00,,,,*64
$GPRMC,094512.00,A,4742.1600194,N,01618.1001136,E,0.0,,010125,5.1,E,D*12
$GPGLL,4742.1600194,N,01618.1001136,E,094512.00,A,D*63
$GPGGA,094512.00,4742.1600194,N,01618.1001136,E,2,34,0.5,708.9014,M,43.2066,M,2.2,0136*4E
$GNGNS,094512.00,4742.1600194,N,01618.1001136,E,DAAA,34,0.5,708.9014,43.2066,,*56
$GPGNS,094512.00,,,,,,09,,,,2.2,136*7B
$GLGNS,094512.00,,,,,,07,,,,,*73
$GAGNS,094512.00,,,,,,07,,,,,*7E
$GBGNS,094512.00,,,,,,11,,,,,*7A
$GPLLQ,094512.00,010125,,M,,M,1,34,0.974,,M*17
$GPVTG,,T,,M,0.00,N,0.01,K,D*27
$GPHDT,,T*1B
$GPTHS,,V*0E
$GPROT,,V*08
$PSSN,HRP,094512.00,010125,,,,,,,00,0,,*6A
$PTNL,AVR,094512.00,,Yaw,,Tilt,,,,0,,00*3C
$GPGSA,A,3,05,13,14,15,17,19,23,24,30,,,,0.8,0.5,0.7*34
$GPGSA,A,3,65,66,67,75,76,77,85,,,,,,0.8,0.5,0.7*34
$GPGSA,A,3,02,03,07,08,24,25,30,,,,,,0.8,0.5,0.7*34
$GPGSA,A,3,05,07,10,14,21,26,33,40,42,45,60,,0.8,0.5,0.7*3C
$GPGST,094512.00,2.336,0.507,0.306,11.353,0.500,0.316,0.774*6F
$GPGBS,094512.00,2.952,1.644,4.546,77,0.0001,-7.861,6.221*7F
$GPGRS,094512.00,1,-0.4,0.5,-0.1,0.0,-0.6,0.6,0.2,0.2,-0.8,,,*63
$GPGRS,094512.00,1,0.8,-0.8,7.5,-1.5,-0.7,-7.9,2.6,,,,,*60
$GPGRS,094512.00,1,0.0,-0.2,0.0,-0.1,1.6,-0.4,-0.8,,,,,*63
$GPGRS,094512.00,1,1.2,0.7,0.3,2.6,-0.1,-0.0,-0.1,-1.3,0.3,-1.6,-0.8,*66
$GPGSV,6,1,22,22,68,076,,19,21,139,42,05,11,209,39,23,24,306,42*77
$GPGSV,6,2,22,30,19,089,40,17,33,106,46,14,47,059,46,24,34,282,44*71
$GPGSV,6,3,22,13,67,150,49,15,66,264,49,21,00,029,,10,03,340,38*79
$GPGSV,6,4,22,12,05,220,38,36,35,170,44,58,13,245,36,40,23,133,36*7B
$GPGSV,6,5,22,34,31,208,42,49,34,195,44,57,07,112,37,41,07,108,35*7A
$GPGSV,6,6,22,61,03,257,38*46
$GLGSV,2,1,08,76,70,276,52,84,14,032,33,67,23,328,47,77,25,245,41*6F
$GLGSV,2,2,08,65,41,179,47,75,39,045,49,66,70,278,53,85,10,083,42*6E
$GAGSV,3,1,10,08,69,290,48,30,13,218,39,07,17,310,38,16,31,051,*62
$GAGSV,3,2,10,03,52,148,47,25,55,061,46,02,64,196,48,05,04,137,*66
$GAGSV,3,3,10,24,06,046,36,33,03,353,34*6F
$GBGSV,5,1,20,26,70,262,50,33,20,320,43,40,28,046,43,05,20,130,37*63
$GBGSV,5,2,20,25,17,241,,21,36,189,48,07,28,057,41,14,40,301,45*6A
$GBGSV,5,3,20,56,33,080,,10,36,070,42,50,51,216,,45,49,063,49*61
$GBGSV,5,4,20,42,55,264,49,24,68,240,,36,02,068,37,35,01,140,*62
$GBGSV,5,5,20,09,02,092,31,29,07,042,,02,04,109,31,60,07,112,39*64
$GPGGA,094512.00,,,,,0,00,,,M,,M,,*43
$PTNL,GGK,094512.00,010125,4742.1600194,N,01618.1001136,E,1,34,0.8,EHT752.1080,M*43
$GPGGQ,094512.00,010125,4742.1600194,N,01618.1001136,E,1,34,0.974,708.9014,M*35
$GPGFA,094512.00,4.818,6.346,0.507,0.306,11.353,0.774,,VVV*3C
$GPLLK,094512.00,010125,,M,,M,1,34,0.9,,M*0E
$GNGMP,094512.00,,,,,DAAA,34,0.5,,,,*5F
$GPGMP,094512.00,,,,,,09,,,,2.2,136*7B
$GLGMP,094512.00,,,,,,07,,,,,*73
$GAGMP,094512.00,,,,,,07,,,,,*7E
$GBGMP,094512.00,,,,,,11,,,,,*7A
$PSSN,SNC,[0,294330000,2347]*4B
$GPZDA,094517.00,01,01,2025,,*6D
$GPDTM,W84,,00.0000000,N,00.0000000,E,00.0000000,W84*5F
$PSSN,TFM,094517.00,,,,*61
$GPRMC,094517.00,A,4742.1600198,N,01618.1001176,E,0.0,,010125,5.1,E,D*1F
$GPGLL,4742.1600198,N,01618.1001176,E,094517.00,A,D*6E
$GPGGA,094517.00,4742.1600198,N,01618.1001176,E,2,35,0.4,708.9006,M,43.2066,M,1.8,0136*49
$GNGNS,094517.00,4742.1600198,N,01618.1001176,E,DAAA,35,0.4,708.9006,43.2066,,*58
$GPGNS,094517.00,,,,,,10,,,,1.8,136*7F
$GLGNS,094517.00,,,,,,07,,,,,*76
$GAGNS,094517.00,,,,,,07,,,,,*7B
$GBGNS,094517.00,,,,,,11,,,,,*7F
$GPLLQ,094517.00,010125,,M,,M,1,35,0.904,,M*14
$GPVTG,,T,,M,0.00,N,0.00,K,D*26
$GPHDT,,T*1B
$GPTHS,,V*0E
$GPROT,,V*08
$PSSN,HRP,094517.00,010125,,,,,,,00,0,,*6F
$PTNL,AVR,094517.00,,Yaw,,Tilt,,,,0,,00*39
$GPGSA,A,3,05,12,13,14,15,17,19,23,24,30,,,0.8,0.4,0.6*37
$GPGSA,A,3,65,66,67,75,76,77,85,,,,,,0.8,0.4,0.6*34
$GPGSA,A,3,02,03,07,08,24,25,30,,,,,,0.8,0.4,0.6*34
$GPGSA,A,3,05,07,10,14,21,26,33,40,42,45,60,,0.8,0.4,0.6*3C
$GPGST,094517.00,2.379,0.474,0.296,7.944,0.471,0.301,0.710*54
$GPGBS,094517.00,2.617,1.494,4.500,67,0.0001,7.858,6.210*5D
$GPGRS,094517.00,1,-0.1,1.0,0.2,-0.4,-0.0,-0.4,0.4,0.3,-0.0,-0.6,,*43
$GPGRS,094517.00,1,0.8,-0.5,7.9,-1.7,-0.3,-7.8,3.6,,,,,*62
$GPGRS,094517.00,1,0.1,-0.1,0.4,-0.1,1.7,-0.4,-0.5,,,,,*6C
$GPGRS,094517.00,1,1.1,0.6,0.8,2.5,0.3,0.0,0.3,-1.4,0.2,-1.4,-0.7,*4F
$GPGSV,6,1,22,22,68,076,,19,21,139,41,05,11,209,39,23,24,306,42*74
$GPGSV,6,2,22,30,19,089,40,17,33,106,46,14,47,059,47,24,34,283,43*76
$GPGSV,6,3,22,13,67,150,50,15,66,264,49,21,00,029,,10,03,339,38*7F
$GPGSV,6,4,22,12,05,220,39,36,35,170,44,58,13,245,36,40,23,133,36*7A
$GPGSV,6,5,22,34,31,208,42,49,34,195,44,57,07,112,37,41,07,108,35*7A
$GPGSV,6,6,22,61,03,257,38*46
$GLGSV,2,1,08,76,70,276,52,84,14,032,33,67,23,328,47,77,25,245,41*6F
$GLGSV,2,2,08,65,41,179,47,75,39,045,49,66,70,278,52,85,10,083,43*6E
$GAGSV,3,1,10,08,69,290,48,30,13,218,39,07,17,310,39,16,30,051,*62
$GAGSV,3,2,10,03,52,148,47,25,55,061,46,02,64,196,48,05,04,137,*66
$GAGSV,3,3,10,24,06,046,36,33,03,353,34*6F
$GBGSV,5,1,20,26,70,263,50,33,20,320,43,40,28,046,43,05,20,130,38*6D
$GBGSV,5,2,20,25,17,241,,21,36,189,47,07,28,057,41,14,40,301,45*65
$GBGSV,5,3,20,56,33,080,,10,36,070,42,50,51,216,,45,49,063,49*61
$GBGSV,5,4,20,42,55,264,50,24,68,240,,36,02,068,37,35,01,140,*6A
$GBGSV,5,5,20,09,02,092,31,29,07,042,,02,04,109,31,60,07,112,40*6A
$GPGGA,094517.00,,,,,0,00,,,M,,M,,*46
$PTNL,GGK,094517.00,010125,4742.1600198,N,01618.1001176,E,1,35,0.8,EHT752.1071,M*41
$GPGGQ,094517.00,010125,4742.1600198,N,01618.1001176,E,1,35,0.904,708.9006,M*3D
$GPGFA,094517.00,4.508,5.821,0.474,0.296,7.944,0.710,,VVV*08
$GPLLK,094517.00,010125,,M,,M,1,35,0.9,,M*0A
$GNGMP,094517.00,,,,,DAAA,35,0.4,,,,*5A
$GPGMP,094517.00,,,,,,10,,,,1.8,136*7F
$GLGMP,094517.00,,,,,,07,,,,,*76
$GAGMP,094517.00,,,,,,07,,,,,*7B
$GBGMP,094517.00,,,,,,11,,,,,*7F
$PSSN,SNC,[0,294335000,2347]*4E
$GPZDA,094522.00,01,01,2025,,*6B
$GPDTM,W84,,00.0000000,N,00.0000000,E,00.0000000,W84*5F
$PSSN,TFM,094522.00,,,,*67
$GPRMC,094522.00,A,4742.1600209,N,01618.1001246,E,0.0,,010125,5.1,E,D*12
$GPGLL,4742.1600209,N,01618.1001246,E,094522.00,A,D*63
$GPGGA,094522.00,4742.1600209,N,01618.1001246,E,2,35,0.4,708.8965,M,43.2066,M,2.4,0136*46
$GNGNS,094522.00,4742.1600209,N,01618.1001246,E,DAAA,35,0.4,708.8965,43.2066,,*58
$GPGNS,094522.00,,,,,,10,,,,2.4,136*76
$GLGNS,094522.00,,,,,,07,,,,,*70
$GAGNS,094522.00,,,,,,07,,,,,*7D
$GBGNS,094522.00,,,,,,11,,,,,*79
$GPLLQ,094522.00,010125,,M,,M,1,35,0.901,,M*17
$GPVTG,,T,,M,0.00,N,0.00,K,D*26
$GPHDT,,T*1B
$GPTHS,,V*0E
$GPROT,,V*08
$PSSN,HRP,094522.00,010125,,,,,,,00,0,,*69
$PTNL,AVR,094522.00,,Yaw,,Tilt,,,,0,,00*3F
$GPGSA,A,3,05,12,13,14,15,17,19,23,24,30,,,0.8,0.4,0.6*37
$GPGSA,A,3,65,66,67,75,76,77,85,,,,,,0.8,0.4,0.6*34
$GPGSA,A,3,02,03,07,08,24,25,30,,,,,,0.8,0.4,0.6*34
$GPGSA,A,3,05,07,10,14,21,26,33,40,42,45,60,,0.8,0.4,0.6*3C
$GPGST,094522.00,2.387,0.471,0.298,7.236,0.468,0.302,0.708*54
$GPGBS,094522.00,2.645,1.510,4.564,67,0.0001,8.131,6.209*52
$GPGRS,094522.00,1,-0.4,0.8,0.3,-0.5,0.0,-0.4,-0.1,0.7,0.2,-0.6,,*67
$GPGRS,094522.00,1,0.9,-0.7,8.1,-2.0,-0.6,-7.2,4.3,,,,,*69
$GPGRS,094522.00,1,-0.1,-0.0,0.3,0.0,1.8,-0.2,-0.5,,,,,*64
$GPGRS,094522.00,1,1.4,0.6,1.0,2.0,-0.2,0.1,0.1,-1.1,-0.0,-1.3,-0.7,*42
$GPGSV,6,1,22,22,67,076,,19,21,139,42,05,11,209,40,23,24,306,43*77
$GPGSV,6,2,22,30,19,089,40,17,33,106,45,14,47,059,46,24,34,283,44*73
$GPGSV,6,3,22,13,67,150,49,15,66,264,50,21,00,029,,10,03,339,38*7F
$GPGSV,6,4,22,12,05,220,39,36,35,170,44,58,13,245,36,40,23,133,36*7A
$GPGSV,6,5,22,34,31,208,42,49,34,195,44,57,07,112,37,41,07,108,35*7A
$GPGSV,6,6,22,61,03,257,38*46
$GLGSV,2,1,08,76,70,276,52,84,14,032,32,67,23,328,46,77,25,245,42*6C
$GLGSV,2,2,08,65,41,179,47,75,39,045,49,66,70,278,53,85,10,082,43*6E
$GAGSV,3,1,10,08,69,290,48,30,13,218,38,07,18,310,39,16,30,051,*6C
$GAGSV,3,2,10,03,52,148,47,25,55,061,46,02,64,196,49,05,04,137,*67
$GAGSV,3,3,10,24,06,046,36,33,03,353,35*6E
$GBGSV,5,1,20,26,70,263,50,33,20,320,43,40,28,046,43,05,20,130,37*62
$GBGSV,5,2,20,25,17,241,,21,36,189,47,07,28,057,41,14,40,301,45*65
$GBGSV,5,3,20,56,33,080,,10,36,070,42,50,51,216,,45,49,063,48*60
$GBGSV,5,4,20,42,55,264,49,24,68,240,,36,02,068,37,35,01,140,*62
$GBGSV,5,5,20,09,02,092,31,29,07,042,,02,04,109,31,60,07,112,39*64
$GPGGA,094522.00,,,,,0,00,,,M,,M,,*40
$PTNL,GGK,094522.00,010125,4742.1600209,N,01618.1001246,E,1,35,0.8,EHT752.1031,M*48
$GPGGQ,094522.00,010125,4742.1600209,N,01618.1001246,E,1,35,0.901,708.8965,M*38
$GPGFA,094522.00,4.474,5.806,0.471,0.298,7.236,0.708,,VVV*0D
$GPLLK,094522.00,010125,,M,,M,1,35,0.9,,M*0C
$GNGMP,094522.00,,,,,DAAA,35,0.4,,,,*5C
$GPGMP,094522.00,,,,,,10,,,,2.4,136*76
$GLGMP,094522.00,,,,,,07,,,,,*70
$GAGMP,094522.00,,,,,,07,,,,,*7D
$GBGMP,094522.00,,,,,,11,,,,,*79
$PSSN,SNC,[0,294340000,2347]*4C
$GPZDA,094527.00,01,01,2025,,*6E
$GPDTM,W84,,00.0000000,N,00.0000000,E,00.0000000,W84*5F
$PSSN,TFM,094527.00,,,,*62
$GPRMC,094527.00,A,4742.1600196,N,01618.1001319,E,0.0,,010125,5.1,E,D*19
$GPGLL,4742.1600196,N,01618.1001319,E,094527.00,A,D*68
$GPGGA,094527.00,4742.1600196,N,01618.1001319,E,2,35,0.4,708.9006,M,43.2066,M,3.4,0136*41
$GNGNS,094527.00,4742.1600196,N,01618.1001319,E,DAAA,35,0.4,708.9006,43.2066,,*5E
$GPGNS,094527.00,,,,,,10,,,,3.4,136*72
$GLGNS,094527.00,,,,,,07,,,,,*75
$GAGNS,094527.00,,,,,,07,,,,,*78
$GBGNS,094527.00,,,,,,11,,,,,*7C
$GPLLQ,094527.00,010125,,M,,M,1,35,0.914,,M*16
$GPVTG,,T,,M,0.00,N,0.01,K,D*27
$GPHDT,,T*1B
$GPTHS,,V*0E
$GPROT,,V*08
$PSSN,HRP,094527.00,010125,,,,,,,00,0,,*6C
$PTNL,AVR,094527.00,,Yaw,,Tilt,,,,0,,00*3A
$GPGSA,A,3,05,12,13,14,15,17,19,23,24,30,,,0.8,0.4,0.6*37
$GPGSA,A,3,65,66,67,75,76,77,85,,,,,,0.8,0.4,0.6*34
$GPGSA,A,3,02,03,07,08,24,25,30,,,,,,0.8,0.4,0.6*34
$GPGSA,A,3,05,07,10,14,21,26,33,40,42,45,60,,0.8,0.4,0.6*3C
$GPGST,094527.00,2.353,0.477,0.302,6.857,0.475,0.305,0.719*5B
$GPGBS,094527.00,2.687,1.531,4.652,67,0.0001,8.493,6.209*51
$GPGRS,094527.00,1,-0.8,0.7,0.1,-0.4,-0.1,-0.2,0.3,0.6,0.5,-0.4,,*63
$GPGRS,094527.00,1,0.9,-0.8,8.5,-2.2,-0.4,-7.1,3.1,,,,,*61
$GPGRS,094527.00,1,-0.2,-0.1,-0.1,0.1,1.6,-0.5,-0.2,,,,,*43
$GPGRS,094527.00,1,1.3,0.8,0.8,1.9,-0.1,-0.1,-0.5,-1.2,-0.2,-1.5,-0.9,*43
$GPGSV,6,1,22,22,67,076,,19,21,139,42,05,11,209,40,23,24,306,42*76
$GPGSV,6,2,22,30,19,089,41,17,33,106,45,14,47,059,46,24,34,283,44*72
$GPGSV,6,3,22,13,67,150,49,15,66,264,50,21,00,029,,10,03,339,38*7F
$GPGSV,6,4,22,12,05,220,39,36,35,170,44,58,13,245,36,40,23,133,36*7A
$GPGSV,6,5,22,34,31,208,42,49,34,195,44,57,07,112,37,41,07,108,35*7A
$GPGSV,6,6,22,61,03,257,38*46
$GLGSV,2,1,08,76,70,276,52,84,14,032,33,67,23,328,47,77,25,245,41*6F
$GLGSV,2,2,08,65,41,179,48,75,39,045,49,66,70,278,52,85,10,082,42*61
$GAGSV,3,1,10,08,69,290,48,30,13,218,38,07,18,311,39,16,30,051,*6D
$GAGSV,3,2,10,03,52,148,47,25,55,061,47,02,64,196,49,05,04,137,*66
$GAGSV,3,3,10,24,06,046,37,33,03,353,35*6F
$GBGSV,5,1,20,26,70,263,50,21,36,189,48,05,20,130,37,25,17,241,*61
$GBGSV,5,2,20,33,20,320,42,40,28,046,43,07,28,057,41,14,40,301,45*68
$GBGSV,5,3,20,56,33,080,,10,36,070,42,50,51,216,,45,49,063,48*60
$GBGSV,5,4,20,42,55,264,49,24,68,240,,36,02,068,37,35,01,140,*62
$GBGSV,5,5,20,02,04,109,31,29,07,042,,09,02,092,32,60,07,112,39*67
$GPGGA,094527.00,,,,,0,00,,,M,,M,,*45
$PTNL,GGK,094527.00,010125,4742.1600196,N,01618.1001319,E,1,35,0.8,EHT752.1071,M*47
$GPGGQ,094527.00,010125,4742.1600196,N,01618.1001319,E,1,35,0.914,708.9006,M*3A
$GPGFA,094527.00,4.531,5.895,0.477,0.302,6.857,0.719,,VVV*0A
$GPLLK,094527.00,010125,,M,,M,1,35,0.9,,M*09
$GNGMP,094527.00,,,,,DAAA,35,0.4,,,,*59
$GPGMP,094527.00,,,,,,10,,,,3.4,136*72
$GLGMP,094527.00,,,,,,07,,,,,*75
$GAGMP,094527.00,,,,,,07,,,,,*78
$GBGMP,094527.00,,,,,,11,,,,,*7C
$PSSN,SNC,[0,294345000,2347]*49
$GPZDA,094532.00,01,01,2025,,*6A
$GPDTM,W84,,00.0000000,N,00.0000000,E,00.0000000,W84*5F
$PSSN,TFM,094532.00,,,,*66
$GPRMC,094532.00,A,4742.1600190,N,01618.1001331,E,0.0,,010125,5.1,E,D*11
$GPGLL,4742.1600190,N,01618.1001331,E,094532.00,A,D*60
$GPGGA,094532.00,4742.1600190,N,01618.1001331,E,2,35,0.4,708.9051,M,43.2066,M,2.4,0136*4A
$GNGNS,094532.00,4742.1600190,N,01618.1001331,E,DAAA,35,0.4,708.9051,43.2066,,*54
$GPGNS,094532.00,,,,,,10,,,,2.4,136*77
$GLGNS,094532.00,,,,,,07,,,,,*71
$GAGNS,094532.00,,,,,,07,,,,,*7C
$GBGNS,094532.00,,,,,,11,,,,,*78
$GPLLQ,094532.00,010125,,M,,M,1,35,0.918,,M*1E
$GPVTG,,T,,M,0.00,N,0.01,K,D*27
$GPHDT,,T*1B
$GPTHS,,V*0E
$GPROT,,V*08
$PSSN,HRP,094532.00,010125,,,,,,,00,0,,*68
$PTNL,AVR,094532.00,,Yaw,,Tilt,,,,0,,00*3E
$GPGSA,A,3,05,12,13,14,15,17,19,23,24,30,,,0.8,0.4,0.6*37
$GPGSA,A,3,65,66,67,75,76,77,85,,,,,,0.8,0.4,0.6*34
$GPGSA,A,3,02,03,07,08,24,25,30,,,,,,0.8,0.4,0.6*34
$GPGSA,A,3,05,07,10,14,21,26,33,40,42,45,60,,0.8,0.4,0.6*3C
$GPGST,094532.00,2.416,0.480,0.301,7.496,0.477,0.305,0.722*58
$GPGBS,094532.00,2.683,1.483,4.396,67,0.0001,8.667,6.209*5D
$GPGRS,094532.00,1,-0.7,0.9,0.1,-0.3,-0.1,-0.3,0.2,0.4,-0.2,0.2,,*62
$GPGRS,094532.00,1,1.0,-0.7,8.7,-1.7,-0.6,-7.3,2.8,,,,,*6E
$GPGRS,094532.00,1,-0.1,-0.1,0.1,0.0,1.7,-0.5,0.2,,,,,*44
$GPGRS,094532.00,1,1.2,1.0,1.4,2.7,0.3,-0.3,0.1,-1.4,0.2,-1.4,-0.9,*61
$GPGSV,6,1,22,22,67,076,,19,21,139,42,05,11,209,40,23,24,306,43*77
$GPGSV,6,2,22,30,19,089,41,17,33,106,45,14,47,059,46,24,34,283,44*72
$GPGSV,6,3,22,13,67,150,49,15,66,263,50,21,00,029,,10,03,339,38*78
$GPGSV,6,4,22,12,05,220,40,36,35,170,44,58,13,245,36,40,23,133,36*74
$GPGSV,6,5,22,34,31,208,42,49,34,195,44,57,07,112,37,41,07,108,35*7A
$GPGSV,6,6,22,61,03,257,38*46
$GLGSV,2,1,08,76,70,276,52,84,14,032,33,67,23,328,47,77,25,245,42*6C
$GLGSV,2,2,08,65,41,179,47,75,39,045,50,66,70,278,52,85,10,082,41*65
$GAGSV,3,1,10,08,69,290,48,30,13,218,39,07,18,311,39,16,30,051,*6C
$GAGSV,3,2,10,03,52,148,47,25,55,061,47,02,64,196,49,05,03,137,*61
$GAGSV,3,3,10,24,06,046,36,33,03,353,35*6E
$GBGSV,5,1,20,26,70,263,51,21,36,189,48,05,20,130,37,25,17,241,*60
$GBGSV,5,2,20,33,20,320,43,40,28,046,43,07,28,057,41,14,40,301,45*69
$GBGSV,5,3,20,56,33,080,,10,36,070,42,50,51,216,,45,49,063,48*60
$GBGSV,5,4,20,42,55,263,49,24,68,240,,36,02,068,36,35,01,140,*64
$GBGSV,5,5,20,02,04,109,31,29,07,042,,09,02,092,31,60,07,112,39*64
$GPGGA,094532.00,,,,,0,00,,,M,,M,,*41
$PTNL,GGK,094532.00,010125,4742.1600190,N,01618.1001331,E,1,35,0.8,EHT752.1117,M*4E
$GPGGQ,094532.00,010125,4742.1600190,N,01618.1001331,E,1,35,0.918,708.9051,M*3C
$GPGFA,094532.00,4.561,5.922,0.480,0.301,7.496,0.722,,VVV*05
$GPLLK,094532.00,010125,,M,,M,1,35,0.9,,M*0D
$GNGMP,094532.00,,,,,DAAA,35,0.4,,,,*5D
$GPGMP,094532.00,,,,,,10,,,,2.4,136*77
$GLGMP,094532.00,,,,,,07,,,,,*71
$GAGMP,094532.00,,,,,,07,,,,,*7C
$GBGMP,094532.00,,,,,,11,,,,,*78
$PSSN,SNC,[0,294350000,2347]*4D
$GPZDA,094537.00,01,01,2025,,*6F
$GPDTM,W84,,00.0000000,N,00.0000000,E,00.0000000,W84*5F
$PSSN,TFM,094537.00,,,,*63
$GPRMC,094537.00,A,4742.1600178,N,01618.1001337,E,0.0,,010125,5.1,E,D*14
$GPGLL,4742.1600178,N,01618.1001337,E,094537.00,A,D*65
$GPGGA,094537.00,4742.1600178,N,01618.1001337,E,2,35,0.4,708.9069,M,43.2066,M,1.8,0136*4B
$GNGNS,094537.00,4742.1600178,N,01618.1001337,E,DAAA,35,0.4,708.9069,43.2066,,*5A
$GPGNS,094537.00,,,,,,10,,,,1.8,136*7D
$GLGNS,094537.00,,,,,,07,,,,,*74
$GAGNS,094537.00,,,,,,07,,,,,*79
$GBGNS,094537.00,,,,,,11,,,,,*7D
$GPLLQ,094537.00,010125,,M,,M,1,35,0.904,,M*16
$GPVTG,,T,,M,0.00,N,0.01,K,D*27
$GPHDT,,T*1B
$GPTHS,,V*0E
$GPROT,,V*08
$PSSN,HRP,094537.00,010125,,,,,,,00,0,,*6D
$PTNL,AVR,094537.00,,Yaw,,Tilt,,,,0,,00*3B
$GPGSA,A,3,05,12,13,14,15,17,19,23,24,30,,,0.8,0.4,0.6*37
$GPGSA,A,3,65,66,67,75,76,77,85,,,,,,0.8,0.4,0.6*34
$GPGSA,A,3,02,03,07,08,24,25,30,,,,,,0.8,0.4,0.6*34
$GPGSA,A,3,05,07,10,14,21,26,33,40,42,45,60,,0.8,0.4,0.6*3C
$GPGST,094537.00,2.261,0.474,0.296,7.910,0.471,0.301,0.711*5E
$GPGBS,094537.00,2.607,1.493,4.490,77,0.0001,-7.483,6.218*7F
$GPGRS,094537.00,1,-0.9,0.9,0.2,-0.1,-0.2,0.1,-0.1,0.3,-0.0,-0.3,,*43
$GPGRS,094537.00,1,0.6,-0.8,7.4,-0.9,-0.8,-7.5,3.2,,,,,*63
$GPGRS,094537.00,1,-0.0,-0.2,-0.2,-0.1,1.9,-0.4,0.3,,,,,*4F
$GPGRS,094537.00,1,1.3,0.9,1.5,2.1,-0.3,-0.1,0.1,-1.3,0.2,-1.5,-0.7,*4D
$GPGSV,6,1,22,22,67,076,,19,21,139,42,05,11,209,39,23,24,306,42*78
$GPGSV,6,2,22,30,19,089,41,17,33,106,46,14,47,059,46,24,34,283,44*71
$GPGSV,6,3,22,13,67,150,50,15,66,263,50,21,00,029,,10,03,339,37*7F
$GPGSV,6,4,22,12,05,220,39,36,35,170,44,58,13,245,36,40,23,133,36*7A
$GPGSV,6,5,22,34,31,208,42,49,34,195,44,57,07,112,37,41,07,108,35*7A
$GPGSV,6,6,22,61,03,257,38*46
$GLGSV,2,1,08,76,70,276,52,84,14,032,32,67,23,328,47,77,25,245,42*6D
$GLGSV,2,2,08,65,40,179,47,75,39,045,50,66,70,277,52,85,10,082,42*68
$GAGSV,3,1,10,08,69,290,48,30,13,218,39,07,18,311,39,16,30,051,*6C
$GAGSV,3,2,10,03,52,148,47,25,55,061,47,02,64,196,49,05,03,137,*61
$GAGSV,3,3,10,24,06,046,37,33,03,353,35*6F
$GBGSV,5,1,20,26,70,263,51,21,36,189,47,05,20,130,38,25,17,241,*60
$GBGSV,5,2,20,33,20,320,43,40,28,046,43,07,28,057,41,14,41,301,46*6B
$GBGSV,5,3,20,56,33,080,,10,36,070,43,50,51,216,,45,49,063,48*61
$GBGSV,5,4,20,42,55,263,50,24,68,240,,36,02,068,36,35,01,140,*6C
$GBGSV,5,5,20,02,04,109,31,29,07,042,,09,02,092,31,60,07,112,40*6A
$GPGGA,094537.00,,,,,0,00,,,M,,M,,*44
$PTNL,GGK,094537.00,010125,4742.1600178,N,01618.1001337,E,1,35,0.8,EHT752.1135,M*4B
$GPGGQ,094537.00,010125,4742.1600178,N,01618.1001337,E,1,35,0.904,708.9069,M*3F
$GPGFA,094537.00,4.505,5.830,0.474,0.296,7.910,0.711,,VVV*07
$GPLLK,094537.00,010125,,M,,M,1,35,0.9,,M*08
$GNGMP,094537.00,,,,,DAAA,35,0.4,,,,*58
$GPGMP,094537.00,,,,,,10,,,,1.8,136*7D
$GLGMP,094537.00,,,,,,07,,,,,*74
$GAGMP,094537.00,,,,,,07,,,,,*79
$GBGMP,094537.00,,,,,,11,,,,,*7D
$PSSN,SNC,[0,294355000,2347]*48
$GPZDA,094542.00,01,01,2025,,*6D
$GPDTM,W84,,00.0000000,N,00.0000000,E,00.0000000,W84*5F
$PSSN,TFM,094542.00,,,,*61
$GPRMC,094542.00,A,4742.1600155,N,01618.1001342,E,0.0,,010125,5.1,E,D*1B
$GPGLL,4742.1600155,N,01618.1001342,E,094542.00,A,D*6A
$GPGGA,094542.00,4742.1600155,N,01618.1001342,E,2,35,0.4,708.9057,M,43.2066,M,2.4,0136*46
$GNGNS,094542.00,4742.1600155,N,01618.1001342,E,DAAA,35,0.4,708.9057,43.2066,,*58
$GPGNS,094542.00,,,,,,10,,,,2.4,136*70
$GLGNS,094542.00,,,,,,07,,,,,*76
$GAGNS,094542.00,,,,,,07,,,,,*7B
$GBGNS,094542.00,,,,,,11,,,,,*7F
$GPLLQ,094542.00,010125,,M,,M,1,35,0.901,,M*11
$GPVTG,,T,,M,0.01,N,0.01,K,D*26
$GPHDT,,T*1B
$GPTHS,,V*0E
$GPROT,,V*08
$PSSN,HRP,094542.00,010125,,,,,,,00,0,,*6F
$PTNL,AVR,094542.00,,Yaw,,Tilt,,,,0,,00*39
$GPGSA,A,3,05,12,13,14,15,17,19,23,24,30,,,0.8,0.4,0.6*37
$GPGSA,A,3,65,66,67,75,76,77,85,,,,,,0.8,0.4,0.6*34
$GPGSA,A,3,02,03,07,08,24,25,30,,,,,,0.8,0.4,0.6*34
$GPGSA,A,3,05,07,10,14,21,26,33,40,42,45,60,,0.8,0.4,0.6*3C
$GPGST,094542.00,2.209,0.470,0.298,7.160,0.468,0.302,0.708*54
$GPGBS,094542.00,2.636,1.510,4.555,67,0.0001,7.460,6.208*5D
$GPGRS,094542.00,1,-0.4,0.9,0.4,-0.1,-0.3,-0.0,0.1,0.2,-0.2,-0.4,,*4E
$GPGRS,094542.00,1,1.2,-0.9,7.5,-1.8,-0.9,-6.9,3.1,,,,,*6B
$GPGRS,094542.00,1,0.2,-0.1,0.2,0.0,1.8,-0.6,0.3,,,,,*63
$GPGRS,094542.00,1,1.2,0.6,0.9,2.3,-0.2,-0.1,-0.7,-1.3,0.3,-1.5,-0.7,*65
$GPGSV,6,1,22,22,67,076,,19,21,139,42,05,11,209,39,23,24,306,42*78
$GPGSV,6,2,22,30,19,089,41,17,33,106,45,14,47,059,46,24,34,283,44*72
$GPGSV,6,3,22,13,67,150,49,15,66,263,49,21,00,029,,10,03,339,37*7F
$GPGSV,6,4,22,12,05,220,39,36,35,170,44,58,13,245,36,40,23,133,36*7A
$GPGSV,6,5,22,34,31,208,42,49,34,195,44,57,07,112,37,41,07,108,35*7A
$GPGSV,6,6,22,61,03,257,38*46
$GLGSV,2,1,08,76,70,276,52,84,14,032,32,67,23,328,48,77,25,245,41*61
$GLGSV,2,2,08,65,40,179,48,75,39,045,49,66,70,277,52,85,10,082,42*6F
$GAGSV,3,1,10,08,69,290,48,30,13,218,39,07,18,311,39,16,30,051,*6C
$GAGSV,3,2,10,03,52,148,47,25,55,061,47,02,64,196,49,05,03,137,*61
$GAGSV,3,3,10,24,06,046,36,33,03,353,35*6E
$GBGSV,5,1,20,26,70,263,51,21,36,189,48,05,20,130,38,25,17,242,*6C
$GBGSV,5,2,20,33,20,320,42,40,28,046,43,07,28,057,41,14,41,301,46*6A
$GBGSV,5,3,20,56,33,079,,10,36,070,42,50,51,216,,45,49,063,48*66
$GBGSV,5,4,20,42,55,263,50,24,68,240,,36,02,068,36,35,01,140,*6C
$GBGSV,5,5,20,02,04,109,31,29,07,042,,09,02,092,31,60,07,112,40*6A
$GPGGA,094542.00,,,,,0,00,,,M,,M,,*46
$PTNL,GGK,094542.00,010125,4742.1600155,N,01618.1001342,E,1,35,0.8,EHT752.1123,M*43
$GPGGQ,094542.00,010125,4742.1600155,N,01618.1001342,E,1,35,0.901,708.9057,M*38
$GPGFA,094542.00,4.471,5.809,0.470,0.298,7.160,0.708,,VVV*00
$GPLLK,094542.00,010125,,M,,M,1,35,0.9,,M*0A
$GNGMP,094542.00,,,,,DAAA,35,0.4,,,,*5A
$GPGMP,094542.00,,,,,,10,,,,2.4,136*70
$GLGMP,094542.00,,,,,,07,,,,,*76
$GAGMP,094542.00,,,,,,07,,,,,*7B
$GBGMP,094542.00,,,,,,11,,,,,*7F
$PSSN,SNC,[0,294360000,2347]*4E
$GPZDA,094547.00,01,01,2025,,*68
$GPDTM,W84,,00.0000000,N,00.0000000,E,00.0000000,W84*5F
$PSSN,TFM,094547.00,,,,*64
$GPRMC,094547.00,A,4742.1600146,N,01618.1001317,E,0.0,,010125,5.1,E,D*1C
$GPGLL,4742.1600146,N,01618.1001317,E,094547.00,A,D*6D
$GPGGA,094547.00,4742.1600146,N,01618.1001317,E,2,35,0.4,708.9106,M,43.2066,M,3.4,0136*45
$GNGNS,094547.00,4742.1600146,N,01618.1001317,E,DAAA,35,0.4,708.9106,43.2066,,*5A
$GPGNS,094547.00,,,,,,10,,,,3.4,136*74
$GLGNS,094547.00,,,,,,07,,,,,*73
$GAGNS,094547.00,,,,,,07,,,,,*7E
$GBGNS,094547.00,,,,,,11,,,,,*7A
$GPLLQ,094547.00,010125,,M,,M,1,35,0.914,,M*10
$GPVTG,,T,,M,0.00,N,0.00,K,D*26
$GPHDT,,T*1B
$GPTHS,,V*0E
$GPROT,,V*08
$PSSN,HRP,094547.00,010125,,,,,,,00,0,,*6A
$PTNL,AVR,094547.00,,Yaw,,Tilt,,,,0,,00*3C
$GPGSA,A,3,05,12,13,14,15,17,19,23,24,30,,,0.8,0.4,0.6*37
$GPGSA,A,3,65,66,67,75,76,77,85,,,,,,0.8,0.4,0.6*34
$GPGSA,A,3,02,03,07,08,24,25,30,,,,,,0.8,0.4,0.6*34
$GPGSA,A,3,05,07,10,14,21,26,33,40,42,45,60,,0.8,0.4,0.6*3C
$GPGST,094547.00,2.331,0.476,0.302,6.792,0.474,0.305,0.719*5F
$GPGBS,094547.00,2.678,1.530,4.643,67,0.0001,8.460,6.208*5B
$GPGRS,094547.00,1,-0.3,0.5,0.0,-0.1,-0.2,-0.2,0.4,1.1,-0.5,-0.1,,*42
$GPGRS,094547.00,1,1.2,-0.4,8.5,-2.6,-0.5,-6.7,3.4,,,,,*66
$GPGRS,094547.00,1,0.1,-0.2,0.4,0.1,1.6,-0.4,0.1,,,,,*6F
$GPGRS,094547.00,1,1.0,0.5,0.9,2.2,0.3,-0.2,-0.2,-1.2,0.0,-1.2,-0.7,*4F
$GPGSV,6,1,22,22,67,076,,19,21,139,41,05,11,209,39,23,24,306,42*7B
$GPGSV,6,2,22,30,19,089,41,17,33,106,45,14,47,059,46,24,34,283,43*75
$GPGSV,6,3,22,13,67,150,49,15,66,263,49,21,00,029,,10,03,339,37*7F
$GPGSV,6,4,22,12,05,220,38,36,35,170,44,58,13,245,36,40,23,133,36*7B
$GPGSV,6,5,22,34,31,208,42,49,34,195,44,57,07,112,38,41,07,108,35*75
$GPGSV,6,6,22,61,03,257,38*46
$GLGSV,2,1,08,76,70,277,52,84,14,032,32,67,23,328,47,77,25,245,41*6F
$GLGSV,2,2,08,65,40,179,48,75,39,045,49,66,70,277,53,85,10,082,42*6E
$GAGSV,3,1,10,08,69,290,48,30,13,218,39,07,18,311,39,16,30,051,*6C
$GAGSV,3,2,10,03,52,148,47,25,55,061,46,02,64,196,49,05,03,137,*60
$GAGSV,3,3,10,24,06,046,37,33,03,353,35*6F
$GBGSV,5,1,20,26,70,263,51,21,36,189,47,33,20,320,43,25,18,242,*66
$GBGSV,5,2,20,05,20,130,38,40,28,046,43,07,28,057,41,14,41,301,46*61
$GBGSV,5,3,20,56,33,079,,50,51,216,,10,36,070,42,45,49,063,48*66
$GBGSV,5,4,20,42,55,263,50,24,68,240,,36,02,068,37,35,01,140,*6D
$GBGSV,5,5,20,29,07,042,,02,04,109,31,09,02,092,32,60,07,112,40*69
$GPGGA,094547.00,,,,,0,00,,,M,,M,,*43
$PTNL,GGK,094547.00,010125,4742.1600146,N,01618.1001317,E,1,35,0.8,EHT752.1171,M*43
$GPGGQ,094547.00,010125,4742.1600146,N,01618.1001317,E,1,35,0.914,708.9106,M*3E
$GPGFA,094547.00,4.528,5.899,0.476,0.302,6.792,0.719,,VVV*0F
$GPLLK,094547.00,010125,,M,,M,1,35,0.9,,M*0F
$GNGMP,094547.00,,,,,DAAA,35,0.4,,,,*5F
$GPGMP,094547.00,,,,,,10,,,,3.4,136*74
$GLGMP,094547.00,,,,,,07,,,,,*73
$GAGMP,094547.00,,,,,,07,,,,,*7E
$GBGMP,094547.00,,,,,,11,,,,,*7A
$PSSN,SNC,[0,294365000,2347]*4B
$GPZDA,094552.00,01,01,2025,,*6C
$GPDTM,W84,,00.0000000,N,00.0000000,E,00.0000000,W84*5F
$PSSN,TFM,094552.00,,,,*60
$GPRMC,094552.00,A,4742.1600138,N,01618.1001348,E,0.0,,010125,5.1,E,D*1B
$GPGLL,4742.1600138,N,01618.1001348,E,094552.00,A,D*6A
$GPGGA,094552.00,4742.1600138,N,01618.1001348,E,2,35,0.4,708.9189,M,43.2066,M,2.4,0136*44
$GNGNS,094552.00,4742.1600138,N,01618.1001348,E,DAAA,35,0.4,708.9189,43.2066,,*5A
$GPGNS,094552.00,,,,,,10,,,,2.4,136*71
$GLGNS,094552.00,,,,,,07,,,,,*77
$GAGNS,094552.00,,,,,,07,,,,,*7A
$GBGNS,094552.00,,,,,,11,,,,,*7E
$GPLLQ,094552.00,010125,,M,,M,1,35,0.918,,M*18
$GPVTG,,T,,M,0.00,N,0.01,K,D*27
$GPHDT,,T*1B
$GPTHS,,V*0E
$GPROT,,V*08
$PSSN,HRP,094552.00,010125,,,,,,,00,0,,*6E
$PTNL,AVR,094552.00,,Yaw,,Tilt,,,,0,,00*38
$GPGSA,A,3,05,12,13,14,15,17,19,23,24,30,,,0.8,0.4,0.6*37
$GPGSA,A,3,65,66,67,75,76,77,85,,,,,,0.8,0.4,0.6*34
$GPGSA,A,3,02,03,07,08,24,25,30,,,,,,0.8,0.4,0.6*34
$GPGSA,A,3,05,07,10,14,21,26,33,40,42,45,60,,0.8,0.4,0.6*3C
$GPGST,094552.00,2.345,0.479,0.301,7.410,0.477,0.305,0.723*56
$GPGBS,094552.00,2.673,1.484,4.386,67,0.0001,8.300,6.207*58
$GPGRS,094552.00,1,-0.1,0.9,0.2,-0.3,-0.1,0.1,0.1,0.7,-0.3,-0.6,,*66
$GPGRS,094552.00,1,0.6,-0.7,8.3,-2.3,-0.5,-7.4,2.8,,,,,*68
$GPGRS,094552.00,1,0.1,-0.2,0.0,-0.1,1.8,-0.4,-0.5,,,,,*65
$GPGRS,094552.00,1,0.9,0.4,0.6,1.9,-0.5,-0.2,0.9,-1.3,0.1,-1.4,-0.9,*40
$GPGSV,6,1,22,22,67,075,,19,21,139,41,05,11,209,40,23,24,306,42*76
$GPGSV,6,2,22,30,18,089,40,17,34,106,45,14,47,059,46,24,34,283,44*75
$GPGSV,6,3,22,13,67,150,49,15,66,263,49,21,00,029,,10,03,339,37*7F
$GPGSV,6,4,22,12,05,220,38,36,35,170,44,58,13,245,36,40,23,133,36*7B
$GPGSV,6,5,22,34,31,208,42,49,34,195,44,57,07,112,37,41,07,108,35*7A
$GPGSV,6,6,22,61,03,257,38*46
$GLGSV,2,1,08,76,70,277,52,84,14,032,32,67,23,328,47,77,25,246,40*6D
$GLGSV,2,2,08,65,40,179,47,75,39,045,49,66,70,277,52,85,10,082,42*60
$GAGSV,3,1,10,08,69,290,48,30,13,218,39,07,18,311,39,16,30,051,*6C
$GAGSV,3,2,10,03,52,148,47,25,55,061,47,02,64,196,49,05,03,137,*61
$GAGSV,3,3,10,24,06,046,37,33,03,353,35*6F
$GBGSV,5,1,20,26,70,263,51,21,36,189,48,05,20,130,38,25,18,242,*63
$GBGSV,5,2,20,33,20,320,43,40,28,046,43,07,28,057,41,14,41,301,45*68
$GBGSV,5,3,20,56,33,079,,50,51,216,,10,36,070,42,45,49,063,48*66
$GBGSV,5,4,20,42,55,263,50,24,68,240,,36,01,068,37,35,01,140,*6E
$GBGSV,5,5,20,29,07,042,,02,04,109,31,09,02,092,31,60,07,112,40*6A
$GPGGA,094552.00,,,,,0,00,,,M,,M,,*47
$PTNL,GGK,094552.00,010125,4742.1600138,N,01618.1001348,E,1,35,0.8,EHT752.1255,M*41
$GPGGQ,094552.00,010125,4742.1600138,N,01618.1001348,E,1,35,0.918,708.9189,M*32
$GPGFA,094552.00,4.557,5.925,0.479,0.301,7.410,0.723,,VVV*08
$GPLLK,094552.00,010125,,M,,M,1,35,0.9,,M*0B
$GNGMP,094552.00,,,,,DAAA,35,0.4,,,,*5B
$GPGMP,094552.00,,,,,,10,,,,2.4,136*71
$GLGMP,094552.00,,,,,,07,,,,,*77
$GAGMP,094552.00,,,,,,07,,,,,*7A
$GBGMP,094552.00,,,,,,11,,,,,*7E
$PSSN,SNC,[0,294370000,2347]*4F
$GPZDA,094557.00,01,01,2025,,*69
$GPDTM,W84,,00.0000000,N,00.0000000,E,00.0000000,W84*5F
$PSSN,TFM,094557.00,,,,*65
$GPRMC,094557.00,A,4742.1600139,N,01618.1001374,E,0.0,,010125,5.1,E,D*10
$GPGLL,4742.1600139,N,01618.1001374,E,094557.00,A,D*61
$GPGGA,094557.00,4742.1600139,N,01618.1001374,E,2,35,0.4,708.9154,M,43.2066,M,1.8,0136*40
$GNGNS,094557.00,4742.1600139,N,01618.1001374,E,DAAA,35,0.4,708.9154,43.2066,,*51
$GPGNS,094557.00,,,,,,10,,,,1.8,136*7B
$GLGNS,094557.00,,,,,,07,,,,,*72
$GAGNS,094557.00,,,,,,07,,,,,*7F
$GBGNS,094557.00,,,,,,11,,,,,*7B
$GPLLQ,094557.00,010125,,M,,M,1,35,0.905,,M*11
$GPVTG,,T,,M,0.00,N,0.00,K,D*26
$GPHDT,,T*1B
$GPTHS,,V*0E
$GPROT,,V*08
$PSSN,HRP,094557.00,010125,,,,,,,00,0,,*6B
$PTNL,AVR,094557.00,,Yaw,,Tilt,,,,0,,00*3D
$GPGSA,A,3,05,12,13,14,15,17,19,23,24,30,,,0.8,0.4,0.6*37
$GPGSA,A,3,65,66,67,75,76,77,85,,,,,,0.8,0.4,0.6*34
$GPGSA,A,3,02,03,07,08,24,25,30,,,,,,0.8,0.4,0.6*34
$GPGSA,A,3,05,07,10,14,21,26,33,40,42,45,60,,0.8,0.4,0.6*3C
$GPGST,094557.00,2.313,0.474,0.296,7.848,0.471,0.301,0.712*53
$GPGBS,094557.00,2.598,1.493,4.481,77,0.0001,-8.052,6.218*7B
$GPGRS,094557.00,1,-0.2,0.4,0.2,-0.1,-0.3,-0.1,0.1,0.6,0.1,-0.7,,*6F
$GPGRS,094557.00,1,0.4,-0.8,7.6,-1.7,-0.3,-8.1,2.8,,,,,*61
$GPGRS,094557.00,1,-0.1,-0.2,0.2,-0.0,1.7,-0.5,-0.5,,,,,*40
$GPGRS,094557.00,1,1.3,0.0,0.3,2.1,-0.3,-0.0,0.1,-1.3,0.2,-1.6,-0.2,*42
$GPGSV,6,1,22,22,67,075,,19,21,139,42,05,11,209,40,23,24,306,42*75
$GPGSV,6,2,22,30,18,089,40,17,34,106,46,14,47,059,46,24,34,283,43*71
$GPGSV,6,3,22,13,67,150,49,15,67,263,49,21,00,029,,10,03,339,37*7E
$GPGSV,6,4,22,12,05,220,38,36,35,170,44,58,13,245,36,40,23,133,36*7B
$GPGSV,6,5,22,34,31,208,42,49,34,195,44,57,07,112,37,41,07,108,35*7A
$GPGSV,6,6,22,61,03,257,38*46
$GLGSV,2,1,08,76,70,277,52,84,14,032,33,67,23,328,47,77,25,246,41*6D
$GLGSV,2,2,08,65,40,179,47,75,39,045,49,66,70,277,53,85,10,082,42*61
$GAGSV,3,1,10,08,69,290,48,30,13,218,38,07,18,311,40,16,30,051,*63
$GAGSV,3,2,10,03,52,148,47,25,55,060,46,02,64,196,48,05,03,137,*60
$GAGSV,3,3,10,24,06,046,37,33,03,353,35*6F
$GBGSV,5,1,20,26,70,263,51,21,36,189,48,05,20,130,38,25,18,242,*63
$GBGSV,5,2,20,33,20,320,43,40,28,046,43,07,28,057,41,14,41,300,46*6A
$GBGSV,5,3,20,56,33,079,,50,51,216,,10,36,070,42,45,49,063,48*66
$GBGSV,5,4,20,42,55,263,50,24,68,240,,36,01,068,37,35,01,140,*6E
$GBGSV,5,5,20,29,07,042,,02,04,109,31,09,02,092,31,60,07,112,40*6A
$GPGGA,094557.00,,,,,0,00,,,M,,M,,*42
$PTNL,GGK,094557.00,010125,4742.1600139,N,01618.1001374,E,1,35,0.8,EHT752.1219,M*42
$GPGGQ,094557.00,010125,4742.1600139,N,01618.1001374,E,1,35,0.905,708.9154,M*35
$GPGFA,094557.00,4.503,5.835,0.474,0.296,7.848,0.712,,VVV*0D
$GPLLK,094557.00,010125,,M,,M,1,35,0.9,,M*0E
$GNGMP,094557.00,,,,,DAAA,35,0.4,,,,*5E
$GPGMP,094557.00,,,,,,10,,,,1.8,136*7B
$GLGMP,094557.00,,,,,,07,,,,,*72
$GAGMP,094557.00,,,,,,07,,,,,*7F
$GBGMP,094557.00,,,,,,11,,,,,*7B
$PSSN,SNC,[0,294375000,2347]*4A
$GPZDA,094602.00,01,01,2025,,*6A
$GPDTM,W84,,00.0000000,N,00.0000000,E,00.0000000,W84*5F
$PSSN,TFM,094602.00,,,,*66
$GPRMC,094602.00,A,4742.1600143,N,01618.1001385,E,0.0,,010125,5.1,E,D*10
$GPGLL,4742.1600143,N,01618.1001385,E,094602.00,A,D*61
$GPGGA,094602.00,4742.1600143,N,01618.1001385,E,2,35,0.4,708.9173,M,43.2066,M,2.4,0136*4A
$GNGNS,094602.00,4742.1600143,N,01618.1001385,E,DAAA,35,0.4,708.9173,43.2066,,*54
$GPGNS,094602.00,,,,,,10,,,,2.4,136*77
$GLGNS,094602.00,,,,,,07,,,,,*71
$GAGNS,094602.00,,,,,,07,,,,,*7C
$GBGNS,094602.00,,,,,,11,,,,,*78
$GPLLQ,094602.00,010125,,M,,M,1,35,0.901,,M*16
$GPVTG,,T,,M,0.00,N,0.01,K,D*27
$GPHDT,,T*1B
$GPTHS,,V*0E
$GPROT,,V*08
$PSSN,HRP,094602.00,010125,,,,,,,00,0,,*68
$PTNL,AVR,094602.00,,Yaw,,Tilt,,,,0,,00*3E
$GPGSA,A,3,05,12,13,14,15,17,19,23,24,30,,,0.8,0.4,0.6*37
$GPGSA,A,3,65,66,67,75,76,77,85,,,,,,0.8,0.4,0.6*34
$GPGSA,A,3,02,03,07,08,24,25,30,,,,,,0.8,0.4,0.6*34
$GPGSA,A,3,05,07,10,14,21,26,33,40,42,45,60,,0.8,0.4,0.6*3C
$GPGST,094602.00,2.315,0.470,0.298,7.107,0.468,0.302,0.709*5F
$GPGBS,094602.00,2.626,1.509,4.546,67,0.0001,8.051,6.207*57
$GPGRS,094602.00,1,-0.6,-0.1,0.5,-0.1,-0.2,-0.3,0.5,0.8,-0.3,-0.9,,*6F
$GPGRS,094602.00,1,0.7,-0.6,8.1,-1.8,-0.6,-7.3,2.6,,,,,*6E
$GPGRS,094602.00,1,-0.2,-0.2,-0.0,-0.1,1.8,0.0,0.0,,,,,*61
$GPGRS,094602.00,1,1.4,0.2,0.5,2.8,0.2,0.0,-0.5,-1.2,0.1,-1.5,-0.6,*66
$GPGSV,6,1,22,22,67,075,,19,21,139,42,05,11,209,40,23,24,306,42*75
$GPGSV,6,2,22,30,18,089,40,17,34,106,45,14,47,059,46,24,34,283,43*72
$GPGSV,6,3,22,13,67,150,49,15,67,263,49,21,00,029,,10,03,339,37*7E
$GPGSV,6,4,22,12,05,220,37,36,35,170,44,58,13,245,36,40,23,133,37*75
$GPGSV,6,5,22,34,31,208,42,49,34,195,44,57,07,112,37,41,07,108,35*7A
$GPGSV,6,6,22,61,03,257,38*46
$GLGSV,2,1,08,76,70,277,52,84,14,032,32,67,23,327,47,77,25,246,41*63
$GLGSV,2,2,08,65,40,179,47,75,39,045,49,66,70,277,52,85,10,082,42*60
$GAGSV,3,1,10,08,69,290,48,30,14,218,39,07,18,311,40,16,30,051,*65
$GAGSV,3,2,10,03,52,148,47,25,55,060,47,02,64,196,49,05,03,137,*60
$GAGSV,3,3,10,24,06,046,36,33,03,353,35*6E
$GBGSV,5,1,20,26,70,263,51,21,36,189,48,05,20,130,37,25,18,242,*6C
$GBGSV,5,2,20,33,20,320,42,40,28,046,43,07,28,057,41,14,41,300,45*68
$GBGSV,5,3,20,56,33,079,,50,51,216,,10,36,070,42,45,48,063,48*67
$GBGSV,5,4,20,42,55,263,50,24,68,240,,36,01,068,37,35,01,140,*6E
$GBGSV,5,5,20,29,07,042,,02,04,109,31,09,02,092,31,60,07,112,40*6A
$GPGGA,094602.00,,,,,0,00,,,M,,M,,*41
$PTNL,GGK,094602.00,010125,4742.1600143,N,01618.1001385,E,1,35,0.8,EHT752.1238,M*41
$GPGGQ,094602.00,010125,4742.1600143,N,01618.1001385,E,1,35,0.901,708.9173,M*34
$GPGFA,094602.00,4.467,5.814,0.470,0.298,7.107,0.709,,VVV*0C
$GPLLK,094602.00,010125,,M,,M,1,35,0.9,,M*0D
$GNGMP,094602.00,,,,,DAAA,35,0.4,,,,*5D
$GPGMP,094602.00,,,,,,10,,,,2.4,136*77
$GLGMP,094602.00,,,,,,07,,,,,*71
$GAGMP,094602.00,,,,,,07,,,,,*7C
$GBGMP,094602.00,,,,,,11,,,,,*78
$PSSN,SNC,[0,294380000,2347]*40
$GPZDA,094607.00,01,01,2025,,*6F
$GPDTM,W84,,00.0000000,N,00.0000000,E,00.0000000,W84*5F
$PSSN,TFM,094607.00,,,,*63
$GPRMC,094607.00,A,4742.1600120,N,01618.1001401,E,0.0,,010125,5.1,E,D*1B
$GPGLL,4742.1600120,N,01618.1001401,E,094607.00,A,D*6A
$GPGGA,094607.00,4742.1600120,N,01618.1001401,E,2,35,0.4,708.9167,M,43.2066,M,3.4,0136*45
$GNGNS,094607.00,4742.1600120,N,01618.1001401,E,DAAA,35,0.4,708.9167,43.2066,,*5A
$GPGNS,094607.00,,,,,,10,,,,3.4,136*73
$GLGNS,094607.00,,,,,,07,,,,,*74
$GAGNS,094607.00,,,,,,07,,,,,*79
$GBGNS,094607.00,,,,,,11,,,,,*7D
$GPLLQ,094607.00,010125,,M,,M,1,35,0.924,,M*14
$GPVTG,,T,,M,0.00,N,0.00,K,D*26
$GPHDT,,T*1B
$GPTHS,,V*0E
$GPROT,,V*08
$PSSN,HRP,094607.00,010125,,,,,,,00,0,,*6D
$PTNL,AVR,094607.00,,Yaw,,Tilt,,,,0,,00*3B
$GPGSA,A,3,05,12,13,14,15,17,19,23,24,30,,,0.8,0.4,0.6*37
$GPGSA,A,3,65,66,67,75,76,77,85,,,,,,0.8,0.4,0.6*34
$GPGSA,A,3,02,03,07,08,24,25,30,,,,,,0.8,0.4,0.6*34
$GPGSA,A,3,05,07,10,14,21,26,33,40,42,45,60,,0.8,0.4,0.6*3C
$GPGST,094607.00,2.373,0.481,0.305,6.735,0.479,0.308,0.727*51
$GPGBS,094607.00,2.668,1.530,4.633,67,0.0001,8.278,6.207*5A
$GPGRS,094607.00,1,-0.5,0.8,0.4,0.1,-0.3,-0.7,0.1,0.9,0.1,-0.9,,*4E
$GPGRS,094607.00,1,0.9,-0.6,8.3,-2.3,-0.3,-7.1,3.7,,,,,*68
$GPGRS,094607.00,1,0.0,-0.1,-0.4,-0.1,1.8,-0.1,0.2,,,,,*62
$GPGRS,094607.00,1,1.3,0.0,0.3,2.3,0.2,-0.0,0.3,-0.9,0.0,-1.6,-0.8,*6B
$GPGSV,6,1,22,22,67,075,,19,22,139,42,05,11,209,40,23,24,305,42*75
$GPGSV,6,2,22,30,18,089,40,17,34,106,45,14,47,059,46,24,34,283,44*75
$GPGSV,6,3,22,13,67,150,49,15,67,263,50,21,00,029,,10,03,339,38*79
$GPGSV,6,4,22,12,05,220,37,36,35,170,44,58,13,245,36,40,23,133,37*75
$GPGSV,6,5,22,34,31,208,42,49,34,195,44,57,07,112,37,41,07,108,35*7A
$GPGSV,6,6,22,61,03,257,38*46
$GLGSV,2,1,08,76,70,277,52,84,14,032,32,67,23,327,46,77,25,246,41*62
$GLGSV,2,2,08,65,40,179,47,75,39,045,49,66,70,277,53,85,10,082,42*61
$GAGSV,3,1,10,08,69,290,48,30,14,218,39,07,18,311,40,16,30,051,*65
$GAGSV,3,2,10,03,52,148,47,25,55,060,46,02,64,196,49,05,03,137,*61
$GAGSV,3,3,10,24,06,046,37,33,03,353,36*6C
$GBGSV,5,1,20,26,70,263,51,21,35,189,47,05,20,130,37,25,18,242,*60
$GBGSV,5,2,20,33,20,320,43,40,28,046,43,07,28,057,41,14,41,300,45*69
$GBGSV,5,3,20,56,33,079,,50,51,216,,10,36,070,42,45,48,063,48*67
$GBGSV,5,4,20,42,55,263,50,24,69,240,,36,01,068,37,35,01,140,*6F
$GBGSV,5,5,20,29,07,042,,02,04,109,31,09,02,092,31,60,07,112,40*6A
$GPGGA,094607.00,,,,,0,00,,,M,,M,,*44
$PTNL,GGK,094607.00,010125,4742.1600120,N,01618.1001401,E,1,35,0.8,EHT752.1233,M*41
$GPGGQ,094607.00,010125,4742.1600120,N,01618.1001401,E,1,35,0.924,708.9167,M*3D
$GPGFA,094607.00,4.570,5.963,0.481,0.305,6.735,0.727,,VVV*0E
$GPLLK,094607.00,010125,,M,,M,1,35,0.9,,M*08
$GNGMP,094607.00,,,,,DAAA,35,0.4,,,,*58
$GPGMP,094607.00,,,,,,10,,,,3.4,136*73
$GLGMP,094607.00,,,,,,07,,,,,*74
$GAGMP,094607.00,,,,,,07,,,,,*79
$GBGMP,094607.00,,,,,,11,,,,,*7D
$PSSN,SNC,[0,294385000,2347]*45
$GPZDA,094612.00,01,01,2025,,*6B
$GPDTM,W84,,00.0000000,N,00.0000000,E,00.0000000,W84*5F
$PSSN,TFM,094612.00,,,,*67
$GPRMC,094612.00,A,4742.1600110,N,01618.1001482,E,0.0,,010125,5.1,E,D*17
$GPGLL,4742.1600110,N,01618.1001482,E,094612.00,A,D*66
$GPGGA,094612.00,4742.1600110,N,01618.1001482,E,2,35,0.4,708.9153,M,43.2066,M,2.4,0136*4F
$GNGNS,094612.00,4742.1600110,N,01618.1001482,E,DAAA,35,0.4,708.9153,43.2066,,*51
$GPGNS,094612.00,,,,,,10,,,,2.4,136*76
$GLGNS,094612.00,,,,,,07,,,,,*70
$GAGNS,094612.00,,,,,,07,,,,,*7D
$GBGNS,094612.00,,,,,,11,,,,,*79
$GPLLQ,094612.00,010125,,M,,M,1,35,0.917,,M*10
$GPVTG,,T,,M,0.01,N,0.01,K,D*26
$GPHDT,,T*1B
$GPTHS,,V*0E
$GPROT,,V*08
$PSSN,HRP,094612.00,010125,,,,,,,00,0,,*69
$PTNL,AVR,094612.00,,Yaw,,Tilt,,,,0,,00*3F
$GPGSA,A,3,05,12,13,14,15,17,19,23,24,30,,,0.8,0.4,0.6*37
$GPGSA,A,3,65,66,67,75,76,77,85,,,,,,0.8,0.4,0.6*34
$GPGSA,A,3,02,03,07,08,24,25,30,,,,,,0.8,0.4,0.6*34
$GPGSA,A,3,05,07,10,14,21,26,33,40,42,45,60,,0.8,0.4,0.6*3C
$GPGST,094612.00,2.400,0.479,0.301,7.365,0.476,0.305,0.722*52
$GPGBS,094612.00,2.662,1.484,4.377,67,0.0001,8.525,6.206*51
$GPGRS,094612.00,1,-0.7,1.1,0.4,-0.2,-0.1,-0.4,-0.0,0.8,0.1,-1.0,,*4A
$GPGRS,094612.00,1,1.0,-0.4,8.5,-1.4,-0.4,-7.6,3.4,,,,,*67
$GPGRS,094612.00,1,0.3,-0.2,-0.4,-0.3,1.8,-0.0,0.1,,,,,*66
$GPGRS,094612.00,1,1.0,-0.2,0.6,2.3,-0.0,-0.1,0.4,-0.9,0.2,-1.3,-0.3,*63
$GPGSV,6,1,22,22,67,075,,19,22,139,42,05,11,209,39,23,24,305,42*7B
$GPGSV,6,2,22,30,18,089,40,17,34,106,45,14,47,059,46,24,34,283,44*75
$GPGSV,6,3,22,13,67,150,49,15,67,263,49,21,00,029,,10,03,339,37*7E
$GPGSV,6,4,22,12,05,220,37,36,35,170,44,58,13,245,36,40,23,133,36*74
$GPGSV,6,5,22,34,31,208,42,49,34,195,44,57,07,112,37,41,07,108,35*7A
$GPGSV,6,6,22,61,03,257,38*46
$GLGSV,2,1,08,76,70,277,53,84,14,032,31,67,23,327,47,77,25,246,41*61
$GLGSV,2,2,08,65,40,179,48,75,39,045,50,66,70,276,53,85,10,082,42*67
$GAGSV,3,1,10,08,69,290,48,30,14,218,39,07,18,311,39,16,30,051,*6B
$GAGSV,3,2,10,03,52,148,47,25,55,060,46,02,64,196,49,05,03,137,*61
$GAGSV,3,3,10,24,06,046,37,33,03,353,36*6C
$GBGSV,5,1,20,26,70,263,51,21,35,189,47,05,20,130,37,25,18,242,*60
$GBGSV,5,2,20,33,20,320,42,40,28,046,43,07,28,057,41,14,41,300,46*6B
$GBGSV,5,3,20,56,33,079,,50,51,216,,10,37,070,42,45,48,063,49*67
$GBGSV,5,4,20,42,55,263,50,24,69,240,,36,01,068,37,35,01,140,*6F
$GBGSV,5,5,20,29,07,042,,02,04,109,31,09,02,092,31,60,07,112,40*6A
$GPGGA,094612.00,,,,,0,00,,,M,,M,,*40
$PTNL,GGK,094612.00,010125,4742.1600110,N,01618.1001482,E,1,35,0.8,EHT752.1219,M*45
$GPGGQ,094612.00,010125,4742.1600110,N,01618.1001482,E,1,35,0.917,708.9153,M*36
$GPGFA,094612.00,4.550,5.923,0.479,0.301,7.365,0.722,,VVV*0A
$GPLLK,094612.00,010125,,M,,M,1,35,0.9,,M*0C
$GNGMP,094612.00,,,,,DAAA,35,0.4,,,,*5C
$GPGMP,094612.00,,,,,,10,,,,2.4,136*76
$GLGMP,094612.00,,,,,,07,,,,,*70
$GAGMP,094612.00,,,,,,07,,,,,*7D
$GBGMP,094612.00,,,,,,11,,,,,*79
$PSSN,SNC,[0,294390000,2347]*41
$GPZDA,094617.00,01,01,2025,,*6E
$GPDTM,W84,,00.0000000,N,00.0000000,E,00.0000000,W84*5F
$PSSN,TFM,094617.00,,,,*62
$GPRMC,094617.00,A,4742.1600100,N,01618.1001519,E,0.0,,010125,5.1,E,D*10
$GPGLL,4742.1600100,N,01618.1001519,E,094617.00,A,D*61
$GPGGA,094617.00,4742.1600100,N,01618.1001519,E,2,35,0.4,708.9126,M,43.2066,M,1.8,0136*45
$GNGNS,094617.00,4742.1600100,N,01618.1001519,E,DAAA,35,0.4,708.9126,43.2066,,*54
$GPGNS,094617.00,,,,,,10,,,,1.8,136*7C
$GLGNS,094617.00,,,,,,07,,,,,*75
$GAGNS,094617.00,,,,,,07,,,,,*78
$GBGNS,094617.00,,,,,,11,,,,,*7C
$GPLLQ,094617.00,010125,,M,,M,1,35,0.905,,M*16
$GPVTG,,T,,M,0.00,N,0.00,K,D*26
$GPHDT,,T*1B
$GPTHS,,V*0E
$GPROT,,V*08
$PSSN,HRP,094617.00,010125,,,,,,,00,0,,*6C
$PTNL,AVR,094617.00,,Yaw,,Tilt,,,,0,,00*3A
$GPGSA,A,3,05,12,13,14,15,17,19,23,24,30,,,0.8,0.4,0.6*37
$GPGSA,A,3,65,66,67,75,76,77,85,,,,,,0.8,0.4,0.6*34
$GPGSA,A,3,02,03,07,08,24,25,30,,,,,,0.8,0.4,0.6*34
$GPGSA,A,3,05,07,10,14,21,26,33,40,42,45,60,,0.8,0.4,0.6*3C
$GPGST,094617.00,2.239,0.473,0.296,7.781,0.470,0.300,0.712*50
$GPGBS,094617.00,2.588,1.492,4.470,67,0.0001,7.926,6.206*54
$GPGRS,094617.00,1,-0.7,1.3,0.5,-0.2,-0.3,-0.0,0.1,0.6,-0.1,-0.9,,*4D
$GPGRS,094617.00,1,1.5,-0.4,7.9,-0.8,-0.1,-6.8,3.5,,,,,*62
$GPGRS,094617.00,1,0.4,-0.1,-0.1,-0.3,2.0,0.0,-0.1,,,,,*69
$GPGRS,094617.00,1,1.0,-0.2,0.9,2.1,-0.1,0.2,0.2,-0.8,0.4,-1.2,-0.6,*41
$GPGSV,6,1,22,22,67,075,,19,22,139,43,05,11,209,39,23,24,305,43*7B
$GPGSV,6,2,22,30,18,089,41,17,34,106,45,14,47,059,46,24,34,283,44*74
$GPGSV,6,3,22,13,67,150,49,15,67,263,49,21,00,029,,10,03,339,38*71
$GPGSV,6,4,22,12,05,220,38,36,35,170,44,58,13,245,36,40,23,133,37*7A
$GPGSV,6,5,22,34,31,208,42,49,34,195,44,57,07,112,37,41,07,108,35*7A
$GPGSV,6,6,22,61,03,257,38*46
$GLGSV,2,1,08,76,70,277,53,84,14,032,32,67,23,327,46,77,25,246,42*60
$GLGSV,2,2,08,65,40,179,47,75,39,045,50,66,70,276,53,85,10,082,43*69
$GAGSV,3,1,10,08,69,290,48,30,14,218,39,07,18,311,40,16,30,051,*65
$GAGSV,3,2,10,03,52,148,47,25,55,060,46,02,64,196,49,05,03,137,*61
$GAGSV,3,3,10,24,06,046,37,33,03,353,36*6C
$GBGSV,5,1,20,26,70,263,51,21,35,189,47,05,20,130,38,25,18,242,*6F
$GBGSV,5,2,20,33,20,319,42,40,28,046,43,07,28,057,41,14,41,300,45*62
$GBGSV,5,3,20,56,33,079,,50,51,216,,10,37,070,42,45,48,063,49*67
$GBGSV,5,4,20,42,55,263,50,24,69,240,,36,01,068,36,35,01,140,*6E
$GBGSV,5,5,20,29,07,042,,02,04,109,31,09,02,092,31,60,07,112,40*6A
$GPGGA,094617.00,,,,,0,00,,,M,,M,,*45
$PTNL,GGK,094617.00,010125,4742.1600100,N,01618.1001519,E,1,35,0.8,EHT752.1192,M*42
$GPGGQ,094617.00,010125,4742.1600100,N,01618.1001519,E,1,35,0.905,708.9126,M*30
$GPGFA,094617.00,4.498,5.838,0.473,0.296,7.781,0.712,,VVV*09
$GPLLK,094617.00,010125,,M,,M,1,35,0.9,,M*09
$GNGMP,094617.00,,,,,DAAA,35,0.4,,,,*59
$GPGMP,094617.00,,,,,,10,,,,1.8,136*7C
$GLGMP,094617.00,,,,,,07,,,,,*75
$GAGMP,094617.00,,,,,,07,,,,,*78
$GBGMP,094617.00,,,,,,11,,,,,*7C
$PSSN,SNC,[0,294395000,2347]*44
$GPZDA,094622.00,01,01,2025,,*68
$GPDTM,W84,,00.0000000,N,00.0000000,E,00.0000000,W84*5F
$PSSN,TFM,094622.00,,,,*64
$GPRMC,094622.00,A,4742.1600109,N,01618.1001555,E,0.0,,010125,5.1,E,D*17
$GPGLL,4742.1600109,N,01618.1001555,E,094622.00,A,D*66
$GPGGA,094622.00,4742.1600109,N,01618.1001555,E,2,35,0.4,708.9179,M,43.2066,M,2.4,0136*47
$GNGNS,094622.00,4742.1600109,N,01618.1001555,E,DAAA,35,0.4,708.9179,43.2066,,*59
$GPGNS,094622.00,,,,,,10,,,,2.4,136*75
$GLGNS,094622.00,,,,,,07,,,,,*73
$GAGNS,094622.00,,,,,,07,,,,,*7E
$GBGNS,094622.00,,,,,,11,,,,,*7A
$GPLLQ,094622.00,010125,,M,,M,1,35,0.901,,M*14
$GPVTG,,T,,M,0.01,N,0.01,K,D*26
$GPHDT,,T*1B
$GPTHS,,V*0E
$GPROT,,V*08
$PSSN,HRP,094622.00,010125,,,,,,,00,0,,*6A
$PTNL,AVR,094622.00,,Yaw,,Tilt,,,,0,,00*3C
$GPGSA,A,3,05,12,13,14,15,17,19,23,24,30,,,0.8,0.4,0.6*37
$GPGSA,A,3,65,66,67,75,76,77,85,,,,,,0.8,0.4,0.6*34
$GPGSA,A,3,02,03,07,08,24,25,30,,,,,,0.8,0.4,0.6*34
$GPGSA,A,3,05,07,10,14,21,26,33,40,42,45,60,,0.8,0.4,0.6*3C
$GPGST,094622.00,2.271,0.469,0.298,7.042,0.467,0.301,0.709*5A
$GPGBS,094622.00,2.617,1.507,4.535,67,0.0001,8.247,6.205*5A
$GPGRS,094622.00,1,-0.4,1.0,0.4,-0.2,-0.2,-0.1,0.0,0.4,-0.2,-0.7,,*44
$GPGRS,094622.00,1,0.6,-0.6,8.2,-1.8,-0.6,-6.5,4.0,,,,,*69
$GPGRS,094622.00,1,0.1,-0.2,0.2,-0.2,1.5,-0.3,-0.0,,,,,*6F
$GPGRS,094622.00,1,1.8,-0.0,0.7,1.5,0.1,0.1,0.5,-0.8,0.2,-1.4,-0.9,*62
$GPGSV,6,1,22,22,67,075,,19,22,139,43,05,11,209,39,23,24,305,43*7B
$GPGSV,6,2,22,30,18,089,41,17,34,106,46,14,47,059,47,24,34,283,44*76
$GPGSV,6,3,22,13,67,150,50,15,67,262,50,21,00,029,,10,03,339,39*71
$GPGSV,6,4,22,12,05,220,39,36,35,170,44,58,13,245,36,40,23,133,37*7B
$GPGSV,6,5,22,34,31,208,42,49,34,195,44,57,07,112,37,41,07,108,35*7A
$GPGSV,6,6,22,61,03,257,38*46
$GLGSV,2,1,08,76,70,277,53,84,14,032,33,67,23,327,48,77,25,246,41*6C
$GLGSV,2,2,08,65,40,179,47,75,39,045,49,66,70,276,53,85,10,082,42*60
$GAGSV,3,1,10,08,69,290,48,30,14,218,39,07,18,311,40,16,30,051,*65
$GAGSV,3,2,10,03,52,148,47,25,55,060,46,02,64,196,49,05,03,137,*61
$GAGSV,3,3,10,24,06,046,37,33,03,353,36*6C
