$GPZDA,231442.00,01,01,2025,,*61
$GPDTM,W84,,00.0000000,N,00.0000000,E,00.0000000,W84*5F
$PSSN,TFM,231442.00,,,,*6D
$GPRMC,231442.00,A,4742.1601545,N,01618.1003842,E,0.0,,010125,5.1,E,D*1A
$GPGLL,4742.1601545,N,01618.1003842,E,231442.00,A,D*6B
$GPGGA,231442.00,4742.1601545,N,01618.1003842,E,2,38,0.4,707.8751,M,43.2066,M,2.0,0136*41
$GNGNS,231442.00,4742.1601545,N,01618.1003842,E,DAAA,38,0.4,707.8751,43.2066,,*5B
$GPGNS,231442.00,,,,,,09,,,,2.0,136*70
$GLGNS,231442.00,,,,,,08,,,,,*75
$GAGNS,231442.00,,,,,,08,,,,,*78
$GBGNS,231442.00,,,,,,13,,,,,*71
$GPLLQ,231442.00,010125,,M,,M,1,38,0.824,,M*16
$GPVTG,,T,,M,0.01,N,0.01,K,D*26
$GPHDT,,T*1B
$GPTHS,,V*0E
$GPROT,,V*08
$PSSN,HRP,231442.00,010125,,,,,,,00,0,,*63
$PTNL,AVR,231442.00,,Yaw,,Tilt,,,,0,,00*35
$GPGSA,A,3,02,03,08,10,14,17,21,27,32,,,,0.7,0.4,0.6*3B
$GPGSA,A,3,68,69,70,76,77,84,85,86,,,,,0.7,0.4,0.6*3F
$GPGSA,A,3,07,08,13,24,26,29,31,33,,,,,0.7,0.4,0.6*31
$GPGSA,A,3,05,06,09,13,16,27,28,30,32,33,39,41,0.7,0.4,0.6*3A
$GPGSA,A,3,60,,,,,,,,,,,,0.7,0.4,0.6*31
$GPGST,231442.00,2.617,0.371,0.352,5.975,0.370,0.352,0.646*5C
$GPGBS,231442.00,2.493,2.177,3.812,77,0.0001,-10.751,6.400*46
$GPGRS,231442.00,1,-0.2,-0.3,0.1,0.0,-0.0,0.1,0.2,-0.8,0.3,,,*6A
$GPGRS,231442.00,1,7.1,1.3,-1.2,-2.8,-10.8,0.2,5.0,-0.6,,,,*79
$GPGRS,231442.00,1,-0.0,0.1,0.4,-0.2,-0.1,0.3,-0.3,0.0,,,,*4A
$GPGRS,231442.00,1,1.3,1.3,1.0,0.2,0.5,-0.3,-0.0,0.3,-0.2,-0.5,-0.3,-1.1*4E
$GPGRS,231442.00,1,-1.1,,,,,,,,,,,*4F
$GPGSV,5,1,19,21,86,036,45,14,15,294,40,17,13,320,41,10,22,059,42*7D
$GPGSV,5,2,19,27,14,165,39,03,32,245,44,08,41,187,47,32,46,071,49*77
$GPGSV,5,3,19,02,67,305,49,28,04,113,,36,35,170,45,58,13,245,38*71
$GPGSV,5,4,19,57,11,109,38,34,31,208,43,40,24,132,37,49,34,195,44*78
$GPGSV,5,5,19,41,07,108,35,61,03,257,38*73
$GLGSV,2,1,08,69,64,052,51,85,58,327,52,68,15,032,44,84,59,109,39*68
$GLGSV,2,2,08,70,42,200,43,76,10,315,43,77,07,358,36,86,06,312,43*6A
$GAGSV,3,1,11,26,64,088,48,29,34,165,44,08,18,039,40,24,14,319,39*63
$GAGSV,3,2,11,13,13,104,39,31,20,268,41,07,50,090,47,33,59,304,47*6F
$GAGSV,3,3,11,12,07,290,33,23,05,221,,16,04,341,*57
$GBGSV,6,1,21,57,77,313,,13,10,064,39,20,31,200,,60,10,109,41*6F
$GBGSV,6,2,21,09,13,093,37,33,28,049,45,28,31,139,45,16,17,077,39*66
$GBGSV,6,3,21,05,24,128,38,32,38,210,48,39,19,066,42,06,16,080,38*6D
$GBGSV,6,4,21,29,39,303,,30,47,303,48,27,75,170,52,41,75,096,51*6D
$GBGSV,6,5,21,14,04,044,37,31,05,089,,26,02,329,,02,09,105,34*6E
$GBGSV,6,6,21,08,01,063,31*56
$GPGGA,231442.00,,,,,0,00,,,M,,M,,*4A
$PTNL,GGK,231442.00,010125,4742.1601545,N,01618.1003842,E,1,38,0.7,EHT751.0817,M*4C
$GPGGQ,231442.00,010125,4742.1601545,N,01618.1003842,E,1,38,0.824,707.8751,M*3D
$GPGFA,231442.00,3.524,5.301,0.371,0.352,5.975,0.646,,VVV*0D
$GPLLK,231442.00,010125,,M,,M,1,38,0.8,,M*0A
$GNGMP,231442.00,,,,,DAAA,38,0.4,,,,*5B
$GPGMP,231442.00,,,,,,09,,,,2.0,136*70
$GLGMP,231442.00,,,,,,08,,,,,*75
$GAGMP,231442.00,,,,,,08,,,,,*78
$GBGMP,231442.00,,,,,,13,,,,,*71
$PSSN,SNC,[0,342900000,2347]*48
$GPZDA,231447.00,01,01,2025,,*64
$GPDTM,W84,,00.0000000,N,00.0000000,E,00.0000000,W84*5F
$PSSN,TFM,231447.00,,,,*68
$GPRMC,231447.00,A,4742.1601532,N,01618.1003818,E,0.0,,010125,5.1,E,D*10
$GPGLL,4742.1601532,N,01618.1003818,E,231447.00,A,D*61
$GPGGA,231447.00,4742.1601532,N,01618.1003818,E,2,38,0.4,707.8706,M,43.2066,M,2.6,0136*4F
$GNGNS,231447.00,4742.1601532,N,01618.1003818,E,DAAA,38,0.4,707.8706,43.2066,,*53
$GPGNS,231447.00,,,,,,09,,,,2.6,136*73
$GLGNS,231447.00,,,,,,08,,,,,*70
$GAGNS,231447.00,,,,,,08,,,,,*7D
$GBGNS,231447.00,,,,,,13,,,,,*74
$GPLLQ,231447.00,010125,,M,,M,1,38,0.821,,M*16
$GPVTG,,T,,M,0.00,N,0.01,K,D*27
$GPHDT,,T*1B
$GPTHS,,V*0E
$GPROT,,V*08
$PSSN,HRP,231447.00,010125,,,,,,,00,0,,*66
$PTNL,AVR,231447.00,,Yaw,,Tilt,,,,0,,00*30
$GPGSA,A,3,02,03,08,10,14,17,21,27,32,,,,0.7,0.4,0.6*3B
$GPGSA,A,3,68,69,70,76,77,84,85,86,,,,,0.7,0.4,0.6*3F
$GPGSA,A,3,07,08,13,24,26,29,31,33,,,,,0.7,0.4,0.6*31
$GPGSA,A,3,05,06,09,13,16,27,28,30,32,33,39,41,0.7,0.4,0.6*3A
$GPGSA,A,3,60,,,,,,,,,,,,0.7,0.4,0.6*31
$GPGST,231447.00,2.896,0.367,0.347,1.157,0.367,0.347,0.648*5D
$GPGBS,231447.00,2.518,2.219,3.861,77,0.0001,-12.421,6.398*4E
$GPGRS,231447.00,1,-0.3,0.2,0.3,-0.2,0.2,0.0,-0.2,-0.3,0.2,,,*66
$GPGRS,231447.00,1,7.3,1.1,-0.5,-3.6,-12.4,0.3,5.3,-0.4,,,,*7B
$GPGRS,231447.00,1,-0.4,0.2,0.3,0.1,-0.0,0.7,-0.4,-0.1,,,,*4F
$GPGRS,231447.00,1,1.0,1.4,1.3,0.0,0.7,-0.1,-0.2,0.2,0.1,-0.5,-0.6,-1.0*67
$GPGRS,231447.00,1,-1.0,,,,,,,,,,,*4B
$GPGSV,5,1,19,21,86,037,44,17,13,320,41,14,15,294,40,10,22,059,42*7D
$GPGSV,5,2,19,27,14,165,39,03,32,245,44,08,41,187,47,32,46,071,48*76
$GPGSV,5,3,19,02,67,305,49,28,04,113,,36,35,170,45,58,13,245,38*71
$GPGSV,5,4,19,57,11,109,38,34,31,208,42,40,24,132,37,49,34,195,44*79
$GPGSV,5,5,19,41,07,108,35,61,03,257,38*73
$GLGSV,2,1,08,69,64,052,51,85,58,327,52,68,15,032,44,84,59,109,39*68
$GLGSV,2,2,08,70,42,200,42,76,10,315,44,77,07,358,37,86,06,312,43*6D
$GAGSV,3,1,11,26,64,088,48,29,34,165,44,08,18,039,40,24,14,319,39*63
$GAGSV,3,2,11,13,13,104,39,31,20,268,41,07,50,090,47,33,59,304,48*60
$GAGSV,3,3,11,12,07,290,34,23,05,221,,16,04,341,*50
$GBGSV,6,1,21,57,77,313,,13,10,064,38,20,31,200,,60,10,109,41*6E
$GBGSV,6,2,21,09,13,093,37,33,28,049,45,28,31,139,46,16,17,077,39*65
$GBGSV,6,3,21,05,24,128,38,32,38,210,48,39,19,066,42,06,16,080,38*6D
$GBGSV,6,4,21,29,39,303,,30,47,303,49,27,75,170,52,41,75,096,51*6C
$GBGSV,6,5,21,14,04,044,37,31,05,089,,26,02,329,,02,09,105,33*69
$GBGSV,6,6,21,08,01,063,30*57
$GPGGA,231447.00,,,,,0,00,,,M,,M,,*4F
$PTNL,GGK,231447.00,010125,4742.1601532,N,01618.1003818,E,1,38,0.7,EHT751.0771,M*49
$GPGGQ,231447.00,010125,4742.1601532,N,01618.1003818,E,1,38,0.821,707.8706,M*30
$GPGFA,231447.00,3.492,5.312,0.367,0.347,1.157,0.648,,VVV*07
$GPLLK,231447.00,010125,,M,,M,1,38,0.8,,M*0F
$GNGMP,231447.00,,,,,DAAA,38,0.4,,,,*5E
$GPGMP,231447.00,,,,,,09,,,,2.6,136*73
$GLGMP,231447.00,,,,,,08,,,,,*70
$GAGMP,231447.00,,,,,,08,,,,,*7D
$GBGMP,231447.00,,,,,,13,,,,,*74
$PSSN,SNC,[0,342905000,2347]*4D
$GPZDA,231452.00,01,01,2025,,*60
$GPDTM,W84,,00.0000000,N,00.0000000,E,00.0000000,W84*5F
$PSSN,TFM,231452.00,,,,*6C
$GPRMC,231452.00,A,4742.1601546,N,01618.1003850,E,0.0,,010125,5.1,E,D*1B
$GPGLL,4742.1601546,N,01618.1003850,E,231452.00,A,D*6A
$GPGGA,231452.00,4742.1601546,N,01618.1003850,E,2,38,0.4,707.8755,M,43.2066,M,2.2,0136*46
$GNGNS,231452.00,4742.1601546,N,01618.1003850,E,DAAA,38,0.4,707.8755,43.2066,,*5E
$GPGNS,231452.00,,,,,,09,,,,2.2,136*73
$GLGNS,231452.00,,,,,,08,,,,,*74
$GAGNS,231452.00,,,,,,08,,,,,*79
$GBGNS,231452.00,,,,,,13,,,,,*70
$GPLLQ,231452.00,010125,,M,,M,1,38,0.861,,M*16
$GPVTG,,T,,M,0.00,N,0.00,K,D*26
$GPHDT,,T*1B
$GPTHS,,V*0E
$GPROT,,V*08
$PSSN,HRP,231452.00,010125,,,,,,,00,0,,*62
$PTNL,AVR,231452.00,,Yaw,,Tilt,,,,0,,00*34
$GPGSA,A,3,02,03,08,10,14,17,21,27,32,,,,0.7,0.4,0.6*3B
$GPGSA,A,3,68,69,70,76,77,84,85,86,,,,,0.7,0.4,0.6*3F
$GPGSA,A,3,07,08,13,24,26,29,31,33,,,,,0.7,0.4,0.6*31
$GPGSA,A,3,05,06,09,13,16,27,28,30,32,33,39,41,0.7,0.4,0.6*3A
$GPGSA,A,3,60,,,,,,,,,,,,0.7,0.4,0.6*31
$GPGST,231452.00,2.801,0.387,0.363,1.112,0.387,0.363,0.678*55
$GPGBS,231452.00,2.469,2.227,3.959,77,0.0001,-11.769,6.399*47
$GPGRS,231452.00,1,-0.5,0.7,0.4,0.3,0.2,0.3,-0.3,-0.5,0.0,,,*4C
$GPGRS,231452.00,1,7.3,1.2,-0.9,-2.2,-11.8,0.2,5.4,0.4,,,,*51
$GPGRS,231452.00,1,-0.3,-0.0,0.3,0.2,-0.1,0.5,-0.0,-0.0,,,,*66
$GPGRS,231452.00,1,1.0,1.3,2.3,-1.1,0.5,-0.2,0.1,0.1,-0.1,-0.9,-1.0,-1.1*41
$GPGRS,231452.00,1,-1.1,,,,,,,,,,,*4E
$GPGSV,5,1,19,21,86,037,45,17,13,320,42,14,15,294,40,10,22,059,43*7E
$GPGSV,5,2,19,27,14,165,40,03,32,245,44,08,41,187,47,32,46,071,48*78
$GPGSV,5,3,19,02,67,305,49,28,04,113,,36,35,170,45,58,13,245,38*71
$GPGSV,5,4,19,57,11,109,38,34,31,208,42,40,24,132,36,49,34,195,44*78
$GPGSV,5,5,19,41,07,108,35,61,03,257,39*72
$GLGSV,2,1,08,69,64,052,51,85,58,327,52,68,15,032,44,84,59,109,39*68
$GLGSV,2,2,08,70,42,200,43,76,10,315,44,77,07,358,37,86,06,312,44*6B
$GAGSV,3,1,11,26,64,088,48,29,34,165,44,08,17,039,39,24,14,319,39*62
$GAGSV,3,2,11,13,13,104,39,31,20,268,40,07,50,090,46,33,59,304,48*60
$GAGSV,3,3,11,12,07,290,34,23,05,221,,16,04,341,*50
$GBGSV,6,1,21,57,77,313,,13,10,064,37,20,31,200,,60,10,109,41*61
$GBGSV,6,2,21,09,13,093,38,33,28,049,45,28,31,139,46,16,17,077,39*6A
$GBGSV,6,3,21,05,24,128,38,32,38,211,48,39,19,066,42,06,16,080,38*6C
$GBGSV,6,4,21,29,39,303,,30,47,303,49,27,75,170,52,41,75,096,51*6C
$GBGSV,6,5,21,14,04,044,37,31,05,089,,26,02,329,,02,09,105,34*6E
$GBGSV,6,6,21,08,01,063,30*57
$GPGGA,231452.00,,,,,0,00,,,M,,M,,*4B
$PTNL,GGK,231452.00,010125,4742.1601546,N,01618.1003850,E,1,38,0.7,EHT751.0821,M*48
$GPGGQ,231452.00,010125,4742.1601546,N,01618.1003850,E,1,38,0.861,707.8755,M*39
$GPGFA,231452.00,3.676,5.556,0.387,0.363,1.112,0.678,,VVV*07
$GPLLK,231452.00,010125,,M,,M,1,38,0.8,,M*0B
$GNGMP,231452.00,,,,,DAAA,38,0.4,,,,*5A
$GPGMP,231452.00,,,,,,09,,,,2.2,136*73
$GLGMP,231452.00,,,,,,08,,,,,*74
$GAGMP,231452.00,,,,,,08,,,,,*79
$GBGMP,231452.00,,,,,,13,,,,,*70
$PSSN,SNC,[0,342910000,2347]*49
$GPZDA,231457.00,01,01,2025,,*65
$GPDTM,W84,,00.0000000,N,00.0000000,E,00.0000000,W84*5F
$PSSN,TFM,231457.00,,,,*69
$GPRMC,231457.00,A,4742.1601563,N,01618.1003877,E,0.0,,010125,5.1,E,D*1C
$GPGLL,4742.1601563,N,01618.1003877,E,231457.00,A,D*6D
$GPGGA,231457.00,4742.1601563,N,01618.1003877,E,2,38,0.4,707.8798,M,43.2066,M,3.2,0136*41
$GNGNS,231457.00,4742.1601563,N,01618.1003877,E,DAAA,38,0.4,707.8798,43.2066,,*58
$GPGNS,231457.00,,,,,,09,,,,3.2,136*77
$GLGNS,231457.00,,,,,,08,,,,,*71
$GAGNS,231457.00,,,,,,08,,,,,*7C
$GBGNS,231457.00,,,,,,13,,,,,*75
$GPLLQ,231457.00,010125,,M,,M,1,38,0.828,,M*1E
$GPVTG,,T,,M,0.00,N,0.00,K,D*26
$GPHDT,,T*1B
$GPTHS,,V*0E
$GPROT,,V*08
$PSSN,HRP,231457.00,010125,,,,,,,00,0,,*67
$PTNL,AVR,231457.00,,Yaw,,Tilt,,,,0,,00*31
$GPGSA,A,3,02,03,08,10,14,17,21,27,32,,,,0.7,0.4,0.6*3B
$GPGSA,A,3,68,69,70,76,77,84,85,86,,,,,0.7,0.4,0.6*3F
$GPGSA,A,3,07,08,13,24,26,29,31,33,,,,,0.7,0.4,0.6*31
$GPGSA,A,3,05,06,09,13,16,27,28,30,32,33,39,41,0.7,0.4,0.6*3A
$GPGSA,A,3,60,,,,,,,,,,,,0.7,0.4,0.6*31
$GPGST,231457.00,2.851,0.374,0.354,6.084,0.374,0.354,0.648*5F
$GPGBS,231457.00,2.485,2.247,4.029,77,0.0001,-11.957,6.399*4C
$GPGRS,231457.00,1,-0.3,0.6,0.2,0.1,0.1,0.5,-0.2,-0.3,-0.2,,,*67
$GPGRS,231457.00,1,7.7,1.6,-1.2,-2.8,-12.0,0.4,4.8,0.1,,,,*51
$GPGRS,231457.00,1,-0.3,-0.1,0.1,-0.2,-0.1,0.5,-0.2,-0.3,,,,*4C
$GPGRS,231457.00,1,1.0,1.6,1.7,-1.3,0.7,-0.3,-0.2,-0.1,-0.2,-1.0,-1.2,-1.0*4C
$GPGRS,231457.00,1,-1.0,,,,,,,,,,,*4A
$GPGSV,5,1,19,21,86,038,45,17,13,320,41,14,15,294,40,10,22,060,43*78
$GPGSV,5,2,19,27,14,165,40,03,32,245,45,08,41,187,47,32,46,071,49*78
$GPGSV,5,3,19,02,67,305,49,28,04,113,,36,35,170,45,58,13,245,38*71
$GPGSV,5,4,19,57,11,109,38,34,31,208,42,40,24,132,36,49,34,195,44*78
$GPGSV,5,5,19,41,07,108,34,61,03,257,39*73
$GLGSV,2,1,08,69,64,052,51,85,59,327,52,68,15,032,44,84,59,109,39*69
$GLGSV,2,2,08,70,42,200,42,76,10,315,44,77,07,358,37,86,06,312,43*6D
$GAGSV,3,1,11,26,64,088,48,29,34,165,45,08,17,038,39,24,14,319,39*62
$GAGSV,3,2,11,13,13,104,38,31,20,268,41,07,50,090,46,33,59,304,48*60
$GAGSV,3,3,11,12,07,290,34,23,05,221,,16,04,341,*50
$GBGSV,6,1,21,57,77,314,,13,10,064,37,20,31,200,,60,10,109,41*66
$GBGSV,6,2,21,09,13,093,38,33,28,049,46,28,31,139,46,16,17,077,39*69
$GBGSV,6,3,21,05,24,128,38,32,38,211,48,39,19,066,42,06,16,080,38*6C
$GBGSV,6,4,21,29,39,303,,30,47,303,49,27,75,170,52,41,75,096,51*6C
$GBGSV,6,5,21,14,04,044,37,31,05,089,,26,02,329,,02,09,105,34*6E
$GBGSV,6,6,21,08,01,063,31*56
$GPGGA,231457.00,,,,,0,00,,,M,,M,,*4E
$PTNL,GGK,231457.00,010125,4742.1601563,N,01618.1003877,E,1,38,0.7,EHT751.0864,M*4E
$GPGGQ,231457.00,010125,4742.1601563,N,01618.1003877,E,1,38,0.828,707.8798,M*32
$GPGFA,231457.00,3.556,5.312,0.374,0.354,6.084,0.648,,VVV*07
$GPLLK,231457.00,010125,,M,,M,1,38,0.8,,M*0E
$GNGMP,231457.00,,,,,DAAA,38,0.4,,,,*5F
$GPGMP,231457.00,,,,,,09,,,,3.2,136*77
$GLGMP,231457.00,,,,,,08,,,,,*71
$GAGMP,231457.00,,,,,,08,,,,,*7C
$GBGMP,231457.00,,,,,,13,,,,,*75
$PSSN,SNC,[0,342915000,2347]*4C
$GPZDA,231502.00,01,01,2025,,*64
$GPDTM,W84,,00.0000000,N,00.0000000,E,00.0000000,W84*5F
$PSSN,TFM,231502.00,,,,*68
$GPRMC,231502.00,A,4742.1601557,N,01618.1003890,E,0.0,,010125,5.1,E,D*13
$GPGLL,4742.1601557,N,01618.1003890,E,231502.00,A,D*62
$GPGGA,231502.00,4742.1601557,N,01618.1003890,E,2,38,0.4,707.8832,M,43.2066,M,2.0,0136*42
$GNGNS,231502.00,4742.1601557,N,01618.1003890,E,DAAA,38,0.4,707.8832,43.2066,,*58
$GPGNS,231502.00,,,,,,09,,,,2.0,136*75
$GLGNS,231502.00,,,,,,08,,,,,*70
$GAGNS,231502.00,,,,,,08,,,,,*7D
$GBGNS,231502.00,,,,,,13,,,,,*74
$GPLLQ,231502.00,010125,,M,,M,1,38,0.829,,M*1E
$GPVTG,,T,,M,0.01,N,0.01,K,D*26
$GPHDT,,T*1B
$GPTHS,,V*0E
$GPROT,,V*08
$PSSN,HRP,231502.00,010125,,,,,,,00,0,,*66
$PTNL,AVR,231502.00,,Yaw,,Tilt,,,,0,,00*30
$GPGSA,A,3,02,03,08,10,14,17,21,27,32,,,,0.7,0.4,0.6*3B
$GPGSA,A,3,68,69,70,76,77,84,85,86,,,,,0.7,0.4,0.6*3F
$GPGSA,A,3,07,08,13,24,26,29,31,33,,,,,0.7,0.4,0.6*31
$GPGSA,A,3,05,06,09,13,16,27,28,30,32,33,39,41,0.7,0.4,0.6*3A
$GPGSA,A,3,60,,,,,,,,,,,,0.7,0.4,0.6*31
$GPGST,231502.00,2.808,0.373,0.354,6.297,0.373,0.354,0.650*5B
$GPGBS,231502.00,2.497,2.182,3.803,77,0.0001,-11.780,6.399*47
$GPGRS,231502.00,1,-0.2,0.4,0.2,0.2,0.4,-0.1,-0.3,-0.9,0.3,,,*6D
$GPGRS,231502.00,1,7.5,1.5,-1.5,-3.1,-11.8,-0.2,4.6,-0.0,,,,*5C
$GPGRS,231502.00,1,-0.3,0.2,0.1,-0.1,-0.3,0.6,-0.4,-0.3,,,,*67
$GPGRS,231502.00,1,1.1,1.4,1.6,-0.4,0.7,-0.4,0.2,0.1,-0.3,-0.7,-1.3,-0.9*40
$GPGRS,231502.00,1,-1.4,,,,,,,,,,,*4F
$GPGSV,5,1,19,21,86,038,45,17,13,320,41,14,15,294,40,10,22,060,43*78
$GPGSV,5,2,19,27,14,165,40,03,32,245,45,08,41,187,47,32,46,071,48*79
$GPGSV,5,3,19,02,67,305,49,28,04,113,,36,35,170,45,58,13,245,38*71
$GPGSV,5,4,19,57,11,109,38,34,31,208,42,40,24,132,36,49,34,195,44*78
$GPGSV,5,5,19,41,07,108,34,61,03,257,38*72
$GLGSV,2,1,08,69,64,052,52,85,59,327,52,68,15,032,44,84,59,109,39*6A
$GLGSV,2,2,08,70,42,200,42,76,10,315,44,77,07,358,37,86,06,312,43*6D
$GAGSV,3,1,11,26,64,088,48,29,34,165,45,08,17,038,40,24,14,319,39*6C
$GAGSV,3,2,11,13,13,104,38,31,20,268,40,07,50,090,46,33,59,304,48*61
$GAGSV,3,3,11,12,07,290,34,23,05,221,,16,04,341,*50
$GBGSV,6,1,21,57,77,314,,13,10,064,37,20,31,200,,60,10,109,41*66
$GBGSV,6,2,21,09,13,093,38,33,28,049,46,28,31,139,46,16,17,077,40*67
$GBGSV,6,3,21,05,24,128,38,32,38,211,48,39,19,066,42,06,16,080,37*63
$GBGSV,6,4,21,29,39,303,,30,47,303,49,27,75,170,52,41,75,096,51*6C
$GBGSV,6,5,21,14,04,044,37,31,05,089,,26,02,329,,02,09,105,34*6E
$GBGSV,6,6,21,08,01,063,31*56
$GPGGA,231502.00,,,,,0,00,,,M,,M,,*4F
$PTNL,GGK,231502.00,010125,4742.1601557,N,01618.1003890,E,1,38,0.7,EHT751.0898,M*42
$GPGGQ,231502.00,010125,4742.1601557,N,01618.1003890,E,1,38,0.829,707.8832,M*33
$GPGFA,231502.00,3.547,5.331,0.373,0.354,6.297,0.650,,VVV*09
$GPLLK,231502.00,010125,,M,,M,1,38,0.8,,M*0F
$GNGMP,231502.00,,,,,DAAA,38,0.4,,,,*5E
$GPGMP,231502.00,,,,,,09,,,,2.0,136*75
$GLGMP,231502.00,,,,,,08,,,,,*70
$GAGMP,231502.00,,,,,,08,,,,,*7D
$GBGMP,231502.00,,,,,,13,,,,,*74
$PSSN,SNC,[0,342920000,2347]*4A
$GPZDA,231507.00,01,01,2025,,*61
$GPDTM,W84,,00.0000000,N,00.0000000,E,00.0000000,W84*5F
$PSSN,TFM,231507.00,,,,*6D
$GPRMC,231507.00,A,4742.1601561,N,01618.1003908,E,0.0,,010125,5.1,E,D*13
$GPGLL,4742.1601561,N,01618.1003908,E,231507.00,A,D*62
$GPGGA,231507.00,4742.1601561,N,01618.1003908,E,2,38,0.4,707.8836,M,43.2066,M,2.6,0136*40
$GNGNS,231507.00,4742.1601561,N,01618.1003908,E,DAAA,38,0.4,707.8836,43.2066,,*5C
$GPGNS,231507.00,,,,,,09,,,,2.6,136*76
$GLGNS,231507.00,,,,,,08,,,,,*75
$GAGNS,231507.00,,,,,,08,,,,,*78
$GBGNS,231507.00,,,,,,13,,,,,*71
$GPLLQ,231507.00,010125,,M,,M,1,38,0.820,,M*12
$GPVTG,,T,,M,0.01,N,0.01,K,D*26
$GPHDT,,T*1B
$GPTHS,,V*0E
$GPROT,,V*08
$PSSN,HRP,231507.00,010125,,,,,,,00,0,,*63
$PTNL,AVR,231507.00,,Yaw,,Tilt,,,,0,,00*35
$GPGSA,A,3,02,03,08,10,14,17,21,27,32,,,,0.7,0.4,0.6*3B
$GPGSA,A,3,68,69,70,76,77,84,85,86,,,,,0.7,0.4,0.6*3F
$GPGSA,A,3,07,08,13,24,26,29,31,33,,,,,0.7,0.4,0.6*31
$GPGSA,A,3,05,06,09,13,16,27,28,30,32,33,39,41,0.7,0.4,0.6*3A
$GPGSA,A,3,60,,,,,,,,,,,,0.7,0.4,0.6*31
$GPGST,231507.00,2.741,0.367,0.347,0.561,0.367,0.347,0.646*53
$GPGBS,231507.00,2.525,2.223,3.853,77,0.0001,-10.825,6.399*46
$GPGRS,231507.00,1,-0.0,0.1,0.1,0.1,0.1,0.3,-0.2,-0.6,0.1,,,*49
$GPGRS,231507.00,1,7.8,1.4,-1.7,-2.9,-10.8,-0.6,5.4,0.3,,,,*76
$GPGRS,231507.00,1,-0.2,0.2,0.4,-0.3,-0.4,0.5,0.0,-0.0,,,,*4A
$GPGRS,231507.00,1,0.9,1.1,1.7,-0.1,0.9,-0.5,0.4,0.2,-0.2,-0.6,-1.3,-1.0*4F
$GPGRS,231507.00,1,-1.1,,,,,,,,,,,*4F
$GPGSV,5,1,19,21,86,039,45,17,13,320,41,14,15,294,40,10,22,060,43*79
$GPGSV,5,2,19,27,14,165,40,03,32,245,45,08,41,187,47,32,46,071,49*78
$GPGSV,5,3,19,02,67,305,50,28,04,113,,36,35,170,45,58,13,245,38*79
$GPGSV,5,4,19,57,11,109,38,34,31,208,42,40,24,132,36,49,34,195,44*78
$GPGSV,5,5,19,41,07,108,34,61,03,257,38*72
$GLGSV,2,1,08,69,64,052,51,85,59,327,52,68,15,032,44,84,59,109,39*69
$GLGSV,2,2,08,70,42,200,42,76,10,315,43,77,07,358,37,86,06,312,44*6D
$GAGSV,3,1,11,26,64,088,48,29,34,165,45,08,17,038,40,24,14,319,39*6C
$GAGSV,3,2,11,13,13,104,38,31,20,268,41,07,50,090,46,33,59,304,48*60
$GAGSV,3,3,11,12,07,290,33,23,05,221,,16,04,341,*57
$GBGSV,6,1,21,57,77,314,,13,10,064,37,20,31,200,,60,10,109,41*66
$GBGSV,6,2,21,09,13,093,38,33,28,049,45,28,31,139,46,16,17,077,40*64
$GBGSV,6,3,21,05,24,128,38,32,38,211,48,39,20,066,42,06,16,080,37*69
$GBGSV,6,4,21,29,40,303,,30,47,303,49,27,75,170,52,41,75,096,51*62
$GBGSV,6,5,21,14,04,044,37,31,05,089,,26,02,329,,02,09,105,34*6E
$GBGSV,6,6,21,08,01,063,32*55
$GPGGA,231507.00,,,,,0,00,,,M,,M,,*4A
$PTNL,GGK,231507.00,010125,4742.1601561,N,01618.1003908,E,1,38,0.7,EHT751.0902,M*40
$GPGGQ,231507.00,010125,4742.1601561,N,01618.1003908,E,1,38,0.820,707.8836,M*3E
$GPGFA,231507.00,3.486,5.296,0.367,0.347,0.561,0.646,,VVV*04
$GPLLK,231507.00,010125,,M,,M,1,38,0.8,,M*0A
$GNGMP,231507.00,,,,,DAAA,38,0.4,,,,*5B
$GPGMP,231507.00,,,,,,09,,,,2.6,136*76
$GLGMP,231507.00,,,,,,08,,,,,*75
$GAGMP,231507.00,,,,,,08,,,,,*78
$GBGMP,231507.00,,,,,,13,,,,,*71
$PSSN,SNC,[0,342925000,2347]*4F
$GPZDA,231512.00,01,01,2025,,*65
$GPDTM,W84,,00.0000000,N,00.0000000,E,00.0000000,W84*5F
$PSSN,TFM,231512.00,,,,*69
$GPRMC,231512.00,A,4742.1601538,N,01618.1003903,E,0.0,,010125,5.1,E,D*10
$GPGLL,4742.1601538,N,01618.1003903,E,231512.00,A,D*61
$GPGGA,231512.00,4742.1601538,N,01618.1003903,E,2,38,0.4,707.8824,M,43.2066,M,2.2,0136*44
$GNGNS,231512.00,4742.1601538,N,01618.1003903,E,DAAA,38,0.4,707.8824,43.2066,,*5C
$GPGNS,231512.00,,,,,,09,,,,2.2,136*76
$GLGNS,231512.00,,,,,,08,,,,,*71
$GAGNS,231512.00,,,,,,08,,,,,*7C
$GBGNS,231512.00,,,,,,13,,,,,*75
$GPLLQ,231512.00,010125,,M,,M,1,38,0.822,,M*14
$GPVTG,,T,,M,0.00,N,0.00,K,D*26
$GPHDT,,T*1B
$GPTHS,,V*0E
$GPROT,,V*08
$PSSN,HRP,231512.00,010125,,,,,,,00,0,,*67
$PTNL,AVR,231512.00,,Yaw,,Tilt,,,,0,,00*31
$GPGSA,A,3,02,03,08,10,14,17,21,27,32,,,,0.7,0.4,0.6*3B
$GPGSA,A,3,68,69,70,76,77,84,85,86,,,,,0.7,0.4,0.6*3F
$GPGSA,A,3,07,08,13,24,26,29,31,33,,,,,0.7,0.4,0.6*31
$GPGSA,A,3,05,06,09,13,16,27,28,30,32,33,39,41,0.7,0.4,0.6*3A
$GPGSA,A,3,60,,,,,,,,,,,,0.7,0.4,0.6*31
$GPGST,231512.00,2.887,0.369,0.347,0.919,0.369,0.347,0.647*50
$GPGBS,231512.00,2.476,2.232,3.952,77,0.0001,-11.991,6.395*46
$GPGRS,231512.00,1,-0.1,0.0,0.2,0.1,0.4,0.0,-0.1,-0.9,0.2,,,*47
$GPGRS,231512.00,1,7.8,1.0,-1.5,-3.0,-12.0,0.6,5.5,0.2,,,,*5B
$GPGRS,231512.00,1,-0.2,-0.2,0.1,-0.3,-0.3,0.2,0.1,-0.0,,,,*67
$GPGRS,231512.00,1,0.4,0.8,1.2,-0.1,0.9,-0.3,-0.1,0.2,-0.2,-1.1,-1.5,-1.4*61
$GPGRS,231512.00,1,-1.1,,,,,,,,,,,*4B
$GPGSV,5,1,19,21,86,040,44,17,13,320,41,14,15,294,40,10,22,060,43*76
$GPGSV,5,2,19,27,14,165,39,03,32,245,44,08,41,187,47,32,46,071,49*77
$GPGSV,5,3,19,02,67,305,49,28,04,113,,36,35,170,45,58,13,245,38*71
$GPGSV,5,4,19,57,11,109,38,34,31,208,43,40,24,132,36,49,34,195,44*79
$GPGSV,5,5,19,41,07,108,34,61,03,257,38*72
$GLGSV,2,1,08,69,64,052,51,85,59,327,52,68,15,032,44,84,59,109,40*67
$GLGSV,2,2,08,70,42,200,42,76,10,315,44,77,07,358,37,86,06,312,43*6D
$GAGSV,3,1,11,26,64,088,48,29,34,165,44,08,17,038,40,24,14,319,39*6D
$GAGSV,3,2,11,13,13,104,39,31,20,268,41,07,50,090,46,33,59,304,48*61
$GAGSV,3,3,11,12,07,290,33,23,05,221,,16,04,341,*57
$GBGSV,6,1,21,57,77,314,,13,10,064,37,20,31,200,,60,10,109,41*66
$GBGSV,6,2,21,09,13,093,38,33,28,049,45,28,30,139,46,16,17,077,40*65
$GBGSV,6,3,21,05,24,128,38,32,38,211,48,39,20,066,42,06,16,080,37*69
$GBGSV,6,4,21,29,40,303,,30,47,303,49,27,75,170,52,41,75,096,51*62
$GBGSV,6,5,21,14,04,044,37,31,05,089,,26,02,329,,02,09,105,34*6E
$GBGSV,6,6,21,08,01,063,31*56
$GPGGA,231512.00,,,,,0,00,,,M,,M,,*4E
$PTNL,GGK,231512.00,010125,4742.1601538,N,01618.1003903,E,1,38,0.7,EHT751.0889,M*41
$GPGGQ,231512.00,010125,4742.1601538,N,01618.1003903,E,1,38,0.822,707.8824,M*3C
$GPGFA,231512.00,3.512,5.303,0.369,0.347,0.919,0.647,,VVV*0D
$GPLLK,231512.00,010125,,M,,M,1,38,0.8,,M*0E
$GNGMP,231512.00,,,,,DAAA,38,0.4,,,,*5F
$GPGMP,231512.00,,,,,,09,,,,2.2,136*76
$GLGMP,231512.00,,,,,,08,,,,,*71
$GAGMP,231512.00,,,,,,08,,,,,*7C
$GBGMP,231512.00,,,,,,13,,,,,*75
$PSSN,SNC,[0,342930000,2347]*4B
$GPZDA,231517.00,01,01,2025,,*60
$GPDTM,W84,,00.0000000,N,00.0000000,E,00.0000000,W84*5F
$PSSN,TFM,231517.00,,,,*6C
$GPRMC,231517.00,A,4742.1601508,N,01618.1003919,E,0.0,,010125,5.1,E,D*1D
$GPGLL,4742.1601508,N,01618.1003919,E,231517.00,A,D*6C
$GPGGA,231517.00,4742.1601508,N,01618.1003919,E,2,38,0.4,707.8821,M,43.2066,M,3.2,0136*4D
$GNGNS,231517.00,4742.1601508,N,01618.1003919,E,DAAA,38,0.4,707.8821,43.2066,,*54
$GPGNS,231517.00,,,,,,09,,,,3.2,136*72
$GLGNS,231517.00,,,,,,08,,,,,*74
$GAGNS,231517.00,,,,,,08,,,,,*79
$GBGNS,231517.00,,,,,,13,,,,,*70
$GPLLQ,231517.00,010125,,M,,M,1,38,0.862,,M*15
$GPVTG,,T,,M,0.00,N,0.01,K,D*27
$GPHDT,,T*1B
$GPTHS,,V*0E
$GPROT,,V*08
$PSSN,HRP,231517.00,010125,,,,,,,00,0,,*62
$PTNL,AVR,231517.00,,Yaw,,Tilt,,,,0,,00*34
$GPGSA,A,3,02,03,08,10,14,17,21,27,32,,,,0.7,0.4,0.6*3B
$GPGSA,A,3,68,69,70,76,77,84,85,86,,,,,0.7,0.4,0.6*3F
$GPGSA,A,3,07,08,13,24,26,29,31,33,,,,,0.7,0.4,0.6*31
$GPGSA,A,3,05,06,09,13,16,27,28,30,32,33,39,41,0.7,0.4,0.6*3A
$GPGSA,A,3,60,,,,,,,,,,,,0.7,0.4,0.6*31
$GPGST,231517.00,2.868,0.391,0.369,8.001,0.390,0.369,0.674*5D
$GPGBS,231517.00,2.492,2.242,4.002,77,0.0001,-12.162,6.395*42
$GPGRS,231517.00,1,-0.3,0.1,-0.2,0.2,0.6,0.4,-0.0,-0.6,0.2,,,*67
$GPGRS,231517.00,1,7.5,1.1,-0.8,-1.4,-12.2,1.1,5.6,-0.6,,,,*76
$GPGRS,231517.00,1,-0.0,-0.5,-0.1,0.4,-0.3,0.3,-0.1,-0.1,,,,*4D
$GPGRS,231517.00,1,1.3,1.3,1.3,-0.2,0.7,-0.3,0.4,0.4,-0.0,-1.0,-1.5,-1.1*4C
$GPGRS,231517.00,1,-1.1,,,,,,,,,,,*4E
$GPGSV,5,1,19,21,86,040,45,17,13,320,41,14,15,294,39,10,22,060,42*78
$GPGSV,5,2,19,27,13,165,39,03,32,245,44,08,41,187,47,32,46,071,49*70
$GPGSV,5,3,19,02,67,305,49,28,04,113,,36,35,170,45,58,13,245,38*71
$GPGSV,5,4,19,57,11,109,38,34,31,208,42,40,24,132,36,49,34,195,44*78
$GPGSV,5,5,19,41,07,108,34,61,03,257,38*72
$GLGSV,2,1,08,69,64,052,51,85,59,327,52,68,15,032,44,84,59,110,39*61
$GLGSV,2,2,08,70,43,200,42,76,10,315,44,77,07,358,38,86,06,312,43*63
$GAGSV,3,1,11,26,64,088,48,29,34,165,44,08,17,038,40,24,14,319,39*6D
$GAGSV,3,2,11,13,13,104,38,31,19,268,41,07,50,090,46,33,59,304,48*6A
$GAGSV,3,3,11,12,07,290,33,23,05,221,,16,04,341,*57
$GBGSV,6,1,21,57,77,314,,13,10,064,37,20,31,200,,60,10,109,41*66
$GBGSV,6,2,21,09,13,093,38,33,28,049,45,28,30,139,46,39,20,066,41*6D
$GBGSV,6,3,21,05,24,128,38,32,38,211,48,06,16,080,37,16,17,077,40*62
$GBGSV,6,4,21,29,40,303,,30,47,303,49,27,75,170,52,41,75,095,51*61
$GBGSV,6,5,21,31,05,089,,14,04,044,37,26,02,329,,02,09,105,33*69
$GBGSV,6,6,21,08,01,063,30*57
$GPGGA,231517.00,,,,,0,00,,,M,,M,,*4B
$PTNL,GGK,231517.00,010125,4742.1601508,N,01618.1003919,E,1,38,0.7,EHT751.0887,M*42
$GPGGQ,231517.00,010125,4742.1601508,N,01618.1003919,E,1,38,0.862,707.8821,M*30
$GPGFA,231517.00,3.713,5.527,0.391,0.369,8.001,0.674,,VVV*08
$GPLLK,231517.00,010125,,M,,M,1,38,0.8,,M*0B
$GNGMP,231517.00,,,,,DAAA,38,0.4,,,,*5A
$GPGMP,231517.00,,,,,,09,,,,3.2,136*72
$GLGMP,231517.00,,,,,,08,,,,,*74
$GAGMP,231517.00,,,,,,08,,,,,*79
$GBGMP,231517.00,,,,,,13,,,,,*70
$PSSN,SNC,[0,342935000,2347]*4E
$GPZDA,231522.00,01,01,2025,,*66
$GPDTM,W84,,00.0000000,N,00.0000000,E,00.0000000,W84*5F
$PSSN,TFM,231522.00,,,,*6A
$GPRMC,231522.00,A,4742.1601491,N,01618.1003969,E,0.0,,010125,5.1,E,D*1D
$GPGLL,4742.1601491,N,01618.1003969,E,231522.00,A,D*6C
$GPGGA,231522.00,4742.1601491,N,01618.1003969,E,2,38,0.4,707.8876,M,43.2066,M,2.0,0136*4C
$GNGNS,231522.00,4742.1601491,N,01618.1003969,E,DAAA,38,0.4,707.8876,43.2066,,*56
$GPGNS,231522.00,,,,,,09,,,,2.0,136*77
$GLGNS,231522.00,,,,,,08,,,,,*72
$GAGNS,231522.00,,,,,,08,,,,,*7F
$GBGNS,231522.00,,,,,,13,,,,,*76
$GPLLQ,231522.00,010125,,M,,M,1,38,0.875,,M*15
$GPVTG,,T,,M,0.00,N,0.01,K,D*27
$GPHDT,,T*1B
$GPTHS,,V*0E
$GPROT,,V*08
$PSSN,HRP,231522.00,010125,,,,,,,00,0,,*64
$PTNL,AVR,231522.00,,Yaw,,Tilt,,,,0,,00*32
$GPGSA,A,3,02,03,08,10,14,17,21,27,32,,,,0.7,0.4,0.6*3B
$GPGSA,A,3,68,69,70,76,77,84,85,86,,,,,0.7,0.4,0.6*3F
$GPGSA,A,3,07,08,13,24,26,29,31,33,,,,,0.7,0.4,0.6*31
$GPGSA,A,3,05,06,09,13,16,27,28,30,32,33,39,41,0.7,0.4,0.6*3A
$GPGSA,A,3,60,,,,,,,,,,,,0.7,0.4,0.6*31
$GPGST,231522.00,2.909,0.395,0.373,11.080,0.394,0.374,0.685*65
$GPGBS,231522.00,2.496,2.177,3.766,77,0.0001,-11.940,6.394*4D
$GPGRS,231522.00,1,-0.5,0.3,0.2,-0.1,1.0,0.3,0.2,-0.6,-0.3,,,*65
$GPGRS,231522.00,1,8.1,1.1,-1.6,-2.0,-11.9,0.3,5.5,-0.2,,,,*7F
$GPGRS,231522.00,1,-0.4,-0.3,-0.0,0.2,-0.3,0.5,-0.0,-0.5,,,,*4D
$GPGRS,231522.00,1,1.2,0.4,2.2,-0.4,0.2,-0.4,0.4,0.0,-0.1,-1.0,-1.5,-1.0*4F
$GPGRS,231522.00,1,-1.3,,,,,,,,,,,*4A
$GPGSV,5,1,19,21,86,041,44,17,13,320,41,14,15,294,39,10,22,060,42*78
$GPGSV,5,2,19,27,13,165,39,03,32,245,45,08,41,187,47,32,46,071,49*71
$GPGSV,5,3,19,02,67,305,49,28,04,113,,36,35,170,45,58,13,245,38*71
$GPGSV,5,4,19,57,11,109,38,34,31,208,43,40,24,132,36,49,34,195,44*79
$GPGSV,5,5,19,41,07,108,34,61,03,257,39*73
$GLGSV,2,1,08,69,64,052,51,85,59,327,52,68,15,032,44,84,59,110,40*6F
$GLGSV,2,2,08,70,43,200,42,76,10,315,44,77,07,358,38,86,06,312,44*64
$GAGSV,3,1,11,26,64,088,48,29,34,165,45,08,17,038,39,24,14,318,39*63
$GAGSV,3,2,11,13,13,104,38,31,19,268,41,07,50,090,46,33,59,304,48*6A
$GAGSV,3,3,11,12,07,290,33,23,05,221,,16,04,341,*57
$GBGSV,6,1,21,57,77,314,,13,10,064,37,20,31,200,,60,10,109,41*66
$GBGSV,6,2,21,09,13,093,38,33,28,049,45,28,30,139,46,39,20,066,41*6D
$GBGSV,6,3,21,05,24,128,38,32,39,211,48,06,16,080,36,16,17,077,40*62
$GBGSV,6,4,21,29,40,303,,30,47,303,49,27,75,170,52,41,75,095,51*61
$GBGSV,6,5,21,31,05,089,,14,04,044,37,26,02,329,,02,09,105,33*69
$GBGSV,6,6,21,08,01,063,30*57
$GPGGA,231522.00,,,,,0,00,,,M,,M,,*4D
$PTNL,GGK,231522.00,010125,4742.1601491,N,01618.1003969,E,1,38,0.7,EHT751.0942,M*4A
$GPGGQ,231522.00,010125,4742.1601491,N,01618.1003969,E,1,38,0.875,707.8876,M*34
$GPGFA,231522.00,3.757,5.619,0.395,0.373,11.080,0.685,,VVV*30
$GPLLK,231522.00,010125,,M,,M,1,38,0.8,,M*0D
$GNGMP,231522.00,,,,,DAAA,38,0.4,,,,*5C
$GPGMP,231522.00,,,,,,09,,,,2.0,136*77
$GLGMP,231522.00,,,,,,08,,,,,*72
$GAGMP,231522.00,,,,,,08,,,,,*7F
$GBGMP,231522.00,,,,,,13,,,,,*76
$PSSN,SNC,[0,342940000,2347]*4C
$GPZDA,231527.00,01,01,2025,,*63
$GPDTM,W84,,00.0000000,N,00.0000000,E,00.0000000,W84*5F
$PSSN,TFM,231527.00,,,,*6F
$GPRMC,231527.00,A,4742.1601496,N,01618.1004021,E,0.0,,010125,5.1,E,D*1D
$GPGLL,4742.1601496,N,01618.1004021,E,231527.00,A,D*6C
$GPGGA,231527.00,4742.1601496,N,01618.1004021,E,2,38,0.4,707.8895,M,43.2066,M,2.6,0136*47
$GNGNS,231527.00,4742.1601496,N,01618.1004021,E,DAAA,38,0.4,707.8895,43.2066,,*5B
$GPGNS,231527.00,,,,,,09,,,,2.6,136*74
$GLGNS,231527.00,,,,,,08,,,,,*77
$GAGNS,231527.00,,,,,,08,,,,,*7A
$GBGNS,231527.00,,,,,,13,,,,,*73
$GPLLQ,231527.00,010125,,M,,M,1,38,0.864,,M*10
$GPVTG,,T,,M,0.00,N,0.01,K,D*27
$GPHDT,,T*1B
$GPTHS,,V*0E
$GPROT,,V*08
$PSSN,HRP,231527.00,010125,,,,,,,00,0,,*61
$PTNL,AVR,231527.00,,Yaw,,Tilt,,,,0,,00*37
$GPGSA,A,3,02,03,08,10,14,17,21,27,32,,,,0.7,0.4,0.6*3B
$GPGSA,A,3,68,69,70,76,77,84,85,86,,,,,0.7,0.4,0.6*3F
$GPGSA,A,3,07,08,13,24,26,29,31,33,,,,,0.7,0.4,0.6*31
$GPGSA,A,3,05,06,09,13,16,27,28,30,32,33,39,41,0.7,0.4,0.6*3A
$GPGSA,A,3,60,,,,,,,,,,,,0.7,0.4,0.6*31
$GPGST,231527.00,2.940,0.388,0.365,6.220,0.388,0.365,0.680*50
$GPGBS,231527.00,2.522,2.218,3.817,77,0.0001,-12.081,6.397*41
$GPGRS,231527.00,1,-0.2,0.3,0.2,-0.3,0.9,0.2,0.0,-0.9,-0.1,,,*63
$GPGRS,231527.00,1,8.3,1.2,-1.2,-2.7,-12.1,-0.1,5.2,0.7,,,,*73
$GPGRS,231527.00,1,-0.2,-0.5,0.2,0.1,-0.3,0.3,-0.4,-0.4,,,,*67
$GPGRS,231527.00,1,1.2,0.8,1.8,-0.3,-0.4,-0.4,0.0,-0.2,-0.2,-0.9,-1.3,-1.2*47
$GPGRS,231527.00,1,-1.2,,,,,,,,,,,*4E
$GPGSV,5,1,19,21,86,041,44,17,13,320,42,14,14,294,39,10,22,060,42*7A
$GPGSV,5,2,19,27,13,165,39,03,32,245,45,08,41,187,47,32,46,071,49*71
$GPGSV,5,3,19,02,67,305,49,28,04,113,,36,35,170,45,58,13,245,38*71
$GPGSV,5,4,19,57,11,109,38,34,31,208,42,40,24,132,36,49,34,195,44*78
$GPGSV,5,5,19,41,07,108,34,61,03,257,39*73
$GLGSV,2,1,08,69,64,052,51,85,59,327,52,68,15,032,45,84,59,110,39*60
$GLGSV,2,2,08,70,43,200,42,76,10,315,45,77,07,358,38,86,06,312,44*65
$GAGSV,3,1,11,26,64,088,48,29,34,165,44,08,17,038,40,24,14,318,39*6C
$GAGSV,3,2,11,13,13,104,38,31,19,268,41,07,50,089,46,33,59,304,48*62
$GAGSV,3,3,11,12,07,290,33,23,05,220,,16,04,341,*56
$GBGSV,6,1,21,57,77,314,,33,28,049,45,60,10,109,41,20,31,200,*65
$GBGSV,6,2,21,09,13,093,38,39,20,066,41,28,30,139,45,16,17,077,40*6D
$GBGSV,6,3,21,05,24,128,38,32,39,211,48,06,16,080,37,29,40,303,*69
$GBGSV,6,4,21,30,47,303,49,27,75,170,52,41,75,095,51,26,02,329,*60
$GBGSV,6,5,21,08,01,063,30,13,10,064,38,31,05,090,,02,09,105,34*68
$GBGSV,6,6,21,14,04,044,38*52
$GPGGA,231527.00,,,,,0,00,,,M,,M,,*48
$PTNL,GGK,231527.00,010125,4742.1601496,N,01618.1004021,E,1,38,0.7,EHT751.0961,M*4B
$GPGGQ,231527.00,010125,4742.1601496,N,01618.1004021,E,1,38,0.864,707.8895,M*39
$GPGFA,231527.00,3.688,5.578,0.388,0.365,6.220,0.680,,VVV*02
$GPLLK,231527.00,010125,,M,,M,1,38,0.8,,M*08
$GNGMP,231527.00,,,,,DAAA,38,0.4,,,,*59
$GPGMP,231527.00,,,,,,09,,,,2.6,136*74
$GLGMP,231527.00,,,,,,08,,,,,*77
$GAGMP,231527.00,,,,,,08,,,,,*7A
$GBGMP,231527.00,,,,,,13,,,,,*73
$PSSN,SNC,[0,342945000,2347]*49
$GPZDA,231532.00,01,01,2025,,*67
$GPDTM,W84,,00.0000000,N,00.0000000,E,00.0000000,W84*5F
$PSSN,TFM,231532.00,,,,*6B
$GPRMC,231532.00,A,4742.1601478,N,01618.1004068,E,0.0,,010125,5.1,E,D*14
$GPGLL,4742.1601478,N,01618.1004068,E,231532.00,A,D*65
$GPGGA,231532.00,4742.1601478,N,01618.1004068,E,2,38,0.4,707.8903,M,43.2066,M,2.2,0136*44
$GNGNS,231532.00,4742.1601478,N,01618.1004068,E,DAAA,38,0.4,707.8903,43.2066,,*5C
$GPGNS,231532.00,,,,,,09,,,,2.2,136*74
$GLGNS,231532.00,,,,,,08,,,,,*73
$GAGNS,231532.00,,,,,,08,,,,,*7E
$GBGNS,231532.00,,,,,,13,,,,,*77
$GPLLQ,231532.00,010125,,M,,M,1,38,0.815,,M*12
$GPVTG,,T,,M,0.00,N,0.00,K,D*26
$GPHDT,,T*1B
$GPTHS,,V*0E
$GPROT,,V*08
$PSSN,HRP,231532.00,010125,,,,,,,00,0,,*65
$PTNL,AVR,231532.00,,Yaw,,Tilt,,,,0,,00*33
$GPGSA,A,3,02,03,08,10,14,17,21,27,32,,,,0.7,0.4,0.6*3B
$GPGSA,A,3,68,69,70,76,77,84,85,86,,,,,0.7,0.4,0.6*3F
$GPGSA,A,3,07,08,13,24,26,29,31,33,,,,,0.7,0.4,0.6*31
$GPGSA,A,3,05,06,09,13,16,27,28,30,32,33,39,41,0.7,0.4,0.6*3A
$GPGSA,A,3,60,,,,,,,,,,,,0.7,0.4,0.6*31
$GPGST,231532.00,2.761,0.368,0.344,5.697,0.367,0.345,0.641*51
$GPGBS,231532.00,2.474,2.227,3.917,77,0.0001,-11.239,6.394*4B
$GPGRS,231532.00,1,-0.2,0.2,0.1,-0.0,0.7,0.5,-0.3,-0.8,0.0,,,*6C
$GPGRS,231532.00,1,7.7,1.3,-1.0,-2.5,-11.2,-0.6,5.1,0.1,,,,*7F
$GPGRS,231532.00,1,-0.2,0.1,0.2,0.1,-0.0,0.4,-0.7,-0.2,,,,*4B
$GPGRS,231532.00,1,1.2,1.2,1.9,0.8,-0.3,-0.2,0.4,0.0,-0.2,-0.7,-1.5,-1.0*4F
$GPGRS,231532.00,1,-1.1,,,,,,,,,,,*49
$GPGSV,5,1,19,21,86,042,44,17,13,320,42,14,14,294,40,10,22,060,42*77
$GPGSV,5,2,19,27,13,165,39,03,32,245,45,08,40,187,47,32,46,071,49*70
$GPGSV,5,3,19,02,67,305,49,28,04,113,,36,35,170,45,58,13,245,38*71
$GPGSV,5,4,19,57,11,109,38,34,31,208,42,40,24,132,36,49,34,195,44*78
$GPGSV,5,5,19,41,07,108,34,61,03,257,38*72
$GLGSV,2,1,08,69,64,052,51,85,59,327,52,68,15,032,45,84,59,110,39*60
$GLGSV,2,2,08,70,43,200,42,76,09,315,45,77,08,358,38,86,06,312,44*62
$GAGSV,3,1,11,26,64,088,48,29,34,165,44,08,17,038,39,24,14,318,39*62
$GAGSV,3,2,11,13,13,104,38,31,19,268,41,07,50,089,46,33,59,304,48*62
$GAGSV,3,3,11,12,07,290,33,23,05,220,,16,04,341,*56
$GBGSV,6,1,21,57,77,315,,33,28,049,45,60,10,109,41,20,31,200,*64
$GBGSV,6,2,21,09,13,093,39,39,20,066,42,28,30,139,45,16,17,077,40*6F
$GBGSV,6,3,21,05,24,128,38,32,39,211,48,06,16,080,37,29,40,303,*69
$GBGSV,6,4,21,30,47,303,49,27,75,170,52,41,75,095,51,26,02,329,*60
$GBGSV,6,5,21,08,01,063,30,13,10,064,38,31,05,090,,02,09,105,34*68
$GBGSV,6,6,21,14,04,044,38*52
$GPGGA,231532.00,,,,,0,00,,,M,,M,,*4C
$PTNL,GGK,231532.00,010125,4742.1601478,N,01618.1004068,E,1,38,0.7,EHT751.0969,M*4A
$GPGGQ,231532.00,010125,4742.1601478,N,01618.1004068,E,1,38,0.815,707.8903,M*38
$GPGFA,231532.00,3.495,5.256,0.368,0.344,5.697,0.641,,VVV*08
$GPLLK,231532.00,010125,,M,,M,1,38,0.8,,M*0C
$GNGMP,231532.00,,,,,DAAA,38,0.4,,,,*5D
$GPGMP,231532.00,,,,,,09,,,,2.2,136*74
$GLGMP,231532.00,,,,,,08,,,,,*73
$GAGMP,231532.00,,,,,,08,,,,,*7E
$GBGMP,231532.00,,,,,,13,,,,,*77
$PSSN,SNC,[0,342950000,2347]*4D
$GPZDA,231537.00,01,01,2025,,*62
$GPDTM,W84,,00.0000000,N,00.0000000,E,00.0000000,W84*5F
$PSSN,TFM,231537.00,,,,*6E
$GPRMC,231537.00,A,4742.1601456,N,01618.1004088,E,0.0,,010125,5.1,E,D*13
$GPGLL,4742.1601456,N,01618.1004088,E,231537.00,A,D*62
$GPGGA,231537.00,4742.1601456,N,01618.1004088,E,2,38,0.4,707.8959,M,43.2066,M,3.2,0136*4D
$GNGNS,231537.00,4742.1601456,N,01618.1004088,E,DAAA,38,0.4,707.8959,43.2066,,*54
$GPGNS,231537.00,,,,,,09,,,,3.2,136*70
$GLGNS,231537.00,,,,,,08,,,,,*76
$GAGNS,231537.00,,,,,,08,,,,,*7B
$GBGNS,231537.00,,,,,,13,,,,,*72
$GPLLQ,231537.00,010125,,M,,M,1,38,0.825,,M*14
$GPVTG,,T,,M,0.01,N,0.01,K,D*26
$GPHDT,,T*1B
$GPTHS,,V*0E
$GPROT,,V*08
$PSSN,HRP,231537.00,010125,,,,,,,00,0,,*60
$PTNL,AVR,231537.00,,Yaw,,Tilt,,,,0,,00*36
$GPGSA,A,3,02,03,08,10,14,17,21,27,32,,,,0.7,0.4,0.6*3B
$GPGSA,A,3,68,69,70,76,77,84,85,86,,,,,0.7,0.4,0.6*3F
$GPGSA,A,3,07,08,13,24,26,29,31,33,,,,,0.7,0.4,0.6*31
$GPGSA,A,3,05,06,09,13,16,27,28,30,32,33,39,41,0.7,0.4,0.6*3A
$GPGSA,A,3,60,,,,,,,,,,,,0.7,0.4,0.6*31
$GPGST,231537.00,2.766,0.374,0.353,10.586,0.374,0.353,0.645*6E
$GPGBS,231537.00,2.492,2.248,3.989,77,0.0001,-11.699,6.395*47
$GPGRS,231537.00,1,-0.4,0.1,0.2,-0.1,0.8,0.2,-0.1,-0.9,0.1,,,*64
$GPGRS,231537.00,1,7.1,1.4,-0.6,-2.0,-11.7,-0.2,5.2,-0.3,,,,*54
$GPGRS,231537.00,1,-0.2,0.3,0.1,0.1,0.0,0.6,-0.7,0.1,,,,*4E
$GPGRS,231537.00,1,0.7,1.4,2.3,0.9,0.1,-0.1,0.3,0.0,0.4,-0.8,-1.1,-1.0*4B
$GPGRS,231537.00,1,-1.2,,,,,,,,,,,*4F
$GPGSV,5,1,19,21,86,043,44,17,13,320,42,14,14,294,39,10,22,060,42*78
$GPGSV,5,2,19,27,13,165,39,03,32,245,45,08,40,187,47,32,46,071,49*70
$GPGSV,5,3,19,02,67,305,49,28,04,113,,36,35,170,45,58,13,245,38*71
$GPGSV,5,4,19,57,11,109,38,34,31,208,42,40,24,132,36,49,34,195,44*78
$GPGSV,5,5,19,41,07,108,34,61,03,257,38*72
$GLGSV,2,1,08,69,64,052,51,85,59,327,52,68,15,032,44,84,58,110,39*60
$GLGSV,2,2,08,70,43,200,43,76,09,315,44,77,08,358,37,86,06,312,43*6A
$GAGSV,3,1,11,26,64,088,48,29,34,165,44,08,17,038,39,24,14,318,39*62
$GAGSV,3,2,11,13,12,104,38,31,19,267,41,07,50,089,46,33,59,304,48*6C
$GAGSV,3,3,11,12,07,290,33,23,05,220,,16,04,341,*56
$GBGSV,6,1,21,57,77,315,,33,28,049,45,60,10,109,41,20,31,200,*64
$GBGSV,6,2,21,09,13,093,39,39,20,066,41,28,30,139,45,16,17,077,39*62
$GBGSV,6,3,21,05,24,128,38,32,39,211,48,06,16,080,37,29,40,303,*69
$GBGSV,6,4,21,30,47,303,49,27,75,170,52,41,75,095,51,26,02,329,*60
$GBGSV,6,5,21,08,01,063,31,13,10,064,38,31,05,090,,02,09,105,34*69
$GBGSV,6,6,21,14,04,044,38*52
$GPGGA,231537.00,,,,,0,00,,,M,,M,,*49
$PTNL,GGK,231537.00,010125,4742.1601456,N,01618.1004088,E,1,38,0.7,EHT751.1025,M*4D
$GPGGQ,231537.00,010125,4742.1601456,N,01618.1004088,E,1,38,0.825,707.8959,M*33
$GPGFA,231537.00,3.558,5.286,0.374,0.353,10.586,0.645,,VVV*38
$GPLLK,231537.00,010125,,M,,M,1,38,0.8,,M*09
$GNGMP,231537.00,,,,,DAAA,38,0.4,,,,*58
$GPGMP,231537.00,,,,,,09,,,,3.2,136*70
$GLGMP,231537.00,,,,,,08,,,,,*76
$GAGMP,231537.00,,,,,,08,,,,,*7B
$GBGMP,231537.00,,,,,,13,,,,,*72
$PSSN,SNC,[0,342955000,2347]*48
$GPZDA,231542.00,01,01,2025,,*60
$GPDTM,W84,,00.0000000,N,00.0000000,E,00.0000000,W84*5F
$PSSN,TFM,231542.00,,,,*6C
$GPRMC,231542.00,A,4742.1601453,N,01618.1004122,E,0.0,,010125,5.1,E,D*15
$GPGLL,4742.1601453,N,01618.1004122,E,231542.00,A,D*64
$GPGGA,231542.00,4742.1601453,N,01618.1004122,E,2,38,0.4,707.8962,M,43.2066,M,2.0,0136*40
$GNGNS,231542.00,4742.1601453,N,01618.1004122,E,DAAA,38,0.4,707.8962,43.2066,,*5A
$GPGNS,231542.00,,,,,,09,,,,2.0,136*71
$GLGNS,231542.00,,,,,,08,,,,,*74
$GAGNS,231542.00,,,,,,08,,,,,*79
$GBGNS,231542.00,,,,,,13,,,,,*70
$GPLLQ,231542.00,010125,,M,,M,1,38,0.819,,M*19
$GPVTG,,T,,M,0.01,N,0.01,K,D*26
$GPHDT,,T*1B
$GPTHS,,V*0E
$GPROT,,V*08
$PSSN,HRP,231542.00,010125,,,,,,,00,0,,*62
$PTNL,AVR,231542.00,,Yaw,,Tilt,,,,0,,00*34
$GPGSA,A,3,02,03,08,10,14,17,21,27,32,,,,0.7,0.4,0.6*3B
$GPGSA,A,3,68,69,70,76,77,84,85,86,,,,,0.7,0.4,0.6*3F
$GPGSA,A,3,07,08,13,24,26,29,31,33,,,,,0.7,0.4,0.6*31
$GPGSA,A,3,05,06,09,13,16,27,28,30,32,33,39,41,0.7,0.4,0.6*3A
$GPGSA,A,3,60,,,,,,,,,,,,0.7,0.4,0.6*31
$GPGST,231542.00,2.882,0.370,0.350,11.302,0.370,0.350,0.641*66
$GPGBS,231542.00,2.503,2.182,3.757,77,0.0001,-12.304,6.394*47
$GPGRS,231542.00,1,-0.3,-0.0,0.1,0.0,0.5,0.0,0.1,-0.2,-0.1,,,*66
$GPGRS,231542.00,1,6.8,1.6,-0.8,-3.1,-12.3,0.2,5.6,-0.3,,,,*7C
$GPGRS,231542.00,1,-0.2,0.4,0.4,-0.4,-0.2,0.5,-0.6,0.2,,,,*48
$GPGRS,231542.00,1,0.9,1.6,2.4,0.6,0.6,-0.1,0.6,0.4,0.5,-1.0,-1.2,-0.8*49
$GPGRS,231542.00,1,-0.9,,,,,,,,,,,*47
$GPGSV,5,1,19,21,86,043,44,17,13,320,42,14,14,294,40,10,22,060,42*76
$GPGSV,5,2,19,27,13,165,39,03,32,245,45,08,40,187,46,32,46,071,48*70
$GPGSV,5,3,19,02,67,305,50,28,04,113,,36,35,170,45,58,13,245,38*79
$GPGSV,5,4,19,57,11,109,38,34,31,208,42,40,24,132,36,49,34,195,44*78
$GPGSV,5,5,19,41,07,108,34,61,03,257,38*72
$GLGSV,2,1,08,69,64,052,51,85,59,327,52,68,15,032,44,84,58,110,39*60
$GLGSV,2,2,08,70,43,200,42,76,09,315,44,77,08,358,38,86,06,312,43*64
$GAGSV,3,1,11,26,64,089,48,29,34,165,44,08,17,038,39,24,14,318,39*63
$GAGSV,3,2,11,13,12,104,38,31,19,267,41,07,50,089,46,33,59,304,48*6C
$GAGSV,3,3,11,12,07,290,33,23,05,220,,16,04,341,*56
$GBGSV,6,1,21,57,77,315,,33,28,049,45,60,10,109,41,20,31,200,*64
$GBGSV,6,2,21,09,13,093,39,39,20,066,41,28,30,139,45,16,17,077,39*62
$GBGSV,6,3,21,05,24,128,38,32,39,211,48,06,16,080,37,29,40,303,*69
$GBGSV,6,4,21,30,47,303,49,27,75,170,52,41,75,095,51,26,02,329,*60
$GBGSV,6,5,21,08,01,063,31,13,10,064,39,31,05,090,,02,09,105,34*68
$GBGSV,6,6,21,14,04,044,38*52
$GPGGA,231542.00,,,,,0,00,,,M,,M,,*4B
$PTNL,GGK,231542.00,010125,4742.1601453,N,01618.1004122,E,1,38,0.7,EHT751.1028,M*46
$GPGGQ,231542.00,010125,4742.1601453,N,01618.1004122,E,1,38,0.819,707.8962,M*32
$GPGFA,231542.00,3.521,5.258,0.370,0.350,11.302,0.641,,VVV*3F
$GPLLK,231542.00,010125,,M,,M,1,38,0.8,,M*0B
$GNGMP,231542.00,,,,,DAAA,38,0.4,,,,*5A
$GPGMP,231542.00,,,,,,09,,,,2.0,136*71
$GLGMP,231542.00,,,,,,08,,,,,*74
$GAGMP,231542.00,,,,,,08,,,,,*79
$GBGMP,231542.00,,,,,,13,,,,,*70
$PSSN,SNC,[0,342960000,2347]*4E
$GPZDA,231547.00,01,01,2025,,*65
$GPDTM,W84,,00.0000000,N,00.0000000,E,00.0000000,W84*5F
$PSSN,TFM,231547.00,,,,*69
$GPRMC,231547.00,A,4742.1601430,N,01618.1004133,E,0.0,,010125,5.1,E,D*15
$GPGLL,4742.1601430,N,01618.1004133,E,231547.00,A,D*64
$GPGGA,231547.00,4742.1601430,N,01618.1004133,E,2,38,0.4,707.9000,M,43.2066,M,2.6,0136*4A
$GNGNS,231547.00,4742.1601430,N,01618.1004133,E,DAAA,38,0.4,707.9000,43.2066,,*56
$GPGNS,231547.00,,,,,,09,,,,2.6,136*72
$GLGNS,231547.00,,,,,,08,,,,,*71
$GAGNS,231547.00,,,,,,08,,,,,*7C
$GBGNS,231547.00,,,,,,13,,,,,*75
$GPLLQ,231547.00,010125,,M,,M,1,38,0.814,,M*11
$GPVTG,,T,,M,0.01,N,0.01,K,D*26
$GPHDT,,T*1B
$GPTHS,,V*0E
$GPROT,,V*08
$PSSN,HRP,231547.00,010125,,,,,,,00,0,,*67
$PTNL,AVR,231547.00,,Yaw,,Tilt,,,,0,,00*31
$GPGSA,A,3,02,03,08,10,14,17,21,27,32,,,,0.7,0.4,0.6*3B
$GPGSA,A,3,68,69,70,76,77,84,85,86,,,,,0.7,0.4,0.6*3F
$GPGSA,A,3,07,08,13,24,26,29,31,33,,,,,0.7,0.4,0.6*31
$GPGSA,A,3,05,06,09,13,16,27,28,30,32,33,39,41,0.7,0.4,0.6*3A
$GPGSA,A,3,60,,,,,,,,,,,,0.7,0.4,0.6*31
$GPGST,231547.00,2.803,0.366,0.345,6.579,0.365,0.345,0.641*55
$GPGBS,231547.00,2.527,2.222,3.807,77,0.0001,-11.512,6.394*45
$GPGRS,231547.00,1,-0.0,0.2,-0.1,0.4,0.9,0.0,-0.1,-0.7,0.0,,,*6E
$GPGRS,231547.00,1,7.4,1.5,-0.8,-3.6,-11.5,-0.5,5.3,0.3,,,,*77
$GPGRS,231547.00,1,0.1,0.2,0.4,0.1,-0.2,0.5,-0.4,-0.1,,,,*61
$GPGRS,231547.00,1,1.1,1.1,1.7,0.0,0.6,-0.1,0.5,0.3,0.5,-0.6,-0.8,-0.9*4D
$GPGRS,231547.00,1,-1.2,,,,,,,,,,,*48
$GPGSV,5,1,19,21,86,044,44,17,13,320,43,14,14,294,40,27,13,165,38*7F
$GPGSV,5,2,19,10,21,060,43,03,32,245,44,08,40,187,46,32,46,071,48*7D
$GPGSV,5,3,19,02,68,305,49,28,04,113,,36,35,170,45,58,13,245,38*7E
$GPGSV,5,4,19,57,11,109,38,34,31,208,42,40,24,132,36,49,34,195,44*78
$GPGSV,5,5,19,41,07,108,34,61,03,257,38*72
$GLGSV,2,1,08,69,64,051,51,85,59,327,52,68,15,032,43,84,58,110,39*64
$GLGSV,2,2,08,70,43,200,43,76,09,315,43,77,08,358,38,86,06,312,43*62
$GAGSV,3,1,11,26,64,089,48,29,34,165,44,08,17,038,39,24,14,318,39*63
$GAGSV,3,2,11,13,12,104,39,31,19,267,40,07,50,089,46,33,59,304,48*6C
$GAGSV,3,3,11,12,07,290,34,23,05,220,,16,04,341,*51
$GBGSV,6,1,21,57,77,315,,33,28,049,45,60,10,109,41,20,31,200,*64
$GBGSV,6,2,21,09,13,093,39,39,20,066,41,28,30,139,45,16,17,077,39*62
$GBGSV,6,3,21,05,24,128,38,32,39,211,48,06,16,080,38,29,40,303,*66
$GBGSV,6,4,21,30,47,303,48,27,75,170,52,41,75,095,51,26,02,329,*61
$GBGSV,6,5,21,08,01,063,31,13,10,065,39,31,05,090,,02,09,105,34*69
$GBGSV,6,6,21,14,04,044,37*5D
$GPGGA,231547.00,,,,,0,00,,,M,,M,,*4E
$PTNL,GGK,231547.00,010125,4742.1601430,N,01618.1004133,E,1,38,0.7,EHT751.1066,M*4C
$GPGGQ,231547.00,010125,4742.1601430,N,01618.1004133,E,1,38,0.814,707.9000,M*33
$GPGFA,231547.00,3.477,5.253,0.366,0.345,6.579,0.641,,VVV*0C
$GPLLK,231547.00,010125,,M,,M,1,38,0.8,,M*0E
$GNGMP,231547.00,,,,,DAAA,38,0.4,,,,*5F
$GPGMP,231547.00,,,,,,09,,,,2.6,136*72
$GLGMP,231547.00,,,,,,08,,,,,*71
$GAGMP,231547.00,,,,,,08,,,,,*7C
$GBGMP,231547.00,,,,,,13,,,,,*75
$PSSN,SNC,[0,342965000,2347]*4B
$GPZDA,231552.00,01,01,2025,,*61
$GPDTM,W84,,00.0000000,N,00.0000000,E,00.0000000,W84*5F
$PSSN,TFM,231552.00,,,,*6D
$GPRMC,231552.00,A,4742.1601414,N,01618.1004132,E,0.0,,010125,5.1,E,D*16
$GPGLL,4742.1601414,N,01618.1004132,E,231552.00,A,D*67
$GPGGA,231552.00,4742.1601414,N,01618.1004132,E,2,38,0.4,707.8984,M,43.2066,M,2.2,0136*49
$GNGNS,231552.00,4742.1601414,N,01618.1004132,E,DAAA,38,0.4,707.8984,43.2066,,*51
$GPGNS,231552.00,,,,,,09,,,,2.2,136*72
$GLGNS,231552.00,,,,,,08,,,,,*75
$GAGNS,231552.00,,,,,,08,,,,,*78
$GBGNS,231552.00,,,,,,13,,,,,*71
$GPLLQ,231552.00,010125,,M,,M,1,38,0.816,,M*17
$GPVTG,,T,,M,0.00,N,0.00,K,D*26
$GPHDT,,T*1B
$GPTHS,,V*0E
$GPROT,,V*08
$PSSN,HRP,231552.00,010125,,,,,,,00,0,,*63
$PTNL,AVR,231552.00,,Yaw,,Tilt,,,,0,,00*35
$GPGSA,A,3,02,03,08,10,14,17,21,27,32,,,,0.7,0.4,0.6*3B
$GPGSA,A,3,68,69,70,76,77,84,85,86,,,,,0.7,0.4,0.6*3F
$GPGSA,A,3,07,08,13,24,26,29,31,33,,,,,0.7,0.4,0.6*31
$GPGSA,A,3,05,06,09,13,16,27,28,30,32,33,39,41,0.7,0.4,0.6*3A
$GPGSA,A,3,60,,,,,,,,,,,,0.7,0.4,0.6*31
$GPGST,231552.00,2.824,0.368,0.345,5.808,0.368,0.345,0.642*5C
$GPGBS,231552.00,2.481,2.232,3.909,77,0.0001,-11.875,6.391*4B
$GPGRS,231552.00,1,-0.1,-0.3,0.2,0.3,0.2,0.0,0.1,-0.6,0.1,,,*48
$GPGRS,231552.00,1,7.7,1.5,-0.2,-3.0,-11.9,0.8,5.0,-0.2,,,,*7F
$GPGRS,231552.00,1,0.1,0.0,0.1,0.3,0.1,0.6,-0.4,-0.0,,,,*4C
$GPGRS,231552.00,1,0.9,1.4,1.3,0.3,0.4,-0.2,0.0,0.3,-0.1,-0.8,-0.4,-1.2*67
$GPGRS,231552.00,1,-1.0,,,,,,,,,,,*4E
$GPGSV,5,1,19,21,86,044,44,17,13,320,42,14,14,294,40,27,13,165,39*7F
$GPGSV,5,2,19,10,21,060,43,03,33,245,45,08,40,187,46,32,46,071,48*7D
$GPGSV,5,3,19,02,68,305,49,28,04,113,32,36,35,170,45,58,13,245,38*7F
$GPGSV,5,4,19,57,11,109,38,34,31,208,42,40,24,132,36,49,34,195,44*78
$GPGSV,5,5,19,41,07,108,34,61,03,257,38*72
$GLGSV,2,1,08,69,63,051,51,85,59,327,52,68,15,032,43,84,58,110,39*63
$GLGSV,2,2,08,70,43,200,43,76,09,315,44,77,08,358,38,86,06,312,43*65
$GAGSV,3,1,11,26,64,089,48,29,34,165,44,08,17,038,39,24,14,318,39*63
$GAGSV,3,2,11,13,12,104,38,31,19,267,40,07,50,089,46,33,59,304,47*62
$GAGSV,3,3,11,12,07,290,33,23,05,220,,16,04,341,*56
$GBGSV,6,1,21,57,77,315,,33,28,049,45,60,10,109,41,20,31,200,*64
$GBGSV,6,2,21,09,13,093,39,39,20,066,41,28,30,140,46,16,17,077,40*61
$GBGSV,6,3,21,05,24,128,38,32,39,211,48,06,16,080,38,29,40,303,*66
$GBGSV,6,4,21,30,47,303,49,27,75,170,52,41,75,094,51,26,02,329,*61
$GBGSV,6,5,21,08,01,063,30,13,10,065,39,31,05,090,,02,09,105,34*68
$GBGSV,6,6,21,14,04,044,37*5D
$GPGGA,231552.00,,,,,0,00,,,M,,M,,*4A
$PTNL,GGK,231552.00,010125,4742.1601414,N,01618.1004132,E,1,38,0.7,EHT751.1050,M*4A
$GPGGQ,231552.00,010125,4742.1601414,N,01618.1004132,E,1,38,0.816,707.8984,M*36
$GPGFA,231552.00,3.503,5.262,0.368,0.345,5.808,0.642,,VVV*0D
$GPLLK,231552.00,010125,,M,,M,1,38,0.8,,M*0A
$GNGMP,231552.00,,,,,DAAA,38,0.4,,,,*5B
$GPGMP,231552.00,,,,,,09,,,,2.2,136*72
$GLGMP,231552.00,,,,,,08,,,,,*75
$GAGMP,231552.00,,,,,,08,,,,,*78
$GBGMP,231552.00,,,,,,13,,,,,*71
$PSSN,SNC,[0,342970000,2347]*4F
$GPZDA,231557.00,01,01,2025,,*64
$GPDTM,W84,,00.0000000,N,00.0000000,E,00.0000000,W84*5F
$PSSN,TFM,231557.00,,,,*68
$GPRMC,231557.00,A,4742.1601414,N,01618.1004112,E,0.0,,010125,5.1,E,D*11
$GPGLL,4742.1601414,N,01618.1004112,E,231557.00,A,D*60
$GPGGA,231557.00,4742.1601414,N,01618.1004112,E,2,38,0.4,707.8957,M,43.2066,M,3.2,0136*41
$GNGNS,231557.00,4742.1601414,N,01618.1004112,E,DAAA,38,0.4,707.8957,43.2066,,*58
$GPGNS,231557.00,,,,,,09,,,,3.2,136*76
$GLGNS,231557.00,,,,,,08,,,,,*70
$GAGNS,231557.00,,,,,,08,,,,,*7D
$GBGNS,231557.00,,,,,,13,,,,,*74
$GPLLQ,231557.00,010125,,M,,M,1,38,0.816,,M*12
$GPVTG,,T,,M,0.00,N,0.01,K,D*27
$GPHDT,,T*1B
$GPTHS,,V*0E
$GPROT,,V*08
$PSSN,HRP,231557.00,010125,,,,,,,00,0,,*66
$PTNL,AVR,231557.00,,Yaw,,Tilt,,,,0,,00*30
$GPGSA,A,3,02,03,08,10,14,17,21,27,32,,,,0.7,0.4,0.6*3B
$GPGSA,A,3,68,69,70,76,77,84,85,86,,,,,0.7,0.4,0.6*3F
$GPGSA,A,3,07,08,13,24,26,29,31,33,,,,,0.7,0.4,0.6*31
$GPGSA,A,3,05,06,09,13,16,27,28,30,32,33,39,41,0.7,0.4,0.6*3A
$GPGSA,A,3,60,,,,,,,,,,,,0.7,0.4,0.6*31
$GPGST,231557.00,2.841,0.371,0.349,10.623,0.370,0.350,0.638*6D
$GPGBS,231557.00,2.498,2.251,3.981,77,0.0001,-11.306,6.392*4F
$GPGRS,231557.00,1,-0.4,0.0,0.2,0.2,-0.1,0.0,0.3,-0.3,-0.1,,,*63
$GPGRS,231557.00,1,8.4,1.9,-0.5,-2.3,-11.3,0.2,5.4,-0.4,,,,*7D
$GPGRS,231557.00,1,-0.1,0.1,0.3,0.2,-0.0,0.6,-0.1,-0.2,,,,*4D
$GPGRS,231557.00,1,0.7,2.1,1.8,0.5,0.3,-0.3,0.3,0.1,-0.5,-1.1,-0.4,-1.2*6C
$GPGRS,231557.00,1,-1.1,,,,,,,,,,,*4A
$GPGSV,5,1,19,21,86,045,44,17,13,320,42,14,14,294,40,27,13,165,39*7E
$GPGSV,5,2,19,10,21,060,43,03,33,245,45,08,40,187,47,32,46,071,49*7D
$GPGSV,5,3,19,02,68,305,49,28,04,112,32,36,35,170,45,58,13,245,38*7E
$GPGSV,5,4,19,57,11,109,38,34,31,208,42,40,24,132,36,49,34,195,44*78
$GPGSV,5,5,19,41,07,108,34,61,03,257,38*72
$GLGSV,2,1,08,69,63,051,51,85,59,327,52,68,15,032,44,84,58,110,39*64
$GLGSV,2,2,08,70,43,200,42,76,09,315,44,77,08,357,37,86,06,312,43*64
$GAGSV,3,1,11,26,64,089,48,29,34,165,44,08,17,038,40,24,14,318,38*6C
$GAGSV,3,2,11,13,12,104,38,31,19,267,40,07,50,089,46,33,59,304,48*6D
$GAGSV,3,3,11,12,07,290,34,23,05,220,,16,04,341,*51
$GBGSV,6,1,21,57,77,315,,33,28,049,45,60,10,109,41,20,31,200,*64
$GBGSV,6,2,21,09,13,093,38,39,20,066,41,28,30,140,46,16,17,076,39*6F
$GBGSV,6,3,21,05,24,128,38,32,39,211,48,06,16,080,38,29,40,303,*66
$GBGSV,6,4,21,30,47,303,48,27,75,170,52,41,75,094,51,26,02,329,*60
$GBGSV,6,5,21,08,01,063,30,13,10,065,39,31,05,090,,02,09,105,33*6F
$GBGSV,6,6,21,14,04,044,37*5D
$GPGGA,231557.00,,,,,0,00,,,M,,M,,*4F
$PTNL,GGK,231557.00,010125,4742.1601414,N,01618.1004112,E,1,38,0.7,EHT751.1023,M*49
$GPGGQ,231557.00,010125,4742.1601414,N,01618.1004112,E,1,38,0.816,707.8957,M*3F
$GPGFA,231557.00,3.523,5.228,0.371,0.349,10.623,0.638,,VVV*3E
$GPLLK,231557.00,010125,,M,,M,1,38,0.8,,M*0F
$GNGMP,231557.00,,,,,DAAA,38,0.4,,,,*5E
$GPGMP,231557.00,,,,,,09,,,,3.2,136*76
$GLGMP,231557.00,,,,,,08,,,,,*70
$GAGMP,231557.00,,,,,,08,,,,,*7D
$GBGMP,231557.00,,,,,,13,,,,,*74
$PSSN,SNC,[0,342975000,2347]*4A
$GPZDA,231602.00,01,01,2025,,*67
$GPDTM,W84,,00.0000000,N,00.0000000,E,00.0000000,W84*5F
$PSSN,TFM,231602.00,,,,*6B
$GPRMC,231602.00,A,4742.1601438,N,01618.1004084,E,0.0,,010125,5.1,E,D*12
$GPGLL,4742.1601438,N,01618.1004084,E,231602.00,A,D*63
$GPGGA,231602.00,4742.1601438,N,01618.1004084,E,2,38,0.4,707.8945,M,43.2066,M,2.0,0136*42
$GNGNS,231602.00,4742.1601438,N,01618.1004084,E,DAAA,38,0.4,707.8945,43.2066,,*58
$GPGNS,231602.00,,,,,,09,,,,2.0,136*76
$GLGNS,231602.00,,,,,,08,,,,,*73
$GAGNS,231602.00,,,,,,08,,,,,*7E
$GBGNS,231602.00,,,,,,13,,,,,*77
$GPLLQ,231602.00,010125,,M,,M,1,38,0.819,,M*1E
$GPVTG,,T,,M,0.00,N,0.00,K,D*26
$GPHDT,,T*1B
$GPTHS,,V*0E
$GPROT,,V*08
$PSSN,HRP,231602.00,010125,,,,,,,00,0,,*65
$PTNL,AVR,231602.00,,Yaw,,Tilt,,,,0,,00*33
$GPGSA,A,3,02,03,08,10,14,17,21,27,32,,,,0.7,0.4,0.6*3B
$GPGSA,A,3,68,69,70,76,77,84,85,86,,,,,0.7,0.4,0.6*3F
$GPGSA,A,3,07,08,13,24,26,29,31,33,,,,,0.7,0.4,0.6*31
$GPGSA,A,3,05,06,09,13,16,27,28,30,32,33,39,41,0.7,0.4,0.6*3A
$GPGSA,A,3,60,,,,,,,,,,,,0.7,0.4,0.6*31
$GPGST,231602.00,2.932,0.370,0.350,11.608,0.370,0.351,0.641*65
$GPGBS,231602.00,2.507,2.187,3.747,77,0.0001,-11.776,6.394*42
$GPGRS,231602.00,1,-0.3,0.3,0.3,-0.0,-0.2,-0.4,0.1,-0.2,0.2,,,*4D
$GPGRS,231602.00,1,8.8,1.5,-1.8,-2.6,-11.8,-0.2,4.9,-0.0,,,,*59
$GPGRS,231602.00,1,0.0,0.1,0.2,-0.1,-0.2,0.6,-0.1,-0.2,,,,*4F
$GPGRS,231602.00,1,1.0,2.2,1.0,0.5,0.5,-0.2,0.2,0.2,-0.2,-1.1,-0.5,-1.1*62
$GPGRS,231602.00,1,-1.7,,,,,,,,,,,*4F
$GPGSV,5,1,19,21,86,045,44,17,13,320,41,14,14,294,40,27,13,165,40*73
$GPGSV,5,2,19,10,21,060,43,03,33,245,44,08,40,187,47,32,46,071,48*7D
$GPGSV,5,3,19,02,68,305,49,28,04,112,32,36,35,170,45,58,13,245,38*7E
$GPGSV,5,4,19,57,11,109,38,34,31,208,42,40,24,132,36,49,34,195,44*78
$GPGSV,5,5,19,41,07,108,34,61,03,257,38*72
$GLGSV,2,1,08,69,63,051,51,85,59,327,52,68,15,032,45,84,58,110,39*65
$GLGSV,2,2,08,70,43,200,42,76,09,314,44,77,08,357,37,86,06,312,44*62
$GAGSV,3,1,11,26,64,089,48,29,34,165,44,08,17,038,39,24,14,318,38*62
$GAGSV,3,2,11,13,12,104,38,31,19,267,40,07,50,089,46,33,59,305,48*6C
$GAGSV,3,3,11,12,07,290,34,23,05,220,,16,04,341,*51
$GBGSV,6,1,21,57,77,315,,33,28,049,45,60,10,109,41,20,31,200,*64
$GBGSV,6,2,21,09,13,093,38,39,20,066,41,28,30,140,45,16,17,076,39*6C
$GBGSV,6,3,21,05,24,128,38,32,39,211,48,06,16,080,38,29,40,303,*66
$GBGSV,6,4,21,30,47,303,48,27,75,170,52,41,75,094,51,26,02,329,*60
$GBGSV,6,5,21,08,01,063,31,13,10,065,39,31,05,090,,02,09,105,34*69
$GBGSV,6,6,21,14,04,044,37*5D
$GPGGA,231602.00,,,,,0,00,,,M,,M,,*4C
$PTNL,GGK,231602.00,010125,4742.1601438,N,01618.1004084,E,1,38,0.7,EHT751.1011,M*4B
$GPGGQ,231602.00,010125,4742.1601438,N,01618.1004084,E,1,38,0.819,707.8945,M*30
$GPGFA,231602.00,3.522,5.255,0.370,0.350,11.608,0.641,,VVV*39
$GPLLK,231602.00,010125,,M,,M,1,38,0.8,,M*0C
$GNGMP,231602.00,,,,,DAAA,38,0.4,,,,*5D
$GPGMP,231602.00,,,,,,09,,,,2.0,136*76
$GLGMP,231602.00,,,,,,08,,,,,*73
$GAGMP,231602.00,,,,,,08,,,,,*7E
$GBGMP,231602.00,,,,,,13,,,,,*77
$PSSN,SNC,[0,342980000,2347]*40
$GPZDA,231607.00,01,01,2025,,*62
$GPDTM,W84,,00.0000000,N,00.0000000,E,00.0000000,W84*5F
$PSSN,TFM,231607.00,,,,*6E
$GPRMC,231607.00,A,4742.1601452,N,01618.1004073,E,0.0,,010125,5.1,E,D*13
$GPGLL,4742.1601452,N,01618.1004073,E,231607.00,A,D*62
$GPGGA,231607.00,4742.1601452,N,01618.1004073,E,2,38,0.4,707.8984,M,43.2066,M,2.6,0136*48
$GNGNS,231607.00,4742.1601452,N,01618.1004073,E,DAAA,38,0.4,707.8984,43.2066,,*54
$GPGNS,231607.00,,,,,,09,,,,2.6,136*75
$GLGNS,231607.00,,,,,,08,,,,,*76
$GAGNS,231607.00,,,,,,08,,,,,*7B
$GBGNS,231607.00,,,,,,13,,,,,*72
$GPLLQ,231607.00,010125,,M,,M,1,38,0.839,,M*19
$GPVTG,,T,,M,0.00,N,0.01,K,D*27
$GPHDT,,T*1B
$GPTHS,,V*0E
$GPROT,,V*08
$PSSN,HRP,231607.00,010125,,,,,,,00,0,,*60
$PTNL,AVR,231607.00,,Yaw,,Tilt,,,,0,,00*36
$GPGSA,A,3,02,03,08,10,14,17,21,27,32,,,,0.7,0.4,0.6*3B
$GPGSA,A,3,68,69,70,76,77,84,85,86,,,,,0.7,0.4,0.6*3F
$GPGSA,A,3,07,08,13,24,26,29,31,33,,,,,0.7,0.4,0.6*31
$GPGSA,A,3,05,06,09,13,16,27,28,30,32,33,39,41,0.7,0.4,0.6*3A
$GPGSA,A,3,60,,,,,,,,,,,,0.7,0.4,0.6*31
$GPGST,231607.00,2.965,0.377,0.356,6.585,0.377,0.356,0.660*50
$GPGBS,231607.00,2.531,2.228,3.799,77,0.0001,-11.515,6.396*42
$GPGRS,231607.00,1,-0.3,0.3,0.1,0.6,0.0,0.1,-0.2,-0.2,0.0,,,*4A
$GPGRS,231607.00,1,9.1,1.2,-1.8,-3.3,-11.5,-0.1,5.2,1.0,,,,*7F
$GPGRS,231607.00,1,0.0,-0.0,0.2,-0.3,-0.2,0.3,-0.1,-0.0,,,,*63
$GPGRS,231607.00,1,1.2,2.1,0.9,1.0,0.6,-0.2,0.0,0.3,-0.3,-0.8,-0.4,-1.1*62
$GPGRS,231607.00,1,-1.1,,,,,,,,,,,*4C
$GPGSV,5,1,19,21,86,046,45,17,13,320,41,14,14,294,40,27,13,165,40*71
$GPGSV,5,2,19,10,21,060,43,03,33,245,44,08,40,187,47,32,46,071,48*7D
$GPGSV,5,3,19,02,68,305,49,28,04,112,32,36,35,170,45,58,13,245,38*7E
$GPGSV,5,4,19,57,11,109,38,34,31,208,42,40,24,132,36,49,34,195,44*78
$GPGSV,5,5,19,41,07,108,34,61,03,257,39*73
$GLGSV,2,1,08,69,63,051,51,85,59,327,52,68,15,032,45,84,58,110,39*65
$GLGSV,2,2,08,70,43,200,42,76,09,314,45,77,08,357,37,86,06,312,44*63
$GAGSV,3,1,11,26,64,089,47,29,34,165,43,08,17,038,39,24,14,318,38*6A
$GAGSV,3,2,11,13,12,104,38,31,19,267,40,07,50,089,46,33,59,305,47*63
$GAGSV,3,3,11,12,07,290,33,23,05,220,,16,04,341,*56
$GBGSV,6,1,21,57,77,316,,33,28,049,45,60,10,109,41,20,31,200,*67
$GBGSV,6,2,21,09,13,093,38,39,20,066,41,28,30,140,45,16,17,076,39*6C
$GBGSV,6,3,21,05,24,128,38,32,39,211,47,06,16,080,38,29,40,303,*69
$GBGSV,6,4,21,30,47,302,48,27,75,170,51,41,75,094,51,26,02,329,*62
$GBGSV,6,5,21,08,01,063,29,13,10,065,39,31,05,090,,02,09,105,34*60
$GBGSV,6,6,21,14,04,044,37*5D
$GPGGA,231607.00,,,,,0,00,,,M,,M,,*49
$PTNL,GGK,231607.00,010125,4742.1601452,N,01618.1004073,E,1,38,0.7,EHT751.1049,M*47
$GPGGQ,231607.00,010125,4742.1601452,N,01618.1004073,E,1,38,0.839,707.8984,M*3E
$GPGFA,231607.00,3.585,5.410,0.377,0.356,6.585,0.660,,VVV*04
$GPLLK,231607.00,010125,,M,,M,1,38,0.8,,M*09
$GNGMP,231607.00,,,,,DAAA,38,0.4,,,,*58
$GPGMP,231607.00,,,,,,09,,,,2.6,136*75
$GLGMP,231607.00,,,,,,08,,,,,*76
$GAGMP,231607.00,,,,,,08,,,,,*7B
$GBGMP,231607.00,,,,,,13,,,,,*72
$PSSN,SNC,[0,342985000,2347]*45
$GPZDA,231612.00,01,01,2025,,*66
$GPDTM,W84,,00.0000000,N,00.0000000,E,00.0000000,W84*5F
$PSSN,TFM,231612.00,,,,*6A
$GPRMC,231612.00,A,4742.1601457,N,01618.1004065,E,0.0,,010125,5.1,E,D*15
$GPGLL,4742.1601457,N,01618.1004065,E,231612.00,A,D*64
$GPGGA,231612.00,4742.1601457,N,01618.1004065,E,2,38,0.4,707.8989,M,43.2066,M,2.2,0136*47
$GNGNS,231612.00,4742.1601457,N,01618.1004065,E,DAAA,38,0.4,707.8989,43.2066,,*5F
$GPGNS,231612.00,,,,,,09,,,,2.2,136*75
$GLGNS,231612.00,,,,,,08,,,,,*72
$GAGNS,231612.00,,,,,,08,,,,,*7F
$GBGNS,231612.00,,,,,,13,,,,,*76
$GPLLQ,231612.00,010125,,M,,M,1,38,0.823,,M*16
$GPVTG,,T,,M,0.00,N,0.00,K,D*26
$GPHDT,,T*1B
$GPTHS,,V*0E
$GPROT,,V*08
$PSSN,HRP,231612.00,010125,,,,,,,00,0,,*64
$PTNL,AVR,231612.00,,Yaw,,Tilt,,,,0,,00*32
$GPGSA,A,3,02,03,08,10,14,17,21,27,32,,,,0.7,0.4,0.6*3B
$GPGSA,A,3,68,69,70,76,77,84,85,86,,,,,0.7,0.4,0.6*3F
$GPGSA,A,3,07,08,13,24,26,29,31,33,,,,,0.7,0.4,0.6*31
$GPGSA,A,3,05,06,09,13,16,27,28,30,32,33,39,41,0.7,0.4,0.6*3A
$GPGSA,A,3,60,,,,,,,,,,,,0.7,0.4,0.6*31
$GPGST,231612.00,2.894,0.372,0.347,1.085,0.372,0.347,0.647*5C
$GPGBS,231612.00,2.555,2.247,3.932,77,0.0001,-11.354,6.391*46
$GPGRS,231612.00,1,-0.2,0.1,0.2,-0.1,-0.1,0.5,-0.1,-0.3,0.1,,,*4F
$GPGRS,231612.00,1,9.0,1.4,-1.0,-1.9,-11.4,-0.4,5.6,0.3,,,,*7E
$GPGRS,231612.00,1,0.2,0.0,0.2,0.3,-0.0,0.7,-0.1,0.1,,,,*4F
$GPGRS,231612.00,1,0.8,1.9,0.8,1.0,0.9,-0.2,0.2,0.3,0.1,-0.8,-0.3,-0.9*4B
$GPGRS,231612.00,1,-1.0,,,,,,,,,,,*49
$GPGSV,5,1,19,21,86,046,44,17,13,320,40,14,14,294,39,27,13,165,41*7E
$GPGSV,5,2,19,10,21,060,42,03,33,245,44,08,40,187,47,32,46,071,49*7D
$GPGSV,5,3,19,02,68,305,49,28,04,112,33,36,35,170,45,58,13,245,38*7F
$GPGSV,5,4,19,57,11,109,38,34,31,208,42,40,24,132,36,49,34,195,44*78
$GPGSV,5,5,19,41,07,108,34,61,03,257,38*72
$GLGSV,2,1,08,69,63,051,51,85,59,328,52,68,15,032,45,84,58,110,39*6A
$GLGSV,2,2,08,70,43,200,42,76,09,314,44,77,08,357,37,86,06,312,43*65
$GAGSV,3,1,11,26,64,089,48,29,34,165,44,08,17,038,39,24,14,318,39*63
$GAGSV,3,2,11,13,12,104,38,31,19,267,40,07,50,089,46,33,59,305,47*63
$GAGSV,3,3,11,12,07,290,33,23,05,220,,16,04,341,*56
$GBGSV,6,1,21,57,77,316,,33,28,049,45,60,10,109,41,20,31,200,*67
$GBGSV,6,2,21,09,13,093,38,39,20,066,41,28,30,140,46,16,17,076,39*6F
$GBGSV,6,3,21,05,24,128,38,32,39,211,48,06,16,080,38,29,40,303,*66
$GBGSV,6,4,21,30,47,302,49,27,75,169,52,41,75,094,51,26,02,329,*68
$GBGSV,6,5,21,08,01,063,30,13,10,065,39,31,05,090,,02,09,105,33*6F
$GBGSV,6,6,21,14,03,044,37*5A
$GPGGA,231612.00,,,,,0,00,,,M,,M,,*4D
$PTNL,GGK,231612.00,010125,4742.1601457,N,01618.1004065,E,1,38,0.7,EHT751.1055,M*4C
$GPGGQ,231612.00,010125,4742.1601457,N,01618.1004065,E,1,38,0.823,707.8989,M*3E
$GPGFA,231612.00,3.540,5.302,0.372,0.347,1.085,0.647,,VVV*0F
$GPLLK,231612.00,010125,,M,,M,1,38,0.8,,M*0D
$GNGMP,231612.00,,,,,DAAA,38,0.4,,,,*5C
$GPGMP,231612.00,,,,,,09,,,,2.2,136*75
$GLGMP,231612.00,,,,,,08,,,,,*72
$GAGMP,231612.00,,,,,,08,,,,,*7F
$GBGMP,231612.00,,,,,,13,,,,,*76
$PSSN,SNC,[0,342990000,2347]*41
$GPZDA,231617.00,01,01,2025,,*63
$GPDTM,W84,,00.0000000,N,00.0000000,E,00.0000000,W84*5F
$PSSN,TFM,231617.00,,,,*6F
$GPRMC,231617.00,A,4742.1601456,N,01618.1004083,E,0.0,,010125,5.1,E,D*19
$GPGLL,4742.1601456,N,01618.1004083,E,231617.00,A,D*68
$GPGGA,231617.00,4742.1601456,N,01618.1004083,E,2,38,0.4,707.9024,M,43.2066,M,3.2,0136*45
$GNGNS,231617.00,4742.1601456,N,01618.1004083,E,DAAA,38,0.4,707.9024,43.2066,,*5C
$GPGNS,231617.00,,,,,,09,,,,3.2,136*71
$GLGNS,231617.00,,,,,,08,,,,,*77
$GAGNS,231617.00,,,,,,08,,,,,*7A
$GBGNS,231617.00,,,,,,13,,,,,*73
$GPLLQ,231617.00,010125,,M,,M,1,38,0.822,,M*12
$GPVTG,,T,,M,0.00,N,0.01,K,D*27
$GPHDT,,T*1B
$GPTHS,,V*0E
$GPROT,,V*08
$PSSN,HRP,231617.00,010125,,,,,,,00,0,,*61
$PTNL,AVR,231617.00,,Yaw,,Tilt,,,,0,,00*37
$GPGSA,A,3,02,03,08,10,14,17,21,27,32,,,,0.7,0.4,0.6*3B
$GPGSA,A,3,68,69,70,76,77,84,85,86,,,,,0.7,0.4,0.6*3F
$GPGSA,A,3,07,08,13,24,26,29,31,33,,,,,0.7,0.4,0.6*31
$GPGSA,A,3,05,06,09,13,16,27,28,30,32,33,39,41,0.7,0.4,0.6*3A
$GPGSA,A,3,60,,,,,,,,,,,,0.7,0.4,0.6*31
$GPGST,231617.00,2.784,0.374,0.351,5.192,0.374,0.351,0.643*50
$GPGBS,231617.00,2.576,2.267,4.005,77,0.0001,-11.588,6.393*4F
$GPGRS,231617.00,1,-0.2,0.1,0.0,-0.3,-0.1,0.1,0.1,-0.2,0.1,,,*62
$GPGRS,231617.00,1,7.9,1.5,-0.9,-2.8,-11.6,-0.0,4.8,-0.2,,,,*52
$GPGRS,231617.00,1,-0.1,0.0,0.4,0.3,-0.1,0.5,-0.0,-0.1,,,,*4D
$GPGRS,231617.00,1,0.8,2.0,0.7,0.5,0.0,-0.4,0.1,0.1,-0.0,-1.1,-0.1,-1.2*6D
$GPGRS,231617.00,1,-1.4,,,,,,,,,,,*48
$GPGSV,5,1,19,21,86,047,44,17,13,320,41,14,14,294,40,27,13,165,40*71
$GPGSV,5,2,19,10,21,060,42,03,33,245,45,08,40,187,46,32,46,071,48*7C
$GPGSV,5,3,19,02,68,305,49,28,04,112,33,36,35,170,45,58,13,245,38*7F
$GPGSV,5,4,19,57,11,109,38,34,31,208,43,40,24,132,36,49,34,195,44*79
$GPGSV,5,5,19,41,07,108,35,61,03,257,39*72
$GLGSV,2,1,08,69,63,051,51,85,59,328,52,68,15,032,44,84,58,110,39*6B
$GLGSV,2,2,08,70,43,200,42,76,09,314,45,77,08,357,38,86,06,312,43*6B
$GAGSV,3,1,11,26,64,089,47,29,34,165,44,08,17,038,39,24,14,318,39*6C
$GAGSV,3,2,11,13,12,104,39,31,19,267,40,07,50,089,46,33,59,305,47*62
$GAGSV,3,3,11,12,07,290,32,23,05,220,,16,04,341,*57
$GBGSV,6,1,21,57,77,316,,33,28,049,45,60,10,109,41,20,31,200,*67
$GBGSV,6,2,21,09,13,093,38,39,20,066,41,28,30,140,45,16,17,076,40*62
$GBGSV,6,3,21,05,24,128,38,32,39,211,48,06,16,080,38,29,40,303,*66
$GBGSV,6,4,21,30,47,302,49,27,75,169,52,41,75,094,51,26,02,329,*68
$GBGSV,6,5,21,08,01,063,31,13,10,065,38,31,05,090,,02,09,105,34*68
$GBGSV,6,6,21,14,03,044,37*5A
$GPGGA,231617.00,,,,,0,00,,,M,,M,,*48
$PTNL,GGK,231617.00,010125,4742.1601456,N,01618.1004083,E,1,38,0.7,EHT751.1089,M*41
$GPGGQ,231617.00,010125,4742.1601456,N,01618.1004083,E,1,38,0.822,707.9024,M*3C
$GPGFA,231617.00,3.558,5.269,0.374,0.351,5.192,0.643,,VVV*09
$GPLLK,231617.00,010125,,M,,M,1,38,0.8,,M*08
$GNGMP,231617.00,,,,,DAAA,38,0.4,,,,*59
$GPGMP,231617.00,,,,,,09,,,,3.2,136*71
$GLGMP,231617.00,,,,,,08,,,,,*77
$GAGMP,231617.00,,,,,,08,,,,,*7A
$GBGMP,231617.00,,,,,,13,,,,,*73
$PSSN,SNC,[0,342995000,2347]*44
$GPZDA,231622.00,01,01,2025,,*65
$GPDTM,W84,,00.0000000,N,00.0000000,E,00.0000000,W84*5F
$PSSN,TFM,231622.00,,,,*69
$GPRMC,231622.00,A,4742.1601453,N,01618.1004071,E,0.0,,010125,5.1,E,D*17
$GPGLL,4742.1601453,N,01618.1004071,E,231622.00,A,D*66
$GPGGA,231622.00,4742.1601453,N,01618.1004071,E,2,38,0.4,707.9008,M,43.2066,M,2.0,0136*46
