$GPZDA,161442.00,01,01,2025,,*67
$GPDTM,W84,,00.0000000,N,00.0000000,E,00.0000000,W84*5F
$PSSN,TFM,161442.00,,,,*6B
$GPRMC,161442.00,A,4742.1605608,N,01618.1004718,E,0.0,,010125,5.1,E,D*15
$GPGLL,4742.1605608,N,01618.1004718,E,161442.00,A,D*64
$GPGGA,161442.00,4742.1605608,N,01618.1004718,E,2,38,0.4,708.0359,M,43.2066,M,2.2,0136*47
$GNGNS,161442.00,4742.1605608,N,01618.1004718,E,DAAA,38,0.4,708.0359,43.2066,,*5F
$GPGNS,161442.00,,,,,,11,,,,2.2,136*7D
$GLGNS,161442.00,,,,,,08,,,,,*73
$GAGNS,161442.00,,,,,,06,,,,,*70
$GBGNS,161442.00,,,,,,13,,,,,*77
$GPLLQ,161442.00,010125,,M,,M,1,38,1.215,,M*19
$GPVTG,,T,,M,0.00,N,0.00,K,D*26
$GPHDT,,T*1B
$GPTHS,,V*0E
$GPROT,,V*08
$PSSN,HRP,161442.00,010125,,,,,,,00,0,,*65
$PTNL,AVR,161442.00,,Yaw,,Tilt,,,,0,,00*33
$GPGSA,A,3,05,11,12,16,18,20,25,26,28,29,31,,0.8,0.4,0.6*32
$GPGSA,A,3,71,72,78,79,80,81,82,88,,,,,0.8,0.4,0.6*31
$GPGSA,A,3,13,15,21,27,30,34,,,,,,,0.8,0.4,0.6*3C
$GPGSA,A,3,05,08,11,12,13,23,24,25,34,38,43,44,0.8,0.4,0.6*3F
$GPGSA,A,3,60,,,,,,,,,,,,0.8,0.4,0.6*3E
$GPGST,161442.00,1.764,0.518,0.414,9.490,0.515,0.417,1.018*55
$GPGBS,161442.00,3.479,2.103,8.230,16,0.0001,-5.706,5.305*77
$GPGRS,161442.00,1,0.7,-0.2,-0.9,-5.7,-0.3,-0.3,0.4,-0.3,0.0,0.3,-0.0,*43
$GPGRS,161442.00,1,-0.6,6.0,-1.4,0.2,-2.0,1.1,0.3,-1.1,,,,*4C
$GPGRS,161442.00,1,0.8,0.3,-0.7,-0.3,0.1,-0.1,,,,,,*68
$GPGRS,161442.00,1,0.9,1.8,2.0,2.0,-0.1,-0.0,-0.3,-0.5,-0.2,0.2,0.7,-1.0*4B
$GPGRS,161442.00,1,-1.2,,,,,,,,,,,*4A
$GPGSV,6,1,21,29,77,039,49,12,10,119,40,11,11,039,39,26,34,301,45*7E
$GPGSV,6,2,21,20,20,054,41,05,22,091,43,18,40,185,46,25,48,124,47*7C
$GPGSV,6,3,21,31,45,282,48,28,48,241,47,04,04,331,38,16,05,299,36*75
$GPGSV,6,4,21,36,35,170,45,58,13,245,37,40,23,133,37,34,31,208,43*7C
$GPGSV,6,5,21,49,34,195,45,57,05,113,38,41,07,108,35,61,03,257,39*73
$GPGSV,6,6,21*7A
$GLGSV,2,1,08,79,87,192,52,80,34,321,50,82,31,218,48,78,32,144,49*65
$GLGSV,2,2,08,88,38,039,50,81,83,219,52,71,07,342,43,72,06,027,38*68
$GAGSV,3,1,09,27,86,328,49,34,40,052,45,19,10,289,33,13,21,193,41*6C
$GAGSV,3,2,09,21,31,300,43,30,39,116,45,15,62,141,48,04,04,342,36*63
$GAGSV,3,3,09,29,03,247,36*5D
$GBGSV,6,1,21,11,76,211,48,05,21,129,38,56,11,069,,24,12,150,41*6F
$GBGSV,6,2,21,44,20,056,43,38,29,057,44,13,33,083,42,28,39,214,*60
$GBGSV,6,3,21,23,52,295,49,08,33,073,41,25,60,183,51,31,42,070,*6D
$GBGSV,6,4,21,12,45,055,46,43,52,228,49,34,75,068,50,37,05,317,*65
$GBGSV,6,5,21,19,02,010,34,10,06,085,35,02,06,107,34,22,00,012,*6D
$GBGSV,6,6,21,60,10,109,39*5D
$GPGGA,161442.00,,,,,0,00,,,M,,M,,*4C
$PTNL,GGK,161442.00,010125,4742.1605608,N,01618.1004718,E,1,38,0.8,EHT751.2425,M*43
$GPGGQ,161442.00,010125,4742.1605608,N,01618.1004718,E,1,38,1.215,708.0359,M*30
$GPGFA,161442.00,4.925,8.348,0.518,0.414,9.490,1.018,,VVV*0B
$GPLLK,161442.00,010125,,M,,M,1,38,0.9,,M*0D
$GNGMP,161442.00,,,,,DAAA,38,0.4,,,,*5D
$GPGMP,161442.00,,,,,,11,,,,2.2,136*7D
$GLGMP,161442.00,,,,,,08,,,,,*73
$GAGMP,161442.00,,,,,,06,,,,,*70
$GBGMP,161442.00,,,,,,13,,,,,*77
$PSSN,SNC,[0,317700000,2347]*46
$GPZDA,161447.00,01,01,2025,,*62
$GPDTM,W84,,00.0000000,N,00.0000000,E,00.0000000,W84*5F
$PSSN,TFM,161447.00,,,,*6E
$GPRMC,161447.00,A,4742.1605604,N,01618.1004694,E,0.0,,010125,5.1,E,D*19
$GPGLL,4742.1605604,N,01618.1004694,E,161447.00,A,D*68
$GPGGA,161447.00,4742.1605604,N,01618.1004694,E,2,38,0.4,708.0306,M,43.2066,M,3.2,0136*40
$GNGNS,161447.00,4742.1605604,N,01618.1004694,E,DAAA,38,0.4,708.0306,43.2066,,*59
$GPGNS,161447.00,,,,,,11,,,,3.2,136*79
$GLGNS,161447.00,,,,,,08,,,,,*76
$GAGNS,161447.00,,,,,,06,,,,,*75
$GBGNS,161447.00,,,,,,13,,,,,*72
$GPLLQ,161447.00,010125,,M,,M,1,38,1.213,,M*1A
$GPVTG,,T,,M,0.00,N,0.00,K,D*26
$GPHDT,,T*1B
$GPTHS,,V*0E
$GPROT,,V*08
$PSSN,HRP,161447.00,010125,,,,,,,00,0,,*60
$PTNL,AVR,161447.00,,Yaw,,Tilt,,,,0,,00*36
$GPGSA,A,3,05,11,12,16,18,20,25,26,28,29,31,,0.8,0.4,0.6*32
$GPGSA,A,3,71,72,78,79,80,81,82,88,,,,,0.8,0.4,0.6*31
$GPGSA,A,3,13,15,21,27,30,34,,,,,,,0.8,0.4,0.6*3C
$GPGSA,A,3,05,08,11,12,13,23,24,25,34,38,43,44,0.8,0.4,0.6*3F
$GPGSA,A,3,60,,,,,,,,,,,,0.8,0.4,0.6*3E
$GPGST,161447.00,1.623,0.524,0.414,9.402,0.522,0.417,1.012*58
$GPGBS,161447.00,3.542,2.115,8.275,16,0.0001,-5.081,5.285*7C
$GPGRS,161447.00,1,0.3,0.1,-0.8,-5.1,0.0,-0.2,0.3,-0.5,-0.0,0.3,0.1,*44
$GPGRS,161447.00,1,0.2,5.0,-2.2,0.1,-1.6,1.2,-0.1,-1.5,,,,*48
$GPGRS,161447.00,1,0.2,0.1,-0.8,-0.3,0.1,0.0,,,,,,*46
$GPGRS,161447.00,1,1.3,1.4,1.9,2.2,-0.8,-0.2,-0.2,-0.5,-0.0,-0.1,0.6,-1.2*64
$GPGRS,161447.00,1,-1.5,,,,,,,,,,,*48
$GPGSV,6,1,21,29,77,039,49,12,10,119,40,11,10,039,39,26,34,301,45*7F
$GPGSV,6,2,21,20,20,054,41,05,22,091,43,18,40,185,46,25,48,124,47*7C
$GPGSV,6,3,21,31,45,282,47,28,47,241,47,04,04,331,37,16,05,299,36*7A
$GPGSV,6,4,21,36,35,170,45,58,13,245,37,40,23,133,37,34,31,208,43*7C
$GPGSV,6,5,21,49,34,195,45,57,05,113,37,41,07,108,35,61,03,257,38*7D
$GPGSV,6,6,21*7A
$GLGSV,2,1,08,79,87,192,51,80,34,321,50,82,31,218,48,78,32,144,49*66
$GLGSV,2,2,08,88,38,039,49,81,83,219,52,71,07,342,43,72,06,027,38*60
$GAGSV,3,1,09,27,86,328,49,34,40,052,45,19,10,289,33,13,21,193,41*6C
$GAGSV,3,2,09,21,31,300,43,30,39,116,45,15,62,141,48,04,04,342,36*63
$GAGSV,3,3,09,29,03,247,36*5D
$GBGSV,6,1,21,11,76,211,48,05,21,129,38,56,11,069,,24,12,150,41*6F
$GBGSV,6,2,21,44,20,056,43,38,29,057,44,13,33,083,42,28,39,214,*60
$GBGSV,6,3,21,23,52,295,49,08,33,073,41,25,60,183,51,31,42,070,*6D
$GBGSV,6,4,21,12,45,055,45,43,52,228,49,34,75,068,50,37,05,317,*66
$GBGSV,6,5,21,19,02,010,34,10,06,085,35,02,06,107,34,22,00,012,*6D
$GBGSV,6,6,21,60,10,109,40*53
$GPGGA,161447.00,,,,,0,00,,,M,,M,,*49
$PTNL,GGK,161447.00,010125,4742.1605604,N,01618.1004694,E,1,38,0.8,EHT751.2372,M*4A
$GPGGQ,161447.00,010125,4742.1605604,N,01618.1004694,E,1,38,1.213,708.0306,M*30
$GPGFA,161447.00,4.987,8.299,0.524,0.414,9.402,1.012,,VVV*05
$GPLLK,161447.00,010125,,M,,M,1,38,0.9,,M*08
$GNGMP,161447.00,,,,,DAAA,38,0.4,,,,*58
$GPGMP,161447.00,,,,,,11,,,,3.2,136*79
$GLGMP,161447.00,,,,,,08,,,,,*76
$GAGMP,161447.00,,,,,,06,,,,,*75
$GBGMP,161447.00,,,,,,13,,,,,*72
$PSSN,SNC,[0,317705000,2347]*43
$GPZDA,161452.00,01,01,2025,,*66
$GPDTM,W84,,00.0000000,N,00.0000000,E,00.0000000,W84*5F
$PSSN,TFM,161452.00,,,,*6A
$GPRMC,161452.00,A,4742.1605608,N,01618.1004674,E,0.0,,010125,5.1,E,D*1F
$GPGLL,4742.1605608,N,01618.1004674,E,161452.00,A,D*6E
$GPGGA,161452.00,4742.1605608,N,01618.1004674,E,2,38,0.4,708.0183,M,43.2066,M,2.4,0136*4E
$GNGNS,161452.00,4742.1605608,N,01618.1004674,E,DAAA,38,0.4,708.0183,43.2066,,*50
$GPGNS,161452.00,,,,,,11,,,,2.4,136*7A
$GLGNS,161452.00,,,,,,08,,,,,*72
$GAGNS,161452.00,,,,,,06,,,,,*71
$GBGNS,161452.00,,,,,,13,,,,,*76
$GPLLQ,161452.00,010125,,M,,M,1,38,1.220,,M*1E
$GPVTG,,T,,M,0.00,N,0.01,K,D*27
$GPHDT,,T*1B
$GPTHS,,V*0E
$GPROT,,V*08
$PSSN,HRP,161452.00,010125,,,,,,,00,0,,*64
$PTNL,AVR,161452.00,,Yaw,,Tilt,,,,0,,00*32
$GPGSA,A,3,05,11,12,16,18,20,25,26,28,29,31,,0.8,0.4,0.6*32
$GPGSA,A,3,71,72,78,79,80,81,82,88,,,,,0.8,0.4,0.6*31
$GPGSA,A,3,13,15,21,27,30,34,,,,,,,0.8,0.4,0.6*3C
$GPGSA,A,3,05,08,11,12,13,23,24,25,34,38,43,44,0.8,0.4,0.6*3F
$GPGSA,A,3,60,,,,,,,,,,,,0.8,0.4,0.6*3E
$GPGST,161452.00,1.442,0.525,0.415,9.988,0.522,0.419,1.020*59
$GPGBS,161452.00,3.536,2.071,8.254,16,0.0001,-4.467,5.257*79
$GPGRS,161452.00,1,0.2,-0.1,-0.8,-4.5,-0.1,-0.4,-0.0,-0.6,0.2,0.7,-0.0,*69
$GPGRS,161452.00,1,-0.7,4.8,-1.7,0.0,-1.9,1.1,0.1,-1.3,,,,*4D
$GPGRS,161452.00,1,0.5,0.0,-0.4,-0.1,-0.0,0.2,,,,,,*64
$GPGRS,161452.00,1,1.0,0.9,1.7,1.3,-0.2,-0.4,0.0,-0.2,-0.0,-0.1,0.6,-1.0*45
$GPGRS,161452.00,1,-1.1,,,,,,,,,,,*48
$GPGSV,6,1,21,29,77,039,50,12,10,119,40,11,10,039,39,26,34,301,45*77
$GPGSV,6,2,21,20,20,054,41,05,22,091,43,18,40,185,47,25,48,125,47*7C
$GPGSV,6,3,21,31,45,282,47,28,47,241,47,04,04,331,37,16,05,299,36*7A
$GPGSV,6,4,21,36,35,170,45,58,13,245,37,40,23,133,37,34,31,208,43*7C
$GPGSV,6,5,21,49,34,195,45,57,05,113,37,41,07,108,35,61,03,257,39*7C
$GPGSV,6,6,21*7A
$GLGSV,2,1,08,79,87,191,51,80,34,321,50,82,31,218,48,78,32,144,49*65
$GLGSV,2,2,08,88,38,039,50,81,83,219,52,71,07,341,43,72,06,027,38*6B
$GAGSV,3,1,09,27,86,328,48,34,40,052,45,19,10,289,32,13,21,193,41*6C
$GAGSV,3,2,09,21,31,300,43,30,38,116,45,15,62,141,48,04,04,342,36*62
$GAGSV,3,3,09,29,03,247,36*5D
$GBGSV,6,1,21,11,76,211,49,05,21,129,39,56,11,069,,24,12,150,41*6F
$GBGSV,6,2,21,44,20,056,42,38,29,057,44,13,33,083,42,28,39,214,*61
$GBGSV,6,3,21,23,52,295,49,08,33,073,41,25,60,183,51,31,42,070,*6D
$GBGSV,6,4,21,12,45,055,45,43,52,228,49,34,75,068,50,37,05,317,*66
$GBGSV,6,5,21,19,02,010,34,10,06,085,35,02,06,107,35,22,00,012,*6C
$GBGSV,6,6,21,60,10,109,40*53
$GPGGA,161452.00,,,,,0,00,,,M,,M,,*4D
$PTNL,GGK,161452.00,010125,4742.1605608,N,01618.1004674,E,1,38,0.8,EHT751.2249,M*45
$GPGGQ,161452.00,010125,4742.1605608,N,01618.1004674,E,1,38,1.220,708.0183,M*39
$GPGFA,161452.00,4.989,8.365,0.525,0.415,9.988,1.020,,VVV*03
$GPLLK,161452.00,010125,,M,,M,1,38,0.9,,M*0C
$GNGMP,161452.00,,,,,DAAA,38,0.4,,,,*5C
$GPGMP,161452.00,,,,,,11,,,,2.4,136*7A
$GLGMP,161452.00,,,,,,08,,,,,*72
$GAGMP,161452.00,,,,,,06,,,,,*71
$GBGMP,161452.00,,,,,,13,,,,,*76
$PSSN,SNC,[0,317710000,2347]*47
$GPZDA,161457.00,01,01,2025,,*63
$GPDTM,W84,,00.0000000,N,00.0000000,E,00.0000000,W84*5F
$PSSN,TFM,161457.00,,,,*6F
$GPRMC,161457.00,A,4742.1605593,N,01618.1004671,E,0.0,,010125,5.1,E,D*1E
$GPGLL,4742.1605593,N,01618.1004671,E,161457.00,A,D*6F
$GPGGA,161457.00,4742.1605593,N,01618.1004671,E,2,39,0.4,708.0090,M,43.2066,M,2.3,0136*4A
$GNGNS,161457.00,4742.1605593,N,01618.1004671,E,DAAA,39,0.4,708.0090,43.2066,,*53
$GPGNS,161457.00,,,,,,11,,,,2.3,136*78
$GLGNS,161457.00,,,,,,08,,,,,*77
$GAGNS,161457.00,,,,,,06,,,,,*74
$GBGNS,161457.00,,,,,,14,,,,,*74
$GPLLQ,161457.00,010125,,M,,M,1,39,1.222,,M*18
$GPVTG,,T,,M,0.00,N,0.01,K,D*27
$GPHDT,,T*1B
$GPTHS,,V*0E
$GPROT,,V*08
$PSSN,HRP,161457.00,010125,,,,,,,00,0,,*61
$PTNL,AVR,161457.00,,Yaw,,Tilt,,,,0,,00*37
$GPGSA,A,3,05,11,12,16,18,20,25,26,28,29,31,,0.8,0.4,0.6*32
$GPGSA,A,3,71,72,78,79,80,81,82,88,,,,,0.8,0.4,0.6*31
$GPGSA,A,3,13,15,21,27,30,34,,,,,,,0.8,0.4,0.6*3C
$GPGSA,A,3,05,08,10,11,12,13,23,24,25,34,38,43,0.8,0.4,0.6*3E
$GPGSA,A,3,44,60,,,,,,,,,,,0.8,0.4,0.6*3E
$GPGST,161457.00,2.257,0.522,0.414,10.979,0.518,0.418,1.024*61
$GPGBS,161457.00,3.536,2.077,8.278,12,0.0001,-1.091,1.347*7C
$GPGRS,161457.00,1,0.0,-0.3,-1.1,-4.1,-0.1,-0.5,0.2,-0.4,0.1,0.6,0.2,*61
$GPGRS,161457.00,1,-0.3,5.5,-1.5,0.2,-2.1,0.9,0.7,-1.1,,,,*46
$GPGRS,161457.00,1,0.8,0.1,-0.7,-0.1,-0.1,0.3,,,,,,*6E
$GPGRS,161457.00,1,1.0,1.0,-9.8,1.7,0.4,0.2,-0.3,-0.2,-0.2,-0.0,-0.1,0.6*4B
$GPGRS,161457.00,1,-1.2,-1.3,,,,,,,,,,*4F
$GPGSV,6,1,21,29,77,040,50,12,10,119,39,11,10,039,39,26,34,301,45*77
$GPGSV,6,2,21,20,20,054,40,05,22,091,44,18,40,185,47,25,48,125,47*7A
$GPGSV,6,3,21,31,45,282,47,28,47,241,48,04,04,331,37,16,05,299,36*75
$GPGSV,6,4,21,36,35,170,45,58,13,245,37,40,23,133,37,34,31,208,43*7C
$GPGSV,6,5,21,49,34,195,45,57,05,113,37,41,07,108,35,61,03,257,39*7C
$GPGSV,6,6,21*7A
$GLGSV,2,1,08,79,87,191,51,80,34,321,51,82,31,218,49,78,32,144,49*65
$GLGSV,2,2,08,88,38,039,49,81,83,219,52,71,07,341,43,72,06,027,38*63
$GAGSV,3,1,09,27,86,328,48,34,40,052,45,19,10,289,33,13,22,193,41*6E
$GAGSV,3,2,09,21,31,300,43,30,38,116,45,15,62,141,48,04,04,342,36*62
$GAGSV,3,3,09,29,03,247,36*5D
$GBGSV,6,1,21,11,76,211,48,05,21,129,38,56,11,069,,24,12,150,41*6F
$GBGSV,6,2,21,44,20,056,42,38,29,057,44,13,33,083,42,28,39,214,*61
$GBGSV,6,3,21,23,52,295,49,08,33,073,41,25,60,183,51,31,42,070,*6D
$GBGSV,6,4,21,12,45,055,45,43,52,228,49,34,75,068,50,37,05,317,*66
$GBGSV,6,5,21,19,02,010,33,10,06,085,35,02,06,107,34,22,00,012,*6A
$GBGSV,6,6,21,60,10,109,40*53
$GPGGA,161457.00,,,,,0,00,,,M,,M,,*48
$PTNL,GGK,161457.00,010125,4742.1605593,N,01618.1004671,E,1,39,0.8,EHT751.2155,M*4B
$GPGGQ,161457.00,010125,4742.1605593,N,01618.1004671,E,1,39,1.222,708.0090,M*38
$GPGFA,161457.00,4.961,8.399,0.522,0.414,10.979,1.024,,VVV*37
$GPLLK,161457.00,010125,,M,,M,1,39,0.9,,M*08
$GNGMP,161457.00,,,,,DAAA,39,0.4,,,,*58
$GPGMP,161457.00,,,,,,11,,,,2.3,136*78
$GLGMP,161457.00,,,,,,08,,,,,*77
$GAGMP,161457.00,,,,,,06,,,,,*74
$GBGMP,161457.00,,,,,,14,,,,,*74
$PSSN,SNC,[0,317715000,2347]*42
$GPZDA,161502.00,01,01,2025,,*62
$GPDTM,W84,,00.0000000,N,00.0000000,E,00.0000000,W84*5F
$PSSN,TFM,161502.00,,,,*6E
$GPRMC,161502.00,A,4742.1605599,N,01618.1004685,E,0.0,,010125,5.1,E,D*1E
$GPGLL,4742.1605599,N,01618.1004685,E,161502.00,A,D*6F
$GPGGA,161502.00,4742.1605599,N,01618.1004685,E,2,39,0.4,707.9986,M,43.2066,M,2.2,0136*43
$GNGNS,161502.00,4742.1605599,N,01618.1004685,E,DAAA,39,0.4,707.9986,43.2066,,*5B
$GPGNS,161502.00,,,,,,11,,,,2.2,136*78
$GLGNS,161502.00,,,,,,08,,,,,*76
$GAGNS,161502.00,,,,,,06,,,,,*75
$GBGNS,161502.00,,,,,,14,,,,,*75
$GPLLQ,161502.00,010125,,M,,M,1,39,1.217,,M*1F
$GPVTG,,T,,M,0.01,N,0.01,K,D*26
$GPHDT,,T*1B
$GPTHS,,V*0E
$GPROT,,V*08
$PSSN,HRP,161502.00,010125,,,,,,,00,0,,*60
$PTNL,AVR,161502.00,,Yaw,,Tilt,,,,0,,00*36
$GPGSA,A,3,05,11,12,16,18,20,25,26,28,29,31,,0.8,0.4,0.6*32
$GPGSA,A,3,71,72,78,79,80,81,82,88,,,,,0.8,0.4,0.6*31
$GPGSA,A,3,13,15,21,27,30,34,,,,,,,0.8,0.4,0.6*3C
$GPGSA,A,3,05,08,10,11,12,13,23,24,25,34,38,43,0.8,0.4,0.6*3E
$GPGSA,A,3,44,60,,,,,,,,,,,0.8,0.4,0.6*3E
$GPGST,161502.00,2.342,0.520,0.414,9.883,0.518,0.418,1.019*55
$GPGBS,161502.00,3.487,2.101,8.214,72,0.0001,6.959,7.098*5A
$GPGRS,161502.00,1,0.1,-0.8,-1.2,-4.3,-0.2,-0.2,0.2,-0.4,0.0,0.5,0.2,*6D
$GPGRS,161502.00,1,-0.4,7.0,-2.0,0.5,-2.3,1.0,1.0,-1.0,,,,*4B
$GPGRS,161502.00,1,0.9,0.2,-1.0,0.0,0.2,0.3,,,,,,*69
$GPGRS,161502.00,1,0.7,1.6,-8.9,1.4,1.5,0.6,-0.2,-0.1,-0.5,0.1,-0.2,0.8*69
$GPGRS,161502.00,1,-1.4,-1.3,,,,,,,,,,*48
$GPGSV,6,1,21,29,77,040,50,12,10,119,39,11,10,039,39,26,35,301,44*77
$GPGSV,6,2,21,20,20,054,41,05,22,091,43,18,40,185,47,25,48,125,47*7C
$GPGSV,6,3,21,31,45,282,47,28,47,241,47,04,04,331,37,16,05,299,36*7A
$GPGSV,6,4,21,36,35,170,45,58,13,245,37,40,23,133,37,34,31,208,43*7C
$GPGSV,6,5,21,49,34,195,45,57,05,113,37,41,07,108,35,61,03,257,39*7C
$GPGSV,6,6,21*7A
$GLGSV,2,1,08,79,87,190,51,80,34,321,50,82,31,218,48,78,32,144,49*64
$GLGSV,2,2,08,88,38,039,49,81,83,219,52,71,07,341,43,72,06,027,39*62
$GAGSV,3,1,09,27,86,329,48,34,40,052,45,19,10,289,33,13,22,193,41*6F
$GAGSV,3,2,09,21,31,300,43,30,38,117,45,15,62,141,48,04,04,342,36*63
$GAGSV,3,3,09,29,03,247,36*5D
$GBGSV,6,1,21,11,76,211,49,05,21,129,39,56,10,069,,24,12,150,41*6E
$GBGSV,6,2,21,44,20,056,43,38,29,057,44,13,33,083,43,28,39,214,*61
$GBGSV,6,3,21,23,52,295,49,08,33,073,42,25,60,183,51,31,42,070,*6E
$GBGSV,6,4,21,12,45,055,46,43,52,228,49,34,75,068,51,37,06,317,*67
$GBGSV,6,5,21,19,02,010,33,10,06,085,35,02,06,107,35,22,00,012,*6B
$GBGSV,6,6,21,60,10,109,40*53
$GPGGA,161502.00,,,,,0,00,,,M,,M,,*49
$PTNL,GGK,161502.00,010125,4742.1605599,N,01618.1004685,E,1,39,0.8,EHT751.2052,M*4D
$GPGGQ,161502.00,010125,4742.1605599,N,01618.1004685,E,1,39,1.217,707.9986,M*36
$GPGFA,161502.00,4.948,8.355,0.520,0.414,9.883,1.019,,VVV*0D
$GPLLK,161502.00,010125,,M,,M,1,39,0.9,,M*09
$GNGMP,161502.00,,,,,DAAA,39,0.4,,,,*59
$GPGMP,161502.00,,,,,,11,,,,2.2,136*78
$GLGMP,161502.00,,,,,,08,,,,,*76
$GAGMP,161502.00,,,,,,06,,,,,*75
$GBGMP,161502.00,,,,,,14,,,,,*75
$PSSN,SNC,[0,317720000,2347]*44
$GPZDA,161507.00,01,01,2025,,*67
$GPDTM,W84,,00.0000000,N,00.0000000,E,00.0000000,W84*5F
$PSSN,TFM,161507.00,,,,*6B
$GPRMC,161507.00,A,4742.1605577,N,01618.1004666,E,0.0,,010125,5.1,E,D*16
$GPGLL,4742.1605577,N,01618.1004666,E,161507.00,A,D*67
$GPGGA,161507.00,4742.1605577,N,01618.1004666,E,2,39,0.4,707.9848,M,43.2066,M,3.2,0136*49
$GNGNS,161507.00,4742.1605577,N,01618.1004666,E,DAAA,39,0.4,707.9848,43.2066,,*50
$GPGNS,161507.00,,,,,,11,,,,3.2,136*7C
$GLGNS,161507.00,,,,,,08,,,,,*73
$GAGNS,161507.00,,,,,,06,,,,,*70
$GBGNS,161507.00,,,,,,14,,,,,*70
$GPLLQ,161507.00,010125,,M,,M,1,39,1.211,,M*1C
$GPVTG,,T,,M,0.00,N,0.01,K,D*27
$GPHDT,,T*1B
$GPTHS,,V*0E
$GPROT,,V*08
$PSSN,HRP,161507.00,010125,,,,,,,00,0,,*65
$PTNL,AVR,161507.00,,Yaw,,Tilt,,,,0,,00*33
$GPGSA,A,3,05,11,12,16,18,20,25,26,28,29,31,,0.8,0.4,0.6*32
$GPGSA,A,3,71,72,78,79,80,81,82,88,,,,,0.8,0.4,0.6*31
$GPGSA,A,3,13,15,21,27,30,34,,,,,,,0.8,0.4,0.6*3C
$GPGSA,A,3,05,08,10,11,12,13,23,24,25,34,38,43,0.8,0.4,0.6*3E
$GPGSA,A,3,44,60,,,,,,,,,,,0.8,0.4,0.6*3E
$GPGST,161507.00,2.393,0.521,0.414,8.782,0.519,0.417,1.012*57
$GPGBS,161507.00,3.507,2.119,8.287,16,0.0001,-4.771,5.200*7D
$GPGRS,161507.00,1,-0.2,-0.3,-1.0,-4.8,-0.2,0.4,0.2,-0.8,-0.2,0.5,0.5,*4B
$GPGRS,161507.00,1,-0.5,6.4,-1.7,0.3,-2.2,1.1,0.4,-0.8,,,,*44
$GPGRS,161507.00,1,0.9,0.3,-0.7,-0.0,0.4,0.2,,,,,,*41
$GPGRS,161507.00,1,1.2,2.2,-9.4,1.5,2.1,0.6,-0.3,0.5,-0.5,0.1,-0.0,0.8*4F
$GPGRS,161507.00,1,-1.2,-1.0,,,,,,,,,,*48
$GPGSV,6,1,21,29,77,040,50,12,10,119,39,11,10,039,39,26,35,301,45*76
$GPGSV,6,2,21,20,20,054,40,05,22,091,43,18,40,185,47,25,48,125,47*7D
$GPGSV,6,3,21,31,45,282,48,28,47,241,47,04,04,331,37,16,05,299,36*75
$GPGSV,6,4,21,36,35,170,45,58,13,245,37,40,23,133,37,34,31,208,43*7C
$GPGSV,6,5,21,49,34,195,44,57,05,113,37,41,07,108,35,61,03,257,39*7D
$GPGSV,6,6,21*7A
$GLGSV,2,1,08,79,87,189,51,80,34,321,50,82,31,218,48,78,32,144,49*6C
$GLGSV,2,2,08,88,38,039,50,81,83,220,52,71,07,341,43,72,06,027,39*60
$GAGSV,3,1,09,27,86,329,48,34,40,052,45,19,10,289,33,13,22,193,41*6F
$GAGSV,3,2,09,21,31,300,43,30,38,117,45,15,62,140,48,04,04,342,37*63
$GAGSV,3,3,09,29,02,247,36*5C
$GBGSV,6,1,21,11,76,211,48,05,21,129,38,56,10,069,,24,12,150,41*6E
$GBGSV,6,2,21,44,20,056,43,38,29,057,44,13,33,083,43,28,39,214,*61
$GBGSV,6,3,21,23,52,295,49,08,33,073,42,25,60,183,51,31,42,070,*6E
$GBGSV,6,4,21,12,44,055,45,43,53,228,49,34,75,068,50,37,06,317,*65
$GBGSV,6,5,21,19,02,010,34,10,06,085,35,02,06,107,34,22,00,012,*6D
$GBGSV,6,6,21,60,10,109,40*53
$GPGGA,161507.00,,,,,0,00,,,M,,M,,*4C
$PTNL,GGK,161507.00,010125,4742.1605577,N,01618.1004666,E,1,39,0.8,EHT751.1913,M*4A
$GPGGQ,161507.00,010125,4742.1605577,N,01618.1004666,E,1,39,1.211,707.9848,M*3B
$GPGFA,161507.00,4.953,8.296,0.521,0.414,8.782,1.012,,VVV*09
$GPLLK,161507.00,010125,,M,,M,1,39,0.9,,M*0C
$GNGMP,161507.00,,,,,DAAA,39,0.4,,,,*5C
$GPGMP,161507.00,,,,,,11,,,,3.2,136*7C
$GLGMP,161507.00,,,,,,08,,,,,*73
$GAGMP,161507.00,,,,,,06,,,,,*70
$GBGMP,161507.00,,,,,,14,,,,,*70
$PSSN,SNC,[0,317725000,2347]*41
$GPZDA,161512.00,01,01,2025,,*63
$GPDTM,W84,,00.0000000,N,00.0000000,E,00.0000000,W84*5F
$PSSN,TFM,161512.00,,,,*6F
$GPRMC,161512.00,A,4742.1605575,N,01618.1004654,E,0.0,,010125,5.1,E,D*11
$GPGLL,4742.1605575,N,01618.1004654,E,161512.00,A,D*60
$GPGGA,161512.00,4742.1605575,N,01618.1004654,E,2,38,0.4,707.9773,M,43.2066,M,2.4,0136*4F
$GNGNS,161512.00,4742.1605575,N,01618.1004654,E,DAAA,38,0.4,707.9773,43.2066,,*51
$GPGNS,161512.00,,,,,,11,,,,2.4,136*7F
$GLGNS,161512.00,,,,,,08,,,,,*77
$GAGNS,161512.00,,,,,,06,,,,,*74
$GBGNS,161512.00,,,,,,13,,,,,*73
$GPLLQ,161512.00,010125,,M,,M,1,38,1.218,,M*10
$GPVTG,,T,,M,0.01,N,0.01,K,D*26
$GPHDT,,T*1B
$GPTHS,,V*0E
$GPROT,,V*08
$PSSN,HRP,161512.00,010125,,,,,,,00,0,,*61
$PTNL,AVR,161512.00,,Yaw,,Tilt,,,,0,,00*37
$GPGSA,A,3,05,11,12,16,18,20,25,26,28,29,31,,0.8,0.4,0.6*32
$GPGSA,A,3,71,72,78,79,80,81,82,88,,,,,0.8,0.4,0.6*31
$GPGSA,A,3,13,15,21,27,30,34,,,,,,,0.8,0.4,0.6*3C
$GPGSA,A,3,05,08,11,12,13,23,24,25,34,38,43,44,0.8,0.4,0.6*3F
$GPGSA,A,3,60,,,,,,,,,,,,0.8,0.4,0.6*3E
$GPGST,161512.00,1.674,0.521,0.415,9.421,0.518,0.418,1.020*59
$GPGBS,161512.00,3.501,2.074,8.277,72,0.0001,6.042,7.101*50
$GPGRS,161512.00,1,0.3,-0.5,-0.7,-3.9,-0.4,-0.7,0.2,-0.6,0.2,0.4,0.7,*6D
$GPGRS,161512.00,1,-1.3,6.0,-1.5,0.3,-2.6,0.9,0.3,-1.4,,,,*46
$GPGRS,161512.00,1,0.9,0.5,-0.5,-0.2,0.4,0.0,,,,,,*41
$GPGRS,161512.00,1,1.4,2.4,1.7,1.6,0.4,-0.3,0.5,-0.4,0.0,-0.0,1.0,-0.5*4E
$GPGRS,161512.00,1,-1.3,,,,,,,,,,,*4F
$GPGSV,6,1,21,29,77,040,50,12,10,119,40,11,10,039,39,26,35,301,44*79
$GPGSV,6,2,21,20,20,054,41,05,22,090,43,18,40,185,47,25,48,125,47*7D
$GPGSV,6,3,21,31,45,282,48,28,47,241,47,04,04,331,37,16,05,299,36*75
$GPGSV,6,4,21,36,35,170,45,58,13,245,37,40,23,133,37,34,31,208,43*7C
$GPGSV,6,5,21,49,34,195,44,57,05,113,37,41,07,108,34,61,03,257,38*7D
$GPGSV,6,6,21*7A
$GLGSV,2,1,08,79,87,189,52,80,34,321,50,82,31,218,48,78,32,144,49*6F
$GLGSV,2,2,08,88,38,039,49,81,83,220,52,71,07,341,43,72,06,027,39*68
$GAGSV,3,1,09,27,86,329,48,34,40,052,45,19,10,289,33,13,22,193,41*6F
$GAGSV,3,2,09,21,31,300,43,30,38,117,45,15,62,140,48,04,04,342,37*63
$GAGSV,3,3,09,29,02,247,36*5C
$GBGSV,6,1,21,11,77,211,48,05,21,129,38,56,10,069,,24,12,150,41*6F
$GBGSV,6,2,21,44,20,056,43,38,29,057,44,13,33,083,43,28,39,214,*61
$GBGSV,6,3,21,23,52,295,49,08,33,073,41,25,59,183,51,31,42,070,*67
$GBGSV,6,4,21,12,44,055,45,43,53,228,49,34,75,068,50,37,06,317,*65
$GBGSV,6,5,21,19,02,010,33,10,06,085,35,02,06,107,34,22,00,012,*6A
$GBGSV,6,6,21,60,10,109,39*5D
$GPGGA,161512.00,,,,,0,00,,,M,,M,,*48
$PTNL,GGK,161512.00,010125,4742.1605575,N,01618.1004654,E,1,38,0.8,EHT751.1839,M*45
$GPGGQ,161512.00,010125,4742.1605575,N,01618.1004654,E,1,38,1.218,707.9773,M*33
$GPGFA,161512.00,4.954,8.362,0.521,0.415,9.421,1.020,,VVV*0B
$GPLLK,161512.00,010125,,M,,M,1,38,0.9,,M*09
$GNGMP,161512.00,,,,,DAAA,38,0.4,,,,*59
$GPGMP,161512.00,,,,,,11,,,,2.4,136*7F
$GLGMP,161512.00,,,,,,08,,,,,*77
$GAGMP,161512.00,,,,,,06,,,,,*74
$GBGMP,161512.00,,,,,,13,,,,,*73
$PSSN,SNC,[0,317730000,2347]*45
$GPZDA,161517.00,01,01,2025,,*66
$GPDTM,W84,,00.0000000,N,00.0000000,E,00.0000000,W84*5F
$PSSN,TFM,161517.00,,,,*6A
$GPRMC,161517.00,A,4742.1605572,N,01618.1004669,E,0.0,,010125,5.1,E,D*1D
$GPGLL,4742.1605572,N,01618.1004669,E,161517.00,A,D*6C
$GPGGA,161517.00,4742.1605572,N,01618.1004669,E,2,38,0.4,707.9637,M,43.2066,M,2.3,0136*45
$GNGNS,161517.00,4742.1605572,N,01618.1004669,E,DAAA,38,0.4,707.9637,43.2066,,*5C
$GPGNS,161517.00,,,,,,11,,,,2.3,136*7D
$GLGNS,161517.00,,,,,,08,,,,,*72
$GAGNS,161517.00,,,,,,06,,,,,*71
$GBGNS,161517.00,,,,,,13,,,,,*76
$GPLLQ,161517.00,010125,,M,,M,1,38,1.225,,M*1B
$GPVTG,,T,,M,0.01,N,0.01,K,D*26
$GPHDT,,T*1B
$GPTHS,,V*0E
$GPROT,,V*08
$PSSN,HRP,161517.00,010125,,,,,,,00,0,,*64
$PTNL,AVR,161517.00,,Yaw,,Tilt,,,,0,,00*32
$GPGSA,A,3,05,11,12,16,18,20,25,26,28,29,31,,0.8,0.4,0.6*32
$GPGSA,A,3,71,72,78,79,80,81,82,88,,,,,0.8,0.4,0.6*31
$GPGSA,A,3,13,15,21,27,30,34,,,,,,,0.8,0.4,0.6*3C
$GPGSA,A,3,05,08,11,12,13,23,24,25,34,38,43,44,0.8,0.4,0.6*3F
$GPGSA,A,3,60,,,,,,,,,,,,0.8,0.4,0.6*3E
$GPGST,161517.00,1.578,0.519,0.414,10.100,0.516,0.418,1.030*68
$GPGBS,161517.00,3.522,2.082,8.377,16,0.0001,-4.187,5.152*7D
$GPGRS,161517.00,1,0.2,-0.4,-0.8,-4.2,-0.4,-0.4,0.4,-0.3,0.2,0.3,0.2,*69
$GPGRS,161517.00,1,-1.7,5.7,-1.1,0.7,-2.5,1.1,0.4,-1.2,,,,*48
$GPGRS,161517.00,1,0.9,0.4,-0.7,-0.3,-0.2,0.1,,,,,,*6C
$GPGRS,161517.00,1,1.0,1.7,1.1,1.1,0.2,-0.4,0.3,-0.2,-0.1,-0.3,0.8,-0.4*68
$GPGRS,161517.00,1,-1.6,,,,,,,,,,,*4F
$GPGSV,6,1,21,29,77,040,50,12,10,119,40,11,10,039,39,26,35,301,45*78
$GPGSV,6,2,21,20,20,054,41,05,22,090,43,18,40,185,47,25,48,125,47*7D
$GPGSV,6,3,21,31,45,282,47,28,47,240,47,04,04,331,38,16,05,299,36*74
$GPGSV,6,4,21,36,35,170,45,58,13,245,37,40,23,133,37,34,31,208,43*7C
$GPGSV,6,5,21,49,34,195,45,57,05,113,37,41,07,108,34,61,03,257,38*7C
$GPGSV,6,6,21*7A
$GLGSV,2,1,08,79,87,188,52,80,34,321,50,82,31,218,48,78,32,144,50*66
$GLGSV,2,2,08,88,38,039,49,81,83,220,52,71,07,341,42,72,06,027,39*69
$GAGSV,3,1,09,27,86,329,49,34,40,052,45,19,10,289,33,13,22,193,42*6D
$GAGSV,3,2,09,21,31,300,43,30,38,117,45,15,62,140,49,04,04,342,37*62
$GAGSV,3,3,09,29,02,247,36*5C
$GBGSV,6,1,21,11,77,211,48,05,21,129,38,56,10,069,,24,12,150,41*6F
$GBGSV,6,2,21,44,20,056,43,38,29,057,44,13,33,083,43,28,39,214,*61
$GBGSV,6,3,21,23,52,295,49,08,33,073,41,25,59,183,51,31,42,070,*67
$GBGSV,6,4,21,12,44,055,45,43,53,228,49,34,75,068,50,37,06,317,*65
$GBGSV,6,5,21,19,02,010,33,10,06,085,35,02,06,107,34,22,00,012,*6A
$GBGSV,6,6,21,60,10,109,39*5D
$GPGGA,161517.00,,,,,0,00,,,M,,M,,*4D
$PTNL,GGK,161517.00,010125,4742.1605572,N,01618.1004669,E,1,38,0.8,EHT751.1703,M*4F
$GPGGQ,161517.00,010125,4742.1605572,N,01618.1004669,E,1,38,1.225,707.9637,M*30
$GPGFA,161517.00,4.933,8.443,0.519,0.414,10.100,1.030,,VVV*3E
$GPLLK,161517.00,010125,,M,,M,1,38,0.9,,M*0C
$GNGMP,161517.00,,,,,DAAA,38,0.4,,,,*5C
$GPGMP,161517.00,,,,,,11,,,,2.3,136*7D
$GLGMP,161517.00,,,,,,08,,,,,*72
$GAGMP,161517.00,,,,,,06,,,,,*71
$GBGMP,161517.00,,,,,,13,,,,,*76
$PSSN,SNC,[0,317735000,2347]*40
$GPZDA,161522.00,01,01,2025,,*60
$GPDTM,W84,,00.0000000,N,00.0000000,E,00.0000000,W84*5F
$PSSN,TFM,161522.00,,,,*6C
$GPRMC,161522.00,A,4742.1605570,N,01618.1004638,E,0.0,,010125,5.1,E,D*1D
$GPGLL,4742.1605570,N,01618.1004638,E,161522.00,A,D*6C
$GPGGA,161522.00,4742.1605570,N,01618.1004638,E,2,39,0.4,707.9517,M,43.2066,M,2.2,0136*44
$GNGNS,161522.00,4742.1605570,N,01618.1004638,E,DAAA,39,0.4,707.9517,43.2066,,*5C
$GPGNS,161522.00,,,,,,11,,,,2.2,136*7A
$GLGNS,161522.00,,,,,,08,,,,,*74
$GAGNS,161522.00,,,,,,06,,,,,*77
$GBGNS,161522.00,,,,,,14,,,,,*77
$GPLLQ,161522.00,010125,,M,,M,1,39,1.180,,M*10
$GPVTG,,T,,M,0.01,N,0.01,K,D*26
$GPHDT,,T*1B
$GPTHS,,V*0E
$GPROT,,V*08
$PSSN,HRP,161522.00,010125,,,,,,,00,0,,*62
$PTNL,AVR,161522.00,,Yaw,,Tilt,,,,0,,00*34
$GPGSA,A,3,05,11,12,16,18,20,25,26,28,29,31,,0.8,0.4,0.6*32
$GPGSA,A,3,71,72,78,79,80,81,82,88,,,,,0.8,0.4,0.6*31
$GPGSA,A,3,13,15,21,27,30,34,,,,,,,0.8,0.4,0.6*3C
$GPGSA,A,3,05,08,10,11,12,13,23,24,25,34,38,43,0.8,0.4,0.6*3E
$GPGSA,A,3,44,60,,,,,,,,,,,0.8,0.4,0.6*3E
$GPGST,161522.00,2.301,0.520,0.399,10.827,0.516,0.404,0.981*6E
$GPGBS,161522.00,3.500,1.931,7.818,16,0.0001,-3.592,2.829*71
$GPGRS,161522.00,1,0.4,0.2,-1.4,-3.6,-0.3,-0.4,0.4,-0.2,-0.1,0.4,0.1,*60
$GPGRS,161522.00,1,-1.3,7.1,-1.3,0.6,-2.5,0.9,0.5,-0.9,,,,*4F
$GPGRS,161522.00,1,1.0,0.3,-0.5,-0.2,0.1,0.3,,,,,,*4A
$GPGRS,161522.00,1,0.9,1.2,-9.0,1.3,1.2,0.5,-0.2,0.3,-0.2,0.0,-0.2,0.8*43
$GPGRS,161522.00,1,-0.5,-1.3,,,,,,,,,,*4A
$GPGSV,6,1,21,29,77,040,50,12,10,119,39,11,10,039,39,26,35,301,44*77
$GPGSV,6,2,21,20,20,054,40,05,22,090,43,18,41,185,47,25,48,125,47*7D
$GPGSV,6,3,21,31,45,282,47,28,47,240,47,04,04,331,39,16,05,299,37*74
$GPGSV,6,4,21,36,35,170,45,58,13,245,37,40,23,133,37,34,31,208,43*7C
$GPGSV,6,5,21,49,34,195,45,57,05,113,37,41,07,108,35,61,03,257,38*7D
$GPGSV,6,6,21*7A
$GLGSV,2,1,08,79,87,188,52,80,34,321,50,82,31,218,47,78,32,144,49*61
$GLGSV,2,2,08,88,38,039,49,81,83,220,52,71,07,341,42,72,06,027,38*68
$GAGSV,3,1,09,27,86,329,49,34,40,052,45,19,10,289,33,13,22,193,42*6D
$GAGSV,3,2,09,21,31,300,43,30,38,117,45,15,63,140,48,04,04,341,37*61
$GAGSV,3,3,09,29,02,247,36*5C
$GBGSV,6,1,21,11,77,211,48,05,21,129,38,56,10,069,,24,12,150,41*6F
$GBGSV,6,2,21,44,20,056,42,38,29,057,44,13,33,083,43,28,39,214,*60
$GBGSV,6,3,21,23,52,295,49,08,33,073,41,25,59,183,51,31,42,070,*67
$GBGSV,6,4,21,12,44,055,45,43,53,228,49,34,75,068,51,37,06,317,*64
$GBGSV,6,5,21,19,02,010,33,10,06,085,35,02,06,107,34,22,00,012,*6A
$GBGSV,6,6,21,60,10,109,39*5D
$GPGGA,161522.00,,,,,0,00,,,M,,M,,*4B
$PTNL,GGK,161522.00,010125,4742.1605570,N,01618.1004638,E,1,39,0.8,EHT751.1582,M*45
$GPGGQ,161522.00,010125,4742.1605570,N,01618.1004638,E,1,39,1.180,707.9517,M*3C
$GPGFA,161522.00,4.944,8.044,0.520,0.399,10.827,0.981,,VVV*3D
$GPLLK,161522.00,010125,,M,,M,1,39,0.9,,M*0B
$GNGMP,161522.00,,,,,DAAA,39,0.4,,,,*5B
$GPGMP,161522.00,,,,,,11,,,,2.2,136*7A
$GLGMP,161522.00,,,,,,08,,,,,*74
$GAGMP,161522.00,,,,,,06,,,,,*77
$GBGMP,161522.00,,,,,,14,,,,,*77
$PSSN,SNC,[0,317740000,2347]*42
$GPZDA,161527.00,01,01,2025,,*65
$GPDTM,W84,,00.0000000,N,00.0000000,E,00.0000000,W84*5F
$PSSN,TFM,161527.00,,,,*69
$GPRMC,161527.00,A,4742.1605562,N,01618.1004640,E,0.0,,010125,5.1,E,D*14
$GPGLL,4742.1605562,N,01618.1004640,E,161527.00,A,D*65
$GPGGA,161527.00,4742.1605562,N,01618.1004640,E,2,39,0.4,707.9455,M,43.2066,M,3.2,0136*4B
$GNGNS,161527.00,4742.1605562,N,01618.1004640,E,DAAA,39,0.4,707.9455,43.2066,,*52
$GPGNS,161527.00,,,,,,11,,,,3.2,136*7E
$GLGNS,161527.00,,,,,,08,,,,,*71
$GAGNS,161527.00,,,,,,06,,,,,*72
$GBGNS,161527.00,,,,,,14,,,,,*72
$GPLLQ,161527.00,010125,,M,,M,1,39,1.174,,M*1E
$GPVTG,,T,,M,0.01,N,0.01,K,D*26
$GPHDT,,T*1B
$GPTHS,,V*0E
$GPROT,,V*08
$PSSN,HRP,161527.00,010125,,,,,,,00,0,,*67
$PTNL,AVR,161527.00,,Yaw,,Tilt,,,,0,,00*31
$GPGSA,A,3,05,11,12,16,18,20,25,26,28,29,31,,0.8,0.4,0.6*32
$GPGSA,A,3,71,72,78,79,80,81,82,88,,,,,0.8,0.4,0.6*31
$GPGSA,A,3,13,15,21,27,30,34,,,,,,,0.8,0.4,0.6*3C
$GPGSA,A,3,05,08,10,11,12,13,23,24,25,34,38,43,0.8,0.4,0.6*3E
$GPGSA,A,3,44,60,,,,,,,,,,,0.8,0.4,0.6*3E
$GPGST,161527.00,2.216,0.521,0.399,9.949,0.518,0.403,0.974*5F
$GPGBS,161527.00,3.521,1.944,7.885,16,0.0001,-2.823,2.829*77
$GPGRS,161527.00,1,0.1,-0.6,-1.2,-2.8,-0.2,-0.6,0.4,-0.3,0.1,0.5,0.4,*6B
$GPGRS,161527.00,1,0.1,5.9,-2.7,0.4,-2.2,1.0,-0.1,-0.6,,,,*42
$GPGRS,161527.00,1,0.8,0.5,-0.6,0.0,0.1,0.3,,,,,,*6C
$GPGRS,161527.00,1,1.3,0.8,-9.3,1.7,1.3,0.6,-0.3,0.3,-0.5,-0.0,-0.0,0.7*65
$GPGRS,161527.00,1,-0.7,-1.4,,,,,,,,,,*4A
$GPGSV,6,1,21,29,77,040,50,12,10,119,40,11,10,039,39,26,35,301,44*79
$GPGSV,6,2,21,20,20,054,41,05,22,090,43,18,41,185,47,25,48,125,47*7C
$GPGSV,6,3,21,31,45,281,47,28,47,240,48,04,04,331,39,16,05,299,37*78
$GPGSV,6,4,21,36,35,170,45,58,13,245,36,40,23,133,37,34,31,208,43*7D
$GPGSV,6,5,21,49,34,195,45,57,05,113,37,41,07,108,34,61,03,257,38*7C
$GPGSV,6,6,21*7A
$GLGSV,2,1,08,79,87,188,52,80,34,321,50,82,32,218,48,78,32,144,47*63
$GLGSV,2,2,08,88,38,039,50,81,83,220,52,71,07,341,43,72,06,027,37*6E
$GAGSV,3,1,09,27,86,329,48,34,40,052,45,19,10,289,33,13,22,193,42*6C
$GAGSV,3,2,09,21,31,300,42,30,38,117,44,15,63,140,48,04,04,341,36*60
$GAGSV,3,3,09,29,02,247,36*5C
$GBGSV,6,1,21,11,77,211,48,05,21,129,38,56,10,069,,24,12,150,41*6F
$GBGSV,6,2,21,44,20,056,41,38,29,057,44,13,33,083,43,28,39,214,*63
$GBGSV,6,3,21,23,52,295,49,08,33,073,41,25,59,183,51,31,42,070,*67
$GBGSV,6,4,21,12,44,055,45,43,53,228,49,34,75,068,51,37,06,317,*64
$GBGSV,6,5,21,19,02,010,32,10,06,085,35,02,06,107,34,22,00,012,*6B
$GBGSV,6,6,21,60,10,109,39*5D
$GPGGA,161527.00,,,,,0,00,,,M,,M,,*4E
$PTNL,GGK,161527.00,010125,4742.1605562,N,01618.1004640,E,1,39,0.8,EHT751.1520,M*44
$GPGGQ,161527.00,010125,4742.1605562,N,01618.1004640,E,1,39,1.174,707.9455,M*39
$GPGFA,161527.00,4.951,7.984,0.521,0.399,9.949,0.974,,VVV*0C
$GPLLK,161527.00,010125,,M,,M,1,39,0.9,,M*0E
$GNGMP,161527.00,,,,,DAAA,39,0.4,,,,*5E
$GPGMP,161527.00,,,,,,11,,,,3.2,136*7E
$GLGMP,161527.00,,,,,,08,,,,,*71
$GAGMP,161527.00,,,,,,06,,,,,*72
$GBGMP,161527.00,,,,,,14,,,,,*72
$PSSN,SNC,[0,317745000,2347]*47
$GPZDA,161532.00,01,01,2025,,*61
$GPDTM,W84,,00.0000000,N,00.0000000,E,00.0000000,W84*5F
$PSSN,TFM,161532.00,,,,*6D
$GPRMC,161532.00,A,4742.1605567,N,01618.1004621,E,0.0,,010125,5.1,E,D*12
$GPGLL,4742.1605567,N,01618.1004621,E,161532.00,A,D*63
$GPGGA,161532.00,4742.1605567,N,01618.1004621,E,2,39,0.4,707.9264,M,43.2066,M,2.4,0136*4E
$GNGNS,161532.00,4742.1605567,N,01618.1004621,E,DAAA,39,0.4,707.9264,43.2066,,*50
$GPGNS,161532.00,,,,,,11,,,,2.4,136*7D
$GLGNS,161532.00,,,,,,08,,,,,*75
$GAGNS,161532.00,,,,,,06,,,,,*76
$GBGNS,161532.00,,,,,,14,,,,,*76
$GPLLQ,161532.00,010125,,M,,M,1,39,1.179,,M*17
$GPVTG,,T,,M,0.01,N,0.01,K,D*26
$GPHDT,,T*1B
$GPTHS,,V*0E
$GPROT,,V*08
$PSSN,HRP,161532.00,010125,,,,,,,00,0,,*63
$PTNL,AVR,161532.00,,Yaw,,Tilt,,,,0,,00*35
$GPGSA,A,3,05,11,12,16,18,20,25,26,28,29,31,,0.8,0.4,0.6*32
$GPGSA,A,3,71,72,78,79,80,81,82,88,,,,,0.8,0.4,0.6*31
$GPGSA,A,3,13,15,21,27,30,34,,,,,,,0.8,0.4,0.6*3C
$GPGSA,A,3,05,08,10,11,12,13,23,24,25,34,38,43,0.8,0.4,0.6*3E
$GPGSA,A,3,44,60,,,,,,,,,,,0.8,0.4,0.6*3E
$GPGST,161532.00,2.302,0.520,0.397,11.274,0.516,0.402,0.980*68
$GPGBS,161532.00,3.513,1.862,7.885,16,0.0001,-3.437,2.813*76
$GPGRS,161532.00,1,0.5,-0.6,-0.8,-3.4,-0.1,-0.5,0.2,-0.1,-0.1,0.4,0.3,*42
$GPGRS,161532.00,1,0.3,6.1,-2.1,0.4,-1.7,1.0,0.5,-1.1,,,,*60
$GPGRS,161532.00,1,0.5,0.1,-0.8,-0.1,0.3,0.1,,,,,,*43
$GPGRS,161532.00,1,1.6,0.7,-9.9,1.4,0.9,0.5,-0.5,-0.1,-0.6,-0.1,-0.1,0.6*41
$GPGRS,161532.00,1,-0.7,-1.4,,,,,,,,,,*4E
$GPGSV,6,1,21,29,77,040,49,26,35,301,44,11,10,039,39,05,22,090,43*75
$GPGSV,6,2,21,18,41,185,46,20,20,054,41,25,48,125,47,31,45,281,47*7D
$GPGSV,6,3,21,28,47,240,47,12,10,119,39,04,04,331,37,16,05,299,36*72
$GPGSV,6,4,21,36,35,170,45,58,13,245,37,40,23,133,37,34,31,208,43*7C
$GPGSV,6,5,21,49,34,195,45,57,05,113,37,41,07,108,35,61,03,257,38*7D
$GPGSV,6,6,21*7A
$GLGSV,2,1,08,79,87,187,52,80,34,321,50,82,32,218,49,78,32,144,49*63
$GLGSV,2,2,08,88,38,039,49,81,83,220,52,71,07,341,43,72,06,027,38*69
$GAGSV,3,1,09,27,86,329,48,34,40,052,45,19,10,289,33,13,22,193,42*6C
$GAGSV,3,2,09,21,31,300,43,30,38,117,44,15,63,140,48,04,04,341,36*61
$GAGSV,3,3,09,29,02,247,36*5C
$GBGSV,6,1,21,11,77,211,48,05,21,129,38,56,10,069,,24,12,150,41*6F
$GBGSV,6,2,21,44,20,056,41,38,29,057,44,13,33,083,43,28,39,214,*63
$GBGSV,6,3,21,23,52,295,49,08,33,073,41,25,59,183,51,31,42,070,*67
$GBGSV,6,4,21,12,44,055,45,43,53,228,49,34,75,068,51,37,06,318,*6B
$GBGSV,6,5,21,19,02,010,33,10,06,085,35,02,06,107,34,22,00,012,*6A
$GBGSV,6,6,21,60,10,109,39*5D
$GPGGA,161532.00,,,,,0,00,,,M,,M,,*4A
$PTNL,GGK,161532.00,010125,4742.1605567,N,01618.1004621,E,1,39,0.8,EHT751.1330,M*45
$GPGGQ,161532.00,010125,4742.1605567,N,01618.1004621,E,1,39,1.179,707.9264,M*36
$GPGFA,161532.00,4.944,8.039,0.520,0.397,11.274,0.980,,VVV*34
$GPLLK,161532.00,010125,,M,,M,1,39,0.9,,M*0A
$GNGMP,161532.00,,,,,DAAA,39,0.4,,,,*5A
$GPGMP,161532.00,,,,,,11,,,,2.4,136*7D
$GLGMP,161532.00,,,,,,08,,,,,*75
$GAGMP,161532.00,,,,,,06,,,,,*76
$GBGMP,161532.00,,,,,,14,,,,,*76
$PSSN,SNC,[0,317750000,2347]*43
$GPZDA,161537.00,01,01,2025,,*64
$GPDTM,W84,,00.0000000,N,00.0000000,E,00.0000000,W84*5F
$PSSN,TFM,161537.00,,,,*68
$GPRMC,161537.00,A,4742.1605566,N,01618.1004621,E,0.0,,010125,5.1,E,D*16
$GPGLL,4742.1605566,N,01618.1004621,E,161537.00,A,D*67
$GPGGA,161537.00,4742.1605566,N,01618.1004621,E,2,39,0.4,707.9141,M,43.2066,M,2.3,0136*49
$GNGNS,161537.00,4742.1605566,N,01618.1004621,E,DAAA,39,0.4,707.9141,43.2066,,*50
$GPGNS,161537.00,,,,,,11,,,,2.3,136*7F
$GLGNS,161537.00,,,,,,08,,,,,*70
$GAGNS,161537.00,,,,,,06,,,,,*73
$GBGNS,161537.00,,,,,,14,,,,,*73
$GPLLQ,161537.00,010125,,M,,M,1,39,1.181,,M*15
$GPVTG,,T,,M,0.00,N,0.01,K,D*27
$GPHDT,,T*1B
$GPTHS,,V*0E
$GPROT,,V*08
$PSSN,HRP,161537.00,010125,,,,,,,00,0,,*66
$PTNL,AVR,161537.00,,Yaw,,Tilt,,,,0,,00*30
$GPGSA,A,3,05,11,12,16,18,20,25,26,28,29,31,,0.8,0.4,0.6*32
$GPGSA,A,3,71,72,78,79,80,81,82,88,,,,,0.8,0.4,0.6*31
$GPGSA,A,3,13,15,21,27,30,34,,,,,,,0.8,0.4,0.6*3C
$GPGSA,A,3,05,08,10,11,12,13,23,24,25,34,38,43,0.8,0.4,0.6*3E
$GPGSA,A,3,44,60,,,,,,,,,,,0.8,0.4,0.6*3E
$GPGST,161537.00,2.259,0.517,0.395,12.113,0.513,0.402,0.985*65
$GPGBS,161537.00,3.511,1.862,7.910,16,0.0001,-4.062,2.813*7F
$GPGRS,161537.00,1,0.0,-0.0,-0.8,-4.1,-0.0,-0.5,0.1,-0.6,0.3,0.4,0.4,*6B
$GPGRS,161537.00,1,0.5,6.2,-0.4,0.3,-2.2,1.1,1.0,-1.2,,,,*60
$GPGRS,161537.00,1,0.6,0.3,-0.4,-0.2,0.6,0.1,,,,,,*4D
$GPGRS,161537.00,1,1.0,0.9,-9.4,1.5,0.9,0.2,-0.2,0.2,-0.3,-0.0,-0.1,0.7*6B
$GPGRS,161537.00,1,-0.9,-1.2,,,,,,,,,,*43
$GPGSV,6,1,21,29,77,040,49,26,35,301,44,11,10,039,39,05,22,090,42*74
$GPGSV,6,2,21,18,41,185,46,20,20,054,40,25,48,125,47,31,45,281,47*7C
$GPGSV,6,3,21,28,47,240,47,12,10,119,40,04,04,331,38,16,05,299,36*73
$GPGSV,6,4,21,36,35,170,45,58,13,245,37,40,23,133,37,34,31,208,43*7C
$GPGSV,6,5,21,49,34,195,44,57,05,113,37,41,07,108,35,61,03,257,38*7C
$GPGSV,6,6,21*7A
$GLGSV,2,1,08,79,87,187,52,80,34,321,49,82,32,218,49,78,32,144,50*63
$GLGSV,2,2,08,88,38,039,50,81,83,220,52,71,07,341,42,72,06,027,38*60
$GAGSV,3,1,09,27,86,329,48,34,40,052,45,19,10,288,33,13,22,193,41*6E
$GAGSV,3,2,09,21,31,300,43,30,38,117,45,15,63,140,48,04,04,341,36*60
$GAGSV,3,3,09,29,02,247,36*5C
$GBGSV,6,1,21,11,77,211,48,05,21,129,38,56,10,069,,24,12,150,41*6F
$GBGSV,6,2,21,44,20,056,42,38,29,057,44,13,33,083,43,28,39,214,*60
$GBGSV,6,3,21,23,52,295,49,08,33,073,41,25,59,183,51,31,42,070,*67
$GBGSV,6,4,21,12,44,055,45,43,53,228,50,34,74,068,51,37,06,318,*62
$GBGSV,6,5,21,19,02,010,34,10,06,085,36,02,06,107,35,22,00,012,*6F
$GBGSV,6,6,21,60,10,109,40*53
$GPGGA,161537.00,,,,,0,00,,,M,,M,,*4F
$PTNL,GGK,161537.00,010125,4742.1605566,N,01618.1004621,E,1,39,0.8,EHT751.1207,M*44
$GPGGQ,161537.00,010125,4742.1605566,N,01618.1004621,E,1,39,1.181,707.9141,M*31
$GPGFA,161537.00,4.919,8.079,0.517,0.395,12.113,0.985,,VVV*3F
$GPLLK,161537.00,010125,,M,,M,1,39,0.9,,M*0F
$GNGMP,161537.00,,,,,DAAA,39,0.4,,,,*5F
$GPGMP,161537.00,,,,,,11,,,,2.3,136*7F
$GLGMP,161537.00,,,,,,08,,,,,*70
$GAGMP,161537.00,,,,,,06,,,,,*73
$GBGMP,161537.00,,,,,,14,,,,,*73
$PSSN,SNC,[0,317755000,2347]*46
$GPZDA,161542.00,01,01,2025,,*66
$GPDTM,W84,,00.0000000,N,00.0000000,E,00.0000000,W84*5F
$PSSN,TFM,161542.00,,,,*6A
$GPRMC,161542.00,A,4742.1605575,N,01618.1004592,E,0.0,,010125,5.1,E,D*1D
$GPGLL,4742.1605575,N,01618.1004592,E,161542.00,A,D*6C
$GPGGA,161542.00,4742.1605575,N,01618.1004592,E,2,39,0.4,707.9021,M,43.2066,M,2.2,0136*44
$GNGNS,161542.00,4742.1605575,N,01618.1004592,E,DAAA,39,0.4,707.9021,43.2066,,*5C
$GPGNS,161542.00,,,,,,11,,,,2.2,136*7C
$GLGNS,161542.00,,,,,,08,,,,,*72
$GAGNS,161542.00,,,,,,06,,,,,*71
$GBGNS,161542.00,,,,,,14,,,,,*71
$GPLLQ,161542.00,010125,,M,,M,1,39,1.178,,M*11
$GPVTG,,T,,M,0.01,N,0.01,K,D*26
$GPHDT,,T*1B
$GPTHS,,V*0E
$GPROT,,V*08
$PSSN,HRP,161542.00,010125,,,,,,,00,0,,*64
$PTNL,AVR,161542.00,,Yaw,,Tilt,,,,0,,00*32
$GPGSA,A,3,05,11,12,16,18,20,25,26,28,29,31,,0.8,0.4,0.6*32
$GPGSA,A,3,71,72,78,79,80,81,82,88,,,,,0.8,0.4,0.6*31
$GPGSA,A,3,13,15,21,27,30,34,,,,,,,0.8,0.4,0.6*3C
$GPGSA,A,3,05,08,10,11,12,13,23,24,25,34,38,43,0.8,0.4,0.6*3E
$GPGSA,A,3,44,60,,,,,,,,,,,0.8,0.4,0.6*3E
$GPGST,161542.00,2.445,0.519,0.396,11.615,0.514,0.402,0.981*60
$GPGBS,161542.00,3.483,1.887,7.838,16,0.0001,-3.212,2.815*73
$GPGRS,161542.00,1,0.2,-0.2,-0.8,-3.2,-0.1,-0.8,0.4,-0.5,-0.1,0.5,0.6,*4B
$GPGRS,161542.00,1,-1.2,6.4,-1.3,0.2,-2.6,0.8,0.8,-0.7,,,,*49
$GPGRS,161542.00,1,0.4,0.2,-0.7,-0.3,0.4,-0.0,,,,,,*60
$GPGRS,161542.00,1,1.1,1.5,-10.7,1.2,1.0,-0.3,-0.1,0.5,-0.3,-0.1,-0.2,0.6*7A
$GPGRS,161542.00,1,-1.2,-1.4,,,,,,,,,,*4D
$GPGSV,6,1,21,29,77,040,50,26,35,301,44,11,10,039,39,05,22,090,42*7C
$GPGSV,6,2,21,18,41,185,46,20,20,054,40,25,48,125,47,31,45,281,47*7C
$GPGSV,6,3,21,28,47,240,47,12,10,119,40,04,04,331,38,16,05,299,36*73
$GPGSV,6,4,21,36,35,170,45,58,13,245,36,40,23,133,37,34,31,208,43*7D
$GPGSV,6,5,21,49,34,195,45,57,05,113,37,41,07,108,35,61,03,257,39*7C
$GPGSV,6,6,21*7A
$GLGSV,2,1,08,79,87,186,52,80,34,321,50,82,32,218,48,78,32,144,49*63
$GLGSV,2,2,08,88,38,039,50,81,83,220,52,71,07,341,42,72,07,027,38*61
$GAGSV,3,1,09,27,86,330,48,34,40,052,45,19,10,288,33,13,22,193,41*66
$GAGSV,3,2,09,21,31,300,43,30,38,117,45,15,63,140,48,04,04,341,37*61
$GAGSV,3,3,09,29,02,247,36*5C
$GBGSV,6,1,21,11,77,211,48,05,21,129,38,56,10,069,,24,12,150,41*6F
$GBGSV,6,2,21,44,20,056,43,38,29,057,44,13,33,083,43,28,39,214,*61
$GBGSV,6,3,21,23,52,295,49,08,33,073,41,25,59,183,51,31,42,070,*67
$GBGSV,6,4,21,12,44,055,45,43,53,228,49,34,74,068,50,37,06,318,*6B
$GBGSV,6,5,21,19,02,010,33,10,06,085,35,02,06,107,34,22,00,012,*6A
$GBGSV,6,6,21,60,10,109,39*5D
$GPGGA,161542.00,,,,,0,00,,,M,,M,,*4D
$PTNL,GGK,161542.00,010125,4742.1605575,N,01618.1004592,E,1,39,0.8,EHT751.1086,M*44
$GPGGQ,161542.00,010125,4742.1605575,N,01618.1004592,E,1,39,1.178,707.9021,M*3B
$GPGFA,161542.00,4.932,8.042,0.519,0.396,11.615,0.981,,VVV*37
$GPLLK,161542.00,010125,,M,,M,1,39,0.9,,M*0D
$GNGMP,161542.00,,,,,DAAA,39,0.4,,,,*5D
$GPGMP,161542.00,,,,,,11,,,,2.2,136*7C
$GLGMP,161542.00,,,,,,08,,,,,*72
$GAGMP,161542.00,,,,,,06,,,,,*71
$GBGMP,161542.00,,,,,,14,,,,,*71
$PSSN,SNC,[0,317760000,2347]*40
$GPZDA,161547.00,01,01,2025,,*63
$GPDTM,W84,,00.0000000,N,00.0000000,E,00.0000000,W84*5F
$PSSN,TFM,161547.00,,,,*6F
$GPRMC,161547.00,A,4742.1605579,N,01618.1004581,E,0.0,,010125,5.1,E,D*16
$GPGLL,4742.1605579,N,01618.1004581,E,161547.00,A,D*67
$GPGGA,161547.00,4742.1605579,N,01618.1004581,E,2,39,0.4,707.8897,M,43.2066,M,3.2,0136*4A
$GNGNS,161547.00,4742.1605579,N,01618.1004581,E,DAAA,39,0.4,707.8897,43.2066,,*53
$GPGNS,161547.00,,,,,,11,,,,3.2,136*78
$GLGNS,161547.00,,,,,,08,,,,,*77
$GAGNS,161547.00,,,,,,06,,,,,*74
$GBGNS,161547.00,,,,,,14,,,,,*74
$GPLLQ,161547.00,010125,,M,,M,1,39,1.172,,M*1E
$GPVTG,,T,,M,0.01,N,0.01,K,D*26
$GPHDT,,T*1B
$GPTHS,,V*0E
$GPROT,,V*08
$PSSN,HRP,161547.00,010125,,,,,,,00,0,,*61
$PTNL,AVR,161547.00,,Yaw,,Tilt,,,,0,,00*37
$GPGSA,A,3,05,11,12,16,18,20,25,26,28,29,31,,0.8,0.4,0.6*32
$GPGSA,A,3,71,72,78,79,80,81,82,88,,,,,0.8,0.4,0.6*31
$GPGSA,A,3,13,15,21,27,30,34,,,,,,,0.8,0.4,0.6*3C
$GPGSA,A,3,05,08,10,11,12,13,23,24,25,34,38,43,0.8,0.4,0.6*3E
$GPGSA,A,3,44,60,,,,,,,,,,,0.8,0.4,0.6*3E
$GPGST,161547.00,2.244,0.519,0.396,10.753,0.515,0.401,0.973*6F
$GPGBS,161547.00,3.502,1.900,7.903,16,0.0001,-3.517,2.816*78
$GPGRS,161547.00,1,0.3,-0.5,-1.2,-3.5,0.2,-0.2,0.4,-0.2,-0.2,0.4,0.4,*67
$GPGRS,161547.00,1,-1.2,5.6,-1.6,0.2,-2.4,0.6,0.0,-1.3,,,,*49
$GPGRS,161547.00,1,0.1,0.3,-0.9,-0.3,0.2,0.1,,,,,,*45
$GPGRS,161547.00,1,1.4,1.6,-9.5,1.4,0.7,0.2,-0.2,0.5,-0.5,-0.2,-0.1,0.6*6A
$GPGRS,161547.00,1,-1.2,-1.6,,,,,,,,,,*4A
$GPGSV,6,1,21,29,77,040,49,26,35,301,44,11,10,039,39,05,22,090,42*74
$GPGSV,6,2,21,18,41,185,46,20,20,054,41,25,48,125,47,31,45,281,47*7D
$GPGSV,6,3,21,28,47,240,47,12,10,119,40,04,04,331,38,16,06,299,36*70
$GPGSV,6,4,21,36,35,170,45,58,13,245,36,40,23,133,37,34,31,208,43*7D
$GPGSV,6,5,21,49,34,195,44,57,05,113,37,41,07,108,34,61,03,257,38*7D
$GPGSV,6,6,21*7A
$GLGSV,2,1,08,79,87,186,52,80,34,321,50,82,32,218,48,78,32,145,50*6A
$GLGSV,2,2,08,88,38,039,49,81,83,221,52,71,07,341,43,72,07,027,38*69
$GAGSV,3,1,09,27,86,330,48,34,40,052,45,21,31,300,43,13,22,193,41*68
$GAGSV,3,2,09,30,38,117,45,15,63,140,48,29,02,247,36,04,04,341,37*69
$GAGSV,3,3,09,19,10,288,33*5A
$GBGSV,6,1,21,11,77,211,48,05,21,129,38,56,10,069,,24,12,150,41*6F
$GBGSV,6,2,21,44,20,056,43,38,29,057,44,13,33,083,43,28,39,214,*61
$GBGSV,6,3,21,23,52,295,49,08,33,073,41,25,59,183,51,31,42,070,*67
$GBGSV,6,4,21,12,44,055,45,43,53,228,49,34,74,068,51,37,06,318,*6A
$GBGSV,6,5,21,19,02,010,33,10,06,085,36,02,06,107,34,22,00,012,*69
$GBGSV,6,6,21,60,10,109,39*5D
$GPGGA,161547.00,,,,,0,00,,,M,,M,,*48
$PTNL,GGK,161547.00,010125,4742.1605579,N,01618.1004581,E,1,39,0.8,EHT751.0963,M*4C
$GPGGQ,161547.00,010125,4742.1605579,N,01618.1004581,E,1,39,1.172,707.8897,M*3E
$GPGFA,161547.00,4.937,7.980,0.519,0.396,10.753,0.973,,VVV*30
$GPLLK,161547.00,010125,,M,,M,1,39,0.9,,M*08
$GNGMP,161547.00,,,,,DAAA,39,0.4,,,,*58
$GPGMP,161547.00,,,,,,11,,,,3.2,136*78
$GLGMP,161547.00,,,,,,08,,,,,*77
$GAGMP,161547.00,,,,,,06,,,,,*74
$GBGMP,161547.00,,,,,,14,,,,,*74
$PSSN,SNC,[0,317765000,2347]*45
$GPZDA,161552.00,01,01,2025,,*67
$GPDTM,W84,,00.0000000,N,00.0000000,E,00.0000000,W84*5F
$PSSN,TFM,161552.00,,,,*6B
$GPRMC,161552.00,A,4742.1605583,N,01618.1004554,E,0.0,,010125,5.1,E,D*1F
$GPGLL,4742.1605583,N,01618.1004554,E,161552.00,A,D*6E
$GPGGA,161552.00,4742.1605583,N,01618.1004554,E,2,39,0.4,707.8789,M,43.2066,M,2.4,0136*44
$GNGNS,161552.00,4742.1605583,N,01618.1004554,E,DAAA,39,0.4,707.8789,43.2066,,*5A
$GPGNS,161552.00,,,,,,11,,,,2.4,136*7B
$GLGNS,161552.00,,,,,,08,,,,,*73
$GAGNS,161552.00,,,,,,06,,,,,*70
$GBGNS,161552.00,,,,,,14,,,,,*70
$GPLLQ,161552.00,010125,,M,,M,1,39,1.179,,M*11
$GPVTG,,T,,M,0.01,N,0.01,K,D*26
$GPHDT,,T*1B
$GPTHS,,V*0E
$GPROT,,V*08
$PSSN,HRP,161552.00,010125,,,,,,,00,0,,*65
$PTNL,AVR,161552.00,,Yaw,,Tilt,,,,0,,00*33
$GPGSA,A,3,05,11,12,16,18,20,25,26,28,29,31,,0.8,0.4,0.6*32
$GPGSA,A,3,71,72,78,79,80,81,82,88,,,,,0.8,0.4,0.6*31
$GPGSA,A,3,13,15,21,27,30,34,,,,,,,0.8,0.4,0.6*3C
$GPGSA,A,3,05,08,10,11,12,13,23,24,25,34,38,43,0.8,0.4,0.6*3E
$GPGSA,A,3,44,60,,,,,,,,,,,0.8,0.4,0.6*3E
$GPGST,161552.00,2.214,0.520,0.397,11.231,0.515,0.402,0.981*6B
$GPGBS,161552.00,3.499,1.863,7.898,16,0.0001,-3.471,2.800*7E
$GPGRS,161552.00,1,0.1,-0.7,-1.0,-3.5,-0.2,0.2,-0.0,-0.4,-0.0,0.5,0.4,*4D
$GPGRS,161552.00,1,-0.3,6.0,-1.4,-0.2,-2.5,0.8,0.3,-1.6,,,,*6E
$GPGRS,161552.00,1,0.1,0.2,-0.9,-0.1,0.2,0.0,,,,,,*43
$GPGRS,161552.00,1,1.2,1.3,-9.0,1.6,1.5,0.1,-0.2,0.0,-0.6,-0.1,-0.3,0.8*63
$GPGRS,161552.00,1,-1.1,-1.6,,,,,,,,,,*4D
$GPGSV,6,1,21,29,77,040,49,26,35,301,44,11,10,039,38,05,22,090,42*75
$GPGSV,6,2,21,18,41,185,47,20,20,054,40,25,48,125,46,31,45,281,47*7C
$GPGSV,6,3,21,28,47,240,47,12,10,119,40,04,04,331,37,16,06,299,36*7F
$GPGSV,6,4,21,36,35,170,45,58,13,245,37,40,23,133,37,34,31,208,43*7C
$GPGSV,6,5,21,49,34,195,44,57,05,113,37,41,07,108,34,61,03,257,38*7D
$GPGSV,6,6,21*7A
$GLGSV,2,1,08,79,87,186,51,80,34,321,50,82,32,218,48,78,31,145,49*62
$GLGSV,2,2,08,88,38,039,49,81,83,221,52,71,07,341,42,72,07,027,38*68
$GAGSV,3,1,09,27,86,330,48,34,40,052,45,21,31,300,43,13,22,193,40*69
$GAGSV,3,2,09,30,38,117,45,15,63,140,48,29,02,247,36,04,04,341,37*69
$GAGSV,3,3,09,19,10,288,32*5B
$GBGSV,6,1,21,11,77,211,49,05,21,129,38,56,10,069,,24,12,150,41*6E
$GBGSV,6,2,21,44,20,056,43,38,29,057,44,13,33,083,43,28,39,214,*61
$GBGSV,6,3,21,23,52,295,49,08,33,073,41,25,59,183,51,31,42,070,*67
$GBGSV,6,4,21,12,44,055,46,43,53,228,49,34,74,068,51,37,06,318,*69
$GBGSV,6,5,21,19,02,010,33,10,06,085,35,02,06,107,34,22,00,012,*6A
$GBGSV,6,6,21,60,10,109,39*5D
$GPGGA,161552.00,,,,,0,00,,,M,,M,,*4C
$PTNL,GGK,161552.00,010125,4742.1605583,N,01618.1004554,E,1,39,0.8,EHT751.0855,M*41
$GPGGQ,161552.00,010125,4742.1605583,N,01618.1004554,E,1,39,1.179,707.8789,M*3C
$GPGFA,161552.00,4.940,8.046,0.520,0.397,11.231,0.981,,VVV*3E
$GPLLK,161552.00,010125,,M,,M,1,39,0.9,,M*0C
$GNGMP,161552.00,,,,,DAAA,39,0.4,,,,*5C
$GPGMP,161552.00,,,,,,11,,,,2.4,136*7B
$GLGMP,161552.00,,,,,,08,,,,,*73
$GAGMP,161552.00,,,,,,06,,,,,*70
$GBGMP,161552.00,,,,,,14,,,,,*70
$PSSN,SNC,[0,317770000,2347]*41
$GPZDA,161557.00,01,01,2025,,*62
$GPDTM,W84,,00.0000000,N,00.0000000,E,00.0000000,W84*5F
$PSSN,TFM,161557.00,,,,*6E
$GPRMC,161557.00,A,4742.1605580,N,01618.1004542,E,0.0,,010125,5.1,E,D*1E
$GPGLL,4742.1605580,N,01618.1004542,E,161557.00,A,D*6F
$GPGGA,161557.00,4742.1605580,N,01618.1004542,E,2,39,0.4,707.8670,M,43.2066,M,2.3,0136*45
$GNGNS,161557.00,4742.1605580,N,01618.1004542,E,DAAA,39,0.4,707.8670,43.2066,,*5C
$GPGNS,161557.00,,,,,,11,,,,2.3,136*79
$GLGNS,161557.00,,,,,,08,,,,,*76
$GAGNS,161557.00,,,,,,06,,,,,*75
$GBGNS,161557.00,,,,,,14,,,,,*75
$GPLLQ,161557.00,010125,,M,,M,1,39,1.182,,M*10
$GPVTG,,T,,M,0.01,N,0.01,K,D*26
$GPHDT,,T*1B
$GPTHS,,V*0E
$GPROT,,V*08
$PSSN,HRP,161557.00,010125,,,,,,,00,0,,*60
$PTNL,AVR,161557.00,,Yaw,,Tilt,,,,0,,00*36
$GPGSA,A,3,05,11,12,16,18,20,25,26,28,29,31,,0.8,0.4,0.6*32
$GPGSA,A,3,71,72,78,79,80,81,82,88,,,,,0.8,0.4,0.6*31
$GPGSA,A,3,13,15,21,27,30,34,,,,,,,0.8,0.4,0.6*3C
$GPGSA,A,3,05,08,10,11,12,13,23,24,25,34,38,43,0.8,0.4,0.6*3E
$GPGSA,A,3,44,60,,,,,,,,,,,0.8,0.4,0.6*3E
$GPGST,161557.00,2.216,0.517,0.395,12.094,0.512,0.402,0.986*64
$GPGBS,161557.00,3.496,1.863,7.920,16,0.0001,-3.180,2.799*72
$GPGRS,161557.00,1,0.3,-0.5,-0.7,-3.2,0.0,-0.5,0.3,-0.3,0.0,0.3,0.4,*4E
$GPGRS,161557.00,1,-1.2,6.0,-2.0,0.2,-1.9,0.8,0.2,-0.8,,,,*40
$GPGRS,161557.00,1,0.3,0.4,-0.7,-0.1,0.2,0.2,,,,,,*4E
$GPGRS,161557.00,1,1.0,0.9,-9.1,1.5,2.6,-0.1,-0.2,0.2,-0.7,-0.1,-0.7,0.9*46
$GPGRS,161557.00,1,-0.8,-1.1,,,,,,,,,,*47
$GPGSV,6,1,21,29,77,040,50,26,35,301,45,11,10,039,38,05,22,090,43*7D
$GPGSV,6,2,21,18,41,185,47,20,20,054,40,25,47,125,47,31,45,281,47*72
$GPGSV,6,3,21,28,47,240,47,12,10,119,40,04,04,331,38,16,06,299,36*70
$GPGSV,6,4,21,36,35,170,45,58,13,245,37,40,23,133,37,34,31,208,43*7C
$GPGSV,6,5,21,49,34,195,44,57,05,113,37,41,07,108,35,61,03,257,39*7D
$GPGSV,6,6,21*7A
$GLGSV,2,1,08,79,87,185,52,80,34,321,50,82,32,218,48,78,31,145,49*62
$GLGSV,2,2,08,88,38,039,49,81,83,221,52,71,07,341,42,72,07,026,38*69
$GAGSV,3,1,09,27,86,330,48,34,40,052,45,21,31,300,43,13,22,193,40*69
$GAGSV,3,2,09,30,38,117,45,15,63,140,48,29,02,247,36,04,04,341,36*68
$GAGSV,3,3,09,19,10,288,33*5A
$GBGSV,6,1,21,11,77,211,48,05,21,129,38,56,10,069,,24,12,150,41*6F
$GBGSV,6,2,21,44,20,056,43,38,29,057,44,13,33,083,43,28,39,214,*61
$GBGSV,6,3,21,23,52,295,49,08,33,073,41,25,59,183,51,31,42,070,*67
$GBGSV,6,4,21,12,44,055,46,43,53,228,50,34,74,068,51,37,06,318,*61
$GBGSV,6,5,21,19,02,010,34,10,06,085,35,02,06,107,35,22,00,012,*6C
$GBGSV,6,6,21,60,10,109,40*53
$GPGGA,161557.00,,,,,0,00,,,M,,M,,*49
$PTNL,GGK,161557.00,010125,4742.1605580,N,01618.1004542,E,1,39,0.8,EHT751.0735,M*49
$GPGGQ,161557.00,010125,4742.1605580,N,01618.1004542,E,1,39,1.182,707.8670,M*3E
$GPGFA,161557.00,4.915,8.086,0.517,0.395,12.094,0.986,,VVV*38
$GPLLK,161557.00,010125,,M,,M,1,39,0.9,,M*09
$GNGMP,161557.00,,,,,DAAA,39,0.4,,,,*59
$GPGMP,161557.00,,,,,,11,,,,2.3,136*79
$GLGMP,161557.00,,,,,,08,,,,,*76
$GAGMP,161557.00,,,,,,06,,,,,*75
$GBGMP,161557.00,,,,,,14,,,,,*75
$PSSN,SNC,[0,317775000,2347]*44
$GPZDA,161602.00,01,01,2025,,*61
$GPDTM,W84,,00.0000000,N,00.0000000,E,00.0000000,W84*5F
$PSSN,TFM,161602.00,,,,*6D
$GPRMC,161602.00,A,4742.1605586,N,01618.1004516,E,0.0,,010125,5.1,E,D*1A
$GPGLL,4742.1605586,N,01618.1004516,E,161602.00,A,D*6B
$GPGGA,161602.00,4742.1605586,N,01618.1004516,E,2,39,0.4,707.8554,M,43.2066,M,2.2,0136*45
$GNGNS,161602.00,4742.1605586,N,01618.1004516,E,DAAA,39,0.4,707.8554,43.2066,,*5D
$GPGNS,161602.00,,,,,,11,,,,2.2,136*7B
$GLGNS,161602.00,,,,,,08,,,,,*75
$GAGNS,161602.00,,,,,,06,,,,,*76
$GBGNS,161602.00,,,,,,14,,,,,*76
$GPLLQ,161602.00,010125,,M,,M,1,39,1.178,,M*16
$GPVTG,,T,,M,0.01,N,0.01,K,D*26
$GPHDT,,T*1B
$GPTHS,,V*0E
$GPROT,,V*08
$PSSN,HRP,161602.00,010125,,,,,,,00,0,,*63
$PTNL,AVR,161602.00,,Yaw,,Tilt,,,,0,,00*35
$GPGSA,A,3,05,11,12,16,18,20,25,26,28,29,31,,0.8,0.4,0.6*32
$GPGSA,A,3,71,72,78,79,80,81,82,88,,,,,0.8,0.4,0.6*31
$GPGSA,A,3,13,15,21,27,30,34,,,,,,,0.8,0.4,0.6*3C
$GPGSA,A,3,05,08,10,11,12,13,23,24,25,34,38,43,0.8,0.4,0.6*3E
$GPGSA,A,3,44,60,,,,,,,,,,,0.8,0.4,0.6*3E
$GPGST,161602.00,2.334,0.518,0.396,11.588,0.514,0.402,0.981*60
$GPGBS,161602.00,3.468,1.888,7.846,16,0.0001,-3.123,2.798*7C
$GPGRS,161602.00,1,0.5,-0.5,-0.3,-3.1,-0.3,-0.4,0.2,-0.2,-0.0,0.4,0.3,*4E
$GPGRS,161602.00,1,-1.0,5.8,-1.9,0.2,-2.4,0.9,-0.1,-1.2,,,,*6A
$GPGRS,161602.00,1,0.6,0.1,-0.7,-0.3,0.0,0.1,,,,,,*4E
$GPGRS,161602.00,1,0.8,1.3,-10.2,1.4,1.6,-0.2,-0.4,0.3,-0.5,-0.3,-1.1,0.6*72
$GPGRS,161602.00,1,-1.0,-0.9,,,,,,,,,,*44
$GPGSV,6,1,21,29,77,041,49,26,35,301,45,11,10,039,38,05,22,090,43*74
$GPGSV,6,2,21,18,41,185,47,20,20,054,40,25,47,125,47,31,45,281,47*72
$GPGSV,6,3,21,28,47,240,47,12,10,119,40,04,04,331,38,16,06,299,37*71
$GPGSV,6,4,21,36,35,170,45,58,13,245,37,40,23,133,37,34,31,208,43*7C
$GPGSV,6,5,21,49,34,195,45,57,05,113,37,41,07,108,35,61,03,257,38*7D
$GPGSV,6,6,21*7A
$GLGSV,2,1,08,79,87,185,52,80,35,321,50,82,32,218,48,78,31,145,49*63
$GLGSV,2,2,08,88,38,039,49,81,83,221,52,71,07,341,43,72,07,026,38*68
$GAGSV,3,1,09,27,86,330,48,34,40,052,45,21,31,300,43,13,22,193,41*68
$GAGSV,3,2,09,30,38,117,44,15,63,140,48,29,02,247,36,04,04,341,37*68
$GAGSV,3,3,09,19,10,288,33*5A
$GBGSV,6,1,21,11,77,211,49,05,21,129,38,56,10,069,,24,12,150,41*6E
$GBGSV,6,2,21,44,20,056,43,38,29,057,43,13,33,083,43,28,39,214,*66
$GBGSV,6,3,21,23,52,295,49,08,33,073,41,25,59,183,51,31,42,070,*67
$GBGSV,6,4,21,12,44,055,45,43,53,228,50,34,74,068,51,37,06,318,*62
$GBGSV,6,5,21,19,02,010,35,10,06,085,35,02,06,107,35,22,00,012,*6D
$GBGSV,6,6,21,60,10,109,40*53
$GPGGA,161602.00,,,,,0,00,,,M,,M,,*4A
$PTNL,GGK,161602.00,010125,4742.1605586,N,01618.1004516,E,1,39,0.8,EHT751.0620,M*48
$GPGGQ,161602.00,010125,4742.1605586,N,01618.1004516,E,1,39,1.178,707.8554,M*3A
$GPGFA,161602.00,4.927,8.047,0.518,0.396,11.588,0.981,,VVV*37
$GPLLK,161602.00,010125,,M,,M,1,39,0.9,,M*0A
$GNGMP,161602.00,,,,,DAAA,39,0.4,,,,*5A
$GPGMP,161602.00,,,,,,11,,,,2.2,136*7B
$GLGMP,161602.00,,,,,,08,,,,,*75
$GAGMP,161602.00,,,,,,06,,,,,*76
$GBGMP,161602.00,,,,,,14,,,,,*76
$PSSN,SNC,[0,317780000,2347]*4E
$GPZDA,161607.00,01,01,2025,,*64
$GPDTM,W84,,00.0000000,N,00.0000000,E,00.0000000,W84*5F
$PSSN,TFM,161607.00,,,,*68
$GPRMC,161607.00,A,4742.1605598,N,01618.1004469,E,0.0,,010125,5.1,E,D*19
$GPGLL,4742.1605598,N,01618.1004469,E,161607.00,A,D*68
$GPGGA,161607.00,4742.1605598,N,01618.1004469,E,2,39,0.4,707.8442,M,43.2066,M,3.2,0136*41
$GNGNS,161607.00,4742.1605598,N,01618.1004469,E,DAAA,39,0.4,707.8442,43.2066,,*58
$GPGNS,161607.00,,,,,,11,,,,3.2,136*7F
$GLGNS,161607.00,,,,,,08,,,,,*70
$GAGNS,161607.00,,,,,,06,,,,,*73
$GBGNS,161607.00,,,,,,14,,,,,*73
$GPLLQ,161607.00,010125,,M,,M,1,39,1.172,,M*19
$GPVTG,,T,,M,0.01,N,0.02,K,D*25
$GPHDT,,T*1B
$GPTHS,,V*0E
$GPROT,,V*08
$PSSN,HRP,161607.00,010125,,,,,,,00,0,,*66
$PTNL,AVR,161607.00,,Yaw,,Tilt,,,,0,,00*30
$GPGSA,A,3,05,11,12,16,18,20,25,26,28,29,31,,0.8,0.4,0.6*32
$GPGSA,A,3,71,72,78,79,80,81,82,88,,,,,0.8,0.4,0.6*31
$GPGSA,A,3,13,15,21,27,30,34,,,,,,,0.8,0.4,0.6*3C
$GPGSA,A,3,05,08,10,11,12,13,23,24,25,34,38,43,0.8,0.4,0.6*3E
$GPGSA,A,3,44,60,,,,,,,,,,,0.8,0.4,0.6*3E
$GPGST,161607.00,2.355,0.519,0.396,10.696,0.515,0.400,0.974*67
$GPGBS,161607.00,3.487,1.900,7.912,16,0.0001,-2.985,2.799*7D
$GPGRS,161607.00,1,0.2,-0.6,-0.4,-3.0,-0.3,-0.0,0.3,-0.4,-0.1,0.5,0.3,*4A
$GPGRS,161607.00,1,-0.5,5.9,-1.7,0.1,-3.2,0.8,0.4,-1.0,,,,*4B
$GPGRS,161607.00,1,0.7,0.2,-0.5,-0.5,0.1,0.2,,,,,,*4F
$GPGRS,161607.00,1,1.3,1.5,-10.3,1.2,0.4,-0.4,-0.4,0.3,-0.5,-0.3,-1.0,0.5*7B
$GPGRS,161607.00,1,-1.2,-0.9,,,,,,,,,,*43
$GPGSV,6,1,21,29,77,041,49,26,35,301,45,20,20,054,40,05,22,090,43*71
$GPGSV,6,2,21,18,41,185,47,25,47,125,47,31,45,281,47,28,47,240,47*7B
$GPGSV,6,3,21,12,10,119,40,16,06,299,38,04,04,330,37,11,10,039,39*7D
$GPGSV,6,4,21,36,35,170,45,58,13,245,37,40,23,133,37,34,31,208,43*7C
$GPGSV,6,5,21,49,34,195,45,57,05,113,37,41,07,108,35,61,03,257,38*7D
$GPGSV,6,6,21*7A
$GLGSV,2,1,08,79,87,184,52,80,35,321,50,82,32,218,48,78,31,145,48*63
$GLGSV,2,2,08,88,38,039,50,81,83,221,52,71,07,341,43,72,07,026,38*60
$GAGSV,3,1,09,27,86,330,48,34,40,052,45,21,31,300,43,13,22,193,42*6B
$GAGSV,3,2,09,30,38,117,45,15,63,140,48,29,02,247,36,04,04,341,37*69
$GAGSV,3,3,09,19,10,288,32*5B
$GBGSV,6,1,21,11,77,211,49,05,21,129,39,56,10,069,,24,11,150,41*6C
$GBGSV,6,2,21,44,20,056,42,38,29,057,43,13,33,083,43,28,40,214,*69
$GBGSV,6,3,21,23,52,295,49,08,33,073,41,25,59,183,51,31,42,070,*67
$GBGSV,6,4,21,12,44,055,45,43,53,228,50,34,74,067,51,37,06,318,*6D
$GBGSV,6,5,21,19,02,010,36,10,06,085,35,02,06,107,35,22,01,011,*6C
$GBGSV,6,6,21,60,10,109,39*5D
$GPGGA,161607.00,,,,,0,00,,,M,,M,,*4F
$PTNL,GGK,161607.00,010125,4742.1605598,N,01618.1004469,E,1,39,0.8,EHT751.0508,M*42
$GPGGQ,161607.00,010125,4742.1605598,N,01618.1004469,E,1,39,1.172,707.8442,M*35
$GPGFA,161607.00,4.933,7.987,0.519,0.396,10.696,0.974,,VVV*3B
$GPLLK,161607.00,010125,,M,,M,1,39,0.9,,M*0F
$GNGMP,161607.00,,,,,DAAA,39,0.4,,,,*5F
$GPGMP,161607.00,,,,,,11,,,,3.2,136*7F
$GLGMP,161607.00,,,,,,08,,,,,*70
$GAGMP,161607.00,,,,,,06,,,,,*73
$GBGMP,161607.00,,,,,,14,,,,,*73
$PSSN,SNC,[0,317785000,2347]*4B
$GPZDA,161612.00,01,01,2025,,*60
$GPDTM,W84,,00.0000000,N,00.0000000,E,00.0000000,W84*5F
$PSSN,TFM,161612.00,,,,*6C
$GPRMC,161612.00,A,4742.1605583,N,01618.1004438,E,0.0,,010125,5.1,E,D*13
$GPGLL,4742.1605583,N,01618.1004438,E,161612.00,A,D*62
$GPGGA,161612.00,4742.1605583,N,01618.1004438,E,2,39,0.4,707.8334,M,43.2066,M,2.4,0136*4A
$GNGNS,161612.00,4742.1605583,N,01618.1004438,E,DAAA,39,0.4,707.8334,43.2066,,*54
$GPGNS,161612.00,,,,,,11,,,,2.4,136*7C
$GLGNS,161612.00,,,,,,08,,,,,*74
$GAGNS,161612.00,,,,,,06,,,,,*77
$GBGNS,161612.00,,,,,,14,,,,,*77
$GPLLQ,161612.00,010125,,M,,M,1,39,1.180,,M*10
$GPVTG,,T,,M,0.01,N,0.01,K,D*26
$GPHDT,,T*1B
$GPTHS,,V*0E
$GPROT,,V*08
$PSSN,HRP,161612.00,010125,,,,,,,00,0,,*62
$PTNL,AVR,161612.00,,Yaw,,Tilt,,,,0,,00*34
$GPGSA,A,3,05,11,12,16,18,20,25,26,28,29,31,,0.8,0.4,0.6*32
$GPGSA,A,3,71,72,78,79,80,81,82,88,,,,,0.8,0.4,0.6*31
$GPGSA,A,3,13,15,21,27,30,34,,,,,,,0.8,0.4,0.6*3C
$GPGSA,A,3,05,08,10,11,12,13,23,24,25,34,38,43,0.8,0.4,0.6*3E
$GPGSA,A,3,44,60,,,,,,,,,,,0.8,0.4,0.6*3E
$GPGST,161612.00,2.244,0.520,0.397,11.397,0.516,0.402,0.982*64
$GPGBS,161612.00,3.504,1.862,7.892,16,0.0001,-3.038,2.783*7A
$GPGRS,161612.00,1,0.2,-0.1,0.0,-3.0,-0.5,-0.4,0.3,-0.4,-0.1,0.4,0.3,*63
$GPGRS,161612.00,1,-0.7,5.0,-1.9,0.1,-2.8,0.7,0.7,-0.8,,,,*44
$GPGRS,161612.00,1,0.3,0.2,-0.6,-0.5,0.1,0.2,,,,,,*4C
$GPGRS,161612.00,1,1.1,1.4,-10.1,1.5,1.1,-0.2,-0.3,0.1,-0.5,-0.3,-0.8,0.5*77
$GPGRS,161612.00,1,-1.1,-0.9,,,,,,,,,,*44
$GPGSV,6,1,21,29,77,041,49,26,35,301,44,20,20,054,40,05,22,090,42*71
$GPGSV,6,2,21,18,41,185,47,25,47,125,47,31,45,281,47,28,47,240,47*7B
$GPGSV,6,3,21,12,10,119,40,16,06,299,37,04,04,330,37,11,10,039,39*72
$GPGSV,6,4,21,36,35,170,45,58,13,245,37,40,23,133,37,34,31,208,43*7C
$GPGSV,6,5,21,49,34,195,45,57,05,113,37,41,07,108,35,61,03,257,38*7D
$GPGSV,6,6,21*7A
$GLGSV,2,1,08,79,87,184,51,80,35,321,50,82,32,218,48,78,31,145,49*61
$GLGSV,2,2,08,88,38,039,50,81,83,221,52,71,07,341,43,72,07,026,37*6F
$GAGSV,3,1,09,27,86,330,48,34,40,052,45,21,31,300,43,13,22,193,42*6B
$GAGSV,3,2,09,30,38,117,45,15,63,140,48,29,02,247,36,04,04,341,37*69
$GAGSV,3,3,09,19,10,288,33*5A
$GBGSV,6,1,21,11,77,211,49,05,21,129,38,56,10,069,,24,11,150,41*6D
$GBGSV,6,2,21,44,19,056,43,38,29,057,43,13,33,083,43,28,40,214,*62
$GBGSV,6,3,21,23,52,295,49,08,33,073,41,25,59,183,51,31,42,070,*67
$GBGSV,6,4,21,12,44,055,45,43,53,228,49,34,74,067,51,37,06,318,*65
$GBGSV,6,5,21,19,02,010,36,10,06,085,36,02,06,107,34,22,01,011,*6E
$GBGSV,6,6,21,60,10,109,39*5D
$GPGGA,161612.00,,,,,0,00,,,M,,M,,*4B
$PTNL,GGK,161612.00,010125,4742.1605583,N,01618.1004438,E,1,39,0.8,EHT751.0400,M*41
$GPGGQ,161612.00,010125,4742.1605583,N,01618.1004438,E,1,39,1.180,707.8334,M*34
$GPGFA,161612.00,4.948,8.055,0.520,0.397,11.397,0.982,,VVV*3D
$GPLLK,161612.00,010125,,M,,M,1,39,0.9,,M*0B
$GNGMP,161612.00,,,,,DAAA,39,0.4,,,,*5B
$GPGMP,161612.00,,,,,,11,,,,2.4,136*7C
$GLGMP,161612.00,,,,,,08,,,,,*74
$GAGMP,161612.00,,,,,,06,,,,,*77
$GBGMP,161612.00,,,,,,14,,,,,*77
$PSSN,SNC,[0,317790000,2347]*4F
$GPZDA,161617.00,01,01,2025,,*65
$GPDTM,W84,,00.0000000,N,00.0000000,E,00.0000000,W84*5F
$PSSN,TFM,161617.00,,,,*69
$GPRMC,161617.00,A,4742.1605584,N,01618.1004396,E,0.0,,010125,5.1,E,D*12
$GPGLL,4742.1605584,N,01618.1004396,E,161617.00,A,D*63
$GPGGA,161617.00,4742.1605584,N,01618.1004396,E,2,39,0.4,707.8255,M,43.2066,M,2.3,0136*4A
$GNGNS,161617.00,4742.1605584,N,01618.1004396,E,DAAA,39,0.4,707.8255,43.2066,,*53
$GPGNS,161617.00,,,,,,11,,,,2.3,136*7E
$GLGNS,161617.00,,,,,,08,,,,,*71
$GAGNS,161617.00,,,,,,06,,,,,*72
$GBGNS,161617.00,,,,,,14,,,,,*72
$GPLLQ,161617.00,010125,,M,,M,1,39,1.184,,M*11
$GPVTG,,T,,M,0.00,N,0.01,K,D*27
$GPHDT,,T*1B
$GPTHS,,V*0E
$GPROT,,V*08
$PSSN,HRP,161617.00,010125,,,,,,,00,0,,*67
$PTNL,AVR,161617.00,,Yaw,,Tilt,,,,0,,00*31
$GPGSA,A,3,05,11,12,16,18,20,25,26,28,29,31,,0.8,0.4,0.6*32
$GPGSA,A,3,71,72,78,79,80,81,82,88,,,,,0.8,0.4,0.6*31
$GPGSA,A,3,13,15,21,27,30,34,,,,,,,0.8,0.4,0.6*3C
$GPGSA,A,3,05,08,10,11,12,13,23,24,25,34,38,43,0.8,0.4,0.6*3E
$GPGSA,A,3,44,60,,,,,,,,,,,0.8,0.4,0.6*3E
$GPGST,161617.00,2.107,0.519,0.396,12.508,0.514,0.403,0.988*64
$GPGBS,161617.00,3.502,1.862,7.915,16,0.0001,-3.761,2.782*7D
$GPGRS,161617.00,1,0.3,0.0,-0.0,-3.8,-0.3,-0.2,0.3,-0.8,-0.1,0.3,0.3,*65
$GPGRS,161617.00,1,-0.7,4.5,-1.5,0.2,-2.2,1.0,0.3,-1.6,,,,*4D
$GPGRS,161617.00,1,0.0,0.2,-0.7,-0.3,0.2,-0.0,,,,,,*61
$GPGRS,161617.00,1,0.9,0.6,-9.1,1.6,1.8,-0.1,-0.2,-0.1,-0.6,-0.2,-0.5,0.6*69
$GPGRS,161617.00,1,-1.2,-1.2,,,,,,,,,,*48
$GPGSV,6,1,21,29,76,041,49,26,35,301,44,20,20,054,40,05,22,090,43*71
$GPGSV,6,2,21,18,41,185,46,25,47,125,47,31,45,281,47,28,47,240,47*7A
$GPGSV,6,3,21,12,10,119,40,16,06,299,37,04,04,330,37,11,10,039,39*72
$GPGSV,6,4,21,36,35,170,45,58,13,245,37,40,23,133,37,34,31,208,43*7C
$GPGSV,6,5,21,49,34,195,45,57,05,113,37,41,07,108,34,61,03,257,38*7C
$GPGSV,6,6,21*7A
$GLGSV,2,1,08,79,87,184,52,80,35,321,49,82,32,218,47,78,31,145,49*65
$GLGSV,2,2,08,88,38,039,49,81,84,222,52,71,07,341,43,72,07,026,37*63
$GAGSV,3,1,09,27,86,331,48,34,40,052,45,21,31,300,43,13,22,193,41*69
$GAGSV,3,2,09,30,38,117,45,15,63,140,48,29,02,247,36,04,04,341,37*69
$GAGSV,3,3,09,19,10,288,33*5A
$GBGSV,6,1,21,11,77,211,49,05,21,129,38,56,10,069,,24,11,150,41*6D
$GBGSV,6,2,21,44,19,056,43,38,29,057,43,13,33,083,43,28,40,214,*62
$GBGSV,6,3,21,23,52,295,49,08,33,073,41,25,59,183,51,31,42,070,*67
$GBGSV,6,4,21,12,44,055,45,43,53,228,50,34,74,067,51,37,06,318,*6D
$GBGSV,6,5,21,19,02,010,36,10,06,085,36,02,06,107,34,22,01,011,*6E
$GBGSV,6,6,21,60,10,109,39*5D
$GPGGA,161617.00,,,,,0,00,,,M,,M,,*4E
$PTNL,GGK,161617.00,010125,4742.1605584,N,01618.1004396,E,1,39,0.8,EHT751.0320,M*45
$GPGGQ,161617.00,010125,4742.1605584,N,01618.1004396,E,1,39,1.184,707.8255,M*37
$GPGFA,161617.00,4.938,8.098,0.519,0.396,12.508,0.988,,VVV*3C
$GPLLK,161617.00,010125,,M,,M,1,39,0.9,,M*0E
$GNGMP,161617.00,,,,,DAAA,39,0.4,,,,*5E
