$GPZDA,142942.00,01,01,2025,,*6B
$GPDTM,W84,,00.0000000,N,00.0000000,E,00.0000000,W84*5F
$PSSN,TFM,142942.00,,,,*67
$GPRMC,142942.00,A,4742.1599293,N,01618.1013519,E,0.0,,010125,5.1,E,D*1C
$GPGLL,4742.1599293,N,01618.1013519,E,142942.00,A,D*6D
$GPGGA,142942.00,4742.1599293,N,01618.1013519,E,2,39,0.4,708.1812,M,43.2065,M,2.8,0136*43
$GNGNS,142942.00,4742.1599293,N,01618.1013519,E,DAAA,39,0.4,708.1812,43.2065,,*51
$GPGNS,142942.00,,,,,,10,,,,2.8,136*7A
$GLGNS,142942.00,,,,,,07,,,,,*70
$GAGNS,142942.00,,,,,,08,,,,,*72
$GBGNS,142942.00,,,,,,14,,,,,*7C
$GPLLQ,142942.00,010125,,M,,M,1,39,1.278,,M*1F
$GPVTG,,T,,M,0.00,N,0.01,K,D*27
$GPHDT,,T*1B
$GPTHS,,V*0E
$GPROT,,V*08
$PSSN,HRP,142942.00,010125,,,,,,,00,0,,*69
$PTNL,AVR,142942.00,,Yaw,,Tilt,,,,0,,00*3F
$GPGSA,A,3,06,11,12,20,24,25,28,29,31,32,,,0.7,0.4,0.6*33
$GPGSA,A,3,69,77,78,79,81,87,88,,,,,,0.7,0.4,0.6*3F
$GPGSA,A,3,02,07,15,27,29,30,34,36,,,,,0.7,0.4,0.6*39
$GPGSA,A,3,05,08,10,11,12,13,23,24,25,34,35,38,0.7,0.4,0.6*30
$GPGSA,A,3,44,60,,,,,,,,,,,0.7,0.4,0.6*31
$GPGST,142942.00,1.915,0.607,0.445,353.772,0.605,0.447,1.033*55
$GPGBS,142942.00,3.992,2.365,6.960,77,0.0001,-6.030,6.414*73
$GPGRS,142942.00,1,-0.5,0.2,0.3,-4.2,-0.3,-0.2,0.1,0.1,1.0,-0.7,,*6E
$GPGRS,142942.00,1,1.9,-6.0,-1.2,1.7,4.4,-2.5,0.4,,,,,*4D
$GPGRS,142942.00,1,0.5,-1.4,0.6,-0.4,0.6,-0.4,0.8,0.1,,,,*62
$GPGRS,142942.00,1,1.2,1.7,0.3,2.1,0.2,-0.4,2.5,-0.6,-1.5,0.4,-0.9,-1.6*67
$GPGRS,142942.00,1,-0.9,-1.2,,,,,,,,,,*4C
$GPGSV,5,1,19,25,81,335,50,32,22,257,43,06,18,038,40,31,13,316,41*7C
$GPGSV,5,2,19,24,14,158,39,11,39,074,46,28,38,306,45,29,52,224,49*78
$GPGSV,5,3,19,12,51,086,48,20,05,097,36,36,35,170,45,58,13,245,36*73
$GPGSV,5,4,19,40,23,133,36,34,31,208,43,49,34,195,45,57,04,114,36*78
$GPGSV,5,5,19,41,07,108,34,61,03,257,38*72
$GLGSV,2,1,08,78,76,048,52,70,11,345,34,69,15,284,45,81,22,188,46*67
$GLGSV,2,2,08,77,23,114,41,87,33,035,46,79,36,313,50,88,67,134,52*69
$GAGSV,3,1,10,30,70,071,49,15,21,161,40,19,15,323,35,07,17,222,40*6E
$GAGSV,3,2,10,02,19,093,40,36,25,043,41,29,28,277,43,34,44,104,46*68
$GAGSV,3,3,10,27,50,289,47,21,01,279,*67
$GBGSV,6,1,22,12,69,126,49,43,10,209,40,08,11,086,37,35,14,044,41*65
$GBGSV,6,2,22,23,15,303,43,11,29,197,45,05,20,130,38,38,13,072,41*6F
$GBGSV,6,3,22,10,15,067,38,56,22,055,,31,30,089,,34,53,186,50*69
$GBGSV,6,4,22,24,54,130,50,44,57,071,50,25,66,296,51,32,05,313,39*69
$GBGSV,6,5,22,07,02,066,35,13,10,094,38,02,05,108,34,26,05,127,30*61
$GBGSV,6,6,22,20,10,317,,60,09,110,39*68
$GPGGA,142942.00,,,,,0,00,,,M,,M,,*40
$PTNL,GGK,142942.00,010125,4742.1599293,N,01618.1013519,E,1,39,0.7,EHT751.3878,M*41
$GPGGQ,142942.00,010125,4742.1599293,N,01618.1013519,E,1,39,1.278,708.1812,M*36
$GPGFA,142942.00,5.769,8.471,0.607,0.445,353.772,1.033,,VVV*0E
$GPLLK,142942.00,010125,,M,,M,1,39,0.8,,M*01
$GNGMP,142942.00,,,,,DAAA,39,0.4,,,,*50
$GPGMP,142942.00,,,,,,10,,,,2.8,136*7A
$GLGMP,142942.00,,,,,,07,,,,,*70
$GAGMP,142942.00,,,,,,08,,,,,*72
$GBGMP,142942.00,,,,,,14,,,,,*7C
$PSSN,SNC,[0,311400000,2347]*43
$GPZDA,142947.00,01,01,2025,,*6E
$GPDTM,W84,,00.0000000,N,00.0000000,E,00.0000000,W84*5F
$PSSN,TFM,142947.00,,,,*62
$GPRMC,142947.00,A,4742.1599304,N,01618.1013530,E,0.0,,010125,5.1,E,D*1D
$GPGLL,4742.1599304,N,01618.1013530,E,142947.00,A,D*6C
$GPGGA,142947.00,4742.1599304,N,01618.1013530,E,2,40,0.4,708.1811,M,43.2065,M,2.0,0136*47
$GNGNS,142947.00,4742.1599304,N,01618.1013530,E,DAAA,40,0.4,708.1811,43.2065,,*5D
$GPGNS,142947.00,,,,,,10,,,,2.0,136*77
$GLGNS,142947.00,,,,,,07,,,,,*75
$GAGNS,142947.00,,,,,,08,,,,,*77
$GBGNS,142947.00,,,,,,15,,,,,*78
$GPLLQ,142947.00,010125,,M,,M,1,40,1.276,,M*1A
$GPVTG,,T,,M,0.00,N,0.01,K,D*27
$GPHDT,,T*1B
$GPTHS,,V*0E
$GPROT,,V*08
$PSSN,HRP,142947.00,010125,,,,,,,00,0,,*6C
$PTNL,AVR,142947.00,,Yaw,,Tilt,,,,0,,00*3A
$GPGSA,A,3,06,11,12,20,24,25,28,29,31,32,,,0.7,0.4,0.6*33
$GPGSA,A,3,69,77,78,79,81,87,88,,,,,,0.7,0.4,0.6*3F
$GPGSA,A,3,02,07,15,27,29,30,34,36,,,,,0.7,0.4,0.6*39
$GPGSA,A,3,05,08,10,11,12,13,23,24,25,34,35,38,0.7,0.4,0.6*30
$GPGSA,A,3,43,44,60,,,,,,,,,,0.7,0.4,0.6*36
$GPGST,142947.00,1.737,0.604,0.440,352.938,0.602,0.443,1.034*5D
$GPGBS,142947.00,3.905,2.355,6.917,77,0.0001,-4.356,6.413*7D
$GPGRS,142947.00,1,-0.9,0.1,0.2,-4.5,-0.0,-0.3,0.4,0.4,0.9,-0.5,,*6A
$GPGRS,142947.00,1,1.7,-4.4,-1.1,2.0,3.8,-2.7,0.6,,,,,*4C
$GPGRS,142947.00,1,0.8,-1.4,0.6,-0.2,0.4,-0.3,0.8,0.3,,,,*6B
$GPGRS,142947.00,1,1.2,2.0,0.5,1.9,0.6,0.3,1.8,-0.6,-1.3,0.8,-0.8,-1.4*42
$GPGRS,142947.00,1,-2.0,-0.8,-1.5,,,,,,,,,*4E
$GPGSV,5,1,19,25,81,335,50,32,22,257,44,06,18,038,40,31,13,316,41*7B
$GPGSV,5,2,19,24,14,158,39,11,39,074,46,28,38,306,45,29,53,224,48*78
$GPGSV,5,3,19,12,51,087,48,20,05,096,36,36,35,170,45,58,13,245,36*73
$GPGSV,5,4,19,40,23,133,36,34,31,208,43,49,34,195,45,57,04,114,36*78
$GPGSV,5,5,19,41,07,108,34,61,03,257,38*72
$GLGSV,2,1,08,78,76,048,52,70,11,345,34,69,15,284,45,81,22,189,46*66
$GLGSV,2,2,08,77,23,115,41,87,33,035,46,79,36,313,50,88,67,134,52*68
$GAGSV,3,1,10,30,70,071,49,15,21,161,40,19,15,323,34,07,17,222,40*6F
$GAGSV,3,2,10,02,19,093,40,36,25,043,41,29,28,277,43,34,44,104,46*68
$GAGSV,3,3,10,27,50,289,47,21,01,279,*67
$GBGSV,6,1,22,12,69,126,49,43,10,209,40,08,11,086,37,35,14,044,41*65
$GBGSV,6,2,22,23,15,304,43,11,29,197,45,05,20,130,38,38,13,072,41*68
$GBGSV,6,3,22,10,15,067,38,56,22,055,,31,30,089,,34,53,186,50*69
$GBGSV,6,4,22,24,54,130,50,44,57,071,50,25,66,296,51,32,05,313,39*69
$GBGSV,6,5,22,07,02,066,36,13,10,094,38,02,05,108,33,26,05,127,29*6D
$GBGSV,6,6,22,20,10,317,,60,09,110,39*68
$GPGGA,142947.00,,,,,0,00,,,M,,M,,*45
$PTNL,GGK,142947.00,010125,4742.1599304,N,01618.1013530,E,1,40,0.7,EHT751.3877,M*41
$GPGGQ,142947.00,010125,4742.1599304,N,01618.1013530,E,1,40,1.276,708.1811,M*34
$GPGFA,142947.00,5.743,8.478,0.604,0.440,352.938,1.034,,VVV*0A
$GPLLK,142947.00,010125,,M,,M,1,40,0.8,,M*0A
$GNGMP,142947.00,,,,,DAAA,40,0.4,,,,*5B
$GPGMP,142947.00,,,,,,10,,,,2.0,136*77
$GLGMP,142947.00,,,,,,07,,,,,*75
$GAGMP,142947.00,,,,,,08,,,,,*77
$GBGMP,142947.00,,,,,,15,,,,,*78
$PSSN,SNC,[0,311405000,2347]*46
$GPZDA,142952.00,01,01,2025,,*6A
$GPDTM,W84,,00.0000000,N,00.0000000,E,00.0000000,W84*5F
$PSSN,TFM,142952.00,,,,*66
$GPRMC,142952.00,A,4742.1599294,N,01618.1013540,E,0.0,,010125,5.1,E,D*16
$GPGLL,4742.1599294,N,01618.1013540,E,142952.00,A,D*67
$GPGGA,142952.00,4742.1599294,N,01618.1013540,E,2,40,0.4,708.1822,M,43.2065,M,2.1,0136*4D
$GNGNS,142952.00,4742.1599294,N,01618.1013540,E,DAAA,40,0.4,708.1822,43.2065,,*56
$GPGNS,142952.00,,,,,,10,,,,2.1,136*72
$GLGNS,142952.00,,,,,,07,,,,,*71
$GAGNS,142952.00,,,,,,08,,,,,*73
$GBGNS,142952.00,,,,,,15,,,,,*7C
$GPLLQ,142952.00,010125,,M,,M,1,40,1.270,,M*18
$GPVTG,,T,,M,0.00,N,0.00,K,D*26
$GPHDT,,T*1B
$GPTHS,,V*0E
$GPROT,,V*08
$PSSN,HRP,142952.00,010125,,,,,,,00,0,,*68
$PTNL,AVR,142952.00,,Yaw,,Tilt,,,,0,,00*3E
$GPGSA,A,3,06,11,12,20,24,25,28,29,31,32,,,0.7,0.4,0.6*33
$GPGSA,A,3,69,77,78,79,81,87,88,,,,,,0.7,0.4,0.6*3F
$GPGSA,A,3,02,07,15,27,29,30,34,36,,,,,0.7,0.4,0.6*39
$GPGSA,A,3,05,08,10,11,12,13,23,24,25,34,35,38,0.7,0.4,0.6*30
$GPGSA,A,3,43,44,60,,,,,,,,,,0.7,0.4,0.6*36
$GPGST,142952.00,1.734,0.601,0.440,352.976,0.599,0.442,1.029*59
$GPGBS,142952.00,3.899,2.371,6.897,77,0.0001,-4.733,6.415*73
$GPGRS,142952.00,1,-0.4,0.3,0.3,-4.7,-0.4,-0.6,0.6,0.1,1.4,-0.3,,*6E
$GPGRS,142952.00,1,1.8,-4.7,-1.4,1.7,3.8,-1.7,0.3,,,,,*43
$GPGRS,142952.00,1,0.6,-1.8,0.3,-0.4,0.2,-0.4,0.9,0.1,,,,*6C
$GPGRS,142952.00,1,1.2,1.3,1.0,1.9,0.4,0.3,1.2,-0.6,-1.3,0.6,-0.6,-1.5*4B
$GPGRS,142952.00,1,-1.9,-0.8,-1.6,,,,,,,,,*43
$GPGSV,5,1,19,25,81,335,50,32,22,257,44,06,18,038,40,31,13,316,40*7A
$GPGSV,5,2,19,24,14,158,39,11,39,073,46,28,38,306,45,29,53,224,49*7E
$GPGSV,5,3,19,12,51,087,48,20,05,096,36,36,35,170,45,58,13,245,36*73
$GPGSV,5,4,19,40,23,133,36,34,31,208,43,49,34,195,45,57,04,114,36*78
$GPGSV,5,5,19,41,07,108,34,61,03,257,38*72
$GLGSV,2,1,08,78,76,048,52,70,11,345,34,69,15,284,45,81,22,189,47*67
$GLGSV,2,2,08,77,23,115,41,87,33,035,47,79,36,313,50,88,67,134,52*69
$GAGSV,3,1,10,30,70,071,49,15,21,161,40,19,15,323,34,07,17,222,39*61
$GAGSV,3,2,10,02,19,093,39,36,25,043,41,29,28,277,43,34,44,104,46*66
$GAGSV,3,3,10,27,51,289,46,21,01,279,*67
$GBGSV,6,1,22,12,69,126,49,43,10,209,40,08,11,086,37,35,14,044,42*66
$GBGSV,6,2,22,23,15,304,42,11,29,197,45,05,20,130,38,38,14,072,41*6E
$GBGSV,6,3,22,10,15,067,38,56,22,055,,31,30,089,,34,53,186,50*69
$GBGSV,6,4,22,24,54,130,50,44,57,071,50,25,66,296,51,32,05,313,39*69
$GBGSV,6,5,22,07,02,066,35,13,10,094,38,02,05,108,34,26,05,127,28*68
$GBGSV,6,6,22,20,10,317,,60,09,110,39*68
$GPGGA,142952.00,,,,,0,00,,,M,,M,,*41
$PTNL,GGK,142952.00,010125,4742.1599294,N,01618.1013540,E,1,40,0.7,EHT751.3887,M*45
$GPGGQ,142952.00,010125,4742.1599294,N,01618.1013540,E,1,40,1.270,708.1822,M*39
$GPGFA,142952.00,5.715,8.436,0.601,0.440,352.976,1.029,,VVV*04
$GPLLK,142952.00,010125,,M,,M,1,40,0.8,,M*0E
$GNGMP,142952.00,,,,,DAAA,40,0.4,,,,*5F
$GPGMP,142952.00,,,,,,10,,,,2.1,136*72
$GLGMP,142952.00,,,,,,07,,,,,*71
$GAGMP,142952.00,,,,,,08,,,,,*73
$GBGMP,142952.00,,,,,,15,,,,,*7C
$PSSN,SNC,[0,311410000,2347]*42
$GPZDA,142957.00,01,01,2025,,*6F
$GPDTM,W84,,00.0000000,N,00.0000000,E,00.0000000,W84*5F
$PSSN,TFM,142957.00,,,,*63
$GPRMC,142957.00,A,4742.1599281,N,01618.1013556,E,0.0,,010125,5.1,E,D*10
$GPGLL,4742.1599281,N,01618.1013556,E,142957.00,A,D*61
$GPGGA,142957.00,4742.1599281,N,01618.1013556,E,2,40,0.4,708.1854,M,43.2065,M,3.1,0136*4B
$GNGNS,142957.00,4742.1599281,N,01618.1013556,E,DAAA,40,0.4,708.1854,43.2065,,*51
$GPGNS,142957.00,,,,,,10,,,,3.1,136*76
$GLGNS,142957.00,,,,,,07,,,,,*74
$GAGNS,142957.00,,,,,,08,,,,,*76
$GBGNS,142957.00,,,,,,15,,,,,*79
$GPLLQ,142957.00,010125,,M,,M,1,40,1.266,,M*1A
$GPVTG,,T,,M,0.00,N,0.01,K,D*27
$GPHDT,,T*1B
$GPTHS,,V*0E
$GPROT,,V*08
$PSSN,HRP,142957.00,010125,,,,,,,00,0,,*6D
$PTNL,AVR,142957.00,,Yaw,,Tilt,,,,0,,00*3B
$GPGSA,A,3,06,11,12,20,24,25,28,29,31,32,,,0.7,0.4,0.6*33
$GPGSA,A,3,69,77,78,79,81,87,88,,,,,,0.7,0.4,0.6*3F
$GPGSA,A,3,02,07,15,27,29,30,34,36,,,,,0.7,0.4,0.6*39
$GPGSA,A,3,05,08,10,11,12,13,23,24,25,34,35,38,0.7,0.4,0.6*30
$GPGSA,A,3,43,44,60,,,,,,,,,,0.7,0.4,0.6*36
$GPGST,142957.00,1.745,0.602,0.443,353.148,0.600,0.446,1.022*52
$GPGBS,142957.00,3.927,2.382,6.933,77,0.0001,-5.504,6.416*75
$GPGRS,142957.00,1,-0.7,0.0,0.2,-4.2,-0.2,-0.5,0.4,0.4,1.2,-0.9,,*61
$GPGRS,142957.00,1,2.1,-5.5,-1.3,1.3,4.1,-1.0,-0.1,,,,,*6A
$GPGRS,142957.00,1,0.4,-1.4,0.6,-0.6,-0.3,-0.4,1.0,0.0,,,,*45
$GPGRS,142957.00,1,1.0,1.4,1.1,1.8,0.3,-0.2,1.3,-0.7,-1.2,0.7,-0.8,-1.5*6E
$GPGRS,142957.00,1,-1.7,-0.8,-1.0,,,,,,,,,*4E
$GPGSV,5,1,19,25,81,335,50,32,22,257,44,06,18,038,40,31,13,316,41*7B
$GPGSV,5,2,19,24,14,158,38,11,39,073,46,28,38,306,45,29,53,224,49*7F
$GPGSV,5,3,19,12,51,087,47,20,05,096,36,36,35,170,45,58,13,245,36*7C
$GPGSV,5,4,19,40,23,133,36,34,31,208,43,49,34,195,45,57,04,114,36*78
$GPGSV,5,5,19,41,07,108,35,61,03,257,38*73
$GLGSV,2,1,08,78,76,048,52,70,11,345,34,69,15,284,44,81,22,189,46*67
$GLGSV,2,2,08,77,23,115,41,87,33,035,47,79,36,313,50,88,67,134,52*69
$GAGSV,3,1,10,30,70,071,49,15,21,161,40,19,15,323,35,07,17,222,39*60
$GAGSV,3,2,10,02,19,093,40,36,25,043,41,29,28,277,43,34,44,104,46*68
$GAGSV,3,3,10,27,51,289,46,21,01,279,*67
$GBGSV,6,1,22,12,69,126,49,43,10,209,41,08,11,086,37,35,14,044,42*67
$GBGSV,6,2,22,23,15,304,42,11,29,197,45,05,20,130,38,38,14,072,41*6E
$GBGSV,6,3,22,10,15,067,38,56,22,055,,31,30,089,,34,53,186,50*69
$GBGSV,6,4,22,24,54,130,51,44,56,071,50,25,66,296,51,32,05,313,40*67
$GBGSV,6,5,22,07,02,066,35,13,10,094,38,02,05,108,33,26,05,127,28*6F
$GBGSV,6,6,22,20,10,317,,60,09,110,39*68
$GPGGA,142957.00,,,,,0,00,,,M,,M,,*44
$PTNL,GGK,142957.00,010125,4742.1599281,N,01618.1013556,E,1,40,0.7,EHT751.3919,M*45
$GPGGQ,142957.00,010125,4742.1599281,N,01618.1013556,E,1,40,1.266,708.1854,M*39
$GPGFA,142957.00,5.719,8.381,0.602,0.443,353.148,1.022,,VVV*09
$GPLLK,142957.00,010125,,M,,M,1,40,0.8,,M*0B
$GNGMP,142957.00,,,,,DAAA,40,0.4,,,,*5A
$GPGMP,142957.00,,,,,,10,,,,3.1,136*76
$GLGMP,142957.00,,,,,,07,,,,,*74
$GAGMP,142957.00,,,,,,08,,,,,*76
$GBGMP,142957.00,,,,,,15,,,,,*79
$PSSN,SNC,[0,311415000,2347]*47
$GPZDA,143002.00,01,01,2025,,*67
$GPDTM,W84,,00.0000000,N,00.0000000,E,00.0000000,W84*5F
$PSSN,TFM,143002.00,,,,*6B
$GPRMC,143002.00,A,4742.1599282,N,01618.1013578,E,0.0,,010125,5.1,E,D*17
$GPGLL,4742.1599282,N,01618.1013578,E,143002.00,A,D*66
$GPGGA,143002.00,4742.1599282,N,01618.1013578,E,2,41,0.4,708.1865,M,43.2065,M,2.8,0136*47
$GNGNS,143002.00,4742.1599282,N,01618.1013578,E,DAAA,41,0.4,708.1865,43.2065,,*55
$GPGNS,143002.00,,,,,,10,,,,2.8,136*76
$GLGNS,143002.00,,,,,,08,,,,,*73
$GAGNS,143002.00,,,,,,08,,,,,*7E
$GBGNS,143002.00,,,,,,15,,,,,*71
$GPLLQ,143002.00,010125,,M,,M,1,41,1.271,,M*15
$GPVTG,,T,,M,0.00,N,0.00,K,D*26
$GPHDT,,T*1B
$GPTHS,,V*0E
$GPROT,,V*08
$PSSN,HRP,143002.00,010125,,,,,,,00,0,,*65
$PTNL,AVR,143002.00,,Yaw,,Tilt,,,,0,,00*33
$GPGSA,A,3,06,11,12,20,24,25,28,29,31,32,,,0.7,0.4,0.6*33
$GPGSA,A,3,69,70,77,78,79,81,87,88,,,,,0.7,0.4,0.6*38
$GPGSA,A,3,02,07,15,27,29,30,34,36,,,,,0.7,0.4,0.6*39
$GPGSA,A,3,05,08,10,11,12,13,23,24,25,34,35,38,0.7,0.4,0.6*30
$GPGSA,A,3,43,44,60,,,,,,,,,,0.7,0.4,0.6*36
$GPGST,143002.00,1.793,0.603,0.444,353.559,0.601,0.446,1.027*57
$GPGBS,143002.00,3.938,2.363,6.905,77,0.0001,-5.484,6.417*71
$GPGRS,143002.00,1,-0.7,0.3,0.3,-4.5,-0.3,-0.4,0.5,0.1,1.3,-0.4,,*64
$GPGRS,143002.00,1,1.4,-2.5,-5.5,-1.5,1.2,3.6,-1.6,0.0,,,,*4D
$GPGRS,143002.00,1,0.9,-1.4,0.9,-0.5,0.1,-0.5,0.7,-0.1,,,,*48
$GPGRS,143002.00,1,1.4,1.0,2.1,1.8,0.4,-0.1,1.3,-0.8,-1.1,0.7,-0.7,-1.6*61
$GPGRS,143002.00,1,-2.2,-1.0,-1.0,,,,,,,,,*49
$GPGSV,5,1,19,25,81,336,50,32,22,257,44,06,18,038,39,31,13,316,41*76
$GPGSV,5,2,19,24,14,158,38,11,39,073,46,28,38,306,45,29,53,224,48*7E
$GPGSV,5,3,19,12,51,087,48,20,05,096,36,36,35,170,45,58,13,245,36*73
$GPGSV,5,4,19,40,23,133,36,34,31,208,43,49,34,195,45,57,04,114,36*78
$GPGSV,5,5,19,41,07,108,35,61,03,257,38*73
$GLGSV,2,1,08,78,76,049,52,70,11,345,35,69,15,284,44,81,23,189,47*67
$GLGSV,2,2,08,77,23,115,41,87,33,035,47,79,36,313,49,88,68,134,52*6E
$GAGSV,3,1,10,30,70,071,49,15,21,161,41,19,15,323,35,07,17,222,40*6F
$GAGSV,3,2,10,02,18,093,40,36,25,043,41,29,28,277,43,34,44,104,46*69
$GAGSV,3,3,10,27,51,289,46,21,01,279,*67
$GBGSV,6,1,22,12,69,126,49,43,10,209,40,08,11,086,37,35,14,044,42*66
$GBGSV,6,2,22,23,15,304,42,11,29,197,45,05,20,130,38,38,14,072,41*6E
$GBGSV,6,3,22,10,15,068,38,56,22,055,,31,30,089,,34,53,186,50*66
$GBGSV,6,4,22,24,54,130,50,44,56,071,50,25,67,296,51,32,05,313,40*67
$GBGSV,6,5,22,07,02,067,35,13,10,094,38,02,05,108,33,26,05,127,29*6F
$GBGSV,6,6,22,20,10,317,,60,09,110,39*68
$GPGGA,143002.00,,,,,0,00,,,M,,M,,*4C
$PTNL,GGK,143002.00,010125,4742.1599282,N,01618.1013578,E,1,41,0.7,EHT751.3930,M*48
$GPGGQ,143002.00,010125,4742.1599282,N,01618.1013578,E,1,41,1.271,708.1865,M*3B
$GPGFA,143002.00,5.729,8.425,0.603,0.444,353.559,1.027,,VVV*0C
$GPLLK,143002.00,010125,,M,,M,1,41,0.8,,M*02
$GNGMP,143002.00,,,,,DAAA,41,0.4,,,,*53
$GPGMP,143002.00,,,,,,10,,,,2.8,136*76
$GLGMP,143002.00,,,,,,08,,,,,*73
$GAGMP,143002.00,,,,,,08,,,,,*7E
$GBGMP,143002.00,,,,,,15,,,,,*71
$PSSN,SNC,[0,311420000,2347]*41
$GPZDA,143007.00,01,01,2025,,*62
$GPDTM,W84,,00.0000000,N,00.0000000,E,00.0000000,W84*5F
$PSSN,TFM,143007.00,,,,*6E
$GPRMC,143007.00,A,4742.1599281,N,01618.1013600,E,0.0,,010125,5.1,E,D*1D
$GPGLL,4742.1599281,N,01618.1013600,E,143007.00,A,D*6C
$GPGGA,143007.00,4742.1599281,N,01618.1013600,E,2,41,0.4,708.1850,M,43.2065,M,2.0,0136*43
$GNGNS,143007.00,4742.1599281,N,01618.1013600,E,DAAA,41,0.4,708.1850,43.2065,,*59
$GPGNS,143007.00,,,,,,10,,,,2.0,136*7B
$GLGNS,143007.00,,,,,,08,,,,,*76
$GAGNS,143007.00,,,,,,08,,,,,*7B
$GBGNS,143007.00,,,,,,15,,,,,*74
$GPLLQ,143007.00,010125,,M,,M,1,41,1.273,,M*12
$GPVTG,,T,,M,0.01,N,0.01,K,D*26
$GPHDT,,T*1B
$GPTHS,,V*0E
$GPROT,,V*08
$PSSN,HRP,143007.00,010125,,,,,,,00,0,,*60
$PTNL,AVR,143007.00,,Yaw,,Tilt,,,,0,,00*36
$GPGSA,A,3,06,11,12,20,24,25,28,29,31,32,,,0.7,0.4,0.6*33
$GPGSA,A,3,69,70,77,78,79,81,87,88,,,,,0.7,0.4,0.6*38
$GPGSA,A,3,02,07,15,27,29,30,34,36,,,,,0.7,0.4,0.6*39
$GPGSA,A,3,05,08,10,11,12,13,23,24,25,34,35,38,0.7,0.4,0.6*30
$GPGSA,A,3,43,44,60,,,,,,,,,,0.7,0.4,0.6*36
$GPGST,143007.00,1.912,0.602,0.440,353.445,0.600,0.443,1.032*5C
$GPGBS,143007.00,3.881,2.365,6.882,77,0.0001,-5.390,6.417*7D
$GPGRS,143007.00,1,-0.3,-0.1,0.4,-4.4,-0.3,-0.4,0.6,0.2,1.3,-0.9,,*41
$GPGRS,143007.00,1,1.9,-1.1,-5.4,-1.2,1.4,4.7,-3.0,0.6,,,,*46
$GPGRS,143007.00,1,0.9,-1.3,0.9,-0.4,0.0,-0.4,0.7,-0.0,,,,*4A
$GPGRS,143007.00,1,1.4,0.9,2.5,1.9,0.6,-0.3,1.6,-1.0,-1.3,0.5,-0.9,-1.5*68
$GPGRS,143007.00,1,-1.9,-1.2,-1.6,,,,,,,,,*40
$GPGSV,5,1,19,25,81,336,49,32,22,257,44,06,18,038,40,31,13,316,40*71
$GPGSV,5,2,19,24,14,158,38,11,39,073,46,28,38,306,45,29,53,224,48*7E
$GPGSV,5,3,19,12,50,087,48,20,05,096,36,36,35,170,45,58,13,245,36*72
$GPGSV,5,4,19,40,23,133,37,34,31,208,43,49,34,195,45,57,04,114,36*79
$GPGSV,5,5,19,41,07,108,35,61,03,257,38*73
$GLGSV,2,1,08,78,76,049,52,70,11,345,35,69,15,284,44,81,23,189,47*67
$GLGSV,2,2,08,77,23,115,40,87,33,035,47,79,36,313,49,88,68,133,52*68
$GAGSV,3,1,10,30,70,071,49,15,21,161,41,19,15,323,34,07,17,222,40*6E
$GAGSV,3,2,10,02,18,093,41,36,25,043,41,29,28,277,43,34,44,104,46*68
$GAGSV,3,3,10,27,51,289,46,21,01,279,*67
$GBGSV,6,1,22,12,69,126,49,43,10,209,40,08,11,086,37,35,14,044,42*66
$GBGSV,6,2,22,23,15,304,42,11,29,197,45,05,20,130,38,38,14,072,41*6E
$GBGSV,6,3,22,10,15,068,38,56,22,055,,31,30,089,,34,53,186,50*66
$GBGSV,6,4,22,24,54,130,50,44,56,071,50,25,67,296,51,32,05,312,40*66
$GBGSV,6,5,22,07,02,067,36,13,10,094,38,02,05,108,33,26,05,127,28*6D
$GBGSV,6,6,22,20,10,317,,60,09,110,39*68
$GPGGA,143007.00,,,,,0,00,,,M,,M,,*49
$PTNL,GGK,143007.00,010125,4742.1599281,N,01618.1013600,E,1,41,0.7,EHT751.3915,M*45
$GPGGQ,143007.00,010125,4742.1599281,N,01618.1013600,E,1,41,1.273,708.1850,M*35
$GPGFA,143007.00,5.727,8.459,0.602,0.440,353.445,1.032,,VVV*01
$GPLLK,143007.00,010125,,M,,M,1,41,0.8,,M*07
$GNGMP,143007.00,,,,,DAAA,41,0.4,,,,*56
$GPGMP,143007.00,,,,,,10,,,,2.0,136*7B
$GLGMP,143007.00,,,,,,08,,,,,*76
$GAGMP,143007.00,,,,,,08,,,,,*7B
$GBGMP,143007.00,,,,,,15,,,,,*74
$PSSN,SNC,[0,311425000,2347]*44
$GPZDA,143012.00,01,01,2025,,*66
$GPDTM,W84,,00.0000000,N,00.0000000,E,00.0000000,W84*5F
$PSSN,TFM,143012.00,,,,*6A
$GPRMC,143012.00,A,4742.1599249,N,01618.1013612,E,0.0,,010125,5.1,E,D*1E
$GPGLL,4742.1599249,N,01618.1013612,E,143012.00,A,D*6F
$GPGGA,143012.00,4742.1599249,N,01618.1013612,E,2,40,0.4,708.1851,M,43.2065,M,2.1,0136*41
$GNGNS,143012.00,4742.1599249,N,01618.1013612,E,DAAA,40,0.4,708.1851,43.2065,,*5A
$GPGNS,143012.00,,,,,,10,,,,2.1,136*7E
$GLGNS,143012.00,,,,,,07,,,,,*7D
$GAGNS,143012.00,,,,,,08,,,,,*7F
$GBGNS,143012.00,,,,,,15,,,,,*70
$GPLLQ,143012.00,010125,,M,,M,1,40,1.272,,M*16
$GPVTG,,T,,M,0.00,N,0.00,K,D*26
$GPHDT,,T*1B
$GPTHS,,V*0E
$GPROT,,V*08
$PSSN,HRP,143012.00,010125,,,,,,,00,0,,*64
$PTNL,AVR,143012.00,,Yaw,,Tilt,,,,0,,00*32
$GPGSA,A,3,06,11,12,20,24,25,28,29,31,32,,,0.7,0.4,0.6*33
$GPGSA,A,3,69,77,78,79,81,87,88,,,,,,0.7,0.4,0.6*3F
$GPGSA,A,3,02,07,15,27,29,30,34,36,,,,,0.7,0.4,0.6*39
$GPGSA,A,3,05,08,10,11,12,13,23,24,25,34,35,38,0.7,0.4,0.6*30
$GPGSA,A,3,43,44,60,,,,,,,,,,0.7,0.4,0.6*36
$GPGST,143012.00,1.930,0.603,0.440,353.367,0.601,0.443,1.030*5D
$GPGBS,143012.00,3.898,2.385,6.894,32,0.0001,-1.313,1.525*71
$GPGRS,143012.00,1,-0.4,-0.0,0.4,-4.5,-0.5,-0.3,0.4,0.3,1.6,-1.3,,*4E
$GPGRS,143012.00,1,2.1,-5.2,-1.0,1.0,5.3,-3.4,0.5,,,,,*48
$GPGRS,143012.00,1,0.8,-0.9,0.7,-0.3,0.2,-0.3,0.7,0.1,,,,*64
$GPGRS,143012.00,1,1.2,1.0,2.1,1.3,0.6,0.1,1.6,-0.7,-1.3,0.7,-0.6,-1.5*48
$GPGRS,143012.00,1,-1.7,-1.0,-1.4,,,,,,,,,*4A
$GPGSV,5,1,19,25,81,336,49,32,22,257,43,06,18,038,39,31,13,316,40*78
$GPGSV,5,2,19,24,14,158,38,11,39,073,46,28,38,306,45,29,53,224,48*7E
$GPGSV,5,3,19,12,50,087,48,20,05,096,36,36,35,170,45,58,13,245,37*73
$GPGSV,5,4,19,40,23,133,37,34,31,208,43,49,34,195,45,57,04,114,36*79
$GPGSV,5,5,19,41,07,108,35,61,03,257,38*73
$GLGSV,2,1,08,78,76,049,51,70,11,345,33,69,15,284,45,81,23,189,47*63
$GLGSV,2,2,08,77,23,115,41,87,33,035,46,79,36,313,49,88,68,133,52*68
$GAGSV,3,1,10,30,70,071,49,15,22,161,40,19,15,323,35,07,17,222,40*6D
$GAGSV,3,2,10,02,18,093,41,36,25,043,41,29,28,277,43,34,44,104,47*69
$GAGSV,3,3,10,27,51,289,46,21,01,279,*67
$GBGSV,6,1,22,12,69,126,49,43,10,209,40,08,11,086,36,35,14,044,42*67
$GBGSV,6,2,22,23,15,304,42,11,29,197,44,05,20,130,38,38,14,072,41*6F
$GBGSV,6,3,22,10,15,068,38,56,22,055,,31,30,089,,34,53,186,50*66
$GBGSV,6,4,22,24,54,130,51,44,56,071,50,25,67,296,51,32,05,312,40*67
$GBGSV,6,5,22,07,02,067,36,13,10,094,38,02,05,108,33,26,05,127,29*6C
$GBGSV,6,6,22,20,10,317,,60,09,110,39*68
$GPGGA,143012.00,,,,,0,00,,,M,,M,,*4D
$PTNL,GGK,143012.00,010125,4742.1599249,N,01618.1013612,E,1,40,0.7,EHT751.3917,M*45
$GPGGQ,143012.00,010125,4742.1599249,N,01618.1013612,E,1,40,1.272,708.1851,M*37
$GPGFA,143012.00,5.736,8.446,0.603,0.440,353.367,1.030,,VVV*0F
$GPLLK,143012.00,010125,,M,,M,1,40,0.8,,M*02
$GNGMP,143012.00,,,,,DAAA,40,0.4,,,,*53
$GPGMP,143012.00,,,,,,10,,,,2.1,136*7E
$GLGMP,143012.00,,,,,,07,,,,,*7D
$GAGMP,143012.00,,,,,,08,,,,,*7F
$GBGMP,143012.00,,,,,,15,,,,,*70
$PSSN,SNC,[0,311430000,2347]*40
$GPZDA,143017.00,01,01,2025,,*63
$GPDTM,W84,,00.0000000,N,00.0000000,E,00.0000000,W84*5F
$PSSN,TFM,143017.00,,,,*6F
$GPRMC,143017.00,A,4742.1599236,N,01618.1013615,E,0.0,,010125,5.1,E,D*14
$GPGLL,4742.1599236,N,01618.1013615,E,143017.00,A,D*65
$GPGGA,143017.00,4742.1599236,N,01618.1013615,E,2,40,0.4,708.1813,M,43.2065,M,3.1,0136*4C
$GNGNS,143017.00,4742.1599236,N,01618.1013615,E,DAAA,40,0.4,708.1813,43.2065,,*56
$GPGNS,143017.00,,,,,,10,,,,3.1,136*7A
$GLGNS,143017.00,,,,,,07,,,,,*78
$GAGNS,143017.00,,,,,,08,,,,,*7A
$GBGNS,143017.00,,,,,,15,,,,,*75
$GPLLQ,143017.00,010125,,M,,M,1,40,1.269,,M*19
$GPVTG,,T,,M,0.00,N,0.00,K,D*26
$GPHDT,,T*1B
$GPTHS,,V*0E
$GPROT,,V*08
$PSSN,HRP,143017.00,010125,,,,,,,00,0,,*61
$PTNL,AVR,143017.00,,Yaw,,Tilt,,,,0,,00*37
$GPGSA,A,3,06,11,12,20,24,25,28,29,31,32,,,0.7,0.4,0.6*33
$GPGSA,A,3,69,77,78,79,81,87,88,,,,,,0.7,0.4,0.6*3F
$GPGSA,A,3,02,07,15,27,29,30,34,36,,,,,0.7,0.4,0.6*39
$GPGSA,A,3,05,08,10,11,12,13,23,24,25,34,35,38,0.7,0.4,0.6*30
$GPGSA,A,3,43,44,60,,,,,,,,,,0.7,0.4,0.6*36
$GPGST,143017.00,1.829,0.604,0.444,353.579,0.602,0.446,1.024*58
$GPGBS,143017.00,3.925,2.396,6.929,77,0.0001,-4.836,6.418*76
$GPGRS,143017.00,1,-0.6,-0.0,0.3,-4.5,-0.2,-0.4,0.3,0.5,1.6,-1.0,,*4C
$GPGRS,143017.00,1,1.9,-4.8,-1.2,1.2,4.3,-3.7,0.1,,,,,*4B
$GPGRS,143017.00,1,0.9,-1.2,0.6,-0.2,0.4,-0.2,0.7,-0.2,,,,*43
$GPGRS,143017.00,1,1.6,0.6,1.6,1.3,0.2,0.2,1.9,-0.5,-1.1,0.7,-0.6,-1.4*43
$GPGRS,143017.00,1,-1.6,-0.8,-1.3,,,,,,,,,*40
$GPGSV,5,1,19,25,81,336,49,32,22,257,43,06,18,038,39,31,13,316,41*79
$GPGSV,5,2,19,24,14,158,38,11,39,073,46,28,38,306,45,29,53,224,48*7E
$GPGSV,5,3,19,12,50,087,48,20,05,096,36,36,35,170,46,58,13,245,37*70
$GPGSV,5,4,19,40,23,133,37,34,31,208,43,49,34,195,45,57,04,114,37*78
$GPGSV,5,5,19,41,07,108,35,61,03,257,38*73
$GLGSV,2,1,08,78,76,049,51,70,11,345,33,69,15,283,44,81,23,189,46*64
$GLGSV,2,2,08,77,23,115,41,87,33,035,46,79,36,313,49,88,68,133,52*68
$GAGSV,3,1,10,30,70,071,49,15,22,161,40,19,15,323,34,07,17,222,40*6C
$GAGSV,3,2,10,02,18,093,41,36,25,043,41,29,28,277,42,34,44,104,46*69
$GAGSV,3,3,10,27,51,289,47,21,01,279,*66
$GBGSV,6,1,22,12,69,126,49,43,10,209,39,08,11,086,36,35,14,044,42*69
$GBGSV,6,2,22,23,15,304,42,11,29,197,45,05,20,130,38,38,14,072,41*6E
$GBGSV,6,3,22,10,15,068,38,56,22,055,,31,30,089,,34,53,186,50*66
$GBGSV,6,4,22,24,54,130,51,44,56,071,50,25,67,296,51,32,05,312,39*69
$GBGSV,6,5,22,07,02,067,36,13,10,094,38,02,05,108,34,26,05,127,28*6A
$GBGSV,6,6,22,20,10,317,,60,09,110,39*68
$GPGGA,143017.00,,,,,0,00,,,M,,M,,*48
$PTNL,GGK,143017.00,010125,4742.1599236,N,01618.1013615,E,1,40,0.7,EHT751.3878,M*47
$GPGGQ,143017.00,010125,4742.1599236,N,01618.1013615,E,1,40,1.269,708.1813,M*31
$GPGFA,143017.00,5.742,8.393,0.604,0.444,353.579,1.024,,VVV*09
$GPLLK,143017.00,010125,,M,,M,1,40,0.8,,M*07
$GNGMP,143017.00,,,,,DAAA,40,0.4,,,,*56
$GPGMP,143017.00,,,,,,10,,,,3.1,136*7A
$GLGMP,143017.00,,,,,,07,,,,,*78
$GAGMP,143017.00,,,,,,08,,,,,*7A
$GBGMP,143017.00,,,,,,15,,,,,*75
$PSSN,SNC,[0,311435000,2347]*45
$GPZDA,143022.00,01,01,2025,,*65
$GPDTM,W84,,00.0000000,N,00.0000000,E,00.0000000,W84*5F
$PSSN,TFM,143022.00,,,,*69
$GPRMC,143022.00,A,4742.1599245,N,01618.1013641,E,0.0,,010125,5.1,E,D*17
$GPGLL,4742.1599245,N,01618.1013641,E,143022.00,A,D*66
$GPGGA,143022.00,4742.1599245,N,01618.1013641,E,2,41,0.4,708.1844,M,43.2065,M,2.8,0136*44
$GNGNS,143022.00,4742.1599245,N,01618.1013641,E,DAAA,41,0.4,708.1844,43.2065,,*56
$GPGNS,143022.00,,,,,,10,,,,2.8,136*74
$GLGNS,143022.00,,,,,,07,,,,,*7E
$GAGNS,143022.00,,,,,,09,,,,,*7D
$GBGNS,143022.00,,,,,,15,,,,,*73
$GPLLQ,143022.00,010125,,M,,M,1,41,1.271,,M*17
$GPVTG,,T,,M,0.00,N,0.00,K,D*26
$GPHDT,,T*1B
$GPTHS,,V*0E
$GPROT,,V*08
$PSSN,HRP,143022.00,010125,,,,,,,00,0,,*67
$PTNL,AVR,143022.00,,Yaw,,Tilt,,,,0,,00*31
$GPGSA,A,3,06,11,12,20,24,25,28,29,31,32,,,0.7,0.4,0.6*33
$GPGSA,A,3,69,77,78,79,81,87,88,,,,,,0.7,0.4,0.6*3F
$GPGSA,A,3,02,07,15,19,27,29,30,34,36,,,,0.7,0.4,0.6*31
$GPGSA,A,3,05,08,10,11,12,13,23,24,25,34,35,38,0.7,0.4,0.6*30
$GPGSA,A,3,43,44,60,,,,,,,,,,0.7,0.4,0.6*36
$GPGST,143022.00,1.882,0.603,0.443,354.000,0.601,0.445,1.027*50
$GPGBS,143022.00,3.932,2.361,6.908,31,0.0001,1.906,2.300*5F
$GPGRS,143022.00,1,-1.0,0.1,0.1,-4.2,-0.4,-0.5,0.4,0.5,1.9,-0.5,,*6F
$GPGRS,143022.00,1,2.0,-5.1,-1.0,1.5,4.3,-3.9,0.2,,,,,*47
$GPGRS,143022.00,1,1.1,-1.6,1.1,-1.8,-0.4,0.6,-0.1,0.8,0.2,,,*61
$GPGRS,143022.00,1,1.2,0.5,1.3,1.8,0.4,0.4,1.7,-0.6,-1.1,0.7,-0.6,-1.7*42
$GPGRS,143022.00,1,-1.6,-0.6,-1.6,,,,,,,,,*4D
$GPGSV,5,1,19,25,81,336,49,32,22,257,44,06,18,038,39,31,13,316,40*7F
$GPGSV,5,2,19,24,14,158,38,11,38,073,46,28,38,306,45,29,53,224,49*7E
$GPGSV,5,3,19,12,50,087,47,20,05,096,37,36,35,170,46,58,13,245,36*7F
$GPGSV,5,4,19,40,23,133,37,34,31,208,43,49,34,195,45,57,04,114,37*78
$GPGSV,5,5,19,41,07,108,35,61,03,257,38*73
$GLGSV,2,1,08,78,76,049,51,70,11,345,33,69,15,283,44,81,23,189,47*65
$GLGSV,2,2,08,77,23,115,41,87,33,035,47,79,36,313,50,88,68,133,52*61
$GAGSV,3,1,10,30,70,071,49,15,22,161,41,19,15,323,35,07,17,222,41*6D
$GAGSV,3,2,10,02,18,093,41,36,25,043,42,29,28,277,43,34,44,104,47*6A
$GAGSV,3,3,10,27,51,289,47,21,01,279,*66
$GBGSV,6,1,22,12,69,125,49,43,10,209,40,13,10,094,38,35,14,044,42*62
$GBGSV,6,2,22,23,15,304,42,11,29,197,44,08,11,086,36,05,20,130,38*62
$GBGSV,6,3,22,10,15,068,37,56,22,055,,38,14,072,40,34,53,186,50*66
$GBGSV,6,4,22,31,30,089,,24,54,130,50,44,56,071,50,25,67,296,51*66
$GBGSV,6,5,22,02,05,108,33,26,05,127,28,07,02,067,36,32,05,312,39*66
$GBGSV,6,6,22,20,10,317,,60,09,110,39*68
$GPGGA,143022.00,,,,,0,00,,,M,,M,,*4E
$PTNL,GGK,143022.00,010125,4742.1599245,N,01618.1013641,E,1,41,0.7,EHT751.3910,M*4A
$GPGGQ,143022.00,010125,4742.1599245,N,01618.1013641,E,1,41,1.271,708.1844,M*38
$GPGFA,143022.00,5.732,8.424,0.603,0.443,354.000,1.027,,VVV*0C
$GPLLK,143022.00,010125,,M,,M,1,41,0.8,,M*00
$GNGMP,143022.00,,,,,DAAA,41,0.4,,,,*51
$GPGMP,143022.00,,,,,,10,,,,2.8,136*74
$GLGMP,143022.00,,,,,,07,,,,,*7E
$GAGMP,143022.00,,,,,,09,,,,,*7D
$GBGMP,143022.00,,,,,,15,,,,,*73
$PSSN,SNC,[0,311440000,2347]*47
$GPZDA,143027.00,01,01,2025,,*60
$GPDTM,W84,,00.0000000,N,00.0000000,E,00.0000000,W84*5F
$PSSN,TFM,143027.00,,,,*6C
$GPRMC,143027.00,A,4742.1599233,N,01618.1013685,E,0.0,,010125,5.1,E,D*1B
$GPGLL,4742.1599233,N,01618.1013685,E,143027.00,A,D*6A
$GPGGA,143027.00,4742.1599233,N,01618.1013685,E,2,40,0.4,708.1836,M,43.2065,M,2.0,0136*44
$GNGNS,143027.00,4742.1599233,N,01618.1013685,E,DAAA,40,0.4,708.1836,43.2065,,*5E
$GPGNS,143027.00,,,,,,10,,,,2.0,136*79
$GLGNS,143027.00,,,,,,07,,,,,*7B
$GAGNS,143027.00,,,,,,08,,,,,*79
$GBGNS,143027.00,,,,,,15,,,,,*76
$GPLLQ,143027.00,010125,,M,,M,1,40,1.277,,M*15
$GPVTG,,T,,M,0.00,N,0.01,K,D*27
$GPHDT,,T*1B
$GPTHS,,V*0E
$GPROT,,V*08
$PSSN,HRP,143027.00,010125,,,,,,,00,0,,*62
$PTNL,AVR,143027.00,,Yaw,,Tilt,,,,0,,00*34
$GPGSA,A,3,06,11,12,20,24,25,28,29,31,32,,,0.7,0.4,0.6*33
$GPGSA,A,3,69,77,78,79,81,87,88,,,,,,0.7,0.4,0.6*3F
$GPGSA,A,3,02,07,15,27,29,30,34,36,,,,,0.7,0.4,0.6*39
$GPGSA,A,3,05,08,10,11,12,13,23,24,25,34,35,38,0.7,0.4,0.6*30
$GPGSA,A,3,43,44,60,,,,,,,,,,0.7,0.4,0.6*36
$GPGST,143027.00,1.792,0.607,0.440,353.342,0.605,0.443,1.033*59
$GPGBS,143027.00,3.908,2.377,6.896,77,0.0001,-5.088,6.420*77
$GPGRS,143027.00,1,-0.1,0.0,0.2,-4.4,-0.6,-0.5,0.4,0.3,1.1,-0.8,,*6F
$GPGRS,143027.00,1,1.8,-5.1,-1.1,1.4,4.4,-3.1,0.3,,,,,*47
$GPGRS,143027.00,1,0.9,-1.8,0.8,-0.5,0.5,-0.4,0.8,0.2,,,,*66
$GPGRS,143027.00,1,1.4,0.1,0.5,1.5,0.4,0.2,1.5,-0.6,-1.1,0.6,-0.5,-1.3*4D
$GPGRS,143027.00,1,-1.6,-0.8,-1.4,,,,,,,,,*44
$GPGSV,5,1,19,25,81,337,49,32,22,257,44,06,18,038,39,31,13,316,41*7F
$GPGSV,5,2,19,24,14,158,38,11,38,073,46,28,38,306,45,29,53,224,48*7F
$GPGSV,5,3,19,12,50,087,47,20,05,096,36,36,35,170,45,58,13,245,37*7C
$GPGSV,5,4,19,40,23,133,37,34,31,208,43,49,34,195,45,57,04,114,37*78
$GPGSV,5,5,19,41,07,108,35,61,03,257,38*73
$GLGSV,2,1,08,78,76,050,51,70,11,345,34,69,15,283,44,81,23,189,46*6B
$GLGSV,2,2,08,77,23,115,41,87,33,035,47,79,36,313,49,88,68,133,52*69
$GAGSV,3,1,10,30,70,071,49,15,22,161,41,19,15,323,35,07,17,222,41*6D
$GAGSV,3,2,10,02,18,093,41,36,25,043,41,29,28,277,43,34,44,104,46*68
$GAGSV,3,3,10,27,51,290,47,21,01,279,*6E
$GBGSV,6,1,22,12,69,125,49,43,10,209,40,13,10,094,38,35,14,044,42*62
$GBGSV,6,2,22,23,15,304,41,11,29,197,44,08,11,086,35,05,20,130,38*62
$GBGSV,6,3,22,10,15,068,37,56,22,055,,38,14,072,41,34,53,186,50*67
$GBGSV,6,4,22,31,31,089,,24,54,130,51,44,56,071,50,25,67,296,51*66
$GBGSV,6,5,22,02,05,108,33,26,05,127,31,07,02,067,36,32,05,312,39*6E
$GBGSV,6,6,22,20,10,317,,60,09,110,39*68
$GPGGA,143027.00,,,,,0,00,,,M,,M,,*4B
$PTNL,GGK,143027.00,010125,4742.1599233,N,01618.1013685,E,1,40,0.7,EHT751.3901,M*47
$GPGGQ,143027.00,010125,4742.1599233,N,01618.1013685,E,1,40,1.277,708.1836,M*36
$GPGFA,143027.00,5.769,8.475,0.607,0.440,353.342,1.033,,VVV*03
$GPLLK,143027.00,010125,,M,,M,1,40,0.8,,M*04
$GNGMP,143027.00,,,,,DAAA,40,0.4,,,,*55
$GPGMP,143027.00,,,,,,10,,,,2.0,136*79
$GLGMP,143027.00,,,,,,07,,,,,*7B
$GAGMP,143027.00,,,,,,08,,,,,*79
$GBGMP,143027.00,,,,,,15,,,,,*76
$PSSN,SNC,[0,311445000,2347]*42
$GPZDA,143032.00,01,01,2025,,*64
$GPDTM,W84,,00.0000000,N,00.0000000,E,00.0000000,W84*5F
$PSSN,TFM,143032.00,,,,*68
$GPRMC,143032.00,A,4742.1599226,N,01618.1013695,E,0.0,,010125,5.1,E,D*1A
$GPGLL,4742.1599226,N,01618.1013695,E,143032.00,A,D*6B
$GPGGA,143032.00,4742.1599226,N,01618.1013695,E,2,41,0.4,708.1830,M,43.2065,M,2.1,0136*43
$GNGNS,143032.00,4742.1599226,N,01618.1013695,E,DAAA,41,0.4,708.1830,43.2065,,*58
$GPGNS,143032.00,,,,,,10,,,,2.1,136*7C
$GLGNS,143032.00,,,,,,07,,,,,*7F
$GAGNS,143032.00,,,,,,09,,,,,*7C
$GBGNS,143032.00,,,,,,15,,,,,*72
$GPLLQ,143032.00,010125,,M,,M,1,41,1.267,,M*11
$GPVTG,,T,,M,0.01,N,0.01,K,D*26
$GPHDT,,T*1B
$GPTHS,,V*0E
$GPROT,,V*08
$PSSN,HRP,143032.00,010125,,,,,,,00,0,,*66
$PTNL,AVR,143032.00,,Yaw,,Tilt,,,,0,,00*30
$GPGSA,A,3,06,11,12,20,24,25,28,29,31,32,,,0.7,0.4,0.6*33
$GPGSA,A,3,69,77,78,79,81,87,88,,,,,,0.7,0.4,0.6*3F
$GPGSA,A,3,02,07,15,19,27,29,30,34,36,,,,0.7,0.4,0.6*31
$GPGSA,A,3,05,08,10,11,12,13,23,24,25,34,35,38,0.7,0.4,0.6*30
$GPGSA,A,3,43,44,60,,,,,,,,,,0.7,0.4,0.6*36
$GPGST,143032.00,1.850,0.600,0.440,353.810,0.598,0.442,1.026*55
$GPGBS,143032.00,3.868,2.378,6.863,77,0.0001,-4.946,6.421*7A
$GPGRS,143032.00,1,-0.6,-0.2,0.3,-4.9,-0.1,-0.3,0.4,0.2,1.7,-0.9,,*48
$GPGRS,143032.00,1,1.7,-4.9,-0.7,1.4,4.3,-3.5,0.1,,,,,*43
$GPGRS,143032.00,1,0.8,-1.4,0.9,-1.6,-0.2,0.4,-0.4,0.7,0.1,,,*60
$GPGRS,143032.00,1,1.7,-0.2,0.2,2.3,0.7,0.4,1.8,-0.6,-0.9,0.7,-0.4,-1.3*67
$GPGRS,143032.00,1,-1.2,-0.9,-1.4,,,,,,,,,*45
$GPGSV,5,1,19,25,81,337,49,32,22,257,44,06,18,038,39,31,13,316,41*7F
$GPGSV,5,2,19,24,14,158,39,11,38,073,46,28,38,306,45,29,53,224,48*7E
$GPGSV,5,3,19,12,50,087,48,20,05,096,36,36,35,170,46,58,13,245,36*71
$GPGSV,5,4,19,40,23,133,37,34,31,208,43,49,34,195,45,57,04,114,37*78
$GPGSV,5,5,19,41,07,108,35,61,03,257,38*73
$GLGSV,2,1,08,78,76,050,52,70,11,345,34,69,15,283,44,81,23,189,47*69
$GLGSV,2,2,08,77,23,115,41,87,33,035,46,79,36,313,49,88,68,133,52*68
$GAGSV,3,1,10,30,70,071,49,15,22,161,41,19,15,323,35,07,16,222,41*6C
$GAGSV,3,2,10,02,18,093,41,36,25,043,42,29,28,277,43,34,44,104,46*6B
$GAGSV,3,3,10,27,51,290,47,21,01,279,*6E
$GBGSV,6,1,22,12,69,125,49,43,11,209,40,13,10,094,38,35,14,044,42*63
$GBGSV,6,2,22,23,15,304,42,11,29,197,45,08,11,086,35,05,20,130,38*60
$GBGSV,6,3,22,10,15,068,37,56,22,055,,38,14,072,41,34,53,186,50*67
$GBGSV,6,4,22,31,31,089,,24,54,130,50,44,56,071,50,25,67,296,51*67
$GBGSV,6,5,22,02,05,108,33,26,05,127,26,07,02,067,36,32,05,312,38*69
$GBGSV,6,6,22,20,10,317,,60,09,110,39*68
$GPGGA,143032.00,,,,,0,00,,,M,,M,,*4F
$PTNL,GGK,143032.00,010125,4742.1599226,N,01618.1013695,E,1,41,0.7,EHT751.3896,M*48
$GPGGQ,143032.00,010125,4742.1599226,N,01618.1013695,E,1,41,1.267,708.1830,M*31
$GPGFA,143032.00,5.700,8.416,0.600,0.440,353.810,1.026,,VVV*02
$GPLLK,143032.00,010125,,M,,M,1,41,0.8,,M*01
$GNGMP,143032.00,,,,,DAAA,41,0.4,,,,*50
$GPGMP,143032.00,,,,,,10,,,,2.1,136*7C
$GLGMP,143032.00,,,,,,07,,,,,*7F
$GAGMP,143032.00,,,,,,09,,,,,*7C
$GBGMP,143032.00,,,,,,15,,,,,*72
$PSSN,SNC,[0,311450000,2347]*46
$GPZDA,143037.00,01,01,2025,,*61
$GPDTM,W84,,00.0000000,N,00.0000000,E,00.0000000,W84*5F
$PSSN,TFM,143037.00,,,,*6D
$GPRMC,143037.00,A,4742.1599224,N,01618.1013711,E,0.0,,010125,5.1,E,D*10
$GPGLL,4742.1599224,N,01618.1013711,E,143037.00,A,D*61
$GPGGA,143037.00,4742.1599224,N,01618.1013711,E,2,40,0.4,708.1837,M,43.2065,M,3.1,0136*4E
$GNGNS,143037.00,4742.1599224,N,01618.1013711,E,DAAA,40,0.4,708.1837,43.2065,,*54
$GPGNS,143037.00,,,,,,10,,,,3.1,136*78
$GLGNS,143037.00,,,,,,07,,,,,*7A
$GAGNS,143037.00,,,,,,08,,,,,*78
$GBGNS,143037.00,,,,,,15,,,,,*77
$GPLLQ,143037.00,010125,,M,,M,1,40,1.266,,M*14
$GPVTG,,T,,M,0.00,N,0.00,K,D*26
$GPHDT,,T*1B
$GPTHS,,V*0E
$GPROT,,V*08
$PSSN,HRP,143037.00,010125,,,,,,,00,0,,*63
$PTNL,AVR,143037.00,,Yaw,,Tilt,,,,0,,00*35
$GPGSA,A,3,06,11,12,20,24,25,28,29,31,32,,,0.7,0.4,0.6*33
$GPGSA,A,3,69,77,78,79,81,87,88,,,,,,0.7,0.4,0.6*3F
$GPGSA,A,3,02,07,15,27,29,30,34,36,,,,,0.7,0.4,0.6*39
$GPGSA,A,3,05,08,10,11,12,13,23,24,25,34,35,38,0.7,0.4,0.6*30
$GPGSA,A,3,43,44,60,,,,,,,,,,0.7,0.4,0.6*36
$GPGST,143037.00,1.873,0.603,0.443,353.778,0.601,0.446,1.021*50
$GPGBS,143037.00,3.929,2.403,6.913,81,0.0001,4.712,6.476*5F
$GPGRS,143037.00,1,-0.5,-0.1,0.5,-4.5,-0.2,-0.4,0.4,0.4,1.6,-0.8,,*45
$GPGRS,143037.00,1,2.2,-4.3,-0.9,1.3,4.7,-3.9,0.4,,,,,*4E
$GPGRS,143037.00,1,0.9,-1.4,0.8,-0.4,0.2,-0.2,1.1,-0.6,,,,*4A
$GPGRS,143037.00,1,1.3,0.1,0.5,2.4,0.3,-0.1,2.3,-0.8,-1.3,0.8,-0.7,-1.6*60
$GPGRS,143037.00,1,-1.0,-0.9,-1.6,,,,,,,,,*40
$GPGSV,5,1,19,25,81,337,49,32,22,257,43,06,18,038,39,31,14,316,40*7E
$GPGSV,5,2,19,24,14,158,39,11,38,073,46,28,38,306,45,29,53,224,48*7E
$GPGSV,5,3,19,12,50,087,47,20,05,096,36,36,35,170,46,58,13,245,36*7E
$GPGSV,5,4,19,40,23,133,37,34,31,208,43,49,34,195,45,57,04,114,37*78
$GPGSV,5,5,19,41,07,108,35,61,03,257,38*73
$GLGSV,2,1,08,78,76,050,51,70,11,345,34,69,14,283,45,81,23,189,47*6A
$GLGSV,2,2,08,77,22,115,41,87,33,035,46,79,36,313,49,88,68,133,52*69
$GAGSV,3,1,10,30,70,071,49,15,22,161,41,19,15,323,35,07,16,222,40*6D
$GAGSV,3,2,10,02,18,093,41,36,25,043,41,29,28,277,43,34,44,104,46*68
$GAGSV,3,3,10,27,51,290,47,21,01,279,*6E
$GBGSV,6,1,22,12,69,125,49,43,11,209,40,13,10,094,38,35,14,044,42*63
$GBGSV,6,2,22,23,15,304,42,11,29,197,45,08,11,086,35,05,20,130,38*60
$GBGSV,6,3,22,10,15,068,37,56,22,055,,38,14,072,41,34,53,186,50*67
$GBGSV,6,4,22,31,31,089,,24,54,130,50,44,56,070,50,25,67,296,51*66
$GBGSV,6,5,22,02,05,108,33,26,05,127,25,07,02,067,36,32,05,312,39*6B
$GBGSV,6,6,22,20,10,317,,60,09,110,39*68
$GPGGA,143037.00,,,,,0,00,,,M,,M,,*4A
$PTNL,GGK,143037.00,010125,4742.1599224,N,01618.1013711,E,1,40,0.7,EHT751.3902,M*4F
$GPGGQ,143037.00,010125,4742.1599224,N,01618.1013711,E,1,40,1.266,708.1837,M*3C
$GPGFA,143037.00,5.730,8.369,0.603,0.443,353.778,1.021,,VVV*0D
$GPLLK,143037.00,010125,,M,,M,1,40,0.8,,M*05
$GNGMP,143037.00,,,,,DAAA,40,0.4,,,,*54
$GPGMP,143037.00,,,,,,10,,,,3.1,136*78
$GLGMP,143037.00,,,,,,07,,,,,*7A
$GAGMP,143037.00,,,,,,08,,,,,*78
$GBGMP,143037.00,,,,,,15,,,,,*77
$PSSN,SNC,[0,311455000,2347]*43
$GPZDA,143042.00,01,01,2025,,*63
$GPDTM,W84,,00.0000000,N,00.0000000,E,00.0000000,W84*5F
$PSSN,TFM,143042.00,,,,*6F
$GPRMC,143042.00,A,4742.1599221,N,01618.1013736,E,0.0,,010125,5.1,E,D*12
$GPGLL,4742.1599221,N,01618.1013736,E,143042.00,A,D*63
$GPGGA,143042.00,4742.1599221,N,01618.1013736,E,2,41,0.4,708.1838,M,43.2065,M,2.8,0136*4A
$GNGNS,143042.00,4742.1599221,N,01618.1013736,E,DAAA,41,0.4,708.1838,43.2065,,*58
$GPGNS,143042.00,,,,,,10,,,,2.8,136*72
$GLGNS,143042.00,,,,,,07,,,,,*78
$GAGNS,143042.00,,,,,,09,,,,,*7B
$GBGNS,143042.00,,,,,,15,,,,,*75
$GPLLQ,143042.00,010125,,M,,M,1,41,1.272,,M*12
$GPVTG,,T,,M,0.00,N,0.01,K,D*27
$GPHDT,,T*1B
$GPTHS,,V*0E
$GPROT,,V*08
$PSSN,HRP,143042.00,010125,,,,,,,00,0,,*61
$PTNL,AVR,143042.00,,Yaw,,Tilt,,,,0,,00*37
$GPGSA,A,3,06,11,12,20,24,25,28,29,31,32,,,0.7,0.4,0.6*33
$GPGSA,A,3,69,77,78,79,81,87,88,,,,,,0.7,0.4,0.6*3F
$GPGSA,A,3,02,07,15,19,27,29,30,34,36,,,,0.7,0.4,0.6*31
$GPGSA,A,3,05,08,10,11,12,13,23,24,25,34,35,38,0.7,0.4,0.6*30
$GPGSA,A,3,43,44,60,,,,,,,,,,0.7,0.4,0.6*36
$GPGST,143042.00,1.906,0.606,0.444,353.797,0.604,0.446,1.027*51
$GPGBS,143042.00,3.936,2.369,6.892,81,0.0001,5.091,6.475*5E
$GPGRS,143042.00,1,-0.6,-0.3,0.3,-4.2,-0.3,-0.4,0.6,0.4,0.5,-0.7,,*49
$GPGRS,143042.00,1,2.6,-4.9,-1.2,1.0,5.1,-4.4,0.1,,,,,*43
$GPGRS,143042.00,1,0.4,-1.8,0.5,-1.6,-0.3,-0.3,-0.1,0.8,-0.3,,,*65
$GPGRS,143042.00,1,1.1,0.6,0.9,1.8,0.1,0.1,1.4,-0.8,-1.4,0.6,-0.5,-1.4*46
$GPGRS,143042.00,1,-1.3,-0.9,-1.8,,,,,,,,,*4F
$GPGSV,5,1,19,25,81,337,49,32,22,257,43,06,18,038,39,31,14,316,40*7E
$GPGSV,5,2,19,24,14,158,39,11,38,073,46,28,38,306,45,29,53,224,48*7E
$GPGSV,5,3,19,12,50,087,48,20,05,096,37,36,35,170,45,58,13,245,36*73
$GPGSV,5,4,19,40,23,133,37,34,31,208,43,49,34,195,45,57,04,114,37*78
$GPGSV,5,5,19,41,07,108,35,61,03,257,38*73
$GLGSV,2,1,08,78,76,050,52,70,11,345,34,69,14,283,45,81,23,189,47*69
$GLGSV,2,2,08,77,22,115,41,87,33,035,46,79,36,313,50,88,68,133,52*61
$GAGSV,3,1,10,30,70,071,49,15,22,161,41,19,15,323,35,07,16,222,40*6D
$GAGSV,3,2,10,02,18,093,40,36,25,043,41,29,28,277,43,34,44,104,46*69
$GAGSV,3,3,10,27,51,290,47,21,01,279,*6E
$GBGSV,6,1,22,12,69,125,49,43,11,209,40,13,10,094,38,35,14,044,42*63
$GBGSV,6,2,22,23,15,304,42,11,29,197,45,08,11,086,36,05,20,130,38*63
$GBGSV,6,3,22,10,15,068,38,56,22,055,,38,14,072,41,34,53,186,50*68
$GBGSV,6,4,22,31,31,089,,24,54,130,51,44,56,070,50,25,67,296,51*67
$GBGSV,6,5,22,02,05,108,33,26,05,127,24,07,02,067,35,32,05,312,39*69
$GBGSV,6,6,22,20,10,317,,60,09,110,39*68
$GPGGA,143042.00,,,,,0,00,,,M,,M,,*48
$PTNL,GGK,143042.00,010125,4742.1599221,N,01618.1013736,E,1,41,0.7,EHT751.3903,M*4D
$GPGGQ,143042.00,010125,4742.1599221,N,01618.1013736,E,1,41,1.272,708.1838,M*35
$GPGFA,143042.00,5.762,8.421,0.606,0.444,353.797,1.027,,VVV*06
$GPLLK,143042.00,010125,,M,,M,1,41,0.8,,M*06
$GNGMP,143042.00,,,,,DAAA,41,0.4,,,,*57
$GPGMP,143042.00,,,,,,10,,,,2.8,136*72
$GLGMP,143042.00,,,,,,07,,,,,*78
$GAGMP,143042.00,,,,,,09,,,,,*7B
$GBGMP,143042.00,,,,,,15,,,,,*75
$PSSN,SNC,[0,311460000,2347]*45
$GPZDA,143047.00,01,01,2025,,*66
$GPDTM,W84,,00.0000000,N,00.0000000,E,00.0000000,W84*5F
$PSSN,TFM,143047.00,,,,*6A
$GPRMC,143047.00,A,4742.1599231,N,01618.1013743,E,0.0,,010125,5.1,E,D*14
$GPGLL,4742.1599231,N,01618.1013743,E,143047.00,A,D*65
$GPGGA,143047.00,4742.1599231,N,01618.1013743,E,2,40,0.4,708.1837,M,43.2065,M,2.0,0136*4A
$GNGNS,143047.00,4742.1599231,N,01618.1013743,E,DAAA,40,0.4,708.1837,43.2065,,*50
$GPGNS,143047.00,,,,,,10,,,,2.0,136*7F
$GLGNS,143047.00,,,,,,07,,,,,*7D
$GAGNS,143047.00,,,,,,08,,,,,*7F
$GBGNS,143047.00,,,,,,15,,,,,*70
$GPLLQ,143047.00,010125,,M,,M,1,40,1.277,,M*13
$GPVTG,,T,,M,0.00,N,0.00,K,D*26
$GPHDT,,T*1B
$GPTHS,,V*0E
$GPROT,,V*08
$PSSN,HRP,143047.00,010125,,,,,,,00,0,,*64
$PTNL,AVR,143047.00,,Yaw,,Tilt,,,,0,,00*32
$GPGSA,A,3,06,11,12,20,24,25,28,29,31,32,,,0.7,0.4,0.6*33
$GPGSA,A,3,69,77,78,79,81,87,88,,,,,,0.7,0.4,0.6*3F
$GPGSA,A,3,02,07,15,27,29,30,34,36,,,,,0.7,0.4,0.6*39
$GPGSA,A,3,05,08,10,11,12,13,23,24,25,34,35,38,0.7,0.4,0.6*30
$GPGSA,A,3,43,44,60,,,,,,,,,,0.7,0.4,0.6*36
$GPGST,143047.00,1.771,0.608,0.441,353.250,0.606,0.443,1.033*5D
$GPGBS,143047.00,3.913,2.386,6.882,25,0.0001,-0.685,0.848*7D
$GPGRS,143047.00,1,-0.2,-0.2,0.5,-3.9,-0.3,-0.7,0.5,0.4,0.9,-0.8,,*40
$GPGRS,143047.00,1,1.7,-4.4,-0.8,1.5,4.8,-3.8,0.5,,,,,*40
$GPGRS,143047.00,1,0.2,-1.5,0.4,-0.2,0.0,-0.1,0.8,0.3,,,,*6C
$GPGRS,143047.00,1,1.3,0.7,1.7,1.9,0.1,0.7,1.7,-0.4,-1.1,0.6,-0.1,-1.1*43
$GPGRS,143047.00,1,-1.1,-0.9,-1.2,,,,,,,,,*42
$GPGSV,5,1,19,25,81,337,49,32,21,257,43,06,18,038,40,31,14,316,40*73
$GPGSV,5,2,19,24,14,158,39,11,38,073,46,28,38,306,45,29,53,224,49*7F
$GPGSV,5,3,19,12,50,087,47,20,05,096,37,36,35,170,45,58,13,245,36*7C
$GPGSV,5,4,19,40,23,133,37,34,31,208,43,49,34,195,45,57,04,114,36*79
$GPGSV,5,5,19,41,07,108,35,61,03,257,38*73
$GLGSV,2,1,08,78,76,050,51,70,11,345,33,69,14,283,45,81,23,189,47*6D
$GLGSV,2,2,08,77,22,115,41,87,33,035,47,79,36,313,50,88,68,133,52*60
$GAGSV,3,1,10,30,70,072,49,15,22,161,41,19,15,323,35,07,16,222,40*6E
$GAGSV,3,2,10,02,18,093,41,36,25,043,41,29,28,277,43,34,44,104,46*68
$GAGSV,3,3,10,27,51,290,47,21,01,279,*6E
$GBGSV,6,1,22,12,69,125,49,43,11,209,41,13,10,094,38,35,14,044,42*62
$GBGSV,6,2,22,23,15,304,42,11,30,197,45,08,11,086,36,05,20,130,38*6B
$GBGSV,6,3,22,10,15,068,38,56,22,055,,38,14,072,41,34,53,186,50*68
$GBGSV,6,4,22,31,31,089,,24,54,130,50,44,56,070,50,25,67,296,51*66
$GBGSV,6,5,22,02,05,108,33,26,05,127,25,07,02,067,35,32,05,312,39*68
$GBGSV,6,6,22,20,10,317,,60,09,110,39*68
$GPGGA,143047.00,,,,,0,00,,,M,,M,,*4D
$PTNL,GGK,143047.00,010125,4742.1599231,N,01618.1013743,E,1,40,0.7,EHT751.3903,M*4A
$GPGGQ,143047.00,010125,4742.1599231,N,01618.1013743,E,1,40,1.277,708.1837,M*38
$GPGFA,143047.00,5.778,8.468,0.608,0.441,353.250,1.033,,VVV*05
$GPLLK,143047.00,010125,,M,,M,1,40,0.8,,M*02
$GNGMP,143047.00,,,,,DAAA,40,0.4,,,,*53
$GPGMP,143047.00,,,,,,10,,,,2.0,136*7F
$GLGMP,143047.00,,,,,,07,,,,,*7D
$GAGMP,143047.00,,,,,,08,,,,,*7F
$GBGMP,143047.00,,,,,,15,,,,,*70
$PSSN,SNC,[0,311465000,2347]*40
$GPZDA,143052.00,01,01,2025,,*62
$GPDTM,W84,,00.0000000,N,00.0000000,E,00.0000000,W84*5F
$PSSN,TFM,143052.00,,,,*6E
$GPRMC,143052.00,A,4742.1599225,N,01618.1013770,E,0.0,,010125,5.1,E,D*15
$GPGLL,4742.1599225,N,01618.1013770,E,143052.00,A,D*64
$GPGGA,143052.00,4742.1599225,N,01618.1013770,E,2,40,0.4,708.1833,M,43.2065,M,2.1,0136*4E
$GNGNS,143052.00,4742.1599225,N,01618.1013770,E,DAAA,40,0.4,708.1833,43.2065,,*55
$GPGNS,143052.00,,,,,,10,,,,2.1,136*7A
$GLGNS,143052.00,,,,,,07,,,,,*79
$GAGNS,143052.00,,,,,,08,,,,,*7B
$GBGNS,143052.00,,,,,,15,,,,,*74
$GPLLQ,143052.00,010125,,M,,M,1,40,1.272,,M*12
$GPVTG,,T,,M,0.00,N,0.01,K,D*27
$GPHDT,,T*1B
$GPTHS,,V*0E
$GPROT,,V*08
$PSSN,HRP,143052.00,010125,,,,,,,00,0,,*60
$PTNL,AVR,143052.00,,Yaw,,Tilt,,,,0,,00*36
$GPGSA,A,3,06,11,12,20,24,25,28,29,31,32,,,0.7,0.4,0.6*33
$GPGSA,A,3,69,77,78,79,81,87,88,,,,,,0.7,0.4,0.6*3F
$GPGSA,A,3,02,07,15,27,29,30,34,36,,,,,0.7,0.4,0.6*39
$GPGSA,A,3,05,08,10,11,12,13,23,24,25,34,35,38,0.7,0.4,0.6*30
$GPGSA,A,3,43,44,60,,,,,,,,,,0.7,0.4,0.6*36
$GPGST,143052.00,1.782,0.606,0.441,353.184,0.604,0.443,1.029*58
$GPGBS,143052.00,3.907,2.403,6.869,77,0.0001,-5.516,6.424*78
$GPGRS,143052.00,1,-0.4,-0.1,0.1,-4.0,-0.5,-0.4,0.5,0.4,1.2,-0.4,,*48
$GPGRS,143052.00,1,1.1,-5.5,-1.1,1.6,4.4,-2.8,0.1,,,,,*40
$GPGRS,143052.00,1,0.2,-1.4,0.7,-0.1,0.3,-0.3,0.6,0.5,,,,*60
$GPGRS,143052.00,1,1.4,0.5,1.7,2.1,0.1,0.6,1.8,-0.5,-1.0,0.6,-0.3,-1.0*44
$GPGRS,143052.00,1,-1.4,-0.9,-1.1,,,,,,,,,*40
$GPGSV,5,1,19,25,81,338,50,32,21,257,44,06,18,038,40,31,14,316,41*72
$GPGSV,5,2,19,24,14,158,40,11,38,073,46,28,39,306,46,29,53,224,49*73
$GPGSV,5,3,19,12,50,087,47,20,05,096,37,36,35,170,45,58,13,245,36*7C
$GPGSV,5,4,19,40,23,133,37,34,31,208,43,49,34,195,45,57,04,114,36*79
$GPGSV,5,5,19,41,07,108,35,61,03,257,38*73
$GLGSV,2,1,08,78,76,051,52,70,11,345,34,69,14,283,45,81,23,189,46*69
$GLGSV,2,2,08,77,22,115,40,87,33,035,47,79,36,313,49,88,68,133,52*69
$GAGSV,3,1,10,30,70,072,49,15,22,161,42,19,15,323,34,07,16,222,40*6C
$GAGSV,3,2,10,02,18,093,40,36,25,043,41,29,28,277,43,34,44,104,46*69
$GAGSV,3,3,10,27,51,290,47,21,01,279,*6E
$GBGSV,6,1,22,12,69,125,48,43,11,209,40,13,10,094,38,35,14,044,42*62
$GBGSV,6,2,22,23,15,304,42,11,30,197,45,08,11,086,36,05,20,130,38*6B
$GBGSV,6,3,22,10,15,068,38,56,22,055,,38,14,072,40,34,53,186,50*69
$GBGSV,6,4,22,31,31,089,,24,54,130,50,44,56,070,49,25,67,296,51*6E
$GBGSV,6,5,22,02,05,108,33,26,05,127,24,07,02,067,34,32,05,312,40*66
$GBGSV,6,6,22,20,10,317,,60,09,110,39*68
$GPGGA,143052.00,,,,,0,00,,,M,,M,,*49
$PTNL,GGK,143052.00,010125,4742.1599225,N,01618.1013770,E,1,40,0.7,EHT751.3899,M*49
$GPGGQ,143052.00,010125,4742.1599225,N,01618.1013770,E,1,40,1.272,708.1833,M*38
$GPGFA,143052.00,5.757,8.436,0.606,0.441,353.184,1.029,,VVV*08
$GPLLK,143052.00,010125,,M,,M,1,40,0.8,,M*06
$GNGMP,143052.00,,,,,DAAA,40,0.4,,,,*57
$GPGMP,143052.00,,,,,,10,,,,2.1,136*7A
$GLGMP,143052.00,,,,,,07,,,,,*79
$GAGMP,143052.00,,,,,,08,,,,,*7B
$GBGMP,143052.00,,,,,,15,,,,,*74
$PSSN,SNC,[0,311470000,2347]*44
$GPZDA,143057.00,01,01,2025,,*67
$GPDTM,W84,,00.0000000,N,00.0000000,E,00.0000000,W84*5F
$PSSN,TFM,143057.00,,,,*6B
$GPRMC,143057.00,A,4742.1599230,N,01618.1013790,E,0.0,,010125,5.1,E,D*1A
$GPGLL,4742.1599230,N,01618.1013790,E,143057.00,A,D*6B
$GPGGA,143057.00,4742.1599230,N,01618.1013790,E,2,41,0.4,708.1856,M,43.2065,M,3.1,0136*42
$GNGNS,143057.00,4742.1599230,N,01618.1013790,E,DAAA,41,0.4,708.1856,43.2065,,*58
$GPGNS,143057.00,,,,,,10,,,,3.1,136*7E
$GLGNS,143057.00,,,,,,08,,,,,*73
$GAGNS,143057.00,,,,,,08,,,,,*7E
$GBGNS,143057.00,,,,,,15,,,,,*71
$GPLLQ,143057.00,010125,,M,,M,1,41,1.264,,M*11
$GPVTG,,T,,M,0.00,N,0.00,K,D*26
$GPHDT,,T*1B
$GPTHS,,V*0E
$GPROT,,V*08
$PSSN,HRP,143057.00,010125,,,,,,,00,0,,*65
$PTNL,AVR,143057.00,,Yaw,,Tilt,,,,0,,00*33
$GPGSA,A,3,06,11,12,20,24,25,28,29,31,32,,,0.7,0.4,0.6*33
$GPGSA,A,3,69,70,77,78,79,81,87,88,,,,,0.7,0.4,0.6*38
$GPGSA,A,3,02,07,15,27,29,30,34,36,,,,,0.7,0.4,0.6*39
$GPGSA,A,3,05,08,10,11,12,13,23,24,25,34,35,38,0.7,0.4,0.6*30
$GPGSA,A,3,43,44,60,,,,,,,,,,0.7,0.4,0.6*36
$GPGST,143057.00,1.812,0.602,0.444,353.520,0.601,0.447,1.019*52
$GPGBS,143057.00,3.910,2.410,6.871,77,0.0001,-4.887,6.425*75
$GPGRS,143057.00,1,-0.9,0.2,0.2,-4.3,-0.2,-0.5,0.2,0.6,1.3,-0.5,,*6D
$GPGRS,143057.00,1,1.9,-2.4,-4.9,-1.0,1.1,4.2,-3.0,0.1,,,,*4C
$GPGRS,143057.00,1,0.1,-1.5,0.8,-0.4,0.5,-0.3,0.8,-0.2,,,,*4F
$GPGRS,143057.00,1,1.1,1.1,1.8,2.3,0.4,0.3,1.6,-0.6,-1.0,0.7,-0.3,-1.0*40
$GPGRS,143057.00,1,-1.8,-0.9,-1.4,,,,,,,,,*4C
$GPGSV,5,1,19,25,81,338,50,32,21,257,44,06,18,038,40,31,14,316,41*72
$GPGSV,5,2,19,24,14,158,40,11,38,073,46,28,39,306,45,29,53,224,49*70
$GPGSV,5,3,19,12,50,087,48,20,05,096,37,36,35,170,45,58,13,245,36*73
$GPGSV,5,4,19,40,23,133,37,34,31,208,43,49,34,195,45,57,04,114,37*78
$GPGSV,5,5,19,41,07,108,35,61,03,257,38*73
$GLGSV,2,1,08,78,76,051,52,70,11,345,35,69,14,283,44,81,23,189,46*69
$GLGSV,2,2,08,77,22,115,41,87,33,035,47,79,36,313,50,88,68,133,52*60
$GAGSV,3,1,10,30,70,072,49,15,22,161,42,19,15,323,34,07,16,222,40*6C
$GAGSV,3,2,10,02,18,093,39,36,25,043,41,29,28,277,43,34,44,104,46*67
$GAGSV,3,3,10,27,51,290,47,21,01,280,*68
$GBGSV,6,1,22,12,69,125,49,43,11,209,40,13,10,094,38,35,14,044,42*63
$GBGSV,6,2,22,23,15,304,42,11,30,197,45,08,11,086,36,05,20,130,38*6B
$GBGSV,6,3,22,10,15,068,37,56,22,055,,38,14,072,40,34,53,186,50*66
$GBGSV,6,4,22,31,31,089,,24,54,130,50,44,56,070,49,25,67,296,51*6E
$GBGSV,6,5,22,02,05,108,33,26,05,127,24,07,02,067,34,32,05,312,39*68
$GBGSV,6,6,22,20,10,317,,60,09,110,39*68
$GPGGA,143057.00,,,,,0,00,,,M,,M,,*4C
$PTNL,GGK,143057.00,010125,4742.1599230,N,01618.1013790,E,1,41,0.7,EHT751.3922,M*46
$GPGGQ,143057.00,010125,4742.1599230,N,01618.1013790,E,1,41,1.264,708.1856,M*32
$GPGFA,143057.00,5.726,8.354,0.602,0.444,353.520,1.019,,VVV*00
$GPLLK,143057.00,010125,,M,,M,1,41,0.8,,M*02
$GNGMP,143057.00,,,,,DAAA,41,0.4,,,,*53
$GPGMP,143057.00,,,,,,10,,,,3.1,136*7E
$GLGMP,143057.00,,,,,,08,,,,,*73
$GAGMP,143057.00,,,,,,08,,,,,*7E
$GBGMP,143057.00,,,,,,15,,,,,*71
$PSSN,SNC,[0,311475000,2347]*41
$GPZDA,143102.00,01,01,2025,,*66
$GPDTM,W84,,00.0000000,N,00.0000000,E,00.0000000,W84*5F
$PSSN,TFM,143102.00,,,,*6A
$GPRMC,143102.00,A,4742.1599238,N,01618.1013803,E,0.0,,010125,5.1,E,D*16
$GPGLL,4742.1599238,N,01618.1013803,E,143102.00,A,D*67
$GPGGA,143102.00,4742.1599238,N,01618.1013803,E,2,40,0.4,708.1822,M,43.2065,M,2.8,0136*44
$GNGNS,143102.00,4742.1599238,N,01618.1013803,E,DAAA,40,0.4,708.1822,43.2065,,*56
$GPGNS,143102.00,,,,,,10,,,,2.8,136*77
$GLGNS,143102.00,,,,,,07,,,,,*7D
$GAGNS,143102.00,,,,,,08,,,,,*7F
$GBGNS,143102.00,,,,,,15,,,,,*70
$GPLLQ,143102.00,010125,,M,,M,1,40,1.295,,M*1F
$GPVTG,,T,,M,0.00,N,0.00,K,D*26
$GPHDT,,T*1B
$GPTHS,,V*0E
$GPROT,,V*08
$PSSN,HRP,143102.00,010125,,,,,,,00,0,,*64
$PTNL,AVR,143102.00,,Yaw,,Tilt,,,,0,,00*32
$GPGSA,A,3,06,11,12,20,24,25,28,29,31,32,,,0.7,0.4,0.6*33
$GPGSA,A,3,69,77,78,79,81,87,88,,,,,,0.7,0.4,0.6*3F
$GPGSA,A,3,02,07,15,27,29,30,34,36,,,,,0.7,0.4,0.6*39
$GPGSA,A,3,05,08,10,11,12,13,23,24,25,34,35,38,0.7,0.4,0.6*30
$GPGSA,A,3,43,44,60,,,,,,,,,,0.7,0.4,0.6*36
$GPGST,143102.00,1.676,0.610,0.445,353.351,0.608,0.447,1.053*5A
$GPGBS,143102.00,3.998,2.377,6.875,31,0.0001,1.483,2.297*5F
$GPGRS,143102.00,1,-0.6,0.1,0.5,-4.0,-0.5,-0.4,0.1,0.3,1.5,-0.6,,*61
$GPGRS,143102.00,1,1.9,-3.6,-0.6,1.7,3.9,-3.5,0.5,,,,,*4C
$GPGRS,143102.00,1,0.3,-1.7,0.6,-0.2,0.5,-0.2,0.8,-0.2,,,,*47
$GPGRS,143102.00,1,1.3,1.4,1.1,1.6,0.8,0.4,1.1,-0.6,-1.1,0.6,-0.3,-0.7*43
$GPGRS,143102.00,1,-2.4,-0.7,-1.5,,,,,,,,,*4D
$GPGSV,5,1,19,25,81,338,50,32,21,257,44,06,17,038,40,31,14,316,41*7D
$GPGSV,5,2,19,24,13,158,40,11,38,073,46,28,39,306,45,29,53,224,49*77
$GPGSV,5,3,19,12,50,087,48,20,05,096,37,36,35,170,46,58,13,245,37*71
$GPGSV,5,4,19,40,23,133,37,34,31,208,43,49,34,195,45,57,04,114,37*78
$GPGSV,5,5,19,41,07,108,35,61,03,257,38*73
$GLGSV,2,1,08,78,76,051,52,70,11,345,34,69,14,283,44,81,23,189,47*69
$GLGSV,2,2,08,77,22,115,40,87,32,035,46,79,36,313,50,88,68,132,52*60
$GAGSV,3,1,10,30,70,072,49,15,22,161,41,19,15,323,34,07,16,222,40*6F
$GAGSV,3,2,10,02,18,093,39,36,25,043,41,29,28,277,43,34,44,104,46*67
$GAGSV,3,3,10,27,51,290,47,21,01,280,*68
$GBGSV,6,1,22,12,69,125,49,43,11,209,40,13,10,094,38,35,14,044,42*63
$GBGSV,6,2,22,23,15,304,42,11,30,197,45,08,11,086,36,05,20,130,38*6B
$GBGSV,6,3,22,10,15,068,37,56,22,055,,38,14,072,41,34,53,186,50*67
$GBGSV,6,4,22,31,31,089,,24,53,130,50,44,56,070,49,25,67,296,51*69
$GBGSV,6,5,22,02,05,108,33,26,05,127,24,07,02,067,35,32,05,312,39*69
$GBGSV,6,6,22,20,10,317,,60,09,110,39*68
$GPGGA,143102.00,,,,,0,00,,,M,,M,,*4D
$PTNL,GGK,143102.00,010125,4742.1599238,N,01618.1013803,E,1,40,0.7,EHT751.3887,M*45
$GPGGQ,143102.00,010125,4742.1599238,N,01618.1013803,E,1,40,1.295,708.1822,M*32
$GPGFA,143102.00,5.796,8.632,0.610,0.445,353.351,1.053,,VVV*03
$GPLLK,143102.00,010125,,M,,M,1,40,0.8,,M*02
$GNGMP,143102.00,,,,,DAAA,40,0.4,,,,*53
$GPGMP,143102.00,,,,,,10,,,,2.8,136*77
$GLGMP,143102.00,,,,,,07,,,,,*7D
$GAGMP,143102.00,,,,,,08,,,,,*7F
$GBGMP,143102.00,,,,,,15,,,,,*70
$PSSN,SNC,[0,311480000,2347]*4B
$GPZDA,143107.00,01,01,2025,,*63
$GPDTM,W84,,00.0000000,N,00.0000000,E,00.0000000,W84*5F
$PSSN,TFM,143107.00,,,,*6F
$GPRMC,143107.00,A,4742.1599234,N,01618.1013820,E,0.0,,010125,5.1,E,D*1E
$GPGLL,4742.1599234,N,01618.1013820,E,143107.00,A,D*6F
$GPGGA,143107.00,4742.1599234,N,01618.1013820,E,2,40,0.4,708.1823,M,43.2065,M,2.0,0136*45
$GNGNS,143107.00,4742.1599234,N,01618.1013820,E,DAAA,40,0.4,708.1823,43.2065,,*5F
$GPGNS,143107.00,,,,,,10,,,,2.0,136*7A
$GLGNS,143107.00,,,,,,07,,,,,*78
$GAGNS,143107.00,,,,,,08,,,,,*7A
$GBGNS,143107.00,,,,,,15,,,,,*75
$GPLLQ,143107.00,010125,,M,,M,1,40,1.276,,M*17
$GPVTG,,T,,M,0.00,N,0.01,K,D*27
$GPHDT,,T*1B
$GPTHS,,V*0E
$GPROT,,V*08
$PSSN,HRP,143107.00,010125,,,,,,,00,0,,*61
$PTNL,AVR,143107.00,,Yaw,,Tilt,,,,0,,00*37
$GPGSA,A,3,06,11,12,20,24,25,28,29,31,32,,,0.7,0.4,0.6*33
$GPGSA,A,3,69,77,78,79,81,87,88,,,,,,0.7,0.4,0.6*3F
$GPGSA,A,3,02,07,15,27,29,30,34,36,,,,,0.7,0.4,0.6*39
$GPGSA,A,3,05,08,10,11,12,13,23,24,25,34,35,38,0.7,0.4,0.6*30
$GPGSA,A,3,43,44,60,,,,,,,,,,0.7,0.4,0.6*36
$GPGST,143107.00,1.941,0.608,0.441,353.249,0.606,0.443,1.031*5F
$GPGBS,143107.00,3.916,2.394,6.864,81,0.0001,4.957,6.472*52
$GPGRS,143107.00,1,-0.7,-0.1,0.4,-4.8,-0.4,-0.4,0.4,0.3,1.4,-0.4,,*46
$GPGRS,143107.00,1,2.2,-4.7,-0.7,1.6,5.0,-4.2,0.3,,,,,*4E
$GPGRS,143107.00,1,0.6,-1.6,0.5,-0.3,0.3,-0.2,0.5,-0.0,,,,*4D
$GPGRS,143107.00,1,1.6,1.0,0.6,1.6,0.6,0.6,1.3,-0.6,-1.3,0.6,-0.3,-0.9*43
$GPGRS,143107.00,1,-2.5,-0.9,-1.6,,,,,,,,,*44
$GPGSV,5,1,19,25,81,338,50,32,21,257,44,06,17,038,40,31,14,316,41*7D
$GPGSV,5,2,19,24,13,158,39,11,38,073,46,28,39,306,45,29,53,224,49*79
$GPGSV,5,3,19,12,50,087,48,20,05,096,36,36,35,170,45,58,13,245,36*72
$GPGSV,5,4,19,40,23,133,37,34,31,208,43,49,34,195,45,57,04,114,36*79
$GPGSV,5,5,19,41,07,108,35,61,03,257,38*73
$GLGSV,2,1,08,78,76,051,52,70,11,345,33,69,14,283,45,81,23,189,47*6F
$GLGSV,2,2,08,77,22,115,40,87,32,035,46,79,37,313,50,88,68,132,52*61
$GAGSV,3,1,10,30,70,072,49,15,22,161,41,19,15,323,34,07,16,222,40*6F
$GAGSV,3,2,10,02,18,093,39,36,25,043,40,29,28,277,43,34,44,104,46*66
$GAGSV,3,3,10,27,51,290,47,21,01,280,*68
$GBGSV,6,1,22,12,69,125,49,43,11,209,40,13,10,094,39,35,14,044,42*62
$GBGSV,6,2,22,23,15,304,42,11,30,197,45,08,11,086,37,05,20,130,38*6A
$GBGSV,6,3,22,10,15,068,37,56,22,055,,38,14,072,41,34,53,186,50*67
$GBGSV,6,4,22,31,31,089,,24,53,130,50,44,56,070,49,25,67,296,51*69
$GBGSV,6,5,22,02,05,108,34,26,05,127,25,07,02,067,35,32,05,312,40*61
$GBGSV,6,6,22,20,10,317,,60,09,110,39*68
$GPGGA,143107.00,,,,,0,00,,,M,,M,,*48
$PTNL,GGK,143107.00,010125,4742.1599234,N,01618.1013820,E,1,40,0.7,EHT751.3888,M*42
$GPGGQ,143107.00,010125,4742.1599234,N,01618.1013820,E,1,40,1.276,708.1823,M*36
$GPGFA,143107.00,5.785,8.455,0.608,0.441,353.249,1.031,,VVV*06
$GPLLK,143107.00,010125,,M,,M,1,40,0.8,,M*07
$GNGMP,143107.00,,,,,DAAA,40,0.4,,,,*56
$GPGMP,143107.00,,,,,,10,,,,2.0,136*7A
$GLGMP,143107.00,,,,,,07,,,,,*78
$GAGMP,143107.00,,,,,,08,,,,,*7A
$GBGMP,143107.00,,,,,,15,,,,,*75
$PSSN,SNC,[0,311485000,2347]*4E
$GPZDA,143112.00,01,01,2025,,*67
$GPDTM,W84,,00.0000000,N,00.0000000,E,00.0000000,W84*5F
$PSSN,TFM,143112.00,,,,*6B
$GPRMC,143112.00,A,4742.1599224,N,01618.1013842,E,0.0,,010125,5.1,E,D*1F
$GPGLL,4742.1599224,N,01618.1013842,E,143112.00,A,D*6E
$GPGGA,143112.00,4742.1599224,N,01618.1013842,E,2,40,0.4,708.1824,M,43.2065,M,2.1,0136*42
$GNGNS,143112.00,4742.1599224,N,01618.1013842,E,DAAA,40,0.4,708.1824,43.2065,,*59
$GPGNS,143112.00,,,,,,10,,,,2.1,136*7F
$GLGNS,143112.00,,,,,,07,,,,,*7C
$GAGNS,143112.00,,,,,,08,,,,,*7E
$GBGNS,143112.00,,,,,,15,,,,,*71
$GPLLQ,143112.00,010125,,M,,M,1,40,1.270,,M*15
$GPVTG,,T,,M,0.00,N,0.00,K,D*26
$GPHDT,,T*1B
$GPTHS,,V*0E
$GPROT,,V*08
$PSSN,HRP,143112.00,010125,,,,,,,00,0,,*65
$PTNL,AVR,143112.00,,Yaw,,Tilt,,,,0,,00*33
$GPGSA,A,3,06,11,12,20,24,25,28,29,31,32,,,0.7,0.4,0.6*33
$GPGSA,A,3,69,77,78,79,81,87,88,,,,,,0.7,0.4,0.6*3F
$GPGSA,A,3,02,07,15,27,29,30,34,36,,,,,0.7,0.4,0.6*39
$GPGSA,A,3,05,08,10,11,12,13,23,24,25,34,35,38,0.7,0.4,0.6*30
$GPGSA,A,3,43,44,60,,,,,,,,,,0.7,0.4,0.6*36
$GPGST,143112.00,1.889,0.605,0.441,353.294,0.604,0.443,1.026*57
$GPGBS,143112.00,3.910,2.408,6.848,81,0.0001,5.472,6.472*57
$GPGRS,143112.00,1,-0.5,0.0,0.3,-4.5,-0.5,-0.2,0.4,0.1,1.4,-0.9,,*6E
$GPGRS,143112.00,1,0.9,-4.6,-0.7,1.4,5.5,-3.8,0.2,,,,,*49
$GPGRS,143112.00,1,0.9,-1.3,0.9,-0.2,0.3,-0.3,1.0,0.0,,,,*66
$GPGRS,143112.00,1,0.8,0.7,0.2,2.0,-0.0,0.7,1.3,-0.5,-1.1,0.8,-0.2,-1.4*67
$GPGRS,143112.00,1,-2.6,-0.7,-1.3,,,,,,,,,*48
$GPGSV,5,1,19,25,81,338,50,32,21,257,44,06,17,038,40,31,14,316,41*7D
$GPGSV,5,2,19,24,13,158,39,11,38,073,46,28,39,306,45,29,53,224,49*79
$GPGSV,5,3,19,12,50,087,48,20,05,096,37,36,35,170,46,58,13,245,36*70
$GPGSV,5,4,19,40,23,133,37,34,31,208,43,49,34,195,45,57,04,114,37*78
$GPGSV,5,5,19,41,07,108,35,61,03,257,38*73
$GLGSV,2,1,08,78,76,051,52,70,11,345,34,69,14,283,44,81,23,189,47*69
$GLGSV,2,2,08,77,22,115,40,87,32,035,46,79,37,313,50,88,68,132,52*61
$GAGSV,3,1,10,30,70,072,49,15,22,161,42,07,16,222,40,19,15,323,34*6C
$GAGSV,3,2,10,02,18,093,39,36,24,043,41,29,28,277,43,34,44,104,47*67
$GAGSV,3,3,10,27,51,290,47,21,01,280,*68
$GBGSV,6,1,22,12,69,125,49,43,11,209,40,13,10,094,39,35,14,044,42*62
$GBGSV,6,2,22,23,15,304,42,11,30,197,45,08,11,086,36,05,20,130,38*6B
$GBGSV,6,3,22,10,15,068,37,56,22,055,,38,14,072,41,34,53,186,50*67
$GBGSV,6,4,22,31,31,089,,24,53,130,50,44,56,070,49,25,67,296,51*69
$GBGSV,6,5,22,02,05,108,33,26,05,127,24,07,02,067,35,32,05,312,39*69
$GBGSV,6,6,22,20,10,316,,60,09,110,39*69
$GPGGA,143112.00,,,,,0,00,,,M,,M,,*4C
$PTNL,GGK,143112.00,010125,4742.1599224,N,01618.1013842,E,1,40,0.7,EHT751.3890,M*4A
$GPGGQ,143112.00,010125,4742.1599224,N,01618.1013842,E,1,40,1.270,708.1824,M*36
$GPGFA,143112.00,5.757,8.413,0.605,0.441,353.294,1.026,,VVV*04
$GPLLK,143112.00,010125,,M,,M,1,40,0.8,,M*03
$GNGMP,143112.00,,,,,DAAA,40,0.4,,,,*52
$GPGMP,143112.00,,,,,,10,,,,2.1,136*7F
$GLGMP,143112.00,,,,,,07,,,,,*7C
$GAGMP,143112.00,,,,,,08,,,,,*7E
$GBGMP,143112.00,,,,,,15,,,,,*71
$PSSN,SNC,[0,311490000,2347]*4A
$GPZDA,143117.00,01,01,2025,,*62
$GPDTM,W84,,00.0000000,N,00.0000000,E,00.0000000,W84*5F
$PSSN,TFM,143117.00,,,,*6E
$GPRMC,143117.00,A,4742.1599219,N,01618.1013853,E,0.0,,010125,5.1,E,D*14
$GPGLL,4742.1599219,N,01618.1013853,E,143117.00,A,D*65
$GPGGA,143117.00,4742.1599219,N,01618.1013853,E,2,40,0.4,708.1820,M,43.2065,M,3.1,0136*4C
$GNGNS,143117.00,4742.1599219,N,01618.1013853,E,DAAA,40,0.4,708.1820,43.2065,,*56
$GPGNS,143117.00,,,,,,10,,,,3.1,136*7B
$GLGNS,143117.00,,,,,,07,,,,,*79
$GAGNS,143117.00,,,,,,08,,,,,*7B
$GBGNS,143117.00,,,,,,15,,,,,*74
$GPLLQ,143117.00,010125,,M,,M,1,40,1.265,,M*14
$GPVTG,,T,,M,0.00,N,0.01,K,D*27
$GPHDT,,T*1B
$GPTHS,,V*0E
$GPROT,,V*08
$PSSN,HRP,143117.00,010125,,,,,,,00,0,,*60
$PTNL,AVR,143117.00,,Yaw,,Tilt,,,,0,,00*36
$GPGSA,A,3,06,11,12,20,24,25,28,29,31,32,,,0.7,0.4,0.6*33
$GPGSA,A,3,69,77,78,79,81,87,88,,,,,,0.7,0.4,0.6*3F
$GPGSA,A,3,02,07,15,27,29,30,34,36,,,,,0.7,0.4,0.6*39
$GPGSA,A,3,05,08,10,11,12,13,23,24,25,34,35,38,0.7,0.4,0.6*30
$GPGSA,A,3,43,44,60,,,,,,,,,,0.7,0.4,0.6*36
$GPGST,143117.00,1.796,0.604,0.444,353.677,0.603,0.446,1.018*51
$GPGBS,143117.00,3.937,2.420,6.881,81,0.0001,5.058,6.472*54
$GPGRS,143117.00,1,-0.5,-0.1,0.5,-4.3,-0.7,-0.5,0.3,0.5,1.7,-0.7,,*4C
$GPGRS,143117.00,1,1.7,-4.3,-0.6,1.3,5.1,-3.3,0.5,,,,,*48
$GPGRS,143117.00,1,0.6,-1.5,0.8,-0.3,0.2,-0.2,1.0,0.1,,,,*6B
$GPGRS,143117.00,1,1.4,1.0,0.3,1.5,0.0,0.9,1.5,-0.5,-1.2,0.9,-0.6,-1.0*49
$GPGRS,143117.00,1,-2.0,-0.5,-1.2,,,,,,,,,*48
$GPGSV,5,1,19,25,81,339,50,32,21,257,44,06,17,038,40,31,14,316,41*7C
$GPGSV,5,2,19,24,13,158,39,11,38,073,46,28,39,305,46,29,53,224,48*78
$GPGSV,5,3,19,12,50,087,48,20,06,096,37,36,35,170,46,58,13,245,36*73
$GPGSV,5,4,19,40,23,133,37,34,31,208,43,49,34,195,45,57,04,114,37*78
$GPGSV,5,5,19,41,07,108,35,61,03,257,38*73
$GLGSV,2,1,08,78,76,052,52,70,11,345,33,69,14,283,45,81,23,189,47*6C
$GLGSV,2,2,08,77,22,115,41,87,32,035,46,79,37,313,49,88,68,132,52*68
$GAGSV,3,1,10,30,70,072,49,15,22,161,41,07,16,222,40,19,15,323,35*6E
$GAGSV,3,2,10,02,18,093,40,36,24,043,41,29,28,277,43,34,44,104,47*69
$GAGSV,3,3,10,27,51,290,47,21,01,280,*68
$GBGSV,6,1,22,12,69,124,49,43,11,209,40,13,10,094,39,35,14,044,41*60
$GBGSV,6,2,22,23,15,304,42,11,30,197,44,08,11,086,36,05,20,130,38*6A
$GBGSV,6,3,22,10,15,068,37,56,22,055,,38,14,072,41,34,53,186,50*67
$GBGSV,6,4,22,31,31,089,,24,53,130,50,44,56,070,49,25,67,296,51*69
$GBGSV,6,5,22,02,05,108,34,26,05,127,25,07,02,067,35,32,05,312,39*6F
$GBGSV,6,6,22,20,10,316,,60,09,110,39*69
$GPGGA,143117.00,,,,,0,00,,,M,,M,,*49
$PTNL,GGK,143117.00,010125,4742.1599219,N,01618.1013853,E,1,40,0.7,EHT751.3885,M*45
$GPGGQ,143117.00,010125,4742.1599219,N,01618.1013853,E,1,40,1.265,708.1820,M*3D
$GPGFA,143117.00,5.747,8.351,0.604,0.444,353.677,1.018,,VVV*01
$GPLLK,143117.00,010125,,M,,M,1,40,0.8,,M*06
$GNGMP,143117.00,,,,,DAAA,40,0.4,,,,*57
$GPGMP,143117.00,,,,,,10,,,,3.1,136*7B
$GLGMP,143117.00,,,,,,07,,,,,*79
$GAGMP,143117.00,,,,,,08,,,,,*7B
$GBGMP,143117.00,,,,,,15,,,,,*74
