$GPZDA,062942.00,01,01,2025,,*68
$GPDTM,W84,,00.0000000,N,00.0000000,E,00.0000000,W84*5F
$PSSN,TFM,062942.00,,,,*64
$GPRMC,062942.00,A,4742.1603710,N,01618.0999430,E,0.0,,010125,5.1,E,D*11
$GPGLL,4742.1603710,N,01618.0999430,E,062942.00,A,D*60
$GPGGA,062942.00,4742.1603710,N,01618.0999430,E,2,35,0.4,707.9188,M,43.2066,M,2.4,0136*40
$GNGNS,062942.00,4742.1603710,N,01618.0999430,E,DAAA,35,0.4,707.9188,43.2066,,*5E
$GPGNS,062942.00,,,,,,08,,,,2.4,136*7C
$GLGNS,062942.00,,,,,,08,,,,,*7C
$GAGNS,062942.00,,,,,,10,,,,,*78
$GBGNS,062942.00,,,,,,09,,,,,*73
$GPLLQ,062942.00,010125,,M,,M,1,35,0.948,,M*19
$GPVTG,,T,,M,0.00,N,0.01,K,D*27
$GPHDT,,T*1B
$GPTHS,,V*0E
$GPROT,,V*08
$PSSN,HRP,062942.00,010125,,,,,,,00,0,,*6A
$PTNL,AVR,062942.00,,Yaw,,Tilt,,,,0,,00*3C
$GPGSA,A,3,05,07,09,11,13,14,20,30,,,,,0.7,0.4,0.6*3A
$GPGSA,A,3,65,71,72,73,74,75,81,88,,,,,0.7,0.4,0.6*3B
$GPGSA,A,3,03,05,08,09,13,15,24,25,31,34,,,0.7,0.4,0.6*32
$GPGSA,A,3,05,06,09,11,19,21,22,36,60,,,,0.7,0.4,0.6*35
$GPGST,062942.00,1.986,0.488,0.313,12.928,0.481,0.324,0.750*65
$GPGBS,062942.00,2.948,2.430,5.066,72,0.0001,4.819,6.038*5E
$GPGRS,062942.00,1,-0.2,-0.2,0.6,0.1,0.3,-0.3,-0.1,0.0,,,,*43
$GPGRS,062942.00,1,-4.0,-0.3,4.8,3.7,3.2,-2.6,0.3,-2.9,,,,*47
$GPGRS,062942.00,1,-0.3,0.3,-0.8,0.1,0.2,0.1,0.2,-1.0,0.4,0.0,,*65
$GPGRS,062942.00,1,1.4,-3.7,1.1,2.8,-1.2,-0.2,-0.6,-0.0,-1.6,,,*60
$GPGSV,6,1,21,30,78,211,51,13,24,281,44,14,20,166,42,11,19,235,43*73
$GPGSV,6,2,21,09,27,097,43,05,40,306,46,20,61,256,49,07,61,061,48*7F
$GPGSV,6,3,21,06,01,205,25,08,01,077,34,27,02,047,36,04,01,098,29*78
$GPGSV,6,4,21,36,35,170,45,58,13,245,37,40,24,133,37,34,31,208,44*7C
$GPGSV,6,5,21,49,34,195,45,57,07,112,38,41,07,108,36,61,03,257,38*72
$GPGSV,6,6,21*7A
$GLGSV,2,1,08,72,75,034,50,88,15,288,46,81,13,341,45,65,29,312,45*6A
$GLGSV,2,2,08,73,38,041,49,75,30,186,49,71,34,109,49,74,69,113,47*61
$GAGSV,3,1,11,05,64,078,48,25,25,156,42,34,14,217,40,13,17,323,40*6A
$GAGSV,3,2,11,09,12,094,40,31,19,041,39,16,38,131,,15,30,268,43*6C
$GAGSV,3,3,11,24,42,096,46,03,57,292,48,08,08,280,38*50
$GBGSV,6,1,21,22,77,128,52,58,17,040,,05,22,129,39,46,22,046,*69
$GBGSV,6,2,21,09,20,056,38,19,22,126,44,26,35,183,,50,23,304,*69
$GBGSV,6,3,21,45,43,190,,21,47,305,49,36,65,095,51,11,06,302,35*67
$GBGSV,6,4,21,28,05,333,,02,05,108,35,40,09,074,,43,02,322,*66
$GBGSV,6,5,21,10,07,115,,07,08,108,,16,04,056,37,06,06,057,35*6E
$GBGSV,6,6,21,60,07,112,40*5F
$GPGGA,062942.00,,,,,0,00,,,M,,M,,*43
$PTNL,GGK,062942.00,010125,4742.1603710,N,01618.0999430,E,1,35,0.7,EHT751.1253,M*41
$GPGGQ,062942.00,010125,4742.1603710,N,01618.0999430,E,1,35,0.948,707.9188,M*33
$GPGFA,062942.00,4.638,6.150,0.488,0.313,12.928,0.750,,VVV*34
$GPLLK,062942.00,010125,,M,,M,1,35,0.8,,M*0E
$GNGMP,062942.00,,,,,DAAA,35,0.4,,,,*5F
$GPGMP,062942.00,,,,,,08,,,,2.4,136*7C
$GLGMP,062942.00,,,,,,08,,,,,*7C
$GAGMP,062942.00,,,,,,10,,,,,*78
$GBGMP,062942.00,,,,,,09,,,,,*73
$PSSN,SNC,[0,282600000,2347]*4A
$GPZDA,062947.00,01,01,2025,,*6D
$GPDTM,W84,,00.0000000,N,00.0000000,E,00.0000000,W84*5F
$PSSN,TFM,062947.00,,,,*61
$GPRMC,062947.00,A,4742.1603709,N,01618.0999434,E,0.0,,010125,5.1,E,D*18
$GPGLL,4742.1603709,N,01618.0999434,E,062947.00,A,D*69
$GPGGA,062947.00,4742.1603709,N,01618.0999434,E,2,35,0.4,707.9179,M,43.2066,M,2.9,0136*4A
$GNGNS,062947.00,4742.1603709,N,01618.0999434,E,DAAA,35,0.4,707.9179,43.2066,,*59
$GPGNS,062947.00,,,,,,08,,,,2.9,136*74
$GLGNS,062947.00,,,,,,08,,,,,*79
$GAGNS,062947.00,,,,,,10,,,,,*7D
$GBGNS,062947.00,,,,,,09,,,,,*76
$GPLLQ,062947.00,010125,,M,,M,1,35,0.957,,M*12
$GPVTG,,T,,M,0.00,N,0.00,K,D*26
$GPHDT,,T*1B
$GPTHS,,V*0E
$GPROT,,V*08
$PSSN,HRP,062947.00,010125,,,,,,,00,0,,*6F
$PTNL,AVR,062947.00,,Yaw,,Tilt,,,,0,,00*39
$GPGSA,A,3,05,07,09,11,13,14,20,30,,,,,0.7,0.4,0.6*3A
$GPGSA,A,3,65,71,72,73,74,75,81,88,,,,,0.7,0.4,0.6*3B
$GPGSA,A,3,03,05,08,09,13,15,24,25,31,34,,,0.7,0.4,0.6*32
$GPGSA,A,3,05,06,09,11,19,21,22,36,60,,,,0.7,0.4,0.6*35
$GPGST,062947.00,2.041,0.495,0.318,13.095,0.488,0.329,0.754*68
$GPGBS,062947.00,2.970,2.473,5.205,72,0.0001,5.137,6.038*54
$GPGRS,062947.00,1,-0.3,-0.2,0.0,-0.0,0.1,-0.3,0.4,0.1,,,,*46
$GPGRS,062947.00,1,-3.9,-0.5,5.1,3.1,3.1,-2.2,-0.1,-3.7,,,,*63
$GPGRS,062947.00,1,-0.1,0.4,-0.2,0.2,0.2,-0.0,0.4,-0.7,0.4,0.4,,*44
$GPGRS,062947.00,1,1.7,-4.4,1.4,2.4,-1.1,-0.3,-0.5,-0.2,-2.0,,,*6D
$GPGSV,6,1,21,30,78,211,51,13,24,281,43,14,20,166,42,11,19,235,43*74
$GPGSV,6,2,21,09,27,097,43,05,40,306,46,20,61,256,48,07,61,061,48*7E
$GPGSV,6,3,21,06,01,205,23,08,01,077,33,27,03,047,35,04,01,098,28*7A
$GPGSV,6,4,21,36,35,170,45,58,13,245,37,40,24,133,37,34,31,208,44*7C
$GPGSV,6,5,21,49,34,195,45,57,07,112,38,41,07,108,35,61,03,257,38*71
$GPGSV,6,6,21*7A
$GLGSV,2,1,08,72,75,035,50,88,15,288,45,81,13,341,45,65,29,312,45*68
$GLGSV,2,2,08,73,38,041,48,75,30,186,48,71,34,109,49,74,69,113,47*61
$GAGSV,3,1,11,05,64,078,48,25,25,156,42,34,14,217,40,13,17,323,40*6A
$GAGSV,3,2,11,09,12,094,39,31,19,041,39,16,38,131,,15,30,268,43*62
$GAGSV,3,3,11,24,42,096,46,03,57,292,48,08,08,280,38*50
$GBGSV,6,1,21,22,77,128,52,58,17,040,,05,22,129,39,46,22,046,*69
$GBGSV,6,2,21,09,20,056,38,19,22,126,44,26,35,183,,50,23,304,*69
$GBGSV,6,3,21,45,43,190,49,21,47,305,49,36,65,095,51,11,06,302,36*69
$GBGSV,6,4,21,28,05,333,,02,05,108,34,40,09,074,,43,02,322,*67
$GBGSV,6,5,21,10,07,115,,07,08,108,,16,04,056,37,06,06,057,35*6E
$GBGSV,6,6,21,60,07,112,40*5F
$GPGGA,062947.00,,,,,0,00,,,M,,M,,*46
$PTNL,GGK,062947.00,010125,4742.1603709,N,01618.0999434,E,1,35,0.7,EHT751.1245,M*4F
$GPGGQ,062947.00,010125,4742.1603709,N,01618.0999434,E,1,35,0.957,707.9179,M*3A
$GPGFA,062947.00,4.710,6.185,0.495,0.318,13.095,0.754,,VVV*3F
$GPLLK,062947.00,010125,,M,,M,1,35,0.8,,M*0B
$GNGMP,062947.00,,,,,DAAA,35,0.4,,,,*5A
$GPGMP,062947.00,,,,,,08,,,,2.9,136*74
$GLGMP,062947.00,,,,,,08,,,,,*79
$GAGMP,062947.00,,,,,,10,,,,,*7D
$GBGMP,062947.00,,,,,,09,,,,,*76
$PSSN,SNC,[0,282605000,2347]*4F
$GPZDA,062952.00,01,01,2025,,*69
$GPDTM,W84,,00.0000000,N,00.0000000,E,00.0000000,W84*5F
$PSSN,TFM,062952.00,,,,*65
$GPRMC,062952.00,A,4742.1603698,N,01618.0999431,E,0.0,,010125,5.1,E,D*10
$GPGLL,4742.1603698,N,01618.0999431,E,062952.00,A,D*61
$GPGGA,062952.00,4742.1603698,N,01618.0999431,E,2,35,0.4,707.9127,M,43.2066,M,3.4,0136*45
$GNGNS,062952.00,4742.1603698,N,01618.0999431,E,DAAA,35,0.4,707.9127,43.2066,,*5A
$GPGNS,062952.00,,,,,,08,,,,3.4,136*7C
$GLGNS,062952.00,,,,,,08,,,,,*7D
$GAGNS,062952.00,,,,,,10,,,,,*79
$GBGNS,062952.00,,,,,,09,,,,,*72
$GPLLQ,062952.00,010125,,M,,M,1,35,0.955,,M*14
$GPVTG,,T,,M,0.00,N,0.01,K,D*27
$GPHDT,,T*1B
$GPTHS,,V*0E
$GPROT,,V*08
$PSSN,HRP,062952.00,010125,,,,,,,00,0,,*6B
$PTNL,AVR,062952.00,,Yaw,,Tilt,,,,0,,00*3D
$GPGSA,A,3,05,07,09,11,13,14,20,30,,,,,0.7,0.4,0.6*3A
$GPGSA,A,3,65,71,72,73,74,75,81,88,,,,,0.7,0.4,0.6*3B
$GPGSA,A,3,03,05,08,09,13,15,24,25,31,34,,,0.7,0.4,0.6*32
$GPGSA,A,3,05,06,09,11,19,21,22,36,60,,,,0.7,0.4,0.6*35
$GPGST,062952.00,1.915,0.500,0.323,12.828,0.493,0.334,0.747*69
$GPGBS,062952.00,3.035,2.480,4.998,72,0.0001,4.924,6.038*50
$GPGRS,062952.00,1,-0.2,-0.2,0.2,-0.0,0.4,-0.3,0.3,0.1,,,,*43
$GPGRS,062952.00,1,-4.4,-1.5,4.9,2.5,2.5,-2.5,-0.7,-3.3,,,,*60
$GPGRS,062952.00,1,-0.3,0.4,-0.2,-0.0,0.1,0.1,0.1,-0.5,0.4,0.3,,*42
$GPGRS,062952.00,1,1.9,-3.3,1.4,1.8,-1.1,-0.3,-0.5,0.1,-1.9,,,*4C
$GPGSV,6,1,21,30,78,211,51,13,24,281,44,14,20,166,42,11,19,234,43*72
$GPGSV,6,2,21,09,27,097,43,05,40,306,46,20,61,256,49,07,61,061,48*7F
$GPGSV,6,3,21,06,01,205,24,08,01,077,33,27,03,047,36,04,01,098,29*7F
$GPGSV,6,4,21,36,35,170,45,58,13,245,37,40,24,133,37,34,31,208,44*7C
$GPGSV,6,5,21,49,34,195,45,57,07,112,38,41,07,108,35,61,03,257,38*71
$GPGSV,6,6,21*7A
$GLGSV,2,1,08,72,75,035,50,88,15,288,45,81,13,341,44,65,29,312,44*68
$GLGSV,2,2,08,73,38,041,49,75,30,186,49,71,34,109,49,74,69,113,47*61
$GAGSV,3,1,11,05,64,078,48,25,25,156,43,34,14,217,40,13,17,323,40*6B
$GAGSV,3,2,11,09,12,094,39,31,19,041,40,16,38,131,,15,30,268,43*6C
$GAGSV,3,3,11,24,42,096,46,03,57,292,48,08,08,280,38*50
$GBGSV,6,1,21,22,77,128,52,58,17,040,,09,20,056,38,05,22,129,39*6A
$GBGSV,6,2,21,46,22,046,,19,22,126,44,26,35,183,,50,23,304,*6A
$GBGSV,6,3,21,45,44,190,50,21,47,305,49,36,65,095,51,11,06,302,37*67
$GBGSV,6,4,21,28,05,333,,02,05,108,34,40,09,074,,43,02,322,*67
$GBGSV,6,5,21,10,07,115,,06,06,057,36,16,04,056,37,07,08,108,*6D
$GBGSV,6,6,21,60,07,112,40*5F
$GPGGA,062952.00,,,,,0,00,,,M,,M,,*42
$PTNL,GGK,062952.00,010125,4742.1603698,N,01618.0999431,E,1,35,0.7,EHT751.1193,M*4F
$GPGGQ,062952.00,010125,4742.1603698,N,01618.0999431,E,1,35,0.955,707.9127,M*3B
$GPGFA,062952.00,4.756,6.128,0.500,0.323,12.828,0.747,,VVV*36
$GPLLK,062952.00,010125,,M,,M,1,35,0.8,,M*0F
$GNGMP,062952.00,,,,,DAAA,35,0.4,,,,*5E
$GPGMP,062952.00,,,,,,08,,,,3.4,136*7C
$GLGMP,062952.00,,,,,,08,,,,,*7D
$GAGMP,062952.00,,,,,,10,,,,,*79
$GBGMP,062952.00,,,,,,09,,,,,*72
$PSSN,SNC,[0,282610000,2347]*4B
$GPZDA,062957.00,01,01,2025,,*6C
$GPDTM,W84,,00.0000000,N,00.0000000,E,00.0000000,W84*5F
$PSSN,TFM,062957.00,,,,*60
$GPRMC,062957.00,A,4742.1603705,N,01618.0999440,E,0.0,,010125,5.1,E,D*16
$GPGLL,4742.1603705,N,01618.0999440,E,062957.00,A,D*67
$GPGGA,062957.00,4742.1603705,N,01618.0999440,E,2,35,0.4,707.9072,M,43.2066,M,1.4,0136*40
$GNGNS,062957.00,4742.1603705,N,01618.0999440,E,DAAA,35,0.4,707.9072,43.2066,,*5D
$GPGNS,062957.00,,,,,,08,,,,1.4,136*7B
$GLGNS,062957.00,,,,,,08,,,,,*78
$GAGNS,062957.00,,,,,,10,,,,,*7C
$GBGNS,062957.00,,,,,,09,,,,,*77
$GPLLQ,062957.00,010125,,M,,M,1,35,0.953,,M*17
$GPVTG,,T,,M,0.00,N,0.00,K,D*26
$GPHDT,,T*1B
$GPTHS,,V*0E
$GPROT,,V*08
$PSSN,HRP,062957.00,010125,,,,,,,00,0,,*6E
$PTNL,AVR,062957.00,,Yaw,,Tilt,,,,0,,00*38
$GPGSA,A,3,05,07,09,11,13,14,20,30,,,,,0.7,0.4,0.6*3A
$GPGSA,A,3,65,71,72,73,74,75,81,88,,,,,0.7,0.4,0.6*3B
$GPGSA,A,3,03,05,08,09,13,15,24,25,31,34,,,0.7,0.4,0.6*32
$GPGSA,A,3,05,06,09,11,19,21,22,36,60,,,,0.7,0.4,0.6*35
$GPGST,062957.00,2.081,0.496,0.319,12.554,0.489,0.330,0.748*6A
$GPGBS,062957.00,2.912,2.381,4.982,72,0.0001,5.189,6.038*5B
$GPGRS,062957.00,1,-0.2,-0.2,0.6,-0.4,0.3,-0.2,0.3,0.1,,,,*40
$GPGRS,062957.00,1,-4.5,-1.3,5.2,3.2,2.5,-2.5,-0.1,-3.2,,,,*69
$GPGRS,062957.00,1,-0.3,0.2,-0.5,0.0,-0.1,0.1,-0.1,-0.5,0.1,0.4,,*69
$GPGRS,062957.00,1,1.6,-4.2,1.1,3.3,-1.2,-0.3,-0.7,-0.1,-1.9,,,*60
$GPGSV,6,1,21,30,78,211,51,13,24,281,43,14,20,166,41,11,19,234,43*76
$GPGSV,6,2,21,09,27,097,43,05,40,306,46,20,61,256,48,07,61,061,48*7E
$GPGSV,6,3,21,06,01,205,23,08,01,077,33,27,03,047,37,04,01,098,29*79
$GPGSV,6,4,21,36,35,170,45,58,13,245,37,40,24,133,37,34,31,208,44*7C
$GPGSV,6,5,21,49,34,195,45,57,07,112,38,41,07,108,36,61,03,257,38*72
$GPGSV,6,6,21*7A
$GLGSV,2,1,08,72,75,035,50,88,15,288,46,81,13,340,44,65,29,312,44*6A
$GLGSV,2,2,08,73,38,041,49,75,30,186,48,71,34,109,49,74,69,113,47*60
$GAGSV,3,1,11,05,64,078,48,25,25,156,43,34,14,217,40,13,17,323,40*6B
$GAGSV,3,2,11,09,12,094,39,31,19,041,40,16,38,131,,15,30,268,43*6C
$GAGSV,3,3,11,24,42,096,46,03,57,292,48,08,08,280,38*50
$GBGSV,6,1,21,22,77,128,52,58,17,040,,09,20,056,38,05,22,129,39*6A
$GBGSV,6,2,21,46,22,046,,19,22,126,44,26,35,183,,50,23,304,*6A
$GBGSV,6,3,21,45,44,190,49,21,47,305,49,36,65,095,51,11,06,302,37*6F
$GBGSV,6,4,21,28,05,333,,02,05,108,34,40,09,074,,43,02,322,*67
$GBGSV,6,5,21,10,07,115,,06,06,057,35,16,04,056,38,07,08,108,*61
$GBGSV,6,6,21,60,07,112,40*5F
$GPGGA,062957.00,,,,,0,00,,,M,,M,,*47
$PTNL,GGK,062957.00,010125,4742.1603705,N,01618.0999440,E,1,35,0.7,EHT751.1137,M*47
$GPGGQ,062957.00,010125,4742.1603705,N,01618.0999440,E,1,35,0.953,707.9072,M*3A
$GPGFA,062957.00,4.717,6.134,0.496,0.319,12.554,0.748,,VVV*35
$GPLLK,062957.00,010125,,M,,M,1,35,0.8,,M*0A
$GNGMP,062957.00,,,,,DAAA,35,0.4,,,,*5B
$GPGMP,062957.00,,,,,,08,,,,1.4,136*7B
$GLGMP,062957.00,,,,,,08,,,,,*78
$GAGMP,062957.00,,,,,,10,,,,,*7C
$GBGMP,062957.00,,,,,,09,,,,,*77
$PSSN,SNC,[0,282615000,2347]*4E
$GPZDA,063002.00,01,01,2025,,*64
$GPDTM,W84,,00.0000000,N,00.0000000,E,00.0000000,W84*5F
$PSSN,TFM,063002.00,,,,*68
$GPRMC,063002.00,A,4742.1603701,N,01618.0999421,E,0.0,,010125,5.1,E,D*1D
$GPGLL,4742.1603701,N,01618.0999421,E,063002.00,A,D*6C
$GPGGA,063002.00,4742.1603701,N,01618.0999421,E,2,35,0.4,707.9083,M,43.2066,M,2.4,0136*46
$GNGNS,063002.00,4742.1603701,N,01618.0999421,E,DAAA,35,0.4,707.9083,43.2066,,*58
$GPGNS,063002.00,,,,,,08,,,,2.4,136*70
$GLGNS,063002.00,,,,,,08,,,,,*70
$GAGNS,063002.00,,,,,,10,,,,,*74
$GBGNS,063002.00,,,,,,09,,,,,*7F
$GPLLQ,063002.00,010125,,M,,M,1,35,0.948,,M*15
$GPVTG,,T,,M,0.00,N,0.00,K,D*26
$GPHDT,,T*1B
$GPTHS,,V*0E
$GPROT,,V*08
$PSSN,HRP,063002.00,010125,,,,,,,00,0,,*66
$PTNL,AVR,063002.00,,Yaw,,Tilt,,,,0,,00*30
$GPGSA,A,3,05,07,09,11,13,14,20,30,,,,,0.7,0.4,0.6*3A
$GPGSA,A,3,65,71,72,73,74,75,81,88,,,,,0.7,0.4,0.6*3B
$GPGSA,A,3,03,05,08,09,13,15,24,25,31,34,,,0.7,0.4,0.6*32
$GPGSA,A,3,05,06,09,11,19,21,22,36,60,,,,0.7,0.4,0.6*35
$GPGST,063002.00,2.035,0.488,0.313,12.932,0.480,0.324,0.751*60
$GPGBS,063002.00,2.934,2.424,5.073,72,0.0001,4.886,6.038*5E
$GPGRS,063002.00,1,-0.2,-0.1,0.0,0.1,0.3,0.1,0.0,-0.0,,,,*64
$GPGRS,063002.00,1,-4.3,-1.2,4.9,3.1,2.8,-2.9,-0.8,-3.0,,,,*65
$GPGRS,063002.00,1,-0.2,0.4,-0.8,0.0,-0.1,-0.2,-0.0,-0.6,0.3,0.4,,*45
$GPGRS,063002.00,1,1.5,-4.0,1.5,3.1,-1.1,0.0,-0.4,-0.1,-2.0,,,*4B
$GPGSV,6,1,21,30,78,211,51,13,24,281,44,14,20,166,43,11,19,234,42*72
$GPGSV,6,2,21,09,27,097,43,05,41,305,46,07,61,061,48,20,61,256,48*7C
$GPGSV,6,3,21,06,01,205,24,08,01,077,33,27,03,047,36,04,01,098,29*7F
$GPGSV,6,4,21,36,35,170,45,58,13,245,37,40,24,133,37,34,31,208,44*7C
$GPGSV,6,5,21,49,34,195,45,57,07,112,38,41,07,108,35,61,03,257,38*71
$GPGSV,6,6,21*7A
$GLGSV,2,1,08,72,75,035,51,88,15,288,46,81,13,340,44,65,29,312,44*6B
$GLGSV,2,2,08,73,38,041,48,75,30,186,48,71,34,109,49,74,69,113,47*61
$GAGSV,3,1,11,05,64,078,48,25,25,156,43,34,14,217,40,13,17,323,39*65
$GAGSV,3,2,11,09,12,094,39,31,19,040,40,16,38,131,,15,30,268,43*6D
$GAGSV,3,3,11,24,42,096,46,03,57,292,48,08,08,280,37*5F
$GBGSV,6,1,21,22,76,128,52,58,17,040,,09,20,056,38,05,22,129,39*6B
$GBGSV,6,2,21,46,22,046,,19,22,126,44,26,35,183,,50,23,304,*6A
$GBGSV,6,3,21,45,44,190,49,21,47,305,49,36,65,094,51,11,06,302,37*6E
$GBGSV,6,4,21,28,05,333,,02,05,108,35,40,09,074,,43,02,322,*66
$GBGSV,6,5,21,10,07,115,,06,06,057,35,16,04,056,38,07,08,108,*61
$GBGSV,6,6,21,60,07,112,40*5F
$GPGGA,063002.00,,,,,0,00,,,M,,M,,*4F
$PTNL,GGK,063002.00,010125,4742.1603701,N,01618.0999421,E,1,35,0.7,EHT751.1149,M*45
$GPGGQ,063002.00,010125,4742.1603701,N,01618.0999421,E,1,35,0.948,707.9083,M*35
$GPGFA,063002.00,4.636,6.155,0.488,0.313,12.932,0.751,,VVV*39
$GPLLK,063002.00,010125,,M,,M,1,35,0.8,,M*02
$GNGMP,063002.00,,,,,DAAA,35,0.4,,,,*53
$GPGMP,063002.00,,,,,,08,,,,2.4,136*70
$GLGMP,063002.00,,,,,,08,,,,,*70
$GAGMP,063002.00,,,,,,10,,,,,*74
$GBGMP,063002.00,,,,,,09,,,,,*7F
$PSSN,SNC,[0,282620000,2347]*48
$GPZDA,063007.00,01,01,2025,,*61
$GPDTM,W84,,00.0000000,N,00.0000000,E,00.0000000,W84*5F
$PSSN,TFM,063007.00,,,,*6D
$GPRMC,063007.00,A,4742.1603706,N,01618.0999437,E,0.0,,010125,5.1,E,D*18
$GPGLL,4742.1603706,N,01618.0999437,E,063007.00,A,D*69
$GPGGA,063007.00,4742.1603706,N,01618.0999437,E,2,35,0.4,707.9116,M,43.2066,M,2.9,0136*43
$GNGNS,063007.00,4742.1603706,N,01618.0999437,E,DAAA,35,0.4,707.9116,43.2066,,*50
$GPGNS,063007.00,,,,,,08,,,,2.9,136*78
$GLGNS,063007.00,,,,,,08,,,,,*75
$GAGNS,063007.00,,,,,,10,,,,,*71
$GBGNS,063007.00,,,,,,09,,,,,*7A
$GPLLQ,063007.00,010125,,M,,M,1,35,0.957,,M*1E
$GPVTG,,T,,M,0.00,N,0.00,K,D*26
$GPHDT,,T*1B
$GPTHS,,V*0E
$GPROT,,V*08
$PSSN,HRP,063007.00,010125,,,,,,,00,0,,*63
$PTNL,AVR,063007.00,,Yaw,,Tilt,,,,0,,00*35
$GPGSA,A,3,05,07,09,11,13,14,20,30,,,,,0.7,0.4,0.6*3A
$GPGSA,A,3,65,71,72,73,74,75,81,88,,,,,0.7,0.4,0.6*3B
$GPGSA,A,3,03,05,08,09,13,15,24,25,31,34,,,0.7,0.4,0.6*32
$GPGSA,A,3,05,06,09,11,19,21,22,36,60,,,,0.7,0.4,0.6*35
$GPGST,063007.00,2.044,0.495,0.318,13.095,0.488,0.329,0.755*60
$GPGBS,063007.00,2.957,2.466,5.213,72,0.0001,5.026,6.038*5F
$GPGRS,063007.00,1,-0.2,-0.1,0.3,0.3,0.5,-0.1,-0.1,0.0,,,,*4A
$GPGRS,063007.00,1,-4.7,-1.1,5.0,2.6,2.9,-3.4,-0.2,-3.4,,,,*6A
$GPGRS,063007.00,1,-0.4,0.4,-0.9,-0.4,-0.2,0.2,0.1,-0.8,0.5,0.1,,*61
$GPGRS,063007.00,1,1.4,-4.1,0.8,1.7,-1.0,-0.1,-0.6,-0.2,-1.8,,,*61
$GPGSV,6,1,21,30,78,211,51,13,24,281,43,14,20,166,43,11,19,234,43*74
$GPGSV,6,2,21,09,26,097,43,05,41,305,46,07,61,061,48,20,61,256,48*7D
$GPGSV,6,3,21,06,01,205,23,08,01,077,33,27,03,047,35,04,01,098,28*7A
$GPGSV,6,4,21,36,35,170,45,58,13,245,37,40,24,133,36,34,31,208,44*7D
$GPGSV,6,5,21,49,34,195,45,57,07,112,37,41,07,108,35,61,03,257,38*7E
$GPGSV,6,6,21*7A
$GLGSV,2,1,08,72,75,035,50,88,15,288,46,81,13,340,44,65,29,312,44*6A
$GLGSV,2,2,08,73,38,041,48,75,30,186,47,71,34,110,49,74,69,112,47*67
$GAGSV,3,1,11,05,64,078,48,25,25,156,43,34,14,217,40,13,17,323,40*6B
$GAGSV,3,2,11,09,12,094,39,31,19,040,40,16,38,131,,15,30,268,43*6D
$GAGSV,3,3,11,24,42,095,46,03,57,293,48,08,08,280,37*5D
$GBGSV,6,1,21,22,76,128,52,58,17,040,,09,20,056,38,05,22,129,38*6A
$GBGSV,6,2,21,46,22,046,,19,22,126,43,26,35,183,,50,23,304,*6D
$GBGSV,6,3,21,45,44,190,49,21,47,305,49,36,65,094,51,11,06,302,36*6F
$GBGSV,6,4,21,28,05,333,,02,05,108,34,40,09,074,,43,02,322,*67
$GBGSV,6,5,21,10,07,115,,06,06,057,35,16,04,056,38,07,08,108,*61
$GBGSV,6,6,21,60,07,112,40*5F
$GPGGA,063007.00,,,,,0,00,,,M,,M,,*4A
$PTNL,GGK,063007.00,010125,4742.1603706,N,01618.0999437,E,1,35,0.7,EHT751.1181,M*44
$GPGGQ,063007.00,010125,4742.1603706,N,01618.0999437,E,1,35,0.957,707.9116,M*33
$GPGFA,063007.00,4.709,6.190,0.495,0.318,13.095,0.755,,VVV*3E
$GPLLK,063007.00,010125,,M,,M,1,35,0.8,,M*07
$GNGMP,063007.00,,,,,DAAA,35,0.4,,,,*56
$GPGMP,063007.00,,,,,,08,,,,2.9,136*78
$GLGMP,063007.00,,,,,,08,,,,,*75
$GAGMP,063007.00,,,,,,10,,,,,*71
$GBGMP,063007.00,,,,,,09,,,,,*7A
$PSSN,SNC,[0,282625000,2347]*4D
$GPZDA,063012.00,01,01,2025,,*65
$GPDTM,W84,,00.0000000,N,00.0000000,E,00.0000000,W84*5F
$PSSN,TFM,063012.00,,,,*69
$GPRMC,063012.00,A,4742.1603701,N,01618.0999443,E,0.0,,010125,5.1,E,D*18
$GPGLL,4742.1603701,N,01618.0999443,E,063012.00,A,D*69
$GPGGA,063012.00,4742.1603701,N,01618.0999443,E,2,35,0.4,707.9131,M,43.2066,M,3.4,0136*4A
$GNGNS,063012.00,4742.1603701,N,01618.0999443,E,DAAA,35,0.4,707.9131,43.2066,,*55
$GPGNS,063012.00,,,,,,08,,,,3.4,136*70
$GLGNS,063012.00,,,,,,08,,,,,*71
$GAGNS,063012.00,,,,,,10,,,,,*75
$GBGNS,063012.00,,,,,,09,,,,,*7E
$GPLLQ,063012.00,010125,,M,,M,1,35,0.956,,M*1B
$GPVTG,,T,,M,0.00,N,0.00,K,D*26
$GPHDT,,T*1B
$GPTHS,,V*0E
$GPROT,,V*08
$PSSN,HRP,063012.00,010125,,,,,,,00,0,,*67
$PTNL,AVR,063012.00,,Yaw,,Tilt,,,,0,,00*31
$GPGSA,A,3,05,07,09,11,13,14,20,30,,,,,0.7,0.4,0.6*3A
$GPGSA,A,3,65,71,72,73,74,75,81,88,,,,,0.7,0.4,0.6*3B
$GPGSA,A,3,03,05,08,09,13,15,24,25,31,34,,,0.7,0.4,0.6*32
$GPGSA,A,3,05,06,09,11,19,21,22,36,60,,,,0.7,0.4,0.6*35
$GPGST,063012.00,2.085,0.500,0.322,12.820,0.493,0.333,0.748*67
$GPGBS,063012.00,3.023,2.473,5.005,72,0.0001,4.969,6.038*52
$GPGRS,063012.00,1,0.1,-0.2,-0.1,0.3,0.4,-0.7,-0.1,0.0,,,,*4B
$GPGRS,063012.00,1,-4.4,-0.6,5.0,3.5,2.8,-3.6,1.5,-3.0,,,,*45
$GPGRS,063012.00,1,-0.2,0.6,0.1,-0.6,-0.0,0.4,0.1,-0.8,0.4,0.3,,*41
$GPGRS,063012.00,1,1.2,-4.2,1.0,2.3,-1.0,-0.2,-0.5,0.0,-2.0,,,*4A
$GPGSV,6,1,21,30,78,211,51,13,24,281,43,14,20,166,42,11,19,234,43*75
$GPGSV,6,2,21,09,26,097,42,05,41,305,46,07,61,061,48,20,61,256,48*7C
$GPGSV,6,3,21,06,01,205,22,08,01,077,32,27,03,047,34,04,01,098,28*7B
$GPGSV,6,4,21,36,35,170,45,58,13,245,37,40,24,133,36,34,31,208,44*7D
$GPGSV,6,5,21,49,34,195,45,57,07,112,37,41,07,108,35,61,03,257,38*7E
$GPGSV,6,6,21*7A
$GLGSV,2,1,08,72,75,036,50,88,15,288,46,81,13,340,43,65,29,312,45*6F
$GLGSV,2,2,08,73,38,041,49,75,30,186,48,71,34,110,48,74,69,112,47*68
$GAGSV,3,1,11,05,64,078,48,25,25,156,43,34,14,216,40,13,17,323,39*64
$GAGSV,3,2,11,09,12,094,38,31,19,040,40,16,38,131,,15,30,268,43*6C
$GAGSV,3,3,11,24,42,095,45,03,57,293,48,08,08,280,37*5E
$GBGSV,6,1,21,22,76,129,52,58,17,040,,09,20,056,38,05,22,129,38*6B
$GBGSV,6,2,21,46,22,046,,19,22,126,43,26,35,183,,50,23,304,*6D
$GBGSV,6,3,21,45,44,190,49,21,47,305,49,36,65,094,51,11,06,302,36*6F
$GBGSV,6,4,21,28,05,333,,02,05,108,34,40,09,074,,43,02,322,*67
$GBGSV,6,5,21,10,07,115,,06,06,057,35,16,04,056,38,07,08,108,*61
$GBGSV,6,6,21,60,07,112,40*5F
$GPGGA,063012.00,,,,,0,00,,,M,,M,,*4E
$PTNL,GGK,063012.00,010125,4742.1603701,N,01618.0999443,E,1,35,0.7,EHT751.1197,M*43
$GPGGQ,063012.00,010125,4742.1603701,N,01618.0999443,E,1,35,0.956,707.9131,M*37
$GPGFA,063012.00,4.755,6.133,0.500,0.322,12.820,0.748,,VVV*35
$GPLLK,063012.00,010125,,M,,M,1,35,0.8,,M*03
$GNGMP,063012.00,,,,,DAAA,35,0.4,,,,*52
$GPGMP,063012.00,,,,,,08,,,,3.4,136*70
$GLGMP,063012.00,,,,,,08,,,,,*71
$GAGMP,063012.00,,,,,,10,,,,,*75
$GBGMP,063012.00,,,,,,09,,,,,*7E
$PSSN,SNC,[0,282630000,2347]*49
$GPZDA,063017.00,01,01,2025,,*60
$GPDTM,W84,,00.0000000,N,00.0000000,E,00.0000000,W84*5F
$PSSN,TFM,063017.00,,,,*6C
$GPRMC,063017.00,A,4742.1603683,N,01618.0999491,E,0.0,,010125,5.1,E,D*19
$GPGLL,4742.1603683,N,01618.0999491,E,063017.00,A,D*68
$GPGGA,063017.00,4742.1603683,N,01618.0999491,E,2,35,0.4,707.9129,M,43.2066,M,1.4,0136*40
$GNGNS,063017.00,4742.1603683,N,01618.0999491,E,DAAA,35,0.4,707.9129,43.2066,,*5D
$GPGNS,063017.00,,,,,,08,,,,1.4,136*77
$GLGNS,063017.00,,,,,,08,,,,,*74
$GAGNS,063017.00,,,,,,10,,,,,*70
$GBGNS,063017.00,,,,,,09,,,,,*7B
$GPLLQ,063017.00,010125,,M,,M,1,35,0.952,,M*1A
$GPVTG,,T,,M,0.00,N,0.01,K,D*27
$GPHDT,,T*1B
$GPTHS,,V*0E
$GPROT,,V*08
$PSSN,HRP,063017.00,010125,,,,,,,00,0,,*62
$PTNL,AVR,063017.00,,Yaw,,Tilt,,,,0,,00*34
$GPGSA,A,3,05,07,09,11,13,14,20,30,,,,,0.8,0.4,0.6*35
$GPGSA,A,3,65,71,72,73,74,75,81,88,,,,,0.8,0.4,0.6*34
$GPGSA,A,3,03,05,08,09,13,15,24,25,31,34,,,0.8,0.4,0.6*3D
$GPGSA,A,3,05,09,11,19,21,22,36,45,60,,,,0.8,0.4,0.6*3D
$GPGST,063017.00,1.882,0.495,0.319,12.523,0.488,0.329,0.748*64
$GPGBS,063017.00,2.889,2.372,4.984,72,0.0001,5.158,6.038*52
$GPGRS,063017.00,1,-0.1,-0.1,-0.0,-0.1,0.3,-0.6,0.1,0.1,,,,*64
$GPGRS,063017.00,1,-4.1,0.0,5.2,3.2,2.6,-3.5,1.7,-2.7,,,,*62
$GPGRS,063017.00,1,-0.3,0.3,-0.2,-0.6,-0.5,0.1,0.0,-1.1,0.1,0.2,,*63
$GPGRS,063017.00,1,1.2,0.7,2.4,-1.1,-0.2,-0.7,0.1,0.6,-2.0,,,*61
$GPGSV,6,1,21,30,78,211,51,13,24,281,43,14,20,166,42,11,19,234,43*75
$GPGSV,6,2,21,09,26,098,42,05,41,305,46,07,61,061,48,20,61,256,48*73
$GPGSV,6,3,21,06,01,205,23,08,01,077,31,27,03,047,35,04,01,098,29*79
$GPGSV,6,4,21,36,35,170,45,58,13,245,37,40,24,133,36,34,31,208,44*7D
$GPGSV,6,5,21,49,34,195,45,57,07,112,37,41,07,108,36,61,03,257,38*7D
$GPGSV,6,6,21*7A
$GLGSV,2,1,08,72,75,036,50,88,15,288,47,81,13,340,44,65,29,312,45*69
$GLGSV,2,2,08,73,38,041,49,75,30,186,48,71,33,110,49,74,70,112,47*66
$GAGSV,3,1,11,05,64,078,48,25,25,156,42,34,14,216,40,13,17,323,39*65
$GAGSV,3,2,11,09,12,094,38,31,19,040,39,16,38,131,,15,30,268,43*62
$GAGSV,3,3,11,24,42,095,45,03,57,293,47,08,08,280,38*5E
$GBGSV,6,1,21,22,76,129,52,58,17,040,,09,20,056,38,05,22,129,38*6B
$GBGSV,6,2,21,46,21,046,,19,22,126,44,26,35,183,,50,23,304,*69
$GBGSV,6,3,21,45,44,190,49,21,47,305,49,36,65,094,51,11,06,302,36*6F
$GBGSV,6,4,21,28,05,333,,02,05,108,34,40,09,074,,43,02,322,*67
$GBGSV,6,5,21,10,07,115,,06,06,057,35,16,04,056,37,07,08,108,*6E
$GBGSV,6,6,21,60,07,112,40*5F
$GPGGA,063017.00,,,,,0,00,,,M,,M,,*4B
$PTNL,GGK,063017.00,010125,4742.1603683,N,01618.0999491,E,1,35,0.8,EHT751.1194,M*4E
$GPGGQ,063017.00,010125,4742.1603683,N,01618.0999491,E,1,35,0.952,707.9129,M*3B
$GPGFA,063017.00,4.708,6.137,0.495,0.319,12.523,0.748,,VVV*37
$GPLLK,063017.00,010125,,M,,M,1,35,0.9,,M*07
$GNGMP,063017.00,,,,,DAAA,35,0.4,,,,*57
$GPGMP,063017.00,,,,,,08,,,,1.4,136*77
$GLGMP,063017.00,,,,,,08,,,,,*74
$GAGMP,063017.00,,,,,,10,,,,,*70
$GBGMP,063017.00,,,,,,09,,,,,*7B
$PSSN,SNC,[0,282635000,2347]*4C
$GPZDA,063022.00,01,01,2025,,*66
$GPDTM,W84,,00.0000000,N,00.0000000,E,00.0000000,W84*5F
$PSSN,TFM,063022.00,,,,*6A
$GPRMC,063022.00,A,4742.1603669,N,01618.0999500,E,0.0,,010125,5.1,E,D*12
$GPGLL,4742.1603669,N,01618.0999500,E,063022.00,A,D*63
$GPGGA,063022.00,4742.1603669,N,01618.0999500,E,2,36,0.4,707.9064,M,43.2066,M,2.4,0136*43
$GNGNS,063022.00,4742.1603669,N,01618.0999500,E,DAAA,36,0.4,707.9064,43.2066,,*5D
$GPGNS,063022.00,,,,,,08,,,,2.4,136*72
$GLGNS,063022.00,,,,,,08,,,,,*72
$GAGNS,063022.00,,,,,,10,,,,,*76
$GBGNS,063022.00,,,,,,10,,,,,*75
$GPLLQ,063022.00,010125,,M,,M,1,36,0.948,,M*14
$GPVTG,,T,,M,0.00,N,0.01,K,D*27
$GPHDT,,T*1B
$GPTHS,,V*0E
$GPROT,,V*08
$PSSN,HRP,063022.00,010125,,,,,,,00,0,,*64
$PTNL,AVR,063022.00,,Yaw,,Tilt,,,,0,,00*32
$GPGSA,A,3,05,07,09,11,13,14,20,30,,,,,0.7,0.4,0.6*3A
$GPGSA,A,3,65,71,72,73,74,75,81,88,,,,,0.7,0.4,0.6*3B
$GPGSA,A,3,03,05,08,09,13,15,24,25,31,34,,,0.7,0.4,0.6*32
$GPGSA,A,3,05,06,09,11,19,21,22,36,45,60,,,0.7,0.4,0.6*34
$GPGST,063022.00,1.955,0.487,0.313,12.861,0.480,0.324,0.751*66
$GPGBS,063022.00,2.910,2.411,5.064,72,0.0001,5.020,6.038*5F
$GPGRS,063022.00,1,-0.3,-0.2,0.2,0.0,0.3,-0.3,0.2,0.1,,,,*66
$GPGRS,063022.00,1,-4.2,0.0,5.0,3.4,2.5,-3.0,1.7,-2.9,,,,*6B
$GPGRS,063022.00,1,0.0,0.3,-0.8,-0.3,-0.7,-0.1,0.1,-1.1,-0.2,0.3,,*45
$GPGRS,063022.00,1,1.2,-3.6,0.5,2.3,-1.6,-0.2,-0.4,-0.2,0.3,-1.7,,*4F
$GPGSV,6,1,21,30,78,211,51,13,24,281,43,14,20,166,42,11,19,234,42*74
$GPGSV,6,2,21,09,26,098,42,05,41,305,46,07,61,061,48,20,61,256,48*73
$GPGSV,6,3,21,06,01,205,22,08,01,077,32,27,03,047,36,04,01,098,28*79
$GPGSV,6,4,21,36,35,170,45,58,13,245,37,40,24,133,36,34,31,208,43*7A
$GPGSV,6,5,21,49,34,195,44,57,07,112,38,41,07,108,35,61,03,257,38*70
$GPGSV,6,6,21*7A
$GLGSV,2,1,08,72,75,036,50,88,15,288,46,81,13,340,43,65,29,312,44*6E
$GLGSV,2,2,08,73,38,041,49,75,30,186,48,71,33,110,49,74,70,112,47*66
$GAGSV,3,1,11,05,64,079,48,25,25,156,42,34,14,216,41,13,17,323,39*65
$GAGSV,3,2,11,09,12,094,39,31,19,040,39,16,38,131,,15,30,268,43*63
$GAGSV,3,3,11,24,42,095,46,03,57,293,48,08,08,280,38*52
$GBGSV,6,1,21,22,76,129,52,58,17,040,,09,20,056,38,05,22,129,39*6A
$GBGSV,6,2,21,46,21,046,,19,22,126,44,26,35,183,,50,23,304,*69
$GBGSV,6,3,21,45,44,190,49,21,47,305,49,36,65,094,51,11,06,302,36*6F
$GBGSV,6,4,21,28,05,333,,02,05,108,34,40,09,074,,43,02,322,*67
$GBGSV,6,5,21,10,07,115,,06,06,057,35,16,04,056,37,07,08,108,*6E
$GBGSV,6,6,21,60,07,112,40*5F
$GPGGA,063022.00,,,,,0,00,,,M,,M,,*4D
$PTNL,GGK,063022.00,010125,4742.1603669,N,01618.0999500,E,1,36,0.7,EHT751.1130,M*47
$GPGGQ,063022.00,010125,4742.1603669,N,01618.0999500,E,1,36,0.948,707.9064,M*30
$GPGFA,063022.00,4.628,6.156,0.487,0.313,12.861,0.751,,VVV*3F
$GPLLK,063022.00,010125,,M,,M,1,36,0.8,,M*03
$GNGMP,063022.00,,,,,DAAA,36,0.4,,,,*52
$GPGMP,063022.00,,,,,,08,,,,2.4,136*72
$GLGMP,063022.00,,,,,,08,,,,,*72
$GAGMP,063022.00,,,,,,10,,,,,*76
$GBGMP,063022.00,,,,,,10,,,,,*75
$PSSN,SNC,[0,282640000,2347]*4E
$GPZDA,063027.00,01,01,2025,,*63
$GPDTM,W84,,00.0000000,N,00.0000000,E,00.0000000,W84*5F
$PSSN,TFM,063027.00,,,,*6F
$GPRMC,063027.00,A,4742.1603662,N,01618.0999518,E,0.0,,010125,5.1,E,D*15
$GPGLL,4742.1603662,N,01618.0999518,E,063027.00,A,D*64
$GPGGA,063027.00,4742.1603662,N,01618.0999518,E,2,35,0.4,707.9056,M,43.2066,M,2.9,0136*4B
$GNGNS,063027.00,4742.1603662,N,01618.0999518,E,DAAA,35,0.4,707.9056,43.2066,,*58
$GPGNS,063027.00,,,,,,08,,,,2.9,136*7A
$GLGNS,063027.00,,,,,,08,,,,,*77
$GAGNS,063027.00,,,,,,10,,,,,*73
$GBGNS,063027.00,,,,,,09,,,,,*78
$GPLLQ,063027.00,010125,,M,,M,1,35,0.958,,M*13
$GPVTG,,T,,M,0.00,N,0.01,K,D*27
$GPHDT,,T*1B
$GPTHS,,V*0E
$GPROT,,V*08
$PSSN,HRP,063027.00,010125,,,,,,,00,0,,*61
$PTNL,AVR,063027.00,,Yaw,,Tilt,,,,0,,00*37
$GPGSA,A,3,05,07,09,11,13,14,20,30,,,,,0.8,0.4,0.6*35
$GPGSA,A,3,65,71,72,73,74,75,81,88,,,,,0.8,0.4,0.6*34
$GPGSA,A,3,03,05,08,09,13,15,24,25,31,34,,,0.8,0.4,0.6*3D
$GPGSA,A,3,05,06,09,19,21,22,36,45,60,,,,0.8,0.4,0.6*3B
$GPGST,063027.00,1.989,0.495,0.318,12.735,0.487,0.329,0.756*69
$GPGBS,063027.00,2.950,2.455,5.226,72,0.0001,5.069,6.038*57
$GPGRS,063027.00,1,-0.1,-0.0,-0.4,0.1,0.1,-0.2,0.1,0.2,,,,*4A
$GPGRS,063027.00,1,-4.6,0.3,5.1,2.7,2.5,-3.0,0.9,-3.8,,,,*65
$GPGRS,063027.00,1,-0.1,0.5,-0.3,-0.4,-0.2,0.4,0.3,-0.8,0.0,-0.1,,*41
$GPGRS,063027.00,1,1.9,-3.8,0.8,-1.6,-0.2,-0.5,-0.2,0.2,-1.8,,,*62
$GPGSV,6,1,21,30,78,211,51,13,24,281,43,14,21,166,42,11,19,234,42*75
$GPGSV,6,2,21,09,26,098,42,05,41,305,47,07,61,061,48,20,61,255,48*71
$GPGSV,6,3,21,06,01,205,22,08,01,077,32,27,03,047,35,04,01,098,25*77
$GPGSV,6,4,21,36,35,170,45,58,13,245,37,40,24,133,37,34,31,208,44*7C
$GPGSV,6,5,21,49,34,195,45,57,07,112,37,41,07,108,35,61,03,257,38*7E
$GPGSV,6,6,21*7A
$GLGSV,2,1,08,72,75,036,50,88,15,288,46,81,13,340,44,65,29,312,45*68
$GLGSV,2,2,08,73,38,041,48,75,30,186,48,71,33,110,50,74,70,112,47*6F
$GAGSV,3,1,11,05,64,079,48,25,25,156,43,34,14,216,40,13,17,323,40*6B
$GAGSV,3,2,11,09,12,094,38,31,19,040,39,16,38,131,,15,30,268,43*62
$GAGSV,3,3,11,24,42,095,46,03,57,293,48,08,08,280,38*52
$GBGSV,6,1,21,22,76,129,52,58,17,040,,09,20,056,38,05,22,129,39*6A
$GBGSV,6,2,21,46,21,046,,19,22,126,44,26,35,183,,50,23,304,*69
$GBGSV,6,3,21,45,44,190,49,21,47,305,49,36,65,094,51,11,06,302,35*6C
$GBGSV,6,4,21,28,05,333,,02,05,108,34,40,10,074,,43,02,322,*6F
$GBGSV,6,5,21,10,07,115,,06,06,057,35,16,04,056,37,07,08,108,*6E
$GBGSV,6,6,21,60,07,112,40*5F
$GPGGA,063027.00,,,,,0,00,,,M,,M,,*48
$PTNL,GGK,063027.00,010125,4742.1603662,N,01618.0999518,E,1,35,0.8,EHT751.1122,M*4F
$GPGGQ,063027.00,010125,4742.1603662,N,01618.0999518,E,1,35,0.958,707.9056,M*34
$GPGFA,063027.00,4.702,6.199,0.495,0.318,12.735,0.756,,VVV*31
$GPLLK,063027.00,010125,,M,,M,1,35,0.8,,M*05
$GNGMP,063027.00,,,,,DAAA,35,0.4,,,,*54
$GPGMP,063027.00,,,,,,08,,,,2.9,136*7A
$GLGMP,063027.00,,,,,,08,,,,,*77
$GAGMP,063027.00,,,,,,10,,,,,*73
$GBGMP,063027.00,,,,,,09,,,,,*78
$PSSN,SNC,[0,282645000,2347]*4B
$GPZDA,063032.00,01,01,2025,,*67
$GPDTM,W84,,00.0000000,N,00.0000000,E,00.0000000,W84*5F
$PSSN,TFM,063032.00,,,,*6B
$GPRMC,063032.00,A,4742.1603657,N,01618.0999549,E,0.0,,010125,5.1,E,D*13
$GPGLL,4742.1603657,N,01618.0999549,E,063032.00,A,D*62
$GPGGA,063032.00,4742.1603657,N,01618.0999549,E,2,35,0.4,707.9038,M,43.2066,M,3.4,0136*49
$GNGNS,063032.00,4742.1603657,N,01618.0999549,E,DAAA,35,0.4,707.9038,43.2066,,*56
$GPGNS,063032.00,,,,,,08,,,,3.4,136*72
$GLGNS,063032.00,,,,,,08,,,,,*73
$GAGNS,063032.00,,,,,,10,,,,,*77
$GBGNS,063032.00,,,,,,09,,,,,*7C
$GPLLQ,063032.00,010125,,M,,M,1,35,0.956,,M*19
$GPVTG,,T,,M,0.01,N,0.01,K,D*26
$GPHDT,,T*1B
$GPTHS,,V*0E
$GPROT,,V*08
$PSSN,HRP,063032.00,010125,,,,,,,00,0,,*65
$PTNL,AVR,063032.00,,Yaw,,Tilt,,,,0,,00*33
$GPGSA,A,3,05,07,09,11,13,14,20,30,,,,,0.8,0.4,0.6*35
$GPGSA,A,3,65,71,72,73,74,75,81,88,,,,,0.8,0.4,0.6*34
$GPGSA,A,3,03,05,08,09,13,15,24,25,31,34,,,0.8,0.4,0.6*3D
$GPGSA,A,3,05,06,09,19,21,22,36,45,60,,,,0.8,0.4,0.6*3B
$GPGST,063032.00,2.017,0.499,0.323,12.511,0.492,0.333,0.749*61
$GPGBS,063032.00,3.015,2.462,5.019,72,0.0001,5.252,6.038*5A
$GPGRS,063032.00,1,0.1,-0.4,-0.1,-0.0,0.4,-0.4,0.3,0.1,,,,*4C
$GPGRS,063032.00,1,-3.9,-0.3,5.3,2.9,2.8,-2.9,1.7,-3.3,,,,*49
$GPGRS,063032.00,1,-0.1,0.4,-0.8,-0.5,0.4,0.2,0.2,-0.9,0.3,-0.3,,*62
$GPGRS,063032.00,1,1.9,-4.5,1.0,-1.3,-0.1,-0.6,-0.1,0.0,-1.7,,,*6E
$GPGSV,6,1,21,30,78,211,51,13,24,281,43,14,21,166,43,11,19,234,43*75
$GPGSV,6,2,21,09,26,098,42,05,41,305,47,07,61,061,48,20,61,255,48*71
$GPGSV,6,3,21,06,01,205,23,08,01,077,33,27,03,047,34,04,00,098,22*70
$GPGSV,6,4,21,36,35,170,45,58,13,245,37,40,24,133,36,34,31,208,44*7D
$GPGSV,6,5,21,49,34,195,45,57,07,112,38,41,07,108,35,61,03,257,38*71
$GPGSV,6,6,21*7A
$GLGSV,2,1,08,72,75,036,50,88,15,288,45,81,13,340,44,65,29,312,44*6A
$GLGSV,2,2,08,73,38,041,49,75,30,186,48,71,33,110,49,74,70,112,47*66
$GAGSV,3,1,11,05,64,079,48,25,25,156,42,34,14,216,40,13,17,323,40*6A
$GAGSV,3,2,11,09,12,094,38,31,19,040,39,16,38,131,,15,30,268,43*62
$GAGSV,3,3,11,24,42,095,46,03,58,293,48,08,08,281,37*53
$GBGSV,6,1,21,22,76,129,52,58,17,040,,09,20,056,39,05,22,129,38*6A
$GBGSV,6,2,21,46,21,046,,19,22,126,44,26,35,183,,50,23,304,*69
$GBGSV,6,3,21,45,44,190,49,21,47,305,49,36,65,094,51,11,06,302,35*6C
$GBGSV,6,4,21,28,05,333,,02,05,108,35,40,10,074,,43,02,322,*6E
$GBGSV,6,5,21,10,07,115,,06,06,057,35,16,04,056,37,07,08,108,*6E
$GBGSV,6,6,21,60,07,112,40*5F
$GPGGA,063032.00,,,,,0,00,,,M,,M,,*4C
$PTNL,GGK,063032.00,010125,4742.1603657,N,01618.0999549,E,1,35,0.8,EHT751.1104,M*4D
$GPGGQ,063032.00,010125,4742.1603657,N,01618.0999549,E,1,35,0.956,707.9038,M*34
$GPGFA,063032.00,4.746,6.139,0.499,0.323,12.511,0.749,,VVV*31
$GPLLK,063032.00,010125,,M,,M,1,35,0.8,,M*01
$GNGMP,063032.00,,,,,DAAA,35,0.4,,,,*50
$GPGMP,063032.00,,,,,,08,,,,3.4,136*72
$GLGMP,063032.00,,,,,,08,,,,,*73
$GAGMP,063032.00,,,,,,10,,,,,*77
$GBGMP,063032.00,,,,,,09,,,,,*7C
$PSSN,SNC,[0,282650000,2347]*4F
$GPZDA,063037.00,01,01,2025,,*62
$GPDTM,W84,,00.0000000,N,00.0000000,E,00.0000000,W84*5F
$PSSN,TFM,063037.00,,,,*6E
$GPRMC,063037.00,A,4742.1603668,N,01618.0999597,E,0.0,,010125,5.1,E,D*19
$GPGLL,4742.1603668,N,01618.0999597,E,063037.00,A,D*68
$GPGGA,063037.00,4742.1603668,N,01618.0999597,E,2,36,0.4,707.8980,M,43.2066,M,1.4,0136*49
$GNGNS,063037.00,4742.1603668,N,01618.0999597,E,DAAA,36,0.4,707.8980,43.2066,,*54
$GPGNS,063037.00,,,,,,08,,,,1.4,136*75
$GLGNS,063037.00,,,,,,08,,,,,*76
$GAGNS,063037.00,,,,,,10,,,,,*72
$GBGNS,063037.00,,,,,,10,,,,,*71
$GPLLQ,063037.00,010125,,M,,M,1,36,0.952,,M*1B
$GPVTG,,T,,M,0.01,N,0.01,K,D*26
$GPHDT,,T*1B
$GPTHS,,V*0E
$GPROT,,V*08
$PSSN,HRP,063037.00,010125,,,,,,,00,0,,*60
$PTNL,AVR,063037.00,,Yaw,,Tilt,,,,0,,00*36
$GPGSA,A,3,05,07,09,11,13,14,20,30,,,,,0.7,0.4,0.6*3A
$GPGSA,A,3,65,71,72,73,74,75,81,88,,,,,0.7,0.4,0.6*3B
$GPGSA,A,3,03,05,08,09,13,15,24,25,31,34,,,0.7,0.4,0.6*32
$GPGSA,A,3,05,06,09,11,19,21,22,36,45,60,,,0.7,0.4,0.6*34
$GPGST,063037.00,2.140,0.494,0.319,12.441,0.488,0.329,0.748*66
$GPGBS,063037.00,2.872,2.362,4.980,72,0.0001,5.280,6.038*57
$GPGRS,063037.00,1,-0.2,-0.4,0.2,0.3,0.6,-0.4,0.3,0.1,,,,*65
$GPGRS,063037.00,1,-4.8,-1.0,5.3,3.7,2.7,-3.3,1.8,-3.9,,,,*46
$GPGRS,063037.00,1,-0.1,0.6,-1.1,-1.0,0.3,0.3,0.4,-0.7,0.3,-0.3,,*67
$GPGRS,063037.00,1,1.6,-4.0,1.2,1.1,-1.2,-0.1,-0.4,-0.3,0.1,-1.8,,*42
$GPGSV,6,1,21,30,78,211,51,13,24,281,43,14,21,166,42,11,19,234,43*74
$GPGSV,6,2,21,09,26,098,43,05,41,305,47,07,61,061,48,20,61,255,48*70
$GPGSV,6,3,21,06,01,205,22,08,01,077,31,27,03,046,34,04,00,098,23*73
$GPGSV,6,4,21,36,35,170,45,58,13,245,37,40,24,133,36,34,31,208,44*7D
$GPGSV,6,5,21,49,34,195,45,57,07,112,38,41,07,108,35,61,03,257,38*71
$GPGSV,6,6,21*7A
$GLGSV,2,1,08,72,75,037,50,88,15,288,45,81,13,340,45,65,29,312,44*6A
$GLGSV,2,2,08,73,38,041,48,75,31,186,49,71,33,110,49,74,70,112,47*67
$GAGSV,3,1,11,05,63,079,48,25,25,156,42,34,14,216,40,13,17,323,40*6D
$GAGSV,3,2,11,09,12,094,37,31,19,040,40,16,38,131,,15,30,268,43*63
$GAGSV,3,3,11,24,42,095,46,03,58,293,47,08,08,281,37*5C
$GBGSV,6,1,21,22,76,129,52,58,17,040,,09,20,056,38,05,22,129,38*6B
$GBGSV,6,2,21,46,21,046,,19,22,126,44,26,35,183,,50,23,304,*69
$GBGSV,6,3,21,45,44,190,49,21,47,305,49,36,65,094,51,11,06,302,35*6C
$GBGSV,6,4,21,28,05,333,,02,05,108,34,40,10,074,,43,02,322,*6F
$GBGSV,6,5,21,10,07,115,,06,06,057,35,16,04,056,37,07,08,108,*6E
$GBGSV,6,6,21,60,07,112,40*5F
$GPGGA,063037.00,,,,,0,00,,,M,,M,,*49
$PTNL,GGK,063037.00,010125,4742.1603668,N,01618.0999597,E,1,36,0.7,EHT751.1046,M*4C
$GPGGQ,063037.00,010125,4742.1603668,N,01618.0999597,E,1,36,0.952,707.8980,M*32
$GPGFA,063037.00,4.699,6.133,0.494,0.319,12.441,0.748,,VVV*3C
$GPLLK,063037.00,010125,,M,,M,1,36,0.8,,M*07
$GNGMP,063037.00,,,,,DAAA,36,0.4,,,,*56
$GPGMP,063037.00,,,,,,08,,,,1.4,136*75
$GLGMP,063037.00,,,,,,08,,,,,*76
$GAGMP,063037.00,,,,,,10,,,,,*72
$GBGMP,063037.00,,,,,,10,,,,,*71
$PSSN,SNC,[0,282655000,2347]*4A
$GPZDA,063042.00,01,01,2025,,*60
$GPDTM,W84,,00.0000000,N,00.0000000,E,00.0000000,W84*5F
$PSSN,TFM,063042.00,,,,*6C
$GPRMC,063042.00,A,4742.1603649,N,01618.0999625,E,0.0,,010125,5.1,E,D*12
$GPGLL,4742.1603649,N,01618.0999625,E,063042.00,A,D*63
$GPGGA,063042.00,4742.1603649,N,01618.0999625,E,2,36,0.4,707.8969,M,43.2066,M,2.4,0136*46
$GNGNS,063042.00,4742.1603649,N,01618.0999625,E,DAAA,36,0.4,707.8969,43.2066,,*58
$GPGNS,063042.00,,,,,,08,,,,2.4,136*74
$GLGNS,063042.00,,,,,,08,,,,,*74
$GAGNS,063042.00,,,,,,10,,,,,*70
$GBGNS,063042.00,,,,,,10,,,,,*73
$GPLLQ,063042.00,010125,,M,,M,1,36,0.947,,M*1D
$GPVTG,,T,,M,0.01,N,0.01,K,D*26
$GPHDT,,T*1B
$GPTHS,,V*0E
$GPROT,,V*08
$PSSN,HRP,063042.00,010125,,,,,,,00,0,,*62
$PTNL,AVR,063042.00,,Yaw,,Tilt,,,,0,,00*34
$GPGSA,A,3,05,07,09,11,13,14,20,30,,,,,0.7,0.4,0.6*3A
$GPGSA,A,3,65,71,72,73,74,75,81,88,,,,,0.7,0.4,0.6*3B
$GPGSA,A,3,03,05,08,09,13,15,24,25,31,34,,,0.7,0.4,0.6*32
$GPGSA,A,3,05,06,09,11,19,21,22,36,45,60,,,0.7,0.4,0.6*34
$GPGST,063042.00,2.025,0.486,0.313,12.809,0.479,0.323,0.751*63
$GPGBS,063042.00,2.895,2.405,5.070,72,0.0001,5.076,6.038*56
$GPGRS,063042.00,1,-0.3,-0.1,0.4,0.1,0.3,-0.5,0.1,0.1,,,,*61
$GPGRS,063042.00,1,-4.6,-0.7,5.1,3.2,2.9,-2.8,2.5,-3.0,,,,*48
$GPGRS,063042.00,1,-0.0,0.6,0.2,-0.5,0.0,0.4,0.2,-0.3,0.4,0.3,,*63
$GPGRS,063042.00,1,1.7,-3.5,1.0,2.7,-1.0,-0.2,-0.2,-0.1,0.1,-1.8,,*41
$GPGSV,6,1,21,30,78,211,51,13,24,281,43,14,21,166,42,11,19,234,43*74
$GPGSV,6,2,21,09,26,098,43,05,41,305,47,07,61,061,48,20,61,255,48*70
$GPGSV,6,3,21,06,01,205,22,08,01,077,32,27,03,046,34,04,00,098,24*77
$GPGSV,6,4,21,36,35,170,45,58,13,245,37,40,24,133,36,34,31,208,44*7D
$GPGSV,6,5,21,49,34,195,45,57,07,112,37,41,07,108,35,61,03,257,38*7E
$GPGSV,6,6,21*7A
$GLGSV,2,1,08,72,75,037,50,88,15,288,46,81,13,340,45,65,29,312,45*68
$GLGSV,2,2,08,73,38,041,48,75,31,186,49,71,33,110,49,74,70,112,47*67
$GAGSV,3,1,11,05,63,079,48,25,25,156,43,34,14,216,41,13,17,323,40*6D
$GAGSV,3,2,11,09,12,094,37,31,19,040,40,16,39,131,,15,30,268,43*62
$GAGSV,3,3,11,24,42,095,46,03,58,293,48,08,08,281,38*5C
$GBGSV,6,1,21,22,76,129,52,58,17,040,,09,20,056,39,05,22,129,38*6A
$GBGSV,6,2,21,46,21,046,,19,22,126,44,26,35,183,,50,23,304,*69
$GBGSV,6,3,21,45,44,190,49,21,47,305,49,36,65,094,51,11,06,302,36*6F
$GBGSV,6,4,21,28,05,333,,02,05,108,35,40,10,074,,43,02,322,*6E
$GBGSV,6,5,21,10,07,115,,06,06,057,35,16,04,057,37,07,08,108,*6F
$GBGSV,6,6,21,60,07,112,40*5F
$GPGGA,063042.00,,,,,0,00,,,M,,M,,*4B
$PTNL,GGK,063042.00,010125,4742.1603649,N,01618.0999625,E,1,36,0.7,EHT751.1035,M*43
$GPGGQ,063042.00,010125,4742.1603649,N,01618.0999625,E,1,36,0.947,707.8969,M*3A
$GPGFA,063042.00,4.622,6.156,0.486,0.313,12.809,0.751,,VVV*3C
$GPLLK,063042.00,010125,,M,,M,1,36,0.8,,M*05
$GNGMP,063042.00,,,,,DAAA,36,0.4,,,,*54
$GPGMP,063042.00,,,,,,08,,,,2.4,136*74
$GLGMP,063042.00,,,,,,08,,,,,*74
$GAGMP,063042.00,,,,,,10,,,,,*70
$GBGMP,063042.00,,,,,,10,,,,,*73
$PSSN,SNC,[0,282660000,2347]*4C
$GPZDA,063047.00,01,01,2025,,*65
$GPDTM,W84,,00.0000000,N,00.0000000,E,00.0000000,W84*5F
$PSSN,TFM,063047.00,,,,*69
$GPRMC,063047.00,A,4742.1603648,N,01618.0999647,E,0.0,,010125,5.1,E,D*12
$GPGLL,4742.1603648,N,01618.0999647,E,063047.00,A,D*63
$GPGGA,063047.00,4742.1603648,N,01618.0999647,E,2,36,0.4,707.8978,M,43.2066,M,2.9,0136*4B
$GNGNS,063047.00,4742.1603648,N,01618.0999647,E,DAAA,36,0.4,707.8978,43.2066,,*58
$GPGNS,063047.00,,,,,,08,,,,2.9,136*7C
$GLGNS,063047.00,,,,,,08,,,,,*71
$GAGNS,063047.00,,,,,,10,,,,,*75
$GBGNS,063047.00,,,,,,10,,,,,*76
$GPLLQ,063047.00,010125,,M,,M,1,36,0.956,,M*18
$GPVTG,,T,,M,0.01,N,0.01,K,D*26
$GPHDT,,T*1B
$GPTHS,,V*0E
$GPROT,,V*08
$PSSN,HRP,063047.00,010125,,,,,,,00,0,,*67
$PTNL,AVR,063047.00,,Yaw,,Tilt,,,,0,,00*31
$GPGSA,A,3,05,07,09,11,13,14,20,30,,,,,0.7,0.4,0.6*3A
$GPGSA,A,3,65,71,72,73,74,75,81,88,,,,,0.7,0.4,0.6*3B
$GPGSA,A,3,03,05,08,09,13,15,24,25,31,34,,,0.7,0.4,0.6*32
$GPGSA,A,3,05,06,09,11,19,21,22,36,45,60,,,0.7,0.4,0.6*34
$GPGST,063047.00,1.949,0.494,0.318,12.975,0.486,0.329,0.755*6A
$GPGBS,063047.00,2.919,2.447,5.210,13,0.0001,0.959,0.849*5A
$GPGRS,063047.00,1,-0.5,-0.4,0.3,0.0,1.0,-0.7,0.2,0.2,,,,*61
$GPGRS,063047.00,1,-4.0,-0.5,5.2,2.9,2.9,-3.0,2.4,-2.4,,,,*4D
$GPGRS,063047.00,1,-0.2,0.5,0.0,-0.2,0.5,0.3,0.1,-0.4,0.1,0.2,,*60
$GPGRS,063047.00,1,1.7,-3.4,1.3,2.5,-0.9,-0.1,-0.4,-0.2,0.0,-1.7,,*44
$GPGSV,6,1,21,30,79,211,51,13,24,281,43,14,21,166,42,11,19,234,42*74
$GPGSV,6,2,21,09,26,098,43,05,41,305,46,07,61,061,48,20,61,255,48*71
$GPGSV,6,3,21,06,01,205,21,08,01,077,33,27,03,046,32,04,00,098,23*74
$GPGSV,6,4,21,36,35,170,45,58,13,245,37,40,24,133,36,34,31,208,44*7D
$GPGSV,6,5,21,49,34,195,44,57,07,112,37,41,07,108,35,61,03,257,38*7F
$GPGSV,6,6,21*7A
$GLGSV,2,1,08,72,75,037,50,88,15,288,45,81,13,340,45,65,29,312,45*6B
$GLGSV,2,2,08,73,38,041,48,75,31,186,48,71,33,110,49,74,70,111,47*65
$GAGSV,3,1,11,05,63,079,48,25,26,156,43,34,14,216,41,13,17,323,40*6E
$GAGSV,3,2,11,09,12,094,37,31,19,040,40,16,39,131,,15,30,268,43*62
$GAGSV,3,3,11,24,42,095,46,03,58,293,48,08,08,281,38*5C
$GBGSV,6,1,21,22,76,129,52,58,17,040,,09,20,056,38,05,22,129,38*6B
$GBGSV,6,2,21,46,21,046,,19,22,126,44,26,35,183,,50,23,304,*69
$GBGSV,6,3,21,45,44,190,49,21,47,305,49,36,65,094,51,11,06,302,35*6C
$GBGSV,6,4,21,28,05,333,,02,05,108,34,40,10,074,,43,02,322,*6F
$GBGSV,6,5,21,10,07,115,,06,06,057,35,16,03,057,37,07,08,108,*68
$GBGSV,6,6,21,60,07,112,40*5F
$GPGGA,063047.00,,,,,0,00,,,M,,M,,*4E
$PTNL,GGK,063047.00,010125,4742.1603648,N,01618.0999647,E,1,36,0.7,EHT751.1044,M*45
$GPGGQ,063047.00,010125,4742.1603648,N,01618.0999647,E,1,36,0.956,707.8978,M*3A
$GPGFA,063047.00,4.695,6.191,0.494,0.318,12.975,0.755,,VVV*38
$GPLLK,063047.00,010125,,M,,M,1,36,0.8,,M*00
$GNGMP,063047.00,,,,,DAAA,36,0.4,,,,*51
$GPGMP,063047.00,,,,,,08,,,,2.9,136*7C
$GLGMP,063047.00,,,,,,08,,,,,*71
$GAGMP,063047.00,,,,,,10,,,,,*75
$GBGMP,063047.00,,,,,,10,,,,,*76
$PSSN,SNC,[0,282665000,2347]*49
$GPZDA,063052.00,01,01,2025,,*61
$GPDTM,W84,,00.0000000,N,00.0000000,E,00.0000000,W84*5F
$PSSN,TFM,063052.00,,,,*6D
$GPRMC,063052.00,A,4742.1603645,N,01618.0999676,E,0.0,,010125,5.1,E,D*19
$GPGLL,4742.1603645,N,01618.0999676,E,063052.00,A,D*68
$GPGGA,063052.00,4742.1603645,N,01618.0999676,E,2,36,0.4,707.8958,M,43.2066,M,3.4,0136*4E
$GNGNS,063052.00,4742.1603645,N,01618.0999676,E,DAAA,36,0.4,707.8958,43.2066,,*51
$GPGNS,063052.00,,,,,,08,,,,3.4,136*74
$GLGNS,063052.00,,,,,,08,,,,,*75
$GAGNS,063052.00,,,,,,10,,,,,*71
$GBGNS,063052.00,,,,,,10,,,,,*72
$GPLLQ,063052.00,010125,,M,,M,1,36,0.955,,M*1F
$GPVTG,,T,,M,0.00,N,0.01,K,D*27
$GPHDT,,T*1B
$GPTHS,,V*0E
$GPROT,,V*08
$PSSN,HRP,063052.00,010125,,,,,,,00,0,,*63
$PTNL,AVR,063052.00,,Yaw,,Tilt,,,,0,,00*35
$GPGSA,A,3,05,07,09,11,13,14,20,30,,,,,0.7,0.4,0.6*3A
$GPGSA,A,3,65,71,72,73,74,75,81,88,,,,,0.7,0.4,0.6*3B
$GPGSA,A,3,03,05,08,09,13,15,24,25,31,34,,,0.7,0.4,0.6*32
$GPGSA,A,3,05,06,09,11,19,21,22,36,45,60,,,0.7,0.4,0.6*34
$GPGST,063052.00,1.978,0.498,0.322,12.685,0.491,0.333,0.748*68
$GPGBS,063052.00,2.983,2.454,5.002,72,0.0001,4.944,6.038*59
$GPGRS,063052.00,1,-0.3,-0.5,0.4,-0.1,0.5,-0.4,0.2,0.2,,,,*4E
$GPGRS,063052.00,1,-4.4,0.6,4.9,3.1,3.2,-3.6,1.0,-3.0,,,,*6E
$GPGRS,063052.00,1,-0.3,0.5,-0.8,0.0,0.4,0.3,0.4,-0.5,0.2,0.0,,*6B
$GPGRS,063052.00,1,1.9,-3.7,1.2,0.9,-0.8,-0.0,-0.3,-0.2,-0.1,-1.8,,*66
$GPGSV,6,1,21,30,79,211,51,13,24,281,43,14,21,166,43,11,19,234,42*75
$GPGSV,6,2,21,09,26,098,42,05,41,305,46,07,61,061,48,20,61,255,48*70
$GPGSV,6,3,21,06,01,205,22,08,01,077,34,27,03,046,32,04,00,098,24*77
$GPGSV,6,4,21,36,35,170,45,58,13,245,37,40,24,133,36,34,31,208,44*7D
$GPGSV,6,5,21,49,34,195,45,57,07,112,37,41,07,108,35,61,03,257,38*7E
$GPGSV,6,6,21*7A
$GLGSV,2,1,08,72,75,037,50,88,15,288,46,81,13,340,44,65,29,312,45*69
$GLGSV,2,2,08,73,38,041,48,75,31,186,48,71,33,110,50,74,70,111,47*6D
$GAGSV,3,1,11,05,63,079,48,25,26,156,43,34,14,216,40,13,17,322,39*60
$GAGSV,3,2,11,09,12,094,38,31,19,040,40,16,39,131,,15,30,268,43*6D
$GAGSV,3,3,11,24,42,095,46,03,58,293,48,08,08,281,37*53
$GBGSV,6,1,21,22,76,129,52,58,17,040,,09,20,056,38,05,22,129,39*6A
$GBGSV,6,2,21,46,21,046,,19,22,126,44,26,35,183,,50,23,304,*69
$GBGSV,6,3,21,45,44,190,49,21,47,305,49,36,65,094,51,11,06,302,35*6C
$GBGSV,6,4,21,28,05,333,,02,05,108,34,40,10,074,,43,02,322,*6F
$GBGSV,6,5,21,10,07,115,,06,06,057,35,16,03,057,37,07,08,108,*68
$GBGSV,6,6,21,60,07,112,40*5F
$GPGGA,063052.00,,,,,0,00,,,M,,M,,*4A
$PTNL,GGK,063052.00,010125,4742.1603645,N,01618.0999676,E,1,36,0.7,EHT751.1023,M*4F
$GPGGQ,063052.00,010125,4742.1603645,N,01618.0999676,E,1,36,0.955,707.8958,M*30
$GPGFA,063052.00,4.738,6.132,0.498,0.322,12.685,0.748,,VVV*3A
$GPLLK,063052.00,010125,,M,,M,1,36,0.8,,M*04
$GNGMP,063052.00,,,,,DAAA,36,0.4,,,,*55
$GPGMP,063052.00,,,,,,08,,,,3.4,136*74
$GLGMP,063052.00,,,,,,08,,,,,*75
$GAGMP,063052.00,,,,,,10,,,,,*71
$GBGMP,063052.00,,,,,,10,,,,,*72
$PSSN,SNC,[0,282670000,2347]*4D
$GPZDA,063057.00,01,01,2025,,*64
$GPDTM,W84,,00.0000000,N,00.0000000,E,00.0000000,W84*5F
$PSSN,TFM,063057.00,,,,*68
$GPRMC,063057.00,A,4742.1603642,N,01618.0999690,E,0.0,,010125,5.1,E,D*13
$GPGLL,4742.1603642,N,01618.0999690,E,063057.00,A,D*62
$GPGGA,063057.00,4742.1603642,N,01618.0999690,E,2,36,0.4,707.8927,M,43.2066,M,1.4,0136*4E
$GNGNS,063057.00,4742.1603642,N,01618.0999690,E,DAAA,36,0.4,707.8927,43.2066,,*53
$GPGNS,063057.00,,,,,,08,,,,1.4,136*73
$GLGNS,063057.00,,,,,,08,,,,,*70
$GAGNS,063057.00,,,,,,10,,,,,*74
$GBGNS,063057.00,,,,,,10,,,,,*77
$GPLLQ,063057.00,010125,,M,,M,1,36,0.952,,M*1D
$GPVTG,,T,,M,0.00,N,0.00,K,D*26
$GPHDT,,T*1B
$GPTHS,,V*0E
$GPROT,,V*08
$PSSN,HRP,063057.00,010125,,,,,,,00,0,,*66
$PTNL,AVR,063057.00,,Yaw,,Tilt,,,,0,,00*30
$GPGSA,A,3,05,07,09,11,13,14,20,30,,,,,0.7,0.4,0.6*3A
$GPGSA,A,3,65,71,72,73,74,75,81,88,,,,,0.7,0.4,0.6*3B
$GPGSA,A,3,03,05,08,09,13,15,24,25,31,34,,,0.7,0.4,0.6*32
$GPGSA,A,3,05,06,09,11,19,21,22,36,45,60,,,0.7,0.4,0.6*34
$GPGST,063057.00,1.859,0.494,0.319,12.437,0.488,0.329,0.749*62
$GPGBS,063057.00,2.857,2.355,4.987,65,0.0001,-4.854,6.116*71
$GPGRS,063057.00,1,-0.2,-0.2,-0.1,0.1,0.3,-0.2,0.1,0.1,,,,*48
$GPGRS,063057.00,1,-4.9,0.4,4.7,3.0,2.5,-3.2,1.6,-2.4,,,,*6A
$GPGRS,063057.00,1,-0.2,0.3,-0.4,-0.4,-0.2,0.3,-0.2,-0.7,0.1,-0.1,,*61
$GPGRS,063057.00,1,1.9,-3.0,0.8,0.5,-0.9,-0.0,-0.4,-0.1,0.1,-2.1,,*41
$GPGSV,6,1,21,30,79,211,51,13,24,281,43,14,21,166,43,11,19,234,42*75
$GPGSV,6,2,21,09,26,098,42,05,41,305,46,07,61,061,48,20,61,255,49*71
$GPGSV,6,3,21,06,01,205,21,08,01,077,34,27,03,046,33,04,00,098,23*72
$GPGSV,6,4,21,36,35,170,45,58,13,245,37,40,24,133,37,34,31,208,44*7C
$GPGSV,6,5,21,49,34,195,45,57,07,112,38,41,07,108,35,61,03,257,38*71
$GPGSV,6,6,21*7A
$GLGSV,2,1,08,72,75,037,50,88,15,288,46,81,13,340,45,65,29,312,45*68
$GLGSV,2,2,08,73,38,041,49,75,31,186,48,71,33,110,49,74,70,111,47*64
$GAGSV,3,1,11,05,63,079,48,25,26,156,42,34,14,216,39,13,17,322,40*61
$GAGSV,3,2,11,09,12,094,38,31,19,040,40,16,39,131,,15,30,268,43*6D
$GAGSV,3,3,11,24,42,095,45,03,58,293,47,08,08,281,38*50
$GBGSV,6,1,21,22,76,129,52,58,17,040,,09,20,056,38,05,22,129,39*6A
$GBGSV,6,2,21,46,21,046,,19,22,126,44,26,35,183,,50,23,304,*69
$GBGSV,6,3,21,45,44,190,50,21,47,305,49,36,65,094,51,11,06,302,36*67
$GBGSV,6,4,21,28,05,333,,02,05,108,35,40,10,074,,43,02,322,*6E
$GBGSV,6,5,21,10,07,115,,06,06,057,35,16,03,057,37,07,08,108,*68
$GBGSV,6,6,21,60,07,112,40*5F
$GPGGA,063057.00,,,,,0,00,,,M,,M,,*4F
$PTNL,GGK,063057.00,010125,4742.1603642,N,01618.0999690,E,1,36,0.7,EHT751.0992,M*47
$GPGGQ,063057.00,010125,4742.1603642,N,01618.0999690,E,1,36,0.952,707.8927,M*35
$GPGFA,063057.00,4.700,6.139,0.494,0.319,12.437,0.749,,VVV*31
$GPLLK,063057.00,010125,,M,,M,1,36,0.8,,M*01
$GNGMP,063057.00,,,,,DAAA,36,0.4,,,,*50
$GPGMP,063057.00,,,,,,08,,,,1.4,136*73
$GLGMP,063057.00,,,,,,08,,,,,*70
$GAGMP,063057.00,,,,,,10,,,,,*74
$GBGMP,063057.00,,,,,,10,,,,,*77
$PSSN,SNC,[0,282675000,2347]*48
$GPZDA,063102.00,01,01,2025,,*65
$GPDTM,W84,,00.0000000,N,00.0000000,E,00.0000000,W84*5F
$PSSN,TFM,063102.00,,,,*69
$GPRMC,063102.00,A,4742.1603655,N,01618.0999722,E,0.0,,010125,5.1,E,D*1C
$GPGLL,4742.1603655,N,01618.0999722,E,063102.00,A,D*6D
$GPGGA,063102.00,4742.1603655,N,01618.0999722,E,2,36,0.4,707.8927,M,43.2066,M,2.4,0136*42
$GNGNS,063102.00,4742.1603655,N,01618.0999722,E,DAAA,36,0.4,707.8927,43.2066,,*5C
$GPGNS,063102.00,,,,,,08,,,,2.4,136*71
$GLGNS,063102.00,,,,,,08,,,,,*71
$GAGNS,063102.00,,,,,,10,,,,,*75
$GBGNS,063102.00,,,,,,10,,,,,*76
$GPLLQ,063102.00,010125,,M,,M,1,36,0.948,,M*17
$GPVTG,,T,,M,0.00,N,0.01,K,D*27
$GPHDT,,T*1B
$GPTHS,,V*0E
$GPROT,,V*08
$PSSN,HRP,063102.00,010125,,,,,,,00,0,,*67
$PTNL,AVR,063102.00,,Yaw,,Tilt,,,,0,,00*31
$GPGSA,A,3,05,07,09,11,13,14,20,30,,,,,0.7,0.4,0.6*3A
$GPGSA,A,3,65,71,72,73,74,75,81,88,,,,,0.7,0.4,0.6*3B
$GPGSA,A,3,03,05,08,09,13,15,24,25,31,34,,,0.7,0.4,0.6*32
$GPGSA,A,3,05,06,09,11,19,21,22,36,45,60,,,0.7,0.4,0.6*34
$GPGST,063102.00,2.041,0.486,0.313,12.781,0.479,0.323,0.751*6B
$GPGBS,063102.00,2.881,2.398,5.076,72,0.0001,4.959,6.038*56
$GPGRS,063102.00,1,-0.2,-0.2,0.0,0.3,0.3,-0.3,0.1,0.1,,,,*66
$GPGRS,063102.00,1,-3.9,-0.7,5.0,3.5,2.3,-3.9,2.1,-3.3,,,,*4E
$GPGRS,063102.00,1,-0.3,0.4,-0.2,-0.4,0.3,0.2,-0.3,-0.7,0.3,0.1,,*63
$GPGRS,063102.00,1,1.5,-3.1,0.3,3.6,-1.2,-0.1,-0.6,-0.2,-0.3,-2.1,,*63
$GPGSV,6,1,21,30,79,211,51,13,24,281,43,14,21,166,42,11,19,234,42*74
$GPGSV,6,2,21,09,26,098,43,05,41,305,46,07,61,061,48,20,61,255,49*70
$GPGSV,6,3,21,06,01,205,24,08,01,077,34,27,03,046,33,04,00,098,22*76
$GPGSV,6,4,21,36,35,170,45,58,13,245,37,40,24,133,36,34,31,208,44*7D
$GPGSV,6,5,21,49,34,195,45,57,07,112,38,41,07,108,35,61,03,257,38*71
$GPGSV,6,6,21*7A
$GLGSV,2,1,08,72,75,037,50,88,15,288,46,81,13,340,44,65,29,312,45*69
$GLGSV,2,2,08,73,37,041,49,75,31,186,48,71,33,110,49,74,70,111,47*6B
$GAGSV,3,1,11,05,63,079,48,25,26,156,42,34,14,216,40,13,17,322,40*6F
$GAGSV,3,2,11,09,12,094,38,31,19,040,40,16,39,131,,15,30,268,43*6D
$GAGSV,3,3,11,24,42,095,45,03,58,293,48,08,08,281,38*5F
$GBGSV,6,1,21,22,76,129,52,58,17,040,,09,20,056,38,05,22,129,38*6B
$GBGSV,6,2,21,46,21,046,,19,22,126,44,26,35,183,,50,23,304,*69
$GBGSV,6,3,21,45,44,190,49,21,47,305,49,36,65,093,51,11,06,302,36*68
$GBGSV,6,4,21,28,05,333,,02,05,108,34,40,10,074,,43,02,322,*6F
$GBGSV,6,5,21,10,07,115,,06,06,057,35,16,03,057,38,07,08,108,*67
$GBGSV,6,6,21,60,07,112,40*5F
$GPGGA,063102.00,,,,,0,00,,,M,,M,,*4E
$PTNL,GGK,063102.00,010125,4742.1603655,N,01618.0999722,E,1,36,0.7,EHT751.0993,M*49
$GPGGQ,063102.00,010125,4742.1603655,N,01618.0999722,E,1,36,0.948,707.8927,M*31
$GPGFA,063102.00,4.620,6.160,0.486,0.313,12.781,0.751,,VVV*31
$GPLLK,063102.00,010125,,M,,M,1,36,0.8,,M*00
$GNGMP,063102.00,,,,,DAAA,36,0.4,,,,*51
$GPGMP,063102.00,,,,,,08,,,,2.4,136*71
$GLGMP,063102.00,,,,,,08,,,,,*71
$GAGMP,063102.00,,,,,,10,,,,,*75
$GBGMP,063102.00,,,,,,10,,,,,*76
$PSSN,SNC,[0,282680000,2347]*42
$GPZDA,063107.00,01,01,2025,,*60
$GPDTM,W84,,00.0000000,N,00.0000000,E,00.0000000,W84*5F
$PSSN,TFM,063107.00,,,,*6C
$GPRMC,063107.00,A,4742.1603655,N,01618.0999741,E,0.0,,010125,5.1,E,D*1C
$GPGLL,4742.1603655,N,01618.0999741,E,063107.00,A,D*6D
$GPGGA,063107.00,4742.1603655,N,01618.0999741,E,2,35,0.4,707.8909,M,43.2066,M,2.9,0136*40
$GNGNS,063107.00,4742.1603655,N,01618.0999741,E,DAAA,35,0.4,707.8909,43.2066,,*53
$GPGNS,063107.00,,,,,,08,,,,2.9,136*79
$GLGNS,063107.00,,,,,,08,,,,,*74
$GAGNS,063107.00,,,,,,10,,,,,*70
$GBGNS,063107.00,,,,,,09,,,,,*7B
$GPLLQ,063107.00,010125,,M,,M,1,35,0.958,,M*10
$GPVTG,,T,,M,0.00,N,0.00,K,D*26
$GPHDT,,T*1B
$GPTHS,,V*0E
$GPROT,,V*08
$PSSN,HRP,063107.00,010125,,,,,,,00,0,,*62
$PTNL,AVR,063107.00,,Yaw,,Tilt,,,,0,,00*34
$GPGSA,A,3,05,07,09,11,13,14,20,30,,,,,0.8,0.4,0.6*35
$GPGSA,A,3,65,71,72,73,74,75,81,88,,,,,0.8,0.4,0.6*34
$GPGSA,A,3,03,05,08,09,13,15,24,25,31,34,,,0.8,0.4,0.6*3D
$GPGSA,A,3,05,09,11,19,21,22,36,45,60,,,,0.8,0.4,0.6*3D
$GPGST,063107.00,1.842,0.494,0.318,12.991,0.487,0.329,0.756*6D
$GPGBS,063107.00,2.910,2.444,5.227,72,0.0001,4.777,6.038*58
$GPGRS,063107.00,1,0.0,-0.2,0.0,0.4,-0.1,-0.2,0.0,-0.0,,,,*48
$GPGRS,063107.00,1,-3.5,-0.8,4.8,3.0,2.6,-3.8,0.2,-3.2,,,,*40
$GPGRS,063107.00,1,-0.4,0.4,-0.3,-0.2,0.3,0.1,-0.0,-0.7,-0.2,0.4,,*4F
$GPGRS,063107.00,1,1.3,0.2,3.1,-1.0,-0.1,-0.6,-0.3,-0.4,-1.8,,,*69
$GPGSV,6,1,21,30,79,211,51,13,24,281,43,14,21,166,42,11,19,234,42*74
$GPGSV,6,2,21,09,26,098,43,05,41,305,46,07,61,061,48,20,61,255,48*71
$GPGSV,6,3,21,06,01,205,24,08,01,077,34,27,03,046,33,04,00,098,20*74
$GPGSV,6,4,21,36,35,170,45,58,13,245,37,40,24,133,36,34,31,208,44*7D
$GPGSV,6,5,21,49,34,195,45,57,07,112,37,41,07,108,35,61,03,257,38*7E
$GPGSV,6,6,21*7A
$GLGSV,2,1,08,72,75,038,50,88,15,288,46,81,13,340,44,65,29,312,45*66
$GLGSV,2,2,08,73,37,041,48,75,31,186,49,71,33,110,49,74,70,111,47*6B
$GAGSV,3,1,11,05,63,079,48,25,26,156,42,34,13,216,40,13,17,322,39*66
$GAGSV,3,2,11,09,12,094,39,31,19,040,40,16,39,131,,15,30,268,43*6C
$GAGSV,3,3,11,24,42,095,46,03,58,293,48,08,08,281,38*5C
$GBGSV,6,1,21,22,76,129,52,58,17,040,,09,20,056,38,05,22,129,39*6A
$GBGSV,6,2,21,46,21,046,,19,22,126,44,26,36,183,,50,23,304,*6A
$GBGSV,6,3,21,45,44,190,49,21,47,305,49,36,65,093,51,11,06,302,35*6B
$GBGSV,6,4,21,28,05,333,,02,05,108,34,40,10,074,,43,02,322,*6F
$GBGSV,6,5,21,10,07,115,,06,06,057,35,16,03,057,37,07,08,108,*68
$GBGSV,6,6,21,60,07,112,40*5F
$GPGGA,063107.00,,,,,0,00,,,M,,M,,*4B
$PTNL,GGK,063107.00,010125,4742.1603655,N,01618.0999741,E,1,35,0.8,EHT751.0974,M*4C
$GPGGQ,063107.00,010125,4742.1603655,N,01618.0999741,E,1,35,0.958,707.8909,M*3F
$GPGFA,063107.00,4.699,6.201,0.494,0.318,12.991,0.756,,VVV*32
$GPLLK,063107.00,010125,,M,,M,1,35,0.9,,M*07
$GNGMP,063107.00,,,,,DAAA,35,0.4,,,,*57
$GPGMP,063107.00,,,,,,08,,,,2.9,136*79
$GLGMP,063107.00,,,,,,08,,,,,*74
$GAGMP,063107.00,,,,,,10,,,,,*70
$GBGMP,063107.00,,,,,,09,,,,,*7B
$PSSN,SNC,[0,282685000,2347]*47
$GPZDA,063112.00,01,01,2025,,*64
$GPDTM,W84,,00.0000000,N,00.0000000,E,00.0000000,W84*5F
$PSSN,TFM,063112.00,,,,*68
$GPRMC,063112.00,A,4742.1603661,N,01618.0999765,E,0.0,,010125,5.1,E,D*19
$GPGLL,4742.1603661,N,01618.0999765,E,063112.00,A,D*68
$GPGGA,063112.00,4742.1603661,N,01618.0999765,E,2,35,0.4,707.8925,M,43.2066,M,3.4,0136*47
$GNGNS,063112.00,4742.1603661,N,01618.0999765,E,DAAA,35,0.4,707.8925,43.2066,,*58
$GPGNS,063112.00,,,,,,08,,,,3.4,136*71
$GLGNS,063112.00,,,,,,08,,,,,*70
$GAGNS,063112.00,,,,,,10,,,,,*74
$GBGNS,063112.00,,,,,,09,,,,,*7F
$GPLLQ,063112.00,010125,,M,,M,1,35,0.956,,M*1A
$GPVTG,,T,,M,0.01,N,0.01,K,D*26
$GPHDT,,T*1B
$GPTHS,,V*0E
$GPROT,,V*08
$PSSN,HRP,063112.00,010125,,,,,,,00,0,,*66
$PTNL,AVR,063112.00,,Yaw,,Tilt,,,,0,,00*30
$GPGSA,A,3,05,07,09,11,13,14,20,30,,,,,0.8,0.4,0.6*35
$GPGSA,A,3,65,71,72,73,74,75,81,88,,,,,0.8,0.4,0.6*34
$GPGSA,A,3,03,05,08,09,13,15,24,25,31,34,,,0.8,0.4,0.6*3D
$GPGSA,A,3,05,09,11,19,21,22,36,45,60,,,,0.8,0.4,0.6*3D
$GPGST,063112.00,1.732,0.499,0.322,12.717,0.492,0.333,0.749*64
$GPGBS,063112.00,2.975,2.451,5.018,72,0.0001,5.223,6.038*50
$GPGRS,063112.00,1,0.3,-0.3,-0.1,0.3,0.0,-0.3,0.0,-0.0,,,,*48
$GPGRS,063112.00,1,-4.2,-0.0,5.2,2.9,2.8,-2.4,0.2,-2.7,,,,*48
$GPGRS,063112.00,1,-0.1,0.5,-0.7,0.0,0.2,0.2,0.2,-0.6,-0.4,0.5,,*4F
$GPGRS,063112.00,1,1.3,1.2,1.0,-0.9,-0.0,-0.4,-0.0,-0.0,-1.8,,,*63
$GPGSV,6,1,21,30,79,211,51,13,24,281,43,14,21,166,43,11,19,234,42*75
$GPGSV,6,2,21,09,26,098,43,05,41,305,46,07,61,061,48,20,61,255,48*71
$GPGSV,6,3,21,06,01,205,,08,01,077,33,27,03,046,33,04,00,098,29*7C
$GPGSV,6,4,21,36,35,170,45,58,13,245,37,40,24,133,37,34,31,208,44*7C
$GPGSV,6,5,21,49,34,195,45,57,07,112,38,41,07,108,35,61,03,257,38*71
$GPGSV,6,6,21*7A
$GLGSV,2,1,08,72,75,038,51,88,15,288,45,81,13,340,44,65,29,312,45*64
$GLGSV,2,2,08,73,37,041,49,75,31,186,49,71,33,110,49,74,70,111,47*6A
$GAGSV,3,1,11,05,63,079,48,25,26,156,42,34,13,216,40,13,17,322,40*68
$GAGSV,3,2,11,09,12,094,39,31,19,040,40,16,39,131,,15,30,268,43*6C
$GAGSV,3,3,11,24,42,095,46,03,58,293,48,08,08,281,38*5C
$GBGSV,6,1,21,22,76,129,52,58,17,040,,09,20,056,38,05,22,129,39*6A
$GBGSV,6,2,21,46,21,046,,19,21,126,43,26,36,183,,50,23,304,*6E
$GBGSV,6,3,21,45,44,190,49,21,47,305,49,36,65,093,51,11,06,302,35*6B
$GBGSV,6,4,21,28,05,333,,02,05,108,34,40,10,074,,43,02,322,*6F
$GBGSV,6,5,21,10,07,115,,06,06,057,35,16,03,057,37,07,08,108,*68
$GBGSV,6,6,21,60,07,112,40*5F
$GPGGA,063112.00,,,,,0,00,,,M,,M,,*4F
$PTNL,GGK,063112.00,010125,4742.1603661,N,01618.0999765,E,1,35,0.8,EHT751.0991,M*42
$GPGGQ,063112.00,010125,4742.1603661,N,01618.0999765,E,1,35,0.956,707.8925,M*3A
$GPGFA,063112.00,4.743,6.142,0.499,0.322,12.717,0.749,,VVV*3E
$GPLLK,063112.00,010125,,M,,M,1,35,0.9,,M*03
$GNGMP,063112.00,,,,,DAAA,35,0.4,,,,*53
$GPGMP,063112.00,,,,,,08,,,,3.4,136*71
$GLGMP,063112.00,,,,,,08,,,,,*70
$GAGMP,063112.00,,,,,,10,,,,,*74
$GBGMP,063112.00,,,,,,09,,,,,*7F
$PSSN,SNC,[0,282690000,2347]*43
$GPZDA,063117.00,01,01,2025,,*61
$GPDTM,W84,,00.0000000,N,00.0000000,E,00.0000000,W84*5F
$PSSN,TFM,063117.00,,,,*6D
$GPRMC,063117.00,A,4742.1603657,N,01618.0999823,E,0.0,,010125,5.1,E,D*14
$GPGLL,4742.1603657,N,01618.0999823,E,063117.00,A,D*65
$GPGGA,063117.00,4742.1603657,N,01618.0999823,E,2,36,0.4,707.8917,M,43.2066,M,1.4,0136*4A
$GNGNS,063117.00,4742.1603657,N,01618.0999823,E,DAAA,36,0.4,707.8917,43.2066,,*57
$GPGNS,063117.00,,,,,,08,,,,1.4,136*76
$GLGNS,063117.00,,,,,,08,,,,,*75
$GAGNS,063117.00,,,,,,10,,,,,*71
$GBGNS,063117.00,,,,,,10,,,,,*72
$GPLLQ,063117.00,010125,,M,,M,1,36,0.953,,M*19
$GPVTG,,T,,M,0.01,N,0.01,K,D*26
$GPHDT,,T*1B
$GPTHS,,V*0E
$GPROT,,V*08
$PSSN,HRP,063117.00,010125,,,,,,,00,0,,*63
$PTNL,AVR,063117.00,,Yaw,,Tilt,,,,0,,00*35
$GPGSA,A,3,05,07,09,11,13,14,20,30,,,,,0.7,0.4,0.6*3A
$GPGSA,A,3,65,71,72,73,74,75,81,88,,,,,0.7,0.4,0.6*3B
$GPGSA,A,3,03,05,08,09,13,15,24,25,31,34,,,0.7,0.4,0.6*32
$GPGSA,A,3,05,06,09,11,19,21,22,36,45,60,,,0.7,0.4,0.6*34
$GPGST,063117.00,1.969,0.494,0.319,12.430,0.488,0.329,0.749*62
$GPGBS,063117.00,2.845,2.349,4.993,72,0.0001,5.464,6.038*57
$GPGRS,063117.00,1,0.2,-0.4,-0.4,0.1,0.7,-0.1,-0.0,0.0,,,,*49
$GPGRS,063117.00,1,-4.3,0.1,5.5,3.1,2.7,-2.8,1.2,-2.9,,,,*62
$GPGRS,063117.00,1,-0.1,0.7,-0.6,-0.6,-0.0,0.3,0.5,-0.5,-0.2,0.5,,*4E
$GPGRS,063117.00,1,1.7,-4.2,1.2,0.9,-1.0,-0.0,-0.5,0.1,0.2,-1.5,,*68
$GPGSV,6,1,21,30,79,211,51,13,24,281,43,14,21,166,43,11,19,234,43*74
$GPGSV,6,2,21,09,26,098,43,05,41,305,47,07,61,061,48,20,61,255,49*71
$GPGSV,6,3,21,06,01,205,23,08,01,077,34,27,03,046,34,04,00,098,28*7C
$GPGSV,6,4,21,36,35,170,45,58,13,245,37,40,24,133,37,34,31,208,44*7C
$GPGSV,6,5,21,49,34,195,45,57,07,112,38,41,07,108,35,61,03,257,38*71
$GPGSV,6,6,21*7A
$GLGSV,2,1,08,72,75,038,50,88,15,288,45,81,13,340,45,65,29,312,45*64
$GLGSV,2,2,08,73,37,041,48,75,31,186,48,71,33,110,49,74,70,111,47*6A
$GAGSV,3,1,11,05,63,079,48,25,26,156,42,34,13,216,40,13,17,322,40*68
$GAGSV,3,2,11,09,12,094,38,31,19,040,40,16,39,131,,15,30,268,43*6D
$GAGSV,3,3,11,24,42,095,46,03,58,293,48,08,08,281,38*5C
$GBGSV,6,1,21,22,76,129,52,58,17,040,,09,20,056,38,05,22,129,39*6A
$GBGSV,6,2,21,46,21,046,,19,21,126,43,26,36,183,,50,23,304,*6E
$GBGSV,6,3,21,45,44,190,49,21,47,305,49,36,65,093,51,11,06,302,35*6B
$GBGSV,6,4,21,28,05,333,,02,05,108,35,40,10,074,,43,02,322,*6E
$GBGSV,6,5,21,10,07,115,,06,06,057,35,16,03,057,38,07,08,108,*67
$GBGSV,6,6,21,60,07,112,40*5F
$GPGGA,063117.00,,,,,0,00,,,M,,M,,*4A
$PTNL,GGK,063117.00,010125,4742.1603657,N,01618.0999823,E,1,36,0.7,EHT751.0982,M*41
$GPGGQ,063117.00,010125,4742.1603657,N,01618.0999823,E,1,36,0.953,707.8917,M*30
$GPGFA,063117.00,4.700,6.146,0.494,0.319,12.430,0.749,,VVV*3B
$GPLLK,063117.00,010125,,M,,M,1,36,0.8,,M*04
$GNGMP,063117.00,,,,,DAAA,36,0.4,,,,*55
$GPGMP,063117.00,,,,,,08,,,,1.4,136*76
$GLGMP,063117.00,,,,,,08,,,,,*75
$GAGMP,063117.00,,,,,,10,,,,,*71
$GBGMP,063117.00,,,,,,10,,,,,*72
$PSSN,SNC,[0,282695000,2347]*46
$GPZDA,063122.00,01,01,2025,,*67
$GPDTM,W84,,00.0000000,N,00.0000000,E,00.0000000,W84*5F
$PSSN,TFM,063122.00,,,,*6B
$GPRMC,063122.00,A,4742.1603630,N,01618.0999871,E,0.0,,010125,5.1,E,D*14
$GPGLL,4742.1603630,N,01618.0999871,E,063122.00,A,D*65
$GPGGA,063122.00,4742.1603630,N,01618.0999871,E,2,36,0.4,707.8939,M,43.2066,M,2.4,0136*45
$GNGNS,063122.00,4742.1603630,N,01618.0999871,E,DAAA,36,0.4,707.8939,43.2066,,*5B
$GPGNS,063122.00,,,,,,08,,,,2.4,136*73
$GLGNS,063122.00,,,,,,08,,,,,*73
$GAGNS,063122.00,,,,,,10,,,,,*77
$GBGNS,063122.00,,,,,,10,,,,,*74
$GPLLQ,063122.00,010125,,M,,M,1,36,0.948,,M*15
$GPVTG,,T,,M,0.01,N,0.01,K,D*26
$GPHDT,,T*1B
$GPTHS,,V*0E
$GPROT,,V*08
$PSSN,HRP,063122.00,010125,,,,,,,00,0,,*65
$PTNL,AVR,063122.00,,Yaw,,Tilt,,,,0,,00*33
$GPGSA,A,3,05,07,09,11,13,14,20,30,,,,,0.7,0.4,0.6*3A
$GPGSA,A,3,65,71,72,73,74,75,81,88,,,,,0.7,0.4,0.6*3B
$GPGSA,A,3,03,05,08,09,13,15,24,25,31,34,,,0.7,0.4,0.6*32
$GPGSA,A,3,05,06,09,11,19,21,22,36,45,60,,,0.7,0.4,0.6*34
$GPGST,063122.00,1.890,0.486,0.312,12.760,0.479,0.323,0.752*63
$GPGBS,063122.00,2.869,2.392,5.083,14,0.0001,-0.746,0.912*7C
$GPGRS,063122.00,1,0.1,-0.0,-0.2,0.1,0.2,-0.7,0.2,-0.1,,,,*4E
$GPGRS,063122.00,1,-4.2,-0.4,4.9,3.1,2.6,-3.1,2.0,-2.7,,,,*46
$GPGRS,063122.00,1,-0.3,0.7,-0.4,-0.4,0.0,0.2,0.3,-0.5,-0.2,0.2,,*67
