$GPZDA,171442.00,01,01,2025,,*66
$GPDTM,W84,,00.0000000,N,00.0000000,E,00.0000000,W84*5F
$PSSN,TFM,171442.00,,,,*6A
$GPRMC,171442.00,A,4742.1603282,N,01618.1001260,E,0.0,,010125,5.1,E,D*1B
$GPGLL,4742.1603282,N,01618.1001260,E,171442.00,A,D*6A
$GPGGA,171442.00,4742.1603282,N,01618.1001260,E,2,39,0.4,708.2624,M,43.2066,M,2.2,0136*45
$GNGNS,171442.00,4742.1603282,N,01618.1001260,E,DAAA,39,0.4,708.2624,43.2066,,*5D
$GPGNS,171442.00,,,,,,10,,,,2.2,136*7D
$GLGNS,171442.00,,,,,,09,,,,,*73
$GAGNS,171442.00,,,,,,06,,,,,*71
$GBGNS,171442.00,,,,,,14,,,,,*71
$GPLLQ,171442.00,010125,,M,,M,1,39,0.963,,M*12
$GPVTG,,T,,M,0.00,N,0.01,K,D*27
$GPHDT,,T*1B
$GPTHS,,V*0E
$GPROT,,V*08
$PSSN,HRP,171442.00,010125,,,,,,,00,0,,*64
$PTNL,AVR,171442.00,,Yaw,,Tilt,,,,0,,00*32
$GPGSA,A,3,05,16,18,20,23,25,26,28,29,31,,,0.7,0.4,0.6*3F
$GPGSA,A,3,65,72,73,79,80,81,82,83,88,,,,0.7,0.4,0.6*3B
$GPGSA,A,3,13,15,21,27,30,34,,,,,,,0.7,0.4,0.6*33
$GPGSA,A,3,05,08,11,12,13,22,23,25,28,34,37,38,0.7,0.4,0.6*3F
$GPGSA,A,3,43,60,,,,,,,,,,,0.7,0.4,0.6*36
$GPGST,171442.00,1.725,0.425,0.322,342.357,0.416,0.333,0.803*5C
$GPGBS,171442.00,2.219,1.770,5.047,72,0.0001,8.375,6.630*5B
$GPGRS,171442.00,1,0.5,0.1,-0.1,-0.4,-0.3,-0.4,0.2,-0.1,-0.0,0.1,,*4F
$GPGRS,171442.00,1,-2.0,8.4,1.2,-0.4,-2.0,0.2,-1.3,-0.1,-2.7,,,*6A
$GPGRS,171442.00,1,0.3,0.5,0.1,0.3,-0.6,-0.5,,,,,,*4C
$GPGRS,171442.00,1,0.4,1.1,0.1,0.8,-0.0,-0.2,-0.2,-0.5,0.5,0.2,-0.2,-0.4*42
$GPGRS,171442.00,1,0.5,-1.1,,,,,,,,,,*63
$GPGSV,5,1,20,18,70,177,49,05,28,062,43,25,22,138,40,20,10,033,37*7F
$GPGSV,5,2,20,16,29,306,43,28,25,217,43,31,38,246,46,26,59,291,48*79
$GPGSV,5,3,20,29,52,069,47,23,10,157,37,27,04,269,36,36,35,170,45*77
$GPGSV,5,4,20,58,13,245,36,40,23,133,36,34,31,208,43,49,34,195,44*7D
$GPGSV,5,5,20,57,08,111,38,41,07,108,34,61,03,257,38*48
$GLGSV,3,1,10,80,63,305,53,88,11,047,43,73,11,328,43,65,11,053,38*6B
$GLGSV,3,2,10,83,18,232,36,79,52,171,51,82,60,247,51,81,63,030,51*69
$GLGSV,3,3,10,78,03,156,,72,08,000,38*6C
$GAGSV,3,1,09,27,71,145,49,34,22,044,41,30,19,132,38,13,45,200,46*6C
$GAGSV,3,2,09,21,50,303,46,15,70,082,48,04,02,324,37,23,01,309,*6C
$GAGSV,3,3,09,06,01,347,35*50
$GBGSV,6,1,23,11,77,047,49,05,21,129,38,60,10,109,41,27,17,233,*6F
$GBGSV,6,2,23,25,33,178,47,07,14,095,,37,25,313,44,28,14,244,43*62
$GBGSV,6,3,23,12,22,059,41,38,30,047,44,13,42,071,45,08,40,060,42*61
$GBGSV,6,4,23,31,42,059,,34,51,061,49,23,60,253,51,43,77,256,51*6C
$GBGSV,6,5,23,21,05,038,,22,08,037,41,10,01,096,25,44,00,064,28*6D
$GBGSV,6,6,23,50,05,107,,56,05,080,,02,06,107,34*57
$GPGGA,171442.00,,,,,0,00,,,M,,M,,*4D
$PTNL,GGK,171442.00,010125,4742.1603282,N,01618.1001260,E,1,39,0.7,EHT751.4690,M*49
$GPGGQ,171442.00,010125,4742.1603282,N,01618.1001260,E,1,39,0.963,708.2624,M*39
$GPGFA,171442.00,4.039,6.581,0.425,0.322,342.357,0.803,,VVV*0D
$GPLLK,171442.00,010125,,M,,M,1,39,0.8,,M*0C
$GNGMP,171442.00,,,,,DAAA,39,0.4,,,,*5D
$GPGMP,171442.00,,,,,,10,,,,2.2,136*7D
$GLGMP,171442.00,,,,,,09,,,,,*73
$GAGMP,171442.00,,,,,,06,,,,,*71
$GBGMP,171442.00,,,,,,14,,,,,*71
$PSSN,SNC,[0,321300000,2347]*47
$GPZDA,171447.00,01,01,2025,,*63
$GPDTM,W84,,00.0000000,N,00.0000000,E,00.0000000,W84*5F
$PSSN,TFM,171447.00,,,,*6F
$GPRMC,171447.00,A,4742.1603252,N,01618.1001302,E,0.0,,010125,5.1,E,D*16
$GPGLL,4742.1603252,N,01618.1001302,E,171447.00,A,D*67
$GPGGA,171447.00,4742.1603252,N,01618.1001302,E,2,39,0.4,708.2604,M,43.2066,M,3.2,0136*4B
$GNGNS,171447.00,4742.1603252,N,01618.1001302,E,DAAA,39,0.4,708.2604,43.2066,,*52
$GPGNS,171447.00,,,,,,10,,,,3.2,136*79
$GLGNS,171447.00,,,,,,09,,,,,*76
$GAGNS,171447.00,,,,,,06,,,,,*74
$GBGNS,171447.00,,,,,,14,,,,,*74
$GPLLQ,171447.00,010125,,M,,M,1,39,0.977,,M*12
$GPVTG,,T,,M,0.00,N,0.01,K,D*27
$GPHDT,,T*1B
$GPTHS,,V*0E
$GPROT,,V*08
$PSSN,HRP,171447.00,010125,,,,,,,00,0,,*61
$PTNL,AVR,171447.00,,Yaw,,Tilt,,,,0,,00*37
$GPGSA,A,3,05,16,18,20,23,25,26,28,29,31,,,0.7,0.4,0.6*3F
$GPGSA,A,3,65,72,73,79,80,81,82,83,88,,,,0.7,0.4,0.6*3B
$GPGSA,A,3,13,15,21,27,30,34,,,,,,,0.7,0.4,0.6*33
$GPGSA,A,3,05,08,11,12,13,22,23,25,28,34,37,38,0.7,0.4,0.6*3F
$GPGSA,A,3,43,60,,,,,,,,,,,0.7,0.4,0.6*36
$GPGST,171447.00,1.570,0.431,0.326,341.791,0.422,0.338,0.814*5D
$GPGBS,171447.00,2.259,1.789,5.118,72,0.0001,6.014,6.630*5D
$GPGRS,171447.00,1,0.1,0.3,-0.0,-0.3,-0.2,-0.3,0.1,0.0,0.0,0.0,,*4F
$GPGRS,171447.00,1,-3.0,6.0,3.0,-0.6,-2.4,0.7,-1.5,-0.1,-2.9,,,*6F
$GPGRS,171447.00,1,0.3,0.5,-0.1,0.3,-0.5,-0.8,,,,,,*6A
$GPGRS,171447.00,1,0.7,0.7,-0.3,0.8,-0.1,-1.0,-0.2,-0.5,0.6,-0.2,-1.0,-0.4*43
$GPGRS,171447.00,1,0.5,-1.0,,,,,,,,,,*67
$GPGSV,5,1,20,18,70,177,49,05,28,062,43,25,22,138,40,20,10,033,37*7F
$GPGSV,5,2,20,16,29,306,43,28,25,217,43,31,38,246,46,26,59,291,49*78
$GPGSV,5,3,20,29,52,069,47,23,10,157,37,27,04,269,36,36,35,170,45*77
$GPGSV,5,4,20,58,13,245,37,40,23,133,36,34,31,208,43,49,34,195,44*7C
$GPGSV,5,5,20,57,08,111,38,41,07,108,34,61,03,257,38*48
$GLGSV,3,1,10,80,64,305,53,88,10,047,43,73,11,328,43,65,11,053,38*6D
$GLGSV,3,2,10,83,18,232,35,79,52,171,51,82,60,247,51,81,63,030,51*6A
$GLGSV,3,3,10,78,03,156,,72,08,000,37*63
$GAGSV,3,1,09,27,71,145,49,34,22,044,40,30,19,132,39,13,45,200,46*6C
$GAGSV,3,2,09,21,50,303,46,15,70,082,48,04,02,324,37,23,01,309,*6C
$GAGSV,3,3,09,06,01,347,35*50
$GBGSV,6,1,22,11,77,047,49,05,21,129,38,60,10,109,40,27,17,233,*6F
$GBGSV,6,2,22,25,33,178,47,07,14,095,,37,25,313,44,28,14,244,43*63
$GBGSV,6,3,22,12,22,060,40,38,30,047,44,13,42,071,45,08,40,060,42*6B
$GBGSV,6,4,22,31,42,059,,34,51,061,49,23,60,253,50,43,77,256,51*6C
$GBGSV,6,5,22,21,05,038,,22,08,036,41,10,01,096,26,50,05,106,*61
$GBGSV,6,6,22,56,05,080,,02,06,107,34*60
$GPGGA,171447.00,,,,,0,00,,,M,,M,,*48
$PTNL,GGK,171447.00,010125,4742.1603252,N,01618.1001302,E,1,39,0.7,EHT751.4669,M*42
$GPGGQ,171447.00,010125,4742.1603252,N,01618.1001302,E,1,39,0.977,708.2604,M*33
$GPGFA,171447.00,4.099,6.678,0.431,0.326,341.791,0.814,,VVV*0D
$GPLLK,171447.00,010125,,M,,M,1,39,0.8,,M*09
$GNGMP,171447.00,,,,,DAAA,39,0.4,,,,*58
$GPGMP,171447.00,,,,,,10,,,,3.2,136*79
$GLGMP,171447.00,,,,,,09,,,,,*76
$GAGMP,171447.00,,,,,,06,,,,,*74
$GBGMP,171447.00,,,,,,14,,,,,*74
$PSSN,SNC,[0,321305000,2347]*42
$GPZDA,171452.00,01,01,2025,,*67
$GPDTM,W84,,00.0000000,N,00.0000000,E,00.0000000,W84*5F
$PSSN,TFM,171452.00,,,,*6B
$GPRMC,171452.00,A,4742.1603239,N,01618.1001317,E,0.0,,010125,5.1,E,D*1B
$GPGLL,4742.1603239,N,01618.1001317,E,171452.00,A,D*6A
$GPGGA,171452.00,4742.1603239,N,01618.1001317,E,2,39,0.4,708.2616,M,43.2066,M,2.9,0136*4F
$GNGNS,171452.00,4742.1603239,N,01618.1001317,E,DAAA,39,0.4,708.2616,43.2066,,*5C
$GPGNS,171452.00,,,,,,10,,,,2.9,136*77
$GLGNS,171452.00,,,,,,09,,,,,*72
$GAGNS,171452.00,,,,,,06,,,,,*70
$GBGNS,171452.00,,,,,,14,,,,,*70
$GPLLQ,171452.00,010125,,M,,M,1,39,0.987,,M*19
$GPVTG,,T,,M,0.01,N,0.01,K,D*26
$GPHDT,,T*1B
$GPTHS,,V*0E
$GPROT,,V*08
$PSSN,HRP,171452.00,010125,,,,,,,00,0,,*65
$PTNL,AVR,171452.00,,Yaw,,Tilt,,,,0,,00*33
$GPGSA,A,3,05,16,18,20,23,25,26,28,29,31,,,0.7,0.4,0.6*3F
$GPGSA,A,3,65,72,73,79,80,81,82,83,88,,,,0.7,0.4,0.6*3B
$GPGSA,A,3,13,15,21,27,30,34,,,,,,,0.7,0.4,0.6*33
$GPGSA,A,3,05,08,11,12,13,22,23,25,28,34,37,38,0.7,0.4,0.6*3F
$GPGSA,A,3,43,60,,,,,,,,,,,0.7,0.4,0.6*36
$GPGST,171452.00,1.675,0.437,0.325,340.604,0.426,0.339,0.823*57
$GPGBS,171452.00,2.261,1.794,5.111,72,0.0001,6.370,6.630*56
$GPGRS,171452.00,1,0.2,0.0,-0.1,-0.7,-0.3,0.1,0.1,-0.0,0.0,0.0,,*4D
$GPGRS,171452.00,1,-3.5,6.4,2.1,-0.5,-2.5,0.2,-1.4,-2.6,-3.0,,,*61
$GPGRS,171452.00,1,0.2,0.3,-0.2,0.1,-0.3,-0.9,,,,,,*6F
$GPGRS,171452.00,1,0.7,0.4,-0.8,0.5,-0.5,-1.0,-0.4,-0.4,-0.1,-0.2,-1.3,-0.6*6A
$GPGRS,171452.00,1,0.4,-1.2,,,,,,,,,,*60
$GPGSV,5,1,20,18,70,177,49,05,28,062,43,25,22,138,40,20,10,033,37*7F
$GPGSV,5,2,20,16,29,306,42,28,25,217,43,31,37,246,46,26,59,291,49*76
$GPGSV,5,3,20,29,52,069,48,23,10,157,37,27,04,269,36,36,35,170,45*78
$GPGSV,5,4,20,58,13,245,36,40,23,133,36,34,31,208,42,49,34,195,44*7C
$GPGSV,5,5,20,57,08,111,38,41,07,108,34,61,03,257,38*48
$GLGSV,3,1,10,80,64,305,52,88,10,047,43,73,11,328,43,65,11,053,38*6C
$GLGSV,3,2,10,83,18,232,35,79,52,171,52,82,60,247,52,81,63,030,52*69
$GLGSV,3,3,10,78,03,156,,72,08,000,38*6C
$GAGSV,3,1,09,27,71,145,49,34,22,044,40,30,19,132,40,13,45,200,47*63
$GAGSV,3,2,09,21,50,303,46,15,69,081,48,04,02,324,37,23,01,309,*67
$GAGSV,3,3,09,06,01,347,35*50
$GBGSV,6,1,22,11,77,047,49,05,21,129,38,60,10,109,41,27,17,233,*6E
$GBGSV,6,2,22,25,33,178,47,07,14,095,,28,14,244,42,37,25,313,44*62
$GBGSV,6,3,22,12,22,060,41,38,30,047,44,13,42,071,45,08,40,060,42*6A
$GBGSV,6,4,22,31,42,059,,34,51,061,49,23,60,253,50,43,77,256,51*6C
$GBGSV,6,5,22,10,00,096,26,22,08,036,41,21,05,038,,50,05,106,*60
$GBGSV,6,6,22,56,05,080,,02,06,107,33*67
$GPGGA,171452.00,,,,,0,00,,,M,,M,,*4C
$PTNL,GGK,171452.00,010125,4742.1603239,N,01618.1001317,E,1,39,0.7,EHT751.4681,M*49
$GPGGQ,171452.00,010125,4742.1603239,N,01618.1001317,E,1,39,0.987,708.2616,M*32
$GPGFA,171452.00,4.154,6.752,0.437,0.325,340.604,0.823,,VVV*0D
$GPLLK,171452.00,010125,,M,,M,1,39,0.8,,M*0D
$GNGMP,171452.00,,,,,DAAA,39,0.4,,,,*5C
$GPGMP,171452.00,,,,,,10,,,,2.9,136*77
$GLGMP,171452.00,,,,,,09,,,,,*72
$GAGMP,171452.00,,,,,,06,,,,,*70
$GBGMP,171452.00,,,,,,14,,,,,*70
$PSSN,SNC,[0,321310000,2347]*46
$GPZDA,171457.00,01,01,2025,,*62
$GPDTM,W84,,00.0000000,N,00.0000000,E,00.0000000,W84*5F
$PSSN,TFM,171457.00,,,,*6E
$GPRMC,171457.00,A,4742.1603206,N,01618.1001296,E,0.0,,010125,5.1,E,D*1A
$GPGLL,4742.1603206,N,01618.1001296,E,171457.00,A,D*6B
$GPGGA,171457.00,4742.1603206,N,01618.1001296,E,2,39,0.4,708.2582,M,43.2066,M,1.7,0136*4D
$GNGNS,171457.00,4742.1603206,N,01618.1001296,E,DAAA,39,0.4,708.2582,43.2066,,*53
$GPGNS,171457.00,,,,,,10,,,,1.7,136*7F
$GLGNS,171457.00,,,,,,09,,,,,*77
$GAGNS,171457.00,,,,,,06,,,,,*75
$GBGNS,171457.00,,,,,,14,,,,,*75
$GPLLQ,171457.00,010125,,M,,M,1,39,0.975,,M*11
$GPVTG,,T,,M,0.00,N,0.01,K,D*27
$GPHDT,,T*1B
$GPTHS,,V*0E
$GPROT,,V*08
$PSSN,HRP,171457.00,010125,,,,,,,00,0,,*60
$PTNL,AVR,171457.00,,Yaw,,Tilt,,,,0,,00*36
$GPGSA,A,3,05,16,18,20,23,25,26,28,29,31,,,0.7,0.4,0.6*3F
$GPGSA,A,3,65,72,73,79,80,81,82,83,88,,,,0.7,0.4,0.6*3B
$GPGSA,A,3,13,15,21,27,30,34,,,,,,,0.7,0.4,0.6*33
$GPGSA,A,3,05,08,11,12,13,22,23,25,28,34,37,38,0.7,0.4,0.6*3F
$GPGSA,A,3,43,60,,,,,,,,,,,0.7,0.4,0.6*36
$GPGST,171457.00,1.577,0.432,0.320,340.844,0.422,0.334,0.813*53
$GPGBS,171457.00,2.172,1.787,4.995,72,0.0001,6.930,6.628*52
$GPGRS,171457.00,1,1.0,-0.2,0.0,-0.4,-0.4,-0.7,0.1,-0.2,0.1,-0.2,,*4B
$GPGRS,171457.00,1,-1.5,6.9,2.8,0.0,-2.3,0.6,-1.0,-0.8,-2.5,,,*44
$GPGRS,171457.00,1,0.3,0.3,-0.3,0.2,-0.3,-0.8,,,,,,*68
$GPGRS,171457.00,1,0.7,0.7,-0.6,0.4,-0.6,-0.9,-0.3,-0.5,0.2,0.1,-1.0,-0.3*68
$GPGRS,171457.00,1,0.6,-1.0,,,,,,,,,,*65
$GPGSV,5,1,20,18,70,177,49,05,28,062,43,25,22,138,40,20,10,033,36*7E
$GPGSV,5,2,20,16,29,306,43,28,25,217,44,31,37,246,47,26,59,291,48*70
$GPGSV,5,3,20,29,52,069,47,23,10,157,38,27,04,269,36,36,35,170,45*78
$GPGSV,5,4,20,58,13,245,37,40,23,133,36,34,31,208,43,49,34,195,44*7C
$GPGSV,5,5,20,57,08,111,38,41,07,108,34,61,03,257,38*48
$GLGSV,3,1,10,80,64,305,53,88,10,047,44,73,11,328,43,65,11,053,39*6B
$GLGSV,3,2,10,83,18,232,36,79,52,171,52,82,60,247,52,81,63,030,52*6A
$GLGSV,3,3,10,78,03,156,,72,08,000,38*6C
$GAGSV,3,1,09,27,71,145,49,34,22,044,40,30,19,132,40,13,45,200,47*63
$GAGSV,3,2,09,21,50,303,46,15,69,081,48,04,02,324,36,23,01,309,*66
$GAGSV,3,3,09,06,01,347,34*51
$GBGSV,6,1,22,11,77,047,49,05,21,129,38,60,10,109,40,27,17,233,*6F
$GBGSV,6,2,22,25,33,178,47,07,14,095,,28,14,244,42,37,25,313,43*65
$GBGSV,6,3,22,12,22,060,41,38,30,047,44,13,42,071,45,08,40,060,42*6A
$GBGSV,6,4,22,31,42,059,,34,51,061,49,23,60,253,50,43,77,256,51*6C
$GBGSV,6,5,22,10,00,096,26,22,08,036,41,21,05,038,,50,05,106,*60
$GBGSV,6,6,22,56,05,080,,02,06,107,33*67
$GPGGA,171457.00,,,,,0,00,,,M,,M,,*49
$PTNL,GGK,171457.00,010125,4742.1603206,N,01618.1001296,E,1,39,0.7,EHT751.4647,M*42
$GPGGQ,171457.00,010125,4742.1603206,N,01618.1001296,E,1,39,0.975,708.2582,M*30
$GPGFA,171457.00,4.112,6.668,0.432,0.320,340.844,0.813,,VVV*0B
$GPLLK,171457.00,010125,,M,,M,1,39,0.8,,M*08
$GNGMP,171457.00,,,,,DAAA,39,0.4,,,,*59
$GPGMP,171457.00,,,,,,10,,,,1.7,136*7F
$GLGMP,171457.00,,,,,,09,,,,,*77
$GAGMP,171457.00,,,,,,06,,,,,*75
$GBGMP,171457.00,,,,,,14,,,,,*75
$PSSN,SNC,[0,321315000,2347]*43
$GPZDA,171502.00,01,01,2025,,*63
$GPDTM,W84,,00.0000000,N,00.0000000,E,00.0000000,W84*5F
$PSSN,TFM,171502.00,,,,*6F
$GPRMC,171502.00,A,4742.1603183,N,01618.1001301,E,0.0,,010125,5.1,E,D*1A
$GPGLL,4742.1603183,N,01618.1001301,E,171502.00,A,D*6B
$GPGGA,171502.00,4742.1603183,N,01618.1001301,E,2,39,0.4,708.2591,M,43.2066,M,2.2,0136*49
$GNGNS,171502.00,4742.1603183,N,01618.1001301,E,DAAA,39,0.4,708.2591,43.2066,,*51
$GPGNS,171502.00,,,,,,10,,,,2.2,136*78
$GLGNS,171502.00,,,,,,09,,,,,*76
$GAGNS,171502.00,,,,,,06,,,,,*74
$GBGNS,171502.00,,,,,,14,,,,,*74
$GPLLQ,171502.00,010125,,M,,M,1,39,0.962,,M*16
$GPVTG,,T,,M,0.01,N,0.01,K,D*26
$GPHDT,,T*1B
$GPTHS,,V*0E
$GPROT,,V*08
$PSSN,HRP,171502.00,010125,,,,,,,00,0,,*61
$PTNL,AVR,171502.00,,Yaw,,Tilt,,,,0,,00*37
$GPGSA,A,3,05,16,18,20,23,25,26,28,29,31,,,0.7,0.4,0.6*3F
$GPGSA,A,3,65,72,73,79,80,81,82,83,88,,,,0.7,0.4,0.6*3B
$GPGSA,A,3,13,15,21,27,30,34,,,,,,,0.7,0.4,0.6*33
$GPGSA,A,3,05,08,11,12,13,22,23,25,28,34,37,38,0.7,0.4,0.6*3F
$GPGSA,A,3,43,60,,,,,,,,,,,0.7,0.4,0.6*36
$GPGST,171502.00,1.695,0.425,0.322,342.222,0.417,0.333,0.801*53
$GPGBS,171502.00,2.219,1.776,5.052,72,0.0001,7.632,6.631*54
$GPGRS,171502.00,1,0.5,0.5,0.1,-0.7,-0.5,-0.1,-0.1,-0.2,-0.1,0.0,,*4E
$GPGRS,171502.00,1,-2.0,7.6,1.9,-0.4,-2.5,0.4,-1.1,-1.3,-2.7,,,*6B
$GPGRS,171502.00,1,0.2,0.4,0.1,0.1,-0.6,-0.7,,,,,,*49
$GPGRS,171502.00,1,0.6,1.0,-0.4,1.2,-0.7,-1.0,-0.4,-0.4,0.3,0.1,-0.5,-0.5*67
$GPGRS,171502.00,1,0.6,-1.1,,,,,,,,,,*65
$GPGSV,5,1,20,18,70,177,49,05,28,062,44,25,22,138,41,20,10,033,36*78
$GPGSV,5,2,20,16,29,306,43,28,25,217,43,31,37,245,47,26,60,291,48*7E
$GPGSV,5,3,20,29,52,069,47,23,10,157,38,27,04,269,36,36,35,170,45*78
$GPGSV,5,4,20,58,13,245,36,40,23,133,36,34,31,208,43,49,34,195,44*7D
$GPGSV,5,5,20,57,08,111,38,41,07,108,34,61,03,257,38*48
$GLGSV,3,1,10,80,64,305,52,88,10,047,43,73,11,328,42,65,11,053,39*6C
$GLGSV,3,2,10,83,19,232,35,79,52,171,52,82,60,247,52,81,63,030,52*68
$GLGSV,3,3,10,78,03,156,,72,07,000,38*63
$GAGSV,3,1,09,27,71,145,49,34,22,044,40,30,19,132,40,13,45,200,46*62
$GAGSV,3,2,09,21,50,303,46,15,69,081,48,04,02,324,36,23,01,309,*66
$GAGSV,3,3,09,06,01,347,34*51
$GBGSV,6,1,22,11,77,047,49,05,21,129,38,60,10,109,41,27,17,233,*6E
$GBGSV,6,2,22,25,33,178,46,07,14,095,,28,14,244,42,37,26,313,43*67
$GBGSV,6,3,22,12,22,060,42,38,30,047,44,13,42,071,45,08,40,060,42*69
$GBGSV,6,4,22,31,42,059,,34,51,061,49,23,59,253,50,43,77,256,51*66
$GBGSV,6,5,22,10,00,096,26,22,08,036,41,21,05,038,,50,05,106,*60
$GBGSV,6,6,22,56,05,080,,02,06,107,33*67
$GPGGA,171502.00,,,,,0,00,,,M,,M,,*48
$PTNL,GGK,171502.00,010125,4742.1603183,N,01618.1001301,E,1,39,0.7,EHT751.4657,M*43
$GPGGQ,171502.00,010125,4742.1603183,N,01618.1001301,E,1,39,0.962,708.2591,M*34
$GPGFA,171502.00,4.044,6.567,0.425,0.322,342.222,0.801,,VVV*0B
$GPLLK,171502.00,010125,,M,,M,1,39,0.8,,M*09
$GNGMP,171502.00,,,,,DAAA,39,0.4,,,,*58
$GPGMP,171502.00,,,,,,10,,,,2.2,136*78
$GLGMP,171502.00,,,,,,09,,,,,*76
$GAGMP,171502.00,,,,,,06,,,,,*74
$GBGMP,171502.00,,,,,,14,,,,,*74
$PSSN,SNC,[0,321320000,2347]*45
$GPZDA,171507.00,01,01,2025,,*66
$GPDTM,W84,,00.0000000,N,00.0000000,E,00.0000000,W84*5F
$PSSN,TFM,171507.00,,,,*6A
$GPRMC,171507.00,A,4742.1603170,N,01618.1001302,E,0.0,,010125,5.1,E,D*10
$GPGLL,4742.1603170,N,01618.1001302,E,171507.00,A,D*61
$GPGGA,171507.00,4742.1603170,N,01618.1001302,E,2,39,0.4,708.2582,M,43.2066,M,3.2,0136*40
$GNGNS,171507.00,4742.1603170,N,01618.1001302,E,DAAA,39,0.4,708.2582,43.2066,,*59
$GPGNS,171507.00,,,,,,10,,,,3.2,136*7C
$GLGNS,171507.00,,,,,,09,,,,,*73
$GAGNS,171507.00,,,,,,06,,,,,*71
$GBGNS,171507.00,,,,,,14,,,,,*71
$GPLLQ,171507.00,010125,,M,,M,1,39,0.976,,M*16
$GPVTG,,T,,M,0.01,N,0.01,K,D*26
$GPHDT,,T*1B
$GPTHS,,V*0E
$GPROT,,V*08
$PSSN,HRP,171507.00,010125,,,,,,,00,0,,*64
$PTNL,AVR,171507.00,,Yaw,,Tilt,,,,0,,00*32
$GPGSA,A,3,05,16,18,20,23,25,26,28,29,31,,,0.7,0.4,0.6*3F
$GPGSA,A,3,65,72,73,79,80,81,82,83,88,,,,0.7,0.4,0.6*3B
$GPGSA,A,3,13,15,21,27,30,34,,,,,,,0.7,0.4,0.6*33
$GPGSA,A,3,05,08,11,12,13,22,23,25,28,34,37,38,0.7,0.4,0.6*3F
$GPGSA,A,3,43,60,,,,,,,,,,,0.7,0.4,0.6*36
$GPGST,171507.00,1.573,0.432,0.326,341.712,0.422,0.338,0.813*54
$GPGBS,171507.00,2.259,1.794,5.127,72,0.0001,6.747,6.629*51
$GPGRS,171507.00,1,0.1,0.3,-0.0,-0.1,-0.1,-0.0,0.2,-0.2,-0.0,-0.4,,*60
$GPGRS,171507.00,1,-2.1,6.7,2.0,-0.8,-2.2,0.2,-1.0,-1.0,-2.5,,,*68
$GPGRS,171507.00,1,0.4,0.5,-0.1,0.3,-0.6,-0.5,,,,,,*66
$GPGRS,171507.00,1,0.5,1.6,-0.4,2.0,-0.7,-1.0,-0.4,-0.6,0.4,0.3,-0.3,-0.6*64
$GPGRS,171507.00,1,0.6,-0.9,,,,,,,,,,*69
$GPGSV,5,1,20,18,70,177,49,05,28,062,44,25,22,138,41,28,25,217,43*70
$GPGSV,5,2,20,16,29,306,43,31,37,245,46,29,52,069,47,26,60,291,48*71
$GPGSV,5,3,20,20,10,033,36,27,04,269,36,23,10,157,39,36,35,170,45*7F
$GPGSV,5,4,20,58,13,245,36,40,23,133,36,34,31,208,42,49,34,195,44*7C
$GPGSV,5,5,20,57,08,111,38,41,07,108,34,61,03,257,38*48
$GLGSV,3,1,10,80,64,304,52,88,10,047,43,73,11,328,43,65,11,053,39*6C
$GLGSV,3,2,10,83,19,232,35,79,51,171,51,82,61,247,51,81,63,030,51*69
$GLGSV,3,3,10,78,03,156,,72,07,000,38*63
$GAGSV,3,1,09,27,71,145,49,34,22,044,40,30,19,132,40,13,45,200,47*63
$GAGSV,3,2,09,21,51,303,46,15,69,081,47,04,02,324,35,23,01,309,*6B
$GAGSV,3,3,09,06,01,347,34*51
$GBGSV,6,1,22,11,77,047,49,05,21,129,37,60,10,109,41,27,17,233,*61
$GBGSV,6,2,22,25,33,178,46,07,14,095,,28,14,244,42,37,26,313,43*67
$GBGSV,6,3,22,12,22,060,41,38,30,047,44,13,42,071,45,08,40,060,42*6A
$GBGSV,6,4,22,31,42,059,,34,51,061,49,23,59,253,50,43,77,256,51*66
$GBGSV,6,5,22,10,00,096,24,22,08,036,41,21,05,038,,50,05,106,*62
$GBGSV,6,6,22,56,05,080,,02,06,107,33*67
$GPGGA,171507.00,,,,,0,00,,,M,,M,,*4D
$PTNL,GGK,171507.00,010125,4742.1603170,N,01618.1001302,E,1,39,0.7,EHT751.4647,M*48
$GPGGQ,171507.00,010125,4742.1603170,N,01618.1001302,E,1,39,0.976,708.2582,M*39
$GPGFA,171507.00,4.104,6.664,0.432,0.326,341.712,0.813,,VVV*0F
$GPLLK,171507.00,010125,,M,,M,1,39,0.8,,M*0C
$GNGMP,171507.00,,,,,DAAA,39,0.4,,,,*5D
$GPGMP,171507.00,,,,,,10,,,,3.2,136*7C
$GLGMP,171507.00,,,,,,09,,,,,*73
$GAGMP,171507.00,,,,,,06,,,,,*71
$GBGMP,171507.00,,,,,,14,,,,,*71
$PSSN,SNC,[0,321325000,2347]*40
$GPZDA,171512.00,01,01,2025,,*62
$GPDTM,W84,,00.0000000,N,00.0000000,E,00.0000000,W84*5F
$PSSN,TFM,171512.00,,,,*6E
$GPRMC,171512.00,A,4742.1603132,N,01618.1001314,E,0.0,,010125,5.1,E,D*15
$GPGLL,4742.1603132,N,01618.1001314,E,171512.00,A,D*64
$GPGGA,171512.00,4742.1603132,N,01618.1001314,E,2,39,0.4,708.2590,M,43.2066,M,2.9,0136*4C
$GNGNS,171512.00,4742.1603132,N,01618.1001314,E,DAAA,39,0.4,708.2590,43.2066,,*5F
$GPGNS,171512.00,,,,,,10,,,,2.9,136*72
$GLGNS,171512.00,,,,,,09,,,,,*77
$GAGNS,171512.00,,,,,,06,,,,,*75
$GBGNS,171512.00,,,,,,14,,,,,*75
$GPLLQ,171512.00,010125,,M,,M,1,39,0.986,,M*1D
$GPVTG,,T,,M,0.00,N,0.01,K,D*27
$GPHDT,,T*1B
$GPTHS,,V*0E
$GPROT,,V*08
$PSSN,HRP,171512.00,010125,,,,,,,00,0,,*60
$PTNL,AVR,171512.00,,Yaw,,Tilt,,,,0,,00*36
$GPGSA,A,3,05,16,18,20,23,25,26,28,29,31,,,0.7,0.4,0.6*3F
$GPGSA,A,3,65,72,73,79,80,81,82,83,88,,,,0.7,0.4,0.6*3B
$GPGSA,A,3,13,15,21,27,30,34,,,,,,,0.7,0.4,0.6*33
$GPGSA,A,3,05,08,11,12,13,22,23,25,28,34,37,38,0.7,0.4,0.6*3F
$GPGSA,A,3,43,60,,,,,,,,,,,0.7,0.4,0.6*36
$GPGST,171512.00,1.627,0.437,0.325,340.562,0.426,0.340,0.822*59
$GPGBS,171512.00,2.273,1.801,5.122,72,0.0001,6.539,6.633*5B
$GPGRS,171512.00,1,-0.1,0.3,0.1,-0.0,-0.2,-0.0,0.4,-0.1,-0.2,-0.3,,*67
$GPGRS,171512.00,1,-2.5,6.5,2.7,-0.7,-2.4,0.1,-1.1,-0.4,-3.0,,,*67
$GPGRS,171512.00,1,0.5,0.5,-0.3,0.3,-0.5,-0.4,,,,,,*63
$GPGRS,171512.00,1,0.7,1.2,-0.8,1.7,-0.5,-0.4,-0.3,-0.6,1.1,0.4,-0.4,-0.5*69
$GPGRS,171512.00,1,0.7,-1.1,,,,,,,,,,*65
$GPGSV,5,1,20,18,70,177,49,05,28,062,44,25,22,138,41,28,25,217,43*70
$GPGSV,5,2,20,16,30,306,43,31,37,245,46,29,52,069,48,26,60,291,48*76
$GPGSV,5,3,20,20,10,033,37,27,04,269,36,23,10,157,39,36,35,170,45*7E
$GPGSV,5,4,20,58,13,245,36,40,23,133,36,34,31,208,43,49,34,195,44*7D
$GPGSV,5,5,20,57,08,111,38,41,07,108,34,61,03,257,38*48
$GLGSV,3,1,10,80,64,304,52,88,10,047,42,73,11,328,43,65,11,053,39*6D
$GLGSV,3,2,10,83,19,232,36,79,51,171,52,82,61,247,51,81,63,030,51*69
$GLGSV,3,3,10,78,03,156,,72,07,000,38*63
$GAGSV,3,1,09,27,71,145,49,34,22,044,40,30,19,132,40,13,45,200,47*63
$GAGSV,3,2,09,21,51,303,46,15,69,081,48,04,02,324,37,23,01,309,*66
$GAGSV,3,3,09,06,01,347,34*51
$GBGSV,6,1,22,11,77,047,49,05,21,129,38,60,10,109,41,27,17,233,*6E
$GBGSV,6,2,22,25,33,178,46,07,14,095,,28,14,244,43,37,26,312,44*60
$GBGSV,6,3,22,12,22,060,40,38,30,047,44,13,42,071,45,08,40,060,42*6B
$GBGSV,6,4,22,31,42,059,,34,51,061,49,23,59,253,50,43,77,256,51*66
$GBGSV,6,5,22,10,00,096,25,22,08,036,41,21,05,038,,50,05,106,*63
$GBGSV,6,6,22,56,05,080,,02,06,107,33*67
$GPGGA,171512.00,,,,,0,00,,,M,,M,,*49
$PTNL,GGK,171512.00,010125,4742.1603132,N,01618.1001314,E,1,39,0.7,EHT751.4655,M*4E
$GPGGQ,171512.00,010125,4742.1603132,N,01618.1001314,E,1,39,0.986,708.2590,M*30
$GPGFA,171512.00,4.157,6.738,0.437,0.325,340.562,0.822,,VVV*05
$GPLLK,171512.00,010125,,M,,M,1,39,0.8,,M*08
$GNGMP,171512.00,,,,,DAAA,39,0.4,,,,*59
$GPGMP,171512.00,,,,,,10,,,,2.9,136*72
$GLGMP,171512.00,,,,,,09,,,,,*77
$GAGMP,171512.00,,,,,,06,,,,,*75
$GBGMP,171512.00,,,,,,14,,,,,*75
$PSSN,SNC,[0,321330000,2347]*44
$GPZDA,171517.00,01,01,2025,,*67
$GPDTM,W84,,00.0000000,N,00.0000000,E,00.0000000,W84*5F
$PSSN,TFM,171517.00,,,,*6B
$GPRMC,171517.00,A,4742.1603104,N,01618.1001365,E,0.0,,010125,5.1,E,D*13
$GPGLL,4742.1603104,N,01618.1001365,E,171517.00,A,D*62
$GPGGA,171517.00,4742.1603104,N,01618.1001365,E,2,38,0.4,708.2564,M,43.2066,M,1.7,0136*4D
$GNGNS,171517.00,4742.1603104,N,01618.1001365,E,DAAA,38,0.4,708.2564,43.2066,,*53
$GPGNS,171517.00,,,,,,10,,,,1.7,136*7A
$GLGNS,171517.00,,,,,,08,,,,,*73
$GAGNS,171517.00,,,,,,06,,,,,*70
$GBGNS,171517.00,,,,,,14,,,,,*70
$GPLLQ,171517.00,010125,,M,,M,1,38,0.974,,M*14
$GPVTG,,T,,M,0.01,N,0.01,K,D*26
$GPHDT,,T*1B
$GPTHS,,V*0E
$GPROT,,V*08
$PSSN,HRP,171517.00,010125,,,,,,,00,0,,*65
$PTNL,AVR,171517.00,,Yaw,,Tilt,,,,0,,00*33
$GPGSA,A,3,05,16,18,20,23,25,26,28,29,31,,,0.7,0.4,0.6*3F
$GPGSA,A,3,65,72,73,79,80,81,82,88,,,,,0.7,0.4,0.6*30
$GPGSA,A,3,13,15,21,27,30,34,,,,,,,0.7,0.4,0.6*33
$GPGSA,A,3,05,08,11,12,13,22,23,25,28,34,37,38,0.7,0.4,0.6*3F
$GPGSA,A,3,43,60,,,,,,,,,,,0.7,0.4,0.6*36
$GPGST,171517.00,1.569,0.433,0.321,340.915,0.422,0.335,0.812*5C
$GPGBS,171517.00,2.184,1.803,5.006,72,0.0001,6.558,6.632*56
$GPGRS,171517.00,1,-0.1,0.4,0.0,-0.2,-0.6,-0.1,0.4,0.2,-0.2,-0.2,,*4C
$GPGRS,171517.00,1,-1.3,6.6,2.6,-0.3,-2.4,0.4,-1.3,-3.3,,,,*62
$GPGRS,171517.00,1,0.3,0.4,-0.2,0.2,-0.3,-0.6,,,,,,*65
$GPGRS,171517.00,1,0.6,0.9,-0.8,0.5,-0.2,-0.4,-0.3,-0.6,0.3,0.0,-0.5,-0.4*64
$GPGRS,171517.00,1,0.5,-1.0,,,,,,,,,,*63
$GPGSV,5,1,20,18,70,177,49,05,28,062,44,25,22,138,42,28,25,217,43*73
$GPGSV,5,2,20,16,30,306,43,31,37,245,47,29,52,069,47,26,60,291,49*79
$GPGSV,5,3,20,20,10,033,37,27,04,269,36,23,10,157,39,36,35,170,45*7E
$GPGSV,5,4,20,58,13,245,37,40,23,133,37,34,31,208,43,49,34,195,44*7D
$GPGSV,5,5,20,57,08,111,38,41,07,108,35,61,03,257,38*49
$GLGSV,3,1,10,80,64,304,52,88,10,047,41,73,11,328,43,65,11,053,40*60
$GLGSV,3,2,10,83,19,232,35,79,51,171,51,82,61,247,52,81,63,030,52*69
$GLGSV,3,3,10,78,03,156,,72,07,000,38*63
$GAGSV,3,1,09,27,71,145,49,34,21,044,40,30,19,132,40,13,45,200,46*61
$GAGSV,3,2,09,21,51,303,46,15,69,081,48,04,02,324,36,23,01,309,*67
$GAGSV,3,3,09,06,01,347,34*51
$GBGSV,6,1,22,11,77,047,49,05,21,129,38,60,10,109,40,27,17,233,*6F
$GBGSV,6,2,22,25,33,178,47,07,14,095,,28,14,244,42,37,26,312,43*67
$GBGSV,6,3,22,12,22,060,40,38,30,047,44,13,42,071,45,08,40,060,42*6B
$GBGSV,6,4,22,31,42,059,,34,51,061,48,23,59,252,50,43,77,256,51*66
$GBGSV,6,5,22,10,00,096,25,22,08,036,40,21,05,038,,50,05,106,*62
$GBGSV,6,6,22,56,05,080,,02,06,107,33*67
$GPGGA,171517.00,,,,,0,00,,,M,,M,,*4C
$PTNL,GGK,171517.00,010125,4742.1603104,N,01618.1001365,E,1,38,0.7,EHT751.4630,M*4A
$GPGGQ,171517.00,010125,4742.1603104,N,01618.1001365,E,1,38,0.974,708.2564,M*31
$GPGFA,171517.00,4.117,6.657,0.433,0.321,340.915,0.812,,VVV*03
$GPLLK,171517.00,010125,,M,,M,1,38,0.8,,M*0C
$GNGMP,171517.00,,,,,DAAA,38,0.4,,,,*5D
$GPGMP,171517.00,,,,,,10,,,,1.7,136*7A
$GLGMP,171517.00,,,,,,08,,,,,*73
$GAGMP,171517.00,,,,,,06,,,,,*70
$GBGMP,171517.00,,,,,,14,,,,,*70
$PSSN,SNC,[0,321335000,2347]*41
$GPZDA,171522.00,01,01,2025,,*61
$GPDTM,W84,,00.0000000,N,00.0000000,E,00.0000000,W84*5F
$PSSN,TFM,171522.00,,,,*6D
$GPRMC,171522.00,A,4742.1603091,N,01618.1001379,E,0.0,,010125,5.1,E,D*15
$GPGLL,4742.1603091,N,01618.1001379,E,171522.00,A,D*64
$GPGGA,171522.00,4742.1603091,N,01618.1001379,E,2,39,0.4,708.2533,M,43.2066,M,2.2,0136*4E
$GNGNS,171522.00,4742.1603091,N,01618.1001379,E,DAAA,39,0.4,708.2533,43.2066,,*56
$GPGNS,171522.00,,,,,,10,,,,2.2,136*7A
$GLGNS,171522.00,,,,,,09,,,,,*74
$GAGNS,171522.00,,,,,,06,,,,,*76
$GBGNS,171522.00,,,,,,14,,,,,*76
$GPLLQ,171522.00,010125,,M,,M,1,39,0.961,,M*17
$GPVTG,,T,,M,0.01,N,0.01,K,D*26
$GPHDT,,T*1B
$GPTHS,,V*0E
$GPROT,,V*08
$PSSN,HRP,171522.00,010125,,,,,,,00,0,,*63
$PTNL,AVR,171522.00,,Yaw,,Tilt,,,,0,,00*35
$GPGSA,A,3,05,16,18,20,23,25,26,28,29,31,,,0.7,0.4,0.6*3F
$GPGSA,A,3,65,72,73,79,80,81,82,83,88,,,,0.7,0.4,0.6*3B
$GPGSA,A,3,13,15,21,27,30,34,,,,,,,0.7,0.4,0.6*33
$GPGSA,A,3,05,08,11,12,13,22,23,25,28,34,37,38,0.7,0.4,0.6*3F
$GPGSA,A,3,43,60,,,,,,,,,,,0.7,0.4,0.6*36
$GPGST,171522.00,1.804,0.426,0.322,342.118,0.417,0.333,0.799*50
$GPGBS,171522.00,2.220,1.782,5.057,72,0.0001,7.662,6.631*57
$GPGRS,171522.00,1,0.1,0.0,0.0,-0.8,-0.7,-0.3,0.2,-0.1,0.2,-0.1,,*6C
$GPGRS,171522.00,1,-0.5,7.7,2.2,-0.4,-2.3,0.2,-0.9,-3.6,-3.8,,,*67
$GPGRS,171522.00,1,0.2,0.3,-0.2,0.3,-0.3,-0.4,,,,,,*66
$GPGRS,171522.00,1,0.4,1.0,-0.7,0.0,-0.4,-0.6,-0.4,-0.5,-0.4,-0.0,-0.9,-0.4*69
$GPGRS,171522.00,1,0.4,-0.9,,,,,,,,,,*6C
$GPGSV,5,1,20,18,70,177,49,05,28,062,44,25,22,138,41,28,25,217,44*77
$GPGSV,5,2,20,16,30,306,43,31,37,245,47,29,52,070,47,26,60,291,49*71
$GPGSV,5,3,20,20,10,033,37,27,04,269,36,23,10,157,39,36,35,170,45*7E
$GPGSV,5,4,20,58,13,245,36,40,23,133,36,34,31,208,43,49,34,195,44*7D
$GPGSV,5,5,20,57,08,111,38,41,07,108,34,61,03,257,38*48
$GLGSV,3,1,10,80,64,304,52,88,10,047,41,73,11,328,42,65,11,053,40*61
$GLGSV,3,2,10,83,19,232,35,79,51,171,52,82,61,248,52,81,62,030,51*67
$GLGSV,3,3,10,78,03,156,,72,07,000,38*63
$GAGSV,3,1,09,27,71,145,49,34,21,044,40,30,19,132,40,13,45,200,47*60
$GAGSV,3,2,09,21,51,303,46,15,69,081,48,04,02,324,36,23,01,309,*67
$GAGSV,3,3,09,06,01,347,35*50
$GBGSV,6,1,22,11,77,047,49,05,21,129,37,60,10,109,40,27,17,233,*60
$GBGSV,6,2,22,25,33,178,47,07,14,095,,28,14,244,42,37,26,312,43*67
$GBGSV,6,3,22,12,22,060,40,38,30,047,44,13,42,071,45,08,40,060,42*6B
$GBGSV,6,4,22,31,42,059,,34,51,061,48,23,59,252,50,43,77,256,51*66
$GBGSV,6,5,22,10,00,096,25,22,08,036,40,21,05,038,,50,05,106,*62
$GBGSV,6,6,22,56,05,080,,02,06,107,33*67
$GPGGA,171522.00,,,,,0,00,,,M,,M,,*4A
$PTNL,GGK,171522.00,010125,4742.1603091,N,01618.1001379,E,1,39,0.7,EHT751.4599,M*4D
$GPGGQ,171522.00,010125,4742.1603091,N,01618.1001379,E,1,39,0.961,708.2533,M*30
$GPGFA,171522.00,4.047,6.552,0.426,0.322,342.118,0.799,,VVV*0B
$GPLLK,171522.00,010125,,M,,M,1,39,0.8,,M*0B
$GNGMP,171522.00,,,,,DAAA,39,0.4,,,,*5A
$GPGMP,171522.00,,,,,,10,,,,2.2,136*7A
$GLGMP,171522.00,,,,,,09,,,,,*74
$GAGMP,171522.00,,,,,,06,,,,,*76
$GBGMP,171522.00,,,,,,14,,,,,*76
$PSSN,SNC,[0,321340000,2347]*43
$GPZDA,171527.00,01,01,2025,,*64
$GPDTM,W84,,00.0000000,N,00.0000000,E,00.0000000,W84*5F
$PSSN,TFM,171527.00,,,,*68
$GPRMC,171527.00,A,4742.1603075,N,01618.1001368,E,0.0,,010125,5.1,E,D*1A
$GPGLL,4742.1603075,N,01618.1001368,E,171527.00,A,D*6B
$GPGGA,171527.00,4742.1603075,N,01618.1001368,E,2,39,0.4,708.2517,M,43.2066,M,3.2,0136*46
$GNGNS,171527.00,4742.1603075,N,01618.1001368,E,DAAA,39,0.4,708.2517,43.2066,,*5F
$GPGNS,171527.00,,,,,,10,,,,3.2,136*7E
$GLGNS,171527.00,,,,,,09,,,,,*71
$GAGNS,171527.00,,,,,,06,,,,,*73
$GBGNS,171527.00,,,,,,14,,,,,*73
$GPLLQ,171527.00,010125,,M,,M,1,39,0.975,,M*17
$GPVTG,,T,,M,0.01,N,0.02,K,D*25
$GPHDT,,T*1B
$GPTHS,,V*0E
$GPROT,,V*08
$PSSN,HRP,171527.00,010125,,,,,,,00,0,,*66
$PTNL,AVR,171527.00,,Yaw,,Tilt,,,,0,,00*30
$GPGSA,A,3,05,16,18,20,23,25,26,28,29,31,,,0.7,0.4,0.6*3F
$GPGSA,A,3,65,72,73,79,80,81,82,83,88,,,,0.7,0.4,0.6*3B
$GPGSA,A,3,13,15,21,27,30,34,,,,,,,0.7,0.4,0.6*33
$GPGSA,A,3,05,08,11,12,13,22,23,25,28,34,37,38,0.7,0.4,0.6*3F
$GPGSA,A,3,43,60,,,,,,,,,,,0.7,0.4,0.6*36
$GPGST,171527.00,1.777,0.432,0.326,341.558,0.423,0.338,0.811*5F
$GPGBS,171527.00,2.259,1.800,5.131,72,0.0001,7.960,6.632*56
$GPGRS,171527.00,1,0.0,0.1,-0.1,-0.4,0.1,0.1,0.0,-0.1,0.0,0.0,,*61
$GPGRS,171527.00,1,-1.7,8.0,2.8,-0.1,-2.2,0.2,-1.1,-2.7,-2.7,,,*60
$GPGRS,171527.00,1,0.5,0.4,0.2,0.2,-0.6,-0.5,,,,,,*4B
$GPGRS,171527.00,1,1.2,1.1,-0.2,0.5,-0.6,-0.5,-0.3,-0.4,0.4,0.2,-0.7,-0.2*67
$GPGRS,171527.00,1,0.5,-0.6,,,,,,,,,,*67
$GPGSV,5,1,20,18,70,177,49,05,28,061,45,25,22,139,42,28,25,217,44*77
$GPGSV,5,2,20,16,30,306,43,31,37,245,47,29,52,070,48,26,60,291,49*7E
$GPGSV,5,3,20,20,10,033,38,27,04,269,36,23,10,157,39,36,35,170,45*71
$GPGSV,5,4,20,58,13,245,37,40,23,133,37,34,31,208,43,49,34,195,44*7D
$GPGSV,5,5,20,57,08,111,38,41,07,108,35,61,03,257,38*49
$GLGSV,3,1,10,80,64,304,52,88,10,047,42,73,11,328,43,65,11,053,40*63
$GLGSV,3,2,10,83,19,232,36,79,51,171,52,82,61,248,52,81,62,030,51*64
$GLGSV,3,3,10,78,03,156,,72,07,000,38*63
$GAGSV,3,1,09,27,71,145,49,34,21,044,40,30,19,132,40,13,45,200,47*60
$GAGSV,3,2,09,21,51,303,46,15,69,081,48,04,02,324,37,23,02,309,*65
$GAGSV,3,3,09,06,01,347,35*50
$GBGSV,6,1,22,11,77,047,49,05,21,129,37,60,10,109,40,27,17,233,*60
$GBGSV,6,2,22,25,33,178,47,07,14,095,,28,14,244,42,37,26,312,43*67
$GBGSV,6,3,22,12,22,060,40,38,30,047,44,13,42,071,45,08,40,060,42*6B
$GBGSV,6,4,22,31,42,059,,34,51,061,49,23,59,252,50,43,77,256,51*67
$GBGSV,6,5,22,10,00,096,26,22,08,036,41,21,05,038,,50,05,106,*60
$GBGSV,6,6,22,56,05,080,,02,06,107,33*67
$GPGGA,171527.00,,,,,0,00,,,M,,M,,*4F
$PTNL,GGK,171527.00,010125,4742.1603075,N,01618.1001368,E,1,39,0.7,EHT751.4583,M*49
$GPGGQ,171527.00,010125,4742.1603075,N,01618.1001368,E,1,39,0.975,708.2517,M*3C
$GPGFA,171527.00,4.107,6.647,0.432,0.326,341.558,0.811,,VVV*01
$GPLLK,171527.00,010125,,M,,M,1,39,0.8,,M*0E
$GNGMP,171527.00,,,,,DAAA,39,0.4,,,,*5F
$GPGMP,171527.00,,,,,,10,,,,3.2,136*7E
$GLGMP,171527.00,,,,,,09,,,,,*71
$GAGMP,171527.00,,,,,,06,,,,,*73
$GBGMP,171527.00,,,,,,14,,,,,*73
$PSSN,SNC,[0,321345000,2347]*46
$GPZDA,171532.00,01,01,2025,,*60
$GPDTM,W84,,00.0000000,N,00.0000000,E,00.0000000,W84*5F
$PSSN,TFM,171532.00,,,,*6C
$GPRMC,171532.00,A,4742.1603072,N,01618.1001362,E,0.0,,010125,5.1,E,D*13
$GPGLL,4742.1603072,N,01618.1001362,E,171532.00,A,D*62
$GPGGA,171532.00,4742.1603072,N,01618.1001362,E,2,39,0.4,708.2515,M,43.2066,M,2.9,0136*47
$GNGNS,171532.00,4742.1603072,N,01618.1001362,E,DAAA,39,0.4,708.2515,43.2066,,*54
$GPGNS,171532.00,,,,,,10,,,,2.9,136*70
$GLGNS,171532.00,,,,,,09,,,,,*75
$GAGNS,171532.00,,,,,,06,,,,,*77
$GBGNS,171532.00,,,,,,14,,,,,*77
$GPLLQ,171532.00,010125,,M,,M,1,39,0.985,,M*1C
$GPVTG,,T,,M,0.01,N,0.01,K,D*26
$GPHDT,,T*1B
$GPTHS,,V*0E
$GPROT,,V*08
$PSSN,HRP,171532.00,010125,,,,,,,00,0,,*62
$PTNL,AVR,171532.00,,Yaw,,Tilt,,,,0,,00*34
$GPGSA,A,3,05,16,18,20,23,25,26,28,29,31,,,0.7,0.4,0.6*3F
$GPGSA,A,3,65,72,73,79,80,81,82,83,88,,,,0.7,0.4,0.6*3B
$GPGSA,A,3,13,15,21,27,30,34,,,,,,,0.7,0.4,0.6*33
$GPGSA,A,3,05,08,11,12,13,22,23,25,28,34,37,38,0.7,0.4,0.6*3F
$GPGSA,A,3,43,60,,,,,,,,,,,0.7,0.4,0.6*36
$GPGST,171532.00,1.589,0.438,0.325,340.432,0.427,0.340,0.820*54
$GPGBS,171532.00,2.281,1.807,5.126,72,0.0001,7.292,6.636*54
$GPGRS,171532.00,1,-0.1,-0.2,0.1,0.4,-0.5,0.4,0.2,-0.4,0.1,-0.2,,*62
$GPGRS,171532.00,1,-1.8,7.3,2.6,-0.5,-2.2,0.5,-1.2,-0.5,-2.0,,,*6E
$GPGRS,171532.00,1,0.6,0.5,0.2,0.2,-0.8,-0.6,,,,,,*40
$GPGRS,171532.00,1,0.9,0.4,0.1,0.6,-0.5,-0.5,-0.3,-0.4,0.4,0.4,-0.3,-0.7*44
$GPGRS,171532.00,1,0.6,-1.0,,,,,,,,,,*67
$GPGSV,5,1,20,18,70,177,49,05,28,061,44,25,22,139,42,28,25,217,44*76
$GPGSV,5,2,20,16,30,306,43,31,37,245,47,29,52,070,48,26,60,291,49*7E
$GPGSV,5,3,20,20,10,033,38,27,04,269,36,23,10,157,39,36,35,170,45*71
$GPGSV,5,4,20,58,13,245,37,40,23,133,36,34,31,208,43,49,34,195,44*7C
$GPGSV,5,5,20,57,08,111,38,41,07,108,34,61,03,257,38*48
$GLGSV,3,1,10,80,64,304,52,88,10,047,43,73,11,328,41,65,11,053,39*6E
$GLGSV,3,2,10,83,19,232,36,79,51,171,52,82,61,248,52,81,62,030,52*67
$GLGSV,3,3,10,78,03,156,,72,07,359,37*63
$GAGSV,3,1,09,27,71,145,49,34,21,044,40,30,19,132,40,13,45,200,47*60
$GAGSV,3,2,09,21,51,303,46,15,69,081,48,04,02,324,37,23,02,309,*65
$GAGSV,3,3,09,06,01,347,35*50
$GBGSV,6,1,22,11,77,047,49,05,21,129,37,60,10,109,40,27,17,233,*60
$GBGSV,6,2,22,25,33,178,47,07,14,095,,28,14,244,41,37,26,312,44*63
$GBGSV,6,3,22,12,22,060,40,38,30,047,44,13,42,071,45,08,40,060,42*6B
$GBGSV,6,4,22,31,42,059,,34,51,061,48,23,59,252,50,43,77,256,51*66
$GBGSV,6,5,22,10,00,096,26,22,08,036,40,21,05,038,,50,05,106,*61
$GBGSV,6,6,22,56,05,080,,02,06,107,33*67
$GPGGA,171532.00,,,,,0,00,,,M,,M,,*4B
$PTNL,GGK,171532.00,010125,4742.1603072,N,01618.1001362,E,1,39,0.7,EHT751.4580,M*43
$GPGGQ,171532.00,010125,4742.1603072,N,01618.1001362,E,1,39,0.985,708.2515,M*38
$GPGFA,171532.00,4.162,6.724,0.438,0.325,340.432,0.820,,VVV*05
$GPLLK,171532.00,010125,,M,,M,1,39,0.8,,M*0A
$GNGMP,171532.00,,,,,DAAA,39,0.4,,,,*5B
$GPGMP,171532.00,,,,,,10,,,,2.9,136*70
$GLGMP,171532.00,,,,,,09,,,,,*75
$GAGMP,171532.00,,,,,,06,,,,,*77
$GBGMP,171532.00,,,,,,14,,,,,*77
$PSSN,SNC,[0,321350000,2347]*42
$GPZDA,171537.00,01,01,2025,,*65
$GPDTM,W84,,00.0000000,N,00.0000000,E,00.0000000,W84*5F
$PSSN,TFM,171537.00,,,,*69
$GPRMC,171537.00,A,4742.1603053,N,01618.1001339,E,0.0,,010125,5.1,E,D*1B
$GPGLL,4742.1603053,N,01618.1001339,E,171537.00,A,D*6A
$GPGGA,171537.00,4742.1603053,N,01618.1001339,E,2,39,0.4,708.2451,M,43.2066,M,1.7,0136*43
$GNGNS,171537.00,4742.1603053,N,01618.1001339,E,DAAA,39,0.4,708.2451,43.2066,,*5D
$GPGNS,171537.00,,,,,,10,,,,1.7,136*78
$GLGNS,171537.00,,,,,,09,,,,,*70
$GAGNS,171537.00,,,,,,06,,,,,*72
$GBGNS,171537.00,,,,,,14,,,,,*72
$GPLLQ,171537.00,010125,,M,,M,1,39,0.973,,M*10
$GPVTG,,T,,M,0.01,N,0.01,K,D*26
$GPHDT,,T*1B
$GPTHS,,V*0E
$GPROT,,V*08
$PSSN,HRP,171537.00,010125,,,,,,,00,0,,*67
$PTNL,AVR,171537.00,,Yaw,,Tilt,,,,0,,00*31
$GPGSA,A,3,05,16,18,20,23,25,26,28,29,31,,,0.7,0.4,0.6*3F
$GPGSA,A,3,65,72,73,79,80,81,82,83,88,,,,0.7,0.4,0.6*3B
$GPGSA,A,3,13,15,21,27,30,34,,,,,,,0.7,0.4,0.6*33
$GPGSA,A,3,05,08,11,12,13,22,23,25,28,34,37,38,0.7,0.4,0.6*3F
$GPGSA,A,3,43,60,,,,,,,,,,,0.7,0.4,0.6*36
$GPGST,171537.00,1.641,0.433,0.321,340.676,0.423,0.335,0.810*5E
$GPGBS,171537.00,2.174,1.800,5.007,72,0.0001,7.518,6.636*58
$GPGRS,171537.00,1,-0.5,0.2,0.0,-0.2,0.3,-0.2,0.3,-0.4,0.2,-0.2,,*66
$GPGRS,171537.00,1,-1.9,7.5,3.1,-0.3,-2.1,0.4,-0.8,-0.6,-1.8,,,*6D
$GPGRS,171537.00,1,0.4,0.6,0.0,0.4,-0.9,-0.5,,,,,,*42
$GPGRS,171537.00,1,0.5,0.8,-0.1,1.2,-0.1,-1.2,-0.2,-0.3,0.2,-0.1,-0.6,-0.5*44
$GPGRS,171537.00,1,0.6,-0.7,,,,,,,,,,*64
$GPGSV,5,1,20,18,70,176,49,05,28,061,44,23,10,157,39,25,22,139,41*74
$GPGSV,5,2,20,28,25,217,43,16,30,306,43,31,37,245,46,29,52,070,48*74
$GPGSV,5,3,20,26,60,290,49,27,04,269,37,20,10,033,37,36,35,170,45*72
$GPGSV,5,4,20,58,13,245,37,40,23,133,36,34,31,208,43,49,34,195,44*7C
$GPGSV,5,5,20,57,08,111,38,41,07,108,34,61,03,257,38*48
$GLGSV,3,1,10,80,64,304,52,88,10,047,43,73,11,328,43,65,12,052,39*6E
$GLGSV,3,2,10,83,19,232,36,79,51,171,52,82,61,248,52,81,62,030,52*67
$GLGSV,3,3,10,78,03,156,,72,07,359,37*63
$GAGSV,3,1,09,27,71,145,49,34,21,044,40,30,19,132,39,13,46,200,47*6D
$GAGSV,3,2,09,21,51,303,46,15,69,081,48,04,02,324,36,23,02,309,*64
$GAGSV,3,3,09,06,01,347,35*50
$GBGSV,6,1,22,11,77,047,49,05,21,129,38,60,10,109,41,27,17,234,*69
$GBGSV,6,2,22,25,33,178,47,07,14,095,,28,14,244,42,37,26,312,43*67
$GBGSV,6,3,22,12,22,060,41,38,30,047,44,13,42,071,45,08,40,060,42*6A
$GBGSV,6,4,22,31,42,058,,34,51,061,49,23,59,252,51,43,77,256,51*67
$GBGSV,6,5,22,10,00,096,27,22,08,036,40,21,05,038,,50,05,106,*60
$GBGSV,6,6,22,56,05,080,,02,06,107,34*60
$GPGGA,171537.00,,,,,0,00,,,M,,M,,*4E
$PTNL,GGK,171537.00,010125,4742.1603053,N,01618.1001339,E,1,39,0.7,EHT751.4516,M*44
$GPGGQ,171537.00,010125,4742.1603053,N,01618.1001339,E,1,39,0.973,708.2451,M*38
$GPGFA,171537.00,4.122,6.641,0.433,0.321,340.676,0.810,,VVV*08
$GPLLK,171537.00,010125,,M,,M,1,39,0.8,,M*0F
$GNGMP,171537.00,,,,,DAAA,39,0.4,,,,*5E
$GPGMP,171537.00,,,,,,10,,,,1.7,136*78
$GLGMP,171537.00,,,,,,09,,,,,*70
$GAGMP,171537.00,,,,,,06,,,,,*72
$GBGMP,171537.00,,,,,,14,,,,,*72
$PSSN,SNC,[0,321355000,2347]*47
$GPZDA,171542.00,01,01,2025,,*67
$GPDTM,W84,,00.0000000,N,00.0000000,E,00.0000000,W84*5F
$PSSN,TFM,171542.00,,,,*6B
$GPRMC,171542.00,A,4742.1603002,N,01618.1001400,E,0.0,,010125,5.1,E,D*10
$GPGLL,4742.1603002,N,01618.1001400,E,171542.00,A,D*61
$GPGGA,171542.00,4742.1603002,N,01618.1001400,E,2,39,0.4,708.2414,M,43.2066,M,2.2,0136*4F
$GNGNS,171542.00,4742.1603002,N,01618.1001400,E,DAAA,39,0.4,708.2414,43.2066,,*57
$GPGNS,171542.00,,,,,,10,,,,2.2,136*7C
$GLGNS,171542.00,,,,,,09,,,,,*72
$GAGNS,171542.00,,,,,,06,,,,,*70
$GBGNS,171542.00,,,,,,14,,,,,*70
$GPLLQ,171542.00,010125,,M,,M,1,39,0.961,,M*11
$GPVTG,,T,,M,0.01,N,0.01,K,D*26
$GPHDT,,T*1B
$GPTHS,,V*0E
$GPROT,,V*08
$PSSN,HRP,171542.00,010125,,,,,,,00,0,,*65
$PTNL,AVR,171542.00,,Yaw,,Tilt,,,,0,,00*33
$GPGSA,A,3,05,16,18,20,23,25,26,28,29,31,,,0.7,0.4,0.6*3F
$GPGSA,A,3,65,72,73,79,80,81,82,83,88,,,,0.7,0.4,0.6*3B
$GPGSA,A,3,13,15,21,27,30,34,,,,,,,0.7,0.4,0.6*33
$GPGSA,A,3,05,08,11,12,13,22,23,25,28,34,37,38,0.7,0.4,0.6*3F
$GPGSA,A,3,43,60,,,,,,,,,,,0.7,0.4,0.6*36
$GPGST,171542.00,1.611,0.427,0.323,342.217,0.418,0.334,0.798*59
$GPGBS,171542.00,2.221,1.789,5.064,72,0.0001,6.994,6.632*5F
$GPGRS,171542.00,1,0.0,0.4,-0.1,-0.0,-0.1,-0.2,0.3,-0.3,-0.1,-0.2,,*62
$GPGRS,171542.00,1,-2.2,7.0,3.0,-0.5,-2.2,0.7,-0.9,-1.9,-1.8,,,*6A
$GPGRS,171542.00,1,0.4,0.5,0.1,0.5,-0.8,-0.4,,,,,,*43
$GPGRS,171542.00,1,0.9,0.5,-0.4,1.1,-0.1,-0.7,-0.3,-0.3,0.8,-0.0,-0.8,-0.4*40
$GPGRS,171542.00,1,0.6,-0.6,,,,,,,,,,*67
$GPGSV,5,1,20,18,70,176,49,05,28,061,44,23,10,157,39,25,22,139,41*74
$GPGSV,5,2,20,28,25,217,43,16,30,306,43,31,37,245,47,29,52,070,48*75
$GPGSV,5,3,20,26,60,290,49,27,04,269,36,20,10,033,36,36,35,170,45*72
$GPGSV,5,4,20,58,13,245,37,40,23,133,37,34,31,208,43,49,34,195,44*7D
$GPGSV,5,5,20,57,08,111,38,41,07,108,34,61,03,257,38*48
$GLGSV,3,1,10,80,64,304,52,88,10,047,43,73,11,328,42,65,12,052,39*6F
$GLGSV,3,2,10,83,19,232,35,79,51,171,51,82,61,248,52,81,62,030,52*67
$GLGSV,3,3,10,78,03,156,,72,07,359,37*63
$GAGSV,3,1,09,27,71,145,49,34,21,044,41,30,19,132,39,13,46,200,47*6C
$GAGSV,3,2,09,21,51,303,46,15,69,081,48,04,02,324,37,23,02,309,*65
$GAGSV,3,3,09,06,01,347,35*50
$GBGSV,6,1,22,43,77,257,51,25,33,178,46,60,10,109,40,27,17,234,*69
$GBGSV,6,2,22,05,21,129,38,28,14,244,42,37,26,312,44,38,30,047,44*68
$GBGSV,6,3,22,07,14,095,,12,22,060,41,08,40,060,42,31,42,058,*65
$GBGSV,6,4,22,13,42,071,45,34,51,061,49,23,59,252,51,11,77,047,49*61
$GBGSV,6,5,22,22,08,036,40,10,00,096,26,02,06,107,34,50,05,106,*69
$GBGSV,6,6,22,56,05,080,,21,05,038,*68
$GPGGA,171542.00,,,,,0,00,,,M,,M,,*4C
$PTNL,GGK,171542.00,010125,4742.1603002,N,01618.1001400,E,1,39,0.7,EHT751.4480,M*41
$GPGGQ,171542.00,010125,4742.1603002,N,01618.1001400,E,1,39,0.961,708.2414,M*31
$GPGFA,171542.00,4.057,6.543,0.427,0.323,342.217,0.798,,VVV*01
$GPLLK,171542.00,010125,,M,,M,1,39,0.8,,M*0D
$GNGMP,171542.00,,,,,DAAA,39,0.4,,,,*5C
$GPGMP,171542.00,,,,,,10,,,,2.2,136*7C
$GLGMP,171542.00,,,,,,09,,,,,*72
$GAGMP,171542.00,,,,,,06,,,,,*70
$GBGMP,171542.00,,,,,,14,,,,,*70
$PSSN,SNC,[0,321360000,2347]*41
$GPZDA,171547.00,01,01,2025,,*62
$GPDTM,W84,,00.0000000,N,00.0000000,E,00.0000000,W84*5F
$PSSN,TFM,171547.00,,,,*6E
$GPRMC,171547.00,A,4742.1602993,N,01618.1001402,E,0.0,,010125,5.1,E,D*17
$GPGLL,4742.1602993,N,01618.1001402,E,171547.00,A,D*66
$GPGGA,171547.00,4742.1602993,N,01618.1001402,E,2,39,0.4,708.2424,M,43.2066,M,3.2,0136*4A
$GNGNS,171547.00,4742.1602993,N,01618.1001402,E,DAAA,39,0.4,708.2424,43.2066,,*53
$GPGNS,171547.00,,,,,,10,,,,3.2,136*78
$GLGNS,171547.00,,,,,,09,,,,,*77
$GAGNS,171547.00,,,,,,06,,,,,*75
$GBGNS,171547.00,,,,,,14,,,,,*75
$GPLLQ,171547.00,010125,,M,,M,1,39,0.974,,M*10
$GPVTG,,T,,M,0.00,N,0.00,K,D*26
$GPHDT,,T*1B
$GPTHS,,V*0E
$GPROT,,V*08
$PSSN,HRP,171547.00,010125,,,,,,,00,0,,*60
$PTNL,AVR,171547.00,,Yaw,,Tilt,,,,0,,00*36
$GPGSA,A,3,05,16,18,20,23,25,26,28,29,31,,,0.7,0.4,0.6*3F
$GPGSA,A,3,65,72,73,79,80,81,82,83,88,,,,0.7,0.4,0.6*3B
$GPGSA,A,3,13,15,21,27,30,34,,,,,,,0.7,0.4,0.6*33
$GPGSA,A,3,05,08,11,12,13,22,23,25,28,34,37,38,0.7,0.4,0.6*3F
$GPGSA,A,3,43,60,,,,,,,,,,,0.7,0.4,0.6*36
$GPGST,171547.00,1.552,0.433,0.326,341.484,0.423,0.339,0.809*55
$GPGBS,171547.00,2.260,1.808,5.140,72,0.0001,6.605,6.637*5C
$GPGRS,171547.00,1,0.0,0.2,-0.1,-0.8,0.3,0.0,0.1,0.2,-0.2,-0.1,,*47
$GPGRS,171547.00,1,-1.5,6.6,2.9,-0.4,-2.3,0.5,-1.0,-2.0,-2.0,,,*6F
$GPGRS,171547.00,1,0.5,0.5,0.1,0.5,-0.6,-0.5,,,,,,*48
$GPGRS,171547.00,1,1.4,0.9,-0.3,1.1,-0.3,-0.1,-0.2,-0.2,0.3,0.2,-0.7,-0.6*6F
$GPGRS,171547.00,1,0.7,-0.7,,,,,,,,,,*62
$GPGSV,5,1,20,18,70,176,49,05,28,061,43,23,10,157,39,25,22,139,41*73
$GPGSV,5,2,20,28,25,217,42,16,30,306,43,31,37,245,46,29,52,070,48*75
$GPGSV,5,3,20,26,60,290,49,27,04,269,37,20,10,033,36,36,35,170,45*73
$GPGSV,5,4,20,58,13,245,37,40,23,133,36,34,31,208,43,49,34,195,44*7C
$GPGSV,5,5,20,57,08,111,38,41,07,108,34,61,03,257,38*48
$GLGSV,3,1,10,80,64,304,52,88,10,047,43,73,11,328,43,65,12,052,40*60
$GLGSV,3,2,10,83,19,232,36,79,51,171,52,82,61,248,51,81,62,030,52*64
$GLGSV,3,3,10,78,02,156,,72,07,359,37*62
$GAGSV,3,1,09,27,71,145,49,34,21,044,41,30,19,132,40,13,46,200,47*62
$GAGSV,3,2,09,21,51,303,46,15,69,081,48,04,02,324,37,23,02,309,*65
$GAGSV,3,3,09,06,01,347,36*53
$GBGSV,6,1,22,43,77,257,51,25,33,178,46,60,10,109,41,27,17,234,*68
$GBGSV,6,2,22,05,21,129,38,28,14,244,42,37,26,312,44,38,30,047,44*68
$GBGSV,6,3,22,07,14,095,,12,22,060,40,08,40,060,42,31,42,058,*64
$GBGSV,6,4,22,13,42,071,45,34,51,061,49,23,59,252,51,11,77,047,49*61
$GBGSV,6,5,22,22,08,036,40,10,00,096,26,02,06,107,33,50,05,106,*6E
$GBGSV,6,6,22,56,05,080,,21,05,038,*68
$GPGGA,171547.00,,,,,0,00,,,M,,M,,*49
$PTNL,GGK,171547.00,010125,4742.1602993,N,01618.1001402,E,1,39,0.7,EHT751.4490,M*47
$GPGGQ,171547.00,010125,4742.1602993,N,01618.1001402,E,1,39,0.974,708.2424,M*31
$GPGFA,171547.00,4.114,6.637,0.433,0.326,341.484,0.809,,VVV*0A
$GPLLK,171547.00,010125,,M,,M,1,39,0.8,,M*08
$GNGMP,171547.00,,,,,DAAA,39,0.4,,,,*59
$GPGMP,171547.00,,,,,,10,,,,3.2,136*78
$GLGMP,171547.00,,,,,,09,,,,,*77
$GAGMP,171547.00,,,,,,06,,,,,*75
$GBGMP,171547.00,,,,,,14,,,,,*75
$PSSN,SNC,[0,321365000,2347]*44
$GPZDA,171552.00,01,01,2025,,*66
$GPDTM,W84,,00.0000000,N,00.0000000,E,00.0000000,W84*5F
$PSSN,TFM,171552.00,,,,*6A
$GPRMC,171552.00,A,4742.1602992,N,01618.1001429,E,0.0,,010125,5.1,E,D*1B
$GPGLL,4742.1602992,N,01618.1001429,E,171552.00,A,D*6A
$GPGGA,171552.00,4742.1602992,N,01618.1001429,E,2,39,0.4,708.2416,M,43.2066,M,2.9,0136*4D
$GNGNS,171552.00,4742.1602992,N,01618.1001429,E,DAAA,39,0.4,708.2416,43.2066,,*5E
$GPGNS,171552.00,,,,,,10,,,,2.9,136*76
$GLGNS,171552.00,,,,,,09,,,,,*73
$GAGNS,171552.00,,,,,,06,,,,,*71
$GBGNS,171552.00,,,,,,14,,,,,*71
$GPLLQ,171552.00,010125,,M,,M,1,39,0.984,,M*1B
$GPVTG,,T,,M,0.00,N,0.00,K,D*26
$GPHDT,,T*1B
$GPTHS,,V*0E
$GPROT,,V*08
$PSSN,HRP,171552.00,010125,,,,,,,00,0,,*64
$PTNL,AVR,171552.00,,Yaw,,Tilt,,,,0,,00*32
$GPGSA,A,3,05,16,18,20,23,25,26,28,29,31,,,0.7,0.4,0.6*3F
$GPGSA,A,3,65,72,73,79,80,81,82,83,88,,,,0.7,0.4,0.6*3B
$GPGSA,A,3,13,15,21,27,30,34,,,,,,,0.7,0.4,0.6*33
$GPGSA,A,3,05,08,11,12,13,22,23,25,28,34,37,38,0.7,0.4,0.6*3F
$GPGSA,A,3,43,60,,,,,,,,,,,0.7,0.4,0.6*36
$GPGST,171552.00,1.523,0.438,0.326,340.338,0.427,0.340,0.819*56
$GPGBS,171552.00,2.294,1.814,5.136,72,0.0001,6.473,6.634*5F
$GPGRS,171552.00,1,0.1,-0.0,0.2,-0.6,0.1,0.0,0.2,0.2,-0.1,-0.2,,*4C
$GPGRS,171552.00,1,-0.7,6.5,2.8,-0.4,-2.3,0.5,-1.2,-2.3,-1.6,,,*6E
$GPGRS,171552.00,1,0.5,0.4,-0.0,0.3,-0.6,-0.6,,,,,,*64
$GPGRS,171552.00,1,0.8,1.5,-0.2,1.3,-0.1,-0.7,-0.2,-0.4,0.3,0.4,-0.9,-0.4*60
$GPGRS,171552.00,1,0.6,-0.7,,,,,,,,,,*67
$GPGSV,5,1,20,18,70,176,49,05,28,061,43,23,10,157,40,25,22,139,41*7D
$GPGSV,5,2,20,28,25,217,43,16,30,306,43,31,37,245,46,29,51,070,47*78
$GPGSV,5,3,20,26,60,290,49,27,04,269,38,20,10,032,36,36,35,170,45*7D
$GPGSV,5,4,20,58,13,245,36,40,23,133,36,34,31,208,43,49,34,195,44*7D
$GPGSV,5,5,20,57,08,111,38,41,07,108,34,61,03,257,38*48
$GLGSV,3,1,10,80,64,304,52,88,10,047,44,73,11,328,43,65,12,052,40*67
$GLGSV,3,2,10,83,19,232,36,79,51,171,52,82,61,248,52,81,62,030,52*67
$GLGSV,3,3,10,78,02,156,,72,07,359,38*6D
$GAGSV,3,1,09,27,71,145,49,34,21,044,41,30,19,132,40,13,46,200,47*62
$GAGSV,3,2,09,21,51,303,47,15,69,080,48,04,02,324,35,23,02,309,*67
$GAGSV,3,3,09,06,01,347,36*53
$GBGSV,6,1,22,43,77,257,52,25,33,178,46,60,10,109,41,27,17,234,*6B
$GBGSV,6,2,22,05,21,129,38,28,14,244,43,37,26,312,43,38,30,047,44*6E
$GBGSV,6,3,22,07,14,095,,12,22,060,40,08,40,060,43,31,42,058,*65
$GBGSV,6,4,22,13,42,071,45,34,51,061,49,23,59,252,51,11,77,047,49*61
$GBGSV,6,5,22,22,08,036,40,10,00,096,25,02,06,107,34,50,05,106,*6A
$GBGSV,6,6,22,56,05,080,,21,05,038,*68
$GPGGA,171552.00,,,,,0,00,,,M,,M,,*4D
$PTNL,GGK,171552.00,010125,4742.1602992,N,01618.1001429,E,1,39,0.7,EHT751.4482,M*48
$GPGGQ,171552.00,010125,4742.1602992,N,01618.1001429,E,1,39,0.984,708.2416,M*33
$GPGFA,171552.00,4.169,6.713,0.438,0.326,340.338,0.819,,VVV*08
$GPLLK,171552.00,010125,,M,,M,1,39,0.8,,M*0C
$GNGMP,171552.00,,,,,DAAA,39,0.4,,,,*5D
$GPGMP,171552.00,,,,,,10,,,,2.9,136*76
$GLGMP,171552.00,,,,,,09,,,,,*73
$GAGMP,171552.00,,,,,,06,,,,,*71
$GBGMP,171552.00,,,,,,14,,,,,*71
$PSSN,SNC,[0,321370000,2347]*40
$GPZDA,171557.00,01,01,2025,,*63
$GPDTM,W84,,00.0000000,N,00.0000000,E,00.0000000,W84*5F
$PSSN,TFM,171557.00,,,,*6F
$GPRMC,171557.00,A,4742.1602997,N,01618.1001440,E,0.0,,010125,5.1,E,D*14
$GPGLL,4742.1602997,N,01618.1001440,E,171557.00,A,D*65
$GPGGA,171557.00,4742.1602997,N,01618.1001440,E,2,39,0.4,708.2397,M,43.2066,M,1.7,0136*41
$GNGNS,171557.00,4742.1602997,N,01618.1001440,E,DAAA,39,0.4,708.2397,43.2066,,*5F
$GPGNS,171557.00,,,,,,10,,,,1.7,136*7E
$GLGNS,171557.00,,,,,,09,,,,,*76
$GAGNS,171557.00,,,,,,06,,,,,*74
$GBGNS,171557.00,,,,,,14,,,,,*74
$GPLLQ,171557.00,010125,,M,,M,1,39,0.972,,M*17
$GPVTG,,T,,M,0.00,N,0.01,K,D*27
$GPHDT,,T*1B
$GPTHS,,V*0E
$GPROT,,V*08
$PSSN,HRP,171557.00,010125,,,,,,,00,0,,*61
$PTNL,AVR,171557.00,,Yaw,,Tilt,,,,0,,00*37
$GPGSA,A,3,05,16,18,20,23,25,26,28,29,31,,,0.7,0.4,0.6*3F
$GPGSA,A,3,65,72,73,79,80,81,82,83,88,,,,0.7,0.4,0.6*3B
$GPGSA,A,3,13,15,21,27,30,34,,,,,,,0.7,0.4,0.6*33
$GPGSA,A,3,05,08,11,12,13,22,23,25,28,34,37,38,0.7,0.4,0.6*3F
$GPGSA,A,3,43,60,,,,,,,,,,,0.7,0.4,0.6*36
$GPGST,171557.00,1.634,0.434,0.321,340.555,0.423,0.335,0.808*56
$GPGBS,171557.00,2.181,1.805,5.012,72,0.0001,7.718,6.633*52
$GPGRS,171557.00,1,0.3,-0.2,-0.0,0.3,0.2,-0.1,0.2,0.4,-0.2,-0.1,,*67
$GPGRS,171557.00,1,-0.7,7.7,2.5,-0.3,-2.0,0.4,-0.8,-2.1,-1.4,,,*6B
$GPGRS,171557.00,1,0.5,0.4,0.0,0.2,-0.6,-0.4,,,,,,*4F
$GPGRS,171557.00,1,0.9,1.4,-0.2,0.6,-0.2,-1.4,-0.2,-0.5,-0.1,0.3,-0.3,-0.4*43
$GPGRS,171557.00,1,0.4,-0.7,,,,,,,,,,*60
$GPGSV,5,1,20,18,70,176,49,05,28,061,44,23,10,157,40,25,22,139,41*7A
$GPGSV,5,2,20,28,25,217,44,16,30,306,43,31,37,245,46,29,51,070,47*7F
$GPGSV,5,3,20,26,60,290,49,27,04,269,38,20,10,032,36,36,35,170,45*7D
$GPGSV,5,4,20,58,13,245,36,40,23,133,36,34,31,208,43,49,34,195,44*7D
$GPGSV,5,5,20,57,08,111,38,41,07,108,34,61,03,257,38*48
$GLGSV,3,1,10,80,64,304,53,65,12,052,38,73,11,328,43,83,19,232,36*6E
$GLGSV,3,2,10,79,51,171,52,82,61,248,52,81,62,030,52,72,07,359,37*6B
$GLGSV,3,3,10,78,02,156,,88,10,048,44*66
$GAGSV,3,1,09,27,71,145,49,34,21,044,41,30,19,132,40,13,46,200,47*62
$GAGSV,3,2,09,21,51,303,47,15,69,080,48,04,02,324,37,23,02,309,*65
$GAGSV,3,3,09,06,01,347,35*50
$GBGSV,6,1,22,43,77,257,52,25,33,178,47,60,10,109,41,27,17,234,*6A
$GBGSV,6,2,22,05,21,129,38,28,14,244,42,37,26,312,44,38,30,047,44*68
$GBGSV,6,3,22,07,14,095,,12,22,060,40,08,40,060,43,31,42,058,*65
$GBGSV,6,4,22,13,42,071,45,34,51,061,49,23,59,252,51,11,77,047,49*61
$GBGSV,6,5,22,22,08,036,40,10,00,096,26,02,06,107,34,50,05,106,*69
$GBGSV,6,6,22,56,05,080,,21,05,038,*68
$GPGGA,171557.00,,,,,0,00,,,M,,M,,*48
$PTNL,GGK,171557.00,010125,4742.1602997,N,01618.1001440,E,1,39,0.7,EHT751.4462,M*49
$GPGGQ,171557.00,010125,4742.1602997,N,01618.1001440,E,1,39,0.972,708.2397,M*3B
$GPGFA,171557.00,4.127,6.628,0.434,0.321,340.555,0.808,,VVV*08
$GPLLK,171557.00,010125,,M,,M,1,39,0.8,,M*09
$GNGMP,171557.00,,,,,DAAA,39,0.4,,,,*58
$GPGMP,171557.00,,,,,,10,,,,1.7,136*7E
$GLGMP,171557.00,,,,,,09,,,,,*76
$GAGMP,171557.00,,,,,,06,,,,,*74
$GBGMP,171557.00,,,,,,14,,,,,*74
$PSSN,SNC,[0,321375000,2347]*45
$GPZDA,171602.00,01,01,2025,,*60
$GPDTM,W84,,00.0000000,N,00.0000000,E,00.0000000,W84*5F
$PSSN,TFM,171602.00,,,,*6C
$GPRMC,171602.00,A,4742.1602990,N,01618.1001440,E,0.0,,010125,5.1,E,D*10
$GPGLL,4742.1602990,N,01618.1001440,E,171602.00,A,D*61
$GPGGA,171602.00,4742.1602990,N,01618.1001440,E,2,39,0.4,708.2448,M,43.2066,M,2.2,0136*46
$GNGNS,171602.00,4742.1602990,N,01618.1001440,E,DAAA,39,0.4,708.2448,43.2066,,*5E
$GPGNS,171602.00,,,,,,10,,,,2.2,136*7B
$GLGNS,171602.00,,,,,,09,,,,,*75
$GAGNS,171602.00,,,,,,06,,,,,*77
$GBGNS,171602.00,,,,,,14,,,,,*77
$GPLLQ,171602.00,010125,,M,,M,1,39,0.959,,M*1D
$GPVTG,,T,,M,0.00,N,0.01,K,D*27
$GPHDT,,T*1B
$GPTHS,,V*0E
$GPROT,,V*08
$PSSN,HRP,171602.00,010125,,,,,,,00,0,,*62
$PTNL,AVR,171602.00,,Yaw,,Tilt,,,,0,,00*34
$GPGSA,A,3,05,16,18,20,23,25,26,28,29,31,,,0.7,0.4,0.6*3F
$GPGSA,A,3,65,72,73,79,80,81,82,83,88,,,,0.7,0.4,0.6*3B
$GPGSA,A,3,13,15,21,27,30,34,,,,,,,0.7,0.4,0.6*33
$GPGSA,A,3,05,08,11,12,13,22,23,25,28,34,37,38,0.7,0.4,0.6*3F
$GPGSA,A,3,43,60,,,,,,,,,,,0.7,0.4,0.6*36
$GPGST,171602.00,1.446,0.427,0.322,341.902,0.418,0.334,0.796*5D
$GPGBS,171602.00,2.222,1.794,5.068,72,0.0001,6.561,6.637*58
$GPGRS,171602.00,1,0.3,0.2,-0.0,-0.1,0.0,-0.2,-0.2,0.4,-0.0,0.0,,*64
$GPGRS,171602.00,1,-1.6,6.6,2.2,-0.1,-2.2,0.1,-0.9,-0.5,-1.3,,,*6A
$GPGRS,171602.00,1,0.4,0.4,-0.1,0.0,-0.6,-0.6,,,,,,*61
$GPGRS,171602.00,1,0.9,1.4,-0.3,0.2,-0.4,-1.6,-0.3,-0.6,-0.2,0.0,-0.7,-0.5*46
$GPGRS,171602.00,1,0.4,-0.8,,,,,,,,,,*6C
$GPGSV,5,1,20,18,70,176,49,05,28,061,44,23,10,157,40,25,22,139,41*7A
$GPGSV,5,2,20,28,25,217,43,16,30,306,43,31,37,245,46,29,51,070,47*78
$GPGSV,5,3,20,26,60,290,49,27,04,269,37,20,10,032,36,36,35,170,45*72
$GPGSV,5,4,20,58,13,245,37,40,23,133,37,34,31,208,43,49,34,195,44*7D
$GPGSV,5,5,20,57,08,111,38,41,07,108,34,61,03,257,38*48
$GLGSV,3,1,10,80,64,304,53,65,12,052,38,73,11,328,43,83,19,232,36*6E
$GLGSV,3,2,10,79,51,171,52,82,61,248,52,81,62,030,52,72,07,359,37*6B
$GLGSV,3,3,10,78,02,156,,88,10,048,44*66
$GAGSV,3,1,09,27,71,145,49,34,21,044,40,30,19,132,40,13,46,200,47*63
$GAGSV,3,2,09,21,51,303,46,15,69,080,48,04,02,323,37,23,02,309,*63
$GAGSV,3,3,09,06,01,347,36*53
$GBGSV,6,1,22,43,77,257,52,25,32,178,47,60,10,109,41,27,17,234,*6B
$GBGSV,6,2,22,05,21,129,38,28,14,244,42,37,26,312,43,38,30,047,44*6F
$GBGSV,6,3,22,07,14,095,,12,22,060,41,08,40,060,43,31,42,058,*64
$GBGSV,6,4,22,13,42,071,45,34,51,061,49,23,59,252,51,11,77,047,49*61
$GBGSV,6,5,22,22,08,036,40,10,00,096,26,02,06,107,34,50,05,106,*69
$GBGSV,6,6,22,56,05,080,,21,05,038,*68
$GPGGA,171602.00,,,,,0,00,,,M,,M,,*4B
$PTNL,GGK,171602.00,010125,4742.1602990,N,01618.1001440,E,1,39,0.7,EHT751.4514,M*4D
$GPGGQ,171602.00,010125,4742.1602990,N,01618.1001440,E,1,39,0.959,708.2448,M*33
$GPGFA,171602.00,4.058,6.526,0.427,0.322,341.902,0.796,,VVV*09
$GPLLK,171602.00,010125,,M,,M,1,39,0.8,,M*0A
$GNGMP,171602.00,,,,,DAAA,39,0.4,,,,*5B
$GPGMP,171602.00,,,,,,10,,,,2.2,136*7B
$GLGMP,171602.00,,,,,,09,,,,,*75
$GAGMP,171602.00,,,,,,06,,,,,*77
$GBGMP,171602.00,,,,,,14,,,,,*77
$PSSN,SNC,[0,321380000,2347]*4F
$GPZDA,171607.00,01,01,2025,,*65
$GPDTM,W84,,00.0000000,N,00.0000000,E,00.0000000,W84*5F
$PSSN,TFM,171607.00,,,,*69
$GPRMC,171607.00,A,4742.1602979,N,01618.1001462,E,0.0,,010125,5.1,E,D*12
$GPGLL,4742.1602979,N,01618.1001462,E,171607.00,A,D*63
$GPGGA,171607.00,4742.1602979,N,01618.1001462,E,2,39,0.4,708.2441,M,43.2066,M,3.2,0136*4C
$GNGNS,171607.00,4742.1602979,N,01618.1001462,E,DAAA,39,0.4,708.2441,43.2066,,*55
$GPGNS,171607.00,,,,,,10,,,,3.2,136*7F
$GLGNS,171607.00,,,,,,09,,,,,*70
$GAGNS,171607.00,,,,,,06,,,,,*72
$GBGNS,171607.00,,,,,,14,,,,,*72
$GPLLQ,171607.00,010125,,M,,M,1,39,0.973,,M*10
$GPVTG,,T,,M,0.01,N,0.01,K,D*26
$GPHDT,,T*1B
$GPTHS,,V*0E
$GPROT,,V*08
$PSSN,HRP,171607.00,010125,,,,,,,00,0,,*67
$PTNL,AVR,171607.00,,Yaw,,Tilt,,,,0,,00*31
$GPGSA,A,3,05,16,18,20,23,25,26,28,29,31,,,0.7,0.4,0.6*3F
$GPGSA,A,3,65,72,73,79,80,81,82,83,88,,,,0.7,0.4,0.6*3B
$GPGSA,A,3,13,15,21,27,30,34,,,,,,,0.7,0.4,0.6*33
$GPGSA,A,3,05,08,11,12,13,22,23,25,28,34,37,38,0.7,0.4,0.6*3F
$GPGSA,A,3,43,60,,,,,,,,,,,0.7,0.4,0.6*36
$GPGST,171607.00,1.518,0.433,0.327,341.330,0.424,0.339,0.808*53
$GPGBS,171607.00,2.262,1.813,5.142,72,0.0001,6.634,6.634*50
$GPGRS,171607.00,1,-0.2,0.3,-0.1,-0.7,-0.1,0.2,0.1,-0.5,-0.0,0.3,,*4B
$GPGRS,171607.00,1,-2.4,6.6,1.8,-0.5,-2.4,0.3,-1.1,-0.5,-1.8,,,*65
$GPGRS,171607.00,1,0.1,0.4,0.1,-0.0,-0.8,-0.8,,,,,,*61
$GPGRS,171607.00,1,0.4,1.1,-0.6,0.6,-0.5,-1.3,-0.4,-0.5,0.2,-0.2,-1.2,-0.6*4F
$GPGRS,171607.00,1,0.4,-1.0,,,,,,,,,,*60
$GPGSV,5,1,20,18,70,176,49,05,28,061,44,23,10,157,40,25,22,139,41*7A
$GPGSV,5,2,20,28,25,217,43,16,30,306,43,31,37,245,47,29,51,070,47*79
$GPGSV,5,3,20,26,60,290,49,27,04,269,37,20,10,032,36,36,35,170,45*72
$GPGSV,5,4,20,58,13,245,37,40,23,133,37,34,31,208,43,49,34,195,44*7D
$GPGSV,5,5,20,57,08,111,38,41,07,108,34,61,03,257,38*48
$GLGSV,3,1,10,80,64,304,53,65,12,052,40,73,11,328,44,83,19,232,36*66
$GLGSV,3,2,10,79,51,171,51,82,61,248,52,81,62,031,52,72,07,359,38*66
$GLGSV,3,3,10,78,02,156,,88,10,048,43*61
$GAGSV,3,1,09,27,71,145,49,34,21,044,40,30,19,132,40,13,46,200,47*63
$GAGSV,3,2,09,21,51,303,46,15,69,080,48,04,02,323,36,23,02,309,*62
$GAGSV,3,3,09,06,01,347,36*53
$GBGSV,6,1,22,43,77,257,52,25,32,178,47,60,10,109,41,27,17,234,*6B
$GBGSV,6,2,22,05,21,129,38,28,14,244,42,37,26,312,44,38,30,047,44*68
$GBGSV,6,3,22,07,14,095,,12,22,060,41,08,40,060,43,31,42,058,*64
$GBGSV,6,4,22,13,42,071,45,34,51,061,49,23,59,252,51,11,77,047,49*61
$GBGSV,6,5,22,22,08,036,40,10,00,096,27,02,06,107,34,50,06,106,*6B
$GBGSV,6,6,22,56,05,080,,21,05,038,*68
$GPGGA,171607.00,,,,,0,00,,,M,,M,,*4E
$PTNL,GGK,171607.00,010125,4742.1602979,N,01618.1001462,E,1,39,0.7,EHT751.4506,M*4C
$GPGGQ,171607.00,010125,4742.1602979,N,01618.1001462,E,1,39,0.973,708.2441,M*30
$GPGFA,171607.00,4.119,6.622,0.433,0.327,341.330,0.808,,VVV*0C
$GPLLK,171607.00,010125,,M,,M,1,39,0.8,,M*0F
$GNGMP,171607.00,,,,,DAAA,39,0.4,,,,*5E
$GPGMP,171607.00,,,,,,10,,,,3.2,136*7F
$GLGMP,171607.00,,,,,,09,,,,,*70
$GAGMP,171607.00,,,,,,06,,,,,*72
$GBGMP,171607.00,,,,,,14,,,,,*72
$PSSN,SNC,[0,321385000,2347]*4A
$GPZDA,171612.00,01,01,2025,,*61
$GPDTM,W84,,00.0000000,N,00.0000000,E,00.0000000,W84*5F
$PSSN,TFM,171612.00,,,,*6D
$GPRMC,171612.00,A,4742.1602977,N,01618.1001462,E,0.0,,010125,5.1,E,D*18
$GPGLL,4742.1602977,N,01618.1001462,E,171612.00,A,D*69
$GPGGA,171612.00,4742.1602977,N,01618.1001462,E,2,39,0.4,708.2436,M,43.2066,M,2.9,0136*4C
$GNGNS,171612.00,4742.1602977,N,01618.1001462,E,DAAA,39,0.4,708.2436,43.2066,,*5F
$GPGNS,171612.00,,,,,,10,,,,2.9,136*71
$GLGNS,171612.00,,,,,,09,,,,,*74
$GAGNS,171612.00,,,,,,06,,,,,*76
$GBGNS,171612.00,,,,,,14,,,,,*76
$GPLLQ,171612.00,010125,,M,,M,1,39,0.983,,M*1B
$GPVTG,,T,,M,0.01,N,0.01,K,D*26
$GPHDT,,T*1B
$GPTHS,,V*0E
$GPROT,,V*08
$PSSN,HRP,171612.00,010125,,,,,,,00,0,,*63
$PTNL,AVR,171612.00,,Yaw,,Tilt,,,,0,,00*35
$GPGSA,A,3,05,16,18,20,23,25,26,28,29,31,,,0.7,0.4,0.6*3F
$GPGSA,A,3,65,72,73,79,80,81,82,83,88,,,,0.7,0.4,0.6*3B
$GPGSA,A,3,13,15,21,27,30,34,,,,,,,0.7,0.4,0.6*33
$GPGSA,A,3,05,08,11,12,13,22,23,25,28,34,37,38,0.7,0.4,0.6*3F
$GPGSA,A,3,43,60,,,,,,,,,,,0.7,0.4,0.6*36
$GPGST,171612.00,1.599,0.439,0.326,340.233,0.428,0.341,0.817*5B
$GPGBS,171612.00,2.304,1.821,5.141,72,0.0001,6.760,6.635*56
$GPGRS,171612.00,1,-0.2,0.1,-0.1,0.0,-0.3,0.4,0.1,-0.2,0.0,-0.2,,*65
$GPGRS,171612.00,1,-1.3,6.8,3.2,-0.2,-2.5,0.4,-1.4,-1.6,-2.5,,,*6B
$GPGRS,171612.00,1,0.2,0.5,0.1,0.2,-0.3,-0.9,,,,,,*42
$GPGRS,171612.00,1,0.7,1.1,-0.3,1.4,-0.2,-0.6,-0.2,-0.4,-0.2,0.1,-0.5,-0.5*4C
$GPGRS,171612.00,1,0.6,-0.8,,,,,,,,,,*6F
$GPGSV,5,1,20,18,70,176,49,05,28,061,44,23,10,157,40,25,22,139,41*7A
$GPGSV,5,2,20,28,25,217,43,16,30,306,43,31,37,245,47,29,51,070,48*76
$GPGSV,5,3,20,26,60,290,49,27,04,269,36,20,10,032,37,36,35,170,45*72
$GPGSV,5,4,20,58,13,245,37,40,23,133,36,34,31,208,43,49,34,195,44*7C
$GPGSV,5,5,20,57,08,111,38,41,07,108,34,61,03,257,38*48
$GLGSV,3,1,10,80,64,304,53,65,12,052,40,73,11,328,44,83,19,232,35*65
$GLGSV,3,2,10,79,51,171,52,82,61,248,52,81,62,031,52,72,07,359,38*65
$GLGSV,3,3,10,78,02,156,,88,10,048,42*60
$GAGSV,3,1,09,27,71,145,49,34,21,044,40,30,19,132,41,13,46,200,47*62
$GAGSV,3,2,09,21,51,303,46,15,69,080,48,04,02,323,35,23,02,309,*61
$GAGSV,3,3,09,06,01,347,36*53
$GBGSV,6,1,22,43,77,257,51,25,32,178,46,60,10,109,41,27,17,234,*69
$GBGSV,6,2,22,05,21,129,38,28,14,244,42,37,26,312,43,38,30,047,44*6F
$GBGSV,6,3,22,07,14,095,,12,22,060,41,08,40,060,42,31,42,058,*65
$GBGSV,6,4,22,13,42,071,45,34,50,061,49,23,59,252,51,11,77,047,49*60
$GBGSV,6,5,22,22,08,036,39,10,00,097,26,02,06,107,33,50,06,106,*62
$GBGSV,6,6,22,56,05,080,,21,05,038,*68
$GPGGA,171612.00,,,,,0,00,,,M,,M,,*4A
$PTNL,GGK,171612.00,010125,4742.1602977,N,01618.1001462,E,1,39,0.7,EHT751.4501,M*41
$GPGGQ,171612.00,010125,4742.1602977,N,01618.1001462,E,1,39,0.983,708.2436,M*35
$GPGFA,171612.00,4.174,6.699,0.439,0.326,340.233,0.817,,VVV*05
$GPLLK,171612.00,010125,,M,,M,1,39,0.8,,M*0B
$GNGMP,171612.00,,,,,DAAA,39,0.4,,,,*5A
$GPGMP,171612.00,,,,,,10,,,,2.9,136*71
$GLGMP,171612.00,,,,,,09,,,,,*74
$GAGMP,171612.00,,,,,,06,,,,,*76
$GBGMP,171612.00,,,,,,14,,,,,*76
$PSSN,SNC,[0,321390000,2347]*4E
$GPZDA,171617.00,01,01,2025,,*64
$GPDTM,W84,,00.0000000,N,00.0000000,E,00.0000000,W84*5F
$PSSN,TFM,171617.00,,,,*68
$GPRMC,171617.00,A,4742.1602967,N,01618.1001454,E,0.0,,010125,5.1,E,D*19
$GPGLL,4742.1602967,N,01618.1001454,E,171617.00,A,D*68
$GPGGA,171617.00,4742.1602967,N,01618.1001454,E,2,39,0.4,708.2497,M,43.2066,M,1.7,0136*4B
$GNGNS,171617.00,4742.1602967,N,01618.1001454,E,DAAA,39,0.4,708.2497,43.2066,,*55
$GPGNS,171617.00,,,,,,10,,,,1.7,136*79
$GLGNS,171617.00,,,,,,09,,,,,*71
$GAGNS,171617.00,,,,,,06,,,,,*73
$GBGNS,171617.00,,,,,,14,,,,,*73
$GPLLQ,171617.00,010125,,M,,M,1,39,0.971,,M*13
$GPVTG,,T,,M,0.01,N,0.02,K,D*25
$GPHDT,,T*1B
$GPTHS,,V*0E
$GPROT,,V*08
$PSSN,HRP,171617.00,010125,,,,,,,00,0,,*66
$PTNL,AVR,171617.00,,Yaw,,Tilt,,,,0,,00*30
$GPGSA,A,3,05,16,18,20,23,25,26,28,29,31,,,0.7,0.4,0.6*3F
$GPGSA,A,3,65,72,73,79,80,81,82,83,88,,,,0.7,0.4,0.6*3B
$GPGSA,A,3,13,15,21,27,30,34,,,,,,,0.7,0.4,0.6*33
$GPGSA,A,3,05,08,11,12,13,22,23,25,28,34,37,38,0.7,0.4,0.6*3F
$GPGSA,A,3,43,60,,,,,,,,,,,0.7,0.4,0.6*36
$GPGST,171617.00,1.572,0.435,0.321,340.484,0.424,0.336,0.807*57
$GPGBS,171617.00,2.192,1.811,5.016,72,0.0001,6.673,6.636*5E
$GPGRS,171617.00,1,-0.4,0.4,-0.2,0.8,-0.2,0.1,-0.0,-0.1,0.2,-0.0,,*43
$GPGRS,171617.00,1,-0.7,6.7,3.4,0.0,-2.2,0.3,-1.1,-1.5,-2.6,,,*48
$GPGRS,171617.00,1,0.5,0.5,0.3,0.3,-0.2,-0.5,,,,,,*4E
$GPGRS,171617.00,1,0.3,0.6,-0.2,1.7,-0.6,-0.4,-0.1,-0.6,-0.3,0.2,-0.1,-0.7*4A
$GPGRS,171617.00,1,0.6,-0.7,,,,,,,,,,*65
$GPGSV,5,1,20,18,71,176,49,05,28,061,44,23,10,157,40,25,22,139,41*7B
$GPGSV,5,2,20,28,25,217,43,16,30,306,43,31,37,245,46,29,51,070,48*77
$GPGSV,5,3,20,26,60,290,49,27,04,269,36,20,10,032,37,36,35,170,45*72
$GPGSV,5,4,20,58,13,245,37,40,23,133,36,34,31,208,43,49,34,195,44*7C
$GPGSV,5,5,20,57,08,111,38,41,07,108,35,61,03,257,38*49
$GLGSV,3,1,10,80,64,303,52,65,12,052,40,73,12,328,43,83,19,232,35*67
$GLGSV,3,2,10,79,51,171,52,82,61,248,51,81,62,031,51,72,07,359,38*65
$GLGSV,3,3,10,78,02,156,,88,10,048,42*60
$GAGSV,3,1,09,27,71,145,49,34,21,044,40,30,19,132,41,13,46,200,47*62
$GAGSV,3,2,09,21,51,303,46,15,69,080,48,04,02,323,37,23,02,309,*63
$GAGSV,3,3,09,06,01,347,35*50
$GBGSV,6,1,22,43,77,257,51,25,32,178,47,60,10,109,41,27,17,234,*68
$GBGSV,6,2,22,05,21,129,38,28,14,244,42,37,26,312,44,38,30,047,44*68
$GBGSV,6,3,22,07,14,095,,12,22,060,41,08,40,060,42,31,42,058,*65
