$GPZDA,004442.00,01,01,2025,,*65
$GPDTM,W84,,00.0000000,N,00.0000000,E,00.0000000,W84*5F
$PSSN,TFM,004442.00,,,,*69
$GPRMC,004442.00,A,4742.1603505,N,01618.1002825,E,0.0,,010125,5.1,E,D*18
$GPGLL,4742.1603505,N,01618.1002825,E,004442.00,A,D*69
$GPGGA,004442.00,4742.1603505,N,01618.1002825,E,2,35,0.5,708.2577,M,43.2066,M,3.0,0136*4D
$GNGNS,004442.00,4742.1603505,N,01618.1002825,E,DAAA,35,0.5,708.2577,43.2066,,*56
$GPGNS,004442.00,,,,,,09,,,,3.0,136*75
$GLGNS,004442.00,,,,,,06,,,,,*7F
$GAGNS,004442.00,,,,,,08,,,,,*7C
$GBGNS,004442.00,,,,,,12,,,,,*74
$GPLLQ,004442.00,010125,,M,,M,1,35,0.968,,M*16
$GPVTG,,T,,M,0.00,N,0.00,K,D*26
$GPHDT,,T*1B
$GPTHS,,V*0E
$GPROT,,V*08
$PSSN,HRP,004442.00,010125,,,,,,,00,0,,*67
$PTNL,AVR,004442.00,,Yaw,,Tilt,,,,0,,00*31
$GPGSA,A,3,02,03,04,17,19,21,28,31,32,,,,0.8,0.5,0.7*39
$GPGSA,A,3,68,69,70,77,84,85,,,,,,,0.8,0.5,0.7*3F
$GPGSA,A,3,04,06,09,10,11,12,30,36,,,,,0.8,0.5,0.7*37
$GPGSA,A,3,05,06,09,16,19,20,29,30,32,35,39,60,0.8,0.5,0.7*3C
$GPGST,004442.00,1.311,0.461,0.319,26.103,0.437,0.351,0.789*6C
$GPGBS,004442.00,3.824,1.954,4.883,68,0.0001,4.677,6.284*5F
$GPGRS,004442.00,1,-0.2,0.1,-0.2,0.3,0.2,-0.3,0.1,0.2,-0.3,,,*65
$GPGRS,004442.00,1,4.7,-0.8,-0.4,-4.3,-0.6,0.8,,,,,,*4E
$GPGRS,004442.00,1,-0.0,-0.1,0.2,0.4,-0.2,-0.7,-0.4,-0.2,,,,*4C
$GPGRS,004442.00,1,1.5,0.1,0.5,0.1,-0.0,-0.0,0.4,0.2,0.4,-1.2,-0.2,-0.7*60
$GPGSV,6,1,21,01,78,130,,32,19,045,41,19,17,320,41,04,29,200,44*7B
$GPGSV,6,2,21,31,20,111,44,28,25,081,42,17,38,295,45,21,52,140,45*7F
$GPGSV,6,3,21,03,66,285,50,02,73,151,49,08,04,180,23,09,04,212,36*75
$GPGSV,6,4,21,36,35,170,45,58,13,245,37,40,24,132,35,34,31,208,42*79
$GPGSV,6,5,21,49,34,195,44,57,10,109,39,41,07,108,34,61,03,257,37*73
$GPGSV,6,6,21*7A
$GLGSV,3,1,09,69,76,026,52,85,48,321,51,70,33,230,41,68,24,041,47*6B
$GLGSV,3,2,09,84,72,155,41,78,03,061,42,83,08,147,29,77,08,007,37*6C
$GLGSV,3,3,09,76,00,326,41*5F
$GAGSV,3,1,11,11,71,121,45,19,15,042,35,12,18,124,35,09,45,187,46*6C
$GAGSV,3,2,11,10,41,123,45,04,64,089,47,06,64,155,48,36,55,307,47*63
$GAGSV,3,3,11,30,06,320,37,34,05,305,37,02,03,273,35*59
$GBGSV,5,1,17,20,80,237,52,35,26,312,44,30,27,165,45,22,26,225,*64
$GBGSV,5,2,17,05,24,128,38,06,29,069,40,39,27,053,43,09,30,084,40*63
$GBGSV,5,3,17,19,29,236,46,16,29,065,42,32,40,056,47,48,56,236,*69
$GBGSV,5,4,17,29,65,235,51,02,08,105,34,13,03,083,35,57,06,098,*64
$GBGSV,5,5,17,60,10,109,41*57
$GPGGA,004442.00,,,,,0,00,,,M,,M,,*4E
$PTNL,GGK,004442.00,010125,4742.1603505,N,01618.1002825,E,1,35,0.8,EHT751.4643,M*47
$GPGGQ,004442.00,010125,4742.1603505,N,01618.1002825,E,1,35,0.968,708.2577,M*38
$GPGFA,004442.00,4.381,6.468,0.461,0.319,26.103,0.789,,VVV*3F
$GPLLK,004442.00,010125,,M,,M,1,35,1.0,,M*0A
$GNGMP,004442.00,,,,,DAAA,35,0.5,,,,*53
$GPGMP,004442.00,,,,,,09,,,,3.0,136*75
$GLGMP,004442.00,,,,,,06,,,,,*7F
$GAGMP,004442.00,,,,,,08,,,,,*7C
$GBGMP,004442.00,,,,,,12,,,,,*74
$PSSN,SNC,[0,261900000,2347]*48
$GPZDA,004447.00,01,01,2025,,*60
$GPDTM,W84,,00.0000000,N,00.0000000,E,00.0000000,W84*5F
$PSSN,TFM,004447.00,,,,*6C
$GPRMC,004447.00,A,4742.1603490,N,01618.1002836,E,0.0,,010125,5.1,E,D*12
$GPGLL,4742.1603490,N,01618.1002836,E,004447.00,A,D*63
$GPGGA,004447.00,4742.1603490,N,01618.1002836,E,2,35,0.5,708.2608,M,43.2066,M,2.7,0136*4A
$GNGNS,004447.00,4742.1603490,N,01618.1002836,E,DAAA,35,0.5,708.2608,43.2066,,*57
$GPGNS,004447.00,,,,,,09,,,,2.7,136*76
$GLGNS,004447.00,,,,,,06,,,,,*7A
$GAGNS,004447.00,,,,,,08,,,,,*79
$GBGNS,004447.00,,,,,,12,,,,,*71
$GPLLQ,004447.00,010125,,M,,M,1,35,0.982,,M*17
$GPVTG,,T,,M,0.00,N,0.01,K,D*27
$GPHDT,,T*1B
$GPTHS,,V*0E
$GPROT,,V*08
$PSSN,HRP,004447.00,010125,,,,,,,00,0,,*62
$PTNL,AVR,004447.00,,Yaw,,Tilt,,,,0,,00*34
$GPGSA,A,3,02,03,04,17,19,21,28,31,32,,,,0.8,0.5,0.7*39
$GPGSA,A,3,68,69,70,77,84,85,,,,,,,0.8,0.5,0.7*3F
$GPGSA,A,3,04,06,09,10,11,12,30,36,,,,,0.8,0.5,0.7*37
$GPGSA,A,3,05,06,09,16,19,20,29,30,32,35,39,60,0.8,0.5,0.7*3C
$GPGST,004447.00,1.405,0.467,0.319,26.416,0.442,0.353,0.802*60
$GPGBS,004447.00,3.865,1.961,4.965,68,0.0001,4.846,6.284*5C
$GPGRS,004447.00,1,-0.2,0.1,0.0,0.1,-0.0,-0.1,-0.0,0.2,0.1,,,*63
$GPGRS,004447.00,1,4.8,-0.7,1.0,-4.8,-1.0,0.6,,,,,,*61
$GPGRS,004447.00,1,-0.1,-0.0,0.0,0.7,-0.1,-1.0,-0.6,0.0,,,,*60
$GPGRS,004447.00,1,1.1,0.6,0.5,0.0,-0.4,0.0,0.3,0.2,0.3,-0.9,-0.5,-0.7*43
$GPGSV,6,1,21,01,78,131,,32,19,045,41,19,17,320,40,04,29,200,43*7C
$GPGSV,6,2,21,31,20,111,43,28,25,081,42,17,38,295,45,21,52,140,45*78
$GPGSV,6,3,21,03,66,285,50,02,73,151,49,08,04,180,23,09,04,212,35*76
$GPGSV,6,4,21,36,35,170,45,58,13,245,37,40,24,132,36,34,31,208,42*7A
$GPGSV,6,5,21,49,34,195,44,57,10,109,39,41,07,108,34,61,03,257,37*73
$GPGSV,6,6,21*7A
$GLGSV,3,1,09,69,76,026,52,85,49,321,51,70,33,230,41,68,24,041,47*6A
$GLGSV,3,2,09,84,72,155,40,78,03,061,41,83,08,147,29,77,08,007,38*61
$GLGSV,3,3,09,76,00,326,41*5F
$GAGSV,3,1,11,11,71,121,45,19,15,042,34,12,18,124,36,09,45,187,46*6E
$GAGSV,3,2,11,10,41,123,45,04,64,089,47,06,64,155,48,36,55,307,47*63
$GAGSV,3,3,11,30,06,320,37,34,05,305,37,02,03,273,35*59
$GBGSV,5,1,17,20,80,237,52,35,26,312,44,30,27,165,45,22,26,225,*64
$GBGSV,5,2,17,05,24,128,38,06,29,069,40,39,27,053,43,09,30,084,40*63
$GBGSV,5,3,17,19,29,236,46,16,29,065,42,32,40,056,48,48,57,236,*67
$GBGSV,5,4,17,29,65,235,51,02,08,105,34,13,03,083,35,57,06,098,*64
$GBGSV,5,5,17,60,10,109,41*57
$GPGGA,004447.00,,,,,0,00,,,M,,M,,*4B
$PTNL,GGK,004447.00,010125,4742.1603490,N,01618.1002836,E,1,35,0.8,EHT751.4673,M*4E
$GPGGQ,004447.00,010125,4742.1603490,N,01618.1002836,E,1,35,0.982,708.2608,M*3D
$GPGFA,004447.00,4.439,6.578,0.467,0.319,26.416,0.802,,VVV*35
$GPLLK,004447.00,010125,,M,,M,1,35,1.0,,M*0F
$GNGMP,004447.00,,,,,DAAA,35,0.5,,,,*56
$GPGMP,004447.00,,,,,,09,,,,2.7,136*76
$GLGMP,004447.00,,,,,,06,,,,,*7A
$GAGMP,004447.00,,,,,,08,,,,,*79
$GBGMP,004447.00,,,,,,12,,,,,*71
$PSSN,SNC,[0,261905000,2347]*4D
$GPZDA,004452.00,01,01,2025,,*64
$GPDTM,W84,,00.0000000,N,00.0000000,E,00.0000000,W84*5F
$PSSN,TFM,004452.00,,,,*68
$GPRMC,004452.00,A,4742.1603496,N,01618.1002824,E,0.0,,010125,5.1,E,D*13
$GPGLL,4742.1603496,N,01618.1002824,E,004452.00,A,D*62
$GPGGA,004452.00,4742.1603496,N,01618.1002824,E,2,35,0.5,708.2627,M,43.2066,M,2.3,0136*42
$GNGNS,004452.00,4742.1603496,N,01618.1002824,E,DAAA,35,0.5,708.2627,43.2066,,*5B
$GPGNS,004452.00,,,,,,09,,,,2.3,136*76
$GLGNS,004452.00,,,,,,06,,,,,*7E
$GAGNS,004452.00,,,,,,08,,,,,*7D
$GBGNS,004452.00,,,,,,12,,,,,*75
$GPLLQ,004452.00,010125,,M,,M,1,35,0.973,,M*1D
$GPVTG,,T,,M,0.00,N,0.01,K,D*27
$GPHDT,,T*1B
$GPTHS,,V*0E
$GPROT,,V*08
$PSSN,HRP,004452.00,010125,,,,,,,00,0,,*66
$PTNL,AVR,004452.00,,Yaw,,Tilt,,,,0,,00*30
$GPGSA,A,3,02,03,04,17,19,21,28,31,32,,,,0.8,0.5,0.7*39
$GPGSA,A,3,68,69,70,77,84,85,,,,,,,0.8,0.5,0.7*3F
$GPGSA,A,3,04,06,09,10,11,12,30,36,,,,,0.8,0.5,0.7*37
$GPGSA,A,3,05,06,09,16,19,20,29,30,32,35,39,60,0.8,0.5,0.7*3C
$GPGST,004452.00,1.301,0.465,0.314,26.935,0.439,0.351,0.794*6A
$GPGBS,004452.00,3.777,1.925,4.779,68,0.0001,4.907,6.285*52
$GPGRS,004452.00,1,0.0,-0.1,0.3,-0.1,-0.6,-0.2,0.1,0.4,0.3,,,*66
$GPGRS,004452.00,1,4.9,-0.5,-0.5,-3.7,0.3,1.0,,,,,,*6F
$GPGRS,004452.00,1,-0.1,0.2,0.3,0.8,-0.1,-0.4,-0.2,0.1,,,,*47
$GPGRS,004452.00,1,1.8,0.9,0.5,0.3,-0.7,0.1,0.7,0.2,0.4,-0.6,-0.6,-0.8*40
$GPGSV,6,1,21,01,78,131,,32,19,045,41,19,17,320,41,04,29,200,43*7D
$GPGSV,6,2,21,31,21,111,43,28,25,081,42,17,38,295,45,21,52,140,45*79
$GPGSV,6,3,21,03,66,285,49,02,73,151,49,08,04,180,22,09,04,212,35*7F
$GPGSV,6,4,21,36,35,170,45,58,13,245,37,40,24,132,36,34,31,208,42*7A
$GPGSV,6,5,21,49,34,195,44,57,10,109,39,41,07,108,34,61,03,257,37*73
$GPGSV,6,6,21*7A
$GLGSV,3,1,09,69,76,026,52,85,49,321,51,70,33,230,41,68,24,041,47*6A
$GLGSV,3,2,09,84,72,155,41,78,03,061,41,83,08,147,30,77,08,007,37*67
$GLGSV,3,3,09,76,00,326,40*5E
$GAGSV,3,1,11,11,71,121,45,19,15,042,34,12,18,124,35,09,45,187,46*6D
$GAGSV,3,2,11,10,41,123,45,04,64,089,47,06,64,155,48,36,55,307,46*62
$GAGSV,3,3,11,30,06,320,37,34,05,305,36,02,03,273,35*58
$GBGSV,5,1,17,20,80,237,52,35,26,312,45,30,27,165,45,22,26,225,*65
$GBGSV,5,2,17,05,24,128,38,06,29,069,41,39,27,053,43,09,30,084,40*62
$GBGSV,5,3,17,19,29,236,45,16,29,065,42,32,40,056,48,48,57,236,*64
$GBGSV,5,4,17,29,65,235,51,02,08,105,34,13,03,083,36,57,06,098,*67
$GBGSV,5,5,17,60,10,109,41*57
$GPGGA,004452.00,,,,,0,00,,,M,,M,,*4F
$PTNL,GGK,004452.00,010125,4742.1603496,N,01618.1002824,E,1,35,0.8,EHT751.4692,M*40
$GPGGQ,004452.00,010125,4742.1603496,N,01618.1002824,E,1,35,0.973,708.2627,M*3F
$GPGFA,004452.00,4.425,6.514,0.465,0.314,26.935,0.794,,VVV*35
$GPLLK,004452.00,010125,,M,,M,1,35,1.0,,M*0B
$GNGMP,004452.00,,,,,DAAA,35,0.5,,,,*52
$GPGMP,004452.00,,,,,,09,,,,2.3,136*76
$GLGMP,004452.00,,,,,,06,,,,,*7E
$GAGMP,004452.00,,,,,,08,,,,,*7D
$GBGMP,004452.00,,,,,,12,,,,,*75
$PSSN,SNC,[0,261910000,2347]*49
$GPZDA,004457.00,01,01,2025,,*61
$GPDTM,W84,,00.0000000,N,00.0000000,E,00.0000000,W84*5F
$PSSN,TFM,004457.00,,,,*6D
$GPRMC,004457.00,A,4742.1603511,N,01618.1002815,E,0.0,,010125,5.1,E,D*1A
$GPGLL,4742.1603511,N,01618.1002815,E,004457.00,A,D*6B
$GPGGA,004457.00,4742.1603511,N,01618.1002815,E,2,35,0.5,708.2644,M,43.2066,M,2.0,0136*4D
$GNGNS,004457.00,4742.1603511,N,01618.1002815,E,DAAA,35,0.5,708.2644,43.2066,,*57
$GPGNS,004457.00,,,,,,09,,,,2.0,136*70
$GLGNS,004457.00,,,,,,06,,,,,*7B
$GAGNS,004457.00,,,,,,08,,,,,*78
$GBGNS,004457.00,,,,,,12,,,,,*70
$GPLLQ,004457.00,010125,,M,,M,1,35,0.957,,M*1E
$GPVTG,,T,,M,0.00,N,0.01,K,D*27
$GPHDT,,T*1B
$GPTHS,,V*0E
$GPROT,,V*08
$PSSN,HRP,004457.00,010125,,,,,,,00,0,,*63
$PTNL,AVR,004457.00,,Yaw,,Tilt,,,,0,,00*35
$GPGSA,A,3,02,03,04,17,19,21,28,31,32,,,,0.8,0.5,0.7*39
$GPGSA,A,3,68,69,70,77,84,85,,,,,,,0.8,0.5,0.7*3F
$GPGSA,A,3,04,06,09,10,11,12,30,36,,,,,0.8,0.5,0.7*37
$GPGSA,A,3,05,06,09,16,19,20,29,30,32,35,39,60,0.8,0.5,0.7*3C
$GPGST,004457.00,1.377,0.458,0.316,26.832,0.433,0.349,0.779*64
$GPGBS,004457.00,3.777,1.934,4.820,77,0.0001,-5.327,7.214*77
$GPGRS,004457.00,1,-0.1,-0.1,0.6,0.0,-0.3,-0.1,0.2,0.2,-0.4,,,*4F
$GPGRS,004457.00,1,4.1,-0.4,-0.6,-5.3,-1.1,1.0,,,,,,*4C
$GPGRS,004457.00,1,-0.2,-0.1,0.1,0.3,0.0,-0.4,-0.4,0.0,,,,*4D
$GPGRS,004457.00,1,1.0,0.7,0.5,0.0,-0.7,-0.1,0.4,0.3,0.2,-0.6,-0.8,-0.7*68
$GPGSV,6,1,21,01,78,131,,32,19,045,41,19,17,320,40,04,29,200,43*7C
$GPGSV,6,2,21,31,21,111,42,28,25,081,41,17,38,295,45,21,52,140,45*7B
$GPGSV,6,3,21,03,66,285,49,02,73,151,49,08,04,180,23,09,04,212,35*7E
$GPGSV,6,4,21,36,35,170,45,58,13,245,37,40,24,132,36,34,31,208,42*7A
$GPGSV,6,5,21,49,34,195,44,57,10,109,39,41,07,108,34,61,03,257,37*73
$GPGSV,6,6,21*7A
$GLGSV,3,1,09,69,76,026,52,85,49,321,51,70,33,230,40,68,24,041,46*6A
$GLGSV,3,2,09,84,72,155,41,78,03,061,42,83,08,147,29,77,08,007,36*6D
$GLGSV,3,3,09,76,00,326,41*5F
$GAGSV,3,1,11,11,71,121,45,19,15,042,34,12,18,124,36,09,45,187,46*6E
$GAGSV,3,2,11,10,41,123,45,04,64,088,47,06,64,155,48,36,55,307,46*63
$GAGSV,3,3,11,30,06,320,37,34,05,305,36,02,03,273,35*58
$GBGSV,5,1,17,20,80,238,52,35,26,312,45,30,27,165,44,22,26,225,*6B
$GBGSV,5,2,17,05,24,128,38,06,29,069,41,39,27,053,43,09,30,084,41*63
$GBGSV,5,3,17,19,29,236,45,16,29,065,42,32,40,056,48,48,57,236,*64
$GBGSV,5,4,17,29,65,234,51,02,08,105,34,13,03,083,36,57,06,098,*66
$GBGSV,5,5,17,60,10,109,41*57
$GPGGA,004457.00,,,,,0,00,,,M,,M,,*4A
$PTNL,GGK,004457.00,010125,4742.1603511,N,01618.1002815,E,1,35,0.8,EHT751.4710,M*42
$GPGGQ,004457.00,010125,4742.1603511,N,01618.1002815,E,1,35,0.957,708.2644,M*35
$GPGFA,004457.00,4.353,6.384,0.458,0.316,26.832,0.779,,VVV*30
$GPLLK,004457.00,010125,,M,,M,1,35,1.0,,M*0E
$GNGMP,004457.00,,,,,DAAA,35,0.5,,,,*57
$GPGMP,004457.00,,,,,,09,,,,2.0,136*70
$GLGMP,004457.00,,,,,,06,,,,,*7B
$GAGMP,004457.00,,,,,,08,,,,,*78
$GBGMP,004457.00,,,,,,12,,,,,*70
$PSSN,SNC,[0,261915000,2347]*4C
$GPZDA,004502.00,01,01,2025,,*60
$GPDTM,W84,,00.0000000,N,00.0000000,E,00.0000000,W84*5F
$PSSN,TFM,004502.00,,,,*6C
$GPRMC,004502.00,A,4742.1603552,N,01618.1002828,E,0.0,,010125,5.1,E,D*12
$GPGLL,4742.1603552,N,01618.1002828,E,004502.00,A,D*63
$GPGGA,004502.00,4742.1603552,N,01618.1002828,E,2,35,0.5,708.2701,M,43.2066,M,3.0,0136*44
$GNGNS,004502.00,4742.1603552,N,01618.1002828,E,DAAA,35,0.5,708.2701,43.2066,,*5F
$GPGNS,004502.00,,,,,,09,,,,3.0,136*70
$GLGNS,004502.00,,,,,,06,,,,,*7A
$GAGNS,004502.00,,,,,,08,,,,,*79
$GBGNS,004502.00,,,,,,12,,,,,*71
$GPLLQ,004502.00,010125,,M,,M,1,35,0.968,,M*13
$GPVTG,,T,,M,0.01,N,0.01,K,D*26
$GPHDT,,T*1B
$GPTHS,,V*0E
$GPROT,,V*08
$PSSN,HRP,004502.00,010125,,,,,,,00,0,,*62
$PTNL,AVR,004502.00,,Yaw,,Tilt,,,,0,,00*34
$GPGSA,A,3,02,03,04,17,19,21,28,31,32,,,,0.8,0.5,0.7*39
$GPGSA,A,3,68,69,70,77,84,85,,,,,,,0.8,0.5,0.7*3F
$GPGSA,A,3,04,06,09,10,11,12,30,36,,,,,0.8,0.5,0.7*37
$GPGSA,A,3,05,06,09,16,19,20,29,30,32,35,39,60,0.8,0.5,0.7*3C
$GPGST,004502.00,1.364,0.459,0.320,26.101,0.436,0.351,0.790*61
$GPGBS,004502.00,3.812,1.950,4.875,77,0.0001,-5.565,7.210*7C
$GPGRS,004502.00,1,-0.1,-0.1,0.5,-0.2,0.2,-0.1,-0.1,0.1,0.1,,,*4B
$GPGRS,004502.00,1,3.6,-0.8,0.2,-5.6,-1.2,1.3,,,,,,*6D
$GPGRS,004502.00,1,-0.2,0.0,0.3,0.4,-0.1,-0.2,-0.0,0.1,,,,*4A
$GPGRS,004502.00,1,1.1,0.5,0.4,0.5,-0.1,-0.2,0.4,0.4,0.2,-0.6,-0.6,-0.9*6C
$GPGSV,6,1,21,01,78,131,,32,19,045,41,19,17,320,40,04,29,200,43*7C
$GPGSV,6,2,21,31,21,111,41,28,25,080,41,17,38,295,44,21,52,140,45*78
$GPGSV,6,3,21,03,66,285,49,02,73,151,49,08,04,180,22,09,04,212,36*7C
$GPGSV,6,4,21,36,35,170,45,58,13,245,37,40,24,132,35,34,31,208,42*79
$GPGSV,6,5,21,49,34,195,43,57,10,109,39,41,07,108,34,61,03,257,37*74
$GPGSV,6,6,21*7A
$GLGSV,3,1,09,69,76,026,52,85,49,321,51,70,33,230,41,68,24,041,46*6B
$GLGSV,3,2,09,84,72,155,40,78,03,061,41,83,08,147,29,77,08,007,36*6F
$GLGSV,3,3,09,76,00,326,40*5E
$GAGSV,3,1,11,11,71,121,45,19,15,042,34,12,18,124,36,09,46,187,46*6D
$GAGSV,3,2,11,10,41,123,45,04,64,088,47,06,64,155,48,36,55,307,46*63
$GAGSV,3,3,11,30,06,320,37,34,05,305,36,02,03,273,34*59
$GBGSV,5,1,17,20,80,238,52,35,26,312,45,30,27,165,44,22,26,225,*6B
$GBGSV,5,2,17,05,24,128,38,06,29,069,41,39,27,053,43,09,30,084,41*63
$GBGSV,5,3,17,19,29,236,45,16,29,065,42,32,40,056,48,48,57,236,*64
$GBGSV,5,4,17,29,65,234,51,02,08,105,34,13,02,083,36,57,06,098,*67
$GBGSV,5,5,17,60,10,109,41*57
$GPGGA,004502.00,,,,,0,00,,,M,,M,,*4B
$PTNL,GGK,004502.00,010125,4742.1603552,N,01618.1002828,E,1,35,0.8,EHT751.4766,M*4B
$GPGGQ,004502.00,010125,4742.1603552,N,01618.1002828,E,1,35,0.968,708.2701,M*31
$GPGFA,004502.00,4.367,6.476,0.459,0.320,26.101,0.790,,VVV*36
$GPLLK,004502.00,010125,,M,,M,1,35,1.0,,M*0F
$GNGMP,004502.00,,,,,DAAA,35,0.5,,,,*56
$GPGMP,004502.00,,,,,,09,,,,3.0,136*70
$GLGMP,004502.00,,,,,,06,,,,,*7A
$GAGMP,004502.00,,,,,,08,,,,,*79
$GBGMP,004502.00,,,,,,12,,,,,*71
$PSSN,SNC,[0,261920000,2347]*4A
$GPZDA,004507.00,01,01,2025,,*65
$GPDTM,W84,,00.0000000,N,00.0000000,E,00.0000000,W84*5F
$PSSN,TFM,004507.00,,,,*69
$GPRMC,004507.00,A,4742.1603567,N,01618.1002816,E,0.0,,010125,5.1,E,D*1C
$GPGLL,4742.1603567,N,01618.1002816,E,004507.00,A,D*6D
$GPGGA,004507.00,4742.1603567,N,01618.1002816,E,2,35,0.5,708.2658,M,43.2066,M,2.7,0136*41
$GNGNS,004507.00,4742.1603567,N,01618.1002816,E,DAAA,35,0.5,708.2658,43.2066,,*5C
$GPGNS,004507.00,,,,,,09,,,,2.7,136*73
$GLGNS,004507.00,,,,,,06,,,,,*7F
$GAGNS,004507.00,,,,,,08,,,,,*7C
$GBGNS,004507.00,,,,,,12,,,,,*74
$GPLLQ,004507.00,010125,,M,,M,1,35,0.982,,M*12
$GPVTG,,T,,M,0.00,N,0.01,K,D*27
$GPHDT,,T*1B
$GPTHS,,V*0E
$GPROT,,V*08
$PSSN,HRP,004507.00,010125,,,,,,,00,0,,*67
$PTNL,AVR,004507.00,,Yaw,,Tilt,,,,0,,00*31
$GPGSA,A,3,02,03,04,17,19,21,28,31,32,,,,0.8,0.5,0.7*39
$GPGSA,A,3,68,69,70,77,84,85,,,,,,,0.8,0.5,0.7*3F
$GPGSA,A,3,04,06,09,10,11,12,30,36,,,,,0.8,0.5,0.7*37
$GPGSA,A,3,05,06,09,16,19,20,29,30,32,35,39,60,0.8,0.5,0.7*3C
$GPGST,004507.00,1.238,0.466,0.319,26.434,0.440,0.353,0.803*6F
$GPGBS,004507.00,3.854,1.957,4.959,17,0.0001,-0.469,0.720*7C
$GPGRS,004507.00,1,-0.0,0.2,0.2,-0.5,0.2,-0.2,0.3,0.3,-0.2,,,*61
$GPGRS,004507.00,1,4.1,-0.9,0.8,-4.1,-0.8,1.0,,,,,,*6D
$GPGRS,004507.00,1,-0.2,-0.2,0.3,0.4,-0.1,-0.3,0.1,-0.2,,,,*63
$GPGRS,004507.00,1,0.9,0.7,0.9,0.2,0.2,-0.1,0.6,0.4,0.5,-1.1,-0.5,-0.6*4A
$GPGSV,6,1,21,01,78,131,,32,19,045,41,19,17,320,40,04,29,200,43*7C
$GPGSV,6,2,21,31,21,111,41,28,25,080,42,17,38,295,45,21,52,140,45*7A
$GPGSV,6,3,21,03,67,285,49,02,73,151,49,08,04,180,23,09,04,212,36*7C
$GPGSV,6,4,21,36,35,170,45,58,13,245,37,40,24,132,36,34,31,208,42*7A
$GPGSV,6,5,21,49,34,195,43,57,10,109,39,41,07,108,34,61,03,257,37*74
$GPGSV,6,6,21*7A
$GLGSV,2,1,08,69,75,026,52,85,49,321,51,70,33,230,41,68,24,041,46*68
$GLGSV,2,2,08,84,72,155,40,83,08,147,28,78,03,061,42,77,08,007,36*6D
$GAGSV,3,1,11,11,70,121,44,19,15,042,34,12,17,124,36,09,46,187,46*62
$GAGSV,3,2,11,10,41,123,45,04,64,088,47,06,64,155,48,36,55,307,46*63
$GAGSV,3,3,11,30,06,320,36,34,05,305,37,02,03,273,35*58
$GBGSV,5,1,17,20,80,238,52,35,26,312,45,30,27,165,44,22,26,225,*6B
$GBGSV,5,2,17,05,24,128,37,39,27,053,43,09,30,084,41,06,29,069,41*6C
$GBGSV,5,3,17,19,29,236,45,16,29,065,42,32,40,056,48,48,57,236,*64
$GBGSV,5,4,17,29,65,234,51,13,02,083,36,02,08,105,34,57,06,098,*67
$GBGSV,5,5,17,60,10,109,41*57
$GPGGA,004507.00,,,,,0,00,,,M,,M,,*4E
$PTNL,GGK,004507.00,010125,4742.1603567,N,01618.1002816,E,1,35,0.8,EHT751.4724,M*43
$GPGGQ,004507.00,010125,4742.1603567,N,01618.1002816,E,1,35,0.982,708.2658,M*36
$GPGFA,004507.00,4.427,6.588,0.466,0.319,26.434,0.803,,VVV*30
$GPLLK,004507.00,010125,,M,,M,1,35,1.0,,M*0A
$GNGMP,004507.00,,,,,DAAA,35,0.5,,,,*53
$GPGMP,004507.00,,,,,,09,,,,2.7,136*73
$GLGMP,004507.00,,,,,,06,,,,,*7F
$GAGMP,004507.00,,,,,,08,,,,,*7C
$GBGMP,004507.00,,,,,,12,,,,,*74
$PSSN,SNC,[0,261925000,2347]*4F
$GPZDA,004512.00,01,01,2025,,*61
$GPDTM,W84,,00.0000000,N,00.0000000,E,00.0000000,W84*5F
$PSSN,TFM,004512.00,,,,*6D
$GPRMC,004512.00,A,4742.1603582,N,01618.1002827,E,0.0,,010125,5.1,E,D*11
$GPGLL,4742.1603582,N,01618.1002827,E,004512.00,A,D*60
$GPGGA,004512.00,4742.1603582,N,01618.1002827,E,2,35,0.5,708.2732,M,43.2066,M,2.3,0136*45
$GNGNS,004512.00,4742.1603582,N,01618.1002827,E,DAAA,35,0.5,708.2732,43.2066,,*5C
$GPGNS,004512.00,,,,,,09,,,,2.3,136*73
$GLGNS,004512.00,,,,,,06,,,,,*7B
$GAGNS,004512.00,,,,,,08,,,,,*78
$GBGNS,004512.00,,,,,,12,,,,,*70
$GPLLQ,004512.00,010125,,M,,M,1,35,0.976,,M*1D
$GPVTG,,T,,M,0.00,N,0.00,K,D*26
$GPHDT,,T*1B
$GPTHS,,V*0E
$GPROT,,V*08
$PSSN,HRP,004512.00,010125,,,,,,,00,0,,*63
$PTNL,AVR,004512.00,,Yaw,,Tilt,,,,0,,00*35
$GPGSA,A,3,02,03,04,17,19,21,28,31,32,,,,0.8,0.5,0.7*39
$GPGSA,A,3,68,69,70,77,84,85,,,,,,,0.8,0.5,0.7*3F
$GPGSA,A,3,04,06,09,10,11,12,30,36,,,,,0.8,0.5,0.7*37
$GPGSA,A,3,05,06,09,16,19,20,29,30,32,35,39,60,0.8,0.5,0.7*3C
$GPGST,004512.00,1.303,0.467,0.316,27.898,0.439,0.355,0.796*6C
$GPGBS,004512.00,3.775,1.942,4.753,68,0.0001,4.260,6.288*5B
$GPGRS,004512.00,1,-0.1,0.1,0.2,0.2,-0.3,-0.1,0.3,-0.1,-0.1,,,*4E
$GPGRS,004512.00,1,4.3,-1.0,-0.1,-4.8,-0.4,0.5,,,,,,*46
$GPGRS,004512.00,1,-0.3,-0.1,0.1,0.6,-0.2,-0.2,-0.3,-0.1,,,,*4B
$GPGRS,004512.00,1,0.9,0.6,1.0,0.2,0.1,-0.1,0.6,0.2,0.4,-0.9,-0.1,-0.8*40
$GPGSV,6,1,21,01,78,131,,32,19,045,42,19,17,320,40,04,29,200,44*78
$GPGSV,6,2,21,31,21,111,41,28,25,080,43,17,38,295,45,21,52,140,45*7B
$GPGSV,6,3,21,03,67,285,49,02,73,151,49,08,04,180,22,09,04,212,36*7D
$GPGSV,6,4,21,36,35,170,45,58,13,245,37,40,24,132,36,34,31,208,42*7A
$GPGSV,6,5,21,49,34,195,43,57,10,109,39,41,07,108,34,61,03,257,37*74
$GPGSV,6,6,21*7A
$GLGSV,2,1,08,69,75,026,52,85,49,321,51,70,33,230,41,68,24,041,47*69
$GLGSV,2,2,08,84,72,155,40,83,08,147,29,78,03,061,43,77,08,007,36*6D
$GAGSV,3,1,11,11,70,121,44,19,15,042,35,12,17,124,36,09,46,187,47*62
$GAGSV,3,2,11,10,41,123,45,04,64,088,47,06,64,155,48,36,55,307,46*63
$GAGSV,3,3,11,30,06,320,36,34,05,305,37,02,03,273,35*58
$GBGSV,5,1,17,20,80,238,52,35,26,312,45,30,27,165,44,22,26,225,*6B
$GBGSV,5,2,17,05,24,128,38,39,27,053,42,09,30,084,41,06,29,069,41*62
$GBGSV,5,3,17,19,29,236,46,16,29,065,42,32,40,056,48,48,57,236,*67
$GBGSV,5,4,17,29,65,234,51,13,02,083,36,02,08,105,34,57,06,098,*67
$GBGSV,5,5,17,60,10,109,41*57
$GPGGA,004512.00,,,,,0,00,,,M,,M,,*4A
$PTNL,GGK,004512.00,010125,4742.1603582,N,01618.1002827,E,1,35,0.8,EHT751.4798,M*49
$GPGGQ,004512.00,010125,4742.1603582,N,01618.1002827,E,1,35,0.976,708.2732,M*3D
$GPGFA,004512.00,4.442,6.529,0.467,0.316,27.898,0.796,,VVV*3A
$GPLLK,004512.00,010125,,M,,M,1,35,1.0,,M*0E
$GNGMP,004512.00,,,,,DAAA,35,0.5,,,,*57
$GPGMP,004512.00,,,,,,09,,,,2.3,136*73
$GLGMP,004512.00,,,,,,06,,,,,*7B
$GAGMP,004512.00,,,,,,08,,,,,*78
$GBGMP,004512.00,,,,,,12,,,,,*70
$PSSN,SNC,[0,261930000,2347]*4B
$GPZDA,004517.00,01,01,2025,,*64
$GPDTM,W84,,00.0000000,N,00.0000000,E,00.0000000,W84*5F
$PSSN,TFM,004517.00,,,,*68
$GPRMC,004517.00,A,4742.1603560,N,01618.1002820,E,0.0,,010125,5.1,E,D*1F
$GPGLL,4742.1603560,N,01618.1002820,E,004517.00,A,D*6E
$GPGGA,004517.00,4742.1603560,N,01618.1002820,E,2,35,0.5,708.2670,M,43.2066,M,2.0,0136*4F
$GNGNS,004517.00,4742.1603560,N,01618.1002820,E,DAAA,35,0.5,708.2670,43.2066,,*55
$GPGNS,004517.00,,,,,,09,,,,2.0,136*75
$GLGNS,004517.00,,,,,,06,,,,,*7E
$GAGNS,004517.00,,,,,,08,,,,,*7D
$GBGNS,004517.00,,,,,,12,,,,,*75
$GPLLQ,004517.00,010125,,M,,M,1,35,0.959,,M*15
$GPVTG,,T,,M,0.00,N,0.00,K,D*26
$GPHDT,,T*1B
$GPTHS,,V*0E
$GPROT,,V*08
$PSSN,HRP,004517.00,010125,,,,,,,00,0,,*66
$PTNL,AVR,004517.00,,Yaw,,Tilt,,,,0,,00*30
$GPGSA,A,3,02,03,04,17,19,21,28,31,32,,,,0.8,0.5,0.7*39
$GPGSA,A,3,68,69,70,77,84,85,,,,,,,0.8,0.5,0.7*3F
$GPGSA,A,3,04,06,09,10,11,12,30,36,,,,,0.8,0.5,0.7*37
$GPGSA,A,3,05,06,09,16,19,20,29,30,32,35,39,60,0.8,0.5,0.7*3C
$GPGST,004517.00,1.296,0.459,0.317,27.838,0.432,0.353,0.780*68
$GPGBS,004517.00,3.777,1.951,4.795,68,0.0001,5.064,6.289*52
$GPGRS,004517.00,1,0.1,-0.0,0.2,-0.2,0.1,-0.3,0.4,0.0,-0.2,,,*62
$GPGRS,004517.00,1,5.1,-0.4,-0.6,-3.3,-2.0,0.9,,,,,,*44
$GPGRS,004517.00,1,-0.2,-0.1,0.0,0.8,-0.2,-0.3,-0.2,-0.0,,,,*41
$GPGRS,004517.00,1,1.1,0.2,0.8,0.4,-0.4,-0.2,0.4,-0.3,0.5,-1.0,0.1,-0.6*68
$GPGSV,6,1,21,01,78,131,,32,19,045,41,19,17,320,39,04,29,200,44*75
$GPGSV,6,2,21,31,21,111,42,28,26,080,43,17,38,295,45,21,52,140,44*7A
$GPGSV,6,3,21,03,67,285,49,02,73,151,49,08,04,180,21,09,04,212,37*7F
$GPGSV,6,4,21,36,35,170,45,58,13,245,37,40,24,132,36,34,31,208,42*7A
$GPGSV,6,5,21,49,34,195,44,57,10,109,39,41,07,108,34,61,03,257,37*73
$GPGSV,6,6,21*7A
$GLGSV,2,1,08,69,75,026,52,85,49,321,51,70,34,230,40,68,24,041,47*6F
$GLGSV,2,2,08,84,72,155,40,83,08,147,30,78,03,061,43,77,08,007,37*64
$GAGSV,3,1,11,11,70,121,44,19,15,042,34,12,17,124,36,09,46,187,46*62
$GAGSV,3,2,11,10,41,123,45,04,64,088,47,06,64,155,48,36,55,307,46*63
$GAGSV,3,3,11,30,06,320,36,34,05,305,37,02,03,273,35*58
$GBGSV,5,1,17,20,80,238,52,35,26,312,45,30,27,165,44,22,26,225,*6B
$GBGSV,5,2,17,05,24,128,38,39,27,053,42,09,30,084,41,06,29,069,40*63
$GBGSV,5,3,17,19,29,236,46,16,29,065,42,32,40,056,48,48,57,236,*67
$GBGSV,5,4,17,29,65,234,50,13,02,083,36,02,08,105,34,57,06,098,*66
$GBGSV,5,5,17,60,10,109,41*57
$GPGGA,004517.00,,,,,0,00,,,M,,M,,*4F
$PTNL,GGK,004517.00,010125,4742.1603560,N,01618.1002820,E,1,35,0.8,EHT751.4736,M*43
$GPGGQ,004517.00,010125,4742.1603560,N,01618.1002820,E,1,35,0.959,708.2670,M*39
$GPGFA,004517.00,4.368,6.396,0.459,0.317,27.838,0.780,,VVV*33
$GPLLK,004517.00,010125,,M,,M,1,35,1.0,,M*0B
$GNGMP,004517.00,,,,,DAAA,35,0.5,,,,*52
$GPGMP,004517.00,,,,,,09,,,,2.0,136*75
$GLGMP,004517.00,,,,,,06,,,,,*7E
$GAGMP,004517.00,,,,,,08,,,,,*7D
$GBGMP,004517.00,,,,,,12,,,,,*75
$PSSN,SNC,[0,261935000,2347]*4E
$GPZDA,004522.00,01,01,2025,,*62
$GPDTM,W84,,00.0000000,N,00.0000000,E,00.0000000,W84*5F
$PSSN,TFM,004522.00,,,,*6E
$GPRMC,004522.00,A,4742.1603591,N,01618.1002817,E,0.0,,010125,5.1,E,D*13
$GPGLL,4742.1603591,N,01618.1002817,E,004522.00,A,D*62
$GPGGA,004522.00,4742.1603591,N,01618.1002817,E,2,35,0.5,708.2759,M,43.2066,M,3.0,0136*48
$GNGNS,004522.00,4742.1603591,N,01618.1002817,E,DAAA,35,0.5,708.2759,43.2066,,*53
$GPGNS,004522.00,,,,,,09,,,,3.0,136*72
$GLGNS,004522.00,,,,,,06,,,,,*78
$GAGNS,004522.00,,,,,,08,,,,,*7B
$GBGNS,004522.00,,,,,,12,,,,,*73
$GPLLQ,004522.00,010125,,M,,M,1,35,0.972,,M*1A
$GPVTG,,T,,M,0.00,N,0.00,K,D*26
$GPHDT,,T*1B
$GPTHS,,V*0E
$GPROT,,V*08
$PSSN,HRP,004522.00,010125,,,,,,,00,0,,*60
$PTNL,AVR,004522.00,,Yaw,,Tilt,,,,0,,00*36
$GPGSA,A,3,02,03,04,17,19,21,28,31,32,,,,0.8,0.5,0.7*39
$GPGSA,A,3,68,69,70,77,84,85,,,,,,,0.8,0.5,0.7*3F
$GPGSA,A,3,04,06,09,10,11,12,30,36,,,,,0.8,0.5,0.7*37
$GPGSA,A,3,05,06,09,16,19,20,29,30,32,35,39,60,0.8,0.5,0.7*3C
$GPGST,004522.00,1.203,0.463,0.321,27.130,0.437,0.355,0.792*6F
$GPGBS,004522.00,3.826,1.974,4.865,68,0.0001,4.442,6.290*51
$GPGRS,004522.00,1,0.0,-0.0,0.2,-0.2,-0.1,-0.1,-0.1,0.4,-0.4,,,*60
$GPGRS,004522.00,1,4.4,-0.6,0.1,-3.5,-1.1,1.1,,,,,,*63
$GPGRS,004522.00,1,0.1,-0.0,0.1,0.7,-0.3,-0.5,0.0,0.2,,,,*61
$GPGRS,004522.00,1,1.2,0.3,1.3,0.5,-0.3,0.1,0.5,-0.0,0.5,-0.6,0.2,-0.5*4B
$GPGSV,6,1,21,01,78,131,,32,19,045,41,19,17,320,40,04,29,200,44*7B
$GPGSV,6,2,21,31,21,111,43,28,26,080,43,17,38,295,45,21,51,140,44*78
$GPGSV,6,3,21,03,67,285,49,02,73,151,49,08,04,180,22,09,04,212,37*7C
$GPGSV,6,4,21,36,35,170,45,58,13,245,37,40,24,132,36,34,31,208,42*7A
$GPGSV,6,5,21,49,34,195,44,57,10,109,39,41,07,108,34,61,03,257,38*7C
$GPGSV,6,6,21*7A
$GLGSV,2,1,08,69,75,026,52,85,49,321,51,70,34,230,40,68,24,041,47*6F
$GLGSV,2,2,08,84,72,155,40,83,08,147,28,78,03,061,42,77,08,007,38*63
$GAGSV,3,1,11,11,70,121,44,19,15,042,34,12,17,124,36,09,46,187,46*62
$GAGSV,3,2,11,10,41,123,45,04,64,088,47,06,64,155,48,36,55,307,46*63
$GAGSV,3,3,11,30,06,320,37,34,05,305,36,02,03,273,34*59
$GBGSV,5,1,17,20,80,238,52,35,26,312,45,30,27,165,45,22,26,225,*6A
$GBGSV,5,2,17,05,24,128,38,39,27,053,42,09,30,084,41,06,29,069,40*63
$GBGSV,5,3,17,19,29,236,46,16,29,065,42,32,40,056,48,48,57,236,*67
$GBGSV,5,4,17,29,65,234,50,13,02,083,36,02,08,105,34,57,06,098,*66
$GBGSV,5,5,17,60,10,109,41*57
$GPGGA,004522.00,,,,,0,00,,,M,,M,,*49
$PTNL,GGK,004522.00,010125,4742.1603591,N,01618.1002817,E,1,35,0.8,EHT751.4825,M*42
$GPGGQ,004522.00,010125,4742.1603591,N,01618.1002817,E,1,35,0.972,708.2759,M*36
$GPGFA,004522.00,4.397,6.497,0.463,0.321,27.130,0.792,,VVV*3D
$GPLLK,004522.00,010125,,M,,M,1,35,1.0,,M*0D
$GNGMP,004522.00,,,,,DAAA,35,0.5,,,,*54
$GPGMP,004522.00,,,,,,09,,,,3.0,136*72
$GLGMP,004522.00,,,,,,06,,,,,*78
$GAGMP,004522.00,,,,,,08,,,,,*7B
$GBGMP,004522.00,,,,,,12,,,,,*73
$PSSN,SNC,[0,261940000,2347]*4C
$GPZDA,004527.00,01,01,2025,,*67
$GPDTM,W84,,00.0000000,N,00.0000000,E,00.0000000,W84*5F
$PSSN,TFM,004527.00,,,,*6B
$GPRMC,004527.00,A,4742.1603592,N,01618.1002795,E,0.0,,010125,5.1,E,D*10
$GPGLL,4742.1603592,N,01618.1002795,E,004527.00,A,D*61
$GPGGA,004527.00,4742.1603592,N,01618.1002795,E,2,35,0.5,708.2702,M,43.2066,M,2.7,0136*43
$GNGNS,004527.00,4742.1603592,N,01618.1002795,E,DAAA,35,0.5,708.2702,43.2066,,*5E
$GPGNS,004527.00,,,,,,09,,,,2.7,136*71
$GLGNS,004527.00,,,,,,06,,,,,*7D
$GAGNS,004527.00,,,,,,08,,,,,*7E
$GBGNS,004527.00,,,,,,12,,,,,*76
$GPLLQ,004527.00,010125,,M,,M,1,35,0.986,,M*14
$GPVTG,,T,,M,0.00,N,0.00,K,D*26
$GPHDT,,T*1B
$GPTHS,,V*0E
$GPROT,,V*08
$PSSN,HRP,004527.00,010125,,,,,,,00,0,,*65
$PTNL,AVR,004527.00,,Yaw,,Tilt,,,,0,,00*33
$GPGSA,A,3,02,03,04,17,19,21,28,31,32,,,,0.8,0.5,0.7*39
$GPGSA,A,3,68,69,70,77,84,85,,,,,,,0.8,0.5,0.7*3F
$GPGSA,A,3,04,06,09,10,11,12,30,36,,,,,0.8,0.5,0.7*37
$GPGSA,A,3,05,06,09,16,19,20,29,30,32,35,39,60,0.8,0.5,0.7*3C
$GPGST,004527.00,0.959,0.469,0.321,27.424,0.442,0.358,0.806*68
$GPGBS,004527.00,3.868,1.983,4.947,68,0.0001,2.842,6.291*5C
$GPGRS,004527.00,1,-0.0,0.3,0.1,-0.3,0.1,-0.0,-0.2,0.2,0.1,,,*65
$GPGRS,004527.00,1,2.8,-0.6,0.4,-3.1,-0.1,0.7,,,,,,*6B
$GPGRS,004527.00,1,-0.0,-0.0,-0.2,0.5,-0.1,-0.4,-0.2,0.2,,,,*48
$GPGRS,004527.00,1,0.9,-0.1,1.1,0.9,-0.3,0.0,0.6,0.0,0.4,-1.3,0.2,-0.8*42
$GPGSV,6,1,21,01,78,131,,32,19,045,41,19,17,320,40,04,29,200,44*7B
$GPGSV,6,2,21,31,21,111,42,28,26,080,42,17,38,295,45,21,51,140,45*79
$GPGSV,6,3,21,03,67,285,49,02,73,151,49,08,03,180,22,09,04,212,37*7B
$GPGSV,6,4,21,36,35,170,45,58,13,245,37,40,24,132,36,34,31,208,42*7A
$GPGSV,6,5,21,49,34,195,44,57,10,109,39,41,07,108,34,61,03,257,38*7C
$GPGSV,6,6,21*7A
$GLGSV,2,1,08,69,75,026,52,85,49,321,51,70,34,230,41,68,24,041,45*6C
$GLGSV,2,2,08,84,72,155,40,83,08,147,28,78,03,061,42,77,08,007,39*62
$GAGSV,3,1,11,11,70,121,44,19,15,042,34,12,17,124,35,09,46,187,46*61
$GAGSV,3,2,11,10,41,123,45,04,64,088,47,06,64,155,48,36,55,307,46*63
$GAGSV,3,3,11,30,06,320,37,34,05,305,37,02,03,273,34*58
$GBGSV,5,1,17,20,80,238,52,35,26,312,45,30,27,165,45,22,26,225,*6A
$GBGSV,5,2,17,05,24,128,38,39,27,053,42,09,30,084,41,06,29,069,40*63
$GBGSV,5,3,17,19,29,236,46,16,29,065,42,32,40,056,48,48,57,236,*67
$GBGSV,5,4,17,29,65,234,51,13,02,083,35,02,08,105,34,57,06,098,*64
$GBGSV,5,5,17,60,10,109,41*57
$GPGGA,004527.00,,,,,0,00,,,M,,M,,*4C
$PTNL,GGK,004527.00,010125,4742.1603592,N,01618.1002795,E,1,35,0.8,EHT751.4767,M*48
$GPGGQ,004527.00,010125,4742.1603592,N,01618.1002795,E,1,35,0.986,708.2702,M*30
$GPGFA,004527.00,4.459,6.610,0.469,0.321,27.424,0.806,,VVV*38
$GPLLK,004527.00,010125,,M,,M,1,35,1.0,,M*08
$GNGMP,004527.00,,,,,DAAA,35,0.5,,,,*51
$GPGMP,004527.00,,,,,,09,,,,2.7,136*71
$GLGMP,004527.00,,,,,,06,,,,,*7D
$GAGMP,004527.00,,,,,,08,,,,,*7E
$GBGMP,004527.00,,,,,,12,,,,,*76
$PSSN,SNC,[0,261945000,2347]*49
$GPZDA,004532.00,01,01,2025,,*63
$GPDTM,W84,,00.0000000,N,00.0000000,E,00.0000000,W84*5F
$PSSN,TFM,004532.00,,,,*6F
$GPRMC,004532.00,A,4742.1603604,N,01618.1002803,E,0.0,,010125,5.1,E,D*18
$GPGLL,4742.1603604,N,01618.1002803,E,004532.00,A,D*69
$GPGGA,004532.00,4742.1603604,N,01618.1002803,E,2,35,0.5,708.2713,M,43.2066,M,2.3,0136*4F
$GNGNS,004532.00,4742.1603604,N,01618.1002803,E,DAAA,35,0.5,708.2713,43.2066,,*56
$GPGNS,004532.00,,,,,,09,,,,2.3,136*71
$GLGNS,004532.00,,,,,,06,,,,,*79
$GAGNS,004532.00,,,,,,08,,,,,*7A
$GBGNS,004532.00,,,,,,12,,,,,*72
$GPLLQ,004532.00,010125,,M,,M,1,35,0.977,,M*1E
$GPVTG,,T,,M,0.00,N,0.01,K,D*27
$GPHDT,,T*1B
$GPTHS,,V*0E
$GPROT,,V*08
$PSSN,HRP,004532.00,010125,,,,,,,00,0,,*61
$PTNL,AVR,004532.00,,Yaw,,Tilt,,,,0,,00*37
$GPGSA,A,3,02,03,04,17,19,21,28,31,32,,,,0.8,0.5,0.7*39
$GPGSA,A,3,68,69,70,77,84,85,,,,,,,0.8,0.5,0.7*3F
$GPGSA,A,3,04,06,09,10,11,12,30,36,,,,,0.8,0.5,0.7*37
$GPGSA,A,3,05,06,09,16,19,20,29,30,32,35,39,60,0.8,0.5,0.7*3C
$GPGST,004532.00,1.186,0.467,0.316,27.929,0.439,0.355,0.798*64
$GPGBS,004532.00,3.775,1.946,4.755,77,0.0001,-4.274,7.212*7F
$GPGRS,004532.00,1,-0.3,0.2,0.1,-0.3,0.2,0.4,-0.1,-0.1,0.0,,,*65
$GPGRS,004532.00,1,3.7,-0.8,0.3,-4.3,-0.9,0.7,,,,,,*65
$GPGRS,004532.00,1,-0.2,-0.1,0.1,0.4,-0.2,-0.2,-0.4,-0.2,,,,*4E
$GPGRS,004532.00,1,1.0,-0.3,0.4,0.4,-0.4,-0.3,0.6,-0.4,0.2,-1.3,0.1,-0.8*40
$GPGSV,6,1,21,01,78,131,,32,19,045,40,19,17,320,39,04,29,200,43*73
$GPGSV,6,2,21,31,21,110,42,28,26,080,42,17,38,295,45,21,51,140,45*78
$GPGSV,6,3,21,03,67,285,49,02,73,151,49,08,03,180,22,09,05,212,37*7A
$GPGSV,6,4,21,36,35,170,45,58,13,245,37,40,24,132,36,34,31,208,42*7A
$GPGSV,6,5,21,49,34,195,44,57,10,109,39,41,07,108,34,61,03,257,38*7C
$GPGSV,6,6,21*7A
$GLGSV,2,1,08,69,75,026,52,85,49,321,51,70,34,230,40,68,24,041,45*6D
$GLGSV,2,2,08,84,72,155,40,83,08,147,28,78,03,060,43,77,08,007,38*63
$GAGSV,3,1,11,11,70,121,44,19,15,042,33,12,17,124,35,09,46,187,46*66
$GAGSV,3,2,11,10,41,123,45,04,64,088,47,06,64,155,48,36,55,307,47*62
$GAGSV,3,3,11,30,06,320,37,34,05,305,37,02,03,273,35*59
$GBGSV,5,1,17,20,80,238,52,35,27,312,45,30,27,165,45,22,26,225,*6B
$GBGSV,5,2,17,05,24,128,38,39,27,053,42,09,30,084,41,06,29,069,40*63
$GBGSV,5,3,17,19,29,236,45,16,29,065,42,32,40,056,48,48,57,236,*64
$GBGSV,5,4,17,29,65,234,51,13,02,083,35,02,08,105,34,57,06,098,*64
$GBGSV,5,5,17,60,10,109,41*57
$GPGGA,004532.00,,,,,0,00,,,M,,M,,*48
$PTNL,GGK,004532.00,010125,4742.1603604,N,01618.1002803,E,1,35,0.8,EHT751.4779,M*4F
$GPGGQ,004532.00,010125,4742.1603604,N,01618.1002803,E,1,35,0.977,708.2713,M*36
$GPGFA,004532.00,4.444,6.545,0.467,0.316,27.929,0.798,,VVV*31
$GPLLK,004532.00,010125,,M,,M,1,35,1.0,,M*0C
$GNGMP,004532.00,,,,,DAAA,35,0.5,,,,*55
$GPGMP,004532.00,,,,,,09,,,,2.3,136*71
$GLGMP,004532.00,,,,,,06,,,,,*79
$GAGMP,004532.00,,,,,,08,,,,,*7A
$GBGMP,004532.00,,,,,,12,,,,,*72
$PSSN,SNC,[0,261950000,2347]*4D
$GPZDA,004537.00,01,01,2025,,*66
$GPDTM,W84,,00.0000000,N,00.0000000,E,00.0000000,W84*5F
$PSSN,TFM,004537.00,,,,*6A
$GPRMC,004537.00,A,4742.1603607,N,01618.1002789,E,0.0,,010125,5.1,E,D*13
$GPGLL,4742.1603607,N,01618.1002789,E,004537.00,A,D*62
$GPGGA,004537.00,4742.1603607,N,01618.1002789,E,2,34,0.5,708.2718,M,43.2066,M,2.0,0136*4D
$GNGNS,004537.00,4742.1603607,N,01618.1002789,E,DAAA,34,0.5,708.2718,43.2066,,*57
$GPGNS,004537.00,,,,,,09,,,,2.0,136*77
$GLGNS,004537.00,,,,,,06,,,,,*7C
$GAGNS,004537.00,,,,,,07,,,,,*70
$GBGNS,004537.00,,,,,,12,,,,,*77
$GPLLQ,004537.00,010125,,M,,M,1,34,0.963,,M*1F
$GPVTG,,T,,M,0.00,N,0.00,K,D*26
$GPHDT,,T*1B
$GPTHS,,V*0E
$GPROT,,V*08
$PSSN,HRP,004537.00,010125,,,,,,,00,0,,*64
$PTNL,AVR,004537.00,,Yaw,,Tilt,,,,0,,00*32
$GPGSA,A,3,02,03,04,17,19,21,28,31,32,,,,0.9,0.5,0.7*38
$GPGSA,A,3,68,69,70,77,84,85,,,,,,,0.9,0.5,0.7*3E
$GPGSA,A,3,04,06,09,10,11,30,36,,,,,,0.9,0.5,0.7*35
$GPGSA,A,3,05,06,09,16,19,20,29,30,32,35,39,60,0.9,0.5,0.7*3D
$GPGST,004537.00,1.309,0.460,0.318,27.761,0.433,0.353,0.784*6E
$GPGBS,004537.00,3.789,1.950,4.831,68,0.0001,4.240,6.293*5F
$GPGRS,004537.00,1,-0.1,-0.2,0.2,-0.2,0.0,0.1,0.3,0.2,0.2,,,*49
$GPGRS,004537.00,1,4.2,-0.5,-0.0,-4.1,-1.7,0.8,,,,,,*43
$GPGRS,004537.00,1,-0.2,-0.2,0.4,0.4,-0.1,-0.1,-0.2,,,,,*4A
$GPGRS,004537.00,1,1.3,-1.2,-0.1,-0.0,-0.5,-0.4,0.3,-0.6,0.4,-1.4,0.1,-0.6*49
$GPGSV,6,1,21,01,78,131,,32,19,045,40,19,17,320,40,04,29,200,43*7D
$GPGSV,6,2,21,31,21,110,43,28,26,080,43,17,38,295,45,21,51,140,45*78
$GPGSV,6,3,21,03,67,285,50,02,73,151,49,08,03,180,22,09,05,212,37*72
$GPGSV,6,4,21,36,35,170,45,58,13,245,37,40,24,132,36,34,31,208,42*7A
$GPGSV,6,5,21,49,34,195,44,57,10,109,39,41,07,108,34,61,03,257,37*73
$GPGSV,6,6,21*7A
$GLGSV,2,1,08,69,75,026,52,85,49,321,51,70,34,230,40,68,23,041,46*69
$GLGSV,2,2,08,84,72,155,40,83,08,147,27,78,03,060,42,77,08,007,38*6D
$GAGSV,3,1,11,11,70,121,44,19,15,042,33,12,17,124,35,09,46,187,46*66
$GAGSV,3,2,11,10,41,124,45,04,64,088,47,06,64,155,48,36,55,307,46*64
$GAGSV,3,3,11,30,06,320,37,34,05,305,36,02,03,273,34*59
$GBGSV,5,1,17,20,80,238,52,35,27,312,45,30,26,165,45,22,26,225,*6A
$GBGSV,5,2,17,05,24,128,38,39,27,053,43,09,30,084,40,06,29,069,40*63
$GBGSV,5,3,17,19,29,236,45,16,29,065,42,32,40,056,48,48,57,236,*64
$GBGSV,5,4,17,29,65,234,51,13,02,083,35,02,08,105,34,57,06,098,*64
$GBGSV,5,5,17,60,10,109,41*57
$GPGGA,004537.00,,,,,0,00,,,M,,M,,*4D
$PTNL,GGK,004537.00,010125,4742.1603607,N,01618.1002789,E,1,34,0.9,EHT751.4783,M*41
$GPGGQ,004537.00,010125,4742.1603607,N,01618.1002789,E,1,34,0.963,708.2718,M*32
$GPGFA,004537.00,4.372,6.429,0.460,0.318,27.761,0.784,,VVV*3B
$GPLLK,004537.00,010125,,M,,M,1,34,1.0,,M*08
$GNGMP,004537.00,,,,,DAAA,34,0.5,,,,*51
$GPGMP,004537.00,,,,,,09,,,,2.0,136*77
$GLGMP,004537.00,,,,,,06,,,,,*7C
$GAGMP,004537.00,,,,,,07,,,,,*70
$GBGMP,004537.00,,,,,,12,,,,,*77
$PSSN,SNC,[0,261955000,2347]*48
$GPZDA,004542.00,01,01,2025,,*64
$GPDTM,W84,,00.0000000,N,00.0000000,E,00.0000000,W84*5F
$PSSN,TFM,004542.00,,,,*68
$GPRMC,004542.00,A,4742.1603599,N,01618.1002782,E,0.0,,010125,5.1,E,D*1E
$GPGLL,4742.1603599,N,01618.1002782,E,004542.00,A,D*6F
$GPGGA,004542.00,4742.1603599,N,01618.1002782,E,2,34,0.5,708.2778,M,43.2066,M,3.0,0136*47
$GNGNS,004542.00,4742.1603599,N,01618.1002782,E,DAAA,34,0.5,708.2778,43.2066,,*5C
$GPGNS,004542.00,,,,,,09,,,,3.0,136*74
$GLGNS,004542.00,,,,,,06,,,,,*7E
$GAGNS,004542.00,,,,,,07,,,,,*72
$GBGNS,004542.00,,,,,,12,,,,,*75
$GPLLQ,004542.00,010125,,M,,M,1,34,0.977,,M*18
$GPVTG,,T,,M,0.00,N,0.01,K,D*27
$GPHDT,,T*1B
$GPTHS,,V*0E
$GPROT,,V*08
$PSSN,HRP,004542.00,010125,,,,,,,00,0,,*66
$PTNL,AVR,004542.00,,Yaw,,Tilt,,,,0,,00*30
$GPGSA,A,3,02,03,04,17,19,21,28,31,32,,,,0.9,0.5,0.7*38
$GPGSA,A,3,68,69,70,77,84,85,,,,,,,0.9,0.5,0.7*3E
$GPGSA,A,3,04,06,09,10,11,30,36,,,,,,0.9,0.5,0.7*35
$GPGSA,A,3,05,06,09,16,19,20,29,30,32,35,39,60,0.9,0.5,0.7*3D
$GPGST,004542.00,1.377,0.463,0.322,27.039,0.438,0.356,0.797*69
$GPGBS,004542.00,3.840,1.974,4.905,68,0.0001,4.975,6.293*5A
$GPGRS,004542.00,1,-0.3,0.2,-0.2,-0.0,0.6,0.0,-0.2,0.3,0.3,,,*60
$GPGRS,004542.00,1,5.0,-0.5,0.3,-4.1,-1.1,0.8,,,,,,*6A
$GPGRS,004542.00,1,-0.2,-0.1,0.4,0.4,-0.1,-0.4,-0.3,,,,,*4F
$GPGRS,004542.00,1,1.3,-1.5,0.1,-0.4,0.1,-0.2,0.3,0.1,0.5,-1.1,0.1,-0.7*65
$GPGSV,6,1,21,01,78,131,,32,19,045,41,19,17,320,40,04,29,200,43*7C
$GPGSV,6,2,21,31,21,110,43,28,26,080,42,17,38,295,45,21,51,140,44*78
$GPGSV,6,3,21,03,67,285,50,02,73,151,49,08,03,180,21,09,05,212,37*71
$GPGSV,6,4,21,36,35,170,45,58,13,245,37,40,24,132,36,34,31,208,42*7A
$GPGSV,6,5,21,49,34,195,43,57,10,109,39,41,07,108,34,61,03,257,37*74
$GPGSV,6,6,21*7A
$GLGSV,2,1,08,69,75,026,52,85,49,321,51,70,34,230,40,68,23,041,47*68
$GLGSV,2,2,08,84,72,155,40,83,08,147,26,78,03,060,42,77,08,007,38*6C
$GAGSV,3,1,11,11,70,121,44,19,15,042,33,12,17,124,35,09,46,187,46*66
$GAGSV,3,2,11,10,41,124,45,04,64,088,47,06,64,155,48,36,55,307,46*64
$GAGSV,3,3,11,30,06,320,37,34,05,305,37,02,03,273,34*58
$GBGSV,5,1,17,20,80,238,52,30,26,165,45,05,24,128,38,22,26,225,*6B
$GBGSV,5,2,17,35,27,312,45,39,27,053,42,09,30,084,40,06,29,069,39*6D
$GBGSV,5,3,17,19,29,236,45,16,29,065,42,32,40,056,48,48,57,236,*64
$GBGSV,5,4,17,29,65,234,51,13,02,083,36,02,08,105,34,57,06,098,*67
$GBGSV,5,5,17,60,10,109,41*57
$GPGGA,004542.00,,,,,0,00,,,M,,M,,*4F
$PTNL,GGK,004542.00,010125,4742.1603599,N,01618.1002782,E,1,34,0.9,EHT751.4844,M*48
$GPGGQ,004542.00,010125,4742.1603599,N,01618.1002782,E,1,34,0.977,708.2778,M*3C
$GPGFA,004542.00,4.405,6.539,0.463,0.322,27.039,0.797,,VVV*3C
$GPLLK,004542.00,010125,,M,,M,1,34,1.0,,M*0A
$GNGMP,004542.00,,,,,DAAA,34,0.5,,,,*53
$GPGMP,004542.00,,,,,,09,,,,3.0,136*74
$GLGMP,004542.00,,,,,,06,,,,,*7E
$GAGMP,004542.00,,,,,,07,,,,,*72
$GBGMP,004542.00,,,,,,12,,,,,*75
$PSSN,SNC,[0,261960000,2347]*4E
$GPZDA,004547.00,01,01,2025,,*61
$GPDTM,W84,,00.0000000,N,00.0000000,E,00.0000000,W84*5F
$PSSN,TFM,004547.00,,,,*6D
$GPRMC,004547.00,A,4742.1603607,N,01618.1002778,E,0.0,,010125,5.1,E,D*1A
$GPGLL,4742.1603607,N,01618.1002778,E,004547.00,A,D*6B
$GPGGA,004547.00,4742.1603607,N,01618.1002778,E,2,35,0.5,708.2871,M,43.2066,M,2.7,0136*42
$GNGNS,004547.00,4742.1603607,N,01618.1002778,E,DAAA,35,0.5,708.2871,43.2066,,*5F
$GPGNS,004547.00,,,,,,09,,,,2.7,136*77
$GLGNS,004547.00,,,,,,06,,,,,*7B
$GAGNS,004547.00,,,,,,08,,,,,*78
$GBGNS,004547.00,,,,,,12,,,,,*70
$GPLLQ,004547.00,010125,,M,,M,1,35,0.985,,M*11
$GPVTG,,T,,M,0.01,N,0.01,K,D*26
$GPHDT,,T*1B
$GPTHS,,V*0E
$GPROT,,V*08
$PSSN,HRP,004547.00,010125,,,,,,,00,0,,*63
$PTNL,AVR,004547.00,,Yaw,,Tilt,,,,0,,00*35
$GPGSA,A,3,02,03,04,17,19,21,28,31,32,,,,0.8,0.5,0.7*39
$GPGSA,A,3,68,69,70,77,84,85,,,,,,,0.8,0.5,0.7*3F
$GPGSA,A,3,04,06,09,10,11,30,34,36,,,,,0.8,0.5,0.7*33
$GPGSA,A,3,05,06,09,16,19,20,29,30,32,35,39,60,0.8,0.5,0.7*3C
$GPGST,004547.00,1.441,0.469,0.320,27.314,0.442,0.356,0.804*62
$GPGBS,004547.00,3.882,1.967,4.943,68,0.0001,4.975,6.294*56
$GPGRS,004547.00,1,-0.1,-0.1,0.1,-0.2,0.4,0.1,-0.3,0.4,0.1,,,*62
$GPGRS,004547.00,1,5.0,-0.2,0.9,-5.0,-0.5,0.9,,,,,,*66
$GPGRS,004547.00,1,-0.1,0.1,0.4,0.5,0.1,0.0,-0.4,-0.0,,,,*65
$GPGRS,004547.00,1,1.5,-1.1,0.7,-0.3,0.4,0.0,0.4,0.4,0.5,-0.8,0.2,-0.8*4F
$GPGSV,6,1,21,01,78,131,,32,19,045,41,19,17,320,40,04,29,200,44*7B
$GPGSV,6,2,21,31,21,110,42,28,26,080,42,17,38,295,45,21,51,140,44*79
$GPGSV,6,3,21,03,67,286,50,02,73,151,49,08,03,180,21,09,05,212,37*72
$GPGSV,6,4,21,36,35,170,45,58,13,245,37,40,24,132,36,34,31,208,42*7A
$GPGSV,6,5,21,49,34,195,44,57,10,109,39,41,07,108,34,61,03,257,38*7C
$GPGSV,6,6,21*7A
$GLGSV,2,1,08,69,75,026,52,85,49,321,51,70,34,230,40,68,23,041,46*69
$GLGSV,2,2,08,84,72,155,40,83,08,147,26,78,03,060,42,77,08,007,39*6D
$GAGSV,3,1,11,11,70,121,45,19,15,042,34,12,17,124,35,09,46,187,46*60
$GAGSV,3,2,11,10,41,124,45,04,64,088,47,06,64,155,48,36,55,307,47*65
$GAGSV,3,3,11,30,06,320,37,34,05,305,37,02,03,273,33*5F
$GBGSV,5,1,17,20,80,238,52,30,26,165,45,05,24,128,38,22,26,225,*6B
$GBGSV,5,2,17,35,27,312,45,39,27,053,43,09,30,084,41,06,29,069,39*6D
$GBGSV,5,3,17,19,29,236,46,16,29,065,42,32,40,056,48,48,57,236,*67
$GBGSV,5,4,17,29,65,234,51,13,02,083,36,02,08,105,34,57,06,098,*67
$GBGSV,5,5,17,60,10,109,41*57
$GPGGA,004547.00,,,,,0,00,,,M,,M,,*4A
$PTNL,GGK,004547.00,010125,4742.1603607,N,01618.1002778,E,1,35,0.8,EHT751.4936,M*48
$GPGGQ,004547.00,010125,4742.1603607,N,01618.1002778,E,1,35,0.985,708.2871,M*32
$GPGFA,004547.00,4.460,6.596,0.469,0.320,27.314,0.804,,VVV*3E
$GPLLK,004547.00,010125,,M,,M,1,35,0.9,,M*06
$GNGMP,004547.00,,,,,DAAA,35,0.5,,,,*57
$GPGMP,004547.00,,,,,,09,,,,2.7,136*77
$GLGMP,004547.00,,,,,,06,,,,,*7B
$GAGMP,004547.00,,,,,,08,,,,,*78
$GBGMP,004547.00,,,,,,12,,,,,*70
$PSSN,SNC,[0,261965000,2347]*4B
$GPZDA,004552.00,01,01,2025,,*65
$GPDTM,W84,,00.0000000,N,00.0000000,E,00.0000000,W84*5F
$PSSN,TFM,004552.00,,,,*69
$GPRMC,004552.00,A,4742.1603615,N,01618.1002764,E,0.0,,010125,5.1,E,D*10
$GPGLL,4742.1603615,N,01618.1002764,E,004552.00,A,D*61
$GPGGA,004552.00,4742.1603615,N,01618.1002764,E,2,36,0.5,708.2818,M,43.2066,M,2.3,0136*40
$GNGNS,004552.00,4742.1603615,N,01618.1002764,E,DAAA,36,0.5,708.2818,43.2066,,*59
$GPGNS,004552.00,,,,,,09,,,,2.3,136*77
$GLGNS,004552.00,,,,,,06,,,,,*7F
$GAGNS,004552.00,,,,,,09,,,,,*7D
$GBGNS,004552.00,,,,,,12,,,,,*74
$GPLLQ,004552.00,010125,,M,,M,1,36,0.977,,M*1B
$GPVTG,,T,,M,0.01,N,0.01,K,D*26
$GPHDT,,T*1B
$GPTHS,,V*0E
$GPROT,,V*08
$PSSN,HRP,004552.00,010125,,,,,,,00,0,,*67
$PTNL,AVR,004552.00,,Yaw,,Tilt,,,,0,,00*31
$GPGSA,A,3,02,03,04,17,19,21,28,31,32,,,,0.8,0.5,0.7*39
$GPGSA,A,3,68,69,70,77,84,85,,,,,,,0.8,0.5,0.7*3F
$GPGSA,A,3,04,06,09,10,11,12,30,34,36,,,,0.8,0.5,0.7*30
$GPGSA,A,3,05,06,09,16,19,20,29,30,32,35,39,60,0.8,0.5,0.7*3C
$GPGST,004552.00,1.146,0.468,0.315,27.725,0.439,0.354,0.798*61
$GPGBS,004552.00,3.778,1.937,4.726,68,0.0001,4.130,6.295*58
$GPGRS,004552.00,1,0.1,-0.0,0.4,-0.3,0.0,-0.1,0.0,0.1,-0.0,,,*60
$GPGRS,004552.00,1,4.1,-0.7,-0.5,-3.4,-0.9,1.0,,,,,,*40
$GPGRS,004552.00,1,-0.1,-0.2,0.4,0.6,-0.0,-0.3,-0.4,-0.8,0.0,,,*68
$GPGRS,004552.00,1,1.3,-0.2,1.2,-0.5,0.4,-0.0,0.5,0.3,0.3,-0.7,0.4,-0.6*67
$GPGSV,6,1,21,01,78,131,,32,19,045,41,19,18,320,39,04,29,200,43*7D
$GPGSV,6,2,21,31,21,110,42,28,26,080,42,17,38,295,45,21,51,140,45*78
$GPGSV,6,3,21,03,67,286,50,02,72,151,49,08,03,180,20,09,05,212,37*72
$GPGSV,6,4,21,36,35,170,45,58,13,245,37,40,24,132,36,34,31,208,42*7A
$GPGSV,6,5,21,49,34,195,44,57,10,109,39,41,07,108,34,61,03,257,37*73
$GPGSV,6,6,21*7A
$GLGSV,2,1,08,69,75,026,52,85,49,321,51,70,34,230,40,68,23,041,46*69
$GLGSV,2,2,08,84,72,155,40,83,08,147,26,78,03,060,43,77,08,007,38*6D
$GAGSV,3,1,11,11,70,121,45,19,15,042,35,12,17,124,35,09,46,187,47*60
$GAGSV,3,2,11,10,41,124,45,04,64,088,47,06,64,155,48,36,55,307,47*65
$GAGSV,3,3,11,30,06,320,37,34,05,305,37,02,03,273,35*59
$GBGSV,5,1,17,20,80,238,52,30,26,165,44,05,24,128,38,22,27,225,*6B
$GBGSV,5,2,17,35,27,312,45,39,27,053,42,09,30,084,41,06,29,069,39*6C
$GBGSV,5,3,17,19,29,236,46,16,29,065,41,32,40,056,48,48,57,236,*64
$GBGSV,5,4,17,29,65,234,51,13,02,084,35,02,08,105,34,57,06,098,*63
$GBGSV,5,5,17,60,10,109,41*57
$GPGGA,004552.00,,,,,0,00,,,M,,M,,*4E
$PTNL,GGK,004552.00,010125,4742.1603615,N,01618.1002764,E,1,36,0.8,EHT751.4884,M*49
$GPGGQ,004552.00,010125,4742.1603615,N,01618.1002764,E,1,36,0.977,708.2818,M*39
$GPGFA,004552.00,4.448,6.543,0.468,0.315,27.725,0.798,,VVV*33
$GPLLK,004552.00,010125,,M,,M,1,36,0.9,,M*01
$GNGMP,004552.00,,,,,DAAA,36,0.5,,,,*50
$GPGMP,004552.00,,,,,,09,,,,2.3,136*77
$GLGMP,004552.00,,,,,,06,,,,,*7F
$GAGMP,004552.00,,,,,,09,,,,,*7D
$GBGMP,004552.00,,,,,,12,,,,,*74
$PSSN,SNC,[0,261970000,2347]*4F
$GPZDA,004557.00,01,01,2025,,*60
$GPDTM,W84,,00.0000000,N,00.0000000,E,00.0000000,W84*5F
$PSSN,TFM,004557.00,,,,*6C
$GPRMC,004557.00,A,4742.1603640,N,01618.1002754,E,0.0,,010125,5.1,E,D*16
$GPGLL,4742.1603640,N,01618.1002754,E,004557.00,A,D*67
$GPGGA,004557.00,4742.1603640,N,01618.1002754,E,2,37,0.5,708.2846,M,43.2066,M,2.0,0136*4F
$GNGNS,004557.00,4742.1603640,N,01618.1002754,E,DAAA,37,0.5,708.2846,43.2066,,*55
$GPGNS,004557.00,,,,,,09,,,,2.0,136*71
$GLGNS,004557.00,,,,,,06,,,,,*7A
$GAGNS,004557.00,,,,,,10,,,,,*70
$GBGNS,004557.00,,,,,,12,,,,,*71
$GPLLQ,004557.00,010125,,M,,M,1,37,0.958,,M*12
$GPVTG,,T,,M,0.00,N,0.01,K,D*27
$GPHDT,,T*1B
$GPTHS,,V*0E
$GPROT,,V*08
$PSSN,HRP,004557.00,010125,,,,,,,00,0,,*62
$PTNL,AVR,004557.00,,Yaw,,Tilt,,,,0,,00*34
$GPGSA,A,3,02,03,04,17,19,21,28,31,32,,,,0.8,0.5,0.7*39
$GPGSA,A,3,68,69,70,77,84,85,,,,,,,0.8,0.5,0.7*3F
$GPGSA,A,3,04,06,09,10,11,12,19,30,34,36,,,0.8,0.5,0.7*38
$GPGSA,A,3,05,06,09,16,19,20,29,30,32,35,39,60,0.8,0.5,0.7*3C
$GPGST,004557.00,1.115,0.458,0.316,27.800,0.431,0.352,0.780*6D
$GPGBS,004557.00,3.764,1.936,4.782,68,0.0001,4.186,6.296*51
$GPGRS,004557.00,1,-0.3,0.1,0.2,-0.1,-0.4,0.2,0.0,0.4,-0.1,,,*61
$GPGRS,004557.00,1,4.2,-0.6,0.3,-3.3,-0.4,0.7,,,,,,*60
$GPGRS,004557.00,1,-0.2,0.0,0.5,0.7,-0.2,-0.3,-0.1,-0.2,-0.7,0.2,,*4A
$GPGRS,004557.00,1,1.2,-0.5,1.6,-0.6,-0.0,-0.1,0.5,0.0,0.5,-0.7,-0.1,-0.4*64
$GPGSV,6,1,21,01,78,131,,32,19,045,41,19,18,320,39,04,29,200,44*7A
$GPGSV,6,2,21,31,21,110,43,28,26,080,42,17,38,295,45,21,51,140,45*79
$GPGSV,6,3,21,03,67,286,50,02,72,151,50,08,03,180,21,09,05,212,37*7B
$GPGSV,6,4,21,36,35,170,44,58,13,245,37,40,24,132,36,34,31,208,42*7B
$GPGSV,6,5,21,49,34,195,44,57,10,109,39,41,07,108,34,61,03,257,37*73
$GPGSV,6,6,21*7A
$GLGSV,2,1,08,69,75,026,52,85,49,321,51,70,34,230,40,68,23,041,46*69
$GLGSV,2,2,08,84,72,155,40,83,08,147,26,78,03,060,43,77,08,007,39*6C
$GAGSV,3,1,11,11,70,121,45,19,15,042,35,12,17,124,35,09,46,187,47*60
$GAGSV,3,2,11,10,41,124,45,04,64,088,47,06,64,155,48,36,55,307,47*65
$GAGSV,3,3,11,30,06,320,37,34,05,305,37,02,03,273,35*59
$GBGSV,5,1,17,20,80,238,52,30,26,165,44,05,24,128,38,22,27,225,*6B
$GBGSV,5,2,17,35,27,312,45,39,27,053,43,09,30,084,41,06,29,069,40*63
$GBGSV,5,3,17,19,29,236,46,16,29,065,41,32,40,056,48,48,57,236,*64
$GBGSV,5,4,17,29,65,234,51,13,02,084,35,02,08,105,34,57,06,098,*63
$GBGSV,5,5,17,60,10,109,41*57
$GPGGA,004557.00,,,,,0,00,,,M,,M,,*4B
$PTNL,GGK,004557.00,010125,4742.1603640,N,01618.1002754,E,1,37,0.8,EHT751.4912,M*40
$GPGGQ,004557.00,010125,4742.1603640,N,01618.1002754,E,1,37,0.958,708.2846,M*38
$GPGFA,004557.00,4.358,6.392,0.458,0.316,27.800,0.780,,VVV*3B
$GPLLK,004557.00,010125,,M,,M,1,37,0.9,,M*05
$GNGMP,004557.00,,,,,DAAA,37,0.5,,,,*54
$GPGMP,004557.00,,,,,,09,,,,2.0,136*71
$GLGMP,004557.00,,,,,,06,,,,,*7A
$GAGMP,004557.00,,,,,,10,,,,,*70
$GBGMP,004557.00,,,,,,12,,,,,*71
$PSSN,SNC,[0,261975000,2347]*4A
$GPZDA,004602.00,01,01,2025,,*63
$GPDTM,W84,,00.0000000,N,00.0000000,E,00.0000000,W84*5F
$PSSN,TFM,004602.00,,,,*6F
$GPRMC,004602.00,A,4742.1603643,N,01618.1002728,E,0.0,,010125,5.1,E,D*1D
$GPGLL,4742.1603643,N,01618.1002728,E,004602.00,A,D*6C
$GPGGA,004602.00,4742.1603643,N,01618.1002728,E,2,36,0.5,708.2866,M,43.2066,M,3.0,0136*46
$GNGNS,004602.00,4742.1603643,N,01618.1002728,E,DAAA,36,0.5,708.2866,43.2066,,*5D
$GPGNS,004602.00,,,,,,09,,,,3.0,136*73
$GLGNS,004602.00,,,,,,06,,,,,*79
$GAGNS,004602.00,,,,,,09,,,,,*7B
$GBGNS,004602.00,,,,,,12,,,,,*72
$GPLLQ,004602.00,010125,,M,,M,1,36,0.972,,M*18
$GPVTG,,T,,M,0.01,N,0.01,K,D*26
$GPHDT,,T*1B
$GPTHS,,V*0E
$GPROT,,V*08
$PSSN,HRP,004602.00,010125,,,,,,,00,0,,*61
$PTNL,AVR,004602.00,,Yaw,,Tilt,,,,0,,00*37
$GPGSA,A,3,02,03,04,17,19,21,28,31,32,,,,0.8,0.5,0.7*39
$GPGSA,A,3,68,69,70,77,84,85,,,,,,,0.8,0.5,0.7*3F
$GPGSA,A,3,04,06,09,10,11,12,30,34,36,,,,0.8,0.5,0.7*30
$GPGSA,A,3,05,06,09,16,19,20,29,30,32,35,39,60,0.8,0.5,0.7*3C
$GPGST,004602.00,1.220,0.463,0.320,27.117,0.437,0.354,0.793*6B
$GPGBS,004602.00,3.830,1.968,4.840,68,0.0001,4.663,6.296*5A
$GPGRS,004602.00,1,-0.2,-0.1,0.3,-0.2,0.1,-0.0,0.2,0.3,-0.1,,,*4E
$GPGRS,004602.00,1,4.7,-0.5,-0.6,-3.5,-1.1,0.7,,,,,,*4F
$GPGRS,004602.00,1,-0.2,-0.1,0.3,0.4,-0.3,-0.6,0.1,-0.9,-0.1,,,*68
$GPGRS,004602.00,1,0.9,-0.3,1.1,-0.4,-0.7,-0.3,0.3,-0.2,0.4,-0.9,0.1,-0.7*63
$GPGSV,6,1,21,01,78,131,,32,18,045,41,19,18,320,40,28,26,080,42*78
$GPGSV,6,2,21,04,29,200,44,31,21,110,42,17,38,295,45,21,51,140,45*75
$GPGSV,6,3,21,03,67,286,50,02,72,151,49,09,05,212,37,08,03,180,19*78
$GPGSV,6,4,21,36,35,170,45,58,13,245,37,40,24,132,35,34,31,208,42*79
$GPGSV,6,5,21,49,34,195,44,57,10,109,39,41,07,108,34,61,03,257,37*73
$GPGSV,6,6,21*7A
$GLGSV,2,1,08,69,75,026,52,85,49,321,51,70,34,230,40,68,23,041,47*68
$GLGSV,2,2,08,84,71,155,40,83,08,147,26,78,03,060,43,77,08,007,37*61
$GAGSV,3,1,11,11,70,122,45,19,15,042,35,12,17,124,36,09,46,187,47*60
$GAGSV,3,2,11,10,41,124,45,04,64,088,47,06,64,155,48,36,55,307,46*64
$GAGSV,3,3,11,30,06,320,38,34,05,305,36,02,03,273,35*57
$GBGSV,5,1,17,20,80,239,52,30,26,165,44,05,24,128,38,22,27,225,*6A
$GBGSV,5,2,17,35,27,312,45,39,27,053,43,09,30,084,41,06,29,069,40*63
$GBGSV,5,3,17,19,29,237,46,16,29,065,42,32,39,056,48,48,57,236,*68
$GBGSV,5,4,17,29,65,233,51,13,02,084,35,02,08,105,34,57,06,098,*64
$GBGSV,5,5,17,60,10,109,41*57
$GPGGA,004602.00,,,,,0,00,,,M,,M,,*48
$PTNL,GGK,004602.00,010125,4742.1603643,N,01618.1002728,E,1,36,0.8,EHT751.4932,M*48
$GPGGQ,004602.00,010125,4742.1603643,N,01618.1002728,E,1,36,0.972,708.2866,M*38
$GPGFA,004602.00,4.402,6.499,0.463,0.320,27.117,0.793,,VVV*3C
$GPLLK,004602.00,010125,,M,,M,1,36,0.9,,M*07
$GNGMP,004602.00,,,,,DAAA,36,0.5,,,,*56
$GPGMP,004602.00,,,,,,09,,,,3.0,136*73
$GLGMP,004602.00,,,,,,06,,,,,*79
$GAGMP,004602.00,,,,,,09,,,,,*7B
$GBGMP,004602.00,,,,,,12,,,,,*72
$PSSN,SNC,[0,261980000,2347]*40
$GPZDA,004607.00,01,01,2025,,*66
$GPDTM,W84,,00.0000000,N,00.0000000,E,00.0000000,W84*5F
$PSSN,TFM,004607.00,,,,*6A
$GPRMC,004607.00,A,4742.1603656,N,01618.1002726,E,0.0,,010125,5.1,E,D*12
$GPGLL,4742.1603656,N,01618.1002726,E,004607.00,A,D*63
$GPGGA,004607.00,4742.1603656,N,01618.1002726,E,2,37,0.5,708.2905,M,43.2066,M,2.7,0136*4A
$GNGNS,004607.00,4742.1603656,N,01618.1002726,E,DAAA,37,0.5,708.2905,43.2066,,*57
$GPGNS,004607.00,,,,,,09,,,,2.7,136*70
$GLGNS,004607.00,,,,,,06,,,,,*7C
$GAGNS,004607.00,,,,,,10,,,,,*76
$GBGNS,004607.00,,,,,,12,,,,,*77
$GPLLQ,004607.00,010125,,M,,M,1,37,0.986,,M*17
$GPVTG,,T,,M,0.00,N,0.01,K,D*27
$GPHDT,,T*1B
$GPTHS,,V*0E
$GPROT,,V*08
$PSSN,HRP,004607.00,010125,,,,,,,00,0,,*64
$PTNL,AVR,004607.00,,Yaw,,Tilt,,,,0,,00*32
$GPGSA,A,3,02,03,04,17,19,21,28,31,32,,,,0.8,0.5,0.7*39
$GPGSA,A,3,68,69,70,77,84,85,,,,,,,0.8,0.5,0.7*3F
$GPGSA,A,3,04,06,09,10,11,12,19,30,34,36,,,0.8,0.5,0.7*38
$GPGSA,A,3,05,06,09,16,19,20,29,30,32,35,39,60,0.8,0.5,0.7*3C
$GPGST,004607.00,1.218,0.469,0.319,27.345,0.442,0.356,0.806*63
$GPGBS,004607.00,3.854,1.966,4.933,68,0.0001,4.685,6.297*5F
$GPGRS,004607.00,1,-0.1,-0.0,0.1,-0.2,0.7,0.0,0.3,-0.2,-0.2,,,*4E
$GPGRS,004607.00,1,4.7,-0.9,0.1,-3.5,-1.1,1.0,,,,,,*6A
$GPGRS,004607.00,1,-0.2,-0.1,0.1,0.3,-0.2,-0.4,-0.4,-0.1,-0.7,-0.2,,*4C
$GPGRS,004607.00,1,1.0,0.5,1.0,0.3,-0.6,-0.3,0.4,-0.3,0.4,-1.1,0.1,-0.9*6E
$GPGSV,6,1,21,01,77,131,,32,18,045,40,19,18,320,39,28,26,080,43*79
$GPGSV,6,2,21,04,29,200,43,31,21,110,43,17,38,295,45,21,51,140,45*73
$GPGSV,6,3,21,03,67,286,50,02,72,151,49,09,05,212,37,08,03,180,*70
$GPGSV,6,4,21,36,35,170,45,58,13,245,37,40,24,132,36,34,31,208,42*7A
$GPGSV,6,5,21,49,34,195,44,57,10,109,39,41,07,108,34,61,03,257,37*73
$GPGSV,6,6,21*7A
$GLGSV,2,1,08,69,75,026,52,85,49,321,51,70,34,230,40,68,23,041,46*69
$GLGSV,2,2,08,84,71,155,41,83,07,147,25,78,04,060,43,77,08,007,38*64
$GAGSV,3,1,11,11,70,122,45,19,15,042,35,12,17,124,36,09,46,187,46*61
$GAGSV,3,2,11,10,41,124,45,04,64,087,47,06,64,155,48,36,55,307,47*6A
$GAGSV,3,3,11,30,06,320,37,34,05,305,36,02,03,273,35*58
$GBGSV,5,1,17,20,80,239,52,30,26,165,44,05,24,128,37,22,27,225,*65
$GBGSV,5,2,17,35,27,312,45,39,27,053,43,09,30,084,41,06,29,069,40*63
$GBGSV,5,3,17,19,29,237,45,16,29,065,42,32,39,056,48,48,57,236,*6B
$GBGSV,5,4,17,29,65,233,51,13,02,084,35,02,08,105,34,57,06,098,*64
$GBGSV,5,5,17,60,10,109,41*57
$GPGGA,004607.00,,,,,0,00,,,M,,M,,*4D
$PTNL,GGK,004607.00,010125,4742.1603656,N,01618.1002726,E,1,37,0.8,EHT751.4971,M*41
$GPGGQ,004607.00,010125,4742.1603656,N,01618.1002726,E,1,37,0.986,708.2905,M*39
$GPGFA,004607.00,4.459,6.610,0.469,0.319,27.345,0.806,,VVV*32
$GPLLK,004607.00,010125,,M,,M,1,37,0.9,,M*03
$GNGMP,004607.00,,,,,DAAA,37,0.5,,,,*52
$GPGMP,004607.00,,,,,,09,,,,2.7,136*70
$GLGMP,004607.00,,,,,,06,,,,,*7C
$GAGMP,004607.00,,,,,,10,,,,,*76
$GBGMP,004607.00,,,,,,12,,,,,*77
$PSSN,SNC,[0,261985000,2347]*45
$GPZDA,004612.00,01,01,2025,,*62
$GPDTM,W84,,00.0000000,N,00.0000000,E,00.0000000,W84*5F
$PSSN,TFM,004612.00,,,,*6E
$GPRMC,004612.00,A,4742.1603663,N,01618.1002721,E,0.0,,010125,5.1,E,D*17
$GPGLL,4742.1603663,N,01618.1002721,E,004612.00,A,D*66
$GPGGA,004612.00,4742.1603663,N,01618.1002721,E,2,36,0.5,708.2931,M,43.2066,M,3.3,0136*4C
$GNGNS,004612.00,4742.1603663,N,01618.1002721,E,DAAA,36,0.5,708.2931,43.2066,,*54
$GPGNS,004612.00,,,,,,09,,,,3.3,136*71
$GLGNS,004612.00,,,,,,06,,,,,*78
$GAGNS,004612.00,,,,,,09,,,,,*7A
$GBGNS,004612.00,,,,,,12,,,,,*73
$GPLLQ,004612.00,010125,,M,,M,1,36,1.006,,M*12
$GPVTG,,T,,M,0.01,N,0.02,K,D*25
$GPHDT,,T*1B
$GPTHS,,V*0E
$GPROT,,V*08
$PSSN,HRP,004612.00,010125,,,,,,,00,0,,*60
$PTNL,AVR,004612.00,,Yaw,,Tilt,,,,0,,00*36
$GPGSA,A,3,02,03,04,17,19,21,28,31,32,,,,0.8,0.5,0.7*39
$GPGSA,A,3,68,69,70,77,84,85,,,,,,,0.8,0.5,0.7*3F
$GPGSA,A,3,04,06,09,10,11,12,30,34,36,,,,0.8,0.5,0.7*30
$GPGSA,A,3,05,06,09,16,19,20,29,30,32,35,39,60,0.8,0.5,0.7*3C
$GPGST,004612.00,1.259,0.477,0.324,27.334,0.449,0.362,0.824*69
$GPGBS,004612.00,3.930,1.999,5.014,77,0.0001,-4.537,7.212*70
$GPGRS,004612.00,1,-0.1,0.1,0.2,-0.4,0.6,-0.2,0.1,0.1,0.1,,,*4F
$GPGRS,004612.00,1,3.5,-0.5,-0.1,-4.5,-2.1,1.4,,,,,,*4A
$GPGRS,004612.00,1,-0.2,-0.0,0.1,0.7,-0.2,-0.5,-0.6,-0.6,-0.1,,,*4E
$GPGRS,004612.00,1,1.2,0.4,0.2,0.6,-0.2,-0.2,0.4,-0.1,0.4,-1.0,-0.2,-1.0*4F
$GPGSV,6,1,21,01,77,131,,32,18,045,41,19,18,320,40,28,26,080,42*77
$GPGSV,6,2,21,04,29,200,43,31,21,110,42,17,38,295,45,21,51,140,45*72
$GPGSV,6,3,21,03,67,286,50,02,72,151,49,09,05,212,37,08,03,180,*70
$GPGSV,6,4,21,36,35,170,45,58,13,245,37,40,24,132,35,34,31,208,42*79
$GPGSV,6,5,21,49,34,195,44,57,10,109,39,41,07,108,34,61,03,257,37*73
$GPGSV,6,6,21*7A
$GLGSV,2,1,08,69,75,026,52,85,49,321,51,70,34,230,40,68,23,041,46*69
$GLGSV,2,2,08,84,71,155,40,83,07,147,25,78,04,060,44,77,08,007,37*6D
$GAGSV,3,1,11,11,70,122,44,19,15,042,35,12,17,124,35,09,46,187,46*63
$GAGSV,3,2,11,10,41,124,45,04,64,087,47,06,64,155,48,36,55,307,46*6B
$GAGSV,3,3,11,30,06,320,36,34,05,305,37,02,03,272,35*59
$GBGSV,5,1,17,20,80,239,52,30,26,165,45,05,24,128,38,22,27,225,*6B
$GBGSV,5,2,17,35,27,312,45,39,27,053,43,09,30,084,40,06,29,069,41*63
$GBGSV,5,3,17,19,29,237,46,16,29,065,42,32,39,056,48,48,57,236,*68
$GBGSV,5,4,17,29,65,233,51,13,02,084,35,02,08,105,34,57,06,098,*64
$GBGSV,5,5,17,60,10,109,41*57
$GPGGA,004612.00,,,,,0,00,,,M,,M,,*49
$PTNL,GGK,004612.00,010125,4742.1603663,N,01618.1002721,E,1,36,0.8,EHT751.4996,M*4C
$GPGGQ,004612.00,010125,4742.1603663,N,01618.1002721,E,1,36,1.006,708.2931,M*3A
$GPGFA,004612.00,4.538,6.757,0.477,0.324,27.334,0.824,,VVV*35
$GPLLK,004612.00,010125,,M,,M,1,36,0.9,,M*06
$GNGMP,004612.00,,,,,DAAA,36,0.5,,,,*57
$GPGMP,004612.00,,,,,,09,,,,3.3,136*71
$GLGMP,004612.00,,,,,,06,,,,,*78
$GAGMP,004612.00,,,,,,09,,,,,*7A
$GBGMP,004612.00,,,,,,12,,,,,*73
$PSSN,SNC,[0,261990000,2347]*41
$GPZDA,004617.00,01,01,2025,,*67
$GPDTM,W84,,00.0000000,N,00.0000000,E,00.0000000,W84*5F
$PSSN,TFM,004617.00,,,,*6B
$GPRMC,004617.00,A,4742.1603652,N,01618.1002720,E,0.0,,010125,5.1,E,D*11
$GPGLL,4742.1603652,N,01618.1002720,E,004617.00,A,D*60
$GPGGA,004617.00,4742.1603652,N,01618.1002720,E,2,36,0.5,708.2991,M,43.2066,M,2.3,0136*41
$GNGNS,004617.00,4742.1603652,N,01618.1002720,E,DAAA,36,0.5,708.2991,43.2066,,*58
$GPGNS,004617.00,,,,,,09,,,,2.3,136*75
$GLGNS,004617.00,,,,,,06,,,,,*7D
$GAGNS,004617.00,,,,,,09,,,,,*7F
$GBGNS,004617.00,,,,,,12,,,,,*76
$GPLLQ,004617.00,010125,,M,,M,1,36,0.977,,M*19
$GPVTG,,T,,M,0.00,N,0.01,K,D*27
$GPHDT,,T*1B
$GPTHS,,V*0E
$GPROT,,V*08
$PSSN,HRP,004617.00,010125,,,,,,,00,0,,*65
$PTNL,AVR,004617.00,,Yaw,,Tilt,,,,0,,00*33
$GPGSA,A,3,02,03,04,17,19,21,28,31,32,,,,0.8,0.5,0.7*39
$GPGSA,A,3,68,69,70,77,84,85,,,,,,,0.8,0.5,0.7*3F
$GPGSA,A,3,04,06,09,10,11,12,30,34,36,,,,0.8,0.5,0.7*30
$GPGSA,A,3,05,06,09,16,19,20,29,30,32,35,39,60,0.8,0.5,0.7*3C
$GPGST,004617.00,1.259,0.468,0.314,27.932,0.439,0.354,0.798*67
$GPGBS,004617.00,3.777,1.941,4.728,77,0.0001,-4.493,7.213*7A
$GPGRS,004617.00,1,-0.0,0.0,0.4,-0.3,0.7,-0.3,0.2,0.1,-0.2,,,*66
$GPGRS,004617.00,1,3.7,-0.3,-0.0,-4.5,-1.6,1.1,,,,,,*4B
$GPGRS,004617.00,1,-0.0,0.1,0.1,0.7,-0.1,-0.9,-0.7,-0.2,0.0,,,*43
$GPGRS,004617.00,1,0.8,1.1,-0.2,0.8,-0.2,-0.3,0.4,-0.4,0.3,-1.1,-0.4,-0.7*64
$GPGSV,6,1,21,01,77,131,,32,18,045,41,19,18,320,39,28,26,080,42*79
$GPGSV,6,2,21,04,29,200,43,31,21,110,43,17,38,295,45,21,51,140,45*73
$GPGSV,6,3,21,03,67,286,49,02,72,151,49,09,05,212,37,08,03,180,*78
$GPGSV,6,4,21,36,35,170,45,58,13,245,37,40,24,132,35,34,31,208,42*79
$GPGSV,6,5,21,49,34,195,44,57,10,109,39,41,07,108,34,61,03,257,37*73
$GPGSV,6,6,21*7A
$GLGSV,2,1,08,69,75,026,52,85,49,321,51,70,34,230,40,68,23,041,46*69
$GLGSV,2,2,08,84,71,155,41,83,07,147,24,78,04,060,43,77,08,007,38*65
$GAGSV,3,1,11,11,70,122,44,19,15,042,34,12,17,124,35,09,46,187,46*62
$GAGSV,3,2,11,10,41,124,45,04,63,087,47,06,64,155,48,36,55,307,47*6D
$GAGSV,3,3,11,30,06,320,36,34,05,305,37,02,03,272,35*59
$GBGSV,5,1,17,20,80,239,52,30,26,165,44,05,24,128,37,22,27,225,*65
$GBGSV,5,2,17,35,27,312,44,39,27,053,43,09,30,084,40,06,29,069,41*62
$GBGSV,5,3,17,19,29,237,46,16,29,065,42,32,39,056,48,48,57,236,*68
$GBGSV,5,4,17,29,65,233,50,13,02,084,35,02,08,105,34,57,06,098,*65
$GBGSV,5,5,17,60,10,109,41*57
$GPGGA,004617.00,,,,,0,00,,,M,,M,,*4C
$PTNL,GGK,004617.00,010125,4742.1603652,N,01618.1002720,E,1,36,0.8,EHT751.5056,M*4E
$GPGGQ,004617.00,010125,4742.1603652,N,01618.1002720,E,1,36,0.977,708.2991,M*38
$GPGFA,004617.00,4.449,6.547,0.468,0.314,27.932,0.798,,VVV*3D
$GPLLK,004617.00,010125,,M,,M,1,36,0.9,,M*03
$GNGMP,004617.00,,,,,DAAA,36,0.5,,,,*52
$GPGMP,004617.00,,,,,,09,,,,2.3,136*75
$GLGMP,004617.00,,,,,,06,,,,,*7D
$GAGMP,004617.00,,,,,,09,,,,,*7F
$GBGMP,004617.00,,,,,,12,,,,,*76
$PSSN,SNC,[0,261995000,2347]*44
$GPZDA,004622.00,01,01,2025,,*61
$GPDTM,W84,,00.0000000,N,00.0000000,E,00.0000000,W84*5F
$PSSN,TFM,004622.00,,,,*6D
$GPRMC,004622.00,A,4742.1603689,N,01618.1002719,E,0.0,,010125,5.1,E,D*1B
$GPGLL,4742.1603689,N,01618.1002719,E,004622.00,A,D*6A
$GPGGA,004622.00,4742.1603689,N,01618.1002719,E,2,36,0.5,708.3053,M,43.2066,M,2.0,0136*4E
$GNGNS,004622.00,4742.1603689,N,01618.1002719,E,DAAA,36,0.5,708.3053,43.2066,,*54
$GPGNS,004622.00,,,,,,09,,,,2.0,136*70
$GLGNS,004622.00,,,,,,06,,,,,*7B
$GAGNS,004622.00,,,,,,09,,,,,*79
$GBGNS,004622.00,,,,,,12,,,,,*70
$GPLLQ,004622.00,010125,,M,,M,1,36,0.962,,M*1B
$GPVTG,,T,,M,0.00,N,0.01,K,D*27
$GPHDT,,T*1B
$GPTHS,,V*0E
$GPROT,,V*08
$PSSN,HRP,004622.00,010125,,,,,,,00,0,,*63
$PTNL,AVR,004622.00,,Yaw,,Tilt,,,,0,,00*35
$GPGSA,A,3,02,03,04,17,19,21,28,31,32,,,,0.8,0.5,0.7*39
$GPGSA,A,3,68,69,70,77,84,85,,,,,,,0.8,0.5,0.7*3F
$GPGSA,A,3,04,06,09,10,11,12,30,34,36,,,,0.8,0.5,0.7*30
$GPGSA,A,3,05,06,09,16,19,20,29,30,32,35,39,60,0.8,0.5,0.7*3C
$GPGST,004622.00,1.144,0.460,0.316,27.811,0.433,0.352,0.784*65
$GPGBS,004622.00,3.782,1.949,4.774,68,0.0001,4.177,6.300*59
$GPGRS,004622.00,1,-0.0,-0.2,0.4,-0.4,0.6,-0.0,0.0,0.3,-0.3,,,*4B
$GPGRS,004622.00,1,4.2,-0.6,0.9,-3.0,-1.1,0.6,,,,,,*6D
$GPGRS,004622.00,1,0.0,0.0,0.3,0.7,0.0,-0.7,-0.2,-0.1,-0.0,,,*62
$GPGRS,004622.00,1,1.3,1.4,-0.1,0.2,-0.4,-0.4,0.4,-0.5,0.5,-1.0,-0.4,-0.8*6C
$GPGSV,6,1,21,01,77,131,,32,18,045,41,19,18,320,40,28,26,080,42*77
$GPGSV,6,2,21,04,29,200,42,31,21,110,43,17,38,294,45,21,51,140,45*73
$GPGSV,6,3,21,03,67,286,49,02,72,151,49,09,05,212,36,08,03,180,*79
$GPGSV,6,4,21,36,35,170,45,58,13,245,37,40,24,132,36,34,31,208,42*7A
$GPGSV,6,5,21,49,34,195,44,57,10,109,39,41,07,108,34,61,03,257,37*73
$GPGSV,6,6,21*7A
$GLGSV,2,1,08,69,75,026,52,85,49,321,51,70,34,230,40,68,23,041,46*69
$GLGSV,2,2,08,84,71,155,40,83,07,147,24,78,04,060,43,77,08,007,38*64
$GAGSV,3,1,11,11,70,122,44,19,15,042,34,12,17,124,35,09,46,187,47*63
$GAGSV,3,2,11,10,41,124,45,04,63,087,47,36,56,307,47,06,64,155,48*6E
$GAGSV,3,3,11,30,06,320,37,34,05,305,37,02,03,272,35*58
$GBGSV,5,1,17,20,80,239,51,30,26,165,45,05,24,128,37,22,27,225,*67
$GBGSV,5,2,17,35,27,312,45,39,27,053,43,09,30,084,40,06,29,069,41*63
$GBGSV,5,3,17,19,29,237,45,16,29,065,42,32,39,056,48,48,57,236,*6B
$GBGSV,5,4,17,29,65,233,50,13,02,084,35,02,08,105,34,57,06,098,*65
