$GPZDA,104442.00,01,01,2025,,*64
$GPDTM,W84,,00.0000000,N,00.0000000,E,00.0000000,W84*5F
$PSSN,TFM,104442.00,,,,*68
$GPRMC,104442.00,A,4742.1601436,N,01618.0999963,E,0.0,,010125,5.1,E,D*13
$GPGLL,4742.1601436,N,01618.0999963,E,104442.00,A,D*62
$GPGGA,104442.00,4742.1601436,N,01618.0999963,E,2,38,0.4,707.9983,M,43.2066,M,2.3,0136*4B
$GNGNS,104442.00,4742.1601436,N,01618.0999963,E,DAAA,38,0.4,707.9983,43.2066,,*52
$GPGNS,104442.00,,,,,,09,,,,2.3,136*76
$GLGNS,104442.00,,,,,,09,,,,,*71
$GAGNS,104442.00,,,,,,07,,,,,*72
$GBGNS,104442.00,,,,,,13,,,,,*74
$GPLLQ,104442.00,010125,,M,,M,1,38,1.090,,M*15
$GPVTG,,T,,M,0.00,N,0.01,K,D*27
$GPHDT,,T*1B
$GPTHS,,V*0E
$GPROT,,V*08
$PSSN,HRP,104442.00,010125,,,,,,,00,0,,*66
$PTNL,AVR,104442.00,,Yaw,,Tilt,,,,0,,00*30
$GPGSA,A,3,10,12,13,14,15,17,19,23,24,,,,0.8,0.4,0.7*31
$GPGSA,A,3,65,66,67,68,75,76,77,85,86,,,,0.8,0.4,0.7*35
$GPGSA,A,3,02,03,07,08,10,25,30,,,,,,0.8,0.4,0.7*32
$GPGSA,A,3,05,07,10,14,21,24,26,33,35,40,42,45,0.8,0.4,0.7*3B
$GPGSA,A,3,60,,,,,,,,,,,,0.8,0.4,0.7*3F
$GPGST,104442.00,2.429,0.406,0.299,0.529,0.406,0.299,0.966*5A
$GPGBS,104442.00,2.282,1.595,7.111,77,0.0001,-7.581,6.073*79
$GPGRS,104442.00,1,-1.2,0.3,0.4,0.3,-0.3,0.5,-0.5,-0.3,0.3,,,*63
$GPGRS,104442.00,1,-0.6,-3.6,6.8,4.3,-1.4,-2.1,-7.6,4.3,0.2,,,*42
$GPGRS,104442.00,1,-0.3,-1.1,0.4,-0.2,2.0,0.0,-0.0,,,,,*60
$GPGRS,104442.00,1,1.1,0.7,0.2,1.6,-0.1,-0.0,-0.8,0.1,-1.9,-0.8,-0.3,0.3*43
$GPGRS,104442.00,1,-2.2,,,,,,,,,,,*4A
$GPGSV,5,1,20,24,59,296,49,14,23,058,41,10,14,320,41,12,29,232,45*73
$GPGSV,5,2,20,13,38,157,47,23,20,278,42,17,40,073,47,15,54,208,48*7B
$GPGSV,5,3,20,19,43,118,46,22,44,057,,02,04,026,38,36,35,170,45*77
$GPGSV,5,4,20,58,13,245,36,40,23,133,36,34,31,208,42,49,34,195,44*7C
$GPGSV,5,5,20,57,07,111,38,41,07,108,35,61,03,257,38*46
$GLGSV,3,1,10,76,67,018,52,86,13,109,41,75,14,062,44,67,47,307,51*68
$GLGSV,3,2,10,85,24,055,47,66,50,213,52,77,48,274,45,84,08,005,30*61
$GLGSV,3,3,10,68,07,338,43,65,09,180,38*6A
$GAGSV,3,1,10,02,86,157,49,16,12,054,,07,36,308,44,30,33,230,44*67
$GAGSV,3,2,10,03,30,158,43,25,35,055,44,08,71,221,49,10,05,046,37*62
$GAGSV,3,3,10,11,02,072,33,12,05,024,31*6C
$GBGSV,5,1,20,26,81,016,51,35,21,127,43,40,24,040,42,05,20,130,38*6B
$GBGSV,5,2,20,07,25,052,40,21,11,185,41,45,28,075,45,33,34,301,46*68
$GBGSV,5,3,20,50,27,203,,24,39,267,48,10,36,062,42,25,38,257,*67
$GBGSV,5,4,20,42,41,230,48,14,44,268,46,56,38,069,,29,04,022,*65
$GBGSV,5,5,20,02,04,109,31,41,01,337,,57,01,352,,60,07,111,40*65
$GPGGA,104442.00,,,,,0,00,,,M,,M,,*4F
$PTNL,GGK,104442.00,010125,4742.1601436,N,01618.0999963,E,1,38,0.8,EHT751.2049,M*4B
$GPGGQ,104442.00,010125,4742.1601436,N,01618.0999963,E,1,38,1.090,707.9983,M*32
$GPGFA,104442.00,3.864,7.922,0.406,0.299,0.529,0.966,,VVV*04
$GPLLK,104442.00,010125,,M,,M,1,38,0.9,,M*0E
$GNGMP,104442.00,,,,,DAAA,38,0.4,,,,*5E
$GPGMP,104442.00,,,,,,09,,,,2.3,136*76
$GLGMP,104442.00,,,,,,09,,,,,*71
$GAGMP,104442.00,,,,,,07,,,,,*72
$GBGMP,104442.00,,,,,,13,,,,,*74
$PSSN,SNC,[0,297900000,2347]*41
$GPALM,1,1,05,2347,00,2DE1,63,14D8,FD35,A10D69,36288F,DCD00D,E92CC2,F31,000*73
$GPZDA,104447.00,01,01,2025,,*61
$GPDTM,W84,,00.0000000,N,00.0000000,E,00.0000000,W84*5F
$PSSN,TFM,104447.00,,,,*6D
$GPRMC,104447.00,A,4742.1601450,N,01618.0999894,E,0.0,,010125,5.1,E,D*1F
$GPGLL,4742.1601450,N,01618.0999894,E,104447.00,A,D*6E
$GPGGA,104447.00,4742.1601450,N,01618.0999894,E,2,38,0.4,707.9924,M,43.2066,M,1.6,0136*4C
$GNGNS,104447.00,4742.1601450,N,01618.0999894,E,DAAA,38,0.4,707.9924,43.2066,,*53
$GPGNS,104447.00,,,,,,09,,,,1.6,136*75
$GLGNS,104447.00,,,,,,09,,,,,*74
$GAGNS,104447.00,,,,,,07,,,,,*77
$GBGNS,104447.00,,,,,,13,,,,,*71
$GPLLQ,104447.00,010125,,M,,M,1,38,1.163,,M*1D
$GPVTG,,T,,M,0.01,N,0.01,K,D*26
$GPHDT,,T*1B
$GPTHS,,V*0E
$GPROT,,V*08
$PSSN,HRP,104447.00,010125,,,,,,,00,0,,*63
$PTNL,AVR,104447.00,,Yaw,,Tilt,,,,0,,00*35
$GPGSA,A,3,10,12,13,14,15,17,19,23,24,,,,0.8,0.4,0.7*31
$GPGSA,A,3,65,66,67,68,75,76,77,85,86,,,,0.8,0.4,0.7*35
$GPGSA,A,3,02,03,07,08,10,25,30,,,,,,0.8,0.4,0.7*32
$GPGSA,A,3,05,07,10,14,21,24,26,33,35,40,42,45,0.8,0.4,0.7*3B
$GPGSA,A,3,60,,,,,,,,,,,,0.8,0.4,0.7*3F
$GPGST,104447.00,2.505,0.435,0.320,0.879,0.435,0.320,1.031*52
$GPGBS,104447.00,2.265,1.553,7.163,10,0.0001,-1.654,1.093*7F
$GPGRS,104447.00,1,-1.7,0.3,0.3,0.3,-0.1,0.8,-0.3,-0.5,0.0,,,*68
$GPGRS,104447.00,1,-0.9,-3.6,7.0,4.0,-1.0,-2.1,-7.6,4.8,-0.0,,,*62
$GPGRS,104447.00,1,-0.2,-0.8,0.5,-0.1,2.6,-0.0,0.1,,,,,*69
$GPGRS,104447.00,1,0.9,0.9,0.3,2.5,0.3,0.1,-0.7,-0.2,-1.8,-0.6,-0.5,0.3*6B
$GPGRS,104447.00,1,-2.0,,,,,,,,,,,*4D
$GPGSV,5,1,20,24,59,296,49,14,23,058,42,10,14,320,41,12,29,232,44*71
$GPGSV,5,2,20,13,38,157,47,23,20,278,42,17,40,073,46,15,53,208,48*7D
$GPGSV,5,3,20,19,43,118,46,22,44,057,,02,04,026,38,36,35,170,45*77
$GPGSV,5,4,20,58,13,245,36,40,23,133,37,34,31,208,43,49,34,195,45*7D
$GPGSV,5,5,20,57,07,111,38,41,07,108,35,61,03,257,38*46
$GLGSV,3,1,10,76,67,018,51,86,13,109,42,75,14,062,45,85,24,054,47*62
$GLGSV,3,2,10,67,47,306,51,66,50,213,52,77,48,274,45,84,08,005,30*6A
$GLGSV,3,3,10,68,07,338,42,65,09,180,39*6A
$GAGSV,3,1,10,02,86,157,49,16,12,054,,07,36,308,44,30,33,230,44*67
$GAGSV,3,2,10,03,30,158,43,25,35,055,44,08,71,221,49,10,05,046,37*62
$GAGSV,3,3,10,11,02,072,33,12,05,024,32*6F
$GBGSV,5,1,20,26,81,017,51,35,21,127,44,40,24,040,42,05,20,130,38*6D
$GBGSV,5,2,20,07,25,052,40,21,11,185,42,45,28,075,44,33,34,301,46*6A
$GBGSV,5,3,20,50,27,202,,24,39,267,48,10,36,062,42,25,38,257,*66
$GBGSV,5,4,20,42,41,230,47,14,44,268,46,56,38,069,,29,04,022,*6A
$GBGSV,5,5,20,02,04,109,30,41,01,337,,57,01,352,,60,07,111,40*64
$GPGGA,104447.00,,,,,0,00,,,M,,M,,*4A
$PTNL,GGK,104447.00,010125,4742.1601450,N,01618.0999894,E,1,38,0.8,EHT751.1990,M*49
$GPGGQ,104447.00,010125,4742.1601450,N,01618.0999894,E,1,38,1.163,707.9924,M*3E
$GPGFA,104447.00,4.135,8.450,0.435,0.320,0.879,1.031,,VVV*0D
$GPLLK,104447.00,010125,,M,,M,1,38,0.9,,M*0B
$GNGMP,104447.00,,,,,DAAA,38,0.4,,,,*5B
$GPGMP,104447.00,,,,,,09,,,,1.6,136*75
$GLGMP,104447.00,,,,,,09,,,,,*74
$GAGMP,104447.00,,,,,,07,,,,,*77
$GBGMP,104447.00,,,,,,13,,,,,*71
$PSSN,SNC,[0,297905000,2347]*44
$GPZDA,104452.00,01,01,2025,,*65
$GPDTM,W84,,00.0000000,N,00.0000000,E,00.0000000,W84*5F
$PSSN,TFM,104452.00,,,,*69
$GPRMC,104452.00,A,4742.1601460,N,01618.0999865,E,0.0,,010125,5.1,E,D*16
$GPGLL,4742.1601460,N,01618.0999865,E,104452.00,A,D*67
$GPGGA,104452.00,4742.1601460,N,01618.0999865,E,2,38,0.4,707.9936,M,43.2066,M,2.6,0136*45
$GNGNS,104452.00,4742.1601460,N,01618.0999865,E,DAAA,38,0.4,707.9936,43.2066,,*59
$GPGNS,104452.00,,,,,,09,,,,2.6,136*72
$GLGNS,104452.00,,,,,,09,,,,,*70
$GAGNS,104452.00,,,,,,07,,,,,*73
$GBGNS,104452.00,,,,,,13,,,,,*75
$GPLLQ,104452.00,010125,,M,,M,1,38,1.073,,M*19
$GPVTG,,T,,M,0.01,N,0.01,K,D*26
$GPHDT,,T*1B
$GPTHS,,V*0E
$GPROT,,V*08
$PSSN,HRP,104452.00,010125,,,,,,,00,0,,*67
$PTNL,AVR,104452.00,,Yaw,,Tilt,,,,0,,00*31
$GPGSA,A,3,10,12,13,14,15,17,19,23,24,,,,0.8,0.4,0.7*31
$GPGSA,A,3,65,66,67,68,75,76,77,85,86,,,,0.8,0.4,0.7*35
$GPGSA,A,3,02,03,07,08,10,25,30,,,,,,0.8,0.4,0.7*32
$GPGSA,A,3,05,07,10,14,21,24,26,33,35,40,42,45,0.8,0.4,0.7*3B
$GPGSA,A,3,60,,,,,,,,,,,,0.8,0.4,0.7*3F
$GPGST,104452.00,2.424,0.398,0.295,0.329,0.398,0.295,0.952*57
$GPGBS,104452.00,2.304,1.566,7.290,10,0.0001,-1.525,1.101*7B
$GPGRS,104452.00,1,-1.5,0.1,-0.1,0.1,0.2,0.2,-0.1,0.6,-0.1,,,*65
$GPGRS,104452.00,1,-1.7,-3.1,7.1,3.5,-0.6,-2.6,-7.3,4.4,1.1,,,*49
$GPGRS,104452.00,1,-0.1,-0.8,0.3,-0.3,2.5,0.1,-0.2,,,,,*6B
$GPGRS,104452.00,1,1.0,1.0,0.1,1.9,0.5,-0.2,-0.7,0.2,-1.8,-0.9,-0.6,0.0*68
$GPGRS,104452.00,1,-2.4,,,,,,,,,,,*4D
$GPGSV,5,1,20,24,59,296,49,14,23,058,42,10,14,320,41,12,29,232,44*71
$GPGSV,5,2,20,13,38,157,46,23,20,278,43,17,40,073,47,15,53,208,49*7D
$GPGSV,5,3,20,19,43,118,46,22,44,057,,02,04,026,38,36,35,170,45*77
$GPGSV,5,4,20,58,13,245,36,40,23,133,37,34,31,208,42,49,34,195,45*7C
$GPGSV,5,5,20,57,07,111,38,41,07,108,35,61,03,257,38*46
$GLGSV,3,1,10,76,67,018,51,86,13,109,42,75,14,062,45,67,47,306,51*68
$GLGSV,3,2,10,85,24,054,46,66,50,213,52,77,48,274,45,84,08,005,30*61
$GLGSV,3,3,10,68,07,338,43,65,09,180,38*6A
$GAGSV,3,1,10,02,86,156,49,16,12,054,,07,36,308,44,30,33,230,44*66
$GAGSV,3,2,10,03,30,158,43,25,35,055,43,08,71,221,49,10,05,046,37*65
$GAGSV,3,3,10,11,02,072,33,12,05,024,32*6F
$GBGSV,5,1,20,26,81,017,51,35,21,126,44,40,24,040,42,05,20,130,39*6D
$GBGSV,5,2,20,07,25,052,41,21,11,185,42,45,28,075,44,33,34,301,47*6A
$GBGSV,5,3,20,50,27,202,,24,39,267,48,10,36,062,42,25,38,258,*69
$GBGSV,5,4,20,42,41,230,48,14,44,268,46,56,38,069,,29,04,022,*65
$GBGSV,5,5,20,02,04,109,30,41,01,337,,57,01,352,,60,07,111,40*64
$GPGGA,104452.00,,,,,0,00,,,M,,M,,*4E
$PTNL,GGK,104452.00,010125,4742.1601460,N,01618.0999865,E,1,38,0.8,EHT751.2002,M*41
$GPGGQ,104452.00,010125,4742.1601460,N,01618.0999865,E,1,38,1.073,707.9936,M*34
$GPGFA,104452.00,3.781,7.804,0.398,0.295,0.329,0.952,,VVV*09
$GPLLK,104452.00,010125,,M,,M,1,38,0.9,,M*0F
$GNGMP,104452.00,,,,,DAAA,38,0.4,,,,*5F
$GPGMP,104452.00,,,,,,09,,,,2.6,136*72
$GLGMP,104452.00,,,,,,09,,,,,*70
$GAGMP,104452.00,,,,,,07,,,,,*73
$GBGMP,104452.00,,,,,,13,,,,,*75
$PSSN,SNC,[0,297910000,2347]*40
$GPZDA,104457.00,01,01,2025,,*60
$GPDTM,W84,,00.0000000,N,00.0000000,E,00.0000000,W84*5F
$PSSN,TFM,104457.00,,,,*6C
$GPRMC,104457.00,A,4742.1601482,N,01618.0999830,E,0.0,,010125,5.1,E,D*1F
$GPGLL,4742.1601482,N,01618.0999830,E,104457.00,A,D*6E
$GPGGA,104457.00,4742.1601482,N,01618.0999830,E,2,38,0.4,707.9906,M,43.2066,M,3.6,0136*4E
$GNGNS,104457.00,4742.1601482,N,01618.0999830,E,DAAA,38,0.4,707.9906,43.2066,,*53
$GPGNS,104457.00,,,,,,09,,,,3.6,136*76
$GLGNS,104457.00,,,,,,09,,,,,*75
$GAGNS,104457.00,,,,,,07,,,,,*76
$GBGNS,104457.00,,,,,,13,,,,,*70
$GPLLQ,104457.00,010125,,M,,M,1,38,1.092,,M*13
$GPVTG,,T,,M,0.00,N,0.01,K,D*27
$GPHDT,,T*1B
$GPTHS,,V*0E
$GPROT,,V*08
$PSSN,HRP,104457.00,010125,,,,,,,00,0,,*62
$PTNL,AVR,104457.00,,Yaw,,Tilt,,,,0,,00*34
$GPGSA,A,3,10,12,13,14,15,17,19,23,24,,,,0.8,0.4,0.7*31
$GPGSA,A,3,65,66,67,68,75,76,77,85,86,,,,0.8,0.4,0.7*35
$GPGSA,A,3,02,03,07,08,10,25,30,,,,,,0.8,0.4,0.7*32
$GPGSA,A,3,05,07,10,14,21,24,26,33,35,40,42,45,0.8,0.4,0.7*3B
$GPGSA,A,3,60,,,,,,,,,,,,0.8,0.4,0.7*3F
$GPGST,104457.00,2.389,0.405,0.300,0.075,0.405,0.300,0.969*50
$GPGBS,104457.00,2.348,1.581,7.438,77,0.0001,-7.579,6.073*76
$GPGRS,104457.00,1,-1.4,0.3,-0.3,-0.0,0.2,0.3,0.1,0.1,-0.0,,,*67
$GPGRS,104457.00,1,-0.5,-3.0,7.2,4.5,-0.4,-2.6,-7.6,3.0,1.0,,,*4F
$GPGRS,104457.00,1,-0.1,-0.9,0.3,-0.2,2.3,0.1,-0.1,,,,,*6B
$GPGRS,104457.00,1,0.9,1.0,0.2,1.4,0.5,-0.1,-0.6,0.5,-1.4,-0.6,-0.5,0.6*68
$GPGRS,104457.00,1,-2.2,,,,,,,,,,,*4E
$GPGSV,5,1,20,24,59,296,49,14,23,058,42,10,14,320,42,12,29,232,45*73
$GPGSV,5,2,20,13,38,157,46,23,20,278,43,17,40,073,47,15,53,208,49*7D
$GPGSV,5,3,20,19,43,118,46,22,44,057,,02,04,026,38,36,35,170,45*77
$GPGSV,5,4,20,58,13,245,36,40,23,133,36,34,31,208,42,49,34,195,44*7C
$GPGSV,5,5,20,57,07,111,38,41,07,108,35,61,03,257,38*46
$GLGSV,3,1,10,76,67,018,51,86,13,109,42,75,14,062,45,67,47,306,52*6B
$GLGSV,3,2,10,85,24,054,46,66,50,213,52,77,48,275,45,84,07,005,30*6F
$GLGSV,3,3,10,68,07,338,43,65,09,180,39*6B
$GAGSV,3,1,10,02,86,156,49,16,12,054,,07,36,308,44,30,33,230,44*66
$GAGSV,3,2,10,03,29,158,43,25,35,055,43,08,71,221,49,10,05,046,37*6D
$GAGSV,3,3,10,11,02,072,32,12,05,024,32*6E
$GBGSV,5,1,20,26,81,017,51,35,21,126,44,40,24,040,42,05,20,130,39*6D
$GBGSV,5,2,20,07,25,052,41,21,11,185,42,45,28,075,44,33,34,301,47*6A
$GBGSV,5,3,20,50,27,202,,24,39,267,48,10,36,062,42,25,38,258,*69
$GBGSV,5,4,20,42,41,230,48,14,44,268,46,56,38,069,,29,04,022,*65
$GBGSV,5,5,20,02,04,109,30,41,01,337,,57,01,352,,60,07,111,40*64
$GPGGA,104457.00,,,,,0,00,,,M,,M,,*4B
$PTNL,GGK,104457.00,010125,4742.1601482,N,01618.0999830,E,1,38,0.8,EHT751.1972,M*45
$GPGGQ,104457.00,010125,4742.1601482,N,01618.0999830,E,1,38,1.092,707.9906,M*31
$GPGFA,104457.00,3.848,7.943,0.405,0.300,0.075,0.969,,VVV*08
$GPLLK,104457.00,010125,,M,,M,1,38,0.9,,M*0A
$GNGMP,104457.00,,,,,DAAA,38,0.4,,,,*5A
$GPGMP,104457.00,,,,,,09,,,,3.6,136*76
$GLGMP,104457.00,,,,,,09,,,,,*75
$GAGMP,104457.00,,,,,,07,,,,,*76
$GBGMP,104457.00,,,,,,13,,,,,*70
$PSSN,SNC,[0,297915000,2347]*45
$GPZDA,104502.00,01,01,2025,,*61
$GPDTM,W84,,00.0000000,N,00.0000000,E,00.0000000,W84*5F
$PSSN,TFM,104502.00,,,,*6D
$GPRMC,104502.00,A,4742.1601481,N,01618.0999830,E,0.0,,010125,5.1,E,D*1D
$GPGLL,4742.1601481,N,01618.0999830,E,104502.00,A,D*6C
$GPGGA,104502.00,4742.1601481,N,01618.0999830,E,2,38,0.4,707.9886,M,43.2066,M,2.3,0136*41
$GNGNS,104502.00,4742.1601481,N,01618.0999830,E,DAAA,38,0.4,707.9886,43.2066,,*58
$GPGNS,104502.00,,,,,,09,,,,2.3,136*73
$GLGNS,104502.00,,,,,,09,,,,,*74
$GAGNS,104502.00,,,,,,07,,,,,*77
$GBGNS,104502.00,,,,,,13,,,,,*71
$GPLLQ,104502.00,010125,,M,,M,1,38,1.088,,M*19
$GPVTG,,T,,M,0.00,N,0.01,K,D*27
$GPHDT,,T*1B
$GPTHS,,V*0E
$GPROT,,V*08
$PSSN,HRP,104502.00,010125,,,,,,,00,0,,*63
$PTNL,AVR,104502.00,,Yaw,,Tilt,,,,0,,00*35
$GPGSA,A,3,10,12,13,14,15,17,19,23,24,,,,0.8,0.4,0.7*31
$GPGSA,A,3,65,66,67,68,75,76,77,85,86,,,,0.8,0.4,0.7*35
$GPGSA,A,3,02,03,07,08,10,25,30,,,,,,0.8,0.4,0.7*32
$GPGSA,A,3,05,07,10,14,21,24,26,33,35,40,42,45,0.8,0.4,0.7*3B
$GPGSA,A,3,60,,,,,,,,,,,,0.8,0.4,0.7*3F
$GPGST,104502.00,2.499,0.406,0.299,0.401,0.406,0.299,0.964*5D
$GPGBS,104502.00,2.278,1.593,7.119,77,0.0001,-7.997,6.073*7C
$GPGRS,104502.00,1,-0.5,0.5,-0.0,0.3,-0.2,0.1,-0.2,-0.1,0.2,,,*4E
$GPGRS,104502.00,1,0.1,-3.0,7.8,4.2,-0.9,-2.3,-8.0,3.6,0.7,,,*6B
$GPGRS,104502.00,1,-0.3,-1.1,0.2,-0.2,2.5,0.0,-0.3,,,,,*65
$GPGRS,104502.00,1,1.0,0.7,-0.1,1.6,0.9,0.0,-0.7,-0.1,-1.6,-0.9,-0.7,0.3*49
$GPGRS,104502.00,1,-2.2,,,,,,,,,,,*4F
$GPGSV,5,1,20,24,59,296,49,14,23,058,42,10,14,320,42,12,29,232,46*70
$GPGSV,5,2,20,13,38,158,47,23,20,278,43,17,40,073,46,15,53,208,49*72
$GPGSV,5,3,20,19,43,118,47,22,44,057,,02,04,026,38,36,35,170,44*77
$GPGSV,5,4,20,58,13,245,36,40,23,133,36,34,31,208,42,49,34,195,44*7C
$GPGSV,5,5,20,57,07,111,38,41,07,108,35,61,03,257,38*46
$GLGSV,3,1,10,76,67,018,51,86,13,109,42,75,14,062,45,67,47,306,51*68
$GLGSV,3,2,10,85,24,054,47,66,50,213,52,77,49,275,45,84,07,005,30*6F
$GLGSV,3,3,10,68,07,338,43,65,09,180,39*6B
$GAGSV,3,1,10,02,86,155,49,16,12,054,,07,36,308,44,30,33,230,44*65
$GAGSV,3,2,10,03,29,158,43,25,35,055,44,08,71,221,49,10,05,046,36*6B
$GAGSV,3,3,10,11,02,072,32,12,05,024,31*6D
$GBGSV,5,1,20,26,81,017,51,35,21,126,44,40,24,040,42,05,20,130,38*6C
$GBGSV,5,2,20,07,25,052,41,21,11,185,42,45,28,075,44,33,34,301,46*6B
$GBGSV,5,3,20,50,27,202,,24,39,267,48,10,36,062,42,25,38,258,*69
$GBGSV,5,4,20,42,41,230,48,14,44,268,46,56,38,069,,29,04,022,*65
$GBGSV,5,5,20,02,04,109,30,41,01,337,,57,01,352,,60,07,111,40*64
$GPGGA,104502.00,,,,,0,00,,,M,,M,,*4A
$PTNL,GGK,104502.00,010125,4742.1601481,N,01618.0999830,E,1,38,0.8,EHT751.1952,M*45
$GPGGQ,104502.00,010125,4742.1601481,N,01618.0999830,E,1,38,1.088,707.9886,M*31
$GPGFA,104502.00,3.860,7.907,0.406,0.299,0.401,0.964,,VVV*0B
$GPLLK,104502.00,010125,,M,,M,1,38,0.9,,M*0B
$GNGMP,104502.00,,,,,DAAA,38,0.4,,,,*5B
$GPGMP,104502.00,,,,,,09,,,,2.3,136*73
$GLGMP,104502.00,,,,,,09,,,,,*74
$GAGMP,104502.00,,,,,,07,,,,,*77
$GBGMP,104502.00,,,,,,13,,,,,*71
$PSSN,SNC,[0,297920000,2347]*43
$GPZDA,104507.00,01,01,2025,,*64
$GPDTM,W84,,00.0000000,N,00.0000000,E,00.0000000,W84*5F
$PSSN,TFM,104507.00,,,,*68
$GPRMC,104507.00,A,4742.1601475,N,01618.0999835,E,0.0,,010125,5.1,E,D*16
$GPGLL,4742.1601475,N,01618.0999835,E,104507.00,A,D*67
$GPGGA,104507.00,4742.1601475,N,01618.0999835,E,2,38,0.4,707.9880,M,43.2066,M,1.6,0136*4A
$GNGNS,104507.00,4742.1601475,N,01618.0999835,E,DAAA,38,0.4,707.9880,43.2066,,*55
$GPGNS,104507.00,,,,,,09,,,,1.6,136*70
$GLGNS,104507.00,,,,,,09,,,,,*71
$GAGNS,104507.00,,,,,,07,,,,,*72
$GBGNS,104507.00,,,,,,13,,,,,*74
$GPLLQ,104507.00,010125,,M,,M,1,38,1.063,,M*19
$GPVTG,,T,,M,0.01,N,0.01,K,D*26
$GPHDT,,T*1B
$GPTHS,,V*0E
$GPROT,,V*08
$PSSN,HRP,104507.00,010125,,,,,,,00,0,,*66
$PTNL,AVR,104507.00,,Yaw,,Tilt,,,,0,,00*30
$GPGSA,A,3,10,12,13,14,15,17,19,23,24,,,,0.8,0.4,0.7*31
$GPGSA,A,3,65,66,67,68,75,76,77,85,86,,,,0.8,0.4,0.7*35
$GPGSA,A,3,02,03,07,08,10,25,30,,,,,,0.8,0.4,0.7*32
$GPGSA,A,3,05,07,10,14,21,24,26,33,35,40,42,45,0.8,0.4,0.7*3B
$GPGSA,A,3,60,,,,,,,,,,,,0.8,0.4,0.7*3F
$GPGST,104507.00,2.443,0.398,0.293,0.738,0.398,0.293,0.942*52
$GPGBS,104507.00,2.269,1.551,7.171,77,0.0001,-7.631,6.073*7A
$GPGRS,104507.00,1,-0.9,0.3,0.0,-0.0,-0.1,0.0,-0.1,0.2,0.2,,,*6D
$GPGRS,104507.00,1,-0.3,-3.1,7.5,2.7,-1.3,-2.5,-7.6,4.3,0.6,,,*49
$GPGRS,104507.00,1,-0.2,-0.8,0.4,-0.2,2.6,0.2,-0.3,,,,,*6E
$GPGRS,104507.00,1,1.1,1.1,0.3,1.8,1.0,0.0,-0.6,-0.0,-1.7,-1.1,-0.4,0.1*6A
$GPGRS,104507.00,1,-2.4,,,,,,,,,,,*4C
$GPGSV,5,1,20,24,59,296,49,14,23,058,42,10,14,320,41,12,29,232,45*70
$GPGSV,5,2,20,13,38,158,46,23,20,278,42,17,40,073,47,15,53,208,49*73
$GPGSV,5,3,20,19,43,118,47,22,44,057,,02,04,026,36,36,35,170,45*78
$GPGSV,5,4,20,58,13,245,36,40,23,133,36,34,31,208,42,49,34,195,44*7C
$GPGSV,5,5,20,57,07,111,38,41,07,108,35,61,03,257,38*46
$GLGSV,3,1,10,76,66,018,51,86,13,109,43,75,14,062,44,67,47,306,51*69
$GLGSV,3,2,10,85,24,054,47,66,50,213,52,77,49,275,45,84,07,005,31*6E
$GLGSV,3,3,10,68,07,338,43,65,09,180,39*6B
$GAGSV,3,1,10,02,87,155,49,16,12,054,,07,36,308,44,30,33,230,44*64
$GAGSV,3,2,10,03,29,158,42,25,35,055,44,08,71,221,49,10,05,046,37*6B
$GAGSV,3,3,10,11,02,072,32,12,05,024,32*6E
$GBGSV,5,1,20,26,81,018,51,35,21,126,44,40,24,040,42,05,20,130,38*63
$GBGSV,5,2,20,07,25,052,41,21,11,185,41,45,28,075,44,33,34,301,46*68
$GBGSV,5,3,20,50,27,202,,24,39,267,48,10,36,062,42,25,38,258,*69
$GBGSV,5,4,20,42,41,230,47,14,44,268,46,56,38,069,,29,04,022,*6A
$GBGSV,5,5,20,02,04,109,30,41,01,337,,57,01,352,,60,07,111,40*64
$GPGGA,104507.00,,,,,0,00,,,M,,M,,*4F
$PTNL,GGK,104507.00,010125,4742.1601475,N,01618.0999835,E,1,38,0.8,EHT751.1946,M*4B
$GPGGQ,104507.00,010125,4742.1601475,N,01618.0999835,E,1,38,1.063,707.9880,M*39
$GPGFA,104507.00,3.780,7.720,0.398,0.293,0.738,0.942,,VVV*03
$GPLLK,104507.00,010125,,M,,M,1,38,0.9,,M*0E
$GNGMP,104507.00,,,,,DAAA,38,0.4,,,,*5E
$GPGMP,104507.00,,,,,,09,,,,1.6,136*70
$GLGMP,104507.00,,,,,,09,,,,,*71
$GAGMP,104507.00,,,,,,07,,,,,*72
$GBGMP,104507.00,,,,,,13,,,,,*74
$PSSN,SNC,[0,297925000,2347]*46
$GPZDA,104512.00,01,01,2025,,*60
$GPDTM,W84,,00.0000000,N,00.0000000,E,00.0000000,W84*5F
$PSSN,TFM,104512.00,,,,*6C
$GPRMC,104512.00,A,4742.1601488,N,01618.0999815,E,0.0,,010125,5.1,E,D*12
$GPGLL,4742.1601488,N,01618.0999815,E,104512.00,A,D*63
$GPGGA,104512.00,4742.1601488,N,01618.0999815,E,2,38,0.4,707.9845,M,43.2066,M,2.6,0136*44
$GNGNS,104512.00,4742.1601488,N,01618.0999815,E,DAAA,38,0.4,707.9845,43.2066,,*58
$GPGNS,104512.00,,,,,,09,,,,2.6,136*77
$GLGNS,104512.00,,,,,,09,,,,,*75
$GAGNS,104512.00,,,,,,07,,,,,*76
$GBGNS,104512.00,,,,,,13,,,,,*70
$GPLLQ,104512.00,010125,,M,,M,1,38,1.071,,M*1E
$GPVTG,,T,,M,0.00,N,0.01,K,D*27
$GPHDT,,T*1B
$GPTHS,,V*0E
$GPROT,,V*08
$PSSN,HRP,104512.00,010125,,,,,,,00,0,,*62
$PTNL,AVR,104512.00,,Yaw,,Tilt,,,,0,,00*34
$GPGSA,A,3,10,12,13,14,15,17,19,23,24,,,,0.8,0.4,0.7*31
$GPGSA,A,3,65,66,67,68,75,76,77,85,86,,,,0.8,0.4,0.7*35
$GPGSA,A,3,02,03,07,08,10,25,30,,,,,,0.8,0.4,0.7*32
$GPGSA,A,3,05,07,10,14,21,24,26,33,35,40,42,45,0.8,0.4,0.7*3B
$GPGSA,A,3,60,,,,,,,,,,,,0.8,0.4,0.7*3F
$GPGST,104512.00,2.406,0.397,0.295,0.211,0.397,0.295,0.950*5A
$GPGBS,104512.00,2.309,1.564,7.298,10,0.0001,-1.583,1.099*75
$GPGRS,104512.00,1,-1.6,0.0,0.2,0.0,0.1,0.3,-0.0,-0.2,0.2,,,*49
$GPGRS,104512.00,1,-0.2,-3.0,7.2,3.9,-1.2,-2.7,-7.1,3.2,1.3,,,*43
$GPGRS,104512.00,1,-0.2,-0.8,0.5,-0.2,2.6,0.3,-0.2,,,,,*6B
$GPGRS,104512.00,1,1.0,1.2,0.6,2.1,1.2,0.3,-0.6,0.3,-2.4,-0.9,-0.5,0.3*46
$GPGRS,104512.00,1,-2.4,,,,,,,,,,,*48
$GPGSV,5,1,20,24,59,296,49,14,23,058,42,10,14,320,41,12,29,232,44*71
$GPGSV,5,2,20,13,38,158,46,23,20,278,42,17,40,073,46,15,53,208,49*72
$GPGSV,5,3,20,19,43,118,47,22,44,057,,02,04,026,38,36,35,170,44*77
$GPGSV,5,4,20,58,13,245,36,40,23,133,36,34,31,208,42,49,34,195,44*7C
$GPGSV,5,5,20,57,07,111,38,41,07,108,35,61,03,257,38*46
$GLGSV,3,1,10,76,66,018,51,86,13,109,44,75,14,062,44,67,47,306,51*6E
$GLGSV,3,2,10,85,24,054,46,66,50,213,52,77,49,275,45,84,07,005,30*6E
$GLGSV,3,3,10,68,08,338,43,65,09,180,39*64
$GAGSV,3,1,10,02,87,155,49,16,12,054,,07,36,308,44,30,33,230,44*64
$GAGSV,3,2,10,03,29,158,42,25,35,055,44,08,71,221,49,10,05,046,37*6B
$GAGSV,3,3,10,11,02,071,32,12,05,024,32*6D
$GBGSV,5,1,20,26,81,018,51,35,21,126,44,40,24,040,43,05,20,130,38*62
$GBGSV,5,2,20,07,25,052,41,21,11,185,41,45,27,075,45,33,34,301,46*66
$GBGSV,5,3,20,50,27,202,,24,39,267,48,10,36,062,42,25,38,258,*69
$GBGSV,5,4,20,42,41,230,47,14,44,268,46,56,38,069,,29,04,022,*6A
$GBGSV,5,5,20,02,04,109,30,41,01,337,,57,01,352,,60,07,111,40*64
$GPGGA,104512.00,,,,,0,00,,,M,,M,,*4B
$PTNL,GGK,104512.00,010125,4742.1601488,N,01618.0999815,E,1,38,0.8,EHT751.1911,M*4D
$GPGGQ,104512.00,010125,4742.1601488,N,01618.0999815,E,1,38,1.071,707.9845,M*37
$GPGFA,104512.00,3.777,7.791,0.397,0.295,0.211,0.950,,VVV*01
$GPLLK,104512.00,010125,,M,,M,1,38,0.9,,M*0A
$GNGMP,104512.00,,,,,DAAA,38,0.4,,,,*5A
$GPGMP,104512.00,,,,,,09,,,,2.6,136*77
$GLGMP,104512.00,,,,,,09,,,,,*75
$GAGMP,104512.00,,,,,,07,,,,,*76
$GBGMP,104512.00,,,,,,13,,,,,*70
$PSSN,SNC,[0,297930000,2347]*42
$GPALM,1,1,06,2347,00,1C25,63,1E6C,FD5E,A10DC2,E239D6,B4CDB4,8C6D9A,FA2,FF8*7D
$GPZDA,104517.00,01,01,2025,,*65
$GPDTM,W84,,00.0000000,N,00.0000000,E,00.0000000,W84*5F
$PSSN,TFM,104517.00,,,,*69
$GPRMC,104517.00,A,4742.1601504,N,01618.0999795,E,0.0,,010125,5.1,E,D*15
$GPGLL,4742.1601504,N,01618.0999795,E,104517.00,A,D*64
$GPGGA,104517.00,4742.1601504,N,01618.0999795,E,2,38,0.4,707.9837,M,43.2066,M,3.6,0136*47
$GNGNS,104517.00,4742.1601504,N,01618.0999795,E,DAAA,38,0.4,707.9837,43.2066,,*5A
$GPGNS,104517.00,,,,,,09,,,,3.6,136*73
$GLGNS,104517.00,,,,,,09,,,,,*70
$GAGNS,104517.00,,,,,,07,,,,,*73
$GBGNS,104517.00,,,,,,13,,,,,*75
$GPLLQ,104517.00,010125,,M,,M,1,38,1.091,,M*15
$GPVTG,,T,,M,0.00,N,0.01,K,D*27
$GPHDT,,T*1B
$GPTHS,,V*0E
$GPROT,,V*08
$PSSN,HRP,104517.00,010125,,,,,,,00,0,,*67
$PTNL,AVR,104517.00,,Yaw,,Tilt,,,,0,,00*31
$GPGSA,A,3,10,12,13,14,15,17,19,23,24,,,,0.8,0.4,0.7*31
$GPGSA,A,3,65,66,67,68,75,76,77,85,86,,,,0.8,0.4,0.7*35
$GPGSA,A,3,02,03,07,08,10,25,30,,,,,,0.8,0.4,0.7*32
$GPGSA,A,3,05,07,10,14,21,24,26,33,35,40,42,45,0.8,0.4,0.7*3B
$GPGSA,A,3,60,,,,,,,,,,,,0.8,0.4,0.7*3F
$GPGST,104517.00,2.454,0.404,0.300,359.933,0.404,0.300,0.967*58
$GPGBS,104517.00,2.354,1.580,7.445,77,0.0001,-7.457,6.073*78
$GPGRS,104517.00,1,-0.5,0.1,0.1,0.1,-0.1,0.3,-0.4,-0.1,0.1,,,*64
$GPGRS,104517.00,1,-0.1,-3.1,7.3,4.4,-0.9,-2.4,-7.5,3.3,2.2,,,*41
$GPGRS,104517.00,1,-0.3,-0.7,0.5,-0.1,2.6,0.2,-0.2,,,,,*62
$GPGRS,104517.00,1,1.1,0.5,0.5,1.4,1.2,-0.2,-0.6,0.0,-2.7,-0.7,-0.7,0.2*60
$GPGRS,104517.00,1,-2.2,,,,,,,,,,,*4B
$GPGSV,5,1,20,24,60,296,49,14,22,058,42,10,14,320,41,12,29,232,44*7A
$GPGSV,5,2,20,13,38,158,47,23,20,278,42,17,40,073,46,15,53,207,48*7D
$GPGSV,5,3,20,19,43,118,47,22,44,057,,02,04,026,38,36,35,170,44*77
$GPGSV,5,4,20,58,13,245,36,40,23,133,36,34,31,208,42,49,34,195,44*7C
$GPGSV,5,5,20,57,07,111,38,41,07,108,35,61,03,257,38*46
$GLGSV,3,1,10,76,66,018,51,86,13,109,43,75,14,062,44,67,47,306,51*69
$GLGSV,3,2,10,85,24,054,46,66,50,213,52,77,49,275,45,84,07,005,30*6E
$GLGSV,3,3,10,68,08,338,44,65,08,180,39*62
$GAGSV,3,1,10,02,87,154,49,16,12,054,,07,36,308,44,30,33,230,44*65
$GAGSV,3,2,10,03,29,158,43,25,35,056,44,08,71,220,49,10,05,046,37*68
$GAGSV,3,3,10,11,02,071,33,12,05,024,31*6F
$GBGSV,5,1,20,26,81,018,51,35,21,126,43,40,24,040,43,05,20,130,38*65
$GBGSV,5,2,20,21,11,185,41,45,27,075,45,07,25,052,40,33,34,301,46*67
$GBGSV,5,3,20,50,27,202,,24,39,268,47,10,36,062,42,25,38,258,*69
$GBGSV,5,4,20,42,41,230,47,14,44,268,46,56,38,069,,41,01,337,*66
$GBGSV,5,5,20,02,04,109,30,29,04,022,,57,01,352,,60,07,111,40*68
$GPGGA,104517.00,,,,,0,00,,,M,,M,,*4E
$PTNL,GGK,104517.00,010125,4742.1601504,N,01618.0999795,E,1,38,0.8,EHT751.1903,M*49
$GPGGQ,104517.00,010125,4742.1601504,N,01618.0999795,E,1,38,1.091,707.9837,M*3B
$GPGFA,104517.00,3.845,7.932,0.404,0.300,359.933,0.967,,VVV*0D
$GPLLK,104517.00,010125,,M,,M,1,38,0.9,,M*0F
$GNGMP,104517.00,,,,,DAAA,38,0.4,,,,*5F
$GPGMP,104517.00,,,,,,09,,,,3.6,136*73
$GLGMP,104517.00,,,,,,09,,,,,*70
$GAGMP,104517.00,,,,,,07,,,,,*73
$GBGMP,104517.00,,,,,,13,,,,,*75
$PSSN,SNC,[0,297935000,2347]*47
$GPZDA,104522.00,01,01,2025,,*63
$GPDTM,W84,,00.0000000,N,00.0000000,E,00.0000000,W84*5F
$PSSN,TFM,104522.00,,,,*6F
$GPRMC,104522.00,A,4742.1601497,N,01618.0999788,E,0.0,,010125,5.1,E,D*14
$GPGLL,4742.1601497,N,01618.0999788,E,104522.00,A,D*65
$GPGGA,104522.00,4742.1601497,N,01618.0999788,E,2,38,0.4,707.9799,M,43.2066,M,2.3,0136*49
$GNGNS,104522.00,4742.1601497,N,01618.0999788,E,DAAA,38,0.4,707.9799,43.2066,,*50
$GPGNS,104522.00,,,,,,09,,,,2.3,136*71
$GLGNS,104522.00,,,,,,09,,,,,*76
$GAGNS,104522.00,,,,,,07,,,,,*75
$GBGNS,104522.00,,,,,,13,,,,,*73
$GPLLQ,104522.00,010125,,M,,M,1,38,1.087,,M*14
$GPVTG,,T,,M,0.00,N,0.00,K,D*26
$GPHDT,,T*1B
$GPTHS,,V*0E
$GPROT,,V*08
$PSSN,HRP,104522.00,010125,,,,,,,00,0,,*61
$PTNL,AVR,104522.00,,Yaw,,Tilt,,,,0,,00*37
$GPGSA,A,3,10,12,13,14,15,17,19,23,24,,,,0.8,0.4,0.7*31
$GPGSA,A,3,65,66,67,68,75,76,77,85,86,,,,0.8,0.4,0.7*35
$GPGSA,A,3,02,03,07,08,10,25,30,,,,,,0.8,0.4,0.7*32
$GPGSA,A,3,05,07,10,14,21,24,26,33,35,40,42,45,0.8,0.4,0.7*3B
$GPGSA,A,3,60,,,,,,,,,,,,0.8,0.4,0.7*3F
$GPGST,104522.00,2.441,0.406,0.299,0.264,0.406,0.299,0.963*58
$GPGBS,104522.00,2.274,1.592,7.127,77,0.0001,-7.564,6.072*7F
$GPGRS,104522.00,1,-0.9,0.4,-0.0,-0.1,-0.3,0.2,-0.1,0.1,0.2,,,*42
$GPGRS,104522.00,1,-0.3,-3.4,7.3,3.9,-1.6,-2.3,-7.6,3.7,1.2,,,*47
$GPGRS,104522.00,1,-0.3,-0.6,0.3,-0.2,2.1,-0.1,0.1,,,,,*67
$GPGRS,104522.00,1,0.8,0.6,0.3,1.8,1.1,0.3,-0.7,0.2,-2.2,-1.0,-0.5,0.0*48
$GPGRS,104522.00,1,-2.3,,,,,,,,,,,*4C
$GPGSV,5,1,20,24,60,296,49,14,22,058,42,10,14,320,41,12,29,232,45*7B
$GPGSV,5,2,20,13,38,158,47,23,20,278,43,17,40,073,47,15,53,207,49*7C
$GPGSV,5,3,20,19,43,118,47,22,44,057,,02,04,026,38,36,35,170,45*76
$GPGSV,5,4,20,58,13,245,36,40,23,133,37,34,31,208,43,49,34,195,45*7D
$GPGSV,5,5,20,57,07,111,38,41,07,108,35,61,03,257,38*46
$GLGSV,3,1,10,76,66,019,51,86,13,109,43,75,14,062,44,85,24,054,47*62
$GLGSV,3,2,10,67,47,306,51,66,50,213,52,77,49,275,45,84,07,005,30*65
$GLGSV,3,3,10,68,08,338,44,65,08,180,39*62
$GAGSV,3,1,10,02,87,153,49,16,12,054,,07,36,308,44,30,33,230,44*62
$GAGSV,3,2,10,03,29,158,42,25,35,056,44,08,71,220,49,10,05,046,37*69
$GAGSV,3,3,10,11,02,071,33,12,05,024,31*6F
$GBGSV,5,1,20,26,81,018,51,35,21,126,44,40,24,040,43,05,20,130,38*62
$GBGSV,5,2,20,21,11,185,41,45,27,076,45,07,25,052,40,33,34,301,46*64
$GBGSV,5,3,20,50,26,202,,24,39,268,48,10,36,062,42,25,38,258,*67
$GBGSV,5,4,20,42,41,230,48,14,44,268,46,56,38,069,,41,01,336,*68
$GBGSV,5,5,20,02,04,109,30,29,04,022,,57,01,352,,60,07,111,40*68
$GPGGA,104522.00,,,,,0,00,,,M,,M,,*48
$PTNL,GGK,104522.00,010125,4742.1601497,N,01618.0999788,E,1,38,0.8,EHT751.1865,M*49
$GPGGQ,104522.00,010125,4742.1601497,N,01618.0999788,E,1,38,1.087,707.9799,M*36
$GPGFA,104522.00,3.857,7.896,0.406,0.299,0.264,0.963,,VVV*06
$GPLLK,104522.00,010125,,M,,M,1,38,0.9,,M*09
$GNGMP,104522.00,,,,,DAAA,38,0.4,,,,*59
$GPGMP,104522.00,,,,,,09,,,,2.3,136*71
$GLGMP,104522.00,,,,,,09,,,,,*76
$GAGMP,104522.00,,,,,,07,,,,,*75
$GBGMP,104522.00,,,,,,13,,,,,*73
$PSSN,SNC,[0,297940000,2347]*45
$GPZDA,104527.00,01,01,2025,,*66
$GPDTM,W84,,00.0000000,N,00.0000000,E,00.0000000,W84*5F
$PSSN,TFM,104527.00,,,,*6A
$GPRMC,104527.00,A,4742.1601495,N,01618.0999811,E,0.0,,010125,5.1,E,D*1C
$GPGLL,4742.1601495,N,01618.0999811,E,104527.00,A,D*6D
$GPGGA,104527.00,4742.1601495,N,01618.0999811,E,2,38,0.4,707.9815,M,43.2066,M,1.6,0136*4C
$GNGNS,104527.00,4742.1601495,N,01618.0999811,E,DAAA,38,0.4,707.9815,43.2066,,*53
$GPGNS,104527.00,,,,,,09,,,,1.6,136*72
$GLGNS,104527.00,,,,,,09,,,,,*73
$GAGNS,104527.00,,,,,,07,,,,,*70
$GBGNS,104527.00,,,,,,13,,,,,*76
$GPLLQ,104527.00,010125,,M,,M,1,38,1.062,,M*1A
$GPVTG,,T,,M,0.00,N,0.00,K,D*26
$GPHDT,,T*1B
$GPTHS,,V*0E
$GPROT,,V*08
$PSSN,HRP,104527.00,010125,,,,,,,00,0,,*64
$PTNL,AVR,104527.00,,Yaw,,Tilt,,,,0,,00*32
$GPGSA,A,3,10,12,13,14,15,17,19,23,24,,,,0.8,0.4,0.7*31
$GPGSA,A,3,65,66,67,68,75,76,77,85,86,,,,0.8,0.4,0.7*35
$GPGSA,A,3,02,03,07,08,10,25,30,,,,,,0.8,0.4,0.7*32
$GPGSA,A,3,05,07,10,14,21,24,26,33,35,40,42,45,0.8,0.4,0.7*3B
$GPGSA,A,3,60,,,,,,,,,,,,0.8,0.4,0.7*3F
$GPGST,104527.00,2.496,0.397,0.293,0.618,0.397,0.293,0.940*59
$GPGBS,104527.00,2.274,1.552,7.178,77,0.0001,-7.902,6.072*70
$GPGRS,104527.00,1,-0.7,0.8,-0.3,-0.1,0.1,0.2,-0.3,0.5,-0.0,,,*40
$GPGRS,104527.00,1,-0.7,-3.3,6.8,4.1,-2.2,-2.6,-7.9,4.0,1.5,,,*4E
$GPGRS,104527.00,1,-0.3,-0.8,0.3,-0.3,2.8,-0.2,-0.3,,,,,*48
$GPGRS,104527.00,1,0.8,0.4,0.2,1.7,1.3,0.4,-0.7,0.2,-1.7,-1.2,-0.9,0.0*4C
$GPGRS,104527.00,1,-2.2,,,,,,,,,,,*48
$GPGSV,5,1,20,24,60,296,49,14,22,058,41,10,14,320,42,12,29,232,45*7B
$GPGSV,5,2,20,13,38,158,46,23,20,278,42,17,40,073,46,15,53,207,49*7D
$GPGSV,5,3,20,19,43,118,47,22,44,057,,02,04,026,38,36,35,170,45*76
$GPGSV,5,4,20,58,13,245,36,40,23,133,37,34,31,208,42,49,34,195,44*7D
$GPGSV,5,5,20,57,07,111,38,41,07,108,35,61,03,257,38*46
$GLGSV,3,1,10,76,66,019,51,86,13,109,43,75,14,062,44,85,24,054,46*63
$GLGSV,3,2,10,67,47,306,51,66,50,213,52,77,49,275,45,84,07,005,31*64
$GLGSV,3,3,10,68,08,338,44,65,08,180,39*62
$GAGSV,3,1,10,02,87,153,49,16,12,054,,07,36,308,44,30,33,230,44*62
$GAGSV,3,2,10,03,29,158,43,25,35,056,44,08,71,220,49,10,05,046,36*69
$GAGSV,3,3,10,11,02,071,33,12,05,024,31*6F
$GBGSV,5,1,20,26,81,018,51,35,21,126,44,40,24,040,43,05,20,130,39*63
$GBGSV,5,2,20,21,11,185,40,45,27,076,45,07,25,052,40,33,34,301,47*64
$GBGSV,5,3,20,50,26,202,,24,39,268,48,10,36,062,42,25,38,258,*67
$GBGSV,5,4,20,42,41,229,48,14,44,268,46,56,38,069,,41,01,336,*60
$GBGSV,5,5,20,02,04,109,31,29,04,022,,57,01,352,,60,07,111,40*69
$GPGGA,104527.00,,,,,0,00,,,M,,M,,*4D
$PTNL,GGK,104527.00,010125,4742.1601495,N,01618.0999811,E,1,38,0.8,EHT751.1881,M*4B
$GPGGQ,104527.00,010125,4742.1601495,N,01618.0999811,E,1,38,1.062,707.9815,M*3E
$GPGFA,104527.00,3.777,7.708,0.397,0.293,0.618,0.940,,VVV*0D
$GPLLK,104527.00,010125,,M,,M,1,38,0.9,,M*0C
$GNGMP,104527.00,,,,,DAAA,38,0.4,,,,*5C
$GPGMP,104527.00,,,,,,09,,,,1.6,136*72
$GLGMP,104527.00,,,,,,09,,,,,*73
$GAGMP,104527.00,,,,,,07,,,,,*70
$GBGMP,104527.00,,,,,,13,,,,,*76
$PSSN,SNC,[0,297945000,2347]*40
$GPZDA,104532.00,01,01,2025,,*62
$GPDTM,W84,,00.0000000,N,00.0000000,E,00.0000000,W84*5F
$PSSN,TFM,104532.00,,,,*6E
$GPRMC,104532.00,A,4742.1601496,N,01618.0999840,E,0.0,,010125,5.1,E,D*1F
$GPGLL,4742.1601496,N,01618.0999840,E,104532.00,A,D*6E
$GPGGA,104532.00,4742.1601496,N,01618.0999840,E,2,38,0.4,707.9872,M,43.2066,M,2.6,0136*4D
$GNGNS,104532.00,4742.1601496,N,01618.0999840,E,DAAA,38,0.4,707.9872,43.2066,,*51
$GPGNS,104532.00,,,,,,09,,,,2.6,136*75
$GLGNS,104532.00,,,,,,09,,,,,*77
$GAGNS,104532.00,,,,,,07,,,,,*74
$GBGNS,104532.00,,,,,,13,,,,,*72
$GPLLQ,104532.00,010125,,M,,M,1,38,1.070,,M*1D
$GPVTG,,T,,M,0.01,N,0.01,K,D*26
$GPHDT,,T*1B
$GPTHS,,V*0E
$GPROT,,V*08
$PSSN,HRP,104532.00,010125,,,,,,,00,0,,*60
$PTNL,AVR,104532.00,,Yaw,,Tilt,,,,0,,00*36
$GPGSA,A,3,10,12,13,14,15,17,19,23,24,,,,0.8,0.4,0.7*31
$GPGSA,A,3,65,66,67,68,75,76,77,85,86,,,,0.8,0.4,0.7*35
$GPGSA,A,3,02,03,07,08,10,25,30,,,,,,0.8,0.4,0.7*32
$GPGSA,A,3,05,07,10,14,21,24,26,33,35,40,42,45,0.8,0.4,0.7*3B
$GPGSA,A,3,60,,,,,,,,,,,,0.8,0.4,0.7*3F
$GPGST,104532.00,2.500,0.397,0.295,0.088,0.397,0.295,0.949*55
$GPGBS,104532.00,2.313,1.564,7.305,77,0.0001,-8.017,6.073*7A
$GPGRS,104532.00,1,-0.6,0.5,-0.3,0.4,-0.1,0.0,0.0,0.1,0.0,,,*48
$GPGRS,104532.00,1,-0.9,-3.4,6.5,5.1,-1.8,-2.4,-8.0,3.2,1.5,,,*47
$GPGRS,104532.00,1,-0.3,-0.9,0.3,-0.3,2.6,0.1,-0.7,,,,,*69
$GPGRS,104532.00,1,1.0,0.5,0.0,1.6,1.1,0.4,-0.6,0.1,-2.1,-1.2,-0.5,0.0*4A
$GPGRS,104532.00,1,-2.7,,,,,,,,,,,*49
$GPGSV,5,1,20,24,60,296,49,14,22,058,41,10,14,320,41,12,30,232,45*70
$GPGSV,5,2,20,13,38,158,46,23,20,278,42,17,40,073,46,15,53,207,49*7D
$GPGSV,5,3,20,19,43,118,47,22,44,057,,02,04,026,38,36,35,170,45*76
$GPGSV,5,4,20,58,13,245,36,40,23,133,36,34,31,208,42,49,34,195,44*7C
$GPGSV,5,5,20,57,07,111,38,41,07,108,35,61,03,257,38*46
$GLGSV,3,1,10,76,66,019,51,86,13,109,42,75,14,062,44,67,47,306,51*69
$GLGSV,3,2,10,85,24,054,46,66,50,213,52,77,49,275,45,84,07,005,31*6F
$GLGSV,3,3,10,68,08,338,44,65,08,180,39*62
$GAGSV,3,1,10,02,87,153,49,16,12,054,,07,36,308,44,30,33,230,44*62
$GAGSV,3,2,10,03,29,158,43,25,35,056,44,08,71,220,49,10,05,046,37*68
$GAGSV,3,3,10,11,02,071,33,12,05,024,31*6F
$GBGSV,5,1,20,26,81,019,51,35,21,126,44,40,24,040,43,05,20,130,39*62
$GBGSV,5,2,20,21,11,185,40,45,27,076,45,07,25,052,41,33,34,301,47*65
$GBGSV,5,3,20,50,26,202,,24,39,268,48,10,36,062,42,25,38,258,*67
$GBGSV,5,4,20,42,41,229,48,14,44,267,46,56,38,069,,41,01,336,*6F
$GBGSV,5,5,20,02,04,109,30,29,04,022,,57,01,352,,60,07,111,40*68
$GPGGA,104532.00,,,,,0,00,,,M,,M,,*49
$PTNL,GGK,104532.00,010125,4742.1601496,N,01618.0999840,E,1,38,0.8,EHT751.1937,M*44
$GPGGQ,104532.00,010125,4742.1601496,N,01618.0999840,E,1,38,1.070,707.9872,M*3F
$GPGFA,104532.00,3.775,7.780,0.397,0.295,0.088,0.949,,VVV*0B
$GPLLK,104532.00,010125,,M,,M,1,38,0.9,,M*08
$GNGMP,104532.00,,,,,DAAA,38,0.4,,,,*58
$GPGMP,104532.00,,,,,,09,,,,2.6,136*75
$GLGMP,104532.00,,,,,,09,,,,,*77
$GAGMP,104532.00,,,,,,07,,,,,*74
$GBGMP,104532.00,,,,,,13,,,,,*72
$PSSN,SNC,[0,297950000,2347]*44
$GPALM,1,1,29,2347,00,17A6,63,10F4,FD67,A10D70,6BB886,8C7917,D8EE68,DBF,001*05
$GPZDA,104537.00,01,01,2025,,*67
$GPDTM,W84,,00.0000000,N,00.0000000,E,00.0000000,W84*5F
$PSSN,TFM,104537.00,,,,*6B
$GPRMC,104537.00,A,4742.1601494,N,01618.0999800,E,0.0,,010125,5.1,E,D*1C
$GPGLL,4742.1601494,N,01618.0999800,E,104537.00,A,D*6D
$GPGGA,104537.00,4742.1601494,N,01618.0999800,E,2,38,0.4,707.9857,M,43.2066,M,3.6,0136*48
$GNGNS,104537.00,4742.1601494,N,01618.0999800,E,DAAA,38,0.4,707.9857,43.2066,,*55
$GPGNS,104537.00,,,,,,09,,,,3.6,136*71
$GLGNS,104537.00,,,,,,09,,,,,*72
$GAGNS,104537.00,,,,,,07,,,,,*71
$GBGNS,104537.00,,,,,,13,,,,,*77
$GPLLQ,104537.00,010125,,M,,M,1,38,1.089,,M*1E
$GPVTG,,T,,M,0.01,N,0.01,K,D*26
$GPHDT,,T*1B
$GPTHS,,V*0E
$GPROT,,V*08
$PSSN,HRP,104537.00,010125,,,,,,,00,0,,*65
$PTNL,AVR,104537.00,,Yaw,,Tilt,,,,0,,00*33
$GPGSA,A,3,10,12,13,14,15,17,19,23,24,,,,0.8,0.4,0.7*31
$GPGSA,A,3,65,66,67,68,75,76,77,85,86,,,,0.8,0.4,0.7*35
$GPGSA,A,3,02,03,07,08,10,25,30,,,,,,0.8,0.4,0.7*32
$GPGSA,A,3,05,07,10,14,21,24,26,33,35,40,42,45,0.8,0.4,0.7*3B
$GPGSA,A,3,60,,,,,,,,,,,,0.8,0.4,0.7*3F
$GPGST,104537.00,2.495,0.404,0.300,359.814,0.404,0.300,0.966*52
$GPGBS,104537.00,2.359,1.579,7.452,77,0.0001,-7.843,6.073*7E
$GPGRS,104537.00,1,-1.1,0.2,0.2,0.6,0.0,0.2,-0.1,-0.2,-0.1,,,*62
$GPGRS,104537.00,1,-0.4,-3.0,7.3,5.3,-1.4,-2.1,-7.8,3.0,1.0,,,*47
$GPGRS,104537.00,1,-0.2,-1.0,0.1,-0.3,2.3,0.2,-0.4,,,,,*62
$GPGRS,104537.00,1,1.0,0.7,0.2,1.6,0.8,-0.2,-0.7,0.1,-2.4,-1.1,-0.5,0.2*69
$GPGRS,104537.00,1,-2.0,,,,,,,,,,,*4B
$GPGSV,5,1,20,24,60,296,48,14,22,058,42,10,14,320,42,12,30,232,45*71
$GPGSV,5,2,20,13,38,158,47,23,20,278,42,17,40,073,47,15,53,207,49*7D
$GPGSV,5,3,20,19,43,118,47,22,44,057,,02,04,026,38,36,35,170,45*76
$GPGSV,5,4,20,58,13,245,36,40,23,133,36,34,31,208,42,49,34,195,44*7C
$GPGSV,5,5,20,57,07,111,38,41,07,108,35,61,03,257,38*46
$GLGSV,3,1,10,76,66,019,52,86,13,109,41,75,14,062,44,67,47,306,51*69
$GLGSV,3,2,10,85,24,054,46,66,50,213,52,77,49,275,45,84,07,005,31*6F
$GLGSV,3,3,10,68,08,338,44,65,08,180,39*62
$GAGSV,3,1,10,02,87,152,49,16,11,054,,07,36,308,44,30,34,230,44*67
$GAGSV,3,2,10,03,29,158,42,25,35,056,44,08,70,220,49,10,05,046,36*69
$GAGSV,3,3,10,11,03,071,32,12,05,024,32*6C
$GBGSV,5,1,20,26,81,019,51,35,21,126,44,40,24,040,43,05,20,130,39*62
$GBGSV,5,2,20,21,11,185,40,45,27,076,44,07,25,052,41,33,34,300,47*65
$GBGSV,5,3,20,50,26,202,,24,39,268,48,10,36,062,42,25,38,258,*67
$GBGSV,5,4,20,42,40,229,48,14,44,267,46,56,38,069,,41,01,336,*6E
$GBGSV,5,5,20,02,04,109,30,29,04,022,,57,01,352,,60,07,111,40*68
$GPGGA,104537.00,,,,,0,00,,,M,,M,,*4C
$PTNL,GGK,104537.00,010125,4742.1601494,N,01618.0999800,E,1,38,0.8,EHT751.1923,M*42
$GPGGQ,104537.00,010125,4742.1601494,N,01618.0999800,E,1,38,1.089,707.9857,M*3D
$GPGFA,104537.00,3.842,7.920,0.404,0.300,359.814,0.966,,VVV*0E
$GPLLK,104537.00,010125,,M,,M,1,38,0.9,,M*0D
$GNGMP,104537.00,,,,,DAAA,38,0.4,,,,*5D
$GPGMP,104537.00,,,,,,09,,,,3.6,136*71
$GLGMP,104537.00,,,,,,09,,,,,*72
$GAGMP,104537.00,,,,,,07,,,,,*71
$GBGMP,104537.00,,,,,,13,,,,,*77
$PSSN,SNC,[0,297955000,2347]*41
$GPZDA,104542.00,01,01,2025,,*65
$GPDTM,W84,,00.0000000,N,00.0000000,E,00.0000000,W84*5F
$PSSN,TFM,104542.00,,,,*69
$GPRMC,104542.00,A,4742.1601506,N,01618.0999752,E,0.0,,010125,5.1,E,D*1C
$GPGLL,4742.1601506,N,01618.0999752,E,104542.00,A,D*6D
$GPGGA,104542.00,4742.1601506,N,01618.0999752,E,2,38,0.4,707.9877,M,43.2066,M,2.3,0136*4E
$GNGNS,104542.00,4742.1601506,N,01618.0999752,E,DAAA,38,0.4,707.9877,43.2066,,*57
$GPGNS,104542.00,,,,,,09,,,,2.3,136*77
$GLGNS,104542.00,,,,,,09,,,,,*70
$GAGNS,104542.00,,,,,,07,,,,,*73
$GBGNS,104542.00,,,,,,13,,,,,*75
$GPLLQ,104542.00,010125,,M,,M,1,38,1.085,,M*10
$GPVTG,,T,,M,0.00,N,0.01,K,D*27
$GPHDT,,T*1B
$GPTHS,,V*0E
$GPROT,,V*08
$PSSN,HRP,104542.00,010125,,,,,,,00,0,,*67
$PTNL,AVR,104542.00,,Yaw,,Tilt,,,,0,,00*31
$GPGSA,A,3,10,12,13,14,15,17,19,23,24,,,,0.8,0.4,0.7*31
$GPGSA,A,3,65,66,67,68,75,76,77,85,86,,,,0.8,0.4,0.7*35
$GPGSA,A,3,02,03,07,08,10,25,30,,,,,,0.8,0.4,0.7*32
$GPGSA,A,3,05,07,10,14,21,24,26,33,35,40,42,45,0.8,0.4,0.7*3B
$GPGSA,A,3,60,,,,,,,,,,,,0.8,0.4,0.7*3F
$GPGST,104542.00,2.521,0.405,0.299,0.122,0.405,0.299,0.961*5A
$GPGBS,104542.00,2.269,1.590,7.134,77,0.0001,-8.042,6.072*7B
$GPGRS,104542.00,1,-0.9,0.2,-0.0,0.7,-0.2,0.4,-0.2,0.1,0.1,,,*6E
$GPGRS,104542.00,1,-0.8,-3.1,7.4,5.1,-0.6,-1.9,-8.0,3.1,0.3,,,*41
$GPGRS,104542.00,1,-0.2,-1.3,0.3,-0.5,2.7,0.2,-0.1,,,,,*66
$GPGRS,104542.00,1,0.9,0.9,0.5,1.9,0.5,-0.2,-0.8,-0.1,-1.8,-1.1,-0.5,0.2*45
$GPGRS,104542.00,1,-2.2,,,,,,,,,,,*4B
$GPGSV,5,1,20,24,60,296,49,14,22,058,42,10,14,320,42,12,30,232,45*70
$GPGSV,5,2,20,13,37,158,46,23,20,278,42,17,40,073,47,15,53,207,48*72
$GPGSV,5,3,20,19,43,118,47,22,44,057,,02,04,026,38,36,35,170,45*76
$GPGSV,5,4,20,58,13,245,36,40,23,133,36,34,31,208,43,49,34,195,44*7D
$GPGSV,5,5,20,57,07,111,38,41,07,108,35,61,03,257,38*46
$GLGSV,3,1,10,76,66,019,52,86,13,109,42,75,14,062,45,67,47,306,51*6B
$GLGSV,3,2,10,85,24,054,46,66,50,213,52,77,49,275,45,84,07,005,29*66
$GLGSV,3,3,10,68,08,338,44,65,08,180,39*62
$GAGSV,3,1,10,02,87,152,49,16,11,054,,07,36,308,44,30,34,230,44*67
$GAGSV,3,2,10,03,29,158,42,25,35,056,44,08,70,220,49,10,05,046,36*69
$GAGSV,3,3,10,11,03,071,32,12,05,024,32*6C
$GBGSV,5,1,20,26,81,019,51,35,21,126,44,40,24,040,43,05,20,130,38*63
$GBGSV,5,2,20,21,10,185,40,45,27,076,44,07,25,052,41,33,34,300,46*65
$GBGSV,5,3,20,50,26,202,,24,39,268,48,10,36,062,42,25,38,258,*67
$GBGSV,5,4,20,42,40,229,48,14,44,267,46,56,38,069,,41,01,336,*6E
$GBGSV,5,5,20,02,04,109,30,29,04,022,,57,01,352,,60,07,111,40*68
$GPGGA,104542.00,,,,,0,00,,,M,,M,,*4E
$PTNL,GGK,104542.00,010125,4742.1601506,N,01618.0999752,E,1,38,0.8,EHT751.1943,M*44
$GPGGQ,104542.00,010125,4742.1601506,N,01618.0999752,E,1,38,1.085,707.9877,M*33
$GPGFA,104542.00,3.854,7.883,0.405,0.299,0.122,0.961,,VVV*07
$GPLLK,104542.00,010125,,M,,M,1,38,0.9,,M*0F
$GNGMP,104542.00,,,,,DAAA,38,0.4,,,,*5F
$GPGMP,104542.00,,,,,,09,,,,2.3,136*77
$GLGMP,104542.00,,,,,,09,,,,,*70
$GAGMP,104542.00,,,,,,07,,,,,*73
$GBGMP,104542.00,,,,,,13,,,,,*75
$PSSN,SNC,[0,297960000,2347]*47
$GPALM,1,1,07,2347,00,9AE1,63,04EF,FD51,A10DA6,AB0364,3411A3,6AEFFB,FF1,000*03
$GPZDA,104547.00,01,01,2025,,*60
$GPDTM,W84,,00.0000000,N,00.0000000,E,00.0000000,W84*5F
$PSSN,TFM,104547.00,,,,*6C
$GPRMC,104547.00,A,4742.1601477,N,01618.0999731,E,0.0,,010125,5.1,E,D*1B
$GPGLL,4742.1601477,N,01618.0999731,E,104547.00,A,D*6A
$GPGGA,104547.00,4742.1601477,N,01618.0999731,E,2,38,0.4,707.9889,M,43.2066,M,1.6,0136*4E
$GNGNS,104547.00,4742.1601477,N,01618.0999731,E,DAAA,38,0.4,707.9889,43.2066,,*51
$GPGNS,104547.00,,,,,,09,,,,1.6,136*74
$GLGNS,104547.00,,,,,,09,,,,,*75
$GAGNS,104547.00,,,,,,07,,,,,*76
$GBGNS,104547.00,,,,,,13,,,,,*70
$GPLLQ,104547.00,010125,,M,,M,1,38,1.060,,M*1E
$GPVTG,,T,,M,0.00,N,0.01,K,D*27
$GPHDT,,T*1B
$GPTHS,,V*0E
$GPROT,,V*08
$PSSN,HRP,104547.00,010125,,,,,,,00,0,,*62
$PTNL,AVR,104547.00,,Yaw,,Tilt,,,,0,,00*34
$GPGSA,A,3,10,12,13,14,15,17,19,23,24,,,,0.8,0.4,0.7*31
$GPGSA,A,3,65,66,67,68,75,76,77,85,86,,,,0.8,0.4,0.7*35
$GPGSA,A,3,02,03,07,08,10,25,30,,,,,,0.8,0.4,0.7*32
$GPGSA,A,3,05,07,10,14,21,24,26,33,35,40,42,45,0.8,0.4,0.7*3B
$GPGSA,A,3,60,,,,,,,,,,,,0.8,0.4,0.7*3F
$GPGST,104547.00,2.373,0.397,0.293,0.463,0.397,0.293,0.938*52
$GPGBS,104547.00,2.279,1.550,7.184,77,0.0001,-7.194,6.072*7D
$GPGRS,104547.00,1,-0.9,0.1,-0.0,0.4,-0.3,-0.0,0.1,0.2,0.2,,,*6D
$GPGRS,104547.00,1,-0.9,-3.3,7.1,3.5,-1.1,-2.5,-7.2,3.8,0.6,,,*48
$GPGRS,104547.00,1,-0.4,-1.0,0.3,-0.2,2.5,0.0,-0.0,,,,,*60
$GPGRS,104547.00,1,0.9,0.6,0.7,2.1,0.3,-0.1,-0.7,-0.3,-1.8,-1.1,-0.5,0.3*4F
$GPGRS,104547.00,1,-2.4,,,,,,,,,,,*48
$GPGSV,5,1,20,24,60,296,49,14,22,058,42,10,14,320,42,12,30,232,45*70
$GPGSV,5,2,20,13,37,158,47,23,20,278,42,17,40,073,46,15,53,207,49*73
$GPGSV,5,3,20,19,43,118,47,22,44,057,,02,04,026,38,36,35,170,45*76
$GPGSV,5,4,20,58,13,245,36,40,23,133,37,34,31,208,42,49,34,195,44*7D
$GPGSV,5,5,20,57,07,111,38,41,07,108,35,61,03,257,38*46
$GLGSV,3,1,10,76,66,019,51,86,13,109,43,75,14,062,44,67,47,306,51*68
$GLGSV,3,2,10,85,24,054,47,66,50,213,52,77,49,275,45,84,07,005,30*6F
$GLGSV,3,3,10,68,08,338,43,65,08,180,39*65
$GAGSV,3,1,10,02,87,151,49,16,11,054,,07,36,308,44,30,34,230,44*64
$GAGSV,3,2,10,03,29,158,42,25,35,056,43,08,70,220,49,10,05,046,37*6F
$GAGSV,3,3,10,11,03,071,32,12,05,024,32*6C
$GBGSV,5,1,20,26,81,019,51,35,21,126,44,40,24,040,43,05,20,130,38*63
$GBGSV,5,2,20,21,10,185,40,45,27,076,44,07,25,052,41,33,34,300,46*65
$GBGSV,5,3,20,50,26,202,,24,39,268,48,10,36,062,42,25,38,258,*67
$GBGSV,5,4,20,42,40,229,48,14,44,267,46,56,38,069,,41,01,336,*6E
$GBGSV,5,5,20,02,04,109,30,29,04,022,,57,01,352,,60,07,111,40*68
$GPGGA,104547.00,,,,,0,00,,,M,,M,,*4B
$PTNL,GGK,104547.00,010125,4742.1601477,N,01618.0999731,E,1,38,0.8,EHT751.1955,M*44
$GPGGQ,104547.00,010125,4742.1601477,N,01618.0999731,E,1,38,1.060,707.9889,M*3E
$GPGFA,104547.00,3.774,7.696,0.397,0.293,0.463,0.938,,VVV*0F
$GPLLK,104547.00,010125,,M,,M,1,38,0.9,,M*0A
$GNGMP,104547.00,,,,,DAAA,38,0.4,,,,*5A
$GPGMP,104547.00,,,,,,09,,,,1.6,136*74
$GLGMP,104547.00,,,,,,09,,,,,*75
$GAGMP,104547.00,,,,,,07,,,,,*76
$GBGMP,104547.00,,,,,,13,,,,,*70
$PSSN,SNC,[0,297965000,2347]*42
$GPZDA,104552.00,01,01,2025,,*64
$GPDTM,W84,,00.0000000,N,00.0000000,E,00.0000000,W84*5F
$PSSN,TFM,104552.00,,,,*68
$GPRMC,104552.00,A,4742.1601478,N,01618.0999721,E,0.0,,010125,5.1,E,D*11
$GPGLL,4742.1601478,N,01618.0999721,E,104552.00,A,D*60
$GPGGA,104552.00,4742.1601478,N,01618.0999721,E,2,38,0.4,707.9832,M,43.2066,M,2.6,0136*47
$GNGNS,104552.00,4742.1601478,N,01618.0999721,E,DAAA,38,0.4,707.9832,43.2066,,*5B
$GPGNS,104552.00,,,,,,09,,,,2.6,136*73
$GLGNS,104552.00,,,,,,09,,,,,*71
$GAGNS,104552.00,,,,,,07,,,,,*72
$GBGNS,104552.00,,,,,,13,,,,,*74
$GPLLQ,104552.00,010125,,M,,M,1,38,1.068,,M*12
$GPVTG,,T,,M,0.00,N,0.00,K,D*26
$GPHDT,,T*1B
$GPTHS,,V*0E
$GPROT,,V*08
$PSSN,HRP,104552.00,010125,,,,,,,00,0,,*66
$PTNL,AVR,104552.00,,Yaw,,Tilt,,,,0,,00*30
$GPGSA,A,3,10,12,13,14,15,17,19,23,24,,,,0.8,0.4,0.7*31
$GPGSA,A,3,65,66,67,68,75,76,77,85,86,,,,0.8,0.4,0.7*35
$GPGSA,A,3,02,03,07,08,10,25,30,,,,,,0.8,0.4,0.7*32
$GPGSA,A,3,05,07,10,14,21,24,26,33,35,40,42,45,0.8,0.4,0.7*3B
$GPGSA,A,3,60,,,,,,,,,,,,0.8,0.4,0.7*3F
$GPGST,104552.00,2.544,0.397,0.295,359.939,0.397,0.295,0.947*51
$GPGBS,104552.00,2.318,1.562,7.311,77,0.0001,-8.209,6.072*78
$GPGRS,104552.00,1,-1.4,0.4,-0.1,0.3,-0.0,0.1,-0.2,-0.0,0.3,,,*49
$GPGRS,104552.00,1,-1.1,-3.3,7.3,3.7,-1.5,-2.9,-8.2,3.8,1.3,,,*46
$GPGRS,104552.00,1,-0.4,-0.9,0.3,-0.2,2.1,-0.1,-0.2,,,,,*46
$GPGRS,104552.00,1,0.9,0.5,0.3,2.4,-0.1,-0.2,-0.7,0.2,-2.4,-1.2,-0.7,0.3*47
$GPGRS,104552.00,1,-2.3,,,,,,,,,,,*4B
$GPGSV,5,1,20,24,60,296,49,14,22,058,42,10,14,320,41,12,30,232,45*73
$GPGSV,5,2,20,13,37,158,46,23,20,278,43,17,40,073,46,15,53,207,49*73
$GPGSV,5,3,20,19,43,117,47,22,44,057,,02,04,026,37,36,35,170,45*76
$GPGSV,5,4,20,58,13,245,36,40,23,133,37,34,31,208,43,49,34,195,44*7C
$GPGSV,5,5,20,57,07,111,38,41,07,108,35,61,03,257,38*46
$GLGSV,3,1,10,76,66,019,51,86,13,109,43,75,14,063,43,67,47,306,52*6D
$GLGSV,3,2,10,85,24,054,46,66,50,213,51,77,49,275,44,84,07,005,30*6C
$GLGSV,3,3,10,68,08,338,43,65,08,180,39*65
$GAGSV,3,1,10,02,87,151,49,16,11,054,,07,36,308,44,30,34,230,44*64
$GAGSV,3,2,10,03,29,158,42,25,35,056,43,08,70,220,49,10,05,046,37*6F
$GAGSV,3,3,10,11,03,071,32,12,05,024,32*6C
$GBGSV,5,1,20,26,81,019,51,35,21,126,44,40,24,040,43,05,20,130,38*63
$GBGSV,5,2,20,21,10,185,40,45,27,076,45,07,25,052,41,33,34,300,47*65
$GBGSV,5,3,20,50,26,202,,24,39,268,48,10,36,062,42,25,38,258,*67
$GBGSV,5,4,20,42,40,229,48,14,44,267,46,56,38,069,,41,01,336,*6E
$GBGSV,5,5,20,02,04,109,31,29,04,022,,57,01,352,,60,07,111,40*69
$GPGGA,104552.00,,,,,0,00,,,M,,M,,*4F
$PTNL,GGK,104552.00,010125,4742.1601478,N,01618.0999721,E,1,38,0.8,EHT751.1898,M*4E
$GPGGQ,104552.00,010125,4742.1601478,N,01618.0999721,E,1,38,1.068,707.9832,M*3C
$GPGFA,104552.00,3.772,7.767,0.397,0.295,359.939,0.947,,VVV*01
$GPLLK,104552.00,010125,,M,,M,1,38,0.9,,M*0E
$GNGMP,104552.00,,,,,DAAA,38,0.4,,,,*5E
$GPGMP,104552.00,,,,,,09,,,,2.6,136*73
$GLGMP,104552.00,,,,,,09,,,,,*71
$GAGMP,104552.00,,,,,,07,,,,,*72
$GBGMP,104552.00,,,,,,13,,,,,*74
$PSSN,SNC,[0,297970000,2347]*46
$GPZDA,104557.00,01,01,2025,,*61
$GPDTM,W84,,00.0000000,N,00.0000000,E,00.0000000,W84*5F
$PSSN,TFM,104557.00,,,,*6D
$GPRMC,104557.00,A,4742.1601485,N,01618.0999711,E,0.0,,010125,5.1,E,D*15
$GPGLL,4742.1601485,N,01618.0999711,E,104557.00,A,D*64
$GPGGA,104557.00,4742.1601485,N,01618.0999711,E,2,38,0.4,707.9794,M,43.2066,M,3.6,0136*41
$GNGNS,104557.00,4742.1601485,N,01618.0999711,E,DAAA,38,0.4,707.9794,43.2066,,*5C
$GPGNS,104557.00,,,,,,09,,,,3.6,136*77
$GLGNS,104557.00,,,,,,09,,,,,*74
$GAGNS,104557.00,,,,,,07,,,,,*77
$GBGNS,104557.00,,,,,,13,,,,,*71
$GPLLQ,104557.00,010125,,M,,M,1,38,1.092,,M*12
$GPVTG,,T,,M,0.00,N,0.01,K,D*27
$GPHDT,,T*1B
$GPTHS,,V*0E
$GPROT,,V*08
$PSSN,HRP,104557.00,010125,,,,,,,00,0,,*63
$PTNL,AVR,104557.00,,Yaw,,Tilt,,,,0,,00*35
$GPGSA,A,3,10,12,13,14,15,17,19,23,24,,,,0.8,0.4,0.7*31
$GPGSA,A,3,65,66,67,68,75,76,77,85,86,,,,0.8,0.4,0.7*35
$GPGSA,A,3,02,03,07,08,10,25,30,,,,,,0.8,0.4,0.7*32
$GPGSA,A,3,05,07,10,14,21,24,26,33,35,40,42,45,0.8,0.4,0.7*3B
$GPGSA,A,3,60,,,,,,,,,,,,0.8,0.4,0.7*3F
$GPGST,104557.00,2.617,0.406,0.302,359.678,0.406,0.302,0.968*56
$GPGBS,104557.00,2.364,1.578,7.457,77,0.0001,-7.969,6.072*7A
$GPGRS,104557.00,1,-1.4,0.3,-0.1,-0.2,-0.1,0.4,-0.2,-0.2,0.3,,,*61
$GPGRS,104557.00,1,-0.6,-3.4,7.7,4.6,-1.8,-2.1,-8.0,3.8,1.5,,,*41
$GPGRS,104557.00,1,-0.3,-0.8,0.3,-0.2,2.1,0.3,-0.5,,,,,*6D
$GPGRS,104557.00,1,0.9,1.3,0.1,2.5,-0.0,0.3,-0.6,0.2,-2.6,-1.3,-0.5,0.4*6C
$GPGRS,104557.00,1,-2.4,,,,,,,,,,,*49
$GPGSV,5,1,20,24,60,296,49,14,22,058,42,10,14,320,41,12,30,232,45*73
$GPGSV,5,2,20,13,37,158,47,23,20,278,42,17,40,073,47,15,53,207,49*72
$GPGSV,5,3,20,19,43,117,47,22,44,057,,02,04,026,38,36,35,170,45*79
$GPGSV,5,4,20,58,13,245,36,40,23,133,36,34,31,208,43,49,34,195,44*7D
$GPGSV,5,5,20,57,07,111,38,41,07,108,35,61,03,257,38*46
$GLGSV,3,1,10,76,66,019,51,86,13,109,44,75,14,063,43,67,47,306,52*6A
$GLGSV,3,2,10,85,24,054,46,66,50,213,52,77,49,275,45,84,07,005,30*6E
$GLGSV,3,3,10,68,08,338,43,65,08,180,39*65
$GAGSV,3,1,10,02,87,150,49,16,11,054,,07,36,308,44,30,34,230,44*65
$GAGSV,3,2,10,03,29,158,42,25,35,056,44,08,70,220,49,10,05,046,36*69
$GAGSV,3,3,10,11,03,071,32,12,05,024,32*6C
$GBGSV,5,1,20,26,81,019,51,35,21,126,44,40,24,040,43,05,20,130,39*62
$GBGSV,5,2,20,21,10,185,40,45,27,076,45,07,25,052,41,33,34,300,46*64
$GBGSV,5,3,20,50,26,202,,24,39,268,48,10,36,062,42,25,38,258,*67
$GBGSV,5,4,20,42,40,229,48,14,44,267,46,56,38,069,,41,01,336,*6E
$GBGSV,5,5,20,02,04,109,30,29,04,022,,57,01,352,,60,07,111,40*68
$GPGGA,104557.00,,,,,0,00,,,M,,M,,*4A
$PTNL,GGK,104557.00,010125,4742.1601485,N,01618.0999711,E,1,38,0.8,EHT751.1860,M*4D
$GPGGQ,104557.00,010125,4742.1601485,N,01618.0999711,E,1,38,1.092,707.9794,M*3E
$GPGFA,104557.00,3.856,7.941,0.406,0.302,359.678,0.968,,VVV*00
$GPLLK,104557.00,010125,,M,,M,1,38,0.9,,M*0B
$GNGMP,104557.00,,,,,DAAA,38,0.4,,,,*5B
$GPGMP,104557.00,,,,,,09,,,,3.6,136*77
$GLGMP,104557.00,,,,,,09,,,,,*74
$GAGMP,104557.00,,,,,,07,,,,,*77
$GBGMP,104557.00,,,,,,13,,,,,*71
$PSSN,SNC,[0,297975000,2347]*43
$GPZDA,104602.00,01,01,2025,,*62
$GPDTM,W84,,00.0000000,N,00.0000000,E,00.0000000,W84*5F
$PSSN,TFM,104602.00,,,,*6E
$GPRMC,104602.00,A,4742.1601504,N,01618.0999695,E,0.0,,010125,5.1,E,D*13
$GPGLL,4742.1601504,N,01618.0999695,E,104602.00,A,D*62
$GPGGA,104602.00,4742.1601504,N,01618.0999695,E,2,38,0.4,707.9716,M,43.2066,M,2.3,0136*49
$GNGNS,104602.00,4742.1601504,N,01618.0999695,E,DAAA,38,0.4,707.9716,43.2066,,*50
$GPGNS,104602.00,,,,,,09,,,,2.3,136*70
$GLGNS,104602.00,,,,,,09,,,,,*77
$GAGNS,104602.00,,,,,,07,,,,,*74
$GBGNS,104602.00,,,,,,13,,,,,*72
$GPLLQ,104602.00,010125,,M,,M,1,38,1.084,,M*16
$GPVTG,,T,,M,0.00,N,0.01,K,D*27
$GPHDT,,T*1B
$GPTHS,,V*0E
$GPROT,,V*08
$PSSN,HRP,104602.00,010125,,,,,,,00,0,,*60
$PTNL,AVR,104602.00,,Yaw,,Tilt,,,,0,,00*36
$GPGSA,A,3,10,12,13,14,15,17,19,23,24,,,,0.8,0.4,0.7*31
$GPGSA,A,3,65,66,67,68,75,76,77,85,86,,,,0.8,0.4,0.7*35
$GPGSA,A,3,02,03,07,08,10,25,30,,,,,,0.8,0.4,0.7*32
$GPGSA,A,3,05,07,10,14,21,24,26,33,35,40,42,45,0.8,0.4,0.7*3B
$GPGSA,A,3,60,,,,,,,,,,,,0.8,0.4,0.7*3F
$GPGST,104602.00,2.615,0.405,0.299,359.990,0.405,0.299,0.960*56
$GPGBS,104602.00,2.265,1.589,7.139,67,0.0001,7.822,6.073*59
$GPGRS,104602.00,1,-1.1,0.4,0.0,-0.1,-0.1,0.3,-0.1,-0.4,0.2,,,*4C
$GPGRS,104602.00,1,-0.9,-2.8,7.8,5.3,-0.9,-2.4,-7.8,3.7,2.0,,,*40
$GPGRS,104602.00,1,-0.2,-0.7,0.4,-0.1,2.1,0.5,-0.2,,,,,*65
$GPGRS,104602.00,1,0.7,1.6,0.6,2.4,-0.2,0.3,-0.5,-0.0,-2.4,-0.9,-0.3,0.6*41
$GPGRS,104602.00,1,-2.3,,,,,,,,,,,*4D
$GPGSV,5,1,20,24,60,296,49,14,22,058,42,10,14,320,41,12,30,232,45*73
$GPGSV,5,2,20,13,37,158,47,23,20,277,42,17,40,072,47,15,53,207,49*7C
$GPGSV,5,3,20,19,43,117,47,22,43,057,,02,04,026,38,36,35,170,45*7E
$GPGSV,5,4,20,58,13,245,36,40,23,133,37,34,31,208,43,49,34,195,44*7C
$GPGSV,5,5,20,57,07,111,38,41,07,108,35,61,03,257,38*46
$GLGSV,3,1,10,76,66,019,51,86,13,109,43,75,14,063,44,67,47,306,52*6A
$GLGSV,3,2,10,85,24,054,46,66,50,213,52,77,49,275,45,84,07,005,30*6E
$GLGSV,3,3,10,68,08,338,43,65,08,180,38*64
$GAGSV,3,1,10,02,87,150,49,16,11,054,,03,29,158,42,25,35,056,44*69
$GAGSV,3,2,10,07,37,308,44,30,34,230,44,08,70,220,49,10,05,046,36*64
$GAGSV,3,3,10,12,05,024,31,11,03,071,32*6F
$GBGSV,5,1,20,26,81,020,51,35,21,126,44,40,24,040,43,05,20,130,39*68
$GBGSV,5,2,20,21,10,185,41,45,27,076,44,07,25,052,41,33,34,300,46*64
$GBGSV,5,3,20,50,26,202,,24,39,268,48,10,36,062,42,25,38,258,*67
$GBGSV,5,4,20,42,40,229,48,14,44,267,47,56,38,069,,41,01,336,*6F
$GBGSV,5,5,20,02,04,109,30,29,04,022,,57,01,352,,60,07,111,40*68
$GPGGA,104602.00,,,,,0,00,,,M,,M,,*49
$PTNL,GGK,104602.00,010125,4742.1601504,N,01618.0999695,E,1,38,0.8,EHT751.1781,M*4B
$GPGGQ,104602.00,010125,4742.1601504,N,01618.0999695,E,1,38,1.084,707.9716,M*35
$GPGFA,104602.00,3.851,7.871,0.405,0.299,359.990,0.960,,VVV*07
$GPLLK,104602.00,010125,,M,,M,1,38,0.9,,M*08
$GNGMP,104602.00,,,,,DAAA,38,0.4,,,,*58
$GPGMP,104602.00,,,,,,09,,,,2.3,136*70
$GLGMP,104602.00,,,,,,09,,,,,*77
$GAGMP,104602.00,,,,,,07,,,,,*74
$GBGMP,104602.00,,,,,,13,,,,,*72
$PSSN,SNC,[0,297980000,2347]*49
$GPALM,1,1,30,2347,00,3B58,63,FB46,FD44,A10D91,9C02C5,33F592,63CE40,EFC,002*08
$GPZDA,104607.00,01,01,2025,,*67
$GPDTM,W84,,00.0000000,N,00.0000000,E,00.0000000,W84*5F
$PSSN,TFM,104607.00,,,,*6B
$GPRMC,104607.00,A,4742.1601500,N,01618.0999658,E,0.0,,010125,5.1,E,D*13
$GPGLL,4742.1601500,N,01618.0999658,E,104607.00,A,D*62
$GPGGA,104607.00,4742.1601500,N,01618.0999658,E,2,38,0.4,707.9673,M,43.2066,M,1.6,0136*4D
$GNGNS,104607.00,4742.1601500,N,01618.0999658,E,DAAA,38,0.4,707.9673,43.2066,,*52
$GPGNS,104607.00,,,,,,09,,,,1.6,136*73
$GLGNS,104607.00,,,,,,09,,,,,*72
$GAGNS,104607.00,,,,,,07,,,,,*71
$GBGNS,104607.00,,,,,,13,,,,,*77
$GPLLQ,104607.00,010125,,M,,M,1,38,1.059,,M*13
$GPVTG,,T,,M,0.01,N,0.02,K,D*25
$GPHDT,,T*1B
$GPTHS,,V*0E
$GPROT,,V*08
$PSSN,HRP,104607.00,010125,,,,,,,00,0,,*65
$PTNL,AVR,104607.00,,Yaw,,Tilt,,,,0,,00*33
$GPGSA,A,3,10,12,13,14,15,17,19,23,24,,,,0.8,0.4,0.7*31
$GPGSA,A,3,65,66,67,68,75,76,77,85,86,,,,0.8,0.4,0.7*35
$GPGSA,A,3,02,03,07,08,10,25,30,,,,,,0.8,0.4,0.7*32
$GPGSA,A,3,05,07,10,14,21,24,26,33,35,40,42,45,0.8,0.4,0.7*3B
$GPGSA,A,3,60,,,,,,,,,,,,0.8,0.4,0.7*3F
$GPGST,104607.00,2.510,0.397,0.293,0.328,0.397,0.293,0.937*51
$GPGBS,104607.00,2.283,1.549,7.190,77,0.0001,-7.380,6.072*75
$GPGRS,104607.00,1,-0.9,0.3,0.1,0.0,-0.1,0.2,-0.2,-0.1,0.3,,,*6C
$GPGRS,104607.00,1,-1.6,-2.9,7.2,5.0,-1.1,-2.6,-7.4,4.0,1.3,,,*44
$GPGRS,104607.00,1,-0.0,-0.7,0.4,-0.2,2.3,0.4,-0.2,,,,,*62
$GPGRS,104607.00,1,1.0,1.3,0.6,2.5,0.1,0.0,-0.4,0.1,-2.2,-0.8,-0.0,0.2*46
$GPGRS,104607.00,1,-2.3,,,,,,,,,,,*48
$GPGSV,5,1,20,24,60,297,49,14,22,058,42,10,14,320,42,12,30,232,45*71
$GPGSV,5,2,20,13,37,158,47,23,20,277,43,17,40,072,46,15,53,207,49*7C
$GPGSV,5,3,20,19,43,117,47,22,43,057,,02,04,026,37,36,35,170,45*71
$GPGSV,5,4,20,58,13,245,36,40,23,133,37,34,31,208,43,49,34,195,44*7C
$GPGSV,5,5,20,57,07,111,38,41,07,108,35,61,03,257,38*46
$GLGSV,3,1,10,76,66,019,51,86,13,109,43,75,14,063,44,67,47,306,52*6A
$GLGSV,3,2,10,85,24,054,47,66,49,213,52,77,49,275,45,84,07,005,30*67
$GLGSV,3,3,10,68,08,338,43,65,08,180,38*64
$GAGSV,3,1,10,02,87,149,49,16,11,054,,03,29,158,42,25,35,056,44*61
$GAGSV,3,2,10,07,37,308,44,30,34,230,44,08,70,220,49,10,05,046,36*64
$GAGSV,3,3,10,12,05,024,31,11,03,071,32*6F
$GBGSV,5,1,20,26,81,020,51,35,21,126,44,40,24,040,43,05,20,130,38*69
$GBGSV,5,2,20,21,10,185,41,45,27,076,44,07,25,052,41,33,34,300,46*64
$GBGSV,5,3,20,50,26,202,,24,39,268,48,10,36,062,42,25,38,258,*67
$GBGSV,5,4,20,42,40,229,47,14,44,267,47,56,38,069,,41,01,336,*60
$GBGSV,5,5,20,02,04,109,30,29,04,022,,57,01,351,,60,07,111,40*6B
$GPGGA,104607.00,,,,,0,00,,,M,,M,,*4C
$PTNL,GGK,104607.00,010125,4742.1601500,N,01618.0999658,E,1,38,0.8,EHT751.1738,M*49
$GPGGQ,104607.00,010125,4742.1601500,N,01618.0999658,E,1,38,1.059,707.9673,M*37
$GPGFA,104607.00,3.770,7.682,0.397,0.293,0.328,0.937,,VVV*0E
$GPLLK,104607.00,010125,,M,,M,1,38,0.9,,M*0D
$GNGMP,104607.00,,,,,DAAA,38,0.4,,,,*5D
$GPGMP,104607.00,,,,,,09,,,,1.6,136*73
$GLGMP,104607.00,,,,,,09,,,,,*72
$GAGMP,104607.00,,,,,,07,,,,,*71
$GBGMP,104607.00,,,,,,13,,,,,*77
$PSSN,SNC,[0,297985000,2347]*4C
$GPZDA,104612.00,01,01,2025,,*63
$GPDTM,W84,,00.0000000,N,00.0000000,E,00.0000000,W84*5F
$PSSN,TFM,104612.00,,,,*6F
$GPRMC,104612.00,A,4742.1601515,N,01618.0999676,E,0.0,,010125,5.1,E,D*1F
$GPGLL,4742.1601515,N,01618.0999676,E,104612.00,A,D*6E
$GPGGA,104612.00,4742.1601515,N,01618.0999676,E,2,38,0.4,707.9637,M,43.2066,M,2.6,0136*42
$GNGNS,104612.00,4742.1601515,N,01618.0999676,E,DAAA,38,0.4,707.9637,43.2066,,*5E
$GPGNS,104612.00,,,,,,09,,,,2.6,136*74
$GLGNS,104612.00,,,,,,09,,,,,*76
$GAGNS,104612.00,,,,,,07,,,,,*75
$GBGNS,104612.00,,,,,,13,,,,,*73
$GPLLQ,104612.00,010125,,M,,M,1,38,1.067,,M*1A
$GPVTG,,T,,M,0.00,N,0.00,K,D*26
$GPHDT,,T*1B
$GPTHS,,V*0E
$GPROT,,V*08
$PSSN,HRP,104612.00,010125,,,,,,,00,0,,*61
$PTNL,AVR,104612.00,,Yaw,,Tilt,,,,0,,00*37
$GPGSA,A,3,10,12,13,14,15,17,19,23,24,,,,0.8,0.4,0.7*31
$GPGSA,A,3,65,66,67,68,75,76,77,85,86,,,,0.8,0.4,0.7*35
$GPGSA,A,3,02,03,07,08,10,25,30,,,,,,0.8,0.4,0.7*32
$GPGSA,A,3,05,07,10,14,21,24,26,33,35,40,42,45,0.8,0.4,0.7*3B
$GPGSA,A,3,60,,,,,,,,,,,,0.8,0.4,0.7*3F
$GPGST,104612.00,2.495,0.396,0.295,359.829,0.396,0.295,0.946*5A
$GPGBS,104612.00,2.323,1.562,7.316,77,0.0001,-7.683,6.072*79
$GPGRS,104612.00,1,-0.8,0.4,-0.2,-0.2,-0.1,0.2,-0.1,0.4,0.2,,,*45
$GPGRS,104612.00,1,-1.0,-2.9,7.3,4.3,-1.6,-2.6,-7.7,3.4,1.1,,,*40
$GPGRS,104612.00,1,-0.2,-0.8,-0.0,-0.4,2.6,-0.0,-0.4,,,,,*6E
$GPGRS,104612.00,1,0.9,1.4,0.5,2.4,0.0,0.1,-0.6,0.4,-2.4,-0.9,-0.7,-0.3*64
$GPGRS,104612.00,1,-2.5,,,,,,,,,,,*4A
$GPGSV,5,1,20,24,60,297,49,14,22,058,41,10,14,319,41,12,30,232,44*7A
$GPGSV,5,2,20,13,37,158,46,23,20,277,42,17,40,072,47,15,53,207,48*7C
$GPGSV,5,3,20,19,43,117,47,22,43,057,,02,04,026,37,36,35,170,45*71
$GPGSV,5,4,20,58,13,245,36,40,23,133,37,34,31,208,43,49,34,195,45*7D
$GPGSV,5,5,20,57,07,111,38,41,07,108,35,61,03,257,38*46
$GLGSV,3,1,10,76,66,019,51,86,13,109,43,75,14,063,44,67,47,306,52*6A
$GLGSV,3,2,10,85,24,054,46,66,49,213,53,77,49,275,45,84,07,005,29*6F
$GLGSV,3,3,10,68,08,338,43,65,08,180,39*65
$GAGSV,3,1,10,02,87,149,49,16,11,054,,03,29,158,43,25,35,056,44*60
$GAGSV,3,2,10,07,37,308,44,30,34,230,44,08,70,220,49,10,05,046,36*64
$GAGSV,3,3,10,12,05,024,31,11,03,071,32*6F
$GBGSV,5,1,20,26,81,020,51,35,21,126,44,40,24,040,43,05,20,130,38*69
$GBGSV,5,2,20,21,10,185,41,45,27,076,44,07,25,052,41,33,34,300,47*65
$GBGSV,5,3,20,50,26,202,,24,39,268,48,10,36,062,42,25,38,258,*67
$GBGSV,5,4,20,42,40,229,47,14,44,267,47,56,38,069,,41,01,336,*60
$GBGSV,5,5,20,02,04,109,30,29,04,022,,57,01,351,,60,07,111,40*6B
$GPGGA,104612.00,,,,,0,00,,,M,,M,,*48
$PTNL,GGK,104612.00,010125,4742.1601515,N,01618.0999676,E,1,38,0.8,EHT751.1703,M*4D
$GPGGQ,104612.00,010125,4742.1601515,N,01618.0999676,E,1,38,1.067,707.9637,M*36
$GPGFA,104612.00,3.769,7.755,0.396,0.295,359.829,0.946,,VVV*0D
$GPLLK,104612.00,010125,,M,,M,1,38,0.9,,M*09
$GNGMP,104612.00,,,,,DAAA,38,0.4,,,,*59
$GPGMP,104612.00,,,,,,09,,,,2.6,136*74
$GLGMP,104612.00,,,,,,09,,,,,*76
$GAGMP,104612.00,,,,,,07,,,,,*75
$GBGMP,104612.00,,,,,,13,,,,,*73
$PSSN,SNC,[0,297990000,2347]*48
$GPALM,1,1,08,2347,00,5433,63,0505,FD53,A10D72,103333,87D787,DB6B68,1DA,002*78
$GPZDA,104617.00,01,01,2025,,*66
$GPDTM,W84,,00.0000000,N,00.0000000,E,00.0000000,W84*5F
$PSSN,TFM,104617.00,,,,*6A
$GPRMC,104617.00,A,4742.1601498,N,01618.0999686,E,0.0,,010125,5.1,E,D*11
$GPGLL,4742.1601498,N,01618.0999686,E,104617.00,A,D*60
$GPGGA,104617.00,4742.1601498,N,01618.0999686,E,2,38,0.4,707.9636,M,43.2066,M,3.6,0136*4C
$GNGNS,104617.00,4742.1601498,N,01618.0999686,E,DAAA,38,0.4,707.9636,43.2066,,*51
$GPGNS,104617.00,,,,,,09,,,,3.6,136*70
$GLGNS,104617.00,,,,,,09,,,,,*73
$GAGNS,104617.00,,,,,,07,,,,,*70
$GBGNS,104617.00,,,,,,13,,,,,*76
$GPLLQ,104617.00,010125,,M,,M,1,38,1.086,,M*10
$GPVTG,,T,,M,0.01,N,0.01,K,D*26
$GPHDT,,T*1B
$GPTHS,,V*0E
$GPROT,,V*08
$PSSN,HRP,104617.00,010125,,,,,,,00,0,,*64
$PTNL,AVR,104617.00,,Yaw,,Tilt,,,,0,,00*32
$GPGSA,A,3,10,12,13,14,15,17,19,23,24,,,,0.8,0.4,0.7*31
$GPGSA,A,3,65,66,67,68,75,76,77,85,86,,,,0.8,0.4,0.7*35
$GPGSA,A,3,02,03,07,08,10,25,30,,,,,,0.8,0.4,0.7*32
$GPGSA,A,3,05,07,10,14,21,24,26,33,35,40,42,45,0.8,0.4,0.7*3B
$GPGSA,A,3,60,,,,,,,,,,,,0.8,0.4,0.7*3F
$GPGST,104617.00,2.458,0.404,0.300,359.556,0.404,0.300,0.963*5C
$GPGBS,104617.00,2.369,1.577,7.461,77,0.0001,-8.083,6.072*78
$GPGRS,104617.00,1,-0.9,0.3,0.0,0.0,-0.2,0.1,-0.1,0.0,0.3,,,*43
$GPGRS,104617.00,1,-0.7,-2.7,7.5,4.0,-0.5,-2.3,-8.1,2.9,0.8,,,*42
$GPGRS,104617.00,1,-0.4,-0.8,0.1,-0.3,2.0,0.0,0.3,,,,,*47
$GPGRS,104617.00,1,1.1,1.3,0.8,1.9,0.3,-0.1,-0.5,0.3,-2.4,-0.9,-0.7,-0.5*40
$GPGRS,104617.00,1,-2.5,,,,,,,,,,,*4F
$GPGSV,5,1,20,24,60,297,49,14,22,058,41,10,14,319,40,12,30,232,45*7A
$GPGSV,5,2,20,13,37,158,47,23,20,277,42,17,40,072,47,15,53,207,48*7D
$GPGSV,5,3,20,19,43,117,48,22,43,057,,02,04,026,38,36,35,170,45*71
$GPGSV,5,4,20,58,13,245,36,40,23,133,37,34,31,208,43,49,34,195,45*7D
$GPGSV,5,5,20,57,07,111,38,41,07,108,35,61,03,257,38*46
$GLGSV,3,1,10,76,66,020,51,86,14,109,42,75,14,063,45,67,48,305,51*68
$GLGSV,3,2,10,85,24,054,46,66,49,213,52,77,49,275,45,84,07,004,30*67
$GLGSV,3,3,10,68,08,338,43,65,08,180,39*65
$GAGSV,3,1,10,02,87,148,49,16,11,054,,03,29,158,43,25,35,056,44*61
$GAGSV,3,2,10,07,37,308,44,30,34,230,44,08,70,220,49,10,05,046,36*64
$GAGSV,3,3,10,12,05,024,31,11,03,071,32*6F
$GBGSV,5,1,20,26,81,020,51,35,21,126,44,40,24,040,43,05,20,130,38*69
$GBGSV,5,2,20,21,10,185,41,45,27,076,45,07,25,052,41,33,34,300,47*64
$GBGSV,5,3,20,50,26,202,,24,39,268,48,10,36,062,42,25,38,258,*67
$GBGSV,5,4,20,42,40,229,47,14,44,267,46,56,38,069,,41,01,336,*61
$GBGSV,5,5,20,02,04,109,30,29,04,022,,57,01,351,,60,07,111,40*6B
$GPGGA,104617.00,,,,,0,00,,,M,,M,,*4D
$PTNL,GGK,104617.00,010125,4742.1601498,N,01618.0999686,E,1,38,0.8,EHT751.1701,M*41
