$GPZDA,234442.00,01,01,2025,,*64
$GPDTM,W84,,00.0000000,N,00.0000000,E,00.0000000,W84*5F
$PSSN,TFM,234442.00,,,,*68
$GPRMC,234442.00,A,4742.1602474,N,01618.1002867,E,0.0,,010125,5.1,E,D*19
$GPGLL,4742.1602474,N,01618.1002867,E,234442.00,A,D*68
$GPGGA,234442.00,4742.1602474,N,01618.1002867,E,2,38,0.4,708.3356,M,43.2066,M,2.4,0136*41
$GNGNS,234442.00,4742.1602474,N,01618.1002867,E,DAAA,38,0.4,708.3356,43.2066,,*5F
$GPGNS,234442.00,,,,,,09,,,,2.4,136*71
$GLGNS,234442.00,,,,,,07,,,,,*7F
$GAGNS,234442.00,,,,,,08,,,,,*7D
$GBGNS,234442.00,,,,,,14,,,,,*73
$GPLLQ,234442.00,010125,,M,,M,1,38,0.899,,M*15
$GPVTG,,T,,M,0.00,N,0.01,K,D*27
$GPHDT,,T*1B
$GPTHS,,V*0E
$GPROT,,V*08
$PSSN,HRP,234442.00,010125,,,,,,,00,0,,*66
$PTNL,AVR,234442.00,,Yaw,,Tilt,,,,0,,00*30
$GPGSA,A,3,02,03,08,10,14,17,21,28,32,,,,0.7,0.4,0.6*34
$GPGSA,A,3,69,70,71,77,84,85,86,,,,,,0.7,0.4,0.6*36
$GPGSA,A,3,07,08,12,24,26,29,31,33,,,,,0.7,0.4,0.6*30
$GPGSA,A,3,05,06,09,13,16,27,28,29,30,32,33,39,0.7,0.4,0.6*34
$GPGSA,A,3,41,60,,,,,,,,,,,0.7,0.4,0.6*34
$GPGST,234442.00,2.671,0.442,0.357,345.707,0.437,0.362,0.696*5D
$GPGBS,234442.00,3.944,2.423,4.263,77,0.0001,-11.646,6.418*45
$GPGRS,234442.00,1,-0.1,-0.0,-0.1,0.1,0.2,0.3,-0.4,-0.3,0.3,,,*4E
$GPGRS,234442.00,1,0.9,-2.3,5.3,-11.6,3.5,4.3,-1.1,,,,,*73
$GPGRS,234442.00,1,0.0,-0.5,-0.6,-0.2,0.2,0.4,-0.1,0.2,,,,*4D
$GPGRS,234442.00,1,1.7,0.4,1.3,-2.9,0.9,0.1,-0.8,0.1,0.3,-0.1,-0.7,-0.0*6B
$GPGRS,234442.00,1,-1.0,-1.8,,,,,,,,,,*41
$GPGSV,6,1,21,02,80,308,50,10,11,065,40,08,27,184,43,28,13,103,39*78
$GPGSV,6,2,21,17,23,315,42,32,39,057,47,03,44,255,47,21,76,118,45*7B
$GPGSV,6,3,21,27,02,165,,04,04,197,37,31,02,128,,14,10,282,39*7C
$GPGSV,6,4,21,36,35,170,45,58,13,245,38,57,10,109,39,34,31,208,42*73
$GPGSV,6,5,21,40,24,132,36,49,34,195,44,41,07,108,35,61,03,257,38*7B
$GPGSV,6,6,21*7A
$GLGSV,3,1,10,85,75,336,52,71,12,212,46,86,19,317,46,69,49,040,50*6C
$GLGSV,3,2,10,84,45,128,38,70,59,208,42,78,00,037,,76,03,303,40*62
$GLGSV,3,3,10,68,02,034,38,77,08,344,39*65
$GAGSV,3,1,11,33,69,313,48,31,12,259,38,29,45,162,46,12,15,296,36*6E
$GAGSV,3,2,11,07,49,073,46,24,13,309,39,26,55,103,47,19,10,193,34*61
$GAGSV,3,3,11,13,05,112,34,08,09,035,37,16,07,333,*5A
$GBGSV,5,1,18,57,79,015,,60,10,109,40,33,17,049,42,28,19,145,42*6C
$GBGSV,5,2,18,09,19,090,39,39,23,062,42,05,24,128,39,16,22,073,41*6A
$GBGSV,5,3,18,20,44,203,,06,21,077,39,32,51,217,50,27,62,165,52*68
$GBGSV,5,4,18,30,57,294,50,41,67,064,51,31,03,096,,29,06,315,41*6B
$GBGSV,5,5,18,02,08,105,34,13,07,071,39*62
$GPGGA,234442.00,,,,,0,00,,,M,,M,,*4F
$PTNL,GGK,234442.00,010125,4742.1602474,N,01618.1002867,E,1,38,0.7,EHT751.5421,M*43
$GPGGQ,234442.00,010125,4742.1602474,N,01618.1002867,E,1,38,0.899,708.3356,M*3F
$GPGFA,234442.00,4.200,5.711,0.442,0.357,345.707,0.696,,VVV*08
$GPLLK,234442.00,010125,,M,,M,1,38,0.8,,M*0F
$GNGMP,234442.00,,,,,DAAA,38,0.4,,,,*5E
$GPGMP,234442.00,,,,,,09,,,,2.4,136*71
$GLGMP,234442.00,,,,,,07,,,,,*7F
$GAGMP,234442.00,,,,,,08,,,,,*7D
$GBGMP,234442.00,,,,,,14,,,,,*73
$PSSN,SNC,[0,344700000,2347]*40
$GPZDA,234447.00,01,01,2025,,*61
$GPDTM,W84,,00.0000000,N,00.0000000,E,00.0000000,W84*5F
$PSSN,TFM,234447.00,,,,*6D
$GPRMC,234447.00,A,4742.1602464,N,01618.1002853,E,0.0,,010125,5.1,E,D*1A
$GPGLL,4742.1602464,N,01618.1002853,E,234447.00,A,D*6B
$GPGGA,234447.00,4742.1602464,N,01618.1002853,E,2,38,0.4,708.3379,M,43.2066,M,3.4,0136*4E
$GNGNS,234447.00,4742.1602464,N,01618.1002853,E,DAAA,38,0.4,708.3379,43.2066,,*51
$GPGNS,234447.00,,,,,,09,,,,3.4,136*75
$GLGNS,234447.00,,,,,,07,,,,,*7A
$GAGNS,234447.00,,,,,,08,,,,,*78
$GBGNS,234447.00,,,,,,14,,,,,*76
$GPLLQ,234447.00,010125,,M,,M,1,38,0.906,,M*17
$GPVTG,,T,,M,0.00,N,0.00,K,D*26
$GPHDT,,T*1B
$GPTHS,,V*0E
$GPROT,,V*08
$PSSN,HRP,234447.00,010125,,,,,,,00,0,,*63
$PTNL,AVR,234447.00,,Yaw,,Tilt,,,,0,,00*35
$GPGSA,A,3,02,03,08,10,14,17,21,28,32,,,,0.7,0.4,0.6*34
$GPGSA,A,3,69,70,71,77,84,85,86,,,,,,0.7,0.4,0.6*36
$GPGSA,A,3,07,08,12,24,26,29,31,33,,,,,0.7,0.4,0.6*30
$GPGSA,A,3,05,06,09,13,16,27,28,29,30,32,33,39,0.7,0.4,0.6*34
$GPGSA,A,3,41,60,,,,,,,,,,,0.7,0.4,0.6*34
$GPGST,234447.00,2.654,0.444,0.361,346.884,0.440,0.366,0.702*53
$GPGBS,234447.00,4.003,2.449,4.319,77,0.0001,-11.560,6.418*4A
$GPGRS,234447.00,1,0.0,-0.3,-0.3,0.0,0.4,0.3,0.1,-0.4,0.1,,,*4C
$GPGRS,234447.00,1,0.9,-2.5,5.7,-11.6,3.3,4.3,-0.5,,,,,*77
$GPGRS,234447.00,1,0.2,-0.6,-0.7,-0.1,0.2,0.6,-0.2,0.1,,,,*49
$GPGRS,234447.00,1,1.4,-0.1,0.7,-2.4,0.0,0.4,-1.0,-0.3,0.3,-0.0,-0.6,0.0*4A
$GPGRS,234447.00,1,-0.9,-1.8,,,,,,,,,,*4C
$GPGSV,6,1,21,02,80,308,50,10,11,065,40,08,27,184,43,28,13,103,39*78
$GPGSV,6,2,21,17,23,315,43,32,39,057,47,03,44,255,46,21,76,118,45*7B
$GPGSV,6,3,21,27,02,165,,04,04,197,37,31,02,128,,14,10,282,39*7C
$GPGSV,6,4,21,36,35,170,45,58,13,245,38,57,10,109,38,34,31,208,42*72
$GPGSV,6,5,21,40,24,132,36,49,34,195,44,41,07,108,35,61,03,257,38*7B
$GPGSV,6,6,21*7A
$GLGSV,3,1,10,85,75,336,52,71,12,212,45,86,19,317,46,69,49,040,50*6F
$GLGSV,3,2,10,84,45,128,38,70,59,208,42,78,00,037,,76,03,303,42*60
$GLGSV,3,3,10,68,02,034,38,77,08,344,38*64
$GAGSV,3,1,11,33,69,313,48,31,12,259,39,29,45,162,47,12,15,296,36*6E
$GAGSV,3,2,11,07,49,073,46,24,13,309,38,26,55,103,47,19,10,193,34*60
$GAGSV,3,3,11,13,05,112,33,08,09,035,37,16,07,333,*5D
$GBGSV,5,1,18,57,79,016,,60,10,109,41,33,17,049,42,28,19,145,43*6F
$GBGSV,5,2,18,09,19,090,39,05,24,128,39,39,23,062,43,16,22,073,41*6B
$GBGSV,5,3,18,20,44,203,,06,21,077,38,32,51,217,50,27,62,165,51*6A
$GBGSV,5,4,18,30,57,294,50,41,67,064,51,13,07,071,39,29,06,315,41*6C
$GBGSV,5,5,18,02,08,105,35,31,03,096,*64
$GPGGA,234447.00,,,,,0,00,,,M,,M,,*4A
$PTNL,GGK,234447.00,010125,4742.1602464,N,01618.1002853,E,1,38,0.7,EHT751.5445,M*42
$GPGGQ,234447.00,010125,4742.1602464,N,01618.1002853,E,1,38,0.906,708.3379,M*36
$GPGFA,234447.00,4.224,5.756,0.444,0.361,346.884,0.702,,VVV*00
$GPLLK,234447.00,010125,,M,,M,1,38,0.8,,M*0A
$GNGMP,234447.00,,,,,DAAA,38,0.4,,,,*5B
$GPGMP,234447.00,,,,,,09,,,,3.4,136*75
$GLGMP,234447.00,,,,,,07,,,,,*7A
$GAGMP,234447.00,,,,,,08,,,,,*78
$GBGMP,234447.00,,,,,,14,,,,,*76
$PSSN,SNC,[0,344705000,2347]*45
$GPZDA,234452.00,01,01,2025,,*65
$GPDTM,W84,,00.0000000,N,00.0000000,E,00.0000000,W84*5F
$PSSN,TFM,234452.00,,,,*69
$GPRMC,234452.00,A,4742.1602438,N,01618.1002849,E,0.0,,010125,5.1,E,D*1C
$GPGLL,4742.1602438,N,01618.1002849,E,234452.00,A,D*6D
$GPGGA,234452.00,4742.1602438,N,01618.1002849,E,2,38,0.4,708.3351,M,43.2066,M,1.9,0136*4D
$GNGNS,234452.00,4742.1602438,N,01618.1002849,E,DAAA,38,0.4,708.3351,43.2066,,*5D
$GPGNS,234452.00,,,,,,09,,,,1.9,136*7E
$GLGNS,234452.00,,,,,,07,,,,,*7E
$GAGNS,234452.00,,,,,,08,,,,,*7C
$GBGNS,234452.00,,,,,,14,,,,,*72
$GPLLQ,234452.00,010125,,M,,M,1,38,0.905,,M*10
$GPVTG,,T,,M,0.00,N,0.01,K,D*27
$GPHDT,,T*1B
$GPTHS,,V*0E
$GPROT,,V*08
$PSSN,HRP,234452.00,010125,,,,,,,00,0,,*67
$PTNL,AVR,234452.00,,Yaw,,Tilt,,,,0,,00*31
$GPGSA,A,3,02,03,08,10,14,17,21,28,32,,,,0.7,0.4,0.6*34
$GPGSA,A,3,69,70,71,77,84,85,86,,,,,,0.7,0.4,0.6*36
$GPGSA,A,3,07,08,12,24,26,29,31,33,,,,,0.7,0.4,0.6*30
$GPGSA,A,3,05,06,09,13,16,27,28,29,30,32,33,39,0.7,0.4,0.6*34
$GPGSA,A,3,41,60,,,,,,,,,,,0.7,0.4,0.6*34
$GPGST,234452.00,2.626,0.443,0.363,347.074,0.440,0.367,0.700*52
$GPGBS,234452.00,3.898,2.406,4.341,77,0.0001,-11.838,6.422*4C
$GPGRS,234452.00,1,-0.1,-0.0,-0.1,-0.2,0.2,0.4,-0.1,-0.3,0.2,,,*62
$GPGRS,234452.00,1,0.7,-3.0,4.2,-11.8,3.8,4.2,-0.2,,,,,*7E
$GPGRS,234452.00,1,0.3,-0.6,-0.3,-0.5,-0.1,0.3,0.3,-0.1,,,,*66
$GPGRS,234452.00,1,1.3,-0.5,0.2,-2.4,-0.1,0.2,-0.9,-0.8,0.4,-0.1,-0.9,-0.3*46
$GPGRS,234452.00,1,-1.0,-1.4,,,,,,,,,,*4C
$GPGSV,6,1,21,02,80,308,50,10,11,065,40,08,27,184,43,28,13,103,39*78
$GPGSV,6,2,21,17,23,315,43,32,39,057,47,03,44,255,47,21,76,118,45*7A
$GPGSV,6,3,21,27,02,165,,04,04,197,37,31,03,128,,14,10,282,38*7C
$GPGSV,6,4,21,36,35,170,45,58,13,245,38,57,10,109,39,34,31,208,43*72
$GPGSV,6,5,21,40,24,132,36,49,34,195,44,41,07,108,35,61,03,257,38*7B
$GPGSV,6,6,21*7A
$GLGSV,3,1,10,85,75,336,51,71,12,212,44,86,19,317,45,69,49,040,50*6E
$GLGSV,3,2,10,84,45,128,38,70,59,208,42,78,00,037,,76,02,303,42*61
$GLGSV,3,3,10,68,02,034,37,77,08,344,37*64
$GAGSV,3,1,11,33,69,313,48,31,12,259,38,29,46,162,46,12,15,296,36*6D
$GAGSV,3,2,11,07,49,073,46,24,13,309,38,26,55,103,47,19,10,193,34*60
$GAGSV,3,3,11,13,05,112,33,08,09,035,37,16,07,333,*5D
$GBGSV,5,1,18,57,79,016,,60,10,109,41,33,17,049,43,28,19,145,43*6E
$GBGSV,5,2,18,09,19,090,39,05,24,128,39,39,23,062,43,16,22,073,41*6B
$GBGSV,5,3,18,20,44,203,,06,21,077,38,32,51,217,50,27,62,165,51*6A
$GBGSV,5,4,18,30,57,294,50,41,67,064,51,13,07,071,39,29,06,315,41*6C
$GBGSV,5,5,18,02,08,105,34,31,03,096,*65
$GPGGA,234452.00,,,,,0,00,,,M,,M,,*4E
$PTNL,GGK,234452.00,010125,4742.1602438,N,01618.1002849,E,1,38,0.7,EHT751.5417,M*43
$GPGGQ,234452.00,010125,4742.1602438,N,01618.1002849,E,1,38,0.905,708.3351,M*39
$GPGFA,234452.00,4.216,5.741,0.443,0.363,347.074,0.700,,VVV*02
$GPLLK,234452.00,010125,,M,,M,1,38,0.8,,M*0E
$GNGMP,234452.00,,,,,DAAA,38,0.4,,,,*5F
$GPGMP,234452.00,,,,,,09,,,,1.9,136*7E
$GLGMP,234452.00,,,,,,07,,,,,*7E
$GAGMP,234452.00,,,,,,08,,,,,*7C
$GBGMP,234452.00,,,,,,14,,,,,*72
$PSSN,SNC,[0,344710000,2347]*41
$GPZDA,234457.00,01,01,2025,,*60
$GPDTM,W84,,00.0000000,N,00.0000000,E,00.0000000,W84*5F
$PSSN,TFM,234457.00,,,,*6C
$GPRMC,234457.00,A,4742.1602443,N,01618.1002866,E,0.0,,010125,5.1,E,D*18
$GPGLL,4742.1602443,N,01618.1002866,E,234457.00,A,D*69
$GPGGA,234457.00,4742.1602443,N,01618.1002866,E,2,38,0.4,708.3382,M,43.2066,M,2.4,0136*49
$GNGNS,234457.00,4742.1602443,N,01618.1002866,E,DAAA,38,0.4,708.3382,43.2066,,*57
$GPGNS,234457.00,,,,,,09,,,,2.4,136*75
$GLGNS,234457.00,,,,,,07,,,,,*7B
$GAGNS,234457.00,,,,,,08,,,,,*79
$GBGNS,234457.00,,,,,,14,,,,,*77
$GPLLQ,234457.00,010125,,M,,M,1,38,0.893,,M*1B
$GPVTG,,T,,M,0.00,N,0.01,K,D*27
$GPHDT,,T*1B
$GPTHS,,V*0E
$GPROT,,V*08
$PSSN,HRP,234457.00,010125,,,,,,,00,0,,*62
$PTNL,AVR,234457.00,,Yaw,,Tilt,,,,0,,00*34
$GPGSA,A,3,02,03,08,10,14,17,21,28,32,,,,0.7,0.4,0.6*34
$GPGSA,A,3,69,70,71,77,84,85,86,,,,,,0.7,0.4,0.6*36
$GPGSA,A,3,07,08,12,24,26,29,31,33,,,,,0.7,0.4,0.6*30
$GPGSA,A,3,05,06,09,13,16,27,28,29,30,32,33,39,0.7,0.4,0.6*34
$GPGSA,A,3,41,60,,,,,,,,,,,0.7,0.4,0.6*34
$GPGST,234457.00,2.559,0.439,0.358,346.058,0.435,0.363,0.691*59
$GPGBS,234457.00,3.949,2.415,4.429,77,0.0001,-11.643,6.419*45
$GPGRS,234457.00,1,0.0,0.0,-0.4,-0.3,0.4,-0.1,-0.1,-0.4,0.4,,,*4D
$GPGRS,234457.00,1,1.0,-2.1,4.1,-11.6,2.8,4.1,-1.4,,,,,*75
$GPGRS,234457.00,1,0.2,-0.4,-0.0,-0.6,0.1,0.4,0.2,-0.0,,,,*4A
$GPGRS,234457.00,1,1.3,-0.6,0.7,-3.3,0.2,0.2,-0.6,-0.6,0.5,-0.2,-0.7,-0.2*61
$GPGRS,234457.00,1,-0.7,-1.6,,,,,,,,,,*4D
$GPGSV,6,1,21,02,81,308,50,10,11,065,40,08,27,184,44,28,13,103,38*7F
$GPGSV,6,2,21,17,23,315,43,32,39,057,47,03,44,255,46,21,76,118,45*7B
$GPGSV,6,3,21,27,01,165,,04,04,197,37,31,03,128,,14,10,282,39*7E
$GPGSV,6,4,21,36,35,170,45,58,13,245,38,57,10,109,39,34,31,208,42*73
$GPGSV,6,5,21,40,24,132,36,49,34,195,44,41,07,108,34,61,03,257,38*7A
$GPGSV,6,6,21*7A
$GLGSV,3,1,10,85,75,336,51,71,12,212,43,86,19,317,45,69,49,040,50*69
$GLGSV,3,2,10,84,45,128,38,70,59,208,42,78,00,037,,76,02,303,41*62
$GLGSV,3,3,10,68,02,034,37,77,08,344,38*6B
$GAGSV,3,1,11,33,69,313,48,31,12,259,39,29,46,162,46,12,15,296,36*6C
$GAGSV,3,2,11,07,49,073,46,24,13,309,39,26,55,103,47,19,10,193,34*61
$GAGSV,3,3,11,13,05,112,33,08,09,035,37,16,07,333,*5D
$GBGSV,5,1,18,57,79,016,,60,10,109,41,33,17,049,43,28,19,145,44*69
$GBGSV,5,2,18,09,19,090,39,05,24,128,39,39,23,062,43,16,22,073,41*6B
$GBGSV,5,3,18,20,44,203,,06,21,077,38,32,51,217,50,27,62,165,51*6A
$GBGSV,5,4,18,30,57,294,50,41,67,064,51,13,07,071,38,29,06,315,41*6D
$GBGSV,5,5,18,02,08,105,35,31,03,096,*64
$GPGGA,234457.00,,,,,0,00,,,M,,M,,*4B
$PTNL,GGK,234457.00,010125,4742.1602443,N,01618.1002866,E,1,38,0.7,EHT751.5447,M*42
$GPGGQ,234457.00,010125,4742.1602443,N,01618.1002866,E,1,38,0.893,708.3382,M*3D
$GPGFA,234457.00,4.173,5.665,0.439,0.358,346.058,0.691,,VVV*03
$GPLLK,234457.00,010125,,M,,M,1,38,0.8,,M*0B
$GNGMP,234457.00,,,,,DAAA,38,0.4,,,,*5A
$GPGMP,234457.00,,,,,,09,,,,2.4,136*75
$GLGMP,234457.00,,,,,,07,,,,,*7B
$GAGMP,234457.00,,,,,,08,,,,,*79
$GBGMP,234457.00,,,,,,14,,,,,*77
$PSSN,SNC,[0,344715000,2347]*44
$GPZDA,234502.00,01,01,2025,,*61
$GPDTM,W84,,00.0000000,N,00.0000000,E,00.0000000,W84*5F
$PSSN,TFM,234502.00,,,,*6D
$GPRMC,234502.00,A,4742.1602436,N,01618.1002846,E,0.0,,010125,5.1,E,D*19
$GPGLL,4742.1602436,N,01618.1002846,E,234502.00,A,D*68
$GPGGA,234502.00,4742.1602436,N,01618.1002846,E,2,38,0.4,708.3343,M,43.2066,M,2.4,0136*45
$GNGNS,234502.00,4742.1602436,N,01618.1002846,E,DAAA,38,0.4,708.3343,43.2066,,*5B
$GPGNS,234502.00,,,,,,09,,,,2.4,136*74
$GLGNS,234502.00,,,,,,07,,,,,*7A
$GAGNS,234502.00,,,,,,08,,,,,*78
$GBGNS,234502.00,,,,,,14,,,,,*76
$GPLLQ,234502.00,010125,,M,,M,1,38,0.899,,M*10
$GPVTG,,T,,M,0.00,N,0.00,K,D*26
$GPHDT,,T*1B
$GPTHS,,V*0E
$GPROT,,V*08
$PSSN,HRP,234502.00,010125,,,,,,,00,0,,*63
$PTNL,AVR,234502.00,,Yaw,,Tilt,,,,0,,00*35
$GPGSA,A,3,02,03,08,10,14,17,21,28,32,,,,0.7,0.4,0.6*34
$GPGSA,A,3,69,70,71,77,84,85,86,,,,,,0.7,0.4,0.6*36
$GPGSA,A,3,07,08,12,24,26,29,31,33,,,,,0.7,0.4,0.6*30
$GPGSA,A,3,05,06,09,13,16,27,28,29,30,32,33,39,0.7,0.4,0.6*34
$GPGSA,A,3,41,60,,,,,,,,,,,0.7,0.4,0.6*34
$GPGST,234502.00,2.565,0.442,0.357,345.873,0.437,0.363,0.697*52
$GPGBS,234502.00,3.942,2.427,4.262,77,0.0001,-11.614,6.417*4B
$GPGRS,234502.00,1,-0.0,-0.2,-0.2,0.0,0.4,-0.3,-0.1,-0.7,0.4,,,*67
$GPGRS,234502.00,1,0.9,-2.1,3.4,-11.6,2.4,4.4,-0.6,,,,,*74
$GPGRS,234502.00,1,-0.0,-0.5,0.1,-0.5,0.1,0.5,-0.4,0.1,,,,*4C
$GPGRS,234502.00,1,1.5,0.1,1.1,-4.1,0.1,0.4,-0.5,-0.6,0.3,-0.2,-0.5,-0.7*49
$GPGRS,234502.00,1,-0.9,-1.6,,,,,,,,,,*42
$GPGSV,6,1,21,02,81,308,50,10,10,065,40,08,27,184,44,28,13,103,38*7E
$GPGSV,6,2,21,17,23,315,43,32,39,057,47,03,44,255,46,21,76,119,45*7A
$GPGSV,6,3,21,27,01,165,,04,04,197,37,31,03,128,,14,10,282,38*7F
$GPGSV,6,4,21,36,35,170,45,58,13,245,38,57,10,109,39,34,31,208,42*73
$GPGSV,6,5,21,40,24,132,36,49,34,195,44,41,07,108,34,61,03,257,38*7A
$GPGSV,6,6,21*7A
$GLGSV,3,1,10,85,75,336,51,71,12,212,43,86,19,317,46,69,49,040,50*6A
$GLGSV,3,2,10,84,45,128,38,70,59,208,42,78,00,037,,76,02,303,42*61
$GLGSV,3,3,10,68,02,034,37,77,08,344,38*6B
$GAGSV,3,1,11,33,69,313,48,31,12,259,38,29,46,162,47,12,15,296,35*6F
$GAGSV,3,2,11,07,49,073,46,24,13,309,38,26,55,103,47,19,10,193,34*60
$GAGSV,3,3,11,13,05,112,33,08,09,035,37,16,07,333,*5D
$GBGSV,5,1,18,57,79,016,,60,10,109,40,33,17,049,43,28,19,145,44*68
$GBGSV,5,2,18,09,19,090,39,05,24,128,39,39,23,062,43,16,22,073,41*6B
$GBGSV,5,3,18,20,44,203,,06,21,077,38,32,51,217,50,27,62,165,51*6A
$GBGSV,5,4,18,30,57,294,50,41,67,064,51,13,07,071,38,29,06,315,41*6D
$GBGSV,5,5,18,02,08,105,34,31,03,096,*65
$GPGGA,234502.00,,,,,0,00,,,M,,M,,*4A
$PTNL,GGK,234502.00,010125,4742.1602436,N,01618.1002846,E,1,38,0.7,EHT751.5408,M*48
$GPGGQ,234502.00,010125,4742.1602436,N,01618.1002846,E,1,38,0.899,708.3343,M*3B
$GPGFA,234502.00,4.199,5.712,0.442,0.357,345.873,0.697,,VVV*00
$GPLLK,234502.00,010125,,M,,M,1,38,0.8,,M*0A
$GNGMP,234502.00,,,,,DAAA,38,0.4,,,,*5B
$GPGMP,234502.00,,,,,,09,,,,2.4,136*74
$GLGMP,234502.00,,,,,,07,,,,,*7A
$GAGMP,234502.00,,,,,,08,,,,,*78
$GBGMP,234502.00,,,,,,14,,,,,*76
$PSSN,SNC,[0,344720000,2347]*42
$GPZDA,234507.00,01,01,2025,,*64
$GPDTM,W84,,00.0000000,N,00.0000000,E,00.0000000,W84*5F
$PSSN,TFM,234507.00,,,,*68
$GPRMC,234507.00,A,4742.1602430,N,01618.1002823,E,0.0,,010125,5.1,E,D*19
$GPGLL,4742.1602430,N,01618.1002823,E,234507.00,A,D*68
$GPGGA,234507.00,4742.1602430,N,01618.1002823,E,2,38,0.4,708.3361,M,43.2066,M,3.4,0136*44
$GNGNS,234507.00,4742.1602430,N,01618.1002823,E,DAAA,38,0.4,708.3361,43.2066,,*5B
$GPGNS,234507.00,,,,,,09,,,,3.4,136*70
$GLGNS,234507.00,,,,,,07,,,,,*7F
$GAGNS,234507.00,,,,,,08,,,,,*7D
$GBGNS,234507.00,,,,,,14,,,,,*73
$GPLLQ,234507.00,010125,,M,,M,1,38,0.906,,M*12
$GPVTG,,T,,M,0.00,N,0.01,K,D*27
$GPHDT,,T*1B
$GPTHS,,V*0E
$GPROT,,V*08
$PSSN,HRP,234507.00,010125,,,,,,,00,0,,*66
$PTNL,AVR,234507.00,,Yaw,,Tilt,,,,0,,00*30
$GPGSA,A,3,02,03,08,10,14,17,21,28,32,,,,0.7,0.4,0.6*34
$GPGSA,A,3,69,70,71,77,84,85,86,,,,,,0.7,0.4,0.6*36
$GPGSA,A,3,07,08,12,24,26,29,31,33,,,,,0.7,0.4,0.6*30
$GPGSA,A,3,05,06,09,13,16,27,28,29,30,32,33,39,0.7,0.4,0.6*34
$GPGSA,A,3,41,60,,,,,,,,,,,0.7,0.4,0.6*34
$GPGST,234507.00,2.768,0.444,0.361,347.056,0.440,0.366,0.702*5E
$GPGBS,234507.00,4.004,2.453,4.318,77,0.0001,-12.517,6.419*40
$GPGRS,234507.00,1,0.1,-0.1,-0.2,-0.2,-0.4,0.1,-0.2,-0.2,0.5,,,*67
$GPGRS,234507.00,1,1.0,-2.6,3.9,-12.5,3.9,4.3,-0.2,,,,,*7C
$GPGRS,234507.00,1,0.3,-0.1,0.1,-0.1,0.2,0.6,-0.4,0.2,,,,*64
$GPGRS,234507.00,1,1.6,0.6,2.0,-3.3,-0.2,0.5,-0.3,-0.9,0.3,0.2,-0.4,-0.4*46
$GPGRS,234507.00,1,-0.7,-1.7,,,,,,,,,,*48
$GPGSV,6,1,21,02,81,308,50,10,10,065,40,08,27,184,43,28,13,103,38*79
$GPGSV,6,2,21,17,23,315,43,32,39,057,47,03,44,255,46,21,76,119,45*7A
$GPGSV,6,3,21,27,01,165,,04,04,197,37,31,03,128,,14,10,282,39*7E
$GPGSV,6,4,21,36,35,170,45,58,13,245,38,57,10,109,39,34,31,208,42*73
$GPGSV,6,5,21,40,24,132,36,49,34,195,44,41,07,108,34,61,03,257,38*7A
$GPGSV,6,6,21*7A
$GLGSV,3,1,10,85,75,336,51,71,12,212,44,86,19,317,46,69,49,040,50*6D
$GLGSV,3,2,10,84,45,128,39,70,59,208,42,78,00,037,,76,02,302,41*62
$GLGSV,3,3,10,68,02,034,37,77,08,344,39*6A
$GAGSV,3,1,11,33,69,313,48,31,12,259,39,29,46,162,47,12,15,296,36*6D
$GAGSV,3,2,11,07,49,073,46,24,13,309,38,26,55,103,47,19,10,193,34*60
$GAGSV,3,3,11,13,04,112,33,08,09,035,36,16,07,333,*5D
$GBGSV,5,1,18,57,79,016,,60,10,109,41,33,17,049,43,28,19,145,44*69
$GBGSV,5,2,18,09,19,090,39,05,24,128,39,39,23,062,43,16,22,073,40*6A
$GBGSV,5,3,18,20,44,203,,06,21,077,38,32,51,217,50,27,62,165,51*6A
$GBGSV,5,4,18,30,57,294,50,41,67,064,51,13,07,071,38,29,06,315,41*6D
$GBGSV,5,5,18,02,08,105,34,31,03,096,*65
$GPGGA,234507.00,,,,,0,00,,,M,,M,,*4F
$PTNL,GGK,234507.00,010125,4742.1602430,N,01618.1002823,E,1,38,0.7,EHT751.5426,M*44
$GPGGQ,234507.00,010125,4742.1602430,N,01618.1002823,E,1,38,0.906,708.3361,M*3C
$GPGFA,234507.00,4.224,5.755,0.444,0.361,347.056,0.702,,VVV*00
$GPLLK,234507.00,010125,,M,,M,1,38,0.8,,M*0F
$GNGMP,234507.00,,,,,DAAA,38,0.4,,,,*5E
$GPGMP,234507.00,,,,,,09,,,,3.4,136*70
$GLGMP,234507.00,,,,,,07,,,,,*7F
$GAGMP,234507.00,,,,,,08,,,,,*7D
$GBGMP,234507.00,,,,,,14,,,,,*73
$PSSN,SNC,[0,344725000,2347]*47
$GPZDA,234512.00,01,01,2025,,*60
$GPDTM,W84,,00.0000000,N,00.0000000,E,00.0000000,W84*5F
$PSSN,TFM,234512.00,,,,*6C
$GPRMC,234512.00,A,4742.1602406,N,01618.1002816,E,0.0,,010125,5.1,E,D*1E
$GPGLL,4742.1602406,N,01618.1002816,E,234512.00,A,D*6F
$GPGGA,234512.00,4742.1602406,N,01618.1002816,E,2,38,0.4,708.3336,M,43.2066,M,1.9,0136*4E
$GNGNS,234512.00,4742.1602406,N,01618.1002816,E,DAAA,38,0.4,708.3336,43.2066,,*5E
$GPGNS,234512.00,,,,,,09,,,,1.9,136*7B
$GLGNS,234512.00,,,,,,07,,,,,*7B
$GAGNS,234512.00,,,,,,08,,,,,*79
$GBGNS,234512.00,,,,,,14,,,,,*77
$GPLLQ,234512.00,010125,,M,,M,1,38,0.905,,M*15
$GPVTG,,T,,M,0.00,N,0.00,K,D*26
$GPHDT,,T*1B
$GPTHS,,V*0E
$GPROT,,V*08
$PSSN,HRP,234512.00,010125,,,,,,,00,0,,*62
$PTNL,AVR,234512.00,,Yaw,,Tilt,,,,0,,00*34
$GPGSA,A,3,02,03,08,10,14,17,21,28,32,,,,0.7,0.4,0.6*34
$GPGSA,A,3,69,70,71,77,84,85,86,,,,,,0.7,0.4,0.6*36
$GPGSA,A,3,07,08,12,24,26,29,31,33,,,,,0.7,0.4,0.6*30
$GPGSA,A,3,05,06,09,13,16,27,28,29,30,32,33,39,0.7,0.4,0.6*34
$GPGSA,A,3,41,60,,,,,,,,,,,0.7,0.4,0.6*34
$GPGST,234512.00,2.585,0.444,0.363,347.273,0.440,0.368,0.700*50
$GPGBS,234512.00,3.898,2.410,4.336,77,0.0001,-11.445,6.417*4E
$GPGRS,234512.00,1,-0.2,0.2,-0.2,-0.2,0.3,0.0,-0.1,-0.4,0.4,,,*4C
$GPGRS,234512.00,1,1.0,-2.5,3.9,-11.4,3.5,4.1,-0.4,,,,,*71
$GPGRS,234512.00,1,0.3,-0.5,0.1,0.2,0.1,0.3,-0.3,0.0,,,,*49
$GPGRS,234512.00,1,1.7,0.7,1.7,-3.2,-0.8,0.2,-0.7,-1.0,0.3,0.2,-0.7,-0.7*46
$GPGRS,234512.00,1,-1.0,-1.8,,,,,,,,,,*45
$GPGSV,6,1,21,02,81,308,50,10,10,065,40,08,27,184,43,28,13,103,39*78
$GPGSV,6,2,21,17,24,315,43,32,39,057,47,03,44,255,46,21,76,119,45*7D
$GPGSV,6,3,21,27,01,165,,04,05,197,37,31,03,128,,14,10,282,39*7F
$GPGSV,6,4,21,36,35,170,45,58,13,245,38,57,10,109,39,34,31,208,42*73
$GPGSV,6,5,21,40,24,132,35,49,34,195,44,41,07,108,34,61,03,257,38*79
$GPGSV,6,6,21*7A
$GLGSV,3,1,10,85,75,336,51,71,12,212,45,86,19,317,46,69,49,040,50*6C
$GLGSV,3,2,10,84,45,128,38,70,59,208,42,78,00,037,,76,02,302,42*60
$GLGSV,3,3,10,68,02,034,37,77,08,344,38*6B
$GAGSV,3,1,11,33,69,313,48,31,12,259,38,29,46,162,47,12,15,296,36*6C
$GAGSV,3,2,11,07,49,073,46,24,13,309,39,26,55,103,47,19,10,193,34*61
$GAGSV,3,3,11,13,04,112,33,08,09,035,37,16,07,333,*5C
$GBGSV,5,1,18,57,79,017,,60,10,109,40,33,17,049,43,28,19,145,44*69
$GBGSV,5,2,18,09,19,090,40,05,24,128,38,39,23,062,43,16,22,073,40*65
$GBGSV,5,3,18,20,44,203,,06,21,077,38,32,51,217,50,27,62,165,51*6A
$GBGSV,5,4,18,30,57,294,50,41,67,064,51,13,07,071,38,29,06,315,41*6D
$GBGSV,5,5,18,02,08,105,34,31,03,096,*65
$GPGGA,234512.00,,,,,0,00,,,M,,M,,*4B
$PTNL,GGK,234512.00,010125,4742.1602406,N,01618.1002816,E,1,38,0.7,EHT751.5401,M*46
$GPGGQ,234512.00,010125,4742.1602406,N,01618.1002816,E,1,38,0.905,708.3336,M*3A
$GPGFA,234512.00,4.219,5.741,0.444,0.363,347.273,0.700,,VVV*0A
$GPLLK,234512.00,010125,,M,,M,1,38,0.8,,M*0B
$GNGMP,234512.00,,,,,DAAA,38,0.4,,,,*5A
$GPGMP,234512.00,,,,,,09,,,,1.9,136*7B
$GLGMP,234512.00,,,,,,07,,,,,*7B
$GAGMP,234512.00,,,,,,08,,,,,*79
$GBGMP,234512.00,,,,,,14,,,,,*77
$PSSN,SNC,[0,344730000,2347]*43
$GPZDA,234517.00,01,01,2025,,*65
$GPDTM,W84,,00.0000000,N,00.0000000,E,00.0000000,W84*5F
$PSSN,TFM,234517.00,,,,*69
$GPRMC,234517.00,A,4742.1602391,N,01618.1002826,E,0.0,,010125,5.1,E,D*11
$GPGLL,4742.1602391,N,01618.1002826,E,234517.00,A,D*60
$GPGGA,234517.00,4742.1602391,N,01618.1002826,E,2,38,0.4,708.3338,M,43.2066,M,2.4,0136*41
$GNGNS,234517.00,4742.1602391,N,01618.1002826,E,DAAA,38,0.4,708.3338,43.2066,,*5F
$GPGNS,234517.00,,,,,,09,,,,2.4,136*70
$GLGNS,234517.00,,,,,,07,,,,,*7E
$GAGNS,234517.00,,,,,,08,,,,,*7C
$GBGNS,234517.00,,,,,,14,,,,,*72
$GPLLQ,234517.00,010125,,M,,M,1,38,0.895,,M*18
$GPVTG,,T,,M,0.00,N,0.01,K,D*27
$GPHDT,,T*1B
$GPTHS,,V*0E
$GPROT,,V*08
$PSSN,HRP,234517.00,010125,,,,,,,00,0,,*67
$PTNL,AVR,234517.00,,Yaw,,Tilt,,,,0,,00*31
$GPGSA,A,3,02,03,08,10,14,17,21,28,32,,,,0.7,0.4,0.6*34
$GPGSA,A,3,69,70,71,77,84,85,86,,,,,,0.7,0.4,0.6*36
$GPGSA,A,3,07,08,12,24,26,29,31,33,,,,,0.7,0.4,0.6*30
$GPGSA,A,3,05,06,09,13,16,27,28,29,30,32,33,39,0.7,0.4,0.6*34
$GPGSA,A,3,41,60,,,,,,,,,,,0.7,0.4,0.6*34
$GPGST,234517.00,2.530,0.439,0.360,346.568,0.435,0.365,0.692*5B
$GPGBS,234517.00,3.948,2.429,4.426,77,0.0001,-10.842,6.419*4F
$GPGRS,234517.00,1,-0.1,0.2,-0.7,-0.2,-0.0,0.7,-0.1,-0.4,0.2,,,*60
$GPGRS,234517.00,1,0.5,-1.9,5.1,-10.8,3.2,4.1,-0.3,,,,,*7C
$GPGRS,234517.00,1,0.2,-0.1,-0.1,-0.3,0.1,0.3,-0.2,-0.1,,,,*65
$GPGRS,234517.00,1,1.1,0.9,2.1,-3.0,-0.2,0.4,-0.6,-0.9,0.5,-0.1,-0.6,-0.8*6F
$GPGRS,234517.00,1,-0.8,-1.6,,,,,,,,,,*47
$GPGSV,6,1,21,02,81,308,50,10,10,065,40,08,27,184,43,28,13,103,39*78
$GPGSV,6,2,21,17,24,315,43,32,39,057,47,03,44,255,47,21,76,119,45*7C
$GPGSV,6,3,21,27,01,165,,04,05,197,37,31,03,128,,14,10,282,39*7F
$GPGSV,6,4,21,36,35,170,45,58,13,245,38,57,10,109,39,34,31,208,42*73
$GPGSV,6,5,21,40,24,132,36,49,34,195,44,41,07,108,35,61,03,257,39*7A
$GPGSV,6,6,21*7A
$GLGSV,3,1,10,85,75,336,51,71,12,212,46,86,19,317,46,69,49,040,50*6F
$GLGSV,3,2,10,84,45,128,38,70,60,208,41,78,00,037,,76,02,302,43*68
$GLGSV,3,3,10,68,01,034,37,77,08,344,38*68
$GAGSV,3,1,11,33,69,313,48,31,12,259,39,29,46,161,47,12,15,296,36*6E
$GAGSV,3,2,11,07,49,073,46,24,13,309,39,26,55,104,47,19,10,193,34*66
$GAGSV,3,3,11,13,04,112,33,08,09,035,37,16,07,333,*5C
$GBGSV,5,1,18,57,79,017,,60,10,109,40,33,17,049,43,28,19,145,44*69
$GBGSV,5,2,18,09,19,090,40,05,24,128,39,39,23,062,42,16,22,073,40*65
$GBGSV,5,3,18,20,44,203,,06,21,077,39,32,51,217,50,27,62,165,52*68
$GBGSV,5,4,18,30,57,294,50,41,67,064,51,13,07,071,38,29,06,315,41*6D
$GBGSV,5,5,18,02,08,105,34,31,03,096,*65
$GPGGA,234517.00,,,,,0,00,,,M,,M,,*4E
$PTNL,GGK,234517.00,010125,4742.1602391,N,01618.1002826,E,1,38,0.7,EHT751.5404,M*4C
$GPGGQ,234517.00,010125,4742.1602391,N,01618.1002826,E,1,38,0.895,708.3338,M*33
$GPGFA,234517.00,4.178,5.673,0.439,0.360,346.568,0.692,,VVV*04
$GPLLK,234517.00,010125,,M,,M,1,38,0.8,,M*0E
$GNGMP,234517.00,,,,,DAAA,38,0.4,,,,*5F
$GPGMP,234517.00,,,,,,09,,,,2.4,136*70
$GLGMP,234517.00,,,,,,07,,,,,*7E
$GAGMP,234517.00,,,,,,08,,,,,*7C
$GBGMP,234517.00,,,,,,14,,,,,*72
$PSSN,SNC,[0,344735000,2347]*46
$GPZDA,234522.00,01,01,2025,,*63
$GPDTM,W84,,00.0000000,N,00.0000000,E,00.0000000,W84*5F
$PSSN,TFM,234522.00,,,,*6F
$GPRMC,234522.00,A,4742.1602379,N,01618.1002854,E,0.0,,010125,5.1,E,D*14
$GPGLL,4742.1602379,N,01618.1002854,E,234522.00,A,D*65
$GPGGA,234522.00,4742.1602379,N,01618.1002854,E,2,38,0.4,708.3321,M,43.2066,M,2.4,0136*4C
$GNGNS,234522.00,4742.1602379,N,01618.1002854,E,DAAA,38,0.4,708.3321,43.2066,,*52
$GPGNS,234522.00,,,,,,09,,,,2.4,136*76
$GLGNS,234522.00,,,,,,07,,,,,*78
$GAGNS,234522.00,,,,,,08,,,,,*7A
$GBGNS,234522.00,,,,,,14,,,,,*74
$GPLLQ,234522.00,010125,,M,,M,1,38,0.900,,M*13
$GPVTG,,T,,M,0.00,N,0.01,K,D*27
$GPHDT,,T*1B
$GPTHS,,V*0E
$GPROT,,V*08
$PSSN,HRP,234522.00,010125,,,,,,,00,0,,*61
$PTNL,AVR,234522.00,,Yaw,,Tilt,,,,0,,00*37
$GPGSA,A,3,02,03,08,10,14,17,21,28,32,,,,0.7,0.4,0.6*34
$GPGSA,A,3,69,70,71,77,84,85,86,,,,,,0.7,0.4,0.6*36
$GPGSA,A,3,07,08,12,24,26,29,31,33,,,,,0.7,0.4,0.6*30
$GPGSA,A,3,05,06,09,13,16,27,28,29,30,32,33,39,0.7,0.4,0.6*34
$GPGSA,A,3,41,60,,,,,,,,,,,0.7,0.4,0.6*34
$GPGST,234522.00,2.863,0.442,0.359,346.417,0.438,0.365,0.697*51
$GPGBS,234522.00,3.943,2.441,4.262,77,0.0001,-12.778,6.418*4F
$GPGRS,234522.00,1,-0.1,0.3,-0.3,-0.2,-0.1,0.3,-0.1,-0.8,0.1,,,*69
$GPGRS,234522.00,1,0.6,-2.8,5.3,-12.8,3.0,4.4,-0.3,,,,,*7C
$GPGRS,234522.00,1,0.0,-0.3,-0.2,-0.4,0.2,0.3,-0.0,0.0,,,,*4A
$GPGRS,234522.00,1,1.8,1.8,1.9,-3.1,0.4,0.4,-0.3,-1.1,0.4,-0.2,-0.9,-0.5*4D
$GPGRS,234522.00,1,-0.8,-1.5,,,,,,,,,,*42
$GPGSV,6,1,21,02,81,308,50,10,10,065,39,08,27,184,43,28,13,103,38*77
$GPGSV,6,2,21,17,24,315,43,32,39,056,48,03,44,255,47,21,76,119,45*72
$GPGSV,6,3,21,27,01,165,,04,05,197,37,31,03,128,,14,10,282,39*7F
$GPGSV,6,4,21,36,35,170,45,58,13,245,38,57,10,109,39,34,31,208,42*73
$GPGSV,6,5,21,40,24,132,35,49,34,195,44,41,07,108,35,61,03,257,39*79
$GPGSV,6,6,21*7A
$GLGSV,3,1,10,85,75,336,51,71,12,212,45,86,19,317,46,69,49,040,50*6C
$GLGSV,3,2,10,84,45,128,38,70,60,208,42,78,00,037,,76,02,302,41*69
$GLGSV,3,3,10,68,01,034,36,77,08,344,38*69
$GAGSV,3,1,11,33,69,313,48,31,12,259,39,29,46,161,47,12,15,296,36*6E
$GAGSV,3,2,11,07,49,072,46,24,13,309,38,26,55,104,48,19,10,193,34*69
$GAGSV,3,3,11,13,04,112,33,08,09,035,37,16,07,333,*5C
$GBGSV,5,1,18,57,79,017,,60,10,109,40,33,17,049,43,28,19,145,44*69
$GBGSV,5,2,18,09,19,090,40,05,24,128,39,39,23,062,42,16,22,073,40*65
$GBGSV,5,3,18,20,44,204,,06,21,077,39,32,51,217,50,27,62,165,51*6C
$GBGSV,5,4,18,30,57,294,50,41,67,064,51,13,07,071,38,29,06,315,41*6D
$GBGSV,5,5,18,02,08,105,35,31,03,096,*64
$GPGGA,234522.00,,,,,0,00,,,M,,M,,*48
$PTNL,GGK,234522.00,010125,4742.1602379,N,01618.1002854,E,1,38,0.7,EHT751.5387,M*45
$GPGGQ,234522.00,010125,4742.1602379,N,01618.1002854,E,1,38,0.900,708.3321,M*33
$GPGFA,234522.00,4.202,5.717,0.442,0.359,346.417,0.697,,VVV*05
$GPLLK,234522.00,010125,,M,,M,1,38,0.8,,M*08
$GNGMP,234522.00,,,,,DAAA,38,0.4,,,,*59
$GPGMP,234522.00,,,,,,09,,,,2.4,136*76
$GLGMP,234522.00,,,,,,07,,,,,*78
$GAGMP,234522.00,,,,,,08,,,,,*7A
$GBGMP,234522.00,,,,,,14,,,,,*74
$PSSN,SNC,[0,344740000,2347]*44
$GPZDA,234527.00,01,01,2025,,*66
$GPDTM,W84,,00.0000000,N,00.0000000,E,00.0000000,W84*5F
$PSSN,TFM,234527.00,,,,*6A
$GPRMC,234527.00,A,4742.1602383,N,01618.1002858,E,0.0,,010125,5.1,E,D*18
$GPGLL,4742.1602383,N,01618.1002858,E,234527.00,A,D*69
$GPGGA,234527.00,4742.1602383,N,01618.1002858,E,2,38,0.4,708.3318,M,43.2066,M,3.4,0136*4B
$GNGNS,234527.00,4742.1602383,N,01618.1002858,E,DAAA,38,0.4,708.3318,43.2066,,*54
$GPGNS,234527.00,,,,,,09,,,,3.4,136*72
$GLGNS,234527.00,,,,,,07,,,,,*7D
$GAGNS,234527.00,,,,,,08,,,,,*7F
$GBGNS,234527.00,,,,,,14,,,,,*71
$GPLLQ,234527.00,010125,,M,,M,1,38,0.908,,M*1E
$GPVTG,,T,,M,0.00,N,0.01,K,D*27
$GPHDT,,T*1B
$GPTHS,,V*0E
$GPROT,,V*08
$PSSN,HRP,234527.00,010125,,,,,,,00,0,,*64
$PTNL,AVR,234527.00,,Yaw,,Tilt,,,,0,,00*32
$GPGSA,A,3,02,03,08,10,14,17,21,28,32,,,,0.7,0.4,0.6*34
$GPGSA,A,3,69,70,71,77,84,85,86,,,,,,0.7,0.4,0.6*36
$GPGSA,A,3,07,08,12,24,26,29,31,33,,,,,0.7,0.4,0.6*30
$GPGSA,A,3,05,06,09,13,16,27,28,29,30,32,33,39,0.7,0.4,0.6*34
$GPGSA,A,3,41,60,,,,,,,,,,,0.7,0.4,0.6*34
$GPGST,234527.00,2.948,0.444,0.364,347.635,0.441,0.368,0.703*58
$GPGBS,234527.00,4.002,2.468,4.316,77,0.0001,-13.432,6.419*45
$GPGRS,234527.00,1,0.0,-0.1,-0.1,-0.5,0.0,-0.2,-0.1,-0.9,0.3,,,*69
$GPGRS,234527.00,1,1.0,-2.2,5.3,-13.4,3.0,4.4,-0.5,,,,,*7F
$GPGRS,234527.00,1,0.3,-0.2,-0.3,0.0,0.2,0.2,-0.3,0.1,,,,*66
$GPGRS,234527.00,1,1.8,2.2,0.9,-3.2,0.3,0.2,-0.1,-0.8,0.4,-0.2,-0.6,-0.4*46
$GPGRS,234527.00,1,-0.9,-1.7,,,,,,,,,,*44
$GPGSV,6,1,21,02,81,308,50,10,10,065,39,08,27,184,43,28,13,103,38*77
$GPGSV,6,2,21,17,24,315,43,32,39,056,47,03,45,255,46,21,76,119,45*7D
$GPGSV,6,3,21,27,01,165,,04,05,197,38,31,03,128,,14,10,282,38*71
$GPGSV,6,4,21,36,35,170,45,58,13,245,38,57,10,109,39,34,31,208,43*72
$GPGSV,6,5,21,40,24,132,35,49,34,195,44,41,07,108,34,61,03,257,38*79
$GPGSV,6,6,21*7A
$GLGSV,3,1,10,85,75,336,51,71,12,212,45,86,19,317,45,69,49,039,50*61
$GLGSV,3,2,10,84,45,128,38,70,60,208,42,78,00,037,,76,02,302,43*6B
$GLGSV,3,3,10,68,01,034,36,77,08,344,38*69
$GAGSV,3,1,11,33,69,313,48,31,12,259,39,29,46,161,46,12,15,296,36*6F
$GAGSV,3,2,11,07,49,072,46,24,13,309,38,26,55,104,47,19,10,193,34*66
$GAGSV,3,3,11,13,04,112,32,08,09,035,37,16,07,333,*5D
$GBGSV,5,1,18,57,79,017,,60,10,109,40,33,17,050,43,28,19,145,44*61
$GBGSV,5,2,18,09,19,090,39,05,24,128,39,39,23,062,42,16,22,073,40*6B
$GBGSV,5,3,18,20,44,204,,06,21,077,39,32,51,217,50,27,62,165,51*6C
$GBGSV,5,4,18,30,57,294,50,41,67,064,51,13,07,071,38,29,06,315,41*6D
$GBGSV,5,5,18,02,08,105,34,31,03,096,*65
$GPGGA,234527.00,,,,,0,00,,,M,,M,,*4D
$PTNL,GGK,234527.00,010125,4742.1602383,N,01618.1002858,E,1,38,0.7,EHT751.5384,M*4A
$GPGGQ,234527.00,010125,4742.1602383,N,01618.1002858,E,1,38,0.908,708.3318,M*3D
$GPGFA,234527.00,4.226,5.763,0.444,0.364,347.635,0.703,,VVV*02
$GPLLK,234527.00,010125,,M,,M,1,38,0.8,,M*0D
$GNGMP,234527.00,,,,,DAAA,38,0.4,,,,*5C
$GPGMP,234527.00,,,,,,09,,,,3.4,136*72
$GLGMP,234527.00,,,,,,07,,,,,*7D
$GAGMP,234527.00,,,,,,08,,,,,*7F
$GBGMP,234527.00,,,,,,14,,,,,*71
$PSSN,SNC,[0,344745000,2347]*41
$GPZDA,234532.00,01,01,2025,,*62
$GPDTM,W84,,00.0000000,N,00.0000000,E,00.0000000,W84*5F
$PSSN,TFM,234532.00,,,,*6E
$GPRMC,234532.00,A,4742.1602388,N,01618.1002812,E,0.0,,010125,5.1,E,D*19
$GPGLL,4742.1602388,N,01618.1002812,E,234532.00,A,D*68
$GPGGA,234532.00,4742.1602388,N,01618.1002812,E,2,38,0.4,708.3276,M,43.2066,M,1.9,0136*4C
$GNGNS,234532.00,4742.1602388,N,01618.1002812,E,DAAA,38,0.4,708.3276,43.2066,,*5C
$GPGNS,234532.00,,,,,,09,,,,1.9,136*79
$GLGNS,234532.00,,,,,,07,,,,,*79
$GAGNS,234532.00,,,,,,08,,,,,*7B
$GBGNS,234532.00,,,,,,14,,,,,*75
$GPLLQ,234532.00,010125,,M,,M,1,38,0.907,,M*15
$GPVTG,,T,,M,0.00,N,0.00,K,D*26
$GPHDT,,T*1B
$GPTHS,,V*0E
$GPROT,,V*08
$PSSN,HRP,234532.00,010125,,,,,,,00,0,,*60
$PTNL,AVR,234532.00,,Yaw,,Tilt,,,,0,,00*36
$GPGSA,A,3,02,03,08,10,14,17,21,28,32,,,,0.7,0.4,0.6*34
$GPGSA,A,3,69,70,71,77,84,85,86,,,,,,0.7,0.4,0.6*36
$GPGSA,A,3,07,08,12,24,26,29,31,33,,,,,0.7,0.4,0.6*30
$GPGSA,A,3,05,06,09,13,16,27,28,29,30,32,33,39,0.7,0.4,0.6*34
$GPGSA,A,3,41,60,,,,,,,,,,,0.7,0.4,0.6*34
$GPGST,234532.00,2.430,0.444,0.366,347.881,0.441,0.370,0.701*56
$GPGBS,234532.00,3.897,2.425,4.335,77,0.0001,-10.124,6.417*45
$GPGRS,234532.00,1,0.2,-0.4,0.2,-0.7,-0.5,0.0,0.1,-0.2,0.1,,,*65
$GPGRS,234532.00,1,1.5,-1.7,4.5,-10.1,3.4,4.3,-0.6,,,,,*79
$GPGRS,234532.00,1,0.5,-0.0,0.0,-0.3,0.3,0.5,-0.1,0.3,,,,*60
$GPGRS,234532.00,1,1.5,2.3,1.3,-3.2,1.0,0.5,-0.1,-0.3,0.5,0.0,-0.5,-0.1*63
$GPGRS,234532.00,1,-0.6,-1.1,,,,,,,,,,*49
$GPGSV,6,1,21,02,81,308,50,10,10,065,40,08,27,184,43,28,13,103,39*78
$GPGSV,6,2,21,17,24,315,43,32,39,056,47,03,45,255,47,21,76,119,45*7C
$GPGSV,6,3,21,27,01,165,,04,05,197,38,31,03,128,,14,10,282,38*71
$GPGSV,6,4,21,36,35,170,45,58,13,245,38,57,10,109,38,34,31,208,42*72
$GPGSV,6,5,21,40,24,132,35,49,34,195,44,41,07,108,34,61,03,257,38*79
$GPGSV,6,6,21*7A
$GLGSV,3,1,10,85,75,336,51,71,12,212,45,86,19,317,46,69,49,039,50*62
$GLGSV,3,2,10,84,45,128,38,70,60,208,42,78,00,037,,76,02,302,41*69
$GLGSV,3,3,10,68,01,034,36,77,08,344,39*68
$GAGSV,3,1,11,33,69,314,48,31,12,259,38,29,46,161,46,12,15,297,36*68
$GAGSV,3,2,11,07,49,072,46,24,13,309,39,26,55,104,47,19,10,193,34*67
$GAGSV,3,3,11,13,04,112,32,08,09,035,37,16,07,333,*5D
$GBGSV,5,1,18,57,79,017,,60,10,109,41,33,17,050,44,28,19,145,43*60
$GBGSV,5,2,18,09,19,090,40,05,24,128,39,39,23,062,42,16,22,073,41*64
$GBGSV,5,3,18,20,44,204,,06,22,077,40,32,52,217,50,27,62,165,52*61
$GBGSV,5,4,18,30,57,294,50,41,67,064,51,13,07,071,38,29,06,315,41*6D
$GBGSV,5,5,18,02,08,105,34,31,03,096,*65
$GPGGA,234532.00,,,,,0,00,,,M,,M,,*49
$PTNL,GGK,234532.00,010125,4742.1602388,N,01618.1002812,E,1,38,0.7,EHT751.5342,M*41
$GPGGQ,234532.00,010125,4742.1602388,N,01618.1002812,E,1,38,0.907,708.3276,M*3A
$GPGFA,234532.00,4.221,5.748,0.444,0.366,347.881,0.701,,VVV*09
$GPLLK,234532.00,010125,,M,,M,1,38,0.8,,M*09
$GNGMP,234532.00,,,,,DAAA,38,0.4,,,,*58
$GPGMP,234532.00,,,,,,09,,,,1.9,136*79
$GLGMP,234532.00,,,,,,07,,,,,*79
$GAGMP,234532.00,,,,,,08,,,,,*7B
$GBGMP,234532.00,,,,,,14,,,,,*75
$PSSN,SNC,[0,344750000,2347]*45
$GPZDA,234537.00,01,01,2025,,*67
$GPDTM,W84,,00.0000000,N,00.0000000,E,00.0000000,W84*5F
$PSSN,TFM,234537.00,,,,*6B
$GPRMC,234537.00,A,4742.1602414,N,01618.1002816,E,0.0,,010125,5.1,E,D*1A
$GPGLL,4742.1602414,N,01618.1002816,E,234537.00,A,D*6B
$GPGGA,234537.00,4742.1602414,N,01618.1002816,E,2,38,0.4,708.3279,M,43.2066,M,2.4,0136*4E
$GNGNS,234537.00,4742.1602414,N,01618.1002816,E,DAAA,38,0.4,708.3279,43.2066,,*50
$GPGNS,234537.00,,,,,,09,,,,2.4,136*72
$GLGNS,234537.00,,,,,,07,,,,,*7C
$GAGNS,234537.00,,,,,,08,,,,,*7E
$GBGNS,234537.00,,,,,,14,,,,,*70
$GPLLQ,234537.00,010125,,M,,M,1,38,0.895,,M*1A
$GPVTG,,T,,M,0.00,N,0.00,K,D*26
$GPHDT,,T*1B
$GPTHS,,V*0E
$GPROT,,V*08
$PSSN,HRP,234537.00,010125,,,,,,,00,0,,*65
$PTNL,AVR,234537.00,,Yaw,,Tilt,,,,0,,00*33
$GPGSA,A,3,02,03,08,10,14,17,21,28,32,,,,0.7,0.4,0.6*34
$GPGSA,A,3,69,70,71,77,84,85,86,,,,,,0.7,0.4,0.6*36
$GPGSA,A,3,07,08,12,24,26,29,31,33,,,,,0.7,0.4,0.6*30
$GPGSA,A,3,05,06,09,13,16,27,28,29,30,32,33,39,0.7,0.4,0.6*34
$GPGSA,A,3,41,60,,,,,,,,,,,0.7,0.4,0.6*34
$GPGST,234537.00,2.537,0.439,0.360,346.798,0.435,0.365,0.692*53
$GPGBS,234537.00,3.947,2.433,4.422,77,0.0001,-11.136,6.418*47
$GPGRS,234537.00,1,-0.4,0.0,0.0,-0.5,0.6,-0.3,0.3,-0.6,0.1,,,*64
$GPGRS,234537.00,1,1.3,-1.9,4.4,-11.1,2.7,4.3,0.0,,,,,*5D
$GPGRS,234537.00,1,0.4,-0.1,-0.6,0.0,-0.0,0.7,-0.2,0.2,,,,*4E
$GPGRS,234537.00,1,1.8,1.8,1.1,-3.3,0.9,0.3,-0.3,-0.7,0.3,0.1,-0.5,0.1*42
$GPGRS,234537.00,1,-0.8,-1.3,,,,,,,,,,*40
$GPGSV,6,1,21,02,81,308,50,10,10,065,40,08,27,184,44,28,13,103,39*7F
$GPGSV,6,2,21,17,24,315,43,32,39,056,47,03,45,255,46,21,76,119,45*7D
$GPGSV,6,3,21,27,01,165,,04,05,197,38,31,03,128,,14,10,282,38*71
$GPGSV,6,4,21,36,35,170,45,58,13,245,38,57,10,109,39,34,31,208,43*72
$GPGSV,6,5,21,40,24,132,36,49,34,195,44,41,07,108,34,61,03,257,38*7A
$GPGSV,6,6,21*7A
$GLGSV,3,1,10,85,75,336,51,71,12,212,44,86,19,317,46,69,49,039,50*63
$GLGSV,3,2,10,84,45,128,38,70,60,208,42,78,00,037,,76,02,302,43*6B
$GLGSV,3,3,10,68,01,034,36,77,08,344,39*68
$GAGSV,3,1,11,33,69,314,48,31,12,259,39,29,46,161,47,12,15,297,36*68
$GAGSV,3,2,11,07,49,072,46,24,13,309,38,26,55,104,47,19,10,193,34*66
$GAGSV,3,3,11,13,04,112,32,08,09,035,36,16,07,333,*5C
$GBGSV,5,1,18,57,79,017,,60,10,109,40,33,17,050,43,28,19,145,43*66
$GBGSV,5,2,18,09,19,090,39,05,24,128,39,39,23,062,43,16,22,073,41*6B
$GBGSV,5,3,18,20,44,204,,06,22,077,39,32,52,217,50,27,62,165,51*6C
$GBGSV,5,4,18,30,57,294,50,41,67,064,51,13,07,071,38,29,06,315,41*6D
$GBGSV,5,5,18,02,08,105,34,31,03,096,*65
$GPGGA,234537.00,,,,,0,00,,,M,,M,,*4C
$PTNL,GGK,234537.00,010125,4742.1602414,N,01618.1002816,E,1,38,0.7,EHT751.5345,M*45
$GPGGQ,234537.00,010125,4742.1602414,N,01618.1002816,E,1,38,0.895,708.3279,M*3C
$GPGFA,234537.00,4.176,5.671,0.439,0.360,346.798,0.692,,VVV*07
$GPLLK,234537.00,010125,,M,,M,1,38,0.8,,M*0C
$GNGMP,234537.00,,,,,DAAA,38,0.4,,,,*5D
$GPGMP,234537.00,,,,,,09,,,,2.4,136*72
$GLGMP,234537.00,,,,,,07,,,,,*7C
$GAGMP,234537.00,,,,,,08,,,,,*7E
$GBGMP,234537.00,,,,,,14,,,,,*70
$PSSN,SNC,[0,344755000,2347]*40
$GPZDA,234542.00,01,01,2025,,*65
$GPDTM,W84,,00.0000000,N,00.0000000,E,00.0000000,W84*5F
$PSSN,TFM,234542.00,,,,*69
$GPRMC,234542.00,A,4742.1602411,N,01618.1002799,E,0.0,,010125,5.1,E,D*15
$GPGLL,4742.1602411,N,01618.1002799,E,234542.00,A,D*64
$GPGGA,234542.00,4742.1602411,N,01618.1002799,E,2,38,0.4,708.3256,M,43.2066,M,2.4,0136*4C
$GNGNS,234542.00,4742.1602411,N,01618.1002799,E,DAAA,38,0.4,708.3256,43.2066,,*52
$GPGNS,234542.00,,,,,,09,,,,2.4,136*70
$GLGNS,234542.00,,,,,,07,,,,,*7E
$GAGNS,234542.00,,,,,,08,,,,,*7C
$GBGNS,234542.00,,,,,,14,,,,,*72
$GPLLQ,234542.00,010125,,M,,M,1,38,0.901,,M*14
$GPVTG,,T,,M,0.00,N,0.01,K,D*27
$GPHDT,,T*1B
$GPTHS,,V*0E
$GPROT,,V*08
$PSSN,HRP,234542.00,010125,,,,,,,00,0,,*67
$PTNL,AVR,234542.00,,Yaw,,Tilt,,,,0,,00*31
$GPGSA,A,3,02,03,08,10,14,17,21,28,32,,,,0.7,0.4,0.6*34
$GPGSA,A,3,69,70,71,77,84,85,86,,,,,,0.7,0.4,0.6*36
$GPGSA,A,3,07,08,12,24,26,29,31,33,,,,,0.7,0.4,0.6*30
$GPGSA,A,3,05,06,09,13,16,27,28,29,30,32,33,39,0.7,0.4,0.6*34
$GPGSA,A,3,41,60,,,,,,,,,,,0.7,0.4,0.6*34
$GPGST,234542.00,2.798,0.442,0.360,346.614,0.438,0.365,0.697*57
$GPGBS,234542.00,3.942,2.445,4.259,77,0.0001,-12.795,6.420*4C
$GPGRS,234542.00,1,-0.1,-0.2,0.1,-0.2,0.3,0.2,0.1,-0.4,0.3,,,*61
$GPGRS,234542.00,1,0.9,-2.5,3.9,-12.8,3.6,4.5,0.2,,,,,*5F
$GPGRS,234542.00,1,0.3,-0.2,-0.3,-0.3,0.0,0.8,-0.3,0.2,,,,*40
$GPGRS,234542.00,1,2.0,1.6,1.2,-3.2,0.9,0.5,-0.0,-0.9,0.3,0.2,-0.4,0.2*4D
$GPGRS,234542.00,1,-0.8,-1.4,,,,,,,,,,*45
$GPGSV,6,1,21,02,81,308,50,10,10,065,40,08,27,184,42,28,13,103,39*79
$GPGSV,6,2,21,17,24,315,44,32,39,056,47,03,45,255,46,21,76,119,45*7A
$GPGSV,6,3,21,27,01,165,,04,05,197,37,31,03,128,,14,10,282,39*7F
$GPGSV,6,4,21,36,35,170,45,58,13,245,38,57,10,109,39,34,31,208,43*72
$GPGSV,6,5,21,40,24,132,36,49,34,195,44,41,07,108,34,61,03,257,38*7A
$GPGSV,6,6,21*7A
$GLGSV,3,1,10,85,75,336,51,71,12,212,44,86,19,317,46,69,49,039,50*63
$GLGSV,3,2,10,84,45,128,38,70,60,208,42,78,00,037,,76,02,302,42*6A
$GLGSV,3,3,10,68,01,034,35,77,08,344,37*65
$GAGSV,3,1,11,33,69,314,48,31,12,259,39,29,46,161,47,12,15,297,36*68
$GAGSV,3,2,11,07,49,072,46,24,13,309,39,26,55,104,47,19,10,193,34*67
$GAGSV,3,3,11,13,04,112,32,08,09,035,37,16,07,333,*5D
$GBGSV,5,1,18,57,79,018,,60,10,109,40,33,17,050,43,28,19,145,42*68
$GBGSV,5,2,18,09,19,090,39,05,24,128,39,39,23,062,42,16,22,073,41*6A
$GBGSV,5,3,18,20,44,204,,06,22,077,40,32,52,217,50,27,61,165,51*61
$GBGSV,5,4,18,30,57,294,50,41,67,064,51,13,07,071,37,29,06,315,41*62
$GBGSV,5,5,18,02,08,105,34,31,03,096,*65
$GPGGA,234542.00,,,,,0,00,,,M,,M,,*4E
$PTNL,GGK,234542.00,010125,4742.1602411,N,01618.1002799,E,1,38,0.7,EHT751.5322,M*4B
$GPGGQ,234542.00,010125,4742.1602411,N,01618.1002799,E,1,38,0.901,708.3256,M*32
$GPGFA,234542.00,4.203,5.716,0.442,0.360,346.614,0.697,,VVV*08
$GPLLK,234542.00,010125,,M,,M,1,38,0.8,,M*0E
$GNGMP,234542.00,,,,,DAAA,38,0.4,,,,*5F
$GPGMP,234542.00,,,,,,09,,,,2.4,136*70
$GLGMP,234542.00,,,,,,07,,,,,*7E
$GAGMP,234542.00,,,,,,08,,,,,*7C
$GBGMP,234542.00,,,,,,14,,,,,*72
$PSSN,SNC,[0,344760000,2347]*46
$GPZDA,234547.00,01,01,2025,,*60
$GPDTM,W84,,00.0000000,N,00.0000000,E,00.0000000,W84*5F
$PSSN,TFM,234547.00,,,,*6C
$GPRMC,234547.00,A,4742.1602408,N,01618.1002794,E,0.0,,010125,5.1,E,D*15
$GPGLL,4742.1602408,N,01618.1002794,E,234547.00,A,D*64
$GPGGA,234547.00,4742.1602408,N,01618.1002794,E,2,38,0.4,708.3261,M,43.2066,M,3.4,0136*49
$GNGNS,234547.00,4742.1602408,N,01618.1002794,E,DAAA,38,0.4,708.3261,43.2066,,*56
$GPGNS,234547.00,,,,,,09,,,,3.4,136*74
$GLGNS,234547.00,,,,,,07,,,,,*7B
$GAGNS,234547.00,,,,,,08,,,,,*79
$GBGNS,234547.00,,,,,,14,,,,,*77
$GPLLQ,234547.00,010125,,M,,M,1,38,0.908,,M*18
$GPVTG,,T,,M,0.01,N,0.02,K,D*25
$GPHDT,,T*1B
$GPTHS,,V*0E
$GPROT,,V*08
$PSSN,HRP,234547.00,010125,,,,,,,00,0,,*62
$PTNL,AVR,234547.00,,Yaw,,Tilt,,,,0,,00*34
$GPGSA,A,3,02,03,08,10,14,17,21,28,32,,,,0.7,0.4,0.6*34
$GPGSA,A,3,69,70,71,77,84,85,86,,,,,,0.7,0.4,0.6*36
$GPGSA,A,3,07,08,12,24,26,29,31,33,,,,,0.7,0.4,0.6*30
$GPGSA,A,3,05,06,09,13,16,27,28,29,30,32,33,39,0.7,0.4,0.6*34
$GPGSA,A,3,41,60,,,,,,,,,,,0.7,0.4,0.6*34
$GPGST,234547.00,2.810,0.445,0.364,347.875,0.442,0.368,0.703*5A
$GPGBS,234547.00,4.003,2.471,4.313,77,0.0001,-13.150,6.419*4E
$GPGRS,234547.00,1,0.1,0.1,-0.3,-0.3,0.4,0.4,-0.3,-0.4,0.2,,,*66
$GPGRS,234547.00,1,1.2,-2.8,3.5,-13.1,3.2,4.3,-0.6,,,,,*72
$GPGRS,234547.00,1,0.0,-0.3,-0.3,-0.3,-0.1,0.5,-0.6,-0.1,,,,*4D
$GPGRS,234547.00,1,1.4,1.3,0.7,-3.1,0.3,0.2,-0.5,-1.2,0.2,-0.0,-0.9,0.2*6C
$GPGRS,234547.00,1,-0.7,-1.6,,,,,,,,,,*4D
$GPGSV,6,1,21,02,81,308,50,10,10,065,40,08,27,184,42,28,13,103,39*79
$GPGSV,6,2,21,17,24,315,43,32,39,056,47,03,45,255,46,21,76,119,45*7D
$GPGSV,6,3,21,27,01,165,,04,05,197,38,31,03,128,,14,10,282,38*71
$GPGSV,6,4,21,36,35,170,45,58,13,245,38,57,10,109,38,34,31,208,42*72
$GPGSV,6,5,21,40,24,132,35,49,34,195,44,41,07,108,34,61,03,257,38*79
$GPGSV,6,6,21*7A
$GLGSV,3,1,10,85,75,336,51,71,12,212,44,86,19,317,46,69,49,039,50*63
$GLGSV,3,2,10,84,45,128,38,70,60,208,42,78,00,037,,76,02,302,42*6A
$GLGSV,3,3,10,68,01,034,34,77,08,344,38*6B
$GAGSV,3,1,11,33,69,314,48,31,12,259,38,29,46,161,47,12,15,297,36*69
$GAGSV,3,2,11,07,49,072,46,24,13,309,39,26,55,104,47,19,10,193,35*66
$GAGSV,3,3,11,13,04,112,34,08,09,035,37,16,07,333,*5B
$GBGSV,5,1,18,57,79,018,,60,10,109,40,33,17,050,43,28,18,145,42*69
$GBGSV,5,2,18,09,19,090,39,05,24,128,39,39,23,062,43,16,22,073,41*6B
$GBGSV,5,3,18,20,44,204,,06,22,077,40,32,52,217,50,27,61,165,52*62
$GBGSV,5,4,18,30,57,294,50,41,67,064,51,13,07,071,37,29,06,315,40*63
$GBGSV,5,5,18,02,08,105,34,31,02,096,*64
$GPGGA,234547.00,,,,,0,00,,,M,,M,,*4B
$PTNL,GGK,234547.00,010125,4742.1602408,N,01618.1002794,E,1,38,0.7,EHT751.5326,M*4F
$GPGGQ,234547.00,010125,4742.1602408,N,01618.1002794,E,1,38,0.908,708.3261,M*3F
$GPGFA,234547.00,4.230,5.764,0.445,0.364,347.875,0.703,,VVV*0F
$GPLLK,234547.00,010125,,M,,M,1,38,0.8,,M*0B
$GNGMP,234547.00,,,,,DAAA,38,0.4,,,,*5A
$GPGMP,234547.00,,,,,,09,,,,3.4,136*74
$GLGMP,234547.00,,,,,,07,,,,,*7B
$GAGMP,234547.00,,,,,,08,,,,,*79
$GBGMP,234547.00,,,,,,14,,,,,*77
$PSSN,SNC,[0,344765000,2347]*43
$GPZDA,234552.00,01,01,2025,,*64
$GPDTM,W84,,00.0000000,N,00.0000000,E,00.0000000,W84*5F
$PSSN,TFM,234552.00,,,,*68
$GPRMC,234552.00,A,4742.1602386,N,01618.1002793,E,0.0,,010125,5.1,E,D*17
$GPGLL,4742.1602386,N,01618.1002793,E,234552.00,A,D*66
$GPGGA,234552.00,4742.1602386,N,01618.1002793,E,2,38,0.4,708.3195,M,43.2066,M,1.9,0136*4C
$GNGNS,234552.00,4742.1602386,N,01618.1002793,E,DAAA,38,0.4,708.3195,43.2066,,*5C
$GPGNS,234552.00,,,,,,09,,,,1.9,136*7F
$GLGNS,234552.00,,,,,,07,,,,,*7F
$GAGNS,234552.00,,,,,,08,,,,,*7D
$GBGNS,234552.00,,,,,,14,,,,,*73
$GPLLQ,234552.00,010125,,M,,M,1,38,0.907,,M*13
$GPVTG,,T,,M,0.00,N,0.01,K,D*27
$GPHDT,,T*1B
$GPTHS,,V*0E
$GPROT,,V*08
$PSSN,HRP,234552.00,010125,,,,,,,00,0,,*66
$PTNL,AVR,234552.00,,Yaw,,Tilt,,,,0,,00*30
$GPGSA,A,3,02,03,08,10,14,17,21,28,32,,,,0.7,0.4,0.6*34
$GPGSA,A,3,69,70,71,77,84,85,86,,,,,,0.7,0.4,0.6*36
$GPGSA,A,3,07,08,12,24,26,29,31,33,,,,,0.7,0.4,0.6*30
$GPGSA,A,3,05,06,09,13,16,27,28,29,30,32,33,39,0.7,0.4,0.6*34
$GPGSA,A,3,41,60,,,,,,,,,,,0.7,0.4,0.6*34
$GPGST,234552.00,2.704,0.444,0.366,348.094,0.441,0.370,0.701*57
$GPGBS,234552.00,3.900,2.427,4.331,77,0.0001,-12.085,6.419*4C
$GPGRS,234552.00,1,0.1,0.0,-0.5,-0.2,0.2,-0.4,0.1,-0.2,0.1,,,*65
$GPGRS,234552.00,1,0.9,-1.8,4.3,-12.1,3.2,4.2,-0.6,,,,,*7E
$GPGRS,234552.00,1,0.1,-0.2,-0.5,-0.3,0.1,0.6,-0.1,-0.0,,,,*67
$GPGRS,234552.00,1,2.0,1.3,1.1,-4.0,0.7,0.4,-0.8,-0.8,0.2,-0.1,-0.6,0.3*65
$GPGRS,234552.00,1,-0.7,-1.8,,,,,,,,,,*47
$GPGSV,6,1,21,02,81,307,50,10,10,065,40,08,27,184,42,28,13,103,39*76
$GPGSV,6,2,21,17,24,315,42,32,39,056,47,03,45,255,47,21,76,119,44*7C
$GPGSV,6,3,21,27,01,165,,04,05,197,38,31,03,128,,14,10,282,38*71
$GPGSV,6,4,21,36,35,170,45,58,13,245,38,57,10,109,38,34,31,208,42*72
$GPGSV,6,5,21,40,24,132,35,49,34,195,44,41,07,108,34,61,03,257,38*79
$GPGSV,6,6,21*7A
$GLGSV,3,1,10,85,76,336,51,71,12,212,45,86,19,317,46,69,49,039,50*61
$GLGSV,3,2,10,84,45,128,38,70,60,208,42,78,00,037,,76,02,302,42*6A
$GLGSV,3,3,10,68,01,034,34,77,08,344,37*64
$GAGSV,3,1,11,33,69,314,48,19,10,193,35,31,12,259,38,12,15,297,36*61
$GAGSV,3,2,11,24,13,308,39,29,46,161,47,07,49,072,46,26,55,104,47*6F
$GAGSV,3,3,11,08,09,035,36,13,04,112,34,16,07,333,*5A
$GBGSV,5,1,18,57,79,018,,60,10,109,40,33,17,050,43,28,18,145,42*69
$GBGSV,5,2,18,09,19,090,39,05,24,128,39,39,23,062,43,16,22,073,41*6B
$GBGSV,5,3,18,20,44,204,,06,22,077,40,32,52,217,50,27,61,165,52*62
$GBGSV,5,4,18,30,57,294,50,41,67,064,51,13,07,071,37,29,06,315,40*63
$GBGSV,5,5,18,02,08,105,34,31,02,096,*64
$GPGGA,234552.00,,,,,0,00,,,M,,M,,*4F
$PTNL,GGK,234552.00,010125,4742.1602386,N,01618.1002793,E,1,38,0.7,EHT751.5261,M*4F
$GPGGQ,234552.00,010125,4742.1602386,N,01618.1002793,E,1,38,0.907,708.3195,M*3A
$GPGFA,234552.00,4.223,5.747,0.444,0.366,348.094,0.701,,VVV*01
$GPLLK,234552.00,010125,,M,,M,1,38,0.8,,M*0F
$GNGMP,234552.00,,,,,DAAA,38,0.4,,,,*5E
$GPGMP,234552.00,,,,,,09,,,,1.9,136*7F
$GLGMP,234552.00,,,,,,07,,,,,*7F
$GAGMP,234552.00,,,,,,08,,,,,*7D
$GBGMP,234552.00,,,,,,14,,,,,*73
$PSSN,SNC,[0,344770000,2347]*47
$GPZDA,234557.00,01,01,2025,,*61
$GPDTM,W84,,00.0000000,N,00.0000000,E,00.0000000,W84*5F
$PSSN,TFM,234557.00,,,,*6D
$GPRMC,234557.00,A,4742.1602417,N,01618.1002813,E,0.0,,010125,5.1,E,D*1A
$GPGLL,4742.1602417,N,01618.1002813,E,234557.00,A,D*6B
$GPGGA,234557.00,4742.1602417,N,01618.1002813,E,2,38,0.4,708.3215,M,43.2066,M,2.4,0136*44
$GNGNS,234557.00,4742.1602417,N,01618.1002813,E,DAAA,38,0.4,708.3215,43.2066,,*5A
$GPGNS,234557.00,,,,,,09,,,,2.4,136*74
$GLGNS,234557.00,,,,,,07,,,,,*7A
$GAGNS,234557.00,,,,,,08,,,,,*78
$GBGNS,234557.00,,,,,,14,,,,,*76
$GPLLQ,234557.00,010125,,M,,M,1,38,0.895,,M*1C
$GPVTG,,T,,M,0.01,N,0.01,K,D*26
$GPHDT,,T*1B
$GPTHS,,V*0E
$GPROT,,V*08
$PSSN,HRP,234557.00,010125,,,,,,,00,0,,*63
$PTNL,AVR,234557.00,,Yaw,,Tilt,,,,0,,00*35
$GPGSA,A,3,02,03,08,10,14,17,21,28,32,,,,0.7,0.4,0.6*34
$GPGSA,A,3,69,70,71,77,84,85,86,,,,,,0.7,0.4,0.6*36
$GPGSA,A,3,07,08,12,24,26,29,31,33,,,,,0.7,0.4,0.6*30
$GPGSA,A,3,05,06,09,13,16,27,28,29,30,32,33,39,0.7,0.4,0.6*34
$GPGSA,A,3,41,60,,,,,,,,,,,0.7,0.4,0.6*34
$GPGST,234557.00,2.634,0.440,0.361,346.996,0.436,0.365,0.691*5A
$GPGBS,234557.00,3.947,2.435,4.416,77,0.0001,-11.435,6.420*4D
$GPGRS,234557.00,1,-0.3,0.4,0.1,-0.6,0.1,-0.4,0.1,0.0,0.1,,,*4A
$GPGRS,234557.00,1,0.9,-2.7,4.3,-11.4,3.5,4.1,-0.2,,,,,*71
$GPGRS,234557.00,1,-0.1,-0.5,-0.1,-0.6,0.2,0.5,0.8,0.2,,,,*42
$GPGRS,234557.00,1,2.1,1.0,0.7,-3.9,0.7,0.5,-0.7,0.3,0.3,0.1,-0.5,0.1*6E
$GPGRS,234557.00,1,-0.8,-1.6,,,,,,,,,,*43
$GPGSV,6,1,21,02,81,307,50,10,10,065,41,08,27,184,42,28,13,103,39*77
$GPGSV,6,2,21,17,24,315,43,32,39,056,47,03,45,255,46,21,76,119,45*7D
$GPGSV,6,3,21,27,01,165,,04,05,197,38,31,03,128,,14,10,282,38*71
$GPGSV,6,4,21,36,35,170,45,58,13,245,38,57,10,109,38,34,31,208,42*72
$GPGSV,6,5,21,40,24,132,36,49,34,195,44,41,07,108,34,61,03,257,38*7A
$GPGSV,6,6,21*7A
$GLGSV,3,1,10,85,76,336,51,71,12,212,45,86,19,317,46,69,48,039,50*60
$GLGSV,3,2,10,84,45,128,38,70,60,208,42,78,00,037,,76,02,302,42*6A
$GLGSV,3,3,10,68,01,034,34,77,08,344,38*6B
$GAGSV,3,1,11,33,69,314,48,19,10,193,34,31,12,259,38,12,15,297,36*60
$GAGSV,3,2,11,24,13,308,39,29,46,161,47,07,49,072,45,26,55,104,47*6C
$GAGSV,3,3,11,08,09,035,36,13,04,112,34,16,07,333,*5A
$GBGSV,5,1,18,57,79,018,,60,10,109,40,33,17,050,43,28,18,145,42*69
$GBGSV,5,2,18,09,19,090,39,05,24,128,39,39,23,062,43,16,22,073,41*6B
$GBGSV,5,3,18,20,44,204,,06,22,077,39,32,52,217,50,27,61,165,51*6F
$GBGSV,5,4,18,30,57,294,50,41,67,064,50,13,07,071,37,29,06,315,41*63
$GBGSV,5,5,18,02,08,105,34,31,02,096,*64
$GPGGA,234557.00,,,,,0,00,,,M,,M,,*4A
$PTNL,GGK,234557.00,010125,4742.1602417,N,01618.1002813,E,1,38,0.7,EHT751.5280,M*4D
$GPGGQ,234557.00,010125,4742.1602417,N,01618.1002813,E,1,38,0.895,708.3215,M*36
$GPGFA,234557.00,4.179,5.669,0.440,0.361,346.996,0.691,,VVV*0B
$GPLLK,234557.00,010125,,M,,M,1,38,0.8,,M*0A
$GNGMP,234557.00,,,,,DAAA,38,0.4,,,,*5B
$GPGMP,234557.00,,,,,,09,,,,2.4,136*74
$GLGMP,234557.00,,,,,,07,,,,,*7A
$GAGMP,234557.00,,,,,,08,,,,,*78
$GBGMP,234557.00,,,,,,14,,,,,*76
$PSSN,SNC,[0,344775000,2347]*42
$GPZDA,234602.00,01,01,2025,,*62
$GPDTM,W84,,00.0000000,N,00.0000000,E,00.0000000,W84*5F
$PSSN,TFM,234602.00,,,,*6E
$GPRMC,234602.00,A,4742.1602419,N,01618.1002825,E,0.0,,010125,5.1,E,D*12
$GPGLL,4742.1602419,N,01618.1002825,E,234602.00,A,D*63
$GPGGA,234602.00,4742.1602419,N,01618.1002825,E,2,38,0.4,708.3242,M,43.2066,M,2.4,0136*4E
$GNGNS,234602.00,4742.1602419,N,01618.1002825,E,DAAA,38,0.4,708.3242,43.2066,,*50
$GPGNS,234602.00,,,,,,09,,,,2.4,136*77
$GLGNS,234602.00,,,,,,07,,,,,*79
$GAGNS,234602.00,,,,,,08,,,,,*7B
$GBGNS,234602.00,,,,,,14,,,,,*75
$GPLLQ,234602.00,010125,,M,,M,1,38,0.901,,M*13
$GPVTG,,T,,M,0.00,N,0.00,K,D*26
$GPHDT,,T*1B
$GPTHS,,V*0E
$GPROT,,V*08
$PSSN,HRP,234602.00,010125,,,,,,,00,0,,*60
$PTNL,AVR,234602.00,,Yaw,,Tilt,,,,0,,00*36
$GPGSA,A,3,02,03,08,10,14,17,21,28,32,,,,0.7,0.4,0.6*34
$GPGSA,A,3,69,70,71,77,84,85,86,,,,,,0.7,0.4,0.6*36
$GPGSA,A,3,07,08,12,24,26,29,31,33,,,,,0.7,0.4,0.6*30
$GPGSA,A,3,05,06,09,13,16,27,28,29,30,32,33,39,0.7,0.4,0.6*34
$GPGSA,A,3,41,60,,,,,,,,,,,0.7,0.4,0.6*34
$GPGST,234602.00,2.569,0.442,0.360,346.775,0.438,0.365,0.697*5A
$GPGBS,234602.00,3.940,2.448,4.255,77,0.0001,-11.498,6.420*45
$GPGRS,234602.00,1,-0.3,-0.1,0.1,-0.4,0.5,0.7,-0.2,0.0,0.3,,,*65
$GPGRS,234602.00,1,0.6,-2.8,4.0,-11.5,3.0,3.8,-0.8,,,,,*71
$GPGRS,234602.00,1,0.3,-0.4,-0.4,-0.6,0.2,0.2,-0.0,0.1,,,,*4B
$GPGRS,234602.00,1,1.7,1.3,1.1,-3.4,0.5,0.3,-0.4,-0.3,0.3,-0.3,-0.6,-0.3*48
$GPGRS,234602.00,1,-0.7,-1.5,,,,,,,,,,*4C
$GPGSV,6,1,21,02,81,307,50,10,10,065,40,08,27,184,42,28,13,103,39*76
$GPGSV,6,2,21,17,24,315,43,32,39,056,47,03,45,255,47,21,76,119,45*7C
$GPGSV,6,3,21,27,01,165,,04,05,197,38,31,03,128,,14,10,282,37*7E
$GPGSV,6,4,21,36,35,170,45,58,13,245,38,57,10,109,38,34,31,208,42*72
$GPGSV,6,5,21,40,24,132,36,49,34,195,44,41,07,108,34,61,03,257,39*7B
$GPGSV,6,6,21*7A
$GLGSV,3,1,10,85,76,336,51,71,12,212,45,86,19,317,46,69,48,039,50*60
$GLGSV,3,2,10,84,45,128,38,70,60,208,41,78,00,036,,76,02,302,42*68
$GLGSV,3,3,10,68,01,034,33,77,08,344,38*6C
$GAGSV,3,1,11,33,69,314,48,19,10,193,34,31,12,259,38,12,15,297,35*63
$GAGSV,3,2,11,24,13,308,38,29,46,161,46,07,49,072,45,26,55,104,47*6C
$GAGSV,3,3,11,08,09,035,37,13,04,112,34,16,07,333,*5B
$GBGSV,5,1,18,57,79,018,,60,10,109,40,33,17,050,42,28,18,145,43*69
$GBGSV,5,2,18,09,19,090,39,05,24,128,38,39,23,062,43,16,22,073,41*6A
$GBGSV,5,3,18,20,45,204,,06,22,077,39,27,61,165,51,32,52,217,50*6E
$GBGSV,5,4,18,30,58,293,50,41,67,064,51,13,07,071,37,29,06,315,41*6A
$GBGSV,5,5,18,02,08,105,34,31,02,096,*64
$GPGGA,234602.00,,,,,0,00,,,M,,M,,*49
$PTNL,GGK,234602.00,010125,4742.1602419,N,01618.1002825,E,1,38,0.7,EHT751.5308,M*44
$GPGGQ,234602.00,010125,4742.1602419,N,01618.1002825,E,1,38,0.901,708.3242,M*30
$GPGFA,234602.00,4.203,5.717,0.442,0.360,346.775,0.697,,VVV*08
$GPLLK,234602.00,010125,,M,,M,1,38,0.8,,M*09
$GNGMP,234602.00,,,,,DAAA,38,0.4,,,,*58
$GPGMP,234602.00,,,,,,09,,,,2.4,136*77
$GLGMP,234602.00,,,,,,07,,,,,*79
$GAGMP,234602.00,,,,,,08,,,,,*7B
$GBGMP,234602.00,,,,,,14,,,,,*75
$PSSN,SNC,[0,344780000,2347]*48
$GPZDA,234607.00,01,01,2025,,*67
$GPDTM,W84,,00.0000000,N,00.0000000,E,00.0000000,W84*5F
$PSSN,TFM,234607.00,,,,*6B
$GPRMC,234607.00,A,4742.1602409,N,01618.1002819,E,0.0,,010125,5.1,E,D*19
$GPGLL,4742.1602409,N,01618.1002819,E,234607.00,A,D*68
$GPGGA,234607.00,4742.1602409,N,01618.1002819,E,2,38,0.4,708.3237,M,43.2066,M,3.4,0136*46
$GNGNS,234607.00,4742.1602409,N,01618.1002819,E,DAAA,38,0.4,708.3237,43.2066,,*59
$GPGNS,234607.00,,,,,,09,,,,3.4,136*73
$GLGNS,234607.00,,,,,,07,,,,,*7C
$GAGNS,234607.00,,,,,,08,,,,,*7E
$GBGNS,234607.00,,,,,,14,,,,,*70
$GPLLQ,234607.00,010125,,M,,M,1,38,0.908,,M*1F
$GPVTG,,T,,M,0.00,N,0.00,K,D*26
$GPHDT,,T*1B
$GPTHS,,V*0E
$GPROT,,V*08
$PSSN,HRP,234607.00,010125,,,,,,,00,0,,*65
$PTNL,AVR,234607.00,,Yaw,,Tilt,,,,0,,00*33
$GPGSA,A,3,02,03,08,10,14,17,21,28,32,,,,0.7,0.4,0.6*34
$GPGSA,A,3,69,70,71,77,84,85,86,,,,,,0.7,0.4,0.6*36
$GPGSA,A,3,07,08,12,24,26,29,31,33,,,,,0.7,0.4,0.6*30
$GPGSA,A,3,05,06,09,13,16,27,28,29,30,32,33,39,0.7,0.4,0.6*34
$GPGSA,A,3,41,60,,,,,,,,,,,0.7,0.4,0.6*34
$GPGST,234607.00,2.743,0.444,0.364,348.079,0.441,0.368,0.703*5D
$GPGBS,234607.00,3.998,2.475,4.309,77,0.0001,-12.393,6.418*47
$GPGRS,234607.00,1,0.2,-0.1,-0.1,-0.7,0.3,0.1,-0.0,-0.3,0.1,,,*4C
$GPGRS,234607.00,1,1.0,-2.5,4.3,-12.4,3.7,4.4,-1.0,,,,,*7A
$GPGRS,234607.00,1,0.4,-0.7,-0.9,-0.6,-0.1,0.3,-0.3,0.0,,,,*6A
$GPGRS,234607.00,1,1.2,1.3,1.1,-2.4,0.3,0.1,-0.3,-1.6,0.2,-0.3,-0.8,-0.6*44
$GPGRS,234607.00,1,-0.8,-1.6,,,,,,,,,,*45
$GPGSV,6,1,21,02,81,307,50,10,10,065,39,08,26,184,43,28,13,103,39*78
$GPGSV,6,2,21,17,24,315,43,32,39,056,47,03,45,255,46,21,76,119,45*7D
$GPGSV,6,3,21,27,01,165,,04,05,197,38,31,03,128,,14,10,282,38*71
$GPGSV,6,4,21,36,35,170,45,58,13,245,38,57,10,109,39,34,31,208,43*72
$GPGSV,6,5,21,40,24,132,36,49,34,195,44,41,07,108,34,61,03,257,38*7A
$GPGSV,6,6,21*7A
$GLGSV,3,1,10,85,76,336,52,71,12,212,45,86,19,317,46,69,48,039,50*63
$GLGSV,3,2,10,84,44,128,38,70,60,208,41,78,01,036,,76,02,302,40*6A
$GLGSV,3,3,10,68,01,034,34,77,08,344,37*64
$GAGSV,3,1,11,33,70,314,48,19,10,193,34,31,12,259,38,12,15,297,36*68
$GAGSV,3,2,11,24,13,308,39,29,46,161,46,07,49,072,46,26,55,104,47*6E
$GAGSV,3,3,11,08,09,035,37,13,04,112,34,16,07,333,*5B
$GBGSV,5,1,18,57,79,018,,60,10,109,40,33,17,050,42,28,18,145,42*68
$GBGSV,5,2,18,09,19,090,39,05,24,128,39,39,23,062,43,16,22,073,41*6B
$GBGSV,5,3,18,20,45,204,,06,22,077,39,27,61,165,51,32,52,217,50*6E
$GBGSV,5,4,18,30,58,293,50,41,67,064,51,13,07,071,37,29,06,315,41*6A
$GBGSV,5,5,18,02,08,105,34,31,02,096,*64
$GPGGA,234607.00,,,,,0,00,,,M,,M,,*4C
$PTNL,GGK,234607.00,010125,4742.1602409,N,01618.1002819,E,1,38,0.7,EHT751.5302,M*45
$GPGGQ,234607.00,010125,4742.1602409,N,01618.1002819,E,1,38,0.908,708.3237,M*30
$GPGFA,234607.00,4.226,5.762,0.444,0.364,348.079,0.703,,VVV*03
$GPLLK,234607.00,010125,,M,,M,1,38,0.8,,M*0C
$GNGMP,234607.00,,,,,DAAA,38,0.4,,,,*5D
$GPGMP,234607.00,,,,,,09,,,,3.4,136*73
$GLGMP,234607.00,,,,,,07,,,,,*7C
$GAGMP,234607.00,,,,,,08,,,,,*7E
$GBGMP,234607.00,,,,,,14,,,,,*70
$PSSN,SNC,[0,344785000,2347]*4D
$GPZDA,234612.00,01,01,2025,,*63
$GPDTM,W84,,00.0000000,N,00.0000000,E,00.0000000,W84*5F
$PSSN,TFM,234612.00,,,,*6F
$GPRMC,234612.00,A,4742.1602430,N,01618.1002853,E,0.0,,010125,5.1,E,D*19
$GPGLL,4742.1602430,N,01618.1002853,E,234612.00,A,D*68
$GPGGA,234612.00,4742.1602430,N,01618.1002853,E,2,38,0.4,708.3192,M,43.2066,M,1.9,0136*45
$GNGNS,234612.00,4742.1602430,N,01618.1002853,E,DAAA,38,0.4,708.3192,43.2066,,*55
$GPGNS,234612.00,,,,,,09,,,,1.9,136*78
$GLGNS,234612.00,,,,,,07,,,,,*78
$GAGNS,234612.00,,,,,,08,,,,,*7A
$GBGNS,234612.00,,,,,,14,,,,,*74
$GPLLQ,234612.00,010125,,M,,M,1,38,0.938,,M*18
$GPVTG,,T,,M,0.00,N,0.00,K,D*26
$GPHDT,,T*1B
$GPTHS,,V*0E
$GPROT,,V*08
$PSSN,HRP,234612.00,010125,,,,,,,00,0,,*61
$PTNL,AVR,234612.00,,Yaw,,Tilt,,,,0,,00*37
$GPGSA,A,3,02,03,08,10,14,17,21,28,32,,,,0.7,0.4,0.6*34
$GPGSA,A,3,69,70,71,77,84,85,86,,,,,,0.7,0.4,0.6*36
$GPGSA,A,3,07,08,12,24,26,29,31,33,,,,,0.7,0.4,0.6*30
$GPGSA,A,3,05,06,09,13,16,27,28,29,30,32,33,39,0.7,0.4,0.6*34
$GPGSA,A,3,41,60,,,,,,,,,,,0.7,0.4,0.6*34
$GPGST,234612.00,2.831,0.459,0.379,348.330,0.456,0.382,0.724*5A
$GPGBS,234612.00,3.896,2.432,4.325,77,0.0001,-12.566,6.419*4C
$GPGRS,234612.00,1,0.4,-0.4,-0.2,-0.9,1.0,-0.2,-0.1,-0.5,0.0,,,*6C
$GPGRS,234612.00,1,0.9,-2.3,4.4,-12.6,3.9,4.5,-1.0,,,,,*7A
$GPGRS,234612.00,1,0.2,-0.9,-0.2,-0.4,-0.2,0.4,-0.4,-0.2,,,,*43
$GPGRS,234612.00,1,1.4,1.2,1.1,-3.0,0.0,0.3,-0.5,-2.1,-0.0,-0.2,-0.4,-1.0*64
$GPGRS,234612.00,1,-0.8,-1.9,,,,,,,,,,*4E
$GPGSV,6,1,21,02,81,307,50,10,10,065,38,08,26,184,43,28,13,103,39*79
$GPGSV,6,2,21,17,24,315,44,32,39,056,47,03,45,256,46,21,76,119,45*79
$GPGSV,6,3,21,27,01,165,,04,05,197,38,31,03,128,,14,10,282,38*71
$GPGSV,6,4,21,36,35,170,45,58,13,245,38,57,10,109,38,34,31,208,42*72
$GPGSV,6,5,21,40,24,132,36,49,34,195,43,41,07,108,34,61,03,257,38*7D
$GPGSV,6,6,21*7A
$GLGSV,3,1,10,85,76,336,51,71,12,212,44,86,19,317,46,69,48,039,50*61
$GLGSV,3,2,10,84,44,128,37,70,60,208,41,78,01,036,,76,02,302,41*64
$GLGSV,3,3,10,68,01,034,34,77,08,344,38*6B
$GAGSV,3,1,11,33,70,314,48,19,10,193,33,31,12,259,38,12,15,297,36*6F
$GAGSV,3,2,11,24,13,308,39,29,46,161,47,07,49,072,46,26,55,104,47*6F
$GAGSV,3,3,11,08,09,035,37,13,04,112,33,16,07,333,*5C
$GBGSV,5,1,18,57,79,019,,60,10,109,40,33,17,050,43,28,18,145,43*69
$GBGSV,5,2,18,09,19,090,39,05,24,128,38,39,23,062,43,16,22,073,41*6A
$GBGSV,5,3,18,20,45,204,,06,22,077,39,27,61,165,51,32,52,217,50*6E
$GBGSV,5,4,18,30,58,293,50,41,67,064,51,13,07,071,38,29,06,315,40*64
$GBGSV,5,5,18,02,08,105,34,31,02,096,*64
$GPGGA,234612.00,,,,,0,00,,,M,,M,,*48
$PTNL,GGK,234612.00,010125,4742.1602430,N,01618.1002853,E,1,38,0.7,EHT751.5257,M*44
$GPGGQ,234612.00,010125,4742.1602430,N,01618.1002853,E,1,38,0.938,708.3192,M*3F
$GPGFA,234612.00,4.363,5.941,0.459,0.379,348.330,0.724,,VVV*03
$GPLLK,234612.00,010125,,M,,M,1,38,0.8,,M*08
$GNGMP,234612.00,,,,,DAAA,38,0.4,,,,*59
$GPGMP,234612.00,,,,,,09,,,,1.9,136*78
$GLGMP,234612.00,,,,,,07,,,,,*78
$GAGMP,234612.00,,,,,,08,,,,,*7A
$GBGMP,234612.00,,,,,,14,,,,,*74
$PSSN,SNC,[0,344790000,2347]*49
$GPZDA,234617.00,01,01,2025,,*66
$GPDTM,W84,,00.0000000,N,00.0000000,E,00.0000000,W84*5F
$PSSN,TFM,234617.00,,,,*6A
$GPRMC,234617.00,A,4742.1602425,N,01618.1002858,E,0.0,,010125,5.1,E,D*13
$GPGLL,4742.1602425,N,01618.1002858,E,234617.00,A,D*62
$GPGGA,234617.00,4742.1602425,N,01618.1002858,E,2,38,0.4,708.3209,M,43.2066,M,2.4,0136*40
$GNGNS,234617.00,4742.1602425,N,01618.1002858,E,DAAA,38,0.4,708.3209,43.2066,,*5E
$GPGNS,234617.00,,,,,,09,,,,2.4,136*73
$GLGNS,234617.00,,,,,,07,,,,,*7D
$GAGNS,234617.00,,,,,,08,,,,,*7F
$GBGNS,234617.00,,,,,,14,,,,,*71
$GPLLQ,234617.00,010125,,M,,M,1,38,0.895,,M*1B
$GPVTG,,T,,M,0.00,N,0.00,K,D*26
$GPHDT,,T*1B
$GPTHS,,V*0E
$GPROT,,V*08
$PSSN,HRP,234617.00,010125,,,,,,,00,0,,*64
$PTNL,AVR,234617.00,,Yaw,,Tilt,,,,0,,00*32
$GPGSA,A,3,02,03,08,10,14,17,21,28,32,,,,0.7,0.4,0.6*34
$GPGSA,A,3,69,70,71,77,84,85,86,,,,,,0.7,0.4,0.6*36
$GPGSA,A,3,07,08,12,24,26,29,31,33,,,,,0.7,0.4,0.6*30
$GPGSA,A,3,05,06,09,13,16,27,28,29,30,32,33,39,0.7,0.4,0.6*34
$GPGSA,A,3,41,60,,,,,,,,,,,0.7,0.4,0.6*34
$GPGST,234617.00,2.583,0.440,0.361,347.201,0.436,0.365,0.691*56
$GPGBS,234617.00,3.945,2.440,4.412,77,0.0001,-11.644,6.419*40
$GPGRS,234617.00,1,0.1,-0.1,-0.0,-0.9,0.4,0.1,-0.2,-0.3,0.1,,,*44
$GPGRS,234617.00,1,1.0,-2.6,3.9,-11.6,3.0,4.3,-0.8,,,,,*7D
$GPGRS,234617.00,1,0.2,-0.3,-0.1,-0.4,-0.0,0.7,0.4,-0.1,,,,*60
$GPGRS,234617.00,1,1.5,1.1,1.3,-2.9,-0.0,0.5,-0.8,-0.4,0.2,0.3,-0.0,-0.7*49
$GPGRS,234617.00,1,-0.8,-1.4,,,,,,,,,,*46
$GPGSV,6,1,21,02,81,307,50,10,10,065,38,08,26,184,43,28,13,103,39*79
$GPGSV,6,2,21,17,24,315,43,32,39,056,47,03,45,256,46,21,76,119,45*7E
$GPGSV,6,3,21,27,01,165,,04,05,197,38,31,03,128,,14,10,282,38*71
$GPGSV,6,4,21,36,35,170,45,58,13,245,38,57,10,109,38,34,31,208,42*72
$GPGSV,6,5,21,40,24,132,36,49,34,195,43,41,07,108,34,61,03,257,38*7D
$GPGSV,6,6,21*7A
$GLGSV,3,1,10,85,76,336,52,71,12,212,45,86,19,317,46,69,48,039,50*63
$GLGSV,3,2,10,84,44,128,38,70,60,208,42,78,01,036,,76,02,302,41*68
$GLGSV,3,3,10,68,01,034,33,77,08,344,38*6C
$GAGSV,3,1,11,33,70,314,48,19,10,193,34,31,12,259,38,12,15,297,36*68
$GAGSV,3,2,11,24,13,308,39,29,46,161,46,07,49,072,46,26,55,104,47*6E
$GAGSV,3,3,11,08,09,035,37,13,04,112,33,16,07,333,*5C
$GBGSV,5,1,18,57,79,019,,60,10,109,40,33,17,050,42,28,18,145,43*68
$GBGSV,5,2,18,09,19,090,39,05,24,128,38,39,23,062,43,16,22,073,40*6B
$GBGSV,5,3,18,20,45,204,,06,22,077,39,27,61,165,51,32,52,217,50*6E
$GBGSV,5,4,18,30,58,293,50,41,67,064,51,13,07,071,38,29,07,315,40*65
$GBGSV,5,5,18,02,08,105,34,31,02,096,*64
$GPGGA,234617.00,,,,,0,00,,,M,,M,,*4D
$PTNL,GGK,234617.00,010125,4742.1602425,N,01618.1002858,E,1,38,0.7,EHT751.5275,M*4E
