$GPZDA,165942.00,01,01,2025,,*6E
$GPDTM,W84,,00.0000000,N,00.0000000,E,00.0000000,W84*5F
$PSSN,TFM,165942.00,,,,*62
$GPRMC,165942.00,A,4742.1604956,N,01618.1002239,E,0.0,,010125,5.1,E,D*19
$GPGLL,4742.1604956,N,01618.1002239,E,165942.00,A,D*68
$GPGGA,165942.00,4742.1604956,N,01618.1002239,E,2,37,0.5,707.5367,M,43.2066,M,2.6,0136*46
$GNGNS,165942.00,4742.1604956,N,01618.1002239,E,DAAA,37,0.5,707.5367,43.2066,,*5A
$GPGNS,165942.00,,,,,,09,,,,2.6,136*79
$GLGNS,165942.00,,,,,,08,,,,,*7A
$GAGNS,165942.00,,,,,,06,,,,,*79
$GBGNS,165942.00,,,,,,14,,,,,*79
$GPLLQ,165942.00,010125,,M,,M,1,37,1.118,,M*11
$GPVTG,,T,,M,0.00,N,0.00,K,D*26
$GPHDT,,T*1B
$GPTHS,,V*0E
$GPROT,,V*08
$PSSN,HRP,165942.00,010125,,,,,,,00,0,,*6C
$PTNL,AVR,165942.00,,Yaw,,Tilt,,,,0,,00*3A
$GPGSA,A,3,05,16,18,20,25,26,28,29,31,,,,0.8,0.5,0.6*30
$GPGSA,A,3,65,72,78,79,80,81,82,88,,,,,0.8,0.5,0.6*35
$GPGSA,A,3,13,15,21,27,30,34,,,,,,,0.8,0.5,0.6*3D
$GPGSA,A,3,05,08,11,12,13,22,23,25,28,34,37,38,0.8,0.5,0.6*31
$GPGSA,A,3,43,60,,,,,,,,,,,0.8,0.5,0.6*38
$GPGST,165942.00,1.363,0.441,0.337,347.654,0.437,0.343,0.970*56
$GPGBS,165942.00,2.460,1.738,5.227,72,0.0001,5.020,6.593*57
$GPGRS,165942.00,1,0.4,0.1,-0.2,-0.1,-0.1,-0.3,0.6,-0.1,0.1,,,*42
$GPGRS,165942.00,1,-0.2,5.0,-3.0,-0.4,-2.3,0.8,-0.5,-0.1,,,,*4E
$GPGRS,165942.00,1,-0.0,0.0,-0.0,-0.3,-0.3,0.4,,,,,,*47
$GPGRS,165942.00,1,0.4,1.3,1.3,2.3,0.2,-1.1,-0.3,-0.5,0.7,-0.4,-1.3,0.0*6E
$GPGRS,165942.00,1,0.4,-1.1,,,,,,,,,,*6A
$GPGSV,5,1,20,18,62,182,49,05,28,069,45,16,23,305,41,20,14,037,39*79
$GPGSV,5,2,20,25,29,136,43,28,32,221,45,31,41,253,47,26,53,297,48*7A
$GPGSV,5,3,20,29,58,064,48,23,04,159,,04,01,314,36,36,35,170,45*7F
$GPGSV,5,4,20,58,13,245,37,40,23,133,36,34,31,208,43,49,34,195,44*7C
$GPGSV,5,5,20,57,08,111,38,41,07,108,34,61,03,257,38*48
$GLGSV,3,1,10,81,71,024,52,78,10,154,43,83,12,227,35,88,17,044,44*6E
$GLGSV,3,2,10,80,57,314,52,82,53,237,51,79,61,170,52,65,08,059,39*65
$GLGSV,3,3,10,73,04,328,41,72,09,007,37*67
$GAGSV,3,1,09,27,77,140,48,34,27,045,42,30,24,128,42,13,39,198,45*6B
$GAGSV,3,2,09,21,45,303,45,15,71,099,48,04,04,328,37,19,00,277,*6A
$GAGSV,3,3,09,06,01,351,35*57
$GBGSV,6,1,22,11,84,045,49,37,21,315,42,60,10,109,41,27,11,230,*64
$GBGSV,6,2,22,05,21,129,38,12,28,057,42,25,40,179,49,38,30,049,43*66
$GBGSV,6,3,22,13,40,075,45,08,39,064,42,31,42,061,,23,60,266,51*6F
$GBGSV,6,4,22,34,57,060,50,43,71,245,51,28,09,240,41,02,06,107,34*6C
$GBGSV,6,5,22,21,03,043,,22,08,042,40,44,05,061,39,50,01,111,*68
$GBGSV,6,6,22,56,06,077,,10,02,093,32*66
$GPGGA,165942.00,,,,,0,00,,,M,,M,,*45
$PTNL,GGK,165942.00,010125,4742.1604956,N,01618.1002239,E,1,37,0.8,EHT750.7432,M*42
$GPGGQ,165942.00,010125,4742.1604956,N,01618.1002239,E,1,37,1.118,707.5367,M*3A
$GPGFA,165942.00,4.191,7.954,0.441,0.337,347.654,0.970,,VVV*03
$GPLLK,165942.00,010125,,M,,M,1,37,0.9,,M*0B
$GNGMP,165942.00,,,,,DAAA,37,0.5,,,,*5A
$GPGMP,165942.00,,,,,,09,,,,2.6,136*79
$GLGMP,165942.00,,,,,,08,,,,,*7A
$GAGMP,165942.00,,,,,,06,,,,,*79
$GBGMP,165942.00,,,,,,14,,,,,*79
$PSSN,SNC,[0,320400000,2347]*41
$GPZDA,165947.00,01,01,2025,,*6B
$GPDTM,W84,,00.0000000,N,00.0000000,E,00.0000000,W84*5F
$PSSN,TFM,165947.00,,,,*67
$GPRMC,165947.00,A,4742.1604950,N,01618.1002257,E,0.0,,010125,5.1,E,D*12
$GPGLL,4742.1604950,N,01618.1002257,E,165947.00,A,D*63
$GPGGA,165947.00,4742.1604950,N,01618.1002257,E,2,37,0.5,707.5402,M,43.2066,M,2.2,0136*4D
$GNGNS,165947.00,4742.1604950,N,01618.1002257,E,DAAA,37,0.5,707.5402,43.2066,,*55
$GPGNS,165947.00,,,,,,09,,,,2.2,136*78
$GLGNS,165947.00,,,,,,08,,,,,*7F
$GAGNS,165947.00,,,,,,06,,,,,*7C
$GBGNS,165947.00,,,,,,14,,,,,*7C
$GPLLQ,165947.00,010125,,M,,M,1,37,1.122,,M*1D
$GPVTG,,T,,M,0.01,N,0.01,K,D*26
$GPHDT,,T*1B
$GPTHS,,V*0E
$GPROT,,V*08
$PSSN,HRP,165947.00,010125,,,,,,,00,0,,*69
$PTNL,AVR,165947.00,,Yaw,,Tilt,,,,0,,00*3F
$GPGSA,A,3,05,16,18,20,25,26,28,29,31,,,,0.8,0.5,0.6*30
$GPGSA,A,3,65,72,78,79,80,81,82,88,,,,,0.8,0.5,0.6*35
$GPGSA,A,3,13,15,21,27,30,34,,,,,,,0.8,0.5,0.6*3D
$GPGSA,A,3,05,08,11,12,13,22,23,25,28,34,37,38,0.8,0.5,0.6*31
$GPGSA,A,3,43,60,,,,,,,,,,,0.8,0.5,0.6*38
$GPGST,165947.00,1.433,0.446,0.335,345.970,0.440,0.343,0.974*5B
$GPGBS,165947.00,2.447,1.749,5.122,72,0.0001,5.902,6.597*5A
$GPGRS,165947.00,1,0.2,0.1,-0.2,-0.3,0.1,-0.1,-0.0,0.1,0.2,,,*69
$GPGRS,165947.00,1,0.6,5.9,-2.7,-0.6,-2.6,1.0,-0.1,-0.4,,,,*62
$GPGRS,165947.00,1,-0.2,0.1,-0.1,-0.1,-0.2,0.3,,,,,,*44
$GPGRS,165947.00,1,0.6,0.5,1.2,1.9,0.1,-1.2,-0.4,-0.2,0.9,-0.5,-0.7,0.3*6F
$GPGRS,165947.00,1,0.6,-0.9,,,,,,,,,,*64
$GPGSV,5,1,20,18,63,182,49,05,28,069,44,16,23,305,41,20,14,037,39*79
$GPGSV,5,2,20,25,28,136,42,28,31,221,44,31,41,253,47,26,53,297,48*78
$GPGSV,5,3,20,29,58,064,48,23,04,159,,04,01,314,36,36,35,170,45*7F
$GPGSV,5,4,20,58,13,245,37,40,23,133,36,34,31,208,43,49,34,195,44*7C
$GPGSV,5,5,20,57,08,111,38,41,07,108,35,61,03,257,38*49
$GLGSV,3,1,10,81,71,024,52,80,57,314,52,83,12,227,34,88,17,044,43*6A
$GLGSV,3,2,10,79,61,170,52,82,53,237,51,65,08,059,39,72,09,007,38*6E
$GLGSV,3,3,10,73,04,328,42,78,10,154,44*65
$GAGSV,3,1,09,27,77,140,49,34,26,045,41,30,24,128,42,13,39,198,45*68
$GAGSV,3,2,09,21,45,303,45,15,71,098,48,04,04,328,37,19,00,277,*6B
$GAGSV,3,3,09,06,01,351,35*57
$GBGSV,6,1,22,11,84,045,49,37,21,315,43,60,10,109,41,27,11,230,*65
$GBGSV,6,2,22,05,21,129,38,12,28,057,42,25,40,179,49,38,30,049,44*61
$GBGSV,6,3,22,13,40,075,45,08,39,064,42,31,42,061,,23,60,266,51*6F
$GBGSV,6,4,22,34,57,060,50,43,71,245,51,28,09,240,41,02,06,107,34*6C
$GBGSV,6,5,22,21,03,043,,22,08,042,40,44,05,061,39,50,01,110,*69
$GBGSV,6,6,22,56,06,077,,10,02,093,32*66
$GPGGA,165947.00,,,,,0,00,,,M,,M,,*40
$PTNL,GGK,165947.00,010125,4742.1604950,N,01618.1002257,E,1,37,0.8,EHT750.7467,M*49
$GPGGQ,165947.00,010125,4742.1604950,N,01618.1002257,E,1,37,1.122,707.5402,M*3C
$GPGFA,165947.00,4.237,7.983,0.446,0.335,345.970,0.974,,VVV*09
$GPLLK,165947.00,010125,,M,,M,1,37,0.9,,M*0E
$GNGMP,165947.00,,,,,DAAA,37,0.5,,,,*5F
$GPGMP,165947.00,,,,,,09,,,,2.2,136*78
$GLGMP,165947.00,,,,,,08,,,,,*7F
$GAGMP,165947.00,,,,,,06,,,,,*7C
$GBGMP,165947.00,,,,,,14,,,,,*7C
$PSSN,SNC,[0,320405000,2347]*44
$GPZDA,165952.00,01,01,2025,,*6F
$GPDTM,W84,,00.0000000,N,00.0000000,E,00.0000000,W84*5F
$PSSN,TFM,165952.00,,,,*63
$GPRMC,165952.00,A,4742.1604945,N,01618.1002255,E,0.0,,010125,5.1,E,D*10
$GPGLL,4742.1604945,N,01618.1002255,E,165952.00,A,D*61
$GPGGA,165952.00,4742.1604945,N,01618.1002255,E,2,37,0.5,707.5383,M,43.2066,M,2.9,0136*4A
$GNGNS,165952.00,4742.1604945,N,01618.1002255,E,DAAA,37,0.5,707.5383,43.2066,,*59
$GPGNS,165952.00,,,,,,09,,,,2.9,136*77
$GLGNS,165952.00,,,,,,08,,,,,*7B
$GAGNS,165952.00,,,,,,06,,,,,*78
$GBGNS,165952.00,,,,,,14,,,,,*78
$GPLLQ,165952.00,010125,,M,,M,1,37,1.137,,M*1D
$GPVTG,,T,,M,0.00,N,0.01,K,D*27
$GPHDT,,T*1B
$GPTHS,,V*0E
$GPROT,,V*08
$PSSN,HRP,165952.00,010125,,,,,,,00,0,,*6D
$PTNL,AVR,165952.00,,Yaw,,Tilt,,,,0,,00*3B
$GPGSA,A,3,05,16,18,20,25,26,28,29,31,,,,0.8,0.5,0.6*30
$GPGSA,A,3,65,72,78,79,80,81,82,88,,,,,0.8,0.5,0.6*35
$GPGSA,A,3,13,15,21,27,30,34,,,,,,,0.8,0.5,0.6*3D
$GPGSA,A,3,05,08,11,12,13,22,23,25,28,34,37,38,0.8,0.5,0.6*31
$GPGSA,A,3,43,60,,,,,,,,,,,0.8,0.5,0.6*38
$GPGST,165952.00,1.382,0.452,0.339,345.691,0.446,0.347,0.986*54
$GPGBS,165952.00,2.478,1.770,5.139,72,0.0001,5.477,6.594*5E
$GPGRS,165952.00,1,-0.1,-0.2,-0.2,-0.7,-0.0,-0.1,0.4,-0.0,0.2,,,*40
$GPGRS,165952.00,1,0.2,5.5,-2.9,-0.1,-2.6,1.0,0.0,-0.5,,,,*4A
$GPGRS,165952.00,1,-0.0,0.2,-0.2,-0.1,-0.3,0.4,,,,,,*44
$GPGRS,165952.00,1,0.7,0.1,1.2,2.0,-0.6,-1.3,-0.3,-0.2,0.2,-0.3,-0.1,0.5*45
$GPGRS,165952.00,1,0.7,-0.8,,,,,,,,,,*60
$GPGSV,5,1,20,18,63,182,49,05,28,069,44,16,23,305,41,20,14,037,39*79
$GPGSV,5,2,20,25,28,136,42,28,31,221,44,31,41,253,47,26,54,297,48*7F
$GPGSV,5,3,20,29,58,064,48,23,04,159,,04,01,314,35,36,35,170,45*7C
$GPGSV,5,4,20,58,13,245,37,40,23,133,36,34,31,208,43,49,34,195,44*7C
$GPGSV,5,5,20,57,08,111,38,41,07,108,35,61,03,257,38*49
$GLGSV,3,1,10,81,71,024,52,80,57,314,52,83,12,227,34,88,17,044,43*6A
$GLGSV,3,2,10,79,61,170,52,82,53,237,51,65,08,059,39,72,09,006,38*6F
$GLGSV,3,3,10,73,04,328,43,78,10,154,44*64
$GAGSV,3,1,09,27,77,140,49,34,26,045,41,30,24,128,42,13,39,198,45*68
$GAGSV,3,2,09,21,45,303,46,15,71,098,48,04,04,328,36,19,00,277,*69
$GAGSV,3,3,09,06,01,351,35*57
$GBGSV,6,1,22,11,84,045,49,37,21,315,43,60,10,109,41,27,11,230,*65
$GBGSV,6,2,22,05,21,129,38,12,28,057,42,25,40,179,49,38,30,049,44*61
$GBGSV,6,3,22,13,40,075,45,08,39,064,42,31,42,061,,23,60,266,51*6F
$GBGSV,6,4,22,34,57,060,50,43,71,245,51,28,09,240,41,02,06,107,34*6C
$GBGSV,6,5,22,21,03,043,,22,08,042,40,44,05,061,39,50,01,110,*69
$GBGSV,6,6,22,56,06,077,,10,02,093,32*66
$GPGGA,165952.00,,,,,0,00,,,M,,M,,*44
$PTNL,GGK,165952.00,010125,4742.1604945,N,01618.1002255,E,1,37,0.8,EHT750.7449,M*47
$GPGGQ,165952.00,010125,4742.1604945,N,01618.1002255,E,1,37,1.137,707.5383,M*34
$GPGFA,165952.00,4.298,8.088,0.452,0.339,345.691,0.986,,VVV*01
$GPLLK,165952.00,010125,,M,,M,1,37,0.9,,M*0A
$GNGMP,165952.00,,,,,DAAA,37,0.5,,,,*5B
$GPGMP,165952.00,,,,,,09,,,,2.9,136*77
$GLGMP,165952.00,,,,,,08,,,,,*7B
$GAGMP,165952.00,,,,,,06,,,,,*78
$GBGMP,165952.00,,,,,,14,,,,,*78
$PSSN,SNC,[0,320410000,2347]*40
$GPZDA,165957.00,01,01,2025,,*6A
$GPDTM,W84,,00.0000000,N,00.0000000,E,00.0000000,W84*5F
$PSSN,TFM,165957.00,,,,*66
$GPRMC,165957.00,A,4742.1604963,N,01618.1002255,E,0.0,,010125,5.1,E,D*11
$GPGLL,4742.1604963,N,01618.1002255,E,165957.00,A,D*60
$GPGGA,165957.00,4742.1604963,N,01618.1002255,E,2,37,0.5,707.5448,M,43.2066,M,1.7,0136*46
$GNGNS,165957.00,4742.1604963,N,01618.1002255,E,DAAA,37,0.5,707.5448,43.2066,,*58
$GPGNS,165957.00,,,,,,09,,,,1.7,136*7F
$GLGNS,165957.00,,,,,,08,,,,,*7E
$GAGNS,165957.00,,,,,,06,,,,,*7D
$GBGNS,165957.00,,,,,,14,,,,,*7D
$GPLLQ,165957.00,010125,,M,,M,1,37,1.122,,M*1C
$GPVTG,,T,,M,0.00,N,0.00,K,D*26
$GPHDT,,T*1B
$GPTHS,,V*0E
$GPROT,,V*08
$PSSN,HRP,165957.00,010125,,,,,,,00,0,,*68
$PTNL,AVR,165957.00,,Yaw,,Tilt,,,,0,,00*3E
$GPGSA,A,3,05,16,18,20,25,26,28,29,31,,,,0.8,0.5,0.6*30
$GPGSA,A,3,65,72,78,79,80,81,82,88,,,,,0.8,0.5,0.6*35
$GPGSA,A,3,13,15,21,27,30,34,,,,,,,0.8,0.5,0.6*3D
$GPGSA,A,3,05,08,11,12,13,22,23,25,28,34,37,38,0.8,0.5,0.6*31
$GPGSA,A,3,43,60,,,,,,,,,,,0.8,0.5,0.6*38
$GPGST,165957.00,1.313,0.447,0.333,345.490,0.441,0.341,0.973*5F
$GPGBS,165957.00,2.378,1.729,5.218,72,0.0001,5.029,6.594*5F
$GPGRS,165957.00,1,0.5,-0.1,-0.4,-0.3,0.1,-0.2,0.6,-0.0,-0.0,,,*6F
$GPGRS,165957.00,1,-0.3,5.0,-2.7,-0.1,-2.5,0.9,-0.2,0.8,,,,*6C
$GPGRS,165957.00,1,-0.1,0.2,-0.2,-0.2,-0.2,0.5,,,,,,*43
$GPGRS,165957.00,1,0.6,0.4,1.4,1.7,-0.8,-1.4,-0.3,-0.3,-0.3,-0.4,-0.4,0.4*61
$GPGRS,165957.00,1,0.6,-1.0,,,,,,,,,,*6D
$GPGSV,5,1,20,18,63,182,49,05,28,069,44,16,23,305,41,20,14,037,39*79
$GPGSV,5,2,20,25,28,136,42,28,31,221,45,31,41,253,47,26,54,297,48*7E
$GPGSV,5,3,20,29,58,064,48,23,04,159,,04,01,314,35,36,35,170,45*7C
$GPGSV,5,4,20,58,13,245,37,40,23,133,36,34,31,208,43,49,34,195,44*7C
$GPGSV,5,5,20,57,08,111,38,41,07,108,35,61,03,257,38*49
$GLGSV,3,1,10,81,71,024,52,80,57,314,52,83,12,227,34,88,17,044,44*6D
$GLGSV,3,2,10,79,61,170,52,82,53,237,51,65,08,059,40,72,09,006,37*6E
$GLGSV,3,3,10,73,04,328,42,78,10,154,44*65
$GAGSV,3,1,09,27,77,140,49,34,26,045,42,30,24,128,42,13,39,198,45*6B
$GAGSV,3,2,09,21,45,303,46,15,71,098,48,04,04,328,37,19,00,277,*68
$GAGSV,3,3,09,06,01,351,35*57
$GBGSV,6,1,22,11,84,045,49,37,21,315,44,60,10,109,41,27,11,230,*62
$GBGSV,6,2,22,05,21,129,38,12,28,057,42,25,40,179,49,38,30,049,44*61
$GBGSV,6,3,22,13,40,075,45,08,39,064,42,31,42,061,,23,60,266,51*6F
$GBGSV,6,4,22,34,57,060,50,43,71,245,51,28,09,240,41,02,06,107,34*6C
$GBGSV,6,5,22,21,03,043,,22,08,042,40,44,05,061,39,50,01,110,*69
$GBGSV,6,6,22,56,06,077,,10,02,093,32*66
$GPGGA,165957.00,,,,,0,00,,,M,,M,,*41
$PTNL,GGK,165957.00,010125,4742.1604963,N,01618.1002255,E,1,37,0.8,EHT750.7514,M*4F
$GPGGQ,165957.00,010125,4742.1604963,N,01618.1002255,E,1,37,1.122,707.5448,M*31
$GPGFA,165957.00,4.254,7.983,0.447,0.333,345.490,0.973,,VVV*0E
$GPLLK,165957.00,010125,,M,,M,1,37,0.9,,M*0F
$GNGMP,165957.00,,,,,DAAA,37,0.5,,,,*5E
$GPGMP,165957.00,,,,,,09,,,,1.7,136*7F
$GLGMP,165957.00,,,,,,08,,,,,*7E
$GAGMP,165957.00,,,,,,06,,,,,*7D
$GBGMP,165957.00,,,,,,14,,,,,*7D
$PSSN,SNC,[0,320415000,2347]*45
$GPZDA,170002.00,01,01,2025,,*67
$GPDTM,W84,,00.0000000,N,00.0000000,E,00.0000000,W84*5F
$PSSN,TFM,170002.00,,,,*6B
$GPRMC,170002.00,A,4742.1604955,N,01618.1002255,E,0.0,,010125,5.1,E,D*19
$GPGLL,4742.1604955,N,01618.1002255,E,170002.00,A,D*68
$GPGGA,170002.00,4742.1604955,N,01618.1002255,E,2,37,0.5,707.5530,M,43.2066,M,2.2,0136*46
$GNGNS,170002.00,4742.1604955,N,01618.1002255,E,DAAA,37,0.5,707.5530,43.2066,,*5E
$GPGNS,170002.00,,,,,,09,,,,2.2,136*74
$GLGNS,170002.00,,,,,,08,,,,,*73
$GAGNS,170002.00,,,,,,06,,,,,*70
$GBGNS,170002.00,,,,,,14,,,,,*70
$GPLLQ,170002.00,010125,,M,,M,1,37,1.113,,M*13
$GPVTG,,T,,M,0.00,N,0.01,K,D*27
$GPHDT,,T*1B
$GPTHS,,V*0E
$GPROT,,V*08
$PSSN,HRP,170002.00,010125,,,,,,,00,0,,*65
$PTNL,AVR,170002.00,,Yaw,,Tilt,,,,0,,00*33
$GPGSA,A,3,05,16,18,20,25,26,28,29,31,,,,0.8,0.5,0.6*30
$GPGSA,A,3,65,72,78,79,80,81,82,88,,,,,0.8,0.5,0.6*35
$GPGSA,A,3,13,15,21,27,30,34,,,,,,,0.8,0.5,0.6*3D
$GPGSA,A,3,05,08,11,12,13,22,23,25,28,34,37,38,0.8,0.5,0.6*31
$GPGSA,A,3,43,60,,,,,,,,,,,0.8,0.5,0.6*38
$GPGST,170002.00,1.610,0.441,0.334,347.029,0.436,0.340,0.966*54
$GPGBS,170002.00,2.437,1.736,5.257,72,0.0001,6.486,6.593*5E
$GPGRS,170002.00,1,0.4,-0.0,-0.5,-0.0,0.2,-0.2,0.4,-0.1,0.0,,,*4D
$GPGRS,170002.00,1,1.3,6.5,-3.2,-0.6,-2.5,1.2,-0.0,1.4,,,,*4D
$GPGRS,170002.00,1,0.3,0.0,0.1,-0.5,-0.2,0.5,,,,,,*4A
$GPGRS,170002.00,1,0.4,1.1,1.6,1.8,-0.9,-1.2,-0.3,-0.2,-0.7,-0.3,-0.7,0.9*6C
$GPGRS,170002.00,1,0.5,-1.0,,,,,,,,,,*63
$GPGSV,5,1,20,18,63,182,49,05,28,069,44,16,23,305,42,20,14,037,39*7A
$GPGSV,5,2,20,25,28,136,42,28,31,221,45,31,41,253,47,26,54,297,48*7E
$GPGSV,5,3,20,29,58,064,48,23,04,159,,04,01,314,35,36,35,170,45*7C
$GPGSV,5,4,20,58,13,245,37,40,23,133,36,34,31,208,43,49,34,195,44*7C
$GPGSV,5,5,20,57,08,111,38,41,07,108,35,61,03,257,38*49
$GLGSV,3,1,10,81,71,025,52,80,57,314,52,83,12,227,32,88,17,044,45*6B
$GLGSV,3,2,10,79,60,170,52,82,54,237,51,65,08,059,40,72,09,006,37*68
$GLGSV,3,3,10,73,04,328,42,78,10,154,44*65
$GAGSV,3,1,09,27,77,140,49,34,26,045,42,30,24,128,42,13,39,198,45*6B
$GAGSV,3,2,09,21,45,303,45,15,71,098,48,04,03,328,37,19,00,276,*6D
$GAGSV,3,3,09,06,01,351,35*57
$GBGSV,6,1,22,11,84,045,50,37,21,315,43,60,10,109,41,27,11,230,*6D
$GBGSV,6,2,22,05,21,129,38,12,28,057,42,25,39,179,49,38,30,049,44*6F
$GBGSV,6,3,22,13,40,075,45,08,39,064,42,31,42,061,,23,60,265,51*6C
$GBGSV,6,4,22,34,57,060,50,43,71,245,51,28,09,240,40,02,06,107,34*6D
$GBGSV,6,5,22,21,03,043,,22,08,042,40,44,05,061,39,50,01,110,*69
$GBGSV,6,6,22,56,06,077,,10,02,093,32*66
$GPGGA,170002.00,,,,,0,00,,,M,,M,,*4C
$PTNL,GGK,170002.00,010125,4742.1604955,N,01618.1002255,E,1,37,0.8,EHT750.7595,M*4E
$GPGGQ,170002.00,010125,4742.1604955,N,01618.1002255,E,1,37,1.113,707.5530,M*35
$GPGFA,170002.00,4.193,7.919,0.441,0.334,347.029,0.966,,VVV*09
$GPLLK,170002.00,010125,,M,,M,1,37,0.9,,M*02
$GNGMP,170002.00,,,,,DAAA,37,0.5,,,,*53
$GPGMP,170002.00,,,,,,09,,,,2.2,136*74
$GLGMP,170002.00,,,,,,08,,,,,*73
$GAGMP,170002.00,,,,,,06,,,,,*70
$GBGMP,170002.00,,,,,,14,,,,,*70
$PSSN,SNC,[0,320420000,2347]*43
$GPZDA,170007.00,01,01,2025,,*62
$GPDTM,W84,,00.0000000,N,00.0000000,E,00.0000000,W84*5F
$PSSN,TFM,170007.00,,,,*6E
$GPRMC,170007.00,A,4742.1604950,N,01618.1002213,E,0.0,,010125,5.1,E,D*1B
$GPGLL,4742.1604950,N,01618.1002213,E,170007.00,A,D*6A
$GPGGA,170007.00,4742.1604950,N,01618.1002213,E,2,37,0.5,707.5615,M,43.2066,M,3.2,0136*41
$GNGNS,170007.00,4742.1604950,N,01618.1002213,E,DAAA,37,0.5,707.5615,43.2066,,*58
$GPGNS,170007.00,,,,,,09,,,,3.2,136*70
$GLGNS,170007.00,,,,,,08,,,,,*76
$GAGNS,170007.00,,,,,,06,,,,,*75
$GBGNS,170007.00,,,,,,14,,,,,*75
$GPLLQ,170007.00,010125,,M,,M,1,37,1.127,,M*11
$GPVTG,,T,,M,0.00,N,0.01,K,D*27
$GPHDT,,T*1B
$GPTHS,,V*0E
$GPROT,,V*08
$PSSN,HRP,170007.00,010125,,,,,,,00,0,,*60
$PTNL,AVR,170007.00,,Yaw,,Tilt,,,,0,,00*36
$GPGSA,A,3,05,16,18,20,25,26,28,29,31,,,,0.8,0.5,0.6*30
$GPGSA,A,3,65,72,78,79,80,81,82,88,,,,,0.8,0.5,0.6*35
$GPGSA,A,3,13,15,21,27,30,34,,,,,,,0.8,0.5,0.6*3D
$GPGSA,A,3,05,08,11,12,13,22,23,25,28,34,37,38,0.8,0.5,0.6*31
$GPGSA,A,3,43,60,,,,,,,,,,,0.8,0.5,0.6*38
$GPGST,170007.00,1.598,0.447,0.338,346.632,0.442,0.344,0.978*5D
$GPGBS,170007.00,2.480,1.755,5.323,72,0.0001,6.649,6.585*56
$GPGRS,170007.00,1,0.4,-0.3,-0.4,0.1,0.2,-0.0,0.3,0.2,-0.2,,,*62
$GPGRS,170007.00,1,0.9,6.6,-3.1,-0.4,-2.0,0.9,-0.6,1.5,,,,*49
$GPGRS,170007.00,1,0.5,-0.0,-0.1,-0.3,-0.2,0.5,,,,,,*4F
$GPGRS,170007.00,1,0.6,1.6,1.7,1.5,-0.4,-0.5,-0.5,0.1,0.0,-0.3,-1.3,0.9*6C
$GPGRS,170007.00,1,0.8,-1.0,,,,,,,,,,*6B
$GPGSV,5,1,20,18,63,182,49,05,28,069,44,16,23,305,41,20,14,037,39*79
$GPGSV,5,2,20,25,28,136,43,28,31,221,45,31,41,253,47,26,54,297,48*7F
$GPGSV,5,3,20,29,58,064,48,23,04,159,,04,01,314,36,36,35,170,45*7F
$GPGSV,5,4,20,58,13,245,37,40,23,133,36,34,31,208,43,49,34,195,44*7C
$GPGSV,5,5,20,57,08,111,38,41,07,108,35,61,03,257,38*49
$GLGSV,3,1,10,81,71,025,52,80,57,314,53,83,12,227,34,88,17,044,45*6C
$GLGSV,3,2,10,79,60,170,52,82,54,237,51,65,08,059,39,72,09,006,38*69
$GLGSV,3,3,10,73,04,328,42,78,10,154,44*65
$GAGSV,3,1,09,27,77,140,48,34,26,045,41,30,24,128,42,13,39,198,45*69
$GAGSV,3,2,09,21,45,303,45,15,71,098,48,04,03,328,37,19,00,276,*6D
$GAGSV,3,3,09,06,01,351,35*57
$GBGSV,6,1,22,11,84,045,49,37,21,315,43,60,10,109,41,27,11,230,*65
$GBGSV,6,2,22,05,21,129,38,12,28,057,42,25,39,179,48,38,30,049,44*6E
$GBGSV,6,3,22,13,40,075,45,08,39,064,42,31,42,061,,23,60,265,51*6C
$GBGSV,6,4,22,34,57,060,50,43,71,245,51,28,09,240,40,02,06,107,35*6C
$GBGSV,6,5,22,21,03,043,,22,08,042,40,44,05,061,39,50,01,110,*69
$GBGSV,6,6,22,56,06,077,,10,02,093,32*66
$GPGGA,170007.00,,,,,0,00,,,M,,M,,*49
$PTNL,GGK,170007.00,010125,4742.1604950,N,01618.1002213,E,1,37,0.8,EHT750.7681,M*4A
$GPGGQ,170007.00,010125,4742.1604950,N,01618.1002213,E,1,37,1.127,707.5615,M*34
$GPGFA,170007.00,4.255,8.022,0.447,0.338,346.632,0.978,,VVV*03
$GPLLK,170007.00,010125,,M,,M,1,37,0.9,,M*07
$GNGMP,170007.00,,,,,DAAA,37,0.5,,,,*56
$GPGMP,170007.00,,,,,,09,,,,3.2,136*70
$GLGMP,170007.00,,,,,,08,,,,,*76
$GAGMP,170007.00,,,,,,06,,,,,*75
$GBGMP,170007.00,,,,,,14,,,,,*75
$PSSN,SNC,[0,320425000,2347]*46
$GPZDA,170012.00,01,01,2025,,*66
$GPDTM,W84,,00.0000000,N,00.0000000,E,00.0000000,W84*5F
$PSSN,TFM,170012.00,,,,*6A
$GPRMC,170012.00,A,4742.1604951,N,01618.1002181,E,0.0,,010125,5.1,E,D*16
$GPGLL,4742.1604951,N,01618.1002181,E,170012.00,A,D*67
$GPGGA,170012.00,4742.1604951,N,01618.1002181,E,2,37,0.5,707.5649,M,43.2066,M,2.9,0136*4F
$GNGNS,170012.00,4742.1604951,N,01618.1002181,E,DAAA,37,0.5,707.5649,43.2066,,*5C
$GPGNS,170012.00,,,,,,09,,,,2.9,136*7E
$GLGNS,170012.00,,,,,,08,,,,,*72
$GAGNS,170012.00,,,,,,06,,,,,*71
$GBGNS,170012.00,,,,,,14,,,,,*71
$GPLLQ,170012.00,010125,,M,,M,1,37,1.134,,M*17
$GPVTG,,T,,M,0.00,N,0.01,K,D*27
$GPHDT,,T*1B
$GPTHS,,V*0E
$GPROT,,V*08
$PSSN,HRP,170012.00,010125,,,,,,,00,0,,*64
$PTNL,AVR,170012.00,,Yaw,,Tilt,,,,0,,00*32
$GPGSA,A,3,05,16,18,20,25,26,28,29,31,,,,0.8,0.5,0.6*30
$GPGSA,A,3,65,72,78,79,80,81,82,88,,,,,0.8,0.5,0.6*35
$GPGSA,A,3,13,15,21,27,30,34,,,,,,,0.8,0.5,0.6*3D
$GPGSA,A,3,05,08,11,12,13,22,23,25,28,34,37,38,0.8,0.5,0.6*31
$GPGSA,A,3,43,60,,,,,,,,,,,0.8,0.5,0.6*38
$GPGST,170012.00,1.627,0.452,0.337,345.459,0.446,0.346,0.984*5C
$GPGBS,170012.00,2.470,1.770,5.221,72,0.0001,7.078,6.584*5D
$GPGRS,170012.00,1,0.0,0.1,-0.3,-0.4,0.2,-0.4,0.4,0.2,-0.1,,,*62
$GPGRS,170012.00,1,-0.9,7.1,-3.0,-0.2,-1.2,1.7,-0.0,-0.8,,,,*48
$GPGRS,170012.00,1,0.3,0.0,-0.3,-0.3,0.0,0.4,,,,,,*4C
$GPGRS,170012.00,1,0.6,1.8,1.3,1.7,-0.3,-0.3,-0.6,-0.5,1.2,-0.6,-0.8,0.6*48
$GPGRS,170012.00,1,0.8,-1.0,,,,,,,,,,*6F
$GPGSV,5,1,20,18,63,182,49,05,28,069,44,16,23,305,42,20,14,037,39*7A
$GPGSV,5,2,20,25,28,136,43,28,31,221,44,31,41,253,46,26,54,297,48*7F
$GPGSV,5,3,20,29,58,064,48,23,04,159,,04,01,314,36,36,35,170,45*7F
$GPGSV,5,4,20,58,13,245,37,40,23,133,36,34,31,208,43,49,34,195,44*7C
$GPGSV,5,5,20,57,08,111,38,41,07,108,35,61,03,257,38*49
$GLGSV,3,1,10,81,71,025,52,80,57,314,52,83,12,227,35,88,17,044,45*6C
$GLGSV,3,2,10,79,60,170,53,82,54,237,51,65,08,059,40,72,09,006,37*69
$GLGSV,3,3,10,73,04,328,42,78,10,154,44*65
$GAGSV,2,1,08,27,77,140,48,34,26,045,42,30,24,128,42,13,39,198,45*6A
$GAGSV,2,2,08,21,45,303,45,15,71,098,48,04,03,328,36,06,01,351,35*61
$GBGSV,6,1,22,11,84,045,49,37,21,315,43,60,10,109,41,27,12,230,*66
$GBGSV,6,2,22,05,21,129,38,12,28,057,42,25,39,179,48,38,30,049,44*6E
$GBGSV,6,3,22,13,40,074,45,08,39,064,43,31,42,061,,23,60,265,51*6C
$GBGSV,6,4,22,34,57,060,50,43,71,245,51,28,09,240,41,02,06,107,34*6C
$GBGSV,6,5,22,21,03,043,,22,08,042,40,44,05,061,39,50,01,110,*69
$GBGSV,6,6,22,56,06,077,,10,02,093,31*65
$GPGGA,170012.00,,,,,0,00,,,M,,M,,*4D
$PTNL,GGK,170012.00,010125,4742.1604951,N,01618.1002181,E,1,37,0.8,EHT750.7714,M*4A
$GPGGQ,170012.00,010125,4742.1604951,N,01618.1002181,E,1,37,1.134,707.5649,M*32
$GPGFA,170012.00,4.302,8.067,0.452,0.337,345.459,0.984,,VVV*01
$GPLLK,170012.00,010125,,M,,M,1,37,0.9,,M*03
$GNGMP,170012.00,,,,,DAAA,37,0.5,,,,*52
$GPGMP,170012.00,,,,,,09,,,,2.9,136*7E
$GLGMP,170012.00,,,,,,08,,,,,*72
$GAGMP,170012.00,,,,,,06,,,,,*71
$GBGMP,170012.00,,,,,,14,,,,,*71
$PSSN,SNC,[0,320430000,2347]*42
$GPZDA,170017.00,01,01,2025,,*63
$GPDTM,W84,,00.0000000,N,00.0000000,E,00.0000000,W84*5F
$PSSN,TFM,170017.00,,,,*6F
$GPRMC,170017.00,A,4742.1604945,N,01618.1002179,E,0.0,,010125,5.1,E,D*11
$GPGLL,4742.1604945,N,01618.1002179,E,170017.00,A,D*60
$GPGGA,170017.00,4742.1604945,N,01618.1002179,E,2,37,0.5,707.5644,M,43.2066,M,1.7,0136*48
$GNGNS,170017.00,4742.1604945,N,01618.1002179,E,DAAA,37,0.5,707.5644,43.2066,,*56
$GPGNS,170017.00,,,,,,09,,,,1.7,136*76
$GLGNS,170017.00,,,,,,08,,,,,*77
$GAGNS,170017.00,,,,,,06,,,,,*74
$GBGNS,170017.00,,,,,,14,,,,,*74
$GPLLQ,170017.00,010125,,M,,M,1,37,1.120,,M*17
$GPVTG,,T,,M,0.00,N,0.01,K,D*27
$GPHDT,,T*1B
$GPTHS,,V*0E
$GPROT,,V*08
$PSSN,HRP,170017.00,010125,,,,,,,00,0,,*61
$PTNL,AVR,170017.00,,Yaw,,Tilt,,,,0,,00*37
$GPGSA,A,3,05,16,18,20,25,26,28,29,31,,,,0.8,0.5,0.6*30
$GPGSA,A,3,65,72,78,79,80,81,82,88,,,,,0.8,0.5,0.6*35
$GPGSA,A,3,13,15,21,27,30,34,,,,,,,0.8,0.5,0.6*3D
$GPGSA,A,3,05,08,11,12,13,22,23,25,28,34,37,38,0.8,0.5,0.6*31
$GPGSA,A,3,43,60,,,,,,,,,,,0.8,0.5,0.6*38
$GPGST,170017.00,1.823,0.448,0.333,345.358,0.441,0.341,0.971*50
$GPGBS,170017.00,2.380,1.729,5.240,72,0.0001,8.129,6.587*52
$GPGRS,170017.00,1,0.6,-0.2,-0.3,-0.0,-0.2,-0.1,-0.1,0.1,0.2,,,*66
$GPGRS,170017.00,1,-0.4,8.1,-3.1,-0.5,-1.7,1.8,0.1,-1.4,,,,*62
$GPGRS,170017.00,1,0.3,0.2,0.0,-0.2,0.0,0.5,,,,,,*65
$GPGRS,170017.00,1,0.7,1.9,-1.1,2.1,0.0,-0.0,-0.4,0.2,1.2,0.4,-0.7,0.9*4D
$GPGRS,170017.00,1,0.8,-0.8,,,,,,,,,,*63
$GPGSV,5,1,20,18,63,182,49,05,28,069,44,16,23,305,42,20,14,037,38*7B
$GPGSV,5,2,20,25,28,136,42,28,31,221,44,31,41,253,46,26,54,297,48*7E
$GPGSV,5,3,20,29,58,064,48,23,04,159,,04,01,314,36,36,35,170,45*7F
$GPGSV,5,4,20,58,13,245,37,40,23,133,36,34,31,208,43,49,34,195,44*7C
$GPGSV,5,5,20,57,08,111,38,41,07,108,34,61,03,257,38*48
$GLGSV,3,1,10,81,71,025,52,80,57,314,52,83,12,227,34,88,17,044,45*6D
$GLGSV,3,2,10,79,60,170,53,82,54,237,51,65,08,059,40,72,09,006,37*69
$GLGSV,3,3,10,73,04,328,42,78,10,154,44*65
$GAGSV,2,1,08,27,77,140,48,34,26,045,42,30,24,128,41,13,39,198,45*69
$GAGSV,2,2,08,21,46,303,45,15,71,098,48,04,03,328,36,06,01,351,35*62
$GBGSV,6,1,22,11,84,045,49,37,21,315,43,60,10,109,40,27,12,230,*67
$GBGSV,6,2,22,05,21,129,38,12,28,057,42,25,39,179,49,38,30,049,44*6F
$GBGSV,6,3,22,13,40,074,44,08,39,064,42,31,42,061,,23,60,265,51*6C
$GBGSV,6,4,22,34,57,060,50,43,71,245,51,28,09,240,41,02,06,107,34*6C
$GBGSV,6,5,22,21,03,043,,22,08,042,40,44,05,062,39,50,01,110,*6A
$GBGSV,6,6,22,56,06,077,,10,02,093,31*65
$GPGGA,170017.00,,,,,0,00,,,M,,M,,*48
$PTNL,GGK,170017.00,010125,4742.1604945,N,01618.1002179,E,1,37,0.8,EHT750.7710,M*49
$GPGGQ,170017.00,010125,4742.1604945,N,01618.1002179,E,1,37,1.120,707.5644,M*3D
$GPGFA,170017.00,4.255,7.962,0.448,0.333,345.358,0.971,,VVV*07
$GPLLK,170017.00,010125,,M,,M,1,37,0.9,,M*06
$GNGMP,170017.00,,,,,DAAA,37,0.5,,,,*57
$GPGMP,170017.00,,,,,,09,,,,1.7,136*76
$GLGMP,170017.00,,,,,,08,,,,,*77
$GAGMP,170017.00,,,,,,06,,,,,*74
$GBGMP,170017.00,,,,,,14,,,,,*74
$PSSN,SNC,[0,320435000,2347]*47
$GPZDA,170022.00,01,01,2025,,*65
$GPDTM,W84,,00.0000000,N,00.0000000,E,00.0000000,W84*5F
$PSSN,TFM,170022.00,,,,*69
$GPRMC,170022.00,A,4742.1604935,N,01618.1002181,E,0.0,,010125,5.1,E,D*17
$GPGLL,4742.1604935,N,01618.1002181,E,170022.00,A,D*66
$GPGGA,170022.00,4742.1604935,N,01618.1002181,E,2,37,0.5,707.5721,M,43.2066,M,2.2,0136*4A
$GNGNS,170022.00,4742.1604935,N,01618.1002181,E,DAAA,37,0.5,707.5721,43.2066,,*52
$GPGNS,170022.00,,,,,,09,,,,2.2,136*76
$GLGNS,170022.00,,,,,,08,,,,,*71
$GAGNS,170022.00,,,,,,06,,,,,*72
$GBGNS,170022.00,,,,,,14,,,,,*72
$GPLLQ,170022.00,010125,,M,,M,1,37,1.103,,M*10
$GPVTG,,T,,M,0.00,N,0.01,K,D*27
$GPHDT,,T*1B
$GPTHS,,V*0E
$GPROT,,V*08
$PSSN,HRP,170022.00,010125,,,,,,,00,0,,*67
$PTNL,AVR,170022.00,,Yaw,,Tilt,,,,0,,00*31
$GPGSA,A,3,05,16,18,20,25,26,28,29,31,,,,0.8,0.5,0.6*30
$GPGSA,A,3,65,72,78,79,80,81,82,88,,,,,0.8,0.5,0.6*35
$GPGSA,A,3,13,15,21,27,30,34,,,,,,,0.8,0.5,0.6*3D
$GPGSA,A,3,05,08,11,12,13,22,23,25,28,34,37,38,0.8,0.5,0.6*31
$GPGSA,A,3,43,60,,,,,,,,,,,0.8,0.5,0.6*38
$GPGST,170022.00,1.752,0.438,0.333,346.543,0.433,0.339,0.956*58
$GPGBS,170022.00,2.466,1.735,5.139,72,0.0001,7.590,6.587*52
$GPGRS,170022.00,1,0.6,-0.2,-0.2,0.1,-0.3,-0.1,0.4,-0.2,0.3,,,*4B
$GPGRS,170022.00,1,0.5,7.6,-3.2,-0.6,-2.3,1.7,-0.1,-1.2,,,,*63
$GPGRS,170022.00,1,-0.1,0.1,-0.3,-0.3,-0.3,0.0,,,,,,*4B
$GPGRS,170022.00,1,0.5,1.9,-0.9,2.2,-0.2,-0.2,-0.6,0.2,0.4,0.3,-1.1,0.6*64
$GPGRS,170022.00,1,0.6,-0.9,,,,,,,,,,*6A
$GPGSV,5,1,20,18,63,182,48,05,28,069,44,16,23,305,42,20,14,037,38*7A
$GPGSV,5,2,20,25,28,136,42,28,31,221,44,31,41,253,47,26,54,297,48*7F
$GPGSV,5,3,20,29,58,064,48,23,04,159,,04,01,314,37,36,35,170,45*7E
$GPGSV,5,4,20,58,13,245,37,40,23,133,36,34,31,208,43,49,34,195,45*7D
$GPGSV,5,5,20,57,08,111,38,41,07,108,35,61,03,257,38*49
$GLGSV,3,1,10,81,71,025,52,80,57,314,52,83,12,227,34,88,17,044,44*6C
$GLGSV,3,2,10,79,60,170,52,82,54,237,51,65,08,059,39,72,09,006,37*66
$GLGSV,3,3,10,73,04,328,43,78,10,154,43*63
$GAGSV,2,1,08,27,77,141,48,34,26,045,42,30,24,128,41,13,39,198,45*68
$GAGSV,2,2,08,21,46,303,45,15,71,098,48,04,03,328,37,06,01,351,35*63
$GBGSV,6,1,22,11,83,045,49,37,21,315,43,60,10,109,40,27,12,230,*60
$GBGSV,6,2,22,05,21,129,38,12,27,057,42,25,39,179,48,38,30,049,43*66
$GBGSV,6,3,22,13,40,074,44,08,39,064,42,31,42,061,,23,60,265,51*6C
$GBGSV,6,4,22,34,57,060,50,43,71,245,51,28,09,240,42,02,06,107,34*6F
$GBGSV,6,5,22,21,03,043,,22,08,042,40,44,05,062,39,50,01,110,*6A
$GBGSV,6,6,22,56,06,077,,10,02,093,31*65
$GPGGA,170022.00,,,,,0,00,,,M,,M,,*4E
$PTNL,GGK,170022.00,010125,4742.1604935,N,01618.1002181,E,1,37,0.8,EHT750.7787,M*41
$GPGGQ,170022.00,010125,4742.1604935,N,01618.1002181,E,1,37,1.103,707.5721,M*38
$GPGFA,170022.00,4.164,7.840,0.438,0.333,346.543,0.956,,VVV*0C
$GPLLK,170022.00,010125,,M,,M,1,37,0.9,,M*00
$GNGMP,170022.00,,,,,DAAA,37,0.5,,,,*51
$GPGMP,170022.00,,,,,,09,,,,2.2,136*76
$GLGMP,170022.00,,,,,,08,,,,,*71
$GAGMP,170022.00,,,,,,06,,,,,*72
$GBGMP,170022.00,,,,,,14,,,,,*72
$PSSN,SNC,[0,320440000,2347]*45
$GPZDA,170027.00,01,01,2025,,*60
$GPDTM,W84,,00.0000000,N,00.0000000,E,00.0000000,W84*5F
$PSSN,TFM,170027.00,,,,*6C
$GPRMC,170027.00,A,4742.1604924,N,01618.1002187,E,0.0,,010125,5.1,E,D*14
$GPGLL,4742.1604924,N,01618.1002187,E,170027.00,A,D*65
$GPGGA,170027.00,4742.1604924,N,01618.1002187,E,2,37,0.5,707.5760,M,43.2066,M,3.2,0136*4D
$GNGNS,170027.00,4742.1604924,N,01618.1002187,E,DAAA,37,0.5,707.5760,43.2066,,*54
$GPGNS,170027.00,,,,,,09,,,,3.2,136*72
$GLGNS,170027.00,,,,,,08,,,,,*74
$GAGNS,170027.00,,,,,,06,,,,,*77
$GBGNS,170027.00,,,,,,14,,,,,*77
$GPLLQ,170027.00,010125,,M,,M,1,37,1.111,,M*16
$GPVTG,,T,,M,0.00,N,0.01,K,D*27
$GPHDT,,T*1B
$GPTHS,,V*0E
$GPROT,,V*08
$PSSN,HRP,170027.00,010125,,,,,,,00,0,,*62
$PTNL,AVR,170027.00,,Yaw,,Tilt,,,,0,,00*34
$GPGSA,A,3,05,16,18,20,25,26,28,29,31,,,,0.8,0.5,0.6*30
$GPGSA,A,3,65,72,78,79,80,81,82,88,,,,,0.8,0.5,0.6*35
$GPGSA,A,3,13,15,21,27,30,34,,,,,,,0.8,0.5,0.6*3D
$GPGSA,A,3,05,08,11,12,13,22,23,25,28,34,37,38,0.8,0.5,0.6*31
$GPGSA,A,3,43,60,,,,,,,,,,,0.8,0.5,0.6*38
$GPGST,170027.00,1.670,0.442,0.336,345.698,0.437,0.343,0.963*5D
$GPGBS,170027.00,2.509,1.754,5.205,72,0.0001,7.080,6.585*52
$GPGRS,170027.00,1,0.3,-0.5,-0.3,0.3,-0.3,-0.4,0.6,0.1,0.5,,,*60
$GPGRS,170027.00,1,0.1,7.1,-3.4,-0.8,-2.3,1.8,-0.2,-0.5,,,,*67
$GPGRS,170027.00,1,-0.2,0.1,-0.4,-0.3,-0.2,-0.2,,,,,,*64
$GPGRS,170027.00,1,1.1,2.0,-0.3,1.8,-0.1,-0.3,-0.5,-0.1,-0.5,0.2,-0.8,0.2*63
$GPGRS,170027.00,1,0.4,-1.1,,,,,,,,,,*64
$GPGSV,5,1,20,18,63,182,49,05,28,069,44,16,23,305,42,20,14,037,39*7A
$GPGSV,5,2,20,25,28,136,42,28,31,221,45,31,41,253,47,26,54,297,48*7E
$GPGSV,5,3,20,29,58,064,48,23,04,159,,04,01,314,37,36,35,170,45*7E
$GPGSV,5,4,20,58,13,245,37,40,23,133,36,34,31,208,43,49,34,195,44*7C
$GPGSV,5,5,20,57,08,111,38,41,07,108,35,61,03,257,38*49
$GLGSV,3,1,10,81,71,025,52,80,57,314,52,83,12,227,34,88,17,044,43*6B
$GLGSV,3,2,10,79,60,170,52,82,54,237,51,65,08,059,38,72,09,006,38*68
$GLGSV,3,3,10,73,04,328,43,78,10,154,43*63
$GAGSV,2,1,08,27,77,141,49,34,26,045,41,30,24,128,42,13,39,198,45*69
$GAGSV,2,2,08,21,46,303,45,15,71,098,48,04,03,328,37,06,01,351,35*63
$GBGSV,6,1,22,11,83,045,49,37,21,315,43,60,10,109,40,27,12,230,*60
$GBGSV,6,2,22,05,21,129,37,12,27,057,42,25,39,179,48,38,30,049,43*69
$GBGSV,6,3,22,13,40,074,44,08,39,064,42,31,42,061,,23,60,265,50*6D
$GBGSV,6,4,22,34,57,060,49,43,71,245,51,28,09,240,41,02,06,107,34*64
$GBGSV,6,5,22,21,03,043,,22,08,042,40,44,05,062,39,50,01,110,*6A
$GBGSV,6,6,22,56,06,077,,10,02,093,31*65
$GPGGA,170027.00,,,,,0,00,,,M,,M,,*4B
$PTNL,GGK,170027.00,010125,4742.1604924,N,01618.1002187,E,1,37,0.8,EHT750.7826,M*46
$GPGGQ,170027.00,010125,4742.1604924,N,01618.1002187,E,1,37,1.111,707.5760,M*3D
$GPGFA,170027.00,4.206,7.894,0.442,0.336,345.698,0.963,,VVV*0F
$GPLLK,170027.00,010125,,M,,M,1,37,0.9,,M*05
$GNGMP,170027.00,,,,,DAAA,37,0.5,,,,*54
$GPGMP,170027.00,,,,,,09,,,,3.2,136*72
$GLGMP,170027.00,,,,,,08,,,,,*74
$GAGMP,170027.00,,,,,,06,,,,,*77
$GBGMP,170027.00,,,,,,14,,,,,*77
$PSSN,SNC,[0,320445000,2347]*40
$GPZDA,170032.00,01,01,2025,,*64
$GPDTM,W84,,00.0000000,N,00.0000000,E,00.0000000,W84*5F
$PSSN,TFM,170032.00,,,,*68
$GPRMC,170032.00,A,4742.1604926,N,01618.1002176,E,0.0,,010125,5.1,E,D*1C
$GPGLL,4742.1604926,N,01618.1002176,E,170032.00,A,D*6D
$GPGGA,170032.00,4742.1604926,N,01618.1002176,E,2,37,0.5,707.5832,M,43.2066,M,2.9,0136*47
$GNGNS,170032.00,4742.1604926,N,01618.1002176,E,DAAA,37,0.5,707.5832,43.2066,,*54
$GPGNS,170032.00,,,,,,09,,,,2.9,136*7C
$GLGNS,170032.00,,,,,,08,,,,,*70
$GAGNS,170032.00,,,,,,06,,,,,*73
$GBGNS,170032.00,,,,,,14,,,,,*73
$GPLLQ,170032.00,010125,,M,,M,1,37,1.118,,M*1B
$GPVTG,,T,,M,0.00,N,0.01,K,D*27
$GPHDT,,T*1B
$GPTHS,,V*0E
$GPROT,,V*08
$PSSN,HRP,170032.00,010125,,,,,,,00,0,,*66
$PTNL,AVR,170032.00,,Yaw,,Tilt,,,,0,,00*30
$GPGSA,A,3,05,16,18,20,25,26,28,29,31,,,,0.8,0.5,0.6*30
$GPGSA,A,3,65,72,78,79,80,81,82,88,,,,,0.8,0.5,0.6*35
$GPGSA,A,3,13,15,21,27,30,34,,,,,,,0.8,0.5,0.6*3D
$GPGSA,A,3,05,08,11,12,13,22,23,25,28,34,37,38,0.8,0.5,0.6*31
$GPGSA,A,3,43,60,,,,,,,,,,,0.8,0.5,0.6*38
$GPGST,170032.00,1.566,0.447,0.335,344.522,0.440,0.344,0.968*54
$GPGBS,170032.00,2.499,1.768,5.100,72,0.0001,5.624,6.585*5D
$GPGRS,170032.00,1,0.5,-0.4,-0.5,0.6,0.2,-0.3,0.3,-0.1,0.2,,,*64
$GPGRS,170032.00,1,-0.8,5.6,-4.0,-0.9,-2.1,1.5,-0.3,-0.6,,,,*4D
$GPGRS,170032.00,1,0.0,-0.1,-0.4,-0.4,-0.3,-0.0,,,,,,*66
$GPGRS,170032.00,1,1.4,1.8,-0.1,2.1,-0.4,-0.6,-0.6,-0.4,-1.5,0.1,-1.2,0.1*6D
$GPGRS,170032.00,1,0.3,-1.2,,,,,,,,,,*64
$GPGSV,5,1,20,18,63,182,49,05,28,069,44,16,23,305,42,20,14,037,39*7A
$GPGSV,5,2,20,25,28,136,42,28,31,221,45,31,41,253,47,26,54,297,48*7E
$GPGSV,5,3,20,29,58,064,48,23,04,159,,04,01,314,37,36,35,170,45*7E
$GPGSV,5,4,20,58,13,245,37,40,23,133,36,34,31,208,43,49,34,195,44*7C
$GPGSV,5,5,20,57,08,111,38,41,07,108,35,61,03,257,38*49
$GLGSV,3,1,10,81,70,025,52,80,57,314,52,83,12,227,33,88,17,044,44*6A
$GLGSV,3,2,10,79,60,170,53,82,54,237,51,65,08,059,39,72,09,006,38*68
$GLGSV,3,3,10,73,04,328,43,78,10,154,43*63
$GAGSV,2,1,08,27,77,141,49,34,26,045,42,30,24,128,42,13,39,198,45*6A
$GAGSV,2,2,08,21,46,303,45,15,71,098,48,04,03,328,36,06,01,351,35*62
$GBGSV,6,1,22,11,83,045,49,37,21,315,43,60,10,109,40,27,12,230,*60
$GBGSV,6,2,22,05,21,129,38,12,27,057,42,25,39,179,48,38,30,049,43*66
$GBGSV,6,3,22,13,40,074,44,08,39,064,42,31,42,061,,23,60,265,50*6D
$GBGSV,6,4,22,34,57,060,49,43,71,245,51,28,09,240,40,02,06,107,34*65
$GBGSV,6,5,22,21,03,043,,22,08,042,40,44,05,062,38,50,01,110,*6B
$GBGSV,6,6,22,56,06,077,,10,02,094,30*63
$GPGGA,170032.00,,,,,0,00,,,M,,M,,*4F
$PTNL,GGK,170032.00,010125,4742.1604926,N,01618.1002176,E,1,37,0.8,EHT750.7898,M*4B
$GPGGQ,170032.00,010125,4742.1604926,N,01618.1002176,E,1,37,1.118,707.5832,M*34
$GPGFA,170032.00,4.254,7.938,0.447,0.335,344.522,0.968,,VVV*05
$GPLLK,170032.00,010125,,M,,M,1,37,0.9,,M*01
$GNGMP,170032.00,,,,,DAAA,37,0.5,,,,*50
$GPGMP,170032.00,,,,,,09,,,,2.9,136*7C
$GLGMP,170032.00,,,,,,08,,,,,*70
$GAGMP,170032.00,,,,,,06,,,,,*73
$GBGMP,170032.00,,,,,,14,,,,,*73
$PSSN,SNC,[0,320450000,2347]*44
$GPZDA,170037.00,01,01,2025,,*61
$GPDTM,W84,,00.0000000,N,00.0000000,E,00.0000000,W84*5F
$PSSN,TFM,170037.00,,,,*6D
$GPRMC,170037.00,A,4742.1604923,N,01618.1002159,E,0.0,,010125,5.1,E,D*11
$GPGLL,4742.1604923,N,01618.1002159,E,170037.00,A,D*60
$GPGGA,170037.00,4742.1604923,N,01618.1002159,E,2,37,0.5,707.5920,M,43.2066,M,1.7,0136*45
$GNGNS,170037.00,4742.1604923,N,01618.1002159,E,DAAA,37,0.5,707.5920,43.2066,,*5B
$GPGNS,170037.00,,,,,,09,,,,1.7,136*74
$GLGNS,170037.00,,,,,,08,,,,,*75
$GAGNS,170037.00,,,,,,06,,,,,*76
$GBGNS,170037.00,,,,,,14,,,,,*76
$GPLLQ,170037.00,010125,,M,,M,1,37,1.103,,M*14
$GPVTG,,T,,M,0.00,N,0.01,K,D*27
$GPHDT,,T*1B
$GPTHS,,V*0E
$GPROT,,V*08
$PSSN,HRP,170037.00,010125,,,,,,,00,0,,*63
$PTNL,AVR,170037.00,,Yaw,,Tilt,,,,0,,00*35
$GPGSA,A,3,05,16,18,20,25,26,28,29,31,,,,0.8,0.5,0.6*30
$GPGSA,A,3,65,72,78,79,80,81,82,88,,,,,0.8,0.5,0.6*35
$GPGSA,A,3,13,15,21,27,30,34,,,,,,,0.8,0.5,0.6*3D
$GPGSA,A,3,05,08,11,12,13,22,23,25,28,34,37,38,0.8,0.5,0.6*31
$GPGSA,A,3,43,60,,,,,,,,,,,0.8,0.5,0.6*38
$GPGST,170037.00,1.682,0.442,0.331,344.403,0.435,0.340,0.955*53
$GPGBS,170037.00,2.411,1.728,5.112,72,0.0001,6.539,6.587*51
$GPGRS,170037.00,1,0.5,-0.4,-0.4,0.2,0.1,-0.1,0.1,-0.2,0.2,,,*64
$GPGRS,170037.00,1,0.1,6.5,-4.0,-0.2,-2.1,2.1,-0.2,0.5,,,,*4F
$GPGRS,170037.00,1,0.0,0.2,-0.4,-0.3,-0.2,0.3,,,,,,*65
$GPGRS,170037.00,1,1.2,2.0,-0.1,2.3,0.0,-0.6,-0.5,0.0,-0.8,0.5,-1.2,0.7*6A
$GPGRS,170037.00,1,0.4,-1.2,,,,,,,,,,*66
$GPGSV,5,1,20,18,63,182,49,05,28,069,44,16,23,305,43,20,14,037,39*7B
$GPGSV,5,2,20,25,28,136,42,28,31,221,45,31,41,253,47,26,54,296,48*7F
$GPGSV,5,3,20,29,58,064,48,23,04,159,,04,01,314,37,36,35,170,45*7E
$GPGSV,5,4,20,58,13,245,37,40,23,133,36,34,31,208,43,49,34,195,44*7C
$GPGSV,5,5,20,57,08,111,38,41,07,108,35,61,03,257,38*49
$GLGSV,3,1,10,81,70,025,52,80,57,314,52,83,12,227,34,88,17,045,45*6D
$GLGSV,3,2,10,79,60,170,52,82,54,237,51,65,08,059,39,72,09,006,38*69
$GLGSV,3,3,10,73,05,328,43,78,10,154,42*63
$GAGSV,2,1,08,27,77,141,49,34,26,045,42,30,24,129,41,13,39,198,45*68
$GAGSV,2,2,08,21,46,303,45,15,71,097,48,04,03,328,36,06,01,351,35*6D
$GBGSV,6,1,22,11,83,045,49,37,21,315,43,60,10,109,40,27,12,230,*60
$GBGSV,6,2,22,05,21,129,38,12,27,057,42,25,39,179,48,38,30,049,43*66
$GBGSV,6,3,22,13,40,074,44,08,39,064,43,31,42,061,,23,60,265,51*6D
$GBGSV,6,4,22,34,57,060,49,43,71,246,51,28,09,240,40,02,06,107,34*66
$GBGSV,6,5,22,21,03,043,,22,08,042,40,44,04,062,38,50,01,110,*6A
$GBGSV,6,6,22,56,06,077,,10,02,094,31*62
$GPGGA,170037.00,,,,,0,00,,,M,,M,,*4A
$PTNL,GGK,170037.00,010125,4742.1604923,N,01618.1002159,E,1,37,0.8,EHT750.7985,M*4B
$GPGGQ,170037.00,010125,4742.1604923,N,01618.1002159,E,1,37,1.103,707.5920,M*31
$GPGFA,170037.00,4.207,7.830,0.442,0.331,344.403,0.955,,VVV*02
$GPLLK,170037.00,010125,,M,,M,1,37,0.9,,M*04
$GNGMP,170037.00,,,,,DAAA,37,0.5,,,,*55
$GPGMP,170037.00,,,,,,09,,,,1.7,136*74
$GLGMP,170037.00,,,,,,08,,,,,*75
$GAGMP,170037.00,,,,,,06,,,,,*76
$GBGMP,170037.00,,,,,,14,,,,,*76
$PSSN,SNC,[0,320455000,2347]*41
$GPZDA,170042.00,01,01,2025,,*63
$GPDTM,W84,,00.0000000,N,00.0000000,E,00.0000000,W84*5F
$PSSN,TFM,170042.00,,,,*6F
$GPRMC,170042.00,A,4742.1604898,N,01618.1002142,E,0.0,,010125,5.1,E,D*18
$GPGLL,4742.1604898,N,01618.1002142,E,170042.00,A,D*69
$GPGGA,170042.00,4742.1604898,N,01618.1002142,E,2,37,0.5,707.5955,M,43.2066,M,2.2,0136*48
$GNGNS,170042.00,4742.1604898,N,01618.1002142,E,DAAA,37,0.5,707.5955,43.2066,,*50
$GPGNS,170042.00,,,,,,09,,,,2.2,136*70
$GLGNS,170042.00,,,,,,08,,,,,*77
$GAGNS,170042.00,,,,,,06,,,,,*74
$GBGNS,170042.00,,,,,,14,,,,,*74
$GPLLQ,170042.00,010125,,M,,M,1,37,1.094,,M*19
$GPVTG,,T,,M,0.00,N,0.00,K,D*26
$GPHDT,,T*1B
$GPTHS,,V*0E
$GPROT,,V*08
$PSSN,HRP,170042.00,010125,,,,,,,00,0,,*61
$PTNL,AVR,170042.00,,Yaw,,Tilt,,,,0,,00*37
$GPGSA,A,3,05,16,18,20,25,26,28,29,31,,,,0.8,0.5,0.6*30
$GPGSA,A,3,65,72,78,79,80,81,82,88,,,,,0.8,0.5,0.6*35
$GPGSA,A,3,13,15,21,27,30,34,,,,,,,0.8,0.5,0.6*3D
$GPGSA,A,3,05,08,11,12,13,22,23,25,28,34,37,38,0.8,0.5,0.6*31
$GPGSA,A,3,43,60,,,,,,,,,,,0.8,0.5,0.6*38
$GPGST,170042.00,1.768,0.436,0.332,345.942,0.430,0.339,0.947*55
$GPGBS,170042.00,2.468,1.735,5.158,72,0.0001,7.545,6.585*57
$GPGRS,170042.00,1,0.6,-0.3,-0.4,0.3,-0.0,-0.1,0.1,-0.0,0.1,,,*4E
$GPGRS,170042.00,1,-0.0,7.5,-3.5,-1.1,-2.0,2.1,-0.2,0.9,,,,*6D
$GPGRS,170042.00,1,-0.0,0.0,-0.5,-0.3,-0.2,0.1,,,,,,*4B
$GPGRS,170042.00,1,1.3,2.0,-0.5,1.8,-0.2,-0.6,-0.6,0.2,-0.4,-0.0,-1.1,0.4*6F
$GPGRS,170042.00,1,0.7,-1.1,,,,,,,,,,*64
$GPGSV,5,1,20,18,63,182,49,05,28,069,44,16,23,305,43,20,14,037,39*7B
$GPGSV,5,2,20,25,28,136,43,28,31,221,45,31,41,253,47,26,54,296,49*7F
$GPGSV,5,3,20,29,58,064,48,23,04,159,,04,01,314,38,36,35,170,45*71
$GPGSV,5,4,20,58,13,245,37,40,23,133,36,34,31,208,42,49,34,195,44*7D
$GPGSV,5,5,20,57,08,111,38,41,07,108,35,61,03,257,38*49
$GLGSV,3,1,10,81,70,025,52,80,57,314,52,83,12,227,34,88,17,045,45*6D
$GLGSV,3,2,10,79,60,170,52,82,54,237,51,65,08,059,39,72,09,006,39*68
$GLGSV,3,3,10,73,05,328,43,78,10,154,42*63
$GAGSV,2,1,08,27,77,141,49,34,26,045,41,30,24,129,41,13,39,198,45*6B
$GAGSV,2,2,08,21,46,303,45,15,71,097,48,04,03,328,35,06,01,351,34*6F
$GBGSV,6,1,22,11,83,045,49,37,21,315,42,60,10,109,40,27,12,230,*61
$GBGSV,6,2,22,05,21,129,37,12,27,057,42,25,39,179,48,38,30,049,44*6E
$GBGSV,6,3,22,13,40,074,44,08,39,064,43,31,42,061,,23,60,265,50*6C
$GBGSV,6,4,22,34,57,060,49,43,71,246,51,28,09,240,40,02,06,107,34*66
$GBGSV,6,5,22,21,03,043,,22,08,042,39,44,04,062,38,50,01,110,*64
$GBGSV,6,6,22,56,06,077,,10,02,094,31*62
$GPGGA,170042.00,,,,,0,00,,,M,,M,,*48
$PTNL,GGK,170042.00,010125,4742.1604898,N,01618.1002142,E,1,37,0.8,EHT750.8020,M*4B
$GPGGQ,170042.00,010125,4742.1604898,N,01618.1002142,E,1,37,1.094,707.5955,M*35
$GPGFA,170042.00,4.143,7.766,0.436,0.332,345.942,0.947,,VVV*05
$GPLLK,170042.00,010125,,M,,M,1,37,0.9,,M*06
$GNGMP,170042.00,,,,,DAAA,37,0.5,,,,*57
$GPGMP,170042.00,,,,,,09,,,,2.2,136*70
$GLGMP,170042.00,,,,,,08,,,,,*77
$GAGMP,170042.00,,,,,,06,,,,,*74
$GBGMP,170042.00,,,,,,14,,,,,*74
$PSSN,SNC,[0,320460000,2347]*47
$GPZDA,170047.00,01,01,2025,,*66
$GPDTM,W84,,00.0000000,N,00.0000000,E,00.0000000,W84*5F
$PSSN,TFM,170047.00,,,,*6A
$GPRMC,170047.00,A,4742.1604885,N,01618.1002112,E,0.0,,010125,5.1,E,D*14
$GPGLL,4742.1604885,N,01618.1002112,E,170047.00,A,D*65
$GPGGA,170047.00,4742.1604885,N,01618.1002112,E,2,37,0.5,707.6027,M,43.2066,M,3.2,0136*4A
$GNGNS,170047.00,4742.1604885,N,01618.1002112,E,DAAA,37,0.5,707.6027,43.2066,,*53
$GPGNS,170047.00,,,,,,09,,,,3.2,136*74
$GLGNS,170047.00,,,,,,08,,,,,*72
$GAGNS,170047.00,,,,,,06,,,,,*71
$GBGNS,170047.00,,,,,,14,,,,,*71
$GPLLQ,170047.00,010125,,M,,M,1,37,1.109,,M*19
$GPVTG,,T,,M,0.00,N,0.01,K,D*27
$GPHDT,,T*1B
$GPTHS,,V*0E
$GPROT,,V*08
$PSSN,HRP,170047.00,010125,,,,,,,00,0,,*64
$PTNL,AVR,170047.00,,Yaw,,Tilt,,,,0,,00*32
$GPGSA,A,3,05,16,18,20,25,26,28,29,31,,,,0.8,0.5,0.6*30
$GPGSA,A,3,65,72,78,79,80,81,82,88,,,,,0.8,0.5,0.6*35
$GPGSA,A,3,13,15,21,27,30,34,,,,,,,0.8,0.5,0.6*3D
$GPGSA,A,3,05,08,11,12,13,22,23,25,28,34,37,38,0.8,0.5,0.6*31
$GPGSA,A,3,43,60,,,,,,,,,,,0.8,0.5,0.6*38
$GPGST,170047.00,1.539,0.442,0.336,345.534,0.436,0.343,0.960*52
$GPGBS,170047.00,2.511,1.755,5.223,72,0.0001,5.853,6.589*50
$GPGRS,170047.00,1,0.2,-0.5,-0.3,0.1,0.6,-0.1,0.1,-0.0,0.0,,,*66
$GPGRS,170047.00,1,-0.6,5.9,-3.9,-0.9,-1.8,1.9,-0.6,0.4,,,,*6C
$GPGRS,170047.00,1,0.1,0.1,-0.2,-0.2,-0.1,0.1,,,,,,*66
$GPGRS,170047.00,1,1.7,1.8,-0.6,1.6,-0.2,-1.0,-0.5,0.1,-0.5,0.2,-0.7,0.3*41
$GPGRS,170047.00,1,0.6,-0.9,,,,,,,,,,*69
$GPGSV,5,1,20,18,63,182,49,05,28,069,44,16,23,305,42,20,14,037,39*7A
$GPGSV,5,2,20,25,28,136,43,28,31,221,44,31,41,253,47,26,54,296,49*7E
$GPGSV,5,3,20,29,58,064,48,23,04,159,,04,01,314,37,36,35,170,45*7E
$GPGSV,5,4,20,58,13,245,37,40,23,133,36,34,31,208,43,49,34,195,44*7C
$GPGSV,5,5,20,57,08,111,38,41,07,108,35,61,03,257,38*49
$GLGSV,3,1,10,81,70,025,52,80,57,314,52,83,12,227,36,88,17,045,45*6F
$GLGSV,3,2,10,79,60,170,52,82,54,237,50,65,08,059,40,72,09,006,37*69
$GLGSV,3,3,10,73,05,328,44,78,10,154,42*64
$GAGSV,2,1,08,27,77,141,48,34,26,045,41,30,24,129,42,13,40,198,45*67
$GAGSV,2,2,08,21,46,303,45,15,71,097,48,04,03,328,36,06,01,351,34*6C
$GBGSV,6,1,22,11,83,045,49,37,21,315,43,60,10,109,40,27,12,230,*60
$GBGSV,6,2,22,05,21,129,38,38,30,049,44,25,39,179,48,12,27,058,41*6D
$GBGSV,6,3,22,13,40,074,44,08,39,064,43,31,42,061,,23,60,265,50*6C
$GBGSV,6,4,22,34,56,060,49,43,71,246,51,28,09,240,40,02,06,107,34*67
$GBGSV,6,5,22,21,03,043,,22,08,042,39,44,04,062,39,50,01,110,*65
$GBGSV,6,6,22,56,06,077,,10,02,094,31*62
$GPGGA,170047.00,,,,,0,00,,,M,,M,,*4D
$PTNL,GGK,170047.00,010125,4742.1604885,N,01618.1002112,E,1,37,0.8,EHT750.8092,M*4E
$GPGGQ,170047.00,010125,4742.1604885,N,01618.1002112,E,1,37,1.109,707.6027,M*33
$GPGFA,170047.00,4.205,7.869,0.442,0.336,345.534,0.960,,VVV*0E
$GPLLK,170047.00,010125,,M,,M,1,37,0.9,,M*03
$GNGMP,170047.00,,,,,DAAA,37,0.5,,,,*52
$GPGMP,170047.00,,,,,,09,,,,3.2,136*74
$GLGMP,170047.00,,,,,,08,,,,,*72
$GAGMP,170047.00,,,,,,06,,,,,*71
$GBGMP,170047.00,,,,,,14,,,,,*71
$PSSN,SNC,[0,320465000,2347]*42
$GPZDA,170052.00,01,01,2025,,*62
$GPDTM,W84,,00.0000000,N,00.0000000,E,00.0000000,W84*5F
$PSSN,TFM,170052.00,,,,*6E
$GPRMC,170052.00,A,4742.1604903,N,01618.1002063,E,0.0,,010125,5.1,E,D*18
$GPGLL,4742.1604903,N,01618.1002063,E,170052.00,A,D*69
$GPGGA,170052.00,4742.1604903,N,01618.1002063,E,2,37,0.5,707.6036,M,43.2066,M,2.9,0136*4C
$GNGNS,170052.00,4742.1604903,N,01618.1002063,E,DAAA,37,0.5,707.6036,43.2066,,*5F
$GPGNS,170052.00,,,,,,09,,,,2.9,136*7A
$GLGNS,170052.00,,,,,,08,,,,,*76
$GAGNS,170052.00,,,,,,06,,,,,*75
$GBGNS,170052.00,,,,,,14,,,,,*75
$GPLLQ,170052.00,010125,,M,,M,1,37,1.116,,M*13
$GPVTG,,T,,M,0.00,N,0.00,K,D*26
$GPHDT,,T*1B
$GPTHS,,V*0E
$GPROT,,V*08
$PSSN,HRP,170052.00,010125,,,,,,,00,0,,*60
$PTNL,AVR,170052.00,,Yaw,,Tilt,,,,0,,00*36
$GPGSA,A,3,05,16,18,20,25,26,28,29,31,,,,0.8,0.5,0.6*30
$GPGSA,A,3,65,72,78,79,80,81,82,88,,,,,0.8,0.5,0.6*35
$GPGSA,A,3,13,15,21,27,30,34,,,,,,,0.8,0.5,0.6*3D
$GPGSA,A,3,05,08,11,12,13,22,23,25,28,34,37,38,0.8,0.5,0.6*31
$GPGSA,A,3,43,60,,,,,,,,,,,0.8,0.5,0.6*38
$GPGST,170052.00,1.522,0.448,0.335,344.366,0.440,0.345,0.965*57
$GPGBS,170052.00,2.500,1.769,5.125,72,0.0001,5.742,6.587*5F
$GPGRS,170052.00,1,0.5,-1.2,-0.3,-0.6,0.3,-0.4,0.3,0.0,0.2,,,*64
$GPGRS,170052.00,1,0.5,5.7,-3.8,-0.6,-1.9,1.8,-0.4,-0.3,,,,*6E
$GPGRS,170052.00,1,0.2,0.2,-0.1,-0.1,-0.2,0.5,,,,,,*65
$GPGRS,170052.00,1,1.6,2.0,-0.7,1.1,-0.2,-0.7,-0.4,-0.1,-0.0,0.4,-0.8,0.5*69
$GPGRS,170052.00,1,0.5,-1.0,,,,,,,,,,*66
$GPGSV,5,1,20,18,63,182,49,05,28,069,44,16,23,305,42,20,14,037,38*7B
$GPGSV,5,2,20,25,28,136,43,28,31,221,45,31,41,253,47,26,54,296,48*7E
$GPGSV,5,3,20,29,58,064,48,23,04,159,,04,01,314,36,36,35,170,45*7F
$GPGSV,5,4,20,58,13,245,37,40,23,133,36,34,31,208,43,49,34,195,44*7C
$GPGSV,5,5,20,57,08,111,38,41,07,108,35,61,03,257,38*49
$GLGSV,3,1,10,81,70,025,52,80,57,314,52,83,12,227,35,88,16,045,45*6D
$GLGSV,3,2,10,79,60,170,52,82,54,237,51,65,08,059,39,72,09,006,37*66
$GLGSV,3,3,10,73,05,328,43,78,09,154,41*68
$GAGSV,2,1,08,27,77,141,48,34,26,045,41,30,24,129,42,13,40,198,45*67
$GAGSV,2,2,08,21,46,303,45,15,71,097,48,04,03,328,35,06,01,351,35*6E
$GBGSV,6,1,22,11,83,045,49,37,21,315,42,60,10,109,40,27,12,230,*61
$GBGSV,6,2,22,05,21,129,38,38,30,049,44,25,39,179,48,12,27,058,42*6E
$GBGSV,6,3,22,13,40,074,44,08,39,063,43,31,42,061,,23,60,265,51*6A
$GBGSV,6,4,22,34,56,060,49,43,71,246,51,28,09,240,40,02,06,107,34*67
$GBGSV,6,5,22,21,03,043,,22,08,041,40,44,04,062,39,50,01,110,*68
$GBGSV,6,6,22,56,06,077,,10,02,094,32*61
$GPGGA,170052.00,,,,,0,00,,,M,,M,,*49
$PTNL,GGK,170052.00,010125,4742.1604903,N,01618.1002063,E,1,37,0.8,EHT750.8102,M*4A
$GPGGQ,170052.00,010125,4742.1604903,N,01618.1002063,E,1,37,1.116,707.6036,M*31
$GPGFA,170052.00,4.255,7.917,0.448,0.335,344.366,0.965,,VVV*0B
$GPLLK,170052.00,010125,,M,,M,1,37,0.9,,M*07
$GNGMP,170052.00,,,,,DAAA,37,0.5,,,,*56
$GPGMP,170052.00,,,,,,09,,,,2.9,136*7A
$GLGMP,170052.00,,,,,,08,,,,,*76
$GAGMP,170052.00,,,,,,06,,,,,*75
$GBGMP,170052.00,,,,,,14,,,,,*75
$PSSN,SNC,[0,320470000,2347]*46
$GPZDA,170057.00,01,01,2025,,*67
$GPDTM,W84,,00.0000000,N,00.0000000,E,00.0000000,W84*5F
$PSSN,TFM,170057.00,,,,*6B
$GPRMC,170057.00,A,4742.1604930,N,01618.1002016,E,0.0,,010125,5.1,E,D*1F
$GPGLL,4742.1604930,N,01618.1002016,E,170057.00,A,D*6E
$GPGGA,170057.00,4742.1604930,N,01618.1002016,E,2,37,0.5,707.6110,M,43.2066,M,1.7,0136*43
$GNGNS,170057.00,4742.1604930,N,01618.1002016,E,DAAA,37,0.5,707.6110,43.2066,,*5D
$GPGNS,170057.00,,,,,,09,,,,1.7,136*72
$GLGNS,170057.00,,,,,,08,,,,,*73
$GAGNS,170057.00,,,,,,06,,,,,*70
$GBGNS,170057.00,,,,,,14,,,,,*70
$GPLLQ,170057.00,010125,,M,,M,1,37,1.101,,M*10
$GPVTG,,T,,M,0.00,N,0.00,K,D*26
$GPHDT,,T*1B
$GPTHS,,V*0E
$GPROT,,V*08
$PSSN,HRP,170057.00,010125,,,,,,,00,0,,*65
$PTNL,AVR,170057.00,,Yaw,,Tilt,,,,0,,00*33
$GPGSA,A,3,05,16,18,20,25,26,28,29,31,,,,0.8,0.5,0.6*30
$GPGSA,A,3,65,72,78,79,80,81,82,88,,,,,0.8,0.5,0.6*35
$GPGSA,A,3,13,15,21,27,30,34,,,,,,,0.8,0.5,0.6*3D
$GPGSA,A,3,05,08,11,12,13,22,23,25,28,34,37,38,0.8,0.5,0.6*31
$GPGSA,A,3,43,60,,,,,,,,,,,0.8,0.5,0.6*38
$GPGST,170057.00,1.660,0.443,0.331,344.282,0.435,0.340,0.952*50
$GPGBS,170057.00,2.413,1.729,5.135,72,0.0001,6.711,6.586*58
$GPGRS,170057.00,1,0.8,-1.0,-0.2,0.2,-0.1,-0.4,0.4,-0.0,0.2,,,*43
$GPGRS,170057.00,1,0.5,6.7,-3.6,-0.6,-1.9,1.8,0.2,-0.9,,,,*47
$GPGRS,170057.00,1,-0.1,0.1,-0.1,-0.0,-0.0,0.6,,,,,,*4D
$GPGRS,170057.00,1,1.5,2.1,-0.8,2.0,-0.0,-0.6,-0.3,-0.2,0.2,0.4,-0.8,0.3*4D
$GPGRS,170057.00,1,0.6,-1.1,,,,,,,,,,*61
$GPGSV,5,1,20,18,63,182,49,05,28,069,43,16,23,305,42,20,14,037,39*7D
$GPGSV,5,2,20,25,28,136,43,28,31,221,45,31,41,253,47,26,54,296,48*7E
$GPGSV,5,3,20,29,58,064,48,23,04,159,,04,01,314,36,36,35,170,45*7F
$GPGSV,5,4,20,58,13,245,37,40,23,133,36,34,31,208,43,49,34,195,44*7C
$GPGSV,5,5,20,57,08,111,38,41,07,108,35,61,03,257,38*49
$GLGSV,3,1,10,81,70,025,52,80,57,314,52,83,12,227,34,88,16,045,44*6D
$GLGSV,3,2,10,79,60,170,52,82,54,237,51,65,08,059,40,72,09,006,38*67
$GLGSV,3,3,10,73,05,328,43,78,09,154,41*68
$GAGSV,2,1,08,27,77,141,49,34,26,045,42,30,24,129,43,13,40,198,45*64
$GAGSV,2,2,08,21,46,303,45,15,71,097,48,04,03,328,35,06,01,351,35*6E
$GBGSV,6,1,22,11,83,045,49,37,21,315,43,60,10,109,40,27,12,230,*60
$GBGSV,6,2,22,05,21,129,38,38,30,049,44,25,39,179,48,12,27,058,42*6E
$GBGSV,6,3,22,13,40,074,44,08,39,063,43,31,42,061,,23,60,265,51*6A
$GBGSV,6,4,22,34,56,060,50,43,71,246,51,28,09,240,40,02,06,107,34*6F
$GBGSV,6,5,22,21,03,043,,22,08,041,40,44,04,062,39,50,01,110,*68
$GBGSV,6,6,22,56,06,077,,10,02,094,32*61
$GPGGA,170057.00,,,,,0,00,,,M,,M,,*4C
$PTNL,GGK,170057.00,010125,4742.1604930,N,01618.1002016,E,1,37,0.8,EHT750.8175,M*4D
$GPGGQ,170057.00,010125,4742.1604930,N,01618.1002016,E,1,37,1.101,707.6110,M*35
$GPGFA,170057.00,4.207,7.809,0.443,0.331,344.282,0.952,,VVV*07
$GPLLK,170057.00,010125,,M,,M,1,37,0.9,,M*02
$GNGMP,170057.00,,,,,DAAA,37,0.5,,,,*53
$GPGMP,170057.00,,,,,,09,,,,1.7,136*72
$GLGMP,170057.00,,,,,,08,,,,,*73
$GAGMP,170057.00,,,,,,06,,,,,*70
$GBGMP,170057.00,,,,,,14,,,,,*70
$PSSN,SNC,[0,320475000,2347]*43
$GPZDA,170102.00,01,01,2025,,*66
$GPDTM,W84,,00.0000000,N,00.0000000,E,00.0000000,W84*5F
$PSSN,TFM,170102.00,,,,*6A
$GPRMC,170102.00,A,4742.1604920,N,01618.1002008,E,0.0,,010125,5.1,E,D*10
$GPGLL,4742.1604920,N,01618.1002008,E,170102.00,A,D*61
$GPGGA,170102.00,4742.1604920,N,01618.1002008,E,2,37,0.5,707.6159,M,43.2066,M,2.2,0136*47
$GNGNS,170102.00,4742.1604920,N,01618.1002008,E,DAAA,37,0.5,707.6159,43.2066,,*5F
$GPGNS,170102.00,,,,,,09,,,,2.2,136*75
$GLGNS,170102.00,,,,,,08,,,,,*72
$GAGNS,170102.00,,,,,,06,,,,,*71
$GBGNS,170102.00,,,,,,14,,,,,*71
$GPLLQ,170102.00,010125,,M,,M,1,37,1.092,,M*1A
$GPVTG,,T,,M,0.00,N,0.00,K,D*26
$GPHDT,,T*1B
$GPTHS,,V*0E
$GPROT,,V*08
$PSSN,HRP,170102.00,010125,,,,,,,00,0,,*64
$PTNL,AVR,170102.00,,Yaw,,Tilt,,,,0,,00*32
$GPGSA,A,3,05,16,18,20,25,26,28,29,31,,,,0.8,0.5,0.6*30
$GPGSA,A,3,65,72,78,79,80,81,82,88,,,,,0.8,0.5,0.6*35
$GPGSA,A,3,13,15,21,27,30,34,,,,,,,0.8,0.5,0.6*3D
$GPGSA,A,3,05,08,11,12,13,22,23,25,28,34,37,38,0.8,0.5,0.6*31
$GPGSA,A,3,43,60,,,,,,,,,,,0.8,0.5,0.6*38
$GPGST,170102.00,1.798,0.436,0.332,345.769,0.430,0.339,0.944*5B
$GPGBS,170102.00,2.470,1.736,5.177,72,0.0001,7.677,6.587*55
$GPGRS,170102.00,1,0.4,-0.4,-0.3,0.6,0.0,-0.2,0.5,-0.1,-0.0,,,*4B
$GPGRS,170102.00,1,-0.0,7.7,-3.3,-0.6,-1.7,1.7,0.1,-1.4,,,,*64
$GPGRS,170102.00,1,0.2,0.2,-0.1,-0.3,0.0,0.4,,,,,,*4D
$GPGRS,170102.00,1,1.6,1.6,-0.8,3.0,0.2,-0.3,-0.4,-0.1,0.7,0.2,-0.6,0.2*68
$GPGRS,170102.00,1,0.6,-1.0,,,,,,,,,,*61
$GPGSV,5,1,20,18,63,182,49,05,28,069,44,16,24,305,42,20,14,037,39*7D
$GPGSV,5,2,20,25,28,136,43,28,31,221,44,31,41,253,46,26,54,296,48*7E
$GPGSV,5,3,20,29,58,064,48,23,04,159,,04,01,313,36,36,35,170,45*78
$GPGSV,5,4,20,58,13,245,36,40,23,133,36,34,31,208,43,49,34,195,44*7D
$GPGSV,5,5,20,57,08,111,38,41,07,108,34,61,03,257,38*48
$GLGSV,3,1,10,81,70,025,52,80,57,314,52,83,12,227,35,88,16,045,44*6C
$GLGSV,3,2,10,79,60,170,52,82,54,237,51,65,08,059,40,72,09,006,39*66
$GLGSV,3,3,10,73,05,328,41,78,09,154,41*6A
$GAGSV,2,1,08,27,77,141,49,34,26,045,42,30,24,129,42,13,40,198,45*65
$GAGSV,2,2,08,21,46,303,46,15,71,097,48,04,03,328,35,06,01,351,35*6D
$GBGSV,6,1,22,11,83,045,49,37,21,315,43,60,10,109,40,27,12,230,*60
$GBGSV,6,2,22,05,21,129,38,38,30,049,44,25,39,179,48,12,27,058,42*6E
$GBGSV,6,3,22,13,40,074,44,08,39,063,43,31,42,061,,23,60,265,51*6A
$GBGSV,6,4,22,34,56,060,50,43,71,246,51,28,09,240,41,02,06,107,34*6E
$GBGSV,6,5,22,21,03,043,,22,08,041,40,44,04,062,40,50,01,110,*66
$GBGSV,6,6,22,56,06,077,,10,02,094,32*61
$GPGGA,170102.00,,,,,0,00,,,M,,M,,*4D
$PTNL,GGK,170102.00,010125,4742.1604920,N,01618.1002008,E,1,37,0.8,EHT750.8225,M*44
$GPGGQ,170102.00,010125,4742.1604920,N,01618.1002008,E,1,37,1.092,707.6159,M*3C
$GPGFA,170102.00,4.145,7.743,0.436,0.332,345.769,0.944,,VVV*05
$GPLLK,170102.00,010125,,M,,M,1,37,0.9,,M*03
$GNGMP,170102.00,,,,,DAAA,37,0.5,,,,*52
$GPGMP,170102.00,,,,,,09,,,,2.2,136*75
$GLGMP,170102.00,,,,,,08,,,,,*72
$GAGMP,170102.00,,,,,,06,,,,,*71
$GBGMP,170102.00,,,,,,14,,,,,*71
$PSSN,SNC,[0,320480000,2347]*49
$GPZDA,170107.00,01,01,2025,,*63
$GPDTM,W84,,00.0000000,N,00.0000000,E,00.0000000,W84*5F
$PSSN,TFM,170107.00,,,,*6F
$GPRMC,170107.00,A,4742.1604897,N,01618.1001987,E,0.0,,010125,5.1,E,D*15
$GPGLL,4742.1604897,N,01618.1001987,E,170107.00,A,D*64
$GPGGA,170107.00,4742.1604897,N,01618.1001987,E,2,37,0.5,707.6213,M,43.2066,M,3.2,0136*4E
$GNGNS,170107.00,4742.1604897,N,01618.1001987,E,DAAA,37,0.5,707.6213,43.2066,,*57
$GPGNS,170107.00,,,,,,09,,,,3.2,136*71
$GLGNS,170107.00,,,,,,08,,,,,*77
$GAGNS,170107.00,,,,,,06,,,,,*74
$GBGNS,170107.00,,,,,,14,,,,,*74
$GPLLQ,170107.00,010125,,M,,M,1,37,1.107,,M*12
$GPVTG,,T,,M,0.00,N,0.01,K,D*27
$GPHDT,,T*1B
$GPTHS,,V*0E
$GPROT,,V*08
$PSSN,HRP,170107.00,010125,,,,,,,00,0,,*61
$PTNL,AVR,170107.00,,Yaw,,Tilt,,,,0,,00*37
$GPGSA,A,3,05,16,18,20,25,26,28,29,31,,,,0.8,0.5,0.6*30
$GPGSA,A,3,65,72,78,79,80,81,82,88,,,,,0.8,0.5,0.6*35
$GPGSA,A,3,13,15,21,27,30,34,,,,,,,0.8,0.5,0.6*3D
$GPGSA,A,3,05,08,11,12,13,22,23,25,28,34,37,38,0.8,0.5,0.6*31
$GPGSA,A,3,43,60,,,,,,,,,,,0.8,0.5,0.6*38
$GPGST,170107.00,1.670,0.442,0.336,345.364,0.436,0.344,0.957*59
$GPGBS,170107.00,2.513,1.756,5.243,72,0.0001,6.646,6.588*5A
$GPGRS,170107.00,1,0.9,-0.2,-0.5,0.5,-0.1,-0.2,0.3,0.2,0.1,,,*68
$GPGRS,170107.00,1,-0.1,6.6,-3.2,-0.5,-1.9,1.7,-0.3,-1.1,,,,*46
$GPGRS,170107.00,1,0.0,0.3,-0.0,-0.2,-0.2,0.1,,,,,,*61
$GPGRS,170107.00,1,1.6,1.9,-0.6,3.1,0.5,0.2,-0.5,0.1,0.5,0.3,-1.1,0.1*6C
$GPGRS,170107.00,1,0.5,-1.1,,,,,,,,,,*66
$GPGSV,5,1,20,18,63,182,49,05,28,069,45,16,24,305,42,20,14,037,39*7C
$GPGSV,5,2,20,25,28,136,42,28,31,221,44,31,41,253,47,26,54,296,48*7E
$GPGSV,5,3,20,29,58,064,48,23,04,159,,04,01,313,36,36,35,170,45*78
$GPGSV,5,4,20,58,13,245,37,40,23,133,36,34,31,208,43,49,34,195,44*7C
$GPGSV,5,5,20,57,08,111,38,41,07,108,35,61,03,257,38*49
$GLGSV,3,1,10,81,70,025,52,80,57,314,52,83,13,228,34,88,16,045,44*63
$GLGSV,3,2,10,79,60,170,52,82,54,238,51,65,08,059,39,72,09,006,37*69
$GLGSV,3,3,10,73,05,328,42,78,09,154,41*69
$GAGSV,2,1,08,27,77,141,49,34,26,045,42,30,24,129,42,13,40,198,45*65
$GAGSV,2,2,08,21,46,303,46,15,71,097,48,04,03,328,36,06,01,351,35*6E
$GBGSV,6,1,22,11,83,045,49,37,21,315,43,60,10,109,40,27,12,230,*60
$GBGSV,6,2,22,05,21,129,38,38,30,049,44,25,39,179,48,12,27,058,42*6E
$GBGSV,6,3,22,13,40,074,45,08,39,063,43,31,42,061,,23,60,265,51*6B
$GBGSV,6,4,22,34,56,060,50,43,71,246,51,28,09,240,41,02,06,107,34*6E
$GBGSV,6,5,22,21,03,043,,22,08,041,41,44,04,062,40,50,01,110,*67
$GBGSV,6,6,22,56,06,077,,10,02,094,32*61
$GPGGA,170107.00,,,,,0,00,,,M,,M,,*48
$PTNL,GGK,170107.00,010125,4742.1604897,N,01618.1001987,E,1,37,0.8,EHT750.8279,M*48
$GPGGQ,170107.00,010125,4742.1604897,N,01618.1001987,E,1,37,1.107,707.6213,M*39
$GPGFA,170107.00,4.207,7.848,0.442,0.336,345.364,0.957,,VVV*0D
$GPLLK,170107.00,010125,,M,,M,1,37,0.9,,M*06
$GNGMP,170107.00,,,,,DAAA,37,0.5,,,,*57
$GPGMP,170107.00,,,,,,09,,,,3.2,136*71
$GLGMP,170107.00,,,,,,08,,,,,*77
$GAGMP,170107.00,,,,,,06,,,,,*74
$GBGMP,170107.00,,,,,,14,,,,,*74
$PSSN,SNC,[0,320485000,2347]*4C
$GPZDA,170112.00,01,01,2025,,*67
$GPDTM,W84,,00.0000000,N,00.0000000,E,00.0000000,W84*5F
$PSSN,TFM,170112.00,,,,*6B
$GPRMC,170112.00,A,4742.1604879,N,01618.1001968,E,0.0,,010125,5.1,E,D*10
$GPGLL,4742.1604879,N,01618.1001968,E,170112.00,A,D*61
$GPGGA,170112.00,4742.1604879,N,01618.1001968,E,2,37,0.5,707.6312,M,43.2066,M,2.9,0136*41
$GNGNS,170112.00,4742.1604879,N,01618.1001968,E,DAAA,37,0.5,707.6312,43.2066,,*52
$GPGNS,170112.00,,,,,,09,,,,2.9,136*7F
$GLGNS,170112.00,,,,,,08,,,,,*73
$GAGNS,170112.00,,,,,,06,,,,,*70
$GBGNS,170112.00,,,,,,14,,,,,*70
$GPLLQ,170112.00,010125,,M,,M,1,37,1.114,,M*14
$GPVTG,,T,,M,0.00,N,0.00,K,D*26
$GPHDT,,T*1B
$GPTHS,,V*0E
$GPROT,,V*08
$PSSN,HRP,170112.00,010125,,,,,,,00,0,,*65
$PTNL,AVR,170112.00,,Yaw,,Tilt,,,,0,,00*33
$GPGSA,A,3,05,16,18,20,25,26,28,29,31,,,,0.8,0.5,0.6*30
$GPGSA,A,3,65,72,78,79,80,81,82,88,,,,,0.8,0.5,0.6*35
$GPGSA,A,3,13,15,21,27,30,34,,,,,,,0.8,0.5,0.6*3D
$GPGSA,A,3,05,08,11,12,13,22,23,25,28,34,37,38,0.8,0.5,0.6*31
$GPGSA,A,3,43,60,,,,,,,,,,,0.8,0.5,0.6*38
$GPGST,170112.00,1.753,0.448,0.335,344.201,0.440,0.345,0.963*50
$GPGBS,170112.00,2.503,1.769,5.144,72,0.0001,7.027,6.586*59
$GPGRS,170112.00,1,0.4,-0.2,-0.6,-0.0,-0.3,-0.1,0.3,0.1,0.3,,,*4A
$GPGRS,170112.00,1,-0.1,7.0,-4.3,-0.4,-2.2,1.5,0.1,-0.5,,,,*62
$GPGRS,170112.00,1,0.2,-0.1,-0.0,-0.2,-0.3,0.1,,,,,,*49
$GPGRS,170112.00,1,1.1,1.5,-0.7,2.6,0.6,-0.6,-0.7,-0.5,0.4,0.1,-1.4,-0.2*4D
$GPGRS,170112.00,1,0.3,-1.2,,,,,,,,,,*67
$GPGSV,5,1,20,18,63,182,49,05,28,069,45,16,24,305,42,20,14,037,38*7D
$GPGSV,5,2,20,25,28,136,42,28,31,221,44,31,41,253,47,26,54,296,48*7E
$GPGSV,5,3,20,29,58,064,48,23,04,159,,04,01,313,36,36,35,170,45*78
$GPGSV,5,4,20,58,13,245,37,40,23,133,36,34,31,208,43,49,34,195,44*7C
$GPGSV,5,5,20,57,08,111,38,41,07,108,35,61,03,257,38*49
$GLGSV,3,1,10,81,70,025,52,80,57,314,52,83,13,228,34,88,16,045,44*63
$GLGSV,3,2,10,79,60,170,53,82,54,238,51,65,08,059,38,72,09,006,38*66
$GLGSV,3,3,10,73,05,328,43,78,09,154,40*69
$GAGSV,2,1,08,27,77,141,49,34,26,045,41,30,24,129,42,13,40,198,45*66
$GAGSV,2,2,08,21,46,303,46,15,71,097,48,04,03,328,36,06,01,351,35*6E
$GBGSV,6,1,22,11,83,045,49,37,21,315,43,60,10,109,41,27,12,230,*61
$GBGSV,6,2,22,05,21,129,38,38,30,049,44,25,39,179,48,12,27,058,42*6E
$GBGSV,6,3,22,13,40,074,45,08,39,063,43,31,42,061,,23,60,264,51*6A
$GBGSV,6,4,22,34,56,060,50,43,71,246,51,28,09,240,41,02,06,107,34*6E
$GBGSV,6,5,22,21,03,043,,22,08,041,41,44,04,062,40,50,01,110,*67
$GBGSV,6,6,22,56,06,077,,10,02,094,33*60
$GPGGA,170112.00,,,,,0,00,,,M,,M,,*4C
$PTNL,GGK,170112.00,010125,4742.1604879,N,01618.1001968,E,1,37,0.8,EHT750.8378,M*4D
$GPGGQ,170112.00,010125,4742.1604879,N,01618.1001968,E,1,37,1.114,707.6312,M*3E
$GPGFA,170112.00,4.256,7.895,0.448,0.335,344.201,0.963,,VVV*00
$GPLLK,170112.00,010125,,M,,M,1,37,0.9,,M*02
$GNGMP,170112.00,,,,,DAAA,37,0.5,,,,*53
$GPGMP,170112.00,,,,,,09,,,,2.9,136*7F
$GLGMP,170112.00,,,,,,08,,,,,*73
$GAGMP,170112.00,,,,,,06,,,,,*70
$GBGMP,170112.00,,,,,,14,,,,,*70
$PSSN,SNC,[0,320490000,2347]*48
$GPZDA,170117.00,01,01,2025,,*62
$GPDTM,W84,,00.0000000,N,00.0000000,E,00.0000000,W84*5F
$PSSN,TFM,170117.00,,,,*6E
$GPRMC,170117.00,A,4742.1604860,N,01618.1001980,E,0.0,,010125,5.1,E,D*1B
$GPGLL,4742.1604860,N,01618.1001980,E,170117.00,A,D*6A
$GPGGA,170117.00,4742.1604860,N,01618.1001980,E,2,37,0.5,707.6365,M,43.2066,M,1.7,0136*47
$GNGNS,170117.00,4742.1604860,N,01618.1001980,E,DAAA,37,0.5,707.6365,43.2066,,*59
$GPGNS,170117.00,,,,,,09,,,,1.7,136*77
$GLGNS,170117.00,,,,,,08,,,,,*76
$GAGNS,170117.00,,,,,,06,,,,,*75
$GBGNS,170117.00,,,,,,14,,,,,*75
$GPLLQ,170117.00,010125,,M,,M,1,37,1.099,,M*15
$GPVTG,,T,,M,0.00,N,0.00,K,D*26
$GPHDT,,T*1B
$GPTHS,,V*0E
$GPROT,,V*08
$PSSN,HRP,170117.00,010125,,,,,,,00,0,,*60
$PTNL,AVR,170117.00,,Yaw,,Tilt,,,,0,,00*36
$GPGSA,A,3,05,16,18,20,25,26,28,29,31,,,,0.8,0.5,0.6*30
$GPGSA,A,3,65,72,78,79,80,81,82,88,,,,,0.8,0.5,0.6*35
$GPGSA,A,3,13,15,21,27,30,34,,,,,,,0.8,0.5,0.6*3D
$GPGSA,A,3,05,08,11,12,13,22,23,25,28,34,37,38,0.8,0.5,0.6*31
$GPGSA,A,3,43,60,,,,,,,,,,,0.8,0.5,0.6*38
$GPGST,170117.00,1.618,0.443,0.331,344.095,0.435,0.340,0.950*5C
$GPGBS,170117.00,2.415,1.729,5.150,72,0.0001,6.165,6.585*5E
$GPGRS,170117.00,1,0.1,-0.2,-0.5,0.1,-0.0,0.0,0.2,-0.0,0.3,,,*67
$GPGRS,170117.00,1,0.2,6.2,-4.4,-0.2,-1.8,1.8,0.1,0.3,,,,*64
$GPGRS,170117.00,1,0.1,0.2,-0.2,-0.1,-0.4,0.2,,,,,,*64
$GPGRS,170117.00,1,1.3,1.1,-0.8,2.2,0.8,-1.0,-0.4,0.0,0.3,0.1,-1.3,-0.1*64
$GPGRS,170117.00,1,0.6,-1.2,,,,,,,,,,*67
$GPGSV,5,1,20,18,63,182,49,05,28,069,44,16,24,305,42,20,13,037,39*7A
$GPGSV,5,2,20,25,28,136,42,28,31,221,46,31,41,253,47,26,54,296,48*7C
$GPGSV,5,3,20,29,57,064,48,23,04,159,,04,01,313,38,36,35,170,45*79
$GPGSV,5,4,20,58,13,245,37,40,23,133,36,34,31,208,43,49,34,195,44*7C
$GPGSV,5,5,20,57,08,111,38,41,07,108,34,61,03,257,38*48
$GLGSV,3,1,10,81,70,025,52,80,57,314,52,83,13,228,34,88,16,045,44*63
$GLGSV,3,2,10,79,60,170,52,82,54,238,51,65,08,059,38,72,09,006,38*67
$GLGSV,3,3,10,73,05,328,43,78,09,154,40*69
$GAGSV,2,1,08,27,77,141,49,34,26,045,41,30,24,129,42,13,40,198,45*66
$GAGSV,2,2,08,21,46,303,45,15,71,097,48,04,03,328,36,06,01,351,36*6E
$GBGSV,6,1,22,11,83,045,49,37,21,315,43,60,10,109,41,27,12,231,*60
$GBGSV,6,2,22,05,21,129,38,38,30,049,44,25,39,179,48,12,27,058,42*6E
$GBGSV,6,3,22,13,40,074,45,08,39,063,42,31,42,061,,23,60,264,51*6B
$GBGSV,6,4,22,34,56,060,50,43,71,246,51,28,09,240,41,02,06,107,34*6E
$GBGSV,6,5,22,21,03,043,,22,08,041,40,44,04,062,41,50,01,110,*67
$GBGSV,6,6,22,56,06,077,,10,02,094,33*60
$GPGGA,170117.00,,,,,0,00,,,M,,M,,*49
$PTNL,GGK,170117.00,010125,4742.1604860,N,01618.1001980,E,1,37,0.8,EHT750.8430,M*4D
$GPGGQ,170117.00,010125,4742.1604860,N,01618.1001980,E,1,37,1.099,707.6365,M*31
$GPGFA,170117.00,4.209,7.788,0.443,0.331,344.095,0.950,,VVV*0C
$GPLLK,170117.00,010125,,M,,M,1,37,0.9,,M*07
$GNGMP,170117.00,,,,,DAAA,37,0.5,,,,*56
$GPGMP,170117.00,,,,,,09,,,,1.7,136*77
$GLGMP,170117.00,,,,,,08,,,,,*76
$GAGMP,170117.00,,,,,,06,,,,,*75
