$GPZDA,181442.00,01,01,2025,,*69
$GPDTM,W84,,00.0000000,N,00.0000000,E,00.0000000,W84*5F
$PSSN,TFM,181442.00,,,,*65
$GPRMC,181442.00,A,4742.1604159,N,01618.1000362,E,0.0,,010125,5.1,E,D*14
$GPGLL,4742.1604159,N,01618.1000362,E,181442.00,A,D*65
$GPGGA,181442.00,4742.1604159,N,01618.1000362,E,2,36,0.5,708.5958,M,43.2066,M,3.3,0136*47
$GNGNS,181442.00,4742.1604159,N,01618.1000362,E,DAAA,36,0.5,708.5958,43.2066,,*5F
$GPGNS,181442.00,,,,,,09,,,,3.3,136*7A
$GLGNS,181442.00,,,,,,08,,,,,*7D
$GAGNS,181442.00,,,,,,05,,,,,*7D
$GBGNS,181442.00,,,,,,14,,,,,*7E
$GPLLQ,181442.00,010125,,M,,M,1,36,0.906,,M*11
$GPVTG,,T,,M,0.01,N,0.01,K,D*26
$GPHDT,,T*1B
$GPTHS,,V*0E
$GPROT,,V*08
$PSSN,HRP,181442.00,010125,,,,,,,00,0,,*6B
$PTNL,AVR,181442.00,,Yaw,,Tilt,,,,0,,00*3D
$GPGSA,A,3,05,10,16,18,23,26,27,29,31,,,,0.8,0.5,0.7*3B
$GPGSA,A,3,65,66,73,79,80,81,82,83,,,,,0.8,0.5,0.7*31
$GPGSA,A,3,13,15,21,26,27,,,,,,,,0.8,0.5,0.7*3C
$GPGSA,A,3,05,08,11,13,21,23,25,28,34,37,38,42,0.8,0.5,0.7*36
$GPGSA,A,3,43,60,,,,,,,,,,,0.8,0.5,0.7*39
$GPGST,181442.00,1.391,0.443,0.329,0.667,0.443,0.329,0.719*5F
$GPGBS,181442.00,2.796,2.015,4.101,66,0.0001,-4.592,6.325*79
$GPGRS,181442.00,1,0.1,-1.0,0.2,0.0,-0.2,-0.1,-0.1,-0.3,0.5,,,*41
$GPGRS,181442.00,1,2.1,-4.6,3.9,1.1,-0.1,0.9,-0.3,-1.9,,,,*4C
$GPGRS,181442.00,1,0.2,0.0,0.2,-0.3,0.1,,,,,,,*45
$GPGRS,181442.00,1,0.6,1.2,0.5,0.3,-0.5,-0.2,-1.5,0.1,0.2,-0.4,0.0,0.0*43
$GPGRS,181442.00,1,-0.0,-1.6,,,,,,,,,,*43
$GPGSV,5,1,20,18,74,067,49,23,35,145,45,05,16,038,40,27,26,284,43*7A
$GPGSV,5,2,20,31,17,225,42,29,29,088,44,16,55,297,47,26,67,228,50*7B
$GPGSV,5,3,20,28,02,204,32,10,07,175,39,15,02,090,37,36,35,170,45*72
$GPGSV,5,4,20,58,13,245,37,40,24,133,35,34,31,208,42,49,34,195,44*79
$GPGSV,5,5,20,57,08,111,37,41,07,108,34,61,03,257,38*47
$GLGSV,3,1,09,82,73,341,51,66,18,074,45,65,14,024,40,79,18,175,47*6A
$GLGSV,3,2,09,83,44,258,40,73,37,318,49,81,34,049,49,80,61,224,53*69
$GLGSV,3,3,09,67,02,121,*5D
$GAGSV,3,1,09,13,70,212,48,23,20,313,,26,17,225,40,27,48,156,46*63
$GAGSV,3,2,09,15,52,054,46,21,68,280,48,05,01,038,,30,00,142,*60
$GAGSV,3,3,09,34,03,048,35*5F
$GBGSV,6,1,24,43,77,043,51,05,22,129,38,60,11,109,40,38,26,039,43*62
$GBGSV,6,2,24,42,17,113,42,21,20,063,42,50,21,087,,23,43,218,49*67
$GBGSV,6,3,24,37,39,292,47,34,29,071,46,08,39,047,42,31,37,052,*62
$GBGSV,6,4,24,28,34,260,46,27,38,249,,13,44,057,45,11,54,061,47*61
$GBGSV,6,5,24,12,03,071,34,14,07,137,,22,03,017,39,02,07,106,34*62
$GBGSV,6,6,24,46,02,331,,25,09,177,41,58,06,326,,07,09,106,*63
$GPGGA,181442.00,,,,,0,00,,,M,,M,,*42
$PTNL,GGK,181442.00,010125,4742.1604159,N,01618.1000362,E,1,36,0.8,EHT751.8024,M*43
$GPGGQ,181442.00,010125,4742.1604159,N,01618.1000362,E,1,36,0.906,708.5958,M*39
$GPGFA,181442.00,4.215,5.892,0.443,0.329,0.667,0.719,,VVV*0E
$GPLLK,181442.00,010125,,M,,M,1,36,1.0,,M*05
$GNGMP,181442.00,,,,,DAAA,36,0.5,,,,*5C
$GPGMP,181442.00,,,,,,09,,,,3.3,136*7A
$GLGMP,181442.00,,,,,,08,,,,,*7D
$GAGMP,181442.00,,,,,,05,,,,,*7D
$GBGMP,181442.00,,,,,,14,,,,,*7E
$PSSN,SNC,[0,324900000,2347]*48
$GPZDA,181447.00,01,01,2025,,*6C
$GPDTM,W84,,00.0000000,N,00.0000000,E,00.0000000,W84*5F
$PSSN,TFM,181447.00,,,,*60
$GPRMC,181447.00,A,4742.1604163,N,01618.1000364,E,0.0,,010125,5.1,E,D*1E
$GPGLL,4742.1604163,N,01618.1000364,E,181447.00,A,D*6F
$GPGGA,181447.00,4742.1604163,N,01618.1000364,E,2,36,0.5,708.5905,M,43.2066,M,2.1,0136*46
$GNGNS,181447.00,4742.1604163,N,01618.1000364,E,DAAA,36,0.5,708.5905,43.2066,,*5D
$GPGNS,181447.00,,,,,,09,,,,2.1,136*7C
$GLGNS,181447.00,,,,,,08,,,,,*78
$GAGNS,181447.00,,,,,,05,,,,,*78
$GBGNS,181447.00,,,,,,14,,,,,*7B
$GPLLQ,181447.00,010125,,M,,M,1,36,0.903,,M*11
$GPVTG,,T,,M,0.01,N,0.01,K,D*26
$GPHDT,,T*1B
$GPTHS,,V*0E
$GPROT,,V*08
$PSSN,HRP,181447.00,010125,,,,,,,00,0,,*6E
$PTNL,AVR,181447.00,,Yaw,,Tilt,,,,0,,00*38
$GPGSA,A,3,05,10,16,18,23,26,27,29,31,,,,0.8,0.5,0.7*3B
$GPGSA,A,3,65,66,73,79,80,81,82,83,,,,,0.8,0.5,0.7*31
$GPGSA,A,3,13,15,21,26,27,,,,,,,,0.8,0.5,0.7*3C
$GPGSA,A,3,05,08,11,13,21,23,25,28,34,37,38,42,0.8,0.5,0.7*36
$GPGSA,A,3,43,60,,,,,,,,,,,0.8,0.5,0.7*39
$GPGST,181447.00,1.371,0.443,0.329,1.930,0.442,0.329,0.716*56
$GPGBS,181447.00,2.694,1.930,3.899,66,0.0001,-4.857,6.324*78
$GPGRS,181447.00,1,0.8,-0.9,-0.1,0.1,-0.0,-0.1,-0.1,-0.1,0.6,,,*69
$GPGRS,181447.00,1,0.9,-4.9,4.0,0.4,-0.3,0.8,-0.5,-1.5,,,,*4F
$GPGRS,181447.00,1,0.0,0.3,0.2,-0.5,0.0,,,,,,,*46
$GPGRS,181447.00,1,0.6,1.0,0.6,0.2,-0.8,-0.3,-1.7,-0.4,0.3,-0.3,-0.1,0.3*49
$GPGRS,181447.00,1,0.1,-1.6,,,,,,,,,,*6A
$GPGSV,5,1,20,18,74,067,49,23,35,145,44,05,16,038,40,27,26,284,43*7B
$GPGSV,5,2,20,31,17,225,42,29,29,088,44,16,55,297,47,26,67,228,50*7B
$GPGSV,5,3,20,28,02,204,31,10,07,175,39,15,02,089,37,36,35,170,45*79
$GPGSV,5,4,20,58,13,245,37,40,24,133,35,34,31,208,42,49,34,195,44*79
$GPGSV,5,5,20,57,08,111,37,41,07,108,34,61,03,257,38*47
$GLGSV,3,1,09,82,73,341,51,66,18,074,45,65,14,024,40,79,18,175,47*6A
$GLGSV,3,2,09,83,44,258,40,73,37,317,49,81,34,049,49,80,61,224,53*66
$GLGSV,3,3,09,67,02,121,*5D
$GAGSV,3,1,09,13,70,213,48,23,20,313,,26,17,225,39,27,47,156,46*63
$GAGSV,3,2,09,15,52,054,45,21,68,280,48,05,01,038,,30,00,142,*63
$GAGSV,3,3,09,34,03,048,34*5E
$GBGSV,6,1,24,43,77,043,51,05,22,129,38,60,11,109,40,38,26,039,43*62
$GBGSV,6,2,24,42,17,113,42,21,20,063,42,50,21,087,,23,43,218,49*67
$GBGSV,6,3,24,37,39,292,47,34,29,071,46,08,39,047,42,31,37,052,*62
$GBGSV,6,4,24,28,34,260,46,27,38,249,,13,44,057,45,11,54,061,48*6E
$GBGSV,6,5,24,12,03,071,34,14,07,137,,22,03,017,38,02,07,106,34*63
$GBGSV,6,6,24,46,02,331,,25,09,177,41,58,06,326,,07,09,106,*63
$GPGGA,181447.00,,,,,0,00,,,M,,M,,*47
$PTNL,GGK,181447.00,010125,4742.1604163,N,01618.1000364,E,1,36,0.8,EHT751.7970,M*4E
$GPGGQ,181447.00,010125,4742.1604163,N,01618.1000364,E,1,36,0.903,708.5905,M*3E
$GPGFA,181447.00,4.208,5.867,0.443,0.329,1.930,0.716,,VVV*0E
$GPLLK,181447.00,010125,,M,,M,1,36,1.0,,M*00
$GNGMP,181447.00,,,,,DAAA,36,0.5,,,,*59
$GPGMP,181447.00,,,,,,09,,,,2.1,136*7C
$GLGMP,181447.00,,,,,,08,,,,,*78
$GAGMP,181447.00,,,,,,05,,,,,*78
$GBGMP,181447.00,,,,,,14,,,,,*7B
$PSSN,SNC,[0,324905000,2347]*4D
$GPZDA,181452.00,01,01,2025,,*68
$GPDTM,W84,,00.0000000,N,00.0000000,E,00.0000000,W84*5F
$PSSN,TFM,181452.00,,,,*64
$GPRMC,181452.00,A,4742.1604140,N,01618.1000382,E,0.0,,010125,5.1,E,D*13
$GPGLL,4742.1604140,N,01618.1000382,E,181452.00,A,D*62
$GPGGA,181452.00,4742.1604140,N,01618.1000382,E,2,36,0.5,708.5920,M,43.2066,M,2.2,0136*4F
$GNGNS,181452.00,4742.1604140,N,01618.1000382,E,DAAA,36,0.5,708.5920,43.2066,,*57
$GPGNS,181452.00,,,,,,09,,,,2.2,136*7B
$GLGNS,181452.00,,,,,,08,,,,,*7C
$GAGNS,181452.00,,,,,,05,,,,,*7C
$GBGNS,181452.00,,,,,,14,,,,,*7F
$GPLLQ,181452.00,010125,,M,,M,1,36,0.888,,M*17
$GPVTG,,T,,M,0.00,N,0.01,K,D*27
$GPHDT,,T*1B
$GPTHS,,V*0E
$GPROT,,V*08
$PSSN,HRP,181452.00,010125,,,,,,,00,0,,*6A
$PTNL,AVR,181452.00,,Yaw,,Tilt,,,,0,,00*3C
$GPGSA,A,3,05,10,16,18,23,26,27,29,31,,,,0.8,0.5,0.7*3B
$GPGSA,A,3,65,66,73,79,80,81,82,83,,,,,0.8,0.5,0.7*31
$GPGSA,A,3,13,15,21,26,27,,,,,,,,0.8,0.5,0.7*3C
$GPGSA,A,3,05,08,11,13,21,23,25,28,34,37,38,42,0.8,0.5,0.7*36
$GPGSA,A,3,43,60,,,,,,,,,,,0.8,0.5,0.7*39
$GPGST,181452.00,1.324,0.436,0.325,3.476,0.436,0.326,0.702*58
$GPGBS,181452.00,2.732,1.928,3.962,66,0.0001,-4.578,6.324*7D
$GPGRS,181452.00,1,-0.0,-1.0,0.1,0.1,-0.1,0.0,-0.2,-0.2,0.6,,,*40
$GPGRS,181452.00,1,0.9,-4.6,3.8,-1.1,-0.3,0.8,-0.6,-1.6,,,,*62
$GPGRS,181452.00,1,0.0,0.3,0.1,-0.0,0.0,,,,,,,*44
$GPGRS,181452.00,1,0.5,0.8,1.0,0.2,-0.8,-0.3,-1.7,-0.3,0.2,-0.2,-0.2,0.3*44
$GPGRS,181452.00,1,0.2,-1.5,,,,,,,,,,*6E
$GPGSV,5,1,20,18,74,067,49,23,35,145,45,05,16,038,40,27,26,285,43*7B
$GPGSV,5,2,20,31,17,225,43,29,29,088,44,16,55,297,47,26,67,228,50*7A
$GPGSV,5,3,20,28,02,204,31,10,08,175,39,15,02,089,36,36,35,170,45*77
$GPGSV,5,4,20,58,13,245,37,40,24,133,36,34,31,208,42,49,34,195,44*7A
$GPGSV,5,5,20,57,08,111,37,41,07,108,34,61,03,257,38*47
$GLGSV,3,1,09,82,73,341,51,66,18,074,46,65,14,024,40,79,18,175,45*6B
$GLGSV,3,2,09,83,44,258,41,73,37,317,49,81,34,049,49,80,61,224,53*67
$GLGSV,3,3,09,67,02,120,*5C
$GAGSV,3,1,09,13,70,213,48,23,20,313,,26,17,225,40,27,47,156,46*6D
$GAGSV,3,2,09,15,52,054,45,21,68,280,48,05,01,038,,30,00,142,*63
$GAGSV,3,3,09,34,03,048,35*5F
$GBGSV,6,1,24,43,77,044,51,05,22,129,38,60,11,109,40,38,26,039,43*65
$GBGSV,6,2,24,42,17,113,42,21,20,063,42,50,21,087,,23,43,218,49*67
$GBGSV,6,3,24,37,39,292,47,34,29,071,45,08,39,047,43,31,37,052,*60
$GBGSV,6,4,24,28,34,260,47,27,38,249,,13,44,057,45,11,54,061,48*6F
$GBGSV,6,5,24,12,03,071,35,14,07,137,,22,03,017,39,02,07,106,34*63
$GBGSV,6,6,24,46,02,331,,25,09,177,41,58,06,326,,07,09,106,*63
$GPGGA,181452.00,,,,,0,00,,,M,,M,,*43
$PTNL,GGK,181452.00,010125,4742.1604140,N,01618.1000382,E,1,36,0.8,EHT751.7986,M*4A
$GPGGQ,181452.00,010125,4742.1604140,N,01618.1000382,E,1,36,0.888,708.5920,M*36
$GPGFA,181452.00,4.145,5.760,0.436,0.325,3.476,0.702,,VVV*0E
$GPLLK,181452.00,010125,,M,,M,1,36,1.0,,M*04
$GNGMP,181452.00,,,,,DAAA,36,0.5,,,,*5D
$GPGMP,181452.00,,,,,,09,,,,2.2,136*7B
$GLGMP,181452.00,,,,,,08,,,,,*7C
$GAGMP,181452.00,,,,,,05,,,,,*7C
$GBGMP,181452.00,,,,,,14,,,,,*7F
$PSSN,SNC,[0,324910000,2347]*49
$GPZDA,181457.00,01,01,2025,,*6D
$GPDTM,W84,,00.0000000,N,00.0000000,E,00.0000000,W84*5F
$PSSN,TFM,181457.00,,,,*61
$GPRMC,181457.00,A,4742.1604154,N,01618.1000405,E,0.0,,010125,5.1,E,D*1B
$GPGLL,4742.1604154,N,01618.1000405,E,181457.00,A,D*6A
$GPGGA,181457.00,4742.1604154,N,01618.1000405,E,2,36,0.5,708.5938,M,43.2066,M,2.3,0136*4F
$GNGNS,181457.00,4742.1604154,N,01618.1000405,E,DAAA,36,0.5,708.5938,43.2066,,*56
$GPGNS,181457.00,,,,,,09,,,,2.3,136*7F
$GLGNS,181457.00,,,,,,08,,,,,*79
$GAGNS,181457.00,,,,,,05,,,,,*79
$GBGNS,181457.00,,,,,,14,,,,,*7A
$GPLLQ,181457.00,010125,,M,,M,1,36,0.896,,M*1D
$GPVTG,,T,,M,0.00,N,0.00,K,D*26
$GPHDT,,T*1B
$GPTHS,,V*0E
$GPROT,,V*08
$PSSN,HRP,181457.00,010125,,,,,,,00,0,,*6F
$PTNL,AVR,181457.00,,Yaw,,Tilt,,,,0,,00*39
$GPGSA,A,3,05,10,16,18,23,26,27,29,31,,,,0.8,0.5,0.7*3B
$GPGSA,A,3,65,66,73,79,80,81,82,83,,,,,0.8,0.5,0.7*31
$GPGSA,A,3,13,15,21,26,27,,,,,,,,0.8,0.5,0.7*3C
$GPGSA,A,3,05,08,11,13,21,23,25,28,34,37,38,42,0.8,0.5,0.7*36
$GPGSA,A,3,43,60,,,,,,,,,,,0.8,0.5,0.7*39
$GPGST,181457.00,1.321,0.438,0.328,2.137,0.438,0.328,0.709*51
$GPGBS,181457.00,2.747,1.977,4.015,31,0.0001,0.845,1.041*51
$GPGRS,181457.00,1,-0.2,-0.7,0.2,-0.1,0.4,-0.3,-0.3,-0.1,0.8,,,*65
$GPGRS,181457.00,1,2.1,-4.0,4.2,-0.7,-0.2,1.1,0.1,-1.0,,,,*44
$GPGRS,181457.00,1,0.2,0.2,0.1,0.1,0.0,,,,,,,*6E
$GPGRS,181457.00,1,1.2,0.9,1.0,0.3,-0.2,-0.3,-1.6,-0.0,0.3,-0.0,-0.1,-0.3*62
$GPGRS,181457.00,1,0.3,-1.4,,,,,,,,,,*6B
$GPGSV,5,1,20,18,74,067,49,23,35,145,45,05,16,038,40,27,26,285,43*7B
$GPGSV,5,2,20,31,17,225,43,29,29,089,43,16,55,297,47,26,67,228,50*7C
$GPGSV,5,3,20,28,02,204,32,10,08,175,39,15,02,089,35,36,35,170,45*77
$GPGSV,5,4,20,58,13,245,37,40,24,133,35,34,31,208,42,49,34,195,44*79
$GPGSV,5,5,20,57,08,111,37,41,07,108,34,61,03,257,38*47
$GLGSV,3,1,09,82,73,341,51,66,18,074,46,65,14,024,40,79,18,175,46*68
$GLGSV,3,2,09,83,44,258,41,73,37,317,49,81,34,049,49,80,61,224,53*67
$GLGSV,3,3,09,67,02,120,*5C
$GAGSV,3,1,09,13,70,213,48,23,20,313,,26,17,225,40,27,47,156,46*6D
$GAGSV,3,2,09,15,52,054,45,21,68,280,48,05,01,038,,30,00,142,*63
$GAGSV,3,3,09,34,03,048,35*5F
$GBGSV,6,1,24,43,77,044,51,05,22,129,38,60,11,109,40,38,26,039,43*65
$GBGSV,6,2,24,42,17,113,42,21,20,063,42,50,21,087,,23,43,218,48*66
$GBGSV,6,3,24,37,39,292,47,34,29,071,45,08,39,047,42,31,37,052,*61
$GBGSV,6,4,24,28,34,260,46,27,38,249,,13,44,057,45,11,53,061,47*66
$GBGSV,6,5,24,12,03,071,35,14,07,137,,22,03,017,38,02,07,106,34*62
$GBGSV,6,6,24,46,02,331,,25,09,177,41,58,06,326,,07,09,106,*63
$GPGGA,181457.00,,,,,0,00,,,M,,M,,*46
$PTNL,GGK,181457.00,010125,4742.1604154,N,01618.1000405,E,1,36,0.8,EHT751.8004,M*4E
$GPGGQ,181457.00,010125,4742.1604154,N,01618.1000405,E,1,36,0.896,708.5938,M*38
$GPGFA,181457.00,4.165,5.814,0.438,0.328,2.137,0.709,,VVV*0C
$GPLLK,181457.00,010125,,M,,M,1,36,1.0,,M*01
$GNGMP,181457.00,,,,,DAAA,36,0.5,,,,*58
$GPGMP,181457.00,,,,,,09,,,,2.3,136*7F
$GLGMP,181457.00,,,,,,08,,,,,*79
$GAGMP,181457.00,,,,,,05,,,,,*79
$GBGMP,181457.00,,,,,,14,,,,,*7A
$PSSN,SNC,[0,324915000,2347]*4C
$GPZDA,181502.00,01,01,2025,,*6C
$GPDTM,W84,,00.0000000,N,00.0000000,E,00.0000000,W84*5F
$PSSN,TFM,181502.00,,,,*60
$GPRMC,181502.00,A,4742.1604148,N,01618.1000418,E,0.0,,010125,5.1,E,D*1B
$GPGLL,4742.1604148,N,01618.1000418,E,181502.00,A,D*6A
$GPGGA,181502.00,4742.1604148,N,01618.1000418,E,2,36,0.5,708.5969,M,43.2066,M,3.3,0136*4A
$GNGNS,181502.00,4742.1604148,N,01618.1000418,E,DAAA,36,0.5,708.5969,43.2066,,*52
$GPGNS,181502.00,,,,,,09,,,,3.3,136*7F
$GLGNS,181502.00,,,,,,08,,,,,*78
$GAGNS,181502.00,,,,,,05,,,,,*78
$GBGNS,181502.00,,,,,,14,,,,,*7B
$GPLLQ,181502.00,010125,,M,,M,1,36,0.906,,M*14
$GPVTG,,T,,M,0.00,N,0.00,K,D*26
$GPHDT,,T*1B
$GPTHS,,V*0E
$GPROT,,V*08
$PSSN,HRP,181502.00,010125,,,,,,,00,0,,*6E
$PTNL,AVR,181502.00,,Yaw,,Tilt,,,,0,,00*38
$GPGSA,A,3,05,10,16,18,23,26,27,29,31,,,,0.8,0.5,0.7*3B
$GPGSA,A,3,65,66,73,79,80,81,82,83,,,,,0.8,0.5,0.7*31
$GPGSA,A,3,13,15,21,26,27,,,,,,,,0.8,0.5,0.7*3C
$GPGSA,A,3,05,08,11,13,21,23,25,28,34,37,38,42,0.8,0.5,0.7*36
$GPGSA,A,3,43,60,,,,,,,,,,,0.8,0.5,0.7*39
$GPGST,181502.00,1.326,0.443,0.330,0.764,0.443,0.330,0.719*54
$GPGBS,181502.00,2.795,2.012,4.091,16,0.0001,0.496,0.677*5F
$GPGRS,181502.00,1,0.4,-0.8,0.5,-0.1,0.2,-0.2,-0.5,-0.5,0.4,,,*4E
$GPGRS,181502.00,1,2.2,-3.9,4.0,0.4,-0.2,1.3,-0.1,-1.4,,,,*4F
$GPGRS,181502.00,1,0.2,0.4,-0.1,-0.0,-0.1,,,,,,,*44
$GPGRS,181502.00,1,1.3,1.0,0.8,0.1,-0.1,-0.3,-1.7,-0.5,0.2,-0.1,0.1,-0.3*4B
$GPGRS,181502.00,1,0.1,-1.3,,,,,,,,,,*6F
$GPGSV,5,1,20,18,74,067,49,23,35,145,45,05,16,038,40,27,26,285,43*7B
$GPGSV,5,2,20,31,17,225,42,29,29,089,43,16,55,297,48,26,67,228,50*72
$GPGSV,5,3,20,28,02,204,31,10,08,175,39,15,02,089,36,36,35,170,45*77
$GPGSV,5,4,20,58,13,245,37,40,24,133,36,34,31,208,42,49,34,195,44*7A
$GPGSV,5,5,20,57,08,111,37,41,07,108,34,61,03,257,38*47
$GLGSV,3,1,09,82,73,341,51,66,18,074,46,65,14,024,40,79,18,175,46*68
$GLGSV,3,2,09,83,44,258,40,73,37,317,49,81,34,049,49,80,61,224,53*66
$GLGSV,3,3,09,67,02,120,*5C
$GAGSV,3,1,09,13,70,213,48,23,20,313,,26,17,225,40,27,47,156,47*6C
$GAGSV,3,2,09,15,52,054,46,21,68,280,48,05,01,038,,30,00,142,*60
$GAGSV,3,3,09,34,03,048,35*5F
$GBGSV,6,1,24,43,77,044,51,05,22,129,38,60,11,109,40,38,26,039,43*65
$GBGSV,6,2,24,42,17,113,42,21,20,063,42,50,21,087,,23,43,218,48*66
$GBGSV,6,3,24,37,39,292,47,34,29,071,45,08,39,047,43,31,37,052,*60
$GBGSV,6,4,24,28,34,260,46,27,38,249,,13,44,057,45,11,53,061,47*66
$GBGSV,6,5,24,12,03,071,35,14,07,137,,22,03,017,39,02,07,106,34*63
$GBGSV,6,6,24,46,02,331,,25,08,177,41,58,06,326,,07,09,106,*62
$GPGGA,181502.00,,,,,0,00,,,M,,M,,*47
$PTNL,GGK,181502.00,010125,4742.1604148,N,01618.1000418,E,1,36,0.8,EHT751.8034,M*4D
$GPGGQ,181502.00,010125,4742.1604148,N,01618.1000418,E,1,36,0.906,708.5969,M*34
$GPGFA,181502.00,4.212,5.893,0.443,0.330,0.764,0.719,,VVV*07
$GPLLK,181502.00,010125,,M,,M,1,36,1.0,,M*00
$GNGMP,181502.00,,,,,DAAA,36,0.5,,,,*59
$GPGMP,181502.00,,,,,,09,,,,3.3,136*7F
$GLGMP,181502.00,,,,,,08,,,,,*78
$GAGMP,181502.00,,,,,,05,,,,,*78
$GBGMP,181502.00,,,,,,14,,,,,*7B
$PSSN,SNC,[0,324920000,2347]*4A
$GPZDA,181507.00,01,01,2025,,*69
$GPDTM,W84,,00.0000000,N,00.0000000,E,00.0000000,W84*5F
$PSSN,TFM,181507.00,,,,*65
$GPRMC,181507.00,A,4742.1604129,N,01618.1000443,E,0.0,,010125,5.1,E,D*17
$GPGLL,4742.1604129,N,01618.1000443,E,181507.00,A,D*66
$GPGGA,181507.00,4742.1604129,N,01618.1000443,E,2,36,0.5,708.5952,M,43.2066,M,2.1,0136*4D
$GNGNS,181507.00,4742.1604129,N,01618.1000443,E,DAAA,36,0.5,708.5952,43.2066,,*56
$GPGNS,181507.00,,,,,,09,,,,2.1,136*79
$GLGNS,181507.00,,,,,,08,,,,,*7D
$GAGNS,181507.00,,,,,,05,,,,,*7D
$GBGNS,181507.00,,,,,,14,,,,,*7E
$GPLLQ,181507.00,010125,,M,,M,1,36,0.904,,M*13
$GPVTG,,T,,M,0.00,N,0.00,K,D*26
$GPHDT,,T*1B
$GPTHS,,V*0E
$GPROT,,V*08
$PSSN,HRP,181507.00,010125,,,,,,,00,0,,*6B
$PTNL,AVR,181507.00,,Yaw,,Tilt,,,,0,,00*3D
$GPGSA,A,3,05,10,16,18,23,26,27,29,31,,,,0.8,0.5,0.7*3B
$GPGSA,A,3,65,66,73,79,80,81,82,83,,,,,0.8,0.5,0.7*31
$GPGSA,A,3,13,15,21,26,27,,,,,,,,0.8,0.5,0.7*3C
$GPGSA,A,3,05,08,11,13,21,23,25,28,34,37,38,42,0.8,0.5,0.7*36
$GPGSA,A,3,43,60,,,,,,,,,,,0.8,0.5,0.7*39
$GPGST,181507.00,1.306,0.442,0.329,2.039,0.442,0.329,0.716*51
$GPGBS,181507.00,2.692,1.927,3.889,66,0.0001,-4.158,6.323*7D
$GPGRS,181507.00,1,0.3,-1.0,0.3,-0.2,0.2,-0.2,0.1,-0.1,0.1,,,*68
$GPGRS,181507.00,1,1.6,-4.2,3.9,0.1,-0.4,1.4,-0.2,-1.7,,,,*4B
$GPGRS,181507.00,1,-0.0,0.3,-0.2,0.1,-0.0,,,,,,,*47
$GPGRS,181507.00,1,0.5,1.4,0.8,-0.3,-0.1,-0.3,-1.7,-0.1,0.0,-0.3,0.0,-0.0*64
$GPGRS,181507.00,1,0.1,-1.4,,,,,,,,,,*6D
$GPGSV,5,1,20,18,74,067,49,23,35,145,45,05,16,038,40,27,26,285,43*7B
$GPGSV,5,2,20,31,17,225,41,29,29,089,43,16,55,296,48,26,66,228,50*71
$GPGSV,5,3,20,28,02,204,31,10,08,175,39,15,02,089,36,36,35,170,44*76
$GPGSV,5,4,20,58,13,245,37,40,24,133,35,34,31,208,42,49,34,195,44*79
$GPGSV,5,5,20,57,08,111,37,41,07,108,34,61,03,257,38*47
$GLGSV,3,1,10,82,73,342,51,66,18,073,45,65,14,024,40,79,18,175,46*67
$GLGSV,3,2,10,83,44,258,40,73,37,317,50,81,34,049,49,80,61,224,53*66
$GLGSV,3,3,10,67,03,120,,74,00,338,*6E
$GAGSV,3,1,09,13,70,213,48,23,20,313,,26,17,225,40,27,47,156,47*6C
$GAGSV,3,2,09,15,52,054,46,21,68,280,48,05,01,038,,30,00,142,*60
$GAGSV,3,3,09,34,03,048,35*5F
$GBGSV,6,1,24,43,77,044,51,05,22,129,37,60,11,109,40,38,26,039,43*6A
$GBGSV,6,2,24,42,17,113,41,21,20,063,42,50,21,087,,23,43,218,48*65
$GBGSV,6,3,24,37,39,292,47,34,29,072,45,08,39,047,43,31,37,052,*63
$GBGSV,6,4,24,28,34,260,46,27,38,249,,13,44,057,45,11,53,061,47*66
$GBGSV,6,5,24,12,03,071,35,14,07,137,,22,03,017,38,02,07,106,34*62
$GBGSV,6,6,24,46,02,331,,25,08,177,41,58,06,326,,07,09,106,*62
$GPGGA,181507.00,,,,,0,00,,,M,,M,,*42
$PTNL,GGK,181507.00,010125,4742.1604129,N,01618.1000443,E,1,36,0.8,EHT751.8018,M*4F
$GPGGQ,181507.00,010125,4742.1604129,N,01618.1000443,E,1,36,0.904,708.5952,M*32
$GPGFA,181507.00,4.205,5.869,0.442,0.329,2.039,0.716,,VVV*0A
$GPLLK,181507.00,010125,,M,,M,1,36,1.0,,M*05
$GNGMP,181507.00,,,,,DAAA,36,0.5,,,,*5C
$GPGMP,181507.00,,,,,,09,,,,2.1,136*79
$GLGMP,181507.00,,,,,,08,,,,,*7D
$GAGMP,181507.00,,,,,,05,,,,,*7D
$GBGMP,181507.00,,,,,,14,,,,,*7E
$PSSN,SNC,[0,324925000,2347]*4F
$GPZDA,181512.00,01,01,2025,,*6D
$GPDTM,W84,,00.0000000,N,00.0000000,E,00.0000000,W84*5F
$PSSN,TFM,181512.00,,,,*61
$GPRMC,181512.00,A,4742.1604113,N,01618.1000430,E,0.0,,010125,5.1,E,D*1E
$GPGLL,4742.1604113,N,01618.1000430,E,181512.00,A,D*6F
$GPGGA,181512.00,4742.1604113,N,01618.1000430,E,2,36,0.5,708.5957,M,43.2066,M,2.2,0136*42
$GNGNS,181512.00,4742.1604113,N,01618.1000430,E,DAAA,36,0.5,708.5957,43.2066,,*5A
$GPGNS,181512.00,,,,,,09,,,,2.2,136*7E
$GLGNS,181512.00,,,,,,08,,,,,*79
$GAGNS,181512.00,,,,,,05,,,,,*79
$GBGNS,181512.00,,,,,,14,,,,,*7A
$GPLLQ,181512.00,010125,,M,,M,1,36,0.881,,M*1B
$GPVTG,,T,,M,0.00,N,0.00,K,D*26
$GPHDT,,T*1B
$GPTHS,,V*0E
$GPROT,,V*08
$PSSN,HRP,181512.00,010125,,,,,,,00,0,,*6F
$PTNL,AVR,181512.00,,Yaw,,Tilt,,,,0,,00*39
$GPGSA,A,3,05,10,16,18,23,26,27,29,31,,,,0.8,0.5,0.7*3B
$GPGSA,A,3,65,66,73,79,80,81,82,83,,,,,0.8,0.5,0.7*31
$GPGSA,A,3,13,15,21,26,27,,,,,,,,0.8,0.5,0.7*3C
$GPGSA,A,3,05,08,11,13,21,23,25,28,34,37,38,42,0.8,0.5,0.7*36
$GPGSA,A,3,43,60,,,,,,,,,,,0.8,0.5,0.7*39
$GPGST,181512.00,1.539,0.430,0.325,2.422,0.430,0.325,0.697*59
$GPGBS,181512.00,2.723,1.931,3.974,73,0.0001,4.893,6.101*53
$GPGRS,181512.00,1,-0.0,-1.0,0.2,-0.0,-0.1,-0.1,-0.5,0.2,0.8,,,*62
$GPGRS,181512.00,1,1.8,-4.5,4.9,0.3,-0.5,1.7,-0.3,-2.5,,,,*41
$GPGRS,181512.00,1,0.2,0.1,-0.1,0.7,0.0,,,,,,,*46
$GPGRS,181512.00,1,0.9,1.8,0.4,-0.3,-0.2,-0.3,-1.6,-0.0,0.1,-0.1,-0.2,0.3*6D
$GPGRS,181512.00,1,0.0,-1.4,,,,,,,,,,*68
$GPGSV,5,1,20,18,74,067,49,23,35,145,45,05,16,038,40,27,26,285,43*7B
$GPGSV,5,2,20,31,17,225,41,29,29,089,44,16,55,296,48,26,66,228,50*76
$GPGSV,5,3,20,28,02,204,31,10,08,175,39,15,02,089,36,36,35,170,45*77
$GPGSV,5,4,20,58,13,245,37,40,24,133,35,34,31,208,42,49,34,195,44*79
$GPGSV,5,5,20,57,08,111,37,41,07,108,34,61,03,257,38*47
$GLGSV,3,1,10,82,73,342,51,66,18,073,45,65,14,024,40,79,18,175,46*67
$GLGSV,3,2,10,83,44,258,40,73,37,317,49,81,34,049,50,80,61,224,53*66
$GLGSV,3,3,10,67,03,120,,74,00,338,35*68
$GAGSV,3,1,09,13,70,213,49,23,20,313,,26,17,225,41,27,47,156,47*6C
$GAGSV,3,2,09,15,52,054,46,21,68,280,48,05,01,038,,30,00,142,*60
$GAGSV,3,3,09,34,03,048,34*5E
$GBGSV,6,1,24,43,77,044,51,05,22,129,38,60,11,109,40,38,26,039,42*64
$GBGSV,6,2,24,42,17,113,41,21,20,063,42,50,21,087,,23,43,218,49*64
$GBGSV,6,3,24,37,39,292,47,34,29,072,45,08,39,047,43,31,37,052,*63
$GBGSV,6,4,24,28,34,260,46,27,38,249,,13,44,057,45,11,53,061,47*66
$GBGSV,6,5,24,12,03,071,35,14,07,137,,22,03,017,38,02,07,106,34*62
$GBGSV,6,6,24,46,02,331,,25,08,177,41,58,06,326,,07,09,106,*62
$GPGGA,181512.00,,,,,0,00,,,M,,M,,*46
$PTNL,GGK,181512.00,010125,4742.1604113,N,01618.1000430,E,1,36,0.8,EHT751.8023,M*4E
$GPGGQ,181512.00,010125,4742.1604113,N,01618.1000430,E,1,36,0.881,708.5957,M*32
$GPGFA,181512.00,4.086,5.713,0.430,0.325,2.422,0.697,,VVV*0A
$GPLLK,181512.00,010125,,M,,M,1,36,1.0,,M*01
$GNGMP,181512.00,,,,,DAAA,36,0.5,,,,*58
$GPGMP,181512.00,,,,,,09,,,,2.2,136*7E
$GLGMP,181512.00,,,,,,08,,,,,*79
$GAGMP,181512.00,,,,,,05,,,,,*79
$GBGMP,181512.00,,,,,,14,,,,,*7A
$PSSN,SNC,[0,324930000,2347]*4B
$GPZDA,181517.00,01,01,2025,,*68
$GPDTM,W84,,00.0000000,N,00.0000000,E,00.0000000,W84*5F
$PSSN,TFM,181517.00,,,,*64
$GPRMC,181517.00,A,4742.1604109,N,01618.1000449,E,0.0,,010125,5.1,E,D*1E
$GPGLL,4742.1604109,N,01618.1000449,E,181517.00,A,D*6F
$GPGGA,181517.00,4742.1604109,N,01618.1000449,E,2,36,0.5,708.5977,M,43.2066,M,2.3,0136*41
$GNGNS,181517.00,4742.1604109,N,01618.1000449,E,DAAA,36,0.5,708.5977,43.2066,,*58
$GPGNS,181517.00,,,,,,09,,,,2.3,136*7A
$GLGNS,181517.00,,,,,,08,,,,,*7C
$GAGNS,181517.00,,,,,,05,,,,,*7C
$GBGNS,181517.00,,,,,,14,,,,,*7F
$GPLLQ,181517.00,010125,,M,,M,1,36,0.888,,M*17
$GPVTG,,T,,M,0.00,N,0.01,K,D*27
$GPHDT,,T*1B
$GPTHS,,V*0E
$GPROT,,V*08
$PSSN,HRP,181517.00,010125,,,,,,,00,0,,*6A
$PTNL,AVR,181517.00,,Yaw,,Tilt,,,,0,,00*3C
$GPGSA,A,3,05,10,16,18,23,26,27,29,31,,,,0.8,0.5,0.7*3B
$GPGSA,A,3,65,66,73,79,80,81,82,83,,,,,0.8,0.5,0.7*31
$GPGSA,A,3,13,15,21,26,27,,,,,,,,0.8,0.5,0.7*3C
$GPGSA,A,3,05,08,11,13,21,23,25,28,34,37,38,42,0.8,0.5,0.7*36
$GPGSA,A,3,43,60,,,,,,,,,,,0.8,0.5,0.7*39
$GPGST,181517.00,1.436,0.432,0.327,1.051,0.432,0.327,0.703*5D
$GPGBS,181517.00,2.740,1.945,4.023,31,0.0001,1.012,1.046*5B
$GPGRS,181517.00,1,0.1,-0.8,0.0,0.0,-0.1,0.1,-0.4,-0.0,1.0,,,*67
$GPGRS,181517.00,1,0.3,-4.3,4.3,-0.1,-0.1,1.7,-0.3,-2.7,,,,*6B
$GPGRS,181517.00,1,0.1,0.2,0.0,0.6,-0.0,,,,,,,*43
$GPGRS,181517.00,1,1.0,2.0,0.9,-0.1,-0.1,-0.1,-1.4,0.4,0.1,-0.3,0.2,0.7*65
$GPGRS,181517.00,1,0.2,-1.4,,,,,,,,,,*6F
$GPGSV,5,1,20,18,74,067,49,23,35,145,44,05,16,038,39,27,26,285,43*74
$GPGSV,5,2,20,31,17,225,43,29,28,089,44,16,55,296,48,26,66,227,50*7A
$GPGSV,5,3,20,28,02,204,31,10,08,175,39,15,02,089,37,36,35,170,45*76
$GPGSV,5,4,20,58,13,245,37,40,24,133,36,34,31,208,42,49,34,195,44*7A
$GPGSV,5,5,20,57,08,111,37,41,07,108,34,61,03,257,38*47
$GLGSV,3,1,10,82,73,342,51,66,18,073,45,65,14,024,41,79,18,175,46*66
$GLGSV,3,2,10,83,44,258,40,73,37,317,49,81,34,049,49,80,61,223,53*69
$GLGSV,3,3,10,67,03,120,,74,00,338,35*68
$GAGSV,2,1,08,13,70,213,49,23,20,313,,26,17,225,41,27,47,156,47*6C
$GAGSV,2,2,08,15,52,054,46,21,68,280,48,05,01,038,,34,03,048,34*6B
$GBGSV,6,1,24,43,77,044,51,05,22,129,37,60,11,109,40,38,26,039,43*6A
$GBGSV,6,2,24,42,17,113,41,21,20,063,43,50,21,087,,23,43,218,49*65
$GBGSV,6,3,24,37,39,292,47,34,29,072,45,08,39,047,43,31,37,052,*63
$GBGSV,6,4,24,28,34,260,47,27,38,249,,13,44,057,45,11,53,061,48*68
$GBGSV,6,5,24,12,03,071,35,14,07,137,,22,03,016,38,02,07,106,34*63
$GBGSV,6,6,24,46,02,331,,25,08,177,41,58,07,326,,07,09,106,*63
$GPGGA,181517.00,,,,,0,00,,,M,,M,,*43
$PTNL,GGK,181517.00,010125,4742.1604109,N,01618.1000449,E,1,36,0.8,EHT751.8042,M*49
$GPGGQ,181517.00,010125,4742.1604109,N,01618.1000449,E,1,36,0.888,708.5977,M*39
$GPGFA,181517.00,4.108,5.768,0.432,0.327,1.051,0.703,,VVV*0B
$GPLLK,181517.00,010125,,M,,M,1,36,1.0,,M*04
$GNGMP,181517.00,,,,,DAAA,36,0.5,,,,*5D
$GPGMP,181517.00,,,,,,09,,,,2.3,136*7A
$GLGMP,181517.00,,,,,,08,,,,,*7C
$GAGMP,181517.00,,,,,,05,,,,,*7C
$GBGMP,181517.00,,,,,,14,,,,,*7F
$PSSN,SNC,[0,324935000,2347]*4E
$GPZDA,181522.00,01,01,2025,,*6E
$GPDTM,W84,,00.0000000,N,00.0000000,E,00.0000000,W84*5F
$PSSN,TFM,181522.00,,,,*62
$GPRMC,181522.00,A,4742.1604116,N,01618.1000459,E,0.0,,010125,5.1,E,D*17
$GPGLL,4742.1604116,N,01618.1000459,E,181522.00,A,D*66
$GPGGA,181522.00,4742.1604116,N,01618.1000459,E,2,36,0.5,708.5922,M,43.2066,M,3.3,0136*49
$GNGNS,181522.00,4742.1604116,N,01618.1000459,E,DAAA,36,0.5,708.5922,43.2066,,*51
$GPGNS,181522.00,,,,,,09,,,,3.3,136*7D
$GLGNS,181522.00,,,,,,08,,,,,*7A
$GAGNS,181522.00,,,,,,05,,,,,*7A
$GBGNS,181522.00,,,,,,14,,,,,*79
$GPLLQ,181522.00,010125,,M,,M,1,36,0.898,,M*10
$GPVTG,,T,,M,0.00,N,0.00,K,D*26
$GPHDT,,T*1B
$GPTHS,,V*0E
$GPROT,,V*08
$PSSN,HRP,181522.00,010125,,,,,,,00,0,,*6C
$PTNL,AVR,181522.00,,Yaw,,Tilt,,,,0,,00*3A
$GPGSA,A,3,05,10,16,18,23,26,27,29,31,,,,0.8,0.5,0.7*3B
$GPGSA,A,3,65,66,73,79,80,81,82,83,,,,,0.8,0.5,0.7*31
$GPGSA,A,3,13,15,21,26,27,,,,,,,,0.8,0.5,0.7*3C
$GPGSA,A,3,05,08,11,13,21,23,25,28,34,37,38,42,0.8,0.5,0.7*36
$GPGSA,A,3,43,60,,,,,,,,,,,0.8,0.5,0.7*39
$GPGST,181522.00,1.468,0.437,0.329,359.627,0.437,0.329,0.713*58
$GPGBS,181522.00,2.787,1.979,4.097,66,0.0001,-4.863,6.322*74
$GPGRS,181522.00,1,0.0,-1.2,0.3,0.2,-0.0,-0.1,-0.6,-0.3,0.7,,,*41
$GPGRS,181522.00,1,2.0,-4.9,4.2,-0.0,0.1,0.9,-0.4,-1.8,,,,*4F
$GPGRS,181522.00,1,0.0,0.1,-0.0,-0.1,0.1,,,,,,,*6C
$GPGRS,181522.00,1,1.1,2.0,1.5,0.0,-0.4,-0.1,-1.2,0.2,0.1,-0.2,0.0,0.7*45
$GPGRS,181522.00,1,0.3,-1.2,,,,,,,,,,*6E
$GPGSV,5,1,20,18,74,067,49,23,35,145,45,05,16,038,40,27,26,285,43*7B
$GPGSV,5,2,20,31,17,225,42,29,28,089,44,16,55,296,48,26,66,227,50*7B
$GPGSV,5,3,20,28,02,204,31,10,08,175,39,15,02,089,37,36,35,170,45*76
$GPGSV,5,4,20,58,13,245,37,40,24,133,36,34,31,208,42,49,34,195,44*7A
$GPGSV,5,5,20,57,08,111,37,41,07,108,34,61,03,257,38*47
$GLGSV,3,1,10,82,72,342,51,66,18,073,44,65,14,024,40,79,18,175,46*67
$GLGSV,3,2,10,83,44,259,41,73,37,317,49,81,33,049,49,80,61,223,53*6E
$GLGSV,3,3,10,67,03,120,,74,00,338,35*68
$GAGSV,2,1,08,13,70,213,49,23,20,313,,26,17,225,40,27,47,156,47*6D
$GAGSV,2,2,08,15,52,053,46,21,68,280,48,05,01,038,,34,03,048,33*6B
$GBGSV,6,1,24,43,77,044,51,05,22,129,38,60,11,109,40,38,26,039,43*65
$GBGSV,6,2,24,42,17,113,41,21,20,063,43,50,21,087,,23,43,218,49*65
$GBGSV,6,3,24,37,39,292,47,34,29,072,45,08,39,047,43,31,37,052,*63
$GBGSV,6,4,24,28,34,260,46,27,38,249,,13,44,057,45,11,53,061,47*66
$GBGSV,6,5,24,12,03,071,36,14,07,137,,22,03,016,37,02,07,106,34*6F
$GBGSV,6,6,24,46,02,331,,25,08,177,41,58,07,326,,07,09,107,*62
$GPGGA,181522.00,,,,,0,00,,,M,,M,,*45
$PTNL,GGK,181522.00,010125,4742.1604116,N,01618.1000459,E,1,36,0.8,EHT751.7988,M*40
$GPGGQ,181522.00,010125,4742.1604116,N,01618.1000459,E,1,36,0.898,708.5922,M*31
$GPGFA,181522.00,4.154,5.845,0.437,0.329,359.627,0.713,,VVV*07
$GPLLK,181522.00,010125,,M,,M,1,36,1.0,,M*02
$GNGMP,181522.00,,,,,DAAA,36,0.5,,,,*5B
$GPGMP,181522.00,,,,,,09,,,,3.3,136*7D
$GLGMP,181522.00,,,,,,08,,,,,*7A
$GAGMP,181522.00,,,,,,05,,,,,*7A
$GBGMP,181522.00,,,,,,14,,,,,*79
$PSSN,SNC,[0,324940000,2347]*4C
$GPZDA,181527.00,01,01,2025,,*6B
$GPDTM,W84,,00.0000000,N,00.0000000,E,00.0000000,W84*5F
$PSSN,TFM,181527.00,,,,*67
$GPRMC,181527.00,A,4742.1604117,N,01618.1000428,E,0.0,,010125,5.1,E,D*15
$GPGLL,4742.1604117,N,01618.1000428,E,181527.00,A,D*64
$GPGGA,181527.00,4742.1604117,N,01618.1000428,E,2,36,0.5,708.5876,M,43.2066,M,2.1,0136*48
$GNGNS,181527.00,4742.1604117,N,01618.1000428,E,DAAA,36,0.5,708.5876,43.2066,,*53
$GPGNS,181527.00,,,,,,09,,,,2.1,136*7B
$GLGNS,181527.00,,,,,,08,,,,,*7F
$GAGNS,181527.00,,,,,,05,,,,,*7F
$GBGNS,181527.00,,,,,,14,,,,,*7C
$GPLLQ,181527.00,010125,,M,,M,1,36,0.895,,M*18
$GPVTG,,T,,M,0.00,N,0.01,K,D*27
$GPHDT,,T*1B
$GPTHS,,V*0E
$GPROT,,V*08
$PSSN,HRP,181527.00,010125,,,,,,,00,0,,*69
$PTNL,AVR,181527.00,,Yaw,,Tilt,,,,0,,00*3F
$GPGSA,A,3,05,10,16,18,23,26,27,29,31,,,,0.8,0.5,0.7*3B
$GPGSA,A,3,65,66,73,79,80,81,82,83,,,,,0.8,0.5,0.7*31
$GPGSA,A,3,13,15,21,26,27,,,,,,,,0.8,0.5,0.7*3C
$GPGSA,A,3,05,08,11,13,21,23,25,28,34,37,38,42,0.8,0.5,0.7*36
$GPGSA,A,3,43,60,,,,,,,,,,,0.8,0.5,0.7*39
$GPGST,181527.00,1.491,0.436,0.329,0.894,0.436,0.329,0.710*51
$GPGBS,181527.00,2.688,1.891,3.901,27,0.0001,-0.723,0.835*78
$GPGRS,181527.00,1,0.4,-1.1,0.2,0.2,0.5,-0.1,-0.7,-0.5,-0.0,,,*47
$GPGRS,181527.00,1,2.5,-5.3,3.9,-0.3,-0.3,0.6,-0.2,-1.5,,,,*60
$GPGRS,181527.00,1,0.2,0.1,-0.1,-0.1,0.1,,,,,,,*6A
$GPGRS,181527.00,1,0.9,2.1,0.7,-0.1,0.1,-0.3,-1.3,-0.4,-0.2,-0.3,0.2,-0.5*65
$GPGRS,181527.00,1,0.1,-1.1,,,,,,,,,,*6A
$GPGSV,5,1,20,18,74,067,49,23,35,145,45,05,16,038,40,27,26,285,43*7B
$GPGSV,5,2,20,31,17,225,42,29,28,089,44,16,55,296,48,26,66,227,50*7B
$GPGSV,5,3,20,28,02,204,31,10,08,175,39,15,02,089,37,36,35,170,45*76
$GPGSV,5,4,20,58,13,245,37,40,24,133,35,34,31,208,42,49,34,195,44*79
$GPGSV,5,5,20,57,08,111,37,41,07,108,34,61,03,257,38*47
$GLGSV,3,1,10,82,72,342,51,66,18,073,44,65,14,024,40,79,18,175,45*64
$GLGSV,3,2,10,83,44,259,40,73,37,317,49,81,33,049,49,80,61,223,53*6F
$GLGSV,3,3,10,67,03,120,,74,00,338,35*68
$GAGSV,2,1,08,13,70,213,49,23,20,313,,26,17,225,40,27,47,156,47*6D
$GAGSV,2,2,08,15,52,053,46,21,68,280,48,05,01,038,,34,03,048,33*6B
$GBGSV,6,1,24,43,77,044,51,05,22,129,38,60,11,109,40,38,26,039,43*65
$GBGSV,6,2,24,42,17,113,41,21,20,063,44,50,21,087,,23,43,218,49*62
$GBGSV,6,3,24,37,39,292,47,34,29,072,45,08,39,047,43,31,37,052,*63
$GBGSV,6,4,24,28,34,260,46,27,38,249,,13,44,057,45,11,53,061,47*66
$GBGSV,6,5,24,12,03,071,36,14,07,137,,22,03,016,38,02,07,106,34*60
$GBGSV,6,6,24,46,02,331,,25,08,177,41,58,07,326,,07,09,107,*62
$GPGGA,181527.00,,,,,0,00,,,M,,M,,*40
$PTNL,GGK,181527.00,010125,4742.1604117,N,01618.1000428,E,1,36,0.8,EHT751.7942,M*44
$GPGGQ,181527.00,010125,4742.1604117,N,01618.1000428,E,1,36,0.895,708.5876,M*3E
$GPGFA,181527.00,4.145,5.820,0.436,0.329,0.894,0.710,,VVV*0A
$GPLLK,181527.00,010125,,M,,M,1,36,1.0,,M*07
$GNGMP,181527.00,,,,,DAAA,36,0.5,,,,*5E
$GPGMP,181527.00,,,,,,09,,,,2.1,136*7B
$GLGMP,181527.00,,,,,,08,,,,,*7F
$GAGMP,181527.00,,,,,,05,,,,,*7F
$GBGMP,181527.00,,,,,,14,,,,,*7C
$PSSN,SNC,[0,324945000,2347]*49
$GPZDA,181532.00,01,01,2025,,*6F
$GPDTM,W84,,00.0000000,N,00.0000000,E,00.0000000,W84*5F
$PSSN,TFM,181532.00,,,,*63
$GPRMC,181532.00,A,4742.1604110,N,01618.1000440,E,0.0,,010125,5.1,E,D*18
$GPGLL,4742.1604110,N,01618.1000440,E,181532.00,A,D*69
$GPGGA,181532.00,4742.1604110,N,01618.1000440,E,2,36,0.5,708.5829,M,43.2066,M,2.2,0136*4C
$GNGNS,181532.00,4742.1604110,N,01618.1000440,E,DAAA,36,0.5,708.5829,43.2066,,*54
$GPGNS,181532.00,,,,,,09,,,,2.2,136*7C
$GLGNS,181532.00,,,,,,08,,,,,*7B
$GAGNS,181532.00,,,,,,05,,,,,*7B
$GBGNS,181532.00,,,,,,14,,,,,*78
$GPLLQ,181532.00,010125,,M,,M,1,36,0.881,,M*19
$GPVTG,,T,,M,0.00,N,0.01,K,D*27
$GPHDT,,T*1B
$GPTHS,,V*0E
$GPROT,,V*08
$PSSN,HRP,181532.00,010125,,,,,,,00,0,,*6D
$PTNL,AVR,181532.00,,Yaw,,Tilt,,,,0,,00*3B
$GPGSA,A,3,05,10,16,18,23,26,27,29,31,,,,0.8,0.5,0.7*3B
$GPGSA,A,3,65,66,73,79,80,81,82,83,,,,,0.8,0.5,0.7*31
$GPGSA,A,3,13,15,21,26,27,,,,,,,,0.8,0.5,0.7*3C
$GPGSA,A,3,05,08,11,13,21,23,25,28,34,37,38,42,0.8,0.5,0.7*36
$GPGSA,A,3,43,60,,,,,,,,,,,0.8,0.5,0.7*39
$GPGST,181532.00,1.355,0.429,0.325,2.480,0.429,0.325,0.697*5F
$GPGBS,181532.00,2.721,1.936,3.963,66,0.0001,-4.493,6.321*77
$GPGRS,181532.00,1,0.2,-1.0,0.3,0.1,0.2,-0.1,-0.5,-0.4,0.4,,,*6B
$GPGRS,181532.00,1,0.8,-4.5,4.2,0.5,-0.5,0.9,-0.0,-1.7,,,,*42
$GPGRS,181532.00,1,0.1,0.1,0.0,0.2,0.0,,,,,,,*6E
$GPGRS,181532.00,1,1.0,1.7,0.7,-0.3,-0.1,-0.2,-1.5,-0.2,-0.0,0.1,0.1,-0.8*61
$GPGRS,181532.00,1,0.1,-1.4,,,,,,,,,,*6B
$GPGSV,5,1,20,18,74,067,49,23,35,145,45,05,16,038,41,27,26,285,43*7A
$GPGSV,5,2,20,31,17,225,42,29,28,089,43,16,55,296,48,26,66,227,50*7C
$GPGSV,5,3,20,28,02,204,31,10,08,175,39,15,02,089,37,36,35,170,45*76
$GPGSV,5,4,20,58,13,245,37,40,24,133,36,34,31,208,42,49,34,195,44*7A
$GPGSV,5,5,20,57,08,111,37,41,07,108,34,61,03,257,38*47
$GLGSV,3,1,10,82,72,342,51,66,18,073,45,65,14,023,39,79,18,176,46*6C
$GLGSV,3,2,10,83,44,259,40,73,38,317,49,81,33,049,49,80,61,223,53*60
$GLGSV,3,3,10,67,03,120,,74,00,338,36*6B
$GAGSV,2,1,08,13,70,213,49,23,20,313,,26,17,225,41,27,47,156,47*6C
$GAGSV,2,2,08,15,52,053,46,21,68,280,48,05,01,038,,34,03,048,33*6B
$GBGSV,6,1,24,43,77,044,51,05,22,129,37,60,11,109,40,38,26,039,43*6A
$GBGSV,6,2,24,42,17,113,41,21,20,063,44,50,21,087,,23,43,218,49*62
$GBGSV,6,3,24,37,39,292,47,34,29,072,46,08,39,047,43,31,37,052,*60
$GBGSV,6,4,24,28,34,260,46,27,38,249,,13,44,057,45,11,53,061,47*66
$GBGSV,6,5,24,12,03,071,36,14,07,137,,22,03,016,37,02,07,106,34*6F
$GBGSV,6,6,24,46,02,331,,25,08,177,41,58,07,326,,07,09,107,*62
$GPGGA,181532.00,,,,,0,00,,,M,,M,,*44
$PTNL,GGK,181532.00,010125,4742.1604110,N,01618.1000440,E,1,36,0.8,EHT751.7894,M*43
$GPGGQ,181532.00,010125,4742.1604110,N,01618.1000440,E,1,36,0.881,708.5829,M*3C
$GPGFA,181532.00,4.083,5.714,0.429,0.325,2.480,0.697,,VVV*0A
$GPLLK,181532.00,010125,,M,,M,1,36,1.0,,M*03
$GNGMP,181532.00,,,,,DAAA,36,0.5,,,,*5A
$GPGMP,181532.00,,,,,,09,,,,2.2,136*7C
$GLGMP,181532.00,,,,,,08,,,,,*7B
$GAGMP,181532.00,,,,,,05,,,,,*7B
$GBGMP,181532.00,,,,,,14,,,,,*78
$PSSN,SNC,[0,324950000,2347]*4D
$GPZDA,181537.00,01,01,2025,,*6A
$GPDTM,W84,,00.0000000,N,00.0000000,E,00.0000000,W84*5F
$PSSN,TFM,181537.00,,,,*66
$GPRMC,181537.00,A,4742.1604106,N,01618.1000436,E,0.0,,010125,5.1,E,D*1B
$GPGLL,4742.1604106,N,01618.1000436,E,181537.00,A,D*6A
$GPGGA,181537.00,4742.1604106,N,01618.1000436,E,2,36,0.5,708.5800,M,43.2066,M,2.3,0136*45
$GNGNS,181537.00,4742.1604106,N,01618.1000436,E,DAAA,36,0.5,708.5800,43.2066,,*5C
$GPGNS,181537.00,,,,,,09,,,,2.3,136*78
$GLGNS,181537.00,,,,,,08,,,,,*7E
$GAGNS,181537.00,,,,,,05,,,,,*7E
$GBGNS,181537.00,,,,,,14,,,,,*7D
$GPLLQ,181537.00,010125,,M,,M,1,36,0.888,,M*15
$GPVTG,,T,,M,0.00,N,0.01,K,D*27
$GPHDT,,T*1B
$GPTHS,,V*0E
$GPROT,,V*08
$PSSN,HRP,181537.00,010125,,,,,,,00,0,,*68
$PTNL,AVR,181537.00,,Yaw,,Tilt,,,,0,,00*3E
$GPGSA,A,3,05,10,16,18,23,26,27,29,31,,,,0.8,0.5,0.7*3B
$GPGSA,A,3,65,66,73,79,80,81,82,83,,,,,0.8,0.5,0.7*31
$GPGSA,A,3,13,15,21,26,27,,,,,,,,0.8,0.5,0.7*3C
$GPGSA,A,3,05,08,11,13,21,23,25,28,34,37,38,42,0.8,0.5,0.7*36
$GPGSA,A,3,43,60,,,,,,,,,,,0.8,0.5,0.7*39
$GPGST,181537.00,1.378,0.432,0.327,1.113,0.432,0.327,0.703*55
$GPGBS,181537.00,2.738,1.942,4.013,66,0.0001,-4.320,6.320*7E
$GPGRS,181537.00,1,0.2,-1.1,0.3,-0.1,0.5,-0.3,-0.3,-0.6,0.4,,,*43
$GPGRS,181537.00,1,-0.3,-4.3,4.0,0.9,-0.4,0.7,-0.1,-2.8,,,,*6B
$GPGRS,181537.00,1,0.0,0.2,-0.0,0.1,0.0,,,,,,,*47
$GPGRS,181537.00,1,0.6,1.2,1.0,-0.8,-0.6,-0.1,-1.4,0.1,0.1,-0.0,0.0,-0.2*4B
$GPGRS,181537.00,1,0.1,-1.5,,,,,,,,,,*6F
$GPGSV,5,1,20,18,74,066,49,23,35,145,45,05,16,038,41,27,26,285,43*7B
$GPGSV,5,2,20,31,17,225,42,29,28,089,43,16,55,296,48,26,66,227,50*7C
$GPGSV,5,3,20,28,02,204,31,10,08,175,39,15,02,089,37,36,35,170,45*76
$GPGSV,5,4,20,58,13,245,37,40,24,133,36,34,31,208,42,49,34,195,44*7A
$GPGSV,5,5,20,57,08,111,37,41,07,108,34,61,03,257,38*47
$GLGSV,3,1,10,82,72,343,51,66,18,073,46,65,14,023,39,79,18,176,46*6E
$GLGSV,3,2,10,83,44,259,40,73,38,317,49,81,33,049,48,80,61,223,53*61
$GLGSV,3,3,10,67,03,120,,74,00,338,35*68
$GAGSV,2,1,08,13,70,213,49,23,20,313,,26,17,225,41,27,47,156,47*6C
$GAGSV,2,2,08,15,52,053,46,21,68,280,48,05,01,038,,34,02,048,34*6D
$GBGSV,6,1,24,43,77,044,51,05,22,129,37,60,11,109,40,38,26,039,43*6A
$GBGSV,6,2,24,42,17,113,40,21,20,062,43,50,21,087,,23,43,218,49*65
$GBGSV,6,3,24,37,39,292,47,34,29,072,46,08,39,047,43,31,37,052,*60
$GBGSV,6,4,24,28,34,260,46,27,38,249,,13,44,057,45,11,53,061,48*69
$GBGSV,6,5,24,12,03,071,36,14,07,137,,22,03,016,37,02,07,106,34*6F
$GBGSV,6,6,24,46,02,331,,25,08,177,41,58,07,326,,07,09,107,*62
$GPGGA,181537.00,,,,,0,00,,,M,,M,,*41
$PTNL,GGK,181537.00,010125,4742.1604106,N,01618.1000436,E,1,36,0.8,EHT751.7866,M*4D
$GPGGQ,181537.00,010125,4742.1604106,N,01618.1000436,E,1,36,0.888,708.5800,M*3D
$GPGFA,181537.00,4.104,5.767,0.432,0.327,1.113,0.703,,VVV*0D
$GPLLK,181537.00,010125,,M,,M,1,36,1.0,,M*06
$GNGMP,181537.00,,,,,DAAA,36,0.5,,,,*5F
$GPGMP,181537.00,,,,,,09,,,,2.3,136*78
$GLGMP,181537.00,,,,,,08,,,,,*7E
$GAGMP,181537.00,,,,,,05,,,,,*7E
$GBGMP,181537.00,,,,,,14,,,,,*7D
$PSSN,SNC,[0,324955000,2347]*48
$GPZDA,181542.00,01,01,2025,,*68
$GPDTM,W84,,00.0000000,N,00.0000000,E,00.0000000,W84*5F
$PSSN,TFM,181542.00,,,,*64
$GPRMC,181542.00,A,4742.1604103,N,01618.1000427,E,0.0,,010125,5.1,E,D*1C
$GPGLL,4742.1604103,N,01618.1000427,E,181542.00,A,D*6D
$GPGGA,181542.00,4742.1604103,N,01618.1000427,E,2,36,0.5,708.5840,M,43.2066,M,3.3,0136*47
$GNGNS,181542.00,4742.1604103,N,01618.1000427,E,DAAA,36,0.5,708.5840,43.2066,,*5F
$GPGNS,181542.00,,,,,,09,,,,3.3,136*7B
$GLGNS,181542.00,,,,,,08,,,,,*7C
$GAGNS,181542.00,,,,,,05,,,,,*7C
$GBGNS,181542.00,,,,,,14,,,,,*7F
$GPLLQ,181542.00,010125,,M,,M,1,36,0.898,,M*16
$GPVTG,,T,,M,0.00,N,0.00,K,D*26
$GPHDT,,T*1B
$GPTHS,,V*0E
$GPROT,,V*08
$PSSN,HRP,181542.00,010125,,,,,,,00,0,,*6A
$PTNL,AVR,181542.00,,Yaw,,Tilt,,,,0,,00*3C
$GPGSA,A,3,05,10,16,18,23,26,27,29,31,,,,0.8,0.5,0.7*3B
$GPGSA,A,3,65,66,73,79,80,81,82,83,,,,,0.8,0.5,0.7*31
$GPGSA,A,3,13,15,21,26,27,,,,,,,,0.8,0.5,0.7*3C
$GPGSA,A,3,05,08,11,13,21,23,25,28,34,37,38,42,0.8,0.5,0.7*36
$GPGSA,A,3,43,60,,,,,,,,,,,0.8,0.5,0.7*39
$GPGST,181542.00,1.294,0.436,0.329,359.667,0.436,0.329,0.713*5F
$GPGBS,181542.00,2.786,1.978,4.086,73,0.0001,4.276,6.101*56
$GPGRS,181542.00,1,0.3,-0.9,-0.1,0.1,0.4,-0.2,-0.2,0.1,0.1,,,*65
$GPGRS,181542.00,1,1.4,-3.5,4.3,-0.1,-0.4,1.3,-0.4,-1.8,,,,*66
$GPGRS,181542.00,1,-0.0,0.2,-0.1,-0.0,0.1,,,,,,,*44
$GPGRS,181542.00,1,0.2,0.9,1.0,-0.5,-1.5,-0.3,-1.5,-0.2,0.1,-0.4,0.1,0.4*4B
$GPGRS,181542.00,1,0.2,-1.7,,,,,,,,,,*6C
$GPGSV,5,1,20,18,74,066,49,23,35,145,45,05,16,038,41,27,26,285,43*7B
$GPGSV,5,2,20,31,17,225,43,29,28,089,44,16,55,296,48,26,66,227,50*7A
$GPGSV,5,3,20,28,02,204,30,10,08,175,40,15,02,089,37,36,35,170,45*79
$GPGSV,5,4,20,58,13,245,37,40,24,133,35,34,31,208,42,49,34,195,44*79
$GPGSV,5,5,20,57,08,111,37,41,07,108,35,61,03,257,38*46
$GLGSV,3,1,10,82,72,343,51,66,18,073,46,65,14,023,40,79,18,176,46*60
$GLGSV,3,2,10,83,44,259,41,73,38,317,49,81,33,049,49,80,61,223,53*61
$GLGSV,3,3,10,67,03,120,,74,00,338,35*68
$GAGSV,2,1,08,13,70,213,49,23,20,313,,26,17,225,41,27,47,156,47*6C
$GAGSV,2,2,08,15,52,053,46,21,68,280,48,05,01,038,,34,02,048,33*6A
$GBGSV,6,1,24,43,77,044,51,05,22,129,37,60,11,109,40,38,26,039,43*6A
$GBGSV,6,2,24,42,17,113,41,21,20,062,43,50,21,087,,23,43,218,48*65
$GBGSV,6,3,24,37,39,292,47,34,29,072,45,08,39,047,42,31,37,052,*62
$GBGSV,6,4,24,28,34,260,46,27,38,249,,13,44,057,45,11,53,061,47*66
$GBGSV,6,5,24,12,02,071,36,14,07,137,,22,03,016,37,02,07,106,34*6E
$GBGSV,6,6,24,46,02,331,,25,08,177,41,58,07,326,,07,09,107,*62
$GPGGA,181542.00,,,,,0,00,,,M,,M,,*43
$PTNL,GGK,181542.00,010125,4742.1604103,N,01618.1000427,E,1,36,0.8,EHT751.7905,M*4E
$GPGGQ,181542.00,010125,4742.1604103,N,01618.1000427,E,1,36,0.898,708.5840,M*3F
$GPGFA,181542.00,4.150,5.845,0.436,0.329,359.667,0.713,,VVV*00
$GPLLK,181542.00,010125,,M,,M,1,36,1.0,,M*04
$GNGMP,181542.00,,,,,DAAA,36,0.5,,,,*5D
$GPGMP,181542.00,,,,,,09,,,,3.3,136*7B
$GLGMP,181542.00,,,,,,08,,,,,*7C
$GAGMP,181542.00,,,,,,05,,,,,*7C
$GBGMP,181542.00,,,,,,14,,,,,*7F
$PSSN,SNC,[0,324960000,2347]*4E
$GPZDA,181547.00,01,01,2025,,*6D
$GPDTM,W84,,00.0000000,N,00.0000000,E,00.0000000,W84*5F
$PSSN,TFM,181547.00,,,,*61
$GPRMC,181547.00,A,4742.1604085,N,01618.1000394,E,0.0,,010125,5.1,E,D*19
$GPGLL,4742.1604085,N,01618.1000394,E,181547.00,A,D*68
$GPGGA,181547.00,4742.1604085,N,01618.1000394,E,2,36,0.5,708.5858,M,43.2066,M,2.1,0136*48
$GNGNS,181547.00,4742.1604085,N,01618.1000394,E,DAAA,36,0.5,708.5858,43.2066,,*53
$GPGNS,181547.00,,,,,,09,,,,2.1,136*7D
$GLGNS,181547.00,,,,,,08,,,,,*79
$GAGNS,181547.00,,,,,,05,,,,,*79
$GBGNS,181547.00,,,,,,14,,,,,*7A
$GPLLQ,181547.00,010125,,M,,M,1,36,0.895,,M*1E
$GPVTG,,T,,M,0.00,N,0.00,K,D*26
$GPHDT,,T*1B
$GPTHS,,V*0E
$GPROT,,V*08
$PSSN,HRP,181547.00,010125,,,,,,,00,0,,*6F
$PTNL,AVR,181547.00,,Yaw,,Tilt,,,,0,,00*39
$GPGSA,A,3,05,10,16,18,23,26,27,29,31,,,,0.8,0.5,0.7*3B
$GPGSA,A,3,65,66,73,79,80,81,82,83,,,,,0.8,0.5,0.7*31
$GPGSA,A,3,13,15,21,26,27,,,,,,,,0.8,0.5,0.7*3C
$GPGSA,A,3,05,08,11,13,21,23,25,28,34,37,38,42,0.8,0.5,0.7*36
$GPGSA,A,3,43,60,,,,,,,,,,,0.8,0.5,0.7*39
$GPGST,181547.00,1.345,0.436,0.329,0.995,0.436,0.329,0.710*59
$GPGBS,181547.00,2.685,1.892,3.890,73,0.0001,4.369,6.101*53
$GPGRS,181547.00,1,0.2,-1.1,-0.1,-0.1,0.3,-0.2,-0.2,0.2,0.6,,,*46
$GPGRS,181547.00,1,1.9,-3.7,4.4,0.2,-0.5,1.6,-0.6,-1.7,,,,*4C
$GPGRS,181547.00,1,-0.2,0.2,-0.1,-0.3,-0.1,,,,,,,*6D
$GPGRS,181547.00,1,0.8,0.5,0.9,-0.2,-1.5,-0.4,-1.0,-0.2,-0.0,-0.4,0.1,0.5*68
$GPGRS,181547.00,1,0.1,-1.3,,,,,,,,,,*6E
$GPGSV,5,1,20,18,74,066,49,23,35,145,46,05,16,038,40,27,26,285,43*79
$GPGSV,5,2,20,31,17,225,42,29,28,089,44,16,55,296,48,26,66,227,50*7B
$GPGSV,5,3,20,28,02,204,31,10,08,175,40,15,02,089,36,36,35,170,45*79
$GPGSV,5,4,20,58,13,245,37,40,24,133,35,34,31,208,42,49,34,195,44*79
$GPGSV,5,5,20,57,08,111,37,41,07,108,34,61,03,257,38*47
$GLGSV,3,1,10,82,72,343,51,66,18,073,46,65,14,023,40,79,18,176,46*60
$GLGSV,3,2,10,83,44,259,40,73,38,317,49,81,33,049,49,80,61,223,52*61
$GLGSV,3,3,10,67,03,120,,74,00,338,35*68
$GAGSV,2,1,08,13,70,213,49,23,20,313,,26,17,225,40,27,47,157,47*6C
$GAGSV,2,2,08,15,52,053,46,21,68,279,48,05,01,038,,34,02,048,32*6D
$GBGSV,6,1,24,43,77,044,51,05,22,129,37,60,11,109,40,38,26,039,43*6A
$GBGSV,6,2,24,42,17,113,41,21,20,062,43,50,21,087,,23,43,218,48*65
$GBGSV,6,3,24,37,40,292,47,34,29,072,45,08,39,047,43,31,37,052,*6D
$GBGSV,6,4,24,28,34,260,46,27,38,249,,13,44,057,45,11,53,061,47*66
$GBGSV,6,5,24,12,02,071,35,14,07,137,,22,03,016,37,02,07,106,34*6D
$GBGSV,6,6,24,46,02,331,,25,08,177,41,58,07,326,,07,09,107,*62
$GPGGA,181547.00,,,,,0,00,,,M,,M,,*46
$PTNL,GGK,181547.00,010125,4742.1604085,N,01618.1000394,E,1,36,0.8,EHT751.7924,M*48
$GPGGQ,181547.00,010125,4742.1604085,N,01618.1000394,E,1,36,0.895,708.5858,M*3E
$GPGFA,181547.00,4.142,5.821,0.436,0.329,0.995,0.710,,VVV*0A
$GPLLK,181547.00,010125,,M,,M,1,36,1.0,,M*01
$GNGMP,181547.00,,,,,DAAA,36,0.5,,,,*58
$GPGMP,181547.00,,,,,,09,,,,2.1,136*7D
$GLGMP,181547.00,,,,,,08,,,,,*79
$GAGMP,181547.00,,,,,,05,,,,,*79
$GBGMP,181547.00,,,,,,14,,,,,*7A
$PSSN,SNC,[0,324965000,2347]*4B
$GPZDA,181552.00,01,01,2025,,*69
$GPDTM,W84,,00.0000000,N,00.0000000,E,00.0000000,W84*5F
$PSSN,TFM,181552.00,,,,*65
$GPRMC,181552.00,A,4742.1604105,N,01618.1000378,E,0.0,,010125,5.1,E,D*16
$GPGLL,4742.1604105,N,01618.1000378,E,181552.00,A,D*67
$GPGGA,181552.00,4742.1604105,N,01618.1000378,E,2,36,0.5,708.5865,M,43.2066,M,2.2,0136*4A
$GNGNS,181552.00,4742.1604105,N,01618.1000378,E,DAAA,36,0.5,708.5865,43.2066,,*52
$GPGNS,181552.00,,,,,,09,,,,2.2,136*7A
$GLGNS,181552.00,,,,,,08,,,,,*7D
$GAGNS,181552.00,,,,,,05,,,,,*7D
$GBGNS,181552.00,,,,,,14,,,,,*7E
$GPLLQ,181552.00,010125,,M,,M,1,36,0.881,,M*1F
$GPVTG,,T,,M,0.00,N,0.00,K,D*26
$GPHDT,,T*1B
$GPTHS,,V*0E
$GPROT,,V*08
$PSSN,HRP,181552.00,010125,,,,,,,00,0,,*6B
$PTNL,AVR,181552.00,,Yaw,,Tilt,,,,0,,00*3D
$GPGSA,A,3,05,10,16,18,23,26,27,29,31,,,,0.8,0.5,0.7*3B
$GPGSA,A,3,65,66,73,79,80,81,82,83,,,,,0.8,0.5,0.7*31
$GPGSA,A,3,13,15,21,26,27,,,,,,,,0.8,0.5,0.7*3C
$GPGSA,A,3,05,08,11,13,21,23,25,28,34,37,38,42,0.8,0.5,0.7*36
$GPGSA,A,3,43,60,,,,,,,,,,,0.8,0.5,0.7*39
$GPGST,181552.00,1.345,0.429,0.325,2.605,0.429,0.325,0.697*57
$GPGBS,181552.00,2.719,1.940,3.952,73,0.0001,4.462,6.101*5E
$GPGRS,181552.00,1,0.0,-0.8,-0.0,0.1,0.2,-0.1,-0.3,-0.2,0.2,,,*4E
$GPGRS,181552.00,1,0.9,-3.9,4.5,1.0,-0.3,1.6,-0.3,-1.9,,,,*48
$GPGRS,181552.00,1,0.1,0.3,0.1,0.2,-0.1,,,,,,,*47
$GPGRS,181552.00,1,0.8,1.3,1.2,0.1,-1.0,-0.2,-1.0,-0.0,0.2,-0.2,0.2,0.3*62
$GPGRS,181552.00,1,0.2,-1.5,,,,,,,,,,*6F
$GPGSV,5,1,20,18,74,066,49,23,35,145,46,05,16,038,40,27,26,285,43*79
$GPGSV,5,2,20,31,17,225,42,29,28,089,44,16,55,296,48,26,66,227,50*7B
$GPGSV,5,3,20,28,02,204,32,10,08,175,40,15,02,089,35,36,35,170,45*79
$GPGSV,5,4,20,58,13,245,37,40,24,133,35,34,31,208,42,49,34,195,44*79
$GPGSV,5,5,20,57,08,111,37,41,07,108,34,61,03,257,38*47
$GLGSV,3,1,10,82,72,343,51,66,18,073,46,65,14,023,39,79,18,176,47*6F
$GLGSV,3,2,10,83,44,259,41,73,38,317,49,81,33,049,49,80,61,223,53*61
$GLGSV,3,3,10,67,03,120,,74,00,338,35*68
$GAGSV,2,1,08,13,70,213,49,23,20,313,,26,17,225,40,27,47,157,47*6C
$GAGSV,2,2,08,15,52,053,46,21,68,279,48,05,01,038,,34,02,048,33*6C
$GBGSV,6,1,24,43,77,044,51,05,22,129,37,60,11,109,40,38,26,039,43*6A
$GBGSV,6,2,24,42,17,113,42,21,20,062,43,50,21,087,,23,43,218,48*66
$GBGSV,6,3,24,37,40,292,47,34,29,072,45,08,39,047,43,31,37,052,*6D
$GBGSV,6,4,24,28,34,260,46,27,38,249,,13,44,057,45,11,53,061,47*66
$GBGSV,6,5,24,12,02,072,35,14,07,137,,22,03,016,37,02,07,106,34*6E
$GBGSV,6,6,24,46,02,331,,25,08,177,41,58,07,326,,07,09,107,*62
$GPGGA,181552.00,,,,,0,00,,,M,,M,,*42
$PTNL,GGK,181552.00,010125,4742.1604105,N,01618.1000378,E,1,36,0.8,EHT751.7931,M*43
$GPGGQ,181552.00,010125,4742.1604105,N,01618.1000378,E,1,36,0.881,708.5865,M*3A
$GPGFA,181552.00,4.081,5.716,0.429,0.325,2.605,0.697,,VVV*03
$GPLLK,181552.00,010125,,M,,M,1,36,1.0,,M*05
$GNGMP,181552.00,,,,,DAAA,36,0.5,,,,*5C
$GPGMP,181552.00,,,,,,09,,,,2.2,136*7A
$GLGMP,181552.00,,,,,,08,,,,,*7D
$GAGMP,181552.00,,,,,,05,,,,,*7D
$GBGMP,181552.00,,,,,,14,,,,,*7E
$PSSN,SNC,[0,324970000,2347]*4F
$GPZDA,181557.00,01,01,2025,,*6C
$GPDTM,W84,,00.0000000,N,00.0000000,E,00.0000000,W84*5F
$PSSN,TFM,181557.00,,,,*60
$GPRMC,181557.00,A,4742.1604085,N,01618.1000397,E,0.0,,010125,5.1,E,D*1B
$GPGLL,4742.1604085,N,01618.1000397,E,181557.00,A,D*6A
$GPGGA,181557.00,4742.1604085,N,01618.1000397,E,2,36,0.5,708.5841,M,43.2066,M,2.3,0136*40
$GNGNS,181557.00,4742.1604085,N,01618.1000397,E,DAAA,36,0.5,708.5841,43.2066,,*59
$GPGNS,181557.00,,,,,,09,,,,2.3,136*7E
$GLGNS,181557.00,,,,,,08,,,,,*78
$GAGNS,181557.00,,,,,,05,,,,,*78
$GBGNS,181557.00,,,,,,14,,,,,*7B
$GPLLQ,181557.00,010125,,M,,M,1,36,0.888,,M*13
$GPVTG,,T,,M,0.00,N,0.01,K,D*27
$GPHDT,,T*1B
$GPTHS,,V*0E
$GPROT,,V*08
$PSSN,HRP,181557.00,010125,,,,,,,00,0,,*6E
$PTNL,AVR,181557.00,,Yaw,,Tilt,,,,0,,00*38
$GPGSA,A,3,05,10,16,18,23,26,27,29,31,,,,0.8,0.5,0.7*3B
$GPGSA,A,3,65,66,73,79,80,81,82,83,,,,,0.8,0.5,0.7*31
$GPGSA,A,3,13,15,21,26,27,,,,,,,,0.8,0.5,0.7*3C
$GPGSA,A,3,05,08,11,13,21,23,25,28,34,37,38,42,0.8,0.5,0.7*36
$GPGSA,A,3,43,60,,,,,,,,,,,0.8,0.5,0.7*39
$GPGST,181557.00,1.295,0.431,0.328,1.238,0.431,0.328,0.704*5C
$GPGBS,181557.00,2.736,1.941,4.001,10,0.0001,-1.270,1.853*7E
$GPGRS,181557.00,1,0.1,-1.3,0.4,-0.1,-0.1,-0.1,0.2,-0.2,0.1,,,*45
$GPGRS,181557.00,1,0.6,-3.9,3.9,1.0,-0.1,1.2,-0.3,-2.1,,,,*44
$GPGRS,181557.00,1,0.1,0.3,0.2,0.1,-0.1,,,,,,,*42
$GPGRS,181557.00,1,0.8,1.8,1.0,0.1,-1.1,-0.2,-0.8,0.3,0.3,0.1,0.1,0.3*64
$GPGRS,181557.00,1,0.3,-1.3,,,,,,,,,,*6D
$GPGSV,5,1,20,18,74,066,49,23,35,145,45,05,16,038,40,27,26,285,44*7D
$GPGSV,5,2,20,31,17,225,43,29,28,089,43,16,55,296,48,26,66,227,50*7D
$GPGSV,5,3,20,28,02,204,31,10,08,175,40,15,02,089,35,36,35,170,45*7A
$GPGSV,5,4,20,58,13,245,37,40,24,133,35,34,31,208,43,49,34,195,44*78
$GPGSV,5,5,20,57,08,111,37,41,07,108,34,61,03,257,38*47
$GLGSV,3,1,10,82,72,343,51,66,18,073,46,65,14,023,39,79,18,176,47*6F
$GLGSV,3,2,10,83,44,259,41,73,38,317,49,81,33,049,49,80,61,223,53*61
$GLGSV,3,3,10,67,03,120,,74,00,338,35*68
$GAGSV,2,1,08,13,70,213,49,23,20,313,,26,17,225,41,27,47,157,47*6D
$GAGSV,2,2,08,15,52,053,46,21,69,279,49,05,01,038,,34,02,048,32*6D
$GBGSV,6,1,24,43,77,045,51,05,22,129,37,60,11,109,40,38,26,039,43*6B
$GBGSV,6,2,24,42,17,113,42,21,20,062,43,50,21,087,,23,43,218,49*67
$GBGSV,6,3,24,37,40,291,47,34,29,072,45,08,39,047,43,31,37,052,*6E
$GBGSV,6,4,24,28,34,260,47,27,38,249,,13,44,057,45,11,53,061,47*67
$GBGSV,6,5,24,12,02,072,35,14,07,137,,22,03,016,37,02,07,106,34*6E
$GBGSV,6,6,24,46,02,331,,25,08,177,41,58,07,326,,07,09,107,*62
$GPGGA,181557.00,,,,,0,00,,,M,,M,,*47
$PTNL,GGK,181557.00,010125,4742.1604085,N,01618.1000397,E,1,36,0.8,EHT751.7907,M*4B
$GPGGQ,181557.00,010125,4742.1604085,N,01618.1000397,E,1,36,0.888,708.5841,M*38
$GPGFA,181557.00,4.103,5.770,0.431,0.328,1.238,0.704,,VVV*0B
$GPLLK,181557.00,010125,,M,,M,1,36,1.0,,M*00
$GNGMP,181557.00,,,,,DAAA,36,0.5,,,,*59
$GPGMP,181557.00,,,,,,09,,,,2.3,136*7E
$GLGMP,181557.00,,,,,,08,,,,,*78
$GAGMP,181557.00,,,,,,05,,,,,*78
$GBGMP,181557.00,,,,,,14,,,,,*7B
$PSSN,SNC,[0,324975000,2347]*4A
$GPZDA,181602.00,01,01,2025,,*6F
$GPDTM,W84,,00.0000000,N,00.0000000,E,00.0000000,W84*5F
$PSSN,TFM,181602.00,,,,*63
$GPRMC,181602.00,A,4742.1604055,N,01618.1000427,E,0.0,,010125,5.1,E,D*19
$GPGLL,4742.1604055,N,01618.1000427,E,181602.00,A,D*68
$GPGGA,181602.00,4742.1604055,N,01618.1000427,E,2,36,0.5,708.5854,M,43.2066,M,3.3,0136*47
$GNGNS,181602.00,4742.1604055,N,01618.1000427,E,DAAA,36,0.5,708.5854,43.2066,,*5F
$GPGNS,181602.00,,,,,,09,,,,3.3,136*7C
$GLGNS,181602.00,,,,,,08,,,,,*7B
$GAGNS,181602.00,,,,,,05,,,,,*7B
$GBGNS,181602.00,,,,,,14,,,,,*78
$GPLLQ,181602.00,010125,,M,,M,1,36,0.899,,M*10
$GPVTG,,T,,M,0.01,N,0.01,K,D*26
$GPHDT,,T*1B
$GPTHS,,V*0E
$GPROT,,V*08
$PSSN,HRP,181602.00,010125,,,,,,,00,0,,*6D
$PTNL,AVR,181602.00,,Yaw,,Tilt,,,,0,,00*3B
$GPGSA,A,3,05,10,16,18,23,26,27,29,31,,,,0.8,0.5,0.7*3B
$GPGSA,A,3,65,66,73,79,80,81,82,83,,,,,0.8,0.5,0.7*31
$GPGSA,A,3,13,15,21,26,27,,,,,,,,0.8,0.5,0.7*3C
$GPGSA,A,3,05,08,11,13,21,23,25,28,34,37,38,42,0.8,0.5,0.7*36
$GPGSA,A,3,43,60,,,,,,,,,,,0.8,0.5,0.7*39
$GPGST,181602.00,1.340,0.436,0.330,359.780,0.436,0.330,0.713*58
$GPGBS,181602.00,2.784,1.983,4.074,73,0.0001,4.383,6.100*50
$GPGRS,181602.00,1,0.5,-0.9,0.1,0.0,-0.1,-0.2,-0.3,-0.2,0.6,,,*48
$GPGRS,181602.00,1,0.3,-4.1,4.4,0.3,-0.1,1.2,-0.4,-2.3,,,,*40
$GPGRS,181602.00,1,0.1,0.1,0.1,-0.4,-0.1,,,,,,,*68
$GPGRS,181602.00,1,0.8,1.5,0.4,0.2,-0.8,-0.1,-1.3,0.3,0.3,0.1,0.2,0.3*6E
$GPGRS,181602.00,1,0.1,-1.2,,,,,,,,,,*6D
$GPGSV,5,1,20,18,74,066,49,23,35,144,45,05,16,038,41,27,26,285,43*7A
$GPGSV,5,2,20,31,17,224,43,29,28,089,43,16,55,296,48,26,66,227,50*7C
$GPGSV,5,3,20,28,02,204,31,10,08,175,40,15,02,089,35,36,35,170,45*7A
$GPGSV,5,4,20,58,13,245,37,40,24,133,36,34,31,208,43,49,34,195,44*7B
$GPGSV,5,5,20,57,08,111,37,41,07,108,34,61,03,257,38*47
$GLGSV,3,1,10,82,72,343,51,66,18,073,45,65,14,023,40,79,18,176,47*62
$GLGSV,3,2,10,83,44,259,40,73,38,317,49,81,33,049,49,80,61,223,53*60
$GLGSV,3,3,10,67,03,120,,74,00,338,35*68
$GAGSV,2,1,08,13,70,213,49,23,20,313,,26,17,225,41,27,47,157,47*6D
$GAGSV,2,2,08,15,52,053,46,21,69,279,49,05,01,038,,34,02,048,32*6D
$GBGSV,6,1,24,43,77,045,51,05,22,129,38,60,11,109,40,38,26,039,43*64
$GBGSV,6,2,24,42,17,113,42,21,20,062,42,50,21,087,,23,43,218,49*66
$GBGSV,6,3,24,37,40,291,47,34,29,072,45,08,39,047,43,31,37,052,*6E
$GBGSV,6,4,24,28,34,260,47,27,39,249,,13,44,057,45,11,53,061,47*66
$GBGSV,6,5,24,12,02,072,35,14,07,137,,22,03,016,37,02,07,106,34*6E
$GBGSV,6,6,24,46,02,331,,25,08,177,41,58,07,326,,07,09,107,*62
$GPGGA,181602.00,,,,,0,00,,,M,,M,,*44
$PTNL,GGK,181602.00,010125,4742.1604055,N,01618.1000427,E,1,36,0.8,EHT751.7920,M*4C
$GPGGQ,181602.00,010125,4742.1604055,N,01618.1000427,E,1,36,0.899,708.5854,M*3E
$GPGFA,181602.00,4.148,5.846,0.436,0.330,359.780,0.713,,VVV*0D
$GPLLK,181602.00,010125,,M,,M,1,36,1.0,,M*03
$GNGMP,181602.00,,,,,DAAA,36,0.5,,,,*5A
$GPGMP,181602.00,,,,,,09,,,,3.3,136*7C
$GLGMP,181602.00,,,,,,08,,,,,*7B
$GAGMP,181602.00,,,,,,05,,,,,*7B
$GBGMP,181602.00,,,,,,14,,,,,*78
$PSSN,SNC,[0,324980000,2347]*40
$GPZDA,181607.00,01,01,2025,,*6A
$GPDTM,W84,,00.0000000,N,00.0000000,E,00.0000000,W84*5F
$PSSN,TFM,181607.00,,,,*66
$GPRMC,181607.00,A,4742.1604044,N,01618.1000411,E,0.0,,010125,5.1,E,D*19
$GPGLL,4742.1604044,N,01618.1000411,E,181607.00,A,D*68
$GPGGA,181607.00,4742.1604044,N,01618.1000411,E,2,36,0.5,708.5874,M,43.2066,M,2.1,0136*46
$GNGNS,181607.00,4742.1604044,N,01618.1000411,E,DAAA,36,0.5,708.5874,43.2066,,*5D
$GPGNS,181607.00,,,,,,09,,,,2.1,136*7A
$GLGNS,181607.00,,,,,,08,,,,,*7E
$GAGNS,181607.00,,,,,,05,,,,,*7E
$GBGNS,181607.00,,,,,,14,,,,,*7D
$GPLLQ,181607.00,010125,,M,,M,1,36,0.892,,M*1E
$GPVTG,,T,,M,0.00,N,0.01,K,D*27
$GPHDT,,T*1B
$GPTHS,,V*0E
$GPROT,,V*08
$PSSN,HRP,181607.00,010125,,,,,,,00,0,,*68
$PTNL,AVR,181607.00,,Yaw,,Tilt,,,,0,,00*3E
$GPGSA,A,3,05,10,16,18,23,26,27,29,31,,,,0.8,0.5,0.7*3B
$GPGSA,A,3,65,66,73,79,80,81,82,83,,,,,0.8,0.5,0.7*31
$GPGSA,A,3,13,15,21,26,27,,,,,,,,0.8,0.5,0.7*3C
$GPGSA,A,3,05,08,11,13,21,23,25,28,34,37,38,42,0.8,0.5,0.7*36
$GPGSA,A,3,43,60,,,,,,,,,,,0.8,0.5,0.7*39
$GPGST,181607.00,1.387,0.433,0.327,0.445,0.433,0.327,0.707*56
$GPGBS,181607.00,2.670,1.897,3.904,73,0.0001,4.373,6.100*5D
$GPGRS,181607.00,1,0.5,-1.3,-0.2,0.1,0.1,-0.2,-0.3,0.1,0.8,,,*64
$GPGRS,181607.00,1,1.1,-4.5,4.4,-0.7,-0.2,1.2,-0.3,-2.3,,,,*6F
$GPGRS,181607.00,1,0.2,0.2,-0.1,-0.5,0.1,,,,,,,*6C
$GPGRS,181607.00,1,0.7,1.2,0.1,0.1,-0.6,-0.2,-1.1,0.3,0.0,-0.2,0.2,0.2*46
$GPGRS,181607.00,1,0.2,-1.3,,,,,,,,,,*6A
$GPGSV,5,1,20,18,74,066,49,23,35,144,45,05,16,038,40,27,26,285,43*7B
$GPGSV,5,2,20,31,17,224,42,29,28,089,44,16,55,296,48,26,66,227,50*7A
$GPGSV,5,3,20,28,02,204,31,10,08,175,40,15,02,089,35,36,35,170,45*7A
$GPGSV,5,4,20,58,13,245,38,40,24,133,36,34,31,208,43,49,34,195,44*74
$GPGSV,5,5,20,57,08,111,37,41,07,108,34,61,03,257,38*47
$GLGSV,3,1,10,82,72,343,51,66,19,073,45,65,14,023,40,79,18,176,45*61
$GLGSV,3,2,10,83,44,259,41,73,38,317,49,81,33,049,50,80,61,223,53*69
$GLGSV,3,3,10,67,03,120,,74,00,338,35*68
$GAGSV,2,1,08,13,70,213,49,23,20,313,,26,17,225,40,27,47,157,47*6C
$GAGSV,2,2,08,15,52,053,46,21,69,279,49,05,01,038,,34,02,048,32*6D
$GBGSV,6,1,24,43,77,045,51,05,22,129,38,60,11,109,40,38,26,039,43*64
$GBGSV,6,2,24,42,17,113,42,21,20,062,42,50,21,087,,23,43,218,49*66
$GBGSV,6,3,24,34,29,072,45,37,40,291,47,08,39,047,43,31,37,052,*6E
$GBGSV,6,4,24,28,34,260,47,27,39,249,,13,44,057,45,11,53,061,47*66
$GBGSV,6,5,24,22,03,016,36,14,07,137,,12,02,072,35,02,07,106,34*6F
$GBGSV,6,6,24,46,02,331,,25,08,177,41,58,07,326,,07,09,107,*62
$GPGGA,181607.00,,,,,0,00,,,M,,M,,*41
$PTNL,GGK,181607.00,010125,4742.1604044,N,01618.1000411,E,1,36,0.8,EHT751.7939,M*44
$GPGGQ,181607.00,010125,4742.1604044,N,01618.1000411,E,1,36,0.892,708.5874,M*37
$GPGFA,181607.00,4.121,5.800,0.433,0.327,0.445,0.707,,VVV*06
$GPLLK,181607.00,010125,,M,,M,1,36,1.0,,M*06
$GNGMP,181607.00,,,,,DAAA,36,0.5,,,,*5F
$GPGMP,181607.00,,,,,,09,,,,2.1,136*7A
$GLGMP,181607.00,,,,,,08,,,,,*7E
$GAGMP,181607.00,,,,,,05,,,,,*7E
$GBGMP,181607.00,,,,,,14,,,,,*7D
$PSSN,SNC,[0,324985000,2347]*45
$GPZDA,181612.00,01,01,2025,,*6E
$GPDTM,W84,,00.0000000,N,00.0000000,E,00.0000000,W84*5F
$PSSN,TFM,181612.00,,,,*62
$GPRMC,181612.00,A,4742.1604031,N,01618.1000392,E,0.0,,010125,5.1,E,D*13
$GPGLL,4742.1604031,N,01618.1000392,E,181612.00,A,D*62
$GPGGA,181612.00,4742.1604031,N,01618.1000392,E,2,36,0.5,708.5896,M,43.2066,M,2.2,0136*43
$GNGNS,181612.00,4742.1604031,N,01618.1000392,E,DAAA,36,0.5,708.5896,43.2066,,*5B
$GPGNS,181612.00,,,,,,09,,,,2.2,136*7D
$GLGNS,181612.00,,,,,,08,,,,,*7A
$GAGNS,181612.00,,,,,,05,,,,,*7A
$GBGNS,181612.00,,,,,,14,,,,,*79
$GPLLQ,181612.00,010125,,M,,M,1,36,0.885,,M*1C
$GPVTG,,T,,M,0.00,N,0.00,K,D*26
$GPHDT,,T*1B
$GPTHS,,V*0E
$GPROT,,V*08
$PSSN,HRP,181612.00,010125,,,,,,,00,0,,*6C
$PTNL,AVR,181612.00,,Yaw,,Tilt,,,,0,,00*3A
$GPGSA,A,3,05,10,16,18,23,26,27,29,31,,,,0.8,0.5,0.7*3B
$GPGSA,A,3,65,66,73,79,80,81,82,83,,,,,0.8,0.5,0.7*31
$GPGSA,A,3,13,15,21,26,27,,,,,,,,0.8,0.5,0.7*3C
$GPGSA,A,3,05,08,11,13,21,23,25,28,34,37,38,42,0.8,0.5,0.7*36
$GPGSA,A,3,43,60,,,,,,,,,,,0.8,0.5,0.7*39
$GPGST,181612.00,1.423,0.433,0.323,3.055,0.433,0.324,0.700*5D
$GPGBS,181612.00,2.710,1.927,3.944,66,0.0001,-4.804,6.290*78
$GPGRS,181612.00,1,-0.1,-1.2,0.3,0.0,0.2,-0.2,-0.6,0.2,0.3,,,*6B
$GPGRS,181612.00,1,1.3,-4.8,4.3,-0.9,-0.5,1.4,-0.4,-2.1,,,,*69
$GPGRS,181612.00,1,0.1,0.1,-0.1,-0.2,0.2,,,,,,,*6C
$GPGRS,181612.00,1,1.1,1.2,0.3,-0.1,-0.2,-0.3,-1.1,0.1,-0.1,-0.2,-0.2,0.4*6A
$GPGRS,181612.00,1,0.2,-1.4,,,,,,,,,,*69
$GPGSV,5,1,20,18,74,066,49,23,35,144,45,05,16,038,40,27,26,285,43*7B
$GPGSV,5,2,20,31,17,224,42,29,28,089,45,16,55,296,48,26,66,227,50*7B
$GPGSV,5,3,20,28,02,204,31,10,08,175,40,15,02,089,36,36,35,170,45*79
$GPGSV,5,4,20,58,13,245,37,40,24,133,36,34,31,208,43,49,34,195,44*7B
$GPGSV,5,5,20,57,08,111,37,41,07,108,35,61,03,257,38*46
$GLGSV,3,1,10,82,72,344,51,66,19,073,46,65,14,023,40,79,18,176,45*65
$GLGSV,3,2,10,83,44,259,41,73,38,317,49,81,33,049,50,80,61,223,52*68
$GLGSV,3,3,10,67,03,120,,74,01,338,35*69
$GAGSV,2,1,08,13,70,213,49,23,20,313,,26,17,225,40,27,47,157,47*6C
$GAGSV,2,2,08,15,52,053,46,21,69,279,49,05,01,038,,34,02,048,31*6E
$GBGSV,6,1,24,43,77,045,51,05,22,129,38,60,11,109,40,38,26,039,43*64
$GBGSV,6,2,24,42,17,113,42,21,20,062,42,50,21,087,,23,43,218,49*66
$GBGSV,6,3,24,34,29,072,45,37,40,291,47,08,39,047,43,31,37,052,*6E
$GBGSV,6,4,24,28,34,260,47,27,39,249,,13,44,057,45,11,53,061,47*66
$GBGSV,6,5,24,22,03,016,37,14,07,137,,12,02,072,36,02,07,106,34*6D
$GBGSV,6,6,24,46,02,331,,25,08,177,41,58,07,326,,07,09,107,*62
$GPGGA,181612.00,,,,,0,00,,,M,,M,,*45
$PTNL,GGK,181612.00,010125,4742.1604031,N,01618.1000392,E,1,36,0.8,EHT751.7962,M*40
$GPGGQ,181612.00,010125,4742.1604031,N,01618.1000392,E,1,36,0.885,708.5896,M*37
$GPGFA,181612.00,4.116,5.744,0.433,0.323,3.055,0.700,,VVV*0C
$GPLLK,181612.00,010125,,M,,M,1,36,1.0,,M*02
$GNGMP,181612.00,,,,,DAAA,36,0.5,,,,*5B
$GPGMP,181612.00,,,,,,09,,,,2.2,136*7D
$GLGMP,181612.00,,,,,,08,,,,,*7A
$GAGMP,181612.00,,,,,,05,,,,,*7A
$GBGMP,181612.00,,,,,,14,,,,,*79
$PSSN,SNC,[0,324990000,2347]*41
$GPZDA,181617.00,01,01,2025,,*6B
$GPDTM,W84,,00.0000000,N,00.0000000,E,00.0000000,W84*5F
$PSSN,TFM,181617.00,,,,*67
$GPRMC,181617.00,A,4742.1604037,N,01618.1000382,E,0.0,,010125,5.1,E,D*11
$GPGLL,4742.1604037,N,01618.1000382,E,181617.00,A,D*60
$GPGGA,181617.00,4742.1604037,N,01618.1000382,E,2,36,0.5,708.5848,M,43.2066,M,2.3,0136*43
$GNGNS,181617.00,4742.1604037,N,01618.1000382,E,DAAA,36,0.5,708.5848,43.2066,,*5A
$GPGNS,181617.00,,,,,,09,,,,2.3,136*79
$GLGNS,181617.00,,,,,,08,,,,,*7F
$GAGNS,181617.00,,,,,,05,,,,,*7F
$GBGNS,181617.00,,,,,,14,,,,,*7C
$GPLLQ,181617.00,010125,,M,,M,1,36,0.892,,M*1F
$GPVTG,,T,,M,0.00,N,0.00,K,D*26
$GPHDT,,T*1B
$GPTHS,,V*0E
$GPROT,,V*08
$PSSN,HRP,181617.00,010125,,,,,,,00,0,,*69
$PTNL,AVR,181617.00,,Yaw,,Tilt,,,,0,,00*3F
$GPGSA,A,3,05,10,16,18,23,26,27,29,31,,,,0.8,0.5,0.7*3B
$GPGSA,A,3,65,66,73,79,80,81,82,83,,,,,0.8,0.5,0.7*31
$GPGSA,A,3,13,15,21,26,27,,,,,,,,0.8,0.5,0.7*3C
$GPGSA,A,3,05,08,11,13,21,23,25,28,34,37,38,42,0.8,0.5,0.7*36
$GPGSA,A,3,43,60,,,,,,,,,,,0.8,0.5,0.7*39
$GPGST,181617.00,1.349,0.435,0.326,1.740,0.435,0.326,0.707*52
$GPGBS,181617.00,2.726,1.971,3.996,66,0.0001,-4.384,6.289*7F
$GPGRS,181617.00,1,0.4,-1.1,0.2,-0.0,0.1,-0.3,-0.5,-0.1,0.7,,,*42
$GPGRS,181617.00,1,0.7,-4.4,4.2,-0.2,-0.5,1.1,-0.6,-1.9,,,,*63
$GPGRS,181617.00,1,-0.0,0.0,0.1,0.4,0.1,,,,,,,*41
$GPGRS,181617.00,1,0.8,1.4,1.1,-0.2,0.1,-0.2,-0.9,0.2,0.1,-0.1,-0.2,0.3*6D
$GPGRS,181617.00,1,0.3,-1.6,,,,,,,,,,*6F
$GPGSV,5,1,20,18,74,066,49,23,35,144,45,05,16,038,40,27,26,285,44*7C
$GPGSV,5,2,20,31,16,224,42,29,28,089,45,16,55,296,48,26,66,226,50*7B
$GPGSV,5,3,20,28,02,204,29,10,08,175,40,15,02,089,36,36,35,170,45*70
$GPGSV,5,4,20,58,13,245,37,40,24,133,36,34,31,208,43,49,34,195,44*7B
$GPGSV,5,5,20,57,08,111,37,41,07,108,34,61,03,257,38*47
$GLGSV,3,1,10,82,72,344,51,66,19,073,45,65,14,023,40,79,18,176,45*66
$GLGSV,3,2,10,83,44,259,40,73,38,317,49,81,33,049,49,80,61,223,52*61
$GLGSV,3,3,10,67,03,120,,74,01,338,33*6F
$GAGSV,2,1,08,13,70,213,49,23,20,313,,26,17,225,41,27,47,157,47*6D
$GAGSV,2,2,08,15,52,053,46,21,69,279,48,05,01,038,,34,02,048,31*6F
$GBGSV,6,1,24,43,77,045,51,05,22,129,37,60,11,109,40,38,26,039,43*6B
$GBGSV,6,2,24,42,17,113,42,21,20,062,42,50,21,087,,23,43,218,48*67
$GBGSV,6,3,24,34,29,072,45,37,40,291,47,08,39,047,43,31,37,052,*6E
$GBGSV,6,4,24,28,34,260,47,27,39,249,,13,44,057,45,11,53,061,47*66
$GBGSV,6,5,24,22,03,016,36,14,07,137,,12,02,072,36,02,07,106,34*6C
$GBGSV,6,6,24,46,02,331,,25,08,177,41,58,07,326,,07,09,107,*62
$GPGGA,181617.00,,,,,0,00,,,M,,M,,*40
$PTNL,GGK,181617.00,010125,4742.1604037,N,01618.1000382,E,1,36,0.8,EHT751.7914,M*43
$GPGGQ,181617.00,010125,4742.1604037,N,01618.1000382,E,1,36,0.892,708.5848,M*30
$GPGFA,181617.00,4.137,5.797,0.435,0.326,1.740,0.707,,VVV*01
$GPLLK,181617.00,010125,,M,,M,1,36,1.0,,M*07
$GNGMP,181617.00,,,,,DAAA,36,0.5,,,,*5E
