$GPZDA,045942.00,01,01,2025,,*6D
$GPDTM,W84,,00.0000000,N,00.0000000,E,00.0000000,W84*5F
$PSSN,TFM,045942.00,,,,*61
$GPRMC,045942.00,A,4742.1603841,N,01618.1002127,E,0.0,,010125,5.1,E,D*16
$GPGLL,4742.1603841,N,01618.1002127,E,045942.00,A,D*67
$GPGGA,045942.00,4742.1603841,N,01618.1002127,E,2,39,0.4,707.7794,M,43.2066,M,2.5,0136*4F
$GNGNS,045942.00,4742.1603841,N,01618.1002127,E,DAAA,39,0.4,707.7794,43.2066,,*50
$GPGNS,045942.00,,,,,,08,,,,2.5,136*78
$GLGNS,045942.00,,,,,,09,,,,,*78
$GAGNS,045942.00,,,,,,09,,,,,*75
$GBGNS,045942.00,,,,,,13,,,,,*7D
$GPLLQ,045942.00,010125,,M,,M,1,39,1.124,,M*13
$GPVTG,,T,,M,0.00,N,0.00,K,D*26
$GPHDT,,T*1B
$GPTHS,,V*0E
$GPROT,,V*08
$PSSN,HRP,045942.00,010125,,,,,,,00,0,,*6F
$PTNL,AVR,045942.00,,Yaw,,Tilt,,,,0,,00*39
$GPGSA,A,3,04,06,07,09,11,16,20,30,,,,,0.8,0.4,0.7*33
$GPGSA,A,3,70,71,72,73,74,80,86,87,88,,,,0.8,0.4,0.7*33
$GPGSA,A,3,03,05,06,09,15,24,31,34,36,,,,0.8,0.4,0.7*32
$GPGSA,A,3,05,06,09,12,16,19,20,22,34,36,37,44,0.8,0.4,0.7*3B
$GPGSA,A,3,60,,,,,,,,,,,,0.8,0.4,0.7*3F
$GPGST,045942.00,1.897,0.440,0.291,335.521,0.418,0.321,0.992*58
$GPGBS,045942.00,2.823,1.978,6.037,72,0.0001,5.858,6.082*57
$GPGRS,045942.00,1,0.1,-0.1,0.0,-0.3,-0.3,0.2,0.1,0.7,,,,*69
$GPGRS,045942.00,1,-1.1,-0.5,5.9,4.7,3.2,-3.1,-2.3,-4.1,-1.3,,,*61
$GPGRS,045942.00,1,-0.4,0.3,0.5,0.2,0.1,-1.3,-0.3,0.2,-0.6,,,*6A
$GPGRS,045942.00,1,1.3,0.5,1.3,-1.4,0.6,0.1,-0.1,-0.7,0.4,-0.1,-0.8,0.0*61
$GPGRS,045942.00,1,-1.6,,,,,,,,,,,*44
$GPGSV,6,1,21,07,68,167,49,04,33,074,44,16,18,052,40,20,37,306,45*71
$GPGSV,6,2,21,30,35,204,46,11,41,277,46,06,37,226,45,09,62,066,49*7F
$GPGSV,6,3,21,05,05,311,39,26,04,027,36,29,02,338,37,03,04,131,20*75
$GPGSV,6,4,21,36,35,170,45,58,13,245,37,40,24,132,37,34,31,208,43*7A
$GPGSV,6,5,21,49,34,195,45,57,07,111,38,41,07,108,35,61,03,257,38*72
$GPGSV,6,6,21*7A
$GLGSV,3,1,09,71,65,042,52,88,18,334,44,70,24,090,38,74,25,159,42*6B
$GLGSV,3,2,09,86,15,223,45,87,33,271,47,80,29,036,47,72,44,305,50*6E
$GLGSV,3,3,09,73,50,108,50*51
$GAGSV,3,1,11,05,80,321,49,06,15,076,39,36,15,187,39,24,18,125,39*65
$GAGSV,3,2,11,31,24,072,42,03,31,265,44,15,34,306,44,34,46,237,47*68
$GAGSV,3,3,11,09,37,071,45,23,07,024,,16,07,148,*5F
$GBGSV,6,1,22,22,66,306,52,16,15,045,39,34,13,311,42,06,17,047,38*6E
$GBGSV,6,2,22,44,15,259,44,05,22,129,39,09,31,050,41,12,20,284,40*60
$GBGSV,6,3,22,36,42,153,49,48,27,104,,58,38,069,,46,45,075,*63
$GBGSV,6,4,22,19,54,096,50,21,65,302,,37,07,033,38,39,04,045,38*67
$GBGSV,6,5,22,11,08,334,,45,06,189,,35,01,218,39,20,07,106,41*62
$GBGSV,6,6,22,02,06,107,35,60,07,111,40*6B
$GPGGA,045942.00,,,,,0,00,,,M,,M,,*46
$PTNL,GGK,045942.00,010125,4742.1603841,N,01618.1002127,E,1,39,0.8,EHT750.9860,M*46
$GPGGQ,045942.00,010125,4742.1603841,N,01618.1002127,E,1,39,1.124,707.7794,M*3E
$GPGFA,045942.00,4.179,8.136,0.440,0.291,335.521,0.992,,VVV*01
$GPLLK,045942.00,010125,,M,,M,1,39,0.9,,M*06
$GNGMP,045942.00,,,,,DAAA,39,0.4,,,,*56
$GPGMP,045942.00,,,,,,08,,,,2.5,136*78
$GLGMP,045942.00,,,,,,09,,,,,*78
$GAGMP,045942.00,,,,,,09,,,,,*75
$GBGMP,045942.00,,,,,,13,,,,,*7D
$PSSN,SNC,[0,277200000,2347]*44
$GPZDA,045947.00,01,01,2025,,*68
$GPDTM,W84,,00.0000000,N,00.0000000,E,00.0000000,W84*5F
$PSSN,TFM,045947.00,,,,*64
$GPRMC,045947.00,A,4742.1603882,N,01618.1002138,E,0.0,,010125,5.1,E,D*12
$GPGLL,4742.1603882,N,01618.1002138,E,045947.00,A,D*63
$GPGGA,045947.00,4742.1603882,N,01618.1002138,E,2,39,0.4,707.7823,M,43.2066,M,3.0,0136*4C
$GNGNS,045947.00,4742.1603882,N,01618.1002138,E,DAAA,39,0.4,707.7823,43.2066,,*57
$GPGNS,045947.00,,,,,,08,,,,3.0,136*79
$GLGNS,045947.00,,,,,,09,,,,,*7D
$GAGNS,045947.00,,,,,,09,,,,,*70
$GBGNS,045947.00,,,,,,13,,,,,*78
$GPLLQ,045947.00,010125,,M,,M,1,39,1.140,,M*14
$GPVTG,,T,,M,0.00,N,0.00,K,D*26
$GPHDT,,T*1B
$GPTHS,,V*0E
$GPROT,,V*08
$PSSN,HRP,045947.00,010125,,,,,,,00,0,,*6A
$PTNL,AVR,045947.00,,Yaw,,Tilt,,,,0,,00*3C
$GPGSA,A,3,04,06,07,09,11,16,20,30,,,,,0.8,0.4,0.7*33
$GPGSA,A,3,70,71,72,73,74,80,86,87,88,,,,0.8,0.4,0.7*33
$GPGSA,A,3,03,05,06,09,15,24,31,34,36,,,,0.8,0.4,0.7*32
$GPGSA,A,3,05,06,09,12,16,19,20,22,34,36,37,44,0.8,0.4,0.7*3B
$GPGSA,A,3,60,,,,,,,,,,,,0.8,0.4,0.7*3F
$GPGST,045947.00,1.928,0.445,0.295,334.922,0.422,0.327,1.008*53
$GPGBS,045947.00,2.879,2.001,6.232,87,0.0001,-5.344,6.120*76
$GPGRS,045947.00,1,0.1,-0.0,0.0,-0.3,-0.2,0.1,0.0,0.5,,,,*6C
$GPGRS,045947.00,1,-1.8,-1.0,5.2,4.5,3.0,-3.2,-2.6,-5.3,-1.8,,,*6C
$GPGRS,045947.00,1,-0.5,0.1,0.0,0.1,0.1,-0.8,-0.3,0.1,-0.5,,,*60
$GPGRS,045947.00,1,1.0,0.2,1.4,0.4,0.3,-0.1,-0.3,-0.6,0.5,-0.3,-1.0,0.0*6A
$GPGRS,045947.00,1,-1.7,,,,,,,,,,,*40
$GPGSV,6,1,21,07,68,167,49,04,33,074,44,16,18,052,40,20,37,306,45*71
$GPGSV,6,2,21,30,35,204,46,11,41,276,46,06,37,226,45,09,62,066,49*7E
$GPGSV,6,3,21,05,05,311,39,26,04,027,36,29,02,338,37,03,04,131,20*75
$GPGSV,6,4,21,36,35,170,45,58,13,245,37,40,24,132,36,34,31,208,44*7C
$GPGSV,6,5,21,49,34,195,45,57,07,111,37,41,07,108,35,61,03,257,38*7D
$GPGSV,6,6,21*7A
$GLGSV,3,1,09,71,65,042,52,88,18,333,43,70,24,090,38,74,25,159,42*6B
$GLGSV,3,2,09,86,15,223,45,87,33,271,46,80,29,036,47,72,44,305,50*6F
$GLGSV,3,3,09,73,50,108,51*50
$GAGSV,3,1,11,05,80,321,49,06,15,076,39,36,15,187,39,24,18,125,39*65
$GAGSV,3,2,11,31,24,071,42,03,31,265,43,15,34,306,44,34,46,237,47*6C
$GAGSV,3,3,11,09,37,071,45,23,07,024,,16,07,148,*5F
$GBGSV,6,1,22,22,66,307,52,16,15,045,39,34,13,311,42,06,17,047,38*6F
$GBGSV,6,2,22,44,15,259,43,05,22,129,38,09,31,050,41,12,20,284,40*66
$GBGSV,6,3,22,36,42,153,49,48,27,104,,58,38,069,,46,45,075,*63
$GBGSV,6,4,22,19,54,096,50,21,65,302,,37,07,033,38,39,04,045,38*67
$GBGSV,6,5,22,11,08,334,,45,06,189,,35,01,218,38,20,07,106,40*62
$GBGSV,6,6,22,02,06,107,35,60,07,111,40*6B
$GPGGA,045947.00,,,,,0,00,,,M,,M,,*43
$PTNL,GGK,045947.00,010125,4742.1603882,N,01618.1002138,E,1,39,0.8,EHT750.9888,M*44
$GPGGQ,045947.00,010125,4742.1603882,N,01618.1002138,E,1,39,1.140,707.7823,M*3B
$GPGFA,045947.00,4.229,8.262,0.445,0.295,334.922,1.008,,VVV*04
$GPLLK,045947.00,010125,,M,,M,1,39,0.9,,M*03
$GNGMP,045947.00,,,,,DAAA,39,0.4,,,,*53
$GPGMP,045947.00,,,,,,08,,,,3.0,136*79
$GLGMP,045947.00,,,,,,09,,,,,*7D
$GAGMP,045947.00,,,,,,09,,,,,*70
$GBGMP,045947.00,,,,,,13,,,,,*78
$PSSN,SNC,[0,277205000,2347]*41
$GPZDA,045952.00,01,01,2025,,*6C
$GPDTM,W84,,00.0000000,N,00.0000000,E,00.0000000,W84*5F
$PSSN,TFM,045952.00,,,,*60
$GPRMC,045952.00,A,4742.1603898,N,01618.1002119,E,0.0,,010125,5.1,E,D*1E
$GPGLL,4742.1603898,N,01618.1002119,E,045952.00,A,D*6F
$GPGGA,045952.00,4742.1603898,N,01618.1002119,E,2,39,0.4,707.7826,M,43.2066,M,3.0,0136*45
$GNGNS,045952.00,4742.1603898,N,01618.1002119,E,DAAA,39,0.4,707.7826,43.2066,,*5E
$GPGNS,045952.00,,,,,,08,,,,3.0,136*7D
$GLGNS,045952.00,,,,,,09,,,,,*79
$GAGNS,045952.00,,,,,,09,,,,,*74
$GBGNS,045952.00,,,,,,13,,,,,*7C
$GPLLQ,045952.00,010125,,M,,M,1,39,1.151,,M*10
$GPVTG,,T,,M,0.00,N,0.00,K,D*26
$GPHDT,,T*1B
$GPTHS,,V*0E
$GPROT,,V*08
$PSSN,HRP,045952.00,010125,,,,,,,00,0,,*6E
$PTNL,AVR,045952.00,,Yaw,,Tilt,,,,0,,00*38
$GPGSA,A,3,04,06,07,09,11,16,20,30,,,,,0.8,0.4,0.7*33
$GPGSA,A,3,70,71,72,73,74,80,86,87,88,,,,0.8,0.4,0.7*33
$GPGSA,A,3,03,05,06,09,15,24,31,34,36,,,,0.8,0.4,0.7*32
$GPGSA,A,3,05,06,09,12,16,19,20,22,34,36,37,44,0.8,0.4,0.7*3B
$GPGSA,A,3,60,,,,,,,,,,,,0.8,0.4,0.7*3F
$GPGST,045952.00,2.000,0.443,0.298,334.300,0.419,0.330,1.019*58
$GPGBS,045952.00,2.899,1.988,6.271,72,0.0001,5.632,6.081*59
$GPGRS,045952.00,1,-0.1,-0.2,0.2,0.2,-0.1,0.3,-0.2,-0.0,,,,*6F
$GPGRS,045952.00,1,-2.2,-1.3,5.6,5.1,2.9,-3.2,-2.4,-5.1,-2.2,,,*62
$GPGRS,045952.00,1,-0.3,0.1,0.1,0.2,0.1,-0.6,-0.3,-0.0,-0.2,,,*45
$GPGRS,045952.00,1,0.9,0.3,1.1,0.7,0.7,-0.1,-0.1,-0.8,0.7,-0.2,-0.6,-0.8*48
$GPGRS,045952.00,1,-1.7,,,,,,,,,,,*44
$GPGSV,6,1,21,07,68,167,49,04,33,074,44,16,18,052,39,20,37,306,45*7F
$GPGSV,6,2,21,30,35,204,45,11,41,276,46,06,37,226,46,09,62,066,49*7E
$GPGSV,6,3,21,05,05,311,39,26,04,027,35,29,02,338,38,03,04,131,20*79
$GPGSV,6,4,21,36,35,170,45,58,13,245,37,40,24,132,36,34,31,208,44*7C
$GPGSV,6,5,21,49,34,195,45,57,07,111,37,41,07,108,35,61,03,257,39*7C
$GPGSV,6,6,21*7A
$GLGSV,3,1,09,71,65,042,51,88,18,333,43,70,24,090,37,74,25,159,42*67
$GLGSV,3,2,09,86,15,223,45,87,33,271,47,80,29,036,47,72,44,305,50*6E
$GLGSV,3,3,09,73,50,108,50*51
$GAGSV,3,1,11,05,80,321,49,06,15,076,39,36,15,187,40,24,18,125,39*6B
$GAGSV,3,2,11,31,24,071,42,03,31,265,43,15,34,306,44,34,46,237,47*6C
$GAGSV,3,3,11,09,37,071,45,23,07,024,,16,07,148,*5F
$GBGSV,6,1,22,22,66,307,52,16,15,045,39,34,13,311,42,06,17,047,38*6F
$GBGSV,6,2,22,44,15,259,44,05,22,129,38,09,31,050,41,12,20,284,40*61
$GBGSV,6,3,22,36,42,153,49,48,27,104,,58,38,069,,46,45,075,*63
$GBGSV,6,4,22,19,54,096,51,21,65,302,,37,07,033,38,39,04,045,38*66
$GBGSV,6,5,22,11,08,334,,45,06,189,,35,01,218,38,20,07,106,41*63
$GBGSV,6,6,22,02,06,107,35,60,07,111,40*6B
$GPGGA,045952.00,,,,,0,00,,,M,,M,,*47
$PTNL,GGK,045952.00,010125,4742.1603898,N,01618.1002119,E,1,39,0.8,EHT750.9891,M*40
$GPGGQ,045952.00,010125,4742.1603898,N,01618.1002119,E,1,39,1.151,707.7826,M*32
$GPGFA,045952.00,4.209,8.359,0.443,0.298,334.300,1.019,,VVV*0A
$GPLLK,045952.00,010125,,M,,M,1,39,0.9,,M*07
$GNGMP,045952.00,,,,,DAAA,39,0.4,,,,*57
$GPGMP,045952.00,,,,,,08,,,,3.0,136*7D
$GLGMP,045952.00,,,,,,09,,,,,*79
$GAGMP,045952.00,,,,,,09,,,,,*74
$GBGMP,045952.00,,,,,,13,,,,,*7C
$PSSN,SNC,[0,277210000,2347]*45
$GPZDA,045957.00,01,01,2025,,*69
$GPDTM,W84,,00.0000000,N,00.0000000,E,00.0000000,W84*5F
$PSSN,TFM,045957.00,,,,*65
$GPRMC,045957.00,A,4742.1603894,N,01618.1002105,E,0.0,,010125,5.1,E,D*1A
$GPGLL,4742.1603894,N,01618.1002105,E,045957.00,A,D*6B
$GPGGA,045957.00,4742.1603894,N,01618.1002105,E,2,39,0.4,707.7760,M,43.2066,M,1.5,0136*4B
$GNGNS,045957.00,4742.1603894,N,01618.1002105,E,DAAA,39,0.4,707.7760,43.2066,,*57
$GPGNS,045957.00,,,,,,08,,,,1.5,136*7F
$GLGNS,045957.00,,,,,,09,,,,,*7C
$GAGNS,045957.00,,,,,,09,,,,,*71
$GBGNS,045957.00,,,,,,13,,,,,*79
$GPLLQ,045957.00,010125,,M,,M,1,39,1.139,,M*1B
$GPVTG,,T,,M,0.00,N,0.01,K,D*27
$GPHDT,,T*1B
$GPTHS,,V*0E
$GPROT,,V*08
$PSSN,HRP,045957.00,010125,,,,,,,00,0,,*6B
$PTNL,AVR,045957.00,,Yaw,,Tilt,,,,0,,00*3D
$GPGSA,A,3,04,06,07,09,11,16,20,30,,,,,0.8,0.4,0.7*33
$GPGSA,A,3,70,71,72,73,74,80,86,87,88,,,,0.8,0.4,0.7*33
$GPGSA,A,3,03,05,06,09,15,24,31,34,36,,,,0.8,0.4,0.7*32
$GPGSA,A,3,05,06,09,12,16,19,20,22,34,36,37,44,0.8,0.4,0.7*3B
$GPGSA,A,3,60,,,,,,,,,,,,0.8,0.4,0.7*3F
$GPGST,045957.00,2.051,0.440,0.295,335.201,0.418,0.325,1.009*52
$GPGBS,045957.00,2.779,1.955,5.979,72,0.0001,5.885,6.081*5F
$GPGRS,045957.00,1,-0.1,-0.3,0.3,-0.2,0.0,-0.2,0.3,-0.1,,,,*6A
$GPGRS,045957.00,1,-3.5,-1.4,5.9,4.8,3.5,-2.9,-3.0,-4.5,-1.9,,,*6E
$GPGRS,045957.00,1,-0.3,0.2,0.3,0.4,0.2,-0.5,-0.1,-0.1,-0.2,,,*44
$GPGRS,045957.00,1,0.9,-0.1,0.6,-0.3,0.6,0.2,0.0,-0.8,0.8,0.1,-0.9,-0.3*6B
$GPGRS,045957.00,1,-2.1,,,,,,,,,,,*44
$GPGSV,6,1,21,07,68,167,49,04,33,074,44,16,18,052,40,20,37,306,45*71
$GPGSV,6,2,21,30,35,204,46,11,41,276,46,06,37,226,46,09,62,066,49*7D
$GPGSV,6,3,21,05,05,311,38,26,04,027,35,29,02,338,37,03,04,131,*75
$GPGSV,6,4,21,36,35,170,45,58,13,245,37,40,24,132,37,34,31,208,44*7D
$GPGSV,6,5,21,49,34,195,45,57,07,111,38,41,07,108,35,61,03,257,39*73
$GPGSV,6,6,21*7A
$GLGSV,3,1,09,71,65,042,51,88,18,333,44,70,24,090,37,74,25,159,42*60
$GLGSV,3,2,09,86,15,223,44,87,33,271,46,80,29,036,47,72,44,305,50*6E
$GLGSV,3,3,09,73,50,108,50*51
$GAGSV,3,1,11,05,80,321,49,06,15,076,39,36,15,187,40,24,18,125,40*65
$GAGSV,3,2,11,31,24,071,42,03,31,265,44,15,34,306,43,34,46,237,47*6C
$GAGSV,3,3,11,09,37,071,45,23,07,024,,16,07,148,*5F
$GBGSV,6,1,22,22,66,307,52,16,15,045,39,34,13,311,42,06,17,047,38*6F
$GBGSV,6,2,22,44,15,259,43,05,22,129,38,09,31,050,41,12,20,284,40*66
$GBGSV,6,3,22,36,42,153,49,48,27,104,,58,38,069,,46,45,075,*63
$GBGSV,6,4,22,19,54,096,50,21,65,302,,37,07,033,38,39,04,045,38*67
$GBGSV,6,5,22,11,08,334,,45,06,189,,35,01,218,38,20,07,106,41*63
$GBGSV,6,6,22,02,06,107,35,60,07,111,40*6B
$GPGGA,045957.00,,,,,0,00,,,M,,M,,*42
$PTNL,GGK,045957.00,010125,4742.1603894,N,01618.1002105,E,1,39,0.8,EHT750.9825,M*4B
$GPGGQ,045957.00,010125,4742.1603894,N,01618.1002105,E,1,39,1.139,707.7760,M*35
$GPGFA,045957.00,4.180,8.273,0.440,0.295,335.201,1.009,,VVV*0A
$GPLLK,045957.00,010125,,M,,M,1,39,0.9,,M*02
$GNGMP,045957.00,,,,,DAAA,39,0.4,,,,*52
$GPGMP,045957.00,,,,,,08,,,,1.5,136*7F
$GLGMP,045957.00,,,,,,09,,,,,*7C
$GAGMP,045957.00,,,,,,09,,,,,*71
$GBGMP,045957.00,,,,,,13,,,,,*79
$PSSN,SNC,[0,277215000,2347]*40
$GPZDA,050002.00,01,01,2025,,*64
$GPDTM,W84,,00.0000000,N,00.0000000,E,00.0000000,W84*5F
$PSSN,TFM,050002.00,,,,*68
$GPRMC,050002.00,A,4742.1603895,N,01618.1002122,E,0.0,,010125,5.1,E,D*13
$GPGLL,4742.1603895,N,01618.1002122,E,050002.00,A,D*62
$GPGGA,050002.00,4742.1603895,N,01618.1002122,E,2,39,0.4,707.7761,M,43.2066,M,2.5,0136*40
$GNGNS,050002.00,4742.1603895,N,01618.1002122,E,DAAA,39,0.4,707.7761,43.2066,,*5F
$GPGNS,050002.00,,,,,,08,,,,2.5,136*71
$GLGNS,050002.00,,,,,,09,,,,,*71
$GAGNS,050002.00,,,,,,09,,,,,*7C
$GBGNS,050002.00,,,,,,13,,,,,*74
$GPLLQ,050002.00,010125,,M,,M,1,39,1.120,,M*1E
$GPVTG,,T,,M,0.00,N,0.01,K,D*27
$GPHDT,,T*1B
$GPTHS,,V*0E
$GPROT,,V*08
$PSSN,HRP,050002.00,010125,,,,,,,00,0,,*66
$PTNL,AVR,050002.00,,Yaw,,Tilt,,,,0,,00*30
$GPGSA,A,3,04,06,07,09,11,16,20,30,,,,,0.8,0.4,0.7*33
$GPGSA,A,3,70,71,72,73,74,80,86,87,88,,,,0.8,0.4,0.7*33
$GPGSA,A,3,03,05,06,09,15,24,31,34,36,,,,0.8,0.4,0.7*32
$GPGSA,A,3,05,06,09,12,16,19,20,22,34,36,37,44,0.8,0.4,0.7*3B
$GPGSA,A,3,60,,,,,,,,,,,,0.8,0.4,0.7*3F
$GPGST,050002.00,1.956,0.437,0.289,335.409,0.415,0.320,0.990*51
$GPGBS,050002.00,2.775,1.969,6.105,72,0.0001,5.531,6.080*52
$GPGRS,050002.00,1,-0.2,-0.6,0.1,-0.2,-0.0,0.7,0.3,0.4,,,,*4E
$GPGRS,050002.00,1,-2.6,-1.2,5.5,5.1,3.1,-3.2,-3.2,-4.4,-0.1,,,*67
$GPGRS,050002.00,1,-0.1,0.1,0.5,0.5,0.1,-0.7,-0.1,0.3,-0.3,,,*60
$GPGRS,050002.00,1,0.9,-0.0,0.7,0.6,0.1,0.1,0.0,-0.7,0.5,0.2,-0.5,-0.3*47
$GPGRS,050002.00,1,-1.4,,,,,,,,,,,*4F
$GPGSV,6,1,21,07,68,167,49,04,33,074,44,16,18,052,40,20,37,306,45*71
$GPGSV,6,2,21,30,35,204,46,11,41,276,45,06,37,226,45,09,62,066,49*7D
$GPGSV,6,3,21,05,05,311,38,26,04,027,36,29,02,338,37,03,04,131,*76
$GPGSV,6,4,21,36,35,170,45,58,13,245,37,40,24,132,37,34,31,208,44*7D
$GPGSV,6,5,21,49,34,195,45,57,07,111,37,41,07,108,35,61,03,257,38*7D
$GPGSV,6,6,21*7A
$GLGSV,3,1,09,71,65,042,51,88,18,333,45,70,24,090,37,74,25,159,43*60
$GLGSV,3,2,09,86,15,223,44,87,33,271,47,80,28,036,46,72,44,305,50*6F
$GLGSV,3,3,09,73,51,108,50*50
$GAGSV,3,1,11,05,80,322,49,06,14,076,40,36,15,187,40,24,18,125,40*69
$GAGSV,3,2,11,31,24,071,41,03,31,265,43,15,34,306,43,34,46,237,47*68
$GAGSV,3,3,11,09,37,071,45,23,07,024,,16,07,148,*5F
$GBGSV,6,1,22,22,66,307,52,16,15,045,39,34,13,311,42,06,17,047,38*6F
$GBGSV,6,2,22,44,15,259,43,05,22,129,38,09,31,050,41,12,20,284,40*66
$GBGSV,6,3,22,36,42,153,49,48,27,104,,58,38,069,,46,45,075,*63
$GBGSV,6,4,22,19,54,096,50,21,65,302,,37,07,033,39,39,04,045,38*66
$GBGSV,6,5,22,11,08,334,,45,06,189,,35,01,218,37,20,07,106,41*6C
$GBGSV,6,6,22,02,06,107,35,60,07,111,40*6B
$GPGGA,050002.00,,,,,0,00,,,M,,M,,*4F
$PTNL,GGK,050002.00,010125,4742.1603895,N,01618.1002122,E,1,39,0.8,EHT750.9827,M*40
$GPGGQ,050002.00,010125,4742.1603895,N,01618.1002122,E,1,39,1.120,707.7761,M*35
$GPGFA,050002.00,4.158,8.119,0.437,0.289,335.409,0.990,,VVV*06
$GPLLK,050002.00,010125,,M,,M,1,39,0.9,,M*0F
$GNGMP,050002.00,,,,,DAAA,39,0.4,,,,*5F
$GPGMP,050002.00,,,,,,08,,,,2.5,136*71
$GLGMP,050002.00,,,,,,09,,,,,*71
$GAGMP,050002.00,,,,,,09,,,,,*7C
$GBGMP,050002.00,,,,,,13,,,,,*74
$PSSN,SNC,[0,277220000,2347]*46
$GPZDA,050007.00,01,01,2025,,*61
$GPDTM,W84,,00.0000000,N,00.0000000,E,00.0000000,W84*5F
$PSSN,TFM,050007.00,,,,*6D
$GPRMC,050007.00,A,4742.1603886,N,01618.1002097,E,0.0,,010125,5.1,E,D*1B
$GPGLL,4742.1603886,N,01618.1002097,E,050007.00,A,D*6A
$GPGGA,050007.00,4742.1603886,N,01618.1002097,E,2,39,0.4,707.7780,M,43.2066,M,3.0,0136*43
$GNGNS,050007.00,4742.1603886,N,01618.1002097,E,DAAA,39,0.4,707.7780,43.2066,,*58
$GPGNS,050007.00,,,,,,08,,,,3.0,136*70
$GLGNS,050007.00,,,,,,09,,,,,*74
$GAGNS,050007.00,,,,,,09,,,,,*79
$GBGNS,050007.00,,,,,,13,,,,,*71
$GPLLQ,050007.00,010125,,M,,M,1,39,1.133,,M*19
$GPVTG,,T,,M,0.00,N,0.00,K,D*26
$GPHDT,,T*1B
$GPTHS,,V*0E
$GPROT,,V*08
$PSSN,HRP,050007.00,010125,,,,,,,00,0,,*63
$PTNL,AVR,050007.00,,Yaw,,Tilt,,,,0,,00*35
$GPGSA,A,3,04,06,07,09,11,16,20,30,,,,,0.8,0.4,0.7*33
$GPGSA,A,3,70,71,72,73,74,80,86,87,88,,,,0.8,0.4,0.7*33
$GPGSA,A,3,03,05,06,09,15,24,31,34,36,,,,0.8,0.4,0.7*32
$GPGSA,A,3,05,06,09,12,16,19,20,22,34,36,37,44,0.8,0.4,0.7*3B
$GPGSA,A,3,60,,,,,,,,,,,,0.8,0.4,0.7*3F
$GPGST,050007.00,1.948,0.440,0.292,334.451,0.416,0.325,1.002*58
$GPGBS,050007.00,2.834,1.991,6.296,72,0.0001,6.041,6.080*52
$GPGRS,050007.00,1,0.1,-0.4,0.1,-0.0,-0.3,0.6,0.3,-0.0,,,,*4E
$GPGRS,050007.00,1,-2.0,-0.9,6.0,5.4,3.3,-2.9,-1.9,-4.2,-0.9,,,*62
$GPGRS,050007.00,1,-0.1,0.1,0.8,0.4,0.2,-1.0,0.2,0.1,-0.3,,,*40
$GPGRS,050007.00,1,1.4,0.6,0.8,1.0,0.2,0.1,0.1,-0.7,0.7,-0.1,-0.2,-0.4*43
$GPGRS,050007.00,1,-1.5,,,,,,,,,,,*4B
$GPGSV,6,1,21,07,68,167,49,04,33,074,44,16,18,052,40,20,37,306,45*71
$GPGSV,6,2,21,30,35,204,46,11,41,276,47,06,37,226,45,09,62,066,49*7F
$GPGSV,6,3,21,05,05,311,38,26,04,027,36,29,02,338,38,03,04,131,*79
$GPGSV,6,4,21,36,35,170,45,58,13,245,38,40,24,132,37,34,31,208,44*72
$GPGSV,6,5,21,49,34,195,45,57,07,111,38,41,07,108,35,61,03,257,39*73
$GPGSV,6,6,21*7A
$GLGSV,3,1,09,71,65,042,51,88,18,333,45,70,24,090,37,74,25,159,42*61
$GLGSV,3,2,09,86,15,223,45,87,33,271,47,80,28,036,47,72,44,305,49*67
$GLGSV,3,3,09,73,51,108,50*50
$GAGSV,3,1,11,05,80,322,49,06,14,076,40,36,15,187,40,24,18,125,40*69
$GAGSV,3,2,11,31,24,071,42,03,31,265,43,15,34,306,43,34,46,237,47*6B
$GAGSV,3,3,11,09,37,071,45,23,07,024,,16,07,148,*5F
$GBGSV,6,1,22,22,66,307,52,16,15,045,39,34,13,311,42,06,17,047,38*6F
$GBGSV,6,2,22,44,15,259,43,05,22,129,39,09,31,050,41,12,20,283,40*60
$GBGSV,6,3,22,36,42,153,49,48,27,104,,58,38,069,,46,45,075,*63
$GBGSV,6,4,22,19,54,096,51,21,65,302,,37,06,033,39,39,04,045,38*66
$GBGSV,6,5,22,11,08,334,,45,06,189,,35,01,218,38,20,07,106,42*60
$GBGSV,6,6,22,02,06,107,35,60,07,111,41*6A
$GPGGA,050007.00,,,,,0,00,,,M,,M,,*4A
$PTNL,GGK,050007.00,010125,4742.1603886,N,01618.1002097,E,1,39,0.8,EHT750.9846,M*4F
$GPGGQ,050007.00,010125,4742.1603886,N,01618.1002097,E,1,39,1.133,707.7780,M*30
$GPGFA,050007.00,4.183,8.219,0.440,0.292,334.451,1.002,,VVV*03
$GPLLK,050007.00,010125,,M,,M,1,39,0.9,,M*0A
$GNGMP,050007.00,,,,,DAAA,39,0.4,,,,*5A
$GPGMP,050007.00,,,,,,08,,,,3.0,136*70
$GLGMP,050007.00,,,,,,09,,,,,*74
$GAGMP,050007.00,,,,,,09,,,,,*79
$GBGMP,050007.00,,,,,,13,,,,,*71
$PSSN,SNC,[0,277225000,2347]*43
$GPZDA,050012.00,01,01,2025,,*65
$GPDTM,W84,,00.0000000,N,00.0000000,E,00.0000000,W84*5F
$PSSN,TFM,050012.00,,,,*69
$GPRMC,050012.00,A,4742.1603866,N,01618.1002093,E,0.0,,010125,5.1,E,D*15
$GPGLL,4742.1603866,N,01618.1002093,E,050012.00,A,D*64
$GPGGA,050012.00,4742.1603866,N,01618.1002093,E,2,39,0.4,707.7785,M,43.2066,M,3.0,0136*48
$GNGNS,050012.00,4742.1603866,N,01618.1002093,E,DAAA,39,0.4,707.7785,43.2066,,*53
$GPGNS,050012.00,,,,,,08,,,,3.0,136*74
$GLGNS,050012.00,,,,,,09,,,,,*70
$GAGNS,050012.00,,,,,,09,,,,,*7D
$GBGNS,050012.00,,,,,,13,,,,,*75
$GPLLQ,050012.00,010125,,M,,M,1,39,1.145,,M*1C
$GPVTG,,T,,M,0.01,N,0.01,K,D*26
$GPHDT,,T*1B
$GPTHS,,V*0E
$GPROT,,V*08
$PSSN,HRP,050012.00,010125,,,,,,,00,0,,*67
$PTNL,AVR,050012.00,,Yaw,,Tilt,,,,0,,00*31
$GPGSA,A,3,04,06,07,09,11,16,20,30,,,,,0.8,0.4,0.7*33
$GPGSA,A,3,70,71,72,73,74,80,86,87,88,,,,0.8,0.4,0.7*33
$GPGSA,A,3,03,05,06,09,15,24,31,34,36,,,,0.8,0.4,0.7*32
$GPGSA,A,3,05,06,09,12,16,19,20,22,34,36,37,44,0.8,0.4,0.7*3B
$GPGSA,A,3,60,,,,,,,,,,,,0.8,0.4,0.7*3F
$GPGST,050012.00,1.804,0.439,0.295,333.727,0.414,0.328,1.015*50
$GPGBS,050012.00,2.852,1.977,6.332,72,0.0001,6.308,6.080*5F
$GPGRS,050012.00,1,-0.2,-0.5,0.0,-0.2,0.2,0.2,0.4,0.1,,,,*65
$GPGRS,050012.00,1,-0.8,-1.0,6.3,4.0,2.5,-2.1,-1.6,-4.7,-1.7,,,*68
$GPGRS,050012.00,1,0.2,0.2,0.5,0.5,0.2,-0.5,0.5,0.3,-0.3,,,*64
$GPGRS,050012.00,1,1.3,0.5,0.5,-0.2,-0.1,0.2,0.2,-0.6,0.6,0.3,-0.3,-0.3*67
$GPGRS,050012.00,1,-1.8,,,,,,,,,,,*42
$GPGSV,6,1,21,07,68,167,49,04,33,074,44,16,18,052,40,20,37,306,45*71
$GPGSV,6,2,21,30,35,204,45,11,41,276,46,06,37,226,45,09,62,066,49*7D
$GPGSV,6,3,21,05,05,311,38,26,04,027,35,29,02,338,37,03,04,131,*75
$GPGSV,6,4,21,36,35,170,45,58,13,245,38,40,24,132,37,34,31,208,44*72
$GPGSV,6,5,21,49,34,195,45,57,07,111,38,41,07,108,35,61,03,257,39*73
$GPGSV,6,6,21*7A
$GLGSV,3,1,09,71,65,042,51,88,18,333,44,70,24,090,38,74,25,159,41*6C
$GLGSV,3,2,09,86,15,223,46,87,33,270,47,80,28,036,47,72,44,305,50*6D
$GLGSV,3,3,09,73,51,108,50*50
$GAGSV,3,1,11,05,80,322,49,06,14,076,40,36,15,187,40,24,18,125,40*69
$GAGSV,3,2,11,31,24,071,42,03,31,265,43,15,34,306,43,34,46,237,47*6B
$GAGSV,3,3,11,09,37,071,45,23,07,024,,16,07,148,*5F
$GBGSV,6,1,22,22,66,307,52,16,15,045,39,34,13,311,42,06,17,047,38*6F
$GBGSV,6,2,22,44,15,259,43,05,22,129,39,09,31,050,41,12,20,283,40*60
$GBGSV,6,3,22,36,42,153,49,48,27,104,,58,38,069,,46,45,075,*63
$GBGSV,6,4,22,19,54,096,51,21,65,302,,37,06,033,39,39,04,045,39*67
$GBGSV,6,5,22,11,08,334,,45,06,189,,35,01,218,38,20,07,106,42*60
$GBGSV,6,6,22,02,06,107,35,60,07,111,40*6B
$GPGGA,050012.00,,,,,0,00,,,M,,M,,*4E
$PTNL,GGK,050012.00,010125,4742.1603866,N,01618.1002093,E,1,39,0.8,EHT750.9850,M*46
$GPGGQ,050012.00,010125,4742.1603866,N,01618.1002093,E,1,39,1.145,707.7785,M*3A
$GPGFA,050012.00,4.170,8.326,0.439,0.295,333.727,1.015,,VVV*0C
$GPLLK,050012.00,010125,,M,,M,1,39,0.9,,M*0E
$GNGMP,050012.00,,,,,DAAA,39,0.4,,,,*5E
$GPGMP,050012.00,,,,,,08,,,,3.0,136*74
$GLGMP,050012.00,,,,,,09,,,,,*70
$GAGMP,050012.00,,,,,,09,,,,,*7D
$GBGMP,050012.00,,,,,,13,,,,,*75
$PSSN,SNC,[0,277230000,2347]*47
$GPZDA,050017.00,01,01,2025,,*60
$GPDTM,W84,,00.0000000,N,00.0000000,E,00.0000000,W84*5F
$PSSN,TFM,050017.00,,,,*6C
$GPRMC,050017.00,A,4742.1603836,N,01618.1002080,E,0.0,,010125,5.1,E,D*17
$GPGLL,4742.1603836,N,01618.1002080,E,050017.00,A,D*66
$GPGGA,050017.00,4742.1603836,N,01618.1002080,E,2,39,0.4,707.7817,M,43.2066,M,1.5,0136*49
$GNGNS,050017.00,4742.1603836,N,01618.1002080,E,DAAA,39,0.4,707.7817,43.2066,,*55
$GPGNS,050017.00,,,,,,08,,,,1.5,136*76
$GLGNS,050017.00,,,,,,09,,,,,*75
$GAGNS,050017.00,,,,,,09,,,,,*78
$GBGNS,050017.00,,,,,,13,,,,,*70
$GPLLQ,050017.00,010125,,M,,M,1,39,1.133,,M*18
$GPVTG,,T,,M,0.00,N,0.01,K,D*27
$GPHDT,,T*1B
$GPTHS,,V*0E
$GPROT,,V*08
$PSSN,HRP,050017.00,010125,,,,,,,00,0,,*62
$PTNL,AVR,050017.00,,Yaw,,Tilt,,,,0,,00*34
$GPGSA,A,3,04,06,07,09,11,16,20,30,,,,,0.8,0.4,0.7*33
$GPGSA,A,3,70,71,72,73,74,80,86,87,88,,,,0.8,0.4,0.7*33
$GPGSA,A,3,03,05,06,09,15,24,31,34,36,,,,0.8,0.4,0.7*32
$GPGSA,A,3,05,06,09,12,16,19,20,22,34,36,37,44,0.8,0.4,0.7*3B
$GPGSA,A,3,60,,,,,,,,,,,,0.8,0.4,0.7*3F
$GPGST,050017.00,1.776,0.435,0.292,334.623,0.413,0.323,1.005*5B
$GPGBS,050017.00,2.729,1.944,6.044,72,0.0001,6.257,6.080*50
$GPGRS,050017.00,1,0.4,-0.3,0.1,-0.3,-0.3,0.6,0.4,0.1,,,,*65
$GPGRS,050017.00,1,-2.0,-1.0,6.3,3.6,3.0,-0.8,-2.5,-4.3,-1.8,,,*62
$GPGRS,050017.00,1,0.1,0.3,0.3,0.4,0.1,-0.5,0.2,-0.0,-0.4,,,*49
$GPGRS,050017.00,1,1.2,-0.0,0.6,0.1,-0.1,-0.3,0.1,-0.1,0.3,0.5,-0.2,0.1*63
$GPGRS,050017.00,1,-1.2,,,,,,,,,,,*4D
$GPGSV,6,1,21,07,68,167,49,04,33,074,44,16,18,052,41,20,37,306,45*70
$GPGSV,6,2,21,30,35,204,46,11,41,276,46,06,37,226,46,09,62,066,49*7D
$GPGSV,6,3,21,05,05,311,38,26,04,027,35,29,02,338,36,03,04,131,*74
$GPGSV,6,4,21,36,35,170,45,58,13,245,38,40,24,132,37,34,31,208,44*72
$GPGSV,6,5,21,49,34,195,45,57,07,111,38,41,07,108,35,61,03,257,39*73
$GPGSV,6,6,21*7A
$GLGSV,3,1,09,71,65,043,51,88,18,333,45,70,24,090,37,74,25,159,42*60
$GLGSV,3,2,09,86,15,223,45,87,33,270,47,80,28,036,48,72,44,305,50*61
$GLGSV,3,3,09,73,51,108,50*50
$GAGSV,3,1,11,05,80,322,49,06,14,076,40,36,15,187,39,24,18,125,40*67
$GAGSV,3,2,11,31,24,071,42,03,31,265,43,15,34,306,44,34,46,237,47*6C
$GAGSV,3,3,11,09,37,071,45,23,07,024,,16,07,148,*5F
$GBGSV,6,1,22,22,66,307,52,16,14,045,39,34,13,311,41,06,17,047,38*6D
$GBGSV,6,2,22,44,15,259,43,05,22,129,39,09,31,050,41,12,20,283,40*60
$GBGSV,6,3,22,36,42,153,50,48,27,104,,58,38,069,,46,45,075,*6B
$GBGSV,6,4,22,19,54,096,50,21,65,302,,37,06,033,39,39,04,045,39*66
$GBGSV,6,5,22,11,08,334,,45,06,189,,35,01,218,38,20,07,106,42*60
$GBGSV,6,6,22,02,06,107,35,60,07,111,40*6B
$GPGGA,050017.00,,,,,0,00,,,M,,M,,*4B
$PTNL,GGK,050017.00,010125,4742.1603836,N,01618.1002080,E,1,39,0.8,EHT750.9882,M*4B
$GPGGQ,050017.00,010125,4742.1603836,N,01618.1002080,E,1,39,1.133,707.7817,M*3D
$GPGFA,050017.00,4.140,8.239,0.435,0.292,334.623,1.005,,VVV*0D
$GPLLK,050017.00,010125,,M,,M,1,39,0.9,,M*0B
$GNGMP,050017.00,,,,,DAAA,39,0.4,,,,*5B
$GPGMP,050017.00,,,,,,08,,,,1.5,136*76
$GLGMP,050017.00,,,,,,09,,,,,*75
$GAGMP,050017.00,,,,,,09,,,,,*78
$GBGMP,050017.00,,,,,,13,,,,,*70
$PSSN,SNC,[0,277235000,2347]*42
$GPZDA,050022.00,01,01,2025,,*66
$GPDTM,W84,,00.0000000,N,00.0000000,E,00.0000000,W84*5F
$PSSN,TFM,050022.00,,,,*6A
$GPRMC,050022.00,A,4742.1603829,N,01618.1002056,E,0.0,,010125,5.1,E,D*14
$GPGLL,4742.1603829,N,01618.1002056,E,050022.00,A,D*65
$GPGGA,050022.00,4742.1603829,N,01618.1002056,E,2,39,0.4,707.7833,M,43.2066,M,2.5,0136*4F
$GNGNS,050022.00,4742.1603829,N,01618.1002056,E,DAAA,39,0.4,707.7833,43.2066,,*50
$GPGNS,050022.00,,,,,,08,,,,2.5,136*73
$GLGNS,050022.00,,,,,,09,,,,,*73
$GAGNS,050022.00,,,,,,09,,,,,*7E
$GBGNS,050022.00,,,,,,13,,,,,*76
$GPLLQ,050022.00,010125,,M,,M,1,39,1.117,,M*18
$GPVTG,,T,,M,0.00,N,0.00,K,D*26
$GPHDT,,T*1B
$GPTHS,,V*0E
$GPROT,,V*08
$PSSN,HRP,050022.00,010125,,,,,,,00,0,,*64
$PTNL,AVR,050022.00,,Yaw,,Tilt,,,,0,,00*32
$GPGSA,A,3,04,06,07,09,11,16,20,30,,,,,0.8,0.4,0.7*33
$GPGSA,A,3,70,71,72,73,74,80,86,87,88,,,,0.8,0.4,0.7*33
$GPGSA,A,3,03,05,06,09,15,24,31,34,36,,,,0.8,0.4,0.7*32
$GPGSA,A,3,05,06,09,12,16,19,20,22,34,36,37,44,0.8,0.4,0.7*3B
$GPGSA,A,3,60,,,,,,,,,,,,0.8,0.4,0.7*3F
$GPGST,050022.00,1.915,0.436,0.288,335.009,0.413,0.319,0.987*5A
$GPGBS,050022.00,2.772,1.966,6.132,72,0.0001,6.834,6.080*57
$GPGRS,050022.00,1,0.2,-0.1,0.0,-0.1,-0.6,0.1,0.3,0.2,,,,*62
$GPGRS,050022.00,1,-2.6,-0.8,6.8,4.0,2.6,-0.7,-3.4,-4.6,-0.2,,,*67
$GPGRS,050022.00,1,-0.1,0.2,0.7,0.5,0.3,-0.4,0.4,0.3,-0.4,,,*4D
$GPGRS,050022.00,1,1.3,0.1,0.6,-0.3,-0.7,-0.4,-0.1,-0.2,0.4,0.0,-0.2,0.3*48
$GPGRS,050022.00,1,-1.5,,,,,,,,,,,*4C
$GPGSV,6,1,21,07,68,167,49,04,33,074,44,16,18,051,41,20,37,306,45*73
$GPGSV,6,2,21,30,35,204,46,11,41,276,46,06,37,226,45,09,62,066,49*7E
$GPGSV,6,3,21,05,05,311,38,26,04,027,35,29,02,338,37,03,04,131,*75
$GPGSV,6,4,21,36,35,170,45,58,13,245,38,40,24,132,37,34,31,208,44*72
$GPGSV,6,5,21,49,34,195,45,57,07,111,38,41,07,108,35,61,03,257,39*73
$GPGSV,6,6,21*7A
$GLGSV,3,1,09,71,65,043,51,88,18,333,45,70,24,090,38,74,25,159,41*6C
$GLGSV,3,2,09,86,14,223,45,87,33,270,47,80,28,036,48,72,44,305,50*60
$GLGSV,3,3,09,73,51,108,51*51
$GAGSV,3,1,11,05,80,322,49,06,14,076,39,36,15,187,39,24,18,125,40*69
$GAGSV,3,2,11,31,24,071,42,03,31,265,43,15,34,306,43,34,46,237,47*6B
$GAGSV,3,3,11,09,37,071,45,23,07,024,,16,07,148,*5F
$GBGSV,6,1,22,22,66,307,52,16,14,045,39,34,13,311,41,06,17,047,37*62
$GBGSV,6,2,22,44,15,259,42,05,22,129,39,09,31,050,41,12,20,283,40*61
$GBGSV,6,3,22,36,42,153,49,48,27,104,,58,38,069,,46,45,075,*63
$GBGSV,6,4,22,19,54,096,50,21,65,302,,37,06,033,39,39,04,045,38*67
$GBGSV,6,5,22,11,08,334,,45,06,189,,35,01,218,38,20,07,106,42*60
$GBGSV,6,6,22,02,06,107,35,60,07,111,40*6B
$GPGGA,050022.00,,,,,0,00,,,M,,M,,*4D
$PTNL,GGK,050022.00,010125,4742.1603829,N,01618.1002056,E,1,39,0.8,EHT750.9898,M*43
$GPGGQ,050022.00,010125,4742.1603829,N,01618.1002056,E,1,39,1.117,707.7833,M*3E
$GPGFA,050022.00,4.145,8.097,0.436,0.288,335.009,0.987,,VVV*0D
$GPLLK,050022.00,010125,,M,,M,1,39,0.9,,M*0D
$GNGMP,050022.00,,,,,DAAA,39,0.4,,,,*5D
$GPGMP,050022.00,,,,,,08,,,,2.5,136*73
$GLGMP,050022.00,,,,,,09,,,,,*73
$GAGMP,050022.00,,,,,,09,,,,,*7E
$GBGMP,050022.00,,,,,,13,,,,,*76
$PSSN,SNC,[0,277240000,2347]*40
$GPZDA,050027.00,01,01,2025,,*63
$GPDTM,W84,,00.0000000,N,00.0000000,E,00.0000000,W84*5F
$PSSN,TFM,050027.00,,,,*6F
$GPRMC,050027.00,A,4742.1603841,N,01618.1002039,E,0.0,,010125,5.1,E,D*16
$GPGLL,4742.1603841,N,01618.1002039,E,050027.00,A,D*67
$GPGGA,050027.00,4742.1603841,N,01618.1002039,E,2,39,0.4,707.7863,M,43.2066,M,3.0,0136*4C
$GNGNS,050027.00,4742.1603841,N,01618.1002039,E,DAAA,39,0.4,707.7863,43.2066,,*57
$GPGNS,050027.00,,,,,,08,,,,3.0,136*72
$GLGNS,050027.00,,,,,,09,,,,,*76
$GAGNS,050027.00,,,,,,09,,,,,*7B
$GBGNS,050027.00,,,,,,13,,,,,*73
$GPLLQ,050027.00,010125,,M,,M,1,39,1.134,,M*1C
$GPVTG,,T,,M,0.00,N,0.00,K,D*26
$GPHDT,,T*1B
$GPTHS,,V*0E
$GPROT,,V*08
$PSSN,HRP,050027.00,010125,,,,,,,00,0,,*61
$PTNL,AVR,050027.00,,Yaw,,Tilt,,,,0,,00*37
$GPGSA,A,3,04,06,07,09,11,16,20,30,,,,,0.8,0.4,0.7*33
$GPGSA,A,3,70,71,72,73,74,80,86,87,88,,,,0.8,0.4,0.7*33
$GPGSA,A,3,03,05,06,09,15,24,31,34,36,,,,0.8,0.4,0.7*32
$GPGSA,A,3,05,06,09,12,16,19,20,22,34,36,37,44,0.8,0.4,0.7*3B
$GPGSA,A,3,60,,,,,,,,,,,,0.8,0.4,0.7*3F
$GPGST,050027.00,1.857,0.441,0.292,334.434,0.418,0.325,1.003*58
$GPGBS,050027.00,2.833,1.989,6.325,72,0.0001,6.937,6.080*5F
$GPGRS,050027.00,1,0.1,-0.3,0.1,-0.1,-0.2,-0.0,0.2,0.3,,,,*4F
$GPGRS,050027.00,1,-1.3,-0.9,6.9,4.3,1.9,-1.8,-2.7,-4.6,-0.8,,,*6D
$GPGRS,050027.00,1,-0.2,0.4,0.8,0.5,0.5,-0.3,0.4,0.3,-0.2,,,*45
$GPGRS,050027.00,1,1.0,0.1,0.6,0.4,-0.4,-0.2,-0.1,-0.2,0.9,-0.2,-0.1,0.1*42
$GPGRS,050027.00,1,-0.6,,,,,,,,,,,*4B
$GPGSV,6,1,21,07,68,166,49,04,33,074,44,16,18,051,40,20,37,306,45*73
$GPGSV,6,2,21,30,35,204,46,11,41,276,45,06,37,226,45,09,62,066,49*7D
$GPGSV,6,3,21,05,05,311,39,26,04,027,36,29,02,338,37,03,04,131,*77
$GPGSV,6,4,21,36,35,170,45,58,13,245,38,40,24,132,37,34,31,208,44*72
$GPGSV,6,5,21,49,34,195,45,57,07,111,38,41,07,108,35,61,03,257,38*72
$GPGSV,6,6,21*7A
$GLGSV,3,1,09,71,64,043,51,88,18,333,45,70,24,090,38,74,25,159,42*6E
$GLGSV,3,2,09,86,14,223,45,87,33,270,47,80,28,036,47,72,44,305,50*6F
$GLGSV,3,3,09,73,51,108,51*51
$GAGSV,3,1,11,05,80,322,48,06,14,076,39,36,15,187,39,24,18,125,40*68
$GAGSV,3,2,11,31,24,071,42,03,31,265,43,15,34,306,43,34,45,237,47*68
$GAGSV,3,3,11,09,37,071,45,23,07,024,,16,07,148,*5F
$GBGSV,6,1,22,22,66,307,52,16,14,045,39,34,13,311,42,06,17,047,38*6E
$GBGSV,6,2,22,44,14,259,43,05,22,129,39,09,31,050,41,12,20,283,40*61
$GBGSV,6,3,22,36,42,153,49,48,27,104,,58,38,069,,46,45,075,*63
$GBGSV,6,4,22,19,54,096,51,21,65,302,,37,06,033,39,39,04,045,38*66
$GBGSV,6,5,22,11,08,334,,45,06,189,,35,01,218,38,20,07,106,42*60
$GBGSV,6,6,22,02,06,107,35,60,07,111,40*6B
$GPGGA,050027.00,,,,,0,00,,,M,,M,,*48
$PTNL,GGK,050027.00,010125,4742.1603841,N,01618.1002039,E,1,39,0.8,EHT750.9928,M*4B
$GPGGQ,050027.00,010125,4742.1603841,N,01618.1002039,E,1,39,1.134,707.7863,M*38
$GPGFA,050027.00,4.197,8.227,0.441,0.292,334.434,1.003,,VVV*0A
$GPLLK,050027.00,010125,,M,,M,1,39,0.9,,M*08
$GNGMP,050027.00,,,,,DAAA,39,0.4,,,,*58
$GPGMP,050027.00,,,,,,08,,,,3.0,136*72
$GLGMP,050027.00,,,,,,09,,,,,*76
$GAGMP,050027.00,,,,,,09,,,,,*7B
$GBGMP,050027.00,,,,,,13,,,,,*73
$PSSN,SNC,[0,277245000,2347]*45
$GPZDA,050032.00,01,01,2025,,*67
$GPDTM,W84,,00.0000000,N,00.0000000,E,00.0000000,W84*5F
$PSSN,TFM,050032.00,,,,*6B
$GPRMC,050032.00,A,4742.1603846,N,01618.1002031,E,0.0,,010125,5.1,E,D*1D
$GPGLL,4742.1603846,N,01618.1002031,E,050032.00,A,D*6C
$GPGGA,050032.00,4742.1603846,N,01618.1002031,E,2,39,0.4,707.7790,M,43.2066,M,3.0,0136*44
$GNGNS,050032.00,4742.1603846,N,01618.1002031,E,DAAA,39,0.4,707.7790,43.2066,,*5F
$GPGNS,050032.00,,,,,,08,,,,3.0,136*76
$GLGNS,050032.00,,,,,,09,,,,,*72
$GAGNS,050032.00,,,,,,09,,,,,*7F
$GBGNS,050032.00,,,,,,13,,,,,*77
$GPLLQ,050032.00,010125,,M,,M,1,39,1.143,,M*18
$GPVTG,,T,,M,0.00,N,0.01,K,D*27
$GPHDT,,T*1B
$GPTHS,,V*0E
$GPROT,,V*08
$PSSN,HRP,050032.00,010125,,,,,,,00,0,,*65
$PTNL,AVR,050032.00,,Yaw,,Tilt,,,,0,,00*33
$GPGSA,A,3,04,06,07,09,11,16,20,30,,,,,0.8,0.4,0.7*33
$GPGSA,A,3,70,71,72,73,74,80,86,87,88,,,,0.8,0.4,0.7*33
$GPGSA,A,3,03,05,06,09,15,24,31,34,36,,,,0.8,0.4,0.7*32
$GPGSA,A,3,05,06,09,12,16,19,20,22,34,36,37,44,0.8,0.4,0.7*3B
$GPGSA,A,3,60,,,,,,,,,,,,0.8,0.4,0.7*3F
$GPGST,050032.00,1.961,0.438,0.295,333.792,0.414,0.328,1.014*5E
$GPGBS,050032.00,2.850,1.976,6.362,72,0.0001,6.671,6.080*50
$GPGRS,050032.00,1,0.1,-0.0,0.4,-0.2,-0.0,-0.2,0.1,-0.1,,,,*62
$GPGRS,050032.00,1,-2.3,-1.0,6.7,4.1,2.9,-2.6,-2.6,-5.0,-1.4,,,*6B
$GPGRS,050032.00,1,-0.3,0.3,0.6,0.3,0.4,-0.3,-0.1,0.1,-0.3,,,*65
$GPGRS,050032.00,1,1.1,0.3,0.8,0.6,0.2,-0.3,-0.3,-0.2,0.9,-0.0,-0.3,0.5*65
$GPGRS,050032.00,1,-1.0,,,,,,,,,,,*48
$GPGSV,6,1,21,07,68,166,49,04,32,074,44,16,18,051,40,20,37,306,45*72
$GPGSV,6,2,21,30,36,204,46,11,41,276,46,06,37,226,45,09,62,066,49*7D
$GPGSV,6,3,21,05,05,311,39,26,04,027,36,29,02,338,38,03,04,131,*78
$GPGSV,6,4,21,36,35,170,45,58,13,245,38,40,24,132,37,34,31,208,44*72
$GPGSV,6,5,21,49,34,195,45,57,07,111,37,41,07,108,35,61,03,257,39*7C
$GPGSV,6,6,21*7A
$GLGSV,3,1,09,71,64,043,52,88,18,333,44,70,24,090,37,74,25,159,42*63
$GLGSV,3,2,09,86,14,223,44,87,33,270,47,80,28,036,47,72,44,305,50*6E
$GLGSV,3,3,09,73,51,108,50*50
$GAGSV,3,1,11,05,80,323,49,06,14,076,39,36,15,187,39,24,18,125,41*69
$GAGSV,3,2,11,31,24,071,42,03,31,265,43,15,34,306,43,34,45,236,47*69
$GAGSV,3,3,11,09,37,071,45,23,07,024,,16,08,148,*50
$GBGSV,6,1,22,22,66,307,52,16,14,045,40,34,13,311,42,06,17,047,38*60
$GBGSV,6,2,22,44,14,259,43,05,22,129,38,09,31,050,41,12,20,283,40*60
$GBGSV,6,3,22,36,42,153,49,48,27,104,,58,38,069,,46,45,075,*63
$GBGSV,6,4,22,19,54,096,51,21,65,302,,37,06,033,39,39,04,045,38*66
$GBGSV,6,5,22,11,08,334,,45,06,189,,35,01,218,37,20,07,106,42*6F
$GBGSV,6,6,22,02,06,107,35,60,07,111,41*6A
$GPGGA,050032.00,,,,,0,00,,,M,,M,,*4C
$PTNL,GGK,050032.00,010125,4742.1603846,N,01618.1002031,E,1,39,0.8,EHT750.9856,M*48
$GPGGQ,050032.00,010125,4742.1603846,N,01618.1002031,E,1,39,1.143,707.7790,M*30
$GPGFA,050032.00,4.168,8.312,0.438,0.295,333.792,1.014,,VVV*0E
$GPLLK,050032.00,010125,,M,,M,1,39,0.9,,M*0C
$GNGMP,050032.00,,,,,DAAA,39,0.4,,,,*5C
$GPGMP,050032.00,,,,,,08,,,,3.0,136*76
$GLGMP,050032.00,,,,,,09,,,,,*72
$GAGMP,050032.00,,,,,,09,,,,,*7F
$GBGMP,050032.00,,,,,,13,,,,,*77
$PSSN,SNC,[0,277250000,2347]*41
$GPZDA,050037.00,01,01,2025,,*62
$GPDTM,W84,,00.0000000,N,00.0000000,E,00.0000000,W84*5F
$PSSN,TFM,050037.00,,,,*6E
$GPRMC,050037.00,A,4742.1603846,N,01618.1002041,E,0.0,,010125,5.1,E,D*1F
$GPGLL,4742.1603846,N,01618.1002041,E,050037.00,A,D*6E
$GPGGA,050037.00,4742.1603846,N,01618.1002041,E,2,39,0.4,707.7765,M,43.2066,M,1.5,0136*4B
$GNGNS,050037.00,4742.1603846,N,01618.1002041,E,DAAA,39,0.4,707.7765,43.2066,,*57
$GPGNS,050037.00,,,,,,08,,,,1.5,136*74
$GLGNS,050037.00,,,,,,09,,,,,*77
$GAGNS,050037.00,,,,,,09,,,,,*7A
$GBGNS,050037.00,,,,,,13,,,,,*72
$GPLLQ,050037.00,010125,,M,,M,1,39,1.133,,M*1A
$GPVTG,,T,,M,0.00,N,0.00,K,D*26
$GPHDT,,T*1B
$GPTHS,,V*0E
$GPROT,,V*08
$PSSN,HRP,050037.00,010125,,,,,,,00,0,,*60
$PTNL,AVR,050037.00,,Yaw,,Tilt,,,,0,,00*36
$GPGSA,A,3,04,06,07,09,11,16,20,30,,,,,0.8,0.4,0.7*33
$GPGSA,A,3,70,71,72,73,74,80,86,87,88,,,,0.8,0.4,0.7*33
$GPGSA,A,3,03,05,06,09,15,24,31,34,36,,,,0.8,0.4,0.7*32
$GPGSA,A,3,05,06,09,12,16,19,20,22,34,36,37,44,0.8,0.4,0.7*3B
$GPGSA,A,3,60,,,,,,,,,,,,0.8,0.4,0.7*3F
$GPGST,050037.00,1.853,0.436,0.292,334.668,0.413,0.323,1.004*5C
$GPGBS,050037.00,2.728,1.943,6.073,72,0.0001,6.496,6.080*5B
$GPGRS,050037.00,1,0.1,-0.0,0.1,-0.2,-0.0,-0.3,0.2,-0.1,,,,*60
$GPGRS,050037.00,1,-2.4,-0.9,6.5,3.9,2.8,-1.9,-3.0,-4.1,-1.6,,,*64
$GPGRS,050037.00,1,-0.0,0.2,0.4,0.5,0.1,-0.3,-0.0,0.1,-0.5,,,*64
$GPGRS,050037.00,1,1.1,0.5,0.7,0.6,0.7,-0.2,-0.4,-0.2,0.6,-0.1,-0.6,-0.1*48
$GPGRS,050037.00,1,-0.8,,,,,,,,,,,*44
$GPGSV,6,1,21,07,68,166,49,04,32,074,44,16,18,051,40,20,37,306,45*72
$GPGSV,6,2,21,30,36,204,45,11,41,276,46,06,37,226,46,09,61,066,49*7E
$GPGSV,6,3,21,05,05,311,39,26,03,027,36,29,02,338,38,03,04,131,*7F
$GPGSV,6,4,21,36,35,170,45,58,13,245,38,40,24,132,37,34,31,208,44*72
$GPGSV,6,5,21,49,34,195,45,57,07,111,37,41,07,108,35,61,03,257,39*7C
$GPGSV,6,6,21*7A
$GLGSV,3,1,09,71,64,043,51,88,18,333,45,70,24,090,37,74,25,159,42*61
$GLGSV,3,2,09,86,14,223,44,87,33,270,48,80,28,036,47,72,44,305,50*61
$GLGSV,3,3,09,73,51,108,50*50
$GAGSV,3,1,11,05,81,323,49,06,14,076,39,36,15,187,39,24,18,125,41*68
$GAGSV,3,2,11,31,24,071,42,03,31,265,43,15,34,306,43,34,45,236,47*69
$GAGSV,3,3,11,09,37,071,45,23,07,024,,16,08,148,*50
$GBGSV,6,1,22,22,66,307,52,16,14,045,40,34,13,311,42,06,17,047,38*60
$GBGSV,6,2,22,44,14,259,43,05,22,129,39,09,31,050,41,12,20,283,40*61
$GBGSV,6,3,22,36,42,153,49,48,27,104,,58,38,069,,46,45,075,*63
$GBGSV,6,4,22,19,54,096,51,21,65,303,,37,06,033,39,39,04,045,38*67
$GBGSV,6,5,22,11,08,334,,45,06,189,,35,01,218,38,20,07,106,41*63
$GBGSV,6,6,22,02,06,107,35,60,07,111,41*6A
$GPGGA,050037.00,,,,,0,00,,,M,,M,,*49
$PTNL,GGK,050037.00,010125,4742.1603846,N,01618.1002041,E,1,39,0.8,EHT750.9830,M*4A
$GPGGQ,050037.00,010125,4742.1603846,N,01618.1002041,E,1,39,1.133,707.7765,M*3F
$GPGFA,050037.00,4.146,8.235,0.436,0.292,334.668,1.004,,VVV*08
$GPLLK,050037.00,010125,,M,,M,1,39,0.9,,M*09
$GNGMP,050037.00,,,,,DAAA,39,0.4,,,,*59
$GPGMP,050037.00,,,,,,08,,,,1.5,136*74
$GLGMP,050037.00,,,,,,09,,,,,*77
$GAGMP,050037.00,,,,,,09,,,,,*7A
$GBGMP,050037.00,,,,,,13,,,,,*72
$PSSN,SNC,[0,277255000,2347]*44
$GPZDA,050042.00,01,01,2025,,*60
$GPDTM,W84,,00.0000000,N,00.0000000,E,00.0000000,W84*5F
$PSSN,TFM,050042.00,,,,*6C
$GPRMC,050042.00,A,4742.1603820,N,01618.1002064,E,0.0,,010125,5.1,E,D*1A
$GPGLL,4742.1603820,N,01618.1002064,E,050042.00,A,D*6B
$GPGGA,050042.00,4742.1603820,N,01618.1002064,E,2,40,0.4,707.7770,M,43.2066,M,2.5,0136*47
$GNGNS,050042.00,4742.1603820,N,01618.1002064,E,DAAA,40,0.4,707.7770,43.2066,,*58
$GPGNS,050042.00,,,,,,08,,,,2.5,136*75
$GLGNS,050042.00,,,,,,09,,,,,*75
$GAGNS,050042.00,,,,,,09,,,,,*78
$GBGNS,050042.00,,,,,,14,,,,,*77
$GPLLQ,050042.00,010125,,M,,M,1,40,1.116,,M*11
$GPVTG,,T,,M,0.00,N,0.00,K,D*26
$GPHDT,,T*1B
$GPTHS,,V*0E
$GPROT,,V*08
$PSSN,HRP,050042.00,010125,,,,,,,00,0,,*62
$PTNL,AVR,050042.00,,Yaw,,Tilt,,,,0,,00*34
$GPGSA,A,3,04,06,07,09,11,16,20,30,,,,,0.8,0.4,0.7*33
$GPGSA,A,3,70,71,72,73,74,80,86,87,88,,,,0.8,0.4,0.7*33
$GPGSA,A,3,03,05,06,09,15,24,31,34,36,,,,0.8,0.4,0.7*32
$GPGSA,A,3,02,05,06,09,12,16,19,20,22,34,36,37,0.8,0.4,0.7*39
$GPGSA,A,3,44,60,,,,,,,,,,,0.8,0.4,0.7*3F
$GPGST,050042.00,1.917,0.436,0.288,335.116,0.414,0.319,0.986*57
$GPGBS,050042.00,2.762,1.957,6.150,72,0.0001,6.721,6.079*5B
$GPGRS,050042.00,1,-0.0,-0.1,0.1,-0.2,0.1,-0.2,0.5,-0.4,,,,*60
$GPGRS,050042.00,1,-2.9,-1.1,6.7,3.7,2.1,-1.8,-3.5,-4.6,-1.9,,,*6B
$GPGRS,050042.00,1,-0.2,0.2,0.7,0.6,0.1,-0.2,-0.0,-0.0,-0.6,,,*4A
$GPGRS,050042.00,1,-0.1,1.3,0.1,0.8,0.7,0.5,-0.4,-0.9,-0.2,0.7,-0.1,-0.7*4B
$GPGRS,050042.00,1,0.4,-1.0,,,,,,,,,,*65
$GPGSV,6,1,21,07,68,166,49,04,32,074,44,16,18,051,40,20,37,306,45*72
$GPGSV,6,2,21,30,36,204,46,11,41,276,46,06,37,226,45,09,61,066,49*7E
$GPGSV,6,3,21,05,05,311,38,26,03,027,36,29,02,338,38,03,04,131,*7E
$GPGSV,6,4,21,36,35,170,45,58,13,245,37,40,24,132,37,34,31,208,44*7D
$GPGSV,6,5,21,49,34,195,45,57,07,111,37,41,07,108,35,61,03,257,38*7D
$GPGSV,6,6,21*7A
$GLGSV,3,1,09,71,64,043,51,88,18,333,44,70,24,090,37,74,25,159,42*60
$GLGSV,3,2,09,86,14,223,44,87,33,270,47,80,28,036,47,72,44,305,50*6E
$GLGSV,3,3,09,73,51,108,50*50
$GAGSV,3,1,11,05,81,323,49,06,14,076,39,36,15,187,38,24,18,125,41*69
$GAGSV,3,2,11,31,24,071,42,03,31,265,43,15,34,306,43,34,45,236,47*69
$GAGSV,3,3,11,09,37,071,45,23,07,024,,16,08,148,*50
$GBGSV,6,1,22,22,66,307,52,16,14,045,40,34,13,311,42,06,17,047,38*60
$GBGSV,6,2,22,44,14,259,43,05,22,129,39,09,31,050,41,12,20,283,40*61
$GBGSV,6,3,22,36,42,153,49,48,27,104,,58,38,069,,46,45,075,*63
$GBGSV,6,4,22,19,54,096,51,21,65,303,,37,06,033,39,39,04,045,38*67
$GBGSV,6,5,22,11,08,334,,45,06,189,,35,01,218,38,20,07,106,41*63
$GBGSV,6,6,22,02,06,107,35,60,07,111,40*6B
$GPGGA,050042.00,,,,,0,00,,,M,,M,,*4B
$PTNL,GGK,050042.00,010125,4742.1603820,N,01618.1002064,E,1,40,0.8,EHT750.9836,M*47
$GPGGQ,050042.00,010125,4742.1603820,N,01618.1002064,E,1,40,1.116,707.7770,M*37
$GPGFA,050042.00,4.148,8.086,0.436,0.288,335.116,0.986,,VVV*08
$GPLLK,050042.00,010125,,M,,M,1,40,0.9,,M*05
$GNGMP,050042.00,,,,,DAAA,40,0.4,,,,*55
$GPGMP,050042.00,,,,,,08,,,,2.5,136*75
$GLGMP,050042.00,,,,,,09,,,,,*75
$GAGMP,050042.00,,,,,,09,,,,,*78
$GBGMP,050042.00,,,,,,14,,,,,*77
$PSSN,SNC,[0,277260000,2347]*42
$GPZDA,050047.00,01,01,2025,,*65
$GPDTM,W84,,00.0000000,N,00.0000000,E,00.0000000,W84*5F
$PSSN,TFM,050047.00,,,,*69
$GPRMC,050047.00,A,4742.1603820,N,01618.1002074,E,0.0,,010125,5.1,E,D*1E
$GPGLL,4742.1603820,N,01618.1002074,E,050047.00,A,D*6F
$GPGGA,050047.00,4742.1603820,N,01618.1002074,E,2,40,0.4,707.7752,M,43.2066,M,3.0,0136*47
$GNGNS,050047.00,4742.1603820,N,01618.1002074,E,DAAA,40,0.4,707.7752,43.2066,,*5C
$GPGNS,050047.00,,,,,,08,,,,3.0,136*74
$GLGNS,050047.00,,,,,,09,,,,,*70
$GAGNS,050047.00,,,,,,09,,,,,*7D
$GBGNS,050047.00,,,,,,14,,,,,*72
$GPLLQ,050047.00,010125,,M,,M,1,40,1.133,,M*13
$GPVTG,,T,,M,0.00,N,0.00,K,D*26
$GPHDT,,T*1B
$GPTHS,,V*0E
$GPROT,,V*08
$PSSN,HRP,050047.00,010125,,,,,,,00,0,,*67
$PTNL,AVR,050047.00,,Yaw,,Tilt,,,,0,,00*31
$GPGSA,A,3,04,06,07,09,11,16,20,30,,,,,0.8,0.4,0.7*33
$GPGSA,A,3,70,71,72,73,74,80,86,87,88,,,,0.8,0.4,0.7*33
$GPGSA,A,3,03,05,06,09,15,24,31,34,36,,,,0.8,0.4,0.7*32
$GPGSA,A,3,02,05,06,09,12,16,19,20,22,34,36,37,0.8,0.4,0.7*39
$GPGSA,A,3,44,60,,,,,,,,,,,0.8,0.4,0.7*3F
$GPGST,050047.00,2.011,0.441,0.292,334.511,0.418,0.325,1.002*50
$GPGBS,050047.00,2.824,1.979,6.340,72,0.0001,6.851,6.079*54
$GPGRS,050047.00,1,-0.2,-0.1,-0.1,0.0,-0.2,-0.2,0.2,0.3,,,,*66
$GPGRS,050047.00,1,-2.5,-0.9,6.9,4.2,3.2,-2.0,-2.9,-5.6,-1.3,,,*68
$GPGRS,050047.00,1,-0.2,0.3,0.8,0.4,0.3,-0.2,-0.2,0.2,-0.7,,,*6D
$GPGRS,050047.00,1,-0.9,1.3,0.2,0.8,0.0,0.6,-0.5,-0.3,-0.1,0.7,0.3,-0.0*61
$GPGRS,050047.00,1,0.2,-0.8,,,,,,,,,,*6F
$GPGSV,6,1,21,07,69,166,49,04,32,074,44,16,18,051,40,20,37,306,45*73
$GPGSV,6,2,21,30,36,204,46,11,41,276,46,06,37,226,45,09,61,066,49*7E
$GPGSV,6,3,21,05,05,311,38,26,03,027,36,29,02,338,38,03,04,132,*7D
$GPGSV,6,4,21,36,35,170,45,58,13,245,37,40,24,132,37,34,31,208,43*7A
$GPGSV,6,5,21,49,34,195,45,57,07,111,37,41,07,108,35,61,03,257,38*7D
$GPGSV,6,6,21*7A
$GLGSV,3,1,09,71,64,043,51,88,18,333,46,70,24,090,37,74,25,159,42*62
$GLGSV,3,2,09,86,14,223,44,87,33,270,47,80,28,036,48,72,44,305,50*61
$GLGSV,3,3,09,73,51,108,50*50
$GAGSV,3,1,11,05,81,323,49,06,14,076,39,36,15,187,39,24,18,125,41*68
$GAGSV,3,2,11,31,24,071,42,03,31,265,44,15,34,306,43,34,45,236,47*6E
$GAGSV,3,3,11,09,37,071,46,23,07,024,,16,08,148,*53
$GBGSV,6,1,22,22,66,307,52,16,14,045,40,34,13,311,42,06,17,047,39*61
$GBGSV,6,2,22,44,14,259,42,05,22,129,39,09,31,050,41,12,20,283,40*60
$GBGSV,6,3,22,36,42,153,49,48,27,104,,58,38,069,,46,45,075,*63
$GBGSV,6,4,22,19,54,096,50,21,65,303,,37,06,033,39,39,04,045,38*66
$GBGSV,6,5,22,11,08,334,,45,06,189,,35,01,218,38,20,07,106,41*63
$GBGSV,6,6,22,02,06,107,35,60,07,111,41*6A
$GPGGA,050047.00,,,,,0,00,,,M,,M,,*4E
$PTNL,GGK,050047.00,010125,4742.1603820,N,01618.1002074,E,1,40,0.8,EHT750.9818,M*4F
$GPGGQ,050047.00,010125,4742.1603820,N,01618.1002074,E,1,40,1.133,707.7752,M*34
$GPGFA,050047.00,4.197,8.213,0.441,0.292,334.511,1.002,,VVV*0C
$GPLLK,050047.00,010125,,M,,M,1,40,0.9,,M*00
$GNGMP,050047.00,,,,,DAAA,40,0.4,,,,*50
$GPGMP,050047.00,,,,,,08,,,,3.0,136*74
$GLGMP,050047.00,,,,,,09,,,,,*70
$GAGMP,050047.00,,,,,,09,,,,,*7D
$GBGMP,050047.00,,,,,,14,,,,,*72
$PSSN,SNC,[0,277265000,2347]*47
$GPZDA,050052.00,01,01,2025,,*61
$GPDTM,W84,,00.0000000,N,00.0000000,E,00.0000000,W84*5F
$PSSN,TFM,050052.00,,,,*6D
$GPRMC,050052.00,A,4742.1603808,N,01618.1002064,E,0.0,,010125,5.1,E,D*11
$GPGLL,4742.1603808,N,01618.1002064,E,050052.00,A,D*60
$GPGGA,050052.00,4742.1603808,N,01618.1002064,E,2,39,0.4,707.7704,M,43.2066,M,3.0,0136*45
$GNGNS,050052.00,4742.1603808,N,01618.1002064,E,DAAA,39,0.4,707.7704,43.2066,,*5E
$GPGNS,050052.00,,,,,,08,,,,3.0,136*70
$GLGNS,050052.00,,,,,,09,,,,,*74
$GAGNS,050052.00,,,,,,09,,,,,*79
$GBGNS,050052.00,,,,,,13,,,,,*71
$GPLLQ,050052.00,010125,,M,,M,1,39,1.144,,M*19
$GPVTG,,T,,M,0.00,N,0.01,K,D*27
$GPHDT,,T*1B
$GPTHS,,V*0E
$GPROT,,V*08
$PSSN,HRP,050052.00,010125,,,,,,,00,0,,*63
$PTNL,AVR,050052.00,,Yaw,,Tilt,,,,0,,00*35
$GPGSA,A,3,04,06,07,09,11,16,20,30,,,,,0.8,0.4,0.7*33
$GPGSA,A,3,70,71,72,73,74,80,86,87,88,,,,0.8,0.4,0.7*33
$GPGSA,A,3,03,05,06,09,15,24,31,34,36,,,,0.8,0.4,0.7*32
$GPGSA,A,3,05,06,09,12,16,19,20,22,34,36,37,44,0.8,0.4,0.7*3B
$GPGSA,A,3,60,,,,,,,,,,,,0.8,0.4,0.7*3F
$GPGST,050052.00,1.893,0.440,0.295,333.760,0.415,0.328,1.014*57
$GPGBS,050052.00,2.848,1.973,6.388,72,0.0001,6.583,6.079*56
$GPGRS,050052.00,1,-0.4,-0.5,0.2,0.0,-0.2,0.4,0.3,0.3,,,,*64
$GPGRS,050052.00,1,-2.2,-1.0,6.6,4.1,2.5,-1.4,-1.8,-5.5,-0.0,,,*6D
$GPGRS,050052.00,1,-0.4,0.3,0.8,0.1,0.1,-0.3,-0.2,0.1,-0.4,,,*69
$GPGRS,050052.00,1,1.0,0.8,0.7,0.3,0.9,-0.5,-0.2,-0.3,0.4,0.3,-0.0,-0.5*63
$GPGRS,050052.00,1,-0.6,,,,,,,,,,,*49
$GPGSV,6,1,21,07,69,166,49,04,32,074,44,16,18,051,41,20,37,306,45*72
$GPGSV,6,2,21,30,36,204,47,11,41,276,46,06,37,226,46,09,61,066,49*7C
$GPGSV,6,3,21,05,05,311,39,26,03,027,36,29,02,338,38,03,04,132,*7C
$GPGSV,6,4,21,36,35,170,45,58,13,245,37,40,24,132,37,34,31,208,43*7A
$GPGSV,6,5,21,49,34,195,45,57,07,111,37,41,07,108,35,61,03,257,38*7D
$GPGSV,6,6,21*7A
$GLGSV,3,1,09,71,64,043,51,88,18,333,46,70,24,090,37,74,25,159,41*61
$GLGSV,3,2,09,86,14,223,45,87,33,270,47,80,28,036,47,72,44,306,50*6C
$GLGSV,3,3,09,73,51,107,50*5F
$GAGSV,3,1,11,05,81,323,49,06,14,076,40,36,15,187,39,24,18,125,41*66
$GAGSV,3,2,11,31,24,071,42,03,31,265,43,15,34,306,44,34,45,236,47*6E
$GAGSV,3,3,11,09,37,071,45,23,07,024,,16,08,148,*50
$GBGSV,6,1,22,22,66,307,52,16,14,045,41,34,13,311,42,06,17,047,39*60
$GBGSV,6,2,22,44,14,259,42,05,22,129,39,09,31,050,41,12,20,283,40*60
$GBGSV,6,3,22,36,42,153,49,48,27,104,,58,38,069,,46,45,075,*63
$GBGSV,6,4,22,19,54,097,51,21,65,303,,37,06,033,40,39,04,045,39*69
$GBGSV,6,5,22,11,08,334,,45,06,189,,35,01,218,38,20,07,106,41*63
$GBGSV,6,6,22,02,06,107,35,60,07,111,40*6B
$GPGGA,050052.00,,,,,0,00,,,M,,M,,*4A
$PTNL,GGK,050052.00,010125,4742.1603808,N,01618.1002064,E,1,39,0.8,EHT750.9770,M*4F
$GPGGQ,050052.00,010125,4742.1603808,N,01618.1002064,E,1,39,1.144,707.7704,M*36
$GPGFA,050052.00,4.180,8.316,0.440,0.295,333.760,1.014,,VVV*08
$GPLLK,050052.00,010125,,M,,M,1,39,0.9,,M*0A
$GNGMP,050052.00,,,,,DAAA,39,0.4,,,,*5A
$GPGMP,050052.00,,,,,,08,,,,3.0,136*70
$GLGMP,050052.00,,,,,,09,,,,,*74
$GAGMP,050052.00,,,,,,09,,,,,*79
$GBGMP,050052.00,,,,,,13,,,,,*71
$PSSN,SNC,[0,277270000,2347]*43
$GPZDA,050057.00,01,01,2025,,*64
$GPDTM,W84,,00.0000000,N,00.0000000,E,00.0000000,W84*5F
$PSSN,TFM,050057.00,,,,*68
$GPRMC,050057.00,A,4742.1603814,N,01618.1002064,E,0.0,,010125,5.1,E,D*19
$GPGLL,4742.1603814,N,01618.1002064,E,050057.00,A,D*68
$GPGGA,050057.00,4742.1603814,N,01618.1002064,E,2,40,0.4,707.7694,M,43.2066,M,1.4,0136*4D
$GNGNS,050057.00,4742.1603814,N,01618.1002064,E,DAAA,40,0.4,707.7694,43.2066,,*50
$GPGNS,050057.00,,,,,,09,,,,1.4,136*72
$GLGNS,050057.00,,,,,,09,,,,,*71
$GAGNS,050057.00,,,,,,09,,,,,*7C
$GBGNS,050057.00,,,,,,13,,,,,*74
$GPLLQ,050057.00,010125,,M,,M,1,40,1.040,,M*17
$GPVTG,,T,,M,0.00,N,0.00,K,D*26
$GPHDT,,T*1B
$GPTHS,,V*0E
$GPROT,,V*08
$PSSN,HRP,050057.00,010125,,,,,,,00,0,,*66
$PTNL,AVR,050057.00,,Yaw,,Tilt,,,,0,,00*30
$GPGSA,A,3,04,05,06,07,09,11,16,20,30,,,,0.8,0.4,0.6*37
$GPGSA,A,3,70,71,72,73,74,80,86,87,88,,,,0.8,0.4,0.6*32
$GPGSA,A,3,03,05,06,09,15,24,31,34,36,,,,0.8,0.4,0.6*33
$GPGSA,A,3,05,06,09,12,16,19,20,22,34,36,37,44,0.8,0.4,0.6*3A
$GPGSA,A,3,60,,,,,,,,,,,,0.8,0.4,0.6*3E
$GPGST,050057.00,1.810,0.423,0.292,335.650,0.404,0.318,0.905*54
$GPGBS,050057.00,2.776,2.022,4.706,72,0.0001,6.213,6.079*51
$GPGRS,050057.00,1,-0.1,0.7,-0.6,0.3,-0.3,-0.3,0.5,0.3,0.4,,,*66
$GPGRS,050057.00,1,-3.0,-0.9,6.2,4.0,2.4,-1.6,-2.3,-4.6,-1.1,,,*6F
$GPGRS,050057.00,1,-0.5,0.3,0.6,-0.0,-0.2,-0.6,0.2,-0.1,-0.3,,,*63
$GPGRS,050057.00,1,0.8,1.1,0.7,-0.1,0.8,-0.4,-0.2,-0.3,0.6,0.0,-0.1,-0.4*49
$GPGRS,050057.00,1,-1.2,,,,,,,,,,,*49
$GPGSV,6,1,21,07,69,166,49,04,32,074,44,16,18,051,41,20,37,306,46*71
$GPGSV,6,2,21,30,36,204,47,11,41,276,46,06,37,226,46,09,61,066,49*7C
$GPGSV,6,3,21,05,05,311,39,26,03,026,35,29,02,337,38,03,04,132,*71
$GPGSV,6,4,21,36,35,170,45,58,13,245,37,40,24,132,37,34,31,208,43*7A
$GPGSV,6,5,21,49,34,195,45,57,07,111,37,41,07,108,35,61,03,257,38*7D
$GPGSV,6,6,21*7A
$GLGSV,3,1,09,71,64,043,51,88,18,333,45,70,24,090,36,74,25,159,42*60
$GLGSV,3,2,09,86,14,223,45,87,33,270,47,80,28,036,47,72,44,306,50*6C
$GLGSV,3,3,09,73,51,107,50*5F
$GAGSV,3,1,11,05,81,323,49,06,14,076,40,36,15,187,39,24,18,125,41*66
$GAGSV,3,2,11,31,24,071,42,03,31,265,44,15,34,306,44,34,45,236,47*69
$GAGSV,3,3,11,09,37,071,45,23,07,024,,16,08,148,*50
$GBGSV,6,1,22,22,66,307,52,16,14,045,41,34,13,311,42,06,17,047,39*60
$GBGSV,6,2,22,44,14,259,42,05,22,129,39,09,31,050,41,12,20,283,40*60
$GBGSV,6,3,22,36,42,153,49,48,27,104,,58,38,069,,46,44,075,*62
$GBGSV,6,4,22,19,54,097,51,21,65,303,,37,06,033,39,39,04,045,39*67
$GBGSV,6,5,22,11,08,334,,45,06,189,,35,01,218,38,20,07,106,41*63
$GBGSV,6,6,22,02,06,107,35,60,07,111,41*6A
$GPGGA,050057.00,,,,,0,00,,,M,,M,,*4F
$PTNL,GGK,050057.00,010125,4742.1603814,N,01618.1002064,E,1,40,0.8,EHT750.9760,M*48
$GPGGQ,050057.00,010125,4742.1603814,N,01618.1002064,E,1,40,1.040,707.7694,M*3D
$GPGFA,050057.00,4.022,7.419,0.423,0.292,335.650,0.905,,VVV*0D
$GPLLK,050057.00,010125,,M,,M,1,40,0.8,,M*00
$GNGMP,050057.00,,,,,DAAA,40,0.4,,,,*51
$GPGMP,050057.00,,,,,,09,,,,1.4,136*72
$GLGMP,050057.00,,,,,,09,,,,,*71
$GAGMP,050057.00,,,,,,09,,,,,*7C
$GBGMP,050057.00,,,,,,13,,,,,*74
$PSSN,SNC,[0,277275000,2347]*46
$GPZDA,050102.00,01,01,2025,,*65
$GPDTM,W84,,00.0000000,N,00.0000000,E,00.0000000,W84*5F
$PSSN,TFM,050102.00,,,,*69
$GPRMC,050102.00,A,4742.1603795,N,01618.1002065,E,0.0,,010125,5.1,E,D*1F
$GPGLL,4742.1603795,N,01618.1002065,E,050102.00,A,D*6E
$GPGGA,050102.00,4742.1603795,N,01618.1002065,E,2,40,0.4,707.7765,M,43.2066,M,2.4,0136*47
$GNGNS,050102.00,4742.1603795,N,01618.1002065,E,DAAA,40,0.4,707.7765,43.2066,,*59
$GPGNS,050102.00,,,,,,09,,,,2.4,136*70
$GLGNS,050102.00,,,,,,09,,,,,*70
$GAGNS,050102.00,,,,,,09,,,,,*7D
$GBGNS,050102.00,,,,,,13,,,,,*75
$GPLLQ,050102.00,010125,,M,,M,1,40,1.028,,M*18
$GPVTG,,T,,M,0.00,N,0.00,K,D*26
$GPHDT,,T*1B
$GPTHS,,V*0E
$GPROT,,V*08
$PSSN,HRP,050102.00,010125,,,,,,,00,0,,*67
$PTNL,AVR,050102.00,,Yaw,,Tilt,,,,0,,00*31
$GPGSA,A,3,04,05,06,07,09,11,16,20,30,,,,0.8,0.4,0.6*37
$GPGSA,A,3,70,71,72,73,74,80,86,87,88,,,,0.8,0.4,0.6*32
$GPGSA,A,3,03,05,06,09,15,24,31,34,36,,,,0.8,0.4,0.6*33
$GPGSA,A,3,05,06,09,12,16,19,20,22,34,36,37,44,0.8,0.4,0.6*3A
$GPGSA,A,3,60,,,,,,,,,,,,0.8,0.4,0.6*3E
$GPGST,050102.00,1.905,0.424,0.287,335.906,0.404,0.314,0.891*5F
$GPGBS,050102.00,2.818,2.047,4.749,72,0.0001,6.129,6.079*55
$GPGRS,050102.00,1,0.2,0.7,-0.4,0.0,-0.4,-0.1,0.1,0.5,0.2,,,*49
$GPGRS,050102.00,1,-2.2,-1.0,6.1,4.0,2.9,-2.2,-2.9,-5.0,-2.5,,,*66
$GPGRS,050102.00,1,-0.5,0.2,0.5,0.0,-0.2,-0.5,-0.0,0.1,-0.3,,,*4C
$GPGRS,050102.00,1,1.0,0.9,0.8,0.2,0.9,-0.5,-0.4,-0.3,0.3,-0.2,0.2,-0.3*6C
$GPGRS,050102.00,1,-1.1,,,,,,,,,,,*4B
$GPGSV,6,1,21,07,69,166,50,04,32,074,45,16,18,051,41,20,37,306,45*7B
$GPGSV,6,2,21,30,36,204,47,11,41,276,46,06,37,226,46,09,61,066,49*7C
$GPGSV,6,3,21,05,05,311,41,26,03,026,35,29,02,337,38,03,04,132,*7E
$GPGSV,6,4,21,36,35,170,45,58,13,245,37,40,24,132,36,34,31,208,43*7B
$GPGSV,6,5,21,49,34,195,45,57,07,111,38,41,07,108,36,61,03,257,38*71
$GPGSV,6,6,21*7A
$GLGSV,3,1,09,71,64,043,52,88,18,333,45,70,24,090,37,74,25,159,42*62
$GLGSV,3,2,09,86,14,223,44,87,33,270,47,80,28,036,47,72,44,306,50*6D
$GLGSV,3,3,09,73,51,107,50*5F
$GAGSV,3,1,11,05,81,324,49,06,14,076,39,36,15,187,40,24,18,125,40*60
$GAGSV,3,2,11,31,24,071,42,03,31,265,44,15,34,306,44,34,45,236,47*69
$GAGSV,3,3,11,09,37,071,44,23,07,024,,16,08,148,*51
$GBGSV,6,1,22,22,66,307,52,16,14,045,41,34,13,311,42,06,17,047,39*60
$GBGSV,6,2,22,44,14,259,43,05,22,129,39,09,31,050,41,12,20,283,40*61
$GBGSV,6,3,22,36,42,153,49,48,27,104,,58,38,069,,46,44,075,*62
$GBGSV,6,4,22,19,54,097,51,21,65,303,,37,06,033,40,39,04,045,39*69
$GBGSV,6,5,22,11,08,334,,45,07,189,,35,01,218,38,20,07,106,41*62
$GBGSV,6,6,22,02,06,107,35,60,07,111,41*6A
$GPGGA,050102.00,,,,,0,00,,,M,,M,,*4E
$PTNL,GGK,050102.00,010125,4742.1603795,N,01618.1002065,E,1,40,0.8,EHT750.9831,M*45
$GPGGQ,050102.00,010125,4742.1603795,N,01618.1002065,E,1,40,1.028,707.7765,M*3A
$GPGFA,050102.00,4.030,7.307,0.424,0.287,335.906,0.891,,VVV*04
$GPLLK,050102.00,010125,,M,,M,1,40,0.8,,M*01
$GNGMP,050102.00,,,,,DAAA,40,0.4,,,,*50
$GPGMP,050102.00,,,,,,09,,,,2.4,136*70
$GLGMP,050102.00,,,,,,09,,,,,*70
$GAGMP,050102.00,,,,,,09,,,,,*7D
$GBGMP,050102.00,,,,,,13,,,,,*75
$PSSN,SNC,[0,277280000,2347]*4C
$GPZDA,050107.00,01,01,2025,,*60
$GPDTM,W84,,00.0000000,N,00.0000000,E,00.0000000,W84*5F
$PSSN,TFM,050107.00,,,,*6C
$GPRMC,050107.00,A,4742.1603758,N,01618.1002079,E,0.0,,010125,5.1,E,D*16
$GPGLL,4742.1603758,N,01618.1002079,E,050107.00,A,D*67
$GPGGA,050107.00,4742.1603758,N,01618.1002079,E,2,40,0.4,707.7762,M,43.2066,M,3.0,0136*4C
$GNGNS,050107.00,4742.1603758,N,01618.1002079,E,DAAA,40,0.4,707.7762,43.2066,,*57
$GPGNS,050107.00,,,,,,09,,,,3.0,136*70
$GLGNS,050107.00,,,,,,09,,,,,*75
$GAGNS,050107.00,,,,,,09,,,,,*78
$GBGNS,050107.00,,,,,,13,,,,,*70
$GPLLQ,050107.00,010125,,M,,M,1,40,1.043,,M*10
$GPVTG,,T,,M,0.00,N,0.00,K,D*26
$GPHDT,,T*1B
$GPTHS,,V*0E
$GPROT,,V*08
$PSSN,HRP,050107.00,010125,,,,,,,00,0,,*62
$PTNL,AVR,050107.00,,Yaw,,Tilt,,,,0,,00*34
$GPGSA,A,3,04,05,06,07,09,11,16,20,30,,,,0.8,0.4,0.6*37
$GPGSA,A,3,70,71,72,73,74,80,86,87,88,,,,0.8,0.4,0.6*32
$GPGSA,A,3,03,05,06,09,15,24,31,34,36,,,,0.8,0.4,0.6*33
$GPGSA,A,3,05,06,09,12,16,19,20,22,34,36,37,44,0.8,0.4,0.6*3A
$GPGSA,A,3,60,,,,,,,,,,,,0.8,0.4,0.6*3E
$GPGST,050107.00,1.849,0.428,0.293,335.082,0.407,0.321,0.905*56
$GPGBS,050107.00,2.884,2.067,4.880,72,0.0001,6.314,6.079*51
$GPGRS,050107.00,1,0.0,0.6,-0.4,0.2,-0.3,-0.2,0.1,0.7,-0.2,,,*66
$GPGRS,050107.00,1,-1.8,-0.9,6.3,3.7,3.0,-2.7,-3.0,-4.5,-1.1,,,*66
$GPGRS,050107.00,1,-0.3,0.2,0.5,0.3,-0.3,-0.6,-0.4,-0.0,-0.3,,,*66
$GPGRS,050107.00,1,0.8,1.2,0.8,-0.3,0.9,-0.5,-0.4,-0.3,0.8,-0.0,0.3,-0.2*4F
$GPGRS,050107.00,1,-1.2,,,,,,,,,,,*4D
$GPGSV,6,1,21,07,69,166,49,04,32,074,45,16,18,051,41,20,37,306,46*70
$GPGSV,6,2,21,30,36,204,46,11,41,276,46,06,37,226,46,09,61,066,49*7D
$GPGSV,6,3,21,05,05,311,40,26,03,026,35,29,02,337,37,03,04,132,*70
$GPGSV,6,4,21,36,35,170,45,58,13,245,37,40,24,132,37,34,31,208,44*7D
$GPGSV,6,5,21,49,34,195,45,57,07,111,37,41,07,108,36,61,03,257,38*7E
$GPGSV,6,6,21*7A
$GLGSV,3,1,09,71,64,044,51,88,18,333,46,70,24,090,37,74,25,159,42*65
$GLGSV,3,2,09,86,14,223,44,87,33,270,47,80,28,036,47,72,44,306,50*6D
$GLGSV,3,3,09,73,51,107,50*5F
$GAGSV,3,1,11,05,81,324,49,06,14,076,39,36,15,187,40,31,24,071,42*69
$GAGSV,3,2,11,24,18,125,40,03,31,265,44,15,34,306,44,34,45,236,47*60
$GAGSV,3,3,11,09,37,072,45,23,07,024,,16,08,148,*53
$GBGSV,6,1,22,22,66,307,52,16,14,045,41,34,13,311,43,06,17,047,39*61
$GBGSV,6,2,22,44,14,259,43,05,22,129,39,09,31,050,41,12,20,283,40*61
$GBGSV,6,3,22,36,42,153,49,48,27,104,,58,38,068,,46,44,075,*63
$GBGSV,6,4,22,19,54,097,50,21,65,303,,37,06,033,40,39,04,045,38*69
$GBGSV,6,5,22,11,08,334,,45,07,189,,35,01,218,39,20,07,106,41*63
$GBGSV,6,6,22,02,06,107,35,60,07,111,41*6A
$GPGGA,050107.00,,,,,0,00,,,M,,M,,*4B
$PTNL,GGK,050107.00,010125,4742.1603758,N,01618.1002079,E,1,40,0.8,EHT750.9827,M*4B
$GPGGQ,050107.00,010125,4742.1603758,N,01618.1002079,E,1,40,1.043,707.7762,M*39
$GPGFA,050107.00,4.066,7.419,0.428,0.293,335.082,0.905,,VVV*0A
$GPLLK,050107.00,010125,,M,,M,1,40,0.8,,M*04
$GNGMP,050107.00,,,,,DAAA,40,0.4,,,,*55
$GPGMP,050107.00,,,,,,09,,,,3.0,136*70
$GLGMP,050107.00,,,,,,09,,,,,*75
$GAGMP,050107.00,,,,,,09,,,,,*78
$GBGMP,050107.00,,,,,,13,,,,,*70
$PSSN,SNC,[0,277285000,2347]*49
$GPZDA,050112.00,01,01,2025,,*64
$GPDTM,W84,,00.0000000,N,00.0000000,E,00.0000000,W84*5F
$PSSN,TFM,050112.00,,,,*68
$GPRMC,050112.00,A,4742.1603718,N,01618.1002091,E,0.0,,010125,5.1,E,D*10
$GPGLL,4742.1603718,N,01618.1002091,E,050112.00,A,D*61
$GPGGA,050112.00,4742.1603718,N,01618.1002091,E,2,40,0.4,707.7754,M,43.2066,M,3.1,0136*4E
$GNGNS,050112.00,4742.1603718,N,01618.1002091,E,DAAA,40,0.4,707.7754,43.2066,,*54
$GPGNS,050112.00,,,,,,09,,,,3.1,136*75
$GLGNS,050112.00,,,,,,09,,,,,*71
$GAGNS,050112.00,,,,,,09,,,,,*7C
$GBGNS,050112.00,,,,,,13,,,,,*74
$GPLLQ,050112.00,010125,,M,,M,1,40,1.054,,M*12
$GPVTG,,T,,M,0.00,N,0.00,K,D*26
$GPHDT,,T*1B
$GPTHS,,V*0E
$GPROT,,V*08
$PSSN,HRP,050112.00,010125,,,,,,,00,0,,*66
$PTNL,AVR,050112.00,,Yaw,,Tilt,,,,0,,00*30
$GPGSA,A,3,04,05,06,07,09,11,16,20,30,,,,0.8,0.4,0.6*37
$GPGSA,A,3,70,71,72,73,74,80,86,87,88,,,,0.8,0.4,0.6*32
$GPGSA,A,3,03,05,06,09,15,24,31,34,36,,,,0.8,0.4,0.6*33
$GPGSA,A,3,05,06,09,12,16,19,20,22,34,36,37,44,0.8,0.4,0.6*3A
$GPGSA,A,3,60,,,,,,,,,,,,0.8,0.4,0.6*3E
$GPGST,050112.00,1.982,0.426,0.297,334.700,0.405,0.324,0.918*59
$GPGBS,050112.00,2.906,2.054,4.982,72,0.0001,7.022,6.079*5A
$GPGRS,050112.00,1,-0.2,-0.3,-0.3,0.2,-0.1,-0.1,0.1,0.5,-0.3,,,*60
$GPGRS,050112.00,1,-2.3,-1.6,7.0,4.6,2.8,-1.7,-2.8,-5.0,0.0,,,*4A
$GPGRS,050112.00,1,0.1,0.3,0.8,0.5,-0.0,-0.7,0.2,0.2,-0.3,,,*41
$GPGRS,050112.00,1,0.9,1.3,0.8,0.3,0.7,-0.5,-0.7,-0.2,0.9,0.2,-0.1,-0.1*68
$GPGRS,050112.00,1,-0.7,,,,,,,,,,,*4D
$GPGSV,6,1,21,07,69,166,49,04,32,074,45,16,18,051,40,20,37,306,46*71
$GPGSV,6,2,21,30,36,204,46,11,41,276,46,06,37,226,46,09,61,066,49*7D
$GPGSV,6,3,21,05,05,311,38,26,03,026,34,29,02,337,36,03,04,132,*7F
$GPGSV,6,4,21,36,35,170,45,58,13,245,37,40,24,132,37,34,31,208,44*7D
$GPGSV,6,5,21,49,34,195,45,57,07,111,37,41,07,108,35,61,03,257,38*7D
$GPGSV,6,6,21*7A
$GLGSV,3,1,09,71,64,044,51,88,18,333,46,70,24,090,37,74,25,159,42*65
$GLGSV,3,2,09,86,14,223,45,87,33,270,47,80,28,036,48,72,44,306,50*63
$GLGSV,3,3,09,73,51,107,51*5E
$GAGSV,3,1,11,05,81,324,49,06,14,076,39,36,15,187,40,24,18,125,40*60
$GAGSV,3,2,11,31,24,071,42,03,31,265,44,15,34,306,44,34,45,236,47*69
$GAGSV,3,3,11,09,37,072,45,23,07,024,,16,08,148,*53
$GBGSV,6,1,22,22,66,307,52,16,14,045,40,34,13,311,42,06,17,047,39*61
$GBGSV,6,2,22,44,14,259,43,05,22,129,39,09,31,050,41,12,20,283,40*61
$GBGSV,6,3,22,36,42,153,49,48,27,104,,58,38,068,,46,44,074,*62
$GBGSV,6,4,22,19,54,097,51,21,65,303,,37,06,033,40,39,04,045,39*69
$GBGSV,6,5,22,11,08,334,,45,07,189,,35,01,218,38,20,07,106,41*62
$GBGSV,6,6,22,02,06,107,35,60,07,111,41*6A
$GPGGA,050112.00,,,,,0,00,,,M,,M,,*4F
$PTNL,GGK,050112.00,010125,4742.1603718,N,01618.1002091,E,1,40,0.8,EHT750.9819,M*40
$GPGGQ,050112.00,010125,4742.1603718,N,01618.1002091,E,1,40,1.054,707.7754,M*3C
$GPGFA,050112.00,4.048,7.524,0.426,0.297,334.700,0.918,,VVV*07
$GPLLK,050112.00,010125,,M,,M,1,40,0.8,,M*00
$GNGMP,050112.00,,,,,DAAA,40,0.4,,,,*51
$GPGMP,050112.00,,,,,,09,,,,3.1,136*75
$GLGMP,050112.00,,,,,,09,,,,,*71
$GAGMP,050112.00,,,,,,09,,,,,*7C
$GBGMP,050112.00,,,,,,13,,,,,*74
$PSSN,SNC,[0,277290000,2347]*4D
$GPZDA,050117.00,01,01,2025,,*61
$GPDTM,W84,,00.0000000,N,00.0000000,E,00.0000000,W84*5F
$PSSN,TFM,050117.00,,,,*6D
$GPRMC,050117.00,A,4742.1603706,N,01618.1002112,E,0.0,,010125,5.1,E,D*10
$GPGLL,4742.1603706,N,01618.1002112,E,050117.00,A,D*61
$GPGGA,050117.00,4742.1603706,N,01618.1002112,E,2,40,0.4,707.7713,M,43.2066,M,1.4,0136*4A
$GNGNS,050117.00,4742.1603706,N,01618.1002112,E,DAAA,40,0.4,707.7713,43.2066,,*57
$GPGNS,050117.00,,,,,,09,,,,1.4,136*77
$GLGNS,050117.00,,,,,,09,,,,,*74
$GAGNS,050117.00,,,,,,09,,,,,*79
$GBGNS,050117.00,,,,,,13,,,,,*71
$GPLLQ,050117.00,010125,,M,,M,1,40,1.047,,M*15
$GPVTG,,T,,M,0.01,N,0.01,K,D*26
$GPHDT,,T*1B
$GPTHS,,V*0E
$GPROT,,V*08
$PSSN,HRP,050117.00,010125,,,,,,,00,0,,*63
$PTNL,AVR,050117.00,,Yaw,,Tilt,,,,0,,00*35
$GPGSA,A,3,04,05,06,07,09,11,16,20,30,,,,0.8,0.4,0.6*37
$GPGSA,A,3,70,71,72,73,74,80,86,87,88,,,,0.8,0.4,0.6*32
$GPGSA,A,3,03,05,06,09,15,24,31,34,36,,,,0.8,0.4,0.6*33
$GPGSA,A,3,05,06,09,12,16,19,20,22,34,36,37,44,0.8,0.4,0.6*3A
$GPGSA,A,3,60,,,,,,,,,,,,0.8,0.4,0.6*3E
$GPGST,050117.00,1.949,0.424,0.294,335.539,0.405,0.320,0.911*5E
$GPGBS,050117.00,2.781,2.025,4.792,72,0.0001,6.894,6.079*53
$GPGRS,050117.00,1,-0.5,-0.5,-0.3,0.1,-0.1,0.2,0.1,0.3,0.0,,,*61
$GPGRS,050117.00,1,-2.4,-1.1,6.9,4.7,3.0,-0.9,-2.2,-4.7,-1.8,,,*68
$GPGRS,050117.00,1,0.0,0.4,0.8,0.5,0.4,-0.2,-0.1,0.3,-0.4,,,*46
$GPGRS,050117.00,1,1.2,1.2,0.5,0.4,0.8,-0.3,-1.1,-0.4,0.6,0.3,-0.2,0.1*44
$GPGRS,050117.00,1,-0.8,,,,,,,,,,,*47
$GPGSV,6,1,21,07,69,166,49,04,32,074,44,16,18,051,40,20,37,306,46*70
$GPGSV,6,2,21,30,36,204,45,11,41,276,46,06,37,225,46,09,61,066,49*7D
