$GPZDA,084442.00,01,01,2025,,*6D
$GPDTM,W84,,00.0000000,N,00.0000000,E,00.0000000,W84*5F
$PSSN,TFM,084442.00,,,,*61
$GPRMC,084442.00,A,4742.1599217,N,01618.1003618,E,0.0,,010125,5.1,E,D*15
$GPGLL,4742.1599217,N,01618.1003618,E,084442.00,A,D*64
$GPGGA,084442.00,4742.1599217,N,01618.1003618,E,2,36,0.4,708.8605,M,43.2066,M,1.7,0136*4B
$GNGNS,084442.00,4742.1599217,N,01618.1003618,E,DAAA,36,0.4,708.8605,43.2066,,*55
$GPGNS,084442.00,,,,,,10,,,,1.7,136*70
$GLGNS,084442.00,,,,,,06,,,,,*77
$GAGNS,084442.00,,,,,,07,,,,,*7B
$GBGNS,084442.00,,,,,,13,,,,,*7D
$GPLLQ,084442.00,010125,,M,,M,1,36,0.854,,M*13
$GPVTG,,T,,M,0.01,N,0.01,K,D*26
$GPHDT,,T*1B
$GPTHS,,V*0E
$GPROT,,V*08
$PSSN,HRP,084442.00,010125,,,,,,,00,0,,*6F
$PTNL,AVR,084442.00,,Yaw,,Tilt,,,,0,,00*39
$GPGSA,A,3,05,07,13,14,15,17,20,23,24,30,,,0.7,0.4,0.6*36
$GPGSA,A,3,65,66,72,74,75,76,,,,,,,0.7,0.4,0.6*31
$GPGSA,A,3,02,03,05,08,24,25,26,,,,,,0.7,0.4,0.6*3E
$GPGSA,A,3,05,07,09,10,14,21,22,26,36,40,42,45,0.7,0.4,0.6*39
$GPGSA,A,3,60,,,,,,,,,,,,0.7,0.4,0.6*31
$GPGST,084442.00,2.074,0.439,0.329,6.714,0.438,0.331,0.654*53
$GPGBS,084442.00,2.764,2.029,3.944,72,0.0001,6.779,6.276*5B
$GPGRS,084442.00,1,-0.4,0.3,0.2,0.1,-0.3,-0.5,0.7,-0.3,0.9,-0.2,,*60
$GPGRS,084442.00,1,-1.2,-2.9,6.8,4.0,-3.5,-2.5,,,,,,*43
$GPGRS,084442.00,1,-0.3,0.0,0.5,-0.2,-0.5,0.1,-0.1,,,,,*6F
$GPGRS,084442.00,1,1.4,2.0,3.6,0.7,1.4,-0.6,1.8,-0.0,-1.1,-1.5,-0.1,-1.7*4C
$GPGRS,084442.00,1,0.0,,,,,,,,,,,*6E
$GPGSV,6,1,22,13,82,310,48,20,12,198,37,24,11,267,39,23,11,327,39*7F
$GPGSV,6,2,22,05,36,224,45,17,14,128,40,30,42,073,46,15,46,301,47*70
$GPGSV,6,3,22,22,64,151,,14,66,096,47,07,08,077,38,08,05,026,36*7A
$GPGSV,6,4,22,18,02,296,36,36,35,170,44,58,13,245,36,40,23,133,35*76
$GPGSV,6,5,22,34,31,208,42,49,34,195,44,57,07,112,37,41,07,108,35*7A
$GPGSV,6,6,22,61,03,257,38*46
$GLGSV,3,1,09,65,77,184,49,74,17,043,38,72,20,150,42,66,44,321,51*65
$GLGSV,3,2,09,76,43,229,51,75,71,031,52,82,01,324,41,83,09,001,34*68
$GLGSV,3,3,09,84,02,059,*5E
$GAGSV,3,1,09,03,76,129,48,24,25,046,41,05,23,125,40,02,39,192,45*64
$GAGSV,3,2,09,16,49,061,,08,49,303,46,25,66,100,48,13,04,279,35*6C
$GAGSV,3,3,09,26,07,327,38*5F
$GBGSV,5,1,18,45,73,063,51,22,18,159,43,05,20,130,38,36,22,058,42*61
$GBGSV,5,2,18,14,22,316,40,40,28,056,43,56,23,088,,07,28,065,42*60
$GBGSV,5,3,18,24,43,221,,42,46,301,48,10,32,079,41,26,47,237,49*69
$GBGSV,5,4,18,21,63,201,52,50,65,262,,02,04,109,33,09,07,079,36*6A
$GBGSV,5,5,18,30,00,014,,60,07,112,41*62
$GPGGA,084442.00,,,,,0,00,,,M,,M,,*46
$PTNL,GGK,084442.00,010125,4742.1599217,N,01618.1003618,E,1,36,0.7,EHT752.0671,M*40
$GPGGQ,084442.00,010125,4742.1599217,N,01618.1003618,E,1,36,0.854,708.8605,M*34
$GPGFA,084442.00,4.174,5.365,0.439,0.329,6.714,0.654,,VVV*0B
$GPLLK,084442.00,010125,,M,,M,1,36,0.8,,M*08
$GNGMP,084442.00,,,,,DAAA,36,0.4,,,,*59
$GPGMP,084442.00,,,,,,10,,,,1.7,136*70
$GLGMP,084442.00,,,,,,06,,,,,*77
$GAGMP,084442.00,,,,,,07,,,,,*7B
$GBGMP,084442.00,,,,,,13,,,,,*7D
$PSSN,SNC,[0,290700000,2347]*48
$GPZDA,084447.00,01,01,2025,,*68
$GPDTM,W84,,00.0000000,N,00.0000000,E,00.0000000,W84*5F
$PSSN,TFM,084447.00,,,,*64
$GPRMC,084447.00,A,4742.1599224,N,01618.1003634,E,0.0,,010125,5.1,E,D*1E
$GPGLL,4742.1599224,N,01618.1003634,E,084447.00,A,D*6F
$GPGGA,084447.00,4742.1599224,N,01618.1003634,E,2,36,0.4,708.8646,M,43.2066,M,2.7,0136*44
$GNGNS,084447.00,4742.1599224,N,01618.1003634,E,DAAA,36,0.4,708.8646,43.2066,,*59
$GPGNS,084447.00,,,,,,10,,,,2.7,136*76
$GLGNS,084447.00,,,,,,06,,,,,*72
$GAGNS,084447.00,,,,,,07,,,,,*7E
$GBGNS,084447.00,,,,,,13,,,,,*78
$GPLLQ,084447.00,010125,,M,,M,1,36,0.850,,M*12
$GPVTG,,T,,M,0.00,N,0.01,K,D*27
$GPHDT,,T*1B
$GPTHS,,V*0E
$GPROT,,V*08
$PSSN,HRP,084447.00,010125,,,,,,,00,0,,*6A
$PTNL,AVR,084447.00,,Yaw,,Tilt,,,,0,,00*3C
$GPGSA,A,3,05,07,13,14,15,17,20,23,24,30,,,0.7,0.4,0.6*36
$GPGSA,A,3,65,66,72,74,75,76,,,,,,,0.7,0.4,0.6*31
$GPGSA,A,3,02,03,05,08,24,25,26,,,,,,0.7,0.4,0.6*3E
$GPGSA,A,3,05,07,09,10,14,21,22,26,36,40,42,45,0.7,0.4,0.6*39
$GPGSA,A,3,60,,,,,,,,,,,,0.7,0.4,0.6*31
$GPGST,084447.00,2.070,0.439,0.331,5.919,0.438,0.332,0.649*54
$GPGBS,084447.00,2.804,2.042,3.982,72,0.0001,6.767,6.276*5F
$GPGRS,084447.00,1,-0.1,0.2,-0.0,0.1,-0.2,-0.2,0.5,0.0,1.0,-0.6,,*68
$GPGRS,084447.00,1,-1.1,-2.6,6.8,4.0,-3.6,-2.6,,,,,,*4A
$GPGRS,084447.00,1,-0.3,-0.1,1.0,0.0,-0.4,0.2,-0.1,,,,,*6F
$GPGRS,084447.00,1,1.6,1.9,3.8,1.2,1.0,-0.5,1.8,-0.3,-1.3,-1.2,-0.2,-1.4*4A
$GPGRS,084447.00,1,-0.1,,,,,,,,,,,*47
$GPGSV,6,1,22,13,82,310,48,20,12,198,39,24,11,267,38,23,12,327,40*7D
$GPGSV,6,2,22,05,36,224,46,17,14,128,40,30,42,073,46,15,46,301,47*73
$GPGSV,6,3,22,22,64,151,,14,66,096,47,07,08,077,38,08,05,026,37*7B
$GPGSV,6,4,22,18,02,296,37,36,35,170,44,58,13,245,36,40,23,133,35*77
$GPGSV,6,5,22,34,31,208,42,49,34,195,44,57,07,112,37,41,07,108,35*7A
$GPGSV,6,6,22,61,03,257,38*46
$GLGSV,3,1,09,65,77,184,49,74,17,043,39,72,20,150,43,66,45,321,50*65
$GLGSV,3,2,09,76,43,229,51,75,71,031,51,82,01,324,41,83,09,001,34*6B
$GLGSV,3,3,09,84,02,059,*5E
$GAGSV,3,1,09,03,76,129,48,24,25,046,41,05,23,125,41,02,39,192,45*65
$GAGSV,3,2,09,16,49,061,,08,49,303,46,25,66,100,48,13,04,279,34*6D
$GAGSV,3,3,09,26,07,327,37*50
$GBGSV,5,1,18,45,73,063,51,22,18,159,43,05,20,130,38,36,22,058,43*60
$GBGSV,5,2,18,14,22,316,40,40,28,056,43,56,23,088,,07,28,065,42*60
$GBGSV,5,3,18,24,43,221,,42,46,301,48,10,32,079,41,26,47,237,48*68
$GBGSV,5,4,18,21,63,200,52,50,65,262,,02,04,109,33,09,07,079,36*6B
$GBGSV,5,5,18,30,00,014,,60,07,112,41*62
$GPGGA,084447.00,,,,,0,00,,,M,,M,,*43
$PTNL,GGK,084447.00,010125,4742.1599224,N,01618.1003634,E,1,36,0.7,EHT752.0711,M*4C
$GPGGQ,084447.00,010125,4742.1599224,N,01618.1003634,E,1,36,0.850,708.8646,M*3C
$GPGFA,084447.00,4.174,5.320,0.439,0.331,5.919,0.649,,VVV*0A
$GPLLK,084447.00,010125,,M,,M,1,36,0.8,,M*0D
$GNGMP,084447.00,,,,,DAAA,36,0.4,,,,*5C
$GPGMP,084447.00,,,,,,10,,,,2.7,136*76
$GLGMP,084447.00,,,,,,06,,,,,*72
$GAGMP,084447.00,,,,,,07,,,,,*7E
$GBGMP,084447.00,,,,,,13,,,,,*78
$PSSN,SNC,[0,290705000,2347]*4D
$GPZDA,084452.00,01,01,2025,,*6C
$GPDTM,W84,,00.0000000,N,00.0000000,E,00.0000000,W84*5F
$PSSN,TFM,084452.00,,,,*60
$GPRMC,084452.00,A,4742.1599251,N,01618.1003650,E,0.0,,010125,5.1,E,D*1A
$GPGLL,4742.1599251,N,01618.1003650,E,084452.00,A,D*6B
$GPGGA,084452.00,4742.1599251,N,01618.1003650,E,2,36,0.4,708.8688,M,43.2066,M,3.3,0136*47
$GNGNS,084452.00,4742.1599251,N,01618.1003650,E,DAAA,36,0.4,708.8688,43.2066,,*5F
$GPGNS,084452.00,,,,,,10,,,,3.3,136*77
$GLGNS,084452.00,,,,,,06,,,,,*76
$GAGNS,084452.00,,,,,,07,,,,,*7A
$GBGNS,084452.00,,,,,,13,,,,,*7C
$GPLLQ,084452.00,010125,,M,,M,1,36,0.861,,M*14
$GPVTG,,T,,M,0.00,N,0.00,K,D*26
$GPHDT,,T*1B
$GPTHS,,V*0E
$GPROT,,V*08
$PSSN,HRP,084452.00,010125,,,,,,,00,0,,*6E
$PTNL,AVR,084452.00,,Yaw,,Tilt,,,,0,,00*38
$GPGSA,A,3,05,07,13,14,15,17,20,23,24,30,,,0.7,0.4,0.6*36
$GPGSA,A,3,65,66,72,74,75,76,,,,,,,0.7,0.4,0.6*31
$GPGSA,A,3,02,03,05,08,24,25,26,,,,,,0.7,0.4,0.6*3E
$GPGSA,A,3,05,07,09,10,14,21,22,26,36,40,42,45,0.7,0.4,0.6*39
$GPGSA,A,3,60,,,,,,,,,,,,0.7,0.4,0.6*31
$GPGST,084452.00,2.321,0.444,0.334,5.066,0.443,0.335,0.658*52
$GPGBS,084452.00,2.825,2.090,4.045,72,0.0001,7.494,6.277*5D
$GPGRS,084452.00,1,-0.4,0.8,0.1,0.5,-0.4,-0.4,1.1,0.1,0.3,-0.6,,*4D
$GPGRS,084452.00,1,-1.1,-3.1,7.5,5.2,-3.8,-2.9,,,,,,*46
$GPGRS,084452.00,1,-0.1,0.1,0.9,-0.2,-0.3,0.4,0.0,,,,,*4E
$GPGRS,084452.00,1,1.8,2.0,3.8,1.3,1.7,-0.4,1.9,-0.0,-1.4,-1.2,-0.2,-1.5*49
$GPGRS,084452.00,1,0.1,,,,,,,,,,,*6E
$GPGSV,6,1,22,13,82,310,48,20,12,198,39,24,11,267,39,23,12,327,40*7C
$GPGSV,6,2,22,05,36,224,45,17,14,128,40,30,42,073,46,15,46,301,46*71
$GPGSV,6,3,22,22,64,151,,14,66,096,48,07,08,077,38,08,05,026,37*74
$GPGSV,6,4,22,18,02,296,36,36,35,170,44,58,13,245,36,40,23,133,35*76
$GPGSV,6,5,22,34,31,208,42,49,34,195,44,57,07,112,37,41,07,108,35*7A
$GPGSV,6,6,22,61,03,257,38*46
$GLGSV,3,1,09,65,77,184,49,74,17,043,39,72,20,150,43,66,45,321,51*64
$GLGSV,3,2,09,76,44,229,50,75,71,031,51,82,01,324,41,83,09,001,34*6D
$GLGSV,3,3,09,84,02,059,*5E
$GAGSV,3,1,09,03,76,129,48,24,25,046,41,05,23,125,40,02,39,192,45*64
$GAGSV,3,2,09,16,49,061,,08,49,303,46,25,66,100,48,13,04,279,35*6C
$GAGSV,3,3,09,26,07,327,37*50
$GBGSV,5,1,18,45,73,063,51,22,18,159,43,05,20,130,38,36,22,058,43*60
$GBGSV,5,2,18,14,22,316,41,40,28,056,43,56,23,088,,07,28,065,42*61
$GBGSV,5,3,18,24,43,221,,42,46,301,48,10,32,079,42,26,47,237,49*6A
$GBGSV,5,4,18,21,63,200,52,50,65,262,,02,04,109,33,09,07,079,36*6B
$GBGSV,5,5,18,30,00,014,,60,07,112,41*62
$GPGGA,084452.00,,,,,0,00,,,M,,M,,*47
$PTNL,GGK,084452.00,010125,4742.1599251,N,01618.1003650,E,1,36,0.7,EHT752.0753,M*4E
$GPGGQ,084452.00,010125,4742.1599251,N,01618.1003650,E,1,36,0.861,708.8688,M*38
$GPGFA,084452.00,4.220,5.394,0.444,0.334,5.066,0.658,,VVV*0D
$GPLLK,084452.00,010125,,M,,M,1,36,0.8,,M*09
$GNGMP,084452.00,,,,,DAAA,36,0.4,,,,*58
$GPGMP,084452.00,,,,,,10,,,,3.3,136*77
$GLGMP,084452.00,,,,,,06,,,,,*76
$GAGMP,084452.00,,,,,,07,,,,,*7A
$GBGMP,084452.00,,,,,,13,,,,,*7C
$PSSN,SNC,[0,290710000,2347]*49
$GPZDA,084457.00,01,01,2025,,*69
$GPDTM,W84,,00.0000000,N,00.0000000,E,00.0000000,W84*5F
$PSSN,TFM,084457.00,,,,*65
$GPRMC,084457.00,A,4742.1599269,N,01618.1003622,E,0.0,,010125,5.1,E,D*11
$GPGLL,4742.1599269,N,01618.1003622,E,084457.00,A,D*60
$GPGGA,084457.00,4742.1599269,N,01618.1003622,E,2,36,0.4,708.8724,M,43.2066,M,2.3,0136*4A
$GNGNS,084457.00,4742.1599269,N,01618.1003622,E,DAAA,36,0.4,708.8724,43.2066,,*53
$GPGNS,084457.00,,,,,,10,,,,2.3,136*73
$GLGNS,084457.00,,,,,,06,,,,,*73
$GAGNS,084457.00,,,,,,07,,,,,*7F
$GBGNS,084457.00,,,,,,13,,,,,*79
$GPLLQ,084457.00,010125,,M,,M,1,36,0.864,,M*14
$GPVTG,,T,,M,0.00,N,0.01,K,D*27
$GPHDT,,T*1B
$GPTHS,,V*0E
$GPROT,,V*08
$PSSN,HRP,084457.00,010125,,,,,,,00,0,,*6B
$PTNL,AVR,084457.00,,Yaw,,Tilt,,,,0,,00*3D
$GPGSA,A,3,05,07,13,14,15,17,20,23,24,30,,,0.7,0.4,0.6*36
$GPGSA,A,3,65,66,72,74,75,76,,,,,,,0.7,0.4,0.6*31
$GPGSA,A,3,02,03,05,08,24,25,26,,,,,,0.7,0.4,0.6*3E
$GPGSA,A,3,05,07,09,10,14,21,22,26,36,40,42,45,0.7,0.4,0.6*39
$GPGSA,A,3,60,,,,,,,,,,,,0.7,0.4,0.6*31
$GPGST,084457.00,2.270,0.444,0.332,5.530,0.443,0.333,0.663*5C
$GPGBS,084457.00,2.786,2.089,3.999,72,0.0001,7.369,6.277*5C
$GPGRS,084457.00,1,-0.4,0.5,-0.1,0.5,-0.3,-0.2,0.8,0.1,0.6,-0.4,,*66
$GPGRS,084457.00,1,-0.9,-2.8,7.4,5.1,-3.4,-2.8,,,,,,*4D
$GPGRS,084457.00,1,0.2,0.2,1.2,0.1,-0.2,0.4,0.3,,,,,*40
$GPGRS,084457.00,1,1.1,1.9,4.1,1.3,2.2,-0.4,1.9,0.2,-1.2,-1.2,-0.2,-1.6*6D
$GPGRS,084457.00,1,0.0,,,,,,,,,,,*6A
$GPGSV,6,1,22,13,82,310,48,20,12,198,40,24,11,267,38,23,12,327,40*73
$GPGSV,6,2,22,05,36,224,45,17,14,128,41,30,42,073,46,15,46,301,47*71
$GPGSV,6,3,22,22,64,151,,14,66,096,48,07,08,077,39,08,05,026,36*74
$GPGSV,6,4,22,18,02,296,35,36,35,170,44,58,13,245,36,40,23,133,35*75
$GPGSV,6,5,22,34,31,208,42,49,34,195,44,57,07,112,37,41,07,108,35*7A
$GPGSV,6,6,22,61,03,257,38*46
$GLGSV,3,1,09,65,77,184,49,74,17,043,40,72,20,150,43,66,45,321,51*6A
$GLGSV,3,2,09,76,44,229,51,75,71,031,52,82,01,324,42,83,09,001,34*6C
$GLGSV,3,3,09,84,02,059,*5E
$GAGSV,3,1,09,03,76,129,49,24,25,046,41,05,22,125,41,02,39,192,46*66
$GAGSV,3,2,09,16,49,061,,08,49,303,46,25,66,100,48,13,04,279,35*6C
$GAGSV,3,3,09,26,07,327,37*50
$GBGSV,5,1,18,45,73,063,51,22,18,159,43,05,20,130,39,36,22,058,43*61
$GBGSV,5,2,18,14,22,316,40,40,28,056,43,56,23,088,,07,28,065,41*63
$GBGSV,5,3,18,24,43,221,,42,46,301,48,10,32,079,41,26,47,237,48*68
$GBGSV,5,4,18,21,63,200,52,50,65,262,,02,04,109,33,09,07,079,36*6B
$GBGSV,5,5,18,30,00,014,,60,07,112,41*62
$GPGGA,084457.00,,,,,0,00,,,M,,M,,*42
$PTNL,GGK,084457.00,010125,4742.1599269,N,01618.1003622,E,1,36,0.7,EHT752.0789,M*42
$GPGGQ,084457.00,010125,4742.1599269,N,01618.1003622,E,1,36,0.864,708.8724,M*31
$GPGFA,084457.00,4.221,5.434,0.444,0.332,5.530,0.663,,VVV*0C
$GPLLK,084457.00,010125,,M,,M,1,36,0.8,,M*0C
$GNGMP,084457.00,,,,,DAAA,36,0.4,,,,*5D
$GPGMP,084457.00,,,,,,10,,,,2.3,136*73
$GLGMP,084457.00,,,,,,06,,,,,*73
$GAGMP,084457.00,,,,,,07,,,,,*7F
$GBGMP,084457.00,,,,,,13,,,,,*79
$PSSN,SNC,[0,290715000,2347]*4C
$GPZDA,084502.00,01,01,2025,,*68
$GPDTM,W84,,00.0000000,N,00.0000000,E,00.0000000,W84*5F
$PSSN,TFM,084502.00,,,,*64
$GPRMC,084502.00,A,4742.1599283,N,01618.1003625,E,0.0,,010125,5.1,E,D*13
$GPGLL,4742.1599283,N,01618.1003625,E,084502.00,A,D*62
$GPGGA,084502.00,4742.1599283,N,01618.1003625,E,2,36,0.4,708.8757,M,43.2066,M,1.7,0136*4B
$GNGNS,084502.00,4742.1599283,N,01618.1003625,E,DAAA,36,0.4,708.8757,43.2066,,*55
$GPGNS,084502.00,,,,,,10,,,,1.7,136*75
$GLGNS,084502.00,,,,,,06,,,,,*72
$GAGNS,084502.00,,,,,,07,,,,,*7E
$GBGNS,084502.00,,,,,,13,,,,,*78
$GPLLQ,084502.00,010125,,M,,M,1,36,0.854,,M*16
$GPVTG,,T,,M,0.00,N,0.01,K,D*27
$GPHDT,,T*1B
$GPTHS,,V*0E
$GPROT,,V*08
$PSSN,HRP,084502.00,010125,,,,,,,00,0,,*6A
$PTNL,AVR,084502.00,,Yaw,,Tilt,,,,0,,00*3C
$GPGSA,A,3,05,07,13,14,15,17,20,23,24,30,,,0.7,0.4,0.6*36
$GPGSA,A,3,65,66,72,74,75,76,,,,,,,0.7,0.4,0.6*31
$GPGSA,A,3,02,03,05,08,24,25,26,,,,,,0.7,0.4,0.6*3E
$GPGSA,A,3,05,07,09,10,14,21,22,26,36,40,42,45,0.7,0.4,0.6*39
$GPGSA,A,3,60,,,,,,,,,,,,0.7,0.4,0.6*31
$GPGST,084502.00,2.178,0.439,0.329,6.710,0.438,0.331,0.654*5F
$GPGBS,084502.00,2.772,2.028,3.949,72,0.0001,7.597,6.277*57
$GPGRS,084502.00,1,-0.6,0.8,0.2,0.3,0.4,-0.3,-0.0,-0.4,0.2,-0.5,,*63
$GPGRS,084502.00,1,-0.9,-3.0,7.6,4.4,-3.4,-2.6,,,,,,*4D
$GPGRS,084502.00,1,-0.1,0.1,0.8,0.3,-0.4,0.2,0.1,,,,,*67
$GPGRS,084502.00,1,0.9,1.6,3.8,0.6,1.5,-0.5,1.5,0.1,-1.0,-1.5,-0.5,-1.8*66
$GPGRS,084502.00,1,0.1,,,,,,,,,,,*6A
$GPGSV,6,1,22,13,82,310,48,20,12,198,39,24,11,267,38,23,12,327,40*7D
$GPGSV,6,2,22,05,36,224,46,17,14,128,40,30,41,074,46,15,46,301,47*77
$GPGSV,6,3,22,22,64,151,,14,66,096,48,07,08,077,39,08,05,025,36*77
$GPGSV,6,4,22,18,02,296,36,36,35,170,44,58,13,245,36,40,23,133,35*76
$GPGSV,6,5,22,34,31,208,42,49,34,195,44,57,07,112,37,41,07,108,35*7A
$GPGSV,6,6,22,61,03,257,38*46
$GLGSV,3,1,09,65,77,184,49,74,17,043,40,72,20,150,44,66,45,321,50*6C
$GLGSV,3,2,09,76,44,229,51,75,71,031,51,82,01,324,41,83,09,001,34*6C
$GLGSV,3,3,09,84,02,059,*5E
$GAGSV,3,1,09,03,76,129,48,24,25,046,41,05,22,125,41,02,39,192,46*67
$GAGSV,3,2,09,16,49,061,,08,49,303,46,25,66,100,48,13,04,279,35*6C
$GAGSV,3,3,09,26,07,327,37*50
$GBGSV,5,1,18,45,73,063,50,22,18,159,42,05,20,130,38,36,22,058,43*60
$GBGSV,5,2,18,14,22,316,40,40,28,056,43,56,23,088,,07,28,065,41*63
$GBGSV,5,3,18,24,43,221,,42,46,301,48,10,32,079,41,26,47,237,48*68
$GBGSV,5,4,18,21,63,200,52,50,65,262,,02,04,109,33,09,07,079,36*6B
$GBGSV,5,5,18,30,00,014,,60,07,112,41*62
$GPGGA,084502.00,,,,,0,00,,,M,,M,,*43
$PTNL,GGK,084502.00,010125,4742.1599283,N,01618.1003625,E,1,36,0.7,EHT752.0823,M*4F
$GPGGQ,084502.00,010125,4742.1599283,N,01618.1003625,E,1,36,0.854,708.8757,M*34
$GPGFA,084502.00,4.177,5.366,0.439,0.329,6.710,0.654,,VVV*0A
$GPLLK,084502.00,010125,,M,,M,1,36,0.8,,M*0D
$GNGMP,084502.00,,,,,DAAA,36,0.4,,,,*5C
$GPGMP,084502.00,,,,,,10,,,,1.7,136*75
$GLGMP,084502.00,,,,,,06,,,,,*72
$GAGMP,084502.00,,,,,,07,,,,,*7E
$GBGMP,084502.00,,,,,,13,,,,,*78
$PSSN,SNC,[0,290720000,2347]*4A
$GPZDA,084507.00,01,01,2025,,*6D
$GPDTM,W84,,00.0000000,N,00.0000000,E,00.0000000,W84*5F
$PSSN,TFM,084507.00,,,,*61
$GPRMC,084507.00,A,4742.1599279,N,01618.1003624,E,0.0,,010125,5.1,E,D*12
$GPGLL,4742.1599279,N,01618.1003624,E,084507.00,A,D*63
$GPGGA,084507.00,4742.1599279,N,01618.1003624,E,2,37,0.4,708.8716,M,43.2066,M,2.7,0136*4D
$GNGNS,084507.00,4742.1599279,N,01618.1003624,E,DAAA,37,0.4,708.8716,43.2066,,*50
$GPGNS,084507.00,,,,,,10,,,,2.7,136*73
$GLGNS,084507.00,,,,,,07,,,,,*76
$GAGNS,084507.00,,,,,,07,,,,,*7B
$GBGNS,084507.00,,,,,,13,,,,,*7D
$GPLLQ,084507.00,010125,,M,,M,1,37,0.849,,M*1E
$GPVTG,,T,,M,0.00,N,0.00,K,D*26
$GPHDT,,T*1B
$GPTHS,,V*0E
$GPROT,,V*08
$PSSN,HRP,084507.00,010125,,,,,,,00,0,,*6F
$PTNL,AVR,084507.00,,Yaw,,Tilt,,,,0,,00*39
$GPGSA,A,3,05,07,13,14,15,17,20,23,24,30,,,0.7,0.4,0.6*36
$GPGSA,A,3,65,66,72,74,75,76,83,,,,,,0.7,0.4,0.6*3A
$GPGSA,A,3,02,03,05,08,24,25,26,,,,,,0.7,0.4,0.6*3E
$GPGSA,A,3,05,07,09,10,14,21,22,26,36,40,42,45,0.7,0.4,0.6*39
$GPGSA,A,3,60,,,,,,,,,,,,0.7,0.4,0.6*31
$GPGST,084507.00,2.150,0.438,0.331,5.871,0.437,0.332,0.648*52
$GPGBS,084507.00,2.763,2.039,3.961,72,0.0001,6.741,6.278*5F
$GPGRS,084507.00,1,-0.1,0.8,0.0,0.1,0.1,0.3,-0.6,-0.4,0.6,-0.4,,*4A
$GPGRS,084507.00,1,-0.7,-3.2,6.7,5.1,-3.3,-2.3,-1.9,,,,,*49
$GPGRS,084507.00,1,-0.0,0.3,0.9,0.1,-0.5,0.2,0.1,,,,,*63
$GPGRS,084507.00,1,1.4,1.8,4.0,0.7,1.8,-0.6,1.2,0.5,-0.7,-1.6,-0.4,-1.6*68
$GPGRS,084507.00,1,-0.2,,,,,,,,,,,*41
$GPGSV,6,1,22,13,82,310,48,20,12,198,39,24,11,267,38,23,12,327,40*7D
$GPGSV,6,2,22,05,36,223,45,17,14,128,41,30,41,074,46,15,46,301,47*72
$GPGSV,6,3,22,22,64,151,,14,66,096,47,07,08,077,39,08,05,025,35*7B
$GPGSV,6,4,22,18,02,296,35,36,35,170,44,58,13,245,36,40,23,133,35*75
$GPGSV,6,5,22,34,31,208,42,49,34,195,44,57,07,112,37,41,07,108,35*7A
$GPGSV,6,6,22,61,03,257,38*46
$GLGSV,3,1,09,65,76,184,49,74,17,043,40,72,20,150,44,66,45,321,51*6C
$GLGSV,3,2,09,76,44,229,51,75,71,031,52,82,01,324,42,83,09,001,35*6D
$GLGSV,3,3,09,84,02,059,*5E
$GAGSV,3,1,09,03,75,129,48,24,25,046,41,05,22,125,41,02,39,192,46*64
$GAGSV,3,2,09,16,49,061,,08,49,303,46,25,66,100,48,13,04,279,36*6F
$GAGSV,3,3,09,26,07,327,37*50
$GBGSV,5,1,18,45,73,062,50,22,18,159,43,05,20,130,38,36,22,058,42*61
$GBGSV,5,2,18,14,22,316,41,40,28,056,43,56,23,088,,07,28,065,41*62
$GBGSV,5,3,18,24,43,221,,42,47,301,48,10,33,079,41,26,47,237,49*69
$GBGSV,5,4,18,21,63,200,52,50,65,262,,02,04,109,33,09,07,079,36*6B
$GBGSV,5,5,18,30,00,014,,60,07,112,41*62
$GPGGA,084507.00,,,,,0,00,,,M,,M,,*46
$PTNL,GGK,084507.00,010125,4742.1599279,N,01618.1003624,E,1,37,0.7,EHT752.0781,M*48
$GPGGQ,084507.00,010125,4742.1599279,N,01618.1003624,E,1,37,0.849,708.8716,M*3D
$GPGFA,084507.00,4.168,5.313,0.438,0.331,5.871,0.648,,VVV*0D
$GPLLK,084507.00,010125,,M,,M,1,37,0.8,,M*09
$GNGMP,084507.00,,,,,DAAA,37,0.4,,,,*58
$GPGMP,084507.00,,,,,,10,,,,2.7,136*73
$GLGMP,084507.00,,,,,,07,,,,,*76
$GAGMP,084507.00,,,,,,07,,,,,*7B
$GBGMP,084507.00,,,,,,13,,,,,*7D
$PSSN,SNC,[0,290725000,2347]*4F
$GPZDA,084512.00,01,01,2025,,*69
$GPDTM,W84,,00.0000000,N,00.0000000,E,00.0000000,W84*5F
$PSSN,TFM,084512.00,,,,*65
$GPRMC,084512.00,A,4742.1599289,N,01618.1003645,E,0.0,,010125,5.1,E,D*1E
$GPGLL,4742.1599289,N,01618.1003645,E,084512.00,A,D*6F
$GPGGA,084512.00,4742.1599289,N,01618.1003645,E,2,36,0.4,708.8760,M,43.2066,M,3.3,0136*44
$GNGNS,084512.00,4742.1599289,N,01618.1003645,E,DAAA,36,0.4,708.8760,43.2066,,*5C
$GPGNS,084512.00,,,,,,10,,,,3.3,136*72
$GLGNS,084512.00,,,,,,06,,,,,*73
$GAGNS,084512.00,,,,,,07,,,,,*7F
$GBGNS,084512.00,,,,,,13,,,,,*79
$GPLLQ,084512.00,010125,,M,,M,1,36,0.861,,M*11
$GPVTG,,T,,M,0.00,N,0.00,K,D*26
$GPHDT,,T*1B
$GPTHS,,V*0E
$GPROT,,V*08
$PSSN,HRP,084512.00,010125,,,,,,,00,0,,*6B
$PTNL,AVR,084512.00,,Yaw,,Tilt,,,,0,,00*3D
$GPGSA,A,3,05,07,13,14,15,17,20,23,24,30,,,0.7,0.4,0.6*36
$GPGSA,A,3,65,66,72,74,75,76,,,,,,,0.7,0.4,0.6*31
$GPGSA,A,3,02,03,05,08,24,25,26,,,,,,0.7,0.4,0.6*3E
$GPGSA,A,3,05,07,09,10,14,21,22,26,36,40,42,45,0.7,0.4,0.6*39
$GPGSA,A,3,60,,,,,,,,,,,,0.7,0.4,0.6*31
$GPGST,084512.00,2.201,0.445,0.334,5.107,0.444,0.335,0.658*54
$GPGBS,084512.00,2.834,2.090,4.053,24,0.0001,1.312,1.121*54
$GPGRS,084512.00,1,-0.2,0.5,0.0,0.2,-0.0,-0.1,-0.3,-0.4,1.3,-0.5,,*40
$GPGRS,084512.00,1,-1.1,-3.0,7.2,5.1,-3.2,-2.3,,,,,,*46
$GPGRS,084512.00,1,-0.3,0.3,0.8,0.1,-0.1,0.3,-0.0,,,,,*4C
$GPGRS,084512.00,1,1.6,1.3,4.1,0.3,1.9,-0.3,1.4,0.2,-1.0,-1.8,-0.2,-1.7*6A
$GPGRS,084512.00,1,-0.0,,,,,,,,,,,*47
$GPGSV,6,1,22,13,83,310,48,20,12,198,38,24,11,267,38,23,12,327,40*7D
$GPGSV,6,2,22,05,36,223,46,17,14,128,41,30,41,074,46,15,46,301,47*71
$GPGSV,6,3,22,22,64,151,,14,66,095,48,07,08,077,39,08,05,025,35*77
$GPGSV,6,4,22,18,02,296,36,36,35,170,44,58,13,245,36,40,23,133,35*76
$GPGSV,6,5,22,34,31,208,42,49,34,195,44,57,07,112,37,41,07,108,35*7A
$GPGSV,6,6,22,61,03,257,38*46
$GLGSV,3,1,09,65,76,184,49,74,17,043,40,72,20,151,44,66,45,321,51*6D
$GLGSV,3,2,09,76,44,229,51,75,70,031,52,82,01,324,42,83,09,001,34*6D
$GLGSV,3,3,09,84,02,059,*5E
$GAGSV,3,1,09,03,75,129,48,24,25,046,41,05,22,125,41,02,39,192,46*64
$GAGSV,3,2,09,16,49,061,,08,49,303,46,25,66,100,48,13,04,279,35*6C
$GAGSV,3,3,09,26,07,327,37*50
$GBGSV,5,1,18,45,73,062,51,22,18,159,44,05,20,130,38,36,22,058,42*67
$GBGSV,5,2,18,14,22,316,40,40,28,056,44,56,23,088,,07,28,065,41*64
$GBGSV,5,3,18,24,43,222,,42,47,301,48,10,33,079,41,26,47,237,49*6A
$GBGSV,5,4,18,21,63,200,52,50,65,262,,02,04,109,33,09,07,079,36*6B
$GBGSV,5,5,18,30,00,014,,60,07,112,41*62
$GPGGA,084512.00,,,,,0,00,,,M,,M,,*42
$PTNL,GGK,084512.00,010125,4742.1599289,N,01618.1003645,E,1,36,0.7,EHT752.0826,M*47
$GPGGQ,084512.00,010125,4742.1599289,N,01618.1003645,E,1,36,0.861,708.8760,M*3B
$GPGFA,084512.00,4.227,5.398,0.445,0.334,5.107,0.658,,VVV*04
$GPLLK,084512.00,010125,,M,,M,1,36,0.8,,M*0C
$GNGMP,084512.00,,,,,DAAA,36,0.4,,,,*5D
$GPGMP,084512.00,,,,,,10,,,,3.3,136*72
$GLGMP,084512.00,,,,,,06,,,,,*73
$GAGMP,084512.00,,,,,,07,,,,,*7F
$GBGMP,084512.00,,,,,,13,,,,,*79
$PSSN,SNC,[0,290730000,2347]*4B
$GPZDA,084517.00,01,01,2025,,*6C
$GPDTM,W84,,00.0000000,N,00.0000000,E,00.0000000,W84*5F
$PSSN,TFM,084517.00,,,,*60
$GPRMC,084517.00,A,4742.1599283,N,01618.1003655,E,0.0,,010125,5.1,E,D*10
$GPGLL,4742.1599283,N,01618.1003655,E,084517.00,A,D*61
$GPGGA,084517.00,4742.1599283,N,01618.1003655,E,2,36,0.4,708.8770,M,43.2066,M,2.3,0136*4A
$GNGNS,084517.00,4742.1599283,N,01618.1003655,E,DAAA,36,0.4,708.8770,43.2066,,*53
$GPGNS,084517.00,,,,,,10,,,,2.3,136*76
$GLGNS,084517.00,,,,,,06,,,,,*76
$GAGNS,084517.00,,,,,,07,,,,,*7A
$GBGNS,084517.00,,,,,,13,,,,,*7C
$GPLLQ,084517.00,010125,,M,,M,1,36,0.864,,M*11
$GPVTG,,T,,M,0.00,N,0.01,K,D*27
$GPHDT,,T*1B
$GPTHS,,V*0E
$GPROT,,V*08
$PSSN,HRP,084517.00,010125,,,,,,,00,0,,*6E
$PTNL,AVR,084517.00,,Yaw,,Tilt,,,,0,,00*38
$GPGSA,A,3,05,07,13,14,15,17,20,23,24,30,,,0.7,0.4,0.6*36
$GPGSA,A,3,65,66,72,74,75,76,,,,,,,0.7,0.4,0.6*31
$GPGSA,A,3,02,03,05,08,24,25,26,,,,,,0.7,0.4,0.6*3E
$GPGSA,A,3,05,07,09,10,14,21,22,26,36,40,42,45,0.7,0.4,0.6*39
$GPGSA,A,3,60,,,,,,,,,,,,0.7,0.4,0.6*31
$GPGST,084517.00,2.103,0.445,0.332,5.534,0.444,0.333,0.663*5C
$GPGBS,084517.00,2.795,2.088,4.005,72,0.0001,7.134,6.279*55
$GPGRS,084517.00,1,-0.5,0.5,0.3,0.2,-0.2,-0.2,0.3,-0.4,0.9,-0.4,,*67
$GPGRS,084517.00,1,-1.5,-2.6,7.1,4.1,-3.4,-2.6,,,,,,*41
$GPGRS,084517.00,1,-0.4,0.0,0.7,0.0,-0.2,0.3,0.3,,,,,*6E
$GPGRS,084517.00,1,1.5,1.0,3.8,0.1,0.8,-0.4,1.8,-0.4,-1.2,-2.0,-0.5,-1.6*4C
$GPGRS,084517.00,1,0.2,,,,,,,,,,,*6D
$GPGSV,6,1,22,13,83,310,48,20,12,198,38,24,11,267,39,23,12,327,40*7C
$GPGSV,6,2,22,05,36,223,45,17,14,128,41,30,41,074,46,15,46,301,47*72
$GPGSV,6,3,22,22,64,151,,14,66,095,48,07,08,078,39,08,05,025,36*7B
$GPGSV,6,4,22,18,02,296,35,36,35,170,44,58,13,245,36,40,23,133,35*75
$GPGSV,6,5,22,34,31,208,42,49,34,195,44,57,07,112,37,41,07,108,35*7A
$GPGSV,6,6,22,61,03,257,38*46
$GLGSV,3,1,09,65,76,184,49,74,17,043,40,72,20,151,43,66,45,321,50*6B
$GLGSV,3,2,09,76,44,229,51,75,70,031,52,82,01,324,43,83,09,001,34*6C
$GLGSV,3,3,09,84,02,059,*5E
$GAGSV,3,1,09,03,75,129,48,24,25,046,41,05,22,125,41,02,39,192,45*67
$GAGSV,3,2,09,16,48,061,,08,49,303,46,25,66,100,48,13,04,279,35*6D
$GAGSV,3,3,09,26,07,327,37*50
$GBGSV,5,1,18,45,73,062,51,22,18,159,44,05,20,130,38,36,22,058,42*67
$GBGSV,5,2,18,14,22,316,40,40,28,056,44,56,23,088,,07,28,065,41*64
$GBGSV,5,3,18,24,43,222,,42,47,301,48,10,33,079,41,26,47,237,48*6B
$GBGSV,5,4,18,21,62,200,52,50,65,262,,02,04,109,33,09,07,079,36*6A
$GBGSV,5,5,18,30,00,014,,60,07,112,41*62
$GPGGA,084517.00,,,,,0,00,,,M,,M,,*47
$PTNL,GGK,084517.00,010125,4742.1599283,N,01618.1003655,E,1,36,0.7,EHT752.0836,M*48
$GPGGQ,084517.00,010125,4742.1599283,N,01618.1003655,E,1,36,0.864,708.8770,M*31
$GPGFA,084517.00,4.226,5.435,0.445,0.332,5.534,0.663,,VVV*0A
$GPLLK,084517.00,010125,,M,,M,1,36,0.8,,M*09
$GNGMP,084517.00,,,,,DAAA,36,0.4,,,,*58
$GPGMP,084517.00,,,,,,10,,,,2.3,136*76
$GLGMP,084517.00,,,,,,06,,,,,*76
$GAGMP,084517.00,,,,,,07,,,,,*7A
$GBGMP,084517.00,,,,,,13,,,,,*7C
$PSSN,SNC,[0,290735000,2347]*4E
$GPZDA,084522.00,01,01,2025,,*6A
$GPDTM,W84,,00.0000000,N,00.0000000,E,00.0000000,W84*5F
$PSSN,TFM,084522.00,,,,*66
$GPRMC,084522.00,A,4742.1599303,N,01618.1003653,E,0.0,,010125,5.1,E,D*19
$GPGLL,4742.1599303,N,01618.1003653,E,084522.00,A,D*68
$GPGGA,084522.00,4742.1599303,N,01618.1003653,E,2,36,0.4,708.8768,M,43.2066,M,1.7,0136*4D
$GNGNS,084522.00,4742.1599303,N,01618.1003653,E,DAAA,36,0.4,708.8768,43.2066,,*53
$GPGNS,084522.00,,,,,,10,,,,1.7,136*77
$GLGNS,084522.00,,,,,,06,,,,,*70
$GAGNS,084522.00,,,,,,07,,,,,*7C
$GBGNS,084522.00,,,,,,13,,,,,*7A
$GPLLQ,084522.00,010125,,M,,M,1,36,0.854,,M*14
$GPVTG,,T,,M,0.00,N,0.00,K,D*26
$GPHDT,,T*1B
$GPTHS,,V*0E
$GPROT,,V*08
$PSSN,HRP,084522.00,010125,,,,,,,00,0,,*68
$PTNL,AVR,084522.00,,Yaw,,Tilt,,,,0,,00*3E
$GPGSA,A,3,05,07,13,14,15,17,20,23,24,30,,,0.7,0.4,0.6*36
$GPGSA,A,3,65,66,72,74,75,76,,,,,,,0.7,0.4,0.6*31
$GPGSA,A,3,02,03,05,08,24,25,26,,,,,,0.7,0.4,0.6*3E
$GPGSA,A,3,05,07,09,10,14,21,22,26,36,40,42,45,0.7,0.4,0.6*39
$GPGSA,A,3,60,,,,,,,,,,,,0.7,0.4,0.6*31
$GPGST,084522.00,2.044,0.440,0.329,6.697,0.439,0.330,0.655*52
$GPGBS,084522.00,2.780,2.026,3.955,72,0.0001,5.875,6.281*51
$GPGRS,084522.00,1,-0.4,0.7,0.1,0.3,-0.0,-0.2,0.6,-0.6,0.6,-0.6,,*69
$GPGRS,084522.00,1,-1.4,-2.9,5.9,4.8,-3.4,-2.8,,,,,,*44
$GPGRS,084522.00,1,-0.1,0.1,0.8,0.0,-0.3,0.1,0.3,,,,,*60
$GPGRS,084522.00,1,1.3,0.7,3.5,0.6,2.0,-0.5,1.6,-0.4,-1.4,-2.0,-0.2,-1.5*47
$GPGRS,084522.00,1,0.0,,,,,,,,,,,*69
$GPGSV,6,1,22,13,83,310,49,20,12,198,39,24,11,267,39,23,12,327,40*7C
$GPGSV,6,2,22,05,36,223,46,17,14,128,41,30,41,074,46,15,46,301,47*71
$GPGSV,6,3,22,22,64,151,,14,66,095,48,07,08,078,38,08,05,025,35*79
$GPGSV,6,4,22,18,02,296,35,36,35,170,44,58,13,245,36,40,23,133,35*75
$GPGSV,6,5,22,34,31,208,42,49,34,195,44,57,07,112,37,41,07,108,35*7A
$GPGSV,6,6,22,61,03,257,38*46
$GLGSV,3,1,09,65,76,184,49,74,17,043,40,72,20,151,42,66,45,321,51*6B
$GLGSV,3,2,09,76,44,229,51,75,70,031,52,82,01,323,43,83,09,001,34*6B
$GLGSV,3,3,09,84,02,059,*5E
$GAGSV,3,1,09,03,75,129,48,24,25,046,41,05,22,125,41,02,39,192,45*67
$GAGSV,3,2,09,16,48,061,,08,49,303,46,25,66,100,48,13,04,279,35*6D
$GAGSV,3,3,09,26,07,327,37*50
$GBGSV,5,1,18,45,72,062,51,22,18,159,44,05,20,130,38,36,21,058,42*65
$GBGSV,5,2,18,14,22,316,41,40,28,056,44,56,23,088,,07,28,065,41*65
$GBGSV,5,3,18,24,43,222,,42,47,301,48,10,33,079,41,26,47,237,48*6B
$GBGSV,5,4,18,21,62,200,52,50,65,261,,02,04,109,33,09,07,079,36*69
$GBGSV,5,5,18,30,00,014,,60,07,112,41*62
$GPGGA,084522.00,,,,,0,00,,,M,,M,,*41
$PTNL,GGK,084522.00,010125,4742.1599303,N,01618.1003653,E,1,36,0.7,EHT752.0834,M*43
$GPGGQ,084522.00,010125,4742.1599303,N,01618.1003653,E,1,36,0.854,708.8768,M*32
$GPGFA,084522.00,4.183,5.367,0.440,0.329,6.697,0.655,,VVV*03
$GPLLK,084522.00,010125,,M,,M,1,36,0.8,,M*0F
$GNGMP,084522.00,,,,,DAAA,36,0.4,,,,*5E
$GPGMP,084522.00,,,,,,10,,,,1.7,136*77
$GLGMP,084522.00,,,,,,06,,,,,*70
$GAGMP,084522.00,,,,,,07,,,,,*7C
$GBGMP,084522.00,,,,,,13,,,,,*7A
$PSSN,SNC,[0,290740000,2347]*4C
$GPZDA,084527.00,01,01,2025,,*6F
$GPDTM,W84,,00.0000000,N,00.0000000,E,00.0000000,W84*5F
$PSSN,TFM,084527.00,,,,*63
$GPRMC,084527.00,A,4742.1599313,N,01618.1003680,E,0.0,,010125,5.1,E,D*13
$GPGLL,4742.1599313,N,01618.1003680,E,084527.00,A,D*62
$GPGGA,084527.00,4742.1599313,N,01618.1003680,E,2,36,0.4,708.8760,M,43.2066,M,2.7,0136*4C
$GNGNS,084527.00,4742.1599313,N,01618.1003680,E,DAAA,36,0.4,708.8760,43.2066,,*51
$GPGNS,084527.00,,,,,,10,,,,2.7,136*71
$GLGNS,084527.00,,,,,,06,,,,,*75
$GAGNS,084527.00,,,,,,07,,,,,*79
$GBGNS,084527.00,,,,,,13,,,,,*7F
$GPLLQ,084527.00,010125,,M,,M,1,36,0.851,,M*14
$GPVTG,,T,,M,0.00,N,0.00,K,D*26
$GPHDT,,T*1B
$GPTHS,,V*0E
$GPROT,,V*08
$PSSN,HRP,084527.00,010125,,,,,,,00,0,,*6D
$PTNL,AVR,084527.00,,Yaw,,Tilt,,,,0,,00*3B
$GPGSA,A,3,05,07,13,14,15,17,20,23,24,30,,,0.7,0.4,0.6*36
$GPGSA,A,3,65,66,72,74,75,76,,,,,,,0.7,0.4,0.6*31
$GPGSA,A,3,02,03,05,08,24,25,26,,,,,,0.7,0.4,0.6*3E
$GPGSA,A,3,05,07,09,10,14,21,22,26,36,40,42,45,0.7,0.4,0.6*39
$GPGSA,A,3,60,,,,,,,,,,,,0.7,0.4,0.6*31
$GPGST,084527.00,2.058,0.440,0.331,5.901,0.439,0.332,0.649*5F
$GPGBS,084527.00,2.821,2.041,3.996,72,0.0001,5.969,6.281*52
$GPGRS,084527.00,1,0.0,0.6,-0.1,0.3,0.2,-0.4,0.6,-0.6,0.3,-0.7,,*44
$GPGRS,084527.00,1,-1.1,-3.1,6.0,5.1,-3.4,-2.8,,,,,,*4F
$GPGRS,084527.00,1,-0.0,-0.0,0.7,-0.3,-0.4,0.2,0.3,,,,,*6D
$GPGRS,084527.00,1,1.3,0.8,3.4,0.7,1.4,-0.4,1.6,0.2,-1.1,-2.0,-0.6,-1.6*62
$GPGRS,084527.00,1,0.1,,,,,,,,,,,*6D
$GPGSV,6,1,22,13,83,310,48,20,12,198,38,24,11,267,39,23,12,327,40*7C
$GPGSV,6,2,22,05,36,223,45,17,14,128,40,30,41,074,46,15,46,301,47*73
$GPGSV,6,3,22,22,64,150,,14,66,095,48,07,08,078,38,08,05,025,36*7B
$GPGSV,6,4,22,18,02,296,35,36,35,170,44,58,13,245,36,40,23,133,35*75
$GPGSV,6,5,22,34,31,208,42,49,34,195,44,57,07,112,37,41,07,108,35*7A
$GPGSV,6,6,22,61,03,257,38*46
$GLGSV,3,1,09,65,76,184,49,74,17,043,41,72,20,151,43,66,45,321,51*6B
$GLGSV,3,2,09,76,44,229,51,75,70,031,52,82,01,323,42,83,09,001,34*6A
$GLGSV,3,3,09,84,02,059,*5E
$GAGSV,3,1,09,03,75,129,48,24,25,046,41,05,22,125,41,02,39,192,45*67
$GAGSV,3,2,09,16,48,061,,08,49,303,46,25,66,100,48,13,04,279,35*6D
$GAGSV,3,3,09,26,07,327,37*50
$GBGSV,5,1,18,45,72,062,51,22,18,159,44,05,20,130,38,36,21,058,43*64
$GBGSV,5,2,18,14,22,316,40,40,28,056,44,56,23,088,,07,28,065,41*64
$GBGSV,5,3,18,24,43,222,,42,47,301,48,10,33,079,41,26,47,237,48*6B
$GBGSV,5,4,18,21,62,200,51,50,65,261,,02,04,109,33,09,07,079,36*6A
$GBGSV,5,5,18,30,00,014,,60,07,112,41*62
$GPGGA,084527.00,,,,,0,00,,,M,,M,,*44
$PTNL,GGK,084527.00,010125,4742.1599313,N,01618.1003680,E,1,36,0.7,EHT752.0826,M*4A
$GPGGQ,084527.00,010125,4742.1599313,N,01618.1003680,E,1,36,0.851,708.8760,M*35
$GPGFA,084527.00,4.185,5.324,0.440,0.331,5.901,0.649,,VVV*00
$GPLLK,084527.00,010125,,M,,M,1,36,0.8,,M*0A
$GNGMP,084527.00,,,,,DAAA,36,0.4,,,,*5B
$GPGMP,084527.00,,,,,,10,,,,2.7,136*71
$GLGMP,084527.00,,,,,,06,,,,,*75
$GAGMP,084527.00,,,,,,07,,,,,*79
$GBGMP,084527.00,,,,,,13,,,,,*7F
$PSSN,SNC,[0,290745000,2347]*49
$GPZDA,084532.00,01,01,2025,,*6B
$GPDTM,W84,,00.0000000,N,00.0000000,E,00.0000000,W84*5F
$PSSN,TFM,084532.00,,,,*67
$GPRMC,084532.00,A,4742.1599325,N,01618.1003678,E,0.0,,010125,5.1,E,D*15
$GPGLL,4742.1599325,N,01618.1003678,E,084532.00,A,D*64
$GPGGA,084532.00,4742.1599325,N,01618.1003678,E,2,36,0.4,708.8751,M,43.2066,M,3.3,0136*4D
$GNGNS,084532.00,4742.1599325,N,01618.1003678,E,DAAA,36,0.4,708.8751,43.2066,,*55
$GPGNS,084532.00,,,,,,10,,,,3.3,136*70
$GLGNS,084532.00,,,,,,06,,,,,*71
$GAGNS,084532.00,,,,,,07,,,,,*7D
$GBGNS,084532.00,,,,,,13,,,,,*7B
$GPLLQ,084532.00,010125,,M,,M,1,36,0.862,,M*10
$GPVTG,,T,,M,0.00,N,0.01,K,D*27
$GPHDT,,T*1B
$GPTHS,,V*0E
$GPROT,,V*08
$PSSN,HRP,084532.00,010125,,,,,,,00,0,,*69
$PTNL,AVR,084532.00,,Yaw,,Tilt,,,,0,,00*3F
$GPGSA,A,3,05,07,13,14,15,17,20,23,24,30,,,0.7,0.4,0.6*36
$GPGSA,A,3,65,66,72,74,75,76,,,,,,,0.7,0.4,0.6*31
$GPGSA,A,3,02,03,05,08,24,25,26,,,,,,0.7,0.4,0.6*3E
$GPGSA,A,3,05,07,09,10,14,21,22,26,36,40,42,45,0.7,0.4,0.6*39
$GPGSA,A,3,60,,,,,,,,,,,,0.7,0.4,0.6*31
$GPGST,084532.00,2.141,0.445,0.333,5.100,0.444,0.334,0.659*51
$GPGBS,084532.00,2.842,2.090,4.060,72,0.0001,6.371,6.281*58
$GPGRS,084532.00,1,-0.0,0.8,0.0,0.2,-0.1,-0.1,-0.0,-0.2,0.1,-0.4,,*4B
$GPGRS,084532.00,1,-1.3,-3.2,6.4,5.6,-3.2,-2.6,,,,,,*41
$GPGRS,084532.00,1,-0.0,0.2,0.7,-0.0,-0.4,0.2,0.3,,,,,*45
$GPGRS,084532.00,1,1.3,1.1,4.0,0.6,1.0,-0.5,1.8,0.1,-0.8,-2.0,-0.3,-1.6*69
$GPGRS,084532.00,1,-0.2,,,,,,,,,,,*47
$GPGSV,6,1,22,13,83,310,49,20,12,198,38,24,11,267,38,23,12,327,40*7C
$GPGSV,6,2,22,05,36,223,46,17,14,128,40,30,41,074,46,15,46,301,48*7F
$GPGSV,6,3,22,22,64,150,,14,66,095,48,07,08,078,38,08,05,025,35*78
$GPGSV,6,4,22,18,02,296,36,36,35,170,44,58,13,245,35,40,23,133,35*75
$GPGSV,6,5,22,34,31,208,42,49,34,195,44,57,07,112,37,41,07,108,34*7B
$GPGSV,6,6,22,61,03,257,37*49
$GLGSV,3,1,09,65,76,184,49,74,17,043,40,72,19,151,42,66,45,321,50*60
$GLGSV,3,2,09,76,44,230,51,75,70,031,52,82,01,323,42,83,09,001,34*62
$GLGSV,3,3,09,84,02,059,*5E
$GAGSV,3,1,09,03,75,129,48,24,24,046,41,05,22,125,40,02,39,192,45*67
$GAGSV,3,2,09,16,48,061,,08,49,303,46,25,66,099,48,13,04,279,35*6C
$GAGSV,3,3,09,26,07,327,36*51
$GBGSV,5,1,18,45,72,062,50,22,18,159,43,05,20,130,38,36,21,058,43*62
$GBGSV,5,2,18,14,22,316,40,40,28,056,43,56,23,088,,07,28,065,41*63
$GBGSV,5,3,18,24,43,222,,42,47,301,48,10,33,079,41,26,47,237,48*6B
$GBGSV,5,4,18,21,62,200,51,50,65,261,,02,04,109,33,09,07,079,36*6A
$GBGSV,5,5,18,30,00,014,,60,07,112,40*63
$GPGGA,084532.00,,,,,0,00,,,M,,M,,*40
$PTNL,GGK,084532.00,010125,4742.1599325,N,01618.1003678,E,1,36,0.7,EHT752.0816,M*4F
$GPGGQ,084532.00,010125,4742.1599325,N,01618.1003678,E,1,36,0.862,708.8751,M*31
$GPGFA,084532.00,4.233,5.400,0.445,0.333,5.100,0.659,,VVV*04
$GPLLK,084532.00,010125,,M,,M,1,36,0.8,,M*0E
$GNGMP,084532.00,,,,,DAAA,36,0.4,,,,*5F
$GPGMP,084532.00,,,,,,10,,,,3.3,136*70
$GLGMP,084532.00,,,,,,06,,,,,*71
$GAGMP,084532.00,,,,,,07,,,,,*7D
$GBGMP,084532.00,,,,,,13,,,,,*7B
$PSSN,SNC,[0,290750000,2347]*4D
$GPZDA,084537.00,01,01,2025,,*6E
$GPDTM,W84,,00.0000000,N,00.0000000,E,00.0000000,W84*5F
$PSSN,TFM,084537.00,,,,*62
$GPRMC,084537.00,A,4742.1599358,N,01618.1003676,E,0.0,,010125,5.1,E,D*14
$GPGLL,4742.1599358,N,01618.1003676,E,084537.00,A,D*65
$GPGGA,084537.00,4742.1599358,N,01618.1003676,E,2,36,0.4,708.8782,M,43.2066,M,2.3,0136*43
$GNGNS,084537.00,4742.1599358,N,01618.1003676,E,DAAA,36,0.4,708.8782,43.2066,,*5A
$GPGNS,084537.00,,,,,,10,,,,2.3,136*74
$GLGNS,084537.00,,,,,,06,,,,,*74
$GAGNS,084537.00,,,,,,07,,,,,*78
$GBGNS,084537.00,,,,,,13,,,,,*7E
$GPLLQ,084537.00,010125,,M,,M,1,36,0.865,,M*12
$GPVTG,,T,,M,0.00,N,0.00,K,D*26
$GPHDT,,T*1B
$GPTHS,,V*0E
$GPROT,,V*08
$PSSN,HRP,084537.00,010125,,,,,,,00,0,,*6C
$PTNL,AVR,084537.00,,Yaw,,Tilt,,,,0,,00*3A
$GPGSA,A,3,05,07,13,14,15,17,20,23,24,30,,,0.7,0.4,0.6*36
$GPGSA,A,3,65,66,72,74,75,76,,,,,,,0.7,0.4,0.6*31
$GPGSA,A,3,02,03,05,08,24,25,26,,,,,,0.7,0.4,0.6*3E
$GPGSA,A,3,05,07,09,10,14,21,22,26,36,40,42,45,0.7,0.4,0.6*39
$GPGSA,A,3,60,,,,,,,,,,,,0.7,0.4,0.6*31
$GPGST,084537.00,2.058,0.445,0.331,5.511,0.444,0.333,0.663*55
$GPGBS,084537.00,2.803,2.087,4.012,72,0.0001,6.169,6.282*53
$GPGRS,084537.00,1,-0.1,1.0,0.3,0.1,-0.0,0.0,0.1,-0.6,0.2,-0.3,,*47
$GPGRS,084537.00,1,-1.0,-3.0,6.2,4.6,-3.3,-2.5,,,,,,*40
$GPGRS,084537.00,1,-0.1,0.2,0.4,0.0,-0.4,0.2,0.3,,,,,*6F
$GPGRS,084537.00,1,1.8,1.1,4.1,0.4,1.6,-0.4,1.9,0.3,-0.8,-2.0,-0.3,-1.7*61
$GPGRS,084537.00,1,-0.1,,,,,,,,,,,*41
$GPGSV,6,1,22,13,83,310,48,20,12,198,38,24,11,267,38,23,12,327,39*73
$GPGSV,6,2,22,05,36,223,46,17,14,128,40,30,41,074,46,15,46,301,48*7F
$GPGSV,6,3,22,22,64,150,,14,66,095,48,07,08,078,38,08,05,025,36*7B
$GPGSV,6,4,22,18,02,296,36,36,35,170,44,58,13,245,36,40,23,133,35*76
$GPGSV,6,5,22,34,31,208,42,49,34,195,44,57,07,112,37,41,07,108,34*7B
$GPGSV,6,6,22,61,03,257,37*49
$GLGSV,3,1,09,65,76,184,49,74,17,043,40,72,19,151,42,66,45,321,51*61
$GLGSV,3,2,09,76,44,230,51,75,70,031,52,82,01,323,41,83,09,001,34*61
$GLGSV,3,3,09,84,02,059,*5E
$GAGSV,3,1,09,03,75,129,48,24,24,046,41,05,22,125,39,02,39,192,45*69
$GAGSV,3,2,09,16,48,061,,08,49,303,46,25,66,099,48,13,04,279,35*6C
$GAGSV,3,3,09,26,07,327,36*51
$GBGSV,5,1,18,45,72,062,50,22,18,159,43,05,20,130,38,36,21,058,43*62
$GBGSV,5,2,18,14,22,316,40,40,28,056,43,56,23,088,,07,28,065,41*63
$GBGSV,5,3,18,24,43,222,,42,47,301,48,10,33,079,41,26,47,237,48*6B
$GBGSV,5,4,18,21,62,200,51,50,65,261,,02,04,109,33,09,07,079,36*6A
$GBGSV,5,5,18,30,00,014,,60,07,112,41*62
$GPGGA,084537.00,,,,,0,00,,,M,,M,,*45
$PTNL,GGK,084537.00,010125,4742.1599358,N,01618.1003676,E,1,36,0.7,EHT752.0848,M*45
$GPGGQ,084537.00,010125,4742.1599358,N,01618.1003676,E,1,36,0.865,708.8782,M*39
$GPGFA,084537.00,4.233,5.438,0.445,0.331,5.511,0.663,,VVV*05
$GPLLK,084537.00,010125,,M,,M,1,36,0.8,,M*0B
$GNGMP,084537.00,,,,,DAAA,36,0.4,,,,*5A
$GPGMP,084537.00,,,,,,10,,,,2.3,136*74
$GLGMP,084537.00,,,,,,06,,,,,*74
$GAGMP,084537.00,,,,,,07,,,,,*78
$GBGMP,084537.00,,,,,,13,,,,,*7E
$PSSN,SNC,[0,290755000,2347]*48
$GPZDA,084542.00,01,01,2025,,*6C
$GPDTM,W84,,00.0000000,N,00.0000000,E,00.0000000,W84*5F
$PSSN,TFM,084542.00,,,,*60
$GPRMC,084542.00,A,4742.1599370,N,01618.1003664,E,0.0,,010125,5.1,E,D*1F
$GPGLL,4742.1599370,N,01618.1003664,E,084542.00,A,D*6E
$GPGGA,084542.00,4742.1599370,N,01618.1003664,E,2,36,0.4,708.8773,M,43.2066,M,1.7,0136*41
$GNGNS,084542.00,4742.1599370,N,01618.1003664,E,DAAA,36,0.4,708.8773,43.2066,,*5F
$GPGNS,084542.00,,,,,,10,,,,1.7,136*71
$GLGNS,084542.00,,,,,,06,,,,,*76
$GAGNS,084542.00,,,,,,07,,,,,*7A
$GBGNS,084542.00,,,,,,13,,,,,*7C
$GPLLQ,084542.00,010125,,M,,M,1,36,0.855,,M*13
$GPVTG,,T,,M,0.00,N,0.00,K,D*26
$GPHDT,,T*1B
$GPTHS,,V*0E
$GPROT,,V*08
$PSSN,HRP,084542.00,010125,,,,,,,00,0,,*6E
$PTNL,AVR,084542.00,,Yaw,,Tilt,,,,0,,00*38
$GPGSA,A,3,05,07,13,14,15,17,20,23,24,30,,,0.7,0.4,0.6*36
$GPGSA,A,3,65,66,72,74,75,76,,,,,,,0.7,0.4,0.6*31
$GPGSA,A,3,02,03,05,08,24,25,26,,,,,,0.7,0.4,0.6*3E
$GPGSA,A,3,05,07,09,10,14,21,22,26,36,40,42,45,0.7,0.4,0.6*39
$GPGSA,A,3,60,,,,,,,,,,,,0.7,0.4,0.6*31
$GPGST,084542.00,2.061,0.441,0.328,6.676,0.439,0.330,0.655*5C
$GPGBS,084542.00,2.789,2.027,3.963,72,0.0001,6.873,6.282*5C
$GPGRS,084542.00,1,-0.2,0.8,0.0,0.4,-0.1,-0.2,0.1,-0.7,0.7,-0.4,,*64
$GPGRS,084542.00,1,-1.0,-2.7,6.9,3.5,-3.2,-2.5,,,,,,*4A
$GPGRS,084542.00,1,-0.0,0.1,0.5,-0.0,-0.2,0.4,0.7,,,,,*47
$GPGRS,084542.00,1,1.8,1.6,4.5,0.7,0.9,-0.4,1.8,0.2,-0.9,-1.6,-0.1,-1.7*6B
$GPGRS,084542.00,1,0.0,,,,,,,,,,,*6F
$GPGSV,6,1,22,13,83,310,48,20,12,198,38,24,11,267,38,23,12,327,40*7D
$GPGSV,6,2,22,05,36,223,46,17,14,128,40,30,41,074,46,15,46,301,47*70
$GPGSV,6,3,22,22,64,150,,14,66,095,48,07,08,078,38,08,05,025,36*7B
$GPGSV,6,4,22,18,02,296,36,36,35,170,44,58,13,245,36,40,23,133,35*76
$GPGSV,6,5,22,34,31,208,42,49,34,195,44,57,07,112,37,41,07,108,35*7A
$GPGSV,6,6,22,61,03,257,37*49
$GLGSV,3,1,09,65,76,184,49,74,17,043,40,72,19,151,43,66,45,321,51*60
$GLGSV,3,2,09,76,44,230,51,75,70,031,52,82,01,323,40,83,09,001,33*67
$GLGSV,3,3,09,84,02,059,*5E
$GAGSV,3,1,09,03,75,129,48,24,24,046,41,05,22,125,39,02,39,192,45*69
$GAGSV,3,2,09,16,48,061,,08,49,303,46,25,66,099,48,13,04,279,35*6C
$GAGSV,3,3,09,26,07,327,36*51
$GBGSV,5,1,18,45,72,062,50,22,18,159,42,05,20,130,38,36,21,058,43*63
$GBGSV,5,2,18,14,22,316,40,40,28,056,43,56,23,088,,07,28,065,41*63
$GBGSV,5,3,18,24,44,222,,42,47,301,48,10,33,079,41,26,47,237,49*6D
$GBGSV,5,4,18,21,62,200,51,50,65,261,,02,04,109,33,09,07,079,36*6A
$GBGSV,5,5,18,30,00,014,,60,07,112,40*63
$GPGGA,084542.00,,,,,0,00,,,M,,M,,*47
$PTNL,GGK,084542.00,010125,4742.1599370,N,01618.1003664,E,1,36,0.7,EHT752.0838,M*49
$GPGGQ,084542.00,010125,4742.1599370,N,01618.1003664,E,1,36,0.855,708.8773,M*3F
$GPGFA,084542.00,4.190,5.370,0.441,0.328,6.676,0.655,,VVV*0E
$GPLLK,084542.00,010125,,M,,M,1,36,0.8,,M*09
$GNGMP,084542.00,,,,,DAAA,36,0.4,,,,*58
$GPGMP,084542.00,,,,,,10,,,,1.7,136*71
$GLGMP,084542.00,,,,,,06,,,,,*76
$GAGMP,084542.00,,,,,,07,,,,,*7A
$GBGMP,084542.00,,,,,,13,,,,,*7C
$PSSN,SNC,[0,290760000,2347]*4E
$GPZDA,084547.00,01,01,2025,,*69
$GPDTM,W84,,00.0000000,N,00.0000000,E,00.0000000,W84*5F
$PSSN,TFM,084547.00,,,,*65
$GPRMC,084547.00,A,4742.1599379,N,01618.1003679,E,0.0,,010125,5.1,E,D*1F
$GPGLL,4742.1599379,N,01618.1003679,E,084547.00,A,D*6E
$GPGGA,084547.00,4742.1599379,N,01618.1003679,E,2,36,0.4,708.8771,M,43.2066,M,2.7,0136*40
$GNGNS,084547.00,4742.1599379,N,01618.1003679,E,DAAA,36,0.4,708.8771,43.2066,,*5D
$GPGNS,084547.00,,,,,,10,,,,2.7,136*77
$GLGNS,084547.00,,,,,,06,,,,,*73
$GAGNS,084547.00,,,,,,07,,,,,*7F
$GBGNS,084547.00,,,,,,13,,,,,*79
$GPLLQ,084547.00,010125,,M,,M,1,36,0.852,,M*11
$GPVTG,,T,,M,0.00,N,0.01,K,D*27
$GPHDT,,T*1B
$GPTHS,,V*0E
$GPROT,,V*08
$PSSN,HRP,084547.00,010125,,,,,,,00,0,,*6B
$PTNL,AVR,084547.00,,Yaw,,Tilt,,,,0,,00*3D
$GPGSA,A,3,05,07,13,14,15,17,20,23,24,30,,,0.7,0.4,0.6*36
$GPGSA,A,3,65,66,72,74,75,76,,,,,,,0.7,0.4,0.6*31
$GPGSA,A,3,02,03,05,08,24,25,26,,,,,,0.7,0.4,0.6*3E
$GPGSA,A,3,05,07,09,10,14,21,22,26,36,40,42,45,0.7,0.4,0.6*39
$GPGSA,A,3,60,,,,,,,,,,,,0.7,0.4,0.6*31
$GPGST,084547.00,2.148,0.441,0.330,5.888,0.440,0.332,0.649*57
$GPGBS,084547.00,2.829,2.041,4.003,72,0.0001,6.307,6.283*5D
$GPGRS,084547.00,1,-0.4,0.7,0.2,0.2,-0.3,-0.2,0.1,-0.4,1.0,-0.3,,*6C
$GPGRS,084547.00,1,-1.3,-3.2,6.3,4.9,-3.5,-2.8,,,,,,*43
$GPGRS,084547.00,1,-0.3,0.2,0.8,-0.0,-0.0,0.4,0.7,,,,,*4D
$GPGRS,084547.00,1,1.3,1.6,4.5,0.7,1.2,-0.5,1.6,0.3,-0.9,-1.5,0.0,-1.6*4F
$GPGRS,084547.00,1,-0.3,,,,,,,,,,,*44
$GPGSV,6,1,22,13,83,310,49,20,12,198,39,24,11,268,37,23,12,327,40*7D
$GPGSV,6,2,22,05,36,223,46,17,14,128,40,30,41,074,46,15,46,301,47*70
$GPGSV,6,3,22,22,64,150,,14,66,095,48,07,08,078,38,08,05,025,35*78
$GPGSV,6,4,22,18,02,296,37,36,35,170,44,58,13,245,36,40,23,133,35*77
$GPGSV,6,5,22,34,31,208,42,49,34,195,44,57,07,112,37,41,07,108,34*7B
$GPGSV,6,6,22,61,03,257,37*49
$GLGSV,3,1,10,65,76,184,49,74,17,043,39,72,19,151,43,66,45,321,51*66
$GLGSV,3,2,10,76,44,230,51,75,70,031,52,77,00,227,,82,01,323,40*6B
$GLGSV,3,3,10,83,09,001,33,84,02,059,*65
$GAGSV,3,1,09,03,75,129,48,24,24,046,40,05,22,125,39,02,39,192,45*68
$GAGSV,3,2,09,16,48,061,,08,49,303,46,25,66,099,48,13,04,279,35*6C
$GAGSV,3,3,09,26,07,327,37*50
$GBGSV,5,1,18,45,72,062,50,22,18,159,42,05,20,130,38,36,21,058,42*62
$GBGSV,5,2,18,14,23,316,40,40,28,056,43,56,23,088,,07,28,065,41*62
$GBGSV,5,3,18,24,44,222,,42,47,301,48,10,33,079,41,26,47,237,49*6D
$GBGSV,5,4,18,21,62,200,52,50,65,261,,02,04,109,33,09,07,079,37*68
$GBGSV,5,5,18,30,00,014,,60,07,112,41*62
$GPGGA,084547.00,,,,,0,00,,,M,,M,,*42
$PTNL,GGK,084547.00,010125,4742.1599379,N,01618.1003679,E,1,36,0.7,EHT752.0837,M*46
$GPGGQ,084547.00,010125,4742.1599379,N,01618.1003679,E,1,36,0.852,708.8771,M*3A
$GPGFA,084547.00,4.189,5.326,0.441,0.330,5.888,0.649,,VVV*08
$GPLLK,084547.00,010125,,M,,M,1,36,0.8,,M*0C
$GNGMP,084547.00,,,,,DAAA,36,0.4,,,,*5D
$GPGMP,084547.00,,,,,,10,,,,2.7,136*77
$GLGMP,084547.00,,,,,,06,,,,,*73
$GAGMP,084547.00,,,,,,07,,,,,*7F
$GBGMP,084547.00,,,,,,13,,,,,*79
$PSSN,SNC,[0,290765000,2347]*4B
$GPZDA,084552.00,01,01,2025,,*6D
$GPDTM,W84,,00.0000000,N,00.0000000,E,00.0000000,W84*5F
$PSSN,TFM,084552.00,,,,*61
$GPRMC,084552.00,A,4742.1599403,N,01618.1003665,E,0.0,,010125,5.1,E,D*1C
$GPGLL,4742.1599403,N,01618.1003665,E,084552.00,A,D*6D
$GPGGA,084552.00,4742.1599403,N,01618.1003665,E,2,36,0.4,708.8774,M,43.2066,M,3.3,0136*43
$GNGNS,084552.00,4742.1599403,N,01618.1003665,E,DAAA,36,0.4,708.8774,43.2066,,*5B
$GPGNS,084552.00,,,,,,10,,,,3.3,136*76
$GLGNS,084552.00,,,,,,06,,,,,*77
$GAGNS,084552.00,,,,,,07,,,,,*7B
$GBGNS,084552.00,,,,,,13,,,,,*7D
$GPLLQ,084552.00,010125,,M,,M,1,36,0.862,,M*16
$GPVTG,,T,,M,0.00,N,0.01,K,D*27
$GPHDT,,T*1B
$GPTHS,,V*0E
$GPROT,,V*08
$PSSN,HRP,084552.00,010125,,,,,,,00,0,,*6F
$PTNL,AVR,084552.00,,Yaw,,Tilt,,,,0,,00*39
$GPGSA,A,3,05,07,13,14,15,17,20,23,24,30,,,0.7,0.4,0.6*36
$GPGSA,A,3,65,66,72,74,75,76,,,,,,,0.7,0.4,0.6*31
$GPGSA,A,3,02,03,05,08,24,25,26,,,,,,0.7,0.4,0.6*3E
$GPGSA,A,3,05,07,09,10,14,21,22,26,36,40,42,45,0.7,0.4,0.6*39
$GPGSA,A,3,60,,,,,,,,,,,,0.7,0.4,0.6*31
$GPGST,084552.00,2.151,0.446,0.333,5.075,0.445,0.334,0.659*57
$GPGBS,084552.00,2.850,2.089,4.067,72,0.0001,6.484,6.283*5D
$GPGRS,084552.00,1,-0.4,0.5,0.3,0.1,-0.3,-0.4,0.4,-0.5,1.0,-0.2,,*6B
$GPGRS,084552.00,1,-1.3,-3.4,6.5,5.0,-3.3,-2.4,,,,,,*45
$GPGRS,084552.00,1,-0.2,0.0,1.1,-0.0,0.1,0.1,0.8,,,,,*64
$GPGRS,084552.00,1,1.9,1.3,3.9,0.6,1.6,-0.5,1.5,0.0,-0.8,-1.7,-0.1,-1.7*64
$GPGRS,084552.00,1,-0.1,,,,,,,,,,,*42
$GPGSV,6,1,22,13,83,310,49,20,11,198,39,24,11,268,38,23,12,327,40*71
$GPGSV,6,2,22,05,35,223,46,17,14,128,39,30,41,074,46,15,47,301,47*7C
$GPGSV,6,3,22,22,64,150,,14,66,095,48,07,08,078,38,08,05,025,35*78
$GPGSV,6,4,22,18,02,296,36,36,35,170,44,58,13,245,36,40,23,133,35*76
$GPGSV,6,5,22,34,31,208,42,49,34,195,44,57,07,112,37,41,07,108,34*7B
$GPGSV,6,6,22,61,03,257,37*49
$GLGSV,3,1,10,65,76,184,49,74,17,043,40,72,19,151,43,66,45,321,51*68
$GLGSV,3,2,10,76,44,230,51,75,70,031,52,77,00,227,,82,01,323,41*6A
$GLGSV,3,3,10,83,09,001,33,84,03,058,*65
$GAGSV,3,1,09,03,75,129,48,24,24,046,40,05,22,125,40,02,39,192,45*66
$GAGSV,3,2,09,16,48,061,,08,49,303,46,25,66,099,48,13,04,279,34*6D
$GAGSV,3,3,09,26,07,327,37*50
$GBGSV,5,1,18,45,72,062,50,22,18,159,43,05,20,130,38,36,21,058,42*63
$GBGSV,5,2,18,14,23,316,40,40,28,056,43,56,24,088,,07,28,065,41*65
$GBGSV,5,3,18,24,44,222,,42,47,301,48,10,33,079,41,26,47,237,49*6D
$GBGSV,5,4,18,21,62,200,52,50,65,261,,02,04,109,33,09,07,079,37*68
$GBGSV,5,5,18,30,00,014,,60,07,112,41*62
$GPGGA,084552.00,,,,,0,00,,,M,,M,,*46
$PTNL,GGK,084552.00,010125,4742.1599403,N,01618.1003665,E,1,36,0.7,EHT752.0840,M*45
$GPGGQ,084552.00,010125,4742.1599403,N,01618.1003665,E,1,36,0.862,708.8774,M*3F
$GPGFA,084552.00,4.237,5.401,0.446,0.333,5.075,0.659,,VVV*07
$GPLLK,084552.00,010125,,M,,M,1,36,0.8,,M*08
$GNGMP,084552.00,,,,,DAAA,36,0.4,,,,*59
$GPGMP,084552.00,,,,,,10,,,,3.3,136*76
$GLGMP,084552.00,,,,,,06,,,,,*77
$GAGMP,084552.00,,,,,,07,,,,,*7B
$GBGMP,084552.00,,,,,,13,,,,,*7D
$PSSN,SNC,[0,290770000,2347]*4F
$GPZDA,084557.00,01,01,2025,,*68
$GPDTM,W84,,00.0000000,N,00.0000000,E,00.0000000,W84*5F
$PSSN,TFM,084557.00,,,,*64
$GPRMC,084557.00,A,4742.1599421,N,01618.1003676,E,0.0,,010125,5.1,E,D*1B
$GPGLL,4742.1599421,N,01618.1003676,E,084557.00,A,D*6A
$GPGGA,084557.00,4742.1599421,N,01618.1003676,E,2,36,0.4,708.8828,M,43.2066,M,2.3,0136*43
$GNGNS,084557.00,4742.1599421,N,01618.1003676,E,DAAA,36,0.4,708.8828,43.2066,,*5A
$GPGNS,084557.00,,,,,,10,,,,2.3,136*72
$GLGNS,084557.00,,,,,,06,,,,,*72
$GAGNS,084557.00,,,,,,07,,,,,*7E
$GBGNS,084557.00,,,,,,13,,,,,*78
$GPLLQ,084557.00,010125,,M,,M,1,36,0.865,,M*14
$GPVTG,,T,,M,0.00,N,0.00,K,D*26
$GPHDT,,T*1B
$GPTHS,,V*0E
$GPROT,,V*08
$PSSN,HRP,084557.00,010125,,,,,,,00,0,,*6A
$PTNL,AVR,084557.00,,Yaw,,Tilt,,,,0,,00*3C
$GPGSA,A,3,05,07,13,14,15,17,20,23,24,30,,,0.7,0.4,0.6*36
$GPGSA,A,3,65,66,72,74,75,76,,,,,,,0.7,0.4,0.6*31
$GPGSA,A,3,02,03,05,08,24,25,26,,,,,,0.7,0.4,0.6*3E
$GPGSA,A,3,05,07,09,10,14,21,22,26,36,40,42,45,0.7,0.4,0.6*39
$GPGSA,A,3,60,,,,,,,,,,,,0.7,0.4,0.6*31
$GPGST,084557.00,2.178,0.446,0.331,5.512,0.445,0.333,0.663*51
$GPGBS,084557.00,2.812,2.087,4.018,72,0.0001,6.504,6.284*56
$GPGRS,084557.00,1,-0.3,0.5,-0.0,0.3,-0.3,-0.3,0.7,0.0,0.7,-0.3,,*6E
$GPGRS,084557.00,1,-1.6,-2.7,6.5,5.6,-3.3,-2.5,,,,,,*40
$GPGRS,084557.00,1,-0.2,0.2,1.2,-0.1,0.0,0.3,0.6,,,,,*6C
$GPGRS,084557.00,1,2.0,1.0,4.1,0.4,0.4,-0.5,1.7,-0.5,-1.2,-1.7,-0.3,-1.7*45
$GPGRS,084557.00,1,0.1,,,,,,,,,,,*6A
$GPGSV,6,1,22,13,83,310,48,20,11,198,39,24,11,268,38,23,12,327,39*7E
$GPGSV,6,2,22,05,35,223,46,17,14,128,40,30,41,074,46,15,47,301,47*72
$GPGSV,6,3,22,22,64,150,,14,66,095,48,07,08,078,38,08,05,025,36*7B
$GPGSV,6,4,22,18,02,296,34,36,35,170,44,58,13,245,36,40,23,133,35*74
$GPGSV,6,5,22,34,31,208,42,49,34,195,44,57,07,112,37,41,07,108,34*7B
$GPGSV,6,6,22,61,03,257,37*49
$GLGSV,3,1,10,65,76,184,49,74,17,043,40,72,19,151,43,66,45,321,51*68
$GLGSV,3,2,10,76,44,230,51,75,70,031,52,77,00,227,,82,01,323,40*6B
$GLGSV,3,3,10,83,09,001,34,84,03,058,*62
$GAGSV,3,1,09,03,75,129,48,24,24,046,40,05,22,125,40,02,39,192,45*66
$GAGSV,3,2,09,16,48,061,,08,49,303,46,25,66,099,47,13,04,279,34*62
$GAGSV,3,3,09,26,07,327,37*50
$GBGSV,5,1,18,45,72,062,50,22,18,159,43,05,20,130,38,36,21,058,42*63
$GBGSV,5,2,18,14,23,316,40,40,28,056,43,56,24,088,,07,28,065,41*65
$GBGSV,5,3,18,24,44,222,,42,47,301,48,10,33,079,41,26,47,237,48*6C
$GBGSV,5,4,18,21,62,200,52,50,65,261,,02,04,109,33,09,07,079,36*69
$GBGSV,5,5,18,30,00,014,,60,07,112,41*62
$GPGGA,084557.00,,,,,0,00,,,M,,M,,*43
$PTNL,GGK,084557.00,010125,4742.1599421,N,01618.1003676,E,1,36,0.7,EHT752.0893,M*4C
$GPGGQ,084557.00,010125,4742.1599421,N,01618.1003676,E,1,36,0.865,708.8828,M*39
$GPGFA,084557.00,4.238,5.439,0.446,0.331,5.512,0.663,,VVV*09
$GPLLK,084557.00,010125,,M,,M,1,36,0.8,,M*0D
$GNGMP,084557.00,,,,,DAAA,36,0.4,,,,*5C
$GPGMP,084557.00,,,,,,10,,,,2.3,136*72
$GLGMP,084557.00,,,,,,06,,,,,*72
$GAGMP,084557.00,,,,,,07,,,,,*7E
$GBGMP,084557.00,,,,,,13,,,,,*78
$PSSN,SNC,[0,290775000,2347]*4A
$GPZDA,084602.00,01,01,2025,,*6B
$GPDTM,W84,,00.0000000,N,00.0000000,E,00.0000000,W84*5F
$PSSN,TFM,084602.00,,,,*67
$GPRMC,084602.00,A,4742.1599422,N,01618.1003665,E,0.0,,010125,5.1,E,D*19
$GPGLL,4742.1599422,N,01618.1003665,E,084602.00,A,D*68
$GPGGA,084602.00,4742.1599422,N,01618.1003665,E,2,37,0.4,708.8881,M,43.2066,M,1.7,0136*44
$GNGNS,084602.00,4742.1599422,N,01618.1003665,E,DAAA,37,0.4,708.8881,43.2066,,*5A
$GPGNS,084602.00,,,,,,10,,,,1.7,136*76
$GLGNS,084602.00,,,,,,07,,,,,*70
$GAGNS,084602.00,,,,,,07,,,,,*7D
$GBGNS,084602.00,,,,,,13,,,,,*7B
$GPLLQ,084602.00,010125,,M,,M,1,37,0.854,,M*14
$GPVTG,,T,,M,0.01,N,0.01,K,D*26
$GPHDT,,T*1B
$GPTHS,,V*0E
$GPROT,,V*08
$PSSN,HRP,084602.00,010125,,,,,,,00,0,,*69
$PTNL,AVR,084602.00,,Yaw,,Tilt,,,,0,,00*3F
$GPGSA,A,3,05,07,13,14,15,17,20,23,24,30,,,0.7,0.4,0.6*36
$GPGSA,A,3,65,66,72,74,75,76,83,,,,,,0.7,0.4,0.6*3A
$GPGSA,A,3,02,03,05,08,24,25,26,,,,,,0.7,0.4,0.6*3E
$GPGSA,A,3,05,07,09,10,14,21,22,26,36,40,42,45,0.7,0.4,0.6*39
$GPGSA,A,3,60,,,,,,,,,,,,0.7,0.4,0.6*31
$GPGST,084602.00,2.158,0.440,0.328,6.645,0.439,0.330,0.654*50
$GPGBS,084602.00,2.750,2.023,3.943,72,0.0001,6.483,6.285*5D
$GPGRS,084602.00,1,-0.4,0.5,-0.0,0.3,-0.0,-0.4,0.3,0.1,0.3,-0.1,,*6D
$GPGRS,084602.00,1,-1.2,-2.9,6.5,5.5,-3.5,-2.7,-2.4,,,,,*4B
$GPGRS,084602.00,1,-0.4,0.1,0.8,-0.1,0.1,0.3,0.0,,,,,*66
$GPGRS,084602.00,1,1.5,0.7,4.0,0.7,0.4,-0.6,1.5,-0.4,-1.1,-2.0,-0.6,-1.6*47
$GPGRS,084602.00,1,0.1,,,,,,,,,,,*69
$GPGSV,6,1,22,13,83,310,49,20,11,198,39,24,11,268,38,23,12,327,39*7F
$GPGSV,6,2,22,05,35,223,46,17,14,128,40,30,41,074,46,15,47,301,47*72
$GPGSV,6,3,22,22,64,150,,14,66,095,48,07,08,078,37,08,05,025,35*77
$GPGSV,6,4,22,18,01,296,35,36,35,170,44,58,13,245,36,40,23,133,35*76
$GPGSV,6,5,22,34,31,208,42,49,34,195,44,57,07,112,37,41,07,108,35*7A
$GPGSV,6,6,22,61,03,257,37*49
$GLGSV,3,1,10,65,76,183,49,74,16,043,40,72,19,151,42,66,45,321,51*6F
$GLGSV,3,2,10,76,44,230,51,75,70,031,52,77,00,227,,82,01,323,40*6B
$GLGSV,3,3,10,83,09,001,35,84,03,058,*63
$GAGSV,3,1,09,03,75,129,48,24,24,046,41,05,22,125,41,02,40,192,45*68
$GAGSV,3,2,09,16,48,061,,08,49,303,46,25,66,099,47,13,04,279,34*62
$GAGSV,3,3,09,26,07,327,37*50
$GBGSV,5,1,18,45,72,062,50,22,18,159,43,05,20,130,38,36,21,058,42*63
$GBGSV,5,2,18,14,23,316,40,40,28,056,43,56,24,088,,07,28,065,41*65
$GBGSV,5,3,18,24,44,222,,42,47,301,48,10,33,079,41,26,47,237,48*6C
$GBGSV,5,4,18,21,62,200,52,50,65,261,,02,04,109,33,09,07,079,36*69
$GBGSV,5,5,18,30,00,014,,60,07,112,41*62
$GPGGA,084602.00,,,,,0,00,,,M,,M,,*40
$PTNL,GGK,084602.00,010125,4742.1599422,N,01618.1003665,E,1,37,0.7,EHT752.0946,M*46
$GPGGQ,084602.00,010125,4742.1599422,N,01618.1003665,E,1,37,0.854,708.8881,M*3B
$GPGFA,084602.00,4.184,5.362,0.440,0.328,6.645,0.654,,VVV*0F
$GPLLK,084602.00,010125,,M,,M,1,37,0.8,,M*0F
$GNGMP,084602.00,,,,,DAAA,37,0.4,,,,*5E
$GPGMP,084602.00,,,,,,10,,,,1.7,136*76
$GLGMP,084602.00,,,,,,07,,,,,*70
$GAGMP,084602.00,,,,,,07,,,,,*7D
$GBGMP,084602.00,,,,,,13,,,,,*7B
$PSSN,SNC,[0,290780000,2347]*40
$GPZDA,084607.00,01,01,2025,,*6E
$GPDTM,W84,,00.0000000,N,00.0000000,E,00.0000000,W84*5F
$PSSN,TFM,084607.00,,,,*62
$GPRMC,084607.00,A,4742.1599418,N,01618.1003639,E,0.0,,010125,5.1,E,D*1C
$GPGLL,4742.1599418,N,01618.1003639,E,084607.00,A,D*6D
$GPGGA,084607.00,4742.1599418,N,01618.1003639,E,2,36,0.4,708.8879,M,43.2066,M,2.7,0136*44
$GNGNS,084607.00,4742.1599418,N,01618.1003639,E,DAAA,36,0.4,708.8879,43.2066,,*59
$GPGNS,084607.00,,,,,,10,,,,2.7,136*70
$GLGNS,084607.00,,,,,,06,,,,,*74
$GAGNS,084607.00,,,,,,07,,,,,*78
$GBGNS,084607.00,,,,,,13,,,,,*7E
$GPLLQ,084607.00,010125,,M,,M,1,36,0.852,,M*16
$GPVTG,,T,,M,0.00,N,0.00,K,D*26
$GPHDT,,T*1B
$GPTHS,,V*0E
$GPROT,,V*08
$PSSN,HRP,084607.00,010125,,,,,,,00,0,,*6C
$PTNL,AVR,084607.00,,Yaw,,Tilt,,,,0,,00*3A
$GPGSA,A,3,05,07,13,14,15,17,20,23,24,30,,,0.7,0.4,0.6*36
$GPGSA,A,3,65,66,72,74,75,76,,,,,,,0.7,0.4,0.6*31
$GPGSA,A,3,02,03,05,08,24,25,26,,,,,,0.7,0.4,0.6*3E
$GPGSA,A,3,05,07,09,10,14,21,22,26,36,40,42,45,0.7,0.4,0.6*39
$GPGSA,A,3,60,,,,,,,,,,,,0.7,0.4,0.6*31
$GPGST,084607.00,2.107,0.441,0.330,5.882,0.440,0.332,0.650*59
$GPGBS,084607.00,2.838,2.039,4.010,72,0.0001,6.598,6.286*52
$GPGRS,084607.00,1,-0.1,0.5,0.1,0.3,-0.3,-0.7,0.3,-0.4,0.3,-0.1,,*69
$GPGRS,084607.00,1,-0.7,-3.0,6.6,4.8,-3.2,-2.7,,,,,,*4F
$GPGRS,084607.00,1,-0.2,0.2,1.2,-0.1,0.3,0.4,-0.3,,,,,*46
$GPGRS,084607.00,1,1.6,0.7,3.8,1.2,1.4,-0.6,1.8,0.1,-1.1,-2.0,-0.3,-1.5*68
$GPGRS,084607.00,1,0.0,,,,,,,,,,,*6D
$GPGSV,6,1,22,13,83,310,49,20,11,198,38,24,11,268,39,23,12,327,39*7F
$GPGSV,6,2,22,05,35,223,46,17,14,128,40,30,41,074,45,15,47,301,47*71
$GPGSV,6,3,22,22,65,150,,14,66,094,48,07,08,078,37,08,05,025,35*77
$GPGSV,6,4,22,18,01,295,35,36,35,170,44,58,13,245,36,40,23,133,35*75
$GPGSV,6,5,22,34,31,208,43,49,34,195,43,57,07,112,37,41,07,108,35*7C
$GPGSV,6,6,22,61,03,257,37*49
$GLGSV,3,1,10,65,76,183,49,74,16,043,40,72,19,151,42,76,44,230,51*6E
$GLGSV,3,2,10,66,45,321,51,75,70,031,52,77,00,227,,82,01,323,41*6B
$GLGSV,3,3,10,83,09,001,34,84,03,058,*62
$GAGSV,3,1,09,03,75,130,48,24,24,046,41,05,22,125,41,02,40,192,45*60
$GAGSV,3,2,09,16,48,061,,08,49,303,46,25,66,099,48,13,04,279,34*6D
$GAGSV,3,3,09,26,07,327,37*50
$GBGSV,5,1,18,45,72,062,50,22,18,159,43,05,20,130,39,36,21,058,42*62
$GBGSV,5,2,18,14,23,316,40,40,28,056,43,56,24,088,,07,28,065,41*65
$GBGSV,5,3,18,24,44,222,,42,47,301,48,10,33,079,41,26,47,237,48*6C
$GBGSV,5,4,18,21,62,200,51,50,65,261,,02,04,109,33,09,07,079,36*6A
$GBGSV,5,5,18,30,00,014,,60,07,112,41*62
$GPGGA,084607.00,,,,,0,00,,,M,,M,,*45
$PTNL,GGK,084607.00,010125,4742.1599418,N,01618.1003639,E,1,36,0.7,EHT752.0945,M*41
$GPGGQ,084607.00,010125,4742.1599418,N,01618.1003639,E,1,36,0.852,708.8879,M*3E
$GPGFA,084607.00,4.196,5.327,0.441,0.330,5.882,0.650,,VVV*02
$GPLLK,084607.00,010125,,M,,M,1,36,0.8,,M*0B
$GNGMP,084607.00,,,,,DAAA,36,0.4,,,,*5A
$GPGMP,084607.00,,,,,,10,,,,2.7,136*70
$GLGMP,084607.00,,,,,,06,,,,,*74
$GAGMP,084607.00,,,,,,07,,,,,*78
$GBGMP,084607.00,,,,,,13,,,,,*7E
$PSSN,SNC,[0,290785000,2347]*45
$GPZDA,084612.00,01,01,2025,,*6A
$GPDTM,W84,,00.0000000,N,00.0000000,E,00.0000000,W84*5F
$PSSN,TFM,084612.00,,,,*66
$GPRMC,084612.00,A,4742.1599445,N,01618.1003632,E,0.0,,010125,5.1,E,D*1B
$GPGLL,4742.1599445,N,01618.1003632,E,084612.00,A,D*6A
$GPGGA,084612.00,4742.1599445,N,01618.1003632,E,2,36,0.4,708.8890,M,43.2066,M,3.3,0136*41
$GNGNS,084612.00,4742.1599445,N,01618.1003632,E,DAAA,36,0.4,708.8890,43.2066,,*59
$GPGNS,084612.00,,,,,,10,,,,3.3,136*71
$GLGNS,084612.00,,,,,,06,,,,,*70
$GAGNS,084612.00,,,,,,07,,,,,*7C
$GBGNS,084612.00,,,,,,13,,,,,*7A
$GPLLQ,084612.00,010125,,M,,M,1,36,0.866,,M*15
$GPVTG,,T,,M,0.00,N,0.01,K,D*27
$GPHDT,,T*1B
$GPTHS,,V*0E
$GPROT,,V*08
$PSSN,HRP,084612.00,010125,,,,,,,00,0,,*68
$PTNL,AVR,084612.00,,Yaw,,Tilt,,,,0,,00*3E
$GPGSA,A,3,05,07,13,14,15,17,20,23,24,30,,,0.7,0.4,0.6*36
$GPGSA,A,3,65,66,72,74,75,76,,,,,,,0.7,0.4,0.6*31
$GPGSA,A,3,02,03,05,08,24,25,26,,,,,,0.7,0.4,0.6*3E
$GPGSA,A,3,05,07,09,10,14,21,22,26,36,40,42,45,0.7,0.4,0.6*39
$GPGSA,A,3,60,,,,,,,,,,,,0.7,0.4,0.6*31
$GPGST,084612.00,2.013,0.446,0.335,5.015,0.446,0.336,0.662*5E
$GPGBS,084612.00,2.866,2.097,4.086,72,0.0001,6.137,6.286*57
$GPGRS,084612.00,1,-0.2,0.3,-0.0,0.2,-0.0,-0.1,0.3,-0.5,0.8,-0.3,,*48
$GPGRS,084612.00,1,-1.1,-3.5,6.1,4.5,-3.6,-2.8,,,,,,*48
$GPGRS,084612.00,1,-0.1,0.2,1.1,-0.4,-0.3,0.4,0.2,,,,,*46
$GPGRS,084612.00,1,1.5,1.2,2.7,0.9,0.5,-0.6,1.5,0.1,-1.3,-1.9,-0.3,-1.6*69
$GPGRS,084612.00,1,-0.2,,,,,,,,,,,*46
$GPGSV,6,1,22,13,83,310,49,20,11,198,38,24,11,268,38,23,12,327,39*7E
$GPGSV,6,2,22,05,35,223,46,17,14,128,40,30,41,074,46,15,47,301,47*72
$GPGSV,6,3,22,22,65,150,,14,66,094,48,07,08,078,38,08,05,025,35*78
$GPGSV,6,4,22,18,01,295,34,36,35,170,44,58,13,245,36,40,23,133,35*74
$GPGSV,6,5,22,34,31,208,43,49,34,195,44,57,07,112,38,41,07,108,34*75
$GPGSV,6,6,22,61,03,257,38*46
$GLGSV,3,1,10,65,76,183,49,74,16,043,41,72,19,151,42,76,44,230,51*6F
$GLGSV,3,2,10,66,45,321,51,75,70,031,52,77,00,227,,82,01,323,41*6B
$GLGSV,3,3,10,83,09,001,33,84,03,058,*65
$GAGSV,3,1,09,03,75,130,48,24,24,046,41,05,22,125,41,02,40,192,45*60
$GAGSV,3,2,09,16,48,061,,08,49,303,46,25,66,099,48,13,04,279,35*6C
$GAGSV,3,3,09,26,07,327,37*50
$GBGSV,5,1,18,45,72,062,50,22,18,159,43,05,20,130,38,36,21,059,42*62
$GBGSV,5,2,18,14,23,316,40,40,28,056,43,56,24,088,,07,28,065,41*65
$GBGSV,5,3,18,24,44,222,,42,47,301,48,10,33,079,41,26,47,237,49*6D
$GBGSV,5,4,18,21,62,200,52,50,65,261,,02,04,109,33,09,07,079,36*69
$GBGSV,5,5,18,30,00,014,,60,07,112,41*62
$GPGGA,084612.00,,,,,0,00,,,M,,M,,*41
$PTNL,GGK,084612.00,010125,4742.1599445,N,01618.1003632,E,1,36,0.7,EHT752.0955,M*47
$GPGGQ,084612.00,010125,4742.1599445,N,01618.1003632,E,1,36,0.866,708.8890,M*39
$GPGFA,084612.00,4.245,5.431,0.446,0.335,5.015,0.662,,VVV*0E
$GPLLK,084612.00,010125,,M,,M,1,36,0.8,,M*0F
$GNGMP,084612.00,,,,,DAAA,36,0.4,,,,*5E
$GPGMP,084612.00,,,,,,10,,,,3.3,136*71
$GLGMP,084612.00,,,,,,06,,,,,*70
$GAGMP,084612.00,,,,,,07,,,,,*7C
$GBGMP,084612.00,,,,,,13,,,,,*7A
$PSSN,SNC,[0,290790000,2347]*41
$GPZDA,084617.00,01,01,2025,,*6F
$GPDTM,W84,,00.0000000,N,00.0000000,E,00.0000000,W84*5F
$PSSN,TFM,084617.00,,,,*63
$GPRMC,084617.00,A,4742.1599442,N,01618.1003602,E,0.0,,010125,5.1,E,D*1A
$GPGLL,4742.1599442,N,01618.1003602,E,084617.00,A,D*6B
$GPGGA,084617.00,4742.1599442,N,01618.1003602,E,2,36,0.4,708.8893,M,43.2066,M,2.3,0136*42
$GNGNS,084617.00,4742.1599442,N,01618.1003602,E,DAAA,36,0.4,708.8893,43.2066,,*5B
$GPGNS,084617.00,,,,,,10,,,,2.3,136*75
$GLGNS,084617.00,,,,,,06,,,,,*75
$GAGNS,084617.00,,,,,,07,,,,,*79
$GBGNS,084617.00,,,,,,13,,,,,*7F
$GPLLQ,084617.00,010125,,M,,M,1,36,0.869,,M*1F
$GPVTG,,T,,M,0.00,N,0.00,K,D*26
$GPHDT,,T*1B
$GPTHS,,V*0E
$GPROT,,V*08
$PSSN,HRP,084617.00,010125,,,,,,,00,0,,*6D
$PTNL,AVR,084617.00,,Yaw,,Tilt,,,,0,,00*3B
$GPGSA,A,3,05,07,13,14,15,17,20,23,24,30,,,0.7,0.4,0.6*36
$GPGSA,A,3,65,66,72,74,75,76,,,,,,,0.7,0.4,0.6*31
$GPGSA,A,3,02,03,05,08,24,25,26,,,,,,0.7,0.4,0.6*3E
$GPGSA,A,3,05,07,09,10,14,21,22,26,36,40,42,45,0.7,0.4,0.6*39
$GPGSA,A,3,60,,,,,,,,,,,,0.7,0.4,0.6*31
$GPGST,084617.00,2.050,0.446,0.333,5.456,0.446,0.334,0.667*5E
$GPGBS,084617.00,2.826,2.095,4.040,72,0.0001,6.893,6.286*59
$GPGRS,084617.00,1,-0.3,1.2,-0.0,0.4,-0.2,-0.3,-0.3,-0.1,0.3,-0.0,,*6B
$GPGRS,084617.00,1,-1.3,-3.0,6.9,4.4,-3.4,-2.2,,,,,,*4B
$GPGRS,084617.00,1,-0.0,0.2,1.1,0.0,-0.4,0.3,-0.2,,,,,*46
$GPGRS,084617.00,1,1.8,1.4,2.8,0.9,0.9,-0.5,1.6,0.1,-0.9,-1.8,-0.1,-1.7*6D
$GPGRS,084617.00,1,0.3,,,,,,,,,,,*6F
$GPGSV,6,1,22,13,83,310,49,20,11,198,38,24,11,268,39,23,12,327,39*7F
$GPGSV,6,2,22,05,35,223,46,17,14,128,40,30,41,074,46,15,47,301,47*72
$GPGSV,6,3,22,22,65,150,,14,66,094,48,07,08,078,38,08,05,025,35*78
$GPGSV,6,4,22,18,01,295,36,36,35,170,44,58,13,245,36,40,23,133,35*76
$GPGSV,6,5,22,34,31,208,42,49,34,195,44,57,07,112,37,41,07,108,35*7A
$GPGSV,6,6,22,61,03,257,38*46
$GLGSV,3,1,10,65,76,183,49,74,16,043,40,72,19,151,43,76,44,230,51*6F
$GLGSV,3,2,10,66,45,321,51,75,70,031,52,77,00,227,,82,00,323,41*6A
$GLGSV,3,3,10,83,09,001,34,84,03,058,*62
$GAGSV,3,1,09,03,75,130,48,24,24,046,41,05,22,125,41,02,40,192,45*60
$GAGSV,3,2,09,16,48,061,,08,49,303,46,25,66,099,48,13,04,279,35*6C
$GAGSV,3,3,09,26,07,327,37*50
$GBGSV,5,1,18,45,72,062,50,22,18,159,43,05,20,130,38,36,21,059,42*62
$GBGSV,5,2,18,14,23,316,40,40,28,056,43,56,24,088,,07,28,065,41*65
$GBGSV,5,3,18,24,44,222,,42,47,301,48,10,33,079,41,26,47,237,49*6D
$GBGSV,5,4,18,21,62,200,52,50,65,261,,02,04,109,33,09,07,079,36*69
$GBGSV,5,5,18,30,00,014,,60,07,112,41*62
$GPGGA,084617.00,,,,,0,00,,,M,,M,,*44
$PTNL,GGK,084617.00,010125,4742.1599442,N,01618.1003602,E,1,36,0.7,EHT752.0958,M*4B
$GPGGQ,084617.00,010125,4742.1599442,N,01618.1003602,E,1,36,0.869,708.8893,M*34
$GPGFA,084617.00,4.245,5.469,0.446,0.333,5.456,0.667,,VVV*06
$GPLLK,084617.00,010125,,M,,M,1,36,0.8,,M*0A
$GNGMP,084617.00,,,,,DAAA,36,0.4,,,,*5B
$GPGMP,084617.00,,,,,,10,,,,2.3,136*75
$GLGMP,084617.00,,,,,,06,,,,,*75
$GAGMP,084617.00,,,,,,07,,,,,*79
$GBGMP,084617.00,,,,,,13,,,,,*7F
$PSSN,SNC,[0,290795000,2347]*44
$GPZDA,084622.00,01,01,2025,,*69
$GPDTM,W84,,00.0000000,N,00.0000000,E,00.0000000,W84*5F
$PSSN,TFM,084622.00,,,,*65
$GPRMC,084622.00,A,4742.1599441,N,01618.1003581,E,0.0,,010125,5.1,E,D*17
$GPGLL,4742.1599441,N,01618.1003581,E,084622.00,A,D*66
$GPGGA,084622.00,4742.1599441,N,01618.1003581,E,2,36,0.4,708.8936,M,43.2066,M,1.7,0136*46
$GNGNS,084622.00,4742.1599441,N,01618.1003581,E,DAAA,36,0.4,708.8936,43.2066,,*58
$GPGNS,084622.00,,,,,,10,,,,1.7,136*74
