$GPZDA,011442.00,01,01,2025,,*61
$GPDTM,W84,,00.0000000,N,00.0000000,E,00.0000000,W84*5F
$PSSN,TFM,011442.00,,,,*6D
$GPRMC,011442.00,A,4742.1603659,N,01618.1001802,E,0.0,,010125,5.1,E,D*10
$GPGLL,4742.1603659,N,01618.1001802,E,011442.00,A,D*61
$GPGGA,011442.00,4742.1603659,N,01618.1001802,E,2,38,0.4,708.1709,M,43.2066,M,3.1,0136*40
$GNGNS,011442.00,4742.1603659,N,01618.1001802,E,DAAA,38,0.4,708.1709,43.2066,,*5A
$GPGNS,011442.00,,,,,,10,,,,3.1,136*78
$GLGNS,011442.00,,,,,,08,,,,,*75
$GAGNS,011442.00,,,,,,08,,,,,*78
$GBGNS,011442.00,,,,,,12,,,,,*70
$GPLLQ,011442.00,010125,,M,,M,1,38,0.886,,M*1E
$GPVTG,,T,,M,0.01,N,0.01,K,D*26
$GPHDT,,T*1B
$GPTHS,,V*0E
$GPROT,,V*08
$PSSN,HRP,011442.00,010125,,,,,,,00,0,,*63
$PTNL,AVR,011442.00,,Yaw,,Tilt,,,,0,,00*35
$GPGSA,A,3,02,03,04,09,17,19,21,28,31,32,,,0.7,0.4,0.6*3F
$GPGSA,A,3,68,69,70,77,78,84,85,86,,,,,0.7,0.4,0.6*31
$GPGSA,A,3,04,05,06,09,10,11,34,36,,,,,0.7,0.4,0.6*3A
$GPGSA,A,3,05,06,09,16,19,20,29,30,32,35,39,60,0.7,0.4,0.6*33
$GPGST,011442.00,1.537,0.358,0.289,9.435,0.356,0.291,0.757*5C
$GPGBS,011442.00,1.710,1.686,5.520,68,0.0001,5.069,7.016*54
$GPGRS,011442.00,1,-0.3,-0.1,0.1,0.0,0.2,0.3,-0.5,0.1,0.3,-0.5,,*4C
$GPGRS,011442.00,1,5.1,0.4,0.3,-4.1,-3.1,0.6,1.7,-2.3,,,,*64
$GPGRS,011442.00,1,-0.0,-0.9,0.1,0.4,0.4,0.2,-0.2,0.3,,,,*6A
$GPGRS,011442.00,1,2.0,-0.2,0.1,0.9,-0.0,-1.5,0.4,-0.5,0.6,-1.0,-0.6,-1.0*6C
$GPGSV,6,1,21,03,76,320,50,09,16,216,39,28,27,066,43,19,25,311,42*78
$GPGSV,6,2,21,31,29,098,44,04,43,203,46,21,39,146,43,17,39,279,45*7A
$GPGSV,6,3,21,02,59,154,49,01,64,140,,06,04,311,36,32,07,045,38*72
$GPGSV,6,4,21,36,35,170,44,58,13,245,37,40,24,132,36,34,31,208,42*7B
$GPGSV,6,5,21,49,34,195,44,57,09,110,36,41,07,108,34,61,03,257,37*7C
$GPGSV,6,6,21*7A
$GLGSV,3,1,09,85,64,309,52,68,10,046,44,86,10,327,43,78,10,048,44*6D
$GLGSV,3,2,09,70,47,243,40,84,54,164,39,69,59,033,52,71,02,232,*6F
$GLGSV,3,3,09,77,05,354,37*5F
$GAGSV,3,1,12,06,72,133,48,04,59,068,47,34,14,309,39,09,58,188,48*69
$GAGSV,3,2,12,10,31,132,43,11,60,135,45,36,66,304,48,19,06,042,32*69
$GAGSV,3,3,12,27,00,358,37,30,02,312,36,05,09,212,37,12,08,131,33*61
$GBGSV,5,1,18,20,86,003,52,09,34,080,42,30,15,166,42,05,24,128,39*6C
$GBGSV,5,2,18,39,28,049,43,32,29,059,46,35,36,305,47,06,32,064,41*6D
$GBGSV,5,3,18,16,31,060,43,22,38,232,,19,40,245,47,29,56,214,50*6E
$GBGSV,5,4,18,48,68,249,,02,08,105,35,37,04,108,,13,00,090,28*6E
$GBGSV,5,5,18,23,01,017,,60,09,110,40*6F
$GPGGA,011442.00,,,,,0,00,,,M,,M,,*4A
$PTNL,GGK,011442.00,010125,4742.1603659,N,01618.1001802,E,1,38,0.7,EHT751.3774,M*4F
$GPGGQ,011442.00,010125,4742.1603659,N,01618.1001802,E,1,38,0.886,708.1709,M*34
$GPGFA,011442.00,3.403,6.210,0.358,0.289,9.435,0.757,,VVV*03
$GPLLK,011442.00,010125,,M,,M,1,38,0.8,,M*0A
$GNGMP,011442.00,,,,,DAAA,38,0.4,,,,*5B
$GPGMP,011442.00,,,,,,10,,,,3.1,136*78
$GLGMP,011442.00,,,,,,08,,,,,*75
$GAGMP,011442.00,,,,,,08,,,,,*78
$GBGMP,011442.00,,,,,,12,,,,,*70
$PSSN,SNC,[0,263700000,2347]*44
$GPZDA,011447.00,01,01,2025,,*64
$GPDTM,W84,,00.0000000,N,00.0000000,E,00.0000000,W84*5F
$PSSN,TFM,011447.00,,,,*68
$GPRMC,011447.00,A,4742.1603660,N,01618.1001822,E,0.0,,010125,5.1,E,D*1D
$GPGLL,4742.1603660,N,01618.1001822,E,011447.00,A,D*6C
$GPGGA,011447.00,4742.1603660,N,01618.1001822,E,2,38,0.4,708.1727,M,43.2066,M,2.5,0136*44
$GNGNS,011447.00,4742.1603660,N,01618.1001822,E,DAAA,38,0.4,708.1727,43.2066,,*5B
$GPGNS,011447.00,,,,,,10,,,,2.5,136*78
$GLGNS,011447.00,,,,,,08,,,,,*70
$GAGNS,011447.00,,,,,,08,,,,,*7D
$GBGNS,011447.00,,,,,,12,,,,,*75
$GPLLQ,011447.00,010125,,M,,M,1,38,0.883,,M*1E
$GPVTG,,T,,M,0.00,N,0.01,K,D*27
$GPHDT,,T*1B
$GPTHS,,V*0E
$GPROT,,V*08
$PSSN,HRP,011447.00,010125,,,,,,,00,0,,*66
$PTNL,AVR,011447.00,,Yaw,,Tilt,,,,0,,00*30
$GPGSA,A,3,02,03,04,09,17,19,21,28,31,32,,,0.7,0.4,0.6*3F
$GPGSA,A,3,68,69,70,77,78,84,85,86,,,,,0.7,0.4,0.6*31
$GPGSA,A,3,04,05,06,09,10,11,34,36,,,,,0.7,0.4,0.6*3A
$GPGSA,A,3,05,06,09,16,19,20,29,30,32,35,39,60,0.7,0.4,0.6*33
$GPGST,011447.00,1.505,0.358,0.294,8.658,0.357,0.295,0.752*5C
$GPGBS,011447.00,1.720,1.658,5.198,04,0.0001,0.492,0.641*5A
$GPGRS,011447.00,1,-0.3,-0.1,0.5,-0.1,-0.1,0.2,-0.2,-0.0,0.3,-0.2,,*62
$GPGRS,011447.00,1,4.8,0.1,0.7,-4.8,-2.9,0.8,1.4,-1.1,,,,*64
$GPGRS,011447.00,1,-0.0,-1.1,-0.0,0.4,0.3,0.2,-0.0,0.1,,,,*4D
$GPGRS,011447.00,1,1.0,0.5,0.1,1.1,0.4,-1.6,0.2,-0.6,0.6,-1.0,-0.9,-1.3*6A
$GPGSV,6,1,21,03,76,320,50,09,17,216,39,28,27,066,43,19,25,311,42*79
$GPGSV,6,2,21,31,29,098,45,04,43,203,46,21,39,146,43,17,39,279,45*7B
$GPGSV,6,3,21,02,59,154,49,01,64,140,,06,04,311,36,32,07,045,38*72
$GPGSV,6,4,21,36,35,170,45,58,13,245,37,40,24,132,36,34,31,208,42*7A
$GPGSV,6,5,21,49,34,195,44,57,09,110,36,41,07,108,34,61,03,257,38*73
$GPGSV,6,6,21*7A
$GLGSV,3,1,09,85,64,309,52,68,10,046,43,86,10,327,43,78,10,048,44*6A
$GLGSV,3,2,09,70,47,243,40,84,54,164,40,69,59,033,52,71,03,232,*60
$GLGSV,3,3,09,77,05,354,37*5F
$GAGSV,3,1,12,06,72,133,48,04,59,068,47,34,14,309,38,09,58,188,48*68
$GAGSV,3,2,12,10,31,132,43,11,60,135,45,36,66,304,48,19,06,042,32*69
$GAGSV,3,3,12,27,00,358,37,30,02,312,35,05,09,212,37,12,08,131,32*63
$GBGSV,5,1,18,20,86,004,52,09,34,080,42,30,15,166,42,05,24,128,38*6A
$GBGSV,5,2,18,39,28,049,43,32,29,060,45,35,36,305,47,06,32,064,40*65
$GBGSV,5,3,18,16,31,060,43,22,38,232,,19,40,245,47,29,56,214,50*6E
$GBGSV,5,4,18,48,68,249,,02,08,105,35,37,04,108,,13,00,090,26*60
$GBGSV,5,5,18,23,01,017,,60,09,110,39*61
$GPGGA,011447.00,,,,,0,00,,,M,,M,,*4F
$PTNL,GGK,011447.00,010125,4742.1603660,N,01618.1001822,E,1,38,0.7,EHT751.3793,M*4B
$GPGGQ,011447.00,010125,4742.1603660,N,01618.1001822,E,1,38,0.883,708.1727,M*30
$GPGFA,011447.00,3.405,6.164,0.358,0.294,8.658,0.752,,VVV*01
$GPLLK,011447.00,010125,,M,,M,1,38,0.8,,M*0F
$GNGMP,011447.00,,,,,DAAA,38,0.4,,,,*5E
$GPGMP,011447.00,,,,,,10,,,,2.5,136*78
$GLGMP,011447.00,,,,,,08,,,,,*70
$GAGMP,011447.00,,,,,,08,,,,,*7D
$GBGMP,011447.00,,,,,,12,,,,,*75
$PSSN,SNC,[0,263705000,2347]*41
$GPZDA,011452.00,01,01,2025,,*60
$GPDTM,W84,,00.0000000,N,00.0000000,E,00.0000000,W84*5F
$PSSN,TFM,011452.00,,,,*6C
$GPRMC,011452.00,A,4742.1603662,N,01618.1001842,E,0.0,,010125,5.1,E,D*1D
$GPGLL,4742.1603662,N,01618.1001842,E,011452.00,A,D*6C
$GPGGA,011452.00,4742.1603662,N,01618.1001842,E,2,38,0.4,708.1740,M,43.2066,M,2.3,0136*43
$GNGNS,011452.00,4742.1603662,N,01618.1001842,E,DAAA,38,0.4,708.1740,43.2066,,*5A
$GPGNS,011452.00,,,,,,10,,,,2.3,136*7A
$GLGNS,011452.00,,,,,,08,,,,,*74
$GAGNS,011452.00,,,,,,08,,,,,*79
$GBGNS,011452.00,,,,,,12,,,,,*71
$GPLLQ,011452.00,010125,,M,,M,1,38,0.866,,M*11
$GPVTG,,T,,M,0.00,N,0.01,K,D*27
$GPHDT,,T*1B
$GPTHS,,V*0E
$GPROT,,V*08
$PSSN,HRP,011452.00,010125,,,,,,,00,0,,*62
$PTNL,AVR,011452.00,,Yaw,,Tilt,,,,0,,00*34
$GPGSA,A,3,02,03,04,09,17,19,21,28,31,32,,,0.7,0.4,0.6*3F
$GPGSA,A,3,68,69,70,77,78,84,85,86,,,,,0.7,0.4,0.6*31
$GPGSA,A,3,04,05,06,09,10,11,34,36,,,,,0.7,0.4,0.6*3A
$GPGSA,A,3,05,06,09,16,19,20,29,30,32,35,39,60,0.7,0.4,0.6*33
$GPGST,011452.00,1.479,0.353,0.294,5.931,0.353,0.295,0.734*50
$GPGBS,011452.00,1.710,1.656,5.278,21,0.0001,-0.529,0.716*76
$GPGRS,011452.00,1,-0.2,-0.1,0.2,0.3,0.3,-0.0,-0.5,-0.1,0.3,0.3,,*65
$GPGRS,011452.00,1,4.3,-0.1,1.0,-4.6,-2.8,1.4,1.2,-1.6,,,,*43
$GPGRS,011452.00,1,-0.2,-0.9,-0.0,0.4,0.4,0.0,-0.1,0.1,,,,*46
$GPGRS,011452.00,1,1.6,0.6,0.2,1.2,0.3,-1.5,0.2,-0.6,0.9,-1.2,-0.9,-1.2*63
$GPGSV,6,1,21,03,76,320,50,09,17,216,40,28,27,066,43,19,25,311,42*77
$GPGSV,6,2,21,31,29,098,44,04,43,203,46,21,39,146,43,17,39,279,45*7A
$GPGSV,6,3,21,02,58,154,48,01,63,140,,06,04,311,36,32,07,045,39*74
$GPGSV,6,4,21,36,35,170,45,58,13,245,37,40,24,132,36,34,31,208,42*7A
$GPGSV,6,5,21,49,34,195,44,57,09,110,36,41,07,108,34,61,03,257,38*73
$GPGSV,6,6,21*7A
$GLGSV,3,1,09,85,64,309,52,68,10,046,43,86,10,327,43,78,10,048,45*6B
$GLGSV,3,2,09,70,47,243,40,84,54,164,40,69,59,033,52,71,03,232,*60
$GLGSV,3,3,09,77,05,354,37*5F
$GAGSV,3,1,12,06,72,133,48,04,59,068,47,34,14,309,38,09,58,188,48*68
$GAGSV,3,2,12,10,31,132,43,11,60,135,45,36,66,304,48,19,06,042,32*69
$GAGSV,3,3,12,27,00,358,37,30,02,312,37,05,09,212,37,12,08,131,32*61
$GBGSV,5,1,18,20,86,004,52,09,34,080,42,30,15,166,42,05,24,128,39*6B
$GBGSV,5,2,18,39,28,049,43,32,29,060,45,35,36,305,47,06,32,064,40*65
$GBGSV,5,3,18,16,31,060,43,22,38,232,,19,40,245,48,29,56,214,50*61
$GBGSV,5,4,18,48,68,249,,02,08,105,34,37,04,108,,13,00,090,29*6E
$GBGSV,5,5,18,23,01,017,,60,09,110,40*6F
$GPGGA,011452.00,,,,,0,00,,,M,,M,,*4B
$PTNL,GGK,011452.00,010125,4742.1603662,N,01618.1001842,E,1,38,0.7,EHT751.3805,M*4B
$GPGGQ,011452.00,010125,4742.1603662,N,01618.1001842,E,1,38,0.866,708.1740,M*3A
$GPGFA,011452.00,3.358,6.016,0.353,0.294,5.931,0.734,,VVV*08
$GPLLK,011452.00,010125,,M,,M,1,38,0.8,,M*0B
$GNGMP,011452.00,,,,,DAAA,38,0.4,,,,*5A
$GPGMP,011452.00,,,,,,10,,,,2.3,136*7A
$GLGMP,011452.00,,,,,,08,,,,,*74
$GAGMP,011452.00,,,,,,08,,,,,*79
$GBGMP,011452.00,,,,,,12,,,,,*71
$PSSN,SNC,[0,263710000,2347]*45
$GPZDA,011457.00,01,01,2025,,*65
$GPDTM,W84,,00.0000000,N,00.0000000,E,00.0000000,W84*5F
$PSSN,TFM,011457.00,,,,*69
$GPRMC,011457.00,A,4742.1603658,N,01618.1001861,E,0.0,,010125,5.1,E,D*10
$GPGLL,4742.1603658,N,01618.1001861,E,011457.00,A,D*61
$GPGGA,011457.00,4742.1603658,N,01618.1001861,E,2,38,0.4,708.1804,M,43.2066,M,2.1,0136*43
$GNGNS,011457.00,4742.1603658,N,01618.1001861,E,DAAA,38,0.4,708.1804,43.2066,,*58
$GPGNS,011457.00,,,,,,10,,,,2.1,136*7D
$GLGNS,011457.00,,,,,,08,,,,,*71
$GAGNS,011457.00,,,,,,08,,,,,*7C
$GBGNS,011457.00,,,,,,12,,,,,*74
$GPLLQ,011457.00,010125,,M,,M,1,38,0.874,,M*17
$GPVTG,,T,,M,0.00,N,0.00,K,D*26
$GPHDT,,T*1B
$GPTHS,,V*0E
$GPROT,,V*08
$PSSN,HRP,011457.00,010125,,,,,,,00,0,,*67
$PTNL,AVR,011457.00,,Yaw,,Tilt,,,,0,,00*31
$GPGSA,A,3,02,03,04,09,17,19,21,28,31,32,,,0.7,0.4,0.6*3F
$GPGSA,A,3,68,69,70,77,78,84,85,86,,,,,0.7,0.4,0.6*31
$GPGSA,A,3,04,05,06,09,10,11,34,36,,,,,0.7,0.4,0.6*3A
$GPGSA,A,3,05,06,09,16,19,20,29,30,32,35,39,60,0.7,0.4,0.6*33
$GPGST,011457.00,1.456,0.355,0.291,6.370,0.354,0.292,0.744*50
$GPGBS,011457.00,1.685,1.662,5.426,21,0.0001,-0.542,0.667*7E
$GPGRS,011457.00,1,-0.3,0.0,0.2,0.6,0.1,-0.1,-0.5,0.2,0.3,-0.0,,*4B
$GPGRS,011457.00,1,4.8,0.1,0.4,-4.0,-2.6,0.9,1.2,-2.3,,,,*67
$GPGRS,011457.00,1,-0.1,-0.6,0.1,0.5,0.2,0.0,0.1,0.1,,,,*49
$GPGRS,011457.00,1,1.8,0.5,0.2,1.2,0.5,-1.5,0.2,-0.4,0.7,-1.3,-0.7,-0.7*6A
$GPGSV,6,1,21,03,76,321,50,09,17,216,41,28,27,066,42,19,25,311,43*77
$GPGSV,6,2,21,31,29,098,44,04,43,203,46,21,38,146,43,17,39,279,46*78
$GPGSV,6,3,21,02,58,154,49,01,63,140,,06,04,311,36,32,07,045,39*75
$GPGSV,6,4,21,36,35,170,44,58,13,245,37,40,24,132,35,34,31,208,42*78
$GPGSV,6,5,21,49,34,195,44,57,09,110,36,41,07,108,34,61,03,257,37*7C
$GPGSV,6,6,21*7A
$GLGSV,3,1,09,85,64,309,52,68,10,046,43,86,10,327,43,78,10,048,45*6B
$GLGSV,3,2,09,70,47,243,40,84,54,164,40,69,59,033,52,71,03,232,*60
$GLGSV,3,3,09,77,05,354,37*5F
$GAGSV,3,1,12,06,73,133,48,04,59,068,46,34,14,309,38,09,58,188,48*68
$GAGSV,3,2,12,10,31,132,43,11,60,135,44,36,66,304,48,19,06,042,32*68
$GAGSV,3,3,12,27,00,358,37,30,02,312,36,05,09,212,37,12,08,131,32*60
$GBGSV,5,1,18,20,86,004,52,09,34,080,41,30,14,166,42,05,24,128,39*69
$GBGSV,5,2,18,39,28,049,43,32,29,060,46,35,36,305,47,06,32,064,41*67
$GBGSV,5,3,18,16,31,060,44,22,38,232,,19,40,245,48,29,56,214,50*66
$GBGSV,5,4,18,48,68,249,,02,08,105,34,37,04,108,,13,00,090,28*6F
$GBGSV,5,5,18,23,01,017,,60,09,110,40*6F
$GPGGA,011457.00,,,,,0,00,,,M,,M,,*4E
$PTNL,GGK,011457.00,010125,4742.1603658,N,01618.1001861,E,1,38,0.7,EHT751.3870,M*44
$GPGGQ,011457.00,010125,4742.1603658,N,01618.1001861,E,1,38,0.874,708.1804,M*3B
$GPGFA,011457.00,3.373,6.101,0.355,0.291,6.370,0.744,,VVV*0B
$GPLLK,011457.00,010125,,M,,M,1,38,0.8,,M*0E
$GNGMP,011457.00,,,,,DAAA,38,0.4,,,,*5F
$GPGMP,011457.00,,,,,,10,,,,2.1,136*7D
$GLGMP,011457.00,,,,,,08,,,,,*71
$GAGMP,011457.00,,,,,,08,,,,,*7C
$GBGMP,011457.00,,,,,,12,,,,,*74
$PSSN,SNC,[0,263715000,2347]*40
$GPZDA,011502.00,01,01,2025,,*64
$GPDTM,W84,,00.0000000,N,00.0000000,E,00.0000000,W84*5F
$PSSN,TFM,011502.00,,,,*68
$GPRMC,011502.00,A,4742.1603661,N,01618.1001876,E,0.0,,010125,5.1,E,D*1D
$GPGLL,4742.1603661,N,01618.1001876,E,011502.00,A,D*6C
$GPGGA,011502.00,4742.1603661,N,01618.1001876,E,2,38,0.4,708.1820,M,43.2066,M,3.1,0136*49
$GNGNS,011502.00,4742.1603661,N,01618.1001876,E,DAAA,38,0.4,708.1820,43.2066,,*53
$GPGNS,011502.00,,,,,,10,,,,3.1,136*7D
$GLGNS,011502.00,,,,,,08,,,,,*70
$GAGNS,011502.00,,,,,,08,,,,,*7D
$GBGNS,011502.00,,,,,,12,,,,,*75
$GPLLQ,011502.00,010125,,M,,M,1,38,0.887,,M*1A
$GPVTG,,T,,M,0.00,N,0.01,K,D*27
$GPHDT,,T*1B
$GPTHS,,V*0E
$GPROT,,V*08
$PSSN,HRP,011502.00,010125,,,,,,,00,0,,*66
$PTNL,AVR,011502.00,,Yaw,,Tilt,,,,0,,00*30
$GPGSA,A,3,02,03,04,09,17,19,21,28,31,32,,,0.7,0.4,0.6*3F
$GPGSA,A,3,68,69,70,77,78,84,85,86,,,,,0.7,0.4,0.6*31
$GPGSA,A,3,04,05,06,09,10,11,34,36,,,,,0.7,0.4,0.6*3A
$GPGSA,A,3,05,06,09,16,19,20,29,30,32,35,39,60,0.7,0.4,0.6*33
$GPGST,011502.00,1.383,0.357,0.289,9.174,0.356,0.291,0.758*50
$GPGBS,011502.00,1.699,1.687,5.540,77,0.0001,-4.371,7.079*77
$GPGRS,011502.00,1,-0.0,-0.1,0.1,0.3,0.2,0.3,-0.4,-0.2,0.4,-0.6,,*62
$GPGRS,011502.00,1,4.1,-0.1,0.2,-4.4,-3.1,0.1,1.3,-1.4,,,,*4B
$GPGRS,011502.00,1,-0.1,-0.7,-0.0,0.0,0.1,-0.1,0.2,-0.0,,,,*60
$GPGRS,011502.00,1,1.3,0.4,0.0,1.0,0.0,-1.7,0.2,-0.1,0.5,-1.0,-0.5,-0.8*6F
$GPGSV,6,1,21,03,76,321,50,09,17,216,40,28,27,066,42,19,25,311,42*77
$GPGSV,6,2,21,31,29,098,44,04,43,203,46,21,38,146,43,17,39,279,46*78
$GPGSV,6,3,21,02,58,154,49,01,63,140,,06,04,311,38,32,07,045,39*7B
$GPGSV,6,4,21,36,35,170,45,58,13,245,37,40,24,132,36,34,31,208,42*7A
$GPGSV,6,5,21,49,34,195,44,57,09,110,36,41,07,108,34,61,03,257,37*7C
$GPGSV,6,6,21*7A
$GLGSV,3,1,09,85,64,309,52,68,10,046,43,86,10,327,44,78,10,048,45*6C
$GLGSV,3,2,09,70,47,243,40,84,54,164,40,69,59,033,52,71,03,232,*60
$GLGSV,3,3,09,77,05,354,37*5F
$GAGSV,3,1,12,06,73,133,48,04,58,068,46,34,14,309,39,09,58,188,48*68
$GAGSV,3,2,12,10,31,132,42,11,60,135,44,36,66,304,48,19,06,042,32*69
$GAGSV,3,3,12,27,00,358,36,30,02,312,35,05,09,212,37,12,08,131,32*62
$GBGSV,5,1,18,20,86,005,52,09,34,080,41,30,14,166,42,05,24,128,38*69
$GBGSV,5,2,18,39,28,049,43,32,29,060,46,35,36,305,47,06,32,064,41*67
$GBGSV,5,3,18,16,31,060,44,22,38,232,,19,40,245,48,29,56,214,50*66
$GBGSV,5,4,18,48,69,249,,02,08,105,34,37,04,108,,13,00,090,28*6E
$GBGSV,5,5,18,23,01,017,,60,09,110,40*6F
$GPGGA,011502.00,,,,,0,00,,,M,,M,,*4F
$PTNL,GGK,011502.00,010125,4742.1603661,N,01618.1001876,E,1,38,0.7,EHT751.3886,M*40
$GPGGQ,011502.00,010125,4742.1603661,N,01618.1001876,E,1,38,0.887,708.1820,M*3C
$GPGFA,011502.00,3.399,6.217,0.357,0.289,9.174,0.758,,VVV*05
$GPLLK,011502.00,010125,,M,,M,1,38,0.8,,M*0F
$GNGMP,011502.00,,,,,DAAA,38,0.4,,,,*5E
$GPGMP,011502.00,,,,,,10,,,,3.1,136*7D
$GLGMP,011502.00,,,,,,08,,,,,*70
$GAGMP,011502.00,,,,,,08,,,,,*7D
$GBGMP,011502.00,,,,,,12,,,,,*75
$PSSN,SNC,[0,263720000,2347]*46
$GPZDA,011507.00,01,01,2025,,*61
$GPDTM,W84,,00.0000000,N,00.0000000,E,00.0000000,W84*5F
$PSSN,TFM,011507.00,,,,*6D
$GPRMC,011507.00,A,4742.1603666,N,01618.1001886,E,0.0,,010125,5.1,E,D*10
$GPGLL,4742.1603666,N,01618.1001886,E,011507.00,A,D*61
$GPGGA,011507.00,4742.1603666,N,01618.1001886,E,2,38,0.4,708.1844,M,43.2066,M,2.5,0136*43
$GNGNS,011507.00,4742.1603666,N,01618.1001886,E,DAAA,38,0.4,708.1844,43.2066,,*5C
$GPGNS,011507.00,,,,,,10,,,,2.5,136*7D
$GLGNS,011507.00,,,,,,08,,,,,*75
$GAGNS,011507.00,,,,,,08,,,,,*78
$GBGNS,011507.00,,,,,,12,,,,,*70
$GPLLQ,011507.00,010125,,M,,M,1,38,0.884,,M*1C
$GPVTG,,T,,M,0.00,N,0.00,K,D*26
$GPHDT,,T*1B
$GPTHS,,V*0E
$GPROT,,V*08
$PSSN,HRP,011507.00,010125,,,,,,,00,0,,*63
$PTNL,AVR,011507.00,,Yaw,,Tilt,,,,0,,00*35
$GPGSA,A,3,02,03,04,09,17,19,21,28,31,32,,,0.7,0.4,0.6*3F
$GPGSA,A,3,68,69,70,77,78,84,85,86,,,,,0.7,0.4,0.6*31
$GPGSA,A,3,04,05,06,09,10,11,34,36,,,,,0.7,0.4,0.6*3A
$GPGSA,A,3,05,06,09,16,19,20,29,30,32,35,39,60,0.7,0.4,0.6*33
$GPGST,011507.00,1.587,0.358,0.294,8.375,0.357,0.295,0.753*58
$GPGBS,011507.00,1.708,1.660,5.216,77,0.0001,-5.905,7.080*78
$GPGRS,011507.00,1,-0.3,0.0,0.2,-0.0,-0.0,-0.0,-0.4,0.1,0.6,0.0,,*63
$GPGRS,011507.00,1,4.2,-0.3,-0.8,-5.9,-3.2,0.7,1.8,-1.0,,,,*6E
$GPGRS,011507.00,1,0.1,-0.3,0.2,0.3,0.4,0.1,0.5,0.3,,,,*61
$GPGRS,011507.00,1,1.6,0.2,0.4,1.2,0.3,-1.5,0.4,0.1,0.9,-0.4,-0.5,-0.9*4D
$GPGSV,6,1,21,03,76,321,50,09,17,216,41,28,27,066,43,19,25,311,42*77
$GPGSV,6,2,21,31,29,098,44,04,43,203,46,21,38,146,43,17,39,279,46*78
$GPGSV,6,3,21,02,58,154,49,01,63,140,,06,04,311,37,32,07,045,40*7A
$GPGSV,6,4,21,36,35,170,44,58,13,245,37,40,24,132,36,34,31,208,42*7B
$GPGSV,6,5,21,49,34,195,44,57,09,110,36,41,07,108,34,61,03,257,38*73
$GPGSV,6,6,21*7A
$GLGSV,3,1,09,85,64,309,52,68,10,046,43,86,10,327,44,78,10,048,45*6C
$GLGSV,3,2,09,70,47,243,40,84,54,164,40,69,59,033,51,71,03,232,*63
$GLGSV,3,3,09,77,05,354,36*5E
$GAGSV,3,1,12,06,73,132,48,04,58,068,47,34,14,309,39,09,58,188,48*68
$GAGSV,3,2,12,10,31,132,42,11,60,135,44,36,66,304,47,19,06,042,32*66
$GAGSV,3,3,12,27,00,358,35,30,02,312,35,05,09,212,37,12,08,131,32*61
$GBGSV,5,1,18,20,86,005,52,09,34,080,41,30,14,166,42,05,24,128,38*69
$GBGSV,5,2,18,39,28,049,42,32,29,060,46,35,36,305,47,06,32,064,41*66
$GBGSV,5,3,18,16,31,060,43,22,38,232,,19,40,245,47,29,56,214,50*6E
$GBGSV,5,4,18,48,69,249,,02,08,105,34,37,04,108,,13,00,090,26*60
$GBGSV,5,5,18,23,01,017,,60,09,110,39*61
$GPGGA,011507.00,,,,,0,00,,,M,,M,,*4A
$PTNL,GGK,011507.00,010125,4742.1603666,N,01618.1001886,E,1,38,0.7,EHT751.3909,M*4B
$GPGGQ,011507.00,010125,4742.1603666,N,01618.1001886,E,1,38,0.884,708.1844,M*30
$GPGFA,011507.00,3.402,6.172,0.358,0.294,8.375,0.753,,VVV*0F
$GPLLK,011507.00,010125,,M,,M,1,38,0.8,,M*0A
$GNGMP,011507.00,,,,,DAAA,38,0.4,,,,*5B
$GPGMP,011507.00,,,,,,10,,,,2.5,136*7D
$GLGMP,011507.00,,,,,,08,,,,,*75
$GAGMP,011507.00,,,,,,08,,,,,*78
$GBGMP,011507.00,,,,,,12,,,,,*70
$PSSN,SNC,[0,263725000,2347]*43
$GPZDA,011512.00,01,01,2025,,*65
$GPDTM,W84,,00.0000000,N,00.0000000,E,00.0000000,W84*5F
$PSSN,TFM,011512.00,,,,*69
$GPRMC,011512.00,A,4742.1603652,N,01618.1001882,E,0.0,,010125,5.1,E,D*17
$GPGLL,4742.1603652,N,01618.1001882,E,011512.00,A,D*66
$GPGGA,011512.00,4742.1603652,N,01618.1001882,E,2,38,0.4,708.1869,M,43.2066,M,2.3,0136*4D
$GNGNS,011512.00,4742.1603652,N,01618.1001882,E,DAAA,38,0.4,708.1869,43.2066,,*54
$GPGNS,011512.00,,,,,,10,,,,2.3,136*7F
$GLGNS,011512.00,,,,,,08,,,,,*71
$GAGNS,011512.00,,,,,,08,,,,,*7C
$GBGNS,011512.00,,,,,,12,,,,,*74
$GPLLQ,011512.00,010125,,M,,M,1,38,0.866,,M*14
$GPVTG,,T,,M,0.00,N,0.01,K,D*27
$GPHDT,,T*1B
$GPTHS,,V*0E
$GPROT,,V*08
$PSSN,HRP,011512.00,010125,,,,,,,00,0,,*67
$PTNL,AVR,011512.00,,Yaw,,Tilt,,,,0,,00*31
$GPGSA,A,3,02,03,04,09,17,19,21,28,31,32,,,0.7,0.4,0.6*3F
$GPGSA,A,3,68,69,70,77,78,84,85,86,,,,,0.7,0.4,0.6*31
$GPGSA,A,3,04,05,06,09,10,11,34,36,,,,,0.7,0.4,0.6*3A
$GPGSA,A,3,05,06,09,16,19,20,29,30,32,35,39,60,0.7,0.4,0.6*33
$GPGST,011512.00,1.486,0.353,0.294,5.615,0.352,0.294,0.735*5D
$GPGBS,011512.00,1.699,1.657,5.300,04,0.0001,0.457,0.655*58
$GPGRS,011512.00,1,-0.2,-0.1,0.5,-0.1,-0.0,0.1,-0.4,0.2,0.2,0.0,,*67
$GPGRS,011512.00,1,4.1,-0.2,0.4,-4.6,-3.0,1.9,1.9,-1.2,,,,*49
$GPGRS,011512.00,1,0.1,-0.2,0.2,0.4,0.6,0.1,0.1,0.4,,,,*62
$GPGRS,011512.00,1,1.8,0.5,1.2,1.2,0.3,-1.4,0.5,0.2,0.9,-1.0,-0.2,-1.0*4E
$GPGSV,6,1,21,03,76,321,50,09,17,216,41,28,27,066,43,19,25,311,43*76
$GPGSV,6,2,21,31,29,098,45,04,43,203,46,21,38,146,43,17,39,279,45*7A
$GPGSV,6,3,21,02,58,154,49,01,63,140,,06,04,311,34,32,07,045,40*79
$GPGSV,6,4,21,36,35,170,45,58,13,245,37,40,24,132,36,34,31,208,42*7A
$GPGSV,6,5,21,49,34,195,43,57,09,110,36,41,07,108,34,61,03,257,38*74
$GPGSV,6,6,21*7A
$GLGSV,3,1,09,85,64,309,53,68,10,046,42,86,10,327,44,78,10,048,44*6D
$GLGSV,3,2,09,70,47,243,40,84,54,164,40,69,59,033,52,71,03,232,*60
$GLGSV,3,3,09,77,05,354,37*5F
$GAGSV,3,1,12,06,73,132,48,04,58,068,47,34,14,309,39,09,58,188,48*68
$GAGSV,3,2,12,10,31,132,43,11,59,135,44,36,66,304,48,19,06,042,32*62
$GAGSV,3,3,12,27,00,358,35,30,02,312,35,05,09,212,37,12,08,131,32*61
$GBGSV,5,1,18,20,86,005,51,09,34,080,42,30,14,166,42,05,24,128,38*69
$GBGSV,5,2,18,39,28,049,42,32,29,060,46,35,36,305,47,06,32,064,40*67
$GBGSV,5,3,18,16,31,060,43,22,38,232,,19,40,245,48,29,56,214,50*61
$GBGSV,5,4,18,48,69,249,,02,08,105,34,37,04,108,,13,00,090,26*60
$GBGSV,5,5,18,23,01,017,,60,09,110,39*61
$GPGGA,011512.00,,,,,0,00,,,M,,M,,*4E
$PTNL,GGK,011512.00,010125,4742.1603652,N,01618.1001882,E,1,38,0.7,EHT751.3935,M*43
$GPGGQ,011512.00,010125,4742.1603652,N,01618.1001882,E,1,38,0.866,708.1869,M*34
$GPGFA,011512.00,3.355,6.023,0.353,0.294,5.615,0.735,,VVV*0E
$GPLLK,011512.00,010125,,M,,M,1,38,0.8,,M*0E
$GNGMP,011512.00,,,,,DAAA,38,0.4,,,,*5F
$GPGMP,011512.00,,,,,,10,,,,2.3,136*7F
$GLGMP,011512.00,,,,,,08,,,,,*71
$GAGMP,011512.00,,,,,,08,,,,,*7C
$GBGMP,011512.00,,,,,,12,,,,,*74
$PSSN,SNC,[0,263730000,2347]*47
$GPZDA,011517.00,01,01,2025,,*60
$GPDTM,W84,,00.0000000,N,00.0000000,E,00.0000000,W84*5F
$PSSN,TFM,011517.00,,,,*6C
$GPRMC,011517.00,A,4742.1603657,N,01618.1001864,E,0.0,,010125,5.1,E,D*1F
$GPGLL,4742.1603657,N,01618.1001864,E,011517.00,A,D*6E
$GPGGA,011517.00,4742.1603657,N,01618.1001864,E,2,38,0.4,708.1878,M,43.2066,M,2.1,0136*47
$GNGNS,011517.00,4742.1603657,N,01618.1001864,E,DAAA,38,0.4,708.1878,43.2066,,*5C
$GPGNS,011517.00,,,,,,10,,,,2.1,136*78
$GLGNS,011517.00,,,,,,08,,,,,*74
$GAGNS,011517.00,,,,,,08,,,,,*79
$GBGNS,011517.00,,,,,,12,,,,,*71
$GPLLQ,011517.00,010125,,M,,M,1,38,0.875,,M*13
$GPVTG,,T,,M,0.00,N,0.00,K,D*26
$GPHDT,,T*1B
$GPTHS,,V*0E
$GPROT,,V*08
$PSSN,HRP,011517.00,010125,,,,,,,00,0,,*62
$PTNL,AVR,011517.00,,Yaw,,Tilt,,,,0,,00*34
$GPGSA,A,3,02,03,04,09,17,19,21,28,31,32,,,0.7,0.4,0.6*3F
$GPGSA,A,3,68,69,70,77,78,84,85,86,,,,,0.7,0.4,0.6*31
$GPGSA,A,3,04,05,06,09,10,11,34,36,,,,,0.7,0.4,0.6*3A
$GPGSA,A,3,05,06,09,16,19,20,29,30,32,35,39,60,0.7,0.4,0.6*33
$GPGST,011517.00,1.437,0.354,0.291,6.068,0.354,0.292,0.745*58
$GPGBS,011517.00,1.674,1.663,5.449,31,0.0001,0.745,0.774*57
$GPGRS,011517.00,1,-0.1,-0.0,0.4,-0.0,-0.4,0.3,-0.2,-0.3,0.7,-0.1,,*65
$GPGRS,011517.00,1,4.6,-0.0,-0.0,-3.9,-3.6,0.6,1.6,-1.0,,,,*6D
$GPGRS,011517.00,1,0.2,-0.4,0.0,0.4,0.5,0.1,-0.2,0.2,,,,*4B
$GPGRS,011517.00,1,1.2,0.5,1.3,0.8,0.3,-1.6,0.1,0.1,0.6,-1.0,-0.1,-1.2*40
$GPGSV,6,1,21,03,76,321,50,09,17,216,40,28,27,066,43,19,25,311,43*77
$GPGSV,6,2,21,31,29,098,45,04,43,203,46,21,38,146,43,17,39,278,46*78
$GPGSV,6,3,21,02,58,154,48,01,63,140,,06,04,311,36,32,07,045,40*7A
$GPGSV,6,4,21,36,35,170,45,58,13,245,37,40,24,132,36,34,31,208,42*7A
$GPGSV,6,5,21,49,34,195,44,57,09,110,36,41,07,108,34,61,03,257,37*7C
$GPGSV,6,6,21*7A
$GLGSV,3,1,09,85,64,309,52,68,10,046,42,86,10,327,44,78,10,048,44*6C
$GLGSV,3,2,09,70,47,243,40,84,54,164,40,69,59,033,51,71,03,232,*63
$GLGSV,3,3,09,77,05,354,38*50
$GAGSV,3,1,12,06,73,132,48,04,58,068,46,34,14,309,39,09,58,188,48*69
$GAGSV,3,2,12,10,31,132,43,11,59,135,44,36,66,304,47,19,06,042,32*6D
$GAGSV,3,3,12,27,00,358,34,30,02,311,35,05,09,212,37,12,08,131,32*63
$GBGSV,5,1,18,20,86,006,51,09,34,080,42,30,14,166,42,05,24,128,38*6A
$GBGSV,5,2,18,39,28,049,42,32,29,060,45,35,36,305,47,06,32,064,41*65
$GBGSV,5,3,18,16,31,060,43,22,38,232,,19,40,245,48,29,56,214,50*61
$GBGSV,5,4,18,48,69,250,,02,08,105,34,37,04,108,,13,00,090,26*68
$GBGSV,5,5,18,23,01,017,,60,09,110,39*61
$GPGGA,011517.00,,,,,0,00,,,M,,M,,*4B
$PTNL,GGK,011517.00,010125,4742.1603657,N,01618.1001864,E,1,38,0.7,EHT751.3944,M*4D
$GPGGQ,011517.00,010125,4742.1603657,N,01618.1001864,E,1,38,0.875,708.1878,M*3E
$GPGFA,011517.00,3.369,6.109,0.354,0.291,6.068,0.745,,VVV*07
$GPLLK,011517.00,010125,,M,,M,1,38,0.8,,M*0B
$GNGMP,011517.00,,,,,DAAA,38,0.4,,,,*5A
$GPGMP,011517.00,,,,,,10,,,,2.1,136*78
$GLGMP,011517.00,,,,,,08,,,,,*74
$GAGMP,011517.00,,,,,,08,,,,,*79
$GBGMP,011517.00,,,,,,12,,,,,*71
$PSSN,SNC,[0,263735000,2347]*42
$GPZDA,011522.00,01,01,2025,,*66
$GPDTM,W84,,00.0000000,N,00.0000000,E,00.0000000,W84*5F
$PSSN,TFM,011522.00,,,,*6A
$GPRMC,011522.00,A,4742.1603656,N,01618.1001864,E,0.0,,010125,5.1,E,D*18
$GPGLL,4742.1603656,N,01618.1001864,E,011522.00,A,D*69
$GPGGA,011522.00,4742.1603656,N,01618.1001864,E,2,38,0.4,708.1857,M,43.2066,M,3.1,0136*4C
$GNGNS,011522.00,4742.1603656,N,01618.1001864,E,DAAA,38,0.4,708.1857,43.2066,,*56
$GPGNS,011522.00,,,,,,10,,,,3.1,136*7F
$GLGNS,011522.00,,,,,,08,,,,,*72
$GAGNS,011522.00,,,,,,08,,,,,*7F
$GBGNS,011522.00,,,,,,12,,,,,*77
$GPLLQ,011522.00,010125,,M,,M,1,38,0.888,,M*17
$GPVTG,,T,,M,0.00,N,0.01,K,D*27
$GPHDT,,T*1B
$GPTHS,,V*0E
$GPROT,,V*08
$PSSN,HRP,011522.00,010125,,,,,,,00,0,,*64
$PTNL,AVR,011522.00,,Yaw,,Tilt,,,,0,,00*32
$GPGSA,A,3,02,03,04,09,17,19,21,28,31,32,,,0.7,0.4,0.6*3F
$GPGSA,A,3,68,69,70,77,78,84,85,86,,,,,0.7,0.4,0.6*31
$GPGSA,A,3,04,05,06,09,10,11,34,36,,,,,0.7,0.4,0.6*3A
$GPGSA,A,3,05,06,09,16,19,20,29,30,32,35,39,60,0.7,0.4,0.6*33
$GPGST,011522.00,1.431,0.357,0.289,8.972,0.356,0.291,0.760*58
$GPGBS,011522.00,1.690,1.689,5.569,68,0.0001,5.417,7.054*53
$GPGRS,011522.00,1,-0.1,0.0,0.3,-0.5,0.2,-0.1,-0.3,-0.1,0.3,-0.2,,*4C
$GPGRS,011522.00,1,5.4,0.3,-0.4,-3.2,-3.4,0.1,1.3,-0.9,,,,*41
$GPGRS,011522.00,1,0.1,-0.4,0.1,0.4,0.5,0.1,0.1,0.1,,,,*62
$GPGRS,011522.00,1,1.6,-0.2,0.9,0.6,0.4,-1.5,0.3,0.1,0.7,-1.0,0.1,-0.9*4D
$GPGSV,6,1,21,03,76,321,50,09,17,216,39,28,27,066,42,19,26,311,43*7B
$GPGSV,6,2,21,31,29,098,44,04,43,203,46,21,38,146,43,17,39,278,46*79
$GPGSV,6,3,21,02,58,154,49,01,63,140,,06,04,311,36,32,07,045,40*7B
$GPGSV,6,4,21,36,35,170,45,58,13,245,38,40,24,132,36,34,31,208,42*75
$GPGSV,6,5,21,49,34,195,44,57,09,110,36,41,07,108,34,61,03,257,37*7C
$GPGSV,6,6,21*7A
$GLGSV,3,1,09,85,64,309,52,68,10,046,42,86,10,327,45,78,10,048,45*6C
$GLGSV,3,2,09,70,47,243,40,84,54,164,40,69,59,033,51,71,03,232,*63
$GLGSV,3,3,09,77,05,354,38*50
$GAGSV,3,1,12,06,73,132,48,04,58,068,46,34,14,309,39,09,58,188,48*69
$GAGSV,3,2,12,10,31,132,42,11,59,135,44,36,66,304,47,19,06,042,32*6C
$GAGSV,3,3,12,27,00,357,34,30,02,311,35,05,09,212,37,12,08,131,31*6F
$GBGSV,5,1,18,20,86,006,51,09,34,080,41,30,14,166,41,05,24,128,38*6A
$GBGSV,5,2,18,39,28,049,42,32,29,060,45,35,36,305,47,06,32,064,40*64
$GBGSV,5,3,18,16,31,060,43,22,38,233,,19,40,245,48,29,56,214,50*60
$GBGSV,5,4,18,48,69,250,,02,08,105,34,37,04,108,,13,00,090,26*68
$GBGSV,5,5,18,23,01,017,,60,09,110,39*61
$GPGGA,011522.00,,,,,0,00,,,M,,M,,*4D
$PTNL,GGK,011522.00,010125,4742.1603656,N,01618.1001864,E,1,38,0.7,EHT751.3923,M*4B
$GPGGQ,011522.00,010125,4742.1603656,N,01618.1001864,E,1,38,0.888,708.1857,M*36
$GPGFA,011522.00,3.397,6.229,0.357,0.289,8.972,0.760,,VVV*00
$GPLLK,011522.00,010125,,M,,M,1,38,0.8,,M*0D
$GNGMP,011522.00,,,,,DAAA,38,0.4,,,,*5C
$GPGMP,011522.00,,,,,,10,,,,3.1,136*7F
$GLGMP,011522.00,,,,,,08,,,,,*72
$GAGMP,011522.00,,,,,,08,,,,,*7F
$GBGMP,011522.00,,,,,,12,,,,,*77
$PSSN,SNC,[0,263740000,2347]*40
$GPZDA,011527.00,01,01,2025,,*63
$GPDTM,W84,,00.0000000,N,00.0000000,E,00.0000000,W84*5F
$PSSN,TFM,011527.00,,,,*6F
$GPRMC,011527.00,A,4742.1603646,N,01618.1001847,E,0.0,,010125,5.1,E,D*1D
$GPGLL,4742.1603646,N,01618.1001847,E,011527.00,A,D*6C
$GPGGA,011527.00,4742.1603646,N,01618.1001847,E,2,38,0.4,708.1855,M,43.2066,M,2.5,0136*4E
$GNGNS,011527.00,4742.1603646,N,01618.1001847,E,DAAA,38,0.4,708.1855,43.2066,,*51
$GPGNS,011527.00,,,,,,10,,,,2.5,136*7F
$GLGNS,011527.00,,,,,,08,,,,,*77
$GAGNS,011527.00,,,,,,08,,,,,*7A
$GBGNS,011527.00,,,,,,12,,,,,*72
$GPLLQ,011527.00,010125,,M,,M,1,38,0.879,,M*1C
$GPVTG,,T,,M,0.01,N,0.01,K,D*26
$GPHDT,,T*1B
$GPTHS,,V*0E
$GPROT,,V*08
$PSSN,HRP,011527.00,010125,,,,,,,00,0,,*61
$PTNL,AVR,011527.00,,Yaw,,Tilt,,,,0,,00*37
$GPGSA,A,3,02,03,04,09,17,19,21,28,31,32,,,0.7,0.4,0.6*3F
$GPGSA,A,3,68,69,70,77,78,84,85,86,,,,,0.7,0.4,0.6*31
$GPGSA,A,3,04,05,06,09,10,11,34,36,,,,,0.7,0.4,0.6*3A
$GPGSA,A,3,05,06,09,16,19,20,29,30,32,35,39,60,0.7,0.4,0.6*33
$GPGST,011527.00,1.383,0.356,0.293,7.556,0.355,0.294,0.749*51
$GPGBS,011527.00,1.689,1.664,5.228,21,0.0001,-0.530,0.698*7F
$GPGRS,011527.00,1,0.2,-0.1,0.2,-0.3,0.2,-0.3,-0.5,0.0,0.4,-0.2,,*63
$GPGRS,011527.00,1,5.1,-0.1,0.8,-3.2,-2.8,1.3,1.5,-0.6,,,,*48
$GPGRS,011527.00,1,-0.1,-0.8,-0.0,0.3,0.7,-0.0,0.2,0.0,,,,*41
$GPGRS,011527.00,1,1.5,-0.2,0.3,0.3,0.2,-1.4,0.6,0.2,0.9,-0.8,0.1,-1.0*4A
$GPGSV,6,1,21,03,76,321,50,09,17,216,39,28,27,066,42,19,26,310,43*7A
$GPGSV,6,2,21,31,29,098,44,04,43,203,46,21,38,146,43,17,39,278,46*79
$GPGSV,6,3,21,02,58,154,49,01,63,140,,06,04,311,37,32,07,045,40*7A
$GPGSV,6,4,21,36,35,170,45,58,13,245,37,40,24,132,36,34,31,208,43*7B
$GPGSV,6,5,21,49,34,195,44,57,09,110,36,41,07,108,34,61,03,257,38*73
$GPGSV,6,6,21*7A
$GLGSV,3,1,09,85,64,309,53,68,10,046,43,86,10,327,44,78,10,048,45*6D
$GLGSV,3,2,09,70,47,243,40,84,54,164,40,69,59,033,52,71,03,232,*60
$GLGSV,3,3,09,77,05,354,37*5F
$GAGSV,3,1,12,06,73,132,48,04,58,068,47,34,14,309,39,09,58,188,48*68
$GAGSV,3,2,12,10,31,132,42,11,59,135,45,36,66,304,47,19,06,042,32*6D
$GAGSV,3,3,12,27,00,357,34,30,02,311,35,05,09,212,37,12,08,131,31*6F
$GBGSV,5,1,18,20,85,006,52,09,34,080,41,30,14,166,41,05,24,128,39*6B
$GBGSV,5,2,18,39,28,049,42,32,29,060,45,35,36,305,47,06,32,064,41*65
$GBGSV,5,3,18,16,31,060,43,22,38,233,,19,40,245,48,29,56,214,50*60
$GBGSV,5,4,18,48,69,250,,02,08,105,34,37,04,108,,13,00,091,27*68
$GBGSV,5,5,18,23,01,017,,60,09,110,39*61
$GPGGA,011527.00,,,,,0,00,,,M,,M,,*48
$PTNL,GGK,011527.00,010125,4742.1603646,N,01618.1001847,E,1,38,0.7,EHT751.3921,M*4C
$GPGGQ,011527.00,010125,4742.1603646,N,01618.1001847,E,1,38,0.879,708.1855,M*3F
$GPGFA,011527.00,3.382,6.141,0.356,0.293,7.556,0.749,,VVV*08
$GPLLK,011527.00,010125,,M,,M,1,38,0.8,,M*08
$GNGMP,011527.00,,,,,DAAA,38,0.4,,,,*59
$GPGMP,011527.00,,,,,,10,,,,2.5,136*7F
$GLGMP,011527.00,,,,,,08,,,,,*77
$GAGMP,011527.00,,,,,,08,,,,,*7A
$GBGMP,011527.00,,,,,,12,,,,,*72
$PSSN,SNC,[0,263745000,2347]*45
$GPZDA,011532.00,01,01,2025,,*67
$GPDTM,W84,,00.0000000,N,00.0000000,E,00.0000000,W84*5F
$PSSN,TFM,011532.00,,,,*6B
$GPRMC,011532.00,A,4742.1603636,N,01618.1001831,E,0.0,,010125,5.1,E,D*1F
$GPGLL,4742.1603636,N,01618.1001831,E,011532.00,A,D*6E
$GPGGA,011532.00,4742.1603636,N,01618.1001831,E,2,37,0.4,708.1824,M,43.2066,M,2.3,0136*43
$GNGNS,011532.00,4742.1603636,N,01618.1001831,E,DAAA,37,0.4,708.1824,43.2066,,*5A
$GPGNS,011532.00,,,,,,10,,,,2.3,136*7D
$GLGNS,011532.00,,,,,,07,,,,,*7C
$GAGNS,011532.00,,,,,,08,,,,,*7E
$GBGNS,011532.00,,,,,,12,,,,,*76
$GPLLQ,011532.00,010125,,M,,M,1,37,0.865,,M*1A
$GPVTG,,T,,M,0.00,N,0.00,K,D*26
$GPHDT,,T*1B
$GPTHS,,V*0E
$GPROT,,V*08
$PSSN,HRP,011532.00,010125,,,,,,,00,0,,*65
$PTNL,AVR,011532.00,,Yaw,,Tilt,,,,0,,00*33
$GPGSA,A,3,02,03,04,09,17,19,21,28,31,32,,,0.8,0.4,0.6*30
$GPGSA,A,3,68,69,70,78,84,85,86,,,,,,0.8,0.4,0.6*3E
$GPGSA,A,3,04,05,06,09,10,11,34,36,,,,,0.8,0.4,0.6*35
$GPGSA,A,3,05,06,09,16,19,20,29,30,32,35,39,60,0.8,0.4,0.6*3C
$GPGST,011532.00,1.303,0.352,0.294,4.621,0.351,0.294,0.733*57
$GPGBS,011532.00,1.681,1.662,5.318,68,0.0001,5.020,6.725*57
$GPGRS,011532.00,1,-0.1,-0.1,0.3,-0.4,-0.0,0.0,-0.3,0.5,0.1,-0.3,,*49
$GPGRS,011532.00,1,5.0,0.4,0.6,-3.0,1.4,1.7,-1.4,,,,,*66
$GPGRS,011532.00,1,0.2,-0.8,0.2,0.3,0.6,-0.1,0.0,0.2,,,,*44
$GPGRS,011532.00,1,1.0,0.7,-0.0,0.3,0.0,-1.5,0.6,0.4,0.8,-0.9,-0.1,-1.2*67
$GPGSV,6,1,21,03,76,322,50,09,17,216,40,28,27,066,42,19,26,310,43*77
$GPGSV,6,2,21,31,29,098,44,04,43,203,46,21,38,146,43,17,39,278,46*79
$GPGSV,6,3,21,02,58,154,49,01,63,140,,06,04,311,37,32,07,045,40*7A
$GPGSV,6,4,21,36,35,170,45,58,13,245,38,40,24,132,36,34,31,208,42*75
$GPGSV,6,5,21,49,34,195,44,57,09,110,36,41,07,108,34,61,03,257,38*73
$GPGSV,6,6,21*7A
$GLGSV,3,1,09,85,64,309,52,68,10,046,43,86,10,327,45,78,10,048,44*6C
$GLGSV,3,2,09,70,47,243,39,84,54,164,40,69,59,033,52,71,03,232,*6E
$GLGSV,3,3,09,77,05,354,36*5E
$GAGSV,3,1,12,06,73,132,48,04,58,068,47,34,14,309,39,09,58,188,48*68
$GAGSV,3,2,12,10,31,132,42,11,59,135,45,36,66,304,47,19,06,042,33*6C
$GAGSV,3,3,12,27,00,357,34,30,02,311,36,05,09,212,37,12,08,131,32*6F
$GBGSV,5,1,18,20,85,007,52,09,34,080,41,30,14,166,41,05,24,128,38*6B
$GBGSV,5,2,18,39,28,049,42,32,29,060,45,35,36,305,47,06,32,064,41*65
$GBGSV,5,3,18,16,31,060,43,22,38,233,,19,40,245,48,29,56,214,50*60
$GBGSV,5,4,18,48,69,250,,02,08,105,34,37,04,108,,13,00,091,28*67
$GBGSV,5,5,18,23,01,017,,60,09,110,39*61
$GPGGA,011532.00,,,,,0,00,,,M,,M,,*4C
$PTNL,GGK,011532.00,010125,4742.1603636,N,01618.1001831,E,1,37,0.8,EHT751.3890,M*45
$GPGGQ,011532.00,010125,4742.1603636,N,01618.1001831,E,1,37,0.865,708.1824,M*39
$GPGFA,011532.00,3.343,6.013,0.352,0.294,4.621,0.733,,VVV*09
$GPLLK,011532.00,010125,,M,,M,1,37,0.9,,M*02
$GNGMP,011532.00,,,,,DAAA,37,0.4,,,,*52
$GPGMP,011532.00,,,,,,10,,,,2.3,136*7D
$GLGMP,011532.00,,,,,,07,,,,,*7C
$GAGMP,011532.00,,,,,,08,,,,,*7E
$GBGMP,011532.00,,,,,,12,,,,,*76
$PSSN,SNC,[0,263750000,2347]*41
$GPZDA,011537.00,01,01,2025,,*62
$GPDTM,W84,,00.0000000,N,00.0000000,E,00.0000000,W84*5F
$PSSN,TFM,011537.00,,,,*6E
$GPRMC,011537.00,A,4742.1603608,N,01618.1001814,E,0.0,,010125,5.1,E,D*10
$GPGLL,4742.1603608,N,01618.1001814,E,011537.00,A,D*61
$GPGGA,011537.00,4742.1603608,N,01618.1001814,E,2,37,0.4,708.1827,M,43.2066,M,2.1,0136*4D
$GNGNS,011537.00,4742.1603608,N,01618.1001814,E,DAAA,37,0.4,708.1827,43.2066,,*56
$GPGNS,011537.00,,,,,,10,,,,2.1,136*7A
$GLGNS,011537.00,,,,,,07,,,,,*79
$GAGNS,011537.00,,,,,,08,,,,,*7B
$GBGNS,011537.00,,,,,,12,,,,,*73
$GPLLQ,011537.00,010125,,M,,M,1,37,0.874,,M*1F
$GPVTG,,T,,M,0.00,N,0.01,K,D*27
$GPHDT,,T*1B
$GPTHS,,V*0E
$GPROT,,V*08
$PSSN,HRP,011537.00,010125,,,,,,,00,0,,*60
$PTNL,AVR,011537.00,,Yaw,,Tilt,,,,0,,00*36
$GPGSA,A,3,02,03,04,09,17,19,21,28,31,32,,,0.8,0.4,0.6*30
$GPGSA,A,3,68,69,70,78,84,85,86,,,,,,0.8,0.4,0.6*3E
$GPGSA,A,3,04,05,06,09,10,11,34,36,,,,,0.8,0.4,0.6*35
$GPGSA,A,3,05,06,09,16,19,20,29,30,32,35,39,60,0.8,0.4,0.6*3C
$GPGST,011537.00,1.238,0.353,0.291,5.190,0.353,0.292,0.744*57
$GPGBS,011537.00,1.658,1.669,5.471,68,0.0001,5.163,6.727*51
$GPGRS,011537.00,1,-0.2,0.0,-0.1,0.1,0.1,0.2,-0.5,0.5,0.3,-0.5,,*48
$GPGRS,011537.00,1,5.2,-0.3,-0.7,-2.8,-0.0,1.3,-0.6,,,,,*41
$GPGRS,011537.00,1,0.0,-0.7,0.1,0.3,0.4,-0.1,-0.4,0.2,,,,*64
$GPGRS,011537.00,1,1.3,0.5,0.0,-0.0,0.0,-1.6,0.3,-0.2,0.6,-1.1,-0.0,-1.1*48
$GPGSV,6,1,21,03,76,322,50,09,17,216,40,28,27,066,43,19,26,310,43*76
$GPGSV,6,2,21,31,29,098,45,04,43,203,46,21,38,146,43,17,39,278,46*78
$GPGSV,6,3,21,02,58,154,49,01,63,140,,06,04,311,38,32,07,045,40*75
$GPGSV,6,4,21,36,35,170,45,58,13,245,37,40,24,132,36,34,31,208,42*7A
$GPGSV,6,5,21,49,34,195,44,57,09,110,36,41,07,108,35,61,03,257,37*7D
$GPGSV,6,6,21*7A
$GLGSV,3,1,09,85,64,309,52,68,10,046,43,86,10,327,45,78,10,048,44*6C
$GLGSV,3,2,09,70,48,243,40,84,54,164,39,69,59,033,52,71,03,232,*61
$GLGSV,3,3,09,77,05,354,37*5F
$GAGSV,3,1,12,06,73,132,48,04,58,068,46,34,14,309,39,09,58,188,48*69
$GAGSV,3,2,12,10,31,132,42,11,59,135,44,36,66,304,47,19,06,042,32*6C
$GAGSV,3,3,12,27,00,357,33,30,02,311,36,05,09,212,38,12,08,131,32*67
$GBGSV,5,1,18,20,85,007,51,09,34,080,41,30,14,166,41,05,24,128,38*68
$GBGSV,5,2,18,39,28,049,42,32,29,060,45,35,36,305,47,06,32,064,41*65
$GBGSV,5,3,18,16,31,060,43,22,38,233,,19,40,245,48,29,56,214,50*60
$GBGSV,5,4,18,48,69,250,,02,08,105,34,37,04,108,,13,00,091,27*68
$GBGSV,5,5,18,23,01,017,,60,09,110,39*61
$GPGGA,011537.00,,,,,0,00,,,M,,M,,*49
$PTNL,GGK,011537.00,010125,4742.1603608,N,01618.1001814,E,1,37,0.8,EHT751.3893,M*49
$GPGGQ,011537.00,010125,4742.1603608,N,01618.1001814,E,1,37,0.874,708.1827,M*35
$GPGFA,011537.00,3.358,6.102,0.353,0.291,5.190,0.744,,VVV*0F
$GPLLK,011537.00,010125,,M,,M,1,37,0.9,,M*07
$GNGMP,011537.00,,,,,DAAA,37,0.4,,,,*57
$GPGMP,011537.00,,,,,,10,,,,2.1,136*7A
$GLGMP,011537.00,,,,,,07,,,,,*79
$GAGMP,011537.00,,,,,,08,,,,,*7B
$GBGMP,011537.00,,,,,,12,,,,,*73
$PSSN,SNC,[0,263755000,2347]*44
$GPZDA,011542.00,01,01,2025,,*60
$GPDTM,W84,,00.0000000,N,00.0000000,E,00.0000000,W84*5F
$PSSN,TFM,011542.00,,,,*6C
$GPRMC,011542.00,A,4742.1603599,N,01618.1001805,E,0.0,,010125,5.1,E,D*19
$GPGLL,4742.1603599,N,01618.1001805,E,011542.00,A,D*68
$GPGGA,011542.00,4742.1603599,N,01618.1001805,E,2,37,0.4,708.1871,M,43.2066,M,3.1,0136*46
$GNGNS,011542.00,4742.1603599,N,01618.1001805,E,DAAA,37,0.4,708.1871,43.2066,,*5C
$GPGNS,011542.00,,,,,,10,,,,3.1,136*79
$GLGNS,011542.00,,,,,,07,,,,,*7B
$GAGNS,011542.00,,,,,,08,,,,,*79
$GBGNS,011542.00,,,,,,12,,,,,*71
$GPLLQ,011542.00,010125,,M,,M,1,37,0.886,,M*10
$GPVTG,,T,,M,0.00,N,0.00,K,D*26
$GPHDT,,T*1B
$GPTHS,,V*0E
$GPROT,,V*08
$PSSN,HRP,011542.00,010125,,,,,,,00,0,,*62
$PTNL,AVR,011542.00,,Yaw,,Tilt,,,,0,,00*34
$GPGSA,A,3,02,03,04,09,17,19,21,28,31,32,,,0.8,0.4,0.6*30
$GPGSA,A,3,68,69,70,78,84,85,86,,,,,,0.8,0.4,0.6*3E
$GPGSA,A,3,04,05,06,09,10,11,34,36,,,,,0.8,0.4,0.6*35
$GPGSA,A,3,05,06,09,16,19,20,29,30,32,35,39,60,0.8,0.4,0.6*3C
$GPGST,011542.00,1.283,0.356,0.289,8.135,0.355,0.291,0.758*53
$GPGBS,011542.00,1.672,1.693,5.587,68,0.0001,4.704,6.728*5F
$GPGRS,011542.00,1,-0.2,-0.2,0.4,-0.0,-0.3,0.1,-0.3,0.4,0.5,-0.6,,*4F
$GPGRS,011542.00,1,4.7,-0.4,0.5,-3.5,0.6,1.2,-0.6,,,,,*49
$GPGRS,011542.00,1,0.2,-0.5,0.2,0.1,0.5,-0.0,-0.3,0.2,,,,*60
$GPGRS,011542.00,1,1.6,0.8,1.1,-0.2,0.2,-1.7,0.4,-0.2,0.7,-1.1,0.1,-1.2*6A
$GPGSV,6,1,21,03,76,322,50,09,17,216,40,28,27,066,43,19,26,310,43*76
$GPGSV,6,2,21,31,29,098,45,04,43,203,46,21,38,146,43,17,39,278,46*78
$GPGSV,6,3,21,02,58,154,49,01,63,140,,06,05,311,37,32,07,045,39*75
$GPGSV,6,4,21,36,35,170,45,58,13,245,37,40,24,132,36,34,31,208,42*7A
$GPGSV,6,5,21,49,34,195,44,57,09,110,36,41,07,108,34,61,03,257,37*7C
$GPGSV,6,6,21*7A
$GLGSV,3,1,09,85,64,309,52,68,10,046,43,86,10,327,44,78,10,048,44*6D
$GLGSV,3,2,09,70,48,243,40,84,54,164,40,69,59,033,51,71,03,232,*6C
$GLGSV,3,3,09,77,05,354,38*50
$GAGSV,3,1,12,06,73,132,48,04,58,068,47,34,14,309,39,09,58,188,48*68
$GAGSV,3,2,12,10,31,132,42,11,59,135,45,36,66,304,48,19,06,042,32*62
$GAGSV,3,3,12,27,00,357,34,30,02,311,35,05,09,212,38,12,08,131,33*62
$GBGSV,5,1,18,20,85,007,51,09,34,080,41,30,14,166,41,05,24,128,38*68
$GBGSV,5,2,18,39,28,049,42,32,29,060,45,35,36,305,47,06,32,064,41*65
$GBGSV,5,3,18,16,31,060,43,22,38,233,,19,40,245,48,29,56,214,50*60
$GBGSV,5,4,18,48,69,250,,02,08,105,34,37,04,108,,13,00,091,28*67
$GBGSV,5,5,18,23,01,017,,60,09,110,39*61
$GPGGA,011542.00,,,,,0,00,,,M,,M,,*4B
$PTNL,GGK,011542.00,010125,4742.1603599,N,01618.1001805,E,1,37,0.8,EHT751.3937,M*4F
$GPGGQ,011542.00,010125,4742.1603599,N,01618.1001805,E,1,37,0.886,708.1871,M*32
$GPGFA,011542.00,3.383,6.218,0.356,0.289,8.135,0.758,,VVV*00
$GPLLK,011542.00,010125,,M,,M,1,37,0.9,,M*05
$GNGMP,011542.00,,,,,DAAA,37,0.4,,,,*55
$GPGMP,011542.00,,,,,,10,,,,3.1,136*79
$GLGMP,011542.00,,,,,,07,,,,,*7B
$GAGMP,011542.00,,,,,,08,,,,,*79
$GBGMP,011542.00,,,,,,12,,,,,*71
$PSSN,SNC,[0,263760000,2347]*42
$GPZDA,011547.00,01,01,2025,,*65
$GPDTM,W84,,00.0000000,N,00.0000000,E,00.0000000,W84*5F
$PSSN,TFM,011547.00,,,,*69
$GPRMC,011547.00,A,4742.1603596,N,01618.1001768,E,0.0,,010125,5.1,E,D*17
$GPGLL,4742.1603596,N,01618.1001768,E,011547.00,A,D*66
$GPGGA,011547.00,4742.1603596,N,01618.1001768,E,2,37,0.4,708.1921,M,43.2066,M,2.5,0136*49
$GNGNS,011547.00,4742.1603596,N,01618.1001768,E,DAAA,37,0.4,708.1921,43.2066,,*56
$GPGNS,011547.00,,,,,,10,,,,2.5,136*79
$GLGNS,011547.00,,,,,,07,,,,,*7E
$GAGNS,011547.00,,,,,,08,,,,,*7C
$GBGNS,011547.00,,,,,,12,,,,,*74
$GPLLQ,011547.00,010125,,M,,M,1,37,0.883,,M*10
$GPVTG,,T,,M,0.00,N,0.01,K,D*27
$GPHDT,,T*1B
$GPTHS,,V*0E
$GPROT,,V*08
$PSSN,HRP,011547.00,010125,,,,,,,00,0,,*67
$PTNL,AVR,011547.00,,Yaw,,Tilt,,,,0,,00*31
$GPGSA,A,3,02,03,04,09,17,19,21,28,31,32,,,0.8,0.4,0.6*30
$GPGSA,A,3,68,69,70,78,84,85,86,,,,,,0.8,0.4,0.6*3E
$GPGSA,A,3,04,05,06,09,10,11,34,36,,,,,0.8,0.4,0.6*35
$GPGSA,A,3,05,06,09,16,19,20,29,30,32,35,39,60,0.8,0.4,0.6*3C
$GPGST,011547.00,1.343,0.356,0.293,7.196,0.355,0.294,0.753*58
$GPGBS,011547.00,1.682,1.666,5.260,68,0.0001,4.725,6.731*5A
$GPGRS,011547.00,1,-0.1,-0.1,0.3,-0.2,-0.2,-0.0,-0.2,0.3,0.4,-0.9,,*6A
$GPGRS,011547.00,1,4.7,-0.4,0.3,-3.6,0.6,1.3,-1.1,,,,,*4E
$GPGRS,011547.00,1,0.0,-0.4,0.2,0.4,0.7,0.2,-0.4,0.2,,,,*49
$GPGRS,011547.00,1,1.2,1.3,1.6,0.0,0.1,-1.7,0.3,-0.1,0.5,-1.4,0.1,-1.5*4E
$GPGSV,6,1,21,03,76,322,50,09,17,216,40,28,27,066,43,19,26,310,43*76
$GPGSV,6,2,21,31,29,098,44,04,43,203,47,21,38,146,43,17,39,278,46*78
$GPGSV,6,3,21,02,58,154,49,01,63,140,,06,05,311,37,32,07,045,39*75
$GPGSV,6,4,21,36,35,170,45,58,13,245,37,40,24,132,36,34,31,208,42*7A
$GPGSV,6,5,21,49,34,195,44,57,09,110,36,41,07,108,34,61,03,257,37*7C
$GPGSV,6,6,21*7A
$GLGSV,3,1,09,85,64,309,52,68,10,046,43,86,11,327,45,78,11,048,44*6C
$GLGSV,3,2,09,70,48,244,40,84,54,164,40,69,59,033,51,71,03,232,*6B
$GLGSV,3,3,09,77,05,354,37*5F
$GAGSV,3,1,12,06,73,132,48,04,58,068,47,34,14,309,39,09,58,188,48*68
$GAGSV,3,2,12,10,31,132,42,11,59,135,45,36,66,304,48,19,05,042,32*61
$GAGSV,3,3,12,27,00,357,34,30,02,311,35,05,09,212,38,12,08,131,32*63
$GBGSV,5,1,18,20,85,008,51,09,34,080,41,30,14,166,41,05,24,128,38*67
$GBGSV,5,2,18,39,28,049,43,32,28,060,45,35,36,305,47,06,32,064,41*65
$GBGSV,5,3,18,16,31,060,43,22,38,233,,19,40,245,48,29,56,214,50*60
$GBGSV,5,4,18,48,69,250,,02,08,105,34,37,04,108,,13,00,091,27*68
$GBGSV,5,5,18,23,01,017,,60,09,110,40*6F
$GPGGA,011547.00,,,,,0,00,,,M,,M,,*4E
$PTNL,GGK,011547.00,010125,4742.1603596,N,01618.1001768,E,1,37,0.8,EHT751.3986,M*4B
$GPGGQ,011547.00,010125,4742.1603596,N,01618.1001768,E,1,37,0.883,708.1921,M*3D
$GPGFA,011547.00,3.387,6.173,0.356,0.293,7.196,0.753,,VVV*09
$GPLLK,011547.00,010125,,M,,M,1,37,0.9,,M*00
$GNGMP,011547.00,,,,,DAAA,37,0.4,,,,*50
$GPGMP,011547.00,,,,,,10,,,,2.5,136*79
$GLGMP,011547.00,,,,,,07,,,,,*7E
$GAGMP,011547.00,,,,,,08,,,,,*7C
$GBGMP,011547.00,,,,,,12,,,,,*74
$PSSN,SNC,[0,263765000,2347]*47
$GPZDA,011552.00,01,01,2025,,*61
$GPDTM,W84,,00.0000000,N,00.0000000,E,00.0000000,W84*5F
$PSSN,TFM,011552.00,,,,*6D
$GPRMC,011552.00,A,4742.1603613,N,01618.1001749,E,0.0,,010125,5.1,E,D*1E
$GPGLL,4742.1603613,N,01618.1001749,E,011552.00,A,D*6F
$GPGGA,011552.00,4742.1603613,N,01618.1001749,E,2,37,0.4,708.1886,M,43.2066,M,2.3,0136*4A
$GNGNS,011552.00,4742.1603613,N,01618.1001749,E,DAAA,37,0.4,708.1886,43.2066,,*53
$GPGNS,011552.00,,,,,,10,,,,2.3,136*7B
$GLGNS,011552.00,,,,,,07,,,,,*7A
$GAGNS,011552.00,,,,,,08,,,,,*78
$GBGNS,011552.00,,,,,,12,,,,,*70
$GPLLQ,011552.00,010125,,M,,M,1,37,0.866,,M*1F
$GPVTG,,T,,M,0.00,N,0.00,K,D*26
$GPHDT,,T*1B
$GPTHS,,V*0E
$GPROT,,V*08
$PSSN,HRP,011552.00,010125,,,,,,,00,0,,*63
$PTNL,AVR,011552.00,,Yaw,,Tilt,,,,0,,00*35
$GPGSA,A,3,02,03,04,09,17,19,21,28,31,32,,,0.8,0.4,0.6*30
$GPGSA,A,3,68,69,70,78,84,85,86,,,,,,0.8,0.4,0.6*3E
$GPGSA,A,3,04,05,06,09,10,11,34,36,,,,,0.8,0.4,0.6*35
$GPGSA,A,3,05,06,09,16,19,20,29,30,32,35,39,60,0.8,0.4,0.6*3C
$GPGST,011552.00,1.203,0.351,0.294,4.288,0.351,0.294,0.735*52
$GPGBS,011552.00,1.671,1.663,5.340,32,0.0001,-1.183,1.977*72
$GPGRS,011552.00,1,-0.1,0.2,0.1,-0.0,-0.0,-0.2,-0.1,0.2,0.1,-1.2,,*4D
$GPGRS,011552.00,1,3.6,0.1,-1.0,-2.9,0.7,1.7,-1.9,,,,,*48
$GPGRS,011552.00,1,0.2,-0.3,-0.1,0.4,0.6,0.0,-0.7,0.0,,,,*64
$GPGRS,011552.00,1,1.9,1.4,1.4,0.1,0.0,-1.5,0.2,0.0,0.6,-0.9,0.2,-1.0*62
$GPGSV,6,1,21,03,76,322,50,09,17,216,41,28,27,065,43,19,26,310,42*75
$GPGSV,6,2,21,31,29,098,45,04,43,203,46,21,38,146,43,17,39,278,45*7B
$GPGSV,6,3,21,02,58,154,49,01,63,140,,06,05,311,36,32,07,045,38*75
$GPGSV,6,4,21,36,35,170,45,58,13,245,37,40,24,132,36,34,31,208,42*7A
$GPGSV,6,5,21,49,34,195,44,57,09,110,36,41,07,108,35,61,03,257,37*7D
$GPGSV,6,6,21*7A
$GLGSV,3,1,09,85,64,309,53,78,11,048,43,86,11,327,45,70,48,244,40*6D
$GLGSV,3,2,09,84,54,164,39,69,59,033,52,77,05,354,36,68,10,046,43*65
$GLGSV,3,3,09,71,03,232,*5A
$GAGSV,3,1,12,06,73,132,48,04,58,068,47,34,14,309,39,09,58,188,48*68
$GAGSV,3,2,12,10,31,132,43,11,59,135,45,36,66,304,48,19,05,042,32*60
$GAGSV,3,3,12,27,00,357,33,30,02,311,36,05,09,212,38,12,08,131,32*67
$GBGSV,5,1,18,20,85,008,51,05,24,128,38,39,28,049,43,30,14,166,41*6E
$GBGSV,5,2,18,09,34,080,42,32,28,060,46,35,36,305,47,06,32,064,41*6C
$GBGSV,5,3,18,16,31,060,43,22,38,233,,19,40,245,48,29,56,214,50*60
$GBGSV,5,4,18,48,69,250,,13,00,091,29,37,04,108,,02,08,105,34*66
$GBGSV,5,5,18,23,01,017,,60,09,110,39*61
$GPGGA,011552.00,,,,,0,00,,,M,,M,,*4A
$PTNL,GGK,011552.00,010125,4742.1603613,N,01618.1001749,E,1,37,0.8,EHT751.3951,M*48
$GPGGQ,011552.00,010125,4742.1603613,N,01618.1001749,E,1,37,0.866,708.1886,M*33
$GPGFA,011552.00,3.341,6.023,0.351,0.294,4.288,0.735,,VVV*0C
$GPLLK,011552.00,010125,,M,,M,1,37,0.9,,M*04
$GNGMP,011552.00,,,,,DAAA,37,0.4,,,,*54
$GPGMP,011552.00,,,,,,10,,,,2.3,136*7B
$GLGMP,011552.00,,,,,,07,,,,,*7A
$GAGMP,011552.00,,,,,,08,,,,,*78
$GBGMP,011552.00,,,,,,12,,,,,*70
$PSSN,SNC,[0,263770000,2347]*43
$GPZDA,011557.00,01,01,2025,,*64
$GPDTM,W84,,00.0000000,N,00.0000000,E,00.0000000,W84*5F
$PSSN,TFM,011557.00,,,,*68
$GPRMC,011557.00,A,4742.1603617,N,01618.1001733,E,0.0,,010125,5.1,E,D*12
$GPGLL,4742.1603617,N,01618.1001733,E,011557.00,A,D*63
$GPGGA,011557.00,4742.1603617,N,01618.1001733,E,2,37,0.4,708.1866,M,43.2066,M,2.1,0136*4A
$GNGNS,011557.00,4742.1603617,N,01618.1001733,E,DAAA,37,0.4,708.1866,43.2066,,*51
$GPGNS,011557.00,,,,,,10,,,,2.1,136*7C
$GLGNS,011557.00,,,,,,07,,,,,*7F
$GAGNS,011557.00,,,,,,08,,,,,*7D
$GBGNS,011557.00,,,,,,12,,,,,*75
$GPLLQ,011557.00,010125,,M,,M,1,37,0.874,,M*19
$GPVTG,,T,,M,0.00,N,0.00,K,D*26
$GPHDT,,T*1B
$GPTHS,,V*0E
$GPROT,,V*08
$PSSN,HRP,011557.00,010125,,,,,,,00,0,,*66
$PTNL,AVR,011557.00,,Yaw,,Tilt,,,,0,,00*30
$GPGSA,A,3,02,03,04,09,17,19,21,28,31,32,,,0.8,0.4,0.6*30
$GPGSA,A,3,68,69,70,78,84,85,86,,,,,,0.8,0.4,0.6*3E
$GPGSA,A,3,04,05,06,09,10,11,34,36,,,,,0.8,0.4,0.6*35
$GPGSA,A,3,05,06,09,16,19,20,29,30,32,35,39,60,0.8,0.4,0.6*3C
$GPGST,011557.00,1.143,0.353,0.291,4.784,0.353,0.292,0.745*5D
$GPGBS,011557.00,1.647,1.669,5.489,09,0.0001,0.585,0.935*5B
$GPGRS,011557.00,1,-0.1,0.0,-0.0,0.6,0.0,-0.3,0.1,-0.1,0.3,-1.2,,*60
$GPGRS,011557.00,1,3.4,0.4,0.6,-3.5,0.5,1.2,-1.4,,,,,*67
$GPGRS,011557.00,1,0.0,-0.5,0.0,0.3,0.6,-0.0,-0.2,-0.1,,,,*4A
$GPGRS,011557.00,1,1.1,1.4,0.6,0.2,0.2,-1.4,0.4,-0.5,0.6,-1.0,-0.2,-1.2*65
$GPGSV,6,1,21,03,76,322,50,09,17,216,41,28,27,065,44,19,26,310,43*73
$GPGSV,6,2,21,31,29,098,45,04,43,203,46,21,38,146,43,17,39,278,45*7B
$GPGSV,6,3,21,02,58,154,49,01,63,141,,06,05,311,38,32,07,045,38*7A
$GPGSV,6,4,21,36,35,170,45,58,13,245,38,40,24,132,36,34,31,208,43*74
$GPGSV,6,5,21,49,34,195,44,57,09,110,36,41,07,108,34,61,03,257,38*73
$GPGSV,6,6,21*7A
$GLGSV,3,1,09,85,64,309,52,78,11,048,44,86,11,327,45,70,48,244,40*6B
$GLGSV,3,2,09,84,54,164,40,69,58,033,51,77,05,354,36,68,10,046,42*68
$GLGSV,3,3,09,71,03,232,*5A
$GAGSV,3,1,12,06,73,132,48,04,58,068,46,34,14,309,39,09,58,188,48*69
$GAGSV,3,2,12,10,31,132,43,11,59,135,44,36,66,304,47,19,05,042,32*6E
$GAGSV,3,3,12,27,00,357,34,30,02,311,36,05,10,212,38,12,08,131,32*68
$GBGSV,5,1,18,20,85,008,51,05,24,128,38,39,28,049,42,30,14,166,41*6F
$GBGSV,5,2,18,09,34,080,42,32,28,060,46,35,36,305,47,06,32,064,41*6C
$GBGSV,5,3,18,16,31,060,42,22,38,233,,19,40,245,48,29,56,214,50*61
$GBGSV,5,4,18,48,69,250,,13,00,091,29,37,04,108,,02,08,105,34*66
$GBGSV,5,5,18,23,01,017,,60,09,110,40*6F
$GPGGA,011557.00,,,,,0,00,,,M,,M,,*4F
$PTNL,GGK,011557.00,010125,4742.1603617,N,01618.1001733,E,1,37,0.8,EHT751.3932,M*41
$GPGGQ,011557.00,010125,4742.1603617,N,01618.1001733,E,1,37,0.874,708.1866,M*32
$GPGFA,011557.00,3.356,6.110,0.353,0.291,4.784,0.745,,VVV*07
$GPLLK,011557.00,010125,,M,,M,1,37,0.9,,M*01
$GNGMP,011557.00,,,,,DAAA,37,0.4,,,,*51
$GPGMP,011557.00,,,,,,10,,,,2.1,136*7C
$GLGMP,011557.00,,,,,,07,,,,,*7F
$GAGMP,011557.00,,,,,,08,,,,,*7D
$GBGMP,011557.00,,,,,,12,,,,,*75
$PSSN,SNC,[0,263775000,2347]*46
$GPZDA,011602.00,01,01,2025,,*67
$GPDTM,W84,,00.0000000,N,00.0000000,E,00.0000000,W84*5F
$PSSN,TFM,011602.00,,,,*6B
$GPRMC,011602.00,A,4742.1603630,N,01618.1001738,E,0.0,,010125,5.1,E,D*1F
$GPGLL,4742.1603630,N,01618.1001738,E,011602.00,A,D*6E
$GPGGA,011602.00,4742.1603630,N,01618.1001738,E,2,37,0.4,708.1905,M,43.2066,M,3.1,0136*42
$GNGNS,011602.00,4742.1603630,N,01618.1001738,E,DAAA,37,0.4,708.1905,43.2066,,*58
$GPGNS,011602.00,,,,,,10,,,,3.1,136*7E
$GLGNS,011602.00,,,,,,07,,,,,*7C
$GAGNS,011602.00,,,,,,08,,,,,*7E
$GBGNS,011602.00,,,,,,12,,,,,*76
$GPLLQ,011602.00,010125,,M,,M,1,37,0.887,,M*16
$GPVTG,,T,,M,0.00,N,0.01,K,D*27
$GPHDT,,T*1B
$GPTHS,,V*0E
$GPROT,,V*08
$PSSN,HRP,011602.00,010125,,,,,,,00,0,,*65
$PTNL,AVR,011602.00,,Yaw,,Tilt,,,,0,,00*33
$GPGSA,A,3,02,03,04,09,17,19,21,28,31,32,,,0.8,0.4,0.6*30
$GPGSA,A,3,68,69,70,78,84,85,86,,,,,,0.8,0.4,0.6*3E
$GPGSA,A,3,04,05,06,09,10,11,34,36,,,,,0.8,0.4,0.6*35
$GPGSA,A,3,05,06,09,16,19,20,29,30,32,35,39,60,0.8,0.4,0.6*3C
$GPGST,011602.00,1.051,0.356,0.289,7.844,0.354,0.290,0.759*58
$GPGBS,011602.00,1.664,1.694,5.608,31,0.0001,0.651,0.787*56
$GPGRS,011602.00,1,-0.2,-0.1,0.1,0.1,-0.2,0.4,0.1,-0.6,0.7,-0.7,,*65
$GPGRS,011602.00,1,3.7,-0.1,0.5,-2.5,0.2,0.8,-1.0,,,,,*45
$GPGRS,011602.00,1,-0.1,-0.5,0.2,0.2,0.4,-0.0,-0.1,0.3,,,,*48
$GPGRS,011602.00,1,1.3,1.2,0.4,0.2,0.1,-1.5,0.3,-0.6,0.6,-1.1,-0.3,-1.2*66
$GPGSV,6,1,21,03,76,323,50,09,17,216,40,28,27,065,43,19,26,310,43*74
$GPGSV,6,2,21,31,29,098,45,04,44,203,46,21,38,146,43,17,39,278,46*7F
$GPGSV,6,3,21,02,58,154,49,01,63,141,,06,05,311,37,32,07,045,38*75
$GPGSV,6,4,21,36,35,170,45,58,13,245,37,40,24,132,36,34,31,208,42*7A
$GPGSV,6,5,21,49,34,195,44,57,09,110,36,41,07,108,34,61,03,257,37*7C
$GPGSV,6,6,21*7A
$GLGSV,3,1,09,85,64,308,52,78,11,048,45,86,11,327,44,70,48,244,40*6A
$GLGSV,3,2,09,84,54,164,39,69,58,033,51,77,05,353,37,68,10,046,43*61
$GLGSV,3,3,09,71,03,232,*5A
$GAGSV,3,1,12,06,73,131,48,04,58,068,46,34,14,309,39,09,58,188,48*6A
$GAGSV,3,2,12,10,31,132,43,11,59,135,44,36,66,304,47,19,05,042,32*6E
$GAGSV,3,3,12,27,00,357,33,30,02,311,36,05,10,212,38,12,08,131,32*6F
$GBGSV,5,1,18,20,85,008,51,05,24,128,39,39,28,049,42,30,14,166,42*6D
$GBGSV,5,2,18,09,34,080,42,32,28,060,46,35,36,305,47,06,32,064,41*6C
$GBGSV,5,3,18,16,31,060,42,22,38,233,,19,40,245,48,29,55,213,50*65
$GBGSV,5,4,18,48,69,250,,13,00,091,29,37,04,108,,02,08,105,34*66
$GBGSV,5,5,18,23,01,017,,60,09,110,39*61
$GPGGA,011602.00,,,,,0,00,,,M,,M,,*4C
$PTNL,GGK,011602.00,010125,4742.1603630,N,01618.1001738,E,1,37,0.8,EHT751.3970,M*4A
$GPGGQ,011602.00,010125,4742.1603630,N,01618.1001738,E,1,37,0.887,708.1905,M*37
$GPGFA,011602.00,3.381,6.228,0.356,0.289,7.844,0.759,,VVV*07
$GPLLK,011602.00,010125,,M,,M,1,37,0.9,,M*02
$GNGMP,011602.00,,,,,DAAA,37,0.4,,,,*52
$GPGMP,011602.00,,,,,,10,,,,3.1,136*7E
$GLGMP,011602.00,,,,,,07,,,,,*7C
$GAGMP,011602.00,,,,,,08,,,,,*7E
$GBGMP,011602.00,,,,,,12,,,,,*76
$PSSN,SNC,[0,263780000,2347]*4C
$GPZDA,011607.00,01,01,2025,,*62
$GPDTM,W84,,00.0000000,N,00.0000000,E,00.0000000,W84*5F
$PSSN,TFM,011607.00,,,,*6E
$GPRMC,011607.00,A,4742.1603635,N,01618.1001746,E,0.0,,010125,5.1,E,D*16
$GPGLL,4742.1603635,N,01618.1001746,E,011607.00,A,D*67
$GPGGA,011607.00,4742.1603635,N,01618.1001746,E,2,37,0.4,708.1903,M,43.2066,M,2.5,0136*48
$GNGNS,011607.00,4742.1603635,N,01618.1001746,E,DAAA,37,0.4,708.1903,43.2066,,*57
$GPGNS,011607.00,,,,,,10,,,,2.5,136*7E
$GLGNS,011607.00,,,,,,07,,,,,*79
$GAGNS,011607.00,,,,,,08,,,,,*7B
$GBGNS,011607.00,,,,,,12,,,,,*73
$GPLLQ,011607.00,010125,,M,,M,1,37,0.884,,M*10
$GPVTG,,T,,M,0.00,N,0.01,K,D*27
$GPHDT,,T*1B
$GPTHS,,V*0E
$GPROT,,V*08
$PSSN,HRP,011607.00,010125,,,,,,,00,0,,*60
$PTNL,AVR,011607.00,,Yaw,,Tilt,,,,0,,00*36
$GPGSA,A,3,02,03,04,09,17,19,21,28,31,32,,,0.8,0.4,0.6*30
$GPGSA,A,3,68,69,70,78,84,85,86,,,,,,0.8,0.4,0.6*3E
$GPGSA,A,3,04,05,06,09,10,11,34,36,,,,,0.8,0.4,0.6*35
$GPGSA,A,3,05,06,09,16,19,20,29,30,32,35,39,60,0.8,0.4,0.6*3C
$GPGST,011607.00,1.244,0.356,0.293,6.952,0.355,0.294,0.754*5F
$GPGBS,011607.00,1.673,1.667,5.283,68,0.0001,5.106,6.748*57
$GPGRS,011607.00,1,-0.1,0.1,0.4,-0.7,0.1,0.1,-0.2,-0.3,0.2,-0.3,,*61
$GPGRS,011607.00,1,5.1,-0.2,0.6,-2.4,0.4,1.5,-1.3,,,,,*48
$GPGRS,011607.00,1,0.1,-0.5,0.0,0.3,0.3,0.0,-0.5,0.4,,,,*4A
$GPGRS,011607.00,1,1.4,0.8,0.4,0.1,0.0,-1.5,0.4,-0.3,0.8,-1.0,-0.3,-1.1*63
$GPGSV,6,1,21,03,76,323,50,09,17,216,40,28,27,065,43,19,26,310,43*74
$GPGSV,6,2,21,31,29,098,44,04,44,203,47,21,38,146,43,17,39,278,46*7F
$GPGSV,6,3,21,02,58,154,49,01,63,141,,06,05,311,37,32,07,045,37*7A
$GPGSV,6,4,21,36,35,170,45,58,13,245,37,40,24,132,36,34,31,208,42*7A
$GPGSV,6,5,21,49,34,195,44,57,09,110,36,41,07,108,34,61,03,257,37*7C
$GPGSV,6,6,21*7A
$GLGSV,3,1,09,85,64,308,52,78,11,048,44,86,11,327,45,70,48,244,40*6A
$GLGSV,3,2,09,84,54,164,39,69,58,034,51,77,05,353,37,68,10,046,43*66
$GLGSV,3,3,09,71,03,232,*5A
$GAGSV,3,1,12,06,73,131,48,04,58,068,47,34,14,309,39,09,58,188,48*6B
$GAGSV,3,2,12,10,31,132,43,11,59,135,44,36,66,304,47,19,05,042,32*6E
$GAGSV,3,3,12,27,00,357,34,30,02,311,36,05,10,212,37,12,08,131,32*67
$GBGSV,5,1,18,20,85,009,51,05,24,128,38,39,28,049,42,30,14,166,42*6D
$GBGSV,5,2,18,09,35,080,41,32,28,060,45,35,36,305,47,06,32,064,41*6D
$GBGSV,5,3,18,16,31,060,42,22,38,233,,19,40,245,47,29,55,213,50*6A
$GBGSV,5,4,18,48,69,250,,13,00,091,29,37,04,108,,02,08,105,34*66
$GBGSV,5,5,18,23,01,017,,60,09,110,39*61
$GPGGA,011607.00,,,,,0,00,,,M,,M,,*49
$PTNL,GGK,011607.00,010125,4742.1603635,N,01618.1001746,E,1,37,0.8,EHT751.3969,M*4B
$GPGGQ,011607.00,010125,4742.1603635,N,01618.1001746,E,1,37,0.884,708.1903,M*3B
$GPGFA,011607.00,3.385,6.185,0.356,0.293,6.952,0.754,,VVV*03
$GPLLK,011607.00,010125,,M,,M,1,37,0.9,,M*07
$GNGMP,011607.00,,,,,DAAA,37,0.4,,,,*57
$GPGMP,011607.00,,,,,,10,,,,2.5,136*7E
$GLGMP,011607.00,,,,,,07,,,,,*79
$GAGMP,011607.00,,,,,,08,,,,,*7B
$GBGMP,011607.00,,,,,,12,,,,,*73
$PSSN,SNC,[0,263785000,2347]*49
$GPZDA,011612.00,01,01,2025,,*66
$GPDTM,W84,,00.0000000,N,00.0000000,E,00.0000000,W84*5F
$PSSN,TFM,011612.00,,,,*6A
$GPRMC,011612.00,A,4742.1603626,N,01618.1001753,E,0.0,,010125,5.1,E,D*14
$GPGLL,4742.1603626,N,01618.1001753,E,011612.00,A,D*65
$GPGGA,011612.00,4742.1603626,N,01618.1001753,E,2,37,0.4,708.1890,M,43.2066,M,2.3,0136*47
$GNGNS,011612.00,4742.1603626,N,01618.1001753,E,DAAA,37,0.4,708.1890,43.2066,,*5E
$GPGNS,011612.00,,,,,,10,,,,2.3,136*7C
$GLGNS,011612.00,,,,,,07,,,,,*7D
$GAGNS,011612.00,,,,,,08,,,,,*7F
$GBGNS,011612.00,,,,,,12,,,,,*77
$GPLLQ,011612.00,010125,,M,,M,1,37,0.867,,M*19
$GPVTG,,T,,M,0.00,N,0.00,K,D*26
$GPHDT,,T*1B
$GPTHS,,V*0E
$GPROT,,V*08
$PSSN,HRP,011612.00,010125,,,,,,,00,0,,*64
$PTNL,AVR,011612.00,,Yaw,,Tilt,,,,0,,00*32
$GPGSA,A,3,02,03,04,09,17,19,21,28,31,32,,,0.8,0.4,0.6*30
$GPGSA,A,3,68,69,70,78,84,85,86,,,,,,0.8,0.4,0.6*3E
$GPGSA,A,3,04,05,06,09,10,11,34,36,,,,,0.8,0.4,0.6*35
$GPGSA,A,3,05,06,09,16,19,20,29,30,32,35,39,60,0.8,0.4,0.6*3C
$GPGST,011612.00,1.403,0.351,0.294,4.068,0.351,0.294,0.736*5C
$GPGBS,011612.00,1.663,1.665,5.366,68,0.0001,5.593,6.752*59
$GPGRS,011612.00,1,-0.2,-0.0,0.2,-0.3,0.0,-0.2,-0.1,-0.2,0.5,-0.2,,*63
$GPGRS,011612.00,1,5.6,0.0,0.1,-3.2,1.0,1.7,-1.4,,,,,*64
$GPGRS,011612.00,1,-0.1,-0.4,0.1,0.4,0.5,0.2,-0.6,0.3,,,,*64
$GPGRS,011612.00,1,1.8,0.8,0.1,0.5,-0.1,-1.7,0.4,-0.1,1.0,-0.6,-0.1,-1.0*4B
$GPGSV,6,1,21,03,76,323,50,09,17,216,41,28,27,065,44,19,26,310,43*72
$GPGSV,6,2,21,31,29,098,44,04,44,203,46,21,38,146,43,17,39,278,45*7D
$GPGSV,6,3,21,02,58,154,49,01,63,141,,06,05,311,36,32,07,045,38*74
$GPGSV,6,4,21,36,35,170,44,58,13,245,37,40,24,132,36,34,31,208,42*7B
$GPGSV,6,5,21,49,34,195,44,57,09,110,36,41,07,108,34,61,03,257,37*7C
$GPGSV,6,6,21*7A
$GLGSV,3,1,09,85,64,308,52,78,11,048,44,86,11,327,45,70,48,244,40*6A
$GLGSV,3,2,09,84,54,164,40,69,58,034,51,77,05,353,37,68,10,046,44*6F
$GLGSV,3,3,09,71,03,232,*5A
$GAGSV,3,1,12,06,73,131,48,04,58,068,47,34,14,309,38,09,58,188,48*6A
$GAGSV,3,2,12,10,31,132,42,11,59,135,45,36,66,304,47,19,05,042,32*6E
$GAGSV,3,3,12,27,00,357,34,30,02,311,36,05,10,212,37,12,08,131,32*67
$GBGSV,5,1,18,20,85,009,51,05,24,128,38,39,28,049,42,30,14,166,42*6D
$GBGSV,5,2,18,09,35,080,41,32,28,060,45,35,36,305,46,06,32,064,41*6C
$GBGSV,5,3,18,16,31,060,42,22,38,233,,19,40,245,47,29,55,213,50*6A
$GBGSV,5,4,18,48,69,250,,13,00,091,30,37,04,108,,02,08,105,34*6E
$GBGSV,5,5,18,23,01,017,,60,09,110,39*61
$GPGGA,011612.00,,,,,0,00,,,M,,M,,*4D
$PTNL,GGK,011612.00,010125,4742.1603626,N,01618.1001753,E,1,37,0.8,EHT751.3956,M*45
$GPGGQ,011612.00,010125,4742.1603626,N,01618.1001753,E,1,37,0.867,708.1890,M*3F
$GPGFA,011612.00,3.340,6.035,0.351,0.294,4.068,0.736,,VVV*02
$GPLLK,011612.00,010125,,M,,M,1,37,0.9,,M*03
$GNGMP,011612.00,,,,,DAAA,37,0.4,,,,*53
$GPGMP,011612.00,,,,,,10,,,,2.3,136*7C
$GLGMP,011612.00,,,,,,07,,,,,*7D
$GAGMP,011612.00,,,,,,08,,,,,*7F
$GBGMP,011612.00,,,,,,12,,,,,*77
$PSSN,SNC,[0,263790000,2347]*4D
$GPZDA,011617.00,01,01,2025,,*63
$GPDTM,W84,,00.0000000,N,00.0000000,E,00.0000000,W84*5F
$PSSN,TFM,011617.00,,,,*6F
$GPRMC,011617.00,A,4742.1603625,N,01618.1001740,E,0.0,,010125,5.1,E,D*10
$GPGLL,4742.1603625,N,01618.1001740,E,011617.00,A,D*61
$GPGGA,011617.00,4742.1603625,N,01618.1001740,E,2,37,0.4,708.1892,M,43.2066,M,2.1,0136*43
$GNGNS,011617.00,4742.1603625,N,01618.1001740,E,DAAA,37,0.4,708.1892,43.2066,,*58
$GPGNS,011617.00,,,,,,10,,,,2.1,136*7B
$GLGNS,011617.00,,,,,,07,,,,,*78
$GAGNS,011617.00,,,,,,08,,,,,*7A
$GBGNS,011617.00,,,,,,12,,,,,*72
$GPLLQ,011617.00,010125,,M,,M,1,37,0.876,,M*1C
$GPVTG,,T,,M,0.00,N,0.00,K,D*26
$GPHDT,,T*1B
$GPTHS,,V*0E
$GPROT,,V*08
$PSSN,HRP,011617.00,010125,,,,,,,00,0,,*61
$PTNL,AVR,011617.00,,Yaw,,Tilt,,,,0,,00*37
$GPGSA,A,3,02,03,04,09,17,19,21,28,31,32,,,0.8,0.4,0.6*30
$GPGSA,A,3,68,69,70,78,84,85,86,,,,,,0.8,0.4,0.6*3E
$GPGSA,A,3,04,05,06,09,10,11,34,36,,,,,0.8,0.4,0.6*35
$GPGSA,A,3,05,06,09,16,19,20,29,30,32,35,39,60,0.8,0.4,0.6*3C
$GPGST,011617.00,1.405,0.353,0.291,4.553,0.353,0.292,0.747*57
$GPGBS,011617.00,1.641,1.671,5.517,68,0.0001,5.344,6.756*51
$GPGRS,011617.00,1,-0.1,-0.0,-0.2,0.3,-0.1,-0.1,-0.0,-0.3,0.3,0.1,,*62
$GPGRS,011617.00,1,5.3,-0.0,-0.9,-3.5,1.0,1.5,-1.5,,,,,*68
$GPGRS,011617.00,1,0.1,-0.6,0.2,0.5,0.4,0.1,-0.2,0.2,,,,*4B
$GPGRS,011617.00,1,1.5,1.4,0.3,0.7,0.2,-1.6,0.5,-0.2,0.7,-0.8,-0.4,-1.4*6A
$GPGSV,6,1,21,03,76,323,50,09,17,216,41,28,27,065,43,19,26,310,43*75
$GPGSV,6,2,21,31,29,097,44,04,44,203,46,21,38,146,42,17,39,278,45*73
$GPGSV,6,3,21,02,58,154,49,01,63,141,,06,05,311,37,32,07,045,38*75
$GPGSV,6,4,21,36,35,170,45,58,13,245,37,40,24,132,36,34,31,208,42*7A
$GPGSV,6,5,21,49,34,195,43,57,09,110,36,41,07,108,34,61,03,257,38*74
$GPGSV,6,6,21*7A
$GLGSV,3,1,09,85,64,308,52,78,11,048,44,86,11,327,45,70,48,244,40*6A
$GLGSV,3,2,09,84,54,164,40,69,58,034,51,77,05,353,35,68,10,046,44*6D
$GLGSV,3,3,09,71,03,232,*5A
$GAGSV,3,1,12,06,73,131,48,04,58,067,47,34,14,309,39,09,58,188,48*64
$GAGSV,3,2,12,10,30,132,42,11,59,135,45,36,66,304,48,19,05,042,32*60
$GAGSV,3,3,12,27,00,357,34,30,02,311,36,05,10,212,37,12,08,131,32*67
$GBGSV,5,1,18,20,85,009,51,05,24,128,38,39,28,049,42,30,14,166,42*6D
$GBGSV,5,2,18,09,35,080,41,32,28,060,45,35,36,305,46,06,32,063,41*6B
$GBGSV,5,3,18,16,31,059,43,22,38,233,,19,40,246,47,29,55,213,50*62
$GBGSV,5,4,18,48,69,250,,13,00,091,29,37,05,108,,02,08,105,34*67
$GBGSV,5,5,18,23,01,017,,60,09,110,39*61
$GPGGA,011617.00,,,,,0,00,,,M,,M,,*48
$PTNL,GGK,011617.00,010125,4742.1603625,N,01618.1001740,E,1,37,0.8,EHT751.3957,M*40
$GPGGQ,011617.00,010125,4742.1603625,N,01618.1001740,E,1,37,0.876,708.1892,M*39
$GPGFA,011617.00,3.355,6.122,0.353,0.291,4.553,0.747,,VVV*08
$GPLLK,011617.00,010125,,M,,M,1,37,0.9,,M*06
$GNGMP,011617.00,,,,,DAAA,37,0.4,,,,*56
$GPGMP,011617.00,,,,,,10,,,,2.1,136*7B
$GLGMP,011617.00,,,,,,07,,,,,*78
$GAGMP,011617.00,,,,,,08,,,,,*7A
$GBGMP,011617.00,,,,,,12,,,,,*72
$PSSN,SNC,[0,263795000,2347]*48
$GPZDA,011622.00,01,01,2025,,*65
$GPDTM,W84,,00.0000000,N,00.0000000,E,00.0000000,W84*5F
$PSSN,TFM,011622.00,,,,*69
$GPRMC,011622.00,A,4742.1603645,N,01618.1001725,E,0.0,,010125,5.1,E,D*13
$GPGLL,4742.1603645,N,01618.1001725,E,011622.00,A,D*62
$GPGGA,011622.00,4742.1603645,N,01618.1001725,E,2,37,0.4,708.1916,M,43.2066,M,3.1,0136*4C
$GNGNS,011622.00,4742.1603645,N,01618.1001725,E,DAAA,37,0.4,708.1916,43.2066,,*56
$GPGNS,011622.00,,,,,,10,,,,3.1,136*7C
$GLGNS,011622.00,,,,,,07,,,,,*7E
$GAGNS,011622.00,,,,,,08,,,,,*7C
$GBGNS,011622.00,,,,,,12,,,,,*74
$GPLLQ,011622.00,010125,,M,,M,1,37,0.889,,M*1A
$GPVTG,,T,,M,0.00,N,0.01,K,D*27
$GPHDT,,T*1B
$GPTHS,,V*0E
$GPROT,,V*08
$PSSN,HRP,011622.00,010125,,,,,,,00,0,,*67
$PTNL,AVR,011622.00,,Yaw,,Tilt,,,,0,,00*31
$GPGSA,A,3,02,03,04,09,17,19,21,28,31,32,,,0.8,0.4,0.6*30
$GPGSA,A,3,68,69,70,78,84,85,86,,,,,,0.8,0.4,0.6*3E
$GPGSA,A,3,04,05,06,09,10,11,34,36,,,,,0.8,0.4,0.6*35
$GPGSA,A,3,05,06,09,16,19,20,29,30,32,35,39,60,0.8,0.4,0.6*3C
$GPGST,011622.00,1.258,0.356,0.289,7.648,0.355,0.290,0.761*59
$GPGBS,011622.00,1.665,1.697,5.640,31,0.0001,0.722,0.786*5E
$GPGRS,011622.00,1,0.1,0.1,0.1,-0.0,-0.2,0.1,-0.1,-0.7,0.7,-0.2,,*64
$GPGRS,011622.00,1,4.4,-0.2,0.2,-2.7,0.6,1.3,-2.1,,,,,*49
$GPGRS,011622.00,1,0.0,-0.8,0.1,0.5,0.4,-0.0,0.0,-0.0,,,,*6D
