$GPZDA,101442.00,01,01,2025,,*61
$GPDTM,W84,,00.0000000,N,00.0000000,E,00.0000000,W84*5F
$PSSN,TFM,101442.00,,,,*6D
$GPRMC,101442.00,A,4742.1601269,N,01618.1000873,E,0.0,,010125,5.1,E,D*12
$GPGLL,4742.1601269,N,01618.1000873,E,101442.00,A,D*63
$GPGGA,101442.00,4742.1601269,N,01618.1000873,E,2,36,0.4,708.6287,M,43.2066,M,1.6,0136*4D
$GNGNS,101442.00,4742.1601269,N,01618.1000873,E,DAAA,36,0.4,708.6287,43.2066,,*52
$GPGNS,101442.00,,,,,,10,,,,1.6,136*7D
$GLGNS,101442.00,,,,,,07,,,,,*7A
$GAGNS,101442.00,,,,,,06,,,,,*76
$GBGNS,101442.00,,,,,,13,,,,,*71
$GPLLQ,101442.00,010125,,M,,M,1,36,1.067,,M*16
$GPVTG,,T,,M,0.00,N,0.01,K,D*27
$GPHDT,,T*1B
$GPTHS,,V*0E
$GPROT,,V*08
$PSSN,HRP,101442.00,010125,,,,,,,00,0,,*63
$PTNL,AVR,101442.00,,Yaw,,Tilt,,,,0,,00*35
$GPGSA,A,3,10,12,13,14,15,17,19,23,24,30,,,0.8,0.4,0.7*32
$GPGSA,A,3,65,66,67,75,76,77,85,,,,,,0.8,0.4,0.7*35
$GPGSA,A,3,02,03,07,08,25,30,,,,,,,0.8,0.4,0.7*33
$GPGSA,A,3,05,07,10,14,21,24,26,33,35,40,42,45,0.8,0.4,0.7*3B
$GPGSA,A,3,60,,,,,,,,,,,,0.8,0.4,0.7*3F
$GPGST,101442.00,2.229,0.445,0.305,10.108,0.441,0.310,0.921*6C
$GPGBS,101442.00,2.898,1.732,6.172,77,0.0001,-8.337,6.133*77
$GPGRS,101442.00,1,-0.4,0.7,0.1,0.3,-0.1,0.0,-0.0,-0.3,-0.2,-1.5,,*49
$GPGRS,101442.00,1,0.6,-0.5,7.0,-1.2,-1.2,-8.3,2.8,,,,,*67
$GPGRS,101442.00,1,-0.3,-0.3,-0.1,-0.2,0.1,-0.2,,,,,,*61
$GPGRS,101442.00,1,0.1,1.3,0.7,1.1,0.4,-0.2,-0.6,-0.3,-1.9,-1.1,-0.6,0.5*40
$GPGRS,101442.00,1,-1.4,,,,,,,,,,,*4A
$GPGSV,6,1,23,15,64,229,49,19,32,131,45,12,17,225,43,23,24,292,43*78
$GPGSV,6,2,23,14,35,056,45,13,53,154,49,17,39,091,46,24,46,290,46*7F
$GPGSV,6,3,23,22,57,060,,21,01,019,,05,01,203,21,10,10,331,41*71
$GPGSV,6,4,23,02,03,037,37,30,08,096,37,36,35,170,45,58,13,245,36*76
$GPGSV,6,5,23,40,23,133,37,34,31,208,42,49,34,195,45,57,07,111,38*7B
$GPGSV,6,6,23,41,07,108,35,61,03,257,38*7A
$GLGSV,3,1,09,76,74,331,52,85,18,070,43,84,13,018,32,75,26,053,47*6B
$GLGSV,3,2,09,67,36,321,50,65,24,180,43,77,37,258,44,66,65,233,53*6B
$GLGSV,3,3,09,86,01,118,*5B
$GAGSV,3,1,09,02,76,196,49,07,27,311,42,16,21,051,,30,23,223,42*63
$GAGSV,3,2,09,03,41,153,46,25,45,056,46,08,74,259,49,12,02,033,32*6C
$GAGSV,3,3,09,33,01,345,35*54
$GBGSV,5,1,18,26,80,294,51,21,23,187,44,40,26,043,43,35,11,134,42*6B
$GBGSV,5,2,18,25,27,249,,05,20,130,38,07,27,054,41,33,28,312,45*6B
$GBGSV,5,3,18,50,39,208,,24,29,259,46,10,37,066,42,56,36,075,*67
$GBGSV,5,4,18,14,45,286,46,45,38,069,47,42,50,244,49,02,04,109,31*6F
$GBGSV,5,5,18,29,07,032,,60,07,111,40*6B
$GPGGA,101442.00,,,,,0,00,,,M,,M,,*4A
$PTNL,GGK,101442.00,010125,4742.1601269,N,01618.1000873,E,1,36,0.8,EHT751.8352,M*47
$GPGGQ,101442.00,010125,4742.1601269,N,01618.1000873,E,1,36,1.067,708.6287,M*3A
$GPGFA,101442.00,4.232,7.549,0.445,0.305,10.108,0.921,,VVV*38
$GPLLK,101442.00,010125,,M,,M,1,36,0.9,,M*05
$GNGMP,101442.00,,,,,DAAA,36,0.4,,,,*55
$GPGMP,101442.00,,,,,,10,,,,1.6,136*7D
$GLGMP,101442.00,,,,,,07,,,,,*7A
$GAGMP,101442.00,,,,,,06,,,,,*76
$GBGMP,101442.00,,,,,,13,,,,,*71
$PSSN,SNC,[0,296100000,2347]*48
$GPZDA,101447.00,01,01,2025,,*64
$GPDTM,W84,,00.0000000,N,00.0000000,E,00.0000000,W84*5F
$PSSN,TFM,101447.00,,,,*68
$GPRMC,101447.00,A,4742.1601290,N,01618.1000887,E,0.0,,010125,5.1,E,D*1A
$GPGLL,4742.1601290,N,01618.1000887,E,101447.00,A,D*6B
$GPGGA,101447.00,4742.1601290,N,01618.1000887,E,2,36,0.4,708.6327,M,43.2066,M,2.6,0136*4D
$GNGNS,101447.00,4742.1601290,N,01618.1000887,E,DAAA,36,0.4,708.6327,43.2066,,*51
$GPGNS,101447.00,,,,,,10,,,,2.6,136*7B
$GLGNS,101447.00,,,,,,07,,,,,*7F
$GAGNS,101447.00,,,,,,06,,,,,*73
$GBGNS,101447.00,,,,,,13,,,,,*74
$GPLLQ,101447.00,010125,,M,,M,1,36,1.069,,M*1D
$GPVTG,,T,,M,0.00,N,0.01,K,D*27
$GPHDT,,T*1B
$GPTHS,,V*0E
$GPROT,,V*08
$PSSN,HRP,101447.00,010125,,,,,,,00,0,,*66
$PTNL,AVR,101447.00,,Yaw,,Tilt,,,,0,,00*30
$GPGSA,A,3,10,12,13,14,15,17,19,23,24,30,,,0.8,0.4,0.7*32
$GPGSA,A,3,65,66,67,75,76,77,85,,,,,,0.8,0.4,0.7*35
$GPGSA,A,3,02,03,07,08,25,30,,,,,,,0.8,0.4,0.7*33
$GPGSA,A,3,05,07,10,14,21,24,26,33,35,40,42,45,0.8,0.4,0.7*3B
$GPGSA,A,3,60,,,,,,,,,,,,0.8,0.4,0.7*3F
$GPGST,101447.00,2.220,0.441,0.307,9.444,0.438,0.312,0.924*5A
$GPGBS,101447.00,2.931,1.749,6.231,67,0.0001,7.611,6.134*5D
$GPGRS,101447.00,1,-0.4,0.6,-0.1,0.2,-0.0,-0.6,0.1,0.1,-0.0,-1.0,,*4F
$GPGRS,101447.00,1,0.5,-0.4,7.6,-1.7,-1.2,-7.1,3.5,,,,,*62
$GPGRS,101447.00,1,0.1,0.0,0.2,0.0,-0.0,-0.3,,,,,,*49
$GPGRS,101447.00,1,0.5,2.0,1.4,1.6,0.4,-0.3,-0.4,-0.1,-1.5,-1.1,-0.4,0.5*4B
$GPGRS,101447.00,1,-1.1,,,,,,,,,,,*4A
$GPGSV,6,1,23,15,64,229,50,19,32,131,45,12,17,225,43,23,24,292,43*70
$GPGSV,6,2,23,14,35,056,45,13,52,154,49,17,39,091,46,24,46,290,46*7E
$GPGSV,6,3,23,22,56,060,,21,01,019,,05,00,203,21,10,10,331,41*71
$GPGSV,6,4,23,02,03,037,38,30,08,096,37,36,35,170,44,58,13,245,36*78
$GPGSV,6,5,23,40,23,133,37,34,31,208,42,49,34,195,44,57,07,111,38*7A
$GPGSV,6,6,23,41,07,108,35,61,03,257,38*7A
$GLGSV,3,1,09,76,74,331,52,85,18,070,44,84,13,018,31,75,26,053,46*6E
$GLGSV,3,2,09,67,36,321,50,65,24,180,43,77,37,258,44,66,65,233,52*6A
$GLGSV,3,3,09,86,01,118,*5B
$GAGSV,3,1,09,02,76,196,49,07,27,311,42,16,21,051,,30,23,223,41*60
$GAGSV,3,2,09,03,41,153,46,25,45,056,46,08,74,259,49,12,02,033,31*6F
$GAGSV,3,3,09,33,01,345,35*54
$GBGSV,5,1,18,26,80,294,51,21,23,187,44,40,26,043,43,35,11,134,42*6B
$GBGSV,5,2,18,07,27,054,41,05,20,130,38,25,27,249,,33,28,312,45*6B
$GBGSV,5,3,18,50,39,208,,24,29,259,46,10,37,066,42,56,36,075,*67
$GBGSV,5,4,18,14,45,286,46,45,38,069,47,42,50,244,49,02,04,109,30*6E
$GBGSV,5,5,18,29,07,032,,60,07,111,40*6B
$GPGGA,101447.00,,,,,0,00,,,M,,M,,*4F
$PTNL,GGK,101447.00,010125,4742.1601290,N,01618.1000887,E,1,36,0.8,EHT751.8392,M*43
$GPGGQ,101447.00,010125,4742.1601290,N,01618.1000887,E,1,36,1.069,708.6327,M*37
$GPGFA,101447.00,4.193,7.577,0.441,0.307,9.444,0.924,,VVV*0E
$GPLLK,101447.00,010125,,M,,M,1,36,0.9,,M*00
$GNGMP,101447.00,,,,,DAAA,36,0.4,,,,*50
$GPGMP,101447.00,,,,,,10,,,,2.6,136*7B
$GLGMP,101447.00,,,,,,07,,,,,*7F
$GAGMP,101447.00,,,,,,06,,,,,*73
$GBGMP,101447.00,,,,,,13,,,,,*74
$PSSN,SNC,[0,296105000,2347]*4D
$GPZDA,101452.00,01,01,2025,,*60
$GPDTM,W84,,00.0000000,N,00.0000000,E,00.0000000,W84*5F
$PSSN,TFM,101452.00,,,,*6C
$GPRMC,101452.00,A,4742.1601291,N,01618.1000909,E,0.0,,010125,5.1,E,D*18
$GPGLL,4742.1601291,N,01618.1000909,E,101452.00,A,D*69
$GPGGA,101452.00,4742.1601291,N,01618.1000909,E,2,36,0.4,708.6374,M,43.2066,M,3.6,0136*48
$GNGNS,101452.00,4742.1601291,N,01618.1000909,E,DAAA,36,0.4,708.6374,43.2066,,*55
$GPGNS,101452.00,,,,,,10,,,,3.6,136*7E
$GLGNS,101452.00,,,,,,07,,,,,*7B
$GAGNS,101452.00,,,,,,06,,,,,*77
$GBGNS,101452.00,,,,,,13,,,,,*70
$GPLLQ,101452.00,010125,,M,,M,1,36,1.086,,M*18
$GPVTG,,T,,M,0.00,N,0.01,K,D*27
$GPHDT,,T*1B
$GPTHS,,V*0E
$GPROT,,V*08
$PSSN,HRP,101452.00,010125,,,,,,,00,0,,*62
$PTNL,AVR,101452.00,,Yaw,,Tilt,,,,0,,00*34
$GPGSA,A,3,10,12,13,14,15,17,19,23,24,30,,,0.8,0.4,0.7*32
$GPGSA,A,3,65,66,67,75,76,77,85,,,,,,0.8,0.4,0.7*35
$GPGSA,A,3,02,03,07,08,25,30,,,,,,,0.8,0.4,0.7*33
$GPGSA,A,3,05,07,10,14,21,24,26,33,35,40,42,45,0.8,0.4,0.7*3B
$GPGSA,A,3,60,,,,,,,,,,,,0.8,0.4,0.7*3F
$GPGST,101452.00,2.245,0.447,0.313,9.224,0.444,0.317,0.939*5C
$GPGBS,101452.00,2.969,1.769,6.299,77,0.0001,-7.508,6.133*74
$GPGRS,101452.00,1,-0.9,0.5,0.1,0.2,-0.2,-0.3,0.1,0.5,0.0,-0.5,,*42
$GPGRS,101452.00,1,0.2,-0.5,7.5,-1.8,-1.4,-7.5,3.8,,,,,*63
$GPGRS,101452.00,1,0.1,0.1,-0.0,-0.1,-0.1,-0.2,,,,,,*4F
$GPGRS,101452.00,1,0.2,1.7,1.0,1.6,0.5,0.2,-0.4,-0.5,-1.6,-0.7,-0.4,0.5*65
$GPGRS,101452.00,1,-1.3,,,,,,,,,,,*4C
$GPGSV,6,1,23,15,64,229,50,19,32,131,45,12,17,225,42,23,24,292,42*70
$GPGSV,6,2,23,14,35,056,45,13,52,154,49,17,39,091,46,24,46,290,46*7E
$GPGSV,6,3,23,22,56,060,,21,01,019,,05,00,203,20,10,10,331,40*71
$GPGSV,6,4,23,02,03,037,37,30,08,096,36,36,35,170,45,58,13,245,36*77
$GPGSV,6,5,23,40,23,133,37,34,31,208,42,49,34,195,44,57,07,111,38*7A
$GPGSV,6,6,23,41,07,108,35,61,03,257,38*7A
$GLGSV,3,1,09,76,74,332,52,85,18,070,44,84,13,018,32,75,26,053,46*6E
$GLGSV,3,2,09,67,36,321,50,65,24,180,43,77,37,258,44,66,65,233,52*6A
$GLGSV,3,3,09,86,01,118,*5B
$GAGSV,3,1,09,02,76,196,49,07,27,311,42,16,21,051,,30,23,223,42*63
$GAGSV,3,2,09,03,41,153,46,25,45,056,46,08,74,259,49,12,02,033,31*6F
$GAGSV,3,3,09,33,01,345,35*54
$GBGSV,5,1,18,26,80,295,51,21,23,187,44,40,26,043,43,35,11,134,42*6A
$GBGSV,5,2,18,07,27,054,41,05,20,130,38,25,28,249,,33,28,312,45*64
$GBGSV,5,3,18,50,39,208,,24,29,259,46,10,37,066,42,56,36,075,*67
$GBGSV,5,4,18,14,45,286,46,45,38,069,47,42,50,244,49,02,04,109,31*6F
$GBGSV,5,5,18,29,07,032,,60,07,111,40*6B
$GPGGA,101452.00,,,,,0,00,,,M,,M,,*4B
$PTNL,GGK,101452.00,010125,4742.1601291,N,01618.1000909,E,1,36,0.8,EHT751.8440,M*49
$GPGGQ,101452.00,010125,4742.1601291,N,01618.1000909,E,1,36,1.086,708.6374,M*32
$GPGFA,101452.00,4.249,7.697,0.447,0.313,9.224,0.939,,VVV*0C
$GPLLK,101452.00,010125,,M,,M,1,36,0.9,,M*04
$GNGMP,101452.00,,,,,DAAA,36,0.4,,,,*54
$GPGMP,101452.00,,,,,,10,,,,3.6,136*7E
$GLGMP,101452.00,,,,,,07,,,,,*7B
$GAGMP,101452.00,,,,,,06,,,,,*77
$GBGMP,101452.00,,,,,,13,,,,,*70
$PSSN,SNC,[0,296110000,2347]*49
$GPZDA,101457.00,01,01,2025,,*65
$GPDTM,W84,,00.0000000,N,00.0000000,E,00.0000000,W84*5F
$PSSN,TFM,101457.00,,,,*69
$GPRMC,101457.00,A,4742.1601309,N,01618.1000911,E,0.0,,010125,5.1,E,D*14
$GPGLL,4742.1601309,N,01618.1000911,E,101457.00,A,D*65
$GPGGA,101457.00,4742.1601309,N,01618.1000911,E,2,36,0.4,708.6348,M,43.2066,M,2.3,0136*4F
$GNGNS,101457.00,4742.1601309,N,01618.1000911,E,DAAA,36,0.4,708.6348,43.2066,,*56
$GPGNS,101457.00,,,,,,10,,,,2.3,136*7F
$GLGNS,101457.00,,,,,,07,,,,,*7E
$GAGNS,101457.00,,,,,,06,,,,,*72
$GBGNS,101457.00,,,,,,13,,,,,*75
$GPLLQ,101457.00,010125,,M,,M,1,36,1.087,,M*1C
$GPVTG,,T,,M,0.01,N,0.01,K,D*26
$GPHDT,,T*1B
$GPTHS,,V*0E
$GPROT,,V*08
$PSSN,HRP,101457.00,010125,,,,,,,00,0,,*67
$PTNL,AVR,101457.00,,Yaw,,Tilt,,,,0,,00*31
$GPGSA,A,3,10,12,13,14,15,17,19,23,24,30,,,0.8,0.4,0.7*32
$GPGSA,A,3,65,66,67,75,76,77,85,,,,,,0.8,0.4,0.7*35
$GPGSA,A,3,02,03,07,08,25,30,,,,,,,0.8,0.4,0.7*33
$GPGSA,A,3,05,07,10,14,21,24,26,33,35,40,42,45,0.8,0.4,0.7*3B
$GPGSA,A,3,60,,,,,,,,,,,,0.8,0.4,0.7*3F
$GPGST,101457.00,2.127,0.451,0.311,9.789,0.447,0.316,0.939*5B
$GPGBS,101457.00,2.962,1.793,6.193,67,0.0001,7.217,6.134*54
$GPGRS,101457.00,1,-0.9,0.3,-0.1,0.2,-0.2,-0.0,0.4,0.4,-0.1,-0.5,,*47
$GPGRS,101457.00,1,0.7,-0.5,7.2,-0.8,-1.2,-7.0,3.0,,,,,*6E
$GPGRS,101457.00,1,0.0,-0.0,0.0,-0.3,-0.0,0.2,,,,,,*64
$GPGRS,101457.00,1,0.2,1.5,1.2,1.7,0.5,0.2,-0.7,-0.2,-2.3,-1.2,-0.5,0.8*6B
$GPGRS,101457.00,1,-1.3,,,,,,,,,,,*49
$GPGSV,6,1,23,15,64,228,49,19,32,131,45,12,17,225,42,23,24,292,43*78
$GPGSV,6,2,23,14,35,056,45,13,52,154,49,17,39,091,47,24,46,290,46*7F
$GPGSV,6,3,23,22,56,060,,21,01,019,,05,00,203,22,10,10,331,40*73
$GPGSV,6,4,23,02,03,037,37,30,08,096,37,36,35,170,45,58,13,245,36*76
$GPGSV,6,5,23,40,23,133,37,34,31,208,42,49,34,195,44,57,07,111,38*7A
$GPGSV,6,6,23,41,07,108,35,61,03,257,38*7A
$GLGSV,3,1,09,76,74,332,52,85,18,070,45,84,13,018,32,75,26,053,47*6E
$GLGSV,3,2,09,67,36,321,50,65,24,180,43,77,37,258,43,66,65,233,52*6D
$GLGSV,3,3,09,86,01,118,*5B
$GAGSV,3,1,09,02,76,196,49,07,27,311,42,16,21,051,,30,23,223,42*63
$GAGSV,3,2,09,03,41,153,46,25,45,056,46,08,74,259,49,12,02,033,31*6F
$GAGSV,3,3,09,33,01,344,36*56
$GBGSV,5,1,18,26,80,295,51,21,23,187,44,40,26,043,43,35,11,134,41*69
$GBGSV,5,2,18,07,27,054,41,05,20,130,38,25,28,249,,33,28,312,45*64
$GBGSV,5,3,18,50,39,208,,24,29,259,45,10,37,066,42,56,36,075,*64
$GBGSV,5,4,18,14,45,286,46,45,38,069,46,42,50,244,49,02,04,109,30*6F
$GBGSV,5,5,18,29,07,032,,60,07,111,40*6B
$GPGGA,101457.00,,,,,0,00,,,M,,M,,*4E
$PTNL,GGK,101457.00,010125,4742.1601309,N,01618.1000911,E,1,36,0.8,EHT751.8413,M*43
$GPGGQ,101457.00,010125,4742.1601309,N,01618.1000911,E,1,36,1.087,708.6348,M*30
$GPGFA,101457.00,4.285,7.701,0.451,0.311,9.789,0.939,,VVV*00
$GPLLK,101457.00,010125,,M,,M,1,36,0.9,,M*01
$GNGMP,101457.00,,,,,DAAA,36,0.4,,,,*51
$GPGMP,101457.00,,,,,,10,,,,2.3,136*7F
$GLGMP,101457.00,,,,,,07,,,,,*7E
$GAGMP,101457.00,,,,,,06,,,,,*72
$GBGMP,101457.00,,,,,,13,,,,,*75
$PSSN,SNC,[0,296115000,2347]*4C
$GPZDA,101502.00,01,01,2025,,*64
$GPDTM,W84,,00.0000000,N,00.0000000,E,00.0000000,W84*5F
$PSSN,TFM,101502.00,,,,*68
$GPRMC,101502.00,A,4742.1601328,N,01618.1000874,E,0.0,,010125,5.1,E,D*14
$GPGLL,4742.1601328,N,01618.1000874,E,101502.00,A,D*65
$GPGGA,101502.00,4742.1601328,N,01618.1000874,E,2,36,0.4,708.6450,M,43.2066,M,1.6,0136*47
$GNGNS,101502.00,4742.1601328,N,01618.1000874,E,DAAA,36,0.4,708.6450,43.2066,,*58
$GPGNS,101502.00,,,,,,10,,,,1.6,136*78
$GLGNS,101502.00,,,,,,07,,,,,*7F
$GAGNS,101502.00,,,,,,06,,,,,*73
$GBGNS,101502.00,,,,,,13,,,,,*74
$GPLLQ,101502.00,010125,,M,,M,1,36,1.070,,M*15
$GPVTG,,T,,M,0.01,N,0.01,K,D*26
$GPHDT,,T*1B
$GPTHS,,V*0E
$GPROT,,V*08
$PSSN,HRP,101502.00,010125,,,,,,,00,0,,*66
$PTNL,AVR,101502.00,,Yaw,,Tilt,,,,0,,00*30
$GPGSA,A,3,10,12,13,14,15,17,19,23,24,30,,,0.8,0.4,0.7*32
$GPGSA,A,3,65,66,67,75,76,77,85,,,,,,0.8,0.4,0.7*35
$GPGSA,A,3,02,03,07,08,25,30,,,,,,,0.8,0.4,0.7*33
$GPGSA,A,3,05,07,10,14,21,24,26,33,35,40,42,45,0.8,0.4,0.7*3B
$GPGSA,A,3,60,,,,,,,,,,,,0.8,0.4,0.7*3F
$GPGST,101502.00,2.304,0.445,0.305,10.011,0.442,0.310,0.924*68
$GPGBS,101502.00,2.897,1.731,6.189,77,0.0001,-8.009,6.133*74
$GPGRS,101502.00,1,-0.7,0.7,0.2,0.0,-0.4,0.2,0.4,-0.1,-0.2,-0.6,,*61
$GPGRS,101502.00,1,-0.1,-0.5,7.4,-0.5,-1.1,-8.0,3.9,,,,,*4A
$GPGRS,101502.00,1,-0.1,-0.3,0.1,-0.3,-0.1,0.0,,,,,,*48
$GPGRS,101502.00,1,-0.4,1.4,0.7,1.8,0.2,0.2,-0.8,-0.6,-2.2,-1.2,-0.4,0.5*4A
$GPGRS,101502.00,1,-1.5,,,,,,,,,,,*4E
$GPGSV,6,1,23,15,64,228,49,19,33,131,45,12,17,225,42,23,24,292,43*79
$GPGSV,6,2,23,14,35,056,45,13,52,154,49,17,39,091,47,24,46,290,46*7F
$GPGSV,6,3,23,22,56,060,,21,01,018,,05,00,203,,10,10,331,40*72
$GPGSV,6,4,23,02,03,037,38,30,08,096,37,36,35,170,44,58,13,245,36*78
$GPGSV,6,5,23,40,23,133,36,34,31,208,42,49,34,195,44,57,07,111,38*7B
$GPGSV,6,6,23,41,07,108,35,61,03,257,38*7A
$GLGSV,3,1,09,76,74,332,52,85,19,070,45,84,13,018,32,75,26,053,47*6F
$GLGSV,3,2,09,67,36,321,50,65,24,180,43,77,37,258,43,66,65,233,53*6C
$GLGSV,3,3,09,86,01,118,*5B
$GAGSV,3,1,09,02,76,196,49,07,27,311,42,16,21,051,,30,23,223,42*63
$GAGSV,3,2,09,03,41,153,45,25,45,056,46,08,74,259,49,12,02,033,31*6C
$GAGSV,3,3,09,33,01,344,36*56
$GBGSV,5,1,18,26,80,295,51,21,23,187,44,40,26,043,43,35,11,134,41*69
$GBGSV,5,2,18,07,27,054,41,05,20,130,38,25,28,249,,33,28,312,45*64
$GBGSV,5,3,18,50,39,208,,24,29,259,46,10,37,066,42,56,36,075,*67
$GBGSV,5,4,18,14,45,286,46,45,38,069,47,42,50,243,49,02,04,109,30*69
$GBGSV,5,5,18,29,07,032,,60,07,111,40*6B
$GPGGA,101502.00,,,,,0,00,,,M,,M,,*4F
$PTNL,GGK,101502.00,010125,4742.1601328,N,01618.1000874,E,1,36,0.8,EHT751.8516,M*47
$GPGGQ,101502.00,010125,4742.1601328,N,01618.1000874,E,1,36,1.070,708.6450,M*36
$GPGFA,101502.00,4.232,7.574,0.445,0.305,10.011,0.924,,VVV*3F
$GPLLK,101502.00,010125,,M,,M,1,36,0.9,,M*00
$GNGMP,101502.00,,,,,DAAA,36,0.4,,,,*50
$GPGMP,101502.00,,,,,,10,,,,1.6,136*78
$GLGMP,101502.00,,,,,,07,,,,,*7F
$GAGMP,101502.00,,,,,,06,,,,,*73
$GBGMP,101502.00,,,,,,13,,,,,*74
$PSSN,SNC,[0,296120000,2347]*4A
$GPZDA,101507.00,01,01,2025,,*61
$GPDTM,W84,,00.0000000,N,00.0000000,E,00.0000000,W84*5F
$PSSN,TFM,101507.00,,,,*6D
$GPRMC,101507.00,A,4742.1601346,N,01618.1000838,E,0.0,,010125,5.1,E,D*11
$GPGLL,4742.1601346,N,01618.1000838,E,101507.00,A,D*60
$GPGGA,101507.00,4742.1601346,N,01618.1000838,E,2,36,0.4,708.6497,M,43.2066,M,2.6,0136*4A
$GNGNS,101507.00,4742.1601346,N,01618.1000838,E,DAAA,36,0.4,708.6497,43.2066,,*56
$GPGNS,101507.00,,,,,,10,,,,2.6,136*7E
$GLGNS,101507.00,,,,,,07,,,,,*7A
$GAGNS,101507.00,,,,,,06,,,,,*76
$GBGNS,101507.00,,,,,,13,,,,,*71
$GPLLQ,101507.00,010125,,M,,M,1,36,1.072,,M*12
$GPVTG,,T,,M,0.00,N,0.00,K,D*26
$GPHDT,,T*1B
$GPTHS,,V*0E
$GPROT,,V*08
$PSSN,HRP,101507.00,010125,,,,,,,00,0,,*63
$PTNL,AVR,101507.00,,Yaw,,Tilt,,,,0,,00*35
$GPGSA,A,3,10,12,13,14,15,17,19,23,24,30,,,0.8,0.4,0.7*32
$GPGSA,A,3,65,66,67,75,76,77,85,,,,,,0.8,0.4,0.7*35
$GPGSA,A,3,02,03,07,08,25,30,,,,,,,0.8,0.4,0.7*33
$GPGSA,A,3,05,07,10,14,21,24,26,33,35,40,42,45,0.8,0.4,0.7*3B
$GPGSA,A,3,60,,,,,,,,,,,,0.8,0.4,0.7*3F
$GPGST,101507.00,2.258,0.441,0.307,9.349,0.438,0.311,0.927*5A
$GPGBS,101507.00,2.930,1.748,6.249,77,0.0001,-8.079,6.133*7B
$GPGRS,101507.00,1,-0.4,1.0,-0.0,0.0,-0.4,0.1,0.4,0.0,-0.1,-0.9,,*6D
$GPGRS,101507.00,1,0.7,0.0,6.9,-0.6,-1.0,-8.1,4.4,,,,,*49
$GPGRS,101507.00,1,-0.0,-0.2,0.1,-0.1,-0.3,-0.3,,,,,,*63
$GPGRS,101507.00,1,0.0,1.0,0.6,1.2,0.5,0.1,-0.7,-0.5,-1.8,-1.3,-0.6,0.5*6B
$GPGRS,101507.00,1,-1.3,,,,,,,,,,,*4D
$GPGSV,6,1,23,15,64,228,49,19,33,131,44,12,17,225,42,23,24,292,43*78
$GPGSV,6,2,23,14,35,056,45,13,52,154,49,17,39,091,46,24,46,290,46*7E
$GPGSV,6,3,23,22,56,060,,21,01,018,,05,00,203,19,10,10,331,40*7A
$GPGSV,6,4,23,02,03,037,38,30,08,096,37,36,35,170,44,58,13,245,36*78
$GPGSV,6,5,23,40,23,133,36,34,31,208,42,49,34,195,44,57,07,111,38*7B
$GPGSV,6,6,23,41,07,108,35,61,03,257,38*7A
$GLGSV,3,1,09,76,74,332,52,85,19,070,45,84,13,018,32,75,26,053,47*6F
$GLGSV,3,2,09,67,36,321,50,65,24,180,44,77,37,258,43,66,65,233,53*6B
$GLGSV,3,3,09,86,01,118,*5B
$GAGSV,3,1,09,02,76,196,49,07,27,311,42,16,21,051,,30,23,223,42*63
$GAGSV,3,2,09,03,41,153,45,25,45,056,45,08,74,259,49,12,02,033,30*6E
$GAGSV,3,3,09,33,01,344,36*56
$GBGSV,5,1,18,26,80,295,51,21,23,187,45,40,26,043,43,35,11,134,41*68
$GBGSV,5,2,18,07,27,054,41,05,20,130,38,25,28,249,,33,28,312,45*64
$GBGSV,5,3,18,50,39,208,,24,29,259,46,10,37,066,42,56,36,075,*67
$GBGSV,5,4,18,14,45,286,46,45,38,069,47,42,50,243,49,02,04,109,30*69
$GBGSV,5,5,18,29,07,032,,60,07,111,40*6B
$GPGGA,101507.00,,,,,0,00,,,M,,M,,*4A
$PTNL,GGK,101507.00,010125,4742.1601346,N,01618.1000838,E,1,36,0.8,EHT751.8562,M*41
$GPGGQ,101507.00,010125,4742.1601346,N,01618.1000838,E,1,36,1.072,708.6497,M*3A
$GPGFA,101507.00,4.193,7.602,0.441,0.307,9.349,0.927,,VVV*03
$GPLLK,101507.00,010125,,M,,M,1,36,0.9,,M*05
$GNGMP,101507.00,,,,,DAAA,36,0.4,,,,*55
$GPGMP,101507.00,,,,,,10,,,,2.6,136*7E
$GLGMP,101507.00,,,,,,07,,,,,*7A
$GAGMP,101507.00,,,,,,06,,,,,*76
$GBGMP,101507.00,,,,,,13,,,,,*71
$PSSN,SNC,[0,296125000,2347]*4F
$GPZDA,101512.00,01,01,2025,,*65
$GPDTM,W84,,00.0000000,N,00.0000000,E,00.0000000,W84*5F
$PSSN,TFM,101512.00,,,,*69
$GPRMC,101512.00,A,4742.1601373,N,01618.1000851,E,0.0,,010125,5.1,E,D*1C
$GPGLL,4742.1601373,N,01618.1000851,E,101512.00,A,D*6D
$GPGGA,101512.00,4742.1601373,N,01618.1000851,E,2,36,0.4,708.6576,M,43.2066,M,3.6,0136*48
$GNGNS,101512.00,4742.1601373,N,01618.1000851,E,DAAA,36,0.4,708.6576,43.2066,,*55
$GPGNS,101512.00,,,,,,10,,,,3.6,136*7B
$GLGNS,101512.00,,,,,,07,,,,,*7E
$GAGNS,101512.00,,,,,,06,,,,,*72
$GBGNS,101512.00,,,,,,13,,,,,*75
$GPLLQ,101512.00,010125,,M,,M,1,36,1.088,,M*13
$GPVTG,,T,,M,0.00,N,0.01,K,D*27
$GPHDT,,T*1B
$GPTHS,,V*0E
$GPROT,,V*08
$PSSN,HRP,101512.00,010125,,,,,,,00,0,,*67
$PTNL,AVR,101512.00,,Yaw,,Tilt,,,,0,,00*31
$GPGSA,A,3,10,12,13,14,15,17,19,23,24,30,,,0.8,0.4,0.7*32
$GPGSA,A,3,65,66,67,75,76,77,85,,,,,,0.8,0.4,0.7*35
$GPGSA,A,3,02,03,07,08,25,30,,,,,,,0.8,0.4,0.7*33
$GPGSA,A,3,05,07,10,14,21,24,26,33,35,40,42,45,0.8,0.4,0.7*3B
$GPGSA,A,3,60,,,,,,,,,,,,0.8,0.4,0.7*3F
$GPGST,101512.00,2.304,0.447,0.313,9.123,0.444,0.317,0.942*55
$GPGBS,101512.00,2.968,1.768,6.315,77,0.0001,-7.769,6.133*71
$GPGRS,101512.00,1,-0.3,1.0,-0.3,0.5,-0.5,-0.7,0.3,0.2,0.2,-1.1,,*60
$GPGRS,101512.00,1,1.2,-0.3,7.3,-0.7,-1.3,-7.8,4.4,,,,,*68
$GPGRS,101512.00,1,0.0,-0.1,0.3,0.0,0.0,-0.2,,,,,,*48
$GPGRS,101512.00,1,0.5,1.2,0.7,1.6,0.9,-0.1,-0.4,-0.5,-1.7,-1.2,-0.4,0.6*40
$GPGRS,101512.00,1,-1.5,,,,,,,,,,,*4F
$GPGSV,6,1,23,15,64,228,49,19,33,130,44,12,17,225,42,23,24,292,43*79
$GPGSV,6,2,23,14,35,056,45,13,52,154,49,17,39,091,46,24,46,290,46*7E
$GPGSV,6,3,23,22,56,060,,21,01,018,,05,00,203,,10,10,331,40*72
$GPGSV,6,4,23,02,03,037,38,30,08,096,37,36,35,170,44,58,13,245,36*78
$GPGSV,6,5,23,40,23,133,37,34,31,208,43,49,34,195,44,57,07,111,38*7B
$GPGSV,6,6,23,41,07,108,35,61,03,257,38*7A
$GLGSV,3,1,09,76,74,332,52,85,19,070,45,84,13,018,32,75,26,053,48*60
$GLGSV,3,2,09,67,36,321,50,65,24,180,44,77,37,258,43,66,65,232,52*6B
$GLGSV,3,3,09,86,01,118,*5B
$GAGSV,3,1,09,02,76,196,49,07,27,311,42,16,21,051,,30,23,223,42*63
$GAGSV,3,2,09,03,41,153,46,25,45,056,46,08,74,259,49,12,02,033,31*6F
$GAGSV,3,3,09,33,01,344,36*56
$GBGSV,5,1,18,26,80,295,51,21,23,187,45,40,26,043,43,35,11,134,41*68
$GBGSV,5,2,18,07,27,054,41,05,20,130,38,25,28,249,,33,28,312,45*64
$GBGSV,5,3,18,50,39,208,,24,29,259,46,10,37,066,42,56,36,075,*67
$GBGSV,5,4,18,14,45,285,46,45,38,069,47,42,50,243,49,02,04,109,31*6B
$GBGSV,5,5,18,29,07,032,,60,07,111,40*6B
$GPGGA,101512.00,,,,,0,00,,,M,,M,,*4E
$PTNL,GGK,101512.00,010125,4742.1601373,N,01618.1000851,E,1,36,0.8,EHT751.8642,M*4D
$GPGGQ,101512.00,010125,4742.1601373,N,01618.1000851,E,1,36,1.088,708.6576,M*3C
$GPGFA,101512.00,4.248,7.721,0.447,0.313,9.123,0.942,,VVV*0C
$GPLLK,101512.00,010125,,M,,M,1,36,0.9,,M*01
$GNGMP,101512.00,,,,,DAAA,36,0.4,,,,*51
$GPGMP,101512.00,,,,,,10,,,,3.6,136*7B
$GLGMP,101512.00,,,,,,07,,,,,*7E
$GAGMP,101512.00,,,,,,06,,,,,*72
$GBGMP,101512.00,,,,,,13,,,,,*75
$PSSN,SNC,[0,296130000,2347]*4B
$GPZDA,101517.00,01,01,2025,,*60
$GPDTM,W84,,00.0000000,N,00.0000000,E,00.0000000,W84*5F
$PSSN,TFM,101517.00,,,,*6C
$GPRMC,101517.00,A,4742.1601371,N,01618.1000885,E,0.0,,010125,5.1,E,D*12
$GPGLL,4742.1601371,N,01618.1000885,E,101517.00,A,D*63
$GPGGA,101517.00,4742.1601371,N,01618.1000885,E,2,36,0.4,708.6637,M,43.2066,M,2.3,0136*44
$GNGNS,101517.00,4742.1601371,N,01618.1000885,E,DAAA,36,0.4,708.6637,43.2066,,*5D
$GPGNS,101517.00,,,,,,10,,,,2.3,136*7A
$GLGNS,101517.00,,,,,,07,,,,,*7B
$GAGNS,101517.00,,,,,,06,,,,,*77
$GBGNS,101517.00,,,,,,13,,,,,*70
$GPLLQ,101517.00,010125,,M,,M,1,36,1.089,,M*17
$GPVTG,,T,,M,0.00,N,0.01,K,D*27
$GPHDT,,T*1B
$GPTHS,,V*0E
$GPROT,,V*08
$PSSN,HRP,101517.00,010125,,,,,,,00,0,,*62
$PTNL,AVR,101517.00,,Yaw,,Tilt,,,,0,,00*34
$GPGSA,A,3,10,12,13,14,15,17,19,23,24,30,,,0.8,0.4,0.7*32
$GPGSA,A,3,65,66,67,75,76,77,85,,,,,,0.8,0.4,0.7*35
$GPGSA,A,3,02,03,07,08,25,30,,,,,,,0.8,0.4,0.7*33
$GPGSA,A,3,05,07,10,14,21,24,26,33,35,40,42,45,0.8,0.4,0.7*3B
$GPGSA,A,3,60,,,,,,,,,,,,0.8,0.4,0.7*3F
$GPGST,101517.00,2.225,0.451,0.311,9.690,0.447,0.316,0.942*5A
$GPGBS,101517.00,2.961,1.793,6.209,17,0.0001,-1.007,0.794*77
$GPGRS,101517.00,1,-0.8,0.8,-0.1,0.4,-0.2,-1.0,0.4,0.6,0.1,-0.9,,*6C
$GPGRS,101517.00,1,1.1,-0.9,7.1,-1.4,-0.9,-7.2,3.8,,,,,*6E
$GPGRS,101517.00,1,0.0,0.1,-0.0,0.0,0.3,0.0,,,,,,*62
$GPGRS,101517.00,1,0.9,1.3,0.5,2.0,1.0,-0.4,-0.4,-0.7,-2.5,-1.2,-0.4,0.5*42
$GPGRS,101517.00,1,-1.2,,,,,,,,,,,*4D
$GPGSV,6,1,23,15,64,228,49,19,33,130,44,12,17,225,42,23,24,292,43*79
$GPGSV,6,2,23,14,35,056,45,13,52,154,49,17,39,091,46,24,46,290,46*7E
$GPGSV,6,3,23,22,56,060,,21,01,018,,05,00,203,,10,10,331,40*72
$GPGSV,6,4,23,02,03,037,38,30,08,096,37,36,35,170,45,58,13,245,36*79
$GPGSV,6,5,23,40,23,133,37,34,31,208,43,49,34,195,44,57,07,111,38*7B
$GPGSV,6,6,23,41,07,108,35,61,03,257,38*7A
$GLGSV,3,1,09,76,74,332,52,85,19,070,43,84,13,018,33,75,26,053,47*68
$GLGSV,3,2,09,67,36,321,50,65,24,180,44,77,37,258,44,66,65,232,52*6C
$GLGSV,3,3,09,86,01,118,*5B
$GAGSV,3,1,10,02,76,196,49,07,27,311,42,16,21,051,,30,23,223,42*6B
$GAGSV,3,2,10,03,41,153,46,25,45,056,46,08,74,258,49,12,02,033,31*66
$GAGSV,3,3,10,10,00,055,,33,01,344,36*6F
$GBGSV,5,1,18,26,80,295,51,21,23,187,44,40,26,043,43,35,11,134,40*68
$GBGSV,5,2,18,07,27,054,41,05,20,130,38,25,28,249,,33,28,312,45*64
$GBGSV,5,3,18,50,39,208,,24,29,259,46,10,37,066,42,56,36,074,*66
$GBGSV,5,4,18,14,45,285,46,45,38,069,47,42,50,243,49,02,04,109,30*6A
$GBGSV,5,5,18,29,07,032,,60,07,111,40*6B
$GPGGA,101517.00,,,,,0,00,,,M,,M,,*4B
$PTNL,GGK,101517.00,010125,4742.1601371,N,01618.1000885,E,1,36,0.8,EHT751.8702,M*46
$GPGGQ,101517.00,010125,4742.1601371,N,01618.1000885,E,1,36,1.089,708.6637,M*35
$GPGFA,101517.00,4.283,7.724,0.451,0.311,9.690,0.942,,VVV*01
$GPLLK,101517.00,010125,,M,,M,1,36,0.9,,M*04
$GNGMP,101517.00,,,,,DAAA,36,0.4,,,,*54
$GPGMP,101517.00,,,,,,10,,,,2.3,136*7A
$GLGMP,101517.00,,,,,,07,,,,,*7B
$GAGMP,101517.00,,,,,,06,,,,,*77
$GBGMP,101517.00,,,,,,13,,,,,*70
$PSSN,SNC,[0,296135000,2347]*4E
$GPZDA,101522.00,01,01,2025,,*66
$GPDTM,W84,,00.0000000,N,00.0000000,E,00.0000000,W84*5F
$PSSN,TFM,101522.00,,,,*6A
$GPRMC,101522.00,A,4742.1601405,N,01618.1000889,E,0.0,,010125,5.1,E,D*1C
$GPGLL,4742.1601405,N,01618.1000889,E,101522.00,A,D*6D
$GPGGA,101522.00,4742.1601405,N,01618.1000889,E,2,36,0.4,708.6660,M,43.2066,M,1.6,0136*4E
$GNGNS,101522.00,4742.1601405,N,01618.1000889,E,DAAA,36,0.4,708.6660,43.2066,,*51
$GPGNS,101522.00,,,,,,10,,,,1.6,136*7A
$GLGNS,101522.00,,,,,,07,,,,,*7D
$GAGNS,101522.00,,,,,,06,,,,,*71
$GBGNS,101522.00,,,,,,13,,,,,*76
$GPLLQ,101522.00,010125,,M,,M,1,36,1.072,,M*15
$GPVTG,,T,,M,0.00,N,0.01,K,D*27
$GPHDT,,T*1B
$GPTHS,,V*0E
$GPROT,,V*08
$PSSN,HRP,101522.00,010125,,,,,,,00,0,,*64
$PTNL,AVR,101522.00,,Yaw,,Tilt,,,,0,,00*32
$GPGSA,A,3,10,12,13,14,15,17,19,23,24,30,,,0.8,0.4,0.7*32
$GPGSA,A,3,65,66,67,75,76,77,85,,,,,,0.8,0.4,0.7*35
$GPGSA,A,3,02,03,07,08,25,30,,,,,,,0.8,0.4,0.7*33
$GPGSA,A,3,05,07,10,14,21,24,26,33,35,40,42,45,0.8,0.4,0.7*3B
$GPGSA,A,3,60,,,,,,,,,,,,0.8,0.4,0.7*3F
$GPGST,101522.00,2.185,0.445,0.305,9.924,0.441,0.310,0.926*57
$GPGBS,101522.00,2.895,1.730,6.204,67,0.0001,7.511,6.133*5C
$GPGRS,101522.00,1,-0.9,0.3,0.0,0.1,-0.3,0.2,0.6,-0.2,0.0,-1.3,,*47
$GPGRS,101522.00,1,0.7,-0.4,7.5,-1.8,-1.2,-6.9,3.2,,,,,*60
$GPGRS,101522.00,1,-0.0,-0.3,0.2,-0.0,0.1,-0.4,,,,,,*4F
$GPGRS,101522.00,1,0.2,0.9,0.3,1.6,0.5,-0.4,-0.6,-0.6,-2.5,-1.3,-0.6,0.4*42
$GPGRS,101522.00,1,-1.4,,,,,,,,,,,*4D
$GPGSV,6,1,23,15,64,228,49,19,33,130,45,12,17,225,41,23,24,292,43*7B
$GPGSV,6,2,23,14,35,056,44,13,52,154,49,17,39,090,46,24,46,290,46*7E
$GPGSV,6,3,23,22,56,060,,21,01,018,,05,00,203,,10,10,331,40*72
$GPGSV,6,4,23,02,03,037,37,30,08,096,37,36,35,170,45,58,13,245,36*76
$GPGSV,6,5,23,40,23,133,37,34,31,208,42,49,34,195,44,57,07,111,38*7A
$GPGSV,6,6,23,41,07,108,35,61,03,257,38*7A
$GLGSV,3,1,09,76,74,333,52,85,19,070,44,84,13,018,32,75,26,053,47*6F
$GLGSV,3,2,09,67,36,321,49,65,24,180,44,77,37,258,43,66,65,232,53*62
$GLGSV,3,3,09,86,01,118,*5B
$GAGSV,3,1,10,02,76,196,49,07,27,311,42,16,21,051,,30,23,223,42*6B
$GAGSV,3,2,10,03,41,153,46,25,45,056,46,08,74,258,49,12,02,033,31*66
$GAGSV,3,3,10,10,00,055,,33,01,344,37*6E
$GBGSV,5,1,18,26,80,295,51,21,23,187,43,40,26,043,43,35,11,134,40*6F
$GBGSV,5,2,18,07,27,054,40,05,20,130,38,25,28,249,,33,28,312,45*65
$GBGSV,5,3,18,50,39,208,,24,29,259,46,10,37,065,42,56,36,074,*65
$GBGSV,5,4,18,14,45,285,46,45,38,069,47,42,50,243,49,02,04,109,30*6A
$GBGSV,5,5,18,29,07,032,,60,07,111,40*6B
$GPGGA,101522.00,,,,,0,00,,,M,,M,,*4D
$PTNL,GGK,101522.00,010125,4742.1601405,N,01618.1000889,E,1,36,0.8,EHT751.8725,M*4D
$GPGGQ,101522.00,010125,4742.1601405,N,01618.1000889,E,1,36,1.072,708.6660,M*3D
$GPGFA,101522.00,4.230,7.596,0.445,0.305,9.924,0.926,,VVV*06
$GPLLK,101522.00,010125,,M,,M,1,36,0.9,,M*02
$GNGMP,101522.00,,,,,DAAA,36,0.4,,,,*52
$GPGMP,101522.00,,,,,,10,,,,1.6,136*7A
$GLGMP,101522.00,,,,,,07,,,,,*7D
$GAGMP,101522.00,,,,,,06,,,,,*71
$GBGMP,101522.00,,,,,,13,,,,,*76
$PSSN,SNC,[0,296140000,2347]*4C
$GPZDA,101527.00,01,01,2025,,*63
$GPDTM,W84,,00.0000000,N,00.0000000,E,00.0000000,W84*5F
$PSSN,TFM,101527.00,,,,*6F
$GPRMC,101527.00,A,4742.1601429,N,01618.1000848,E,0.0,,010125,5.1,E,D*1A
$GPGLL,4742.1601429,N,01618.1000848,E,101527.00,A,D*6B
$GPGGA,101527.00,4742.1601429,N,01618.1000848,E,2,36,0.4,708.6677,M,43.2066,M,2.6,0136*4D
$GNGNS,101527.00,4742.1601429,N,01618.1000848,E,DAAA,36,0.4,708.6677,43.2066,,*51
$GPGNS,101527.00,,,,,,10,,,,2.6,136*7C
$GLGNS,101527.00,,,,,,07,,,,,*78
$GAGNS,101527.00,,,,,,06,,,,,*74
$GBGNS,101527.00,,,,,,13,,,,,*73
$GPLLQ,101527.00,010125,,M,,M,1,36,1.074,,M*16
$GPVTG,,T,,M,0.01,N,0.01,K,D*26
$GPHDT,,T*1B
$GPTHS,,V*0E
$GPROT,,V*08
$PSSN,HRP,101527.00,010125,,,,,,,00,0,,*61
$PTNL,AVR,101527.00,,Yaw,,Tilt,,,,0,,00*37
$GPGSA,A,3,10,12,13,14,15,17,19,23,24,30,,,0.8,0.4,0.7*32
$GPGSA,A,3,65,66,67,75,76,77,85,,,,,,0.8,0.4,0.7*35
$GPGSA,A,3,02,03,07,08,25,30,,,,,,,0.8,0.4,0.7*33
$GPGSA,A,3,05,07,10,14,21,24,26,33,35,40,42,45,0.8,0.4,0.7*3B
$GPGSA,A,3,60,,,,,,,,,,,,0.8,0.4,0.7*3F
$GPGST,101527.00,2.238,0.441,0.307,9.259,0.438,0.311,0.930*58
$GPGBS,101527.00,2.928,1.747,6.261,77,0.0001,-7.619,6.132*7B
$GPGRS,101527.00,1,-1.2,0.6,-0.1,0.2,-0.3,0.1,0.7,0.1,0.0,-1.0,,*4D
$GPGRS,101527.00,1,-0.1,-0.2,7.1,-1.8,-1.1,-7.6,3.9,,,,,*4A
$GPGRS,101527.00,1,-0.1,-0.1,0.5,-0.2,-0.0,-0.2,,,,,,*66
$GPGRS,101527.00,1,-0.2,0.4,0.4,1.2,0.1,-0.4,-0.6,-0.8,-2.2,-1.2,-0.5,0.5*6A
$GPGRS,101527.00,1,-1.5,,,,,,,,,,,*49
$GPGSV,6,1,23,15,64,228,49,19,33,130,45,12,17,225,42,23,24,292,43*78
$GPGSV,6,2,23,14,35,056,45,13,52,154,49,17,39,090,47,24,46,290,46*7E
$GPGSV,6,3,23,22,56,060,,21,01,018,,05,00,203,,10,10,331,40*72
$GPGSV,6,4,23,02,03,037,38,30,08,096,38,36,35,170,44,58,13,245,36*77
$GPGSV,6,5,23,40,23,133,37,34,31,208,42,49,34,195,45,57,07,111,38*7B
$GPGSV,6,6,23,41,07,108,35,61,03,257,38*7A
$GLGSV,3,1,09,76,74,333,52,85,19,070,45,84,13,018,32,75,26,053,47*6E
$GLGSV,3,2,09,67,36,321,50,65,24,180,42,77,37,258,43,66,65,232,53*6C
$GLGSV,3,3,09,86,01,118,*5B
$GAGSV,3,1,10,02,76,196,49,07,27,311,42,16,21,051,,30,23,223,42*6B
$GAGSV,3,2,10,03,41,153,46,25,45,056,46,08,74,258,49,12,02,033,30*67
$GAGSV,3,3,10,10,00,055,,33,01,344,37*6E
$GBGSV,5,1,18,26,80,296,51,21,23,187,43,40,26,043,43,35,11,134,40*6C
$GBGSV,5,2,18,07,27,054,41,05,20,130,38,25,28,249,,33,28,312,45*64
$GBGSV,5,3,18,50,39,208,,24,29,259,46,10,37,065,42,56,36,074,*65
$GBGSV,5,4,18,14,45,285,46,45,38,069,47,42,50,243,49,02,04,109,30*6A
$GBGSV,5,5,18,29,07,032,,60,07,111,40*6B
$GPGGA,101527.00,,,,,0,00,,,M,,M,,*48
$PTNL,GGK,101527.00,010125,4742.1601429,N,01618.1000848,E,1,36,0.8,EHT751.8743,M*4B
$GPGGQ,101527.00,010125,4742.1601429,N,01618.1000848,E,1,36,1.074,708.6677,M*3B
$GPGFA,101527.00,4.191,7.623,0.441,0.307,9.259,0.930,,VVV*06
$GPLLK,101527.00,010125,,M,,M,1,36,0.9,,M*07
$GNGMP,101527.00,,,,,DAAA,36,0.4,,,,*57
$GPGMP,101527.00,,,,,,10,,,,2.6,136*7C
$GLGMP,101527.00,,,,,,07,,,,,*78
$GAGMP,101527.00,,,,,,06,,,,,*74
$GBGMP,101527.00,,,,,,13,,,,,*73
$PSSN,SNC,[0,296145000,2347]*49
$GPZDA,101532.00,01,01,2025,,*67
$GPDTM,W84,,00.0000000,N,00.0000000,E,00.0000000,W84*5F
$PSSN,TFM,101532.00,,,,*6B
$GPRMC,101532.00,A,4742.1601455,N,01618.1000787,E,0.0,,010125,5.1,E,D*19
$GPGLL,4742.1601455,N,01618.1000787,E,101532.00,A,D*68
$GPGGA,101532.00,4742.1601455,N,01618.1000787,E,2,36,0.4,708.6751,M,43.2066,M,3.6,0136*4A
$GNGNS,101532.00,4742.1601455,N,01618.1000787,E,DAAA,36,0.4,708.6751,43.2066,,*57
$GPGNS,101532.00,,,,,,10,,,,3.6,136*79
$GLGNS,101532.00,,,,,,07,,,,,*7C
$GAGNS,101532.00,,,,,,06,,,,,*70
$GBGNS,101532.00,,,,,,13,,,,,*77
$GPLLQ,101532.00,010125,,M,,M,1,36,1.096,,M*1E
$GPVTG,,T,,M,0.00,N,0.00,K,D*26
$GPHDT,,T*1B
$GPTHS,,V*0E
$GPROT,,V*08
$PSSN,HRP,101532.00,010125,,,,,,,00,0,,*65
$PTNL,AVR,101532.00,,Yaw,,Tilt,,,,0,,00*33
$GPGSA,A,3,10,12,13,14,15,17,19,23,24,30,,,0.8,0.4,0.7*32
$GPGSA,A,3,65,66,67,75,76,77,85,,,,,,0.8,0.4,0.7*35
$GPGSA,A,3,02,03,07,08,25,30,,,,,,,0.8,0.4,0.7*33
$GPGSA,A,3,05,07,10,14,21,24,26,33,35,40,42,45,0.8,0.4,0.7*3B
$GPGSA,A,3,60,,,,,,,,,,,,0.8,0.4,0.7*3F
$GPGST,101532.00,2.325,0.449,0.313,9.250,0.446,0.317,0.949*54
$GPGBS,101532.00,2.976,1.770,6.349,77,0.0001,-7.785,6.132*7F
$GPGRS,101532.00,1,-1.1,1.1,-0.4,0.5,-0.4,0.3,0.6,-0.1,0.0,-0.7,,*61
$GPGRS,101532.00,1,-0.5,-0.8,7.5,-1.9,-0.9,-7.8,4.4,,,,,*48
$GPGRS,101532.00,1,0.0,-0.2,0.3,-0.3,0.2,-0.0,,,,,,*67
$GPGRS,101532.00,1,0.0,0.3,0.5,1.2,0.4,-0.1,-0.7,-0.4,-2.3,-1.0,-0.5,0.4*48
$GPGRS,101532.00,1,-1.4,,,,,,,,,,,*4C
$GPGSV,6,1,23,15,64,228,49,19,33,130,44,12,17,225,43,23,24,292,43*78
$GPGSV,6,2,23,14,35,056,45,13,52,154,50,17,39,090,47,24,46,290,46*76
$GPGSV,6,3,23,22,56,060,,21,01,018,,05,00,203,,10,10,331,40*72
$GPGSV,6,4,23,02,03,037,37,30,08,096,38,36,35,170,44,58,13,245,36*78
$GPGSV,6,5,23,40,23,133,37,34,31,208,42,49,34,195,44,57,07,111,38*7A
$GPGSV,6,6,23,41,07,108,35,61,03,257,38*7A
$GLGSV,3,1,09,76,74,333,52,85,19,070,45,84,13,018,32,75,26,053,46*6F
$GLGSV,3,2,09,67,36,321,50,65,24,180,42,77,37,258,43,66,65,232,52*6D
$GLGSV,3,3,09,86,01,118,*5B
$GAGSV,3,1,10,02,76,196,49,07,27,311,42,16,21,051,,30,23,223,42*6B
$GAGSV,3,2,10,03,41,153,46,25,45,056,46,08,74,258,49,12,02,033,29*6F
$GAGSV,3,3,10,10,00,055,,33,01,344,36*6F
$GBGSV,5,1,18,26,80,296,51,21,23,187,44,40,26,043,43,35,11,134,41*6A
$GBGSV,5,2,18,07,27,054,41,05,20,130,38,25,28,249,,33,28,312,45*64
$GBGSV,5,3,18,50,39,208,,24,29,259,46,10,37,065,42,56,36,074,*65
$GBGSV,5,4,18,14,45,285,46,45,38,069,47,42,50,243,49,02,04,109,31*6B
$GBGSV,5,5,18,29,07,032,,60,07,111,40*6B
$GPGGA,101532.00,,,,,0,00,,,M,,M,,*4C
$PTNL,GGK,101532.00,010125,4742.1601455,N,01618.1000787,E,1,36,0.8,EHT751.8816,M*47
$GPGGQ,101532.00,010125,4742.1601455,N,01618.1000787,E,1,36,1.096,708.6751,M*31
$GPGFA,101532.00,4.270,7.784,0.449,0.313,9.250,0.949,,VVV*08
$GPLLK,101532.00,010125,,M,,M,1,36,0.9,,M*03
$GNGMP,101532.00,,,,,DAAA,36,0.4,,,,*53
$GPGMP,101532.00,,,,,,10,,,,3.6,136*79
$GLGMP,101532.00,,,,,,07,,,,,*7C
$GAGMP,101532.00,,,,,,06,,,,,*70
$GBGMP,101532.00,,,,,,13,,,,,*77
$PSSN,SNC,[0,296150000,2347]*4D
$GPZDA,101537.00,01,01,2025,,*62
$GPDTM,W84,,00.0000000,N,00.0000000,E,00.0000000,W84*5F
$PSSN,TFM,101537.00,,,,*6E
$GPRMC,101537.00,A,4742.1601467,N,01618.1000770,E,0.0,,010125,5.1,E,D*15
$GPGLL,4742.1601467,N,01618.1000770,E,101537.00,A,D*64
$GPGGA,101537.00,4742.1601467,N,01618.1000770,E,2,36,0.4,708.6781,M,43.2066,M,2.3,0136*4F
$GNGNS,101537.00,4742.1601467,N,01618.1000770,E,DAAA,36,0.4,708.6781,43.2066,,*56
$GPGNS,101537.00,,,,,,10,,,,2.3,136*78
$GLGNS,101537.00,,,,,,07,,,,,*79
$GAGNS,101537.00,,,,,,06,,,,,*75
$GBGNS,101537.00,,,,,,13,,,,,*72
$GPLLQ,101537.00,010125,,M,,M,1,36,1.095,,M*18
$GPVTG,,T,,M,0.01,N,0.01,K,D*26
$GPHDT,,T*1B
$GPTHS,,V*0E
$GPROT,,V*08
$PSSN,HRP,101537.00,010125,,,,,,,00,0,,*60
$PTNL,AVR,101537.00,,Yaw,,Tilt,,,,0,,00*36
$GPGSA,A,3,10,12,13,14,15,17,19,23,24,30,,,0.8,0.4,0.7*32
$GPGSA,A,3,65,66,67,75,76,77,85,,,,,,0.8,0.4,0.7*35
$GPGSA,A,3,02,03,07,08,25,30,,,,,,,0.8,0.4,0.7*33
$GPGSA,A,3,05,07,10,14,21,24,26,33,35,40,42,45,0.8,0.4,0.7*3B
$GPGSA,A,3,60,,,,,,,,,,,,0.8,0.4,0.7*3F
$GPGST,101537.00,2.408,0.452,0.311,9.779,0.449,0.316,0.948*50
$GPGBS,101537.00,2.966,1.794,6.238,77,0.0001,-8.509,6.132*7F
$GPGRS,101537.00,1,-0.9,0.4,-0.2,0.3,-0.2,-0.0,0.6,0.2,-0.1,-1.0,,*45
$GPGRS,101537.00,1,0.5,-1.1,7.3,-1.6,-1.2,-8.5,4.4,,,,,*69
$GPGRS,101537.00,1,-0.0,-0.5,0.0,-0.4,0.1,-0.3,,,,,,*4C
$GPGRS,101537.00,1,-0.1,-0.2,0.3,1.8,1.0,-0.4,-0.6,-0.3,-2.1,-1.2,-0.6,0.2*42
$GPGRS,101537.00,1,-1.8,,,,,,,,,,,*45
$GPGSV,6,1,23,15,64,228,49,19,33,130,44,12,17,225,42,23,24,291,43*7A
$GPGSV,6,2,23,14,35,056,45,13,52,154,49,17,39,090,47,24,46,290,46*7E
$GPGSV,6,3,23,22,56,060,,21,01,018,,05,00,203,19,10,10,331,40*7A
$GPGSV,6,4,23,02,03,037,37,30,08,096,37,36,35,170,45,58,13,245,36*76
$GPGSV,6,5,23,40,23,133,37,34,31,208,43,49,34,195,44,57,07,111,38*7B
$GPGSV,6,6,23,41,07,108,35,61,03,257,38*7A
$GLGSV,3,1,09,76,74,333,52,85,19,070,44,84,13,017,31,75,26,053,47*63
$GLGSV,3,2,09,67,36,321,50,65,24,180,43,77,37,258,43,66,65,232,52*6C
$GLGSV,3,3,09,86,01,118,*5B
$GAGSV,3,1,10,02,76,196,49,07,27,311,42,16,21,051,,30,23,223,42*6B
$GAGSV,3,2,10,03,41,153,45,25,45,056,45,08,74,258,49,12,02,033,29*6F
$GAGSV,3,3,10,10,00,055,,33,01,344,35*6C
$GBGSV,5,1,18,26,80,296,51,21,23,187,44,40,26,043,43,35,11,134,41*6A
$GBGSV,5,2,18,07,27,054,41,05,20,130,38,25,28,249,,33,28,312,45*64
$GBGSV,5,3,18,50,39,208,,24,29,259,46,10,37,065,42,56,36,074,*65
$GBGSV,5,4,18,14,45,285,46,45,38,069,47,42,50,243,49,02,04,109,30*6A
$GBGSV,5,5,18,29,07,032,,60,07,111,40*6B
$GPGGA,101537.00,,,,,0,00,,,M,,M,,*49
$PTNL,GGK,101537.00,010125,4742.1601467,N,01618.1000770,E,1,36,0.8,EHT751.8847,M*4F
$GPGGQ,101537.00,010125,4742.1601467,N,01618.1000770,E,1,36,1.095,708.6781,M*33
$GPGFA,101537.00,4.298,7.774,0.452,0.311,9.779,0.948,,VVV*03
$GPLLK,101537.00,010125,,M,,M,1,36,0.9,,M*06
$GNGMP,101537.00,,,,,DAAA,36,0.4,,,,*56
$GPGMP,101537.00,,,,,,10,,,,2.3,136*78
$GLGMP,101537.00,,,,,,07,,,,,*79
$GAGMP,101537.00,,,,,,06,,,,,*75
$GBGMP,101537.00,,,,,,13,,,,,*72
$PSSN,SNC,[0,296155000,2347]*48
$GPZDA,101542.00,01,01,2025,,*60
$GPDTM,W84,,00.0000000,N,00.0000000,E,00.0000000,W84*5F
$PSSN,TFM,101542.00,,,,*6C
$GPRMC,101542.00,A,4742.1601476,N,01618.1000747,E,0.0,,010125,5.1,E,D*13
$GPGLL,4742.1601476,N,01618.1000747,E,101542.00,A,D*62
$GPGGA,101542.00,4742.1601476,N,01618.1000747,E,2,36,0.4,708.6763,M,43.2066,M,1.6,0136*43
$GNGNS,101542.00,4742.1601476,N,01618.1000747,E,DAAA,36,0.4,708.6763,43.2066,,*5C
$GPGNS,101542.00,,,,,,10,,,,1.6,136*7C
$GLGNS,101542.00,,,,,,07,,,,,*7B
$GAGNS,101542.00,,,,,,06,,,,,*77
$GBGNS,101542.00,,,,,,13,,,,,*70
$GPLLQ,101542.00,010125,,M,,M,1,36,1.078,,M*19
$GPVTG,,T,,M,0.00,N,0.00,K,D*26
$GPHDT,,T*1B
$GPTHS,,V*0E
$GPROT,,V*08
$PSSN,HRP,101542.00,010125,,,,,,,00,0,,*62
$PTNL,AVR,101542.00,,Yaw,,Tilt,,,,0,,00*34
$GPGSA,A,3,10,12,13,14,15,17,19,23,24,30,,,0.8,0.4,0.7*32
$GPGSA,A,3,65,66,67,75,76,77,85,,,,,,0.8,0.4,0.7*35
$GPGSA,A,3,02,03,07,08,25,30,,,,,,,0.8,0.4,0.7*33
$GPGSA,A,3,05,07,10,14,21,24,26,33,35,40,42,45,0.8,0.4,0.7*3B
$GPGSA,A,3,60,,,,,,,,,,,,0.8,0.4,0.7*3F
$GPGST,101542.00,2.277,0.446,0.305,10.001,0.443,0.310,0.932*6D
$GPGBS,101542.00,2.902,1.731,6.237,77,0.0001,-7.930,6.131*75
$GPGRS,101542.00,1,-0.9,0.1,-0.4,0.4,-0.2,-0.2,0.7,0.0,0.1,-0.9,,*67
$GPGRS,101542.00,1,1.6,-0.6,7.6,-1.2,-0.8,-7.9,3.2,,,,,*67
$GPGRS,101542.00,1,0.3,-0.3,0.4,-0.0,0.1,-0.1,,,,,,*64
$GPGRS,101542.00,1,0.2,0.4,0.8,2.0,0.5,-0.2,-0.5,-0.5,-1.9,-1.0,-0.3,0.6*4A
$GPGRS,101542.00,1,-1.4,,,,,,,,,,,*4B
$GPGSV,6,1,23,15,64,228,49,19,33,130,45,12,17,225,42,23,24,291,44*7C
$GPGSV,6,2,23,14,35,056,45,13,52,154,49,17,39,090,46,24,46,290,46*7F
$GPGSV,6,3,23,22,56,060,,21,01,018,,05,00,203,18,10,10,331,39*75
$GPGSV,6,4,23,02,03,037,38,30,08,096,37,36,35,170,45,58,13,245,36*79
$GPGSV,6,5,23,40,23,133,37,34,31,208,43,49,34,195,44,57,07,111,38*7B
$GPGSV,6,6,23,41,07,108,35,61,03,257,38*7A
$GLGSV,3,1,09,76,74,333,52,85,19,070,45,84,13,017,32,75,26,053,47*61
$GLGSV,3,2,09,67,36,321,50,65,24,180,43,77,37,258,44,66,65,232,52*6B
$GLGSV,3,3,09,86,01,118,*5B
$GAGSV,3,1,10,02,76,196,49,07,27,311,42,16,21,051,,30,23,223,42*6B
$GAGSV,3,2,10,03,41,153,45,25,45,056,45,08,74,258,49,12,02,033,30*67
$GAGSV,3,3,10,10,00,055,,33,01,344,35*6C
$GBGSV,5,1,18,26,80,296,51,21,23,187,44,40,26,043,43,35,11,134,42*69
$GBGSV,5,2,18,07,27,054,41,05,20,130,38,25,28,249,,33,28,312,45*64
$GBGSV,5,3,18,50,39,208,,24,29,259,46,10,37,065,42,56,36,074,*65
$GBGSV,5,4,18,14,45,285,46,45,38,069,47,42,50,243,49,02,04,109,31*6B
$GBGSV,5,5,18,29,07,032,,60,07,111,40*6B
$GPGGA,101542.00,,,,,0,00,,,M,,M,,*4B
$PTNL,GGK,101542.00,010125,4742.1601476,N,01618.1000747,E,1,36,0.8,EHT751.8829,M*41
$GPGGQ,101542.00,010125,4742.1601476,N,01618.1000747,E,1,36,1.078,708.6763,M*3A
$GPGFA,101542.00,4.244,7.645,0.446,0.305,10.001,0.932,,VVV*3E
$GPLLK,101542.00,010125,,M,,M,1,36,0.9,,M*04
$GNGMP,101542.00,,,,,DAAA,36,0.4,,,,*54
$GPGMP,101542.00,,,,,,10,,,,1.6,136*7C
$GLGMP,101542.00,,,,,,07,,,,,*7B
$GAGMP,101542.00,,,,,,06,,,,,*77
$GBGMP,101542.00,,,,,,13,,,,,*70
$PSSN,SNC,[0,296160000,2347]*4E
$GPZDA,101547.00,01,01,2025,,*65
$GPDTM,W84,,00.0000000,N,00.0000000,E,00.0000000,W84*5F
$PSSN,TFM,101547.00,,,,*69
$GPRMC,101547.00,A,4742.1601493,N,01618.1000714,E,0.0,,010125,5.1,E,D*1B
$GPGLL,4742.1601493,N,01618.1000714,E,101547.00,A,D*6A
$GPGGA,101547.00,4742.1601493,N,01618.1000714,E,2,36,0.4,708.6834,M,43.2066,M,2.6,0136*45
$GNGNS,101547.00,4742.1601493,N,01618.1000714,E,DAAA,36,0.4,708.6834,43.2066,,*59
$GPGNS,101547.00,,,,,,10,,,,2.6,136*7A
$GLGNS,101547.00,,,,,,07,,,,,*7E
$GAGNS,101547.00,,,,,,06,,,,,*72
$GBGNS,101547.00,,,,,,13,,,,,*75
$GPLLQ,101547.00,010125,,M,,M,1,36,1.080,,M*1B
$GPVTG,,T,,M,0.00,N,0.00,K,D*26
$GPHDT,,T*1B
$GPTHS,,V*0E
$GPROT,,V*08
$PSSN,HRP,101547.00,010125,,,,,,,00,0,,*67
$PTNL,AVR,101547.00,,Yaw,,Tilt,,,,0,,00*31
$GPGSA,A,3,10,12,13,14,15,17,19,23,24,30,,,0.8,0.4,0.7*32
$GPGSA,A,3,65,66,67,75,76,77,85,,,,,,0.8,0.4,0.7*35
$GPGSA,A,3,02,03,07,08,25,30,,,,,,,0.8,0.4,0.7*33
$GPGSA,A,3,05,07,10,14,21,24,26,33,35,40,42,45,0.8,0.4,0.7*3B
$GPGSA,A,3,60,,,,,,,,,,,,0.8,0.4,0.7*3F
$GPGST,101547.00,2.248,0.442,0.307,9.372,0.439,0.312,0.936*56
$GPGBS,101547.00,2.935,1.748,6.294,67,0.0001,7.765,6.132*52
$GPGRS,101547.00,1,-1.0,0.2,-0.2,0.5,-0.1,-0.3,1.0,-0.1,0.0,-0.8,,*46
$GPGRS,101547.00,1,1.0,-0.4,7.8,-0.6,-1.1,-7.2,4.0,,,,,*6B
$GPGRS,101547.00,1,0.1,-0.2,0.4,-0.1,0.2,-0.1,,,,,,*60
$GPGRS,101547.00,1,0.5,1.0,0.7,1.6,0.2,0.2,-0.5,-0.4,-2.1,-0.9,-0.4,0.7*69
$GPGRS,101547.00,1,-1.0,,,,,,,,,,,*4A
$GPGSV,6,1,23,15,64,228,49,10,10,331,40,23,24,291,43,12,17,225,42*75
$GPGSV,6,2,23,19,33,130,46,14,34,056,45,17,39,090,46,13,52,154,49*7B
$GPGSV,6,3,23,24,46,290,47,22,56,060,,21,01,018,,05,00,203,*7B
$GPGSV,6,4,23,02,03,037,37,30,08,096,37,36,35,170,45,58,13,245,36*76
$GPGSV,6,5,23,40,23,133,37,34,31,208,42,49,34,195,44,57,07,111,38*7A
$GPGSV,6,6,23,41,07,108,35,61,03,257,38*7A
$GLGSV,3,1,09,76,74,333,52,85,19,070,45,84,13,017,31,75,26,053,48*6D
$GLGSV,3,2,09,67,37,321,50,65,24,180,43,77,37,258,44,66,65,232,53*6B
$GLGSV,3,3,09,86,01,118,*5B
$GAGSV,3,1,10,02,76,196,49,07,27,311,42,16,21,051,,30,23,224,42*6C
$GAGSV,3,2,10,03,41,153,45,25,45,056,45,08,74,258,49,12,02,033,29*6F
$GAGSV,3,3,10,10,00,055,,33,01,344,34*6D
$GBGSV,5,1,18,26,80,296,51,21,23,187,44,40,26,043,43,35,11,134,42*69
$GBGSV,5,2,18,07,27,054,41,05,20,130,38,25,28,249,,33,28,312,45*64
$GBGSV,5,3,18,50,39,208,,24,29,259,46,10,37,065,42,56,36,074,*65
$GBGSV,5,4,18,14,45,285,46,45,38,069,47,42,50,243,49,02,04,109,30*6A
$GBGSV,5,5,18,29,07,032,,60,07,111,40*6B
$GPGGA,101547.00,,,,,0,00,,,M,,M,,*4E
$PTNL,GGK,101547.00,010125,4742.1601493,N,01618.1000714,E,1,36,0.8,EHT751.8900,M*43
$GPGGQ,101547.00,010125,4742.1601493,N,01618.1000714,E,1,36,1.080,708.6834,M*38
$GPGFA,101547.00,4.206,7.675,0.442,0.307,9.372,0.936,,VVV*03
$GPLLK,101547.00,010125,,M,,M,1,36,0.9,,M*01
$GNGMP,101547.00,,,,,DAAA,36,0.4,,,,*51
$GPGMP,101547.00,,,,,,10,,,,2.6,136*7A
$GLGMP,101547.00,,,,,,07,,,,,*7E
$GAGMP,101547.00,,,,,,06,,,,,*72
$GBGMP,101547.00,,,,,,13,,,,,*75
$PSSN,SNC,[0,296165000,2347]*4B
$GPZDA,101552.00,01,01,2025,,*61
$GPDTM,W84,,00.0000000,N,00.0000000,E,00.0000000,W84*5F
$PSSN,TFM,101552.00,,,,*6D
$GPRMC,101552.00,A,4742.1601491,N,01618.1000674,E,0.0,,010125,5.1,E,D*1A
$GPGLL,4742.1601491,N,01618.1000674,E,101552.00,A,D*6B
$GPGGA,101552.00,4742.1601491,N,01618.1000674,E,2,36,0.4,708.6877,M,43.2066,M,3.6,0136*42
$GNGNS,101552.00,4742.1601491,N,01618.1000674,E,DAAA,36,0.4,708.6877,43.2066,,*5F
$GPGNS,101552.00,,,,,,10,,,,3.6,136*7F
$GLGNS,101552.00,,,,,,07,,,,,*7A
$GAGNS,101552.00,,,,,,06,,,,,*76
$GBGNS,101552.00,,,,,,13,,,,,*71
$GPLLQ,101552.00,010125,,M,,M,1,36,1.096,,M*18
$GPVTG,,T,,M,0.00,N,0.00,K,D*26
$GPHDT,,T*1B
$GPTHS,,V*0E
$GPROT,,V*08
$PSSN,HRP,101552.00,010125,,,,,,,00,0,,*63
$PTNL,AVR,101552.00,,Yaw,,Tilt,,,,0,,00*35
$GPGSA,A,3,10,12,13,14,15,17,19,23,24,30,,,0.8,0.4,0.7*32
$GPGSA,A,3,65,66,67,75,76,77,85,,,,,,0.8,0.4,0.7*35
$GPGSA,A,3,02,03,07,08,25,30,,,,,,,0.8,0.4,0.7*33
$GPGSA,A,3,05,07,10,14,21,24,26,33,35,40,42,45,0.8,0.4,0.7*3B
$GPGSA,A,3,60,,,,,,,,,,,,0.8,0.4,0.7*3F
$GPGST,101552.00,2.322,0.448,0.312,9.145,0.445,0.317,0.950*59
$GPGBS,101552.00,2.974,1.768,6.360,67,0.0001,7.882,6.132*5D
$GPGRS,101552.00,1,-0.8,0.5,-0.1,0.3,-0.4,-0.0,0.7,-0.4,0.1,-0.9,,*4C
$GPGRS,101552.00,1,0.3,-0.5,7.9,-0.8,-1.2,-7.4,4.3,,,,,*65
$GPGRS,101552.00,1,-0.1,-0.2,0.3,-0.3,0.2,-0.5,,,,,,*48
$GPGRS,101552.00,1,0.0,0.9,0.7,2.1,0.1,-0.1,-0.5,-0.4,-2.6,-0.8,-0.5,0.3*4A
$GPGRS,101552.00,1,-1.3,,,,,,,,,,,*4D
$GPGSV,6,1,23,15,64,228,49,10,10,331,41,23,24,291,44,12,17,225,43*72
$GPGSV,6,2,23,19,33,130,45,14,34,056,45,17,39,090,47,13,52,154,49*79
$GPGSV,6,3,23,24,46,290,47,22,56,060,,21,01,018,,05,00,203,*7B
$GPGSV,6,4,23,02,03,037,38,30,08,096,38,36,35,170,44,58,13,245,36*77
$GPGSV,6,5,23,40,23,133,37,34,31,208,42,49,34,195,44,57,07,111,38*7A
$GPGSV,6,6,23,41,07,108,35,61,03,257,38*7A
$GLGSV,3,1,09,76,74,334,53,85,19,069,45,84,13,017,32,75,26,053,47*6F
$GLGSV,3,2,09,67,37,321,50,65,24,180,43,77,37,258,44,66,64,232,52*6B
$GLGSV,3,3,09,86,01,118,*5B
$GAGSV,3,1,10,02,76,196,49,07,27,311,42,16,21,051,,30,24,224,42*6B
$GAGSV,3,2,10,03,41,153,46,25,45,056,46,08,74,258,49,12,02,033,29*6F
$GAGSV,3,3,10,10,00,055,,33,01,344,34*6D
$GBGSV,5,1,18,26,80,296,51,21,23,187,44,40,26,043,43,35,11,134,42*69
$GBGSV,5,2,18,07,27,054,41,05,20,130,38,25,28,249,,33,28,312,45*64
$GBGSV,5,3,18,50,39,207,,24,29,259,46,10,37,065,42,56,36,074,*6A
$GBGSV,5,4,18,14,45,285,46,45,38,069,47,42,50,243,49,02,04,109,30*6A
$GBGSV,5,5,18,29,07,032,,60,07,111,40*6B
$GPGGA,101552.00,,,,,0,00,,,M,,M,,*4A
$PTNL,GGK,101552.00,010125,4742.1601491,N,01618.1000674,E,1,36,0.8,EHT751.8943,M*45
$GPGGQ,101552.00,010125,4742.1601491,N,01618.1000674,E,1,36,1.096,708.6877,M*39
$GPGFA,101552.00,4.261,7.793,0.448,0.312,9.145,0.950,,VVV*07
$GPLLK,101552.00,010125,,M,,M,1,36,0.9,,M*05
$GNGMP,101552.00,,,,,DAAA,36,0.4,,,,*55
$GPGMP,101552.00,,,,,,10,,,,3.6,136*7F
$GLGMP,101552.00,,,,,,07,,,,,*7A
$GAGMP,101552.00,,,,,,06,,,,,*76
$GBGMP,101552.00,,,,,,13,,,,,*71
$PSSN,SNC,[0,296170000,2347]*4F
$GPZDA,101557.00,01,01,2025,,*64
$GPDTM,W84,,00.0000000,N,00.0000000,E,00.0000000,W84*5F
$PSSN,TFM,101557.00,,,,*68
$GPRMC,101557.00,A,4742.1601532,N,01618.1000636,E,0.0,,010125,5.1,E,D*11
$GPGLL,4742.1601532,N,01618.1000636,E,101557.00,A,D*60
$GPGGA,101557.00,4742.1601532,N,01618.1000636,E,2,36,0.4,708.6860,M,43.2066,M,2.3,0136*4B
$GNGNS,101557.00,4742.1601532,N,01618.1000636,E,DAAA,36,0.4,708.6860,43.2066,,*52
$GPGNS,101557.00,,,,,,10,,,,2.3,136*7E
$GLGNS,101557.00,,,,,,07,,,,,*7F
$GAGNS,101557.00,,,,,,06,,,,,*73
$GBGNS,101557.00,,,,,,13,,,,,*74
$GPLLQ,101557.00,010125,,M,,M,1,36,1.097,,M*1C
$GPVTG,,T,,M,0.01,N,0.01,K,D*26
$GPHDT,,T*1B
$GPTHS,,V*0E
$GPROT,,V*08
$PSSN,HRP,101557.00,010125,,,,,,,00,0,,*66
$PTNL,AVR,101557.00,,Yaw,,Tilt,,,,0,,00*30
$GPGSA,A,3,10,12,13,14,15,17,19,23,24,30,,,0.8,0.4,0.7*32
$GPGSA,A,3,65,66,67,75,76,77,85,,,,,,0.8,0.4,0.7*35
$GPGSA,A,3,02,03,07,08,25,30,,,,,,,0.8,0.4,0.7*33
$GPGSA,A,3,05,07,10,14,21,24,26,33,35,40,42,45,0.8,0.4,0.7*3B
$GPGSA,A,3,60,,,,,,,,,,,,0.8,0.4,0.7*3F
$GPGST,101557.00,2.166,0.452,0.311,9.686,0.448,0.316,0.950*52
$GPGBS,101557.00,2.963,1.793,6.248,77,0.0001,-7.198,6.131*7C
$GPGRS,101557.00,1,-0.8,0.6,0.0,0.1,-0.0,0.3,0.2,-0.3,-0.3,-0.8,,*62
$GPGRS,101557.00,1,0.4,-0.8,7.2,-1.5,-1.0,-7.2,3.4,,,,,*69
$GPGRS,101557.00,1,-0.2,-0.2,0.3,-0.2,0.2,-0.2,,,,,,*48
$GPGRS,101557.00,1,-0.2,1.2,0.8,1.8,0.4,-0.4,-0.3,-0.6,-2.3,-0.5,-0.3,0.7*61
$GPGRS,101557.00,1,-1.5,,,,,,,,,,,*4E
$GPGSV,6,1,23,15,64,228,49,10,10,331,41,23,24,291,43,12,17,225,43*75
$GPGSV,6,2,23,19,33,130,44,14,34,056,45,17,39,090,46,13,52,154,49*79
$GPGSV,6,3,23,24,46,290,46,22,56,060,,21,01,018,,05,00,203,*7A
$GPGSV,6,4,23,02,03,037,37,30,08,096,38,36,35,170,44,58,13,245,36*78
$GPGSV,6,5,23,40,23,133,37,34,31,208,42,49,34,195,44,57,07,111,38*7A
$GPGSV,6,6,23,41,07,108,35,61,03,257,38*7A
$GLGSV,3,1,09,76,74,334,52,85,19,069,44,84,13,017,32,75,26,053,47*6F
$GLGSV,3,2,09,67,37,321,50,65,24,180,43,77,37,259,43,66,64,232,52*6D
$GLGSV,3,3,09,86,01,118,*5B
$GAGSV,3,1,10,02,76,196,49,07,27,311,42,16,21,051,,30,24,224,42*6B
$GAGSV,3,2,10,03,41,153,45,25,45,056,45,08,74,258,48,12,02,033,30*66
$GAGSV,3,3,10,10,00,055,,33,01,344,34*6D
$GBGSV,5,1,18,26,80,297,51,21,23,187,44,40,26,043,43,35,11,134,41*6B
$GBGSV,5,2,18,07,27,054,41,05,20,130,38,25,28,249,,33,28,312,45*64
$GBGSV,5,3,18,50,39,207,,24,29,259,46,10,37,065,42,56,36,074,*6A
$GBGSV,5,4,18,14,45,285,46,45,38,069,46,42,50,243,49,02,04,109,30*6B
$GBGSV,5,5,18,29,07,032,,60,07,111,40*6B
$GPGGA,101557.00,,,,,0,00,,,M,,M,,*4F
$PTNL,GGK,101557.00,010125,4742.1601532,N,01618.1000636,E,1,36,0.8,EHT751.8925,M*4E
$GPGGQ,101557.00,010125,4742.1601532,N,01618.1000636,E,1,36,1.097,708.6860,M*35
$GPGFA,101557.00,4.295,7.793,0.452,0.311,9.686,0.950,,VVV*09
$GPLLK,101557.00,010125,,M,,M,1,36,0.9,,M*00
$GNGMP,101557.00,,,,,DAAA,36,0.4,,,,*50
$GPGMP,101557.00,,,,,,10,,,,2.3,136*7E
$GLGMP,101557.00,,,,,,07,,,,,*7F
$GAGMP,101557.00,,,,,,06,,,,,*73
$GBGMP,101557.00,,,,,,13,,,,,*74
$PSSN,SNC,[0,296175000,2347]*4A
$GPZDA,101602.00,01,01,2025,,*67
$GPDTM,W84,,00.0000000,N,00.0000000,E,00.0000000,W84*5F
$PSSN,TFM,101602.00,,,,*6B
$GPRMC,101602.00,A,4742.1601561,N,01618.1000617,E,0.0,,010125,5.1,E,D*17
$GPGLL,4742.1601561,N,01618.1000617,E,101602.00,A,D*66
$GPGGA,101602.00,4742.1601561,N,01618.1000617,E,2,36,0.4,708.6873,M,43.2066,M,1.6,0136*49
$GNGNS,101602.00,4742.1601561,N,01618.1000617,E,DAAA,36,0.4,708.6873,43.2066,,*56
$GPGNS,101602.00,,,,,,10,,,,1.6,136*7B
$GLGNS,101602.00,,,,,,07,,,,,*7C
$GAGNS,101602.00,,,,,,06,,,,,*70
$GBGNS,101602.00,,,,,,13,,,,,*77
$GPLLQ,101602.00,010125,,M,,M,1,36,1.080,,M*19
$GPVTG,,T,,M,0.00,N,0.01,K,D*27
$GPHDT,,T*1B
$GPTHS,,V*0E
$GPROT,,V*08
$PSSN,HRP,101602.00,010125,,,,,,,00,0,,*65
$PTNL,AVR,101602.00,,Yaw,,Tilt,,,,0,,00*33
$GPGSA,A,3,10,12,13,14,15,17,19,23,24,30,,,0.8,0.4,0.7*32
$GPGSA,A,3,65,66,67,75,76,77,85,,,,,,0.8,0.4,0.7*35
$GPGSA,A,3,02,03,07,08,25,30,,,,,,,0.8,0.4,0.7*33
$GPGSA,A,3,05,07,10,14,21,24,26,33,35,40,42,45,0.8,0.4,0.7*3B
$GPGSA,A,3,60,,,,,,,,,,,,0.8,0.4,0.7*3F
$GPGST,101602.00,2.255,0.446,0.305,9.901,0.443,0.310,0.935*5C
$GPGBS,101602.00,2.902,1.733,6.259,77,0.0001,-7.983,6.131*70
$GPGRS,101602.00,1,-1.2,0.7,-0.1,0.2,0.1,-0.0,0.4,-0.0,-0.2,-0.5,,*4F
$GPGRS,101602.00,1,1.2,-0.4,7.4,-1.6,-0.9,-8.0,3.2,,,,,*67
$GPGRS,101602.00,1,-0.1,-0.2,0.4,-0.0,-0.0,-0.4,,,,,,*64
$GPGRS,101602.00,1,-0.3,1.2,0.7,1.7,0.3,-0.4,-0.4,-0.5,-2.1,-0.5,-0.5,0.4*67
$GPGRS,101602.00,1,-1.4,,,,,,,,,,,*4C
$GPGSV,6,1,23,15,64,227,49,10,10,331,40,23,24,291,43,12,17,225,43*7B
$GPGSV,6,2,23,19,33,130,44,14,34,056,44,17,39,090,47,13,52,154,49*79
$GPGSV,6,3,23,24,47,290,46,22,56,060,,21,01,018,,05,00,203,*7B
$GPGSV,6,4,23,02,03,037,37,30,08,096,38,36,35,170,44,58,13,245,36*78
$GPGSV,6,5,23,40,23,133,36,34,31,208,42,49,34,195,44,57,07,111,38*7B
$GPGSV,6,6,23,41,07,108,35,61,03,257,38*7A
$GLGSV,3,1,09,76,74,334,52,85,19,069,45,84,13,017,31,75,26,053,47*6D
$GLGSV,3,2,09,67,37,321,50,65,24,180,43,77,37,259,43,66,64,232,53*6C
$GLGSV,3,3,09,86,01,118,*5B
$GAGSV,3,1,10,02,76,196,49,07,27,311,42,16,21,051,,30,24,224,42*6B
$GAGSV,3,2,10,03,41,153,45,25,45,056,45,08,74,257,49,12,02,033,30*68
$GAGSV,3,3,10,10,00,055,,33,01,344,34*6D
$GBGSV,5,1,18,26,80,297,51,21,23,187,45,40,26,043,43,35,11,134,42*69
$GBGSV,5,2,18,07,27,054,41,05,20,130,38,25,28,249,,33,28,312,45*64
$GBGSV,5,3,18,50,39,207,,24,29,259,46,10,37,065,42,56,36,074,*6A
$GBGSV,5,4,18,14,45,285,46,45,38,069,46,42,50,243,49,02,04,109,31*6A
$GBGSV,5,5,18,29,07,032,,60,07,111,40*6B
$GPGGA,101602.00,,,,,0,00,,,M,,M,,*4C
$PTNL,GGK,101602.00,010125,4742.1601561,N,01618.1000617,E,1,36,0.8,EHT751.8938,M*44
$GPGGQ,101602.00,010125,4742.1601561,N,01618.1000617,E,1,36,1.080,708.6873,M*37
$GPGFA,101602.00,4.242,7.668,0.446,0.305,9.901,0.935,,VVV*06
$GPLLK,101602.00,010125,,M,,M,1,36,1.0,,M*0B
$GNGMP,101602.00,,,,,DAAA,36,0.4,,,,*53
$GPGMP,101602.00,,,,,,10,,,,1.6,136*7B
$GLGMP,101602.00,,,,,,07,,,,,*7C
$GAGMP,101602.00,,,,,,06,,,,,*70
$GBGMP,101602.00,,,,,,13,,,,,*77
$PSSN,SNC,[0,296180000,2347]*40
$GPZDA,101607.00,01,01,2025,,*62
$GPDTM,W84,,00.0000000,N,00.0000000,E,00.0000000,W84*5F
$PSSN,TFM,101607.00,,,,*6E
$GPRMC,101607.00,A,4742.1601579,N,01618.1000590,E,0.0,,010125,5.1,E,D*17
$GPGLL,4742.1601579,N,01618.1000590,E,101607.00,A,D*66
$GPGGA,101607.00,4742.1601579,N,01618.1000590,E,2,36,0.4,708.6874,M,43.2066,M,2.6,0136*4D
$GNGNS,101607.00,4742.1601579,N,01618.1000590,E,DAAA,36,0.4,708.6874,43.2066,,*51
$GPGNS,101607.00,,,,,,10,,,,2.6,136*7D
$GLGNS,101607.00,,,,,,07,,,,,*79
$GAGNS,101607.00,,,,,,06,,,,,*75
$GBGNS,101607.00,,,,,,13,,,,,*72
$GPLLQ,101607.00,010125,,M,,M,1,36,1.083,,M*1F
$GPVTG,,T,,M,0.01,N,0.02,K,D*25
$GPHDT,,T*1B
$GPTHS,,V*0E
$GPROT,,V*08
$PSSN,HRP,101607.00,010125,,,,,,,00,0,,*60
$PTNL,AVR,101607.00,,Yaw,,Tilt,,,,0,,00*36
$GPGSA,A,3,10,12,13,14,15,17,19,23,24,30,,,0.8,0.4,0.7*32
$GPGSA,A,3,65,66,67,75,76,77,85,,,,,,0.8,0.4,0.7*35
$GPGSA,A,3,02,03,07,08,25,30,,,,,,,0.8,0.4,0.7*33
$GPGSA,A,3,05,07,10,14,21,24,26,33,35,40,42,45,0.8,0.4,0.7*3B
$GPGSA,A,3,60,,,,,,,,,,,,0.8,0.4,0.7*3F
$GPGST,101607.00,2.290,0.442,0.307,9.252,0.439,0.312,0.939*58
$GPGBS,101607.00,2.934,1.750,6.317,77,0.0001,-8.074,6.131*70
$GPGRS,101607.00,1,-1.1,0.5,-0.3,0.7,0.1,-0.2,0.7,-0.1,-0.2,-1.1,,*49
$GPGRS,101607.00,1,1.0,-0.2,7.1,-1.5,-1.0,-8.1,4.0,,,,,*6C
$GPGRS,101607.00,1,0.1,-0.3,0.2,0.0,-0.0,-0.2,,,,,,*60
$GPGRS,101607.00,1,-0.2,1.5,0.7,1.8,0.4,-0.0,-0.6,-0.6,-2.0,-0.4,-0.4,0.1*6D
$GPGRS,101607.00,1,-1.2,,,,,,,,,,,*4F
$GPGSV,6,1,23,15,64,227,49,10,10,331,41,23,24,291,43,12,17,225,43*7A
$GPGSV,6,2,23,19,33,130,45,14,34,056,44,17,39,090,47,13,52,154,50*70
$GPGSV,6,3,23,24,47,290,46,22,56,060,,21,01,018,,05,00,203,*7B
$GPGSV,6,4,23,02,03,037,38,30,08,096,38,36,35,170,44,58,13,245,36*77
$GPGSV,6,5,23,40,23,133,37,34,31,208,42,49,34,195,44,57,07,111,38*7A
$GPGSV,6,6,23,41,07,108,35,61,03,257,38*7A
$GLGSV,3,1,09,76,74,334,52,85,19,069,45,84,13,017,32,75,26,053,47*6E
$GLGSV,3,2,09,67,37,321,50,65,24,180,43,77,37,259,43,66,64,232,53*6C
$GLGSV,3,3,09,86,01,118,*5B
$GAGSV,3,1,10,02,76,196,49,07,27,311,42,16,21,051,,30,24,224,41*68
$GAGSV,3,2,10,03,40,153,45,25,45,056,45,08,74,257,48,12,02,033,29*60
$GAGSV,3,3,10,10,00,055,,33,01,344,33*6A
$GBGSV,5,1,18,26,80,297,51,21,22,187,45,40,26,043,43,35,11,134,42*68
$GBGSV,5,2,18,07,27,054,41,05,20,130,38,25,28,249,,33,28,312,45*64
$GBGSV,5,3,18,50,39,207,,24,29,259,46,10,37,065,42,56,36,074,*6A
$GBGSV,5,4,18,14,45,285,46,45,37,069,47,42,50,243,49,02,04,109,31*64
$GBGSV,5,5,18,29,07,032,,60,07,111,40*6B
$GPGGA,101607.00,,,,,0,00,,,M,,M,,*49
$PTNL,GGK,101607.00,010125,4742.1601579,N,01618.1000590,E,1,36,0.8,EHT751.8940,M*4B
$GPGGQ,101607.00,010125,4742.1601579,N,01618.1000590,E,1,36,1.083,708.6874,M*33
$GPGFA,101607.00,4.204,7.702,0.442,0.307,9.252,0.939,,VVV*0B
$GPLLK,101607.00,010125,,M,,M,1,36,1.0,,M*0E
$GNGMP,101607.00,,,,,DAAA,36,0.4,,,,*56
$GPGMP,101607.00,,,,,,10,,,,2.6,136*7D
$GLGMP,101607.00,,,,,,07,,,,,*79
$GAGMP,101607.00,,,,,,06,,,,,*75
$GBGMP,101607.00,,,,,,13,,,,,*72
$PSSN,SNC,[0,296185000,2347]*45
$GPZDA,101612.00,01,01,2025,,*66
$GPDTM,W84,,00.0000000,N,00.0000000,E,00.0000000,W84*5F
$PSSN,TFM,101612.00,,,,*6A
$GPRMC,101612.00,A,4742.1601594,N,01618.1000538,E,0.0,,010125,5.1,E,D*12
$GPGLL,4742.1601594,N,01618.1000538,E,101612.00,A,D*63
$GPGGA,101612.00,4742.1601594,N,01618.1000538,E,2,36,0.4,708.6922,M,43.2066,M,3.6,0136*4B
$GNGNS,101612.00,4742.1601594,N,01618.1000538,E,DAAA,36,0.4,708.6922,43.2066,,*56
$GPGNS,101612.00,,,,,,10,,,,3.6,136*78
$GLGNS,101612.00,,,,,,07,,,,,*7D
$GAGNS,101612.00,,,,,,06,,,,,*71
$GBGNS,101612.00,,,,,,13,,,,,*76
$GPLLQ,101612.00,010125,,M,,M,1,36,1.123,,M*10
$GPVTG,,T,,M,0.00,N,0.01,K,D*27
$GPHDT,,T*1B
$GPTHS,,V*0E
$GPROT,,V*08
$PSSN,HRP,101612.00,010125,,,,,,,00,0,,*64
$PTNL,AVR,101612.00,,Yaw,,Tilt,,,,0,,00*32
$GPGSA,A,3,10,12,13,14,15,17,19,23,24,30,,,0.8,0.4,0.7*32
$GPGSA,A,3,65,66,67,75,76,77,85,,,,,,0.8,0.4,0.7*35
$GPGSA,A,3,02,03,07,08,25,30,,,,,,,0.8,0.4,0.7*33
$GPGSA,A,3,05,07,10,14,21,24,26,33,35,40,42,45,0.8,0.4,0.7*3B
$GPGSA,A,3,60,,,,,,,,,,,,0.8,0.4,0.7*3F
$GPGST,101612.00,2.269,0.458,0.319,9.012,0.455,0.323,0.974*59
$GPGBS,101612.00,2.973,1.770,6.384,77,0.0001,-7.734,6.131*73
$GPGRS,101612.00,1,-1.0,0.6,-0.4,0.8,-0.3,-0.1,1.1,-0.1,-0.4,-0.6,,*6C
$GPGRS,101612.00,1,1.4,-0.5,6.6,-1.4,-1.5,-7.7,4.7,,,,,*67
$GPGRS,101612.00,1,0.1,-0.4,-0.1,-0.0,-0.1,-0.2,,,,,,*61
$GPGRS,101612.00,1,0.0,1.7,0.6,1.7,0.5,0.1,-0.6,-0.5,-2.1,-0.7,-0.6,0.4*61
$GPGRS,101612.00,1,-1.0,,,,,,,,,,,*49
$GPGSV,6,1,22,15,64,227,50,10,10,331,41,23,24,291,43,12,17,225,43*73
$GPGSV,6,2,22,19,33,130,45,14,34,056,44,17,39,090,47,13,52,154,49*79
$GPGSV,6,3,22,24,47,290,46,22,56,060,,02,03,037,38,21,01,018,*70
$GPGSV,6,4,22,30,08,096,38,36,35,170,44,58,13,245,36,40,23,133,37*78
$GPGSV,6,5,22,34,31,208,42,49,34,195,44,57,07,111,38,41,07,108,35*76
$GPGSV,6,6,22,61,03,257,38*46
$GLGSV,3,1,09,76,74,334,52,85,19,069,45,84,13,017,31,75,26,053,47*6D
$GLGSV,3,2,09,67,37,321,49,65,23,180,44,77,37,259,43,66,64,231,53*67
$GLGSV,3,3,09,86,01,118,*5B
$GAGSV,3,1,10,02,76,196,49,07,27,311,42,16,21,051,,30,24,224,41*68
$GAGSV,3,2,10,03,40,153,45,25,45,056,45,08,74,257,48,12,02,033,30*68
$GAGSV,3,3,10,10,00,055,,33,01,344,33*6A
$GBGSV,5,1,18,26,80,297,51,21,22,187,45,40,26,043,43,35,11,133,42*6F
$GBGSV,5,2,18,07,27,054,41,05,20,130,38,25,28,249,,33,28,312,45*64
$GBGSV,5,3,18,50,39,207,,24,29,259,46,10,37,065,42,56,36,074,*6A
$GBGSV,5,4,18,14,45,285,46,45,37,069,47,42,50,243,49,02,04,109,31*64
$GBGSV,5,5,18,29,07,032,,60,07,111,40*6B
$GPGGA,101612.00,,,,,0,00,,,M,,M,,*4D
$PTNL,GGK,101612.00,010125,4742.1601594,N,01618.1000538,E,1,36,0.8,EHT751.8987,M*45
$GPGGQ,101612.00,010125,4742.1601594,N,01618.1000538,E,1,36,1.123,708.6922,M*3F
$GPGFA,101612.00,4.350,7.988,0.458,0.319,9.012,0.974,,VVV*08
$GPLLK,101612.00,010125,,M,,M,1,36,1.0,,M*0A
$GNGMP,101612.00,,,,,DAAA,36,0.4,,,,*52
$GPGMP,101612.00,,,,,,10,,,,3.6,136*78
$GLGMP,101612.00,,,,,,07,,,,,*7D
$GAGMP,101612.00,,,,,,06,,,,,*71
$GBGMP,101612.00,,,,,,13,,,,,*76
$PSSN,SNC,[0,296190000,2347]*41
$GPZDA,101617.00,01,01,2025,,*63
$GPDTM,W84,,00.0000000,N,00.0000000,E,00.0000000,W84*5F
$PSSN,TFM,101617.00,,,,*6F
$GPRMC,101617.00,A,4742.1601590,N,01618.1000473,E,0.0,,010125,5.1,E,D*1D
$GPGLL,4742.1601590,N,01618.1000473,E,101617.00,A,D*6C
$GPGGA,101617.00,4742.1601590,N,01618.1000473,E,2,36,0.4,708.6940,M,43.2066,M,2.3,0136*44
$GNGNS,101617.00,4742.1601590,N,01618.1000473,E,DAAA,36,0.4,708.6940,43.2066,,*5D
$GPGNS,101617.00,,,,,,10,,,,2.3,136*79
$GLGNS,101617.00,,,,,,07,,,,,*78
$GAGNS,101617.00,,,,,,06,,,,,*74
$GBGNS,101617.00,,,,,,13,,,,,*73
$GPLLQ,101617.00,010125,,M,,M,1,36,1.100,,M*14
$GPVTG,,T,,M,0.00,N,0.00,K,D*26
$GPHDT,,T*1B
$GPTHS,,V*0E
$GPROT,,V*08
$PSSN,HRP,101617.00,010125,,,,,,,00,0,,*61
$PTNL,AVR,101617.00,,Yaw,,Tilt,,,,0,,00*37
$GPGSA,A,3,10,12,13,14,15,17,19,23,24,30,,,0.8,0.4,0.7*32
$GPGSA,A,3,65,66,67,75,76,77,85,,,,,,0.8,0.4,0.7*35
$GPGSA,A,3,02,03,07,08,25,30,,,,,,,0.8,0.4,0.7*33
$GPGSA,A,3,05,07,10,14,21,24,26,33,35,40,42,45,0.8,0.4,0.7*3B
$GPGSA,A,3,60,,,,,,,,,,,,0.8,0.4,0.7*3F
$GPGST,101617.00,2.318,0.452,0.311,9.554,0.448,0.316,0.954*56
$GPGBS,101617.00,2.962,1.794,6.271,77,0.0001,-7.682,6.130*7A
$GPGRS,101617.00,1,-0.9,0.4,-0.6,0.6,-0.2,0.1,0.4,0.3,0.1,-0.1,,*47
$GPGRS,101617.00,1,1.4,-0.6,7.4,-1.0,-1.2,-7.7,4.7,,,,,*61
$GPGRS,101617.00,1,0.1,-0.2,0.1,0.1,0.2,-0.1,,,,,,*4E
$GPGRS,101617.00,1,0.2,1.7,0.3,1.4,0.4,0.1,-0.5,-0.5,-2.4,-0.8,-0.5,0.5*6A
$GPGRS,101617.00,1,-1.3,,,,,,,,,,,*4F
$GPGSV,6,1,22,15,64,227,50,10,10,331,40,23,24,291,43,12,17,225,43*72
$GPGSV,6,2,22,19,33,130,45,14,34,056,45,17,39,090,47,13,52,154,49*78
$GPGSV,6,3,22,24,47,290,46,22,56,060,,02,03,037,38,21,01,018,*70
$GPGSV,6,4,22,30,08,096,38,36,35,170,44,58,13,245,36,40,23,133,36*79
$GPGSV,6,5,22,34,31,208,42,49,34,195,44,57,07,111,38,41,07,108,35*76
$GPGSV,6,6,22,61,03,257,38*46
$GLGSV,3,1,09,76,74,334,52,85,19,069,45,84,13,017,31,75,26,054,47*6A
$GLGSV,3,2,09,67,37,321,50,65,23,180,43,77,37,259,43,66,64,231,53*68
$GLGSV,3,3,09,86,01,118,*5B
$GAGSV,3,1,10,02,76,196,49,07,27,311,42,16,21,051,,30,24,224,42*6B
$GAGSV,3,2,10,03,40,154,45,25,45,056,45,08,74,257,48,12,02,033,29*67
$GAGSV,3,3,10,10,00,054,,33,01,344,32*6A
$GBGSV,5,1,18,26,80,297,51,40,26,043,43,35,11,133,42,21,22,187,44*6E
$GBGSV,5,2,18,07,27,054,41,05,20,130,38,25,28,249,,33,28,312,45*64
$GBGSV,5,3,18,50,39,207,,24,29,259,46,10,37,065,42,56,36,074,*6A
$GBGSV,5,4,18,14,45,285,46,45,37,069,47,42,50,243,49,02,04,109,31*64
$GBGSV,5,5,18,29,07,032,,60,07,111,40*6B
$GPGGA,101617.00,,,,,0,00,,,M,,M,,*48
$PTNL,GGK,101617.00,010125,4742.1601590,N,01618.1000473,E,1,36,0.8,EHT751.9006,M*4B
$GPGGQ,101617.00,010125,4742.1601590,N,01618.1000473,E,1,36,1.100,708.6940,M*35
$GPGFA,101617.00,4.293,7.823,0.452,0.311,9.554,0.954,,VVV*04
$GPLLK,101617.00,010125,,M,,M,1,36,1.0,,M*0F
$GNGMP,101617.00,,,,,DAAA,36,0.4,,,,*57
$GPGMP,101617.00,,,,,,10,,,,2.3,136*79
$GLGMP,101617.00,,,,,,07,,,,,*78
$GAGMP,101617.00,,,,,,06,,,,,*74
$GBGMP,101617.00,,,,,,13,,,,,*73
$PSSN,SNC,[0,296195000,2347]*44
$GPZDA,101622.00,01,01,2025,,*65
$GPDTM,W84,,00.0000000,N,00.0000000,E,00.0000000,W84*5F
$PSSN,TFM,101622.00,,,,*69
