$GPZDA,122942.00,01,01,2025,,*6D
$GPDTM,W84,,00.0000000,N,00.0000000,E,00.0000000,W84*5F
$PSSN,TFM,122942.00,,,,*61
$GPRMC,122942.00,A,4742.1603439,N,01618.1006072,E,0.0,,010125,5.1,E,D*10
$GPGLL,4742.1603439,N,01618.1006072,E,122942.00,A,D*61
$GPGGA,122942.00,4742.1603439,N,01618.1006072,E,2,37,0.4,708.1304,M,43.2066,M,2.8,0136*4E
$GNGNS,122942.00,4742.1603439,N,01618.1006072,E,DAAA,37,0.4,708.1304,43.2066,,*5C
$GPGNS,122942.00,,,,,,09,,,,2.8,136*74
$GLGNS,122942.00,,,,,,08,,,,,*79
$GAGNS,122942.00,,,,,,08,,,,,*74
$GBGNS,122942.00,,,,,,12,,,,,*7C
$GPLLQ,122942.00,010125,,M,,M,1,37,0.960,,M*14
$GPVTG,,T,,M,0.00,N,0.00,K,D*26
$GPHDT,,T*1B
$GPTHS,,V*0E
$GPROT,,V*08
$PSSN,HRP,122942.00,010125,,,,,,,00,0,,*6F
$PTNL,AVR,122942.00,,Yaw,,Tilt,,,,0,,00*39
$GPGSA,A,3,06,11,12,15,17,19,24,25,32,,,,0.8,0.4,0.7*36
$GPGSA,A,3,67,68,69,76,77,78,86,87,,,,,0.8,0.4,0.7*36
$GPGSA,A,3,02,07,08,11,27,29,30,36,,,,,0.8,0.4,0.7*3C
$GPGSA,A,3,05,07,10,12,14,24,26,33,35,40,41,60,0.8,0.4,0.7*3F
$GPGST,122942.00,2.240,0.499,0.360,358.980,0.499,0.360,0.737*51
$GPGBS,122942.00,3.056,2.488,4.492,17,0.0001,-2.387,1.911*70
$GPGRS,122942.00,1,0.1,1.3,-0.4,-0.3,-2.4,0.4,-0.1,-0.3,1.1,,,*47
$GPGRS,122942.00,1,4.5,5.3,1.2,-2.5,-6.3,-3.3,1.0,-1.8,,,,*4E
$GPGRS,122942.00,1,0.8,-0.3,-0.3,-1.2,-1.3,1.4,0.4,0.6,,,,*4E
$GPGRS,122942.00,1,1.5,0.7,1.7,-0.6,0.5,0.5,0.0,-1.0,-0.9,-3.5,1.3,-1.3*60
$GPGSV,5,1,20,12,74,280,50,17,12,041,41,11,11,127,40,32,25,313,44*72
$GPGSV,5,2,20,19,38,055,46,06,22,091,41,25,32,263,44,24,69,147,50*79
$GPGSV,5,3,20,22,05,071,,15,08,188,39,10,02,278,37,36,35,170,45*77
$GPGSV,5,4,20,58,13,245,36,40,23,133,36,34,31,208,43,49,34,195,45*7C
$GPGSV,5,5,20,57,08,111,37,41,07,108,35,61,03,257,38*46
$GLGSV,3,1,10,77,65,034,47,78,34,292,50,69,12,342,44,76,27,080,47*63
$GLGSV,3,2,10,67,28,235,48,68,37,295,50,86,36,053,49,87,39,117,47*66
$GLGSV,3,3,10,85,02,011,39,88,04,166,*64
$GAGSV,3,1,11,30,67,269,49,08,31,192,44,29,20,319,41,11,15,039,36*64
$GAGSV,3,2,11,27,16,256,41,36,21,088,40,02,54,063,48,07,51,262,47*61
$GAGSV,3,3,11,10,04,015,36,34,06,136,,25,04,071,36*59
$GBGSV,5,1,20,24,76,312,52,40,10,041,40,14,14,229,40,05,20,130,39*6B
$GBGSV,5,2,20,12,21,167,40,07,15,053,39,41,20,306,43,33,22,254,45*62
$GBGSV,5,3,20,23,21,277,,10,28,057,41,44,39,147,,56,35,054,*6F
$GBGSV,5,4,20,35,44,081,48,26,47,095,49,25,74,306,,34,02,187,*67
$GBGSV,5,5,20,42,02,207,34,31,05,099,,02,04,109,33,60,08,111,39*63
$GPGGA,122942.00,,,,,0,00,,,M,,M,,*46
$PTNL,GGK,122942.00,010125,4742.1603439,N,01618.1006072,E,1,37,0.8,EHT751.3369,M*47
$GPGGQ,122942.00,010125,4742.1603439,N,01618.1006072,E,1,37,0.960,708.1304,M*3B
$GPGFA,122942.00,4.743,6.042,0.499,0.360,358.980,0.737,,VVV*04
$GPLLK,122942.00,010125,,M,,M,1,37,0.9,,M*08
$GNGMP,122942.00,,,,,DAAA,37,0.4,,,,*58
$GPGMP,122942.00,,,,,,09,,,,2.8,136*74
$GLGMP,122942.00,,,,,,08,,,,,*79
$GAGMP,122942.00,,,,,,08,,,,,*74
$GBGMP,122942.00,,,,,,12,,,,,*7C
$PSSN,SNC,[0,304200000,2347]*41
$GPZDA,122947.00,01,01,2025,,*68
$GPDTM,W84,,00.0000000,N,00.0000000,E,00.0000000,W84*5F
$PSSN,TFM,122947.00,,,,*64
$GPRMC,122947.00,A,4742.1603438,N,01618.1006057,E,0.0,,010125,5.1,E,D*13
$GPGLL,4742.1603438,N,01618.1006057,E,122947.00,A,D*62
$GPGGA,122947.00,4742.1603438,N,01618.1006057,E,2,37,0.4,708.1353,M,43.2066,M,2.4,0136*43
$GNGNS,122947.00,4742.1603438,N,01618.1006057,E,DAAA,37,0.4,708.1353,43.2066,,*5D
$GPGNS,122947.00,,,,,,09,,,,2.4,136*7D
$GLGNS,122947.00,,,,,,08,,,,,*7C
$GAGNS,122947.00,,,,,,08,,,,,*71
$GBGNS,122947.00,,,,,,12,,,,,*79
$GPLLQ,122947.00,010125,,M,,M,1,37,0.987,,M*18
$GPVTG,,T,,M,0.00,N,0.01,K,D*27
$GPHDT,,T*1B
$GPTHS,,V*0E
$GPROT,,V*08
$PSSN,HRP,122947.00,010125,,,,,,,00,0,,*6A
$PTNL,AVR,122947.00,,Yaw,,Tilt,,,,0,,00*3C
$GPGSA,A,3,06,11,12,15,17,19,24,25,32,,,,0.8,0.4,0.7*36
$GPGSA,A,3,67,68,69,76,77,78,86,87,,,,,0.8,0.4,0.7*36
$GPGSA,A,3,02,07,08,11,27,29,30,36,,,,,0.8,0.4,0.7*3C
$GPGSA,A,3,05,07,10,12,14,24,26,33,35,40,41,60,0.8,0.4,0.7*3F
$GPGST,122947.00,2.293,0.514,0.371,359.054,0.514,0.371,0.756*5C
$GPGBS,122947.00,3.048,2.478,4.301,17,0.0001,-2.564,1.919*7B
$GPGRS,122947.00,1,0.3,1.6,-0.4,-0.3,-2.6,0.4,-0.1,-0.1,0.7,,,*42
$GPGRS,122947.00,1,5.5,5.6,1.5,-1.7,-6.1,-3.0,1.7,-1.5,,,,*42
$GPGRS,122947.00,1,0.8,-0.4,-0.1,-1.3,-0.7,1.8,0.3,0.5,,,,*42
$GPGRS,122947.00,1,1.3,1.0,1.6,0.5,0.5,0.5,0.1,-1.0,-1.1,-3.5,1.0,-1.1*43
$GPGSV,5,1,20,12,74,280,51,17,12,041,40,11,12,127,40,32,25,313,44*71
$GPGSV,5,2,20,19,38,055,46,06,22,091,42,25,32,263,44,24,69,147,50*7A
$GPGSV,5,3,20,22,05,071,,15,08,188,39,10,02,278,37,36,35,170,45*77
$GPGSV,5,4,20,58,13,245,36,40,23,133,36,34,31,208,43,49,34,195,44*7D
$GPGSV,5,5,20,57,08,111,37,41,07,108,35,61,03,257,38*46
$GLGSV,3,1,10,77,65,034,47,78,34,292,49,69,12,342,45,76,26,080,47*6B
$GLGSV,3,2,10,67,28,235,48,68,37,294,50,86,36,053,49,87,39,117,47*67
$GLGSV,3,3,10,85,02,010,39,88,04,166,*65
$GAGSV,3,1,11,30,67,269,49,08,31,192,44,29,20,319,40,11,15,039,36*65
$GAGSV,3,2,11,27,16,256,41,36,21,088,40,02,54,063,48,07,51,262,47*61
$GAGSV,3,3,11,10,04,015,35,34,06,136,,25,04,071,35*59
$GBGSV,5,1,20,24,76,312,52,40,10,041,40,14,14,229,40,05,20,130,38*6A
$GBGSV,5,2,20,12,21,167,41,07,15,053,39,41,20,306,43,33,22,254,45*63
$GBGSV,5,3,20,23,21,277,,10,28,057,41,44,39,147,,56,35,054,*6F
$GBGSV,5,4,20,35,44,081,48,26,47,095,49,25,74,306,,34,02,187,*67
$GBGSV,5,5,20,42,02,207,34,31,05,099,,02,04,109,32,60,08,111,39*62
$GPGGA,122947.00,,,,,0,00,,,M,,M,,*43
$PTNL,GGK,122947.00,010125,4742.1603438,N,01618.1006057,E,1,37,0.8,EHT751.3419,M*44
$GPGGQ,122947.00,010125,4742.1603438,N,01618.1006057,E,1,37,0.987,708.1353,M*33
$GPGFA,122947.00,4.886,6.201,0.514,0.371,359.054,0.756,,VVV*00
$GPLLK,122947.00,010125,,M,,M,1,37,0.9,,M*0D
$GNGMP,122947.00,,,,,DAAA,37,0.4,,,,*5D
$GPGMP,122947.00,,,,,,09,,,,2.4,136*7D
$GLGMP,122947.00,,,,,,08,,,,,*7C
$GAGMP,122947.00,,,,,,08,,,,,*71
$GBGMP,122947.00,,,,,,12,,,,,*79
$PSSN,SNC,[0,304205000,2347]*44
$GPZDA,122952.00,01,01,2025,,*6C
$GPDTM,W84,,00.0000000,N,00.0000000,E,00.0000000,W84*5F
$PSSN,TFM,122952.00,,,,*60
$GPRMC,122952.00,A,4742.1603457,N,01618.1006049,E,0.0,,010125,5.1,E,D*11
$GPGLL,4742.1603457,N,01618.1006049,E,122952.00,A,D*60
$GPGGA,122952.00,4742.1603457,N,01618.1006049,E,2,37,0.4,708.1391,M,43.2066,M,3.0,0136*4A
$GNGNS,122952.00,4742.1603457,N,01618.1006049,E,DAAA,37,0.4,708.1391,43.2066,,*51
$GPGNS,122952.00,,,,,,09,,,,3.0,136*7C
$GLGNS,122952.00,,,,,,08,,,,,*78
$GAGNS,122952.00,,,,,,08,,,,,*75
$GBGNS,122952.00,,,,,,12,,,,,*7D
$GPLLQ,122952.00,010125,,M,,M,1,37,0.961,,M*14
$GPVTG,,T,,M,0.00,N,0.00,K,D*26
$GPHDT,,T*1B
$GPTHS,,V*0E
$GPROT,,V*08
$PSSN,HRP,122952.00,010125,,,,,,,00,0,,*6E
$PTNL,AVR,122952.00,,Yaw,,Tilt,,,,0,,00*38
$GPGSA,A,3,06,11,12,15,17,19,24,25,32,,,,0.8,0.4,0.7*36
$GPGSA,A,3,67,68,69,76,77,78,86,87,,,,,0.8,0.4,0.7*36
$GPGSA,A,3,02,07,08,11,27,29,30,36,,,,,0.8,0.4,0.7*3C
$GPGSA,A,3,05,07,10,12,14,24,26,33,35,40,41,60,0.8,0.4,0.7*3F
$GPGST,122952.00,2.207,0.502,0.362,359.868,0.502,0.362,0.735*57
$GPGBS,122952.00,3.075,2.461,4.332,17,0.0001,-2.766,1.927*74
$GPGRS,122952.00,1,0.3,1.2,-0.2,-0.1,-2.8,0.1,-0.1,-0.0,0.8,,,*43
$GPGRS,122952.00,1,5.3,4.6,2.3,-2.3,-6.0,-3.2,1.6,-1.5,,,,*41
$GPGRS,122952.00,1,0.8,-0.0,-0.6,-1.3,-1.1,1.8,0.1,0.5,,,,*40
$GPGRS,122952.00,1,1.0,0.8,1.5,0.5,0.3,0.4,-0.2,-0.8,-1.0,-3.1,0.8,-1.1*62
$GPGSV,5,1,20,12,74,280,50,17,12,041,40,11,12,127,40,32,25,313,43*77
$GPGSV,5,2,20,19,38,055,46,06,22,091,42,25,32,263,44,24,69,147,50*7A
$GPGSV,5,3,20,22,05,071,,15,08,188,39,10,02,278,36,36,35,170,45*76
$GPGSV,5,4,20,58,13,245,36,40,23,133,36,34,31,208,43,49,34,195,45*7C
$GPGSV,5,5,20,57,08,111,37,41,07,108,35,61,03,257,38*46
$GLGSV,3,1,10,77,65,034,47,78,34,292,50,69,12,342,45,76,26,080,47*63
$GLGSV,3,2,10,67,28,235,48,68,37,294,50,86,36,053,49,87,39,117,47*67
$GLGSV,3,3,10,85,02,010,39,88,04,166,*65
$GAGSV,3,1,11,30,67,269,49,08,31,192,43,29,20,319,40,11,15,039,36*62
$GAGSV,3,2,11,27,16,256,41,36,21,088,41,02,54,063,48,07,51,262,47*60
$GAGSV,3,3,11,10,04,015,35,34,06,136,,25,04,071,35*59
$GBGSV,5,1,20,24,76,312,51,40,10,041,40,14,14,229,39,05,20,130,38*67
$GBGSV,5,2,20,12,21,167,41,07,15,053,39,41,20,306,43,33,22,254,44*62
$GBGSV,5,3,20,23,21,277,,10,28,057,40,44,39,147,,56,35,054,*6E
$GBGSV,5,4,20,35,44,081,48,26,47,095,49,25,74,306,,34,03,187,*66
$GBGSV,5,5,20,42,02,207,34,31,05,099,,02,04,109,32,60,08,111,39*62
$GPGGA,122952.00,,,,,0,00,,,M,,M,,*47
$PTNL,GGK,122952.00,010125,4742.1603457,N,01618.1006049,E,1,37,0.8,EHT751.3456,M*4D
$GPGGQ,122952.00,010125,4742.1603457,N,01618.1006049,E,1,37,0.961,708.1391,M*37
$GPGFA,122952.00,4.772,6.026,0.502,0.362,359.868,0.735,,VVV*00
$GPLLK,122952.00,010125,,M,,M,1,37,0.9,,M*09
$GNGMP,122952.00,,,,,DAAA,37,0.4,,,,*59
$GPGMP,122952.00,,,,,,09,,,,3.0,136*7C
$GLGMP,122952.00,,,,,,08,,,,,*78
$GAGMP,122952.00,,,,,,08,,,,,*75
$GBGMP,122952.00,,,,,,12,,,,,*7D
$PSSN,SNC,[0,304210000,2347]*40
$GPZDA,122957.00,01,01,2025,,*69
$GPDTM,W84,,00.0000000,N,00.0000000,E,00.0000000,W84*5F
$PSSN,TFM,122957.00,,,,*65
$GPRMC,122957.00,A,4742.1603464,N,01618.1006046,E,0.0,,010125,5.1,E,D*1B
$GPGLL,4742.1603464,N,01618.1006046,E,122957.00,A,D*6A
$GPGGA,122957.00,4742.1603464,N,01618.1006046,E,2,37,0.4,708.1446,M,43.2066,M,1.8,0136*47
$GNGNS,122957.00,4742.1603464,N,01618.1006046,E,DAAA,37,0.4,708.1446,43.2066,,*56
$GPGNS,122957.00,,,,,,09,,,,1.8,136*73
$GLGNS,122957.00,,,,,,08,,,,,*7D
$GAGNS,122957.00,,,,,,08,,,,,*70
$GBGNS,122957.00,,,,,,12,,,,,*78
$GPLLQ,122957.00,010125,,M,,M,1,37,0.964,,M*14
$GPVTG,,T,,M,0.01,N,0.01,K,D*26
$GPHDT,,T*1B
$GPTHS,,V*0E
$GPROT,,V*08
$PSSN,HRP,122957.00,010125,,,,,,,00,0,,*6B
$PTNL,AVR,122957.00,,Yaw,,Tilt,,,,0,,00*3D
$GPGSA,A,3,06,11,12,15,17,19,24,25,32,,,,0.8,0.4,0.7*36
$GPGSA,A,3,67,68,69,76,77,78,86,87,,,,,0.8,0.4,0.7*36
$GPGSA,A,3,02,07,08,11,27,29,30,36,,,,,0.8,0.4,0.7*3C
$GPGSA,A,3,05,07,10,12,14,24,26,33,35,40,41,60,0.8,0.4,0.7*3F
$GPGST,122957.00,2.211,0.502,0.363,359.951,0.502,0.363,0.739*52
$GPGBS,122957.00,3.025,2.466,4.396,17,0.0001,-2.729,1.912*70
$GPGRS,122957.00,1,0.1,1.4,-0.3,-0.1,-2.7,0.3,0.0,-0.4,0.8,,,*66
$GPGRS,122957.00,1,4.7,5.2,2.0,-2.5,-5.9,-3.4,1.6,-1.9,,,,*41
$GPGRS,122957.00,1,0.8,0.2,-0.2,-1.2,-0.9,1.7,0.1,0.4,,,,*68
$GPGRS,122957.00,1,1.5,1.4,1.5,0.6,-0.2,0.5,0.0,-0.4,-0.7,-2.9,1.0,-0.9*6D
$GPGSV,5,1,20,12,74,280,51,17,12,041,41,11,12,127,40,32,25,313,43*77
$GPGSV,5,2,20,19,38,055,46,06,22,091,41,25,32,263,44,24,69,147,50*79
$GPGSV,5,3,20,22,05,071,,15,08,188,39,10,02,278,37,36,35,170,45*77
$GPGSV,5,4,20,58,13,245,36,40,23,133,36,34,31,208,43,49,34,195,45*7C
$GPGSV,5,5,20,57,08,111,37,41,07,108,35,61,03,257,38*46
$GLGSV,3,1,10,77,65,034,47,78,34,292,49,69,12,342,45,76,26,080,47*6B
$GLGSV,3,2,10,67,27,235,47,68,37,294,50,86,36,053,49,87,39,117,47*67
$GLGSV,3,3,10,85,02,010,40,88,05,166,*6A
$GAGSV,3,1,11,30,67,269,49,08,31,192,44,29,20,319,41,11,15,039,36*64
$GAGSV,3,2,11,27,16,256,41,36,21,088,41,02,54,063,47,07,51,262,47*6F
$GAGSV,3,3,11,10,04,015,36,34,06,136,,25,04,071,35*5A
$GBGSV,5,1,20,24,76,312,51,40,10,041,40,14,14,229,39,05,20,130,38*67
$GBGSV,5,2,20,12,21,167,41,07,15,053,39,41,20,306,43,33,22,254,44*62
$GBGSV,5,3,20,23,21,277,,10,28,057,40,44,39,147,,56,35,054,*6E
$GBGSV,5,4,20,35,44,081,48,26,47,095,49,25,75,306,,34,03,187,*67
$GBGSV,5,5,20,42,02,207,33,31,06,099,,02,04,109,32,60,08,111,39*66
$GPGGA,122957.00,,,,,0,00,,,M,,M,,*42
$PTNL,GGK,122957.00,010125,4742.1603464,N,01618.1006046,E,1,37,0.8,EHT751.3511,M*45
$GPGGQ,122957.00,010125,4742.1603464,N,01618.1006046,E,1,37,0.964,708.1446,M*35
$GPGFA,122957.00,4.773,6.062,0.502,0.363,359.951,0.739,,VVV*02
$GPLLK,122957.00,010125,,M,,M,1,37,0.9,,M*0C
$GNGMP,122957.00,,,,,DAAA,37,0.4,,,,*5C
$GPGMP,122957.00,,,,,,09,,,,1.8,136*73
$GLGMP,122957.00,,,,,,08,,,,,*7D
$GAGMP,122957.00,,,,,,08,,,,,*70
$GBGMP,122957.00,,,,,,12,,,,,*78
$PSSN,SNC,[0,304215000,2347]*45
$GPZDA,123002.00,01,01,2025,,*61
$GPDTM,W84,,00.0000000,N,00.0000000,E,00.0000000,W84*5F
$PSSN,TFM,123002.00,,,,*6D
$GPRMC,123002.00,A,4742.1603467,N,01618.1006023,E,0.0,,010125,5.1,E,D*13
$GPGLL,4742.1603467,N,01618.1006023,E,123002.00,A,D*62
$GPGGA,123002.00,4742.1603467,N,01618.1006023,E,2,37,0.4,708.1496,M,43.2066,M,2.8,0136*41
$GNGNS,123002.00,4742.1603467,N,01618.1006023,E,DAAA,37,0.4,708.1496,43.2066,,*53
$GPGNS,123002.00,,,,,,09,,,,2.8,136*78
$GLGNS,123002.00,,,,,,08,,,,,*75
$GAGNS,123002.00,,,,,,08,,,,,*78
$GBGNS,123002.00,,,,,,12,,,,,*70
$GPLLQ,123002.00,010125,,M,,M,1,37,0.954,,M*1F
$GPVTG,,T,,M,0.01,N,0.01,K,D*26
$GPHDT,,T*1B
$GPTHS,,V*0E
$GPROT,,V*08
$PSSN,HRP,123002.00,010125,,,,,,,00,0,,*63
$PTNL,AVR,123002.00,,Yaw,,Tilt,,,,0,,00*35
$GPGSA,A,3,06,11,12,15,17,19,24,25,32,,,,0.8,0.4,0.7*36
$GPGSA,A,3,67,68,69,76,77,78,86,87,,,,,0.8,0.4,0.7*36
$GPGSA,A,3,02,07,08,11,27,29,30,36,,,,,0.8,0.4,0.7*3C
$GPGSA,A,3,05,07,10,12,14,24,26,33,35,40,41,60,0.8,0.4,0.7*3F
$GPGST,123002.00,2.332,0.495,0.358,359.195,0.495,0.358,0.732*51
$GPGBS,123002.00,3.053,2.488,4.483,17,0.0001,-2.889,1.919*74
$GPGRS,123002.00,1,-0.0,0.9,-0.2,0.2,-2.9,0.5,-0.1,-0.3,1.0,,,*4B
$GPGRS,123002.00,1,5.3,5.6,1.2,-1.6,-6.4,-3.4,2.1,-1.9,,,,*43
$GPGRS,123002.00,1,0.5,-0.1,-0.0,-1.2,-1.1,1.4,0.2,0.6,,,,*4A
$GPGRS,123002.00,1,1.5,1.7,1.5,-0.1,0.6,0.4,-0.0,-0.6,-1.0,-3.5,0.9,-1.0*40
$GPGSV,6,1,21,12,74,280,51,17,12,040,41,11,12,127,40,32,25,313,43*74
$GPGSV,6,2,21,19,38,055,46,06,22,091,42,25,32,264,44,24,69,147,50*7F
$GPGSV,6,3,21,22,04,071,,15,08,188,39,29,00,206,,10,02,278,38*70
$GPGSV,6,4,21,36,35,170,45,58,13,245,36,40,23,133,36,34,31,208,43*7C
$GPGSV,6,5,21,49,34,195,44,57,08,111,37,41,07,108,35,61,03,257,38*73
$GPGSV,6,6,21*7A
$GLGSV,3,1,10,77,65,034,47,78,34,293,50,69,12,342,45,76,26,080,47*62
$GLGSV,3,2,10,67,27,235,48,68,37,294,49,86,36,053,49,87,39,117,47*60
$GLGSV,3,3,10,85,02,010,40,88,05,166,*6A
$GAGSV,3,1,11,30,67,270,49,08,31,192,44,29,20,319,40,11,15,038,36*6C
$GAGSV,3,2,11,27,16,256,40,36,21,088,41,02,54,063,47,07,51,262,47*6E
$GAGSV,3,3,11,10,04,015,36,34,06,136,,25,04,071,36*59
$GBGSV,5,1,20,24,76,312,51,40,10,041,40,14,14,228,40,05,20,130,38*68
$GBGSV,5,2,20,12,21,167,41,07,15,053,39,41,20,306,43,33,22,254,44*62
$GBGSV,5,3,20,23,21,277,,10,28,057,40,44,39,147,,56,35,054,*6E
$GBGSV,5,4,20,35,44,081,48,26,47,095,49,25,75,306,,34,03,187,*67
$GBGSV,5,5,20,42,02,207,32,31,06,099,,02,04,109,31,60,08,111,39*64
$GPGGA,123002.00,,,,,0,00,,,M,,M,,*4A
$PTNL,GGK,123002.00,010125,4742.1603467,N,01618.1006023,E,1,37,0.8,EHT751.3561,M*4A
$GPGGQ,123002.00,010125,4742.1603467,N,01618.1006023,E,1,37,0.954,708.1496,M*33
$GPGFA,123002.00,4.708,6.006,0.495,0.358,359.195,0.732,,VVV*08
$GPLLK,123002.00,010125,,M,,M,1,37,0.9,,M*04
$GNGMP,123002.00,,,,,DAAA,37,0.4,,,,*54
$GPGMP,123002.00,,,,,,09,,,,2.8,136*78
$GLGMP,123002.00,,,,,,08,,,,,*75
$GAGMP,123002.00,,,,,,08,,,,,*78
$GBGMP,123002.00,,,,,,12,,,,,*70
$PSSN,SNC,[0,304220000,2347]*43
$GPZDA,123007.00,01,01,2025,,*64
$GPDTM,W84,,00.0000000,N,00.0000000,E,00.0000000,W84*5F
$PSSN,TFM,123007.00,,,,*68
$GPRMC,123007.00,A,4742.1603473,N,01618.1006034,E,0.0,,010125,5.1,E,D*15
$GPGLL,4742.1603473,N,01618.1006034,E,123007.00,A,D*64
$GPGGA,123007.00,4742.1603473,N,01618.1006034,E,2,37,0.4,708.1526,M,43.2066,M,2.4,0136*41
$GNGNS,123007.00,4742.1603473,N,01618.1006034,E,DAAA,37,0.4,708.1526,43.2066,,*5F
$GPGNS,123007.00,,,,,,09,,,,2.4,136*71
$GLGNS,123007.00,,,,,,08,,,,,*70
$GAGNS,123007.00,,,,,,08,,,,,*7D
$GBGNS,123007.00,,,,,,12,,,,,*75
$GPLLQ,123007.00,010125,,M,,M,1,37,0.964,,M*19
$GPVTG,,T,,M,0.00,N,0.01,K,D*27
$GPHDT,,T*1B
$GPTHS,,V*0E
$GPROT,,V*08
$PSSN,HRP,123007.00,010125,,,,,,,00,0,,*66
$PTNL,AVR,123007.00,,Yaw,,Tilt,,,,0,,00*30
$GPGSA,A,3,06,11,12,15,17,19,24,25,32,,,,0.8,0.4,0.7*36
$GPGSA,A,3,67,68,69,76,77,78,86,87,,,,,0.8,0.4,0.7*36
$GPGSA,A,3,02,07,08,11,27,29,30,36,,,,,0.8,0.4,0.7*3C
$GPGSA,A,3,05,07,10,12,14,24,26,33,35,40,41,60,0.8,0.4,0.7*3F
$GPGST,123007.00,2.279,0.502,0.363,359.228,0.502,0.363,0.739*54
$GPGBS,123007.00,3.044,2.478,4.291,17,0.0001,-2.792,1.927*75
$GPGRS,123007.00,1,0.2,0.8,-0.3,0.2,-2.8,0.4,-0.2,-0.3,1.1,,,*63
$GPGRS,123007.00,1,5.6,4.9,2.1,-1.8,-6.4,-2.7,2.0,-1.7,,,,*4E
$GPGRS,123007.00,1,0.6,-0.2,-0.3,-1.1,-1.5,1.7,0.1,0.5,,,,*48
$GPGRS,123007.00,1,1.5,1.1,1.1,-0.2,0.1,0.3,-0.1,-0.3,-1.1,-3.2,1.3,-1.1*4C
$GPGSV,6,1,21,12,74,280,50,17,12,040,40,11,12,127,40,32,25,313,43*74
$GPGSV,6,2,21,19,38,055,46,06,22,091,42,25,32,264,44,24,69,147,50*7F
$GPGSV,6,3,21,22,04,071,,15,08,188,39,29,00,206,,10,02,278,35*7D
$GPGSV,6,4,21,36,35,170,45,58,13,245,36,40,23,133,36,34,31,208,43*7C
$GPGSV,6,5,21,49,34,195,45,57,08,111,37,41,07,108,35,61,03,257,38*72
$GPGSV,6,6,21*7A
$GLGSV,3,1,10,77,65,034,47,78,34,293,50,69,13,342,44,76,26,080,48*6D
$GLGSV,3,2,10,67,27,235,48,68,37,294,49,86,36,053,49,87,39,117,47*60
$GLGSV,3,3,10,85,02,010,39,88,05,166,*64
$GAGSV,3,1,11,30,67,270,49,08,31,192,43,29,20,319,41,11,15,038,35*69
$GAGSV,3,2,11,27,16,256,40,36,21,088,41,02,54,063,47,07,51,262,47*6E
$GAGSV,3,3,11,10,04,015,36,34,06,136,,25,04,071,36*59
$GBGSV,5,1,20,24,76,312,51,40,10,041,40,14,14,228,39,05,20,130,38*66
$GBGSV,5,2,20,07,15,053,39,12,21,167,41,41,20,306,43,33,22,254,44*62
$GBGSV,5,3,20,23,21,277,,10,28,057,40,44,39,147,,56,35,054,*6E
$GBGSV,5,4,20,35,44,081,48,26,46,095,49,25,75,306,,34,03,187,*66
$GBGSV,5,5,20,42,02,207,33,31,06,099,,02,04,109,32,60,08,111,39*66
$GPGGA,123007.00,,,,,0,00,,,M,,M,,*4F
$PTNL,GGK,123007.00,010125,4742.1603473,N,01618.1006034,E,1,37,0.8,EHT751.3592,M*40
$GPGGQ,123007.00,010125,4742.1603473,N,01618.1006034,E,1,37,0.964,708.1526,M*3C
$GPGFA,123007.00,4.770,6.063,0.502,0.363,359.228,0.739,,VVV*08
$GPLLK,123007.00,010125,,M,,M,1,37,0.9,,M*01
$GNGMP,123007.00,,,,,DAAA,37,0.4,,,,*51
$GPGMP,123007.00,,,,,,09,,,,2.4,136*71
$GLGMP,123007.00,,,,,,08,,,,,*70
$GAGMP,123007.00,,,,,,08,,,,,*7D
$GBGMP,123007.00,,,,,,12,,,,,*75
$PSSN,SNC,[0,304225000,2347]*46
$GPZDA,123012.00,01,01,2025,,*60
$GPDTM,W84,,00.0000000,N,00.0000000,E,00.0000000,W84*5F
$PSSN,TFM,123012.00,,,,*6C
$GPRMC,123012.00,A,4742.1603487,N,01618.1006024,E,0.0,,010125,5.1,E,D*1B
$GPGLL,4742.1603487,N,01618.1006024,E,123012.00,A,D*6A
$GPGGA,123012.00,4742.1603487,N,01618.1006024,E,2,37,0.4,708.1586,M,43.2066,M,3.0,0136*40
$GNGNS,123012.00,4742.1603487,N,01618.1006024,E,DAAA,37,0.4,708.1586,43.2066,,*5B
$GPGNS,123012.00,,,,,,09,,,,3.0,136*70
$GLGNS,123012.00,,,,,,08,,,,,*74
$GAGNS,123012.00,,,,,,08,,,,,*79
$GBGNS,123012.00,,,,,,12,,,,,*71
$GPLLQ,123012.00,010125,,M,,M,1,37,1.023,,M*16
$GPVTG,,T,,M,0.00,N,0.00,K,D*26
$GPHDT,,T*1B
$GPTHS,,V*0E
$GPROT,,V*08
$PSSN,HRP,123012.00,010125,,,,,,,00,0,,*62
$PTNL,AVR,123012.00,,Yaw,,Tilt,,,,0,,00*34
$GPGSA,A,3,06,11,12,15,17,19,24,25,32,,,,0.8,0.4,0.7*36
$GPGSA,A,3,67,68,69,76,77,78,86,87,,,,,0.8,0.4,0.7*36
$GPGSA,A,3,02,07,08,11,27,29,30,36,,,,,0.8,0.4,0.7*3C
$GPGSA,A,3,05,07,10,12,14,24,26,33,35,40,41,60,0.8,0.4,0.7*3F
$GPGST,123012.00,2.289,0.534,0.386,0.526,0.534,0.386,0.783*58
$GPGBS,123012.00,3.033,2.462,4.338,17,0.0001,-3.071,1.936*73
$GPGRS,123012.00,1,-0.0,1.1,-0.4,0.4,-3.1,0.3,-0.0,-0.4,1.2,,,*48
$GPGRS,123012.00,1,5.4,5.7,1.6,-1.6,-6.3,-2.8,1.5,-1.6,,,,*42
$GPGRS,123012.00,1,0.7,-0.4,-0.1,-1.6,-0.8,1.8,0.2,0.7,,,,*4C
$GPGRS,123012.00,1,2.0,1.3,0.8,0.2,-0.3,0.4,0.2,-0.4,-0.5,-2.9,1.0,-1.0*65
$GPGSV,6,1,21,12,74,280,51,17,12,040,40,11,12,127,39,32,25,313,44*7C
$GPGSV,6,2,21,19,38,055,46,06,22,091,42,25,32,264,44,24,69,147,50*7F
$GPGSV,6,3,21,22,04,071,,15,08,188,40,29,00,206,,10,02,278,35*73
$GPGSV,6,4,21,36,35,170,45,58,13,245,36,40,23,133,36,34,31,208,43*7C
$GPGSV,6,5,21,49,34,195,44,57,08,111,37,41,07,108,35,61,03,257,38*73
$GPGSV,6,6,21*7A
$GLGSV,3,1,10,77,65,034,47,78,34,293,49,69,13,342,45,76,26,080,47*6B
$GLGSV,3,2,10,67,27,235,48,68,37,294,49,86,36,053,49,87,39,117,47*60
$GLGSV,3,3,10,85,02,010,39,88,05,166,*64
$GAGSV,3,1,11,30,67,270,48,08,31,192,43,29,20,319,40,11,15,038,36*6A
$GAGSV,3,2,11,27,16,256,40,36,21,088,41,02,54,063,47,07,51,262,47*6E
$GAGSV,3,3,11,10,04,015,35,34,06,136,,25,04,071,36*5A
$GBGSV,5,1,20,24,76,312,51,40,10,041,40,14,14,228,40,05,20,130,38*68
$GBGSV,5,2,20,07,15,053,39,12,21,167,41,41,20,306,43,33,22,254,44*62
$GBGSV,5,3,20,23,21,277,,10,28,057,40,44,39,147,,56,35,054,*6E
$GBGSV,5,4,20,35,44,081,49,26,46,095,49,25,75,306,,34,03,187,*67
$GBGSV,5,5,20,42,02,207,33,31,06,099,,02,04,109,32,60,08,111,39*66
$GPGGA,123012.00,,,,,0,00,,,M,,M,,*4B
$PTNL,GGK,123012.00,010125,4742.1603487,N,01618.1006024,E,1,37,0.8,EHT751.3652,M*41
$GPGGQ,123012.00,010125,4742.1603487,N,01618.1006024,E,1,37,1.023,708.1586,M*33
$GPGFA,123012.00,5.077,6.418,0.534,0.386,0.526,0.783,,VVV*0C
$GPLLK,123012.00,010125,,M,,M,1,37,0.9,,M*05
$GNGMP,123012.00,,,,,DAAA,37,0.4,,,,*55
$GPGMP,123012.00,,,,,,09,,,,3.0,136*70
$GLGMP,123012.00,,,,,,08,,,,,*74
$GAGMP,123012.00,,,,,,08,,,,,*79
$GBGMP,123012.00,,,,,,12,,,,,*71
$PSSN,SNC,[0,304230000,2347]*42
$GPZDA,123017.00,01,01,2025,,*65
$GPDTM,W84,,00.0000000,N,00.0000000,E,00.0000000,W84*5F
$PSSN,TFM,123017.00,,,,*69
$GPRMC,123017.00,A,4742.1603506,N,01618.1006041,E,0.0,,010125,5.1,E,D*15
$GPGLL,4742.1603506,N,01618.1006041,E,123017.00,A,D*64
$GPGGA,123017.00,4742.1603506,N,01618.1006041,E,2,37,0.4,708.1629,M,43.2066,M,1.8,0136*42
$GNGNS,123017.00,4742.1603506,N,01618.1006041,E,DAAA,37,0.4,708.1629,43.2066,,*53
$GPGNS,123017.00,,,,,,09,,,,1.8,136*7F
$GLGNS,123017.00,,,,,,08,,,,,*71
$GAGNS,123017.00,,,,,,08,,,,,*7C
$GBGNS,123017.00,,,,,,12,,,,,*74
$GPLLQ,123017.00,010125,,M,,M,1,37,1.048,,M*1E
$GPVTG,,T,,M,0.00,N,0.00,K,D*26
$GPHDT,,T*1B
$GPTHS,,V*0E
$GPROT,,V*08
$PSSN,HRP,123017.00,010125,,,,,,,00,0,,*67
$PTNL,AVR,123017.00,,Yaw,,Tilt,,,,0,,00*31
$GPGSA,A,3,06,11,12,15,17,19,24,25,32,,,,0.8,0.4,0.7*36
$GPGSA,A,3,67,68,69,76,77,78,86,87,,,,,0.8,0.4,0.7*36
$GPGSA,A,3,02,07,08,11,27,29,30,36,,,,,0.8,0.4,0.7*3C
$GPGSA,A,3,05,07,10,12,14,24,26,33,35,40,41,60,0.8,0.4,0.7*3F
$GPGST,123017.00,2.409,0.545,0.394,0.619,0.545,0.394,0.804*5C
$GPGBS,123017.00,2.984,2.467,4.402,17,0.0001,-3.538,1.920*76
$GPGRS,123017.00,1,-0.2,1.1,-0.3,0.5,-3.5,0.0,0.0,-0.3,1.2,,,*64
$GPGRS,123017.00,1,4.9,6.0,2.3,-2.2,-6.6,-3.8,2.2,-1.6,,,,*4E
$GPGRS,123017.00,1,0.6,0.0,-0.1,-1.6,-1.1,1.3,0.4,0.7,,,,*64
$GPGRS,123017.00,1,1.7,0.5,0.8,0.2,1.2,0.4,0.4,-0.2,-0.7,-2.9,1.2,-1.1*4F
$GPGSV,6,1,21,12,74,280,50,17,12,040,40,11,12,127,39,32,25,313,44*7D
$GPGSV,6,2,21,19,38,055,46,06,22,091,41,25,32,264,44,24,69,147,50*7C
$GPGSV,6,3,21,22,04,071,,15,08,188,40,29,00,206,,10,01,278,37*72
$GPGSV,6,4,21,36,35,170,45,58,13,245,36,40,23,133,36,34,31,208,43*7C
$GPGSV,6,5,21,49,34,195,44,57,08,111,37,41,07,108,35,61,03,257,38*73
$GPGSV,6,6,21*7A
$GLGSV,3,1,10,77,65,034,47,78,34,293,49,69,13,342,44,76,26,080,47*6A
$GLGSV,3,2,10,67,27,235,48,68,37,294,50,86,36,053,49,87,39,117,47*68
$GLGSV,3,3,10,85,02,010,40,88,05,166,*6A
$GAGSV,3,1,11,30,67,270,48,08,31,192,43,29,20,319,40,11,15,038,36*6A
$GAGSV,3,2,11,27,16,256,40,36,21,088,41,02,54,063,47,07,51,261,47*6D
$GAGSV,3,3,11,10,04,015,35,34,06,136,,25,04,071,36*5A
$GBGSV,5,1,20,24,76,312,51,40,10,041,40,14,14,228,41,05,20,130,38*69
$GBGSV,5,2,20,07,15,053,39,12,21,167,41,41,20,306,43,33,22,254,44*62
$GBGSV,5,3,20,23,21,277,,10,28,057,40,44,39,147,,56,35,054,*6E
$GBGSV,5,4,20,35,44,080,48,26,46,095,49,25,75,306,,34,03,187,*67
$GBGSV,5,5,20,42,02,207,33,31,06,099,,02,04,109,32,60,08,111,39*66
$GPGGA,123017.00,,,,,0,00,,,M,,M,,*4E
$PTNL,GGK,123017.00,010125,4742.1603506,N,01618.1006041,E,1,37,0.8,EHT751.3695,M*44
$GPGGQ,123017.00,010125,4742.1603506,N,01618.1006041,E,1,37,1.048,708.1629,M*36
$GPGFA,123017.00,5.185,6.592,0.545,0.394,0.619,0.804,,VVV*0C
$GPLLK,123017.00,010125,,M,,M,1,37,0.9,,M*00
$GNGMP,123017.00,,,,,DAAA,37,0.4,,,,*50
$GPGMP,123017.00,,,,,,09,,,,1.8,136*7F
$GLGMP,123017.00,,,,,,08,,,,,*71
$GAGMP,123017.00,,,,,,08,,,,,*7C
$GBGMP,123017.00,,,,,,12,,,,,*74
$PSSN,SNC,[0,304235000,2347]*47
$GPZDA,123022.00,01,01,2025,,*63
$GPDTM,W84,,00.0000000,N,00.0000000,E,00.0000000,W84*5F
$PSSN,TFM,123022.00,,,,*6F
$GPRMC,123022.00,A,4742.1603544,N,01618.1006077,E,0.0,,010125,5.1,E,D*10
$GPGLL,4742.1603544,N,01618.1006077,E,123022.00,A,D*61
$GPGGA,123022.00,4742.1603544,N,01618.1006077,E,2,37,0.4,708.1673,M,43.2066,M,2.8,0136*4B
$GNGNS,123022.00,4742.1603544,N,01618.1006077,E,DAAA,37,0.4,708.1673,43.2066,,*59
$GPGNS,123022.00,,,,,,09,,,,2.8,136*7A
$GLGNS,123022.00,,,,,,08,,,,,*77
$GAGNS,123022.00,,,,,,08,,,,,*7A
$GBGNS,123022.00,,,,,,12,,,,,*72
$GPLLQ,123022.00,010125,,M,,M,1,37,1.057,,M*16
$GPVTG,,T,,M,0.00,N,0.00,K,D*26
$GPHDT,,T*1B
$GPTHS,,V*0E
$GPROT,,V*08
$PSSN,HRP,123022.00,010125,,,,,,,00,0,,*61
$PTNL,AVR,123022.00,,Yaw,,Tilt,,,,0,,00*37
$GPGSA,A,3,06,11,12,15,17,19,24,25,32,,,,0.8,0.4,0.7*36
$GPGSA,A,3,67,68,69,76,77,78,86,87,,,,,0.8,0.4,0.7*36
$GPGSA,A,3,02,07,08,11,27,29,30,36,,,,,0.8,0.4,0.7*3C
$GPGSA,A,3,05,07,10,12,14,24,26,33,35,40,41,60,0.8,0.4,0.7*3F
$GPGST,123022.00,2.448,0.548,0.396,359.897,0.548,0.396,0.812*5F
$GPGBS,123022.00,3.010,2.489,4.489,17,0.0001,-2.984,1.927*7B
$GPGRS,123022.00,1,-0.7,1.1,-0.2,0.6,-3.0,0.2,0.0,-0.4,1.1,,,*66
$GPGRS,123022.00,1,5.4,6.7,1.9,-1.7,-6.5,-3.3,1.9,-1.9,,,,*43
$GPGRS,123022.00,1,0.7,-0.1,-0.1,-1.3,-1.0,1.7,0.2,0.6,,,,*48
$GPGRS,123022.00,1,1.5,0.7,0.7,-0.3,2.4,0.6,0.1,-0.5,-0.9,-2.6,1.4,-1.1*68
$GPGSV,6,1,21,12,74,280,50,17,12,040,40,11,12,127,39,32,25,313,44*7D
$GPGSV,6,2,21,19,38,055,46,06,22,091,41,25,33,264,44,24,69,147,50*7D
$GPGSV,6,3,21,22,04,071,,15,08,188,40,29,00,206,,10,01,278,37*72
$GPGSV,6,4,21,36,35,170,45,58,13,245,36,40,23,133,36,34,31,208,43*7C
$GPGSV,6,5,21,49,34,195,45,57,08,111,37,41,07,108,35,61,03,257,38*72
$GPGSV,6,6,21*7A
$GLGSV,3,1,10,77,65,034,47,78,34,293,49,69,13,342,45,76,26,080,47*6B
$GLGSV,3,2,10,67,27,235,48,68,37,294,50,86,36,053,49,87,40,117,47*66
$GLGSV,3,3,10,85,02,010,40,88,05,166,*6A
$GAGSV,3,1,11,30,67,270,49,08,31,192,43,29,20,319,40,11,15,038,36*6B
$GAGSV,3,2,11,27,16,256,40,36,21,088,41,02,54,063,47,07,51,261,47*6D
$GAGSV,3,3,11,10,04,015,36,34,06,136,,25,04,071,36*59
$GBGSV,5,1,20,24,76,312,52,40,10,041,40,14,14,228,40,05,20,130,38*6B
$GBGSV,5,2,20,07,15,053,39,12,21,167,40,41,20,306,43,33,22,254,44*63
$GBGSV,5,3,20,23,21,277,,10,28,057,40,44,39,147,,56,35,054,*6E
$GBGSV,5,4,20,35,44,080,48,26,46,095,49,25,75,306,,34,03,187,*67
$GBGSV,5,5,20,42,02,207,33,31,06,099,,02,04,109,32,60,08,111,39*66
$GPGGA,123022.00,,,,,0,00,,,M,,M,,*48
$PTNL,GGK,123022.00,010125,4742.1603544,N,01618.1006077,E,1,37,0.8,EHT751.3738,M*47
$GPGGQ,123022.00,010125,4742.1603544,N,01618.1006077,E,1,37,1.057,708.1673,M*32
$GPGFA,123022.00,5.214,6.659,0.548,0.396,359.897,0.812,,VVV*0A
$GPLLK,123022.00,010125,,M,,M,1,37,0.9,,M*06
$GNGMP,123022.00,,,,,DAAA,37,0.4,,,,*56
$GPGMP,123022.00,,,,,,09,,,,2.8,136*7A
$GLGMP,123022.00,,,,,,08,,,,,*77
$GAGMP,123022.00,,,,,,08,,,,,*7A
$GBGMP,123022.00,,,,,,12,,,,,*72
$PSSN,SNC,[0,304240000,2347]*45
$GPZDA,123027.00,01,01,2025,,*66
$GPDTM,W84,,00.0000000,N,00.0000000,E,00.0000000,W84*5F
$PSSN,TFM,123027.00,,,,*6A
$GPRMC,123027.00,A,4742.1603551,N,01618.1006092,E,0.0,,010125,5.1,E,D*1A
$GPGLL,4742.1603551,N,01618.1006092,E,123027.00,A,D*6B
$GPGGA,123027.00,4742.1603551,N,01618.1006092,E,2,37,0.4,708.1710,M,43.2066,M,2.4,0136*49
$GNGNS,123027.00,4742.1603551,N,01618.1006092,E,DAAA,37,0.4,708.1710,43.2066,,*57
$GPGNS,123027.00,,,,,,09,,,,2.4,136*73
$GLGNS,123027.00,,,,,,08,,,,,*72
$GAGNS,123027.00,,,,,,08,,,,,*7F
$GBGNS,123027.00,,,,,,12,,,,,*77
$GPLLQ,123027.00,010125,,M,,M,1,37,0.982,,M*13
$GPVTG,,T,,M,0.01,N,0.01,K,D*26
$GPHDT,,T*1B
$GPTHS,,V*0E
$GPROT,,V*08
$PSSN,HRP,123027.00,010125,,,,,,,00,0,,*64
$PTNL,AVR,123027.00,,Yaw,,Tilt,,,,0,,00*32
$GPGSA,A,3,06,11,12,15,17,19,24,25,32,,,,0.8,0.4,0.7*36
$GPGSA,A,3,67,68,69,76,77,78,86,87,,,,,0.8,0.4,0.7*36
$GPGSA,A,3,02,07,08,11,27,29,30,36,,,,,0.8,0.4,0.7*3C
$GPGSA,A,3,05,07,10,12,14,24,26,33,35,40,41,60,0.8,0.4,0.7*3F
$GPGST,123027.00,2.425,0.511,0.369,359.993,0.511,0.369,0.754*59
$GPGBS,123027.00,3.004,2.479,4.295,17,0.0001,-2.855,1.935*71
$GPGRS,123027.00,1,0.2,1.2,-0.3,-0.1,-2.9,0.2,-0.0,-0.3,0.9,,,*48
$GPGRS,123027.00,1,5.4,6.8,2.2,-1.9,-6.3,-3.2,1.6,-1.8,,,,*46
$GPGRS,123027.00,1,0.5,-0.4,-0.3,-1.1,-1.2,1.5,-0.1,0.9,,,,*6B
$GPGRS,123027.00,1,1.4,1.5,0.7,-1.5,1.2,0.4,-0.2,-0.6,-1.0,-2.7,1.4,-0.9*42
$GPGSV,6,1,21,12,74,280,50,17,12,040,40,11,12,127,39,32,25,313,44*7D
$GPGSV,6,2,21,19,38,055,46,06,22,091,41,25,33,264,44,24,69,147,50*7D
$GPGSV,6,3,21,22,04,071,,15,08,188,40,29,00,206,,10,01,278,38*7D
$GPGSV,6,4,21,36,35,170,45,58,13,245,36,40,23,133,36,34,31,208,43*7C
$GPGSV,6,5,21,49,34,195,45,57,08,111,38,41,07,108,35,61,03,257,38*7D
$GPGSV,6,6,21*7A
$GLGSV,3,1,10,77,65,035,47,78,34,293,50,69,13,342,46,76,26,080,47*61
$GLGSV,3,2,10,67,27,235,48,68,37,294,50,86,36,053,49,87,40,117,48*69
$GLGSV,3,3,10,85,02,010,40,88,05,166,*6A
$GAGSV,3,1,11,30,67,270,49,08,31,192,44,29,20,319,40,11,15,038,36*6C
$GAGSV,3,2,11,27,16,256,40,36,21,088,41,02,54,063,47,07,51,261,47*6D
$GAGSV,3,3,11,10,04,015,36,34,06,136,,25,04,071,36*59
$GBGSV,5,1,20,24,76,312,52,40,10,041,40,14,14,228,40,05,20,130,39*6A
$GBGSV,5,2,20,07,15,053,39,12,21,167,40,41,20,306,44,33,22,254,45*65
$GBGSV,5,3,20,23,21,277,,10,28,057,40,44,39,147,,56,35,054,*6E
$GBGSV,5,4,20,35,44,080,48,26,46,095,49,25,75,306,,34,03,187,*67
$GBGSV,5,5,20,42,02,207,32,31,06,099,,02,04,109,32,60,08,111,39*67
$GPGGA,123027.00,,,,,0,00,,,M,,M,,*4D
$PTNL,GGK,123027.00,010125,4742.1603551,N,01618.1006092,E,1,37,0.8,EHT751.3775,M*44
$GPGGQ,123027.00,010125,4742.1603551,N,01618.1006092,E,1,37,0.982,708.1710,M*3C
$GPGFA,123027.00,4.855,6.179,0.511,0.369,359.993,0.754,,VVV*00
$GPLLK,123027.00,010125,,M,,M,1,37,0.9,,M*03
$GNGMP,123027.00,,,,,DAAA,37,0.4,,,,*53
$GPGMP,123027.00,,,,,,09,,,,2.4,136*73
$GLGMP,123027.00,,,,,,08,,,,,*72
$GAGMP,123027.00,,,,,,08,,,,,*7F
$GBGMP,123027.00,,,,,,12,,,,,*77
$PSSN,SNC,[0,304245000,2347]*40
$GPZDA,123032.00,01,01,2025,,*62
$GPDTM,W84,,00.0000000,N,00.0000000,E,00.0000000,W84*5F
$PSSN,TFM,123032.00,,,,*6E
$GPRMC,123032.00,A,4742.1603584,N,01618.1006067,E,0.0,,010125,5.1,E,D*1C
$GPGLL,4742.1603584,N,01618.1006067,E,123032.00,A,D*6D
$GPGGA,123032.00,4742.1603584,N,01618.1006067,E,2,37,0.4,708.1724,M,43.2066,M,3.0,0136*4D
$GNGNS,123032.00,4742.1603584,N,01618.1006067,E,DAAA,37,0.4,708.1724,43.2066,,*56
$GPGNS,123032.00,,,,,,09,,,,3.0,136*72
$GLGNS,123032.00,,,,,,08,,,,,*76
$GAGNS,123032.00,,,,,,08,,,,,*7B
$GBGNS,123032.00,,,,,,12,,,,,*73
$GPLLQ,123032.00,010125,,M,,M,1,37,0.972,,M*18
$GPVTG,,T,,M,0.00,N,0.01,K,D*27
$GPHDT,,T*1B
$GPTHS,,V*0E
$GPROT,,V*08
$PSSN,HRP,123032.00,010125,,,,,,,00,0,,*60
$PTNL,AVR,123032.00,,Yaw,,Tilt,,,,0,,00*36
$GPGSA,A,3,06,11,12,15,17,19,24,25,32,,,,0.8,0.4,0.7*36
$GPGSA,A,3,67,68,69,76,77,78,86,87,,,,,0.8,0.4,0.7*36
$GPGSA,A,3,02,07,08,11,27,29,30,36,,,,,0.8,0.4,0.7*3C
$GPGSA,A,3,05,07,10,12,14,24,26,33,35,40,41,60,0.8,0.4,0.7*3F
$GPGST,123032.00,2.281,0.507,0.366,0.786,0.507,0.366,0.744*51
$GPGBS,123032.00,3.030,2.462,4.326,17,0.0001,-2.891,1.943*78
$GPGRS,123032.00,1,0.2,1.0,-0.1,-0.1,-2.9,0.4,0.0,-0.7,0.4,,,*6E
$GPGRS,123032.00,1,5.7,5.3,1.6,-1.8,-6.6,-2.2,1.8,-1.6,,,,*4B
$GPGRS,123032.00,1,0.6,-0.2,-0.1,-1.1,-0.5,1.4,0.2,0.6,,,,*4E
$GPGRS,123032.00,1,1.3,1.3,1.5,-1.4,-0.8,0.4,0.3,-0.3,-0.8,-2.9,1.5,-0.8*4D
$GPGSV,6,1,21,12,74,280,50,17,12,040,40,11,12,127,39,32,25,313,45*7C
$GPGSV,6,2,21,19,38,055,46,06,22,091,40,25,33,264,44,24,69,147,50*7C
$GPGSV,6,3,21,22,04,071,,15,08,188,40,29,00,206,,10,01,278,37*72
$GPGSV,6,4,21,36,35,170,45,58,13,245,36,40,23,133,37,34,31,208,43*7D
$GPGSV,6,5,21,49,34,195,45,57,08,111,37,41,07,108,35,61,03,257,38*72
$GPGSV,6,6,21*7A
$GLGSV,3,1,10,77,65,035,47,78,34,293,50,69,13,342,46,76,26,080,47*61
$GLGSV,3,2,10,67,27,234,48,68,37,294,50,86,36,053,49,87,40,117,47*67
$GLGSV,3,3,10,85,02,010,40,88,05,166,*6A
$GAGSV,3,1,11,30,67,270,49,08,31,192,44,29,20,318,40,11,15,038,36*6D
$GAGSV,3,2,11,27,16,256,40,36,21,088,41,02,54,063,47,07,51,261,47*6D
$GAGSV,3,3,11,10,04,015,37,34,07,136,,25,04,071,36*59
$GBGSV,5,1,20,24,76,313,52,40,10,041,40,14,14,228,40,05,20,130,39*6B
$GBGSV,5,2,20,07,15,053,39,12,21,167,40,41,20,306,43,33,22,254,44*63
$GBGSV,5,3,20,23,21,277,,10,28,057,40,44,39,147,,56,35,054,*6E
$GBGSV,5,4,20,35,44,080,49,26,46,096,49,25,75,306,,34,03,187,*65
$GBGSV,5,5,20,42,02,207,32,31,06,099,,02,04,109,32,60,08,111,39*67
$GPGGA,123032.00,,,,,0,00,,,M,,M,,*49
$PTNL,GGK,123032.00,010125,4742.1603584,N,01618.1006067,E,1,37,0.8,EHT751.3790,M*49
$GPGGQ,123032.00,010125,4742.1603584,N,01618.1006067,E,1,37,0.972,708.1724,M*32
$GPGFA,123032.00,4.820,6.099,0.507,0.366,0.786,0.744,,VVV*05
$GPLLK,123032.00,010125,,M,,M,1,37,0.9,,M*07
$GNGMP,123032.00,,,,,DAAA,37,0.4,,,,*57
$GPGMP,123032.00,,,,,,09,,,,3.0,136*72
$GLGMP,123032.00,,,,,,08,,,,,*76
$GAGMP,123032.00,,,,,,08,,,,,*7B
$GBGMP,123032.00,,,,,,12,,,,,*73
$PSSN,SNC,[0,304250000,2347]*44
$GPZDA,123037.00,01,01,2025,,*67
$GPDTM,W84,,00.0000000,N,00.0000000,E,00.0000000,W84*5F
$PSSN,TFM,123037.00,,,,*6B
$GPRMC,123037.00,A,4742.1603590,N,01618.1006027,E,0.0,,010125,5.1,E,D*18
$GPGLL,4742.1603590,N,01618.1006027,E,123037.00,A,D*69
$GPGGA,123037.00,4742.1603590,N,01618.1006027,E,2,37,0.4,708.1739,M,43.2066,M,1.8,0136*4F
$GNGNS,123037.00,4742.1603590,N,01618.1006027,E,DAAA,37,0.4,708.1739,43.2066,,*5E
$GPGNS,123037.00,,,,,,09,,,,1.8,136*7D
$GLGNS,123037.00,,,,,,08,,,,,*73
$GAGNS,123037.00,,,,,,08,,,,,*7E
$GBGNS,123037.00,,,,,,12,,,,,*76
$GPLLQ,123037.00,010125,,M,,M,1,37,0.964,,M*1A
$GPVTG,,T,,M,0.00,N,0.00,K,D*26
$GPHDT,,T*1B
$GPTHS,,V*0E
$GPROT,,V*08
$PSSN,HRP,123037.00,010125,,,,,,,00,0,,*65
$PTNL,AVR,123037.00,,Yaw,,Tilt,,,,0,,00*33
$GPGSA,A,3,06,11,12,15,17,19,24,25,32,,,,0.8,0.4,0.7*36
$GPGSA,A,3,67,68,69,76,77,78,86,87,,,,,0.8,0.4,0.7*36
$GPGSA,A,3,02,07,08,11,27,29,30,36,,,,,0.8,0.4,0.7*3C
$GPGSA,A,3,05,07,10,12,14,24,26,33,35,40,41,60,0.8,0.4,0.7*3F
$GPGST,123037.00,2.190,0.501,0.362,0.877,0.501,0.362,0.740*52
$GPGBS,123037.00,2.979,2.467,4.391,17,0.0001,-3.068,1.928*73
$GPGRS,123037.00,1,0.6,1.1,-0.2,0.0,-3.1,0.2,0.1,-0.4,0.9,,,*41
$GPGRS,123037.00,1,5.0,5.2,1.5,-1.1,-6.6,-2.2,1.4,-2.1,,,,*4A
$GPGRS,123037.00,1,0.7,-0.2,-0.4,-1.4,-0.8,1.2,0.1,0.1,,,,*45
$GPGRS,123037.00,1,0.9,1.1,1.2,-0.4,0.9,0.3,0.3,-0.7,-0.6,-2.7,1.3,-1.2*65
$GPGSV,6,1,21,12,74,281,50,17,11,040,40,11,12,127,39,32,25,313,45*7E
$GPGSV,6,2,21,19,38,055,46,06,22,091,41,25,33,264,44,24,69,147,51*7C
$GPGSV,6,3,21,22,04,071,,15,08,188,41,29,00,206,,10,01,278,36*72
$GPGSV,6,4,21,36,35,170,45,58,13,245,36,40,23,133,36,34,31,208,43*7C
$GPGSV,6,5,21,49,34,195,45,57,08,111,37,41,07,108,35,61,03,257,38*72
$GPGSV,6,6,21*7A
$GLGSV,3,1,10,77,65,035,47,78,34,293,50,69,13,342,45,76,26,081,48*6C
$GLGSV,3,2,10,67,27,234,49,68,37,294,49,86,36,053,48,87,40,117,47*6F
$GLGSV,3,3,10,85,02,010,40,88,05,166,*6A
$GAGSV,3,1,11,30,68,270,49,08,31,192,44,29,20,318,41,11,15,038,36*63
$GAGSV,3,2,11,27,16,256,40,36,21,088,41,02,54,063,47,07,51,261,47*6D
$GAGSV,3,3,11,10,04,014,36,34,07,136,,25,04,071,36*59
$GBGSV,5,1,20,24,76,313,52,40,10,041,39,14,14,228,41,05,20,130,39*64
$GBGSV,5,2,20,07,15,053,39,12,21,167,41,41,20,306,43,33,22,254,44*62
$GBGSV,5,3,20,23,21,277,,10,28,057,41,44,39,147,,56,35,054,*6F
$GBGSV,5,4,20,35,44,080,49,26,46,096,49,25,75,306,,34,03,187,*65
$GBGSV,5,5,20,42,02,207,32,31,06,099,,02,04,109,32,60,08,111,39*67
$GPGGA,123037.00,,,,,0,00,,,M,,M,,*4C
$PTNL,GGK,123037.00,010125,4742.1603590,N,01618.1006027,E,1,37,0.8,EHT751.3805,M*4E
$GPGGQ,123037.00,010125,4742.1603590,N,01618.1006027,E,1,37,0.964,708.1739,M*3D
$GPGFA,123037.00,4.765,6.065,0.501,0.362,0.877,0.740,,VVV*0A
$GPLLK,123037.00,010125,,M,,M,1,37,0.9,,M*02
$GNGMP,123037.00,,,,,DAAA,37,0.4,,,,*52
$GPGMP,123037.00,,,,,,09,,,,1.8,136*7D
$GLGMP,123037.00,,,,,,08,,,,,*73
$GAGMP,123037.00,,,,,,08,,,,,*7E
$GBGMP,123037.00,,,,,,12,,,,,*76
$PSSN,SNC,[0,304255000,2347]*41
$GPZDA,123042.00,01,01,2025,,*65
$GPDTM,W84,,00.0000000,N,00.0000000,E,00.0000000,W84*5F
$PSSN,TFM,123042.00,,,,*69
$GPRMC,123042.00,A,4742.1603611,N,01618.1006010,E,0.0,,010125,5.1,E,D*14
$GPGLL,4742.1603611,N,01618.1006010,E,123042.00,A,D*65
$GPGGA,123042.00,4742.1603611,N,01618.1006010,E,2,37,0.4,708.1755,M,43.2066,M,2.8,0136*4A
$GNGNS,123042.00,4742.1603611,N,01618.1006010,E,DAAA,37,0.4,708.1755,43.2066,,*58
$GPGNS,123042.00,,,,,,09,,,,2.8,136*7C
$GLGNS,123042.00,,,,,,08,,,,,*71
$GAGNS,123042.00,,,,,,08,,,,,*7C
$GBGNS,123042.00,,,,,,12,,,,,*74
$GPLLQ,123042.00,010125,,M,,M,1,37,0.972,,M*1F
$GPVTG,,T,,M,0.00,N,0.01,K,D*27
$GPHDT,,T*1B
$GPTHS,,V*0E
$GPROT,,V*08
$PSSN,HRP,123042.00,010125,,,,,,,00,0,,*67
$PTNL,AVR,123042.00,,Yaw,,Tilt,,,,0,,00*31
$GPGSA,A,3,06,11,12,15,17,19,24,25,32,,,,0.8,0.4,0.7*36
$GPGSA,A,3,67,68,69,76,77,78,86,87,,,,,0.8,0.4,0.7*36
$GPGSA,A,3,02,07,08,11,27,29,30,36,,,,,0.8,0.4,0.7*3C
$GPGSA,A,3,05,07,10,12,14,24,26,33,35,40,41,60,0.8,0.4,0.7*3F
$GPGST,123042.00,2.304,0.504,0.364,359.704,0.504,0.364,0.747*5C
$GPGBS,123042.00,3.045,2.488,4.461,17,0.0001,-2.781,1.935*72
$GPGRS,123042.00,1,0.7,1.4,-0.1,0.2,-2.8,-0.0,-0.1,-0.5,0.2,,,*46
$GPGRS,123042.00,1,5.4,5.6,0.8,-1.5,-6.8,-2.9,0.9,-1.4,,,,*4F
$GPGRS,123042.00,1,0.8,0.1,-0.4,-1.6,-0.7,1.2,0.0,0.2,,,,*69
$GPGRS,123042.00,1,1.3,0.4,1.3,-0.3,2.9,0.3,0.1,-0.8,-0.8,-2.6,1.4,-1.1*6A
$GPGSV,6,1,21,12,74,281,51,17,11,040,40,11,12,126,40,32,25,313,44*71
$GPGSV,6,2,21,19,38,054,46,06,22,091,42,25,33,264,44,24,69,147,51*7E
$GPGSV,6,3,21,22,04,071,,15,08,188,40,29,00,206,,10,01,278,36*73
$GPGSV,6,4,21,36,35,170,45,58,13,245,36,40,23,133,36,34,31,208,43*7C
$GPGSV,6,5,21,49,34,195,45,57,08,111,37,41,07,108,35,61,03,257,38*72
$GPGSV,6,6,21*7A
$GLGSV,3,1,10,77,65,035,47,78,34,293,50,69,13,341,45,76,26,081,47*60
$GLGSV,3,2,10,67,27,234,48,68,37,294,50,86,36,053,49,87,40,117,48*68
$GLGSV,3,3,10,85,02,010,39,88,05,166,*64
$GAGSV,3,1,11,30,68,270,49,08,31,192,44,29,20,318,40,11,15,038,36*62
$GAGSV,3,2,11,27,16,256,41,36,21,088,41,02,53,063,47,07,51,261,47*6B
$GAGSV,3,3,11,10,04,014,36,34,07,136,,25,04,071,36*59
$GBGSV,5,1,20,24,76,313,52,40,10,041,39,14,14,228,40,05,20,130,39*65
$GBGSV,5,2,20,07,15,053,39,12,21,167,41,41,20,306,43,33,22,253,44*65
$GBGSV,5,3,20,23,21,277,,10,28,057,41,44,39,147,,56,35,054,*6F
$GBGSV,5,4,20,35,44,080,48,26,46,096,49,25,75,307,,34,03,187,*65
$GBGSV,5,5,20,42,02,207,33,31,06,099,,02,04,109,32,60,08,111,39*66
$GPGGA,123042.00,,,,,0,00,,,M,,M,,*4E
$PTNL,GGK,123042.00,010125,4742.1603611,N,01618.1006010,E,1,37,0.8,EHT751.3821,M*44
$GPGGQ,123042.00,010125,4742.1603611,N,01618.1006010,E,1,37,0.972,708.1755,M*3C
$GPGFA,123042.00,4.790,6.126,0.504,0.364,359.704,0.747,,VVV*04
$GPLLK,123042.00,010125,,M,,M,1,37,0.9,,M*00
$GNGMP,123042.00,,,,,DAAA,37,0.4,,,,*50
$GPGMP,123042.00,,,,,,09,,,,2.8,136*7C
$GLGMP,123042.00,,,,,,08,,,,,*71
$GAGMP,123042.00,,,,,,08,,,,,*7C
$GBGMP,123042.00,,,,,,12,,,,,*74
$PSSN,SNC,[0,304260000,2347]*47
$GPZDA,123047.00,01,01,2025,,*60
$GPDTM,W84,,00.0000000,N,00.0000000,E,00.0000000,W84*5F
$PSSN,TFM,123047.00,,,,*6C
$GPRMC,123047.00,A,4742.1603652,N,01618.1006000,E,0.0,,010125,5.1,E,D*17
$GPGLL,4742.1603652,N,01618.1006000,E,123047.00,A,D*66
$GPGGA,123047.00,4742.1603652,N,01618.1006000,E,2,37,0.4,708.1756,M,43.2066,M,2.4,0136*46
$GNGNS,123047.00,4742.1603652,N,01618.1006000,E,DAAA,37,0.4,708.1756,43.2066,,*58
$GPGNS,123047.00,,,,,,09,,,,2.4,136*75
$GLGNS,123047.00,,,,,,08,,,,,*74
$GAGNS,123047.00,,,,,,08,,,,,*79
$GBGNS,123047.00,,,,,,12,,,,,*71
$GPLLQ,123047.00,010125,,M,,M,1,37,0.959,,M*13
$GPVTG,,T,,M,0.00,N,0.01,K,D*27
$GPHDT,,T*1B
$GPTHS,,V*0E
$GPROT,,V*08
$PSSN,HRP,123047.00,010125,,,,,,,00,0,,*62
$PTNL,AVR,123047.00,,Yaw,,Tilt,,,,0,,00*34
$GPGSA,A,3,06,11,12,15,17,19,24,25,32,,,,0.8,0.4,0.7*36
$GPGSA,A,3,67,68,69,76,77,78,86,87,,,,,0.8,0.4,0.7*36
$GPGSA,A,3,02,07,08,11,27,29,30,36,,,,,0.8,0.4,0.7*3C
$GPGSA,A,3,05,07,10,12,14,24,26,33,35,40,41,60,0.8,0.4,0.7*3F
$GPGST,123047.00,2.325,0.498,0.361,359.705,0.498,0.361,0.736*5D
$GPGBS,123047.00,3.036,2.478,4.267,17,0.0001,-3.092,1.943*79
$GPGRS,123047.00,1,0.5,1.3,-0.0,-0.1,-3.1,0.1,-0.2,-0.1,0.4,,,*4C
$GPGRS,123047.00,1,4.3,6.6,1.4,-1.9,-6.4,-3.1,1.8,-1.3,,,,*4C
$GPGRS,123047.00,1,0.7,0.1,-0.1,-1.3,-0.7,1.5,0.1,0.3,,,,*64
$GPGRS,123047.00,1,1.4,-0.4,1.6,-0.3,1.3,0.4,-0.0,-0.8,-0.8,-3.1,1.7,-1.1*67
$GPGSV,6,1,21,12,74,281,50,17,11,040,40,11,12,126,39,32,25,312,44*7F
$GPGSV,6,2,21,19,38,054,46,06,22,091,42,25,33,264,44,24,69,147,51*7E
$GPGSV,6,3,21,22,04,071,,15,08,188,40,29,00,206,,10,01,278,35*70
$GPGSV,6,4,21,36,35,170,45,58,13,245,36,40,23,133,36,34,31,208,43*7C
$GPGSV,6,5,21,49,34,195,45,57,08,111,37,41,07,108,35,61,03,257,38*72
$GPGSV,6,6,21*7A
$GLGSV,3,1,10,77,65,035,47,78,35,293,50,69,13,341,45,76,26,081,47*61
$GLGSV,3,2,10,67,27,234,47,68,37,294,49,86,36,053,48,87,40,117,47*61
$GLGSV,3,3,10,85,02,010,38,88,05,166,*65
$GAGSV,3,1,11,30,68,270,49,08,31,192,44,29,20,318,41,11,15,038,36*63
$GAGSV,3,2,11,27,16,256,40,36,21,088,41,02,53,063,47,07,51,261,47*6A
$GAGSV,3,3,11,10,04,014,36,34,07,136,,25,04,071,36*59
$GBGSV,5,1,20,24,77,313,52,40,10,041,39,14,14,228,39,05,20,130,39*6A
$GBGSV,5,2,20,07,15,053,38,12,21,167,41,41,20,306,44,33,22,253,45*62
$GBGSV,5,3,20,23,21,277,,10,28,057,41,44,39,147,,56,35,054,*6F
$GBGSV,5,4,20,35,44,080,48,26,46,096,49,25,75,307,,34,03,187,*65
$GBGSV,5,5,20,42,01,207,33,31,06,099,,02,04,109,32,60,08,111,39*65
$GPGGA,123047.00,,,,,0,00,,,M,,M,,*4B
$PTNL,GGK,123047.00,010125,4742.1603652,N,01618.1006000,E,1,37,0.8,EHT751.3821,M*47
$GPGGQ,123047.00,010125,4742.1603652,N,01618.1006000,E,1,37,0.959,708.1756,M*35
$GPGFA,123047.00,4.737,6.035,0.498,0.361,359.705,0.736,,VVV*09
$GPLLK,123047.00,010125,,M,,M,1,37,0.9,,M*05
$GNGMP,123047.00,,,,,DAAA,37,0.4,,,,*55
$GPGMP,123047.00,,,,,,09,,,,2.4,136*75
$GLGMP,123047.00,,,,,,08,,,,,*74
$GAGMP,123047.00,,,,,,08,,,,,*79
$GBGMP,123047.00,,,,,,12,,,,,*71
$PSSN,SNC,[0,304265000,2347]*42
$GPZDA,123052.00,01,01,2025,,*64
$GPDTM,W84,,00.0000000,N,00.0000000,E,00.0000000,W84*5F
$PSSN,TFM,123052.00,,,,*68
$GPRMC,123052.00,A,4742.1603679,N,01618.1006008,E,0.0,,010125,5.1,E,D*12
$GPGLL,4742.1603679,N,01618.1006008,E,123052.00,A,D*63
$GPGGA,123052.00,4742.1603679,N,01618.1006008,E,2,37,0.4,708.1785,M,43.2066,M,3.0,0136*48
$GNGNS,123052.00,4742.1603679,N,01618.1006008,E,DAAA,37,0.4,708.1785,43.2066,,*53
$GPGNS,123052.00,,,,,,09,,,,3.0,136*74
$GLGNS,123052.00,,,,,,08,,,,,*70
$GAGNS,123052.00,,,,,,08,,,,,*7D
$GBGNS,123052.00,,,,,,12,,,,,*75
$GPLLQ,123052.00,010125,,M,,M,1,37,1.021,,M*10
$GPVTG,,T,,M,0.00,N,0.01,K,D*27
$GPHDT,,T*1B
$GPTHS,,V*0E
$GPROT,,V*08
$PSSN,HRP,123052.00,010125,,,,,,,00,0,,*66
$PTNL,AVR,123052.00,,Yaw,,Tilt,,,,0,,00*30
$GPGSA,A,3,06,11,12,15,17,19,24,25,32,,,,0.8,0.4,0.7*36
$GPGSA,A,3,67,68,69,76,77,78,86,87,,,,,0.8,0.4,0.7*36
$GPGSA,A,3,02,07,08,11,27,29,30,36,,,,,0.8,0.4,0.7*3C
$GPGSA,A,3,05,07,10,12,14,24,26,33,35,40,41,60,0.8,0.4,0.7*3F
$GPGST,123052.00,2.347,0.532,0.384,0.613,0.532,0.384,0.782*5B
$GPGBS,123052.00,3.065,2.460,4.297,17,0.0001,-3.417,1.952*74
$GPGRS,123052.00,1,0.2,1.4,0.0,0.3,-3.4,0.2,-0.3,-0.2,0.6,,,*4C
$GPGRS,123052.00,1,4.9,6.5,1.3,-1.5,-6.6,-2.8,1.4,-1.8,,,,*47
$GPGRS,123052.00,1,0.6,-0.2,-0.2,-1.4,-0.8,1.7,0.1,0.4,,,,*41
$GPGRS,123052.00,1,0.6,0.2,2.1,-0.2,-0.2,0.6,0.2,-0.4,-0.7,-3.1,1.1,-1.2*48
$GPGSV,6,1,21,12,74,281,51,17,11,040,40,11,12,126,39,32,25,312,44*7E
$GPGSV,6,2,21,19,38,054,46,06,22,091,42,25,33,264,44,24,69,147,50*7F
$GPGSV,6,3,21,22,04,071,,15,08,188,40,29,00,206,,10,01,278,36*73
$GPGSV,6,4,21,36,35,170,45,58,13,245,36,40,23,133,36,34,31,208,43*7C
$GPGSV,6,5,21,49,34,195,45,57,08,111,37,41,07,108,35,61,03,257,38*72
$GPGSV,6,6,21*7A
$GLGSV,3,1,10,77,65,035,47,78,35,293,49,69,13,341,44,76,26,081,47*68
$GLGSV,3,2,10,67,27,234,48,68,37,294,50,86,36,053,49,87,40,117,48*68
$GLGSV,3,3,10,85,01,010,40,88,05,166,*69
$GAGSV,3,1,11,30,68,270,49,08,31,192,43,29,20,318,42,11,15,038,36*67
$GAGSV,3,2,11,27,16,256,41,36,21,088,41,02,53,063,47,07,51,261,47*6B
$GAGSV,3,3,11,10,04,014,36,34,07,136,,25,04,071,36*59
$GBGSV,5,1,20,24,77,313,52,40,10,041,39,14,14,228,39,05,20,130,38*6B
$GBGSV,5,2,20,07,15,053,38,12,21,167,41,41,20,306,43,33,22,253,45*65
$GBGSV,5,3,20,23,21,277,,10,28,057,41,44,39,147,,56,35,054,*6F
$GBGSV,5,4,20,35,44,080,48,26,46,096,49,25,75,307,,34,03,187,*65
$GBGSV,5,5,20,42,01,207,33,31,06,099,,02,04,109,32,60,08,111,39*65
$GPGGA,123052.00,,,,,0,00,,,M,,M,,*4F
$PTNL,GGK,123052.00,010125,4742.1603679,N,01618.1006008,E,1,37,0.8,EHT751.3851,M*45
$GPGGQ,123052.00,010125,4742.1603679,N,01618.1006008,E,1,37,1.021,708.1785,M*39
$GPGFA,123052.00,5.062,6.415,0.532,0.384,0.613,0.782,,VVV*01
$GPLLK,123052.00,010125,,M,,M,1,37,0.9,,M*01
$GNGMP,123052.00,,,,,DAAA,37,0.4,,,,*51
$GPGMP,123052.00,,,,,,09,,,,3.0,136*74
$GLGMP,123052.00,,,,,,08,,,,,*70
$GAGMP,123052.00,,,,,,08,,,,,*7D
$GBGMP,123052.00,,,,,,12,,,,,*75
$PSSN,SNC,[0,304270000,2347]*46
$GPZDA,123057.00,01,01,2025,,*61
$GPDTM,W84,,00.0000000,N,00.0000000,E,00.0000000,W84*5F
$PSSN,TFM,123057.00,,,,*6D
$GPRMC,123057.00,A,4742.1603688,N,01618.1006003,E,0.0,,010125,5.1,E,D*12
$GPGLL,4742.1603688,N,01618.1006003,E,123057.00,A,D*63
$GPGGA,123057.00,4742.1603688,N,01618.1006003,E,2,37,0.4,708.1847,M,43.2066,M,1.8,0136*43
$GNGNS,123057.00,4742.1603688,N,01618.1006003,E,DAAA,37,0.4,708.1847,43.2066,,*52
$GPGNS,123057.00,,,,,,09,,,,1.8,136*7B
$GLGNS,123057.00,,,,,,08,,,,,*75
$GAGNS,123057.00,,,,,,08,,,,,*78
$GBGNS,123057.00,,,,,,12,,,,,*70
$GPLLQ,123057.00,010125,,M,,M,1,37,0.988,,M*1E
$GPVTG,,T,,M,0.00,N,0.00,K,D*26
$GPHDT,,T*1B
$GPTHS,,V*0E
$GPROT,,V*08
$PSSN,HRP,123057.00,010125,,,,,,,00,0,,*63
$PTNL,AVR,123057.00,,Yaw,,Tilt,,,,0,,00*35
$GPGSA,A,3,06,11,12,15,17,19,24,25,32,,,,0.8,0.4,0.7*36
$GPGSA,A,3,67,68,69,76,77,78,86,87,,,,,0.8,0.4,0.7*36
$GPGSA,A,3,02,07,08,11,27,29,30,36,,,,,0.8,0.4,0.7*3C
$GPGSA,A,3,05,07,10,12,14,24,26,33,35,40,41,60,0.8,0.4,0.7*3F
$GPGST,123057.00,2.357,0.513,0.371,0.688,0.513,0.371,0.758*5A
$GPGBS,123057.00,3.014,2.467,4.364,17,0.0001,-2.676,1.938*75
$GPGRS,123057.00,1,0.4,1.7,0.1,-0.3,-2.7,0.0,-0.2,-0.3,0.6,,,*60
$GPGRS,123057.00,1,5.6,6.1,1.3,-1.4,-6.7,-3.2,1.6,-1.5,,,,*4C
$GPGRS,123057.00,1,0.6,-0.1,-0.2,-1.2,-0.9,0.8,-0.0,0.0,,,,*66
$GPGRS,123057.00,1,1.2,0.5,2.6,-0.3,-0.3,0.5,-0.1,-0.6,-0.7,-3.1,1.0,-1.0*64
$GPGSV,6,1,21,12,74,281,50,17,11,040,39,11,12,126,39,32,25,312,44*71
$GPGSV,6,2,21,19,38,054,46,06,22,091,42,25,33,264,44,24,69,147,50*7F
$GPGSV,6,3,21,22,04,071,,15,08,188,39,29,00,206,,10,01,278,38*73
$GPGSV,6,4,21,36,35,170,45,58,13,245,36,40,23,133,36,34,31,208,43*7C
$GPGSV,6,5,21,49,34,195,45,57,08,111,37,41,07,108,35,61,03,257,38*72
$GPGSV,6,6,21*7A
$GLGSV,3,1,10,77,65,035,47,78,35,293,49,69,13,341,45,76,26,081,47*69
$GLGSV,3,2,10,67,27,234,48,68,37,294,49,86,36,053,49,87,40,116,48*61
$GLGSV,3,3,10,85,01,010,39,88,05,166,*67
$GAGSV,3,1,11,30,68,270,49,08,30,192,44,29,20,318,41,11,15,038,36*62
$GAGSV,3,2,11,27,16,256,41,36,21,088,41,02,53,063,47,07,51,261,47*6B
$GAGSV,3,3,11,10,04,014,36,34,07,136,,25,04,071,36*59
$GBGSV,5,1,20,24,77,313,52,40,10,041,39,14,14,228,39,05,20,130,39*6A
$GBGSV,5,2,20,07,15,053,38,12,21,167,41,41,20,306,43,33,22,253,45*65
$GBGSV,5,3,20,23,21,277,,10,28,057,41,44,39,147,,56,35,054,*6F
$GBGSV,5,4,20,35,44,080,49,26,46,096,49,25,75,307,,34,03,187,*64
$GBGSV,5,5,20,42,01,207,32,31,06,099,,02,04,109,32,60,08,111,39*64
$GPGGA,123057.00,,,,,0,00,,,M,,M,,*4A
$PTNL,GGK,123057.00,010125,4742.1603688,N,01618.1006003,E,1,37,0.8,EHT751.3912,M*43
$GPGGQ,123057.00,010125,4742.1603688,N,01618.1006003,E,1,37,0.988,708.1847,M*33
$GPGFA,123057.00,4.879,6.218,0.513,0.371,0.688,0.758,,VVV*00
$GPLLK,123057.00,010125,,M,,M,1,37,0.9,,M*04
$GNGMP,123057.00,,,,,DAAA,37,0.4,,,,*54
$GPGMP,123057.00,,,,,,09,,,,1.8,136*7B
$GLGMP,123057.00,,,,,,08,,,,,*75
$GAGMP,123057.00,,,,,,08,,,,,*78
$GBGMP,123057.00,,,,,,12,,,,,*70
$PSSN,SNC,[0,304275000,2347]*43
$GPZDA,123102.00,01,01,2025,,*60
$GPDTM,W84,,00.0000000,N,00.0000000,E,00.0000000,W84*5F
$PSSN,TFM,123102.00,,,,*6C
$GPRMC,123102.00,A,4742.1603712,N,01618.1006021,E,0.0,,010125,5.1,E,D*11
$GPGLL,4742.1603712,N,01618.1006021,E,123102.00,A,D*60
$GPGGA,123102.00,4742.1603712,N,01618.1006021,E,2,37,0.4,708.1889,M,43.2066,M,2.8,0136*41
$GNGNS,123102.00,4742.1603712,N,01618.1006021,E,DAAA,37,0.4,708.1889,43.2066,,*53
$GPGNS,123102.00,,,,,,09,,,,2.8,136*79
$GLGNS,123102.00,,,,,,08,,,,,*74
$GAGNS,123102.00,,,,,,08,,,,,*79
$GBGNS,123102.00,,,,,,12,,,,,*71
$GPLLQ,123102.00,010125,,M,,M,1,37,1.005,,M*12
$GPVTG,,T,,M,0.01,N,0.01,K,D*26
$GPHDT,,T*1B
$GPTHS,,V*0E
$GPROT,,V*08
$PSSN,HRP,123102.00,010125,,,,,,,00,0,,*62
$PTNL,AVR,123102.00,,Yaw,,Tilt,,,,0,,00*34
$GPGSA,A,3,06,11,12,15,17,19,24,25,32,,,,0.8,0.4,0.7*36
$GPGSA,A,3,67,68,69,76,77,78,86,87,,,,,0.8,0.4,0.7*36
$GPGSA,A,3,02,07,08,11,27,29,30,36,,,,,0.8,0.4,0.7*3C
$GPGSA,A,3,05,07,10,12,14,24,26,33,35,40,41,60,0.8,0.4,0.7*3F
$GPGST,123102.00,2.399,0.521,0.376,359.955,0.521,0.376,0.773*50
$GPGBS,123102.00,3.041,2.488,4.451,17,0.0001,-2.739,1.945*74
$GPGRS,123102.00,1,0.4,1.3,0.0,0.0,-2.7,0.2,-0.3,-0.5,0.9,,,*40
$GPGRS,123102.00,1,6.2,5.5,1.5,-2.1,-6.3,-3.4,1.4,-1.7,,,,*4F
$GPGRS,123102.00,1,0.7,0.2,0.2,-1.5,-1.3,1.0,0.0,0.4,,,,*49
$GPGRS,123102.00,1,1.7,0.1,2.5,-0.1,-0.5,0.6,0.0,-0.6,-1.0,-3.2,1.3,-0.9*42
$GPGSV,6,1,21,12,74,281,50,17,11,040,39,11,12,126,39,32,25,312,44*71
$GPGSV,6,2,21,19,38,054,46,06,22,091,42,25,33,264,43,24,69,147,50*78
$GPGSV,6,3,21,22,04,071,,15,08,188,39,29,00,206,,10,01,278,39*72
$GPGSV,6,4,21,36,35,170,45,58,13,245,36,40,23,133,36,34,31,208,43*7C
$GPGSV,6,5,21,49,34,195,45,57,08,111,37,41,07,108,35,61,03,257,38*72
$GPGSV,6,6,21*7A
$GLGSV,3,1,10,77,65,035,47,78,35,293,49,69,13,341,45,76,26,081,47*69
$GLGSV,3,2,10,67,27,234,49,68,37,294,49,86,36,053,48,87,40,116,47*6E
$GLGSV,3,3,10,85,01,010,40,88,05,166,*69
$GAGSV,3,1,11,30,68,270,49,08,30,192,44,29,20,318,41,11,15,038,37*63
$GAGSV,3,2,11,27,16,256,41,36,21,088,41,02,53,063,47,07,51,261,47*6B
$GAGSV,3,3,11,10,04,014,36,34,07,136,,25,04,071,36*59
$GBGSV,5,1,20,24,77,313,52,40,10,041,39,14,14,228,39,05,20,130,39*6A
$GBGSV,5,2,20,07,15,053,38,12,21,167,41,41,20,306,43,33,22,253,45*65
$GBGSV,5,3,20,23,21,277,,10,28,057,41,44,39,147,,56,35,054,*6F
$GBGSV,5,4,20,35,44,080,48,26,46,096,49,25,75,307,,34,03,187,*65
$GBGSV,5,5,20,42,01,207,32,31,06,099,,02,04,109,32,60,08,111,39*64
$GPGGA,123102.00,,,,,0,00,,,M,,M,,*4B
$PTNL,GGK,123102.00,010125,4742.1603712,N,01618.1006021,E,1,37,0.8,EHT751.3955,M*43
$GPGGQ,123102.00,010125,4742.1603712,N,01618.1006021,E,1,37,1.005,708.1889,M*3F
$GPGFA,123102.00,4.950,6.338,0.521,0.376,359.955,0.773,,VVV*07
$GPLLK,123102.00,010125,,M,,M,1,37,0.9,,M*05
$GNGMP,123102.00,,,,,DAAA,37,0.4,,,,*55
$GPGMP,123102.00,,,,,,09,,,,2.8,136*79
$GLGMP,123102.00,,,,,,08,,,,,*74
$GAGMP,123102.00,,,,,,08,,,,,*79
$GBGMP,123102.00,,,,,,12,,,,,*71
$PSSN,SNC,[0,304280000,2347]*49
$GPZDA,123107.00,01,01,2025,,*65
$GPDTM,W84,,00.0000000,N,00.0000000,E,00.0000000,W84*5F
$PSSN,TFM,123107.00,,,,*69
$GPRMC,123107.00,A,4742.1603721,N,01618.1005997,E,0.0,,010125,5.1,E,D*13
$GPGLL,4742.1603721,N,01618.1005997,E,123107.00,A,D*62
$GPGGA,123107.00,4742.1603721,N,01618.1005997,E,2,37,0.4,708.1933,M,43.2066,M,2.4,0136*4F
$GNGNS,123107.00,4742.1603721,N,01618.1005997,E,DAAA,37,0.4,708.1933,43.2066,,*51
$GPGNS,123107.00,,,,,,09,,,,2.4,136*70
$GLGNS,123107.00,,,,,,08,,,,,*71
$GAGNS,123107.00,,,,,,08,,,,,*7C
$GBGNS,123107.00,,,,,,12,,,,,*74
$GPLLQ,123107.00,010125,,M,,M,1,37,0.966,,M*1A
$GPVTG,,T,,M,0.00,N,0.01,K,D*27
$GPHDT,,T*1B
$GPTHS,,V*0E
$GPROT,,V*08
$PSSN,HRP,123107.00,010125,,,,,,,00,0,,*67
$PTNL,AVR,123107.00,,Yaw,,Tilt,,,,0,,00*31
$GPGSA,A,3,06,11,12,15,17,19,24,25,32,,,,0.8,0.4,0.7*36
$GPGSA,A,3,67,68,69,76,77,78,86,87,,,,,0.8,0.4,0.7*36
$GPGSA,A,3,02,07,08,11,27,29,30,36,,,,,0.8,0.4,0.7*3C
$GPGSA,A,3,05,07,10,12,14,24,26,33,35,40,41,60,0.8,0.4,0.7*3F
$GPGST,123107.00,2.412,0.502,0.362,0.021,0.502,0.362,0.742*56
$GPGBS,123107.00,3.032,2.478,4.257,17,0.0001,-3.052,1.953*76
$GPGRS,123107.00,1,-0.0,1.3,-0.0,0.2,-3.1,0.1,-0.1,-0.2,0.7,,,*4C
$GPGRS,123107.00,1,5.5,5.8,2.1,-1.6,-6.9,-2.9,1.7,-2.2,,,,*43
$GPGRS,123107.00,1,0.6,-0.2,0.0,-1.5,-1.2,1.4,0.3,0.2,,,,*62
$GPGRS,123107.00,1,1.4,-0.1,2.1,-0.3,0.1,0.4,-0.3,-1.0,-1.0,-3.3,0.9,-0.9*67
$GPGSV,6,1,21,12,74,281,50,17,11,040,40,11,12,126,39,32,25,312,44*7F
$GPGSV,6,2,21,19,38,054,46,06,22,091,42,25,33,264,44,24,69,147,50*7F
$GPGSV,6,3,21,22,04,071,,15,08,187,39,29,00,206,,10,01,278,39*7D
$GPGSV,6,4,21,36,35,170,45,58,13,245,36,40,23,133,37,34,31,208,43*7D
$GPGSV,6,5,21,49,34,195,45,57,08,111,37,41,07,108,35,61,03,257,38*72
$GPGSV,6,6,21*7A
$GLGSV,3,1,10,77,65,035,47,78,35,293,50,69,13,341,46,76,26,081,47*62
$GLGSV,3,2,10,67,27,234,48,68,37,294,50,86,35,052,49,87,40,116,47*64
$GLGSV,3,3,10,85,01,010,39,88,05,166,*67
$GAGSV,3,1,11,30,68,270,49,08,30,192,44,29,20,318,41,11,15,038,36*62
$GAGSV,3,2,11,27,16,256,41,36,21,088,41,02,53,063,48,07,51,261,47*64
$GAGSV,3,3,11,10,04,014,35,34,07,136,,25,04,071,35*59
$GBGSV,5,1,20,24,77,313,52,40,10,041,39,14,14,228,40,05,20,130,38*65
$GBGSV,5,2,20,07,15,053,38,12,21,167,41,41,20,306,43,33,22,253,45*65
$GBGSV,5,3,20,23,21,277,,10,28,057,41,44,39,147,,56,35,054,*6F
$GBGSV,5,4,20,35,44,080,48,26,46,096,49,25,75,307,,34,03,187,*65
$GBGSV,5,5,20,42,01,207,31,31,06,099,,02,04,109,32,60,08,111,39*67
$GPGGA,123107.00,,,,,0,00,,,M,,M,,*4E
$PTNL,GGK,123107.00,010125,4742.1603721,N,01618.1005997,E,1,37,0.8,EHT751.3999,M*41
$GPGGQ,123107.00,010125,4742.1603721,N,01618.1005997,E,1,37,0.966,708.1933,M*30
$GPGFA,123107.00,4.768,6.082,0.502,0.362,0.021,0.742,,VVV*06
$GPLLK,123107.00,010125,,M,,M,1,37,0.9,,M*00
$GNGMP,123107.00,,,,,DAAA,37,0.4,,,,*50
$GPGMP,123107.00,,,,,,09,,,,2.4,136*70
$GLGMP,123107.00,,,,,,08,,,,,*71
$GAGMP,123107.00,,,,,,08,,,,,*7C
$GBGMP,123107.00,,,,,,12,,,,,*74
$PSSN,SNC,[0,304285000,2347]*4C
$GPZDA,123112.00,01,01,2025,,*61
$GPDTM,W84,,00.0000000,N,00.0000000,E,00.0000000,W84*5F
$PSSN,TFM,123112.00,,,,*6D
$GPRMC,123112.00,A,4742.1603764,N,01618.1006036,E,0.0,,010125,5.1,E,D*17
$GPGLL,4742.1603764,N,01618.1006036,E,123112.00,A,D*66
$GPGGA,123112.00,4742.1603764,N,01618.1006036,E,2,37,0.4,708.1907,M,43.2066,M,3.0,0136*49
$GNGNS,123112.00,4742.1603764,N,01618.1006036,E,DAAA,37,0.4,708.1907,43.2066,,*52
$GPGNS,123112.00,,,,,,09,,,,3.0,136*71
$GLGNS,123112.00,,,,,,08,,,,,*75
$GAGNS,123112.00,,,,,,08,,,,,*78
$GBGNS,123112.00,,,,,,12,,,,,*70
$GPLLQ,123112.00,010125,,M,,M,1,37,0.996,,M*11
$GPVTG,,T,,M,0.00,N,0.00,K,D*26
$GPHDT,,T*1B
$GPTHS,,V*0E
$GPROT,,V*08
$PSSN,HRP,123112.00,010125,,,,,,,00,0,,*63
$PTNL,AVR,123112.00,,Yaw,,Tilt,,,,0,,00*35
$GPGSA,A,3,06,11,12,15,17,19,24,25,32,,,,0.8,0.4,0.7*36
$GPGSA,A,3,67,68,69,76,77,78,86,87,,,,,0.8,0.4,0.7*36
$GPGSA,A,3,02,07,08,11,27,29,30,36,,,,,0.8,0.4,0.7*3C
$GPGSA,A,3,05,07,10,12,14,24,26,33,35,40,41,60,0.8,0.4,0.7*3F
$GPGST,123112.00,2.444,0.519,0.374,0.854,0.519,0.374,0.763*58
$GPGBS,123112.00,3.060,2.460,4.287,17,0.0001,-2.777,1.963*73
$GPGRS,123112.00,1,-0.1,1.2,-0.3,0.1,-2.8,0.1,0.1,0.0,0.5,,,*40
$GPGRS,123112.00,1,5.5,6.1,1.4,-1.8,-6.7,-2.9,1.7,-2.7,,,,*4E
$GPGRS,123112.00,1,0.5,-0.5,-0.2,-1.7,-1.2,1.2,0.1,0.5,,,,*4C
$GPGRS,123112.00,1,1.3,-0.4,2.1,-0.5,1.1,0.2,0.0,-0.9,-0.9,-3.7,1.0,-1.5*4F
$GPGSV,6,1,21,12,74,281,51,17,11,040,40,11,12,126,40,32,25,312,44*70
$GPGSV,6,2,21,19,38,054,46,06,22,091,42,25,33,264,44,24,69,147,50*7F
$GPGSV,6,3,21,22,04,071,,15,08,187,39,29,00,206,,10,01,278,37*73
$GPGSV,6,4,21,36,35,170,45,58,13,245,36,40,23,133,36,34,31,208,43*7C
$GPGSV,6,5,21,49,34,195,45,57,08,111,37,41,07,108,35,61,03,257,38*72
$GPGSV,6,6,21*7A
$GLGSV,3,1,10,77,65,035,47,78,35,293,50,69,13,341,45,76,26,081,47*61
$GLGSV,3,2,10,67,27,234,48,68,37,294,50,86,35,052,49,87,40,116,47*64
$GLGSV,3,3,10,85,01,010,37,88,05,166,*69
$GAGSV,3,1,11,30,68,270,49,08,30,192,44,29,20,318,41,11,15,038,36*62
$GAGSV,3,2,11,27,16,256,41,36,21,088,41,02,53,063,48,07,51,261,48*6B
$GAGSV,3,3,11,10,04,014,36,34,07,136,,25,04,071,36*59
$GBGSV,5,1,20,24,77,313,52,40,10,041,39,14,14,228,40,05,20,130,39*64
$GBGSV,5,2,20,07,15,053,38,12,21,167,41,41,20,306,43,33,22,253,44*64
$GBGSV,5,3,20,23,21,277,,10,28,057,41,44,39,147,,56,35,054,*6F
$GBGSV,5,4,20,35,44,080,49,26,46,096,50,25,75,307,,34,03,187,*6C
$GBGSV,5,5,20,42,01,207,31,31,06,099,,02,04,109,32,60,08,111,39*67
$GPGGA,123112.00,,,,,0,00,,,M,,M,,*4A
$PTNL,GGK,123112.00,010125,4742.1603764,N,01618.1006036,E,1,37,0.8,EHT751.3972,M*40
$GPGGQ,123112.00,010125,4742.1603764,N,01618.1006036,E,1,37,0.996,708.1907,M*3C
$GPGFA,123112.00,4.933,6.256,0.519,0.374,0.854,0.763,,VVV*0D
$GPLLK,123112.00,010125,,M,,M,1,37,0.9,,M*04
$GNGMP,123112.00,,,,,DAAA,37,0.4,,,,*54
$GPGMP,123112.00,,,,,,09,,,,3.0,136*71
$GLGMP,123112.00,,,,,,08,,,,,*75
$GAGMP,123112.00,,,,,,08,,,,,*78
$GBGMP,123112.00,,,,,,12,,,,,*70
$PSSN,SNC,[0,304290000,2347]*48
$GPZDA,123117.00,01,01,2025,,*64
$GPDTM,W84,,00.0000000,N,00.0000000,E,00.0000000,W84*5F
$PSSN,TFM,123117.00,,,,*68
$GPRMC,123117.00,A,4742.1603790,N,01618.1006032,E,0.0,,010125,5.1,E,D*1D
$GPGLL,4742.1603790,N,01618.1006032,E,123117.00,A,D*6C
$GPGGA,123117.00,4742.1603790,N,01618.1006032,E,2,37,0.4,708.1964,M,43.2066,M,1.8,0136*4C
$GNGNS,123117.00,4742.1603790,N,01618.1006032,E,DAAA,37,0.4,708.1964,43.2066,,*5D
$GPGNS,123117.00,,,,,,09,,,,1.8,136*7E
$GLGNS,123117.00,,,,,,08,,,,,*70
$GAGNS,123117.00,,,,,,08,,,,,*7D
$GBGNS,123117.00,,,,,,12,,,,,*75
$GPLLQ,123117.00,010125,,M,,M,1,37,0.961,,M*1C
$GPVTG,,T,,M,0.00,N,0.00,K,D*26
$GPHDT,,T*1B
$GPTHS,,V*0E
$GPROT,,V*08
$PSSN,HRP,123117.00,010125,,,,,,,00,0,,*66
$PTNL,AVR,123117.00,,Yaw,,Tilt,,,,0,,00*30
$GPGSA,A,3,06,11,12,15,17,19,24,25,32,,,,0.8,0.4,0.7*36
$GPGSA,A,3,67,68,69,76,77,78,86,87,,,,,0.8,0.4,0.7*36
$GPGSA,A,3,02,07,08,11,27,29,30,36,,,,,0.8,0.4,0.7*3C
$GPGSA,A,3,05,07,10,12,14,24,26,33,35,40,41,60,0.8,0.4,0.7*3F
$GPGST,123117.00,2.251,0.499,0.360,0.956,0.499,0.360,0.738*52
$GPGBS,123117.00,3.009,2.467,4.353,17,0.0001,-2.468,1.948*72
$GPGRS,123117.00,1,0.2,1.3,-0.1,-0.1,-2.5,-0.0,-0.1,-0.2,0.6,,,*65
$GPGRS,123117.00,1,5.0,5.4,1.3,-2.2,-6.6,-2.7,1.5,-1.4,,,,*4B
$GPGRS,123117.00,1,0.3,0.0,-0.2,-1.4,-0.9,1.2,-0.0,0.7,,,,*40
$GPGRS,123117.00,1,1.3,-0.3,2.0,-0.1,0.9,0.2,0.2,-0.5,-0.9,-3.3,1.5,-1.5*4E
$GPGSV,6,1,21,12,74,281,51,17,11,040,40,11,12,126,40,32,25,312,44*70
$GPGSV,6,2,21,19,38,054,46,06,22,090,41,25,33,264,44,24,69,147,50*7D
$GPGSV,6,3,21,22,04,071,,15,08,187,39,29,01,206,,10,01,278,38*7D
$GPGSV,6,4,21,36,35,170,45,58,13,245,36,40,23,133,36,34,31,208,43*7C
$GPGSV,6,5,21,49,34,195,45,57,08,111,37,41,07,108,35,61,03,257,38*72
$GPGSV,6,6,21*7A
$GLGSV,3,1,10,77,65,036,47,78,35,293,50,69,13,341,44,76,26,081,47*63
$GLGSV,3,2,10,67,27,234,48,68,37,293,49,86,35,052,49,87,40,116,48*64
$GLGSV,3,3,10,85,01,010,36,88,05,166,*68
$GAGSV,3,1,11,30,68,270,49,08,30,192,44,29,20,318,41,11,15,038,36*62
$GAGSV,3,2,11,27,16,256,41,36,21,088,41,02,53,063,48,07,51,261,48*6B
$GAGSV,3,3,11,10,04,014,36,34,07,136,,25,04,071,36*59
$GBGSV,5,1,20,24,77,313,52,40,10,041,40,14,13,228,40,05,20,130,39*6D
$GBGSV,5,2,20,07,15,053,38,12,21,167,41,41,20,306,43,33,22,253,44*64
$GBGSV,5,3,20,23,21,277,,10,28,057,41,44,39,147,,56,35,054,*6F
$GBGSV,5,4,20,35,44,080,49,26,46,096,49,25,75,307,,34,03,187,*64
$GBGSV,5,5,20,42,01,207,30,31,06,099,,02,04,109,32,60,08,111,39*66
$GPGGA,123117.00,,,,,0,00,,,M,,M,,*4F
$PTNL,GGK,123117.00,010125,4742.1603790,N,01618.1006032,E,1,37,0.8,EHT751.4030,M*42
$GPGGQ,123117.00,010125,4742.1603790,N,01618.1006032,E,1,37,0.961,708.1964,M*3B
$GPGFA,123117.00,4.742,6.050,0.499,0.360,0.956,0.738,,VVV*05
$GPLLK,123117.00,010125,,M,,M,1,37,0.9,,M*01
$GNGMP,123117.00,,,,,DAAA,37,0.4,,,,*51
$GPGMP,123117.00,,,,,,09,,,,1.8,136*7E
$GLGMP,123117.00,,,,,,08,,,,,*70
$GAGMP,123117.00,,,,,,08,,,,,*7D
$GBGMP,123117.00,,,,,,12,,,,,*75
$PSSN,SNC,[0,304295000,2347]*4D
$GPZDA,123122.00,01,01,2025,,*62
$GPDTM,W84,,00.0000000,N,00.0000000,E,00.0000000,W84*5F
$PSSN,TFM,123122.00,,,,*6E
$GPRMC,123122.00,A,4742.1603811,N,01618.1006038,E,0.0,,010125,5.1,E,D*17
$GPGLL,4742.1603811,N,01618.1006038,E,123122.00,A,D*66
$GPGGA,123122.00,4742.1603811,N,01618.1006038,E,2,37,0.4,708.2030,M,43.2066,M,2.8,0136*4E
$GNGNS,123122.00,4742.1603811,N,01618.1006038,E,DAAA,37,0.4,708.2030,43.2066,,*5C
$GPGNS,123122.00,,,,,,09,,,,2.8,136*7B
$GLGNS,123122.00,,,,,,08,,,,,*76
$GAGNS,123122.00,,,,,,08,,,,,*7B
$GBGNS,123122.00,,,,,,12,,,,,*73
$GPLLQ,123122.00,010125,,M,,M,1,37,0.955,,M*1D
$GPVTG,,T,,M,0.00,N,0.01,K,D*27
$GPHDT,,T*1B
$GPTHS,,V*0E
$GPROT,,V*08
$PSSN,HRP,123122.00,010125,,,,,,,00,0,,*60
$PTNL,AVR,123122.00,,Yaw,,Tilt,,,,0,,00*36
$GPGSA,A,3,06,11,12,15,17,19,24,25,32,,,,0.8,0.4,0.7*36
$GPGSA,A,3,67,68,69,76,77,78,86,87,,,,,0.8,0.4,0.7*36
$GPGSA,A,3,02,07,08,11,27,29,30,36,,,,,0.8,0.4,0.7*3C
$GPGSA,A,3,05,07,10,12,14,24,26,33,35,40,41,60,0.8,0.4,0.7*3F
