$GPZDA,025942.00,01,01,2025,,*6B
$GPDTM,W84,,00.0000000,N,00.0000000,E,00.0000000,W84*5F
$PSSN,TFM,025942.00,,,,*67
$GPRMC,025942.00,A,4742.1601910,N,01618.1004627,E,0.0,,010125,5.1,E,D*16
$GPGLL,4742.1601910,N,01618.1004627,E,025942.00,A,D*67
$GPGGA,025942.00,4742.1601910,N,01618.1004627,E,2,38,0.4,707.9005,M,43.2066,M,2.5,0136*4F
$GNGNS,025942.00,4742.1601910,N,01618.1004627,E,DAAA,38,0.4,707.9005,43.2066,,*50
$GPGNS,025942.00,,,,,,11,,,,2.5,136*76
$GLGNS,025942.00,,,,,,07,,,,,*70
$GAGNS,025942.00,,,,,,07,,,,,*7D
$GBGNS,025942.00,,,,,,13,,,,,*7B
$GPLLQ,025942.00,010125,,M,,M,1,38,0.781,,M*1C
$GPVTG,,T,,M,0.00,N,0.00,K,D*26
$GPHDT,,T*1B
$GPTHS,,V*0E
$GPROT,,V*08
$PSSN,HRP,025942.00,010125,,,,,,,00,0,,*69
$PTNL,AVR,025942.00,,Yaw,,Tilt,,,,0,,00*3F
$GPGSA,A,3,02,03,04,06,07,09,11,17,19,26,31,,0.8,0.4,0.7*3C
$GPGSA,A,3,69,70,71,79,80,85,86,,,,,,0.8,0.4,0.7*32
$GPGSA,A,3,04,05,06,09,11,34,36,,,,,,0.8,0.4,0.7*35
$GPGSA,A,3,05,06,09,16,19,20,22,29,35,37,39,44,0.8,0.4,0.7*3D
$GPGSA,A,3,60,,,,,,,,,,,,0.8,0.4,0.7*3F
$GPGST,025942.00,1.111,0.397,0.312,357.687,0.396,0.313,0.595*5E
$GPGBS,025942.00,2.137,1.917,3.423,17,0.0001,0.581,1.018*5B
$GPGRS,025942.00,1,-0.2,0.4,0.1,-0.1,-0.3,-0.1,-0.2,0.6,-0.0,0.5,-0.5,*45
$GPGRS,025942.00,1,-0.8,-1.1,1.6,0.8,-1.5,2.7,-2.4,,,,,*68
$GPGRS,025942.00,1,-0.6,0.2,0.0,0.2,-0.2,-0.3,0.4,,,,,*46
$GPGRS,025942.00,1,2.8,0.9,0.6,0.5,-0.8,-1.2,-0.2,-0.7,-0.6,-0.2,-0.8,-0.1*45
$GPGRS,025942.00,1,-1.6,,,,,,,,,,,*42
$GPGSV,6,1,22,04,85,058,49,11,11,319,39,02,10,163,41,17,13,234,42*73
$GPGSV,6,2,22,01,15,156,,19,22,260,42,07,13,183,41,31,24,047,43*7A
$GPGSV,6,3,22,06,45,303,46,03,51,095,48,09,63,242,50,28,04,031,36*7A
$GPGSV,6,4,22,26,08,073,37,36,35,170,44,58,13,245,38,40,24,132,36*72
$GPGSV,6,5,22,34,31,208,43,49,34,195,44,57,08,110,39,41,07,108,35*78
$GPGSV,6,6,22,61,03,257,38*46
$GLGSV,3,1,09,70,67,011,42,80,21,104,46,69,12,064,43,87,17,334,*66
$GLGSV,3,2,09,79,24,047,47,71,44,275,51,85,40,204,50,86,52,293,52*6B
$GLGSV,3,3,09,78,02,003,41*57
$GAGSV,3,1,11,09,78,061,49,11,20,157,37,18,16,258,,04,26,056,41*64
$GAGSV,3,2,11,34,47,304,46,05,45,234,46,36,64,195,48,06,52,058,46*63
$GAGSV,3,3,11,23,05,061,,15,01,324,37,21,02,014,32*5A
$GBGSV,5,1,19,19,75,308,51,39,20,039,40,12,12,328,,37,26,071,44*6B
$GBGSV,5,2,19,29,13,194,41,58,15,119,,16,29,045,42,46,21,129,*64
$GBGSV,5,3,19,22,24,269,45,06,30,048,40,05,23,128,39,21,24,259,*6C
$GBGSV,5,4,19,44,26,307,44,09,41,060,42,35,39,252,47,20,46,071,49*6F
$GBGSV,5,5,19,48,68,058,,02,07,106,34,60,08,110,40*53
$GPGGA,025942.00,,,,,0,00,,,M,,M,,*40
$PTNL,GGK,025942.00,010125,4742.1601910,N,01618.1004627,E,1,38,0.8,EHT751.1070,M*47
$GPGGQ,025942.00,010125,4742.1601910,N,01618.1004627,E,1,38,0.781,707.9005,M*36
$GPGFA,025942.00,3.771,4.881,0.397,0.312,357.687,0.595,,VVV*00
$GPLLK,025942.00,010125,,M,,M,1,38,0.9,,M*01
$GNGMP,025942.00,,,,,DAAA,38,0.4,,,,*51
$GPGMP,025942.00,,,,,,11,,,,2.5,136*76
$GLGMP,025942.00,,,,,,07,,,,,*70
$GAGMP,025942.00,,,,,,07,,,,,*7D
$GBGMP,025942.00,,,,,,13,,,,,*7B
$PSSN,SNC,[0,270000000,2347]*41
$GPZDA,025947.00,01,01,2025,,*6E
$GPDTM,W84,,00.0000000,N,00.0000000,E,00.0000000,W84*5F
$PSSN,TFM,025947.00,,,,*62
$GPRMC,025947.00,A,4742.1601930,N,01618.1004610,E,0.0,,010125,5.1,E,D*15
$GPGLL,4742.1601930,N,01618.1004610,E,025947.00,A,D*64
$GPGGA,025947.00,4742.1601930,N,01618.1004610,E,2,38,0.4,707.9000,M,43.2066,M,3.1,0136*4C
$GNGNS,025947.00,4742.1601930,N,01618.1004610,E,DAAA,38,0.4,707.9000,43.2066,,*56
$GPGNS,025947.00,,,,,,11,,,,3.1,136*76
$GLGNS,025947.00,,,,,,07,,,,,*75
$GAGNS,025947.00,,,,,,07,,,,,*78
$GBGNS,025947.00,,,,,,13,,,,,*7E
$GPLLQ,025947.00,010125,,M,,M,1,38,0.790,,M*19
$GPVTG,,T,,M,0.00,N,0.01,K,D*27
$GPHDT,,T*1B
$GPTHS,,V*0E
$GPROT,,V*08
$PSSN,HRP,025947.00,010125,,,,,,,00,0,,*6C
$PTNL,AVR,025947.00,,Yaw,,Tilt,,,,0,,00*3A
$GPGSA,A,3,02,03,04,06,07,09,11,17,19,26,31,,0.8,0.4,0.7*3C
$GPGSA,A,3,69,70,71,79,80,85,86,,,,,,0.8,0.4,0.7*32
$GPGSA,A,3,04,05,06,09,11,34,36,,,,,,0.8,0.4,0.7*35
$GPGSA,A,3,05,06,09,16,19,20,22,29,35,37,39,44,0.8,0.4,0.7*3D
$GPGSA,A,3,60,,,,,,,,,,,,0.8,0.4,0.7*3F
$GPGST,025947.00,1.094,0.400,0.317,356.793,0.400,0.317,0.604*59
$GPGBS,025947.00,2.170,1.906,3.486,31,0.0001,-0.680,1.031*72
$GPGRS,025947.00,1,0.4,0.3,0.2,-0.4,-0.2,-0.1,-0.3,0.3,0.1,0.3,-0.7,*47
$GPGRS,025947.00,1,0.0,-1.4,1.4,0.6,-0.9,2.7,-2.1,,,,,*49
$GPGRS,025947.00,1,-0.3,0.5,0.2,0.3,-0.1,-0.1,0.5,,,,,*42
$GPGRS,025947.00,1,3.3,1.1,0.9,0.6,-0.7,-1.1,0.4,-0.6,-0.2,0.5,-0.7,-0.3*4A
$GPGRS,025947.00,1,-1.5,,,,,,,,,,,*44
$GPGSV,6,1,22,04,85,058,49,11,11,319,39,02,10,163,41,17,13,234,42*73
$GPGSV,6,2,22,01,15,156,,19,22,260,43,07,13,183,41,31,24,047,43*7B
$GPGSV,6,3,22,06,45,302,46,03,51,095,47,09,63,242,50,28,04,031,36*74
$GPGSV,6,4,22,26,08,073,38,36,35,170,44,58,13,245,38,40,24,132,36*7D
$GPGSV,6,5,22,34,31,208,43,49,34,195,44,57,08,110,38,41,07,108,35*79
$GPGSV,6,6,22,61,03,257,37*49
$GLGSV,3,1,09,70,67,011,42,80,21,104,47,69,12,064,44,87,17,334,*60
$GLGSV,3,2,09,79,24,047,47,71,44,275,51,85,40,204,50,86,52,293,52*6B
$GLGSV,3,3,09,78,02,003,42*54
$GAGSV,3,1,11,09,77,061,49,11,20,157,37,18,16,258,,04,26,056,41*6B
$GAGSV,3,2,11,34,47,304,46,05,45,234,46,36,64,195,48,06,52,058,46*63
$GAGSV,3,3,11,23,05,061,,15,01,324,36,21,02,014,32*5B
$GBGSV,5,1,19,19,75,308,51,39,20,039,40,12,12,328,,37,26,071,44*6B
$GBGSV,5,2,19,29,13,194,41,58,15,119,,16,29,045,42,46,21,129,*64
$GBGSV,5,3,19,22,24,269,45,06,30,048,40,05,23,128,39,21,24,259,*6C
$GBGSV,5,4,19,44,26,307,44,09,41,060,43,35,39,252,47,20,46,071,50*66
$GBGSV,5,5,19,48,68,058,,02,07,106,34,60,08,110,40*53
$GPGGA,025947.00,,,,,0,00,,,M,,M,,*45
$PTNL,GGK,025947.00,010125,4742.1601930,N,01618.1004610,E,1,38,0.8,EHT751.1066,M*43
$GPGGQ,025947.00,010125,4742.1601930,N,01618.1004610,E,1,38,0.790,707.9000,M*30
$GPGFA,025947.00,3.802,4.949,0.400,0.317,356.793,0.604,,VVV*09
$GPLLK,025947.00,010125,,M,,M,1,38,0.9,,M*04
$GNGMP,025947.00,,,,,DAAA,38,0.4,,,,*54
$GPGMP,025947.00,,,,,,11,,,,3.1,136*76
$GLGMP,025947.00,,,,,,07,,,,,*75
$GAGMP,025947.00,,,,,,07,,,,,*78
$GBGMP,025947.00,,,,,,13,,,,,*7E
$PSSN,SNC,[0,270005000,2347]*44
$GPZDA,025952.00,01,01,2025,,*6A
$GPDTM,W84,,00.0000000,N,00.0000000,E,00.0000000,W84*5F
$PSSN,TFM,025952.00,,,,*66
$GPRMC,025952.00,A,4742.1601944,N,01618.1004622,E,0.0,,010125,5.1,E,D*13
$GPGLL,4742.1601944,N,01618.1004622,E,025952.00,A,D*62
$GPGGA,025952.00,4742.1601944,N,01618.1004622,E,2,38,0.4,707.8989,M,43.2066,M,3.0,0136*42
$GNGNS,025952.00,4742.1601944,N,01618.1004622,E,DAAA,38,0.4,707.8989,43.2066,,*59
$GPGNS,025952.00,,,,,,11,,,,3.0,136*73
$GLGNS,025952.00,,,,,,07,,,,,*71
$GAGNS,025952.00,,,,,,07,,,,,*7C
$GBGNS,025952.00,,,,,,13,,,,,*7A
$GPLLQ,025952.00,010125,,M,,M,1,38,0.798,,M*15
$GPVTG,,T,,M,0.00,N,0.00,K,D*26
$GPHDT,,T*1B
$GPTHS,,V*0E
$GPROT,,V*08
$PSSN,HRP,025952.00,010125,,,,,,,00,0,,*68
$PTNL,AVR,025952.00,,Yaw,,Tilt,,,,0,,00*3E
$GPGSA,A,3,02,03,04,06,07,09,11,17,19,26,31,,0.8,0.4,0.7*3C
$GPGSA,A,3,69,70,71,79,80,85,86,,,,,,0.8,0.4,0.7*32
$GPGSA,A,3,04,05,06,09,11,34,36,,,,,,0.8,0.4,0.7*35
$GPGSA,A,3,05,06,09,16,19,20,22,29,35,37,39,44,0.8,0.4,0.7*3D
$GPGSA,A,3,60,,,,,,,,,,,,0.8,0.4,0.7*3F
$GPGST,025952.00,1.061,0.403,0.319,355.211,0.402,0.319,0.611*5E
$GPGBS,025952.00,2.187,1.884,3.531,19,0.0001,0.791,0.852*52
$GPGRS,025952.00,1,-0.1,0.1,0.0,-0.1,-0.2,0.0,0.1,-0.3,0.8,0.8,-0.4,*41
$GPGRS,025952.00,1,-0.0,-0.8,1.0,1.1,-0.3,2.9,-2.3,,,,,*69
$GPGRS,025952.00,1,-0.5,0.3,-0.0,0.2,-0.4,-0.3,0.4,,,,,*6E
$GPGRS,025952.00,1,3.1,0.6,0.6,0.7,-0.7,-1.2,0.2,-0.5,-0.4,0.1,-0.8,-0.3*4F
$GPGRS,025952.00,1,-1.5,,,,,,,,,,,*40
$GPGSV,6,1,22,04,85,058,49,11,12,319,39,02,10,163,41,17,13,234,42*70
$GPGSV,6,2,22,01,15,156,,19,22,260,43,07,13,183,41,31,24,047,43*7B
$GPGSV,6,3,22,06,45,302,46,03,51,095,48,09,63,242,50,28,04,031,36*7B
$GPGSV,6,4,22,26,08,072,38,36,35,170,44,58,13,245,38,40,24,132,36*7C
$GPGSV,6,5,22,34,31,208,43,49,34,195,44,57,08,110,39,41,07,108,35*78
$GPGSV,6,6,22,61,03,257,38*46
$GLGSV,3,1,09,70,67,011,42,80,21,104,47,69,12,064,44,87,17,334,*60
$GLGSV,3,2,09,79,24,047,48,71,44,275,50,85,39,204,50,86,52,293,52*6B
$GLGSV,3,3,09,78,02,003,42*54
$GAGSV,3,1,11,09,77,061,48,11,20,157,37,18,16,258,,04,26,056,41*6A
$GAGSV,3,2,11,34,47,304,46,05,45,234,46,36,64,195,48,06,52,058,46*63
$GAGSV,3,3,11,23,05,061,,15,01,324,37,21,02,014,31*59
$GBGSV,5,1,19,19,75,308,51,39,20,039,40,12,12,327,,37,26,071,44*64
$GBGSV,5,2,19,29,13,194,41,58,15,119,,16,29,045,42,46,21,129,*64
$GBGSV,5,3,19,22,24,269,45,06,30,048,41,05,23,128,39,21,24,259,*6D
$GBGSV,5,4,19,44,26,307,44,09,41,060,43,35,39,252,47,20,46,071,49*6E
$GBGSV,5,5,19,48,68,058,,02,07,106,34,60,08,110,40*53
$GPGGA,025952.00,,,,,0,00,,,M,,M,,*41
$PTNL,GGK,025952.00,010125,4742.1601944,N,01618.1004622,E,1,38,0.8,EHT751.1054,M*44
$GPGGQ,025952.00,010125,4742.1601944,N,01618.1004622,E,1,38,0.798,707.8989,M*37
$GPGFA,025952.00,3.830,5.007,0.403,0.319,355.211,0.611,,VVV*0B
$GPLLK,025952.00,010125,,M,,M,1,38,0.9,,M*00
$GNGMP,025952.00,,,,,DAAA,38,0.4,,,,*50
$GPGMP,025952.00,,,,,,11,,,,3.0,136*73
$GLGMP,025952.00,,,,,,07,,,,,*71
$GAGMP,025952.00,,,,,,07,,,,,*7C
$GBGMP,025952.00,,,,,,13,,,,,*7A
$PSSN,SNC,[0,270010000,2347]*40
$GPZDA,025957.00,01,01,2025,,*6F
$GPDTM,W84,,00.0000000,N,00.0000000,E,00.0000000,W84*5F
$PSSN,TFM,025957.00,,,,*63
$GPRMC,025957.00,A,4742.1601947,N,01618.1004635,E,0.0,,010125,5.1,E,D*13
$GPGLL,4742.1601947,N,01618.1004635,E,025957.00,A,D*62
$GPGGA,025957.00,4742.1601947,N,01618.1004635,E,2,38,0.4,707.8993,M,43.2066,M,1.5,0136*4E
$GNGNS,025957.00,4742.1601947,N,01618.1004635,E,DAAA,38,0.4,707.8993,43.2066,,*52
$GPGNS,025957.00,,,,,,11,,,,1.5,136*71
$GLGNS,025957.00,,,,,,07,,,,,*74
$GAGNS,025957.00,,,,,,07,,,,,*79
$GBGNS,025957.00,,,,,,13,,,,,*7F
$GPLLQ,025957.00,010125,,M,,M,1,38,0.792,,M*1A
$GPVTG,,T,,M,0.00,N,0.01,K,D*27
$GPHDT,,T*1B
$GPTHS,,V*0E
$GPROT,,V*08
$PSSN,HRP,025957.00,010125,,,,,,,00,0,,*6D
$PTNL,AVR,025957.00,,Yaw,,Tilt,,,,0,,00*3B
$GPGSA,A,3,02,03,04,06,07,09,11,17,19,26,31,,0.8,0.4,0.7*3C
$GPGSA,A,3,69,70,71,79,80,85,86,,,,,,0.8,0.4,0.7*32
$GPGSA,A,3,04,05,06,09,11,34,36,,,,,,0.8,0.4,0.7*35
$GPGSA,A,3,05,06,09,16,19,20,22,29,35,37,39,44,0.8,0.4,0.7*3D
$GPGSA,A,3,60,,,,,,,,,,,,0.8,0.4,0.7*3F
$GPGST,025957.00,1.146,0.401,0.316,356.112,0.401,0.316,0.605*58
$GPGBS,025957.00,2.123,1.907,3.367,19,0.0001,0.576,0.864*58
$GPGRS,025957.00,1,-0.2,0.2,-0.0,-0.3,-0.4,0.0,0.1,-0.2,0.6,0.3,-0.5,*68
$GPGRS,025957.00,1,-0.9,-0.9,1.5,1.1,-0.8,3.0,-2.6,,,,,*67
$GPGRS,025957.00,1,-0.6,0.2,0.1,0.2,-0.4,-0.3,0.3,,,,,*42
$GPGRS,025957.00,1,3.2,0.6,0.8,0.7,-0.6,-1.4,0.1,-0.4,-0.3,0.0,-0.9,-0.3*45
$GPGRS,025957.00,1,-1.6,,,,,,,,,,,*46
$GPGSV,6,1,22,04,85,058,49,11,12,319,38,02,10,163,41,17,13,234,42*71
$GPGSV,6,2,22,01,15,156,,19,22,260,42,07,13,183,41,31,24,047,43*7A
$GPGSV,6,3,22,06,45,302,46,03,51,095,48,09,63,242,49,28,04,031,36*73
$GPGSV,6,4,22,26,08,072,39,36,35,170,44,58,13,245,38,40,24,132,36*7D
$GPGSV,6,5,22,34,31,208,43,49,34,195,44,57,08,110,38,41,07,108,34*78
$GPGSV,6,6,22,61,03,257,38*46
$GLGSV,3,1,09,70,67,011,42,80,21,104,46,69,12,064,43,87,17,334,*66
$GLGSV,3,2,09,79,24,047,48,71,44,275,50,85,39,204,51,86,52,293,52*6A
$GLGSV,3,3,09,78,02,003,42*54
$GAGSV,3,1,11,09,77,061,48,11,20,158,36,18,16,258,,04,26,056,41*64
$GAGSV,3,2,11,34,47,304,46,05,45,234,46,36,64,195,48,06,52,058,46*63
$GAGSV,3,3,11,23,05,060,,15,01,324,35,21,02,014,31*5A
$GBGSV,5,1,19,19,75,308,51,39,20,039,40,12,12,327,,37,26,071,45*65
$GBGSV,5,2,19,29,13,194,41,58,15,119,,16,29,045,42,46,21,129,*64
$GBGSV,5,3,19,22,24,269,45,06,30,048,41,05,23,128,39,21,24,259,*6D
$GBGSV,5,4,19,44,26,307,44,09,41,060,43,35,39,252,47,20,46,071,49*6E
$GBGSV,5,5,19,48,68,058,,02,07,106,35,60,08,110,40*52
$GPGGA,025957.00,,,,,0,00,,,M,,M,,*44
$PTNL,GGK,025957.00,010125,4742.1601947,N,01618.1004635,E,1,38,0.8,EHT751.1058,M*48
$GPGGQ,025957.00,010125,4742.1601947,N,01618.1004635,E,1,38,0.792,707.8993,M*36
$GPGFA,025957.00,3.814,4.963,0.401,0.316,356.112,0.605,,VVV*09
$GPLLK,025957.00,010125,,M,,M,1,38,0.9,,M*05
$GNGMP,025957.00,,,,,DAAA,38,0.4,,,,*55
$GPGMP,025957.00,,,,,,11,,,,1.5,136*71
$GLGMP,025957.00,,,,,,07,,,,,*74
$GAGMP,025957.00,,,,,,07,,,,,*79
$GBGMP,025957.00,,,,,,13,,,,,*7F
$PSSN,SNC,[0,270015000,2347]*45
$GPZDA,030002.00,01,01,2025,,*62
$GPDTM,W84,,00.0000000,N,00.0000000,E,00.0000000,W84*5F
$PSSN,TFM,030002.00,,,,*6E
$GPRMC,030002.00,A,4742.1601958,N,01618.1004636,E,0.0,,010125,5.1,E,D*13
$GPGLL,4742.1601958,N,01618.1004636,E,030002.00,A,D*62
$GPGGA,030002.00,4742.1601958,N,01618.1004636,E,2,38,0.4,707.8961,M,43.2066,M,2.5,0136*40
$GNGNS,030002.00,4742.1601958,N,01618.1004636,E,DAAA,38,0.4,707.8961,43.2066,,*5F
$GPGNS,030002.00,,,,,,11,,,,2.5,136*7F
$GLGNS,030002.00,,,,,,07,,,,,*79
$GAGNS,030002.00,,,,,,07,,,,,*74
$GBGNS,030002.00,,,,,,13,,,,,*72
$GPLLQ,030002.00,010125,,M,,M,1,38,0.781,,M*15
$GPVTG,,T,,M,0.00,N,0.01,K,D*27
$GPHDT,,T*1B
$GPTHS,,V*0E
$GPROT,,V*08
$PSSN,HRP,030002.00,010125,,,,,,,00,0,,*60
$PTNL,AVR,030002.00,,Yaw,,Tilt,,,,0,,00*36
$GPGSA,A,3,02,03,04,06,07,09,11,17,19,26,31,,0.8,0.4,0.7*3C
$GPGSA,A,3,69,70,71,79,80,85,86,,,,,,0.8,0.4,0.7*32
$GPGSA,A,3,04,05,06,09,11,34,36,,,,,,0.8,0.4,0.7*35
$GPGSA,A,3,05,06,09,16,19,20,22,29,35,37,39,44,0.8,0.4,0.7*3D
$GPGSA,A,3,60,,,,,,,,,,,,0.8,0.4,0.7*3F
$GPGST,030002.00,1.157,0.397,0.313,357.731,0.397,0.313,0.595*59
$GPGBS,030002.00,2.140,1.922,3.413,31,0.0001,-0.646,1.065*7C
$GPGRS,030002.00,1,0.1,0.2,-0.1,-0.2,-0.3,0.1,-0.3,0.2,0.2,0.8,-0.6,*43
$GPGRS,030002.00,1,-1.9,-0.7,1.4,1.4,-1.1,2.6,-2.6,,,,,*6E
$GPGRS,030002.00,1,-0.6,0.3,0.4,0.4,-0.5,-0.1,0.2,,,,,*4F
$GPGRS,030002.00,1,2.8,0.5,0.9,0.8,-0.6,-1.2,0.1,-0.5,-0.2,-0.1,-1.3,-0.3*6F
$GPGRS,030002.00,1,-1.6,,,,,,,,,,,*4B
$GPGSV,6,1,22,04,85,058,49,11,12,319,39,02,10,163,41,17,13,234,41*73
$GPGSV,6,2,22,01,14,156,,19,22,260,43,07,13,183,41,31,24,047,43*7A
$GPGSV,6,3,22,06,45,302,46,03,51,095,47,09,63,242,49,28,04,031,35*7F
$GPGSV,6,4,22,26,08,072,39,36,35,170,44,58,13,245,38,40,24,132,36*7D
$GPGSV,6,5,22,34,31,208,43,49,34,195,44,57,08,110,39,41,07,108,34*79
$GPGSV,6,6,22,61,03,257,38*46
$GLGSV,3,1,10,70,67,011,42,80,21,104,46,69,12,064,42,87,17,334,*6F
$GLGSV,3,2,10,79,24,047,48,71,44,275,51,85,39,204,50,86,52,293,51*61
$GLGSV,3,3,10,78,02,003,42,72,00,257,*69
$GAGSV,3,1,11,09,77,061,48,11,20,158,36,18,16,258,,04,26,056,41*64
$GAGSV,3,2,11,34,47,304,46,05,45,234,45,36,64,195,48,06,52,058,46*60
$GAGSV,3,3,11,23,05,060,,15,01,324,34,21,02,014,30*5A
$GBGSV,5,1,19,19,75,308,51,39,20,039,40,12,12,327,,37,26,071,45*65
$GBGSV,5,2,19,29,13,194,42,58,15,119,,16,29,045,42,46,21,129,*67
$GBGSV,5,3,19,22,24,269,45,06,30,048,41,05,23,128,39,21,24,259,*6D
$GBGSV,5,4,19,44,26,307,44,09,41,060,43,35,39,252,47,20,46,071,49*6E
$GBGSV,5,5,19,48,68,058,,02,07,106,34,60,08,110,40*53
$GPGGA,030002.00,,,,,0,00,,,M,,M,,*49
$PTNL,GGK,030002.00,010125,4742.1601958,N,01618.1004636,E,1,38,0.8,EHT751.1026,M*41
$GPGGQ,030002.00,010125,4742.1601958,N,01618.1004636,E,1,38,0.781,707.8961,M*39
$GPGFA,030002.00,3.774,4.881,0.397,0.313,357.731,0.595,,VVV*01
$GPLLK,030002.00,010125,,M,,M,1,38,0.9,,M*08
$GNGMP,030002.00,,,,,DAAA,38,0.4,,,,*58
$GPGMP,030002.00,,,,,,11,,,,2.5,136*7F
$GLGMP,030002.00,,,,,,07,,,,,*79
$GAGMP,030002.00,,,,,,07,,,,,*74
$GBGMP,030002.00,,,,,,13,,,,,*72
$PSSN,SNC,[0,270020000,2347]*43
$GPZDA,030007.00,01,01,2025,,*67
$GPDTM,W84,,00.0000000,N,00.0000000,E,00.0000000,W84*5F
$PSSN,TFM,030007.00,,,,*6B
$GPRMC,030007.00,A,4742.1601978,N,01618.1004670,E,0.0,,010125,5.1,E,D*16
$GPGLL,4742.1601978,N,01618.1004670,E,030007.00,A,D*67
$GPGGA,030007.00,4742.1601978,N,01618.1004670,E,2,38,0.4,707.8937,M,43.2066,M,3.1,0136*43
$GNGNS,030007.00,4742.1601978,N,01618.1004670,E,DAAA,38,0.4,707.8937,43.2066,,*59
$GPGNS,030007.00,,,,,,11,,,,3.1,136*7F
$GLGNS,030007.00,,,,,,07,,,,,*7C
$GAGNS,030007.00,,,,,,07,,,,,*71
$GBGNS,030007.00,,,,,,13,,,,,*77
$GPLLQ,030007.00,010125,,M,,M,1,38,0.790,,M*10
$GPVTG,,T,,M,0.00,N,0.00,K,D*26
$GPHDT,,T*1B
$GPTHS,,V*0E
$GPROT,,V*08
$PSSN,HRP,030007.00,010125,,,,,,,00,0,,*65
$PTNL,AVR,030007.00,,Yaw,,Tilt,,,,0,,00*33
$GPGSA,A,3,02,03,04,06,07,09,11,17,19,26,31,,0.8,0.4,0.7*3C
$GPGSA,A,3,69,70,71,79,80,85,86,,,,,,0.8,0.4,0.7*32
$GPGSA,A,3,04,05,06,09,11,34,36,,,,,,0.8,0.4,0.7*35
$GPGSA,A,3,05,06,09,16,19,20,22,29,35,37,39,44,0.8,0.4,0.7*3D
$GPGSA,A,3,60,,,,,,,,,,,,0.8,0.4,0.7*3F
$GPGST,030007.00,1.125,0.400,0.317,356.849,0.400,0.317,0.604*53
$GPGBS,030007.00,2.174,1.912,3.476,19,0.0001,0.729,0.890*52
$GPGRS,030007.00,1,-0.1,-0.1,0.2,-0.2,-0.5,-0.0,0.0,0.4,0.7,0.9,-0.6,*6D
$GPGRS,030007.00,1,-1.1,-1.4,1.9,1.1,-1.1,2.4,-2.7,,,,,*6A
$GPGRS,030007.00,1,-0.6,0.1,0.1,0.3,-0.6,-0.4,0.2,,,,,*4C
$GPGRS,030007.00,1,2.6,1.0,0.9,0.6,-0.7,-1.1,-0.1,-0.5,-0.4,-0.1,-1.1,0.0*6B
$GPGRS,030007.00,1,-1.3,,,,,,,,,,,*4B
$GPGSV,6,1,22,04,85,058,49,11,12,319,39,07,13,183,41,19,22,260,43*74
$GPGSV,6,2,22,01,14,156,,17,13,234,39,31,24,047,42,06,45,302,46*75
$GPGSV,6,3,22,03,51,095,48,09,63,243,50,26,08,072,38,28,04,031,36*7C
$GPGSV,6,4,22,02,10,163,41,36,35,170,45,58,13,245,38,40,24,132,36*7D
$GPGSV,6,5,22,34,31,208,43,49,34,195,44,57,08,110,39,41,07,108,35*78
$GPGSV,6,6,22,61,03,257,38*46
$GLGSV,3,1,10,70,67,011,42,80,21,104,47,69,12,064,43,87,17,334,*6F
$GLGSV,3,2,10,79,24,047,47,71,44,275,51,85,39,204,50,86,52,293,52*6D
$GLGSV,3,3,10,78,02,003,42,72,00,257,*69
$GAGSV,3,1,11,09,77,060,48,11,20,158,36,18,16,258,,04,26,056,41*65
$GAGSV,3,2,11,34,47,304,46,05,45,234,45,36,64,195,48,06,52,058,46*60
$GAGSV,3,3,11,23,05,060,,15,01,324,37,21,02,014,29*51
$GBGSV,5,1,19,19,75,309,51,39,20,039,41,12,12,327,,37,26,071,44*64
$GBGSV,5,2,19,29,13,194,42,58,15,119,,16,29,045,43,46,21,129,*66
$GBGSV,5,3,19,22,24,269,44,06,30,048,41,05,23,128,39,21,24,259,*6C
$GBGSV,5,4,19,44,26,307,44,09,41,060,43,35,39,252,47,20,46,071,49*6E
$GBGSV,5,5,19,48,68,059,,02,07,106,35,60,08,110,40*53
$GPGGA,030007.00,,,,,0,00,,,M,,M,,*4C
$PTNL,GGK,030007.00,010125,4742.1601978,N,01618.1004670,E,1,38,0.8,EHT751.1002,M*42
$GPGGQ,030007.00,010125,4742.1601978,N,01618.1004670,E,1,38,0.790,707.8937,M*3F
$GPGFA,030007.00,3.805,4.949,0.400,0.317,356.849,0.604,,VVV*0F
$GPLLK,030007.00,010125,,M,,M,1,38,0.9,,M*0D
$GNGMP,030007.00,,,,,DAAA,38,0.4,,,,*5D
$GPGMP,030007.00,,,,,,11,,,,3.1,136*7F
$GLGMP,030007.00,,,,,,07,,,,,*7C
$GAGMP,030007.00,,,,,,07,,,,,*71
$GBGMP,030007.00,,,,,,13,,,,,*77
$PSSN,SNC,[0,270025000,2347]*46
$GPZDA,030012.00,01,01,2025,,*63
$GPDTM,W84,,00.0000000,N,00.0000000,E,00.0000000,W84*5F
$PSSN,TFM,030012.00,,,,*6F
$GPRMC,030012.00,A,4742.1601993,N,01618.1004675,E,0.0,,010125,5.1,E,D*12
$GPGLL,4742.1601993,N,01618.1004675,E,030012.00,A,D*63
$GPGGA,030012.00,4742.1601993,N,01618.1004675,E,2,38,0.4,707.8926,M,43.2066,M,3.0,0136*46
$GNGNS,030012.00,4742.1601993,N,01618.1004675,E,DAAA,38,0.4,707.8926,43.2066,,*5D
$GPGNS,030012.00,,,,,,11,,,,3.0,136*7A
$GLGNS,030012.00,,,,,,07,,,,,*78
$GAGNS,030012.00,,,,,,07,,,,,*75
$GBGNS,030012.00,,,,,,13,,,,,*73
$GPLLQ,030012.00,010125,,M,,M,1,38,0.798,,M*1C
$GPVTG,,T,,M,0.00,N,0.00,K,D*26
$GPHDT,,T*1B
$GPTHS,,V*0E
$GPROT,,V*08
$PSSN,HRP,030012.00,010125,,,,,,,00,0,,*61
$PTNL,AVR,030012.00,,Yaw,,Tilt,,,,0,,00*37
$GPGSA,A,3,02,03,04,06,07,09,11,17,19,26,31,,0.8,0.4,0.7*3C
$GPGSA,A,3,69,70,71,79,80,85,86,,,,,,0.8,0.4,0.7*32
$GPGSA,A,3,04,05,06,09,11,34,36,,,,,,0.8,0.4,0.7*35
$GPGSA,A,3,05,06,09,16,19,20,22,29,35,37,39,44,0.8,0.4,0.7*3D
$GPGSA,A,3,60,,,,,,,,,,,,0.8,0.4,0.7*3F
$GPGST,030012.00,1.264,0.403,0.319,355.258,0.403,0.319,0.611*5C
$GPGBS,030012.00,2.190,1.889,3.519,85,0.0001,3.730,6.073*5A
$GPGRS,030012.00,1,-0.1,0.1,0.1,-0.4,-0.3,0.2,0.1,0.5,0.1,0.5,-0.3,*67
$GPGRS,030012.00,1,-1.9,-1.6,2.1,0.6,-1.5,3.7,-2.0,,,,,*68
$GPGRS,030012.00,1,-0.7,0.2,0.1,0.2,-0.4,-0.2,0.3,,,,,*4E
$GPGRS,030012.00,1,3.0,1.3,0.6,0.2,-0.6,-1.3,0.2,-0.4,-0.1,-0.4,-1.1,0.1*4D
$GPGRS,030012.00,1,-1.5,,,,,,,,,,,*49
$GPGSV,6,1,22,04,85,058,49,11,12,319,39,07,13,183,40,19,22,260,44*72
$GPGSV,6,2,22,01,14,156,,17,13,234,40,31,24,047,43,06,45,302,46*7A
$GPGSV,6,3,22,03,51,095,48,09,63,243,50,26,08,072,38,28,04,031,35*7F
$GPGSV,6,4,22,02,10,163,41,36,35,170,45,58,13,245,38,40,24,132,36*7D
$GPGSV,6,5,22,34,31,208,43,49,34,195,45,57,08,110,39,41,07,108,35*79
$GPGSV,6,6,22,61,03,257,38*46
$GLGSV,3,1,10,70,67,011,42,80,22,104,46,69,12,064,43,87,17,334,*6D
$GLGSV,3,2,10,79,24,047,47,71,44,275,50,85,39,204,50,86,52,293,51*6F
$GLGSV,3,3,10,78,02,003,42,72,00,257,*69
$GAGSV,3,1,11,09,77,060,48,11,20,158,36,18,16,258,,04,26,056,40*64
$GAGSV,3,2,11,34,47,304,46,05,45,234,46,36,64,195,48,06,52,058,46*63
$GAGSV,3,3,11,23,05,060,,15,01,324,35,21,02,014,30*5B
$GBGSV,5,1,19,19,75,309,51,39,20,039,41,12,12,327,,37,26,071,44*64
$GBGSV,5,2,19,29,13,194,42,58,15,119,,16,29,045,43,46,21,129,*66
$GBGSV,5,3,19,22,24,269,45,06,30,048,41,05,23,128,39,21,24,259,*6D
$GBGSV,5,4,19,44,26,307,44,09,41,060,43,35,39,252,47,20,46,071,50*66
$GBGSV,5,5,19,48,68,059,,02,07,106,35,60,08,110,40*53
$GPGGA,030012.00,,,,,0,00,,,M,,M,,*48
$PTNL,GGK,030012.00,010125,4742.1601993,N,01618.1004675,E,1,38,0.8,EHT751.0992,M*47
$GPGGQ,030012.00,010125,4742.1601993,N,01618.1004675,E,1,38,0.798,707.8926,M*33
$GPGFA,030012.00,3.832,5.006,0.403,0.319,355.258,0.611,,VVV*0C
$GPLLK,030012.00,010125,,M,,M,1,38,0.9,,M*09
$GNGMP,030012.00,,,,,DAAA,38,0.4,,,,*59
$GPGMP,030012.00,,,,,,11,,,,3.0,136*7A
$GLGMP,030012.00,,,,,,07,,,,,*78
$GAGMP,030012.00,,,,,,07,,,,,*75
$GBGMP,030012.00,,,,,,13,,,,,*73
$PSSN,SNC,[0,270030000,2347]*42
$GPZDA,030017.00,01,01,2025,,*66
$GPDTM,W84,,00.0000000,N,00.0000000,E,00.0000000,W84*5F
$PSSN,TFM,030017.00,,,,*6A
$GPRMC,030017.00,A,4742.1601998,N,01618.1004678,E,0.0,,010125,5.1,E,D*11
$GPGLL,4742.1601998,N,01618.1004678,E,030017.00,A,D*60
$GPGGA,030017.00,4742.1601998,N,01618.1004678,E,2,38,0.4,707.8924,M,43.2066,M,1.5,0136*40
$GNGNS,030017.00,4742.1601998,N,01618.1004678,E,DAAA,38,0.4,707.8924,43.2066,,*5C
$GPGNS,030017.00,,,,,,11,,,,1.5,136*78
$GLGNS,030017.00,,,,,,07,,,,,*7D
$GAGNS,030017.00,,,,,,07,,,,,*70
$GBGNS,030017.00,,,,,,13,,,,,*76
$GPLLQ,030017.00,010125,,M,,M,1,38,0.792,,M*13
$GPVTG,,T,,M,0.00,N,0.00,K,D*26
$GPHDT,,T*1B
$GPTHS,,V*0E
$GPROT,,V*08
$PSSN,HRP,030017.00,010125,,,,,,,00,0,,*64
$PTNL,AVR,030017.00,,Yaw,,Tilt,,,,0,,00*32
$GPGSA,A,3,02,03,04,06,07,09,11,17,19,26,31,,0.8,0.4,0.7*3C
$GPGSA,A,3,69,70,71,79,80,85,86,,,,,,0.8,0.4,0.7*32
$GPGSA,A,3,04,05,06,09,11,34,36,,,,,,0.8,0.4,0.7*35
$GPGSA,A,3,05,06,09,16,19,20,22,29,35,37,39,44,0.8,0.4,0.7*3D
$GPGSA,A,3,60,,,,,,,,,,,,0.8,0.4,0.7*3F
$GPGST,030017.00,1.294,0.401,0.316,356.174,0.401,0.316,0.605*5D
$GPGBS,030017.00,2.125,1.912,3.356,17,0.0001,0.815,1.013*5E
$GPGRS,030017.00,1,-0.4,0.2,-0.1,-0.3,-0.5,0.2,-0.0,0.8,-0.1,0.4,0.0,*6B
$GPGRS,030017.00,1,-2.1,-2.3,1.5,1.3,-1.9,3.5,-2.1,,,,,*6C
$GPGRS,030017.00,1,-0.4,0.4,0.1,0.3,-0.6,-0.4,0.2,,,,,*4A
$GPGRS,030017.00,1,2.9,1.1,0.8,0.5,-0.7,0.5,0.3,-0.1,-0.3,-0.2,-1.2,-0.6*49
$GPGRS,030017.00,1,-1.6,,,,,,,,,,,*4F
$GPGSV,6,1,22,04,85,057,49,11,12,319,40,07,13,183,40,19,22,260,44*73
$GPGSV,6,2,22,01,14,156,,17,13,234,40,31,24,047,43,06,45,302,47*7B
$GPGSV,6,3,22,03,51,096,48,09,63,243,50,26,08,072,38,28,04,031,36*7F
$GPGSV,6,4,22,02,10,163,41,36,35,170,45,58,13,245,38,40,24,132,35*7E
$GPGSV,6,5,22,34,31,208,43,49,34,195,45,57,08,110,38,41,07,108,35*78
$GPGSV,6,6,22,61,03,257,37*49
$GLGSV,3,1,10,70,67,011,42,80,22,104,47,69,12,064,43,87,17,334,*6C
$GLGSV,3,2,10,79,24,047,47,71,44,275,51,85,39,204,50,86,52,293,52*6D
$GLGSV,3,3,10,78,02,002,41,72,00,257,*6B
$GAGSV,3,1,11,09,77,060,48,11,20,158,36,18,16,258,,04,25,056,40*67
$GAGSV,3,2,11,34,47,304,46,05,45,234,46,36,64,195,48,06,51,058,46*60
$GAGSV,3,3,11,23,05,060,,15,01,324,35,21,02,014,30*5B
$GBGSV,5,1,19,19,75,309,51,39,20,039,41,12,12,327,,37,26,071,44*64
$GBGSV,5,2,19,29,13,194,42,58,15,119,,16,29,045,43,46,21,129,*66
$GBGSV,5,3,19,22,24,269,45,06,30,048,41,05,23,128,39,21,24,259,*6D
$GBGSV,5,4,19,44,26,307,44,09,41,060,43,35,39,252,47,20,46,071,50*66
$GBGSV,5,5,19,48,68,059,,02,07,106,35,60,08,110,40*53
$GPGGA,030017.00,,,,,0,00,,,M,,M,,*4D
$PTNL,GGK,030017.00,010125,4742.1601998,N,01618.1004678,E,1,38,0.8,EHT751.0990,M*46
$GPGGQ,030017.00,010125,4742.1601998,N,01618.1004678,E,1,38,0.792,707.8924,M*38
$GPGFA,030017.00,3.816,4.962,0.401,0.316,356.174,0.605,,VVV*03
$GPLLK,030017.00,010125,,M,,M,1,38,0.9,,M*0C
$GNGMP,030017.00,,,,,DAAA,38,0.4,,,,*5C
$GPGMP,030017.00,,,,,,11,,,,1.5,136*78
$GLGMP,030017.00,,,,,,07,,,,,*7D
$GAGMP,030017.00,,,,,,07,,,,,*70
$GBGMP,030017.00,,,,,,13,,,,,*76
$PSSN,SNC,[0,270035000,2347]*47
$GPZDA,030022.00,01,01,2025,,*60
$GPDTM,W84,,00.0000000,N,00.0000000,E,00.0000000,W84*5F
$PSSN,TFM,030022.00,,,,*6C
$GPRMC,030022.00,A,4742.1601998,N,01618.1004695,E,0.0,,010125,5.1,E,D*14
$GPGLL,4742.1601998,N,01618.1004695,E,030022.00,A,D*65
$GPGGA,030022.00,4742.1601998,N,01618.1004695,E,2,38,0.4,707.8862,M,43.2066,M,2.5,0136*45
$GNGNS,030022.00,4742.1601998,N,01618.1004695,E,DAAA,38,0.4,707.8862,43.2066,,*5A
$GPGNS,030022.00,,,,,,11,,,,2.5,136*7D
$GLGNS,030022.00,,,,,,07,,,,,*7B
$GAGNS,030022.00,,,,,,07,,,,,*76
$GBGNS,030022.00,,,,,,13,,,,,*70
$GPLLQ,030022.00,010125,,M,,M,1,38,0.781,,M*17
$GPVTG,,T,,M,0.00,N,0.00,K,D*26
$GPHDT,,T*1B
$GPTHS,,V*0E
$GPROT,,V*08
$PSSN,HRP,030022.00,010125,,,,,,,00,0,,*62
$PTNL,AVR,030022.00,,Yaw,,Tilt,,,,0,,00*34
$GPGSA,A,3,02,03,04,06,07,09,11,17,19,26,31,,0.8,0.4,0.7*3C
$GPGSA,A,3,69,70,71,79,80,85,86,,,,,,0.8,0.4,0.7*32
$GPGSA,A,3,04,05,06,09,11,34,36,,,,,,0.8,0.4,0.7*35
$GPGSA,A,3,05,06,09,16,19,20,22,29,35,37,39,44,0.8,0.4,0.7*3D
$GPGSA,A,3,60,,,,,,,,,,,,0.8,0.4,0.7*3F
$GPGST,030022.00,1.273,0.397,0.313,357.799,0.397,0.313,0.595*5C
$GPGBS,030022.00,2.144,1.926,3.401,85,0.0001,3.847,6.073*53
$GPGRS,030022.00,1,-0.4,0.2,-0.0,-0.2,-0.3,0.2,0.1,0.4,-0.0,0.4,-0.4,*63
$GPGRS,030022.00,1,-2.1,-1.9,1.9,1.4,-1.5,3.8,-1.7,,,,,*6C
$GPGRS,030022.00,1,-0.5,0.1,0.2,0.2,-0.5,-0.2,0.1,,,,,*4C
$GPGRS,030022.00,1,2.6,1.1,0.9,0.2,-0.9,0.6,0.0,-0.5,-0.3,-0.3,-1.5,-0.3*4F
$GPGRS,030022.00,1,-1.5,,,,,,,,,,,*4A
$GPGSV,6,1,22,04,85,057,49,11,12,319,40,07,13,183,40,19,22,260,43*74
$GPGSV,6,2,22,01,14,156,,17,13,234,41,31,24,047,43,06,45,302,46*7B
$GPGSV,6,3,22,03,51,096,48,09,63,243,50,26,08,072,37,28,04,031,36*70
$GPGSV,6,4,22,02,10,163,41,36,35,170,44,58,13,245,38,40,24,132,36*7C
$GPGSV,6,5,22,34,31,208,43,49,34,195,44,57,08,110,38,41,07,108,34*78
$GPGSV,6,6,22,61,03,257,38*46
$GLGSV,3,1,10,70,67,012,42,80,22,104,47,69,12,064,43,87,17,334,*6F
$GLGSV,3,2,10,79,24,047,47,71,44,275,50,85,39,204,50,86,52,293,52*6C
$GLGSV,3,3,10,78,02,002,40,72,00,257,*6A
$GAGSV,3,1,11,09,77,060,48,11,20,158,36,18,16,258,,04,25,056,40*67
$GAGSV,3,2,11,34,47,304,46,05,45,234,46,36,64,195,48,06,51,058,46*60
$GAGSV,3,3,11,23,05,060,,15,01,324,37,21,02,014,29*51
$GBGSV,5,1,19,19,75,309,51,39,20,039,41,12,12,327,,37,26,071,44*64
$GBGSV,5,2,19,29,13,194,42,58,15,119,,16,29,045,43,46,21,129,*66
$GBGSV,5,3,19,22,24,269,45,06,30,048,41,05,23,128,39,21,24,259,*6D
$GBGSV,5,4,19,44,26,307,44,09,41,060,43,35,39,252,47,20,46,071,50*66
$GBGSV,5,5,19,48,68,059,,02,07,106,35,60,08,110,40*53
$GPGGA,030022.00,,,,,0,00,,,M,,M,,*4B
$PTNL,GGK,030022.00,010125,4742.1601998,N,01618.1004695,E,1,38,0.8,EHT751.0928,M*40
$GPGGQ,030022.00,010125,4742.1601998,N,01618.1004695,E,1,38,0.781,707.8862,M*3C
$GPGFA,030022.00,3.774,4.879,0.397,0.313,357.799,0.595,,VVV*06
$GPLLK,030022.00,010125,,M,,M,1,38,0.9,,M*0A
$GNGMP,030022.00,,,,,DAAA,38,0.4,,,,*5A
$GPGMP,030022.00,,,,,,11,,,,2.5,136*7D
$GLGMP,030022.00,,,,,,07,,,,,*7B
$GAGMP,030022.00,,,,,,07,,,,,*76
$GBGMP,030022.00,,,,,,13,,,,,*70
$PSSN,SNC,[0,270040000,2347]*45
$GPZDA,030027.00,01,01,2025,,*65
$GPDTM,W84,,00.0000000,N,00.0000000,E,00.0000000,W84*5F
$PSSN,TFM,030027.00,,,,*69
$GPRMC,030027.00,A,4742.1602010,N,01618.1004697,E,0.0,,010125,5.1,E,D*19
$GPGLL,4742.1602010,N,01618.1004697,E,030027.00,A,D*68
$GPGGA,030027.00,4742.1602010,N,01618.1004697,E,2,38,0.4,707.8873,M,43.2066,M,3.1,0136*4D
$GNGNS,030027.00,4742.1602010,N,01618.1004697,E,DAAA,38,0.4,707.8873,43.2066,,*57
$GPGNS,030027.00,,,,,,11,,,,3.1,136*7D
$GLGNS,030027.00,,,,,,07,,,,,*7E
$GAGNS,030027.00,,,,,,07,,,,,*73
$GBGNS,030027.00,,,,,,13,,,,,*75
$GPLLQ,030027.00,010125,,M,,M,1,38,0.790,,M*12
$GPVTG,,T,,M,0.00,N,0.00,K,D*26
$GPHDT,,T*1B
$GPTHS,,V*0E
$GPROT,,V*08
$PSSN,HRP,030027.00,010125,,,,,,,00,0,,*67
$PTNL,AVR,030027.00,,Yaw,,Tilt,,,,0,,00*31
$GPGSA,A,3,02,03,04,06,07,09,11,17,19,26,31,,0.8,0.4,0.7*3C
$GPGSA,A,3,69,70,71,79,80,85,86,,,,,,0.8,0.4,0.7*32
$GPGSA,A,3,04,05,06,09,11,34,36,,,,,,0.8,0.4,0.7*35
$GPGSA,A,3,05,06,09,16,19,20,22,29,35,37,39,44,0.8,0.4,0.7*3D
$GPGSA,A,3,60,,,,,,,,,,,,0.8,0.4,0.7*3F
$GPGST,030027.00,1.235,0.400,0.317,356.883,0.400,0.317,0.603*52
$GPGBS,030027.00,2.177,1.916,3.463,85,0.0001,3.830,6.073*51
$GPGRS,030027.00,1,-0.2,0.3,-0.1,-0.1,-0.3,0.1,0.1,0.3,-0.3,-0.5,-0.5,*49
$GPGRS,030027.00,1,-1.6,-1.8,1.9,1.1,-1.1,3.8,-2.1,,,,,*68
$GPGRS,030027.00,1,-0.5,0.5,-0.0,0.4,-0.3,-0.2,0.5,,,,,*66
$GPGRS,030027.00,1,3.0,1.2,0.4,-0.1,-0.8,0.6,-0.3,-0.2,-0.3,-0.2,-1.3,0.2*6E
$GPGRS,030027.00,1,-1.1,,,,,,,,,,,*4B
$GPGSV,6,1,22,04,85,057,49,11,12,319,40,07,13,183,41,19,22,260,43*75
$GPGSV,6,2,22,01,14,156,,17,13,234,42,31,24,047,43,06,45,302,47*79
$GPGSV,6,3,22,03,51,096,48,09,63,243,50,26,08,072,37,28,04,031,37*71
$GPGSV,6,4,22,02,10,163,41,36,35,170,44,58,13,245,38,40,24,132,35*7F
$GPGSV,6,5,22,34,31,208,43,49,34,195,44,57,08,110,38,41,07,108,34*78
$GPGSV,6,6,22,61,03,257,37*49
$GLGSV,3,1,10,70,67,012,42,80,22,104,47,69,12,064,43,87,17,334,*6F
$GLGSV,3,2,10,79,24,047,48,71,44,275,50,85,39,204,50,86,52,293,52*63
$GLGSV,3,3,10,78,02,002,41,72,00,257,*6B
$GAGSV,3,1,11,09,77,060,48,11,20,158,36,18,16,258,,04,25,056,41*66
$GAGSV,3,2,11,34,47,304,46,05,45,234,46,36,64,195,48,06,51,058,46*60
$GAGSV,3,3,11,23,05,060,,15,01,324,36,21,02,014,30*58
$GBGSV,5,1,19,19,75,309,51,39,20,039,41,12,12,327,,37,26,071,44*64
$GBGSV,5,2,19,29,13,194,41,58,15,119,,16,29,045,43,46,21,129,*65
$GBGSV,5,3,19,22,24,269,45,06,30,048,41,05,23,128,39,21,24,259,*6D
$GBGSV,5,4,19,44,26,307,44,09,41,060,43,35,39,252,47,20,46,071,50*66
$GBGSV,5,5,19,48,68,059,,02,07,106,35,60,08,110,40*53
$GPGGA,030027.00,,,,,0,00,,,M,,M,,*4E
$PTNL,GGK,030027.00,010125,4742.1602010,N,01618.1004697,E,1,38,0.8,EHT751.0938,M*4C
$GPGGQ,030027.00,010125,4742.1602010,N,01618.1004697,E,1,38,0.790,707.8873,M*31
$GPGFA,030027.00,3.805,4.947,0.400,0.317,356.883,0.603,,VVV*02
$GPLLK,030027.00,010125,,M,,M,1,38,0.9,,M*0F
$GNGMP,030027.00,,,,,DAAA,38,0.4,,,,*5F
$GPGMP,030027.00,,,,,,11,,,,3.1,136*7D
$GLGMP,030027.00,,,,,,07,,,,,*7E
$GAGMP,030027.00,,,,,,07,,,,,*73
$GBGMP,030027.00,,,,,,13,,,,,*75
$PSSN,SNC,[0,270045000,2347]*40
$GPZDA,030032.00,01,01,2025,,*61
$GPDTM,W84,,00.0000000,N,00.0000000,E,00.0000000,W84*5F
$PSSN,TFM,030032.00,,,,*6D
$GPRMC,030032.00,A,4742.1602022,N,01618.1004705,E,0.0,,010125,5.1,E,D*16
$GPGLL,4742.1602022,N,01618.1004705,E,030032.00,A,D*67
$GPGGA,030032.00,4742.1602022,N,01618.1004705,E,2,38,0.4,707.8814,M,43.2066,M,3.0,0136*42
$GNGNS,030032.00,4742.1602022,N,01618.1004705,E,DAAA,38,0.4,707.8814,43.2066,,*59
$GPGNS,030032.00,,,,,,11,,,,3.0,136*78
$GLGNS,030032.00,,,,,,07,,,,,*7A
$GAGNS,030032.00,,,,,,07,,,,,*77
$GBGNS,030032.00,,,,,,13,,,,,*71
$GPLLQ,030032.00,010125,,M,,M,1,38,0.798,,M*1E
$GPVTG,,T,,M,0.00,N,0.01,K,D*27
$GPHDT,,T*1B
$GPTHS,,V*0E
$GPROT,,V*08
$PSSN,HRP,030032.00,010125,,,,,,,00,0,,*63
$PTNL,AVR,030032.00,,Yaw,,Tilt,,,,0,,00*35
$GPGSA,A,3,02,03,04,06,07,09,11,17,19,26,31,,0.8,0.4,0.7*3C
$GPGSA,A,3,69,70,71,79,80,85,86,,,,,,0.8,0.4,0.7*32
$GPGSA,A,3,04,05,06,09,11,34,36,,,,,,0.8,0.4,0.7*35
$GPGSA,A,3,05,06,09,16,19,20,22,29,35,37,39,44,0.8,0.4,0.7*3D
$GPGSA,A,3,60,,,,,,,,,,,,0.8,0.4,0.7*3F
$GPGST,030032.00,1.262,0.403,0.319,355.321,0.403,0.320,0.610*5C
$GPGBS,030032.00,2.193,1.893,3.507,03,0.0001,0.515,0.695*5F
$GPGRS,030032.00,1,-0.1,0.5,0.1,-0.3,-0.3,0.1,0.1,0.3,0.1,-0.2,-0.7,*4D
$GPGRS,030032.00,1,-2.0,-1.6,1.6,1.1,-1.5,3.7,-2.0,,,,,*62
$GPGRS,030032.00,1,-0.4,0.5,-0.1,0.5,-0.5,-0.4,0.5,,,,,*63
$GPGRS,030032.00,1,3.2,1.1,0.6,0.1,-0.7,0.5,0.0,-0.5,-0.3,0.1,-1.4,0.1*4B
$GPGRS,030032.00,1,-1.4,,,,,,,,,,,*4A
$GPGSV,6,1,22,04,85,057,49,11,12,319,39,07,14,183,41,19,21,260,44*78
$GPGSV,6,2,22,01,14,156,,17,13,234,41,31,24,047,43,06,45,302,47*7A
$GPGSV,6,3,22,03,51,096,47,09,63,243,50,26,08,072,37,28,04,031,37*7E
$GPGSV,6,4,22,02,10,163,41,36,35,170,44,58,13,245,38,40,24,132,36*7C
$GPGSV,6,5,22,34,31,208,43,49,34,195,44,57,08,110,39,41,07,108,35*78
$GPGSV,6,6,22,61,03,257,38*46
$GLGSV,3,1,10,70,67,012,41,80,22,104,46,69,12,064,43,87,17,334,*6D
$GLGSV,3,2,10,79,24,047,47,71,44,275,51,85,39,204,50,86,52,293,52*6D
$GLGSV,3,3,10,78,02,002,42,72,00,257,*68
$GAGSV,3,1,11,09,77,060,49,11,20,158,36,18,15,258,,04,25,056,40*65
$GAGSV,3,2,11,34,47,304,46,05,45,234,46,36,64,195,48,06,51,058,46*60
$GAGSV,3,3,11,23,05,060,,15,02,324,36,21,02,014,31*5A
$GBGSV,5,1,19,19,75,309,51,39,20,039,41,12,12,327,,37,26,071,44*64
$GBGSV,5,2,19,29,13,194,41,58,15,119,,16,29,045,42,46,21,129,*64
$GBGSV,5,3,19,22,24,269,45,06,30,048,41,05,23,128,39,21,24,259,*6D
$GBGSV,5,4,19,44,26,307,44,09,41,060,43,35,39,252,47,20,46,071,49*6E
$GBGSV,5,5,19,48,68,059,,02,07,106,35,60,08,110,40*53
$GPGGA,030032.00,,,,,0,00,,,M,,M,,*4A
$PTNL,GGK,030032.00,010125,4742.1602022,N,01618.1004705,E,1,38,0.8,EHT751.0880,M*41
$GPGGQ,030032.00,010125,4742.1602022,N,01618.1004705,E,1,38,0.798,707.8814,M*37
$GPGFA,030032.00,3.833,5.004,0.403,0.319,355.321,0.610,,VVV*03
$GPLLK,030032.00,010125,,M,,M,1,38,0.9,,M*0B
$GNGMP,030032.00,,,,,DAAA,38,0.4,,,,*5B
$GPGMP,030032.00,,,,,,11,,,,3.0,136*78
$GLGMP,030032.00,,,,,,07,,,,,*7A
$GAGMP,030032.00,,,,,,07,,,,,*77
$GBGMP,030032.00,,,,,,13,,,,,*71
$PSSN,SNC,[0,270050000,2347]*44
$GPZDA,030037.00,01,01,2025,,*64
$GPDTM,W84,,00.0000000,N,00.0000000,E,00.0000000,W84*5F
$PSSN,TFM,030037.00,,,,*68
$GPRMC,030037.00,A,4742.1602041,N,01618.1004694,E,0.0,,010125,5.1,E,D*1F
$GPGLL,4742.1602041,N,01618.1004694,E,030037.00,A,D*6E
$GPGGA,030037.00,4742.1602041,N,01618.1004694,E,2,38,0.4,707.8787,M,43.2066,M,1.5,0136*49
$GNGNS,030037.00,4742.1602041,N,01618.1004694,E,DAAA,38,0.4,707.8787,43.2066,,*55
$GPGNS,030037.00,,,,,,11,,,,1.5,136*7A
$GLGNS,030037.00,,,,,,07,,,,,*7F
$GAGNS,030037.00,,,,,,07,,,,,*72
$GBGNS,030037.00,,,,,,13,,,,,*74
$GPLLQ,030037.00,010125,,M,,M,1,38,0.792,,M*11
$GPVTG,,T,,M,0.00,N,0.01,K,D*27
$GPHDT,,T*1B
$GPTHS,,V*0E
$GPROT,,V*08
$PSSN,HRP,030037.00,010125,,,,,,,00,0,,*66
$PTNL,AVR,030037.00,,Yaw,,Tilt,,,,0,,00*30
$GPGSA,A,3,02,03,04,06,07,09,11,17,19,26,31,,0.8,0.4,0.7*3C
$GPGSA,A,3,69,70,71,79,80,85,86,,,,,,0.8,0.4,0.7*32
$GPGSA,A,3,04,05,06,09,11,34,36,,,,,,0.8,0.4,0.7*35
$GPGSA,A,3,05,06,09,16,19,20,22,29,35,37,39,44,0.8,0.4,0.7*3D
$GPGSA,A,3,60,,,,,,,,,,,,0.8,0.4,0.7*3F
$GPGST,030037.00,1.336,0.401,0.316,356.216,0.401,0.316,0.605*51
$GPGBS,030037.00,2.128,1.916,3.344,06,0.0001,-0.450,0.684*7F
$GPGRS,030037.00,1,-0.6,0.4,0.1,-0.4,-0.2,0.0,0.1,-0.3,0.6,0.8,-0.7,*44
$GPGRS,030037.00,1,-2.2,-2.0,2.1,0.8,-1.6,3.7,-2.0,,,,,*6F
$GPGRS,030037.00,1,-0.3,0.4,0.2,0.3,-0.2,-0.2,0.5,,,,,*49
$GPGRS,030037.00,1,3.2,1.0,0.4,0.4,-0.5,0.5,0.3,-0.7,-0.3,0.1,-1.9,0.1*46
$GPGRS,030037.00,1,-1.3,,,,,,,,,,,*48
$GPGSV,6,1,22,04,85,057,49,11,12,319,39,07,14,183,41,19,21,260,43*7F
$GPGSV,6,2,22,01,14,156,,17,13,234,41,31,24,047,43,06,45,302,47*7A
$GPGSV,6,3,22,03,51,096,47,09,63,243,50,26,08,072,38,28,04,031,35*73
$GPGSV,6,4,22,02,10,163,41,36,35,170,44,58,13,245,37,40,24,132,36*73
$GPGSV,6,5,22,34,31,208,43,49,34,195,44,57,08,110,38,41,07,108,35*79
$GPGSV,6,6,22,61,03,257,38*46
$GLGSV,3,1,10,70,67,012,42,80,22,104,47,69,12,064,43,87,17,334,*6F
$GLGSV,3,2,10,79,24,047,47,71,44,275,51,85,39,204,50,86,52,293,52*6D
$GLGSV,3,3,10,78,02,002,42,72,00,257,*68
$GAGSV,3,1,11,09,77,060,48,11,20,158,36,18,15,258,,04,25,056,41*65
$GAGSV,3,2,11,34,47,304,46,05,45,234,46,36,64,195,48,06,51,058,46*60
$GAGSV,3,3,11,23,05,060,,15,02,324,37,21,02,014,31*5B
$GBGSV,5,1,19,19,75,309,51,39,20,039,41,12,12,327,,37,26,071,45*65
$GBGSV,5,2,19,29,13,194,41,58,15,119,,16,29,045,42,46,21,129,*64
$GBGSV,5,3,19,22,24,269,45,06,30,048,41,05,23,128,39,21,24,259,*6D
$GBGSV,5,4,19,44,26,307,44,09,41,060,43,35,39,252,47,20,46,071,50*66
$GBGSV,5,5,19,48,68,059,,02,07,106,35,60,08,110,40*53
$GPGGA,030037.00,,,,,0,00,,,M,,M,,*4F
$PTNL,GGK,030037.00,010125,4742.1602041,N,01618.1004694,E,1,38,0.8,EHT751.0852,M*47
$GPGGQ,030037.00,010125,4742.1602041,N,01618.1004694,E,1,38,0.792,707.8787,M*31
$GPGFA,030037.00,3.817,4.960,0.401,0.316,356.216,0.605,,VVV*05
$GPLLK,030037.00,010125,,M,,M,1,38,0.9,,M*0E
$GNGMP,030037.00,,,,,DAAA,38,0.4,,,,*5E
$GPGMP,030037.00,,,,,,11,,,,1.5,136*7A
$GLGMP,030037.00,,,,,,07,,,,,*7F
$GAGMP,030037.00,,,,,,07,,,,,*72
$GBGMP,030037.00,,,,,,13,,,,,*74
$PSSN,SNC,[0,270055000,2347]*41
$GPZDA,030042.00,01,01,2025,,*66
$GPDTM,W84,,00.0000000,N,00.0000000,E,00.0000000,W84*5F
$PSSN,TFM,030042.00,,,,*6A
$GPRMC,030042.00,A,4742.1602050,N,01618.1004682,E,0.0,,010125,5.1,E,D*1A
$GPGLL,4742.1602050,N,01618.1004682,E,030042.00,A,D*6B
$GPGGA,030042.00,4742.1602050,N,01618.1004682,E,2,38,0.4,707.8783,M,43.2066,M,2.5,0136*4B
$GNGNS,030042.00,4742.1602050,N,01618.1004682,E,DAAA,38,0.4,707.8783,43.2066,,*54
$GPGNS,030042.00,,,,,,11,,,,2.5,136*7B
$GLGNS,030042.00,,,,,,07,,,,,*7D
$GAGNS,030042.00,,,,,,07,,,,,*70
$GBGNS,030042.00,,,,,,13,,,,,*76
$GPLLQ,030042.00,010125,,M,,M,1,38,0.780,,M*10
$GPVTG,,T,,M,0.00,N,0.01,K,D*27
$GPHDT,,T*1B
$GPTHS,,V*0E
$GPROT,,V*08
$PSSN,HRP,030042.00,010125,,,,,,,00,0,,*64
$PTNL,AVR,030042.00,,Yaw,,Tilt,,,,0,,00*32
$GPGSA,A,3,02,03,04,06,07,09,11,17,19,26,31,,0.8,0.4,0.7*3C
$GPGSA,A,3,69,70,71,79,80,85,86,,,,,,0.8,0.4,0.7*32
$GPGSA,A,3,04,05,06,09,11,34,36,,,,,,0.8,0.4,0.7*35
$GPGSA,A,3,05,06,09,16,19,20,22,29,35,37,39,44,0.8,0.4,0.7*3D
$GPGSA,A,3,60,,,,,,,,,,,,0.8,0.4,0.7*3F
$GPGST,030042.00,1.254,0.397,0.313,357.880,0.397,0.313,0.595*58
$GPGBS,030042.00,2.146,1.930,3.389,85,0.0001,3.817,6.073*52
$GPGRS,030042.00,1,-0.1,0.4,-0.2,-0.4,0.0,-0.0,0.4,0.3,0.1,0.7,-0.3,*49
$GPGRS,030042.00,1,-2.6,-1.6,1.9,0.9,-0.6,3.8,-1.9,,,,,*62
$GPGRS,030042.00,1,-0.3,0.4,0.1,0.4,-0.4,-0.1,0.4,,,,,*4B
$GPGRS,030042.00,1,2.9,1.0,0.6,0.3,-0.7,0.7,0.2,-0.7,-0.2,0.2,-1.7,-0.1*6B
$GPGRS,030042.00,1,-0.8,,,,,,,,,,,*40
$GPGSV,6,1,22,04,85,057,49,11,12,319,40,07,14,183,41,19,21,260,43*71
$GPGSV,6,2,22,01,14,156,,17,13,234,41,31,24,047,43,06,45,302,46*7B
$GPGSV,6,3,22,03,51,096,48,09,63,243,50,26,08,072,38,28,04,031,37*7E
$GPGSV,6,4,22,02,10,163,41,36,35,170,44,58,13,245,37,40,24,132,36*73
$GPGSV,6,5,22,34,31,208,43,49,34,195,44,57,08,110,39,41,07,108,34*79
$GPGSV,6,6,22,61,03,257,37*49
$GLGSV,3,1,10,70,67,012,42,80,22,104,47,69,12,064,43,87,17,334,*6F
$GLGSV,3,2,10,79,24,047,47,71,44,275,51,85,39,204,50,86,52,293,51*6E
$GLGSV,3,3,10,78,02,002,42,72,00,257,*68
$GAGSV,3,1,11,09,77,060,48,11,20,158,37,18,15,258,,04,25,056,40*65
$GAGSV,3,2,11,34,47,304,46,05,45,234,46,36,64,195,48,06,51,058,46*60
$GAGSV,3,3,11,23,05,060,,15,02,324,36,21,02,014,30*5B
$GBGSV,5,1,19,19,75,309,51,39,20,039,41,12,12,327,,37,26,071,44*64
$GBGSV,5,2,19,29,13,194,42,58,15,119,,16,29,045,42,46,21,129,*67
$GBGSV,5,3,19,22,24,269,45,06,30,048,41,05,23,128,39,21,24,259,*6D
$GBGSV,5,4,19,44,26,307,44,09,41,060,43,35,39,252,47,20,46,071,50*66
$GBGSV,5,5,19,48,68,059,,02,07,106,35,60,08,110,40*53
$GPGGA,030042.00,,,,,0,00,,,M,,M,,*4D
$PTNL,GGK,030042.00,010125,4742.1602050,N,01618.1004682,E,1,38,0.8,EHT751.0849,M*48
$GPGGQ,030042.00,010125,4742.1602050,N,01618.1004682,E,1,38,0.780,707.8783,M*33
$GPGFA,030042.00,3.775,4.877,0.397,0.313,357.880,0.595,,VVV*08
$GPLLK,030042.00,010125,,M,,M,1,38,0.9,,M*0C
$GNGMP,030042.00,,,,,DAAA,38,0.4,,,,*5C
$GPGMP,030042.00,,,,,,11,,,,2.5,136*7B
$GLGMP,030042.00,,,,,,07,,,,,*7D
$GAGMP,030042.00,,,,,,07,,,,,*70
$GBGMP,030042.00,,,,,,13,,,,,*76
$PSSN,SNC,[0,270060000,2347]*47
$GPZDA,030047.00,01,01,2025,,*63
$GPDTM,W84,,00.0000000,N,00.0000000,E,00.0000000,W84*5F
$PSSN,TFM,030047.00,,,,*6F
$GPRMC,030047.00,A,4742.1602063,N,01618.1004689,E,0.0,,010125,5.1,E,D*14
$GPGLL,4742.1602063,N,01618.1004689,E,030047.00,A,D*65
$GPGGA,030047.00,4742.1602063,N,01618.1004689,E,2,38,0.4,707.8793,M,43.2066,M,3.1,0136*41
$GNGNS,030047.00,4742.1602063,N,01618.1004689,E,DAAA,38,0.4,707.8793,43.2066,,*5B
$GPGNS,030047.00,,,,,,11,,,,3.1,136*7B
$GLGNS,030047.00,,,,,,07,,,,,*78
$GAGNS,030047.00,,,,,,07,,,,,*75
$GBGNS,030047.00,,,,,,13,,,,,*73
$GPLLQ,030047.00,010125,,M,,M,1,38,0.790,,M*14
$GPVTG,,T,,M,0.00,N,0.00,K,D*26
$GPHDT,,T*1B
$GPTHS,,V*0E
$GPROT,,V*08
$PSSN,HRP,030047.00,010125,,,,,,,00,0,,*61
$PTNL,AVR,030047.00,,Yaw,,Tilt,,,,0,,00*37
$GPGSA,A,3,02,03,04,06,07,09,11,17,19,26,31,,0.8,0.4,0.7*3C
$GPGSA,A,3,69,70,71,79,80,85,86,,,,,,0.8,0.4,0.7*32
$GPGSA,A,3,04,05,06,09,11,34,36,,,,,,0.8,0.4,0.7*35
$GPGSA,A,3,05,06,09,16,19,20,22,29,35,37,39,44,0.8,0.4,0.7*3D
$GPGSA,A,3,60,,,,,,,,,,,,0.8,0.4,0.7*3F
$GPGST,030047.00,1.352,0.400,0.317,356.949,0.400,0.317,0.603*53
$GPGBS,030047.00,2.179,1.920,3.452,85,0.0001,3.885,6.073*50
$GPGRS,030047.00,1,-0.4,0.4,-0.1,-0.2,-0.4,0.0,0.2,0.5,0.3,0.3,-0.6,*4B
$GPGRS,030047.00,1,-2.9,-1.8,1.9,1.3,-1.0,3.9,-2.0,,,,,*61
$GPGRS,030047.00,1,-0.5,0.0,0.0,0.4,-0.6,-0.1,0.2,,,,,*49
$GPGRS,030047.00,1,3.0,1.0,0.7,0.7,-0.9,0.7,-0.3,-0.3,-0.7,0.1,-1.6,-0.2*41
$GPGRS,030047.00,1,-1.5,,,,,,,,,,,*49
$GPGSV,6,1,22,04,84,057,49,11,12,319,40,07,14,183,41,19,21,260,43*70
$GPGSV,6,2,22,01,14,156,,17,12,234,41,31,24,047,43,06,45,302,46*7A
$GPGSV,6,3,22,03,51,096,48,09,63,243,50,26,08,072,38,28,04,031,37*7E
$GPGSV,6,4,22,02,10,163,40,36,35,170,44,58,13,245,38,40,24,132,36*7D
$GPGSV,6,5,22,34,31,208,43,49,34,195,44,57,08,110,38,41,07,108,35*79
$GPGSV,6,6,22,61,03,257,37*49
$GLGSV,3,1,10,70,67,012,42,80,22,104,47,69,12,064,43,87,17,334,*6F
$GLGSV,3,2,10,79,24,047,47,71,44,275,51,85,39,204,50,86,52,292,52*6C
$GLGSV,3,3,10,78,02,002,41,72,00,257,*6B
$GAGSV,3,1,11,09,77,060,49,11,20,158,37,18,15,258,,04,25,057,41*64
$GAGSV,3,2,11,34,48,304,46,05,46,234,46,36,64,195,48,06,51,058,46*6C
$GAGSV,3,3,11,23,05,060,,15,02,324,36,21,02,014,31*5A
$GBGSV,5,1,19,19,75,309,51,39,20,039,42,12,12,327,,37,26,071,44*67
$GBGSV,5,2,19,29,13,194,42,58,15,119,,16,29,045,42,46,21,129,*67
$GBGSV,5,3,19,22,24,269,45,06,30,048,41,05,23,128,39,21,24,259,*6D
$GBGSV,5,4,19,44,26,307,44,09,41,060,43,35,39,252,47,20,46,071,50*66
$GBGSV,5,5,19,48,68,059,,02,07,106,35,60,08,110,40*53
$GPGGA,030047.00,,,,,0,00,,,M,,M,,*48
$PTNL,GGK,030047.00,010125,4742.1602063,N,01618.1004689,E,1,38,0.8,EHT751.0858,M*46
$GPGGQ,030047.00,010125,4742.1602063,N,01618.1004689,E,1,38,0.790,707.8793,M*3D
$GPGFA,030047.00,3.806,4.944,0.400,0.317,356.949,0.603,,VVV*03
$GPLLK,030047.00,010125,,M,,M,1,38,0.9,,M*09
$GNGMP,030047.00,,,,,DAAA,38,0.4,,,,*59
$GPGMP,030047.00,,,,,,11,,,,3.1,136*7B
$GLGMP,030047.00,,,,,,07,,,,,*78
$GAGMP,030047.00,,,,,,07,,,,,*75
$GBGMP,030047.00,,,,,,13,,,,,*73
$PSSN,SNC,[0,270065000,2347]*42
$GPZDA,030052.00,01,01,2025,,*67
$GPDTM,W84,,00.0000000,N,00.0000000,E,00.0000000,W84*5F
$PSSN,TFM,030052.00,,,,*6B
$GPRMC,030052.00,A,4742.1602085,N,01618.1004701,E,0.0,,010125,5.1,E,D*19
$GPGLL,4742.1602085,N,01618.1004701,E,030052.00,A,D*68
$GPGGA,030052.00,4742.1602085,N,01618.1004701,E,2,38,0.4,707.8793,M,43.2066,M,3.0,0136*4D
$GNGNS,030052.00,4742.1602085,N,01618.1004701,E,DAAA,38,0.4,707.8793,43.2066,,*56
$GPGNS,030052.00,,,,,,11,,,,3.0,136*7E
$GLGNS,030052.00,,,,,,07,,,,,*7C
$GAGNS,030052.00,,,,,,07,,,,,*71
$GBGNS,030052.00,,,,,,13,,,,,*77
$GPLLQ,030052.00,010125,,M,,M,1,38,0.798,,M*18
$GPVTG,,T,,M,0.00,N,0.00,K,D*26
$GPHDT,,T*1B
$GPTHS,,V*0E
$GPROT,,V*08
$PSSN,HRP,030052.00,010125,,,,,,,00,0,,*65
$PTNL,AVR,030052.00,,Yaw,,Tilt,,,,0,,00*33
$GPGSA,A,3,02,03,04,06,07,09,11,17,19,26,31,,0.8,0.4,0.7*3C
$GPGSA,A,3,69,70,71,79,80,85,86,,,,,,0.8,0.4,0.7*32
$GPGSA,A,3,04,05,06,09,11,34,36,,,,,,0.8,0.4,0.7*35
$GPGSA,A,3,05,06,09,16,19,20,22,29,35,37,39,44,0.8,0.4,0.7*3D
$GPGSA,A,3,60,,,,,,,,,,,,0.8,0.4,0.7*3F
$GPGST,030052.00,1.369,0.403,0.319,355.307,0.403,0.320,0.610*54
$GPGBS,030052.00,2.196,1.898,3.496,19,0.0001,0.776,0.855*50
$GPGRS,030052.00,1,-0.1,0.5,0.0,-0.4,-0.3,-0.2,-0.1,0.3,0.8,0.7,-0.7,*6F
$GPGRS,030052.00,1,-2.4,-1.4,1.9,1.2,-1.7,4.0,-1.8,,,,,*67
$GPGRS,030052.00,1,-0.3,0.4,0.4,0.3,-0.0,0.1,0.5,,,,,*60
$GPGRS,030052.00,1,3.7,0.7,0.8,0.4,-0.8,0.8,-0.3,-0.2,-0.6,-0.3,-1.6,0.2*44
$GPGRS,030052.00,1,-1.0,,,,,,,,,,,*48
$GPGSV,6,1,22,04,84,057,49,11,12,319,39,01,14,156,,17,12,234,41*78
$GPGSV,6,2,22,07,14,183,41,19,21,260,43,31,24,047,43,06,45,302,46*7C
$GPGSV,6,3,22,03,51,096,48,09,63,243,50,26,08,072,37,28,04,031,37*71
$GPGSV,6,4,22,02,10,163,40,36,35,170,44,58,13,245,38,40,24,132,36*7D
$GPGSV,6,5,22,34,31,208,43,49,34,195,44,57,08,110,38,41,07,108,34*78
$GPGSV,6,6,22,61,03,257,37*49
$GLGSV,3,1,10,70,67,012,42,80,22,104,46,69,11,064,43,87,17,334,*6D
$GLGSV,3,2,10,79,24,047,47,71,44,275,51,85,39,204,51,86,52,292,52*6D
$GLGSV,3,3,10,78,02,002,40,72,00,257,*6A
$GAGSV,3,1,11,09,77,060,49,11,20,158,38,18,15,258,,04,25,057,41*6B
$GAGSV,3,2,11,34,48,304,46,05,46,234,46,36,64,194,48,06,51,058,46*6D
$GAGSV,3,3,11,23,05,060,,15,02,324,36,21,02,014,31*5A
$GBGSV,5,1,19,19,75,310,51,39,20,039,42,12,12,327,,37,26,071,44*6F
$GBGSV,5,2,19,29,13,194,42,58,15,119,,16,29,045,42,46,21,129,*67
$GBGSV,5,3,19,22,24,269,45,06,30,048,41,05,23,128,39,21,24,259,*6D
$GBGSV,5,4,19,44,26,307,44,09,41,060,42,35,39,252,47,20,46,071,49*6F
$GBGSV,5,5,19,48,68,059,,02,07,106,35,60,08,110,40*53
$GPGGA,030052.00,,,,,0,00,,,M,,M,,*4C
$PTNL,GGK,030052.00,010125,4742.1602085,N,01618.1004701,E,1,38,0.8,EHT751.0858,M*4B
$GPGGQ,030052.00,010125,4742.1602085,N,01618.1004701,E,1,38,0.798,707.8793,M*38
$GPGFA,030052.00,3.834,5.003,0.403,0.319,355.307,0.610,,VVV*01
$GPLLK,030052.00,010125,,M,,M,1,38,0.9,,M*0D
$GNGMP,030052.00,,,,,DAAA,38,0.4,,,,*5D
$GPGMP,030052.00,,,,,,11,,,,3.0,136*7E
$GLGMP,030052.00,,,,,,07,,,,,*7C
$GAGMP,030052.00,,,,,,07,,,,,*71
$GBGMP,030052.00,,,,,,13,,,,,*77
$PSSN,SNC,[0,270070000,2347]*46
$GPZDA,030057.00,01,01,2025,,*62
$GPDTM,W84,,00.0000000,N,00.0000000,E,00.0000000,W84*5F
$PSSN,TFM,030057.00,,,,*6E
$GPRMC,030057.00,A,4742.1602105,N,01618.1004691,E,0.0,,010125,5.1,E,D*1D
$GPGLL,4742.1602105,N,01618.1004691,E,030057.00,A,D*6C
$GPGGA,030057.00,4742.1602105,N,01618.1004691,E,2,38,0.4,707.8785,M,43.2066,M,1.5,0136*49
$GNGNS,030057.00,4742.1602105,N,01618.1004691,E,DAAA,38,0.4,707.8785,43.2066,,*55
$GPGNS,030057.00,,,,,,11,,,,1.5,136*7C
$GLGNS,030057.00,,,,,,07,,,,,*79
$GAGNS,030057.00,,,,,,07,,,,,*74
$GBGNS,030057.00,,,,,,13,,,,,*72
$GPLLQ,030057.00,010125,,M,,M,1,38,0.792,,M*17
$GPVTG,,T,,M,0.00,N,0.01,K,D*27
$GPHDT,,T*1B
$GPTHS,,V*0E
$GPROT,,V*08
$PSSN,HRP,030057.00,010125,,,,,,,00,0,,*60
$PTNL,AVR,030057.00,,Yaw,,Tilt,,,,0,,00*36
$GPGSA,A,3,02,03,04,06,07,09,11,17,19,26,31,,0.8,0.4,0.7*3C
$GPGSA,A,3,69,70,71,79,80,85,86,,,,,,0.8,0.4,0.7*32
$GPGSA,A,3,04,05,06,09,11,34,36,,,,,,0.8,0.4,0.7*35
$GPGSA,A,3,05,06,09,16,19,20,22,29,35,37,39,44,0.8,0.4,0.7*3D
$GPGSA,A,3,60,,,,,,,,,,,,0.8,0.4,0.7*3F
$GPGST,030057.00,1.290,0.402,0.316,356.273,0.401,0.316,0.605*5A
$GPGBS,030057.00,2.131,1.920,3.333,85,0.0001,4.328,6.074*51
$GPGRS,030057.00,1,0.1,0.3,-0.0,-0.3,-0.2,0.0,-0.7,-0.1,0.6,0.4,-0.5,*63
$GPGRS,030057.00,1,-1.8,-1.2,1.9,1.4,-1.8,4.3,-2.0,,,,,*6A
$GPGRS,030057.00,1,-0.5,0.6,0.4,0.3,-0.1,-0.2,0.5,,,,,*4E
$GPGRS,030057.00,1,2.7,0.9,0.3,0.4,-0.9,0.5,0.2,0.0,-0.1,-0.3,-1.5,0.0*4C
$GPGRS,030057.00,1,-1.1,,,,,,,,,,,*4C
$GPGSV,6,1,22,04,84,057,49,11,12,319,38,07,14,183,41,19,21,260,42*7E
$GPGSV,6,2,22,01,14,156,,17,12,234,42,31,24,047,43,06,46,302,46*7A
$GPGSV,6,3,22,03,51,096,48,09,63,243,50,26,08,072,37,28,04,031,36*70
$GPGSV,6,4,22,02,10,163,40,36,35,170,44,58,13,245,37,40,24,132,36*72
$GPGSV,6,5,22,34,31,208,43,49,34,195,45,57,08,110,38,41,07,108,34*79
$GPGSV,6,6,22,61,03,257,37*49
$GLGSV,3,1,10,70,67,012,41,80,22,104,46,69,11,064,42,87,17,334,*6F
$GLGSV,3,2,10,79,24,047,46,71,44,275,50,85,39,204,51,86,52,292,52*6D
$GLGSV,3,3,10,78,01,002,39,72,00,257,*67
$GAGSV,3,1,11,09,77,060,49,11,20,158,38,18,15,258,,04,25,057,41*6B
$GAGSV,3,2,11,34,48,304,47,05,46,234,46,36,64,194,48,06,51,058,46*6C
$GAGSV,3,3,11,23,05,060,,15,02,324,35,21,02,014,32*5A
$GBGSV,5,1,19,19,75,310,51,39,20,039,42,12,12,327,,37,26,071,44*6F
$GBGSV,5,2,19,29,13,194,41,58,15,119,,16,29,045,42,46,21,129,*64
$GBGSV,5,3,19,22,24,269,44,06,30,048,41,05,23,128,39,21,24,259,*6C
$GBGSV,5,4,19,44,26,307,44,09,41,060,42,35,39,252,48,20,46,071,49*60
$GBGSV,5,5,19,48,68,059,,02,07,106,35,60,08,110,40*53
$GPGGA,030057.00,,,,,0,00,,,M,,M,,*49
$PTNL,GGK,030057.00,010125,4742.1602105,N,01618.1004691,E,1,38,0.8,EHT751.0850,M*47
$GPGGQ,030057.00,010125,4742.1602105,N,01618.1004691,E,1,38,0.792,707.8785,M*31
$GPGFA,030057.00,3.819,4.959,0.402,0.316,356.273,0.605,,VVV*07
$GPLLK,030057.00,010125,,M,,M,1,38,0.9,,M*08
$GNGMP,030057.00,,,,,DAAA,38,0.4,,,,*58
$GPGMP,030057.00,,,,,,11,,,,1.5,136*7C
$GLGMP,030057.00,,,,,,07,,,,,*79
$GAGMP,030057.00,,,,,,07,,,,,*74
$GBGMP,030057.00,,,,,,13,,,,,*72
$PSSN,SNC,[0,270075000,2347]*43
$GPZDA,030102.00,01,01,2025,,*63
$GPDTM,W84,,00.0000000,N,00.0000000,E,00.0000000,W84*5F
$PSSN,TFM,030102.00,,,,*6F
$GPRMC,030102.00,A,4742.1602137,N,01618.1004704,E,0.0,,010125,5.1,E,D*10
$GPGLL,4742.1602137,N,01618.1004704,E,030102.00,A,D*61
$GPGGA,030102.00,4742.1602137,N,01618.1004704,E,2,38,0.4,707.8790,M,43.2066,M,2.5,0136*43
$GNGNS,030102.00,4742.1602137,N,01618.1004704,E,DAAA,38,0.4,707.8790,43.2066,,*5C
$GPGNS,030102.00,,,,,,11,,,,2.5,136*7E
$GLGNS,030102.00,,,,,,07,,,,,*78
$GAGNS,030102.00,,,,,,07,,,,,*75
$GBGNS,030102.00,,,,,,13,,,,,*73
$GPLLQ,030102.00,010125,,M,,M,1,38,0.780,,M*15
$GPVTG,,T,,M,0.00,N,0.00,K,D*26
$GPHDT,,T*1B
$GPTHS,,V*0E
$GPROT,,V*08
$PSSN,HRP,030102.00,010125,,,,,,,00,0,,*61
$PTNL,AVR,030102.00,,Yaw,,Tilt,,,,0,,00*37
$GPGSA,A,3,02,03,04,06,07,09,11,17,19,26,31,,0.8,0.4,0.7*3C
$GPGSA,A,3,69,70,71,79,80,85,86,,,,,,0.8,0.4,0.7*32
$GPGSA,A,3,04,05,06,09,11,34,36,,,,,,0.8,0.4,0.7*35
$GPGSA,A,3,05,06,09,16,19,20,22,29,35,37,39,44,0.8,0.4,0.7*3D
$GPGSA,A,3,60,,,,,,,,,,,,0.8,0.4,0.7*3F
$GPGST,030102.00,1.283,0.397,0.313,357.888,0.397,0.313,0.595*5F
$GPGBS,030102.00,2.149,1.934,3.378,85,0.0001,3.908,6.074*5A
$GPGRS,030102.00,1,-0.1,0.0,-0.1,-0.1,-0.2,0.0,-0.2,0.2,0.5,0.6,-0.5,*65
$GPGRS,030102.00,1,-1.9,-1.6,1.9,1.4,-1.7,3.9,-1.7,,,,,*68
$GPGRS,030102.00,1,-0.4,0.6,0.2,0.4,-0.2,-0.3,0.3,,,,,*4B
$GPGRS,030102.00,1,2.7,1.1,0.9,0.8,-0.7,0.5,-0.4,-0.1,-0.3,-0.1,-1.7,0.4*4D
$GPGRS,030102.00,1,-1.4,,,,,,,,,,,*48
$GPGSV,6,1,22,04,84,057,49,11,12,319,39,07,14,183,41,19,21,260,42*7F
$GPGSV,6,2,22,01,14,156,,17,12,234,41,31,24,047,43,06,46,302,47*78
$GPGSV,6,3,22,03,51,096,48,09,64,243,49,26,08,072,37,28,04,031,37*7E
$GPGSV,6,4,22,02,10,163,40,36,35,170,44,58,13,245,38,40,24,132,36*7D
$GPGSV,6,5,22,34,31,208,43,49,34,195,44,57,08,110,39,41,07,108,35*78
$GPGSV,6,6,22,61,03,257,38*46
$GLGSV,3,1,10,70,67,012,41,80,22,104,46,69,11,064,43,87,17,334,*6E
$GLGSV,3,2,10,79,24,047,47,71,44,275,51,85,39,204,51,86,52,292,52*6D
$GLGSV,3,3,10,78,01,002,40,72,00,257,*69
$GAGSV,3,1,11,09,77,060,49,11,20,158,37,18,15,258,,04,25,057,41*64
$GAGSV,3,2,11,34,48,304,47,05,46,234,46,36,64,194,48,06,51,058,47*6D
$GAGSV,3,3,11,23,05,060,,15,02,324,35,21,02,014,31*59
$GBGSV,5,1,19,19,75,310,51,39,20,039,42,12,12,327,,37,26,071,45*6E
$GBGSV,5,2,19,29,13,194,41,58,15,119,,16,29,045,42,46,21,129,*64
$GBGSV,5,3,19,22,24,269,44,06,30,048,41,05,23,128,39,21,24,259,*6C
$GBGSV,5,4,19,44,26,307,44,09,41,060,42,35,39,252,47,20,46,071,49*6F
$GBGSV,5,5,19,48,68,059,,02,07,106,35,60,08,110,40*53
$GPGGA,030102.00,,,,,0,00,,,M,,M,,*48
$PTNL,GGK,030102.00,010125,4742.1602137,N,01618.1004704,E,1,38,0.8,EHT751.0855,M*4F
$GPGGQ,030102.00,010125,4742.1602137,N,01618.1004704,E,1,38,0.780,707.8790,M*3B
$GPGFA,030102.00,3.776,4.876,0.397,0.313,357.888,0.595,,VVV*07
$GPLLK,030102.00,010125,,M,,M,1,38,0.9,,M*09
$GNGMP,030102.00,,,,,DAAA,38,0.4,,,,*59
$GPGMP,030102.00,,,,,,11,,,,2.5,136*7E
$GLGMP,030102.00,,,,,,07,,,,,*78
$GAGMP,030102.00,,,,,,07,,,,,*75
$GBGMP,030102.00,,,,,,13,,,,,*73
$PSSN,SNC,[0,270080000,2347]*49
$GPZDA,030107.00,01,01,2025,,*66
$GPDTM,W84,,00.0000000,N,00.0000000,E,00.0000000,W84*5F
$PSSN,TFM,030107.00,,,,*6A
$GPRMC,030107.00,A,4742.1602139,N,01618.1004690,E,0.0,,010125,5.1,E,D*17
$GPGLL,4742.1602139,N,01618.1004690,E,030107.00,A,D*66
$GPGGA,030107.00,4742.1602139,N,01618.1004690,E,2,38,0.4,707.8759,M,43.2066,M,3.1,0136*44
$GNGNS,030107.00,4742.1602139,N,01618.1004690,E,DAAA,38,0.4,707.8759,43.2066,,*5E
$GPGNS,030107.00,,,,,,11,,,,3.1,136*7E
$GLGNS,030107.00,,,,,,07,,,,,*7D
$GAGNS,030107.00,,,,,,07,,,,,*70
$GBGNS,030107.00,,,,,,13,,,,,*76
$GPLLQ,030107.00,010125,,M,,M,1,38,0.790,,M*11
$GPVTG,,T,,M,0.00,N,0.01,K,D*27
$GPHDT,,T*1B
$GPTHS,,V*0E
$GPROT,,V*08
$PSSN,HRP,030107.00,010125,,,,,,,00,0,,*64
$PTNL,AVR,030107.00,,Yaw,,Tilt,,,,0,,00*32
$GPGSA,A,3,02,03,04,06,07,09,11,17,19,26,31,,0.8,0.4,0.7*3C
$GPGSA,A,3,69,70,71,79,80,85,86,,,,,,0.8,0.4,0.7*32
$GPGSA,A,3,04,05,06,09,11,34,36,,,,,,0.8,0.4,0.7*35
$GPGSA,A,3,05,06,09,16,19,20,22,29,35,37,39,44,0.8,0.4,0.7*3D
$GPGSA,A,3,60,,,,,,,,,,,,0.8,0.4,0.7*3F
$GPGST,030107.00,1.231,0.400,0.317,357.002,0.400,0.317,0.603*55
$GPGBS,030107.00,2.182,1.924,3.441,26,0.0001,1.193,2.029*59
$GPGRS,030107.00,1,-0.3,0.4,0.0,-0.2,0.1,-0.1,0.6,-0.2,0.1,1.2,-0.4,*4F
$GPGRS,030107.00,1,-1.1,-1.8,2.5,1.7,-1.4,3.5,-1.3,,,,,*6C
$GPGRS,030107.00,1,-0.4,0.4,0.1,0.3,-0.4,-0.1,0.4,,,,,*4B
$GPGRS,030107.00,1,2.9,0.7,1.0,0.6,-0.7,0.6,0.1,-0.1,-0.4,-0.3,-1.3,0.6*6F
$GPGRS,030107.00,1,-1.0,,,,,,,,,,,*49
$GPGSV,6,1,22,04,84,057,49,11,12,319,39,07,14,183,41,19,21,260,43*7E
$GPGSV,6,2,22,01,14,156,,17,12,234,41,31,24,047,43,06,46,302,46*79
$GPGSV,6,3,22,03,51,096,48,09,64,243,49,26,08,072,38,28,04,031,36*70
$GPGSV,6,4,22,02,10,163,40,36,35,170,44,58,13,245,38,40,24,132,36*7D
$GPGSV,6,5,22,34,31,208,43,49,34,195,45,57,08,110,38,41,07,108,35*78
$GPGSV,6,6,22,61,03,257,38*46
$GLGSV,3,1,10,70,67,012,42,80,22,103,46,69,11,064,43,87,17,334,*6A
$GLGSV,3,2,10,79,24,046,47,71,44,276,50,85,39,204,50,86,52,292,51*6C
$GLGSV,3,3,10,78,01,002,40,72,00,257,*69
$GAGSV,3,1,11,09,77,060,49,11,19,158,37,18,15,257,,04,25,057,41*61
$GAGSV,3,2,11,34,48,304,47,05,46,234,46,36,64,194,48,06,51,058,47*6D
$GAGSV,3,3,11,23,05,060,,15,02,324,36,21,02,014,30*5B
$GBGSV,5,1,19,19,75,310,51,39,20,039,42,12,12,327,,37,26,071,44*6F
$GBGSV,5,2,19,29,13,194,40,58,15,119,,16,29,045,42,46,21,129,*65
$GBGSV,5,3,19,22,24,269,45,06,30,048,41,05,23,128,39,21,24,259,*6D
$GBGSV,5,4,19,44,26,307,45,09,41,060,42,35,39,252,48,20,46,071,50*69
$GBGSV,5,5,19,48,68,059,,02,07,106,34,60,08,110,40*52
$GPGGA,030107.00,,,,,0,00,,,M,,M,,*4D
$PTNL,GGK,030107.00,010125,4742.1602139,N,01618.1004690,E,1,38,0.8,EHT751.0825,M*4F
$GPGGQ,030107.00,010125,4742.1602139,N,01618.1004690,E,1,38,0.790,707.8759,M*38
$GPGFA,030107.00,3.807,4.942,0.400,0.317,357.002,0.603,,VVV*06
$GPLLK,030107.00,010125,,M,,M,1,38,0.9,,M*0C
$GNGMP,030107.00,,,,,DAAA,38,0.4,,,,*5C
$GPGMP,030107.00,,,,,,11,,,,3.1,136*7E
$GLGMP,030107.00,,,,,,07,,,,,*7D
$GAGMP,030107.00,,,,,,07,,,,,*70
$GBGMP,030107.00,,,,,,13,,,,,*76
$PSSN,SNC,[0,270085000,2347]*4C
$GPZDA,030112.00,01,01,2025,,*62
$GPDTM,W84,,00.0000000,N,00.0000000,E,00.0000000,W84*5F
$PSSN,TFM,030112.00,,,,*6E
$GPRMC,030112.00,A,4742.1602141,N,01618.1004687,E,0.0,,010125,5.1,E,D*1A
$GPGLL,4742.1602141,N,01618.1004687,E,030112.00,A,D*6B
$GPGGA,030112.00,4742.1602141,N,01618.1004687,E,2,38,0.4,707.8750,M,43.2066,M,3.0,0136*41
$GNGNS,030112.00,4742.1602141,N,01618.1004687,E,DAAA,38,0.4,707.8750,43.2066,,*5A
$GPGNS,030112.00,,,,,,11,,,,3.0,136*7B
$GLGNS,030112.00,,,,,,07,,,,,*79
$GAGNS,030112.00,,,,,,07,,,,,*74
$GBGNS,030112.00,,,,,,13,,,,,*72
$GPLLQ,030112.00,010125,,M,,M,1,38,0.798,,M*1D
$GPVTG,,T,,M,0.01,N,0.01,K,D*26
$GPHDT,,T*1B
$GPTHS,,V*0E
$GPROT,,V*08
$PSSN,HRP,030112.00,010125,,,,,,,00,0,,*60
$PTNL,AVR,030112.00,,Yaw,,Tilt,,,,0,,00*36
$GPGSA,A,3,02,03,04,06,07,09,11,17,19,26,31,,0.8,0.4,0.7*3C
$GPGSA,A,3,69,70,71,79,80,85,86,,,,,,0.8,0.4,0.7*32
$GPGSA,A,3,04,05,06,09,11,34,36,,,,,,0.8,0.4,0.7*35
$GPGSA,A,3,05,06,09,16,19,20,22,29,35,37,39,44,0.8,0.4,0.7*3D
$GPGSA,A,3,60,,,,,,,,,,,,0.8,0.4,0.7*3F
$GPGST,030112.00,1.233,0.403,0.319,355.445,0.403,0.320,0.610*5E
$GPGBS,030112.00,2.197,1.903,3.484,31,0.0001,-0.819,1.052*7B
$GPGRS,030112.00,1,-0.3,0.3,0.1,-0.3,-0.2,0.1,-0.0,-0.1,0.4,0.8,-0.8,*65
$GPGRS,030112.00,1,-1.9,-1.6,1.6,1.1,-1.0,3.5,-1.9,,,,,*66
$GPGRS,030112.00,1,-0.5,-0.0,0.0,0.2,-0.6,-0.0,0.2,,,,,*62
$GPGRS,030112.00,1,3.2,0.9,1.1,0.5,-0.8,0.6,0.2,-0.2,-0.2,-1.0,-1.3,0.0*60
$GPGRS,030112.00,1,-1.3,,,,,,,,,,,*4E
$GPGSV,6,1,22,04,84,057,49,11,12,319,39,07,14,183,41,19,21,260,42*7F
$GPGSV,6,2,22,01,14,156,,17,12,234,40,31,24,047,43,06,46,302,46*78
$GPGSV,6,3,22,03,51,096,48,09,64,243,50,26,08,072,36,28,04,031,36*76
$GPGSV,6,4,22,02,10,163,40,36,35,170,45,58,13,245,38,40,24,132,36*7C
$GPGSV,6,5,22,34,31,208,43,49,34,195,45,57,08,110,38,41,07,108,34*79
$GPGSV,6,6,22,61,03,257,38*46
$GLGSV,3,1,10,70,67,013,42,80,22,103,47,69,11,064,43,87,17,334,*6A
$GLGSV,3,2,10,79,24,046,47,71,44,276,51,85,39,204,50,86,52,292,52*6E
$GLGSV,3,3,10,78,01,002,40,72,00,257,*69
$GAGSV,3,1,11,09,77,060,49,11,19,158,37,18,15,257,,04,25,057,42*62
$GAGSV,3,2,11,34,48,304,46,05,46,234,46,36,64,194,48,06,51,058,47*6C
$GAGSV,3,3,11,23,05,060,,15,02,324,37,21,02,014,30*5A
$GBGSV,5,1,19,19,75,310,51,39,20,039,41,12,12,327,,37,26,071,44*6C
$GBGSV,5,2,19,29,13,194,41,58,15,119,,16,29,045,42,46,21,129,*64
$GBGSV,5,3,19,22,24,269,45,06,30,048,41,05,23,128,39,21,24,259,*6D
$GBGSV,5,4,19,44,26,307,44,09,41,060,42,35,39,252,47,20,46,071,50*67
$GBGSV,5,5,19,48,68,059,,02,07,106,35,60,08,110,40*53
$GPGGA,030112.00,,,,,0,00,,,M,,M,,*49
$PTNL,GGK,030112.00,010125,4742.1602141,N,01618.1004687,E,1,38,0.8,EHT751.0816,M*42
$GPGGQ,030112.00,010125,4742.1602141,N,01618.1004687,E,1,38,0.798,707.8750,M*34
$GPGFA,030112.00,3.835,5.001,0.403,0.319,355.445,0.610,,VVV*06
$GPLLK,030112.00,010125,,M,,M,1,38,0.9,,M*08
$GNGMP,030112.00,,,,,DAAA,38,0.4,,,,*58
$GPGMP,030112.00,,,,,,11,,,,3.0,136*7B
$GLGMP,030112.00,,,,,,07,,,,,*79
$GAGMP,030112.00,,,,,,07,,,,,*74
$GBGMP,030112.00,,,,,,13,,,,,*72
$PSSN,SNC,[0,270090000,2347]*48
$GPZDA,030117.00,01,01,2025,,*67
$GPDTM,W84,,00.0000000,N,00.0000000,E,00.0000000,W84*5F
$PSSN,TFM,030117.00,,,,*6B
$GPRMC,030117.00,A,4742.1602177,N,01618.1004718,E,0.0,,010125,5.1,E,D*1D
$GPGLL,4742.1602177,N,01618.1004718,E,030117.00,A,D*6C
$GPGGA,030117.00,4742.1602177,N,01618.1004718,E,2,38,0.4,707.8721,M,43.2066,M,1.5,0136*47
$GNGNS,030117.00,4742.1602177,N,01618.1004718,E,DAAA,38,0.4,707.8721,43.2066,,*5B
$GPGNS,030117.00,,,,,,11,,,,1.5,136*79
$GLGNS,030117.00,,,,,,07,,,,,*7C
$GAGNS,030117.00,,,,,,07,,,,,*71
$GBGNS,030117.00,,,,,,13,,,,,*77
$GPLLQ,030117.00,010125,,M,,M,1,38,0.791,,M*11
$GPVTG,,T,,M,0.00,N,0.01,K,D*27
$GPHDT,,T*1B
$GPTHS,,V*0E
$GPROT,,V*08
$PSSN,HRP,030117.00,010125,,,,,,,00,0,,*65
$PTNL,AVR,030117.00,,Yaw,,Tilt,,,,0,,00*33
$GPGSA,A,3,02,03,04,06,07,09,11,17,19,26,31,,0.8,0.4,0.7*3C
$GPGSA,A,3,69,70,71,79,80,85,86,,,,,,0.8,0.4,0.7*32
$GPGSA,A,3,04,05,06,09,11,34,36,,,,,,0.8,0.4,0.7*35
$GPGSA,A,3,05,06,09,16,19,20,22,29,35,37,39,44,0.8,0.4,0.7*3D
$GPGSA,A,3,60,,,,,,,,,,,,0.8,0.4,0.7*3F
$GPGST,030117.00,1.279,0.402,0.316,356.320,0.401,0.316,0.604*5E
$GPGBS,030117.00,2.133,1.923,3.321,09,0.0001,0.418,0.602*53
$GPGRS,030117.00,1,0.0,0.2,-0.2,-0.4,-0.4,0.4,-0.3,0.3,0.1,0.7,-0.5,*4E
$GPGRS,030117.00,1,-2.0,-1.6,1.8,1.5,-1.0,4.0,-1.9,,,,,*61
$GPGRS,030117.00,1,-0.6,0.4,0.1,0.2,-0.4,0.1,0.3,,,,,*63
$GPGRS,030117.00,1,3.1,0.7,0.7,0.4,-0.9,0.6,-0.1,-0.3,-0.4,-0.8,-1.2,-0.3*60
$GPGRS,030117.00,1,-1.2,,,,,,,,,,,*4A
$GPGSV,6,1,22,04,84,056,49,11,12,319,40,01,14,156,,17,12,234,40*76
$GPGSV,6,2,22,07,14,183,41,19,21,260,43,31,24,047,43,06,46,302,46*7F
$GPGSV,6,3,22,03,51,096,48,09,64,243,50,26,08,072,37,28,04,031,36*77
$GPGSV,6,4,22,02,09,163,40,36,35,170,45,58,13,245,38,40,24,132,36*74
$GPGSV,6,5,22,34,31,208,43,49,34,195,45,57,08,110,38,41,07,108,35*78
$GPGSV,6,6,22,61,03,257,38*46
$GLGSV,3,1,10,70,67,013,42,80,22,103,47,69,11,064,43,87,17,334,*6A
$GLGSV,3,2,10,79,24,046,47,71,44,276,51,85,39,204,50,86,52,292,52*6E
$GLGSV,3,3,10,78,01,002,41,72,00,257,*68
$GAGSV,3,1,11,09,77,060,49,11,19,158,37,18,15,257,,04,25,057,41*61
$GAGSV,3,2,11,34,48,304,46,05,46,234,46,36,63,194,48,06,51,058,47*6B
$GAGSV,3,3,11,23,05,060,,15,02,324,37,21,02,014,31*5B
$GBGSV,5,1,19,19,75,310,51,39,20,039,41,12,12,327,,37,26,071,44*6C
$GBGSV,5,2,19,29,13,193,41,58,15,119,,16,28,045,42,46,21,129,*62
$GBGSV,5,3,19,22,24,269,45,06,30,048,41,05,23,128,39,21,24,259,*6D
