$GPZDA,175942.00,01,01,2025,,*6F
$GPDTM,W84,,00.0000000,N,00.0000000,E,00.0000000,W84*5F
$PSSN,TFM,175942.00,,,,*63
$GPRMC,175942.00,A,4742.1604159,N,01618.1001124,E,0.0,,010125,5.1,E,D*13
$GPGLL,4742.1604159,N,01618.1001124,E,175942.00,A,D*62
$GPGGA,175942.00,4742.1604159,N,01618.1001124,E,2,39,0.4,708.3256,M,43.2066,M,3.2,0136*4C
$GNGNS,175942.00,4742.1604159,N,01618.1001124,E,DAAA,39,0.4,708.3256,43.2066,,*55
$GPGNS,175942.00,,,,,,09,,,,3.2,136*7D
$GLGNS,175942.00,,,,,,08,,,,,*7B
$GAGNS,175942.00,,,,,,06,,,,,*78
$GBGNS,175942.00,,,,,,16,,,,,*7A
$GPLLQ,175942.00,010125,,M,,M,1,39,0.917,,M*18
$GPVTG,,T,,M,0.00,N,0.01,K,D*27
$GPHDT,,T*1B
$GPTHS,,V*0E
$GPROT,,V*08
$PSSN,HRP,175942.00,010125,,,,,,,00,0,,*6D
$PTNL,AVR,175942.00,,Yaw,,Tilt,,,,0,,00*3B
$GPGSA,A,3,05,16,18,23,26,27,28,29,31,,,,0.7,0.4,0.6*3F
$GPGSA,A,3,65,66,73,79,80,81,82,83,,,,,0.7,0.4,0.6*3E
$GPGSA,A,3,13,15,21,26,27,34,,,,,,,0.7,0.4,0.6*34
$GPGSA,A,3,05,08,11,12,13,21,22,23,25,28,34,37,0.7,0.4,0.6*37
$GPGSA,A,3,38,42,43,60,,,,,,,,,0.7,0.4,0.6*3B
$GPGST,175942.00,1.192,0.457,0.330,354.840,0.456,0.331,0.723*58
$GPGBS,175942.00,2.746,2.138,4.471,73,0.0001,3.836,6.174*55
$GPGRS,175942.00,1,-0.0,-0.0,0.0,-0.1,-0.1,-0.3,0.4,0.3,0.0,,,*45
$GPGRS,175942.00,1,0.9,-3.9,3.8,-0.3,-0.3,1.3,-0.4,-1.5,,,,*65
$GPGRS,175942.00,1,0.1,0.5,0.3,0.3,0.2,-0.8,,,,,,*61
$GPGRS,175942.00,1,1.2,1.1,0.1,0.6,-1.0,-1.1,-0.7,-0.4,-1.1,-0.2,0.2,-0.1*68
$GPGRS,175942.00,1,-0.2,-0.3,0.7,-1.1,,,,,,,,*69
$GPGSV,5,1,20,18,80,089,50,23,28,149,43,05,20,043,42,31,23,229,44*76
$GPGSV,5,2,20,27,20,281,42,16,49,302,48,29,34,084,45,26,69,246,50*7E
$GPGSV,5,3,20,28,08,207,39,10,01,176,,25,04,145,,36,35,170,45*77
$GPGSV,5,4,20,58,13,245,37,40,23,133,35,34,31,208,42,49,34,195,44*7E
$GPGSV,5,5,20,57,08,111,37,41,07,108,34,61,03,257,38*47
$GLGSV,2,1,08,82,74,311,52,65,16,031,41,66,14,080,44,79,26,175,48*68
$GLGSV,2,2,08,73,31,322,47,83,37,250,39,81,41,044,50,80,67,240,53*69
$GAGSV,3,1,09,21,65,291,48,26,12,222,40,23,15,313,,27,53,154,48*6F
$GAGSV,3,2,09,15,57,056,47,13,63,209,48,09,01,355,33,30,05,140,21*6D
$GAGSV,3,3,09,34,07,046,38*58
$GBGSV,6,1,24,43,82,021,51,60,10,109,40,42,12,118,41,25,14,177,42*66
$GBGSV,6,2,24,21,18,069,42,07,10,103,,38,28,041,43,05,22,129,38*69
$GBGSV,6,3,24,50,17,093,,28,29,255,45,31,38,053,,37,37,299,46*6C
$GBGSV,6,4,24,27,33,245,,08,40,050,42,34,34,068,46,23,49,224,49*6F
$GBGSV,6,5,24,13,44,061,44,11,59,057,48,12,07,068,35,02,07,106,34*60
$GBGSV,6,6,24,22,05,021,38,56,01,089,,58,01,327,,14,02,141,*6A
$GPGGA,175942.00,,,,,0,00,,,M,,M,,*44
$PTNL,GGK,175942.00,010125,4742.1604159,N,01618.1001124,E,1,39,0.7,EHT751.5321,M*4F
$GPGGQ,175942.00,010125,4742.1604159,N,01618.1001124,E,1,39,0.917,708.3256,M*32
$GPGFA,175942.00,4.347,5.931,0.457,0.330,354.840,0.723,,VVV*0B
$GPLLK,175942.00,010125,,M,,M,1,39,0.8,,M*05
$GNGMP,175942.00,,,,,DAAA,39,0.4,,,,*54
$GPGMP,175942.00,,,,,,09,,,,3.2,136*7D
$GLGMP,175942.00,,,,,,08,,,,,*7B
$GAGMP,175942.00,,,,,,06,,,,,*78
$GBGMP,175942.00,,,,,,16,,,,,*7A
$PSSN,SNC,[0,324000000,2347]*41
$GPZDA,175947.00,01,01,2025,,*6A
$GPDTM,W84,,00.0000000,N,00.0000000,E,00.0000000,W84*5F
$PSSN,TFM,175947.00,,,,*66
$GPRMC,175947.00,A,4742.1604166,N,01618.1001086,E,0.0,,010125,5.1,E,D*13
$GPGLL,4742.1604166,N,01618.1001086,E,175947.00,A,D*62
$GPGGA,175947.00,4742.1604166,N,01618.1001086,E,2,39,0.4,708.3251,M,43.2066,M,2.0,0136*48
$GNGNS,175947.00,4742.1604166,N,01618.1001086,E,DAAA,39,0.4,708.3251,43.2066,,*52
$GPGNS,175947.00,,,,,,09,,,,2.0,136*7B
$GLGNS,175947.00,,,,,,08,,,,,*7E
$GAGNS,175947.00,,,,,,06,,,,,*7D
$GBGNS,175947.00,,,,,,16,,,,,*7F
$GPLLQ,175947.00,010125,,M,,M,1,39,0.914,,M*1E
$GPVTG,,T,,M,0.00,N,0.00,K,D*26
$GPHDT,,T*1B
$GPTHS,,V*0E
$GPROT,,V*08
$PSSN,HRP,175947.00,010125,,,,,,,00,0,,*68
$PTNL,AVR,175947.00,,Yaw,,Tilt,,,,0,,00*3E
$GPGSA,A,3,05,16,18,23,26,27,28,29,31,,,,0.7,0.4,0.6*3F
$GPGSA,A,3,65,66,73,79,80,81,82,83,,,,,0.7,0.4,0.6*3E
$GPGSA,A,3,13,15,21,26,27,34,,,,,,,0.7,0.4,0.6*34
$GPGSA,A,3,05,08,11,12,13,21,22,23,25,28,34,37,0.7,0.4,0.6*37
$GPGSA,A,3,38,42,43,60,,,,,,,,,0.7,0.4,0.6*3B
$GPGST,175947.00,1.389,0.456,0.331,356.172,0.456,0.332,0.719*55
$GPGBS,175947.00,2.677,2.079,4.258,73,0.0001,4.541,6.174*50
$GPGRS,175947.00,1,0.3,0.1,-0.2,0.3,-0.0,-0.4,0.3,0.3,-0.3,,,*6D
$GPGRS,175947.00,1,2.5,-3.9,4.5,1.0,-0.7,1.3,-0.3,-2.3,,,,*4D
$GPGRS,175947.00,1,0.1,0.4,0.0,-0.2,0.2,-1.2,,,,,,*41
$GPGRS,175947.00,1,1.4,1.0,-0.1,0.2,-0.6,-1.1,-1.1,-0.4,-0.7,0.1,0.2,-0.0*6B
$GPGRS,175947.00,1,-0.4,-0.7,0.5,-1.4,,,,,,,,*69
$GPGSV,5,1,20,18,80,089,50,23,28,149,43,05,20,043,41,31,22,229,44*74
$GPGSV,5,2,20,27,20,281,42,16,49,302,48,29,34,084,45,26,69,246,50*7E
$GPGSV,5,3,20,28,08,207,38,10,01,176,,25,04,145,,36,35,170,45*76
$GPGSV,5,4,20,58,13,245,37,40,23,133,35,34,31,208,42,49,34,195,44*7E
$GPGSV,5,5,20,57,08,111,37,41,07,108,34,61,03,257,38*47
$GLGSV,2,1,08,82,74,311,52,65,16,031,41,66,14,080,44,79,26,175,48*68
$GLGSV,2,2,08,73,31,322,48,83,38,250,40,81,40,044,51,80,67,239,53*69
$GAGSV,3,1,09,21,65,291,48,26,12,222,39,23,15,313,,27,53,154,48*61
$GAGSV,3,2,09,15,57,056,47,13,64,209,48,09,01,355,34,30,05,140,19*66
$GAGSV,3,3,09,34,07,046,38*58
$GBGSV,6,1,24,43,82,022,51,60,10,109,40,42,12,118,41,25,14,177,42*65
$GBGSV,6,2,24,21,18,069,43,07,10,103,,38,28,041,43,05,22,129,38*68
$GBGSV,6,3,24,50,17,093,,28,29,255,45,31,38,053,,37,37,299,46*6C
$GBGSV,6,4,24,27,33,245,,08,40,050,42,34,34,068,46,23,49,224,49*6F
$GBGSV,6,5,24,13,44,061,45,11,59,057,48,12,07,068,35,02,07,106,34*61
$GBGSV,6,6,24,22,05,021,38,56,01,089,,58,01,327,,14,02,141,*6A
$GPGGA,175947.00,,,,,0,00,,,M,,M,,*41
$PTNL,GGK,175947.00,010125,4742.1604166,N,01618.1001086,E,1,39,0.7,EHT751.5316,M*4B
$GPGGQ,175947.00,010125,4742.1604166,N,01618.1001086,E,1,39,0.914,708.3251,M*36
$GPGFA,175947.00,4.336,5.898,0.456,0.331,356.172,0.719,,VVV*09
$GPLLK,175947.00,010125,,M,,M,1,39,0.8,,M*00
$GNGMP,175947.00,,,,,DAAA,39,0.4,,,,*51
$GPGMP,175947.00,,,,,,09,,,,2.0,136*7B
$GLGMP,175947.00,,,,,,08,,,,,*7E
$GAGMP,175947.00,,,,,,06,,,,,*7D
$GBGMP,175947.00,,,,,,16,,,,,*7F
$PSSN,SNC,[0,324005000,2347]*44
$GPZDA,175952.00,01,01,2025,,*6E
$GPDTM,W84,,00.0000000,N,00.0000000,E,00.0000000,W84*5F
$PSSN,TFM,175952.00,,,,*62
$GPRMC,175952.00,A,4742.1604145,N,01618.1001072,E,0.0,,010125,5.1,E,D*1D
$GPGLL,4742.1604145,N,01618.1001072,E,175952.00,A,D*6C
$GPGGA,175952.00,4742.1604145,N,01618.1001072,E,2,39,0.4,708.3274,M,43.2066,M,2.6,0136*47
$GNGNS,175952.00,4742.1604145,N,01618.1001072,E,DAAA,39,0.4,708.3274,43.2066,,*5B
$GPGNS,175952.00,,,,,,09,,,,2.6,136*79
$GLGNS,175952.00,,,,,,08,,,,,*7A
$GAGNS,175952.00,,,,,,06,,,,,*79
$GBGNS,175952.00,,,,,,16,,,,,*7B
$GPLLQ,175952.00,010125,,M,,M,1,39,0.899,,M*1E
$GPVTG,,T,,M,0.00,N,0.00,K,D*26
$GPHDT,,T*1B
$GPTHS,,V*0E
$GPROT,,V*08
$PSSN,HRP,175952.00,010125,,,,,,,00,0,,*6C
$PTNL,AVR,175952.00,,Yaw,,Tilt,,,,0,,00*3A
$GPGSA,A,3,05,16,18,23,26,27,28,29,31,,,,0.7,0.4,0.6*3F
$GPGSA,A,3,65,66,73,79,80,81,82,83,,,,,0.7,0.4,0.6*3E
$GPGSA,A,3,13,15,21,26,27,34,,,,,,,0.7,0.4,0.6*34
$GPGSA,A,3,05,08,11,12,13,21,22,23,25,28,34,37,0.7,0.4,0.6*37
$GPGSA,A,3,38,42,43,60,,,,,,,,,0.7,0.4,0.6*3B
$GPGST,175952.00,1.184,0.450,0.329,357.814,0.450,0.329,0.705*58
$GPGBS,175952.00,2.707,2.074,4.312,73,0.0001,4.399,6.173*54
$GPGRS,175952.00,1,0.6,0.1,-0.2,0.1,-0.1,-0.6,0.6,0.2,0.1,,,*46
$GPGRS,175952.00,1,0.3,-3.4,4.4,0.2,-0.8,0.8,-0.7,-1.5,,,,*46
$GPGRS,175952.00,1,0.2,0.5,0.1,-0.4,0.1,-1.0,,,,,,*41
$GPGRS,175952.00,1,1.1,1.2,0.2,-0.4,-0.5,-0.8,-1.1,-0.4,-0.5,0.0,-0.0,0.3*64
$GPGRS,175952.00,1,-0.3,0.1,0.8,-1.1,,,,,,,,*49
$GPGSV,5,1,20,18,80,089,50,23,28,148,44,05,20,043,42,31,22,229,44*71
$GPGSV,5,2,20,27,20,281,42,16,49,302,47,29,34,084,46,26,69,246,50*72
$GPGSV,5,3,20,28,08,207,38,10,01,176,,25,04,145,,36,35,170,44*77
$GPGSV,5,4,20,58,13,245,37,40,23,133,35,34,31,208,42,49,34,195,44*7E
$GPGSV,5,5,20,57,08,111,37,41,07,108,34,61,03,257,38*47
$GLGSV,2,1,08,82,74,311,52,65,16,031,40,66,14,080,44,79,26,175,48*69
$GLGSV,2,2,08,73,31,322,48,83,38,250,40,81,40,044,50,80,67,239,53*68
$GAGSV,3,1,09,21,65,291,48,26,12,222,39,23,15,313,,27,53,154,48*61
$GAGSV,3,2,09,15,57,056,47,13,64,209,48,09,01,355,33,30,05,140,22*69
$GAGSV,3,3,09,34,07,046,38*58
$GBGSV,6,1,24,43,82,022,52,60,10,109,40,42,12,117,41,25,14,177,41*6A
$GBGSV,6,2,24,21,18,069,43,07,10,103,,38,28,041,44,05,22,129,38*6F
$GBGSV,6,3,24,50,17,093,,28,29,255,46,31,38,053,,37,37,299,47*6E
$GBGSV,6,4,24,08,40,050,42,27,33,245,,34,34,068,46,23,49,224,49*6F
$GBGSV,6,5,24,13,44,060,45,11,59,057,48,12,07,068,36,02,07,106,34*63
$GBGSV,6,6,24,22,05,021,38,56,01,089,,58,01,327,,14,02,141,*6A
$GPGGA,175952.00,,,,,0,00,,,M,,M,,*45
$PTNL,GGK,175952.00,010125,4742.1604145,N,01618.1001072,E,1,39,0.7,EHT751.5340,M*46
$GPGGQ,175952.00,010125,4742.1604145,N,01618.1001072,E,1,39,0.899,708.3274,M*3B
$GPGFA,175952.00,4.277,5.785,0.450,0.329,357.814,0.705,,VVV*00
$GPLLK,175952.00,010125,,M,,M,1,39,0.8,,M*04
$GNGMP,175952.00,,,,,DAAA,39,0.4,,,,*55
$GPGMP,175952.00,,,,,,09,,,,2.6,136*79
$GLGMP,175952.00,,,,,,08,,,,,*7A
$GAGMP,175952.00,,,,,,06,,,,,*79
$GBGMP,175952.00,,,,,,16,,,,,*7B
$PSSN,SNC,[0,324010000,2347]*40
$GPZDA,175957.00,01,01,2025,,*6B
$GPDTM,W84,,00.0000000,N,00.0000000,E,00.0000000,W84*5F
$PSSN,TFM,175957.00,,,,*67
$GPRMC,175957.00,A,4742.1604160,N,01618.1001040,E,0.0,,010125,5.1,E,D*1E
$GPGLL,4742.1604160,N,01618.1001040,E,175957.00,A,D*6F
$GPGGA,175957.00,4742.1604160,N,01618.1001040,E,2,39,0.4,708.3304,M,43.2066,M,2.2,0136*46
$GNGNS,175957.00,4742.1604160,N,01618.1001040,E,DAAA,39,0.4,708.3304,43.2066,,*5E
$GPGNS,175957.00,,,,,,09,,,,2.2,136*78
$GLGNS,175957.00,,,,,,08,,,,,*7F
$GAGNS,175957.00,,,,,,06,,,,,*7C
$GBGNS,175957.00,,,,,,16,,,,,*7E
$GPLLQ,175957.00,010125,,M,,M,1,39,0.907,,M*1D
$GPVTG,,T,,M,0.00,N,0.01,K,D*27
$GPHDT,,T*1B
$GPTHS,,V*0E
$GPROT,,V*08
$PSSN,HRP,175957.00,010125,,,,,,,00,0,,*69
$PTNL,AVR,175957.00,,Yaw,,Tilt,,,,0,,00*3F
$GPGSA,A,3,05,16,18,23,26,27,28,29,31,,,,0.7,0.4,0.6*3F
$GPGSA,A,3,65,66,73,79,80,81,82,83,,,,,0.7,0.4,0.6*3E
$GPGSA,A,3,13,15,21,26,27,34,,,,,,,0.7,0.4,0.6*34
$GPGSA,A,3,05,08,11,12,13,21,22,23,25,28,34,37,0.7,0.4,0.6*37
$GPGSA,A,3,38,42,43,60,,,,,,,,,0.7,0.4,0.6*3B
$GPGST,175957.00,1.190,0.453,0.330,356.422,0.452,0.331,0.713*57
$GPGBS,175957.00,2.715,2.111,4.383,73,0.0001,3.857,6.173*56
$GPGRS,175957.00,1,0.5,0.0,-0.1,-0.1,-0.1,-0.5,0.7,0.0,0.1,,,*6F
$GPGRS,175957.00,1,0.1,-3.8,3.9,-0.6,-0.7,1.1,-0.4,-2.0,,,,*6C
$GPGRS,175957.00,1,0.0,0.2,-0.1,-0.1,0.2,-0.9,,,,,,*62
$GPGRS,175957.00,1,1.0,1.4,0.2,0.1,-0.4,-0.9,-0.8,-0.2,-0.9,0.5,0.0,-0.1*4B
$GPGRS,175957.00,1,-0.4,0.0,0.9,-0.9,,,,,,,,*42
$GPGSV,5,1,20,18,80,089,50,23,28,148,44,05,20,043,42,31,22,229,43*76
$GPGSV,5,2,20,27,20,281,42,16,49,302,48,29,34,084,46,26,69,246,50*7D
$GPGSV,5,3,20,28,08,207,38,10,01,176,,25,04,145,,36,35,170,45*76
$GPGSV,5,4,20,58,13,245,37,40,23,133,35,34,31,208,42,49,34,195,44*7E
$GPGSV,5,5,20,57,08,111,37,41,07,108,34,61,03,257,38*47
$GLGSV,2,1,08,82,74,311,52,65,16,031,41,66,14,080,44,79,26,175,48*68
$GLGSV,2,2,08,73,31,322,48,83,38,250,39,81,40,044,51,80,67,239,53*67
$GAGSV,3,1,09,21,65,291,48,26,12,222,39,23,15,313,,27,53,154,47*6E
$GAGSV,3,2,09,15,57,056,47,13,64,209,48,09,01,355,33,30,05,140,20*6B
$GAGSV,3,3,09,34,07,046,37*57
$GBGSV,6,1,24,43,82,022,52,60,10,109,40,42,12,117,40,25,14,177,41*6B
$GBGSV,6,2,24,21,18,069,43,07,10,103,,38,28,041,44,05,22,129,39*6E
$GBGSV,6,3,24,50,17,093,,28,29,255,46,31,38,053,,37,37,299,47*6E
$GBGSV,6,4,24,08,40,050,42,27,33,245,,34,34,068,46,23,49,224,50*67
$GBGSV,6,5,24,13,44,060,45,11,59,057,48,12,07,068,36,02,07,106,34*63
$GBGSV,6,6,24,22,05,021,38,56,01,089,,58,01,327,,14,02,141,*6A
$GPGGA,175957.00,,,,,0,00,,,M,,M,,*40
$PTNL,GGK,175957.00,010125,4742.1604160,N,01618.1001040,E,1,39,0.7,EHT751.5370,M*46
$GPGGQ,175957.00,010125,4742.1604160,N,01618.1001040,E,1,39,0.907,708.3304,M*38
$GPGFA,175957.00,4.305,5.850,0.453,0.330,356.422,0.713,,VVV*02
$GPLLK,175957.00,010125,,M,,M,1,39,0.8,,M*01
$GNGMP,175957.00,,,,,DAAA,39,0.4,,,,*50
$GPGMP,175957.00,,,,,,09,,,,2.2,136*78
$GLGMP,175957.00,,,,,,08,,,,,*7F
$GAGMP,175957.00,,,,,,06,,,,,*7C
$GBGMP,175957.00,,,,,,16,,,,,*7E
$PSSN,SNC,[0,324015000,2347]*45
$GPZDA,180002.00,01,01,2025,,*68
$GPDTM,W84,,00.0000000,N,00.0000000,E,00.0000000,W84*5F
$PSSN,TFM,180002.00,,,,*64
$GPRMC,180002.00,A,4742.1604135,N,01618.1001038,E,0.0,,010125,5.1,E,D*12
$GPGLL,4742.1604135,N,01618.1001038,E,180002.00,A,D*63
$GPGGA,180002.00,4742.1604135,N,01618.1001038,E,2,39,0.4,708.3309,M,43.2066,M,3.2,0136*46
$GNGNS,180002.00,4742.1604135,N,01618.1001038,E,DAAA,39,0.4,708.3309,43.2066,,*5F
$GPGNS,180002.00,,,,,,09,,,,3.2,136*7A
$GLGNS,180002.00,,,,,,08,,,,,*7C
$GAGNS,180002.00,,,,,,06,,,,,*7F
$GBGNS,180002.00,,,,,,16,,,,,*7D
$GPLLQ,180002.00,010125,,M,,M,1,39,0.917,,M*1F
$GPVTG,,T,,M,0.00,N,0.00,K,D*26
$GPHDT,,T*1B
$GPTHS,,V*0E
$GPROT,,V*08
$PSSN,HRP,180002.00,010125,,,,,,,00,0,,*6A
$PTNL,AVR,180002.00,,Yaw,,Tilt,,,,0,,00*3C
$GPGSA,A,3,05,16,18,23,26,27,28,29,31,,,,0.7,0.4,0.6*3F
$GPGSA,A,3,65,66,73,79,80,81,82,83,,,,,0.7,0.4,0.6*3E
$GPGSA,A,3,13,15,21,26,27,34,,,,,,,0.7,0.4,0.6*34
$GPGSA,A,3,05,08,11,12,13,21,22,23,25,28,34,37,0.7,0.4,0.6*37
$GPGSA,A,3,38,42,43,60,,,,,,,,,0.7,0.4,0.6*3B
$GPGST,180002.00,1.133,0.457,0.330,354.958,0.457,0.331,0.723*5D
$GPGBS,180002.00,2.750,2.139,4.460,66,0.0001,-3.570,6.559*79
$GPGRS,180002.00,1,0.4,0.1,0.0,-0.2,0.0,-0.1,0.6,0.0,-0.4,,,*42
$GPGRS,180002.00,1,1.7,-3.6,3.3,0.4,-0.8,1.3,-0.2,-1.0,,,,*4B
$GPGRS,180002.00,1,0.4,0.5,0.1,0.4,0.4,-0.8,,,,,,*60
$GPGRS,180002.00,1,1.6,1.1,0.3,0.8,-0.2,-0.7,-1.2,-0.0,-0.5,0.4,0.2,-0.0*4C
$GPGRS,180002.00,1,-0.5,-0.2,0.9,-0.8,,,,,,,,*6E
$GPGSV,5,1,20,18,80,088,49,23,28,148,43,05,20,042,42,31,22,229,43*79
$GPGSV,5,2,20,27,20,281,43,16,49,302,47,29,34,084,46,26,69,246,50*73
$GPGSV,5,3,20,28,08,207,38,10,02,176,,25,04,145,,36,35,170,45*75
$GPGSV,5,4,20,58,13,245,37,40,23,133,35,34,31,208,42,49,34,195,44*7E
$GPGSV,5,5,20,57,08,111,38,41,07,108,34,61,03,257,38*48
$GLGSV,2,1,08,82,74,312,51,65,16,031,40,66,14,080,44,79,26,175,48*69
$GLGSV,2,2,08,73,31,322,48,83,38,250,39,81,40,044,50,80,67,239,52*67
$GAGSV,3,1,09,21,65,291,48,26,12,222,39,23,15,313,,27,53,154,48*61
$GAGSV,3,2,09,15,57,056,46,13,64,209,48,09,01,355,33,30,05,140,*68
$GAGSV,3,3,09,34,07,046,37*57
$GBGSV,6,1,24,43,82,022,52,60,10,109,40,42,12,117,40,25,14,177,41*6B
$GBGSV,6,2,24,21,18,069,43,07,10,104,,38,28,041,44,05,22,129,39*69
$GBGSV,6,3,24,50,17,093,,28,29,255,46,31,38,053,,37,37,299,47*6E
$GBGSV,6,4,24,08,40,050,42,27,33,245,,34,34,068,46,23,49,224,50*67
$GBGSV,6,5,24,13,44,060,45,11,59,057,48,12,07,068,36,02,07,106,34*63
$GBGSV,6,6,24,22,05,021,38,56,01,089,,58,01,327,,14,02,141,*6A
$GPGGA,180002.00,,,,,0,00,,,M,,M,,*43
$PTNL,GGK,180002.00,010125,4742.1604135,N,01618.1001038,E,1,39,0.7,EHT751.5375,M*4F
$GPGGQ,180002.00,010125,4742.1604135,N,01618.1001038,E,1,39,0.917,708.3309,M*38
$GPGFA,180002.00,4.349,5.932,0.457,0.330,354.958,0.723,,VVV*09
$GPLLK,180002.00,010125,,M,,M,1,39,0.8,,M*02
$GNGMP,180002.00,,,,,DAAA,39,0.4,,,,*53
$GPGMP,180002.00,,,,,,09,,,,3.2,136*7A
$GLGMP,180002.00,,,,,,08,,,,,*7C
$GAGMP,180002.00,,,,,,06,,,,,*7F
$GBGMP,180002.00,,,,,,16,,,,,*7D
$PSSN,SNC,[0,324020000,2347]*43
$GPZDA,180007.00,01,01,2025,,*6D
$GPDTM,W84,,00.0000000,N,00.0000000,E,00.0000000,W84*5F
$PSSN,TFM,180007.00,,,,*61
$GPRMC,180007.00,A,4742.1604136,N,01618.1001029,E,0.0,,010125,5.1,E,D*14
$GPGLL,4742.1604136,N,01618.1001029,E,180007.00,A,D*65
$GPGGA,180007.00,4742.1604136,N,01618.1001029,E,2,39,0.4,708.3297,M,43.2066,M,2.0,0136*45
$GNGNS,180007.00,4742.1604136,N,01618.1001029,E,DAAA,39,0.4,708.3297,43.2066,,*5F
$GPGNS,180007.00,,,,,,09,,,,2.0,136*7C
$GLGNS,180007.00,,,,,,08,,,,,*79
$GAGNS,180007.00,,,,,,06,,,,,*7A
$GBGNS,180007.00,,,,,,16,,,,,*78
$GPLLQ,180007.00,010125,,M,,M,1,39,0.921,,M*1F
$GPVTG,,T,,M,0.00,N,0.00,K,D*26
$GPHDT,,T*1B
$GPTHS,,V*0E
$GPROT,,V*08
$PSSN,HRP,180007.00,010125,,,,,,,00,0,,*6F
$PTNL,AVR,180007.00,,Yaw,,Tilt,,,,0,,00*39
$GPGSA,A,3,05,16,18,23,26,27,28,29,31,,,,0.7,0.4,0.6*3F
$GPGSA,A,3,65,66,73,79,80,81,82,83,,,,,0.7,0.4,0.6*3E
$GPGSA,A,3,13,15,21,26,27,34,,,,,,,0.7,0.4,0.6*34
$GPGSA,A,3,05,08,11,12,13,21,22,23,25,28,34,37,0.7,0.4,0.6*37
$GPGSA,A,3,38,42,43,60,,,,,,,,,0.7,0.4,0.6*3B
$GPGST,180007.00,1.322,0.461,0.333,357.530,0.461,0.333,0.725*5C
$GPGBS,180007.00,2.680,2.117,4.252,73,0.0001,4.221,6.172*5B
$GPGRS,180007.00,1,0.2,-0.1,-0.1,0.2,0.0,-0.4,0.2,0.1,0.1,,,*45
$GPGRS,180007.00,1,1.1,-3.1,4.2,0.5,-0.7,1.0,-0.1,-1.2,,,,*45
$GPGRS,180007.00,1,0.2,0.5,0.3,0.4,0.5,-0.9,,,,,,*61
$GPGRS,180007.00,1,1.0,1.0,0.3,-3.9,-0.2,-0.5,-1.3,-0.3,-0.6,0.2,0.2,-0.2*66
$GPGRS,180007.00,1,-0.5,-0.4,0.8,-1.1,,,,,,,,*64
$GPGSV,5,1,20,18,80,088,50,23,28,148,44,05,20,042,42,31,22,229,43*76
$GPGSV,5,2,20,27,20,281,42,16,49,302,47,29,34,084,46,26,69,246,50*72
$GPGSV,5,3,20,28,08,207,38,10,02,176,,25,04,145,,36,35,170,45*75
$GPGSV,5,4,20,58,13,245,37,40,23,133,36,34,31,208,42,49,34,195,44*7D
$GPGSV,5,5,20,57,08,111,38,41,07,108,34,61,03,257,38*48
$GLGSV,2,1,08,82,74,312,52,65,16,031,40,66,14,080,44,79,26,175,49*6B
$GLGSV,2,2,08,73,31,322,49,83,38,250,40,81,40,044,50,80,67,239,53*69
$GAGSV,3,1,09,21,65,291,48,26,12,222,39,23,15,313,,27,53,154,48*61
$GAGSV,3,2,09,15,57,056,47,13,64,209,48,09,01,355,34,30,05,140,20*6C
$GAGSV,3,3,09,34,07,046,36*56
$GBGSV,6,1,24,43,82,022,52,60,10,109,40,42,12,117,40,25,14,177,41*6B
$GBGSV,6,2,24,21,18,069,43,07,10,104,,38,28,041,43,05,22,129,38*6F
$GBGSV,6,3,24,50,17,093,,28,29,256,46,31,38,053,,37,37,299,47*6D
$GBGSV,6,4,24,08,40,050,42,27,33,245,,34,34,068,46,23,48,224,50*66
$GBGSV,6,5,24,13,44,060,45,11,59,057,48,12,07,068,36,02,07,106,34*63
$GBGSV,6,6,24,22,05,021,38,56,01,089,,58,01,327,,14,02,141,*6A
$GPGGA,180007.00,,,,,0,00,,,M,,M,,*46
$PTNL,GGK,180007.00,010125,4742.1604136,N,01618.1001029,E,1,39,0.7,EHT751.5362,M*4F
$GPGGQ,180007.00,010125,4742.1604136,N,01618.1001029,E,1,39,0.921,708.3297,M*3D
$GPGFA,180007.00,4.385,5.946,0.461,0.333,357.530,0.725,,VVV*0E
$GPLLK,180007.00,010125,,M,,M,1,39,0.8,,M*07
$GNGMP,180007.00,,,,,DAAA,39,0.4,,,,*56
$GPGMP,180007.00,,,,,,09,,,,2.0,136*7C
$GLGMP,180007.00,,,,,,08,,,,,*79
$GAGMP,180007.00,,,,,,06,,,,,*7A
$GBGMP,180007.00,,,,,,16,,,,,*78
$PSSN,SNC,[0,324025000,2347]*46
$GPZDA,180012.00,01,01,2025,,*69
$GPDTM,W84,,00.0000000,N,00.0000000,E,00.0000000,W84*5F
$PSSN,TFM,180012.00,,,,*65
$GPRMC,180012.00,A,4742.1604158,N,01618.1001018,E,0.0,,010125,5.1,E,D*1A
$GPGLL,4742.1604158,N,01618.1001018,E,180012.00,A,D*6B
$GPGGA,180012.00,4742.1604158,N,01618.1001018,E,2,39,0.4,708.3317,M,43.2066,M,2.6,0136*44
$GNGNS,180012.00,4742.1604158,N,01618.1001018,E,DAAA,39,0.4,708.3317,43.2066,,*58
$GPGNS,180012.00,,,,,,09,,,,2.6,136*7E
$GLGNS,180012.00,,,,,,08,,,,,*7D
$GAGNS,180012.00,,,,,,06,,,,,*7E
$GBGNS,180012.00,,,,,,16,,,,,*7C
$GPLLQ,180012.00,010125,,M,,M,1,39,0.907,,M*1F
$GPVTG,,T,,M,0.01,N,0.01,K,D*26
$GPHDT,,T*1B
$GPTHS,,V*0E
$GPROT,,V*08
$PSSN,HRP,180012.00,010125,,,,,,,00,0,,*6B
$PTNL,AVR,180012.00,,Yaw,,Tilt,,,,0,,00*3D
$GPGSA,A,3,05,16,18,23,26,27,28,29,31,,,,0.7,0.4,0.6*3F
$GPGSA,A,3,65,66,73,79,80,81,82,83,,,,,0.7,0.4,0.6*3E
$GPGSA,A,3,13,15,21,26,27,34,,,,,,,0.7,0.4,0.6*34
$GPGSA,A,3,05,08,11,12,13,21,22,23,25,28,34,37,0.7,0.4,0.6*37
$GPGSA,A,3,38,42,43,60,,,,,,,,,0.7,0.4,0.6*3B
$GPGST,180012.00,1.414,0.455,0.331,359.171,0.455,0.331,0.711*52
$GPGBS,180012.00,2.709,2.111,4.306,27,0.0001,-0.794,1.010*78
$GPGRS,180012.00,1,0.0,-0.1,-0.0,0.3,-0.1,-0.8,0.5,-0.1,0.5,,,*4D
$GPGRS,180012.00,1,0.7,-3.7,4.3,-0.1,-0.8,2.1,0.0,-0.5,,,,*4F
$GPGRS,180012.00,1,0.3,0.4,0.3,-0.1,0.1,-1.1,,,,,,*40
$GPGRS,180012.00,1,1.3,1.1,-0.1,-4.0,-0.0,-0.8,-0.7,-0.3,-0.9,-0.0,0.0,-0.3*68
$GPGRS,180012.00,1,-0.5,-0.4,0.6,-1.0,,,,,,,,*6F
$GPGSV,5,1,20,18,80,088,50,23,29,148,44,05,20,042,42,31,22,229,44*70
$GPGSV,5,2,20,27,20,281,42,16,49,302,47,29,34,084,46,26,69,246,50*72
$GPGSV,5,3,20,28,08,207,38,10,02,176,,25,04,145,,36,35,170,45*75
$GPGSV,5,4,20,58,13,245,37,40,23,133,35,34,31,208,42,49,34,195,44*7E
$GPGSV,5,5,20,57,08,111,38,41,07,108,34,61,03,257,38*48
$GLGSV,2,1,08,82,74,312,52,65,16,031,40,66,14,080,44,79,26,175,48*6A
$GLGSV,2,2,08,73,31,322,49,83,38,250,40,81,40,044,50,80,67,239,52*68
$GAGSV,3,1,09,21,65,291,48,26,12,222,38,23,15,313,,27,53,154,48*60
$GAGSV,3,2,09,15,57,056,46,13,64,209,48,09,01,355,34,30,05,140,*6F
$GAGSV,3,3,09,34,07,046,36*56
$GBGSV,6,1,24,43,82,022,52,60,10,109,40,42,12,117,40,25,14,177,41*6B
$GBGSV,6,2,24,21,18,069,43,07,10,104,,38,28,041,43,05,22,129,39*6E
$GBGSV,6,3,24,50,17,093,,28,29,256,46,31,38,053,,37,37,299,47*6D
$GBGSV,6,4,24,08,40,050,42,27,33,245,,34,34,068,47,23,48,224,50*67
$GBGSV,6,5,24,13,44,060,45,11,59,057,48,12,07,068,36,02,07,106,35*62
$GBGSV,6,6,24,22,05,021,38,56,01,089,,58,01,327,,14,02,141,*6A
$GPGGA,180012.00,,,,,0,00,,,M,,M,,*42
$PTNL,GGK,180012.00,010125,4742.1604158,N,01618.1001018,E,1,39,0.7,EHT751.5382,M*4F
$GPGGQ,180012.00,010125,4742.1604158,N,01618.1001018,E,1,39,0.907,708.3317,M*3E
$GPGFA,180012.00,4.326,5.831,0.455,0.331,359.171,0.711,,VVV*0F
$GPLLK,180012.00,010125,,M,,M,1,39,0.8,,M*03
$GNGMP,180012.00,,,,,DAAA,39,0.4,,,,*52
$GPGMP,180012.00,,,,,,09,,,,2.6,136*7E
$GLGMP,180012.00,,,,,,08,,,,,*7D
$GAGMP,180012.00,,,,,,06,,,,,*7E
$GBGMP,180012.00,,,,,,16,,,,,*7C
$PSSN,SNC,[0,324030000,2347]*42
$GPZDA,180017.00,01,01,2025,,*6C
$GPDTM,W84,,00.0000000,N,00.0000000,E,00.0000000,W84*5F
$PSSN,TFM,180017.00,,,,*60
$GPRMC,180017.00,A,4742.1604183,N,01618.1001012,E,0.0,,010125,5.1,E,D*13
$GPGLL,4742.1604183,N,01618.1001012,E,180017.00,A,D*62
$GPGGA,180017.00,4742.1604183,N,01618.1001012,E,2,39,0.4,708.3313,M,43.2066,M,2.2,0136*4D
$GNGNS,180017.00,4742.1604183,N,01618.1001012,E,DAAA,39,0.4,708.3313,43.2066,,*55
$GPGNS,180017.00,,,,,,09,,,,2.2,136*7F
$GLGNS,180017.00,,,,,,08,,,,,*78
$GAGNS,180017.00,,,,,,06,,,,,*7B
$GBGNS,180017.00,,,,,,16,,,,,*79
$GPLLQ,180017.00,010125,,M,,M,1,39,0.915,,M*19
$GPVTG,,T,,M,0.00,N,0.00,K,D*26
$GPHDT,,T*1B
$GPTHS,,V*0E
$GPROT,,V*08
$PSSN,HRP,180017.00,010125,,,,,,,00,0,,*6E
$PTNL,AVR,180017.00,,Yaw,,Tilt,,,,0,,00*38
$GPGSA,A,3,05,16,18,23,26,27,28,29,31,,,,0.7,0.4,0.6*3F
$GPGSA,A,3,65,66,73,79,80,81,82,83,,,,,0.7,0.4,0.6*3E
$GPGSA,A,3,13,15,21,26,27,34,,,,,,,0.7,0.4,0.6*34
$GPGSA,A,3,05,08,11,12,13,21,22,23,25,28,34,37,0.7,0.4,0.6*37
$GPGSA,A,3,38,42,43,60,,,,,,,,,0.7,0.4,0.6*3B
$GPGST,180017.00,1.366,0.458,0.332,357.728,0.458,0.332,0.719*59
$GPGBS,180017.00,2.720,2.145,4.379,73,0.0001,4.053,6.172*59
$GPGRS,180017.00,1,-0.2,0.2,0.0,0.2,-0.2,-0.6,0.2,-0.0,0.2,,,*69
$GPGRS,180017.00,1,1.3,-3.9,4.1,-0.9,-1.0,2.1,-0.2,-0.7,,,,*6F
$GPGRS,180017.00,1,0.2,0.4,0.2,-0.1,0.1,-0.9,,,,,,*4C
$GPGRS,180017.00,1,1.1,1.4,0.4,-3.5,0.3,-0.1,-0.5,-0.3,-1.0,0.3,0.1,-0.1*40
$GPGRS,180017.00,1,-0.3,-0.2,-0.0,-1.0,,,,,,,,*41
$GPGSV,5,1,20,18,80,088,50,23,29,148,44,05,20,042,42,31,22,229,43*77
$GPGSV,5,2,20,27,20,281,42,16,49,302,47,29,34,084,45,26,69,246,50*71
$GPGSV,5,3,20,28,08,207,38,10,02,176,,25,04,145,,36,35,170,45*75
$GPGSV,5,4,20,58,13,245,37,40,23,133,35,34,31,208,42,49,34,195,44*7E
$GPGSV,5,5,20,57,08,111,38,41,07,108,35,61,03,257,38*49
$GLGSV,2,1,08,82,74,312,52,65,16,031,39,66,14,080,44,79,26,175,47*6B
$GLGSV,2,2,08,73,31,322,49,83,38,250,39,81,40,044,50,80,67,239,52*66
$GAGSV,3,1,09,21,65,291,48,26,12,222,38,23,15,313,,27,53,154,48*60
$GAGSV,3,2,09,15,57,056,46,13,64,209,48,09,01,355,34,30,05,140,21*6C
$GAGSV,3,3,09,34,07,046,35*55
$GBGSV,6,1,24,43,82,023,52,60,10,109,40,42,12,117,40,25,14,177,42*69
$GBGSV,6,2,24,21,18,069,42,07,10,104,,38,28,041,43,05,22,129,38*6E
$GBGSV,6,3,24,50,18,093,,28,29,256,46,31,38,053,,37,37,299,47*62
$GBGSV,6,4,24,08,40,050,42,27,33,245,,34,34,068,46,23,48,224,49*6E
$GBGSV,6,5,24,13,44,060,45,11,59,057,48,12,07,068,36,02,07,106,34*63
$GBGSV,6,6,24,22,05,021,38,56,01,089,,58,01,327,,14,02,140,*6B
$GPGGA,180017.00,,,,,0,00,,,M,,M,,*47
$PTNL,GGK,180017.00,010125,4742.1604183,N,01618.1001012,E,1,39,0.7,EHT751.5379,M*42
$GPGGQ,180017.00,010125,4742.1604183,N,01618.1001012,E,1,39,0.915,708.3313,M*30
$GPGFA,180017.00,4.352,5.896,0.458,0.332,357.728,0.719,,VVV*06
$GPLLK,180017.00,010125,,M,,M,1,39,0.8,,M*06
$GNGMP,180017.00,,,,,DAAA,39,0.4,,,,*57
$GPGMP,180017.00,,,,,,09,,,,2.2,136*7F
$GLGMP,180017.00,,,,,,08,,,,,*78
$GAGMP,180017.00,,,,,,06,,,,,*7B
$GBGMP,180017.00,,,,,,16,,,,,*79
$PSSN,SNC,[0,324035000,2347]*47
$GPZDA,180022.00,01,01,2025,,*6A
$GPDTM,W84,,00.0000000,N,00.0000000,E,00.0000000,W84*5F
$PSSN,TFM,180022.00,,,,*66
$GPRMC,180022.00,A,4742.1604186,N,01618.1001006,E,0.0,,010125,5.1,E,D*15
$GPGLL,4742.1604186,N,01618.1001006,E,180022.00,A,D*64
$GPGGA,180022.00,4742.1604186,N,01618.1001006,E,2,38,0.4,708.3308,M,43.2066,M,3.2,0136*41
$GNGNS,180022.00,4742.1604186,N,01618.1001006,E,DAAA,38,0.4,708.3308,43.2066,,*58
$GPGNS,180022.00,,,,,,09,,,,3.2,136*78
$GLGNS,180022.00,,,,,,08,,,,,*7E
$GAGNS,180022.00,,,,,,05,,,,,*7E
$GBGNS,180022.00,,,,,,16,,,,,*7F
$GPLLQ,180022.00,010125,,M,,M,1,38,0.929,,M*11
$GPVTG,,T,,M,0.00,N,0.00,K,D*26
$GPHDT,,T*1B
$GPTHS,,V*0E
$GPROT,,V*08
$PSSN,HRP,180022.00,010125,,,,,,,00,0,,*68
$PTNL,AVR,180022.00,,Yaw,,Tilt,,,,0,,00*3E
$GPGSA,A,3,05,16,18,23,26,27,28,29,31,,,,0.8,0.4,0.6*30
$GPGSA,A,3,65,66,73,79,80,81,82,83,,,,,0.8,0.4,0.6*31
$GPGSA,A,3,13,15,21,26,27,,,,,,,,0.8,0.4,0.6*3C
$GPGSA,A,3,05,08,11,12,13,21,22,23,25,28,34,37,0.8,0.4,0.6*38
$GPGSA,A,3,38,42,43,60,,,,,,,,,0.8,0.4,0.6*34
$GPGST,180022.00,1.345,0.464,0.332,356.685,0.464,0.333,0.733*50
$GPGBS,180022.00,2.768,2.187,4.492,73,0.0001,3.524,6.172*5D
$GPGRS,180022.00,1,0.2,0.1,-0.1,0.1,-0.1,-0.5,0.5,0.2,-0.3,,,*6A
$GPGRS,180022.00,1,1.0,-3.6,3.5,-0.6,-0.9,3.1,-0.1,-0.6,,,,*62
$GPGRS,180022.00,1,0.3,0.3,0.0,0.0,0.1,,,,,,,*68
$GPGRS,180022.00,1,1.3,0.9,0.5,-3.4,-0.1,-0.2,-0.8,-0.4,-0.8,0.2,0.2,-0.2*66
$GPGRS,180022.00,1,-0.2,-0.1,0.1,-1.1,,,,,,,,*68
$GPGSV,5,1,20,18,80,088,49,23,29,148,43,05,20,042,42,31,22,229,43*78
$GPGSV,5,2,20,27,20,281,42,16,49,302,47,29,34,084,45,26,69,246,50*71
$GPGSV,5,3,20,28,08,207,38,10,02,176,,25,04,145,,36,35,170,45*75
$GPGSV,5,4,20,58,13,245,37,40,23,133,35,34,31,208,42,49,34,195,44*7E
$GPGSV,5,5,20,57,08,111,38,41,07,108,34,61,03,257,38*48
$GLGSV,2,1,08,82,74,312,52,65,16,031,40,66,14,080,44,79,26,175,48*6A
$GLGSV,2,2,08,73,31,322,48,83,38,251,40,81,40,044,50,80,67,239,53*69
$GAGSV,3,1,09,21,65,291,48,26,12,222,38,23,15,313,,27,53,154,47*6F
$GAGSV,3,2,09,15,57,056,46,13,64,209,48,09,01,355,34,30,05,140,20*6D
$GAGSV,3,3,09,34,07,046,35*55
$GBGSV,6,1,24,43,82,023,52,60,10,109,40,42,12,117,40,25,14,177,42*69
$GBGSV,6,2,24,21,18,069,42,07,10,104,,38,28,041,43,05,22,129,38*6E
$GBGSV,6,3,24,50,18,093,,28,29,256,46,31,38,053,,37,37,299,47*62
$GBGSV,6,4,24,08,40,050,42,27,33,245,,34,34,068,46,23,48,224,49*6E
$GBGSV,6,5,24,13,44,060,45,11,59,057,48,12,07,068,36,02,07,106,34*63
$GBGSV,6,6,24,22,05,021,38,56,01,089,,58,02,327,,14,02,140,*68
$GPGGA,180022.00,,,,,0,00,,,M,,M,,*41
$PTNL,GGK,180022.00,010125,4742.1604186,N,01618.1001006,E,1,38,0.8,EHT751.5374,M*47
$GPGGQ,180022.00,010125,4742.1604186,N,01618.1001006,E,1,38,0.929,708.3308,M*32
$GPGFA,180022.00,4.415,6.012,0.464,0.332,356.685,0.733,,VVV*03
$GPLLK,180022.00,010125,,M,,M,1,38,0.9,,M*00
$GNGMP,180022.00,,,,,DAAA,38,0.4,,,,*50
$GPGMP,180022.00,,,,,,09,,,,3.2,136*78
$GLGMP,180022.00,,,,,,08,,,,,*7E
$GAGMP,180022.00,,,,,,05,,,,,*7E
$GBGMP,180022.00,,,,,,16,,,,,*7F
$PSSN,SNC,[0,324040000,2347]*45
$GPZDA,180027.00,01,01,2025,,*6F
$GPDTM,W84,,00.0000000,N,00.0000000,E,00.0000000,W84*5F
$PSSN,TFM,180027.00,,,,*63
$GPRMC,180027.00,A,4742.1604176,N,01618.1000976,E,0.0,,010125,5.1,E,D*10
$GPGLL,4742.1604176,N,01618.1000976,E,180027.00,A,D*61
$GPGGA,180027.00,4742.1604176,N,01618.1000976,E,2,39,0.4,708.3334,M,43.2066,M,2.0,0136*49
$GNGNS,180027.00,4742.1604176,N,01618.1000976,E,DAAA,39,0.4,708.3334,43.2066,,*53
$GPGNS,180027.00,,,,,,09,,,,2.0,136*7E
$GLGNS,180027.00,,,,,,08,,,,,*7B
$GAGNS,180027.00,,,,,,06,,,,,*78
$GBGNS,180027.00,,,,,,16,,,,,*7A
$GPLLQ,180027.00,010125,,M,,M,1,39,0.917,,M*18
$GPVTG,,T,,M,0.00,N,0.00,K,D*26
$GPHDT,,T*1B
$GPTHS,,V*0E
$GPROT,,V*08
$PSSN,HRP,180027.00,010125,,,,,,,00,0,,*6D
$PTNL,AVR,180027.00,,Yaw,,Tilt,,,,0,,00*3B
$GPGSA,A,3,05,16,18,23,26,27,28,29,31,,,,0.7,0.4,0.6*3F
$GPGSA,A,3,65,66,73,79,80,81,82,83,,,,,0.7,0.4,0.6*3E
$GPGSA,A,3,13,15,21,26,27,34,,,,,,,0.7,0.4,0.6*34
$GPGSA,A,3,05,08,11,12,13,21,22,23,25,28,34,37,0.7,0.4,0.6*37
$GPGSA,A,3,38,42,43,60,,,,,,,,,0.7,0.4,0.6*3B
$GPGST,180027.00,1.407,0.459,0.330,356.727,0.458,0.330,0.722*5D
$GPGBS,180027.00,2.692,2.105,4.252,27,0.0001,-0.584,1.000*7A
$GPGRS,180027.00,1,0.2,0.3,-0.3,-0.1,-0.1,-0.6,0.8,0.4,0.1,,,*65
$GPGRS,180027.00,1,1.4,-3.8,3.2,0.7,-1.0,2.9,-0.2,-1.1,,,,*42
$GPGRS,180027.00,1,-0.1,0.2,-0.1,0.1,0.1,-0.8,,,,,,*65
$GPGRS,180027.00,1,1.1,1.0,0.5,-4.0,-0.5,-0.5,-1.3,-0.3,-1.1,0.2,-0.1,-0.2*42
$GPGRS,180027.00,1,-0.3,-0.1,-0.2,-0.9,,,,,,,,*4B
$GPGSV,5,1,20,18,80,088,50,23,29,148,43,05,20,042,41,31,22,229,44*74
$GPGSV,5,2,20,27,20,281,42,16,49,302,47,29,34,084,45,26,69,245,50*72
$GPGSV,5,3,20,28,08,207,39,10,02,176,,25,04,145,,36,35,170,45*74
$GPGSV,5,4,20,58,13,245,37,40,23,133,35,34,31,208,42,49,34,195,44*7E
$GPGSV,5,5,20,57,08,111,38,41,07,108,35,61,03,257,38*49
$GLGSV,2,1,08,82,74,312,52,65,16,031,41,66,14,080,44,79,26,175,49*6A
$GLGSV,2,2,08,73,31,322,48,83,38,251,39,81,40,045,51,80,67,239,52*66
$GAGSV,3,1,09,21,65,291,48,26,12,222,38,23,15,313,,27,53,154,47*6F
$GAGSV,3,2,09,15,57,056,46,13,64,209,48,09,01,355,34,30,05,140,20*6D
$GAGSV,3,3,09,34,07,046,36*56
$GBGSV,6,1,24,43,82,023,52,60,10,109,40,42,12,117,40,25,14,177,42*69
$GBGSV,6,2,24,21,18,069,43,07,10,104,,38,28,041,43,05,22,129,39*6E
$GBGSV,6,3,24,50,18,093,,28,29,256,46,31,38,053,,37,37,299,47*62
$GBGSV,6,4,24,08,40,050,43,27,33,245,,34,34,068,46,23,48,224,50*67
$GBGSV,6,5,24,13,44,060,45,11,59,057,48,12,07,068,36,02,07,106,34*63
$GBGSV,6,6,24,22,05,021,39,56,01,089,,58,02,327,,14,02,140,*69
$GPGGA,180027.00,,,,,0,00,,,M,,M,,*44
$PTNL,GGK,180027.00,010125,4742.1604176,N,01618.1000976,E,1,39,0.7,EHT751.5399,M*4F
$GPGGQ,180027.00,010125,4742.1604176,N,01618.1000976,E,1,39,0.917,708.3334,M*34
$GPGFA,180027.00,4.361,5.921,0.459,0.330,356.727,0.722,,VVV*0D
$GPLLK,180027.00,010125,,M,,M,1,39,0.8,,M*05
$GNGMP,180027.00,,,,,DAAA,39,0.4,,,,*54
$GPGMP,180027.00,,,,,,09,,,,2.0,136*7E
$GLGMP,180027.00,,,,,,08,,,,,*7B
$GAGMP,180027.00,,,,,,06,,,,,*78
$GBGMP,180027.00,,,,,,16,,,,,*7A
$PSSN,SNC,[0,324045000,2347]*40
$GPZDA,180032.00,01,01,2025,,*6B
$GPDTM,W84,,00.0000000,N,00.0000000,E,00.0000000,W84*5F
$PSSN,TFM,180032.00,,,,*67
$GPRMC,180032.00,A,4742.1604196,N,01618.1000953,E,0.0,,010125,5.1,E,D*1D
$GPGLL,4742.1604196,N,01618.1000953,E,180032.00,A,D*6C
$GPGGA,180032.00,4742.1604196,N,01618.1000953,E,2,39,0.4,708.3371,M,43.2066,M,2.6,0136*43
$GNGNS,180032.00,4742.1604196,N,01618.1000953,E,DAAA,39,0.4,708.3371,43.2066,,*5F
$GPGNS,180032.00,,,,,,09,,,,2.6,136*7C
$GLGNS,180032.00,,,,,,08,,,,,*7F
$GAGNS,180032.00,,,,,,06,,,,,*7C
$GBGNS,180032.00,,,,,,16,,,,,*7E
$GPLLQ,180032.00,010125,,M,,M,1,39,0.902,,M*18
$GPVTG,,T,,M,0.00,N,0.00,K,D*26
$GPHDT,,T*1B
$GPTHS,,V*0E
$GPROT,,V*08
$PSSN,HRP,180032.00,010125,,,,,,,00,0,,*69
$PTNL,AVR,180032.00,,Yaw,,Tilt,,,,0,,00*3F
$GPGSA,A,3,05,16,18,23,26,27,28,29,31,,,,0.7,0.4,0.6*3F
$GPGSA,A,3,65,66,73,79,80,81,82,83,,,,,0.7,0.4,0.6*3E
$GPGSA,A,3,13,15,21,26,27,34,,,,,,,0.7,0.4,0.6*34
$GPGSA,A,3,05,08,11,12,13,21,22,23,25,28,34,37,0.7,0.4,0.6*37
$GPGSA,A,3,38,42,43,60,,,,,,,,,0.7,0.4,0.6*3B
$GPGST,180032.00,1.356,0.453,0.328,358.337,0.452,0.328,0.708*59
$GPGBS,180032.00,2.720,2.098,4.306,27,0.0001,-0.954,1.008*7A
$GPGRS,180032.00,1,-0.2,-0.1,-0.1,0.5,-0.1,-1.0,0.7,0.2,0.5,,,*42
$GPGRS,180032.00,1,1.3,-3.4,3.2,1.0,-0.9,2.8,-0.1,-1.5,,,,*45
$GPGRS,180032.00,1,0.1,0.1,0.0,-0.0,-0.1,-1.1,,,,,,*6A
$GPGRS,180032.00,1,1.2,1.0,0.8,-3.6,-0.5,-0.5,-1.1,-0.5,-1.1,0.4,-0.1,-0.1*48
$GPGRS,180032.00,1,-0.5,-0.2,-0.1,-1.1,,,,,,,,*40
$GPGSV,5,1,20,18,80,087,50,23,29,148,43,05,20,042,41,31,22,229,43*7C
$GPGSV,5,2,20,27,20,281,42,16,49,302,47,29,34,084,45,26,69,245,50*72
$GPGSV,5,3,20,28,07,207,39,10,02,176,,25,04,145,,36,35,170,45*7B
$GPGSV,5,4,20,58,13,245,37,40,23,133,35,34,31,208,42,49,34,195,44*7E
$GPGSV,5,5,20,57,08,111,38,41,07,108,34,61,03,257,38*48
$GLGSV,2,1,08,82,74,313,52,65,16,031,40,66,14,080,44,79,26,175,49*6A
$GLGSV,2,2,08,73,31,322,49,83,38,251,39,81,40,045,51,80,67,238,52*66
$GAGSV,3,1,09,21,65,290,48,26,12,222,39,23,15,313,,27,53,154,47*6F
$GAGSV,3,2,09,15,57,056,46,13,64,209,48,09,01,355,34,30,05,140,21*6C
$GAGSV,3,3,09,34,07,046,35*55
$GBGSV,6,1,24,43,82,023,52,60,10,109,40,42,12,117,41,25,14,177,42*68
$GBGSV,6,2,24,21,18,068,43,07,10,104,,38,28,041,43,05,22,129,39*6F
$GBGSV,6,3,24,50,18,093,,28,29,256,46,31,38,053,,37,37,299,47*62
$GBGSV,6,4,24,08,40,050,43,27,33,245,,34,34,068,47,23,48,224,50*66
$GBGSV,6,5,24,13,44,060,45,11,59,057,49,12,07,068,36,02,07,106,34*62
$GBGSV,6,6,24,22,05,021,39,56,01,089,,58,02,327,,14,02,140,*69
$GPGGA,180032.00,,,,,0,00,,,M,,M,,*40
$PTNL,GGK,180032.00,010125,4742.1604196,N,01618.1000953,E,1,39,0.7,EHT751.5437,M*41
$GPGGQ,180032.00,010125,4742.1604196,N,01618.1000953,E,1,39,0.902,708.3371,M*3C
$GPGFA,180032.00,4.302,5.808,0.453,0.328,358.337,0.708,,VVV*06
$GPLLK,180032.00,010125,,M,,M,1,39,0.8,,M*01
$GNGMP,180032.00,,,,,DAAA,39,0.4,,,,*50
$GPGMP,180032.00,,,,,,09,,,,2.6,136*7C
$GLGMP,180032.00,,,,,,08,,,,,*7F
$GAGMP,180032.00,,,,,,06,,,,,*7C
$GBGMP,180032.00,,,,,,16,,,,,*7E
$PSSN,SNC,[0,324050000,2347]*44
$GPZDA,180037.00,01,01,2025,,*6E
$GPDTM,W84,,00.0000000,N,00.0000000,E,00.0000000,W84*5F
$PSSN,TFM,180037.00,,,,*62
$GPRMC,180037.00,A,4742.1604229,N,01618.1000920,E,0.0,,010125,5.1,E,D*1B
$GPGLL,4742.1604229,N,01618.1000920,E,180037.00,A,D*6A
$GPGGA,180037.00,4742.1604229,N,01618.1000920,E,2,39,0.4,708.3368,M,43.2066,M,2.2,0136*49
$GNGNS,180037.00,4742.1604229,N,01618.1000920,E,DAAA,39,0.4,708.3368,43.2066,,*51
$GPGNS,180037.00,,,,,,09,,,,2.2,136*7D
$GLGNS,180037.00,,,,,,08,,,,,*7A
$GAGNS,180037.00,,,,,,06,,,,,*79
$GBGNS,180037.00,,,,,,16,,,,,*7B
$GPLLQ,180037.00,010125,,M,,M,1,39,0.910,,M*1E
$GPVTG,,T,,M,0.00,N,0.01,K,D*27
$GPHDT,,T*1B
$GPTHS,,V*0E
$GPROT,,V*08
$PSSN,HRP,180037.00,010125,,,,,,,00,0,,*6C
$PTNL,AVR,180037.00,,Yaw,,Tilt,,,,0,,00*3A
$GPGSA,A,3,05,16,18,23,26,27,28,29,31,,,,0.7,0.4,0.6*3F
$GPGSA,A,3,65,66,73,79,80,81,82,83,,,,,0.7,0.4,0.6*3E
$GPGSA,A,3,13,15,21,26,27,34,,,,,,,0.7,0.4,0.6*34
$GPGSA,A,3,05,08,11,12,13,21,22,23,25,28,34,37,0.7,0.4,0.6*37
$GPGSA,A,3,38,42,43,60,,,,,,,,,0.7,0.4,0.6*3B
$GPGST,180037.00,1.424,0.455,0.329,356.911,0.455,0.329,0.716*50
$GPGBS,180037.00,2.730,2.133,4.379,27,0.0001,-0.746,1.019*7B
$GPGRS,180037.00,1,0.4,0.1,-0.2,0.5,-0.1,-0.7,0.3,0.1,0.1,,,*47
$GPGRS,180037.00,1,1.6,-4.1,4.3,0.3,-0.8,2.1,-0.0,-1.6,,,,*49
$GPGRS,180037.00,1,0.2,0.2,0.1,-0.0,0.2,-1.2,,,,,,*43
$GPGRS,180037.00,1,1.0,0.8,1.2,-3.3,-0.4,-0.3,-0.4,-0.5,-0.9,0.3,0.0,-0.0*68
$GPGRS,180037.00,1,-0.2,-0.0,-0.0,-1.3,,,,,,,,*43
$GPGSV,5,1,20,18,79,087,50,23,29,148,44,05,20,042,42,31,22,229,43*7E
$GPGSV,5,2,20,27,20,281,42,16,49,302,47,29,34,084,45,26,69,245,50*72
$GPGSV,5,3,20,28,07,207,38,10,02,176,,25,04,145,,36,35,170,45*7A
$GPGSV,5,4,20,58,13,245,37,40,23,133,35,34,31,208,42,49,34,195,44*7E
$GPGSV,5,5,20,57,08,111,37,41,07,108,34,61,03,257,38*47
$GLGSV,2,1,08,82,74,313,52,65,16,031,40,66,14,080,44,79,26,175,49*6A
$GLGSV,2,2,08,73,31,322,48,83,38,251,39,81,40,045,51,80,67,238,53*66
$GAGSV,3,1,09,21,65,290,48,26,12,222,40,23,15,313,,27,53,154,48*6E
$GAGSV,3,2,09,15,57,056,47,13,64,209,48,09,01,355,34,30,05,140,20*6C
$GAGSV,3,3,09,34,07,046,36*56
$GBGSV,6,1,24,43,82,023,52,60,10,109,40,42,12,117,41,25,14,177,42*68
$GBGSV,6,2,24,21,18,068,42,07,10,104,,38,28,041,43,05,22,129,39*6E
$GBGSV,6,3,24,50,18,093,,28,29,256,46,31,38,053,,37,37,298,47*63
$GBGSV,6,4,24,08,40,050,42,27,33,245,,34,34,068,47,23,48,224,50*67
$GBGSV,6,5,24,13,44,060,45,11,59,057,48,12,07,068,36,02,07,106,34*63
$GBGSV,6,6,24,22,05,021,39,56,01,089,,58,02,327,,14,02,140,*69
$GPGGA,180037.00,,,,,0,00,,,M,,M,,*45
$PTNL,GGK,180037.00,010125,4742.1604229,N,01618.1000920,E,1,39,0.7,EHT751.5434,M*44
$GPGGQ,180037.00,010125,4742.1604229,N,01618.1000920,E,1,39,0.910,708.3368,M*31
$GPGFA,180037.00,4.328,5.872,0.455,0.329,356.911,0.716,,VVV*0E
$GPLLK,180037.00,010125,,M,,M,1,39,0.8,,M*04
$GNGMP,180037.00,,,,,DAAA,39,0.4,,,,*55
$GPGMP,180037.00,,,,,,09,,,,2.2,136*7D
$GLGMP,180037.00,,,,,,08,,,,,*7A
$GAGMP,180037.00,,,,,,06,,,,,*79
$GBGMP,180037.00,,,,,,16,,,,,*7B
$PSSN,SNC,[0,324055000,2347]*41
$GPZDA,180042.00,01,01,2025,,*6C
$GPDTM,W84,,00.0000000,N,00.0000000,E,00.0000000,W84*5F
$PSSN,TFM,180042.00,,,,*60
$GPRMC,180042.00,A,4742.1604239,N,01618.1000872,E,0.0,,010125,5.1,E,D*1E
$GPGLL,4742.1604239,N,01618.1000872,E,180042.00,A,D*6F
$GPGGA,180042.00,4742.1604239,N,01618.1000872,E,2,39,0.4,708.3386,M,43.2066,M,3.2,0136*4D
$GNGNS,180042.00,4742.1604239,N,01618.1000872,E,DAAA,39,0.4,708.3386,43.2066,,*54
$GPGNS,180042.00,,,,,,09,,,,3.2,136*7E
$GLGNS,180042.00,,,,,,08,,,,,*78
$GAGNS,180042.00,,,,,,06,,,,,*7B
$GBGNS,180042.00,,,,,,16,,,,,*79
$GPLLQ,180042.00,010125,,M,,M,1,39,0.920,,M*1F
$GPVTG,,T,,M,0.00,N,0.01,K,D*27
$GPHDT,,T*1B
$GPTHS,,V*0E
$GPROT,,V*08
$PSSN,HRP,180042.00,010125,,,,,,,00,0,,*6E
$PTNL,AVR,180042.00,,Yaw,,Tilt,,,,0,,00*38
$GPGSA,A,3,05,16,18,23,26,27,28,29,31,,,,0.7,0.4,0.6*3F
$GPGSA,A,3,65,66,73,79,80,81,82,83,,,,,0.7,0.4,0.6*3E
$GPGSA,A,3,13,15,21,26,27,34,,,,,,,0.7,0.4,0.6*34
$GPGSA,A,3,05,08,11,12,13,21,22,23,25,28,34,37,0.7,0.4,0.6*37
$GPGSA,A,3,38,42,43,60,,,,,,,,,0.7,0.4,0.6*3B
$GPGST,180042.00,1.411,0.460,0.329,355.475,0.459,0.330,0.726*59
$GPGBS,180042.00,2.765,2.163,4.456,66,0.0001,-4.183,6.551*76
$GPGRS,180042.00,1,0.4,0.1,-0.1,0.5,-0.0,-0.6,-0.3,0.0,-0.1,,,*47
$GPGRS,180042.00,1,2.2,-4.2,3.8,-1.3,-1.1,2.5,-0.2,-0.8,,,,*6E
$GPGRS,180042.00,1,0.1,0.3,0.2,-0.2,0.1,-0.7,,,,,,*45
$GPGRS,180042.00,1,1.2,0.8,0.4,-3.1,-0.6,-0.1,-0.2,-0.6,-1.1,0.6,-0.1,0.0*65
$GPGRS,180042.00,1,-0.3,-0.6,0.1,-0.9,,,,,,,,*61
$GPGSV,5,1,20,18,79,087,50,23,29,148,44,05,20,042,41,31,22,229,43*7D
$GPGSV,5,2,20,27,20,281,42,16,49,302,47,29,34,084,45,26,69,245,50*72
$GPGSV,5,3,20,28,07,207,38,10,02,176,,25,04,145,,36,35,170,45*7A
$GPGSV,5,4,20,58,13,245,37,40,23,133,35,34,31,208,42,49,34,195,44*7E
$GPGSV,5,5,20,57,08,111,38,41,07,108,34,61,03,257,38*48
$GLGSV,2,1,08,82,74,313,52,65,16,031,41,66,14,080,43,79,26,175,48*6D
$GLGSV,2,2,08,73,31,322,49,83,38,251,39,81,40,045,50,80,67,238,52*67
$GAGSV,3,1,09,21,65,290,48,26,12,222,39,23,15,313,,27,53,154,48*60
$GAGSV,3,2,09,15,57,056,47,13,64,209,48,09,01,355,35,30,05,140,20*6D
$GAGSV,3,3,09,34,07,046,36*56
$GBGSV,6,1,24,43,82,024,52,60,10,109,40,42,12,117,40,25,14,177,41*6D
$GBGSV,6,2,24,21,18,068,42,07,10,104,,38,28,041,43,05,22,129,38*6F
$GBGSV,6,3,24,50,18,093,,28,29,256,46,31,38,053,,37,37,298,47*63
$GBGSV,6,4,24,08,40,050,42,27,33,245,,34,34,068,46,23,48,224,49*6E
$GBGSV,6,5,24,13,44,060,45,11,59,057,48,12,07,068,36,02,07,106,34*63
$GBGSV,6,6,24,22,05,021,39,56,01,089,,58,02,327,,14,02,140,*69
$GPGGA,180042.00,,,,,0,00,,,M,,M,,*47
$PTNL,GGK,180042.00,010125,4742.1604239,N,01618.1000872,E,1,39,0.7,EHT751.5452,M*41
$GPGGQ,180042.00,010125,4742.1604239,N,01618.1000872,E,1,39,0.920,708.3386,M*37
$GPGFA,180042.00,4.373,5.954,0.460,0.329,355.475,0.726,,VVV*0E
$GPLLK,180042.00,010125,,M,,M,1,39,0.8,,M*06
$GNGMP,180042.00,,,,,DAAA,39,0.4,,,,*57
$GPGMP,180042.00,,,,,,09,,,,3.2,136*7E
$GLGMP,180042.00,,,,,,08,,,,,*78
$GAGMP,180042.00,,,,,,06,,,,,*7B
$GBGMP,180042.00,,,,,,16,,,,,*79
$PSSN,SNC,[0,324060000,2347]*47
$GPZDA,180047.00,01,01,2025,,*69
$GPDTM,W84,,00.0000000,N,00.0000000,E,00.0000000,W84*5F
$PSSN,TFM,180047.00,,,,*65
$GPRMC,180047.00,A,4742.1604238,N,01618.1000855,E,0.0,,010125,5.1,E,D*1F
$GPGLL,4742.1604238,N,01618.1000855,E,180047.00,A,D*6E
$GPGGA,180047.00,4742.1604238,N,01618.1000855,E,2,39,0.4,708.3423,M,43.2066,M,2.0,0136*47
$GNGNS,180047.00,4742.1604238,N,01618.1000855,E,DAAA,39,0.4,708.3423,43.2066,,*5D
$GPGNS,180047.00,,,,,,09,,,,2.0,136*78
$GLGNS,180047.00,,,,,,08,,,,,*7D
$GAGNS,180047.00,,,,,,06,,,,,*7E
$GBGNS,180047.00,,,,,,16,,,,,*7C
$GPLLQ,180047.00,010125,,M,,M,1,39,0.910,,M*19
$GPVTG,,T,,M,0.00,N,0.00,K,D*26
$GPHDT,,T*1B
$GPTHS,,V*0E
$GPROT,,V*08
$PSSN,HRP,180047.00,010125,,,,,,,00,0,,*6B
$PTNL,AVR,180047.00,,Yaw,,Tilt,,,,0,,00*3D
$GPGSA,A,3,05,16,18,23,26,27,28,29,31,,,,0.7,0.4,0.6*3F
$GPGSA,A,3,65,66,73,79,80,81,82,83,,,,,0.7,0.4,0.6*3E
$GPGSA,A,3,13,15,21,26,27,34,,,,,,,0.7,0.4,0.6*34
$GPGSA,A,3,05,08,11,12,13,21,22,23,25,28,34,37,0.7,0.4,0.6*37
$GPGSA,A,3,38,42,43,60,,,,,,,,,0.7,0.4,0.6*3B
$GPGST,180047.00,1.420,0.454,0.328,355.621,0.453,0.329,0.717*5B
$GPGBS,180047.00,2.694,2.068,4.242,27,0.0001,-0.790,0.997*70
$GPGRS,180047.00,1,0.0,0.0,-0.1,0.1,-0.4,-0.8,0.3,0.2,0.6,,,*4C
$GPGRS,180047.00,1,2.6,-4.2,3.5,-1.3,-0.8,2.1,-0.1,-2.2,,,,*65
$GPGRS,180047.00,1,0.0,0.2,0.1,-0.3,0.1,-0.5,,,,,,*40
$GPGRS,180047.00,1,1.1,0.7,0.2,-2.8,-0.7,0.4,-0.9,-0.5,-1.2,0.4,0.1,-0.1*43
$GPGRS,180047.00,1,-0.3,-0.5,0.1,-1.2,,,,,,,,*6D
$GPGSV,5,1,20,18,79,087,49,23,29,148,44,05,20,042,42,31,22,229,43*76
$GPGSV,5,2,20,27,20,281,42,16,49,302,47,29,34,084,46,26,69,245,50*71
$GPGSV,5,3,20,28,07,207,38,10,02,176,,25,04,145,,36,35,170,45*7A
$GPGSV,5,4,20,58,13,245,37,40,23,133,35,34,31,208,42,49,34,195,44*7E
$GPGSV,5,5,20,57,08,111,38,41,07,108,35,61,03,257,38*49
$GLGSV,2,1,08,82,74,313,52,65,16,031,41,66,14,080,43,79,26,175,48*6D
$GLGSV,2,2,08,73,31,322,48,81,40,045,50,83,38,251,39,80,67,238,53*67
$GAGSV,3,1,09,21,65,290,48,26,12,222,39,23,15,313,,27,53,154,48*60
$GAGSV,3,2,09,15,57,056,47,13,64,209,48,09,01,355,34,30,05,140,20*6C
$GAGSV,3,3,09,34,07,046,36*56
$GBGSV,6,1,24,43,82,024,52,60,10,109,40,42,12,117,40,25,14,177,41*6D
$GBGSV,6,2,24,21,18,068,43,07,10,104,,38,28,040,43,05,22,129,38*6F
$GBGSV,6,3,24,50,18,092,,28,29,256,46,31,38,053,,37,37,298,46*63
$GBGSV,6,4,24,08,40,050,42,27,33,245,,34,34,068,46,23,48,224,49*6E
$GBGSV,6,5,24,13,44,060,45,11,59,057,48,12,07,068,37,02,07,106,34*62
$GBGSV,6,6,24,22,05,021,38,56,01,089,,58,02,327,,14,02,140,*68
$GPGGA,180047.00,,,,,0,00,,,M,,M,,*42
$PTNL,GGK,180047.00,010125,4742.1604238,N,01618.1000855,E,1,39,0.7,EHT751.5489,M*46
$GPGGQ,180047.00,010125,4742.1604238,N,01618.1000855,E,1,39,0.910,708.3423,M*3D
$GPGFA,180047.00,4.316,5.880,0.454,0.328,355.621,0.717,,VVV*07
$GPLLK,180047.00,010125,,M,,M,1,39,0.8,,M*03
$GNGMP,180047.00,,,,,DAAA,39,0.4,,,,*52
$GPGMP,180047.00,,,,,,09,,,,2.0,136*78
$GLGMP,180047.00,,,,,,08,,,,,*7D
$GAGMP,180047.00,,,,,,06,,,,,*7E
$GBGMP,180047.00,,,,,,16,,,,,*7C
$PSSN,SNC,[0,324065000,2347]*42
$GPZDA,180052.00,01,01,2025,,*6D
$GPDTM,W84,,00.0000000,N,00.0000000,E,00.0000000,W84*5F
$PSSN,TFM,180052.00,,,,*61
$GPRMC,180052.00,A,4742.1604249,N,01618.1000847,E,0.0,,010125,5.1,E,D*1E
$GPGLL,4742.1604249,N,01618.1000847,E,180052.00,A,D*6F
$GPGGA,180052.00,4742.1604249,N,01618.1000847,E,2,39,0.4,708.3418,M,43.2066,M,2.6,0136*48
$GNGNS,180052.00,4742.1604249,N,01618.1000847,E,DAAA,39,0.4,708.3418,43.2066,,*54
$GPGNS,180052.00,,,,,,09,,,,2.6,136*7A
$GLGNS,180052.00,,,,,,08,,,,,*79
$GAGNS,180052.00,,,,,,06,,,,,*7A
$GBGNS,180052.00,,,,,,16,,,,,*78
$GPLLQ,180052.00,010125,,M,,M,1,39,0.896,,M*12
$GPVTG,,T,,M,0.00,N,0.01,K,D*27
$GPHDT,,T*1B
$GPTHS,,V*0E
$GPROT,,V*08
$PSSN,HRP,180052.00,010125,,,,,,,00,0,,*6F
$PTNL,AVR,180052.00,,Yaw,,Tilt,,,,0,,00*39
$GPGSA,A,3,05,16,18,23,26,27,28,29,31,,,,0.7,0.4,0.6*3F
$GPGSA,A,3,65,66,73,79,80,81,82,83,,,,,0.7,0.4,0.6*3E
$GPGSA,A,3,13,15,21,26,27,34,,,,,,,0.7,0.4,0.6*34
$GPGSA,A,3,05,08,11,12,13,21,22,23,25,28,34,37,0.7,0.4,0.6*37
$GPGSA,A,3,38,42,43,60,,,,,,,,,0.7,0.4,0.6*3B
$GPGST,180052.00,1.402,0.448,0.327,357.226,0.448,0.327,0.703*5D
$GPGBS,180052.00,2.722,2.064,4.296,66,0.0001,-4.412,6.549*7C
$GPGRS,180052.00,1,-0.1,0.3,-0.3,0.3,0.1,-0.6,0.2,-0.1,0.3,,,*6B
$GPGRS,180052.00,1,2.0,-4.4,3.7,-0.4,-0.6,2.4,0.3,-1.7,,,,*47
$GPGRS,180052.00,1,0.0,0.5,0.1,-0.3,0.1,-1.2,,,,,,*45
$GPGRS,180052.00,1,1.3,1.1,0.8,-2.1,-0.4,0.4,-1.4,-0.2,-1.2,0.4,0.3,-0.4*4E
$GPGRS,180052.00,1,-0.3,-0.8,-0.1,-1.2,,,,,,,,*49
$GPGSV,5,1,20,18,79,087,50,23,29,148,44,05,20,042,41,31,22,229,44*7A
$GPGSV,5,2,20,27,20,281,42,16,49,301,47,29,34,084,46,26,69,245,50*72
$GPGSV,5,3,20,28,07,207,38,10,02,176,,25,04,145,,36,35,170,45*7A
$GPGSV,5,4,20,58,13,245,37,40,23,133,35,34,31,208,42,49,34,195,44*7E
$GPGSV,5,5,20,57,08,111,38,41,07,108,34,61,03,257,38*48
$GLGSV,2,1,08,82,74,313,52,65,16,031,41,66,14,080,43,79,26,175,48*6D
$GLGSV,2,2,08,73,32,322,49,81,40,045,51,83,38,251,39,80,67,238,53*64
$GAGSV,3,1,09,21,65,290,48,26,12,222,39,23,15,313,,27,53,154,48*60
$GAGSV,3,2,09,15,57,056,46,13,64,209,48,09,01,355,34,30,05,140,20*6D
$GAGSV,3,3,09,34,07,046,36*56
$GBGSV,6,1,24,43,82,024,52,42,12,117,40,07,10,104,,25,14,177,41*65
$GBGSV,6,2,24,21,18,068,43,60,10,109,40,38,28,040,43,05,22,129,38*67
$GBGSV,6,3,24,50,18,092,,28,29,256,46,31,38,053,,37,37,298,46*63
$GBGSV,6,4,24,08,40,050,42,27,33,245,,34,34,069,46,23,48,224,49*6F
$GBGSV,6,5,24,13,44,060,45,11,59,057,48,14,02,140,,02,07,106,34*6E
$GBGSV,6,6,24,22,05,021,39,56,01,089,,58,02,327,,12,07,068,37*65
$GPGGA,180052.00,,,,,0,00,,,M,,M,,*46
$PTNL,GGK,180052.00,010125,4742.1604249,N,01618.1000847,E,1,39,0.7,EHT751.5483,M*4D
$GPGGQ,180052.00,010125,4742.1604249,N,01618.1000847,E,1,39,0.896,708.3418,M*3B
$GPGFA,180052.00,4.257,5.769,0.448,0.327,357.226,0.703,,VVV*09
$GPLLK,180052.00,010125,,M,,M,1,39,0.8,,M*07
$GNGMP,180052.00,,,,,DAAA,39,0.4,,,,*56
$GPGMP,180052.00,,,,,,09,,,,2.6,136*7A
$GLGMP,180052.00,,,,,,08,,,,,*79
$GAGMP,180052.00,,,,,,06,,,,,*7A
$GBGMP,180052.00,,,,,,16,,,,,*78
$PSSN,SNC,[0,324070000,2347]*46
$GPZDA,180057.00,01,01,2025,,*68
$GPDTM,W84,,00.0000000,N,00.0000000,E,00.0000000,W84*5F
$PSSN,TFM,180057.00,,,,*64
$GPRMC,180057.00,A,4742.1604264,N,01618.1000854,E,0.0,,010125,5.1,E,D*16
$GPGLL,4742.1604264,N,01618.1000854,E,180057.00,A,D*67
$GPGGA,180057.00,4742.1604264,N,01618.1000854,E,2,39,0.4,708.3415,M,43.2066,M,2.2,0136*49
$GNGNS,180057.00,4742.1604264,N,01618.1000854,E,DAAA,39,0.4,708.3415,43.2066,,*51
$GPGNS,180057.00,,,,,,09,,,,2.2,136*7B
$GLGNS,180057.00,,,,,,08,,,,,*7C
$GAGNS,180057.00,,,,,,06,,,,,*7F
$GBGNS,180057.00,,,,,,16,,,,,*7D
$GPLLQ,180057.00,010125,,M,,M,1,39,0.904,,M*1D
$GPVTG,,T,,M,0.00,N,0.00,K,D*26
$GPHDT,,T*1B
$GPTHS,,V*0E
$GPROT,,V*08
$PSSN,HRP,180057.00,010125,,,,,,,00,0,,*6A
$PTNL,AVR,180057.00,,Yaw,,Tilt,,,,0,,00*3C
$GPGSA,A,3,05,16,18,23,26,27,28,29,31,,,,0.7,0.4,0.6*3F
$GPGSA,A,3,65,66,73,79,80,81,82,83,,,,,0.7,0.4,0.6*3E
$GPGSA,A,3,13,15,21,26,27,34,,,,,,,0.7,0.4,0.6*34
$GPGSA,A,3,05,08,11,12,13,21,22,23,25,28,34,37,0.7,0.4,0.6*37
$GPGSA,A,3,38,42,43,60,,,,,,,,,0.7,0.4,0.6*3B
$GPGST,180057.00,1.382,0.451,0.328,355.815,0.450,0.328,0.711*5D
$GPGBS,180057.00,2.730,2.101,4.365,27,0.0001,-0.669,1.016*72
$GPGRS,180057.00,1,0.5,0.2,0.0,-0.1,-0.0,-0.7,0.4,-0.2,0.4,,,*68
$GPGRS,180057.00,1,1.2,-3.7,3.9,-0.0,-0.9,2.6,0.2,-1.5,,,,*43
$GPGRS,180057.00,1,0.2,0.4,0.2,0.2,0.0,-1.1,,,,,,*6E
$GPGRS,180057.00,1,1.7,1.4,1.2,-2.3,0.0,0.0,-1.6,-0.5,-1.3,0.4,0.3,-0.1*6F
$GPGRS,180057.00,1,-0.1,-1.0,0.1,-1.0,,,,,,,,*68
$GPGSV,5,1,20,18,79,086,50,23,29,148,44,05,20,042,41,31,22,229,43*7C
$GPGSV,5,2,20,27,20,281,42,16,49,301,47,29,34,084,46,26,69,245,50*72
$GPGSV,5,3,20,28,07,207,38,10,02,176,,25,04,145,,36,35,170,45*7A
$GPGSV,5,4,20,58,13,245,37,40,23,133,35,34,31,208,42,49,34,195,44*7E
$GPGSV,5,5,20,57,08,111,38,41,07,108,34,61,03,257,38*48
$GLGSV,2,1,08,82,74,313,52,65,16,031,40,66,14,080,44,79,26,175,48*6B
$GLGSV,2,2,08,73,32,322,48,81,40,045,50,83,38,251,39,80,67,238,53*64
$GAGSV,3,1,09,21,65,290,48,26,12,222,39,23,15,313,,27,53,154,48*60
$GAGSV,3,2,09,15,57,056,46,13,64,209,48,09,01,355,34,30,05,140,20*6D
$GAGSV,3,3,09,34,07,046,36*56
$GBGSV,6,1,24,43,82,024,52,42,12,117,40,07,10,104,,25,14,177,41*65
$GBGSV,6,2,24,21,18,068,43,60,10,109,40,38,28,040,43,05,22,129,38*67
$GBGSV,6,3,24,50,18,092,,28,29,256,46,31,38,053,,37,37,298,46*63
$GBGSV,6,4,24,08,40,050,42,27,33,245,,34,34,069,46,23,48,224,49*6F
$GBGSV,6,5,24,13,44,060,45,11,59,057,48,14,02,140,,02,07,106,34*6E
$GBGSV,6,6,24,22,05,021,39,56,01,089,,58,02,327,,12,07,068,37*65
$GPGGA,180057.00,,,,,0,00,,,M,,M,,*43
$PTNL,GGK,180057.00,010125,4742.1604264,N,01618.1000854,E,1,39,0.7,EHT751.5480,M*46
$GPGGQ,180057.00,010125,4742.1604264,N,01618.1000854,E,1,39,0.904,708.3415,M*34
$GPGFA,180057.00,4.285,5.833,0.451,0.328,355.815,0.711,,VVV*0F
$GPLLK,180057.00,010125,,M,,M,1,39,0.8,,M*02
$GNGMP,180057.00,,,,,DAAA,39,0.4,,,,*53
$GPGMP,180057.00,,,,,,09,,,,2.2,136*7B
$GLGMP,180057.00,,,,,,08,,,,,*7C
$GAGMP,180057.00,,,,,,06,,,,,*7F
$GBGMP,180057.00,,,,,,16,,,,,*7D
$PSSN,SNC,[0,324075000,2347]*43
$GPZDA,180102.00,01,01,2025,,*69
$GPDTM,W84,,00.0000000,N,00.0000000,E,00.0000000,W84*5F
$PSSN,TFM,180102.00,,,,*65
$GPRMC,180102.00,A,4742.1604267,N,01618.1000869,E,0.0,,010125,5.1,E,D*1A
$GPGLL,4742.1604267,N,01618.1000869,E,180102.00,A,D*6B
$GPGGA,180102.00,4742.1604267,N,01618.1000869,E,2,39,0.4,708.3413,M,43.2066,M,3.2,0136*42
$GNGNS,180102.00,4742.1604267,N,01618.1000869,E,DAAA,39,0.4,708.3413,43.2066,,*5B
$GPGNS,180102.00,,,,,,09,,,,3.2,136*7B
$GLGNS,180102.00,,,,,,08,,,,,*7D
$GAGNS,180102.00,,,,,,06,,,,,*7E
$GBGNS,180102.00,,,,,,16,,,,,*7C
$GPLLQ,180102.00,010125,,M,,M,1,39,0.914,,M*1D
$GPVTG,,T,,M,0.00,N,0.01,K,D*27
$GPHDT,,T*1B
$GPTHS,,V*0E
$GPROT,,V*08
$PSSN,HRP,180102.00,010125,,,,,,,00,0,,*6B
$PTNL,AVR,180102.00,,Yaw,,Tilt,,,,0,,00*3D
$GPGSA,A,3,05,16,18,23,26,27,28,29,31,,,,0.7,0.4,0.6*3F
$GPGSA,A,3,65,66,73,79,80,81,82,83,,,,,0.7,0.4,0.6*3E
$GPGSA,A,3,13,15,21,26,27,34,,,,,,,0.7,0.4,0.6*34
$GPGSA,A,3,05,08,11,12,13,21,22,23,25,28,34,37,0.7,0.4,0.6*37
$GPGSA,A,3,38,42,43,60,,,,,,,,,0.7,0.4,0.6*3B
$GPGST,180102.00,1.170,0.456,0.327,354.408,0.455,0.329,0.721*5D
$GPGBS,180102.00,2.764,2.130,4.441,27,0.0001,-0.652,1.028*74
$GPGRS,180102.00,1,0.0,0.2,-0.0,-0.2,0.1,-0.7,0.0,-0.2,0.3,,,*6D
$GPGRS,180102.00,1,1.1,-2.2,3.1,0.0,-1.0,2.5,0.3,-0.9,,,,*67
$GPGRS,180102.00,1,0.2,0.4,0.4,-0.1,0.3,-1.5,,,,,,*40
$GPGRS,180102.00,1,1.5,1.6,1.0,-2.5,0.1,0.3,-1.0,-0.4,-1.2,0.5,0.6,0.2*44
$GPGRS,180102.00,1,0.2,-0.8,0.2,-0.7,,,,,,,,*4B
$GPGSV,5,1,20,18,79,086,50,23,29,148,44,05,20,042,41,31,22,229,44*7B
$GPGSV,5,2,20,27,20,281,42,16,49,301,47,29,34,084,46,26,69,245,50*72
$GPGSV,5,3,20,28,07,207,38,10,02,176,,25,04,145,,36,35,170,45*7A
$GPGSV,5,4,20,58,13,245,37,40,23,133,35,34,31,208,42,49,34,195,44*7E
$GPGSV,5,5,20,57,08,111,38,41,07,108,34,61,03,257,38*48
$GLGSV,2,1,08,82,74,314,52,65,16,030,39,66,14,080,44,79,26,175,48*63
$GLGSV,2,2,08,73,32,322,48,81,40,045,50,83,38,251,40,80,67,238,52*6B
$GAGSV,3,1,09,21,65,290,48,26,12,222,39,23,15,313,,27,53,154,47*6F
$GAGSV,3,2,09,15,57,056,46,13,64,209,48,09,01,355,33,30,04,140,20*6B
$GAGSV,3,3,09,34,07,046,36*56
$GBGSV,6,1,24,43,82,024,52,42,12,117,40,07,10,104,,25,14,177,41*65
$GBGSV,6,2,24,21,18,068,43,60,10,109,40,38,28,040,43,05,22,129,39*66
$GBGSV,6,3,24,50,18,092,,28,29,256,46,31,38,053,,37,37,298,47*62
$GBGSV,6,4,24,08,40,050,42,27,33,245,,34,34,069,45,23,48,224,49*6C
$GBGSV,6,5,24,13,44,060,45,11,59,057,48,14,02,140,,02,07,106,35*6F
$GBGSV,6,6,24,22,05,021,38,56,01,089,,58,02,327,,12,07,068,37*64
$GPGGA,180102.00,,,,,0,00,,,M,,M,,*42
$PTNL,GGK,180102.00,010125,4742.1604267,N,01618.1000869,E,1,39,0.7,EHT751.5478,M*4D
$GPGGQ,180102.00,010125,4742.1604267,N,01618.1000869,E,1,39,0.914,708.3413,M*3F
$GPGFA,180102.00,4.331,5.915,0.456,0.327,354.408,0.721,,VVV*0F
$GPLLK,180102.00,010125,,M,,M,1,39,0.8,,M*03
$GNGMP,180102.00,,,,,DAAA,39,0.4,,,,*52
$GPGMP,180102.00,,,,,,09,,,,3.2,136*7B
$GLGMP,180102.00,,,,,,08,,,,,*7D
$GAGMP,180102.00,,,,,,06,,,,,*7E
$GBGMP,180102.00,,,,,,16,,,,,*7C
$PSSN,SNC,[0,324080000,2347]*49
$GPZDA,180107.00,01,01,2025,,*6C
$GPDTM,W84,,00.0000000,N,00.0000000,E,00.0000000,W84*5F
$PSSN,TFM,180107.00,,,,*60
$GPRMC,180107.00,A,4742.1604271,N,01618.1000872,E,0.0,,010125,5.1,E,D*12
$GPGLL,4742.1604271,N,01618.1000872,E,180107.00,A,D*63
$GPGGA,180107.00,4742.1604271,N,01618.1000872,E,2,39,0.4,708.3375,M,43.2066,M,2.0,0136*4E
$GNGNS,180107.00,4742.1604271,N,01618.1000872,E,DAAA,39,0.4,708.3375,43.2066,,*54
$GPGNS,180107.00,,,,,,09,,,,2.0,136*7D
$GLGNS,180107.00,,,,,,08,,,,,*78
$GAGNS,180107.00,,,,,,06,,,,,*7B
$GBGNS,180107.00,,,,,,16,,,,,*79
$GPLLQ,180107.00,010125,,M,,M,1,39,0.911,,M*1D
$GPVTG,,T,,M,0.00,N,0.01,K,D*27
$GPHDT,,T*1B
$GPTHS,,V*0E
$GPROT,,V*08
$PSSN,HRP,180107.00,010125,,,,,,,00,0,,*6E
$PTNL,AVR,180107.00,,Yaw,,Tilt,,,,0,,00*38
$GPGSA,A,3,05,16,18,23,26,27,28,29,31,,,,0.7,0.4,0.6*3F
$GPGSA,A,3,65,66,73,79,80,81,82,83,,,,,0.7,0.4,0.6*3E
$GPGSA,A,3,13,15,21,26,27,34,,,,,,,0.7,0.4,0.6*34
$GPGSA,A,3,05,08,11,12,13,21,22,23,25,28,34,37,0.7,0.4,0.6*37
$GPGSA,A,3,38,42,43,60,,,,,,,,,0.7,0.4,0.6*3B
$GPGST,180107.00,1.181,0.454,0.329,355.707,0.454,0.330,0.717*5B
$GPGBS,180107.00,2.698,2.070,4.232,27,0.0001,-1.003,0.996*7A
$GPGRS,180107.00,1,0.4,-0.0,0.1,-0.0,0.2,-1.0,0.0,-0.2,0.3,,,*68
$GPGRS,180107.00,1,1.3,-3.0,3.8,0.2,-1.0,1.8,0.2,-1.0,,,,*6F
$GPGRS,180107.00,1,-0.2,0.2,0.3,-0.0,0.1,-1.3,,,,,,*6C
$GPGRS,180107.00,1,1.3,1.4,0.3,-1.7,-0.2,0.7,-1.3,-0.2,-1.0,0.1,0.4,0.3*6C
$GPGRS,180107.00,1,-0.0,-0.3,0.1,-1.1,,,,,,,,*6E
$GPGSV,5,1,20,18,79,086,50,23,29,148,43,05,20,042,42,31,22,229,43*78
$GPGSV,5,2,20,27,20,281,42,16,49,301,47,29,34,084,46,26,69,245,50*72
$GPGSV,5,3,20,28,07,207,37,10,02,176,,25,04,145,,36,35,170,45*75
$GPGSV,5,4,20,58,13,245,37,40,23,133,36,34,31,208,42,49,34,195,44*7D
$GPGSV,5,5,20,57,08,111,38,41,07,108,34,61,03,257,38*48
$GLGSV,2,1,08,82,74,314,52,65,16,030,39,66,14,080,44,79,26,175,48*63
$GLGSV,2,2,08,73,32,322,48,81,40,045,50,83,38,251,39,80,67,238,52*65
$GAGSV,3,1,09,21,65,290,48,26,12,222,39,23,15,313,,27,53,154,47*6F
$GAGSV,3,2,09,15,57,056,46,13,64,209,48,09,01,355,33,30,04,140,20*6B
$GAGSV,3,3,09,34,07,046,36*56
$GBGSV,6,1,24,43,82,024,52,42,12,117,40,07,10,104,,25,14,177,42*66
$GBGSV,6,2,24,21,18,068,43,60,10,109,40,38,28,040,43,05,22,129,39*66
$GBGSV,6,3,24,50,18,092,,28,29,256,46,31,38,053,,37,37,298,47*62
$GBGSV,6,4,24,08,40,050,42,27,33,245,,34,34,069,46,23,48,223,50*60
$GBGSV,6,5,24,13,44,060,45,11,59,057,48,14,02,140,,02,07,106,34*6E
$GBGSV,6,6,24,22,05,021,38,56,01,089,,58,02,327,,12,07,068,36*65
$GPGGA,180107.00,,,,,0,00,,,M,,M,,*47
$PTNL,GGK,180107.00,010125,4742.1604271,N,01618.1000872,E,1,39,0.7,EHT751.5441,M*4F
$GPGGQ,180107.00,010125,4742.1604271,N,01618.1000872,E,1,39,0.911,708.3375,M*35
$GPGFA,180107.00,4.320,5.883,0.454,0.329,355.707,0.717,,VVV*00
$GPLLK,180107.00,010125,,M,,M,1,39,0.8,,M*06
$GNGMP,180107.00,,,,,DAAA,39,0.4,,,,*57
$GPGMP,180107.00,,,,,,09,,,,2.0,136*7D
$GLGMP,180107.00,,,,,,08,,,,,*78
$GAGMP,180107.00,,,,,,06,,,,,*7B
$GBGMP,180107.00,,,,,,16,,,,,*79
$PSSN,SNC,[0,324085000,2347]*4C
$GPZDA,180112.00,01,01,2025,,*68
$GPDTM,W84,,00.0000000,N,00.0000000,E,00.0000000,W84*5F
$PSSN,TFM,180112.00,,,,*64
$GPRMC,180112.00,A,4742.1604283,N,01618.1000833,E,0.0,,010125,5.1,E,D*1E
$GPGLL,4742.1604283,N,01618.1000833,E,180112.00,A,D*6F
$GPGGA,180112.00,4742.1604283,N,01618.1000833,E,2,39,0.4,708.3363,M,43.2066,M,2.6,0136*43
$GNGNS,180112.00,4742.1604283,N,01618.1000833,E,DAAA,39,0.4,708.3363,43.2066,,*5F
$GPGNS,180112.00,,,,,,09,,,,2.6,136*7F
$GLGNS,180112.00,,,,,,08,,,,,*7C
$GAGNS,180112.00,,,,,,06,,,,,*7F
$GBGNS,180112.00,,,,,,16,,,,,*7D
$GPLLQ,180112.00,010125,,M,,M,1,39,0.896,,M*17
$GPVTG,,T,,M,0.00,N,0.00,K,D*26
$GPHDT,,T*1B
$GPTHS,,V*0E
$GPROT,,V*08
$PSSN,HRP,180112.00,010125,,,,,,,00,0,,*6A
$PTNL,AVR,180112.00,,Yaw,,Tilt,,,,0,,00*3C
$GPGSA,A,3,05,16,18,23,26,27,28,29,31,,,,0.7,0.4,0.6*3F
$GPGSA,A,3,65,66,73,79,80,81,82,83,,,,,0.7,0.4,0.6*3E
$GPGSA,A,3,13,15,21,26,27,34,,,,,,,0.7,0.4,0.6*34
$GPGSA,A,3,05,08,11,12,13,21,22,23,25,28,34,37,0.7,0.4,0.6*37
$GPGSA,A,3,38,42,43,60,,,,,,,,,0.7,0.4,0.6*3B
$GPGST,180112.00,1.356,0.448,0.327,357.298,0.448,0.327,0.704*5C
$GPGBS,180112.00,2.726,2.065,4.287,27,0.0001,-1.119,1.004*79
$GPGRS,180112.00,1,0.3,0.2,-0.0,0.3,0.1,-1.1,0.2,0.0,-0.0,,,*47
$GPGRS,180112.00,1,0.9,-3.7,3.8,0.1,-1.0,2.7,0.0,-1.7,,,,*6D
$GPGRS,180112.00,1,0.1,0.3,0.1,-0.5,0.1,-1.3,,,,,,*40
$GPGRS,180112.00,1,1.6,1.3,0.3,-2.7,-0.4,0.3,-0.2,-0.2,-1.4,0.0,0.3,0.1*6B
$GPGRS,180112.00,1,-0.0,-0.0,0.2,-1.1,,,,,,,,*6A
$GPGSV,5,1,20,18,79,086,50,23,29,148,43,05,20,042,42,27,20,281,42*7E
$GPGSV,5,2,20,31,22,228,43,16,49,301,47,29,34,084,45,26,69,244,50*77
$GPGSV,5,3,20,28,07,207,37,25,04,145,,10,02,176,,36,35,170,45*75
$GPGSV,5,4,20,58,13,245,37,40,23,133,35,34,31,208,42,49,34,195,44*7E
$GPGSV,5,5,20,57,08,111,38,41,07,108,34,61,03,257,38*48
$GLGSV,2,1,08,82,74,314,52,65,16,030,41,66,14,080,43,79,25,175,48*68
$GLGSV,2,2,08,73,32,322,48,81,40,045,51,83,38,251,39,80,67,238,53*65
$GAGSV,3,1,09,21,65,290,48,26,12,222,39,23,15,313,,27,53,154,47*6F
$GAGSV,3,2,09,15,57,056,46,13,64,209,48,09,01,355,34,30,04,140,21*6D
$GAGSV,3,3,09,34,07,046,36*56
$GBGSV,6,1,24,43,82,025,52,42,12,117,40,07,10,104,,25,14,177,42*67
$GBGSV,6,2,24,21,18,068,44,60,10,109,40,38,28,040,43,05,22,129,38*60
$GBGSV,6,3,24,50,18,092,,28,29,256,46,31,38,053,,37,37,298,46*63
$GBGSV,6,4,24,08,40,050,42,27,33,245,,34,34,069,45,23,48,223,49*6B
$GBGSV,6,5,24,13,44,060,44,11,59,057,48,14,02,140,,02,07,106,34*6F
$GBGSV,6,6,24,22,05,021,38,56,01,089,,58,02,327,,12,07,068,36*65
$GPGGA,180112.00,,,,,0,00,,,M,,M,,*43
$PTNL,GGK,180112.00,010125,4742.1604283,N,01618.1000833,E,1,39,0.7,EHT751.5428,M*4C
$GPGGQ,180112.00,010125,4742.1604283,N,01618.1000833,E,1,39,0.896,708.3363,M*30
$GPGFA,180112.00,4.261,5.772,0.448,0.327,357.298,0.704,,VVV*01
$GPLLK,180112.00,010125,,M,,M,1,39,0.8,,M*02
$GNGMP,180112.00,,,,,DAAA,39,0.4,,,,*53
$GPGMP,180112.00,,,,,,09,,,,2.6,136*7F
$GLGMP,180112.00,,,,,,08,,,,,*7C
$GAGMP,180112.00,,,,,,06,,,,,*7F
$GBGMP,180112.00,,,,,,16,,,,,*7D
$PSSN,SNC,[0,324090000,2347]*48
$GPZDA,180117.00,01,01,2025,,*6D
$GPDTM,W84,,00.0000000,N,00.0000000,E,00.0000000,W84*5F
$PSSN,TFM,180117.00,,,,*61
$GPRMC,180117.00,A,4742.1604293,N,01618.1000796,E,0.0,,010125,5.1,E,D*1A
$GPGLL,4742.1604293,N,01618.1000796,E,180117.00,A,D*6B
$GPGGA,180117.00,4742.1604293,N,01618.1000796,E,2,39,0.4,708.3377,M,43.2066,M,2.2,0136*46
$GNGNS,180117.00,4742.1604293,N,01618.1000796,E,DAAA,39,0.4,708.3377,43.2066,,*5E
$GPGNS,180117.00,,,,,,09,,,,2.2,136*7E
$GLGNS,180117.00,,,,,,08,,,,,*79
$GAGNS,180117.00,,,,,,06,,,,,*7A
$GBGNS,180117.00,,,,,,16,,,,,*78
$GPLLQ,180117.00,010125,,M,,M,1,39,0.904,,M*18
$GPVTG,,T,,M,0.00,N,0.00,K,D*26
$GPHDT,,T*1B
$GPTHS,,V*0E
$GPROT,,V*08
$PSSN,HRP,180117.00,010125,,,,,,,00,0,,*6F
$PTNL,AVR,180117.00,,Yaw,,Tilt,,,,0,,00*39
$GPGSA,A,3,05,16,18,23,26,27,28,29,31,,,,0.7,0.4,0.6*3F
$GPGSA,A,3,65,66,73,79,80,81,82,83,,,,,0.7,0.4,0.6*3E
$GPGSA,A,3,13,15,21,26,27,34,,,,,,,0.7,0.4,0.6*34
$GPGSA,A,3,05,08,11,12,13,21,22,23,25,28,34,37,0.7,0.4,0.6*37
$GPGSA,A,3,38,42,43,60,,,,,,,,,0.7,0.4,0.6*3B
$GPGST,180117.00,1.392,0.451,0.328,355.917,0.451,0.329,0.712*59
$GPGBS,180117.00,2.734,2.102,4.356,23,0.0001,0.451,0.829*55
$GPGRS,180117.00,1,0.4,0.1,-0.2,0.5,-0.2,-0.5,0.5,0.0,0.1,,,*42
$GPGRS,180117.00,1,2.0,-3.6,3.3,-0.5,-0.9,2.9,-0.0,-1.4,,,,*68
$GPGRS,180117.00,1,0.1,0.6,0.1,-0.3,0.3,-1.2,,,,,,*45
$GPGRS,180117.00,1,1.5,1.2,0.3,-3.6,-0.3,-0.0,-0.1,-0.4,-1.3,0.3,0.1,-0.1*6B
$GPGRS,180117.00,1,-0.0,-0.1,0.1,-1.0,,,,,,,,*6C
$GPGSV,5,1,20,18,79,086,50,23,29,148,43,05,20,042,41,27,21,281,42*7C
$GPGSV,5,2,20,31,22,228,43,16,49,301,48,29,34,084,45,26,69,244,50*78
$GPGSV,5,3,20,28,07,207,37,25,04,145,,10,02,176,,36,35,170,45*75
$GPGSV,5,4,20,58,13,245,37,40,23,133,35,34,31,208,42,49,34,195,44*7E
$GPGSV,5,5,20,57,08,111,37,41,07,108,34,61,03,257,38*47
$GLGSV,2,1,08,82,74,314,51,65,16,030,40,66,14,080,43,79,25,175,48*6A
$GLGSV,2,2,08,73,32,322,48,81,40,045,50,83,38,251,39,80,67,237,53*6B
$GAGSV,3,1,09,21,65,290,48,26,12,222,39,23,16,313,,27,53,154,47*6C
$GAGSV,3,2,09,15,57,056,46,13,64,209,48,09,01,355,33,30,04,140,22*69
$GAGSV,3,3,09,34,07,046,37*57
$GBGSV,6,1,24,43,82,025,52,42,12,117,41,60,10,109,40,25,14,177,42*6E
$GBGSV,6,2,24,21,18,068,44,50,18,092,,38,28,040,43,05,22,129,38*6C
$GBGSV,6,3,24,28,29,256,46,31,38,053,,37,37,298,46,08,40,050,42*6B
$GBGSV,6,4,24,27,33,245,,34,34,069,46,23,48,223,49,13,44,060,44*63
$GBGSV,6,5,24,11,59,057,48,22,05,021,38,14,02,140,,02,07,106,34*66
$GBGSV,6,6,24,12,07,068,36,56,01,089,,58,02,327,,07,10,104,*6B
$GPGGA,180117.00,,,,,0,00,,,M,,M,,*46
$PTNL,GGK,180117.00,010125,4742.1604293,N,01618.1000796,E,1,39,0.7,EHT751.5443,M*45
$GPGGQ,180117.00,010125,4742.1604293,N,01618.1000796,E,1,39,0.904,708.3377,M*3B
$GPGFA,180117.00,4.288,5.836,0.451,0.328,355.917,0.712,,VVV*02
$GPLLK,180117.00,010125,,M,,M,1,39,0.8,,M*07
