$GPZDA,114442.00,01,01,2025,,*65
$GPDTM,W84,,00.0000000,N,00.0000000,E,00.0000000,W84*5F
$PSSN,TFM,114442.00,,,,*69
$GPRMC,114442.00,A,4742.1600122,N,01618.0999630,E,0.0,,010125,5.1,E,D*1A
$GPGLL,4742.1600122,N,01618.0999630,E,114442.00,A,D*6B
$GPGGA,114442.00,4742.1600122,N,01618.0999630,E,2,40,0.4,707.4345,M,43.2066,M,2.8,0136*4B
$GNGNS,114442.00,4742.1600122,N,01618.0999630,E,DAAA,40,0.4,707.4345,43.2066,,*59
$GPGNS,114442.00,,,,,,10,,,,2.8,136*74
$GLGNS,114442.00,,,,,,09,,,,,*70
$GAGNS,114442.00,,,,,,09,,,,,*7D
$GBGNS,114442.00,,,,,,12,,,,,*74
$GPLLQ,114442.00,010125,,M,,M,1,40,0.889,,M*1A
$GPVTG,,T,,M,0.01,N,0.01,K,D*26
$GPHDT,,T*1B
$GPTHS,,V*0E
$GPROT,,V*08
$PSSN,HRP,114442.00,010125,,,,,,,00,0,,*67
$PTNL,AVR,114442.00,,Yaw,,Tilt,,,,0,,00*31
$GPGSA,A,3,06,10,12,13,15,17,19,24,25,32,,,0.7,0.4,0.6*3B
$GPGSA,A,3,66,67,68,76,77,78,85,86,87,,,,0.7,0.4,0.6*3A
$GPGSA,A,3,02,07,08,10,11,25,29,30,36,,,,0.7,0.4,0.6*31
$GPGSA,A,3,05,07,10,14,24,26,33,35,40,42,45,60,0.7,0.4,0.6*30
$GPGST,114442.00,2.445,0.443,0.348,333.714,0.426,0.369,0.687*5E
$GPGBS,114442.00,2.795,2.186,4.752,77,0.0001,-7.162,6.075*73
$GPGRS,114442.00,1,-1.8,-0.2,0.2,-0.1,0.2,0.6,-0.2,-0.1,-0.6,0.1,,*40
$GPGRS,114442.00,1,-3.1,6.5,6.3,-2.8,-7.2,-3.2,2.8,1.2,-2.1,,,*4B
$GPGRS,114442.00,1,0.2,0.6,0.5,-0.7,-0.9,-0.8,-0.5,0.5,-0.9,,,*45
$GPGRS,114442.00,1,1.6,0.7,0.4,1.2,0.1,-1.9,0.3,-0.7,-0.9,-0.1,-0.5,-2.3*4E
$GPGSV,6,1,22,24,87,272,51,13,11,162,39,25,15,251,40,32,11,324,41*79
$GPGSV,6,2,22,22,20,062,,15,27,193,44,10,12,295,40,17,27,048,44*76
$GPGSV,6,3,22,19,49,078,47,12,55,250,49,06,09,108,38,23,05,256,37*70
$GPGSV,6,4,22,14,00,067,33,36,35,170,45,58,13,245,36,40,23,133,37*72
$GPGSV,6,5,22,34,31,208,43,49,34,195,45,57,07,111,38,41,07,108,35*76
$GPGSV,6,6,22,61,03,257,38*46
$GLGSV,3,1,09,77,66,330,46,76,44,060,49,78,17,274,47,66,18,201,46*65
$GLGSV,3,2,09,87,18,133,45,85,18,024,44,68,30,322,49,86,33,082,48*62
$GLGSV,3,3,09,67,46,257,51*5B
$GAGSV,3,1,12,02,69,055,48,07,50,288,47,08,49,196,47,25,17,062,39*6C
$GAGSV,3,2,12,11,13,054,36,30,53,248,47,12,02,007,30,03,08,163,30*6D
$GAGSV,3,3,12,27,04,245,37,29,07,324,38,10,09,028,37,36,09,101,38*6E
$GBGSV,5,1,20,26,62,077,51,44,21,156,,40,16,039,41,05,20,130,39*6B
$GBGSV,5,2,20,42,18,215,43,41,16,323,,07,20,051,39,14,30,241,43*6D
$GBGSV,5,3,20,33,33,272,46,35,38,105,48,10,32,057,41,56,38,059,*6C
$GBGSV,5,4,20,24,60,288,51,25,59,279,,12,03,171,,23,07,266,*6A
$GBGSV,5,5,20,45,09,090,40,50,04,195,,02,04,109,31,60,07,111,40*68
$GPGGA,114442.00,,,,,0,00,,,M,,M,,*4E
$PTNL,GGK,114442.00,010125,4742.1600122,N,01618.0999630,E,1,40,0.7,EHT750.6411,M*4E
$GPGGQ,114442.00,010125,4742.1600122,N,01618.0999630,E,1,40,0.889,707.4345,M*38
$GPGFA,114442.00,4.216,5.634,0.443,0.348,333.714,0.687,,VVV*04
$GPLLK,114442.00,010125,,M,,M,1,40,0.8,,M*01
$GNGMP,114442.00,,,,,DAAA,40,0.4,,,,*50
$GPGMP,114442.00,,,,,,10,,,,2.8,136*74
$GLGMP,114442.00,,,,,,09,,,,,*70
$GAGMP,114442.00,,,,,,09,,,,,*7D
$GBGMP,114442.00,,,,,,12,,,,,*74
$PSSN,SNC,[0,301500000,2347]*43
$GPZDA,114447.00,01,01,2025,,*60
$GPDTM,W84,,00.0000000,N,00.0000000,E,00.0000000,W84*5F
$PSSN,TFM,114447.00,,,,*6C
$GPRMC,114447.00,A,4742.1600118,N,01618.0999619,E,0.0,,010125,5.1,E,D*1D
$GPGLL,4742.1600118,N,01618.0999619,E,114447.00,A,D*6C
$GPGGA,114447.00,4742.1600118,N,01618.0999619,E,2,40,0.4,707.4371,M,43.2066,M,3.3,0136*41
$GNGNS,114447.00,4742.1600118,N,01618.0999619,E,DAAA,40,0.4,707.4371,43.2066,,*59
$GPGNS,114447.00,,,,,,10,,,,3.3,136*7B
$GLGNS,114447.00,,,,,,09,,,,,*75
$GAGNS,114447.00,,,,,,09,,,,,*78
$GBGNS,114447.00,,,,,,12,,,,,*71
$GPLLQ,114447.00,010125,,M,,M,1,40,0.900,,M*1F
$GPVTG,,T,,M,0.00,N,0.00,K,D*26
$GPHDT,,T*1B
$GPTHS,,V*0E
$GPROT,,V*08
$PSSN,HRP,114447.00,010125,,,,,,,00,0,,*62
$PTNL,AVR,114447.00,,Yaw,,Tilt,,,,0,,00*34
$GPGSA,A,3,06,10,12,13,15,17,19,24,25,32,,,0.7,0.4,0.6*3B
$GPGSA,A,3,66,67,68,76,77,78,85,86,87,,,,0.7,0.4,0.6*3A
$GPGSA,A,3,02,07,08,10,11,25,29,30,36,,,,0.7,0.4,0.6*31
$GPGSA,A,3,05,07,10,14,24,26,33,35,40,42,45,60,0.7,0.4,0.6*30
$GPGST,114447.00,2.509,0.447,0.354,333.625,0.430,0.374,0.697*52
$GPGBS,114447.00,2.801,2.198,4.807,77,0.0001,-7.170,6.075*77
$GPGRS,114447.00,1,-2.3,0.5,0.0,0.2,0.1,0.1,0.1,-0.3,-0.5,0.1,,*60
$GPGRS,114447.00,1,-2.5,6.7,6.5,-2.6,-7.2,-2.3,4.0,1.2,-2.5,,,*4B
$GPGRS,114447.00,1,0.2,0.5,0.5,-0.9,-0.7,-0.5,-0.4,0.6,-0.8,,,*4D
$GPGRS,114447.00,1,1.4,0.4,0.5,1.6,0.1,-1.9,-0.3,-1.4,-0.7,-0.1,-0.6,-2.5*6B
$GPGSV,6,1,22,24,87,272,51,13,11,162,39,25,15,251,40,32,11,324,41*79
$GPGSV,6,2,22,22,20,062,,15,27,193,44,10,12,295,40,17,27,047,44*79
$GPGSV,6,3,22,19,49,078,47,12,55,250,49,06,09,108,37,23,05,256,38*70
$GPGSV,6,4,22,14,00,067,33,36,35,170,45,58,13,245,37,40,23,133,37*73
$GPGSV,6,5,22,34,31,208,43,49,34,195,45,57,07,111,38,41,07,108,35*76
$GPGSV,6,6,22,61,03,257,38*46
$GLGSV,3,1,09,77,66,330,46,76,44,060,50,78,17,274,47,66,18,201,47*6C
$GLGSV,3,2,09,87,18,133,44,85,17,024,45,68,30,322,49,86,33,082,47*62
$GLGSV,3,3,09,67,46,257,51*5B
$GAGSV,3,1,12,02,69,055,48,07,50,288,46,08,49,196,47,25,17,062,39*6D
$GAGSV,3,2,12,11,13,054,36,30,53,248,47,12,02,007,30,03,08,163,30*6D
$GAGSV,3,3,12,27,04,245,36,29,07,324,37,10,09,028,37,36,09,101,38*60
$GBGSV,5,1,20,26,62,077,51,44,21,156,,40,16,039,41,05,20,130,39*6B
$GBGSV,5,2,20,42,18,215,43,41,16,323,,07,20,051,39,14,29,241,43*65
$GBGSV,5,3,20,33,33,272,46,35,39,105,48,10,32,057,42,56,38,059,*6E
$GBGSV,5,4,20,24,60,288,51,25,59,279,,12,03,171,,23,07,266,*6A
$GBGSV,5,5,20,45,09,090,41,50,04,195,,02,04,109,31,60,07,111,40*69
$GPGGA,114447.00,,,,,0,00,,,M,,M,,*4B
$PTNL,GGK,114447.00,010125,4742.1600118,N,01618.0999619,E,1,40,0.7,EHT750.6436,M*4C
$GPGGQ,114447.00,010125,4742.1600118,N,01618.0999619,E,1,40,0.900,707.4371,M*38
$GPGFA,114447.00,4.246,5.716,0.447,0.354,333.625,0.697,,VVV*0E
$GPLLK,114447.00,010125,,M,,M,1,40,0.8,,M*04
$GNGMP,114447.00,,,,,DAAA,40,0.4,,,,*55
$GPGMP,114447.00,,,,,,10,,,,3.3,136*7B
$GLGMP,114447.00,,,,,,09,,,,,*75
$GAGMP,114447.00,,,,,,09,,,,,*78
$GBGMP,114447.00,,,,,,12,,,,,*71
$PSSN,SNC,[0,301505000,2347]*46
$GPZDA,114452.00,01,01,2025,,*64
$GPDTM,W84,,00.0000000,N,00.0000000,E,00.0000000,W84*5F
$PSSN,TFM,114452.00,,,,*68
$GPRMC,114452.00,A,4742.1600112,N,01618.0999627,E,0.0,,010125,5.1,E,D*1E
$GPGLL,4742.1600112,N,01618.0999627,E,114452.00,A,D*6F
$GPGGA,114452.00,4742.1600112,N,01618.0999627,E,2,40,0.4,707.4385,M,43.2066,M,2.1,0136*4A
$GNGNS,114452.00,4742.1600112,N,01618.0999627,E,DAAA,40,0.4,707.4385,43.2066,,*51
$GPGNS,114452.00,,,,,,10,,,,2.1,136*7C
$GLGNS,114452.00,,,,,,09,,,,,*71
$GAGNS,114452.00,,,,,,09,,,,,*7C
$GBGNS,114452.00,,,,,,12,,,,,*75
$GPLLQ,114452.00,010125,,M,,M,1,40,0.898,,M*1B
$GPVTG,,T,,M,0.00,N,0.00,K,D*26
$GPHDT,,T*1B
$GPTHS,,V*0E
$GPROT,,V*08
$PSSN,HRP,114452.00,010125,,,,,,,00,0,,*66
$PTNL,AVR,114452.00,,Yaw,,Tilt,,,,0,,00*30
$GPGSA,A,3,06,10,12,13,15,17,19,24,25,32,,,0.7,0.4,0.6*3B
$GPGSA,A,3,66,67,68,76,77,78,85,86,87,,,,0.7,0.4,0.6*3A
$GPGSA,A,3,02,07,08,10,11,25,29,30,36,,,,0.7,0.4,0.6*31
$GPGSA,A,3,05,07,10,14,24,26,33,35,40,42,45,60,0.7,0.4,0.6*30
$GPGST,114452.00,2.468,0.446,0.353,333.045,0.429,0.374,0.695*5C
$GPGBS,114452.00,2.824,2.182,4.848,77,0.0001,-7.080,6.075*7A
$GPGRS,114452.00,1,-2.0,0.3,0.2,-0.3,0.5,0.3,-0.0,-0.2,-0.4,-0.5,,*4C
$GPGRS,114452.00,1,-2.2,6.4,6.4,-2.5,-7.1,-2.4,3.8,1.0,-2.9,,,*4C
$GPGRS,114452.00,1,0.1,0.6,0.8,-0.6,-0.8,-0.5,-0.3,0.3,-0.9,,,*47
$GPGRS,114452.00,1,1.7,0.2,0.8,1.7,0.1,-1.7,-0.1,-2.0,-0.6,0.2,-1.0,-2.4*44
$GPGSV,6,1,22,24,87,271,51,13,11,162,39,25,15,251,40,32,11,324,41*7A
$GPGSV,6,2,22,22,20,062,,15,27,193,45,10,11,295,41,17,27,047,44*7A
$GPGSV,6,3,22,19,49,078,46,12,55,250,49,06,09,107,37,23,05,256,38*7E
$GPGSV,6,4,22,14,00,067,33,36,35,170,45,58,13,245,36,40,23,133,37*72
$GPGSV,6,5,22,34,31,208,43,49,34,195,45,57,07,111,38,41,07,108,35*76
$GPGSV,6,6,22,61,03,257,38*46
$GLGSV,3,1,09,77,66,330,46,76,44,060,50,78,17,274,47,66,18,201,47*6C
$GLGSV,3,2,09,87,18,133,42,85,17,024,45,68,31,321,49,86,33,082,47*66
$GLGSV,3,3,09,67,46,257,51*5B
$GAGSV,3,1,12,02,69,055,48,07,50,288,46,08,49,196,47,25,17,062,39*6D
$GAGSV,3,2,12,11,13,054,35,30,53,248,47,12,02,007,30,03,08,163,30*6E
$GAGSV,3,3,12,27,04,245,37,29,07,324,37,10,09,028,37,36,09,101,38*61
$GBGSV,5,1,20,26,62,077,51,44,21,156,,40,16,039,41,05,20,130,39*6B
$GBGSV,5,2,20,42,18,215,44,41,16,323,,07,20,051,39,14,29,241,43*62
$GBGSV,5,3,20,33,33,272,46,35,39,105,48,10,32,057,42,56,38,059,*6E
$GBGSV,5,4,20,24,60,288,51,25,59,279,,12,03,171,,23,07,266,*6A
$GBGSV,5,5,20,45,09,090,40,50,04,195,,02,04,109,31,60,07,111,40*68
$GPGGA,114452.00,,,,,0,00,,,M,,M,,*4F
$PTNL,GGK,114452.00,010125,4742.1600112,N,01618.0999627,E,1,40,0.7,EHT750.6451,M*4E
$GPGGQ,114452.00,010125,4742.1600112,N,01618.0999627,E,1,40,0.898,707.4385,M*30
$GPGFA,114452.00,4.243,5.700,0.446,0.353,333.045,0.695,,VVV*0C
$GPLLK,114452.00,010125,,M,,M,1,40,0.8,,M*00
$GNGMP,114452.00,,,,,DAAA,40,0.4,,,,*51
$GPGMP,114452.00,,,,,,10,,,,2.1,136*7C
$GLGMP,114452.00,,,,,,09,,,,,*71
$GAGMP,114452.00,,,,,,09,,,,,*7C
$GBGMP,114452.00,,,,,,12,,,,,*75
$PSSN,SNC,[0,301510000,2347]*42
$GPZDA,114457.00,01,01,2025,,*61
$GPDTM,W84,,00.0000000,N,00.0000000,E,00.0000000,W84*5F
$PSSN,TFM,114457.00,,,,*6D
$GPRMC,114457.00,A,4742.1600120,N,01618.0999636,E,0.0,,010125,5.1,E,D*1A
$GPGLL,4742.1600120,N,01618.0999636,E,114457.00,A,D*6B
$GPGGA,114457.00,4742.1600120,N,01618.0999636,E,2,39,0.4,707.4369,M,43.2066,M,1.8,0136*48
$GNGNS,114457.00,4742.1600120,N,01618.0999636,E,DAAA,39,0.4,707.4369,43.2066,,*59
$GPGNS,114457.00,,,,,,10,,,,1.8,136*73
$GLGNS,114457.00,,,,,,09,,,,,*74
$GAGNS,114457.00,,,,,,08,,,,,*78
$GBGNS,114457.00,,,,,,12,,,,,*70
$GPLLQ,114457.00,010125,,M,,M,1,39,0.885,,M*1C
$GPVTG,,T,,M,0.01,N,0.01,K,D*26
$GPHDT,,T*1B
$GPTHS,,V*0E
$GPROT,,V*08
$PSSN,HRP,114457.00,010125,,,,,,,00,0,,*63
$PTNL,AVR,114457.00,,Yaw,,Tilt,,,,0,,00*35
$GPGSA,A,3,06,10,12,13,15,17,19,24,25,32,,,0.7,0.4,0.6*3B
$GPGSA,A,3,66,67,68,76,77,78,85,86,87,,,,0.7,0.4,0.6*3A
$GPGSA,A,3,02,07,08,10,25,29,30,36,,,,,0.7,0.4,0.6*31
$GPGSA,A,3,05,07,10,14,24,26,33,35,40,42,45,60,0.7,0.4,0.6*30
$GPGST,114457.00,2.565,0.443,0.347,332.959,0.425,0.369,0.684*50
$GPGBS,114457.00,2.787,2.185,4.703,77,0.0001,-7.032,6.075*77
$GPGRS,114457.00,1,-1.7,0.7,0.2,0.3,0.6,0.2,-0.1,-0.3,-0.7,-0.5,,*65
$GPGRS,114457.00,1,-2.8,6.3,6.2,-2.3,-7.0,-3.4,3.8,0.9,-3.8,,,*4C
$GPGRS,114457.00,1,0.2,0.8,0.7,-0.5,-0.5,0.2,0.4,-0.7,,,,*6D
$GPGRS,114457.00,1,1.4,0.5,1.2,2.0,0.3,-1.9,0.1,-1.7,-0.7,0.6,-1.0,-2.3*6D
$GPGSV,6,1,22,24,88,271,51,13,11,162,39,25,15,251,40,32,11,324,40*74
$GPGSV,6,2,22,22,20,062,,15,27,193,45,10,11,295,40,17,27,047,44*7B
$GPGSV,6,3,22,19,49,078,47,12,55,250,49,06,09,107,37,23,05,256,37*70
$GPGSV,6,4,22,14,00,067,33,36,35,170,45,58,13,245,37,40,23,133,37*73
$GPGSV,6,5,22,34,31,208,43,49,34,195,45,57,07,111,39,41,07,108,35*77
$GPGSV,6,6,22,61,03,257,38*46
$GLGSV,3,1,09,77,66,330,46,76,44,060,50,78,17,274,47,66,18,201,46*6D
$GLGSV,3,2,09,87,18,133,42,85,17,024,45,68,31,321,49,86,33,082,48*69
$GLGSV,3,3,09,67,46,257,51*5B
$GAGSV,3,1,12,02,69,055,48,07,50,288,47,08,49,196,47,25,17,062,39*6C
$GAGSV,3,2,12,11,13,054,35,30,53,248,47,12,02,007,30,03,08,163,30*6E
$GAGSV,3,3,12,27,04,245,36,29,08,324,38,10,09,028,38,36,09,101,38*6F
$GBGSV,5,1,20,26,62,077,51,44,21,156,,40,16,039,41,05,20,130,39*6B
$GBGSV,5,2,20,42,18,215,44,41,16,323,,07,20,051,40,14,29,241,43*6C
$GBGSV,5,3,20,33,33,272,46,35,39,105,48,10,32,057,42,56,38,059,*6E
$GBGSV,5,4,20,24,60,288,51,25,59,279,,12,03,171,,23,07,266,*6A
$GBGSV,5,5,20,45,09,090,40,50,04,195,,02,04,109,31,60,07,111,40*68
$GPGGA,114457.00,,,,,0,00,,,M,,M,,*4A
$PTNL,GGK,114457.00,010125,4742.1600120,N,01618.0999636,E,1,39,0.7,EHT750.6434,M*47
$GPGGQ,114457.00,010125,4742.1600120,N,01618.0999636,E,1,39,0.885,707.4369,M*34
$GPGFA,114457.00,4.207,5.607,0.443,0.347,332.959,0.684,,VVV*0A
$GPLLK,114457.00,010125,,M,,M,1,39,0.8,,M*0B
$GNGMP,114457.00,,,,,DAAA,39,0.4,,,,*5A
$GPGMP,114457.00,,,,,,10,,,,1.8,136*73
$GLGMP,114457.00,,,,,,09,,,,,*74
$GAGMP,114457.00,,,,,,08,,,,,*78
$GBGMP,114457.00,,,,,,12,,,,,*70
$PSSN,SNC,[0,301515000,2347]*47
$GPZDA,114502.00,01,01,2025,,*60
$GPDTM,W84,,00.0000000,N,00.0000000,E,00.0000000,W84*5F
$PSSN,TFM,114502.00,,,,*6C
$GPRMC,114502.00,A,4742.1600129,N,01618.0999614,E,0.0,,010125,5.1,E,D*12
$GPGLL,4742.1600129,N,01618.0999614,E,114502.00,A,D*63
$GPGGA,114502.00,4742.1600129,N,01618.0999614,E,2,40,0.4,707.4367,M,43.2066,M,2.8,0136*43
$GNGNS,114502.00,4742.1600129,N,01618.0999614,E,DAAA,40,0.4,707.4367,43.2066,,*51
$GPGNS,114502.00,,,,,,10,,,,2.8,136*71
$GLGNS,114502.00,,,,,,09,,,,,*75
$GAGNS,114502.00,,,,,,09,,,,,*78
$GBGNS,114502.00,,,,,,12,,,,,*71
$GPLLQ,114502.00,010125,,M,,M,1,40,0.895,,M*12
$GPVTG,,T,,M,0.00,N,0.00,K,D*26
$GPHDT,,T*1B
$GPTHS,,V*0E
$GPROT,,V*08
$PSSN,HRP,114502.00,010125,,,,,,,00,0,,*62
$PTNL,AVR,114502.00,,Yaw,,Tilt,,,,0,,00*34
$GPGSA,A,3,06,10,12,13,15,17,19,24,25,32,,,0.7,0.4,0.6*3B
$GPGSA,A,3,66,67,68,76,77,78,85,86,87,,,,0.7,0.4,0.6*3A
$GPGSA,A,3,02,07,08,10,11,25,29,30,36,,,,0.7,0.4,0.6*31
$GPGSA,A,3,05,07,10,14,24,26,33,35,40,42,45,60,0.7,0.4,0.6*30
$GPGST,114502.00,2.574,0.449,0.349,332.891,0.430,0.372,0.691*5A
$GPGBS,114502.00,2.808,2.203,4.760,77,0.0001,-7.012,6.075*74
$GPGRS,114502.00,1,-2.2,-0.4,0.2,0.1,0.3,0.2,0.1,-0.1,-0.7,-0.2,,*63
$GPGRS,114502.00,1,-3.9,6.6,6.4,-2.5,-7.0,-2.8,3.6,1.4,-3.4,,,*4B
$GPGRS,114502.00,1,0.2,0.6,0.5,-0.9,-0.9,-0.5,0.2,0.3,-0.8,,,*6E
$GPGRS,114502.00,1,1.6,1.0,1.1,1.6,0.1,-1.9,0.1,-1.6,-0.8,0.6,-1.1,-2.2*60
$GPGSV,6,1,22,24,88,270,51,13,11,162,38,25,15,251,40,32,11,324,40*74
$GPGSV,6,2,22,22,20,062,,15,27,193,45,10,11,295,41,17,27,047,44*7A
$GPGSV,6,3,22,19,49,078,47,12,55,250,49,06,09,107,37,23,05,256,38*7F
$GPGSV,6,4,22,14,00,067,31,36,35,170,45,58,13,245,36,40,23,133,37*70
$GPGSV,6,5,22,34,31,208,43,49,34,195,45,57,07,111,38,41,07,108,35*76
$GPGSV,6,6,22,61,03,257,39*47
$GLGSV,3,1,09,77,66,331,46,76,43,060,50,78,17,274,46,66,18,201,46*6A
$GLGSV,3,2,09,87,18,133,43,85,17,024,45,68,31,321,49,86,33,082,48*68
$GLGSV,3,3,09,67,46,257,51*5B
$GAGSV,3,1,12,02,69,055,48,07,50,288,47,08,49,196,48,25,17,063,39*62
$GAGSV,3,2,12,11,13,054,35,30,53,248,48,12,02,007,30,03,08,163,30*61
$GAGSV,3,3,12,27,04,245,36,29,08,324,38,10,09,028,37,36,09,101,38*60
$GBGSV,5,1,20,26,62,078,51,44,21,156,,40,16,039,41,05,20,130,39*64
$GBGSV,5,2,20,42,18,215,43,41,16,323,,07,20,051,39,14,29,241,43*65
$GBGSV,5,3,20,33,33,272,46,35,39,105,48,10,32,057,42,56,38,059,*6E
$GBGSV,5,4,20,24,60,288,51,25,59,279,,12,03,171,,23,07,266,*6A
$GBGSV,5,5,20,45,09,090,40,50,04,195,,02,04,109,31,60,07,111,40*68
$GPGGA,114502.00,,,,,0,00,,,M,,M,,*4B
$PTNL,GGK,114502.00,010125,4742.1600129,N,01618.0999614,E,1,40,0.7,EHT750.6433,M*46
$GPGGQ,114502.00,010125,4742.1600129,N,01618.0999614,E,1,40,0.895,707.4367,M*3D
$GPGFA,114502.00,4.267,5.670,0.449,0.349,332.891,0.691,,VVV*08
$GPLLK,114502.00,010125,,M,,M,1,40,0.8,,M*04
$GNGMP,114502.00,,,,,DAAA,40,0.4,,,,*55
$GPGMP,114502.00,,,,,,10,,,,2.8,136*71
$GLGMP,114502.00,,,,,,09,,,,,*75
$GAGMP,114502.00,,,,,,09,,,,,*78
$GBGMP,114502.00,,,,,,12,,,,,*71
$PSSN,SNC,[0,301520000,2347]*41
$GPZDA,114507.00,01,01,2025,,*65
$GPDTM,W84,,00.0000000,N,00.0000000,E,00.0000000,W84*5F
$PSSN,TFM,114507.00,,,,*69
$GPRMC,114507.00,A,4742.1600131,N,01618.0999605,E,0.0,,010125,5.1,E,D*1E
$GPGLL,4742.1600131,N,01618.0999605,E,114507.00,A,D*6F
$GPGGA,114507.00,4742.1600131,N,01618.0999605,E,2,40,0.4,707.4389,M,43.2066,M,3.3,0136*45
$GNGNS,114507.00,4742.1600131,N,01618.0999605,E,DAAA,40,0.4,707.4389,43.2066,,*5D
$GPGNS,114507.00,,,,,,10,,,,3.3,136*7E
$GLGNS,114507.00,,,,,,09,,,,,*70
$GAGNS,114507.00,,,,,,09,,,,,*7D
$GBGNS,114507.00,,,,,,12,,,,,*74
$GPLLQ,114507.00,010125,,M,,M,1,40,0.905,,M*1F
$GPVTG,,T,,M,0.00,N,0.01,K,D*27
$GPHDT,,T*1B
$GPTHS,,V*0E
$GPROT,,V*08
$PSSN,HRP,114507.00,010125,,,,,,,00,0,,*67
$PTNL,AVR,114507.00,,Yaw,,Tilt,,,,0,,00*31
$GPGSA,A,3,06,10,12,13,15,17,19,24,25,32,,,0.7,0.4,0.6*3B
$GPGSA,A,3,66,67,68,76,77,78,85,86,87,,,,0.7,0.4,0.6*3A
$GPGSA,A,3,02,07,08,10,11,25,29,30,36,,,,0.7,0.4,0.6*31
$GPGSA,A,3,05,07,10,14,24,26,33,35,40,42,45,60,0.7,0.4,0.6*30
$GPGST,114507.00,2.555,0.452,0.354,332.696,0.433,0.377,0.700*5C
$GPGBS,114507.00,2.811,2.215,4.814,77,0.0001,-6.992,6.074*73
$GPGRS,114507.00,1,-2.2,0.0,0.1,-0.0,0.3,0.3,0.1,-0.2,-0.0,-0.4,,*63
$GPGRS,114507.00,1,-2.6,6.8,6.1,-2.7,-7.0,-3.2,4.1,1.5,-2.8,,,*4E
$GPGRS,114507.00,1,0.1,0.3,0.7,-0.9,-0.1,-0.5,-0.4,0.5,-1.0,,,*43
$GPGRS,114507.00,1,1.7,1.0,1.1,1.4,0.3,-1.8,0.1,-1.7,-0.7,0.2,-1.6,-2.5*6F
$GPGSV,6,1,22,24,88,269,51,13,11,162,38,25,15,251,40,32,11,324,40*7C
$GPGSV,6,2,22,22,20,062,,15,27,193,45,10,11,295,40,17,27,047,44*7B
$GPGSV,6,3,22,19,49,078,46,12,55,250,49,06,09,107,37,23,05,256,38*7E
$GPGSV,6,4,22,14,00,067,32,36,35,170,45,58,13,245,37,40,23,133,37*72
$GPGSV,6,5,22,34,31,208,43,49,34,195,45,57,07,111,38,41,07,108,35*76
$GPGSV,6,6,22,61,03,257,39*47
$GLGSV,3,1,09,77,66,331,47,76,43,060,50,78,17,275,47,66,18,201,47*6A
$GLGSV,3,2,09,87,18,133,42,85,17,024,45,68,31,321,48,86,33,082,48*68
$GLGSV,3,3,09,67,46,257,51*5B
$GAGSV,3,1,12,02,69,055,48,07,50,288,47,08,49,196,48,25,17,063,39*62
$GAGSV,3,2,12,11,13,054,35,30,53,248,47,12,02,007,30,03,08,163,30*6E
$GAGSV,3,3,12,27,04,245,37,29,08,324,38,10,09,027,37,36,09,101,38*6E
$GBGSV,5,1,20,26,62,078,51,44,21,156,,40,16,039,41,05,20,130,39*64
$GBGSV,5,2,20,42,18,215,43,41,16,323,,07,20,051,39,14,29,241,43*65
$GBGSV,5,3,20,33,33,271,47,35,39,105,48,10,32,057,42,56,38,059,*6C
$GBGSV,5,4,20,24,60,288,51,25,59,279,,12,03,171,,23,07,266,*6A
$GBGSV,5,5,20,45,08,090,40,50,04,195,,02,04,109,31,60,07,111,40*69
$GPGGA,114507.00,,,,,0,00,,,M,,M,,*4E
$PTNL,GGK,114507.00,010125,4742.1600131,N,01618.0999605,E,1,40,0.7,EHT750.6454,M*4B
$GPGGQ,114507.00,010125,4742.1600131,N,01618.0999605,E,1,40,0.905,707.4389,M*39
$GPGFA,114507.00,4.293,5.740,0.452,0.354,332.696,0.700,,VVV*02
$GPLLK,114507.00,010125,,M,,M,1,40,0.8,,M*01
$GNGMP,114507.00,,,,,DAAA,40,0.4,,,,*50
$GPGMP,114507.00,,,,,,10,,,,3.3,136*7E
$GLGMP,114507.00,,,,,,09,,,,,*70
$GAGMP,114507.00,,,,,,09,,,,,*7D
$GBGMP,114507.00,,,,,,12,,,,,*74
$PSSN,SNC,[0,301525000,2347]*44
$GPZDA,114512.00,01,01,2025,,*61
$GPDTM,W84,,00.0000000,N,00.0000000,E,00.0000000,W84*5F
$PSSN,TFM,114512.00,,,,*6D
$GPRMC,114512.00,A,4742.1600136,N,01618.0999616,E,0.0,,010125,5.1,E,D*1F
$GPGLL,4742.1600136,N,01618.0999616,E,114512.00,A,D*6E
$GPGGA,114512.00,4742.1600136,N,01618.0999616,E,2,40,0.4,707.4341,M,43.2066,M,2.1,0136*43
$GNGNS,114512.00,4742.1600136,N,01618.0999616,E,DAAA,40,0.4,707.4341,43.2066,,*58
$GPGNS,114512.00,,,,,,10,,,,2.1,136*79
$GLGNS,114512.00,,,,,,09,,,,,*74
$GAGNS,114512.00,,,,,,09,,,,,*79
$GBGNS,114512.00,,,,,,12,,,,,*70
$GPLLQ,114512.00,010125,,M,,M,1,40,0.900,,M*1E
$GPVTG,,T,,M,0.00,N,0.01,K,D*27
$GPHDT,,T*1B
$GPTHS,,V*0E
$GPROT,,V*08
$PSSN,HRP,114512.00,010125,,,,,,,00,0,,*63
$PTNL,AVR,114512.00,,Yaw,,Tilt,,,,0,,00*35
$GPGSA,A,3,06,10,12,13,15,17,19,24,25,32,,,0.7,0.4,0.6*3B
$GPGSA,A,3,66,67,68,76,77,78,85,86,87,,,,0.7,0.4,0.6*3A
$GPGSA,A,3,02,07,08,10,11,25,29,30,36,,,,0.7,0.4,0.6*31
$GPGSA,A,3,05,07,10,14,24,26,33,35,40,42,45,60,0.7,0.4,0.6*30
$GPGST,114512.00,2.459,0.449,0.353,332.070,0.429,0.376,0.696*52
$GPGBS,114512.00,2.821,2.198,4.846,77,0.0001,-6.885,6.074*72
$GPGRS,114512.00,1,-2.2,-0.0,0.5,0.0,0.4,-0.1,0.0,-0.2,-0.7,0.1,,*65
$GPGRS,114512.00,1,-2.0,6.3,5.9,-2.7,-6.9,-2.7,3.7,1.8,-3.5,,,*40
$GPGRS,114512.00,1,0.3,0.0,0.8,-1.2,-0.4,-0.4,-0.5,0.4,-0.8,,,*4E
$GPGRS,114512.00,1,1.8,0.6,0.7,1.4,0.2,-1.9,-0.0,-1.8,-0.7,0.2,-1.0,-2.5*41
$GPGSV,6,1,22,24,88,269,50,13,11,162,39,25,15,251,40,32,11,324,41*7D
$GPGSV,6,2,22,22,20,062,,15,27,193,44,10,11,295,41,17,27,047,44*7B
$GPGSV,6,3,22,19,49,078,46,12,55,250,49,06,09,107,36,23,05,256,37*70
$GPGSV,6,4,22,14,00,067,33,36,35,170,45,58,13,245,36,40,23,133,37*72
$GPGSV,6,5,22,34,31,208,43,49,34,195,45,57,07,111,39,41,07,108,35*77
$GPGSV,6,6,22,61,03,257,38*46
$GLGSV,3,1,09,77,66,331,46,76,43,060,50,78,17,275,46,66,17,201,47*65
$GLGSV,3,2,09,87,18,133,43,85,17,024,44,68,31,321,49,86,33,082,48*69
$GLGSV,3,3,09,67,46,257,51*5B
$GAGSV,3,1,12,02,69,055,48,07,50,288,47,08,49,196,48,25,17,063,39*62
$GAGSV,3,2,12,11,13,054,35,30,53,248,48,12,02,007,31,03,08,163,31*61
$GAGSV,3,3,12,27,04,245,38,29,08,324,37,10,09,027,38,36,09,101,38*61
$GBGSV,5,1,20,26,62,078,51,44,21,156,,40,16,039,41,05,20,130,39*64
$GBGSV,5,2,20,42,18,215,43,41,16,323,,07,20,051,39,14,29,241,43*65
$GBGSV,5,3,20,33,33,271,47,35,39,105,48,10,32,057,41,56,38,059,*6F
$GBGSV,5,4,20,24,60,288,51,25,59,279,,12,03,171,,23,07,266,*6A
$GBGSV,5,5,20,45,08,090,40,50,04,195,,02,04,109,31,60,07,111,40*69
$GPGGA,114512.00,,,,,0,00,,,M,,M,,*4A
$PTNL,GGK,114512.00,010125,4742.1600136,N,01618.0999616,E,1,40,0.7,EHT750.6406,M*4D
$GPGGQ,114512.00,010125,4742.1600136,N,01618.0999616,E,1,40,0.900,707.4341,M*39
$GPGFA,114512.00,4.265,5.709,0.449,0.353,332.070,0.696,,VVV*0F
$GPLLK,114512.00,010125,,M,,M,1,40,0.8,,M*05
$GNGMP,114512.00,,,,,DAAA,40,0.4,,,,*54
$GPGMP,114512.00,,,,,,10,,,,2.1,136*79
$GLGMP,114512.00,,,,,,09,,,,,*74
$GAGMP,114512.00,,,,,,09,,,,,*79
$GBGMP,114512.00,,,,,,12,,,,,*70
$PSSN,SNC,[0,301530000,2347]*40
$GPZDA,114517.00,01,01,2025,,*64
$GPDTM,W84,,00.0000000,N,00.0000000,E,00.0000000,W84*5F
$PSSN,TFM,114517.00,,,,*68
$GPRMC,114517.00,A,4742.1600149,N,01618.0999630,E,0.0,,010125,5.1,E,D*16
$GPGLL,4742.1600149,N,01618.0999630,E,114517.00,A,D*67
$GPGGA,114517.00,4742.1600149,N,01618.0999630,E,2,40,0.4,707.4344,M,43.2066,M,1.8,0136*45
$GNGNS,114517.00,4742.1600149,N,01618.0999630,E,DAAA,40,0.4,707.4344,43.2066,,*54
$GPGNS,114517.00,,,,,,10,,,,1.8,136*76
$GLGNS,114517.00,,,,,,09,,,,,*71
$GAGNS,114517.00,,,,,,09,,,,,*7C
$GBGNS,114517.00,,,,,,12,,,,,*75
$GPLLQ,114517.00,010125,,M,,M,1,40,0.886,,M*14
$GPVTG,,T,,M,0.00,N,0.01,K,D*27
$GPHDT,,T*1B
$GPTHS,,V*0E
$GPROT,,V*08
$PSSN,HRP,114517.00,010125,,,,,,,00,0,,*66
$PTNL,AVR,114517.00,,Yaw,,Tilt,,,,0,,00*30
$GPGSA,A,3,06,10,12,13,15,17,19,24,25,32,,,0.7,0.4,0.6*3B
$GPGSA,A,3,66,67,68,76,77,78,85,86,87,,,,0.7,0.4,0.6*3A
$GPGSA,A,3,02,07,08,10,11,25,29,30,36,,,,0.7,0.4,0.6*31
$GPGSA,A,3,05,07,10,14,24,26,33,35,40,42,45,60,0.7,0.4,0.6*30
$GPGST,114517.00,2.510,0.445,0.346,332.009,0.425,0.370,0.684*54
$GPGBS,114517.00,2.783,2.194,4.689,77,0.0001,-7.286,6.075*78
$GPGRS,114517.00,1,-1.6,0.2,0.2,0.4,0.4,0.1,-0.1,-0.3,-0.6,0.0,,*4B
$GPGRS,114517.00,1,-2.8,6.6,6.4,-2.5,-7.3,-2.5,3.5,1.3,-3.5,,,*44
$GPGRS,114517.00,1,0.3,0.3,0.7,-0.8,-0.7,-0.4,-0.4,0.5,-0.6,,,*41
$GPGRS,114517.00,1,1.7,0.4,0.6,1.5,0.2,-2.0,-0.0,-1.7,-0.5,0.4,-0.5,-2.2*4B
$GPGSV,6,1,22,24,88,268,50,13,11,162,39,25,15,251,40,32,11,324,41*7C
$GPGSV,6,2,22,22,20,062,,15,27,193,44,10,11,295,41,17,27,047,43*7C
$GPGSV,6,3,22,19,49,078,46,12,55,251,49,06,09,107,37,23,04,256,38*7E
$GPGSV,6,4,22,14,00,067,33,36,35,170,45,58,13,245,36,40,23,133,37*72
$GPGSV,6,5,22,34,31,208,43,49,34,195,45,57,07,111,38,41,07,108,35*76
$GPGSV,6,6,22,61,03,257,38*46
$GLGSV,3,1,09,77,66,331,46,76,43,060,50,78,17,275,47,66,17,201,47*64
$GLGSV,3,2,09,87,18,132,42,85,17,024,45,68,31,321,48,86,33,082,47*66
$GLGSV,3,3,09,67,46,257,51*5B
$GAGSV,3,1,12,02,69,055,49,07,50,288,47,08,49,196,48,25,17,063,39*63
$GAGSV,3,2,12,11,13,054,35,30,53,249,48,12,02,007,30,03,08,163,30*60
$GAGSV,3,3,12,27,04,245,37,29,08,324,37,10,09,027,38,36,09,101,39*6F
$GBGSV,5,1,20,26,62,078,50,44,21,156,,40,16,039,41,05,20,130,38*64
$GBGSV,5,2,20,42,18,215,43,41,16,323,,07,20,051,39,14,29,240,43*64
$GBGSV,5,3,20,33,33,271,47,35,39,105,47,10,32,057,41,56,38,059,*60
$GBGSV,5,4,20,24,60,288,51,25,59,279,,12,04,171,,23,07,266,*6D
$GBGSV,5,5,20,45,08,090,40,50,03,195,,02,04,109,31,60,07,111,40*6E
$GPGGA,114517.00,,,,,0,00,,,M,,M,,*4F
$PTNL,GGK,114517.00,010125,4742.1600149,N,01618.0999630,E,1,40,0.7,EHT750.6410,M*43
$GPGGQ,114517.00,010125,4742.1600149,N,01618.0999630,E,1,40,0.886,707.4344,M*3A
$GPGFA,114517.00,4.228,5.606,0.445,0.346,332.009,0.684,,VVV*08
$GPLLK,114517.00,010125,,M,,M,1,40,0.8,,M*00
$GNGMP,114517.00,,,,,DAAA,40,0.4,,,,*51
$GPGMP,114517.00,,,,,,10,,,,1.8,136*76
$GLGMP,114517.00,,,,,,09,,,,,*71
$GAGMP,114517.00,,,,,,09,,,,,*7C
$GBGMP,114517.00,,,,,,12,,,,,*75
$PSSN,SNC,[0,301535000,2347]*45
$GPZDA,114522.00,01,01,2025,,*62
$GPDTM,W84,,00.0000000,N,00.0000000,E,00.0000000,W84*5F
$PSSN,TFM,114522.00,,,,*6E
$GPRMC,114522.00,A,4742.1600156,N,01618.0999625,E,0.0,,010125,5.1,E,D*1A
$GPGLL,4742.1600156,N,01618.0999625,E,114522.00,A,D*6B
$GPGGA,114522.00,4742.1600156,N,01618.0999625,E,2,40,0.4,707.4382,M,43.2066,M,2.8,0136*40
$GNGNS,114522.00,4742.1600156,N,01618.0999625,E,DAAA,40,0.4,707.4382,43.2066,,*52
$GPGNS,114522.00,,,,,,10,,,,2.8,136*73
$GLGNS,114522.00,,,,,,09,,,,,*77
$GAGNS,114522.00,,,,,,09,,,,,*7A
$GBGNS,114522.00,,,,,,12,,,,,*73
$GPLLQ,114522.00,010125,,M,,M,1,40,0.891,,M*14
$GPVTG,,T,,M,0.00,N,0.00,K,D*26
$GPHDT,,T*1B
$GPTHS,,V*0E
$GPROT,,V*08
$PSSN,HRP,114522.00,010125,,,,,,,00,0,,*60
$PTNL,AVR,114522.00,,Yaw,,Tilt,,,,0,,00*36
$GPGSA,A,3,06,10,12,13,15,17,19,24,25,32,,,0.7,0.4,0.6*3B
$GPGSA,A,3,66,67,68,76,77,78,85,86,87,,,,0.7,0.4,0.6*3A
$GPGSA,A,3,02,07,08,10,11,25,29,30,36,,,,0.7,0.4,0.6*31
$GPGSA,A,3,05,07,10,14,24,26,33,35,40,42,45,60,0.7,0.4,0.6*30
$GPGST,114522.00,2.555,0.446,0.349,332.695,0.427,0.371,0.688*53
$GPGBS,114522.00,2.797,2.204,4.740,77,0.0001,-6.919,6.075*79
$GPGRS,114522.00,1,-1.3,0.4,-0.1,0.5,0.2,0.1,0.0,-0.1,-0.3,-0.1,,*60
$GPGRS,114522.00,1,-3.3,6.4,6.6,-2.8,-6.9,-3.1,4.2,1.1,-3.3,,,*4F
$GPGRS,114522.00,1,0.3,0.5,0.6,-1.0,-1.0,-0.5,-0.1,0.7,-0.7,,,*48
$GPGRS,114522.00,1,1.5,0.6,0.4,2.0,0.3,-1.8,0.3,-1.4,-0.6,1.0,-0.4,-2.1*6A
$GPGSV,6,1,22,24,88,267,50,13,11,162,39,25,15,251,40,32,11,323,40*75
$GPGSV,6,2,22,22,20,062,,15,27,193,45,10,11,295,40,17,27,047,43*7C
$GPGSV,6,3,22,19,49,078,47,12,55,251,49,06,09,107,37,23,04,256,37*70
$GPGSV,6,4,22,14,00,067,33,36,35,170,45,58,13,245,36,40,23,133,37*72
$GPGSV,6,5,22,34,31,208,43,49,34,195,45,57,07,111,38,41,07,108,35*76
$GPGSV,6,6,22,61,03,257,38*46
$GLGSV,3,1,09,77,66,331,46,76,43,060,49,78,18,275,47,66,17,201,47*63
$GLGSV,3,2,09,87,19,132,43,85,17,024,45,68,31,321,49,86,33,082,48*68
$GLGSV,3,3,09,67,46,257,51*5B
$GAGSV,3,1,12,02,69,055,49,07,51,288,47,08,49,196,48,25,17,063,39*62
$GAGSV,3,2,12,11,13,053,35,30,53,249,48,12,02,007,31,03,08,163,31*67
$GAGSV,3,3,12,27,04,245,37,29,08,324,37,10,09,027,38,36,09,101,39*6F
$GBGSV,5,1,20,26,62,078,50,44,21,156,,40,16,039,41,05,20,130,39*65
$GBGSV,5,2,20,42,18,215,42,41,16,323,,07,20,051,39,14,29,240,44*62
$GBGSV,5,3,20,33,33,271,46,10,32,057,41,35,39,105,47,56,38,059,*61
$GBGSV,5,4,20,24,60,288,51,25,59,279,,12,04,171,,02,04,109,31*65
$GBGSV,5,5,20,45,08,090,40,50,03,195,,23,07,266,,60,07,111,40*66
$GPGGA,114522.00,,,,,0,00,,,M,,M,,*49
$PTNL,GGK,114522.00,010125,4742.1600156,N,01618.0999625,E,1,40,0.7,EHT750.6448,M*42
$GPGGQ,114522.00,010125,4742.1600156,N,01618.0999625,E,1,40,0.891,707.4382,M*3A
$GPGFA,114522.00,4.239,5.639,0.446,0.349,332.695,0.688,,VVV*01
$GPLLK,114522.00,010125,,M,,M,1,40,0.8,,M*06
$GNGMP,114522.00,,,,,DAAA,40,0.4,,,,*57
$GPGMP,114522.00,,,,,,10,,,,2.8,136*73
$GLGMP,114522.00,,,,,,09,,,,,*77
$GAGMP,114522.00,,,,,,09,,,,,*7A
$GBGMP,114522.00,,,,,,12,,,,,*73
$PSSN,SNC,[0,301540000,2347]*47
$GPZDA,114527.00,01,01,2025,,*67
$GPDTM,W84,,00.0000000,N,00.0000000,E,00.0000000,W84*5F
$PSSN,TFM,114527.00,,,,*6B
$GPRMC,114527.00,A,4742.1600166,N,01618.0999607,E,0.0,,010125,5.1,E,D*1C
$GPGLL,4742.1600166,N,01618.0999607,E,114527.00,A,D*6D
$GPGGA,114527.00,4742.1600166,N,01618.0999607,E,2,40,0.4,707.4422,M,43.2066,M,3.3,0136*41
$GNGNS,114527.00,4742.1600166,N,01618.0999607,E,DAAA,40,0.4,707.4422,43.2066,,*59
$GPGNS,114527.00,,,,,,10,,,,3.3,136*7C
$GLGNS,114527.00,,,,,,09,,,,,*72
$GAGNS,114527.00,,,,,,09,,,,,*7F
$GBGNS,114527.00,,,,,,12,,,,,*76
$GPLLQ,114527.00,010125,,M,,M,1,40,0.902,,M*1A
$GPVTG,,T,,M,0.00,N,0.01,K,D*27
$GPHDT,,T*1B
$GPTHS,,V*0E
$GPROT,,V*08
$PSSN,HRP,114527.00,010125,,,,,,,00,0,,*65
$PTNL,AVR,114527.00,,Yaw,,Tilt,,,,0,,00*33
$GPGSA,A,3,06,10,12,13,15,17,19,24,25,32,,,0.7,0.4,0.6*3B
$GPGSA,A,3,66,67,68,76,77,78,85,86,87,,,,0.7,0.4,0.6*3A
$GPGSA,A,3,02,07,08,10,11,25,29,30,36,,,,0.7,0.4,0.6*31
$GPGSA,A,3,05,07,10,14,24,26,33,35,40,42,45,60,0.7,0.4,0.6*30
$GPGST,114527.00,2.591,0.449,0.354,332.574,0.430,0.376,0.697*5E
$GPGBS,114527.00,2.802,2.216,4.794,77,0.0001,-7.119,6.074*7D
$GPGRS,114527.00,1,-1.8,-0.4,0.1,0.6,0.4,0.4,0.0,-0.2,-0.5,-0.3,,*69
$GPGRS,114527.00,1,-3.6,6.6,6.4,-2.7,-7.1,-2.7,4.5,1.5,-3.1,,,*4F
$GPGRS,114527.00,1,0.2,0.4,0.4,-1.0,-0.5,-0.6,0.2,0.5,-0.8,,,*6B
$GPGRS,114527.00,1,1.5,0.2,0.1,2.3,0.2,-1.8,-0.0,-1.4,-0.4,0.5,-0.9,-2.4*4C
$GPGSV,6,1,22,24,88,267,50,13,11,162,39,25,15,251,40,32,11,323,40*75
$GPGSV,6,2,22,22,20,062,,15,27,193,44,10,11,295,40,17,27,047,44*7A
$GPGSV,6,3,22,19,49,078,47,12,55,251,49,06,09,107,37,23,04,256,39*7E
$GPGSV,6,4,22,14,00,067,33,36,35,170,45,58,13,245,37,40,23,133,37*73
$GPGSV,6,5,22,34,31,208,43,49,34,195,45,57,07,111,38,41,07,108,35*76
$GPGSV,6,6,22,61,03,257,38*46
$GLGSV,3,1,09,77,66,331,46,76,43,060,49,78,18,275,48,66,17,201,46*6D
$GLGSV,3,2,09,87,19,132,42,85,17,024,45,68,31,321,48,86,33,082,48*68
$GLGSV,3,3,09,67,46,256,51*5A
$GAGSV,3,1,12,02,69,055,49,07,51,288,47,08,49,196,48,25,17,063,39*62
$GAGSV,3,2,12,11,13,053,36,30,53,249,48,12,02,007,31,03,08,163,30*65
$GAGSV,3,3,12,27,04,245,38,29,08,324,37,10,09,027,38,36,09,101,38*61
$GBGSV,5,1,20,26,62,078,51,44,21,156,,40,16,039,41,05,20,130,39*64
$GBGSV,5,2,20,42,18,215,42,41,16,323,,07,20,051,39,14,29,240,43*65
$GBGSV,5,3,20,33,33,271,46,10,32,057,41,35,39,105,47,56,38,059,*61
$GBGSV,5,4,20,24,60,288,51,25,59,279,,12,04,171,,02,04,109,31*65
$GBGSV,5,5,20,45,08,090,40,50,03,195,,23,07,266,,60,07,111,40*66
$GPGGA,114527.00,,,,,0,00,,,M,,M,,*4C
$PTNL,GGK,114527.00,010125,4742.1600166,N,01618.0999607,E,1,40,0.7,EHT750.6487,M*47
$GPGGQ,114527.00,010125,4742.1600166,N,01618.0999607,E,1,40,0.902,707.4422,M*3A
$GPGFA,114527.00,4.267,5.719,0.449,0.354,332.574,0.697,,VVV*0D
$GPLLK,114527.00,010125,,M,,M,1,40,0.8,,M*03
$GNGMP,114527.00,,,,,DAAA,40,0.4,,,,*52
$GPGMP,114527.00,,,,,,10,,,,3.3,136*7C
$GLGMP,114527.00,,,,,,09,,,,,*72
$GAGMP,114527.00,,,,,,09,,,,,*7F
$GBGMP,114527.00,,,,,,12,,,,,*76
$PSSN,SNC,[0,301545000,2347]*42
$GPZDA,114532.00,01,01,2025,,*63
$GPDTM,W84,,00.0000000,N,00.0000000,E,00.0000000,W84*5F
$PSSN,TFM,114532.00,,,,*6F
$GPRMC,114532.00,A,4742.1600170,N,01618.0999596,E,0.0,,010125,5.1,E,D*14
$GPGLL,4742.1600170,N,01618.0999596,E,114532.00,A,D*65
$GPGGA,114532.00,4742.1600170,N,01618.0999596,E,2,40,0.4,707.4418,M,43.2066,M,2.1,0136*43
$GNGNS,114532.00,4742.1600170,N,01618.0999596,E,DAAA,40,0.4,707.4418,43.2066,,*58
$GPGNS,114532.00,,,,,,10,,,,2.1,136*7B
$GLGNS,114532.00,,,,,,09,,,,,*76
$GAGNS,114532.00,,,,,,09,,,,,*7B
$GBGNS,114532.00,,,,,,12,,,,,*72
$GPLLQ,114532.00,010125,,M,,M,1,40,0.899,,M*1D
$GPVTG,,T,,M,0.00,N,0.01,K,D*27
$GPHDT,,T*1B
$GPTHS,,V*0E
$GPROT,,V*08
$PSSN,HRP,114532.00,010125,,,,,,,00,0,,*61
$PTNL,AVR,114532.00,,Yaw,,Tilt,,,,0,,00*37
$GPGSA,A,3,06,10,12,13,15,17,19,24,25,32,,,0.7,0.4,0.6*3B
$GPGSA,A,3,66,67,68,76,77,78,85,86,87,,,,0.7,0.4,0.6*3A
$GPGSA,A,3,02,07,08,10,11,25,29,30,36,,,,0.7,0.4,0.6*31
$GPGSA,A,3,05,07,10,14,24,26,33,35,40,42,45,60,0.7,0.4,0.6*30
$GPGST,114532.00,2.595,0.448,0.353,332.235,0.429,0.376,0.695*50
$GPGBS,114532.00,2.822,2.192,4.826,77,0.0001,-7.079,6.074*75
$GPGRS,114532.00,1,-2.1,0.2,0.1,0.4,-0.1,0.3,0.0,-0.1,-0.3,-0.0,,*67
$GPGRS,114532.00,1,-3.9,7.0,6.4,-2.6,-7.1,-2.4,3.7,1.4,-3.8,,,*4C
$GPGRS,114532.00,1,0.1,0.1,0.6,-0.9,-0.2,-0.5,0.4,0.4,-0.8,,,*60
$GPGRS,114532.00,1,1.8,0.1,0.5,1.3,0.2,-1.9,0.1,-1.5,-0.5,-0.3,-0.6,-2.3*4F
$GPGSV,6,1,21,24,88,266,50,13,11,162,40,25,15,251,40,32,11,323,40*79
$GPGSV,6,2,21,22,20,062,,15,27,193,44,10,11,295,40,17,27,047,44*79
$GPGSV,6,3,21,19,49,077,47,12,55,251,49,06,09,107,38,23,04,256,38*7C
$GPGSV,6,4,21,36,35,170,45,58,13,245,36,40,23,133,37,34,31,208,43*7D
$GPGSV,6,5,21,49,34,195,45,57,07,111,38,41,07,108,35,61,03,257,38*72
$GPGSV,6,6,21*7A
$GLGSV,3,1,09,77,66,331,46,76,43,060,49,78,18,275,47,66,17,201,45*61
$GLGSV,3,2,09,87,19,132,43,85,17,024,44,68,31,321,49,86,33,082,48*69
$GLGSV,3,3,09,67,46,256,51*5A
$GAGSV,3,1,12,02,69,055,48,07,51,288,47,08,49,196,47,25,16,063,39*6D
$GAGSV,3,2,12,11,13,053,36,30,53,249,48,12,02,007,30,03,07,163,30*6B
$GAGSV,3,3,12,27,04,245,37,29,08,324,38,10,09,027,38,36,09,101,38*61
$GBGSV,5,1,20,26,62,078,51,44,21,156,,40,16,039,41,05,20,130,39*64
$GBGSV,5,2,20,42,18,215,42,41,16,322,,07,20,051,39,14,29,240,43*64
$GBGSV,5,3,20,33,33,271,46,10,32,057,41,35,39,105,47,56,38,059,*61
$GBGSV,5,4,20,24,60,288,51,25,59,279,,12,04,171,,02,04,109,31*65
$GBGSV,5,5,20,45,08,090,40,50,03,195,,23,07,266,,60,07,111,40*66
$GPGGA,114532.00,,,,,0,00,,,M,,M,,*48
$PTNL,GGK,114532.00,010125,4742.1600170,N,01618.0999596,E,1,40,0.7,EHT750.6484,M*4C
$GPGGQ,114532.00,010125,4742.1600170,N,01618.0999596,E,1,40,0.899,707.4418,M*38
$GPGFA,114532.00,4.262,5.696,0.448,0.353,332.235,0.695,,VVV*0C
$GPLLK,114532.00,010125,,M,,M,1,40,0.8,,M*07
$GNGMP,114532.00,,,,,DAAA,40,0.4,,,,*56
$GPGMP,114532.00,,,,,,10,,,,2.1,136*7B
$GLGMP,114532.00,,,,,,09,,,,,*76
$GAGMP,114532.00,,,,,,09,,,,,*7B
$GBGMP,114532.00,,,,,,12,,,,,*72
$PSSN,SNC,[0,301550000,2347]*46
$GPZDA,114537.00,01,01,2025,,*66
$GPDTM,W84,,00.0000000,N,00.0000000,E,00.0000000,W84*5F
$PSSN,TFM,114537.00,,,,*6A
$GPRMC,114537.00,A,4742.1600160,N,01618.0999594,E,0.0,,010125,5.1,E,D*12
$GPGLL,4742.1600160,N,01618.0999594,E,114537.00,A,D*63
$GPGGA,114537.00,4742.1600160,N,01618.0999594,E,2,40,0.4,707.4424,M,43.2066,M,1.8,0136*40
$GNGNS,114537.00,4742.1600160,N,01618.0999594,E,DAAA,40,0.4,707.4424,43.2066,,*51
$GPGNS,114537.00,,,,,,10,,,,1.8,136*74
$GLGNS,114537.00,,,,,,09,,,,,*73
$GAGNS,114537.00,,,,,,09,,,,,*7E
$GBGNS,114537.00,,,,,,12,,,,,*77
$GPLLQ,114537.00,010125,,M,,M,1,40,0.892,,M*13
$GPVTG,,T,,M,0.00,N,0.01,K,D*27
$GPHDT,,T*1B
$GPTHS,,V*0E
$GPROT,,V*08
$PSSN,HRP,114537.00,010125,,,,,,,00,0,,*64
$PTNL,AVR,114537.00,,Yaw,,Tilt,,,,0,,00*32
$GPGSA,A,3,06,10,12,13,15,17,19,24,25,32,,,0.7,0.4,0.6*3B
$GPGSA,A,3,66,67,68,76,77,78,85,86,87,,,,0.7,0.4,0.6*3A
$GPGSA,A,3,02,07,08,10,11,25,29,30,36,,,,0.7,0.4,0.6*31
$GPGSA,A,3,05,07,10,14,24,26,33,35,40,42,45,60,0.7,0.4,0.6*30
$GPGST,114537.00,2.609,0.451,0.346,332.145,0.430,0.372,0.687*54
$GPGBS,114537.00,2.860,2.201,4.703,77,0.0001,-6.885,6.074*7D
$GPGRS,114537.00,1,-1.4,0.1,0.0,0.1,0.2,0.6,-0.1,-0.1,-0.3,-0.1,,*65
$GPGRS,114537.00,1,-3.9,6.8,6.6,-2.7,-6.9,-3.8,4.3,0.7,-3.3,,,*4D
$GPGRS,114537.00,1,0.3,0.4,0.6,-1.2,-0.4,-0.6,0.3,0.2,-0.9,,,*6D
$GPGRS,114537.00,1,1.6,0.5,0.4,1.0,0.1,-1.8,0.2,-1.2,-0.6,0.3,-0.7,-2.3*6B
$GPGSV,6,1,21,24,88,265,51,13,11,162,40,25,15,251,41,32,11,323,40*7A
$GPGSV,6,2,21,22,20,062,,15,27,193,44,10,11,295,40,17,27,047,43*7E
$GPGSV,6,3,21,19,49,077,47,12,55,251,49,06,09,107,38,23,04,256,39*7D
$GPGSV,6,4,21,36,35,170,45,58,13,245,36,40,23,133,37,34,31,208,43*7D
$GPGSV,6,5,21,49,34,195,45,57,07,111,38,41,07,108,35,61,03,257,38*72
$GPGSV,6,6,21*7A
$GLGSV,3,1,09,77,66,331,46,76,43,060,49,78,18,275,47,66,17,201,45*61
$GLGSV,3,2,09,87,19,132,42,85,17,024,45,68,31,321,48,86,33,082,47*67
$GLGSV,3,3,09,67,46,256,51*5A
$GAGSV,3,1,12,02,69,055,49,07,51,288,47,08,49,196,48,25,16,063,39*63
$GAGSV,3,2,12,11,13,053,36,30,53,249,48,12,02,007,30,03,07,163,30*6B
$GAGSV,3,3,12,27,04,245,37,29,08,324,38,10,09,027,38,36,09,100,38*60
$GBGSV,5,1,20,26,62,078,51,44,21,156,,40,16,039,41,05,20,130,38*65
$GBGSV,5,2,20,42,18,215,43,41,16,322,,07,20,051,39,14,29,240,43*65
$GBGSV,5,3,20,33,33,271,46,10,32,057,41,35,39,105,47,56,38,059,*61
$GBGSV,5,4,20,24,60,288,51,25,59,279,,12,04,171,,02,04,109,31*65
$GBGSV,5,5,20,45,08,090,41,50,03,195,,23,07,266,,60,07,111,40*67
$GPGGA,114537.00,,,,,0,00,,,M,,M,,*4D
$PTNL,GGK,114537.00,010125,4742.1600160,N,01618.0999594,E,1,40,0.7,EHT750.6490,M*4F
$GPGGQ,114537.00,010125,4742.1600160,N,01618.0999594,E,1,40,0.892,707.4424,M*3A
$GPGFA,114537.00,4.289,5.633,0.451,0.346,332.145,0.687,,VVV*08
$GPLLK,114537.00,010125,,M,,M,1,40,0.8,,M*02
$GNGMP,114537.00,,,,,DAAA,40,0.4,,,,*53
$GPGMP,114537.00,,,,,,10,,,,1.8,136*74
$GLGMP,114537.00,,,,,,09,,,,,*73
$GAGMP,114537.00,,,,,,09,,,,,*7E
$GBGMP,114537.00,,,,,,12,,,,,*77
$PSSN,SNC,[0,301555000,2347]*43
$GPZDA,114542.00,01,01,2025,,*64
$GPDTM,W84,,00.0000000,N,00.0000000,E,00.0000000,W84*5F
$PSSN,TFM,114542.00,,,,*68
$GPRMC,114542.00,A,4742.1600147,N,01618.0999594,E,0.0,,010125,5.1,E,D*15
$GPGLL,4742.1600147,N,01618.0999594,E,114542.00,A,D*64
$GPGGA,114542.00,4742.1600147,N,01618.0999594,E,2,40,0.4,707.4432,M,43.2066,M,2.8,0136*43
$GNGNS,114542.00,4742.1600147,N,01618.0999594,E,DAAA,40,0.4,707.4432,43.2066,,*51
$GPGNS,114542.00,,,,,,10,,,,2.8,136*75
$GLGNS,114542.00,,,,,,09,,,,,*71
$GAGNS,114542.00,,,,,,09,,,,,*7C
$GBGNS,114542.00,,,,,,12,,,,,*75
$GPLLQ,114542.00,010125,,M,,M,1,40,0.902,,M*19
$GPVTG,,T,,M,0.00,N,0.00,K,D*26
$GPHDT,,T*1B
$GPTHS,,V*0E
$GPROT,,V*08
$PSSN,HRP,114542.00,010125,,,,,,,00,0,,*66
$PTNL,AVR,114542.00,,Yaw,,Tilt,,,,0,,00*30
$GPGSA,A,3,06,10,12,13,15,17,19,24,25,32,,,0.7,0.4,0.6*3B
$GPGSA,A,3,66,67,68,76,77,78,85,86,87,,,,0.7,0.4,0.6*3A
$GPGSA,A,3,02,07,08,10,11,25,29,30,36,,,,0.7,0.4,0.6*31
$GPGSA,A,3,05,07,10,14,24,26,33,35,40,42,45,60,0.7,0.4,0.6*30
$GPGST,114542.00,2.473,0.453,0.355,334.143,0.436,0.375,0.694*5A
$GPGBS,114542.00,2.894,2.278,4.750,77,0.0001,-6.883,6.074*7A
$GPGRS,114542.00,1,-1.4,0.2,0.2,0.1,0.4,0.4,-0.3,0.0,-0.6,-0.2,,*4A
$GPGRS,114542.00,1,-2.5,6.4,5.5,-2.0,-6.9,-3.1,4.7,1.3,-3.5,,,*47
$GPGRS,114542.00,1,0.4,0.6,0.8,-0.9,-0.8,-0.9,0.4,0.3,-0.7,,,*65
$GPGRS,114542.00,1,2.0,0.6,0.9,1.3,0.2,-2.1,0.0,-1.3,-0.8,0.3,-0.9,-2.2*6A
$GPGSV,6,1,21,24,88,264,51,13,11,162,40,25,15,251,40,32,11,323,40*7A
$GPGSV,6,2,21,22,20,062,,15,26,193,45,10,11,295,41,17,27,047,43*7F
$GPGSV,6,3,21,19,49,077,47,12,55,251,49,06,09,107,38,23,04,256,38*7C
$GPGSV,6,4,21,36,35,170,45,58,13,245,36,40,23,133,37,34,31,208,43*7D
$GPGSV,6,5,21,49,34,195,45,57,07,111,38,41,07,108,35,61,03,257,38*72
$GPGSV,6,6,21*7A
$GLGSV,3,1,09,77,66,331,46,76,43,060,50,78,18,275,46,66,17,201,46*6B
$GLGSV,3,2,09,87,19,132,42,85,17,024,45,68,31,321,49,86,34,082,47*61
$GLGSV,3,3,09,67,46,256,51*5A
$GAGSV,3,1,12,02,69,055,49,07,51,288,47,08,49,196,48,25,16,063,39*63
$GAGSV,3,2,12,11,13,053,36,30,53,249,48,12,02,006,30,03,07,163,30*6A
$GAGSV,3,3,12,27,04,245,37,29,08,324,38,10,09,027,37,36,09,100,38*6F
$GBGSV,5,1,20,26,62,078,51,44,21,156,,40,16,039,41,05,20,130,39*64
$GBGSV,5,2,20,42,18,215,43,41,16,322,,07,20,051,39,14,29,240,43*65
$GBGSV,5,3,20,33,33,271,46,10,32,057,41,35,39,105,47,56,38,059,*61
$GBGSV,5,4,20,24,60,288,51,25,59,279,,12,04,171,,02,04,109,31*65
$GBGSV,5,5,20,45,08,090,41,50,03,195,,23,07,266,,60,07,111,40*67
$GPGGA,114542.00,,,,,0,00,,,M,,M,,*4F
$PTNL,GGK,114542.00,010125,4742.1600147,N,01618.0999594,E,1,40,0.7,EHT750.6498,M*40
$GPGGQ,114542.00,010125,4742.1600147,N,01618.0999594,E,1,40,0.902,707.4432,M*32
$GPGFA,114542.00,4.308,5.692,0.453,0.355,334.143,0.694,,VVV*0B
$GPLLK,114542.00,010125,,M,,M,1,40,0.8,,M*00
$GNGMP,114542.00,,,,,DAAA,40,0.4,,,,*51
$GPGMP,114542.00,,,,,,10,,,,2.8,136*75
$GLGMP,114542.00,,,,,,09,,,,,*71
$GAGMP,114542.00,,,,,,09,,,,,*7C
$GBGMP,114542.00,,,,,,12,,,,,*75
$PSSN,SNC,[0,301560000,2347]*45
$GPZDA,114547.00,01,01,2025,,*61
$GPDTM,W84,,00.0000000,N,00.0000000,E,00.0000000,W84*5F
$PSSN,TFM,114547.00,,,,*6D
$GPRMC,114547.00,A,4742.1600151,N,01618.0999594,E,0.0,,010125,5.1,E,D*17
$GPGLL,4742.1600151,N,01618.0999594,E,114547.00,A,D*66
$GPGGA,114547.00,4742.1600151,N,01618.0999594,E,2,40,0.4,707.4443,M,43.2066,M,3.3,0136*4D
$GNGNS,114547.00,4742.1600151,N,01618.0999594,E,DAAA,40,0.4,707.4443,43.2066,,*55
$GPGNS,114547.00,,,,,,10,,,,3.3,136*7A
$GLGNS,114547.00,,,,,,09,,,,,*74
$GAGNS,114547.00,,,,,,09,,,,,*79
$GBGNS,114547.00,,,,,,12,,,,,*70
$GPLLQ,114547.00,010125,,M,,M,1,40,0.913,,M*1C
$GPVTG,,T,,M,0.00,N,0.01,K,D*27
$GPHDT,,T*1B
$GPTHS,,V*0E
$GPROT,,V*08
$PSSN,HRP,114547.00,010125,,,,,,,00,0,,*63
$PTNL,AVR,114547.00,,Yaw,,Tilt,,,,0,,00*35
$GPGSA,A,3,06,10,12,13,15,17,19,24,25,32,,,0.7,0.4,0.6*3B
$GPGSA,A,3,66,67,68,76,77,78,85,86,87,,,,0.7,0.4,0.6*3A
$GPGSA,A,3,02,07,08,10,11,25,29,30,36,,,,0.7,0.4,0.6*31
$GPGSA,A,3,05,07,10,14,24,26,33,35,40,42,45,60,0.7,0.4,0.6*30
$GPGST,114547.00,2.608,0.456,0.360,334.060,0.439,0.380,0.704*5F
$GPGBS,114547.00,2.899,2.293,4.804,77,0.0001,-6.938,6.074*78
$GPGRS,114547.00,1,-2.0,-0.3,0.1,-0.0,0.4,0.2,-0.1,0.0,-0.8,0.3,,*6D
$GPGRS,114547.00,1,-2.6,6.9,6.5,-2.3,-6.9,-3.1,4.7,1.5,-3.8,,,*47
$GPGRS,114547.00,1,0.3,0.5,0.7,-0.7,-1.2,-0.7,0.4,0.5,-1.1,,,*61
$GPGRS,114547.00,1,1.5,0.6,0.9,1.3,-0.1,-1.8,0.3,-1.4,-0.6,0.2,-0.6,-2.2*49
$GPGSV,6,1,21,24,88,263,51,13,11,162,40,25,15,251,40,32,11,323,41*7C
$GPGSV,6,2,21,22,20,063,,15,26,193,45,10,11,295,41,17,27,047,44*79
$GPGSV,6,3,21,19,49,077,47,12,55,251,49,06,09,107,38,23,04,256,38*7C
$GPGSV,6,4,21,36,35,170,45,58,13,245,36,40,23,133,37,34,31,208,43*7D
$GPGSV,6,5,21,49,34,195,45,57,07,111,38,41,07,108,35,61,03,257,38*72
$GPGSV,6,6,21*7A
$GLGSV,3,1,09,77,66,332,46,76,43,060,50,78,18,275,48,66,17,201,46*66
$GLGSV,3,2,09,87,19,132,43,85,17,024,46,68,31,321,48,86,34,082,48*6D
$GLGSV,3,3,09,67,46,256,51*5A
$GAGSV,3,1,12,02,69,055,49,07,51,288,47,08,49,196,48,25,16,063,39*63
$GAGSV,3,2,12,11,13,053,35,30,53,249,48,12,02,006,30,03,07,163,30*69
$GAGSV,3,3,12,27,04,245,37,29,08,324,38,10,09,027,37,36,09,100,37*60
$GBGSV,5,1,20,26,62,078,51,44,21,156,,40,16,039,41,05,20,130,39*64
$GBGSV,5,2,20,42,18,214,43,41,16,322,,07,20,051,39,14,29,240,43*64
$GBGSV,5,3,20,33,33,271,46,10,32,057,42,35,39,105,47,56,38,059,*62
$GBGSV,5,4,20,24,60,288,51,25,59,279,,12,04,171,,02,04,109,31*65
$GBGSV,5,5,20,45,08,090,41,50,03,195,,23,07,266,,60,07,111,40*67
$GPGGA,114547.00,,,,,0,00,,,M,,M,,*4A
$PTNL,GGK,114547.00,010125,4742.1600151,N,01618.0999594,E,1,40,0.7,EHT750.6508,M*4A
$GPGGQ,114547.00,010125,4742.1600151,N,01618.0999594,E,1,40,0.913,707.4443,M*36
$GPGFA,114547.00,4.336,5.773,0.456,0.360,334.060,0.704,,VVV*06
$GPLLK,114547.00,010125,,M,,M,1,40,0.8,,M*05
$GNGMP,114547.00,,,,,DAAA,40,0.4,,,,*54
$GPGMP,114547.00,,,,,,10,,,,3.3,136*7A
$GLGMP,114547.00,,,,,,09,,,,,*74
$GAGMP,114547.00,,,,,,09,,,,,*79
$GBGMP,114547.00,,,,,,12,,,,,*70
$PSSN,SNC,[0,301565000,2347]*40
$GPZDA,114552.00,01,01,2025,,*65
$GPDTM,W84,,00.0000000,N,00.0000000,E,00.0000000,W84*5F
$PSSN,TFM,114552.00,,,,*69
$GPRMC,114552.00,A,4742.1600152,N,01618.0999581,E,0.0,,010125,5.1,E,D*14
$GPGLL,4742.1600152,N,01618.0999581,E,114552.00,A,D*65
$GPGGA,114552.00,4742.1600152,N,01618.0999581,E,2,40,0.4,707.4401,M,43.2066,M,2.1,0136*4B
$GNGNS,114552.00,4742.1600152,N,01618.0999581,E,DAAA,40,0.4,707.4401,43.2066,,*50
$GPGNS,114552.00,,,,,,10,,,,2.1,136*7D
$GLGNS,114552.00,,,,,,09,,,,,*70
$GAGNS,114552.00,,,,,,09,,,,,*7D
$GBGNS,114552.00,,,,,,12,,,,,*74
$GPLLQ,114552.00,010125,,M,,M,1,40,0.911,,M*1A
$GPVTG,,T,,M,0.00,N,0.01,K,D*27
$GPHDT,,T*1B
$GPTHS,,V*0E
$GPROT,,V*08
$PSSN,HRP,114552.00,010125,,,,,,,00,0,,*67
$PTNL,AVR,114552.00,,Yaw,,Tilt,,,,0,,00*31
$GPGSA,A,3,06,10,12,13,15,17,19,24,25,32,,,0.7,0.4,0.6*3B
$GPGSA,A,3,66,67,68,76,77,78,85,86,87,,,,0.7,0.4,0.6*3A
$GPGSA,A,3,02,07,08,10,11,25,29,30,36,,,,0.7,0.4,0.6*31
$GPGSA,A,3,05,07,10,14,24,26,33,35,40,42,45,60,0.7,0.4,0.6*30
$GPGST,114552.00,2.493,0.456,0.359,333.484,0.438,0.380,0.702*5F
$GPGBS,114552.00,2.921,2.270,4.852,77,0.0001,-6.940,6.074*7F
$GPGRS,114552.00,1,-1.5,-0.4,0.3,0.6,0.5,0.4,-0.1,-0.2,-0.4,0.1,,*67
$GPGRS,114552.00,1,-3.4,6.5,5.8,-2.5,-6.9,-2.2,4.2,1.9,-3.1,,,*46
$GPGRS,114552.00,1,0.2,0.3,0.2,-0.9,-0.9,-0.9,0.4,0.4,-1.1,,,*6C
$GPGRS,114552.00,1,1.9,0.3,0.8,1.9,-0.1,-1.9,0.0,-1.6,-0.9,0.2,-0.3,-2.4*43
$GPGSV,6,1,21,24,88,262,51,13,11,162,40,25,16,251,40,32,11,323,40*7F
$GPGSV,6,2,21,22,20,063,,15,26,193,44,10,11,295,41,17,27,047,44*78
$GPGSV,6,3,21,19,49,077,47,12,55,251,49,06,09,107,38,23,04,255,38*7F
$GPGSV,6,4,21,36,35,170,45,58,13,245,36,40,23,133,37,34,31,208,43*7D
$GPGSV,6,5,21,49,34,195,45,57,07,111,39,41,07,108,35,61,03,257,38*73
$GPGSV,6,6,21*7A
$GLGSV,3,1,09,77,67,332,46,76,43,060,50,78,18,275,48,66,17,201,46*67
$GLGSV,3,2,09,87,19,132,43,85,17,023,45,68,31,321,48,86,34,082,48*69
$GLGSV,3,3,09,67,46,256,51*5A
$GAGSV,3,1,12,02,69,055,49,07,51,288,47,08,49,196,48,25,16,063,39*63
$GAGSV,3,2,12,11,13,053,35,30,54,249,48,12,02,006,30,03,07,163,30*6E
$GAGSV,3,3,12,27,04,245,37,29,08,324,38,10,09,027,37,36,09,100,37*60
$GBGSV,5,1,20,26,62,078,51,44,21,156,,40,16,039,41,05,20,130,39*64
$GBGSV,5,2,20,42,18,214,43,41,16,322,,07,20,051,39,14,29,240,44*63
$GBGSV,5,3,20,33,33,271,47,10,32,057,42,35,39,105,47,56,38,059,*63
$GBGSV,5,4,20,24,60,288,51,25,59,279,,12,04,171,,02,04,109,31*65
$GBGSV,5,5,20,45,08,090,41,50,03,195,,23,07,266,,60,07,111,40*67
$GPGGA,114552.00,,,,,0,00,,,M,,M,,*4E
$PTNL,GGK,114552.00,010125,4742.1600152,N,01618.0999581,E,1,40,0.7,EHT750.6466,M*40
$GPGGQ,114552.00,010125,4742.1600152,N,01618.0999581,E,1,40,0.911,707.4401,M*31
$GPGFA,114552.00,4.333,5.757,0.456,0.359,333.484,0.702,,VVV*04
$GPLLK,114552.00,010125,,M,,M,1,40,0.8,,M*01
$GNGMP,114552.00,,,,,DAAA,40,0.4,,,,*50
$GPGMP,114552.00,,,,,,10,,,,2.1,136*7D
$GLGMP,114552.00,,,,,,09,,,,,*70
$GAGMP,114552.00,,,,,,09,,,,,*7D
$GBGMP,114552.00,,,,,,12,,,,,*74
$PSSN,SNC,[0,301570000,2347]*44
$GPZDA,114557.00,01,01,2025,,*60
$GPDTM,W84,,00.0000000,N,00.0000000,E,00.0000000,W84*5F
$PSSN,TFM,114557.00,,,,*6C
$GPRMC,114557.00,A,4742.1600165,N,01618.0999587,E,0.0,,010125,5.1,E,D*13
$GPGLL,4742.1600165,N,01618.0999587,E,114557.00,A,D*62
$GPGGA,114557.00,4742.1600165,N,01618.0999587,E,2,40,0.4,707.4428,M,43.2066,M,1.8,0136*4D
$GNGNS,114557.00,4742.1600165,N,01618.0999587,E,DAAA,40,0.4,707.4428,43.2066,,*5C
$GPGNS,114557.00,,,,,,10,,,,1.8,136*72
$GLGNS,114557.00,,,,,,09,,,,,*75
$GAGNS,114557.00,,,,,,09,,,,,*78
$GBGNS,114557.00,,,,,,12,,,,,*71
$GPLLQ,114557.00,010125,,M,,M,1,40,0.896,,M*11
$GPVTG,,T,,M,0.00,N,0.01,K,D*27
$GPHDT,,T*1B
$GPTHS,,V*0E
$GPROT,,V*08
$PSSN,HRP,114557.00,010125,,,,,,,00,0,,*62
$PTNL,AVR,114557.00,,Yaw,,Tilt,,,,0,,00*34
$GPGSA,A,3,06,10,12,13,15,17,19,24,25,32,,,0.7,0.4,0.6*3B
$GPGSA,A,3,66,67,68,76,77,78,85,86,87,,,,0.7,0.4,0.6*3A
$GPGSA,A,3,02,07,08,10,11,25,29,30,36,,,,0.7,0.4,0.6*31
$GPGSA,A,3,05,07,10,14,24,26,33,35,40,42,45,60,0.7,0.4,0.6*30
$GPGST,114557.00,2.461,0.452,0.352,333.361,0.434,0.374,0.689*51
$GPGBS,114557.00,2.881,2.266,4.688,77,0.0001,-6.746,6.074*77
$GPGRS,114557.00,1,-1.2,-0.3,0.3,-0.1,0.2,0.4,-0.2,-0.2,-1.0,0.2,,*4A
$GPGRS,114557.00,1,-2.6,6.5,6.2,-2.5,-6.7,-2.4,4.4,1.7,-2.4,,,*4D
$GPGRS,114557.00,1,0.3,0.3,0.4,-0.7,-0.2,-0.6,0.4,0.6,-0.7,,,*61
$GPGRS,114557.00,1,1.7,0.2,1.1,2.7,0.2,-1.8,0.0,-1.4,-0.7,0.6,-0.2,-2.3*6D
$GPGSV,6,1,21,24,88,262,51,13,10,162,40,25,16,251,40,32,11,323,41*7F
$GPGSV,6,2,21,22,20,063,,15,26,193,44,10,11,295,41,17,27,047,44*78
$GPGSV,6,3,21,19,49,077,47,12,55,251,49,06,09,107,38,23,04,255,38*7F
$GPGSV,6,4,21,36,35,170,45,58,13,245,36,40,23,133,36,34,31,208,43*7C
$GPGSV,6,5,21,49,34,195,45,57,07,111,38,41,07,108,35,61,03,257,38*72
$GPGSV,6,6,21*7A
$GLGSV,3,1,09,77,67,332,46,76,43,060,50,78,18,275,47,66,17,201,46*68
$GLGSV,3,2,09,87,19,132,43,85,17,023,45,68,31,321,48,86,34,082,48*69
$GLGSV,3,3,09,67,46,256,51*5A
$GAGSV,3,1,12,02,69,055,48,07,51,288,47,08,49,196,48,25,16,063,39*62
$GAGSV,3,2,12,11,13,053,36,30,54,249,48,12,02,006,29,03,07,163,30*65
$GAGSV,3,3,12,27,04,245,37,29,08,324,39,10,09,027,37,36,09,100,37*61
$GBGSV,5,1,20,26,62,078,51,44,21,156,,40,16,039,41,05,20,130,39*64
$GBGSV,5,2,20,42,18,214,43,41,16,322,,07,20,051,39,14,29,240,44*63
$GBGSV,5,3,20,33,33,271,47,10,32,057,42,35,39,105,47,56,38,059,*63
$GBGSV,5,4,20,24,60,288,51,25,59,279,,12,04,171,,02,04,109,31*65
$GBGSV,5,5,20,45,08,090,41,50,03,195,,23,07,266,,60,07,111,40*67
$GPGGA,114557.00,,,,,0,00,,,M,,M,,*4B
$PTNL,GGK,114557.00,010125,4742.1600165,N,01618.0999587,E,1,40,0.7,EHT750.6493,M*4D
$GPGGQ,114557.00,010125,4742.1600165,N,01618.0999587,E,1,40,0.896,707.4428,M*33
$GPGFA,114557.00,4.296,5.652,0.452,0.352,333.361,0.689,,VVV*0A
$GPLLK,114557.00,010125,,M,,M,1,40,0.8,,M*04
$GNGMP,114557.00,,,,,DAAA,40,0.4,,,,*55
$GPGMP,114557.00,,,,,,10,,,,1.8,136*72
$GLGMP,114557.00,,,,,,09,,,,,*75
$GAGMP,114557.00,,,,,,09,,,,,*78
$GBGMP,114557.00,,,,,,12,,,,,*71
$PSSN,SNC,[0,301575000,2347]*41
$GPZDA,114602.00,01,01,2025,,*63
$GPDTM,W84,,00.0000000,N,00.0000000,E,00.0000000,W84*5F
$PSSN,TFM,114602.00,,,,*6F
$GPRMC,114602.00,A,4742.1600155,N,01618.0999581,E,0.0,,010125,5.1,E,D*15
$GPGLL,4742.1600155,N,01618.0999581,E,114602.00,A,D*64
$GPGGA,114602.00,4742.1600155,N,01618.0999581,E,2,40,0.4,707.4410,M,43.2066,M,2.8,0136*43
$GNGNS,114602.00,4742.1600155,N,01618.0999581,E,DAAA,40,0.4,707.4410,43.2066,,*51
$GPGNS,114602.00,,,,,,10,,,,2.8,136*72
$GLGNS,114602.00,,,,,,09,,,,,*76
$GAGNS,114602.00,,,,,,09,,,,,*7B
$GBGNS,114602.00,,,,,,12,,,,,*72
$GPLLQ,114602.00,010125,,M,,M,1,40,0.901,,M*1D
$GPVTG,,T,,M,0.00,N,0.00,K,D*26
$GPHDT,,T*1B
$GPTHS,,V*0E
$GPROT,,V*08
$PSSN,HRP,114602.00,010125,,,,,,,00,0,,*61
$PTNL,AVR,114602.00,,Yaw,,Tilt,,,,0,,00*37
$GPGSA,A,3,06,10,12,13,15,17,19,24,25,32,,,0.7,0.4,0.6*3B
$GPGSA,A,3,66,67,68,76,77,78,85,86,87,,,,0.7,0.4,0.6*3A
$GPGSA,A,3,02,07,08,10,11,25,29,30,36,,,,0.7,0.4,0.6*31
$GPGSA,A,3,05,07,10,14,24,26,33,35,40,42,45,60,0.7,0.4,0.6*30
$GPGST,114602.00,2.529,0.453,0.355,334.090,0.436,0.375,0.693*5B
$GPGBS,114602.00,2.899,2.279,4.740,77,0.0001,-6.776,6.074*75
$GPGRS,114602.00,1,-1.3,-0.4,0.3,0.1,0.1,0.5,-0.4,-0.1,-0.3,0.2,,*67
$GPGRS,114602.00,1,-2.2,6.7,6.6,-2.8,-6.8,-3.5,3.9,1.5,-3.3,,,*40
$GPGRS,114602.00,1,0.4,0.4,0.6,-0.7,-0.4,-0.7,0.3,0.6,-0.9,,,*6E
$GPGRS,114602.00,1,1.7,0.3,1.3,2.0,0.4,-1.7,0.0,-1.3,-0.6,0.4,-0.4,-2.1*63
$GPGSV,6,1,21,24,88,261,51,13,10,162,40,25,16,251,39,32,11,323,41*72
$GPGSV,6,2,21,22,20,063,,15,26,193,45,10,11,295,40,17,27,047,43*7F
$GPGSV,6,3,21,19,49,077,47,12,56,251,49,06,09,107,38,23,04,255,37*73
$GPGSV,6,4,21,36,35,170,45,58,13,245,36,40,23,133,37,34,31,208,43*7D
$GPGSV,6,5,21,49,34,195,44,57,07,111,38,41,07,108,35,61,03,257,38*73
$GPGSV,6,6,21*7A
$GLGSV,3,1,09,77,67,332,46,76,43,060,49,78,18,275,47,66,17,201,47*61
$GLGSV,3,2,09,87,19,132,42,85,17,023,44,68,31,321,48,86,34,082,48*69
$GLGSV,3,3,09,67,46,256,51*5A
$GAGSV,3,1,12,02,69,055,48,07,51,288,47,08,48,196,47,25,16,063,39*6C
$GAGSV,3,2,12,11,13,053,36,30,54,249,48,12,02,006,29,03,07,163,30*65
$GAGSV,3,3,12,27,04,245,37,29,08,324,39,10,09,027,37,36,09,100,37*61
$GBGSV,5,1,20,26,62,078,51,44,21,156,,40,16,039,41,05,20,130,39*64
$GBGSV,5,2,20,42,18,214,42,41,16,322,,07,20,051,39,14,29,240,43*65
$GBGSV,5,3,20,33,33,271,46,10,32,057,42,35,39,105,47,56,38,059,*62
$GBGSV,5,4,20,24,60,288,51,25,59,279,,12,04,171,,02,04,109,32*66
$GBGSV,5,5,20,45,08,090,40,50,03,195,,23,07,266,,60,07,111,40*66
$GPGGA,114602.00,,,,,0,00,,,M,,M,,*48
$PTNL,GGK,114602.00,010125,4742.1600155,N,01618.0999581,E,1,40,0.7,EHT750.6475,M*43
$GPGGQ,114602.00,010125,4742.1600155,N,01618.0999581,E,1,40,0.901,707.4410,M*31
$GPGFA,114602.00,4.307,5.684,0.453,0.355,334.090,0.693,,VVV*0C
$GPLLK,114602.00,010125,,M,,M,1,40,0.8,,M*07
$GNGMP,114602.00,,,,,DAAA,40,0.4,,,,*56
$GPGMP,114602.00,,,,,,10,,,,2.8,136*72
$GLGMP,114602.00,,,,,,09,,,,,*76
$GAGMP,114602.00,,,,,,09,,,,,*7B
$GBGMP,114602.00,,,,,,12,,,,,*72
$PSSN,SNC,[0,301580000,2347]*4B
$GPZDA,114607.00,01,01,2025,,*66
$GPDTM,W84,,00.0000000,N,00.0000000,E,00.0000000,W84*5F
$PSSN,TFM,114607.00,,,,*6A
$GPRMC,114607.00,A,4742.1600156,N,01618.0999579,E,0.0,,010125,5.1,E,D*14
$GPGLL,4742.1600156,N,01618.0999579,E,114607.00,A,D*65
$GPGGA,114607.00,4742.1600156,N,01618.0999579,E,2,40,0.4,707.4378,M,43.2066,M,3.3,0136*41
$GNGNS,114607.00,4742.1600156,N,01618.0999579,E,DAAA,40,0.4,707.4378,43.2066,,*59
$GPGNS,114607.00,,,,,,10,,,,3.3,136*7D
$GLGNS,114607.00,,,,,,09,,,,,*73
$GAGNS,114607.00,,,,,,09,,,,,*7E
$GBGNS,114607.00,,,,,,12,,,,,*77
$GPLLQ,114607.00,010125,,M,,M,1,40,0.912,,M*1A
$GPVTG,,T,,M,0.00,N,0.00,K,D*26
$GPHDT,,T*1B
$GPTHS,,V*0E
$GPROT,,V*08
$PSSN,HRP,114607.00,010125,,,,,,,00,0,,*64
$PTNL,AVR,114607.00,,Yaw,,Tilt,,,,0,,00*32
$GPGSA,A,3,06,10,12,13,15,17,19,24,25,32,,,0.7,0.4,0.6*3B
$GPGSA,A,3,66,67,68,76,77,78,85,86,87,,,,0.7,0.4,0.6*3A
$GPGSA,A,3,02,07,08,10,11,25,29,30,36,,,,0.7,0.4,0.6*31
$GPGSA,A,3,05,07,10,14,24,26,33,35,40,42,45,60,0.7,0.4,0.6*30
$GPGST,114607.00,2.459,0.456,0.360,334.007,0.439,0.381,0.703*59
$GPGBS,114607.00,2.904,2.294,4.794,77,0.0001,-7.094,6.074*75
$GPGRS,114607.00,1,-1.7,-0.3,0.1,0.1,0.5,0.2,-0.0,-0.1,-0.3,0.3,,*65
$GPGRS,114607.00,1,-2.5,5.7,6.6,-2.8,-7.1,-3.2,2.9,1.0,-3.9,,,*40
$GPGRS,114607.00,1,0.2,0.3,0.6,-0.7,-0.7,-0.8,-0.3,0.3,-1.1,,,*47
$GPGRS,114607.00,1,1.3,0.1,1.2,1.3,0.3,-1.9,-0.1,-1.2,-1.0,-0.1,-0.5,-2.4*6E
$GPGSV,6,1,21,24,88,260,51,13,10,162,41,25,16,251,40,32,11,323,41*7C
$GPGSV,6,2,21,22,20,063,,15,26,193,45,10,11,295,40,17,27,047,44*78
$GPGSV,6,3,21,19,49,077,46,12,56,251,49,06,09,107,38,23,04,255,38*7D
$GPGSV,6,4,21,36,35,170,45,58,13,245,36,40,23,133,37,34,31,208,43*7D
$GPGSV,6,5,21,49,34,195,45,57,07,111,38,41,07,108,35,61,03,257,38*72
$GPGSV,6,6,21*7A
$GLGSV,3,1,09,77,67,332,46,76,43,060,50,78,18,275,47,66,17,201,47*69
$GLGSV,3,2,09,87,19,132,43,85,17,023,45,68,31,321,49,86,34,082,48*68
$GLGSV,3,3,09,67,46,256,51*5A
$GAGSV,3,1,12,02,69,055,48,07,51,288,46,08,48,196,47,25,16,063,38*6C
$GAGSV,3,2,12,11,13,053,36,30,54,249,47,12,02,006,29,03,07,163,30*6A
$GAGSV,3,3,12,27,04,245,37,29,08,324,38,10,09,027,37,36,09,100,36*61
$GBGSV,5,1,20,26,62,078,51,44,21,156,,40,16,039,41,05,20,130,39*64
$GBGSV,5,2,20,42,18,214,43,41,16,322,,07,20,051,40,14,29,240,44*6D
$GBGSV,5,3,20,33,32,271,46,10,32,057,42,35,39,105,47,56,38,059,*63
$GBGSV,5,4,20,24,60,288,51,25,59,279,,12,04,171,,02,04,109,31*65
$GBGSV,5,5,20,45,08,090,40,50,03,195,,23,07,266,,60,07,111,40*66
$GPGGA,114607.00,,,,,0,00,,,M,,M,,*4D
$PTNL,GGK,114607.00,010125,4742.1600156,N,01618.0999579,E,1,40,0.7,EHT750.6444,M*40
$GPGGQ,114607.00,010125,4742.1600156,N,01618.0999579,E,1,40,0.912,707.4378,M*3B
$GPGFA,114607.00,4.337,5.766,0.456,0.360,334.007,0.703,,VVV*02
$GPLLK,114607.00,010125,,M,,M,1,40,0.8,,M*02
$GNGMP,114607.00,,,,,DAAA,40,0.4,,,,*53
$GPGMP,114607.00,,,,,,10,,,,3.3,136*7D
$GLGMP,114607.00,,,,,,09,,,,,*73
$GAGMP,114607.00,,,,,,09,,,,,*7E
$GBGMP,114607.00,,,,,,12,,,,,*77
$PSSN,SNC,[0,301585000,2347]*4E
$GPZDA,114612.00,01,01,2025,,*62
$GPDTM,W84,,00.0000000,N,00.0000000,E,00.0000000,W84*5F
$PSSN,TFM,114612.00,,,,*6E
$GPRMC,114612.00,A,4742.1600159,N,01618.0999594,E,0.0,,010125,5.1,E,D*1C
$GPGLL,4742.1600159,N,01618.0999594,E,114612.00,A,D*6D
$GPGGA,114612.00,4742.1600159,N,01618.0999594,E,2,40,0.4,707.4417,M,43.2066,M,2.1,0136*44
$GNGNS,114612.00,4742.1600159,N,01618.0999594,E,DAAA,40,0.4,707.4417,43.2066,,*5F
$GPGNS,114612.00,,,,,,10,,,,2.1,136*7A
$GLGNS,114612.00,,,,,,09,,,,,*77
$GAGNS,114612.00,,,,,,09,,,,,*7A
$GBGNS,114612.00,,,,,,12,,,,,*73
$GPLLQ,114612.00,010125,,M,,M,1,40,0.910,,M*1C
$GPVTG,,T,,M,0.00,N,0.00,K,D*26
$GPHDT,,T*1B
$GPTHS,,V*0E
$GPROT,,V*08
$PSSN,HRP,114612.00,010125,,,,,,,00,0,,*60
$PTNL,AVR,114612.00,,Yaw,,Tilt,,,,0,,00*36
$GPGSA,A,3,06,10,12,13,15,17,19,24,25,32,,,0.7,0.4,0.6*3B
$GPGSA,A,3,66,67,68,76,77,78,85,86,87,,,,0.7,0.4,0.6*3A
$GPGSA,A,3,02,07,08,10,11,25,29,30,36,,,,0.7,0.4,0.6*31
$GPGSA,A,3,05,07,10,14,24,26,33,35,40,42,45,60,0.7,0.4,0.6*30
$GPGST,114612.00,2.408,0.456,0.359,333.453,0.438,0.380,0.701*53
$GPGBS,114612.00,2.923,2.270,4.841,77,0.0001,-6.789,6.074*73
$GPGRS,114612.00,1,-1.6,-0.1,0.2,0.0,0.2,0.7,-0.3,-0.3,-0.2,0.1,,*60
$GPGRS,114612.00,1,-3.3,6.3,6.0,-2.4,-6.8,-2.9,3.4,1.0,-2.5,,,*4D
$GPGRS,114612.00,1,0.4,0.4,0.6,-1.0,-0.4,-0.9,-0.5,0.4,-1.0,,,*46
$GPGRS,114612.00,1,1.4,0.5,1.2,1.9,0.2,-1.8,-0.3,-0.8,-1.2,0.5,-0.8,-2.1*49
$GPGSV,6,1,21,24,88,259,51,13,10,162,41,25,16,251,40,32,11,323,41*76
$GPGSV,6,2,21,15,26,193,44,10,11,295,40,22,20,063,,17,27,047,44*79
$GPGSV,6,3,21,19,49,077,47,12,56,251,49,06,09,107,38,23,04,255,38*7C
$GPGSV,6,4,21,36,35,170,45,58,13,245,36,40,23,133,37,34,31,208,43*7D
$GPGSV,6,5,21,49,34,195,44,57,07,111,38,41,07,108,35,61,03,257,38*73
$GPGSV,6,6,21*7A
$GLGSV,3,1,09,77,67,332,46,76,43,060,49,78,18,275,47,66,17,201,46*60
$GLGSV,3,2,09,87,19,132,43,85,17,023,44,68,31,321,49,86,34,081,48*6A
$GLGSV,3,3,09,67,46,256,51*5A
$GAGSV,3,1,12,02,69,055,48,07,51,288,46,08,48,196,47,25,16,063,38*6C
$GAGSV,3,2,12,11,13,053,35,30,54,249,47,12,02,006,29,03,07,163,31*68
$GAGSV,3,3,12,27,04,245,37,29,08,324,37,10,09,027,37,36,09,100,36*6E
$GBGSV,5,1,20,26,62,078,51,44,21,156,,40,16,039,41,05,20,130,39*64
$GBGSV,5,2,20,42,18,214,44,41,16,322,,07,20,051,40,14,29,240,43*6D
$GBGSV,5,3,20,33,32,271,46,10,32,057,42,35,39,104,48,56,38,059,*6D
$GBGSV,5,4,20,24,60,288,51,25,59,279,,12,04,171,,02,04,109,31*65
$GBGSV,5,5,20,45,08,090,40,50,03,195,,23,07,266,,60,07,111,41*67
$GPGGA,114612.00,,,,,0,00,,,M,,M,,*49
$PTNL,GGK,114612.00,010125,4742.1600159,N,01618.0999594,E,1,40,0.7,EHT750.6482,M*42
$GPGGQ,114612.00,010125,4742.1600159,N,01618.0999594,E,1,40,0.910,707.4417,M*3F
$GPGFA,114612.00,4.333,5.750,0.456,0.359,333.453,0.701,,VVV*0D
$GPLLK,114612.00,010125,,M,,M,1,40,0.8,,M*06
$GNGMP,114612.00,,,,,DAAA,40,0.4,,,,*57
$GPGMP,114612.00,,,,,,10,,,,2.1,136*7A
$GLGMP,114612.00,,,,,,09,,,,,*77
$GAGMP,114612.00,,,,,,09,,,,,*7A
$GBGMP,114612.00,,,,,,12,,,,,*73
$PSSN,SNC,[0,301590000,2347]*4A
$GPZDA,114617.00,01,01,2025,,*67
$GPDTM,W84,,00.0000000,N,00.0000000,E,00.0000000,W84*5F
$PSSN,TFM,114617.00,,,,*6B
$GPRMC,114617.00,A,4742.1600143,N,01618.0999597,E,0.0,,010125,5.1,E,D*11
$GPGLL,4742.1600143,N,01618.0999597,E,114617.00,A,D*60
$GPGGA,114617.00,4742.1600143,N,01618.0999597,E,2,39,0.4,707.4424,M,43.2066,M,1.8,0136*4D
$GNGNS,114617.00,4742.1600143,N,01618.0999597,E,DAAA,39,0.4,707.4424,43.2066,,*5C
$GPGNS,114617.00,,,,,,10,,,,1.8,136*75
$GLGNS,114617.00,,,,,,09,,,,,*72
$GAGNS,114617.00,,,,,,08,,,,,*7E
$GBGNS,114617.00,,,,,,12,,,,,*76
$GPLLQ,114617.00,010125,,M,,M,1,39,0.896,,M*18
$GPVTG,,T,,M,0.00,N,0.01,K,D*27
$GPHDT,,T*1B
$GPTHS,,V*0E
$GPROT,,V*08
$PSSN,HRP,114617.00,010125,,,,,,,00,0,,*65
$PTNL,AVR,114617.00,,Yaw,,Tilt,,,,0,,00*33
$GPGSA,A,3,06,10,12,13,15,17,19,24,25,32,,,0.7,0.4,0.6*3B
$GPGSA,A,3,66,67,68,76,77,78,85,86,87,,,,0.7,0.4,0.6*3A
$GPGSA,A,3,02,07,08,10,25,29,30,36,,,,,0.7,0.4,0.6*31
$GPGSA,A,3,05,07,10,14,24,26,33,35,40,42,45,60,0.7,0.4,0.6*30
$GPGST,114617.00,2.473,0.452,0.353,333.343,0.434,0.375,0.689*55
$GPGBS,114617.00,2.886,2.275,4.691,77,0.0001,-6.632,6.074*7F
$GPGRS,114617.00,1,-1.5,0.0,0.2,0.4,-0.3,0.4,0.0,-0.2,0.1,0.2,,*63
$GPGRS,114617.00,1,-3.1,6.2,6.4,-2.4,-6.6,-2.7,4.1,1.3,-2.4,,,*4F
$GPGRS,114617.00,1,0.4,0.5,0.6,-0.9,-0.8,-0.1,0.4,-0.9,,,,*40
$GPGRS,114617.00,1,1.7,0.5,1.3,1.9,0.1,-1.7,0.1,-1.0,-1.0,0.8,-0.9,-2.0*6B
$GPGSV,6,1,21,24,88,258,51,13,10,162,41,25,16,251,41,32,12,323,40*74
$GPGSV,6,2,21,15,26,193,44,10,11,294,40,22,20,063,,17,27,047,44*78
$GPGSV,6,3,21,19,49,077,47,12,56,251,49,06,10,107,38,23,04,255,37*7B
$GPGSV,6,4,21,36,35,170,45,58,13,245,36,40,23,133,37,34,31,208,43*7D
$GPGSV,6,5,21,49,34,195,45,57,07,111,38,41,07,108,35,61,03,257,38*72
$GPGSV,6,6,21*7A
$GLGSV,3,1,09,77,67,332,46,76,43,061,50,78,18,275,46,66,17,201,46*68
$GLGSV,3,2,09,87,19,132,43,85,17,023,45,68,31,321,49,86,34,081,48*6B
$GLGSV,3,3,09,67,46,256,50*5B
$GAGSV,3,1,12,02,69,055,48,07,51,288,46,08,48,196,47,25,16,063,38*6C
$GAGSV,3,2,12,11,13,053,35,30,54,249,47,12,02,006,29,03,07,163,30*69
$GAGSV,3,3,12,27,04,245,37,29,08,324,38,10,09,027,37,36,09,100,37*60
$GBGSV,5,1,20,26,62,078,51,44,21,156,,40,16,039,41,05,20,130,39*64
$GBGSV,5,2,20,42,17,214,43,41,16,322,,07,20,051,39,14,29,240,44*6C
$GBGSV,5,3,20,33,32,271,46,10,32,057,42,35,39,104,48,56,38,059,*6D
$GBGSV,5,4,20,24,60,288,51,25,59,279,,12,04,171,,02,04,109,31*65
$GBGSV,5,5,20,45,08,090,40,50,03,195,,23,07,266,,60,07,111,40*66
$GPGGA,114617.00,,,,,0,00,,,M,,M,,*4C
$PTNL,GGK,114617.00,010125,4742.1600143,N,01618.0999597,E,1,39,0.7,EHT750.6490,M*42
$GPGGQ,114617.00,010125,4742.1600143,N,01618.0999597,E,1,39,0.896,707.4424,M*33
$GPGFA,114617.00,4.295,5.648,0.452,0.353,333.343,0.689,,VVV*04
$GPLLK,114617.00,010125,,M,,M,1,39,0.8,,M*0D
$GNGMP,114617.00,,,,,DAAA,39,0.4,,,,*5C
$GPGMP,114617.00,,,,,,10,,,,1.8,136*75
$GLGMP,114617.00,,,,,,09,,,,,*72
$GAGMP,114617.00,,,,,,08,,,,,*7E
$GBGMP,114617.00,,,,,,12,,,,,*76
$PSSN,SNC,[0,301595000,2347]*4F
$GPZDA,114622.00,01,01,2025,,*61
$GPDTM,W84,,00.0000000,N,00.0000000,E,00.0000000,W84*5F
$PSSN,TFM,114622.00,,,,*6D
$GPRMC,114622.00,A,4742.1600134,N,01618.0999591,E,0.0,,010125,5.1,E,D*11
$GPGLL,4742.1600134,N,01618.0999591,E,114622.00,A,D*60
$GPGGA,114622.00,4742.1600134,N,01618.0999591,E,2,40,0.4,707.4477,M,43.2066,M,2.8,0136*46
