$GPZDA,132942.00,01,01,2025,,*6C
$GPDTM,W84,,00.0000000,N,00.0000000,E,00.0000000,W84*5F
$PSSN,TFM,132942.00,,,,*60
$GPRMC,132942.00,A,4742.1600674,N,01618.1007925,E,0.0,,010125,5.1,E,D*13
$GPGLL,4742.1600674,N,01618.1007925,E,132942.00,A,D*62
$GPGGA,132942.00,4742.1600674,N,01618.1007925,E,2,38,0.4,708.4413,M,43.2065,M,2.3,0136*4E
$GNGNS,132942.00,4742.1600674,N,01618.1007925,E,DAAA,38,0.4,708.4413,43.2065,,*57
$GPGNS,132942.00,,,,,,09,,,,2.3,136*7E
$GLGNS,132942.00,,,,,,08,,,,,*78
$GAGNS,132942.00,,,,,,08,,,,,*75
$GBGNS,132942.00,,,,,,13,,,,,*7C
$GPLLQ,132942.00,010125,,M,,M,1,38,1.253,,M*10
$GPVTG,,T,,M,0.00,N,0.00,K,D*26
$GPHDT,,T*1B
$GPTHS,,V*0E
$GPROT,,V*08
$PSSN,HRP,132942.00,010125,,,,,,,00,0,,*6E
$PTNL,AVR,132942.00,,Yaw,,Tilt,,,,0,,00*38
$GPGSA,A,3,06,11,12,19,24,25,28,29,32,,,,0.8,0.4,0.7*35
$GPGSA,A,3,68,69,77,78,79,86,87,88,,,,,0.8,0.4,0.7*38
$GPGSA,A,3,02,07,08,27,29,30,34,36,,,,,0.8,0.4,0.7*3B
$GPGSA,A,3,05,07,10,12,24,25,26,32,34,35,41,44,0.8,0.4,0.7*39
$GPGSA,A,3,60,,,,,,,,,,,,0.8,0.4,0.7*3F
$GPGST,132942.00,2.050,0.517,0.400,9.962,0.514,0.404,1.069*52
$GPGBS,132942.00,3.266,2.153,7.628,68,0.0001,7.099,6.475*57
$GPGRS,132942.00,1,-0.2,0.5,-0.1,0.7,0.2,-0.1,1.1,-0.8,-0.1,,,*49
$GPGRS,132942.00,1,7.1,2.3,-5.9,-1.2,-0.5,1.9,-0.6,-0.3,,,,*6C
$GPGRS,132942.00,1,0.6,0.3,-1.5,0.2,-0.0,-0.3,-0.0,0.3,,,,*42
$GPGRS,132942.00,1,1.7,-3.5,1.9,-1.1,-0.6,0.4,0.9,-0.1,0.5,-0.4,-0.4,0.9*4F
$GPGRS,132942.00,1,-2.5,,,,,,,,,,,*45
$GPGSV,5,1,19,12,74,049,50,28,15,312,40,19,15,046,40,11,31,106,45*79
$GPGSV,5,2,19,29,25,212,44,24,40,153,46,06,29,062,43,32,32,286,46*7C
$GPGSV,5,3,19,25,56,284,48,03,00,001,36,36,35,170,46,58,13,245,36*78
$GPGSV,5,4,19,40,23,133,36,34,31,208,43,49,34,195,45,57,08,110,38*7E
$GPGSV,5,5,19,41,07,108,35,61,03,257,38*73
$GLGSV,3,1,10,78,58,323,53,86,18,027,44,79,11,295,45,68,23,261,48*65
$GLGSV,3,2,10,88,35,159,49,69,24,314,47,87,53,070,48,77,47,086,46*62
$GLGSV,3,3,10,67,00,219,39,76,05,103,41*66
$GAGSV,3,1,11,30,81,343,49,36,30,066,43,34,26,125,42,07,37,235,45*6D
$GAGSV,3,2,11,29,30,301,43,02,35,077,45,27,33,272,44,15,00,166,*66
$GAGSV,3,3,11,19,03,337,32,08,09,189,39,11,07,022,32*58
$GBGSV,6,1,22,24,78,100,52,34,26,186,45,31,19,095,,10,22,061,39*64
$GBGSV,6,2,22,05,20,130,39,56,29,052,,41,14,283,41,12,47,159,47*6D
$GBGSV,6,3,22,35,34,053,47,26,26,113,45,25,43,297,48,23,41,291,*66
$GBGSV,6,4,22,44,59,120,51,33,03,237,39,11,05,194,,02,04,108,33*6B
$GBGSV,6,5,22,38,01,077,,40,02,047,35,20,06,338,,32,07,334,40*6B
$GBGSV,6,6,22,07,09,058,36,60,08,110,40*67
$GPGGA,132942.00,,,,,0,00,,,M,,M,,*47
$PTNL,GGK,132942.00,010125,4742.1600674,N,01618.1007925,E,1,38,0.8,EHT751.6478,M*49
$GPGGQ,132942.00,010125,4742.1600674,N,01618.1007925,E,1,38,1.253,708.4413,M*39
$GPGFA,132942.00,4.920,8.768,0.517,0.400,9.962,1.069,,VVV*0F
$GPLLK,132942.00,010125,,M,,M,1,38,0.9,,M*06
$GNGMP,132942.00,,,,,DAAA,38,0.4,,,,*56
$GPGMP,132942.00,,,,,,09,,,,2.3,136*7E
$GLGMP,132942.00,,,,,,08,,,,,*78
$GAGMP,132942.00,,,,,,08,,,,,*75
$GBGMP,132942.00,,,,,,13,,,,,*7C
$PSSN,SNC,[0,307800000,2347]*48
$GPZDA,132947.00,01,01,2025,,*69
$GPDTM,W84,,00.0000000,N,00.0000000,E,00.0000000,W84*5F
$PSSN,TFM,132947.00,,,,*65
$GPRMC,132947.00,A,4742.1600652,N,01618.1007916,E,0.0,,010125,5.1,E,D*12
$GPGLL,4742.1600652,N,01618.1007916,E,132947.00,A,D*63
$GPGGA,132947.00,4742.1600652,N,01618.1007916,E,2,38,0.4,708.4477,M,43.2065,M,2.0,0136*4E
$GNGNS,132947.00,4742.1600652,N,01618.1007916,E,DAAA,38,0.4,708.4477,43.2065,,*54
$GPGNS,132947.00,,,,,,09,,,,2.0,136*78
$GLGNS,132947.00,,,,,,08,,,,,*7D
$GAGNS,132947.00,,,,,,08,,,,,*70
$GBGNS,132947.00,,,,,,13,,,,,*79
$GPLLQ,132947.00,010125,,M,,M,1,38,1.247,,M*10
$GPVTG,,T,,M,0.00,N,0.00,K,D*26
$GPHDT,,T*1B
$GPTHS,,V*0E
$GPROT,,V*08
$PSSN,HRP,132947.00,010125,,,,,,,00,0,,*6B
$PTNL,AVR,132947.00,,Yaw,,Tilt,,,,0,,00*3D
$GPGSA,A,3,06,11,12,19,24,25,28,29,32,,,,0.8,0.4,0.7*35
$GPGSA,A,3,68,69,77,78,79,86,87,88,,,,,0.8,0.4,0.7*38
$GPGSA,A,3,02,07,08,27,29,30,34,36,,,,,0.8,0.4,0.7*3B
$GPGSA,A,3,05,07,10,12,24,25,26,32,34,35,41,44,0.8,0.4,0.7*39
$GPGSA,A,3,60,,,,,,,,,,,,0.8,0.4,0.7*3F
$GPGST,132947.00,2.209,0.515,0.399,10.296,0.512,0.403,1.064*68
$GPGBS,132947.00,3.291,2.161,7.636,68,0.0001,7.579,6.475*5F
$GPGRS,132947.00,1,-0.0,0.1,-0.2,0.5,0.0,0.2,1.2,-0.6,-0.2,,,*69
$GPGRS,132947.00,1,7.6,2.4,-6.8,-1.1,-0.3,2.4,-0.7,-1.1,,,,*62
$GPGRS,132947.00,1,0.5,0.0,-1.4,0.2,0.3,-0.2,-0.0,0.2,,,,*68
$GPGRS,132947.00,1,1.2,-3.7,2.3,-0.7,-0.2,0.2,0.9,0.0,0.0,-0.6,-0.4,1.1*63
$GPGRS,132947.00,1,-2.3,,,,,,,,,,,*46
$GPGSV,5,1,19,12,74,049,50,28,15,312,40,19,15,046,40,11,31,106,45*79
$GPGSV,5,2,19,29,25,212,45,24,40,153,46,06,29,062,44,32,32,285,46*79
$GPGSV,5,3,19,25,57,284,48,03,00,001,35,36,35,170,46,58,13,245,36*7A
$GPGSV,5,4,19,40,23,133,36,34,31,208,43,49,34,195,45,57,08,110,38*7E
$GPGSV,5,5,19,41,07,108,35,61,03,257,38*73
$GLGSV,3,1,10,78,58,323,52,86,18,027,45,79,11,295,44,68,23,261,48*64
$GLGSV,3,2,10,88,35,159,49,69,24,314,47,87,53,070,48,77,47,086,46*62
$GLGSV,3,3,10,67,00,219,39,76,05,103,41*66
$GAGSV,3,1,11,30,81,343,49,36,30,066,42,34,26,125,42,07,37,235,45*6C
$GAGSV,3,2,11,29,30,301,43,02,35,077,45,27,33,272,43,15,00,166,*61
$GAGSV,3,3,11,19,03,337,32,08,09,189,39,11,07,022,32*58
$GBGSV,6,1,22,24,78,100,52,34,26,186,45,31,19,095,,10,22,061,39*64
$GBGSV,6,2,22,05,20,130,39,56,29,052,,41,13,283,42,12,47,159,47*69
$GBGSV,6,3,22,35,34,053,47,26,26,113,45,25,43,297,48,23,41,291,*66
$GBGSV,6,4,22,44,59,119,51,33,03,237,39,11,05,194,,02,04,108,33*61
$GBGSV,6,5,22,38,01,077,,40,02,047,34,20,06,338,,32,07,334,40*6A
$GBGSV,6,6,22,07,09,058,36,60,08,110,40*67
$GPGGA,132947.00,,,,,0,00,,,M,,M,,*42
$PTNL,GGK,132947.00,010125,4742.1600652,N,01618.1007916,E,1,38,0.8,EHT751.6543,M*41
$GPGGQ,132947.00,010125,4742.1600652,N,01618.1007916,E,1,38,1.247,708.4477,M*3F
$GPGFA,132947.00,4.900,8.722,0.515,0.399,10.296,1.064,,VVV*36
$GPLLK,132947.00,010125,,M,,M,1,38,0.9,,M*03
$GNGMP,132947.00,,,,,DAAA,38,0.4,,,,*53
$GPGMP,132947.00,,,,,,09,,,,2.0,136*78
$GLGMP,132947.00,,,,,,08,,,,,*7D
$GAGMP,132947.00,,,,,,08,,,,,*70
$GBGMP,132947.00,,,,,,13,,,,,*79
$PSSN,SNC,[0,307805000,2347]*4D
$GPZDA,132952.00,01,01,2025,,*6D
$GPDTM,W84,,00.0000000,N,00.0000000,E,00.0000000,W84*5F
$PSSN,TFM,132952.00,,,,*61
$GPRMC,132952.00,A,4742.1600638,N,01618.1007930,E,0.0,,010125,5.1,E,D*1E
$GPGLL,4742.1600638,N,01618.1007930,E,132952.00,A,D*6F
$GPGGA,132952.00,4742.1600638,N,01618.1007930,E,2,38,0.4,708.4496,M,43.2065,M,3.0,0136*4C
$GNGNS,132952.00,4742.1600638,N,01618.1007930,E,DAAA,38,0.4,708.4496,43.2065,,*57
$GPGNS,132952.00,,,,,,09,,,,3.0,136*7D
$GLGNS,132952.00,,,,,,08,,,,,*79
$GAGNS,132952.00,,,,,,08,,,,,*74
$GBGNS,132952.00,,,,,,13,,,,,*7D
$GPLLQ,132952.00,010125,,M,,M,1,38,1.243,,M*10
$GPVTG,,T,,M,0.00,N,0.01,K,D*27
$GPHDT,,T*1B
$GPTHS,,V*0E
$GPROT,,V*08
$PSSN,HRP,132952.00,010125,,,,,,,00,0,,*6F
$PTNL,AVR,132952.00,,Yaw,,Tilt,,,,0,,00*39
$GPGSA,A,3,06,11,12,19,24,25,28,29,32,,,,0.8,0.4,0.7*35
$GPGSA,A,3,68,69,77,78,79,86,87,88,,,,,0.8,0.4,0.7*38
$GPGSA,A,3,02,07,08,27,29,30,34,36,,,,,0.8,0.4,0.7*3B
$GPGSA,A,3,05,07,10,12,24,25,26,32,34,35,41,44,0.8,0.4,0.7*39
$GPGSA,A,3,60,,,,,,,,,,,,0.8,0.4,0.7*3F
$GPGST,132952.00,2.135,0.517,0.399,9.751,0.514,0.403,1.058*5D
$GPGBS,132952.00,3.311,2.176,7.708,68,0.0001,7.677,6.476*56
$GPGRS,132952.00,1,0.0,0.4,-0.1,0.3,0.1,-0.1,0.9,-0.2,-0.2,,,*61
$GPGRS,132952.00,1,7.7,3.1,-6.2,-1.4,-0.6,1.5,-1.0,-0.9,,,,*64
$GPGRS,132952.00,1,-0.0,0.0,-1.8,-0.0,1.1,-0.3,-0.2,0.0,,,,*65
$GPGRS,132952.00,1,1.6,-2.7,2.5,-0.5,-0.5,0.1,0.3,-0.2,0.2,-0.5,-0.3,0.9*48
$GPGRS,132952.00,1,-2.2,,,,,,,,,,,*43
$GPGSV,5,1,19,12,74,049,50,28,15,312,40,19,15,046,40,11,31,106,44*78
$GPGSV,5,2,19,29,25,212,44,24,40,153,46,06,29,062,43,32,32,285,46*7F
$GPGSV,5,3,19,25,57,284,48,03,00,000,35,36,35,170,45,58,13,245,36*78
$GPGSV,5,4,19,40,23,133,36,34,31,208,43,49,34,195,45,57,08,110,38*7E
$GPGSV,5,5,19,41,07,108,35,61,03,257,38*73
$GLGSV,3,1,10,78,58,323,52,86,18,027,44,79,11,295,44,68,23,261,47*6A
$GLGSV,3,2,10,88,35,159,50,69,24,314,47,87,53,070,48,77,47,086,46*6A
$GLGSV,3,3,10,67,00,219,39,76,05,103,40*67
$GAGSV,3,1,11,30,81,343,49,36,30,066,43,34,26,124,42,07,37,235,45*6C
$GAGSV,3,2,11,29,30,301,43,02,35,077,45,27,33,272,43,15,00,166,*61
$GAGSV,3,3,11,19,03,337,32,08,09,189,39,11,07,022,32*58
$GBGSV,6,1,22,24,78,100,51,34,26,186,45,31,19,095,,10,22,061,39*67
$GBGSV,6,2,22,05,20,130,39,56,29,052,,41,13,283,42,12,47,159,46*68
$GBGSV,6,3,22,35,34,053,47,26,26,113,45,25,43,297,48,23,41,291,*66
$GBGSV,6,4,22,44,59,119,51,33,03,237,38,11,05,194,,02,04,108,33*60
$GBGSV,6,5,22,38,01,077,,40,02,047,34,20,06,338,,32,07,334,40*6A
$GBGSV,6,6,22,07,09,058,36,60,08,110,40*67
$GPGGA,132952.00,,,,,0,00,,,M,,M,,*46
$PTNL,GGK,132952.00,010125,4742.1600638,N,01618.1007930,E,1,38,0.8,EHT751.6561,M*4D
$GPGGQ,132952.00,010125,4742.1600638,N,01618.1007930,E,1,38,1.243,708.4496,M*38
$GPGFA,132952.00,4.919,8.674,0.517,0.399,9.751,1.058,,VVV*03
$GPLLK,132952.00,010125,,M,,M,1,38,0.9,,M*07
$GNGMP,132952.00,,,,,DAAA,38,0.4,,,,*57
$GPGMP,132952.00,,,,,,09,,,,3.0,136*7D
$GLGMP,132952.00,,,,,,08,,,,,*79
$GAGMP,132952.00,,,,,,08,,,,,*74
$GBGMP,132952.00,,,,,,13,,,,,*7D
$PSSN,SNC,[0,307810000,2347]*49
$GPZDA,132957.00,01,01,2025,,*68
$GPDTM,W84,,00.0000000,N,00.0000000,E,00.0000000,W84*5F
$PSSN,TFM,132957.00,,,,*64
$GPRMC,132957.00,A,4742.1600635,N,01618.1007939,E,0.0,,010125,5.1,E,D*1F
$GPGLL,4742.1600635,N,01618.1007939,E,132957.00,A,D*6E
$GPGGA,132957.00,4742.1600635,N,01618.1007939,E,2,38,0.4,708.4549,M,43.2065,M,2.7,0136*48
$GNGNS,132957.00,4742.1600635,N,01618.1007939,E,DAAA,38,0.4,708.4549,43.2065,,*55
$GPGNS,132957.00,,,,,,09,,,,2.7,136*7E
$GLGNS,132957.00,,,,,,08,,,,,*7C
$GAGNS,132957.00,,,,,,08,,,,,*71
$GBGNS,132957.00,,,,,,13,,,,,*78
$GPLLQ,132957.00,010125,,M,,M,1,38,1.253,,M*14
$GPVTG,,T,,M,0.00,N,0.01,K,D*27
$GPHDT,,T*1B
$GPTHS,,V*0E
$GPROT,,V*08
$PSSN,HRP,132957.00,010125,,,,,,,00,0,,*6A
$PTNL,AVR,132957.00,,Yaw,,Tilt,,,,0,,00*3C
$GPGSA,A,3,06,11,12,19,24,25,28,29,32,,,,0.8,0.4,0.7*35
$GPGSA,A,3,68,69,77,78,79,86,87,88,,,,,0.8,0.4,0.7*38
$GPGSA,A,3,02,07,08,27,29,30,34,36,,,,,0.8,0.4,0.7*3B
$GPGSA,A,3,05,07,10,12,24,25,26,32,34,35,41,44,0.8,0.4,0.7*39
$GPGSA,A,3,60,,,,,,,,,,,,0.8,0.4,0.7*3F
$GPGST,132957.00,2.009,0.520,0.401,9.378,0.517,0.405,1.066*53
$GPGBS,132957.00,3.246,2.193,7.728,68,0.0001,6.736,6.476*5C
$GPGRS,132957.00,1,-0.2,0.1,-0.5,0.1,0.3,-0.0,0.5,-0.3,0.5,,,*6C
$GPGRS,132957.00,1,6.7,2.5,-6.3,-1.1,-0.4,0.6,-1.3,-0.2,,,,*69
$GPGRS,132957.00,1,-0.0,0.1,-1.8,-0.1,0.8,-0.2,0.1,0.5,,,,*42
$GPGRS,132957.00,1,1.7,-2.8,2.2,-0.7,-0.5,0.1,1.1,-0.4,0.5,-0.1,0.7,0.9*69
$GPGRS,132957.00,1,-2.5,,,,,,,,,,,*41
$GPGSV,5,1,19,12,74,049,50,28,15,312,40,19,15,046,39,11,31,106,44*76
$GPGSV,5,2,19,29,25,212,44,24,40,153,46,06,29,062,43,32,32,285,46*7F
$GPGSV,5,3,19,25,57,284,48,03,00,000,34,36,35,170,45,58,13,245,36*79
$GPGSV,5,4,19,40,23,133,36,34,31,208,43,49,34,195,45,57,08,110,38*7E
$GPGSV,5,5,19,41,07,108,35,61,03,257,38*73
$GLGSV,3,1,10,78,58,323,52,86,18,027,43,79,11,295,45,68,22,261,47*6D
$GLGSV,3,2,10,88,35,159,50,69,24,314,47,87,53,070,48,77,47,086,45*69
$GLGSV,3,3,10,67,00,219,35,76,05,103,40*6B
$GAGSV,3,1,11,30,81,343,49,36,30,066,43,34,26,124,42,07,37,235,45*6C
$GAGSV,3,2,11,29,30,301,43,02,35,077,45,27,33,272,43,15,00,166,*61
$GAGSV,3,3,11,19,03,336,32,08,09,189,38,11,07,022,33*59
$GBGSV,6,1,22,24,78,100,51,34,26,186,45,31,19,095,,10,22,061,39*67
$GBGSV,6,2,22,05,20,130,39,56,29,052,,41,13,283,42,12,47,159,47*69
$GBGSV,6,3,22,35,34,053,47,26,26,113,46,25,43,297,48,23,41,291,*65
$GBGSV,6,4,22,44,59,119,51,33,03,237,38,11,05,194,,02,04,108,33*60
$GBGSV,6,5,22,38,01,077,,40,02,047,34,20,06,338,,32,07,334,40*6A
$GBGSV,6,6,22,07,09,058,36,60,08,110,40*67
$GPGGA,132957.00,,,,,0,00,,,M,,M,,*43
$PTNL,GGK,132957.00,010125,4742.1600635,N,01618.1007939,E,1,38,0.8,EHT751.6615,M*4C
$GPGGQ,132957.00,010125,4742.1600635,N,01618.1007939,E,1,38,1.253,708.4549,M*3B
$GPGFA,132957.00,4.944,8.745,0.520,0.401,9.378,1.066,,VVV*0D
$GPLLK,132957.00,010125,,M,,M,1,38,0.9,,M*02
$GNGMP,132957.00,,,,,DAAA,38,0.4,,,,*52
$GPGMP,132957.00,,,,,,09,,,,2.7,136*7E
$GLGMP,132957.00,,,,,,08,,,,,*7C
$GAGMP,132957.00,,,,,,08,,,,,*71
$GBGMP,132957.00,,,,,,13,,,,,*78
$PSSN,SNC,[0,307815000,2347]*4C
$GPZDA,133002.00,01,01,2025,,*60
$GPDTM,W84,,00.0000000,N,00.0000000,E,00.0000000,W84*5F
$PSSN,TFM,133002.00,,,,*6C
$GPRMC,133002.00,A,4742.1600633,N,01618.1007979,E,0.0,,010125,5.1,E,D*15
$GPGLL,4742.1600633,N,01618.1007979,E,133002.00,A,D*64
$GPGGA,133002.00,4742.1600633,N,01618.1007979,E,2,38,0.4,708.4570,M,43.2065,M,2.3,0136*4C
$GNGNS,133002.00,4742.1600633,N,01618.1007979,E,DAAA,38,0.4,708.4570,43.2065,,*55
$GPGNS,133002.00,,,,,,09,,,,2.3,136*72
$GLGNS,133002.00,,,,,,08,,,,,*74
$GAGNS,133002.00,,,,,,08,,,,,*79
$GBGNS,133002.00,,,,,,13,,,,,*70
$GPLLQ,133002.00,010125,,M,,M,1,38,1.255,,M*1A
$GPVTG,,T,,M,0.00,N,0.01,K,D*27
$GPHDT,,T*1B
$GPTHS,,V*0E
$GPROT,,V*08
$PSSN,HRP,133002.00,010125,,,,,,,00,0,,*62
$PTNL,AVR,133002.00,,Yaw,,Tilt,,,,0,,00*34
$GPGSA,A,3,06,11,12,19,24,25,28,29,32,,,,0.8,0.4,0.7*35
$GPGSA,A,3,68,69,77,78,79,86,87,88,,,,,0.8,0.4,0.7*38
$GPGSA,A,3,02,07,08,27,29,30,34,36,,,,,0.8,0.4,0.7*3B
$GPGSA,A,3,05,07,10,12,24,25,26,32,34,35,41,44,0.8,0.4,0.7*39
$GPGSA,A,3,60,,,,,,,,,,,,0.8,0.4,0.7*3F
$GPGST,133002.00,2.014,0.517,0.400,9.870,0.514,0.404,1.071*55
$GPGBS,133002.00,3.269,2.156,7.627,68,0.0001,6.738,6.476*50
$GPGRS,133002.00,1,-0.7,0.2,-0.4,0.3,0.2,0.0,0.7,-0.3,0.4,,,*4E
$GPGRS,133002.00,1,6.7,2.6,-5.9,-1.1,-0.2,0.7,-1.1,-0.5,,,,*69
$GPGRS,133002.00,1,0.2,0.3,-1.5,0.4,0.3,-0.1,0.0,0.7,,,,*49
$GPGRS,133002.00,1,2.0,-3.3,2.3,0.1,-0.5,0.1,1.5,-0.6,1.0,-0.6,0.5,0.8*43
$GPGRS,133002.00,1,-2.3,,,,,,,,,,,*4F
$GPGSV,5,1,19,12,74,049,50,28,15,312,40,19,15,046,40,11,31,106,44*78
$GPGSV,5,2,19,29,25,212,44,24,40,153,46,06,29,062,44,32,32,285,46*78
$GPGSV,5,3,19,25,57,284,48,03,00,000,34,36,35,170,45,58,13,245,36*79
$GPGSV,5,4,19,40,23,133,36,34,31,208,43,49,34,195,45,57,08,110,38*7E
$GPGSV,5,5,19,41,07,108,35,61,03,257,38*73
$GLGSV,3,1,10,78,58,323,52,86,18,027,43,79,11,295,44,68,22,261,47*6C
$GLGSV,3,2,10,69,24,314,47,88,35,159,50,87,53,070,48,77,47,086,46*6A
$GLGSV,3,3,10,76,05,103,40,67,00,219,32*6C
$GAGSV,3,1,11,30,81,343,49,36,30,066,43,34,27,124,42,07,37,235,45*6D
$GAGSV,3,2,11,29,30,301,43,02,35,077,44,27,33,272,43,15,00,166,*60
$GAGSV,3,3,11,19,03,336,32,08,09,189,38,11,07,022,33*59
$GBGSV,6,1,22,24,78,100,51,34,26,186,45,31,19,095,,10,22,061,39*67
$GBGSV,6,2,22,05,20,130,39,56,29,052,,41,13,283,41,12,47,159,47*6A
$GBGSV,6,3,22,35,34,053,46,26,26,113,45,25,43,297,47,23,41,291,*68
$GBGSV,6,4,22,44,59,119,51,33,03,237,39,11,05,194,,02,04,108,33*61
$GBGSV,6,5,22,38,01,077,,40,02,047,34,20,06,338,,32,07,334,40*6A
$GBGSV,6,6,22,07,09,058,36,60,08,110,40*67
$GPGGA,133002.00,,,,,0,00,,,M,,M,,*4B
$PTNL,GGK,133002.00,010125,4742.1600633,N,01618.1007979,E,1,38,0.8,EHT751.6635,M*44
$GPGGQ,133002.00,010125,4742.1600633,N,01618.1007979,E,1,38,1.255,708.4570,M*3D
$GPGFA,133002.00,4.919,8.783,0.517,0.400,9.870,1.071,,VVV*07
$GPLLK,133002.00,010125,,M,,M,1,38,0.9,,M*0A
$GNGMP,133002.00,,,,,DAAA,38,0.4,,,,*5A
$GPGMP,133002.00,,,,,,09,,,,2.3,136*72
$GLGMP,133002.00,,,,,,08,,,,,*74
$GAGMP,133002.00,,,,,,08,,,,,*79
$GBGMP,133002.00,,,,,,13,,,,,*70
$PSSN,SNC,[0,307820000,2347]*4A
$GPZDA,133007.00,01,01,2025,,*65
$GPDTM,W84,,00.0000000,N,00.0000000,E,00.0000000,W84*5F
$PSSN,TFM,133007.00,,,,*69
$GPRMC,133007.00,A,4742.1600626,N,01618.1008003,E,0.0,,010125,5.1,E,D*1F
$GPGLL,4742.1600626,N,01618.1008003,E,133007.00,A,D*6E
$GPGGA,133007.00,4742.1600626,N,01618.1008003,E,2,38,0.4,708.4587,M,43.2065,M,2.0,0136*4D
$GNGNS,133007.00,4742.1600626,N,01618.1008003,E,DAAA,38,0.4,708.4587,43.2065,,*57
$GPGNS,133007.00,,,,,,09,,,,2.0,136*74
$GLGNS,133007.00,,,,,,08,,,,,*71
$GAGNS,133007.00,,,,,,08,,,,,*7C
$GBGNS,133007.00,,,,,,13,,,,,*75
$GPLLQ,133007.00,010125,,M,,M,1,38,1.249,,M*12
$GPVTG,,T,,M,0.00,N,0.01,K,D*27
$GPHDT,,T*1B
$GPTHS,,V*0E
$GPROT,,V*08
$PSSN,HRP,133007.00,010125,,,,,,,00,0,,*67
$PTNL,AVR,133007.00,,Yaw,,Tilt,,,,0,,00*31
$GPGSA,A,3,06,11,12,19,24,25,28,29,32,,,,0.8,0.4,0.7*35
$GPGSA,A,3,68,69,77,78,79,86,87,88,,,,,0.8,0.4,0.7*38
$GPGSA,A,3,02,07,08,27,29,30,34,36,,,,,0.8,0.4,0.7*3B
$GPGSA,A,3,05,07,10,12,24,25,26,32,34,35,41,44,0.8,0.4,0.7*39
$GPGSA,A,3,60,,,,,,,,,,,,0.8,0.4,0.7*3F
$GPGST,133007.00,1.933,0.515,0.399,10.218,0.512,0.403,1.065*62
$GPGBS,133007.00,3.295,2.163,7.636,68,0.0001,6.458,6.477*54
$GPGRS,133007.00,1,-0.3,0.4,-0.1,0.2,-0.1,-0.0,1.0,-0.4,0.2,,,*49
$GPGRS,133007.00,1,6.5,2.8,-5.8,-1.1,-0.3,1.2,-0.6,-0.5,,,,*62
$GPGRS,133007.00,1,0.2,0.4,-1.7,0.1,0.1,-0.3,-0.2,0.6,,,,*62
$GPGRS,133007.00,1,1.4,-3.1,1.9,-0.1,-0.4,-0.0,1.2,-0.7,1.0,-0.8,0.2,0.9*44
$GPGRS,133007.00,1,-2.3,,,,,,,,,,,*4A
$GPGSV,5,1,19,12,74,049,50,28,15,312,40,19,15,046,40,11,31,106,44*78
$GPGSV,5,2,19,29,25,212,44,24,40,153,46,06,29,062,43,32,32,285,45*7C
$GPGSV,5,3,19,25,57,284,48,03,00,000,33,36,35,170,45,58,13,245,36*7E
$GPGSV,5,4,19,40,23,133,36,34,31,208,43,49,34,195,45,57,08,110,38*7E
$GPGSV,5,5,19,41,07,108,35,61,03,257,38*73
$GLGSV,3,1,09,78,58,323,53,86,18,027,43,79,11,295,44,68,22,261,47*65
$GLGSV,3,2,09,69,24,314,47,88,36,159,50,87,53,070,48,77,46,086,46*60
$GLGSV,3,3,09,76,05,103,39*50
$GAGSV,3,1,11,30,81,344,49,36,30,066,43,34,27,124,42,07,37,235,45*6A
$GAGSV,3,2,11,29,30,301,44,02,35,077,44,27,33,272,43,15,00,166,*67
$GAGSV,3,3,11,19,03,336,32,08,09,189,38,11,06,022,33*58
$GBGSV,6,1,22,24,78,100,51,34,26,186,45,31,19,095,,10,21,061,39*64
$GBGSV,6,2,22,05,20,130,39,56,29,052,,41,13,283,41,12,47,159,47*6A
$GBGSV,6,3,22,35,34,053,46,26,26,113,45,25,43,297,47,23,41,291,*68
$GBGSV,6,4,22,44,59,119,51,33,03,237,40,11,05,194,,02,04,108,32*6E
$GBGSV,6,5,22,38,01,077,,40,02,047,34,20,06,338,,32,07,334,40*6A
$GBGSV,6,6,22,07,09,058,36,60,08,110,40*67
$GPGGA,133007.00,,,,,0,00,,,M,,M,,*4E
$PTNL,GGK,133007.00,010125,4742.1600626,N,01618.1008003,E,1,38,0.8,EHT751.6653,M*4E
$GPGGQ,133007.00,010125,4742.1600626,N,01618.1008003,E,1,38,1.249,708.4587,M*32
$GPGFA,133007.00,4.900,8.735,0.515,0.399,10.218,1.065,,VVV*3B
$GPLLK,133007.00,010125,,M,,M,1,38,0.9,,M*0F
$GNGMP,133007.00,,,,,DAAA,38,0.4,,,,*5F
$GPGMP,133007.00,,,,,,09,,,,2.0,136*74
$GLGMP,133007.00,,,,,,08,,,,,*71
$GAGMP,133007.00,,,,,,08,,,,,*7C
$GBGMP,133007.00,,,,,,13,,,,,*75
$PSSN,SNC,[0,307825000,2347]*4F
$GPZDA,133012.00,01,01,2025,,*61
$GPDTM,W84,,00.0000000,N,00.0000000,E,00.0000000,W84*5F
$PSSN,TFM,133012.00,,,,*6D
$GPRMC,133012.00,A,4742.1600585,N,01618.1008024,E,0.0,,010125,5.1,E,D*14
$GPGLL,4742.1600585,N,01618.1008024,E,133012.00,A,D*65
$GPGGA,133012.00,4742.1600585,N,01618.1008024,E,2,38,0.4,708.4618,M,43.2065,M,3.0,0136*42
$GNGNS,133012.00,4742.1600585,N,01618.1008024,E,DAAA,38,0.4,708.4618,43.2065,,*59
$GPGNS,133012.00,,,,,,09,,,,3.0,136*71
$GLGNS,133012.00,,,,,,08,,,,,*75
$GAGNS,133012.00,,,,,,08,,,,,*78
$GBGNS,133012.00,,,,,,13,,,,,*71
$GPLLQ,133012.00,010125,,M,,M,1,38,1.245,,M*1A
$GPVTG,,T,,M,0.01,N,0.01,K,D*26
$GPHDT,,T*1B
$GPTHS,,V*0E
$GPROT,,V*08
$PSSN,HRP,133012.00,010125,,,,,,,00,0,,*63
$PTNL,AVR,133012.00,,Yaw,,Tilt,,,,0,,00*35
$GPGSA,A,3,06,11,12,19,24,25,28,29,32,,,,0.8,0.4,0.7*35
$GPGSA,A,3,68,69,77,78,79,86,87,88,,,,,0.8,0.4,0.7*38
$GPGSA,A,3,02,07,08,27,29,30,34,36,,,,,0.8,0.4,0.7*3B
$GPGSA,A,3,05,07,10,12,24,25,26,32,34,35,41,44,0.8,0.4,0.7*39
$GPGSA,A,3,60,,,,,,,,,,,,0.8,0.4,0.7*3F
$GPGST,133012.00,1.976,0.517,0.399,9.644,0.514,0.403,1.059*59
$GPGBS,133012.00,3.315,2.179,7.708,77,0.0001,-6.340,6.201*74
$GPGRS,133012.00,1,-0.4,0.5,-0.0,0.2,-0.1,-0.1,1.2,-0.6,0.2,,,*4B
$GPGRS,133012.00,1,6.2,1.8,-6.3,-1.4,-1.3,2.3,-0.9,0.1,,,,*4A
$GPGRS,133012.00,1,0.3,0.4,-1.8,0.4,0.1,-0.3,-0.2,0.5,,,,*6E
$GPGRS,133012.00,1,1.3,-2.9,1.8,0.0,-0.4,0.3,1.3,-0.8,0.3,-0.4,0.7,1.0*40
$GPGRS,133012.00,1,-2.1,,,,,,,,,,,*4C
$GPGSV,5,1,19,12,74,049,50,28,15,312,40,19,15,046,41,24,40,153,46*7B
$GPGSV,5,2,19,06,29,062,44,11,31,106,44,29,25,212,44,32,32,285,45*79
$GPGSV,5,3,19,25,57,284,48,03,00,000,34,36,35,170,45,58,13,245,36*79
$GPGSV,5,4,19,40,23,133,36,34,31,208,43,49,34,195,45,57,08,110,38*7E
$GPGSV,5,5,19,41,07,108,35,61,03,257,38*73
$GLGSV,3,1,09,78,58,323,53,86,18,027,43,79,11,295,44,68,22,260,47*64
$GLGSV,3,2,09,69,24,314,47,88,36,159,50,87,53,070,48,77,46,086,46*60
$GLGSV,3,3,09,76,05,103,39*50
$GAGSV,3,1,11,30,81,344,49,36,30,065,43,34,27,124,42,07,37,235,45*69
$GAGSV,3,2,11,29,30,301,44,02,35,077,44,27,33,272,44,15,00,166,*60
$GAGSV,3,3,11,19,03,336,33,08,08,189,38,11,06,022,33*58
$GBGSV,6,1,22,24,78,100,52,34,26,186,45,31,19,095,,10,21,061,39*67
$GBGSV,6,2,22,05,20,130,39,56,29,052,,41,13,283,41,12,47,159,47*6A
$GBGSV,6,3,22,35,34,053,46,26,26,113,44,25,43,297,48,23,41,291,*66
$GBGSV,6,4,22,44,59,119,51,33,03,237,40,11,05,194,,02,04,108,33*6F
$GBGSV,6,5,22,38,01,077,,40,02,047,34,20,06,338,,32,07,334,40*6A
$GBGSV,6,6,22,07,09,058,36,60,08,110,40*67
$GPGGA,133012.00,,,,,0,00,,,M,,M,,*4A
$PTNL,GGK,133012.00,010125,4742.1600585,N,01618.1008024,E,1,38,0.8,EHT751.6683,M*48
$GPGGQ,133012.00,010125,4742.1600585,N,01618.1008024,E,1,38,1.245,708.4618,M*30
$GPGFA,133012.00,4.918,8.687,0.517,0.399,9.644,1.059,,VVV*06
$GPLLK,133012.00,010125,,M,,M,1,38,0.9,,M*0B
$GNGMP,133012.00,,,,,DAAA,38,0.4,,,,*5B
$GPGMP,133012.00,,,,,,09,,,,3.0,136*71
$GLGMP,133012.00,,,,,,08,,,,,*75
$GAGMP,133012.00,,,,,,08,,,,,*78
$GBGMP,133012.00,,,,,,13,,,,,*71
$PSSN,SNC,[0,307830000,2347]*4B
$GPZDA,133017.00,01,01,2025,,*64
$GPDTM,W84,,00.0000000,N,00.0000000,E,00.0000000,W84*5F
$PSSN,TFM,133017.00,,,,*68
$GPRMC,133017.00,A,4742.1600579,N,01618.1008014,E,0.0,,010125,5.1,E,D*11
$GPGLL,4742.1600579,N,01618.1008014,E,133017.00,A,D*60
$GPGGA,133017.00,4742.1600579,N,01618.1008014,E,2,38,0.4,708.4685,M,43.2065,M,2.7,0136*45
$GNGNS,133017.00,4742.1600579,N,01618.1008014,E,DAAA,38,0.4,708.4685,43.2065,,*58
$GPGNS,133017.00,,,,,,09,,,,2.7,136*72
$GLGNS,133017.00,,,,,,08,,,,,*70
$GAGNS,133017.00,,,,,,08,,,,,*7D
$GBGNS,133017.00,,,,,,13,,,,,*74
$GPLLQ,133017.00,010125,,M,,M,1,38,1.254,,M*1F
$GPVTG,,T,,M,0.00,N,0.00,K,D*26
$GPHDT,,T*1B
$GPTHS,,V*0E
$GPROT,,V*08
$PSSN,HRP,133017.00,010125,,,,,,,00,0,,*66
$PTNL,AVR,133017.00,,Yaw,,Tilt,,,,0,,00*30
$GPGSA,A,3,06,11,12,19,24,25,28,29,32,,,,0.8,0.4,0.7*35
$GPGSA,A,3,68,69,77,78,79,86,87,88,,,,,0.8,0.4,0.7*38
$GPGSA,A,3,02,07,08,27,29,30,34,36,,,,,0.8,0.4,0.7*3B
$GPGSA,A,3,05,07,10,12,24,25,26,32,34,35,41,44,0.8,0.4,0.7*39
$GPGSA,A,3,60,,,,,,,,,,,,0.8,0.4,0.7*3F
$GPGST,133017.00,2.098,0.520,0.401,9.270,0.517,0.405,1.068*50
$GPGBS,133017.00,3.249,2.196,7.728,77,0.0001,-7.023,6.201*7D
$GPGRS,133017.00,1,0.0,0.4,-0.1,-0.2,0.1,-0.5,1.4,-0.4,0.4,,,*61
$GPGRS,133017.00,1,6.0,2.3,-7.0,-1.7,-0.5,2.4,-1.3,0.5,,,,*4B
$GPGRS,133017.00,1,0.1,0.3,-1.5,0.3,0.2,-0.3,-0.2,0.4,,,,*66
$GPGRS,133017.00,1,1.8,-3.4,2.2,-0.4,-0.3,0.4,1.3,0.1,-0.1,-0.8,0.7,1.0*65
$GPGRS,133017.00,1,-2.5,,,,,,,,,,,*4D
$GPGSV,5,1,19,12,74,049,50,28,15,312,40,19,15,046,41,24,40,153,46*7B
$GPGSV,5,2,19,06,29,062,43,11,31,106,44,29,25,212,44,32,32,285,45*7E
$GPGSV,5,3,19,25,57,284,48,03,00,000,35,36,35,170,46,58,13,245,37*7A
$GPGSV,5,4,19,40,23,133,36,34,31,208,43,49,34,195,45,57,08,110,38*7E
$GPGSV,5,5,19,41,07,108,35,61,03,257,38*73
$GLGSV,3,1,09,78,59,323,52,86,18,027,44,79,11,295,45,68,22,260,47*62
$GLGSV,3,2,09,69,24,314,47,88,36,159,50,87,53,070,48,77,46,086,46*60
$GLGSV,3,3,09,76,05,103,40*5E
$GAGSV,3,1,11,30,81,344,49,36,30,065,43,34,27,124,43,07,37,235,45*68
$GAGSV,3,2,11,29,30,301,43,02,35,077,45,27,33,272,44,15,00,166,*66
$GAGSV,3,3,11,19,03,336,33,08,08,189,38,11,06,022,33*58
$GBGSV,6,1,22,24,78,100,51,34,26,186,45,31,19,095,,10,21,061,39*64
$GBGSV,6,2,22,05,20,130,39,56,29,052,,41,13,283,40,12,47,159,47*6B
$GBGSV,6,3,22,35,34,053,46,26,26,113,45,25,43,297,48,23,41,291,*67
$GBGSV,6,4,22,44,59,119,51,33,03,237,39,11,05,194,,02,04,108,33*61
$GBGSV,6,5,22,38,01,077,,40,02,047,34,20,06,338,,32,07,333,40*6D
$GBGSV,6,6,22,07,09,058,37,60,08,110,40*66
$GPGGA,133017.00,,,,,0,00,,,M,,M,,*4F
$PTNL,GGK,133017.00,010125,4742.1600579,N,01618.1008014,E,1,38,0.8,EHT751.6751,M*43
$GPGGQ,133017.00,010125,4742.1600579,N,01618.1008014,E,1,38,1.254,708.4685,M*31
$GPGFA,133017.00,4.943,8.758,0.520,0.401,9.270,1.068,,VVV*0D
$GPLLK,133017.00,010125,,M,,M,1,38,0.9,,M*0E
$GNGMP,133017.00,,,,,DAAA,38,0.4,,,,*5E
$GPGMP,133017.00,,,,,,09,,,,2.7,136*72
$GLGMP,133017.00,,,,,,08,,,,,*70
$GAGMP,133017.00,,,,,,08,,,,,*7D
$GBGMP,133017.00,,,,,,13,,,,,*74
$PSSN,SNC,[0,307835000,2347]*4E
$GPZDA,133022.00,01,01,2025,,*62
$GPDTM,W84,,00.0000000,N,00.0000000,E,00.0000000,W84*5F
$PSSN,TFM,133022.00,,,,*6E
$GPRMC,133022.00,A,4742.1600561,N,01618.1008017,E,0.0,,010125,5.1,E,D*1D
$GPGLL,4742.1600561,N,01618.1008017,E,133022.00,A,D*6C
$GPGGA,133022.00,4742.1600561,N,01618.1008017,E,2,38,0.4,708.4732,M,43.2065,M,2.3,0136*40
$GNGNS,133022.00,4742.1600561,N,01618.1008017,E,DAAA,38,0.4,708.4732,43.2065,,*59
$GPGNS,133022.00,,,,,,09,,,,2.3,136*70
$GLGNS,133022.00,,,,,,08,,,,,*76
$GAGNS,133022.00,,,,,,08,,,,,*7B
$GBGNS,133022.00,,,,,,13,,,,,*72
$GPLLQ,133022.00,010125,,M,,M,1,38,1.256,,M*1B
$GPVTG,,T,,M,0.00,N,0.00,K,D*26
$GPHDT,,T*1B
$GPTHS,,V*0E
$GPROT,,V*08
$PSSN,HRP,133022.00,010125,,,,,,,00,0,,*60
$PTNL,AVR,133022.00,,Yaw,,Tilt,,,,0,,00*36
$GPGSA,A,3,06,11,12,19,24,25,28,29,32,,,,0.8,0.4,0.7*35
$GPGSA,A,3,68,69,77,78,79,86,87,88,,,,,0.8,0.4,0.7*38
$GPGSA,A,3,02,07,08,27,29,30,34,36,,,,,0.8,0.4,0.7*3B
$GPGSA,A,3,05,07,10,12,24,25,26,32,34,35,41,44,0.8,0.4,0.7*39
$GPGSA,A,3,60,,,,,,,,,,,,0.8,0.4,0.7*3F
$GPGST,133022.00,2.154,0.517,0.400,9.771,0.514,0.404,1.073*5E
$GPGBS,133022.00,3.272,2.159,7.625,77,0.0001,-7.133,6.201*7C
$GPGRS,133022.00,1,-0.6,0.3,0.0,0.2,-0.2,-0.2,1.3,-0.4,0.3,,,*63
$GPGRS,133022.00,1,6.7,1.9,-7.1,-1.6,-0.2,3.2,-0.8,0.2,,,,*4E
$GPGRS,133022.00,1,0.4,0.4,-1.4,0.4,0.5,-0.2,0.2,0.4,,,,*4F
$GPGRS,133022.00,1,2.0,-2.6,1.9,-0.5,-0.2,0.4,1.4,0.7,0.3,-0.5,-0.2,1.2*6A
$GPGRS,133022.00,1,-2.5,,,,,,,,,,,*4B
$GPGSV,5,1,19,12,74,049,50,28,15,312,40,19,15,046,40,24,40,153,46*7A
$GPGSV,5,2,19,06,29,062,43,11,31,106,45,29,25,212,44,32,32,285,46*7C
$GPGSV,5,3,19,25,57,285,48,03,00,000,35,36,35,170,45,58,13,245,36*79
$GPGSV,5,4,19,40,23,133,36,34,31,208,43,49,34,195,45,57,08,110,38*7E
$GPGSV,5,5,19,41,07,108,35,61,03,257,38*73
$GLGSV,3,1,09,78,59,323,53,86,18,027,44,79,11,295,45,68,22,260,47*63
$GLGSV,3,2,09,69,24,314,47,88,36,159,49,87,53,070,48,77,46,086,46*68
$GLGSV,3,3,09,76,05,103,40*5E
$GAGSV,3,1,11,30,81,344,49,36,30,065,43,34,27,124,43,07,37,235,45*68
$GAGSV,3,2,11,29,30,301,43,02,35,077,44,27,33,272,44,15,00,166,*67
$GAGSV,3,3,11,19,03,336,33,08,08,189,37,11,06,022,33*57
$GBGSV,6,1,22,24,78,100,51,34,26,186,45,31,19,095,,10,21,061,38*65
$GBGSV,6,2,22,05,20,130,39,56,29,052,,41,13,283,41,12,47,159,47*6A
$GBGSV,6,3,22,35,34,053,47,26,26,113,45,25,43,297,48,23,42,291,*65
$GBGSV,6,4,22,44,59,119,51,33,03,237,39,11,05,194,,02,04,108,33*61
$GBGSV,6,5,22,38,01,077,,40,02,047,34,20,06,338,,32,07,333,40*6D
$GBGSV,6,6,22,07,08,058,37,60,08,110,40*67
$GPGGA,133022.00,,,,,0,00,,,M,,M,,*49
$PTNL,GGK,133022.00,010125,4742.1600561,N,01618.1008017,E,1,38,0.8,EHT751.6797,M*45
$GPGGQ,133022.00,010125,4742.1600561,N,01618.1008017,E,1,38,1.256,708.4732,M*32
$GPGFA,133022.00,4.917,8.795,0.517,0.400,9.771,1.073,,VVV*00
$GPLLK,133022.00,010125,,M,,M,1,38,0.9,,M*08
$GNGMP,133022.00,,,,,DAAA,38,0.4,,,,*58
$GPGMP,133022.00,,,,,,09,,,,2.3,136*70
$GLGMP,133022.00,,,,,,08,,,,,*76
$GAGMP,133022.00,,,,,,08,,,,,*7B
$GBGMP,133022.00,,,,,,13,,,,,*72
$PSSN,SNC,[0,307840000,2347]*4C
$GPZDA,133027.00,01,01,2025,,*67
$GPDTM,W84,,00.0000000,N,00.0000000,E,00.0000000,W84*5F
$PSSN,TFM,133027.00,,,,*6B
$GPRMC,133027.00,A,4742.1600524,N,01618.1008051,E,0.0,,010125,5.1,E,D*1B
$GPGLL,4742.1600524,N,01618.1008051,E,133027.00,A,D*6A
$GPGGA,133027.00,4742.1600524,N,01618.1008051,E,2,38,0.4,708.4791,M,43.2065,M,2.0,0136*4C
$GNGNS,133027.00,4742.1600524,N,01618.1008051,E,DAAA,38,0.4,708.4791,43.2065,,*56
$GPGNS,133027.00,,,,,,09,,,,2.0,136*76
$GLGNS,133027.00,,,,,,08,,,,,*73
$GAGNS,133027.00,,,,,,08,,,,,*7E
$GBGNS,133027.00,,,,,,13,,,,,*77
$GPLLQ,133027.00,010125,,M,,M,1,38,1.250,,M*18
$GPVTG,,T,,M,0.00,N,0.01,K,D*27
$GPHDT,,T*1B
$GPTHS,,V*0E
$GPROT,,V*08
$PSSN,HRP,133027.00,010125,,,,,,,00,0,,*65
$PTNL,AVR,133027.00,,Yaw,,Tilt,,,,0,,00*33
$GPGSA,A,3,06,11,12,19,24,25,28,29,32,,,,0.8,0.4,0.7*35
$GPGSA,A,3,68,69,77,78,79,86,87,88,,,,,0.8,0.4,0.7*38
$GPGSA,A,3,02,07,08,27,29,30,34,36,,,,,0.8,0.4,0.7*3B
$GPGSA,A,3,05,07,10,12,24,25,26,32,34,35,41,44,0.8,0.4,0.7*39
$GPGSA,A,3,60,,,,,,,,,,,,0.8,0.4,0.7*3F
$GPGST,133027.00,2.074,0.515,0.399,10.109,0.512,0.403,1.067*68
$GPGBS,133027.00,3.297,2.167,7.635,77,0.0001,-6.608,6.201*70
$GPGRS,133027.00,1,-0.2,0.4,-0.1,-0.3,-0.2,0.1,1.0,-0.6,0.5,,,*4C
$GPGRS,133027.00,1,6.2,2.0,-6.6,-1.5,-0.7,2.5,-0.3,-1.2,,,,*65
$GPGRS,133027.00,1,0.6,0.3,-1.3,0.0,0.7,-0.1,0.1,0.4,,,,*4E
$GPGRS,133027.00,1,1.7,-3.0,2.8,-0.7,-0.3,0.2,1.6,0.9,0.7,-0.5,0.5,1.2*49
$GPGRS,133027.00,1,-2.4,,,,,,,,,,,*4F
$GPGSV,5,1,19,12,74,050,50,28,15,312,40,19,15,046,41,24,40,153,46*73
$GPGSV,5,2,19,06,29,062,43,11,31,106,45,29,25,212,44,32,32,285,46*7C
$GPGSV,5,3,19,25,57,285,49,03,00,000,34,36,35,170,46,58,13,245,37*7B
$GPGSV,5,4,19,40,23,133,36,34,31,208,43,49,34,195,45,57,08,110,38*7E
$GPGSV,5,5,19,41,07,108,35,61,03,257,38*73
$GLGSV,3,1,09,78,59,323,52,86,18,027,44,79,11,295,43,68,22,260,47*64
$GLGSV,3,2,09,69,24,314,47,88,36,159,49,87,53,070,48,77,46,086,46*68
$GLGSV,3,3,09,76,05,103,39*50
$GAGSV,3,1,11,30,81,344,49,36,30,065,43,34,27,124,43,07,37,235,45*68
$GAGSV,3,2,11,29,30,301,43,02,35,077,44,27,33,272,44,15,00,166,*67
$GAGSV,3,3,11,19,03,336,33,08,08,189,37,11,06,022,33*57
$GBGSV,6,1,22,24,78,100,51,34,26,186,44,31,19,095,,10,21,061,38*64
$GBGSV,6,2,22,05,20,130,39,56,29,052,,41,13,283,42,12,47,159,46*68
$GBGSV,6,3,22,35,34,053,47,26,26,113,45,25,43,298,48,23,42,291,*6A
$GBGSV,6,4,22,44,59,119,51,33,03,237,39,11,05,194,,02,04,108,33*61
$GBGSV,6,5,22,38,01,077,,40,02,047,34,20,06,338,,32,07,333,41*6C
$GBGSV,6,6,22,07,08,058,37,60,08,110,40*67
$GPGGA,133027.00,,,,,0,00,,,M,,M,,*4C
$PTNL,GGK,133027.00,010125,4742.1600524,N,01618.1008051,E,1,38,0.8,EHT751.6856,M*41
$GPGGQ,133027.00,010125,4742.1600524,N,01618.1008051,E,1,38,1.250,708.4791,M*3B
$GPGFA,133027.00,4.898,8.747,0.515,0.399,10.109,1.067,,VVV*3D
$GPLLK,133027.00,010125,,M,,M,1,38,0.9,,M*0D
$GNGMP,133027.00,,,,,DAAA,38,0.4,,,,*5D
$GPGMP,133027.00,,,,,,09,,,,2.0,136*76
$GLGMP,133027.00,,,,,,08,,,,,*73
$GAGMP,133027.00,,,,,,08,,,,,*7E
$GBGMP,133027.00,,,,,,13,,,,,*77
$PSSN,SNC,[0,307845000,2347]*49
$GPZDA,133032.00,01,01,2025,,*63
$GPDTM,W84,,00.0000000,N,00.0000000,E,00.0000000,W84*5F
$PSSN,TFM,133032.00,,,,*6F
$GPRMC,133032.00,A,4742.1600497,N,01618.1008052,E,0.0,,010125,5.1,E,D*15
$GPGLL,4742.1600497,N,01618.1008052,E,133032.00,A,D*64
$GPGGA,133032.00,4742.1600497,N,01618.1008052,E,2,38,0.4,708.4806,M,43.2065,M,3.0,0136*42
$GNGNS,133032.00,4742.1600497,N,01618.1008052,E,DAAA,38,0.4,708.4806,43.2065,,*59
$GPGNS,133032.00,,,,,,09,,,,3.0,136*73
$GLGNS,133032.00,,,,,,08,,,,,*77
$GAGNS,133032.00,,,,,,08,,,,,*7A
$GBGNS,133032.00,,,,,,13,,,,,*73
$GPLLQ,133032.00,010125,,M,,M,1,38,1.246,,M*1B
$GPVTG,,T,,M,0.01,N,0.01,K,D*26
$GPHDT,,T*1B
$GPTHS,,V*0E
$GPROT,,V*08
$PSSN,HRP,133032.00,010125,,,,,,,00,0,,*61
$PTNL,AVR,133032.00,,Yaw,,Tilt,,,,0,,00*37
$GPGSA,A,3,06,11,12,19,24,25,28,29,32,,,,0.8,0.4,0.7*35
$GPGSA,A,3,68,69,77,78,79,86,87,88,,,,,0.8,0.4,0.7*38
$GPGSA,A,3,02,07,08,27,29,30,34,36,,,,,0.8,0.4,0.7*3B
$GPGSA,A,3,05,07,10,12,24,25,26,32,34,35,41,44,0.8,0.4,0.7*39
$GPGSA,A,3,60,,,,,,,,,,,,0.8,0.4,0.7*3F
$GPGST,133032.00,1.995,0.517,0.399,9.549,0.514,0.403,1.061*53
$GPGBS,133032.00,3.318,2.183,7.707,68,0.0001,6.547,6.479*5A
$GPGRS,133032.00,1,-0.1,0.4,0.0,-0.2,-0.2,0.0,1.0,-0.3,0.1,,,*66
$GPGRS,133032.00,1,6.5,1.6,-6.3,-1.4,-1.3,2.2,-1.0,-0.2,,,,*66
$GPGRS,133032.00,1,0.4,0.5,-1.3,0.1,0.4,-0.1,-0.2,0.5,,,,*63
$GPGRS,133032.00,1,1.4,-2.9,1.8,-0.8,-0.4,0.1,1.5,0.0,0.8,-0.3,0.5,1.3*4C
$GPGRS,133032.00,1,-2.4,,,,,,,,,,,*4B
$GPGSV,5,1,19,12,74,050,50,28,15,312,41,19,15,046,41,24,40,153,46*72
$GPGSV,5,2,19,06,29,062,43,11,31,106,46,29,25,212,44,32,32,285,46*7F
$GPGSV,5,3,19,25,57,285,49,03,00,000,34,36,35,170,46,58,13,245,36*7A
$GPGSV,5,4,19,40,23,133,36,34,31,208,43,49,34,195,45,57,08,110,38*7E
$GPGSV,5,5,19,41,07,108,35,61,03,257,38*73
$GLGSV,3,1,09,78,59,323,52,86,18,027,44,79,11,295,44,68,22,260,47*63
$GLGSV,3,2,09,69,24,314,47,88,36,159,51,87,53,070,48,77,46,086,46*61
$GLGSV,3,3,09,76,04,103,41*5E
$GAGSV,3,1,11,30,81,344,49,36,30,065,43,34,27,124,42,07,37,235,45*69
$GAGSV,3,2,11,29,30,301,43,02,35,077,44,27,33,272,44,15,00,166,*67
$GAGSV,3,3,11,19,03,336,32,08,08,189,37,11,06,022,32*57
$GBGSV,6,1,22,24,78,101,51,34,27,186,44,31,19,095,,10,21,061,38*64
$GBGSV,6,2,22,05,20,130,39,56,29,052,,41,13,283,42,12,47,159,46*68
$GBGSV,6,3,22,35,34,053,47,26,26,113,44,25,43,298,48,23,42,291,*6B
$GBGSV,6,4,22,44,59,119,51,33,03,237,39,11,05,194,,02,04,108,32*60
$GBGSV,6,5,22,38,01,077,,40,02,047,34,20,06,337,,32,07,333,40*62
$GBGSV,6,6,22,07,08,058,37,60,08,110,40*67
$GPGGA,133032.00,,,,,0,00,,,M,,M,,*48
$PTNL,GGK,133032.00,010125,4742.1600497,N,01618.1008052,E,1,38,0.8,EHT751.6872,M*49
$GPGGQ,133032.00,010125,4742.1600497,N,01618.1008052,E,1,38,1.246,708.4806,M*33
$GPGFA,133032.00,4.917,8.700,0.517,0.399,9.549,1.061,,VVV*00
$GPLLK,133032.00,010125,,M,,M,1,38,0.9,,M*09
$GNGMP,133032.00,,,,,DAAA,38,0.4,,,,*59
$GPGMP,133032.00,,,,,,09,,,,3.0,136*73
$GLGMP,133032.00,,,,,,08,,,,,*77
$GAGMP,133032.00,,,,,,08,,,,,*7A
$GBGMP,133032.00,,,,,,13,,,,,*73
$PSSN,SNC,[0,307850000,2347]*4D
$GPZDA,133037.00,01,01,2025,,*66
$GPDTM,W84,,00.0000000,N,00.0000000,E,00.0000000,W84*5F
$PSSN,TFM,133037.00,,,,*6A
$GPRMC,133037.00,A,4742.1600500,N,01618.1008057,E,0.0,,010125,5.1,E,D*1A
$GPGLL,4742.1600500,N,01618.1008057,E,133037.00,A,D*6B
$GPGGA,133037.00,4742.1600500,N,01618.1008057,E,2,38,0.4,708.4868,M,43.2065,M,2.7,0136*43
$GNGNS,133037.00,4742.1600500,N,01618.1008057,E,DAAA,38,0.4,708.4868,43.2065,,*5E
$GPGNS,133037.00,,,,,,09,,,,2.7,136*70
$GLGNS,133037.00,,,,,,08,,,,,*72
$GAGNS,133037.00,,,,,,08,,,,,*7F
$GBGNS,133037.00,,,,,,13,,,,,*76
$GPLLQ,133037.00,010125,,M,,M,1,38,1.255,,M*1C
$GPVTG,,T,,M,0.00,N,0.00,K,D*26
$GPHDT,,T*1B
$GPTHS,,V*0E
$GPROT,,V*08
$PSSN,HRP,133037.00,010125,,,,,,,00,0,,*64
$PTNL,AVR,133037.00,,Yaw,,Tilt,,,,0,,00*32
$GPGSA,A,3,06,11,12,19,24,25,28,29,32,,,,0.8,0.4,0.7*35
$GPGSA,A,3,68,69,77,78,79,86,87,88,,,,,0.8,0.4,0.7*38
$GPGSA,A,3,02,07,08,27,29,30,34,36,,,,,0.8,0.4,0.7*3B
$GPGSA,A,3,05,07,10,12,24,25,26,32,34,35,41,44,0.8,0.4,0.7*39
$GPGSA,A,3,60,,,,,,,,,,,,0.8,0.4,0.7*3F
$GPGST,133037.00,2.075,0.520,0.402,9.176,0.517,0.405,1.070*5E
$GPGBS,133037.00,3.252,2.199,7.727,68,0.0001,7.255,6.479*5C
$GPGRS,133037.00,1,-0.2,0.3,-0.0,-0.0,0.3,-0.2,1.0,-0.3,-0.4,,,*63
$GPGRS,133037.00,1,7.3,2.0,-6.4,-1.7,-0.1,2.7,-1.1,0.4,,,,*49
$GPGRS,133037.00,1,0.4,0.5,-1.3,0.3,0.2,-0.0,0.1,0.2,,,,*4A
$GPGRS,133037.00,1,1.5,-2.1,1.7,0.2,-0.3,0.4,1.1,-0.3,1.0,-0.3,0.3,1.3*4F
$GPGRS,133037.00,1,-2.5,,,,,,,,,,,*4F
$GPGSV,5,1,19,12,74,050,50,28,15,312,40,19,15,046,41,24,40,153,46*73
$GPGSV,5,2,19,06,29,062,43,11,31,106,46,29,25,212,44,32,32,285,46*7F
$GPGSV,5,3,19,25,57,285,49,03,00,000,34,36,35,170,45,58,13,245,36*79
$GPGSV,5,4,19,40,23,133,36,34,31,208,43,49,34,195,45,57,08,110,38*7E
$GPGSV,5,5,19,41,07,108,35,61,03,257,38*73
$GLGSV,3,1,09,78,59,324,52,86,18,027,44,79,11,295,45,68,22,260,47*65
$GLGSV,3,2,09,69,24,314,46,88,36,159,50,87,53,069,48,77,46,087,46*68
$GLGSV,3,3,09,76,04,103,40*5F
$GAGSV,3,1,11,30,81,345,48,36,30,065,43,34,27,124,42,02,35,078,44*64
$GAGSV,3,2,11,07,37,235,44,29,30,301,43,27,33,272,44,19,03,336,32*6D
$GAGSV,3,3,11,11,06,022,32,08,08,189,37,15,00,166,*5E
$GBGSV,6,1,22,24,78,101,51,34,27,186,44,31,19,095,,10,21,061,38*64
$GBGSV,6,2,22,05,20,130,39,56,29,052,,41,13,283,41,12,47,159,47*6A
$GBGSV,6,3,22,35,34,053,46,26,25,113,44,25,43,298,48,23,42,291,*69
$GBGSV,6,4,22,44,59,119,51,33,03,237,39,11,05,194,,02,04,108,33*61
$GBGSV,6,5,22,38,01,077,,40,02,047,33,20,06,337,,32,07,333,40*65
$GBGSV,6,6,22,07,08,058,37,60,08,110,40*67
$GPGGA,133037.00,,,,,0,00,,,M,,M,,*4D
$PTNL,GGK,133037.00,010125,4742.1600500,N,01618.1008057,E,1,38,0.8,EHT751.6933,M*42
$GPGGQ,133037.00,010125,4742.1600500,N,01618.1008057,E,1,38,1.255,708.4868,M*36
$GPGFA,133037.00,4.942,8.771,0.520,0.402,9.176,1.070,,VVV*0A
$GPLLK,133037.00,010125,,M,,M,1,38,0.9,,M*0C
$GNGMP,133037.00,,,,,DAAA,38,0.4,,,,*5C
$GPGMP,133037.00,,,,,,09,,,,2.7,136*70
$GLGMP,133037.00,,,,,,08,,,,,*72
$GAGMP,133037.00,,,,,,08,,,,,*7F
$GBGMP,133037.00,,,,,,13,,,,,*76
$PSSN,SNC,[0,307855000,2347]*48
$GPZDA,133042.00,01,01,2025,,*64
$GPDTM,W84,,00.0000000,N,00.0000000,E,00.0000000,W84*5F
$PSSN,TFM,133042.00,,,,*68
$GPRMC,133042.00,A,4742.1600492,N,01618.1008061,E,0.0,,010125,5.1,E,D*17
$GPGLL,4742.1600492,N,01618.1008061,E,133042.00,A,D*66
$GPGGA,133042.00,4742.1600492,N,01618.1008061,E,2,38,0.4,708.4889,M,43.2065,M,2.3,0136*45
$GNGNS,133042.00,4742.1600492,N,01618.1008061,E,DAAA,38,0.4,708.4889,43.2065,,*5C
$GPGNS,133042.00,,,,,,09,,,,2.3,136*76
$GLGNS,133042.00,,,,,,08,,,,,*70
$GAGNS,133042.00,,,,,,08,,,,,*7D
$GBGNS,133042.00,,,,,,13,,,,,*74
$GPLLQ,133042.00,010125,,M,,M,1,38,1.258,,M*13
$GPVTG,,T,,M,0.00,N,0.00,K,D*26
$GPHDT,,T*1B
$GPTHS,,V*0E
$GPROT,,V*08
$PSSN,HRP,133042.00,010125,,,,,,,00,0,,*66
$PTNL,AVR,133042.00,,Yaw,,Tilt,,,,0,,00*30
$GPGSA,A,3,06,11,12,19,24,25,28,29,32,,,,0.8,0.4,0.7*35
$GPGSA,A,3,68,69,77,78,79,86,87,88,,,,,0.8,0.4,0.7*38
$GPGSA,A,3,02,07,08,27,29,30,34,36,,,,,0.8,0.4,0.7*3B
$GPGSA,A,3,05,07,10,12,24,25,26,32,34,35,41,44,0.8,0.4,0.7*39
$GPGSA,A,3,60,,,,,,,,,,,,0.8,0.4,0.7*3F
$GPGST,133042.00,2.105,0.517,0.400,9.666,0.514,0.404,1.074*5C
$GPGBS,133042.00,3.275,2.163,7.623,77,0.0001,-7.171,6.202*77
$GPGRS,133042.00,1,0.2,-0.0,-0.3,-0.2,0.2,-0.3,1.0,-0.2,0.3,,,*48
$GPGRS,133042.00,1,7.0,1.4,-7.2,-1.5,-0.5,2.4,-0.9,-0.5,,,,*68
$GPGRS,133042.00,1,0.4,0.6,-1.4,-0.2,0.4,-0.0,0.3,0.4,,,,*62
$GPGRS,133042.00,1,1.5,-2.2,2.2,0.6,-0.4,0.3,1.0,-0.2,1.1,-0.7,-0.1,0.9*6D
$GPGRS,133042.00,1,-2.4,,,,,,,,,,,*4C
$GPGSV,5,1,19,12,74,050,50,28,15,312,41,19,15,046,40,24,40,153,45*70
$GPGSV,5,2,19,06,29,062,43,11,31,106,44,29,26,212,44,32,32,285,46*7E
$GPGSV,5,3,19,25,57,285,49,03,00,000,34,36,35,170,46,58,13,245,36*7A
$GPGSV,5,4,19,40,23,133,36,34,31,208,43,49,34,195,45,57,08,110,38*7E
$GPGSV,5,5,19,41,07,108,35,61,03,257,38*73
$GLGSV,3,1,09,78,59,324,52,86,18,027,44,79,11,296,44,68,22,260,47*67
$GLGSV,3,2,09,69,24,314,47,88,36,159,50,87,53,069,48,77,46,087,46*69
$GLGSV,3,3,09,76,04,103,40*5F
$GAGSV,3,1,11,30,81,345,48,36,30,065,42,34,27,124,42,02,35,078,44*65
$GAGSV,3,2,11,07,37,235,44,29,30,301,43,27,33,272,44,19,03,336,32*6D
$GAGSV,3,3,11,11,06,022,32,08,08,189,37,15,00,166,*5E
$GBGSV,6,1,22,24,78,101,51,34,27,186,44,31,19,095,,10,21,061,38*64
$GBGSV,6,2,22,05,20,130,39,56,29,052,,41,13,283,41,12,47,159,47*6A
$GBGSV,6,3,22,35,34,053,46,26,25,113,44,25,43,298,48,23,42,291,*69
$GBGSV,6,4,22,44,59,119,51,33,03,237,38,11,05,194,,02,04,108,33*60
$GBGSV,6,5,22,38,01,077,,40,02,047,33,20,06,337,,32,07,333,40*65
$GBGSV,6,6,22,07,08,058,38,60,08,110,40*68
$GPGGA,133042.00,,,,,0,00,,,M,,M,,*4F
$PTNL,GGK,133042.00,010125,4742.1600492,N,01618.1008061,E,1,38,0.8,EHT751.6955,M*4F
$GPGGQ,133042.00,010125,4742.1600492,N,01618.1008061,E,1,38,1.258,708.4889,M*39
$GPGFA,133042.00,4.917,8.808,0.517,0.400,9.666,1.074,,VVV*0D
$GPLLK,133042.00,010125,,M,,M,1,38,0.9,,M*0E
$GNGMP,133042.00,,,,,DAAA,38,0.4,,,,*5E
$GPGMP,133042.00,,,,,,09,,,,2.3,136*76
$GLGMP,133042.00,,,,,,08,,,,,*70
$GAGMP,133042.00,,,,,,08,,,,,*7D
$GBGMP,133042.00,,,,,,13,,,,,*74
$PSSN,SNC,[0,307860000,2347]*4E
$GPZDA,133047.00,01,01,2025,,*61
$GPDTM,W84,,00.0000000,N,00.0000000,E,00.0000000,W84*5F
$PSSN,TFM,133047.00,,,,*6D
$GPRMC,133047.00,A,4742.1600491,N,01618.1008088,E,0.0,,010125,5.1,E,D*16
$GPGLL,4742.1600491,N,01618.1008088,E,133047.00,A,D*67
$GPGGA,133047.00,4742.1600491,N,01618.1008088,E,2,38,0.4,708.4946,M,43.2065,M,2.0,0136*45
$GNGNS,133047.00,4742.1600491,N,01618.1008088,E,DAAA,38,0.4,708.4946,43.2065,,*5F
$GPGNS,133047.00,,,,,,09,,,,2.0,136*70
$GLGNS,133047.00,,,,,,08,,,,,*75
$GAGNS,133047.00,,,,,,08,,,,,*78
$GBGNS,133047.00,,,,,,13,,,,,*71
$GPLLQ,133047.00,010125,,M,,M,1,38,1.251,,M*1F
$GPVTG,,T,,M,0.00,N,0.00,K,D*26
$GPHDT,,T*1B
$GPTHS,,V*0E
$GPROT,,V*08
$PSSN,HRP,133047.00,010125,,,,,,,00,0,,*63
$PTNL,AVR,133047.00,,Yaw,,Tilt,,,,0,,00*35
$GPGSA,A,3,06,11,12,19,24,25,28,29,32,,,,0.8,0.4,0.7*35
$GPGSA,A,3,68,69,77,78,79,86,87,88,,,,,0.8,0.4,0.7*38
$GPGSA,A,3,02,07,08,27,29,30,34,36,,,,,0.8,0.4,0.7*3B
$GPGSA,A,3,05,07,10,12,24,25,26,32,34,35,41,44,0.8,0.4,0.7*39
$GPGSA,A,3,60,,,,,,,,,,,,0.8,0.4,0.7*3F
$GPGST,133047.00,2.118,0.515,0.399,10.011,0.512,0.403,1.068*62
$GPGBS,133047.00,3.300,2.170,7.633,77,0.0001,-7.260,6.202*71
$GPGRS,133047.00,1,0.4,-0.3,-0.1,-0.2,0.1,-0.0,1.3,-0.0,-0.1,,,*64
$GPGRS,133047.00,1,6.3,2.4,-7.3,-1.6,-1.6,2.1,-1.3,-0.4,,,,*63
$GPGRS,133047.00,1,0.5,0.3,-1.4,-0.4,0.4,-0.1,0.1,0.4,,,,*66
$GPGRS,133047.00,1,1.7,-2.6,2.3,0.3,-0.5,0.2,1.0,0.1,1.3,-0.6,0.5,1.0*66
$GPGRS,133047.00,1,-2.2,,,,,,,,,,,*4F
$GPGSV,5,1,19,12,74,050,50,28,15,312,40,19,15,046,40,24,40,153,46*72
$GPGSV,5,2,19,06,29,062,43,11,31,105,45,29,26,212,45,32,32,285,46*7D
$GPGSV,5,3,19,25,57,285,49,03,00,000,33,36,35,170,46,58,13,245,37*7C
$GPGSV,5,4,19,40,23,133,36,34,31,208,43,49,34,195,45,57,08,110,38*7E
$GPGSV,5,5,19,41,07,108,35,61,03,257,38*73
$GLGSV,3,1,09,78,59,324,52,86,18,027,44,79,11,296,44,68,22,260,47*67
$GLGSV,3,2,09,69,24,314,48,88,36,159,50,87,53,069,48,77,46,087,45*65
$GLGSV,3,3,09,76,04,103,40*5F
$GAGSV,3,1,11,30,81,345,48,36,30,065,42,34,27,124,42,02,35,078,44*65
$GAGSV,3,2,11,07,36,235,44,29,30,301,43,27,33,272,44,19,03,336,32*6C
$GAGSV,3,3,11,11,06,022,32,08,08,189,37,15,00,166,*5E
$GBGSV,6,1,22,24,78,101,51,34,27,186,44,31,19,095,,10,21,061,38*64
$GBGSV,6,2,22,05,20,130,39,56,29,052,,41,13,283,41,12,47,159,47*6A
$GBGSV,6,3,22,35,34,053,46,26,25,113,44,25,43,298,48,23,42,291,*69
$GBGSV,6,4,22,44,59,119,51,33,03,237,39,11,05,194,,02,04,108,33*61
$GBGSV,6,5,22,38,01,077,,40,02,047,34,20,06,337,,32,07,333,40*62
$GBGSV,6,6,22,07,08,058,38,60,08,110,40*68
$GPGGA,133047.00,,,,,0,00,,,M,,M,,*4A
$PTNL,GGK,133047.00,010125,4742.1600491,N,01618.1008088,E,1,38,0.8,EHT751.7012,M*45
$GPGGQ,133047.00,010125,4742.1600491,N,01618.1008088,E,1,38,1.251,708.4946,M*33
$GPGFA,133047.00,4.898,8.760,0.515,0.399,10.011,1.068,,VVV*39
$GPLLK,133047.00,010125,,M,,M,1,38,0.9,,M*0B
$GNGMP,133047.00,,,,,DAAA,38,0.4,,,,*5B
$GPGMP,133047.00,,,,,,09,,,,2.0,136*70
$GLGMP,133047.00,,,,,,08,,,,,*75
$GAGMP,133047.00,,,,,,08,,,,,*78
$GBGMP,133047.00,,,,,,13,,,,,*71
$PSSN,SNC,[0,307865000,2347]*4B
$GPZDA,133052.00,01,01,2025,,*65
$GPDTM,W84,,00.0000000,N,00.0000000,E,00.0000000,W84*5F
$PSSN,TFM,133052.00,,,,*69
$GPRMC,133052.00,A,4742.1600489,N,01618.1008108,E,0.0,,010125,5.1,E,D*12
$GPGLL,4742.1600489,N,01618.1008108,E,133052.00,A,D*63
$GPGGA,133052.00,4742.1600489,N,01618.1008108,E,2,38,0.4,708.5005,M,43.2065,M,3.0,0136*4F
$GNGNS,133052.00,4742.1600489,N,01618.1008108,E,DAAA,38,0.4,708.5005,43.2065,,*54
$GPGNS,133052.00,,,,,,09,,,,3.0,136*75
$GLGNS,133052.00,,,,,,08,,,,,*71
$GAGNS,133052.00,,,,,,08,,,,,*7C
$GBGNS,133052.00,,,,,,13,,,,,*75
$GPLLQ,133052.00,010125,,M,,M,1,38,1.247,,M*1C
$GPVTG,,T,,M,0.00,N,0.01,K,D*27
$GPHDT,,T*1B
$GPTHS,,V*0E
$GPROT,,V*08
$PSSN,HRP,133052.00,010125,,,,,,,00,0,,*67
$PTNL,AVR,133052.00,,Yaw,,Tilt,,,,0,,00*31
$GPGSA,A,3,06,11,12,19,24,25,28,29,32,,,,0.8,0.4,0.7*35
$GPGSA,A,3,68,69,77,78,79,86,87,88,,,,,0.8,0.4,0.7*38
$GPGSA,A,3,02,07,08,27,29,30,34,36,,,,,0.8,0.4,0.7*3B
$GPGSA,A,3,05,07,10,12,24,25,26,32,34,35,41,44,0.8,0.4,0.7*39
$GPGSA,A,3,60,,,,,,,,,,,,0.8,0.4,0.7*3F
$GPGST,133052.00,2.071,0.517,0.400,9.443,0.514,0.403,1.063*5B
$GPGBS,133052.00,3.321,2.186,7.705,68,0.0001,6.936,6.481*5C
$GPGRS,133052.00,1,-0.0,0.3,-0.2,-0.5,-0.0,-0.5,1.2,0.0,0.2,,,*4B
$GPGRS,133052.00,1,6.9,2.3,-6.6,-2.0,-0.6,2.6,-0.9,-0.0,,,,*62
$GPGRS,133052.00,1,0.5,0.3,-1.2,-0.2,0.3,-0.2,-0.0,0.7,,,,*49
$GPGRS,133052.00,1,1.6,-1.7,1.8,-0.4,-0.3,0.3,0.8,-0.6,1.7,-0.3,0.3,1.0*60
$GPGRS,133052.00,1,-2.4,,,,,,,,,,,*4D
$GPGSV,5,1,19,12,74,050,50,28,15,312,40,19,14,046,41,24,40,153,46*72
$GPGSV,5,2,19,06,29,062,43,11,31,105,45,29,26,212,44,32,32,285,46*7C
$GPGSV,5,3,19,25,57,285,49,03,00,000,33,36,35,170,46,58,13,245,37*7C
$GPGSV,5,4,19,40,23,133,36,34,31,208,43,49,34,195,45,57,08,110,38*7E
$GPGSV,5,5,19,41,07,108,36,61,03,257,38*70
$GLGSV,3,1,09,78,59,324,52,86,17,027,43,79,11,296,44,68,22,260,48*60
$GLGSV,3,2,09,69,24,314,46,88,36,159,50,87,53,069,48,77,46,087,46*68
$GLGSV,3,3,09,76,04,103,40*5F
$GAGSV,3,1,11,30,81,345,49,36,30,065,43,34,27,124,43,02,35,078,44*64
$GAGSV,3,2,11,07,36,235,45,29,30,301,43,27,33,272,44,19,03,336,32*6D
$GAGSV,3,3,11,11,06,022,32,08,08,189,37,15,00,166,*5E
$GBGSV,6,1,22,24,78,101,51,34,27,186,45,31,19,095,,10,21,061,38*65
$GBGSV,6,2,22,05,20,130,39,56,29,052,,41,13,283,41,12,47,159,47*6A
$GBGSV,6,3,22,35,34,053,46,26,25,114,44,25,43,298,47,23,42,291,*61
$GBGSV,6,4,22,44,59,119,51,33,03,237,40,11,05,194,,02,04,108,32*6E
$GBGSV,6,5,22,38,01,077,,40,02,048,34,20,06,337,,32,07,333,40*6D
$GBGSV,6,6,22,07,08,058,37,60,08,110,40*67
$GPGGA,133052.00,,,,,0,00,,,M,,M,,*4E
$PTNL,GGK,133052.00,010125,4742.1600489,N,01618.1008108,E,1,38,0.8,EHT751.7070,M*45
$GPGGQ,133052.00,010125,4742.1600489,N,01618.1008108,E,1,38,1.247,708.5005,M*3F
$GPGFA,133052.00,4.916,8.713,0.517,0.400,9.443,1.063,,VVV*0B
$GPLLK,133052.00,010125,,M,,M,1,38,0.9,,M*0F
$GNGMP,133052.00,,,,,DAAA,38,0.4,,,,*5F
$GPGMP,133052.00,,,,,,09,,,,3.0,136*75
$GLGMP,133052.00,,,,,,08,,,,,*71
$GAGMP,133052.00,,,,,,08,,,,,*7C
$GBGMP,133052.00,,,,,,13,,,,,*75
$PSSN,SNC,[0,307870000,2347]*4F
$GPZDA,133057.00,01,01,2025,,*60
$GPDTM,W84,,00.0000000,N,00.0000000,E,00.0000000,W84*5F
$PSSN,TFM,133057.00,,,,*6C
$GPRMC,133057.00,A,4742.1600492,N,01618.1008118,E,0.0,,010125,5.1,E,D*1C
$GPGLL,4742.1600492,N,01618.1008118,E,133057.00,A,D*6D
$GPGGA,133057.00,4742.1600492,N,01618.1008118,E,2,38,0.4,708.5045,M,43.2065,M,2.7,0136*43
$GNGNS,133057.00,4742.1600492,N,01618.1008118,E,DAAA,38,0.4,708.5045,43.2065,,*5E
$GPGNS,133057.00,,,,,,09,,,,2.7,136*76
$GLGNS,133057.00,,,,,,08,,,,,*74
$GAGNS,133057.00,,,,,,08,,,,,*79
$GBGNS,133057.00,,,,,,13,,,,,*70
$GPLLQ,133057.00,010125,,M,,M,1,38,1.257,,M*18
$GPVTG,,T,,M,0.00,N,0.00,K,D*26
$GPHDT,,T*1B
$GPTHS,,V*0E
$GPROT,,V*08
$PSSN,HRP,133057.00,010125,,,,,,,00,0,,*62
$PTNL,AVR,133057.00,,Yaw,,Tilt,,,,0,,00*34
$GPGSA,A,3,06,11,12,19,24,25,28,29,32,,,,0.8,0.4,0.7*35
$GPGSA,A,3,68,69,77,78,79,86,87,88,,,,,0.8,0.4,0.7*38
$GPGSA,A,3,02,07,08,27,29,30,34,36,,,,,0.8,0.4,0.7*3B
$GPGSA,A,3,05,07,10,12,24,25,26,32,34,35,41,44,0.8,0.4,0.7*39
$GPGSA,A,3,60,,,,,,,,,,,,0.8,0.4,0.7*3F
$GPGST,133057.00,1.886,0.520,0.402,9.068,0.517,0.405,1.071*50
$GPGBS,133057.00,3.256,2.202,7.727,77,0.0001,-6.018,6.201*7F
$GPGRS,133057.00,1,0.1,0.3,-0.2,-0.1,0.1,-0.3,1.0,-0.1,0.3,,,*63
$GPGRS,133057.00,1,6.2,1.6,-6.0,-1.6,-0.9,1.9,-0.6,-0.4,,,,*61
$GPGRS,133057.00,1,0.4,0.4,-1.2,0.1,0.3,-0.1,-0.1,0.5,,,,*64
$GPGRS,133057.00,1,1.5,-1.7,2.5,-0.6,-0.2,0.3,0.6,1.2,1.4,-0.5,0.1,0.9*42
$GPGRS,133057.00,1,-2.4,,,,,,,,,,,*48
$GPGSV,5,1,19,12,74,050,50,28,15,312,40,19,14,046,40,24,40,153,46*73
$GPGSV,5,2,19,06,29,062,43,11,31,105,45,29,26,212,44,32,32,285,46*7C
$GPGSV,5,3,19,25,57,285,49,03,00,000,34,36,35,170,46,58,13,245,36*7A
$GPGSV,5,4,19,40,23,133,36,34,31,208,43,49,34,195,45,57,08,110,38*7E
$GPGSV,5,5,19,41,07,108,35,61,03,257,38*73
$GLGSV,3,1,09,78,59,324,52,86,17,027,43,79,11,296,44,68,22,260,47*6F
$GLGSV,3,2,09,69,24,314,47,88,36,159,50,87,53,069,48,77,46,087,46*69
$GLGSV,3,3,09,76,04,103,41*5E
$GAGSV,3,1,11,30,81,345,49,02,35,078,44,36,30,065,43,34,27,124,43*64
$GAGSV,3,2,11,07,36,235,45,29,30,301,43,27,33,272,44,19,03,336,32*6D
$GAGSV,3,3,11,15,00,166,,11,06,021,32,08,08,189,37*5D
$GBGSV,6,1,22,24,78,101,52,34,27,186,45,31,19,095,,10,21,061,39*67
$GBGSV,6,2,22,05,20,130,39,56,29,052,,41,13,283,41,12,47,159,46*6B
$GBGSV,6,3,22,35,34,053,46,26,25,114,44,25,43,298,48,23,42,291,*6E
$GBGSV,6,4,22,44,59,119,51,33,03,237,39,11,05,194,,02,04,108,33*61
$GBGSV,6,5,22,38,01,077,,40,02,048,34,20,06,337,,32,07,333,41*6C
$GBGSV,6,6,22,07,08,058,37,60,08,110,40*67
$GPGGA,133057.00,,,,,0,00,,,M,,M,,*4B
$PTNL,GGK,133057.00,010125,4742.1600492,N,01618.1008118,E,1,38,0.8,EHT751.7110,M*4C
$GPGGQ,133057.00,010125,4742.1600492,N,01618.1008118,E,1,38,1.257,708.5045,M*34
$GPGFA,133057.00,4.941,8.784,0.520,0.402,9.068,1.071,,VVV*0A
$GPLLK,133057.00,010125,,M,,M,1,38,0.9,,M*0A
$GNGMP,133057.00,,,,,DAAA,38,0.4,,,,*5A
$GPGMP,133057.00,,,,,,09,,,,2.7,136*76
$GLGMP,133057.00,,,,,,08,,,,,*74
$GAGMP,133057.00,,,,,,08,,,,,*79
$GBGMP,133057.00,,,,,,13,,,,,*70
$PSSN,SNC,[0,307875000,2347]*4A
$GPZDA,133102.00,01,01,2025,,*61
$GPDTM,W84,,00.0000000,N,00.0000000,E,00.0000000,W84*5F
$PSSN,TFM,133102.00,,,,*6D
$GPRMC,133102.00,A,4742.1600491,N,01618.1008117,E,0.0,,010125,5.1,E,D*11
$GPGLL,4742.1600491,N,01618.1008117,E,133102.00,A,D*60
$GPGGA,133102.00,4742.1600491,N,01618.1008117,E,2,38,0.4,708.5125,M,43.2065,M,2.3,0136*4D
$GNGNS,133102.00,4742.1600491,N,01618.1008117,E,DAAA,38,0.4,708.5125,43.2065,,*54
$GPGNS,133102.00,,,,,,09,,,,2.3,136*73
$GLGNS,133102.00,,,,,,08,,,,,*75
$GAGNS,133102.00,,,,,,08,,,,,*78
$GBGNS,133102.00,,,,,,13,,,,,*71
$GPLLQ,133102.00,010125,,M,,M,1,38,1.259,,M*17
$GPVTG,,T,,M,0.00,N,0.01,K,D*27
$GPHDT,,T*1B
$GPTHS,,V*0E
$GPROT,,V*08
$PSSN,HRP,133102.00,010125,,,,,,,00,0,,*63
$PTNL,AVR,133102.00,,Yaw,,Tilt,,,,0,,00*35
$GPGSA,A,3,06,11,12,19,24,25,28,29,32,,,,0.8,0.4,0.7*35
$GPGSA,A,3,68,69,77,78,79,86,87,88,,,,,0.8,0.4,0.7*38
$GPGSA,A,3,02,07,08,27,29,30,34,36,,,,,0.8,0.4,0.7*3B
$GPGSA,A,3,05,07,10,12,24,25,26,32,34,35,41,44,0.8,0.4,0.7*39
$GPGSA,A,3,60,,,,,,,,,,,,0.8,0.4,0.7*3F
$GPGST,133102.00,1.932,0.517,0.400,9.575,0.514,0.404,1.076*55
$GPGBS,133102.00,3.278,2.166,7.620,77,0.0001,-6.456,6.202*78
$GPGRS,133102.00,1,-0.2,0.1,-0.1,-0.1,0.2,-0.2,1.3,-0.1,-0.1,,,*63
$GPGRS,133102.00,1,5.6,2.2,-6.5,-1.5,-0.7,2.8,-0.3,-0.3,,,,*68
$GPGRS,133102.00,1,0.3,0.3,-1.2,-0.0,0.3,-0.2,0.0,0.0,,,,*63
$GPGRS,133102.00,1,1.6,-2.1,2.6,-1.0,-0.3,0.5,0.8,0.2,0.2,-0.2,0.1,0.6*46
$GPGRS,133102.00,1,-2.6,,,,,,,,,,,*4B
$GPGSV,5,1,19,12,74,050,50,28,15,312,40,19,14,046,41,24,40,153,46*72
$GPGSV,5,2,19,06,29,062,43,11,31,105,44,29,26,212,44,32,32,285,46*7D
$GPGSV,5,3,19,25,57,285,49,03,00,000,34,36,35,170,46,58,13,245,36*7A
$GPGSV,5,4,19,40,23,133,36,34,31,208,43,49,34,195,45,57,08,110,38*7E
$GPGSV,5,5,19,41,07,108,35,61,03,257,38*73
$GLGSV,3,1,09,78,59,324,52,86,17,027,44,79,11,296,44,68,22,260,46*69
$GLGSV,3,2,09,69,24,314,47,88,36,159,50,87,52,069,48,77,46,087,46*68
$GLGSV,3,3,09,76,04,103,41*5E
$GAGSV,3,1,11,30,81,345,48,02,35,078,44,34,27,124,43,36,30,065,43*65
$GAGSV,3,2,11,07,36,235,45,29,30,301,43,27,33,272,43,19,03,336,32*6A
$GAGSV,3,3,11,15,00,166,,08,08,189,38,11,06,021,31*51
$GBGSV,6,1,22,24,77,101,52,34,27,186,45,31,19,095,,10,21,061,39*68
$GBGSV,6,2,22,05,20,130,39,56,29,052,,41,13,282,41,12,47,159,47*6B
$GBGSV,6,3,22,35,34,053,46,26,25,114,44,25,43,298,48,23,42,291,*6E
$GBGSV,6,4,22,44,59,119,51,33,03,237,39,11,05,194,,02,04,108,32*60
$GBGSV,6,5,22,38,01,077,,40,02,048,33,20,06,337,,32,07,333,40*6A
$GBGSV,6,6,22,07,08,058,37,60,08,110,40*67
$GPGGA,133102.00,,,,,0,00,,,M,,M,,*4A
$PTNL,GGK,133102.00,010125,4742.1600491,N,01618.1008117,E,1,38,0.8,EHT751.7190,M*49
$GPGGQ,133102.00,010125,4742.1600491,N,01618.1008117,E,1,38,1.259,708.5125,M*30
$GPGFA,133102.00,4.916,8.821,0.517,0.400,9.575,1.076,,VVV*01
$GPLLK,133102.00,010125,,M,,M,1,38,0.9,,M*0B
$GNGMP,133102.00,,,,,DAAA,38,0.4,,,,*5B
$GPGMP,133102.00,,,,,,09,,,,2.3,136*73
$GLGMP,133102.00,,,,,,08,,,,,*75
$GAGMP,133102.00,,,,,,08,,,,,*78
$GBGMP,133102.00,,,,,,13,,,,,*71
$PSSN,SNC,[0,307880000,2347]*40
$GPZDA,133107.00,01,01,2025,,*64
$GPDTM,W84,,00.0000000,N,00.0000000,E,00.0000000,W84*5F
$PSSN,TFM,133107.00,,,,*68
$GPRMC,133107.00,A,4742.1600479,N,01618.1008143,E,0.0,,010125,5.1,E,D*13
$GPGLL,4742.1600479,N,01618.1008143,E,133107.00,A,D*62
$GPGGA,133107.00,4742.1600479,N,01618.1008143,E,2,38,0.4,708.5172,M,43.2065,M,2.0,0136*4E
$GNGNS,133107.00,4742.1600479,N,01618.1008143,E,DAAA,38,0.4,708.5172,43.2065,,*54
$GPGNS,133107.00,,,,,,09,,,,2.0,136*75
$GLGNS,133107.00,,,,,,08,,,,,*70
$GAGNS,133107.00,,,,,,08,,,,,*7D
$GBGNS,133107.00,,,,,,13,,,,,*74
$GPLLQ,133107.00,010125,,M,,M,1,38,1.253,,M*18
$GPVTG,,T,,M,0.00,N,0.01,K,D*27
$GPHDT,,T*1B
$GPTHS,,V*0E
$GPROT,,V*08
$PSSN,HRP,133107.00,010125,,,,,,,00,0,,*66
$PTNL,AVR,133107.00,,Yaw,,Tilt,,,,0,,00*30
$GPGSA,A,3,06,11,12,19,24,25,28,29,32,,,,0.8,0.4,0.7*35
$GPGSA,A,3,68,69,77,78,79,86,87,88,,,,,0.8,0.4,0.7*38
$GPGSA,A,3,02,07,08,27,29,30,34,36,,,,,0.8,0.4,0.7*3B
$GPGSA,A,3,05,07,10,12,24,25,26,32,34,35,41,44,0.8,0.4,0.7*39
$GPGSA,A,3,60,,,,,,,,,,,,0.8,0.4,0.7*3F
$GPGST,133107.00,2.155,0.515,0.399,9.926,0.512,0.403,1.070*52
$GPGBS,133107.00,3.305,2.173,7.633,77,0.0001,-7.570,6.202*74
$GPGRS,133107.00,1,-0.2,0.2,-0.1,-0.1,0.1,-0.3,1.3,-0.2,-0.2,,,*67
$GPGRS,133107.00,1,6.2,2.7,-7.6,-1.5,-0.2,3.4,-0.8,-0.6,,,,*6B
$GPGRS,133107.00,1,0.3,-0.1,-1.2,0.2,0.4,-0.2,-0.1,0.2,,,,*4F
$GPGRS,133107.00,1,1.6,-2.2,2.5,-0.4,-0.4,0.5,0.6,0.1,0.2,-0.5,-0.2,1.1*63
$GPGRS,133107.00,1,-2.5,,,,,,,,,,,*4D
$GPGSV,5,1,19,12,74,050,50,28,15,312,40,19,14,046,41,24,40,153,46*72
$GPGSV,5,2,19,06,29,062,43,11,31,105,45,29,26,212,44,32,32,285,46*7C
$GPGSV,5,3,19,25,57,285,48,03,00,000,34,36,35,170,46,58,13,245,36*7B
$GPGSV,5,4,19,40,23,133,36,34,31,208,43,49,34,195,45,57,08,110,38*7E
$GPGSV,5,5,19,41,07,108,35,61,03,257,38*73
$GLGSV,3,1,09,78,59,324,52,86,17,027,44,79,12,296,44,68,22,260,47*6B
$GLGSV,3,2,09,69,24,314,48,88,36,159,49,87,52,069,48,77,46,087,45*6C
$GLGSV,3,3,09,76,04,104,41*59
$GAGSV,3,1,11,30,81,346,49,02,35,078,44,34,27,124,42,36,30,065,43*66
$GAGSV,3,2,11,07,36,235,45,29,30,301,43,27,33,272,44,19,03,336,32*6D
$GAGSV,3,3,11,15,00,166,,08,08,189,38,11,06,021,31*51
$GBGSV,6,1,22,24,77,101,51,34,27,186,44,31,19,095,,10,21,061,39*6A
$GBGSV,6,2,22,05,20,130,39,56,29,052,,41,13,282,42,12,47,159,47*68
$GBGSV,6,3,22,35,34,053,46,26,25,114,44,25,44,298,48,23,42,291,*69
$GBGSV,6,4,22,44,59,118,51,33,03,237,39,11,05,194,,02,04,108,33*60
$GBGSV,6,5,22,38,01,077,,40,02,048,33,20,06,337,,32,07,333,41*6B
$GBGSV,6,6,22,07,08,058,37,60,08,110,40*67
$GPGGA,133107.00,,,,,0,00,,,M,,M,,*4F
$PTNL,GGK,133107.00,010125,4742.1600479,N,01618.1008143,E,1,38,0.8,EHT751.7237,M*45
$GPGGQ,133107.00,010125,4742.1600479,N,01618.1008143,E,1,38,1.253,708.5172,M*3A
$GPGFA,133107.00,4.897,8.773,0.515,0.399,9.926,1.070,,VVV*0D
$GPLLK,133107.00,010125,,M,,M,1,38,0.9,,M*0E
$GNGMP,133107.00,,,,,DAAA,38,0.4,,,,*5E
$GPGMP,133107.00,,,,,,09,,,,2.0,136*75
$GLGMP,133107.00,,,,,,08,,,,,*70
$GAGMP,133107.00,,,,,,08,,,,,*7D
$GBGMP,133107.00,,,,,,13,,,,,*74
$PSSN,SNC,[0,307885000,2347]*45
$GPZDA,133112.00,01,01,2025,,*60
$GPDTM,W84,,00.0000000,N,00.0000000,E,00.0000000,W84*5F
$PSSN,TFM,133112.00,,,,*6C
$GPRMC,133112.00,A,4742.1600465,N,01618.1008131,E,0.0,,010125,5.1,E,D*1F
$GPGLL,4742.1600465,N,01618.1008131,E,133112.00,A,D*6E
$GPGGA,133112.00,4742.1600465,N,01618.1008131,E,2,38,0.4,708.5226,M,43.2065,M,3.0,0136*41
$GNGNS,133112.00,4742.1600465,N,01618.1008131,E,DAAA,38,0.4,708.5226,43.2065,,*5A
$GPGNS,133112.00,,,,,,09,,,,3.0,136*70
$GLGNS,133112.00,,,,,,08,,,,,*74
$GAGNS,133112.00,,,,,,08,,,,,*79
$GBGNS,133112.00,,,,,,13,,,,,*70
$GPLLQ,133112.00,010125,,M,,M,1,38,1.249,,M*17
$GPVTG,,T,,M,0.00,N,0.00,K,D*26
$GPHDT,,T*1B
$GPTHS,,V*0E
$GPROT,,V*08
$PSSN,HRP,133112.00,010125,,,,,,,00,0,,*62
$PTNL,AVR,133112.00,,Yaw,,Tilt,,,,0,,00*34
$GPGSA,A,3,06,11,12,19,24,25,28,29,32,,,,0.8,0.4,0.7*35
$GPGSA,A,3,68,69,77,78,79,86,87,88,,,,,0.8,0.4,0.7*38
$GPGSA,A,3,02,07,08,27,29,30,34,36,,,,,0.8,0.4,0.7*3B
$GPGSA,A,3,05,07,10,12,24,25,26,32,34,35,41,44,0.8,0.4,0.7*39
$GPGSA,A,3,60,,,,,,,,,,,,0.8,0.4,0.7*3F
$GPGST,133112.00,2.044,0.517,0.400,9.347,0.514,0.403,1.064*5C
$GPGBS,133112.00,3.324,2.189,7.703,77,0.0001,-6.927,6.202*7B
$GPGRS,133112.00,1,-0.1,0.2,-0.0,0.1,0.1,-0.3,1.4,-0.5,0.1,,,*62
$GPGRS,133112.00,1,6.4,2.3,-6.9,-1.6,-0.9,2.3,-1.0,-0.4,,,,*66
$GPGRS,133112.00,1,0.3,0.4,-1.1,0.2,0.4,-0.2,0.1,0.5,,,,*4A
$GPGRS,133112.00,1,1.5,-2.0,2.2,-0.0,-0.5,0.2,0.5,1.0,1.0,-0.5,-0.5,1.3*66
$GPGRS,133112.00,1,-2.4,,,,,,,,,,,*48
$GPGSV,5,1,19,12,74,050,50,28,15,312,41,19,14,046,41,24,40,153,46*73
$GPGSV,5,2,19,06,29,062,44,11,31,105,44,29,26,212,44,32,32,285,46*7A
$GPGSV,5,3,19,25,57,285,48,03,00,000,34,36,35,170,45,58,13,245,37*79
$GPGSV,5,4,19,40,23,133,36,34,31,208,43,49,34,195,45,57,08,110,38*7E
$GPGSV,5,5,19,41,07,108,35,61,03,257,38*73
$GLGSV,3,1,09,78,59,324,52,86,17,027,44,79,12,296,44,68,22,260,47*6B
$GLGSV,3,2,09,69,24,314,47,88,36,159,48,87,52,069,48,77,46,087,45*62
$GLGSV,3,3,09,76,04,104,41*59
$GAGSV,3,1,11,30,81,346,49,02,35,078,44,34,27,124,43,36,30,065,43*67
$GAGSV,3,2,11,07,36,235,45,29,30,301,43,27,33,273,44,19,03,336,31*6F
$GAGSV,3,3,11,15,00,166,,08,08,189,38,11,06,021,32*52
$GBGSV,6,1,22,24,77,101,51,34,27,186,44,31,19,095,,10,21,061,39*6A
$GBGSV,6,2,22,05,20,130,39,56,29,052,,41,13,282,42,12,47,159,47*68
$GBGSV,6,3,22,35,34,053,47,26,25,114,45,25,44,298,48,23,42,291,*69
$GBGSV,6,4,22,44,59,118,51,33,03,237,39,11,05,194,,02,04,108,33*60
$GBGSV,6,5,22,38,01,077,,40,02,048,33,20,06,337,,32,07,333,41*6B
$GBGSV,6,6,22,07,08,058,37,60,08,110,40*67
$GPGGA,133112.00,,,,,0,00,,,M,,M,,*4B
$PTNL,GGK,133112.00,010125,4742.1600465,N,01618.1008131,E,1,38,0.8,EHT751.7291,M*45
$GPGGQ,133112.00,010125,4742.1600465,N,01618.1008131,E,1,38,1.249,708.5226,M*3F
$GPGFA,133112.00,4.915,8.726,0.517,0.400,9.347,1.064,,VVV*0F
$GPLLK,133112.00,010125,,M,,M,1,38,0.9,,M*0A
$GNGMP,133112.00,,,,,DAAA,38,0.4,,,,*5A
$GPGMP,133112.00,,,,,,09,,,,3.0,136*70
$GLGMP,133112.00,,,,,,08,,,,,*74
$GAGMP,133112.00,,,,,,08,,,,,*79
$GBGMP,133112.00,,,,,,13,,,,,*70
$PSSN,SNC,[0,307890000,2347]*41
$GPZDA,133117.00,01,01,2025,,*65
$GPDTM,W84,,00.0000000,N,00.0000000,E,00.0000000,W84*5F
$PSSN,TFM,133117.00,,,,*69
$GPRMC,133117.00,A,4742.1600461,N,01618.1008154,E,0.0,,010125,5.1,E,D*1D
$GPGLL,4742.1600461,N,01618.1008154,E,133117.00,A,D*6C
$GPGGA,133117.00,4742.1600461,N,01618.1008154,E,2,38,0.4,708.5266,M,43.2065,M,2.7,0136*41
$GNGNS,133117.00,4742.1600461,N,01618.1008154,E,DAAA,38,0.4,708.5266,43.2065,,*5C
$GPGNS,133117.00,,,,,,09,,,,2.7,136*73
$GLGNS,133117.00,,,,,,08,,,,,*71
$GAGNS,133117.00,,,,,,08,,,,,*7C
$GBGNS,133117.00,,,,,,13,,,,,*75
$GPLLQ,133117.00,010125,,M,,M,1,38,1.258,,M*12
$GPVTG,,T,,M,0.00,N,0.01,K,D*27
$GPHDT,,T*1B
$GPTHS,,V*0E
$GPROT,,V*08
$PSSN,HRP,133117.00,010125,,,,,,,00,0,,*67
$PTNL,AVR,133117.00,,Yaw,,Tilt,,,,0,,00*31
$GPGSA,A,3,06,11,12,19,24,25,28,29,32,,,,0.8,0.4,0.7*35
$GPGSA,A,3,68,69,77,78,79,86,87,88,,,,,0.8,0.4,0.7*38
$GPGSA,A,3,02,07,08,27,29,30,34,36,,,,,0.8,0.4,0.7*3B
$GPGSA,A,3,05,07,10,12,24,25,26,32,34,35,41,44,0.8,0.4,0.7*39
$GPGSA,A,3,60,,,,,,,,,,,,0.8,0.4,0.7*3F
$GPGST,133117.00,2.029,0.520,0.402,8.974,0.517,0.405,1.073*5C
$GPGBS,133117.00,3.259,2.205,7.725,77,0.0001,-6.572,6.202*7A
$GPGRS,133117.00,1,-0.2,0.4,-0.1,-0.4,0.1,-0.2,1.5,-0.1,-0.5,,,*66
$GPGRS,133117.00,1,6.4,1.9,-6.6,-1.3,-0.6,2.5,-1.1,-0.8,,,,*64
$GPGRS,133117.00,1,0.4,0.3,-1.1,-0.3,-0.0,-0.3,-0.0,0.6,,,,*64
$GPGRS,133117.00,1,1.3,-2.6,2.1,-0.1,-0.4,0.1,1.0,0.4,1.3,-0.3,0.0,1.0*4C
$GPGRS,133117.00,1,-2.8,,,,,,,,,,,*41
$GPGSV,5,1,19,12,74,050,50,28,15,312,41,19,14,046,40,24,40,154,46*75
$GPGSV,5,2,19,06,29,061,44,11,31,105,45,29,26,212,44,32,32,285,46*78
$GPGSV,5,3,19,25,57,285,49,03,00,000,34,36,35,170,45,58,13,245,36*79
$GPGSV,5,4,19,40,23,133,36,34,31,208,43,49,34,195,45,57,08,110,38*7E
$GPGSV,5,5,19,41,07,108,35,61,03,257,38*73
$GLGSV,3,1,09,78,59,324,53,86,17,027,43,79,12,296,45,68,22,260,47*6C
$GLGSV,3,2,09,69,24,314,48,88,36,159,50,87,52,069,48,77,46,087,45*64
$GLGSV,3,3,09,76,04,104,41*59
$GAGSV,3,1,11,30,81,346,49,02,35,078,44,34,27,124,42,36,30,065,43*66
$GAGSV,3,2,11,07,36,235,45,29,30,301,43,27,33,273,44,19,03,336,32*6C
$GAGSV,3,3,11,15,01,166,,08,08,189,38,11,06,021,32*53
$GBGSV,6,1,22,24,77,101,52,34,27,186,45,31,19,095,,10,21,061,39*68
$GBGSV,6,2,22,05,20,130,39,56,29,052,,41,13,282,42,12,47,159,47*68
$GBGSV,6,3,22,35,33,053,47,26,25,114,45,25,44,298,48,23,42,291,*6E
$GBGSV,6,4,22,44,59,118,51,33,03,237,38,11,05,194,,02,04,108,33*61
$GBGSV,6,5,22,38,01,077,,40,02,048,32,20,06,337,,32,07,333,41*6A
$GBGSV,6,6,22,07,08,058,37,60,08,110,40*67
