$GPZDA,192942.00,01,01,2025,,*66
$GPDTM,W84,,00.0000000,N,00.0000000,E,00.0000000,W84*5F
$PSSN,TFM,192942.00,,,,*6A
$GPRMC,192942.00,A,4742.1604851,N,01618.1000341,E,0.0,,010125,5.1,E,D*1B
$GPGLL,4742.1604851,N,01618.1000341,E,192942.00,A,D*6A
$GPGGA,192942.00,4742.1604851,N,01618.1000341,E,2,39,0.4,708.3827,M,43.2066,M,2.3,0136*48
$GNGNS,192942.00,4742.1604851,N,01618.1000341,E,DAAA,39,0.4,708.3827,43.2066,,*51
$GPGNS,192942.00,,,,,,09,,,,2.3,136*74
$GLGNS,192942.00,,,,,,08,,,,,*72
$GAGNS,192942.00,,,,,,06,,,,,*71
$GBGNS,192942.00,,,,,,16,,,,,*73
$GPLLQ,192942.00,010125,,M,,M,1,39,0.970,,M*10
$GPVTG,,T,,M,0.00,N,0.00,K,D*26
$GPHDT,,T*1B
$GPTHS,,V*0E
$GPROT,,V*08
$PSSN,HRP,192942.00,010125,,,,,,,00,0,,*64
$PTNL,AVR,192942.00,,Yaw,,Tilt,,,,0,,00*32
$GPGSA,A,3,07,08,10,15,16,18,23,26,27,,,,0.8,0.4,0.7*3D
$GPGSA,A,3,66,67,73,74,80,82,83,84,,,,,0.8,0.4,0.7*3A
$GPGSA,A,3,03,13,15,21,26,27,,,,,,,0.8,0.4,0.7*3E
$GPGSA,A,3,05,08,11,13,14,21,23,27,28,33,34,37,0.8,0.4,0.7*3D
$GPGSA,A,3,38,42,43,60,,,,,,,,,0.8,0.4,0.7*35
$GPGST,192942.00,1.996,0.365,0.327,7.357,0.364,0.327,0.837*5E
$GPGBS,192942.00,2.441,1.923,4.746,67,0.0001,6.907,6.136*5B
$GPGRS,192942.00,1,0.7,0.2,-0.1,0.2,0.0,-0.3,-0.1,-0.1,-0.0,,,*4D
$GPGRS,192942.00,1,-2.5,6.9,4.1,-4.5,-2.1,-0.3,-1.4,-3.5,,,,*44
$GPGRS,192942.00,1,-0.3,0.2,0.1,0.2,0.1,-0.7,,,,,,*4F
$GPGRS,192942.00,1,1.5,0.4,0.9,0.6,1.9,0.4,-0.1,-0.0,0.1,-1.1,-1.8,-0.7*6B
$GPGRS,192942.00,1,-0.4,-0.8,-0.1,-1.7,,,,,,,,*40
$GPGSV,5,1,20,16,61,226,49,08,22,297,42,26,37,193,45,15,15,060,41*7F
$GPGSV,5,2,20,10,41,168,48,18,41,060,46,27,57,301,49,23,59,102,48*79
$GPGSV,5,3,20,13,05,030,35,07,09,319,40,29,02,109,27,36,35,170,44*7F
$GPGSV,5,4,20,58,13,245,37,57,11,108,38,34,31,208,42,40,24,133,36*7D
$GPGSV,5,5,20,49,34,195,44,41,07,108,34,61,03,257,38*4F
$GLGSV,3,1,10,83,66,327,43,84,14,267,36,80,21,201,46,68,10,140,*63
$GLGSV,3,2,10,66,23,034,47,67,32,093,48,74,30,321,42,82,46,052,49*62
$GLGSV,3,3,10,73,47,264,50,81,04,074,41*6D
$GAGSV,3,1,09,13,81,031,48,23,42,303,,03,10,063,38,27,19,165,41*67
$GAGSV,3,2,09,15,27,058,42,26,41,245,45,21,60,213,48,05,03,016,35*67
$GAGSV,3,3,09,08,04,110,32*5C
$GBGSV,6,1,23,28,60,286,50,23,14,203,42,60,11,108,40,21,14,035,42*66
$GBGSV,6,2,23,46,20,313,,38,17,037,42,05,22,128,39,30,15,266,*61
$GBGSV,6,3,23,33,22,145,43,50,26,056,,27,16,274,43,08,32,038,40*68
$GBGSV,6,4,23,58,27,310,,31,28,053,,14,33,118,44,13,38,045,44*69
$GBGSV,6,5,23,11,28,081,43,37,34,254,46,42,35,084,46,43,50,080,49*66
$GBGSV,6,6,23,02,08,106,34,34,05,089,40,07,01,120,*52
$GPGGA,192942.00,,,,,0,00,,,M,,M,,*4D
$PTNL,GGK,192942.00,010125,4742.1604851,N,01618.1000341,E,1,39,0.8,EHT751.5892,M*4B
$GPGGQ,192942.00,010125,4742.1604851,N,01618.1000341,E,1,39,0.970,708.3827,M*37
$GPGFA,192942.00,3.468,6.866,0.365,0.327,7.357,0.837,,VVV*0D
$GPLLK,192942.00,010125,,M,,M,1,39,0.9,,M*0D
$GNGMP,192942.00,,,,,DAAA,39,0.4,,,,*5D
$GPGMP,192942.00,,,,,,09,,,,2.3,136*74
$GLGMP,192942.00,,,,,,08,,,,,*72
$GAGMP,192942.00,,,,,,06,,,,,*71
$GBGMP,192942.00,,,,,,16,,,,,*73
$PSSN,SNC,[0,329400000,2347]*48
$GPZDA,192947.00,01,01,2025,,*63
$GPDTM,W84,,00.0000000,N,00.0000000,E,00.0000000,W84*5F
$PSSN,TFM,192947.00,,,,*6F
$GPRMC,192947.00,A,4742.1604847,N,01618.1000346,E,0.0,,010125,5.1,E,D*1E
$GPGLL,4742.1604847,N,01618.1000346,E,192947.00,A,D*6F
$GPGGA,192947.00,4742.1604847,N,01618.1000346,E,2,39,0.4,708.3812,M,43.2066,M,3.3,0136*4A
$GNGNS,192947.00,4742.1604847,N,01618.1000346,E,DAAA,39,0.4,708.3812,43.2066,,*52
$GPGNS,192947.00,,,,,,09,,,,3.3,136*70
$GLGNS,192947.00,,,,,,08,,,,,*77
$GAGNS,192947.00,,,,,,06,,,,,*74
$GBGNS,192947.00,,,,,,16,,,,,*76
$GPLLQ,192947.00,010125,,M,,M,1,39,0.978,,M*1D
$GPVTG,,T,,M,0.00,N,0.00,K,D*26
$GPHDT,,T*1B
$GPTHS,,V*0E
$GPROT,,V*08
$PSSN,HRP,192947.00,010125,,,,,,,00,0,,*61
$PTNL,AVR,192947.00,,Yaw,,Tilt,,,,0,,00*37
$GPGSA,A,3,07,08,10,15,16,18,23,26,27,,,,0.8,0.4,0.7*3D
$GPGSA,A,3,66,67,73,74,80,82,83,84,,,,,0.8,0.4,0.7*3A
$GPGSA,A,3,03,13,15,21,26,27,,,,,,,0.8,0.4,0.7*3E
$GPGSA,A,3,05,08,11,13,14,21,23,27,28,33,34,37,0.8,0.4,0.7*3D
$GPGSA,A,3,38,42,43,60,,,,,,,,,0.8,0.4,0.7*35
$GPGST,192947.00,1.953,0.367,0.330,10.660,0.366,0.331,0.845*61
$GPGBS,192947.00,2.488,1.950,4.858,67,0.0001,6.554,6.136*55
$GPGRS,192947.00,1,0.4,-0.2,-0.2,-0.3,-0.0,-0.0,-0.1,0.1,0.4,,,*63
$GPGRS,192947.00,1,-2.0,6.6,4.2,-4.1,-1.6,-0.7,-1.9,-4.2,,,,*41
$GPGRS,192947.00,1,-0.4,0.2,0.2,0.3,0.3,-1.2,,,,,,*49
$GPGRS,192947.00,1,1.7,0.5,0.6,0.5,1.5,0.3,0.0,-0.4,0.1,-1.1,-1.8,-0.7*42
$GPGRS,192947.00,1,-0.4,-0.6,-0.3,-1.5,,,,,,,,*4B
$GPGSV,5,1,20,16,61,226,49,08,22,297,42,26,37,193,45,15,15,060,41*7F
$GPGSV,5,2,20,10,41,168,48,18,41,060,46,27,57,301,49,23,59,102,48*79
$GPGSV,5,3,20,13,05,030,35,07,09,319,41,29,02,109,28,36,35,170,44*71
$GPGSV,5,4,20,58,13,245,37,57,11,108,37,34,31,208,42,40,24,133,36*72
$GPGSV,5,5,20,49,34,195,44,41,07,108,34,61,03,257,38*4F
$GLGSV,3,1,10,83,66,327,43,84,14,267,36,80,21,201,46,68,10,140,*63
$GLGSV,3,2,10,66,23,034,47,67,32,093,48,74,30,321,44,82,46,052,49*64
$GLGSV,3,3,10,73,47,264,50,81,04,074,40*6C
$GAGSV,3,1,09,13,81,031,48,23,42,303,,03,10,063,38,27,19,165,40*66
$GAGSV,3,2,09,15,27,058,42,26,41,245,45,21,60,213,48,05,03,016,34*66
$GAGSV,3,3,09,08,04,110,33*5D
$GBGSV,6,1,23,28,60,286,50,23,14,203,42,60,11,108,40,21,14,035,43*67
$GBGSV,6,2,23,46,20,313,,38,17,037,42,05,22,128,39,30,15,266,*61
$GBGSV,6,3,23,33,22,145,43,50,26,056,,27,16,274,43,08,31,038,40*6B
$GBGSV,6,4,23,58,27,310,,31,28,053,,14,33,118,44,13,38,045,44*69
$GBGSV,6,5,23,11,28,081,43,37,34,254,46,42,35,084,46,43,50,080,49*66
$GBGSV,6,6,23,02,08,106,34,34,05,089,40,07,01,120,*52
$GPGGA,192947.00,,,,,0,00,,,M,,M,,*48
$PTNL,GGK,192947.00,010125,4742.1604847,N,01618.1000346,E,1,39,0.8,EHT751.5877,M*45
$GPGGQ,192947.00,010125,4742.1604847,N,01618.1000346,E,1,39,0.978,708.3812,M*3C
$GPGFA,192947.00,3.494,6.927,0.367,0.330,10.660,0.845,,VVV*39
$GPLLK,192947.00,010125,,M,,M,1,39,0.9,,M*08
$GNGMP,192947.00,,,,,DAAA,39,0.4,,,,*58
$GPGMP,192947.00,,,,,,09,,,,3.3,136*70
$GLGMP,192947.00,,,,,,08,,,,,*77
$GAGMP,192947.00,,,,,,06,,,,,*74
$GBGMP,192947.00,,,,,,16,,,,,*76
$PSSN,SNC,[0,329405000,2347]*4D
$GPZDA,192952.00,01,01,2025,,*67
$GPDTM,W84,,00.0000000,N,00.0000000,E,00.0000000,W84*5F
$PSSN,TFM,192952.00,,,,*6B
$GPRMC,192952.00,A,4742.1604824,N,01618.1000366,E,0.0,,010125,5.1,E,D*1D
$GPGLL,4742.1604824,N,01618.1000366,E,192952.00,A,D*6C
$GPGGA,192952.00,4742.1604824,N,01618.1000366,E,2,39,0.4,708.3786,M,43.2066,M,1.7,0136*4D
$GNGNS,192952.00,4742.1604824,N,01618.1000366,E,DAAA,39,0.4,708.3786,43.2066,,*53
$GPGNS,192952.00,,,,,,09,,,,1.7,136*72
$GLGNS,192952.00,,,,,,08,,,,,*73
$GAGNS,192952.00,,,,,,06,,,,,*70
$GBGNS,192952.00,,,,,,16,,,,,*72
$GPLLQ,192952.00,010125,,M,,M,1,39,0.974,,M*15
$GPVTG,,T,,M,0.00,N,0.01,K,D*27
$GPHDT,,T*1B
$GPTHS,,V*0E
$GPROT,,V*08
$PSSN,HRP,192952.00,010125,,,,,,,00,0,,*65
$PTNL,AVR,192952.00,,Yaw,,Tilt,,,,0,,00*33
$GPGSA,A,3,07,08,10,15,16,18,23,26,27,,,,0.8,0.4,0.7*3D
$GPGSA,A,3,66,67,73,74,80,82,83,84,,,,,0.8,0.4,0.7*3A
$GPGSA,A,3,03,13,15,21,26,27,,,,,,,0.8,0.4,0.7*3E
$GPGSA,A,3,05,08,11,13,14,21,23,27,28,33,34,37,0.8,0.4,0.7*3D
$GPGSA,A,3,38,42,43,60,,,,,,,,,0.8,0.4,0.7*35
$GPGST,192952.00,1.809,0.366,0.328,8.392,0.366,0.329,0.841*5F
$GPGBS,192952.00,2.483,1.880,4.554,67,0.0001,6.201,6.136*50
$GPGRS,192952.00,1,0.1,-0.2,0.2,-0.4,0.1,-0.2,0.1,-0.3,0.4,,,*64
$GPGRS,192952.00,1,-2.6,6.2,4.5,-3.5,-1.4,-0.6,-2.2,-2.1,,,,*4D
$GPGRS,192952.00,1,-0.5,0.2,0.1,0.3,0.3,-1.2,,,,,,*4F
$GPGRS,192952.00,1,1.4,0.4,-0.1,0.3,1.3,-0.3,-0.2,-0.6,0.1,-1.1,-1.7,-0.5*63
$GPGRS,192952.00,1,-0.1,-0.4,-0.2,-2.1,,,,,,,,*4E
$GPGSV,5,1,20,16,61,226,49,08,23,297,43,26,37,193,45,15,15,060,41*7F
$GPGSV,5,2,20,10,41,168,48,18,41,060,46,27,57,301,49,23,59,102,48*79
$GPGSV,5,3,20,13,05,030,35,07,09,319,40,29,02,109,27,36,35,170,44*7F
$GPGSV,5,4,20,58,13,245,37,57,11,108,38,34,31,208,42,40,24,133,36*7D
$GPGSV,5,5,20,49,34,195,44,41,07,108,34,61,03,257,38*4F
$GLGSV,3,1,10,83,66,327,43,84,14,267,37,80,21,201,47,68,10,139,*6D
$GLGSV,3,2,10,66,23,034,46,67,32,093,49,74,30,321,44,82,46,052,49*64
$GLGSV,3,3,10,73,47,264,51,81,04,074,41*6C
$GAGSV,3,1,09,13,81,031,48,23,42,302,,03,10,063,38,27,19,165,40*67
$GAGSV,3,2,09,15,27,058,41,26,41,245,45,21,60,213,48,05,03,016,35*64
$GAGSV,3,3,09,08,04,110,33*5D
$GBGSV,6,1,23,28,60,286,50,23,14,203,42,60,11,108,40,21,14,035,42*66
$GBGSV,6,2,23,46,20,313,,38,17,037,42,05,22,128,39,30,15,266,*61
$GBGSV,6,3,23,33,22,145,43,50,26,056,,27,16,274,43,08,31,038,40*6B
$GBGSV,6,4,23,58,27,310,,31,28,053,,14,33,118,44,13,38,045,44*69
$GBGSV,6,5,23,11,28,081,43,37,34,254,46,42,35,084,46,43,50,080,49*66
$GBGSV,6,6,23,02,08,106,35,34,05,089,40,07,01,120,*53
$GPGGA,192952.00,,,,,0,00,,,M,,M,,*4C
$PTNL,GGK,192952.00,010125,4742.1604824,N,01618.1000366,E,1,39,0.8,EHT751.5851,M*42
$GPGGQ,192952.00,010125,4742.1604824,N,01618.1000366,E,1,39,0.974,708.3786,M*31
$GPGFA,192952.00,3.482,6.898,0.366,0.328,8.392,0.841,,VVV*02
$GPLLK,192952.00,010125,,M,,M,1,39,0.9,,M*0C
$GNGMP,192952.00,,,,,DAAA,39,0.4,,,,*5C
$GPGMP,192952.00,,,,,,09,,,,1.7,136*72
$GLGMP,192952.00,,,,,,08,,,,,*73
$GAGMP,192952.00,,,,,,06,,,,,*70
$GBGMP,192952.00,,,,,,16,,,,,*72
$PSSN,SNC,[0,329410000,2347]*49
$GPZDA,192957.00,01,01,2025,,*62
$GPDTM,W84,,00.0000000,N,00.0000000,E,00.0000000,W84*5F
$PSSN,TFM,192957.00,,,,*6E
$GPRMC,192957.00,A,4742.1604833,N,01618.1000367,E,0.0,,010125,5.1,E,D*1F
$GPGLL,4742.1604833,N,01618.1000367,E,192957.00,A,D*6E
$GPGGA,192957.00,4742.1604833,N,01618.1000367,E,2,39,0.4,708.3731,M,43.2066,M,2.7,0136*40
$GNGNS,192957.00,4742.1604833,N,01618.1000367,E,DAAA,39,0.4,708.3731,43.2066,,*5D
$GPGNS,192957.00,,,,,,09,,,,2.7,136*74
$GLGNS,192957.00,,,,,,08,,,,,*76
$GAGNS,192957.00,,,,,,06,,,,,*75
$GBGNS,192957.00,,,,,,16,,,,,*77
$GPLLQ,192957.00,010125,,M,,M,1,39,0.959,,M*1F
$GPVTG,,T,,M,0.00,N,0.00,K,D*26
$GPHDT,,T*1B
$GPTHS,,V*0E
$GPROT,,V*08
$PSSN,HRP,192957.00,010125,,,,,,,00,0,,*60
$PTNL,AVR,192957.00,,Yaw,,Tilt,,,,0,,00*36
$GPGSA,A,3,07,08,10,15,16,18,23,26,27,,,,0.8,0.4,0.7*3D
$GPGSA,A,3,66,67,73,74,80,82,83,84,,,,,0.8,0.4,0.7*3A
$GPGSA,A,3,03,13,15,21,26,27,,,,,,,0.8,0.4,0.7*3E
$GPGSA,A,3,05,08,11,13,14,21,23,27,28,33,34,37,0.8,0.4,0.7*3D
$GPGSA,A,3,38,42,43,60,,,,,,,,,0.8,0.4,0.7*35
$GPGST,192957.00,1.960,0.361,0.322,4.840,0.361,0.323,0.828*53
$GPGBS,192957.00,2.535,1.901,4.631,67,0.0001,6.759,6.136*59
$GPGRS,192957.00,1,-0.7,-0.1,0.2,0.2,-0.1,-0.2,-0.1,0.1,0.2,,,*4B
$GPGRS,192957.00,1,-3.2,6.8,5.2,-3.2,-0.3,-0.3,-3.0,-2.7,,,,*40
$GPGRS,192957.00,1,-0.4,0.4,0.4,0.2,0.4,-1.0,,,,,,*4C
$GPGRS,192957.00,1,1.2,0.7,0.5,0.3,1.5,-0.0,-0.3,-0.6,0.1,-0.4,-1.7,-0.3*4C
$GPGRS,192957.00,1,0.0,-0.2,-0.2,-1.7,,,,,,,,*64
$GPGSV,5,1,20,16,61,226,49,08,23,297,42,26,37,193,45,15,15,060,40*7F
$GPGSV,5,2,20,10,41,168,48,18,41,060,46,27,57,301,49,23,59,102,48*79
$GPGSV,5,3,20,13,05,030,35,07,09,319,39,29,02,109,26,36,35,170,44*70
$GPGSV,5,4,20,58,13,245,37,57,11,108,37,34,31,208,42,40,24,133,36*72
$GPGSV,5,5,20,49,34,195,44,41,07,108,34,61,03,257,38*4F
$GLGSV,3,1,10,83,66,327,42,84,14,267,36,80,21,201,47,68,10,139,*6D
$GLGSV,3,2,10,66,23,034,46,67,32,093,49,74,30,321,44,82,46,052,49*64
$GLGSV,3,3,10,73,47,264,51,81,04,074,41*6C
$GAGSV,3,1,09,13,81,031,48,23,42,302,,03,10,063,38,27,19,165,39*69
$GAGSV,3,2,09,15,27,058,41,26,41,245,45,21,60,213,48,05,03,016,34*65
$GAGSV,3,3,09,08,04,110,33*5D
$GBGSV,6,1,23,28,60,286,50,23,14,203,41,60,11,108,40,21,14,035,42*65
$GBGSV,6,2,23,46,20,313,,38,17,037,42,05,22,128,39,30,15,266,*61
$GBGSV,6,3,23,33,22,145,43,50,26,056,,27,16,274,43,08,31,038,40*6B
$GBGSV,6,4,23,58,27,310,,31,28,053,,14,33,118,44,13,38,045,44*69
$GBGSV,6,5,23,11,28,081,43,37,34,254,46,42,35,084,47,43,50,080,49*67
$GBGSV,6,6,23,02,08,106,35,34,05,089,40,07,01,120,*53
$GPGGA,192957.00,,,,,0,00,,,M,,M,,*49
$PTNL,GGK,192957.00,010125,4742.1604833,N,01618.1000367,E,1,39,0.8,EHT751.5797,M*45
$GPGGQ,192957.00,010125,4742.1604833,N,01618.1000367,E,1,39,0.959,708.3731,M*30
$GPGFA,192957.00,3.432,6.789,0.361,0.322,4.840,0.828,,VVV*09
$GPLLK,192957.00,010125,,M,,M,1,39,0.9,,M*09
$GNGMP,192957.00,,,,,DAAA,39,0.4,,,,*59
$GPGMP,192957.00,,,,,,09,,,,2.7,136*74
$GLGMP,192957.00,,,,,,08,,,,,*76
$GAGMP,192957.00,,,,,,06,,,,,*75
$GBGMP,192957.00,,,,,,16,,,,,*77
$PSSN,SNC,[0,329415000,2347]*4C
$GPZDA,193002.00,01,01,2025,,*6A
$GPDTM,W84,,00.0000000,N,00.0000000,E,00.0000000,W84*5F
$PSSN,TFM,193002.00,,,,*66
$GPRMC,193002.00,A,4742.1604875,N,01618.1000325,E,0.0,,010125,5.1,E,D*13
$GPGLL,4742.1604875,N,01618.1000325,E,193002.00,A,D*62
$GPGGA,193002.00,4742.1604875,N,01618.1000325,E,2,39,0.4,708.3671,M,43.2066,M,2.3,0136*4D
$GNGNS,193002.00,4742.1604875,N,01618.1000325,E,DAAA,39,0.4,708.3671,43.2066,,*54
$GPGNS,193002.00,,,,,,09,,,,2.3,136*78
$GLGNS,193002.00,,,,,,08,,,,,*7E
$GAGNS,193002.00,,,,,,06,,,,,*7D
$GBGNS,193002.00,,,,,,16,,,,,*7F
$GPLLQ,193002.00,010125,,M,,M,1,39,0.970,,M*1C
$GPVTG,,T,,M,0.01,N,0.01,K,D*26
$GPHDT,,T*1B
$GPTHS,,V*0E
$GPROT,,V*08
$PSSN,HRP,193002.00,010125,,,,,,,00,0,,*68
$PTNL,AVR,193002.00,,Yaw,,Tilt,,,,0,,00*3E
$GPGSA,A,3,07,08,10,15,16,18,23,26,27,,,,0.8,0.4,0.7*3D
$GPGSA,A,3,66,67,73,74,80,82,83,84,,,,,0.8,0.4,0.7*3A
$GPGSA,A,3,03,13,15,21,26,27,,,,,,,0.8,0.4,0.7*3E
$GPGSA,A,3,05,08,11,13,14,21,23,27,28,33,34,37,0.8,0.4,0.7*3D
$GPGSA,A,3,38,42,43,60,,,,,,,,,0.8,0.4,0.7*35
$GPGST,193002.00,1.970,0.365,0.327,7.034,0.364,0.327,0.837*5C
$GPGBS,193002.00,2.446,1.923,4.769,67,0.0001,7.282,6.136*5A
$GPGRS,193002.00,1,0.3,-0.8,0.1,0.2,-0.0,-0.1,0.2,0.0,0.3,,,*4C
$GPGRS,193002.00,1,-2.9,7.3,4.6,-3.7,-0.6,-0.1,-2.4,-3.1,,,,*4D
$GPGRS,193002.00,1,-0.7,0.3,0.5,0.4,0.2,-0.9,,,,,,*49
$GPGRS,193002.00,1,1.1,0.8,0.7,0.4,0.9,-0.2,-0.7,-0.1,0.1,-0.1,-1.5,-0.4*41
$GPGRS,193002.00,1,-0.0,-0.2,-0.2,-1.7,,,,,,,,*41
$GPGSV,5,1,20,16,61,226,49,08,23,297,42,26,37,193,45,15,15,060,40*7F
$GPGSV,5,2,20,10,41,168,48,18,41,060,46,27,57,301,49,23,59,102,48*79
$GPGSV,5,3,20,13,05,030,35,07,09,319,40,29,02,109,27,36,35,170,44*7F
$GPGSV,5,4,20,58,13,245,37,57,11,108,37,34,31,208,42,40,24,133,36*72
$GPGSV,5,5,20,49,34,195,44,41,07,108,34,61,03,257,38*4F
$GLGSV,3,1,10,83,66,327,42,84,14,267,36,80,21,201,47,68,10,139,*6D
$GLGSV,3,2,10,66,23,034,47,67,32,093,49,74,30,321,43,82,46,052,49*62
$GLGSV,3,3,10,73,47,264,50,81,04,074,40*6C
$GAGSV,3,1,09,13,81,031,48,23,42,302,,03,10,063,38,27,19,165,39*69
$GAGSV,3,2,09,15,27,058,42,26,41,245,45,21,59,213,48,05,03,016,34*6C
$GAGSV,3,3,09,08,04,110,34*5A
$GBGSV,6,1,23,28,60,286,50,23,14,203,41,60,11,108,40,21,14,035,42*65
$GBGSV,6,2,23,46,20,313,,38,17,037,42,05,22,128,39,30,15,266,*61
$GBGSV,6,3,23,33,22,145,43,50,26,056,,27,16,274,43,08,31,038,40*6B
$GBGSV,6,4,23,58,27,310,,31,28,053,,14,33,118,44,13,38,045,44*69
$GBGSV,6,5,23,11,28,081,43,37,34,254,46,42,35,084,47,43,50,081,49*66
$GBGSV,6,6,23,02,08,106,35,34,05,089,41,07,01,120,*52
$GPGGA,193002.00,,,,,0,00,,,M,,M,,*41
$PTNL,GGK,193002.00,010125,4742.1604875,N,01618.1000325,E,1,39,0.8,EHT751.5736,M*42
$GPGGQ,193002.00,010125,4742.1604875,N,01618.1000325,E,1,39,0.970,708.3671,M*32
$GPGFA,193002.00,3.466,6.865,0.365,0.327,7.034,0.837,,VVV*0A
$GPLLK,193002.00,010125,,M,,M,1,39,0.9,,M*01
$GNGMP,193002.00,,,,,DAAA,39,0.4,,,,*51
$GPGMP,193002.00,,,,,,09,,,,2.3,136*78
$GLGMP,193002.00,,,,,,08,,,,,*7E
$GAGMP,193002.00,,,,,,06,,,,,*7D
$GBGMP,193002.00,,,,,,16,,,,,*7F
$PSSN,SNC,[0,329420000,2347]*4A
$GPZDA,193007.00,01,01,2025,,*6F
$GPDTM,W84,,00.0000000,N,00.0000000,E,00.0000000,W84*5F
$PSSN,TFM,193007.00,,,,*63
$GPRMC,193007.00,A,4742.1604864,N,01618.1000327,E,0.0,,010125,5.1,E,D*14
$GPGLL,4742.1604864,N,01618.1000327,E,193007.00,A,D*65
$GPGGA,193007.00,4742.1604864,N,01618.1000327,E,2,39,0.4,708.3659,M,43.2066,M,3.3,0136*41
$GNGNS,193007.00,4742.1604864,N,01618.1000327,E,DAAA,39,0.4,708.3659,43.2066,,*59
$GPGNS,193007.00,,,,,,09,,,,3.3,136*7C
$GLGNS,193007.00,,,,,,08,,,,,*7B
$GAGNS,193007.00,,,,,,06,,,,,*78
$GBGNS,193007.00,,,,,,16,,,,,*7A
$GPLLQ,193007.00,010125,,M,,M,1,39,0.978,,M*11
$GPVTG,,T,,M,0.00,N,0.01,K,D*27
$GPHDT,,T*1B
$GPTHS,,V*0E
$GPROT,,V*08
$PSSN,HRP,193007.00,010125,,,,,,,00,0,,*6D
$PTNL,AVR,193007.00,,Yaw,,Tilt,,,,0,,00*3B
$GPGSA,A,3,07,08,10,15,16,18,23,26,27,,,,0.8,0.4,0.7*3D
$GPGSA,A,3,66,67,73,74,80,82,83,84,,,,,0.8,0.4,0.7*3A
$GPGSA,A,3,03,13,15,21,26,27,,,,,,,0.8,0.4,0.7*3E
$GPGSA,A,3,05,08,11,13,14,21,23,27,28,33,34,37,0.8,0.4,0.7*3D
$GPGSA,A,3,38,42,43,60,,,,,,,,,0.8,0.4,0.7*35
$GPGST,193007.00,1.864,0.367,0.330,10.360,0.366,0.331,0.845*6D
$GPGBS,193007.00,2.493,1.951,4.883,67,0.0001,6.895,6.136*54
$GPGRS,193007.00,1,0.8,-0.6,0.3,-0.9,0.0,-0.2,0.1,-0.3,0.3,,,*6B
$GPGRS,193007.00,1,-2.4,6.9,4.4,-4.2,-0.6,-0.2,-2.1,-1.9,,,,*42
$GPGRS,193007.00,1,-0.9,0.2,0.6,0.5,0.2,-1.0,,,,,,*49
$GPGRS,193007.00,1,1.6,0.4,0.3,0.5,0.8,0.5,-0.8,-0.3,0.2,-0.4,-1.2,-0.5*6C
$GPGRS,193007.00,1,-0.1,-0.4,-0.0,-1.6,,,,,,,,*40
$GPGSV,5,1,20,16,61,226,48,08,23,297,42,26,36,193,45,15,15,060,40*7F
$GPGSV,5,2,20,10,41,168,49,18,41,060,46,27,57,301,49,23,59,102,48*78
$GPGSV,5,3,20,13,05,030,35,07,09,319,40,29,02,109,27,36,35,170,44*7F
$GPGSV,5,4,20,58,13,245,37,57,11,108,37,34,31,208,42,40,24,133,36*72
$GPGSV,5,5,20,49,34,195,44,41,07,108,34,61,03,257,38*4F
$GLGSV,3,1,10,83,66,328,43,84,14,267,36,80,21,201,48,68,10,139,*6C
$GLGSV,3,2,10,66,23,034,46,67,32,093,49,74,30,321,43,82,46,052,49*63
$GLGSV,3,3,10,73,47,264,50,81,04,074,40*6C
$GAGSV,3,1,09,13,81,032,48,23,42,302,,03,10,063,38,27,19,165,39*6A
$GAGSV,3,2,09,15,27,058,42,26,41,245,45,21,59,213,48,05,03,016,35*6D
$GAGSV,3,3,09,08,04,110,34*5A
$GBGSV,6,1,23,28,60,287,50,23,14,203,42,60,11,108,41,21,14,035,43*67
$GBGSV,6,2,23,46,20,313,,38,17,037,42,05,22,128,39,30,15,266,*61
$GBGSV,6,3,23,33,22,145,43,50,26,056,,27,16,274,43,08,31,038,40*6B
$GBGSV,6,4,23,58,27,310,,31,28,053,,14,33,118,44,13,38,045,44*69
$GBGSV,6,5,23,11,27,081,43,37,34,254,46,42,35,084,47,43,50,081,49*69
$GBGSV,6,6,23,02,08,106,35,34,05,089,41,07,01,120,*52
$GPGGA,193007.00,,,,,0,00,,,M,,M,,*44
$PTNL,GGK,193007.00,010125,4742.1604864,N,01618.1000327,E,1,39,0.8,EHT751.5725,M*47
$GPGGQ,193007.00,010125,4742.1604864,N,01618.1000327,E,1,39,0.978,708.3659,M*37
$GPGFA,193007.00,3.491,6.927,0.367,0.330,10.360,0.845,,VVV*35
$GPLLK,193007.00,010125,,M,,M,1,39,0.9,,M*04
$GNGMP,193007.00,,,,,DAAA,39,0.4,,,,*54
$GPGMP,193007.00,,,,,,09,,,,3.3,136*7C
$GLGMP,193007.00,,,,,,08,,,,,*7B
$GAGMP,193007.00,,,,,,06,,,,,*78
$GBGMP,193007.00,,,,,,16,,,,,*7A
$PSSN,SNC,[0,329425000,2347]*4F
$GPZDA,193012.00,01,01,2025,,*6B
$GPDTM,W84,,00.0000000,N,00.0000000,E,00.0000000,W84*5F
$PSSN,TFM,193012.00,,,,*67
$GPRMC,193012.00,A,4742.1604861,N,01618.1000366,E,0.0,,010125,5.1,E,D*10
$GPGLL,4742.1604861,N,01618.1000366,E,193012.00,A,D*61
$GPGGA,193012.00,4742.1604861,N,01618.1000366,E,2,39,0.4,708.3640,M,43.2066,M,1.7,0136*4B
$GNGNS,193012.00,4742.1604861,N,01618.1000366,E,DAAA,39,0.4,708.3640,43.2066,,*55
$GPGNS,193012.00,,,,,,09,,,,1.7,136*7E
$GLGNS,193012.00,,,,,,08,,,,,*7F
$GAGNS,193012.00,,,,,,06,,,,,*7C
$GBGNS,193012.00,,,,,,16,,,,,*7E
$GPLLQ,193012.00,010125,,M,,M,1,39,0.974,,M*19
$GPVTG,,T,,M,0.00,N,0.00,K,D*26
$GPHDT,,T*1B
$GPTHS,,V*0E
$GPROT,,V*08
$PSSN,HRP,193012.00,010125,,,,,,,00,0,,*69
$PTNL,AVR,193012.00,,Yaw,,Tilt,,,,0,,00*3F
$GPGSA,A,3,07,08,10,15,16,18,23,26,27,,,,0.8,0.4,0.7*3D
$GPGSA,A,3,66,67,73,74,80,82,83,84,,,,,0.8,0.4,0.7*3A
$GPGSA,A,3,03,13,15,21,26,27,,,,,,,0.8,0.4,0.7*3E
$GPGSA,A,3,05,08,11,13,14,21,23,27,28,33,34,37,0.8,0.4,0.7*3D
$GPGSA,A,3,38,42,43,60,,,,,,,,,0.8,0.4,0.7*35
$GPGST,193012.00,1.815,0.366,0.328,7.977,0.365,0.329,0.841*53
$GPGBS,193012.00,2.487,1.879,4.574,67,0.0001,6.160,6.136*58
$GPGRS,193012.00,1,0.3,-0.1,0.1,-0.6,0.1,-0.1,-0.0,-0.2,0.1,,,*43
$GPGRS,193012.00,1,-2.8,6.2,3.9,-4.9,-0.3,-0.0,-1.9,-1.9,,,,*4C
$GPGRS,193012.00,1,-0.8,0.1,0.4,0.3,0.3,-0.9,,,,,,*42
$GPGRS,193012.00,1,1.4,0.5,1.3,0.2,1.4,0.2,-0.5,-0.5,0.1,-0.7,-1.2,-0.4*6D
$GPGRS,193012.00,1,-0.0,-0.3,-0.3,-1.5,,,,,,,,*42
$GPGSV,5,1,20,16,61,226,49,08,23,297,42,26,36,193,45,15,15,060,41*7F
$GPGSV,5,2,20,10,41,168,48,18,41,060,46,27,58,301,49,23,59,102,48*76
$GPGSV,5,3,20,13,05,030,35,07,09,319,40,29,02,109,27,36,35,170,45*7E
$GPGSV,5,4,20,58,13,245,38,57,11,108,38,34,31,208,42,40,24,133,36*72
$GPGSV,5,5,20,49,34,195,44,41,07,108,34,61,03,257,38*4F
$GLGSV,3,1,10,83,66,328,43,84,14,267,35,80,21,201,47,68,10,139,*60
$GLGSV,3,2,10,66,22,034,45,67,32,093,49,74,30,321,43,82,46,052,49*61
$GLGSV,3,3,10,73,47,264,50,81,04,074,40*6C
$GAGSV,3,1,09,13,81,032,48,23,42,302,,03,10,063,37,27,18,165,39*64
$GAGSV,3,2,09,15,27,058,42,26,41,245,45,21,59,213,48,05,03,016,35*6D
$GAGSV,3,3,09,08,04,110,34*5A
$GBGSV,6,1,23,28,60,287,50,23,14,203,42,60,11,108,40,21,14,035,42*67
$GBGSV,6,2,23,46,20,313,,38,17,037,41,05,22,128,39,30,15,266,*62
$GBGSV,6,3,23,33,22,145,43,50,26,056,,27,16,274,43,08,31,038,40*6B
$GBGSV,6,4,23,58,27,310,,31,28,053,,14,33,118,44,13,38,045,44*69
$GBGSV,6,5,23,11,27,081,43,37,34,254,46,42,35,084,47,43,50,081,49*69
$GBGSV,6,6,23,02,08,106,35,34,05,089,41,07,01,120,*52
$GPGGA,193012.00,,,,,0,00,,,M,,M,,*40
$PTNL,GGK,193012.00,010125,4742.1604861,N,01618.1000366,E,1,39,0.8,EHT751.5705,M*41
$GPGGQ,193012.00,010125,4742.1604861,N,01618.1000366,E,1,39,0.974,708.3640,M*37
$GPGFA,193012.00,3.480,6.898,0.366,0.328,7.977,0.841,,VVV*02
$GPLLK,193012.00,010125,,M,,M,1,39,0.9,,M*00
$GNGMP,193012.00,,,,,DAAA,39,0.4,,,,*50
$GPGMP,193012.00,,,,,,09,,,,1.7,136*7E
$GLGMP,193012.00,,,,,,08,,,,,*7F
$GAGMP,193012.00,,,,,,06,,,,,*7C
$GBGMP,193012.00,,,,,,16,,,,,*7E
$PSSN,SNC,[0,329430000,2347]*4B
$GPZDA,193017.00,01,01,2025,,*6E
$GPDTM,W84,,00.0000000,N,00.0000000,E,00.0000000,W84*5F
$PSSN,TFM,193017.00,,,,*62
$GPRMC,193017.00,A,4742.1604870,N,01618.1000359,E,0.0,,010125,5.1,E,D*19
$GPGLL,4742.1604870,N,01618.1000359,E,193017.00,A,D*68
$GPGGA,193017.00,4742.1604870,N,01618.1000359,E,2,39,0.4,708.3566,M,43.2066,M,2.7,0136*46
$GNGNS,193017.00,4742.1604870,N,01618.1000359,E,DAAA,39,0.4,708.3566,43.2066,,*5B
$GPGNS,193017.00,,,,,,09,,,,2.7,136*78
$GLGNS,193017.00,,,,,,08,,,,,*7A
$GAGNS,193017.00,,,,,,06,,,,,*79
$GBGNS,193017.00,,,,,,16,,,,,*7B
$GPLLQ,193017.00,010125,,M,,M,1,39,0.959,,M*13
$GPVTG,,T,,M,0.00,N,0.01,K,D*27
$GPHDT,,T*1B
$GPTHS,,V*0E
$GPROT,,V*08
$PSSN,HRP,193017.00,010125,,,,,,,00,0,,*6C
$PTNL,AVR,193017.00,,Yaw,,Tilt,,,,0,,00*3A
$GPGSA,A,3,07,08,10,15,16,18,23,26,27,,,,0.8,0.4,0.7*3D
$GPGSA,A,3,66,67,73,74,80,82,83,84,,,,,0.8,0.4,0.7*3A
$GPGSA,A,3,03,13,15,21,26,27,,,,,,,0.8,0.4,0.7*3E
$GPGSA,A,3,05,08,11,13,14,21,23,27,28,33,34,37,0.8,0.4,0.7*3D
$GPGSA,A,3,38,42,43,60,,,,,,,,,0.8,0.4,0.7*35
$GPGST,193017.00,1.944,0.361,0.322,4.426,0.361,0.323,0.828*55
$GPGBS,193017.00,2.540,1.900,4.654,67,0.0001,6.986,6.135*5A
$GPGRS,193017.00,1,-0.2,0.0,-0.1,0.0,0.3,-0.2,0.1,-0.0,0.1,,,*6F
$GPGRS,193017.00,1,-2.1,7.0,3.6,-5.1,-1.9,-0.4,-1.7,-2.5,,,,*4B
$GPGRS,193017.00,1,-0.9,0.3,0.4,0.3,0.1,-0.9,,,,,,*46
$GPGRS,193017.00,1,1.2,0.7,1.2,0.0,1.3,0.7,-0.1,-0.4,0.2,-1.0,-1.4,-0.5*6A
$GPGRS,193017.00,1,-0.3,-0.9,-0.2,-1.8,,,,,,,,*42
$GPGSV,6,1,21,16,61,226,49,08,23,297,42,26,36,193,45,15,15,060,41*7D
$GPGSV,6,2,21,10,42,168,48,18,41,060,46,27,58,301,49,23,59,102,48*77
$GPGSV,6,3,21,21,00,251,,13,05,030,36,07,09,318,40,29,02,109,26*7E
$GPGSV,6,4,21,36,35,170,44,58,13,245,37,57,11,108,38,34,31,208,42*7C
$GPGSV,6,5,21,40,24,133,36,49,34,195,44,41,07,108,34,61,03,257,38*7B
$GPGSV,6,6,21*7A
$GLGSV,3,1,10,83,66,328,43,84,14,267,36,80,21,201,46,68,11,139,*63
$GLGSV,3,2,10,66,22,034,46,67,32,093,49,74,30,321,43,82,46,052,49*62
$GLGSV,3,3,10,73,47,264,50,81,04,074,41*6D
$GAGSV,3,1,09,13,81,032,48,23,42,302,,03,10,063,37,27,18,165,39*64
$GAGSV,3,2,09,15,27,058,42,26,41,245,45,21,59,213,48,05,03,016,35*6D
$GAGSV,3,3,09,08,04,109,34*52
$GBGSV,6,1,23,28,60,287,50,23,14,203,42,60,11,108,40,21,14,035,42*67
$GBGSV,6,2,23,46,20,313,,38,17,037,41,05,22,128,39,30,15,266,*62
$GBGSV,6,3,23,33,22,145,43,50,26,056,,27,16,274,43,08,31,038,40*6B
$GBGSV,6,4,23,58,27,310,,31,28,053,,14,33,118,43,13,38,045,44*6E
$GBGSV,6,5,23,11,27,081,42,37,34,254,46,42,35,084,46,43,50,081,49*69
$GBGSV,6,6,23,02,08,106,35,34,05,089,40,07,01,120,*53
$GPGGA,193017.00,,,,,0,00,,,M,,M,,*45
$PTNL,GGK,193017.00,010125,4742.1604870,N,01618.1000359,E,1,39,0.8,EHT751.5632,M*4D
$GPGGQ,193017.00,010125,4742.1604870,N,01618.1000359,E,1,39,0.959,708.3566,M*36
$GPGFA,193017.00,3.431,6.788,0.361,0.322,4.426,0.828,,VVV*0B
$GPLLK,193017.00,010125,,M,,M,1,39,0.9,,M*05
$GNGMP,193017.00,,,,,DAAA,39,0.4,,,,*55
$GPGMP,193017.00,,,,,,09,,,,2.7,136*78
$GLGMP,193017.00,,,,,,08,,,,,*7A
$GAGMP,193017.00,,,,,,06,,,,,*79
$GBGMP,193017.00,,,,,,16,,,,,*7B
$PSSN,SNC,[0,329435000,2347]*4E
$GPZDA,193022.00,01,01,2025,,*68
$GPDTM,W84,,00.0000000,N,00.0000000,E,00.0000000,W84*5F
$PSSN,TFM,193022.00,,,,*64
$GPRMC,193022.00,A,4742.1604876,N,01618.1000398,E,0.0,,010125,5.1,E,D*14
$GPGLL,4742.1604876,N,01618.1000398,E,193022.00,A,D*65
$GPGGA,193022.00,4742.1604876,N,01618.1000398,E,2,39,0.4,708.3528,M,43.2066,M,2.3,0136*45
$GNGNS,193022.00,4742.1604876,N,01618.1000398,E,DAAA,39,0.4,708.3528,43.2066,,*5C
$GPGNS,193022.00,,,,,,09,,,,2.3,136*7A
$GLGNS,193022.00,,,,,,08,,,,,*7C
$GAGNS,193022.00,,,,,,06,,,,,*7F
$GBGNS,193022.00,,,,,,16,,,,,*7D
$GPLLQ,193022.00,010125,,M,,M,1,39,0.970,,M*1E
$GPVTG,,T,,M,0.01,N,0.02,K,D*25
$GPHDT,,T*1B
$GPTHS,,V*0E
$GPROT,,V*08
$PSSN,HRP,193022.00,010125,,,,,,,00,0,,*6A
$PTNL,AVR,193022.00,,Yaw,,Tilt,,,,0,,00*3C
$GPGSA,A,3,07,08,10,15,16,18,23,26,27,,,,0.8,0.4,0.7*3D
$GPGSA,A,3,66,67,73,74,80,82,83,84,,,,,0.8,0.4,0.7*3A
$GPGSA,A,3,03,13,15,21,26,27,,,,,,,0.8,0.4,0.7*3E
$GPGSA,A,3,05,08,11,13,14,21,23,27,28,33,34,37,0.8,0.4,0.7*3D
$GPGSA,A,3,38,42,43,60,,,,,,,,,0.8,0.4,0.7*35
$GPGST,193022.00,1.884,0.364,0.327,6.678,0.364,0.327,0.837*5A
$GPGBS,193022.00,2.452,1.922,4.791,67,0.0001,7.125,6.135*56
$GPGRS,193022.00,1,0.1,-0.0,0.0,-0.1,0.1,-0.5,-0.2,0.0,0.4,,,*69
$GPGRS,193022.00,1,-2.9,7.1,3.5,-4.4,-1.9,-0.3,-1.9,-2.2,,,,*4D
$GPGRS,193022.00,1,-1.1,0.3,0.5,0.4,0.3,-1.0,,,,,,*45
$GPGRS,193022.00,1,1.2,-0.0,0.1,0.2,0.7,0.1,-0.1,-0.4,-0.0,-0.8,-1.3,-0.6*67
$GPGRS,193022.00,1,-0.1,-0.5,0.1,-1.7,,,,,,,,*6B
$GPGSV,6,1,21,16,61,226,49,08,23,297,42,26,36,193,45,15,15,060,40*7C
$GPGSV,6,2,21,10,42,168,48,18,41,060,46,27,58,301,49,23,59,102,48*77
$GPGSV,6,3,21,21,00,251,,13,05,030,36,07,09,318,40,29,02,109,25*7D
$GPGSV,6,4,21,36,35,170,45,58,13,245,37,57,11,108,38,34,31,208,42*7D
$GPGSV,6,5,21,40,24,133,36,49,34,195,44,41,07,108,34,61,03,257,38*7B
$GPGSV,6,6,21*7A
$GLGSV,3,1,10,83,66,328,43,84,14,267,36,80,21,201,46,68,11,139,*63
$GLGSV,3,2,10,66,22,034,46,67,32,093,49,74,30,321,43,82,46,052,50*6A
$GLGSV,3,3,10,73,47,264,50,81,04,074,40*6C
$GAGSV,3,1,09,13,81,032,48,23,42,302,,03,10,063,37,27,18,165,39*64
$GAGSV,3,2,09,15,27,058,42,26,41,245,45,21,59,213,48,05,03,016,34*6C
$GAGSV,3,3,09,08,04,109,34*52
$GBGSV,6,1,23,28,60,287,50,23,14,203,42,60,11,108,40,21,14,035,41*64
$GBGSV,6,2,23,46,20,313,,38,17,037,41,05,22,128,39,30,15,266,*62
$GBGSV,6,3,23,33,22,145,42,50,26,056,,27,16,274,43,08,31,038,40*6A
$GBGSV,6,4,23,58,27,310,,31,28,053,,14,33,118,44,13,38,045,44*69
$GBGSV,6,5,23,11,27,081,42,37,34,254,46,42,35,084,47,43,50,081,49*68
$GBGSV,6,6,23,02,08,106,35,34,05,089,40,07,01,120,*53
$GPGGA,193022.00,,,,,0,00,,,M,,M,,*43
$PTNL,GGK,193022.00,010125,4742.1604876,N,01618.1000398,E,1,39,0.8,EHT751.5594,M*4F
$GPGGQ,193022.00,010125,4742.1604876,N,01618.1000398,E,1,39,0.970,708.3528,M*3A
$GPGFA,193022.00,3.463,6.863,0.364,0.327,6.678,0.837,,VVV*05
$GPLLK,193022.00,010125,,M,,M,1,39,0.9,,M*03
$GNGMP,193022.00,,,,,DAAA,39,0.4,,,,*53
$GPGMP,193022.00,,,,,,09,,,,2.3,136*7A
$GLGMP,193022.00,,,,,,08,,,,,*7C
$GAGMP,193022.00,,,,,,06,,,,,*7F
$GBGMP,193022.00,,,,,,16,,,,,*7D
$PSSN,SNC,[0,329440000,2347]*4C
$GPZDA,193027.00,01,01,2025,,*6D
$GPDTM,W84,,00.0000000,N,00.0000000,E,00.0000000,W84*5F
$PSSN,TFM,193027.00,,,,*61
$GPRMC,193027.00,A,4742.1604886,N,01618.1000442,E,0.0,,010125,5.1,E,D*1E
$GPGLL,4742.1604886,N,01618.1000442,E,193027.00,A,D*6F
$GPGGA,193027.00,4742.1604886,N,01618.1000442,E,2,39,0.4,708.3523,M,43.2066,M,3.3,0136*45
$GNGNS,193027.00,4742.1604886,N,01618.1000442,E,DAAA,39,0.4,708.3523,43.2066,,*5D
$GPGNS,193027.00,,,,,,09,,,,3.3,136*7E
$GLGNS,193027.00,,,,,,08,,,,,*79
$GAGNS,193027.00,,,,,,06,,,,,*7A
$GBGNS,193027.00,,,,,,16,,,,,*78
$GPLLQ,193027.00,010125,,M,,M,1,39,0.978,,M*13
$GPVTG,,T,,M,0.00,N,0.01,K,D*27
$GPHDT,,T*1B
$GPTHS,,V*0E
$GPROT,,V*08
$PSSN,HRP,193027.00,010125,,,,,,,00,0,,*6F
$PTNL,AVR,193027.00,,Yaw,,Tilt,,,,0,,00*39
$GPGSA,A,3,07,08,10,15,16,18,23,26,27,,,,0.8,0.4,0.7*3D
$GPGSA,A,3,66,67,73,74,80,82,83,84,,,,,0.8,0.4,0.7*3A
$GPGSA,A,3,03,13,15,21,26,27,,,,,,,0.8,0.4,0.7*3E
$GPGSA,A,3,05,08,11,13,14,21,23,27,28,33,34,37,0.8,0.4,0.7*3D
$GPGSA,A,3,38,42,43,60,,,,,,,,,0.8,0.4,0.7*35
$GPGST,193027.00,1.760,0.367,0.330,9.968,0.366,0.331,0.845*5E
$GPGBS,193027.00,2.499,1.950,4.904,67,0.0001,6.467,6.135*51
$GPGRS,193027.00,1,0.1,0.3,0.1,0.0,0.1,-0.3,-0.2,-0.3,0.3,,,*40
$GPGRS,193027.00,1,-2.6,6.5,3.7,-4.0,-1.1,0.0,-1.9,-1.3,,,,*60
$GPGRS,193027.00,1,-1.1,0.1,0.3,0.5,0.1,-0.9,,,,,,*4F
$GPGRS,193027.00,1,1.3,-0.3,-0.4,0.1,1.9,-0.0,-0.7,-0.4,-0.3,0.0,-1.6,-0.5*4E
$GPGRS,193027.00,1,0.0,0.1,-0.2,-1.8,,,,,,,,*4A
$GPGSV,6,1,21,16,61,226,48,08,23,297,42,26,36,193,45,15,15,060,41*7C
$GPGSV,6,2,21,10,42,168,48,18,41,060,46,27,58,301,49,23,59,102,48*77
$GPGSV,6,3,21,21,00,251,,13,05,030,35,07,09,318,39,29,02,109,27*72
$GPGSV,6,4,21,36,35,170,45,58,13,245,37,57,11,108,38,34,31,208,42*7D
$GPGSV,6,5,21,40,24,133,36,49,34,195,44,41,07,108,34,61,03,257,38*7B
$GPGSV,6,6,21*7A
$GLGSV,3,1,10,83,66,328,43,84,14,267,36,80,21,201,46,68,11,139,*63
$GLGSV,3,2,10,66,22,034,47,67,32,093,48,74,30,321,43,82,46,052,49*62
$GLGSV,3,3,10,73,46,264,50,81,04,074,40*6D
$GAGSV,3,1,09,13,81,032,48,23,42,302,,03,10,063,37,27,18,165,39*64
$GAGSV,3,2,09,15,27,058,42,26,41,245,45,21,59,213,48,05,03,016,34*6C
$GAGSV,3,3,09,08,04,109,34*52
$GBGSV,6,1,23,28,60,287,50,23,14,203,41,60,11,108,40,21,14,035,41*67
$GBGSV,6,2,23,46,20,313,,38,17,037,40,05,22,128,39,30,15,266,*63
$GBGSV,6,3,23,33,22,145,43,50,26,056,,27,16,274,43,08,31,038,40*6B
$GBGSV,6,4,23,58,27,310,,31,28,053,,14,33,118,44,13,38,045,44*69
$GBGSV,6,5,23,11,27,081,42,37,34,254,46,42,35,084,47,43,50,081,49*68
$GBGSV,6,6,23,02,08,106,35,34,05,089,40,07,01,120,*53
$GPGGA,193027.00,,,,,0,00,,,M,,M,,*46
$PTNL,GGK,193027.00,010125,4742.1604886,N,01618.1000442,E,1,39,0.8,EHT751.5588,M*48
$GPGGQ,193027.00,010125,4742.1604886,N,01618.1000442,E,1,39,0.978,708.3523,M*33
$GPGFA,193027.00,3.489,6.928,0.367,0.330,9.968,0.845,,VVV*0B
$GPLLK,193027.00,010125,,M,,M,1,39,0.9,,M*06
$GNGMP,193027.00,,,,,DAAA,39,0.4,,,,*56
$GPGMP,193027.00,,,,,,09,,,,3.3,136*7E
$GLGMP,193027.00,,,,,,08,,,,,*79
$GAGMP,193027.00,,,,,,06,,,,,*7A
$GBGMP,193027.00,,,,,,16,,,,,*78
$PSSN,SNC,[0,329445000,2347]*49
$GPZDA,193032.00,01,01,2025,,*69
$GPDTM,W84,,00.0000000,N,00.0000000,E,00.0000000,W84*5F
$PSSN,TFM,193032.00,,,,*65
$GPRMC,193032.00,A,4742.1604881,N,01618.1000458,E,0.0,,010125,5.1,E,D*16
$GPGLL,4742.1604881,N,01618.1000458,E,193032.00,A,D*67
$GPGGA,193032.00,4742.1604881,N,01618.1000458,E,2,39,0.4,708.3484,M,43.2066,M,1.7,0136*47
$GNGNS,193032.00,4742.1604881,N,01618.1000458,E,DAAA,39,0.4,708.3484,43.2066,,*59
$GPGNS,193032.00,,,,,,09,,,,1.7,136*7C
$GLGNS,193032.00,,,,,,08,,,,,*7D
$GAGNS,193032.00,,,,,,06,,,,,*7E
$GBGNS,193032.00,,,,,,16,,,,,*7C
$GPLLQ,193032.00,010125,,M,,M,1,39,0.974,,M*1B
$GPVTG,,T,,M,0.01,N,0.01,K,D*26
$GPHDT,,T*1B
$GPTHS,,V*0E
$GPROT,,V*08
$PSSN,HRP,193032.00,010125,,,,,,,00,0,,*6B
$PTNL,AVR,193032.00,,Yaw,,Tilt,,,,0,,00*3D
$GPGSA,A,3,07,08,10,15,16,18,23,26,27,,,,0.8,0.4,0.7*3D
$GPGSA,A,3,66,67,73,74,80,82,83,84,,,,,0.8,0.4,0.7*3A
$GPGSA,A,3,03,13,15,21,26,27,,,,,,,0.8,0.4,0.7*3E
$GPGSA,A,3,05,08,11,13,14,21,23,27,28,33,34,37,0.8,0.4,0.7*3D
$GPGSA,A,3,38,42,43,60,,,,,,,,,0.8,0.4,0.7*35
$GPGST,193032.00,1.814,0.366,0.328,7.708,0.365,0.329,0.841*56
$GPGBS,193032.00,2.491,1.880,4.598,67,0.0001,6.105,6.135*59
$GPGRS,193032.00,1,0.6,0.1,0.1,-0.1,-0.0,-0.3,-0.0,-0.6,0.3,,,*46
$GPGRS,193032.00,1,-2.2,6.1,4.2,-4.6,-0.1,-0.5,-2.0,-1.9,,,,*49
$GPGRS,193032.00,1,-0.6,0.1,0.1,0.3,0.3,-0.8,,,,,,*4A
$GPGRS,193032.00,1,1.1,-0.1,0.4,-0.2,2.2,0.5,-0.9,-0.9,-0.3,0.3,-1.6,-0.4*68
$GPGRS,193032.00,1,-0.2,-0.4,-0.3,-1.8,,,,,,,,*48
$GPGSV,6,1,21,16,61,226,48,08,23,297,41,26,36,193,45,15,15,060,40*7E
$GPGSV,6,2,21,10,42,168,48,18,41,060,46,27,58,301,49,23,59,102,48*77
$GPGSV,6,3,21,21,00,251,,13,05,030,35,07,09,318,39,29,02,109,26*73
$GPGSV,6,4,21,36,35,170,44,58,13,245,38,57,11,108,38,34,31,208,42*73
$GPGSV,6,5,21,40,24,133,36,49,34,195,44,41,07,108,34,61,03,257,38*7B
$GPGSV,6,6,21*7A
$GLGSV,3,1,10,83,66,328,43,84,14,267,36,80,21,201,46,68,11,139,*63
$GLGSV,3,2,10,66,22,034,47,67,32,093,49,74,30,321,44,82,46,052,49*64
$GLGSV,3,3,10,73,46,264,50,81,04,074,40*6D
$GAGSV,3,1,09,13,81,032,48,23,42,302,,03,10,063,37,27,18,165,40*6A
$GAGSV,3,2,09,15,27,058,42,26,41,245,45,21,59,212,48,05,03,016,34*6D
$GAGSV,3,3,09,08,04,109,34*52
$GBGSV,6,1,23,28,60,287,50,23,14,203,41,60,11,108,40,21,14,035,41*67
$GBGSV,6,2,23,46,20,313,,38,17,037,40,05,22,128,39,30,15,266,*63
$GBGSV,6,3,23,33,22,145,44,50,26,056,,27,16,274,43,08,31,038,40*6C
$GBGSV,6,4,23,58,27,310,,31,28,053,,14,33,118,44,13,38,045,44*69
$GBGSV,6,5,23,11,27,081,43,37,34,254,46,42,35,084,47,43,50,081,49*69
$GBGSV,6,6,23,02,08,106,35,34,05,089,39,07,01,120,*5D
$GPGGA,193032.00,,,,,0,00,,,M,,M,,*42
$PTNL,GGK,193032.00,010125,4742.1604881,N,01618.1000458,E,1,39,0.8,EHT751.5550,M*45
$GPGGQ,193032.00,010125,4742.1604881,N,01618.1000458,E,1,39,0.974,708.3484,M*3B
$GPGFA,193032.00,3.478,6.897,0.366,0.328,7.708,0.841,,VVV*0E
$GPLLK,193032.00,010125,,M,,M,1,39,0.9,,M*02
$GNGMP,193032.00,,,,,DAAA,39,0.4,,,,*52
$GPGMP,193032.00,,,,,,09,,,,1.7,136*7C
$GLGMP,193032.00,,,,,,08,,,,,*7D
$GAGMP,193032.00,,,,,,06,,,,,*7E
$GBGMP,193032.00,,,,,,16,,,,,*7C
$PSSN,SNC,[0,329450000,2347]*4D
$GPZDA,193037.00,01,01,2025,,*6C
$GPDTM,W84,,00.0000000,N,00.0000000,E,00.0000000,W84*5F
$PSSN,TFM,193037.00,,,,*60
$GPRMC,193037.00,A,4742.1604850,N,01618.1000489,E,0.0,,010125,5.1,E,D*13
$GPGLL,4742.1604850,N,01618.1000489,E,193037.00,A,D*62
$GPGGA,193037.00,4742.1604850,N,01618.1000489,E,2,39,0.4,708.3476,M,43.2066,M,2.7,0136*4C
$GNGNS,193037.00,4742.1604850,N,01618.1000489,E,DAAA,39,0.4,708.3476,43.2066,,*51
$GPGNS,193037.00,,,,,,09,,,,2.7,136*7A
$GLGNS,193037.00,,,,,,08,,,,,*78
$GAGNS,193037.00,,,,,,06,,,,,*7B
$GBGNS,193037.00,,,,,,16,,,,,*79
$GPLLQ,193037.00,010125,,M,,M,1,39,0.959,,M*11
$GPVTG,,T,,M,0.00,N,0.01,K,D*27
$GPHDT,,T*1B
$GPTHS,,V*0E
$GPROT,,V*08
$PSSN,HRP,193037.00,010125,,,,,,,00,0,,*6E
$PTNL,AVR,193037.00,,Yaw,,Tilt,,,,0,,00*38
$GPGSA,A,3,07,08,10,15,16,18,23,26,27,,,,0.8,0.4,0.7*3D
$GPGSA,A,3,66,67,73,74,80,82,83,84,,,,,0.8,0.4,0.7*3A
$GPGSA,A,3,03,13,15,21,26,27,,,,,,,0.8,0.4,0.7*3E
$GPGSA,A,3,05,08,11,13,14,21,23,27,28,33,34,37,0.8,0.4,0.7*3D
$GPGSA,A,3,38,42,43,60,,,,,,,,,0.8,0.4,0.7*35
$GPGST,193037.00,1.792,0.361,0.323,4.073,0.361,0.323,0.828*57
$GPGBS,193037.00,2.544,1.899,4.676,67,0.0001,6.082,6.135*50
$GPGRS,193037.00,1,0.3,0.1,0.4,-0.6,0.1,-0.3,-0.1,-0.4,0.2,,,*6A
$GPGRS,193037.00,1,-2.0,6.1,4.0,-3.7,1.0,-0.6,-2.1,-2.4,,,,*6B
$GPGRS,193037.00,1,-0.7,0.2,0.1,0.2,0.5,-0.6,,,,,,*44
$GPGRS,193037.00,1,1.3,0.6,1.4,-0.3,2.2,0.6,-0.9,-1.1,-0.1,0.4,-1.8,-0.7*47
$GPGRS,193037.00,1,0.2,-0.7,-0.3,-1.5,,,,,,,,*6E
$GPGSV,6,1,21,16,61,226,48,08,23,297,42,26,36,193,44,15,15,060,40*7C
$GPGSV,6,2,21,10,42,168,48,18,41,060,45,27,58,301,49,23,59,102,48*74
$GPGSV,6,3,21,21,00,251,,13,05,030,34,07,09,318,38,29,02,109,25*70
$GPGSV,6,4,21,36,35,170,44,58,13,245,37,57,11,108,37,34,31,208,42*73
$GPGSV,6,5,21,40,24,133,36,49,34,195,44,41,07,108,34,61,03,257,38*7B
$GPGSV,6,6,21*7A
$GLGSV,3,1,10,83,66,328,43,84,14,267,36,80,21,201,47,68,11,139,*62
$GLGSV,3,2,10,66,22,034,47,67,32,093,50,74,30,321,43,82,46,052,49*6B
$GLGSV,3,3,10,73,46,264,50,81,04,074,41*6C
$GAGSV,3,1,09,13,81,032,48,23,42,302,,03,10,063,37,27,18,165,40*6A
$GAGSV,3,2,09,15,27,058,41,26,41,245,45,21,59,212,48,05,03,016,34*6E
$GAGSV,3,3,09,08,04,109,34*52
$GBGSV,6,1,23,28,60,287,50,23,14,203,42,60,11,108,40,21,14,035,42*67
$GBGSV,6,2,23,46,20,313,,38,17,037,40,05,22,128,39,30,15,266,*63
$GBGSV,6,3,23,33,22,145,44,50,26,056,,27,16,274,43,08,31,038,40*6C
$GBGSV,6,4,23,58,27,310,,31,28,053,,14,33,118,44,13,38,045,44*69
$GBGSV,6,5,23,11,27,081,43,37,34,254,46,42,35,084,47,43,50,081,49*69
$GBGSV,6,6,23,02,08,106,35,34,05,089,39,07,01,120,*5D
$GPGGA,193037.00,,,,,0,00,,,M,,M,,*47
$PTNL,GGK,193037.00,010125,4742.1604850,N,01618.1000489,E,1,39,0.8,EHT751.5541,M*40
$GPGGQ,193037.00,010125,4742.1604850,N,01618.1000489,E,1,39,0.959,708.3476,M*3C
$GPGFA,193037.00,3.429,6.790,0.361,0.323,4.073,0.828,,VVV*0C
$GPLLK,193037.00,010125,,M,,M,1,39,0.9,,M*07
$GNGMP,193037.00,,,,,DAAA,39,0.4,,,,*57
$GPGMP,193037.00,,,,,,09,,,,2.7,136*7A
$GLGMP,193037.00,,,,,,08,,,,,*78
$GAGMP,193037.00,,,,,,06,,,,,*7B
$GBGMP,193037.00,,,,,,16,,,,,*79
$PSSN,SNC,[0,329455000,2347]*48
$GPZDA,193042.00,01,01,2025,,*6E
$GPDTM,W84,,00.0000000,N,00.0000000,E,00.0000000,W84*5F
$PSSN,TFM,193042.00,,,,*62
$GPRMC,193042.00,A,4742.1604854,N,01618.1000523,E,0.0,,010125,5.1,E,D*14
$GPGLL,4742.1604854,N,01618.1000523,E,193042.00,A,D*65
$GPGGA,193042.00,4742.1604854,N,01618.1000523,E,2,38,0.4,708.3465,M,43.2066,M,2.3,0136*4C
$GNGNS,193042.00,4742.1604854,N,01618.1000523,E,DAAA,38,0.4,708.3465,43.2066,,*55
$GPGNS,193042.00,,,,,,09,,,,2.3,136*7C
$GLGNS,193042.00,,,,,,07,,,,,*75
$GAGNS,193042.00,,,,,,06,,,,,*79
$GBGNS,193042.00,,,,,,16,,,,,*7B
$GPLLQ,193042.00,010125,,M,,M,1,38,0.970,,M*19
$GPVTG,,T,,M,0.00,N,0.00,K,D*26
$GPHDT,,T*1B
$GPTHS,,V*0E
$GPROT,,V*08
$PSSN,HRP,193042.00,010125,,,,,,,00,0,,*6C
$PTNL,AVR,193042.00,,Yaw,,Tilt,,,,0,,00*3A
$GPGSA,A,3,07,08,10,15,16,18,23,26,27,,,,0.8,0.4,0.7*3D
$GPGSA,A,3,66,67,73,74,80,82,83,,,,,,0.8,0.4,0.7*36
$GPGSA,A,3,03,13,15,21,26,27,,,,,,,0.8,0.4,0.7*3E
$GPGSA,A,3,05,08,11,13,14,21,23,27,28,33,34,37,0.8,0.4,0.7*3D
$GPGSA,A,3,38,42,43,60,,,,,,,,,0.8,0.4,0.7*35
$GPGST,193042.00,1.881,0.364,0.327,6.828,0.364,0.328,0.837*5D
$GPGBS,193042.00,2.465,1.933,4.824,67,0.0001,7.395,6.134*5D
$GPGRS,193042.00,1,0.7,0.3,0.2,-0.7,-0.1,-0.2,-0.2,-0.3,0.1,,,*42
$GPGRS,193042.00,1,-2.6,7.4,3.7,-3.8,0.8,-0.1,-2.3,,,,,*6D
$GPGRS,193042.00,1,-0.3,0.4,0.5,0.3,0.6,-0.4,,,,,,*40
$GPGRS,193042.00,1,1.1,0.7,1.2,0.1,0.9,0.5,-0.6,-0.6,-0.1,0.4,-1.7,-0.3*67
$GPGRS,193042.00,1,0.2,-0.7,-0.0,-1.6,,,,,,,,*6C
$GPGSV,6,1,21,16,61,226,48,08,23,297,42,26,36,193,44,15,15,060,40*7C
$GPGSV,6,2,21,10,42,168,47,18,41,060,45,27,58,301,49,23,59,102,48*7B
$GPGSV,6,3,21,21,00,251,,13,05,030,34,07,09,318,40,29,02,109,25*7F
$GPGSV,6,4,21,36,35,170,44,58,13,245,37,57,11,108,37,34,31,208,42*73
$GPGSV,6,5,21,40,24,133,36,49,34,195,44,41,07,108,34,61,03,257,38*7B
$GPGSV,6,6,21*7A
$GLGSV,3,1,10,83,66,328,43,84,14,267,35,80,21,201,48,68,11,139,*6E
$GLGSV,3,2,10,66,22,034,46,67,32,093,50,74,30,321,45,82,46,052,49*6C
$GLGSV,3,3,10,73,46,264,50,81,04,074,41*6C
$GAGSV,3,1,09,13,81,032,48,23,42,302,,03,10,063,38,27,18,165,40*65
$GAGSV,3,2,09,15,27,058,41,26,41,245,45,21,59,212,48,05,03,016,34*6E
$GAGSV,3,3,09,08,04,109,34*52
$GBGSV,6,1,23,28,60,287,50,23,14,203,43,60,11,108,40,21,14,035,42*66
$GBGSV,6,2,23,46,20,313,,38,17,037,40,05,22,128,39,30,15,266,*63
$GBGSV,6,3,23,33,22,145,44,50,26,055,,27,16,274,43,08,31,038,40*6F
$GBGSV,6,4,23,58,27,310,,31,28,053,,14,33,118,43,13,38,045,44*6E
$GBGSV,6,5,23,11,27,081,43,37,34,254,46,42,35,084,47,43,50,081,49*69
$GBGSV,6,6,23,02,08,106,35,34,05,089,39,07,01,121,*5C
$GPGGA,193042.00,,,,,0,00,,,M,,M,,*45
$PTNL,GGK,193042.00,010125,4742.1604854,N,01618.1000523,E,1,38,0.8,EHT751.5530,M*40
$GPGGQ,193042.00,010125,4742.1604854,N,01618.1000523,E,1,38,0.970,708.3465,M*33
$GPGFA,193042.00,3.464,6.867,0.364,0.327,6.828,0.837,,VVV*0B
$GPLLK,193042.00,010125,,M,,M,1,38,0.9,,M*04
$GNGMP,193042.00,,,,,DAAA,38,0.4,,,,*54
$GPGMP,193042.00,,,,,,09,,,,2.3,136*7C
$GLGMP,193042.00,,,,,,07,,,,,*75
$GAGMP,193042.00,,,,,,06,,,,,*79
$GBGMP,193042.00,,,,,,16,,,,,*7B
$PSSN,SNC,[0,329460000,2347]*4E
$GPZDA,193047.00,01,01,2025,,*6B
$GPDTM,W84,,00.0000000,N,00.0000000,E,00.0000000,W84*5F
$PSSN,TFM,193047.00,,,,*67
$GPRMC,193047.00,A,4742.1604847,N,01618.1000547,E,0.0,,010125,5.1,E,D*11
$GPGLL,4742.1604847,N,01618.1000547,E,193047.00,A,D*60
$GPGGA,193047.00,4742.1604847,N,01618.1000547,E,2,39,0.4,708.3509,M,43.2066,M,3.3,0136*42
$GNGNS,193047.00,4742.1604847,N,01618.1000547,E,DAAA,39,0.4,708.3509,43.2066,,*5A
$GPGNS,193047.00,,,,,,09,,,,3.3,136*78
$GLGNS,193047.00,,,,,,08,,,,,*7F
$GAGNS,193047.00,,,,,,06,,,,,*7C
$GBGNS,193047.00,,,,,,16,,,,,*7E
$GPLLQ,193047.00,010125,,M,,M,1,39,0.978,,M*15
$GPVTG,,T,,M,0.01,N,0.01,K,D*26
$GPHDT,,T*1B
$GPTHS,,V*0E
$GPROT,,V*08
$PSSN,HRP,193047.00,010125,,,,,,,00,0,,*69
$PTNL,AVR,193047.00,,Yaw,,Tilt,,,,0,,00*3F
$GPGSA,A,3,07,08,10,15,16,18,23,26,27,,,,0.8,0.4,0.7*3D
$GPGSA,A,3,66,67,73,74,80,82,83,84,,,,,0.8,0.4,0.7*3A
$GPGSA,A,3,03,13,15,21,26,27,,,,,,,0.8,0.4,0.7*3E
$GPGSA,A,3,05,08,11,13,14,21,23,27,28,33,34,37,0.8,0.4,0.7*3D
$GPGSA,A,3,38,42,43,60,,,,,,,,,0.8,0.4,0.7*35
$GPGST,193047.00,1.952,0.367,0.330,9.670,0.366,0.331,0.845*51
$GPGBS,193047.00,2.506,1.949,4.927,67,0.0001,7.997,6.134*5B
$GPGRS,193047.00,1,0.1,0.3,0.1,0.6,-0.1,-0.2,-0.1,-0.2,0.1,,,*6C
$GPGRS,193047.00,1,-2.9,8.0,3.9,-3.5,-0.5,-0.3,-2.5,-2.2,,,,*48
$GPGRS,193047.00,1,-0.4,0.4,0.6,0.2,0.2,-0.8,,,,,,*48
$GPGRS,193047.00,1,1.0,0.7,0.2,0.1,0.7,0.2,-0.2,-0.1,0.0,0.3,-2.0,-0.5*41
$GPGRS,193047.00,1,-0.2,-0.6,-0.0,-1.6,,,,,,,,*45
$GPGSV,6,1,21,16,61,226,48,08,23,297,42,26,36,193,44,15,15,060,41*7D
$GPGSV,6,2,21,10,42,168,47,18,41,060,45,27,58,301,49,23,59,101,48*78
$GPGSV,6,3,21,21,00,251,,13,05,030,35,07,09,318,40,29,02,109,24*7F
$GPGSV,6,4,21,36,35,170,44,58,13,245,37,57,11,108,37,34,31,208,42*73
$GPGSV,6,5,21,40,24,133,36,49,34,195,44,41,07,108,34,61,03,257,38*7B
$GPGSV,6,6,21*7A
$GLGSV,3,1,10,83,66,328,42,84,14,267,36,80,21,201,47,68,11,139,*63
$GLGSV,3,2,10,66,22,034,47,67,32,093,50,74,30,320,43,82,46,052,49*6A
$GLGSV,3,3,10,73,46,264,50,81,04,074,41*6C
$GAGSV,3,1,09,13,81,032,48,23,42,302,,03,10,063,38,27,18,165,40*65
$GAGSV,3,2,09,15,27,058,41,26,41,245,45,21,59,212,48,05,03,016,34*6E
$GAGSV,3,3,09,08,04,109,34*52
$GBGSV,6,1,23,28,60,287,50,23,14,203,43,60,11,108,41,21,14,034,42*66
$GBGSV,6,2,23,46,20,313,,38,17,037,40,05,22,128,39,30,15,266,*63
$GBGSV,6,3,23,33,22,145,44,50,26,055,,27,16,274,43,08,31,038,40*6F
$GBGSV,6,4,23,58,27,310,,31,28,053,,14,33,117,44,13,38,045,44*66
$GBGSV,6,5,23,11,27,081,43,37,34,254,46,42,35,084,47,43,50,081,49*69
$GBGSV,6,6,23,02,08,106,35,34,05,089,39,07,01,121,*5C
$GPGGA,193047.00,,,,,0,00,,,M,,M,,*40
$PTNL,GGK,193047.00,010125,4742.1604847,N,01618.1000547,E,1,39,0.8,EHT751.5574,M*44
$GPGGQ,193047.00,010125,4742.1604847,N,01618.1000547,E,1,39,0.978,708.3509,M*34
$GPGFA,193047.00,3.488,6.926,0.367,0.330,9.670,0.845,,VVV*04
$GPLLK,193047.00,010125,,M,,M,1,39,0.9,,M*00
$GNGMP,193047.00,,,,,DAAA,39,0.4,,,,*50
$GPGMP,193047.00,,,,,,09,,,,3.3,136*78
$GLGMP,193047.00,,,,,,08,,,,,*7F
$GAGMP,193047.00,,,,,,06,,,,,*7C
$GBGMP,193047.00,,,,,,16,,,,,*7E
$PSSN,SNC,[0,329465000,2347]*4B
$GPZDA,193052.00,01,01,2025,,*6F
$GPDTM,W84,,00.0000000,N,00.0000000,E,00.0000000,W84*5F
$PSSN,TFM,193052.00,,,,*63
$GPRMC,193052.00,A,4742.1604846,N,01618.1000541,E,0.0,,010125,5.1,E,D*12
$GPGLL,4742.1604846,N,01618.1000541,E,193052.00,A,D*63
$GPGGA,193052.00,4742.1604846,N,01618.1000541,E,2,39,0.4,708.3554,M,43.2066,M,1.7,0136*4F
$GNGNS,193052.00,4742.1604846,N,01618.1000541,E,DAAA,39,0.4,708.3554,43.2066,,*51
$GPGNS,193052.00,,,,,,09,,,,1.7,136*7A
$GLGNS,193052.00,,,,,,08,,,,,*7B
$GAGNS,193052.00,,,,,,06,,,,,*78
$GBGNS,193052.00,,,,,,16,,,,,*7A
$GPLLQ,193052.00,010125,,M,,M,1,39,0.974,,M*1D
$GPVTG,,T,,M,0.00,N,0.00,K,D*26
$GPHDT,,T*1B
$GPTHS,,V*0E
$GPROT,,V*08
$PSSN,HRP,193052.00,010125,,,,,,,00,0,,*6D
$PTNL,AVR,193052.00,,Yaw,,Tilt,,,,0,,00*3B
$GPGSA,A,3,07,08,10,15,16,18,23,26,27,,,,0.8,0.4,0.7*3D
$GPGSA,A,3,66,67,73,74,80,82,83,84,,,,,0.8,0.4,0.7*3A
$GPGSA,A,3,03,13,15,21,26,27,,,,,,,0.8,0.4,0.7*3E
$GPGSA,A,3,05,08,11,13,14,21,23,27,28,33,34,37,0.8,0.4,0.7*3D
$GPGSA,A,3,38,42,43,60,,,,,,,,,0.8,0.4,0.7*35
$GPGST,193052.00,1.930,0.366,0.328,7.326,0.365,0.329,0.841*5F
$GPGBS,193052.00,2.496,1.877,4.618,67,0.0001,7.551,6.134*5E
$GPGRS,193052.00,1,0.1,-0.1,0.3,1.2,-0.0,-0.1,-0.3,0.1,0.0,,,*6F
$GPGRS,193052.00,1,-1.9,7.6,3.6,-4.2,-1.4,-0.1,-2.3,-1.2,,,,*4E
$GPGRS,193052.00,1,-0.9,0.3,0.6,0.3,0.3,-0.8,,,,,,*46
$GPGRS,193052.00,1,1.1,0.3,0.5,0.1,1.8,0.1,-0.5,-0.6,-0.1,-0.2,-2.2,-0.6*4B
$GPGRS,193052.00,1,-0.8,-0.5,-0.1,-1.9,,,,,,,,*46
$GPGSV,6,1,21,16,61,226,48,08,23,297,42,26,36,193,45,15,15,060,42*7F
$GPGSV,6,2,21,10,42,168,48,18,41,060,46,27,58,301,49,23,59,101,48*74
$GPGSV,6,3,21,21,00,251,,13,05,030,35,07,09,318,40,29,02,109,21*7A
$GPGSV,6,4,21,36,35,170,44,58,13,245,37,57,11,108,37,34,31,208,42*73
$GPGSV,6,5,21,40,24,133,36,49,34,195,44,41,07,108,34,61,03,257,38*7B
$GPGSV,6,6,21*7A
$GLGSV,3,1,10,83,66,329,43,84,14,267,37,80,21,201,46,68,11,139,*63
$GLGSV,3,2,10,66,22,034,47,67,32,092,50,74,30,320,44,82,46,052,49*6C
$GLGSV,3,3,10,73,46,263,50,81,04,074,41*6B
$GAGSV,3,1,09,13,81,032,48,23,42,302,,03,10,063,38,27,18,165,40*65
$GAGSV,3,2,09,15,27,058,42,26,41,245,45,21,59,212,48,05,03,016,34*6D
$GAGSV,3,3,09,08,04,109,34*52
$GBGSV,6,1,23,28,60,287,51,23,14,203,43,60,11,108,41,21,14,034,42*67
$GBGSV,6,2,23,46,20,313,,38,17,037,41,05,22,128,39,30,15,266,*62
$GBGSV,6,3,23,33,22,145,45,50,26,055,,27,16,274,44,08,31,038,40*69
$GBGSV,6,4,23,58,27,310,,31,28,053,,14,33,117,44,13,38,045,44*66
$GBGSV,6,5,23,11,27,081,43,37,34,254,47,42,35,084,47,43,50,081,50*60
$GBGSV,6,6,23,02,08,106,35,34,05,089,40,07,01,121,*52
$GPGGA,193052.00,,,,,0,00,,,M,,M,,*44
$PTNL,GGK,193052.00,010125,4742.1604846,N,01618.1000541,E,1,39,0.8,EHT751.5619,M*4F
$GPGGQ,193052.00,010125,4742.1604846,N,01618.1000541,E,1,39,0.974,708.3554,M*33
$GPGFA,193052.00,3.476,6.893,0.366,0.328,7.326,0.841,,VVV*0A
$GPLLK,193052.00,010125,,M,,M,1,39,0.9,,M*04
$GNGMP,193052.00,,,,,DAAA,39,0.4,,,,*54
$GPGMP,193052.00,,,,,,09,,,,1.7,136*7A
$GLGMP,193052.00,,,,,,08,,,,,*7B
$GAGMP,193052.00,,,,,,06,,,,,*78
$GBGMP,193052.00,,,,,,16,,,,,*7A
$PSSN,SNC,[0,329470000,2347]*4F
$GPZDA,193057.00,01,01,2025,,*6A
$GPDTM,W84,,00.0000000,N,00.0000000,E,00.0000000,W84*5F
$PSSN,TFM,193057.00,,,,*66
$GPRMC,193057.00,A,4742.1604853,N,01618.1000519,E,0.0,,010125,5.1,E,D*1E
$GPGLL,4742.1604853,N,01618.1000519,E,193057.00,A,D*6F
$GPGGA,193057.00,4742.1604853,N,01618.1000519,E,2,40,0.4,708.3581,M,43.2066,M,2.7,0136*46
$GNGNS,193057.00,4742.1604853,N,01618.1000519,E,DAAA,40,0.4,708.3581,43.2066,,*5B
$GPGNS,193057.00,,,,,,09,,,,2.7,136*7C
$GLGNS,193057.00,,,,,,08,,,,,*7E
$GAGNS,193057.00,,,,,,06,,,,,*7D
$GBGNS,193057.00,,,,,,17,,,,,*7E
$GPLLQ,193057.00,010125,,M,,M,1,40,0.957,,M*17
$GPVTG,,T,,M,0.00,N,0.01,K,D*27
$GPHDT,,T*1B
$GPTHS,,V*0E
$GPROT,,V*08
$PSSN,HRP,193057.00,010125,,,,,,,00,0,,*68
$PTNL,AVR,193057.00,,Yaw,,Tilt,,,,0,,00*3E
$GPGSA,A,3,07,08,10,15,16,18,23,26,27,,,,0.8,0.4,0.7*3D
$GPGSA,A,3,66,67,73,74,80,82,83,84,,,,,0.8,0.4,0.7*3A
$GPGSA,A,3,03,13,15,21,26,27,,,,,,,0.8,0.4,0.7*3E
$GPGSA,A,3,02,05,08,11,13,14,21,23,27,28,33,34,0.8,0.4,0.7*3B
$GPGSA,A,3,37,38,42,43,60,,,,,,,,0.8,0.4,0.7*31
$GPGST,193057.00,1.774,0.360,0.322,3.996,0.360,0.322,0.826*52
$GPGBS,193057.00,2.545,1.897,4.674,67,0.0001,6.640,6.134*52
$GPGRS,193057.00,1,-0.0,-0.2,0.5,0.9,0.1,-0.2,-0.4,-0.1,0.0,,,*4C
$GPGRS,193057.00,1,-2.8,6.6,3.5,-4.3,-1.1,-0.2,-1.8,-0.2,,,,*45
$GPGRS,193057.00,1,-0.5,0.4,0.6,0.2,0.5,-0.7,,,,,,*40
$GPGRS,193057.00,1,-0.4,1.3,0.1,1.1,0.1,1.3,-0.1,-0.6,-0.9,0.2,-0.9,-1.6*41
$GPGRS,193057.00,1,-0.5,-0.5,-0.8,-0.0,-1.7,,,,,,,*4A
$GPGSV,6,1,21,16,61,225,49,08,23,297,43,26,36,193,45,15,15,060,41*7F
$GPGSV,6,2,21,10,42,168,48,18,41,060,47,27,58,301,49,23,59,101,48*75
$GPGSV,6,3,21,21,00,251,,13,05,030,36,07,09,318,40,29,01,109,24*7F
$GPGSV,6,4,21,36,35,170,44,58,13,245,37,57,11,108,37,34,31,208,42*73
$GPGSV,6,5,21,40,24,133,36,49,34,195,44,41,07,108,34,61,03,257,38*7B
$GPGSV,6,6,21*7A
$GLGSV,3,1,10,83,66,329,43,84,15,267,36,80,21,201,46,68,11,139,*63
$GLGSV,3,2,10,66,22,034,46,67,32,092,49,74,30,320,44,82,46,052,49*65
$GLGSV,3,3,10,73,46,263,50,81,04,074,41*6B
$GAGSV,3,1,09,13,81,032,48,23,42,302,,03,10,063,38,27,18,165,40*65
$GAGSV,3,2,09,15,27,058,42,26,41,245,45,21,59,212,48,05,03,016,34*6D
$GAGSV,3,3,09,08,04,109,34*52
$GBGSV,6,1,23,28,60,287,50,23,14,203,42,60,11,108,41,21,14,034,41*64
$GBGSV,6,2,23,46,20,313,,38,17,037,41,05,22,128,39,30,15,266,*62
$GBGSV,6,3,23,33,22,145,44,50,26,055,,27,16,274,43,08,31,038,40*6F
$GBGSV,6,4,23,58,27,310,,31,28,053,,14,33,117,44,13,38,045,44*66
$GBGSV,6,5,23,11,27,081,43,37,34,254,46,42,35,084,46,43,50,081,49*68
$GBGSV,6,6,23,02,08,106,35,34,05,089,40,07,01,121,*52
$GPGGA,193057.00,,,,,0,00,,,M,,M,,*41
$PTNL,GGK,193057.00,010125,4742.1604853,N,01618.1000519,E,1,40,0.8,EHT751.5646,M*47
$GPGGQ,193057.00,010125,4742.1604853,N,01618.1000519,E,1,40,0.957,708.3581,M*38
$GPGFA,193057.00,3.425,6.772,0.360,0.322,3.996,0.826,,VVV*01
$GPLLK,193057.00,010125,,M,,M,1,40,0.9,,M*0F
$GNGMP,193057.00,,,,,DAAA,40,0.4,,,,*5F
$GPGMP,193057.00,,,,,,09,,,,2.7,136*7C
$GLGMP,193057.00,,,,,,08,,,,,*7E
$GAGMP,193057.00,,,,,,06,,,,,*7D
$GBGMP,193057.00,,,,,,17,,,,,*7E
$PSSN,SNC,[0,329475000,2347]*4A
$GPZDA,193102.00,01,01,2025,,*6B
$GPDTM,W84,,00.0000000,N,00.0000000,E,00.0000000,W84*5F
$PSSN,TFM,193102.00,,,,*67
$GPRMC,193102.00,A,4742.1604878,N,01618.1000507,E,0.0,,010125,5.1,E,D*19
$GPGLL,4742.1604878,N,01618.1000507,E,193102.00,A,D*68
$GPGGA,193102.00,4742.1604878,N,01618.1000507,E,2,39,0.4,708.3614,M,43.2066,M,2.3,0136*44
$GNGNS,193102.00,4742.1604878,N,01618.1000507,E,DAAA,39,0.4,708.3614,43.2066,,*5D
$GPGNS,193102.00,,,,,,09,,,,2.3,136*79
$GLGNS,193102.00,,,,,,08,,,,,*7F
$GAGNS,193102.00,,,,,,06,,,,,*7C
$GBGNS,193102.00,,,,,,16,,,,,*7E
$GPLLQ,193102.00,010125,,M,,M,1,39,0.969,,M*15
$GPVTG,,T,,M,0.00,N,0.00,K,D*26
$GPHDT,,T*1B
$GPTHS,,V*0E
$GPROT,,V*08
$PSSN,HRP,193102.00,010125,,,,,,,00,0,,*69
$PTNL,AVR,193102.00,,Yaw,,Tilt,,,,0,,00*3F
$GPGSA,A,3,07,08,10,15,16,18,23,26,27,,,,0.8,0.4,0.7*3D
$GPGSA,A,3,66,67,73,74,80,82,83,84,,,,,0.8,0.4,0.7*3A
$GPGSA,A,3,03,13,15,21,26,27,,,,,,,0.8,0.4,0.7*3E
$GPGSA,A,3,05,08,11,13,14,21,23,27,28,33,34,37,0.8,0.4,0.7*3D
$GPGSA,A,3,38,42,43,60,,,,,,,,,0.8,0.4,0.7*35
$GPGST,193102.00,1.827,0.364,0.327,5.937,0.363,0.327,0.836*51
$GPGBS,193102.00,2.463,1.920,4.834,67,0.0001,6.608,6.134*5D
$GPGRS,193102.00,1,0.1,-0.0,0.3,0.7,-0.2,-0.3,-0.1,-0.1,0.1,,,*40
$GPGRS,193102.00,1,-3.2,6.6,3.7,-4.5,-0.6,-0.5,-2.1,-0.9,,,,*4B
$GPGRS,193102.00,1,-0.4,0.4,0.5,0.5,0.4,-0.5,,,,,,*47
$GPGRS,193102.00,1,1.0,0.1,1.0,0.2,1.3,-0.2,-0.6,-0.6,0.2,-1.0,-1.3,-0.4*40
$GPGRS,193102.00,1,-0.4,-0.6,-0.0,-1.8,,,,,,,,*4D
$GPGSV,6,1,21,16,61,225,49,08,23,297,42,26,36,193,45,15,15,059,42*77
$GPGSV,6,2,21,10,42,168,48,18,41,060,47,27,58,301,49,23,59,101,48*75
$GPGSV,6,3,21,21,00,251,,13,05,030,36,07,09,318,39,29,01,109,22*77
$GPGSV,6,4,21,36,35,170,44,58,13,245,37,57,11,108,37,34,31,208,42*73
$GPGSV,6,5,21,40,24,133,36,49,34,195,43,41,07,108,34,61,03,257,38*7C
$GPGSV,6,6,21*7A
$GLGSV,3,1,10,83,66,329,43,84,15,267,37,80,21,201,46,68,11,139,*62
$GLGSV,3,2,10,66,22,034,47,67,32,092,50,74,30,320,44,82,46,052,49*6C
$GLGSV,3,3,10,73,46,263,50,81,04,074,41*6B
$GAGSV,3,1,09,13,81,032,48,23,42,302,,03,10,063,38,27,18,165,40*65
$GAGSV,3,2,09,15,27,058,42,26,42,245,45,21,59,212,48,05,03,016,33*69
$GAGSV,3,3,09,08,04,109,34*52
$GBGSV,6,1,23,28,60,287,50,23,14,203,42,60,11,108,41,21,14,034,41*64
$GBGSV,6,2,23,46,20,313,,38,17,037,41,05,22,128,39,30,15,266,*62
$GBGSV,6,3,23,33,23,145,44,50,26,055,,27,16,274,43,08,31,038,40*6E
$GBGSV,6,4,23,58,27,310,,31,28,053,,14,33,117,44,13,38,045,44*66
$GBGSV,6,5,23,11,27,081,43,37,34,254,46,42,35,084,47,43,50,081,49*69
$GBGSV,6,6,23,02,08,106,35,34,05,090,40,07,01,121,*5A
$GPGGA,193102.00,,,,,0,00,,,M,,M,,*40
$PTNL,GGK,193102.00,010125,4742.1604878,N,01618.1000507,E,1,39,0.8,EHT751.5679,M*42
$GPGGQ,193102.00,010125,4742.1604878,N,01618.1000507,E,1,39,0.969,708.3614,M*33
$GPGFA,193102.00,3.459,6.857,0.364,0.327,5.937,0.836,,VVV*0E
$GPLLK,193102.00,010125,,M,,M,1,39,0.9,,M*00
$GNGMP,193102.00,,,,,DAAA,39,0.4,,,,*50
$GPGMP,193102.00,,,,,,09,,,,2.3,136*79
$GLGMP,193102.00,,,,,,08,,,,,*7F
$GAGMP,193102.00,,,,,,06,,,,,*7C
$GBGMP,193102.00,,,,,,16,,,,,*7E
$PSSN,SNC,[0,329480000,2347]*40
$GPZDA,193107.00,01,01,2025,,*6E
$GPDTM,W84,,00.0000000,N,00.0000000,E,00.0000000,W84*5F
$PSSN,TFM,193107.00,,,,*62
$GPRMC,193107.00,A,4742.1604878,N,01618.1000498,E,0.0,,010125,5.1,E,D*1B
$GPGLL,4742.1604878,N,01618.1000498,E,193107.00,A,D*6A
$GPGGA,193107.00,4742.1604878,N,01618.1000498,E,2,39,0.4,708.3605,M,43.2066,M,3.3,0136*47
$GNGNS,193107.00,4742.1604878,N,01618.1000498,E,DAAA,39,0.4,708.3605,43.2066,,*5F
$GPGNS,193107.00,,,,,,09,,,,3.3,136*7D
$GLGNS,193107.00,,,,,,08,,,,,*7A
$GAGNS,193107.00,,,,,,06,,,,,*79
$GBGNS,193107.00,,,,,,16,,,,,*7B
$GPLLQ,193107.00,010125,,M,,M,1,39,0.977,,M*1F
$GPVTG,,T,,M,0.00,N,0.01,K,D*27
$GPHDT,,T*1B
$GPTHS,,V*0E
$GPROT,,V*08
$PSSN,HRP,193107.00,010125,,,,,,,00,0,,*6C
$PTNL,AVR,193107.00,,Yaw,,Tilt,,,,0,,00*3A
$GPGSA,A,3,07,08,10,15,16,18,23,26,27,,,,0.8,0.4,0.7*3D
$GPGSA,A,3,66,67,73,74,80,82,83,84,,,,,0.8,0.4,0.7*3A
$GPGSA,A,3,03,13,15,21,26,27,,,,,,,0.8,0.4,0.7*3E
$GPGSA,A,3,05,08,11,13,14,21,23,27,28,33,34,37,0.8,0.4,0.7*3D
$GPGSA,A,3,38,42,43,60,,,,,,,,,0.8,0.4,0.7*35
$GPGST,193107.00,1.858,0.366,0.329,9.610,0.365,0.331,0.843*55
$GPGBS,193107.00,2.511,1.948,4.949,67,0.0001,7.355,6.134*55
$GPGRS,193107.00,1,0.6,-0.2,0.2,0.2,0.2,-0.2,-0.3,-0.3,0.1,,,*68
$GPGRS,193107.00,1,-1.9,7.4,4.1,-4.2,-1.0,-0.2,-1.3,-1.2,,,,*49
$GPGRS,193107.00,1,-0.2,0.6,0.4,0.6,0.5,-0.6,,,,,,*46
$GPGRS,193107.00,1,1.2,0.8,0.8,0.4,2.0,0.5,-0.3,-0.0,0.2,-0.9,-1.1,-0.3*65
$GPGRS,193107.00,1,-0.3,-0.1,-0.1,-1.6,,,,,,,,*47
$GPGSV,6,1,21,16,61,225,48,08,23,297,42,26,36,193,45,15,15,059,40*74
$GPGSV,6,2,21,10,42,168,48,18,41,060,46,27,58,301,49,23,59,101,48*74
$GPGSV,6,3,21,21,00,251,,13,05,030,35,07,09,318,40,29,01,109,23*7B
$GPGSV,6,4,21,36,35,170,44,58,13,245,37,57,11,108,37,34,31,208,42*73
$GPGSV,6,5,21,40,24,133,36,49,34,195,44,41,07,108,34,61,03,257,38*7B
$GPGSV,6,6,21*7A
$GLGSV,3,1,10,83,66,329,43,84,15,267,36,80,21,201,46,68,11,139,*63
$GLGSV,3,2,10,66,22,033,47,67,32,092,50,74,30,320,44,82,46,052,49*6B
$GLGSV,3,3,10,73,46,263,50,81,04,074,41*6B
$GAGSV,3,1,09,13,80,032,48,23,42,302,,03,10,062,38,27,18,165,40*65
$GAGSV,3,2,09,15,27,058,42,26,42,245,45,21,59,212,48,05,03,016,33*69
$GAGSV,3,3,09,08,04,109,34*52
$GBGSV,6,1,23,28,60,287,50,23,14,203,42,60,11,108,40,21,14,034,41*65
$GBGSV,6,2,23,46,20,313,,38,17,037,41,05,22,128,39,30,15,266,*62
$GBGSV,6,3,23,33,23,145,43,50,26,055,,27,16,274,43,08,31,038,40*69
$GBGSV,6,4,23,58,27,310,,31,28,053,,14,33,117,44,13,38,045,44*66
$GBGSV,6,5,23,11,27,081,42,37,33,254,46,42,35,084,46,43,50,081,49*6E
$GBGSV,6,6,23,02,08,106,35,34,05,090,40,07,01,121,*5A
$GPGGA,193107.00,,,,,0,00,,,M,,M,,*45
$PTNL,GGK,193107.00,010125,4742.1604878,N,01618.1000498,E,1,39,0.8,EHT751.5670,M*49
$GPGGQ,193107.00,010125,4742.1604878,N,01618.1000498,E,1,39,0.977,708.3605,M*3E
$GPGFA,193107.00,3.482,6.916,0.366,0.329,9.610,0.843,,VVV*01
$GPLLK,193107.00,010125,,M,,M,1,39,0.9,,M*05
$GNGMP,193107.00,,,,,DAAA,39,0.4,,,,*55
$GPGMP,193107.00,,,,,,09,,,,3.3,136*7D
$GLGMP,193107.00,,,,,,08,,,,,*7A
$GAGMP,193107.00,,,,,,06,,,,,*79
$GBGMP,193107.00,,,,,,16,,,,,*7B
$PSSN,SNC,[0,329485000,2347]*45
$GPZDA,193112.00,01,01,2025,,*6A
$GPDTM,W84,,00.0000000,N,00.0000000,E,00.0000000,W84*5F
$PSSN,TFM,193112.00,,,,*66
$GPRMC,193112.00,A,4742.1604873,N,01618.1000529,E,0.0,,010125,5.1,E,D*1F
$GPGLL,4742.1604873,N,01618.1000529,E,193112.00,A,D*6E
$GPGGA,193112.00,4742.1604873,N,01618.1000529,E,2,38,0.4,708.3626,M,43.2066,M,1.7,0136*45
$GNGNS,193112.00,4742.1604873,N,01618.1000529,E,DAAA,38,0.4,708.3626,43.2066,,*5B
$GPGNS,193112.00,,,,,,09,,,,1.7,136*7F
$GLGNS,193112.00,,,,,,08,,,,,*7E
$GAGNS,193112.00,,,,,,06,,,,,*7D
$GBGNS,193112.00,,,,,,15,,,,,*7C
$GPLLQ,193112.00,010125,,M,,M,1,38,0.974,,M*19
$GPVTG,,T,,M,0.00,N,0.01,K,D*27
$GPHDT,,T*1B
$GPTHS,,V*0E
$GPROT,,V*08
$PSSN,HRP,193112.00,010125,,,,,,,00,0,,*68
$PTNL,AVR,193112.00,,Yaw,,Tilt,,,,0,,00*3E
$GPGSA,A,3,07,08,10,15,16,18,23,26,27,,,,0.8,0.4,0.7*3D
$GPGSA,A,3,66,67,73,74,80,82,83,84,,,,,0.8,0.4,0.7*3A
$GPGSA,A,3,03,13,15,21,26,27,,,,,,,0.8,0.4,0.7*3E
$GPGSA,A,3,05,08,11,13,14,21,23,27,28,33,37,38,0.8,0.4,0.7*31
$GPGSA,A,3,42,43,60,,,,,,,,,,0.8,0.4,0.7*3E
$GPGST,193112.00,1.869,0.365,0.328,6.998,0.365,0.329,0.841*5A
$GPGBS,193112.00,2.500,1.878,4.646,67,0.0001,7.275,6.134*50
$GPGRS,193112.00,1,0.6,0.1,0.6,-0.7,-0.1,-0.2,-0.1,-0.3,0.1,,,*42
$GPGRS,193112.00,1,-1.9,7.3,4.3,-4.0,-0.1,0.1,-1.6,-1.0,,,,*63
$GPGRS,193112.00,1,-0.3,0.5,0.3,0.6,0.4,-0.8,,,,,,*48
$GPGRS,193112.00,1,1.2,0.7,0.0,0.3,2.0,1.1,-0.0,-0.1,0.0,-0.5,-0.4,-0.6*69
$GPGRS,193112.00,1,-0.3,-0.2,-1.5,,,,,,,,,*41
$GPGSV,6,1,21,16,61,225,48,08,23,297,42,26,36,193,45,15,15,059,40*74
$GPGSV,6,2,21,10,42,168,48,18,41,060,46,27,58,301,49,23,59,101,48*74
$GPGSV,6,3,21,21,00,251,,13,05,029,35,07,09,318,40,29,01,109,20*70
$GPGSV,6,4,21,36,35,170,44,58,13,245,37,57,11,108,37,34,31,208,42*73
$GPGSV,6,5,21,40,24,133,36,49,34,195,44,41,07,108,34,61,03,257,38*7B
$GPGSV,6,6,21*7A
$GLGSV,3,1,10,83,66,329,43,84,15,267,36,80,21,201,46,68,11,139,*63
$GLGSV,3,2,10,66,22,033,47,67,32,092,49,74,30,320,43,82,46,052,49*64
$GLGSV,3,3,10,73,46,263,50,81,04,074,41*6B
$GAGSV,3,1,09,13,80,032,48,23,42,302,,03,10,062,38,27,18,165,40*65
$GAGSV,3,2,09,15,27,058,42,26,42,245,45,21,59,212,48,05,03,016,34*6E
$GAGSV,3,3,09,08,04,109,34*52
$GBGSV,6,1,23,28,60,287,50,23,14,203,42,60,11,108,40,21,14,034,42*66
$GBGSV,6,2,23,46,20,313,,38,17,037,41,05,22,128,39,30,15,266,*62
$GBGSV,6,3,23,33,23,145,44,50,26,055,,27,16,274,43,08,31,038,40*6E
$GBGSV,6,4,23,58,27,310,,31,28,053,,14,33,117,44,13,38,045,44*66
$GBGSV,6,5,23,11,27,081,42,37,33,254,46,42,35,084,46,43,50,081,49*6E
$GBGSV,6,6,23,02,08,106,35,34,05,090,39,07,01,121,*54
$GPGGA,193112.00,,,,,0,00,,,M,,M,,*41
$PTNL,GGK,193112.00,010125,4742.1604873,N,01618.1000529,E,1,38,0.8,EHT751.5692,M*40
$GPGGQ,193112.00,010125,4742.1604873,N,01618.1000529,E,1,38,0.974,708.3626,M*39
$GPGFA,193112.00,3.474,6.894,0.365,0.328,6.998,0.841,,VVV*07
$GPLLK,193112.00,010125,,M,,M,1,38,0.9,,M*00
$GNGMP,193112.00,,,,,DAAA,38,0.4,,,,*50
$GPGMP,193112.00,,,,,,09,,,,1.7,136*7F
$GLGMP,193112.00,,,,,,08,,,,,*7E
$GAGMP,193112.00,,,,,,06,,,,,*7D
$GBGMP,193112.00,,,,,,15,,,,,*7C
$PSSN,SNC,[0,329490000,2347]*41
$GPZDA,193117.00,01,01,2025,,*6F
$GPDTM,W84,,00.0000000,N,00.0000000,E,00.0000000,W84*5F
$PSSN,TFM,193117.00,,,,*63
$GPRMC,193117.00,A,4742.1604884,N,01618.1000544,E,0.0,,010125,5.1,E,D*19
$GPGLL,4742.1604884,N,01618.1000544,E,193117.00,A,D*68
$GPGGA,193117.00,4742.1604884,N,01618.1000544,E,2,38,0.4,708.3645,M,43.2066,M,2.7,0136*45
$GNGNS,193117.00,4742.1604884,N,01618.1000544,E,DAAA,38,0.4,708.3645,43.2066,,*58
$GPGNS,193117.00,,,,,,09,,,,2.7,136*79
$GLGNS,193117.00,,,,,,08,,,,,*7B
$GAGNS,193117.00,,,,,,06,,,,,*78
$GBGNS,193117.00,,,,,,15,,,,,*79
$GPLLQ,193117.00,010125,,M,,M,1,38,0.958,,M*12
$GPVTG,,T,,M,0.00,N,0.01,K,D*27
$GPHDT,,T*1B
$GPTHS,,V*0E
$GPROT,,V*08
$PSSN,HRP,193117.00,010125,,,,,,,00,0,,*6D
$PTNL,AVR,193117.00,,Yaw,,Tilt,,,,0,,00*3B
$GPGSA,A,3,07,08,10,15,16,18,23,26,27,,,,0.8,0.4,0.7*3D
$GPGSA,A,3,66,67,73,74,80,82,83,84,,,,,0.8,0.4,0.7*3A
$GPGSA,A,3,03,13,15,21,26,27,,,,,,,0.8,0.4,0.7*3E
$GPGSA,A,3,05,08,11,13,14,21,23,27,28,33,37,38,0.8,0.4,0.7*31
$GPGSA,A,3,42,43,60,,,,,,,,,,0.8,0.4,0.7*3E
$GPGST,193117.00,1.765,0.360,0.322,3.414,0.360,0.323,0.827*50
$GPGBS,193117.00,2.553,1.899,4.722,67,0.0001,6.326,6.134*59
$GPGRS,193117.00,1,0.4,0.2,0.2,-0.3,-0.2,-0.2,0.2,-0.0,-0.1,,,*45
$GPGRS,193117.00,1,-2.3,6.3,4.0,-4.3,0.3,0.0,-2.3,-0.7,,,,*40
$GPGRS,193117.00,1,-0.4,0.3,0.1,0.3,0.4,-1.0,,,,,,*42
$GPGRS,193117.00,1,1.0,0.6,0.1,0.4,1.7,1.0,0.6,-0.3,0.1,-0.6,-0.3,-0.6*40
$GPGRS,193117.00,1,-0.2,-0.0,-1.7,,,,,,,,,*45
$GPGSV,6,1,21,16,60,225,48,08,23,297,41,26,36,193,45,15,15,059,40*76
$GPGSV,6,2,21,10,42,168,48,18,40,060,45,27,58,301,49,23,59,101,48*76
$GPGSV,6,3,21,21,00,251,,13,05,029,35,07,09,318,40,29,01,109,21*71
$GPGSV,6,4,21,36,35,170,44,58,13,245,37,57,11,108,37,34,31,208,42*73
$GPGSV,6,5,21,40,24,133,36,49,34,195,44,41,07,108,34,61,03,257,38*7B
$GPGSV,6,6,21*7A
$GLGSV,3,1,10,83,66,329,42,84,15,267,36,80,20,201,47,68,11,139,*62
