$GPZDA,222942.00,01,01,2025,,*6E
$GPDTM,W84,,00.0000000,N,00.0000000,E,00.0000000,W84*5F
$PSSN,TFM,222942.00,,,,*62
$GPRMC,222942.00,A,4742.1600847,N,01618.1004930,E,0.0,,010125,5.1,E,D*18
$GPGLL,4742.1600847,N,01618.1004930,E,222942.00,A,D*69
$GPGGA,222942.00,4742.1600847,N,01618.1004930,E,2,35,0.4,708.3182,M,43.2066,M,2.4,0136*46
$GNGNS,222942.00,4742.1600847,N,01618.1004930,E,DAAA,35,0.4,708.3182,43.2066,,*58
$GPGNS,222942.00,,,,,,08,,,,2.4,136*7A
$GLGNS,222942.00,,,,,,07,,,,,*75
$GAGNS,222942.00,,,,,,08,,,,,*77
$GBGNS,222942.00,,,,,,12,,,,,*7F
$GPLLQ,222942.00,010125,,M,,M,1,35,1.012,,M*18
$GPVTG,,T,,M,0.00,N,0.00,K,D*26
$GPHDT,,T*1B
$GPTHS,,V*0E
$GPROT,,V*08
$PSSN,HRP,222942.00,010125,,,,,,,00,0,,*6C
$PTNL,AVR,222942.00,,Yaw,,Tilt,,,,0,,00*3A
$GPGSA,A,3,02,03,08,10,14,21,27,32,,,,,0.8,0.4,0.6*32
$GPGSA,A,3,68,69,70,75,76,84,85,,,,,,0.8,0.4,0.6*3C
$GPGSA,A,3,07,08,13,24,26,29,31,33,,,,,0.8,0.4,0.6*3E
$GPGSA,A,3,05,13,14,16,27,28,30,32,33,39,41,60,0.8,0.4,0.6*39
$GPGST,222942.00,1.837,0.421,0.348,27.506,0.407,0.364,0.852*64
$GPGBS,222942.00,2.447,2.368,5.059,68,0.0001,5.687,6.156*56
$GPGRS,222942.00,1,-0.2,-0.1,0.1,-0.1,-0.2,0.1,0.1,0.1,,,,*43
$GPGRS,222942.00,1,5.7,1.7,-1.3,-1.5,-5.1,-1.5,3.6,,,,,*6A
$GPGRS,222942.00,1,0.1,0.3,0.3,-1.4,0.2,-0.0,0.2,0.4,,,,*43
$GPGRS,222942.00,1,1.4,-0.2,0.2,1.4,0.5,0.3,1.0,-0.4,-0.8,-0.5,0.1,-2.1*62
$GPGSV,5,1,19,21,70,307,46,03,14,233,39,14,15,313,40,10,40,054,46*7B
$GPGSV,5,2,19,27,34,163,45,32,46,101,49,08,62,199,50,02,48,295,47*74
$GPGSV,5,3,19,23,00,055,31,24,02,027,,36,35,170,45,58,13,245,38*76
$GPGSV,5,4,19,57,12,107,38,49,34,195,44,40,24,132,35,34,31,208,43*77
$GPGSV,5,5,19,41,07,108,34,61,03,257,39*73
$GLGSV,2,1,08,84,72,050,39,76,13,336,45,75,12,280,43,70,18,193,38*6E
$GLGSV,2,2,08,83,16,112,34,68,36,038,49,85,36,314,49,69,69,121,52*6F
$GAGSV,3,1,09,26,75,049,48,29,17,168,39,13,25,091,42,31,28,283,43*61
$GAGSV,3,2,09,23,20,229,,07,43,113,45,08,27,050,42,33,45,291,45*6C
$GAGSV,3,3,09,24,09,332,38*57
$GBGSV,6,1,24,27,82,287,52,20,12,196,,39,12,072,41,60,11,109,41*62
$GBGSV,6,2,24,32,19,204,43,05,24,128,38,14,20,044,41,29,23,299,*68
$GBGSV,6,3,24,13,15,056,39,30,30,304,46,33,44,056,48,28,49,128,49*6C
$GBGSV,6,4,24,41,67,156,51,57,63,270,,31,09,080,,09,01,094,*69
$GBGSV,6,5,24,02,09,105,34,36,02,296,38,06,07,084,35,16,08,081,38*61
$GBGSV,6,6,24,45,01,340,,26,01,344,,58,01,243,,08,06,054,35*6C
$GPGGA,222942.00,,,,,0,00,,,M,,M,,*45
$PTNL,GGK,222942.00,010125,4742.1600847,N,01618.1004930,E,1,35,0.8,EHT751.5247,M*46
$GPGGQ,222942.00,010125,4742.1600847,N,01618.1004930,E,1,35,1.012,708.3182,M*32
$GPGFA,222942.00,4.005,6.982,0.421,0.348,27.506,0.852,,VVV*3B
$GPLLK,222942.00,010125,,M,,M,1,35,0.8,,M*08
$GNGMP,222942.00,,,,,DAAA,35,0.4,,,,*59
$GPGMP,222942.00,,,,,,08,,,,2.4,136*7A
$GLGMP,222942.00,,,,,,07,,,,,*75
$GAGMP,222942.00,,,,,,08,,,,,*77
$GBGMP,222942.00,,,,,,12,,,,,*7F
$PSSN,SNC,[0,340200000,2347]*41
$GPZDA,222947.00,01,01,2025,,*6B
$GPDTM,W84,,00.0000000,N,00.0000000,E,00.0000000,W84*5F
$PSSN,TFM,222947.00,,,,*67
$GPRMC,222947.00,A,4742.1600851,N,01618.1004931,E,0.0,,010125,5.1,E,D*1B
$GPGLL,4742.1600851,N,01618.1004931,E,222947.00,A,D*6A
$GPGGA,222947.00,4742.1600851,N,01618.1004931,E,2,38,0.4,708.3175,M,43.2066,M,3.4,0136*41
$GNGNS,222947.00,4742.1600851,N,01618.1004931,E,DAAA,38,0.4,708.3175,43.2066,,*5E
$GPGNS,222947.00,,,,,,08,,,,3.4,136*7E
$GLGNS,222947.00,,,,,,08,,,,,*7F
$GAGNS,222947.00,,,,,,08,,,,,*72
$GBGNS,222947.00,,,,,,14,,,,,*7C
$GPLLQ,222947.00,010125,,M,,M,1,38,1.012,,M*10
$GPVTG,,T,,M,0.00,N,0.01,K,D*27
$GPHDT,,T*1B
$GPTHS,,V*0E
$GPROT,,V*08
$PSSN,HRP,222947.00,010125,,,,,,,00,0,,*69
$PTNL,AVR,222947.00,,Yaw,,Tilt,,,,0,,00*3F
$GPGSA,A,3,02,03,08,10,14,21,27,32,,,,,0.7,0.4,0.6*3D
$GPGSA,A,3,68,69,70,75,76,83,84,85,,,,,0.7,0.4,0.6*38
$GPGSA,A,3,07,08,13,24,26,29,31,33,,,,,0.7,0.4,0.6*31
$GPGSA,A,3,05,06,08,13,14,16,27,28,30,32,33,39,0.7,0.4,0.6*3B
$GPGSA,A,3,41,60,,,,,,,,,,,0.7,0.4,0.6*34
$GPGST,222947.00,1.741,0.425,0.348,29.357,0.408,0.368,0.849*6E
$GPGBS,222947.00,2.483,2.379,5.112,68,0.0001,5.607,6.156*5D
$GPGRS,222947.00,1,-0.0,0.5,0.1,-0.2,0.2,0.0,-0.2,-0.1,,,,*41
$GPGRS,222947.00,1,5.6,1.6,-0.8,-1.5,-5.5,-1.2,-1.0,3.3,,,,*61
$GPGRS,222947.00,1,0.4,0.3,0.4,-1.5,0.2,-0.2,-0.3,0.2,,,,*6D
$GPGRS,222947.00,1,1.0,-0.1,-0.7,-0.6,-0.7,1.1,0.5,-0.0,0.9,-0.5,-1.0,-1.1*48
$GPGRS,222947.00,1,0.2,-1.9,,,,,,,,,,*61
$GPGSV,5,1,19,21,70,307,46,03,14,233,40,14,15,313,39,10,40,054,47*7A
$GPGSV,5,2,19,27,34,163,45,32,46,101,49,08,62,199,50,02,48,295,47*74
$GPGSV,5,3,19,23,00,055,31,24,02,027,,36,35,170,45,58,13,245,38*76
$GPGSV,5,4,19,57,12,107,37,49,34,195,44,40,24,132,36,34,31,208,42*7A
$GPGSV,5,5,19,41,07,108,34,61,03,257,38*72
$GLGSV,2,1,08,84,72,050,39,76,13,336,46,75,12,280,44,70,18,193,37*65
$GLGSV,2,2,08,83,16,112,35,68,36,038,50,85,36,314,49,69,69,121,52*66
$GAGSV,3,1,09,26,75,049,48,29,17,168,39,13,25,091,42,31,28,283,43*61
$GAGSV,3,2,09,23,20,229,,07,43,113,45,08,27,050,42,33,45,291,45*6C
$GAGSV,3,3,09,24,09,332,38*57
$GBGSV,6,1,24,27,82,287,52,20,12,196,,39,12,072,40,60,11,109,41*63
$GBGSV,6,2,24,32,19,204,43,05,24,128,39,14,20,044,41,29,23,299,*69
$GBGSV,6,3,24,13,15,056,39,30,30,304,46,33,44,056,49,28,49,128,49*6D
$GBGSV,6,4,24,41,67,156,51,57,63,270,,31,09,080,,09,01,093,*6E
$GBGSV,6,5,24,02,09,105,33,36,02,296,37,06,07,084,35,16,08,081,38*69
$GBGSV,6,6,24,45,01,340,,26,01,344,,58,01,243,,08,06,054,35*6C
$GPGGA,222947.00,,,,,0,00,,,M,,M,,*40
$PTNL,GGK,222947.00,010125,4742.1600851,N,01618.1004931,E,1,38,0.7,EHT751.5240,M*40
$GPGGQ,222947.00,010125,4742.1600851,N,01618.1004931,E,1,38,1.012,708.3175,M*34
$GPGFA,222947.00,4.045,6.965,0.425,0.348,29.357,0.849,,VVV*31
$GPLLK,222947.00,010125,,M,,M,1,38,0.8,,M*00
$GNGMP,222947.00,,,,,DAAA,38,0.4,,,,*51
$GPGMP,222947.00,,,,,,08,,,,3.4,136*7E
$GLGMP,222947.00,,,,,,08,,,,,*7F
$GAGMP,222947.00,,,,,,08,,,,,*72
$GBGMP,222947.00,,,,,,14,,,,,*7C
$PSSN,SNC,[0,340205000,2347]*44
$GPZDA,222952.00,01,01,2025,,*6F
$GPDTM,W84,,00.0000000,N,00.0000000,E,00.0000000,W84*5F
$PSSN,TFM,222952.00,,,,*63
$GPRMC,222952.00,A,4742.1600865,N,01618.1004948,E,0.0,,010125,5.1,E,D*16
$GPGLL,4742.1600865,N,01618.1004948,E,222952.00,A,D*67
$GPGGA,222952.00,4742.1600865,N,01618.1004948,E,2,37,0.4,708.3209,M,43.2066,M,1.9,0136*44
$GNGNS,222952.00,4742.1600865,N,01618.1004948,E,DAAA,37,0.4,708.3209,43.2066,,*54
$GPGNS,222952.00,,,,,,08,,,,1.9,136*75
$GLGNS,222952.00,,,,,,08,,,,,*7B
$GAGNS,222952.00,,,,,,08,,,,,*76
$GBGNS,222952.00,,,,,,13,,,,,*7F
$GPLLQ,222952.00,010125,,M,,M,1,37,1.013,,M*1A
$GPVTG,,T,,M,0.00,N,0.01,K,D*27
$GPHDT,,T*1B
$GPTHS,,V*0E
$GPROT,,V*08
$PSSN,HRP,222952.00,010125,,,,,,,00,0,,*6D
$PTNL,AVR,222952.00,,Yaw,,Tilt,,,,0,,00*3B
$GPGSA,A,3,02,03,08,10,14,21,27,32,,,,,0.7,0.4,0.6*3D
$GPGSA,A,3,68,69,70,75,76,83,84,85,,,,,0.7,0.4,0.6*38
$GPGSA,A,3,07,08,13,24,26,29,31,33,,,,,0.7,0.4,0.6*31
$GPGSA,A,3,05,06,13,14,16,27,28,30,32,33,39,41,0.7,0.4,0.6*36
$GPGSA,A,3,60,,,,,,,,,,,,0.7,0.4,0.6*31
$GPGST,222952.00,1.745,0.424,0.350,29.177,0.407,0.369,0.851*61
$GPGBS,222952.00,2.371,2.391,4.933,68,0.0001,6.689,6.156*5A
$GPGRS,222952.00,1,-0.0,0.5,0.0,0.1,0.0,-0.2,-0.1,0.0,,,,*68
$GPGRS,222952.00,1,6.7,1.6,-0.9,-1.1,-4.6,-1.1,-1.0,2.8,,,,*69
$GPGRS,222952.00,1,0.1,0.2,0.6,-1.5,0.3,-0.3,-0.3,0.4,,,,*69
$GPGRS,222952.00,1,0.9,-0.2,-0.2,-0.1,1.2,0.5,0.0,1.0,-0.2,-0.5,-0.9,0.1*42
$GPGRS,222952.00,1,-1.7,,,,,,,,,,,*47
$GPGSV,5,1,19,21,70,307,46,03,14,233,40,14,15,313,40,10,40,054,47*74
$GPGSV,5,2,19,27,34,163,45,32,46,101,49,08,62,198,50,02,48,295,47*75
$GPGSV,5,3,19,23,00,055,30,24,02,027,,36,35,170,44,58,13,245,38*76
$GPGSV,5,4,19,57,12,107,37,49,34,195,44,40,24,132,36,34,31,208,42*7A
$GPGSV,5,5,19,41,07,108,34,61,03,257,38*72
$GLGSV,2,1,08,84,72,050,39,76,13,336,45,75,12,280,44,70,18,193,36*67
$GLGSV,2,2,08,83,16,112,35,68,36,038,50,85,36,314,49,69,69,121,52*66
$GAGSV,3,1,09,26,75,049,48,29,17,168,39,13,25,091,42,31,28,283,43*61
$GAGSV,3,2,09,23,20,229,,07,43,113,45,08,27,050,42,33,45,291,45*6C
$GAGSV,3,3,09,24,09,332,37*58
$GBGSV,6,1,24,27,82,286,51,20,12,196,,60,11,109,40,32,19,204,43*60
$GBGSV,6,2,24,39,12,072,40,05,24,128,38,14,20,044,40,29,23,299,*69
$GBGSV,6,3,24,13,15,056,39,30,30,304,46,33,44,056,49,28,49,128,49*6D
$GBGSV,6,4,24,41,67,156,51,57,63,270,,31,09,080,,08,06,054,35*65
$GBGSV,6,5,24,02,09,105,34,36,02,296,38,09,01,093,,16,08,081,38*68
$GBGSV,6,6,24,45,01,340,,26,01,344,,58,01,243,,06,07,084,36*6D
$GPGGA,222952.00,,,,,0,00,,,M,,M,,*44
$PTNL,GGK,222952.00,010125,4742.1600865,N,01618.1004948,E,1,37,0.7,EHT751.5274,M*45
$GPGGQ,222952.00,010125,4742.1600865,N,01618.1004948,E,1,37,1.013,708.3209,M*3F
$GPGFA,222952.00,4.029,6.975,0.424,0.350,29.177,0.851,,VVV*3F
$GPLLK,222952.00,010125,,M,,M,1,37,0.8,,M*0B
$GNGMP,222952.00,,,,,DAAA,37,0.4,,,,*5A
$GPGMP,222952.00,,,,,,08,,,,1.9,136*75
$GLGMP,222952.00,,,,,,08,,,,,*7B
$GAGMP,222952.00,,,,,,08,,,,,*76
$GBGMP,222952.00,,,,,,13,,,,,*7F
$PSSN,SNC,[0,340210000,2347]*40
$GPZDA,222957.00,01,01,2025,,*6A
$GPDTM,W84,,00.0000000,N,00.0000000,E,00.0000000,W84*5F
$PSSN,TFM,222957.00,,,,*66
$GPRMC,222957.00,A,4742.1600870,N,01618.1004952,E,0.0,,010125,5.1,E,D*1C
$GPGLL,4742.1600870,N,01618.1004952,E,222957.00,A,D*6D
$GPGGA,222957.00,4742.1600870,N,01618.1004952,E,2,37,0.4,708.3243,M,43.2066,M,2.4,0136*4E
$GNGNS,222957.00,4742.1600870,N,01618.1004952,E,DAAA,37,0.4,708.3243,43.2066,,*50
$GPGNS,222957.00,,,,,,08,,,,2.4,136*7E
$GLGNS,222957.00,,,,,,08,,,,,*7E
$GAGNS,222957.00,,,,,,08,,,,,*73
$GBGNS,222957.00,,,,,,13,,,,,*7A
$GPLLQ,222957.00,010125,,M,,M,1,37,1.003,,M*1E
$GPVTG,,T,,M,0.01,N,0.01,K,D*26
$GPHDT,,T*1B
$GPTHS,,V*0E
$GPROT,,V*08
$PSSN,HRP,222957.00,010125,,,,,,,00,0,,*68
$PTNL,AVR,222957.00,,Yaw,,Tilt,,,,0,,00*3E
$GPGSA,A,3,02,03,08,10,14,21,27,32,,,,,0.7,0.4,0.6*3D
$GPGSA,A,3,68,69,70,75,76,83,84,85,,,,,0.7,0.4,0.6*38
$GPGSA,A,3,07,08,13,24,26,29,31,33,,,,,0.7,0.4,0.6*31
$GPGSA,A,3,05,06,13,14,16,27,28,30,32,33,39,41,0.7,0.4,0.6*36
$GPGSA,A,3,60,,,,,,,,,,,,0.7,0.4,0.6*31
$GPGST,222957.00,1.802,0.417,0.346,27.352,0.403,0.362,0.844*6F
$GPGBS,222957.00,2.404,2.333,4.987,68,0.0001,5.975,6.156*52
$GPGRS,222957.00,1,-0.1,0.4,-0.0,-0.1,0.1,-0.1,0.1,-0.0,,,,*6F
$GPGRS,222957.00,1,6.0,1.3,-1.8,-1.8,-5.4,-1.1,-1.6,3.1,,,,*6A
$GPGRS,222957.00,1,0.2,0.3,0.5,-1.5,0.1,-0.2,-0.0,0.6,,,,*6F
$GPGRS,222957.00,1,1.1,-0.3,0.6,-0.5,1.0,0.5,-0.0,0.7,-0.4,-0.5,-0.9,0.1*4D
$GPGRS,222957.00,1,-1.7,,,,,,,,,,,*42
$GPGSV,5,1,19,21,70,307,46,03,14,233,40,14,15,313,40,10,40,054,47*74
$GPGSV,5,2,19,27,34,163,45,32,46,101,49,08,62,198,50,02,48,295,47*75
$GPGSV,5,3,19,23,00,055,30,24,02,027,,36,35,170,45,58,13,245,38*77
$GPGSV,5,4,19,57,12,107,37,49,34,195,44,40,24,132,35,34,31,208,42*79
$GPGSV,5,5,19,41,07,108,34,61,03,257,38*72
$GLGSV,2,1,08,84,72,050,39,76,13,336,45,75,12,280,43,70,18,193,37*61
$GLGSV,2,2,08,83,16,112,35,68,36,038,49,85,36,314,49,69,69,121,52*6E
$GAGSV,3,1,09,26,75,049,48,29,17,168,38,13,25,091,41,31,28,283,42*62
$GAGSV,3,2,09,23,20,229,,07,43,113,45,08,27,050,42,33,45,291,45*6C
$GAGSV,3,3,09,24,09,332,38*57
$GBGSV,6,1,24,27,82,286,51,20,12,196,,60,11,109,41,32,20,204,44*6C
$GBGSV,6,2,24,39,12,072,41,05,24,128,38,14,20,044,40,29,23,299,*68
$GBGSV,6,3,24,13,15,056,39,30,30,304,46,33,44,056,49,28,49,128,49*6D
$GBGSV,6,4,24,41,67,156,51,57,63,270,,31,09,080,,08,06,054,35*65
$GBGSV,6,5,24,02,09,105,34,36,02,296,38,09,01,093,,16,08,081,38*68
$GBGSV,6,6,24,45,01,340,,26,01,344,,58,01,243,,06,07,084,36*6D
$GPGGA,222957.00,,,,,0,00,,,M,,M,,*41
$PTNL,GGK,222957.00,010125,4742.1600870,N,01618.1004952,E,1,37,0.7,EHT751.5309,M*44
$GPGGQ,222957.00,010125,4742.1600870,N,01618.1004952,E,1,37,1.003,708.3243,M*3A
$GPGFA,222957.00,3.960,6.922,0.417,0.346,27.352,0.844,,VVV*33
$GPLLK,222957.00,010125,,M,,M,1,37,0.8,,M*0E
$GNGMP,222957.00,,,,,DAAA,37,0.4,,,,*5F
$GPGMP,222957.00,,,,,,08,,,,2.4,136*7E
$GLGMP,222957.00,,,,,,08,,,,,*7E
$GAGMP,222957.00,,,,,,08,,,,,*73
$GBGMP,222957.00,,,,,,13,,,,,*7A
$PSSN,SNC,[0,340215000,2347]*45
$GPZDA,223002.00,01,01,2025,,*62
$GPDTM,W84,,00.0000000,N,00.0000000,E,00.0000000,W84*5F
$PSSN,TFM,223002.00,,,,*6E
$GPRMC,223002.00,A,4742.1600901,N,01618.1004974,E,0.0,,010125,5.1,E,D*17
$GPGLL,4742.1600901,N,01618.1004974,E,223002.00,A,D*66
$GPGGA,223002.00,4742.1600901,N,01618.1004974,E,2,36,0.4,708.3231,M,43.2066,M,2.4,0136*41
$GNGNS,223002.00,4742.1600901,N,01618.1004974,E,DAAA,36,0.4,708.3231,43.2066,,*5F
$GPGNS,223002.00,,,,,,08,,,,2.4,136*76
$GLGNS,223002.00,,,,,,07,,,,,*79
$GAGNS,223002.00,,,,,,08,,,,,*7B
$GBGNS,223002.00,,,,,,13,,,,,*72
$GPLLQ,223002.00,010125,,M,,M,1,36,1.011,,M*14
$GPVTG,,T,,M,0.01,N,0.01,K,D*26
$GPHDT,,T*1B
$GPTHS,,V*0E
$GPROT,,V*08
$PSSN,HRP,223002.00,010125,,,,,,,00,0,,*60
$PTNL,AVR,223002.00,,Yaw,,Tilt,,,,0,,00*36
$GPGSA,A,3,02,03,08,10,14,21,27,32,,,,,0.7,0.4,0.6*3D
$GPGSA,A,3,68,69,70,75,76,84,85,,,,,,0.7,0.4,0.6*33
$GPGSA,A,3,07,08,13,24,26,29,31,33,,,,,0.7,0.4,0.6*31
$GPGSA,A,3,05,06,13,14,16,27,28,30,32,33,39,41,0.7,0.4,0.6*36
$GPGSA,A,3,60,,,,,,,,,,,,0.7,0.4,0.6*31
$GPGST,223002.00,1.986,0.421,0.348,27.327,0.406,0.364,0.851*64
$GPGBS,223002.00,2.444,2.365,5.050,76,0.0001,-6.322,6.319*7F
$GPGRS,223002.00,1,-0.1,0.5,-0.1,-0.2,-0.2,-0.0,0.2,-0.2,,,,*4A
$GPGRS,223002.00,1,5.7,1.6,-2.4,-2.2,-6.3,-1.6,3.6,,,,,*65
$GPGRS,223002.00,1,0.1,0.1,0.6,-1.0,0.1,-0.1,0.1,0.6,,,,*4F
$GPGRS,223002.00,1,1.6,0.4,0.9,-0.9,1.2,0.4,0.0,0.8,-0.4,-0.5,-0.8,0.2*48
$GPGRS,223002.00,1,-1.8,,,,,,,,,,,*45
$GPGSV,5,1,19,21,70,307,46,03,14,233,41,14,15,313,41,10,40,054,48*7B
$GPGSV,5,2,19,27,34,163,45,32,46,101,49,08,61,198,50,02,48,295,47*76
$GPGSV,5,3,19,23,00,055,30,24,02,027,,36,35,170,45,58,13,245,38*77
$GPGSV,5,4,19,57,12,107,37,49,34,195,44,40,24,132,35,34,31,208,43*78
$GPGSV,5,5,19,41,07,108,34,61,03,257,39*73
$GLGSV,2,1,08,84,72,050,39,76,13,336,44,75,12,280,44,70,18,193,37*67
$GLGSV,2,2,08,83,16,112,35,68,36,038,49,85,36,315,49,69,69,120,52*6E
$GAGSV,3,1,09,26,75,050,48,29,17,168,38,13,25,091,42,31,28,283,43*68
$GAGSV,3,2,09,23,20,229,,07,43,113,45,08,27,050,42,33,45,291,45*6C
$GAGSV,3,3,09,24,09,332,38*57
$GBGSV,6,1,24,27,82,286,51,20,12,196,,60,11,109,41,32,20,204,44*6C
$GBGSV,6,2,24,39,12,072,40,05,24,128,39,14,20,044,40,29,23,299,*68
$GBGSV,6,3,24,13,15,056,39,30,30,304,46,33,44,055,49,28,49,128,49*6E
$GBGSV,6,4,24,41,67,156,51,57,64,270,,31,09,080,,08,06,054,35*62
$GBGSV,6,5,24,02,09,105,34,36,02,296,38,09,01,093,,16,08,081,38*68
$GBGSV,6,6,24,45,01,340,,26,01,344,,58,01,243,,06,07,084,36*6D
$GPGGA,223002.00,,,,,0,00,,,M,,M,,*49
$PTNL,GGK,223002.00,010125,4742.1600901,N,01618.1004974,E,1,36,0.7,EHT751.5296,M*49
$GPGGQ,223002.00,010125,4742.1600901,N,01618.1004974,E,1,36,1.011,708.3231,M*36
$GPGFA,223002.00,3.998,6.977,0.421,0.348,27.327,0.851,,VVV*31
$GPLLK,223002.00,010125,,M,,M,1,36,0.8,,M*07
$GNGMP,223002.00,,,,,DAAA,36,0.4,,,,*56
$GPGMP,223002.00,,,,,,08,,,,2.4,136*76
$GLGMP,223002.00,,,,,,07,,,,,*79
$GAGMP,223002.00,,,,,,08,,,,,*7B
$GBGMP,223002.00,,,,,,13,,,,,*72
$PSSN,SNC,[0,340220000,2347]*43
$GPZDA,223007.00,01,01,2025,,*67
$GPDTM,W84,,00.0000000,N,00.0000000,E,00.0000000,W84*5F
$PSSN,TFM,223007.00,,,,*6B
$GPRMC,223007.00,A,4742.1600909,N,01618.1004949,E,0.0,,010125,5.1,E,D*14
$GPGLL,4742.1600909,N,01618.1004949,E,223007.00,A,D*65
$GPGGA,223007.00,4742.1600909,N,01618.1004949,E,2,36,0.4,708.3238,M,43.2066,M,3.4,0136*4A
$GNGNS,223007.00,4742.1600909,N,01618.1004949,E,DAAA,36,0.4,708.3238,43.2066,,*55
$GPGNS,223007.00,,,,,,08,,,,3.4,136*72
$GLGNS,223007.00,,,,,,07,,,,,*7C
$GAGNS,223007.00,,,,,,08,,,,,*7E
$GBGNS,223007.00,,,,,,13,,,,,*77
$GPLLQ,223007.00,010125,,M,,M,1,36,1.013,,M*13
$GPVTG,,T,,M,0.00,N,0.00,K,D*26
$GPHDT,,T*1B
$GPTHS,,V*0E
$GPROT,,V*08
$PSSN,HRP,223007.00,010125,,,,,,,00,0,,*65
$PTNL,AVR,223007.00,,Yaw,,Tilt,,,,0,,00*33
$GPGSA,A,3,02,03,08,10,14,21,27,32,,,,,0.7,0.4,0.6*3D
$GPGSA,A,3,68,69,70,75,76,84,85,,,,,,0.7,0.4,0.6*33
$GPGSA,A,3,07,08,13,24,26,29,31,33,,,,,0.7,0.4,0.6*31
$GPGSA,A,3,05,06,13,14,16,27,28,30,32,33,39,41,0.7,0.4,0.6*36
$GPGSA,A,3,60,,,,,,,,,,,,0.7,0.4,0.6*31
$GPGST,223007.00,1.981,0.425,0.350,29.603,0.408,0.370,0.851*6D
$GPGBS,223007.00,2.488,2.399,5.123,68,0.0001,6.385,6.156*5A
$GPGRS,223007.00,1,-0.0,-0.3,-0.1,-0.0,0.1,-0.1,0.2,0.2,,,,*65
$GPGRS,223007.00,1,6.4,1.8,-2.4,-1.5,-5.5,-1.3,4.0,,,,,*6B
$GPGRS,223007.00,1,-0.0,0.0,0.6,-1.2,0.0,0.3,-0.1,0.6,,,,*66
$GPGRS,223007.00,1,1.7,0.4,0.3,-0.2,1.5,0.6,0.1,0.5,-0.7,-0.5,-1.3,0.1*4E
$GPGRS,223007.00,1,-1.8,,,,,,,,,,,*40
$GPGSV,5,1,19,21,70,307,46,03,14,233,40,14,15,313,41,10,40,054,47*75
$GPGSV,5,2,19,27,33,163,45,32,46,101,49,08,61,198,50,02,48,295,48*7E
$GPGSV,5,3,19,23,00,055,29,24,02,027,,36,35,170,45,58,13,245,38*7F
$GPGSV,5,4,19,57,12,107,38,49,34,195,44,40,24,132,35,34,31,208,43*77
$GPGSV,5,5,19,41,07,108,34,61,03,257,38*72
$GLGSV,2,1,08,84,72,051,40,76,13,336,46,75,12,280,43,70,18,193,37*6D
$GLGSV,2,2,08,83,16,112,34,68,36,038,49,85,36,315,49,69,69,120,52*6F
$GAGSV,3,1,09,26,75,050,48,29,17,168,39,13,25,091,42,31,28,283,43*69
$GAGSV,3,2,09,23,20,229,,07,43,113,45,08,27,050,42,33,45,291,46*6F
$GAGSV,3,3,09,24,09,332,38*57
$GBGSV,6,1,24,27,82,286,51,20,12,196,,60,11,109,40,32,20,204,43*6A
$GBGSV,6,2,24,39,12,072,40,05,24,128,38,14,20,044,41,29,23,299,*68
$GBGSV,6,3,24,13,15,056,39,30,30,304,46,33,44,055,48,28,49,128,49*6F
$GBGSV,6,4,24,41,67,156,51,57,64,270,,31,09,080,,08,06,054,34*63
$GBGSV,6,5,24,02,09,105,34,36,02,296,38,09,01,093,,16,08,081,38*68
$GBGSV,6,6,24,45,01,340,,26,01,344,,58,01,242,,06,07,084,36*6C
$GPGGA,223007.00,,,,,0,00,,,M,,M,,*4C
$PTNL,GGK,223007.00,010125,4742.1600909,N,01618.1004949,E,1,36,0.7,EHT751.5304,M*40
$GPGGQ,223007.00,010125,4742.1600909,N,01618.1004949,E,1,36,1.013,708.3238,M*3E
$GPGFA,223007.00,4.043,6.977,0.425,0.350,29.603,0.851,,VVV*3C
$GPLLK,223007.00,010125,,M,,M,1,36,0.8,,M*02
$GNGMP,223007.00,,,,,DAAA,36,0.4,,,,*53
$GPGMP,223007.00,,,,,,08,,,,3.4,136*72
$GLGMP,223007.00,,,,,,07,,,,,*7C
$GAGMP,223007.00,,,,,,08,,,,,*7E
$GBGMP,223007.00,,,,,,13,,,,,*77
$PSSN,SNC,[0,340225000,2347]*46
$GPZDA,223012.00,01,01,2025,,*63
$GPDTM,W84,,00.0000000,N,00.0000000,E,00.0000000,W84*5F
$PSSN,TFM,223012.00,,,,*6F
$GPRMC,223012.00,A,4742.1600879,N,01618.1004953,E,0.0,,010125,5.1,E,D*1D
$GPGLL,4742.1600879,N,01618.1004953,E,223012.00,A,D*6C
$GPGGA,223012.00,4742.1600879,N,01618.1004953,E,2,36,0.4,708.3223,M,43.2066,M,1.9,0136*46
$GNGNS,223012.00,4742.1600879,N,01618.1004953,E,DAAA,36,0.4,708.3223,43.2066,,*56
$GPGNS,223012.00,,,,,,08,,,,1.9,136*79
$GLGNS,223012.00,,,,,,07,,,,,*78
$GAGNS,223012.00,,,,,,08,,,,,*7A
$GBGNS,223012.00,,,,,,13,,,,,*73
$GPLLQ,223012.00,010125,,M,,M,1,36,1.014,,M*10
$GPVTG,,T,,M,0.00,N,0.01,K,D*27
$GPHDT,,T*1B
$GPTHS,,V*0E
$GPROT,,V*08
$PSSN,HRP,223012.00,010125,,,,,,,00,0,,*61
$PTNL,AVR,223012.00,,Yaw,,Tilt,,,,0,,00*37
$GPGSA,A,3,02,03,08,10,14,21,27,32,,,,,0.7,0.4,0.6*3D
$GPGSA,A,3,68,69,70,75,76,84,85,,,,,,0.7,0.4,0.6*33
$GPGSA,A,3,07,08,13,24,26,29,31,33,,,,,0.7,0.4,0.6*31
$GPGSA,A,3,05,06,13,14,16,27,28,30,32,33,39,41,0.7,0.4,0.6*36
$GPGSA,A,3,60,,,,,,,,,,,,0.7,0.4,0.6*31
$GPGST,223012.00,1.693,0.423,0.352,29.177,0.407,0.370,0.852*69
$GPGBS,223012.00,2.377,2.400,4.930,68,0.0001,5.933,6.156*51
$GPGRS,223012.00,1,0.1,-0.9,-0.0,-0.2,0.1,0.0,-0.2,0.2,,,,*45
$GPGRS,223012.00,1,5.9,0.9,-2.0,-1.2,-3.6,-1.5,2.6,,,,,*61
$GPGRS,223012.00,1,0.3,0.0,1.0,-1.3,0.3,0.6,0.1,0.7,,,,*60
$GPGRS,223012.00,1,1.8,-0.5,-0.1,1.6,2.1,0.8,0.4,0.9,-0.6,-0.7,-0.7,0.4*6D
$GPGRS,223012.00,1,-1.3,,,,,,,,,,,*4F
$GPGSV,5,1,19,21,70,307,46,03,14,233,40,14,15,313,39,10,40,054,47*7A
$GPGSV,5,2,19,27,33,163,45,32,46,101,49,08,61,198,50,02,48,295,48*7E
$GPGSV,5,3,19,23,00,055,31,24,02,027,,36,35,170,45,58,13,245,38*76
$GPGSV,5,4,19,57,12,107,38,49,34,195,44,40,24,132,35,34,31,208,43*77
$GPGSV,5,5,19,41,07,108,34,61,03,257,38*72
$GLGSV,2,1,08,84,72,051,39,76,13,336,46,75,12,280,43,70,18,193,37*63
$GLGSV,2,2,08,83,16,112,34,68,36,038,49,85,36,315,49,69,69,120,52*6F
$GAGSV,3,1,09,26,75,050,48,29,17,168,40,13,25,091,42,31,28,283,43*67
$GAGSV,3,2,09,23,20,229,,07,43,113,46,08,27,050,42,33,45,291,46*6C
$GAGSV,3,3,09,24,09,332,38*57
$GBGSV,6,1,24,27,82,286,51,20,12,196,,60,11,109,40,32,20,204,43*6A
$GBGSV,6,2,24,39,12,072,40,05,24,128,38,14,20,044,41,29,23,299,*68
$GBGSV,6,3,24,13,15,056,39,30,30,304,46,33,44,055,48,28,49,129,49*6E
$GBGSV,6,4,24,41,67,156,51,57,64,270,,31,09,080,,08,06,054,34*63
$GBGSV,6,5,24,02,09,105,33,36,02,296,37,09,01,093,,16,08,081,37*6F
$GBGSV,6,6,24,45,01,340,,26,01,344,,58,01,242,,06,07,084,36*6C
$GPGGA,223012.00,,,,,0,00,,,M,,M,,*48
$PTNL,GGK,223012.00,010125,4742.1600879,N,01618.1004953,E,1,36,0.7,EHT751.5288,M*4C
$GPGGQ,223012.00,010125,4742.1600879,N,01618.1004953,E,1,36,1.014,708.3223,M*3A
$GPGFA,223012.00,4.025,6.986,0.423,0.352,29.177,0.852,,VVV*35
$GPLLK,223012.00,010125,,M,,M,1,36,0.8,,M*06
$GNGMP,223012.00,,,,,DAAA,36,0.4,,,,*57
$GPGMP,223012.00,,,,,,08,,,,1.9,136*79
$GLGMP,223012.00,,,,,,07,,,,,*78
$GAGMP,223012.00,,,,,,08,,,,,*7A
$GBGMP,223012.00,,,,,,13,,,,,*73
$PSSN,SNC,[0,340230000,2347]*42
$GPZDA,223017.00,01,01,2025,,*66
$GPDTM,W84,,00.0000000,N,00.0000000,E,00.0000000,W84*5F
$PSSN,TFM,223017.00,,,,*6A
$GPRMC,223017.00,A,4742.1600871,N,01618.1004931,E,0.0,,010125,5.1,E,D*14
$GPGLL,4742.1600871,N,01618.1004931,E,223017.00,A,D*65
$GPGGA,223017.00,4742.1600871,N,01618.1004931,E,2,36,0.4,708.3135,M,43.2066,M,2.4,0136*45
$GNGNS,223017.00,4742.1600871,N,01618.1004931,E,DAAA,36,0.4,708.3135,43.2066,,*5B
$GPGNS,223017.00,,,,,,08,,,,2.4,136*72
$GLGNS,223017.00,,,,,,07,,,,,*7D
$GAGNS,223017.00,,,,,,08,,,,,*7F
$GBGNS,223017.00,,,,,,13,,,,,*76
$GPLLQ,223017.00,010125,,M,,M,1,36,1.005,,M*15
$GPVTG,,T,,M,0.01,N,0.01,K,D*26
$GPHDT,,T*1B
$GPTHS,,V*0E
$GPROT,,V*08
$PSSN,HRP,223017.00,010125,,,,,,,00,0,,*64
$PTNL,AVR,223017.00,,Yaw,,Tilt,,,,0,,00*32
$GPGSA,A,3,02,03,08,10,14,21,27,32,,,,,0.7,0.4,0.6*3D
$GPGSA,A,3,68,69,70,75,76,84,85,,,,,,0.7,0.4,0.6*33
$GPGSA,A,3,07,08,13,24,26,29,31,33,,,,,0.7,0.4,0.6*31
$GPGSA,A,3,05,06,13,14,16,27,28,30,32,33,39,41,0.7,0.4,0.6*36
$GPGSA,A,3,60,,,,,,,,,,,,0.7,0.4,0.6*31
$GPGST,223017.00,1.692,0.416,0.348,27.240,0.403,0.363,0.846*6A
$GPGBS,223017.00,2.410,2.350,4.982,68,0.0001,5.845,6.157*58
$GPGRS,223017.00,1,-0.1,-0.1,0.1,-0.1,-0.2,0.1,0.1,0.2,,,,*4B
$GPGRS,223017.00,1,5.8,1.0,-2.2,-0.7,-3.9,-1.6,2.4,,,,,*65
$GPGRS,223017.00,1,0.2,0.1,0.5,-1.0,0.3,0.6,0.3,0.6,,,,*61
$GPGRS,223017.00,1,1.6,0.1,0.3,1.8,2.0,0.8,0.3,0.9,-0.4,-0.6,-1.0,0.2*6B
$GPGRS,223017.00,1,-1.9,,,,,,,,,,,*40
$GPGSV,5,1,19,21,70,307,45,03,14,233,41,14,15,313,40,10,40,054,47*76
$GPGSV,5,2,19,27,33,163,45,32,46,101,49,08,61,198,50,02,48,295,47*71
$GPGSV,5,3,19,23,00,055,28,24,02,027,,36,35,170,45,58,13,245,38*7E
$GPGSV,5,4,19,57,12,107,38,49,34,195,44,40,24,132,35,34,31,208,42*76
$GPGSV,5,5,19,41,07,108,34,61,03,257,38*72
$GLGSV,2,1,08,84,72,051,40,76,13,336,45,75,12,280,44,70,18,193,36*68
$GLGSV,2,2,08,83,16,112,35,68,36,038,49,85,37,315,49,69,69,120,52*6F
$GAGSV,3,1,09,26,75,050,48,29,17,168,40,13,25,091,42,31,28,283,43*67
$GAGSV,3,2,09,23,20,229,,07,43,113,45,08,27,049,42,33,45,291,46*67
$GAGSV,3,3,09,24,09,332,38*57
$GBGSV,6,1,24,27,82,286,51,20,12,196,,60,11,109,40,32,20,204,43*6A
$GBGSV,6,2,24,39,12,072,40,05,24,128,38,14,20,044,41,29,23,299,*68
$GBGSV,6,3,24,13,15,056,39,30,30,304,46,33,44,055,48,28,48,129,49*6F
$GBGSV,6,4,24,41,67,156,51,57,64,270,,31,09,080,,08,06,054,35*62
$GBGSV,6,5,24,02,09,105,34,36,02,296,37,09,01,093,,16,08,081,37*68
$GBGSV,6,6,24,45,01,340,,26,01,344,,58,01,242,,06,07,084,36*6C
$GPGGA,223017.00,,,,,0,00,,,M,,M,,*4D
$PTNL,GGK,223017.00,010125,4742.1600871,N,01618.1004931,E,1,36,0.7,EHT751.5200,M*45
$GPGGQ,223017.00,010125,4742.1600871,N,01618.1004931,E,1,36,1.005,708.3135,M*37
$GPGFA,223017.00,3.957,6.937,0.416,0.348,27.240,0.846,,VVV*30
$GPLLK,223017.00,010125,,M,,M,1,36,0.8,,M*03
$GNGMP,223017.00,,,,,DAAA,36,0.4,,,,*52
$GPGMP,223017.00,,,,,,08,,,,2.4,136*72
$GLGMP,223017.00,,,,,,07,,,,,*7D
$GAGMP,223017.00,,,,,,08,,,,,*7F
$GBGMP,223017.00,,,,,,13,,,,,*76
$PSSN,SNC,[0,340235000,2347]*47
$GPZDA,223022.00,01,01,2025,,*60
$GPDTM,W84,,00.0000000,N,00.0000000,E,00.0000000,W84*5F
$PSSN,TFM,223022.00,,,,*6C
$GPRMC,223022.00,A,4742.1600882,N,01618.1004901,E,0.0,,010125,5.1,E,D*1D
$GPGLL,4742.1600882,N,01618.1004901,E,223022.00,A,D*6C
$GPGGA,223022.00,4742.1600882,N,01618.1004901,E,2,37,0.4,708.3163,M,43.2066,M,2.4,0136*4E
$GNGNS,223022.00,4742.1600882,N,01618.1004901,E,DAAA,37,0.4,708.3163,43.2066,,*50
$GPGNS,223022.00,,,,,,08,,,,2.4,136*74
$GLGNS,223022.00,,,,,,07,,,,,*7B
$GAGNS,223022.00,,,,,,08,,,,,*79
$GBGNS,223022.00,,,,,,14,,,,,*77
$GPLLQ,223022.00,010125,,M,,M,1,37,1.011,,M*17
$GPVTG,,T,,M,0.00,N,0.00,K,D*26
$GPHDT,,T*1B
$GPTHS,,V*0E
$GPROT,,V*08
$PSSN,HRP,223022.00,010125,,,,,,,00,0,,*62
$PTNL,AVR,223022.00,,Yaw,,Tilt,,,,0,,00*34
$GPGSA,A,3,02,03,08,10,14,21,27,32,,,,,0.7,0.4,0.6*3D
$GPGSA,A,3,68,69,70,75,76,84,85,,,,,,0.7,0.4,0.6*33
$GPGSA,A,3,07,08,13,24,26,29,31,33,,,,,0.7,0.4,0.6*31
$GPGSA,A,3,05,06,08,13,14,16,27,28,30,32,33,39,0.7,0.4,0.6*3B
$GPGSA,A,3,41,60,,,,,,,,,,,0.7,0.4,0.6*34
$GPGST,223022.00,1.837,0.421,0.349,26.604,0.407,0.364,0.850*69
$GPGBS,223022.00,2.441,2.368,5.040,68,0.0001,5.849,6.157*5B
$GPGRS,223022.00,1,-0.3,0.7,-0.1,-0.2,0.6,0.0,0.3,-0.1,,,,*4E
$GPGRS,223022.00,1,5.8,1.0,-2.5,-0.9,-5.5,-1.0,2.6,,,,,*64
$GPGRS,223022.00,1,0.3,0.4,0.3,-1.1,0.1,-0.0,-0.1,0.4,,,,*60
$GPGRS,223022.00,1,1.4,0.4,-2.1,-0.3,1.0,2.0,0.6,-0.0,0.8,0.2,-0.7,-1.1*69
$GPGRS,223022.00,1,0.1,-2.2,,,,,,,,,,*61
$GPGSV,5,1,19,21,70,307,46,03,14,233,41,14,15,313,40,10,40,054,47*75
$GPGSV,5,2,19,27,33,163,45,32,46,101,49,08,61,198,50,02,48,295,47*71
$GPGSV,5,3,19,23,00,055,32,24,02,027,,36,35,170,45,58,13,245,38*75
$GPGSV,5,4,19,57,12,107,37,49,34,195,44,40,24,132,35,34,31,208,43*78
$GPGSV,5,5,19,41,07,108,34,61,03,257,38*72
$GLGSV,2,1,08,84,72,051,40,76,13,336,44,75,12,280,45,70,18,193,37*69
$GLGSV,2,2,08,83,16,112,35,68,36,038,49,85,37,315,49,69,69,120,52*6F
$GAGSV,3,1,09,26,75,050,48,29,17,168,40,13,25,091,42,31,28,283,43*67
$GAGSV,3,2,09,23,20,229,,07,43,113,46,08,27,049,42,33,45,291,46*64
$GAGSV,3,3,09,24,09,332,37*58
$GBGSV,6,1,24,27,82,286,51,20,12,196,,60,11,109,40,32,20,204,43*6A
$GBGSV,6,2,24,39,12,072,39,05,24,128,38,14,20,044,41,29,23,300,*67
$GBGSV,6,3,24,13,15,056,39,30,30,304,46,33,44,055,48,28,48,129,49*6F
$GBGSV,6,4,24,41,67,156,51,57,64,270,,31,09,080,,08,06,054,35*62
$GBGSV,6,5,24,02,09,105,34,36,02,296,35,09,01,093,,16,08,081,37*6A
$GBGSV,6,6,24,45,01,340,,26,01,344,,58,01,242,,06,07,084,36*6C
$GPGGA,223022.00,,,,,0,00,,,M,,M,,*4B
$PTNL,GGK,223022.00,010125,4742.1600882,N,01618.1004901,E,1,37,0.7,EHT751.5228,M*47
$GPGGQ,223022.00,010125,4742.1600882,N,01618.1004901,E,1,37,1.011,708.3163,M*39
$GPGFA,223022.00,3.999,6.974,0.421,0.349,26.604,0.850,,VVV*34
$GPLLK,223022.00,010125,,M,,M,1,37,0.8,,M*04
$GNGMP,223022.00,,,,,DAAA,37,0.4,,,,*55
$GPGMP,223022.00,,,,,,08,,,,2.4,136*74
$GLGMP,223022.00,,,,,,07,,,,,*7B
$GAGMP,223022.00,,,,,,08,,,,,*79
$GBGMP,223022.00,,,,,,14,,,,,*77
$PSSN,SNC,[0,340240000,2347]*45
$GPZDA,223027.00,01,01,2025,,*65
$GPDTM,W84,,00.0000000,N,00.0000000,E,00.0000000,W84*5F
$PSSN,TFM,223027.00,,,,*69
$GPRMC,223027.00,A,4742.1600894,N,01618.1004919,E,0.0,,010125,5.1,E,D*16
$GPGLL,4742.1600894,N,01618.1004919,E,223027.00,A,D*67
$GPGGA,223027.00,4742.1600894,N,01618.1004919,E,2,38,0.4,708.3188,M,43.2066,M,3.4,0136*4E
$GNGNS,223027.00,4742.1600894,N,01618.1004919,E,DAAA,38,0.4,708.3188,43.2066,,*51
$GPGNS,223027.00,,,,,,08,,,,3.4,136*70
$GLGNS,223027.00,,,,,,08,,,,,*71
$GAGNS,223027.00,,,,,,08,,,,,*7C
$GBGNS,223027.00,,,,,,14,,,,,*72
$GPLLQ,223027.00,010125,,M,,M,1,38,1.012,,M*1E
$GPVTG,,T,,M,0.00,N,0.00,K,D*26
$GPHDT,,T*1B
$GPTHS,,V*0E
$GPROT,,V*08
$PSSN,HRP,223027.00,010125,,,,,,,00,0,,*67
$PTNL,AVR,223027.00,,Yaw,,Tilt,,,,0,,00*31
$GPGSA,A,3,02,03,08,10,14,21,27,32,,,,,0.7,0.4,0.6*3D
$GPGSA,A,3,68,69,70,75,76,83,84,85,,,,,0.7,0.4,0.6*38
$GPGSA,A,3,07,08,13,24,26,29,31,33,,,,,0.7,0.4,0.6*31
$GPGSA,A,3,05,06,08,13,14,16,27,28,30,32,33,39,0.7,0.4,0.6*3B
$GPGSA,A,3,41,60,,,,,,,,,,,0.7,0.4,0.6*34
$GPGST,223027.00,1.752,0.425,0.349,28.810,0.409,0.368,0.849*6B
$GPGBS,223027.00,2.478,2.384,5.119,76,0.0001,-6.197,6.319*78
$GPGRS,223027.00,1,-0.1,0.1,0.1,-0.2,0.3,-0.1,-0.0,0.1,,,,*48
$GPGRS,223027.00,1,5.6,0.9,-1.2,-0.7,-6.2,-1.3,-1.7,2.0,,,,*69
$GPGRS,223027.00,1,0.3,0.4,0.5,-0.9,0.2,-0.4,-0.0,0.4,,,,*6C
$GPGRS,223027.00,1,1.3,0.0,-1.1,-0.2,0.0,2.0,0.6,-0.0,0.7,-0.1,-0.5,-1.0*4E
$GPGRS,223027.00,1,0.1,-1.7,,,,,,,,,,*62
$GPGSV,5,1,19,21,70,307,46,03,14,233,40,14,15,313,40,10,40,054,47*74
$GPGSV,5,2,19,27,33,163,46,32,46,101,49,08,61,198,50,02,48,295,47*72
$GPGSV,5,3,19,23,00,055,28,24,02,026,,36,35,170,44,58,13,245,38*7E
$GPGSV,5,4,19,57,12,107,37,49,34,195,44,40,24,132,35,34,31,208,42*79
$GPGSV,5,5,19,41,07,108,34,61,03,257,38*72
$GLGSV,2,1,08,84,72,051,39,76,13,336,45,75,12,280,44,70,18,193,37*67
$GLGSV,2,2,08,83,16,112,35,68,36,037,49,85,37,315,49,69,69,120,52*60
$GAGSV,3,1,09,26,75,050,48,29,17,168,40,13,25,091,42,31,28,283,43*67
$GAGSV,3,2,09,23,20,229,,07,43,113,46,08,27,049,42,33,45,291,46*64
$GAGSV,3,3,09,24,09,332,37*58
$GBGSV,6,1,24,27,82,286,51,20,12,196,,60,11,109,40,32,20,204,43*6A
$GBGSV,6,2,24,39,12,072,39,05,24,128,38,14,20,044,40,29,23,300,*66
$GBGSV,6,3,24,13,15,056,39,30,30,304,46,33,44,055,48,28,48,129,48*6E
$GBGSV,6,4,24,41,67,156,51,57,64,270,,31,09,080,,08,06,054,35*62
$GBGSV,6,5,24,02,09,105,34,36,02,296,35,09,01,093,,16,08,081,37*6A
$GBGSV,6,6,24,45,01,340,,26,01,344,,58,01,242,,06,07,084,36*6C
$GPGGA,223027.00,,,,,0,00,,,M,,M,,*4E
$PTNL,GGK,223027.00,010125,4742.1600894,N,01618.1004919,E,1,38,0.7,EHT751.5253,M*4F
$GPGGQ,223027.00,010125,4742.1600894,N,01618.1004919,E,1,38,1.012,708.3188,M*3B
$GPGFA,223027.00,4.044,6.966,0.425,0.349,28.810,0.849,,VVV*35
$GPLLK,223027.00,010125,,M,,M,1,38,0.8,,M*0E
$GNGMP,223027.00,,,,,DAAA,38,0.4,,,,*5F
$GPGMP,223027.00,,,,,,08,,,,3.4,136*70
$GLGMP,223027.00,,,,,,08,,,,,*71
$GAGMP,223027.00,,,,,,08,,,,,*7C
$GBGMP,223027.00,,,,,,14,,,,,*72
$PSSN,SNC,[0,340245000,2347]*40
$GPZDA,223032.00,01,01,2025,,*61
$GPDTM,W84,,00.0000000,N,00.0000000,E,00.0000000,W84*5F
$PSSN,TFM,223032.00,,,,*6D
$GPRMC,223032.00,A,4742.1600902,N,01618.1004925,E,0.0,,010125,5.1,E,D*13
$GPGLL,4742.1600902,N,01618.1004925,E,223032.00,A,D*62
$GPGGA,223032.00,4742.1600902,N,01618.1004925,E,2,36,0.4,708.3177,M,43.2066,M,1.9,0136*4A
$GNGNS,223032.00,4742.1600902,N,01618.1004925,E,DAAA,36,0.4,708.3177,43.2066,,*5A
$GPGNS,223032.00,,,,,,08,,,,1.9,136*7B
$GLGNS,223032.00,,,,,,07,,,,,*7A
$GAGNS,223032.00,,,,,,08,,,,,*78
$GBGNS,223032.00,,,,,,13,,,,,*71
$GPLLQ,223032.00,010125,,M,,M,1,36,1.013,,M*15
$GPVTG,,T,,M,0.00,N,0.01,K,D*27
$GPHDT,,T*1B
$GPTHS,,V*0E
$GPROT,,V*08
$PSSN,HRP,223032.00,010125,,,,,,,00,0,,*63
$PTNL,AVR,223032.00,,Yaw,,Tilt,,,,0,,00*35
$GPGSA,A,3,02,03,08,10,14,21,27,32,,,,,0.7,0.4,0.6*3D
$GPGSA,A,3,68,69,70,75,76,84,85,,,,,,0.7,0.4,0.6*33
$GPGSA,A,3,07,08,13,24,26,29,31,33,,,,,0.7,0.4,0.6*31
$GPGSA,A,3,05,06,13,14,16,27,28,30,32,33,39,41,0.7,0.4,0.6*36
$GPGSA,A,3,60,,,,,,,,,,,,0.7,0.4,0.6*31
$GPGST,223032.00,1.762,0.423,0.352,28.416,0.408,0.369,0.851*63
$GPGBS,223032.00,2.373,2.399,4.928,68,0.0001,5.800,6.157*59
$GPGRS,223032.00,1,0.0,-0.5,0.1,-0.0,0.3,-0.1,-0.2,-0.0,,,,*65
$GPGRS,223032.00,1,5.8,0.8,-2.7,-1.5,-4.6,-2.1,2.3,,,,,*66
$GPGRS,223032.00,1,0.4,0.4,0.1,-1.0,0.2,-0.1,0.3,0.4,,,,*48
$GPGRS,223032.00,1,2.0,-0.0,0.3,-0.5,2.2,0.5,0.0,0.3,-0.4,-0.8,-0.7,-0.1*44
$GPGRS,223032.00,1,-1.6,,,,,,,,,,,*48
$GPGSV,5,1,19,21,71,307,45,03,14,233,40,14,15,313,39,10,40,054,47*78
$GPGSV,5,2,19,27,33,163,45,32,46,101,49,08,61,198,50,02,49,295,47*70
$GPGSV,5,3,19,23,00,055,28,24,02,026,,36,35,170,45,58,13,245,38*7F
$GPGSV,5,4,19,57,12,107,37,49,34,195,44,40,24,132,35,34,31,208,42*79
$GPGSV,5,5,19,41,07,108,34,61,03,257,38*72
$GLGSV,2,1,08,84,72,051,39,76,13,336,45,75,12,279,44,70,18,193,37*61
$GLGSV,2,2,08,83,16,112,35,68,36,037,49,85,37,315,49,69,69,120,52*60
$GAGSV,3,1,09,26,75,050,48,29,17,168,39,13,25,091,41,31,28,283,43*6A
$GAGSV,3,2,09,23,19,229,,07,43,113,46,08,27,049,42,33,45,291,46*6E
$GAGSV,3,3,09,24,09,332,38*57
$GBGSV,6,1,24,27,82,285,51,20,12,196,,60,11,109,40,32,20,204,42*68
$GBGSV,6,2,24,39,12,072,39,05,24,128,38,14,20,044,40,29,23,300,*66
$GBGSV,6,3,24,13,15,056,39,30,30,304,46,33,44,055,48,28,48,129,48*6E
$GBGSV,6,4,24,41,67,156,51,57,64,270,,31,09,080,,08,06,054,35*62
$GBGSV,6,5,24,02,09,105,33,36,02,296,35,09,02,093,,16,08,081,37*6E
$GBGSV,6,6,24,45,01,340,,26,01,344,,58,01,242,,06,07,084,36*6C
$GPGGA,223032.00,,,,,0,00,,,M,,M,,*4A
$PTNL,GGK,223032.00,010125,4742.1600902,N,01618.1004925,E,1,36,0.7,EHT751.5242,M*44
$GPGGQ,223032.00,010125,4742.1600902,N,01618.1004925,E,1,36,1.013,708.3177,M*31
$GPGFA,223032.00,4.024,6.977,0.423,0.352,28.416,0.851,,VVV*38
$GPLLK,223032.00,010125,,M,,M,1,36,0.8,,M*04
$GNGMP,223032.00,,,,,DAAA,36,0.4,,,,*55
$GPGMP,223032.00,,,,,,08,,,,1.9,136*7B
$GLGMP,223032.00,,,,,,07,,,,,*7A
$GAGMP,223032.00,,,,,,08,,,,,*78
$GBGMP,223032.00,,,,,,13,,,,,*71
$PSSN,SNC,[0,340250000,2347]*44
$GPZDA,223037.00,01,01,2025,,*64
$GPDTM,W84,,00.0000000,N,00.0000000,E,00.0000000,W84*5F
$PSSN,TFM,223037.00,,,,*68
$GPRMC,223037.00,A,4742.1600877,N,01618.1004927,E,0.0,,010125,5.1,E,D*17
$GPGLL,4742.1600877,N,01618.1004927,E,223037.00,A,D*66
$GPGGA,223037.00,4742.1600877,N,01618.1004927,E,2,38,0.4,708.3197,M,43.2066,M,2.4,0136*40
$GNGNS,223037.00,4742.1600877,N,01618.1004927,E,DAAA,38,0.4,708.3197,43.2066,,*5E
$GPGNS,223037.00,,,,,,08,,,,2.4,136*70
$GLGNS,223037.00,,,,,,08,,,,,*70
$GAGNS,223037.00,,,,,,08,,,,,*7D
$GBGNS,223037.00,,,,,,14,,,,,*73
$GPLLQ,223037.00,010125,,M,,M,1,38,1.003,,M*1F
$GPVTG,,T,,M,0.00,N,0.00,K,D*26
$GPHDT,,T*1B
$GPTHS,,V*0E
$GPROT,,V*08
$PSSN,HRP,223037.00,010125,,,,,,,00,0,,*66
$PTNL,AVR,223037.00,,Yaw,,Tilt,,,,0,,00*30
$GPGSA,A,3,02,03,08,10,14,21,27,32,,,,,0.7,0.4,0.6*3D
$GPGSA,A,3,68,69,70,75,76,83,84,85,,,,,0.7,0.4,0.6*38
$GPGSA,A,3,07,08,13,24,26,29,31,33,,,,,0.7,0.4,0.6*31
$GPGSA,A,3,05,06,08,13,14,16,27,28,30,32,33,39,0.7,0.4,0.6*3B
$GPGSA,A,3,41,60,,,,,,,,,,,0.7,0.4,0.6*34
$GPGST,223037.00,1.695,0.416,0.347,26.499,0.403,0.362,0.844*60
$GPGBS,223037.00,2.397,2.336,4.980,68,0.0001,5.882,6.157*5B
$GPGRS,223037.00,1,-0.2,-0.1,0.2,0.0,0.4,-0.1,-0.4,0.0,,,,*49
$GPGRS,223037.00,1,5.9,0.4,-1.5,-1.1,-4.7,-1.3,-1.8,2.6,,,,*64
$GPGRS,223037.00,1,0.2,0.3,0.2,-0.7,0.2,0.4,0.1,0.5,,,,*62
$GPGRS,223037.00,1,2.0,0.3,-1.1,-0.0,-0.0,2.5,0.6,0.3,0.5,0.2,-0.4,-0.4*60
$GPGRS,223037.00,1,0.0,-1.8,,,,,,,,,,*6D
$GPGSV,5,1,19,21,71,307,45,03,14,233,40,14,15,313,40,10,40,054,47*76
$GPGSV,5,2,19,27,33,163,44,32,46,101,49,08,61,198,49,02,49,295,47*79
$GPGSV,5,3,19,23,00,055,28,24,02,026,,36,35,170,45,58,13,245,38*7F
$GPGSV,5,4,19,57,12,107,37,49,34,195,44,40,24,132,36,34,31,208,43*7B
$GPGSV,5,5,19,41,07,108,34,61,03,257,38*72
$GLGSV,2,1,08,84,72,052,39,76,13,336,46,75,12,279,43,70,19,193,37*67
$GLGSV,2,2,08,83,16,112,36,68,36,037,49,85,37,315,50,69,69,119,52*61
$GAGSV,3,1,09,26,75,050,48,29,17,168,40,13,25,091,42,31,28,283,43*67
$GAGSV,3,2,09,23,19,229,,08,27,049,42,07,43,113,46,33,45,291,46*6E
$GAGSV,3,3,09,24,09,332,38*57
$GBGSV,6,1,24,27,82,285,51,20,12,196,,60,11,109,40,32,20,204,43*69
$GBGSV,6,2,24,39,12,072,39,05,24,128,38,14,20,044,40,29,23,300,*66
$GBGSV,6,3,24,13,15,056,39,30,30,304,46,33,44,055,48,28,48,129,49*6F
$GBGSV,6,4,24,41,67,156,51,57,64,270,,31,09,080,,08,06,054,35*62
$GBGSV,6,5,24,02,09,105,34,36,02,296,37,09,02,093,,16,08,081,37*6B
$GBGSV,6,6,24,45,01,340,,26,01,344,,58,01,242,,06,07,084,36*6C
$GPGGA,223037.00,,,,,0,00,,,M,,M,,*4F
$PTNL,GGK,223037.00,010125,4742.1600877,N,01618.1004927,E,1,38,0.7,EHT751.5263,M*4D
$GPGGQ,223037.00,010125,4742.1600877,N,01618.1004927,E,1,38,1.003,708.3197,M*34
$GPGFA,223037.00,3.957,6.922,0.416,0.347,26.499,0.844,,VVV*38
$GPLLK,223037.00,010125,,M,,M,1,38,0.8,,M*0F
$GNGMP,223037.00,,,,,DAAA,38,0.4,,,,*5E
$GPGMP,223037.00,,,,,,08,,,,2.4,136*70
$GLGMP,223037.00,,,,,,08,,,,,*70
$GAGMP,223037.00,,,,,,08,,,,,*7D
$GBGMP,223037.00,,,,,,14,,,,,*73
$PSSN,SNC,[0,340255000,2347]*41
$GPZDA,223042.00,01,01,2025,,*66
$GPDTM,W84,,00.0000000,N,00.0000000,E,00.0000000,W84*5F
$PSSN,TFM,223042.00,,,,*6A
$GPRMC,223042.00,A,4742.1600858,N,01618.1004954,E,0.0,,010125,5.1,E,D*1C
$GPGLL,4742.1600858,N,01618.1004954,E,223042.00,A,D*6D
$GPGGA,223042.00,4742.1600858,N,01618.1004954,E,2,38,0.4,708.3200,M,43.2066,M,2.4,0136*46
$GNGNS,223042.00,4742.1600858,N,01618.1004954,E,DAAA,38,0.4,708.3200,43.2066,,*58
$GPGNS,223042.00,,,,,,08,,,,2.4,136*72
$GLGNS,223042.00,,,,,,08,,,,,*72
$GAGNS,223042.00,,,,,,08,,,,,*7F
$GBGNS,223042.00,,,,,,14,,,,,*71
$GPLLQ,223042.00,010125,,M,,M,1,38,1.008,,M*16
$GPVTG,,T,,M,0.00,N,0.01,K,D*27
$GPHDT,,T*1B
$GPTHS,,V*0E
$GPROT,,V*08
$PSSN,HRP,223042.00,010125,,,,,,,00,0,,*64
$PTNL,AVR,223042.00,,Yaw,,Tilt,,,,0,,00*32
$GPGSA,A,3,02,03,08,10,14,21,27,32,,,,,0.7,0.4,0.6*3D
$GPGSA,A,3,68,69,70,75,76,83,84,85,,,,,0.7,0.4,0.6*38
$GPGSA,A,3,07,08,13,24,26,29,31,33,,,,,0.7,0.4,0.6*31
$GPGSA,A,3,05,06,08,13,14,16,27,28,30,32,33,39,0.7,0.4,0.6*3B
$GPGSA,A,3,41,60,,,,,,,,,,,0.7,0.4,0.6*34
$GPGST,223042.00,1.713,0.420,0.347,26.411,0.407,0.363,0.848*61
$GPGBS,223042.00,2.432,2.351,5.046,68,0.0001,5.839,6.157*52
$GPGRS,223042.00,1,0.2,-0.1,0.2,-0.2,0.5,-0.1,-0.4,-0.1,,,,*64
$GPGRS,223042.00,1,5.8,0.8,-0.7,-2.1,-5.1,-0.3,-2.1,2.7,,,,*66
$GPGRS,223042.00,1,0.2,0.4,0.5,-0.7,0.1,0.1,0.2,0.2,,,,*62
$GPGRS,223042.00,1,1.5,0.2,-0.8,0.1,-0.0,2.1,0.6,0.2,0.1,0.6,-0.5,-0.5*44
$GPGRS,223042.00,1,-0.1,-1.8,,,,,,,,,,*43
$GPGSV,5,1,19,21,71,307,45,03,14,233,39,14,15,313,40,10,40,054,46*79
$GPGSV,5,2,19,27,33,163,45,32,46,101,49,08,61,198,49,02,49,295,47*78
$GPGSV,5,3,19,23,00,055,28,24,02,026,,36,35,170,45,58,13,245,38*7F
$GPGSV,5,4,19,57,12,107,38,49,34,195,44,40,24,132,35,34,31,208,43*77
$GPGSV,5,5,19,41,07,108,34,61,03,257,38*72
$GLGSV,2,1,08,84,72,052,39,76,13,336,46,75,12,279,42,70,19,193,37*66
$GLGSV,2,2,08,83,16,112,36,68,36,037,49,85,37,315,49,69,69,119,52*69
$GAGSV,3,1,09,26,75,050,48,29,17,168,40,13,25,092,42,31,28,283,43*64
$GAGSV,3,2,09,23,19,229,,08,27,049,42,07,43,113,46,33,45,291,46*6E
$GAGSV,3,3,09,24,09,332,38*57
$GBGSV,6,1,24,27,82,285,51,20,12,196,,60,11,109,40,32,20,204,44*6E
$GBGSV,6,2,24,39,12,072,39,05,24,128,38,14,19,044,40,29,23,300,*6C
$GBGSV,6,3,24,13,15,056,39,30,30,304,45,33,44,055,48,28,48,129,49*6C
$GBGSV,6,4,24,41,67,156,51,57,64,270,,31,09,080,,08,06,054,35*62
$GBGSV,6,5,24,02,09,105,33,36,02,296,37,09,02,093,,16,08,081,37*6C
$GBGSV,6,6,24,45,01,340,,26,01,344,,58,01,242,,06,07,084,36*6C
$GPGGA,223042.00,,,,,0,00,,,M,,M,,*4D
$PTNL,GGK,223042.00,010125,4742.1600858,N,01618.1004954,E,1,38,0.7,EHT751.5265,M*40
$GPGGQ,223042.00,010125,4742.1600858,N,01618.1004954,E,1,38,1.008,708.3200,M*39
$GPGFA,223042.00,3.995,6.957,0.420,0.347,26.411,0.848,,VVV*3F
$GPLLK,223042.00,010125,,M,,M,1,38,0.8,,M*0D
$GNGMP,223042.00,,,,,DAAA,38,0.4,,,,*5C
$GPGMP,223042.00,,,,,,08,,,,2.4,136*72
$GLGMP,223042.00,,,,,,08,,,,,*72
$GAGMP,223042.00,,,,,,08,,,,,*7F
$GBGMP,223042.00,,,,,,14,,,,,*71
$PSSN,SNC,[0,340260000,2347]*47
$GPZDA,223047.00,01,01,2025,,*63
$GPDTM,W84,,00.0000000,N,00.0000000,E,00.0000000,W84*5F
$PSSN,TFM,223047.00,,,,*6F
$GPRMC,223047.00,A,4742.1600850,N,01618.1004959,E,0.0,,010125,5.1,E,D*1C
$GPGLL,4742.1600850,N,01618.1004959,E,223047.00,A,D*6D
$GPGGA,223047.00,4742.1600850,N,01618.1004959,E,2,37,0.4,708.3151,M,43.2066,M,3.4,0136*4F
$GNGNS,223047.00,4742.1600850,N,01618.1004959,E,DAAA,37,0.4,708.3151,43.2066,,*50
$GPGNS,223047.00,,,,,,08,,,,3.4,136*76
$GLGNS,223047.00,,,,,,08,,,,,*77
$GAGNS,223047.00,,,,,,08,,,,,*7A
$GBGNS,223047.00,,,,,,13,,,,,*73
$GPLLQ,223047.00,010125,,M,,M,1,37,1.012,,M*17
$GPVTG,,T,,M,0.01,N,0.01,K,D*26
$GPHDT,,T*1B
$GPTHS,,V*0E
$GPROT,,V*08
$PSSN,HRP,223047.00,010125,,,,,,,00,0,,*61
$PTNL,AVR,223047.00,,Yaw,,Tilt,,,,0,,00*37
$GPGSA,A,3,02,03,08,10,14,21,27,32,,,,,0.7,0.4,0.6*3D
$GPGSA,A,3,68,69,70,75,76,83,84,85,,,,,0.7,0.4,0.6*38
$GPGSA,A,3,07,08,13,24,26,29,31,33,,,,,0.7,0.4,0.6*31
$GPGSA,A,3,05,06,13,14,16,27,28,30,32,33,39,41,0.7,0.4,0.6*36
$GPGSA,A,3,60,,,,,,,,,,,,0.7,0.4,0.6*31
$GPGST,223047.00,1.833,0.425,0.350,28.681,0.409,0.368,0.850*63
$GPGBS,223047.00,2.476,2.385,5.127,68,0.0001,6.324,6.157*5C
$GPGRS,223047.00,1,0.1,-0.5,0.1,-0.1,-0.0,-0.0,0.2,-0.1,,,,*64
$GPGRS,223047.00,1,6.3,1.0,-1.9,-1.8,-5.0,-0.5,-2.3,2.5,,,,*60
$GPGRS,223047.00,1,0.2,0.4,0.3,-1.1,0.1,0.1,0.1,0.4,,,,*63
$GPGRS,223047.00,1,1.6,0.6,0.2,-0.0,2.4,0.6,0.1,0.4,-0.1,-0.5,-0.3,0.0*4F
$GPGRS,223047.00,1,-2.1,,,,,,,,,,,*4E
$GPGSV,5,1,19,21,71,307,45,03,15,233,39,14,15,313,40,10,40,054,47*79
$GPGSV,5,2,19,27,33,163,45,32,46,101,49,08,61,198,49,02,49,295,47*78
$GPGSV,5,3,19,23,00,055,27,24,02,026,,36,35,170,45,58,13,245,38*70
$GPGSV,5,4,19,57,12,107,37,49,34,195,44,40,24,132,36,34,31,208,43*7B
$GPGSV,5,5,19,41,07,108,34,61,03,257,38*72
$GLGSV,2,1,08,84,72,052,39,76,13,336,44,75,12,279,42,70,19,193,37*64
$GLGSV,2,2,08,83,16,112,36,68,36,037,50,85,37,315,50,69,69,119,52*69
$GAGSV,3,1,09,26,75,051,48,29,17,168,40,13,25,092,41,31,28,283,43*66
$GAGSV,3,2,09,23,19,229,,08,27,049,42,07,43,112,46,33,45,291,46*6F
$GAGSV,3,3,09,24,09,332,37*58
$GBGSV,6,1,24,27,82,285,51,20,12,196,,60,11,109,40,32,20,204,43*69
$GBGSV,6,2,24,39,12,071,40,05,24,128,38,14,19,044,40,29,23,300,*61
$GBGSV,6,3,24,13,15,056,38,30,30,304,45,33,44,055,48,28,48,129,49*6D
$GBGSV,6,4,24,41,67,156,51,57,64,270,,31,09,080,,08,06,054,35*62
$GBGSV,6,5,24,02,09,105,33,36,02,296,38,09,02,093,,16,08,081,37*63
$GBGSV,6,6,24,45,01,340,,26,01,344,,58,01,242,,06,07,084,36*6C
$GPGGA,223047.00,,,,,0,00,,,M,,M,,*48
$PTNL,GGK,223047.00,010125,4742.1600850,N,01618.1004959,E,1,37,0.7,EHT751.5217,M*4A
$GPGGQ,223047.00,010125,4742.1600850,N,01618.1004959,E,1,37,1.012,708.3151,M*3A
$GPGFA,223047.00,4.042,6.967,0.425,0.350,28.681,0.850,,VVV*32
$GPLLK,223047.00,010125,,M,,M,1,37,0.8,,M*07
$GNGMP,223047.00,,,,,DAAA,37,0.4,,,,*56
$GPGMP,223047.00,,,,,,08,,,,3.4,136*76
$GLGMP,223047.00,,,,,,08,,,,,*77
$GAGMP,223047.00,,,,,,08,,,,,*7A
$GBGMP,223047.00,,,,,,13,,,,,*73
$PSSN,SNC,[0,340265000,2347]*42
$GPZDA,223052.00,01,01,2025,,*67
$GPDTM,W84,,00.0000000,N,00.0000000,E,00.0000000,W84*5F
$PSSN,TFM,223052.00,,,,*6B
$GPRMC,223052.00,A,4742.1600870,N,01618.1004953,E,0.0,,010125,5.1,E,D*10
$GPGLL,4742.1600870,N,01618.1004953,E,223052.00,A,D*61
$GPGGA,223052.00,4742.1600870,N,01618.1004953,E,2,38,0.4,708.3124,M,43.2066,M,1.9,0136*41
$GNGNS,223052.00,4742.1600870,N,01618.1004953,E,DAAA,38,0.4,708.3124,43.2066,,*51
$GPGNS,223052.00,,,,,,08,,,,1.9,136*7D
$GLGNS,223052.00,,,,,,08,,,,,*73
$GAGNS,223052.00,,,,,,08,,,,,*7E
$GBGNS,223052.00,,,,,,14,,,,,*70
$GPLLQ,223052.00,010125,,M,,M,1,38,1.012,,M*1C
$GPVTG,,T,,M,0.00,N,0.01,K,D*27
$GPHDT,,T*1B
$GPTHS,,V*0E
$GPROT,,V*08
$PSSN,HRP,223052.00,010125,,,,,,,00,0,,*65
$PTNL,AVR,223052.00,,Yaw,,Tilt,,,,0,,00*33
$GPGSA,A,3,02,03,08,10,14,21,27,32,,,,,0.7,0.4,0.6*3D
$GPGSA,A,3,68,69,70,75,76,83,84,85,,,,,0.7,0.4,0.6*38
$GPGSA,A,3,07,08,13,24,26,29,31,33,,,,,0.7,0.4,0.6*31
$GPGSA,A,3,05,06,08,13,14,16,27,28,30,32,33,39,0.7,0.4,0.6*3B
$GPGSA,A,3,41,60,,,,,,,,,,,0.7,0.4,0.6*34
$GPGST,223052.00,1.890,0.423,0.351,28.223,0.408,0.369,0.850*65
$GPGBS,223052.00,2.362,2.381,4.926,68,0.0001,6.435,6.158*5E
$GPGRS,223052.00,1,-0.1,-0.0,0.1,0.1,-0.1,-0.2,0.2,-0.1,,,,*66
$GPGRS,223052.00,1,6.4,0.7,-2.6,-1.3,-5.9,-0.7,-1.7,2.2,,,,*69
$GPGRS,223052.00,1,0.3,0.3,0.2,-1.2,-0.1,0.4,0.3,0.7,,,,*4A
$GPGRS,223052.00,1,1.1,0.2,-1.8,-0.3,-0.1,2.0,0.5,0.2,0.9,-0.6,-0.7,-0.3*4D
$GPGRS,223052.00,1,0.1,-1.8,,,,,,,,,,*6F
$GPGSV,5,1,19,21,71,308,45,03,15,233,41,14,15,313,40,10,40,054,47*79
$GPGSV,5,2,19,27,33,163,45,32,46,101,49,08,61,198,50,02,49,295,47*70
$GPGSV,5,3,19,23,00,055,27,24,02,026,,36,35,170,45,58,13,245,38*70
$GPGSV,5,4,19,57,12,107,37,49,34,195,43,40,24,132,35,34,31,208,42*7E
$GPGSV,5,5,19,41,07,108,34,61,03,257,38*72
$GLGSV,2,1,08,84,72,052,39,76,13,336,45,75,12,279,43,70,19,193,37*64
$GLGSV,2,2,08,83,16,112,36,68,36,037,50,85,37,315,50,69,69,119,52*69
$GAGSV,3,1,09,26,75,051,48,29,17,168,40,13,25,092,40,31,28,283,43*67
$GAGSV,3,2,09,23,19,229,,08,27,049,42,07,43,112,45,33,45,291,46*6C
$GAGSV,3,3,09,24,09,331,38*54
$GBGSV,6,1,24,27,82,285,51,20,13,196,,60,11,109,40,32,20,204,43*68
$GBGSV,6,2,24,39,12,071,40,05,24,128,38,14,19,044,41,29,23,300,*60
$GBGSV,6,3,24,13,15,056,39,30,30,304,46,33,44,055,48,28,48,129,49*6F
$GBGSV,6,4,24,41,67,156,51,57,64,271,,31,09,080,,08,06,054,35*63
$GBGSV,6,5,24,02,09,105,34,36,02,296,38,09,02,093,,16,08,081,38*6B
$GBGSV,6,6,24,45,01,340,,26,01,344,,58,01,242,,06,07,084,36*6C
$GPGGA,223052.00,,,,,0,00,,,M,,M,,*4C
$PTNL,GGK,223052.00,010125,4742.1600870,N,01618.1004953,E,1,38,0.7,EHT751.5190,M*45
$GPGGQ,223052.00,010125,4742.1600870,N,01618.1004953,E,1,38,1.012,708.3124,M*3B
$GPGFA,223052.00,4.021,6.971,0.423,0.351,28.223,0.850,,VVV*3F
$GPLLK,223052.00,010125,,M,,M,1,38,0.8,,M*0C
$GNGMP,223052.00,,,,,DAAA,38,0.4,,,,*5D
$GPGMP,223052.00,,,,,,08,,,,1.9,136*7D
$GLGMP,223052.00,,,,,,08,,,,,*73
$GAGMP,223052.00,,,,,,08,,,,,*7E
$GBGMP,223052.00,,,,,,14,,,,,*70
$PSSN,SNC,[0,340270000,2347]*46
$GPZDA,223057.00,01,01,2025,,*62
$GPDTM,W84,,00.0000000,N,00.0000000,E,00.0000000,W84*5F
$PSSN,TFM,223057.00,,,,*6E
$GPRMC,223057.00,A,4742.1600880,N,01618.1004961,E,0.0,,010125,5.1,E,D*1B
$GPGLL,4742.1600880,N,01618.1004961,E,223057.00,A,D*6A
$GPGGA,223057.00,4742.1600880,N,01618.1004961,E,2,37,0.4,708.3102,M,43.2066,M,2.4,0136*4F
$GNGNS,223057.00,4742.1600880,N,01618.1004961,E,DAAA,37,0.4,708.3102,43.2066,,*51
$GPGNS,223057.00,,,,,,08,,,,2.4,136*76
$GLGNS,223057.00,,,,,,07,,,,,*79
$GAGNS,223057.00,,,,,,08,,,,,*7B
$GBGNS,223057.00,,,,,,14,,,,,*75
$GPLLQ,223057.00,010125,,M,,M,1,37,1.004,,M*11
$GPVTG,,T,,M,0.00,N,0.01,K,D*27
$GPHDT,,T*1B
$GPTHS,,V*0E
$GPROT,,V*08
$PSSN,HRP,223057.00,010125,,,,,,,00,0,,*60
$PTNL,AVR,223057.00,,Yaw,,Tilt,,,,0,,00*36
$GPGSA,A,3,02,03,08,10,14,21,27,32,,,,,0.7,0.4,0.6*3D
$GPGSA,A,3,68,69,70,75,76,84,85,,,,,,0.7,0.4,0.6*33
$GPGSA,A,3,07,08,13,24,26,29,31,33,,,,,0.7,0.4,0.6*31
$GPGSA,A,3,05,06,08,13,14,16,27,28,30,32,33,39,0.7,0.4,0.6*3B
$GPGSA,A,3,41,60,,,,,,,,,,,0.7,0.4,0.6*34
$GPGST,223057.00,1.756,0.416,0.348,26.335,0.403,0.362,0.844*66
$GPGBS,223057.00,2.403,2.352,4.973,68,0.0001,6.057,6.158*55
$GPGRS,223057.00,1,-0.2,0.5,0.2,-0.4,0.2,0.1,-0.3,0.0,,,,*63
$GPGRS,223057.00,1,6.1,1.0,-2.3,-0.6,-4.7,-1.6,2.8,,,,,*6E
$GPGRS,223057.00,1,0.2,0.2,0.4,-1.0,-0.1,-0.3,0.0,0.3,,,,*66
$GPGRS,223057.00,1,1.0,0.2,-1.6,-0.6,-0.1,2.2,0.3,0.2,1.2,-0.4,-0.7,-0.5*48
$GPGRS,223057.00,1,0.4,-1.8,,,,,,,,,,*6F
$GPGSV,5,1,19,21,71,308,46,03,15,233,41,14,15,313,40,10,40,054,47*7A
$GPGSV,5,2,19,27,33,163,45,32,46,100,49,08,61,198,50,02,49,295,48*7E
$GPGSV,5,3,19,23,00,055,27,24,02,026,,36,35,170,45,58,13,245,38*70
$GPGSV,5,4,19,57,12,107,38,49,34,195,44,40,24,132,35,34,31,208,43*77
$GPGSV,5,5,19,41,07,108,34,61,03,257,38*72
$GLGSV,2,1,08,84,72,052,39,76,13,336,45,75,12,279,43,70,19,193,38*6B
$GLGSV,2,2,08,83,16,112,35,68,36,037,49,85,37,315,50,69,69,119,52*62
$GAGSV,3,1,09,26,75,051,48,29,17,168,40,13,25,092,40,31,28,283,42*66
$GAGSV,3,2,09,23,19,229,,08,27,049,42,07,43,112,45,33,45,291,45*6F
$GAGSV,3,3,09,24,09,331,37*5B
$GBGSV,6,1,24,27,82,285,51,20,13,196,,60,11,109,40,32,20,204,43*68
$GBGSV,6,2,24,39,12,071,40,05,24,128,38,14,19,044,41,29,23,300,*60
$GBGSV,6,3,24,13,15,056,39,30,30,304,46,33,44,055,49,28,48,129,49*6E
$GBGSV,6,4,24,41,67,156,51,57,64,271,,31,09,080,,08,06,054,35*63
$GBGSV,6,5,24,02,09,105,34,36,02,296,38,09,02,093,,16,08,081,37*64
$GBGSV,6,6,24,45,01,340,,26,01,344,,58,01,242,,06,07,084,36*6C
$GPGGA,223057.00,,,,,0,00,,,M,,M,,*49
$PTNL,GGK,223057.00,010125,4742.1600880,N,01618.1004961,E,1,37,0.7,EHT751.5167,M*49
$GPGGQ,223057.00,010125,4742.1600880,N,01618.1004961,E,1,37,1.004,708.3102,M*3C
$GPGFA,223057.00,3.951,6.925,0.416,0.348,26.335,0.844,,VVV*31
$GPLLK,223057.00,010125,,M,,M,1,37,0.8,,M*06
$GNGMP,223057.00,,,,,DAAA,37,0.4,,,,*57
$GPGMP,223057.00,,,,,,08,,,,2.4,136*76
$GLGMP,223057.00,,,,,,07,,,,,*79
$GAGMP,223057.00,,,,,,08,,,,,*7B
$GBGMP,223057.00,,,,,,14,,,,,*75
$PSSN,SNC,[0,340275000,2347]*43
$GPZDA,223102.00,01,01,2025,,*63
$GPDTM,W84,,00.0000000,N,00.0000000,E,00.0000000,W84*5F
$PSSN,TFM,223102.00,,,,*6F
$GPRMC,223102.00,A,4742.1600881,N,01618.1004991,E,0.0,,010125,5.1,E,D*14
$GPGLL,4742.1600881,N,01618.1004991,E,223102.00,A,D*65
$GPGGA,223102.00,4742.1600881,N,01618.1004991,E,2,38,0.4,708.3116,M,43.2066,M,2.4,0136*4A
$GNGNS,223102.00,4742.1600881,N,01618.1004991,E,DAAA,38,0.4,708.3116,43.2066,,*54
$GPGNS,223102.00,,,,,,08,,,,2.4,136*77
$GLGNS,223102.00,,,,,,08,,,,,*77
$GAGNS,223102.00,,,,,,08,,,,,*7A
$GBGNS,223102.00,,,,,,14,,,,,*74
$GPLLQ,223102.00,010125,,M,,M,1,38,1.008,,M*13
$GPVTG,,T,,M,0.00,N,0.01,K,D*27
$GPHDT,,T*1B
$GPTHS,,V*0E
$GPROT,,V*08
$PSSN,HRP,223102.00,010125,,,,,,,00,0,,*61
$PTNL,AVR,223102.00,,Yaw,,Tilt,,,,0,,00*37
$GPGSA,A,3,02,03,08,10,14,21,27,32,,,,,0.7,0.4,0.6*3D
$GPGSA,A,3,68,69,70,75,76,83,84,85,,,,,0.7,0.4,0.6*38
$GPGSA,A,3,07,08,13,24,26,29,31,33,,,,,0.7,0.4,0.6*31
$GPGSA,A,3,05,06,08,13,14,16,27,28,30,32,33,39,0.7,0.4,0.6*3B
$GPGSA,A,3,41,60,,,,,,,,,,,0.7,0.4,0.6*34
$GPGST,223102.00,1.699,0.420,0.347,26.231,0.406,0.363,0.848*62
$GPGBS,223102.00,2.429,2.351,5.043,68,0.0001,5.460,6.158*57
$GPGRS,223102.00,1,-0.3,0.2,0.1,-0.1,0.5,0.1,-0.2,0.1,,,,*65
$GPGRS,223102.00,1,5.5,1.0,-2.2,-1.4,-4.6,-2.0,-1.8,2.4,,,,*68
$GPGRS,223102.00,1,0.0,0.0,0.5,-0.6,0.0,-0.5,0.0,0.4,,,,*4C
$GPGRS,223102.00,1,1.1,0.5,-2.3,-0.2,-0.0,1.8,0.3,0.4,0.7,0.1,-0.5,-0.9*61
$GPGRS,223102.00,1,0.2,-2.1,,,,,,,,,,*62
$GPGSV,5,1,18,21,71,308,46,03,15,233,41,14,15,313,41,10,40,054,47*7A
$GPGSV,5,2,18,27,33,163,44,32,46,100,49,08,61,198,50,02,49,295,48*7E
$GPGSV,5,3,18,24,02,026,,36,35,170,45,58,13,245,38,57,12,107,37*76
$GPGSV,5,4,18,49,34,195,44,40,24,132,35,34,31,208,43,41,07,108,34*76
$GPGSV,5,5,18,61,03,257,38*4F
$GLGSV,2,1,08,84,72,052,39,76,13,336,45,75,12,279,43,70,19,193,38*6B
$GLGSV,2,2,08,83,16,112,35,68,36,037,50,85,37,315,49,69,70,119,52*6A
$GAGSV,3,1,09,26,75,051,48,29,17,168,39,13,25,092,41,31,28,283,42*69
$GAGSV,3,2,09,23,19,229,,08,27,049,42,07,43,112,45,33,45,291,46*6C
$GAGSV,3,3,09,24,09,331,37*5B
$GBGSV,6,1,24,27,82,285,51,20,13,196,,60,11,109,41,32,20,204,44*6E
$GBGSV,6,2,24,39,12,071,41,05,24,128,38,14,19,044,41,29,23,300,*61
$GBGSV,6,3,24,13,15,056,39,30,30,304,46,33,44,055,49,28,48,129,49*6E
$GBGSV,6,4,24,41,67,156,51,57,64,271,,31,09,080,,08,06,054,35*63
$GBGSV,6,5,24,02,09,105,34,36,02,296,37,09,02,093,,16,08,081,38*64
$GBGSV,6,6,24,45,01,340,,26,01,344,,58,01,242,,06,07,084,37*6D
$GPGGA,223102.00,,,,,0,00,,,M,,M,,*48
$PTNL,GGK,223102.00,010125,4742.1600881,N,01618.1004991,E,1,38,0.7,EHT751.5182,M*42
$GPGGQ,223102.00,010125,4742.1600881,N,01618.1004991,E,1,38,1.008,708.3116,M*35
$GPGFA,223102.00,3.989,6.954,0.420,0.347,26.231,0.848,,VVV*30
$GPLLK,223102.00,010125,,M,,M,1,38,0.8,,M*08
$GNGMP,223102.00,,,,,DAAA,38,0.4,,,,*59
$GPGMP,223102.00,,,,,,08,,,,2.4,136*77
$GLGMP,223102.00,,,,,,08,,,,,*77
$GAGMP,223102.00,,,,,,08,,,,,*7A
$GBGMP,223102.00,,,,,,14,,,,,*74
$PSSN,SNC,[0,340280000,2347]*49
$GPZDA,223107.00,01,01,2025,,*66
$GPDTM,W84,,00.0000000,N,00.0000000,E,00.0000000,W84*5F
$PSSN,TFM,223107.00,,,,*6A
$GPRMC,223107.00,A,4742.1600860,N,01618.1004961,E,0.0,,010125,5.1,E,D*11
$GPGLL,4742.1600860,N,01618.1004961,E,223107.00,A,D*60
$GPGGA,223107.00,4742.1600860,N,01618.1004961,E,2,37,0.4,708.3083,M,43.2066,M,3.4,0136*4C
$GNGNS,223107.00,4742.1600860,N,01618.1004961,E,DAAA,37,0.4,708.3083,43.2066,,*53
$GPGNS,223107.00,,,,,,08,,,,3.4,136*73
$GLGNS,223107.00,,,,,,07,,,,,*7D
$GAGNS,223107.00,,,,,,08,,,,,*7F
$GBGNS,223107.00,,,,,,14,,,,,*71
$GPLLQ,223107.00,010125,,M,,M,1,37,1.012,,M*12
$GPVTG,,T,,M,0.00,N,0.00,K,D*26
$GPHDT,,T*1B
$GPTHS,,V*0E
$GPROT,,V*08
$PSSN,HRP,223107.00,010125,,,,,,,00,0,,*64
$PTNL,AVR,223107.00,,Yaw,,Tilt,,,,0,,00*32
$GPGSA,A,3,02,03,08,10,14,21,27,32,,,,,0.7,0.4,0.6*3D
$GPGSA,A,3,68,69,70,75,76,84,85,,,,,,0.7,0.4,0.6*33
$GPGSA,A,3,07,08,13,24,26,29,31,33,,,,,0.7,0.4,0.6*31
$GPGSA,A,3,05,06,08,13,14,16,27,28,30,32,33,39,0.7,0.4,0.6*3B
$GPGSA,A,3,41,60,,,,,,,,,,,0.7,0.4,0.6*34
$GPGST,223107.00,1.841,0.424,0.351,28.341,0.409,0.368,0.849*62
$GPGBS,223107.00,2.480,2.400,5.109,68,0.0001,6.210,6.158*5F
$GPGRS,223107.00,1,-0.1,-0.5,-0.0,0.2,0.3,0.1,-0.3,0.1,,,,*4D
$GPGRS,223107.00,1,6.2,0.7,-1.2,-0.8,-5.9,-2.3,2.8,,,,,*6A
$GPGRS,223107.00,1,0.2,0.2,0.6,-0.6,0.2,-0.3,-0.1,0.5,,,,*63
$GPGRS,223107.00,1,0.9,0.4,-1.8,0.9,-0.2,1.3,0.5,0.3,0.8,-0.2,-0.8,-0.6*69
$GPGRS,223107.00,1,0.1,-1.6,,,,,,,,,,*60
$GPGSV,5,1,18,21,71,308,45,03,15,233,40,14,15,313,40,10,40,054,47*79
$GPGSV,5,2,18,27,33,163,45,32,46,100,49,08,61,198,50,02,49,296,47*73
$GPGSV,5,3,18,24,02,026,,36,35,170,44,58,13,245,37,57,12,107,37*78
$GPGSV,5,4,18,49,34,195,44,40,24,132,35,34,31,208,42,41,07,108,34*77
$GPGSV,5,5,18,61,03,257,38*4F
$GLGSV,2,1,08,84,72,052,39,76,13,336,45,75,11,279,44,70,19,193,37*60
$GLGSV,2,2,08,83,16,113,34,68,36,037,50,85,37,315,50,69,70,119,52*62
$GAGSV,3,1,09,26,75,051,48,29,17,168,39,13,25,092,41,31,28,283,42*69
$GAGSV,3,2,09,23,19,228,,08,27,049,42,07,43,112,45,33,45,291,46*6D
$GAGSV,3,3,09,24,09,331,38*54
$GBGSV,6,1,24,27,82,284,51,20,13,196,,60,11,109,41,32,20,204,44*6F
$GBGSV,6,2,24,39,12,071,40,05,24,128,39,14,19,044,41,29,23,300,*61
$GBGSV,6,3,24,13,15,056,39,30,30,304,46,33,44,055,48,28,48,129,49*6F
$GBGSV,6,4,24,41,67,156,51,57,64,271,,31,09,080,,08,06,054,35*63
$GBGSV,6,5,24,02,09,105,34,36,02,295,37,09,02,093,,16,08,081,37*68
$GBGSV,6,6,24,45,01,340,,26,01,344,,58,01,242,,06,07,084,37*6D
$GPGGA,223107.00,,,,,0,00,,,M,,M,,*4D
$PTNL,GGK,223107.00,010125,4742.1600860,N,01618.1004961,E,1,37,0.7,EHT751.5148,M*4E
$GPGGQ,223107.00,010125,4742.1600860,N,01618.1004961,E,1,37,1.012,708.3083,M*39
$GPGFA,223107.00,4.031,6.963,0.424,0.351,28.341,0.849,,VVV*36
$GPLLK,223107.00,010125,,M,,M,1,37,0.8,,M*02
$GNGMP,223107.00,,,,,DAAA,37,0.4,,,,*53
$GPGMP,223107.00,,,,,,08,,,,3.4,136*73
$GLGMP,223107.00,,,,,,07,,,,,*7D
$GAGMP,223107.00,,,,,,08,,,,,*7F
$GBGMP,223107.00,,,,,,14,,,,,*71
$PSSN,SNC,[0,340285000,2347]*4C
$GPZDA,223112.00,01,01,2025,,*62
$GPDTM,W84,,00.0000000,N,00.0000000,E,00.0000000,W84*5F
$PSSN,TFM,223112.00,,,,*6E
$GPRMC,223112.00,A,4742.1600841,N,01618.1004944,E,0.0,,010125,5.1,E,D*11
$GPGLL,4742.1600841,N,01618.1004944,E,223112.00,A,D*60
$GPGGA,223112.00,4742.1600841,N,01618.1004944,E,2,37,0.4,708.3081,M,43.2066,M,1.9,0136*41
$GNGNS,223112.00,4742.1600841,N,01618.1004944,E,DAAA,37,0.4,708.3081,43.2066,,*51
$GPGNS,223112.00,,,,,,08,,,,1.9,136*78
$GLGNS,223112.00,,,,,,07,,,,,*79
$GAGNS,223112.00,,,,,,08,,,,,*7B
$GBGNS,223112.00,,,,,,14,,,,,*75
$GPLLQ,223112.00,010125,,M,,M,1,37,1.013,,M*17
$GPVTG,,T,,M,0.00,N,0.01,K,D*27
$GPHDT,,T*1B
$GPTHS,,V*0E
$GPROT,,V*08
$PSSN,HRP,223112.00,010125,,,,,,,00,0,,*60
$PTNL,AVR,223112.00,,Yaw,,Tilt,,,,0,,00*36
$GPGSA,A,3,02,03,08,10,14,21,27,32,,,,,0.7,0.4,0.6*3D
$GPGSA,A,3,68,69,70,75,76,84,85,,,,,,0.7,0.4,0.6*33
$GPGSA,A,3,07,08,13,24,26,29,31,33,,,,,0.7,0.4,0.6*31
$GPGSA,A,3,05,06,08,13,14,16,27,28,30,32,33,39,0.7,0.4,0.6*3B
$GPGSA,A,3,41,60,,,,,,,,,,,0.7,0.4,0.6*34
$GPGST,223112.00,1.918,0.422,0.353,28.193,0.408,0.370,0.851*63
$GPGBS,223112.00,2.368,2.391,4.922,68,0.0001,5.870,6.158*5A
$GPGRS,223112.00,1,-0.0,-0.4,0.3,-0.2,-0.1,0.1,0.0,0.0,,,,*4A
$GPGRS,223112.00,1,5.9,0.9,-2.1,-2.0,-5.6,-2.2,3.5,,,,,*60
$GPGRS,223112.00,1,0.4,0.2,0.7,-1.2,0.2,-0.2,0.1,0.4,,,,*48
$GPGRS,223112.00,1,1.7,-0.2,-1.7,0.4,-0.1,2.0,0.5,0.3,0.7,-1.1,-0.7,-0.4*48
$GPGRS,223112.00,1,-0.0,-1.4,,,,,,,,,,*4A
$GPGSV,5,1,18,21,71,308,46,03,15,233,40,14,15,313,40,10,40,054,47*7A
$GPGSV,5,2,18,27,33,163,46,32,46,100,49,08,61,198,50,02,49,296,48*7F
$GPGSV,5,3,18,24,02,026,,36,35,170,44,58,13,245,38,57,12,107,37*77
$GPGSV,5,4,18,49,34,195,44,40,24,132,35,34,31,208,42,41,07,108,34*77
$GPGSV,5,5,18,61,03,257,38*4F
$GLGSV,2,1,08,84,72,053,39,76,13,336,45,75,11,279,43,70,19,193,38*69
$GLGSV,2,2,08,83,16,113,34,68,36,037,49,85,37,315,49,69,70,119,52*62
$GAGSV,3,1,09,26,75,051,48,29,17,168,40,13,25,092,40,31,28,283,42*66
$GAGSV,3,2,09,23,19,228,,08,27,049,42,07,43,112,45,33,45,291,45*6E
$GAGSV,3,3,09,24,09,331,38*54
$GBGSV,6,1,24,27,82,284,51,20,13,196,,60,11,109,41,32,20,204,43*68
$GBGSV,6,2,24,39,12,071,40,05,24,128,38,14,19,044,41,29,23,300,*60
$GBGSV,6,3,24,13,15,056,39,30,30,304,46,33,44,055,49,28,48,129,49*6E
$GBGSV,6,4,24,41,67,156,51,57,64,271,,31,09,080,,08,06,054,36*60
$GBGSV,6,5,24,02,09,105,34,36,02,295,37,09,02,093,,16,08,081,37*68
$GBGSV,6,6,24,45,01,340,,26,01,344,,58,01,242,,06,07,084,36*6C
$GPGGA,223112.00,,,,,0,00,,,M,,M,,*49
$PTNL,GGK,223112.00,010125,4742.1600841,N,01618.1004944,E,1,37,0.7,EHT751.5147,M*41
$GPGGQ,223112.00,010125,4742.1600841,N,01618.1004944,E,1,37,1.013,708.3081,M*3A
$GPGFA,223112.00,4.015,6.978,0.422,0.353,28.193,0.851,,VVV*3E
$GPLLK,223112.00,010125,,M,,M,1,37,0.8,,M*06
$GNGMP,223112.00,,,,,DAAA,37,0.4,,,,*57
$GPGMP,223112.00,,,,,,08,,,,1.9,136*78
$GLGMP,223112.00,,,,,,07,,,,,*79
$GAGMP,223112.00,,,,,,08,,,,,*7B
$GBGMP,223112.00,,,,,,14,,,,,*75
$PSSN,SNC,[0,340290000,2347]*48
$GPZDA,223117.00,01,01,2025,,*67
$GPDTM,W84,,00.0000000,N,00.0000000,E,00.0000000,W84*5F
$PSSN,TFM,223117.00,,,,*6B
$GPRMC,223117.00,A,4742.1600853,N,01618.1004940,E,0.0,,010125,5.1,E,D*13
$GPGLL,4742.1600853,N,01618.1004940,E,223117.00,A,D*62
$GPGGA,223117.00,4742.1600853,N,01618.1004940,E,2,37,0.4,708.3015,M,43.2066,M,2.4,0136*40
$GNGNS,223117.00,4742.1600853,N,01618.1004940,E,DAAA,37,0.4,708.3015,43.2066,,*5E
$GPGNS,223117.00,,,,,,08,,,,2.4,136*73
$GLGNS,223117.00,,,,,,07,,,,,*7C
$GAGNS,223117.00,,,,,,08,,,,,*7E
$GBGNS,223117.00,,,,,,14,,,,,*70
$GPLLQ,223117.00,010125,,M,,M,1,37,1.004,,M*14
$GPVTG,,T,,M,0.00,N,0.00,K,D*26
$GPHDT,,T*1B
$GPTHS,,V*0E
$GPROT,,V*08
$PSSN,HRP,223117.00,010125,,,,,,,00,0,,*65
$PTNL,AVR,223117.00,,Yaw,,Tilt,,,,0,,00*33
$GPGSA,A,3,02,03,08,10,14,21,27,32,,,,,0.7,0.4,0.6*3D
$GPGSA,A,3,68,69,70,75,76,84,85,,,,,,0.7,0.4,0.6*33
$GPGSA,A,3,07,08,13,24,26,29,31,33,,,,,0.7,0.4,0.6*31
$GPGSA,A,3,05,06,08,13,14,16,27,28,30,32,33,39,0.7,0.4,0.6*3B
$GPGSA,A,3,41,60,,,,,,,,,,,0.7,0.4,0.6*34
$GPGST,223117.00,1.657,0.415,0.349,26.250,0.403,0.363,0.845*63
$GPGBS,223117.00,2.402,2.351,4.975,68,0.0001,5.396,6.158*59
$GPGRS,223117.00,1,-0.0,-0.2,0.0,-0.2,-0.1,0.2,-0.1,-0.0,,,,*48
$GPGRS,223117.00,1,5.4,0.7,-1.4,-1.3,-4.9,-1.3,2.7,,,,,*6F
$GPGRS,223117.00,1,0.2,0.2,0.7,-1.8,0.0,0.1,0.4,0.2,,,,*6E
$GPGRS,223117.00,1,1.4,-0.6,-0.9,0.8,0.3,2.1,0.4,0.2,0.2,-0.7,-0.7,-0.8*69
$GPGRS,223117.00,1,-0.0,-1.5,,,,,,,,,,*4E
$GPGSV,5,1,18,21,71,308,46,03,15,233,40,14,15,313,40,10,40,054,47*7A
$GPGSV,5,2,18,27,33,163,46,32,46,100,49,08,61,198,50,02,49,296,48*7F
$GPGSV,5,3,18,24,02,026,,36,35,170,44,58,13,245,38,57,12,107,37*77
$GPGSV,5,4,18,49,34,195,43,40,24,132,35,34,31,208,42,41,07,108,34*70
$GPGSV,5,5,18,61,03,257,38*4F
$GLGSV,2,1,08,84,72,053,39,76,13,336,45,75,11,279,44,70,19,193,38*6E
$GLGSV,2,2,08,83,16,113,34,68,36,037,49,85,37,315,50,69,70,119,52*6A
$GAGSV,3,1,09,26,75,051,48,29,17,168,39,13,25,092,41,31,27,283,43*67
$GAGSV,3,2,09,23,19,228,,08,27,049,42,07,43,112,45,33,45,291,45*6E
$GAGSV,3,3,09,24,09,331,37*5B
$GBGSV,6,1,24,27,82,284,51,20,13,196,,60,10,109,40,32,20,204,43*68
$GBGSV,6,2,24,39,12,071,40,05,24,128,39,14,19,044,41,29,23,300,*61
$GBGSV,6,3,24,13,15,056,39,30,30,304,46,33,44,055,48,28,48,129,49*6F
$GBGSV,6,4,24,41,67,155,51,57,64,271,,31,09,080,,08,06,054,36*63
$GBGSV,6,5,24,02,09,105,34,36,02,295,38,09,02,093,,16,08,081,37*67
$GBGSV,6,6,24,45,01,340,,26,01,343,,58,01,242,,06,07,084,37*6A
$GPGGA,223117.00,,,,,0,00,,,M,,M,,*4C
$PTNL,GGK,223117.00,010125,4742.1600853,N,01618.1004940,E,1,37,0.7,EHT751.5080,M*49
$GPGGQ,223117.00,010125,4742.1600853,N,01618.1004940,E,1,37,1.004,708.3015,M*33
$GPGFA,223117.00,3.948,6.932,0.415,0.349,26.250,0.845,,VVV*3B
$GPLLK,223117.00,010125,,M,,M,1,37,0.8,,M*03
$GNGMP,223117.00,,,,,DAAA,37,0.4,,,,*52
$GPGMP,223117.00,,,,,,08,,,,2.4,136*73
$GLGMP,223117.00,,,,,,07,,,,,*7C
$GAGMP,223117.00,,,,,,08,,,,,*7E
$GBGMP,223117.00,,,,,,14,,,,,*70
$PSSN,SNC,[0,340295000,2347]*4D
$GPZDA,223122.00,01,01,2025,,*61
$GPDTM,W84,,00.0000000,N,00.0000000,E,00.0000000,W84*5F
$PSSN,TFM,223122.00,,,,*6D
$GPRMC,223122.00,A,4742.1600845,N,01618.1004937,E,0.0,,010125,5.1,E,D*12
$GPGLL,4742.1600845,N,01618.1004937,E,223122.00,A,D*63
$GPGGA,223122.00,4742.1600845,N,01618.1004937,E,2,37,0.4,708.2979,M,43.2066,M,2.4,0136*43
$GNGNS,223122.00,4742.1600845,N,01618.1004937,E,DAAA,37,0.4,708.2979,43.2066,,*5D
$GPGNS,223122.00,,,,,,08,,,,2.4,136*75
$GLGNS,223122.00,,,,,,07,,,,,*7A
