$GPZDA,145942.00,01,01,2025,,*6C
$GPDTM,W84,,00.0000000,N,00.0000000,E,00.0000000,W84*5F
$PSSN,TFM,145942.00,,,,*60
$GPRMC,145942.00,A,4742.1603964,N,01618.1012699,E,0.0,,010125,5.1,E,D*12
$GPGLL,4742.1603964,N,01618.1012699,E,145942.00,A,D*63
$GPGGA,145942.00,4742.1603964,N,01618.1012699,E,2,39,0.4,707.9960,M,43.2065,M,2.8,0136*4E
$GNGNS,145942.00,4742.1603964,N,01618.1012699,E,DAAA,39,0.4,707.9960,43.2065,,*5C
$GPGNS,145942.00,,,,,,10,,,,2.8,136*7D
$GLGNS,145942.00,,,,,,06,,,,,*76
$GAGNS,145942.00,,,,,,09,,,,,*74
$GBGNS,145942.00,,,,,,14,,,,,*7B
$GPLLQ,145942.00,010125,,M,,M,1,39,1.232,,M*16
$GPVTG,,T,,M,0.00,N,0.00,K,D*26
$GPHDT,,T*1B
$GPTHS,,V*0E
$GPROT,,V*08
$PSSN,HRP,145942.00,010125,,,,,,,00,0,,*6E
$PTNL,AVR,145942.00,,Yaw,,Tilt,,,,0,,00*38
$GPGSA,A,3,06,11,12,18,20,25,28,29,31,32,,,0.7,0.4,0.6*3C
$GPGSA,A,3,77,78,79,81,87,88,,,,,,,0.7,0.4,0.6*30
$GPGSA,A,3,02,07,15,21,27,29,30,34,36,,,,0.7,0.4,0.6*3A
$GPGSA,A,3,05,08,10,11,12,13,23,24,25,34,38,43,0.7,0.4,0.6*31
$GPGSA,A,3,44,60,,,,,,,,,,,0.7,0.4,0.6*31
$GPGST,145942.00,1.679,0.687,0.460,347.412,0.678,0.473,0.913*5F
$GPGBS,145942.00,4.356,2.740,5.441,06,0.0001,-2.370,2.100*7E
$GPGRS,145942.00,1,-2.4,0.7,0.3,-0.3,1.0,-0.2,-0.4,0.0,-0.3,0.3,,*6A
$GPGRS,145942.00,1,-4.9,-0.4,1.5,4.8,-2.7,-0.2,,,,,,*47
$GPGRS,145942.00,1,0.3,-1.1,-0.1,2.3,-0.8,1.6,-0.1,0.5,0.4,,,*63
$GPGRS,145942.00,1,0.8,1.3,1.0,1.9,0.3,-0.1,-0.6,-1.3,-1.0,0.2,-1.3,1.1*68
$GPGRS,145942.00,1,0.1,-1.4,,,,,,,,,,*68
$GPGSV,6,1,21,25,80,074,50,31,25,313,42,32,13,247,42,20,13,086,38*77
$GPGSV,6,2,21,11,35,058,45,28,48,294,47,12,39,097,46,29,67,234,50*71
$GPGSV,6,3,21,24,02,159,,26,05,292,35,18,06,186,39,06,08,031,37*7A
$GPGSV,6,4,21,36,35,170,45,58,13,245,36,40,23,133,36,34,31,208,43*7C
$GPGSV,6,5,21,49,34,195,45,57,04,114,38,41,07,108,35,61,03,257,38*74
$GPGSV,6,6,21*7A
$GLGSV,3,1,10,88,72,082,51,70,12,331,32,87,19,031,42,77,11,125,38*67
$GLGSV,3,2,10,81,39,192,51,79,50,320,52,78,69,103,53,80,00,310,*6B
$GLGSV,3,3,10,71,02,015,38,69,05,272,41*67
$GAGSV,3,1,10,30,62,088,48,15,33,159,44,36,18,036,40,19,17,314,34*6B
$GAGSV,3,2,10,02,10,101,38,29,22,267,41,34,49,088,47,27,60,298,48*68
$GAGSV,3,3,10,21,09,286,37,07,07,217,38*64
$GBGSV,6,1,21,25,77,274,51,43,22,213,43,05,20,130,38,56,18,058,*64
$GBGSV,6,2,21,23,25,306,44,10,12,072,37,11,42,200,48,13,17,092,40*6F
$GBGSV,6,3,21,24,42,137,48,38,19,069,42,08,18,083,37,31,35,084,*68
$GBGSV,6,4,21,44,47,059,48,34,66,182,51,12,70,088,48,35,04,044,38*60
$GBGSV,6,5,21,19,02,350,,20,07,306,,28,09,204,,02,05,108,33*6C
$GBGSV,6,6,21,60,09,110,40*53
$GPGGA,145942.00,,,,,0,00,,,M,,M,,*47
$PTNL,GGK,145942.00,010125,4742.1603964,N,01618.1012699,E,1,39,0.7,EHT751.2025,M*4E
$GPGGQ,145942.00,010125,4742.1603964,N,01618.1012699,E,1,39,1.232,707.9960,M*35
$GPGFA,145942.00,6.532,7.487,0.687,0.460,347.412,0.913,,VVV*05
$GPLLK,145942.00,010125,,M,,M,1,39,0.8,,M*06
$GNGMP,145942.00,,,,,DAAA,39,0.4,,,,*57
$GPGMP,145942.00,,,,,,10,,,,2.8,136*7D
$GLGMP,145942.00,,,,,,06,,,,,*76
$GAGMP,145942.00,,,,,,09,,,,,*74
$GBGMP,145942.00,,,,,,14,,,,,*7B
$PSSN,SNC,[0,313200000,2347]*47
$GPZDA,145947.00,01,01,2025,,*69
$GPDTM,W84,,00.0000000,N,00.0000000,E,00.0000000,W84*5F
$PSSN,TFM,145947.00,,,,*65
$GPRMC,145947.00,A,4742.1603987,N,01618.1012676,E,0.0,,010125,5.1,E,D*1B
$GPGLL,4742.1603987,N,01618.1012676,E,145947.00,A,D*6A
$GPGGA,145947.00,4742.1603987,N,01618.1012676,E,2,39,0.4,707.9983,M,43.2065,M,2.2,0136*40
$GNGNS,145947.00,4742.1603987,N,01618.1012676,E,DAAA,39,0.4,707.9983,43.2065,,*58
$GPGNS,145947.00,,,,,,10,,,,2.2,136*72
$GLGNS,145947.00,,,,,,06,,,,,*73
$GAGNS,145947.00,,,,,,09,,,,,*71
$GBGNS,145947.00,,,,,,14,,,,,*7E
$GPLLQ,145947.00,010125,,M,,M,1,39,1.229,,M*19
$GPVTG,,T,,M,0.00,N,0.01,K,D*27
$GPHDT,,T*1B
$GPTHS,,V*0E
$GPROT,,V*08
$PSSN,HRP,145947.00,010125,,,,,,,00,0,,*6B
$PTNL,AVR,145947.00,,Yaw,,Tilt,,,,0,,00*3D
$GPGSA,A,3,06,11,12,18,20,25,28,29,31,32,,,0.7,0.4,0.6*3C
$GPGSA,A,3,77,78,79,81,87,88,,,,,,,0.7,0.4,0.6*30
$GPGSA,A,3,02,07,15,21,27,29,30,34,36,,,,0.7,0.4,0.6*3A
$GPGSA,A,3,05,08,10,11,12,13,23,24,25,34,38,43,0.7,0.4,0.6*31
$GPGSA,A,3,44,60,,,,,,,,,,,0.7,0.4,0.6*31
$GPGST,145947.00,1.655,0.682,0.457,347.843,0.674,0.469,0.914*5D
$GPGBS,145947.00,4.327,2.730,5.314,06,0.0001,-2.371,2.107*7B
$GPGRS,145947.00,1,-2.4,0.8,0.6,-0.3,1.2,-0.2,-0.3,-0.2,-0.4,0.6,,*4D
$GPGRS,145947.00,1,-4.8,-0.2,2.0,4.3,-3.1,0.2,,,,,,*62
$GPGRS,145947.00,1,-0.1,-0.9,-0.2,2.5,-0.7,1.8,-0.2,0.2,0.1,,,*45
$GPGRS,145947.00,1,0.7,1.4,0.0,1.9,0.2,0.0,-0.6,-1.1,-1.0,0.2,-1.2,1.0*4B
$GPGRS,145947.00,1,-0.0,-1.3,,,,,,,,,,*46
$GPGSV,6,1,21,25,80,074,50,31,25,313,43,32,13,247,42,20,13,086,38*76
$GPGSV,6,2,21,11,35,058,45,28,48,294,47,12,39,097,46,29,67,234,50*71
$GPGSV,6,3,21,24,02,159,,26,05,292,36,18,06,186,39,06,08,031,38*76
$GPGSV,6,4,21,36,35,170,45,58,13,245,36,40,23,133,37,34,31,208,43*7D
$GPGSV,6,5,21,49,34,195,45,57,04,114,38,41,07,108,35,61,03,257,38*74
$GPGSV,6,6,21*7A
$GLGSV,3,1,10,88,72,082,51,70,12,331,34,87,19,031,42,77,11,125,37*6E
$GLGSV,3,2,10,81,39,192,51,79,50,320,52,78,69,103,52,80,00,310,*6A
$GLGSV,3,3,10,71,02,015,39,69,05,272,41*66
$GAGSV,3,1,10,30,62,088,48,15,33,159,44,36,18,036,40,19,17,313,35*6D
$GAGSV,3,2,10,02,10,101,38,29,22,267,41,34,49,088,47,27,60,298,48*68
$GAGSV,3,3,10,21,09,286,37,07,07,217,38*64
$GBGSV,6,1,21,25,77,273,52,43,22,213,43,05,20,130,38,56,18,058,*60
$GBGSV,6,2,21,23,25,306,44,10,12,072,37,11,42,200,48,13,17,092,40*6F
$GBGSV,6,3,21,24,42,137,48,38,19,069,42,08,18,083,37,31,35,084,*68
$GBGSV,6,4,21,44,47,059,48,34,66,182,51,12,70,088,48,35,04,044,38*60
$GBGSV,6,5,21,19,02,350,,20,07,306,,28,09,204,,02,05,108,33*6C
$GBGSV,6,6,21,60,09,110,40*53
$GPGGA,145947.00,,,,,0,00,,,M,,M,,*42
$PTNL,GGK,145947.00,010125,4742.1603987,N,01618.1012676,E,1,39,0.7,EHT751.2049,M*4D
$GPGGQ,145947.00,010125,4742.1603987,N,01618.1012676,E,1,39,1.229,707.9983,M*3B
$GPGFA,145947.00,6.486,7.497,0.682,0.457,347.843,0.914,,VVV*01
$GPLLK,145947.00,010125,,M,,M,1,39,0.8,,M*03
$GNGMP,145947.00,,,,,DAAA,39,0.4,,,,*52
$GPGMP,145947.00,,,,,,10,,,,2.2,136*72
$GLGMP,145947.00,,,,,,06,,,,,*73
$GAGMP,145947.00,,,,,,09,,,,,*71
$GBGMP,145947.00,,,,,,14,,,,,*7E
$PSSN,SNC,[0,313205000,2347]*42
$GPZDA,145952.00,01,01,2025,,*6D
$GPDTM,W84,,00.0000000,N,00.0000000,E,00.0000000,W84*5F
$PSSN,TFM,145952.00,,,,*61
$GPRMC,145952.00,A,4742.1604021,N,01618.1012661,E,0.0,,010125,5.1,E,D*1B
$GPGLL,4742.1604021,N,01618.1012661,E,145952.00,A,D*6A
$GPGGA,145952.00,4742.1604021,N,01618.1012661,E,2,40,0.4,707.9987,M,43.2065,M,2.0,0136*48
$GNGNS,145952.00,4742.1604021,N,01618.1012661,E,DAAA,40,0.4,707.9987,43.2065,,*52
$GPGNS,145952.00,,,,,,10,,,,2.0,136*74
$GLGNS,145952.00,,,,,,06,,,,,*77
$GAGNS,145952.00,,,,,,10,,,,,*7D
$GBGNS,145952.00,,,,,,14,,,,,*7A
$GPLLQ,145952.00,010125,,M,,M,1,40,1.224,,M*1E
$GPVTG,,T,,M,0.00,N,0.01,K,D*27
$GPHDT,,T*1B
$GPTHS,,V*0E
$GPROT,,V*08
$PSSN,HRP,145952.00,010125,,,,,,,00,0,,*6F
$PTNL,AVR,145952.00,,Yaw,,Tilt,,,,0,,00*39
$GPGSA,A,3,06,11,12,18,20,25,28,29,31,32,,,0.7,0.4,0.5*3F
$GPGSA,A,3,77,78,79,81,87,88,,,,,,,0.7,0.4,0.5*33
$GPGSA,A,3,02,07,15,19,21,27,29,30,34,36,,,0.7,0.4,0.5*31
$GPGSA,A,3,05,08,10,11,12,13,23,24,25,34,38,43,0.7,0.4,0.5*32
$GPGSA,A,3,44,60,,,,,,,,,,,0.7,0.4,0.5*32
$GPGST,145952.00,1.698,0.681,0.456,347.800,0.672,0.468,0.909*56
$GPGBS,145952.00,4.314,2.687,5.347,06,0.0001,-2.742,2.115*73
$GPGRS,145952.00,1,-2.7,0.7,0.2,-0.2,2.1,-0.1,-0.3,-0.2,0.2,0.6,,*68
$GPGRS,145952.00,1,-5.6,-0.4,1.8,4.1,-2.2,0.3,,,,,,*65
$GPGRS,145952.00,1,0.6,-1.3,0.1,-0.7,2.6,-0.5,2.0,0.0,0.3,0.1,,*6E
$GPGRS,145952.00,1,0.4,0.6,-0.0,1.8,0.4,-0.1,-0.2,-1.2,-0.7,0.4,-0.7,1.8*42
$GPGRS,145952.00,1,0.1,-1.3,,,,,,,,,,*6E
$GPGSV,6,1,21,25,80,074,50,31,25,313,43,32,13,247,41,20,13,086,39*74
$GPGSV,6,2,21,11,34,058,45,28,48,294,47,12,39,098,47,29,67,234,50*7E
$GPGSV,6,3,21,24,02,159,,26,05,292,36,18,06,186,39,06,08,031,38*76
$GPGSV,6,4,21,36,35,170,46,58,13,245,36,40,23,133,37,34,31,208,43*7E
$GPGSV,6,5,21,49,34,195,45,57,04,114,38,41,07,108,35,61,03,257,38*74
$GPGSV,6,6,21*7A
$GLGSV,3,1,10,88,72,082,51,70,11,331,34,87,19,031,42,77,11,125,37*6D
$GLGSV,3,2,10,81,39,192,50,79,50,320,52,78,69,103,52,80,00,310,*6B
$GLGSV,3,3,10,71,02,015,40,69,05,272,41*68
$GAGSV,3,1,10,30,62,088,48,15,33,159,44,36,18,036,39,19,17,313,35*63
$GAGSV,3,2,10,02,10,101,39,29,22,267,41,34,49,088,47,27,60,298,48*69
$GAGSV,3,3,10,21,09,286,37,07,07,217,38*64
$GBGSV,6,1,21,25,77,273,52,43,22,213,43,05,20,130,38,56,18,058,*60
$GBGSV,6,2,21,23,25,306,44,10,12,072,36,11,42,200,47,13,17,092,40*61
$GBGSV,6,3,21,24,42,137,48,38,19,069,42,08,18,083,37,31,35,084,*68
$GBGSV,6,4,21,44,47,059,48,34,66,182,51,12,70,088,48,35,04,044,38*60
$GBGSV,6,5,21,19,02,350,,20,07,306,,28,09,204,,02,05,108,33*6C
$GBGSV,6,6,21,60,09,110,40*53
$GPGGA,145952.00,,,,,0,00,,,M,,M,,*46
$PTNL,GGK,145952.00,010125,4742.1604021,N,01618.1012661,E,1,40,0.7,EHT751.2052,M*49
$GPGGQ,145952.00,010125,4742.1604021,N,01618.1012661,E,1,40,1.224,707.9987,M*3C
$GPGFA,145952.00,6.471,7.454,0.681,0.456,347.800,0.909,,VVV*0B
$GPLLK,145952.00,010125,,M,,M,1,40,0.8,,M*09
$GNGMP,145952.00,,,,,DAAA,40,0.4,,,,*58
$GPGMP,145952.00,,,,,,10,,,,2.0,136*74
$GLGMP,145952.00,,,,,,06,,,,,*77
$GAGMP,145952.00,,,,,,10,,,,,*7D
$GBGMP,145952.00,,,,,,14,,,,,*7A
$PSSN,SNC,[0,313210000,2347]*46
$GPZDA,145957.00,01,01,2025,,*68
$GPDTM,W84,,00.0000000,N,00.0000000,E,00.0000000,W84*5F
$PSSN,TFM,145957.00,,,,*64
$GPRMC,145957.00,A,4742.1604042,N,01618.1012641,E,0.0,,010125,5.1,E,D*19
$GPGLL,4742.1604042,N,01618.1012641,E,145957.00,A,D*68
$GPGGA,145957.00,4742.1604042,N,01618.1012641,E,2,40,0.4,707.9978,M,43.2065,M,3.0,0136*4B
$GNGNS,145957.00,4742.1604042,N,01618.1012641,E,DAAA,40,0.4,707.9978,43.2065,,*50
$GPGNS,145957.00,,,,,,10,,,,3.0,136*70
$GLGNS,145957.00,,,,,,06,,,,,*72
$GAGNS,145957.00,,,,,,10,,,,,*78
$GBGNS,145957.00,,,,,,14,,,,,*7F
$GPLLQ,145957.00,010125,,M,,M,1,40,1.219,,M*15
$GPVTG,,T,,M,0.00,N,0.01,K,D*27
$GPHDT,,T*1B
$GPTHS,,V*0E
$GPROT,,V*08
$PSSN,HRP,145957.00,010125,,,,,,,00,0,,*6A
$PTNL,AVR,145957.00,,Yaw,,Tilt,,,,0,,00*3C
$GPGSA,A,3,06,11,12,18,20,25,28,29,31,32,,,0.7,0.4,0.5*3F
$GPGSA,A,3,77,78,79,81,87,88,,,,,,,0.7,0.4,0.5*33
$GPGSA,A,3,02,07,15,19,21,27,29,30,34,36,,,0.7,0.4,0.5*31
$GPGSA,A,3,05,08,10,11,12,13,23,24,25,34,38,43,0.7,0.4,0.5*32
$GPGSA,A,3,44,60,,,,,,,,,,,0.7,0.4,0.5*32
$GPGST,145957.00,1.634,0.678,0.457,347.765,0.670,0.470,0.903*5F
$GPGBS,145957.00,4.334,2.695,5.364,06,0.0001,-2.605,2.090*78
$GPGRS,145957.00,1,-2.6,0.8,0.2,-0.3,1.4,-0.1,-0.5,-0.1,-0.5,0.8,,*45
$GPGRS,145957.00,1,-5.3,-0.4,1.9,4.2,-1.9,0.2,,,,,,*6E
$GPGRS,145957.00,1,0.4,-1.2,-0.2,-0.7,2.5,-0.7,1.9,-0.1,0.1,0.1,,*63
$GPGRS,145957.00,1,0.5,0.6,0.1,1.1,0.5,0.0,-0.5,-1.4,-0.9,0.4,-0.9,1.9*4E
$GPGRS,145957.00,1,-0.4,-1.4,,,,,,,,,,*44
$GPGSV,6,1,21,25,80,074,50,31,25,313,43,32,13,247,42,20,13,086,40*79
$GPGSV,6,2,21,11,34,058,45,28,48,294,47,12,39,098,47,29,67,234,50*7E
$GPGSV,6,3,21,24,02,159,,26,05,292,36,18,06,186,39,06,08,031,38*76
$GPGSV,6,4,21,36,35,170,46,58,13,245,37,40,23,133,37,34,31,208,43*7F
$GPGSV,6,5,21,49,34,195,45,57,04,114,38,41,07,108,35,61,03,257,38*74
$GPGSV,6,6,21*7A
$GLGSV,3,1,10,88,72,082,51,70,11,331,34,87,19,031,42,77,10,125,37*6C
$GLGSV,3,2,10,81,39,192,51,79,50,320,52,78,69,103,52,80,00,310,*6A
$GLGSV,3,3,10,71,02,014,40,69,05,272,39*66
$GAGSV,3,1,10,30,62,088,48,15,33,159,44,36,18,036,39,19,17,313,35*63
$GAGSV,3,2,10,02,10,101,39,29,22,267,41,34,49,088,47,27,60,298,48*69
$GAGSV,3,3,10,21,09,286,37,07,07,217,38*64
$GBGSV,6,1,21,25,77,273,51,43,22,213,44,05,20,130,38,56,18,058,*64
$GBGSV,6,2,21,23,25,306,44,10,12,072,37,11,42,200,48,13,17,092,40*6F
$GBGSV,6,3,21,24,42,137,49,38,19,069,42,08,18,083,38,31,35,084,*66
$GBGSV,6,4,21,44,47,059,48,34,66,182,51,12,70,088,48,35,04,044,38*60
$GBGSV,6,5,21,19,02,350,,20,07,306,,28,09,204,,02,05,108,33*6C
$GBGSV,6,6,21,60,09,110,40*53
$GPGGA,145957.00,,,,,0,00,,,M,,M,,*43
$PTNL,GGK,145957.00,010125,4742.1604042,N,01618.1012641,E,1,40,0.7,EHT751.2043,M*4B
$GPGGQ,145957.00,010125,4742.1604042,N,01618.1012641,E,1,40,1.219,707.9978,M*30
$GPGFA,145957.00,6.448,7.406,0.678,0.457,347.765,0.903,,VVV*02
$GPLLK,145957.00,010125,,M,,M,1,40,0.8,,M*0C
$GNGMP,145957.00,,,,,DAAA,40,0.4,,,,*5D
$GPGMP,145957.00,,,,,,10,,,,3.0,136*70
$GLGMP,145957.00,,,,,,06,,,,,*72
$GAGMP,145957.00,,,,,,10,,,,,*78
$GBGMP,145957.00,,,,,,14,,,,,*7F
$PSSN,SNC,[0,313215000,2347]*43
$GPZDA,150002.00,01,01,2025,,*65
$GPDTM,W84,,00.0000000,N,00.0000000,E,00.0000000,W84*5F
$PSSN,TFM,150002.00,,,,*69
$GPRMC,150002.00,A,4742.1604072,N,01618.1012623,E,0.0,,010125,5.1,E,D*13
$GPGLL,4742.1604072,N,01618.1012623,E,150002.00,A,D*62
$GPGGA,150002.00,4742.1604072,N,01618.1012623,E,2,41,0.4,707.9982,M,43.2065,M,2.8,0136*4C
$GNGNS,150002.00,4742.1604072,N,01618.1012623,E,DAAA,41,0.4,707.9982,43.2065,,*5E
$GPGNS,150002.00,,,,,,11,,,,2.8,136*75
$GLGNS,150002.00,,,,,,06,,,,,*7F
$GAGNS,150002.00,,,,,,10,,,,,*75
$GBGNS,150002.00,,,,,,14,,,,,*72
$GPLLQ,150002.00,010125,,M,,M,1,41,1.202,,M*13
$GPVTG,,T,,M,0.01,N,0.01,K,D*26
$GPHDT,,T*1B
$GPTHS,,V*0E
$GPROT,,V*08
$PSSN,HRP,150002.00,010125,,,,,,,00,0,,*67
$PTNL,AVR,150002.00,,Yaw,,Tilt,,,,0,,00*31
$GPGSA,A,3,06,11,12,18,20,25,26,28,29,31,32,,0.7,0.4,0.5*3B
$GPGSA,A,3,77,78,79,81,87,88,,,,,,,0.7,0.4,0.5*33
$GPGSA,A,3,02,07,15,19,21,27,29,30,34,36,,,0.7,0.4,0.5*31
$GPGSA,A,3,05,08,10,11,12,13,23,24,25,34,38,43,0.7,0.4,0.5*32
$GPGSA,A,3,44,60,,,,,,,,,,,0.7,0.4,0.5*32
$GPGST,150002.00,1.651,0.673,0.451,349.335,0.667,0.461,0.888*57
$GPGBS,150002.00,4.381,2.645,5.230,06,0.0001,-2.535,2.075*7D
$GPGRS,150002.00,1,-2.5,0.9,0.2,-0.2,1.9,-0.2,2.3,-0.7,0.1,-0.1,0.9,*40
$GPGRS,150002.00,1,-4.2,-0.2,1.8,4.8,-2.8,0.4,,,,,,*6A
$GPGRS,150002.00,1,0.2,-1.0,-0.1,-0.9,2.6,-0.7,1.7,0.0,0.4,0.2,,*40
$GPGRS,150002.00,1,0.9,0.9,0.3,1.1,0.5,0.0,-0.3,-1.3,-1.0,0.2,-1.2,1.3*4D
$GPGRS,150002.00,1,-0.5,-1.4,,,,,,,,,,*48
$GPGSV,6,1,21,25,80,074,50,31,25,313,43,32,13,247,42,20,13,086,40*79
$GPGSV,6,2,21,11,34,058,46,28,48,294,47,12,39,098,47,29,67,234,50*7D
$GPGSV,6,3,21,24,02,159,,26,05,292,36,18,06,186,39,06,08,031,38*76
$GPGSV,6,4,21,36,35,170,46,58,13,245,36,40,23,133,37,34,31,208,43*7E
$GPGSV,6,5,21,49,34,195,45,57,04,114,38,41,07,108,35,61,03,257,38*74
$GPGSV,6,6,21*7A
$GLGSV,3,1,10,88,72,082,51,70,11,331,34,87,19,031,42,77,10,125,37*6C
$GLGSV,3,2,10,81,39,192,51,79,50,320,52,78,68,103,53,80,00,310,*6A
$GLGSV,3,3,10,71,02,014,40,69,05,272,40*68
$GAGSV,3,1,10,30,62,088,48,15,33,159,44,36,18,036,39,19,17,313,35*63
$GAGSV,3,2,10,02,10,101,39,29,22,267,41,34,49,088,46,27,60,298,48*68
$GAGSV,3,3,10,21,09,286,37,07,07,217,38*64
$GBGSV,6,1,21,25,77,273,51,43,22,213,44,05,20,130,38,56,18,058,*64
$GBGSV,6,2,21,23,25,306,44,10,12,072,36,11,42,200,47,13,17,092,40*61
$GBGSV,6,3,21,24,42,137,48,38,19,069,42,08,18,083,38,31,35,084,*67
$GBGSV,6,4,21,44,47,059,49,34,66,182,51,12,70,088,48,35,04,044,38*61
$GBGSV,6,5,21,19,02,350,,20,07,306,,28,09,204,,02,05,108,33*6C
$GBGSV,6,6,21,60,09,110,40*53
$GPGGA,150002.00,,,,,0,00,,,M,,M,,*4E
$PTNL,GGK,150002.00,010125,4742.1604072,N,01618.1012623,E,1,41,0.7,EHT751.2048,M*4B
$GPGGQ,150002.00,010125,4742.1604072,N,01618.1012623,E,1,41,1.202,707.9982,M*34
$GPGFA,150002.00,6.401,7.279,0.673,0.451,349.335,0.888,,VVV*0C
$GPLLK,150002.00,010125,,M,,M,1,41,0.7,,M*0F
$GNGMP,150002.00,,,,,DAAA,41,0.4,,,,*51
$GPGMP,150002.00,,,,,,11,,,,2.8,136*75
$GLGMP,150002.00,,,,,,06,,,,,*7F
$GAGMP,150002.00,,,,,,10,,,,,*75
$GBGMP,150002.00,,,,,,14,,,,,*72
$PSSN,SNC,[0,313220000,2347]*45
$GPZDA,150007.00,01,01,2025,,*60
$GPDTM,W84,,00.0000000,N,00.0000000,E,00.0000000,W84*5F
$PSSN,TFM,150007.00,,,,*6C
$GPRMC,150007.00,A,4742.1604101,N,01618.1012604,E,0.0,,010125,5.1,E,D*16
$GPGLL,4742.1604101,N,01618.1012604,E,150007.00,A,D*67
$GPGGA,150007.00,4742.1604101,N,01618.1012604,E,2,41,0.4,707.9992,M,43.2065,M,2.4,0136*44
$GNGNS,150007.00,4742.1604101,N,01618.1012604,E,DAAA,41,0.4,707.9992,43.2065,,*5A
$GPGNS,150007.00,,,,,,11,,,,2.4,136*7C
$GLGNS,150007.00,,,,,,06,,,,,*7A
$GAGNS,150007.00,,,,,,10,,,,,*70
$GBGNS,150007.00,,,,,,14,,,,,*77
$GPLLQ,150007.00,010125,,M,,M,1,41,1.203,,M*17
$GPVTG,,T,,M,0.00,N,0.01,K,D*27
$GPHDT,,T*1B
$GPTHS,,V*0E
$GPROT,,V*08
$PSSN,HRP,150007.00,010125,,,,,,,00,0,,*62
$PTNL,AVR,150007.00,,Yaw,,Tilt,,,,0,,00*34
$GPGSA,A,3,06,11,12,18,20,25,26,28,29,31,32,,0.7,0.4,0.5*3B
$GPGSA,A,3,77,78,79,81,87,88,,,,,,,0.7,0.4,0.5*33
$GPGSA,A,3,02,07,15,19,21,27,29,30,34,36,,,0.7,0.4,0.5*31
$GPGSA,A,3,05,08,10,11,12,13,23,24,25,34,38,43,0.7,0.4,0.5*32
$GPGSA,A,3,44,60,,,,,,,,,,,0.7,0.4,0.5*32
$GPGST,150007.00,1.597,0.672,0.450,349.407,0.666,0.459,0.890*5E
$GPGBS,150007.00,4.352,2.639,5.103,06,0.0001,-2.610,2.082*72
$GPGRS,150007.00,1,-2.6,0.8,0.3,-0.2,1.2,-0.2,2.3,-0.2,0.1,-0.3,0.3,*40
$GPGRS,150007.00,1,-4.1,-0.2,1.6,4.8,-2.8,0.3,,,,,,*65
$GPGRS,150007.00,1,0.1,-1.4,-0.3,-1.2,2.4,-0.8,1.4,-0.0,0.3,0.2,,*6E
$GPGRS,150007.00,1,0.5,0.8,0.3,1.1,0.1,-0.2,-0.3,-1.4,-1.1,0.0,-1.3,0.5*6C
$GPGRS,150007.00,1,-0.3,-1.6,,,,,,,,,,*49
$GPGSV,6,1,21,25,80,075,50,31,25,313,42,32,13,247,42,20,13,086,40*79
$GPGSV,6,2,21,11,34,058,46,28,48,294,47,12,39,098,47,29,67,234,50*7D
$GPGSV,6,3,21,24,02,159,,26,05,292,36,18,06,186,39,06,08,031,38*76
$GPGSV,6,4,21,36,35,170,45,58,13,245,36,40,23,133,37,34,31,208,43*7D
$GPGSV,6,5,21,49,34,195,45,57,04,114,38,41,07,108,35,61,03,257,38*74
$GPGSV,6,6,21*7A
$GLGSV,3,1,10,88,72,082,52,70,11,331,33,87,19,031,41,77,10,125,37*6B
$GLGSV,3,2,10,81,39,192,51,79,51,320,51,78,68,103,52,80,00,310,*69
$GLGSV,3,3,10,71,03,014,41,69,05,272,41*69
$GAGSV,3,1,10,30,62,089,49,15,33,159,44,36,18,036,39,19,17,313,36*60
$GAGSV,3,2,10,02,10,101,40,29,22,267,42,34,49,088,47,27,60,298,48*64
$GAGSV,3,3,10,21,09,286,37,07,07,217,38*64
$GBGSV,6,1,21,25,77,273,51,43,22,213,44,05,20,130,38,56,18,058,*64
$GBGSV,6,2,21,23,25,306,44,10,12,072,37,11,42,200,47,13,17,092,40*60
$GBGSV,6,3,21,24,42,138,48,38,19,069,42,08,18,083,38,31,35,084,*68
$GBGSV,6,4,21,44,47,059,48,34,66,182,51,12,70,088,48,35,04,044,39*61
$GBGSV,6,5,21,19,02,350,,20,07,306,,28,09,204,,02,05,108,33*6C
$GBGSV,6,6,21,60,09,110,40*53
$GPGGA,150007.00,,,,,0,00,,,M,,M,,*4B
$PTNL,GGK,150007.00,010125,4742.1604101,N,01618.1012604,E,1,41,0.7,EHT751.2058,M*4F
$GPGGQ,150007.00,010125,4742.1604101,N,01618.1012604,E,1,41,1.203,707.9992,M*31
$GPGFA,150007.00,6.390,7.299,0.672,0.450,349.407,0.890,,VVV*07
$GPLLK,150007.00,010125,,M,,M,1,41,0.7,,M*0A
$GNGMP,150007.00,,,,,DAAA,41,0.4,,,,*54
$GPGMP,150007.00,,,,,,11,,,,2.4,136*7C
$GLGMP,150007.00,,,,,,06,,,,,*7A
$GAGMP,150007.00,,,,,,10,,,,,*70
$GBGMP,150007.00,,,,,,14,,,,,*77
$PSSN,SNC,[0,313225000,2347]*40
$GPZDA,150012.00,01,01,2025,,*64
$GPDTM,W84,,00.0000000,N,00.0000000,E,00.0000000,W84*5F
$PSSN,TFM,150012.00,,,,*68
$GPRMC,150012.00,A,4742.1604127,N,01618.1012581,E,0.0,,010125,5.1,E,D*18
$GPGLL,4742.1604127,N,01618.1012581,E,150012.00,A,D*69
$GPGGA,150012.00,4742.1604127,N,01618.1012581,E,2,41,0.4,707.9959,M,43.2065,M,1.9,0136*43
$GNGNS,150012.00,4742.1604127,N,01618.1012581,E,DAAA,41,0.4,707.9959,43.2065,,*53
$GPGNS,150012.00,,,,,,11,,,,1.9,136*76
$GLGNS,150012.00,,,,,,06,,,,,*7E
$GAGNS,150012.00,,,,,,10,,,,,*74
$GBGNS,150012.00,,,,,,14,,,,,*73
$GPLLQ,150012.00,010125,,M,,M,1,41,1.197,,M*1D
$GPVTG,,T,,M,0.00,N,0.00,K,D*26
$GPHDT,,T*1B
$GPTHS,,V*0E
$GPROT,,V*08
$PSSN,HRP,150012.00,010125,,,,,,,00,0,,*66
$PTNL,AVR,150012.00,,Yaw,,Tilt,,,,0,,00*30
$GPGSA,A,3,06,11,12,18,20,25,26,28,29,31,32,,0.7,0.4,0.5*3B
$GPGSA,A,3,77,78,79,81,87,88,,,,,,,0.7,0.4,0.5*33
$GPGSA,A,3,02,07,15,19,21,27,29,30,34,36,,,0.7,0.4,0.5*31
$GPGSA,A,3,05,08,10,11,12,13,23,24,25,34,38,43,0.7,0.4,0.5*32
$GPGSA,A,3,44,60,,,,,,,,,,,0.7,0.4,0.5*32
$GPGST,150012.00,1.677,0.670,0.449,349.437,0.664,0.458,0.885*59
$GPGBS,150012.00,4.367,2.622,5.152,06,0.0001,-2.285,2.088*7C
$GPGRS,150012.00,1,-2.3,0.5,0.5,-0.5,2.2,-0.1,2.7,-0.5,-0.0,-0.6,0.4,*60
$GPGRS,150012.00,1,-5.6,-0.3,0.8,3.8,-2.2,-0.0,,,,,,*4A
$GPGRS,150012.00,1,0.8,-1.4,-0.3,-1.2,2.4,-0.9,1.3,-0.0,0.3,0.2,,*65
$GPGRS,150012.00,1,0.2,2.0,1.3,1.1,-0.1,0.5,-0.5,-1.5,-1.0,0.3,-0.7,0.5*63
$GPGRS,150012.00,1,-0.5,-1.2,,,,,,,,,,*4F
$GPGSV,6,1,21,25,80,075,50,31,25,313,43,32,13,247,42,20,13,086,40*78
$GPGSV,6,2,21,11,34,058,45,28,48,294,47,12,39,098,47,29,67,234,50*7E
$GPGSV,6,3,21,24,02,159,,26,05,292,37,18,06,186,39,06,08,031,38*77
$GPGSV,6,4,21,36,35,170,46,58,13,245,37,40,23,133,37,34,31,208,43*7F
$GPGSV,6,5,21,49,34,195,45,57,04,114,38,41,07,108,35,61,03,257,39*75
$GPGSV,6,6,21*7A
$GLGSV,3,1,10,88,72,081,51,70,11,331,33,87,19,031,41,77,10,125,37*6B
$GLGSV,3,2,10,81,39,192,50,79,51,320,51,78,68,104,53,80,00,310,*6E
$GLGSV,3,3,10,71,03,014,40,69,05,272,42*6B
$GAGSV,3,1,10,30,62,089,48,15,33,159,44,36,18,036,39,19,17,313,36*61
$GAGSV,3,2,10,02,10,101,39,29,22,267,42,34,49,088,47,27,60,298,48*6A
$GAGSV,3,3,10,21,09,286,37,07,07,217,38*64
$GBGSV,6,1,21,25,77,273,51,43,22,213,43,05,20,130,38,56,18,058,*63
$GBGSV,6,2,21,23,25,306,44,10,12,072,36,11,42,200,47,13,17,092,40*61
$GBGSV,6,3,21,24,42,138,48,38,19,069,41,08,18,083,38,31,35,084,*6B
$GBGSV,6,4,21,44,47,059,49,34,67,182,51,12,70,088,48,35,04,044,39*61
$GBGSV,6,5,21,19,02,350,,20,07,306,,28,09,204,,02,05,108,33*6C
$GBGSV,6,6,21,60,09,110,40*53
$GPGGA,150012.00,,,,,0,00,,,M,,M,,*4F
$PTNL,GGK,150012.00,010125,4742.1604127,N,01618.1012581,E,1,41,0.7,EHT751.2024,M*4A
$GPGGQ,150012.00,010125,4742.1604127,N,01618.1012581,E,1,41,1.197,707.9959,M*36
$GPGFA,150012.00,6.368,7.254,0.670,0.449,349.437,0.885,,VVV*08
$GPLLK,150012.00,010125,,M,,M,1,41,0.7,,M*0E
$GNGMP,150012.00,,,,,DAAA,41,0.4,,,,*50
$GPGMP,150012.00,,,,,,11,,,,1.9,136*76
$GLGMP,150012.00,,,,,,06,,,,,*7E
$GAGMP,150012.00,,,,,,10,,,,,*74
$GBGMP,150012.00,,,,,,14,,,,,*73
$PSSN,SNC,[0,313230000,2347]*44
$GPZDA,150017.00,01,01,2025,,*61
$GPDTM,W84,,00.0000000,N,00.0000000,E,00.0000000,W84*5F
$PSSN,TFM,150017.00,,,,*6D
$GPRMC,150017.00,A,4742.1604154,N,01618.1012541,E,0.0,,010125,5.1,E,D*15
$GPGLL,4742.1604154,N,01618.1012541,E,150017.00,A,D*64
$GPGGA,150017.00,4742.1604154,N,01618.1012541,E,2,41,0.4,707.9946,M,43.2065,M,2.9,0136*43
$GNGNS,150017.00,4742.1604154,N,01618.1012541,E,DAAA,41,0.4,707.9946,43.2065,,*50
$GPGNS,150017.00,,,,,,11,,,,2.9,136*70
$GLGNS,150017.00,,,,,,06,,,,,*7B
$GAGNS,150017.00,,,,,,10,,,,,*71
$GBGNS,150017.00,,,,,,14,,,,,*76
$GPLLQ,150017.00,010125,,M,,M,1,41,1.196,,M*19
$GPVTG,,T,,M,0.00,N,0.00,K,D*26
$GPHDT,,T*1B
$GPTHS,,V*0E
$GPROT,,V*08
$PSSN,HRP,150017.00,010125,,,,,,,00,0,,*63
$PTNL,AVR,150017.00,,Yaw,,Tilt,,,,0,,00*35
$GPGSA,A,3,06,11,12,18,20,25,26,28,29,31,32,,0.7,0.4,0.5*3B
$GPGSA,A,3,77,78,79,81,87,88,,,,,,,0.7,0.4,0.5*33
$GPGSA,A,3,02,07,15,19,21,27,29,30,34,36,,,0.7,0.4,0.5*31
$GPGSA,A,3,05,08,10,11,12,13,23,24,25,34,38,43,0.7,0.4,0.5*32
$GPGSA,A,3,44,60,,,,,,,,,,,0.7,0.4,0.5*32
$GPGST,150017.00,1.614,0.671,0.451,349.345,0.665,0.460,0.881*5D
$GPGBS,150017.00,4.390,2.629,5.176,20,0.0001,2.679,2.325*56
$GPGRS,150017.00,1,-2.3,0.7,0.2,-0.4,2.7,-0.2,2.3,-0.6,0.1,-0.2,0.3,*4F
$GPGRS,150017.00,1,-4.6,-0.4,1.3,3.8,-1.6,-0.1,,,,,,*45
$GPGRS,150017.00,1,0.5,-1.5,-0.2,-1.1,2.5,-1.0,1.2,-0.3,0.5,0.4,,*65
$GPGRS,150017.00,1,1.0,2.5,1.3,1.6,0.7,0.9,-0.1,-0.4,-1.1,-0.2,-0.4,0.6*69
$GPGRS,150017.00,1,0.3,-1.0,,,,,,,,,,*63
$GPGSV,6,1,22,25,80,075,50,31,25,313,43,32,13,246,43,20,13,086,40*7B
$GPGSV,6,2,22,11,34,058,45,28,48,294,47,12,39,098,47,29,67,234,50*7D
$GPGSV,6,3,22,26,05,292,37,24,02,159,,05,00,116,,06,08,031,38*7D
$GPGSV,6,4,22,18,07,186,39,36,35,170,46,58,13,245,37,40,23,133,37*7F
$GPGSV,6,5,22,34,31,208,43,49,34,195,45,57,04,114,38,41,07,108,35*70
$GPGSV,6,6,22,61,03,257,38*46
$GLGSV,3,1,10,88,72,081,51,70,11,331,34,87,19,031,42,77,10,125,37*6F
$GLGSV,3,2,10,81,39,192,50,79,51,320,51,78,68,104,52,80,00,310,*6F
$GLGSV,3,3,10,71,03,014,40,69,05,272,42*6B
$GAGSV,3,1,10,30,62,089,48,15,33,159,44,36,18,036,39,19,17,313,36*61
$GAGSV,3,2,10,02,10,101,39,29,22,267,42,34,49,088,47,27,60,298,48*6A
$GAGSV,3,3,10,21,09,286,37,07,07,217,38*64
$GBGSV,6,1,21,25,77,273,51,43,22,213,43,05,20,130,38,56,18,058,*63
$GBGSV,6,2,21,23,25,306,44,10,12,072,37,11,42,200,48,13,17,092,40*6F
$GBGSV,6,3,21,24,41,138,48,38,19,069,42,08,18,083,39,31,35,084,*6A
$GBGSV,6,4,21,44,47,059,49,34,67,182,51,12,70,088,48,35,04,044,39*61
$GBGSV,6,5,21,19,02,350,,20,07,306,,28,09,204,,02,05,108,33*6C
$GBGSV,6,6,21,60,09,110,40*53
$GPGGA,150017.00,,,,,0,00,,,M,,M,,*4A
$PTNL,GGK,150017.00,010125,4742.1604154,N,01618.1012541,E,1,41,0.7,EHT751.2011,M*41
$GPGGQ,150017.00,010125,4742.1604154,N,01618.1012541,E,1,41,1.196,707.9946,M*34
$GPGFA,150017.00,6.379,7.226,0.671,0.451,349.345,0.881,,VVV*06
$GPLLK,150017.00,010125,,M,,M,1,41,0.7,,M*0B
$GNGMP,150017.00,,,,,DAAA,41,0.4,,,,*55
$GPGMP,150017.00,,,,,,11,,,,2.9,136*70
$GLGMP,150017.00,,,,,,06,,,,,*7B
$GAGMP,150017.00,,,,,,10,,,,,*71
$GBGMP,150017.00,,,,,,14,,,,,*76
$PSSN,SNC,[0,313235000,2347]*41
$GPZDA,150022.00,01,01,2025,,*67
$GPDTM,W84,,00.0000000,N,00.0000000,E,00.0000000,W84*5F
$PSSN,TFM,150022.00,,,,*6B
$GPRMC,150022.00,A,4742.1604181,N,01618.1012509,E,0.0,,010125,5.1,E,D*17
$GPGLL,4742.1604181,N,01618.1012509,E,150022.00,A,D*66
$GPGGA,150022.00,4742.1604181,N,01618.1012509,E,2,41,0.4,707.9969,M,43.2065,M,2.8,0136*4D
$GNGNS,150022.00,4742.1604181,N,01618.1012509,E,DAAA,41,0.4,707.9969,43.2065,,*5F
$GPGNS,150022.00,,,,,,11,,,,2.8,136*77
$GLGNS,150022.00,,,,,,06,,,,,*7D
$GAGNS,150022.00,,,,,,10,,,,,*77
$GBGNS,150022.00,,,,,,14,,,,,*70
$GPLLQ,150022.00,010125,,M,,M,1,41,1.203,,M*10
$GPVTG,,T,,M,0.00,N,0.00,K,D*26
$GPHDT,,T*1B
$GPTHS,,V*0E
$GPROT,,V*08
$PSSN,HRP,150022.00,010125,,,,,,,00,0,,*65
$PTNL,AVR,150022.00,,Yaw,,Tilt,,,,0,,00*33
$GPGSA,A,3,06,11,12,18,20,25,26,28,29,31,32,,0.7,0.4,0.5*3B
$GPGSA,A,3,77,78,79,81,87,88,,,,,,,0.7,0.4,0.5*33
$GPGSA,A,3,02,07,15,19,21,27,29,30,34,36,,,0.7,0.4,0.5*31
$GPGSA,A,3,05,08,10,11,12,13,23,24,25,34,38,43,0.7,0.4,0.5*32
$GPGSA,A,3,44,60,,,,,,,,,,,0.7,0.4,0.5*32
$GPGST,150022.00,1.549,0.674,0.452,349.457,0.668,0.461,0.888*57
$GPGBS,150022.00,4.387,2.639,5.221,06,0.0001,-2.226,2.109*7D
$GPGRS,150022.00,1,-2.2,0.9,-0.0,-0.0,2.1,-0.2,2.1,-0.4,-0.1,-0.1,0.6,*40
$GPGRS,150022.00,1,-4.3,-0.6,1.0,3.6,-1.5,0.1,,,,,,*67
$GPGRS,150022.00,1,0.3,-1.7,-0.4,-1.3,2.5,-1.0,1.3,-0.5,0.1,0.2,,*66
$GPGRS,150022.00,1,0.7,2.3,1.9,1.6,0.3,0.9,-0.3,-0.5,-1.1,-0.5,-0.5,1.1*62
$GPGRS,150022.00,1,0.0,-1.2,,,,,,,,,,*64
$GPGSV,6,1,22,25,80,075,50,31,25,313,44,32,13,246,42,20,13,086,40*7D
$GPGSV,6,2,22,11,34,058,45,28,48,294,47,12,38,098,47,29,67,234,50*7C
$GPGSV,6,3,22,26,05,292,37,24,02,159,,05,00,116,,06,08,031,38*7D
$GPGSV,6,4,22,18,07,186,39,36,35,170,45,58,13,245,36,40,23,133,37*7D
$GPGSV,6,5,22,34,31,208,43,49,34,195,45,57,04,114,38,41,07,108,35*70
$GPGSV,6,6,22,61,03,257,38*46
$GLGSV,3,1,10,88,72,081,52,70,11,331,34,87,19,031,43,77,10,125,37*6D
$GLGSV,3,2,10,81,39,192,51,79,51,320,51,78,68,104,53,80,00,310,*6F
$GLGSV,3,3,10,71,03,014,40,69,04,272,42*6A
$GAGSV,3,1,10,30,62,089,48,15,33,159,45,36,18,036,39,19,17,313,36*60
$GAGSV,3,2,10,02,10,101,38,29,22,267,42,34,49,088,47,27,60,298,48*6B
$GAGSV,3,3,10,21,09,286,37,07,07,217,38*64
$GBGSV,6,1,21,25,77,273,51,43,22,213,43,05,20,130,38,56,18,058,*63
$GBGSV,6,2,21,23,25,306,45,10,12,072,37,11,43,200,47,13,17,092,40*60
$GBGSV,6,3,21,24,41,138,49,38,19,069,42,08,18,083,39,31,35,084,*6B
$GBGSV,6,4,21,44,47,059,48,34,67,182,51,12,70,087,48,35,04,044,39*6F
$GBGSV,6,5,21,19,02,350,,20,07,306,,28,09,204,,02,05,108,33*6C
$GBGSV,6,6,21,60,09,110,40*53
$GPGGA,150022.00,,,,,0,00,,,M,,M,,*4C
$PTNL,GGK,150022.00,010125,4742.1604181,N,01618.1012509,E,1,41,0.7,EHT751.2035,M*45
$GPGGQ,150022.00,010125,4742.1604181,N,01618.1012509,E,1,41,1.203,707.9969,M*34
$GPGFA,150022.00,6.406,7.280,0.674,0.452,349.457,0.888,,VVV*08
$GPLLK,150022.00,010125,,M,,M,1,41,0.7,,M*0D
$GNGMP,150022.00,,,,,DAAA,41,0.4,,,,*53
$GPGMP,150022.00,,,,,,11,,,,2.8,136*77
$GLGMP,150022.00,,,,,,06,,,,,*7D
$GAGMP,150022.00,,,,,,10,,,,,*77
$GBGMP,150022.00,,,,,,14,,,,,*70
$PSSN,SNC,[0,313240000,2347]*43
$GPZDA,150027.00,01,01,2025,,*62
$GPDTM,W84,,00.0000000,N,00.0000000,E,00.0000000,W84*5F
$PSSN,TFM,150027.00,,,,*6E
$GPRMC,150027.00,A,4742.1604183,N,01618.1012478,E,0.0,,010125,5.1,E,D*17
$GPGLL,4742.1604183,N,01618.1012478,E,150027.00,A,D*66
$GPGGA,150027.00,4742.1604183,N,01618.1012478,E,2,41,0.4,707.9979,M,43.2065,M,2.4,0136*40
$GNGNS,150027.00,4742.1604183,N,01618.1012478,E,DAAA,41,0.4,707.9979,43.2065,,*5E
$GPGNS,150027.00,,,,,,11,,,,2.4,136*7E
$GLGNS,150027.00,,,,,,06,,,,,*78
$GAGNS,150027.00,,,,,,10,,,,,*72
$GBGNS,150027.00,,,,,,14,,,,,*75
$GPLLQ,150027.00,010125,,M,,M,1,41,1.202,,M*14
$GPVTG,,T,,M,0.00,N,0.01,K,D*27
$GPHDT,,T*1B
$GPTHS,,V*0E
$GPROT,,V*08
$PSSN,HRP,150027.00,010125,,,,,,,00,0,,*60
$PTNL,AVR,150027.00,,Yaw,,Tilt,,,,0,,00*36
$GPGSA,A,3,06,11,12,18,20,25,26,28,29,31,32,,0.7,0.4,0.5*3B
$GPGSA,A,3,77,78,79,81,87,88,,,,,,,0.7,0.4,0.5*33
$GPGSA,A,3,02,07,15,19,21,27,29,30,34,36,,,0.7,0.4,0.5*31
$GPGSA,A,3,05,08,10,11,12,13,23,24,25,34,38,43,0.7,0.4,0.5*32
$GPGSA,A,3,44,60,,,,,,,,,,,0.7,0.4,0.5*32
$GPGST,150027.00,1.645,0.672,0.450,349.541,0.666,0.459,0.890*53
$GPGBS,150027.00,4.358,2.633,5.093,06,0.0001,-2.334,2.116*77
$GPGRS,150027.00,1,-2.3,1.0,0.1,-0.6,1.7,-0.1,2.8,-0.3,-0.3,-0.0,0.2,*69
$GPGRS,150027.00,1,-5.3,-0.4,1.1,4.2,-1.1,0.2,,,,,,*64
$GPGRS,150027.00,1,0.3,-1.5,-0.4,-0.9,2.9,-1.0,1.2,-0.1,0.3,0.5,,*66
$GPGRS,150027.00,1,0.5,1.9,1.3,0.7,-0.4,0.8,-0.7,-0.4,-1.1,-0.5,-0.2,1.2*4C
$GPGRS,150027.00,1,-0.2,-0.9,,,,,,,,,,*44
$GPGSV,6,1,22,25,80,075,50,31,25,313,43,32,13,246,42,20,13,086,40*7A
$GPGSV,6,2,22,11,34,058,45,28,48,294,47,12,38,098,47,29,67,234,50*7C
$GPGSV,6,3,22,26,05,292,36,24,02,159,,05,00,116,,06,08,031,38*7C
$GPGSV,6,4,22,18,07,186,39,36,35,170,45,58,13,245,36,40,23,133,37*7D
$GPGSV,6,5,22,34,31,208,43,49,34,195,45,57,04,114,38,41,07,108,35*70
$GPGSV,6,6,22,61,03,257,38*46
$GLGSV,3,1,10,88,72,081,52,70,11,331,34,87,19,031,43,77,10,125,37*6D
$GLGSV,3,2,10,81,39,192,51,79,51,320,51,78,68,104,53,80,00,310,*6F
$GLGSV,3,3,10,71,03,014,39,69,04,272,41*67
$GAGSV,3,1,10,30,62,089,48,15,33,159,45,36,18,036,39,19,17,313,36*60
$GAGSV,3,2,10,02,10,101,38,29,22,267,42,34,49,088,47,27,60,298,48*6B
$GAGSV,3,3,10,21,09,286,38,07,07,217,37*64
$GBGSV,6,1,21,25,77,273,51,43,22,213,43,05,20,130,38,56,18,058,*63
$GBGSV,6,2,21,23,25,306,44,10,12,072,37,11,43,200,47,13,17,092,40*61
$GBGSV,6,3,21,24,41,138,49,38,19,069,42,08,18,083,39,31,35,084,*6B
$GBGSV,6,4,21,44,47,059,48,34,67,182,51,12,70,087,48,35,04,044,39*6F
$GBGSV,6,5,21,19,02,350,,20,07,306,,28,09,204,,02,05,108,33*6C
$GBGSV,6,6,21,60,09,110,40*53
$GPGGA,150027.00,,,,,0,00,,,M,,M,,*49
$PTNL,GGK,150027.00,010125,4742.1604183,N,01618.1012478,E,1,41,0.7,EHT751.2044,M*43
$GPGGQ,150027.00,010125,4742.1604183,N,01618.1012478,E,1,41,1.202,707.9979,M*34
$GPGFA,150027.00,6.388,7.295,0.672,0.450,349.541,0.890,,VVV*03
$GPLLK,150027.00,010125,,M,,M,1,41,0.7,,M*08
$GNGMP,150027.00,,,,,DAAA,41,0.4,,,,*56
$GPGMP,150027.00,,,,,,11,,,,2.4,136*7E
$GLGMP,150027.00,,,,,,06,,,,,*78
$GAGMP,150027.00,,,,,,10,,,,,*72
$GBGMP,150027.00,,,,,,14,,,,,*75
$PSSN,SNC,[0,313245000,2347]*46
$GPZDA,150032.00,01,01,2025,,*66
$GPDTM,W84,,00.0000000,N,00.0000000,E,00.0000000,W84*5F
$PSSN,TFM,150032.00,,,,*6A
$GPRMC,150032.00,A,4742.1604199,N,01618.1012447,E,0.0,,010125,5.1,E,D*14
$GPGLL,4742.1604199,N,01618.1012447,E,150032.00,A,D*65
$GPGGA,150032.00,4742.1604199,N,01618.1012447,E,2,41,0.4,708.0018,M,43.2065,M,1.9,0136*45
$GNGNS,150032.00,4742.1604199,N,01618.1012447,E,DAAA,41,0.4,708.0018,43.2065,,*55
$GPGNS,150032.00,,,,,,11,,,,1.9,136*74
$GLGNS,150032.00,,,,,,06,,,,,*7C
$GAGNS,150032.00,,,,,,10,,,,,*76
$GBGNS,150032.00,,,,,,14,,,,,*71
$GPLLQ,150032.00,010125,,M,,M,1,41,1.197,,M*1F
$GPVTG,,T,,M,0.00,N,0.00,K,D*26
$GPHDT,,T*1B
$GPTHS,,V*0E
$GPROT,,V*08
$PSSN,HRP,150032.00,010125,,,,,,,00,0,,*64
$PTNL,AVR,150032.00,,Yaw,,Tilt,,,,0,,00*32
$GPGSA,A,3,06,11,12,18,20,25,26,28,29,31,32,,0.7,0.4,0.5*3B
$GPGSA,A,3,77,78,79,81,87,88,,,,,,,0.7,0.4,0.5*33
$GPGSA,A,3,02,07,15,19,21,27,29,30,34,36,,,0.7,0.4,0.5*31
$GPGSA,A,3,05,08,10,11,12,13,23,24,25,34,38,43,0.7,0.4,0.5*32
$GPGSA,A,3,44,60,,,,,,,,,,,0.7,0.4,0.5*32
$GPGST,150032.00,1.682,0.670,0.449,349.593,0.664,0.458,0.885*5E
$GPGBS,150032.00,4.374,2.615,5.145,06,0.0001,-2.674,2.127*70
$GPGRS,150032.00,1,-2.7,0.5,0.3,-0.1,1.8,-0.2,2.2,-0.3,0.1,-1.0,0.3,*41
$GPGRS,150032.00,1,-5.5,-0.2,1.3,4.9,-1.9,0.1,,,,,,*62
$GPGRS,150032.00,1,0.1,-1.3,-0.4,-0.8,2.3,-0.7,1.2,0.0,0.4,0.4,,*41
$GPGRS,150032.00,1,0.3,1.7,0.5,0.9,0.4,1.0,-0.5,-0.3,-1.0,-0.4,0.3,1.4*42
$GPGRS,150032.00,1,-0.0,-0.9,,,,,,,,,,*42
$GPGSV,6,1,22,25,80,075,50,31,25,313,43,32,12,246,41,20,13,086,39*76
$GPGSV,6,2,22,11,34,058,45,28,48,294,47,12,38,098,47,29,67,234,50*7C
$GPGSV,6,3,22,26,05,292,36,24,02,159,,05,00,116,,06,08,031,37*73
$GPGSV,6,4,22,18,07,186,38,36,35,170,45,58,13,245,36,40,23,133,36*7D
$GPGSV,6,5,22,34,31,208,43,49,34,195,45,57,04,114,38,41,07,108,35*70
$GPGSV,6,6,22,61,03,257,38*46
$GLGSV,3,1,10,88,72,081,52,70,11,331,34,87,19,031,43,77,10,125,36*6C
$GLGSV,3,2,10,81,39,192,51,79,51,321,51,78,68,104,52,80,01,310,*6E
$GLGSV,3,3,10,71,03,014,38,69,04,272,41*66
$GAGSV,3,1,10,30,61,089,48,15,33,159,45,36,18,036,39,19,17,313,36*63
$GAGSV,3,2,10,02,10,101,38,29,22,267,42,34,49,088,47,27,60,298,48*6B
$GAGSV,3,3,10,21,09,286,38,07,07,217,37*64
$GBGSV,6,1,21,25,77,272,51,43,22,213,44,05,20,130,38,56,18,058,*65
$GBGSV,6,2,21,23,25,306,44,10,12,072,37,11,43,200,47,13,17,092,40*61
$GBGSV,6,3,21,24,41,138,48,38,19,069,41,08,18,083,38,31,35,084,*68
$GBGSV,6,4,21,44,47,059,48,34,67,182,51,12,70,087,48,35,04,044,39*6F
$GBGSV,6,5,21,19,02,350,,20,07,306,,28,09,204,,02,05,108,33*6C
$GBGSV,6,6,21,60,09,110,40*53
$GPGGA,150032.00,,,,,0,00,,,M,,M,,*4D
$PTNL,GGK,150032.00,010125,4742.1604199,N,01618.1012447,E,1,41,0.7,EHT751.2083,M*4B
$GPGGQ,150032.00,010125,4742.1604199,N,01618.1012447,E,1,41,1.197,708.0018,M*30
$GPGFA,150032.00,6.369,7.253,0.670,0.449,349.593,0.885,,VVV*03
$GPLLK,150032.00,010125,,M,,M,1,41,0.7,,M*0C
$GNGMP,150032.00,,,,,DAAA,41,0.4,,,,*52
$GPGMP,150032.00,,,,,,11,,,,1.9,136*74
$GLGMP,150032.00,,,,,,06,,,,,*7C
$GAGMP,150032.00,,,,,,10,,,,,*76
$GBGMP,150032.00,,,,,,14,,,,,*71
$PSSN,SNC,[0,313250000,2347]*42
$GPZDA,150037.00,01,01,2025,,*63
$GPDTM,W84,,00.0000000,N,00.0000000,E,00.0000000,W84*5F
$PSSN,TFM,150037.00,,,,*6F
$GPRMC,150037.00,A,4742.1604240,N,01618.1012427,E,0.0,,010125,5.1,E,D*10
$GPGLL,4742.1604240,N,01618.1012427,E,150037.00,A,D*61
$GPGGA,150037.00,4742.1604240,N,01618.1012427,E,2,41,0.4,708.0033,M,43.2065,M,2.9,0136*4B
$GNGNS,150037.00,4742.1604240,N,01618.1012427,E,DAAA,41,0.4,708.0033,43.2065,,*58
$GPGNS,150037.00,,,,,,11,,,,2.9,136*72
$GLGNS,150037.00,,,,,,06,,,,,*79
$GAGNS,150037.00,,,,,,10,,,,,*73
$GBGNS,150037.00,,,,,,14,,,,,*74
$GPLLQ,150037.00,010125,,M,,M,1,41,1.196,,M*1B
$GPVTG,,T,,M,0.00,N,0.00,K,D*26
$GPHDT,,T*1B
$GPTHS,,V*0E
$GPROT,,V*08
$PSSN,HRP,150037.00,010125,,,,,,,00,0,,*61
$PTNL,AVR,150037.00,,Yaw,,Tilt,,,,0,,00*37
$GPGSA,A,3,06,11,12,18,20,25,26,28,29,31,32,,0.7,0.4,0.5*3B
$GPGSA,A,3,77,78,79,81,87,88,,,,,,,0.7,0.4,0.5*33
$GPGSA,A,3,02,07,15,19,21,27,29,30,34,36,,,0.7,0.4,0.5*31
$GPGSA,A,3,05,08,10,11,12,13,23,24,25,34,38,43,0.7,0.4,0.5*32
$GPGSA,A,3,44,60,,,,,,,,,,,0.7,0.4,0.5*32
$GPGST,150037.00,1.732,0.671,0.451,349.507,0.665,0.460,0.881*5A
$GPGBS,150037.00,4.397,2.623,5.168,06,0.0001,-2.616,2.135*75
$GPGRS,150037.00,1,-2.6,0.9,0.3,-0.1,1.6,-0.2,2.5,-0.3,-0.0,-0.7,0.9,*60
$GPGRS,150037.00,1,-5.9,-0.8,1.4,4.1,-2.7,0.2,,,,,,*60
$GPGRS,150037.00,1,0.4,-1.3,-0.7,-1.3,1.6,-0.8,1.6,-0.2,-0.0,0.2,,*45
$GPGRS,150037.00,1,0.1,1.4,1.8,1.2,1.0,0.9,-0.5,-0.1,-0.9,-0.7,0.0,1.6*45
$GPGRS,150037.00,1,-0.1,-0.8,,,,,,,,,,*47
$GPGSV,6,1,22,25,80,076,50,31,25,313,44,32,12,246,42,20,13,086,39*71
$GPGSV,6,2,22,11,34,058,46,28,48,294,47,12,38,098,46,29,67,235,50*7F
$GPGSV,6,3,22,26,05,292,37,24,02,159,,05,00,116,,06,08,031,37*72
$GPGSV,6,4,22,18,07,186,38,36,35,170,45,58,13,245,36,40,23,133,37*7C
$GPGSV,6,5,22,34,31,208,43,49,34,195,45,57,04,114,38,41,07,108,35*70
$GPGSV,6,6,22,61,03,257,38*46
$GLGSV,3,1,10,88,72,081,52,70,11,331,34,87,19,031,42,77,10,125,36*6D
$GLGSV,3,2,10,81,39,192,51,79,51,321,51,78,68,104,52,80,01,310,*6E
$GLGSV,3,3,10,71,03,014,39,69,04,272,40*66
$GAGSV,3,1,10,30,61,089,48,15,33,159,44,36,18,036,39,19,17,313,36*62
$GAGSV,3,2,10,02,10,101,37,29,22,266,42,34,49,088,47,27,60,298,48*65
$GAGSV,3,3,10,21,09,286,38,07,07,217,38*6B
$GBGSV,6,1,21,25,77,272,52,43,22,213,44,05,20,130,38,56,18,058,*66
$GBGSV,6,2,21,23,26,306,44,10,12,072,37,11,43,200,47,13,17,092,40*62
$GBGSV,6,3,21,24,41,138,48,38,19,069,42,08,18,083,38,31,35,084,*6B
$GBGSV,6,4,21,44,47,059,48,34,67,182,51,12,70,087,49,35,04,044,39*6E
$GBGSV,6,5,21,19,02,350,,20,07,306,,28,09,204,,02,05,108,33*6C
$GBGSV,6,6,21,60,09,110,40*53
$GPGGA,150037.00,,,,,0,00,,,M,,M,,*48
$PTNL,GGK,150037.00,010125,4742.1604240,N,01618.1012427,E,1,41,0.7,EHT751.2098,M*45
$GPGGQ,150037.00,010125,4742.1604240,N,01618.1012427,E,1,41,1.196,708.0033,M*3C
$GPGFA,150037.00,6.380,7.225,0.671,0.451,349.507,0.881,,VVV*01
$GPLLK,150037.00,010125,,M,,M,1,41,0.7,,M*09
$GNGMP,150037.00,,,,,DAAA,41,0.4,,,,*57
$GPGMP,150037.00,,,,,,11,,,,2.9,136*72
$GLGMP,150037.00,,,,,,06,,,,,*79
$GAGMP,150037.00,,,,,,10,,,,,*73
$GBGMP,150037.00,,,,,,14,,,,,*74
$PSSN,SNC,[0,313255000,2347]*47
$GPZDA,150042.00,01,01,2025,,*61
$GPDTM,W84,,00.0000000,N,00.0000000,E,00.0000000,W84*5F
$PSSN,TFM,150042.00,,,,*6D
$GPRMC,150042.00,A,4742.1604258,N,01618.1012410,E,0.0,,010125,5.1,E,D*1F
$GPGLL,4742.1604258,N,01618.1012410,E,150042.00,A,D*6E
$GPGGA,150042.00,4742.1604258,N,01618.1012410,E,2,41,0.4,708.0052,M,43.2065,M,2.8,0136*42
$GNGNS,150042.00,4742.1604258,N,01618.1012410,E,DAAA,41,0.4,708.0052,43.2065,,*50
$GPGNS,150042.00,,,,,,11,,,,2.8,136*71
$GLGNS,150042.00,,,,,,06,,,,,*7B
$GAGNS,150042.00,,,,,,10,,,,,*71
$GBGNS,150042.00,,,,,,14,,,,,*76
$GPLLQ,150042.00,010125,,M,,M,1,41,1.201,,M*14
$GPVTG,,T,,M,0.00,N,0.00,K,D*26
$GPHDT,,T*1B
$GPTHS,,V*0E
$GPROT,,V*08
$PSSN,HRP,150042.00,010125,,,,,,,00,0,,*63
$PTNL,AVR,150042.00,,Yaw,,Tilt,,,,0,,00*35
$GPGSA,A,3,06,11,12,18,20,25,26,28,29,31,32,,0.7,0.4,0.5*3B
$GPGSA,A,3,77,78,79,81,87,88,,,,,,,0.7,0.4,0.5*33
$GPGSA,A,3,02,07,15,19,21,27,29,30,34,36,,,0.7,0.4,0.5*31
$GPGSA,A,3,05,08,10,11,12,13,23,24,25,34,38,43,0.7,0.4,0.5*32
$GPGSA,A,3,44,60,,,,,,,,,,,0.7,0.4,0.5*32
$GPGST,150042.00,1.759,0.673,0.452,349.477,0.666,0.461,0.886*57
$GPGBS,150042.00,4.390,2.632,5.207,06,0.0001,-2.800,2.117*73
$GPGRS,150042.00,1,-2.8,0.9,0.2,-0.1,2.0,-0.2,3.9,-0.5,-0.0,-0.2,0.8,*67
$GPGRS,150042.00,1,-5.2,-0.4,1.3,3.8,-3.4,0.3,,,,,,*6F
$GPGRS,150042.00,1,0.0,-1.2,-0.6,-0.9,1.6,-1.0,1.7,-0.1,0.1,0.2,,*6F
$GPGRS,150042.00,1,0.2,1.3,1.9,1.4,1.0,1.0,-0.4,-0.3,-0.9,-0.5,-0.0,0.7*60
$GPGRS,150042.00,1,-0.1,-0.8,,,,,,,,,,*45
$GPGSV,6,1,22,25,80,076,50,31,25,313,44,32,12,246,42,20,13,086,39*71
$GPGSV,6,2,22,11,34,058,46,28,48,294,47,12,38,098,46,29,67,235,50*7F
$GPGSV,6,3,22,26,05,292,36,24,02,159,,05,00,116,,06,08,031,37*73
$GPGSV,6,4,22,18,07,186,38,36,35,170,45,58,13,245,37,40,23,133,37*7D
$GPGSV,6,5,22,34,31,208,43,49,34,195,45,57,04,114,38,41,07,108,35*70
$GPGSV,6,6,22,61,03,257,38*46
$GLGSV,3,1,10,88,72,081,52,70,11,331,34,87,19,031,41,77,10,125,36*6E
$GLGSV,3,2,10,81,39,192,51,79,51,321,52,78,68,104,52,80,01,310,*6D
$GLGSV,3,3,10,71,03,014,39,69,04,272,41*67
$GAGSV,3,1,10,30,61,089,48,15,34,158,44,36,18,036,39,19,17,313,36*64
$GAGSV,3,2,10,02,10,101,38,29,22,266,42,34,49,088,47,27,60,298,48*6A
$GAGSV,3,3,10,21,09,286,38,07,07,217,38*6B
$GBGSV,6,1,21,25,77,272,51,43,22,213,44,05,20,130,38,56,18,058,*65
$GBGSV,6,2,21,23,26,306,44,10,12,072,37,11,43,200,48,13,17,092,40*6D
$GBGSV,6,3,21,24,41,138,48,38,19,069,42,08,18,083,38,31,35,084,*6B
$GBGSV,6,4,21,44,47,059,48,34,67,182,51,12,70,087,48,35,04,044,39*6F
$GBGSV,6,5,21,19,02,350,,20,07,306,,28,09,204,,02,05,108,33*6C
$GBGSV,6,6,21,60,09,110,40*53
$GPGGA,150042.00,,,,,0,00,,,M,,M,,*4A
$PTNL,GGK,150042.00,010125,4742.1604258,N,01618.1012410,E,1,41,0.7,EHT751.2118,M*43
$GPGGQ,150042.00,010125,4742.1604258,N,01618.1012410,E,1,41,1.201,708.0052,M*39
$GPGFA,150042.00,6.394,7.266,0.673,0.452,349.477,0.886,,VVV*01
$GPLLK,150042.00,010125,,M,,M,1,41,0.7,,M*0B
$GNGMP,150042.00,,,,,DAAA,41,0.4,,,,*55
$GPGMP,150042.00,,,,,,11,,,,2.8,136*71
$GLGMP,150042.00,,,,,,06,,,,,*7B
$GAGMP,150042.00,,,,,,10,,,,,*71
$GBGMP,150042.00,,,,,,14,,,,,*76
$PSSN,SNC,[0,313260000,2347]*41
$GPZDA,150047.00,01,01,2025,,*64
$GPDTM,W84,,00.0000000,N,00.0000000,E,00.0000000,W84*5F
$PSSN,TFM,150047.00,,,,*68
$GPRMC,150047.00,A,4742.1604292,N,01618.1012399,E,0.0,,010125,5.1,E,D*1A
$GPGLL,4742.1604292,N,01618.1012399,E,150047.00,A,D*6B
$GPGGA,150047.00,4742.1604292,N,01618.1012399,E,2,42,0.4,708.0072,M,43.2065,M,2.4,0136*4A
$GNGNS,150047.00,4742.1604292,N,01618.1012399,E,DAAA,42,0.4,708.0072,43.2065,,*54
$GPGNS,150047.00,,,,,,11,,,,2.4,136*78
$GLGNS,150047.00,,,,,,07,,,,,*7F
$GAGNS,150047.00,,,,,,10,,,,,*74
$GBGNS,150047.00,,,,,,14,,,,,*73
$GPLLQ,150047.00,010125,,M,,M,1,42,1.197,,M*1E
$GPVTG,,T,,M,0.00,N,0.01,K,D*27
$GPHDT,,T*1B
$GPTHS,,V*0E
$GPROT,,V*08
$PSSN,HRP,150047.00,010125,,,,,,,00,0,,*66
$PTNL,AVR,150047.00,,Yaw,,Tilt,,,,0,,00*30
$GPGSA,A,3,06,11,12,18,20,25,26,28,29,31,32,,0.7,0.4,0.5*3B
$GPGSA,A,3,70,77,78,79,81,87,88,,,,,,0.7,0.4,0.5*34
$GPGSA,A,3,02,07,15,19,21,27,29,30,34,36,,,0.7,0.4,0.5*31
$GPGSA,A,3,05,08,10,11,12,13,23,24,25,34,38,43,0.7,0.4,0.5*32
$GPGSA,A,3,44,60,,,,,,,,,,,0.7,0.4,0.5*32
$GPGST,150047.00,1.651,0.667,0.449,349.923,0.661,0.457,0.886*5A
$GPGBS,150047.00,4.344,2.610,5.050,06,0.0001,-2.455,2.125*72
$GPGRS,150047.00,1,-2.5,0.4,0.2,-0.0,1.9,-0.3,3.0,-0.3,0.2,-1.1,0.8,*4A
$GPGRS,150047.00,1,-0.8,-4.8,-0.7,1.3,4.0,-2.9,0.6,,,,,*6F
$GPGRS,150047.00,1,0.2,-1.3,-0.5,-1.2,1.9,-1.1,1.4,-0.1,0.0,0.4,,*6A
$GPGRS,150047.00,1,-0.2,1.5,1.8,2.1,0.3,0.8,-0.5,-0.3,-1.2,-0.6,-0.0,0.4*49
$GPGRS,150047.00,1,-0.1,-0.8,,,,,,,,,,*40
$GPGSV,6,1,22,25,80,076,49,31,25,313,43,32,12,246,42,20,13,086,39*7E
$GPGSV,6,2,22,11,34,057,45,28,48,294,47,12,38,098,46,29,67,235,50*73
$GPGSV,6,3,22,26,05,292,36,24,02,159,,05,00,116,,06,08,031,37*73
$GPGSV,6,4,22,18,07,186,38,36,35,170,46,58,13,245,36,40,23,133,37*7F
$GPGSV,6,5,22,34,31,208,43,49,34,195,45,57,04,114,38,41,07,108,35*70
$GPGSV,6,6,22,61,03,257,38*46
$GLGSV,3,1,10,88,72,080,52,70,11,331,35,87,19,031,41,77,10,125,37*6F
$GLGSV,3,2,10,81,39,192,50,79,51,321,52,78,68,104,52,80,01,310,*6C
$GLGSV,3,3,10,71,03,014,39,69,04,272,41*67
$GAGSV,3,1,10,30,61,089,48,15,34,158,44,36,18,036,39,19,17,313,36*64
$GAGSV,3,2,10,02,10,101,38,29,22,266,42,34,49,088,46,27,60,298,48*6B
$GAGSV,3,3,10,21,09,286,37,07,07,217,38*64
$GBGSV,6,1,21,25,77,272,51,43,22,213,44,05,20,130,38,56,18,058,*65
$GBGSV,6,2,21,23,26,306,44,10,12,072,37,11,43,200,48,13,17,092,40*6D
$GBGSV,6,3,21,24,41,138,49,38,19,069,42,08,18,083,38,31,35,084,*6A
$GBGSV,6,4,21,44,47,059,48,34,67,182,51,12,70,087,49,35,04,044,39*6E
$GBGSV,6,5,21,19,02,350,,20,07,306,,28,09,204,,02,05,108,33*6C
$GBGSV,6,6,21,60,09,110,40*53
$GPGGA,150047.00,,,,,0,00,,,M,,M,,*4F
$PTNL,GGK,150047.00,010125,4742.1604292,N,01618.1012399,E,1,42,0.7,EHT751.2137,M*48
$GPGGQ,150047.00,010125,4742.1604292,N,01618.1012399,E,1,42,1.197,708.0072,M*31
$GPGFA,150047.00,6.342,7.266,0.667,0.449,349.923,0.886,,VVV*0C
$GPLLK,150047.00,010125,,M,,M,1,42,0.7,,M*0D
$GNGMP,150047.00,,,,,DAAA,42,0.4,,,,*53
$GPGMP,150047.00,,,,,,11,,,,2.4,136*78
$GLGMP,150047.00,,,,,,07,,,,,*7F
$GAGMP,150047.00,,,,,,10,,,,,*74
$GBGMP,150047.00,,,,,,14,,,,,*73
$PSSN,SNC,[0,313265000,2347]*44
$GPZDA,150052.00,01,01,2025,,*60
$GPDTM,W84,,00.0000000,N,00.0000000,E,00.0000000,W84*5F
$PSSN,TFM,150052.00,,,,*6C
$GPRMC,150052.00,A,4742.1604334,N,01618.1012356,E,0.0,,010125,5.1,E,D*10
$GPGLL,4742.1604334,N,01618.1012356,E,150052.00,A,D*61
$GPGGA,150052.00,4742.1604334,N,01618.1012356,E,2,41,0.4,708.0097,M,43.2065,M,1.9,0136*46
$GNGNS,150052.00,4742.1604334,N,01618.1012356,E,DAAA,41,0.4,708.0097,43.2065,,*56
$GPGNS,150052.00,,,,,,11,,,,1.9,136*72
$GLGNS,150052.00,,,,,,06,,,,,*7A
$GAGNS,150052.00,,,,,,10,,,,,*70
$GBGNS,150052.00,,,,,,14,,,,,*77
$GPLLQ,150052.00,010125,,M,,M,1,41,1.196,,M*18
$GPVTG,,T,,M,0.00,N,0.00,K,D*26
$GPHDT,,T*1B
$GPTHS,,V*0E
$GPROT,,V*08
$PSSN,HRP,150052.00,010125,,,,,,,00,0,,*62
$PTNL,AVR,150052.00,,Yaw,,Tilt,,,,0,,00*34
$GPGSA,A,3,06,11,12,18,20,25,26,28,29,31,32,,0.7,0.4,0.5*3B
$GPGSA,A,3,77,78,79,81,87,88,,,,,,,0.7,0.4,0.5*33
$GPGSA,A,3,02,07,15,19,21,27,29,30,34,36,,,0.7,0.4,0.5*31
$GPGSA,A,3,05,08,10,11,12,13,23,24,25,34,38,43,0.7,0.4,0.5*32
$GPGSA,A,3,44,60,,,,,,,,,,,0.7,0.4,0.5*32
$GPGST,150052.00,1.519,0.669,0.449,349.599,0.663,0.458,0.883*5A
$GPGBS,150052.00,4.380,2.625,5.131,20,0.0001,2.451,2.332*57
$GPGRS,150052.00,1,-2.0,0.4,0.8,-0.4,2.5,-0.3,3.1,-0.3,0.0,-1.4,0.7,*43
$GPGRS,150052.00,1,-4.5,0.1,1.2,3.8,-1.2,0.4,,,,,,*42
$GPGRS,150052.00,1,0.5,-1.2,-0.5,-0.5,1.4,-1.1,1.0,-0.1,0.3,0.6,,*66
$GPGRS,150052.00,1,0.1,1.9,0.7,1.7,0.6,0.6,-0.3,-0.0,-1.1,-0.6,0.1,0.9*48
$GPGRS,150052.00,1,0.1,-0.9,,,,,,,,,,*68
$GPGSV,6,1,22,25,80,076,49,31,25,313,43,32,12,246,42,20,13,086,39*7E
$GPGSV,6,2,22,11,34,057,45,28,48,293,47,12,38,098,47,29,67,235,49*7D
$GPGSV,6,3,22,26,05,292,37,24,02,159,,05,00,116,,06,08,031,37*72
$GPGSV,6,4,22,18,07,186,38,36,35,170,45,58,13,245,37,40,23,133,37*7D
$GPGSV,6,5,22,34,31,208,43,49,34,195,45,57,04,114,38,41,07,108,35*70
$GPGSV,6,6,22,61,03,257,38*46
$GLGSV,3,1,10,88,72,080,52,70,11,331,34,87,19,031,42,77,10,125,37*6D
$GLGSV,3,2,10,81,39,192,50,79,51,321,52,78,68,104,53,80,01,310,*6D
$GLGSV,3,3,10,71,03,014,39,69,04,272,41*67
$GAGSV,3,1,10,30,61,089,49,15,34,158,44,36,18,036,39,19,17,313,35*66
$GAGSV,3,2,10,02,10,101,38,29,22,266,42,34,49,088,47,27,60,298,48*6A
$GAGSV,3,3,10,21,09,286,37,07,07,217,38*64
$GBGSV,6,1,21,25,77,272,51,43,22,213,44,05,20,130,38,56,18,058,*65
$GBGSV,6,2,21,23,26,306,44,10,12,072,36,11,43,200,48,13,17,091,40*6F
$GBGSV,6,3,21,24,41,138,48,38,19,069,42,08,18,083,38,31,35,084,*6B
$GBGSV,6,4,21,44,47,059,48,34,67,182,51,12,70,087,49,35,04,044,39*6E
$GBGSV,6,5,21,19,02,350,,20,06,306,,28,09,204,,02,05,108,33*6D
$GBGSV,6,6,21,60,09,110,40*53
$GPGGA,150052.00,,,,,0,00,,,M,,M,,*4B
$PTNL,GGK,150052.00,010125,4742.1604334,N,01618.1012356,E,1,41,0.7,EHT751.2162,M*41
$GPGGQ,150052.00,010125,4742.1604334,N,01618.1012356,E,1,41,1.196,708.0097,M*32
$GPGFA,150052.00,6.358,7.245,0.669,0.449,349.599,0.883,,VVV*04
$GPLLK,150052.00,010125,,M,,M,1,41,0.7,,M*0A
$GNGMP,150052.00,,,,,DAAA,41,0.4,,,,*54
$GPGMP,150052.00,,,,,,11,,,,1.9,136*72
$GLGMP,150052.00,,,,,,06,,,,,*7A
$GAGMP,150052.00,,,,,,10,,,,,*70
$GBGMP,150052.00,,,,,,14,,,,,*77
$PSSN,SNC,[0,313270000,2347]*40
$GPZDA,150057.00,01,01,2025,,*65
$GPDTM,W84,,00.0000000,N,00.0000000,E,00.0000000,W84*5F
$PSSN,TFM,150057.00,,,,*69
$GPRMC,150057.00,A,4742.1604370,N,01618.1012330,E,0.0,,010125,5.1,E,D*15
$GPGLL,4742.1604370,N,01618.1012330,E,150057.00,A,D*64
$GPGGA,150057.00,4742.1604370,N,01618.1012330,E,2,41,0.4,708.0156,M,43.2065,M,2.9,0136*4C
$GNGNS,150057.00,4742.1604370,N,01618.1012330,E,DAAA,41,0.4,708.0156,43.2065,,*5F
$GPGNS,150057.00,,,,,,11,,,,2.9,136*74
$GLGNS,150057.00,,,,,,06,,,,,*7F
$GAGNS,150057.00,,,,,,10,,,,,*75
$GBGNS,150057.00,,,,,,14,,,,,*72
$GPLLQ,150057.00,010125,,M,,M,1,41,1.196,,M*1D
$GPVTG,,T,,M,0.01,N,0.01,K,D*26
$GPHDT,,T*1B
$GPTHS,,V*0E
$GPROT,,V*08
$PSSN,HRP,150057.00,010125,,,,,,,00,0,,*67
$PTNL,AVR,150057.00,,Yaw,,Tilt,,,,0,,00*31
$GPGSA,A,3,06,11,12,18,20,25,26,28,29,31,32,,0.7,0.4,0.5*3B
$GPGSA,A,3,77,78,79,81,87,88,,,,,,,0.7,0.4,0.5*33
$GPGSA,A,3,02,07,15,19,21,27,29,30,34,36,,,0.7,0.4,0.5*31
$GPGSA,A,3,05,08,10,11,12,13,23,24,25,34,38,43,0.7,0.4,0.5*32
$GPGSA,A,3,44,60,,,,,,,,,,,0.7,0.4,0.5*32
$GPGST,150057.00,1.571,0.670,0.452,349.474,0.664,0.461,0.881*5E
$GPGBS,150057.00,4.403,2.633,5.155,06,0.0001,-2.199,2.141*75
$GPGRS,150057.00,1,-2.2,0.5,0.4,-0.4,2.3,-0.2,3.4,-0.4,-0.1,-0.7,0.5,*60
$GPGRS,150057.00,1,-4.6,-0.3,1.5,4.0,-1.8,0.3,,,,,,*6E
$GPGRS,150057.00,1,0.4,-1.4,-0.3,-1.1,2.1,-1.0,0.9,-0.1,0.3,0.6,,*68
$GPGRS,150057.00,1,-0.0,1.5,0.3,1.4,0.5,0.2,-0.8,-0.1,-1.1,-0.7,-0.2,0.4*45
$GPGRS,150057.00,1,0.2,-0.9,,,,,,,,,,*6E
$GPGSV,6,1,22,25,80,076,50,31,25,313,43,32,12,246,41,20,13,086,39*75
$GPGSV,6,2,22,11,34,057,45,28,48,293,46,12,38,098,46,29,67,235,50*75
$GPGSV,6,3,22,26,05,292,38,24,02,159,,05,00,116,,06,08,031,37*7D
$GPGSV,6,4,22,18,07,186,38,36,35,170,45,58,13,245,36,40,23,133,37*7C
$GPGSV,6,5,22,34,31,208,43,49,34,195,45,57,04,114,38,41,07,108,34*71
$GPGSV,6,6,22,61,03,257,38*46
$GLGSV,3,1,10,88,72,080,52,70,11,331,33,87,18,031,42,77,10,125,37*6B
$GLGSV,3,2,10,81,39,192,50,79,51,321,52,78,68,104,52,80,01,310,*6C
$GLGSV,3,3,10,71,03,014,39,69,04,272,41*67
$GAGSV,3,1,10,30,61,089,48,15,34,158,44,36,18,036,39,19,17,313,35*67
$GAGSV,3,2,10,02,10,101,38,29,22,266,42,34,49,088,46,27,60,298,48*6B
$GAGSV,3,3,10,21,09,286,37,07,07,217,38*64
$GBGSV,6,1,21,25,77,272,51,43,22,213,44,05,20,130,38,56,18,058,*65
$GBGSV,6,2,21,23,26,306,44,10,12,072,36,11,43,200,48,13,17,091,40*6F
$GBGSV,6,3,21,24,41,138,48,38,19,069,42,08,18,083,38,31,35,084,*6B
$GBGSV,6,4,21,44,47,059,48,34,67,182,51,12,69,087,49,35,04,044,39*66
$GBGSV,6,5,21,19,02,350,,20,06,306,,28,09,204,,02,05,108,33*6D
$GBGSV,6,6,21,60,09,110,40*53
$GPGGA,150057.00,,,,,0,00,,,M,,M,,*4E
$PTNL,GGK,150057.00,010125,4742.1604370,N,01618.1012330,E,1,41,0.7,EHT751.2221,M*40
$GPGGQ,150057.00,010125,4742.1604370,N,01618.1012330,E,1,41,1.196,708.0156,M*3B
$GPGFA,150057.00,6.369,7.224,0.670,0.452,349.474,0.881,,VVV*06
$GPLLK,150057.00,010125,,M,,M,1,41,0.7,,M*0F
$GNGMP,150057.00,,,,,DAAA,41,0.4,,,,*51
$GPGMP,150057.00,,,,,,11,,,,2.9,136*74
$GLGMP,150057.00,,,,,,06,,,,,*7F
$GAGMP,150057.00,,,,,,10,,,,,*75
$GBGMP,150057.00,,,,,,14,,,,,*72
$PSSN,SNC,[0,313275000,2347]*45
$GPZDA,150102.00,01,01,2025,,*64
$GPDTM,W84,,00.0000000,N,00.0000000,E,00.0000000,W84*5F
$PSSN,TFM,150102.00,,,,*68
$GPRMC,150102.00,A,4742.1604388,N,01618.1012295,E,0.0,,010125,5.1,E,D*1D
$GPGLL,4742.1604388,N,01618.1012295,E,150102.00,A,D*6C
$GPGGA,150102.00,4742.1604388,N,01618.1012295,E,2,40,0.4,708.0157,M,43.2065,M,2.8,0136*45
$GNGNS,150102.00,4742.1604388,N,01618.1012295,E,DAAA,40,0.4,708.0157,43.2065,,*57
$GPGNS,150102.00,,,,,,11,,,,2.8,136*74
$GLGNS,150102.00,,,,,,06,,,,,*7E
$GAGNS,150102.00,,,,,,09,,,,,*7C
$GBGNS,150102.00,,,,,,14,,,,,*73
$GPLLQ,150102.00,010125,,M,,M,1,40,1.202,,M*13
$GPVTG,,T,,M,0.00,N,0.01,K,D*27
$GPHDT,,T*1B
$GPTHS,,V*0E
$GPROT,,V*08
$PSSN,HRP,150102.00,010125,,,,,,,00,0,,*66
$PTNL,AVR,150102.00,,Yaw,,Tilt,,,,0,,00*30
$GPGSA,A,3,06,11,12,18,20,25,26,28,29,31,32,,0.7,0.4,0.5*3B
$GPGSA,A,3,77,78,79,81,87,88,,,,,,,0.7,0.4,0.5*33
$GPGSA,A,3,02,07,15,21,27,29,30,34,36,,,,0.7,0.4,0.5*39
$GPGSA,A,3,05,08,10,11,12,13,23,24,25,34,38,43,0.7,0.4,0.5*32
$GPGSA,A,3,44,60,,,,,,,,,,,0.7,0.4,0.5*32
$GPGST,150102.00,1.658,0.673,0.453,349.228,0.667,0.463,0.886*5C
$GPGBS,150102.00,4.425,2.667,5.208,20,0.0001,2.712,2.330*52
$GPGRS,150102.00,1,-2.2,0.6,0.2,-0.1,2.7,-0.4,2.2,-0.4,0.1,-0.6,0.3,*4E
$GPGRS,150102.00,1,-5.5,-0.3,1.9,4.1,-2.0,0.2,,,,,,*6A
$GPGRS,150102.00,1,0.1,-1.2,-0.0,2.6,-0.7,1.3,-0.3,0.4,0.7,,,*64
$GPGRS,150102.00,1,0.1,1.6,0.2,0.8,0.7,0.2,-0.7,-0.4,-0.9,-0.6,-0.2,0.6*65
$GPGRS,150102.00,1,0.2,-0.6,,,,,,,,,,*60
$GPGSV,6,1,22,25,80,076,50,31,25,313,43,32,12,246,42,20,13,086,39*76
$GPGSV,6,2,22,11,34,057,46,28,48,293,47,12,38,098,46,29,67,235,50*77
$GPGSV,6,3,22,26,05,292,36,24,02,159,,05,00,116,,06,08,031,37*73
$GPGSV,6,4,22,18,07,186,38,36,35,170,45,58,13,245,36,40,23,133,37*7C
$GPGSV,6,5,22,34,31,208,43,49,34,195,45,57,04,114,38,41,07,108,35*70
$GPGSV,6,6,22,61,03,257,38*46
$GLGSV,3,1,10,88,72,080,52,70,11,331,33,87,18,031,42,77,10,125,36*6A
$GLGSV,3,2,10,81,40,192,51,79,51,321,52,78,68,104,53,80,01,310,*62
$GLGSV,3,3,10,71,03,014,39,69,04,272,41*67
$GAGSV,3,1,10,30,61,089,48,15,34,158,44,36,18,036,39,19,17,313,35*67
$GAGSV,3,2,10,02,10,101,38,29,22,266,42,34,49,088,46,27,60,298,48*6B
$GAGSV,3,3,10,21,09,286,37,07,07,217,38*64
$GBGSV,6,1,21,25,77,272,51,43,22,213,44,05,20,130,38,56,18,058,*65
$GBGSV,6,2,21,23,26,306,44,10,12,072,36,11,43,200,48,13,17,091,40*6F
$GBGSV,6,3,21,24,41,138,48,38,19,069,42,08,18,083,38,31,35,084,*6B
$GBGSV,6,4,21,44,47,059,48,34,67,182,51,12,69,087,49,35,04,044,39*66
$GBGSV,6,5,21,19,02,350,,20,06,306,,28,09,204,,02,05,108,33*6D
$GBGSV,6,6,21,60,09,110,40*53
$GPGGA,150102.00,,,,,0,00,,,M,,M,,*4F
$PTNL,GGK,150102.00,010125,4742.1604388,N,01618.1012295,E,1,40,0.7,EHT751.2222,M*4A
$GPGGQ,150102.00,010125,4742.1604388,N,01618.1012295,E,1,40,1.202,708.0157,M*3D
$GPGFA,150102.00,6.400,7.269,0.673,0.453,349.228,0.886,,VVV*0C
$GPLLK,150102.00,010125,,M,,M,1,40,0.7,,M*0F
$GNGMP,150102.00,,,,,DAAA,40,0.4,,,,*51
$GPGMP,150102.00,,,,,,11,,,,2.8,136*74
$GLGMP,150102.00,,,,,,06,,,,,*7E
$GAGMP,150102.00,,,,,,09,,,,,*7C
$GBGMP,150102.00,,,,,,14,,,,,*73
$PSSN,SNC,[0,313280000,2347]*4F
$GPZDA,150107.00,01,01,2025,,*61
$GPDTM,W84,,00.0000000,N,00.0000000,E,00.0000000,W84*5F
$PSSN,TFM,150107.00,,,,*6D
$GPRMC,150107.00,A,4742.1604421,N,01618.1012258,E,0.0,,010125,5.1,E,D*1D
$GPGLL,4742.1604421,N,01618.1012258,E,150107.00,A,D*6C
$GPGGA,150107.00,4742.1604421,N,01618.1012258,E,2,40,0.4,708.0185,M,43.2065,M,2.4,0136*46
$GNGNS,150107.00,4742.1604421,N,01618.1012258,E,DAAA,40,0.4,708.0185,43.2065,,*58
$GPGNS,150107.00,,,,,,11,,,,2.4,136*7D
$GLGNS,150107.00,,,,,,06,,,,,*7B
$GAGNS,150107.00,,,,,,09,,,,,*79
$GBGNS,150107.00,,,,,,14,,,,,*76
$GPLLQ,150107.00,010125,,M,,M,1,40,1.203,,M*17
$GPVTG,,T,,M,0.00,N,0.01,K,D*27
$GPHDT,,T*1B
$GPTHS,,V*0E
$GPROT,,V*08
$PSSN,HRP,150107.00,010125,,,,,,,00,0,,*63
$PTNL,AVR,150107.00,,Yaw,,Tilt,,,,0,,00*35
$GPGSA,A,3,06,11,12,18,20,25,26,28,29,31,32,,0.7,0.4,0.5*3B
$GPGSA,A,3,77,78,79,81,87,88,,,,,,,0.7,0.4,0.5*33
$GPGSA,A,3,02,07,15,21,27,29,30,34,36,,,,0.7,0.4,0.5*39
$GPGSA,A,3,05,08,10,11,12,13,23,24,25,34,38,43,0.7,0.4,0.5*32
$GPGSA,A,3,44,60,,,,,,,,,,,0.7,0.4,0.5*32
$GPGST,150107.00,1.693,0.674,0.451,349.075,0.667,0.461,0.889*5C
$GPGBS,150107.00,4.397,2.660,5.079,20,0.0001,2.314,2.330*58
$GPGRS,150107.00,1,-2.0,0.3,0.3,0.6,2.3,-0.3,2.2,-0.2,-0.0,-1.1,0.5,*4E
$GPGRS,150107.00,1,-5.6,-0.1,1.2,4.1,-3.0,0.3,,,,,,*65
$GPGRS,150107.00,1,0.5,-1.1,-0.2,2.7,-0.4,1.1,-0.4,0.1,0.6,,,*67
$GPGRS,150107.00,1,0.3,1.2,1.3,1.2,0.7,0.7,-0.3,-0.5,-0.9,-0.6,-0.4,0.8*65
$GPGRS,150107.00,1,0.3,-0.9,,,,,,,,,,*6B
$GPGSV,6,1,22,25,80,077,50,31,25,313,43,32,12,246,42,20,13,086,40*79
$GPGSV,6,2,22,11,34,057,46,28,48,293,47,12,38,098,46,29,67,235,50*77
$GPGSV,6,3,22,26,05,292,37,24,02,159,,05,00,116,,06,08,031,37*72
$GPGSV,6,4,22,18,07,186,38,36,35,170,45,58,13,245,36,40,23,133,37*7C
$GPGSV,6,5,22,34,31,208,43,49,34,195,45,57,04,114,38,41,07,108,35*70
$GPGSV,6,6,22,61,03,257,38*46
$GLGSV,3,1,10,88,72,080,52,70,11,331,34,87,18,031,41,77,10,125,36*6E
$GLGSV,3,2,10,81,40,192,51,79,51,321,52,78,68,105,53,80,01,310,*63
$GLGSV,3,3,10,71,03,014,39,69,04,272,42*64
$GAGSV,3,1,10,30,61,089,48,15,34,158,44,36,18,036,39,19,17,313,34*66
$GAGSV,3,2,10,02,10,101,38,29,22,266,42,34,49,088,46,27,60,298,48*6B
$GAGSV,3,3,10,21,09,286,37,07,06,217,37*6A
$GBGSV,6,1,21,25,77,271,51,43,22,213,44,05,20,130,38,56,18,058,*66
$GBGSV,6,2,21,23,26,306,45,10,12,072,37,11,43,200,48,13,17,091,40*6F
$GBGSV,6,3,21,24,41,138,49,38,19,069,42,08,18,083,38,31,35,084,*6A
$GBGSV,6,4,21,44,47,059,48,34,67,182,51,12,69,087,49,35,04,044,39*66
$GBGSV,6,5,21,19,02,350,,20,06,306,,28,09,204,,02,05,108,33*6D
$GBGSV,6,6,21,60,09,110,40*53
$GPGGA,150107.00,,,,,0,00,,,M,,M,,*4A
$PTNL,GGK,150107.00,010125,4742.1604421,N,01618.1012258,E,1,40,0.7,EHT751.2250,M*4F
$GPGGQ,150107.00,010125,4742.1604421,N,01618.1012258,E,1,40,1.203,708.0185,M*33
$GPGFA,150107.00,6.406,7.289,0.674,0.451,349.075,0.889,,VVV*01
$GPLLK,150107.00,010125,,M,,M,1,40,0.7,,M*0A
$GNGMP,150107.00,,,,,DAAA,40,0.4,,,,*54
$GPGMP,150107.00,,,,,,11,,,,2.4,136*7D
$GLGMP,150107.00,,,,,,06,,,,,*7B
$GAGMP,150107.00,,,,,,09,,,,,*79
$GBGMP,150107.00,,,,,,14,,,,,*76
$PSSN,SNC,[0,313285000,2347]*4A
$GPZDA,150112.00,01,01,2025,,*65
$GPDTM,W84,,00.0000000,N,00.0000000,E,00.0000000,W84*5F
$PSSN,TFM,150112.00,,,,*69
$GPRMC,150112.00,A,4742.1604465,N,01618.1012257,E,0.0,,010125,5.1,E,D*16
$GPGLL,4742.1604465,N,01618.1012257,E,150112.00,A,D*67
$GPGGA,150112.00,4742.1604465,N,01618.1012257,E,2,41,0.4,708.0240,M,43.2065,M,1.9,0136*48
$GNGNS,150112.00,4742.1604465,N,01618.1012257,E,DAAA,41,0.4,708.0240,43.2065,,*58
$GPGNS,150112.00,,,,,,11,,,,1.9,136*77
$GLGNS,150112.00,,,,,,06,,,,,*7F
$GAGNS,150112.00,,,,,,10,,,,,*75
$GBGNS,150112.00,,,,,,14,,,,,*72
$GPLLQ,150112.00,010125,,M,,M,1,41,1.196,,M*1D
$GPVTG,,T,,M,0.00,N,0.01,K,D*27
$GPHDT,,T*1B
$GPTHS,,V*0E
$GPROT,,V*08
$PSSN,HRP,150112.00,010125,,,,,,,00,0,,*67
$PTNL,AVR,150112.00,,Yaw,,Tilt,,,,0,,00*31
$GPGSA,A,3,06,11,12,18,20,25,26,28,29,31,32,,0.7,0.4,0.5*3B
$GPGSA,A,3,77,78,79,81,87,88,,,,,,,0.7,0.4,0.5*33
$GPGSA,A,3,02,07,15,19,21,27,29,30,34,36,,,0.7,0.4,0.5*31
$GPGSA,A,3,05,08,10,11,12,13,23,24,25,34,38,43,0.7,0.4,0.5*32
$GPGSA,A,3,44,60,,,,,,,,,,,0.7,0.4,0.5*32
$GPGST,150112.00,1.721,0.670,0.450,349.324,0.663,0.459,0.883*57
$GPGBS,150112.00,4.383,2.617,5.118,06,0.0001,-2.247,2.136*75
$GPGRS,150112.00,1,-2.2,0.3,0.1,0.4,2.4,-0.1,3.7,-0.2,-0.1,-0.8,0.7,*42
$GPGRS,150112.00,1,-4.9,-0.0,1.4,3.9,-3.3,0.3,,,,,,*64
$GPGRS,150112.00,1,0.8,-1.3,-0.4,-1.0,2.4,-0.7,0.8,-0.2,0.4,0.5,,*60
$GPGRS,150112.00,1,0.0,0.5,2.0,1.6,0.8,1.0,-0.3,-0.3,-1.0,-0.6,-0.2,0.8*61
$GPGRS,150112.00,1,0.4,-0.9,,,,,,,,,,*68
$GPGSV,6,1,22,25,80,077,50,31,25,313,43,32,12,246,42,20,13,086,40*79
$GPGSV,6,2,22,11,34,057,46,28,48,293,47,12,38,098,46,29,67,235,49*7F
$GPGSV,6,3,22,26,05,292,37,24,02,159,,05,00,116,,06,08,031,37*72
$GPGSV,6,4,22,18,07,186,37,36,35,170,45,58,13,245,37,40,23,133,37*72
$GPGSV,6,5,22,34,31,208,43,49,34,195,45,57,04,114,38,41,07,108,35*70
$GPGSV,6,6,22,61,03,257,38*46
$GLGSV,3,1,10,88,72,080,52,70,11,331,34,87,18,031,41,81,40,192,51*6F
$GLGSV,3,2,10,79,51,321,52,78,68,105,53,80,01,310,,77,10,125,36*62
$GLGSV,3,3,10,71,03,014,39,69,04,272,41*67
$GAGSV,3,1,10,30,61,089,48,15,34,158,45,36,18,036,39,19,17,313,35*66
$GAGSV,3,2,10,02,10,101,39,29,22,266,42,34,49,088,46,27,60,298,48*6A
$GAGSV,3,3,10,21,09,286,37,07,06,217,37*6A
$GBGSV,6,1,21,25,77,271,51,43,22,213,43,05,20,130,38,56,18,058,*61
$GBGSV,6,2,21,23,26,306,45,10,12,072,37,11,43,200,47,13,17,091,40*60
$GBGSV,6,3,21,24,41,138,49,38,19,069,42,08,18,083,37,31,35,084,*65
$GBGSV,6,4,21,44,47,059,48,34,67,182,51,12,69,086,49,35,04,044,39*67
$GBGSV,6,5,21,19,02,350,,20,06,306,,28,09,204,,02,05,108,33*6D
$GBGSV,6,6,21,60,09,110,40*53
$GPGGA,150112.00,,,,,0,00,,,M,,M,,*4E
$PTNL,GGK,150112.00,010125,4742.1604465,N,01618.1012257,E,1,41,0.7,EHT751.2305,M*44
$GPGGQ,150112.00,010125,4742.1604465,N,01618.1012257,E,1,41,1.196,708.0240,M*3C
$GPGFA,150112.00,6.368,7.242,0.670,0.450,349.324,0.883,,VVV*05
$GPLLK,150112.00,010125,,M,,M,1,41,0.7,,M*0F
$GNGMP,150112.00,,,,,DAAA,41,0.4,,,,*51
$GPGMP,150112.00,,,,,,11,,,,1.9,136*77
$GLGMP,150112.00,,,,,,06,,,,,*7F
$GAGMP,150112.00,,,,,,10,,,,,*75
$GBGMP,150112.00,,,,,,14,,,,,*72
$PSSN,SNC,[0,313290000,2347]*4E
$GPZDA,150117.00,01,01,2025,,*60
$GPDTM,W84,,00.0000000,N,00.0000000,E,00.0000000,W84*5F
$PSSN,TFM,150117.00,,,,*6C
$GPRMC,150117.00,A,4742.1604498,N,01618.1012222,E,0.0,,010125,5.1,E,D*13
$GPGLL,4742.1604498,N,01618.1012222,E,150117.00,A,D*62
$GPGGA,150117.00,4742.1604498,N,01618.1012222,E,2,41,0.4,708.0283,M,43.2065,M,2.9,0136*41
$GNGNS,150117.00,4742.1604498,N,01618.1012222,E,DAAA,41,0.4,708.0283,43.2065,,*52
$GPGNS,150117.00,,,,,,11,,,,2.9,136*71
$GLGNS,150117.00,,,,,,06,,,,,*7A
$GAGNS,150117.00,,,,,,10,,,,,*70
$GBGNS,150117.00,,,,,,14,,,,,*77
$GPLLQ,150117.00,010125,,M,,M,1,41,1.193,,M*1D
$GPVTG,,T,,M,0.00,N,0.01,K,D*27
$GPHDT,,T*1B
$GPTHS,,V*0E
$GPROT,,V*08
$PSSN,HRP,150117.00,010125,,,,,,,00,0,,*62
$PTNL,AVR,150117.00,,Yaw,,Tilt,,,,0,,00*34
$GPGSA,A,3,06,11,12,18,20,25,26,28,29,31,32,,0.7,0.4,0.5*3B
$GPGSA,A,3,77,78,79,81,87,88,,,,,,,0.7,0.4,0.5*33
$GPGSA,A,3,02,07,15,19,21,27,29,30,34,36,,,0.7,0.4,0.5*31
$GPGSA,A,3,05,08,10,11,12,13,23,24,25,34,38,43,0.7,0.4,0.5*32
$GPGSA,A,3,44,60,,,,,,,,,,,0.7,0.4,0.5*32
$GPGST,150117.00,1.422,0.670,0.452,349.133,0.663,0.462,0.878*58
$GPGBS,150117.00,4.403,2.625,5.135,20,0.0001,2.566,2.296*55
$GPGRS,150117.00,1,-1.9,0.3,0.6,0.0,2.6,-0.3,1.9,-0.5,-0.3,-0.7,0.3,*4E
$GPGRS,150117.00,1,-3.5,-0.4,1.6,3.7,-2.7,0.1,,,,,,*65
$GPGRS,150117.00,1,0.2,-1.2,-0.5,-0.7,2.2,-1.0,1.2,-0.3,0.4,0.3,,*65
$GPGRS,150117.00,1,0.5,0.9,1.5,1.0,0.6,0.5,-0.8,-0.2,-1.1,-0.8,-0.2,0.7*6D
$GPGRS,150117.00,1,-0.0,-0.7,,,,,,,,,,*4A
