$GPZDA,041442.00,01,01,2025,,*64
$GPDTM,W84,,00.0000000,N,00.0000000,E,00.0000000,W84*5F
$PSSN,TFM,041442.00,,,,*68
$GPRMC,041442.00,A,4742.1603333,N,01618.1003278,E,0.0,,010125,5.1,E,D*19
$GPGLL,4742.1603333,N,01618.1003278,E,041442.00,A,D*68
$GPGGA,041442.00,4742.1603333,N,01618.1003278,E,2,40,0.4,708.3021,M,43.2066,M,2.3,0136*4A
$GNGNS,041442.00,4742.1603333,N,01618.1003278,E,DAAA,40,0.4,708.3021,43.2066,,*53
$GPGNS,041442.00,,,,,,10,,,,2.3,136*7E
$GLGNS,041442.00,,,,,,08,,,,,*70
$GAGNS,041442.00,,,,,,08,,,,,*7D
$GBGNS,041442.00,,,,,,14,,,,,*73
$GPLLQ,041442.00,010125,,M,,M,1,40,0.812,,M*19
$GPVTG,,T,,M,0.00,N,0.00,K,D*26
$GPHDT,,T*1B
$GPTHS,,V*0E
$GPROT,,V*08
$PSSN,HRP,041442.00,010125,,,,,,,00,0,,*66
$PTNL,AVR,041442.00,,Yaw,,Tilt,,,,0,,00*30
$GPGSA,A,3,03,04,06,07,09,11,16,20,26,30,,,0.8,0.4,0.7*34
$GPGSA,A,3,70,71,72,73,79,80,86,87,,,,,0.8,0.4,0.7*3E
$GPGSA,A,3,03,05,06,09,15,31,34,36,,,,,0.8,0.4,0.7*34
$GPGSA,A,3,05,06,09,12,16,19,20,22,35,36,37,39,0.8,0.4,0.7*30
$GPGSA,A,3,44,60,,,,,,,,,,,0.8,0.4,0.7*3F
$GPGST,041442.00,1.935,0.352,0.303,353.748,0.352,0.304,0.666*51
$GPGBS,041442.00,2.101,1.535,4.447,72,0.0001,6.808,6.157*5C
$GPGRS,041442.00,1,-0.3,-0.0,-0.3,0.5,0.2,-0.2,0.5,0.3,-0.5,-0.5,,*4A
$GPGRS,041442.00,1,-2.3,0.4,6.8,3.9,2.1,-3.3,-2.6,-4.3,,,,*48
$GPGRS,041442.00,1,-0.6,0.4,-0.4,0.2,0.3,0.5,-0.2,0.3,,,,*67
$GPGRS,041442.00,1,2.0,0.3,0.9,0.0,0.1,-0.0,1.0,-0.3,-1.0,-0.4,-1.1,-1.1*47
$GPGRS,041442.00,1,0.0,-1.9,,,,,,,,,,*6C
$GPGSV,5,1,19,09,80,028,51,03,22,121,41,26,12,042,38,20,19,306,41*7E
$GPGSV,5,2,19,30,15,201,41,16,15,072,41,11,36,302,46,07,47,179,48*75
$GPGSV,5,3,19,04,51,063,46,06,52,250,48,36,35,170,45,58,13,245,38*79
$GPGSV,5,4,19,40,24,132,35,34,31,208,43,49,34,195,45,57,08,111,38*7A
$GPGSV,5,5,19,41,07,108,35,61,03,257,37*7C
$GLGSV,3,1,11,71,66,340,52,70,41,069,41,72,26,285,49,86,36,237,50*62
$GLGSV,3,2,11,73,32,131,48,80,38,061,50,87,39,300,48,85,01,196,*67
$GLGSV,3,3,11,74,02,164,,79,07,016,42,88,04,348,*54
$GAGSV,3,1,11,05,70,266,49,36,33,188,44,15,24,319,41,23,11,037,*6A
$GAGSV,3,2,11,31,17,087,40,03,18,252,41,06,28,066,43,09,51,061,47*6E
$GAGSV,3,3,11,34,56,261,48,24,04,134,,04,04,068,35*59
$GBGSV,5,1,20,19,69,069,52,34,10,327,,39,10,041,39,05,23,128,40*6D
$GBGSV,5,2,20,35,16,228,44,36,23,161,45,20,22,093,45,37,19,043,42*60
$GBGSV,5,3,20,12,24,302,42,16,20,043,40,44,25,275,45,06,23,045,39*61
$GBGSV,5,4,20,58,35,092,,09,36,051,42,46,42,101,,22,49,291,50*60
$GBGSV,5,5,20,48,42,090,,21,49,283,,02,07,107,35,60,08,111,41*62
$GPGGA,041442.00,,,,,0,00,,,M,,M,,*4F
$PTNL,GGK,041442.00,010125,4742.1603333,N,01618.1003278,E,1,40,0.8,EHT751.5087,M*4B
$GPGGQ,041442.00,010125,4742.1603333,N,01618.1003278,E,1,40,0.812,708.3021,M*30
$GPGFA,041442.00,3.347,5.461,0.352,0.303,353.748,0.666,,VVV*0D
$GPLLK,041442.00,010125,,M,,M,1,40,0.9,,M*01
$GNGMP,041442.00,,,,,DAAA,40,0.4,,,,*51
$GPGMP,041442.00,,,,,,10,,,,2.3,136*7E
$GLGMP,041442.00,,,,,,08,,,,,*70
$GAGMP,041442.00,,,,,,08,,,,,*7D
$GBGMP,041442.00,,,,,,14,,,,,*73
$PSSN,SNC,[0,274500000,2347]*40
$GPZDA,041447.00,01,01,2025,,*61
$GPDTM,W84,,00.0000000,N,00.0000000,E,00.0000000,W84*5F
$PSSN,TFM,041447.00,,,,*6D
$GPRMC,041447.00,A,4742.1603323,N,01618.1003279,E,0.0,,010125,5.1,E,D*1C
$GPGLL,4742.1603323,N,01618.1003279,E,041447.00,A,D*6D
$GPGGA,041447.00,4742.1603323,N,01618.1003279,E,2,41,0.4,708.2992,M,43.2066,M,3.3,0136*4F
$GNGNS,041447.00,4742.1603323,N,01618.1003279,E,DAAA,41,0.4,708.2992,43.2066,,*57
$GPGNS,041447.00,,,,,,10,,,,3.3,136*7A
$GLGNS,041447.00,,,,,,08,,,,,*75
$GAGNS,041447.00,,,,,,08,,,,,*78
$GBGNS,041447.00,,,,,,15,,,,,*77
$GPLLQ,041447.00,010125,,M,,M,1,41,0.821,,M*1D
$GPVTG,,T,,M,0.00,N,0.01,K,D*27
$GPHDT,,T*1B
$GPTHS,,V*0E
$GPROT,,V*08
$PSSN,HRP,041447.00,010125,,,,,,,00,0,,*63
$PTNL,AVR,041447.00,,Yaw,,Tilt,,,,0,,00*35
$GPGSA,A,3,03,04,06,07,09,11,16,20,26,30,,,0.8,0.4,0.7*34
$GPGSA,A,3,70,71,72,73,79,80,86,87,,,,,0.8,0.4,0.7*3E
$GPGSA,A,3,03,05,06,09,15,31,34,36,,,,,0.8,0.4,0.7*34
$GPGSA,A,3,02,05,06,09,12,16,19,20,22,35,36,37,0.8,0.4,0.7*38
$GPGSA,A,3,39,44,60,,,,,,,,,,0.8,0.4,0.7*35
$GPGST,041447.00,1.936,0.356,0.306,354.270,0.355,0.306,0.673*5E
$GPGBS,041447.00,2.111,1.551,4.515,72,0.0001,7.112,6.157*5F
$GPGRS,041447.00,1,-0.3,-0.0,-0.3,0.5,0.1,0.3,0.5,-0.0,-0.5,-0.7,,*4C
$GPGRS,041447.00,1,-2.2,1.2,7.1,3.7,2.1,-3.0,-3.1,-4.2,,,,*49
$GPGRS,041447.00,1,-1.1,0.4,-0.5,0.3,0.1,0.4,-0.3,0.1,,,,*64
$GPGRS,041447.00,1,0.4,2.1,0.1,0.9,-0.2,0.2,-0.2,0.7,-0.4,-1.1,-0.4,-1.0*47
$GPGRS,041447.00,1,-1.6,-0.2,-1.5,,,,,,,,,*4E
$GPGSV,5,1,19,09,80,028,51,03,22,121,42,26,12,042,38,20,19,306,40*7C
$GPGSV,5,2,19,30,15,201,41,16,15,072,40,11,36,302,46,07,47,179,48*74
$GPGSV,5,3,19,04,51,063,47,06,52,250,48,36,35,170,45,58,13,245,37*77
$GPGSV,5,4,19,40,24,132,36,34,31,208,44,49,34,195,45,57,08,111,38*7E
$GPGSV,5,5,19,41,07,108,35,61,03,257,38*73
$GLGSV,3,1,11,71,66,340,52,70,41,069,40,72,26,285,48,86,36,237,49*6A
$GLGSV,3,2,11,73,32,131,49,80,38,061,50,87,39,300,48,85,01,196,*66
$GLGSV,3,3,11,74,02,164,,79,07,016,43,88,04,348,*55
$GAGSV,3,1,11,05,70,266,48,36,33,188,44,15,24,319,41,23,11,037,*6B
$GAGSV,3,2,11,31,17,087,40,03,18,252,41,06,27,066,43,09,51,061,47*61
$GAGSV,3,3,11,34,56,261,48,24,04,134,,04,04,068,35*59
$GBGSV,5,1,20,19,69,069,52,34,10,327,,39,10,041,40,05,23,128,40*63
$GBGSV,5,2,20,35,16,228,44,36,23,161,45,20,21,093,45,37,19,043,43*62
$GBGSV,5,3,20,12,24,302,42,16,20,043,40,44,25,275,45,06,23,045,40*6F
$GBGSV,5,4,20,58,35,092,,09,36,051,42,46,42,101,,22,49,291,50*60
$GBGSV,5,5,20,48,42,090,,21,49,283,,02,07,107,35,60,08,111,41*62
$GPGGA,041447.00,,,,,0,00,,,M,,M,,*4A
$PTNL,GGK,041447.00,010125,4742.1603323,N,01618.1003279,E,1,41,0.8,EHT751.5058,M*4D
$GPGGQ,041447.00,010125,4742.1603323,N,01618.1003279,E,1,41,0.821,708.2992,M*34
$GPGFA,041447.00,3.382,5.522,0.356,0.306,354.270,0.673,,VVV*0B
$GPLLK,041447.00,010125,,M,,M,1,41,0.9,,M*05
$GNGMP,041447.00,,,,,DAAA,41,0.4,,,,*55
$GPGMP,041447.00,,,,,,10,,,,3.3,136*7A
$GLGMP,041447.00,,,,,,08,,,,,*75
$GAGMP,041447.00,,,,,,08,,,,,*78
$GBGMP,041447.00,,,,,,15,,,,,*77
$PSSN,SNC,[0,274505000,2347]*45
$GPZDA,041452.00,01,01,2025,,*65
$GPDTM,W84,,00.0000000,N,00.0000000,E,00.0000000,W84*5F
$PSSN,TFM,041452.00,,,,*69
$GPRMC,041452.00,A,4742.1603315,N,01618.1003292,E,0.0,,010125,5.1,E,D*18
$GPGLL,4742.1603315,N,01618.1003292,E,041452.00,A,D*69
$GPGGA,041452.00,4742.1603315,N,01618.1003292,E,2,41,0.4,708.2924,M,43.2066,M,1.9,0136*4E
$GNGNS,041452.00,4742.1603315,N,01618.1003292,E,DAAA,41,0.4,708.2924,43.2066,,*5E
$GPGNS,041452.00,,,,,,10,,,,1.9,136*76
$GLGNS,041452.00,,,,,,08,,,,,*71
$GAGNS,041452.00,,,,,,08,,,,,*7C
$GBGNS,041452.00,,,,,,15,,,,,*73
$GPLLQ,041452.00,010125,,M,,M,1,41,0.818,,M*13
$GPVTG,,T,,M,0.00,N,0.01,K,D*27
$GPHDT,,T*1B
$GPTHS,,V*0E
$GPROT,,V*08
$PSSN,HRP,041452.00,010125,,,,,,,00,0,,*67
$PTNL,AVR,041452.00,,Yaw,,Tilt,,,,0,,00*31
$GPGSA,A,3,03,04,06,07,09,11,16,20,26,30,,,0.8,0.4,0.7*34
$GPGSA,A,3,70,71,72,73,79,80,86,87,,,,,0.8,0.4,0.7*3E
$GPGSA,A,3,03,05,06,09,15,31,34,36,,,,,0.8,0.4,0.7*34
$GPGSA,A,3,02,05,06,09,12,16,19,20,22,35,36,37,0.8,0.4,0.7*38
$GPGSA,A,3,39,44,60,,,,,,,,,,0.8,0.4,0.7*35
$GPGST,041452.00,1.974,0.355,0.304,354.705,0.354,0.305,0.671*5A
$GPGBS,041452.00,2.140,1.539,4.413,72,0.0001,6.543,6.157*57
$GPGRS,041452.00,1,0.1,-0.1,-0.1,0.3,0.1,0.3,0.3,0.3,-1.2,-0.5,,*4E
$GPGRS,041452.00,1,-3.1,0.9,6.5,4.3,2.1,-3.1,-3.1,-4.1,,,,*41
$GPGRS,041452.00,1,-1.1,0.5,-0.3,0.3,-0.2,0.4,-0.5,-0.0,,,,*63
$GPGRS,041452.00,1,0.5,2.2,0.4,0.5,0.1,0.6,-0.1,0.9,-0.5,-1.4,-0.8,-0.6*60
$GPGRS,041452.00,1,-1.9,-0.2,-1.5,,,,,,,,,*45
$GPGSV,5,1,19,09,80,028,51,03,22,121,42,26,12,042,39,20,19,306,40*7D
$GPGSV,5,2,19,30,15,201,41,16,15,072,40,11,36,301,46,07,47,179,48*77
$GPGSV,5,3,19,04,51,063,47,06,52,250,48,36,35,170,45,58,13,245,38*78
$GPGSV,5,4,19,40,24,132,35,34,31,208,43,49,34,195,45,57,08,111,38*7A
$GPGSV,5,5,19,41,07,108,35,61,03,257,38*73
$GLGSV,3,1,11,71,66,340,52,70,41,069,40,72,26,285,48,86,36,237,49*6A
$GLGSV,3,2,11,73,32,131,48,80,38,061,50,87,39,300,48,85,01,196,*67
$GLGSV,3,3,11,74,02,164,,79,07,015,43,88,04,348,*56
$GAGSV,3,1,11,05,70,266,49,36,33,188,44,15,24,319,41,23,11,037,*6A
$GAGSV,3,2,11,31,17,087,40,03,18,253,41,06,27,066,43,09,51,061,47*60
$GAGSV,3,3,11,34,56,261,48,24,04,134,,04,04,068,35*59
$GBGSV,5,1,20,19,69,069,52,34,10,327,,39,10,041,39,05,23,128,40*6D
$GBGSV,5,2,20,35,16,228,44,36,23,161,45,20,21,093,45,37,19,043,43*62
$GBGSV,5,3,20,12,24,302,42,16,20,043,41,44,25,275,45,06,23,045,39*60
$GBGSV,5,4,20,58,35,092,,09,36,051,42,46,42,101,,22,49,291,50*60
$GBGSV,5,5,20,48,42,090,,21,49,283,,02,07,107,35,60,08,111,41*62
$GPGGA,041452.00,,,,,0,00,,,M,,M,,*4E
$PTNL,GGK,041452.00,010125,4742.1603315,N,01618.1003292,E,1,41,0.8,EHT751.4990,M*45
$GPGGQ,041452.00,010125,4742.1603315,N,01618.1003292,E,1,41,0.818,708.2924,M*37
$GPGFA,041452.00,3.373,5.506,0.355,0.304,354.705,0.671,,VVV*03
$GPLLK,041452.00,010125,,M,,M,1,41,0.9,,M*01
$GNGMP,041452.00,,,,,DAAA,41,0.4,,,,*51
$GPGMP,041452.00,,,,,,10,,,,1.9,136*76
$GLGMP,041452.00,,,,,,08,,,,,*71
$GAGMP,041452.00,,,,,,08,,,,,*7C
$GBGMP,041452.00,,,,,,15,,,,,*73
$PSSN,SNC,[0,274510000,2347]*41
$GPZDA,041457.00,01,01,2025,,*60
$GPDTM,W84,,00.0000000,N,00.0000000,E,00.0000000,W84*5F
$PSSN,TFM,041457.00,,,,*6C
$GPRMC,041457.00,A,4742.1603330,N,01618.1003311,E,0.0,,010125,5.1,E,D*10
$GPGLL,4742.1603330,N,01618.1003311,E,041457.00,A,D*61
$GPGGA,041457.00,4742.1603330,N,01618.1003311,E,2,40,0.4,708.2915,M,43.2066,M,2.5,0136*4A
$GNGNS,041457.00,4742.1603330,N,01618.1003311,E,DAAA,40,0.4,708.2915,43.2066,,*55
$GPGNS,041457.00,,,,,,10,,,,2.5,136*7C
$GLGNS,041457.00,,,,,,08,,,,,*74
$GAGNS,041457.00,,,,,,08,,,,,*79
$GBGNS,041457.00,,,,,,14,,,,,*77
$GPLLQ,041457.00,010125,,M,,M,1,40,0.805,,M*1B
$GPVTG,,T,,M,0.00,N,0.01,K,D*27
$GPHDT,,T*1B
$GPTHS,,V*0E
$GPROT,,V*08
$PSSN,HRP,041457.00,010125,,,,,,,00,0,,*62
$PTNL,AVR,041457.00,,Yaw,,Tilt,,,,0,,00*34
$GPGSA,A,3,03,04,06,07,09,11,16,20,26,30,,,0.8,0.4,0.7*34
$GPGSA,A,3,70,71,72,73,79,80,86,87,,,,,0.8,0.4,0.7*3E
$GPGSA,A,3,03,05,06,09,15,31,34,36,,,,,0.8,0.4,0.7*34
$GPGSA,A,3,05,06,09,12,16,19,20,22,35,36,37,39,0.8,0.4,0.7*30
$GPGSA,A,3,44,60,,,,,,,,,,,0.8,0.4,0.7*3F
$GPGST,041457.00,1.938,0.349,0.300,354.247,0.349,0.300,0.661*55
$GPGBS,041457.00,2.106,1.556,4.417,72,0.0001,6.502,6.156*59
$GPGRS,041457.00,1,-0.3,-0.0,-0.1,0.3,0.0,-0.2,-0.2,0.8,-0.7,-0.1,,*6F
$GPGRS,041457.00,1,-3.4,0.6,6.5,4.0,2.7,-2.4,-2.9,-3.5,,,,*45
$GPGRS,041457.00,1,-0.8,0.4,-0.1,-0.1,0.0,0.5,-0.2,0.3,,,,*45
$GPGRS,041457.00,1,2.2,0.6,0.7,0.8,0.2,-0.1,1.1,-0.5,-1.3,-1.0,-0.9,-1.8*41
$GPGRS,041457.00,1,-0.1,-1.5,,,,,,,,,,*48
$GPGSV,5,1,19,09,80,028,51,03,22,121,41,26,12,042,39,20,19,306,41*7F
$GPGSV,5,2,19,30,15,201,41,16,15,072,40,11,36,301,46,07,47,179,48*77
$GPGSV,5,3,19,04,51,063,47,06,52,250,48,36,35,170,45,58,13,245,37*77
$GPGSV,5,4,19,40,24,132,35,34,31,208,43,49,34,195,45,57,08,111,38*7A
$GPGSV,5,5,19,41,07,108,35,61,03,257,38*73
$GLGSV,3,1,11,71,66,340,52,70,41,069,40,72,26,285,48,86,36,237,49*6A
$GLGSV,3,2,11,73,32,131,49,80,38,061,50,87,39,300,48,85,01,196,*66
$GLGSV,3,3,11,74,02,164,,79,07,015,44,88,04,348,*51
$GAGSV,3,1,11,05,70,266,49,36,33,188,44,15,24,319,42,23,11,037,*69
$GAGSV,3,2,11,31,17,087,39,03,18,253,41,06,27,066,43,09,51,061,47*6E
$GAGSV,3,3,11,34,56,261,48,24,04,134,,04,04,068,35*59
$GBGSV,5,1,20,19,69,069,52,34,10,327,,39,10,041,40,05,23,128,40*63
$GBGSV,5,2,20,35,16,228,44,36,24,161,44,20,21,093,45,37,19,043,42*65
$GBGSV,5,3,20,12,24,302,42,16,20,043,41,44,25,275,45,06,23,045,39*60
$GBGSV,5,4,20,58,35,092,,09,36,051,42,46,42,101,,22,49,292,50*63
$GBGSV,5,5,20,48,42,090,,21,49,283,,02,07,107,35,60,08,111,41*62
$GPGGA,041457.00,,,,,0,00,,,M,,M,,*4B
$PTNL,GGK,041457.00,010125,4742.1603330,N,01618.1003311,E,1,40,0.8,EHT751.4980,M*4D
$GPGGQ,041457.00,010125,4742.1603330,N,01618.1003311,E,1,40,0.805,708.2915,M*30
$GPGFA,041457.00,3.319,5.417,0.349,0.300,354.247,0.661,,VVV*00
$GPLLK,041457.00,010125,,M,,M,1,40,0.9,,M*05
$GNGMP,041457.00,,,,,DAAA,40,0.4,,,,*55
$GPGMP,041457.00,,,,,,10,,,,2.5,136*7C
$GLGMP,041457.00,,,,,,08,,,,,*74
$GAGMP,041457.00,,,,,,08,,,,,*79
$GBGMP,041457.00,,,,,,14,,,,,*77
$PSSN,SNC,[0,274515000,2347]*44
$GPZDA,041502.00,01,01,2025,,*61
$GPDTM,W84,,00.0000000,N,00.0000000,E,00.0000000,W84*5F
$PSSN,TFM,041502.00,,,,*6D
$GPRMC,041502.00,A,4742.1603321,N,01618.1003316,E,0.0,,010125,5.1,E,D*16
$GPGLL,4742.1603321,N,01618.1003316,E,041502.00,A,D*67
$GPGGA,041502.00,4742.1603321,N,01618.1003316,E,2,40,0.4,708.2938,M,43.2066,M,2.3,0136*45
$GNGNS,041502.00,4742.1603321,N,01618.1003316,E,DAAA,40,0.4,708.2938,43.2066,,*5C
$GPGNS,041502.00,,,,,,10,,,,2.3,136*7B
$GLGNS,041502.00,,,,,,08,,,,,*75
$GAGNS,041502.00,,,,,,08,,,,,*78
$GBGNS,041502.00,,,,,,14,,,,,*76
$GPLLQ,041502.00,010125,,M,,M,1,40,0.812,,M*1C
$GPVTG,,T,,M,0.01,N,0.01,K,D*26
$GPHDT,,T*1B
$GPTHS,,V*0E
$GPROT,,V*08
$PSSN,HRP,041502.00,010125,,,,,,,00,0,,*63
$PTNL,AVR,041502.00,,Yaw,,Tilt,,,,0,,00*35
$GPGSA,A,3,03,04,06,07,09,11,16,20,26,30,,,0.8,0.4,0.7*34
$GPGSA,A,3,70,71,72,73,79,80,86,87,,,,,0.8,0.4,0.7*3E
$GPGSA,A,3,03,05,06,09,15,31,34,36,,,,,0.8,0.4,0.7*34
$GPGSA,A,3,05,06,09,12,16,19,20,22,35,36,37,39,0.8,0.4,0.7*30
$GPGSA,A,3,44,60,,,,,,,,,,,0.8,0.4,0.7*3F
$GPGST,041502.00,1.956,0.352,0.303,353.557,0.351,0.303,0.667*58
$GPGBS,041502.00,2.092,1.536,4.456,20,0.0001,0.980,1.001*54
$GPGRS,041502.00,1,0.4,-0.2,-0.4,0.3,0.0,-0.3,0.4,1.0,-0.3,-0.3,,*66
$GPGRS,041502.00,1,-2.8,0.1,5.8,4.3,2.3,-2.8,-3.3,-4.7,,,,*45
$GPGRS,041502.00,1,-0.7,0.2,-0.0,-0.1,-0.2,0.4,-0.2,0.2,,,,*63
$GPGRS,041502.00,1,2.4,0.8,0.8,1.2,0.5,-0.1,1.3,-0.5,-1.0,-0.8,-0.8,-1.6*4C
$GPGRS,041502.00,1,0.0,-1.7,,,,,,,,,,*67
$GPGSV,5,1,19,09,80,028,51,03,22,121,41,26,12,042,39,20,19,306,41*7F
$GPGSV,5,2,19,30,15,201,41,16,15,072,41,11,36,301,46,07,47,179,48*76
$GPGSV,5,3,19,04,51,063,47,06,52,249,48,36,35,170,45,58,13,245,37*7F
$GPGSV,5,4,19,40,24,132,35,34,31,208,43,49,34,195,45,57,08,111,38*7A
$GPGSV,5,5,19,41,07,108,35,61,03,257,37*7C
$GLGSV,3,1,11,71,66,340,52,70,41,069,40,72,27,285,48,86,36,237,49*6B
$GLGSV,3,2,11,73,32,131,48,80,38,061,50,87,39,300,48,85,00,196,*66
$GLGSV,3,3,11,74,02,164,,79,07,015,43,88,04,348,*56
$GAGSV,3,1,11,05,70,266,49,36,33,188,44,15,24,319,41,23,11,037,*6A
$GAGSV,3,2,11,31,17,087,40,03,18,253,41,06,27,066,43,09,51,061,47*60
$GAGSV,3,3,11,34,56,261,48,24,04,134,,04,04,069,35*58
$GBGSV,5,1,20,19,69,070,52,34,10,327,,39,10,041,39,05,23,128,39*6B
$GBGSV,5,2,20,35,16,228,44,36,24,161,44,20,21,093,45,37,19,042,42*64
$GBGSV,5,3,20,12,24,302,42,16,20,043,41,44,25,275,45,06,23,045,39*60
$GBGSV,5,4,20,58,35,092,,09,36,051,42,46,42,101,,22,49,292,50*63
$GBGSV,5,5,20,48,42,090,,21,49,283,,02,07,107,35,60,08,111,41*62
$GPGGA,041502.00,,,,,0,00,,,M,,M,,*4A
$PTNL,GGK,041502.00,010125,4742.1603321,N,01618.1003316,E,1,40,0.8,EHT751.5004,M*4F
$GPGGQ,041502.00,010125,4742.1603321,N,01618.1003316,E,1,40,0.812,708.2938,M*3F
$GPGFA,041502.00,3.345,5.466,0.352,0.303,353.557,0.667,,VVV*00
$GPLLK,041502.00,010125,,M,,M,1,40,0.9,,M*04
$GNGMP,041502.00,,,,,DAAA,40,0.4,,,,*54
$GPGMP,041502.00,,,,,,10,,,,2.3,136*7B
$GLGMP,041502.00,,,,,,08,,,,,*75
$GAGMP,041502.00,,,,,,08,,,,,*78
$GBGMP,041502.00,,,,,,14,,,,,*76
$PSSN,SNC,[0,274520000,2347]*42
$GPZDA,041507.00,01,01,2025,,*64
$GPDTM,W84,,00.0000000,N,00.0000000,E,00.0000000,W84*5F
$PSSN,TFM,041507.00,,,,*68
$GPRMC,041507.00,A,4742.1603318,N,01618.1003297,E,0.0,,010125,5.1,E,D*11
$GPGLL,4742.1603318,N,01618.1003297,E,041507.00,A,D*60
$GPGGA,041507.00,4742.1603318,N,01618.1003297,E,2,41,0.4,708.2949,M,43.2066,M,3.3,0136*44
$GNGNS,041507.00,4742.1603318,N,01618.1003297,E,DAAA,41,0.4,708.2949,43.2066,,*5C
$GPGNS,041507.00,,,,,,10,,,,3.3,136*7F
$GLGNS,041507.00,,,,,,08,,,,,*70
$GAGNS,041507.00,,,,,,08,,,,,*7D
$GBGNS,041507.00,,,,,,15,,,,,*72
$GPLLQ,041507.00,010125,,M,,M,1,41,0.821,,M*18
$GPVTG,,T,,M,0.00,N,0.00,K,D*26
$GPHDT,,T*1B
$GPTHS,,V*0E
$GPROT,,V*08
$PSSN,HRP,041507.00,010125,,,,,,,00,0,,*66
$PTNL,AVR,041507.00,,Yaw,,Tilt,,,,0,,00*30
$GPGSA,A,3,03,04,06,07,09,11,16,20,26,30,,,0.8,0.4,0.7*34
$GPGSA,A,3,70,71,72,73,79,80,86,87,,,,,0.8,0.4,0.7*3E
$GPGSA,A,3,03,05,06,09,15,31,34,36,,,,,0.8,0.4,0.7*34
$GPGSA,A,3,02,05,06,09,12,16,19,20,22,35,36,37,0.8,0.4,0.7*38
$GPGSA,A,3,39,44,60,,,,,,,,,,0.8,0.4,0.7*35
$GPGST,041507.00,1.866,0.355,0.306,354.069,0.355,0.306,0.674*51
$GPGBS,041507.00,2.102,1.551,4.525,72,0.0001,5.945,6.156*52
$GPGRS,041507.00,1,0.0,0.1,-0.1,-0.0,0.2,-0.1,0.6,0.3,-0.6,-0.3,,*67
$GPGRS,041507.00,1,-2.2,0.3,5.9,3.8,2.1,-3.3,-2.5,-4.9,,,,*44
$GPGRS,041507.00,1,-0.4,0.2,-0.1,-0.1,-0.4,0.4,-0.2,0.1,,,,*61
$GPGRS,041507.00,1,1.3,2.0,0.4,0.9,0.8,0.7,-0.0,1.4,-0.4,-1.4,-0.3,-0.9*68
$GPGRS,041507.00,1,-1.3,-0.1,-1.6,,,,,,,,,*4E
$GPGSV,5,1,19,09,80,028,51,03,22,121,42,26,12,042,39,20,19,306,41*7C
$GPGSV,5,2,19,30,15,201,41,16,15,072,41,11,36,301,46,07,48,179,49*78
$GPGSV,5,3,19,04,51,063,46,06,52,249,48,36,35,170,45,58,13,245,37*7E
$GPGSV,5,4,19,40,24,132,35,34,31,208,43,49,34,195,45,57,08,111,38*7A
$GPGSV,5,5,19,41,07,108,35,61,03,257,37*7C
$GLGSV,3,1,11,71,66,341,52,70,41,069,40,72,27,285,48,86,36,237,50*62
$GLGSV,3,2,11,73,32,131,48,80,38,061,50,87,39,300,48,85,00,195,*65
$GLGSV,3,3,11,74,02,164,,79,07,015,42,88,04,348,*57
$GAGSV,3,1,11,05,70,266,49,36,33,188,44,15,24,319,41,23,11,037,*6A
$GAGSV,3,2,11,31,17,087,40,03,18,253,42,06,27,067,43,09,51,061,47*62
$GAGSV,3,3,11,34,56,261,48,24,04,134,,04,04,069,36*5B
$GBGSV,5,1,20,19,69,070,51,34,10,327,,39,10,041,40,05,23,128,40*68
$GBGSV,5,2,20,35,16,228,44,36,24,161,44,20,21,093,45,37,19,042,42*64
$GBGSV,5,3,20,12,24,302,43,16,20,043,41,44,25,275,45,06,23,045,39*61
$GBGSV,5,4,20,58,35,092,,09,36,051,42,46,42,101,,22,49,292,50*63
$GBGSV,5,5,20,48,42,090,,21,49,283,,02,07,107,35,60,08,111,41*62
$GPGGA,041507.00,,,,,0,00,,,M,,M,,*4F
$PTNL,GGK,041507.00,010125,4742.1603318,N,01618.1003297,E,1,41,0.8,EHT751.5014,M*48
$GPGGQ,041507.00,010125,4742.1603318,N,01618.1003297,E,1,41,0.821,708.2949,M*3F
$GPGFA,041507.00,3.380,5.527,0.355,0.306,354.069,0.674,,VVV*07
$GPLLK,041507.00,010125,,M,,M,1,41,0.9,,M*00
$GNGMP,041507.00,,,,,DAAA,41,0.4,,,,*50
$GPGMP,041507.00,,,,,,10,,,,3.3,136*7F
$GLGMP,041507.00,,,,,,08,,,,,*70
$GAGMP,041507.00,,,,,,08,,,,,*7D
$GBGMP,041507.00,,,,,,15,,,,,*72
$PSSN,SNC,[0,274525000,2347]*47
$GPZDA,041512.00,01,01,2025,,*60
$GPDTM,W84,,00.0000000,N,00.0000000,E,00.0000000,W84*5F
$PSSN,TFM,041512.00,,,,*6C
$GPRMC,041512.00,A,4742.1603307,N,01618.1003272,E,0.0,,010125,5.1,E,D*10
$GPGLL,4742.1603307,N,01618.1003272,E,041512.00,A,D*61
$GPGGA,041512.00,4742.1603307,N,01618.1003272,E,2,40,0.4,708.2947,M,43.2066,M,1.9,0136*42
$GNGNS,041512.00,4742.1603307,N,01618.1003272,E,DAAA,40,0.4,708.2947,43.2066,,*52
$GPGNS,041512.00,,,,,,10,,,,1.9,136*73
$GLGNS,041512.00,,,,,,08,,,,,*74
$GAGNS,041512.00,,,,,,08,,,,,*79
$GBGNS,041512.00,,,,,,14,,,,,*77
$GPLLQ,041512.00,010125,,M,,M,1,40,0.819,,M*16
$GPVTG,,T,,M,0.00,N,0.00,K,D*26
$GPHDT,,T*1B
$GPTHS,,V*0E
$GPROT,,V*08
$PSSN,HRP,041512.00,010125,,,,,,,00,0,,*62
$PTNL,AVR,041512.00,,Yaw,,Tilt,,,,0,,00*34
$GPGSA,A,3,03,04,06,07,09,11,16,20,26,30,,,0.8,0.4,0.7*34
$GPGSA,A,3,70,71,72,73,79,80,86,87,,,,,0.8,0.4,0.7*3E
$GPGSA,A,3,03,05,06,09,15,31,34,36,,,,,0.8,0.4,0.7*34
$GPGSA,A,3,05,06,09,12,16,19,20,22,35,36,37,39,0.8,0.4,0.7*30
$GPGSA,A,3,44,60,,,,,,,,,,,0.8,0.4,0.7*3F
$GPGST,041512.00,1.849,0.355,0.304,354.289,0.354,0.305,0.673*53
$GPGBS,041512.00,2.134,1.542,4.428,72,0.0001,6.242,6.156*52
$GPGRS,041512.00,1,-0.1,0.1,-0.2,0.2,-0.0,-0.1,0.9,0.5,-0.9,-0.5,,*4C
$GPGRS,041512.00,1,-2.8,0.5,6.2,3.7,1.2,-2.7,-2.6,-4.1,,,,*45
$GPGRS,041512.00,1,-0.8,0.1,-0.0,-0.3,0.0,0.4,-0.2,0.1,,,,*40
$GPGRS,041512.00,1,2.0,0.4,0.7,1.1,0.3,-0.3,1.3,-0.5,-1.4,0.1,-0.9,-1.6*6C
$GPGRS,041512.00,1,-0.4,-1.7,,,,,,,,,,*4F
$GPGSV,5,1,19,09,80,029,51,03,22,121,42,26,12,042,39,20,19,306,41*7D
$GPGSV,5,2,19,30,15,201,41,16,15,072,40,11,37,301,46,07,48,179,49*78
$GPGSV,5,3,19,04,51,063,46,06,52,249,48,36,35,170,45,58,13,245,38*71
$GPGSV,5,4,19,40,24,132,36,34,31,208,43,49,34,195,45,57,08,111,38*79
$GPGSV,5,5,19,41,07,108,35,61,03,257,37*7C
$GLGSV,3,1,11,71,66,341,52,70,41,069,40,72,27,285,48,86,36,237,50*62
$GLGSV,3,2,11,73,32,131,47,80,38,061,50,87,39,300,48,85,00,195,*6A
$GLGSV,3,3,11,74,03,164,,79,07,015,42,88,04,348,*56
$GAGSV,3,1,11,05,70,266,49,36,33,188,44,15,24,319,42,23,11,037,*69
$GAGSV,3,2,11,31,17,087,40,03,18,253,41,06,27,067,43,09,51,061,47*61
$GAGSV,3,3,11,34,56,261,48,24,04,134,,04,04,069,36*5B
$GBGSV,5,1,20,19,69,070,51,34,10,327,,39,10,041,40,05,23,128,40*68
$GBGSV,5,2,20,35,16,228,44,36,24,161,44,20,21,093,45,37,19,042,42*64
$GBGSV,5,3,20,12,24,302,43,16,20,043,41,44,25,275,45,06,23,045,39*61
$GBGSV,5,4,20,58,36,092,,09,36,051,42,46,42,101,,22,49,292,50*60
$GBGSV,5,5,20,48,42,090,,21,49,283,,02,07,107,35,60,08,111,41*62
$GPGGA,041512.00,,,,,0,00,,,M,,M,,*4B
$PTNL,GGK,041512.00,010125,4742.1603307,N,01618.1003272,E,1,40,0.8,EHT751.5012,M*4E
$GPGGQ,041512.00,010125,4742.1603307,N,01618.1003272,E,1,40,0.819,708.2947,M*3A
$GPGFA,041512.00,3.373,5.516,0.355,0.304,354.289,0.673,,VVV*04
$GPLLK,041512.00,010125,,M,,M,1,40,0.9,,M*05
$GNGMP,041512.00,,,,,DAAA,40,0.4,,,,*55
$GPGMP,041512.00,,,,,,10,,,,1.9,136*73
$GLGMP,041512.00,,,,,,08,,,,,*74
$GAGMP,041512.00,,,,,,08,,,,,*79
$GBGMP,041512.00,,,,,,14,,,,,*77
$PSSN,SNC,[0,274530000,2347]*43
$GPZDA,041517.00,01,01,2025,,*65
$GPDTM,W84,,00.0000000,N,00.0000000,E,00.0000000,W84*5F
$PSSN,TFM,041517.00,,,,*69
$GPRMC,041517.00,A,4742.1603291,N,01618.1003257,E,0.0,,010125,5.1,E,D*1C
$GPGLL,4742.1603291,N,01618.1003257,E,041517.00,A,D*6D
$GPGGA,041517.00,4742.1603291,N,01618.1003257,E,2,40,0.4,708.2933,M,43.2066,M,2.5,0136*42
$GNGNS,041517.00,4742.1603291,N,01618.1003257,E,DAAA,40,0.4,708.2933,43.2066,,*5D
$GPGNS,041517.00,,,,,,10,,,,2.5,136*79
$GLGNS,041517.00,,,,,,08,,,,,*71
$GAGNS,041517.00,,,,,,08,,,,,*7C
$GBGNS,041517.00,,,,,,14,,,,,*72
$GPLLQ,041517.00,010125,,M,,M,1,40,0.815,,M*1F
$GPVTG,,T,,M,0.00,N,0.00,K,D*26
$GPHDT,,T*1B
$GPTHS,,V*0E
$GPROT,,V*08
$PSSN,HRP,041517.00,010125,,,,,,,00,0,,*67
$PTNL,AVR,041517.00,,Yaw,,Tilt,,,,0,,00*31
$GPGSA,A,3,03,04,06,07,09,11,16,20,26,30,,,0.8,0.4,0.7*34
$GPGSA,A,3,70,71,72,73,79,80,86,87,,,,,0.8,0.4,0.7*3E
$GPGSA,A,3,03,05,06,09,15,31,34,36,,,,,0.8,0.4,0.7*34
$GPGSA,A,3,05,06,09,12,16,19,20,22,35,36,37,39,0.8,0.4,0.7*30
$GPGSA,A,3,44,60,,,,,,,,,,,0.8,0.4,0.7*3F
$GPGST,041517.00,2.019,0.350,0.304,356.188,0.350,0.305,0.670*5A
$GPGBS,041517.00,2.105,1.555,4.448,72,0.0001,7.169,6.155*5D
$GPGRS,041517.00,1,-0.1,0.0,-0.4,0.1,0.1,0.0,0.9,0.5,-0.4,-0.5,,*40
$GPGRS,041517.00,1,-2.5,0.9,7.2,3.2,2.1,-2.8,-3.2,-5.0,,,,*4F
$GPGRS,041517.00,1,-0.7,0.3,-0.2,-0.1,0.0,0.3,-0.0,0.2,,,,*4E
$GPGRS,041517.00,1,2.3,-0.1,0.9,1.1,0.9,-0.2,1.1,-0.3,-1.2,0.2,-0.7,-1.4*4A
$GPGRS,041517.00,1,-0.5,-1.5,,,,,,,,,,*49
$GPGSV,5,1,19,09,80,029,51,03,21,121,41,26,12,042,38,20,19,306,41*7C
$GPGSV,5,2,19,30,15,201,41,16,15,072,40,11,37,301,46,07,48,179,48*79
$GPGSV,5,3,19,04,51,063,47,06,52,249,48,36,35,170,45,58,13,245,38*70
$GPGSV,5,4,19,40,24,132,35,34,31,208,43,49,34,195,45,57,08,111,38*7A
$GPGSV,5,5,19,41,07,108,35,61,03,257,37*7C
$GLGSV,3,1,11,71,66,341,52,70,41,069,41,72,27,285,49,86,36,237,49*6A
$GLGSV,3,2,11,73,32,131,48,80,38,061,50,87,39,300,48,85,00,195,*65
$GLGSV,3,3,11,74,03,164,,79,07,015,42,88,04,348,*56
$GAGSV,3,1,11,05,70,267,49,36,33,188,44,15,24,319,42,23,11,037,*68
$GAGSV,3,2,11,31,17,087,40,03,18,253,41,06,27,067,43,09,51,061,47*61
$GAGSV,3,3,11,34,56,261,48,24,04,134,,04,04,069,36*5B
$GBGSV,5,1,20,19,69,070,51,34,10,327,,39,10,041,40,05,23,128,39*66
$GBGSV,5,2,20,35,16,228,44,36,24,161,44,20,21,093,44,37,19,042,42*65
$GBGSV,5,3,20,12,24,302,43,16,20,043,41,44,25,275,44,06,23,045,39*60
$GBGSV,5,4,20,58,36,092,,09,36,051,42,46,42,101,,22,49,292,50*60
$GBGSV,5,5,20,48,42,090,,21,49,284,,02,07,107,35,60,08,111,41*65
$GPGGA,041517.00,,,,,0,00,,,M,,M,,*4E
$PTNL,GGK,041517.00,010125,4742.1603291,N,01618.1003257,E,1,40,0.8,EHT751.4999,M*49
$GPGGQ,041517.00,010125,4742.1603291,N,01618.1003257,E,1,40,0.815,708.2933,M*39
$GPGFA,041517.00,3.327,5.496,0.350,0.304,356.188,0.670,,VVV*0F
$GPLLK,041517.00,010125,,M,,M,1,40,0.9,,M*00
$GNGMP,041517.00,,,,,DAAA,40,0.4,,,,*50
$GPGMP,041517.00,,,,,,10,,,,2.5,136*79
$GLGMP,041517.00,,,,,,08,,,,,*71
$GAGMP,041517.00,,,,,,08,,,,,*7C
$GBGMP,041517.00,,,,,,14,,,,,*72
$PSSN,SNC,[0,274535000,2347]*46
$GPZDA,041522.00,01,01,2025,,*63
$GPDTM,W84,,00.0000000,N,00.0000000,E,00.0000000,W84*5F
$PSSN,TFM,041522.00,,,,*6F
$GPRMC,041522.00,A,4742.1603275,N,01618.1003224,E,0.0,,010125,5.1,E,D*14
$GPGLL,4742.1603275,N,01618.1003224,E,041522.00,A,D*65
$GPGGA,041522.00,4742.1603275,N,01618.1003224,E,2,40,0.4,708.2916,M,43.2066,M,2.3,0136*4B
$GNGNS,041522.00,4742.1603275,N,01618.1003224,E,DAAA,40,0.4,708.2916,43.2066,,*52
$GPGNS,041522.00,,,,,,10,,,,2.3,136*79
$GLGNS,041522.00,,,,,,08,,,,,*77
$GAGNS,041522.00,,,,,,08,,,,,*7A
$GBGNS,041522.00,,,,,,14,,,,,*74
$GPLLQ,041522.00,010125,,M,,M,1,40,0.833,,M*1D
$GPVTG,,T,,M,0.00,N,0.01,K,D*27
$GPHDT,,T*1B
$GPTHS,,V*0E
$GPROT,,V*08
$PSSN,HRP,041522.00,010125,,,,,,,00,0,,*61
$PTNL,AVR,041522.00,,Yaw,,Tilt,,,,0,,00*37
$GPGSA,A,3,03,04,06,07,09,11,16,20,26,30,,,0.8,0.4,0.7*34
$GPGSA,A,3,70,71,72,73,79,80,86,87,,,,,0.8,0.4,0.7*3E
$GPGSA,A,3,03,05,06,09,15,31,34,36,,,,,0.8,0.4,0.7*34
$GPGSA,A,3,05,06,09,12,16,19,20,22,35,36,37,39,0.8,0.4,0.7*30
$GPGSA,A,3,44,60,,,,,,,,,,,0.8,0.4,0.7*3F
$GPGST,041522.00,2.028,0.357,0.312,349.717,0.356,0.313,0.684*5A
$GPGBS,041522.00,2.141,1.621,4.523,72,0.0001,7.502,6.155*5E
$GPGRS,041522.00,1,0.1,0.2,-0.3,0.1,0.2,-0.3,0.6,0.4,-0.7,-0.3,,*48
$GPGRS,041522.00,1,-1.9,0.8,7.5,3.9,2.0,-3.2,-3.5,-4.4,,,,*43
$GPGRS,041522.00,1,-0.5,0.5,-0.4,0.2,-0.1,0.3,-0.1,0.4,,,,*4F
$GPGRS,041522.00,1,2.1,-0.5,0.7,0.4,0.6,-0.0,0.9,-0.4,-1.0,0.3,-0.5,-1.2*44
$GPGRS,041522.00,1,-0.7,-1.3,,,,,,,,,,*4B
$GPGSV,5,1,19,09,80,029,51,03,21,121,41,26,12,042,37,20,19,306,41*73
$GPGSV,5,2,19,30,15,201,41,16,15,072,39,11,37,301,46,07,48,179,49*76
$GPGSV,5,3,19,04,51,063,47,06,52,249,48,36,35,170,45,58,13,245,37*7F
$GPGSV,5,4,19,40,24,132,35,34,31,208,43,49,34,195,45,57,08,111,37*75
$GPGSV,5,5,19,41,07,108,35,61,03,257,37*7C
$GLGSV,3,1,11,71,66,341,52,70,41,069,41,72,27,285,49,86,36,237,49*6A
$GLGSV,3,2,11,73,32,131,48,80,38,061,50,87,39,300,48,85,00,195,*65
$GLGSV,3,3,11,74,03,164,,79,07,015,43,88,04,348,*57
$GAGSV,3,1,11,05,70,267,48,36,33,188,44,15,24,319,41,23,11,037,*6A
$GAGSV,3,2,11,31,17,087,40,03,18,253,41,06,27,067,43,09,51,062,47*62
$GAGSV,3,3,11,34,56,261,48,24,04,134,,04,03,069,36*5C
$GBGSV,5,1,20,19,69,070,51,34,10,327,,39,10,041,40,05,23,128,39*66
$GBGSV,5,2,20,35,16,228,44,36,24,161,44,20,21,093,45,37,19,042,42*64
$GBGSV,5,3,20,12,24,302,43,16,20,043,41,44,25,275,44,06,23,045,39*60
$GBGSV,5,4,20,58,36,092,,09,36,051,42,46,42,101,,22,49,292,50*60
$GBGSV,5,5,20,48,42,090,,21,49,284,,02,07,107,35,60,08,111,41*65
$GPGGA,041522.00,,,,,0,00,,,M,,M,,*48
$PTNL,GGK,041522.00,010125,4742.1603275,N,01618.1003224,E,1,40,0.8,EHT751.4982,M*4B
$GPGGQ,041522.00,010125,4742.1603275,N,01618.1003224,E,1,40,0.833,708.2916,M*32
$GPGFA,041522.00,3.398,5.612,0.357,0.312,349.717,0.684,,VVV*06
$GPLLK,041522.00,010125,,M,,M,1,40,0.9,,M*06
$GNGMP,041522.00,,,,,DAAA,40,0.4,,,,*56
$GPGMP,041522.00,,,,,,10,,,,2.3,136*79
$GLGMP,041522.00,,,,,,08,,,,,*77
$GAGMP,041522.00,,,,,,08,,,,,*7A
$GBGMP,041522.00,,,,,,14,,,,,*74
$PSSN,SNC,[0,274540000,2347]*44
$GPZDA,041527.00,01,01,2025,,*66
$GPDTM,W84,,00.0000000,N,00.0000000,E,00.0000000,W84*5F
$PSSN,TFM,041527.00,,,,*6A
$GPRMC,041527.00,A,4742.1603276,N,01618.1003206,E,0.0,,010125,5.1,E,D*12
$GPGLL,4742.1603276,N,01618.1003206,E,041527.00,A,D*63
$GPGGA,041527.00,4742.1603276,N,01618.1003206,E,2,40,0.4,708.2905,M,43.2066,M,3.3,0136*4E
$GNGNS,041527.00,4742.1603276,N,01618.1003206,E,DAAA,40,0.4,708.2905,43.2066,,*56
$GPGNS,041527.00,,,,,,10,,,,3.3,136*7D
$GLGNS,041527.00,,,,,,08,,,,,*72
$GAGNS,041527.00,,,,,,08,,,,,*7F
$GBGNS,041527.00,,,,,,14,,,,,*71
$GPLLQ,041527.00,010125,,M,,M,1,40,0.842,,M*1E
$GPVTG,,T,,M,0.00,N,0.00,K,D*26
$GPHDT,,T*1B
$GPTHS,,V*0E
$GPROT,,V*08
$PSSN,HRP,041527.00,010125,,,,,,,00,0,,*64
$PTNL,AVR,041527.00,,Yaw,,Tilt,,,,0,,00*32
$GPGSA,A,3,03,04,06,07,09,11,16,20,26,30,,,0.8,0.4,0.7*34
$GPGSA,A,3,70,71,72,73,79,80,86,87,,,,,0.8,0.4,0.7*3E
$GPGSA,A,3,03,05,06,09,15,31,34,36,,,,,0.8,0.4,0.7*34
$GPGSA,A,3,05,06,09,12,16,19,20,22,35,36,37,39,0.8,0.4,0.7*30
$GPGSA,A,3,44,60,,,,,,,,,,,0.8,0.4,0.7*3F
$GPGST,041527.00,1.900,0.361,0.315,350.154,0.360,0.317,0.692*52
$GPGBS,041527.00,2.153,1.641,4.597,72,0.0001,6.696,6.155*5E
$GPGRS,041527.00,1,0.2,-0.1,-0.3,0.2,0.2,-0.1,0.1,0.4,-0.7,-0.4,,*61
$GPGRS,041527.00,1,-2.0,0.5,6.7,3.9,2.3,-3.1,-2.8,-4.2,,,,*48
$GPGRS,041527.00,1,-0.4,0.5,-0.7,0.2,0.1,0.2,-0.3,0.2,,,,*60
$GPGRS,041527.00,1,1.9,-0.3,0.7,0.7,-0.0,0.2,1.0,-0.2,-1.2,0.9,-0.6,-1.2*4E
$GPGRS,041527.00,1,-0.0,-1.7,,,,,,,,,,*4D
$GPGSV,5,1,19,09,80,029,51,03,21,121,41,26,12,042,37,20,19,306,41*73
$GPGSV,5,2,19,30,15,201,41,16,15,072,39,11,37,301,46,07,48,179,49*76
$GPGSV,5,3,19,04,51,063,47,06,52,249,48,36,35,170,45,58,13,245,38*70
$GPGSV,5,4,19,40,24,132,36,34,31,208,43,49,34,195,45,57,08,111,38*79
$GPGSV,5,5,19,41,07,108,35,61,03,257,38*73
$GLGSV,3,1,11,71,66,341,52,70,41,069,40,72,27,285,49,86,36,237,50*63
$GLGSV,3,2,11,73,32,131,48,80,38,061,50,87,39,300,48,85,00,195,*65
$GLGSV,3,3,11,74,03,164,,79,07,015,42,88,04,348,*56
$GAGSV,3,1,11,05,70,267,49,36,33,188,45,15,24,319,42,23,11,037,*69
$GAGSV,3,2,11,31,17,087,40,03,18,253,41,06,27,067,43,09,51,062,47*62
$GAGSV,3,3,11,34,56,261,48,24,04,134,,04,03,069,36*5C
$GBGSV,5,1,20,19,69,070,51,34,10,327,,39,10,041,40,05,23,128,39*66
$GBGSV,5,2,20,35,16,228,43,36,24,161,44,20,21,093,45,37,19,042,41*60
$GBGSV,5,3,20,12,24,302,43,16,20,043,40,44,25,275,45,06,23,045,39*60
$GBGSV,5,4,20,58,36,092,,09,36,051,42,46,42,101,,22,49,292,50*60
$GBGSV,5,5,20,48,42,090,,21,49,284,,02,07,107,35,60,08,111,41*65
$GPGGA,041527.00,,,,,0,00,,,M,,M,,*4D
$PTNL,GGK,041527.00,010125,4742.1603276,N,01618.1003206,E,1,40,0.8,EHT751.4971,M*41
$GPGGQ,041527.00,010125,4742.1603276,N,01618.1003206,E,1,40,0.842,708.2905,M*30
$GPGFA,041527.00,3.433,5.672,0.361,0.315,350.154,0.692,,VVV*0F
$GPLLK,041527.00,010125,,M,,M,1,40,0.9,,M*03
$GNGMP,041527.00,,,,,DAAA,40,0.4,,,,*53
$GPGMP,041527.00,,,,,,10,,,,3.3,136*7D
$GLGMP,041527.00,,,,,,08,,,,,*72
$GAGMP,041527.00,,,,,,08,,,,,*7F
$GBGMP,041527.00,,,,,,14,,,,,*71
$PSSN,SNC,[0,274545000,2347]*41
$GPZDA,041532.00,01,01,2025,,*62
$GPDTM,W84,,00.0000000,N,00.0000000,E,00.0000000,W84*5F
$PSSN,TFM,041532.00,,,,*6E
$GPRMC,041532.00,A,4742.1603278,N,01618.1003186,E,0.0,,010125,5.1,E,D*13
$GPGLL,4742.1603278,N,01618.1003186,E,041532.00,A,D*62
$GPGGA,041532.00,4742.1603278,N,01618.1003186,E,2,40,0.4,708.2900,M,43.2066,M,1.9,0136*42
$GNGNS,041532.00,4742.1603278,N,01618.1003186,E,DAAA,40,0.4,708.2900,43.2066,,*52
$GPGNS,041532.00,,,,,,10,,,,1.9,136*71
$GLGNS,041532.00,,,,,,08,,,,,*76
$GAGNS,041532.00,,,,,,08,,,,,*7B
$GBGNS,041532.00,,,,,,14,,,,,*75
$GPLLQ,041532.00,010125,,M,,M,1,40,0.848,,M*10
$GPVTG,,T,,M,0.00,N,0.00,K,D*26
$GPHDT,,T*1B
$GPTHS,,V*0E
$GPROT,,V*08
$PSSN,HRP,041532.00,010125,,,,,,,00,0,,*60
$PTNL,AVR,041532.00,,Yaw,,Tilt,,,,0,,00*36
$GPGSA,A,3,03,04,06,07,09,11,16,20,26,30,,,0.8,0.4,0.7*34
$GPGSA,A,3,70,71,72,73,79,80,86,87,,,,,0.8,0.4,0.7*3E
$GPGSA,A,3,03,05,06,09,15,31,34,36,,,,,0.8,0.4,0.7*34
$GPGSA,A,3,05,06,09,12,16,19,20,22,35,36,37,39,0.8,0.4,0.7*30
$GPGSA,A,3,44,60,,,,,,,,,,,0.8,0.4,0.7*3F
$GPGST,041532.00,1.880,0.365,0.315,353.187,0.364,0.316,0.698*59
$GPGBS,041532.00,2.250,1.626,4.586,72,0.0001,5.891,6.155*51
$GPGRS,041532.00,1,0.2,0.0,-0.1,0.1,0.3,-0.3,0.4,0.2,-1.0,-0.2,,*48
$GPGRS,041532.00,1,-3.1,0.6,5.9,3.8,2.0,-2.8,-2.3,-4.9,,,,*48
$GPGRS,041532.00,1,-0.4,0.4,-0.4,0.1,0.5,0.1,-0.3,0.3,,,,*63
$GPGRS,041532.00,1,1.9,-0.5,0.9,1.2,0.5,0.0,1.2,-0.3,-1.3,1.1,-0.5,-1.0*66
$GPGRS,041532.00,1,0.4,-1.6,,,,,,,,,,*61
$GPGSV,5,1,19,09,79,029,51,03,21,121,42,26,12,042,38,20,19,306,41*79
$GPGSV,5,2,19,30,16,201,40,16,15,072,40,11,37,301,46,07,48,179,49*7A
$GPGSV,5,3,19,04,51,063,47,06,52,249,48,36,35,170,45,58,13,245,38*70
$GPGSV,5,4,19,40,24,132,36,34,31,208,43,49,34,195,45,57,08,111,38*79
$GPGSV,5,5,19,41,07,108,35,61,03,257,38*73
$GLGSV,3,1,11,71,66,341,52,70,41,069,40,72,27,285,49,86,36,237,49*6B
$GLGSV,3,2,11,73,32,131,48,80,38,061,49,87,39,300,48,85,00,195,*6D
$GLGSV,3,3,11,74,03,164,,79,07,015,42,88,04,348,*56
$GAGSV,3,1,11,05,70,267,49,36,33,188,44,15,24,319,42,23,11,037,*68
$GAGSV,3,2,11,31,17,087,40,03,18,253,41,06,27,067,43,09,51,062,47*62
$GAGSV,3,3,11,34,56,261,48,24,04,134,,04,03,069,36*5C
$GBGSV,5,1,20,19,69,070,51,34,10,327,,35,16,228,44,36,24,161,44*65
$GBGSV,5,2,20,20,21,093,45,37,19,042,42,05,23,128,39,16,20,043,40*6B
$GBGSV,5,3,20,12,24,302,42,06,23,045,39,44,25,275,45,09,36,051,42*69
$GBGSV,5,4,20,58,36,092,,46,42,101,,22,49,292,50,48,42,090,*6D
$GBGSV,5,5,20,21,49,284,,02,07,107,35,39,10,041,39,60,08,111,41*62
$GPGGA,041532.00,,,,,0,00,,,M,,M,,*49
$PTNL,GGK,041532.00,010125,4742.1603278,N,01618.1003186,E,1,40,0.8,EHT751.4966,M*46
$GPGGQ,041532.00,010125,4742.1603278,N,01618.1003186,E,1,40,0.848,708.2900,M*3E
$GPGFA,041532.00,3.467,5.721,0.365,0.315,353.187,0.698,,VVV*0E
$GPLLK,041532.00,010125,,M,,M,1,40,0.9,,M*07
$GNGMP,041532.00,,,,,DAAA,40,0.4,,,,*57
$GPGMP,041532.00,,,,,,10,,,,1.9,136*71
$GLGMP,041532.00,,,,,,08,,,,,*76
$GAGMP,041532.00,,,,,,08,,,,,*7B
$GBGMP,041532.00,,,,,,14,,,,,*75
$PSSN,SNC,[0,274550000,2347]*45
$GPZDA,041537.00,01,01,2025,,*67
$GPDTM,W84,,00.0000000,N,00.0000000,E,00.0000000,W84*5F
$PSSN,TFM,041537.00,,,,*6B
$GPRMC,041537.00,A,4742.1603278,N,01618.1003183,E,0.0,,010125,5.1,E,D*13
$GPGLL,4742.1603278,N,01618.1003183,E,041537.00,A,D*62
$GPGGA,041537.00,4742.1603278,N,01618.1003183,E,2,40,0.4,708.2888,M,43.2066,M,2.5,0136*4C
$GNGNS,041537.00,4742.1603278,N,01618.1003183,E,DAAA,40,0.4,708.2888,43.2066,,*53
$GPGNS,041537.00,,,,,,10,,,,2.5,136*7B
$GLGNS,041537.00,,,,,,08,,,,,*73
$GAGNS,041537.00,,,,,,08,,,,,*7E
$GBGNS,041537.00,,,,,,14,,,,,*70
$GPLLQ,041537.00,010125,,M,,M,1,40,0.831,,M*1B
$GPVTG,,T,,M,0.00,N,0.01,K,D*27
$GPHDT,,T*1B
$GPTHS,,V*0E
$GPROT,,V*08
$PSSN,HRP,041537.00,010125,,,,,,,00,0,,*65
$PTNL,AVR,041537.00,,Yaw,,Tilt,,,,0,,00*33
$GPGSA,A,3,03,04,06,07,09,11,16,20,26,30,,,0.8,0.4,0.7*34
$GPGSA,A,3,70,71,72,73,79,80,86,87,,,,,0.8,0.4,0.7*3E
$GPGSA,A,3,03,05,06,09,15,31,34,36,,,,,0.8,0.4,0.7*34
$GPGSA,A,3,05,06,09,12,16,19,20,22,35,36,37,39,0.8,0.4,0.7*30
$GPGSA,A,3,44,60,,,,,,,,,,,0.8,0.4,0.7*3F
$GPGST,041537.00,2.022,0.357,0.309,351.816,0.356,0.310,0.684*5A
$GPGBS,041537.00,2.148,1.641,4.497,72,0.0001,6.099,6.155*5D
$GPGRS,041537.00,1,0.0,-0.2,-0.2,-0.1,0.0,-0.1,0.4,0.6,0.3,0.1,,*4A
$GPGRS,041537.00,1,-3.3,0.3,6.1,4.6,2.8,-2.7,-3.1,-5.2,,,,*46
$GPGRS,041537.00,1,-0.7,0.2,-0.1,-0.1,-0.0,0.3,-0.4,0.2,,,,*67
$GPGRS,041537.00,1,2.0,-0.4,1.0,0.2,0.6,-0.3,0.9,-0.2,-1.2,0.3,-0.7,-1.3*44
$GPGRS,041537.00,1,-0.2,-1.5,,,,,,,,,,*4C
$GPGSV,5,1,19,09,79,029,51,03,21,121,42,26,12,042,38,20,19,307,41*78
$GPGSV,5,2,19,30,16,201,40,16,15,072,39,11,37,301,46,07,48,179,49*74
$GPGSV,5,3,19,04,51,063,47,06,52,249,48,36,35,170,45,58,13,245,38*70
$GPGSV,5,4,19,40,24,132,36,34,31,208,43,49,34,195,45,57,08,111,38*79
$GPGSV,5,5,19,41,07,108,35,61,03,257,38*73
$GLGSV,3,1,11,71,66,341,52,70,41,069,40,72,27,285,48,86,35,237,49*69
$GLGSV,3,2,11,73,32,131,48,80,38,061,49,87,39,300,48,85,00,195,*6D
$GLGSV,3,3,11,74,03,164,,79,07,015,42,88,04,348,*56
$GAGSV,3,1,11,05,70,267,49,36,33,188,44,15,24,319,42,23,11,037,*68
$GAGSV,3,2,11,31,17,086,40,03,18,253,41,06,27,067,43,09,51,062,47*63
$GAGSV,3,3,11,34,56,260,48,24,04,134,,04,03,069,36*5D
$GBGSV,5,1,20,19,69,070,51,34,10,327,,35,15,228,44,36,24,161,44*66
$GBGSV,5,2,20,20,21,093,45,37,19,042,42,05,23,128,39,16,20,043,40*6B
$GBGSV,5,3,20,12,24,302,42,06,23,045,39,44,25,275,45,09,36,051,42*69
$GBGSV,5,4,20,58,36,092,,46,42,101,,22,49,292,50,48,42,090,*6D
$GBGSV,5,5,20,21,49,284,,02,07,107,35,39,10,041,39,60,08,111,41*62
$GPGGA,041537.00,,,,,0,00,,,M,,M,,*4C
$PTNL,GGK,041537.00,010125,4742.1603278,N,01618.1003183,E,1,40,0.8,EHT751.4954,M*47
$GPGGQ,041537.00,010125,4742.1603278,N,01618.1003183,E,1,40,0.831,708.2888,M*31
$GPGFA,041537.00,3.393,5.607,0.357,0.309,351.816,0.684,,VVV*00
$GPLLK,041537.00,010125,,M,,M,1,40,0.9,,M*02
$GNGMP,041537.00,,,,,DAAA,40,0.4,,,,*52
$GPGMP,041537.00,,,,,,10,,,,2.5,136*7B
$GLGMP,041537.00,,,,,,08,,,,,*73
$GAGMP,041537.00,,,,,,08,,,,,*7E
$GBGMP,041537.00,,,,,,14,,,,,*70
$PSSN,SNC,[0,274555000,2347]*40
$GPZDA,041542.00,01,01,2025,,*65
$GPDTM,W84,,00.0000000,N,00.0000000,E,00.0000000,W84*5F
$PSSN,TFM,041542.00,,,,*69
$GPRMC,041542.00,A,4742.1603260,N,01618.1003208,E,0.0,,010125,5.1,E,D*18
$GPGLL,4742.1603260,N,01618.1003208,E,041542.00,A,D*69
$GPGGA,041542.00,4742.1603260,N,01618.1003208,E,2,41,0.4,708.2959,M,43.2066,M,2.3,0136*4D
$GNGNS,041542.00,4742.1603260,N,01618.1003208,E,DAAA,41,0.4,708.2959,43.2066,,*54
$GPGNS,041542.00,,,,,,10,,,,2.3,136*7F
$GLGNS,041542.00,,,,,,08,,,,,*71
$GAGNS,041542.00,,,,,,08,,,,,*7C
$GBGNS,041542.00,,,,,,15,,,,,*73
$GPLLQ,041542.00,010125,,M,,M,1,41,0.833,,M*1A
$GPVTG,,T,,M,0.00,N,0.00,K,D*26
$GPHDT,,T*1B
$GPTHS,,V*0E
$GPROT,,V*08
$PSSN,HRP,041542.00,010125,,,,,,,00,0,,*67
$PTNL,AVR,041542.00,,Yaw,,Tilt,,,,0,,00*31
$GPGSA,A,3,03,04,06,07,09,11,16,20,26,30,,,0.8,0.4,0.7*34
$GPGSA,A,3,70,71,72,73,79,80,86,87,,,,,0.8,0.4,0.7*3E
$GPGSA,A,3,03,05,06,09,15,31,34,36,,,,,0.8,0.4,0.7*34
$GPGSA,A,3,02,05,06,09,12,16,19,20,22,35,36,37,0.8,0.4,0.7*38
$GPGSA,A,3,39,44,60,,,,,,,,,,0.8,0.4,0.7*35
$GPGST,041542.00,1.983,0.357,0.312,349.742,0.356,0.313,0.685*56
$GPGBS,041542.00,2.132,1.619,4.528,72,0.0001,6.358,6.155*54
$GPGRS,041542.00,1,-0.1,-0.2,-0.1,0.0,0.1,-0.1,0.0,0.9,-0.1,-0.2,,*40
$GPGRS,041542.00,1,-3.0,0.2,6.4,3.8,2.4,-2.9,-3.3,-4.9,,,,*40
$GPGRS,041542.00,1,-0.8,0.2,-0.0,-0.1,-0.3,0.4,-0.1,0.3,,,,*6B
$GPGRS,041542.00,1,1.3,2.5,-0.1,0.8,-1.0,0.3,-0.3,1.0,-0.2,-1.6,-0.1,-0.6*6B
$GPGRS,041542.00,1,-1.4,0.2,-2.0,,,,,,,,,*63
$GPGSV,5,1,19,09,79,029,51,03,21,121,41,26,12,042,37,20,19,307,41*74
$GPGSV,5,2,19,30,16,201,41,16,15,072,40,11,37,301,46,07,48,179,49*7B
$GPGSV,5,3,19,04,51,063,46,06,52,249,48,36,35,170,45,58,13,245,38*71
$GPGSV,5,4,19,40,24,132,36,34,31,208,44,49,34,195,45,57,08,111,38*7E
$GPGSV,5,5,19,41,07,108,35,61,03,257,38*73
$GLGSV,3,1,11,71,66,341,52,70,41,069,41,72,27,285,49,86,35,237,49*69
$GLGSV,3,2,11,73,32,131,48,80,38,061,49,87,39,300,48,85,00,195,*6D
$GLGSV,3,3,11,74,03,164,,79,07,015,42,88,04,348,*56
$GAGSV,3,1,11,05,70,267,48,36,33,188,44,15,24,319,41,23,11,037,*6A
$GAGSV,3,2,11,31,17,086,40,03,18,253,41,06,27,067,43,09,51,062,47*63
$GAGSV,3,3,11,34,56,260,48,24,04,134,,04,03,069,36*5D
$GBGSV,5,1,20,19,69,070,52,34,10,327,,35,15,228,44,36,24,161,44*65
$GBGSV,5,2,20,20,21,093,45,37,19,042,42,05,23,128,40,16,20,043,41*64
$GBGSV,5,3,20,12,24,302,42,06,23,045,39,44,25,275,45,09,36,051,42*69
$GBGSV,5,4,20,58,36,092,,46,43,101,,22,49,292,50,48,42,090,*6C
$GBGSV,5,5,20,21,49,284,,02,07,107,35,39,10,041,39,60,08,111,41*62
$GPGGA,041542.00,,,,,0,00,,,M,,M,,*4E
$PTNL,GGK,041542.00,010125,4742.1603260,N,01618.1003208,E,1,41,0.8,EHT751.5024,M*42
$GPGGQ,041542.00,010125,4742.1603260,N,01618.1003208,E,1,41,0.833,708.2959,M*34
$GPGFA,041542.00,3.397,5.618,0.357,0.312,349.742,0.685,,VVV*04
$GPLLK,041542.00,010125,,M,,M,1,41,0.9,,M*01
$GNGMP,041542.00,,,,,DAAA,41,0.4,,,,*51
$GPGMP,041542.00,,,,,,10,,,,2.3,136*7F
$GLGMP,041542.00,,,,,,08,,,,,*71
$GAGMP,041542.00,,,,,,08,,,,,*7C
$GBGMP,041542.00,,,,,,15,,,,,*73
$PSSN,SNC,[0,274560000,2347]*46
$GPZDA,041547.00,01,01,2025,,*60
$GPDTM,W84,,00.0000000,N,00.0000000,E,00.0000000,W84*5F
$PSSN,TFM,041547.00,,,,*6C
$GPRMC,041547.00,A,4742.1603250,N,01618.1003237,E,0.0,,010125,5.1,E,D*12
$GPGLL,4742.1603250,N,01618.1003237,E,041547.00,A,D*63
$GPGGA,041547.00,4742.1603250,N,01618.1003237,E,2,41,0.4,708.2932,M,43.2066,M,3.3,0136*4B
$GNGNS,041547.00,4742.1603250,N,01618.1003237,E,DAAA,41,0.4,708.2932,43.2066,,*53
$GPGNS,041547.00,,,,,,10,,,,3.3,136*7B
$GLGNS,041547.00,,,,,,08,,,,,*74
$GAGNS,041547.00,,,,,,08,,,,,*79
$GBGNS,041547.00,,,,,,15,,,,,*76
$GPLLQ,041547.00,010125,,M,,M,1,41,0.850,,M*1A
$GPVTG,,T,,M,0.01,N,0.01,K,D*26
$GPHDT,,T*1B
$GPTHS,,V*0E
$GPROT,,V*08
$PSSN,HRP,041547.00,010125,,,,,,,00,0,,*62
$PTNL,AVR,041547.00,,Yaw,,Tilt,,,,0,,00*34
$GPGSA,A,3,03,04,06,07,09,11,16,20,26,30,,,0.8,0.4,0.7*34
$GPGSA,A,3,70,71,72,73,79,80,86,87,,,,,0.8,0.4,0.7*3E
$GPGSA,A,3,03,05,06,09,15,31,34,36,,,,,0.8,0.4,0.7*34
$GPGSA,A,3,02,05,06,09,12,16,19,20,22,35,36,37,0.8,0.4,0.7*38
$GPGSA,A,3,39,44,60,,,,,,,,,,0.8,0.4,0.7*35
$GPGST,041547.00,1.816,0.365,0.316,352.871,0.365,0.317,0.700*56
$GPGBS,041547.00,2.216,1.643,4.689,72,0.0001,6.343,6.154*58
$GPGRS,041547.00,1,-0.0,-0.2,-0.2,0.3,0.1,-0.1,-0.1,0.8,-0.6,0.1,,*40
$GPGRS,041547.00,1,-2.2,0.8,6.3,3.8,1.6,-3.0,-2.8,-4.3,,,,*42
$GPGRS,041547.00,1,-0.2,0.5,-0.2,-0.1,0.4,0.4,-0.1,0.6,,,,*4E
$GPGRS,041547.00,1,1.5,1.4,0.2,1.1,0.2,0.5,0.1,1.2,0.1,-1.3,0.2,-0.3*49
$GPGRS,041547.00,1,-0.9,-0.2,-1.3,,,,,,,,,*47
$GPGSV,5,1,19,09,79,030,51,03,21,121,42,26,12,042,37,20,19,307,41*7F
$GPGSV,5,2,19,30,16,201,41,16,15,071,40,11,37,301,45,07,48,179,49*7B
$GPGSV,5,3,19,04,50,063,46,06,52,249,48,36,35,170,45,58,13,245,38*70
$GPGSV,5,4,19,40,24,132,36,34,31,208,43,49,34,195,45,57,08,111,38*79
$GPGSV,5,5,19,41,07,108,35,61,03,257,38*73
$GLGSV,3,1,11,71,66,341,52,70,41,069,41,72,27,285,48,86,35,237,49*68
$GLGSV,3,2,11,73,32,131,48,80,38,061,49,87,39,300,48,85,00,195,*6D
$GLGSV,3,3,11,74,03,164,,79,07,015,42,88,04,348,*56
$GAGSV,3,1,11,05,70,267,48,36,33,188,44,15,24,319,42,23,11,037,*69
$GAGSV,3,2,11,31,17,086,40,03,18,253,41,06,27,067,43,09,51,062,47*63
$GAGSV,3,3,11,34,56,260,48,24,04,134,,04,03,069,36*5D
$GBGSV,5,1,20,19,69,070,52,34,10,327,,35,15,228,44,36,24,161,44*65
$GBGSV,5,2,20,20,21,093,45,37,19,042,42,05,23,128,39,16,20,043,40*6B
$GBGSV,5,3,20,12,24,302,42,06,23,045,39,44,25,275,45,09,36,051,42*69
$GBGSV,5,4,20,58,36,092,,46,43,101,,22,49,292,50,48,42,090,*6C
$GBGSV,5,5,20,21,49,284,,02,07,107,35,39,10,041,39,60,08,111,41*62
$GPGGA,041547.00,,,,,0,00,,,M,,M,,*4B
$PTNL,GGK,041547.00,010125,4742.1603250,N,01618.1003237,E,1,41,0.8,EHT751.4998,M*47
$GPGGQ,041547.00,010125,4742.1603250,N,01618.1003237,E,1,41,0.850,708.2932,M*36
$GPGFA,041547.00,3.473,5.736,0.365,0.316,352.871,0.700,,VVV*0D
$GPLLK,041547.00,010125,,M,,M,1,41,0.9,,M*04
$GNGMP,041547.00,,,,,DAAA,41,0.4,,,,*54
$GPGMP,041547.00,,,,,,10,,,,3.3,136*7B
$GLGMP,041547.00,,,,,,08,,,,,*74
$GAGMP,041547.00,,,,,,08,,,,,*79
$GBGMP,041547.00,,,,,,15,,,,,*76
$PSSN,SNC,[0,274565000,2347]*43
$GPZDA,041552.00,01,01,2025,,*64
$GPDTM,W84,,00.0000000,N,00.0000000,E,00.0000000,W84*5F
$PSSN,TFM,041552.00,,,,*68
$GPRMC,041552.00,A,4742.1603256,N,01618.1003238,E,0.0,,010125,5.1,E,D*1F
$GPGLL,4742.1603256,N,01618.1003238,E,041552.00,A,D*6E
$GPGGA,041552.00,4742.1603256,N,01618.1003238,E,2,41,0.4,708.2939,M,43.2066,M,1.9,0136*45
$GNGNS,041552.00,4742.1603256,N,01618.1003238,E,DAAA,41,0.4,708.2939,43.2066,,*55
$GPGNS,041552.00,,,,,,10,,,,1.9,136*77
$GLGNS,041552.00,,,,,,08,,,,,*70
$GAGNS,041552.00,,,,,,08,,,,,*7D
$GBGNS,041552.00,,,,,,15,,,,,*72
$GPLLQ,041552.00,010125,,M,,M,1,41,0.848,,M*17
$GPVTG,,T,,M,0.00,N,0.01,K,D*27
$GPHDT,,T*1B
$GPTHS,,V*0E
$GPROT,,V*08
$PSSN,HRP,041552.00,010125,,,,,,,00,0,,*66
$PTNL,AVR,041552.00,,Yaw,,Tilt,,,,0,,00*30
$GPGSA,A,3,03,04,06,07,09,11,16,20,26,30,,,0.8,0.4,0.7*34
$GPGSA,A,3,70,71,72,73,79,80,86,87,,,,,0.8,0.4,0.7*3E
$GPGSA,A,3,03,05,06,09,15,31,34,36,,,,,0.8,0.4,0.7*34
$GPGSA,A,3,02,05,06,09,12,16,19,20,22,35,36,37,0.8,0.4,0.7*38
$GPGSA,A,3,39,44,60,,,,,,,,,,0.8,0.4,0.7*35
$GPGST,041552.00,1.853,0.364,0.314,353.148,0.364,0.315,0.698*51
$GPGBS,041552.00,2.241,1.626,4.591,72,0.0001,6.140,6.154*56
$GPGRS,041552.00,1,-0.0,0.1,-0.3,-0.0,0.3,0.0,0.2,0.5,-0.7,0.1,,*49
$GPGRS,041552.00,1,-3.2,0.7,6.1,4.0,1.7,-3.4,-2.4,-4.2,,,,*4D
$GPGRS,041552.00,1,-0.5,0.3,-0.3,0.1,0.1,0.4,-0.3,0.4,,,,*62
$GPGRS,041552.00,1,0.9,1.8,-0.4,0.9,-0.2,0.7,-0.0,1.3,-0.4,-1.0,0.3,-0.5*40
$GPGRS,041552.00,1,-1.3,0.0,-1.6,,,,,,,,,*62
$GPGSV,5,1,19,09,79,030,51,03,21,121,42,26,12,041,37,20,19,307,41*7C
$GPGSV,5,2,19,30,16,201,41,16,15,071,40,11,37,301,45,07,48,179,49*7B
$GPGSV,5,3,19,04,50,063,46,06,52,249,48,36,35,170,45,58,13,245,38*70
$GPGSV,5,4,19,40,24,132,36,34,31,208,43,49,34,195,45,57,08,111,38*79
$GPGSV,5,5,19,41,07,108,35,61,03,257,38*73
$GLGSV,3,1,11,71,66,342,52,70,41,069,41,72,27,285,49,86,35,237,50*62
$GLGSV,3,2,11,73,32,131,48,80,38,061,49,87,39,300,48,85,00,195,*6D
$GLGSV,3,3,11,74,03,164,,79,07,015,43,88,04,348,*57
$GAGSV,3,1,11,05,70,267,48,36,32,188,44,15,24,319,41,23,11,037,*6B
$GAGSV,3,2,11,31,17,086,40,03,18,253,41,06,27,067,43,09,51,062,46*62
$GAGSV,3,3,11,34,56,260,48,24,04,134,,04,03,069,36*5D
$GBGSV,5,1,20,19,69,070,52,34,10,327,,35,15,228,44,36,24,161,44*65
$GBGSV,5,2,20,20,21,094,45,37,19,042,42,05,23,128,39,16,20,043,40*6C
$GBGSV,5,3,20,12,24,302,42,06,23,045,39,44,25,275,45,09,36,051,42*69
$GBGSV,5,4,20,58,36,092,,46,43,101,,22,49,292,50,48,42,090,*6C
$GBGSV,5,5,20,21,49,284,,02,07,107,35,39,10,041,39,60,08,111,41*62
$GPGGA,041552.00,,,,,0,00,,,M,,M,,*4F
$PTNL,GGK,041552.00,010125,4742.1603256,N,01618.1003238,E,1,41,0.8,EHT751.5005,M*46
$GPGGQ,041552.00,010125,4742.1603256,N,01618.1003238,E,1,41,0.848,708.2939,M*39
$GPGFA,041552.00,3.465,5.724,0.364,0.314,353.148,0.698,,VVV*0C
$GPLLK,041552.00,010125,,M,,M,1,41,0.9,,M*00
$GNGMP,041552.00,,,,,DAAA,41,0.4,,,,*50
$GPGMP,041552.00,,,,,,10,,,,1.9,136*77
$GLGMP,041552.00,,,,,,08,,,,,*70
$GAGMP,041552.00,,,,,,08,,,,,*7D
$GBGMP,041552.00,,,,,,15,,,,,*72
$PSSN,SNC,[0,274570000,2347]*47
$GPZDA,041557.00,01,01,2025,,*61
$GPDTM,W84,,00.0000000,N,00.0000000,E,00.0000000,W84*5F
$PSSN,TFM,041557.00,,,,*6D
$GPRMC,041557.00,A,4742.1603235,N,01618.1003205,E,0.0,,010125,5.1,E,D*11
$GPGLL,4742.1603235,N,01618.1003205,E,041557.00,A,D*60
$GPGGA,041557.00,4742.1603235,N,01618.1003205,E,2,40,0.4,708.2942,M,43.2066,M,2.5,0136*49
$GNGNS,041557.00,4742.1603235,N,01618.1003205,E,DAAA,40,0.4,708.2942,43.2066,,*56
$GPGNS,041557.00,,,,,,10,,,,2.5,136*7D
$GLGNS,041557.00,,,,,,08,,,,,*75
$GAGNS,041557.00,,,,,,08,,,,,*78
$GBGNS,041557.00,,,,,,14,,,,,*76
$GPLLQ,041557.00,010125,,M,,M,1,40,0.835,,M*19
$GPVTG,,T,,M,0.00,N,0.01,K,D*27
$GPHDT,,T*1B
$GPTHS,,V*0E
$GPROT,,V*08
$PSSN,HRP,041557.00,010125,,,,,,,00,0,,*63
$PTNL,AVR,041557.00,,Yaw,,Tilt,,,,0,,00*35
$GPGSA,A,3,03,04,06,07,09,11,16,20,26,30,,,0.8,0.4,0.7*34
$GPGSA,A,3,70,71,72,73,79,80,86,87,,,,,0.8,0.4,0.7*3E
$GPGSA,A,3,03,05,06,09,15,31,34,36,,,,,0.8,0.4,0.7*34
$GPGSA,A,3,05,06,09,12,16,19,20,22,35,36,37,39,0.8,0.4,0.7*30
$GPGSA,A,3,44,60,,,,,,,,,,,0.8,0.4,0.7*3F
$GPGST,041557.00,1.987,0.358,0.309,352.706,0.358,0.310,0.687*56
$GPGBS,041557.00,2.206,1.647,4.591,72,0.0001,6.820,6.154*58
$GPGRS,041557.00,1,0.3,0.2,-0.5,0.0,0.2,-0.1,0.8,0.3,-0.8,-0.3,,*4B
$GPGRS,041557.00,1,-2.5,0.5,6.8,3.9,2.6,-3.2,-2.9,-4.4,,,,*44
$GPGRS,041557.00,1,-0.9,0.3,-0.1,0.1,-0.3,0.6,-0.2,0.2,,,,*43
$GPGRS,041557.00,1,2.0,-0.2,1.0,-0.7,0.2,-0.1,1.3,-0.6,-1.2,0.8,-0.6,-1.4*68
$GPGRS,041557.00,1,0.1,-1.6,,,,,,,,,,*67
$GPGSV,5,1,19,09,79,030,51,03,21,121,42,26,12,041,38,20,19,307,41*73
$GPGSV,5,2,19,30,16,201,41,16,15,071,41,11,37,301,46,07,48,179,49*79
$GPGSV,5,3,19,04,50,063,46,06,52,249,48,36,35,170,45,58,13,245,38*70
$GPGSV,5,4,19,40,24,132,36,34,31,208,44,49,34,195,45,57,08,111,38*7E
$GPGSV,5,5,19,41,07,108,35,61,03,257,38*73
$GLGSV,3,1,11,71,66,342,52,70,41,069,40,72,27,285,49,86,35,237,49*6B
$GLGSV,3,2,11,73,32,131,48,80,38,061,49,87,39,300,48,85,00,195,*6D
$GLGSV,3,3,11,74,03,164,,79,07,015,43,88,04,348,*57
$GAGSV,3,1,11,05,70,267,48,36,32,188,44,15,24,319,41,23,11,037,*6B
$GAGSV,3,2,11,31,17,086,40,03,18,253,41,06,27,067,42,09,51,062,47*62
$GAGSV,3,3,11,34,56,260,48,24,04,134,,04,03,069,36*5D
$GBGSV,5,1,20,19,69,070,51,34,10,327,,35,15,228,44,36,24,161,44*66
$GBGSV,5,2,20,20,21,094,44,37,19,042,42,05,23,128,39,16,20,043,40*6D
$GBGSV,5,3,20,12,24,302,42,06,23,045,39,44,25,275,45,09,36,051,42*69
$GBGSV,5,4,20,58,36,092,,46,43,101,,22,49,292,50,48,42,090,*6C
$GBGSV,5,5,20,21,49,284,,02,07,107,35,39,10,041,39,60,08,111,41*62
$GPGGA,041557.00,,,,,0,00,,,M,,M,,*4A
$PTNL,GGK,041557.00,010125,4742.1603235,N,01618.1003205,E,1,40,0.8,EHT751.5008,M*44
$GPGGQ,041557.00,010125,4742.1603235,N,01618.1003205,E,1,40,0.835,708.2942,M*30
$GPGFA,041557.00,3.408,5.636,0.358,0.309,352.706,0.687,,VVV*00
$GPLLK,041557.00,010125,,M,,M,1,40,0.9,,M*04
$GNGMP,041557.00,,,,,DAAA,40,0.4,,,,*54
$GPGMP,041557.00,,,,,,10,,,,2.5,136*7D
$GLGMP,041557.00,,,,,,08,,,,,*75
$GAGMP,041557.00,,,,,,08,,,,,*78
$GBGMP,041557.00,,,,,,14,,,,,*76
$PSSN,SNC,[0,274575000,2347]*42
$GPZDA,041602.00,01,01,2025,,*62
$GPDTM,W84,,00.0000000,N,00.0000000,E,00.0000000,W84*5F
$PSSN,TFM,041602.00,,,,*6E
$GPRMC,041602.00,A,4742.1603252,N,01618.1003187,E,0.0,,010125,5.1,E,D*1A
$GPGLL,4742.1603252,N,01618.1003187,E,041602.00,A,D*6B
$GPGGA,041602.00,4742.1603252,N,01618.1003187,E,2,41,0.4,708.2938,M,43.2066,M,2.3,0136*48
$GNGNS,041602.00,4742.1603252,N,01618.1003187,E,DAAA,41,0.4,708.2938,43.2066,,*51
$GPGNS,041602.00,,,,,,10,,,,2.3,136*78
$GLGNS,041602.00,,,,,,08,,,,,*76
$GAGNS,041602.00,,,,,,08,,,,,*7B
$GBGNS,041602.00,,,,,,15,,,,,*74
$GPLLQ,041602.00,010125,,M,,M,1,41,0.842,,M*1B
$GPVTG,,T,,M,0.00,N,0.01,K,D*27
$GPHDT,,T*1B
$GPTHS,,V*0E
$GPROT,,V*08
$PSSN,HRP,041602.00,010125,,,,,,,00,0,,*60
$PTNL,AVR,041602.00,,Yaw,,Tilt,,,,0,,00*36
$GPGSA,A,3,03,04,06,07,09,11,16,20,26,30,,,0.8,0.4,0.7*34
$GPGSA,A,3,70,71,72,73,79,80,86,87,,,,,0.8,0.4,0.7*3E
$GPGSA,A,3,03,05,06,09,15,31,34,36,,,,,0.8,0.4,0.7*34
$GPGSA,A,3,02,05,06,09,12,16,19,20,22,35,36,37,0.8,0.4,0.7*38
$GPGSA,A,3,39,44,60,,,,,,,,,,0.8,0.4,0.7*35
$GPGST,041602.00,1.984,0.361,0.313,351.970,0.360,0.314,0.693*51
$GPGBS,041602.00,2.193,1.625,4.623,72,0.0001,6.735,6.154*51
$GPGRS,041602.00,1,-0.2,0.1,-0.4,0.2,0.1,0.2,0.3,0.3,-0.2,-0.4,,*4F
$GPGRS,041602.00,1,-2.8,0.5,6.7,3.8,2.8,-2.4,-3.5,-4.6,,,,*42
$GPGRS,041602.00,1,-0.9,0.4,-0.0,0.1,0.1,0.4,-0.3,0.5,,,,*6D
$GPGRS,041602.00,1,1.0,2.1,-0.2,1.2,0.3,0.0,-0.1,1.0,-0.4,-1.1,1.3,-1.1*64
$GPGRS,041602.00,1,-1.2,0.2,-1.6,,,,,,,,,*67
$GPGSV,5,1,19,09,79,030,51,03,21,121,41,26,12,041,38,20,19,307,41*70
$GPGSV,5,2,19,30,16,201,41,16,15,071,41,11,37,301,45,07,48,179,48*7B
$GPGSV,5,3,19,04,50,063,47,06,52,249,48,36,35,170,45,58,13,245,38*71
$GPGSV,5,4,19,40,24,132,36,34,31,208,44,49,34,195,45,57,08,111,38*7E
$GPGSV,5,5,19,41,07,108,35,61,03,257,38*73
$GLGSV,3,1,11,71,66,342,52,70,41,069,40,72,27,285,48,86,35,237,50*62
$GLGSV,3,2,11,73,32,131,48,80,38,060,50,87,39,300,48,85,00,195,*64
$GLGSV,3,3,11,74,03,164,,79,07,015,43,88,04,348,*57
$GAGSV,3,1,11,05,70,267,48,36,32,188,44,15,24,319,41,23,11,037,*6B
$GAGSV,3,2,11,31,17,086,40,03,18,253,41,06,27,067,42,09,51,062,47*62
$GAGSV,3,3,11,34,56,260,48,24,04,134,,04,03,069,36*5D
$GBGSV,5,1,20,19,69,070,51,34,10,327,,35,15,227,44,36,24,161,45*68
$GBGSV,5,2,20,20,21,094,44,37,19,042,42,05,23,128,39,16,20,043,40*6D
$GBGSV,5,3,20,12,24,302,42,06,22,045,39,44,25,275,45,09,36,051,43*69
$GBGSV,5,4,20,58,36,092,,46,43,100,,22,49,292,50,48,42,090,*6D
$GBGSV,5,5,20,21,49,284,,02,07,107,35,39,10,041,39,60,08,111,41*62
$GPGGA,041602.00,,,,,0,00,,,M,,M,,*49
$PTNL,GGK,041602.00,010125,4742.1603252,N,01618.1003187,E,1,41,0.8,EHT751.5004,M*42
$GPGGQ,041602.00,010125,4742.1603252,N,01618.1003187,E,1,41,0.842,708.2938,M*37
$GPGFA,041602.00,3.436,5.684,0.361,0.313,351.970,0.693,,VVV*0F
$GPLLK,041602.00,010125,,M,,M,1,41,0.9,,M*06
$GNGMP,041602.00,,,,,DAAA,41,0.4,,,,*56
$GPGMP,041602.00,,,,,,10,,,,2.3,136*78
$GLGMP,041602.00,,,,,,08,,,,,*76
$GAGMP,041602.00,,,,,,08,,,,,*7B
$GBGMP,041602.00,,,,,,15,,,,,*74
$PSSN,SNC,[0,274580000,2347]*48
$GPZDA,041607.00,01,01,2025,,*67
$GPDTM,W84,,00.0000000,N,00.0000000,E,00.0000000,W84*5F
$PSSN,TFM,041607.00,,,,*6B
$GPRMC,041607.00,A,4742.1603220,N,01618.1003172,E,0.0,,010125,5.1,E,D*10
$GPGLL,4742.1603220,N,01618.1003172,E,041607.00,A,D*61
$GPGGA,041607.00,4742.1603220,N,01618.1003172,E,2,41,0.4,708.2930,M,43.2066,M,3.3,0136*4B
$GNGNS,041607.00,4742.1603220,N,01618.1003172,E,DAAA,41,0.4,708.2930,43.2066,,*53
$GPGNS,041607.00,,,,,,10,,,,3.3,136*7C
$GLGNS,041607.00,,,,,,08,,,,,*73
$GAGNS,041607.00,,,,,,08,,,,,*7E
$GBGNS,041607.00,,,,,,15,,,,,*71
$GPLLQ,041607.00,010125,,M,,M,1,41,0.851,,M*1C
$GPVTG,,T,,M,0.00,N,0.00,K,D*26
$GPHDT,,T*1B
$GPTHS,,V*0E
$GPROT,,V*08
$PSSN,HRP,041607.00,010125,,,,,,,00,0,,*65
$PTNL,AVR,041607.00,,Yaw,,Tilt,,,,0,,00*33
$GPGSA,A,3,03,04,06,07,09,11,16,20,26,30,,,0.8,0.4,0.7*34
$GPGSA,A,3,70,71,72,73,79,80,86,87,,,,,0.8,0.4,0.7*3E
$GPGSA,A,3,03,05,06,09,15,31,34,36,,,,,0.8,0.4,0.7*34
$GPGSA,A,3,02,05,06,09,12,16,19,20,22,35,36,37,0.8,0.4,0.7*38
$GPGSA,A,3,39,44,60,,,,,,,,,,0.8,0.4,0.7*35
$GPGST,041607.00,1.862,0.365,0.316,352.529,0.364,0.317,0.700*53
$GPGBS,041607.00,2.207,1.645,4.699,72,0.0001,5.655,6.154*59
$GPGRS,041607.00,1,-0.0,0.1,-0.3,-0.0,0.3,-0.2,0.3,0.7,-0.8,-0.4,,*41
$GPGRS,041607.00,1,-2.7,0.5,5.7,4.4,2.0,-2.8,-2.5,-5.0,,,,*42
$GPGRS,041607.00,1,-0.6,0.2,-0.1,0.0,-0.1,0.5,-0.2,0.4,,,,*4D
$GPGRS,041607.00,1,1.0,1.8,-0.2,1.4,0.4,-0.4,-0.0,0.8,-0.6,-1.3,0.3,-1.2*49
$GPGRS,041607.00,1,-0.9,-0.0,-1.4,,,,,,,,,*45
$GPGSV,5,1,19,09,79,030,51,03,21,121,42,26,12,041,38,20,19,307,41*73
$GPGSV,5,2,19,30,16,201,41,16,15,071,40,11,37,301,45,07,48,179,48*7A
$GPGSV,5,3,19,04,50,063,47,06,52,249,48,36,35,170,45,58,13,245,38*71
$GPGSV,5,4,19,40,24,132,36,34,31,208,44,49,34,195,45,57,08,111,38*7E
$GPGSV,5,5,19,41,07,108,35,61,03,257,38*73
$GLGSV,3,1,10,71,66,342,51,70,41,070,40,72,27,285,48,86,35,237,49*60
$GLGSV,3,2,10,73,32,131,49,80,38,060,50,87,39,299,48,74,03,164,*66
$GLGSV,3,3,10,79,07,015,43,88,04,348,*65
$GAGSV,3,1,11,05,70,267,49,36,32,188,44,15,24,319,41,23,11,037,*6A
$GAGSV,3,2,11,31,17,086,40,03,18,253,40,06,27,067,43,09,51,062,47*62
$GAGSV,3,3,11,34,56,260,48,24,04,134,,04,03,069,36*5D
$GBGSV,5,1,20,19,69,070,52,34,10,326,,35,15,227,43,36,24,161,46*6E
$GBGSV,5,2,20,20,21,094,45,37,19,042,42,05,23,128,40,16,20,043,41*63
$GBGSV,5,3,20,12,24,302,42,06,22,045,39,44,25,275,45,09,36,051,43*69
$GBGSV,5,4,20,58,36,092,,46,43,100,,22,49,292,50,48,42,090,*6D
$GBGSV,5,5,20,21,49,284,,02,07,107,35,39,10,041,39,60,08,111,41*62
$GPGGA,041607.00,,,,,0,00,,,M,,M,,*4C
$PTNL,GGK,041607.00,010125,4742.1603220,N,01618.1003172,E,1,41,0.8,EHT751.4996,M*4B
$GPGGQ,041607.00,010125,4742.1603220,N,01618.1003172,E,1,41,0.851,708.2930,M*37
$GPGFA,041607.00,3.472,5.742,0.365,0.316,352.529,0.700,,VVV*08
$GPLLK,041607.00,010125,,M,,M,1,41,0.9,,M*03
$GNGMP,041607.00,,,,,DAAA,41,0.4,,,,*53
$GPGMP,041607.00,,,,,,10,,,,3.3,136*7C
$GLGMP,041607.00,,,,,,08,,,,,*73
$GAGMP,041607.00,,,,,,08,,,,,*7E
$GBGMP,041607.00,,,,,,15,,,,,*71
$PSSN,SNC,[0,274585000,2347]*4D
$GPZDA,041612.00,01,01,2025,,*63
$GPDTM,W84,,00.0000000,N,00.0000000,E,00.0000000,W84*5F
$PSSN,TFM,041612.00,,,,*6F
$GPRMC,041612.00,A,4742.1603199,N,01618.1003194,E,0.0,,010125,5.1,E,D*1D
$GPGLL,4742.1603199,N,01618.1003194,E,041612.00,A,D*6C
$GPGGA,041612.00,4742.1603199,N,01618.1003194,E,2,41,0.4,708.2909,M,43.2066,M,1.9,0136*44
$GNGNS,041612.00,4742.1603199,N,01618.1003194,E,DAAA,41,0.4,708.2909,43.2066,,*54
$GPGNS,041612.00,,,,,,10,,,,1.9,136*70
$GLGNS,041612.00,,,,,,08,,,,,*77
$GAGNS,041612.00,,,,,,08,,,,,*7A
$GBGNS,041612.00,,,,,,15,,,,,*75
$GPLLQ,041612.00,010125,,M,,M,1,41,0.849,,M*11
$GPVTG,,T,,M,0.00,N,0.00,K,D*26
$GPHDT,,T*1B
$GPTHS,,V*0E
$GPROT,,V*08
$PSSN,HRP,041612.00,010125,,,,,,,00,0,,*61
$PTNL,AVR,041612.00,,Yaw,,Tilt,,,,0,,00*37
$GPGSA,A,3,03,04,06,07,09,11,16,20,26,30,,,0.8,0.4,0.7*34
$GPGSA,A,3,70,71,72,73,79,80,86,87,,,,,0.8,0.4,0.7*3E
$GPGSA,A,3,03,05,06,09,15,31,34,36,,,,,0.8,0.4,0.7*34
$GPGSA,A,3,02,05,06,09,12,16,19,20,22,35,36,37,0.8,0.4,0.7*38
$GPGSA,A,3,39,44,60,,,,,,,,,,0.8,0.4,0.7*35
$GPGST,041612.00,1.910,0.364,0.314,352.881,0.364,0.315,0.699*5C
$GPGBS,041612.00,2.234,1.628,4.603,72,0.0001,6.232,6.153*54
$GPGRS,041612.00,1,0.1,-0.3,-0.3,0.0,-0.0,0.2,0.2,0.8,-0.1,0.1,,*47
$GPGRS,041612.00,1,-2.6,0.1,6.2,4.2,2.2,-2.7,-3.0,-4.6,,,,*4D
$GPGRS,041612.00,1,-0.7,0.1,-0.2,-0.2,-0.2,0.2,-0.3,-0.1,,,,*4A
$GPGRS,041612.00,1,1.6,1.9,0.6,1.3,-0.3,0.5,-0.1,0.7,-0.3,-1.3,-0.8,-0.9*45
$GPGRS,041612.00,1,-1.6,-0.4,-1.6,,,,,,,,,*49
$GPGSV,5,1,19,09,79,030,51,03,21,121,42,26,12,041,39,20,19,307,42*71
$GPGSV,5,2,19,30,16,201,41,16,15,071,40,11,37,301,46,07,48,179,49*78
$GPGSV,5,3,19,04,50,063,47,06,52,249,48,36,35,170,45,58,13,245,37*7E
$GPGSV,5,4,19,40,24,132,35,34,31,208,43,49,34,195,45,57,08,111,38*7A
$GPGSV,5,5,19,41,07,108,35,61,03,257,38*73
$GLGSV,3,1,10,71,66,342,52,70,41,070,40,72,27,286,49,86,35,237,49*61
$GLGSV,3,2,10,73,32,131,48,80,38,060,50,87,39,299,48,74,03,164,*67
$GLGSV,3,3,10,79,07,015,44,88,04,348,42*64
$GAGSV,3,1,11,05,70,267,49,36,32,188,44,15,24,319,41,23,11,037,*6A
$GAGSV,3,2,11,31,17,086,41,03,18,253,41,06,27,067,43,09,51,062,47*62
$GAGSV,3,3,11,34,56,260,48,24,04,134,,04,03,069,35*5E
$GBGSV,5,1,20,19,69,070,51,34,10,326,,35,15,227,44,36,24,160,45*68
$GBGSV,5,2,20,20,21,094,46,37,19,042,42,05,23,128,39,16,20,043,41*6E
$GBGSV,5,3,20,12,24,302,42,06,22,045,39,44,25,275,45,09,36,051,43*69
$GBGSV,5,4,20,58,36,092,,46,43,100,,22,49,292,50,48,42,090,*6D
$GBGSV,5,5,20,21,49,284,,02,07,107,35,39,10,041,39,60,08,111,41*62
$GPGGA,041612.00,,,,,0,00,,,M,,M,,*48
$PTNL,GGK,041612.00,010125,4742.1603199,N,01618.1003194,E,1,41,0.8,EHT751.4974,M*4A
$GPGGQ,041612.00,010125,4742.1603199,N,01618.1003194,E,1,41,0.849,708.2909,M*39
$GPGFA,041612.00,3.465,5.733,0.364,0.314,352.881,0.699,,VVV*01
$GPLLK,041612.00,010125,,M,,M,1,41,0.9,,M*07
$GNGMP,041612.00,,,,,DAAA,41,0.4,,,,*57
$GPGMP,041612.00,,,,,,10,,,,1.9,136*70
$GLGMP,041612.00,,,,,,08,,,,,*77
$GAGMP,041612.00,,,,,,08,,,,,*7A
$GBGMP,041612.00,,,,,,15,,,,,*75
$PSSN,SNC,[0,274590000,2347]*49
$GPZDA,041617.00,01,01,2025,,*66
$GPDTM,W84,,00.0000000,N,00.0000000,E,00.0000000,W84*5F
$PSSN,TFM,041617.00,,,,*6A
$GPRMC,041617.00,A,4742.1603217,N,01618.1003203,E,0.0,,010125,5.1,E,D*10
$GPGLL,4742.1603217,N,01618.1003203,E,041617.00,A,D*61
$GPGGA,041617.00,4742.1603217,N,01618.1003203,E,2,41,0.4,708.2947,M,43.2066,M,2.5,0136*4C
$GNGNS,041617.00,4742.1603217,N,01618.1003203,E,DAAA,41,0.4,708.2947,43.2066,,*53
$GPGNS,041617.00,,,,,,10,,,,2.5,136*7A
$GLGNS,041617.00,,,,,,08,,,,,*72
$GAGNS,041617.00,,,,,,08,,,,,*7F
$GBGNS,041617.00,,,,,,15,,,,,*70
$GPLLQ,041617.00,010125,,M,,M,1,41,0.835,,M*1F
$GPVTG,,T,,M,0.00,N,0.00,K,D*26
$GPHDT,,T*1B
$GPTHS,,V*0E
$GPROT,,V*08
$PSSN,HRP,041617.00,010125,,,,,,,00,0,,*64
$PTNL,AVR,041617.00,,Yaw,,Tilt,,,,0,,00*32
$GPGSA,A,3,03,04,06,07,09,11,16,20,26,30,,,0.8,0.4,0.7*34
$GPGSA,A,3,70,71,72,73,79,80,86,87,,,,,0.8,0.4,0.7*3E
$GPGSA,A,3,03,05,06,09,15,31,34,36,,,,,0.8,0.4,0.7*34
$GPGSA,A,3,02,05,06,09,12,16,19,20,22,35,36,37,0.8,0.4,0.7*38
$GPGSA,A,3,39,44,60,,,,,,,,,,0.8,0.4,0.7*35
$GPGST,041617.00,2.038,0.358,0.309,352.463,0.358,0.310,0.688*50
$GPGBS,041617.00,2.199,1.646,4.597,72,0.0001,7.048,6.153*5D
$GPGRS,041617.00,1,-0.1,-0.4,-0.3,0.4,0.2,0.0,0.5,0.3,-0.6,0.2,,*49
$GPGRS,041617.00,1,-2.9,0.5,7.0,3.4,2.6,-3.2,-3.7,-5.0,,,,*41
$GPGRS,041617.00,1,-0.2,0.2,-0.1,-0.2,0.1,0.4,-0.1,-0.3,,,,*62
$GPGRS,041617.00,1,1.1,1.5,0.4,1.2,0.6,0.6,-0.2,1.4,-0.3,-0.7,-0.8,-0.8*66
$GPGRS,041617.00,1,-1.7,-0.3,-1.5,,,,,,,,,*49
$GPGSV,5,1,19,09,79,030,51,03,21,121,41,26,12,041,38,20,19,307,41*70
$GPGSV,5,2,19,30,16,201,40,16,15,071,39,11,37,301,45,07,48,179,48*75
$GPGSV,5,3,19,04,50,063,46,06,52,249,48,36,35,170,45,58,13,245,38*70
$GPGSV,5,4,19,40,24,132,36,34,31,208,44,49,34,195,45,57,08,111,38*7E
$GPGSV,5,5,19,41,07,108,35,61,03,257,38*73
$GLGSV,3,1,10,71,66,342,52,70,41,070,39,72,27,286,49,86,35,237,49*6F
$GLGSV,3,2,10,73,32,131,48,80,38,060,50,87,39,299,48,74,03,164,*67
$GLGSV,3,3,10,79,07,015,43,88,04,348,42*63
$GAGSV,3,1,11,05,70,267,48,36,32,188,44,15,24,319,41,23,11,037,*6B
$GAGSV,3,2,11,31,17,086,40,03,18,253,41,06,27,067,43,09,51,062,47*63
$GAGSV,3,3,11,34,56,260,48,24,04,134,,04,03,069,35*5E
$GBGSV,5,1,20,19,69,071,52,34,10,326,,35,15,227,43,36,24,160,44*6C
$GBGSV,5,2,20,20,21,094,46,37,19,042,42,05,23,128,40,16,20,043,41*60
$GBGSV,5,3,20,12,24,302,43,06,22,045,39,44,25,275,45,09,36,051,43*68
$GBGSV,5,4,20,58,36,092,,46,43,100,,22,50,292,50,48,42,090,*65
$GBGSV,5,5,20,21,50,284,,02,07,107,35,39,10,041,39,60,08,111,41*6A
$GPGGA,041617.00,,,,,0,00,,,M,,M,,*4D
$PTNL,GGK,041617.00,010125,4742.1603217,N,01618.1003203,E,1,41,0.8,EHT751.5013,M*4E
$GPGGQ,041617.00,010125,4742.1603217,N,01618.1003203,E,1,41,0.835,708.2947,M*35
