$GPZDA,072942.00,01,01,2025,,*69
$GPDTM,W84,,00.0000000,N,00.0000000,E,00.0000000,W84*5F
$PSSN,TFM,072942.00,,,,*65
$GPRMC,072942.00,A,4742.1603783,N,01618.1001028,E,0.0,,010125,5.1,E,D*1E
$GPGLL,4742.1603783,N,01618.1001028,E,072942.00,A,D*6F
$GPGGA,072942.00,4742.1603783,N,01618.1001028,E,2,39,0.4,707.5545,M,43.2066,M,1.7,0136*4A
$GNGNS,072942.00,4742.1603783,N,01618.1001028,E,DAAA,39,0.4,707.5545,43.2066,,*54
$GPGNS,072942.00,,,,,,09,,,,1.7,136*7C
$GLGNS,072942.00,,,,,,10,,,,,*74
$GAGNS,072942.00,,,,,,08,,,,,*70
$GBGNS,072942.00,,,,,,12,,,,,*78
$GPLLQ,072942.00,010125,,M,,M,1,39,1.013,,M*12
$GPVTG,,T,,M,0.00,N,0.01,K,D*27
$GPHDT,,T*1B
$GPTHS,,V*0E
$GPROT,,V*08
$PSSN,HRP,072942.00,010125,,,,,,,00,0,,*6B
$PTNL,AVR,072942.00,,Yaw,,Tilt,,,,0,,00*3D
$GPGSA,A,3,05,07,08,13,14,15,18,20,30,,,,0.7,0.4,0.5*35
$GPGSA,A,3,65,66,71,72,73,74,75,76,81,82,,,0.7,0.4,0.5*33
$GPGSA,A,3,02,03,05,08,13,15,24,25,,,,,0.7,0.4,0.5*3F
$GPGSA,A,3,05,07,09,10,21,22,26,36,40,42,45,60,0.7,0.4,0.5*39
$GPGST,072942.00,1.899,0.428,0.348,3.787,0.428,0.348,0.850*52
$GPGBS,072942.00,2.810,2.271,5.382,72,0.0001,6.241,6.063*52
$GPGRS,072942.00,1,0.1,-0.4,-0.1,0.2,0.1,-0.3,-0.2,0.1,0.1,,,*6C
$GPGRS,072942.00,1,-2.8,-2.8,-0.6,6.2,2.9,4.0,-2.0,-3.2,0.5,-2.1,,*4C
$GPGRS,072942.00,1,-1.7,-0.4,0.6,-0.2,-0.3,0.8,-0.1,0.2,,,,*67
$GPGRS,072942.00,1,2.6,0.9,-0.4,-0.0,-0.1,0.2,-0.5,-0.4,-2.0,-0.3,-0.2,-0.1*60
$GPGSV,5,1,20,30,74,059,50,15,14,299,40,08,11,054,38,14,47,155,47*77
$GPGSV,5,2,20,20,44,215,47,13,48,296,47,07,36,063,46,05,55,270,48*72
$GPGSV,5,3,20,09,05,113,34,27,04,023,36,18,09,325,39,36,35,170,44*7B
$GPGSV,5,4,20,58,13,245,36,40,24,133,36,34,31,208,43,49,34,195,44*7A
$GPGSV,5,5,20,57,07,112,37,41,07,108,35,61,03,257,38*4A
$GLGSV,3,1,10,75,65,192,52,72,57,122,51,73,10,036,43,65,58,324,49*69
$GLGSV,3,2,10,74,54,044,46,71,09,131,42,66,09,315,43,76,07,208,43*6D
$GLGSV,3,3,10,81,09,312,44,82,09,357,42*60
$GAGSV,3,1,11,03,77,316,48,15,14,250,39,02,10,188,38,13,18,302,39*64
$GAGSV,3,2,11,08,25,293,41,24,43,066,45,25,48,146,47,05,46,103,46*67
$GAGSV,3,3,11,16,54,105,,26,02,349,35,31,04,031,35*56
$GBGSV,5,1,19,45,71,186,51,10,22,089,39,42,20,311,43,26,18,220,42*6A
$GBGSV,5,2,19,09,14,065,38,05,21,130,39,24,13,209,,07,21,075,39*6D
$GBGSV,5,3,19,40,20,067,41,50,45,304,,22,50,148,50,36,49,060,49*6A
$GBGSV,5,4,19,21,70,290,51,28,02,313,,02,05,108,34,46,01,046,*68
$GBGSV,5,5,19,19,01,138,,56,08,094,,60,07,112,41*50
$GPGGA,072942.00,,,,,0,00,,,M,,M,,*42
$PTNL,GGK,072942.00,010125,4742.1603783,N,01618.1001028,E,1,39,0.7,EHT750.7610,M*46
$GPGGQ,072942.00,010125,4742.1603783,N,01618.1001028,E,1,39,1.013,707.5545,M*3F
$GPGFA,072942.00,4.070,6.972,0.428,0.348,3.787,0.850,,VVV*07
$GPLLK,072942.00,010125,,M,,M,1,39,0.8,,M*03
$GNGMP,072942.00,,,,,DAAA,39,0.4,,,,*52
$GPGMP,072942.00,,,,,,09,,,,1.7,136*7C
$GLGMP,072942.00,,,,,,10,,,,,*74
$GAGMP,072942.00,,,,,,08,,,,,*70
$GBGMP,072942.00,,,,,,12,,,,,*78
$PSSN,SNC,[0,286200000,2347]*4A
$GPZDA,072947.00,01,01,2025,,*6C
$GPDTM,W84,,00.0000000,N,00.0000000,E,00.0000000,W84*5F
$PSSN,TFM,072947.00,,,,*60
$GPRMC,072947.00,A,4742.1603797,N,01618.1001051,E,0.0,,010125,5.1,E,D*10
$GPGLL,4742.1603797,N,01618.1001051,E,072947.00,A,D*61
$GPGGA,072947.00,4742.1603797,N,01618.1001051,E,2,39,0.4,707.5494,M,43.2066,M,2.2,0136*4F
$GNGNS,072947.00,4742.1603797,N,01618.1001051,E,DAAA,39,0.4,707.5494,43.2066,,*57
$GPGNS,072947.00,,,,,,09,,,,2.2,136*7F
$GLGNS,072947.00,,,,,,10,,,,,*71
$GAGNS,072947.00,,,,,,08,,,,,*75
$GBGNS,072947.00,,,,,,12,,,,,*7D
$GPLLQ,072947.00,010125,,M,,M,1,39,1.003,,M*16
$GPVTG,,T,,M,0.00,N,0.00,K,D*26
$GPHDT,,T*1B
$GPTHS,,V*0E
$GPROT,,V*08
$PSSN,HRP,072947.00,010125,,,,,,,00,0,,*6E
$PTNL,AVR,072947.00,,Yaw,,Tilt,,,,0,,00*38
$GPGSA,A,3,05,07,08,13,14,15,18,20,30,,,,0.7,0.4,0.5*35
$GPGSA,A,3,65,66,71,72,73,74,75,76,81,82,,,0.7,0.4,0.5*33
$GPGSA,A,3,02,03,05,08,13,15,24,25,,,,,0.7,0.4,0.5*3F
$GPGSA,A,3,05,07,09,10,21,22,26,36,40,42,45,60,0.7,0.4,0.5*39
$GPGST,072947.00,2.016,0.425,0.341,5.182,0.425,0.342,0.842*5E
$GPGBS,072947.00,2.876,2.246,5.412,72,0.0001,6.768,6.063*53
$GPGRS,072947.00,1,0.2,-0.6,0.1,0.2,-0.1,-0.2,-0.1,0.1,-0.0,,,*46
$GPGRS,072947.00,1,-2.7,-3.7,-0.4,6.8,2.9,3.9,-1.9,-2.8,0.6,-3.1,,*4D
$GPGRS,072947.00,1,-1.7,-0.3,0.8,-0.0,0.1,1.0,0.0,0.3,,,,*62
$GPGRS,072947.00,1,2.6,0.7,-0.6,0.6,0.3,-0.1,0.8,-0.2,-2.1,-0.4,0.0,0.1*61
$GPGSV,5,1,20,30,73,059,50,15,14,299,40,08,11,054,37,14,47,155,47*7F
$GPGSV,5,2,20,20,44,215,47,13,48,296,47,07,36,063,46,05,55,270,48*72
$GPGSV,5,3,20,09,05,113,35,27,04,023,37,18,09,325,39,36,35,170,44*7B
$GPGSV,5,4,20,58,13,245,36,40,24,133,35,34,31,208,43,49,34,195,44*79
$GPGSV,5,5,20,57,07,112,37,41,07,108,35,61,03,257,38*4A
$GLGSV,3,1,10,75,65,192,52,72,57,122,51,73,10,036,43,65,58,324,49*69
$GLGSV,3,2,10,74,54,044,46,71,09,131,42,66,09,315,44,76,07,208,43*6A
$GLGSV,3,3,10,81,09,312,43,82,09,357,43*66
$GAGSV,3,1,11,03,77,316,48,15,14,250,39,02,10,188,38,13,18,302,38*65
$GAGSV,3,2,11,08,25,293,41,24,43,066,45,25,48,146,47,05,46,103,45*64
$GAGSV,3,3,11,16,54,105,,26,02,349,35,31,04,031,35*56
$GBGSV,5,1,19,45,71,186,51,10,22,089,39,42,20,311,43,24,13,209,*6E
$GBGSV,5,2,19,09,14,065,38,05,21,130,39,26,18,220,43,07,21,075,39*68
$GBGSV,5,3,19,40,20,067,41,50,45,304,,22,50,148,50,36,49,060,49*6A
$GBGSV,5,4,19,21,70,290,52,28,02,313,,02,05,108,34,46,01,046,*6B
$GBGSV,5,5,19,19,01,138,,56,08,094,,60,07,112,41*50
$GPGGA,072947.00,,,,,0,00,,,M,,M,,*47
$PTNL,GGK,072947.00,010125,4742.1603797,N,01618.1001051,E,1,39,0.7,EHT750.7560,M*4C
$GPGGQ,072947.00,010125,4742.1603797,N,01618.1001051,E,1,39,1.003,707.5494,M*3D
$GPGFA,072947.00,4.044,6.905,0.425,0.341,5.182,0.842,,VVV*07
$GPLLK,072947.00,010125,,M,,M,1,39,0.8,,M*06
$GNGMP,072947.00,,,,,DAAA,39,0.4,,,,*57
$GPGMP,072947.00,,,,,,09,,,,2.2,136*7F
$GLGMP,072947.00,,,,,,10,,,,,*71
$GAGMP,072947.00,,,,,,08,,,,,*75
$GBGMP,072947.00,,,,,,12,,,,,*7D
$PSSN,SNC,[0,286205000,2347]*4F
$GPZDA,072952.00,01,01,2025,,*68
$GPDTM,W84,,00.0000000,N,00.0000000,E,00.0000000,W84*5F
$PSSN,TFM,072952.00,,,,*64
$GPRMC,072952.00,A,4742.1603809,N,01618.1001077,E,0.0,,010125,5.1,E,D*18
$GPGLL,4742.1603809,N,01618.1001077,E,072952.00,A,D*69
$GPGGA,072952.00,4742.1603809,N,01618.1001077,E,2,39,0.4,707.5487,M,43.2066,M,3.2,0136*44
$GNGNS,072952.00,4742.1603809,N,01618.1001077,E,DAAA,39,0.4,707.5487,43.2066,,*5D
$GPGNS,072952.00,,,,,,09,,,,3.2,136*7A
$GLGNS,072952.00,,,,,,10,,,,,*75
$GAGNS,072952.00,,,,,,08,,,,,*71
$GBGNS,072952.00,,,,,,12,,,,,*79
$GPLLQ,072952.00,010125,,M,,M,1,39,1.006,,M*17
$GPVTG,,T,,M,0.00,N,0.00,K,D*26
$GPHDT,,T*1B
$GPTHS,,V*0E
$GPROT,,V*08
$PSSN,HRP,072952.00,010125,,,,,,,00,0,,*6A
$PTNL,AVR,072952.00,,Yaw,,Tilt,,,,0,,00*3C
$GPGSA,A,3,05,07,08,13,14,15,18,20,30,,,,0.7,0.4,0.5*35
$GPGSA,A,3,65,66,71,72,73,74,75,76,81,82,,,0.7,0.4,0.5*33
$GPGSA,A,3,02,03,05,08,13,15,24,25,,,,,0.7,0.4,0.5*3F
$GPGSA,A,3,05,07,09,10,21,22,26,36,40,42,45,60,0.7,0.4,0.5*39
$GPGST,072952.00,2.020,0.430,0.346,4.183,0.430,0.346,0.841*5F
$GPGBS,072952.00,2.928,2.276,5.480,72,0.0001,7.142,6.063*5A
$GPGRS,072952.00,1,-0.1,-0.2,0.0,-0.1,0.2,0.1,0.5,0.1,-0.1,,,*6F
$GPGRS,072952.00,1,-2.7,-2.9,-0.8,7.1,3.2,3.7,-1.9,-2.6,-0.7,-3.2,,*67
$GPGRS,072952.00,1,-1.3,-0.1,0.9,0.2,0.3,1.0,-0.0,0.4,,,,*66
$GPGRS,072952.00,1,2.8,0.7,-0.6,0.5,0.5,0.1,1.2,-0.3,-1.9,-0.0,0.1,0.0*46
$GPGSV,5,1,20,30,73,059,50,15,14,299,41,08,11,054,38,14,47,155,47*71
$GPGSV,5,2,20,20,44,215,47,13,48,296,47,07,36,063,46,05,55,270,48*72
$GPGSV,5,3,20,09,05,113,35,27,04,023,36,18,09,325,39,36,35,170,45*7B
$GPGSV,5,4,20,58,13,245,36,40,24,133,36,34,31,208,43,49,34,195,44*7A
$GPGSV,5,5,20,57,07,112,37,41,07,108,35,61,03,257,38*4A
$GLGSV,3,1,10,75,65,192,52,72,57,122,51,73,10,036,43,65,58,324,49*69
$GLGSV,3,2,10,74,54,044,45,71,08,131,41,66,09,315,44,76,07,208,43*6B
$GLGSV,3,3,10,81,09,312,42,82,09,357,42*66
$GAGSV,3,1,11,03,77,316,48,15,14,250,39,02,11,188,39,13,18,302,39*64
$GAGSV,3,2,11,08,25,293,41,24,43,066,45,25,48,146,47,05,46,103,45*64
$GAGSV,3,3,11,16,54,105,,26,02,349,35,31,04,031,35*56
$GBGSV,5,1,19,45,71,186,52,10,22,089,39,42,20,311,43,24,13,209,*6D
$GBGSV,5,2,19,09,14,065,37,05,21,130,39,26,18,220,43,07,21,075,39*67
$GBGSV,5,3,19,40,20,067,41,22,50,148,51,50,45,304,,36,49,060,49*6B
$GBGSV,5,4,19,21,70,290,52,19,01,138,,02,05,108,34,46,01,046,*61
$GBGSV,5,5,19,28,02,313,,56,08,094,,60,07,112,41*5A
$GPGGA,072952.00,,,,,0,00,,,M,,M,,*43
$PTNL,GGK,072952.00,010125,4742.1603809,N,01618.1001077,E,1,39,0.7,EHT750.7553,M*44
$GPGGQ,072952.00,010125,4742.1603809,N,01618.1001077,E,1,39,1.006,707.5487,M*32
$GPGFA,072952.00,4.089,6.893,0.430,0.346,4.183,0.841,,VVV*0C
$GPLLK,072952.00,010125,,M,,M,1,39,0.8,,M*02
$GNGMP,072952.00,,,,,DAAA,39,0.4,,,,*53
$GPGMP,072952.00,,,,,,09,,,,3.2,136*7A
$GLGMP,072952.00,,,,,,10,,,,,*75
$GAGMP,072952.00,,,,,,08,,,,,*71
$GBGMP,072952.00,,,,,,12,,,,,*79
$PSSN,SNC,[0,286210000,2347]*4B
$GPZDA,072957.00,01,01,2025,,*6D
$GPDTM,W84,,00.0000000,N,00.0000000,E,00.0000000,W84*5F
$PSSN,TFM,072957.00,,,,*61
$GPRMC,072957.00,A,4742.1603824,N,01618.1001077,E,0.0,,010125,5.1,E,D*12
$GPGLL,4742.1603824,N,01618.1001077,E,072957.00,A,D*63
$GPGGA,072957.00,4742.1603824,N,01618.1001077,E,2,39,0.4,707.5531,M,43.2066,M,2.9,0136*48
$GNGNS,072957.00,4742.1603824,N,01618.1001077,E,DAAA,39,0.4,707.5531,43.2066,,*5B
$GPGNS,072957.00,,,,,,09,,,,2.9,136*75
$GLGNS,072957.00,,,,,,10,,,,,*70
$GAGNS,072957.00,,,,,,08,,,,,*74
$GBGNS,072957.00,,,,,,12,,,,,*7C
$GPLLQ,072957.00,010125,,M,,M,1,39,1.017,,M*12
$GPVTG,,T,,M,0.00,N,0.00,K,D*26
$GPHDT,,T*1B
$GPTHS,,V*0E
$GPROT,,V*08
$PSSN,HRP,072957.00,010125,,,,,,,00,0,,*6F
$PTNL,AVR,072957.00,,Yaw,,Tilt,,,,0,,00*39
$GPGSA,A,3,05,07,08,13,14,15,18,20,30,,,,0.7,0.4,0.5*35
$GPGSA,A,3,65,66,71,72,73,74,75,76,81,82,,,0.7,0.4,0.5*33
$GPGSA,A,3,02,03,05,08,13,15,24,25,,,,,0.7,0.4,0.5*3F
$GPGSA,A,3,05,07,09,10,21,22,26,36,40,42,45,60,0.7,0.4,0.5*39
$GPGST,072957.00,2.040,0.434,0.351,2.948,0.434,0.351,0.850*55
$GPGBS,072957.00,2.932,2.297,5.458,72,0.0001,6.999,6.063*51
$GPGRS,072957.00,1,0.1,-0.2,0.4,-0.1,-0.0,0.2,0.1,0.0,-0.1,,,*6A
$GPGRS,072957.00,1,-2.8,-3.3,-1.1,7.0,3.0,4.0,-1.7,-3.4,-0.3,-3.3,,*65
$GPGRS,072957.00,1,-1.4,-0.2,0.7,0.1,0.1,0.8,0.3,0.1,,,,*4A
$GPGRS,072957.00,1,2.5,0.5,-0.4,0.0,0.3,0.0,0.4,-0.3,-2.1,-0.4,-0.0,-0.1*44
$GPGSV,5,1,20,30,73,059,50,15,14,299,40,08,11,054,39,14,47,155,46*70
$GPGSV,5,2,20,20,44,215,47,13,48,296,47,07,36,063,45,05,55,270,48*71
$GPGSV,5,3,20,09,05,113,35,27,04,023,36,18,09,325,39,36,35,170,45*7B
$GPGSV,5,4,20,58,13,245,36,40,24,133,36,34,31,208,43,49,34,195,44*7A
$GPGSV,5,5,20,57,07,112,37,41,07,108,35,61,03,257,38*4A
$GLGSV,3,1,10,75,65,192,52,72,57,122,51,73,10,036,42,65,58,324,49*68
$GLGSV,3,2,10,74,54,044,46,71,08,131,41,66,09,315,43,76,07,208,43*6F
$GLGSV,3,3,10,81,09,312,43,82,09,357,43*66
$GAGSV,3,1,11,03,77,316,48,15,14,250,39,02,11,188,38,13,18,302,39*65
$GAGSV,3,2,11,08,25,294,41,24,43,066,45,25,48,146,46,05,46,103,45*62
$GAGSV,3,3,11,16,54,105,,26,02,349,35,31,04,031,35*56
$GBGSV,5,1,19,45,71,186,51,10,22,089,39,42,20,311,43,26,18,220,43*6B
$GBGSV,5,2,19,09,14,065,37,05,21,130,39,24,13,209,,07,21,075,39*62
$GBGSV,5,3,19,40,20,067,41,22,50,148,51,50,45,304,,36,49,060,49*6B
$GBGSV,5,4,19,21,70,290,52,19,01,138,,02,05,108,34,46,01,046,*61
$GBGSV,5,5,19,28,02,313,,56,08,094,,60,07,112,41*5A
$GPGGA,072957.00,,,,,0,00,,,M,,M,,*46
$PTNL,GGK,072957.00,010125,4742.1603824,N,01618.1001077,E,1,39,0.7,EHT750.7597,M*46
$GPGGQ,072957.00,010125,4742.1603824,N,01618.1001077,E,1,39,1.017,707.5531,M*34
$GPGFA,072957.00,4.124,6.970,0.434,0.351,2.948,0.850,,VVV*08
$GPLLK,072957.00,010125,,M,,M,1,39,0.8,,M*07
$GNGMP,072957.00,,,,,DAAA,39,0.4,,,,*56
$GPGMP,072957.00,,,,,,09,,,,2.9,136*75
$GLGMP,072957.00,,,,,,10,,,,,*70
$GAGMP,072957.00,,,,,,08,,,,,*74
$GBGMP,072957.00,,,,,,12,,,,,*7C
$PSSN,SNC,[0,286215000,2347]*4E
$GPZDA,073002.00,01,01,2025,,*65
$GPDTM,W84,,00.0000000,N,00.0000000,E,00.0000000,W84*5F
$PSSN,TFM,073002.00,,,,*69
$GPRMC,073002.00,A,4742.1603812,N,01618.1001062,E,0.0,,010125,5.1,E,D*1B
$GPGLL,4742.1603812,N,01618.1001062,E,073002.00,A,D*6A
$GPGGA,073002.00,4742.1603812,N,01618.1001062,E,2,39,0.4,707.5536,M,43.2066,M,1.7,0136*4B
$GNGNS,073002.00,4742.1603812,N,01618.1001062,E,DAAA,39,0.4,707.5536,43.2066,,*55
$GPGNS,073002.00,,,,,,09,,,,1.7,136*70
$GLGNS,073002.00,,,,,,10,,,,,*78
$GAGNS,073002.00,,,,,,08,,,,,*7C
$GBGNS,073002.00,,,,,,12,,,,,*74
$GPLLQ,073002.00,010125,,M,,M,1,39,1.022,,M*1C
$GPVTG,,T,,M,0.00,N,0.00,K,D*26
$GPHDT,,T*1B
$GPTHS,,V*0E
$GPROT,,V*08
$PSSN,HRP,073002.00,010125,,,,,,,00,0,,*67
$PTNL,AVR,073002.00,,Yaw,,Tilt,,,,0,,00*31
$GPGSA,A,3,05,07,08,13,14,15,18,20,30,,,,0.7,0.4,0.5*35
$GPGSA,A,3,65,66,71,72,73,74,75,76,81,82,,,0.7,0.4,0.5*33
$GPGSA,A,3,02,03,05,08,13,15,24,25,,,,,0.7,0.4,0.5*3F
$GPGSA,A,3,05,07,09,10,21,22,26,36,40,42,45,60,0.7,0.4,0.5*39
$GPGST,073002.00,2.012,0.430,0.351,4.734,0.430,0.352,0.858*52
$GPGBS,073002.00,2.823,2.259,5.393,72,0.0001,6.006,6.064*52
$GPGRS,073002.00,1,0.1,-0.2,0.7,0.3,0.2,-0.1,-0.1,-0.1,-0.3,,,*4C
$GPGRS,073002.00,1,-3.4,-4.3,-1.5,6.0,2.5,4.0,-1.9,-3.2,1.2,-2.8,,*49
$GPGRS,073002.00,1,-1.4,-0.3,0.6,0.1,0.3,0.8,-0.1,0.0,,,,*6E
$GPGRS,073002.00,1,2.5,0.2,0.1,-0.3,0.0,0.2,-0.3,-0.6,-2.0,-0.3,-0.2,-0.1*67
$GPGSV,5,1,20,30,73,059,50,15,14,299,40,08,11,054,39,14,47,155,47*71
$GPGSV,5,2,20,20,44,215,47,13,48,296,47,07,36,063,45,05,55,270,47*7E
$GPGSV,5,3,20,09,05,113,34,27,04,023,36,18,09,325,39,36,35,170,45*7A
$GPGSV,5,4,20,58,13,245,36,40,24,133,36,34,31,208,43,49,34,195,44*7A
$GPGSV,5,5,20,57,07,112,37,41,07,108,35,61,03,257,38*4A
$GLGSV,3,1,10,75,65,192,52,72,57,122,50,73,10,036,42,65,58,324,49*69
$GLGSV,3,2,10,74,54,044,46,71,08,131,41,66,09,315,43,76,07,208,42*6E
$GLGSV,3,3,10,81,09,312,45,82,09,357,43*60
$GAGSV,3,1,11,03,77,316,48,15,14,250,38,02,11,188,38,13,18,302,39*64
$GAGSV,3,2,11,08,25,294,42,24,43,066,45,25,48,146,46,05,46,103,45*61
$GAGSV,3,3,11,16,54,105,,26,02,349,35,31,04,031,35*56
$GBGSV,5,1,19,45,71,186,51,10,22,089,39,42,20,311,43,26,18,220,43*6B
$GBGSV,5,2,19,09,14,065,37,05,21,130,39,24,13,209,,07,21,075,39*62
$GBGSV,5,3,19,40,20,067,41,22,50,148,50,50,45,304,,36,49,060,49*6A
$GBGSV,5,4,19,21,70,289,52,19,01,138,,02,05,108,34,46,01,046,*69
$GBGSV,5,5,19,28,02,313,,56,08,094,,60,07,112,41*5A
$GPGGA,073002.00,,,,,0,00,,,M,,M,,*4E
$PTNL,GGK,073002.00,010125,4742.1603812,N,01618.1001062,E,1,39,0.7,EHT750.7602,M*40
$GPGGQ,073002.00,010125,4742.1603812,N,01618.1001062,E,1,39,1.022,707.5536,M*3C
$GPGFA,073002.00,4.091,7.034,0.430,0.351,4.734,0.858,,VVV*08
$GPLLK,073002.00,010125,,M,,M,1,39,0.8,,M*0F
$GNGMP,073002.00,,,,,DAAA,39,0.4,,,,*5E
$GPGMP,073002.00,,,,,,09,,,,1.7,136*70
$GLGMP,073002.00,,,,,,10,,,,,*78
$GAGMP,073002.00,,,,,,08,,,,,*7C
$GBGMP,073002.00,,,,,,12,,,,,*74
$PSSN,SNC,[0,286220000,2347]*48
$GPZDA,073007.00,01,01,2025,,*60
$GPDTM,W84,,00.0000000,N,00.0000000,E,00.0000000,W84*5F
$PSSN,TFM,073007.00,,,,*6C
$GPRMC,073007.00,A,4742.1603816,N,01618.1001053,E,0.0,,010125,5.1,E,D*18
$GPGLL,4742.1603816,N,01618.1001053,E,073007.00,A,D*69
$GPGGA,073007.00,4742.1603816,N,01618.1001053,E,2,39,0.4,707.5535,M,43.2066,M,2.2,0136*4D
$GNGNS,073007.00,4742.1603816,N,01618.1001053,E,DAAA,39,0.4,707.5535,43.2066,,*55
$GPGNS,073007.00,,,,,,09,,,,2.2,136*73
$GLGNS,073007.00,,,,,,10,,,,,*7D
$GAGNS,073007.00,,,,,,08,,,,,*79
$GBGNS,073007.00,,,,,,12,,,,,*71
$GPLLQ,073007.00,010125,,M,,M,1,39,1.009,,M*10
$GPVTG,,T,,M,0.00,N,0.00,K,D*26
$GPHDT,,T*1B
$GPTHS,,V*0E
$GPROT,,V*08
$PSSN,HRP,073007.00,010125,,,,,,,00,0,,*62
$PTNL,AVR,073007.00,,Yaw,,Tilt,,,,0,,00*34
$GPGSA,A,3,05,07,08,13,14,15,18,20,30,,,,0.7,0.4,0.5*35
$GPGSA,A,3,65,66,71,72,73,74,75,76,81,82,,,0.7,0.4,0.5*33
$GPGSA,A,3,02,03,05,08,13,15,24,25,,,,,0.7,0.4,0.5*3F
$GPGSA,A,3,05,07,09,10,21,22,26,36,40,42,45,60,0.7,0.4,0.5*39
$GPGST,073007.00,1.922,0.428,0.345,6.518,0.427,0.346,0.846*50
$GPGBS,073007.00,2.847,2.237,5.389,72,0.0001,6.273,6.068*5A
$GPGRS,073007.00,1,-0.1,-0.0,0.5,0.3,0.2,-0.0,-0.5,-0.1,-0.2,,,*60
$GPGRS,073007.00,1,-3.1,-2.9,-0.7,6.3,2.1,3.6,-2.0,-3.8,0.5,-2.6,,*48
$GPGRS,073007.00,1,-1.5,-0.4,0.8,-0.2,0.5,1.3,-0.4,0.0,,,,*44
$GPGRS,073007.00,1,2.4,0.5,-0.5,-0.4,-0.0,-0.1,-0.1,-0.6,-2.1,-0.6,-0.3,0.0*62
$GPGSV,5,1,20,30,73,059,50,15,15,300,40,08,11,054,39,14,47,155,47*71
$GPGSV,5,2,20,20,44,215,47,13,48,297,47,07,36,063,46,05,55,270,48*73
$GPGSV,5,3,20,09,05,113,34,27,04,023,35,18,09,325,40,36,35,170,44*76
$GPGSV,5,4,20,58,13,245,36,40,24,133,36,34,31,208,43,49,34,195,44*7A
$GPGSV,5,5,20,57,07,112,37,41,07,108,35,61,03,257,38*4A
$GLGSV,3,1,10,75,65,192,52,72,57,123,51,73,10,036,42,65,58,324,49*69
$GLGSV,3,2,10,74,54,044,46,71,08,131,41,66,09,315,44,76,07,208,42*69
$GLGSV,3,3,10,81,09,312,45,82,09,357,43*60
$GAGSV,3,1,11,03,77,317,48,15,14,250,39,02,11,188,38,13,18,302,39*64
$GAGSV,3,2,11,08,25,294,41,24,43,066,45,25,48,146,47,05,46,103,46*60
$GAGSV,3,3,11,16,54,105,,26,02,349,35,31,04,031,35*56
$GBGSV,5,1,19,45,71,186,51,10,22,089,39,42,20,311,43,26,18,220,43*6B
$GBGSV,5,2,19,09,14,065,37,05,21,130,39,24,13,210,,07,21,075,39*6A
$GBGSV,5,3,19,40,20,067,41,22,50,148,50,50,45,304,,36,49,059,49*60
$GBGSV,5,4,19,21,70,289,52,19,01,138,,02,05,108,34,46,01,046,*69
$GBGSV,5,5,19,28,02,313,,56,08,094,,60,07,112,41*5A
$GPGGA,073007.00,,,,,0,00,,,M,,M,,*4B
$PTNL,GGK,073007.00,010125,4742.1603816,N,01618.1001053,E,1,39,0.7,EHT750.7600,M*41
$GPGGQ,073007.00,010125,4742.1603816,N,01618.1001053,E,1,39,1.009,707.5535,M*35
$GPGFA,073007.00,4.065,6.936,0.428,0.345,6.518,0.846,,VVV*01
$GPLLK,073007.00,010125,,M,,M,1,39,0.8,,M*0A
$GNGMP,073007.00,,,,,DAAA,39,0.4,,,,*5B
$GPGMP,073007.00,,,,,,09,,,,2.2,136*73
$GLGMP,073007.00,,,,,,10,,,,,*7D
$GAGMP,073007.00,,,,,,08,,,,,*79
$GBGMP,073007.00,,,,,,12,,,,,*71
$PSSN,SNC,[0,286225000,2347]*4D
$GPZDA,073012.00,01,01,2025,,*64
$GPDTM,W84,,00.0000000,N,00.0000000,E,00.0000000,W84*5F
$PSSN,TFM,073012.00,,,,*68
$GPRMC,073012.00,A,4742.1603824,N,01618.1001044,E,0.0,,010125,5.1,E,D*1B
$GPGLL,4742.1603824,N,01618.1001044,E,073012.00,A,D*6A
$GPGGA,073012.00,4742.1603824,N,01618.1001044,E,2,39,0.4,707.5507,M,43.2066,M,3.2,0136*4E
$GNGNS,073012.00,4742.1603824,N,01618.1001044,E,DAAA,39,0.4,707.5507,43.2066,,*57
$GPGNS,073012.00,,,,,,09,,,,3.2,136*76
$GLGNS,073012.00,,,,,,10,,,,,*79
$GAGNS,073012.00,,,,,,08,,,,,*7D
$GBGNS,073012.00,,,,,,12,,,,,*75
$GPLLQ,073012.00,010125,,M,,M,1,39,1.011,,M*1D
$GPVTG,,T,,M,0.01,N,0.01,K,D*26
$GPHDT,,T*1B
$GPTHS,,V*0E
$GPROT,,V*08
$PSSN,HRP,073012.00,010125,,,,,,,00,0,,*66
$PTNL,AVR,073012.00,,Yaw,,Tilt,,,,0,,00*30
$GPGSA,A,3,05,07,08,13,14,15,18,20,30,,,,0.7,0.4,0.5*35
$GPGSA,A,3,65,66,71,72,73,74,75,76,81,82,,,0.7,0.4,0.5*33
$GPGSA,A,3,02,03,05,08,13,15,24,25,,,,,0.7,0.4,0.5*3F
$GPGSA,A,3,05,07,09,10,21,22,26,36,40,42,45,60,0.7,0.4,0.5*39
$GPGST,073012.00,1.922,0.432,0.349,5.438,0.431,0.350,0.845*50
$GPGBS,073012.00,2.899,2.267,5.460,72,0.0001,5.923,6.068*55
$GPGRS,073012.00,1,-0.1,-0.3,0.0,0.3,0.2,0.3,0.1,-0.0,-0.2,,,*64
$GPGRS,073012.00,1,-3.6,-2.2,-1.3,5.9,2.4,3.5,-2.5,-4.1,0.6,-1.9,,*4E
$GPGRS,073012.00,1,-1.6,-0.4,0.6,-0.3,-0.3,1.1,-0.3,-0.1,,,,*4E
$GPGRS,073012.00,1,2.6,0.9,-0.8,-0.6,-0.1,-0.1,-0.1,-0.8,-2.3,-0.5,-0.1,-0.2*44
$GPGSV,5,1,20,30,73,059,50,15,15,300,40,08,11,054,38,14,47,155,47*70
$GPGSV,5,2,20,20,44,215,47,13,48,297,47,07,36,063,46,05,55,270,48*73
$GPGSV,5,3,20,09,05,113,34,27,04,023,35,18,09,325,39,36,35,170,44*78
$GPGSV,5,4,20,58,13,245,36,40,24,133,35,34,31,208,43,49,34,195,44*79
$GPGSV,5,5,20,57,07,112,37,41,07,108,35,61,03,257,38*4A
$GLGSV,3,1,10,75,65,192,52,72,57,123,50,73,10,036,42,65,58,324,49*68
$GLGSV,3,2,10,74,54,044,46,71,08,131,41,66,09,315,44,76,07,208,42*69
$GLGSV,3,3,10,81,09,312,43,82,09,357,42*67
$GAGSV,3,1,11,03,77,317,48,15,14,250,39,02,11,188,39,13,18,302,39*65
$GAGSV,3,2,11,08,25,294,42,24,43,066,45,25,48,146,47,05,46,103,46*63
$GAGSV,3,3,11,16,54,105,,26,02,349,35,31,04,031,36*55
$GBGSV,5,1,19,45,71,186,51,10,22,089,39,42,20,311,43,26,18,220,43*6B
$GBGSV,5,2,19,09,14,065,37,05,21,130,39,24,13,210,,07,21,075,39*6A
$GBGSV,5,3,19,40,20,067,42,22,50,148,50,50,45,304,,36,49,059,49*63
$GBGSV,5,4,19,21,70,289,52,19,01,138,,02,05,108,34,46,01,046,*69
$GBGSV,5,5,19,28,02,313,,56,08,094,,60,07,112,41*5A
$GPGGA,073012.00,,,,,0,00,,,M,,M,,*4F
$PTNL,GGK,073012.00,010125,4742.1603824,N,01618.1001044,E,1,39,0.7,EHT750.7573,M*45
$GPGGQ,073012.00,010125,4742.1603824,N,01618.1001044,E,1,39,1.011,707.5507,M*3E
$GPGFA,073012.00,4.108,6.931,0.432,0.349,5.438,0.845,,VVV*0C
$GPLLK,073012.00,010125,,M,,M,1,39,0.8,,M*0E
$GNGMP,073012.00,,,,,DAAA,39,0.4,,,,*5F
$GPGMP,073012.00,,,,,,09,,,,3.2,136*76
$GLGMP,073012.00,,,,,,10,,,,,*79
$GAGMP,073012.00,,,,,,08,,,,,*7D
$GBGMP,073012.00,,,,,,12,,,,,*75
$PSSN,SNC,[0,286230000,2347]*49
$GPZDA,073017.00,01,01,2025,,*61
$GPDTM,W84,,00.0000000,N,00.0000000,E,00.0000000,W84*5F
$PSSN,TFM,073017.00,,,,*6D
$GPRMC,073017.00,A,4742.1603823,N,01618.1001079,E,0.0,,010125,5.1,E,D*17
$GPGLL,4742.1603823,N,01618.1001079,E,073017.00,A,D*66
$GPGGA,073017.00,4742.1603823,N,01618.1001079,E,2,39,0.4,707.5530,M,43.2066,M,2.9,0136*4C
$GNGNS,073017.00,4742.1603823,N,01618.1001079,E,DAAA,39,0.4,707.5530,43.2066,,*5F
$GPGNS,073017.00,,,,,,09,,,,2.9,136*79
$GLGNS,073017.00,,,,,,10,,,,,*7C
$GAGNS,073017.00,,,,,,08,,,,,*78
$GBGNS,073017.00,,,,,,12,,,,,*70
$GPLLQ,073017.00,010125,,M,,M,1,39,1.022,,M*18
$GPVTG,,T,,M,0.00,N,0.00,K,D*26
$GPHDT,,T*1B
$GPTHS,,V*0E
$GPROT,,V*08
$PSSN,HRP,073017.00,010125,,,,,,,00,0,,*63
$PTNL,AVR,073017.00,,Yaw,,Tilt,,,,0,,00*35
$GPGSA,A,3,05,07,08,13,14,15,18,20,30,,,,0.7,0.4,0.5*35
$GPGSA,A,3,65,66,71,72,73,74,75,76,81,82,,,0.7,0.4,0.5*33
$GPGSA,A,3,02,03,05,08,13,15,24,25,,,,,0.7,0.4,0.5*3F
$GPGSA,A,3,05,07,09,10,21,22,26,36,40,42,45,60,0.7,0.4,0.5*39
$GPGST,073017.00,1.902,0.436,0.354,4.170,0.435,0.355,0.854*56
$GPGBS,073017.00,2.960,2.288,5.435,72,0.0001,5.958,6.068*5A
$GPGRS,073017.00,1,-0.0,-0.2,-0.4,0.2,-0.1,-0.2,-0.3,0.2,0.0,,,*64
$GPGRS,073017.00,1,-3.3,-2.2,-1.4,6.0,2.6,3.9,-2.5,-3.6,0.2,-2.5,,*46
$GPGRS,073017.00,1,-1.4,-0.2,0.4,0.0,-0.0,0.8,-0.1,0.0,,,,*46
$GPGRS,073017.00,1,2.6,0.6,-0.3,-0.4,0.1,0.2,-0.2,-0.1,-2.3,-0.4,0.1,0.0*4D
$GPGSV,5,1,20,30,73,059,50,15,15,300,40,08,11,054,38,14,47,155,47*70
$GPGSV,5,2,20,20,44,215,47,13,48,297,47,07,36,063,46,05,55,270,48*73
$GPGSV,5,3,20,09,05,113,34,27,04,023,36,18,09,325,40,36,35,170,44*75
$GPGSV,5,4,20,58,13,245,36,40,24,133,35,34,31,208,43,49,34,195,44*79
$GPGSV,5,5,20,57,07,112,37,41,07,108,35,61,03,257,38*4A
$GLGSV,3,1,10,75,65,192,52,72,57,123,51,73,10,036,42,65,58,324,49*69
$GLGSV,3,2,10,74,54,044,46,71,08,131,41,66,09,315,44,76,08,208,43*67
$GLGSV,3,3,10,81,09,312,44,82,09,357,41*63
$GAGSV,3,1,11,03,77,317,48,15,14,250,39,02,11,188,38,13,18,302,39*64
$GAGSV,3,2,11,08,25,294,42,24,43,066,45,25,48,146,47,05,46,103,46*63
$GAGSV,3,3,11,16,54,105,,26,02,349,35,31,04,031,35*56
$GBGSV,5,1,19,45,71,186,51,10,22,089,39,42,20,311,43,26,18,220,43*6B
$GBGSV,5,2,19,09,14,065,36,05,21,130,39,24,13,210,,07,21,075,39*6B
$GBGSV,5,3,19,40,20,067,41,22,50,148,50,50,45,304,,36,49,059,49*60
$GBGSV,5,4,19,21,70,289,52,19,00,138,,02,05,108,34,46,01,046,*68
$GBGSV,5,5,19,28,02,312,,56,08,094,,60,07,112,41*5B
$GPGGA,073017.00,,,,,0,00,,,M,,M,,*4A
$PTNL,GGK,073017.00,010125,4742.1603823,N,01618.1001079,E,1,39,0.7,EHT750.7595,M*41
$GPGGQ,073017.00,010125,4742.1603823,N,01618.1001079,E,1,39,1.022,707.5530,M*36
$GPGFA,073017.00,4.141,7.005,0.436,0.354,4.170,0.854,,VVV*0B
$GPLLK,073017.00,010125,,M,,M,1,39,0.8,,M*0B
$GNGMP,073017.00,,,,,DAAA,39,0.4,,,,*5A
$GPGMP,073017.00,,,,,,09,,,,2.9,136*79
$GLGMP,073017.00,,,,,,10,,,,,*7C
$GAGMP,073017.00,,,,,,08,,,,,*78
$GBGMP,073017.00,,,,,,12,,,,,*70
$PSSN,SNC,[0,286235000,2347]*4C
$GPZDA,073022.00,01,01,2025,,*67
$GPDTM,W84,,00.0000000,N,00.0000000,E,00.0000000,W84*5F
$PSSN,TFM,073022.00,,,,*6B
$GPRMC,073022.00,A,4742.1603828,N,01618.1001095,E,0.0,,010125,5.1,E,D*18
$GPGLL,4742.1603828,N,01618.1001095,E,073022.00,A,D*69
$GPGGA,073022.00,4742.1603828,N,01618.1001095,E,2,39,0.4,707.5510,M,43.2066,M,1.7,0136*4C
$GNGNS,073022.00,4742.1603828,N,01618.1001095,E,DAAA,39,0.4,707.5510,43.2066,,*52
$GPGNS,073022.00,,,,,,09,,,,1.7,136*72
$GLGNS,073022.00,,,,,,10,,,,,*7A
$GAGNS,073022.00,,,,,,08,,,,,*7E
$GBGNS,073022.00,,,,,,12,,,,,*76
$GPLLQ,073022.00,010125,,M,,M,1,39,1.019,,M*16
$GPVTG,,T,,M,0.00,N,0.00,K,D*26
$GPHDT,,T*1B
$GPTHS,,V*0E
$GPROT,,V*08
$PSSN,HRP,073022.00,010125,,,,,,,00,0,,*65
$PTNL,AVR,073022.00,,Yaw,,Tilt,,,,0,,00*33
$GPGSA,A,3,05,07,08,13,14,15,18,20,30,,,,0.7,0.4,0.5*35
$GPGSA,A,3,65,66,71,72,73,74,75,76,81,82,,,0.7,0.4,0.5*33
$GPGSA,A,3,02,03,05,08,13,15,24,25,,,,,0.7,0.4,0.5*3F
$GPGSA,A,3,05,07,09,10,21,22,26,36,40,42,45,60,0.7,0.4,0.5*39
$GPGST,073022.00,1.958,0.430,0.351,4.889,0.429,0.352,0.855*58
$GPGBS,073022.00,2.834,2.257,5.349,72,0.0001,6.015,6.068*51
$GPGRS,073022.00,1,0.1,-0.2,0.2,0.2,0.0,0.5,-0.5,0.0,-0.2,,,*48
$GPGRS,073022.00,1,-2.8,-3.4,-1.1,6.0,2.7,3.8,-2.3,-3.6,1.6,-2.2,,*4C
$GPGRS,073022.00,1,-1.6,-0.1,0.4,0.3,-0.2,1.0,-0.3,0.1,,,,*4A
$GPGRS,073022.00,1,2.6,1.0,-0.7,-0.2,0.4,0.2,-1.0,-0.1,-2.2,-0.5,-0.2,-0.1*4A
$GPGSV,5,1,20,30,73,059,50,15,15,300,40,08,11,054,38,14,47,155,47*70
$GPGSV,5,2,20,20,44,215,47,13,48,297,47,07,36,063,46,05,55,269,48*7B
$GPGSV,5,3,20,09,05,114,34,27,04,023,35,18,09,325,40,36,35,170,44*71
$GPGSV,5,4,20,58,13,245,36,40,24,133,35,34,31,208,43,49,34,195,44*79
$GPGSV,5,5,20,57,07,112,37,41,07,108,35,61,03,257,38*4A
$GLGSV,3,1,10,75,65,192,52,72,57,123,51,73,10,036,41,65,58,324,49*6A
$GLGSV,3,2,10,74,54,044,46,71,08,131,40,66,09,315,44,76,08,209,43*67
$GLGSV,3,3,10,81,09,312,44,82,09,356,41*62
$GAGSV,3,1,11,03,77,317,48,15,14,250,39,02,11,188,38,13,18,302,40*6A
$GAGSV,3,2,11,08,25,294,42,24,43,066,45,25,48,146,47,05,46,103,46*63
$GAGSV,3,3,11,16,54,105,,26,02,349,35,31,04,031,36*55
$GBGSV,5,1,19,45,71,186,51,10,22,089,39,42,20,311,43,26,18,220,42*6A
$GBGSV,5,2,19,09,14,065,36,05,21,130,39,24,13,210,,07,21,075,40*65
$GBGSV,5,3,19,40,20,067,42,22,50,148,50,50,45,304,,36,49,059,49*63
$GBGSV,5,4,19,21,70,289,52,19,00,138,,02,05,108,34,46,01,046,*68
$GBGSV,5,5,19,28,02,312,,56,08,094,,60,07,112,41*5B
$GPGGA,073022.00,,,,,0,00,,,M,,M,,*4C
$PTNL,GGK,073022.00,010125,4742.1603828,N,01618.1001095,E,1,39,0.7,EHT750.7576,M*43
$GPGGQ,073022.00,010125,4742.1603828,N,01618.1001095,E,1,39,1.019,707.5510,M*33
$GPGFA,073022.00,4.087,7.007,0.430,0.351,4.889,0.855,,VVV*09
$GPLLK,073022.00,010125,,M,,M,1,39,0.8,,M*0D
$GNGMP,073022.00,,,,,DAAA,39,0.4,,,,*5C
$GPGMP,073022.00,,,,,,09,,,,1.7,136*72
$GLGMP,073022.00,,,,,,10,,,,,*7A
$GAGMP,073022.00,,,,,,08,,,,,*7E
$GBGMP,073022.00,,,,,,12,,,,,*76
$PSSN,SNC,[0,286240000,2347]*4E
$GPZDA,073027.00,01,01,2025,,*62
$GPDTM,W84,,00.0000000,N,00.0000000,E,00.0000000,W84*5F
$PSSN,TFM,073027.00,,,,*6E
$GPRMC,073027.00,A,4742.1603831,N,01618.1001117,E,0.0,,010125,5.1,E,D*1E
$GPGLL,4742.1603831,N,01618.1001117,E,073027.00,A,D*6F
$GPGGA,073027.00,4742.1603831,N,01618.1001117,E,2,39,0.4,707.5526,M,43.2066,M,2.2,0136*49
$GNGNS,073027.00,4742.1603831,N,01618.1001117,E,DAAA,39,0.4,707.5526,43.2066,,*51
$GPGNS,073027.00,,,,,,09,,,,2.2,136*71
$GLGNS,073027.00,,,,,,10,,,,,*7F
$GAGNS,073027.00,,,,,,08,,,,,*7B
$GBGNS,073027.00,,,,,,12,,,,,*73
$GPLLQ,073027.00,010125,,M,,M,1,39,1.009,,M*12
$GPVTG,,T,,M,0.00,N,0.00,K,D*26
$GPHDT,,T*1B
$GPTHS,,V*0E
$GPROT,,V*08
$PSSN,HRP,073027.00,010125,,,,,,,00,0,,*60
$PTNL,AVR,073027.00,,Yaw,,Tilt,,,,0,,00*36
$GPGSA,A,3,05,07,08,13,14,15,18,20,30,,,,0.7,0.4,0.5*35
$GPGSA,A,3,65,66,71,72,73,74,75,76,81,82,,,0.7,0.4,0.5*33
$GPGSA,A,3,02,03,05,08,13,15,24,25,,,,,0.7,0.4,0.5*3F
$GPGSA,A,3,05,07,09,10,21,22,26,36,40,42,45,60,0.7,0.4,0.5*39
$GPGST,073027.00,1.945,0.427,0.345,6.282,0.426,0.346,0.846*59
$GPGBS,073027.00,2.846,2.231,5.385,72,0.0001,5.953,6.068*59
$GPGRS,073027.00,1,0.2,-0.2,0.3,0.4,-0.2,0.3,-0.3,0.1,-0.4,,,*61
$GPGRS,073027.00,1,-3.4,-3.0,-0.6,6.0,2.8,3.3,-2.0,-4.0,1.9,-1.5,,*4B
$GPGRS,073027.00,1,-1.6,-0.1,0.5,0.0,0.5,1.2,-0.4,0.1,,,,*62
$GPGRS,073027.00,1,2.5,1.1,-0.9,0.0,0.2,0.1,-0.5,-0.4,-2.4,0.1,-0.2,0.0*6B
$GPGSV,5,1,20,30,73,059,50,15,15,300,40,08,11,054,37,14,47,155,47*7F
$GPGSV,5,2,20,20,44,215,47,13,48,297,47,07,36,063,45,05,55,269,48*78
$GPGSV,5,3,20,09,05,114,34,27,04,023,35,18,09,325,40,36,35,170,44*71
$GPGSV,5,4,20,58,13,245,36,40,24,133,35,34,31,208,43,49,34,195,44*79
$GPGSV,5,5,20,57,07,112,37,41,07,108,35,61,03,257,38*4A
$GLGSV,3,1,10,75,65,192,52,72,57,123,51,73,10,036,41,65,59,324,49*6B
$GLGSV,3,2,10,74,53,044,45,71,08,131,41,66,09,315,44,76,08,209,44*65
$GLGSV,3,3,10,81,09,312,44,82,09,356,42*61
$GAGSV,3,1,11,03,77,317,48,15,14,250,40,02,11,188,38,13,18,302,39*6A
$GAGSV,3,2,11,08,25,294,42,24,43,066,45,25,48,146,47,05,46,103,46*63
$GAGSV,3,3,11,16,54,105,,26,02,349,35,31,04,031,35*56
$GBGSV,5,1,19,45,71,186,51,10,22,089,39,42,20,311,43,26,18,220,42*6A
$GBGSV,5,2,19,09,14,065,36,05,21,130,39,24,13,210,,07,21,075,40*65
$GBGSV,5,3,19,40,20,067,41,22,50,148,50,50,45,304,,36,49,059,48*61
$GBGSV,5,4,19,21,70,289,52,19,00,138,,02,05,108,34,46,01,046,*68
$GBGSV,5,5,19,28,02,312,,56,08,094,,60,07,112,41*5B
$GPGGA,073027.00,,,,,0,00,,,M,,M,,*49
$PTNL,GGK,073027.00,010125,4742.1603831,N,01618.1001117,E,1,39,0.7,EHT750.7591,M*4C
$GPGGQ,073027.00,010125,4742.1603831,N,01618.1001117,E,1,39,1.009,707.5526,M*31
$GPGFA,073027.00,4.063,6.941,0.427,0.345,6.282,0.846,,VVV*0E
$GPLLK,073027.00,010125,,M,,M,1,39,0.8,,M*08
$GNGMP,073027.00,,,,,DAAA,39,0.4,,,,*59
$GPGMP,073027.00,,,,,,09,,,,2.2,136*71
$GLGMP,073027.00,,,,,,10,,,,,*7F
$GAGMP,073027.00,,,,,,08,,,,,*7B
$GBGMP,073027.00,,,,,,12,,,,,*73
$PSSN,SNC,[0,286245000,2347]*4B
$GPZDA,073032.00,01,01,2025,,*66
$GPDTM,W84,,00.0000000,N,00.0000000,E,00.0000000,W84*5F
$PSSN,TFM,073032.00,,,,*6A
$GPRMC,073032.00,A,4742.1603828,N,01618.1001139,E,0.0,,010125,5.1,E,D*1E
$GPGLL,4742.1603828,N,01618.1001139,E,073032.00,A,D*6F
$GPGGA,073032.00,4742.1603828,N,01618.1001139,E,2,39,0.4,707.5522,M,43.2066,M,3.2,0136*4C
$GNGNS,073032.00,4742.1603828,N,01618.1001139,E,DAAA,39,0.4,707.5522,43.2066,,*55
$GPGNS,073032.00,,,,,,09,,,,3.2,136*74
$GLGNS,073032.00,,,,,,10,,,,,*7B
$GAGNS,073032.00,,,,,,08,,,,,*7F
$GBGNS,073032.00,,,,,,12,,,,,*77
$GPLLQ,073032.00,010125,,M,,M,1,39,1.017,,M*19
$GPVTG,,T,,M,0.00,N,0.00,K,D*26
$GPHDT,,T*1B
$GPTHS,,V*0E
$GPROT,,V*08
$PSSN,HRP,073032.00,010125,,,,,,,00,0,,*64
$PTNL,AVR,073032.00,,Yaw,,Tilt,,,,0,,00*32
$GPGSA,A,3,05,07,08,13,14,15,18,20,30,,,,0.7,0.4,0.5*35
$GPGSA,A,3,65,66,71,72,73,74,75,76,81,82,,,0.7,0.4,0.5*33
$GPGSA,A,3,02,03,05,08,13,15,24,25,,,,,0.7,0.4,0.5*3F
$GPGSA,A,3,05,07,09,10,21,22,26,36,40,42,45,60,0.7,0.4,0.5*39
$GPGST,073032.00,1.833,0.433,0.349,4.953,0.432,0.350,0.851*55
$GPGBS,073032.00,2.896,2.256,5.491,72,0.0001,5.630,6.068*59
$GPGRS,073032.00,1,-0.1,-0.1,0.2,0.0,0.0,0.2,-0.2,0.2,-0.2,,,*67
$GPGRS,073032.00,1,-3.5,-2.0,-0.2,5.6,2.7,3.4,-2.0,-3.3,1.3,-1.7,,*4A
$GPGRS,073032.00,1,-1.9,-0.3,0.5,0.1,0.8,1.2,-0.0,0.1,,,,*63
$GPGRS,073032.00,1,2.3,1.6,-0.9,-0.0,0.2,0.1,0.7,-0.3,-2.3,0.1,-0.1,0.3*6C
$GPGSV,5,1,20,30,73,059,50,15,15,300,40,08,11,054,38,14,47,155,47*70
$GPGSV,5,2,20,20,44,215,47,13,48,297,47,07,36,063,45,05,55,269,47*77
$GPGSV,5,3,20,09,05,114,34,27,04,023,35,18,09,325,39,36,35,170,44*7F
$GPGSV,5,4,20,58,13,245,36,40,24,133,35,34,31,208,43,49,34,195,44*79
$GPGSV,5,5,20,57,07,112,37,41,07,108,34,61,03,257,38*4B
$GLGSV,3,1,10,75,65,192,52,72,57,123,50,73,10,036,41,65,59,324,49*6A
$GLGSV,3,2,10,74,53,044,45,71,08,131,41,66,09,316,44,76,08,209,44*66
$GLGSV,3,3,10,81,09,312,43,82,09,356,41*65
$GAGSV,3,1,11,03,77,317,48,15,14,250,39,02,11,188,37,13,18,302,40*65
$GAGSV,3,2,11,08,25,294,42,24,43,066,45,25,48,146,47,05,46,103,46*63
$GAGSV,3,3,11,16,54,104,,26,02,349,35,31,04,031,35*57
$GBGSV,5,1,19,45,71,186,51,10,22,089,39,42,20,311,43,26,18,220,42*6A
$GBGSV,5,2,19,09,14,065,37,05,21,130,39,24,13,210,,07,21,075,40*64
$GBGSV,5,3,19,40,20,067,41,22,50,148,50,50,45,304,,36,49,059,48*61
$GBGSV,5,4,19,21,70,289,52,19,00,138,,02,05,108,34,46,01,046,*68
$GBGSV,5,5,19,28,02,312,,56,08,094,,60,07,112,41*5B
$GPGGA,073032.00,,,,,0,00,,,M,,M,,*4D
$PTNL,GGK,073032.00,010125,4742.1603828,N,01618.1001139,E,1,39,0.7,EHT750.7587,M*4B
$GPGGQ,073032.00,010125,4742.1603828,N,01618.1001139,E,1,39,1.017,707.5522,M*3A
$GPGFA,073032.00,4.114,6.979,0.433,0.349,4.953,0.851,,VVV*0A
$GPLLK,073032.00,010125,,M,,M,1,39,0.8,,M*0C
$GNGMP,073032.00,,,,,DAAA,39,0.4,,,,*5D
$GPGMP,073032.00,,,,,,09,,,,3.2,136*74
$GLGMP,073032.00,,,,,,10,,,,,*7B
$GAGMP,073032.00,,,,,,08,,,,,*7F
$GBGMP,073032.00,,,,,,12,,,,,*77
$PSSN,SNC,[0,286250000,2347]*4F
$GPZDA,073037.00,01,01,2025,,*63
$GPDTM,W84,,00.0000000,N,00.0000000,E,00.0000000,W84*5F
$PSSN,TFM,073037.00,,,,*6F
$GPRMC,073037.00,A,4742.1603847,N,01618.1001153,E,0.0,,010125,5.1,E,D*1E
$GPGLL,4742.1603847,N,01618.1001153,E,073037.00,A,D*6F
$GPGGA,073037.00,4742.1603847,N,01618.1001153,E,2,39,0.4,707.5526,M,43.2066,M,2.9,0136*42
$GNGNS,073037.00,4742.1603847,N,01618.1001153,E,DAAA,39,0.4,707.5526,43.2066,,*51
$GPGNS,073037.00,,,,,,09,,,,2.9,136*7B
$GLGNS,073037.00,,,,,,10,,,,,*7E
$GAGNS,073037.00,,,,,,08,,,,,*7A
$GBGNS,073037.00,,,,,,12,,,,,*72
$GPLLQ,073037.00,010125,,M,,M,1,39,1.027,,M*1F
$GPVTG,,T,,M,0.00,N,0.00,K,D*26
$GPHDT,,T*1B
$GPTHS,,V*0E
$GPROT,,V*08
$PSSN,HRP,073037.00,010125,,,,,,,00,0,,*61
$PTNL,AVR,073037.00,,Yaw,,Tilt,,,,0,,00*37
$GPGSA,A,3,05,07,08,13,14,15,18,20,30,,,,0.7,0.4,0.5*35
$GPGSA,A,3,65,66,71,72,73,74,75,76,81,82,,,0.7,0.4,0.5*33
$GPGSA,A,3,02,03,05,08,13,15,24,25,,,,,0.7,0.4,0.5*3F
$GPGSA,A,3,05,07,09,10,21,22,26,36,40,42,45,60,0.7,0.4,0.5*39
$GPGST,073037.00,1.840,0.436,0.354,3.677,0.436,0.355,0.860*50
$GPGBS,073037.00,2.973,2.278,5.461,72,0.0001,5.332,6.068*52
$GPGRS,073037.00,1,0.1,-0.2,0.3,0.3,0.1,0.3,-0.6,0.1,-0.2,,,*49
$GPGRS,073037.00,1,-3.3,-2.6,-0.7,5.3,2.8,3.6,-2.0,-3.4,1.5,-2.0,,*47
$GPGRS,073037.00,1,-1.6,-0.2,0.6,-0.1,0.2,0.9,-0.2,0.2,,,,*47
$GPGRS,073037.00,1,2.5,1.5,-0.3,-0.6,0.3,0.1,0.9,-0.5,-2.1,-0.3,0.0,0.1*6A
$GPGSV,5,1,20,30,73,059,50,15,15,300,40,08,11,054,38,14,47,155,47*70
$GPGSV,5,2,20,20,44,215,47,13,48,297,47,07,36,063,46,05,55,269,47*74
$GPGSV,5,3,20,09,05,114,34,27,04,023,35,18,09,325,40,36,35,170,44*71
$GPGSV,5,4,20,58,13,245,36,40,24,133,35,34,31,208,43,49,34,195,44*79
$GPGSV,5,5,20,57,07,112,37,41,07,108,35,61,03,257,38*4A
$GLGSV,3,1,10,75,65,192,52,72,57,123,50,74,53,044,45,65,59,324,49*6B
$GLGSV,3,2,10,73,10,036,41,71,08,131,41,66,09,316,43,76,08,209,43*67
$GLGSV,3,3,10,81,08,312,44,82,09,356,42*60
$GAGSV,3,1,11,03,77,317,48,15,14,250,39,02,11,188,37,13,18,302,40*65
$GAGSV,3,2,11,08,25,294,42,24,43,065,46,25,48,146,47,05,46,103,46*63
$GAGSV,3,3,11,16,54,104,,26,02,349,35,31,04,031,36*54
$GBGSV,5,1,19,45,71,186,51,10,22,089,38,42,20,311,43,24,13,210,*67
$GBGSV,5,2,19,09,14,065,37,05,21,130,38,26,18,220,42,07,21,075,40*69
$GBGSV,5,3,19,40,20,067,41,22,50,148,50,50,45,304,,36,49,059,48*61
$GBGSV,5,4,19,21,70,289,51,19,00,138,,02,05,108,34,46,01,046,*6B
$GBGSV,5,5,19,28,02,312,,56,08,094,,60,07,112,41*5B
$GPGGA,073037.00,,,,,0,00,,,M,,M,,*48
$PTNL,GGK,073037.00,010125,4742.1603847,N,01618.1001153,E,1,39,0.7,EHT750.7591,M*4C
$GPGGQ,073037.00,010125,4742.1603847,N,01618.1001153,E,1,39,1.027,707.5526,M*3D
$GPGFA,073037.00,4.147,7.051,0.436,0.354,3.677,0.860,,VVV*0E
$GPLLK,073037.00,010125,,M,,M,1,39,0.8,,M*09
$GNGMP,073037.00,,,,,DAAA,39,0.4,,,,*58
$GPGMP,073037.00,,,,,,09,,,,2.9,136*7B
$GLGMP,073037.00,,,,,,10,,,,,*7E
$GAGMP,073037.00,,,,,,08,,,,,*7A
$GBGMP,073037.00,,,,,,12,,,,,*72
$PSSN,SNC,[0,286255000,2347]*4A
$GPZDA,073042.00,01,01,2025,,*61
$GPDTM,W84,,00.0000000,N,00.0000000,E,00.0000000,W84*5F
$PSSN,TFM,073042.00,,,,*6D
$GPRMC,073042.00,A,4742.1603835,N,01618.1001154,E,0.0,,010125,5.1,E,D*1E
$GPGLL,4742.1603835,N,01618.1001154,E,073042.00,A,D*6F
$GPGGA,073042.00,4742.1603835,N,01618.1001154,E,2,39,0.4,707.5526,M,43.2066,M,1.7,0136*4F
$GNGNS,073042.00,4742.1603835,N,01618.1001154,E,DAAA,39,0.4,707.5526,43.2066,,*51
$GPGNS,073042.00,,,,,,09,,,,1.7,136*74
$GLGNS,073042.00,,,,,,10,,,,,*7C
$GAGNS,073042.00,,,,,,08,,,,,*78
$GBGNS,073042.00,,,,,,12,,,,,*70
$GPLLQ,073042.00,010125,,M,,M,1,39,1.019,,M*10
$GPVTG,,T,,M,0.00,N,0.01,K,D*27
$GPHDT,,T*1B
$GPTHS,,V*0E
$GPROT,,V*08
$PSSN,HRP,073042.00,010125,,,,,,,00,0,,*63
$PTNL,AVR,073042.00,,Yaw,,Tilt,,,,0,,00*35
$GPGSA,A,3,05,07,08,13,14,15,18,20,30,,,,0.7,0.4,0.5*35
$GPGSA,A,3,65,66,71,72,73,74,75,76,81,82,,,0.7,0.4,0.5*33
$GPGSA,A,3,02,03,05,08,13,15,24,25,,,,,0.7,0.4,0.5*3F
$GPGSA,A,3,05,07,09,10,21,22,26,36,40,42,45,60,0.7,0.4,0.5*39
$GPGST,073042.00,1.878,0.430,0.351,4.598,0.429,0.351,0.855*53
$GPGBS,073042.00,2.846,2.250,5.342,72,0.0001,5.174,6.068*5B
$GPGRS,073042.00,1,0.1,-0.0,0.4,-0.2,0.2,0.3,0.2,-0.2,-0.2,,,*66
$GPGRS,073042.00,1,-3.1,-4.0,-1.0,5.2,2.6,3.4,-2.1,-3.6,1.6,-2.3,,*4F
$GPGRS,073042.00,1,-1.6,-0.1,0.5,0.2,-0.0,1.2,-0.1,0.2,,,,*4D
$GPGRS,073042.00,1,2.3,0.9,-0.4,-0.1,0.2,0.0,0.6,-0.4,-2.1,-0.4,0.1,-0.2*45
$GPGSV,5,1,20,30,73,059,50,15,15,300,40,08,11,054,39,14,47,155,46*70
$GPGSV,5,2,20,20,44,215,47,13,48,297,47,07,36,063,45,05,55,269,47*77
$GPGSV,5,3,20,09,05,114,34,27,04,023,36,18,09,325,39,36,35,170,44*7C
$GPGSV,5,4,20,58,13,245,36,40,24,133,35,34,31,208,43,49,34,195,44*79
$GPGSV,5,5,20,57,07,112,37,41,07,108,35,61,03,257,38*4A
$GLGSV,3,1,10,75,65,192,52,72,57,123,50,74,53,044,45,65,59,324,49*6B
$GLGSV,3,2,10,73,10,036,41,71,08,131,41,66,09,316,44,76,08,209,42*61
$GLGSV,3,3,10,81,08,312,44,82,09,356,40*62
$GAGSV,3,1,11,03,77,317,48,15,14,250,39,02,11,188,37,13,18,302,40*65
$GAGSV,3,2,11,08,25,294,42,24,43,065,45,25,48,146,48,05,46,103,46*6F
$GAGSV,3,3,11,16,54,104,,26,02,349,35,31,04,031,36*54
$GBGSV,5,1,19,45,71,186,51,10,22,089,38,42,20,311,43,24,13,210,*67
$GBGSV,5,2,19,09,14,065,37,05,21,130,38,26,18,220,43,07,21,075,39*66
$GBGSV,5,3,19,40,20,067,41,22,50,148,50,50,45,304,,36,49,059,48*61
$GBGSV,5,4,19,21,70,289,51,19,00,138,,02,05,108,33,46,01,046,*6C
$GBGSV,5,5,19,28,02,312,,56,09,094,,60,07,112,40*5B
$GPGGA,073042.00,,,,,0,00,,,M,,M,,*4A
$PTNL,GGK,073042.00,010125,4742.1603835,N,01618.1001154,E,1,39,0.7,EHT750.7591,M*4C
$GPGGQ,073042.00,010125,4742.1603835,N,01618.1001154,E,1,39,1.019,707.5526,M*30
$GPGFA,073042.00,4.086,7.008,0.430,0.351,4.598,0.855,,VVV*0C
$GPLLK,073042.00,010125,,M,,M,1,39,0.8,,M*0B
$GNGMP,073042.00,,,,,DAAA,39,0.4,,,,*5A
$GPGMP,073042.00,,,,,,09,,,,1.7,136*74
$GLGMP,073042.00,,,,,,10,,,,,*7C
$GAGMP,073042.00,,,,,,08,,,,,*78
$GBGMP,073042.00,,,,,,12,,,,,*70
$PSSN,SNC,[0,286260000,2347]*4C
$GPZDA,073047.00,01,01,2025,,*64
$GPDTM,W84,,00.0000000,N,00.0000000,E,00.0000000,W84*5F
$PSSN,TFM,073047.00,,,,*68
$GPRMC,073047.00,A,4742.1603830,N,01618.1001152,E,0.0,,010125,5.1,E,D*18
$GPGLL,4742.1603830,N,01618.1001152,E,073047.00,A,D*69
$GPGGA,073047.00,4742.1603830,N,01618.1001152,E,2,39,0.4,707.5557,M,43.2066,M,2.2,0136*49
$GNGNS,073047.00,4742.1603830,N,01618.1001152,E,DAAA,39,0.4,707.5557,43.2066,,*51
$GPGNS,073047.00,,,,,,09,,,,2.2,136*77
$GLGNS,073047.00,,,,,,10,,,,,*79
$GAGNS,073047.00,,,,,,08,,,,,*7D
$GBGNS,073047.00,,,,,,12,,,,,*75
$GPLLQ,073047.00,010125,,M,,M,1,39,1.009,,M*14
$GPVTG,,T,,M,0.00,N,0.01,K,D*27
$GPHDT,,T*1B
$GPTHS,,V*0E
$GPROT,,V*08
$PSSN,HRP,073047.00,010125,,,,,,,00,0,,*66
$PTNL,AVR,073047.00,,Yaw,,Tilt,,,,0,,00*30
$GPGSA,A,3,05,07,08,13,14,15,18,20,30,,,,0.7,0.4,0.5*35
$GPGSA,A,3,65,66,71,72,73,74,75,76,81,82,,,0.7,0.4,0.5*33
$GPGSA,A,3,02,03,05,08,13,15,24,25,,,,,0.7,0.4,0.5*3F
$GPGSA,A,3,05,07,09,10,21,22,26,36,40,42,45,60,0.7,0.4,0.5*39
$GPGST,073047.00,1.900,0.427,0.345,6.045,0.426,0.346,0.847*56
$GPGBS,073047.00,2.857,2.223,5.377,72,0.0001,5.683,6.068*53
$GPGRS,073047.00,1,0.1,-0.2,0.5,-0.1,0.0,0.4,-0.2,0.0,-0.2,,,*64
$GPGRS,073047.00,1,-3.3,-2.4,-1.9,5.7,2.6,3.4,-2.2,-4.2,2.2,-1.2,,*43
$GPGRS,073047.00,1,-1.3,-0.1,0.7,0.3,0.1,0.9,-0.2,0.1,,,,*68
$GPGRS,073047.00,1,2.6,0.4,0.0,-0.1,0.2,-0.0,0.6,-0.1,-1.9,-0.8,0.2,0.1*63
$GPGSV,5,1,20,30,73,059,50,15,15,300,40,08,11,054,39,14,47,155,47*71
$GPGSV,5,2,20,20,43,215,47,13,48,297,47,07,36,063,45,05,55,269,48*7F
$GPGSV,5,3,20,09,04,114,33,27,04,023,37,18,09,325,39,36,35,170,45*7A
$GPGSV,5,4,20,58,13,245,36,40,24,133,35,34,31,208,43,49,34,195,44*79
$GPGSV,5,5,20,57,07,112,37,41,07,108,35,61,03,257,38*4A
$GLGSV,3,1,10,75,65,192,51,72,57,123,50,74,53,044,45,65,59,324,49*68
$GLGSV,3,2,10,73,10,036,41,71,08,131,40,66,09,316,44,76,08,209,42*60
$GLGSV,3,3,10,81,08,312,44,82,09,356,42*60
$GAGSV,3,1,11,03,77,317,49,15,14,250,39,02,11,188,37,13,18,302,40*64
$GAGSV,3,2,11,08,25,294,42,24,43,065,45,25,48,146,47,05,46,103,46*60
$GAGSV,3,3,11,16,54,104,,26,02,349,35,31,04,031,35*57
$GBGSV,5,1,19,45,71,186,51,10,22,088,38,42,20,311,43,26,18,220,43*6B
$GBGSV,5,2,19,09,14,065,37,05,21,130,38,24,13,210,,07,21,075,39*6B
$GBGSV,5,3,19,40,20,067,41,22,50,148,50,50,45,304,,36,49,059,49*60
$GBGSV,5,4,19,21,70,289,51,19,00,138,,02,05,108,34,46,01,046,*6B
$GBGSV,5,5,19,28,02,312,,56,09,094,,60,07,112,41*5A
$GPGGA,073047.00,,,,,0,00,,,M,,M,,*4F
$PTNL,GGK,073047.00,010125,4742.1603830,N,01618.1001152,E,1,39,0.7,EHT750.7623,M*40
$GPGGQ,073047.00,010125,4742.1603830,N,01618.1001152,E,1,39,1.009,707.5557,M*31
$GPGFA,073047.00,4.063,6.944,0.427,0.345,6.045,0.847,,VVV*05
$GPLLK,073047.00,010125,,M,,M,1,39,0.8,,M*0E
$GNGMP,073047.00,,,,,DAAA,39,0.4,,,,*5F
$GPGMP,073047.00,,,,,,09,,,,2.2,136*77
$GLGMP,073047.00,,,,,,10,,,,,*79
$GAGMP,073047.00,,,,,,08,,,,,*7D
$GBGMP,073047.00,,,,,,12,,,,,*75
$PSSN,SNC,[0,286265000,2347]*49
$GPZDA,073052.00,01,01,2025,,*60
$GPDTM,W84,,00.0000000,N,00.0000000,E,00.0000000,W84*5F
$PSSN,TFM,073052.00,,,,*6C
$GPRMC,073052.00,A,4742.1603842,N,01618.1001152,E,0.0,,010125,5.1,E,D*19
$GPGLL,4742.1603842,N,01618.1001152,E,073052.00,A,D*68
$GPGGA,073052.00,4742.1603842,N,01618.1001152,E,2,39,0.4,707.5586,M,43.2066,M,3.2,0136*45
$GNGNS,073052.00,4742.1603842,N,01618.1001152,E,DAAA,39,0.4,707.5586,43.2066,,*5C
$GPGNS,073052.00,,,,,,09,,,,3.2,136*72
$GLGNS,073052.00,,,,,,10,,,,,*7D
$GAGNS,073052.00,,,,,,08,,,,,*79
$GBGNS,073052.00,,,,,,12,,,,,*71
$GPLLQ,073052.00,010125,,M,,M,1,39,1.012,,M*1A
$GPVTG,,T,,M,0.00,N,0.00,K,D*26
$GPHDT,,T*1B
$GPTHS,,V*0E
$GPROT,,V*08
$PSSN,HRP,073052.00,010125,,,,,,,00,0,,*62
$PTNL,AVR,073052.00,,Yaw,,Tilt,,,,0,,00*34
$GPGSA,A,3,05,07,08,13,14,15,18,20,30,,,,0.7,0.4,0.5*35
$GPGSA,A,3,65,66,71,72,73,74,75,76,81,82,,,0.7,0.4,0.5*33
$GPGSA,A,3,02,03,05,08,13,15,24,25,,,,,0.7,0.4,0.5*3F
$GPGSA,A,3,05,07,09,10,21,22,26,36,40,42,45,60,0.7,0.4,0.5*39
$GPGST,073052.00,1.964,0.432,0.349,4.947,0.431,0.349,0.846*59
$GPGBS,073052.00,2.906,2.253,5.448,72,0.0001,5.742,6.068*52
$GPGRS,073052.00,1,-0.1,-0.3,0.5,0.3,0.3,0.2,-0.4,0.1,-0.2,,,*61
$GPGRS,073052.00,1,-3.8,-2.6,-1.3,5.7,3.1,4.2,-2.6,-4.0,0.8,-0.9,,*47
$GPGRS,073052.00,1,-1.5,-0.2,0.4,0.1,-0.2,1.1,-0.2,-0.2,,,,*61
$GPGRS,073052.00,1,2.3,0.5,0.4,-0.6,0.2,-0.0,0.2,-0.5,-2.0,-0.8,-0.3,-0.0*6A
$GPGSV,5,1,20,30,73,059,50,15,15,300,40,08,11,054,40,14,47,155,47*7F
$GPGSV,5,2,20,20,43,215,47,13,48,297,47,07,36,063,46,05,55,269,48*7C
$GPGSV,5,3,20,09,04,114,33,27,04,023,37,18,09,325,39,36,35,170,44*7B
$GPGSV,5,4,20,58,13,245,36,40,24,133,35,34,31,208,43,49,34,195,44*79
$GPGSV,5,5,20,57,07,112,37,41,07,108,35,61,03,257,38*4A
$GLGSV,3,1,10,75,65,192,52,72,57,123,51,74,53,044,46,65,59,324,49*69
$GLGSV,3,2,10,73,10,036,42,71,08,132,40,66,09,316,44,76,08,209,42*60
$GLGSV,3,3,10,81,08,312,43,82,09,356,43*66
$GAGSV,3,1,11,03,77,317,48,15,14,250,39,02,11,188,37,13,18,302,40*65
$GAGSV,3,2,11,08,25,294,42,24,43,065,45,25,48,146,47,05,45,103,46*63
$GAGSV,3,3,11,16,54,104,,26,02,349,35,31,04,031,36*54
$GBGSV,5,1,19,45,71,186,51,10,22,088,38,42,20,311,43,26,18,220,43*6B
$GBGSV,5,2,19,09,14,065,37,05,21,130,39,24,14,210,,07,21,075,39*6D
$GBGSV,5,3,19,40,20,067,41,22,50,148,51,50,46,304,,36,49,059,48*63
$GBGSV,5,4,19,21,70,289,51,19,00,138,,02,05,108,34,46,01,046,*6B
$GBGSV,5,5,19,28,02,312,,56,09,094,,60,07,112,41*5A
$GPGGA,073052.00,,,,,0,00,,,M,,M,,*4B
$PTNL,GGK,073052.00,010125,4742.1603842,N,01618.1001152,E,1,39,0.7,EHT750.7652,M*47
$GPGGQ,073052.00,010125,4742.1603842,N,01618.1001152,E,1,39,1.012,707.5586,M*36
$GPGFA,073052.00,4.106,6.937,0.432,0.349,4.947,0.846,,VVV*07
$GPLLK,073052.00,010125,,M,,M,1,39,0.8,,M*0A
$GNGMP,073052.00,,,,,DAAA,39,0.4,,,,*5B
$GPGMP,073052.00,,,,,,09,,,,3.2,136*72
$GLGMP,073052.00,,,,,,10,,,,,*7D
$GAGMP,073052.00,,,,,,08,,,,,*79
$GBGMP,073052.00,,,,,,12,,,,,*71
$PSSN,SNC,[0,286270000,2347]*4D
$GPZDA,073057.00,01,01,2025,,*65
$GPDTM,W84,,00.0000000,N,00.0000000,E,00.0000000,W84*5F
$PSSN,TFM,073057.00,,,,*69
$GPRMC,073057.00,A,4742.1603846,N,01618.1001162,E,0.0,,010125,5.1,E,D*1B
$GPGLL,4742.1603846,N,01618.1001162,E,073057.00,A,D*6A
$GPGGA,073057.00,4742.1603846,N,01618.1001162,E,2,39,0.4,707.5601,M,43.2066,M,2.9,0136*41
$GNGNS,073057.00,4742.1603846,N,01618.1001162,E,DAAA,39,0.4,707.5601,43.2066,,*52
$GPGNS,073057.00,,,,,,09,,,,2.9,136*7D
$GLGNS,073057.00,,,,,,10,,,,,*78
$GAGNS,073057.00,,,,,,08,,,,,*7C
$GBGNS,073057.00,,,,,,12,,,,,*74
$GPLLQ,073057.00,010125,,M,,M,1,39,1.023,,M*1D
$GPVTG,,T,,M,0.00,N,0.00,K,D*26
$GPHDT,,T*1B
$GPTHS,,V*0E
$GPROT,,V*08
$PSSN,HRP,073057.00,010125,,,,,,,00,0,,*67
$PTNL,AVR,073057.00,,Yaw,,Tilt,,,,0,,00*31
$GPGSA,A,3,05,07,08,13,14,15,18,20,30,,,,0.7,0.4,0.5*35
$GPGSA,A,3,65,66,71,72,73,74,75,76,81,82,,,0.7,0.4,0.5*33
$GPGSA,A,3,02,03,05,08,13,15,24,25,,,,,0.7,0.4,0.5*3F
$GPGSA,A,3,05,07,09,10,21,22,26,36,40,42,45,60,0.7,0.4,0.5*39
$GPGST,073057.00,1.962,0.435,0.354,3.677,0.435,0.354,0.855*50
$GPGBS,073057.00,2.982,2.275,5.423,72,0.0001,5.453,6.068*51
$GPGRS,073057.00,1,-0.0,-0.2,0.0,0.3,0.0,0.0,0.2,0.0,-0.2,,,*4A
$GPGRS,073057.00,1,-3.2,-2.7,-0.7,5.5,3.4,4.5,-2.1,-4.1,1.7,-1.6,,*4A
$GPGRS,073057.00,1,-1.6,-0.2,0.5,0.2,0.3,1.0,-0.3,-0.2,,,,*49
$GPGRS,073057.00,1,2.3,-0.4,-0.0,-1.3,0.2,-0.0,-0.6,-0.7,-2.0,-0.2,-0.2,-0.3*4D
$GPGSV,5,1,20,30,73,059,50,15,15,300,41,08,11,054,39,14,47,155,47*70
$GPGSV,5,2,20,20,43,215,47,13,48,297,47,07,36,063,46,05,55,269,48*7C
$GPGSV,5,3,20,09,04,114,33,27,04,023,37,18,09,325,39,36,35,170,44*7B
$GPGSV,5,4,20,58,13,245,36,40,24,133,36,34,31,208,43,49,34,195,44*7A
$GPGSV,5,5,20,57,07,112,37,41,07,108,35,61,03,257,38*4A
$GLGSV,3,1,10,75,65,192,52,72,57,123,50,74,53,044,46,65,59,324,49*68
$GLGSV,3,2,10,73,10,036,42,71,08,132,40,66,09,316,44,76,08,209,42*60
$GLGSV,3,3,10,81,08,312,44,82,09,356,43*61
$GAGSV,3,1,11,03,77,317,48,15,14,250,39,02,11,188,38,13,18,302,40*6A
$GAGSV,3,2,11,08,25,294,42,24,43,065,45,25,48,146,47,05,45,103,46*63
$GAGSV,3,3,11,16,54,104,,26,02,349,35,31,04,031,35*57
$GBGSV,5,1,19,45,71,186,51,10,22,088,39,42,20,311,43,26,18,220,42*6B
$GBGSV,5,2,19,09,14,065,37,05,21,130,39,24,14,210,,07,21,075,39*6D
$GBGSV,5,3,19,40,20,067,41,22,50,148,50,50,46,304,,36,49,059,48*62
$GBGSV,5,4,19,21,70,289,52,19,00,138,,02,05,108,34,46,01,046,*68
$GBGSV,5,5,19,28,02,312,,56,09,094,,60,07,112,41*5A
$GPGGA,073057.00,,,,,0,00,,,M,,M,,*4E
$PTNL,GGK,073057.00,010125,4742.1603846,N,01618.1001162,E,1,39,0.7,EHT750.7666,M*42
$GPGGQ,073057.00,010125,4742.1603846,N,01618.1001162,E,1,39,1.023,707.5601,M*3A
$GPGFA,073057.00,4.139,7.010,0.435,0.354,3.677,0.855,,VVV*01
$GPLLK,073057.00,010125,,M,,M,1,39,0.8,,M*0F
$GNGMP,073057.00,,,,,DAAA,39,0.4,,,,*5E
$GPGMP,073057.00,,,,,,09,,,,2.9,136*7D
$GLGMP,073057.00,,,,,,10,,,,,*78
$GAGMP,073057.00,,,,,,08,,,,,*7C
$GBGMP,073057.00,,,,,,12,,,,,*74
$PSSN,SNC,[0,286275000,2347]*48
$GPZDA,073102.00,01,01,2025,,*64
$GPDTM,W84,,00.0000000,N,00.0000000,E,00.0000000,W84*5F
$PSSN,TFM,073102.00,,,,*68
$GPRMC,073102.00,A,4742.1603845,N,01618.1001187,E,0.0,,010125,5.1,E,D*12
$GPGLL,4742.1603845,N,01618.1001187,E,073102.00,A,D*63
$GPGGA,073102.00,4742.1603845,N,01618.1001187,E,2,39,0.4,707.5605,M,43.2066,M,1.7,0136*41
$GNGNS,073102.00,4742.1603845,N,01618.1001187,E,DAAA,39,0.4,707.5605,43.2066,,*5F
$GPGNS,073102.00,,,,,,09,,,,1.7,136*71
$GLGNS,073102.00,,,,,,10,,,,,*79
$GAGNS,073102.00,,,,,,08,,,,,*7D
$GBGNS,073102.00,,,,,,12,,,,,*75
$GPLLQ,073102.00,010125,,M,,M,1,39,1.019,,M*15
$GPVTG,,T,,M,0.00,N,0.01,K,D*27
$GPHDT,,T*1B
$GPTHS,,V*0E
$GPROT,,V*08
$PSSN,HRP,073102.00,010125,,,,,,,00,0,,*66
$PTNL,AVR,073102.00,,Yaw,,Tilt,,,,0,,00*30
$GPGSA,A,3,05,07,08,13,14,15,18,20,30,,,,0.7,0.4,0.5*35
$GPGSA,A,3,65,66,71,72,73,74,75,76,81,82,,,0.7,0.4,0.5*33
$GPGSA,A,3,02,03,05,08,13,15,24,25,,,,,0.7,0.4,0.5*3F
$GPGSA,A,3,05,07,09,10,21,22,26,36,40,42,45,60,0.7,0.4,0.5*39
$GPGST,073102.00,1.899,0.430,0.351,4.399,0.429,0.351,0.855*5E
$GPGBS,073102.00,2.857,2.243,5.335,72,0.0001,5.481,6.068*53
$GPGRS,073102.00,1,-0.0,-0.4,-0.2,0.1,0.2,0.4,0.0,-0.0,-0.3,,,*48
$GPGRS,073102.00,1,-2.8,-1.9,-1.7,5.5,3.6,4.1,-2.2,-4.1,1.6,-1.6,,*48
$GPGRS,073102.00,1,-1.5,-0.3,0.5,0.2,0.6,1.0,-0.3,-0.1,,,,*4C
$GPGRS,073102.00,1,2.3,-0.0,-0.7,-0.5,0.2,-0.1,-0.2,-0.5,-1.7,-0.4,-0.1,-0.2*4F
$GPGSV,5,1,20,30,73,059,50,15,15,300,41,08,11,054,39,14,47,155,47*70
$GPGSV,5,2,20,20,43,215,47,13,48,297,47,07,36,063,46,05,55,269,48*7C
$GPGSV,5,3,20,09,04,114,33,27,04,023,37,18,09,325,39,36,35,170,44*7B
$GPGSV,5,4,20,58,13,245,36,40,24,133,35,34,31,208,43,49,34,195,44*79
$GPGSV,5,5,20,57,07,112,37,41,07,108,35,61,03,257,38*4A
$GLGSV,3,1,10,75,66,192,52,72,57,123,50,74,53,044,46,65,59,324,49*6B
$GLGSV,3,2,10,73,10,036,43,71,08,132,40,66,09,316,44,76,08,209,43*60
$GLGSV,3,3,10,81,08,312,44,82,09,356,42*60
$GAGSV,3,1,11,03,77,317,48,15,14,250,38,02,11,188,38,13,18,302,40*6B
$GAGSV,3,2,11,08,25,294,42,24,42,065,45,25,48,146,47,05,45,103,46*62
$GAGSV,3,3,11,16,54,104,,26,02,349,35,31,04,031,35*57
$GBGSV,5,1,19,45,71,186,51,10,22,088,39,42,21,311,43,26,18,220,43*6B
$GBGSV,5,2,19,09,14,065,37,05,21,130,39,24,14,210,,07,21,075,39*6D
$GBGSV,5,3,19,40,20,067,41,22,50,148,50,50,46,304,,36,49,059,49*63
$GBGSV,5,4,19,21,70,289,52,19,00,138,,02,05,108,34,46,01,046,*68
$GBGSV,5,5,19,28,02,312,,56,09,094,,60,07,112,41*5A
$GPGGA,073102.00,,,,,0,00,,,M,,M,,*4F
$PTNL,GGK,073102.00,010125,4742.1603845,N,01618.1001187,E,1,39,0.7,EHT750.7671,M*4D
$GPGGQ,073102.00,010125,4742.1603845,N,01618.1001187,E,1,39,1.019,707.5605,M*3E
$GPGFA,073102.00,4.084,7.012,0.430,0.351,4.399,0.855,,VVV*07
$GPLLK,073102.00,010125,,M,,M,1,39,0.8,,M*0E
$GNGMP,073102.00,,,,,DAAA,39,0.4,,,,*5F
$GPGMP,073102.00,,,,,,09,,,,1.7,136*71
$GLGMP,073102.00,,,,,,10,,,,,*79
$GAGMP,073102.00,,,,,,08,,,,,*7D
$GBGMP,073102.00,,,,,,12,,,,,*75
$PSSN,SNC,[0,286280000,2347]*42
$GPZDA,073107.00,01,01,2025,,*61
$GPDTM,W84,,00.0000000,N,00.0000000,E,00.0000000,W84*5F
$PSSN,TFM,073107.00,,,,*6D
$GPRMC,073107.00,A,4742.1603855,N,01618.1001206,E,0.0,,010125,5.1,E,D*1C
$GPGLL,4742.1603855,N,01618.1001206,E,073107.00,A,D*6D
$GPGGA,073107.00,4742.1603855,N,01618.1001206,E,2,39,0.4,707.5637,M,43.2066,M,2.2,0136*48
$GNGNS,073107.00,4742.1603855,N,01618.1001206,E,DAAA,39,0.4,707.5637,43.2066,,*50
$GPGNS,073107.00,,,,,,09,,,,2.2,136*72
$GLGNS,073107.00,,,,,,10,,,,,*7C
$GAGNS,073107.00,,,,,,08,,,,,*78
$GBGNS,073107.00,,,,,,12,,,,,*70
$GPLLQ,073107.00,010125,,M,,M,1,39,1.009,,M*11
$GPVTG,,T,,M,0.00,N,0.00,K,D*26
$GPHDT,,T*1B
$GPTHS,,V*0E
$GPROT,,V*08
$PSSN,HRP,073107.00,010125,,,,,,,00,0,,*63
$PTNL,AVR,073107.00,,Yaw,,Tilt,,,,0,,00*35
$GPGSA,A,3,05,07,08,13,14,15,18,20,30,,,,0.7,0.4,0.5*35
$GPGSA,A,3,65,66,71,72,73,74,75,76,81,82,,,0.7,0.4,0.5*33
$GPGSA,A,3,02,03,05,08,13,15,24,25,,,,,0.7,0.4,0.5*3F
$GPGSA,A,3,05,07,09,10,21,22,26,36,40,42,45,60,0.7,0.4,0.5*39
$GPGST,073107.00,2.048,0.427,0.344,5.811,0.426,0.345,0.847*5D
$GPGBS,073107.00,2.868,2.217,5.370,72,0.0001,6.407,6.068*57
$GPGRS,073107.00,1,0.0,-0.6,0.1,0.4,0.1,-0.3,0.1,0.1,-0.2,,,*4C
$GPGRS,073107.00,1,-3.4,-2.6,-2.0,6.4,3.3,4.2,-2.1,-4.2,1.3,-2.5,,*49
$GPGRS,073107.00,1,-1.3,-0.3,0.5,-0.1,0.4,1.3,-0.2,0.2,,,,*4F
$GPGRS,073107.00,1,2.0,-0.4,-0.5,-0.2,0.2,-0.1,0.6,-0.3,-1.6,-0.1,0.1,-0.1*4D
$GPGSV,5,1,20,30,73,059,50,15,15,300,40,08,11,054,38,14,47,155,47*70
$GPGSV,5,2,20,20,43,215,47,13,48,297,47,07,36,063,46,05,55,269,48*7C
$GPGSV,5,3,20,09,04,114,32,27,04,023,37,18,09,325,39,36,35,170,44*7A
$GPGSV,5,4,20,58,13,245,36,40,24,133,36,34,31,208,43,49,34,195,44*7A
$GPGSV,5,5,20,57,07,112,37,41,07,108,35,61,03,257,38*4A
$GLGSV,3,1,10,75,66,192,52,72,57,123,51,74,53,044,46,65,59,324,49*6A
$GLGSV,3,2,10,73,10,036,42,71,08,132,40,66,10,316,43,76,08,209,43*6E
$GLGSV,3,3,10,81,08,312,44,82,09,356,40*62
$GAGSV,3,1,11,03,77,317,48,15,14,250,39,02,11,188,38,13,18,302,40*6A
$GAGSV,3,2,11,08,25,294,42,24,42,065,45,25,48,146,47,05,45,103,46*62
$GAGSV,3,3,11,16,54,104,,26,02,349,35,31,04,031,35*57
$GBGSV,5,1,19,45,71,186,52,10,22,088,39,42,21,311,44,24,14,210,*65
$GBGSV,5,2,19,09,14,065,37,05,21,130,39,26,18,220,44,07,21,075,39*60
$GBGSV,5,3,19,40,20,067,42,22,50,148,51,50,46,304,,36,49,059,49*61
$GBGSV,5,4,19,21,70,289,52,19,00,138,,02,05,108,34,46,01,047,*69
$GBGSV,5,5,19,28,02,312,,56,09,094,,60,07,112,41*5A
$GPGGA,073107.00,,,,,0,00,,,M,,M,,*4A
$PTNL,GGK,073107.00,010125,4742.1603855,N,01618.1001206,E,1,39,0.7,EHT750.7703,M*47
$GPGGQ,073107.00,010125,4742.1603855,N,01618.1001206,E,1,39,1.009,707.5637,M*30
$GPGFA,073107.00,4.061,6.945,0.427,0.344,5.811,0.847,,VVV*08
$GPLLK,073107.00,010125,,M,,M,1,39,0.8,,M*0B
$GNGMP,073107.00,,,,,DAAA,39,0.4,,,,*5A
$GPGMP,073107.00,,,,,,09,,,,2.2,136*72
$GLGMP,073107.00,,,,,,10,,,,,*7C
$GAGMP,073107.00,,,,,,08,,,,,*78
$GBGMP,073107.00,,,,,,12,,,,,*70
$PSSN,SNC,[0,286285000,2347]*47
$GPZDA,073112.00,01,01,2025,,*65
$GPDTM,W84,,00.0000000,N,00.0000000,E,00.0000000,W84*5F
$PSSN,TFM,073112.00,,,,*69
$GPRMC,073112.00,A,4742.1603850,N,01618.1001247,E,0.0,,010125,5.1,E,D*18
$GPGLL,4742.1603850,N,01618.1001247,E,073112.00,A,D*69
$GPGGA,073112.00,4742.1603850,N,01618.1001247,E,2,39,0.4,707.5612,M,43.2066,M,3.2,0136*4A
$GNGNS,073112.00,4742.1603850,N,01618.1001247,E,DAAA,39,0.4,707.5612,43.2066,,*53
$GPGNS,073112.00,,,,,,09,,,,3.2,136*77
$GLGNS,073112.00,,,,,,10,,,,,*78
$GAGNS,073112.00,,,,,,08,,,,,*7C
$GBGNS,073112.00,,,,,,12,,,,,*74
$GPLLQ,073112.00,010125,,M,,M,1,39,1.012,,M*1F
$GPVTG,,T,,M,0.00,N,0.01,K,D*27
$GPHDT,,T*1B
$GPTHS,,V*0E
$GPROT,,V*08
$PSSN,HRP,073112.00,010125,,,,,,,00,0,,*67
$PTNL,AVR,073112.00,,Yaw,,Tilt,,,,0,,00*31
$GPGSA,A,3,05,07,08,13,14,15,18,20,30,,,,0.7,0.4,0.6*36
$GPGSA,A,3,65,66,71,72,73,74,75,76,81,82,,,0.7,0.4,0.6*30
$GPGSA,A,3,02,03,05,08,13,15,24,25,,,,,0.7,0.4,0.6*3C
$GPGSA,A,3,05,07,09,10,21,22,26,36,40,42,45,60,0.7,0.4,0.6*3A
$GPGST,073112.00,1.991,0.432,0.349,4.721,0.431,0.349,0.846*58
$GPGBS,073112.00,2.917,2.247,5.440,72,0.0001,6.346,6.068*59
$GPGRS,073112.00,1,-0.2,-0.4,-0.2,0.6,0.1,-0.2,0.3,-0.0,-0.0,,,*64
$GPGRS,073112.00,1,-3.4,-3.3,-1.0,6.3,2.7,3.9,-2.2,-3.9,1.3,-2.4,,*4A
$GPGRS,073112.00,1,-1.3,-0.3,0.5,-0.3,0.0,1.0,0.0,0.2,,,,*61
$GPGRS,073112.00,1,2.3,-1.1,-0.2,-0.0,0.1,-0.0,0.4,-0.4,-1.5,-0.5,0.1,0.0*67
$GPGSV,5,1,20,30,73,059,50,15,15,300,40,08,11,054,38,14,47,154,47*71
$GPGSV,5,2,20,20,43,215,47,13,48,297,47,07,36,063,46,05,55,269,48*7C
$GPGSV,5,3,20,09,04,114,32,27,04,023,36,18,09,325,39,36,35,170,44*7B
$GPGSV,5,4,20,58,13,245,36,40,24,133,35,34,31,208,43,49,34,195,44*79
$GPGSV,5,5,20,57,07,112,37,41,07,108,35,61,03,257,38*4A
$GLGSV,3,1,10,75,66,192,52,72,57,123,51,74,53,044,46,65,59,324,49*6A
$GLGSV,3,2,10,73,10,036,42,71,08,132,40,66,10,316,44,76,08,209,43*69
$GLGSV,3,3,10,81,08,312,45,82,09,356,41*62
$GAGSV,3,1,11,03,77,317,48,15,14,250,39,02,11,188,38,13,18,302,40*6A
$GAGSV,3,2,11,08,25,294,42,24,42,065,45,25,48,146,47,05,45,103,46*62
$GAGSV,3,3,11,16,54,104,,26,02,349,36,31,04,031,35*54
$GBGSV,5,1,19,45,71,186,52,10,22,088,39,42,21,311,43,24,14,210,*62
$GBGSV,5,2,19,09,14,065,37,05,21,130,39,26,18,220,43,07,21,075,39*67
$GBGSV,5,3,19,40,20,067,42,22,50,148,51,50,46,304,,36,49,059,49*61
$GBGSV,5,4,19,21,70,289,52,19,00,138,,02,05,108,34,46,01,047,*69
$GBGSV,5,5,19,28,02,312,,56,09,094,,60,07,112,41*5A
$GPGGA,073112.00,,,,,0,00,,,M,,M,,*4E
$PTNL,GGK,073112.00,010125,4742.1603850,N,01618.1001247,E,1,39,0.7,EHT750.7677,M*41
$GPGGQ,073112.00,010125,4742.1603850,N,01618.1001247,E,1,39,1.012,707.5612,M*39
$GPGFA,073112.00,4.105,6.940,0.432,0.349,4.721,0.846,,VVV*0F
$GPLLK,073112.00,010125,,M,,M,1,39,0.8,,M*0F
$GNGMP,073112.00,,,,,DAAA,39,0.4,,,,*5E
$GPGMP,073112.00,,,,,,09,,,,3.2,136*77
$GLGMP,073112.00,,,,,,10,,,,,*78
$GAGMP,073112.00,,,,,,08,,,,,*7C
$GBGMP,073112.00,,,,,,12,,,,,*74
$PSSN,SNC,[0,286290000,2347]*43
$GPZDA,073117.00,01,01,2025,,*60
$GPDTM,W84,,00.0000000,N,00.0000000,E,00.0000000,W84*5F
$PSSN,TFM,073117.00,,,,*6C
$GPRMC,073117.00,A,4742.1603855,N,01618.1001251,E,0.0,,010125,5.1,E,D*1F
$GPGLL,4742.1603855,N,01618.1001251,E,073117.00,A,D*6E
$GPGGA,073117.00,4742.1603855,N,01618.1001251,E,2,39,0.4,707.5584,M,43.2066,M,2.9,0136*4B
$GNGNS,073117.00,4742.1603855,N,01618.1001251,E,DAAA,39,0.4,707.5584,43.2066,,*58
$GPGNS,073117.00,,,,,,09,,,,2.9,136*78
$GLGNS,073117.00,,,,,,10,,,,,*7D
$GAGNS,073117.00,,,,,,08,,,,,*79
$GBGNS,073117.00,,,,,,12,,,,,*71
$GPLLQ,073117.00,010125,,M,,M,1,39,1.023,,M*18
$GPVTG,,T,,M,0.00,N,0.00,K,D*26
$GPHDT,,T*1B
$GPTHS,,V*0E
$GPROT,,V*08
$PSSN,HRP,073117.00,010125,,,,,,,00,0,,*62
$PTNL,AVR,073117.00,,Yaw,,Tilt,,,,0,,00*34
$GPGSA,A,3,05,07,08,13,14,15,18,20,30,,,,0.7,0.4,0.6*36
$GPGSA,A,3,65,66,71,72,73,74,75,76,81,82,,,0.7,0.4,0.6*30
$GPGSA,A,3,02,03,05,08,13,15,24,25,,,,,0.7,0.4,0.6*3C
$GPGSA,A,3,05,07,09,10,21,22,26,36,40,42,45,60,0.7,0.4,0.6*3A
$GPGST,073117.00,1.836,0.435,0.354,3.439,0.435,0.354,0.855*5D
$GPGBS,073117.00,2.993,2.270,5.414,72,0.0001,5.629,6.068*5A
$GPGRS,073117.00,1,-0.3,-0.3,-0.3,0.2,-0.0,0.4,0.2,0.2,0.0,,,*66
$GPGRS,073117.00,1,-3.5,-2.5,-1.6,5.6,2.3,3.4,-2.2,-3.5,2.0,-1.9,,*42
$GPGRS,073117.00,1,-1.5,-0.1,0.4,-0.2,0.2,0.8,-0.2,0.1,,,,*47
$GPGRS,073117.00,1,1.9,-1.0,-1.0,-0.3,0.2,0.0,0.2,-0.4,-1.9,-0.6,-0.1,0.0*60
$GPGSV,5,1,20,30,73,059,50,15,15,300,41,08,11,054,38,14,47,154,47*70
$GPGSV,5,2,20,20,43,215,47,07,36,063,46,13,48,297,47,05,55,269,48*7C
$GPGSV,5,3,20,09,04,114,32,27,04,023,37,18,09,325,39,36,35,170,45*7B
$GPGSV,5,4,20,58,13,245,36,40,24,133,36,34,31,208,43,49,34,195,44*7A
$GPGSV,5,5,20,57,07,112,37,41,07,108,35,61,03,257,38*4A
$GLGSV,3,1,10,75,66,192,52,72,57,123,51,74,53,044,46,65,59,324,49*6A
$GLGSV,3,2,10,73,10,036,42,71,08,132,40,66,10,316,44,76,08,209,43*69
$GLGSV,3,3,10,81,08,311,44,82,09,356,42*63
$GAGSV,3,1,11,03,77,317,48,15,14,250,39,02,11,188,38,13,18,302,40*6A
$GAGSV,3,2,11,08,25,294,42,24,42,065,45,25,48,146,47,05,45,103,46*62
$GAGSV,3,3,11,16,54,104,,26,02,349,37,31,04,031,35*55
$GBGSV,5,1,19,45,71,186,52,10,22,088,39,42,21,311,43,24,14,210,*62
$GBGSV,5,2,19,09,14,065,37,05,21,130,39,26,18,220,43,07,21,075,38*66
$GBGSV,5,3,19,40,20,067,42,22,50,148,51,50,46,304,,36,49,059,49*61
$GBGSV,5,4,19,21,70,288,52,19,00,138,,02,05,108,34,46,00,047,*69
$GBGSV,5,5,19,28,02,312,,56,09,094,,60,07,112,41*5A
$GPGGA,073117.00,,,,,0,00,,,M,,M,,*4B
$PTNL,GGK,073117.00,010125,4742.1603855,N,01618.1001251,E,1,39,0.7,EHT750.7650,M*43
$GPGGQ,073117.00,010125,4742.1603855,N,01618.1001251,E,1,39,1.023,707.5584,M*30
$GPGFA,073117.00,4.138,7.014,0.435,0.354,3.439,0.855,,VVV*09
$GPLLK,073117.00,010125,,M,,M,1,39,0.8,,M*0A
$GNGMP,073117.00,,,,,DAAA,39,0.4,,,,*5B
$GPGMP,073117.00,,,,,,09,,,,2.9,136*78
$GLGMP,073117.00,,,,,,10,,,,,*7D
$GAGMP,073117.00,,,,,,08,,,,,*79
$GBGMP,073117.00,,,,,,12,,,,,*71
$PSSN,SNC,[0,286295000,2347]*46
$GPZDA,073122.00,01,01,2025,,*66
$GPDTM,W84,,00.0000000,N,00.0000000,E,00.0000000,W84*5F
$PSSN,TFM,073122.00,,,,*6A
$GPRMC,073122.00,A,4742.1603851,N,01618.1001264,E,0.0,,010125,5.1,E,D*1B
$GPGLL,4742.1603851,N,01618.1001264,E,073122.00,A,D*6A
$GPGGA,073122.00,4742.1603851,N,01618.1001264,E,2,39,0.4,707.5627,M,43.2066,M,1.7,0136*48
$GNGNS,073122.00,4742.1603851,N,01618.1001264,E,DAAA,39,0.4,707.5627,43.2066,,*56
$GPGNS,073122.00,,,,,,09,,,,1.7,136*73
$GLGNS,073122.00,,,,,,10,,,,,*7B
$GAGNS,073122.00,,,,,,08,,,,,*7F
$GBGNS,073122.00,,,,,,12,,,,,*77
$GPLLQ,073122.00,010125,,M,,M,1,39,1.019,,M*17
$GPVTG,,T,,M,0.00,N,0.00,K,D*26
$GPHDT,,T*1B
$GPTHS,,V*0E
$GPROT,,V*08
$PSSN,HRP,073122.00,010125,,,,,,,00,0,,*64
$PTNL,AVR,073122.00,,Yaw,,Tilt,,,,0,,00*32
$GPGSA,A,3,05,07,08,13,14,15,18,20,30,,,,0.7,0.4,0.6*36
$GPGSA,A,3,65,66,71,72,73,74,75,76,81,82,,,0.7,0.4,0.6*30
$GPGSA,A,3,02,03,05,08,13,15,24,25,,,,,0.7,0.4,0.6*3C
$GPGSA,A,3,05,07,09,10,21,22,26,36,40,42,45,60,0.7,0.4,0.6*3A
$GPGST,073122.00,1.893,0.429,0.351,4.171,0.429,0.351,0.855*5A
$GPGBS,073122.00,2.869,2.236,5.326,72,0.0001,5.683,6.068*5C
$GPGRS,073122.00,1,0.1,-0.2,0.6,-0.1,-0.0,0.3,-0.4,0.0,0.0,,,*66
$GPGRS,073122.00,1,-3.3,-2.1,-1.8,5.7,3.0,4.0,-2.4,-3.0,3.0,-0.9,,*4B
$GPGRS,073122.00,1,-1.7,-0.0,0.6,-0.5,0.1,0.8,-0.2,0.2,,,,*47
$GPGRS,073122.00,1,1.9,-0.2,-1.0,0.1,0.1,0.1,0.7,-0.5,-1.8,-0.2,-0.0,-0.3*66
$GPGSV,5,1,20,30,73,059,50,15,15,300,40,08,11,053,38,14,47,154,47*76
