$GPZDA,002942.00,01,01,2025,,*6E
$GPDTM,W84,,00.0000000,N,00.0000000,E,00.0000000,W84*5F
$PSSN,TFM,002942.00,,,,*62
$GPRMC,002942.00,A,4742.1602020,N,01618.1003210,E,0.0,,010125,5.1,E,D*1D
$GPGLL,4742.1602020,N,01618.1003210,E,002942.00,A,D*6C
$GPGGA,002942.00,4742.1602020,N,01618.1003210,E,2,39,0.4,708.1415,M,43.2066,M,2.8,0136*4A
$GNGNS,002942.00,4742.1602020,N,01618.1003210,E,DAAA,39,0.4,708.1415,43.2066,,*58
$GPGNS,002942.00,,,,,,10,,,,2.8,136*7F
$GLGNS,002942.00,,,,,,07,,,,,*75
$GAGNS,002942.00,,,,,,10,,,,,*7E
$GBGNS,002942.00,,,,,,12,,,,,*7F
$GPLLQ,002942.00,010125,,M,,M,1,39,0.882,,M*14
$GPVTG,,T,,M,0.00,N,0.01,K,D*27
$GPHDT,,T*1B
$GPTHS,,V*0E
$GPROT,,V*08
$PSSN,HRP,002942.00,010125,,,,,,,00,0,,*6C
$PTNL,AVR,002942.00,,Yaw,,Tilt,,,,0,,00*3A
$GPGSA,A,3,02,03,04,08,17,19,21,28,31,32,,,0.7,0.4,0.6*3E
$GPGSA,A,3,68,69,70,77,83,84,85,,,,,,0.7,0.4,0.6*3B
$GPGSA,A,3,02,04,06,09,10,11,12,19,30,36,,,0.7,0.4,0.6*32
$GPGSA,A,3,05,06,09,16,19,20,29,30,32,35,39,60,0.7,0.4,0.6*33
$GPGST,002942.00,1.187,0.441,0.345,32.280,0.415,0.374,0.682*61
$GPGBS,002942.00,2.502,1.980,4.100,08,0.0001,-1.063,1.237*75
$GPGRS,002942.00,1,0.1,0.3,0.7,-1.1,-0.1,0.0,-0.3,0.8,0.1,-0.4,,*49
$GPGRS,002942.00,1,3.7,0.4,1.1,-3.0,-3.4,-0.3,0.1,,,,,*46
$GPGRS,002942.00,1,-0.1,0.0,0.1,0.4,0.4,-0.1,-0.6,-0.6,0.8,0.0,,*4A
$GPGRS,002942.00,1,1.0,0.9,0.4,0.4,-0.2,-0.2,0.1,0.4,0.0,-1.4,-0.0,-1.0*67
$GPGSV,6,1,21,01,85,116,,04,22,199,41,28,23,087,41,19,12,324,40*7C
$GPGSV,6,2,21,32,25,047,43,31,16,116,42,17,35,302,45,21,58,136,45*72
$GPGSV,6,3,21,03,61,274,49,02,80,151,50,14,00,268,19,08,10,181,37*79
$GPGSV,6,4,21,36,35,170,45,58,13,245,37,40,24,132,35,34,31,208,42*79
$GPGSV,6,5,21,49,34,195,43,57,10,109,37,41,07,108,34,61,03,257,37*7A
$GPGSV,6,6,21*7A
$GLGSV,2,1,08,69,84,021,52,83,15,143,35,70,26,224,39,85,41,322,49*6D
$GLGSV,2,2,08,68,31,039,47,84,81,144,40,77,08,014,38,76,04,332,44*69
$GAGSV,3,1,11,11,76,110,44,19,20,043,35,12,22,120,37,09,39,186,45*69
$GAGSV,3,2,11,10,46,118,46,06,58,161,48,36,50,306,46,04,64,102,47*60
$GAGSV,3,3,11,30,07,325,38,34,00,302,,02,07,277,36*57
$GBGSV,5,1,17,20,73,228,52,35,21,314,44,57,11,094,,22,20,222,*6C
$GBGSV,5,2,17,05,24,128,38,30,33,164,46,19,23,232,44,06,27,071,40*60
$GBGSV,5,3,17,09,27,086,41,39,27,056,43,16,28,067,42,32,46,055,48*62
$GBGSV,5,4,17,48,50,231,,29,67,250,51,13,04,080,36,02,08,105,34*6E
$GBGSV,5,5,17,60,10,109,40*56
$GPGGA,002942.00,,,,,0,00,,,M,,M,,*45
$PTNL,GGK,002942.00,010125,4742.1602020,N,01618.1003210,E,1,39,0.7,EHT751.3481,M*4A
$GPGGQ,002942.00,010125,4742.1602020,N,01618.1003210,E,1,39,0.882,708.1415,M*32
$GPGFA,002942.00,4.189,5.593,0.441,0.345,32.280,0.682,,VVV*34
$GPLLK,002942.00,010125,,M,,M,1,39,0.8,,M*04
$GNGMP,002942.00,,,,,DAAA,39,0.4,,,,*55
$GPGMP,002942.00,,,,,,10,,,,2.8,136*7F
$GLGMP,002942.00,,,,,,07,,,,,*75
$GAGMP,002942.00,,,,,,10,,,,,*7E
$GBGMP,002942.00,,,,,,12,,,,,*7F
$PSSN,SNC,[0,261000000,2347]*41
$GPZDA,002947.00,01,01,2025,,*6B
$GPDTM,W84,,00.0000000,N,00.0000000,E,00.0000000,W84*5F
$PSSN,TFM,002947.00,,,,*67
$GPRMC,002947.00,A,4742.1602034,N,01618.1003205,E,0.0,,010125,5.1,E,D*19
$GPGLL,4742.1602034,N,01618.1003205,E,002947.00,A,D*68
$GPGGA,002947.00,4742.1602034,N,01618.1003205,E,2,38,0.4,708.1419,M,43.2066,M,2.2,0136*49
$GNGNS,002947.00,4742.1602034,N,01618.1003205,E,DAAA,38,0.4,708.1419,43.2066,,*51
$GPGNS,002947.00,,,,,,10,,,,2.2,136*70
$GLGNS,002947.00,,,,,,07,,,,,*70
$GAGNS,002947.00,,,,,,09,,,,,*73
$GBGNS,002947.00,,,,,,12,,,,,*7A
$GPLLQ,002947.00,010125,,M,,M,1,38,0.876,,M*1B
$GPVTG,,T,,M,0.01,N,0.01,K,D*26
$GPHDT,,T*1B
$GPTHS,,V*0E
$GPROT,,V*08
$PSSN,HRP,002947.00,010125,,,,,,,00,0,,*69
$PTNL,AVR,002947.00,,Yaw,,Tilt,,,,0,,00*3F
$GPGSA,A,3,02,03,04,08,17,19,21,28,31,32,,,0.7,0.4,0.6*3E
$GPGSA,A,3,68,69,70,77,83,84,85,,,,,,0.7,0.4,0.6*3B
$GPGSA,A,3,02,04,06,09,10,11,12,30,36,,,,0.7,0.4,0.6*3A
$GPGSA,A,3,05,06,09,16,19,20,29,30,32,35,39,60,0.7,0.4,0.6*33
$GPGST,002947.00,1.238,0.443,0.339,32.796,0.415,0.372,0.676*65
$GPGBS,002947.00,2.495,1.980,4.095,08,0.0001,-0.987,1.208*7C
$GPGRS,002947.00,1,-0.2,-0.1,0.5,-1.0,-0.0,0.1,0.2,0.7,0.1,-0.6,,*6F
$GPGRS,002947.00,1,4.1,0.7,1.2,-3.6,-2.4,-0.2,0.4,,,,,*41
$GPGRS,002947.00,1,0.1,0.1,0.0,0.4,0.6,-0.1,-0.4,0.3,0.3,,,*6F
$GPGRS,002947.00,1,1.4,0.5,0.8,0.8,0.2,-0.1,0.2,0.2,0.3,-1.6,-0.1,-0.9*49
$GPGSV,6,1,21,01,85,116,,04,22,199,41,28,23,087,41,19,12,324,39*72
$GPGSV,6,2,21,32,25,047,44,31,16,116,41,17,35,302,45,21,58,136,45*76
$GPGSV,6,3,21,03,61,274,49,02,80,151,49,14,00,268,,08,10,181,38*76
$GPGSV,6,4,21,36,35,170,44,58,13,245,37,40,24,132,36,34,31,208,41*78
$GPGSV,6,5,21,49,34,195,43,57,10,109,37,41,07,108,34,61,03,257,37*7A
$GPGSV,6,6,21*7A
$GLGSV,2,1,08,69,84,021,52,83,15,143,35,70,26,224,38,85,41,322,50*64
$GLGSV,2,2,08,68,31,039,48,84,81,144,41,77,08,014,37,76,04,332,43*6F
$GAGSV,3,1,11,11,76,110,44,19,20,043,35,12,22,120,37,09,39,186,45*69
$GAGSV,3,2,11,10,46,118,46,06,58,160,47,36,50,306,46,04,64,102,47*6E
$GAGSV,3,3,11,30,07,325,37,34,00,302,,02,07,277,37*59
$GBGSV,5,1,17,20,73,228,52,35,21,314,44,57,11,094,,22,20,222,*6C
$GBGSV,5,2,17,05,24,128,38,30,33,164,46,19,23,232,44,06,27,071,41*61
$GBGSV,5,3,17,09,27,086,41,39,27,056,43,16,28,067,42,32,46,055,49*63
$GBGSV,5,4,17,48,50,231,,29,67,250,51,13,04,080,36,02,08,105,34*6E
$GBGSV,5,5,17,60,10,109,40*56
$GPGGA,002947.00,,,,,0,00,,,M,,M,,*40
$PTNL,GGK,002947.00,010125,4742.1602034,N,01618.1003205,E,1,38,0.7,EHT751.3484,M*4A
$GPGGQ,002947.00,010125,4742.1602034,N,01618.1003205,E,1,38,0.876,708.1419,M*30
$GPGFA,002947.00,4.209,5.543,0.443,0.339,32.796,0.676,,VVV*37
$GPLLK,002947.00,010125,,M,,M,1,38,0.8,,M*00
$GNGMP,002947.00,,,,,DAAA,38,0.4,,,,*51
$GPGMP,002947.00,,,,,,10,,,,2.2,136*70
$GLGMP,002947.00,,,,,,07,,,,,*70
$GAGMP,002947.00,,,,,,09,,,,,*73
$GBGMP,002947.00,,,,,,12,,,,,*7A
$PSSN,SNC,[0,261005000,2347]*44
$GPZDA,002952.00,01,01,2025,,*6F
$GPDTM,W84,,00.0000000,N,00.0000000,E,00.0000000,W84*5F
$PSSN,TFM,002952.00,,,,*63
$GPRMC,002952.00,A,4742.1602032,N,01618.1003210,E,0.0,,010125,5.1,E,D*1F
$GPGLL,4742.1602032,N,01618.1003210,E,002952.00,A,D*6E
$GPGGA,002952.00,4742.1602032,N,01618.1003210,E,2,39,0.4,708.1436,M,43.2066,M,2.0,0136*41
$GNGNS,002952.00,4742.1602032,N,01618.1003210,E,DAAA,39,0.4,708.1436,43.2066,,*5B
$GPGNS,002952.00,,,,,,10,,,,2.0,136*76
$GLGNS,002952.00,,,,,,07,,,,,*74
$GAGNS,002952.00,,,,,,10,,,,,*7F
$GBGNS,002952.00,,,,,,12,,,,,*7E
$GPLLQ,002952.00,010125,,M,,M,1,39,0.868,,M*11
$GPVTG,,T,,M,0.00,N,0.00,K,D*26
$GPHDT,,T*1B
$GPTHS,,V*0E
$GPROT,,V*08
$PSSN,HRP,002952.00,010125,,,,,,,00,0,,*6D
$PTNL,AVR,002952.00,,Yaw,,Tilt,,,,0,,00*3B
$GPGSA,A,3,02,03,04,08,17,19,21,28,31,32,,,0.7,0.4,0.6*3E
$GPGSA,A,3,68,69,70,77,83,84,85,,,,,,0.7,0.4,0.6*3B
$GPGSA,A,3,02,04,06,09,10,11,12,19,30,36,,,0.7,0.4,0.6*32
$GPGSA,A,3,05,06,09,16,19,20,29,30,32,35,39,60,0.7,0.4,0.6*33
$GPGST,002952.00,1.279,0.438,0.341,32.476,0.412,0.371,0.668*61
$GPGBS,002952.00,2.465,1.965,4.146,04,0.0001,0.900,0.978*50
$GPGRS,002952.00,1,-0.1,-0.1,0.9,-1.0,0.2,0.1,0.2,0.4,-0.5,-0.6,,*61
$GPGRS,002952.00,1,4.3,0.4,-0.4,-4.1,-2.6,-0.4,0.6,,,,,*68
$GPGRS,002952.00,1,0.1,0.1,0.1,0.4,0.7,-0.3,-0.3,-0.9,-0.5,0.1,,*4D
$GPGRS,002952.00,1,0.8,0.1,1.0,0.9,-0.0,-0.1,0.0,0.5,0.3,-1.3,-0.1,-0.9*63
$GPGSV,6,1,21,01,85,117,,04,22,199,41,28,23,087,41,19,12,324,39*73
$GPGSV,6,2,21,32,25,047,43,31,16,116,41,17,35,302,45,21,58,136,45*71
$GPGSV,6,3,21,03,61,274,49,02,80,151,50,14,00,268,,08,10,181,38*7E
$GPGSV,6,4,21,36,35,170,45,58,13,245,37,40,24,132,36,34,31,208,42*7A
$GPGSV,6,5,21,49,34,195,43,57,10,109,37,41,07,108,34,61,03,257,37*7A
$GPGSV,6,6,21*7A
$GLGSV,2,1,08,69,84,021,52,83,15,143,35,70,26,225,38,85,41,322,50*65
$GLGSV,2,2,08,68,31,039,48,84,81,144,41,77,08,014,37,76,04,332,44*68
$GAGSV,3,1,11,11,76,110,44,19,20,043,35,12,22,120,37,09,39,186,45*69
$GAGSV,3,2,11,10,46,118,46,06,58,160,47,36,50,306,46,04,64,101,47*6D
$GAGSV,3,3,11,30,07,325,38,34,00,302,,02,07,277,36*57
$GBGSV,5,1,17,20,73,228,52,35,21,314,44,57,11,094,,22,20,222,*6C
$GBGSV,5,2,17,05,24,128,38,30,33,164,47,19,23,232,44,06,27,071,40*61
$GBGSV,5,3,17,09,27,086,41,39,27,056,43,16,28,067,42,32,46,055,49*63
$GBGSV,5,4,17,48,50,231,,29,67,250,51,13,04,080,36,02,08,105,34*6E
$GBGSV,5,5,17,60,10,109,40*56
$GPGGA,002952.00,,,,,0,00,,,M,,M,,*44
$PTNL,GGK,002952.00,010125,4742.1602032,N,01618.1003210,E,1,39,0.7,EHT751.3501,M*41
$GPGGQ,002952.00,010125,4742.1602032,N,01618.1003210,E,1,39,0.868,708.1436,M*35
$GPGFA,002952.00,4.164,5.477,0.438,0.341,32.476,0.668,,VVV*3C
$GPLLK,002952.00,010125,,M,,M,1,39,0.8,,M*05
$GNGMP,002952.00,,,,,DAAA,39,0.4,,,,*54
$GPGMP,002952.00,,,,,,10,,,,2.0,136*76
$GLGMP,002952.00,,,,,,07,,,,,*74
$GAGMP,002952.00,,,,,,10,,,,,*7F
$GBGMP,002952.00,,,,,,12,,,,,*7E
$PSSN,SNC,[0,261010000,2347]*40
$GPZDA,002957.00,01,01,2025,,*6A
$GPDTM,W84,,00.0000000,N,00.0000000,E,00.0000000,W84*5F
$PSSN,TFM,002957.00,,,,*66
$GPRMC,002957.00,A,4742.1602048,N,01618.1003229,E,0.0,,010125,5.1,E,D*1D
$GPGLL,4742.1602048,N,01618.1003229,E,002957.00,A,D*6C
$GPGGA,002957.00,4742.1602048,N,01618.1003229,E,2,38,0.4,708.1428,M,43.2066,M,3.0,0136*4C
$GNGNS,002957.00,4742.1602048,N,01618.1003229,E,DAAA,38,0.4,708.1428,43.2066,,*57
$GPGNS,002957.00,,,,,,10,,,,3.0,136*72
$GLGNS,002957.00,,,,,,07,,,,,*71
$GAGNS,002957.00,,,,,,09,,,,,*72
$GBGNS,002957.00,,,,,,12,,,,,*7B
$GPLLQ,002957.00,010125,,M,,M,1,38,0.877,,M*1B
$GPVTG,,T,,M,0.00,N,0.00,K,D*26
$GPHDT,,T*1B
$GPTHS,,V*0E
$GPROT,,V*08
$PSSN,HRP,002957.00,010125,,,,,,,00,0,,*68
$PTNL,AVR,002957.00,,Yaw,,Tilt,,,,0,,00*3E
$GPGSA,A,3,02,03,04,08,17,19,21,28,31,32,,,0.7,0.4,0.6*3E
$GPGSA,A,3,68,69,70,77,83,84,85,,,,,,0.7,0.4,0.6*3B
$GPGSA,A,3,02,04,06,09,10,11,12,30,36,,,,0.7,0.4,0.6*3A
$GPGSA,A,3,05,06,09,16,19,20,29,30,32,35,39,60,0.7,0.4,0.6*33
$GPGST,002957.00,1.371,0.439,0.345,31.647,0.415,0.373,0.676*61
$GPGBS,002957.00,2.497,2.002,4.219,04,0.0001,1.016,0.989*5B
$GPGRS,002957.00,1,-0.2,-0.1,1.0,-1.2,0.1,0.3,0.1,0.2,-0.1,-0.2,,*69
$GPGRS,002957.00,1,3.7,0.7,0.6,-4.5,-3.7,-0.4,0.4,,,,,*44
$GPGRS,002957.00,1,0.3,-0.0,0.0,0.6,0.6,-0.3,0.0,-0.0,-0.2,,,*6B
$GPGRS,002957.00,1,1.7,-0.2,1.0,0.2,0.2,-0.1,0.1,0.4,0.4,-1.0,-0.4,-1.0*6B
$GPGSV,6,1,21,01,85,117,,04,22,199,42,28,23,087,41,19,12,324,40*7E
$GPGSV,6,2,21,32,25,047,43,31,16,116,41,17,35,302,45,21,58,136,46*72
$GPGSV,6,3,21,03,61,274,49,02,80,151,50,14,00,268,,08,10,181,38*7E
$GPGSV,6,4,21,36,35,170,45,58,13,245,37,40,24,132,35,34,31,208,42*79
$GPGSV,6,5,21,49,34,195,44,57,10,109,38,41,07,108,34,61,03,257,37*72
$GPGSV,6,6,21*7A
$GLGSV,2,1,08,69,84,021,52,83,15,143,35,70,26,225,38,85,41,322,50*65
$GLGSV,2,2,08,68,31,039,48,84,81,144,41,77,08,014,37,76,04,332,44*68
$GAGSV,3,1,11,11,76,110,44,19,20,043,35,12,22,120,37,09,39,186,45*69
$GAGSV,3,2,11,10,46,118,45,06,58,160,47,36,50,306,46,04,64,101,47*6E
$GAGSV,3,3,11,30,07,325,37,34,00,302,35,02,07,277,36*5E
$GBGSV,5,1,17,20,73,228,52,35,21,314,44,57,11,094,,22,20,222,*6C
$GBGSV,5,2,17,05,24,128,38,30,33,164,46,19,23,232,44,06,27,071,40*60
$GBGSV,5,3,17,09,27,086,41,39,27,056,43,16,28,067,42,32,46,055,49*63
$GBGSV,5,4,17,48,50,231,,29,67,250,51,13,04,080,36,02,08,105,34*6E
$GBGSV,5,5,17,60,10,109,40*56
$GPGGA,002957.00,,,,,0,00,,,M,,M,,*41
$PTNL,GGK,002957.00,010125,4742.1602048,N,01618.1003229,E,1,38,0.7,EHT751.3493,M*48
$GPGGQ,002957.00,010125,4742.1602048,N,01618.1003229,E,1,38,0.877,708.1428,M*37
$GPGFA,002957.00,4.175,5.547,0.439,0.345,31.647,0.676,,VVV*32
$GPLLK,002957.00,010125,,M,,M,1,38,0.8,,M*01
$GNGMP,002957.00,,,,,DAAA,38,0.4,,,,*50
$GPGMP,002957.00,,,,,,10,,,,3.0,136*72
$GLGMP,002957.00,,,,,,07,,,,,*71
$GAGMP,002957.00,,,,,,09,,,,,*72
$GBGMP,002957.00,,,,,,12,,,,,*7B
$PSSN,SNC,[0,261015000,2347]*45
$GPZDA,003002.00,01,01,2025,,*62
$GPDTM,W84,,00.0000000,N,00.0000000,E,00.0000000,W84*5F
$PSSN,TFM,003002.00,,,,*6E
$GPRMC,003002.00,A,4742.1602051,N,01618.1003255,E,0.0,,010125,5.1,E,D*16
$GPGLL,4742.1602051,N,01618.1003255,E,003002.00,A,D*67
$GPGGA,003002.00,4742.1602051,N,01618.1003255,E,2,38,0.4,708.1413,M,43.2066,M,2.8,0136*46
$GNGNS,003002.00,4742.1602051,N,01618.1003255,E,DAAA,38,0.4,708.1413,43.2066,,*54
$GPGNS,003002.00,,,,,,10,,,,2.8,136*73
$GLGNS,003002.00,,,,,,07,,,,,*79
$GAGNS,003002.00,,,,,,09,,,,,*7A
$GBGNS,003002.00,,,,,,12,,,,,*73
$GPLLQ,003002.00,010125,,M,,M,1,38,0.884,,M*1F
$GPVTG,,T,,M,0.00,N,0.01,K,D*27
$GPHDT,,T*1B
$GPTHS,,V*0E
$GPROT,,V*08
$PSSN,HRP,003002.00,010125,,,,,,,00,0,,*60
$PTNL,AVR,003002.00,,Yaw,,Tilt,,,,0,,00*36
$GPGSA,A,3,02,03,04,08,17,19,21,28,31,32,,,0.7,0.4,0.6*3E
$GPGSA,A,3,68,69,70,77,83,84,85,,,,,,0.7,0.4,0.6*3B
$GPGSA,A,3,02,04,06,09,10,11,12,30,36,,,,0.7,0.4,0.6*3A
$GPGSA,A,3,05,06,09,16,19,20,29,30,32,35,39,60,0.7,0.4,0.6*33
$GPGST,003002.00,1.330,0.442,0.345,32.097,0.417,0.375,0.683*66
$GPGBS,003002.00,2.520,1.995,4.106,04,0.0001,1.021,1.001*5B
$GPGRS,003002.00,1,-0.1,-0.1,1.0,-1.0,-0.1,0.5,0.1,0.2,-0.3,-0.3,,*48
$GPGRS,003002.00,1,4.2,0.6,0.2,-3.2,-4.2,-0.7,0.6,,,,,*48
$GPGRS,003002.00,1,-0.3,-0.0,0.2,0.4,0.5,-0.2,-0.3,0.1,0.0,,,*61
$GPGRS,003002.00,1,1.1,-0.7,0.9,-0.0,0.2,-0.2,0.2,-0.1,0.2,-1.0,-0.4,-1.0*69
$GPGSV,6,1,21,01,85,117,,04,22,199,42,28,23,087,42,19,12,324,40*7D
$GPGSV,6,2,21,32,25,047,42,31,16,116,41,17,35,302,45,21,58,136,45*70
$GPGSV,6,3,21,03,61,275,49,02,80,151,50,14,00,268,,08,10,181,38*7F
$GPGSV,6,4,21,36,35,170,45,58,13,245,37,40,24,132,36,34,31,208,42*7A
$GPGSV,6,5,21,49,34,195,44,57,10,109,38,41,07,108,34,61,03,257,37*72
$GPGSV,6,6,21*7A
$GLGSV,2,1,08,69,84,021,52,83,15,143,35,70,26,225,38,85,41,322,50*65
$GLGSV,2,2,08,68,31,039,48,84,81,144,40,77,08,014,38,76,03,332,43*66
$GAGSV,3,1,11,11,76,110,44,19,20,043,35,12,22,120,37,09,39,186,45*69
$GAGSV,3,2,11,10,46,118,45,06,58,160,47,36,50,306,46,04,64,101,47*6E
$GAGSV,3,3,11,30,07,325,37,34,00,302,35,02,07,277,35*5D
$GBGSV,5,1,17,20,74,228,52,35,21,314,44,57,11,094,,22,20,222,*6B
$GBGSV,5,2,17,05,24,128,38,30,33,164,46,19,23,232,45,06,27,071,39*6F
$GBGSV,5,3,17,09,27,086,41,39,27,056,43,16,28,067,42,32,46,055,49*63
$GBGSV,5,4,17,48,51,231,,29,67,250,51,13,04,080,36,02,08,105,34*6F
$GBGSV,5,5,17,60,10,109,40*56
$GPGGA,003002.00,,,,,0,00,,,M,,M,,*49
$PTNL,GGK,003002.00,010125,4742.1602051,N,01618.1003255,E,1,38,0.7,EHT751.3479,M*47
$GPGGQ,003002.00,010125,4742.1602051,N,01618.1003255,E,1,38,0.884,708.1413,M*38
$GPGFA,003002.00,4.205,5.604,0.442,0.345,32.097,0.683,,VVV*34
$GPLLK,003002.00,010125,,M,,M,1,38,0.8,,M*09
$GNGMP,003002.00,,,,,DAAA,38,0.4,,,,*58
$GPGMP,003002.00,,,,,,10,,,,2.8,136*73
$GLGMP,003002.00,,,,,,07,,,,,*79
$GAGMP,003002.00,,,,,,09,,,,,*7A
$GBGMP,003002.00,,,,,,12,,,,,*73
$PSSN,SNC,[0,261020000,2347]*43
$GPZDA,003007.00,01,01,2025,,*67
$GPDTM,W84,,00.0000000,N,00.0000000,E,00.0000000,W84*5F
$PSSN,TFM,003007.00,,,,*6B
$GPRMC,003007.00,A,4742.1602060,N,01618.1003258,E,0.0,,010125,5.1,E,D*1C
$GPGLL,4742.1602060,N,01618.1003258,E,003007.00,A,D*6D
$GPGGA,003007.00,4742.1602060,N,01618.1003258,E,2,38,0.4,708.1429,M,43.2066,M,2.2,0136*4F
$GNGNS,003007.00,4742.1602060,N,01618.1003258,E,DAAA,38,0.4,708.1429,43.2066,,*57
$GPGNS,003007.00,,,,,,10,,,,2.2,136*7C
$GLGNS,003007.00,,,,,,06,,,,,*7D
$GAGNS,003007.00,,,,,,10,,,,,*77
$GBGNS,003007.00,,,,,,12,,,,,*76
$GPLLQ,003007.00,010125,,M,,M,1,38,0.875,,M*14
$GPVTG,,T,,M,0.00,N,0.01,K,D*27
$GPHDT,,T*1B
$GPTHS,,V*0E
$GPROT,,V*08
$PSSN,HRP,003007.00,010125,,,,,,,00,0,,*65
$PTNL,AVR,003007.00,,Yaw,,Tilt,,,,0,,00*33
$GPGSA,A,3,02,03,04,08,17,19,21,28,31,32,,,0.7,0.4,0.6*3E
$GPGSA,A,3,68,69,70,77,84,85,,,,,,,0.7,0.4,0.6*30
$GPGSA,A,3,02,04,06,09,10,11,12,19,30,36,,,0.7,0.4,0.6*32
$GPGSA,A,3,05,06,09,16,19,20,29,30,32,35,39,60,0.7,0.4,0.6*33
$GPGST,003007.00,1.078,0.440,0.339,32.498,0.413,0.371,0.676*64
$GPGBS,003007.00,2.490,1.958,4.100,04,0.0001,0.808,0.967*59
$GPGRS,003007.00,1,-0.2,0.1,0.8,-0.8,-0.2,0.5,-0.1,0.5,-0.2,-0.3,,*4B
$GPGRS,003007.00,1,4.0,0.4,0.4,-2.8,-1.5,0.3,,,,,,*43
$GPGRS,003007.00,1,-0.1,0.1,0.3,0.4,0.8,-0.2,-0.2,-1.0,-0.3,-0.0,,*47
$GPGRS,003007.00,1,1.1,-0.6,1.0,0.2,-0.2,-0.4,0.3,0.1,0.1,-1.2,0.1,-0.9*6C
$GPGSV,6,1,21,01,85,117,,04,22,199,42,28,23,087,41,19,12,324,39*70
$GPGSV,6,2,21,32,25,047,42,31,16,116,41,17,35,302,45,21,58,136,45*70
$GPGSV,6,3,21,03,61,275,49,02,80,151,50,14,00,268,,08,09,181,38*77
$GPGSV,6,4,21,36,35,170,45,58,13,245,37,40,24,132,36,34,31,208,42*7A
$GPGSV,6,5,21,49,34,195,44,57,10,109,37,41,07,108,34,61,03,257,37*7D
$GPGSV,6,6,21*7A
$GLGSV,2,1,08,69,84,021,52,83,15,143,34,70,26,225,39,85,41,322,49*6D
$GLGSV,2,2,08,68,31,039,48,84,81,144,40,77,08,014,37,76,03,332,43*69
$GAGSV,3,1,11,11,76,110,44,19,19,043,35,12,22,120,37,09,39,186,45*63
$GAGSV,3,2,11,10,46,118,45,06,58,160,48,36,50,306,46,04,64,101,47*61
$GAGSV,3,3,11,30,07,325,37,34,00,302,35,02,07,277,36*5E
$GBGSV,5,1,17,20,74,228,52,35,21,314,44,57,11,094,,22,20,222,*6B
$GBGSV,5,2,17,05,24,128,38,30,33,164,46,19,23,232,44,06,27,071,40*60
$GBGSV,5,3,17,09,27,086,41,39,27,056,43,16,28,067,42,32,46,055,48*62
$GBGSV,5,4,17,48,51,231,,29,67,250,51,13,04,080,36,02,08,105,34*6F
$GBGSV,5,5,17,60,10,109,40*56
$GPGGA,003007.00,,,,,0,00,,,M,,M,,*4C
$PTNL,GGK,003007.00,010125,4742.1602060,N,01618.1003258,E,1,38,0.7,EHT751.3494,M*4E
$GPGGQ,003007.00,010125,4742.1602060,N,01618.1003258,E,1,38,0.875,708.1429,M*35
$GPGFA,003007.00,4.179,5.540,0.440,0.339,32.498,0.676,,VVV*32
$GPLLK,003007.00,010125,,M,,M,1,38,0.8,,M*0C
$GNGMP,003007.00,,,,,DAAA,38,0.4,,,,*5D
$GPGMP,003007.00,,,,,,10,,,,2.2,136*7C
$GLGMP,003007.00,,,,,,06,,,,,*7D
$GAGMP,003007.00,,,,,,10,,,,,*77
$GBGMP,003007.00,,,,,,12,,,,,*76
$PSSN,SNC,[0,261025000,2347]*46
$GPZDA,003012.00,01,01,2025,,*63
$GPDTM,W84,,00.0000000,N,00.0000000,E,00.0000000,W84*5F
$PSSN,TFM,003012.00,,,,*6F
$GPRMC,003012.00,A,4742.1602065,N,01618.1003262,E,0.0,,010125,5.1,E,D*14
$GPGLL,4742.1602065,N,01618.1003262,E,003012.00,A,D*65
$GPGGA,003012.00,4742.1602065,N,01618.1003262,E,2,38,0.4,708.1439,M,43.2066,M,2.0,0136*44
$GNGNS,003012.00,4742.1602065,N,01618.1003262,E,DAAA,38,0.4,708.1439,43.2066,,*5E
$GPGNS,003012.00,,,,,,10,,,,2.0,136*7A
$GLGNS,003012.00,,,,,,06,,,,,*79
$GAGNS,003012.00,,,,,,10,,,,,*73
$GBGNS,003012.00,,,,,,12,,,,,*72
$GPLLQ,003012.00,010125,,M,,M,1,38,0.866,,M*12
$GPVTG,,T,,M,0.01,N,0.01,K,D*26
$GPHDT,,T*1B
$GPTHS,,V*0E
$GPROT,,V*08
$PSSN,HRP,003012.00,010125,,,,,,,00,0,,*61
$PTNL,AVR,003012.00,,Yaw,,Tilt,,,,0,,00*37
$GPGSA,A,3,02,03,04,08,17,19,21,28,31,32,,,0.7,0.4,0.6*3E
$GPGSA,A,3,68,69,70,77,84,85,,,,,,,0.7,0.4,0.6*30
$GPGSA,A,3,02,04,06,09,10,11,12,19,30,36,,,0.7,0.4,0.6*32
$GPGSA,A,3,05,06,09,16,19,20,29,30,32,35,39,60,0.7,0.4,0.6*33
$GPGST,003012.00,1.447,0.437,0.341,32.139,0.412,0.370,0.666*68
$GPGBS,003012.00,2.467,1.954,4.140,04,0.0001,0.809,0.976*5C
$GPGRS,003012.00,1,-0.2,0.2,0.8,-0.9,-0.0,-0.5,-0.3,0.6,-0.0,0.0,,*4F
$GPGRS,003012.00,1,4.5,-0.3,-0.6,-5.4,-1.9,0.0,,,,,,*43
$GPGRS,003012.00,1,-0.7,-0.2,0.1,0.3,0.6,-0.2,-0.2,-1.1,-0.0,-0.1,,*63
$GPGRS,003012.00,1,1.4,-0.1,1.3,-0.2,-0.3,-0.5,0.3,0.1,0.1,-1.5,-0.0,-0.9*6F
$GPGSV,6,1,21,01,85,117,,04,22,199,42,28,23,087,41,19,12,324,39*70
$GPGSV,6,2,21,32,25,047,42,31,16,116,41,17,35,302,44,21,58,136,45*71
$GPGSV,6,3,21,03,61,275,49,02,80,151,50,14,00,268,,08,09,181,38*77
$GPGSV,6,4,21,36,35,170,45,58,13,245,37,40,24,132,36,34,31,208,42*7A
$GPGSV,6,5,21,49,34,195,44,57,10,109,37,41,07,108,34,61,03,257,37*7D
$GPGSV,6,6,21*7A
$GLGSV,2,1,08,69,84,021,52,83,15,143,34,70,26,225,38,85,41,322,50*64
$GLGSV,2,2,08,68,31,039,48,84,81,144,40,77,08,014,38,76,03,332,42*67
$GAGSV,3,1,11,11,76,110,44,19,19,043,35,12,22,120,37,09,39,186,45*63
$GAGSV,3,2,11,10,46,118,46,06,58,160,48,36,50,306,46,04,64,101,47*62
$GAGSV,3,3,11,30,07,325,37,34,01,302,35,02,07,277,35*5C
$GBGSV,5,1,17,20,74,228,52,35,21,314,43,57,11,094,,22,21,222,*6D
$GBGSV,5,2,17,05,24,128,38,30,33,164,47,19,23,232,44,06,27,071,40*61
$GBGSV,5,3,17,09,27,086,40,39,27,056,43,16,28,067,42,32,46,055,48*63
$GBGSV,5,4,17,48,51,231,,29,67,250,51,13,04,080,36,02,08,105,34*6F
$GBGSV,5,5,17,60,10,109,40*56
$GPGGA,003012.00,,,,,0,00,,,M,,M,,*48
$PTNL,GGK,003012.00,010125,4742.1602065,N,01618.1003262,E,1,38,0.7,EHT751.3504,M*4E
$GPGGQ,003012.00,010125,4742.1602065,N,01618.1003262,E,1,38,0.866,708.1439,M*3E
$GPGFA,003012.00,4.151,5.463,0.437,0.341,32.139,0.666,,VVV*3C
$GPLLK,003012.00,010125,,M,,M,1,38,0.8,,M*08
$GNGMP,003012.00,,,,,DAAA,38,0.4,,,,*59
$GPGMP,003012.00,,,,,,10,,,,2.0,136*7A
$GLGMP,003012.00,,,,,,06,,,,,*79
$GAGMP,003012.00,,,,,,10,,,,,*73
$GBGMP,003012.00,,,,,,12,,,,,*72
$PSSN,SNC,[0,261030000,2347]*42
$GPZDA,003017.00,01,01,2025,,*66
$GPDTM,W84,,00.0000000,N,00.0000000,E,00.0000000,W84*5F
$PSSN,TFM,003017.00,,,,*6A
$GPRMC,003017.00,A,4742.1602057,N,01618.1003260,E,0.0,,010125,5.1,E,D*12
$GPGLL,4742.1602057,N,01618.1003260,E,003017.00,A,D*63
$GPGGA,003017.00,4742.1602057,N,01618.1003260,E,2,37,0.4,708.1486,M,43.2066,M,3.0,0136*48
$GNGNS,003017.00,4742.1602057,N,01618.1003260,E,DAAA,37,0.4,708.1486,43.2066,,*53
$GPGNS,003017.00,,,,,,10,,,,3.0,136*7E
$GLGNS,003017.00,,,,,,07,,,,,*7D
$GAGNS,003017.00,,,,,,08,,,,,*7F
$GBGNS,003017.00,,,,,,12,,,,,*77
$GPLLQ,003017.00,010125,,M,,M,1,37,0.877,,M*18
$GPVTG,,T,,M,0.01,N,0.01,K,D*26
$GPHDT,,T*1B
$GPTHS,,V*0E
$GPROT,,V*08
$PSSN,HRP,003017.00,010125,,,,,,,00,0,,*64
$PTNL,AVR,003017.00,,Yaw,,Tilt,,,,0,,00*32
$GPGSA,A,3,02,03,04,08,17,19,21,28,31,32,,,0.8,0.4,0.6*31
$GPGSA,A,3,68,69,70,77,83,84,85,,,,,,0.8,0.4,0.6*34
$GPGSA,A,3,04,06,09,10,11,12,30,36,,,,,0.8,0.4,0.6*37
$GPGSA,A,3,05,06,09,16,19,20,29,30,32,35,39,60,0.8,0.4,0.6*3C
$GPGST,003017.00,1.250,0.438,0.346,32.302,0.413,0.374,0.677*6A
$GPGBS,003017.00,2.480,1.998,4.256,68,0.0001,4.393,6.255*5E
$GPGRS,003017.00,1,-0.2,0.2,0.7,-0.7,-0.2,0.3,0.0,0.3,-0.4,0.1,,*4C
$GPGRS,003017.00,1,4.4,0.1,-0.2,-3.1,-2.5,-1.9,0.5,,,,,*6E
$GPGRS,003017.00,1,0.1,0.2,0.4,0.7,-0.1,-0.3,0.6,0.0,,,,*4F
$GPGRS,003017.00,1,1.3,0.0,0.6,0.1,-0.1,-0.4,0.2,0.5,0.2,-1.4,0.0,-0.9*42
$GPGSV,6,1,21,01,85,117,,04,22,199,42,28,23,087,42,19,12,324,40*7D
$GPGSV,6,2,21,32,24,047,43,31,16,116,41,17,35,302,45,21,58,136,45*70
$GPGSV,6,3,21,03,61,275,49,02,80,151,50,14,00,268,,08,09,181,38*77
$GPGSV,6,4,21,36,35,170,45,58,13,245,37,40,24,132,35,34,31,208,42*79
$GPGSV,6,5,21,49,34,195,43,57,10,109,38,41,07,108,34,61,03,257,37*75
$GPGSV,6,6,21*7A
$GLGSV,2,1,08,69,84,021,52,83,15,143,35,70,27,225,38,85,41,322,50*64
$GLGSV,2,2,08,68,31,039,48,84,81,144,40,77,08,014,37,76,03,332,43*69
$GAGSV,3,1,11,11,76,110,44,19,19,042,35,12,22,120,37,09,40,186,45*6C
$GAGSV,3,2,11,10,46,118,46,06,58,160,48,36,50,306,46,04,64,101,47*62
$GAGSV,3,3,11,30,07,325,37,34,01,302,34,02,07,277,35*5D
$GBGSV,5,1,17,20,74,228,52,35,21,314,44,57,11,094,,22,21,222,*6A
$GBGSV,5,2,17,05,24,128,38,30,33,164,46,19,23,232,44,06,27,071,40*60
$GBGSV,5,3,17,09,27,086,40,39,27,056,43,16,28,067,42,32,46,055,48*63
$GBGSV,5,4,17,48,51,231,,29,67,250,51,13,04,080,36,02,08,105,34*6F
$GBGSV,5,5,17,60,10,109,40*56
$GPGGA,003017.00,,,,,0,00,,,M,,M,,*4D
$PTNL,GGK,003017.00,010125,4742.1602057,N,01618.1003260,E,1,37,0.8,EHT751.3551,M*48
$GPGGQ,003017.00,010125,4742.1602057,N,01618.1003260,E,1,37,0.877,708.1486,M*33
$GPGFA,003017.00,4.160,5.554,0.438,0.346,32.302,0.677,,VVV*3C
$GPLLK,003017.00,010125,,M,,M,1,37,0.8,,M*02
$GNGMP,003017.00,,,,,DAAA,37,0.4,,,,*53
$GPGMP,003017.00,,,,,,10,,,,3.0,136*7E
$GLGMP,003017.00,,,,,,07,,,,,*7D
$GAGMP,003017.00,,,,,,08,,,,,*7F
$GBGMP,003017.00,,,,,,12,,,,,*77
$PSSN,SNC,[0,261035000,2347]*47
$GPZDA,003022.00,01,01,2025,,*60
$GPDTM,W84,,00.0000000,N,00.0000000,E,00.0000000,W84*5F
$PSSN,TFM,003022.00,,,,*6C
$GPRMC,003022.00,A,4742.1602055,N,01618.1003245,E,0.0,,010125,5.1,E,D*11
$GPGLL,4742.1602055,N,01618.1003245,E,003022.00,A,D*60
$GPGGA,003022.00,4742.1602055,N,01618.1003245,E,2,37,0.4,708.1428,M,43.2066,M,2.8,0136*46
$GNGNS,003022.00,4742.1602055,N,01618.1003245,E,DAAA,37,0.4,708.1428,43.2066,,*54
$GPGNS,003022.00,,,,,,10,,,,2.8,136*71
$GLGNS,003022.00,,,,,,06,,,,,*7A
$GAGNS,003022.00,,,,,,09,,,,,*78
$GBGNS,003022.00,,,,,,12,,,,,*71
$GPLLQ,003022.00,010125,,M,,M,1,37,0.883,,M*15
$GPVTG,,T,,M,0.00,N,0.00,K,D*26
$GPHDT,,T*1B
$GPTHS,,V*0E
$GPROT,,V*08
$PSSN,HRP,003022.00,010125,,,,,,,00,0,,*62
$PTNL,AVR,003022.00,,Yaw,,Tilt,,,,0,,00*34
$GPGSA,A,3,02,03,04,08,17,19,21,28,31,32,,,0.7,0.4,0.6*3E
$GPGSA,A,3,68,69,70,77,84,85,,,,,,,0.7,0.4,0.6*30
$GPGSA,A,3,02,04,06,09,10,11,12,30,36,,,,0.7,0.4,0.6*3A
$GPGSA,A,3,05,06,09,16,19,20,29,30,32,35,39,60,0.7,0.4,0.6*33
$GPGST,003022.00,1.312,0.442,0.344,31.935,0.417,0.374,0.682*67
$GPGBS,003022.00,2.522,1.983,4.101,08,0.0001,-0.879,1.230*7E
$GPGRS,003022.00,1,-0.0,-0.1,0.5,-0.9,-0.1,0.5,-0.0,0.6,-0.3,-0.1,,*6D
$GPGRS,003022.00,1,4.2,-0.2,0.4,-5.0,-1.1,0.4,,,,,,*61
$GPGRS,003022.00,1,-0.1,-0.2,0.1,0.4,0.5,-0.5,-0.1,0.3,-0.1,,,*4B
$GPGRS,003022.00,1,1.1,0.4,0.9,-0.2,-0.5,-0.3,0.1,-0.2,0.2,-0.7,-0.3,-1.2*6F
$GPGSV,6,1,21,01,85,118,,04,22,199,42,28,23,087,42,19,12,324,40*72
$GPGSV,6,2,21,32,24,047,43,31,16,116,41,17,35,302,44,21,58,136,45*71
$GPGSV,6,3,21,03,61,275,49,02,80,151,49,14,00,268,,08,09,181,38*7F
$GPGSV,6,4,21,36,35,170,45,58,13,245,37,40,24,132,35,34,31,208,42*79
$GPGSV,6,5,21,49,34,195,44,57,10,109,37,41,07,108,34,61,03,257,37*7D
$GPGSV,6,6,21*7A
$GLGSV,2,1,08,69,84,021,52,83,15,143,35,70,27,225,38,85,41,322,50*64
$GLGSV,2,2,08,68,31,039,48,84,81,145,40,77,08,014,37,76,03,332,43*68
$GAGSV,3,1,11,11,75,110,44,19,19,042,35,12,22,120,37,09,40,186,45*6F
$GAGSV,3,2,11,10,46,118,46,06,58,160,48,36,50,306,46,04,64,101,47*62
$GAGSV,3,3,11,30,07,325,37,34,01,302,33,02,07,277,35*5A
$GBGSV,5,1,17,20,74,228,52,35,21,314,44,57,11,094,,22,21,222,*6A
$GBGSV,5,2,17,05,24,128,38,30,33,164,46,19,23,232,44,06,27,071,40*60
$GBGSV,5,3,17,09,27,086,40,39,27,056,43,16,28,067,42,32,46,055,48*63
$GBGSV,5,4,17,48,51,231,,29,67,250,51,13,04,080,36,02,08,105,34*6F
$GBGSV,5,5,17,60,10,109,40*56
$GPGGA,003022.00,,,,,0,00,,,M,,M,,*4B
$PTNL,GGK,003022.00,010125,4742.1602055,N,01618.1003245,E,1,37,0.7,EHT751.3494,M*4C
$GPGGQ,003022.00,010125,4742.1602055,N,01618.1003245,E,1,37,0.883,708.1428,M*3F
$GPGFA,003022.00,4.201,5.593,0.442,0.344,31.935,0.682,,VVV*3D
$GPLLK,003022.00,010125,,M,,M,1,37,0.8,,M*04
$GNGMP,003022.00,,,,,DAAA,37,0.4,,,,*55
$GPGMP,003022.00,,,,,,10,,,,2.8,136*71
$GLGMP,003022.00,,,,,,06,,,,,*7A
$GAGMP,003022.00,,,,,,09,,,,,*78
$GBGMP,003022.00,,,,,,12,,,,,*71
$PSSN,SNC,[0,261040000,2347]*45
$GPZDA,003027.00,01,01,2025,,*65
$GPDTM,W84,,00.0000000,N,00.0000000,E,00.0000000,W84*5F
$PSSN,TFM,003027.00,,,,*69
$GPRMC,003027.00,A,4742.1602049,N,01618.1003233,E,0.0,,010125,5.1,E,D*18
$GPGLL,4742.1602049,N,01618.1003233,E,003027.00,A,D*69
$GPGGA,003027.00,4742.1602049,N,01618.1003233,E,2,38,0.4,708.1491,M,43.2066,M,2.2,0136*48
$GNGNS,003027.00,4742.1602049,N,01618.1003233,E,DAAA,38,0.4,708.1491,43.2066,,*50
$GPGNS,003027.00,,,,,,10,,,,2.2,136*7E
$GLGNS,003027.00,,,,,,07,,,,,*7E
$GAGNS,003027.00,,,,,,09,,,,,*7D
$GBGNS,003027.00,,,,,,12,,,,,*74
$GPLLQ,003027.00,010125,,M,,M,1,38,0.877,,M*14
$GPVTG,,T,,M,0.00,N,0.00,K,D*26
$GPHDT,,T*1B
$GPTHS,,V*0E
$GPROT,,V*08
$PSSN,HRP,003027.00,010125,,,,,,,00,0,,*67
$PTNL,AVR,003027.00,,Yaw,,Tilt,,,,0,,00*31
$GPGSA,A,3,02,03,04,08,17,19,21,28,31,32,,,0.7,0.4,0.6*3E
$GPGSA,A,3,68,69,70,77,83,84,85,,,,,,0.7,0.4,0.6*3B
$GPGSA,A,3,04,06,09,10,11,12,19,30,36,,,,0.7,0.4,0.6*30
$GPGSA,A,3,05,06,09,16,19,20,29,30,32,35,39,60,0.7,0.4,0.6*33
$GPGST,003027.00,1.531,0.441,0.339,33.449,0.413,0.373,0.677*61
$GPGBS,003027.00,2.467,1.967,4.116,68,0.0001,4.867,6.257*51
$GPGRS,003027.00,1,-0.0,0.1,0.6,-0.8,-0.3,0.3,-0.2,0.0,0.2,0.3,,*44
$GPGRS,003027.00,1,4.9,-0.0,0.0,-5.2,-3.2,-1.5,0.7,,,,,*6E
$GPGRS,003027.00,1,0.1,0.1,0.3,0.6,-0.0,-0.3,-0.9,0.1,-0.1,,,*69
$GPGRS,003027.00,1,1.4,0.8,1.0,-0.2,-0.5,-0.2,0.2,0.4,0.3,-1.3,-0.5,-0.9*4A
$GPGSV,6,1,21,01,85,118,,04,22,199,41,28,23,087,42,19,13,324,40*70
$GPGSV,6,2,21,32,24,047,43,31,16,116,41,17,35,302,45,21,58,136,45*70
$GPGSV,6,3,21,03,61,275,49,02,80,151,49,14,00,268,,08,09,181,38*7F
$GPGSV,6,4,21,36,35,170,45,58,13,245,37,40,24,132,35,34,31,208,42*79
$GPGSV,6,5,21,49,34,195,44,57,10,109,38,41,07,108,34,61,03,257,37*72
$GPGSV,6,6,21*7A
$GLGSV,2,1,08,69,84,021,52,83,15,143,35,70,27,225,38,85,41,322,50*64
$GLGSV,2,2,08,68,31,039,48,84,81,145,41,77,08,014,38,76,03,332,43*66
$GAGSV,3,1,11,11,75,110,44,19,19,042,35,12,22,120,37,09,40,186,45*6F
$GAGSV,3,2,11,10,46,118,46,06,58,160,48,36,50,306,46,04,64,101,47*62
$GAGSV,3,3,11,30,07,325,37,34,01,302,35,02,07,277,35*5C
$GBGSV,5,1,17,20,74,228,52,35,21,314,43,57,11,094,,22,21,222,*6D
$GBGSV,5,2,17,05,24,128,38,30,33,164,46,19,23,233,44,06,27,071,40*61
$GBGSV,5,3,17,09,27,086,40,39,27,056,43,16,28,067,42,32,45,055,48*60
$GBGSV,5,4,17,48,51,231,,29,67,250,51,13,04,080,36,02,08,105,34*6F
$GBGSV,5,5,17,60,10,109,40*56
$GPGGA,003027.00,,,,,0,00,,,M,,M,,*4E
$PTNL,GGK,003027.00,010125,4742.1602049,N,01618.1003233,E,1,38,0.7,EHT751.3556,M*45
$GPGGQ,003027.00,010125,4742.1602049,N,01618.1003233,E,1,38,0.877,708.1491,M*30
$GPGFA,003027.00,4.191,5.555,0.441,0.339,33.449,0.677,,VVV*3F
$GPLLK,003027.00,010125,,M,,M,1,38,0.8,,M*0E
$GNGMP,003027.00,,,,,DAAA,38,0.4,,,,*5F
$GPGMP,003027.00,,,,,,10,,,,2.2,136*7E
$GLGMP,003027.00,,,,,,07,,,,,*7E
$GAGMP,003027.00,,,,,,09,,,,,*7D
$GBGMP,003027.00,,,,,,12,,,,,*74
$PSSN,SNC,[0,261045000,2347]*40
$GPZDA,003032.00,01,01,2025,,*61
$GPDTM,W84,,00.0000000,N,00.0000000,E,00.0000000,W84*5F
$PSSN,TFM,003032.00,,,,*6D
$GPRMC,003032.00,A,4742.1602044,N,01618.1003246,E,0.0,,010125,5.1,E,D*13
$GPGLL,4742.1602044,N,01618.1003246,E,003032.00,A,D*62
$GPGGA,003032.00,4742.1602044,N,01618.1003246,E,2,38,0.4,708.1480,M,43.2066,M,2.0,0136*41
$GNGNS,003032.00,4742.1602044,N,01618.1003246,E,DAAA,38,0.4,708.1480,43.2066,,*5B
$GPGNS,003032.00,,,,,,10,,,,2.0,136*78
$GLGNS,003032.00,,,,,,07,,,,,*7A
$GAGNS,003032.00,,,,,,09,,,,,*79
$GBGNS,003032.00,,,,,,12,,,,,*70
$GPLLQ,003032.00,010125,,M,,M,1,38,0.865,,M*13
$GPVTG,,T,,M,0.00,N,0.00,K,D*26
$GPHDT,,T*1B
$GPTHS,,V*0E
$GPROT,,V*08
$PSSN,HRP,003032.00,010125,,,,,,,00,0,,*63
$PTNL,AVR,003032.00,,Yaw,,Tilt,,,,0,,00*35
$GPGSA,A,3,02,03,04,08,17,19,21,28,31,32,,,0.7,0.4,0.6*3E
$GPGSA,A,3,68,69,70,77,83,84,85,,,,,,0.7,0.4,0.6*3B
$GPGSA,A,3,02,04,06,09,10,11,12,30,36,,,,0.7,0.4,0.6*3A
$GPGSA,A,3,05,06,09,16,19,20,29,30,32,35,39,60,0.7,0.4,0.6*33
$GPGST,003032.00,1.371,0.436,0.340,32.524,0.410,0.370,0.666*62
$GPGBS,003032.00,2.471,1.966,4.140,68,0.0001,5.054,6.258*56
$GPGRS,003032.00,1,-0.0,0.0,0.3,-1.0,0.2,-0.1,-0.1,0.2,-0.3,-0.1,,*4C
$GPGRS,003032.00,1,5.1,0.2,-0.1,-4.1,-2.0,-1.9,0.6,,,,,*6C
$GPGRS,003032.00,1,-0.1,0.1,-0.1,0.4,0.4,-0.2,-0.4,-0.2,-0.1,,,*66
$GPGRS,003032.00,1,1.2,0.5,0.5,-0.0,-0.1,-0.3,0.6,0.7,0.1,-1.3,-0.3,-1.1*4C
$GPGSV,6,1,21,01,85,118,,04,22,199,41,28,23,087,42,19,13,323,40*77
$GPGSV,6,2,21,32,24,047,43,31,16,116,40,17,35,302,45,21,58,136,45*71
$GPGSV,6,3,21,03,61,275,49,02,80,151,50,14,00,268,,08,09,181,38*77
$GPGSV,6,4,21,36,35,170,45,58,13,245,37,40,24,132,35,34,31,208,42*79
$GPGSV,6,5,21,49,34,195,44,57,10,109,38,41,07,108,34,61,03,257,37*72
$GPGSV,6,6,21*7A
$GLGSV,2,1,08,69,84,022,52,83,15,143,36,70,27,225,38,85,41,322,50*64
$GLGSV,2,2,08,68,31,039,48,84,81,145,41,77,08,014,38,76,03,332,43*66
$GAGSV,3,1,11,11,75,110,44,19,19,042,35,12,22,120,37,09,40,186,45*6F
$GAGSV,3,2,11,10,46,119,46,06,58,160,48,36,50,306,46,04,64,101,47*63
$GAGSV,3,3,11,30,07,325,37,34,01,302,36,02,07,277,36*5C
$GBGSV,5,1,17,20,74,228,52,35,21,314,44,57,11,094,,22,21,222,*6A
$GBGSV,5,2,17,05,24,128,38,30,33,164,46,19,23,233,44,06,28,071,40*6E
$GBGSV,5,3,17,09,27,086,40,39,27,056,43,16,28,067,42,32,45,055,48*60
$GBGSV,5,4,17,48,51,231,,29,67,249,51,13,04,080,36,02,08,105,34*67
$GBGSV,5,5,17,60,10,109,40*56
$GPGGA,003032.00,,,,,0,00,,,M,,M,,*4A
$PTNL,GGK,003032.00,010125,4742.1602044,N,01618.1003246,E,1,38,0.7,EHT751.3545,M*4C
$GPGGQ,003032.00,010125,4742.1602044,N,01618.1003246,E,1,38,0.865,708.1480,M*38
$GPGFA,003032.00,4.145,5.458,0.436,0.340,32.524,0.666,,VVV*3B
$GPLLK,003032.00,010125,,M,,M,1,38,0.8,,M*0A
$GNGMP,003032.00,,,,,DAAA,38,0.4,,,,*5B
$GPGMP,003032.00,,,,,,10,,,,2.0,136*78
$GLGMP,003032.00,,,,,,07,,,,,*7A
$GAGMP,003032.00,,,,,,09,,,,,*79
$GBGMP,003032.00,,,,,,12,,,,,*70
$PSSN,SNC,[0,261050000,2347]*44
$GPZDA,003037.00,01,01,2025,,*64
$GPDTM,W84,,00.0000000,N,00.0000000,E,00.0000000,W84*5F
$PSSN,TFM,003037.00,,,,*68
$GPRMC,003037.00,A,4742.1602028,N,01618.1003252,E,0.0,,010125,5.1,E,D*19
$GPGLL,4742.1602028,N,01618.1003252,E,003037.00,A,D*68
$GPGGA,003037.00,4742.1602028,N,01618.1003252,E,2,38,0.4,708.1437,M,43.2066,M,3.0,0136*46
$GNGNS,003037.00,4742.1602028,N,01618.1003252,E,DAAA,38,0.4,708.1437,43.2066,,*5D
$GPGNS,003037.00,,,,,,10,,,,3.0,136*7C
$GLGNS,003037.00,,,,,,06,,,,,*7E
$GAGNS,003037.00,,,,,,10,,,,,*74
$GBGNS,003037.00,,,,,,12,,,,,*75
$GPLLQ,003037.00,010125,,M,,M,1,38,0.874,,M*16
$GPVTG,,T,,M,0.00,N,0.01,K,D*27
$GPHDT,,T*1B
$GPTHS,,V*0E
$GPROT,,V*08
$PSSN,HRP,003037.00,010125,,,,,,,00,0,,*66
$PTNL,AVR,003037.00,,Yaw,,Tilt,,,,0,,00*30
$GPGSA,A,3,02,03,04,08,17,19,21,28,31,32,,,0.7,0.4,0.6*3E
$GPGSA,A,3,68,69,70,77,84,85,,,,,,,0.7,0.4,0.6*30
$GPGSA,A,3,02,04,06,09,10,11,12,19,30,36,,,0.7,0.4,0.6*32
$GPGSA,A,3,05,06,09,16,19,20,29,30,32,35,39,60,0.7,0.4,0.6*33
$GPGST,003037.00,1.167,0.436,0.345,31.583,0.413,0.372,0.674*6B
$GPGBS,003037.00,2.489,1.980,4.208,68,0.0001,4.787,6.258*5B
$GPGRS,003037.00,1,-0.0,0.2,0.4,-0.8,-0.1,0.1,0.2,-0.0,0.1,-0.3,,*6A
$GPGRS,003037.00,1,4.8,0.0,1.3,-2.7,-1.3,1.1,,,,,,*40
$GPGRS,003037.00,1,-0.2,0.0,-0.1,0.2,0.6,-0.2,-0.1,-0.6,-0.4,-0.4,,*66
$GPGRS,003037.00,1,1.1,-0.6,0.9,0.3,0.2,-0.3,0.5,0.1,0.4,-0.7,-0.3,-1.2*6E
$GPGSV,5,1,20,01,85,118,,04,22,199,41,28,23,087,41,19,13,323,40*76
$GPGSV,5,2,20,32,24,047,43,31,16,116,40,17,35,302,45,21,58,136,45*73
$GPGSV,5,3,20,03,61,275,49,02,80,151,50,08,09,181,38,36,35,170,45*78
$GPGSV,5,4,20,58,13,245,37,40,24,132,36,34,31,208,42,49,34,195,44*7B
$GPGSV,5,5,20,57,10,109,38,41,07,108,34,61,03,257,37*47
$GLGSV,2,1,08,69,84,022,52,83,15,143,35,70,27,225,39,85,41,322,51*67
$GLGSV,2,2,08,68,31,039,48,84,81,145,40,77,08,014,38,76,03,332,43*67
$GAGSV,3,1,11,11,75,110,44,19,19,042,35,12,22,120,37,09,40,186,45*6F
$GAGSV,3,2,11,10,46,119,46,06,58,160,47,36,50,306,46,04,64,101,47*6C
$GAGSV,3,3,11,30,07,325,36,34,01,302,34,02,07,277,36*5F
$GBGSV,5,1,17,20,74,228,52,35,21,314,44,57,11,094,,22,21,222,*6A
$GBGSV,5,2,17,05,24,128,38,30,33,164,46,19,24,233,44,06,28,071,40*69
$GBGSV,5,3,17,09,27,086,40,39,27,056,43,16,28,067,42,32,45,055,49*61
$GBGSV,5,4,17,48,51,231,,29,67,249,51,13,04,080,36,02,08,105,34*67
$GBGSV,5,5,17,60,10,109,40*56
$GPGGA,003037.00,,,,,0,00,,,M,,M,,*4F
$PTNL,GGK,003037.00,010125,4742.1602028,N,01618.1003252,E,1,38,0.7,EHT751.3502,M*45
$GPGGQ,003037.00,010125,4742.1602028,N,01618.1003252,E,1,38,0.874,708.1437,M*3E
$GPGFA,003037.00,4.145,5.530,0.436,0.345,31.583,0.674,,VVV*39
$GPLLK,003037.00,010125,,M,,M,1,38,0.8,,M*0F
$GNGMP,003037.00,,,,,DAAA,38,0.4,,,,*5E
$GPGMP,003037.00,,,,,,10,,,,3.0,136*7C
$GLGMP,003037.00,,,,,,06,,,,,*7E
$GAGMP,003037.00,,,,,,10,,,,,*74
$GBGMP,003037.00,,,,,,12,,,,,*75
$PSSN,SNC,[0,261055000,2347]*41
$GPZDA,003042.00,01,01,2025,,*66
$GPDTM,W84,,00.0000000,N,00.0000000,E,00.0000000,W84*5F
$PSSN,TFM,003042.00,,,,*6A
$GPRMC,003042.00,A,4742.1602034,N,01618.1003264,E,0.0,,010125,5.1,E,D*13
$GPGLL,4742.1602034,N,01618.1003264,E,003042.00,A,D*62
$GPGGA,003042.00,4742.1602034,N,01618.1003264,E,2,38,0.4,708.1422,M,43.2066,M,2.8,0136*41
$GNGNS,003042.00,4742.1602034,N,01618.1003264,E,DAAA,38,0.4,708.1422,43.2066,,*53
$GPGNS,003042.00,,,,,,10,,,,2.8,136*77
$GLGNS,003042.00,,,,,,07,,,,,*7D
$GAGNS,003042.00,,,,,,09,,,,,*7E
$GBGNS,003042.00,,,,,,12,,,,,*77
$GPLLQ,003042.00,010125,,M,,M,1,38,0.881,,M*1E
$GPVTG,,T,,M,0.00,N,0.00,K,D*26
$GPHDT,,T*1B
$GPTHS,,V*0E
$GPROT,,V*08
$PSSN,HRP,003042.00,010125,,,,,,,00,0,,*64
$PTNL,AVR,003042.00,,Yaw,,Tilt,,,,0,,00*32
$GPGSA,A,3,02,03,04,08,17,19,21,28,31,32,,,0.7,0.4,0.6*3E
$GPGSA,A,3,68,69,70,77,83,84,85,,,,,,0.7,0.4,0.6*3B
$GPGSA,A,3,02,04,06,09,10,11,12,30,36,,,,0.7,0.4,0.6*3A
$GPGSA,A,3,05,06,09,16,19,20,29,30,32,35,39,60,0.7,0.4,0.6*33
$GPGST,003042.00,1.536,0.441,0.343,32.527,0.415,0.374,0.681*68
$GPGBS,003042.00,2.509,1.982,4.094,08,0.0001,-1.258,1.233*76
$GPGRS,003042.00,1,0.0,-0.1,0.5,-1.3,0.3,0.4,0.1,-0.0,0.2,-0.4,,*4D
$GPGRS,003042.00,1,3.8,-0.2,0.5,-5.1,-4.3,-1.5,1.0,,,,,*6F
$GPGRS,003042.00,1,-0.3,-0.1,0.2,0.1,0.7,-0.2,-0.1,0.4,-0.3,,,*4A
$GPGRS,003042.00,1,1.3,-0.6,1.2,0.3,-0.6,-0.2,0.2,0.4,0.1,-1.1,-0.7,-1.1*4B
$GPGSV,5,1,20,01,85,118,,04,22,199,42,28,23,087,42,19,13,323,39*78
$GPGSV,5,2,20,32,24,047,43,31,16,116,41,17,35,302,45,21,58,136,45*72
$GPGSV,5,3,20,03,61,275,49,02,80,151,50,08,09,181,38,36,35,170,45*78
$GPGSV,5,4,20,58,13,245,37,40,24,132,36,34,31,208,42,49,34,195,44*7B
$GPGSV,5,5,20,57,10,109,38,41,07,108,34,61,03,257,37*47
$GLGSV,2,1,08,69,84,022,52,83,15,143,35,70,27,225,38,85,41,322,51*66
$GLGSV,2,2,08,68,31,039,47,84,81,145,40,77,08,014,37,76,03,332,42*66
$GAGSV,3,1,11,11,75,110,44,19,19,042,35,12,22,120,36,09,40,186,45*6E
$GAGSV,3,2,11,10,46,119,46,06,58,160,47,36,50,306,46,04,64,101,47*6C
$GAGSV,3,3,11,30,07,325,36,34,01,302,34,02,06,276,35*5C
$GBGSV,5,1,17,20,74,228,52,35,22,314,44,57,11,094,,22,21,222,*69
$GBGSV,5,2,17,05,24,128,38,30,33,164,46,19,24,233,44,06,28,071,40*69
$GBGSV,5,3,17,09,27,086,40,39,27,056,43,16,28,067,42,32,45,055,49*61
$GBGSV,5,4,17,48,51,231,,29,67,249,51,13,04,080,36,02,08,105,34*67
$GBGSV,5,5,17,60,10,109,40*56
$GPGGA,003042.00,,,,,0,00,,,M,,M,,*4D
$PTNL,GGK,003042.00,010125,4742.1602034,N,01618.1003264,E,1,38,0.7,EHT751.3488,M*4C
$GPGGQ,003042.00,010125,4742.1602034,N,01618.1003264,E,1,38,0.881,708.1422,M*3A
$GPGFA,003042.00,4.195,5.586,0.441,0.343,32.527,0.681,,VVV*3A
$GPLLK,003042.00,010125,,M,,M,1,38,0.8,,M*0D
$GNGMP,003042.00,,,,,DAAA,38,0.4,,,,*5C
$GPGMP,003042.00,,,,,,10,,,,2.8,136*77
$GLGMP,003042.00,,,,,,07,,,,,*7D
$GAGMP,003042.00,,,,,,09,,,,,*7E
$GBGMP,003042.00,,,,,,12,,,,,*77
$PSSN,SNC,[0,261060000,2347]*47
$GPZDA,003047.00,01,01,2025,,*63
$GPDTM,W84,,00.0000000,N,00.0000000,E,00.0000000,W84*5F
$PSSN,TFM,003047.00,,,,*6F
$GPRMC,003047.00,A,4742.1602017,N,01618.1003265,E,0.0,,010125,5.1,E,D*16
$GPGLL,4742.1602017,N,01618.1003265,E,003047.00,A,D*67
$GPGGA,003047.00,4742.1602017,N,01618.1003265,E,2,38,0.4,708.1383,M,43.2066,M,2.2,0136*42
$GNGNS,003047.00,4742.1602017,N,01618.1003265,E,DAAA,38,0.4,708.1383,43.2066,,*5A
$GPGNS,003047.00,,,,,,10,,,,2.2,136*78
$GLGNS,003047.00,,,,,,07,,,,,*78
$GAGNS,003047.00,,,,,,09,,,,,*7B
$GBGNS,003047.00,,,,,,12,,,,,*72
$GPLLQ,003047.00,010125,,M,,M,1,38,0.874,,M*11
$GPVTG,,T,,M,0.00,N,0.00,K,D*26
$GPHDT,,T*1B
$GPTHS,,V*0E
$GPROT,,V*08
$PSSN,HRP,003047.00,010125,,,,,,,00,0,,*61
$PTNL,AVR,003047.00,,Yaw,,Tilt,,,,0,,00*37
$GPGSA,A,3,02,03,04,08,17,19,21,28,31,32,,,0.7,0.4,0.6*3E
$GPGSA,A,3,68,69,70,77,83,84,85,,,,,,0.7,0.4,0.6*3B
$GPGSA,A,3,02,04,06,09,10,11,12,30,36,,,,0.7,0.4,0.6*3A
$GPGSA,A,3,05,06,09,16,19,20,29,30,32,35,39,60,0.7,0.4,0.6*33
$GPGST,003047.00,1.602,0.441,0.338,32.968,0.413,0.371,0.675*6A
$GPGBS,003047.00,2.491,1.970,4.082,08,0.0001,-1.223,1.208*7D
$GPGRS,003047.00,1,-0.1,0.1,0.8,-1.2,-0.1,-0.1,-0.1,0.4,0.1,0.1,,*6D
$GPGRS,003047.00,1,4.0,-0.4,0.3,-5.8,-4.0,-1.7,0.2,,,,,*6E
$GPGRS,003047.00,1,-0.2,-0.0,0.2,0.2,0.5,-0.4,0.0,0.6,-0.1,,,*64
$GPGRS,003047.00,1,1.0,-0.4,1.4,0.2,-0.2,-0.3,0.3,0.5,0.1,-1.2,-0.7,-1.3*4C
$GPGSV,5,1,20,01,85,118,,04,22,199,42,28,23,087,42,19,13,323,40*76
$GPGSV,5,2,20,32,24,047,43,31,16,116,40,17,35,302,45,21,58,136,45*73
$GPGSV,5,3,20,03,61,275,49,02,80,151,50,08,09,181,37,36,35,170,45*77
$GPGSV,5,4,20,58,13,245,37,40,24,132,36,34,31,208,42,49,34,195,44*7B
$GPGSV,5,5,20,57,10,109,38,41,07,108,34,61,03,257,37*47
$GLGSV,2,1,08,69,84,022,52,83,15,143,35,70,27,225,39,85,41,322,50*66
$GLGSV,2,2,08,68,31,039,48,84,80,145,41,77,08,014,37,76,03,332,42*69
$GAGSV,3,1,11,11,75,111,44,19,19,042,34,12,22,120,37,09,40,186,45*6F
$GAGSV,3,2,11,10,46,119,46,06,58,160,48,36,50,306,46,04,64,101,47*63
$GAGSV,3,3,11,30,07,325,37,34,01,302,35,02,06,276,36*5F
$GBGSV,5,1,17,20,74,228,52,35,22,314,44,57,11,094,,22,21,222,*69
$GBGSV,5,2,17,05,24,128,38,30,33,164,46,19,24,233,44,06,28,071,40*69
$GBGSV,5,3,17,09,27,086,40,39,27,056,43,16,28,067,42,32,45,055,49*61
$GBGSV,5,4,17,48,51,231,,29,67,249,51,13,04,080,36,02,08,105,34*67
$GBGSV,5,5,17,60,10,109,40*56
$GPGGA,003047.00,,,,,0,00,,,M,,M,,*48
$PTNL,GGK,003047.00,010125,4742.1602017,N,01618.1003265,E,1,38,0.7,EHT751.3448,M*45
$GPGGQ,003047.00,010125,4742.1602017,N,01618.1003265,E,1,38,0.874,708.1383,M*39
$GPGFA,003047.00,4.197,5.533,0.441,0.338,32.968,0.675,,VVV*33
$GPLLK,003047.00,010125,,M,,M,1,38,0.8,,M*08
$GNGMP,003047.00,,,,,DAAA,38,0.4,,,,*59
$GPGMP,003047.00,,,,,,10,,,,2.2,136*78
$GLGMP,003047.00,,,,,,07,,,,,*78
$GAGMP,003047.00,,,,,,09,,,,,*7B
$GBGMP,003047.00,,,,,,12,,,,,*72
$PSSN,SNC,[0,261065000,2347]*42
$GPZDA,003052.00,01,01,2025,,*67
$GPDTM,W84,,00.0000000,N,00.0000000,E,00.0000000,W84*5F
$PSSN,TFM,003052.00,,,,*6B
$GPRMC,003052.00,A,4742.1601993,N,01618.1003261,E,0.0,,010125,5.1,E,D*10
$GPGLL,4742.1601993,N,01618.1003261,E,003052.00,A,D*61
$GPGGA,003052.00,4742.1601993,N,01618.1003261,E,2,38,0.4,708.1384,M,43.2066,M,2.0,0136*41
$GNGNS,003052.00,4742.1601993,N,01618.1003261,E,DAAA,38,0.4,708.1384,43.2066,,*5B
$GPGNS,003052.00,,,,,,10,,,,2.0,136*7E
$GLGNS,003052.00,,,,,,07,,,,,*7C
$GAGNS,003052.00,,,,,,09,,,,,*7F
$GBGNS,003052.00,,,,,,12,,,,,*76
$GPLLQ,003052.00,010125,,M,,M,1,38,0.867,,M*17
$GPVTG,,T,,M,0.01,N,0.01,K,D*26
$GPHDT,,T*1B
$GPTHS,,V*0E
$GPROT,,V*08
$PSSN,HRP,003052.00,010125,,,,,,,00,0,,*65
$PTNL,AVR,003052.00,,Yaw,,Tilt,,,,0,,00*33
$GPGSA,A,3,02,03,04,08,17,19,21,28,31,32,,,0.7,0.4,0.6*3E
$GPGSA,A,3,68,69,70,77,83,84,85,,,,,,0.7,0.4,0.6*3B
$GPGSA,A,3,02,04,06,09,10,11,12,30,36,,,,0.7,0.4,0.6*3A
$GPGSA,A,3,05,06,09,16,19,20,29,30,32,35,39,60,0.7,0.4,0.6*33
$GPGST,003052.00,1.448,0.438,0.339,32.633,0.411,0.371,0.667*6D
$GPGBS,003052.00,2.478,1.967,4.141,08,0.0001,-1.216,1.214*7D
$GPGRS,003052.00,1,-0.2,0.1,0.1,-1.2,-0.1,0.4,0.2,0.3,0.6,-0.3,,*4A
$GPGRS,003052.00,1,5.5,-0.2,-0.0,-4.5,-2.0,-1.5,-0.3,,,,,*62
$GPGRS,003052.00,1,-0.1,0.2,0.2,0.1,0.7,-0.2,-0.2,0.6,-0.2,,,*67
$GPGRS,003052.00,1,1.2,-0.1,0.6,-0.0,0.0,-0.3,0.4,0.7,0.3,-0.9,-0.6,-0.9*4B
$GPGSV,5,1,20,01,85,119,,04,22,199,42,28,23,087,42,19,13,323,39*79
$GPGSV,5,2,20,32,24,047,43,31,16,116,40,17,35,302,45,21,58,136,45*73
$GPGSV,5,3,20,03,61,275,49,02,80,151,50,08,09,181,38,36,35,170,45*78
$GPGSV,5,4,20,58,13,245,37,40,24,132,36,34,31,208,42,49,34,195,44*7B
$GPGSV,5,5,20,57,10,109,38,41,07,108,34,61,03,257,37*47
$GLGSV,2,1,08,69,84,022,52,83,14,143,35,70,27,225,38,85,41,322,50*66
$GLGSV,2,2,08,68,31,039,48,84,80,145,41,77,08,014,38,76,03,332,42*66
$GAGSV,3,1,11,11,75,111,44,19,19,042,34,12,22,120,37,09,40,186,45*6F
$GAGSV,3,2,11,10,46,119,46,06,58,160,48,36,50,306,46,04,64,101,47*63
$GAGSV,3,3,11,30,07,325,37,34,01,303,35,02,06,276,35*5D
$GBGSV,5,1,17,20,74,228,52,35,22,314,44,57,10,094,,22,21,222,*68
$GBGSV,5,2,17,05,24,128,38,30,33,164,45,19,24,233,44,06,28,071,40*6A
$GBGSV,5,3,17,09,27,086,40,39,27,056,42,16,28,067,42,32,45,055,48*61
$GBGSV,5,4,17,48,51,231,,29,67,249,51,13,04,080,36,02,08,105,34*67
$GBGSV,5,5,17,60,10,109,40*56
$GPGGA,003052.00,,,,,0,00,,,M,,M,,*4C
$PTNL,GGK,003052.00,010125,4742.1601993,N,01618.1003261,E,1,38,0.7,EHT751.3449,M*42
$GPGGQ,003052.00,010125,4742.1601993,N,01618.1003261,E,1,38,0.867,708.1384,M*3A
$GPGFA,003052.00,4.160,5.467,0.438,0.339,32.633,0.667,,VVV*32
$GPLLK,003052.00,010125,,M,,M,1,38,0.8,,M*0C
$GNGMP,003052.00,,,,,DAAA,38,0.4,,,,*5D
$GPGMP,003052.00,,,,,,10,,,,2.0,136*7E
$GLGMP,003052.00,,,,,,07,,,,,*7C
$GAGMP,003052.00,,,,,,09,,,,,*7F
$GBGMP,003052.00,,,,,,12,,,,,*76
$PSSN,SNC,[0,261070000,2347]*46
$GPZDA,003057.00,01,01,2025,,*62
$GPDTM,W84,,00.0000000,N,00.0000000,E,00.0000000,W84*5F
$PSSN,TFM,003057.00,,,,*6E
$GPRMC,003057.00,A,4742.1601982,N,01618.1003255,E,0.0,,010125,5.1,E,D*12
$GPGLL,4742.1601982,N,01618.1003255,E,003057.00,A,D*63
$GPGGA,003057.00,4742.1601982,N,01618.1003255,E,2,37,0.4,708.1336,M,43.2066,M,3.0,0136*44
$GNGNS,003057.00,4742.1601982,N,01618.1003255,E,DAAA,37,0.4,708.1336,43.2066,,*5F
$GPGNS,003057.00,,,,,,10,,,,3.0,136*7A
$GLGNS,003057.00,,,,,,06,,,,,*78
$GAGNS,003057.00,,,,,,09,,,,,*7A
$GBGNS,003057.00,,,,,,12,,,,,*73
$GPLLQ,003057.00,010125,,M,,M,1,37,0.876,,M*1D
$GPVTG,,T,,M,0.00,N,0.01,K,D*27
$GPHDT,,T*1B
$GPTHS,,V*0E
$GPROT,,V*08
$PSSN,HRP,003057.00,010125,,,,,,,00,0,,*60
$PTNL,AVR,003057.00,,Yaw,,Tilt,,,,0,,00*36
$GPGSA,A,3,02,03,04,08,17,19,21,28,31,32,,,0.7,0.4,0.6*3E
$GPGSA,A,3,68,69,70,77,84,85,,,,,,,0.7,0.4,0.6*30
$GPGSA,A,3,02,04,06,09,10,11,12,30,36,,,,0.7,0.4,0.6*3A
$GPGSA,A,3,05,06,09,16,19,20,29,30,32,35,39,60,0.7,0.4,0.6*33
$GPGST,003057.00,1.329,0.439,0.345,31.443,0.415,0.373,0.676*62
$GPGBS,003057.00,2.510,1.994,4.215,08,0.0001,-1.118,1.223*70
$GPGRS,003057.00,1,-0.1,0.0,0.2,-1.1,0.1,0.3,0.4,0.1,0.1,-0.6,,*61
$GPGRS,003057.00,1,5.0,0.1,0.3,-4.2,-1.8,0.1,,,,,,*46
$GPGRS,003057.00,1,0.1,0.0,0.1,0.4,0.6,-0.3,0.2,0.0,-0.1,,,*63
$GPGRS,003057.00,1,0.9,0.0,0.3,-0.2,-0.1,-0.3,0.4,0.1,0.3,-1.2,-0.5,-1.1*45
$GPGSV,5,1,20,01,85,119,,04,22,199,41,28,23,087,42,19,13,323,40*74
$GPGSV,5,2,20,32,24,047,43,31,16,116,40,17,35,302,45,21,58,136,45*73
$GPGSV,5,3,20,03,61,275,49,02,80,151,50,08,09,181,37,36,35,170,45*77
$GPGSV,5,4,20,58,13,245,37,40,24,132,36,34,31,208,42,49,34,195,44*7B
$GPGSV,5,5,20,57,10,109,38,41,07,108,34,61,03,257,37*47
$GLGSV,2,1,08,69,84,022,52,83,14,143,35,70,27,225,38,85,41,322,50*66
$GLGSV,2,2,08,68,30,039,47,84,80,145,40,77,08,014,37,76,03,332,43*67
$GAGSV,3,1,11,11,75,111,44,19,19,042,33,12,22,120,37,09,40,186,45*68
$GAGSV,3,2,11,10,46,119,45,06,58,160,48,36,50,306,46,04,64,101,47*60
$GAGSV,3,3,11,30,07,325,37,34,01,303,33,02,06,276,35*5B
$GBGSV,5,1,17,20,74,228,52,35,22,314,44,57,10,094,,22,21,222,*68
$GBGSV,5,2,17,05,24,128,38,30,33,164,45,19,24,233,44,06,28,071,40*6A
$GBGSV,5,3,17,09,27,086,40,39,27,056,43,16,28,067,42,32,45,055,48*60
$GBGSV,5,4,17,48,51,231,,29,67,249,51,13,04,080,36,02,08,105,34*67
$GBGSV,5,5,17,60,10,109,40*56
$GPGGA,003057.00,,,,,0,00,,,M,,M,,*49
$PTNL,GGK,003057.00,010125,4742.1601982,N,01618.1003255,E,1,37,0.7,EHT751.3401,M*43
$GPGGQ,003057.00,010125,4742.1601982,N,01618.1003255,E,1,37,0.876,708.1336,M*3E
$GPGFA,003057.00,4.170,5.542,0.439,0.345,31.443,0.676,,VVV*3C
$GPLLK,003057.00,010125,,M,,M,1,37,0.8,,M*06
$GNGMP,003057.00,,,,,DAAA,37,0.4,,,,*57
$GPGMP,003057.00,,,,,,10,,,,3.0,136*7A
$GLGMP,003057.00,,,,,,06,,,,,*78
$GAGMP,003057.00,,,,,,09,,,,,*7A
$GBGMP,003057.00,,,,,,12,,,,,*73
$PSSN,SNC,[0,261075000,2347]*43
$GPZDA,003102.00,01,01,2025,,*63
$GPDTM,W84,,00.0000000,N,00.0000000,E,00.0000000,W84*5F
$PSSN,TFM,003102.00,,,,*6F
$GPRMC,003102.00,A,4742.1601979,N,01618.1003264,E,0.0,,010125,5.1,E,D*15
$GPGLL,4742.1601979,N,01618.1003264,E,003102.00,A,D*64
$GPGGA,003102.00,4742.1601979,N,01618.1003264,E,2,37,0.4,708.1345,M,43.2066,M,2.8,0136*4E
$GNGNS,003102.00,4742.1601979,N,01618.1003264,E,DAAA,37,0.4,708.1345,43.2066,,*5C
$GPGNS,003102.00,,,,,,10,,,,2.8,136*72
$GLGNS,003102.00,,,,,,06,,,,,*79
$GAGNS,003102.00,,,,,,09,,,,,*7B
$GBGNS,003102.00,,,,,,12,,,,,*72
$GPLLQ,003102.00,010125,,M,,M,1,37,0.883,,M*16
$GPVTG,,T,,M,0.00,N,0.00,K,D*26
$GPHDT,,T*1B
$GPTHS,,V*0E
$GPROT,,V*08
$PSSN,HRP,003102.00,010125,,,,,,,00,0,,*61
$PTNL,AVR,003102.00,,Yaw,,Tilt,,,,0,,00*37
$GPGSA,A,3,02,03,04,08,17,19,21,28,31,32,,,0.7,0.4,0.6*3E
$GPGSA,A,3,68,69,70,77,84,85,,,,,,,0.7,0.4,0.6*30
$GPGSA,A,3,02,04,06,09,10,11,12,30,36,,,,0.7,0.4,0.6*3A
$GPGSA,A,3,05,06,09,16,19,20,29,30,32,35,39,60,0.7,0.4,0.6*33
$GPGST,003102.00,1.331,0.442,0.344,32.053,0.417,0.374,0.683*6E
$GPGBS,003102.00,2.534,1.986,4.106,68,0.0001,4.536,6.263*50
$GPGRS,003102.00,1,-0.2,-0.1,0.3,-0.8,0.1,0.5,-0.1,0.6,-0.1,-0.1,,*45
$GPGRS,003102.00,1,4.5,-0.2,-0.2,-4.5,-1.9,-0.0,,,,,,*6B
$GPGRS,003102.00,1,-0.1,-0.1,-0.0,0.3,0.5,-0.2,-0.3,0.3,-0.2,,,*66
$GPGRS,003102.00,1,1.4,-0.1,0.8,-0.3,0.0,-0.4,0.3,-0.1,-0.0,-1.3,-0.1,-1.4*41
$GPGSV,5,1,20,01,85,119,,04,22,199,42,28,23,087,42,19,13,323,39*79
$GPGSV,5,2,20,32,24,047,43,31,16,116,41,17,35,302,45,21,58,136,45*72
$GPGSV,5,3,20,03,61,275,49,02,80,151,50,08,09,181,37,36,35,170,45*77
$GPGSV,5,4,20,58,13,245,37,40,24,132,36,34,31,208,42,49,34,195,44*7B
$GPGSV,5,5,20,57,10,109,38,41,07,108,34,61,03,257,37*47
$GLGSV,2,1,08,69,84,022,52,83,14,143,35,70,27,225,38,85,41,322,50*66
$GLGSV,2,2,08,68,30,039,48,84,80,145,40,77,08,014,37,76,03,332,42*69
$GAGSV,3,1,11,11,75,111,44,19,19,042,34,12,22,120,37,09,40,186,45*6F
$GAGSV,3,2,11,10,46,119,45,06,59,160,47,36,50,306,46,04,64,100,47*6F
$GAGSV,3,3,11,30,06,325,37,34,01,303,35,02,06,276,36*5F
$GBGSV,5,1,17,20,74,228,52,35,22,314,44,57,10,094,,22,21,222,*68
$GBGSV,5,2,17,05,24,128,38,30,33,164,46,19,24,233,44,06,28,071,40*69
$GBGSV,5,3,17,09,27,086,40,39,27,056,43,16,28,067,42,32,45,055,48*60
$GBGSV,5,4,17,48,51,231,,29,67,249,51,13,04,080,37,02,08,105,34*66
$GBGSV,5,5,17,60,10,109,40*56
$GPGGA,003102.00,,,,,0,00,,,M,,M,,*48
$PTNL,GGK,003102.00,010125,4742.1601979,N,01618.1003264,E,1,37,0.7,EHT751.3411,M*45
$GPGGQ,003102.00,010125,4742.1601979,N,01618.1003264,E,1,37,0.883,708.1345,M*37
$GPGFA,003102.00,4.206,5.600,0.442,0.344,32.053,0.683,,VVV*3B
$GPLLK,003102.00,010125,,M,,M,1,37,0.8,,M*07
$GNGMP,003102.00,,,,,DAAA,37,0.4,,,,*56
$GPGMP,003102.00,,,,,,10,,,,2.8,136*72
$GLGMP,003102.00,,,,,,06,,,,,*79
$GAGMP,003102.00,,,,,,09,,,,,*7B
$GBGMP,003102.00,,,,,,12,,,,,*72
$PSSN,SNC,[0,261080000,2347]*49
$GPZDA,003107.00,01,01,2025,,*66
$GPDTM,W84,,00.0000000,N,00.0000000,E,00.0000000,W84*5F
$PSSN,TFM,003107.00,,,,*6A
$GPRMC,003107.00,A,4742.1601970,N,01618.1003249,E,0.0,,010125,5.1,E,D*16
$GPGLL,4742.1601970,N,01618.1003249,E,003107.00,A,D*67
$GPGGA,003107.00,4742.1601970,N,01618.1003249,E,2,37,0.4,708.1366,M,43.2066,M,2.2,0136*46
$GNGNS,003107.00,4742.1601970,N,01618.1003249,E,DAAA,37,0.4,708.1366,43.2066,,*5E
$GPGNS,003107.00,,,,,,10,,,,2.2,136*7D
$GLGNS,003107.00,,,,,,06,,,,,*7C
$GAGNS,003107.00,,,,,,09,,,,,*7E
$GBGNS,003107.00,,,,,,12,,,,,*77
$GPLLQ,003107.00,010125,,M,,M,1,37,0.876,,M*19
$GPVTG,,T,,M,0.00,N,0.01,K,D*27
$GPHDT,,T*1B
$GPTHS,,V*0E
$GPROT,,V*08
$PSSN,HRP,003107.00,010125,,,,,,,00,0,,*64
$PTNL,AVR,003107.00,,Yaw,,Tilt,,,,0,,00*32
$GPGSA,A,3,02,03,04,08,17,19,21,28,31,32,,,0.7,0.4,0.6*3E
$GPGSA,A,3,68,69,70,77,84,85,,,,,,,0.7,0.4,0.6*30
$GPGSA,A,3,02,04,06,09,10,11,12,30,36,,,,0.7,0.4,0.6*3A
$GPGSA,A,3,05,06,09,16,19,20,29,30,32,35,39,60,0.7,0.4,0.6*33
$GPGST,003107.00,1.585,0.443,0.338,32.609,0.415,0.372,0.676*6F
$GPGBS,003107.00,2.512,1.973,4.091,68,0.0001,5.558,6.263*5D
$GPGRS,003107.00,1,-0.1,0.0,0.6,-0.7,-0.1,0.2,0.0,0.3,0.5,-0.1,,*4F
$GPGRS,003107.00,1,5.6,-0.4,0.7,-5.6,-2.0,-0.0,,,,,,*4A
$GPGRS,003107.00,1,-0.2,-0.0,0.2,0.2,0.6,-0.4,-0.0,-0.1,0.1,,,*48
$GPGRS,003107.00,1,1.5,0.1,0.8,-0.6,-0.0,-0.2,0.4,0.4,0.0,-1.2,-0.2,-1.1*43
$GPGSV,5,1,20,01,85,119,,04,23,199,41,28,23,087,41,19,13,323,38*79
$GPGSV,5,2,20,32,24,047,43,31,16,116,41,17,35,302,45,21,58,136,45*72
$GPGSV,5,3,20,03,61,275,49,02,80,151,50,08,09,181,37,36,35,170,45*77
$GPGSV,5,4,20,58,13,245,37,40,24,132,36,34,31,208,42,49,34,195,44*7B
$GPGSV,5,5,20,57,10,109,38,41,07,108,34,61,03,257,37*47
$GLGSV,2,1,08,69,84,022,52,83,14,143,35,70,27,225,38,85,41,322,50*66
$GLGSV,2,2,08,68,30,039,49,84,80,145,40,77,08,014,37,76,03,332,43*69
$GAGSV,3,1,11,11,75,111,44,19,19,042,34,12,22,120,37,09,40,186,45*6F
$GAGSV,3,2,11,10,46,119,46,06,59,160,48,36,50,306,46,04,64,100,47*63
$GAGSV,3,3,11,30,06,325,38,34,01,303,36,02,06,276,37*52
$GBGSV,5,1,17,20,74,228,52,35,22,314,44,57,10,094,,22,21,222,*68
$GBGSV,5,2,17,05,24,128,38,30,33,164,47,19,24,233,44,06,28,071,40*68
$GBGSV,5,3,17,09,27,086,40,39,27,056,43,16,28,067,42,32,45,055,49*61
$GBGSV,5,4,17,48,51,231,,29,67,249,51,13,04,080,37,02,08,105,34*66
$GBGSV,5,5,17,60,10,109,40*56
$GPGGA,003107.00,,,,,0,00,,,M,,M,,*4D
$PTNL,GGK,003107.00,010125,4742.1601970,N,01618.1003249,E,1,37,0.7,EHT751.3431,M*44
$GPGGQ,003107.00,010125,4742.1601970,N,01618.1003249,E,1,37,0.876,708.1366,M*3F
$GPGFA,003107.00,4.207,5.546,0.443,0.338,32.609,0.676,,VVV*37
$GPLLK,003107.00,010125,,M,,M,1,37,0.8,,M*02
$GNGMP,003107.00,,,,,DAAA,37,0.4,,,,*53
$GPGMP,003107.00,,,,,,10,,,,2.2,136*7D
$GLGMP,003107.00,,,,,,06,,,,,*7C
$GAGMP,003107.00,,,,,,09,,,,,*7E
$GBGMP,003107.00,,,,,,12,,,,,*77
$PSSN,SNC,[0,261085000,2347]*4C
$GPZDA,003112.00,01,01,2025,,*62
$GPDTM,W84,,00.0000000,N,00.0000000,E,00.0000000,W84*5F
$PSSN,TFM,003112.00,,,,*6E
$GPRMC,003112.00,A,4742.1601976,N,01618.1003242,E,0.0,,010125,5.1,E,D*1F
$GPGLL,4742.1601976,N,01618.1003242,E,003112.00,A,D*6E
$GPGGA,003112.00,4742.1601976,N,01618.1003242,E,2,37,0.4,708.1360,M,43.2066,M,2.0,0136*4B
$GNGNS,003112.00,4742.1601976,N,01618.1003242,E,DAAA,37,0.4,708.1360,43.2066,,*51
$GPGNS,003112.00,,,,,,10,,,,2.0,136*7B
$GLGNS,003112.00,,,,,,06,,,,,*78
$GAGNS,003112.00,,,,,,09,,,,,*7A
$GBGNS,003112.00,,,,,,12,,,,,*73
$GPLLQ,003112.00,010125,,M,,M,1,37,0.867,,M*1D
$GPVTG,,T,,M,0.00,N,0.00,K,D*26
$GPHDT,,T*1B
$GPTHS,,V*0E
$GPROT,,V*08
$PSSN,HRP,003112.00,010125,,,,,,,00,0,,*60
$PTNL,AVR,003112.00,,Yaw,,Tilt,,,,0,,00*36
$GPGSA,A,3,02,03,04,08,17,19,21,28,31,32,,,0.7,0.4,0.6*3E
$GPGSA,A,3,68,69,70,77,84,85,,,,,,,0.7,0.4,0.6*30
$GPGSA,A,3,02,04,06,09,10,11,12,30,36,,,,0.7,0.4,0.6*3A
$GPGSA,A,3,05,06,09,16,19,20,29,30,32,35,39,60,0.7,0.4,0.6*33
$GPGST,003112.00,1.683,0.437,0.340,32.222,0.412,0.370,0.668*65
$GPGBS,003112.00,2.500,1.971,4.149,68,0.0001,5.844,6.264*5B
$GPGRS,003112.00,1,-0.4,0.2,0.6,-0.7,-0.0,-0.1,0.2,-0.1,0.4,-0.2,,*4C
$GPGRS,003112.00,1,5.8,-0.2,0.7,-6.2,-2.0,0.4,,,,,,*68
$GPGRS,003112.00,1,-0.3,-0.2,0.2,0.1,0.5,-0.3,-0.3,-0.5,-0.1,,,*62
$GPGRS,003112.00,1,1.0,0.1,1.1,-0.3,-0.0,-0.2,0.3,0.4,0.3,-1.3,0.0,-1.1*65
$GPGSV,5,1,20,01,85,119,,04,23,199,41,28,23,087,41,19,13,323,40*76
$GPGSV,5,2,20,32,24,047,43,31,16,116,41,17,35,302,45,21,58,136,46*71
$GPGSV,5,3,20,03,61,275,49,02,80,151,50,08,09,181,38,36,35,170,45*78
$GPGSV,5,4,20,58,13,245,37,40,24,132,36,34,31,208,42,49,34,195,44*7B
$GPGSV,5,5,20,57,10,109,38,41,07,108,34,61,03,257,37*47
$GLGSV,2,1,08,69,84,022,52,83,14,143,34,70,27,225,39,85,41,322,50*66
$GLGSV,2,2,08,68,30,039,48,84,80,145,40,77,08,014,37,76,03,332,44*6F
$GAGSV,3,1,11,11,75,111,44,19,19,042,35,12,22,120,37,09,40,186,45*6E
$GAGSV,3,2,11,10,46,119,46,06,59,160,48,36,50,306,46,04,64,100,47*63
$GAGSV,3,3,11,30,06,325,36,34,01,303,36,02,06,276,36*5D
$GBGSV,5,1,17,20,74,228,52,35,22,314,43,57,10,094,,22,21,222,*6F
$GBGSV,5,2,17,05,24,128,38,30,33,164,46,19,24,233,45,06,28,071,40*68
$GBGSV,5,3,17,09,27,086,41,39,27,056,43,16,28,067,42,32,45,055,49*60
$GBGSV,5,4,17,48,51,231,,29,67,249,51,13,04,080,36,02,08,105,33*60
$GBGSV,5,5,17,60,10,109,40*56
$GPGGA,003112.00,,,,,0,00,,,M,,M,,*49
$PTNL,GGK,003112.00,010125,4742.1601976,N,01618.1003242,E,1,37,0.7,EHT751.3425,M*48
$GPGGQ,003112.00,010125,4742.1601976,N,01618.1003242,E,1,37,0.867,708.1360,M*30
$GPGFA,003112.00,4.157,5.474,0.437,0.340,32.222,0.668,,VVV*3B
$GPLLK,003112.00,010125,,M,,M,1,37,0.8,,M*06
$GNGMP,003112.00,,,,,DAAA,37,0.4,,,,*57
$GPGMP,003112.00,,,,,,10,,,,2.0,136*7B
$GLGMP,003112.00,,,,,,06,,,,,*78
$GAGMP,003112.00,,,,,,09,,,,,*7A
$GBGMP,003112.00,,,,,,12,,,,,*73
$PSSN,SNC,[0,261090000,2347]*48
$GPZDA,003117.00,01,01,2025,,*67
$GPDTM,W84,,00.0000000,N,00.0000000,E,00.0000000,W84*5F
$PSSN,TFM,003117.00,,,,*6B
$GPRMC,003117.00,A,4742.1601994,N,01618.1003247,E,0.0,,010125,5.1,E,D*13
$GPGLL,4742.1601994,N,01618.1003247,E,003117.00,A,D*62
$GPGGA,003117.00,4742.1601994,N,01618.1003247,E,2,38,0.4,708.1361,M,43.2066,M,3.0,0136*48
$GNGNS,003117.00,4742.1601994,N,01618.1003247,E,DAAA,38,0.4,708.1361,43.2066,,*53
$GPGNS,003117.00,,,,,,10,,,,3.0,136*7F
$GLGNS,003117.00,,,,,,06,,,,,*7D
$GAGNS,003117.00,,,,,,10,,,,,*77
$GBGNS,003117.00,,,,,,12,,,,,*76
$GPLLQ,003117.00,010125,,M,,M,1,38,0.875,,M*14
$GPVTG,,T,,M,0.01,N,0.01,K,D*26
$GPHDT,,T*1B
$GPTHS,,V*0E
$GPROT,,V*08
$PSSN,HRP,003117.00,010125,,,,,,,00,0,,*65
$PTNL,AVR,003117.00,,Yaw,,Tilt,,,,0,,00*33
$GPGSA,A,3,02,03,04,08,17,19,21,28,31,32,,,0.7,0.4,0.6*3E
$GPGSA,A,3,68,69,70,77,84,85,,,,,,,0.7,0.4,0.6*30
$GPGSA,A,3,02,04,06,09,10,11,12,19,30,36,,,0.7,0.4,0.6*32
$GPGSA,A,3,05,06,09,16,19,20,29,30,32,35,39,60,0.7,0.4,0.6*33
$GPGST,003117.00,1.421,0.437,0.344,31.451,0.414,0.372,0.676*64
$GPGBS,003117.00,2.496,1.983,4.208,04,0.0001,1.079,0.982*56
$GPGRS,003117.00,1,-0.2,0.1,1.1,-0.9,-0.2,1.1,-0.1,-0.1,0.2,-0.3,,*43
$GPGRS,003117.00,1,4.9,-0.2,1.0,-4.8,-1.2,0.6,,,,,,*60
$GPGRS,003117.00,1,-0.4,-0.2,0.1,0.1,0.6,-0.2,0.2,-1.0,-0.4,-0.1,,*4E
$GPGRS,003117.00,1,1.6,-0.1,1.0,0.2,-0.1,-0.3,0.3,0.4,0.1,-1.1,-0.3,-1.2*4B
$GPGSV,5,1,20,01,85,119,,04,23,199,41,28,23,087,42,19,13,323,40*75
$GPGSV,5,2,20,32,24,047,43,31,16,116,41,17,35,302,45,21,58,136,45*72
$GPGSV,5,3,20,03,61,275,49,02,79,151,50,08,09,181,38,36,35,170,45*7E
$GPGSV,5,4,20,58,13,245,37,40,24,132,36,34,31,208,42,49,34,195,44*7B
$GPGSV,5,5,20,57,10,109,38,41,07,108,34,61,03,257,37*47
$GLGSV,2,1,08,69,83,022,52,83,14,143,34,70,27,225,38,85,42,322,50*63
$GLGSV,2,2,08,68,30,039,48,84,80,146,40,77,08,013,38,76,03,332,43*63
$GAGSV,3,1,11,11,75,111,44,19,19,042,35,12,22,120,37,09,40,186,45*6E
$GAGSV,3,2,11,10,46,119,45,06,59,160,48,36,50,306,46,04,64,100,47*60
$GAGSV,3,3,11,30,06,325,35,34,01,303,36,02,06,276,36*5E
$GBGSV,5,1,17,20,74,228,52,35,22,314,44,57,10,094,,22,21,222,*68
$GBGSV,5,2,17,05,24,128,38,30,33,164,46,19,24,233,45,06,28,071,40*68
$GBGSV,5,3,17,09,27,086,41,39,27,056,43,16,28,067,42,32,45,055,49*60
$GBGSV,5,4,17,48,51,231,,29,67,249,51,13,04,080,37,02,08,105,34*66
$GBGSV,5,5,17,60,10,109,40*56
$GPGGA,003117.00,,,,,0,00,,,M,,M,,*4C
$PTNL,GGK,003117.00,010125,4742.1601994,N,01618.1003247,E,1,38,0.7,EHT751.3427,M*49
$GPGGQ,003117.00,010125,4742.1601994,N,01618.1003247,E,1,38,0.875,708.1361,M*31
$GPGFA,003117.00,4.154,5.542,0.437,0.344,31.451,0.676,,VVV*33
$GPLLK,003117.00,010125,,M,,M,1,38,0.8,,M*0C
$GNGMP,003117.00,,,,,DAAA,38,0.4,,,,*5D
$GPGMP,003117.00,,,,,,10,,,,3.0,136*7F
$GLGMP,003117.00,,,,,,06,,,,,*7D
$GAGMP,003117.00,,,,,,10,,,,,*77
$GBGMP,003117.00,,,,,,12,,,,,*76
$PSSN,SNC,[0,261095000,2347]*4D
$GPZDA,003122.00,01,01,2025,,*61
$GPDTM,W84,,00.0000000,N,00.0000000,E,00.0000000,W84*5F
$PSSN,TFM,003122.00,,,,*6D
$GPRMC,003122.00,A,4742.1602008,N,01618.1003272,E,0.0,,010125,5.1,E,D*1C
$GPGLL,4742.1602008,N,01618.1003272,E,003122.00,A,D*6D
$GPGGA,003122.00,4742.1602008,N,01618.1003272,E,2,37,0.4,708.1421,M,43.2066,M,2.8,0136*42
$GNGNS,003122.00,4742.1602008,N,01618.1003272,E,DAAA,37,0.4,708.1421,43.2066,,*50
$GPGNS,003122.00,,,,,,10,,,,2.8,136*70
$GLGNS,003122.00,,,,,,06,,,,,*7B
$GAGNS,003122.00,,,,,,09,,,,,*79
$GBGNS,003122.00,,,,,,12,,,,,*70
$GPLLQ,003122.00,010125,,M,,M,1,37,0.884,,M*13
$GPVTG,,T,,M,0.01,N,0.02,K,D*25
$GPHDT,,T*1B
$GPTHS,,V*0E
$GPROT,,V*08
$PSSN,HRP,003122.00,010125,,,,,,,00,0,,*63
$PTNL,AVR,003122.00,,Yaw,,Tilt,,,,0,,00*35
$GPGSA,A,3,02,03,04,08,17,19,21,28,31,32,,,0.7,0.4,0.6*3E
$GPGSA,A,3,68,69,70,77,84,85,,,,,,,0.7,0.4,0.6*30
$GPGSA,A,3,02,04,06,09,10,11,12,30,36,,,,0.7,0.4,0.6*3A
$GPGSA,A,3,05,06,09,16,19,20,29,30,32,35,39,60,0.7,0.4,0.6*33
$GPGST,003122.00,1.358,0.443,0.344,32.088,0.418,0.374,0.684*6C
$GPGBS,003122.00,2.539,1.988,4.107,04,0.0001,1.219,0.995*51
$GPGRS,003122.00,1,-0.1,0.0,1.2,-1.1,-0.2,0.6,-0.1,0.4,0.3,-0.4,,*65
$GPGRS,003122.00,1,4.3,-0.2,0.4,-4.8,-1.2,0.5,,,,,,*6A
$GPGRS,003122.00,1,-0.3,-0.1,0.2,0.6,0.6,-0.3,-0.1,0.4,-0.1,,,*48
$GPGRS,003122.00,1,1.3,0.3,0.9,-0.1,-0.2,-0.4,0.3,-0.1,0.1,-1.2,-0.7,-1.5*6D
$GPGSV,5,1,20,01,85,119,,04,23,199,41,28,23,087,42,19,13,323,39*7B
$GPGSV,5,2,20,32,24,047,43,31,16,115,41,17,35,302,45,21,58,136,46*72
$GPGSV,5,3,20,03,61,275,49,02,79,151,50,08,09,181,37,36,35,170,45*71
$GPGSV,5,4,20,58,13,245,37,40,24,132,36,34,31,208,42,49,34,195,44*7B
$GPGSV,5,5,20,57,10,109,38,41,07,108,34,61,03,257,37*47
$GLGSV,2,1,08,69,83,022,52,83,14,143,35,70,27,225,39,85,42,322,50*63
$GLGSV,2,2,08,68,30,039,48,84,80,146,41,77,08,013,38,76,03,332,43*62
$GAGSV,3,1,11,11,75,111,44,19,19,042,35,12,22,120,37,09,40,186,45*6E
$GAGSV,3,2,11,10,45,119,45,06,59,160,47,36,50,306,45,04,64,100,47*6F
$GAGSV,3,3,11,30,06,325,37,34,01,303,34,02,06,276,35*5D
$GBGSV,5,1,17,20,74,228,52,35,22,314,44,57,10,094,,22,21,222,*68
$GBGSV,5,2,17,05,24,128,38,30,33,164,45,19,24,233,45,06,28,071,40*6B
$GBGSV,5,3,17,09,27,086,41,39,27,056,43,16,28,067,42,32,45,055,48*61
$GBGSV,5,4,17,48,51,231,,29,67,248,51,13,04,080,37,02,08,105,34*67
$GBGSV,5,5,17,60,10,109,40*56
$GPGGA,003122.00,,,,,0,00,,,M,,M,,*4A
$PTNL,GGK,003122.00,010125,4742.1602008,N,01618.1003272,E,1,37,0.7,EHT751.3486,M*42
