$GPZDA,021442.00,01,01,2025,,*62
$GPDTM,W84,,00.0000000,N,00.0000000,E,00.0000000,W84*5F
$PSSN,TFM,021442.00,,,,*6E
$GPRMC,021442.00,A,4742.1602918,N,01618.1002591,E,0.0,,010125,5.1,E,D*1C
$GPGLL,4742.1602918,N,01618.1002591,E,021442.00,A,D*6D
$GPGGA,021442.00,4742.1602918,N,01618.1002591,E,2,39,0.4,708.0668,M,43.2066,M,2.7,0136*4D
$GNGNS,021442.00,4742.1602918,N,01618.1002591,E,DAAA,39,0.4,708.0668,43.2066,,*50
$GPGNS,021442.00,,,,,,10,,,,2.7,136*7C
$GLGNS,021442.00,,,,,,07,,,,,*79
$GAGNS,021442.00,,,,,,08,,,,,*7B
$GBGNS,021442.00,,,,,,14,,,,,*75
$GPLLQ,021442.00,010125,,M,,M,1,39,0.857,,M*10
$GPVTG,,T,,M,0.00,N,0.00,K,D*26
$GPHDT,,T*1B
$GPTHS,,V*0E
$GPROT,,V*08
$PSSN,HRP,021442.00,010125,,,,,,,00,0,,*60
$PTNL,AVR,021442.00,,Yaw,,Tilt,,,,0,,00*36
$GPGSA,A,3,02,03,04,06,09,17,19,21,28,31,,,0.8,0.4,0.6*37
$GPGSA,A,3,69,70,71,78,79,85,86,,,,,,0.8,0.4,0.6*34
$GPGSA,A,3,04,05,06,09,10,11,34,36,,,,,0.8,0.4,0.6*35
$GPGSA,A,3,05,06,09,16,19,20,22,29,32,35,37,39,0.8,0.4,0.6*3D
$GPGSA,A,3,44,60,,,,,,,,,,,0.8,0.4,0.6*3E
$GPGST,021442.00,0.983,0.358,0.292,350.814,0.357,0.294,0.721*52
$GPGBS,021442.00,2.036,1.661,4.834,31,0.0001,0.559,0.788*5F
$GPGRS,021442.00,1,-0.2,0.0,-0.3,-0.1,0.1,-0.2,0.1,-0.6,0.9,0.6,,*69
$GPGRS,021442.00,1,-0.9,-1.3,2.1,-1.0,0.9,2.3,-1.5,,,,,*64
$GPGRS,021442.00,1,0.1,-0.2,0.2,0.2,-0.7,0.2,0.4,0.2,,,,*4F
$GPGRS,021442.00,1,1.9,0.7,0.2,0.7,-0.4,-1.3,0.8,-0.2,-0.7,-0.7,0.9,-0.1*41
$GPGRS,021442.00,1,-0.2,-1.8,,,,,,,,,,*44
$GPGSV,5,1,20,04,73,209,48,06,28,313,42,28,18,041,40,21,13,154,36*75
$GPGSV,5,2,20,17,28,249,44,19,30,282,44,02,30,160,44,31,33,066,45*79
$GPGSV,5,3,20,01,35,151,,09,43,227,47,03,69,067,50,36,35,170,44*78
$GPGSV,5,4,20,58,13,245,38,40,24,132,37,34,31,208,43,49,34,195,44*74
$GPGSV,5,5,20,57,09,110,37,41,07,108,35,61,03,257,38*46
$GLGSV,3,1,09,70,69,298,41,78,12,020,45,79,18,071,46,84,21,172,35*61
$GLGSV,3,2,09,71,26,253,48,86,38,320,50,69,30,050,48,85,64,223,53*69
$GLGSV,3,3,09,80,03,119,*5E
$GAGSV,3,1,10,09,82,169,48,18,22,285,,05,30,222,42,10,11,144,38*65
$GAGSV,3,2,10,04,40,055,45,34,33,312,44,11,37,150,41,06,67,067,48*61
$GAGSV,3,3,10,36,78,236,48,21,01,027,*6F
$GBGSV,5,1,19,48,82,001,,37,20,089,43,44,16,321,41,39,24,042,42*6E
$GBGSV,5,2,19,05,24,128,39,16,32,050,43,29,31,199,46,06,33,054,41*6A
$GBGSV,5,3,19,35,45,277,48,09,40,069,42,19,61,270,51,20,63,056,51*66
$GBGSV,5,4,19,32,09,071,40,22,10,256,42,21,09,247,,46,06,140,*64
$GBGSV,5,5,19,02,08,106,35,58,00,130,,60,09,110,39*52
$GPGGA,021442.00,,,,,0,00,,,M,,M,,*49
$PTNL,GGK,021442.00,010125,4742.1602918,N,01618.1002591,E,1,39,0.8,EHT751.2733,M*4F
$GPGGQ,021442.00,010125,4742.1602918,N,01618.1002591,E,1,39,0.857,708.0668,M*32
$GPGFA,021442.00,3.407,5.911,0.358,0.292,350.814,0.721,,VVV*06
$GPLLK,021442.00,010125,,M,,M,1,39,0.9,,M*09
$GNGMP,021442.00,,,,,DAAA,39,0.4,,,,*59
$GPGMP,021442.00,,,,,,10,,,,2.7,136*7C
$GLGMP,021442.00,,,,,,07,,,,,*79
$GAGMP,021442.00,,,,,,08,,,,,*7B
$GBGMP,021442.00,,,,,,14,,,,,*75
$PSSN,SNC,[0,267300000,2347]*44
$GPZDA,021447.00,01,01,2025,,*67
$GPDTM,W84,,00.0000000,N,00.0000000,E,00.0000000,W84*5F
$PSSN,TFM,021447.00,,,,*6B
$GPRMC,021447.00,A,4742.1602896,N,01618.1002591,E,0.0,,010125,5.1,E,D*1E
$GPGLL,4742.1602896,N,01618.1002591,E,021447.00,A,D*6F
$GPGGA,021447.00,4742.1602896,N,01618.1002591,E,2,39,0.4,708.0676,M,43.2066,M,1.7,0136*43
$GNGNS,021447.00,4742.1602896,N,01618.1002591,E,DAAA,39,0.4,708.0676,43.2066,,*5D
$GPGNS,021447.00,,,,,,10,,,,1.7,136*7A
$GLGNS,021447.00,,,,,,07,,,,,*7C
$GAGNS,021447.00,,,,,,08,,,,,*7E
$GBGNS,021447.00,,,,,,14,,,,,*70
$GPLLQ,021447.00,010125,,M,,M,1,39,0.846,,M*15
$GPVTG,,T,,M,0.00,N,0.00,K,D*26
$GPHDT,,T*1B
$GPTHS,,V*0E
$GPROT,,V*08
$PSSN,HRP,021447.00,010125,,,,,,,00,0,,*65
$PTNL,AVR,021447.00,,Yaw,,Tilt,,,,0,,00*33
$GPGSA,A,3,02,03,04,06,09,17,19,21,28,31,,,0.8,0.4,0.6*37
$GPGSA,A,3,69,70,71,78,79,85,86,,,,,,0.8,0.4,0.6*34
$GPGSA,A,3,04,05,06,09,10,11,34,36,,,,,0.8,0.4,0.6*35
$GPGSA,A,3,05,06,09,16,19,20,22,29,32,35,37,39,0.8,0.4,0.6*3D
$GPGSA,A,3,44,60,,,,,,,,,,,0.8,0.4,0.6*3E
$GPGST,021447.00,1.020,0.355,0.290,352.659,0.354,0.291,0.711*59
$GPGBS,021447.00,2.011,1.611,4.627,21,0.0001,-0.539,1.069*77
$GPGRS,021447.00,1,0.1,-0.0,-0.0,-0.2,0.0,0.2,0.0,-0.5,0.2,0.2,,*4E
$GPGRS,021447.00,1,-1.2,-0.9,1.3,-2.4,0.8,2.3,-1.6,,,,,*64
$GPGRS,021447.00,1,0.2,0.2,0.1,0.2,-0.8,0.1,-0.1,0.1,,,,*40
$GPGRS,021447.00,1,2.3,1.1,0.4,0.5,-0.4,-1.2,0.4,-0.1,-0.7,-0.8,0.6,-0.3*42
$GPGRS,021447.00,1,-0.4,-2.0,,,,,,,,,,*4C
$GPGSV,5,1,20,04,73,209,48,06,28,313,42,28,18,041,41,21,13,154,36*74
$GPGSV,5,2,20,17,28,249,44,19,30,282,44,02,30,160,44,31,33,066,46*7A
$GPGSV,5,3,20,01,35,151,,09,43,227,47,03,69,067,49,36,35,170,44*70
$GPGSV,5,4,20,58,13,245,37,40,24,132,36,34,31,208,43,49,34,195,44*7A
$GPGSV,5,5,20,57,09,110,37,41,07,108,34,61,03,257,37*48
$GLGSV,3,1,09,70,69,298,41,78,12,020,44,79,18,071,46,84,21,172,34*61
$GLGSV,3,2,09,71,26,253,48,86,38,320,50,69,30,050,47,85,64,223,53*66
$GLGSV,3,3,09,80,03,119,*5E
$GAGSV,3,1,10,09,82,169,48,18,22,285,,05,30,222,43,10,11,144,38*64
$GAGSV,3,2,10,04,40,055,45,34,33,312,43,11,37,150,41,06,67,067,48*66
$GAGSV,3,3,10,36,78,235,48,21,01,027,*6C
$GBGSV,5,1,19,48,82,002,,37,20,089,43,44,16,321,41,39,24,042,42*6D
$GBGSV,5,2,19,05,24,128,39,16,32,050,42,29,31,199,47,06,33,054,42*69
$GBGSV,5,3,19,35,45,277,48,09,40,069,42,19,61,270,51,20,63,056,52*65
$GBGSV,5,4,19,32,09,071,41,22,10,256,41,21,09,247,,46,06,140,*66
$GBGSV,5,5,19,02,08,106,35,58,00,130,,60,09,110,39*52
$GPGGA,021447.00,,,,,0,00,,,M,,M,,*4C
$PTNL,GGK,021447.00,010125,4742.1602896,N,01618.1002591,E,1,39,0.8,EHT751.2741,M*48
$GPGGQ,021447.00,010125,4742.1602896,N,01618.1002591,E,1,39,0.846,708.0676,M*3F
$GPGFA,021447.00,3.376,5.831,0.355,0.290,352.659,0.711,,VVV*08
$GPLLK,021447.00,010125,,M,,M,1,39,0.9,,M*0C
$GNGMP,021447.00,,,,,DAAA,39,0.4,,,,*5C
$GPGMP,021447.00,,,,,,10,,,,1.7,136*7A
$GLGMP,021447.00,,,,,,07,,,,,*7C
$GAGMP,021447.00,,,,,,08,,,,,*7E
$GBGMP,021447.00,,,,,,14,,,,,*70
$PSSN,SNC,[0,267305000,2347]*41
$GPZDA,021452.00,01,01,2025,,*63
$GPDTM,W84,,00.0000000,N,00.0000000,E,00.0000000,W84*5F
$PSSN,TFM,021452.00,,,,*6F
$GPRMC,021452.00,A,4742.1602884,N,01618.1002584,E,0.0,,010125,5.1,E,D*1D
$GPGLL,4742.1602884,N,01618.1002584,E,021452.00,A,D*6C
$GPGGA,021452.00,4742.1602884,N,01618.1002584,E,2,40,0.4,708.0682,M,43.2066,M,2.7,0136*46
$GNGNS,021452.00,4742.1602884,N,01618.1002584,E,DAAA,40,0.4,708.0682,43.2066,,*5B
$GPGNS,021452.00,,,,,,10,,,,2.7,136*7D
$GLGNS,021452.00,,,,,,07,,,,,*78
$GAGNS,021452.00,,,,,,08,,,,,*7A
$GBGNS,021452.00,,,,,,15,,,,,*75
$GPLLQ,021452.00,010125,,M,,M,1,40,0.833,,M*1D
$GPVTG,,T,,M,0.00,N,0.01,K,D*27
$GPHDT,,T*1B
$GPTHS,,V*0E
$GPROT,,V*08
$PSSN,HRP,021452.00,010125,,,,,,,00,0,,*61
$PTNL,AVR,021452.00,,Yaw,,Tilt,,,,0,,00*37
$GPGSA,A,3,02,03,04,06,09,17,19,21,28,31,,,0.8,0.4,0.6*37
$GPGSA,A,3,69,70,71,78,79,85,86,,,,,,0.8,0.4,0.6*34
$GPGSA,A,3,04,05,06,09,10,11,34,36,,,,,0.8,0.4,0.6*35
$GPGSA,A,3,02,05,06,09,16,19,20,22,29,32,35,37,0.8,0.4,0.6*35
$GPGSA,A,3,39,44,60,,,,,,,,,,0.8,0.4,0.6*34
$GPGST,021452.00,1.073,0.351,0.291,352.646,0.350,0.292,0.698*57
$GPGBS,021452.00,2.035,1.631,4.693,21,0.0001,-0.747,1.085*71
$GPGRS,021452.00,1,-0.1,-0.2,-0.1,-0.1,0.2,-0.2,0.2,-0.7,0.3,0.5,,*4E
$GPGRS,021452.00,1,-1.2,-0.9,1.9,-2.7,0.7,2.1,-1.4,,,,,*66
$GPGRS,021452.00,1,-0.0,0.2,-0.0,0.0,-0.5,0.1,-0.0,0.1,,,,*49
$GPGRS,021452.00,1,0.9,2.6,1.4,0.4,0.3,-0.3,-1.3,0.1,0.4,-0.9,-0.9,0.4*41
$GPGRS,021452.00,1,-0.5,0.2,-1.8,,,,,,,,,*6E
$GPGSV,5,1,20,04,73,209,48,06,28,313,43,28,18,041,41,21,13,154,36*75
$GPGSV,5,2,20,17,28,249,45,19,30,281,44,02,30,160,44,31,33,066,46*78
$GPGSV,5,3,20,01,35,151,,09,43,227,46,03,69,068,50,36,35,170,44*76
$GPGSV,5,4,20,58,13,245,37,40,24,132,36,34,31,208,42,49,34,195,44*7B
$GPGSV,5,5,20,57,09,110,37,41,07,108,34,61,03,257,37*48
$GLGSV,3,1,09,70,69,299,41,78,12,020,44,79,18,071,46,84,21,172,33*67
$GLGSV,3,2,09,71,26,253,48,86,38,320,51,69,30,050,47,85,64,223,53*67
$GLGSV,3,3,09,80,03,119,*5E
$GAGSV,3,1,10,09,82,169,48,18,22,285,,05,30,223,43,10,11,144,38*65
$GAGSV,3,2,10,04,40,055,44,34,33,312,44,11,37,150,41,06,67,067,48*60
$GAGSV,3,3,10,36,78,235,48,21,01,027,*6C
$GBGSV,5,1,19,48,82,002,,37,20,089,42,44,16,321,42,39,24,042,42*6F
$GBGSV,5,2,19,05,24,128,39,16,32,050,43,29,31,199,46,06,33,054,42*69
$GBGSV,5,3,19,35,45,277,48,09,40,069,42,19,61,270,51,20,63,056,51*66
$GBGSV,5,4,19,32,09,071,41,22,10,256,41,21,09,247,,46,06,140,*66
$GBGSV,5,5,19,02,08,106,35,58,00,130,,60,09,110,39*52
$GPGGA,021452.00,,,,,0,00,,,M,,M,,*48
$PTNL,GGK,021452.00,010125,4742.1602884,N,01618.1002584,E,1,40,0.8,EHT751.2748,M*4C
$GPGGQ,021452.00,010125,4742.1602884,N,01618.1002584,E,1,40,0.833,708.0682,M*3B
$GPGFA,021452.00,3.341,5.720,0.351,0.291,352.646,0.698,,VVV*0C
$GPLLK,021452.00,010125,,M,,M,1,40,0.9,,M*06
$GNGMP,021452.00,,,,,DAAA,40,0.4,,,,*56
$GPGMP,021452.00,,,,,,10,,,,2.7,136*7D
$GLGMP,021452.00,,,,,,07,,,,,*78
$GAGMP,021452.00,,,,,,08,,,,,*7A
$GBGMP,021452.00,,,,,,15,,,,,*75
$PSSN,SNC,[0,267310000,2347]*45
$GPZDA,021457.00,01,01,2025,,*66
$GPDTM,W84,,00.0000000,N,00.0000000,E,00.0000000,W84*5F
$PSSN,TFM,021457.00,,,,*6A
$GPRMC,021457.00,A,4742.1602870,N,01618.1002580,E,0.0,,010125,5.1,E,D*17
$GPGLL,4742.1602870,N,01618.1002580,E,021457.00,A,D*66
$GPGGA,021457.00,4742.1602870,N,01618.1002580,E,2,39,0.4,708.0662,M,43.2066,M,2.9,0136*42
$GNGNS,021457.00,4742.1602870,N,01618.1002580,E,DAAA,39,0.4,708.0662,43.2066,,*51
$GPGNS,021457.00,,,,,,10,,,,2.9,136*76
$GLGNS,021457.00,,,,,,07,,,,,*7D
$GAGNS,021457.00,,,,,,08,,,,,*7F
$GBGNS,021457.00,,,,,,14,,,,,*71
$GPLLQ,021457.00,010125,,M,,M,1,39,0.847,,M*15
$GPVTG,,T,,M,0.00,N,0.00,K,D*26
$GPHDT,,T*1B
$GPTHS,,V*0E
$GPROT,,V*08
$PSSN,HRP,021457.00,010125,,,,,,,00,0,,*64
$PTNL,AVR,021457.00,,Yaw,,Tilt,,,,0,,00*32
$GPGSA,A,3,02,03,04,06,09,17,19,21,28,31,,,0.8,0.4,0.6*37
$GPGSA,A,3,69,70,71,78,79,85,86,,,,,,0.8,0.4,0.6*34
$GPGSA,A,3,04,05,06,09,10,11,34,36,,,,,0.8,0.4,0.6*35
$GPGSA,A,3,05,06,09,16,19,20,22,29,32,35,37,39,0.8,0.4,0.6*3D
$GPGSA,A,3,44,60,,,,,,,,,,,0.8,0.4,0.6*3E
$GPGST,021457.00,0.936,0.356,0.294,351.570,0.355,0.295,0.710*5F
$GPGBS,021457.00,2.082,1.663,4.760,21,0.0001,-0.979,1.098*7D
$GPGRS,021457.00,1,0.2,0.3,-0.1,0.1,-0.3,0.1,-0.1,-1.0,0.2,0.2,,*48
$GPGRS,021457.00,1,-0.5,-1.2,1.6,-1.7,0.4,2.4,-0.9,,,,,*69
$GPGRS,021457.00,1,-0.0,0.3,0.2,0.3,-0.5,0.2,0.1,0.0,,,,*4F
$GPGRS,021457.00,1,1.7,1.6,0.5,0.6,-0.4,-1.3,0.2,-0.2,-0.4,-0.6,0.7,-0.3*49
$GPGRS,021457.00,1,0.1,-1.8,,,,,,,,,,*6E
$GPGSV,5,1,20,04,73,209,48,06,28,313,43,28,18,041,40,21,13,154,36*74
$GPGSV,5,2,20,17,28,249,45,19,30,281,45,02,30,160,45,31,33,066,46*78
$GPGSV,5,3,20,01,35,151,,09,43,227,47,03,69,068,50,36,35,170,44*77
$GPGSV,5,4,20,58,13,245,37,40,24,132,36,34,31,208,43,49,34,195,44*7A
$GPGSV,5,5,20,57,09,110,37,41,07,108,34,61,03,257,37*48
$GLGSV,3,1,09,70,69,299,41,78,12,020,45,79,18,071,45,84,21,172,34*62
$GLGSV,3,2,09,71,26,253,48,86,38,320,51,69,30,050,48,85,64,223,52*69
$GLGSV,3,3,09,80,03,119,*5E
$GAGSV,3,1,10,09,82,168,48,18,22,285,,05,30,223,43,10,11,144,37*6B
$GAGSV,3,2,10,04,40,055,44,34,33,312,43,11,37,150,41,06,67,067,48*67
$GAGSV,3,3,10,36,78,235,48,21,01,027,*6C
$GBGSV,5,1,19,48,82,002,,37,20,089,42,44,16,321,41,39,24,042,42*6C
$GBGSV,5,2,19,05,24,128,39,16,32,050,43,29,31,199,46,06,33,054,42*69
$GBGSV,5,3,19,35,45,277,48,09,40,069,42,19,61,270,51,20,63,056,51*66
$GBGSV,5,4,19,32,09,071,41,22,10,256,41,21,09,247,,46,06,140,*66
$GBGSV,5,5,19,02,08,106,35,58,00,130,,60,09,110,39*52
$GPGGA,021457.00,,,,,0,00,,,M,,M,,*4D
$PTNL,GGK,021457.00,010125,4742.1602870,N,01618.1002580,E,1,39,0.8,EHT751.2728,M*4E
$GPGGQ,021457.00,010125,4742.1602870,N,01618.1002580,E,1,39,0.847,708.0662,M*32
$GPGFA,021457.00,3.383,5.821,0.356,0.294,351.570,0.710,,VVV*0F
$GPLLK,021457.00,010125,,M,,M,1,39,0.9,,M*0D
$GNGMP,021457.00,,,,,DAAA,39,0.4,,,,*5D
$GPGMP,021457.00,,,,,,10,,,,2.9,136*76
$GLGMP,021457.00,,,,,,07,,,,,*7D
$GAGMP,021457.00,,,,,,08,,,,,*7F
$GBGMP,021457.00,,,,,,14,,,,,*71
$PSSN,SNC,[0,267315000,2347]*40
$GPZDA,021502.00,01,01,2025,,*67
$GPDTM,W84,,00.0000000,N,00.0000000,E,00.0000000,W84*5F
$PSSN,TFM,021502.00,,,,*6B
$GPRMC,021502.00,A,4742.1602860,N,01618.1002558,E,0.0,,010125,5.1,E,D*12
$GPGLL,4742.1602860,N,01618.1002558,E,021502.00,A,D*63
$GPGGA,021502.00,4742.1602860,N,01618.1002558,E,2,39,0.4,708.0640,M,43.2066,M,2.7,0136*49
$GNGNS,021502.00,4742.1602860,N,01618.1002558,E,DAAA,39,0.4,708.0640,43.2066,,*54
$GPGNS,021502.00,,,,,,10,,,,2.7,136*79
$GLGNS,021502.00,,,,,,07,,,,,*7C
$GAGNS,021502.00,,,,,,08,,,,,*7E
$GBGNS,021502.00,,,,,,14,,,,,*70
$GPLLQ,021502.00,010125,,M,,M,1,39,0.856,,M*14
$GPVTG,,T,,M,0.00,N,0.01,K,D*27
$GPHDT,,T*1B
$GPTHS,,V*0E
$GPROT,,V*08
$PSSN,HRP,021502.00,010125,,,,,,,00,0,,*65
$PTNL,AVR,021502.00,,Yaw,,Tilt,,,,0,,00*33
$GPGSA,A,3,02,03,04,06,09,17,19,21,28,31,,,0.8,0.4,0.6*37
$GPGSA,A,3,69,70,71,78,79,85,86,,,,,,0.8,0.4,0.6*34
$GPGSA,A,3,04,05,06,09,10,11,34,36,,,,,0.8,0.4,0.6*35
$GPGSA,A,3,05,06,09,16,19,20,22,29,32,35,37,39,0.8,0.4,0.6*3D
$GPGSA,A,3,44,60,,,,,,,,,,,0.8,0.4,0.6*3E
$GPGST,021502.00,0.898,0.359,0.292,350.742,0.357,0.294,0.720*50
$GPGBS,021502.00,2.038,1.660,4.832,85,0.0001,2.352,6.043*55
$GPGRS,021502.00,1,0.3,0.0,0.1,-0.2,0.0,0.1,-0.1,-0.3,-0.2,-0.0,,*66
$GPGRS,021502.00,1,-1.0,-0.8,1.6,-0.9,0.2,2.4,-0.8,,,,,*6F
$GPGRS,021502.00,1,0.3,-0.2,0.2,0.1,-0.4,-0.1,-0.0,0.1,,,,*4C
$GPGRS,021502.00,1,1.7,1.4,0.3,0.6,-0.3,-1.5,-0.2,-0.3,-0.1,-0.6,1.6,-0.8*6F
$GPGRS,021502.00,1,-0.1,-1.7,,,,,,,,,,*4D
$GPGSV,5,1,20,04,73,209,48,06,28,313,42,28,18,041,39,21,13,154,36*7B
$GPGSV,5,2,20,17,28,249,45,19,30,281,44,02,30,160,45,31,33,066,46*79
$GPGSV,5,3,20,01,35,151,,09,43,227,47,03,68,068,50,36,35,170,44*76
$GPGSV,5,4,20,58,13,245,37,40,24,132,36,34,31,208,43,49,34,195,44*7A
$GPGSV,5,5,20,57,09,110,37,41,07,108,34,61,03,257,37*48
$GLGSV,3,1,09,70,69,299,41,78,12,020,45,79,18,071,46,84,21,172,34*61
$GLGSV,3,2,09,71,26,253,48,86,38,320,51,69,30,050,48,85,64,223,53*68
$GLGSV,3,3,09,80,03,119,*5E
$GAGSV,3,1,10,09,82,168,48,18,22,285,,05,30,223,42,10,11,144,38*65
$GAGSV,3,2,10,04,40,055,44,34,33,312,43,11,37,150,42,06,67,067,48*64
$GAGSV,3,3,10,36,78,235,48,21,01,027,*6C
$GBGSV,5,1,19,48,82,002,,37,20,089,43,44,16,321,41,39,24,042,42*6D
$GBGSV,5,2,19,05,24,128,39,16,32,050,43,29,31,199,46,06,33,054,42*69
$GBGSV,5,3,19,35,45,277,48,09,40,069,42,19,61,270,51,20,63,056,51*66
$GBGSV,5,4,19,32,09,071,41,22,10,256,41,21,09,247,,46,06,140,*66
$GBGSV,5,5,19,02,08,106,35,58,01,130,,60,09,110,39*53
$GPGGA,021502.00,,,,,0,00,,,M,,M,,*4C
$PTNL,GGK,021502.00,010125,4742.1602860,N,01618.1002558,E,1,39,0.8,EHT751.2706,M*47
$GPGGQ,021502.00,010125,4742.1602860,N,01618.1002558,E,1,39,0.856,708.0640,M*37
$GPGFA,021502.00,3.409,5.901,0.359,0.292,350.742,0.720,,VVV*00
$GPLLK,021502.00,010125,,M,,M,1,39,0.9,,M*0C
$GNGMP,021502.00,,,,,DAAA,39,0.4,,,,*5C
$GPGMP,021502.00,,,,,,10,,,,2.7,136*79
$GLGMP,021502.00,,,,,,07,,,,,*7C
$GAGMP,021502.00,,,,,,08,,,,,*7E
$GBGMP,021502.00,,,,,,14,,,,,*70
$PSSN,SNC,[0,267320000,2347]*46
$GPZDA,021507.00,01,01,2025,,*62
$GPDTM,W84,,00.0000000,N,00.0000000,E,00.0000000,W84*5F
$PSSN,TFM,021507.00,,,,*6E
$GPRMC,021507.00,A,4742.1602875,N,01618.1002556,E,0.0,,010125,5.1,E,D*1D
$GPGLL,4742.1602875,N,01618.1002556,E,021507.00,A,D*6C
$GPGGA,021507.00,4742.1602875,N,01618.1002556,E,2,39,0.4,708.0608,M,43.2066,M,1.7,0136*49
$GNGNS,021507.00,4742.1602875,N,01618.1002556,E,DAAA,39,0.4,708.0608,43.2066,,*57
$GPGNS,021507.00,,,,,,10,,,,1.7,136*7F
$GLGNS,021507.00,,,,,,07,,,,,*79
$GAGNS,021507.00,,,,,,08,,,,,*7B
$GBGNS,021507.00,,,,,,14,,,,,*75
$GPLLQ,021507.00,010125,,M,,M,1,39,0.846,,M*10
$GPVTG,,T,,M,0.00,N,0.00,K,D*26
$GPHDT,,T*1B
$GPTHS,,V*0E
$GPROT,,V*08
$PSSN,HRP,021507.00,010125,,,,,,,00,0,,*60
$PTNL,AVR,021507.00,,Yaw,,Tilt,,,,0,,00*36
$GPGSA,A,3,02,03,04,06,09,17,19,21,28,31,,,0.8,0.4,0.6*37
$GPGSA,A,3,69,70,71,78,79,85,86,,,,,,0.8,0.4,0.6*34
$GPGSA,A,3,04,05,06,09,10,11,34,36,,,,,0.8,0.4,0.6*35
$GPGSA,A,3,05,06,09,16,19,20,22,29,32,35,37,39,0.8,0.4,0.6*3D
$GPGSA,A,3,44,60,,,,,,,,,,,0.8,0.4,0.6*3E
$GPGST,021507.00,1.080,0.355,0.290,352.504,0.354,0.292,0.710*5F
$GPGBS,021507.00,2.021,1.611,4.630,85,0.0001,2.517,6.043*55
$GPGRS,021507.00,1,-0.2,0.0,0.0,-0.1,0.1,0.0,-0.3,-0.4,0.0,0.2,,*48
$GPGRS,021507.00,1,-1.4,-0.5,1.8,-2.1,1.2,2.5,-1.0,,,,,*6E
$GPGRS,021507.00,1,-0.1,-0.3,0.2,0.2,-0.5,0.2,0.1,0.0,,,,*66
$GPGRS,021507.00,1,2.5,0.7,0.5,1.1,-0.3,-1.4,0.4,0.1,-0.3,-0.7,1.5,-0.8*6C
$GPGRS,021507.00,1,0.2,-2.0,,,,,,,,,,*62
$GPGSV,5,1,20,04,73,209,48,06,28,313,42,28,18,041,40,21,13,154,36*75
$GPGSV,5,2,20,17,28,249,44,19,30,281,45,02,30,160,45,31,33,066,45*7A
$GPGSV,5,3,20,01,35,151,,09,43,228,47,03,68,068,50,36,35,170,44*79
$GPGSV,5,4,20,58,13,245,37,40,24,132,36,34,31,208,43,49,34,195,44*7A
$GPGSV,5,5,20,57,09,110,37,41,07,108,34,61,03,257,38*47
$GLGSV,3,1,09,70,69,299,41,78,12,020,45,79,18,071,46,84,21,172,34*61
$GLGSV,3,2,09,71,26,253,48,86,38,320,51,69,30,050,47,85,64,223,53*67
$GLGSV,3,3,09,80,03,119,*5E
$GAGSV,3,1,10,09,82,168,49,18,22,285,,05,30,223,42,10,11,145,38*65
$GAGSV,3,2,10,04,40,055,44,34,33,312,44,11,37,150,41,06,67,067,48*60
$GAGSV,3,3,10,36,78,235,48,21,01,027,*6C
$GBGSV,5,1,19,48,82,003,,37,20,089,44,44,16,321,42,39,24,042,42*68
$GBGSV,5,2,19,05,24,128,39,16,31,050,43,29,31,199,45,06,33,054,42*69
$GBGSV,5,3,19,35,45,277,48,09,40,069,42,19,61,270,51,20,63,056,51*66
$GBGSV,5,4,19,32,09,071,41,22,10,256,41,21,10,247,,46,06,140,*6E
$GBGSV,5,5,19,02,08,106,35,58,01,130,,60,09,110,39*53
$GPGGA,021507.00,,,,,0,00,,,M,,M,,*49
$PTNL,GGK,021507.00,010125,4742.1602875,N,01618.1002556,E,1,39,0.8,EHT751.2674,M*4C
$GPGGQ,021507.00,010125,4742.1602875,N,01618.1002556,E,1,39,0.846,708.0608,M*35
$GPGFA,021507.00,3.379,5.825,0.355,0.290,352.504,0.710,,VVV*0D
$GPLLK,021507.00,010125,,M,,M,1,39,0.9,,M*09
$GNGMP,021507.00,,,,,DAAA,39,0.4,,,,*59
$GPGMP,021507.00,,,,,,10,,,,1.7,136*7F
$GLGMP,021507.00,,,,,,07,,,,,*79
$GAGMP,021507.00,,,,,,08,,,,,*7B
$GBGMP,021507.00,,,,,,14,,,,,*75
$PSSN,SNC,[0,267325000,2347]*43
$GPZDA,021512.00,01,01,2025,,*66
$GPDTM,W84,,00.0000000,N,00.0000000,E,00.0000000,W84*5F
$PSSN,TFM,021512.00,,,,*6A
$GPRMC,021512.00,A,4742.1602856,N,01618.1002576,E,0.0,,010125,5.1,E,D*1A
$GPGLL,4742.1602856,N,01618.1002576,E,021512.00,A,D*6B
$GPGGA,021512.00,4742.1602856,N,01618.1002576,E,2,39,0.4,708.0563,M,43.2066,M,2.7,0136*43
$GNGNS,021512.00,4742.1602856,N,01618.1002576,E,DAAA,39,0.4,708.0563,43.2066,,*5E
$GPGNS,021512.00,,,,,,10,,,,2.7,136*78
$GLGNS,021512.00,,,,,,07,,,,,*7D
$GAGNS,021512.00,,,,,,08,,,,,*7F
$GBGNS,021512.00,,,,,,14,,,,,*71
$GPLLQ,021512.00,010125,,M,,M,1,39,0.833,,M*16
$GPVTG,,T,,M,0.00,N,0.00,K,D*26
$GPHDT,,T*1B
$GPTHS,,V*0E
$GPROT,,V*08
$PSSN,HRP,021512.00,010125,,,,,,,00,0,,*64
$PTNL,AVR,021512.00,,Yaw,,Tilt,,,,0,,00*32
$GPGSA,A,3,02,03,04,06,09,17,19,21,28,31,,,0.8,0.4,0.6*37
$GPGSA,A,3,69,70,71,78,79,85,86,,,,,,0.8,0.4,0.6*34
$GPGSA,A,3,04,05,06,09,10,11,34,36,,,,,0.8,0.4,0.6*35
$GPGSA,A,3,05,06,09,16,19,20,22,29,32,35,37,39,0.8,0.4,0.6*3D
$GPGSA,A,3,44,60,,,,,,,,,,,0.8,0.4,0.6*3E
$GPGST,021512.00,1.081,0.352,0.291,352.518,0.351,0.292,0.697*5A
$GPGBS,021512.00,2.045,1.632,4.702,02,0.0001,-0.440,0.746*75
$GPGRS,021512.00,1,-0.4,0.2,0.1,0.1,0.2,0.0,-0.2,-0.3,0.5,0.0,,*66
$GPGRS,021512.00,1,-1.4,-1.0,1.7,-2.1,1.6,2.4,-0.8,,,,,*6D
$GPGRS,021512.00,1,0.1,0.2,0.2,0.4,-0.3,0.0,0.3,-0.0,,,,*4E
$GPGRS,021512.00,1,2.6,0.9,0.3,1.4,-0.4,-1.3,0.3,-0.0,-0.4,-0.4,1.4,-0.9*49
$GPGRS,021512.00,1,0.2,-1.4,,,,,,,,,,*61
$GPGSV,5,1,20,04,73,209,48,06,28,313,42,28,18,041,40,21,13,154,36*75
$GPGSV,5,2,20,17,28,249,44,19,30,281,44,02,30,160,45,31,33,066,46*78
$GPGSV,5,3,20,01,35,151,,09,43,228,46,03,68,068,50,36,35,170,44*78
$GPGSV,5,4,20,58,13,245,37,40,24,132,36,34,31,208,43,49,34,195,44*7A
$GPGSV,5,5,20,57,09,110,37,41,07,108,34,61,03,257,38*47
$GLGSV,3,1,09,70,69,299,41,78,12,020,44,79,18,070,47,84,21,172,33*67
$GLGSV,3,2,09,71,26,253,48,86,38,320,50,69,30,050,47,85,64,223,53*66
$GLGSV,3,3,09,80,03,119,*5E
$GAGSV,3,1,10,09,82,168,48,18,22,285,,05,30,223,43,10,11,145,38*65
$GAGSV,3,2,10,04,40,055,44,34,33,312,44,11,37,150,40,06,66,067,48*60
$GAGSV,3,3,10,36,78,235,48,21,01,027,*6C
$GBGSV,5,1,19,48,82,003,,37,20,089,44,44,16,321,41,39,24,042,42*6B
$GBGSV,5,2,19,05,24,128,39,16,31,050,43,29,31,199,46,06,33,054,41*69
$GBGSV,5,3,19,35,45,277,48,09,40,069,42,19,61,270,50,20,63,056,51*67
$GBGSV,5,4,19,32,09,071,40,22,10,256,41,21,10,247,,46,06,140,*6F
$GBGSV,5,5,19,02,08,106,34,58,01,130,,60,09,110,39*52
$GPGGA,021512.00,,,,,0,00,,,M,,M,,*4D
$PTNL,GGK,021512.00,010125,4742.1602856,N,01618.1002576,E,1,39,0.8,EHT751.2629,M*43
$GPGGQ,021512.00,010125,4742.1602856,N,01618.1002576,E,1,39,0.833,708.0563,M*3E
$GPGFA,021512.00,3.344,5.715,0.352,0.291,352.518,0.697,,VVV*0E
$GPLLK,021512.00,010125,,M,,M,1,39,0.9,,M*0D
$GNGMP,021512.00,,,,,DAAA,39,0.4,,,,*5D
$GPGMP,021512.00,,,,,,10,,,,2.7,136*78
$GLGMP,021512.00,,,,,,07,,,,,*7D
$GAGMP,021512.00,,,,,,08,,,,,*7F
$GBGMP,021512.00,,,,,,14,,,,,*71
$PSSN,SNC,[0,267330000,2347]*47
$GPZDA,021517.00,01,01,2025,,*63
$GPDTM,W84,,00.0000000,N,00.0000000,E,00.0000000,W84*5F
$PSSN,TFM,021517.00,,,,*6F
$GPRMC,021517.00,A,4742.1602844,N,01618.1002544,E,0.0,,010125,5.1,E,D*1D
$GPGLL,4742.1602844,N,01618.1002544,E,021517.00,A,D*6C
$GPGGA,021517.00,4742.1602844,N,01618.1002544,E,2,39,0.4,708.0545,M,43.2066,M,2.9,0136*4E
$GNGNS,021517.00,4742.1602844,N,01618.1002544,E,DAAA,39,0.4,708.0545,43.2066,,*5D
$GPGNS,021517.00,,,,,,10,,,,2.9,136*73
$GLGNS,021517.00,,,,,,07,,,,,*78
$GAGNS,021517.00,,,,,,08,,,,,*7A
$GBGNS,021517.00,,,,,,14,,,,,*74
$GPLLQ,021517.00,010125,,M,,M,1,39,0.846,,M*11
$GPVTG,,T,,M,0.00,N,0.00,K,D*26
$GPHDT,,T*1B
$GPTHS,,V*0E
$GPROT,,V*08
$PSSN,HRP,021517.00,010125,,,,,,,00,0,,*61
$PTNL,AVR,021517.00,,Yaw,,Tilt,,,,0,,00*37
$GPGSA,A,3,02,03,04,06,09,17,19,21,28,31,,,0.8,0.4,0.6*37
$GPGSA,A,3,69,70,71,78,79,85,86,,,,,,0.8,0.4,0.6*34
$GPGSA,A,3,04,05,06,09,10,11,34,36,,,,,0.8,0.4,0.6*35
$GPGSA,A,3,05,06,09,16,19,20,22,29,32,35,37,39,0.8,0.4,0.6*3D
$GPGSA,A,3,44,60,,,,,,,,,,,0.8,0.4,0.6*3E
$GPGST,021517.00,1.038,0.356,0.294,351.390,0.355,0.295,0.709*5C
$GPGBS,021517.00,2.083,1.660,4.756,28,0.0001,0.607,1.301*5E
$GPGRS,021517.00,1,-0.1,0.1,0.0,0.2,0.0,-0.4,-0.1,0.2,0.6,0.0,,*60
$GPGRS,021517.00,1,-1.6,-0.7,2.0,-2.1,1.1,2.3,-1.6,,,,,*67
$GPGRS,021517.00,1,-0.0,0.0,-0.0,0.1,-0.5,0.3,0.4,-0.1,,,,*4C
$GPGRS,021517.00,1,2.1,1.0,0.2,0.9,-0.5,-1.3,0.1,-0.0,-0.5,-0.6,0.6,-1.1*44
$GPGRS,021517.00,1,-0.6,-1.6,,,,,,,,,,*4F
$GPGSV,5,1,20,04,73,209,48,06,28,313,43,28,18,041,41,21,13,154,36*75
$GPGSV,5,2,20,17,28,249,44,19,30,281,45,02,30,160,45,31,33,066,46*79
$GPGSV,5,3,20,01,35,151,,09,43,228,46,03,68,068,50,36,35,170,44*78
$GPGSV,5,4,20,58,13,245,38,40,24,132,36,34,31,208,43,49,34,195,44*75
$GPGSV,5,5,20,57,09,110,37,41,07,108,34,61,03,257,38*47
$GLGSV,3,1,09,70,69,299,41,78,12,020,45,79,18,070,46,84,20,172,34*61
$GLGSV,3,2,09,71,26,253,48,86,38,320,50,69,30,050,47,85,64,222,53*67
$GLGSV,3,3,09,80,03,119,*5E
$GAGSV,3,1,10,09,82,168,48,18,22,285,,05,30,223,42,10,11,145,38*64
$GAGSV,3,2,10,04,40,055,44,34,33,312,43,11,37,150,41,06,66,067,48*66
$GAGSV,3,3,10,36,78,234,48,21,01,027,*6D
$GBGSV,5,1,19,48,82,003,,37,20,089,44,44,16,321,41,39,24,042,42*6B
$GBGSV,5,2,19,05,24,128,39,16,31,050,42,29,31,199,46,06,33,054,41*68
$GBGSV,5,3,19,35,45,277,48,09,40,069,42,19,61,270,51,20,62,056,51*67
$GBGSV,5,4,19,32,09,071,40,22,10,256,41,21,10,247,,46,06,140,*6F
$GBGSV,5,5,19,02,08,106,34,58,01,130,,60,09,110,39*52
$GPGGA,021517.00,,,,,0,00,,,M,,M,,*48
$PTNL,GGK,021517.00,010125,4742.1602844,N,01618.1002544,E,1,39,0.8,EHT751.2610,M*4E
$GPGGQ,021517.00,010125,4742.1602844,N,01618.1002544,E,1,39,0.846,708.0545,M*3F
$GPGFA,021517.00,3.386,5.815,0.356,0.294,351.390,0.709,,VVV*08
$GPLLK,021517.00,010125,,M,,M,1,39,0.9,,M*08
$GNGMP,021517.00,,,,,DAAA,39,0.4,,,,*58
$GPGMP,021517.00,,,,,,10,,,,2.9,136*73
$GLGMP,021517.00,,,,,,07,,,,,*78
$GAGMP,021517.00,,,,,,08,,,,,*7A
$GBGMP,021517.00,,,,,,14,,,,,*74
$PSSN,SNC,[0,267335000,2347]*42
$GPZDA,021522.00,01,01,2025,,*65
$GPDTM,W84,,00.0000000,N,00.0000000,E,00.0000000,W84*5F
$PSSN,TFM,021522.00,,,,*69
$GPRMC,021522.00,A,4742.1602830,N,01618.1002531,E,0.0,,010125,5.1,E,D*1A
$GPGLL,4742.1602830,N,01618.1002531,E,021522.00,A,D*6B
$GPGGA,021522.00,4742.1602830,N,01618.1002531,E,2,39,0.4,708.0586,M,43.2066,M,2.7,0136*48
$GNGNS,021522.00,4742.1602830,N,01618.1002531,E,DAAA,39,0.4,708.0586,43.2066,,*55
$GPGNS,021522.00,,,,,,10,,,,2.7,136*7B
$GLGNS,021522.00,,,,,,07,,,,,*7E
$GAGNS,021522.00,,,,,,08,,,,,*7C
$GBGNS,021522.00,,,,,,14,,,,,*72
$GPLLQ,021522.00,010125,,M,,M,1,39,0.855,,M*15
$GPVTG,,T,,M,0.00,N,0.00,K,D*26
$GPHDT,,T*1B
$GPTHS,,V*0E
$GPROT,,V*08
$PSSN,HRP,021522.00,010125,,,,,,,00,0,,*67
$PTNL,AVR,021522.00,,Yaw,,Tilt,,,,0,,00*31
$GPGSA,A,3,02,03,04,06,09,17,19,21,28,31,,,0.8,0.4,0.6*37
$GPGSA,A,3,69,70,71,78,79,85,86,,,,,,0.8,0.4,0.6*34
$GPGSA,A,3,04,05,06,09,10,11,34,36,,,,,0.8,0.4,0.6*35
$GPGSA,A,3,05,06,09,16,19,20,22,29,32,35,37,39,0.8,0.4,0.6*3D
$GPGSA,A,3,44,60,,,,,,,,,,,0.8,0.4,0.6*3E
$GPGST,021522.00,0.913,0.359,0.293,350.672,0.357,0.294,0.718*58
$GPGBS,021522.00,2.043,1.657,4.830,04,0.0001,-0.252,0.632*7C
$GPGRS,021522.00,1,-0.0,-0.1,-0.3,0.2,0.2,-0.0,-0.1,0.2,0.2,0.1,,*67
$GPGRS,021522.00,1,-0.9,-0.5,1.3,-1.4,0.5,2.3,-1.3,,,,,*6B
$GPGRS,021522.00,1,0.0,-0.3,0.0,-0.1,-0.4,-0.1,0.3,-0.1,,,,*60
$GPGRS,021522.00,1,2.2,1.0,0.3,0.2,-0.5,-1.3,0.3,-0.4,-0.5,-0.8,-0.0,-0.8*60
$GPGRS,021522.00,1,-0.7,-1.9,,,,,,,,,,*47
$GPGSV,5,1,20,04,73,209,48,06,28,313,42,28,18,041,41,21,13,154,36*74
$GPGSV,5,2,20,17,28,249,45,19,30,281,44,02,30,160,45,31,33,066,45*7A
$GPGSV,5,3,20,01,34,151,,09,43,228,47,03,68,068,50,36,35,170,44*78
$GPGSV,5,4,20,58,13,245,38,40,24,132,36,34,31,208,43,49,34,195,44*75
$GPGSV,5,5,20,57,09,110,37,41,07,108,34,61,03,257,37*48
$GLGSV,3,1,09,70,69,299,41,78,12,020,45,79,18,070,46,84,20,172,35*60
$GLGSV,3,2,09,71,27,253,48,86,38,320,51,69,30,050,48,85,64,222,53*68
$GLGSV,3,3,09,80,03,119,*5E
$GAGSV,3,1,10,09,82,168,48,18,22,285,,05,30,223,43,10,10,145,38*64
$GAGSV,3,2,10,04,40,055,44,34,33,312,43,11,37,150,41,06,66,067,48*66
$GAGSV,3,3,10,36,78,234,48,21,01,027,*6D
$GBGSV,5,1,19,48,82,003,,37,20,089,44,44,16,321,41,39,24,042,42*6B
$GBGSV,5,2,19,05,24,128,39,16,31,050,42,29,31,199,46,06,33,054,41*68
$GBGSV,5,3,19,35,45,277,48,09,40,069,42,19,61,270,51,20,62,056,51*67
$GBGSV,5,4,19,32,09,071,40,22,10,257,41,21,10,247,,46,06,140,*6E
$GBGSV,5,5,19,02,08,106,34,58,01,130,,60,09,110,39*52
$GPGGA,021522.00,,,,,0,00,,,M,,M,,*4E
$PTNL,GGK,021522.00,010125,4742.1602830,N,01618.1002531,E,1,39,0.8,EHT751.2652,M*4F
$GPGGQ,021522.00,010125,4742.1602830,N,01618.1002531,E,1,39,0.855,708.0586,M*35
$GPGFA,021522.00,3.412,5.891,0.359,0.293,350.672,0.718,,VVV*08
$GPLLK,021522.00,010125,,M,,M,1,39,0.9,,M*0E
$GNGMP,021522.00,,,,,DAAA,39,0.4,,,,*5E
$GPGMP,021522.00,,,,,,10,,,,2.7,136*7B
$GLGMP,021522.00,,,,,,07,,,,,*7E
$GAGMP,021522.00,,,,,,08,,,,,*7C
$GBGMP,021522.00,,,,,,14,,,,,*72
$PSSN,SNC,[0,267340000,2347]*40
$GPZDA,021527.00,01,01,2025,,*60
$GPDTM,W84,,00.0000000,N,00.0000000,E,00.0000000,W84*5F
$PSSN,TFM,021527.00,,,,*6C
$GPRMC,021527.00,A,4742.1602848,N,01618.1002538,E,0.0,,010125,5.1,E,D*19
$GPGLL,4742.1602848,N,01618.1002538,E,021527.00,A,D*68
$GPGGA,021527.00,4742.1602848,N,01618.1002538,E,2,39,0.4,708.0605,M,43.2066,M,1.7,0136*40
$GNGNS,021527.00,4742.1602848,N,01618.1002538,E,DAAA,39,0.4,708.0605,43.2066,,*5E
$GPGNS,021527.00,,,,,,10,,,,1.7,136*7D
$GLGNS,021527.00,,,,,,07,,,,,*7B
$GAGNS,021527.00,,,,,,08,,,,,*79
$GBGNS,021527.00,,,,,,14,,,,,*77
$GPLLQ,021527.00,010125,,M,,M,1,39,0.845,,M*11
$GPVTG,,T,,M,0.00,N,0.00,K,D*26
$GPHDT,,T*1B
$GPTHS,,V*0E
$GPROT,,V*08
$PSSN,HRP,021527.00,010125,,,,,,,00,0,,*62
$PTNL,AVR,021527.00,,Yaw,,Tilt,,,,0,,00*34
$GPGSA,A,3,02,03,04,06,09,17,19,21,28,31,,,0.8,0.4,0.6*37
$GPGSA,A,3,69,70,71,78,79,85,86,,,,,,0.8,0.4,0.6*34
$GPGSA,A,3,04,05,06,09,10,11,34,36,,,,,0.8,0.4,0.6*35
$GPGSA,A,3,05,06,09,16,19,20,22,29,32,35,37,39,0.8,0.4,0.6*3D
$GPGSA,A,3,44,60,,,,,,,,,,,0.8,0.4,0.6*3E
$GPGST,021527.00,0.983,0.356,0.290,352.367,0.355,0.292,0.709*5F
$GPGBS,021527.00,2.026,1.608,4.630,09,0.0001,0.436,0.646*59
$GPGRS,021527.00,1,0.1,-0.2,-0.1,0.1,0.4,0.1,-0.4,-0.2,0.3,0.2,,*4C
$GPGRS,021527.00,1,-1.1,-0.7,1.6,-1.7,0.4,1.9,-1.3,,,,,*6B
$GPGRS,021527.00,1,-0.5,-0.3,-0.3,0.1,-0.7,-0.0,-0.1,-0.1,,,,*63
$GPGRS,021527.00,1,2.4,0.8,0.2,-0.0,-0.5,-1.8,0.5,-0.2,-0.6,-1.1,-0.4,-1.0*49
$GPGRS,021527.00,1,-0.4,-1.9,,,,,,,,,,*41
$GPGSV,5,1,20,04,73,209,48,06,28,313,42,28,18,041,41,21,13,154,37*75
$GPGSV,5,2,20,17,28,249,44,19,30,281,45,02,30,161,45,31,33,066,45*7B
$GPGSV,5,3,20,01,34,151,,09,43,228,46,03,68,068,50,36,35,170,44*79
$GPGSV,5,4,20,58,13,245,37,40,24,132,36,34,31,208,43,49,34,195,44*7A
$GPGSV,5,5,20,57,09,110,37,41,07,108,34,61,03,257,37*48
$GLGSV,3,1,09,70,69,299,41,78,12,020,44,79,18,070,46,84,20,172,35*61
$GLGSV,3,2,09,71,27,253,48,86,38,320,50,69,30,050,48,85,64,222,53*69
$GLGSV,3,3,09,80,03,119,*5E
$GAGSV,3,1,10,09,82,168,48,18,22,284,,05,30,223,43,10,10,145,39*64
$GAGSV,3,2,10,04,40,055,44,34,33,312,43,11,37,150,41,06,66,067,48*66
$GAGSV,3,3,10,36,78,234,48,21,01,027,*6D
$GBGSV,5,1,19,48,82,004,,37,20,089,43,44,16,321,41,39,24,042,42*6B
$GBGSV,5,2,19,05,24,128,39,16,31,050,43,29,31,199,47,06,33,054,41*68
$GBGSV,5,3,19,35,45,277,48,09,40,069,42,19,61,270,51,20,62,056,51*67
$GBGSV,5,4,19,32,09,071,40,22,10,257,41,21,10,247,,46,06,140,*6E
$GBGSV,5,5,19,02,08,106,35,58,01,130,,60,09,110,39*53
$GPGGA,021527.00,,,,,0,00,,,M,,M,,*4B
$PTNL,GGK,021527.00,010125,4742.1602848,N,01618.1002538,E,1,39,0.8,EHT751.2671,M*4D
$GPGGQ,021527.00,010125,4742.1602848,N,01618.1002538,E,1,39,0.845,708.0605,M*3F
$GPGFA,021527.00,3.383,5.816,0.356,0.290,352.367,0.709,,VVV*02
$GPLLK,021527.00,010125,,M,,M,1,39,0.9,,M*0B
$GNGMP,021527.00,,,,,DAAA,39,0.4,,,,*5B
$GPGMP,021527.00,,,,,,10,,,,1.7,136*7D
$GLGMP,021527.00,,,,,,07,,,,,*7B
$GAGMP,021527.00,,,,,,08,,,,,*79
$GBGMP,021527.00,,,,,,14,,,,,*77
$PSSN,SNC,[0,267345000,2347]*45
$GPZDA,021532.00,01,01,2025,,*64
$GPDTM,W84,,00.0000000,N,00.0000000,E,00.0000000,W84*5F
$PSSN,TFM,021532.00,,,,*68
$GPRMC,021532.00,A,4742.1602834,N,01618.1002524,E,0.0,,010125,5.1,E,D*1B
$GPGLL,4742.1602834,N,01618.1002524,E,021532.00,A,D*6A
$GPGGA,021532.00,4742.1602834,N,01618.1002524,E,2,39,0.4,708.0585,M,43.2066,M,2.7,0136*4A
$GNGNS,021532.00,4742.1602834,N,01618.1002524,E,DAAA,39,0.4,708.0585,43.2066,,*57
$GPGNS,021532.00,,,,,,10,,,,2.7,136*7A
$GLGNS,021532.00,,,,,,07,,,,,*7F
$GAGNS,021532.00,,,,,,08,,,,,*7D
$GBGNS,021532.00,,,,,,14,,,,,*73
$GPLLQ,021532.00,010125,,M,,M,1,39,0.832,,M*15
$GPVTG,,T,,M,0.00,N,0.00,K,D*26
$GPHDT,,T*1B
$GPTHS,,V*0E
$GPROT,,V*08
$PSSN,HRP,021532.00,010125,,,,,,,00,0,,*66
$PTNL,AVR,021532.00,,Yaw,,Tilt,,,,0,,00*30
$GPGSA,A,3,02,03,04,06,09,17,19,21,28,31,,,0.8,0.4,0.6*37
$GPGSA,A,3,69,70,71,78,79,85,86,,,,,,0.8,0.4,0.6*34
$GPGSA,A,3,04,05,06,09,10,11,34,36,,,,,0.8,0.4,0.6*35
$GPGSA,A,3,05,06,09,16,19,20,22,29,32,35,37,39,0.8,0.4,0.6*3D
$GPGSA,A,3,44,60,,,,,,,,,,,0.8,0.4,0.6*3E
$GPGST,021532.00,1.049,0.352,0.291,352.504,0.351,0.292,0.695*53
$GPGBS,021532.00,2.041,1.628,4.696,21,0.0001,-0.841,1.087*73
$GPGRS,021532.00,1,-0.1,-0.1,0.0,0.0,0.2,-0.1,0.0,-0.8,0.2,0.4,,*44
$GPGRS,021532.00,1,-1.4,-0.9,1.9,-2.2,0.4,2.0,-1.5,,,,,*61
$GPGRS,021532.00,1,-0.6,-0.2,-0.0,0.2,-0.5,-0.2,0.0,-0.1,,,,*49
$GPGRS,021532.00,1,2.1,0.5,-0.1,0.3,-0.7,-1.7,-0.0,-0.0,-0.5,-0.8,-0.9,-1.1*65
$GPGRS,021532.00,1,0.0,-2.1,,,,,,,,,,*67
$GPGSV,5,1,20,04,73,209,48,06,28,313,42,28,18,041,41,21,13,154,37*75
$GPGSV,5,2,20,17,27,249,45,19,30,281,45,02,30,161,45,31,33,066,46*76
$GPGSV,5,3,20,01,34,151,,09,43,228,47,03,68,068,50,36,35,170,44*78
$GPGSV,5,4,20,58,13,245,38,40,24,132,36,34,31,208,43,49,34,195,44*75
$GPGSV,5,5,20,57,09,110,37,41,07,108,34,61,03,257,37*48
$GLGSV,3,1,09,70,69,300,41,78,12,020,43,79,18,070,45,84,20,172,34*65
$GLGSV,3,2,09,71,27,253,48,86,38,320,51,69,30,050,48,85,64,222,53*68
$GLGSV,3,3,09,80,03,119,*5E
$GAGSV,3,1,10,09,82,168,48,18,22,284,,05,30,223,43,10,10,145,39*64
$GAGSV,3,2,10,04,40,055,44,34,33,312,44,11,37,150,42,06,66,067,47*6D
$GAGSV,3,3,10,36,78,234,48,21,01,027,*6D
$GBGSV,5,1,19,48,82,004,,37,20,089,43,44,16,321,41,39,24,042,42*6B
$GBGSV,5,2,19,05,24,128,39,16,31,050,42,29,31,199,47,06,33,054,41*69
$GBGSV,5,3,19,35,45,277,48,09,40,069,42,19,61,270,51,20,62,056,51*67
$GBGSV,5,4,19,32,08,071,40,22,10,257,42,21,10,247,,46,06,140,*6C
$GBGSV,5,5,19,02,08,106,35,58,01,130,,60,09,110,39*53
$GPGGA,021532.00,,,,,0,00,,,M,,M,,*4F
$PTNL,GGK,021532.00,010125,4742.1602834,N,01618.1002524,E,1,39,0.8,EHT751.2651,M*4D
$GPGGQ,021532.00,010125,4742.1602834,N,01618.1002524,E,1,39,0.832,708.0585,M*36
$GPGFA,021532.00,3.345,5.702,0.352,0.291,352.504,0.695,,VVV*04
$GPLLK,021532.00,010125,,M,,M,1,39,0.9,,M*0F
$GNGMP,021532.00,,,,,DAAA,39,0.4,,,,*5F
$GPGMP,021532.00,,,,,,10,,,,2.7,136*7A
$GLGMP,021532.00,,,,,,07,,,,,*7F
$GAGMP,021532.00,,,,,,08,,,,,*7D
$GBGMP,021532.00,,,,,,14,,,,,*73
$PSSN,SNC,[0,267350000,2347]*41
$GPZDA,021537.00,01,01,2025,,*61
$GPDTM,W84,,00.0000000,N,00.0000000,E,00.0000000,W84*5F
$PSSN,TFM,021537.00,,,,*6D
$GPRMC,021537.00,A,4742.1602829,N,01618.1002555,E,0.0,,010125,5.1,E,D*14
$GPGLL,4742.1602829,N,01618.1002555,E,021537.00,A,D*65
$GPGGA,021537.00,4742.1602829,N,01618.1002555,E,2,39,0.4,708.0568,M,43.2066,M,2.9,0136*48
$GNGNS,021537.00,4742.1602829,N,01618.1002555,E,DAAA,39,0.4,708.0568,43.2066,,*5B
$GPGNS,021537.00,,,,,,10,,,,2.9,136*71
$GLGNS,021537.00,,,,,,07,,,,,*7A
$GAGNS,021537.00,,,,,,08,,,,,*78
$GBGNS,021537.00,,,,,,14,,,,,*76
$GPLLQ,021537.00,010125,,M,,M,1,39,0.846,,M*13
$GPVTG,,T,,M,0.00,N,0.00,K,D*26
$GPHDT,,T*1B
$GPTHS,,V*0E
$GPROT,,V*08
$PSSN,HRP,021537.00,010125,,,,,,,00,0,,*63
$PTNL,AVR,021537.00,,Yaw,,Tilt,,,,0,,00*35
$GPGSA,A,3,02,03,04,06,09,17,19,21,28,31,,,0.8,0.4,0.6*37
$GPGSA,A,3,69,70,71,78,79,85,86,,,,,,0.8,0.4,0.6*34
$GPGSA,A,3,04,05,06,09,10,11,34,36,,,,,0.8,0.4,0.6*35
$GPGSA,A,3,05,06,09,16,19,20,22,29,32,35,37,39,0.8,0.4,0.6*3D
$GPGSA,A,3,44,60,,,,,,,,,,,0.8,0.4,0.6*3E
$GPGST,021537.00,1.092,0.357,0.294,351.264,0.355,0.295,0.708*54
$GPGBS,021537.00,2.088,1.658,4.755,09,0.0001,0.330,0.676*59
$GPGRS,021537.00,1,-0.4,0.0,-0.1,0.1,0.3,0.1,-0.2,-0.2,-0.3,0.2,,*66
$GPGRS,021537.00,1,-1.5,-1.0,1.6,-2.8,0.6,2.3,-1.1,,,,,*6D
$GPGRS,021537.00,1,-0.0,-0.2,-0.1,0.2,-0.4,-0.0,0.4,0.1,,,,*61
$GPGRS,021537.00,1,2.7,0.9,-0.2,0.8,-0.5,-1.4,0.0,-0.5,-0.6,-0.7,-0.6,-1.0*49
$GPGRS,021537.00,1,0.1,-1.9,,,,,,,,,,*68
$GPGSV,5,1,20,04,73,209,48,06,28,313,43,28,18,041,41,21,13,154,37*74
$GPGSV,5,2,20,17,27,249,45,19,30,281,44,02,30,161,45,31,33,066,46*77
$GPGSV,5,3,20,01,34,151,,09,43,228,47,03,68,068,50,36,35,170,44*78
$GPGSV,5,4,20,58,13,245,37,40,24,132,36,34,31,208,43,49,34,195,44*7A
$GPGSV,5,5,20,57,09,110,38,41,07,108,34,61,03,257,37*47
$GLGSV,3,1,09,70,69,300,42,78,12,020,43,79,18,070,46,84,20,172,34*65
$GLGSV,3,2,09,71,27,253,48,86,38,320,51,69,30,050,47,85,64,222,53*67
$GLGSV,3,3,09,80,04,118,*58
$GAGSV,3,1,10,09,82,167,49,18,22,284,,05,30,223,43,10,10,145,39*6A
$GAGSV,3,2,10,04,40,055,44,34,33,312,44,11,37,150,42,06,66,067,48*62
$GAGSV,3,3,10,36,78,234,48,21,01,027,*6D
$GBGSV,5,1,19,48,82,004,,37,20,089,42,44,16,320,41,39,24,042,42*6B
$GBGSV,5,2,19,05,24,128,39,16,31,050,43,29,31,199,47,06,33,054,41*68
$GBGSV,5,3,19,35,45,276,48,09,40,069,42,19,61,271,51,20,62,056,51*67
$GBGSV,5,4,19,32,08,071,40,22,10,257,41,21,10,247,,46,06,140,*6F
$GBGSV,5,5,19,02,08,106,35,58,01,130,,60,09,110,39*53
$GPGGA,021537.00,,,,,0,00,,,M,,M,,*4A
$PTNL,GGK,021537.00,010125,4742.1602829,N,01618.1002555,E,1,39,0.8,EHT751.2633,M*46
$GPGGQ,021537.00,010125,4742.1602829,N,01618.1002555,E,1,39,0.846,708.0568,M*39
$GPGFA,021537.00,3.390,5.806,0.357,0.294,351.264,0.708,,VVV*05
$GPLLK,021537.00,010125,,M,,M,1,39,0.9,,M*0A
$GNGMP,021537.00,,,,,DAAA,39,0.4,,,,*5A
$GPGMP,021537.00,,,,,,10,,,,2.9,136*71
$GLGMP,021537.00,,,,,,07,,,,,*7A
$GAGMP,021537.00,,,,,,08,,,,,*78
$GBGMP,021537.00,,,,,,14,,,,,*76
$PSSN,SNC,[0,267355000,2347]*44
$GPZDA,021542.00,01,01,2025,,*63
$GPDTM,W84,,00.0000000,N,00.0000000,E,00.0000000,W84*5F
$PSSN,TFM,021542.00,,,,*6F
$GPRMC,021542.00,A,4742.1602818,N,01618.1002560,E,0.0,,010125,5.1,E,D*12
$GPGLL,4742.1602818,N,01618.1002560,E,021542.00,A,D*63
$GPGGA,021542.00,4742.1602818,N,01618.1002560,E,2,39,0.4,708.0542,M,43.2066,M,2.7,0136*48
$GNGNS,021542.00,4742.1602818,N,01618.1002560,E,DAAA,39,0.4,708.0542,43.2066,,*55
$GPGNS,021542.00,,,,,,10,,,,2.7,136*7D
$GLGNS,021542.00,,,,,,07,,,,,*78
$GAGNS,021542.00,,,,,,08,,,,,*7A
$GBGNS,021542.00,,,,,,14,,,,,*74
$GPLLQ,021542.00,010125,,M,,M,1,39,0.854,,M*12
$GPVTG,,T,,M,0.00,N,0.00,K,D*26
$GPHDT,,T*1B
$GPTHS,,V*0E
$GPROT,,V*08
$PSSN,HRP,021542.00,010125,,,,,,,00,0,,*61
$PTNL,AVR,021542.00,,Yaw,,Tilt,,,,0,,00*37
$GPGSA,A,3,02,03,04,06,09,17,19,21,28,31,,,0.8,0.4,0.6*37
$GPGSA,A,3,69,70,71,78,79,85,86,,,,,,0.8,0.4,0.6*34
$GPGSA,A,3,04,05,06,09,10,11,34,36,,,,,0.8,0.4,0.6*35
$GPGSA,A,3,05,06,09,16,19,20,22,29,32,35,37,39,0.8,0.4,0.6*3D
$GPGSA,A,3,44,60,,,,,,,,,,,0.8,0.4,0.6*3E
$GPGST,021542.00,1.050,0.359,0.293,350.583,0.358,0.295,0.717*5D
$GPGBS,021542.00,2.047,1.655,4.828,06,0.0001,0.512,0.918*5E
$GPGRS,021542.00,1,0.1,-0.0,-0.0,0.5,0.4,-0.3,-0.4,-0.4,-0.4,0.4,,*4D
$GPGRS,021542.00,1,-1.6,-0.6,1.1,-2.5,-0.0,2.3,-1.1,,,,,*4A
$GPGRS,021542.00,1,0.0,-0.4,0.0,0.3,-0.4,-0.1,0.2,-0.2,,,,*4C
$GPGRS,021542.00,1,2.2,0.6,-0.4,1.0,-0.7,-1.5,-0.3,-0.4,-1.3,-0.9,0.3,-1.0*40
$GPGRS,021542.00,1,0.5,-1.7,,,,,,,,,,*60
$GPGSV,5,1,20,04,73,210,48,06,28,313,42,28,18,041,41,21,13,154,37*7D
$GPGSV,5,2,20,17,27,249,44,19,30,281,45,02,30,161,45,31,33,066,46*77
$GPGSV,5,3,20,01,34,151,,09,43,228,47,03,68,068,50,36,35,170,44*78
$GPGSV,5,4,20,58,13,245,38,40,24,132,36,34,31,208,42,49,34,195,44*74
$GPGSV,5,5,20,57,09,110,37,41,07,108,34,61,03,257,37*48
$GLGSV,3,1,09,70,69,300,41,78,12,020,44,79,18,070,45,84,20,172,34*62
$GLGSV,3,2,09,71,27,253,48,86,38,320,51,69,30,050,47,85,64,222,53*67
$GLGSV,3,3,09,80,04,118,*58
$GAGSV,3,1,10,09,82,167,49,18,22,284,,05,30,223,42,10,10,145,39*6B
$GAGSV,3,2,10,04,40,055,44,34,33,312,44,11,37,150,41,06,66,067,48*61
$GAGSV,3,3,10,36,78,234,48,21,01,027,*6D
$GBGSV,5,1,19,48,82,004,,37,20,089,43,44,16,320,41,39,24,042,42*6A
$GBGSV,5,2,19,05,24,128,39,16,31,050,43,29,31,199,47,06,33,054,41*68
$GBGSV,5,3,19,35,45,276,48,09,40,069,42,19,61,271,50,20,62,056,51*66
$GBGSV,5,4,19,32,08,071,40,22,10,257,40,21,10,247,,46,06,140,*6E
$GBGSV,5,5,19,02,08,106,35,58,01,130,,60,09,110,39*53
$GPGGA,021542.00,,,,,0,00,,,M,,M,,*48
$PTNL,GGK,021542.00,010125,4742.1602818,N,01618.1002560,E,1,39,0.8,EHT751.2608,M*48
$GPGGQ,021542.00,010125,4742.1602818,N,01618.1002560,E,1,39,0.854,708.0542,M*34
$GPGFA,021542.00,3.414,5.881,0.359,0.293,350.583,0.717,,VVV*0B
$GPLLK,021542.00,010125,,M,,M,1,39,0.9,,M*08
$GNGMP,021542.00,,,,,DAAA,39,0.4,,,,*58
$GPGMP,021542.00,,,,,,10,,,,2.7,136*7D
$GLGMP,021542.00,,,,,,07,,,,,*78
$GAGMP,021542.00,,,,,,08,,,,,*7A
$GBGMP,021542.00,,,,,,14,,,,,*74
$PSSN,SNC,[0,267360000,2347]*42
$GPZDA,021547.00,01,01,2025,,*66
$GPDTM,W84,,00.0000000,N,00.0000000,E,00.0000000,W84*5F
$PSSN,TFM,021547.00,,,,*6A
$GPRMC,021547.00,A,4742.1602826,N,01618.1002515,E,0.0,,010125,5.1,E,D*18
$GPGLL,4742.1602826,N,01618.1002515,E,021547.00,A,D*69
$GPGGA,021547.00,4742.1602826,N,01618.1002515,E,2,39,0.4,708.0528,M,43.2066,M,1.7,0136*4D
$GNGNS,021547.00,4742.1602826,N,01618.1002515,E,DAAA,39,0.4,708.0528,43.2066,,*53
$GPGNS,021547.00,,,,,,10,,,,1.7,136*7B
$GLGNS,021547.00,,,,,,07,,,,,*7D
$GAGNS,021547.00,,,,,,08,,,,,*7F
$GBGNS,021547.00,,,,,,14,,,,,*71
$GPLLQ,021547.00,010125,,M,,M,1,39,0.843,,M*11
$GPVTG,,T,,M,0.01,N,0.01,K,D*26
$GPHDT,,T*1B
$GPTHS,,V*0E
$GPROT,,V*08
$PSSN,HRP,021547.00,010125,,,,,,,00,0,,*64
$PTNL,AVR,021547.00,,Yaw,,Tilt,,,,0,,00*32
$GPGSA,A,3,02,03,04,06,09,17,19,21,28,31,,,0.8,0.4,0.6*37
$GPGSA,A,3,69,70,71,78,79,85,86,,,,,,0.8,0.4,0.6*34
$GPGSA,A,3,04,05,06,09,10,11,34,36,,,,,0.8,0.4,0.6*35
$GPGSA,A,3,05,06,09,16,19,20,22,29,32,35,37,39,0.8,0.4,0.6*3D
$GPGSA,A,3,44,60,,,,,,,,,,,0.8,0.4,0.6*3E
$GPGST,021547.00,0.983,0.356,0.290,352.406,0.355,0.292,0.707*57
$GPGBS,021547.00,2.021,1.604,4.623,02,0.0001,0.651,0.736*58
$GPGRS,021547.00,1,0.7,-0.1,-0.0,-0.1,0.1,-0.3,-0.4,-0.2,0.2,0.2,,*48
$GPGRS,021547.00,1,-1.3,-0.7,1.6,-1.1,-0.1,2.5,-1.1,,,,,*4C
$GPGRS,021547.00,1,0.2,-0.2,0.1,0.4,-0.7,-0.0,0.1,-0.0,,,,*48
$GPGRS,021547.00,1,2.2,1.1,-0.7,1.3,-0.4,-1.4,0.3,0.0,-0.4,-0.7,0.4,-0.8*43
$GPGRS,021547.00,1,1.0,-1.7,,,,,,,,,,*61
$GPGSV,5,1,20,04,73,210,49,06,28,313,43,28,18,041,41,21,13,154,37*7D
$GPGSV,5,2,20,17,27,249,45,19,30,281,45,02,30,161,44,31,33,066,46*77
$GPGSV,5,3,20,01,34,151,,09,43,228,47,03,68,068,50,36,35,170,44*78
$GPGSV,5,4,20,58,13,245,38,40,24,132,36,34,31,208,43,49,34,195,44*75
$GPGSV,5,5,20,57,09,110,38,41,07,108,35,61,03,257,38*49
$GLGSV,3,1,09,70,69,300,41,78,12,019,45,79,18,070,45,84,20,172,34*69
$GLGSV,3,2,09,71,27,253,48,86,38,320,50,69,30,050,47,85,63,222,53*61
$GLGSV,3,3,09,80,04,118,*58
$GAGSV,3,1,10,09,82,167,49,18,22,284,,05,30,223,43,10,10,145,39*6A
$GAGSV,3,2,10,04,40,055,44,34,33,312,44,11,36,151,41,06,66,067,48*61
$GAGSV,3,3,10,36,78,233,48,21,01,027,32*6B
$GBGSV,5,1,19,48,82,004,,37,20,089,43,44,16,320,42,39,24,042,42*69
$GBGSV,5,2,19,05,24,128,39,16,31,050,43,29,31,199,46,06,33,054,41*69
$GBGSV,5,3,19,35,45,276,48,09,40,069,42,19,62,271,50,20,62,056,51*65
$GBGSV,5,4,19,32,08,071,40,22,10,257,40,21,10,247,,46,06,140,*6E
$GBGSV,5,5,19,02,08,106,35,58,01,130,,60,09,110,39*53
$GPGGA,021547.00,,,,,0,00,,,M,,M,,*4D
$PTNL,GGK,021547.00,010125,4742.1602826,N,01618.1002515,E,1,39,0.8,EHT751.2593,M*43
$GPGGQ,021547.00,010125,4742.1602826,N,01618.1002515,E,1,39,0.843,708.0528,M*34
$GPGFA,021547.00,3.383,5.801,0.356,0.290,352.406,0.707,,VVV*0C
$GPLLK,021547.00,010125,,M,,M,1,39,0.9,,M*0D
$GNGMP,021547.00,,,,,DAAA,39,0.4,,,,*5D
$GPGMP,021547.00,,,,,,10,,,,1.7,136*7B
$GLGMP,021547.00,,,,,,07,,,,,*7D
$GAGMP,021547.00,,,,,,08,,,,,*7F
$GBGMP,021547.00,,,,,,14,,,,,*71
$PSSN,SNC,[0,267365000,2347]*47
$GPZDA,021552.00,01,01,2025,,*62
$GPDTM,W84,,00.0000000,N,00.0000000,E,00.0000000,W84*5F
$PSSN,TFM,021552.00,,,,*6E
$GPRMC,021552.00,A,4742.1602848,N,01618.1002486,E,0.0,,010125,5.1,E,D*1F
$GPGLL,4742.1602848,N,01618.1002486,E,021552.00,A,D*6E
$GPGGA,021552.00,4742.1602848,N,01618.1002486,E,2,39,0.4,708.0536,M,43.2066,M,2.7,0136*46
$GNGNS,021552.00,4742.1602848,N,01618.1002486,E,DAAA,39,0.4,708.0536,43.2066,,*5B
$GPGNS,021552.00,,,,,,10,,,,2.7,136*7C
$GLGNS,021552.00,,,,,,07,,,,,*79
$GAGNS,021552.00,,,,,,08,,,,,*7B
$GBGNS,021552.00,,,,,,14,,,,,*75
$GPLLQ,021552.00,010125,,M,,M,1,39,0.831,,M*10
$GPVTG,,T,,M,0.00,N,0.01,K,D*27
$GPHDT,,T*1B
$GPTHS,,V*0E
$GPROT,,V*08
$PSSN,HRP,021552.00,010125,,,,,,,00,0,,*60
$PTNL,AVR,021552.00,,Yaw,,Tilt,,,,0,,00*36
$GPGSA,A,3,02,03,04,06,09,17,19,21,28,31,,,0.8,0.4,0.6*37
$GPGSA,A,3,69,70,71,78,79,85,86,,,,,,0.8,0.4,0.6*34
$GPGSA,A,3,04,05,06,09,10,11,34,36,,,,,0.8,0.4,0.6*35
$GPGSA,A,3,05,06,09,16,19,20,22,29,32,35,37,39,0.8,0.4,0.6*3D
$GPGSA,A,3,44,60,,,,,,,,,,,0.8,0.4,0.6*3E
$GPGST,021552.00,1.085,0.352,0.291,352.470,0.351,0.292,0.694*56
$GPGBS,021552.00,2.045,1.626,4.695,31,0.0001,0.427,0.820*58
$GPGRS,021552.00,1,0.3,-0.2,-0.0,-0.2,0.1,-0.3,0.2,-0.1,-0.3,0.4,,*4A
$GPGRS,021552.00,1,-1.5,-0.7,1.9,-1.4,1.0,2.8,-1.3,,,,,*66
$GPGRS,021552.00,1,0.0,0.3,0.0,0.4,-0.5,0.0,-0.1,0.2,,,,*4E
$GPGRS,021552.00,1,2.8,1.3,0.0,1.0,-0.1,-1.4,1.2,0.1,-0.5,-0.5,0.2,-0.9*66
$GPGRS,021552.00,1,0.2,-1.6,,,,,,,,,,*67
$GPGSV,5,1,20,04,73,210,48,06,28,313,43,28,18,041,41,21,13,154,36*7D
$GPGSV,5,2,20,17,27,249,44,19,30,281,44,02,30,161,45,31,33,066,45*75
$GPGSV,5,3,20,01,34,151,,09,43,228,47,03,68,068,50,36,35,170,44*78
$GPGSV,5,4,20,58,13,245,38,40,24,132,36,34,31,208,43,49,34,195,44*75
$GPGSV,5,5,20,57,09,110,37,41,07,108,35,61,03,257,37*49
$GLGSV,3,1,09,70,69,300,41,78,12,019,44,79,18,070,46,84,20,172,34*6B
$GLGSV,3,2,09,71,27,253,49,86,38,320,50,69,30,050,47,85,63,222,53*60
$GLGSV,3,3,09,80,04,118,*58
$GAGSV,3,1,10,09,82,167,49,18,22,284,,05,30,223,43,10,10,145,39*6A
$GAGSV,3,2,10,04,40,055,44,34,34,312,44,11,36,151,41,06,66,066,48*67
$GAGSV,3,3,10,36,78,233,48,21,01,027,32*6B
$GBGSV,5,1,19,48,82,005,,37,20,089,42,44,16,320,42,39,24,042,42*69
$GBGSV,5,2,19,05,24,128,39,16,31,050,43,29,31,199,47,06,33,054,41*68
$GBGSV,5,3,19,35,45,276,48,09,40,069,42,19,62,271,50,20,62,056,51*65
$GBGSV,5,4,19,32,08,071,40,22,10,257,41,21,10,247,,46,06,139,*61
$GBGSV,5,5,19,02,08,106,34,58,01,130,,60,09,110,39*52
$GPGGA,021552.00,,,,,0,00,,,M,,M,,*49
$PTNL,GGK,021552.00,010125,4742.1602848,N,01618.1002486,E,1,39,0.8,EHT751.2601,M*4C
$GPGGQ,021552.00,010125,4742.1602848,N,01618.1002486,E,1,39,0.831,708.0536,M*39
$GPGFA,021552.00,3.348,5.692,0.352,0.291,352.470,0.694,,VVV*04
$GPLLK,021552.00,010125,,M,,M,1,39,0.9,,M*09
$GNGMP,021552.00,,,,,DAAA,39,0.4,,,,*59
$GPGMP,021552.00,,,,,,10,,,,2.7,136*7C
$GLGMP,021552.00,,,,,,07,,,,,*79
$GAGMP,021552.00,,,,,,08,,,,,*7B
$GBGMP,021552.00,,,,,,14,,,,,*75
$PSSN,SNC,[0,267370000,2347]*43
$GPZDA,021557.00,01,01,2025,,*67
$GPDTM,W84,,00.0000000,N,00.0000000,E,00.0000000,W84*5F
$PSSN,TFM,021557.00,,,,*6B
$GPRMC,021557.00,A,4742.1602847,N,01618.1002474,E,0.0,,010125,5.1,E,D*18
$GPGLL,4742.1602847,N,01618.1002474,E,021557.00,A,D*69
$GPGGA,021557.00,4742.1602847,N,01618.1002474,E,2,39,0.4,708.0552,M,43.2066,M,2.9,0136*4D
$GNGNS,021557.00,4742.1602847,N,01618.1002474,E,DAAA,39,0.4,708.0552,43.2066,,*5E
$GPGNS,021557.00,,,,,,10,,,,2.9,136*77
$GLGNS,021557.00,,,,,,07,,,,,*7C
$GAGNS,021557.00,,,,,,08,,,,,*7E
$GBGNS,021557.00,,,,,,14,,,,,*70
$GPLLQ,021557.00,010125,,M,,M,1,39,0.845,,M*16
$GPVTG,,T,,M,0.01,N,0.01,K,D*26
$GPHDT,,T*1B
$GPTHS,,V*0E
$GPROT,,V*08
$PSSN,HRP,021557.00,010125,,,,,,,00,0,,*65
$PTNL,AVR,021557.00,,Yaw,,Tilt,,,,0,,00*33
$GPGSA,A,3,02,03,04,06,09,17,19,21,28,31,,,0.8,0.4,0.6*37
$GPGSA,A,3,69,70,71,78,79,85,86,,,,,,0.8,0.4,0.6*34
$GPGSA,A,3,04,05,06,09,10,11,34,36,,,,,0.8,0.4,0.6*35
$GPGSA,A,3,05,06,09,16,19,20,22,29,32,35,37,39,0.8,0.4,0.6*3D
$GPGSA,A,3,44,60,,,,,,,,,,,0.8,0.4,0.6*3E
$GPGST,021557.00,1.137,0.357,0.294,351.228,0.355,0.296,0.707*58
$GPGBS,021557.00,2.090,1.655,4.753,02,0.0001,0.409,0.764*59
$GPGRS,021557.00,1,0.4,0.0,-0.1,0.2,-0.1,-0.2,-0.2,-0.2,-0.5,0.2,,*49
$GPGRS,021557.00,1,-1.1,-0.9,2.1,-2.3,1.3,2.3,-1.5,,,,,*68
$GPGRS,021557.00,1,0.1,0.1,-0.0,0.1,-0.4,0.2,0.4,0.1,,,,*48
$GPGRS,021557.00,1,2.9,0.9,0.3,1.0,-0.1,-1.4,1.6,0.2,-0.4,-0.4,0.6,-0.9*69
$GPGRS,021557.00,1,-0.5,-1.8,,,,,,,,,,*46
$GPGSV,5,1,20,04,73,210,48,06,28,313,42,28,18,041,41,21,13,154,36*7C
$GPGSV,5,2,20,17,27,249,44,19,30,281,44,02,30,161,45,31,33,066,46*76
$GPGSV,5,3,20,01,34,151,,09,43,228,46,03,68,068,50,36,35,170,44*79
$GPGSV,5,4,20,58,13,245,38,40,24,132,36,34,31,208,43,49,34,195,44*75
$GPGSV,5,5,20,57,09,110,37,41,07,108,34,61,03,257,37*48
$GLGSV,3,1,09,70,70,300,41,78,12,019,45,79,18,070,46,84,20,172,34*62
$GLGSV,3,2,09,71,27,253,48,86,38,320,51,69,30,050,47,85,63,222,52*61
$GLGSV,3,3,09,80,04,118,*58
$GAGSV,3,1,10,09,82,167,49,18,22,284,,05,30,223,43,10,10,145,38*6B
$GAGSV,3,2,10,04,40,055,44,34,34,312,44,11,36,151,41,06,66,066,48*67
$GAGSV,3,3,10,36,78,233,48,21,01,027,34*6D
$GBGSV,5,1,19,48,82,005,,37,20,089,42,44,16,320,41,22,10,257,42*61
$GBGSV,5,2,19,39,24,042,42,05,24,128,39,29,31,199,46,16,31,050,43*67
$GBGSV,5,3,19,06,33,054,41,35,45,276,48,09,40,069,42,19,62,271,50*66
$GBGSV,5,4,19,20,62,057,51,21,10,247,,32,08,071,39,46,06,139,*6B
$GBGSV,5,5,19,02,08,106,34,58,01,130,,60,09,110,39*52
$GPGGA,021557.00,,,,,0,00,,,M,,M,,*4C
$PTNL,GGK,021557.00,010125,4742.1602847,N,01618.1002474,E,1,39,0.8,EHT751.2618,M*43
$GPGGQ,021557.00,010125,4742.1602847,N,01618.1002474,E,1,39,0.845,708.0552,M*3F
$GPGFA,021557.00,3.393,5.795,0.357,0.294,351.228,0.707,,VVV*02
$GPLLK,021557.00,010125,,M,,M,1,39,0.9,,M*0C
$GNGMP,021557.00,,,,,DAAA,39,0.4,,,,*5C
$GPGMP,021557.00,,,,,,10,,,,2.9,136*77
$GLGMP,021557.00,,,,,,07,,,,,*7C
$GAGMP,021557.00,,,,,,08,,,,,*7E
$GBGMP,021557.00,,,,,,14,,,,,*70
$PSSN,SNC,[0,267375000,2347]*46
$GPZDA,021602.00,01,01,2025,,*64
$GPDTM,W84,,00.0000000,N,00.0000000,E,00.0000000,W84*5F
$PSSN,TFM,021602.00,,,,*68
$GPRMC,021602.00,A,4742.1602843,N,01618.1002440,E,0.0,,010125,5.1,E,D*18
$GPGLL,4742.1602843,N,01618.1002440,E,021602.00,A,D*69
$GPGGA,021602.00,4742.1602843,N,01618.1002440,E,2,39,0.4,708.0525,M,43.2066,M,2.7,0136*43
$GNGNS,021602.00,4742.1602843,N,01618.1002440,E,DAAA,39,0.4,708.0525,43.2066,,*5E
$GPGNS,021602.00,,,,,,10,,,,2.7,136*7A
$GLGNS,021602.00,,,,,,07,,,,,*7F
$GAGNS,021602.00,,,,,,08,,,,,*7D
$GBGNS,021602.00,,,,,,14,,,,,*73
$GPLLQ,021602.00,010125,,M,,M,1,39,0.853,,M*12
$GPVTG,,T,,M,0.00,N,0.01,K,D*27
$GPHDT,,T*1B
$GPTHS,,V*0E
$GPROT,,V*08
$PSSN,HRP,021602.00,010125,,,,,,,00,0,,*66
$PTNL,AVR,021602.00,,Yaw,,Tilt,,,,0,,00*30
$GPGSA,A,3,02,03,04,06,09,17,19,21,28,31,,,0.8,0.4,0.6*37
$GPGSA,A,3,69,70,71,78,79,85,86,,,,,,0.8,0.4,0.6*34
$GPGSA,A,3,04,05,06,09,10,11,34,36,,,,,0.8,0.4,0.6*35
$GPGSA,A,3,05,06,09,16,19,20,22,29,32,35,37,39,0.8,0.4,0.6*3D
$GPGSA,A,3,44,60,,,,,,,,,,,0.8,0.4,0.6*3E
$GPGST,021602.00,0.973,0.359,0.293,350.527,0.358,0.295,0.716*5C
$GPGBS,021602.00,2.050,1.653,4.826,31,0.0001,0.482,0.790*55
$GPGRS,021602.00,1,-0.1,0.0,-0.2,-0.1,0.3,-0.2,-0.0,-0.4,-0.3,0.5,,*65
$GPGRS,021602.00,1,-0.8,-0.9,1.6,-1.7,0.9,2.1,-1.1,,,,,*6D
$GPGRS,021602.00,1,-0.2,0.3,0.1,0.1,-0.9,0.1,0.1,0.1,,,,*40
$GPGRS,021602.00,1,2.4,1.2,0.1,0.4,-0.4,-1.4,0.7,0.2,-0.8,-0.4,1.3,-1.0*6F
$GPGRS,021602.00,1,0.1,-1.3,,,,,,,,,,*67
$GPGSV,5,1,20,04,73,210,48,06,28,313,42,28,18,041,41,21,13,154,36*7C
$GPGSV,5,2,20,17,27,248,45,19,30,281,44,02,29,161,45,31,33,066,45*7D
$GPGSV,5,3,20,01,34,151,,09,43,228,46,03,68,069,50,36,35,170,44*78
$GPGSV,5,4,20,58,13,245,37,40,24,132,36,34,31,208,43,49,34,195,44*7A
$GPGSV,5,5,20,57,09,110,37,41,07,108,34,61,03,257,37*48
$GLGSV,3,1,09,70,70,300,41,78,12,019,44,79,18,070,46,84,20,172,35*62
$GLGSV,3,2,09,71,27,253,48,86,38,320,50,69,30,050,47,85,63,222,52*60
$GLGSV,3,3,09,80,04,118,*58
$GAGSV,3,1,10,09,82,167,49,18,22,284,,05,30,223,43,10,10,145,38*6B
$GAGSV,3,2,10,04,40,055,44,34,34,312,44,11,36,151,41,06,66,066,48*67
$GAGSV,3,3,10,36,78,233,48,21,01,027,33*6A
$GBGSV,5,1,19,48,82,005,,37,20,089,43,44,16,320,42,22,10,257,42*63
$GBGSV,5,2,19,39,24,042,42,05,24,128,39,29,31,199,46,16,31,050,42*66
$GBGSV,5,3,19,06,33,054,41,35,45,276,49,09,40,069,42,19,62,271,50*67
$GBGSV,5,4,19,20,62,057,51,21,10,247,,32,08,071,40,46,06,139,*65
$GBGSV,5,5,19,02,08,106,34,58,01,130,,60,09,110,39*52
$GPGGA,021602.00,,,,,0,00,,,M,,M,,*4F
$PTNL,GGK,021602.00,010125,4742.1602843,N,01618.1002440,E,1,39,0.8,EHT751.2591,M*41
$GPGGQ,021602.00,010125,4742.1602843,N,01618.1002440,E,1,39,0.853,708.0525,M*38
$GPGFA,021602.00,3.417,5.871,0.359,0.293,350.527,0.716,,VVV*0F
$GPLLK,021602.00,010125,,M,,M,1,39,0.9,,M*0F
$GNGMP,021602.00,,,,,DAAA,39,0.4,,,,*5F
$GPGMP,021602.00,,,,,,10,,,,2.7,136*7A
$GLGMP,021602.00,,,,,,07,,,,,*7F
$GAGMP,021602.00,,,,,,08,,,,,*7D
$GBGMP,021602.00,,,,,,14,,,,,*73
$PSSN,SNC,[0,267380000,2347]*4C
$GPZDA,021607.00,01,01,2025,,*61
$GPDTM,W84,,00.0000000,N,00.0000000,E,00.0000000,W84*5F
$PSSN,TFM,021607.00,,,,*6D
$GPRMC,021607.00,A,4742.1602860,N,01618.1002425,E,0.0,,010125,5.1,E,D*1F
$GPGLL,4742.1602860,N,01618.1002425,E,021607.00,A,D*6E
$GPGGA,021607.00,4742.1602860,N,01618.1002425,E,2,39,0.4,708.0556,M,43.2066,M,1.7,0136*43
$GNGNS,021607.00,4742.1602860,N,01618.1002425,E,DAAA,39,0.4,708.0556,43.2066,,*5D
$GPGNS,021607.00,,,,,,10,,,,1.7,136*7C
$GLGNS,021607.00,,,,,,07,,,,,*7A
$GAGNS,021607.00,,,,,,08,,,,,*78
$GBGNS,021607.00,,,,,,14,,,,,*76
$GPLLQ,021607.00,010125,,M,,M,1,39,0.843,,M*16
$GPVTG,,T,,M,0.01,N,0.01,K,D*26
$GPHDT,,T*1B
$GPTHS,,V*0E
$GPROT,,V*08
$PSSN,HRP,021607.00,010125,,,,,,,00,0,,*63
$PTNL,AVR,021607.00,,Yaw,,Tilt,,,,0,,00*35
$GPGSA,A,3,02,03,04,06,09,17,19,21,28,31,,,0.8,0.4,0.6*37
$GPGSA,A,3,69,70,71,78,79,85,86,,,,,,0.8,0.4,0.6*34
$GPGSA,A,3,04,05,06,09,10,11,34,36,,,,,0.8,0.4,0.6*35
$GPGSA,A,3,05,06,09,16,19,20,22,29,32,35,37,39,0.8,0.4,0.6*3D
$GPGSA,A,3,44,60,,,,,,,,,,,0.8,0.4,0.6*3E
$GPGST,021607.00,1.081,0.356,0.291,352.304,0.355,0.292,0.707*5E
$GPGBS,021607.00,2.027,1.603,4.623,06,0.0001,-0.547,0.878*76
$GPGRS,021607.00,1,0.1,-0.0,-0.1,-0.5,0.1,-0.1,0.1,0.2,-0.3,0.3,,*67
$GPGRS,021607.00,1,-1.2,-1.8,2.2,-1.8,1.4,2.4,-1.5,,,,,*66
$GPGRS,021607.00,1,-0.0,0.2,-0.2,0.1,-0.5,-0.1,0.2,0.1,,,,*4A
$GPGRS,021607.00,1,2.0,1.3,0.4,0.0,-0.3,-1.4,0.0,-0.3,-1.0,-0.6,0.9,-1.0*42
$GPGRS,021607.00,1,0.1,-1.5,,,,,,,,,,*64
$GPGSV,5,1,20,04,73,210,48,06,28,313,42,28,18,041,41,21,13,154,36*7C
$GPGSV,5,2,20,17,27,248,44,19,30,281,45,02,29,161,45,31,33,066,45*7D
$GPGSV,5,3,20,01,34,151,,09,43,228,47,03,68,069,50,36,35,170,45*78
$GPGSV,5,4,20,58,13,245,37,40,24,132,36,34,31,208,43,49,34,195,44*7A
$GPGSV,5,5,20,57,09,110,37,41,07,108,34,61,03,257,37*48
$GLGSV,3,1,09,70,70,301,41,78,12,019,44,79,18,070,46,84,20,172,34*62
$GLGSV,3,2,09,71,27,253,47,86,38,320,50,69,30,050,48,85,63,222,53*61
$GLGSV,3,3,09,80,04,118,*58
$GAGSV,3,1,10,09,82,167,49,18,22,284,,05,30,223,43,10,10,145,38*6B
$GAGSV,3,2,10,04,40,055,44,34,34,312,43,11,36,151,41,06,66,066,48*60
$GAGSV,3,3,10,36,78,233,48,21,01,027,35*6C
$GBGSV,5,1,19,48,82,005,,37,20,089,43,44,16,320,42,22,10,257,42*63
$GBGSV,5,2,19,39,24,042,42,05,24,128,39,29,31,199,46,16,31,050,42*66
$GBGSV,5,3,19,06,33,054,42,35,45,276,49,09,40,069,42,19,62,271,51*65
$GBGSV,5,4,19,20,62,057,51,21,10,247,,32,08,072,40,46,06,139,*66
$GBGSV,5,5,19,02,08,106,35,58,01,130,,60,09,110,39*53
$GPGGA,021607.00,,,,,0,00,,,M,,M,,*4A
$PTNL,GGK,021607.00,010125,4742.1602860,N,01618.1002425,E,1,39,0.8,EHT751.2622,M*4D
$GPGGQ,021607.00,010125,4742.1602860,N,01618.1002425,E,1,39,0.843,708.0556,M*3A
$GPGFA,021607.00,3.386,5.794,0.356,0.291,352.304,0.707,,VVV*09
$GPLLK,021607.00,010125,,M,,M,1,39,0.9,,M*0A
$GNGMP,021607.00,,,,,DAAA,39,0.4,,,,*5A
$GPGMP,021607.00,,,,,,10,,,,1.7,136*7C
$GLGMP,021607.00,,,,,,07,,,,,*7A
$GAGMP,021607.00,,,,,,08,,,,,*78
$GBGMP,021607.00,,,,,,14,,,,,*76
$PSSN,SNC,[0,267385000,2347]*49
$GPZDA,021612.00,01,01,2025,,*65
$GPDTM,W84,,00.0000000,N,00.0000000,E,00.0000000,W84*5F
$PSSN,TFM,021612.00,,,,*69
$GPRMC,021612.00,A,4742.1602878,N,01618.1002401,E,0.0,,010125,5.1,E,D*14
$GPGLL,4742.1602878,N,01618.1002401,E,021612.00,A,D*65
$GPGGA,021612.00,4742.1602878,N,01618.1002401,E,2,39,0.4,708.0540,M,43.2066,M,2.7,0136*4C
$GNGNS,021612.00,4742.1602878,N,01618.1002401,E,DAAA,39,0.4,708.0540,43.2066,,*51
$GPGNS,021612.00,,,,,,10,,,,2.7,136*7B
$GLGNS,021612.00,,,,,,07,,,,,*7E
$GAGNS,021612.00,,,,,,08,,,,,*7C
$GBGNS,021612.00,,,,,,14,,,,,*72
$GPLLQ,021612.00,010125,,M,,M,1,39,0.831,,M*17
$GPVTG,,T,,M,0.00,N,0.01,K,D*27
$GPHDT,,T*1B
$GPTHS,,V*0E
$GPROT,,V*08
$PSSN,HRP,021612.00,010125,,,,,,,00,0,,*67
$PTNL,AVR,021612.00,,Yaw,,Tilt,,,,0,,00*31
$GPGSA,A,3,02,03,04,06,09,17,19,21,28,31,,,0.8,0.4,0.6*37
$GPGSA,A,3,69,70,71,78,79,85,86,,,,,,0.8,0.4,0.6*34
$GPGSA,A,3,04,05,06,09,10,11,34,36,,,,,0.8,0.4,0.6*35
$GPGSA,A,3,05,06,09,16,19,20,22,29,32,35,37,39,0.8,0.4,0.6*3D
$GPGSA,A,3,44,60,,,,,,,,,,,0.8,0.4,0.6*3E
$GPGST,021612.00,1.015,0.353,0.291,352.306,0.352,0.292,0.693*5B
$GPGBS,021612.00,2.054,1.625,4.697,85,0.0001,2.932,6.043*51
$GPGRS,021612.00,1,0.2,-0.1,-0.1,-0.2,0.2,-0.2,-0.0,-0.2,-0.2,0.3,,*66
$GPGRS,021612.00,1,-1.3,-1.3,1.3,-1.6,0.9,2.9,-1.3,,,,,*63
$GPGRS,021612.00,1,0.2,-0.5,0.1,0.1,-0.4,-0.0,0.3,0.0,,,,*65
$GPGRS,021612.00,1,1.7,1.4,0.5,0.5,-0.2,-1.4,-0.2,-0.5,-0.6,-0.5,0.8,-1.1*6D
$GPGRS,021612.00,1,0.0,-1.8,,,,,,,,,,*6C
$GPGSV,5,1,20,04,73,210,48,06,29,313,42,28,18,041,40,21,13,154,36*7C
$GPGSV,5,2,20,17,27,248,44,19,30,281,44,02,29,161,45,31,33,066,46*7F
$GPGSV,5,3,20,01,34,151,,09,43,228,47,03,68,069,50,36,35,170,44*79
$GPGSV,5,4,20,58,13,245,38,40,24,132,36,34,31,208,43,49,34,195,44*75
$GPGSV,5,5,20,57,09,110,38,41,07,108,34,61,03,257,37*47
$GLGSV,3,1,09,70,70,301,41,78,12,019,44,79,18,070,45,84,20,172,34*61
$GLGSV,3,2,09,71,27,253,47,86,38,320,50,69,30,050,47,85,63,222,53*6E
$GLGSV,3,3,09,80,04,118,*58
$GAGSV,3,1,10,09,82,166,48,18,22,284,,05,30,223,43,10,10,145,38*6B
$GAGSV,3,2,10,04,40,055,44,34,34,312,43,11,36,151,41,06,66,066,47*6F
$GAGSV,3,3,10,36,78,233,48,21,01,027,34*6D
$GBGSV,5,1,19,48,82,006,,37,20,089,43,44,16,320,42,22,10,257,41*63
$GBGSV,5,2,19,39,24,042,42,05,24,128,39,29,31,199,46,16,31,050,42*66
$GBGSV,5,3,19,06,33,054,42,35,45,276,49,09,40,068,42,19,62,271,51*64
$GBGSV,5,4,19,20,62,057,51,21,10,247,,32,08,072,41,46,06,139,*67
$GBGSV,5,5,19,02,08,106,35,58,01,130,,60,09,110,39*53
$GPGGA,021612.00,,,,,0,00,,,M,,M,,*4E
$PTNL,GGK,021612.00,010125,4742.1602878,N,01618.1002401,E,1,39,0.8,EHT751.2605,M*43
$GPGGQ,021612.00,010125,4742.1602878,N,01618.1002401,E,1,39,0.831,708.0540,M*33
$GPGFA,021612.00,3.353,5.687,0.353,0.291,352.306,0.693,,VVV*0D
$GPLLK,021612.00,010125,,M,,M,1,39,0.9,,M*0E
$GNGMP,021612.00,,,,,DAAA,39,0.4,,,,*5E
$GPGMP,021612.00,,,,,,10,,,,2.7,136*7B
$GLGMP,021612.00,,,,,,07,,,,,*7E
$GAGMP,021612.00,,,,,,08,,,,,*7C
$GBGMP,021612.00,,,,,,14,,,,,*72
$PSSN,SNC,[0,267390000,2347]*4D
$GPZDA,021617.00,01,01,2025,,*60
$GPDTM,W84,,00.0000000,N,00.0000000,E,00.0000000,W84*5F
$PSSN,TFM,021617.00,,,,*6C
$GPRMC,021617.00,A,4742.1602904,N,01618.1002381,E,0.0,,010125,5.1,E,D*14
$GPGLL,4742.1602904,N,01618.1002381,E,021617.00,A,D*65
$GPGGA,021617.00,4742.1602904,N,01618.1002381,E,2,39,0.4,708.0541,M,43.2066,M,2.9,0136*43
$GNGNS,021617.00,4742.1602904,N,01618.1002381,E,DAAA,39,0.4,708.0541,43.2066,,*50
$GPGNS,021617.00,,,,,,10,,,,2.9,136*70
$GLGNS,021617.00,,,,,,07,,,,,*7B
$GAGNS,021617.00,,,,,,08,,,,,*79
$GBGNS,021617.00,,,,,,14,,,,,*77
$GPLLQ,021617.00,010125,,M,,M,1,39,0.844,,M*10
$GPVTG,,T,,M,0.01,N,0.01,K,D*26
$GPHDT,,T*1B
$GPTHS,,V*0E
$GPROT,,V*08
$PSSN,HRP,021617.00,010125,,,,,,,00,0,,*62
$PTNL,AVR,021617.00,,Yaw,,Tilt,,,,0,,00*34
$GPGSA,A,3,02,03,04,06,09,17,19,21,28,31,,,0.8,0.4,0.6*37
$GPGSA,A,3,69,70,71,78,79,85,86,,,,,,0.8,0.4,0.6*34
$GPGSA,A,3,04,05,06,09,10,11,34,36,,,,,0.8,0.4,0.6*35
$GPGSA,A,3,05,06,09,16,19,20,22,29,32,35,37,39,0.8,0.4,0.6*3D
$GPGSA,A,3,44,60,,,,,,,,,,,0.8,0.4,0.6*3E
$GPGST,021617.00,0.982,0.357,0.294,351.196,0.356,0.296,0.705*5F
$GPGBS,021617.00,2.095,1.654,4.752,19,0.0001,-0.582,0.818*7A
$GPGRS,021617.00,1,-0.3,-0.1,0.1,-0.2,0.3,0.2,-0.6,0.1,-0.8,0.4,,*6B
$GPGRS,021617.00,1,-1.5,-1.1,1.3,-1.2,-0.0,2.6,-0.8,,,,,*47
$GPGRS,021617.00,1,-0.1,-0.1,0.0,0.2,-0.3,-0.0,0.1,0.0,,,,*4D
$GPGRS,021617.00,1,2.3,1.3,0.5,0.9,-0.3,-1.5,0.3,0.1,-0.3,-0.3,0.6,-1.1*6C
$GPGRS,021617.00,1,0.3,-1.7,,,,,,,,,,*65
$GPGSV,5,1,20,04,73,210,48,06,29,313,43,28,18,041,41,21,13,154,37*7D
$GPGSV,5,2,20,17,27,248,44,19,30,281,44,02,29,161,44,31,33,066,46*7E
$GPGSV,5,3,20,01,34,151,,09,43,228,47,03,68,069,50,36,35,170,44*79
$GPGSV,5,4,20,58,13,245,38,40,24,132,36,34,31,208,43,49,34,195,44*75
$GPGSV,5,5,20,57,09,110,38,41,07,108,34,61,03,257,37*47
$GLGSV,3,1,09,70,70,301,41,78,12,019,44,79,18,070,45,84,20,172,34*61
$GLGSV,3,2,09,71,27,253,48,86,38,320,50,69,29,050,47,85,63,222,53*69
$GLGSV,3,3,09,80,04,118,*58
$GAGSV,3,1,10,09,82,166,48,18,22,284,,05,30,223,43,10,10,145,38*6B
$GAGSV,3,2,10,04,40,055,44,34,34,312,43,11,36,151,41,06,66,066,48*60
$GAGSV,3,3,10,36,78,233,48,21,01,027,34*6D
$GBGSV,5,1,19,48,82,006,,37,20,089,43,44,17,320,42,22,10,257,41*62
$GBGSV,5,2,19,39,24,041,42,05,24,128,39,29,31,199,46,16,31,050,42*65
$GBGSV,5,3,19,06,33,054,41,35,45,276,48,09,40,068,42,19,62,271,51*66
$GBGSV,5,4,19,20,62,057,51,21,10,247,,32,08,072,41,46,06,139,*67
$GBGSV,5,5,19,02,08,106,34,58,01,130,,60,09,110,39*52
$GPGGA,021617.00,,,,,0,00,,,M,,M,,*4B
$PTNL,GGK,021617.00,010125,4742.1602904,N,01618.1002381,E,1,39,0.8,EHT751.2607,M*41
$GPGGQ,021617.00,010125,4742.1602904,N,01618.1002381,E,1,39,0.844,708.0541,M*30
$GPGFA,021617.00,3.395,5.785,0.357,0.294,351.196,0.705,,VVV*06
$GPLLK,021617.00,010125,,M,,M,1,39,0.9,,M*0B
$GNGMP,021617.00,,,,,DAAA,39,0.4,,,,*5B
$GPGMP,021617.00,,,,,,10,,,,2.9,136*70
$GLGMP,021617.00,,,,,,07,,,,,*7B
$GAGMP,021617.00,,,,,,08,,,,,*79
$GBGMP,021617.00,,,,,,14,,,,,*77
$PSSN,SNC,[0,267395000,2347]*48
$GPZDA,021622.00,01,01,2025,,*66
$GPDTM,W84,,00.0000000,N,00.0000000,E,00.0000000,W84*5F
$PSSN,TFM,021622.00,,,,*6A
$GPRMC,021622.00,A,4742.1602895,N,01618.1002390,E,0.0,,010125,5.1,E,D*1B
$GPGLL,4742.1602895,N,01618.1002390,E,021622.00,A,D*6A
$GPGGA,021622.00,4742.1602895,N,01618.1002390,E,2,39,0.4,708.0540,M,43.2066,M,2.7,0136*43
$GNGNS,021622.00,4742.1602895,N,01618.1002390,E,DAAA,39,0.4,708.0540,43.2066,,*5E
$GPGNS,021622.00,,,,,,10,,,,2.7,136*78
