$GPZDA,232942.00,01,01,2025,,*6F
$GPDTM,W84,,00.0000000,N,00.0000000,E,00.0000000,W84*5F
$PSSN,TFM,232942.00,,,,*63
$GPRMC,232942.00,A,4742.1601184,N,01618.1003340,E,0.0,,010125,5.1,E,D*14
$GPGLL,4742.1601184,N,01618.1003340,E,232942.00,A,D*65
$GPGGA,232942.00,4742.1601184,N,01618.1003340,E,2,38,0.5,708.1077,M,43.2066,M,3.4,0136*4E
$GNGNS,232942.00,4742.1601184,N,01618.1003340,E,DAAA,38,0.5,708.1077,43.2066,,*51
$GPGNS,232942.00,,,,,,09,,,,3.4,136*7B
$GLGNS,232942.00,,,,,,08,,,,,*7B
$GAGNS,232942.00,,,,,,08,,,,,*76
$GBGNS,232942.00,,,,,,13,,,,,*7F
$GPLLQ,232942.00,010125,,M,,M,1,38,0.912,,M*1C
$GPVTG,,T,,M,0.00,N,0.01,K,D*27
$GPHDT,,T*1B
$GPTHS,,V*0E
$GPROT,,V*08
$PSSN,HRP,232942.00,010125,,,,,,,00,0,,*6D
$PTNL,AVR,232942.00,,Yaw,,Tilt,,,,0,,00*3B
$GPGSA,A,3,02,03,08,10,14,17,21,28,32,,,,0.7,0.5,0.6*35
$GPGSA,A,3,68,69,70,76,77,84,85,86,,,,,0.7,0.5,0.6*3E
$GPGSA,A,3,07,08,13,24,26,29,31,33,,,,,0.7,0.5,0.6*30
$GPGSA,A,3,05,06,09,13,16,27,28,30,32,33,39,41,0.7,0.5,0.6*3B
$GPGSA,A,3,60,,,,,,,,,,,,0.7,0.5,0.6*30
$GPGST,232942.00,2.828,0.451,0.352,342.266,0.442,0.362,0.710*5B
$GPGBS,232942.00,4.089,2.367,4.380,77,0.0001,-12.157,6.415*43
$GPGRS,232942.00,1,-0.3,0.1,-0.2,0.7,0.5,0.1,0.0,0.1,-0.3,,,*40
$GPGRS,232942.00,1,7.7,2.1,-0.4,-2.2,-12.2,0.0,4.6,-0.7,,,,*71
$GPGRS,232942.00,1,-0.1,0.6,-0.4,-0.3,0.0,0.6,-0.1,-0.1,,,,*69
$GPGRS,232942.00,1,1.2,0.4,1.0,0.0,0.4,0.0,0.6,0.2,0.1,-0.9,-0.8,-1.1*69
$GPGRS,232942.00,1,-1.4,,,,,,,,,,,*44
$GPGSV,5,1,19,21,82,101,44,08,34,186,45,10,16,062,42,17,18,318,41*79
$GPGSV,5,2,19,14,13,288,40,03,38,250,46,32,43,063,48,02,74,307,49*7D
$GPGSV,5,3,19,28,08,108,38,27,08,165,34,36,35,170,45,58,13,245,38*7C
$GPGSV,5,4,19,57,10,109,39,34,31,208,42,40,24,132,36,49,34,195,44*78
$GPGSV,5,5,19,41,07,108,34,61,03,257,38*72
$GLGSV,3,1,09,85,66,331,51,69,57,044,51,86,12,315,44,70,51,203,42*61
$GLGSV,3,2,09,84,52,119,38,77,08,351,38,76,06,309,44,68,08,033,42*6D
$GLGSV,3,3,09,71,05,209,43*53
$GAGSV,3,1,12,33,64,309,48,08,14,036,38,12,11,293,35,31,16,263,40*65
$GAGSV,3,2,12,24,14,314,39,29,40,163,45,07,50,081,46,26,60,096,47*68
$GAGSV,3,3,12,16,06,337,,19,04,192,,13,09,108,36,23,01,218,*67
$GBGSV,5,1,19,57,79,342,,16,19,075,40,60,10,109,40,33,23,049,44*60
$GBGSV,5,2,19,28,25,142,43,39,21,064,42,05,24,128,38,20,37,201,*62
$GBGSV,5,3,19,09,16,092,38,06,19,079,38,32,45,213,49,29,45,303,*67
$GBGSV,5,4,19,30,52,300,49,27,69,166,51,41,72,076,51,26,01,324,*62
$GBGSV,5,5,19,31,04,093,,02,09,105,34,13,09,067,37*59
$GPGGA,232942.00,,,,,0,00,,,M,,M,,*44
$PTNL,GGK,232942.00,010125,4742.1601184,N,01618.1003340,E,1,38,0.7,EHT751.3143,M*49
$GPGGQ,232942.00,010125,4742.1601184,N,01618.1003340,E,1,38,0.912,708.1077,M*32
$GPGFA,232942.00,4.285,5.822,0.451,0.352,342.266,0.710,,VVV*0C
$GPLLK,232942.00,010125,,M,,M,1,38,0.8,,M*04
$GNGMP,232942.00,,,,,DAAA,38,0.5,,,,*54
$GPGMP,232942.00,,,,,,09,,,,3.4,136*7B
$GLGMP,232942.00,,,,,,08,,,,,*7B
$GAGMP,232942.00,,,,,,08,,,,,*76
$GBGMP,232942.00,,,,,,13,,,,,*7F
$PSSN,SNC,[0,343800000,2347]*48
$GPZDA,232947.00,01,01,2025,,*6A
$GPDTM,W84,,00.0000000,N,00.0000000,E,00.0000000,W84*5F
$PSSN,TFM,232947.00,,,,*66
$GPRMC,232947.00,A,4742.1601171,N,01618.1003367,E,0.0,,010125,5.1,E,D*1E
$GPGLL,4742.1601171,N,01618.1003367,E,232947.00,A,D*6F
$GPGGA,232947.00,4742.1601171,N,01618.1003367,E,2,38,0.5,708.1132,M,43.2066,M,1.9,0136*4B
$GNGNS,232947.00,4742.1601171,N,01618.1003367,E,DAAA,38,0.5,708.1132,43.2066,,*5B
$GPGNS,232947.00,,,,,,09,,,,1.9,136*71
$GLGNS,232947.00,,,,,,08,,,,,*7E
$GAGNS,232947.00,,,,,,08,,,,,*73
$GBGNS,232947.00,,,,,,13,,,,,*7A
$GPLLQ,232947.00,010125,,M,,M,1,38,0.911,,M*1A
$GPVTG,,T,,M,0.00,N,0.01,K,D*27
$GPHDT,,T*1B
$GPTHS,,V*0E
$GPROT,,V*08
$PSSN,HRP,232947.00,010125,,,,,,,00,0,,*68
$PTNL,AVR,232947.00,,Yaw,,Tilt,,,,0,,00*3E
$GPGSA,A,3,02,03,08,10,14,17,21,28,32,,,,0.7,0.5,0.6*35
$GPGSA,A,3,68,69,70,76,77,84,85,86,,,,,0.7,0.5,0.6*3E
$GPGSA,A,3,07,08,13,24,26,29,31,33,,,,,0.7,0.5,0.6*30
$GPGSA,A,3,05,06,09,13,16,27,28,30,32,33,39,41,0.7,0.5,0.6*3B
$GPGSA,A,3,60,,,,,,,,,,,,0.7,0.5,0.6*30
$GPGST,232947.00,2.822,0.448,0.353,342.266,0.440,0.363,0.710*5E
$GPGBS,232947.00,3.941,2.309,4.444,77,0.0001,-12.447,6.413*49
$GPGRS,232947.00,1,-0.2,0.2,-0.1,0.2,0.2,0.2,-0.0,-0.0,-0.3,,,*44
$GPGRS,232947.00,1,6.7,2.2,-0.6,-3.8,-12.4,0.7,4.4,-0.4,,,,*7F
$GPGRS,232947.00,1,-0.1,0.5,-0.1,-0.2,0.2,0.3,-0.2,-0.1,,,,*6F
$GPGRS,232947.00,1,1.1,0.8,0.8,-0.7,0.0,0.0,0.5,0.5,0.0,-1.0,-0.5,-1.0*45
$GPGRS,232947.00,1,-1.1,,,,,,,,,,,*44
$GPGSV,5,1,19,21,82,101,44,08,34,185,45,10,16,062,42,17,18,318,41*7A
$GPGSV,5,2,19,14,13,288,39,03,38,250,45,32,43,063,48,02,74,307,49*70
$GPGSV,5,3,19,28,08,108,38,27,08,165,34,36,35,170,45,58,13,245,38*7C
$GPGSV,5,4,19,57,10,109,39,34,31,208,42,40,24,132,36,49,34,195,44*78
$GPGSV,5,5,19,41,07,108,34,61,03,257,38*72
$GLGSV,3,1,09,85,67,331,51,69,57,044,51,86,12,315,45,70,51,203,42*61
$GLGSV,3,2,09,84,52,120,39,77,08,351,37,76,06,309,43,68,08,033,43*6F
$GLGSV,3,3,09,71,05,209,43*53
$GAGSV,3,1,12,33,64,309,48,08,13,036,39,12,11,293,35,31,16,263,39*6D
$GAGSV,3,2,12,24,14,314,39,29,40,163,45,07,50,081,46,26,60,096,48*67
$GAGSV,3,3,12,16,06,337,,19,04,192,,13,09,108,36,23,01,218,*67
$GBGSV,5,1,19,57,79,342,,16,19,075,40,60,10,109,40,33,23,049,44*60
$GBGSV,5,2,19,28,25,142,43,39,22,064,42,05,24,128,38,20,37,201,*61
$GBGSV,5,3,19,09,16,092,38,06,19,079,38,32,45,213,49,29,45,303,*67
$GBGSV,5,4,19,30,52,300,49,27,69,166,51,41,72,076,51,26,01,324,*62
$GBGSV,5,5,19,31,04,093,,02,09,105,34,13,09,067,38*56
$GPGGA,232947.00,,,,,0,00,,,M,,M,,*41
$PTNL,GGK,232947.00,010125,4742.1601171,N,01618.1003367,E,1,38,0.7,EHT751.3198,M*45
$GPGGQ,232947.00,010125,4742.1601171,N,01618.1003367,E,1,38,0.911,708.1132,M*3B
$GPGFA,232947.00,4.262,5.819,0.448,0.353,342.266,0.710,,VVV*01
$GPLLK,232947.00,010125,,M,,M,1,38,0.8,,M*01
$GNGMP,232947.00,,,,,DAAA,38,0.5,,,,*51
$GPGMP,232947.00,,,,,,09,,,,1.9,136*71
$GLGMP,232947.00,,,,,,08,,,,,*7E
$GAGMP,232947.00,,,,,,08,,,,,*73
$GBGMP,232947.00,,,,,,13,,,,,*7A
$PSSN,SNC,[0,343805000,2347]*4D
$GPZDA,232952.00,01,01,2025,,*6E
$GPDTM,W84,,00.0000000,N,00.0000000,E,00.0000000,W84*5F
$PSSN,TFM,232952.00,,,,*62
$GPRMC,232952.00,A,4742.1601176,N,01618.1003353,E,0.0,,010125,5.1,E,D*1A
$GPGLL,4742.1601176,N,01618.1003353,E,232952.00,A,D*6B
$GPGGA,232952.00,4742.1601176,N,01618.1003353,E,2,38,0.5,708.1108,M,43.2066,M,2.4,0136*48
$GNGNS,232952.00,4742.1601176,N,01618.1003353,E,DAAA,38,0.5,708.1108,43.2066,,*56
$GPGNS,232952.00,,,,,,09,,,,2.4,136*7B
$GLGNS,232952.00,,,,,,08,,,,,*7A
$GAGNS,232952.00,,,,,,08,,,,,*77
$GBGNS,232952.00,,,,,,13,,,,,*7E
$GPLLQ,232952.00,010125,,M,,M,1,38,0.894,,M*12
$GPVTG,,T,,M,0.00,N,0.01,K,D*27
$GPHDT,,T*1B
$GPTHS,,V*0E
$GPROT,,V*08
$PSSN,HRP,232952.00,010125,,,,,,,00,0,,*6C
$PTNL,AVR,232952.00,,Yaw,,Tilt,,,,0,,00*3A
$GPGSA,A,3,02,03,08,10,14,17,21,28,32,,,,0.7,0.5,0.6*35
$GPGSA,A,3,68,69,70,76,77,84,85,86,,,,,0.7,0.5,0.6*3E
$GPGSA,A,3,07,08,13,24,26,29,31,33,,,,,0.7,0.5,0.6*30
$GPGSA,A,3,05,06,09,13,16,27,28,30,32,33,39,41,0.7,0.5,0.6*3B
$GPGSA,A,3,60,,,,,,,,,,,,0.7,0.5,0.6*30
$GPGST,232952.00,2.878,0.441,0.344,341.914,0.433,0.355,0.698*57
$GPGBS,232952.00,4.003,2.280,4.511,77,0.0001,-12.462,6.412*42
$GPGRS,232952.00,1,-0.1,-0.2,0.1,-0.2,-0.2,0.2,0.2,-0.3,0.1,,,*40
$GPGRS,232952.00,1,7.1,2.5,-0.8,-3.2,-12.5,1.4,4.6,-0.8,,,,*72
$GPGRS,232952.00,1,-0.0,0.5,0.1,-0.2,0.2,0.5,0.1,0.1,,,,*42
$GPGRS,232952.00,1,1.0,0.9,1.3,-0.6,0.1,0.3,0.2,0.4,0.0,-0.8,-0.8,-1.0*4A
$GPGRS,232952.00,1,-1.5,,,,,,,,,,,*44
$GPGSV,5,1,19,21,82,101,45,08,34,185,45,10,16,062,41,17,18,318,40*79
$GPGSV,5,2,19,14,13,288,40,03,38,250,46,32,43,063,48,02,74,307,49*7D
$GPGSV,5,3,19,28,08,108,38,27,07,165,34,36,35,170,45,58,13,245,38*73
$GPGSV,5,4,19,57,10,109,39,34,31,208,43,40,24,132,36,49,34,195,44*79
$GPGSV,5,5,19,41,07,108,34,61,03,257,38*72
$GLGSV,3,1,09,85,67,331,51,69,57,044,51,86,12,315,45,70,51,203,42*61
$GLGSV,3,2,09,84,52,120,39,77,08,351,37,76,06,309,45,68,08,033,43*69
$GLGSV,3,3,09,71,05,209,43*53
$GAGSV,3,1,12,33,64,309,48,08,13,036,39,12,11,293,35,31,16,263,40*63
$GAGSV,3,2,12,24,14,314,39,29,40,163,45,07,50,081,46,26,60,096,48*67
$GAGSV,3,3,12,16,06,337,,19,04,192,,13,09,108,36,23,01,218,*67
$GBGSV,5,1,19,57,79,343,,16,19,075,40,60,10,109,40,33,23,049,44*61
$GBGSV,5,2,19,28,25,142,44,39,22,064,42,05,24,128,38,20,37,201,*66
$GBGSV,5,3,19,09,16,092,38,06,19,079,38,32,45,213,49,29,45,303,*67
$GBGSV,5,4,19,30,52,300,49,27,69,166,51,41,72,076,51,26,01,324,*62
$GBGSV,5,5,19,31,04,093,,02,09,105,34,13,09,067,38*56
$GPGGA,232952.00,,,,,0,00,,,M,,M,,*45
$PTNL,GGK,232952.00,010125,4742.1601176,N,01618.1003353,E,1,38,0.7,EHT751.3174,M*43
$GPGGQ,232952.00,010125,4742.1601176,N,01618.1003353,E,1,38,0.894,708.1108,M*3A
$GPGFA,232952.00,4.192,5.722,0.441,0.344,341.914,0.698,,VVV*0D
$GPLLK,232952.00,010125,,M,,M,1,38,0.8,,M*05
$GNGMP,232952.00,,,,,DAAA,38,0.5,,,,*55
$GPGMP,232952.00,,,,,,09,,,,2.4,136*7B
$GLGMP,232952.00,,,,,,08,,,,,*7A
$GAGMP,232952.00,,,,,,08,,,,,*77
$GBGMP,232952.00,,,,,,13,,,,,*7E
$PSSN,SNC,[0,343810000,2347]*49
$GPZDA,232957.00,01,01,2025,,*6B
$GPDTM,W84,,00.0000000,N,00.0000000,E,00.0000000,W84*5F
$PSSN,TFM,232957.00,,,,*67
$GPRMC,232957.00,A,4742.1601187,N,01618.1003359,E,0.0,,010125,5.1,E,D*1B
$GPGLL,4742.1601187,N,01618.1003359,E,232957.00,A,D*6A
$GPGGA,232957.00,4742.1601187,N,01618.1003359,E,2,38,0.5,708.1113,M,43.2066,M,2.4,0136*43
$GNGNS,232957.00,4742.1601187,N,01618.1003359,E,DAAA,38,0.5,708.1113,43.2066,,*5D
$GPGNS,232957.00,,,,,,09,,,,2.4,136*7E
$GLGNS,232957.00,,,,,,08,,,,,*7F
$GAGNS,232957.00,,,,,,08,,,,,*72
$GBGNS,232957.00,,,,,,13,,,,,*7B
$GPLLQ,232957.00,010125,,M,,M,1,38,0.912,,M*18
$GPVTG,,T,,M,0.00,N,0.01,K,D*27
$GPHDT,,T*1B
$GPTHS,,V*0E
$GPROT,,V*08
$PSSN,HRP,232957.00,010125,,,,,,,00,0,,*69
$PTNL,AVR,232957.00,,Yaw,,Tilt,,,,0,,00*3F
$GPGSA,A,3,02,03,08,10,14,17,21,28,32,,,,0.7,0.5,0.6*35
$GPGSA,A,3,68,69,70,76,77,84,85,86,,,,,0.7,0.5,0.6*3E
$GPGSA,A,3,07,08,13,24,26,29,31,33,,,,,0.7,0.5,0.6*30
$GPGSA,A,3,05,06,09,13,16,27,28,30,32,33,39,41,0.7,0.5,0.6*3B
$GPGSA,A,3,60,,,,,,,,,,,,0.7,0.5,0.6*30
$GPGST,232957.00,2.867,0.452,0.349,342.135,0.443,0.360,0.712*59
$GPGBS,232957.00,4.026,2.290,4.279,77,0.0001,-12.504,6.412*49
$GPGRS,232957.00,1,-0.2,0.2,0.0,0.3,0.3,0.4,0.0,-0.3,-0.2,,,*40
$GPGRS,232957.00,1,7.5,2.5,-0.7,-2.0,-12.5,0.5,4.8,-0.5,,,,*7C
$GPGRS,232957.00,1,-0.0,0.4,-0.6,-0.3,-0.0,0.7,0.0,-0.1,,,,*6C
$GPGRS,232957.00,1,0.7,0.6,1.1,-0.3,0.1,-0.1,0.6,0.2,-0.0,-0.7,-0.5,-1.2*41
$GPGRS,232957.00,1,-1.4,,,,,,,,,,,*40
$GPGSV,5,1,19,21,82,101,45,08,34,185,45,10,16,062,40,17,18,318,42*7A
$GPGSV,5,2,19,14,13,288,39,03,38,250,46,32,43,063,48,02,74,307,49*73
$GPGSV,5,3,19,28,08,108,38,27,07,165,34,36,35,170,45,58,13,245,38*73
$GPGSV,5,4,19,57,10,109,39,34,31,208,42,40,24,132,36,49,34,195,44*78
$GPGSV,5,5,19,41,07,108,34,61,03,257,38*72
$GLGSV,3,1,09,85,67,331,52,69,57,044,51,86,12,315,45,70,51,203,41*61
$GLGSV,3,2,09,84,52,120,39,77,08,351,37,76,06,309,45,68,08,033,43*69
$GLGSV,3,3,09,71,05,209,43*53
$GAGSV,3,1,12,33,64,309,48,08,13,036,39,12,11,293,35,31,16,263,40*63
$GAGSV,3,2,12,24,14,314,39,29,40,163,46,07,50,081,46,26,60,096,48*64
$GAGSV,3,3,12,16,06,337,,19,04,192,,13,09,108,37,23,01,218,*66
$GBGSV,5,1,19,57,79,343,,16,20,075,39,60,10,109,40,33,23,049,44*65
$GBGSV,5,2,19,28,25,142,44,39,22,064,41,05,24,128,38,20,37,201,*65
$GBGSV,5,3,19,09,16,092,38,06,19,078,38,32,45,213,49,29,45,303,*66
$GBGSV,5,4,19,30,52,299,49,27,69,166,51,41,72,076,51,26,01,324,*63
$GBGSV,5,5,19,31,04,093,,02,09,105,34,13,09,067,38*56
$GPGGA,232957.00,,,,,0,00,,,M,,M,,*40
$PTNL,GGK,232957.00,010125,4742.1601187,N,01618.1003359,E,1,38,0.7,EHT751.3178,M*4E
$GPGGQ,232957.00,010125,4742.1601187,N,01618.1003359,E,1,38,0.912,708.1113,M*3E
$GPGFA,232957.00,4.294,5.839,0.452,0.349,342.135,0.712,,VVV*0C
$GPLLK,232957.00,010125,,M,,M,1,38,0.8,,M*00
$GNGMP,232957.00,,,,,DAAA,38,0.5,,,,*50
$GPGMP,232957.00,,,,,,09,,,,2.4,136*7E
$GLGMP,232957.00,,,,,,08,,,,,*7F
$GAGMP,232957.00,,,,,,08,,,,,*72
$GBGMP,232957.00,,,,,,13,,,,,*7B
$PSSN,SNC,[0,343815000,2347]*4C
$GPZDA,233002.00,01,01,2025,,*63
$GPDTM,W84,,00.0000000,N,00.0000000,E,00.0000000,W84*5F
$PSSN,TFM,233002.00,,,,*6F
$GPRMC,233002.00,A,4742.1601201,N,01618.1003348,E,0.0,,010125,5.1,E,D*1E
$GPGLL,4742.1601201,N,01618.1003348,E,233002.00,A,D*6F
$GPGGA,233002.00,4742.1601201,N,01618.1003348,E,2,38,0.5,708.1155,M,43.2066,M,3.4,0136*45
$GNGNS,233002.00,4742.1601201,N,01618.1003348,E,DAAA,38,0.5,708.1155,43.2066,,*5A
$GPGNS,233002.00,,,,,,09,,,,3.4,136*77
$GLGNS,233002.00,,,,,,08,,,,,*77
$GAGNS,233002.00,,,,,,08,,,,,*7A
$GBGNS,233002.00,,,,,,13,,,,,*73
$GPLLQ,233002.00,010125,,M,,M,1,38,0.906,,M*15
$GPVTG,,T,,M,0.01,N,0.01,K,D*26
$GPHDT,,T*1B
$GPTHS,,V*0E
$GPROT,,V*08
$PSSN,HRP,233002.00,010125,,,,,,,00,0,,*61
$PTNL,AVR,233002.00,,Yaw,,Tilt,,,,0,,00*37
$GPGSA,A,3,02,03,08,10,14,17,21,28,32,,,,0.7,0.5,0.6*35
$GPGSA,A,3,68,69,70,76,77,84,85,86,,,,,0.7,0.5,0.6*3E
$GPGSA,A,3,07,08,13,24,26,29,31,33,,,,,0.7,0.5,0.6*30
$GPGSA,A,3,05,06,09,13,16,27,28,30,32,33,39,41,0.7,0.5,0.6*3B
$GPGSA,A,3,60,,,,,,,,,,,,0.7,0.5,0.6*30
$GPGST,233002.00,2.831,0.450,0.348,342.738,0.442,0.358,0.705*56
$GPGBS,233002.00,4.094,2.308,4.345,77,0.0001,-12.288,6.414*43
$GPGRS,233002.00,1,-0.2,0.1,0.1,0.3,-0.5,0.2,0.1,0.3,-0.0,,,*49
$GPGRS,233002.00,1,6.9,1.9,-0.1,-3.2,-12.3,1.6,4.9,-0.0,,,,*73
$GPGRS,233002.00,1,-0.1,0.5,-0.5,-0.6,-0.2,0.6,-0.2,-0.0,,,,*4F
$GPGRS,233002.00,1,1.2,0.2,1.5,-0.5,0.1,-0.0,0.4,-0.1,0.0,-0.6,-0.8,-1.1*44
$GPGRS,233002.00,1,-1.5,,,,,,,,,,,*49
$GPGSV,5,1,19,21,82,102,44,08,34,185,45,10,16,062,40,17,18,318,41*7B
$GPGSV,5,2,19,14,13,288,39,03,38,250,46,32,43,063,48,02,74,307,49*73
$GPGSV,5,3,19,28,08,108,38,27,07,165,33,36,35,170,44,58,13,245,38*75
$GPGSV,5,4,19,57,10,109,39,34,31,208,42,40,24,132,35,49,34,195,43*7C
$GPGSV,5,5,19,41,07,108,34,61,03,257,38*72
$GLGSV,3,1,09,85,67,331,52,69,57,044,51,86,12,315,45,70,51,203,41*61
$GLGSV,3,2,09,84,52,120,39,77,08,351,37,76,06,308,44,68,08,033,42*68
$GLGSV,3,3,09,71,05,209,43*53
$GAGSV,3,1,12,33,64,309,48,08,13,036,39,12,11,293,35,31,16,263,40*63
$GAGSV,3,2,12,24,14,314,39,29,40,163,46,07,50,081,46,26,60,096,48*64
$GAGSV,3,3,12,16,06,337,,19,05,192,,13,09,108,36,23,01,218,*66
$GBGSV,5,1,19,57,79,343,,16,20,075,40,60,10,109,41,33,23,049,44*6A
$GBGSV,5,2,19,28,25,142,44,39,22,064,42,05,24,128,38,20,37,201,*66
$GBGSV,5,3,19,09,16,092,38,06,19,078,38,32,45,213,49,29,45,303,*66
$GBGSV,5,4,19,30,52,299,49,27,69,166,52,41,72,076,51,26,01,324,*60
$GBGSV,5,5,19,31,04,093,,02,09,105,34,13,09,067,38*56
$GPGGA,233002.00,,,,,0,00,,,M,,M,,*48
$PTNL,GGK,233002.00,010125,4742.1601201,N,01618.1003348,E,1,38,0.7,EHT751.3221,M*44
$GPGGQ,233002.00,010125,4742.1601201,N,01618.1003348,E,1,38,0.906,708.1155,M*3C
$GPGFA,233002.00,4.283,5.782,0.450,0.348,342.738,0.705,,VVV*03
$GPLLK,233002.00,010125,,M,,M,1,38,0.8,,M*08
$GNGMP,233002.00,,,,,DAAA,38,0.5,,,,*58
$GPGMP,233002.00,,,,,,09,,,,3.4,136*77
$GLGMP,233002.00,,,,,,08,,,,,*77
$GAGMP,233002.00,,,,,,08,,,,,*7A
$GBGMP,233002.00,,,,,,13,,,,,*73
$PSSN,SNC,[0,343820000,2347]*4A
$GPZDA,233007.00,01,01,2025,,*66
$GPDTM,W84,,00.0000000,N,00.0000000,E,00.0000000,W84*5F
$PSSN,TFM,233007.00,,,,*6A
$GPRMC,233007.00,A,4742.1601201,N,01618.1003324,E,0.0,,010125,5.1,E,D*11
$GPGLL,4742.1601201,N,01618.1003324,E,233007.00,A,D*60
$GPGGA,233007.00,4742.1601201,N,01618.1003324,E,2,38,0.5,708.1154,M,43.2066,M,1.9,0136*44
$GNGNS,233007.00,4742.1601201,N,01618.1003324,E,DAAA,38,0.5,708.1154,43.2066,,*54
$GPGNS,233007.00,,,,,,09,,,,1.9,136*7D
$GLGNS,233007.00,,,,,,08,,,,,*72
$GAGNS,233007.00,,,,,,08,,,,,*7F
$GBGNS,233007.00,,,,,,13,,,,,*76
$GPLLQ,233007.00,010125,,M,,M,1,38,0.911,,M*16
$GPVTG,,T,,M,0.00,N,0.00,K,D*26
$GPHDT,,T*1B
$GPTHS,,V*0E
$GPROT,,V*08
$PSSN,HRP,233007.00,010125,,,,,,,00,0,,*64
$PTNL,AVR,233007.00,,Yaw,,Tilt,,,,0,,00*32
$GPGSA,A,3,02,03,08,10,14,17,21,28,32,,,,0.7,0.5,0.6*35
$GPGSA,A,3,68,69,70,76,77,84,85,86,,,,,0.7,0.5,0.6*3E
$GPGSA,A,3,07,08,13,24,26,29,31,33,,,,,0.7,0.5,0.6*30
$GPGSA,A,3,05,06,09,13,16,27,28,30,32,33,39,41,0.7,0.5,0.6*3B
$GPGSA,A,3,60,,,,,,,,,,,,0.7,0.5,0.6*30
$GPGST,233007.00,2.738,0.448,0.354,342.323,0.440,0.363,0.709*59
$GPGBS,233007.00,3.943,2.312,4.444,77,0.0001,-11.571,6.412*4B
$GPGRS,233007.00,1,-0.1,-0.0,0.1,0.3,0.0,-0.3,-0.0,0.3,0.3,,,*65
$GPGRS,233007.00,1,7.0,2.4,-0.3,-3.6,-11.6,1.0,4.6,-0.2,,,,*7B
$GPGRS,233007.00,1,0.1,0.5,0.0,-0.3,-0.2,0.7,0.4,-0.1,,,,*61
$GPGRS,233007.00,1,1.5,0.5,1.2,-0.6,-0.0,0.2,0.0,0.3,0.1,-0.7,-0.6,-0.9*6A
$GPGRS,233007.00,1,-1.1,,,,,,,,,,,*48
$GPGSV,5,1,19,21,82,102,44,08,34,185,45,10,16,062,41,17,18,318,41*7A
$GPGSV,5,2,19,14,13,288,39,03,38,250,45,32,43,063,48,02,74,307,49*70
$GPGSV,5,3,19,28,08,108,38,27,07,165,33,36,35,170,45,58,13,245,38*74
$GPGSV,5,4,19,57,10,109,38,34,31,208,42,40,24,132,35,49,34,195,44*7A
$GPGSV,5,5,19,41,07,108,34,61,03,257,38*72
$GLGSV,3,1,09,85,67,331,51,69,57,044,51,86,12,315,46,70,51,203,41*61
$GLGSV,3,2,09,84,52,120,38,77,08,351,38,76,06,308,43,68,08,033,42*61
$GLGSV,3,3,09,71,05,209,43*53
$GAGSV,3,1,12,33,64,309,48,08,13,036,39,12,11,293,34,31,16,263,41*63
$GAGSV,3,2,12,24,14,314,39,29,40,163,46,07,50,081,46,26,60,096,48*64
$GAGSV,3,3,12,16,06,337,,19,05,192,,13,09,108,37,23,01,218,*67
$GBGSV,5,1,19,57,79,343,,16,20,075,40,60,10,109,41,33,22,049,44*6B
$GBGSV,5,2,19,28,25,142,44,39,22,064,41,05,24,128,38,20,37,201,*65
$GBGSV,5,3,19,09,16,092,38,06,19,078,38,32,45,213,49,29,45,303,*66
$GBGSV,5,4,19,30,52,299,49,27,69,166,52,41,72,075,51,26,01,324,*63
$GBGSV,5,5,19,31,04,093,,02,09,105,34,13,09,067,38*56
$GPGGA,233007.00,,,,,0,00,,,M,,M,,*4D
$PTNL,GGK,233007.00,010125,4742.1601201,N,01618.1003324,E,1,38,0.7,EHT751.3219,M*40
$GPGGQ,233007.00,010125,4742.1601201,N,01618.1003324,E,1,38,0.911,708.1154,M*34
$GPGFA,233007.00,4.262,5.817,0.448,0.354,342.323,0.709,,VVV*0C
$GPLLK,233007.00,010125,,M,,M,1,38,0.8,,M*0D
$GNGMP,233007.00,,,,,DAAA,38,0.5,,,,*5D
$GPGMP,233007.00,,,,,,09,,,,1.9,136*7D
$GLGMP,233007.00,,,,,,08,,,,,*72
$GAGMP,233007.00,,,,,,08,,,,,*7F
$GBGMP,233007.00,,,,,,13,,,,,*76
$PSSN,SNC,[0,343825000,2347]*4F
$GPZDA,233012.00,01,01,2025,,*62
$GPDTM,W84,,00.0000000,N,00.0000000,E,00.0000000,W84*5F
$PSSN,TFM,233012.00,,,,*6E
$GPRMC,233012.00,A,4742.1601217,N,01618.1003296,E,0.0,,010125,5.1,E,D*1A
$GPGLL,4742.1601217,N,01618.1003296,E,233012.00,A,D*6B
$GPGGA,233012.00,4742.1601217,N,01618.1003296,E,2,38,0.5,708.1155,M,43.2066,M,2.4,0136*40
$GNGNS,233012.00,4742.1601217,N,01618.1003296,E,DAAA,38,0.5,708.1155,43.2066,,*5E
$GPGNS,233012.00,,,,,,09,,,,2.4,136*77
$GLGNS,233012.00,,,,,,08,,,,,*76
$GAGNS,233012.00,,,,,,08,,,,,*7B
$GBGNS,233012.00,,,,,,13,,,,,*72
$GPLLQ,233012.00,010125,,M,,M,1,38,0.898,,M*12
$GPVTG,,T,,M,0.01,N,0.01,K,D*26
$GPHDT,,T*1B
$GPTHS,,V*0E
$GPROT,,V*08
$PSSN,HRP,233012.00,010125,,,,,,,00,0,,*60
$PTNL,AVR,233012.00,,Yaw,,Tilt,,,,0,,00*36
$GPGSA,A,3,02,03,08,10,14,17,21,28,32,,,,0.7,0.5,0.6*35
$GPGSA,A,3,68,69,70,76,77,84,85,86,,,,,0.7,0.5,0.6*3E
$GPGSA,A,3,07,08,13,24,26,29,31,33,,,,,0.7,0.5,0.6*30
$GPGSA,A,3,05,06,09,13,16,27,28,30,32,33,39,41,0.7,0.5,0.6*3B
$GPGSA,A,3,60,,,,,,,,,,,,0.7,0.5,0.6*30
$GPGST,233012.00,2.581,0.441,0.348,341.807,0.432,0.358,0.702*51
$GPGBS,233012.00,4.001,2.336,4.542,77,0.0001,-11.250,6.414*44
$GPGRS,233012.00,1,-0.2,-0.1,0.2,0.4,0.0,0.1,-0.2,-0.4,0.1,,,*62
$GPGRS,233012.00,1,5.6,2.3,-1.6,-1.9,-11.2,3.2,4.1,0.6,,,,*5F
$GPGRS,233012.00,1,-0.1,-0.0,-0.3,-0.6,-0.1,0.6,-0.3,-0.2,,,,*60
$GPGRS,233012.00,1,1.9,0.6,0.4,-1.0,-0.2,0.0,-0.2,0.3,0.2,-0.3,-0.6,-0.6*46
$GPGRS,233012.00,1,-1.4,,,,,,,,,,,*49
$GPGSV,5,1,19,21,82,102,45,08,34,185,45,10,16,062,41,17,18,318,42*78
$GPGSV,5,2,19,14,13,288,39,03,38,250,46,32,43,063,48,02,74,307,49*73
$GPGSV,5,3,19,28,08,108,38,27,07,165,33,36,35,170,45,58,13,245,38*74
$GPGSV,5,4,19,57,10,109,38,34,31,208,42,40,24,132,35,49,34,195,44*7A
$GPGSV,5,5,19,41,07,108,34,61,03,257,38*72
$GLGSV,3,1,09,85,67,331,52,69,57,043,51,86,12,315,46,70,51,203,42*66
$GLGSV,3,2,09,84,52,120,39,77,08,351,38,76,06,308,43,68,08,033,42*60
$GLGSV,3,3,09,71,05,209,43*53
$GAGSV,3,1,12,33,64,309,48,08,13,036,38,12,11,293,35,31,16,263,40*62
$GAGSV,3,2,12,24,14,314,39,29,40,163,46,07,50,081,46,26,60,096,48*64
$GAGSV,3,3,12,16,06,337,,19,05,192,,13,09,108,37,23,01,218,*67
$GBGSV,5,1,19,57,79,343,,16,20,075,40,60,10,109,40,33,22,049,44*6A
$GBGSV,5,2,19,28,25,142,44,39,22,064,41,05,24,128,38,20,37,201,*65
$GBGSV,5,3,19,09,16,092,38,06,19,078,38,32,45,213,49,29,45,303,*66
$GBGSV,5,4,19,30,52,299,49,27,69,166,52,41,72,075,51,26,01,324,*63
$GBGSV,5,5,19,31,04,093,,02,09,105,34,13,09,067,37*59
$GPGGA,233012.00,,,,,0,00,,,M,,M,,*49
$PTNL,GGK,233012.00,010125,4742.1601217,N,01618.1003296,E,1,38,0.7,EHT751.3220,M*41
$GPGGQ,233012.00,010125,4742.1601217,N,01618.1003296,E,1,38,0.898,708.1155,M*3E
$GPGFA,233012.00,4.189,5.753,0.441,0.348,341.807,0.702,,VVV*00
$GPLLK,233012.00,010125,,M,,M,1,38,0.8,,M*09
$GNGMP,233012.00,,,,,DAAA,38,0.5,,,,*59
$GPGMP,233012.00,,,,,,09,,,,2.4,136*77
$GLGMP,233012.00,,,,,,08,,,,,*76
$GAGMP,233012.00,,,,,,08,,,,,*7B
$GBGMP,233012.00,,,,,,13,,,,,*72
$PSSN,SNC,[0,343830000,2347]*4B
$GPZDA,233017.00,01,01,2025,,*67
$GPDTM,W84,,00.0000000,N,00.0000000,E,00.0000000,W84*5F
$PSSN,TFM,233017.00,,,,*6B
$GPRMC,233017.00,A,4742.1601236,N,01618.1003284,E,0.0,,010125,5.1,E,D*1F
$GPGLL,4742.1601236,N,01618.1003284,E,233017.00,A,D*6E
$GPGGA,233017.00,4742.1601236,N,01618.1003284,E,2,38,0.5,708.1209,M,43.2066,M,2.4,0136*4F
$GNGNS,233017.00,4742.1601236,N,01618.1003284,E,DAAA,38,0.5,708.1209,43.2066,,*51
$GPGNS,233017.00,,,,,,09,,,,2.4,136*72
$GLGNS,233017.00,,,,,,08,,,,,*73
$GAGNS,233017.00,,,,,,08,,,,,*7E
$GBGNS,233017.00,,,,,,13,,,,,*77
$GPLLQ,233017.00,010125,,M,,M,1,38,0.905,,M*12
$GPVTG,,T,,M,0.00,N,0.00,K,D*26
$GPHDT,,T*1B
$GPTHS,,V*0E
$GPROT,,V*08
$PSSN,HRP,233017.00,010125,,,,,,,00,0,,*65
$PTNL,AVR,233017.00,,Yaw,,Tilt,,,,0,,00*33
$GPGSA,A,3,02,03,08,10,14,17,21,28,32,,,,0.7,0.5,0.6*35
$GPGSA,A,3,68,69,70,76,77,84,85,86,,,,,0.7,0.5,0.6*3E
$GPGSA,A,3,07,08,13,24,26,29,31,33,,,,,0.7,0.5,0.6*30
$GPGSA,A,3,05,06,09,13,16,27,28,30,32,33,39,41,0.7,0.5,0.6*3B
$GPGSA,A,3,60,,,,,,,,,,,,0.7,0.5,0.6*30
$GPGST,233017.00,2.623,0.446,0.347,341.999,0.437,0.358,0.707*51
$GPGBS,233017.00,4.025,2.348,4.314,77,0.0001,-11.414,6.415*4C
$GPGRS,233017.00,1,-0.3,0.4,0.2,0.3,0.2,0.1,-0.1,-0.7,-0.3,,,*64
$GPGRS,233017.00,1,6.1,1.6,-1.4,-2.6,-11.4,3.0,4.2,0.0,,,,*57
$GPGRS,233017.00,1,-0.1,-0.1,-0.2,-0.9,-0.3,0.4,-0.7,-0.3,,,,*6F
$GPGRS,233017.00,1,1.1,0.7,0.6,-0.3,0.4,-0.1,-0.1,0.1,-0.0,-0.5,-0.3,-0.9*6F
$GPGRS,233017.00,1,-1.4,,,,,,,,,,,*4C
$GPGSV,5,1,19,21,82,102,45,08,34,185,45,10,16,062,41,17,18,318,42*78
$GPGSV,5,2,19,14,13,288,39,03,38,250,46,32,43,063,48,02,74,307,50*7B
$GPGSV,5,3,19,28,08,108,38,27,07,165,33,36,35,170,45,58,13,245,38*74
$GPGSV,5,4,19,57,10,109,39,34,31,208,42,40,24,132,35,49,34,195,44*7B
$GPGSV,5,5,19,41,07,108,34,61,03,257,38*72
$GLGSV,3,1,09,85,67,331,51,69,57,043,51,86,12,315,45,70,51,203,41*65
$GLGSV,3,2,09,84,52,120,39,77,08,351,37,76,06,308,42,68,08,033,41*6D
$GLGSV,3,3,09,71,05,209,42*52
$GAGSV,3,1,12,33,64,309,48,08,13,036,38,12,11,293,35,31,16,263,40*62
$GAGSV,3,2,12,24,14,314,39,29,40,163,46,07,50,081,46,26,60,096,47*6B
$GAGSV,3,3,12,16,06,337,,19,05,192,,13,09,108,37,23,01,218,*67
$GBGSV,5,1,19,57,79,343,,16,20,075,40,60,10,109,41,33,22,049,43*6C
$GBGSV,5,2,19,28,25,142,44,39,22,064,42,05,24,128,39,20,38,201,*68
$GBGSV,5,3,19,09,16,092,38,06,19,078,39,32,45,213,49,29,45,303,*67
$GBGSV,5,4,19,30,52,299,49,27,69,166,52,41,72,075,51,26,01,324,*63
$GBGSV,5,5,19,31,04,093,,02,09,105,34,13,09,067,38*56
$GPGGA,233017.00,,,,,0,00,,,M,,M,,*4C
$PTNL,GGK,233017.00,010125,4742.1601236,N,01618.1003284,E,1,38,0.7,EHT751.3274,M*45
$GPGGQ,233017.00,010125,4742.1601236,N,01618.1003284,E,1,38,0.905,708.1209,M*34
$GPGFA,233017.00,4.239,5.796,0.446,0.347,341.999,0.707,,VVV*0F
$GPLLK,233017.00,010125,,M,,M,1,38,0.8,,M*0C
$GNGMP,233017.00,,,,,DAAA,38,0.5,,,,*5C
$GPGMP,233017.00,,,,,,09,,,,2.4,136*72
$GLGMP,233017.00,,,,,,08,,,,,*73
$GAGMP,233017.00,,,,,,08,,,,,*7E
$GBGMP,233017.00,,,,,,13,,,,,*77
$PSSN,SNC,[0,343835000,2347]*4E
$GPZDA,233022.00,01,01,2025,,*61
$GPDTM,W84,,00.0000000,N,00.0000000,E,00.0000000,W84*5F
$PSSN,TFM,233022.00,,,,*6D
$GPRMC,233022.00,A,4742.1601249,N,01618.1003316,E,0.0,,010125,5.1,E,D*1B
$GPGLL,4742.1601249,N,01618.1003316,E,233022.00,A,D*6A
$GPGGA,233022.00,4742.1601249,N,01618.1003316,E,2,38,0.5,708.1218,M,43.2066,M,3.4,0136*4A
$GNGNS,233022.00,4742.1601249,N,01618.1003316,E,DAAA,38,0.5,708.1218,43.2066,,*55
$GPGNS,233022.00,,,,,,09,,,,3.4,136*75
$GLGNS,233022.00,,,,,,08,,,,,*75
$GAGNS,233022.00,,,,,,08,,,,,*78
$GBGNS,233022.00,,,,,,13,,,,,*71
$GPLLQ,233022.00,010125,,M,,M,1,38,0.911,,M*11
$GPVTG,,T,,M,0.00,N,0.00,K,D*26
$GPHDT,,T*1B
$GPTHS,,V*0E
$GPROT,,V*08
$PSSN,HRP,233022.00,010125,,,,,,,00,0,,*63
$PTNL,AVR,233022.00,,Yaw,,Tilt,,,,0,,00*35
$GPGSA,A,3,02,03,08,10,14,17,21,28,32,,,,0.7,0.5,0.6*35
$GPGSA,A,3,68,69,70,76,77,84,85,86,,,,,0.7,0.5,0.6*3E
$GPGSA,A,3,07,08,13,24,26,29,31,33,,,,,0.7,0.5,0.6*30
$GPGSA,A,3,05,06,09,13,16,27,28,30,32,33,39,41,0.7,0.5,0.6*3B
$GPGSA,A,3,60,,,,,,,,,,,,0.7,0.5,0.6*30
$GPGST,233022.00,2.727,0.450,0.352,342.412,0.442,0.362,0.710*51
$GPGBS,233022.00,4.090,2.370,4.380,77,0.0001,-11.935,6.411*48
$GPGRS,233022.00,1,-0.2,0.2,-0.1,0.2,0.8,-0.3,-0.1,-0.1,-0.1,,,*6B
$GPGRS,233022.00,1,5.9,2.0,-2.2,-2.7,-11.9,2.9,4.3,-0.4,,,,*76
$GPGRS,233022.00,1,0.3,0.0,-0.2,-0.8,-0.1,0.6,0.1,-0.1,,,,*42
$GPGRS,233022.00,1,1.2,1.0,0.8,-0.9,1.1,0.0,-0.2,0.3,0.0,-0.4,-0.1,-0.8*6E
$GPGRS,233022.00,1,-1.3,,,,,,,,,,,*4D
$GPGSV,5,1,19,21,82,102,45,08,34,185,45,10,16,062,41,17,18,318,43*79
$GPGSV,5,2,19,14,12,288,39,03,38,250,46,32,43,063,48,02,74,307,49*72
$GPGSV,5,3,19,28,08,108,38,27,07,165,32,36,35,170,45,58,13,245,38*75
$GPGSV,5,4,19,57,10,109,39,34,31,208,42,40,24,132,35,49,34,195,44*7B
$GPGSV,5,5,19,41,07,108,34,61,03,257,38*72
$GLGSV,3,1,09,85,67,331,52,69,56,043,51,86,12,315,45,70,51,203,42*64
$GLGSV,3,2,09,84,52,120,39,77,08,351,39,76,06,308,44,68,08,033,42*66
$GLGSV,3,3,09,71,05,209,42*52
$GAGSV,3,1,12,33,64,309,48,08,13,036,38,12,11,293,34,31,16,263,40*63
$GAGSV,3,2,12,24,14,314,38,29,40,163,45,07,50,081,46,26,60,097,47*68
$GAGSV,3,3,12,16,06,337,,19,05,192,,13,08,108,37,23,00,218,*67
$GBGSV,5,1,19,57,79,344,,16,20,075,40,60,10,109,41,33,22,049,43*6B
$GBGSV,5,2,19,28,24,142,44,39,22,064,42,05,24,128,38,20,38,201,*68
$GBGSV,5,3,19,09,16,092,38,06,19,078,38,32,45,213,49,29,45,303,*66
$GBGSV,5,4,19,30,52,299,49,27,68,166,51,41,72,075,51,26,01,324,*61
$GBGSV,5,5,19,31,04,093,,02,09,105,34,13,09,068,38*59
$GPGGA,233022.00,,,,,0,00,,,M,,M,,*4A
$PTNL,GGK,233022.00,010125,4742.1601249,N,01618.1003316,E,1,38,0.7,EHT751.3283,M*49
$GPGGQ,233022.00,010125,4742.1601249,N,01618.1003316,E,1,38,0.911,708.1218,M*35
$GPGFA,233022.00,4.282,5.818,0.450,0.352,342.412,0.710,,VVV*08
$GPLLK,233022.00,010125,,M,,M,1,38,0.8,,M*0A
$GNGMP,233022.00,,,,,DAAA,38,0.5,,,,*5A
$GPGMP,233022.00,,,,,,09,,,,3.4,136*75
$GLGMP,233022.00,,,,,,08,,,,,*75
$GAGMP,233022.00,,,,,,08,,,,,*78
$GBGMP,233022.00,,,,,,13,,,,,*71
$PSSN,SNC,[0,343840000,2347]*4C
$GPZDA,233027.00,01,01,2025,,*64
$GPDTM,W84,,00.0000000,N,00.0000000,E,00.0000000,W84*5F
$PSSN,TFM,233027.00,,,,*68
$GPRMC,233027.00,A,4742.1601256,N,01618.1003316,E,0.0,,010125,5.1,E,D*10
$GPGLL,4742.1601256,N,01618.1003316,E,233027.00,A,D*61
$GPGGA,233027.00,4742.1601256,N,01618.1003316,E,2,38,0.5,708.1250,M,43.2066,M,1.9,0136*42
$GNGNS,233027.00,4742.1601256,N,01618.1003316,E,DAAA,38,0.5,708.1250,43.2066,,*52
$GPGNS,233027.00,,,,,,09,,,,1.9,136*7F
$GLGNS,233027.00,,,,,,08,,,,,*70
$GAGNS,233027.00,,,,,,08,,,,,*7D
$GBGNS,233027.00,,,,,,13,,,,,*74
$GPLLQ,233027.00,010125,,M,,M,1,38,0.910,,M*15
$GPVTG,,T,,M,0.00,N,0.00,K,D*26
$GPHDT,,T*1B
$GPTHS,,V*0E
$GPROT,,V*08
$PSSN,HRP,233027.00,010125,,,,,,,00,0,,*66
$PTNL,AVR,233027.00,,Yaw,,Tilt,,,,0,,00*30
$GPGSA,A,3,02,03,08,10,14,17,21,28,32,,,,0.7,0.5,0.6*35
$GPGSA,A,3,68,69,70,76,77,84,85,86,,,,,0.7,0.5,0.6*3E
$GPGSA,A,3,07,08,13,24,26,29,31,33,,,,,0.7,0.5,0.6*30
$GPGSA,A,3,05,06,09,13,16,27,28,30,32,33,39,41,0.7,0.5,0.6*3B
$GPGSA,A,3,60,,,,,,,,,,,,0.7,0.5,0.6*30
$GPGST,233027.00,2.548,0.448,0.354,342.379,0.440,0.364,0.709*56
$GPGBS,233027.00,3.943,2.313,4.442,77,0.0001,-10.892,6.412*4F
$GPGRS,233027.00,1,-0.2,0.1,0.3,0.2,0.3,0.2,-0.2,-0.2,0.1,,,*48
$GPGRS,233027.00,1,5.4,2.3,-1.5,-1.8,-10.9,3.1,4.8,-0.2,,,,*70
$GPGRS,233027.00,1,-0.0,0.3,-0.1,-0.6,-0.1,0.6,0.1,0.0,,,,*4B
$GPGRS,233027.00,1,1.4,1.0,1.2,-0.4,1.0,0.0,-0.1,0.3,-0.1,-0.4,-0.0,-0.9*45
$GPGRS,233027.00,1,-1.3,,,,,,,,,,,*48
$GPGSV,5,1,19,21,82,102,45,08,34,185,45,10,16,062,41,17,18,318,42*78
$GPGSV,5,2,19,14,12,288,39,03,38,250,46,32,43,063,48,02,74,307,49*72
$GPGSV,5,3,19,28,08,108,37,27,07,165,32,36,35,170,45,58,13,245,38*7A
$GPGSV,5,4,19,57,10,109,39,34,31,208,43,40,24,132,36,49,34,195,44*79
$GPGSV,5,5,19,41,07,108,34,61,03,257,38*72
$GLGSV,3,1,09,85,67,331,52,69,56,043,52,86,12,315,45,70,51,203,42*67
$GLGSV,3,2,09,84,52,120,38,77,08,351,39,76,06,308,44,68,08,033,42*67
$GLGSV,3,3,09,71,05,209,41*51
$GAGSV,3,1,12,33,64,309,48,08,13,036,38,12,11,293,34,31,16,263,40*63
$GAGSV,3,2,12,24,14,314,39,29,40,163,45,07,50,081,46,26,59,097,47*63
$GAGSV,3,3,12,16,06,337,,19,05,192,,13,08,108,38,23,00,218,*68
$GBGSV,5,1,19,57,79,344,,16,20,075,40,60,10,109,41,33,22,049,43*6B
$GBGSV,5,2,19,28,24,142,44,39,22,064,42,05,24,128,38,20,38,202,*6B
$GBGSV,5,3,19,09,16,092,38,06,19,078,38,32,45,214,49,29,45,303,*61
$GBGSV,5,4,19,30,52,299,49,27,68,166,51,41,72,075,51,26,01,324,*61
$GBGSV,5,5,19,31,04,093,,02,09,105,34,13,09,068,38*59
$GPGGA,233027.00,,,,,0,00,,,M,,M,,*4F
$PTNL,GGK,233027.00,010125,4742.1601256,N,01618.1003316,E,1,38,0.7,EHT751.3315,M*4C
$GPGGQ,233027.00,010125,4742.1601256,N,01618.1003316,E,1,38,0.910,708.1250,M*33
$GPGFA,233027.00,4.260,5.814,0.448,0.354,342.379,0.709,,VVV*00
$GPLLK,233027.00,010125,,M,,M,1,38,0.8,,M*0F
$GNGMP,233027.00,,,,,DAAA,38,0.5,,,,*5F
$GPGMP,233027.00,,,,,,09,,,,1.9,136*7F
$GLGMP,233027.00,,,,,,08,,,,,*70
$GAGMP,233027.00,,,,,,08,,,,,*7D
$GBGMP,233027.00,,,,,,13,,,,,*74
$PSSN,SNC,[0,343845000,2347]*49
$GPZDA,233032.00,01,01,2025,,*60
$GPDTM,W84,,00.0000000,N,00.0000000,E,00.0000000,W84*5F
$PSSN,TFM,233032.00,,,,*6C
$GPRMC,233032.00,A,4742.1601251,N,01618.1003334,E,0.0,,010125,5.1,E,D*13
$GPGLL,4742.1601251,N,01618.1003334,E,233032.00,A,D*62
$GPGGA,233032.00,4742.1601251,N,01618.1003334,E,2,38,0.5,708.1305,M,43.2066,M,2.4,0136*4E
$GNGNS,233032.00,4742.1601251,N,01618.1003334,E,DAAA,38,0.5,708.1305,43.2066,,*50
$GPGNS,233032.00,,,,,,09,,,,2.4,136*75
$GLGNS,233032.00,,,,,,08,,,,,*74
$GAGNS,233032.00,,,,,,08,,,,,*79
$GBGNS,233032.00,,,,,,13,,,,,*70
$GPLLQ,233032.00,010125,,M,,M,1,38,0.898,,M*10
$GPVTG,,T,,M,0.00,N,0.00,K,D*26
$GPHDT,,T*1B
$GPTHS,,V*0E
$GPROT,,V*08
$PSSN,HRP,233032.00,010125,,,,,,,00,0,,*62
$PTNL,AVR,233032.00,,Yaw,,Tilt,,,,0,,00*34
$GPGSA,A,3,02,03,08,10,14,17,21,28,32,,,,0.7,0.5,0.6*35
$GPGSA,A,3,68,69,70,76,77,84,85,86,,,,,0.7,0.5,0.6*3E
$GPGSA,A,3,07,08,13,24,26,29,31,33,,,,,0.7,0.5,0.6*30
$GPGSA,A,3,05,06,09,13,16,27,28,30,32,33,39,41,0.7,0.5,0.6*3B
$GPGSA,A,3,60,,,,,,,,,,,,0.7,0.5,0.6*30
$GPGST,233032.00,2.570,0.441,0.348,341.850,0.432,0.358,0.701*5C
$GPGBS,233032.00,4.002,2.338,4.541,77,0.0001,-11.005,6.410*4E
$GPGRS,233032.00,1,-0.2,-0.1,-0.1,0.2,1.0,0.0,-0.1,-0.1,-0.1,,,*63
$GPGRS,233032.00,1,5.7,2.0,-2.3,-2.3,-11.0,2.7,4.4,-0.7,,,,*7F
$GPGRS,233032.00,1,-0.3,0.2,0.1,-0.5,-0.1,0.7,0.1,-0.0,,,,*4F
$GPGRS,233032.00,1,1.0,0.9,1.3,-0.3,1.2,-0.0,-0.5,0.0,-0.3,-0.5,-0.1,-0.9*61
$GPGRS,233032.00,1,-1.2,,,,,,,,,,,*4D
$GPGSV,5,1,19,21,82,102,45,08,34,185,45,10,16,062,41,17,18,318,43*79
$GPGSV,5,2,19,14,12,288,39,03,38,250,46,32,43,063,48,02,74,308,49*7D
$GPGSV,5,3,19,28,09,108,38,27,07,165,33,36,35,170,45,58,13,245,38*75
$GPGSV,5,4,19,57,10,109,39,34,31,208,42,40,24,132,36,49,34,195,44*78
$GPGSV,5,5,19,41,07,108,34,61,03,257,39*73
$GLGSV,3,1,09,85,67,331,52,69,56,043,51,86,12,315,44,70,51,204,41*61
$GLGSV,3,2,09,84,52,120,38,77,08,351,39,76,06,308,44,68,08,033,42*67
$GLGSV,3,3,09,71,05,209,42*52
$GAGSV,3,1,12,33,64,309,48,08,13,036,38,12,11,293,34,31,16,263,40*63
$GAGSV,3,2,12,24,14,314,38,29,40,163,46,07,50,081,46,26,59,097,47*61
$GAGSV,3,3,12,16,06,337,,19,05,192,,13,08,108,38,23,00,218,*68
$GBGSV,5,1,19,57,79,344,,16,20,075,41,60,10,109,41,33,22,049,43*6A
$GBGSV,5,2,19,28,24,142,44,39,22,064,42,05,24,128,38,20,38,202,*6B
$GBGSV,5,3,19,09,16,092,38,06,19,078,38,32,45,214,49,29,45,303,*61
$GBGSV,5,4,19,30,52,299,49,27,68,166,52,41,72,075,51,26,01,324,*62
$GBGSV,5,5,19,31,04,093,,02,09,105,34,13,09,068,38*59
$GPGGA,233032.00,,,,,0,00,,,M,,M,,*4B
$PTNL,GGK,233032.00,010125,4742.1601251,N,01618.1003334,E,1,38,0.7,EHT751.3370,M*4C
$GPGGQ,233032.00,010125,4742.1601251,N,01618.1003334,E,1,38,0.898,708.1305,M*30
$GPGFA,233032.00,4.189,5.750,0.441,0.348,341.850,0.701,,VVV*00
$GPLLK,233032.00,010125,,M,,M,1,38,0.8,,M*0B
$GNGMP,233032.00,,,,,DAAA,38,0.5,,,,*5B
$GPGMP,233032.00,,,,,,09,,,,2.4,136*75
$GLGMP,233032.00,,,,,,08,,,,,*74
$GAGMP,233032.00,,,,,,08,,,,,*79
$GBGMP,233032.00,,,,,,13,,,,,*70
$PSSN,SNC,[0,343850000,2347]*4D
$GPZDA,233037.00,01,01,2025,,*65
$GPDTM,W84,,00.0000000,N,00.0000000,E,00.0000000,W84*5F
$PSSN,TFM,233037.00,,,,*69
$GPRMC,233037.00,A,4742.1601258,N,01618.1003316,E,0.0,,010125,5.1,E,D*1F
$GPGLL,4742.1601258,N,01618.1003316,E,233037.00,A,D*6E
$GPGGA,233037.00,4742.1601258,N,01618.1003316,E,2,39,0.4,708.1328,M,43.2066,M,2.4,0136*4D
$GNGNS,233037.00,4742.1601258,N,01618.1003316,E,DAAA,39,0.4,708.1328,43.2066,,*53
$GPGNS,233037.00,,,,,,09,,,,2.4,136*70
$GLGNS,233037.00,,,,,,09,,,,,*70
$GAGNS,233037.00,,,,,,08,,,,,*7C
$GBGNS,233037.00,,,,,,13,,,,,*75
$GPLLQ,233037.00,010125,,M,,M,1,39,0.901,,M*15
$GPVTG,,T,,M,0.00,N,0.00,K,D*26
$GPHDT,,T*1B
$GPTHS,,V*0E
$GPROT,,V*08
$PSSN,HRP,233037.00,010125,,,,,,,00,0,,*67
$PTNL,AVR,233037.00,,Yaw,,Tilt,,,,0,,00*31
$GPGSA,A,3,02,03,08,10,14,17,21,28,32,,,,0.7,0.4,0.6*34
$GPGSA,A,3,68,69,70,71,76,77,84,85,86,,,,0.7,0.4,0.6*39
$GPGSA,A,3,07,08,13,24,26,29,31,33,,,,,0.7,0.4,0.6*31
$GPGSA,A,3,05,06,09,13,16,27,28,30,32,33,39,41,0.7,0.4,0.6*3A
$GPGSA,A,3,60,,,,,,,,,,,,0.7,0.4,0.6*31
$GPGST,233037.00,2.618,0.442,0.347,341.461,0.434,0.358,0.704*55
$GPGBS,233037.00,3.953,2.349,4.276,77,0.0001,-10.829,6.410*43
$GPGRS,233037.00,1,-0.1,-0.4,-0.0,0.4,0.6,-0.2,0.1,0.0,-0.0,,,*4F
$GPGRS,233037.00,1,5.5,1.7,-2.7,4.2,-2.3,-10.8,2.9,4.4,-0.2,,,*52
$GPGRS,233037.00,1,0.2,0.0,-0.1,-0.9,0.1,0.7,0.1,-0.1,,,,*69
$GPGRS,233037.00,1,1.0,1.6,1.2,-0.4,0.8,0.2,-0.1,0.1,-0.0,-0.4,0.2,-0.9*61
$GPGRS,233037.00,1,-1.3,,,,,,,,,,,*49
$GPGSV,5,1,19,21,82,103,44,08,33,185,45,10,16,062,41,17,19,318,42*7E
$GPGSV,5,2,19,14,12,288,40,03,39,250,45,32,43,063,48,02,74,308,49*71
$GPGSV,5,3,19,28,09,108,37,27,07,165,32,36,35,170,45,58,13,245,38*7B
$GPGSV,5,4,19,57,10,109,39,34,31,208,42,40,24,132,36,49,34,195,44*78
$GPGSV,5,5,19,41,07,108,34,61,03,257,39*73
$GLGSV,3,1,09,85,67,331,52,69,56,043,51,86,12,315,44,70,51,204,41*61
$GLGSV,3,2,09,84,52,120,39,77,08,351,39,76,06,308,43,68,08,033,42*61
$GLGSV,3,3,09,71,05,209,42*52
$GAGSV,3,1,12,33,64,309,48,08,13,036,38,12,11,293,35,31,16,263,39*6C
$GAGSV,3,2,12,24,14,314,38,29,40,163,46,07,50,081,46,26,59,097,47*61
$GAGSV,3,3,12,16,06,337,,19,05,192,33,13,08,108,38,23,00,218,*68
$GBGSV,5,1,19,57,79,344,,16,20,075,41,60,10,109,41,33,22,049,43*6A
$GBGSV,5,2,19,28,24,142,45,39,22,064,42,05,24,128,38,20,38,202,*6A
$GBGSV,5,3,19,09,16,092,38,06,19,078,39,32,45,214,49,29,45,303,*60
$GBGSV,5,4,19,30,52,299,49,27,68,166,52,41,72,075,51,26,01,324,*62
$GBGSV,5,5,19,31,04,093,,02,09,105,34,13,09,068,38*59
$GPGGA,233037.00,,,,,0,00,,,M,,M,,*4E
$PTNL,GGK,233037.00,010125,4742.1601258,N,01618.1003316,E,1,39,0.7,EHT751.3393,M*4C
$GPGGQ,233037.00,010125,4742.1601258,N,01618.1003316,E,1,39,0.901,708.1328,M*33
$GPGFA,233037.00,4.207,5.773,0.442,0.347,341.461,0.704,,VVV*06
$GPLLK,233037.00,010125,,M,,M,1,39,0.8,,M*0F
$GNGMP,233037.00,,,,,DAAA,39,0.4,,,,*5E
$GPGMP,233037.00,,,,,,09,,,,2.4,136*70
$GLGMP,233037.00,,,,,,09,,,,,*70
$GAGMP,233037.00,,,,,,08,,,,,*7C
$GBGMP,233037.00,,,,,,13,,,,,*75
$PSSN,SNC,[0,343855000,2347]*48
$GPZDA,233042.00,01,01,2025,,*67
$GPDTM,W84,,00.0000000,N,00.0000000,E,00.0000000,W84*5F
$PSSN,TFM,233042.00,,,,*6B
$GPRMC,233042.00,A,4742.1601273,N,01618.1003311,E,0.0,,010125,5.1,E,D*13
$GPGLL,4742.1601273,N,01618.1003311,E,233042.00,A,D*62
$GPGGA,233042.00,4742.1601273,N,01618.1003311,E,2,39,0.4,708.1372,M,43.2066,M,3.4,0136*4F
$GNGNS,233042.00,4742.1601273,N,01618.1003311,E,DAAA,39,0.4,708.1372,43.2066,,*50
$GPGNS,233042.00,,,,,,09,,,,3.4,136*73
$GLGNS,233042.00,,,,,,09,,,,,*72
$GAGNS,233042.00,,,,,,08,,,,,*7E
$GBGNS,233042.00,,,,,,13,,,,,*77
$GPLLQ,233042.00,010125,,M,,M,1,39,0.913,,M*14
$GPVTG,,T,,M,0.00,N,0.01,K,D*27
$GPHDT,,T*1B
$GPTHS,,V*0E
$GPROT,,V*08
$PSSN,HRP,233042.00,010125,,,,,,,00,0,,*65
$PTNL,AVR,233042.00,,Yaw,,Tilt,,,,0,,00*33
$GPGSA,A,3,02,03,08,10,14,17,21,28,32,,,,0.7,0.4,0.6*34
$GPGSA,A,3,68,69,70,71,76,77,84,85,86,,,,0.7,0.4,0.6*39
$GPGSA,A,3,07,08,13,24,26,29,31,33,,,,,0.7,0.4,0.6*31
$GPGSA,A,3,05,06,09,13,16,27,28,30,32,33,39,41,0.7,0.4,0.6*3A
$GPGSA,A,3,60,,,,,,,,,,,,0.7,0.4,0.6*31
$GPGST,233042.00,2.791,0.448,0.355,342.102,0.440,0.365,0.712*57
$GPGBS,233042.00,3.990,2.376,4.351,77,0.0001,-11.341,6.408*4B
$GPGRS,233042.00,1,-0.0,0.0,0.1,0.7,0.7,-0.7,-0.1,-0.1,-0.0,,,*4F
$GPGRS,233042.00,1,5.5,1.7,-2.7,4.8,-2.6,-11.3,4.2,4.4,0.3,,,*74
$GPGRS,233042.00,1,0.1,0.4,0.1,-0.3,-0.0,0.6,0.4,-0.0,,,,*62
$GPGRS,233042.00,1,1.6,1.5,1.6,0.1,0.4,-0.1,0.4,0.3,0.2,-0.3,0.1,-1.0*61
$GPGRS,233042.00,1,-1.2,,,,,,,,,,,*4A
$GPGSV,5,1,19,21,82,103,45,08,33,185,45,10,16,062,41,17,19,318,42*7F
$GPGSV,5,2,19,14,12,288,39,03,39,250,45,32,43,063,47,02,74,308,50*78
$GPGSV,5,3,19,28,09,108,37,27,07,165,31,36,35,170,45,58,13,245,38*78
$GPGSV,5,4,19,57,10,109,39,34,31,208,42,40,24,132,36,49,34,195,44*78
$GPGSV,5,5,19,41,07,108,34,61,03,257,38*72
$GLGSV,3,1,09,85,67,331,52,69,56,043,51,86,13,315,44,70,51,204,42*63
$GLGSV,3,2,09,84,52,120,39,77,08,351,38,76,06,308,43,68,08,033,42*60
$GLGSV,3,3,09,71,05,209,42*52
$GAGSV,3,1,12,33,64,309,48,08,13,036,39,12,11,293,35,31,16,263,40*63
$GAGSV,3,2,12,24,14,313,38,29,40,163,46,07,50,081,46,26,59,097,48*69
$GAGSV,3,3,12,16,06,337,,19,05,192,33,13,08,108,38,23,00,218,*68
$GBGSV,5,1,19,57,79,344,,16,20,075,41,60,10,109,41,33,22,049,43*6A
$GBGSV,5,2,19,28,24,142,45,39,22,064,43,05,24,128,38,20,38,202,*6B
$GBGSV,5,3,19,09,16,092,38,06,19,078,39,32,45,214,49,29,45,303,*60
$GBGSV,5,4,19,30,52,299,49,27,68,166,51,41,72,075,51,26,01,324,*61
$GBGSV,5,5,19,31,04,093,,02,09,105,34,13,09,068,38*59
$GPGGA,233042.00,,,,,0,00,,,M,,M,,*4C
$PTNL,GGK,233042.00,010125,4742.1601273,N,01618.1003311,E,1,39,0.7,EHT751.3438,M*46
$GPGGQ,233042.00,010125,4742.1601273,N,01618.1003311,E,1,39,0.913,708.1372,M*33
$GPGFA,233042.00,4.259,5.838,0.448,0.355,342.102,0.712,,VVV*02
$GPLLK,233042.00,010125,,M,,M,1,39,0.8,,M*0D
$GNGMP,233042.00,,,,,DAAA,39,0.4,,,,*5C
$GPGMP,233042.00,,,,,,09,,,,3.4,136*73
$GLGMP,233042.00,,,,,,09,,,,,*72
$GAGMP,233042.00,,,,,,08,,,,,*7E
$GBGMP,233042.00,,,,,,13,,,,,*77
$PSSN,SNC,[0,343860000,2347]*4E
$GPZDA,233047.00,01,01,2025,,*62
$GPDTM,W84,,00.0000000,N,00.0000000,E,00.0000000,W84*5F
$PSSN,TFM,233047.00,,,,*6E
$GPRMC,233047.00,A,4742.1601284,N,01618.1003283,E,0.0,,010125,5.1,E,D*14
$GPGLL,4742.1601284,N,01618.1003283,E,233047.00,A,D*65
$GPGGA,233047.00,4742.1601284,N,01618.1003283,E,2,39,0.4,708.1401,M,43.2066,M,1.9,0136*44
$GNGNS,233047.00,4742.1601284,N,01618.1003283,E,DAAA,39,0.4,708.1401,43.2066,,*54
$GPGNS,233047.00,,,,,,09,,,,1.9,136*79
$GLGNS,233047.00,,,,,,09,,,,,*77
$GAGNS,233047.00,,,,,,08,,,,,*7B
$GBGNS,233047.00,,,,,,13,,,,,*72
$GPLLQ,233047.00,010125,,M,,M,1,39,0.908,,M*1B
$GPVTG,,T,,M,0.00,N,0.00,K,D*26
$GPHDT,,T*1B
$GPTHS,,V*0E
$GPROT,,V*08
$PSSN,HRP,233047.00,010125,,,,,,,00,0,,*60
$PTNL,AVR,233047.00,,Yaw,,Tilt,,,,0,,00*36
$GPGSA,A,3,02,03,08,10,14,17,21,28,32,,,,0.7,0.4,0.6*34
$GPGSA,A,3,68,69,70,71,76,77,84,85,86,,,,0.7,0.4,0.6*39
$GPGSA,A,3,07,08,13,24,26,29,31,33,,,,,0.7,0.4,0.6*31
$GPGSA,A,3,05,06,09,13,16,27,28,30,32,33,39,41,0.7,0.4,0.6*3A
$GPGSA,A,3,60,,,,,,,,,,,,0.7,0.4,0.6*31
$GPGST,233047.00,2.862,0.444,0.355,342.026,0.436,0.365,0.708*50
$GPGBS,233047.00,3.855,2.319,4.416,77,0.0001,-12.142,6.408*49
$GPGRS,233047.00,1,-0.1,-0.2,0.4,0.8,0.6,-0.3,-0.1,-0.8,-0.1,,,*63
$GPGRS,233047.00,1,6.1,1.5,-1.2,4.5,-2.8,-12.1,4.0,4.1,-0.6,,,*5F
$GPGRS,233047.00,1,0.0,0.3,-0.3,-0.6,0.1,0.3,0.0,0.0,,,,*4B
$GPGRS,233047.00,1,1.4,1.5,1.6,-0.5,0.5,-0.2,0.2,0.2,0.2,-0.5,-0.2,-1.0*62
$GPGRS,233047.00,1,-1.4,,,,,,,,,,,*49
$GPGSV,5,1,19,21,82,103,45,08,33,185,45,10,16,062,42,17,19,318,42*7C
$GPGSV,5,2,19,14,12,288,39,03,39,250,45,32,43,063,48,02,74,308,49*7F
$GPGSV,5,3,19,28,09,108,38,27,07,165,31,36,35,170,45,58,13,245,38*77
$GPGSV,5,4,19,57,10,109,39,34,31,208,42,40,24,132,36,49,34,195,44*78
$GPGSV,5,5,19,41,07,108,34,61,03,257,38*72
$GLGSV,3,1,09,85,67,331,51,69,56,043,51,86,13,315,44,70,51,204,42*60
$GLGSV,3,2,09,84,52,120,39,77,08,351,38,76,06,308,43,68,08,033,42*60
$GLGSV,3,3,09,71,05,209,42*52
$GAGSV,3,1,12,33,64,309,48,08,13,036,39,12,11,293,35,31,16,263,40*63
$GAGSV,3,2,12,24,14,313,38,29,40,163,46,07,50,081,46,26,59,097,47*66
$GAGSV,3,3,12,16,06,337,,19,05,192,34,13,08,108,38,23,00,218,*6F
$GBGSV,5,1,19,57,79,345,,16,20,075,41,60,10,109,41,33,22,049,43*6B
$GBGSV,5,2,19,28,24,142,45,39,22,064,43,05,24,128,38,20,38,202,*6B
$GBGSV,5,3,19,09,16,092,38,06,19,078,39,32,45,214,49,29,45,303,*60
$GBGSV,5,4,19,30,52,299,49,27,68,166,52,41,72,075,51,26,01,324,*62
$GBGSV,5,5,19,31,04,093,,02,09,105,34,13,09,068,38*59
$GPGGA,233047.00,,,,,0,00,,,M,,M,,*49
$PTNL,GGK,233047.00,010125,4742.1601284,N,01618.1003283,E,1,39,0.7,EHT751.3467,M*4B
$GPGGQ,233047.00,010125,4742.1601284,N,01618.1003283,E,1,39,0.908,708.1401,M*3D
$GPGFA,233047.00,4.219,5.807,0.444,0.355,342.026,0.708,,VVV*0F
$GPLLK,233047.00,010125,,M,,M,1,39,0.8,,M*08
$GNGMP,233047.00,,,,,DAAA,39,0.4,,,,*59
$GPGMP,233047.00,,,,,,09,,,,1.9,136*79
$GLGMP,233047.00,,,,,,09,,,,,*77
$GAGMP,233047.00,,,,,,08,,,,,*7B
$GBGMP,233047.00,,,,,,13,,,,,*72
$PSSN,SNC,[0,343865000,2347]*4B
$GPZDA,233052.00,01,01,2025,,*66
$GPDTM,W84,,00.0000000,N,00.0000000,E,00.0000000,W84*5F
$PSSN,TFM,233052.00,,,,*6A
$GPRMC,233052.00,A,4742.1601321,N,01618.1003266,E,0.0,,010125,5.1,E,D*15
$GPGLL,4742.1601321,N,01618.1003266,E,233052.00,A,D*64
$GPGGA,233052.00,4742.1601321,N,01618.1003266,E,2,39,0.4,708.1448,M,43.2066,M,2.4,0136*46
$GNGNS,233052.00,4742.1601321,N,01618.1003266,E,DAAA,39,0.4,708.1448,43.2066,,*58
$GPGNS,233052.00,,,,,,09,,,,2.4,136*73
$GLGNS,233052.00,,,,,,09,,,,,*73
$GAGNS,233052.00,,,,,,08,,,,,*7F
$GBGNS,233052.00,,,,,,13,,,,,*76
$GPLLQ,233052.00,010125,,M,,M,1,39,0.892,,M*1D
$GPVTG,,T,,M,0.00,N,0.01,K,D*27
$GPHDT,,T*1B
$GPTHS,,V*0E
$GPROT,,V*08
$PSSN,HRP,233052.00,010125,,,,,,,00,0,,*64
$PTNL,AVR,233052.00,,Yaw,,Tilt,,,,0,,00*32
$GPGSA,A,3,02,03,08,10,14,17,21,28,32,,,,0.7,0.4,0.6*34
$GPGSA,A,3,68,69,70,71,76,77,84,85,86,,,,0.7,0.4,0.6*39
$GPGSA,A,3,07,08,13,24,26,29,31,33,,,,,0.7,0.4,0.6*31
$GPGSA,A,3,05,06,09,13,16,27,28,30,32,33,39,41,0.7,0.4,0.6*3A
$GPGSA,A,3,60,,,,,,,,,,,,0.7,0.4,0.6*31
$GPGST,233052.00,2.929,0.435,0.348,341.474,0.427,0.357,0.697*56
$GPGBS,233052.00,3.912,2.344,4.512,77,0.0001,-13.132,6.410*4D
$GPGRS,233052.00,1,-0.3,0.1,0.2,0.3,0.2,-0.3,-0.0,-0.9,0.1,,,*6F
$GPGRS,233052.00,1,6.3,1.5,-1.9,4.4,-1.7,-13.1,2.7,4.0,-0.2,,,*5A
$GPGRS,233052.00,1,-0.3,0.6,-0.5,-0.8,-0.2,0.5,-0.3,0.0,,,,*6A
$GPGRS,233052.00,1,1.2,0.8,1.3,-0.1,0.3,-0.0,0.4,0.1,-0.0,-0.6,-0.5,-1.0*47
$GPGRS,233052.00,1,-1.5,,,,,,,,,,,*4C
$GPGSV,5,1,19,21,82,103,45,08,33,185,45,10,16,062,41,17,19,318,42*7F
$GPGSV,5,2,19,14,12,288,40,03,39,250,45,32,43,063,48,02,74,308,49*71
$GPGSV,5,3,19,28,09,108,38,27,07,165,31,36,35,170,45,58,13,245,38*77
$GPGSV,5,4,19,57,10,109,39,34,31,208,42,40,24,132,35,49,34,195,44*7B
$GPGSV,5,5,19,41,07,108,34,61,03,257,38*72
$GLGSV,3,1,09,85,67,332,51,69,56,043,51,86,13,315,45,70,51,204,41*61
$GLGSV,3,2,09,84,52,120,38,77,08,351,38,76,06,308,44,68,08,033,42*66
$GLGSV,3,3,09,71,05,209,43*53
$GAGSV,3,1,12,33,64,309,48,08,13,036,39,12,11,293,34,31,16,263,40*62
$GAGSV,3,2,12,24,14,313,38,29,40,163,46,07,50,080,46,26,59,097,48*68
$GAGSV,3,3,12,16,06,337,,19,05,192,34,13,08,108,38,23,00,218,*6F
$GBGSV,5,1,19,57,79,345,,16,20,075,41,60,10,109,41,33,22,049,43*6B
$GBGSV,5,2,19,28,24,142,45,39,22,064,43,05,24,128,38,20,38,202,*6B
$GBGSV,5,3,19,09,16,092,38,06,19,078,39,32,45,214,50,29,46,303,*6B
$GBGSV,5,4,19,30,52,299,49,27,68,166,52,41,72,075,51,26,01,324,*62
$GBGSV,5,5,19,31,04,093,,02,09,105,34,13,09,068,38*59
$GPGGA,233052.00,,,,,0,00,,,M,,M,,*4D
$PTNL,GGK,233052.00,010125,4742.1601321,N,01618.1003266,E,1,39,0.7,EHT751.3513,M*48
$GPGGQ,233052.00,010125,4742.1601321,N,01618.1003266,E,1,39,0.892,708.1448,M*33
$GPGFA,233052.00,4.134,5.719,0.435,0.348,341.474,0.697,,VVV*0A
$GPLLK,233052.00,010125,,M,,M,1,39,0.8,,M*0C
$GNGMP,233052.00,,,,,DAAA,39,0.4,,,,*5D
$GPGMP,233052.00,,,,,,09,,,,2.4,136*73
$GLGMP,233052.00,,,,,,09,,,,,*73
$GAGMP,233052.00,,,,,,08,,,,,*7F
$GBGMP,233052.00,,,,,,13,,,,,*76
$PSSN,SNC,[0,343870000,2347]*4F
$GPZDA,233057.00,01,01,2025,,*63
$GPDTM,W84,,00.0000000,N,00.0000000,E,00.0000000,W84*5F
$PSSN,TFM,233057.00,,,,*6F
$GPRMC,233057.00,A,4742.1601332,N,01618.1003262,E,0.0,,010125,5.1,E,D*16
$GPGLL,4742.1601332,N,01618.1003262,E,233057.00,A,D*67
$GPGGA,233057.00,4742.1601332,N,01618.1003262,E,2,40,0.4,708.1516,M,43.2066,M,2.4,0136*41
$GNGNS,233057.00,4742.1601332,N,01618.1003262,E,DAAA,40,0.4,708.1516,43.2066,,*5F
$GPGNS,233057.00,,,,,,09,,,,2.4,136*76
$GLGNS,233057.00,,,,,,09,,,,,*76
$GAGNS,233057.00,,,,,,09,,,,,*7B
$GBGNS,233057.00,,,,,,13,,,,,*73
$GPLLQ,233057.00,010125,,M,,M,1,40,0.903,,M*1F
$GPVTG,,T,,M,0.00,N,0.00,K,D*26
$GPHDT,,T*1B
$GPTHS,,V*0E
$GPROT,,V*08
$PSSN,HRP,233057.00,010125,,,,,,,00,0,,*61
$PTNL,AVR,233057.00,,Yaw,,Tilt,,,,0,,00*37
$GPGSA,A,3,02,03,08,10,14,17,21,28,32,,,,0.7,0.4,0.5*37
$GPGSA,A,3,68,69,70,71,76,77,84,85,86,,,,0.7,0.4,0.5*3A
$GPGSA,A,3,07,08,12,13,24,26,29,31,33,,,,0.7,0.4,0.5*31
$GPGSA,A,3,05,06,09,13,16,27,28,30,32,33,39,41,0.7,0.4,0.5*39
$GPGSA,A,3,60,,,,,,,,,,,,0.7,0.4,0.5*32
$GPGST,233057.00,2.798,0.442,0.349,341.820,0.434,0.359,0.706*5E
$GPGBS,233057.00,3.925,2.346,4.287,77,0.0001,-11.996,6.408*48
$GPGRS,233057.00,1,-0.5,0.1,0.2,0.0,0.8,0.1,-0.1,-0.4,-0.0,,,*6A
$GPGRS,233057.00,1,6.4,1.7,-3.0,4.4,-2.2,-12.0,3.5,3.7,-0.1,,,*57
$GPGRS,233057.00,1,-0.1,0.1,-0.5,-0.4,-0.4,-0.3,0.4,0.2,-0.1,,,*61
$GPGRS,233057.00,1,0.9,0.9,1.1,-0.6,-0.1,-0.1,0.5,0.2,0.0,-0.9,-0.9,-1.1*4F
$GPGRS,233057.00,1,-1.4,,,,,,,,,,,*48
$GPGSV,5,1,19,21,82,103,45,08,33,185,45,10,16,062,41,17,19,318,42*7F
$GPGSV,5,2,19,14,12,288,39,03,39,250,46,32,43,063,48,02,74,308,49*7C
$GPGSV,5,3,19,28,09,108,38,27,07,165,31,36,35,170,45,58,13,245,38*77
$GPGSV,5,4,19,57,10,109,39,34,31,208,42,40,24,132,36,49,34,195,44*78
$GPGSV,5,5,19,41,07,108,34,61,03,257,38*72
$GLGSV,3,1,09,85,67,332,51,69,56,043,51,86,13,315,44,70,51,204,41*60
$GLGSV,3,2,09,84,52,120,39,77,08,351,38,76,06,308,44,68,08,033,42*67
$GLGSV,3,3,09,71,05,209,43*53
$GAGSV,3,1,12,33,64,309,48,08,13,036,39,12,11,294,35,31,16,263,40*64
$GAGSV,3,2,12,24,14,313,39,29,40,163,45,07,50,080,46,26,59,097,48*6A
$GAGSV,3,3,12,16,06,337,,19,05,192,34,13,08,108,37,23,00,218,*60
$GBGSV,5,1,19,57,79,345,,16,20,075,40,60,10,109,40,33,22,049,43*6B
$GBGSV,5,2,19,28,24,142,45,39,22,064,43,05,24,128,38,20,38,202,*6B
$GBGSV,5,3,19,09,16,092,38,06,19,078,39,32,45,214,50,29,46,303,*6B
$GBGSV,5,4,19,30,52,299,49,27,68,166,52,41,72,075,51,26,01,324,*62
$GBGSV,5,5,19,31,04,093,,02,09,105,34,13,09,068,38*59
$GPGGA,233057.00,,,,,0,00,,,M,,M,,*48
$PTNL,GGK,233057.00,010125,4742.1601332,N,01618.1003262,E,1,40,0.7,EHT751.3582,M*4D
$GPGGQ,233057.00,010125,4742.1601332,N,01618.1003262,E,1,40,0.903,708.1516,M*3D
$GPGFA,233057.00,4.200,5.791,0.442,0.349,341.820,0.706,,VVV*0E
$GPLLK,233057.00,010125,,M,,M,1,40,0.8,,M*07
$GNGMP,233057.00,,,,,DAAA,40,0.4,,,,*56
$GPGMP,233057.00,,,,,,09,,,,2.4,136*76
$GLGMP,233057.00,,,,,,09,,,,,*76
$GAGMP,233057.00,,,,,,09,,,,,*7B
$GBGMP,233057.00,,,,,,13,,,,,*73
$PSSN,SNC,[0,343875000,2347]*4A
$GPZDA,233102.00,01,01,2025,,*62
$GPDTM,W84,,00.0000000,N,00.0000000,E,00.0000000,W84*5F
$PSSN,TFM,233102.00,,,,*6E
$GPRMC,233102.00,A,4742.1601348,N,01618.1003287,E,0.0,,010125,5.1,E,D*11
$GPGLL,4742.1601348,N,01618.1003287,E,233102.00,A,D*60
$GPGGA,233102.00,4742.1601348,N,01618.1003287,E,2,40,0.4,708.1528,M,43.2066,M,3.4,0136*4A
$GNGNS,233102.00,4742.1601348,N,01618.1003287,E,DAAA,40,0.4,708.1528,43.2066,,*55
$GPGNS,233102.00,,,,,,09,,,,3.4,136*76
$GLGNS,233102.00,,,,,,09,,,,,*77
$GAGNS,233102.00,,,,,,09,,,,,*7A
$GBGNS,233102.00,,,,,,13,,,,,*72
$GPLLQ,233102.00,010125,,M,,M,1,40,0.904,,M*19
$GPVTG,,T,,M,0.00,N,0.01,K,D*27
$GPHDT,,T*1B
$GPTHS,,V*0E
$GPROT,,V*08
$PSSN,HRP,233102.00,010125,,,,,,,00,0,,*60
$PTNL,AVR,233102.00,,Yaw,,Tilt,,,,0,,00*36
$GPGSA,A,3,02,03,08,10,14,17,21,28,32,,,,0.7,0.4,0.5*37
$GPGSA,A,3,68,69,70,71,76,77,84,85,86,,,,0.7,0.4,0.5*3A
$GPGSA,A,3,07,08,12,13,24,26,29,31,33,,,,0.7,0.4,0.5*31
$GPGSA,A,3,05,06,09,13,16,27,28,30,32,33,39,41,0.7,0.4,0.5*39
$GPGSA,A,3,60,,,,,,,,,,,,0.7,0.4,0.5*32
$GPGST,233102.00,2.791,0.443,0.352,342.495,0.436,0.361,0.705*56
$GPGBS,233102.00,3.987,2.367,4.351,77,0.0001,-11.614,6.406*43
$GPGRS,233102.00,1,-0.2,0.1,0.2,0.1,0.6,-0.6,-0.0,-0.4,-0.1,,,*49
$GPGRS,233102.00,1,7.0,1.3,-1.4,4.3,-2.9,-11.6,3.9,4.0,-0.7,,,*52
$GPGRS,233102.00,1,0.2,0.4,-0.6,-0.3,-0.4,-0.2,0.6,0.0,0.0,,,*62
$GPGRS,233102.00,1,1.2,0.9,0.7,-0.6,-0.2,-0.1,0.3,0.2,-0.3,-0.9,-1.1,-1.0*60
$GPGRS,233102.00,1,-1.4,,,,,,,,,,,*49
$GPGSV,5,1,19,21,82,103,45,08,33,185,46,10,16,062,41,17,19,318,42*7C
$GPGSV,5,2,19,14,12,288,39,03,39,250,46,32,43,063,48,02,74,308,50*74
$GPGSV,5,3,19,28,09,108,38,27,07,165,31,36,35,170,45,58,13,245,38*77
$GPGSV,5,4,19,57,10,109,39,34,31,208,42,40,24,132,35,49,34,195,44*7B
$GPGSV,5,5,19,41,07,108,34,61,03,257,39*73
$GLGSV,3,1,09,85,67,332,52,69,56,043,50,86,13,315,44,70,51,204,41*62
$GLGSV,3,2,09,84,52,120,39,77,08,351,39,76,06,308,43,68,08,033,42*61
$GLGSV,3,3,09,71,05,209,44*54
$GAGSV,3,1,12,33,64,309,48,08,13,036,38,12,11,294,35,31,16,263,41*64
$GAGSV,3,2,12,24,14,313,39,29,40,163,46,07,50,080,46,26,59,097,47*66
$GAGSV,3,3,12,16,06,337,,19,05,192,34,13,08,108,37,23,00,218,*60
$GBGSV,5,1,19,57,79,345,,16,20,075,40,60,10,109,40,33,22,049,44*6C
$GBGSV,5,2,19,28,24,142,44,39,22,064,42,05,24,128,39,20,38,202,*6A
$GBGSV,5,3,19,09,16,091,38,06,19,078,38,32,45,214,49,29,46,303,*61
$GBGSV,5,4,19,30,52,299,49,27,68,166,52,41,72,075,51,26,01,324,*62
$GBGSV,5,5,19,31,04,093,,02,09,105,34,13,08,068,38*58
$GPGGA,233102.00,,,,,0,00,,,M,,M,,*49
$PTNL,GGK,233102.00,010125,4742.1601348,N,01618.1003287,E,1,40,0.7,EHT751.3593,M*4A
$GPGGQ,233102.00,010125,4742.1601348,N,01618.1003287,E,1,40,0.904,708.1528,M*30
$GPGFA,233102.00,4.214,5.781,0.443,0.352,342.495,0.705,,VVV*02
$GPLLK,233102.00,010125,,M,,M,1,40,0.8,,M*06
$GNGMP,233102.00,,,,,DAAA,40,0.4,,,,*57
$GPGMP,233102.00,,,,,,09,,,,3.4,136*76
$GLGMP,233102.00,,,,,,09,,,,,*77
$GAGMP,233102.00,,,,,,09,,,,,*7A
$GBGMP,233102.00,,,,,,13,,,,,*72
$PSSN,SNC,[0,343880000,2347]*40
$GPZDA,233107.00,01,01,2025,,*67
$GPDTM,W84,,00.0000000,N,00.0000000,E,00.0000000,W84*5F
$PSSN,TFM,233107.00,,,,*6B
$GPRMC,233107.00,A,4742.1601380,N,01618.1003258,E,0.0,,010125,5.1,E,D*12
$GPGLL,4742.1601380,N,01618.1003258,E,233107.00,A,D*63
$GPGGA,233107.00,4742.1601380,N,01618.1003258,E,2,40,0.4,708.1536,M,43.2066,M,1.9,0136*49
$GNGNS,233107.00,4742.1601380,N,01618.1003258,E,DAAA,40,0.4,708.1536,43.2066,,*59
$GPGNS,233107.00,,,,,,09,,,,1.9,136*7C
$GLGNS,233107.00,,,,,,09,,,,,*72
$GAGNS,233107.00,,,,,,09,,,,,*7F
$GBGNS,233107.00,,,,,,13,,,,,*77
$GPLLQ,233107.00,010125,,M,,M,1,40,0.901,,M*19
$GPVTG,,T,,M,0.00,N,0.01,K,D*27
$GPHDT,,T*1B
$GPTHS,,V*0E
$GPROT,,V*08
$PSSN,HRP,233107.00,010125,,,,,,,00,0,,*65
$PTNL,AVR,233107.00,,Yaw,,Tilt,,,,0,,00*33
$GPGSA,A,3,02,03,08,10,14,17,21,28,32,,,,0.7,0.4,0.5*37
$GPGSA,A,3,68,69,70,71,76,77,84,85,86,,,,0.7,0.4,0.5*3A
$GPGSA,A,3,07,08,12,13,24,26,29,31,33,,,,0.7,0.4,0.5*31
$GPGSA,A,3,05,06,09,13,16,27,28,30,32,33,39,41,0.7,0.4,0.5*39
$GPGSA,A,3,60,,,,,,,,,,,,0.7,0.4,0.5*32
$GPGST,233107.00,2.721,0.441,0.352,342.576,0.434,0.361,0.703*52
$GPGBS,233107.00,3.855,2.257,4.383,77,0.0001,-11.306,6.410*44
$GPGRS,233107.00,1,-0.0,-0.2,0.6,0.2,0.2,-0.5,-0.2,0.0,0.1,,,*66
$GPGRS,233107.00,1,6.6,1.6,-2.1,4.1,-2.6,-11.3,3.8,4.3,-0.1,,,*5F
$GPGRS,233107.00,1,0.1,0.3,-0.9,-0.2,-0.2,-0.1,0.6,-0.0,0.0,,,*45
$GPGRS,233107.00,1,1.5,0.7,0.7,0.3,-0.5,0.1,0.0,0.2,-0.3,-0.9,-1.1,-0.8*64
$GPGRS,233107.00,1,-1.1,,,,,,,,,,,*49
$GPGSV,5,1,19,21,82,103,45,08,33,185,46,10,16,062,41,17,19,318,42*7C
$GPGSV,5,2,19,14,12,288,39,03,39,250,45,32,43,063,48,02,74,308,50*77
$GPGSV,5,3,19,28,09,108,39,27,07,165,31,36,35,170,45,58,13,245,38*76
$GPGSV,5,4,19,57,10,109,39,34,31,208,42,40,24,132,36,49,34,195,44*78
$GPGSV,5,5,19,41,07,108,34,61,03,257,38*72
$GLGSV,3,1,09,85,67,332,52,69,56,043,50,86,13,315,45,70,51,204,41*63
$GLGSV,3,2,09,84,52,120,39,77,08,351,37,76,06,308,44,68,08,033,42*68
$GLGSV,3,3,09,71,05,209,43*53
$GAGSV,3,1,12,33,64,309,48,08,13,036,38,12,11,294,35,31,16,263,40*65
$GAGSV,3,2,12,24,14,313,39,29,40,163,46,07,50,080,46,26,59,097,48*69
$GAGSV,3,3,12,16,06,337,,19,05,192,34,13,08,108,37,23,00,218,*60
$GBGSV,5,1,19,57,79,345,,16,20,075,40,60,10,109,40,33,22,049,44*6C
$GBGSV,5,2,19,28,24,142,44,39,22,064,42,05,24,128,38,20,38,202,*6B
$GBGSV,5,3,19,09,16,091,38,06,19,078,38,32,45,214,49,29,46,303,*61
$GBGSV,5,4,19,30,53,299,49,27,68,166,52,41,72,074,51,26,01,324,*62
$GBGSV,5,5,19,31,04,093,,02,09,105,34,13,08,068,38*58
$GPGGA,233107.00,,,,,0,00,,,M,,M,,*4C
$PTNL,GGK,233107.00,010125,4742.1601380,N,01618.1003258,E,1,40,0.7,EHT751.3601,M*41
$GPGGQ,233107.00,010125,4742.1601380,N,01618.1003258,E,1,40,0.901,708.1536,M*39
$GPGFA,233107.00,4.195,5.764,0.441,0.352,342.576,0.703,,VVV*0E
$GPLLK,233107.00,010125,,M,,M,1,40,0.8,,M*03
$GNGMP,233107.00,,,,,DAAA,40,0.4,,,,*52
$GPGMP,233107.00,,,,,,09,,,,1.9,136*7C
$GLGMP,233107.00,,,,,,09,,,,,*72
$GAGMP,233107.00,,,,,,09,,,,,*7F
$GBGMP,233107.00,,,,,,13,,,,,*77
$PSSN,SNC,[0,343885000,2347]*45
$GPZDA,233112.00,01,01,2025,,*63
$GPDTM,W84,,00.0000000,N,00.0000000,E,00.0000000,W84*5F
$PSSN,TFM,233112.00,,,,*6F
$GPRMC,233112.00,A,4742.1601419,N,01618.1003231,E,0.0,,010125,5.1,E,D*1E
$GPGLL,4742.1601419,N,01618.1003231,E,233112.00,A,D*6F
$GPGGA,233112.00,4742.1601419,N,01618.1003231,E,2,39,0.4,708.1566,M,43.2066,M,2.4,0136*40
$GNGNS,233112.00,4742.1601419,N,01618.1003231,E,DAAA,39,0.4,708.1566,43.2066,,*5E
$GPGNS,233112.00,,,,,,09,,,,2.4,136*76
$GLGNS,233112.00,,,,,,09,,,,,*76
$GAGNS,233112.00,,,,,,08,,,,,*7A
$GBGNS,233112.00,,,,,,13,,,,,*73
$GPLLQ,233112.00,010125,,M,,M,1,39,0.902,,M*10
$GPVTG,,T,,M,0.00,N,0.01,K,D*27
$GPHDT,,T*1B
$GPTHS,,V*0E
$GPROT,,V*08
$PSSN,HRP,233112.00,010125,,,,,,,00,0,,*61
$PTNL,AVR,233112.00,,Yaw,,Tilt,,,,0,,00*37
$GPGSA,A,3,02,03,08,10,14,17,21,28,32,,,,0.7,0.4,0.6*34
$GPGSA,A,3,68,69,70,71,76,77,84,85,86,,,,0.7,0.4,0.6*39
$GPGSA,A,3,07,08,13,24,26,29,31,33,,,,,0.7,0.4,0.6*31
$GPGSA,A,3,05,06,09,13,16,27,28,30,32,33,39,41,0.7,0.4,0.6*3A
$GPGSA,A,3,60,,,,,,,,,,,,0.7,0.4,0.6*31
$GPGST,233112.00,2.895,0.439,0.352,341.469,0.431,0.362,0.704*54
$GPGBS,233112.00,3.911,2.344,4.508,77,0.0001,-12.194,6.410*4D
$GPGRS,233112.00,1,-0.3,-0.2,0.2,0.1,0.5,-0.4,0.2,-0.3,0.2,,,*60
$GPGRS,233112.00,1,6.2,1.9,-2.6,4.4,-2.3,-12.2,4.1,4.1,0.2,,,*77
$GPGRS,233112.00,1,-0.0,-0.1,-0.4,-0.8,-0.1,0.4,-0.2,-0.1,,,,*68
$GPGRS,233112.00,1,1.7,-0.1,1.1,0.0,-0.7,0.1,0.0,0.2,-0.2,-0.9,-1.2,-1.2*46
$GPGRS,233112.00,1,-1.7,,,,,,,,,,,*4B
$GPGSV,5,1,19,21,82,104,45,08,33,185,46,10,16,062,41,17,19,318,42*7B
$GPGSV,5,2,19,14,12,288,40,03,39,250,46,32,43,063,48,02,74,308,50*7A
$GPGSV,5,3,19,28,09,108,39,27,07,165,30,36,35,170,45,58,13,245,38*77
$GPGSV,5,4,19,57,10,109,39,34,31,208,42,40,24,132,36,49,34,195,44*78
$GPGSV,5,5,19,41,07,108,34,61,03,257,38*72
$GLGSV,3,1,09,85,67,332,51,69,56,043,51,86,13,315,44,70,51,204,42*63
$GLGSV,3,2,09,84,52,120,39,77,08,351,37,76,06,308,44,68,08,033,42*68
$GLGSV,3,3,09,71,05,209,43*53
$GAGSV,3,1,12,33,64,309,48,08,13,036,38,12,11,294,35,31,16,263,39*6B
$GAGSV,3,2,12,24,14,313,39,29,40,163,46,07,50,080,46,26,59,097,48*69
$GAGSV,3,3,12,16,06,337,,19,05,192,34,13,08,108,37,23,00,218,*60
$GBGSV,5,1,19,57,79,345,,16,20,075,40,60,10,109,40,33,22,049,44*6C
$GBGSV,5,2,19,28,24,142,44,39,22,064,42,05,24,128,38,20,38,202,*6B
$GBGSV,5,3,19,09,16,091,38,06,19,078,38,32,45,214,49,29,46,303,*61
$GBGSV,5,4,19,30,53,299,49,27,68,166,52,41,72,074,51,26,01,324,*62
$GBGSV,5,5,19,31,04,093,,02,09,105,34,13,08,068,38*58
$GPGGA,233112.00,,,,,0,00,,,M,,M,,*48
$PTNL,GGK,233112.00,010125,4742.1601419,N,01618.1003231,E,1,39,0.7,EHT751.3632,M*43
$GPGGQ,233112.00,010125,4742.1601419,N,01618.1003231,E,1,39,0.902,708.1566,M*3D
$GPGFA,233112.00,4.174,5.775,0.439,0.352,341.469,0.704,,VVV*01
$GPLLK,233112.00,010125,,M,,M,1,39,0.8,,M*09
$GNGMP,233112.00,,,,,DAAA,39,0.4,,,,*58
$GPGMP,233112.00,,,,,,09,,,,2.4,136*76
$GLGMP,233112.00,,,,,,09,,,,,*76
$GAGMP,233112.00,,,,,,08,,,,,*7A
$GBGMP,233112.00,,,,,,13,,,,,*73
$PSSN,SNC,[0,343890000,2347]*41
$GPZDA,233117.00,01,01,2025,,*66
$GPDTM,W84,,00.0000000,N,00.0000000,E,00.0000000,W84*5F
$PSSN,TFM,233117.00,,,,*6A
$GPRMC,233117.00,A,4742.1601427,N,01618.1003194,E,0.0,,010125,5.1,E,D*1A
$GPGLL,4742.1601427,N,01618.1003194,E,233117.00,A,D*6B
$GPGGA,233117.00,4742.1601427,N,01618.1003194,E,2,39,0.4,708.1568,M,43.2066,M,2.4,0136*4A
$GNGNS,233117.00,4742.1601427,N,01618.1003194,E,DAAA,39,0.4,708.1568,43.2066,,*54
$GPGNS,233117.00,,,,,,09,,,,2.4,136*73
$GLGNS,233117.00,,,,,,09,,,,,*73
$GAGNS,233117.00,,,,,,08,,,,,*7F
$GBGNS,233117.00,,,,,,13,,,,,*76
$GPLLQ,233117.00,010125,,M,,M,1,39,0.898,,M*17
$GPVTG,,T,,M,0.00,N,0.00,K,D*26
$GPHDT,,T*1B
$GPTHS,,V*0E
$GPROT,,V*08
$PSSN,HRP,233117.00,010125,,,,,,,00,0,,*64
$PTNL,AVR,233117.00,,Yaw,,Tilt,,,,0,,00*32
$GPGSA,A,3,02,03,08,10,14,17,21,28,32,,,,0.7,0.4,0.6*34
$GPGSA,A,3,68,69,70,71,76,77,84,85,86,,,,0.7,0.4,0.6*39
$GPGSA,A,3,07,08,13,24,26,29,31,33,,,,,0.7,0.4,0.6*31
$GPGSA,A,3,05,06,09,13,16,27,28,30,32,33,39,41,0.7,0.4,0.6*3A
$GPGSA,A,3,60,,,,,,,,,,,,0.7,0.4,0.6*31
$GPGST,233117.00,2.819,0.439,0.348,341.813,0.431,0.358,0.702*50
$GPGBS,233117.00,3.928,2.357,4.286,77,0.0001,-11.944,6.406*40
$GPGRS,233117.00,1,-0.2,0.2,-0.0,-0.1,0.0,0.1,-0.1,-0.0,0.3,,,*4A
$GPGRS,233117.00,1,6.7,1.7,-1.0,4.4,-2.5,-11.9,3.2,3.9,0.1,,,*7A
$GPGRS,233117.00,1,-0.2,0.2,-0.3,-0.7,-0.0,0.4,0.2,0.1,,,,*48
$GPGRS,233117.00,1,1.9,0.6,0.5,-0.5,-0.7,0.0,-0.1,0.4,0.3,-1.0,-1.1,-0.9*4C
$GPGRS,233117.00,1,-1.6,,,,,,,,,,,*4F
$GPGSV,5,1,19,21,82,104,45,08,33,185,45,10,16,062,41,17,19,318,42*78
$GPGSV,5,2,19,14,12,288,40,03,39,250,46,32,43,062,48,02,74,308,50*7B
$GPGSV,5,3,19,28,09,108,39,27,07,165,29,36,35,170,45,58,13,245,38*7F
$GPGSV,5,4,19,57,10,109,38,34,31,208,43,40,24,132,36,49,34,195,44*78
$GPGSV,5,5,19,41,07,108,34,61,03,257,38*72
$GLGSV,3,1,09,85,67,332,52,69,56,043,50,86,13,315,45,70,52,204,42*63
$GLGSV,3,2,09,84,51,120,39,77,08,351,38,76,06,308,43,68,08,033,42*63
$GLGSV,3,3,09,71,05,209,43*53
$GAGSV,3,1,12,33,64,309,48,08,13,036,38,12,11,294,34,31,16,263,39*6A
$GAGSV,3,2,12,24,14,313,38,29,40,163,46,07,50,080,46,26,59,097,47*67
$GAGSV,3,3,12,16,06,337,,19,05,192,34,13,08,108,36,23,00,218,*61
$GBGSV,5,1,19,57,79,346,,16,20,075,39,60,10,109,40,33,22,049,43*66
$GBGSV,5,2,19,28,24,142,44,39,22,064,42,05,24,128,38,20,38,202,*6B
$GBGSV,5,3,19,09,16,091,38,06,19,078,38,32,45,214,49,29,46,303,*61
$GBGSV,5,4,19,30,53,299,49,27,68,166,51,41,72,074,51,26,01,324,*61
$GBGSV,5,5,19,31,04,093,,02,09,105,34,13,08,068,38*58
$GPGGA,233117.00,,,,,0,00,,,M,,M,,*4D
$PTNL,GGK,233117.00,010125,4742.1601427,N,01618.1003194,E,1,39,0.7,EHT751.3634,M*41
$GPGGQ,233117.00,010125,4742.1601427,N,01618.1003194,E,1,39,0.898,708.1568,M*35
$GPGFA,233117.00,4.176,5.756,0.439,0.348,341.813,0.702,,VVV*0B
$GPLLK,233117.00,010125,,M,,M,1,39,0.8,,M*0C
$GNGMP,233117.00,,,,,DAAA,39,0.4,,,,*5D
$GPGMP,233117.00,,,,,,09,,,,2.4,136*73
$GLGMP,233117.00,,,,,,09,,,,,*73
$GAGMP,233117.00,,,,,,08,,,,,*7F
$GBGMP,233117.00,,,,,,13,,,,,*76
$PSSN,SNC,[0,343895000,2347]*44
$GPZDA,233122.00,01,01,2025,,*60
$GPDTM,W84,,00.0000000,N,00.0000000,E,00.0000000,W84*5F
$PSSN,TFM,233122.00,,,,*6C
$GPRMC,233122.00,A,4742.1601440,N,01618.1003196,E,0.0,,010125,5.1,E,D*1F
