$GPZDA,005942.00,01,01,2025,,*69
$GPDTM,W84,,00.0000000,N,00.0000000,E,00.0000000,W84*5F
$PSSN,TFM,005942.00,,,,*65
$GPRMC,005942.00,A,4742.1603011,N,01618.1001445,E,0.0,,010125,5.1,E,D*1D
$GPGLL,4742.1603011,N,01618.1001445,E,005942.00,A,D*6C
$GPGGA,005942.00,4742.1603011,N,01618.1001445,E,2,37,0.4,707.9446,M,43.2066,M,2.0,0136*4D
$GNGNS,005942.00,4742.1603011,N,01618.1001445,E,DAAA,37,0.4,707.9446,43.2066,,*57
$GPGNS,005942.00,,,,,,10,,,,2.0,136*70
$GLGNS,005942.00,,,,,,07,,,,,*72
$GAGNS,005942.00,,,,,,08,,,,,*70
$GBGNS,005942.00,,,,,,12,,,,,*78
$GPLLQ,005942.00,010125,,M,,M,1,37,0.846,,M*15
$GPVTG,,T,,M,0.00,N,0.00,K,D*26
$GPHDT,,T*1B
$GPTHS,,V*0E
$GPROT,,V*08
$PSSN,HRP,005942.00,010125,,,,,,,00,0,,*6B
$PTNL,AVR,005942.00,,Yaw,,Tilt,,,,0,,00*3D
$GPGSA,A,3,02,03,04,09,17,19,21,28,31,32,,,0.8,0.4,0.6*30
$GPGSA,A,3,68,69,70,77,78,84,85,,,,,,0.8,0.4,0.6*30
$GPGSA,A,3,04,06,09,10,11,12,34,36,,,,,0.8,0.4,0.6*33
$GPGSA,A,3,05,06,09,16,19,20,29,30,32,35,39,60,0.8,0.4,0.6*3C
$GPGST,005942.00,1.371,0.375,0.299,17.598,0.369,0.307,0.696*69
$GPGBS,005942.00,2.162,1.680,4.282,04,0.0001,0.561,0.743*56
$GPGRS,005942.00,1,-0.3,0.0,0.6,-0.8,-0.1,0.1,-0.2,-0.1,0.3,-0.4,,*4D
$GPGRS,005942.00,1,3.4,-0.2,2.0,-3.5,-4.5,-0.0,0.8,,,,,*62
$GPGRS,005942.00,1,-0.1,0.2,0.3,0.5,-0.1,-0.3,-0.7,0.3,,,,*47
$GPGRS,005942.00,1,1.0,-0.9,-0.3,-0.6,0.2,0.1,0.6,0.8,0.4,-1.1,-0.5,-0.9*4C
$GPGSV,5,1,20,03,72,299,50,09,10,214,37,32,13,045,41,19,22,316,41*7B
$GPGSV,5,2,20,31,25,105,43,04,36,201,45,28,27,073,43,21,45,143,45*70
$GPGSV,5,3,20,17,39,287,45,02,66,152,49,01,71,136,,36,35,170,45*73
$GPGSV,5,4,20,58,13,245,37,40,24,132,36,34,31,208,42,49,34,195,44*7B
$GPGSV,5,5,20,57,09,109,38,41,07,108,34,61,03,257,37*4F
$GLGSV,3,1,09,69,67,029,52,85,56,317,52,68,17,043,45,70,40,236,39*60
$GLGSV,3,2,09,84,63,160,41,83,01,150,,78,07,055,43,77,07,001,38*6A
$GLGSV,3,3,09,86,03,326,43*51
$GAGSV,3,1,11,06,69,147,48,19,10,041,33,12,13,127,35,10,36,128,44*6D
$GAGSV,3,2,11,09,52,188,47,04,62,077,47,36,60,306,47,11,65,129,45*6B
$GAGSV,3,3,11,30,04,316,35,34,09,307,38,05,04,210,36*5B
$GBGSV,5,1,18,20,86,266,52,30,21,165,43,39,28,051,43,05,24,128,38*6A
$GBGSV,5,2,18,22,32,228,,35,31,309,46,16,30,062,42,06,31,066,40*66
$GBGSV,5,3,18,09,32,082,41,32,34,057,46,19,34,240,47,29,61,223,50*65
$GBGSV,5,4,18,48,62,242,,13,01,087,33,02,08,105,34,23,00,022,*6B
$GBGSV,5,5,18,57,02,101,,60,09,109,39*6F
$GPGGA,005942.00,,,,,0,00,,,M,,M,,*42
$PTNL,GGK,005942.00,010125,4742.1603011,N,01618.1001445,E,1,37,0.8,EHT751.1512,M*42
$GPGGQ,005942.00,010125,4742.1603011,N,01618.1001445,E,1,37,0.846,707.9446,M*35
$GPGFA,005942.00,3.570,5.710,0.375,0.299,17.598,0.696,,VVV*33
$GPLLK,005942.00,010125,,M,,M,1,37,0.9,,M*0C
$GNGMP,005942.00,,,,,DAAA,37,0.4,,,,*5C
$GPGMP,005942.00,,,,,,10,,,,2.0,136*70
$GLGMP,005942.00,,,,,,07,,,,,*72
$GAGMP,005942.00,,,,,,08,,,,,*70
$GBGMP,005942.00,,,,,,12,,,,,*78
$PSSN,SNC,[0,262800000,2347]*4A
$GPZDA,005947.00,01,01,2025,,*6C
$GPDTM,W84,,00.0000000,N,00.0000000,E,00.0000000,W84*5F
$PSSN,TFM,005947.00,,,,*60
$GPRMC,005947.00,A,4742.1603021,N,01618.1001418,E,0.0,,010125,5.1,E,D*13
$GPGLL,4742.1603021,N,01618.1001418,E,005947.00,A,D*62
$GPGGA,005947.00,4742.1603021,N,01618.1001418,E,2,37,0.4,707.9428,M,43.2066,M,3.0,0136*4A
$GNGNS,005947.00,4742.1603021,N,01618.1001418,E,DAAA,37,0.4,707.9428,43.2066,,*51
$GPGNS,005947.00,,,,,,10,,,,3.0,136*74
$GLGNS,005947.00,,,,,,07,,,,,*77
$GAGNS,005947.00,,,,,,08,,,,,*75
$GBGNS,005947.00,,,,,,12,,,,,*7D
$GPLLQ,005947.00,010125,,M,,M,1,37,0.856,,M*11
$GPVTG,,T,,M,0.00,N,0.01,K,D*27
$GPHDT,,T*1B
$GPTHS,,V*0E
$GPROT,,V*08
$PSSN,HRP,005947.00,010125,,,,,,,00,0,,*6E
$PTNL,AVR,005947.00,,Yaw,,Tilt,,,,0,,00*38
$GPGSA,A,3,02,03,04,09,17,19,21,28,31,32,,,0.8,0.4,0.6*30
$GPGSA,A,3,68,69,70,77,78,84,85,,,,,,0.8,0.4,0.6*30
$GPGSA,A,3,04,06,09,10,11,12,34,36,,,,,0.8,0.4,0.6*33
$GPGSA,A,3,05,06,09,16,19,20,29,30,32,35,39,60,0.8,0.4,0.6*3C
$GPGST,005947.00,1.349,0.378,0.301,15.320,0.374,0.307,0.707*68
$GPGBS,005947.00,2.181,1.699,4.359,17,0.0001,-0.820,0.748*7D
$GPGRS,005947.00,1,-0.2,0.2,0.7,-0.1,-0.8,0.5,0.0,0.3,-0.2,-0.4,,*62
$GPGRS,005947.00,1,4.2,-0.5,1.3,-3.6,-3.6,-0.4,1.3,,,,,*68
$GPGRS,005947.00,1,-0.1,0.1,0.3,0.2,0.2,-0.3,-0.6,0.2,,,,*68
$GPGRS,005947.00,1,0.9,-0.7,-0.3,-0.1,0.1,0.1,0.7,0.9,0.5,-1.1,-0.4,-0.7*45
$GPGSV,5,1,20,03,72,299,50,09,10,214,37,32,13,045,40,19,22,316,42*79
$GPGSV,5,2,20,31,25,105,44,04,36,201,45,28,27,073,42,21,45,143,45*76
$GPGSV,5,3,20,17,39,287,44,02,66,152,49,01,71,136,,36,35,170,45*72
$GPGSV,5,4,20,58,13,245,37,40,24,132,36,34,31,208,42,49,34,195,44*7B
$GPGSV,5,5,20,57,09,109,38,41,07,108,35,61,03,257,37*4E
$GLGSV,3,1,09,69,67,029,52,85,56,317,52,68,17,043,45,70,40,236,39*60
$GLGSV,3,2,09,84,63,160,40,83,01,150,,78,07,055,43,77,07,000,38*6A
$GLGSV,3,3,09,86,03,326,44*56
$GAGSV,3,1,11,06,69,147,48,19,10,041,33,12,13,127,35,10,36,128,44*6D
$GAGSV,3,2,11,09,52,188,47,04,62,077,47,36,60,306,47,11,65,129,45*6B
$GAGSV,3,3,11,30,04,316,36,34,09,307,37,05,04,210,36*57
$GBGSV,5,1,18,20,86,266,52,30,21,165,42,39,28,051,43,05,24,128,38*6B
$GBGSV,5,2,18,22,32,228,,35,31,309,46,16,30,062,42,06,31,066,40*66
$GBGSV,5,3,18,09,32,082,40,32,34,057,46,19,34,240,47,29,61,223,50*64
$GBGSV,5,4,18,48,63,242,,13,01,087,33,02,08,105,34,23,00,022,*6A
$GBGSV,5,5,18,57,02,102,,60,09,109,40*62
$GPGGA,005947.00,,,,,0,00,,,M,,M,,*47
$PTNL,GGK,005947.00,010125,4742.1603021,N,01618.1001418,E,1,37,0.8,EHT751.1494,M*43
$GPGGQ,005947.00,010125,4742.1603021,N,01618.1001418,E,1,37,0.856,707.9428,M*32
$GPGFA,005947.00,3.598,5.794,0.378,0.301,15.320,0.707,,VVV*3F
$GPLLK,005947.00,010125,,M,,M,1,37,0.9,,M*09
$GNGMP,005947.00,,,,,DAAA,37,0.4,,,,*59
$GPGMP,005947.00,,,,,,10,,,,3.0,136*74
$GLGMP,005947.00,,,,,,07,,,,,*77
$GAGMP,005947.00,,,,,,08,,,,,*75
$GBGMP,005947.00,,,,,,12,,,,,*7D
$PSSN,SNC,[0,262805000,2347]*4F
$GPZDA,005952.00,01,01,2025,,*68
$GPDTM,W84,,00.0000000,N,00.0000000,E,00.0000000,W84*5F
$PSSN,TFM,005952.00,,,,*64
$GPRMC,005952.00,A,4742.1603052,N,01618.1001385,E,0.0,,010125,5.1,E,D*10
$GPGLL,4742.1603052,N,01618.1001385,E,005952.00,A,D*61
$GPGGA,005952.00,4742.1603052,N,01618.1001385,E,2,37,0.4,707.9493,M,43.2066,M,2.8,0136*40
$GNGNS,005952.00,4742.1603052,N,01618.1001385,E,DAAA,37,0.4,707.9493,43.2066,,*52
$GPGNS,005952.00,,,,,,10,,,,2.8,136*79
$GLGNS,005952.00,,,,,,07,,,,,*73
$GAGNS,005952.00,,,,,,08,,,,,*71
$GBGNS,005952.00,,,,,,12,,,,,*79
$GPLLQ,005952.00,010125,,M,,M,1,37,0.868,,M*18
$GPVTG,,T,,M,0.00,N,0.01,K,D*27
$GPHDT,,T*1B
$GPTHS,,V*0E
$GPROT,,V*08
$PSSN,HRP,005952.00,010125,,,,,,,00,0,,*6A
$PTNL,AVR,005952.00,,Yaw,,Tilt,,,,0,,00*3C
$GPGSA,A,3,02,03,04,09,17,19,21,28,31,32,,,0.8,0.4,0.6*30
$GPGSA,A,3,68,69,70,77,78,84,85,,,,,,0.8,0.4,0.6*30
$GPGSA,A,3,04,06,09,10,11,12,34,36,,,,,0.8,0.4,0.6*33
$GPGSA,A,3,05,06,09,16,19,20,29,30,32,35,39,60,0.8,0.4,0.6*3C
$GPGST,005952.00,1.431,0.382,0.302,16.597,0.376,0.309,0.718*69
$GPGBS,005952.00,2.166,1.706,4.472,17,0.0001,-0.911,0.701*77
$GPGRS,005952.00,1,-0.1,-0.3,0.6,0.1,-0.9,0.4,-0.1,0.1,0.6,-0.3,,*65
$GPGRS,005952.00,1,4.6,0.2,0.8,-4.0,-4.1,0.1,1.0,,,,,*62
$GPGRS,005952.00,1,-0.0,0.3,0.5,0.5,-0.0,-0.3,-0.5,0.3,,,,*43
$GPGRS,005952.00,1,0.5,-0.6,0.1,0.4,-0.2,-0.0,0.7,0.5,0.4,-0.7,-0.3,-0.6*45
$GPGSV,5,1,20,03,72,299,49,09,10,214,38,32,13,045,40,19,22,316,41*7D
$GPGSV,5,2,20,31,25,105,44,04,36,201,45,28,27,073,43,21,45,143,45*77
$GPGSV,5,3,20,17,39,287,45,02,66,152,49,01,71,136,,36,35,170,45*73
$GPGSV,5,4,20,58,13,245,37,40,24,132,36,34,31,208,42,49,34,195,44*7B
$GPGSV,5,5,20,57,09,109,38,41,07,108,34,61,03,257,37*4F
$GLGSV,3,1,09,69,67,029,52,85,56,317,52,68,17,043,45,70,40,236,39*60
$GLGSV,3,2,09,84,63,160,40,83,01,150,,78,07,055,43,77,07,000,38*6A
$GLGSV,3,3,09,86,03,326,43*51
$GAGSV,3,1,11,06,69,147,48,19,10,041,33,12,13,127,35,10,36,128,44*6D
$GAGSV,3,2,11,09,52,188,47,04,62,077,47,36,60,306,47,11,65,129,45*6B
$GAGSV,3,3,11,30,04,316,35,34,09,307,37,05,04,210,36*54
$GBGSV,5,1,18,20,86,267,52,30,21,165,42,39,28,051,43,05,24,128,38*6A
$GBGSV,5,2,18,16,30,062,42,35,31,309,46,22,32,228,,06,31,066,40*66
$GBGSV,5,3,18,09,32,082,41,32,34,057,46,19,34,240,47,29,61,222,50*64
$GBGSV,5,4,18,48,63,242,,13,01,087,33,02,08,105,34,23,00,022,*6A
$GBGSV,5,5,18,57,02,102,,60,09,109,39*6C
$GPGGA,005952.00,,,,,0,00,,,M,,M,,*43
$PTNL,GGK,005952.00,010125,4742.1603052,N,01618.1001385,E,1,37,0.8,EHT751.1558,M*41
$GPGGQ,005952.00,010125,4742.1603052,N,01618.1001385,E,1,37,0.868,707.9493,M*3C
$GPGFA,005952.00,3.635,5.891,0.382,0.302,16.597,0.718,,VVV*34
$GPLLK,005952.00,010125,,M,,M,1,37,0.9,,M*0D
$GNGMP,005952.00,,,,,DAAA,37,0.4,,,,*5D
$GPGMP,005952.00,,,,,,10,,,,2.8,136*79
$GLGMP,005952.00,,,,,,07,,,,,*73
$GAGMP,005952.00,,,,,,08,,,,,*71
$GBGMP,005952.00,,,,,,12,,,,,*79
$PSSN,SNC,[0,262810000,2347]*4B
$GPZDA,005957.00,01,01,2025,,*6D
$GPDTM,W84,,00.0000000,N,00.0000000,E,00.0000000,W84*5F
$PSSN,TFM,005957.00,,,,*61
$GPRMC,005957.00,A,4742.1603091,N,01618.1001372,E,0.0,,010125,5.1,E,D*12
$GPGLL,4742.1603091,N,01618.1001372,E,005957.00,A,D*63
$GPGGA,005957.00,4742.1603091,N,01618.1001372,E,2,37,0.4,707.9498,M,43.2066,M,2.2,0136*43
$GNGNS,005957.00,4742.1603091,N,01618.1001372,E,DAAA,37,0.4,707.9498,43.2066,,*5B
$GPGNS,005957.00,,,,,,10,,,,2.2,136*76
$GLGNS,005957.00,,,,,,07,,,,,*76
$GAGNS,005957.00,,,,,,08,,,,,*74
$GBGNS,005957.00,,,,,,12,,,,,*7C
$GPLLQ,005957.00,010125,,M,,M,1,37,0.860,,M*15
$GPVTG,,T,,M,0.00,N,0.01,K,D*27
$GPHDT,,T*1B
$GPTHS,,V*0E
$GPROT,,V*08
$PSSN,HRP,005957.00,010125,,,,,,,00,0,,*6F
$PTNL,AVR,005957.00,,Yaw,,Tilt,,,,0,,00*39
$GPGSA,A,3,02,03,04,09,17,19,21,28,31,32,,,0.8,0.4,0.6*30
$GPGSA,A,3,68,69,70,77,78,84,85,,,,,,0.8,0.4,0.6*30
$GPGSA,A,3,04,06,09,10,11,12,34,36,,,,,0.8,0.4,0.6*33
$GPGSA,A,3,05,06,09,16,19,20,29,30,32,35,39,60,0.8,0.4,0.6*3C
$GPGST,005957.00,1.456,0.380,0.298,18.561,0.373,0.307,0.711*68
$GPGBS,005957.00,2.157,1.700,4.261,04,0.0001,0.525,0.729*5C
$GPGRS,005957.00,1,-0.1,0.0,0.5,-0.4,0.1,-0.1,-0.1,-0.2,0.2,-0.4,,*45
$GPGRS,005957.00,1,4.1,-0.4,1.2,-4.2,-4.7,0.1,1.0,,,,,*44
$GPGRS,005957.00,1,-0.2,0.1,0.6,0.5,-0.2,-0.1,-0.5,0.3,,,,*45
$GPGRS,005957.00,1,0.5,-0.1,0.6,0.4,0.1,-0.1,0.5,0.1,0.3,-0.8,-0.5,-0.8*69
$GPGSV,5,1,20,03,72,299,50,09,10,214,38,32,13,045,40,19,22,316,41*75
$GPGSV,5,2,20,31,25,105,45,04,36,201,45,28,27,073,43,21,45,143,45*76
$GPGSV,5,3,20,17,39,287,45,02,66,152,49,01,71,136,,36,35,170,45*73
$GPGSV,5,4,20,58,13,245,37,40,24,132,36,34,31,208,42,49,34,195,44*7B
$GPGSV,5,5,20,57,09,109,38,41,07,108,34,61,03,257,37*4F
$GLGSV,3,1,09,69,67,029,52,85,56,317,52,68,17,043,45,70,40,236,39*60
$GLGSV,3,2,09,84,63,160,41,83,01,150,,78,07,055,44,77,07,000,38*6C
$GLGSV,3,3,09,86,03,326,42*50
$GAGSV,3,1,11,06,69,147,48,19,10,041,32,12,13,127,35,10,36,128,44*6C
$GAGSV,3,2,11,09,52,188,47,04,62,077,47,36,60,306,47,11,65,129,44*6A
$GAGSV,3,3,11,30,04,316,34,34,09,307,38,05,04,210,36*5A
$GBGSV,5,1,18,20,86,267,52,30,21,165,42,39,28,051,43,05,24,128,38*6A
$GBGSV,5,2,18,16,30,062,42,35,31,309,46,22,32,228,,06,31,066,40*66
$GBGSV,5,3,18,09,32,082,41,32,34,057,46,19,34,240,47,29,61,222,50*64
$GBGSV,5,4,18,48,63,242,,13,01,087,33,02,08,105,34,23,00,022,*6A
$GBGSV,5,5,18,57,02,102,,60,09,109,40*62
$GPGGA,005957.00,,,,,0,00,,,M,,M,,*46
$PTNL,GGK,005957.00,010125,4742.1603091,N,01618.1001372,E,1,37,0.8,EHT751.1563,M*4B
$GPGGQ,005957.00,010125,4742.1603091,N,01618.1001372,E,1,37,0.860,707.9498,M*3D
$GPGFA,005957.00,3.615,5.832,0.380,0.298,18.561,0.711,,VVV*34
$GPLLK,005957.00,010125,,M,,M,1,37,0.9,,M*08
$GNGMP,005957.00,,,,,DAAA,37,0.4,,,,*58
$GPGMP,005957.00,,,,,,10,,,,2.2,136*76
$GLGMP,005957.00,,,,,,07,,,,,*76
$GAGMP,005957.00,,,,,,08,,,,,*74
$GBGMP,005957.00,,,,,,12,,,,,*7C
$PSSN,SNC,[0,262815000,2347]*4E
$GPZDA,010002.00,01,01,2025,,*60
$GPDTM,W84,,00.0000000,N,00.0000000,E,00.0000000,W84*5F
$PSSN,TFM,010002.00,,,,*6C
$GPRMC,010002.00,A,4742.1603108,N,01618.1001375,E,0.0,,010125,5.1,E,D*19
$GPGLL,4742.1603108,N,01618.1001375,E,010002.00,A,D*68
$GPGGA,010002.00,4742.1603108,N,01618.1001375,E,2,37,0.4,707.9463,M,43.2066,M,2.0,0136*4E
$GNGNS,010002.00,4742.1603108,N,01618.1001375,E,DAAA,37,0.4,707.9463,43.2066,,*54
$GPGNS,010002.00,,,,,,10,,,,2.0,136*79
$GLGNS,010002.00,,,,,,07,,,,,*7B
$GAGNS,010002.00,,,,,,08,,,,,*79
$GBGNS,010002.00,,,,,,12,,,,,*71
$GPLLQ,010002.00,010125,,M,,M,1,37,0.847,,M*1D
$GPVTG,,T,,M,0.00,N,0.01,K,D*27
$GPHDT,,T*1B
$GPTHS,,V*0E
$GPROT,,V*08
$PSSN,HRP,010002.00,010125,,,,,,,00,0,,*62
$PTNL,AVR,010002.00,,Yaw,,Tilt,,,,0,,00*34
$GPGSA,A,3,02,03,04,09,17,19,21,28,31,32,,,0.8,0.4,0.6*30
$GPGSA,A,3,68,69,70,77,78,84,85,,,,,,0.8,0.4,0.6*30
$GPGSA,A,3,04,06,09,10,11,12,34,36,,,,,0.8,0.4,0.6*33
$GPGSA,A,3,05,06,09,16,19,20,29,30,32,35,39,60,0.8,0.4,0.6*3C
$GPGST,010002.00,1.239,0.375,0.299,17.486,0.369,0.307,0.698*6D
$GPGBS,010002.00,2.154,1.678,4.311,04,0.0001,0.783,0.741*5A
$GPGRS,010002.00,1,-0.2,0.1,0.8,-0.8,-0.3,-0.1,-0.1,-0.1,0.2,-0.4,,*67
$GPGRS,010002.00,1,3.6,-0.1,0.7,-2.8,-4.1,0.6,0.9,,,,,*4D
$GPGRS,010002.00,1,-0.2,-0.0,0.6,0.5,-0.1,-0.1,-0.9,0.2,,,,*6A
$GPGRS,010002.00,1,0.6,-0.0,0.7,0.2,-0.1,-0.0,0.4,0.1,0.3,-1.1,-0.6,-1.0*4E
$GPGSV,5,1,20,03,72,299,50,09,10,214,38,32,13,045,40,19,22,316,42*76
$GPGSV,5,2,20,31,25,105,44,04,36,201,45,28,27,073,43,21,45,143,45*77
$GPGSV,5,3,20,17,39,287,45,02,66,152,49,01,71,136,,36,35,170,45*73
$GPGSV,5,4,20,58,13,245,37,40,24,132,36,34,31,208,42,49,34,195,44*7B
$GPGSV,5,5,20,57,09,109,38,41,07,108,35,61,03,257,37*4E
$GLGSV,3,1,09,69,67,029,52,85,56,317,52,68,17,043,45,70,40,236,39*60
$GLGSV,3,2,09,84,63,160,41,83,01,150,,78,07,055,43,77,07,000,38*6B
$GLGSV,3,3,09,86,03,326,43*51
$GAGSV,3,1,11,06,69,146,48,19,10,041,32,12,13,127,35,10,36,128,44*6D
$GAGSV,3,2,11,09,52,188,47,04,62,077,47,36,60,306,47,11,65,129,44*6A
$GAGSV,3,3,11,30,04,316,35,34,09,307,37,05,04,210,36*54
$GBGSV,5,1,18,20,86,267,52,30,21,165,42,39,28,051,43,05,24,128,38*6A
$GBGSV,5,2,18,16,30,062,42,35,31,309,46,22,32,228,,06,31,066,41*67
$GBGSV,5,3,18,09,32,082,41,32,34,057,46,19,34,240,46,29,61,222,50*65
$GBGSV,5,4,18,48,63,242,,13,01,087,33,02,08,105,34,23,00,022,*6A
$GBGSV,5,5,18,57,02,102,,60,09,109,40*62
$GPGGA,010002.00,,,,,0,00,,,M,,M,,*4B
$PTNL,GGK,010002.00,010125,4742.1603108,N,01618.1001375,E,1,37,0.8,EHT751.1529,M*4E
$GPGGQ,010002.00,010125,4742.1603108,N,01618.1001375,E,1,37,0.847,707.9463,M*37
$GPGFA,010002.00,3.566,5.721,0.375,0.299,17.486,0.698,,VVV*3F
$GPLLK,010002.00,010125,,M,,M,1,37,0.9,,M*05
$GNGMP,010002.00,,,,,DAAA,37,0.4,,,,*55
$GPGMP,010002.00,,,,,,10,,,,2.0,136*79
$GLGMP,010002.00,,,,,,07,,,,,*7B
$GAGMP,010002.00,,,,,,08,,,,,*79
$GBGMP,010002.00,,,,,,12,,,,,*71
$PSSN,SNC,[0,262820000,2347]*48
$GPZDA,010007.00,01,01,2025,,*65
$GPDTM,W84,,00.0000000,N,00.0000000,E,00.0000000,W84*5F
$PSSN,TFM,010007.00,,,,*69
$GPRMC,010007.00,A,4742.1603095,N,01618.1001382,E,0.0,,010125,5.1,E,D*11
$GPGLL,4742.1603095,N,01618.1001382,E,010007.00,A,D*60
$GPGGA,010007.00,4742.1603095,N,01618.1001382,E,2,36,0.5,707.9423,M,43.2066,M,3.0,0136*43
$GNGNS,010007.00,4742.1603095,N,01618.1001382,E,DAAA,36,0.5,707.9423,43.2066,,*58
$GPGNS,010007.00,,,,,,10,,,,3.0,136*7D
$GLGNS,010007.00,,,,,,07,,,,,*7E
$GAGNS,010007.00,,,,,,07,,,,,*73
$GBGNS,010007.00,,,,,,12,,,,,*74
$GPLLQ,010007.00,010125,,M,,M,1,36,0.859,,M*16
$GPVTG,,T,,M,0.00,N,0.00,K,D*26
$GPHDT,,T*1B
$GPTHS,,V*0E
$GPROT,,V*08
$PSSN,HRP,010007.00,010125,,,,,,,00,0,,*67
$PTNL,AVR,010007.00,,Yaw,,Tilt,,,,0,,00*31
$GPGSA,A,3,02,03,04,09,17,19,21,28,31,32,,,0.8,0.5,0.7*30
$GPGSA,A,3,68,69,70,77,78,84,85,,,,,,0.8,0.5,0.7*30
$GPGSA,A,3,04,06,09,10,11,34,36,,,,,,0.8,0.5,0.7*30
$GPGSA,A,3,05,06,09,16,19,20,29,30,32,35,39,60,0.8,0.5,0.7*3C
$GPGST,010007.00,1.252,0.378,0.302,14.915,0.373,0.307,0.710*65
$GPGBS,010007.00,2.175,1.701,4.429,04,0.0001,0.823,0.755*5F
$GPGRS,010007.00,1,-0.3,0.2,0.8,-0.7,-0.1,0.7,-0.4,-0.2,-0.0,0.1,,*47
$GPGRS,010007.00,1,3.4,-0.2,1.4,-2.5,-4.1,1.1,0.3,,,,,*4A
$GPGRS,010007.00,1,0.0,0.0,0.4,0.5,-0.2,-0.8,0.2,,,,,*6F
$GPGRS,010007.00,1,0.5,0.2,1.2,0.2,0.2,-0.0,0.6,0.0,0.4,-0.8,-0.6,-0.8*48
$GPGSV,5,1,20,03,72,299,50,09,10,214,38,32,13,045,40,19,22,316,41*75
$GPGSV,5,2,20,31,25,105,43,04,36,201,45,28,27,073,44,21,45,143,44*76
$GPGSV,5,3,20,17,39,287,45,02,66,152,49,01,71,136,,36,35,170,45*73
$GPGSV,5,4,20,58,13,245,37,40,24,132,36,34,31,208,42,49,34,195,44*7B
$GPGSV,5,5,20,57,09,109,38,41,07,108,34,61,03,257,37*4F
$GLGSV,3,1,09,69,67,029,52,85,56,317,52,68,17,043,45,70,40,236,39*60
$GLGSV,3,2,09,84,63,160,41,83,01,150,,78,07,055,43,77,07,000,39*6A
$GLGSV,3,3,09,86,04,326,43*56
$GAGSV,3,1,11,06,69,146,48,19,10,041,32,12,13,127,35,10,36,128,44*6D
$GAGSV,3,2,11,09,52,188,47,04,62,077,47,36,60,306,47,11,65,129,44*6A
$GAGSV,3,3,11,30,04,316,37,34,09,307,37,05,04,211,37*56
$GBGSV,5,1,18,20,86,268,52,30,20,165,42,39,28,051,43,05,24,128,38*64
$GBGSV,5,2,18,16,30,062,42,35,31,309,46,22,32,228,,06,31,066,41*67
$GBGSV,5,3,18,09,32,082,41,32,34,057,46,19,34,241,46,29,61,222,50*64
$GBGSV,5,4,18,48,63,242,,13,01,087,33,02,08,105,34,23,00,022,*6A
$GBGSV,5,5,18,57,02,102,,60,09,109,39*6C
$GPGGA,010007.00,,,,,0,00,,,M,,M,,*4E
$PTNL,GGK,010007.00,010125,4742.1603095,N,01618.1001382,E,1,36,0.8,EHT751.1488,M*4D
$GPGGQ,010007.00,010125,4742.1603095,N,01618.1001382,E,1,36,0.859,707.9423,M*35
$GPGFA,010007.00,3.595,5.820,0.378,0.302,14.915,0.710,,VVV*33
$GPLLK,010007.00,010125,,M,,M,1,36,0.9,,M*01
$GNGMP,010007.00,,,,,DAAA,36,0.5,,,,*50
$GPGMP,010007.00,,,,,,10,,,,3.0,136*7D
$GLGMP,010007.00,,,,,,07,,,,,*7E
$GAGMP,010007.00,,,,,,07,,,,,*73
$GBGMP,010007.00,,,,,,12,,,,,*74
$PSSN,SNC,[0,262825000,2347]*4D
$GPZDA,010012.00,01,01,2025,,*61
$GPDTM,W84,,00.0000000,N,00.0000000,E,00.0000000,W84*5F
$PSSN,TFM,010012.00,,,,*6D
$GPRMC,010012.00,A,4742.1603095,N,01618.1001422,E,0.0,,010125,5.1,E,D*18
$GPGLL,4742.1603095,N,01618.1001422,E,010012.00,A,D*69
$GPGGA,010012.00,4742.1603095,N,01618.1001422,E,2,37,0.4,707.9416,M,43.2066,M,2.8,0136*45
$GNGNS,010012.00,4742.1603095,N,01618.1001422,E,DAAA,37,0.4,707.9416,43.2066,,*57
$GPGNS,010012.00,,,,,,10,,,,2.8,136*70
$GLGNS,010012.00,,,,,,07,,,,,*7A
$GAGNS,010012.00,,,,,,08,,,,,*78
$GBGNS,010012.00,,,,,,12,,,,,*70
$GPLLQ,010012.00,010125,,M,,M,1,37,0.869,,M*10
$GPVTG,,T,,M,0.00,N,0.00,K,D*26
$GPHDT,,T*1B
$GPTHS,,V*0E
$GPROT,,V*08
$PSSN,HRP,010012.00,010125,,,,,,,00,0,,*63
$PTNL,AVR,010012.00,,Yaw,,Tilt,,,,0,,00*35
$GPGSA,A,3,02,03,04,09,17,19,21,28,31,32,,,0.8,0.4,0.6*30
$GPGSA,A,3,68,69,70,77,78,84,85,,,,,,0.8,0.4,0.6*30
$GPGSA,A,3,04,06,09,10,11,12,34,36,,,,,0.8,0.4,0.6*33
$GPGSA,A,3,05,06,09,16,19,20,29,30,32,35,39,60,0.8,0.4,0.6*3C
$GPGST,010012.00,1.414,0.382,0.302,16.469,0.376,0.309,0.720*6C
$GPGBS,010012.00,2.158,1.705,4.503,04,0.0001,0.482,0.773*5A
$GPGRS,010012.00,1,-0.1,0.2,0.5,-0.6,0.1,-0.2,-0.0,-0.0,0.0,-0.1,,*4E
$GPGRS,010012.00,1,3.5,-0.8,-0.3,-4.4,-4.4,-0.2,0.8,,,,,*48
$GPGRS,010012.00,1,-0.3,0.0,0.2,0.3,-0.3,-0.3,-0.9,0.2,,,,*45
$GPGRS,010012.00,1,0.6,0.1,1.2,0.3,0.3,-0.1,0.4,-0.6,0.4,-1.0,-0.6,-1.0*64
$GPGSV,5,1,20,03,72,299,50,09,10,214,38,32,13,045,40,19,22,316,41*75
$GPGSV,5,2,20,31,25,105,43,04,36,201,45,28,27,073,44,21,45,143,44*76
$GPGSV,5,3,20,17,39,287,45,02,66,152,49,01,71,136,,36,35,170,45*73
$GPGSV,5,4,20,58,13,245,37,40,24,132,36,34,31,208,42,49,34,195,44*7B
$GPGSV,5,5,20,57,09,109,38,41,07,108,34,61,03,257,37*4F
$GLGSV,3,1,09,69,67,029,52,85,57,317,52,68,17,043,44,70,40,236,39*60
$GLGSV,3,2,09,84,63,160,40,83,01,150,,78,07,055,43,77,07,000,37*65
$GLGSV,3,3,09,86,04,326,44*51
$GAGSV,3,1,11,06,69,146,48,19,10,041,32,12,13,127,35,10,36,128,44*6D
$GAGSV,3,2,11,09,52,188,47,04,62,077,47,36,60,306,47,11,65,129,44*6A
$GAGSV,3,3,11,30,04,316,37,34,09,307,38,05,04,211,36*58
$GBGSV,5,1,18,20,86,268,52,30,20,165,42,39,28,051,43,05,24,128,38*64
$GBGSV,5,2,18,16,30,062,42,35,31,309,46,22,32,228,,06,31,066,41*67
$GBGSV,5,3,18,09,32,082,42,32,34,058,46,19,34,241,46,29,61,222,50*68
$GBGSV,5,4,18,48,63,242,,13,01,087,33,02,08,105,34,23,00,022,*6A
$GBGSV,5,5,18,57,02,102,,60,09,109,39*6C
$GPGGA,010012.00,,,,,0,00,,,M,,M,,*4A
$PTNL,GGK,010012.00,010125,4742.1603095,N,01618.1001422,E,1,37,0.8,EHT751.1481,M*4C
$GPGGQ,010012.00,010125,4742.1603095,N,01618.1001422,E,1,37,0.869,707.9416,M*38
$GPGFA,010012.00,3.631,5.901,0.382,0.302,16.469,0.720,,VVV*3A
$GPLLK,010012.00,010125,,M,,M,1,37,0.9,,M*04
$GNGMP,010012.00,,,,,DAAA,37,0.4,,,,*54
$GPGMP,010012.00,,,,,,10,,,,2.8,136*70
$GLGMP,010012.00,,,,,,07,,,,,*7A
$GAGMP,010012.00,,,,,,08,,,,,*78
$GBGMP,010012.00,,,,,,12,,,,,*70
$PSSN,SNC,[0,262830000,2347]*49
$GPZDA,010017.00,01,01,2025,,*64
$GPDTM,W84,,00.0000000,N,00.0000000,E,00.0000000,W84*5F
$PSSN,TFM,010017.00,,,,*68
$GPRMC,010017.00,A,4742.1603100,N,01618.1001413,E,0.0,,010125,5.1,E,D*12
$GPGLL,4742.1603100,N,01618.1001413,E,010017.00,A,D*63
$GPGGA,010017.00,4742.1603100,N,01618.1001413,E,2,37,0.4,707.9419,M,43.2066,M,2.2,0136*4A
$GNGNS,010017.00,4742.1603100,N,01618.1001413,E,DAAA,37,0.4,707.9419,43.2066,,*52
$GPGNS,010017.00,,,,,,10,,,,2.2,136*7F
$GLGNS,010017.00,,,,,,07,,,,,*7F
$GAGNS,010017.00,,,,,,08,,,,,*7D
$GBGNS,010017.00,,,,,,12,,,,,*75
$GPLLQ,010017.00,010125,,M,,M,1,37,0.862,,M*1E
$GPVTG,,T,,M,0.00,N,0.00,K,D*26
$GPHDT,,T*1B
$GPTHS,,V*0E
$GPROT,,V*08
$PSSN,HRP,010017.00,010125,,,,,,,00,0,,*66
$PTNL,AVR,010017.00,,Yaw,,Tilt,,,,0,,00*30
$GPGSA,A,3,02,03,04,09,17,19,21,28,31,32,,,0.8,0.4,0.6*30
$GPGSA,A,3,68,69,70,77,78,84,85,,,,,,0.8,0.4,0.6*30
$GPGSA,A,3,04,06,09,10,11,12,34,36,,,,,0.8,0.4,0.6*33
$GPGSA,A,3,05,06,09,16,19,20,29,30,32,35,39,60,0.8,0.4,0.6*3C
$GPGST,010017.00,1.827,0.380,0.298,18.433,0.373,0.307,0.713*6F
$GPGBS,010017.00,2.151,1.700,4.291,31,0.0001,0.811,0.898*55
$GPGRS,010017.00,1,-0.0,0.0,0.2,-0.5,0.2,0.3,-0.1,-0.5,0.8,-0.1,,*6F
$GPGRS,010017.00,1,4.8,-0.7,-0.1,-6.5,-4.8,-1.3,1.0,,,,,*4C
$GPGRS,010017.00,1,-0.3,0.1,0.5,0.4,-0.1,-0.5,-0.6,0.3,,,,*4B
$GPGRS,010017.00,1,0.9,0.5,1.1,0.2,0.6,-1.3,0.7,-0.4,0.8,-0.7,-0.4,-0.9*6F
$GPGSV,5,1,20,03,72,300,50,09,11,214,39,32,13,045,40,19,22,316,41*74
$GPGSV,5,2,20,31,25,105,44,04,36,201,45,28,27,073,43,21,45,143,44*76
$GPGSV,5,3,20,17,39,287,45,02,66,152,49,01,71,136,,36,35,170,45*73
$GPGSV,5,4,20,58,13,245,37,40,24,132,36,34,31,208,42,49,34,195,44*7B
$GPGSV,5,5,20,57,09,109,38,41,07,108,34,61,03,257,37*4F
$GLGSV,3,1,09,69,67,030,52,85,57,317,52,68,17,043,45,70,41,236,39*68
$GLGSV,3,2,09,84,63,160,40,83,01,150,,78,07,055,42,77,07,000,37*64
$GLGSV,3,3,09,86,04,326,44*51
$GAGSV,3,1,11,06,69,146,48,19,10,041,32,12,13,127,35,10,36,128,44*6D
$GAGSV,3,2,11,09,52,188,47,04,62,077,47,36,60,306,47,11,65,129,44*6A
$GAGSV,3,3,11,30,04,316,37,34,09,307,38,05,04,211,36*58
$GBGSV,5,1,19,20,86,268,52,30,20,166,43,39,28,051,43,05,24,128,38*67
$GBGSV,5,2,19,16,30,062,42,35,31,309,46,22,32,229,,06,31,066,40*66
$GBGSV,5,3,19,09,32,082,42,32,34,058,46,19,34,241,47,29,61,222,50*68
$GBGSV,5,4,19,48,63,242,,13,01,087,34,37,00,112,,02,08,105,34*6B
$GBGSV,5,5,19,23,00,022,,57,02,102,,60,09,109,39*5C
$GPGGA,010017.00,,,,,0,00,,,M,,M,,*4F
$PTNL,GGK,010017.00,010125,4742.1603100,N,01618.1001413,E,1,37,0.8,EHT751.1484,M*43
$GPGGQ,010017.00,010125,4742.1603100,N,01618.1001413,E,1,37,0.862,707.9419,M*36
$GPGFA,010017.00,3.614,5.850,0.380,0.298,18.433,0.713,,VVV*3C
$GPLLK,010017.00,010125,,M,,M,1,37,0.9,,M*01
$GNGMP,010017.00,,,,,DAAA,37,0.4,,,,*51
$GPGMP,010017.00,,,,,,10,,,,2.2,136*7F
$GLGMP,010017.00,,,,,,07,,,,,*7F
$GAGMP,010017.00,,,,,,08,,,,,*7D
$GBGMP,010017.00,,,,,,12,,,,,*75
$PSSN,SNC,[0,262835000,2347]*4C
$GPZDA,010022.00,01,01,2025,,*62
$GPDTM,W84,,00.0000000,N,00.0000000,E,00.0000000,W84*5F
$PSSN,TFM,010022.00,,,,*6E
$GPRMC,010022.00,A,4742.1603114,N,01618.1001437,E,0.0,,010125,5.1,E,D*17
$GPGLL,4742.1603114,N,01618.1001437,E,010022.00,A,D*66
$GPGGA,010022.00,4742.1603114,N,01618.1001437,E,2,36,0.5,707.9465,M,43.2066,M,2.0,0136*46
$GNGNS,010022.00,4742.1603114,N,01618.1001437,E,DAAA,36,0.5,707.9465,43.2066,,*5C
$GPGNS,010022.00,,,,,,10,,,,2.0,136*7B
$GLGNS,010022.00,,,,,,07,,,,,*79
$GAGNS,010022.00,,,,,,07,,,,,*74
$GBGNS,010022.00,,,,,,12,,,,,*73
$GPLLQ,010022.00,010125,,M,,M,1,36,0.849,,M*10
$GPVTG,,T,,M,0.00,N,0.01,K,D*27
$GPHDT,,T*1B
$GPTHS,,V*0E
$GPROT,,V*08
$PSSN,HRP,010022.00,010125,,,,,,,00,0,,*60
$PTNL,AVR,010022.00,,Yaw,,Tilt,,,,0,,00*36
$GPGSA,A,3,02,03,04,09,17,19,21,28,31,32,,,0.8,0.5,0.7*30
$GPGSA,A,3,68,69,70,77,78,84,85,,,,,,0.8,0.5,0.7*30
$GPGSA,A,3,04,06,09,10,11,34,36,,,,,,0.8,0.5,0.7*30
$GPGSA,A,3,05,06,09,16,19,20,29,30,32,35,39,60,0.8,0.5,0.7*3C
$GPGST,010022.00,1.778,0.375,0.299,17.197,0.369,0.307,0.701*6B
$GPGBS,010022.00,2.148,1.680,4.379,68,0.0001,5.393,6.470*51
$GPGRS,010022.00,1,-0.1,-0.3,0.2,-0.1,0.2,0.5,0.3,-0.5,0.4,-0.3,,*65
$GPGRS,010022.00,1,5.4,-0.7,0.1,-4.8,-5.4,-1.2,0.7,,,,,*6F
$GPGRS,010022.00,1,-0.2,0.0,0.4,0.3,-0.1,-1.0,-0.0,,,,,*64
$GPGRS,010022.00,1,0.4,0.0,1.0,-0.3,0.3,-1.2,0.5,-0.1,0.4,-0.8,-0.4,-1.1*45
$GPGSV,5,1,20,03,72,300,49,09,11,214,39,32,13,045,40,19,22,316,41*7C
$GPGSV,5,2,20,31,25,105,43,04,36,201,45,28,27,073,43,21,45,143,45*70
$GPGSV,5,3,20,17,39,287,45,02,65,152,49,01,71,136,,36,35,170,45*70
$GPGSV,5,4,20,58,13,245,37,40,24,132,36,34,31,208,42,49,34,195,44*7B
$GPGSV,5,5,20,57,09,109,38,41,07,108,34,61,03,257,37*4F
$GLGSV,3,1,09,69,67,030,52,85,57,317,52,68,17,043,45,70,41,236,39*68
$GLGSV,3,2,09,84,63,160,41,83,01,150,,78,07,055,43,77,07,000,38*6B
$GLGSV,3,3,09,86,04,326,44*51
$GAGSV,3,1,11,06,69,146,48,19,10,041,32,12,13,128,35,10,36,128,44*62
$GAGSV,3,2,11,09,52,188,47,04,62,077,47,36,61,306,47,11,65,129,44*6B
$GAGSV,3,3,11,30,04,316,35,34,09,307,38,05,04,211,36*5A
$GBGSV,5,1,19,20,86,269,52,30,20,166,43,39,28,051,43,05,24,128,38*66
$GBGSV,5,2,19,16,30,062,42,35,31,309,46,22,32,229,,06,31,066,40*66
$GBGSV,5,3,19,09,32,082,42,32,34,058,46,19,34,241,47,29,61,222,50*68
$GBGSV,5,4,19,48,63,242,,13,01,087,34,37,00,112,,02,08,105,34*6B
$GBGSV,5,5,19,23,00,022,,57,02,102,,60,09,109,39*5C
$GPGGA,010022.00,,,,,0,00,,,M,,M,,*49
$PTNL,GGK,010022.00,010125,4742.1603114,N,01618.1001437,E,1,36,0.8,EHT751.1530,M*49
$GPGGQ,010022.00,010125,4742.1603114,N,01618.1001437,E,1,36,0.849,707.9465,M*30
$GPGFA,010022.00,3.565,5.748,0.375,0.299,17.197,0.701,,VVV*35
$GPLLK,010022.00,010125,,M,,M,1,36,0.9,,M*06
$GNGMP,010022.00,,,,,DAAA,36,0.5,,,,*57
$GPGMP,010022.00,,,,,,10,,,,2.0,136*7B
$GLGMP,010022.00,,,,,,07,,,,,*79
$GAGMP,010022.00,,,,,,07,,,,,*74
$GBGMP,010022.00,,,,,,12,,,,,*73
$PSSN,SNC,[0,262840000,2347]*4E
$GPZDA,010027.00,01,01,2025,,*67
$GPDTM,W84,,00.0000000,N,00.0000000,E,00.0000000,W84*5F
$PSSN,TFM,010027.00,,,,*6B
$GPRMC,010027.00,A,4742.1603138,N,01618.1001437,E,0.0,,010125,5.1,E,D*1C
$GPGLL,4742.1603138,N,01618.1001437,E,010027.00,A,D*6D
$GPGGA,010027.00,4742.1603138,N,01618.1001437,E,2,36,0.5,707.9425,M,43.2066,M,3.0,0136*48
$GNGNS,010027.00,4742.1603138,N,01618.1001437,E,DAAA,36,0.5,707.9425,43.2066,,*53
$GPGNS,010027.00,,,,,,10,,,,3.0,136*7F
$GLGNS,010027.00,,,,,,07,,,,,*7C
$GAGNS,010027.00,,,,,,07,,,,,*71
$GBGNS,010027.00,,,,,,12,,,,,*76
$GPLLQ,010027.00,010125,,M,,M,1,36,0.860,,M*1E
$GPVTG,,T,,M,0.00,N,0.01,K,D*27
$GPHDT,,T*1B
$GPTHS,,V*0E
$GPROT,,V*08
$PSSN,HRP,010027.00,010125,,,,,,,00,0,,*65
$PTNL,AVR,010027.00,,Yaw,,Tilt,,,,0,,00*33
$GPGSA,A,3,02,03,04,09,17,19,21,28,31,32,,,0.8,0.5,0.7*30
$GPGSA,A,3,68,69,70,77,78,84,85,,,,,,0.8,0.5,0.7*30
$GPGSA,A,3,04,06,09,10,11,34,36,,,,,,0.8,0.5,0.7*30
$GPGSA,A,3,05,06,09,16,19,20,29,30,32,35,39,60,0.8,0.5,0.7*3C
$GPGST,010027.00,1.404,0.378,0.301,14.805,0.373,0.307,0.711*60
$GPGBS,010027.00,2.165,1.699,4.457,04,0.0001,0.613,0.754*59
$GPGRS,010027.00,1,-0.2,-0.1,0.6,-0.3,-0.2,0.1,0.2,-0.3,0.4,-0.6,,*4C
$GPGRS,010027.00,1,4.7,-0.5,0.1,-2.7,-4.3,0.2,0.9,,,,,*47
$GPGRS,010027.00,1,-0.2,0.0,0.5,0.3,-0.2,-0.9,-0.1,,,,,*6A
$GPGRS,010027.00,1,0.7,-0.1,1.0,-0.2,0.1,-1.2,0.4,0.4,0.4,-0.9,-0.5,-1.3*47
$GPGSV,5,1,20,03,72,300,50,09,11,214,39,32,13,045,40,19,22,316,41*74
$GPGSV,5,2,20,31,25,105,43,04,36,201,45,28,27,073,43,21,45,143,44*71
$GPGSV,5,3,20,17,39,287,45,02,65,152,49,01,71,136,,36,35,170,45*70
$GPGSV,5,4,20,58,13,245,37,40,24,132,36,34,31,208,42,49,34,195,44*7B
$GPGSV,5,5,20,57,09,109,38,41,07,108,34,61,03,257,37*4F
$GLGSV,3,1,09,69,67,030,52,85,57,317,52,68,17,043,45,70,41,236,39*68
$GLGSV,3,2,09,84,63,160,41,83,01,150,,78,07,055,43,77,07,000,39*6A
$GLGSV,3,3,09,86,04,326,43*56
$GAGSV,3,1,11,06,69,146,48,19,10,041,33,12,13,128,35,10,36,128,43*64
$GAGSV,3,2,11,09,52,188,47,04,62,077,47,36,61,306,47,11,65,129,44*6B
$GAGSV,3,3,11,30,04,316,34,34,09,307,38,05,04,211,36*5B
$GBGSV,5,1,19,20,86,269,52,30,20,166,44,39,28,051,43,05,24,128,38*61
$GBGSV,5,2,19,16,30,062,42,35,31,309,46,22,32,229,,06,31,066,40*66
$GBGSV,5,3,19,09,32,082,42,32,34,058,47,19,34,241,47,29,61,222,50*69
$GBGSV,5,4,19,48,63,242,,13,01,087,33,37,00,112,,02,08,105,34*6C
$GBGSV,5,5,19,23,00,022,,57,02,102,,60,09,109,39*5C
$GPGGA,010027.00,,,,,0,00,,,M,,M,,*4C
$PTNL,GGK,010027.00,010125,4742.1603138,N,01618.1001437,E,1,36,0.8,EHT751.1490,M*49
$GPGGQ,010027.00,010125,4742.1603138,N,01618.1001437,E,1,36,0.860,707.9425,M*34
$GPGFA,010027.00,3.591,5.830,0.378,0.301,14.805,0.711,,VVV*36
$GPLLK,010027.00,010125,,M,,M,1,36,0.9,,M*03
$GNGMP,010027.00,,,,,DAAA,36,0.5,,,,*52
$GPGMP,010027.00,,,,,,10,,,,3.0,136*7F
$GLGMP,010027.00,,,,,,07,,,,,*7C
$GAGMP,010027.00,,,,,,07,,,,,*71
$GBGMP,010027.00,,,,,,12,,,,,*76
$PSSN,SNC,[0,262845000,2347]*4B
$GPZDA,010032.00,01,01,2025,,*63
$GPDTM,W84,,00.0000000,N,00.0000000,E,00.0000000,W84*5F
$PSSN,TFM,010032.00,,,,*6F
$GPRMC,010032.00,A,4742.1603145,N,01618.1001435,E,0.0,,010125,5.1,E,D*10
$GPGLL,4742.1603145,N,01618.1001435,E,010032.00,A,D*61
$GPGGA,010032.00,4742.1603145,N,01618.1001435,E,2,36,0.5,707.9476,M,43.2066,M,2.8,0136*4B
$GNGNS,010032.00,4742.1603145,N,01618.1001435,E,DAAA,36,0.5,707.9476,43.2066,,*59
$GPGNS,010032.00,,,,,,10,,,,2.8,136*72
$GLGNS,010032.00,,,,,,07,,,,,*78
$GAGNS,010032.00,,,,,,07,,,,,*75
$GBGNS,010032.00,,,,,,12,,,,,*72
$GPLLQ,010032.00,010125,,M,,M,1,36,0.872,,M*19
$GPVTG,,T,,M,0.00,N,0.00,K,D*26
$GPHDT,,T*1B
$GPTHS,,V*0E
$GPROT,,V*08
$PSSN,HRP,010032.00,010125,,,,,,,00,0,,*61
$PTNL,AVR,010032.00,,Yaw,,Tilt,,,,0,,00*37
$GPGSA,A,3,02,03,04,09,17,19,21,28,31,32,,,0.8,0.5,0.7*30
$GPGSA,A,3,68,69,70,77,78,84,85,,,,,,0.8,0.5,0.7*30
$GPGSA,A,3,04,06,09,10,11,34,36,,,,,,0.8,0.5,0.7*30
$GPGSA,A,3,05,06,09,16,19,20,29,30,32,35,39,60,0.8,0.5,0.7*3C
$GPGST,010032.00,1.452,0.382,0.302,16.164,0.376,0.309,0.723*67
$GPGBS,010032.00,2.152,1.706,4.577,31,0.0001,0.697,0.882*53
$GPGRS,010032.00,1,-0.0,0.0,0.2,-0.4,0.1,0.0,-0.2,-0.4,0.7,0.1,,*49
$GPGRS,010032.00,1,4.9,-0.5,-0.1,-3.0,-4.2,-0.2,1.1,,,,,*43
$GPGRS,010032.00,1,-0.1,0.1,0.5,0.6,0.0,-1.0,0.1,,,,,*63
$GPGRS,010032.00,1,1.2,0.5,0.2,-0.1,0.7,-1.2,0.5,0.7,0.6,-0.7,-0.6,-1.0*66
$GPGSV,5,1,20,03,72,300,50,09,11,214,39,32,13,045,40,19,22,316,41*74
$GPGSV,5,2,20,31,25,105,43,04,36,201,45,28,27,073,43,21,45,143,44*71
$GPGSV,5,3,20,17,39,287,45,02,65,152,49,01,70,136,,36,35,170,45*71
$GPGSV,5,4,20,58,13,245,37,40,24,132,36,34,31,208,42,49,34,195,44*7B
$GPGSV,5,5,20,57,09,109,38,41,07,108,34,61,03,257,37*4F
$GLGSV,3,1,09,69,67,030,52,85,57,317,52,68,17,043,46,70,41,236,39*6B
$GLGSV,3,2,09,84,63,160,40,83,01,150,,78,07,054,43,77,07,000,38*6B
$GLGSV,3,3,09,86,04,326,44*51
$GAGSV,3,1,11,06,69,146,48,19,10,041,32,12,13,128,35,10,36,128,43*65
$GAGSV,3,2,11,09,52,188,47,04,62,077,46,36,61,306,47,11,65,129,44*6A
$GAGSV,3,3,11,30,04,316,34,34,09,307,38,05,04,211,36*5B
$GBGSV,5,1,19,20,86,269,52,30,20,166,43,39,28,051,43,05,24,128,38*66
$GBGSV,5,2,19,16,30,062,42,35,31,309,46,22,32,229,,06,31,066,40*66
$GBGSV,5,3,19,09,32,082,41,32,34,058,46,19,34,241,47,29,61,222,50*6B
$GBGSV,5,4,19,48,63,242,,13,01,087,32,37,00,112,,02,08,105,34*6D
$GBGSV,5,5,19,23,00,022,,57,02,102,,60,09,109,39*5C
$GPGGA,010032.00,,,,,0,00,,,M,,M,,*48
$PTNL,GGK,010032.00,010125,4742.1603145,N,01618.1001435,E,1,36,0.8,EHT751.1541,M*48
$GPGGQ,010032.00,010125,4742.1603145,N,01618.1001435,E,1,36,0.872,707.9476,M*3D
$GPGFA,010032.00,3.630,5.933,0.382,0.302,16.164,0.723,,VVV*33
$GPLLK,010032.00,010125,,M,,M,1,36,0.9,,M*07
$GNGMP,010032.00,,,,,DAAA,36,0.5,,,,*56
$GPGMP,010032.00,,,,,,10,,,,2.8,136*72
$GLGMP,010032.00,,,,,,07,,,,,*78
$GAGMP,010032.00,,,,,,07,,,,,*75
$GBGMP,010032.00,,,,,,12,,,,,*72
$PSSN,SNC,[0,262850000,2347]*4F
$GPZDA,010037.00,01,01,2025,,*66
$GPDTM,W84,,00.0000000,N,00.0000000,E,00.0000000,W84*5F
$PSSN,TFM,010037.00,,,,*6A
$GPRMC,010037.00,A,4742.1603166,N,01618.1001410,E,0.0,,010125,5.1,E,D*13
$GPGLL,4742.1603166,N,01618.1001410,E,010037.00,A,D*62
$GPGGA,010037.00,4742.1603166,N,01618.1001410,E,2,36,0.5,707.9429,M,43.2066,M,2.2,0136*48
$GNGNS,010037.00,4742.1603166,N,01618.1001410,E,DAAA,36,0.5,707.9429,43.2066,,*50
$GPGNS,010037.00,,,,,,10,,,,2.2,136*7D
$GLGNS,010037.00,,,,,,07,,,,,*7D
$GAGNS,010037.00,,,,,,07,,,,,*70
$GBGNS,010037.00,,,,,,12,,,,,*77
$GPLLQ,010037.00,010125,,M,,M,1,36,0.865,,M*1A
$GPVTG,,T,,M,0.00,N,0.01,K,D*27
$GPHDT,,T*1B
$GPTHS,,V*0E
$GPROT,,V*08
$PSSN,HRP,010037.00,010125,,,,,,,00,0,,*64
$PTNL,AVR,010037.00,,Yaw,,Tilt,,,,0,,00*32
$GPGSA,A,3,02,03,04,09,17,19,21,28,31,32,,,0.8,0.5,0.7*30
$GPGSA,A,3,68,69,70,77,78,84,85,,,,,,0.8,0.5,0.7*30
$GPGSA,A,3,04,06,09,10,11,34,36,,,,,,0.8,0.5,0.7*30
$GPGSA,A,3,05,06,09,16,19,20,29,30,32,35,39,60,0.8,0.5,0.7*3C
$GPGST,010037.00,1.536,0.380,0.298,18.111,0.373,0.307,0.717*61
$GPGBS,010037.00,2.142,1.701,4.356,31,0.0001,0.816,0.896*57
$GPGRS,010037.00,1,-0.0,0.1,0.3,-0.7,-0.2,-0.4,0.1,-0.2,0.8,-0.4,,*47
$GPGRS,010037.00,1,4.6,-0.6,-0.3,-3.7,-4.6,-1.3,1.1,,,,,*4B
$GPGRS,010037.00,1,-0.1,-0.1,0.3,0.5,-0.1,-1.0,0.2,,,,,*61
$GPGRS,010037.00,1,0.6,0.8,0.1,-0.3,0.7,-1.3,0.7,0.4,0.5,-0.6,-0.7,-1.1*68
$GPGSV,5,1,20,03,72,300,50,09,11,214,39,32,13,045,40,19,22,316,41*74
$GPGSV,5,2,20,31,25,104,44,04,36,201,45,28,27,073,44,21,45,143,44*70
$GPGSV,5,3,20,17,39,287,46,02,65,152,49,01,70,136,,36,35,170,45*72
$GPGSV,5,4,20,58,13,245,37,40,24,132,36,34,31,208,42,49,34,195,44*7B
$GPGSV,5,5,20,57,09,109,38,41,07,108,34,61,03,257,37*4F
$GLGSV,3,1,09,69,67,030,51,85,57,317,52,68,17,043,46,70,41,236,39*68
$GLGSV,3,2,09,84,63,160,40,83,01,150,,78,07,054,43,77,07,000,37*64
$GLGSV,3,3,09,86,04,326,43*56
$GAGSV,3,1,11,06,69,146,48,19,10,041,32,12,13,128,34,10,36,128,44*63
$GAGSV,3,2,11,09,52,188,47,04,62,077,47,36,61,306,47,11,65,129,44*6B
$GAGSV,3,3,11,30,04,316,36,34,09,307,38,05,04,211,35*5A
$GBGSV,5,1,19,20,86,270,52,30,20,166,43,39,28,051,43,05,24,128,38*6E
$GBGSV,5,2,19,16,30,062,42,35,31,309,46,22,32,229,,06,31,066,41*67
$GBGSV,5,3,19,09,32,082,41,32,34,058,46,19,35,241,47,29,61,222,50*6A
$GBGSV,5,4,19,48,63,242,,13,01,087,31,37,00,112,,02,08,105,34*6E
$GBGSV,5,5,19,23,00,022,,57,02,102,,60,09,109,39*5C
$GPGGA,010037.00,,,,,0,00,,,M,,M,,*4D
$PTNL,GGK,010037.00,010125,4742.1603166,N,01618.1001410,E,1,36,0.8,EHT751.1495,M*43
$GPGGQ,010037.00,010125,4742.1603166,N,01618.1001410,E,1,36,0.865,707.9429,M*32
$GPGFA,010037.00,3.612,5.881,0.380,0.298,18.111,0.717,,VVV*35
$GPLLK,010037.00,010125,,M,,M,1,36,0.9,,M*02
$GNGMP,010037.00,,,,,DAAA,36,0.5,,,,*53
$GPGMP,010037.00,,,,,,10,,,,2.2,136*7D
$GLGMP,010037.00,,,,,,07,,,,,*7D
$GAGMP,010037.00,,,,,,07,,,,,*70
$GBGMP,010037.00,,,,,,12,,,,,*77
$PSSN,SNC,[0,262855000,2347]*4A
$GPZDA,010042.00,01,01,2025,,*64
$GPDTM,W84,,00.0000000,N,00.0000000,E,00.0000000,W84*5F
$PSSN,TFM,010042.00,,,,*68
$GPRMC,010042.00,A,4742.1603178,N,01618.1001380,E,0.0,,010125,5.1,E,D*10
$GPGLL,4742.1603178,N,01618.1001380,E,010042.00,A,D*61
$GPGGA,010042.00,4742.1603178,N,01618.1001380,E,2,36,0.5,707.9407,M,43.2066,M,2.0,0136*45
$GNGNS,010042.00,4742.1603178,N,01618.1001380,E,DAAA,36,0.5,707.9407,43.2066,,*5F
$GPGNS,010042.00,,,,,,10,,,,2.0,136*7D
$GLGNS,010042.00,,,,,,07,,,,,*7F
$GAGNS,010042.00,,,,,,07,,,,,*72
$GBGNS,010042.00,,,,,,12,,,,,*75
$GPLLQ,010042.00,010125,,M,,M,1,36,0.850,,M*1E
$GPVTG,,T,,M,0.00,N,0.01,K,D*27
$GPHDT,,T*1B
$GPTHS,,V*0E
$GPROT,,V*08
$PSSN,HRP,010042.00,010125,,,,,,,00,0,,*66
$PTNL,AVR,010042.00,,Yaw,,Tilt,,,,0,,00*30
$GPGSA,A,3,02,03,04,09,17,19,21,28,31,32,,,0.8,0.5,0.7*30
$GPGSA,A,3,68,69,70,77,78,84,85,,,,,,0.8,0.5,0.7*30
$GPGSA,A,3,04,06,09,10,11,34,36,,,,,,0.8,0.5,0.7*30
$GPGSA,A,3,05,06,09,16,19,20,29,30,32,35,39,60,0.8,0.5,0.7*3C
$GPGST,010042.00,1.658,0.375,0.299,17.109,0.369,0.306,0.702*6B
$GPGBS,010042.00,2.138,1.677,4.407,78,0.0001,-5.148,7.155*7D
$GPGRS,010042.00,1,-0.2,-0.2,0.4,-0.7,0.3,0.0,-0.1,0.1,0.6,-0.5,,*67
$GPGRS,010042.00,1,4.1,-0.7,0.4,-4.9,-5.1,-0.4,0.7,,,,,*6B
$GPGRS,010042.00,1,-0.2,-0.2,0.1,0.4,-0.4,-1.1,0.3,,,,,*65
$GPGRS,010042.00,1,0.3,1.2,-0.7,-0.4,0.5,-1.6,0.6,0.4,0.3,-0.5,-0.8,-1.2*47
$GPGSV,5,1,20,03,72,300,50,09,11,214,38,32,13,045,39,19,22,316,41*7B
$GPGSV,5,2,20,31,25,104,44,04,36,201,45,28,27,073,44,21,45,143,44*70
$GPGSV,5,3,20,17,39,287,45,02,65,152,49,01,70,136,,36,35,170,45*71
$GPGSV,5,4,20,58,13,245,37,40,24,132,36,34,31,208,42,49,34,195,44*7B
$GPGSV,5,5,20,57,09,109,38,41,07,108,34,61,03,257,37*4F
$GLGSV,3,1,09,69,67,030,51,85,57,317,52,68,17,043,46,70,41,236,39*68
$GLGSV,3,2,09,84,63,160,40,83,01,150,,78,07,054,43,77,07,000,38*6B
$GLGSV,3,3,09,86,04,326,44*51
$GAGSV,3,1,11,06,69,146,48,19,10,041,33,12,13,128,34,10,36,128,44*62
$GAGSV,3,2,11,09,52,188,47,04,62,077,47,36,61,306,47,11,65,129,44*6B
$GAGSV,3,3,11,30,04,316,36,34,09,307,38,05,04,211,36*59
$GBGSV,5,1,19,20,86,270,52,30,20,166,43,39,28,051,43,05,24,128,38*6E
$GBGSV,5,2,19,16,30,062,42,35,31,309,46,22,32,229,,06,31,066,41*67
$GBGSV,5,3,19,09,32,082,41,32,34,058,46,19,35,241,47,29,61,222,50*6A
$GBGSV,5,4,19,48,63,242,,13,01,087,31,37,00,112,,02,08,105,34*6E
$GBGSV,5,5,19,23,00,022,,57,01,102,,60,09,109,39*5F
$GPGGA,010042.00,,,,,0,00,,,M,,M,,*4F
$PTNL,GGK,010042.00,010125,4742.1603178,N,01618.1001380,E,1,36,0.8,EHT751.1472,M*49
$GPGGQ,010042.00,010125,4742.1603178,N,01618.1001380,E,1,36,0.850,707.9407,M*3B
$GPGFA,010042.00,3.562,5.759,0.375,0.299,17.109,0.702,,VVV*30
$GPLLK,010042.00,010125,,M,,M,1,36,0.9,,M*00
$GNGMP,010042.00,,,,,DAAA,36,0.5,,,,*51
$GPGMP,010042.00,,,,,,10,,,,2.0,136*7D
$GLGMP,010042.00,,,,,,07,,,,,*7F
$GAGMP,010042.00,,,,,,07,,,,,*72
$GBGMP,010042.00,,,,,,12,,,,,*75
$PSSN,SNC,[0,262860000,2347]*4C
$GPZDA,010047.00,01,01,2025,,*61
$GPDTM,W84,,00.0000000,N,00.0000000,E,00.0000000,W84*5F
$PSSN,TFM,010047.00,,,,*6D
$GPRMC,010047.00,A,4742.1603168,N,01618.1001364,E,0.0,,010125,5.1,E,D*1E
$GPGLL,4742.1603168,N,01618.1001364,E,010047.00,A,D*6F
$GPGGA,010047.00,4742.1603168,N,01618.1001364,E,2,36,0.5,707.9413,M,43.2066,M,3.0,0136*4F
$GNGNS,010047.00,4742.1603168,N,01618.1001364,E,DAAA,36,0.5,707.9413,43.2066,,*54
$GPGNS,010047.00,,,,,,10,,,,3.0,136*79
$GLGNS,010047.00,,,,,,07,,,,,*7A
$GAGNS,010047.00,,,,,,07,,,,,*77
$GBGNS,010047.00,,,,,,12,,,,,*70
$GPLLQ,010047.00,010125,,M,,M,1,36,0.861,,M*19
$GPVTG,,T,,M,0.00,N,0.00,K,D*26
$GPHDT,,T*1B
$GPTHS,,V*0E
$GPROT,,V*08
$PSSN,HRP,010047.00,010125,,,,,,,00,0,,*63
$PTNL,AVR,010047.00,,Yaw,,Tilt,,,,0,,00*35
$GPGSA,A,3,02,03,04,09,17,19,21,28,31,32,,,0.8,0.5,0.7*30
$GPGSA,A,3,68,69,70,77,78,84,85,,,,,,0.8,0.5,0.7*30
$GPGSA,A,3,04,06,09,10,11,34,36,,,,,,0.8,0.5,0.7*30
$GPGSA,A,3,05,06,09,16,19,20,29,30,32,35,39,60,0.8,0.5,0.7*3C
$GPGST,010047.00,1.451,0.378,0.301,14.737,0.373,0.307,0.713*6A
$GPGBS,010047.00,2.157,1.697,4.485,09,0.0001,-1.028,1.103*75
$GPGRS,010047.00,1,-0.1,0.1,0.5,-1.0,-0.2,0.6,-0.1,-0.3,0.0,0.0,,*63
$GPGRS,010047.00,1,3.4,-0.3,-0.4,-3.8,-4.7,0.4,1.0,,,,,*6F
$GPGRS,010047.00,1,-0.2,0.2,0.3,0.4,-0.2,-1.1,0.2,,,,,*48
$GPGRS,010047.00,1,1.0,1.2,0.0,-0.4,0.5,-1.3,0.5,0.8,0.6,-0.1,-0.8,-1.1*62
$GPGSV,5,1,20,03,72,300,50,09,11,214,38,32,13,045,39,19,22,316,41*7B
$GPGSV,5,2,20,31,25,104,44,04,36,202,45,28,27,073,43,21,45,143,44*74
$GPGSV,5,3,20,17,39,287,45,02,65,152,49,01,70,137,,36,35,170,45*70
$GPGSV,5,4,20,58,13,245,37,40,24,132,36,34,31,208,42,49,34,195,44*7B
$GPGSV,5,5,20,57,09,109,38,41,07,108,34,61,03,257,37*4F
$GLGSV,3,1,09,69,67,030,52,85,57,317,52,68,17,043,45,70,41,236,39*68
$GLGSV,3,2,09,84,63,160,41,83,01,150,,78,07,054,44,77,07,000,37*62
$GLGSV,3,3,09,86,04,326,44*51
$GAGSV,3,1,11,06,69,146,48,19,10,041,33,12,13,128,35,10,36,128,44*63
$GAGSV,3,2,11,09,52,188,47,04,62,076,47,36,61,306,47,11,65,129,44*6A
$GAGSV,3,3,11,30,04,316,35,34,09,307,37,05,04,211,36*55
$GBGSV,5,1,19,20,86,270,52,30,20,166,43,39,28,051,43,05,24,128,38*6E
$GBGSV,5,2,19,16,30,062,42,35,31,309,46,22,32,229,,06,31,066,41*67
$GBGSV,5,3,19,09,32,082,41,32,34,058,46,19,35,241,47,29,61,222,50*6A
$GBGSV,5,4,19,48,63,242,,13,01,087,31,37,00,112,,02,08,105,34*6E
$GBGSV,5,5,19,23,00,022,,57,01,102,,60,09,109,39*5F
$GPGGA,010047.00,,,,,0,00,,,M,,M,,*4A
$PTNL,GGK,010047.00,010125,4742.1603168,N,01618.1001364,E,1,36,0.8,EHT751.1479,M*4C
$GPGGQ,010047.00,010125,4742.1603168,N,01618.1001364,E,1,36,0.861,707.9413,M*32
$GPGFA,010047.00,3.591,5.844,0.378,0.301,14.737,0.713,,VVV*3F
$GPLLK,010047.00,010125,,M,,M,1,36,0.9,,M*05
$GNGMP,010047.00,,,,,DAAA,36,0.5,,,,*54
$GPGMP,010047.00,,,,,,10,,,,3.0,136*79
$GLGMP,010047.00,,,,,,07,,,,,*7A
$GAGMP,010047.00,,,,,,07,,,,,*77
$GBGMP,010047.00,,,,,,12,,,,,*70
$PSSN,SNC,[0,262865000,2347]*49
$GPZDA,010052.00,01,01,2025,,*65
$GPDTM,W84,,00.0000000,N,00.0000000,E,00.0000000,W84*5F
$PSSN,TFM,010052.00,,,,*69
$GPRMC,010052.00,A,4742.1603173,N,01618.1001395,E,0.0,,010125,5.1,E,D*1E
$GPGLL,4742.1603173,N,01618.1001395,E,010052.00,A,D*6F
$GPGGA,010052.00,4742.1603173,N,01618.1001395,E,2,36,0.5,707.9320,M,43.2066,M,2.8,0136*41
$GNGNS,010052.00,4742.1603173,N,01618.1001395,E,DAAA,36,0.5,707.9320,43.2066,,*53
$GPGNS,010052.00,,,,,,10,,,,2.8,136*74
$GLGNS,010052.00,,,,,,07,,,,,*7E
$GAGNS,010052.00,,,,,,07,,,,,*73
$GBGNS,010052.00,,,,,,12,,,,,*74
$GPLLQ,010052.00,010125,,M,,M,1,36,0.869,,M*15
$GPVTG,,T,,M,0.00,N,0.01,K,D*27
$GPHDT,,T*1B
$GPTHS,,V*0E
$GPROT,,V*08
$PSSN,HRP,010052.00,010125,,,,,,,00,0,,*67
$PTNL,AVR,010052.00,,Yaw,,Tilt,,,,0,,00*31
$GPGSA,A,3,02,03,04,09,17,19,21,28,31,32,,,0.8,0.5,0.7*30
$GPGSA,A,3,68,69,70,77,78,84,85,,,,,,0.8,0.5,0.7*30
$GPGSA,A,3,04,06,09,10,11,34,36,,,,,,0.8,0.5,0.7*30
$GPGSA,A,3,05,06,09,16,19,20,29,30,32,35,39,60,0.8,0.5,0.7*3C
$GPGST,010052.00,1.515,0.376,0.302,15.541,0.371,0.307,0.723*61
$GPGBS,010052.00,2.173,1.691,4.566,04,0.0001,0.534,0.727*55
$GPGRS,010052.00,1,-0.0,0.1,0.5,-0.5,-0.0,0.0,-0.1,-0.3,0.1,-0.3,,*49
$GPGRS,010052.00,1,3.6,0.1,0.5,-5.0,-4.6,0.4,0.7,,,,,*63
$GPGRS,010052.00,1,-0.2,0.1,0.4,0.2,-0.3,-0.7,0.1,,,,,*4B
$GPGRS,010052.00,1,0.8,-0.1,0.3,0.2,-0.1,-1.4,0.6,1.0,0.7,-0.4,-0.6,-0.9*4F
$GPGSV,5,1,20,03,72,300,50,09,11,214,38,32,13,045,38,19,22,316,42*79
$GPGSV,5,2,20,31,25,104,44,04,36,202,45,28,27,073,43,21,45,143,44*74
$GPGSV,5,3,20,17,39,287,46,02,65,152,49,01,70,137,,36,35,170,45*73
$GPGSV,5,4,20,58,13,245,37,40,24,132,36,34,31,208,42,49,34,195,44*7B
$GPGSV,5,5,20,57,09,109,38,41,07,108,34,61,03,257,37*4F
$GLGSV,3,1,09,69,67,030,52,85,57,317,52,68,17,043,45,70,41,236,39*68
$GLGSV,3,2,09,84,63,160,40,83,01,150,,78,07,054,44,77,07,000,38*6C
$GLGSV,3,3,09,86,04,326,42*57
$GAGSV,3,1,11,06,69,146,48,19,10,041,32,12,13,128,35,10,36,128,43*65
$GAGSV,3,2,11,09,52,188,47,04,62,076,47,36,61,306,47,11,65,129,44*6A
$GAGSV,3,3,11,30,04,316,35,34,10,307,38,05,05,211,35*50
$GBGSV,5,1,19,20,86,271,52,30,20,166,42,39,28,051,43,05,24,128,38*6E
$GBGSV,5,2,19,16,30,062,42,35,31,309,46,22,32,229,,06,31,066,41*67
$GBGSV,5,3,19,09,32,082,41,32,34,058,46,19,35,241,47,29,61,222,50*6A
$GBGSV,5,4,19,48,63,242,,13,01,087,32,37,00,112,,02,08,105,34*6D
$GBGSV,5,5,19,23,00,022,,57,01,102,,60,09,109,39*5F
$GPGGA,010052.00,,,,,0,00,,,M,,M,,*4E
$PTNL,GGK,010052.00,010125,4742.1603173,N,01618.1001395,E,1,36,0.8,EHT751.1386,M*4B
$GPGGQ,010052.00,010125,4742.1603173,N,01618.1001395,E,1,36,0.869,707.9320,M*3D
$GPGFA,010052.00,3.573,5.932,0.376,0.302,15.541,0.723,,VVV*3B
$GPLLK,010052.00,010125,,M,,M,1,36,0.9,,M*01
$GNGMP,010052.00,,,,,DAAA,36,0.5,,,,*50
$GPGMP,010052.00,,,,,,10,,,,2.8,136*74
$GLGMP,010052.00,,,,,,07,,,,,*7E
$GAGMP,010052.00,,,,,,07,,,,,*73
$GBGMP,010052.00,,,,,,12,,,,,*74
$PSSN,SNC,[0,262870000,2347]*4D
$GPZDA,010057.00,01,01,2025,,*60
$GPDTM,W84,,00.0000000,N,00.0000000,E,00.0000000,W84*5F
$PSSN,TFM,010057.00,,,,*6C
$GPRMC,010057.00,A,4742.1603180,N,01618.1001445,E,0.0,,010125,5.1,E,D*1D
$GPGLL,4742.1603180,N,01618.1001445,E,010057.00,A,D*6C
$GPGGA,010057.00,4742.1603180,N,01618.1001445,E,2,36,0.5,707.9376,M,43.2066,M,2.2,0136*4B
$GNGNS,010057.00,4742.1603180,N,01618.1001445,E,DAAA,36,0.5,707.9376,43.2066,,*53
$GPGNS,010057.00,,,,,,10,,,,2.2,136*7B
$GLGNS,010057.00,,,,,,07,,,,,*7B
$GAGNS,010057.00,,,,,,07,,,,,*76
$GBGNS,010057.00,,,,,,12,,,,,*71
$GPLLQ,010057.00,010125,,M,,M,1,36,0.857,,M*1D
$GPVTG,,T,,M,0.00,N,0.01,K,D*27
$GPHDT,,T*1B
$GPTHS,,V*0E
$GPROT,,V*08
$PSSN,HRP,010057.00,010125,,,,,,,00,0,,*62
$PTNL,AVR,010057.00,,Yaw,,Tilt,,,,0,,00*34
$GPGSA,A,3,02,03,04,09,17,19,21,28,31,32,,,0.8,0.5,0.7*30
$GPGSA,A,3,68,69,70,77,78,84,85,,,,,,0.8,0.5,0.7*30
$GPGSA,A,3,04,06,09,10,11,34,36,,,,,,0.8,0.5,0.7*30
$GPGSA,A,3,05,06,09,16,19,20,29,30,32,35,39,60,0.8,0.5,0.7*3C
$GPGST,010057.00,1.587,0.373,0.297,18.139,0.366,0.305,0.713*66
$GPGBS,010057.00,2.156,1.682,4.338,68,0.0001,5.187,6.485*56
$GPGRS,010057.00,1,-0.3,-0.3,0.4,-0.6,0.5,0.5,0.1,-0.6,0.3,0.1,,*4A
$GPGRS,010057.00,1,5.2,-0.6,0.0,-4.3,-4.1,0.0,0.7,,,,,*4A
$GPGRS,010057.00,1,-0.2,-0.1,0.4,0.3,-0.3,-0.6,-0.0,,,,,*4F
$GPGRS,010057.00,1,1.0,-0.3,0.2,0.2,0.2,-1.5,0.6,0.4,0.4,-1.2,-0.7,-1.0*67
$GPGSV,5,1,20,03,72,300,50,09,11,214,38,32,13,045,39,19,22,316,42*78
$GPGSV,5,2,20,31,25,104,43,04,36,202,45,28,27,073,44,21,45,143,44*74
$GPGSV,5,3,20,17,39,287,46,02,65,152,49,01,70,137,,36,35,170,44*72
$GPGSV,5,4,20,58,13,245,37,40,24,132,35,34,31,208,42,49,34,195,44*78
$GPGSV,5,5,20,57,09,109,38,41,07,108,34,61,03,257,37*4F
$GLGSV,3,1,09,69,67,030,52,85,57,317,52,68,16,043,45,70,41,236,39*69
$GLGSV,3,2,09,84,63,160,41,83,01,150,,78,07,054,44,77,07,000,37*62
$GLGSV,3,3,09,86,04,326,44*51
$GAGSV,3,1,11,06,69,146,48,19,10,041,32,12,13,128,35,10,36,128,44*62
$GAGSV,3,2,11,09,52,188,47,04,62,076,47,36,61,306,47,11,65,129,44*6A
$GAGSV,3,3,11,30,04,316,34,34,10,307,38,05,05,211,36*52
$GBGSV,5,1,19,20,86,271,52,30,20,166,42,39,28,051,43,05,24,128,38*6E
$GBGSV,5,2,19,16,30,062,42,35,31,309,46,22,32,229,,06,31,066,40*66
$GBGSV,5,3,19,09,32,082,41,32,34,058,46,19,35,241,47,29,61,222,50*6A
$GBGSV,5,4,19,48,63,242,,13,01,087,32,37,00,112,,02,08,105,34*6D
$GBGSV,5,5,19,23,00,022,,57,01,102,,60,09,109,39*5F
$GPGGA,010057.00,,,,,0,00,,,M,,M,,*4B
$PTNL,GGK,010057.00,010125,4742.1603180,N,01618.1001445,E,1,36,0.8,EHT751.1442,M*47
$GPGGQ,010057.00,010125,4742.1603180,N,01618.1001445,E,1,36,0.857,707.9376,M*30
$GPGFA,010057.00,3.548,5.843,0.373,0.297,18.139,0.713,,VVV*3C
$GPLLK,010057.00,010125,,M,,M,1,36,0.9,,M*04
$GNGMP,010057.00,,,,,DAAA,36,0.5,,,,*55
$GPGMP,010057.00,,,,,,10,,,,2.2,136*7B
$GLGMP,010057.00,,,,,,07,,,,,*7B
$GAGMP,010057.00,,,,,,07,,,,,*76
$GBGMP,010057.00,,,,,,12,,,,,*71
$PSSN,SNC,[0,262875000,2347]*48
$GPZDA,010102.00,01,01,2025,,*61
$GPDTM,W84,,00.0000000,N,00.0000000,E,00.0000000,W84*5F
$PSSN,TFM,010102.00,,,,*6D
$GPRMC,010102.00,A,4742.1603197,N,01618.1001482,E,0.0,,010125,5.1,E,D*11
$GPGLL,4742.1603197,N,01618.1001482,E,010102.00,A,D*60
$GPGGA,010102.00,4742.1603197,N,01618.1001482,E,2,36,0.5,707.9382,M,43.2066,M,2.0,0136*4E
$GNGNS,010102.00,4742.1603197,N,01618.1001482,E,DAAA,36,0.5,707.9382,43.2066,,*54
$GPGNS,010102.00,,,,,,10,,,,2.0,136*78
$GLGNS,010102.00,,,,,,07,,,,,*7A
$GAGNS,010102.00,,,,,,07,,,,,*77
$GBGNS,010102.00,,,,,,12,,,,,*70
$GPLLQ,010102.00,010125,,M,,M,1,36,0.843,,M*19
$GPVTG,,T,,M,0.00,N,0.00,K,D*26
$GPHDT,,T*1B
$GPTHS,,V*0E
$GPROT,,V*08
$PSSN,HRP,010102.00,010125,,,,,,,00,0,,*63
$PTNL,AVR,010102.00,,Yaw,,Tilt,,,,0,,00*35
$GPGSA,A,3,02,03,04,09,17,19,21,28,31,32,,,0.8,0.5,0.7*30
$GPGSA,A,3,68,69,70,77,78,84,85,,,,,,0.8,0.5,0.7*30
$GPGSA,A,3,04,06,09,10,11,34,36,,,,,,0.8,0.5,0.7*30
$GPGSA,A,3,05,06,09,16,19,20,29,30,32,35,39,60,0.8,0.5,0.7*3C
$GPGST,010102.00,1.705,0.368,0.298,16.976,0.362,0.304,0.697*6F
$GPGBS,010102.00,2.149,1.659,4.387,68,0.0001,5.549,6.487*5F
$GPGRS,010102.00,1,-0.2,-0.0,0.4,-0.3,0.0,-0.5,0.1,-0.4,0.0,0.3,,*67
$GPGRS,010102.00,1,5.5,-0.4,0.7,-5.2,-4.2,0.1,0.8,,,,,*44
$GPGRS,010102.00,1,0.0,0.0,0.4,0.5,-0.1,-0.6,0.1,,,,,*65
$GPGRS,010102.00,1,0.9,-0.5,0.3,0.2,0.4,-1.2,0.6,0.4,0.4,-0.6,-0.6,-1.2*6E
$GPGSV,5,1,20,03,72,300,50,09,11,214,39,32,13,045,40,19,22,316,42*77
$GPGSV,5,2,20,31,25,104,43,04,36,202,45,28,27,073,43,21,45,143,44*73
$GPGSV,5,3,20,17,39,287,46,02,65,152,49,01,70,137,,36,35,170,44*72
$GPGSV,5,4,20,58,13,245,37,40,24,132,36,34,31,208,42,49,34,195,43*7C
$GPGSV,5,5,20,57,09,109,38,41,07,108,34,61,03,257,37*4F
$GLGSV,3,1,09,69,67,030,52,85,57,317,52,68,16,043,45,70,41,236,38*68
$GLGSV,3,2,09,84,63,160,41,83,01,150,,78,07,054,43,77,07,000,38*6A
$GLGSV,3,3,09,86,04,326,43*56
$GAGSV,3,1,11,06,69,146,48,19,10,041,32,12,13,128,35,10,36,128,44*62
$GAGSV,3,2,11,09,52,188,47,04,62,076,47,36,61,306,47,11,65,129,44*6A
$GAGSV,3,3,11,30,04,316,35,34,10,307,38,05,05,211,36*53
$GBGSV,5,1,19,20,86,272,52,30,20,166,42,39,28,051,43,05,24,128,38*6D
$GBGSV,5,2,19,16,30,062,42,35,31,309,46,22,32,229,,06,31,066,40*66
$GBGSV,5,3,19,09,32,082,41,32,34,058,46,19,35,241,47,29,61,222,50*6A
$GBGSV,5,4,19,48,63,242,,13,01,087,33,37,00,112,,02,08,105,34*6C
$GBGSV,5,5,19,23,00,022,,57,01,102,,60,09,109,40*51
$GPGGA,010102.00,,,,,0,00,,,M,,M,,*4A
$PTNL,GGK,010102.00,010125,4742.1603197,N,01618.1001482,E,1,36,0.8,EHT751.1447,M*4E
$GPGGQ,010102.00,010125,4742.1603197,N,01618.1001482,E,1,36,0.843,707.9382,M*32
$GPGFA,010102.00,3.494,5.718,0.368,0.298,16.976,0.697,,VVV*39
$GPLLK,010102.00,010125,,M,,M,1,36,0.9,,M*05
$GNGMP,010102.00,,,,,DAAA,36,0.5,,,,*54
$GPGMP,010102.00,,,,,,10,,,,2.0,136*78
$GLGMP,010102.00,,,,,,07,,,,,*7A
$GAGMP,010102.00,,,,,,07,,,,,*77
$GBGMP,010102.00,,,,,,12,,,,,*70
$PSSN,SNC,[0,262880000,2347]*42
$GPZDA,010107.00,01,01,2025,,*64
$GPDTM,W84,,00.0000000,N,00.0000000,E,00.0000000,W84*5F
$PSSN,TFM,010107.00,,,,*68
$GPRMC,010107.00,A,4742.1603218,N,01618.1001475,E,0.0,,010125,5.1,E,D*18
$GPGLL,4742.1603218,N,01618.1001475,E,010107.00,A,D*69
$GPGGA,010107.00,4742.1603218,N,01618.1001475,E,2,36,0.5,707.9364,M,43.2066,M,3.0,0136*4E
$GNGNS,010107.00,4742.1603218,N,01618.1001475,E,DAAA,36,0.5,707.9364,43.2066,,*55
$GPGNS,010107.00,,,,,,10,,,,3.0,136*7C
$GLGNS,010107.00,,,,,,07,,,,,*7F
$GAGNS,010107.00,,,,,,07,,,,,*72
$GBGNS,010107.00,,,,,,12,,,,,*75
$GPLLQ,010107.00,010125,,M,,M,1,36,0.854,,M*1A
$GPVTG,,T,,M,0.00,N,0.01,K,D*27
$GPHDT,,T*1B
$GPTHS,,V*0E
$GPROT,,V*08
$PSSN,HRP,010107.00,010125,,,,,,,00,0,,*66
$PTNL,AVR,010107.00,,Yaw,,Tilt,,,,0,,00*30
$GPGSA,A,3,02,03,04,09,17,19,21,28,31,32,,,0.8,0.5,0.7*30
$GPGSA,A,3,68,69,70,77,78,84,85,,,,,,0.8,0.5,0.7*30
$GPGSA,A,3,04,06,09,10,11,34,36,,,,,,0.8,0.5,0.7*30
$GPGSA,A,3,05,06,09,16,19,20,29,30,32,35,39,60,0.8,0.5,0.7*3C
$GPGST,010107.00,1.506,0.371,0.300,14.409,0.367,0.305,0.708*67
$GPGBS,010107.00,2.169,1.678,4.469,68,0.0001,4.519,6.489*56
$GPGRS,010107.00,1,-0.1,-0.0,0.4,-0.2,-0.1,0.1,-0.0,-0.4,0.2,0.4,,*4C
$GPGRS,010107.00,1,4.5,-0.2,-0.3,-4.0,-4.7,-0.0,0.7,,,,,*4A
$GPGRS,010107.00,1,0.1,0.1,0.5,0.5,-0.2,-0.7,0.2,,,,,*60
$GPGRS,010107.00,1,0.9,-0.4,0.9,0.1,0.5,-1.2,0.5,0.2,0.3,-0.5,-0.5,-0.9*6A
$GPGSV,5,1,20,03,72,301,50,09,11,214,38,32,13,045,40,19,22,316,41*74
$GPGSV,5,2,20,31,25,104,43,04,36,202,45,28,27,073,43,21,45,143,44*73
$GPGSV,5,3,20,17,39,287,46,02,65,152,49,01,70,137,,36,35,170,44*72
$GPGSV,5,4,20,58,13,245,37,40,24,132,36,34,31,208,42,49,34,195,44*7B
$GPGSV,5,5,20,57,09,109,38,41,07,108,34,61,03,257,37*4F
$GLGSV,3,1,09,69,66,030,52,85,57,317,52,68,16,043,45,70,41,236,39*68
$GLGSV,3,2,09,84,63,160,40,83,01,150,,78,07,054,43,77,07,000,37*64
$GLGSV,3,3,09,86,04,326,43*56
$GAGSV,3,1,11,06,69,146,48,19,10,041,32,12,13,128,34,10,36,128,43*64
$GAGSV,3,2,11,09,52,188,47,04,61,076,47,36,61,306,47,11,65,129,44*69
$GAGSV,3,3,11,30,04,316,36,34,10,307,38,05,05,211,36*50
$GBGSV,5,1,19,20,86,272,52,30,20,166,42,39,28,051,43,05,24,128,38*6D
$GBGSV,5,2,19,16,30,062,43,35,32,309,46,22,32,229,,06,31,066,41*65
$GBGSV,5,3,19,09,32,082,41,32,34,058,47,19,35,241,47,29,61,222,50*6B
$GBGSV,5,4,19,48,63,242,,13,01,087,32,37,00,112,,02,08,105,34*6D
$GBGSV,5,5,19,23,00,022,,57,01,102,,60,09,109,40*51
$GPGGA,010107.00,,,,,0,00,,,M,,M,,*4F
$PTNL,GGK,010107.00,010125,4742.1603218,N,01618.1001475,E,1,36,0.8,EHT751.1430,M*47
$GPGGQ,010107.00,010125,4742.1603218,N,01618.1001475,E,1,36,0.854,707.9364,M*35
$GPGFA,010107.00,3.526,5.804,0.371,0.300,14.409,0.708,,VVV*3E
$GPLLK,010107.00,010125,,M,,M,1,36,0.9,,M*00
$GNGMP,010107.00,,,,,DAAA,36,0.5,,,,*51
$GPGMP,010107.00,,,,,,10,,,,3.0,136*7C
$GLGMP,010107.00,,,,,,07,,,,,*7F
$GAGMP,010107.00,,,,,,07,,,,,*72
$GBGMP,010107.00,,,,,,12,,,,,*75
$PSSN,SNC,[0,262885000,2347]*47
$GPZDA,010112.00,01,01,2025,,*60
$GPDTM,W84,,00.0000000,N,00.0000000,E,00.0000000,W84*5F
$PSSN,TFM,010112.00,,,,*6C
$GPRMC,010112.00,A,4742.1603247,N,01618.1001496,E,0.0,,010125,5.1,E,D*1B
$GPGLL,4742.1603247,N,01618.1001496,E,010112.00,A,D*6A
$GPGGA,010112.00,4742.1603247,N,01618.1001496,E,2,36,0.5,707.9384,M,43.2066,M,2.8,0136*4A
$GNGNS,010112.00,4742.1603247,N,01618.1001496,E,DAAA,36,0.5,707.9384,43.2066,,*58
$GPGNS,010112.00,,,,,,10,,,,2.8,136*71
$GLGNS,010112.00,,,,,,07,,,,,*7B
$GAGNS,010112.00,,,,,,07,,,,,*76
$GBGNS,010112.00,,,,,,12,,,,,*71
$GPLLQ,010112.00,010125,,M,,M,1,36,0.866,,M*1F
$GPVTG,,T,,M,0.00,N,0.01,K,D*27
$GPHDT,,T*1B
$GPTHS,,V*0E
$GPROT,,V*08
$PSSN,HRP,010112.00,010125,,,,,,,00,0,,*62
$PTNL,AVR,010112.00,,Yaw,,Tilt,,,,0,,00*34
$GPGSA,A,3,02,03,04,09,17,19,21,28,31,32,,,0.8,0.5,0.7*30
$GPGSA,A,3,68,69,70,77,78,84,85,,,,,,0.8,0.5,0.7*30
$GPGSA,A,3,04,06,09,10,11,34,36,,,,,,0.8,0.5,0.7*30
$GPGSA,A,3,05,06,09,16,19,20,29,30,32,35,39,60,0.8,0.5,0.7*3C
$GPGST,010112.00,1.435,0.375,0.301,15.945,0.370,0.307,0.721*6C
$GPGBS,010112.00,2.158,1.686,4.598,78,0.0001,-4.953,7.148*79
$GPGRS,010112.00,1,-0.1,0.0,0.5,-0.5,0.2,-0.2,-0.0,-0.6,0.1,-0.4,,*4F
$GPGRS,010112.00,1,4.0,-0.5,-0.4,-3.3,-5.0,-0.5,1.0,,,,,*4A
$GPGRS,010112.00,1,0.0,0.0,0.3,0.4,-0.0,-0.6,0.2,,,,,*60
$GPGRS,010112.00,1,0.5,0.2,0.9,0.2,0.5,-1.3,0.5,0.2,0.5,-0.7,-0.4,-0.8*4F
$GPGSV,5,1,20,03,72,301,50,09,11,214,37,32,13,045,41,19,22,316,41*7A
$GPGSV,5,2,20,31,25,104,44,04,36,202,45,28,27,073,43,21,45,143,44*74
$GPGSV,5,3,20,17,39,286,46,02,65,152,49,01,70,137,,36,35,170,44*73
$GPGSV,5,4,20,58,13,245,37,40,24,132,35,34,31,208,42,49,34,195,44*78
$GPGSV,5,5,20,57,09,109,38,41,07,108,34,61,03,257,37*4F
$GLGSV,3,1,09,69,66,030,52,85,57,317,52,68,16,043,44,70,41,236,39*69
$GLGSV,3,2,09,84,62,160,40,83,01,150,,78,07,054,43,77,07,000,37*65
$GLGSV,3,3,09,86,04,326,44*51
$GAGSV,3,1,11,06,69,146,48,19,10,041,32,12,13,128,34,10,36,128,43*64
$GAGSV,3,2,11,09,52,188,47,04,61,076,47,36,61,306,47,11,65,129,44*69
$GAGSV,3,3,11,30,04,316,36,34,10,307,37,05,05,211,36*5F
$GBGSV,5,1,19,20,86,272,52,30,20,166,42,39,28,051,43,05,24,128,38*6D
$GBGSV,5,2,19,16,30,062,42,35,32,309,46,22,32,229,,06,31,066,40*65
$GBGSV,5,3,19,09,32,082,41,32,34,058,47,19,35,241,47,29,61,222,50*6B
$GBGSV,5,4,19,48,63,242,,13,01,087,32,37,00,112,,02,08,105,34*6D
$GBGSV,5,5,19,23,00,022,,57,01,102,,60,09,109,40*51
$GPGGA,010112.00,,,,,0,00,,,M,,M,,*4B
$PTNL,GGK,010112.00,010125,4742.1603247,N,01618.1001496,E,1,36,0.8,EHT751.1449,M*4A
$GPGGQ,010112.00,010125,4742.1603247,N,01618.1001496,E,1,36,0.866,707.9384,M*39
$GPGFA,010112.00,3.567,5.909,0.375,0.301,15.945,0.721,,VVV*39
$GPLLK,010112.00,010125,,M,,M,1,36,0.9,,M*04
$GNGMP,010112.00,,,,,DAAA,36,0.5,,,,*55
$GPGMP,010112.00,,,,,,10,,,,2.8,136*71
$GLGMP,010112.00,,,,,,07,,,,,*7B
$GAGMP,010112.00,,,,,,07,,,,,*76
$GBGMP,010112.00,,,,,,12,,,,,*71
$PSSN,SNC,[0,262890000,2347]*43
$GPZDA,010117.00,01,01,2025,,*65
$GPDTM,W84,,00.0000000,N,00.0000000,E,00.0000000,W84*5F
$PSSN,TFM,010117.00,,,,*69
$GPRMC,010117.00,A,4742.1603259,N,01618.1001509,E,0.0,,010125,5.1,E,D*16
$GPGLL,4742.1603259,N,01618.1001509,E,010117.00,A,D*67
$GPGGA,010117.00,4742.1603259,N,01618.1001509,E,2,36,0.5,707.9330,M,43.2066,M,2.2,0136*42
$GNGNS,010117.00,4742.1603259,N,01618.1001509,E,DAAA,36,0.5,707.9330,43.2066,,*5A
$GPGNS,010117.00,,,,,,10,,,,2.2,136*7E
$GLGNS,010117.00,,,,,,07,,,,,*7E
$GAGNS,010117.00,,,,,,07,,,,,*73
$GBGNS,010117.00,,,,,,12,,,,,*74
$GPLLQ,010117.00,010125,,M,,M,1,36,0.859,,M*16
$GPVTG,,T,,M,0.00,N,0.00,K,D*26
$GPHDT,,T*1B
$GPTHS,,V*0E
$GPROT,,V*08
$PSSN,HRP,010117.00,010125,,,,,,,00,0,,*67
$PTNL,AVR,010117.00,,Yaw,,Tilt,,,,0,,00*31
$GPGSA,A,3,02,03,04,09,17,19,21,28,31,32,,,0.8,0.5,0.7*30
$GPGSA,A,3,68,69,70,77,78,84,85,,,,,,0.8,0.5,0.7*30
$GPGSA,A,3,04,06,09,10,11,34,36,,,,,,0.8,0.5,0.7*30
$GPGSA,A,3,05,06,09,16,19,20,29,30,32,35,39,60,0.8,0.5,0.7*3C
$GPGST,010117.00,1.527,0.373,0.297,18.106,0.366,0.305,0.714*62
$GPGBS,010117.00,2.149,1.680,4.368,68,0.0001,4.660,6.493*52
$GPGRS,010117.00,1,-0.2,0.1,0.1,-0.7,-0.2,0.2,0.2,0.1,0.5,-0.4,,*4F
$GPGRS,010117.00,1,4.7,-0.5,0.4,-4.0,-4.4,-0.5,1.2,,,,,*66
$GPGRS,010117.00,1,-0.3,-0.0,0.3,0.6,0.2,-0.3,0.2,,,,,*4E
$GPGRS,010117.00,1,0.8,0.7,0.8,0.1,0.0,-1.4,0.6,0.4,0.6,-0.8,-0.7,-0.9*49
$GPGSV,5,1,20,03,72,301,50,09,11,214,37,32,13,045,41,19,22,316,41*7A
$GPGSV,5,2,20,31,25,104,44,04,36,202,45,28,27,073,43,21,44,143,44*75
$GPGSV,5,3,20,17,39,286,46,02,65,152,49,01,70,137,,36,35,170,44*73
$GPGSV,5,4,20,58,13,245,37,40,24,132,36,34,31,208,42,49,34,195,43*7C
$GPGSV,5,5,20,57,09,109,38,41,07,108,34,61,03,257,37*4F
$GLGSV,3,1,09,69,66,030,52,85,57,317,52,68,16,043,45,70,41,236,39*68
$GLGSV,3,2,09,84,62,160,40,83,01,150,,78,07,054,43,77,07,000,37*65
$GLGSV,3,3,09,86,04,326,44*51
$GAGSV,3,1,11,06,69,146,48,04,61,076,47,12,13,128,34,09,52,188,47*6C
$GAGSV,3,2,11,10,36,128,43,36,61,306,47,11,65,129,44,19,10,041,32*61
$GAGSV,3,3,11,30,04,316,35,34,10,307,38,05,05,211,36*53
$GBGSV,5,1,19,20,86,273,52,30,20,166,43,39,28,051,43,05,24,128,38*6D
$GBGSV,5,2,19,16,30,062,42,35,32,309,46,22,32,229,,06,31,066,41*64
$GBGSV,5,3,19,09,32,082,41,32,34,058,47,19,35,241,47,29,61,222,50*6B
$GBGSV,5,4,19,48,63,242,,13,01,087,32,37,00,112,,02,08,105,34*6D
$GBGSV,5,5,19,23,00,021,,57,01,102,,60,09,109,39*5C
$GPGGA,010117.00,,,,,0,00,,,M,,M,,*4E
$PTNL,GGK,010117.00,010125,4742.1603259,N,01618.1001509,E,1,36,0.8,EHT751.1395,M*41
$GPGGQ,010117.00,010125,4742.1603259,N,01618.1001509,E,1,36,0.859,707.9330,M*37
$GPGFA,010117.00,3.547,5.857,0.373,0.297,18.106,0.714,,VVV*38
$GPLLK,010117.00,010125,,M,,M,1,36,0.9,,M*01
$GNGMP,010117.00,,,,,DAAA,36,0.5,,,,*50
$GPGMP,010117.00,,,,,,10,,,,2.2,136*7E
$GLGMP,010117.00,,,,,,07,,,,,*7E
$GAGMP,010117.00,,,,,,07,,,,,*73
$GBGMP,010117.00,,,,,,12,,,,,*74
$PSSN,SNC,[0,262895000,2347]*46
$GPZDA,010122.00,01,01,2025,,*63
$GPDTM,W84,,00.0000000,N,00.0000000,E,00.0000000,W84*5F
$PSSN,TFM,010122.00,,,,*6F
$GPRMC,010122.00,A,4742.1603244,N,01618.1001482,E,0.0,,010125,5.1,E,D*1E
$GPGLL,4742.1603244,N,01618.1001482,E,010122.00,A,D*6F
$GPGGA,010122.00,4742.1603244,N,01618.1001482,E,2,36,0.5,707.9350,M,43.2066,M,2.0,0136*4E
$GNGNS,010122.00,4742.1603244,N,01618.1001482,E,DAAA,36,0.5,707.9350,43.2066,,*54
$GPGNS,010122.00,,,,,,10,,,,2.0,136*7A
$GLGNS,010122.00,,,,,,07,,,,,*78
$GAGNS,010122.00,,,,,,07,,,,,*75
$GBGNS,010122.00,,,,,,12,,,,,*72
$GPLLQ,010122.00,010125,,M,,M,1,36,0.844,,M*1C
$GPVTG,,T,,M,0.00,N,0.01,K,D*27
$GPHDT,,T*1B
$GPTHS,,V*0E
$GPROT,,V*08
$PSSN,HRP,010122.00,010125,,,,,,,00,0,,*61
$PTNL,AVR,010122.00,,Yaw,,Tilt,,,,0,,00*37
$GPGSA,A,3,02,03,04,09,17,19,21,28,31,32,,,0.8,0.5,0.7*30
$GPGSA,A,3,68,69,70,77,78,84,85,,,,,,0.8,0.5,0.7*30
$GPGSA,A,3,04,06,09,10,11,34,36,,,,,,0.8,0.5,0.7*30
$GPGSA,A,3,05,06,09,16,19,20,29,30,32,35,39,60,0.8,0.5,0.7*3C
$GPGST,010122.00,1.595,0.367,0.298,16.932,0.362,0.304,0.699*67
$GPGBS,010122.00,2.143,1.657,4.418,68,0.0001,5.047,6.495*50
$GPGRS,010122.00,1,-0.3,-0.1,0.2,-0.1,-0.1,0.4,0.1,0.1,0.3,-0.3,,*67
$GPGRS,010122.00,1,5.0,-0.2,-0.4,-4.2,-4.4,-0.3,1.1,,,,,*4B
$GPGRS,010122.00,1,-0.2,0.1,0.4,0.8,0.0,-0.3,0.3,,,,,*6F
$GPGRS,010122.00,1,1.0,0.9,1.3,0.2,-0.1,-1.2,0.6,0.5,0.6,-0.6,-0.5,-1.0*6E
$GPGSV,5,1,20,03,72,301,49,09,11,214,38,32,13,045,40,19,22,316,41*7C
$GPGSV,5,2,20,31,25,104,43,04,36,202,45,28,27,073,43,21,44,143,45*73
$GPGSV,5,3,20,17,39,286,46,02,65,152,49,01,70,137,,36,35,170,44*73
$GPGSV,5,4,20,58,13,245,37,40,24,132,36,34,31,208,42,49,34,195,44*7B
$GPGSV,5,5,20,57,09,109,38,41,07,108,34,61,03,257,37*4F
$GLGSV,3,1,09,69,66,030,52,85,57,317,52,68,16,043,45,70,41,236,39*68
$GLGSV,3,2,09,84,62,160,40,83,01,150,,78,08,054,43,77,07,000,38*65
$GLGSV,3,3,09,86,04,326,43*56
$GAGSV,3,1,11,06,69,145,48,04,61,076,47,12,12,128,34,09,52,188,47*6E
$GAGSV,3,2,11,10,36,128,43,36,61,306,47,11,65,129,45,19,10,041,33*61
$GAGSV,3,3,11,30,04,315,35,34,10,307,38,05,05,211,36*50
