$GPZDA,184442.00,01,01,2025,,*6C
$GPDTM,W84,,00.0000000,N,00.0000000,E,00.0000000,W84*5F
$PSSN,TFM,184442.00,,,,*60
$GPRMC,184442.00,A,4742.1603864,N,01618.0999847,E,0.0,,010125,5.1,E,D*15
$GPGLL,4742.1603864,N,01618.0999847,E,184442.00,A,D*64
$GPGGA,184442.00,4742.1603864,N,01618.0999847,E,2,40,0.4,708.0383,M,43.2066,M,2.5,0136*48
$GNGNS,184442.00,4742.1603864,N,01618.0999847,E,DAAA,40,0.4,708.0383,43.2066,,*57
$GPGNS,184442.00,,,,,,12,,,,2.5,136*72
$GLGNS,184442.00,,,,,,09,,,,,*79
$GAGNS,184442.00,,,,,,05,,,,,*78
$GBGNS,184442.00,,,,,,14,,,,,*7B
$GPLLQ,184442.00,010125,,M,,M,1,40,0.770,,M*1A
$GPVTG,,T,,M,0.00,N,0.00,K,D*26
$GPHDT,,T*1B
$GPTHS,,V*0E
$GPROT,,V*08
$PSSN,HRP,184442.00,010125,,,,,,,00,0,,*6E
$PTNL,AVR,184442.00,,Yaw,,Tilt,,,,0,,00*38
$GPGSA,A,3,05,07,08,10,15,16,18,23,26,27,29,31,0.7,0.4,0.6*3F
$GPGSA,A,3,65,66,67,73,74,80,81,82,83,,,,0.7,0.4,0.6*32
$GPGSA,A,3,13,15,21,26,27,,,,,,,,0.7,0.4,0.6*33
$GPGSA,A,3,05,08,11,13,14,21,23,28,34,37,38,42,0.7,0.4,0.6*3B
$GPGSA,A,3,43,60,,,,,,,,,,,0.7,0.4,0.6*36
$GPGST,184442.00,1.969,0.375,0.302,20.168,0.367,0.311,0.601*64
$GPGBS,184442.00,2.336,1.591,3.043,67,0.0001,6.381,6.354*54
$GPGRS,184442.00,1,-0.3,-0.6,-0.2,-0.6,0.5,0.4,-0.5,0.4,0.0,0.0,-0.0,0.3*43
$GPGRS,184442.00,1,0.5,-4.9,6.4,4.7,-4.3,0.3,0.8,-0.8,-2.3,,,*63
$GPGRS,184442.00,1,0.1,-0.2,0.0,0.2,0.2,,,,,,,*41
$GPGRS,184442.00,1,1.5,1.1,0.1,-0.4,2.6,-0.2,-0.2,-0.4,-0.5,-0.4,0.1,-0.8*65
$GPGRS,184442.00,1,-0.5,-1.2,,,,,,,,,,*47
$GPGSV,6,1,22,16,64,275,49,10,20,172,42,29,18,097,41,26,56,206,49*70
$GPGSV,6,2,22,27,38,292,45,23,47,134,47,18,61,057,47,05,07,031,38*78
$GPGSV,6,3,22,15,09,079,39,07,05,335,39,13,01,048,,08,05,288,37*7C
$GPGSV,6,4,22,31,06,218,39,36,35,170,45,58,13,245,37,57,11,108,37*7D
$GPGSV,6,5,22,34,31,208,42,40,24,133,36,49,34,195,44,41,07,108,34*7E
$GPGSV,6,6,22,61,03,257,38*46
$GLGSV,3,1,10,82,64,021,51,67,15,112,42,74,13,335,38,81,21,059,47*62
$GLGSV,3,2,10,66,24,058,47,73,47,301,51,80,46,209,52,83,55,278,41*69
$GLGSV,3,3,10,65,09,011,37,79,03,176,*67
$GAGSV,2,1,08,13,81,226,49,23,29,312,,26,27,231,43,27,36,160,45*69
$GAGSV,2,2,08,15,42,053,45,21,70,248,49,03,01,076,34,05,03,029,35*6D
$GBGSV,6,1,23,43,66,063,51,46,11,326,,21,20,051,42,58,16,322,*64
$GBGSV,6,2,23,60,11,108,40,38,23,037,43,14,17,131,39,34,19,078,43*61
$GBGSV,6,3,23,23,32,211,46,05,22,129,39,31,33,052,,42,26,104,44*68
$GBGSV,6,4,23,50,26,075,,08,37,042,42,13,43,051,45,37,41,276,47*66
$GBGSV,6,5,23,11,43,069,46,28,44,269,48,27,49,259,,02,07,106,34*6B
$GBGSV,6,6,23,30,01,255,,33,05,153,,07,06,112,*5B
$GPGGA,184442.00,,,,,0,00,,,M,,M,,*47
$PTNL,GGK,184442.00,010125,4742.1603864,N,01618.0999847,E,1,40,0.7,EHT751.2449,M*49
$GPGGQ,184442.00,010125,4742.1603864,N,01618.0999847,E,1,40,0.770,708.0383,M*3F
$GPGFA,184442.00,3.570,4.926,0.375,0.302,20.168,0.601,,VVV*3E
$GPLLK,184442.00,010125,,M,,M,1,40,0.8,,M*08
$GNGMP,184442.00,,,,,DAAA,40,0.4,,,,*59
$GPGMP,184442.00,,,,,,12,,,,2.5,136*72
$GLGMP,184442.00,,,,,,09,,,,,*79
$GAGMP,184442.00,,,,,,05,,,,,*78
$GBGMP,184442.00,,,,,,14,,,,,*7B
$PSSN,SNC,[0,326700000,2347]*44
$GPZDA,184447.00,01,01,2025,,*69
$GPDTM,W84,,00.0000000,N,00.0000000,E,00.0000000,W84*5F
$PSSN,TFM,184447.00,,,,*65
$GPRMC,184447.00,A,4742.1603870,N,01618.0999860,E,0.0,,010125,5.1,E,D*10
$GPGLL,4742.1603870,N,01618.0999860,E,184447.00,A,D*61
$GPGGA,184447.00,4742.1603870,N,01618.0999860,E,2,40,0.4,708.0334,M,43.2066,M,2.8,0136*4C
$GNGNS,184447.00,4742.1603870,N,01618.0999860,E,DAAA,40,0.4,708.0334,43.2066,,*5E
$GPGNS,184447.00,,,,,,12,,,,2.8,136*7A
$GLGNS,184447.00,,,,,,09,,,,,*7C
$GAGNS,184447.00,,,,,,05,,,,,*7D
$GBGNS,184447.00,,,,,,14,,,,,*7E
$GPLLQ,184447.00,010125,,M,,M,1,40,0.770,,M*1F
$GPVTG,,T,,M,0.00,N,0.01,K,D*27
$GPHDT,,T*1B
$GPTHS,,V*0E
$GPROT,,V*08
$PSSN,HRP,184447.00,010125,,,,,,,00,0,,*6B
$PTNL,AVR,184447.00,,Yaw,,Tilt,,,,0,,00*3D
$GPGSA,A,3,05,07,08,10,15,16,18,23,26,27,29,31,0.7,0.4,0.6*3F
$GPGSA,A,3,65,66,67,73,74,80,81,82,83,,,,0.7,0.4,0.6*32
$GPGSA,A,3,13,15,21,26,27,,,,,,,,0.7,0.4,0.6*33
$GPGSA,A,3,05,08,11,13,14,21,23,28,34,37,38,42,0.7,0.4,0.6*3B
$GPGSA,A,3,43,60,,,,,,,,,,,0.7,0.4,0.6*36
$GPGST,184447.00,1.691,0.376,0.303,20.414,0.368,0.313,0.600*69
$GPGBS,184447.00,2.375,1.568,3.067,67,0.0001,4.900,6.354*57
$GPGRS,184447.00,1,-0.0,-0.5,-0.0,-0.7,0.2,0.1,-0.3,0.5,-0.0,0.3,-0.2,0.9*66
$GPGRS,184447.00,1,-0.2,-3.7,4.9,4.5,-3.9,0.1,0.8,-0.4,-2.8,,,*40
$GPGRS,184447.00,1,-0.0,-0.0,0.1,-0.1,0.3,,,,,,,*44
$GPGRS,184447.00,1,1.4,1.0,0.2,-0.5,2.0,-0.1,0.1,-0.1,-0.3,-0.3,0.1,-0.9*4C
$GPGRS,184447.00,1,-0.4,-1.4,,,,,,,,,,*45
$GPGSV,6,1,22,16,64,275,49,10,20,172,42,29,18,097,41,26,56,206,49*70
$GPGSV,6,2,22,27,38,292,46,23,47,134,47,18,61,057,48,05,07,031,38*74
$GPGSV,6,3,22,15,09,079,39,07,05,335,39,13,01,048,,08,06,288,37*7F
$GPGSV,6,4,22,31,06,218,39,36,35,170,45,58,13,245,37,57,11,108,37*7D
$GPGSV,6,5,22,34,31,208,42,40,24,133,36,49,34,195,44,41,07,108,34*7E
$GPGSV,6,6,22,61,03,257,38*46
$GLGSV,3,1,10,82,64,021,51,67,15,112,41,74,13,335,39,81,21,059,46*61
$GLGSV,3,2,10,66,24,058,47,73,47,301,50,80,46,209,52,83,55,278,42*6B
$GLGSV,3,3,10,65,09,011,38,79,03,176,22*68
$GAGSV,2,1,08,13,81,226,48,23,29,312,,26,27,231,43,27,36,160,44*69
$GAGSV,2,2,08,15,42,053,45,21,70,248,49,03,01,076,34,05,04,029,35*6A
$GBGSV,6,1,23,43,66,063,51,46,11,326,,21,20,051,43,58,16,322,*65
$GBGSV,6,2,23,60,11,108,40,38,23,037,43,14,17,131,39,34,19,078,43*61
$GBGSV,6,3,23,23,32,211,46,05,22,129,39,31,33,052,,42,26,104,43*6F
$GBGSV,6,4,23,50,26,075,,08,37,042,42,13,43,051,45,37,41,276,47*66
$GBGSV,6,5,23,11,43,069,46,28,44,269,48,27,49,259,,02,07,106,34*6B
$GBGSV,6,6,23,30,01,255,,33,05,153,,07,06,112,*5B
$GPGGA,184447.00,,,,,0,00,,,M,,M,,*42
$PTNL,GGK,184447.00,010125,4742.1603870,N,01618.0999860,E,1,40,0.7,EHT751.2399,M*46
$GPGGQ,184447.00,010125,4742.1603870,N,01618.0999860,E,1,40,0.770,708.0334,M*36
$GPGFA,184447.00,3.579,4.920,0.376,0.303,20.414,0.600,,VVV*39
$GPLLK,184447.00,010125,,M,,M,1,40,0.8,,M*0D
$GNGMP,184447.00,,,,,DAAA,40,0.4,,,,*5C
$GPGMP,184447.00,,,,,,12,,,,2.8,136*7A
$GLGMP,184447.00,,,,,,09,,,,,*7C
$GAGMP,184447.00,,,,,,05,,,,,*7D
$GBGMP,184447.00,,,,,,14,,,,,*7E
$PSSN,SNC,[0,326705000,2347]*41
$GPZDA,184452.00,01,01,2025,,*6D
$GPDTM,W84,,00.0000000,N,00.0000000,E,00.0000000,W84*5F
$PSSN,TFM,184452.00,,,,*61
$GPRMC,184452.00,A,4742.1603885,N,01618.0999888,E,0.0,,010125,5.1,E,D*18
$GPGLL,4742.1603885,N,01618.0999888,E,184452.00,A,D*69
$GPGGA,184452.00,4742.1603885,N,01618.0999888,E,2,40,0.4,708.0321,M,43.2066,M,1.8,0136*43
$GNGNS,184452.00,4742.1603885,N,01618.0999888,E,DAAA,40,0.4,708.0321,43.2066,,*52
$GPGNS,184452.00,,,,,,12,,,,1.8,136*7D
$GLGNS,184452.00,,,,,,09,,,,,*78
$GAGNS,184452.00,,,,,,05,,,,,*79
$GBGNS,184452.00,,,,,,14,,,,,*7A
$GPLLQ,184452.00,010125,,M,,M,1,40,0.768,,M*12
$GPVTG,,T,,M,0.00,N,0.01,K,D*27
$GPHDT,,T*1B
$GPTHS,,V*0E
$GPROT,,V*08
$PSSN,HRP,184452.00,010125,,,,,,,00,0,,*6F
$PTNL,AVR,184452.00,,Yaw,,Tilt,,,,0,,00*39
$GPGSA,A,3,05,07,08,10,15,16,18,23,26,27,29,31,0.7,0.4,0.6*3F
$GPGSA,A,3,65,66,67,73,74,80,81,82,83,,,,0.7,0.4,0.6*32
$GPGSA,A,3,13,15,21,26,27,,,,,,,,0.7,0.4,0.6*33
$GPGSA,A,3,05,08,11,13,14,21,23,28,34,37,38,42,0.7,0.4,0.6*3B
$GPGSA,A,3,43,60,,,,,,,,,,,0.7,0.4,0.6*36
$GPGST,184452.00,1.695,0.376,0.301,19.910,0.368,0.310,0.598*69
$GPGBS,184452.00,2.247,1.551,2.962,67,0.0001,5.495,6.352*52
$GPGRS,184452.00,1,-0.4,-0.1,0.0,-0.6,0.6,0.0,-0.4,0.5,0.1,0.2,-0.0,0.1*6B
$GPGRS,184452.00,1,1.1,-3.8,5.5,4.1,-3.7,0.3,0.5,-0.5,-3.0,,,*64
$GPGRS,184452.00,1,-0.2,0.0,-0.1,-0.0,0.1,,,,,,,*41
$GPGRS,184452.00,1,1.5,0.8,0.2,-0.3,1.3,-0.0,-0.4,0.0,-0.2,-0.4,0.1,-0.9*45
$GPGRS,184452.00,1,-0.5,-1.1,,,,,,,,,,*45
$GPGSV,6,1,22,16,64,275,49,10,20,172,42,29,18,097,41,26,56,205,49*73
$GPGSV,6,2,22,27,38,292,45,23,47,134,47,18,61,057,48,05,07,031,38*77
$GPGSV,6,3,22,15,09,079,38,07,05,335,39,13,01,047,,08,06,288,37*71
$GPGSV,6,4,22,31,06,218,39,36,35,170,45,58,13,245,37,57,11,108,37*7D
$GPGSV,6,5,22,34,31,208,42,40,24,133,36,49,34,195,44,41,07,108,34*7E
$GPGSV,6,6,22,61,03,257,38*46
$GLGSV,3,1,10,82,64,021,52,67,15,112,42,74,13,335,38,81,21,059,46*60
$GLGSV,3,2,10,66,24,058,47,73,47,301,50,80,46,209,52,83,55,279,42*6A
$GLGSV,3,3,10,65,09,011,38,79,03,176,22*68
$GAGSV,2,1,08,13,81,226,48,23,29,312,,26,27,232,42,27,36,160,44*6B
$GAGSV,2,2,08,15,42,053,45,21,70,248,49,03,01,076,34,05,04,029,36*69
$GBGSV,6,1,23,43,66,063,50,46,11,326,,21,20,051,43,58,16,322,*64
$GBGSV,6,2,23,60,11,108,40,38,23,037,43,14,17,131,39,34,19,078,43*61
$GBGSV,6,3,23,23,32,211,46,05,22,129,39,31,33,052,,42,26,104,43*6F
$GBGSV,6,4,23,50,26,075,,08,37,042,42,13,43,051,45,37,41,276,47*66
$GBGSV,6,5,23,11,43,069,46,28,44,269,48,27,49,259,,02,07,106,34*6B
$GBGSV,6,6,23,30,01,255,,33,05,153,,07,06,112,*5B
$GPGGA,184452.00,,,,,0,00,,,M,,M,,*46
$PTNL,GGK,184452.00,010125,4742.1603885,N,01618.0999888,E,1,40,0.7,EHT751.2386,M*40
$GPGGQ,184452.00,010125,4742.1603885,N,01618.0999888,E,1,40,0.768,708.0321,M*33
$GPGFA,184452.00,3.574,4.907,0.376,0.301,19.910,0.598,,VVV*36
$GPLLK,184452.00,010125,,M,,M,1,40,0.8,,M*09
$GNGMP,184452.00,,,,,DAAA,40,0.4,,,,*58
$GPGMP,184452.00,,,,,,12,,,,1.8,136*7D
$GLGMP,184452.00,,,,,,09,,,,,*78
$GAGMP,184452.00,,,,,,05,,,,,*79
$GBGMP,184452.00,,,,,,14,,,,,*7A
$PSSN,SNC,[0,326710000,2347]*45
$GPZDA,184457.00,01,01,2025,,*68
$GPDTM,W84,,00.0000000,N,00.0000000,E,00.0000000,W84*5F
$PSSN,TFM,184457.00,,,,*64
$GPRMC,184457.00,A,4742.1603910,N,01618.0999879,E,0.0,,010125,5.1,E,D*1E
$GPGLL,4742.1603910,N,01618.0999879,E,184457.00,A,D*6F
$GPGGA,184457.00,4742.1603910,N,01618.0999879,E,2,40,0.4,708.0284,M,43.2066,M,2.8,0136*48
$GNGNS,184457.00,4742.1603910,N,01618.0999879,E,DAAA,40,0.4,708.0284,43.2066,,*5A
$GPGNS,184457.00,,,,,,12,,,,2.8,136*7B
$GLGNS,184457.00,,,,,,09,,,,,*7D
$GAGNS,184457.00,,,,,,05,,,,,*7C
$GBGNS,184457.00,,,,,,14,,,,,*7F
$GPLLQ,184457.00,010125,,M,,M,1,40,0.760,,M*1F
$GPVTG,,T,,M,0.01,N,0.01,K,D*26
$GPHDT,,T*1B
$GPTHS,,V*0E
$GPROT,,V*08
$PSSN,HRP,184457.00,010125,,,,,,,00,0,,*6A
$PTNL,AVR,184457.00,,Yaw,,Tilt,,,,0,,00*3C
$GPGSA,A,3,05,07,08,10,15,16,18,23,26,27,29,31,0.7,0.4,0.6*3F
$GPGSA,A,3,65,66,67,73,74,80,81,82,83,,,,0.7,0.4,0.6*32
$GPGSA,A,3,13,15,21,26,27,,,,,,,,0.7,0.4,0.6*33
$GPGSA,A,3,05,08,11,13,14,21,23,28,34,37,38,42,0.7,0.4,0.6*3B
$GPGSA,A,3,43,60,,,,,,,,,,,0.7,0.4,0.6*36
$GPGST,184457.00,1.678,0.373,0.296,19.507,0.365,0.306,0.593*6E
$GPGBS,184457.00,2.283,1.565,3.002,18,0.0001,-0.504,0.630*78
$GPGRS,184457.00,1,0.2,-0.3,-0.9,-0.3,0.0,0.2,-0.5,0.4,0.3,-0.1,0.2,0.4*64
$GPGRS,184457.00,1,0.9,-4.3,4.6,4.1,-4.6,0.1,0.2,-0.7,-1.6,,,*63
$GPGRS,184457.00,1,-0.0,0.1,-0.0,-0.1,0.0,,,,,,,*46
$GPGRS,184457.00,1,1.4,0.6,0.3,-0.3,1.8,-0.2,-0.0,-0.1,-0.5,-0.6,0.1,-1.1*63
$GPGRS,184457.00,1,-0.7,-1.1,,,,,,,,,,*42
$GPGSV,6,1,22,16,64,275,49,10,20,172,42,29,18,097,41,26,56,205,49*73
$GPGSV,6,2,22,27,38,292,45,23,47,134,48,18,61,057,48,05,07,031,38*78
$GPGSV,6,3,22,15,09,079,38,07,05,335,38,13,01,047,,08,06,288,38*7F
$GPGSV,6,4,22,31,06,218,40,36,35,170,45,58,13,245,37,57,11,108,37*73
$GPGSV,6,5,22,34,31,208,42,40,24,133,36,49,34,195,44,41,07,108,34*7E
$GPGSV,6,6,22,61,03,257,38*46
$GLGSV,3,1,10,82,64,021,51,67,15,112,42,74,13,335,38,81,21,059,46*63
$GLGSV,3,2,10,66,24,058,46,73,47,301,50,80,46,209,52,83,55,279,42*6B
$GLGSV,3,3,10,65,09,011,38,79,03,176,23*69
$GAGSV,2,1,08,13,82,226,49,23,29,312,,26,27,232,43,27,36,161,44*69
$GAGSV,2,2,08,15,42,053,45,21,70,248,49,03,01,076,35,05,04,029,36*68
$GBGSV,6,1,23,43,66,063,50,46,11,326,,21,20,051,42,58,16,322,*65
$GBGSV,6,2,23,60,11,108,40,38,23,037,43,14,17,131,39,34,19,078,43*61
$GBGSV,6,3,23,23,32,211,46,05,22,129,38,31,33,052,,42,26,104,43*6E
$GBGSV,6,4,23,50,26,075,,08,37,042,42,13,43,051,45,37,41,276,47*66
$GBGSV,6,5,23,11,43,069,46,28,44,269,48,27,49,259,,02,07,106,34*6B
$GBGSV,6,6,23,30,01,255,,33,05,153,,07,06,112,*5B
$GPGGA,184457.00,,,,,0,00,,,M,,M,,*43
$PTNL,GGK,184457.00,010125,4742.1603910,N,01618.0999879,E,1,40,0.7,EHT751.2350,M*4D
$GPGGQ,184457.00,010125,4742.1603910,N,01618.0999879,E,1,40,0.760,708.0284,M*33
$GPGFA,184457.00,3.544,4.862,0.373,0.296,19.507,0.593,,VVV*39
$GPLLK,184457.00,010125,,M,,M,1,40,0.8,,M*0C
$GNGMP,184457.00,,,,,DAAA,40,0.4,,,,*5D
$GPGMP,184457.00,,,,,,12,,,,2.8,136*7B
$GLGMP,184457.00,,,,,,09,,,,,*7D
$GAGMP,184457.00,,,,,,05,,,,,*7C
$GBGMP,184457.00,,,,,,14,,,,,*7F
$PSSN,SNC,[0,326715000,2347]*40
$GPZDA,184502.00,01,01,2025,,*69
$GPDTM,W84,,00.0000000,N,00.0000000,E,00.0000000,W84*5F
$PSSN,TFM,184502.00,,,,*65
$GPRMC,184502.00,A,4742.1603950,N,01618.0999876,E,0.0,,010125,5.1,E,D*14
$GPGLL,4742.1603950,N,01618.0999876,E,184502.00,A,D*65
$GPGGA,184502.00,4742.1603950,N,01618.0999876,E,2,40,0.4,708.0273,M,43.2066,M,2.5,0136*47
$GNGNS,184502.00,4742.1603950,N,01618.0999876,E,DAAA,40,0.4,708.0273,43.2066,,*58
$GPGNS,184502.00,,,,,,12,,,,2.5,136*77
$GLGNS,184502.00,,,,,,09,,,,,*7C
$GAGNS,184502.00,,,,,,05,,,,,*7D
$GBGNS,184502.00,,,,,,14,,,,,*7E
$GPLLQ,184502.00,010125,,M,,M,1,40,0.767,,M*19
$GPVTG,,T,,M,0.01,N,0.02,K,D*25
$GPHDT,,T*1B
$GPTHS,,V*0E
$GPROT,,V*08
$PSSN,HRP,184502.00,010125,,,,,,,00,0,,*6B
$PTNL,AVR,184502.00,,Yaw,,Tilt,,,,0,,00*3D
$GPGSA,A,3,05,07,08,10,15,16,18,23,26,27,29,31,0.7,0.4,0.6*3F
$GPGSA,A,3,65,66,67,73,74,80,81,82,83,,,,0.7,0.4,0.6*32
$GPGSA,A,3,13,15,21,26,27,,,,,,,,0.7,0.4,0.6*33
$GPGSA,A,3,05,08,11,13,14,21,23,28,34,37,38,42,0.7,0.4,0.6*3B
$GPGSA,A,3,43,60,,,,,,,,,,,0.7,0.4,0.6*36
$GPGST,184502.00,1.707,0.375,0.300,19.996,0.367,0.310,0.598*64
$GPGBS,184502.00,2.342,1.562,3.011,67,0.0001,4.746,6.350*50
$GPGRS,184502.00,1,-0.1,-0.3,0.1,-0.0,0.7,0.2,-0.4,0.2,-0.0,0.1,-0.0,0.8*4D
$GPGRS,184502.00,1,1.5,-4.5,4.7,4.3,-4.4,-0.4,0.0,-1.2,-1.6,,,*46
$GPGRS,184502.00,1,0.0,-0.1,-0.1,0.1,-0.0,,,,,,,*46
$GPGRS,184502.00,1,1.1,0.3,0.3,-0.4,1.5,0.3,0.3,-0.0,-0.5,-0.6,0.1,-0.9*62
$GPGRS,184502.00,1,-0.6,-1.3,,,,,,,,,,*40
$GPGSV,6,1,22,16,64,275,49,10,20,172,43,29,18,097,41,26,56,205,49*72
$GPGSV,6,2,22,27,38,292,45,23,47,134,48,18,61,057,47,05,06,031,38*76
$GPGSV,6,3,22,15,09,079,39,07,05,335,39,13,01,047,,08,06,288,37*70
$GPGSV,6,4,22,31,06,218,40,36,35,170,45,58,13,245,37,57,11,108,37*73
$GPGSV,6,5,22,34,31,208,42,40,24,133,36,49,34,195,44,41,07,108,34*7E
$GPGSV,6,6,22,61,03,257,38*46
$GLGSV,3,1,10,82,64,021,51,67,15,112,43,74,13,335,39,81,21,059,46*63
$GLGSV,3,2,10,66,24,058,47,73,47,301,50,80,46,209,52,83,55,279,42*6A
$GLGSV,3,3,10,65,09,011,38,79,03,176,*68
$GAGSV,2,1,08,13,82,226,49,23,29,312,,26,27,232,43,27,36,161,44*69
$GAGSV,2,2,08,15,42,053,46,21,70,248,49,03,01,076,34,05,04,029,36*6A
$GBGSV,6,1,23,43,66,063,51,46,11,326,,21,20,051,42,58,16,322,*64
$GBGSV,6,2,23,60,11,108,40,38,23,037,43,14,17,131,39,34,19,078,43*61
$GBGSV,6,3,23,23,32,211,46,05,22,129,39,31,33,052,,42,26,104,43*6F
$GBGSV,6,4,23,50,26,075,,08,37,042,42,13,43,051,45,37,41,276,47*66
$GBGSV,6,5,23,11,43,069,46,28,44,269,48,27,49,259,,02,07,106,34*6B
$GBGSV,6,6,23,30,01,255,,33,05,153,,07,06,112,*5B
$GPGGA,184502.00,,,,,0,00,,,M,,M,,*42
$PTNL,GGK,184502.00,010125,4742.1603950,N,01618.0999876,E,1,40,0.7,EHT751.2339,M*48
$GPGGQ,184502.00,010125,4742.1603950,N,01618.0999876,E,1,40,0.767,708.0273,M*36
$GPGFA,184502.00,3.568,4.903,0.375,0.300,19.996,0.598,,VVV*37
$GPLLK,184502.00,010125,,M,,M,1,40,0.8,,M*0D
$GNGMP,184502.00,,,,,DAAA,40,0.4,,,,*5C
$GPGMP,184502.00,,,,,,12,,,,2.5,136*77
$GLGMP,184502.00,,,,,,09,,,,,*7C
$GAGMP,184502.00,,,,,,05,,,,,*7D
$GBGMP,184502.00,,,,,,14,,,,,*7E
$PSSN,SNC,[0,326720000,2347]*46
$GPZDA,184507.00,01,01,2025,,*6C
$GPDTM,W84,,00.0000000,N,00.0000000,E,00.0000000,W84*5F
$PSSN,TFM,184507.00,,,,*60
$GPRMC,184507.00,A,4742.1603972,N,01618.0999901,E,0.0,,010125,5.1,E,D*10
$GPGLL,4742.1603972,N,01618.0999901,E,184507.00,A,D*61
$GPGGA,184507.00,4742.1603972,N,01618.0999901,E,2,40,0.4,708.0262,M,43.2066,M,2.8,0136*4E
$GNGNS,184507.00,4742.1603972,N,01618.0999901,E,DAAA,40,0.4,708.0262,43.2066,,*5C
$GPGNS,184507.00,,,,,,12,,,,2.8,136*7F
$GLGNS,184507.00,,,,,,09,,,,,*79
$GAGNS,184507.00,,,,,,05,,,,,*78
$GBGNS,184507.00,,,,,,14,,,,,*7B
$GPLLQ,184507.00,010125,,M,,M,1,40,0.771,,M*1B
$GPVTG,,T,,M,0.00,N,0.00,K,D*26
$GPHDT,,T*1B
$GPTHS,,V*0E
$GPROT,,V*08
$PSSN,HRP,184507.00,010125,,,,,,,00,0,,*6E
$PTNL,AVR,184507.00,,Yaw,,Tilt,,,,0,,00*38
$GPGSA,A,3,05,07,08,10,15,16,18,23,26,27,29,31,0.7,0.4,0.6*3F
$GPGSA,A,3,65,66,67,73,74,80,81,82,83,,,,0.7,0.4,0.6*32
$GPGSA,A,3,13,15,21,26,27,,,,,,,,0.7,0.4,0.6*33
$GPGSA,A,3,05,08,11,13,14,21,23,28,34,37,38,42,0.7,0.4,0.6*3B
$GPGSA,A,3,43,60,,,,,,,,,,,0.7,0.4,0.6*36
$GPGST,184507.00,1.847,0.377,0.303,20.516,0.368,0.313,0.601*6A
$GPGBS,184507.00,2.380,1.564,3.066,08,0.0001,-1.307,1.237*7A
$GPGRS,184507.00,1,-0.2,-0.0,-1.3,-0.2,0.4,0.3,-0.3,0.1,0.0,0.3,-0.2,0.4*43
$GPGRS,184507.00,1,0.0,-4.0,5.9,4.5,-4.5,0.1,0.2,-1.1,-2.5,,,*63
$GPGRS,184507.00,1,-0.1,-0.0,-0.2,0.1,-0.0,,,,,,,*6D
$GPGRS,184507.00,1,1.2,0.8,0.7,-0.6,2.2,0.7,0.2,-0.1,-0.6,-0.4,0.2,-0.1*63
$GPGRS,184507.00,1,-0.4,-1.2,,,,,,,,,,*46
$GPGSV,6,1,22,16,64,275,49,10,21,172,42,29,18,097,42,26,56,205,49*71
$GPGSV,6,2,22,27,38,292,46,23,47,134,48,18,61,057,47,05,06,031,38*75
$GPGSV,6,3,22,15,09,079,39,07,05,335,39,13,01,047,,08,06,288,38*7F
$GPGSV,6,4,22,31,06,218,39,36,35,170,45,58,13,245,37,57,11,108,37*7D
$GPGSV,6,5,22,34,31,208,42,40,24,133,36,49,34,195,44,41,07,108,34*7E
$GPGSV,6,6,22,61,03,257,38*46
$GLGSV,3,1,10,82,64,021,51,67,15,112,43,74,13,335,39,81,21,059,45*60
$GLGSV,3,2,10,66,24,058,47,73,47,301,50,80,45,209,52,83,55,279,42*69
$GLGSV,3,3,10,65,09,011,38,79,03,176,23*69
$GAGSV,2,1,08,13,82,226,49,23,29,312,,26,27,232,43,27,36,161,44*69
$GAGSV,2,2,08,15,42,053,45,21,70,248,49,03,01,076,35,05,04,029,35*6B
$GBGSV,6,1,23,43,66,063,51,46,11,326,,21,20,050,43,58,16,322,*64
$GBGSV,6,2,23,60,11,108,40,38,23,037,42,14,17,131,39,34,19,078,43*60
$GBGSV,6,3,23,23,31,211,46,05,22,129,38,31,33,052,,42,26,104,43*6D
$GBGSV,6,4,23,50,26,075,,08,37,042,42,13,43,051,45,37,41,276,47*66
$GBGSV,6,5,23,11,43,069,46,28,44,269,48,27,49,259,,02,07,106,35*6A
$GBGSV,6,6,23,30,01,255,,33,05,153,,07,06,112,*5B
$GPGGA,184507.00,,,,,0,00,,,M,,M,,*47
$PTNL,GGK,184507.00,010125,4742.1603972,N,01618.0999901,E,1,40,0.7,EHT751.2328,M*4C
$GPGGQ,184507.00,010125,4742.1603972,N,01618.0999901,E,1,40,0.771,708.0262,M*35
$GPGFA,184507.00,3.581,4.924,0.377,0.303,20.516,0.601,,VVV*3C
$GPLLK,184507.00,010125,,M,,M,1,40,0.8,,M*08
$GNGMP,184507.00,,,,,DAAA,40,0.4,,,,*59
$GPGMP,184507.00,,,,,,12,,,,2.8,136*7F
$GLGMP,184507.00,,,,,,09,,,,,*79
$GAGMP,184507.00,,,,,,05,,,,,*78
$GBGMP,184507.00,,,,,,14,,,,,*7B
$PSSN,SNC,[0,326725000,2347]*43
$GPZDA,184512.00,01,01,2025,,*68
$GPDTM,W84,,00.0000000,N,00.0000000,E,00.0000000,W84*5F
$PSSN,TFM,184512.00,,,,*64
$GPRMC,184512.00,A,4742.1603982,N,01618.0999903,E,0.0,,010125,5.1,E,D*19
$GPGLL,4742.1603982,N,01618.0999903,E,184512.00,A,D*68
$GPGGA,184512.00,4742.1603982,N,01618.0999903,E,2,40,0.4,708.0201,M,43.2066,M,1.8,0136*41
$GNGNS,184512.00,4742.1603982,N,01618.0999903,E,DAAA,40,0.4,708.0201,43.2066,,*50
$GPGNS,184512.00,,,,,,12,,,,1.8,136*78
$GLGNS,184512.00,,,,,,09,,,,,*7D
$GAGNS,184512.00,,,,,,05,,,,,*7C
$GBGNS,184512.00,,,,,,14,,,,,*7F
$GPLLQ,184512.00,010125,,M,,M,1,40,0.768,,M*17
$GPVTG,,T,,M,0.00,N,0.00,K,D*26
$GPHDT,,T*1B
$GPTHS,,V*0E
$GPROT,,V*08
$PSSN,HRP,184512.00,010125,,,,,,,00,0,,*6A
$PTNL,AVR,184512.00,,Yaw,,Tilt,,,,0,,00*3C
$GPGSA,A,3,05,07,08,10,15,16,18,23,26,27,29,31,0.7,0.4,0.6*3F
$GPGSA,A,3,65,66,67,73,74,80,81,82,83,,,,0.7,0.4,0.6*32
$GPGSA,A,3,13,15,21,26,27,,,,,,,,0.7,0.4,0.6*33
$GPGSA,A,3,05,08,11,13,14,21,23,28,34,37,38,42,0.7,0.4,0.6*3B
$GPGSA,A,3,43,60,,,,,,,,,,,0.7,0.4,0.6*36
$GPGST,184512.00,1.881,0.376,0.301,19.990,0.368,0.310,0.599*6E
$GPGBS,184512.00,2.252,1.548,2.962,67,0.0001,5.901,6.350*59
$GPGRS,184512.00,1,-0.0,-0.3,-1.1,-0.4,0.7,0.2,-0.3,0.2,0.0,0.4,0.1,-0.1*42
$GPGRS,184512.00,1,0.2,-3.7,5.9,4.5,-4.7,0.2,0.2,-0.6,-2.5,,,*62
$GPGRS,184512.00,1,-0.0,-0.1,-0.1,0.3,0.3,,,,,,,*46
$GPGRS,184512.00,1,1.0,1.3,0.9,-0.6,2.7,1.2,-0.2,0.0,-0.8,-0.5,0.2,-0.1*6E
$GPGRS,184512.00,1,-0.5,-1.5,,,,,,,,,,*44
$GPGSV,6,1,22,16,64,275,49,10,21,172,42,29,18,097,42,26,56,205,48*70
$GPGSV,6,2,22,27,38,292,46,23,47,134,47,18,61,057,48,05,06,031,37*7A
$GPGSV,6,3,22,15,09,079,39,07,05,335,39,13,01,047,,08,06,288,37*70
$GPGSV,6,4,22,31,06,218,39,36,35,170,45,58,13,245,37,57,11,108,37*7D
$GPGSV,6,5,22,34,31,208,42,40,24,133,36,49,34,195,44,41,07,108,34*7E
$GPGSV,6,6,22,61,03,257,38*46
$GLGSV,3,1,10,82,64,021,51,67,15,112,43,74,13,335,37,81,21,059,45*6E
$GLGSV,3,2,10,66,24,058,47,73,47,301,50,80,45,209,52,83,55,279,42*69
$GLGSV,3,3,10,65,09,011,38,79,03,176,22*68
$GAGSV,2,1,08,13,82,226,49,23,29,312,,26,27,232,43,27,36,161,45*68
$GAGSV,2,2,08,15,42,053,45,21,70,248,49,03,01,076,35,05,04,029,35*6B
$GBGSV,6,1,23,43,66,063,51,46,11,326,,21,20,050,43,58,16,322,*64
$GBGSV,6,2,23,60,11,108,40,38,23,037,42,14,18,131,40,34,19,078,43*61
$GBGSV,6,3,23,23,31,211,46,05,22,129,39,31,33,052,,42,26,104,44*6B
$GBGSV,6,4,23,50,26,075,,08,37,042,42,13,43,051,45,37,41,276,47*66
$GBGSV,6,5,23,11,43,069,46,28,44,270,48,27,49,259,,02,07,106,35*62
$GBGSV,6,6,23,30,01,255,,33,05,153,,07,06,112,*5B
$GPGGA,184512.00,,,,,0,00,,,M,,M,,*43
$PTNL,GGK,184512.00,010125,4742.1603982,N,01618.0999903,E,1,40,0.7,EHT751.2267,M*4F
$GPGGQ,184512.00,010125,4742.1603982,N,01618.0999903,E,1,40,0.768,708.0201,M*31
$GPGFA,184512.00,3.574,4.912,0.376,0.301,19.990,0.599,,VVV*3E
$GPLLK,184512.00,010125,,M,,M,1,40,0.8,,M*0C
$GNGMP,184512.00,,,,,DAAA,40,0.4,,,,*5D
$GPGMP,184512.00,,,,,,12,,,,1.8,136*78
$GLGMP,184512.00,,,,,,09,,,,,*7D
$GAGMP,184512.00,,,,,,05,,,,,*7C
$GBGMP,184512.00,,,,,,14,,,,,*7F
$PSSN,SNC,[0,326730000,2347]*47
$GPZDA,184517.00,01,01,2025,,*6D
$GPDTM,W84,,00.0000000,N,00.0000000,E,00.0000000,W84*5F
$PSSN,TFM,184517.00,,,,*61
$GPRMC,184517.00,A,4742.1603984,N,01618.0999872,E,0.0,,010125,5.1,E,D*1D
$GPGLL,4742.1603984,N,01618.0999872,E,184517.00,A,D*6C
$GPGGA,184517.00,4742.1603984,N,01618.0999872,E,2,40,0.4,708.0165,M,43.2066,M,2.8,0136*47
$GNGNS,184517.00,4742.1603984,N,01618.0999872,E,DAAA,40,0.4,708.0165,43.2066,,*55
$GPGNS,184517.00,,,,,,12,,,,2.8,136*7E
$GLGNS,184517.00,,,,,,09,,,,,*78
$GAGNS,184517.00,,,,,,05,,,,,*79
$GBGNS,184517.00,,,,,,14,,,,,*7A
$GPLLQ,184517.00,010125,,M,,M,1,40,0.761,,M*1B
$GPVTG,,T,,M,0.00,N,0.01,K,D*27
$GPHDT,,T*1B
$GPTHS,,V*0E
$GPROT,,V*08
$PSSN,HRP,184517.00,010125,,,,,,,00,0,,*6F
$PTNL,AVR,184517.00,,Yaw,,Tilt,,,,0,,00*39
$GPGSA,A,3,05,07,08,10,15,16,18,23,26,27,29,31,0.7,0.4,0.6*3F
$GPGSA,A,3,65,66,67,73,74,80,81,82,83,,,,0.7,0.4,0.6*32
$GPGSA,A,3,13,15,21,26,27,,,,,,,,0.7,0.4,0.6*33
$GPGSA,A,3,05,08,11,13,14,21,23,28,34,37,38,42,0.7,0.4,0.6*3B
$GPGSA,A,3,43,60,,,,,,,,,,,0.7,0.4,0.6*36
$GPGST,184517.00,1.764,0.373,0.296,19.612,0.365,0.306,0.594*67
$GPGBS,184517.00,2.288,1.563,3.003,74,0.0001,-4.688,6.257*7B
$GPGRS,184517.00,1,0.1,-0.6,-0.5,0.0,0.6,0.2,-0.1,0.2,-0.0,-0.1,0.3,0.0*6A
$GPGRS,184517.00,1,1.3,-4.2,4.7,4.0,-4.7,0.4,0.6,-0.8,-2.4,,,*62
$GPGRS,184517.00,1,-0.1,-0.2,0.0,-0.1,0.0,,,,,,,*41
$GPGRS,184517.00,1,1.3,0.9,0.7,-0.9,2.7,1.0,-0.3,-0.1,-1.0,-0.2,-0.0,-0.6*6B
$GPGRS,184517.00,1,-0.7,-1.2,,,,,,,,,,*44
$GPGSV,6,1,22,16,64,275,49,10,21,172,42,29,18,097,43,26,56,205,49*70
$GPGSV,6,2,22,27,38,292,46,23,47,134,48,18,61,057,48,05,06,031,38*7A
$GPGSV,6,3,22,15,09,079,39,07,05,335,39,13,01,047,,08,06,288,36*71
$GPGSV,6,4,22,31,06,218,40,36,35,170,45,58,13,245,37,57,11,108,38*7C
$GPGSV,6,5,22,34,31,208,42,40,24,133,36,49,34,195,44,41,07,108,34*7E
$GPGSV,6,6,22,61,03,257,38*46
$GLGSV,3,1,10,82,63,021,51,67,15,112,43,74,13,335,38,81,21,059,45*66
$GLGSV,3,2,10,66,24,058,46,73,47,300,50,80,45,209,52,83,55,279,41*6A
$GLGSV,3,3,10,65,09,011,39,79,03,176,*69
$GAGSV,2,1,08,13,82,226,49,23,29,312,,26,27,232,43,27,36,161,45*68
$GAGSV,2,2,08,15,42,053,45,21,70,248,49,03,01,075,35,05,04,029,35*68
$GBGSV,6,1,23,43,66,063,51,46,11,326,,21,20,050,43,58,16,322,*64
$GBGSV,6,2,23,60,11,108,40,38,23,037,42,14,18,131,40,34,19,078,43*61
$GBGSV,6,3,23,23,31,211,47,05,22,129,39,31,33,052,,42,26,104,43*6D
$GBGSV,6,4,23,50,26,075,,08,37,042,42,13,43,051,45,37,41,276,47*66
$GBGSV,6,5,23,11,43,069,46,28,44,270,48,27,49,259,,02,07,106,34*63
$GBGSV,6,6,23,30,01,255,,33,05,153,,07,06,112,*5B
$GPGGA,184517.00,,,,,0,00,,,M,,M,,*46
$PTNL,GGK,184517.00,010125,4742.1603984,N,01618.0999872,E,1,40,0.7,EHT751.2231,M*48
$GPGGQ,184517.00,010125,4742.1603984,N,01618.0999872,E,1,40,0.761,708.0165,M*3D
$GPGFA,184517.00,3.544,4.870,0.373,0.296,19.612,0.594,,VVV*3F
$GPLLK,184517.00,010125,,M,,M,1,40,0.8,,M*09
$GNGMP,184517.00,,,,,DAAA,40,0.4,,,,*58
$GPGMP,184517.00,,,,,,12,,,,2.8,136*7E
$GLGMP,184517.00,,,,,,09,,,,,*78
$GAGMP,184517.00,,,,,,05,,,,,*79
$GBGMP,184517.00,,,,,,14,,,,,*7A
$PSSN,SNC,[0,326735000,2347]*42
$GPZDA,184522.00,01,01,2025,,*6B
$GPDTM,W84,,00.0000000,N,00.0000000,E,00.0000000,W84*5F
$PSSN,TFM,184522.00,,,,*67
$GPRMC,184522.00,A,4742.1604015,N,01618.0999804,E,0.0,,010125,5.1,E,D*1C
$GPGLL,4742.1604015,N,01618.0999804,E,184522.00,A,D*6D
$GPGGA,184522.00,4742.1604015,N,01618.0999804,E,2,40,0.4,708.0140,M,43.2066,M,2.5,0136*4C
$GNGNS,184522.00,4742.1604015,N,01618.0999804,E,DAAA,40,0.4,708.0140,43.2066,,*53
$GPGNS,184522.00,,,,,,12,,,,2.5,136*75
$GLGNS,184522.00,,,,,,09,,,,,*7E
$GAGNS,184522.00,,,,,,05,,,,,*7F
$GBGNS,184522.00,,,,,,14,,,,,*7C
$GPLLQ,184522.00,010125,,M,,M,1,40,0.768,,M*14
$GPVTG,,T,,M,0.00,N,0.01,K,D*27
$GPHDT,,T*1B
$GPTHS,,V*0E
$GPROT,,V*08
$PSSN,HRP,184522.00,010125,,,,,,,00,0,,*69
$PTNL,AVR,184522.00,,Yaw,,Tilt,,,,0,,00*3F
$GPGSA,A,3,05,07,08,10,15,16,18,23,26,27,29,31,0.7,0.4,0.6*3F
$GPGSA,A,3,65,66,67,73,74,80,81,82,83,,,,0.7,0.4,0.6*32
$GPGSA,A,3,13,15,21,26,27,,,,,,,,0.7,0.4,0.6*33
$GPGSA,A,3,05,08,11,13,14,21,23,28,34,37,38,42,0.7,0.4,0.6*3B
$GPGSA,A,3,43,60,,,,,,,,,,,0.7,0.4,0.6*36
$GPGST,184522.00,1.858,0.375,0.300,20.065,0.367,0.310,0.599*6D
$GPGBS,184522.00,2.346,1.559,3.012,23,0.0001,0.635,0.692*51
$GPGRS,184522.00,1,0.1,-0.5,-0.8,-0.1,0.3,0.2,-0.5,0.6,0.0,0.1,0.1,0.4*4D
$GPGRS,184522.00,1,1.2,-4.6,5.2,4.1,-4.4,0.1,0.8,-0.8,-2.8,,,*60
$GPGRS,184522.00,1,-0.2,-0.2,-0.2,-0.3,-0.1,,,,,,,*45
$GPGRS,184522.00,1,1.4,0.5,-0.0,-0.7,3.0,0.3,0.1,-0.0,-1.0,-0.3,0.2,-1.1*40
$GPGRS,184522.00,1,-0.8,-1.4,,,,,,,,,,*4B
$GPGSV,6,1,22,16,64,275,49,10,21,172,42,29,17,097,43,26,56,205,49*7F
$GPGSV,6,2,22,27,38,292,46,23,47,134,48,18,61,057,48,05,06,031,37*75
$GPGSV,6,3,22,15,09,078,39,07,05,335,40,13,01,047,,08,06,288,37*7F
$GPGSV,6,4,22,31,06,218,41,36,35,170,45,58,13,245,37,57,11,108,37*72
$GPGSV,6,5,22,34,31,208,42,40,24,133,36,49,34,195,44,41,07,108,34*7E
$GPGSV,6,6,22,61,03,257,38*46
$GLGSV,3,1,10,82,63,021,51,67,15,112,44,74,13,335,38,81,21,059,46*62
$GLGSV,3,2,10,66,24,058,47,73,47,300,50,80,45,209,52,83,55,279,42*68
$GLGSV,3,3,10,65,09,011,38,79,03,176,20*6A
$GAGSV,2,1,08,13,82,226,48,23,29,312,,26,27,232,42,27,35,161,44*6A
$GAGSV,2,2,08,15,41,053,45,21,70,247,49,03,01,075,35,05,04,029,35*64
$GBGSV,6,1,23,43,66,063,51,46,11,326,,21,20,050,44,58,16,322,*63
$GBGSV,6,2,23,60,11,108,40,38,23,037,42,14,18,131,41,34,19,078,43*60
$GBGSV,6,3,23,23,31,211,46,05,22,129,39,31,33,052,,42,26,104,43*6C
$GBGSV,6,4,23,50,26,075,,08,37,042,42,13,43,051,45,37,41,276,47*66
$GBGSV,6,5,23,11,43,069,46,28,44,270,48,27,49,259,,02,07,106,35*62
$GBGSV,6,6,23,30,01,255,,33,06,153,,07,06,112,*58
$GPGGA,184522.00,,,,,0,00,,,M,,M,,*40
$PTNL,GGK,184522.00,010125,4742.1604015,N,01618.0999804,E,1,40,0.7,EHT751.2205,M*4E
$GPGGQ,184522.00,010125,4742.1604015,N,01618.0999804,E,1,40,0.768,708.0140,M*32
$GPGFA,184522.00,3.570,4.910,0.375,0.300,20.065,0.599,,VVV*30
$GPLLK,184522.00,010125,,M,,M,1,40,0.8,,M*0F
$GNGMP,184522.00,,,,,DAAA,40,0.4,,,,*5E
$GPGMP,184522.00,,,,,,12,,,,2.5,136*75
$GLGMP,184522.00,,,,,,09,,,,,*7E
$GAGMP,184522.00,,,,,,05,,,,,*7F
$GBGMP,184522.00,,,,,,14,,,,,*7C
$PSSN,SNC,[0,326740000,2347]*40
$GPZDA,184527.00,01,01,2025,,*6E
$GPDTM,W84,,00.0000000,N,00.0000000,E,00.0000000,W84*5F
$PSSN,TFM,184527.00,,,,*62
$GPRMC,184527.00,A,4742.1604042,N,01618.0999825,E,0.0,,010125,5.1,E,D*18
$GPGLL,4742.1604042,N,01618.0999825,E,184527.00,A,D*69
$GPGGA,184527.00,4742.1604042,N,01618.0999825,E,2,40,0.4,708.0126,M,43.2066,M,2.8,0136*45
$GNGNS,184527.00,4742.1604042,N,01618.0999825,E,DAAA,40,0.4,708.0126,43.2066,,*57
$GPGNS,184527.00,,,,,,12,,,,2.8,136*7D
$GLGNS,184527.00,,,,,,09,,,,,*7B
$GAGNS,184527.00,,,,,,05,,,,,*7A
$GBGNS,184527.00,,,,,,14,,,,,*79
$GPLLQ,184527.00,010125,,M,,M,1,40,0.772,,M*1A
$GPVTG,,T,,M,0.00,N,0.01,K,D*27
$GPHDT,,T*1B
$GPTHS,,V*0E
$GPROT,,V*08
$PSSN,HRP,184527.00,010125,,,,,,,00,0,,*6C
$PTNL,AVR,184527.00,,Yaw,,Tilt,,,,0,,00*3A
$GPGSA,A,3,05,07,08,10,15,16,18,23,26,27,29,31,0.7,0.4,0.6*3F
$GPGSA,A,3,65,66,67,73,74,80,81,82,83,,,,0.7,0.4,0.6*32
$GPGSA,A,3,13,15,21,26,27,,,,,,,,0.7,0.4,0.6*33
$GPGSA,A,3,05,08,11,13,14,21,23,28,34,37,38,42,0.7,0.4,0.6*3B
$GPGSA,A,3,43,60,,,,,,,,,,,0.7,0.4,0.6*36
$GPGST,184527.00,1.781,0.377,0.303,20.594,0.368,0.313,0.601*67
$GPGBS,184527.00,2.385,1.561,3.067,67,0.0001,5.497,6.347*56
$GPGRS,184527.00,1,0.5,-0.5,-0.7,0.3,0.2,0.1,-0.4,-0.1,-0.0,0.4,-0.4,0.6*47
$GPGRS,184527.00,1,1.0,-3.8,5.5,4.7,-4.0,0.5,1.0,-0.6,-2.0,,,*60
$GPGRS,184527.00,1,-0.1,-0.1,-0.0,0.0,0.0,,,,,,,*40
$GPGRS,184527.00,1,1.3,0.5,-0.2,-0.7,2.8,0.1,-0.1,0.1,-0.7,-0.2,0.0,-0.2*4D
$GPGRS,184527.00,1,-0.6,-1.4,,,,,,,,,,*40
$GPGSV,6,1,22,16,64,274,49,10,21,172,42,29,17,097,42,26,56,205,49*7F
$GPGSV,6,2,22,27,38,292,45,23,47,134,48,18,61,057,48,05,06,031,37*76
$GPGSV,6,3,22,15,09,078,39,07,05,335,39,13,01,047,,08,06,288,37*71
$GPGSV,6,4,22,31,06,218,40,36,35,170,45,58,13,245,37,57,11,108,37*73
$GPGSV,6,5,22,34,31,208,42,40,24,133,36,49,34,195,44,41,07,108,34*7E
$GPGSV,6,6,22,61,03,257,38*46
$GLGSV,3,1,10,82,63,021,51,67,15,112,44,74,13,335,39,81,21,059,46*63
$GLGSV,3,2,10,66,24,058,46,73,47,300,50,80,45,209,52,83,55,279,41*6A
$GLGSV,3,3,10,65,09,011,39,79,03,176,20*6B
$GAGSV,2,1,08,13,82,226,48,23,29,312,,26,27,232,42,27,35,161,44*6A
$GAGSV,2,2,08,15,41,053,45,21,70,247,49,03,01,075,35,05,04,029,35*64
$GBGSV,6,1,23,43,66,063,51,46,11,326,,21,20,050,44,58,16,322,*63
$GBGSV,6,2,23,60,11,108,40,38,23,037,42,14,18,131,41,34,19,078,44*67
$GBGSV,6,3,23,23,31,210,46,05,22,129,39,31,33,052,,42,26,104,43*6D
$GBGSV,6,4,23,50,26,075,,08,37,042,42,13,43,051,45,37,41,276,47*66
$GBGSV,6,5,23,11,42,069,46,28,44,270,48,27,49,259,,02,07,106,34*62
$GBGSV,6,6,23,30,01,255,,33,06,153,,07,06,112,*58
$GPGGA,184527.00,,,,,0,00,,,M,,M,,*45
$PTNL,GGK,184527.00,010125,4742.1604042,N,01618.0999825,E,1,40,0.7,EHT751.2192,M*47
$GPGGQ,184527.00,010125,4742.1604042,N,01618.0999825,E,1,40,0.772,708.0126,M*3D
$GPGFA,184527.00,3.582,4.932,0.377,0.303,20.594,0.601,,VVV*30
$GPLLK,184527.00,010125,,M,,M,1,40,0.8,,M*0A
$GNGMP,184527.00,,,,,DAAA,40,0.4,,,,*5B
$GPGMP,184527.00,,,,,,12,,,,2.8,136*7D
$GLGMP,184527.00,,,,,,09,,,,,*7B
$GAGMP,184527.00,,,,,,05,,,,,*7A
$GBGMP,184527.00,,,,,,14,,,,,*79
$PSSN,SNC,[0,326745000,2347]*45
$GPZDA,184532.00,01,01,2025,,*6A
$GPDTM,W84,,00.0000000,N,00.0000000,E,00.0000000,W84*5F
$PSSN,TFM,184532.00,,,,*66
$GPRMC,184532.00,A,4742.1604085,N,01618.0999853,E,0.0,,010125,5.1,E,D*16
$GPGLL,4742.1604085,N,01618.0999853,E,184532.00,A,D*67
$GPGGA,184532.00,4742.1604085,N,01618.0999853,E,2,40,0.4,708.0143,M,43.2066,M,1.8,0136*4B
$GNGNS,184532.00,4742.1604085,N,01618.0999853,E,DAAA,40,0.4,708.0143,43.2066,,*5A
$GPGNS,184532.00,,,,,,12,,,,1.8,136*7A
$GLGNS,184532.00,,,,,,09,,,,,*7F
$GAGNS,184532.00,,,,,,05,,,,,*7E
$GBGNS,184532.00,,,,,,14,,,,,*7D
$GPLLQ,184532.00,010125,,M,,M,1,40,0.769,,M*14
$GPVTG,,T,,M,0.00,N,0.01,K,D*27
$GPHDT,,T*1B
$GPTHS,,V*0E
$GPROT,,V*08
$PSSN,HRP,184532.00,010125,,,,,,,00,0,,*68
$PTNL,AVR,184532.00,,Yaw,,Tilt,,,,0,,00*3E
$GPGSA,A,3,05,07,08,10,15,16,18,23,26,27,29,31,0.7,0.4,0.6*3F
$GPGSA,A,3,65,66,67,73,74,80,81,82,83,,,,0.7,0.4,0.6*32
$GPGSA,A,3,13,15,21,26,27,,,,,,,,0.7,0.4,0.6*33
$GPGSA,A,3,05,08,11,13,14,21,23,28,34,37,38,42,0.7,0.4,0.6*3B
$GPGSA,A,3,43,60,,,,,,,,,,,0.7,0.4,0.6*36
$GPGST,184532.00,1.771,0.376,0.301,20.074,0.368,0.310,0.600*66
$GPGBS,184532.00,2.257,1.543,2.959,18,0.0001,-0.513,0.616*73
$GPGRS,184532.00,1,-0.3,-0.4,-0.0,0.2,0.5,0.2,-0.5,0.1,0.2,0.1,-0.4,0.4*6F
$GPGRS,184532.00,1,0.6,-4.3,5.2,4.8,-4.0,0.4,1.1,-0.8,-1.9,,,*63
$GPGRS,184532.00,1,0.0,-0.2,0.1,0.0,0.2,,,,,,,*45
$GPGRS,184532.00,1,1.5,1.1,-0.1,-0.2,2.5,-0.6,-0.3,0.1,-0.5,-0.1,-0.2,0.2*6A
$GPGRS,184532.00,1,-0.5,-1.2,,,,,,,,,,*41
$GPGSV,6,1,22,16,64,274,49,10,21,172,42,29,17,097,42,26,56,205,49*7F
$GPGSV,6,2,22,27,38,292,45,23,47,134,48,18,61,057,48,05,06,031,37*76
$GPGSV,6,3,22,15,09,078,39,07,05,334,39,13,01,047,,08,06,288,38*7F
$GPGSV,6,4,22,31,06,217,40,36,35,170,45,58,13,245,37,57,11,108,37*7C
$GPGSV,6,5,22,34,31,208,42,40,24,133,36,49,34,195,44,41,07,108,34*7E
$GPGSV,6,6,22,61,03,257,38*46
$GLGSV,3,1,10,82,63,022,51,67,15,112,44,74,13,335,39,81,21,059,47*61
$GLGSV,3,2,10,66,24,058,47,73,47,300,51,80,45,209,52,83,55,279,42*69
$GLGSV,3,3,10,65,09,011,38,79,03,176,21*6B
$GAGSV,2,1,08,13,82,226,48,23,29,312,,26,27,232,42,27,35,161,44*6A
$GAGSV,2,2,08,15,41,053,45,21,70,247,49,03,02,075,34,05,04,029,34*67
$GBGSV,6,1,23,43,66,063,51,46,11,326,,21,20,050,44,58,16,322,*63
$GBGSV,6,2,23,60,11,108,40,38,23,037,42,14,18,131,41,34,19,078,44*67
$GBGSV,6,3,23,23,31,210,46,05,22,129,39,31,33,052,,42,26,103,43*6A
$GBGSV,6,4,23,08,37,042,42,50,26,075,,13,43,051,45,37,41,276,47*66
$GBGSV,6,5,23,11,42,069,46,28,44,270,48,27,49,259,,02,07,106,34*62
$GBGSV,6,6,23,33,06,153,,30,01,255,,07,06,112,*58
$GPGGA,184532.00,,,,,0,00,,,M,,M,,*41
$PTNL,GGK,184532.00,010125,4742.1604085,N,01618.0999853,E,1,40,0.7,EHT751.2209,M*48
$GPGGQ,184532.00,010125,4742.1604085,N,01618.0999853,E,1,40,0.769,708.0143,M*3A
$GPGFA,184532.00,3.575,4.918,0.376,0.301,20.074,0.600,,VVV*3D
$GPLLK,184532.00,010125,,M,,M,1,40,0.8,,M*0E
$GNGMP,184532.00,,,,,DAAA,40,0.4,,,,*5F
$GPGMP,184532.00,,,,,,12,,,,1.8,136*7A
$GLGMP,184532.00,,,,,,09,,,,,*7F
$GAGMP,184532.00,,,,,,05,,,,,*7E
$GBGMP,184532.00,,,,,,14,,,,,*7D
$PSSN,SNC,[0,326750000,2347]*41
$GPZDA,184537.00,01,01,2025,,*6F
$GPDTM,W84,,00.0000000,N,00.0000000,E,00.0000000,W84*5F
$PSSN,TFM,184537.00,,,,*63
$GPRMC,184537.00,A,4742.1604095,N,01618.0999897,E,0.0,,010125,5.1,E,D*1A
$GPGLL,4742.1604095,N,01618.0999897,E,184537.00,A,D*6B
$GPGGA,184537.00,4742.1604095,N,01618.0999897,E,2,40,0.4,708.0171,M,43.2066,M,2.8,0136*45
$GNGNS,184537.00,4742.1604095,N,01618.0999897,E,DAAA,40,0.4,708.0171,43.2066,,*57
$GPGNS,184537.00,,,,,,12,,,,2.8,136*7C
$GLGNS,184537.00,,,,,,09,,,,,*7A
$GAGNS,184537.00,,,,,,05,,,,,*7B
$GBGNS,184537.00,,,,,,14,,,,,*78
$GPLLQ,184537.00,010125,,M,,M,1,40,0.762,,M*1A
$GPVTG,,T,,M,0.00,N,0.01,K,D*27
$GPHDT,,T*1B
$GPTHS,,V*0E
$GPROT,,V*08
$PSSN,HRP,184537.00,010125,,,,,,,00,0,,*6D
$PTNL,AVR,184537.00,,Yaw,,Tilt,,,,0,,00*3B
$GPGSA,A,3,05,07,08,10,15,16,18,23,26,27,29,31,0.7,0.4,0.6*3F
$GPGSA,A,3,65,66,67,73,74,80,81,82,83,,,,0.7,0.4,0.6*32
$GPGSA,A,3,13,15,21,26,27,,,,,,,,0.7,0.4,0.6*33
$GPGSA,A,3,05,08,11,13,14,21,23,28,34,37,38,42,0.7,0.4,0.6*3B
$GPGSA,A,3,43,60,,,,,,,,,,,0.7,0.4,0.6*36
$GPGST,184537.00,1.769,0.373,0.296,19.664,0.365,0.306,0.595*68
$GPGBS,184537.00,2.293,1.558,3.000,67,0.0001,5.440,6.346*51
$GPGRS,184537.00,1,0.6,-0.1,-0.3,-0.2,0.1,0.4,-0.5,0.1,-0.0,0.1,-0.6,-0.3*6C
$GPGRS,184537.00,1,0.4,-4.4,5.4,4.6,-3.7,0.5,1.0,-0.8,-1.9,,,*6B
$GPGRS,184537.00,1,0.0,-0.2,-0.0,0.2,0.3,,,,,,,*6F
$GPGRS,184537.00,1,1.2,1.7,0.4,-0.2,2.5,-0.7,-0.1,0.4,-0.4,-0.3,0.1,0.1*6E
$GPGRS,184537.00,1,-0.5,-0.8,,,,,,,,,,*4F
$GPGSV,6,1,22,16,64,274,49,10,21,172,42,29,17,097,41,26,56,205,49*7C
$GPGSV,6,2,22,27,38,292,45,23,47,134,47,18,61,057,48,05,06,031,37*79
$GPGSV,6,3,22,15,09,078,40,07,05,334,39,13,01,047,,08,06,288,37*7E
$GPGSV,6,4,22,31,06,217,39,36,35,170,45,58,13,245,37,57,11,108,37*72
$GPGSV,6,5,22,34,31,208,42,40,24,133,36,49,34,195,44,41,07,108,34*7E
$GPGSV,6,6,22,61,03,257,38*46
$GLGSV,3,1,10,82,63,022,51,67,15,111,43,74,13,335,38,81,21,059,46*65
$GLGSV,3,2,10,66,24,058,47,73,47,300,50,80,45,209,52,83,55,279,42*68
$GLGSV,3,3,10,65,09,011,38,79,03,176,21*6B
$GAGSV,2,1,08,13,82,227,48,23,29,312,,26,27,232,43,27,35,161,44*6A
$GAGSV,2,2,08,15,41,053,45,21,70,247,49,03,02,075,34,05,04,029,34*67
$GBGSV,6,1,23,43,66,063,51,46,11,326,,21,20,050,44,58,16,322,*63
$GBGSV,6,2,23,60,11,108,40,38,23,037,42,14,18,131,41,34,19,078,44*67
$GBGSV,6,3,23,23,31,210,46,05,22,129,39,31,33,052,,42,26,103,44*6D
$GBGSV,6,4,23,50,26,075,,08,37,042,42,13,43,051,45,37,41,276,47*66
$GBGSV,6,5,23,11,42,069,46,28,44,270,48,27,49,259,,02,07,106,34*62
$GBGSV,6,6,23,30,01,255,,33,06,153,,07,06,112,*58
$GPGGA,184537.00,,,,,0,00,,,M,,M,,*44
$PTNL,GGK,184537.00,010125,4742.1604095,N,01618.0999897,E,1,40,0.7,EHT751.2236,M*48
$GPGGQ,184537.00,010125,4742.1604095,N,01618.0999897,E,1,40,0.762,708.0171,M*3C
$GPGFA,184537.00,3.546,4.876,0.373,0.296,19.664,0.595,,VVV*39
$GPLLK,184537.00,010125,,M,,M,1,40,0.8,,M*0B
$GNGMP,184537.00,,,,,DAAA,40,0.4,,,,*5A
$GPGMP,184537.00,,,,,,12,,,,2.8,136*7C
$GLGMP,184537.00,,,,,,09,,,,,*7A
$GAGMP,184537.00,,,,,,05,,,,,*7B
$GBGMP,184537.00,,,,,,14,,,,,*78
$PSSN,SNC,[0,326755000,2347]*44
$GPZDA,184542.00,01,01,2025,,*6D
$GPDTM,W84,,00.0000000,N,00.0000000,E,00.0000000,W84*5F
$PSSN,TFM,184542.00,,,,*61
$GPRMC,184542.00,A,4742.1604091,N,01618.0999887,E,0.0,,010125,5.1,E,D*1D
$GPGLL,4742.1604091,N,01618.0999887,E,184542.00,A,D*6C
$GPGGA,184542.00,4742.1604091,N,01618.0999887,E,2,40,0.4,708.0126,M,43.2066,M,2.5,0136*4D
$GNGNS,184542.00,4742.1604091,N,01618.0999887,E,DAAA,40,0.4,708.0126,43.2066,,*52
$GPGNS,184542.00,,,,,,12,,,,2.5,136*73
$GLGNS,184542.00,,,,,,09,,,,,*78
$GAGNS,184542.00,,,,,,05,,,,,*79
$GBGNS,184542.00,,,,,,14,,,,,*7A
$GPLLQ,184542.00,010125,,M,,M,1,40,0.768,,M*12
$GPVTG,,T,,M,0.00,N,0.01,K,D*27
$GPHDT,,T*1B
$GPTHS,,V*0E
$GPROT,,V*08
$PSSN,HRP,184542.00,010125,,,,,,,00,0,,*6F
$PTNL,AVR,184542.00,,Yaw,,Tilt,,,,0,,00*39
$GPGSA,A,3,05,07,08,10,15,16,18,23,26,27,29,31,0.7,0.4,0.6*3F
$GPGSA,A,3,65,66,67,73,74,80,81,82,83,,,,0.7,0.4,0.6*32
$GPGSA,A,3,13,15,21,26,27,,,,,,,,0.7,0.4,0.6*33
$GPGSA,A,3,05,08,11,13,14,21,23,28,34,37,38,42,0.7,0.4,0.6*3B
$GPGSA,A,3,43,60,,,,,,,,,,,0.7,0.4,0.6*36
$GPGST,184542.00,1.719,0.376,0.300,20.332,0.367,0.310,0.599*63
$GPGBS,184542.00,2.349,1.550,3.013,67,0.0001,5.388,6.346*5C
$GPGRS,184542.00,1,0.5,-0.2,-0.7,-0.1,0.3,0.2,-0.2,0.3,-0.0,0.1,-0.2,-0.2*6D
$GPGRS,184542.00,1,0.8,-3.9,5.4,4.2,-3.6,0.0,0.2,-0.9,-2.2,,,*65
$GPGRS,184542.00,1,0.1,-0.1,0.0,0.5,0.3,,,,,,,*45
$GPGRS,184542.00,1,1.3,1.1,0.8,-0.2,2.8,-0.6,0.1,0.5,-0.7,-0.1,-0.2,-0.0*44
$GPGRS,184542.00,1,-0.4,-1.5,,,,,,,,,,*40
$GPGSV,6,1,22,16,64,274,49,10,21,172,42,29,17,097,40,26,56,205,49*7D
$GPGSV,6,2,22,27,38,292,46,23,47,134,47,18,61,057,47,05,06,031,36*74
$GPGSV,6,3,22,15,09,078,40,07,05,334,39,13,01,047,,08,06,288,37*7E
$GPGSV,6,4,22,31,06,217,40,36,35,170,45,58,13,245,37,57,11,108,38*73
$GPGSV,6,5,22,34,31,208,42,40,24,133,36,49,34,195,44,41,07,108,35*7F
$GPGSV,6,6,22,61,03,257,38*46
$GLGSV,3,1,10,82,63,022,51,67,15,111,43,74,13,335,38,81,21,059,46*65
$GLGSV,3,2,10,66,24,058,47,73,47,300,50,80,45,209,52,83,55,279,42*68
$GLGSV,3,3,10,65,09,011,37,79,03,176,22*67
$GAGSV,2,1,08,13,82,227,48,23,29,312,,26,27,232,43,27,35,161,44*6A
$GAGSV,2,2,08,15,41,053,45,21,70,247,48,03,02,075,34,05,04,029,34*66
$GBGSV,6,1,23,43,66,063,51,46,11,326,,21,20,050,45,58,16,322,*62
$GBGSV,6,2,23,60,11,108,40,38,23,037,42,14,18,131,40,34,19,078,43*61
$GBGSV,6,3,23,23,31,210,46,05,22,129,39,31,33,052,,42,26,103,44*6D
$GBGSV,6,4,23,08,37,042,42,50,26,075,,13,43,051,45,37,41,276,47*66
$GBGSV,6,5,23,11,42,069,46,28,44,270,49,27,49,259,,02,07,106,35*62
$GBGSV,6,6,23,33,06,153,,30,01,255,,07,06,112,*58
$GPGGA,184542.00,,,,,0,00,,,M,,M,,*46
$PTNL,GGK,184542.00,010125,4742.1604091,N,01618.0999887,E,1,40,0.7,EHT751.2192,M*42
$GPGGQ,184542.00,010125,4742.1604091,N,01618.0999887,E,1,40,0.768,708.0126,M*33
$GPGFA,184542.00,3.570,4.913,0.376,0.300,20.332,0.599,,VVV*37
$GPLLK,184542.00,010125,,M,,M,1,40,0.8,,M*09
$GNGMP,184542.00,,,,,DAAA,40,0.4,,,,*58
$GPGMP,184542.00,,,,,,12,,,,2.5,136*73
$GLGMP,184542.00,,,,,,09,,,,,*78
$GAGMP,184542.00,,,,,,05,,,,,*79
$GBGMP,184542.00,,,,,,14,,,,,*7A
$PSSN,SNC,[0,326760000,2347]*42
$GPZDA,184547.00,01,01,2025,,*68
$GPDTM,W84,,00.0000000,N,00.0000000,E,00.0000000,W84*5F
$PSSN,TFM,184547.00,,,,*64
$GPRMC,184547.00,A,4742.1604099,N,01618.0999913,E,0.0,,010125,5.1,E,D*1C
$GPGLL,4742.1604099,N,01618.0999913,E,184547.00,A,D*6D
$GPGGA,184547.00,4742.1604099,N,01618.0999913,E,2,40,0.4,708.0090,M,43.2066,M,2.8,0136*4D
$GNGNS,184547.00,4742.1604099,N,01618.0999913,E,DAAA,40,0.4,708.0090,43.2066,,*5F
$GPGNS,184547.00,,,,,,12,,,,2.8,136*7B
$GLGNS,184547.00,,,,,,09,,,,,*7D
$GAGNS,184547.00,,,,,,05,,,,,*7C
$GBGNS,184547.00,,,,,,14,,,,,*7F
$GPLLQ,184547.00,010125,,M,,M,1,40,0.772,,M*1C
$GPVTG,,T,,M,0.00,N,0.01,K,D*27
$GPHDT,,T*1B
$GPTHS,,V*0E
$GPROT,,V*08
$PSSN,HRP,184547.00,010125,,,,,,,00,0,,*6A
$PTNL,AVR,184547.00,,Yaw,,Tilt,,,,0,,00*3C
$GPGSA,A,3,05,07,08,10,15,16,18,23,26,27,29,31,0.7,0.4,0.6*3F
$GPGSA,A,3,65,66,67,73,74,80,81,82,83,,,,0.7,0.4,0.6*32
$GPGSA,A,3,13,15,21,26,27,,,,,,,,0.7,0.4,0.6*33
$GPGSA,A,3,05,08,11,13,14,21,23,28,34,37,38,42,0.7,0.4,0.6*3B
$GPGSA,A,3,43,60,,,,,,,,,,,0.7,0.4,0.6*36
$GPGST,184547.00,1.759,0.377,0.303,20.726,0.368,0.313,0.602*6C
$GPGBS,184547.00,2.391,1.558,3.065,29,0.0001,-0.975,1.090*70
$GPGRS,184547.00,1,1.0,-0.8,-0.7,-0.4,-0.3,0.3,-0.4,0.3,0.1,0.5,-1.0,-0.2*62
$GPGRS,184547.00,1,1.7,-3.9,5.5,4.5,-3.9,0.2,-0.0,-0.4,-1.6,,,*40
$GPGRS,184547.00,1,0.1,-0.3,-0.1,-0.1,0.1,,,,,,,*45
$GPGRS,184547.00,1,1.4,1.2,0.4,-0.4,2.2,-0.6,-0.1,0.3,-0.6,-0.2,0.1,-0.3*41
$GPGRS,184547.00,1,-0.7,-1.2,,,,,,,,,,*41
$GPGSV,6,1,22,16,64,274,49,10,21,172,42,29,17,097,40,26,56,205,49*7D
$GPGSV,6,2,22,27,38,292,46,23,47,134,47,18,60,057,47,05,06,031,37*74
$GPGSV,6,3,22,15,09,078,40,07,05,334,40,13,01,047,,08,06,288,37*70
$GPGSV,6,4,22,31,06,217,40,36,35,170,45,58,13,245,37,57,11,108,37*7C
$GPGSV,6,5,22,34,31,208,42,40,24,133,36,49,34,195,44,41,07,108,34*7E
$GPGSV,6,6,22,61,03,257,38*46
$GLGSV,3,1,10,82,63,022,51,67,15,111,43,74,13,335,38,81,21,059,45*66
$GLGSV,3,2,10,66,24,058,46,73,47,300,50,80,45,209,52,83,55,279,42*69
$GLGSV,3,3,10,65,08,011,38,79,03,176,21*6A
$GAGSV,2,1,08,13,82,227,48,23,29,312,,26,27,232,43,27,35,161,44*6A
$GAGSV,2,2,08,15,41,053,45,21,70,247,48,03,02,075,35,05,04,029,34*67
$GBGSV,6,1,23,43,66,063,51,46,11,326,,21,20,050,44,58,16,322,*63
$GBGSV,6,2,23,60,11,108,40,38,23,037,42,14,18,131,39,34,19,079,43*6E
$GBGSV,6,3,23,23,31,210,47,05,22,129,39,31,33,052,,42,26,103,44*6C
$GBGSV,6,4,23,08,37,042,42,50,26,075,,13,43,051,45,37,41,276,47*66
$GBGSV,6,5,23,11,42,069,46,28,45,270,49,27,49,259,,02,07,106,35*63
$GBGSV,6,6,23,33,06,153,,30,01,255,,07,06,112,*58
$GPGGA,184547.00,,,,,0,00,,,M,,M,,*43
$PTNL,GGK,184547.00,010125,4742.1604099,N,01618.0999913,E,1,40,0.7,EHT751.2155,M*48
$GPGGQ,184547.00,010125,4742.1604099,N,01618.0999913,E,1,40,0.772,708.0090,M*35
$GPGFA,184547.00,3.583,4.938,0.377,0.303,20.726,0.602,,VVV*35
$GPLLK,184547.00,010125,,M,,M,1,40,0.8,,M*0C
$GNGMP,184547.00,,,,,DAAA,40,0.4,,,,*5D
$GPGMP,184547.00,,,,,,12,,,,2.8,136*7B
$GLGMP,184547.00,,,,,,09,,,,,*7D
$GAGMP,184547.00,,,,,,05,,,,,*7C
$GBGMP,184547.00,,,,,,14,,,,,*7F
$PSSN,SNC,[0,326765000,2347]*47
$GPZDA,184552.00,01,01,2025,,*6C
$GPDTM,W84,,00.0000000,N,00.0000000,E,00.0000000,W84*5F
$PSSN,TFM,184552.00,,,,*60
$GPRMC,184552.00,A,4742.1604093,N,01618.0999907,E,0.0,,010125,5.1,E,D*17
$GPGLL,4742.1604093,N,01618.0999907,E,184552.00,A,D*66
$GPGGA,184552.00,4742.1604093,N,01618.0999907,E,2,40,0.4,708.0062,M,43.2066,M,1.8,0136*48
$GNGNS,184552.00,4742.1604093,N,01618.0999907,E,DAAA,40,0.4,708.0062,43.2066,,*59
$GPGNS,184552.00,,,,,,12,,,,1.8,136*7C
$GLGNS,184552.00,,,,,,09,,,,,*79
$GAGNS,184552.00,,,,,,05,,,,,*78
$GBGNS,184552.00,,,,,,14,,,,,*7B
$GPLLQ,184552.00,010125,,M,,M,1,40,0.770,,M*1A
$GPVTG,,T,,M,0.00,N,0.01,K,D*27
$GPHDT,,T*1B
$GPTHS,,V*0E
$GPROT,,V*08
$PSSN,HRP,184552.00,010125,,,,,,,00,0,,*6E
$PTNL,AVR,184552.00,,Yaw,,Tilt,,,,0,,00*38
$GPGSA,A,3,05,07,08,10,15,16,18,23,26,27,29,31,0.7,0.4,0.6*3F
$GPGSA,A,3,65,66,67,73,74,80,81,82,83,,,,0.7,0.4,0.6*32
$GPGSA,A,3,13,15,21,26,27,,,,,,,,0.7,0.4,0.6*33
$GPGSA,A,3,05,08,11,13,14,21,23,28,34,37,38,42,0.7,0.4,0.6*3B
$GPGSA,A,3,43,60,,,,,,,,,,,0.7,0.4,0.6*36
$GPGST,184552.00,1.773,0.376,0.301,20.229,0.368,0.311,0.601*68
$GPGBS,184552.00,2.263,1.541,2.958,67,0.0001,5.425,6.345*50
$GPGRS,184552.00,1,0.7,-0.9,-0.4,0.3,0.3,-0.1,-0.1,0.3,-0.1,0.4,0.1,-0.3*4F
$GPGRS,184552.00,1,0.8,-4.4,5.4,4.3,-4.2,0.1,-0.2,-0.9,-2.0,,,*42
$GPGRS,184552.00,1,-0.0,-0.3,-0.0,-0.3,-0.2,,,,,,,*40
$GPGRS,184552.00,1,0.9,0.9,0.9,-0.5,1.6,-1.2,-0.3,0.0,-0.0,-0.6,-0.2,-1.1*63
$GPGRS,184552.00,1,-0.7,-1.4,,,,,,,,,,*43
$GPGSV,6,1,22,16,64,274,49,10,21,172,44,29,17,097,40,26,56,205,49*7B
$GPGSV,6,2,22,27,38,292,46,23,47,134,47,18,60,057,48,05,06,031,37*7B
$GPGSV,6,3,22,15,09,078,39,07,05,334,40,13,01,047,,08,06,288,38*71
$GPGSV,6,4,22,31,06,217,40,36,35,170,45,58,13,245,38,57,11,108,38*7C
$GPGSV,6,5,22,34,31,208,42,40,24,133,36,49,34,195,44,41,07,108,34*7E
$GPGSV,6,6,22,61,03,257,38*46
$GLGSV,3,1,10,82,63,022,51,67,15,111,43,74,13,334,38,81,21,059,45*67
$GLGSV,3,2,10,66,24,058,46,73,47,300,50,80,45,209,52,83,55,279,42*69
$GLGSV,3,3,10,65,08,011,38,79,03,176,22*69
$GAGSV,2,1,08,13,82,227,48,23,29,312,,26,27,232,42,27,35,161,44*6B
$GAGSV,2,2,08,15,41,053,45,21,70,247,49,03,02,075,35,05,04,029,34*66
$GBGSV,6,1,23,43,66,063,51,46,11,326,,21,20,050,44,58,16,322,*63
$GBGSV,6,2,23,60,11,108,40,38,23,037,43,14,18,131,39,34,19,079,43*6F
$GBGSV,6,3,23,23,31,210,47,05,22,129,39,31,33,052,,42,26,103,44*6C
$GBGSV,6,4,23,08,37,042,42,50,26,075,,13,43,051,45,37,41,276,47*66
$GBGSV,6,5,23,11,42,069,47,28,45,270,49,27,49,259,,02,07,106,35*62
$GBGSV,6,6,23,33,06,153,,30,01,255,,07,06,112,*58
$GPGGA,184552.00,,,,,0,00,,,M,,M,,*47
$PTNL,GGK,184552.00,010125,4742.1604093,N,01618.0999907,E,1,40,0.7,EHT751.2128,M*49
$GPGGQ,184552.00,010125,4742.1604093,N,01618.0999907,E,1,40,0.770,708.0062,M*31
$GPGFA,184552.00,3.575,4.927,0.376,0.301,20.229,0.601,,VVV*3C
$GPLLK,184552.00,010125,,M,,M,1,40,0.8,,M*08
$GNGMP,184552.00,,,,,DAAA,40,0.4,,,,*59
$GPGMP,184552.00,,,,,,12,,,,1.8,136*7C
$GLGMP,184552.00,,,,,,09,,,,,*79
$GAGMP,184552.00,,,,,,05,,,,,*78
$GBGMP,184552.00,,,,,,14,,,,,*7B
$PSSN,SNC,[0,326770000,2347]*43
$GPZDA,184557.00,01,01,2025,,*69
$GPDTM,W84,,00.0000000,N,00.0000000,E,00.0000000,W84*5F
$PSSN,TFM,184557.00,,,,*65
$GPRMC,184557.00,A,4742.1604120,N,01618.0999885,E,0.0,,010125,5.1,E,D*10
$GPGLL,4742.1604120,N,01618.0999885,E,184557.00,A,D*61
$GPGGA,184557.00,4742.1604120,N,01618.0999885,E,2,40,0.4,708.0039,M,43.2066,M,2.8,0136*42
$GNGNS,184557.00,4742.1604120,N,01618.0999885,E,DAAA,40,0.4,708.0039,43.2066,,*50
$GPGNS,184557.00,,,,,,12,,,,2.8,136*7A
$GLGNS,184557.00,,,,,,09,,,,,*7C
$GAGNS,184557.00,,,,,,05,,,,,*7D
$GBGNS,184557.00,,,,,,14,,,,,*7E
$GPLLQ,184557.00,010125,,M,,M,1,40,0.754,,M*19
$GPVTG,,T,,M,0.00,N,0.01,K,D*27
$GPHDT,,T*1B
$GPTHS,,V*0E
$GPROT,,V*08
$PSSN,HRP,184557.00,010125,,,,,,,00,0,,*6B
$PTNL,AVR,184557.00,,Yaw,,Tilt,,,,0,,00*3D
$GPGSA,A,3,05,07,08,10,15,16,18,23,26,27,29,31,0.7,0.4,0.6*3F
$GPGSA,A,3,65,66,67,73,74,80,81,82,83,,,,0.7,0.4,0.6*32
$GPGSA,A,3,13,15,21,26,27,,,,,,,,0.7,0.4,0.6*33
$GPGSA,A,3,05,08,11,13,14,21,23,28,34,37,38,42,0.7,0.4,0.6*3B
$GPGSA,A,3,43,60,,,,,,,,,,,0.7,0.4,0.6*36
$GPGST,184557.00,1.795,0.368,0.296,19.006,0.361,0.305,0.588*6E
$GPGBS,184557.00,2.220,1.543,2.885,67,0.0001,5.715,6.344*50
$GPGRS,184557.00,1,0.8,-0.9,-0.7,0.4,0.4,0.1,-0.2,0.4,-0.1,-0.1,-0.5,0.4*44
$GPGRS,184557.00,1,0.2,-4.4,5.7,4.3,-3.9,0.2,0.5,-0.8,-2.3,,,*69
$GPGRS,184557.00,1,-0.2,-0.1,0.0,-0.2,-0.2,,,,,,,*69
$GPGRS,184557.00,1,1.1,0.8,1.0,-0.2,1.7,-1.6,-0.1,-0.1,-0.1,-0.5,0.1,-1.0*67
$GPGRS,184557.00,1,-0.5,-1.4,,,,,,,,,,*44
$GPGSV,6,1,22,16,64,274,49,10,21,172,44,29,17,097,41,26,56,205,49*7A
$GPGSV,6,2,22,27,38,292,45,23,47,134,47,18,60,057,48,05,06,031,38*77
$GPGSV,6,3,22,15,09,078,39,07,05,334,39,13,01,047,,08,06,288,37*70
$GPGSV,6,4,22,31,06,217,40,36,35,170,45,58,13,245,37,57,11,108,37*7C
$GPGSV,6,5,22,34,31,208,42,40,24,133,36,49,34,195,44,41,07,108,34*7E
$GPGSV,6,6,22,61,03,257,38*46
$GLGSV,3,1,10,82,63,022,51,67,15,111,43,74,13,334,38,81,21,059,45*67
$GLGSV,3,2,10,66,24,058,46,73,47,300,50,80,45,209,52,83,55,279,42*69
$GLGSV,3,3,10,65,08,011,38,79,03,176,21*6A
$GAGSV,2,1,08,13,82,227,48,23,29,312,,26,27,232,42,27,35,161,44*6B
$GAGSV,2,2,08,15,41,053,45,21,70,247,48,03,02,075,36,05,04,029,35*65
$GBGSV,6,1,23,43,66,063,51,46,11,326,,21,20,050,43,58,16,322,*64
$GBGSV,6,2,23,60,11,108,40,38,23,037,42,14,18,131,39,34,19,079,43*6E
$GBGSV,6,3,23,23,31,210,47,05,22,129,38,31,33,052,,42,26,103,43*6A
$GBGSV,6,4,23,08,37,042,42,50,26,075,,13,43,051,45,37,41,276,47*66
$GBGSV,6,5,23,11,42,069,46,28,45,270,48,27,49,259,,02,07,106,35*62
$GBGSV,6,6,23,33,06,153,,30,01,255,,07,06,112,*58
$GPGGA,184557.00,,,,,0,00,,,M,,M,,*42
$PTNL,GGK,184557.00,010125,4742.1604120,N,01618.0999885,E,1,40,0.7,EHT751.2105,M*41
$GPGGQ,184557.00,010125,4742.1604120,N,01618.0999885,E,1,40,0.754,708.0039,M*3E
$GPGFA,184557.00,3.498,4.821,0.368,0.296,19.006,0.588,,VVV*3B
$GPLLK,184557.00,010125,,M,,M,1,40,0.8,,M*0D
$GNGMP,184557.00,,,,,DAAA,40,0.4,,,,*5C
$GPGMP,184557.00,,,,,,12,,,,2.8,136*7A
$GLGMP,184557.00,,,,,,09,,,,,*7C
$GAGMP,184557.00,,,,,,05,,,,,*7D
$GBGMP,184557.00,,,,,,14,,,,,*7E
$PSSN,SNC,[0,326775000,2347]*46
$GPZDA,184602.00,01,01,2025,,*6A
$GPDTM,W84,,00.0000000,N,00.0000000,E,00.0000000,W84*5F
$PSSN,TFM,184602.00,,,,*66
$GPRMC,184602.00,A,4742.1604146,N,01618.0999846,E,0.0,,010125,5.1,E,D*1C
$GPGLL,4742.1604146,N,01618.0999846,E,184602.00,A,D*6D
$GPGGA,184602.00,4742.1604146,N,01618.0999846,E,2,40,0.4,708.0066,M,43.2066,M,2.5,0136*49
$GNGNS,184602.00,4742.1604146,N,01618.0999846,E,DAAA,40,0.4,708.0066,43.2066,,*56
$GPGNS,184602.00,,,,,,12,,,,2.5,136*74
$GLGNS,184602.00,,,,,,09,,,,,*7F
$GAGNS,184602.00,,,,,,05,,,,,*7E
$GBGNS,184602.00,,,,,,14,,,,,*7D
$GPLLQ,184602.00,010125,,M,,M,1,40,0.761,,M*1C
$GPVTG,,T,,M,0.00,N,0.01,K,D*27
$GPHDT,,T*1B
$GPTHS,,V*0E
$GPROT,,V*08
$PSSN,HRP,184602.00,010125,,,,,,,00,0,,*68
$PTNL,AVR,184602.00,,Yaw,,Tilt,,,,0,,00*3E
$GPGSA,A,3,05,07,08,10,15,16,18,23,26,27,29,31,0.7,0.4,0.6*3F
$GPGSA,A,3,65,66,67,73,74,80,81,82,83,,,,0.7,0.4,0.6*32
$GPGSA,A,3,13,15,21,26,27,,,,,,,,0.7,0.4,0.6*33
$GPGSA,A,3,05,08,11,13,14,21,23,28,34,37,38,42,0.7,0.4,0.6*3B
$GPGSA,A,3,43,60,,,,,,,,,,,0.7,0.4,0.6*36
$GPGST,184602.00,1.731,0.371,0.300,19.462,0.363,0.309,0.593*67
$GPGBS,184602.00,2.278,1.539,2.900,67,0.0001,5.839,6.344*5E
$GPGRS,184602.00,1,1.1,-0.3,-0.4,-0.2,0.4,0.2,-0.3,0.3,-0.3,-0.0,0.1,0.3*45
$GPGRS,184602.00,1,2.2,-3.7,5.8,4.5,-3.1,0.2,1.1,-0.7,-2.1,,,*65
$GPGRS,184602.00,1,-0.2,-0.1,0.1,0.3,0.0,,,,,,,*68
$GPGRS,184602.00,1,1.1,1.1,0.4,-0.4,1.5,-1.2,-0.1,-0.1,-0.2,-0.2,-0.1,-0.1*40
$GPGRS,184602.00,1,-0.3,-1.3,,,,,,,,,,*46
$GPGSV,6,1,22,16,64,274,49,10,21,172,42,29,17,098,41,26,56,205,48*72
$GPGSV,6,2,22,27,38,292,45,23,47,134,47,18,60,057,47,05,06,031,38*78
$GPGSV,6,3,22,15,09,078,39,07,05,334,39,13,01,047,,08,06,288,37*70
$GPGSV,6,4,22,31,06,217,39,36,35,170,45,58,13,245,37,57,11,108,37*72
$GPGSV,6,5,22,34,31,208,42,40,24,133,36,49,34,195,44,41,07,108,34*7E
$GPGSV,6,6,22,61,03,257,38*46
$GLGSV,3,1,10,82,63,022,51,67,15,111,43,74,13,334,38,81,21,059,45*67
$GLGSV,3,2,10,66,24,058,47,73,47,300,50,80,45,209,51,83,55,279,42*6B
$GLGSV,3,3,10,65,08,011,38,79,03,176,23*68
$GAGSV,2,1,08,13,82,227,48,23,30,311,,26,27,232,42,27,35,161,44*60
$GAGSV,2,2,08,15,41,053,45,21,70,247,49,03,02,075,35,05,04,029,35*67
$GBGSV,6,1,23,43,66,063,51,46,11,326,,21,20,050,43,58,16,322,*64
$GBGSV,6,2,23,60,11,108,40,38,23,037,43,14,18,131,39,34,19,079,43*6F
$GBGSV,6,3,23,23,31,210,47,05,22,129,39,31,33,052,,42,26,103,43*6B
$GBGSV,6,4,23,08,37,042,42,50,26,075,,13,43,051,45,37,41,276,47*66
$GBGSV,6,5,23,11,42,069,46,28,45,270,48,27,49,259,,02,07,106,35*62
$GBGSV,6,6,23,33,06,153,,30,01,255,,07,06,112,*58
$GPGGA,184602.00,,,,,0,00,,,M,,M,,*41
$PTNL,GGK,184602.00,010125,4742.1604146,N,01618.0999846,E,1,40,0.7,EHT751.2132,M*49
$GPGGQ,184602.00,010125,4742.1604146,N,01618.0999846,E,1,40,0.761,708.0066,M*3E
$GPGFA,184602.00,3.523,4.861,0.371,0.300,19.462,0.593,,VVV*37
$GPLLK,184602.00,010125,,M,,M,1,40,0.8,,M*0E
$GNGMP,184602.00,,,,,DAAA,40,0.4,,,,*5F
$GPGMP,184602.00,,,,,,12,,,,2.5,136*74
$GLGMP,184602.00,,,,,,09,,,,,*7F
$GAGMP,184602.00,,,,,,05,,,,,*7E
$GBGMP,184602.00,,,,,,14,,,,,*7D
$PSSN,SNC,[0,326780000,2347]*4C
$GPZDA,184607.00,01,01,2025,,*6F
$GPDTM,W84,,00.0000000,N,00.0000000,E,00.0000000,W84*5F
$PSSN,TFM,184607.00,,,,*63
$GPRMC,184607.00,A,4742.1604128,N,01618.0999799,E,0.0,,010125,5.1,E,D*1C
$GPGLL,4742.1604128,N,01618.0999799,E,184607.00,A,D*6D
$GPGGA,184607.00,4742.1604128,N,01618.0999799,E,2,40,0.4,708.0084,M,43.2066,M,2.8,0136*48
$GNGNS,184607.00,4742.1604128,N,01618.0999799,E,DAAA,40,0.4,708.0084,43.2066,,*5A
$GPGNS,184607.00,,,,,,12,,,,2.8,136*7C
$GLGNS,184607.00,,,,,,09,,,,,*7A
$GAGNS,184607.00,,,,,,05,,,,,*7B
$GBGNS,184607.00,,,,,,14,,,,,*78
$GPLLQ,184607.00,010125,,M,,M,1,40,0.764,,M*1C
$GPVTG,,T,,M,0.00,N,0.01,K,D*27
$GPHDT,,T*1B
$GPTHS,,V*0E
$GPROT,,V*08
$PSSN,HRP,184607.00,010125,,,,,,,00,0,,*6D
$PTNL,AVR,184607.00,,Yaw,,Tilt,,,,0,,00*3B
$GPGSA,A,3,05,07,08,10,15,16,18,23,26,27,29,31,0.7,0.4,0.6*3F
$GPGSA,A,3,65,66,67,73,74,80,81,82,83,,,,0.7,0.4,0.6*32
$GPGSA,A,3,13,15,21,26,27,,,,,,,,0.7,0.4,0.6*33
$GPGSA,A,3,05,08,11,13,14,21,23,28,34,37,38,42,0.7,0.4,0.6*3B
$GPGSA,A,3,43,60,,,,,,,,,,,0.7,0.4,0.6*36
$GPGST,184607.00,1.940,0.372,0.303,19.963,0.364,0.312,0.595*6D
$GPGBS,184607.00,2.312,1.541,2.952,10,0.0001,-1.061,0.970*79
$GPGRS,184607.00,1,0.9,0.1,-0.7,-1.1,0.4,0.2,-0.1,0.5,-0.4,-0.2,0.1,0.7*62
$GPGRS,184607.00,1,2.3,-3.7,5.9,4.6,-5.1,-0.3,1.2,-0.9,-2.3,,,*46
$GPGRS,184607.00,1,-0.0,-0.2,0.1,0.1,-0.1,,,,,,,*42
$GPGRS,184607.00,1,1.0,1.7,0.3,-0.5,2.1,-0.8,-0.1,0.0,0.1,-0.0,-0.3,0.3*65
$GPGRS,184607.00,1,-0.7,-1.4,,,,,,,,,,*40
$GPGSV,6,1,22,16,64,274,49,10,21,172,42,29,17,098,42,26,56,205,49*70
$GPGSV,6,2,22,27,38,292,45,23,47,133,47,18,60,057,48,05,06,031,38*70
$GPGSV,6,3,22,15,09,078,40,07,05,334,39,13,01,047,,08,06,288,36*7F
$GPGSV,6,4,22,31,06,217,39,36,35,170,45,58,13,245,37,57,11,108,38*7D
$GPGSV,6,5,22,34,31,208,42,40,24,133,36,49,34,195,44,41,07,108,34*7E
$GPGSV,6,6,22,61,03,257,38*46
$GLGSV,3,1,10,82,63,022,51,67,15,111,43,74,14,334,39,81,21,059,46*62
$GLGSV,3,2,10,66,24,058,47,73,47,300,50,80,45,209,51,83,55,280,42*6D
$GLGSV,3,3,10,65,08,011,38,79,03,176,22*69
$GAGSV,2,1,08,13,82,227,48,23,30,311,,26,27,232,42,27,35,161,43*67
$GAGSV,2,2,08,15,41,053,44,21,70,247,48,03,02,075,35,05,04,029,34*66
$GBGSV,6,1,23,43,66,064,51,46,11,326,,21,20,050,42,58,16,322,*62
$GBGSV,6,2,23,60,11,108,40,38,23,037,42,14,18,131,39,34,19,079,42*6F
$GBGSV,6,3,23,23,31,210,46,05,22,129,39,31,33,052,,42,26,103,43*6A
$GBGSV,6,4,23,08,37,042,42,50,26,075,,13,43,051,45,37,41,276,47*66
$GBGSV,6,5,23,11,42,069,46,28,45,270,48,27,49,260,,02,07,106,35*68
$GBGSV,6,6,23,33,06,153,,30,01,255,,07,06,112,*58
$GPGGA,184607.00,,,,,0,00,,,M,,M,,*44
$PTNL,GGK,184607.00,010125,4742.1604128,N,01618.0999799,E,1,40,0.7,EHT751.2149,M*45
$GPGGQ,184607.00,010125,4742.1604128,N,01618.0999799,E,1,40,0.764,708.0084,M*37
$GPGFA,184607.00,3.534,4.882,0.372,0.303,19.963,0.595,,VVV*33
$GPLLK,184607.00,010125,,M,,M,1,40,0.8,,M*0B
$GNGMP,184607.00,,,,,DAAA,40,0.4,,,,*5A
$GPGMP,184607.00,,,,,,12,,,,2.8,136*7C
$GLGMP,184607.00,,,,,,09,,,,,*7A
$GAGMP,184607.00,,,,,,05,,,,,*7B
$GBGMP,184607.00,,,,,,14,,,,,*78
$PSSN,SNC,[0,326785000,2347]*49
$GPZDA,184612.00,01,01,2025,,*6B
$GPDTM,W84,,00.0000000,N,00.0000000,E,00.0000000,W84*5F
$PSSN,TFM,184612.00,,,,*67
$GPRMC,184612.00,A,4742.1604106,N,01618.0999805,E,0.0,,010125,5.1,E,D*1E
$GPGLL,4742.1604106,N,01618.0999805,E,184612.00,A,D*6F
$GPGGA,184612.00,4742.1604106,N,01618.0999805,E,2,40,0.4,708.0072,M,43.2066,M,1.8,0136*40
$GNGNS,184612.00,4742.1604106,N,01618.0999805,E,DAAA,40,0.4,708.0072,43.2066,,*51
$GPGNS,184612.00,,,,,,12,,,,1.8,136*7B
$GLGNS,184612.00,,,,,,09,,,,,*7E
$GAGNS,184612.00,,,,,,05,,,,,*7F
$GBGNS,184612.00,,,,,,14,,,,,*7C
$GPLLQ,184612.00,010125,,M,,M,1,40,0.762,,M*1E
$GPVTG,,T,,M,0.00,N,0.00,K,D*26
$GPHDT,,T*1B
$GPTHS,,V*0E
$GPROT,,V*08
$PSSN,HRP,184612.00,010125,,,,,,,00,0,,*69
$PTNL,AVR,184612.00,,Yaw,,Tilt,,,,0,,00*3F
$GPGSA,A,3,05,07,08,10,15,16,18,23,26,27,29,31,0.7,0.4,0.6*3F
$GPGSA,A,3,65,66,67,73,74,80,81,82,83,,,,0.7,0.4,0.6*32
$GPGSA,A,3,13,15,21,26,27,,,,,,,,0.7,0.4,0.6*33
$GPGSA,A,3,05,08,11,13,14,21,23,28,34,37,38,42,0.7,0.4,0.6*3B
$GPGSA,A,3,43,60,,,,,,,,,,,0.7,0.4,0.6*36
$GPGST,184612.00,1.858,0.371,0.300,19.447,0.364,0.309,0.594*61
$GPGBS,184612.00,2.190,1.524,2.844,67,0.0001,5.532,6.343*56
$GPGRS,184612.00,1,0.3,0.4,-0.6,-0.7,0.2,0.1,-0.3,0.3,-0.0,0.3,-0.4,0.7*6E
$GPGRS,184612.00,1,2.7,-4.1,5.5,4.3,-4.6,0.5,1.3,-0.6,-2.2,,,*6C
$GPGRS,184612.00,1,0.1,-0.2,-0.0,0.0,0.1,,,,,,,*6A
$GPGRS,184612.00,1,1.1,1.8,0.3,-0.6,1.6,-0.4,-0.3,-0.3,-0.5,-0.2,0.0,0.4*4A
$GPGRS,184612.00,1,-0.8,-1.1,,,,,,,,,,*4E
$GPGSV,6,1,22,16,64,274,49,10,21,172,42,29,17,098,42,26,56,205,49*70
$GPGSV,6,2,22,27,38,292,46,23,47,133,48,18,60,057,47,05,06,031,38*73
$GPGSV,6,3,22,15,09,078,40,07,05,334,38,13,01,047,,08,06,288,38*70
$GPGSV,6,4,22,31,06,217,39,36,35,170,45,58,13,245,37,57,11,108,37*72
$GPGSV,6,5,22,34,31,208,42,40,24,133,36,49,34,195,44,41,07,108,34*7E
$GPGSV,6,6,22,61,03,257,38*46
$GLGSV,3,1,10,82,63,022,51,67,15,111,43,74,14,334,38,81,21,059,46*63
$GLGSV,3,2,10,66,24,058,47,73,47,300,50,80,45,209,52,83,55,280,42*6E
$GLGSV,3,3,10,65,08,011,38,79,03,176,*69
$GAGSV,2,1,08,13,82,227,48,23,30,311,,26,27,232,41,27,35,161,43*64
$GAGSV,2,2,08,15,41,053,44,21,70,247,48,03,02,075,35,05,04,029,34*66
$GBGSV,6,1,23,43,66,064,51,46,11,326,,21,20,050,43,58,16,322,*63
$GBGSV,6,2,23,60,11,108,40,38,23,037,42,14,18,131,39,34,19,079,42*6F
$GBGSV,6,3,23,23,31,210,46,05,22,129,38,31,33,052,,42,26,103,44*6C
$GBGSV,6,4,23,08,37,042,42,50,26,075,,13,43,051,45,37,41,276,47*66
$GBGSV,6,5,23,11,42,069,46,28,45,270,48,27,49,260,,02,07,106,35*68
$GBGSV,6,6,23,33,06,153,,30,02,255,,07,06,112,*5B
$GPGGA,184612.00,,,,,0,00,,,M,,M,,*40
$PTNL,GGK,184612.00,010125,4742.1604106,N,01618.0999805,E,1,40,0.7,EHT751.2138,M*41
$GPGGQ,184612.00,010125,4742.1604106,N,01618.0999805,E,1,40,0.762,708.0072,M*3A
$GPGFA,184612.00,3.527,4.868,0.371,0.300,19.447,0.594,,VVV*3B
$GPLLK,184612.00,010125,,M,,M,1,40,0.8,,M*0F
$GNGMP,184612.00,,,,,DAAA,40,0.4,,,,*5E
$GPGMP,184612.00,,,,,,12,,,,1.8,136*7B
$GLGMP,184612.00,,,,,,09,,,,,*7E
$GAGMP,184612.00,,,,,,05,,,,,*7F
$GBGMP,184612.00,,,,,,14,,,,,*7C
$PSSN,SNC,[0,326790000,2347]*4D
$GPZDA,184617.00,01,01,2025,,*6E
$GPDTM,W84,,00.0000000,N,00.0000000,E,00.0000000,W84*5F
$PSSN,TFM,184617.00,,,,*62
$GPRMC,184617.00,A,4742.1604108,N,01618.0999820,E,0.0,,010125,5.1,E,D*12
$GPGLL,4742.1604108,N,01618.0999820,E,184617.00,A,D*63
$GPGGA,184617.00,4742.1604108,N,01618.0999820,E,2,40,0.4,708.0103,M,43.2066,M,2.8,0136*48
$GNGNS,184617.00,4742.1604108,N,01618.0999820,E,DAAA,40,0.4,708.0103,43.2066,,*5A
$GPGNS,184617.00,,,,,,12,,,,2.8,136*7D
$GLGNS,184617.00,,,,,,09,,,,,*7B
$GAGNS,184617.00,,,,,,05,,,,,*7A
$GBGNS,184617.00,,,,,,14,,,,,*79
$GPLLQ,184617.00,010125,,M,,M,1,40,0.754,,M*1E
$GPVTG,,T,,M,0.00,N,0.01,K,D*27
$GPHDT,,T*1B
$GPTHS,,V*0E
$GPROT,,V*08
$PSSN,HRP,184617.00,010125,,,,,,,00,0,,*6C
$PTNL,AVR,184617.00,,Yaw,,Tilt,,,,0,,00*3A
$GPGSA,A,3,05,07,08,10,15,16,18,23,26,27,29,31,0.7,0.4,0.6*3F
$GPGSA,A,3,65,66,67,73,74,80,81,82,83,,,,0.7,0.4,0.6*32
$GPGSA,A,3,13,15,21,26,27,,,,,,,,0.7,0.4,0.6*33
$GPGSA,A,3,05,08,11,13,14,21,23,28,34,37,38,42,0.7,0.4,0.6*3B
$GPGSA,A,3,43,60,,,,,,,,,,,0.7,0.4,0.6*36
$GPGST,184617.00,1.817,0.368,0.296,19.004,0.361,0.304,0.588*6F
$GPGBS,184617.00,2.223,1.538,2.884,67,0.0001,5.587,6.343*57
$GPGRS,184617.00,1,-0.3,-0.2,-0.2,-0.2,0.5,0.1,-0.5,0.4,-0.1,0.3,-0.5,1.1*6D
$GPGRS,184617.00,1,2.1,-4.1,5.6,4.3,-4.2,0.8,0.7,-0.9,-2.4,,,*69
$GPGRS,184617.00,1,0.1,-0.1,0.0,0.2,0.3,,,,,,,*41
$GPGRS,184617.00,1,1.0,1.3,-0.1,-0.7,2.4,-0.3,-0.1,-0.2,-0.4,-0.4,0.1,0.3*6F
$GPGRS,184617.00,1,-0.4,-1.0,,,,,,,,,,*46
$GPGSV,6,1,22,16,64,274,49,10,21,172,42,29,17,098,42,26,56,205,49*70
$GPGSV,6,2,22,27,38,292,45,23,48,133,48,18,60,057,48,05,06,031,38*70
$GPGSV,6,3,22,15,09,078,40,07,05,334,39,13,01,047,33,08,06,288,37*7E
$GPGSV,6,4,22,31,06,217,39,36,35,170,45,58,13,245,37,57,11,108,37*72
$GPGSV,6,5,22,34,31,208,42,40,24,133,36,49,34,195,44,41,07,108,34*7E
$GPGSV,6,6,22,61,03,257,38*46
$GLGSV,3,1,10,82,63,022,51,67,15,111,42,74,14,334,38,81,21,059,46*62
