$GPZDA,164442.00,01,01,2025,,*62
$GPDTM,W84,,00.0000000,N,00.0000000,E,00.0000000,W84*5F
$PSSN,TFM,164442.00,,,,*6E
$GPRMC,164442.00,A,4742.1605854,N,01618.1002169,E,0.0,,010125,5.1,E,D*11
$GPGLL,4742.1605854,N,01618.1002169,E,164442.00,A,D*60
$GPGGA,164442.00,4742.1605854,N,01618.1002169,E,2,36,0.5,706.8658,M,43.2066,M,3.1,0136*4C
$GNGNS,164442.00,4742.1605854,N,01618.1002169,E,DAAA,36,0.5,706.8658,43.2066,,*56
$GPGNS,164442.00,,,,,,09,,,,3.1,136*73
$GLGNS,164442.00,,,,,,07,,,,,*79
$GAGNS,164442.00,,,,,,06,,,,,*75
$GBGNS,164442.00,,,,,,14,,,,,*75
$GPLLQ,164442.00,010125,,M,,M,1,36,1.313,,M*15
$GPVTG,,T,,M,0.00,N,0.01,K,D*27
$GPHDT,,T*1B
$GPTHS,,V*0E
$GPROT,,V*08
$PSSN,HRP,164442.00,010125,,,,,,,00,0,,*60
$PTNL,AVR,164442.00,,Yaw,,Tilt,,,,0,,00*36
$GPGSA,A,3,05,16,18,20,25,26,28,29,31,,,,0.9,0.5,0.7*30
$GPGSA,A,3,72,78,79,80,81,82,88,,,,,,0.9,0.5,0.7*36
$GPGSA,A,3,13,15,21,27,30,34,,,,,,,0.9,0.5,0.7*3D
$GPGSA,A,3,05,08,11,12,13,22,23,25,34,37,38,43,0.9,0.5,0.7*3C
$GPGSA,A,3,44,60,,,,,,,,,,,0.9,0.5,0.7*3F
$GPGST,164442.00,1.483,0.485,0.373,355.798,0.484,0.373,1.162*58
$GPGBS,164442.00,2.529,1.869,8.690,72,0.0001,6.206,6.632*54
$GPGRS,164442.00,1,0.0,-1.3,0.1,0.7,-0.3,-0.1,0.1,-0.2,0.2,,,*66
$GPGRS,164442.00,1,6.2,-3.1,0.0,-1.4,0.1,-0.2,-0.7,,,,,*66
$GPGRS,164442.00,1,0.7,-0.0,-0.2,-0.4,0.1,0.0,,,,,,*62
$GPGRS,164442.00,1,1.1,0.4,0.6,1.9,-0.8,-1.3,-0.1,-0.3,-0.8,-1.1,-0.3,0.6*6D
$GPGRS,164442.00,1,-0.3,0.0,,,,,,,,,,*61
$GPGSV,5,1,20,29,64,058,48,16,17,303,39,20,17,042,39,25,35,132,44*75
$GPGSV,5,2,20,05,27,077,45,28,37,226,46,26,47,300,47,18,55,184,48*78
$GPGSV,5,3,20,31,44,262,47,04,03,320,37,09,00,345,37,36,35,170,45*73
$GPGSV,5,4,20,58,13,245,37,40,23,133,36,34,31,208,43,49,34,195,45*7D
$GPGSV,5,5,20,57,08,111,39,41,07,108,35,61,03,257,39*49
$GLGSV,3,1,10,81,79,016,52,78,17,151,46,88,24,042,46,80,49,319,51*67
$GLGSV,3,2,10,82,46,229,51,79,70,168,52,65,04,065,39,71,01,329,43*67
$GLGSV,3,3,10,83,05,223,33,72,09,013,39*6D
$GAGSV,2,1,08,27,83,134,48,34,31,046,43,30,29,125,43,13,33,196,44*62
$GAGSV,2,2,08,21,40,303,44,15,70,116,48,04,04,333,36,19,04,280,31*6C
$GBGSV,6,1,22,11,90,167,48,13,38,078,43,60,10,109,39,38,30,052,44*62
$GBGSV,6,2,22,37,16,317,40,05,21,129,39,12,33,056,43,25,46,179,50*63
$GBGSV,6,3,22,08,37,067,42,31,43,064,,23,59,278,50,34,63,060,50*66
$GBGSV,6,4,22,43,65,238,51,28,04,237,39,24,01,152,,21,01,048,*6D
$GBGSV,6,5,22,02,06,107,34,10,03,090,34,27,06,227,,44,10,059,41*6D
$GBGSV,6,6,22,56,08,074,,22,06,047,40*62
$GPGGA,164442.00,,,,,0,00,,,M,,M,,*49
$PTNL,GGK,164442.00,010125,4742.1605854,N,01618.1002169,E,1,36,0.9,EHT750.0723,M*4E
$GPGGQ,164442.00,010125,4742.1605854,N,01618.1002169,E,1,36,1.313,706.8658,M*3F
$GPGFA,164442.00,4.607,9.530,0.485,0.373,355.798,1.162,,VVV*07
$GPLLK,164442.00,010125,,M,,M,1,36,1.0,,M*0E
$GNGMP,164442.00,,,,,DAAA,36,0.5,,,,*57
$GPGMP,164442.00,,,,,,09,,,,3.1,136*73
$GLGMP,164442.00,,,,,,07,,,,,*79
$GAGMP,164442.00,,,,,,06,,,,,*75
$GBGMP,164442.00,,,,,,14,,,,,*75
$PSSN,SNC,[0,319500000,2347]*4A
$GPZDA,164447.00,01,01,2025,,*67
$GPDTM,W84,,00.0000000,N,00.0000000,E,00.0000000,W84*5F
$PSSN,TFM,164447.00,,,,*6B
$GPRMC,164447.00,A,4742.1605854,N,01618.1002172,E,0.0,,010125,5.1,E,D*1E
$GPGLL,4742.1605854,N,01618.1002172,E,164447.00,A,D*6F
$GPGGA,164447.00,4742.1605854,N,01618.1002172,E,2,36,0.5,706.8681,M,43.2066,M,2.8,0136*4F
$GNGNS,164447.00,4742.1605854,N,01618.1002172,E,DAAA,36,0.5,706.8681,43.2066,,*5D
$GPGNS,164447.00,,,,,,09,,,,2.8,136*7E
$GLGNS,164447.00,,,,,,07,,,,,*7C
$GAGNS,164447.00,,,,,,06,,,,,*70
$GBGNS,164447.00,,,,,,14,,,,,*70
$GPLLQ,164447.00,010125,,M,,M,1,36,1.312,,M*11
$GPVTG,,T,,M,0.00,N,0.01,K,D*27
$GPHDT,,T*1B
$GPTHS,,V*0E
$GPROT,,V*08
$PSSN,HRP,164447.00,010125,,,,,,,00,0,,*65
$PTNL,AVR,164447.00,,Yaw,,Tilt,,,,0,,00*33
$GPGSA,A,3,05,16,18,20,25,26,28,29,31,,,,0.9,0.5,0.7*30
$GPGSA,A,3,72,78,79,80,81,82,88,,,,,,0.9,0.5,0.7*36
$GPGSA,A,3,13,15,21,27,30,34,,,,,,,0.9,0.5,0.7*3D
$GPGSA,A,3,05,08,11,12,13,22,23,25,34,37,38,43,0.9,0.5,0.7*3C
$GPGSA,A,3,44,60,,,,,,,,,,,0.9,0.5,0.7*3F
$GPGST,164447.00,1.579,0.488,0.372,354.221,0.487,0.373,1.160*52
$GPGBS,164447.00,2.533,1.893,8.491,16,0.0001,-1.714,1.762*71
$GPGRS,164447.00,1,-0.2,-1.7,0.1,1.0,-0.1,0.2,0.1,-0.2,0.3,,,*63
$GPGRS,164447.00,1,6.2,-3.2,-0.2,-2.3,0.1,0.1,-1.4,,,,,*67
$GPGRS,164447.00,1,0.4,-0.1,-0.2,-0.4,0.2,0.1,,,,,,*67
$GPGRS,164447.00,1,1.7,0.7,0.7,1.4,-0.4,-1.7,-0.4,-0.4,-0.9,-0.8,-0.1,0.8*6E
$GPGRS,164447.00,1,-0.3,-0.2,,,,,,,,,,*4B
$GPGSV,5,1,20,29,64,058,48,16,17,303,40,20,17,042,39,25,35,132,43*7C
$GPGSV,5,2,20,05,27,077,44,28,37,226,46,26,47,300,47,18,55,184,49*78
$GPGSV,5,3,20,31,44,262,47,04,03,320,38,09,00,345,35,36,35,170,45*7E
$GPGSV,5,4,20,58,13,245,37,40,23,133,37,34,31,208,43,49,34,195,45*7C
$GPGSV,5,5,20,57,08,111,38,41,07,108,35,61,03,257,38*49
$GLGSV,3,1,10,81,79,016,52,78,17,151,46,88,24,042,45,80,49,319,52*67
$GLGSV,3,2,10,82,46,229,51,79,70,168,52,65,04,065,39,71,01,329,42*66
$GLGSV,3,3,10,83,06,223,33,72,09,013,39*6E
$GAGSV,2,1,08,27,83,134,48,34,31,046,42,30,29,125,43,13,33,196,44*63
$GAGSV,2,2,08,21,40,303,44,15,70,116,48,04,04,333,36,19,04,280,30*6D
$GBGSV,6,1,22,11,90,162,48,08,37,067,42,60,10,109,39,37,16,317,41*61
$GBGSV,6,2,22,38,30,052,44,05,21,129,39,12,33,056,43,25,46,179,50*6E
$GBGSV,6,3,22,13,38,078,43,31,43,064,,23,59,278,50,34,63,060,50*6C
$GBGSV,6,4,22,43,65,238,51,28,04,237,39,24,01,152,,21,01,048,*6D
$GBGSV,6,5,22,10,03,090,34,02,06,107,34,27,06,227,,44,10,059,40*6C
$GBGSV,6,6,22,56,08,074,,22,06,047,39*6C
$GPGGA,164447.00,,,,,0,00,,,M,,M,,*4C
$PTNL,GGK,164447.00,010125,4742.1605854,N,01618.1002172,E,1,36,0.9,EHT750.0746,M*42
$GPGGQ,164447.00,010125,4742.1605854,N,01618.1002172,E,1,36,1.312,706.8681,M*35
$GPGFA,164447.00,4.640,9.510,0.488,0.372,354.221,1.160,,VVV*0B
$GPLLK,164447.00,010125,,M,,M,1,36,1.0,,M*0B
$GNGMP,164447.00,,,,,DAAA,36,0.5,,,,*52
$GPGMP,164447.00,,,,,,09,,,,2.8,136*7E
$GLGMP,164447.00,,,,,,07,,,,,*7C
$GAGMP,164447.00,,,,,,06,,,,,*70
$GBGMP,164447.00,,,,,,14,,,,,*70
$PSSN,SNC,[0,319505000,2347]*4F
$GPZDA,164452.00,01,01,2025,,*63
$GPDTM,W84,,00.0000000,N,00.0000000,E,00.0000000,W84*5F
$PSSN,TFM,164452.00,,,,*6F
$GPRMC,164452.00,A,4742.1605851,N,01618.1002185,E,0.0,,010125,5.1,E,D*17
$GPGLL,4742.1605851,N,01618.1002185,E,164452.00,A,D*66
$GPGGA,164452.00,4742.1605851,N,01618.1002185,E,2,36,0.5,706.8671,M,43.2066,M,1.6,0136*44
$GNGNS,164452.00,4742.1605851,N,01618.1002185,E,DAAA,36,0.5,706.8671,43.2066,,*5B
$GPGNS,164452.00,,,,,,09,,,,1.6,136*77
$GLGNS,164452.00,,,,,,07,,,,,*78
$GAGNS,164452.00,,,,,,06,,,,,*74
$GBGNS,164452.00,,,,,,14,,,,,*74
$GPLLQ,164452.00,010125,,M,,M,1,36,1.294,,M*1A
$GPVTG,,T,,M,0.00,N,0.00,K,D*26
$GPHDT,,T*1B
$GPTHS,,V*0E
$GPROT,,V*08
$PSSN,HRP,164452.00,010125,,,,,,,00,0,,*61
$PTNL,AVR,164452.00,,Yaw,,Tilt,,,,0,,00*37
$GPGSA,A,3,05,16,18,20,25,26,28,29,31,,,,0.9,0.5,0.7*30
$GPGSA,A,3,72,78,79,80,81,82,88,,,,,,0.9,0.5,0.7*36
$GPGSA,A,3,13,15,21,27,30,34,,,,,,,0.9,0.5,0.7*3D
$GPGSA,A,3,05,08,11,12,13,22,23,25,34,37,38,43,0.9,0.5,0.7*3C
$GPGSA,A,3,44,60,,,,,,,,,,,0.9,0.5,0.7*3F
$GPGST,164452.00,1.423,0.481,0.368,353.647,0.480,0.369,1.143*54
$GPGBS,164452.00,2.453,1.850,8.419,72,0.0001,5.560,6.633*55
$GPGRS,164452.00,1,-0.3,-0.7,0.1,1.1,-0.5,0.3,0.3,-0.4,0.2,,,*66
$GPGRS,164452.00,1,5.6,-3.4,-0.0,-1.5,0.2,0.1,-0.6,,,,,*65
$GPGRS,164452.00,1,0.5,0.0,-0.2,-0.3,0.1,0.2,,,,,,*49
$GPGRS,164452.00,1,1.8,0.4,1.4,0.6,0.1,-1.8,-0.2,-0.3,-1.0,-0.7,-0.3,0.5*49
$GPGRS,164452.00,1,-0.4,-0.3,,,,,,,,,,*49
$GPGSV,5,1,20,29,64,058,48,16,17,303,40,20,17,042,40,25,35,132,43*72
$GPGSV,5,2,20,05,27,077,44,28,37,226,46,26,47,300,47,18,55,184,48*79
$GPGSV,5,3,20,31,44,262,47,04,03,319,35,09,00,345,35,36,35,170,45*79
$GPGSV,5,4,20,58,13,245,37,40,23,133,36,34,31,208,43,49,34,195,45*7D
$GPGSV,5,5,20,57,08,111,39,41,07,108,35,61,03,257,39*49
$GLGSV,3,1,10,81,79,016,52,78,17,151,46,88,24,042,46,80,49,319,51*67
$GLGSV,3,2,10,82,46,229,51,79,70,168,52,65,04,065,39,71,01,329,42*66
$GLGSV,3,3,10,83,06,223,33,72,09,013,38*6F
$GAGSV,2,1,08,27,83,134,48,34,31,046,43,30,29,125,43,13,33,196,44*62
$GAGSV,2,2,08,21,40,303,44,15,70,116,48,04,04,333,36,19,04,280,31*6C
$GBGSV,6,1,22,11,90,158,49,08,37,067,42,60,10,109,39,37,16,317,41*69
$GBGSV,6,2,22,38,30,052,44,05,21,129,38,12,33,056,42,25,46,179,49*66
$GBGSV,6,3,22,13,38,078,44,31,43,064,,23,59,278,50,34,63,060,50*6B
$GBGSV,6,4,22,43,65,238,51,28,04,237,39,24,01,152,,21,01,048,*6D
$GBGSV,6,5,22,10,03,091,34,02,06,107,34,27,06,227,,44,10,059,40*6D
$GBGSV,6,6,22,56,08,074,,22,06,047,39*6C
$GPGGA,164452.00,,,,,0,00,,,M,,M,,*48
$PTNL,GGK,164452.00,010125,4742.1605851,N,01618.1002185,E,1,36,0.9,EHT750.0736,M*4C
$GPGGQ,164452.00,010125,4742.1605851,N,01618.1002185,E,1,36,1.294,706.8671,M*3C
$GPGFA,164452.00,4.577,9.374,0.481,0.368,353.647,1.143,,VVV*0C
$GPLLK,164452.00,010125,,M,,M,1,36,1.0,,M*0F
$GNGMP,164452.00,,,,,DAAA,36,0.5,,,,*56
$GPGMP,164452.00,,,,,,09,,,,1.6,136*77
$GLGMP,164452.00,,,,,,07,,,,,*78
$GAGMP,164452.00,,,,,,06,,,,,*74
$GBGMP,164452.00,,,,,,14,,,,,*74
$PSSN,SNC,[0,319510000,2347]*4B
$GPZDA,164457.00,01,01,2025,,*66
$GPDTM,W84,,00.0000000,N,00.0000000,E,00.0000000,W84*5F
$PSSN,TFM,164457.00,,,,*6A
$GPRMC,164457.00,A,4742.1605845,N,01618.1002195,E,0.0,,010125,5.1,E,D*16
$GPGLL,4742.1605845,N,01618.1002195,E,164457.00,A,D*67
$GPGGA,164457.00,4742.1605845,N,01618.1002195,E,2,36,0.5,706.8767,M,43.2066,M,2.6,0136*40
$GNGNS,164457.00,4742.1605845,N,01618.1002195,E,DAAA,36,0.5,706.8767,43.2066,,*5C
$GPGNS,164457.00,,,,,,09,,,,2.6,136*71
$GLGNS,164457.00,,,,,,07,,,,,*7D
$GAGNS,164457.00,,,,,,06,,,,,*71
$GBGNS,164457.00,,,,,,14,,,,,*71
$GPLLQ,164457.00,010125,,M,,M,1,36,1.297,,M*1C
$GPVTG,,T,,M,0.00,N,0.01,K,D*27
$GPHDT,,T*1B
$GPTHS,,V*0E
$GPROT,,V*08
$PSSN,HRP,164457.00,010125,,,,,,,00,0,,*64
$PTNL,AVR,164457.00,,Yaw,,Tilt,,,,0,,00*32
$GPGSA,A,3,05,16,18,20,25,26,28,29,31,,,,0.9,0.5,0.7*30
$GPGSA,A,3,72,78,79,80,81,82,88,,,,,,0.9,0.5,0.7*36
$GPGSA,A,3,13,15,21,27,30,34,,,,,,,0.9,0.5,0.7*3D
$GPGSA,A,3,05,08,11,12,13,22,23,25,34,37,38,43,0.9,0.5,0.7*3C
$GPGSA,A,3,44,60,,,,,,,,,,,0.9,0.5,0.7*3F
$GPGST,164457.00,1.427,0.478,0.369,355.626,0.477,0.370,1.148*58
$GPGBS,164457.00,2.486,1.864,8.499,20,0.0001,1.128,1.445*58
$GPGRS,164457.00,1,0.3,-0.8,-0.2,1.1,0.1,-0.4,0.3,-0.4,0.4,,,*6A
$GPGRS,164457.00,1,5.0,-3.6,0.2,-1.9,0.5,-0.2,0.1,,,,,*44
$GPGRS,164457.00,1,0.7,0.0,-0.1,-0.2,-0.0,0.1,,,,,,*63
$GPGRS,164457.00,1,2.0,0.7,1.3,-0.3,-0.3,-2.1,-0.2,-0.3,-0.8,-1.1,-0.7,0.3*42
$GPGRS,164457.00,1,-0.5,-0.1,,,,,,,,,,*4F
$GPGSV,5,1,20,29,64,058,48,16,17,303,39,20,17,042,40,25,35,132,43*7C
$GPGSV,5,2,20,05,27,077,44,28,37,226,46,26,47,300,46,18,55,184,48*78
$GPGSV,5,3,20,31,44,262,47,04,03,319,37,09,00,345,35,36,35,170,45*7B
$GPGSV,5,4,20,58,13,245,37,40,23,133,36,34,31,208,43,49,34,195,45*7D
$GPGSV,5,5,20,57,08,111,39,41,07,108,35,61,03,257,38*48
$GLGSV,3,1,10,81,79,016,52,78,17,151,46,88,24,042,47,80,49,319,52*65
$GLGSV,3,2,10,82,46,229,50,79,70,168,52,65,04,065,39,71,01,329,42*67
$GLGSV,3,3,10,83,06,223,32,72,09,013,38*6E
$GAGSV,2,1,08,27,83,134,48,34,31,046,43,30,29,125,43,13,33,196,44*62
$GAGSV,2,2,08,21,40,303,44,15,70,116,48,04,04,333,36,19,04,280,30*6D
$GBGSV,6,1,22,11,90,155,49,08,37,067,42,60,10,109,40,38,30,052,44*66
$GBGSV,6,2,22,37,16,317,41,05,21,129,39,12,33,056,42,25,46,179,50*63
$GBGSV,6,3,22,13,38,078,44,31,43,064,,23,59,278,50,34,63,060,50*6B
$GBGSV,6,4,22,43,65,238,50,28,04,237,39,24,01,152,,21,01,048,*6C
$GBGSV,6,5,22,02,06,107,34,10,03,091,34,27,06,227,,44,10,059,39*63
$GBGSV,6,6,22,56,08,074,,22,06,047,39*6C
$GPGGA,164457.00,,,,,0,00,,,M,,M,,*4D
$PTNL,GGK,164457.00,010125,4742.1605845,N,01618.1002195,E,1,36,0.9,EHT750.0832,M*46
$GPGGQ,164457.00,010125,4742.1605845,N,01618.1002195,E,1,36,1.297,706.8767,M*38
$GPGFA,164457.00,4.541,9.411,0.478,0.369,355.626,1.148,,VVV*05
$GPLLK,164457.00,010125,,M,,M,1,36,1.0,,M*0A
$GNGMP,164457.00,,,,,DAAA,36,0.5,,,,*53
$GPGMP,164457.00,,,,,,09,,,,2.6,136*71
$GLGMP,164457.00,,,,,,07,,,,,*7D
$GAGMP,164457.00,,,,,,06,,,,,*71
$GBGMP,164457.00,,,,,,14,,,,,*71
$PSSN,SNC,[0,319515000,2347]*4E
$GPZDA,164502.00,01,01,2025,,*67
$GPDTM,W84,,00.0000000,N,00.0000000,E,00.0000000,W84*5F
$PSSN,TFM,164502.00,,,,*6B
$GPRMC,164502.00,A,4742.1605860,N,01618.1002161,E,0.0,,010125,5.1,E,D*1B
$GPGLL,4742.1605860,N,01618.1002161,E,164502.00,A,D*6A
$GPGGA,164502.00,4742.1605860,N,01618.1002161,E,2,36,0.5,706.8779,M,43.2066,M,3.1,0136*44
$GNGNS,164502.00,4742.1605860,N,01618.1002161,E,DAAA,36,0.5,706.8779,43.2066,,*5E
$GPGNS,164502.00,,,,,,09,,,,3.1,136*76
$GLGNS,164502.00,,,,,,07,,,,,*7C
$GAGNS,164502.00,,,,,,06,,,,,*70
$GBGNS,164502.00,,,,,,14,,,,,*70
$GPLLQ,164502.00,010125,,M,,M,1,36,1.312,,M*11
$GPVTG,,T,,M,0.01,N,0.01,K,D*26
$GPHDT,,T*1B
$GPTHS,,V*0E
$GPROT,,V*08
$PSSN,HRP,164502.00,010125,,,,,,,00,0,,*65
$PTNL,AVR,164502.00,,Yaw,,Tilt,,,,0,,00*33
$GPGSA,A,3,05,16,18,20,25,26,28,29,31,,,,0.9,0.5,0.7*30
$GPGSA,A,3,72,78,79,80,81,82,88,,,,,,0.9,0.5,0.7*36
$GPGSA,A,3,13,15,21,27,30,34,,,,,,,0.9,0.5,0.7*3D
$GPGSA,A,3,05,08,11,12,13,22,23,25,34,37,38,43,0.9,0.5,0.7*3C
$GPGSA,A,3,44,60,,,,,,,,,,,0.9,0.5,0.7*3F
$GPGST,164502.00,1.494,0.484,0.373,355.599,0.484,0.374,1.161*5D
$GPGBS,164502.00,2.538,1.871,8.630,72,0.0001,5.847,6.633*5F
$GPGRS,164502.00,1,0.3,-1.1,-0.2,0.8,0.1,-0.2,0.1,-0.3,0.4,,,*68
$GPGRS,164502.00,1,5.8,-3.4,-0.3,-1.8,0.7,-0.3,0.7,,,,,*67
$GPGRS,164502.00,1,0.5,-0.0,-0.2,-0.2,-0.1,0.0,,,,,,*4E
$GPGRS,164502.00,1,1.8,0.7,0.8,0.1,-0.2,-1.9,-0.1,-0.2,-0.7,-1.5,-0.7,0.4*69
$GPGRS,164502.00,1,-0.6,-0.1,,,,,,,,,,*4D
$GPGSV,5,1,20,29,64,058,48,16,17,303,39,20,17,042,40,25,35,132,45*7A
$GPGSV,5,2,20,05,27,077,43,28,37,226,46,26,47,300,46,18,55,184,48*7F
$GPGSV,5,3,20,31,44,262,47,04,03,319,37,09,00,345,36,36,35,170,45*78
$GPGSV,5,4,20,58,13,245,37,40,23,133,37,34,31,208,43,49,34,195,45*7C
$GPGSV,5,5,20,57,08,111,39,41,07,108,35,61,03,257,39*49
$GLGSV,3,1,10,81,79,016,52,78,17,151,45,88,24,042,47,80,49,319,52*66
$GLGSV,3,2,10,82,46,229,50,79,69,168,52,65,04,065,38,71,01,329,42*6E
$GLGSV,3,3,10,83,06,223,32,72,09,013,38*6E
$GAGSV,2,1,08,27,83,134,48,34,31,046,43,30,29,125,43,13,33,196,44*62
$GAGSV,2,2,08,21,40,303,45,15,70,116,48,04,04,333,37,19,04,280,31*6C
$GBGSV,6,1,22,11,90,150,49,38,30,052,44,60,10,109,39,37,16,317,41*65
$GBGSV,6,2,22,12,33,056,43,05,21,129,39,08,37,067,42,25,46,179,50*6A
$GBGSV,6,3,22,13,38,078,44,31,43,064,,23,59,278,50,34,63,060,50*6B
$GBGSV,6,4,22,43,65,238,51,28,04,237,39,24,01,152,,21,01,048,*6D
$GBGSV,6,5,22,10,03,091,34,02,06,107,34,27,06,227,,44,10,059,39*63
$GBGSV,6,6,22,56,08,074,,22,06,047,39*6C
$GPGGA,164502.00,,,,,0,00,,,M,,M,,*4C
$PTNL,GGK,164502.00,010125,4742.1605860,N,01618.1002161,E,1,36,0.9,EHT750.0845,M*4B
$GPGGQ,164502.00,010125,4742.1605860,N,01618.1002161,E,1,36,1.312,706.8779,M*36
$GPGFA,164502.00,4.604,9.517,0.484,0.373,355.599,1.161,,VVV*05
$GPLLK,164502.00,010125,,M,,M,1,36,1.0,,M*0B
$GNGMP,164502.00,,,,,DAAA,36,0.5,,,,*52
$GPGMP,164502.00,,,,,,09,,,,3.1,136*76
$GLGMP,164502.00,,,,,,07,,,,,*7C
$GAGMP,164502.00,,,,,,06,,,,,*70
$GBGMP,164502.00,,,,,,14,,,,,*70
$PSSN,SNC,[0,319520000,2347]*48
$GPZDA,164507.00,01,01,2025,,*62
$GPDTM,W84,,00.0000000,N,00.0000000,E,00.0000000,W84*5F
$PSSN,TFM,164507.00,,,,*6E
$GPRMC,164507.00,A,4742.1605851,N,01618.1002177,E,0.0,,010125,5.1,E,D*1B
$GPGLL,4742.1605851,N,01618.1002177,E,164507.00,A,D*6A
$GPGGA,164507.00,4742.1605851,N,01618.1002177,E,2,36,0.5,706.8828,M,43.2066,M,2.8,0136*47
$GNGNS,164507.00,4742.1605851,N,01618.1002177,E,DAAA,36,0.5,706.8828,43.2066,,*55
$GPGNS,164507.00,,,,,,09,,,,2.8,136*7B
$GLGNS,164507.00,,,,,,07,,,,,*79
$GAGNS,164507.00,,,,,,06,,,,,*75
$GBGNS,164507.00,,,,,,14,,,,,*75
$GPLLQ,164507.00,010125,,M,,M,1,36,1.316,,M*10
$GPVTG,,T,,M,0.01,N,0.01,K,D*26
$GPHDT,,T*1B
$GPTHS,,V*0E
$GPROT,,V*08
$PSSN,HRP,164507.00,010125,,,,,,,00,0,,*60
$PTNL,AVR,164507.00,,Yaw,,Tilt,,,,0,,00*36
$GPGSA,A,3,05,16,18,20,25,26,28,29,31,,,,0.9,0.5,0.7*30
$GPGSA,A,3,72,78,79,80,81,82,88,,,,,,0.9,0.5,0.7*36
$GPGSA,A,3,13,15,21,27,30,34,,,,,,,0.9,0.5,0.7*3D
$GPGSA,A,3,05,08,11,12,13,22,23,25,34,37,38,43,0.9,0.5,0.7*3C
$GPGSA,A,3,44,60,,,,,,,,,,,0.9,0.5,0.7*3F
$GPGST,164507.00,1.691,0.489,0.373,354.488,0.488,0.374,1.163*5C
$GPGBS,164507.00,2.529,1.895,8.420,72,0.0001,7.035,6.631*5E
$GPGRS,164507.00,1,0.3,-0.8,0.0,0.6,0.1,0.1,0.4,-0.6,0.2,,,*6C
$GPGRS,164507.00,1,7.0,-3.8,-0.3,-2.0,0.5,-0.5,0.1,,,,,*6D
$GPGRS,164507.00,1,0.1,-0.0,0.0,-0.4,-0.2,0.1,,,,,,*64
$GPGRS,164507.00,1,1.5,0.1,0.7,1.0,-0.1,-1.9,-0.2,-0.1,-0.7,-1.9,-0.4,0.5*65
$GPGRS,164507.00,1,-0.9,-0.2,,,,,,,,,,*44
$GPGSV,5,1,20,29,64,058,48,16,17,303,40,20,17,042,40,25,35,132,45*74
$GPGSV,5,2,20,05,27,077,44,28,37,226,46,26,47,300,47,18,55,184,48*79
$GPGSV,5,3,20,31,44,262,48,04,03,319,38,09,00,344,36,36,35,170,45*79
$GPGSV,5,4,20,58,13,245,37,40,23,133,37,34,31,208,43,49,34,195,45*7C
$GPGSV,5,5,20,57,08,111,39,41,07,108,35,61,03,257,39*49
$GLGSV,3,1,10,81,79,016,52,78,17,151,45,88,24,042,47,80,49,319,52*66
$GLGSV,3,2,10,82,46,229,50,79,69,168,52,65,04,065,38,71,01,329,42*6E
$GLGSV,3,3,10,83,06,223,32,72,09,013,39*6F
$GAGSV,2,1,08,27,83,134,48,34,31,046,43,30,29,125,43,13,33,196,43*65
$GAGSV,2,2,08,21,40,303,45,15,70,116,48,04,04,333,36,19,04,280,30*6C
$GBGSV,6,1,22,11,90,144,49,38,30,052,44,60,10,109,40,37,16,317,41*6E
$GBGSV,6,2,22,12,33,056,43,05,21,129,39,08,37,067,42,25,46,179,49*62
$GBGSV,6,3,22,13,38,078,44,31,43,064,,23,59,278,51,34,63,060,50*6A
$GBGSV,6,4,22,43,65,238,51,28,04,237,39,24,01,152,,21,01,048,*6D
$GBGSV,6,5,22,10,03,091,34,02,06,107,34,27,06,227,,44,10,059,40*6D
$GBGSV,6,6,22,56,08,074,,22,06,047,39*6C
$GPGGA,164507.00,,,,,0,00,,,M,,M,,*49
$PTNL,GGK,164507.00,010125,4742.1605851,N,01618.1002177,E,1,36,0.9,EHT750.0893,M*40
$GPGGQ,164507.00,010125,4742.1605851,N,01618.1002177,E,1,36,1.316,706.8828,M*39
$GPGFA,164507.00,4.651,9.539,0.489,0.373,354.488,1.163,,VVV*03
$GPLLK,164507.00,010125,,M,,M,1,36,1.0,,M*0E
$GNGMP,164507.00,,,,,DAAA,36,0.5,,,,*57
$GPGMP,164507.00,,,,,,09,,,,2.8,136*7B
$GLGMP,164507.00,,,,,,07,,,,,*79
$GAGMP,164507.00,,,,,,06,,,,,*75
$GBGMP,164507.00,,,,,,14,,,,,*75
$PSSN,SNC,[0,319525000,2347]*4D
$GPZDA,164512.00,01,01,2025,,*66
$GPDTM,W84,,00.0000000,N,00.0000000,E,00.0000000,W84*5F
$PSSN,TFM,164512.00,,,,*6A
$GPRMC,164512.00,A,4742.1605877,N,01618.1002192,E,0.0,,010125,5.1,E,D*10
$GPGLL,4742.1605877,N,01618.1002192,E,164512.00,A,D*61
$GPGGA,164512.00,4742.1605877,N,01618.1002192,E,2,36,0.5,706.8926,M,43.2066,M,1.6,0136*4E
$GNGNS,164512.00,4742.1605877,N,01618.1002192,E,DAAA,36,0.5,706.8926,43.2066,,*51
$GPGNS,164512.00,,,,,,09,,,,1.6,136*72
$GLGNS,164512.00,,,,,,07,,,,,*7D
$GAGNS,164512.00,,,,,,06,,,,,*71
$GBGNS,164512.00,,,,,,14,,,,,*71
$GPLLQ,164512.00,010125,,M,,M,1,36,1.298,,M*13
$GPVTG,,T,,M,0.01,N,0.01,K,D*26
$GPHDT,,T*1B
$GPTHS,,V*0E
$GPROT,,V*08
$PSSN,HRP,164512.00,010125,,,,,,,00,0,,*64
$PTNL,AVR,164512.00,,Yaw,,Tilt,,,,0,,00*32
$GPGSA,A,3,05,16,18,20,25,26,28,29,31,,,,0.9,0.5,0.7*30
$GPGSA,A,3,72,78,79,80,81,82,88,,,,,,0.9,0.5,0.7*36
$GPGSA,A,3,13,15,21,27,30,34,,,,,,,0.9,0.5,0.7*3D
$GPGSA,A,3,05,08,11,12,13,22,23,25,34,37,38,43,0.9,0.5,0.7*3C
$GPGSA,A,3,44,60,,,,,,,,,,,0.9,0.5,0.7*3F
$GPGST,164512.00,1.445,0.482,0.368,353.943,0.481,0.370,1.147*54
$GPGBS,164512.00,2.448,1.852,8.341,72,0.0001,5.229,6.634*5F
$GPGRS,164512.00,1,0.0,-0.1,0.2,0.8,-0.3,-0.1,0.2,-0.4,0.2,,,*68
$GPGRS,164512.00,1,5.2,-3.5,-0.1,-2.3,0.1,-0.0,-1.4,,,,,*4D
$GPGRS,164512.00,1,0.5,-0.2,-0.1,-0.5,-0.2,-0.0,,,,,,*67
$GPGRS,164512.00,1,1.4,-0.0,1.1,1.1,-0.4,-1.7,-0.3,-0.5,-0.7,-1.8,-0.6,0.6*44
$GPGRS,164512.00,1,-0.4,-0.4,,,,,,,,,,*4B
$GPGSV,5,1,20,29,64,058,48,16,17,303,40,20,17,042,40,25,35,132,44*75
$GPGSV,5,2,20,05,27,077,44,28,37,226,46,26,47,300,46,18,55,184,48*78
$GPGSV,5,3,20,31,44,262,48,04,03,319,39,09,00,344,36,36,35,170,45*78
$GPGSV,5,4,20,58,13,245,37,40,23,133,36,34,31,208,43,49,34,195,45*7D
$GPGSV,5,5,20,57,08,111,39,41,07,108,35,61,03,257,39*49
$GLGSV,3,1,10,81,79,016,52,78,17,151,45,88,24,042,46,80,49,319,51*64
$GLGSV,3,2,10,82,46,229,51,79,69,168,52,65,04,065,39,71,01,329,42*6E
$GLGSV,3,3,10,83,06,223,32,72,09,013,38*6E
$GAGSV,2,1,08,27,83,134,48,34,31,046,43,30,29,125,43,13,33,196,44*62
$GAGSV,2,2,08,21,40,303,45,15,70,116,48,04,04,333,37,19,04,280,30*6D
$GBGSV,6,1,22,11,90,141,49,38,30,052,44,60,10,109,40,37,16,317,42*68
$GBGSV,6,2,22,12,33,056,43,05,21,129,39,08,37,067,41,25,46,179,49*61
$GBGSV,6,3,22,13,38,078,44,31,43,064,,23,59,278,51,34,63,059,50*60
$GBGSV,6,4,22,43,65,238,51,28,04,237,40,24,01,152,,21,01,048,*63
$GBGSV,6,5,22,10,03,091,34,02,06,107,34,27,06,227,,44,10,059,40*6D
$GBGSV,6,6,22,56,08,074,,22,06,047,39*6C
$GPGGA,164512.00,,,,,0,00,,,M,,M,,*4D
$PTNL,GGK,164512.00,010125,4742.1605877,N,01618.1002192,E,1,36,0.9,EHT750.0992,M*4B
$GPGGQ,164512.00,010125,4742.1605877,N,01618.1002192,E,1,36,1.298,706.8926,M*3A
$GPGFA,164512.00,4.587,9.404,0.482,0.368,353.943,1.147,,VVV*0A
$GPLLK,164512.00,010125,,M,,M,1,36,1.0,,M*0A
$GNGMP,164512.00,,,,,DAAA,36,0.5,,,,*53
$GPGMP,164512.00,,,,,,09,,,,1.6,136*72
$GLGMP,164512.00,,,,,,07,,,,,*7D
$GAGMP,164512.00,,,,,,06,,,,,*71
$GBGMP,164512.00,,,,,,14,,,,,*71
$PSSN,SNC,[0,319530000,2347]*49
$GPZDA,164517.00,01,01,2025,,*63
$GPDTM,W84,,00.0000000,N,00.0000000,E,00.0000000,W84*5F
$PSSN,TFM,164517.00,,,,*6F
$GPRMC,164517.00,A,4742.1605865,N,01618.1002198,E,0.0,,010125,5.1,E,D*1C
$GPGLL,4742.1605865,N,01618.1002198,E,164517.00,A,D*6D
$GPGGA,164517.00,4742.1605865,N,01618.1002198,E,2,36,0.5,706.8932,M,43.2066,M,2.6,0136*44
$GNGNS,164517.00,4742.1605865,N,01618.1002198,E,DAAA,36,0.5,706.8932,43.2066,,*58
$GPGNS,164517.00,,,,,,09,,,,2.6,136*74
$GLGNS,164517.00,,,,,,07,,,,,*78
$GAGNS,164517.00,,,,,,06,,,,,*74
$GBGNS,164517.00,,,,,,14,,,,,*74
$GPLLQ,164517.00,010125,,M,,M,1,36,1.300,,M*16
$GPVTG,,T,,M,0.00,N,0.01,K,D*27
$GPHDT,,T*1B
$GPTHS,,V*0E
$GPROT,,V*08
$PSSN,HRP,164517.00,010125,,,,,,,00,0,,*61
$PTNL,AVR,164517.00,,Yaw,,Tilt,,,,0,,00*37
$GPGSA,A,3,05,16,18,20,25,26,28,29,31,,,,0.9,0.5,0.7*30
$GPGSA,A,3,72,78,79,80,81,82,88,,,,,,0.9,0.5,0.7*36
$GPGSA,A,3,13,15,21,27,30,34,,,,,,,0.9,0.5,0.7*3D
$GPGSA,A,3,05,08,11,12,13,22,23,25,34,37,38,43,0.9,0.5,0.7*3C
$GPGSA,A,3,44,60,,,,,,,,,,,0.9,0.5,0.7*3F
$GPGST,164517.00,1.482,0.479,0.369,355.896,0.478,0.370,1.151*51
$GPGBS,164517.00,2.480,1.866,8.417,72,0.0001,5.486,6.634*5E
$GPGRS,164517.00,1,0.6,-0.4,0.0,0.6,-0.6,-0.3,0.3,-0.0,0.1,,,*63
$GPGRS,164517.00,1,5.5,-3.1,0.0,-2.0,0.2,-0.1,-1.4,,,,,*66
$GPGRS,164517.00,1,0.9,-0.3,-0.4,-0.5,-0.1,-0.1,,,,,,*68
$GPGRS,164517.00,1,1.9,0.6,1.1,1.2,-0.4,-1.2,-0.2,-0.4,-1.0,-2.2,-0.6,0.5*6D
$GPGRS,164517.00,1,-0.2,-0.3,,,,,,,,,,*4F
$GPGSV,5,1,20,29,64,058,48,16,17,303,40,20,17,042,40,25,35,132,44*75
$GPGSV,5,2,20,05,27,077,44,28,37,226,46,26,47,300,46,18,55,184,48*78
$GPGSV,5,3,20,31,44,262,47,04,03,319,36,09,00,344,36,36,35,170,45*78
$GPGSV,5,4,20,58,13,245,37,40,23,133,36,34,31,208,43,49,34,195,44*7C
$GPGSV,5,5,20,57,08,111,38,41,07,108,35,61,03,257,38*49
$GLGSV,3,1,10,81,79,016,52,78,17,151,45,88,24,042,46,80,49,319,52*67
$GLGSV,3,2,10,82,46,229,51,79,69,168,52,65,04,065,39,71,01,329,43*6F
$GLGSV,3,3,10,83,06,223,32,72,09,013,37*61
$GAGSV,2,1,08,27,83,134,48,34,31,046,42,30,29,125,43,13,33,196,44*63
$GAGSV,2,2,08,21,40,303,44,15,70,116,48,04,04,333,36,19,04,280,30*6D
$GBGSV,6,1,22,11,90,134,49,38,30,052,44,60,10,109,40,37,16,317,40*68
$GBGSV,6,2,22,12,33,056,43,05,21,129,39,08,37,067,41,25,46,179,49*61
$GBGSV,6,3,22,13,38,078,44,31,43,064,,23,59,277,50,34,63,059,50*6E
$GBGSV,6,4,22,43,65,238,51,28,04,237,39,24,01,152,,21,01,048,*6D
$GBGSV,6,5,22,10,03,091,34,02,06,107,34,27,06,227,,44,10,059,41*6C
$GBGSV,6,6,22,56,08,074,,22,06,047,39*6C
$GPGGA,164517.00,,,,,0,00,,,M,,M,,*48
$PTNL,GGK,164517.00,010125,4742.1605865,N,01618.1002198,E,1,36,0.9,EHT750.0998,M*4D
$GPGGQ,164517.00,010125,4742.1605865,N,01618.1002198,E,1,36,1.300,706.8932,M*33
$GPGFA,164517.00,4.552,9.436,0.479,0.369,355.896,1.151,,VVV*0B
$GPLLK,164517.00,010125,,M,,M,1,36,1.0,,M*0F
$GNGMP,164517.00,,,,,DAAA,36,0.5,,,,*56
$GPGMP,164517.00,,,,,,09,,,,2.6,136*74
$GLGMP,164517.00,,,,,,07,,,,,*78
$GAGMP,164517.00,,,,,,06,,,,,*74
$GBGMP,164517.00,,,,,,14,,,,,*74
$PSSN,SNC,[0,319535000,2347]*4C
$GPZDA,164522.00,01,01,2025,,*65
$GPDTM,W84,,00.0000000,N,00.0000000,E,00.0000000,W84*5F
$PSSN,TFM,164522.00,,,,*69
$GPRMC,164522.00,A,4742.1605851,N,01618.1002191,E,0.0,,010125,5.1,E,D*14
$GPGLL,4742.1605851,N,01618.1002191,E,164522.00,A,D*65
$GPGGA,164522.00,4742.1605851,N,01618.1002191,E,2,36,0.5,706.8946,M,43.2066,M,3.1,0136*49
$GNGNS,164522.00,4742.1605851,N,01618.1002191,E,DAAA,36,0.5,706.8946,43.2066,,*53
$GPGNS,164522.00,,,,,,09,,,,3.1,136*74
$GLGNS,164522.00,,,,,,07,,,,,*7E
$GAGNS,164522.00,,,,,,06,,,,,*72
$GBGNS,164522.00,,,,,,14,,,,,*72
$GPLLQ,164522.00,010125,,M,,M,1,36,1.315,,M*14
$GPVTG,,T,,M,0.00,N,0.00,K,D*26
$GPHDT,,T*1B
$GPTHS,,V*0E
$GPROT,,V*08
$PSSN,HRP,164522.00,010125,,,,,,,00,0,,*67
$PTNL,AVR,164522.00,,Yaw,,Tilt,,,,0,,00*31
$GPGSA,A,3,05,16,18,20,25,26,28,29,31,,,,0.9,0.5,0.7*30
$GPGSA,A,3,72,78,79,80,81,82,88,,,,,,0.9,0.5,0.7*36
$GPGSA,A,3,13,15,21,27,30,34,,,,,,,0.9,0.5,0.7*3D
$GPGSA,A,3,05,08,11,12,13,22,23,25,34,37,38,43,0.9,0.5,0.7*3C
$GPGSA,A,3,44,60,,,,,,,,,,,0.9,0.5,0.7*3F
$GPGST,164522.00,1.529,0.485,0.373,355.853,0.485,0.374,1.164*56
$GPGBS,164522.00,2.534,1.872,8.550,72,0.0001,5.803,6.637*53
$GPGRS,164522.00,1,-0.1,-0.7,-0.0,1.0,-0.1,-0.1,0.3,-0.3,0.2,,,*63
$GPGRS,164522.00,1,5.8,-3.6,0.1,-2.2,0.1,-0.1,-0.0,,,,,*6F
$GPGRS,164522.00,1,0.3,-0.1,0.0,-0.4,-0.1,-0.0,,,,,,*4F
$GPGRS,164522.00,1,1.6,1.1,1.1,1.8,-0.3,-0.9,-0.2,-0.3,-0.9,-1.8,-0.5,0.4*61
$GPGRS,164522.00,1,-0.3,-0.1,,,,,,,,,,*4A
$GPGSV,5,1,20,29,64,058,48,16,17,303,40,20,17,042,40,25,35,132,44*75
$GPGSV,5,2,20,05,27,077,44,28,37,226,46,26,47,300,47,18,55,184,48*79
$GPGSV,5,3,20,31,44,262,47,04,03,319,38,09,00,344,36,36,35,170,45*76
$GPGSV,5,4,20,58,13,245,37,40,23,133,36,34,31,208,43,49,34,195,44*7C
$GPGSV,5,5,20,57,08,111,39,41,07,108,35,61,03,257,38*48
$GLGSV,3,1,10,81,79,016,52,78,17,151,45,88,24,042,47,80,49,319,51*65
$GLGSV,3,2,10,82,46,229,51,79,69,169,52,65,04,065,38,71,01,329,42*6E
$GLGSV,3,3,10,83,06,223,32,72,09,013,37*61
$GAGSV,2,1,08,27,83,134,48,34,31,046,43,30,29,125,43,13,33,196,44*62
$GAGSV,2,2,08,21,41,303,45,15,70,115,48,04,04,333,36,19,04,280,30*6E
$GBGSV,6,1,22,11,90,128,49,38,30,052,44,37,16,317,41,12,33,056,44*6F
$GBGSV,6,2,22,60,10,109,40,05,21,129,39,25,46,179,49,08,37,067,42*6E
$GBGSV,6,3,22,13,38,078,44,31,43,064,,23,59,277,51,34,63,059,50*6F
$GBGSV,6,4,22,43,65,238,51,28,04,237,39,24,01,152,,22,06,047,39*6C
$GBGSV,6,5,22,21,01,048,,10,03,091,33,27,06,228,,44,09,059,41*67
$GBGSV,6,6,22,56,08,074,,02,06,107,34*66
$GPGGA,164522.00,,,,,0,00,,,M,,M,,*4E
$PTNL,GGK,164522.00,010125,4742.1605851,N,01618.1002191,E,1,36,0.9,EHT750.1012,M*4F
$GPGGQ,164522.00,010125,4742.1605851,N,01618.1002191,E,1,36,1.315,706.8946,M*3C
$GPGFA,164522.00,4.615,9.543,0.485,0.373,355.853,1.164,,VVV*09
$GPLLK,164522.00,010125,,M,,M,1,36,1.0,,M*09
$GNGMP,164522.00,,,,,DAAA,36,0.5,,,,*50
$GPGMP,164522.00,,,,,,09,,,,3.1,136*74
$GLGMP,164522.00,,,,,,07,,,,,*7E
$GAGMP,164522.00,,,,,,06,,,,,*72
$GBGMP,164522.00,,,,,,14,,,,,*72
$PSSN,SNC,[0,319540000,2347]*4E
$GPZDA,164527.00,01,01,2025,,*60
$GPDTM,W84,,00.0000000,N,00.0000000,E,00.0000000,W84*5F
$PSSN,TFM,164527.00,,,,*6C
$GPRMC,164527.00,A,4742.1605830,N,01618.1002203,E,0.0,,010125,5.1,E,D*1E
$GPGLL,4742.1605830,N,01618.1002203,E,164527.00,A,D*6F
$GPGGA,164527.00,4742.1605830,N,01618.1002203,E,2,36,0.5,706.9004,M,43.2066,M,2.8,0136*45
$GNGNS,164527.00,4742.1605830,N,01618.1002203,E,DAAA,36,0.5,706.9004,43.2066,,*57
$GPGNS,164527.00,,,,,,09,,,,2.8,136*79
$GLGNS,164527.00,,,,,,07,,,,,*7B
$GAGNS,164527.00,,,,,,06,,,,,*77
$GBGNS,164527.00,,,,,,14,,,,,*77
$GPLLQ,164527.00,010125,,M,,M,1,36,1.314,,M*10
$GPVTG,,T,,M,0.01,N,0.02,K,D*25
$GPHDT,,T*1B
$GPTHS,,V*0E
$GPROT,,V*08
$PSSN,HRP,164527.00,010125,,,,,,,00,0,,*62
$PTNL,AVR,164527.00,,Yaw,,Tilt,,,,0,,00*34
$GPGSA,A,3,05,16,18,20,25,26,28,29,31,,,,0.9,0.5,0.7*30
$GPGSA,A,3,72,78,79,80,81,82,88,,,,,,0.9,0.5,0.7*36
$GPGSA,A,3,13,15,21,27,30,34,,,,,,,0.9,0.5,0.7*3D
$GPGSA,A,3,05,08,11,12,13,22,23,25,34,37,38,43,0.9,0.5,0.7*3C
$GPGSA,A,3,44,60,,,,,,,,,,,0.9,0.5,0.7*3F
$GPGST,164527.00,1.515,0.489,0.373,354.277,0.488,0.374,1.162*56
$GPGBS,164527.00,2.536,1.896,8.362,20,0.0001,1.452,1.523*53
$GPGRS,164527.00,1,0.3,-0.9,-0.0,1.5,-0.1,0.2,0.2,-0.3,-0.1,,,*43
$GPGRS,164527.00,1,5.8,-3.6,-0.0,-2.0,0.3,0.1,0.1,,,,,*47
$GPGRS,164527.00,1,0.2,-0.1,-0.2,-0.4,0.2,0.2,,,,,,*65
$GPGRS,164527.00,1,1.7,0.9,1.1,1.7,-0.8,-0.9,-0.4,-0.2,-1.0,-1.4,-0.5,0.2*6D
$GPGRS,164527.00,1,-0.5,-0.3,,,,,,,,,,*4B
$GPGSV,5,1,20,29,64,058,48,16,17,303,41,20,17,042,40,25,35,132,44*74
$GPGSV,5,2,20,05,27,076,44,28,37,226,45,26,47,300,47,18,55,184,48*7B
$GPGSV,5,3,20,31,44,262,47,04,03,319,38,09,00,344,36,36,35,170,45*76
$GPGSV,5,4,20,58,13,245,36,40,23,133,36,34,31,208,43,49,34,195,44*7D
$GPGSV,5,5,20,57,08,111,38,41,07,108,35,61,03,257,38*49
$GLGSV,3,1,10,81,79,016,52,78,17,151,45,88,24,042,47,80,49,319,52*66
$GLGSV,3,2,10,82,46,229,51,79,69,169,52,65,04,065,39,71,01,329,42*6F
$GLGSV,3,3,10,83,06,223,32,72,09,013,38*6E
$GAGSV,2,1,08,27,83,134,49,34,31,046,43,30,29,125,44,13,33,196,44*64
$GAGSV,2,2,08,21,41,303,45,15,70,115,48,04,04,333,37,19,04,280,30*6F
$GBGSV,6,1,22,11,90,124,49,38,30,052,44,37,16,317,41,12,33,056,43*64
$GBGSV,6,2,22,60,10,109,40,05,21,129,39,25,46,179,50,08,37,067,42*66
$GBGSV,6,3,22,13,38,078,45,31,43,064,,23,59,277,51,34,63,059,50*6E
$GBGSV,6,4,22,43,65,238,51,28,04,237,39,24,01,152,,22,06,047,40*62
$GBGSV,6,5,22,21,01,048,,10,03,091,34,27,06,228,,44,09,059,41*60
$GBGSV,6,6,22,56,08,074,,02,06,107,34*66
$GPGGA,164527.00,,,,,0,00,,,M,,M,,*4B
$PTNL,GGK,164527.00,010125,4742.1605830,N,01618.1002203,E,1,36,0.9,EHT750.1070,M*41
$GPGGQ,164527.00,010125,4742.1605830,N,01618.1002203,E,1,36,1.314,706.9004,M*39
$GPGFA,164527.00,4.648,9.525,0.489,0.373,354.277,1.162,,VVV*03
$GPLLK,164527.00,010125,,M,,M,1,36,1.0,,M*0C
$GNGMP,164527.00,,,,,DAAA,36,0.5,,,,*55
$GPGMP,164527.00,,,,,,09,,,,2.8,136*79
$GLGMP,164527.00,,,,,,07,,,,,*7B
$GAGMP,164527.00,,,,,,06,,,,,*77
$GBGMP,164527.00,,,,,,14,,,,,*77
$PSSN,SNC,[0,319545000,2347]*4B
$GPZDA,164532.00,01,01,2025,,*64
$GPDTM,W84,,00.0000000,N,00.0000000,E,00.0000000,W84*5F
$PSSN,TFM,164532.00,,,,*68
$GPRMC,164532.00,A,4742.1605827,N,01618.1002159,E,0.0,,010125,5.1,E,D*10
$GPGLL,4742.1605827,N,01618.1002159,E,164532.00,A,D*61
$GPGGA,164532.00,4742.1605827,N,01618.1002159,E,2,36,0.5,706.9046,M,43.2066,M,1.6,0136*40
$GNGNS,164532.00,4742.1605827,N,01618.1002159,E,DAAA,36,0.5,706.9046,43.2066,,*5F
$GPGNS,164532.00,,,,,,09,,,,1.6,136*70
$GLGNS,164532.00,,,,,,07,,,,,*7F
$GAGNS,164532.00,,,,,,06,,,,,*73
$GBGNS,164532.00,,,,,,14,,,,,*73
$GPLLQ,164532.00,010125,,M,,M,1,36,1.296,,M*1F
$GPVTG,,T,,M,0.00,N,0.01,K,D*27
$GPHDT,,T*1B
$GPTHS,,V*0E
$GPROT,,V*08
$PSSN,HRP,164532.00,010125,,,,,,,00,0,,*66
$PTNL,AVR,164532.00,,Yaw,,Tilt,,,,0,,00*30
$GPGSA,A,3,05,16,18,20,25,26,28,29,31,,,,0.9,0.5,0.7*30
$GPGSA,A,3,72,78,79,80,81,82,88,,,,,,0.9,0.5,0.7*36
$GPGSA,A,3,13,15,21,27,30,34,,,,,,,0.9,0.5,0.7*3D
$GPGSA,A,3,05,08,11,12,13,22,23,25,34,37,38,43,0.9,0.5,0.7*3C
$GPGSA,A,3,44,60,,,,,,,,,,,0.9,0.5,0.7*3F
$GPGST,164532.00,1.564,0.482,0.368,353.757,0.481,0.370,1.145*5D
$GPGBS,164532.00,2.455,1.853,8.278,72,0.0001,6.256,6.631*55
$GPGRS,164532.00,1,0.3,-0.9,0.1,0.9,-0.2,-0.0,-0.3,-0.1,0.2,,,*4A
$GPGRS,164532.00,1,6.3,-3.5,-0.4,-1.8,0.3,-0.4,-0.5,,,,,*46
$GPGRS,164532.00,1,0.4,-0.0,-0.2,-0.4,0.2,-0.0,,,,,,*49
$GPGRS,164532.00,1,1.6,0.7,1.0,1.4,-0.6,-1.3,-0.2,-0.3,-1.0,-1.8,-0.4,0.4*6D
$GPGRS,164532.00,1,-0.6,-0.3,,,,,,,,,,*4C
$GPGSV,5,1,20,29,64,058,49,16,17,303,41,20,17,042,41,25,35,132,44*74
$GPGSV,5,2,20,05,27,076,43,28,37,226,46,26,47,300,47,18,55,184,48*7F
$GPGSV,5,3,20,31,44,262,47,04,03,319,37,09,00,344,36,36,35,170,45*79
$GPGSV,5,4,20,58,13,245,37,40,23,133,36,34,31,208,43,49,34,195,44*7C
$GPGSV,5,5,20,57,08,111,38,41,07,108,34,61,03,257,38*48
$GLGSV,3,1,10,81,79,016,52,78,17,151,45,88,23,042,47,80,49,319,52*61
$GLGSV,3,2,10,82,46,229,51,79,69,169,52,65,04,065,39,71,01,329,43*6E
$GLGSV,3,3,10,83,06,223,31,72,09,013,38*6D
$GAGSV,2,1,08,27,83,134,49,34,31,046,43,30,29,125,44,13,33,196,44*64
$GAGSV,2,2,08,21,41,303,45,15,70,115,48,04,04,333,37,19,04,280,29*67
$GBGSV,6,1,22,11,90,118,49,38,30,052,44,37,16,316,41,12,33,056,43*6A
$GBGSV,6,2,22,60,10,109,40,05,21,129,39,25,46,179,50,08,37,067,42*66
$GBGSV,6,3,22,13,38,078,45,31,43,064,,23,59,277,51,34,63,059,50*6E
$GBGSV,6,4,22,43,65,238,51,28,04,237,39,24,01,152,,22,06,047,40*62
$GBGSV,6,5,22,21,01,048,,10,03,091,34,27,06,228,,44,09,059,40*61
$GBGSV,6,6,22,56,08,074,,02,06,107,34*66
$GPGGA,164532.00,,,,,0,00,,,M,,M,,*4F
$PTNL,GGK,164532.00,010125,4742.1605827,N,01618.1002159,E,1,36,0.9,EHT750.1111,M*49
$GPGGQ,164532.00,010125,4742.1605827,N,01618.1002159,E,1,36,1.296,706.9046,M*3A
$GPGFA,164532.00,4.585,9.391,0.482,0.368,353.757,1.145,,VVV*08
$GPLLK,164532.00,010125,,M,,M,1,36,1.0,,M*08
$GNGMP,164532.00,,,,,DAAA,36,0.5,,,,*51
$GPGMP,164532.00,,,,,,09,,,,1.6,136*70
$GLGMP,164532.00,,,,,,07,,,,,*7F
$GAGMP,164532.00,,,,,,06,,,,,*73
$GBGMP,164532.00,,,,,,14,,,,,*73
$PSSN,SNC,[0,319550000,2347]*4F
$GPZDA,164537.00,01,01,2025,,*61
$GPDTM,W84,,00.0000000,N,00.0000000,E,00.0000000,W84*5F
$PSSN,TFM,164537.00,,,,*6D
$GPRMC,164537.00,A,4742.1605815,N,01618.1002171,E,0.0,,010125,5.1,E,D*1E
$GPGLL,4742.1605815,N,01618.1002171,E,164537.00,A,D*6F
$GPGGA,164537.00,4742.1605815,N,01618.1002171,E,2,36,0.5,706.9027,M,43.2066,M,2.6,0136*4A
$GNGNS,164537.00,4742.1605815,N,01618.1002171,E,DAAA,36,0.5,706.9027,43.2066,,*56
$GPGNS,164537.00,,,,,,09,,,,2.6,136*76
$GLGNS,164537.00,,,,,,07,,,,,*7A
$GAGNS,164537.00,,,,,,06,,,,,*76
$GBGNS,164537.00,,,,,,14,,,,,*76
$GPLLQ,164537.00,010125,,M,,M,1,36,1.298,,M*14
$GPVTG,,T,,M,0.00,N,0.01,K,D*27
$GPHDT,,T*1B
$GPTHS,,V*0E
$GPROT,,V*08
$PSSN,HRP,164537.00,010125,,,,,,,00,0,,*63
$PTNL,AVR,164537.00,,Yaw,,Tilt,,,,0,,00*35
$GPGSA,A,3,05,16,18,20,25,26,28,29,31,,,,0.9,0.5,0.7*30
$GPGSA,A,3,72,78,79,80,81,82,88,,,,,,0.9,0.5,0.7*36
$GPGSA,A,3,13,15,21,27,30,34,,,,,,,0.9,0.5,0.7*3D
$GPGSA,A,3,05,08,11,12,13,22,23,25,34,37,38,43,0.9,0.5,0.7*3C
$GPGSA,A,3,44,60,,,,,,,,,,,0.9,0.5,0.7*3F
$GPGST,164537.00,1.542,0.478,0.370,355.729,0.478,0.370,1.149*55
$GPGBS,164537.00,2.488,1.867,8.355,72,0.0001,5.750,6.634*5C
$GPGRS,164537.00,1,0.2,-0.9,-0.1,0.6,-0.2,0.1,0.5,-0.2,-0.0,,,*47
$GPGRS,164537.00,1,5.7,-4.1,0.2,-2.0,-0.1,-0.2,-1.1,,,,,*4B
$GPGRS,164537.00,1,0.5,-0.2,-0.1,-0.4,0.2,-0.3,,,,,,*4F
$GPGRS,164537.00,1,1.7,1.3,0.8,1.1,-0.4,-1.2,0.0,-0.5,-0.8,-1.3,-0.2,0.5*4F
$GPGRS,164537.00,1,-0.7,-0.2,,,,,,,,,,*49
$GPGSV,5,1,20,29,64,058,48,16,17,303,41,20,17,042,40,25,35,132,44*74
$GPGSV,5,2,20,05,27,076,44,28,37,226,46,26,48,300,47,18,55,184,48*77
$GPGSV,5,3,20,31,44,262,47,04,03,319,39,09,00,344,35,36,35,170,45*74
$GPGSV,5,4,20,58,13,245,37,40,23,133,36,34,31,208,43,49,34,195,44*7C
$GPGSV,5,5,20,57,08,111,38,41,07,108,35,61,03,257,38*49
$GLGSV,3,1,10,81,79,016,52,78,17,152,45,88,23,042,46,80,50,319,52*6B
$GLGSV,3,2,10,82,47,229,51,79,69,169,53,65,04,065,39,71,01,329,42*6F
$GLGSV,3,3,10,83,06,223,32,72,09,013,38*6E
$GAGSV,2,1,08,27,83,134,49,34,31,046,43,30,29,125,44,13,33,196,44*64
$GAGSV,2,2,08,21,41,303,45,15,70,115,48,04,04,333,38,19,04,280,30*60
$GBGSV,6,1,22,11,90,112,49,38,30,052,44,37,16,316,41,12,33,056,43*60
$GBGSV,6,2,22,05,21,129,39,60,10,109,40,25,46,179,50,08,37,067,42*66
$GBGSV,6,3,22,13,38,078,44,31,43,064,,23,59,277,51,34,63,059,50*6F
$GBGSV,6,4,22,43,65,238,51,28,04,237,40,24,01,152,,22,06,047,40*6C
$GBGSV,6,5,22,21,01,048,,02,06,107,34,27,06,228,,44,09,059,40*69
$GBGSV,6,6,22,56,08,074,,10,03,091,34*6E
$GPGGA,164537.00,,,,,0,00,,,M,,M,,*4A
$PTNL,GGK,164537.00,010125,4742.1605815,N,01618.1002171,E,1,36,0.9,EHT750.1092,M*4D
$GPGGQ,164537.00,010125,4742.1605815,N,01618.1002171,E,1,36,1.298,706.9027,M*3D
$GPGFA,164537.00,4.549,9.421,0.478,0.370,355.729,1.149,,VVV*0E
$GPLLK,164537.00,010125,,M,,M,1,36,1.0,,M*0D
$GNGMP,164537.00,,,,,DAAA,36,0.5,,,,*54
$GPGMP,164537.00,,,,,,09,,,,2.6,136*76
$GLGMP,164537.00,,,,,,07,,,,,*7A
$GAGMP,164537.00,,,,,,06,,,,,*76
$GBGMP,164537.00,,,,,,14,,,,,*76
$PSSN,SNC,[0,319555000,2347]*4A
$GPZDA,164542.00,01,01,2025,,*63
$GPDTM,W84,,00.0000000,N,00.0000000,E,00.0000000,W84*5F
$PSSN,TFM,164542.00,,,,*6F
$GPRMC,164542.00,A,4742.1605823,N,01618.1002163,E,0.0,,010125,5.1,E,D*1A
$GPGLL,4742.1605823,N,01618.1002163,E,164542.00,A,D*6B
$GPGGA,164542.00,4742.1605823,N,01618.1002163,E,2,36,0.5,706.9063,M,43.2066,M,3.1,0136*48
$GNGNS,164542.00,4742.1605823,N,01618.1002163,E,DAAA,36,0.5,706.9063,43.2066,,*52
$GPGNS,164542.00,,,,,,09,,,,3.1,136*72
$GLGNS,164542.00,,,,,,07,,,,,*78
$GAGNS,164542.00,,,,,,06,,,,,*74
$GBGNS,164542.00,,,,,,14,,,,,*74
$GPLLQ,164542.00,010125,,M,,M,1,36,1.313,,M*14
$GPVTG,,T,,M,0.00,N,0.00,K,D*26
$GPHDT,,T*1B
$GPTHS,,V*0E
$GPROT,,V*08
$PSSN,HRP,164542.00,010125,,,,,,,00,0,,*61
$PTNL,AVR,164542.00,,Yaw,,Tilt,,,,0,,00*37
$GPGSA,A,3,05,16,18,20,25,26,28,29,31,,,,0.9,0.5,0.7*30
$GPGSA,A,3,72,78,79,80,81,82,88,,,,,,0.9,0.5,0.7*36
$GPGSA,A,3,13,15,21,27,30,34,,,,,,,0.9,0.5,0.7*3D
$GPGSA,A,3,05,08,11,12,13,22,23,25,34,37,38,43,0.9,0.5,0.7*3C
$GPGSA,A,3,44,60,,,,,,,,,,,0.9,0.5,0.7*3F
$GPGST,164542.00,1.410,0.485,0.373,355.680,0.485,0.374,1.162*5D
$GPGBS,164542.00,2.541,1.874,8.487,78,0.0001,-4.543,6.327*71
$GPGRS,164542.00,1,0.2,-0.9,0.0,0.3,-0.1,-0.0,0.4,-0.4,0.4,,,*6D
$GPGRS,164542.00,1,4.4,-4.5,0.1,-1.9,0.2,-0.4,-1.0,,,,,*6F
$GPGRS,164542.00,1,0.5,-0.2,-0.2,-0.4,-0.3,-0.2,,,,,,*63
$GPGRS,164542.00,1,1.6,1.5,0.8,0.8,-0.7,-1.3,-0.1,-0.6,-0.9,-0.8,-0.1,0.5*67
$GPGRS,164542.00,1,-0.7,-0.4,,,,,,,,,,*4D
$GPGSV,5,1,20,29,64,058,48,16,17,303,40,20,17,042,40,25,35,133,44*74
$GPGSV,5,2,20,05,27,076,45,28,37,226,45,26,48,300,47,18,56,184,48*76
$GPGSV,5,3,20,31,44,262,47,04,03,319,37,09,00,344,37,36,35,170,45*78
$GPGSV,5,4,20,58,13,245,37,40,23,133,36,34,31,208,43,49,34,195,44*7C
$GPGSV,5,5,20,57,08,111,39,41,07,108,35,61,03,257,39*49
$GLGSV,3,1,10,81,79,017,52,78,17,152,45,88,23,042,46,80,50,319,52*6A
$GLGSV,3,2,10,82,47,229,50,79,69,169,52,65,04,065,39,71,01,329,42*6F
$GLGSV,3,3,10,83,06,223,32,72,09,013,37*61
$GAGSV,2,1,08,27,83,134,49,34,31,046,43,30,29,125,44,13,33,196,44*64
$GAGSV,2,2,08,21,41,303,45,15,70,115,48,04,04,332,38,19,04,280,31*60
$GBGSV,6,1,22,11,90,109,49,38,30,052,44,37,16,316,41,12,33,056,43*6A
$GBGSV,6,2,22,05,21,129,39,60,10,109,40,25,46,179,50,08,37,067,42*66
$GBGSV,6,3,22,13,38,077,44,31,43,064,,23,59,277,51,34,63,059,50*60
$GBGSV,6,4,22,43,65,238,51,28,04,237,40,24,01,152,,22,06,047,40*6C
$GBGSV,6,5,22,21,01,048,,02,06,107,34,27,06,228,,44,09,059,40*69
$GBGSV,6,6,22,56,08,074,,10,03,091,34*6E
$GPGGA,164542.00,,,,,0,00,,,M,,M,,*48
$PTNL,GGK,164542.00,010125,4742.1605823,N,01618.1002163,E,1,36,0.9,EHT750.1129,M*48
$GPGGQ,164542.00,010125,4742.1605823,N,01618.1002163,E,1,36,1.313,706.9063,M*3B
$GPGFA,164542.00,4.612,9.529,0.485,0.373,355.680,1.162,,VVV*02
$GPLLK,164542.00,010125,,M,,M,1,36,1.0,,M*0F
$GNGMP,164542.00,,,,,DAAA,36,0.5,,,,*56
$GPGMP,164542.00,,,,,,09,,,,3.1,136*72
$GLGMP,164542.00,,,,,,07,,,,,*78
$GAGMP,164542.00,,,,,,06,,,,,*74
$GBGMP,164542.00,,,,,,14,,,,,*74
$PSSN,SNC,[0,319560000,2347]*4C
$GPZDA,164547.00,01,01,2025,,*66
$GPDTM,W84,,00.0000000,N,00.0000000,E,00.0000000,W84*5F
$PSSN,TFM,164547.00,,,,*6A
$GPRMC,164547.00,A,4742.1605831,N,01618.1002192,E,0.0,,010125,5.1,E,D*12
$GPGLL,4742.1605831,N,01618.1002192,E,164547.00,A,D*63
$GPGGA,164547.00,4742.1605831,N,01618.1002192,E,2,36,0.5,706.9099,M,43.2066,M,2.8,0136*4D
$GNGNS,164547.00,4742.1605831,N,01618.1002192,E,DAAA,36,0.5,706.9099,43.2066,,*5F
$GPGNS,164547.00,,,,,,09,,,,2.8,136*7F
$GLGNS,164547.00,,,,,,07,,,,,*7D
$GAGNS,164547.00,,,,,,06,,,,,*71
$GBGNS,164547.00,,,,,,14,,,,,*71
$GPLLQ,164547.00,010125,,M,,M,1,36,1.313,,M*11
$GPVTG,,T,,M,0.00,N,0.00,K,D*26
$GPHDT,,T*1B
$GPTHS,,V*0E
$GPROT,,V*08
$PSSN,HRP,164547.00,010125,,,,,,,00,0,,*64
$PTNL,AVR,164547.00,,Yaw,,Tilt,,,,0,,00*32
$GPGSA,A,3,05,16,18,20,25,26,28,29,31,,,,0.9,0.5,0.7*30
$GPGSA,A,3,72,78,79,80,81,82,88,,,,,,0.9,0.5,0.7*36
$GPGSA,A,3,13,15,21,27,30,34,,,,,,,0.9,0.5,0.7*3D
$GPGSA,A,3,05,08,11,12,13,22,23,25,34,37,38,43,0.9,0.5,0.7*3C
$GPGSA,A,3,44,60,,,,,,,,,,,0.9,0.5,0.7*3F
$GPGST,164547.00,1.390,0.489,0.373,354.095,0.487,0.374,1.160*58
$GPGBS,164547.00,2.543,1.897,8.304,72,0.0001,4.546,6.632*54
$GPGRS,164547.00,1,-0.1,-1.1,0.0,0.6,-0.1,0.1,0.3,-0.4,0.6,,,*63
$GPGRS,164547.00,1,4.5,-4.2,-0.1,-1.7,0.7,-0.1,-0.5,,,,,*4B
$GPGRS,164547.00,1,0.6,0.0,-0.2,-0.3,-0.3,-0.1,,,,,,*4E
$GPGRS,164547.00,1,1.7,0.9,1.1,0.7,-0.8,-1.8,-0.3,-0.1,-0.8,-0.6,-0.1,0.4*66
$GPGRS,164547.00,1,-0.6,-0.2,,,,,,,,,,*4F
$GPGSV,5,1,20,29,64,058,48,16,17,303,41,20,17,042,40,25,34,133,44*74
$GPGSV,5,2,20,05,27,076,45,28,37,226,46,26,48,300,47,18,56,184,49*74
$GPGSV,5,3,20,31,44,262,47,04,03,319,37,09,00,344,35,36,35,170,45*7A
$GPGSV,5,4,20,58,13,245,37,40,23,133,36,34,31,208,43,49,34,195,44*7C
$GPGSV,5,5,20,57,08,111,39,41,07,108,35,61,03,257,38*48
$GLGSV,3,1,10,81,79,017,52,78,17,152,45,88,23,042,46,80,50,319,52*6A
$GLGSV,3,2,10,82,47,229,51,79,69,169,52,65,04,065,38,71,01,329,42*6F
$GLGSV,3,3,10,83,06,223,33,72,09,013,37*60
$GAGSV,2,1,08,27,83,134,49,34,31,046,43,30,29,125,43,13,34,196,44*64
$GAGSV,2,2,08,21,41,303,45,15,70,115,48,04,04,332,37,19,03,280,30*69
$GBGSV,6,1,22,11,90,103,49,25,46,179,50,38,30,052,44,37,16,316,41*68
$GBGSV,6,2,22,60,10,109,40,12,33,056,43,05,21,129,39,08,37,067,42*6E
$GBGSV,6,3,22,13,38,077,44,31,43,064,,23,59,277,50,34,62,059,50*60
$GBGSV,6,4,22,43,65,238,51,28,04,237,39,24,01,152,,22,07,047,40*63
$GBGSV,6,5,22,10,03,091,34,21,01,048,,27,06,228,,44,09,059,40*61
$GBGSV,6,6,22,56,08,074,,02,06,107,34*66
$GPGGA,164547.00,,,,,0,00,,,M,,M,,*4D
$PTNL,GGK,164547.00,010125,4742.1605831,N,01618.1002192,E,1,36,0.9,EHT750.1165,M*48
$GPGGQ,164547.00,010125,4742.1605831,N,01618.1002192,E,1,36,1.313,706.9099,M*36
$GPGFA,164547.00,4.645,9.512,0.489,0.373,354.095,1.160,,VVV*00
$GPLLK,164547.00,010125,,M,,M,1,36,1.0,,M*0A
$GNGMP,164547.00,,,,,DAAA,36,0.5,,,,*53
$GPGMP,164547.00,,,,,,09,,,,2.8,136*7F
$GLGMP,164547.00,,,,,,07,,,,,*7D
$GAGMP,164547.00,,,,,,06,,,,,*71
$GBGMP,164547.00,,,,,,14,,,,,*71
$PSSN,SNC,[0,319565000,2347]*49
$GPZDA,164552.00,01,01,2025,,*62
$GPDTM,W84,,00.0000000,N,00.0000000,E,00.0000000,W84*5F
$PSSN,TFM,164552.00,,,,*6E
$GPRMC,164552.00,A,4742.1605833,N,01618.1002216,E,0.0,,010125,5.1,E,D*1B
$GPGLL,4742.1605833,N,01618.1002216,E,164552.00,A,D*6A
$GPGGA,164552.00,4742.1605833,N,01618.1002216,E,2,36,0.5,706.9084,M,43.2066,M,1.6,0136*45
$GNGNS,164552.00,4742.1605833,N,01618.1002216,E,DAAA,36,0.5,706.9084,43.2066,,*5A
$GPGNS,164552.00,,,,,,09,,,,1.6,136*76
$GLGNS,164552.00,,,,,,07,,,,,*79
$GAGNS,164552.00,,,,,,06,,,,,*75
$GBGNS,164552.00,,,,,,14,,,,,*75
$GPLLQ,164552.00,010125,,M,,M,1,36,1.295,,M*1A
$GPVTG,,T,,M,0.01,N,0.01,K,D*26
$GPHDT,,T*1B
$GPTHS,,V*0E
$GPROT,,V*08
$PSSN,HRP,164552.00,010125,,,,,,,00,0,,*60
$PTNL,AVR,164552.00,,Yaw,,Tilt,,,,0,,00*36
$GPGSA,A,3,05,16,18,20,25,26,28,29,31,,,,0.9,0.5,0.7*30
$GPGSA,A,3,72,78,79,80,81,82,88,,,,,,0.9,0.5,0.7*36
$GPGSA,A,3,13,15,21,27,30,34,,,,,,,0.9,0.5,0.7*3D
$GPGSA,A,3,05,08,11,12,13,22,23,25,34,37,38,43,0.9,0.5,0.7*3C
$GPGSA,A,3,44,60,,,,,,,,,,,0.9,0.5,0.7*3F
$GPGST,164552.00,1.631,0.482,0.368,353.564,0.481,0.370,1.144*5B
$GPGBS,164552.00,2.463,1.854,8.216,72,0.0001,6.864,6.632*51
$GPGRS,164552.00,1,0.1,-1.2,-0.0,0.7,-0.4,-0.2,0.4,-0.1,0.4,,,*4E
$GPGRS,164552.00,1,6.9,-3.2,0.0,-1.7,0.6,-0.2,-0.5,,,,,*68
$GPGRS,164552.00,1,0.5,0.0,-0.0,-0.6,-0.2,-0.1,,,,,,*4F
$GPGRS,164552.00,1,1.5,0.2,1.1,1.2,-1.1,-1.6,-0.4,-0.2,-0.8,-1.4,-0.1,0.6*6C
$GPGRS,164552.00,1,-1.1,-0.1,,,,,,,,,,*4E
$GPGSV,5,1,20,29,64,058,48,16,17,303,40,20,17,042,40,25,34,133,44*75
$GPGSV,5,2,20,05,27,076,44,28,37,226,46,26,48,300,47,18,56,184,48*74
$GPGSV,5,3,20,31,44,262,47,04,03,319,39,09,00,344,36,36,35,170,45*77
$GPGSV,5,4,20,58,13,245,37,40,23,133,36,34,31,208,43,49,34,195,44*7C
$GPGSV,5,5,20,57,08,111,38,41,07,108,34,61,03,257,38*48
$GLGSV,3,1,10,81,79,017,52,78,17,152,45,88,23,042,46,80,50,319,52*6A
$GLGSV,3,2,10,82,47,229,50,79,69,169,53,65,04,065,38,71,01,329,42*6F
$GLGSV,3,3,10,83,06,223,33,72,09,013,39*6E
$GAGSV,3,1,09,27,82,134,49,34,31,046,43,30,29,125,42,13,34,196,45*65
$GAGSV,3,2,09,21,41,303,45,15,70,115,48,04,04,332,37,19,03,280,29*61
$GAGSV,3,3,09,06,00,355,*54
$GBGSV,6,1,22,11,90,098,49,25,46,179,50,60,10,109,40,38,30,052,44*62
$GBGSV,6,2,22,37,16,316,42,12,33,056,43,05,21,129,39,08,37,067,42*64
$GBGSV,6,3,22,13,38,077,43,31,43,064,,23,59,277,50,34,62,059,50*67
$GBGSV,6,4,22,43,65,238,51,28,04,237,39,24,01,152,,22,07,047,39*6D
$GBGSV,6,5,22,02,06,107,34,10,03,091,33,27,07,228,,44,09,059,40*6C
$GBGSV,6,6,22,56,08,074,,21,01,048,*6D
$GPGGA,164552.00,,,,,0,00,,,M,,M,,*49
$PTNL,GGK,164552.00,010125,4742.1605833,N,01618.1002216,E,1,36,0.9,EHT750.1150,M*47
$GPGGQ,164552.00,010125,4742.1605833,N,01618.1002216,E,1,36,1.295,706.9084,M*3C
$GPGFA,164552.00,4.583,9.379,0.482,0.368,353.564,1.144,,VVV*0D
$GPLLK,164552.00,010125,,M,,M,1,36,1.0,,M*0E
$GNGMP,164552.00,,,,,DAAA,36,0.5,,,,*57
$GPGMP,164552.00,,,,,,09,,,,1.6,136*76
$GLGMP,164552.00,,,,,,07,,,,,*79
$GAGMP,164552.00,,,,,,06,,,,,*75
$GBGMP,164552.00,,,,,,14,,,,,*75
$PSSN,SNC,[0,319570000,2347]*4D
$GPZDA,164557.00,01,01,2025,,*67
$GPDTM,W84,,00.0000000,N,00.0000000,E,00.0000000,W84*5F
$PSSN,TFM,164557.00,,,,*6B
$GPRMC,164557.00,A,4742.1605848,N,01618.1002235,E,0.0,,010125,5.1,E,D*13
$GPGLL,4742.1605848,N,01618.1002235,E,164557.00,A,D*62
$GPGGA,164557.00,4742.1605848,N,01618.1002235,E,2,36,0.5,706.9125,M,43.2066,M,2.6,0136*44
$GNGNS,164557.00,4742.1605848,N,01618.1002235,E,DAAA,36,0.5,706.9125,43.2066,,*58
$GPGNS,164557.00,,,,,,09,,,,2.6,136*70
$GLGNS,164557.00,,,,,,07,,,,,*7C
$GAGNS,164557.00,,,,,,06,,,,,*70
$GBGNS,164557.00,,,,,,14,,,,,*70
$GPLLQ,164557.00,010125,,M,,M,1,36,1.297,,M*1D
$GPVTG,,T,,M,0.01,N,0.01,K,D*26
$GPHDT,,T*1B
$GPTHS,,V*0E
$GPROT,,V*08
$PSSN,HRP,164557.00,010125,,,,,,,00,0,,*65
$PTNL,AVR,164557.00,,Yaw,,Tilt,,,,0,,00*33
$GPGSA,A,3,05,16,18,20,25,26,28,29,31,,,,0.9,0.5,0.7*30
$GPGSA,A,3,72,78,79,80,81,82,88,,,,,,0.9,0.5,0.7*36
$GPGSA,A,3,13,15,21,27,30,34,,,,,,,0.9,0.5,0.7*3D
$GPGSA,A,3,05,08,11,12,13,22,23,25,34,37,38,43,0.9,0.5,0.7*3C
$GPGSA,A,3,44,60,,,,,,,,,,,0.9,0.5,0.7*3F
$GPGST,164557.00,1.695,0.478,0.370,355.553,0.478,0.370,1.147*5B
$GPGBS,164557.00,2.495,1.868,8.291,72,0.0001,6.928,6.634*52
$GPGRS,164557.00,1,0.1,-1.5,-0.2,0.6,-0.0,0.2,0.5,-0.3,0.2,,,*63
$GPGRS,164557.00,1,6.9,-2.9,0.1,-2.1,0.2,-0.4,-0.6,,,,,*62
$GPGRS,164557.00,1,0.3,-0.1,-0.1,-0.4,-0.1,0.0,,,,,,*4C
$GPGRS,164557.00,1,1.6,0.2,0.8,1.7,-1.0,-2.2,-0.4,-0.7,-1.0,-1.9,-0.2,0.5*60
$GPGRS,164557.00,1,-1.1,-0.2,,,,,,,,,,*48
$GPGSV,5,1,20,29,64,058,48,16,17,303,40,20,17,042,40,25,34,133,45*74
$GPGSV,5,2,20,05,27,076,44,28,37,226,46,26,48,300,47,18,56,184,48*74
$GPGSV,5,3,20,31,44,262,48,04,03,319,37,09,00,344,37,36,35,170,45*77
$GPGSV,5,4,20,58,13,245,37,40,23,133,36,34,31,208,43,49,34,195,44*7C
$GPGSV,5,5,20,57,08,111,39,41,07,108,34,61,03,257,38*49
$GLGSV,3,1,10,81,79,017,52,78,17,152,46,88,23,042,46,80,50,319,51*6A
$GLGSV,3,2,10,82,47,229,51,79,69,169,52,65,04,065,39,71,01,329,41*6D
$GLGSV,3,3,10,83,06,223,32,72,09,013,37*61
$GAGSV,3,1,09,27,82,134,49,34,31,046,43,30,29,125,42,13,34,196,44*64
$GAGSV,3,2,09,21,41,303,45,15,70,115,48,04,04,332,37,19,03,280,30*69
$GAGSV,3,3,09,06,00,355,*54
$GBGSV,6,1,22,11,90,096,49,25,46,179,49,60,10,109,40,38,30,052,44*64
$GBGSV,6,2,22,37,16,316,41,12,33,056,43,05,21,129,39,08,37,067,42*67
$GBGSV,6,3,22,13,38,077,43,31,43,064,,23,59,277,51,34,62,059,50*66
$GBGSV,6,4,22,43,65,238,51,28,04,237,39,24,00,152,,22,07,047,39*6C
$GBGSV,6,5,22,02,06,107,34,10,03,091,33,27,07,228,,44,09,059,40*6C
$GBGSV,6,6,22,56,08,074,,21,01,048,*6D
$GPGGA,164557.00,,,,,0,00,,,M,,M,,*4C
$PTNL,GGK,164557.00,010125,4742.1605848,N,01618.1002235,E,1,36,0.9,EHT750.1190,M*43
$GPGGQ,164557.00,010125,4742.1605848,N,01618.1002235,E,1,36,1.297,706.9125,M*3C
$GPGFA,164557.00,4.546,9.407,0.478,0.370,355.553,1.147,,VVV*02
$GPLLK,164557.00,010125,,M,,M,1,36,1.0,,M*0B
$GNGMP,164557.00,,,,,DAAA,36,0.5,,,,*52
$GPGMP,164557.00,,,,,,09,,,,2.6,136*70
$GLGMP,164557.00,,,,,,07,,,,,*7C
$GAGMP,164557.00,,,,,,06,,,,,*70
$GBGMP,164557.00,,,,,,14,,,,,*70
$PSSN,SNC,[0,319575000,2347]*48
$GPZDA,164602.00,01,01,2025,,*64
$GPDTM,W84,,00.0000000,N,00.0000000,E,00.0000000,W84*5F
$PSSN,TFM,164602.00,,,,*68
$GPRMC,164602.00,A,4742.1605853,N,01618.1002232,E,0.0,,010125,5.1,E,D*1D
$GPGLL,4742.1605853,N,01618.1002232,E,164602.00,A,D*6C
$GPGGA,164602.00,4742.1605853,N,01618.1002232,E,2,36,0.5,706.9146,M,43.2066,M,3.1,0136*49
$GNGNS,164602.00,4742.1605853,N,01618.1002232,E,DAAA,36,0.5,706.9146,43.2066,,*53
$GPGNS,164602.00,,,,,,09,,,,3.1,136*75
$GLGNS,164602.00,,,,,,07,,,,,*7F
$GAGNS,164602.00,,,,,,06,,,,,*73
$GBGNS,164602.00,,,,,,14,,,,,*73
$GPLLQ,164602.00,010125,,M,,M,1,36,1.311,,M*11
$GPVTG,,T,,M,0.01,N,0.01,K,D*26
$GPHDT,,T*1B
$GPTHS,,V*0E
$GPROT,,V*08
$PSSN,HRP,164602.00,010125,,,,,,,00,0,,*66
$PTNL,AVR,164602.00,,Yaw,,Tilt,,,,0,,00*30
$GPGSA,A,3,05,16,18,20,25,26,28,29,31,,,,0.9,0.5,0.7*30
$GPGSA,A,3,72,78,79,80,81,82,88,,,,,,0.9,0.5,0.7*36
$GPGSA,A,3,13,15,21,27,30,34,,,,,,,0.9,0.5,0.7*3D
$GPGSA,A,3,05,08,11,12,13,22,23,25,34,37,38,43,0.9,0.5,0.7*3C
$GPGSA,A,3,44,60,,,,,,,,,,,0.9,0.5,0.7*3F
$GPGST,164602.00,1.456,0.484,0.373,355.728,0.484,0.374,1.160*59
$GPGBS,164602.00,2.542,1.868,8.415,72,0.0001,5.393,6.632*5F
$GPGRS,164602.00,1,0.1,-1.3,-0.1,1.0,-0.1,0.1,0.2,-0.3,0.3,,,*66
$GPGRS,164602.00,1,5.4,-3.1,-0.0,-2.3,0.2,-0.2,-0.8,,,,,*40
$GPGRS,164602.00,1,0.3,-0.1,0.0,-0.4,0.3,-0.1,,,,,,*60
$GPGRS,164602.00,1,1.4,0.6,0.9,1.7,-0.6,-1.5,-0.2,-0.4,-0.9,-1.6,-0.2,0.4*64
$GPGRS,164602.00,1,-1.0,-0.2,,,,,,,,,,*4A
$GPGSV,5,1,20,29,64,058,48,16,17,303,41,20,17,042,40,25,34,133,45*75
$GPGSV,5,2,20,05,27,076,44,28,37,226,46,26,48,300,47,18,56,184,48*74
$GPGSV,5,3,20,31,44,261,48,04,03,319,38,09,00,344,36,36,35,170,45*7A
$GPGSV,5,4,20,58,13,245,37,40,23,133,36,34,31,208,43,49,34,195,44*7C
$GPGSV,5,5,20,57,08,111,39,41,07,108,35,61,03,257,38*48
$GLGSV,3,1,10,81,79,017,52,78,17,152,45,88,23,042,46,80,50,319,52*6A
$GLGSV,3,2,10,82,47,229,51,79,69,169,52,65,04,065,39,71,01,329,42*6E
$GLGSV,3,3,10,83,06,223,32,72,09,013,38*6E
$GAGSV,3,1,09,27,82,134,49,34,31,046,43,30,29,125,43,13,34,196,44*65
$GAGSV,3,2,09,21,41,303,45,15,70,115,48,04,04,332,36,19,03,280,30*68
$GAGSV,3,3,09,06,00,355,*54
$GBGSV,6,1,22,11,90,092,49,25,46,179,49,60,10,109,40,38,30,052,44*60
$GBGSV,6,2,22,37,16,316,41,05,21,129,39,12,33,056,43,08,37,067,42*67
$GBGSV,6,3,22,13,38,077,44,31,43,064,,23,59,277,51,34,62,059,50*61
$GBGSV,6,4,22,43,65,238,51,28,04,237,39,24,00,152,,22,07,047,39*6C
$GBGSV,6,5,22,02,06,107,34,10,03,091,34,27,07,228,,44,09,059,41*6A
$GBGSV,6,6,22,56,08,074,,21,01,048,*6D
$GPGGA,164602.00,,,,,0,00,,,M,,M,,*4F
$PTNL,GGK,164602.00,010125,4742.1605853,N,01618.1002232,E,1,36,0.9,EHT750.1212,M*44
$GPGGQ,164602.00,010125,4742.1605853,N,01618.1002232,E,1,36,1.311,706.9146,M*38
$GPGFA,164602.00,4.603,9.512,0.484,0.373,355.728,1.160,,VVV*0D
$GPLLK,164602.00,010125,,M,,M,1,36,1.0,,M*08
$GNGMP,164602.00,,,,,DAAA,36,0.5,,,,*51
$GPGMP,164602.00,,,,,,09,,,,3.1,136*75
$GLGMP,164602.00,,,,,,07,,,,,*7F
$GAGMP,164602.00,,,,,,06,,,,,*73
$GBGMP,164602.00,,,,,,14,,,,,*73
$PSSN,SNC,[0,319580000,2347]*42
$GPZDA,164607.00,01,01,2025,,*61
$GPDTM,W84,,00.0000000,N,00.0000000,E,00.0000000,W84*5F
$PSSN,TFM,164607.00,,,,*6D
$GPRMC,164607.00,A,4742.1605841,N,01618.1002237,E,0.0,,010125,5.1,E,D*1E
$GPGLL,4742.1605841,N,01618.1002237,E,164607.00,A,D*6F
$GPGGA,164607.00,4742.1605841,N,01618.1002237,E,2,36,0.5,706.9146,M,43.2066,M,2.8,0136*42
$GNGNS,164607.00,4742.1605841,N,01618.1002237,E,DAAA,36,0.5,706.9146,43.2066,,*50
$GPGNS,164607.00,,,,,,09,,,,2.8,136*78
$GLGNS,164607.00,,,,,,07,,,,,*7A
$GAGNS,164607.00,,,,,,06,,,,,*76
$GBGNS,164607.00,,,,,,14,,,,,*76
$GPLLQ,164607.00,010125,,M,,M,1,36,1.302,,M*16
$GPVTG,,T,,M,0.00,N,0.00,K,D*26
$GPHDT,,T*1B
$GPTHS,,V*0E
$GPROT,,V*08
$PSSN,HRP,164607.00,010125,,,,,,,00,0,,*63
$PTNL,AVR,164607.00,,Yaw,,Tilt,,,,0,,00*35
$GPGSA,A,3,05,16,18,20,25,26,28,29,31,,,,0.9,0.5,0.7*30
$GPGSA,A,3,72,78,79,80,81,82,88,,,,,,0.9,0.5,0.7*36
$GPGSA,A,3,13,15,21,27,30,34,,,,,,,0.9,0.5,0.7*3D
$GPGSA,A,3,05,08,11,12,13,22,23,25,34,37,38,43,0.9,0.5,0.7*3C
$GPGSA,A,3,44,60,,,,,,,,,,,0.9,0.5,0.7*3F
$GPGST,164607.00,1.560,0.484,0.366,352.559,0.482,0.368,1.152*55
$GPGBS,164607.00,2.483,1.861,8.127,72,0.0001,5.941,6.631*5D
$GPGRS,164607.00,1,0.4,-1.0,0.1,0.6,-0.4,-0.1,0.3,-0.2,0.3,,,*67
$GPGRS,164607.00,1,5.9,-3.7,-0.6,-1.9,0.2,-0.2,-0.9,,,,,*40
$GPGRS,164607.00,1,0.7,-0.2,-0.2,-0.3,0.2,-0.2,,,,,,*48
$GPGRS,164607.00,1,1.5,0.7,1.2,1.6,-0.4,-1.6,-0.3,-0.4,-1.0,-1.5,-0.2,0.3*66
$GPGRS,164607.00,1,-1.0,-0.5,,,,,,,,,,*48
$GPGSV,5,1,20,29,64,058,48,16,17,303,40,20,17,042,39,25,34,133,44*7B
$GPGSV,5,2,20,05,27,076,44,28,37,226,46,26,48,300,47,18,56,184,48*74
$GPGSV,5,3,20,31,44,261,48,04,03,319,40,09,00,344,36,36,35,170,45*75
$GPGSV,5,4,20,58,13,245,37,40,23,133,36,34,31,208,43,49,34,195,44*7C
$GPGSV,5,5,20,57,08,111,39,41,07,108,34,61,03,257,38*49
$GLGSV,3,1,10,81,78,017,52,78,17,152,45,88,23,042,46,80,50,319,52*6B
$GLGSV,3,2,10,82,47,230,51,79,69,169,52,65,04,065,38,71,01,329,41*64
$GLGSV,3,3,10,83,06,223,32,72,09,013,38*6E
$GAGSV,3,1,09,27,82,134,48,34,31,046,43,30,28,125,43,13,34,196,44*65
$GAGSV,3,2,09,21,41,303,45,15,70,115,48,04,04,332,36,19,03,280,30*68
$GAGSV,3,3,09,06,00,355,*54
$GBGSV,6,1,22,11,89,088,49,25,46,179,49,60,10,109,40,37,16,316,41*6E
$GBGSV,6,2,22,38,30,052,44,05,21,129,39,12,33,056,43,08,37,067,42*6A
$GBGSV,6,3,22,13,38,077,44,31,43,064,,23,59,277,51,34,62,059,50*61
$GBGSV,6,4,22,43,65,238,51,28,04,237,39,24,00,152,,22,07,047,39*6C
$GBGSV,6,5,22,10,03,091,33,02,06,107,34,27,07,228,,44,09,059,41*6D
$GBGSV,6,6,22,56,08,074,,21,01,048,*6D
$GPGGA,164607.00,,,,,0,00,,,M,,M,,*4A
$PTNL,GGK,164607.00,010125,4742.1605841,N,01618.1002237,E,1,36,0.9,EHT750.1211,M*44
$GPGGQ,164607.00,010125,4742.1605841,N,01618.1002237,E,1,36,1.302,706.9146,M*39
$GPGFA,164607.00,4.599,9.446,0.484,0.366,352.559,1.152,,VVV*0E
$GPLLK,164607.00,010125,,M,,M,1,36,1.0,,M*0D
$GNGMP,164607.00,,,,,DAAA,36,0.5,,,,*54
$GPGMP,164607.00,,,,,,09,,,,2.8,136*78
$GLGMP,164607.00,,,,,,07,,,,,*7A
$GAGMP,164607.00,,,,,,06,,,,,*76
$GBGMP,164607.00,,,,,,14,,,,,*76
$PSSN,SNC,[0,319585000,2347]*47
$GPZDA,164612.00,01,01,2025,,*65
$GPDTM,W84,,00.0000000,N,00.0000000,E,00.0000000,W84*5F
$PSSN,TFM,164612.00,,,,*69
$GPRMC,164612.00,A,4742.1605840,N,01618.1002241,E,0.0,,010125,5.1,E,D*1A
$GPGLL,4742.1605840,N,01618.1002241,E,164612.00,A,D*6B
$GPGGA,164612.00,4742.1605840,N,01618.1002241,E,2,36,0.5,706.9202,M,43.2066,M,1.6,0136*48
$GNGNS,164612.00,4742.1605840,N,01618.1002241,E,DAAA,36,0.5,706.9202,43.2066,,*57
$GPGNS,164612.00,,,,,,09,,,,1.6,136*71
$GLGNS,164612.00,,,,,,07,,,,,*7E
$GAGNS,164612.00,,,,,,06,,,,,*72
$GBGNS,164612.00,,,,,,14,,,,,*72
$GPLLQ,164612.00,010125,,M,,M,1,36,1.284,,M*1D
$GPVTG,,T,,M,0.00,N,0.01,K,D*27
$GPHDT,,T*1B
$GPTHS,,V*0E
$GPROT,,V*08
$PSSN,HRP,164612.00,010125,,,,,,,00,0,,*67
$PTNL,AVR,164612.00,,Yaw,,Tilt,,,,0,,00*31
$GPGSA,A,3,05,16,18,20,25,26,28,29,31,,,,0.9,0.5,0.7*30
$GPGSA,A,3,72,78,79,80,81,82,88,,,,,,0.9,0.5,0.7*36
$GPGSA,A,3,13,15,21,27,30,34,,,,,,,0.9,0.5,0.7*3D
$GPGSA,A,3,05,08,11,12,13,22,23,25,34,37,38,43,0.9,0.5,0.7*3C
$GPGSA,A,3,44,60,,,,,,,,,,,0.9,0.5,0.7*3F
$GPGST,164612.00,1.480,0.477,0.361,352.020,0.475,0.364,1.136*58
$GPGBS,164612.00,2.407,1.820,8.029,72,0.0001,5.265,6.631*52
$GPGRS,164612.00,1,0.6,-1.2,0.1,0.9,-0.6,0.0,0.4,-0.2,0.1,,,*47
$GPGRS,164612.00,1,5.3,-3.8,-0.3,-1.7,0.1,-0.0,-0.6,,,,,*44
$GPGRS,164612.00,1,0.5,-0.1,-0.1,-0.4,0.0,-0.4,,,,,,*4D
$GPGRS,164612.00,1,1.2,0.7,1.4,1.7,-0.6,-2.0,-0.2,-0.1,-0.9,-1.1,-0.1,0.3*6E
$GPGRS,164612.00,1,-0.9,-0.3,,,,,,,,,,*42
$GPGSV,5,1,20,29,64,058,48,16,17,303,40,20,17,042,39,25,34,133,45*7A
$GPGSV,5,2,20,05,27,076,44,28,37,226,46,26,48,300,47,18,56,184,49*75
$GPGSV,5,3,20,31,44,261,48,04,03,319,35,09,00,344,35,36,35,170,45*74
$GPGSV,5,4,20,58,13,245,36,40,23,133,36,34,31,208,43,49,34,195,44*7D
$GPGSV,5,5,20,57,08,111,39,41,07,108,35,61,03,257,38*48
$GLGSV,3,1,10,81,78,017,52,78,16,152,45,88,23,042,46,80,50,319,52*6A
$GLGSV,3,2,10,82,47,230,51,79,69,169,52,65,04,065,39,71,01,329,42*66
$GLGSV,3,3,10,83,06,223,32,72,09,013,38*6E
$GAGSV,3,1,09,27,82,134,48,34,31,046,43,30,28,125,43,13,34,196,44*65
$GAGSV,3,2,09,21,41,303,45,15,70,115,48,04,04,332,36,19,03,280,29*60
$GAGSV,3,3,09,06,00,355,*54
$GBGSV,6,1,22,11,89,086,49,25,46,179,49,60,10,109,40,37,16,316,41*60
$GBGSV,6,2,22,38,30,052,44,05,21,129,39,12,33,056,43,08,37,067,42*6A
$GBGSV,6,3,22,13,38,077,44,31,43,064,,23,59,277,51,34,62,059,50*61
$GBGSV,6,4,22,43,65,238,51,28,04,237,39,24,00,152,,22,07,047,39*6C
$GBGSV,6,5,22,10,03,091,33,02,06,107,34,27,07,228,,44,09,059,41*6D
$GBGSV,6,6,22,56,08,074,,21,01,048,*6D
$GPGGA,164612.00,,,,,0,00,,,M,,M,,*4E
$PTNL,GGK,164612.00,010125,4742.1605840,N,01618.1002241,E,1,36,0.9,EHT750.1267,M*41
$GPGGQ,164612.00,010125,4742.1605840,N,01618.1002241,E,1,36,1.284,706.9202,M*31
$GPGFA,164612.00,4.537,9.313,0.477,0.361,352.020,1.136,,VVV*0B
$GPLLK,164612.00,010125,,M,,M,1,36,1.0,,M*09
$GNGMP,164612.00,,,,,DAAA,36,0.5,,,,*50
$GPGMP,164612.00,,,,,,09,,,,1.6,136*71
$GLGMP,164612.00,,,,,,07,,,,,*7E
$GAGMP,164612.00,,,,,,06,,,,,*72
$GBGMP,164612.00,,,,,,14,,,,,*72
$PSSN,SNC,[0,319590000,2347]*43
$GPZDA,164617.00,01,01,2025,,*60
$GPDTM,W84,,00.0000000,N,00.0000000,E,00.0000000,W84*5F
$PSSN,TFM,164617.00,,,,*6C
$GPRMC,164617.00,A,4742.1605845,N,01618.1002232,E,0.0,,010125,5.1,E,D*1E
$GPGLL,4742.1605845,N,01618.1002232,E,164617.00,A,D*6F
$GPGGA,164617.00,4742.1605845,N,01618.1002232,E,2,36,0.5,706.9205,M,43.2066,M,2.6,0136*48
$GNGNS,164617.00,4742.1605845,N,01618.1002232,E,DAAA,36,0.5,706.9205,43.2066,,*54
$GPGNS,164617.00,,,,,,09,,,,2.6,136*77
$GLGNS,164617.00,,,,,,07,,,,,*7B
$GAGNS,164617.00,,,,,,06,,,,,*77
$GBGNS,164617.00,,,,,,14,,,,,*77
$GPLLQ,164617.00,010125,,M,,M,1,36,1.285,,M*19
$GPVTG,,T,,M,0.00,N,0.01,K,D*27
$GPHDT,,T*1B
$GPTHS,,V*0E
$GPROT,,V*08
$PSSN,HRP,164617.00,010125,,,,,,,00,0,,*62
$PTNL,AVR,164617.00,,Yaw,,Tilt,,,,0,,00*34
$GPGSA,A,3,05,16,18,20,25,26,28,29,31,,,,0.9,0.5,0.7*30
$GPGSA,A,3,72,78,79,80,81,82,88,,,,,,0.9,0.5,0.7*36
$GPGSA,A,3,13,15,21,27,30,34,,,,,,,0.9,0.5,0.7*3D
$GPGSA,A,3,05,08,11,12,13,22,23,25,34,37,38,43,0.9,0.5,0.7*3C
$GPGSA,A,3,44,60,,,,,,,,,,,0.9,0.5,0.7*3F
$GPGST,164617.00,1.563,0.473,0.363,353.937,0.472,0.365,1.139*50
$GPGBS,164617.00,2.440,1.834,8.105,72,0.0001,6.070,6.632*58
$GPGRS,164617.00,1,0.1,-0.5,-0.1,1.2,-0.3,0.0,0.3,-0.3,0.3,,,*65
$GPGRS,164617.00,1,6.1,-3.6,0.2,-2.0,0.1,-0.1,-0.0,,,,,*61
$GPGRS,164617.00,1,0.5,-0.1,0.1,-0.5,-0.0,-0.2,,,,,,*4F
$GPGRS,164617.00,1,1.6,1.0,1.1,1.5,-0.8,-1.9,0.1,-0.4,-0.9,-1.0,-0.3,0.6*47
$GPGRS,164617.00,1,-0.7,-0.3,,,,,,,,,,*49
$GPGSV,5,1,20,29,64,058,48,16,17,303,40,20,17,042,38,25,34,133,44*7A
$GPGSV,5,2,20,05,27,076,44,28,37,226,46,26,48,300,47,18,56,184,49*75
$GPGSV,5,3,20,31,44,261,47,04,03,319,37,09,00,344,37,36,35,170,45*7B
$GPGSV,5,4,20,58,13,245,37,40,23,133,36,34,31,208,43,49,34,195,44*7C
$GPGSV,5,5,20,57,08,111,39,41,07,108,35,61,03,257,39*49
$GLGSV,3,1,10,81,78,017,52,78,16,152,45,88,23,042,46,80,50,319,52*6A
$GLGSV,3,2,10,82,47,230,51,79,69,169,52,65,04,065,39,71,01,329,42*66
$GLGSV,3,3,10,83,06,223,33,72,09,013,38*6F
$GAGSV,3,1,09,27,82,135,48,34,31,046,42,30,28,125,43,13,34,196,44*65
$GAGSV,3,2,09,21,41,303,44,15,70,114,48,04,04,332,36,19,03,280,30*68
$GAGSV,3,3,09,06,00,355,*54
$GBGSV,6,1,22,11,89,083,49,37,16,316,42,38,30,052,44,05,21,129,39*63
$GBGSV,6,2,22,12,33,056,43,60,10,109,40,25,46,179,49,08,37,067,42*6F
$GBGSV,6,3,22,13,38,077,44,31,43,064,,23,59,277,51,34,62,059,50*61
$GBGSV,6,4,22,43,65,239,51,28,04,237,39,24,00,152,,22,07,047,39*6D
$GBGSV,6,5,22,10,03,091,33,21,01,048,,27,07,228,,44,09,059,41*66
$GBGSV,6,6,22,56,08,075,,02,06,107,34*67
$GPGGA,164617.00,,,,,0,00,,,M,,M,,*4B
$PTNL,GGK,164617.00,010125,4742.1605845,N,01618.1002232,E,1,36,0.9,EHT750.1270,M*43
$GPGGQ,164617.00,010125,4742.1605845,N,01618.1002232,E,1,36,1.285,706.9205,M*33
$GPGFA,164617.00,4.500,9.337,0.473,0.363,353.937,1.139,,VVV*0B
$GPLLK,164617.00,010125,,M,,M,1,36,1.0,,M*0C
$GNGMP,164617.00,,,,,DAAA,36,0.5,,,,*55
$GPGMP,164617.00,,,,,,09,,,,2.6,136*77
$GLGMP,164617.00,,,,,,07,,,,,*7B
$GAGMP,164617.00,,,,,,06,,,,,*77
$GBGMP,164617.00,,,,,,14,,,,,*77
