$GPZDA,032942.00,01,01,2025,,*6D
$GPDTM,W84,,00.0000000,N,00.0000000,E,00.0000000,W84*5F
$PSSN,TFM,032942.00,,,,*61
$GPRMC,032942.00,A,4742.1602568,N,01618.1002157,E,0.0,,010125,5.1,E,D*16
$GPGLL,4742.1602568,N,01618.1002157,E,032942.00,A,D*67
$GPGGA,032942.00,4742.1602568,N,01618.1002157,E,2,39,0.4,708.2330,M,43.2066,M,3.2,0136*49
$GNGNS,032942.00,4742.1602568,N,01618.1002157,E,DAAA,39,0.4,708.2330,43.2066,,*50
$GPGNS,032942.00,,,,,,10,,,,3.2,136*77
$GLGNS,032942.00,,,,,,07,,,,,*76
$GAGNS,032942.00,,,,,,09,,,,,*75
$GBGNS,032942.00,,,,,,13,,,,,*7D
$GPLLQ,032942.00,010125,,M,,M,1,39,0.843,,M*1A
$GPVTG,,T,,M,0.00,N,0.01,K,D*27
$GPHDT,,T*1B
$GPTHS,,V*0E
$GPROT,,V*08
$PSSN,HRP,032942.00,010125,,,,,,,00,0,,*6F
$PTNL,AVR,032942.00,,Yaw,,Tilt,,,,0,,00*39
$GPGSA,A,3,03,04,06,07,09,11,16,19,26,31,,,0.8,0.4,0.6*3E
$GPGSA,A,3,70,71,79,80,85,86,87,,,,,,0.8,0.4,0.6*33
$GPGSA,A,3,03,04,05,06,09,15,31,34,36,,,,0.8,0.4,0.6*31
$GPGSA,A,3,02,05,06,09,16,19,20,22,35,37,39,44,0.8,0.4,0.6*35
$GPGSA,A,3,60,,,,,,,,,,,,0.8,0.4,0.6*3E
$GPGST,032942.00,1.369,0.412,0.334,359.415,0.412,0.334,0.655*5D
$GPGBS,032942.00,3.278,2.138,3.704,87,0.0001,-4.050,6.158*7F
$GPGRS,032942.00,1,0.3,-0.2,-0.2,0.3,-0.0,0.4,0.0,-0.1,-0.7,-0.2,,*40
$GPGRS,032942.00,1,-1.2,1.8,1.7,0.1,3.5,-2.4,-4.1,,,,,*4B
$GPGRS,032942.00,1,-1.3,-0.9,0.1,-0.1,-0.1,0.2,-0.4,-0.5,0.3,,,*64
$GPGRS,032942.00,1,1.4,0.2,1.6,0.6,0.7,-0.4,0.7,-0.4,-0.8,-0.5,-0.9,-0.3*41
$GPGRS,032942.00,1,-2.5,,,,,,,,,,,*44
$GPGSV,6,1,22,09,76,263,50,07,26,182,45,11,23,316,42,31,15,040,39*76
$GPGSV,6,2,22,26,12,060,38,19,13,249,41,03,39,107,46,06,53,286,48*7A
$GPGSV,6,3,22,04,71,053,48,01,02,158,,20,02,301,,17,03,226,38*71
$GPGSV,6,4,22,16,06,090,37,36,35,170,45,58,13,245,38,40,24,132,36*73
$GPGSV,6,5,22,34,31,208,43,49,34,195,45,57,08,111,39,41,07,108,35*78
$GPGSV,6,6,22,61,03,257,38*46
$GLGSV,3,1,10,70,58,041,41,73,11,143,,72,10,267,,85,23,200,47*64
$GLGSV,3,2,10,87,29,326,46,79,20,032,46,80,32,090,49,71,54,295,52*68
$GLGSV,3,3,10,86,52,266,52,69,01,074,40*61
$GAGSV,3,1,12,09,67,056,48,15,11,324,38,04,16,060,38,36,52,190,47*63
$GAGSV,3,2,12,34,54,291,47,06,42,060,45,05,55,244,47,18,08,243,*62
$GAGSV,3,3,12,23,09,052,,31,05,099,37,03,05,242,37,11,09,161,32*6F
$GBGSV,6,1,21,19,79,004,51,22,34,278,47,39,16,039,42,12,19,319,*61
$GBGSV,6,2,21,05,23,128,39,16,26,043,42,37,26,058,44,58,24,111,*6C
$GBGSV,6,3,21,06,28,046,40,46,31,121,,44,28,295,45,35,31,240,46*60
$GBGSV,6,4,21,21,34,268,,09,40,056,43,20,36,080,48,48,58,073,*6D
$GBGSV,6,5,21,29,02,190,24,36,06,166,,34,01,339,,02,07,106,35*65
$GBGSV,6,6,21,60,08,111,39*5D
$GPGGA,032942.00,,,,,0,00,,,M,,M,,*46
$PTNL,GGK,032942.00,010125,4742.1602568,N,01618.1002157,E,1,39,0.8,EHT751.4395,M*4B
$GPGGQ,032942.00,010125,4742.1602568,N,01618.1002157,E,1,39,0.843,708.2330,M*37
$GPGFA,032942.00,3.919,5.367,0.412,0.334,359.415,0.655,,VVV*02
$GPLLK,032942.00,010125,,M,,M,1,39,0.8,,M*07
$GNGMP,032942.00,,,,,DAAA,39,0.4,,,,*56
$GPGMP,032942.00,,,,,,10,,,,3.2,136*77
$GLGMP,032942.00,,,,,,07,,,,,*76
$GAGMP,032942.00,,,,,,09,,,,,*75
$GBGMP,032942.00,,,,,,13,,,,,*7D
$PSSN,SNC,[0,271800000,2347]*48
$GPZDA,032947.00,01,01,2025,,*68
$GPDTM,W84,,00.0000000,N,00.0000000,E,00.0000000,W84*5F
$PSSN,TFM,032947.00,,,,*64
$GPRMC,032947.00,A,4742.1602597,N,01618.1002175,E,0.0,,010125,5.1,E,D*13
$GPGLL,4742.1602597,N,01618.1002175,E,032947.00,A,D*62
$GPGGA,032947.00,4742.1602597,N,01618.1002175,E,2,39,0.4,708.2371,M,43.2066,M,1.6,0136*4F
$GNGNS,032947.00,4742.1602597,N,01618.1002175,E,DAAA,39,0.4,708.2371,43.2066,,*50
$GPGNS,032947.00,,,,,,10,,,,1.6,136*74
$GLGNS,032947.00,,,,,,07,,,,,*73
$GAGNS,032947.00,,,,,,09,,,,,*70
$GBGNS,032947.00,,,,,,13,,,,,*78
$GPLLQ,032947.00,010125,,M,,M,1,39,0.835,,M*1E
$GPVTG,,T,,M,0.00,N,0.00,K,D*26
$GPHDT,,T*1B
$GPTHS,,V*0E
$GPROT,,V*08
$PSSN,HRP,032947.00,010125,,,,,,,00,0,,*6A
$PTNL,AVR,032947.00,,Yaw,,Tilt,,,,0,,00*3C
$GPGSA,A,3,03,04,06,07,09,11,16,19,26,31,,,0.8,0.4,0.6*3E
$GPGSA,A,3,70,71,79,80,85,86,87,,,,,,0.8,0.4,0.6*33
$GPGSA,A,3,03,04,05,06,09,15,31,34,36,,,,0.8,0.4,0.6*31
$GPGSA,A,3,02,05,06,09,16,19,20,22,35,37,39,44,0.8,0.4,0.6*35
$GPGSA,A,3,60,,,,,,,,,,,,0.8,0.4,0.6*3E
$GPGST,032947.00,1.262,0.409,0.331,359.862,0.409,0.331,0.648*52
$GPGBS,032947.00,3.185,2.095,3.578,07,0.0001,0.599,0.775*5A
$GPGRS,032947.00,1,-0.2,-0.2,-0.4,0.6,0.0,0.5,-0.2,0.4,-0.7,0.1,,*6F
$GPGRS,032947.00,1,-0.9,2.1,1.7,-0.2,3.1,-2.3,-3.6,,,,,*63
$GPGRS,032947.00,1,-0.9,-1.0,0.2,-0.1,-0.0,0.7,-0.3,-0.3,0.3,,,*64
$GPGRS,032947.00,1,1.0,0.5,0.9,0.4,1.1,-0.3,0.9,-0.2,-0.7,-0.2,-0.6,-0.0*47
$GPGRS,032947.00,1,-2.4,,,,,,,,,,,*40
$GPGSV,6,1,22,09,76,263,50,07,26,182,45,11,23,316,41,31,14,040,40*7A
$GPGSV,6,2,22,26,12,060,39,19,13,249,41,03,39,107,46,06,53,285,48*78
$GPGSV,6,3,22,04,71,054,48,01,02,158,,20,02,301,,17,03,226,38*76
$GPGSV,6,4,22,16,06,090,37,36,35,170,45,58,13,245,38,40,24,132,36*73
$GPGSV,6,5,22,34,31,208,43,49,34,195,45,57,08,111,39,41,07,108,35*78
$GPGSV,6,6,22,61,03,257,38*46
$GLGSV,3,1,10,70,58,041,41,73,11,143,,72,10,267,,85,23,200,47*64
$GLGSV,3,2,10,87,29,326,45,79,20,032,46,80,32,090,49,71,54,295,52*6B
$GLGSV,3,3,10,86,52,266,52,69,01,074,41*60
$GAGSV,3,1,12,09,67,056,49,15,11,324,38,04,16,060,38,36,52,190,48*6D
$GAGSV,3,2,12,34,54,291,47,06,42,060,46,05,55,244,47,18,08,243,*61
$GAGSV,3,3,12,23,09,051,,31,05,099,38,03,05,242,36,11,09,161,32*62
$GBGSV,6,1,21,19,79,004,51,22,34,278,47,39,16,039,42,12,19,319,*61
$GBGSV,6,2,21,05,23,128,38,16,26,043,42,37,26,058,44,58,24,111,*6D
$GBGSV,6,3,21,06,28,046,40,46,31,121,,44,28,295,45,35,31,240,46*60
$GBGSV,6,4,21,21,34,268,,09,40,056,43,20,36,080,48,48,58,073,*6D
$GBGSV,6,5,21,29,02,190,24,36,06,166,,34,01,339,,02,07,106,35*65
$GBGSV,6,6,21,60,08,111,39*5D
$GPGGA,032947.00,,,,,0,00,,,M,,M,,*43
$PTNL,GGK,032947.00,010125,4742.1602597,N,01618.1002175,E,1,39,0.8,EHT751.4437,M*41
$GPGGQ,032947.00,010125,4742.1602597,N,01618.1002175,E,1,39,0.835,708.2371,M*36
$GPGFA,032947.00,3.893,5.313,0.409,0.331,359.862,0.648,,VVV*08
$GPLLK,032947.00,010125,,M,,M,1,39,0.8,,M*02
$GNGMP,032947.00,,,,,DAAA,39,0.4,,,,*53
$GPGMP,032947.00,,,,,,10,,,,1.6,136*74
$GLGMP,032947.00,,,,,,07,,,,,*73
$GAGMP,032947.00,,,,,,09,,,,,*70
$GBGMP,032947.00,,,,,,13,,,,,*78
$PSSN,SNC,[0,271805000,2347]*4D
$GPZDA,032952.00,01,01,2025,,*6C
$GPDTM,W84,,00.0000000,N,00.0000000,E,00.0000000,W84*5F
$PSSN,TFM,032952.00,,,,*60
$GPRMC,032952.00,A,4742.1602607,N,01618.1002201,E,0.0,,010125,5.1,E,D*1D
$GPGLL,4742.1602607,N,01618.1002201,E,032952.00,A,D*6C
$GPGGA,032952.00,4742.1602607,N,01618.1002201,E,2,39,0.4,708.2423,M,43.2066,M,2.1,0136*45
$GNGNS,032952.00,4742.1602607,N,01618.1002201,E,DAAA,39,0.4,708.2423,43.2066,,*5E
$GPGNS,032952.00,,,,,,10,,,,2.1,136*74
$GLGNS,032952.00,,,,,,07,,,,,*77
$GAGNS,032952.00,,,,,,09,,,,,*74
$GBGNS,032952.00,,,,,,13,,,,,*7C
$GPLLQ,032952.00,010125,,M,,M,1,39,0.820,,M*1E
$GPVTG,,T,,M,0.00,N,0.00,K,D*26
$GPHDT,,T*1B
$GPTHS,,V*0E
$GPROT,,V*08
$PSSN,HRP,032952.00,010125,,,,,,,00,0,,*6E
$PTNL,AVR,032952.00,,Yaw,,Tilt,,,,0,,00*38
$GPGSA,A,3,03,04,06,07,09,11,16,19,26,31,,,0.8,0.4,0.6*3E
$GPGSA,A,3,70,71,79,80,85,86,87,,,,,,0.8,0.4,0.6*33
$GPGSA,A,3,03,04,05,06,09,15,31,34,36,,,,0.8,0.4,0.6*31
$GPGSA,A,3,02,05,06,09,16,19,20,22,35,37,39,44,0.8,0.4,0.6*35
$GPGSA,A,3,60,,,,,,,,,,,,0.8,0.4,0.6*3E
$GPGST,032952.00,1.275,0.402,0.325,1.423,0.402,0.325,0.636*5E
$GPGBS,032952.00,3.211,2.106,3.604,87,0.0001,-4.094,6.158*75
$GPGRS,032952.00,1,0.1,-0.1,-0.4,0.1,0.0,0.3,-0.2,0.4,-0.5,0.5,,*41
$GPGRS,032952.00,1,-0.6,1.8,1.4,-0.1,3.0,-2.7,-4.1,,,,,*67
$GPGRS,032952.00,1,-0.7,-0.5,0.4,-0.4,-0.0,0.7,-0.1,-0.2,0.2,,,*6B
$GPGRS,032952.00,1,1.1,0.6,0.4,0.6,1.0,-0.4,0.7,-0.1,-0.8,-0.2,-0.7,-0.6*4D
$GPGRS,032952.00,1,-2.4,,,,,,,,,,,*44
$GPGSV,6,1,22,09,76,263,50,07,26,182,45,11,23,316,42,31,14,040,41*78
$GPGSV,6,2,22,26,12,060,39,19,13,249,42,03,39,107,46,06,53,285,48*7B
$GPGSV,6,3,22,04,71,054,48,01,02,158,,20,02,301,36,17,03,226,39*72
$GPGSV,6,4,22,16,06,090,37,36,35,170,45,58,13,245,38,40,24,132,36*73
$GPGSV,6,5,22,34,31,208,44,49,34,195,45,57,08,111,39,41,07,108,35*7F
$GPGSV,6,6,22,61,03,257,38*46
$GLGSV,3,1,10,70,58,041,41,73,11,143,,72,10,267,,85,23,200,47*64
$GLGSV,3,2,10,87,29,326,46,79,20,032,47,80,32,090,49,71,54,295,52*69
$GLGSV,3,3,10,86,52,266,52,69,01,074,41*60
$GAGSV,3,1,12,09,67,056,48,15,11,324,37,04,16,060,38,36,52,190,47*6C
$GAGSV,3,2,12,34,54,291,47,06,42,060,45,05,55,244,47,18,08,243,*62
$GAGSV,3,3,12,23,09,051,,31,05,099,37,03,05,242,36,11,09,161,32*6D
$GBGSV,6,1,21,19,79,004,52,22,34,278,47,39,16,039,42,12,19,319,*62
$GBGSV,6,2,21,05,23,128,39,16,26,043,42,37,26,058,44,58,24,111,*6C
$GBGSV,6,3,21,06,28,046,40,46,31,121,,44,28,295,45,35,31,240,46*60
$GBGSV,6,4,21,21,34,268,,09,40,056,43,20,36,080,48,48,58,073,*6D
$GBGSV,6,5,21,29,02,190,24,36,06,166,,34,01,339,,02,07,106,35*65
$GBGSV,6,6,21,60,08,111,39*5D
$GPGGA,032952.00,,,,,0,00,,,M,,M,,*47
$PTNL,GGK,032952.00,010125,4742.1602607,N,01618.1002201,E,1,39,0.8,EHT751.4489,M*4A
$GPGGQ,032952.00,010125,4742.1602607,N,01618.1002201,E,1,39,0.820,708.2423,M*3C
$GPGFA,032952.00,3.823,5.219,0.402,0.325,1.423,0.636,,VVV*0C
$GPLLK,032952.00,010125,,M,,M,1,39,0.8,,M*06
$GNGMP,032952.00,,,,,DAAA,39,0.4,,,,*57
$GPGMP,032952.00,,,,,,10,,,,2.1,136*74
$GLGMP,032952.00,,,,,,07,,,,,*77
$GAGMP,032952.00,,,,,,09,,,,,*74
$GBGMP,032952.00,,,,,,13,,,,,*7C
$PSSN,SNC,[0,271810000,2347]*49
$GPZDA,032957.00,01,01,2025,,*69
$GPDTM,W84,,00.0000000,N,00.0000000,E,00.0000000,W84*5F
$PSSN,TFM,032957.00,,,,*65
$GPRMC,032957.00,A,4742.1602603,N,01618.1002179,E,0.0,,010125,5.1,E,D*10
$GPGLL,4742.1602603,N,01618.1002179,E,032957.00,A,D*61
$GPGGA,032957.00,4742.1602603,N,01618.1002179,E,2,39,0.4,708.2447,M,43.2066,M,3.1,0136*4B
$GNGNS,032957.00,4742.1602603,N,01618.1002179,E,DAAA,39,0.4,708.2447,43.2066,,*51
$GPGNS,032957.00,,,,,,10,,,,3.1,136*70
$GLGNS,032957.00,,,,,,07,,,,,*72
$GAGNS,032957.00,,,,,,09,,,,,*71
$GBGNS,032957.00,,,,,,13,,,,,*79
$GPLLQ,032957.00,010125,,M,,M,1,39,0.832,,M*18
$GPVTG,,T,,M,0.00,N,0.01,K,D*27
$GPHDT,,T*1B
$GPTHS,,V*0E
$GPROT,,V*08
$PSSN,HRP,032957.00,010125,,,,,,,00,0,,*6B
$PTNL,AVR,032957.00,,Yaw,,Tilt,,,,0,,00*3D
$GPGSA,A,3,03,04,06,07,09,11,16,19,26,31,,,0.8,0.4,0.6*3E
$GPGSA,A,3,70,71,79,80,85,86,87,,,,,,0.8,0.4,0.6*33
$GPGSA,A,3,03,04,05,06,09,15,31,34,36,,,,0.8,0.4,0.6*31
$GPGSA,A,3,02,05,06,09,16,19,20,22,35,37,39,44,0.8,0.4,0.6*35
$GPGSA,A,3,60,,,,,,,,,,,,0.8,0.4,0.6*3E
$GPGST,032957.00,1.313,0.407,0.330,0.408,0.407,0.330,0.646*55
$GPGBS,032957.00,3.254,2.131,3.663,11,0.0001,0.658,0.952*50
$GPGRS,032957.00,1,0.0,-0.1,-0.1,-0.1,0.0,0.7,0.2,-0.4,-0.3,0.4,,*6E
$GPGRS,032957.00,1,-0.3,2.0,2.5,-0.0,3.0,-3.3,-3.6,,,,,*6A
$GPGRS,032957.00,1,-0.3,-0.5,0.7,-0.5,0.0,0.6,-0.5,-0.1,0.4,,,*45
$GPGRS,032957.00,1,1.4,0.7,0.4,0.6,1.0,-0.5,0.5,-0.2,-0.6,-0.4,-0.7,-0.1*43
$GPGRS,032957.00,1,-2.0,,,,,,,,,,,*45
$GPGSV,6,1,22,09,76,263,50,07,26,182,45,11,23,316,41,31,14,040,41*7B
$GPGSV,6,2,22,26,12,060,39,19,13,249,41,03,39,107,46,06,53,285,48*78
$GPGSV,6,3,22,04,71,054,47,01,02,158,,20,02,301,36,17,03,226,37*73
$GPGSV,6,4,22,16,06,090,38,36,35,170,45,58,13,245,38,40,24,132,37*7D
$GPGSV,6,5,22,34,31,208,44,49,34,195,45,57,08,111,39,41,07,108,35*7F
$GPGSV,6,6,22,61,03,257,38*46
$GLGSV,3,1,10,70,58,041,42,73,11,143,,72,10,267,,85,23,200,46*66
$GLGSV,3,2,10,87,29,326,46,79,20,032,47,80,32,090,49,71,54,295,52*69
$GLGSV,3,3,10,86,52,266,52,69,01,074,41*60
$GAGSV,3,1,12,09,67,056,48,15,11,324,38,04,16,060,39,36,52,190,48*6D
$GAGSV,3,2,12,34,54,291,47,06,42,060,45,05,55,244,47,18,07,243,*6D
$GAGSV,3,3,12,23,09,051,,31,05,099,37,03,05,242,36,11,09,161,32*6D
$GBGSV,6,1,21,19,79,004,51,22,34,278,47,39,16,039,42,12,19,319,*61
$GBGSV,6,2,21,05,23,128,39,16,26,043,42,37,26,058,44,58,24,111,*6C
$GBGSV,6,3,21,06,28,046,40,46,31,121,,44,28,295,45,35,31,240,47*61
$GBGSV,6,4,21,21,34,268,,09,40,056,43,20,36,080,48,48,58,073,*6D
$GBGSV,6,5,21,29,02,190,18,36,06,166,,34,01,339,,02,07,106,35*6A
$GBGSV,6,6,21,60,08,111,39*5D
$GPGGA,032957.00,,,,,0,00,,,M,,M,,*42
$PTNL,GGK,032957.00,010125,4742.1602603,N,01618.1002179,E,1,39,0.8,EHT751.4512,M*44
$GPGGQ,032957.00,010125,4742.1602603,N,01618.1002179,E,1,39,0.832,708.2447,M*30
$GPGFA,032957.00,3.867,5.299,0.407,0.330,0.408,0.646,,VVV*0F
$GPLLK,032957.00,010125,,M,,M,1,39,0.8,,M*03
$GNGMP,032957.00,,,,,DAAA,39,0.4,,,,*52
$GPGMP,032957.00,,,,,,10,,,,3.1,136*70
$GLGMP,032957.00,,,,,,07,,,,,*72
$GAGMP,032957.00,,,,,,09,,,,,*71
$GBGMP,032957.00,,,,,,13,,,,,*79
$PSSN,SNC,[0,271815000,2347]*4C
$GPZDA,033002.00,01,01,2025,,*61
$GPDTM,W84,,00.0000000,N,00.0000000,E,00.0000000,W84*5F
$PSSN,TFM,033002.00,,,,*6D
$GPRMC,033002.00,A,4742.1602573,N,01618.1002172,E,0.0,,010125,5.1,E,D*17
$GPGLL,4742.1602573,N,01618.1002172,E,033002.00,A,D*66
$GPGGA,033002.00,4742.1602573,N,01618.1002172,E,2,39,0.4,708.2411,M,43.2066,M,3.2,0136*4C
$GNGNS,033002.00,4742.1602573,N,01618.1002172,E,DAAA,39,0.4,708.2411,43.2066,,*55
$GPGNS,033002.00,,,,,,10,,,,3.2,136*7B
$GLGNS,033002.00,,,,,,07,,,,,*7A
$GAGNS,033002.00,,,,,,09,,,,,*79
$GBGNS,033002.00,,,,,,13,,,,,*71
$GPLLQ,033002.00,010125,,M,,M,1,39,0.842,,M*17
$GPVTG,,T,,M,0.01,N,0.02,K,D*25
$GPHDT,,T*1B
$GPTHS,,V*0E
$GPROT,,V*08
$PSSN,HRP,033002.00,010125,,,,,,,00,0,,*63
$PTNL,AVR,033002.00,,Yaw,,Tilt,,,,0,,00*35
$GPGSA,A,3,03,04,06,07,09,11,16,19,26,31,,,0.8,0.4,0.6*3E
$GPGSA,A,3,70,71,79,80,85,86,87,,,,,,0.8,0.4,0.6*33
$GPGSA,A,3,03,04,05,06,09,15,31,34,36,,,,0.8,0.4,0.6*31
$GPGSA,A,3,02,05,06,09,16,19,20,22,35,37,39,44,0.8,0.4,0.6*35
$GPGSA,A,3,60,,,,,,,,,,,,0.8,0.4,0.6*3E
$GPGST,033002.00,1.356,0.412,0.334,359.337,0.412,0.334,0.655*5A
$GPGBS,033002.00,3.276,2.137,3.709,85,0.0001,3.960,6.146*52
$GPGRS,033002.00,1,0.2,0.2,-0.2,-0.2,0.1,0.5,0.1,-0.4,0.3,-0.1,,*4F
$GPGRS,033002.00,1,-0.6,2.2,1.4,0.2,4.0,-3.2,-3.6,,,,,*4E
$GPGRS,033002.00,1,-0.6,-0.5,0.5,-0.2,-0.0,0.9,-0.6,-0.2,0.5,,,*6E
$GPGRS,033002.00,1,0.9,0.9,0.1,0.6,1.0,-0.4,1.0,-0.5,-0.4,-0.2,-0.6,0.4*63
$GPGRS,033002.00,1,-2.2,,,,,,,,,,,*4F
$GPGSV,6,1,22,09,76,263,50,07,26,182,45,11,23,316,41,31,14,040,41*7B
$GPGSV,6,2,22,26,12,060,39,19,13,249,40,03,39,107,46,06,53,285,48*79
$GPGSV,6,3,22,04,71,054,48,01,02,158,,20,02,301,35,17,02,226,38*71
$GPGSV,6,4,22,16,06,089,38,36,35,170,45,58,13,245,38,40,24,132,37*75
$GPGSV,6,5,22,34,31,208,44,49,34,195,45,57,08,111,39,41,07,108,36*7C
$GPGSV,6,6,22,61,03,257,38*46
$GLGSV,3,1,10,70,58,041,41,73,11,143,,72,11,268,,85,23,200,47*6A
$GLGSV,3,2,10,87,29,326,46,79,20,032,46,80,32,090,49,71,54,295,52*68
$GLGSV,3,3,10,86,52,265,52,69,01,074,40*62
$GAGSV,3,1,12,09,67,056,48,15,11,324,38,04,16,060,39,36,52,190,48*6D
$GAGSV,3,2,12,34,54,291,47,06,42,060,45,05,55,244,47,18,07,243,*6D
$GAGSV,3,3,12,23,09,051,,31,06,099,37,03,05,242,37,11,09,161,32*6F
$GBGSV,6,1,21,19,79,005,51,22,34,278,47,39,16,039,42,12,19,319,*60
$GBGSV,6,2,21,05,23,128,38,16,26,043,42,37,26,058,44,58,24,110,*6C
$GBGSV,6,3,21,06,28,046,40,44,28,295,46,46,31,121,,35,31,240,47*62
$GBGSV,6,4,21,21,34,268,,09,40,056,43,20,36,080,48,48,58,073,*6D
$GBGSV,6,5,21,36,06,166,,29,02,190,20,34,01,339,,02,07,106,35*61
$GBGSV,6,6,21,60,08,111,39*5D
$GPGGA,033002.00,,,,,0,00,,,M,,M,,*4A
$PTNL,GGK,033002.00,010125,4742.1602573,N,01618.1002172,E,1,39,0.8,EHT751.4476,M*40
$GPGGQ,033002.00,010125,4742.1602573,N,01618.1002172,E,1,39,0.842,708.2411,M*33
$GPGFA,033002.00,3.916,5.368,0.412,0.334,359.337,0.655,,VVV*09
$GPLLK,033002.00,010125,,M,,M,1,39,0.8,,M*0B
$GNGMP,033002.00,,,,,DAAA,39,0.4,,,,*5A
$GPGMP,033002.00,,,,,,10,,,,3.2,136*7B
$GLGMP,033002.00,,,,,,07,,,,,*7A
$GAGMP,033002.00,,,,,,09,,,,,*79
$GBGMP,033002.00,,,,,,13,,,,,*71
$PSSN,SNC,[0,271820000,2347]*4A
$GPZDA,033007.00,01,01,2025,,*64
$GPDTM,W84,,00.0000000,N,00.0000000,E,00.0000000,W84*5F
$PSSN,TFM,033007.00,,,,*68
$GPRMC,033007.00,A,4742.1602560,N,01618.1002163,E,0.0,,010125,5.1,E,D*10
$GPGLL,4742.1602560,N,01618.1002163,E,033007.00,A,D*61
$GPGGA,033007.00,4742.1602560,N,01618.1002163,E,2,39,0.4,708.2426,M,43.2066,M,1.6,0136*49
$GNGNS,033007.00,4742.1602560,N,01618.1002163,E,DAAA,39,0.4,708.2426,43.2066,,*56
$GPGNS,033007.00,,,,,,10,,,,1.6,136*78
$GLGNS,033007.00,,,,,,07,,,,,*7F
$GAGNS,033007.00,,,,,,09,,,,,*7C
$GBGNS,033007.00,,,,,,13,,,,,*74
$GPLLQ,033007.00,010125,,M,,M,1,39,0.835,,M*12
$GPVTG,,T,,M,0.01,N,0.01,K,D*26
$GPHDT,,T*1B
$GPTHS,,V*0E
$GPROT,,V*08
$PSSN,HRP,033007.00,010125,,,,,,,00,0,,*66
$PTNL,AVR,033007.00,,Yaw,,Tilt,,,,0,,00*30
$GPGSA,A,3,03,04,06,07,09,11,16,19,26,31,,,0.8,0.4,0.6*3E
$GPGSA,A,3,70,71,79,80,85,86,87,,,,,,0.8,0.4,0.6*33
$GPGSA,A,3,03,04,05,06,09,15,31,34,36,,,,0.8,0.4,0.6*31
$GPGSA,A,3,02,05,06,09,16,19,20,22,35,37,39,44,0.8,0.4,0.6*35
$GPGSA,A,3,60,,,,,,,,,,,,0.8,0.4,0.6*3E
$GPGST,033007.00,1.298,0.409,0.331,359.764,0.409,0.331,0.649*53
$GPGBS,033007.00,3.184,2.094,3.585,11,0.0001,0.711,0.929*56
$GPGRS,033007.00,1,0.3,0.0,-0.4,-0.3,0.2,0.7,-0.5,-0.1,-0.3,-0.5,,*4A
$GPGRS,033007.00,1,-0.5,1.8,1.0,-0.0,3.7,-3.0,-3.8,,,,,*66
$GPGRS,033007.00,1,-0.8,-0.7,0.3,-0.3,-0.0,0.6,-1.1,-0.5,0.3,,,*68
$GPGRS,033007.00,1,0.4,0.2,-0.1,0.7,0.7,-0.6,0.6,-0.2,-0.7,0.1,-0.5,0.2*60
$GPGRS,033007.00,1,-2.3,,,,,,,,,,,*4B
$GPGSV,6,1,22,09,76,263,50,07,27,182,44,11,23,316,41,31,14,040,41*7B
$GPGSV,6,2,22,26,12,060,39,19,13,249,41,03,39,107,46,06,53,285,48*78
$GPGSV,6,3,22,04,71,054,48,01,02,158,,20,02,301,34,17,02,226,38*70
$GPGSV,6,4,22,16,06,089,38,36,35,170,45,58,13,245,38,40,24,132,37*75
$GPGSV,6,5,22,34,31,208,44,49,34,195,45,57,08,111,39,41,07,108,35*7F
$GPGSV,6,6,22,61,03,257,38*46
$GLGSV,3,1,10,70,58,041,42,73,11,143,,72,11,268,,85,23,200,47*69
$GLGSV,3,2,10,87,29,325,46,79,20,032,46,80,32,090,48,71,54,295,52*6A
$GLGSV,3,3,10,86,52,265,51,69,01,074,40*61
$GAGSV,3,1,12,09,67,056,49,15,11,324,38,04,16,060,39,36,52,190,48*6C
$GAGSV,3,2,12,34,54,291,48,06,42,060,45,05,55,244,47,18,07,243,*62
$GAGSV,3,3,12,23,09,051,,31,06,099,37,03,05,242,36,11,09,161,32*6E
$GBGSV,6,1,21,19,79,005,51,22,34,278,47,39,16,039,42,12,19,319,*60
$GBGSV,6,2,21,05,23,128,38,16,26,043,42,58,24,110,,37,26,058,44*6C
$GBGSV,6,3,21,06,28,046,40,44,28,295,46,46,31,121,,35,31,240,47*62
$GBGSV,6,4,21,21,34,268,,09,40,055,43,20,36,080,48,48,58,073,*6E
$GBGSV,6,5,21,36,06,166,,29,02,190,20,34,01,339,,02,07,106,35*61
$GBGSV,6,6,21,60,08,111,39*5D
$GPGGA,033007.00,,,,,0,00,,,M,,M,,*4F
$PTNL,GGK,033007.00,010125,4742.1602560,N,01618.1002163,E,1,39,0.8,EHT751.4491,M*4E
$GPGGQ,033007.00,010125,4742.1602560,N,01618.1002163,E,1,39,0.835,708.2426,M*30
$GPGFA,033007.00,3.892,5.318,0.409,0.331,359.764,0.649,,VVV*06
$GPLLK,033007.00,010125,,M,,M,1,39,0.8,,M*0E
$GNGMP,033007.00,,,,,DAAA,39,0.4,,,,*5F
$GPGMP,033007.00,,,,,,10,,,,1.6,136*78
$GLGMP,033007.00,,,,,,07,,,,,*7F
$GAGMP,033007.00,,,,,,09,,,,,*7C
$GBGMP,033007.00,,,,,,13,,,,,*74
$PSSN,SNC,[0,271825000,2347]*4F
$GPZDA,033012.00,01,01,2025,,*60
$GPDTM,W84,,00.0000000,N,00.0000000,E,00.0000000,W84*5F
$PSSN,TFM,033012.00,,,,*6C
$GPRMC,033012.00,A,4742.1602556,N,01618.1002166,E,0.0,,010125,5.1,E,D*14
$GPGLL,4742.1602556,N,01618.1002166,E,033012.00,A,D*65
$GPGGA,033012.00,4742.1602556,N,01618.1002166,E,2,38,0.4,708.2427,M,43.2066,M,2.1,0136*49
$GNGNS,033012.00,4742.1602556,N,01618.1002166,E,DAAA,38,0.4,708.2427,43.2066,,*52
$GPGNS,033012.00,,,,,,10,,,,2.1,136*78
$GLGNS,033012.00,,,,,,07,,,,,*7B
$GAGNS,033012.00,,,,,,09,,,,,*78
$GBGNS,033012.00,,,,,,12,,,,,*71
$GPLLQ,033012.00,010125,,M,,M,1,38,0.821,,M*12
$GPVTG,,T,,M,0.00,N,0.01,K,D*27
$GPHDT,,T*1B
$GPTHS,,V*0E
$GPROT,,V*08
$PSSN,HRP,033012.00,010125,,,,,,,00,0,,*62
$PTNL,AVR,033012.00,,Yaw,,Tilt,,,,0,,00*34
$GPGSA,A,3,03,04,06,07,09,11,16,19,26,31,,,0.8,0.4,0.6*3E
$GPGSA,A,3,70,71,79,80,85,86,87,,,,,,0.8,0.4,0.6*33
$GPGSA,A,3,03,04,05,06,09,15,31,34,36,,,,0.8,0.4,0.6*31
$GPGSA,A,3,05,06,09,16,19,20,22,35,37,39,44,60,0.8,0.4,0.6*31
$GPGST,033012.00,1.290,0.402,0.325,1.369,0.402,0.325,0.637*51
$GPGBS,033012.00,3.215,2.109,3.618,87,0.0001,-4.157,6.157*7E
$GPGRS,033012.00,1,0.0,-0.0,-0.2,-0.1,0.0,0.5,-0.3,-0.1,-0.3,-0.0,,*67
$GPGRS,033012.00,1,-0.7,2.0,1.3,-0.8,3.4,-2.0,-4.2,,,,,*6F
$GPGRS,033012.00,1,-0.8,-0.7,0.4,-0.3,-0.0,0.5,-0.7,-0.4,0.3,,,*6E
$GPGRS,033012.00,1,0.4,0.3,0.7,0.7,-0.5,0.8,-0.6,-0.4,0.3,-0.7,0.1,-2.4*6B
$GPGSV,6,1,22,09,76,263,51,07,27,182,44,11,23,316,42,31,14,040,41*79
$GPGSV,6,2,22,26,12,060,39,19,13,249,41,03,39,107,46,06,53,285,48*78
$GPGSV,6,3,22,04,71,054,48,01,02,158,,20,02,301,35,17,02,226,38*71
$GPGSV,6,4,22,16,06,089,38,36,35,170,45,58,13,245,38,40,24,132,36*74
$GPGSV,6,5,22,34,31,208,44,49,34,195,45,57,08,111,39,41,07,108,35*7F
$GPGSV,6,6,22,61,03,257,38*46
$GLGSV,3,1,10,70,58,041,42,73,11,143,,72,11,268,,85,23,200,47*69
$GLGSV,3,2,10,87,29,325,46,79,20,032,46,80,32,090,49,71,54,295,52*6B
$GLGSV,3,3,10,86,52,265,52,69,01,074,41*63
$GAGSV,3,1,12,09,67,056,48,15,11,324,39,04,16,060,39,36,51,190,48*6F
$GAGSV,3,2,12,34,54,291,48,06,41,060,46,05,55,244,48,18,07,243,*6D
$GAGSV,3,3,12,23,09,051,,31,06,099,37,03,05,242,36,11,09,161,33*6F
$GBGSV,6,1,21,19,79,005,51,22,34,278,47,39,16,039,41,12,19,319,*63
$GBGSV,6,2,21,05,23,128,38,16,26,043,42,58,24,110,,37,26,058,45*6D
$GBGSV,6,3,21,06,28,046,40,44,28,295,46,46,31,120,,35,31,240,46*62
$GBGSV,6,4,21,21,34,268,,09,40,055,43,20,36,080,48,48,58,073,*6E
$GBGSV,6,5,21,36,07,166,,29,02,190,20,34,01,339,,02,07,106,35*60
$GBGSV,6,6,21,60,08,111,39*5D
$GPGGA,033012.00,,,,,0,00,,,M,,M,,*4B
$PTNL,GGK,033012.00,010125,4742.1602556,N,01618.1002166,E,1,38,0.8,EHT751.4493,M*49
$GPGGQ,033012.00,010125,4742.1602556,N,01618.1002166,E,1,38,0.821,708.2427,M*31
$GPGFA,033012.00,3.822,5.224,0.402,0.325,1.369,0.637,,VVV*07
$GPLLK,033012.00,010125,,M,,M,1,38,0.9,,M*0A
$GNGMP,033012.00,,,,,DAAA,38,0.4,,,,*5A
$GPGMP,033012.00,,,,,,10,,,,2.1,136*78
$GLGMP,033012.00,,,,,,07,,,,,*7B
$GAGMP,033012.00,,,,,,09,,,,,*78
$GBGMP,033012.00,,,,,,12,,,,,*71
$PSSN,SNC,[0,271830000,2347]*4B
$GPZDA,033017.00,01,01,2025,,*65
$GPDTM,W84,,00.0000000,N,00.0000000,E,00.0000000,W84*5F
$PSSN,TFM,033017.00,,,,*69
$GPRMC,033017.00,A,4742.1602553,N,01618.1002185,E,0.0,,010125,5.1,E,D*19
$GPGLL,4742.1602553,N,01618.1002185,E,033017.00,A,D*68
$GPGGA,033017.00,4742.1602553,N,01618.1002185,E,2,39,0.4,708.2432,M,43.2066,M,3.1,0136*40
$GNGNS,033017.00,4742.1602553,N,01618.1002185,E,DAAA,39,0.4,708.2432,43.2066,,*5A
$GPGNS,033017.00,,,,,,10,,,,3.1,136*7C
$GLGNS,033017.00,,,,,,07,,,,,*7E
$GAGNS,033017.00,,,,,,09,,,,,*7D
$GBGNS,033017.00,,,,,,13,,,,,*75
$GPLLQ,033017.00,010125,,M,,M,1,39,0.831,,M*17
$GPVTG,,T,,M,0.01,N,0.02,K,D*25
$GPHDT,,T*1B
$GPTHS,,V*0E
$GPROT,,V*08
$PSSN,HRP,033017.00,010125,,,,,,,00,0,,*67
$PTNL,AVR,033017.00,,Yaw,,Tilt,,,,0,,00*31
$GPGSA,A,3,03,04,06,07,09,11,16,19,26,31,,,0.8,0.4,0.6*3E
$GPGSA,A,3,70,71,79,80,85,86,87,,,,,,0.8,0.4,0.6*33
$GPGSA,A,3,03,04,05,06,09,15,31,34,36,,,,0.8,0.4,0.6*31
$GPGSA,A,3,02,05,06,09,16,19,20,22,35,37,39,44,0.8,0.4,0.6*35
$GPGSA,A,3,60,,,,,,,,,,,,0.8,0.4,0.6*3E
$GPGST,033017.00,1.279,0.406,0.330,0.552,0.406,0.330,0.646*5A
$GPGBS,033017.00,3.252,2.129,3.668,87,0.0001,-4.056,6.156*7C
$GPGRS,033017.00,1,-0.1,-0.1,-0.2,0.1,0.2,0.4,-0.5,-0.2,-0.8,0.2,,*40
$GPGRS,033017.00,1,-1.5,2.2,1.2,-0.3,3.2,-1.7,-4.1,,,,,*60
$GPGRS,033017.00,1,-1.2,-0.5,0.3,-0.3,0.1,0.4,-0.4,-0.2,0.4,,,*4A
$GPGRS,033017.00,1,1.0,0.3,0.6,0.9,0.8,-0.4,0.9,-0.2,-0.7,0.1,-0.6,-0.1*6E
$GPGRS,033017.00,1,-2.3,,,,,,,,,,,*4A
$GPGSV,6,1,22,09,76,263,51,07,27,182,43,11,23,315,42,31,14,039,41*73
$GPGSV,6,2,22,26,12,060,38,19,13,249,41,03,39,107,45,06,53,285,48*7A
$GPGSV,6,3,22,04,71,054,48,01,02,158,,20,02,301,35,17,02,226,38*71
$GPGSV,6,4,22,16,06,089,37,36,35,170,45,58,13,245,38,40,24,132,36*7B
$GPGSV,6,5,22,34,31,208,44,49,34,195,45,57,08,111,39,41,07,108,35*7F
$GPGSV,6,6,22,61,03,257,38*46
$GLGSV,3,1,10,70,58,041,42,73,11,143,,72,11,268,,85,23,200,47*69
$GLGSV,3,2,10,87,29,325,46,79,20,032,46,80,32,090,48,71,54,295,52*6A
$GLGSV,3,3,10,86,52,265,51,69,01,074,41*60
$GAGSV,3,1,12,09,67,056,48,15,11,324,38,04,16,060,39,36,51,190,47*61
$GAGSV,3,2,12,34,54,291,48,06,41,060,46,05,55,244,48,18,07,243,*6D
$GAGSV,3,3,12,23,09,051,,31,06,099,37,03,05,242,37,11,09,161,33*6E
$GBGSV,6,1,21,19,79,005,51,22,34,278,47,39,16,039,41,12,19,319,*63
$GBGSV,6,2,21,05,23,128,38,16,26,043,42,37,26,058,45,58,25,110,*6C
$GBGSV,6,3,21,06,28,046,40,44,28,295,45,46,31,120,,35,31,240,46*61
$GBGSV,6,4,21,21,34,268,,09,40,055,43,20,36,080,48,48,58,073,*6E
$GBGSV,6,5,21,36,07,166,,29,02,190,21,34,01,339,,02,07,106,35*61
$GBGSV,6,6,21,60,08,111,39*5D
$GPGGA,033017.00,,,,,0,00,,,M,,M,,*4E
$PTNL,GGK,033017.00,010125,4742.1602553,N,01618.1002185,E,1,39,0.8,EHT751.4497,M*41
$GPGGQ,033017.00,010125,4742.1602553,N,01618.1002185,E,1,39,0.831,708.2432,M*38
$GPGFA,033017.00,3.864,5.296,0.406,0.330,0.552,0.646,,VVV*00
$GPLLK,033017.00,010125,,M,,M,1,39,0.8,,M*0F
$GNGMP,033017.00,,,,,DAAA,39,0.4,,,,*5E
$GPGMP,033017.00,,,,,,10,,,,3.1,136*7C
$GLGMP,033017.00,,,,,,07,,,,,*7E
$GAGMP,033017.00,,,,,,09,,,,,*7D
$GBGMP,033017.00,,,,,,13,,,,,*75
$PSSN,SNC,[0,271835000,2347]*4E
$GPZDA,033022.00,01,01,2025,,*63
$GPDTM,W84,,00.0000000,N,00.0000000,E,00.0000000,W84*5F
$PSSN,TFM,033022.00,,,,*6F
$GPRMC,033022.00,A,4742.1602572,N,01618.1002184,E,0.0,,010125,5.1,E,D*1D
$GPGLL,4742.1602572,N,01618.1002184,E,033022.00,A,D*6C
$GPGGA,033022.00,4742.1602572,N,01618.1002184,E,2,38,0.4,708.2452,M,43.2066,M,3.2,0136*40
$GNGNS,033022.00,4742.1602572,N,01618.1002184,E,DAAA,38,0.4,708.2452,43.2066,,*59
$GPGNS,033022.00,,,,,,10,,,,3.2,136*79
$GLGNS,033022.00,,,,,,07,,,,,*78
$GAGNS,033022.00,,,,,,09,,,,,*7B
$GBGNS,033022.00,,,,,,12,,,,,*72
$GPLLQ,033022.00,010125,,M,,M,1,38,0.843,,M*15
$GPVTG,,T,,M,0.00,N,0.00,K,D*26
$GPHDT,,T*1B
$GPTHS,,V*0E
$GPROT,,V*08
$PSSN,HRP,033022.00,010125,,,,,,,00,0,,*61
$PTNL,AVR,033022.00,,Yaw,,Tilt,,,,0,,00*37
$GPGSA,A,3,03,04,06,07,09,11,16,19,26,31,,,0.8,0.4,0.6*3E
$GPGSA,A,3,70,71,79,80,85,86,87,,,,,,0.8,0.4,0.6*33
$GPGSA,A,3,03,04,05,06,09,15,31,34,36,,,,0.8,0.4,0.6*31
$GPGSA,A,3,05,06,09,16,19,20,22,35,37,39,44,60,0.8,0.4,0.6*31
$GPGST,033022.00,1.201,0.412,0.334,359.270,0.412,0.334,0.655*59
$GPGBS,033022.00,3.279,2.141,3.723,85,0.0001,3.344,6.147*5B
$GPGRS,033022.00,1,0.2,-0.1,-0.4,0.2,0.0,0.2,-0.5,0.4,-0.4,-0.6,,*67
$GPGRS,033022.00,1,-0.9,2.2,1.6,-0.4,3.3,-1.8,-3.0,,,,,*60
$GPGRS,033022.00,1,-0.7,-0.2,0.3,-0.3,0.3,0.9,0.1,-0.2,0.4,,,*68
$GPGRS,033022.00,1,0.5,1.3,0.5,0.4,-0.5,0.7,-0.0,-0.8,-0.3,-0.5,-0.2,-2.4*6D
$GPGSV,6,1,22,09,76,264,51,07,27,182,45,11,23,315,42,31,14,039,41*72
$GPGSV,6,2,22,26,12,060,38,19,13,249,40,03,39,107,46,06,53,285,48*78
$GPGSV,6,3,22,04,71,054,48,01,02,158,,20,02,301,35,17,02,226,38*71
$GPGSV,6,4,22,16,06,089,37,36,35,170,45,58,13,245,38,40,24,132,37*7A
$GPGSV,6,5,22,34,31,208,43,49,34,195,45,57,08,111,39,41,07,108,36*7B
$GPGSV,6,6,22,61,03,257,38*46
$GLGSV,3,1,10,70,58,041,42,73,11,143,,72,11,268,,85,23,200,47*69
$GLGSV,3,2,10,87,29,325,46,79,20,032,45,80,32,090,49,71,54,295,52*68
$GLGSV,3,3,10,86,52,265,52,69,01,074,40*62
$GAGSV,3,1,12,09,67,056,48,15,11,324,38,04,16,060,39,36,51,190,47*61
$GAGSV,3,2,12,34,54,291,47,06,41,060,45,05,56,244,47,18,07,243,*6D
$GAGSV,3,3,12,23,09,051,,31,06,099,37,03,05,242,37,11,09,161,33*6E
$GBGSV,6,1,21,19,79,005,51,22,34,278,47,39,16,039,41,12,19,319,*63
$GBGSV,6,2,21,05,23,128,38,16,26,043,41,37,26,058,44,58,25,110,*6E
$GBGSV,6,3,21,06,28,046,40,44,28,294,45,46,31,120,,35,31,240,46*60
$GBGSV,6,4,21,21,34,268,,09,40,055,43,20,36,080,48,48,58,073,*6E
$GBGSV,6,5,21,36,07,166,,29,02,190,20,34,01,339,,02,07,106,35*60
$GBGSV,6,6,21,60,08,111,39*5D
$GPGGA,033022.00,,,,,0,00,,,M,,M,,*48
$PTNL,GGK,033022.00,010125,4742.1602572,N,01618.1002184,E,1,38,0.8,EHT751.4518,M*42
$GPGGQ,033022.00,010125,4742.1602572,N,01618.1002184,E,1,38,0.843,708.2452,M*3E
$GPGFA,033022.00,3.915,5.372,0.412,0.334,359.270,0.655,,VVV*01
$GPLLK,033022.00,010125,,M,,M,1,38,0.9,,M*09
$GNGMP,033022.00,,,,,DAAA,38,0.4,,,,*59
$GPGMP,033022.00,,,,,,10,,,,3.2,136*79
$GLGMP,033022.00,,,,,,07,,,,,*78
$GAGMP,033022.00,,,,,,09,,,,,*7B
$GBGMP,033022.00,,,,,,12,,,,,*72
$PSSN,SNC,[0,271840000,2347]*4C
$GPZDA,033027.00,01,01,2025,,*66
$GPDTM,W84,,00.0000000,N,00.0000000,E,00.0000000,W84*5F
$PSSN,TFM,033027.00,,,,*6A
$GPRMC,033027.00,A,4742.1602596,N,01618.1002179,E,0.0,,010125,5.1,E,D*10
$GPGLL,4742.1602596,N,01618.1002179,E,033027.00,A,D*61
$GPGGA,033027.00,4742.1602596,N,01618.1002179,E,2,39,0.4,708.2420,M,43.2066,M,1.6,0136*4F
$GNGNS,033027.00,4742.1602596,N,01618.1002179,E,DAAA,39,0.4,708.2420,43.2066,,*50
$GPGNS,033027.00,,,,,,10,,,,1.6,136*7A
$GLGNS,033027.00,,,,,,07,,,,,*7D
$GAGNS,033027.00,,,,,,09,,,,,*7E
$GBGNS,033027.00,,,,,,13,,,,,*76
$GPLLQ,033027.00,010125,,M,,M,1,39,0.835,,M*10
$GPVTG,,T,,M,0.00,N,0.00,K,D*26
$GPHDT,,T*1B
$GPTHS,,V*0E
$GPROT,,V*08
$PSSN,HRP,033027.00,010125,,,,,,,00,0,,*64
$PTNL,AVR,033027.00,,Yaw,,Tilt,,,,0,,00*32
$GPGSA,A,3,03,04,06,07,09,11,16,19,26,31,,,0.8,0.4,0.6*3E
$GPGSA,A,3,70,71,79,80,85,86,87,,,,,,0.8,0.4,0.6*33
$GPGSA,A,3,03,04,05,06,09,15,31,34,36,,,,0.8,0.4,0.6*31
$GPGSA,A,3,02,05,06,09,16,19,20,22,35,37,39,44,0.8,0.4,0.6*35
$GPGSA,A,3,60,,,,,,,,,,,,0.8,0.4,0.6*3E
$GPGST,033027.00,1.226,0.409,0.331,359.883,0.409,0.331,0.648*53
$GPGBS,033027.00,3.181,2.092,3.592,87,0.0001,-3.839,6.156*73
$GPGRS,033027.00,1,0.4,-0.0,-0.1,0.2,-0.0,0.1,-0.0,-0.1,-0.2,-0.7,,*64
$GPGRS,033027.00,1,-0.5,2.2,2.0,-0.4,3.2,-1.7,-3.8,,,,,*6A
$GPGRS,033027.00,1,-0.3,-0.3,0.4,-0.2,0.2,0.8,-0.1,-0.1,0.3,,,*47
$GPGRS,033027.00,1,1.0,0.6,0.6,0.1,0.2,-0.4,0.9,0.0,-0.6,-0.3,-0.3,0.0*42
$GPGRS,033027.00,1,-2.3,,,,,,,,,,,*49
$GPGSV,6,1,22,09,76,264,51,07,27,182,45,11,23,315,42,31,14,039,41*72
$GPGSV,6,2,22,26,12,060,38,19,13,249,40,03,39,107,46,06,53,285,48*78
$GPGSV,6,3,22,04,71,054,48,01,02,158,,20,02,301,36,17,02,226,38*72
$GPGSV,6,4,22,16,06,089,37,36,35,170,45,58,13,245,38,40,24,132,36*7B
$GPGSV,6,5,22,34,31,208,43,49,34,195,45,57,08,111,39,41,07,108,35*78
$GPGSV,6,6,22,61,03,257,38*46
$GLGSV,3,1,10,70,58,041,42,73,11,143,,72,11,268,,85,23,200,47*69
$GLGSV,3,2,10,87,29,325,46,79,20,032,46,80,32,090,49,71,54,295,52*6B
$GLGSV,3,3,10,86,52,265,52,69,01,074,39*6C
$GAGSV,3,1,12,09,67,056,48,15,11,324,37,04,16,060,39,36,51,190,47*6E
$GAGSV,3,2,12,34,54,291,48,06,41,060,45,05,56,244,47,18,07,243,*62
$GAGSV,3,3,12,23,09,051,,31,06,099,37,03,05,242,37,11,09,161,32*6F
$GBGSV,6,1,21,19,79,006,51,22,34,278,47,39,16,039,41,12,19,319,*60
$GBGSV,6,2,21,05,23,128,39,16,26,043,41,37,26,058,44,58,25,110,*6F
$GBGSV,6,3,21,06,28,046,40,44,28,294,45,46,31,120,,35,31,240,46*60
$GBGSV,6,4,21,21,34,268,,09,40,055,43,20,36,080,48,48,57,073,*61
$GBGSV,6,5,21,36,07,166,,29,02,190,20,34,01,339,,02,07,106,35*60
$GBGSV,6,6,21,60,08,111,39*5D
$GPGGA,033027.00,,,,,0,00,,,M,,M,,*4D
$PTNL,GGK,033027.00,010125,4742.1602596,N,01618.1002179,E,1,39,0.8,EHT751.4486,M*48
$GPGGQ,033027.00,010125,4742.1602596,N,01618.1002179,E,1,39,0.835,708.2420,M*36
$GPGFA,033027.00,3.887,5.316,0.409,0.331,359.883,0.648,,VVV*09
$GPLLK,033027.00,010125,,M,,M,1,39,0.8,,M*0C
$GNGMP,033027.00,,,,,DAAA,39,0.4,,,,*5D
$GPGMP,033027.00,,,,,,10,,,,1.6,136*7A
$GLGMP,033027.00,,,,,,07,,,,,*7D
$GAGMP,033027.00,,,,,,09,,,,,*7E
$GBGMP,033027.00,,,,,,13,,,,,*76
$PSSN,SNC,[0,271845000,2347]*49
$GPZDA,033032.00,01,01,2025,,*62
$GPDTM,W84,,00.0000000,N,00.0000000,E,00.0000000,W84*5F
$PSSN,TFM,033032.00,,,,*6E
$GPRMC,033032.00,A,4742.1602612,N,01618.1002196,E,0.0,,010125,5.1,E,D*1A
$GPGLL,4742.1602612,N,01618.1002196,E,033032.00,A,D*6B
$GPGGA,033032.00,4742.1602612,N,01618.1002196,E,2,38,0.4,708.2438,M,43.2066,M,2.1,0136*49
$GNGNS,033032.00,4742.1602612,N,01618.1002196,E,DAAA,38,0.4,708.2438,43.2066,,*52
$GPGNS,033032.00,,,,,,10,,,,2.1,136*7A
$GLGNS,033032.00,,,,,,07,,,,,*79
$GAGNS,033032.00,,,,,,09,,,,,*7A
$GBGNS,033032.00,,,,,,12,,,,,*73
$GPLLQ,033032.00,010125,,M,,M,1,38,0.821,,M*10
$GPVTG,,T,,M,0.00,N,0.01,K,D*27
$GPHDT,,T*1B
$GPTHS,,V*0E
$GPROT,,V*08
$PSSN,HRP,033032.00,010125,,,,,,,00,0,,*60
$PTNL,AVR,033032.00,,Yaw,,Tilt,,,,0,,00*36
$GPGSA,A,3,03,04,06,07,09,11,16,19,26,31,,,0.8,0.4,0.6*3E
$GPGSA,A,3,70,71,79,80,85,86,87,,,,,,0.8,0.4,0.6*33
$GPGSA,A,3,03,04,05,06,09,15,31,34,36,,,,0.8,0.4,0.6*31
$GPGSA,A,3,05,06,09,16,19,20,22,35,37,39,44,60,0.8,0.4,0.6*31
$GPGST,033032.00,1.494,0.402,0.325,1.311,0.402,0.325,0.637*5E
$GPGBS,033032.00,3.212,2.108,3.624,87,0.0001,-4.600,6.156*71
$GPGRS,033032.00,1,0.1,-0.1,-0.2,-0.0,0.1,0.5,-0.2,0.2,-0.9,-0.3,,*43
$GPGRS,033032.00,1,-1.2,2.3,2.8,-0.6,4.2,-1.7,-4.6,,,,,*6D
$GPGRS,033032.00,1,-0.8,-0.2,0.2,-0.1,0.2,0.9,-0.4,-0.1,0.6,,,*4D
$GPGRS,033032.00,1,0.5,0.8,-0.0,0.1,-0.3,0.9,0.0,-0.7,-0.1,-0.5,0.4,-2.4*48
$GPGSV,6,1,22,09,76,264,51,07,27,182,44,11,23,315,42,31,14,039,41*73
$GPGSV,6,2,22,26,12,060,39,19,13,249,41,03,39,108,46,06,53,285,48*77
$GPGSV,6,3,22,04,70,054,48,01,02,158,,20,02,301,35,17,02,226,38*70
$GPGSV,6,4,22,16,06,089,38,36,35,170,45,58,13,245,38,40,24,132,36*74
$GPGSV,6,5,22,34,31,208,43,49,34,195,45,57,08,111,39,41,07,108,35*78
$GPGSV,6,6,22,61,03,257,38*46
$GLGSV,3,1,10,70,57,041,42,73,11,143,,72,11,268,,85,23,200,47*66
$GLGSV,3,2,10,87,29,325,45,79,20,031,46,80,32,090,49,71,54,295,52*6B
$GLGSV,3,3,10,86,52,265,52,69,01,074,39*6C
$GAGSV,3,1,12,09,67,056,48,15,11,324,38,04,16,060,38,36,51,190,47*60
$GAGSV,3,2,12,34,54,291,47,06,41,060,45,05,56,244,47,18,07,243,*6D
$GAGSV,3,3,12,23,10,051,,31,06,099,37,03,05,242,37,11,09,161,32*67
$GBGSV,6,1,21,19,79,006,51,22,34,278,47,39,16,039,41,12,19,319,*60
$GBGSV,6,2,21,05,23,128,39,16,26,043,41,58,25,110,,37,26,058,44*6F
$GBGSV,6,3,21,06,28,046,40,44,28,294,45,46,31,120,,35,31,240,46*60
$GBGSV,6,4,21,21,34,268,,09,40,055,43,20,36,080,48,48,57,073,*61
$GBGSV,6,5,21,36,07,166,,29,02,190,22,34,01,339,,02,07,106,35*62
$GBGSV,6,6,21,60,08,111,39*5D
$GPGGA,033032.00,,,,,0,00,,,M,,M,,*49
$PTNL,GGK,033032.00,010125,4742.1602612,N,01618.1002196,E,1,38,0.8,EHT751.4504,M*48
$GPGGQ,033032.00,010125,4742.1602612,N,01618.1002196,E,1,38,0.821,708.2438,M*31
$GPGFA,033032.00,3.820,5.226,0.402,0.325,1.311,0.637,,VVV*0A
$GPLLK,033032.00,010125,,M,,M,1,38,0.9,,M*08
$GNGMP,033032.00,,,,,DAAA,38,0.4,,,,*58
$GPGMP,033032.00,,,,,,10,,,,2.1,136*7A
$GLGMP,033032.00,,,,,,07,,,,,*79
$GAGMP,033032.00,,,,,,09,,,,,*7A
$GBGMP,033032.00,,,,,,12,,,,,*73
$PSSN,SNC,[0,271850000,2347]*4D
$GPZDA,033037.00,01,01,2025,,*67
$GPDTM,W84,,00.0000000,N,00.0000000,E,00.0000000,W84*5F
$PSSN,TFM,033037.00,,,,*6B
$GPRMC,033037.00,A,4742.1602590,N,01618.1002221,E,0.0,,010125,5.1,E,D*19
$GPGLL,4742.1602590,N,01618.1002221,E,033037.00,A,D*68
$GPGGA,033037.00,4742.1602590,N,01618.1002221,E,2,39,0.4,708.2444,M,43.2066,M,3.1,0136*41
$GNGNS,033037.00,4742.1602590,N,01618.1002221,E,DAAA,39,0.4,708.2444,43.2066,,*5B
$GPGNS,033037.00,,,,,,10,,,,3.1,136*7E
$GLGNS,033037.00,,,,,,07,,,,,*7C
$GAGNS,033037.00,,,,,,09,,,,,*7F
$GBGNS,033037.00,,,,,,13,,,,,*77
$GPLLQ,033037.00,010125,,M,,M,1,39,0.831,,M*15
$GPVTG,,T,,M,0.00,N,0.00,K,D*26
$GPHDT,,T*1B
$GPTHS,,V*0E
$GPROT,,V*08
$PSSN,HRP,033037.00,010125,,,,,,,00,0,,*65
$PTNL,AVR,033037.00,,Yaw,,Tilt,,,,0,,00*33
$GPGSA,A,3,03,04,06,07,09,11,16,19,26,31,,,0.8,0.4,0.6*3E
$GPGSA,A,3,70,71,79,80,85,86,87,,,,,,0.8,0.4,0.6*33
$GPGSA,A,3,03,04,05,06,09,15,31,34,36,,,,0.8,0.4,0.6*31
$GPGSA,A,3,02,05,06,09,16,19,20,22,35,37,39,44,0.8,0.4,0.6*35
$GPGSA,A,3,60,,,,,,,,,,,,0.8,0.4,0.6*3E
$GPGST,033037.00,1.398,0.406,0.330,0.513,0.406,0.330,0.646*53
$GPGBS,033037.00,3.249,2.128,3.676,11,0.0001,0.736,0.946*52
$GPGRS,033037.00,1,0.1,-0.0,-0.2,-0.5,0.1,0.7,0.3,0.3,-0.7,0.1,,*4C
$GPGRS,033037.00,1,-0.2,2.1,2.2,-0.5,4.1,-1.5,-4.1,,,,,*64
$GPGRS,033037.00,1,-0.5,-0.2,0.3,0.0,0.3,1.2,-0.0,-0.1,0.5,,,*64
$GPGRS,033037.00,1,1.6,1.3,1.1,-0.1,-0.2,-0.5,0.9,0.0,-0.7,-0.3,-0.4,0.0*40
$GPGRS,033037.00,1,-2.4,,,,,,,,,,,*4F
$GPGSV,6,1,22,09,76,264,51,07,27,182,45,11,23,315,42,31,14,039,41*72
$GPGSV,6,2,22,26,12,060,38,19,13,249,41,03,39,108,46,06,53,285,48*76
$GPGSV,6,3,22,04,70,054,48,01,02,158,,20,02,301,36,17,02,226,38*73
$GPGSV,6,4,22,16,06,089,38,36,35,170,45,58,13,245,38,40,24,132,36*74
$GPGSV,6,5,22,34,31,208,43,49,34,195,45,57,08,111,38,41,07,108,35*79
$GPGSV,6,6,22,61,03,257,38*46
$GLGSV,3,1,10,70,57,041,42,73,11,143,,72,11,268,,85,23,200,47*66
$GLGSV,3,2,10,87,29,325,46,79,20,031,46,80,32,090,49,71,54,295,52*68
$GLGSV,3,3,10,86,51,265,52,69,01,074,38*6E
$GAGSV,3,1,12,09,66,056,48,15,11,324,39,04,16,060,39,36,51,190,47*61
$GAGSV,3,2,12,34,54,291,47,06,41,060,45,05,56,244,47,18,07,243,*6D
$GAGSV,3,3,12,23,10,051,,31,06,099,37,03,06,242,37,11,09,161,32*64
$GBGSV,6,1,21,19,79,006,51,22,34,278,47,39,16,039,41,12,19,319,*60
$GBGSV,6,2,21,05,23,128,39,16,26,043,41,58,25,110,,37,26,058,44*6F
$GBGSV,6,3,21,06,28,046,41,44,28,294,45,46,31,120,,35,31,240,46*61
$GBGSV,6,4,21,21,34,268,,09,40,055,43,20,36,080,48,48,57,073,*61
$GBGSV,6,5,21,36,07,166,,29,02,190,23,34,01,339,,02,07,106,35*63
$GBGSV,6,6,21,60,08,111,39*5D
$GPGGA,033037.00,,,,,0,00,,,M,,M,,*4C
$PTNL,GGK,033037.00,010125,4742.1602590,N,01618.1002221,E,1,39,0.8,EHT751.4509,M*47
$GPGGQ,033037.00,010125,4742.1602590,N,01618.1002221,E,1,39,0.831,708.2444,M*39
$GPGFA,033037.00,3.860,5.299,0.406,0.330,0.513,0.646,,VVV*0C
$GPLLK,033037.00,010125,,M,,M,1,39,0.8,,M*0D
$GNGMP,033037.00,,,,,DAAA,39,0.4,,,,*5C
$GPGMP,033037.00,,,,,,10,,,,3.1,136*7E
$GLGMP,033037.00,,,,,,07,,,,,*7C
$GAGMP,033037.00,,,,,,09,,,,,*7F
$GBGMP,033037.00,,,,,,13,,,,,*77
$PSSN,SNC,[0,271855000,2347]*48
$GPZDA,033042.00,01,01,2025,,*65
$GPDTM,W84,,00.0000000,N,00.0000000,E,00.0000000,W84*5F
$PSSN,TFM,033042.00,,,,*69
$GPRMC,033042.00,A,4742.1602595,N,01618.1002261,E,0.0,,010125,5.1,E,D*1A
$GPGLL,4742.1602595,N,01618.1002261,E,033042.00,A,D*6B
$GPGGA,033042.00,4742.1602595,N,01618.1002261,E,2,39,0.4,708.2484,M,43.2066,M,3.2,0136*4D
$GNGNS,033042.00,4742.1602595,N,01618.1002261,E,DAAA,39,0.4,708.2484,43.2066,,*54
$GPGNS,033042.00,,,,,,10,,,,3.2,136*7F
$GLGNS,033042.00,,,,,,07,,,,,*7E
$GAGNS,033042.00,,,,,,09,,,,,*7D
$GBGNS,033042.00,,,,,,13,,,,,*75
$GPLLQ,033042.00,010125,,M,,M,1,39,0.843,,M*12
$GPVTG,,T,,M,0.00,N,0.00,K,D*26
$GPHDT,,T*1B
$GPTHS,,V*0E
$GPROT,,V*08
$PSSN,HRP,033042.00,010125,,,,,,,00,0,,*67
$PTNL,AVR,033042.00,,Yaw,,Tilt,,,,0,,00*31
$GPGSA,A,3,03,04,06,07,09,11,16,19,26,31,,,0.8,0.4,0.6*3E
$GPGSA,A,3,70,71,79,80,85,86,87,,,,,,0.8,0.4,0.6*33
$GPGSA,A,3,03,04,05,06,09,15,31,34,36,,,,0.8,0.4,0.6*31
$GPGSA,A,3,02,05,06,09,16,19,20,22,35,37,39,44,0.8,0.4,0.6*35
$GPGSA,A,3,60,,,,,,,,,,,,0.8,0.4,0.6*3E
$GPGST,033042.00,1.313,0.412,0.334,359.279,0.412,0.334,0.655*54
$GPGBS,033042.00,3.272,2.136,3.723,26,0.0001,-1.277,1.539*7B
$GPGRS,033042.00,1,0.2,-0.1,-0.1,0.1,-0.2,0.8,0.1,-0.1,-1.3,-0.1,,*42
$GPGRS,033042.00,1,-0.5,2.2,2.0,-0.2,4.0,-1.8,-3.5,,,,,*68
$GPGRS,033042.00,1,-0.3,-0.3,-0.0,-0.3,-0.0,0.8,-0.4,-0.4,0.3,,,*43
$GPGRS,033042.00,1,1.0,1.0,0.9,0.1,0.0,-0.6,0.8,-0.4,-0.9,-0.7,-0.5,-0.1*40
$GPGRS,033042.00,1,-2.4,,,,,,,,,,,*4D
$GPGSV,6,1,22,09,76,264,51,07,27,182,45,11,23,315,41,31,14,039,41*71
$GPGSV,6,2,22,26,12,060,38,19,13,249,41,03,39,108,46,06,53,285,48*76
$GPGSV,6,3,22,04,70,054,48,01,02,158,,20,02,301,36,17,02,226,38*73
$GPGSV,6,4,22,16,06,089,37,36,35,170,45,58,13,245,38,40,24,132,36*7B
$GPGSV,6,5,22,34,31,208,43,49,34,195,45,57,08,111,39,41,07,108,34*79
$GPGSV,6,6,22,61,03,257,38*46
$GLGSV,3,1,10,70,57,041,42,73,11,143,,72,11,268,,85,23,200,47*66
$GLGSV,3,2,10,87,29,325,45,79,20,031,46,80,32,090,49,71,54,295,52*6B
$GLGSV,3,3,10,86,51,265,52,69,01,074,38*6E
$GAGSV,3,1,12,09,66,056,48,15,11,324,38,04,16,060,39,36,51,190,47*60
$GAGSV,3,2,12,34,54,291,48,06,41,060,45,05,56,244,47,18,07,243,*62
$GAGSV,3,3,12,23,10,051,,31,06,099,37,03,06,242,37,11,09,161,32*64
$GBGSV,6,1,21,19,79,006,51,58,25,110,,39,16,039,41,12,19,319,*63
$GBGSV,6,2,21,37,26,058,44,05,23,128,39,16,26,043,41,44,28,294,45*61
$GBGSV,6,3,21,06,28,046,41,46,31,120,,35,30,240,46,22,34,278,47*6D
$GBGSV,6,4,21,21,34,268,,09,40,055,42,20,36,080,48,48,57,073,*60
$GBGSV,6,5,21,36,07,166,,34,01,339,,29,02,190,22,02,07,106,35*62
$GBGSV,6,6,21,60,08,111,39*5D
$GPGGA,033042.00,,,,,0,00,,,M,,M,,*4E
$PTNL,GGK,033042.00,010125,4742.1602595,N,01618.1002261,E,1,39,0.8,EHT751.4550,M*48
$GPGGQ,033042.00,010125,4742.1602595,N,01618.1002261,E,1,39,0.843,708.2484,M*33
$GPGFA,033042.00,3.913,5.372,0.412,0.334,359.279,0.655,,VVV*08
$GPLLK,033042.00,010125,,M,,M,1,39,0.8,,M*0F
$GNGMP,033042.00,,,,,DAAA,39,0.4,,,,*5E
$GPGMP,033042.00,,,,,,10,,,,3.2,136*7F
$GLGMP,033042.00,,,,,,07,,,,,*7E
$GAGMP,033042.00,,,,,,09,,,,,*7D
$GBGMP,033042.00,,,,,,13,,,,,*75
$PSSN,SNC,[0,271860000,2347]*4E
$GPZDA,033047.00,01,01,2025,,*60
$GPDTM,W84,,00.0000000,N,00.0000000,E,00.0000000,W84*5F
$PSSN,TFM,033047.00,,,,*6C
$GPRMC,033047.00,A,4742.1602618,N,01618.1002276,E,0.0,,010125,5.1,E,D*1F
$GPGLL,4742.1602618,N,01618.1002276,E,033047.00,A,D*6E
$GPGGA,033047.00,4742.1602618,N,01618.1002276,E,2,39,0.4,708.2531,M,43.2066,M,1.6,0136*41
$GNGNS,033047.00,4742.1602618,N,01618.1002276,E,DAAA,39,0.4,708.2531,43.2066,,*5E
$GPGNS,033047.00,,,,,,10,,,,1.6,136*7C
$GLGNS,033047.00,,,,,,07,,,,,*7B
$GAGNS,033047.00,,,,,,09,,,,,*78
$GBGNS,033047.00,,,,,,13,,,,,*70
$GPLLQ,033047.00,010125,,M,,M,1,39,0.835,,M*16
$GPVTG,,T,,M,0.00,N,0.00,K,D*26
$GPHDT,,T*1B
$GPTHS,,V*0E
$GPROT,,V*08
$PSSN,HRP,033047.00,010125,,,,,,,00,0,,*62
$PTNL,AVR,033047.00,,Yaw,,Tilt,,,,0,,00*34
$GPGSA,A,3,03,04,06,07,09,11,16,19,26,31,,,0.8,0.4,0.6*3E
$GPGSA,A,3,70,71,79,80,85,86,87,,,,,,0.8,0.4,0.6*33
$GPGSA,A,3,03,04,05,06,09,15,31,34,36,,,,0.8,0.4,0.6*31
$GPGSA,A,3,02,05,06,09,16,19,20,22,35,37,39,44,0.8,0.4,0.6*35
$GPGSA,A,3,60,,,,,,,,,,,,0.8,0.4,0.6*3E
$GPGST,033047.00,1.354,0.409,0.331,359.725,0.409,0.331,0.649*53
$GPGBS,033047.00,3.180,2.091,3.598,11,0.0001,0.807,0.924*5A
$GPGRS,033047.00,1,0.2,-0.2,-0.1,0.1,-0.0,0.8,0.0,-0.1,-1.2,-0.2,,*45
$GPGRS,033047.00,1,-0.5,2.6,2.1,-0.3,3.4,-2.0,-4.2,,,,,*61
$GPGRS,033047.00,1,-0.5,-0.4,0.2,-0.2,0.1,0.9,-0.3,-0.4,0.5,,,*45
$GPGRS,033047.00,1,1.4,1.1,1.0,0.2,0.0,-0.4,0.9,-0.4,-0.4,-0.3,-0.4,-0.2*43
$GPGRS,033047.00,1,-1.9,,,,,,,,,,,*46
$GPGSV,6,1,22,09,76,264,51,07,27,182,45,11,23,315,42,31,14,039,42*71
$GPGSV,6,2,22,26,12,060,38,19,13,249,41,03,39,108,46,06,53,285,48*76
$GPGSV,6,3,22,04,70,054,48,01,02,158,,20,02,301,36,17,02,226,37*7C
$GPGSV,6,4,22,16,06,089,37,36,35,170,45,58,13,245,38,40,24,132,36*7B
$GPGSV,6,5,22,34,31,208,43,49,34,195,45,57,08,111,39,41,07,108,35*78
$GPGSV,6,6,22,61,03,257,38*46
$GLGSV,3,1,10,70,57,041,42,73,11,143,,72,11,268,,85,23,200,47*66
$GLGSV,3,2,10,87,29,325,46,79,20,031,46,80,32,090,49,71,54,295,52*68
$GLGSV,3,3,10,86,51,265,52,69,01,074,38*6E
$GAGSV,3,1,12,09,66,056,48,15,11,324,38,04,16,060,39,36,51,190,47*60
$GAGSV,3,2,12,34,54,291,47,06,41,060,45,05,56,244,47,18,07,243,*6D
$GAGSV,3,3,12,23,10,051,,31,06,099,37,03,06,242,37,11,09,161,32*64
$GBGSV,6,1,21,19,79,006,51,58,25,110,,39,16,039,41,12,19,319,*63
$GBGSV,6,2,21,37,26,058,45,05,23,128,38,16,26,043,41,44,28,294,45*61
$GBGSV,6,3,21,06,28,046,40,46,31,120,,35,30,240,46,22,34,278,47*6C
$GBGSV,6,4,21,21,34,268,,09,40,055,42,20,36,080,48,48,57,073,*60
$GBGSV,6,5,21,36,07,166,,34,01,339,,29,02,190,24,02,07,106,35*64
$GBGSV,6,6,21,60,08,111,39*5D
$GPGGA,033047.00,,,,,0,00,,,M,,M,,*4B
$PTNL,GGK,033047.00,010125,4742.1602618,N,01618.1002276,E,1,39,0.8,EHT751.4597,M*46
$GPGGQ,033047.00,010125,4742.1602618,N,01618.1002276,E,1,39,0.835,708.2531,M*38
$GPGFA,033047.00,3.886,5.320,0.409,0.331,359.725,0.649,,VVV*09
$GPLLK,033047.00,010125,,M,,M,1,39,0.8,,M*0A
$GNGMP,033047.00,,,,,DAAA,39,0.4,,,,*5B
$GPGMP,033047.00,,,,,,10,,,,1.6,136*7C
$GLGMP,033047.00,,,,,,07,,,,,*7B
$GAGMP,033047.00,,,,,,09,,,,,*78
$GBGMP,033047.00,,,,,,13,,,,,*70
$PSSN,SNC,[0,271865000,2347]*4B
$GPZDA,033052.00,01,01,2025,,*64
$GPDTM,W84,,00.0000000,N,00.0000000,E,00.0000000,W84*5F
$PSSN,TFM,033052.00,,,,*68
$GPRMC,033052.00,A,4742.1602595,N,01618.1002297,E,0.0,,010125,5.1,E,D*12
$GPGLL,4742.1602595,N,01618.1002297,E,033052.00,A,D*63
$GPGGA,033052.00,4742.1602595,N,01618.1002297,E,2,39,0.4,708.2538,M,43.2066,M,2.1,0136*41
$GNGNS,033052.00,4742.1602595,N,01618.1002297,E,DAAA,39,0.4,708.2538,43.2066,,*5A
$GPGNS,033052.00,,,,,,10,,,,2.1,136*7C
$GLGNS,033052.00,,,,,,07,,,,,*7F
$GAGNS,033052.00,,,,,,09,,,,,*7C
$GBGNS,033052.00,,,,,,13,,,,,*74
$GPLLQ,033052.00,010125,,M,,M,1,39,0.820,,M*16
$GPVTG,,T,,M,0.01,N,0.01,K,D*26
$GPHDT,,T*1B
$GPTHS,,V*0E
$GPROT,,V*08
$PSSN,HRP,033052.00,010125,,,,,,,00,0,,*66
$PTNL,AVR,033052.00,,Yaw,,Tilt,,,,0,,00*30
$GPGSA,A,3,03,04,06,07,09,11,16,19,26,31,,,0.8,0.4,0.6*3E
$GPGSA,A,3,70,71,79,80,85,86,87,,,,,,0.8,0.4,0.6*33
$GPGSA,A,3,03,04,05,06,09,15,31,34,36,,,,0.8,0.4,0.6*31
$GPGSA,A,3,02,05,06,09,16,19,20,22,35,37,39,44,0.8,0.4,0.6*35
$GPGSA,A,3,60,,,,,,,,,,,,0.8,0.4,0.6*3E
$GPGST,033052.00,1.265,0.401,0.325,1.471,0.401,0.325,0.637*51
$GPGBS,033052.00,3.205,2.102,3.625,11,0.0001,0.681,0.932*59
$GPGRS,033052.00,1,0.1,-0.1,-0.2,-0.1,-0.1,0.7,-0.3,0.2,-0.2,-0.2,,*60
$GPGRS,033052.00,1,-0.2,2.5,2.1,-0.6,3.7,-1.9,-3.1,,,,,*69
$GPGRS,033052.00,1,-1.0,-0.4,0.3,-0.1,0.2,1.0,-0.3,-0.1,0.5,,,*49
$GPGRS,033052.00,1,1.0,1.2,1.0,0.2,-0.1,-0.4,0.8,-0.2,-0.4,-0.3,-0.3,-0.2*6C
$GPGRS,033052.00,1,-2.3,,,,,,,,,,,*4B
$GPGSV,6,1,22,09,76,264,51,07,27,182,45,11,23,315,42,31,14,039,41*72
$GPGSV,6,2,22,26,12,060,38,19,13,249,41,03,39,108,46,06,53,285,48*76
$GPGSV,6,3,22,04,70,054,48,01,02,158,,20,02,301,35,17,02,226,38*70
$GPGSV,6,4,22,16,06,089,37,36,35,170,45,58,13,245,38,40,24,132,36*7B
$GPGSV,6,5,22,34,31,208,43,49,34,195,45,57,08,111,39,41,07,108,35*78
$GPGSV,6,6,22,61,03,257,38*46
$GLGSV,3,1,10,70,57,042,42,73,11,143,,72,11,268,,85,22,200,48*6B
$GLGSV,3,2,10,87,29,325,47,79,20,031,46,80,32,089,49,71,55,295,52*60
$GLGSV,3,3,10,86,51,265,52,69,01,074,38*6E
$GAGSV,3,1,12,09,66,056,48,15,11,324,38,04,16,060,39,36,51,190,47*60
$GAGSV,3,2,12,34,54,291,47,06,41,060,45,05,56,244,47,18,07,243,*6D
$GAGSV,3,3,12,23,10,051,,31,06,099,37,03,06,242,37,11,09,161,32*64
$GBGSV,6,1,21,19,79,007,51,22,34,278,47,39,16,039,41,12,19,319,*61
$GBGSV,6,2,21,05,23,128,39,16,26,043,42,58,25,110,,37,26,058,45*6D
$GBGSV,6,3,21,06,28,046,40,44,28,294,45,46,31,120,,35,30,240,47*60
$GBGSV,6,4,21,21,34,268,,09,40,055,43,20,36,080,48,48,57,073,*61
$GBGSV,6,5,21,36,07,166,,29,02,190,24,34,01,339,,02,07,106,35*64
$GBGSV,6,6,21,60,08,111,39*5D
$GPGGA,033052.00,,,,,0,00,,,M,,M,,*4F
$PTNL,GGK,033052.00,010125,4742.1602595,N,01618.1002297,E,1,39,0.8,EHT751.4603,M*45
$GPGGQ,033052.00,010125,4742.1602595,N,01618.1002297,E,1,39,0.820,708.2538,M*38
$GPGFA,033052.00,3.814,5.223,0.401,0.325,1.471,0.637,,VVV*0C
$GPLLK,033052.00,010125,,M,,M,1,39,0.8,,M*0E
$GNGMP,033052.00,,,,,DAAA,39,0.4,,,,*5F
$GPGMP,033052.00,,,,,,10,,,,2.1,136*7C
$GLGMP,033052.00,,,,,,07,,,,,*7F
$GAGMP,033052.00,,,,,,09,,,,,*7C
$GBGMP,033052.00,,,,,,13,,,,,*74
$PSSN,SNC,[0,271870000,2347]*4F
$GPZDA,033057.00,01,01,2025,,*61
$GPDTM,W84,,00.0000000,N,00.0000000,E,00.0000000,W84*5F
$PSSN,TFM,033057.00,,,,*6D
$GPRMC,033057.00,A,4742.1602604,N,01618.1002298,E,0.0,,010125,5.1,E,D*13
$GPGLL,4742.1602604,N,01618.1002298,E,033057.00,A,D*62
$GPGGA,033057.00,4742.1602604,N,01618.1002298,E,2,39,0.4,708.2569,M,43.2066,M,3.1,0136*45
$GNGNS,033057.00,4742.1602604,N,01618.1002298,E,DAAA,39,0.4,708.2569,43.2066,,*5F
$GPGNS,033057.00,,,,,,10,,,,3.1,136*78
$GLGNS,033057.00,,,,,,07,,,,,*7A
$GAGNS,033057.00,,,,,,09,,,,,*79
$GBGNS,033057.00,,,,,,13,,,,,*71
$GPLLQ,033057.00,010125,,M,,M,1,39,0.831,,M*13
$GPVTG,,T,,M,0.00,N,0.01,K,D*27
$GPHDT,,T*1B
$GPTHS,,V*0E
$GPROT,,V*08
$PSSN,HRP,033057.00,010125,,,,,,,00,0,,*63
$PTNL,AVR,033057.00,,Yaw,,Tilt,,,,0,,00*35
$GPGSA,A,3,03,04,06,07,09,11,16,19,26,31,,,0.8,0.4,0.6*3E
$GPGSA,A,3,70,71,79,80,85,86,87,,,,,,0.8,0.4,0.6*33
$GPGSA,A,3,03,04,05,06,09,15,31,34,36,,,,0.8,0.4,0.6*31
$GPGSA,A,3,02,05,06,09,16,19,20,22,35,37,39,44,0.8,0.4,0.6*35
$GPGSA,A,3,60,,,,,,,,,,,,0.8,0.4,0.6*3E
$GPGST,033057.00,1.379,0.406,0.330,0.513,0.406,0.330,0.646*5A
$GPGBS,033057.00,3.247,2.127,3.683,85,0.0001,4.939,6.149*56
$GPGRS,033057.00,1,0.3,-0.0,-0.4,0.2,-0.1,0.3,0.3,-0.2,-0.5,-0.4,,*4B
$GPGRS,033057.00,1,-0.5,2.4,2.3,-0.6,4.9,-1.6,-2.8,,,,,*66
$GPGRS,033057.00,1,-1.1,-0.4,0.2,0.0,0.2,1.5,-0.1,0.1,0.6,,,*49
$GPGRS,033057.00,1,0.3,1.2,0.9,0.9,0.6,-0.3,1.0,0.0,-0.1,-0.9,-0.1,-0.2*6E
$GPGRS,033057.00,1,-2.1,,,,,,,,,,,*4C
$GPGSV,6,1,22,09,76,264,51,07,27,182,45,11,23,315,42,31,14,039,41*72
$GPGSV,6,2,22,26,12,060,39,19,13,249,41,03,39,108,46,06,53,285,48*77
$GPGSV,6,3,22,04,70,054,48,01,02,158,,20,02,301,35,17,02,226,39*71
$GPGSV,6,4,22,16,06,089,37,36,35,170,45,58,13,245,38,40,24,132,36*7B
$GPGSV,6,5,22,34,31,208,43,49,34,195,45,57,08,111,38,41,07,108,35*79
$GPGSV,6,6,22,61,03,257,38*46
$GLGSV,3,1,10,70,57,042,42,73,11,143,,72,11,268,,85,22,200,48*6B
$GLGSV,3,2,10,87,29,325,46,79,20,031,46,80,32,089,49,71,55,295,52*61
$GLGSV,3,3,10,86,51,265,52,69,01,074,37*61
$GAGSV,3,1,12,09,66,056,48,15,11,324,39,04,16,060,38,36,51,190,47*60
$GAGSV,3,2,12,34,54,291,47,06,41,060,45,05,56,244,47,18,07,243,*6D
$GAGSV,3,3,12,23,10,051,,31,06,099,37,03,06,242,36,11,09,161,32*65
$GBGSV,6,1,21,19,79,007,52,58,25,110,,39,16,039,41,12,19,319,*61
$GBGSV,6,2,21,37,26,058,45,05,23,128,39,16,26,043,41,44,28,294,45*60
$GBGSV,6,3,21,06,28,046,40,46,31,120,,35,30,240,46,22,34,278,47*6C
$GBGSV,6,4,21,21,34,268,,09,40,055,43,20,36,080,48,48,57,074,*66
$GBGSV,6,5,21,36,07,166,,34,01,339,,29,02,190,25,02,07,106,35*65
$GBGSV,6,6,21,60,08,111,39*5D
$GPGGA,033057.00,,,,,0,00,,,M,,M,,*4A
$PTNL,GGK,033057.00,010125,4742.1602604,N,01618.1002298,E,1,39,0.8,EHT751.4635,M*41
$GPGGQ,033057.00,010125,4742.1602604,N,01618.1002298,E,1,39,0.831,708.2569,M*3D
$GPGFA,033057.00,3.857,5.300,0.406,0.330,0.513,0.646,,VVV*0F
$GPLLK,033057.00,010125,,M,,M,1,39,0.8,,M*0B
$GNGMP,033057.00,,,,,DAAA,39,0.4,,,,*5A
$GPGMP,033057.00,,,,,,10,,,,3.1,136*78
$GLGMP,033057.00,,,,,,07,,,,,*7A
$GAGMP,033057.00,,,,,,09,,,,,*79
$GBGMP,033057.00,,,,,,13,,,,,*71
$PSSN,SNC,[0,271875000,2347]*4A
$GPZDA,033102.00,01,01,2025,,*60
$GPDTM,W84,,00.0000000,N,00.0000000,E,00.0000000,W84*5F
$PSSN,TFM,033102.00,,,,*6C
$GPRMC,033102.00,A,4742.1602608,N,01618.1002296,E,0.0,,010125,5.1,E,D*10
$GPGLL,4742.1602608,N,01618.1002296,E,033102.00,A,D*61
$GPGGA,033102.00,4742.1602608,N,01618.1002296,E,2,39,0.4,708.2556,M,43.2066,M,3.2,0136*49
$GNGNS,033102.00,4742.1602608,N,01618.1002296,E,DAAA,39,0.4,708.2556,43.2066,,*50
$GPGNS,033102.00,,,,,,10,,,,3.2,136*7A
$GLGNS,033102.00,,,,,,07,,,,,*7B
$GAGNS,033102.00,,,,,,09,,,,,*78
$GBGNS,033102.00,,,,,,13,,,,,*70
$GPLLQ,033102.00,010125,,M,,M,1,39,0.843,,M*17
$GPVTG,,T,,M,0.00,N,0.00,K,D*26
$GPHDT,,T*1B
$GPTHS,,V*0E
$GPROT,,V*08
$PSSN,HRP,033102.00,010125,,,,,,,00,0,,*62
$PTNL,AVR,033102.00,,Yaw,,Tilt,,,,0,,00*34
$GPGSA,A,3,03,04,06,07,09,11,16,19,26,31,,,0.8,0.4,0.6*3E
$GPGSA,A,3,70,71,79,80,85,86,87,,,,,,0.8,0.4,0.6*33
$GPGSA,A,3,03,04,05,06,09,15,31,34,36,,,,0.8,0.4,0.6*31
$GPGSA,A,3,02,05,06,09,16,19,20,22,35,37,39,44,0.8,0.4,0.6*35
$GPGSA,A,3,60,,,,,,,,,,,,0.8,0.4,0.6*3E
$GPGST,033102.00,1.412,0.411,0.334,359.333,0.411,0.334,0.655*58
$GPGBS,033102.00,3.270,2.134,3.729,85,0.0001,4.050,6.150*5E
$GPGRS,033102.00,1,0.2,0.1,-0.1,0.2,0.0,-0.0,-0.3,0.0,-0.3,-0.7,,*67
$GPGRS,033102.00,1,-1.6,2.1,1.8,-0.9,4.0,-2.2,-4.0,,,,,*67
$GPGRS,033102.00,1,-1.1,-0.7,0.2,-0.2,0.1,0.8,-0.2,-0.0,0.2,,,*40
$GPGRS,033102.00,1,1.1,0.7,0.8,0.8,0.6,-0.4,0.9,-0.6,-0.5,-1.0,-0.3,-0.5*45
$GPGRS,033102.00,1,-2.4,,,,,,,,,,,*48
$GPGSV,6,1,22,09,77,264,51,07,27,182,45,11,23,315,42,31,14,039,40*72
$GPGSV,6,2,22,26,12,060,39,19,12,249,40,03,39,108,46,06,53,285,48*77
$GPGSV,6,3,22,04,70,054,48,01,02,158,,20,02,301,35,17,02,226,39*71
$GPGSV,6,4,22,16,06,089,38,36,35,170,45,58,13,245,38,40,24,132,37*75
$GPGSV,6,5,22,34,31,208,43,49,34,195,45,57,08,111,39,41,07,108,35*78
$GPGSV,6,6,22,61,03,257,38*46
$GLGSV,3,1,10,70,57,042,41,73,11,143,,72,11,268,,85,22,200,48*68
$GLGSV,3,2,10,87,29,325,46,79,20,031,46,80,32,089,49,71,55,296,52*62
$GLGSV,3,3,10,86,51,265,51,69,01,074,38*6D
$GAGSV,3,1,12,09,66,056,48,15,11,324,39,04,16,060,38,36,51,190,47*60
$GAGSV,3,2,12,34,54,291,47,06,41,060,45,05,56,244,47,18,07,242,*6C
$GAGSV,3,3,12,23,10,051,,31,06,099,38,03,06,242,36,11,09,161,31*69
$GBGSV,6,1,21,19,79,007,52,58,25,110,,39,16,039,41,12,19,319,*61
$GBGSV,6,2,21,37,26,058,44,05,23,128,39,16,26,043,41,44,28,294,45*61
$GBGSV,6,3,21,06,28,046,41,46,31,120,,35,30,240,46,22,34,278,47*6D
$GBGSV,6,4,21,21,34,268,,09,40,055,43,20,36,080,48,48,57,074,*66
$GBGSV,6,5,21,36,07,166,,34,01,338,,29,02,190,25,02,07,106,35*64
$GBGSV,6,6,21,60,08,111,39*5D
$GPGGA,033102.00,,,,,0,00,,,M,,M,,*4B
$PTNL,GGK,033102.00,010125,4742.1602608,N,01618.1002296,E,1,39,0.8,EHT751.4621,M*47
$GPGGQ,033102.00,010125,4742.1602608,N,01618.1002296,E,1,39,0.843,708.2556,M*37
$GPGFA,033102.00,3.910,5.373,0.411,0.334,359.333,0.655,,VVV*03
$GPLLK,033102.00,010125,,M,,M,1,39,0.8,,M*0A
$GNGMP,033102.00,,,,,DAAA,39,0.4,,,,*5B
$GPGMP,033102.00,,,,,,10,,,,3.2,136*7A
$GLGMP,033102.00,,,,,,07,,,,,*7B
$GAGMP,033102.00,,,,,,09,,,,,*78
$GBGMP,033102.00,,,,,,13,,,,,*70
$PSSN,SNC,[0,271880000,2347]*40
$GPZDA,033107.00,01,01,2025,,*65
$GPDTM,W84,,00.0000000,N,00.0000000,E,00.0000000,W84*5F
$PSSN,TFM,033107.00,,,,*69
$GPRMC,033107.00,A,4742.1602618,N,01618.1002297,E,0.0,,010125,5.1,E,D*15
$GPGLL,4742.1602618,N,01618.1002297,E,033107.00,A,D*64
$GPGGA,033107.00,4742.1602618,N,01618.1002297,E,2,39,0.4,708.2563,M,43.2066,M,1.6,0136*4C
$GNGNS,033107.00,4742.1602618,N,01618.1002297,E,DAAA,39,0.4,708.2563,43.2066,,*53
$GPGNS,033107.00,,,,,,10,,,,1.6,136*79
$GLGNS,033107.00,,,,,,07,,,,,*7E
$GAGNS,033107.00,,,,,,09,,,,,*7D
$GBGNS,033107.00,,,,,,13,,,,,*75
$GPLLQ,033107.00,010125,,M,,M,1,39,0.835,,M*13
$GPVTG,,T,,M,0.00,N,0.01,K,D*27
$GPHDT,,T*1B
$GPTHS,,V*0E
$GPROT,,V*08
$PSSN,HRP,033107.00,010125,,,,,,,00,0,,*67
$PTNL,AVR,033107.00,,Yaw,,Tilt,,,,0,,00*31
$GPGSA,A,3,03,04,06,07,09,11,16,19,26,31,,,0.8,0.4,0.6*3E
$GPGSA,A,3,70,71,79,80,85,86,87,,,,,,0.8,0.4,0.6*33
$GPGSA,A,3,03,04,05,06,09,15,31,34,36,,,,0.8,0.4,0.6*31
$GPGSA,A,3,02,05,06,09,16,19,20,22,35,37,39,44,0.8,0.4,0.6*35
$GPGSA,A,3,60,,,,,,,,,,,,0.8,0.4,0.6*3E
$GPGST,033107.00,1.350,0.408,0.331,359.844,0.408,0.331,0.649*5A
$GPGBS,033107.00,3.177,2.089,3.604,87,0.0001,-4.471,6.154*7A
$GPGRS,033107.00,1,0.5,-0.3,-0.0,-0.1,-0.0,0.6,0.1,0.1,-0.6,0.2,,*60
$GPGRS,033107.00,1,-1.2,2.2,2.4,-0.9,2.7,-2.0,-4.5,,,,,*6C
$GPGRS,033107.00,1,-0.8,-0.7,0.2,-0.0,0.0,0.9,-0.4,-0.1,0.3,,,*49
$GPGRS,033107.00,1,0.9,0.6,1.0,0.6,-0.2,-0.5,0.6,-0.3,-0.8,-0.8,-0.6,-0.2*6B
$GPGRS,033107.00,1,-2.4,,,,,,,,,,,*4D
$GPGSV,6,1,22,09,77,264,51,07,27,182,45,11,23,315,42,31,14,039,40*72
$GPGSV,6,2,22,26,12,060,39,19,12,249,40,03,39,108,46,06,53,284,48*76
$GPGSV,6,3,22,04,70,054,48,01,02,158,,20,02,301,35,17,02,226,39*71
$GPGSV,6,4,22,16,06,089,37,36,35,170,45,58,13,245,38,40,24,132,37*7A
$GPGSV,6,5,22,34,31,208,44,49,34,195,45,57,08,111,39,41,07,108,35*7F
$GPGSV,6,6,22,61,03,257,38*46
$GLGSV,3,1,10,70,57,042,42,73,11,143,,72,11,268,,85,22,200,47*64
$GLGSV,3,2,10,87,29,325,46,79,20,031,46,80,32,089,49,71,55,296,52*62
$GLGSV,3,3,10,86,51,264,52,69,01,074,37*60
$GAGSV,3,1,12,09,66,056,48,15,11,324,38,04,16,060,39,36,51,190,47*60
$GAGSV,3,2,12,34,55,291,47,06,41,060,45,05,56,244,47,18,07,242,*6D
$GAGSV,3,3,12,23,10,051,,31,06,099,38,03,06,242,36,11,09,161,31*69
$GBGSV,6,1,21,19,79,007,52,58,25,110,,39,16,039,41,12,19,319,*61
$GBGSV,6,2,21,37,26,058,44,05,23,128,39,16,26,043,41,44,28,294,45*61
$GBGSV,6,3,21,06,28,046,41,46,31,120,,35,30,240,46,22,34,278,47*6D
$GBGSV,6,4,21,21,34,269,,09,40,055,43,20,36,080,48,48,57,074,*67
$GBGSV,6,5,21,36,07,166,,34,01,338,,29,02,190,26,02,07,106,35*67
$GBGSV,6,6,21,60,08,111,39*5D
$GPGGA,033107.00,,,,,0,00,,,M,,M,,*4E
$PTNL,GGK,033107.00,010125,4742.1602618,N,01618.1002297,E,1,39,0.8,EHT751.4628,M*4B
$GPGGQ,033107.00,010125,4742.1602618,N,01618.1002297,E,1,39,0.835,708.2563,M*35
$GPGFA,033107.00,3.881,5.318,0.408,0.331,359.844,0.649,,VVV*09
$GPLLK,033107.00,010125,,M,,M,1,39,0.8,,M*0F
$GNGMP,033107.00,,,,,DAAA,39,0.4,,,,*5E
$GPGMP,033107.00,,,,,,10,,,,1.6,136*79
$GLGMP,033107.00,,,,,,07,,,,,*7E
$GAGMP,033107.00,,,,,,09,,,,,*7D
$GBGMP,033107.00,,,,,,13,,,,,*75
$PSSN,SNC,[0,271885000,2347]*45
$GPZDA,033112.00,01,01,2025,,*61
$GPDTM,W84,,00.0000000,N,00.0000000,E,00.0000000,W84*5F
$PSSN,TFM,033112.00,,,,*6D
$GPRMC,033112.00,A,4742.1602621,N,01618.1002316,E,0.0,,010125,5.1,E,D*13
$GPGLL,4742.1602621,N,01618.1002316,E,033112.00,A,D*62
$GPGGA,033112.00,4742.1602621,N,01618.1002316,E,2,39,0.4,708.2586,M,43.2066,M,2.1,0136*45
$GNGNS,033112.00,4742.1602621,N,01618.1002316,E,DAAA,39,0.4,708.2586,43.2066,,*5E
$GPGNS,033112.00,,,,,,10,,,,2.1,136*79
$GLGNS,033112.00,,,,,,07,,,,,*7A
$GAGNS,033112.00,,,,,,09,,,,,*79
$GBGNS,033112.00,,,,,,13,,,,,*71
$GPLLQ,033112.00,010125,,M,,M,1,39,0.820,,M*13
$GPVTG,,T,,M,0.00,N,0.00,K,D*26
$GPHDT,,T*1B
$GPTHS,,V*0E
$GPROT,,V*08
$PSSN,HRP,033112.00,010125,,,,,,,00,0,,*63
$PTNL,AVR,033112.00,,Yaw,,Tilt,,,,0,,00*35
$GPGSA,A,3,03,04,06,07,09,11,16,19,26,31,,,0.8,0.4,0.6*3E
$GPGSA,A,3,70,71,79,80,85,86,87,,,,,,0.8,0.4,0.6*33
$GPGSA,A,3,03,04,05,06,09,15,31,34,36,,,,0.8,0.4,0.6*31
$GPGSA,A,3,02,05,06,09,16,19,20,22,35,37,39,44,0.8,0.4,0.6*35
$GPGSA,A,3,60,,,,,,,,,,,,0.8,0.4,0.6*3E
$GPGST,033112.00,1.204,0.401,0.325,1.469,0.401,0.325,0.637*5A
$GPGBS,033112.00,3.203,2.101,3.632,26,0.0001,-1.022,1.550*71
$GPGRS,033112.00,1,0.4,-0.1,-0.3,-0.0,0.0,0.6,-0.0,0.4,-1.0,-0.3,,*4A
$GPGRS,033112.00,1,-0.8,1.9,2.3,-0.9,1.8,-1.7,-3.9,,,,,*6F
$GPGRS,033112.00,1,-0.8,-0.5,0.2,-0.1,-0.0,0.7,-0.3,-0.3,0.2,,,*69
$GPGRS,033112.00,1,0.7,0.7,0.9,0.4,-0.2,-0.4,0.7,-0.0,-1.2,-0.5,-0.9,0.2*4D
$GPGRS,033112.00,1,-2.4,,,,,,,,,,,*49
$GPGSV,6,1,22,09,77,265,51,07,27,182,44,11,23,315,42,31,14,039,41*73
$GPGSV,6,2,22,26,12,060,39,19,12,249,40,03,39,108,45,06,53,284,48*75
$GPGSV,6,3,22,04,70,054,48,01,01,158,,20,02,301,35,17,02,226,39*72
$GPGSV,6,4,22,16,06,089,37,36,35,170,45,58,13,245,38,40,24,132,37*7A
$GPGSV,6,5,22,34,31,208,44,49,34,195,45,57,08,111,39,41,07,108,35*7F
$GPGSV,6,6,22,61,03,257,38*46
$GLGSV,3,1,10,70,57,042,42,73,11,143,,72,11,268,,85,22,200,46*65
$GLGSV,3,2,10,87,29,325,46,79,20,031,46,80,32,089,48,71,55,296,52*63
$GLGSV,3,3,10,86,51,264,52,69,01,074,37*60
$GAGSV,3,1,12,09,66,056,48,15,11,324,38,04,16,060,39,36,51,190,47*60
$GAGSV,3,2,12,34,55,290,48,06,41,060,45,05,56,244,47,18,07,242,*63
$GAGSV,3,3,12,23,10,051,,31,06,099,38,03,06,242,37,11,09,161,31*68
$GBGSV,6,1,21,19,79,007,52,58,25,110,,39,16,039,41,12,19,319,*61
$GBGSV,6,2,21,37,26,058,44,05,23,128,39,16,26,043,41,44,28,294,46*62
$GBGSV,6,3,21,06,28,046,41,46,31,120,,35,30,240,46,22,34,278,47*6D
$GBGSV,6,4,21,21,34,269,,09,40,055,43,20,36,080,48,48,57,074,*67
$GBGSV,6,5,21,36,07,166,,34,01,338,,29,02,190,26,02,07,106,35*67
$GBGSV,6,6,21,60,08,111,39*5D
$GPGGA,033112.00,,,,,0,00,,,M,,M,,*4A
$PTNL,GGK,033112.00,010125,4742.1602621,N,01618.1002316,E,1,39,0.8,EHT751.4652,M*40
$GPGGQ,033112.00,010125,4742.1602621,N,01618.1002316,E,1,39,0.820,708.2586,M*3C
$GPGFA,033112.00,3.812,5.225,0.401,0.325,1.469,0.637,,VVV*00
$GPLLK,033112.00,010125,,M,,M,1,39,0.8,,M*0B
$GNGMP,033112.00,,,,,DAAA,39,0.4,,,,*5A
$GPGMP,033112.00,,,,,,10,,,,2.1,136*79
$GLGMP,033112.00,,,,,,07,,,,,*7A
$GAGMP,033112.00,,,,,,09,,,,,*79
$GBGMP,033112.00,,,,,,13,,,,,*71
$PSSN,SNC,[0,271890000,2347]*41
$GPZDA,033117.00,01,01,2025,,*64
$GPDTM,W84,,00.0000000,N,00.0000000,E,00.0000000,W84*5F
$PSSN,TFM,033117.00,,,,*68
$GPRMC,033117.00,A,4742.1602639,N,01618.1002314,E,0.0,,010125,5.1,E,D*1D
$GPGLL,4742.1602639,N,01618.1002314,E,033117.00,A,D*6C
$GPGGA,033117.00,4742.1602639,N,01618.1002314,E,2,39,0.4,708.2593,M,43.2066,M,3.1,0136*4E
$GNGNS,033117.00,4742.1602639,N,01618.1002314,E,DAAA,39,0.4,708.2593,43.2066,,*54
$GPGNS,033117.00,,,,,,10,,,,3.1,136*7D
$GLGNS,033117.00,,,,,,07,,,,,*7F
$GAGNS,033117.00,,,,,,09,,,,,*7C
$GBGNS,033117.00,,,,,,13,,,,,*74
$GPLLQ,033117.00,010125,,M,,M,1,39,0.831,,M*16
$GPVTG,,T,,M,0.01,N,0.01,K,D*26
$GPHDT,,T*1B
$GPTHS,,V*0E
$GPROT,,V*08
$PSSN,HRP,033117.00,010125,,,,,,,00,0,,*66
$PTNL,AVR,033117.00,,Yaw,,Tilt,,,,0,,00*30
$GPGSA,A,3,03,04,06,07,09,11,16,19,26,31,,,0.8,0.4,0.6*3E
$GPGSA,A,3,70,71,79,80,85,86,87,,,,,,0.8,0.4,0.6*33
$GPGSA,A,3,03,04,05,06,09,15,31,34,36,,,,0.8,0.4,0.6*31
$GPGSA,A,3,02,05,06,09,16,19,20,22,35,37,39,44,0.8,0.4,0.6*35
$GPGSA,A,3,60,,,,,,,,,,,,0.8,0.4,0.6*3E
$GPGST,033117.00,1.229,0.405,0.330,0.527,0.405,0.330,0.647*5D
$GPGBS,033117.00,3.245,2.126,3.690,26,0.0001,-1.071,1.559*74
$GPGRS,033117.00,1,0.4,-0.1,-0.1,-0.2,0.1,0.4,-0.4,0.2,-1.1,-0.0,,*4C
$GPGRS,033117.00,1,-0.5,2.0,1.8,-1.0,3.0,-2.0,-3.4,,,,,*6E
$GPGRS,033117.00,1,-0.0,-0.5,0.2,-0.2,0.1,0.9,-0.3,-0.3,0.2,,,*45
$GPGRS,033117.00,1,1.7,0.8,0.8,0.2,-0.4,-0.4,0.8,-0.3,-0.5,-0.5,-0.6,-0.3*6E
$GPGRS,033117.00,1,-2.4,,,,,,,,,,,*4C
