$GPZDA,155942.00,01,01,2025,,*6D
$GPDTM,W84,,00.0000000,N,00.0000000,E,00.0000000,W84*5F
$PSSN,TFM,155942.00,,,,*61
$GPRMC,155942.00,A,4742.1605114,N,01618.1007604,E,0.0,,010125,5.1,E,D*1A
$GPGLL,4742.1605114,N,01618.1007604,E,155942.00,A,D*6B
$GPGGA,155942.00,4742.1605114,N,01618.1007604,E,2,38,0.4,708.6894,M,43.2066,M,2.2,0136*44
$GNGNS,155942.00,4742.1605114,N,01618.1007604,E,DAAA,38,0.4,708.6894,43.2066,,*5C
$GPGNS,155942.00,,,,,,10,,,,2.2,136*76
$GLGNS,155942.00,,,,,,07,,,,,*76
$GAGNS,155942.00,,,,,,07,,,,,*7B
$GBGNS,155942.00,,,,,,14,,,,,*7A
$GPLLQ,155942.00,010125,,M,,M,1,38,1.233,,M*17
$GPVTG,,T,,M,0.01,N,0.01,K,D*26
$GPHDT,,T*1B
$GPTHS,,V*0E
$GPROT,,V*08
$PSSN,HRP,155942.00,010125,,,,,,,00,0,,*6F
$PTNL,AVR,155942.00,,Yaw,,Tilt,,,,0,,00*39
$GPGSA,A,3,05,11,12,18,20,25,26,28,29,31,,,0.8,0.4,0.6*35
$GPGSA,A,3,71,78,79,80,81,82,88,,,,,,0.8,0.4,0.6*34
$GPGSA,A,3,13,15,21,27,29,30,34,,,,,,0.8,0.4,0.6*37
$GPGSA,A,3,05,08,10,11,12,13,23,24,25,34,38,43,0.8,0.4,0.6*3E
$GPGSA,A,3,44,60,,,,,,,,,,,0.8,0.4,0.6*3E
$GPGST,155942.00,1.954,0.592,0.421,12.719,0.585,0.430,0.997*6D
$GPGBS,155942.00,4.317,2.087,7.312,10,0.0001,-9.446,15.570*4E
$GPGRS,155942.00,1,0.8,-1.0,0.8,-0.2,0.5,-0.0,-0.2,-0.5,-0.2,0.2,,*41
$GPGRS,155942.00,1,-0.4,-0.5,1.3,-1.9,2.0,1.4,-0.0,,,,,*62
$GPGRS,155942.00,1,-0.9,0.6,0.6,0.4,-1.4,0.6,0.3,,,,,*63
$GPGRS,155942.00,1,1.0,1.3,-9.4,1.9,1.1,0.7,-0.5,0.4,-0.5,-0.2,-0.2,0.4*6C
$GPGRS,155942.00,1,-0.4,-1.2,,,,,,,,,,*47
$GPGSV,5,1,20,29,83,015,50,05,18,097,42,12,16,115,41,11,16,041,40*78
$GPGSV,5,2,20,18,33,186,46,26,28,300,43,20,21,061,40,31,43,291,46*7D
$GPGSV,5,3,20,28,51,251,48,25,55,120,48,04,04,337,37,36,35,170,45*76
$GPGSV,5,4,20,58,13,245,37,40,23,133,37,34,31,208,43,49,34,195,45*7C
$GPGSV,5,5,20,57,05,113,39,41,07,108,35,61,03,257,38*47
$GLGSV,2,1,08,79,83,324,52,82,24,213,47,80,27,320,48,88,46,040,51*64
$GLGSV,2,2,08,78,40,140,51,81,74,206,52,72,03,033,37,71,09,348,42*6A
$GAGSV,3,1,10,27,80,317,48,13,16,192,39,19,13,293,34,34,44,057,46*68
$GAGSV,3,2,10,21,26,298,42,30,43,112,46,15,57,147,48,04,02,346,35*67
$GAGSV,3,3,10,29,07,251,37,36,01,030,26*64
$GBGSV,5,1,20,34,80,087,51,24,18,148,42,56,12,066,,28,33,211,*65
$GBGSV,5,2,20,05,21,129,39,44,25,054,45,38,27,060,43,23,47,300,49*6C
$GBGSV,5,3,20,13,30,085,43,43,46,224,49,08,31,076,41,31,42,073,*66
$GBGSV,5,4,20,25,66,187,52,12,50,056,47,11,69,209,49,19,00,330,*61
$GBGSV,5,5,20,37,00,317,,02,06,107,35,10,07,082,36,60,10,109,41*6F
$GPGGA,155942.00,,,,,0,00,,,M,,M,,*46
$PTNL,GGK,155942.00,010125,4742.1605114,N,01618.1007604,E,1,38,0.8,EHT751.8960,M*4A
$GPGGQ,155942.00,010125,4742.1605114,N,01618.1007604,E,1,38,1.233,708.6894,M*37
$GPGFA,155942.00,5.626,8.173,0.592,0.421,12.719,0.997,,VVV*35
$GPLLK,155942.00,010125,,M,,M,1,38,0.9,,M*07
$GNGMP,155942.00,,,,,DAAA,38,0.4,,,,*57
$GPGMP,155942.00,,,,,,10,,,,2.2,136*76
$GLGMP,155942.00,,,,,,07,,,,,*76
$GAGMP,155942.00,,,,,,07,,,,,*7B
$GBGMP,155942.00,,,,,,14,,,,,*7A
$PSSN,SNC,[0,316800000,2347]*48
$GPZDA,155947.00,01,01,2025,,*68
$GPDTM,W84,,00.0000000,N,00.0000000,E,00.0000000,W84*5F
$PSSN,TFM,155947.00,,,,*64
$GPRMC,155947.00,A,4742.1605124,N,01618.1007554,E,0.0,,010125,5.1,E,D*1A
$GPGLL,4742.1605124,N,01618.1007554,E,155947.00,A,D*6B
$GPGGA,155947.00,4742.1605124,N,01618.1007554,E,2,38,0.4,708.6930,M,43.2066,M,2.0,0136*49
$GNGNS,155947.00,4742.1605124,N,01618.1007554,E,DAAA,38,0.4,708.6930,43.2066,,*53
$GPGNS,155947.00,,,,,,10,,,,2.0,136*71
$GLGNS,155947.00,,,,,,07,,,,,*73
$GAGNS,155947.00,,,,,,07,,,,,*7E
$GBGNS,155947.00,,,,,,14,,,,,*7F
$GPLLQ,155947.00,010125,,M,,M,1,38,1.233,,M*12
$GPVTG,,T,,M,0.01,N,0.01,K,D*26
$GPHDT,,T*1B
$GPTHS,,V*0E
$GPROT,,V*08
$PSSN,HRP,155947.00,010125,,,,,,,00,0,,*6A
$PTNL,AVR,155947.00,,Yaw,,Tilt,,,,0,,00*3C
$GPGSA,A,3,05,11,12,18,20,25,26,28,29,31,,,0.8,0.4,0.6*35
$GPGSA,A,3,71,78,79,80,81,82,88,,,,,,0.8,0.4,0.6*34
$GPGSA,A,3,13,15,21,27,29,30,34,,,,,,0.8,0.4,0.6*37
$GPGSA,A,3,05,08,10,11,12,13,23,24,25,34,38,43,0.8,0.4,0.6*3E
$GPGSA,A,3,44,60,,,,,,,,,,,0.8,0.4,0.6*3E
$GPGST,155947.00,1.971,0.589,0.419,13.038,0.582,0.429,0.998*6B
$GPGBS,155947.00,4.309,2.097,7.352,05,0.0001,1.377,1.340*55
$GPGRS,155947.00,1,1.4,-0.8,0.6,-0.4,0.5,-0.2,-0.0,-0.4,-0.3,0.7,,*4D
$GPGRS,155947.00,1,-0.1,-1.1,1.1,-1.5,2.0,1.8,-0.5,,,,,*60
$GPGRS,155947.00,1,-0.7,0.5,0.7,0.3,-1.9,0.5,0.3,,,,,*63
$GPGRS,155947.00,1,0.9,1.1,-9.5,1.4,1.6,0.7,-0.5,0.0,-0.6,-0.2,-0.1,0.2*6A
$GPGRS,155947.00,1,-0.5,-1.2,,,,,,,,,,*43
$GPGSV,5,1,20,29,83,015,50,12,16,115,41,11,16,041,40,05,18,097,42*78
$GPGSV,5,2,20,18,33,186,45,26,28,300,43,20,21,061,40,31,43,291,47*7F
$GPGSV,5,3,20,28,51,251,48,25,55,120,48,04,04,337,36,36,35,170,45*77
$GPGSV,5,4,20,58,13,245,37,40,23,133,37,34,31,208,43,49,34,195,45*7C
$GPGSV,5,5,20,57,05,113,39,41,07,108,35,61,03,257,39*46
$GLGSV,2,1,08,79,83,324,52,82,24,213,47,80,27,320,49,88,46,040,50*64
$GLGSV,2,2,08,78,40,140,51,81,74,206,52,72,03,033,37,71,09,348,42*6A
$GAGSV,3,1,10,27,80,317,48,13,16,192,39,19,13,293,34,34,44,057,46*68
$GAGSV,3,2,10,21,26,298,42,30,43,112,46,15,57,147,48,04,02,346,35*67
$GAGSV,3,3,10,29,07,251,37,36,01,030,25*67
$GBGSV,5,1,20,34,80,087,51,24,18,148,42,56,12,066,,28,33,211,*65
$GBGSV,5,2,20,05,21,129,38,44,25,054,44,38,27,060,43,23,47,300,49*6C
$GBGSV,5,3,20,13,30,085,43,43,46,224,49,08,31,076,41,31,42,073,*66
$GBGSV,5,4,20,25,66,187,51,12,50,056,47,11,70,209,49,19,00,330,*6A
$GBGSV,5,5,20,37,00,317,,02,06,107,35,10,07,082,35,60,10,109,41*6C
$GPGGA,155947.00,,,,,0,00,,,M,,M,,*43
$PTNL,GGK,155947.00,010125,4742.1605124,N,01618.1007554,E,1,38,0.8,EHT751.8996,M*43
$GPGGQ,155947.00,010125,4742.1605124,N,01618.1007554,E,1,38,1.233,708.6930,M*38
$GPGFA,155947.00,5.601,8.186,0.589,0.419,13.038,0.998,,VVV*34
$GPLLK,155947.00,010125,,M,,M,1,38,0.9,,M*02
$GNGMP,155947.00,,,,,DAAA,38,0.4,,,,*52
$GPGMP,155947.00,,,,,,10,,,,2.0,136*71
$GLGMP,155947.00,,,,,,07,,,,,*73
$GAGMP,155947.00,,,,,,07,,,,,*7E
$GBGMP,155947.00,,,,,,14,,,,,*7F
$PSSN,SNC,[0,316805000,2347]*4D
$GPZDA,155952.00,01,01,2025,,*6C
$GPDTM,W84,,00.0000000,N,00.0000000,E,00.0000000,W84*5F
$PSSN,TFM,155952.00,,,,*60
$GPRMC,155952.00,A,4742.1605119,N,01618.1007512,E,0.0,,010125,5.1,E,D*12
$GPGLL,4742.1605119,N,01618.1007512,E,155952.00,A,D*63
$GPGGA,155952.00,4742.1605119,N,01618.1007512,E,2,39,0.4,708.7001,M,43.2066,M,3.0,0136*4B
$GNGNS,155952.00,4742.1605119,N,01618.1007512,E,DAAA,39,0.4,708.7001,43.2066,,*50
$GPGNS,155952.00,,,,,,10,,,,3.0,136*74
$GLGNS,155952.00,,,,,,07,,,,,*77
$GAGNS,155952.00,,,,,,07,,,,,*7A
$GBGNS,155952.00,,,,,,15,,,,,*7A
$GPLLQ,155952.00,010125,,M,,M,1,39,1.241,,M*12
$GPVTG,,T,,M,0.00,N,0.01,K,D*27
$GPHDT,,T*1B
$GPTHS,,V*0E
$GPROT,,V*08
$PSSN,HRP,155952.00,010125,,,,,,,00,0,,*6E
$PTNL,AVR,155952.00,,Yaw,,Tilt,,,,0,,00*38
$GPGSA,A,3,05,11,12,18,20,25,26,28,29,31,,,0.7,0.4,0.6*3A
$GPGSA,A,3,71,78,79,80,81,82,88,,,,,,0.7,0.4,0.6*3B
$GPGSA,A,3,13,15,21,27,29,30,34,,,,,,0.7,0.4,0.6*38
$GPGSA,A,3,02,05,08,10,11,12,13,23,24,25,34,38,0.7,0.4,0.6*34
$GPGSA,A,3,43,44,60,,,,,,,,,,0.7,0.4,0.6*36
$GPGST,155952.00,2.040,0.592,0.422,13.177,0.584,0.433,1.006*6D
$GPGBS,155952.00,4.329,2.113,7.388,05,0.0001,1.166,1.346*5D
$GPGRS,155952.00,1,1.2,-0.8,0.8,-0.6,0.5,-0.3,0.1,-0.5,-0.1,0.3,,*69
$GPGRS,155952.00,1,-0.5,-1.4,1.2,-1.5,1.9,0.5,-0.4,,,,,*61
$GPGRS,155952.00,1,-0.4,0.6,0.8,0.3,-1.8,0.4,0.3,,,,,*68
$GPGRS,155952.00,1,0.5,1.2,0.7,-10.2,1.2,1.9,1.0,-0.5,0.4,-0.7,-0.4,-0.3*55
$GPGRS,155952.00,1,-0.2,-0.6,-1.4,,,,,,,,,*43
$GPGSV,5,1,20,29,83,015,50,12,16,115,41,11,16,041,41,05,18,097,42*79
$GPGSV,5,2,20,18,33,186,45,26,28,300,43,20,21,061,40,31,43,291,47*7F
$GPGSV,5,3,20,28,51,250,47,25,55,120,48,04,04,337,37,36,35,170,45*78
$GPGSV,5,4,20,58,13,245,37,40,23,133,37,34,31,208,43,49,34,195,45*7C
$GPGSV,5,5,20,57,05,113,39,41,07,108,35,61,03,257,39*46
$GLGSV,2,1,08,79,83,324,52,82,24,213,46,80,27,320,49,88,46,040,51*64
$GLGSV,2,2,08,78,40,140,50,81,74,206,52,72,03,033,37,71,09,348,42*6B
$GAGSV,3,1,10,27,80,317,48,13,16,192,40,19,13,293,34,34,44,057,46*66
$GAGSV,3,2,10,21,26,298,42,30,43,112,46,15,57,147,48,04,02,346,36*64
$GAGSV,3,3,10,29,07,251,37,36,01,030,25*67
$GBGSV,5,1,20,34,80,087,51,24,18,148,43,56,12,066,,28,33,211,*64
$GBGSV,5,2,20,05,21,129,38,44,25,054,44,38,27,060,43,23,47,300,49*6C
$GBGSV,5,3,20,13,30,085,43,43,46,224,49,08,31,076,41,31,42,073,*66
$GBGSV,5,4,20,25,66,187,51,12,50,056,46,11,70,209,49,19,00,330,31*69
$GBGSV,5,5,20,37,00,317,,02,06,107,35,10,07,082,35,60,10,109,41*6C
$GPGGA,155952.00,,,,,0,00,,,M,,M,,*47
$PTNL,GGK,155952.00,010125,4742.1605119,N,01618.1007512,E,1,39,0.7,EHT751.9067,M*43
$GPGGQ,155952.00,010125,4742.1605119,N,01618.1007512,E,1,39,1.241,708.7001,M*3E
$GPGFA,155952.00,5.629,8.247,0.592,0.422,13.177,1.006,,VVV*33
$GPLLK,155952.00,010125,,M,,M,1,39,0.8,,M*06
$GNGMP,155952.00,,,,,DAAA,39,0.4,,,,*57
$GPGMP,155952.00,,,,,,10,,,,3.0,136*74
$GLGMP,155952.00,,,,,,07,,,,,*77
$GAGMP,155952.00,,,,,,07,,,,,*7A
$GBGMP,155952.00,,,,,,15,,,,,*7A
$PSSN,SNC,[0,316810000,2347]*49
$GPZDA,155957.00,01,01,2025,,*69
$GPDTM,W84,,00.0000000,N,00.0000000,E,00.0000000,W84*5F
$PSSN,TFM,155957.00,,,,*65
$GPRMC,155957.00,A,4742.1605112,N,01618.1007480,E,0.0,,010125,5.1,E,D*16
$GPGLL,4742.1605112,N,01618.1007480,E,155957.00,A,D*67
$GPGGA,155957.00,4742.1605112,N,01618.1007480,E,2,39,0.4,708.7047,M,43.2066,M,2.8,0136*44
$GNGNS,155957.00,4742.1605112,N,01618.1007480,E,DAAA,39,0.4,708.7047,43.2066,,*56
$GPGNS,155957.00,,,,,,10,,,,2.8,136*78
$GLGNS,155957.00,,,,,,07,,,,,*72
$GAGNS,155957.00,,,,,,07,,,,,*7F
$GBGNS,155957.00,,,,,,15,,,,,*7F
$GPLLQ,155957.00,010125,,M,,M,1,39,1.243,,M*15
$GPVTG,,T,,M,0.00,N,0.01,K,D*27
$GPHDT,,T*1B
$GPTHS,,V*0E
$GPROT,,V*08
$PSSN,HRP,155957.00,010125,,,,,,,00,0,,*6B
$PTNL,AVR,155957.00,,Yaw,,Tilt,,,,0,,00*3D
$GPGSA,A,3,05,11,12,18,20,25,26,28,29,31,,,0.7,0.4,0.6*3A
$GPGSA,A,3,71,78,79,80,81,82,88,,,,,,0.7,0.4,0.6*3B
$GPGSA,A,3,13,15,21,27,29,30,34,,,,,,0.7,0.4,0.6*38
$GPGSA,A,3,02,05,08,10,11,12,13,23,24,25,34,38,0.7,0.4,0.6*34
$GPGSA,A,3,43,44,60,,,,,,,,,,0.7,0.4,0.6*36
$GPGST,155957.00,2.185,0.594,0.424,12.922,0.587,0.434,1.006*6D
$GPGBS,155957.00,4.304,2.130,7.425,10,0.0001,-11.221,15.576*7E
$GPGRS,155957.00,1,0.7,-0.9,0.6,-0.1,0.6,0.0,0.3,-0.7,-0.3,0.2,,*4E
$GPGRS,155957.00,1,0.7,-1.3,1.2,-1.6,1.8,0.5,-0.3,,,,,*49
$GPGRS,155957.00,1,-0.5,0.9,0.6,0.3,-1.3,0.5,-0.0,,,,,*49
$GPGRS,155957.00,1,1.1,1.3,0.6,-11.2,1.6,1.2,0.9,-0.4,0.4,-0.6,-0.3,-0.4*53
$GPGRS,155957.00,1,0.2,-0.3,-1.2,,,,,,,,,*68
$GPGSV,5,1,20,29,83,016,50,12,16,115,41,11,16,041,41,05,18,097,43*7B
$GPGSV,5,2,20,18,33,186,45,26,28,300,44,20,21,061,41,31,43,291,47*79
$GPGSV,5,3,20,28,51,250,48,25,55,120,48,04,04,337,38,36,35,170,45*78
$GPGSV,5,4,20,58,13,245,37,40,23,133,37,34,31,208,43,49,34,195,45*7C
$GPGSV,5,5,20,57,05,113,39,41,07,108,35,61,03,257,39*46
$GLGSV,2,1,08,79,83,324,52,82,24,213,46,80,27,320,49,88,46,040,50*65
$GLGSV,2,2,08,78,40,140,51,81,74,206,52,72,03,033,37,71,09,348,43*6B
$GAGSV,3,1,10,27,80,317,48,13,16,192,40,19,13,293,34,34,44,057,45*65
$GAGSV,3,2,10,21,26,298,42,30,43,112,46,15,57,147,48,04,02,346,36*64
$GAGSV,3,3,10,29,07,251,37,36,01,030,26*64
$GBGSV,5,1,20,34,80,086,51,24,18,148,43,56,12,066,,28,33,211,*65
$GBGSV,5,2,20,05,21,129,38,44,25,054,44,38,27,060,44,23,47,300,49*6B
$GBGSV,5,3,20,13,30,085,43,43,46,224,49,08,31,076,41,31,42,073,*66
$GBGSV,5,4,20,25,66,187,51,12,50,056,46,11,70,209,49,19,00,330,31*69
$GBGSV,5,5,20,37,00,317,,02,06,107,35,10,07,082,36,60,10,109,41*6F
$GPGGA,155957.00,,,,,0,00,,,M,,M,,*42
$PTNL,GGK,155957.00,010125,4742.1605112,N,01618.1007480,E,1,39,0.7,EHT751.9113,M*45
$GPGGQ,155957.00,010125,4742.1605112,N,01618.1007480,E,1,39,1.243,708.7047,M*3A
$GPGFA,155957.00,5.652,8.247,0.594,0.424,12.922,1.006,,VVV*33
$GPLLK,155957.00,010125,,M,,M,1,39,0.8,,M*03
$GNGMP,155957.00,,,,,DAAA,39,0.4,,,,*52
$GPGMP,155957.00,,,,,,10,,,,2.8,136*78
$GLGMP,155957.00,,,,,,07,,,,,*72
$GAGMP,155957.00,,,,,,07,,,,,*7F
$GBGMP,155957.00,,,,,,15,,,,,*7F
$PSSN,SNC,[0,316815000,2347]*4C
$GPZDA,160002.00,01,01,2025,,*66
$GPDTM,W84,,00.0000000,N,00.0000000,E,00.0000000,W84*5F
$PSSN,TFM,160002.00,,,,*6A
$GPRMC,160002.00,A,4742.1605107,N,01618.1007458,E,0.0,,010125,5.1,E,D*18
$GPGLL,4742.1605107,N,01618.1007458,E,160002.00,A,D*69
$GPGGA,160002.00,4742.1605107,N,01618.1007458,E,2,38,0.4,708.7108,M,43.2066,M,2.2,0136*4B
$GNGNS,160002.00,4742.1605107,N,01618.1007458,E,DAAA,38,0.4,708.7108,43.2066,,*53
$GPGNS,160002.00,,,,,,10,,,,2.2,136*7D
$GLGNS,160002.00,,,,,,07,,,,,*7D
$GAGNS,160002.00,,,,,,07,,,,,*70
$GBGNS,160002.00,,,,,,14,,,,,*71
$GPLLQ,160002.00,010125,,M,,M,1,38,1.234,,M*1B
$GPVTG,,T,,M,0.00,N,0.00,K,D*26
$GPHDT,,T*1B
$GPTHS,,V*0E
$GPROT,,V*08
$PSSN,HRP,160002.00,010125,,,,,,,00,0,,*64
$PTNL,AVR,160002.00,,Yaw,,Tilt,,,,0,,00*32
$GPGSA,A,3,05,11,12,18,20,25,26,28,29,31,,,0.8,0.4,0.6*35
$GPGSA,A,3,71,78,79,80,81,82,88,,,,,,0.8,0.4,0.6*34
$GPGSA,A,3,13,15,21,27,29,30,34,,,,,,0.8,0.4,0.6*37
$GPGSA,A,3,05,08,10,11,12,13,23,24,25,34,38,43,0.8,0.4,0.6*3E
$GPGSA,A,3,44,60,,,,,,,,,,,0.8,0.4,0.6*3E
$GPGST,160002.00,2.204,0.591,0.421,12.682,0.584,0.431,0.998*64
$GPGBS,160002.00,4.303,2.090,7.341,10,0.0001,-11.233,15.577*7A
$GPGRS,160002.00,1,0.7,-0.5,0.3,-0.0,0.3,-0.1,-0.1,-0.3,-0.3,0.5,,*4C
$GPGRS,160002.00,1,0.7,-0.9,1.1,-2.2,1.9,0.7,-0.5,,,,,*4C
$GPGRS,160002.00,1,-0.8,0.7,0.5,0.3,-1.2,0.4,-0.3,,,,,*45
$GPGRS,160002.00,1,0.9,0.6,-11.2,1.5,1.0,0.7,-0.4,0.5,-0.7,-0.3,-0.5,0.1*58
$GPGRS,160002.00,1,-0.4,-1.3,,,,,,,,,,*4D
$GPGSV,5,1,20,29,83,016,50,12,16,115,41,11,16,041,40,05,18,097,43*7A
$GPGSV,5,2,20,18,33,186,45,26,28,300,43,20,21,061,41,31,43,291,47*7E
$GPGSV,5,3,20,28,51,250,47,25,55,120,48,04,04,337,37,36,35,170,45*78
$GPGSV,5,4,20,58,13,245,37,40,23,133,37,34,31,208,43,49,34,195,45*7C
$GPGSV,5,5,20,57,05,113,39,41,07,108,35,61,03,257,39*46
$GLGSV,2,1,08,79,83,324,52,82,24,213,46,80,27,320,48,88,46,040,50*64
$GLGSV,2,2,08,78,39,140,51,81,74,207,52,72,03,033,38,71,08,348,43*6A
$GAGSV,3,1,10,27,80,317,48,13,16,192,40,19,13,293,33,34,44,057,45*62
$GAGSV,3,2,10,21,26,298,41,30,43,112,46,15,57,147,48,04,03,346,35*65
$GAGSV,3,3,10,29,07,251,38,36,01,030,25*68
$GBGSV,5,1,20,34,80,086,51,24,18,148,43,56,12,066,,28,33,211,*65
$GBGSV,5,2,20,05,21,129,38,44,25,054,43,38,27,060,43,23,47,300,48*6A
$GBGSV,5,3,20,13,30,085,43,43,46,224,49,08,31,076,41,31,42,073,*66
$GBGSV,5,4,20,25,66,187,51,12,50,056,46,11,70,209,49,19,00,330,32*6A
$GBGSV,5,5,20,37,00,317,,02,06,107,35,10,07,082,35,60,10,109,41*6C
$GPGGA,160002.00,,,,,0,00,,,M,,M,,*4D
$PTNL,GGK,160002.00,010125,4742.1605107,N,01618.1007458,E,1,38,0.8,EHT751.9173,M*43
$GPGGQ,160002.00,010125,4742.1605107,N,01618.1007458,E,1,38,1.234,708.7108,M*3F
$GPGFA,160002.00,5.621,8.185,0.591,0.421,12.682,0.998,,VVV*3F
$GPLLK,160002.00,010125,,M,,M,1,38,0.9,,M*0C
$GNGMP,160002.00,,,,,DAAA,38,0.4,,,,*5C
$GPGMP,160002.00,,,,,,10,,,,2.2,136*7D
$GLGMP,160002.00,,,,,,07,,,,,*7D
$GAGMP,160002.00,,,,,,07,,,,,*70
$GBGMP,160002.00,,,,,,14,,,,,*71
$PSSN,SNC,[0,316820000,2347]*4A
$GPZDA,160007.00,01,01,2025,,*63
$GPDTM,W84,,00.0000000,N,00.0000000,E,00.0000000,W84*5F
$PSSN,TFM,160007.00,,,,*6F
$GPRMC,160007.00,A,4742.1605108,N,01618.1007439,E,0.0,,010125,5.1,E,D*15
$GPGLL,4742.1605108,N,01618.1007439,E,160007.00,A,D*64
$GPGGA,160007.00,4742.1605108,N,01618.1007439,E,2,38,0.4,708.7097,M,43.2066,M,2.0,0136*43
$GNGNS,160007.00,4742.1605108,N,01618.1007439,E,DAAA,38,0.4,708.7097,43.2066,,*59
$GPGNS,160007.00,,,,,,10,,,,2.0,136*7A
$GLGNS,160007.00,,,,,,07,,,,,*78
$GAGNS,160007.00,,,,,,07,,,,,*75
$GBGNS,160007.00,,,,,,14,,,,,*74
$GPLLQ,160007.00,010125,,M,,M,1,38,1.234,,M*1E
$GPVTG,,T,,M,0.00,N,0.01,K,D*27
$GPHDT,,T*1B
$GPTHS,,V*0E
$GPROT,,V*08
$PSSN,HRP,160007.00,010125,,,,,,,00,0,,*61
$PTNL,AVR,160007.00,,Yaw,,Tilt,,,,0,,00*37
$GPGSA,A,3,05,11,12,18,20,25,26,28,29,31,,,0.8,0.4,0.6*35
$GPGSA,A,3,71,78,79,80,81,82,88,,,,,,0.8,0.4,0.6*34
$GPGSA,A,3,13,15,21,27,29,30,34,,,,,,0.8,0.4,0.6*37
$GPGSA,A,3,05,08,10,11,12,13,23,24,25,34,38,43,0.8,0.4,0.6*3E
$GPGSA,A,3,44,60,,,,,,,,,,,0.8,0.4,0.6*3E
$GPGST,160007.00,2.074,0.589,0.419,13.003,0.581,0.430,1.000*65
$GPGBS,160007.00,4.296,2.101,7.382,10,0.0001,-10.097,15.579*77
$GPGRS,160007.00,1,0.5,-0.7,0.5,-0.1,0.4,-0.1,-0.2,-0.5,-0.0,0.4,,*4E
$GPGRS,160007.00,1,-0.5,-1.4,1.1,-3.1,1.7,1.2,-0.5,,,,,*62
$GPGRS,160007.00,1,-0.9,0.7,0.4,0.2,-1.6,0.1,-0.1,,,,,*42
$GPGRS,160007.00,1,0.5,0.4,-10.1,1.5,1.2,0.0,-0.4,0.6,-0.7,-0.4,-0.4,-0.1*7C
$GPGRS,160007.00,1,-0.5,-1.4,,,,,,,,,,*4E
$GPGSV,5,1,20,29,83,016,50,12,16,115,41,11,16,041,40,05,18,097,42*7B
$GPGSV,5,2,20,18,33,186,45,26,28,300,43,20,21,061,41,31,43,291,47*7E
$GPGSV,5,3,20,28,51,250,48,25,54,120,48,04,04,337,38,36,35,170,45*79
$GPGSV,5,4,20,58,13,245,36,40,23,133,37,34,31,208,43,49,34,195,45*7D
$GPGSV,5,5,20,57,05,113,39,41,07,108,35,61,03,257,39*46
$GLGSV,2,1,08,79,83,324,52,82,24,213,48,80,27,320,48,88,46,040,51*6B
$GLGSV,2,2,08,78,39,140,51,81,74,207,52,72,03,033,38,71,08,348,42*6B
$GAGSV,3,1,10,27,80,317,48,13,16,192,40,19,13,293,33,34,44,057,46*61
$GAGSV,3,2,10,21,26,298,42,30,43,112,46,15,57,147,48,04,03,346,35*66
$GAGSV,3,3,10,29,07,251,38,36,01,030,27*6A
$GBGSV,5,1,20,34,80,086,51,24,18,148,43,56,12,066,,28,33,211,*65
$GBGSV,5,2,20,05,21,129,38,44,25,054,43,38,27,060,43,23,47,300,48*6A
$GBGSV,5,3,20,13,30,085,43,43,46,224,49,08,31,076,41,31,42,073,*66
$GBGSV,5,4,20,25,66,187,51,12,50,056,46,11,70,209,49,19,00,330,32*6A
$GBGSV,5,5,20,37,00,317,,02,06,107,35,10,07,082,36,60,10,109,41*6F
$GPGGA,160007.00,,,,,0,00,,,M,,M,,*48
$PTNL,GGK,160007.00,010125,4742.1605108,N,01618.1007439,E,1,38,0.8,EHT751.9163,M*4F
$GPGGQ,160007.00,010125,4742.1605108,N,01618.1007439,E,1,38,1.234,708.7097,M*35
$GPGFA,160007.00,5.596,8.198,0.589,0.419,13.003,1.000,,VVV*3C
$GPLLK,160007.00,010125,,M,,M,1,38,0.9,,M*09
$GNGMP,160007.00,,,,,DAAA,38,0.4,,,,*59
$GPGMP,160007.00,,,,,,10,,,,2.0,136*7A
$GLGMP,160007.00,,,,,,07,,,,,*78
$GAGMP,160007.00,,,,,,07,,,,,*75
$GBGMP,160007.00,,,,,,14,,,,,*74
$PSSN,SNC,[0,316825000,2347]*4F
$GPZDA,160012.00,01,01,2025,,*67
$GPDTM,W84,,00.0000000,N,00.0000000,E,00.0000000,W84*5F
$PSSN,TFM,160012.00,,,,*6B
$GPRMC,160012.00,A,4742.1605144,N,01618.1007425,E,0.0,,010125,5.1,E,D*14
$GPGLL,4742.1605144,N,01618.1007425,E,160012.00,A,D*65
$GPGGA,160012.00,4742.1605144,N,01618.1007425,E,2,38,0.4,708.7110,M,43.2066,M,3.0,0136*4D
$GNGNS,160012.00,4742.1605144,N,01618.1007425,E,DAAA,38,0.4,708.7110,43.2066,,*56
$GPGNS,160012.00,,,,,,10,,,,3.0,136*7F
$GLGNS,160012.00,,,,,,07,,,,,*7C
$GAGNS,160012.00,,,,,,07,,,,,*71
$GBGNS,160012.00,,,,,,14,,,,,*70
$GPLLQ,160012.00,010125,,M,,M,1,38,1.223,,M*1C
$GPVTG,,T,,M,0.01,N,0.02,K,D*25
$GPHDT,,T*1B
$GPTHS,,V*0E
$GPROT,,V*08
$PSSN,HRP,160012.00,010125,,,,,,,00,0,,*65
$PTNL,AVR,160012.00,,Yaw,,Tilt,,,,0,,00*33
$GPGSA,A,3,05,11,12,18,20,25,26,28,29,31,,,0.8,0.4,0.6*35
$GPGSA,A,3,71,78,79,80,81,82,88,,,,,,0.8,0.4,0.6*34
$GPGSA,A,3,13,15,21,27,29,30,34,,,,,,0.8,0.4,0.6*37
$GPGSA,A,3,05,08,10,11,12,13,23,24,25,34,38,43,0.8,0.4,0.6*3E
$GPGSA,A,3,44,60,,,,,,,,,,,0.8,0.4,0.6*3E
$GPGST,160012.00,2.132,0.569,0.421,12.389,0.563,0.429,0.997*65
$GPGBS,160012.00,4.097,2.179,7.497,11,0.0001,-0.980,1.459*75
$GPGRS,160012.00,1,0.6,-1.0,0.5,0.2,0.2,-0.1,0.1,-0.4,-0.2,0.3,,*4D
$GPGRS,160012.00,1,-0.6,-1.3,1.1,-2.2,1.9,2.3,-0.4,,,,,*6D
$GPGRS,160012.00,1,-1.0,0.6,0.7,0.2,-1.6,0.3,0.2,,,,,*60
$GPGRS,160012.00,1,0.9,-0.0,-10.4,1.7,1.1,-0.1,-0.3,0.7,-0.8,-0.5,-0.5,-0.1*7C
$GPGRS,160012.00,1,-1.0,-0.9,,,,,,,,,,*42
$GPGSV,5,1,20,29,83,016,50,12,16,115,41,11,16,041,40,05,18,097,42*7B
$GPGSV,5,2,20,18,33,186,45,26,28,300,43,20,21,061,40,31,43,291,47*7F
$GPGSV,5,3,20,28,51,250,47,25,54,120,48,04,04,337,37,36,35,170,45*79
$GPGSV,5,4,20,58,13,245,37,40,23,133,37,34,31,208,43,49,34,195,45*7C
$GPGSV,5,5,20,57,05,113,39,41,07,108,35,61,03,257,39*46
$GLGSV,2,1,08,79,83,324,52,82,24,213,47,80,27,320,48,88,46,040,51*64
$GLGSV,2,2,08,78,39,140,50,81,74,207,52,72,03,033,38,71,08,348,43*6B
$GAGSV,3,1,10,27,80,318,48,13,16,192,39,19,13,293,33,34,44,057,46*60
$GAGSV,3,2,10,21,26,298,41,30,43,112,46,15,57,147,48,04,03,346,35*65
$GAGSV,3,3,10,29,07,251,38,36,01,030,25*68
$GBGSV,5,1,20,34,80,086,51,24,18,148,43,56,12,066,,28,33,211,*65
$GBGSV,5,2,20,05,21,129,38,44,25,054,43,38,27,060,43,23,47,300,49*6B
$GBGSV,5,3,20,13,30,085,43,43,46,224,48,08,31,076,40,31,42,073,*66
$GBGSV,5,4,20,25,66,187,51,12,50,056,46,11,70,209,49,19,00,330,31*69
$GBGSV,5,5,20,37,00,317,,02,06,107,34,10,07,082,36,60,10,109,41*6E
$GPGGA,160012.00,,,,,0,00,,,M,,M,,*4C
$PTNL,GGK,160012.00,010125,4742.1605144,N,01618.1007425,E,1,38,0.8,EHT751.9176,M*4A
$GPGGQ,160012.00,010125,4742.1605144,N,01618.1007425,E,1,38,1.223,708.7110,M*3C
$GPGFA,160012.00,5.410,8.174,0.569,0.421,12.389,0.997,,VVV*36
$GPLLK,160012.00,010125,,M,,M,1,38,0.9,,M*0D
$GNGMP,160012.00,,,,,DAAA,38,0.4,,,,*5D
$GPGMP,160012.00,,,,,,10,,,,3.0,136*7F
$GLGMP,160012.00,,,,,,07,,,,,*7C
$GAGMP,160012.00,,,,,,07,,,,,*71
$GBGMP,160012.00,,,,,,14,,,,,*70
$PSSN,SNC,[0,316830000,2347]*4B
$GPZDA,160017.00,01,01,2025,,*62
$GPDTM,W84,,00.0000000,N,00.0000000,E,00.0000000,W84*5F
$PSSN,TFM,160017.00,,,,*6E
$GPRMC,160017.00,A,4742.1605152,N,01618.1007410,E,0.0,,010125,5.1,E,D*10
$GPGLL,4742.1605152,N,01618.1007410,E,160017.00,A,D*61
$GPGGA,160017.00,4742.1605152,N,01618.1007410,E,2,38,0.4,708.7150,M,43.2066,M,2.8,0136*44
$GNGNS,160017.00,4742.1605152,N,01618.1007410,E,DAAA,38,0.4,708.7150,43.2066,,*56
$GPGNS,160017.00,,,,,,10,,,,2.8,136*73
$GLGNS,160017.00,,,,,,07,,,,,*79
$GAGNS,160017.00,,,,,,07,,,,,*74
$GBGNS,160017.00,,,,,,14,,,,,*75
$GPLLQ,160017.00,010125,,M,,M,1,38,1.222,,M*18
$GPVTG,,T,,M,0.00,N,0.01,K,D*27
$GPHDT,,T*1B
$GPTHS,,V*0E
$GPROT,,V*08
$PSSN,HRP,160017.00,010125,,,,,,,00,0,,*60
$PTNL,AVR,160017.00,,Yaw,,Tilt,,,,0,,00*36
$GPGSA,A,3,05,11,12,18,20,25,26,28,29,31,,,0.8,0.4,0.6*35
$GPGSA,A,3,71,78,79,80,81,82,88,,,,,,0.8,0.4,0.6*34
$GPGSA,A,3,13,15,21,27,29,30,34,,,,,,0.8,0.4,0.6*37
$GPGSA,A,3,05,08,10,11,12,13,23,24,25,34,38,43,0.8,0.4,0.6*3E
$GPGSA,A,3,44,60,,,,,,,,,,,0.8,0.4,0.6*3E
$GPGST,160017.00,2.022,0.567,0.422,11.402,0.562,0.428,0.997*6A
$GPGBS,160017.00,4.078,2.167,7.530,10,0.0001,-9.903,15.583*42
$GPGRS,160017.00,1,0.6,-0.7,0.4,0.0,0.0,-0.1,0.3,-0.5,-0.2,0.5,,*4A
$GPGRS,160017.00,1,1.6,-0.9,1.0,-1.8,2.0,1.4,-0.7,,,,,*4A
$GPGRS,160017.00,1,-1.0,0.7,0.7,0.3,-1.9,0.4,0.1,,,,,*6E
$GPGRS,160017.00,1,1.1,0.3,-9.9,1.7,0.6,-0.3,-0.0,-0.6,-0.4,-0.2,-0.8,0.2*68
$GPGRS,160017.00,1,-0.8,-1.0,,,,,,,,,,*46
$GPGSV,5,1,20,29,83,017,50,12,16,115,41,11,16,041,40,05,18,097,41*79
$GPGSV,5,2,20,18,33,186,45,26,28,300,43,20,21,061,42,31,43,291,47*7D
$GPGSV,5,3,20,28,51,250,48,25,54,120,48,04,04,337,37,36,35,170,45*76
$GPGSV,5,4,20,58,13,245,37,40,23,133,37,34,31,208,43,49,34,195,45*7C
$GPGSV,5,5,20,57,05,113,39,41,07,108,34,61,03,257,38*46
$GLGSV,2,1,08,79,84,324,52,82,24,213,46,80,27,320,48,88,46,040,51*62
$GLGSV,2,2,08,78,39,140,51,81,74,207,52,72,03,033,39,71,08,348,43*6B
$GAGSV,3,1,10,27,80,318,49,13,16,192,40,19,13,293,33,34,43,057,46*68
$GAGSV,3,2,10,21,26,298,42,30,43,112,46,15,57,147,48,04,03,346,35*66
$GAGSV,3,3,10,29,07,251,37,36,01,030,25*67
$GBGSV,5,1,20,34,80,086,51,24,18,148,43,56,12,066,,28,33,211,*65
$GBGSV,5,2,20,05,21,129,38,44,25,055,44,38,27,060,44,23,47,300,49*6A
$GBGSV,5,3,20,13,30,085,43,43,46,224,48,08,31,076,40,31,42,073,*66
$GBGSV,5,4,20,25,66,187,51,12,50,056,46,11,70,209,49,19,02,015,31*6F
$GBGSV,5,5,20,37,00,317,,02,06,107,35,10,07,082,36,60,10,109,41*6F
$GPGGA,160017.00,,,,,0,00,,,M,,M,,*49
$PTNL,GGK,160017.00,010125,4742.1605152,N,01618.1007410,E,1,38,0.8,EHT751.9216,M*4B
$GPGGQ,160017.00,010125,4742.1605152,N,01618.1007410,E,1,38,1.222,708.7150,M*3D
$GPGFA,160017.00,5.394,8.172,0.567,0.422,11.402,0.997,,VVV*34
$GPLLK,160017.00,010125,,M,,M,1,38,0.9,,M*08
$GNGMP,160017.00,,,,,DAAA,38,0.4,,,,*58
$GPGMP,160017.00,,,,,,10,,,,2.8,136*73
$GLGMP,160017.00,,,,,,07,,,,,*79
$GAGMP,160017.00,,,,,,07,,,,,*74
$GBGMP,160017.00,,,,,,14,,,,,*75
$PSSN,SNC,[0,316835000,2347]*4E
$GPZDA,160022.00,01,01,2025,,*64
$GPDTM,W84,,00.0000000,N,00.0000000,E,00.0000000,W84*5F
$PSSN,TFM,160022.00,,,,*68
$GPRMC,160022.00,A,4742.1605157,N,01618.1007407,E,0.0,,010125,5.1,E,D*15
$GPGLL,4742.1605157,N,01618.1007407,E,160022.00,A,D*64
$GPGGA,160022.00,4742.1605157,N,01618.1007407,E,2,38,0.4,708.7152,M,43.2066,M,2.2,0136*49
$GNGNS,160022.00,4742.1605157,N,01618.1007407,E,DAAA,38,0.4,708.7152,43.2066,,*51
$GPGNS,160022.00,,,,,,10,,,,2.2,136*7F
$GLGNS,160022.00,,,,,,07,,,,,*7F
$GAGNS,160022.00,,,,,,07,,,,,*72
$GBGNS,160022.00,,,,,,14,,,,,*73
$GPLLQ,160022.00,010125,,M,,M,1,38,1.211,,M*1E
$GPVTG,,T,,M,0.00,N,0.01,K,D*27
$GPHDT,,T*1B
$GPTHS,,V*0E
$GPROT,,V*08
$PSSN,HRP,160022.00,010125,,,,,,,00,0,,*66
$PTNL,AVR,160022.00,,Yaw,,Tilt,,,,0,,00*30
$GPGSA,A,3,05,11,12,18,20,25,26,28,29,31,,,0.8,0.4,0.6*35
$GPGSA,A,3,71,78,79,80,81,82,88,,,,,,0.8,0.4,0.6*34
$GPGSA,A,3,13,15,21,27,29,30,34,,,,,,0.8,0.4,0.6*37
$GPGSA,A,3,05,08,10,11,12,13,23,24,25,34,38,43,0.8,0.4,0.6*3E
$GPGSA,A,3,44,60,,,,,,,,,,,0.8,0.4,0.6*3E
$GPGST,160022.00,2.092,0.564,0.418,11.091,0.559,0.425,0.987*67
$GPGBS,160022.00,4.078,2.126,7.411,10,0.0001,-9.733,15.585*48
$GPGRS,160022.00,1,0.6,-0.7,0.4,0.0,0.3,-0.1,0.1,-0.3,-0.2,0.2,,*4C
$GPGRS,160022.00,1,2.3,-1.0,1.0,-2.4,2.4,1.7,-1.4,,,,,*48
$GPGRS,160022.00,1,-1.0,0.6,0.9,0.2,-2.1,0.2,0.2,,,,,*68
$GPGRS,160022.00,1,1.2,1.3,-9.7,1.7,0.5,0.2,-0.4,-0.7,-0.6,-0.2,-0.8,0.5*4D
$GPGRS,160022.00,1,-0.6,-1.0,,,,,,,,,,*4E
$GPGSV,5,1,20,29,83,017,50,12,16,115,41,11,16,041,40,05,18,096,41*78
$GPGSV,5,2,20,18,33,186,46,26,28,300,44,20,21,061,41,31,43,291,47*7A
$GPGSV,5,3,20,28,51,250,47,25,54,120,48,04,04,336,37,36,35,170,45*78
$GPGSV,5,4,20,58,13,245,37,40,23,133,37,34,31,208,43,49,34,195,45*7C
$GPGSV,5,5,20,57,05,113,39,41,07,108,35,61,03,257,39*46
$GLGSV,2,1,08,79,84,324,52,82,24,213,46,80,27,320,49,88,46,040,50*62
$GLGSV,2,2,08,78,39,140,50,81,74,207,52,72,03,033,38,71,08,348,44*6C
$GAGSV,3,1,10,27,80,318,49,13,16,192,40,19,13,293,33,34,43,057,46*68
$GAGSV,3,2,10,21,26,298,42,30,43,112,46,15,57,147,48,04,03,346,36*65
$GAGSV,3,3,10,29,07,250,38,36,01,030,24*68
$GBGSV,5,1,20,34,80,086,51,24,18,148,43,56,12,066,,28,33,211,*65
$GBGSV,5,2,20,05,21,129,38,44,25,055,44,38,27,060,44,23,47,300,49*6A
$GBGSV,5,3,20,13,30,085,43,08,31,076,41,43,46,224,49,31,42,073,*66
$GBGSV,5,4,20,25,66,187,51,12,50,056,46,11,70,209,49,19,02,015,31*6F
$GBGSV,5,5,20,10,07,082,36,02,06,107,35,37,01,317,,60,10,109,41*6E
$GPGGA,160022.00,,,,,0,00,,,M,,M,,*4F
$PTNL,GGK,160022.00,010125,4742.1605157,N,01618.1007407,E,1,38,0.8,EHT751.9217,M*4F
$GPGGQ,160022.00,010125,4742.1605157,N,01618.1007407,E,1,38,1.211,708.7152,M*3A
$GPGFA,160022.00,5.364,8.090,0.564,0.418,11.091,0.987,,VVV*35
$GPLLK,160022.00,010125,,M,,M,1,38,0.9,,M*0E
$GNGMP,160022.00,,,,,DAAA,38,0.4,,,,*5E
$GPGMP,160022.00,,,,,,10,,,,2.2,136*7F
$GLGMP,160022.00,,,,,,07,,,,,*7F
$GAGMP,160022.00,,,,,,07,,,,,*72
$GBGMP,160022.00,,,,,,14,,,,,*73
$PSSN,SNC,[0,316840000,2347]*4C
$GPZDA,160027.00,01,01,2025,,*61
$GPDTM,W84,,00.0000000,N,00.0000000,E,00.0000000,W84*5F
$PSSN,TFM,160027.00,,,,*6D
$GPRMC,160027.00,A,4742.1605161,N,01618.1007388,E,0.0,,010125,5.1,E,D*15
$GPGLL,4742.1605161,N,01618.1007388,E,160027.00,A,D*64
$GPGGA,160027.00,4742.1605161,N,01618.1007388,E,2,38,0.4,708.7177,M,43.2066,M,2.0,0136*4C
$GNGNS,160027.00,4742.1605161,N,01618.1007388,E,DAAA,38,0.4,708.7177,43.2066,,*56
$GPGNS,160027.00,,,,,,10,,,,2.0,136*78
$GLGNS,160027.00,,,,,,07,,,,,*7A
$GAGNS,160027.00,,,,,,07,,,,,*77
$GBGNS,160027.00,,,,,,14,,,,,*76
$GPLLQ,160027.00,010125,,M,,M,1,38,1.211,,M*1B
$GPVTG,,T,,M,0.01,N,0.01,K,D*26
$GPHDT,,T*1B
$GPTHS,,V*0E
$GPROT,,V*08
$PSSN,HRP,160027.00,010125,,,,,,,00,0,,*63
$PTNL,AVR,160027.00,,Yaw,,Tilt,,,,0,,00*35
$GPGSA,A,3,05,11,12,18,20,25,26,28,29,31,,,0.8,0.4,0.6*35
$GPGSA,A,3,71,78,79,80,81,82,88,,,,,,0.8,0.4,0.6*34
$GPGSA,A,3,13,15,21,27,29,30,34,,,,,,0.8,0.4,0.6*37
$GPGSA,A,3,05,08,10,11,12,13,23,24,25,34,38,43,0.8,0.4,0.6*3E
$GPGSA,A,3,44,60,,,,,,,,,,,0.8,0.4,0.6*3E
$GPGST,160027.00,2.054,0.561,0.417,11.444,0.556,0.424,0.988*6F
$GPGBS,160027.00,4.062,2.152,7.451,05,0.0001,0.986,1.293*54
$GPGRS,160027.00,1,1.0,-0.2,0.5,0.0,-0.6,-0.1,0.4,-0.4,-0.2,0.1,,*63
$GPGRS,160027.00,1,1.2,-1.5,1.1,-1.9,2.3,1.6,-1.3,,,,,*44
$GPGRS,160027.00,1,-0.7,0.3,0.5,0.2,-2.0,0.2,0.3,,,,,*62
$GPGRS,160027.00,1,1.0,1.9,-9.7,1.6,0.6,0.5,-0.3,-0.8,-0.5,-0.3,-1.0,0.8*4B
$GPGRS,160027.00,1,-0.5,-1.0,,,,,,,,,,*48
$GPGSV,5,1,20,29,83,017,50,12,16,115,41,11,16,041,41,05,18,096,41*79
$GPGSV,5,2,20,18,33,186,46,26,28,300,43,20,21,061,40,31,43,291,47*7C
$GPGSV,5,3,20,28,51,250,47,25,54,120,48,04,04,336,37,36,35,170,45*78
$GPGSV,5,4,20,58,13,245,37,40,23,133,37,34,31,208,43,49,34,195,45*7C
$GPGSV,5,5,20,57,05,113,39,41,07,108,35,61,03,257,39*46
$GLGSV,2,1,08,79,84,323,52,82,24,213,47,80,27,320,49,88,46,040,50*64
$GLGSV,2,2,08,78,39,140,50,81,74,207,52,72,03,033,38,71,08,348,44*6C
$GAGSV,3,1,10,27,81,318,49,13,16,192,40,19,13,293,34,34,43,057,46*6E
$GAGSV,3,2,10,21,26,298,42,30,43,112,46,15,57,147,48,04,03,346,36*65
$GAGSV,3,3,10,29,07,250,38,36,01,030,26*6A
$GBGSV,5,1,20,34,80,086,51,24,17,148,42,56,12,066,,05,21,129,38*64
$GBGSV,5,2,20,28,33,211,,44,25,055,44,38,27,060,44,23,47,300,49*65
$GBGSV,5,3,20,13,30,085,43,08,31,076,41,43,46,224,49,31,42,073,*66
$GBGSV,5,4,20,25,66,187,52,12,50,055,46,11,70,209,49,19,02,015,31*6F
$GBGSV,5,5,20,37,01,317,,02,06,107,35,10,07,082,36,60,10,109,41*6E
$GPGGA,160027.00,,,,,0,00,,,M,,M,,*4A
$PTNL,GGK,160027.00,010125,4742.1605161,N,01618.1007388,E,1,38,0.8,EHT751.9242,M*4F
$GPGGQ,160027.00,010125,4742.1605161,N,01618.1007388,E,1,38,1.211,708.7177,M*3D
$GPGFA,160027.00,5.338,8.102,0.561,0.417,11.444,0.988,,VVV*3A
$GPLLK,160027.00,010125,,M,,M,1,38,0.9,,M*0B
$GNGMP,160027.00,,,,,DAAA,38,0.4,,,,*5B
$GPGMP,160027.00,,,,,,10,,,,2.0,136*78
$GLGMP,160027.00,,,,,,07,,,,,*7A
$GAGMP,160027.00,,,,,,07,,,,,*77
$GBGMP,160027.00,,,,,,14,,,,,*76
$PSSN,SNC,[0,316845000,2347]*49
$GPZDA,160032.00,01,01,2025,,*65
$GPDTM,W84,,00.0000000,N,00.0000000,E,00.0000000,W84*5F
$PSSN,TFM,160032.00,,,,*69
$GPRMC,160032.00,A,4742.1605181,N,01618.1007363,E,0.0,,010125,5.1,E,D*1A
$GPGLL,4742.1605181,N,01618.1007363,E,160032.00,A,D*6B
$GPGGA,160032.00,4742.1605181,N,01618.1007363,E,2,38,0.4,708.7229,M,43.2066,M,3.0,0136*4A
$GNGNS,160032.00,4742.1605181,N,01618.1007363,E,DAAA,38,0.4,708.7229,43.2066,,*51
$GPGNS,160032.00,,,,,,10,,,,3.0,136*7D
$GLGNS,160032.00,,,,,,07,,,,,*7E
$GAGNS,160032.00,,,,,,07,,,,,*73
$GBGNS,160032.00,,,,,,14,,,,,*72
$GPLLQ,160032.00,010125,,M,,M,1,38,1.220,,M*1D
$GPVTG,,T,,M,0.00,N,0.01,K,D*27
$GPHDT,,T*1B
$GPTHS,,V*0E
$GPROT,,V*08
$PSSN,HRP,160032.00,010125,,,,,,,00,0,,*67
$PTNL,AVR,160032.00,,Yaw,,Tilt,,,,0,,00*31
$GPGSA,A,3,05,11,12,18,20,25,26,28,29,31,,,0.8,0.4,0.6*35
$GPGSA,A,3,71,78,79,80,81,82,88,,,,,,0.8,0.4,0.6*34
$GPGSA,A,3,13,15,21,27,29,30,34,,,,,,0.8,0.4,0.6*37
$GPGSA,A,3,05,08,10,11,12,13,23,24,25,34,38,43,0.8,0.4,0.6*3E
$GPGSA,A,3,44,60,,,,,,,,,,,0.8,0.4,0.6*3E
$GPGST,160032.00,2.032,0.564,0.421,11.671,0.559,0.427,0.997*6D
$GPGBS,160032.00,4.086,2.179,7.526,05,0.0001,1.067,1.300*5E
$GPGRS,160032.00,1,1.1,-0.5,0.6,-0.3,-0.6,0.1,0.2,-0.4,-0.0,-0.0,,*49
$GPGRS,160032.00,1,1.2,-1.0,0.8,-1.6,2.3,1.5,-1.3,,,,,*41
$GPGRS,160032.00,1,-0.8,0.8,0.4,0.3,-1.8,0.3,0.3,,,,,*68
$GPGRS,160032.00,1,0.8,1.9,-9.7,2.0,0.5,0.7,-0.1,-0.9,-0.4,-0.1,-1.1,0.8*43
$GPGRS,160032.00,1,-0.5,-0.8,,,,,,,,,,*45
$GPGSV,5,1,20,29,83,017,50,12,16,115,41,11,16,041,41,05,18,096,41*79
$GPGSV,5,2,20,18,33,186,45,26,28,300,43,20,21,061,40,31,43,291,47*7F
$GPGSV,5,3,20,28,51,250,47,25,54,120,48,04,04,336,37,36,35,170,45*78
$GPGSV,5,4,20,58,13,245,37,40,23,133,37,34,31,208,43,49,34,195,45*7C
$GPGSV,5,5,20,57,05,113,39,41,07,108,35,61,03,257,39*46
$GLGSV,2,1,08,79,84,323,52,82,24,213,47,80,27,320,49,88,46,040,50*64
$GLGSV,2,2,08,78,39,140,51,81,74,207,52,72,04,033,38,71,08,348,43*6D
$GAGSV,3,1,10,27,81,318,49,13,16,192,40,19,13,293,34,34,43,057,46*6E
$GAGSV,3,2,10,21,26,298,42,30,43,112,46,15,57,147,48,04,03,346,36*65
$GAGSV,3,3,10,29,07,250,37,36,01,030,19*69
$GBGSV,5,1,20,34,80,085,51,24,17,148,42,56,12,066,,05,21,129,38*67
$GBGSV,5,2,20,28,33,211,,44,25,055,44,38,27,060,44,23,47,300,49*65
$GBGSV,5,3,20,13,30,085,43,08,31,076,41,43,47,224,49,31,42,073,*67
$GBGSV,5,4,20,25,66,187,52,12,50,055,46,11,70,209,49,19,02,015,30*6E
$GBGSV,5,5,20,37,01,317,,02,06,107,35,10,07,082,36,60,10,109,41*6E
$GPGGA,160032.00,,,,,0,00,,,M,,M,,*4E
$PTNL,GGK,160032.00,010125,4742.1605181,N,01618.1007363,E,1,38,0.8,EHT751.9294,M*4B
$GPGGQ,160032.00,010125,4742.1605181,N,01618.1007363,E,1,38,1.220,708.7229,M*38
$GPGFA,160032.00,5.364,8.177,0.564,0.421,11.671,0.997,,VVV*3F
$GPLLK,160032.00,010125,,M,,M,1,38,0.9,,M*0F
$GNGMP,160032.00,,,,,DAAA,38,0.4,,,,*5F
$GPGMP,160032.00,,,,,,10,,,,3.0,136*7D
$GLGMP,160032.00,,,,,,07,,,,,*7E
$GAGMP,160032.00,,,,,,07,,,,,*73
$GBGMP,160032.00,,,,,,14,,,,,*72
$PSSN,SNC,[0,316850000,2347]*4D
$GPZDA,160037.00,01,01,2025,,*60
$GPDTM,W84,,00.0000000,N,00.0000000,E,00.0000000,W84*5F
$PSSN,TFM,160037.00,,,,*6C
$GPRMC,160037.00,A,4742.1605193,N,01618.1007313,E,0.0,,010125,5.1,E,D*1B
$GPGLL,4742.1605193,N,01618.1007313,E,160037.00,A,D*6A
$GPGGA,160037.00,4742.1605193,N,01618.1007313,E,2,38,0.4,708.7264,M,43.2066,M,2.8,0136*4B
$GNGNS,160037.00,4742.1605193,N,01618.1007313,E,DAAA,38,0.4,708.7264,43.2066,,*59
$GPGNS,160037.00,,,,,,10,,,,2.8,136*71
$GLGNS,160037.00,,,,,,07,,,,,*7B
$GAGNS,160037.00,,,,,,07,,,,,*76
$GBGNS,160037.00,,,,,,14,,,,,*77
$GPLLQ,160037.00,010125,,M,,M,1,38,1.223,,M*1B
$GPVTG,,T,,M,0.00,N,0.01,K,D*27
$GPHDT,,T*1B
$GPTHS,,V*0E
$GPROT,,V*08
$PSSN,HRP,160037.00,010125,,,,,,,00,0,,*62
$PTNL,AVR,160037.00,,Yaw,,Tilt,,,,0,,00*34
$GPGSA,A,3,05,11,12,18,20,25,26,28,29,31,,,0.8,0.4,0.6*35
$GPGSA,A,3,71,78,79,80,81,82,88,,,,,,0.8,0.4,0.6*34
$GPGSA,A,3,13,15,21,27,29,30,34,,,,,,0.8,0.4,0.6*37
$GPGSA,A,3,05,08,10,11,12,13,23,24,25,34,38,43,0.8,0.4,0.6*3E
$GPGSA,A,3,44,60,,,,,,,,,,,0.8,0.4,0.6*3E
$GPGST,160037.00,2.156,0.567,0.422,11.376,0.562,0.429,0.998*60
$GPGBS,160037.00,4.067,2.170,7.558,05,0.0001,1.458,1.309*55
$GPGRS,160037.00,1,1.5,-0.8,0.9,-0.3,0.4,-0.2,0.2,-0.5,-0.1,0.0,,*66
$GPGRS,160037.00,1,0.1,-0.6,1.2,-1.9,2.0,1.3,-1.3,,,,,*40
$GPGRS,160037.00,1,-0.9,0.8,0.2,0.4,-1.5,0.4,0.1,,,,,*65
$GPGRS,160037.00,1,1.0,1.7,-10.5,1.6,0.7,0.4,-0.3,-0.9,-0.6,-0.2,-1.4,0.7*76
$GPGRS,160037.00,1,-1.1,-0.8,,,,,,,,,,*45
$GPGSV,5,1,20,29,83,017,50,12,15,115,41,11,16,041,40,05,18,096,40*7A
$GPGSV,5,2,20,18,33,186,46,26,28,300,44,20,21,061,40,31,43,291,47*7B
$GPGSV,5,3,20,28,51,250,47,25,54,120,48,04,04,336,37,36,35,170,45*78
$GPGSV,5,4,20,58,13,245,36,40,23,133,37,34,31,208,43,49,34,195,45*7D
$GPGSV,5,5,20,57,05,113,39,41,07,108,35,61,03,257,39*46
$GLGSV,2,1,08,79,84,323,52,82,24,214,47,80,27,320,49,88,46,040,50*63
$GLGSV,2,2,08,78,39,140,51,81,74,207,52,72,04,033,38,71,08,348,44*6A
$GAGSV,3,1,10,27,81,318,49,13,16,192,40,19,13,293,34,34,43,057,46*6E
$GAGSV,3,2,10,21,26,298,42,30,43,112,46,15,57,147,48,04,03,346,36*65
$GAGSV,3,3,10,29,07,250,37,36,00,030,23*61
$GBGSV,5,1,20,34,80,085,51,24,17,148,42,56,12,066,,05,21,129,38*67
$GBGSV,5,2,20,28,33,211,,44,25,055,44,38,27,060,44,23,47,300,49*65
$GBGSV,5,3,20,13,30,085,43,08,31,076,41,43,47,224,49,31,42,073,*67
$GBGSV,5,4,20,25,66,187,52,12,50,055,46,11,70,209,49,19,02,015,31*6F
$GBGSV,5,5,20,37,01,317,,02,06,107,34,10,07,082,35,60,10,109,41*6C
$GPGGA,160037.00,,,,,0,00,,,M,,M,,*4B
$PTNL,GGK,160037.00,010125,4742.1605193,N,01618.1007313,E,1,38,0.8,EHT751.9330,M*45
$GPGGQ,160037.00,010125,4742.1605193,N,01618.1007313,E,1,38,1.223,708.7264,M*33
$GPGFA,160037.00,5.389,8.184,0.567,0.422,11.376,0.998,,VVV*38
$GPLLK,160037.00,010125,,M,,M,1,38,0.9,,M*0A
$GNGMP,160037.00,,,,,DAAA,38,0.4,,,,*5A
$GPGMP,160037.00,,,,,,10,,,,2.8,136*71
$GLGMP,160037.00,,,,,,07,,,,,*7B
$GAGMP,160037.00,,,,,,07,,,,,*76
$GBGMP,160037.00,,,,,,14,,,,,*77
$PSSN,SNC,[0,316855000,2347]*48
$GPZDA,160042.00,01,01,2025,,*62
$GPDTM,W84,,00.0000000,N,00.0000000,E,00.0000000,W84*5F
$PSSN,TFM,160042.00,,,,*6E
$GPRMC,160042.00,A,4742.1605201,N,01618.1007272,E,0.0,,010125,5.1,E,D*17
$GPGLL,4742.1605201,N,01618.1007272,E,160042.00,A,D*66
$GPGGA,160042.00,4742.1605201,N,01618.1007272,E,2,38,0.4,708.7272,M,43.2066,M,2.2,0136*4A
$GNGNS,160042.00,4742.1605201,N,01618.1007272,E,DAAA,38,0.4,708.7272,43.2066,,*52
$GPGNS,160042.00,,,,,,10,,,,2.2,136*79
$GLGNS,160042.00,,,,,,07,,,,,*79
$GAGNS,160042.00,,,,,,07,,,,,*74
$GBGNS,160042.00,,,,,,14,,,,,*75
$GPLLQ,160042.00,010125,,M,,M,1,38,1.213,,M*1A
$GPVTG,,T,,M,0.00,N,0.00,K,D*26
$GPHDT,,T*1B
$GPTHS,,V*0E
$GPROT,,V*08
$PSSN,HRP,160042.00,010125,,,,,,,00,0,,*60
$PTNL,AVR,160042.00,,Yaw,,Tilt,,,,0,,00*36
$GPGSA,A,3,05,11,12,18,20,25,26,28,29,31,,,0.8,0.4,0.6*35
$GPGSA,A,3,71,78,79,80,81,82,88,,,,,,0.8,0.4,0.6*34
$GPGSA,A,3,13,15,21,27,29,30,34,,,,,,0.8,0.4,0.6*37
$GPGSA,A,3,05,08,10,11,12,13,23,24,25,34,38,43,0.8,0.4,0.6*3E
$GPGSA,A,3,44,60,,,,,,,,,,,0.8,0.4,0.6*3E
$GPGST,160042.00,2.169,0.564,0.419,11.065,0.559,0.425,0.988*61
$GPGBS,160042.00,4.067,2.129,7.440,05,0.0001,1.116,1.318*5C
$GPGRS,160042.00,1,1.1,-1.0,0.9,-0.3,0.2,-0.2,-0.2,-0.2,-0.3,0.4,,*43
$GPGRS,160042.00,1,0.8,-1.0,1.2,-1.9,2.0,1.9,-1.1,,,,,*44
$GPGRS,160042.00,1,-0.9,0.6,0.0,0.4,-0.9,0.5,0.0,,,,,*66
$GPGRS,160042.00,1,1.1,1.4,-10.6,1.7,0.5,-0.0,-0.5,-1.2,-0.5,-0.3,-1.5,0.5*52
$GPGRS,160042.00,1,-1.0,-1.1,,,,,,,,,,*4E
$GPGSV,5,1,20,29,83,018,50,12,15,115,41,11,16,041,40,05,18,096,41*74
$GPGSV,5,2,20,18,33,186,45,26,29,300,43,20,21,060,40,31,43,290,47*7E
$GPGSV,5,3,20,28,51,250,48,25,54,120,49,04,04,336,37,36,35,170,45*76
$GPGSV,5,4,20,58,13,245,37,40,23,133,37,34,31,208,43,49,34,195,45*7C
$GPGSV,5,5,20,57,05,113,39,41,07,108,34,61,03,257,38*46
$GLGSV,2,1,08,79,84,323,52,82,24,214,46,80,27,320,48,88,46,040,50*63
$GLGSV,2,2,08,78,39,140,51,81,74,207,52,72,04,033,37,71,08,348,42*63
$GAGSV,3,1,10,27,81,318,48,13,16,192,40,19,13,293,34,34,43,057,46*6F
$GAGSV,3,2,10,21,26,298,42,30,43,112,46,15,57,147,48,04,03,346,37*64
$GAGSV,3,3,10,29,07,250,38,36,00,030,24*69
$GBGSV,5,1,20,34,80,085,51,24,17,148,42,56,12,066,,05,21,129,38*67
$GBGSV,5,2,20,28,33,211,,44,25,055,44,38,27,060,44,23,47,300,49*65
$GBGSV,5,3,20,13,30,085,43,08,31,076,41,43,47,224,49,31,42,073,*67
$GBGSV,5,4,20,25,66,187,52,12,50,055,46,11,70,209,49,19,02,015,31*6F
$GBGSV,5,5,20,37,01,317,,02,06,107,35,10,07,082,35,60,10,109,41*6D
$GPGGA,160042.00,,,,,0,00,,,M,,M,,*49
$PTNL,GGK,160042.00,010125,4742.1605201,N,01618.1007272,E,1,38,0.8,EHT751.9337,M*4E
$GPGGQ,160042.00,010125,4742.1605201,N,01618.1007272,E,1,38,1.213,708.7272,M*3B
$GPGFA,160042.00,5.362,8.105,0.564,0.419,11.065,0.988,,VVV*3D
$GPLLK,160042.00,010125,,M,,M,1,38,0.9,,M*08
$GNGMP,160042.00,,,,,DAAA,38,0.4,,,,*58
$GPGMP,160042.00,,,,,,10,,,,2.2,136*79
$GLGMP,160042.00,,,,,,07,,,,,*79
$GAGMP,160042.00,,,,,,07,,,,,*74
$GBGMP,160042.00,,,,,,14,,,,,*75
$PSSN,SNC,[0,316860000,2347]*4E
$GPZDA,160047.00,01,01,2025,,*67
$GPDTM,W84,,00.0000000,N,00.0000000,E,00.0000000,W84*5F
$PSSN,TFM,160047.00,,,,*6B
$GPRMC,160047.00,A,4742.1605229,N,01618.1007239,E,0.0,,010125,5.1,E,D*17
$GPGLL,4742.1605229,N,01618.1007239,E,160047.00,A,D*66
$GPGGA,160047.00,4742.1605229,N,01618.1007239,E,2,37,0.4,708.7302,M,43.2066,M,2.0,0136*41
$GNGNS,160047.00,4742.1605229,N,01618.1007239,E,DAAA,37,0.4,708.7302,43.2066,,*5B
$GPGNS,160047.00,,,,,,10,,,,2.0,136*7E
$GLGNS,160047.00,,,,,,07,,,,,*7C
$GAGNS,160047.00,,,,,,07,,,,,*71
$GBGNS,160047.00,,,,,,13,,,,,*77
$GPLLQ,160047.00,010125,,M,,M,1,37,1.212,,M*11
$GPVTG,,T,,M,0.00,N,0.01,K,D*27
$GPHDT,,T*1B
$GPTHS,,V*0E
$GPROT,,V*08
$PSSN,HRP,160047.00,010125,,,,,,,00,0,,*65
$PTNL,AVR,160047.00,,Yaw,,Tilt,,,,0,,00*33
$GPGSA,A,3,05,11,12,18,20,25,26,28,29,31,,,0.8,0.4,0.6*35
$GPGSA,A,3,71,78,79,80,81,82,88,,,,,,0.8,0.4,0.6*34
$GPGSA,A,3,13,15,21,27,29,30,34,,,,,,0.8,0.4,0.6*37
$GPGSA,A,3,05,08,11,12,13,23,24,25,34,38,43,44,0.8,0.4,0.6*3F
$GPGSA,A,3,60,,,,,,,,,,,,0.8,0.4,0.6*3E
$GPGST,160047.00,1.093,0.561,0.417,11.426,0.556,0.424,0.990*6C
$GPGBS,160047.00,4.052,2.152,7.489,05,0.0001,1.283,1.291*59
$GPGRS,160047.00,1,1.3,-1.4,0.9,-0.3,-0.2,-0.2,0.0,-0.3,-0.1,0.1,,*44
$GPGRS,160047.00,1,0.4,-1.4,1.1,-2.6,2.1,1.4,-0.5,,,,,*4F
$GPGRS,160047.00,1,-0.9,0.5,0.5,0.3,-1.1,0.4,0.3,,,,,*69
$GPGRS,160047.00,1,1.2,1.5,1.6,1.1,0.6,-0.3,-1.0,-0.5,0.0,-1.0,0.6,-0.6*67
$GPGRS,160047.00,1,-1.0,,,,,,,,,,,*48
$GPGSV,5,1,20,29,83,018,50,12,15,115,40,11,16,041,40,05,18,096,41*75
$GPGSV,5,2,20,18,34,186,45,26,29,300,43,20,21,060,40,31,43,290,47*79
$GPGSV,5,3,20,28,51,250,47,25,54,120,48,04,04,336,37,36,35,170,45*78
$GPGSV,5,4,20,58,13,245,37,40,23,133,37,34,31,208,43,49,34,195,45*7C
$GPGSV,5,5,20,57,05,113,39,41,07,108,35,61,03,257,38*47
$GLGSV,2,1,08,79,84,323,52,82,24,214,47,80,27,320,48,88,46,040,50*62
$GLGSV,2,2,08,78,39,140,50,81,75,207,52,72,04,033,37,71,08,348,43*62
$GAGSV,3,1,10,27,81,318,48,13,16,192,39,19,13,293,34,34,43,057,46*61
$GAGSV,3,2,10,21,26,298,42,30,43,112,46,15,57,147,48,04,03,346,37*64
$GAGSV,3,3,10,29,06,250,37,36,00,030,22*61
$GBGSV,5,1,20,34,80,085,51,24,17,148,41,56,12,067,,05,21,129,38*65
$GBGSV,5,2,20,28,33,211,,44,25,055,45,38,27,060,43,23,47,300,49*63
$GBGSV,5,3,20,13,30,085,43,08,31,076,41,43,47,224,49,31,42,073,*67
$GBGSV,5,4,20,25,66,187,51,12,50,055,47,11,70,209,49,19,02,015,32*6E
$GBGSV,5,5,20,37,01,317,,02,06,107,34,10,07,082,35,60,10,109,41*6C
$GPGGA,160047.00,,,,,0,00,,,M,,M,,*4C
$PTNL,GGK,160047.00,010125,4742.1605229,N,01618.1007239,E,1,37,0.8,EHT751.9368,M*4B
$GPGGQ,160047.00,010125,4742.1605229,N,01618.1007239,E,1,37,1.212,708.7302,M*33
$GPGFA,160047.00,5.335,8.120,0.561,0.417,11.426,0.990,,VVV*3C
$GPLLK,160047.00,010125,,M,,M,1,37,0.9,,M*02
$GNGMP,160047.00,,,,,DAAA,37,0.4,,,,*52
$GPGMP,160047.00,,,,,,10,,,,2.0,136*7E
$GLGMP,160047.00,,,,,,07,,,,,*7C
$GAGMP,160047.00,,,,,,07,,,,,*71
$GBGMP,160047.00,,,,,,13,,,,,*77
$PSSN,SNC,[0,316865000,2347]*4B
$GPZDA,160052.00,01,01,2025,,*63
$GPDTM,W84,,00.0000000,N,00.0000000,E,00.0000000,W84*5F
$PSSN,TFM,160052.00,,,,*6F
$GPRMC,160052.00,A,4742.1605221,N,01618.1007230,E,0.0,,010125,5.1,E,D*12
$GPGLL,4742.1605221,N,01618.1007230,E,160052.00,A,D*63
$GPGGA,160052.00,4742.1605221,N,01618.1007230,E,2,37,0.4,708.7379,M,43.2066,M,3.0,0136*49
$GNGNS,160052.00,4742.1605221,N,01618.1007230,E,DAAA,37,0.4,708.7379,43.2066,,*52
$GPGNS,160052.00,,,,,,10,,,,3.0,136*7B
$GLGNS,160052.00,,,,,,07,,,,,*78
$GAGNS,160052.00,,,,,,07,,,,,*75
$GBGNS,160052.00,,,,,,13,,,,,*73
$GPLLQ,160052.00,010125,,M,,M,1,37,1.222,,M*16
$GPVTG,,T,,M,0.00,N,0.01,K,D*27
$GPHDT,,T*1B
$GPTHS,,V*0E
$GPROT,,V*08
$PSSN,HRP,160052.00,010125,,,,,,,00,0,,*61
$PTNL,AVR,160052.00,,Yaw,,Tilt,,,,0,,00*37
$GPGSA,A,3,05,11,12,18,20,25,26,28,29,31,,,0.8,0.4,0.6*35
$GPGSA,A,3,71,78,79,80,81,82,88,,,,,,0.8,0.4,0.6*34
$GPGSA,A,3,13,15,21,27,29,30,34,,,,,,0.8,0.4,0.6*37
$GPGSA,A,3,05,08,11,12,13,23,24,25,34,38,43,44,0.8,0.4,0.6*3F
$GPGSA,A,3,60,,,,,,,,,,,,0.8,0.4,0.6*3E
$GPGST,160052.00,1.104,0.564,0.421,11.650,0.559,0.428,0.999*6E
$GPGBS,160052.00,4.076,2.179,7.565,05,0.0001,1.140,1.298*54
$GPGRS,160052.00,1,1.1,-0.0,0.5,-0.4,-0.3,-0.3,0.2,-0.4,-0.1,0.7,,*4F
$GPGRS,160052.00,1,0.9,-1.4,0.7,-2.4,2.2,1.6,-1.1,,,,,*47
$GPGRS,160052.00,1,-0.8,0.6,0.1,0.4,-1.3,0.5,0.3,,,,,*6F
$GPGRS,160052.00,1,1.2,1.6,1.3,1.5,0.6,-0.4,-1.1,-0.3,-0.1,-1.1,0.6,-0.7*4D
$GPGRS,160052.00,1,-1.0,,,,,,,,,,,*4C
$GPGSV,5,1,20,29,83,018,50,12,15,115,41,11,16,041,40,05,18,096,42*77
$GPGSV,5,2,20,18,34,186,45,26,29,300,43,20,21,060,41,31,43,290,47*78
$GPGSV,5,3,20,28,51,250,47,25,54,120,48,04,04,336,37,36,35,170,45*78
$GPGSV,5,4,20,58,13,245,37,40,23,133,37,34,31,208,43,49,34,195,45*7C
$GPGSV,5,5,20,57,05,113,39,41,07,108,35,61,03,257,39*46
$GLGSV,2,1,08,79,84,323,52,82,24,214,47,80,27,320,49,88,45,040,50*60
$GLGSV,2,2,08,78,39,140,50,81,75,207,52,72,04,033,38,71,08,348,44*6A
$GAGSV,3,1,10,27,81,318,48,13,16,192,40,19,13,293,33,34,43,057,46*68
$GAGSV,3,2,10,21,26,298,42,30,43,112,46,15,57,147,48,04,03,346,36*65
$GAGSV,3,3,10,29,06,250,37,36,00,030,23*60
$GBGSV,5,1,20,34,79,085,51,24,17,148,42,56,12,067,,05,21,129,38*60
$GBGSV,5,2,20,28,33,211,,44,25,055,44,38,27,060,43,23,47,300,48*63
$GBGSV,5,3,20,13,30,085,43,08,31,076,41,43,47,224,49,31,42,073,*67
$GBGSV,5,4,20,25,66,187,51,12,50,055,46,11,70,209,49,19,02,015,32*6F
$GBGSV,5,5,20,37,01,317,,02,06,107,34,10,07,082,34,60,10,109,41*6D
$GPGGA,160052.00,,,,,0,00,,,M,,M,,*48
$PTNL,GGK,160052.00,010125,4742.1605221,N,01618.1007230,E,1,37,0.8,EHT751.9444,M*47
$GPGGQ,160052.00,010125,4742.1605221,N,01618.1007230,E,1,37,1.222,708.7379,M*39
$GPGFA,160052.00,5.362,8.194,0.564,0.421,11.650,0.999,,VVV*3F
$GPLLK,160052.00,010125,,M,,M,1,37,0.9,,M*06
$GNGMP,160052.00,,,,,DAAA,37,0.4,,,,*56
$GPGMP,160052.00,,,,,,10,,,,3.0,136*7B
$GLGMP,160052.00,,,,,,07,,,,,*78
$GAGMP,160052.00,,,,,,07,,,,,*75
$GBGMP,160052.00,,,,,,13,,,,,*73
$PSSN,SNC,[0,316870000,2347]*4F
$GPZDA,160057.00,01,01,2025,,*66
$GPDTM,W84,,00.0000000,N,00.0000000,E,00.0000000,W84*5F
$PSSN,TFM,160057.00,,,,*6A
$GPRMC,160057.00,A,4742.1605211,N,01618.1007207,E,0.0,,010125,5.1,E,D*10
$GPGLL,4742.1605211,N,01618.1007207,E,160057.00,A,D*61
$GPGGA,160057.00,4742.1605211,N,01618.1007207,E,2,37,0.4,708.7423,M,43.2066,M,2.8,0136*4A
$GNGNS,160057.00,4742.1605211,N,01618.1007207,E,DAAA,37,0.4,708.7423,43.2066,,*58
$GPGNS,160057.00,,,,,,10,,,,2.8,136*77
$GLGNS,160057.00,,,,,,07,,,,,*7D
$GAGNS,160057.00,,,,,,07,,,,,*70
$GBGNS,160057.00,,,,,,13,,,,,*76
$GPLLQ,160057.00,010125,,M,,M,1,37,1.224,,M*15
$GPVTG,,T,,M,0.01,N,0.02,K,D*25
$GPHDT,,T*1B
$GPTHS,,V*0E
$GPROT,,V*08
$PSSN,HRP,160057.00,010125,,,,,,,00,0,,*64
$PTNL,AVR,160057.00,,Yaw,,Tilt,,,,0,,00*32
$GPGSA,A,3,05,11,12,18,20,25,26,28,29,31,,,0.8,0.4,0.6*35
$GPGSA,A,3,71,78,79,80,81,82,88,,,,,,0.8,0.4,0.6*34
$GPGSA,A,3,13,15,21,27,29,30,34,,,,,,0.8,0.4,0.6*37
$GPGSA,A,3,05,08,11,12,13,23,24,25,34,38,43,44,0.8,0.4,0.6*3F
$GPGSA,A,3,60,,,,,,,,,,,,0.8,0.4,0.6*3E
$GPGST,160057.00,1.019,0.567,0.422,11.349,0.562,0.429,1.000*6A
$GPGBS,160057.00,4.056,2.173,7.594,12,0.0001,0.869,1.341*57
$GPGRS,160057.00,1,0.8,-0.2,0.9,-0.1,0.4,-0.2,0.1,-0.6,-0.2,0.3,,*64
$GPGRS,160057.00,1,0.9,-1.4,0.7,-1.4,2.0,2.2,-1.5,,,,,*40
$GPGRS,160057.00,1,-0.7,0.5,-0.1,0.3,-1.4,0.4,0.4,,,,,*4D
$GPGRS,160057.00,1,1.0,1.1,1.2,0.8,0.1,-0.3,-1.3,-0.6,-0.3,-1.0,0.3,-0.7*41
$GPGRS,160057.00,1,-1.2,,,,,,,,,,,*4B
$GPGSV,6,1,21,29,83,018,50,12,15,115,41,11,16,041,40,05,18,096,42*75
$GPGSV,6,2,21,18,34,186,45,26,29,300,44,20,21,060,41,31,43,290,47*7D
$GPGSV,6,3,21,28,51,250,47,25,54,120,48,04,04,336,37,16,00,296,*74
$GPGSV,6,4,21,36,35,170,45,58,13,245,37,40,23,133,37,34,31,208,43*7C
$GPGSV,6,5,21,49,34,195,45,57,05,113,39,41,07,108,35,61,03,257,39*72
$GPGSV,6,6,21*7A
$GLGSV,2,1,08,79,84,323,52,82,24,214,47,80,27,320,49,88,45,040,50*60
$GLGSV,2,2,08,78,39,140,50,81,75,207,52,72,04,033,38,71,08,348,44*6A
$GAGSV,3,1,10,27,81,318,48,13,16,192,40,19,13,293,34,34,43,057,46*6F
$GAGSV,3,2,10,21,26,298,42,30,43,112,46,15,57,147,48,04,03,346,37*64
$GAGSV,3,3,10,29,06,250,37,36,00,030,23*60
$GBGSV,5,1,20,34,79,085,51,24,17,148,42,56,12,067,,05,21,129,38*60
$GBGSV,5,2,20,28,33,211,,44,25,055,44,38,27,060,43,23,47,300,49*62
$GBGSV,5,3,20,13,30,085,43,08,31,076,41,43,47,224,49,31,42,073,*67
$GBGSV,5,4,20,25,66,187,51,12,50,055,46,11,70,209,49,19,02,015,32*6F
$GBGSV,5,5,20,37,01,317,,02,06,107,34,10,07,082,34,60,10,109,41*6D
$GPGGA,160057.00,,,,,0,00,,,M,,M,,*4D
$PTNL,GGK,160057.00,010125,4742.1605211,N,01618.1007207,E,1,37,0.8,EHT751.9488,M*45
$GPGGQ,160057.00,010125,4742.1605211,N,01618.1007207,E,1,37,1.224,708.7423,M*35
$GPGFA,160057.00,5.386,8.201,0.567,0.422,11.349,1.000,,VVV*3A
$GPLLK,160057.00,010125,,M,,M,1,37,0.9,,M*03
$GNGMP,160057.00,,,,,DAAA,37,0.4,,,,*53
$GPGMP,160057.00,,,,,,10,,,,2.8,136*77
$GLGMP,160057.00,,,,,,07,,,,,*7D
$GAGMP,160057.00,,,,,,07,,,,,*70
$GBGMP,160057.00,,,,,,13,,,,,*76
$PSSN,SNC,[0,316875000,2347]*4A
$GPZDA,160102.00,01,01,2025,,*67
$GPDTM,W84,,00.0000000,N,00.0000000,E,00.0000000,W84*5F
$PSSN,TFM,160102.00,,,,*6B
$GPRMC,160102.00,A,4742.1605221,N,01618.1007163,E,0.0,,010125,5.1,E,D*13
$GPGLL,4742.1605221,N,01618.1007163,E,160102.00,A,D*62
$GPGGA,160102.00,4742.1605221,N,01618.1007163,E,2,37,0.4,708.7437,M,43.2066,M,2.2,0136*46
$GNGNS,160102.00,4742.1605221,N,01618.1007163,E,DAAA,37,0.4,708.7437,43.2066,,*5E
$GPGNS,160102.00,,,,,,10,,,,2.2,136*7C
$GLGNS,160102.00,,,,,,07,,,,,*7C
$GAGNS,160102.00,,,,,,07,,,,,*71
$GBGNS,160102.00,,,,,,13,,,,,*77
$GPLLQ,160102.00,010125,,M,,M,1,37,1.212,,M*11
$GPVTG,,T,,M,0.00,N,0.01,K,D*27
$GPHDT,,T*1B
$GPTHS,,V*0E
$GPROT,,V*08
$PSSN,HRP,160102.00,010125,,,,,,,00,0,,*65
$PTNL,AVR,160102.00,,Yaw,,Tilt,,,,0,,00*33
$GPGSA,A,3,05,11,12,18,20,25,26,28,29,31,,,0.8,0.4,0.6*35
$GPGSA,A,3,71,78,79,80,81,82,88,,,,,,0.8,0.4,0.6*34
$GPGSA,A,3,13,15,21,27,29,30,34,,,,,,0.8,0.4,0.6*37
$GPGSA,A,3,05,08,11,12,13,23,24,25,34,38,43,44,0.8,0.4,0.6*3F
$GPGSA,A,3,60,,,,,,,,,,,,0.8,0.4,0.6*3E
$GPGST,160102.00,0.950,0.563,0.417,11.273,0.558,0.424,0.989*69
$GPGBS,160102.00,4.058,2.153,7.472,28,0.0001,-0.696,0.971*71
$GPGRS,160102.00,1,0.6,-0.4,0.6,0.1,0.1,-0.3,0.4,-0.7,-0.1,0.3,,*4C
$GPGRS,160102.00,1,0.1,-0.7,0.7,-2.0,2.3,1.7,-1.5,,,,,*49
$GPGRS,160102.00,1,-0.5,0.7,0.3,0.1,-1.3,0.2,0.3,,,,,*67
$GPGRS,160102.00,1,0.7,0.6,1.6,0.2,0.0,-0.3,-0.9,-0.7,-0.3,-0.9,0.1,-0.6*4E
$GPGRS,160102.00,1,-1.1,,,,,,,,,,,*49
$GPGSV,6,1,21,29,83,018,50,12,15,115,41,11,16,041,40,05,18,096,43*74
$GPGSV,6,2,21,18,34,186,45,26,29,300,44,20,21,060,41,31,43,290,46*7C
$GPGSV,6,3,21,28,51,250,47,25,54,120,48,04,04,336,37,16,00,296,*74
$GPGSV,6,4,21,36,35,170,45,58,13,245,36,40,23,133,37,34,31,208,43*7D
$GPGSV,6,5,21,49,34,195,45,57,05,113,39,41,07,108,35,61,03,257,38*73
$GPGSV,6,6,21*7A
$GLGSV,2,1,08,79,84,323,52,82,24,214,46,80,27,320,49,88,45,040,50*61
$GLGSV,2,2,08,78,39,140,51,81,75,207,52,72,04,033,38,71,08,348,43*6C
$GAGSV,3,1,10,27,81,318,48,13,16,192,40,19,13,293,34,34,43,057,46*6F
$GAGSV,3,2,10,21,26,298,42,30,43,112,46,15,57,147,48,04,03,346,37*64
$GAGSV,3,3,10,29,06,250,38,36,00,030,23*6F
$GBGSV,5,1,20,34,79,084,51,24,17,148,42,56,12,067,,05,21,129,38*61
$GBGSV,5,2,20,28,33,211,,44,25,055,44,38,27,060,43,23,47,300,49*62
$GBGSV,5,3,20,13,30,085,43,08,31,076,41,43,47,224,49,31,42,073,*67
$GBGSV,5,4,20,25,66,187,51,12,50,055,46,11,70,209,49,19,02,015,31*6C
$GBGSV,5,5,20,37,01,317,,02,06,107,34,10,07,082,35,60,10,109,41*6C
$GPGGA,160102.00,,,,,0,00,,,M,,M,,*4C
$PTNL,GGK,160102.00,010125,4742.1605221,N,01618.1007163,E,1,37,0.8,EHT751.9503,M*44
$GPGGQ,160102.00,010125,4742.1605221,N,01618.1007163,E,1,37,1.212,708.7437,M*36
$GPGFA,160102.00,5.355,8.107,0.563,0.417,11.273,0.989,,VVV*33
$GPLLK,160102.00,010125,,M,,M,1,37,0.9,,M*02
$GNGMP,160102.00,,,,,DAAA,37,0.4,,,,*52
$GPGMP,160102.00,,,,,,10,,,,2.2,136*7C
$GLGMP,160102.00,,,,,,07,,,,,*7C
$GAGMP,160102.00,,,,,,07,,,,,*71
$GBGMP,160102.00,,,,,,13,,,,,*77
$PSSN,SNC,[0,316880000,2347]*40
$GPZDA,160107.00,01,01,2025,,*62
$GPDTM,W84,,00.0000000,N,00.0000000,E,00.0000000,W84*5F
$PSSN,TFM,160107.00,,,,*6E
$GPRMC,160107.00,A,4742.1605228,N,01618.1007141,E,0.0,,010125,5.1,E,D*1F
$GPGLL,4742.1605228,N,01618.1007141,E,160107.00,A,D*6E
$GPGGA,160107.00,4742.1605228,N,01618.1007141,E,2,37,0.4,708.7496,M,43.2066,M,2.0,0136*43
$GNGNS,160107.00,4742.1605228,N,01618.1007141,E,DAAA,37,0.4,708.7496,43.2066,,*59
$GPGNS,160107.00,,,,,,10,,,,2.0,136*7B
$GLGNS,160107.00,,,,,,07,,,,,*79
$GAGNS,160107.00,,,,,,07,,,,,*74
$GBGNS,160107.00,,,,,,13,,,,,*72
$GPLLQ,160107.00,010125,,M,,M,1,37,1.212,,M*14
$GPVTG,,T,,M,0.00,N,0.00,K,D*26
$GPHDT,,T*1B
$GPTHS,,V*0E
$GPROT,,V*08
$PSSN,HRP,160107.00,010125,,,,,,,00,0,,*60
$PTNL,AVR,160107.00,,Yaw,,Tilt,,,,0,,00*36
$GPGSA,A,3,05,11,12,18,20,25,26,28,29,31,,,0.8,0.4,0.6*35
$GPGSA,A,3,71,78,79,80,81,82,88,,,,,,0.8,0.4,0.6*34
$GPGSA,A,3,13,15,21,27,29,30,34,,,,,,0.8,0.4,0.6*37
$GPGSA,A,3,05,08,11,12,13,23,24,25,34,38,43,44,0.8,0.4,0.6*3F
$GPGSA,A,3,60,,,,,,,,,,,,0.8,0.4,0.6*3E
$GPGST,160107.00,0.981,0.563,0.414,11.960,0.557,0.421,0.990*68
$GPGBS,160107.00,4.066,2.173,7.509,05,0.0001,0.788,1.290*5F
$GPGRS,160107.00,1,0.8,-0.8,0.7,-0.0,-0.3,-0.2,0.3,-0.3,-0.1,0.0,,*48
$GPGRS,160107.00,1,-0.0,-0.9,0.8,-2.0,2.6,1.4,-0.9,,,,,*6A
$GPGRS,160107.00,1,-0.5,0.5,0.5,0.2,-1.8,0.4,0.0,,,,,*6B
$GPGRS,160107.00,1,1.0,0.7,1.6,0.1,0.0,-0.5,-1.0,-0.4,-0.2,-0.8,0.4,-0.4*45
$GPGRS,160107.00,1,-1.1,,,,,,,,,,,*4C
$GPGSV,6,1,21,29,83,019,50,12,15,115,42,11,16,041,40,05,18,096,42*77
$GPGSV,6,2,21,18,34,186,46,26,29,300,43,20,21,060,41,31,43,290,46*78
$GPGSV,6,3,21,28,51,250,48,25,54,120,48,04,04,336,38,16,00,296,*74
$GPGSV,6,4,21,36,35,170,45,58,13,245,36,40,23,133,36,34,31,208,43*7C
$GPGSV,6,5,21,49,34,195,45,57,05,113,39,41,07,108,35,61,03,257,38*73
$GPGSV,6,6,21*7A
$GLGSV,2,1,08,79,84,323,51,82,24,214,47,80,27,320,48,88,45,040,50*62
$GLGSV,2,2,08,78,39,140,51,81,75,207,53,72,04,033,37,71,08,348,43*62
$GAGSV,3,1,10,27,81,318,48,13,16,192,40,19,13,293,34,34,43,057,46*6F
$GAGSV,3,2,10,21,26,298,42,30,43,112,46,15,57,147,48,04,03,345,37*67
$GAGSV,3,3,10,29,06,250,38,36,00,030,22*6E
$GBGSV,5,1,20,34,79,084,51,24,17,148,43,56,12,067,,05,21,129,38*60
$GBGSV,5,2,20,28,33,211,,44,25,055,44,38,27,060,43,23,47,300,49*62
$GBGSV,5,3,20,13,30,085,43,08,31,076,41,43,47,224,48,31,42,073,*66
$GBGSV,5,4,20,25,66,187,52,12,50,055,46,11,70,209,49,19,02,015,31*6F
$GBGSV,5,5,20,37,01,317,,02,06,107,34,10,07,082,35,60,10,109,41*6C
$GPGGA,160107.00,,,,,0,00,,,M,,M,,*49
$PTNL,GGK,160107.00,010125,4742.1605228,N,01618.1007141,E,1,37,0.8,EHT751.9562,M*4F
$GPGGQ,160107.00,010125,4742.1605228,N,01618.1007141,E,1,37,1.212,708.7496,M*31
$GPGFA,160107.00,5.353,8.116,0.563,0.414,11.960,0.990,,VVV*32
$GPLLK,160107.00,010125,,M,,M,1,37,0.9,,M*07
$GNGMP,160107.00,,,,,DAAA,37,0.4,,,,*57
$GPGMP,160107.00,,,,,,10,,,,2.0,136*7B
$GLGMP,160107.00,,,,,,07,,,,,*79
$GAGMP,160107.00,,,,,,07,,,,,*74
$GBGMP,160107.00,,,,,,13,,,,,*72
$PSSN,SNC,[0,316885000,2347]*45
$GPZDA,160112.00,01,01,2025,,*66
$GPDTM,W84,,00.0000000,N,00.0000000,E,00.0000000,W84*5F
$PSSN,TFM,160112.00,,,,*6A
$GPRMC,160112.00,A,4742.1605253,N,01618.1007123,E,0.0,,010125,5.1,E,D*13
$GPGLL,4742.1605253,N,01618.1007123,E,160112.00,A,D*62
$GPGGA,160112.00,4742.1605253,N,01618.1007123,E,2,38,0.4,708.7491,M,43.2065,M,3.0,0136*45
$GNGNS,160112.00,4742.1605253,N,01618.1007123,E,DAAA,38,0.4,708.7491,43.2065,,*5E
$GPGNS,160112.00,,,,,,10,,,,3.0,136*7E
$GLGNS,160112.00,,,,,,07,,,,,*7D
$GAGNS,160112.00,,,,,,07,,,,,*70
$GBGNS,160112.00,,,,,,14,,,,,*71
$GPLLQ,160112.00,010125,,M,,M,1,38,1.221,,M*1F
$GPVTG,,T,,M,0.00,N,0.01,K,D*27
$GPHDT,,T*1B
$GPTHS,,V*0E
$GPROT,,V*08
$PSSN,HRP,160112.00,010125,,,,,,,00,0,,*64
$PTNL,AVR,160112.00,,Yaw,,Tilt,,,,0,,00*32
$GPGSA,A,3,05,11,12,18,20,25,26,28,29,31,,,0.8,0.4,0.6*35
$GPGSA,A,3,71,78,79,80,81,82,88,,,,,,0.8,0.4,0.6*34
$GPGSA,A,3,13,15,21,27,29,30,34,,,,,,0.8,0.4,0.6*37
$GPGSA,A,3,05,08,10,11,12,13,23,24,25,34,38,43,0.8,0.4,0.6*3E
$GPGSA,A,3,44,60,,,,,,,,,,,0.8,0.4,0.6*3E
$GPGST,160112.00,2.249,0.566,0.417,12.181,0.560,0.425,0.999*6A
$GPGBS,160112.00,4.091,2.201,7.576,12,0.0001,1.054,1.333*54
$GPGRS,160112.00,1,0.7,-0.4,1.1,-0.1,-0.5,-0.1,0.0,-0.3,-0.3,0.3,,*4E
$GPGRS,160112.00,1,-0.1,-1.3,0.9,-2.0,2.5,2.0,-0.7,,,,,*6F
$GPGRS,160112.00,1,-0.7,0.7,0.7,0.5,-2.1,0.7,-0.0,,,,,*4E
$GPGRS,160112.00,1,1.0,1.1,-11.0,1.6,0.9,-0.1,-0.2,-1.2,-0.4,-0.2,-0.4,0.6*5D
$GPGRS,160112.00,1,-0.1,-0.8,,,,,,,,,,*42
$GPGSV,6,1,21,29,83,019,50,12,15,115,42,11,16,041,40,05,18,096,42*77
$GPGSV,6,2,21,18,34,186,45,26,29,300,43,20,21,060,41,31,43,290,46*7B
$GPGSV,6,3,21,28,51,250,48,25,54,120,48,04,04,336,36,16,00,296,*7A
$GPGSV,6,4,21,36,35,170,45,58,13,245,37,40,23,133,37,34,31,208,43*7C
$GPGSV,6,5,21,49,34,195,44,57,05,113,39,41,07,108,34,61,03,257,38*73
$GPGSV,6,6,21*7A
$GLGSV,2,1,08,79,84,323,52,82,24,214,47,80,27,320,49,88,45,040,50*60
$GLGSV,2,2,08,78,39,140,50,81,75,207,52,72,04,033,38,71,08,348,43*6D
$GAGSV,3,1,10,27,81,318,48,13,16,192,39,19,13,293,34,34,43,057,46*61
$GAGSV,3,2,10,21,26,298,42,30,43,112,46,15,58,147,48,04,03,345,37*68
$GAGSV,3,3,10,29,06,250,38,36,00,030,23*6F
$GBGSV,5,1,20,34,79,084,51,24,17,148,43,56,12,067,,05,21,129,38*60
$GBGSV,5,2,20,28,33,212,,44,25,055,44,38,27,060,43,23,47,300,49*61
$GBGSV,5,3,20,13,30,085,43,08,31,076,41,43,47,224,49,31,42,073,*67
$GBGSV,5,4,20,25,66,187,52,12,50,055,47,11,70,209,49,19,02,015,31*6E
$GBGSV,5,5,20,37,01,317,,02,06,107,34,10,07,082,35,60,10,109,41*6C
$GPGGA,160112.00,,,,,0,00,,,M,,M,,*4D
$PTNL,GGK,160112.00,010125,4742.1605253,N,01618.1007123,E,1,38,0.8,EHT751.9556,M*4B
$GPGGQ,160112.00,010125,4742.1605253,N,01618.1007123,E,1,38,1.221,708.7491,M*35
$GPGFA,160112.00,5.379,8.188,0.566,0.417,12.181,0.999,,VVV*32
$GPLLK,160112.00,010125,,M,,M,1,38,0.9,,M*0C
$GNGMP,160112.00,,,,,DAAA,38,0.4,,,,*5C
$GPGMP,160112.00,,,,,,10,,,,3.0,136*7E
$GLGMP,160112.00,,,,,,07,,,,,*7D
$GAGMP,160112.00,,,,,,07,,,,,*70
$GBGMP,160112.00,,,,,,14,,,,,*71
$PSSN,SNC,[0,316890000,2347]*41
$GPZDA,160117.00,01,01,2025,,*63
$GPDTM,W84,,00.0000000,N,00.0000000,E,00.0000000,W84*5F
$PSSN,TFM,160117.00,,,,*6F
$GPRMC,160117.00,A,4742.1605258,N,01618.1007105,E,0.0,,010125,5.1,E,D*19
$GPGLL,4742.1605258,N,01618.1007105,E,160117.00,A,D*68
$GPGGA,160117.00,4742.1605258,N,01618.1007105,E,2,37,0.4,708.7530,M,43.2065,M,2.8,0136*43
$GNGNS,160117.00,4742.1605258,N,01618.1007105,E,DAAA,37,0.4,708.7530,43.2065,,*51
$GPGNS,160117.00,,,,,,10,,,,2.8,136*72
$GLGNS,160117.00,,,,,,07,,,,,*78
$GAGNS,160117.00,,,,,,07,,,,,*75
$GBGNS,160117.00,,,,,,13,,,,,*73
$GPLLQ,160117.00,010125,,M,,M,1,37,1.223,,M*17
$GPVTG,,T,,M,0.00,N,0.01,K,D*27
$GPHDT,,T*1B
$GPTHS,,V*0E
$GPROT,,V*08
$PSSN,HRP,160117.00,010125,,,,,,,00,0,,*61
$PTNL,AVR,160117.00,,Yaw,,Tilt,,,,0,,00*37
$GPGSA,A,3,05,11,12,18,20,25,26,28,29,31,,,0.8,0.4,0.6*35
$GPGSA,A,3,71,78,79,80,81,82,88,,,,,,0.8,0.4,0.6*34
$GPGSA,A,3,13,15,21,27,29,30,34,,,,,,0.8,0.4,0.6*37
$GPGSA,A,3,05,08,11,12,13,23,24,25,34,38,43,44,0.8,0.4,0.6*3F
$GPGSA,A,3,60,,,,,,,,,,,,0.8,0.4,0.6*3E
$GPGST,160117.00,1.113,0.568,0.418,11.894,0.563,0.426,0.999*6F
$GPGBS,160117.00,4.071,2.137,7.611,05,0.0001,0.799,1.304*5E
$GPGRS,160117.00,1,0.8,-0.6,0.7,-0.1,-0.2,-0.1,0.2,-0.6,-0.2,0.4,,*47
$GPGRS,160117.00,1,0.6,-1.0,0.8,-1.8,2.0,2.1,-1.3,,,,,*48
$GPGRS,160117.00,1,-0.9,0.7,0.7,0.5,-2.4,0.5,0.3,,,,,*6C
$GPGRS,160117.00,1,0.8,1.7,1.8,0.8,-0.1,-0.2,-1.2,-0.4,0.0,-0.2,0.9,-0.5*4B
$GPGRS,160117.00,1,-1.2,,,,,,,,,,,*4E
$GPGSV,6,1,21,29,83,019,50,12,15,115,42,11,15,041,41,05,18,096,43*74
$GPGSV,6,2,21,18,34,186,45,26,29,300,43,20,21,060,41,31,43,290,47*7A
$GPGSV,6,3,21,28,51,249,47,25,54,120,48,04,04,336,37,16,00,296,*7C
$GPGSV,6,4,21,36,35,170,45,58,13,245,36,40,23,133,36,34,31,208,43*7C
$GPGSV,6,5,21,49,34,195,44,57,05,113,39,41,07,108,34,61,03,257,38*73
$GPGSV,6,6,21*7A
$GLGSV,2,1,08,79,84,323,52,82,24,214,47,80,27,320,49,88,45,040,50*60
$GLGSV,2,2,08,78,39,140,51,81,75,207,52,72,04,033,37,71,08,348,43*63
$GAGSV,3,1,10,27,81,318,49,13,16,192,40,19,13,293,34,34,43,057,46*6E
$GAGSV,3,2,10,21,26,298,42,30,43,112,46,15,58,147,48,04,03,345,37*68
$GAGSV,3,3,10,29,06,250,38,36,00,030,23*6F
$GBGSV,5,1,20,34,79,084,51,24,17,148,43,56,12,067,,05,21,129,38*60
$GBGSV,5,2,20,28,33,212,,44,25,055,44,38,27,060,43,23,47,300,48*60
$GBGSV,5,3,20,13,31,085,43,08,31,075,41,43,47,224,49,31,42,073,*65
$GBGSV,5,4,20,25,66,187,51,12,50,055,46,11,70,209,49,19,02,015,31*6C
$GBGSV,5,5,20,37,01,317,,02,06,107,34,10,07,082,36,60,10,109,41*6F
$GPGGA,160117.00,,,,,0,00,,,M,,M,,*48
$PTNL,GGK,160117.00,010125,4742.1605258,N,01618.1007105,E,1,37,0.8,EHT751.9595,M*41
$GPGGQ,160117.00,010125,4742.1605258,N,01618.1007105,E,1,37,1.223,708.7530,M*38
$GPGFA,160117.00,5.405,8.194,0.568,0.418,11.894,0.999,,VVV*39
$GPLLK,160117.00,010125,,M,,M,1,37,0.9,,M*06
$GNGMP,160117.00,,,,,DAAA,37,0.4,,,,*56
$GPGMP,160117.00,,,,,,10,,,,2.8,136*72
$GLGMP,160117.00,,,,,,07,,,,,*78
$GAGMP,160117.00,,,,,,07,,,,,*75
$GBGMP,160117.00,,,,,,13,,,,,*73
$PSSN,SNC,[0,316895000,2347]*44
$GPZDA,160122.00,01,01,2025,,*65
$GPDTM,W84,,00.0000000,N,00.0000000,E,00.0000000,W84*5F
$PSSN,TFM,160122.00,,,,*69
$GPRMC,160122.00,A,4742.1605266,N,01618.1007055,E,0.0,,010125,5.1,E,D*16
$GPGLL,4742.1605266,N,01618.1007055,E,160122.00,A,D*67
$GPGGA,160122.00,4742.1605266,N,01618.1007055,E,2,38,0.4,708.7605,M,43.2065,M,3.5,0136*4A
$GNGNS,160122.00,4742.1605266,N,01618.1007055,E,DAAA,38,0.4,708.7605,43.2065,,*54
$GPGNS,160122.00,,,,,,10,,,,3.5,136*78
$GLGNS,160122.00,,,,,,07,,,,,*7E
$GAGNS,160122.00,,,,,,07,,,,,*73
$GBGNS,160122.00,,,,,,14,,,,,*72
$GPLLQ,160122.00,010125,,M,,M,1,38,1.235,,M*19
$GPVTG,,T,,M,0.00,N,0.00,K,D*26
$GPHDT,,T*1B
$GPTHS,,V*0E
$GPROT,,V*08
$PSSN,HRP,160122.00,010125,,,,,,,00,0,,*67
