$GPZDA,185942.00,01,01,2025,,*60
$GPDTM,W84,,00.0000000,N,00.0000000,E,00.0000000,W84*5F
$PSSN,TFM,185942.00,,,,*6C
$GPRMC,185942.00,A,4742.1604967,N,01618.1001888,E,0.0,,010125,5.1,E,D*16
$GPGLL,4742.1604967,N,01618.1001888,E,185942.00,A,D*67
$GPGGA,185942.00,4742.1604967,N,01618.1001888,E,2,37,0.4,708.1138,M,43.2066,M,1.7,0136*49
$GNGNS,185942.00,4742.1604967,N,01618.1001888,E,DAAA,37,0.4,708.1138,43.2066,,*57
$GPGNS,185942.00,,,,,,10,,,,1.7,136*7D
$GLGNS,185942.00,,,,,,08,,,,,*74
$GAGNS,185942.00,,,,,,05,,,,,*74
$GBGNS,185942.00,,,,,,14,,,,,*77
$GPLLQ,185942.00,010125,,M,,M,1,37,0.887,,M*11
$GPVTG,,T,,M,0.00,N,0.00,K,D*26
$GPHDT,,T*1B
$GPTHS,,V*0E
$GPROT,,V*08
$PSSN,HRP,185942.00,010125,,,,,,,00,0,,*62
$PTNL,AVR,185942.00,,Yaw,,Tilt,,,,0,,00*34
$GPGSA,A,3,07,08,10,15,16,18,23,26,27,29,,,0.8,0.4,0.7*36
$GPGSA,A,3,66,67,73,74,80,81,82,83,,,,,0.8,0.4,0.7*3F
$GPGSA,A,3,13,15,21,26,27,,,,,,,,0.8,0.4,0.7*3D
$GPGSA,A,3,05,08,11,13,14,21,23,28,34,37,38,42,0.8,0.4,0.7*35
$GPGSA,A,3,43,60,,,,,,,,,,,0.8,0.4,0.7*38
$GPGST,185942.00,1.699,0.396,0.315,27.007,0.381,0.334,0.728*69
$GPGBS,185942.00,2.702,1.933,3.806,67,0.0001,6.419,6.220*52
$GPGRS,185942.00,1,0.3,0.1,-0.1,0.2,0.0,-0.2,-0.0,0.1,0.1,0.7,,*64
$GPGRS,185942.00,1,-2.3,6.4,3.6,-3.1,-0.4,0.3,-1.2,-2.0,,,,*62
$GPGRS,185942.00,1,0.1,-0.2,-0.0,-0.0,-0.4,,,,,,,*64
$GPGRS,185942.00,1,-0.3,1.2,0.2,-0.1,2.3,-0.3,-0.6,-0.3,0.2,-0.7,-0.1,0.4*64
$GPGRS,185942.00,1,-0.5,-1.7,,,,,,,,,,*4E
$GPGSV,6,1,22,16,66,258,48,10,27,171,45,08,11,291,38,15,12,073,40*76
$GPGSV,6,2,22,29,12,101,39,26,50,200,48,27,44,295,47,18,54,057,47*71
$GPGSV,6,3,22,23,52,126,47,07,07,330,38,05,01,029,31,13,03,042,34*7A
$GPGSV,6,4,22,31,01,214,38,36,35,170,45,58,13,245,37,57,11,108,38*78
$GPGSV,6,5,22,34,31,208,42,40,24,133,36,49,34,195,44,41,07,108,34*7E
$GPGSV,6,6,22,61,03,257,38*46
$GLGSV,3,1,10,83,60,292,43,80,37,206,50,74,19,332,40,81,15,064,44*6A
$GLGSV,3,2,10,67,21,107,47,66,25,050,47,73,49,289,50,82,58,033,50*6E
$GLGSV,3,3,10,65,05,006,37,84,03,255,34*6A
$GAGSV,2,1,08,13,87,253,48,27,30,162,43,26,31,235,43,23,34,310,*63
$GAGSV,2,2,08,15,37,054,44,21,68,233,48,03,05,072,36,05,04,025,35*64
$GBGSV,6,1,23,43,61,069,50,33,11,150,,21,19,045,42,46,14,323,*6A
$GBGSV,6,2,23,60,11,108,40,38,21,037,42,05,22,129,38,23,26,208,45*65
$GBGSV,6,3,23,34,15,082,41,58,20,319,,14,23,127,40,31,32,052,*67
$GBGSV,6,4,23,50,27,069,,08,35,040,41,42,29,098,44,13,42,049,44*6D
$GBGSV,6,5,23,11,38,073,45,37,39,268,47,28,49,275,49,27,54,265,*69
$GBGSV,6,6,23,30,06,258,,02,07,106,35,07,04,115,*52
$GPGGA,185942.00,,,,,0,00,,,M,,M,,*4B
$PTNL,GGK,185942.00,010125,4742.1604967,N,01618.1001888,E,1,37,0.8,EHT751.3204,M*4B
$GPGGQ,185942.00,010125,4742.1604967,N,01618.1001888,E,1,37,0.887,708.1138,M*38
$GPGFA,185942.00,3.765,5.972,0.396,0.315,27.007,0.728,,VVV*3A
$GPLLK,185942.00,010125,,M,,M,1,37,1.0,,M*0D
$GNGMP,185942.00,,,,,DAAA,37,0.4,,,,*55
$GPGMP,185942.00,,,,,,10,,,,1.7,136*7D
$GLGMP,185942.00,,,,,,08,,,,,*74
$GAGMP,185942.00,,,,,,05,,,,,*74
$GBGMP,185942.00,,,,,,14,,,,,*77
$PSSN,SNC,[0,327600000,2347]*44
$GPZDA,185947.00,01,01,2025,,*65
$GPDTM,W84,,00.0000000,N,00.0000000,E,00.0000000,W84*5F
$PSSN,TFM,185947.00,,,,*69
$GPRMC,185947.00,A,4742.1604969,N,01618.1001873,E,0.0,,010125,5.1,E,D*19
$GPGLL,4742.1604969,N,01618.1001873,E,185947.00,A,D*68
$GPGGA,185947.00,4742.1604969,N,01618.1001873,E,2,37,0.4,708.1144,M,43.2066,M,2.7,0136*4E
$GNGNS,185947.00,4742.1604969,N,01618.1001873,E,DAAA,37,0.4,708.1144,43.2066,,*53
$GPGNS,185947.00,,,,,,10,,,,2.7,136*7B
$GLGNS,185947.00,,,,,,08,,,,,*71
$GAGNS,185947.00,,,,,,05,,,,,*71
$GBGNS,185947.00,,,,,,14,,,,,*72
$GPLLQ,185947.00,010125,,M,,M,1,37,0.891,,M*13
$GPVTG,,T,,M,0.00,N,0.01,K,D*27
$GPHDT,,T*1B
$GPTHS,,V*0E
$GPROT,,V*08
$PSSN,HRP,185947.00,010125,,,,,,,00,0,,*67
$PTNL,AVR,185947.00,,Yaw,,Tilt,,,,0,,00*31
$GPGSA,A,3,07,08,10,15,16,18,23,26,27,29,,,0.8,0.4,0.7*36
$GPGSA,A,3,66,67,73,74,80,81,82,83,,,,,0.8,0.4,0.7*3F
$GPGSA,A,3,13,15,21,26,27,,,,,,,,0.8,0.4,0.7*3D
$GPGSA,A,3,05,08,11,13,14,21,23,28,34,37,38,42,0.8,0.4,0.7*35
$GPGSA,A,3,43,60,,,,,,,,,,,0.8,0.4,0.7*38
$GPGST,185947.00,1.798,0.399,0.318,28.527,0.382,0.339,0.730*61
$GPGBS,185947.00,2.759,1.951,3.847,67,0.0001,6.666,6.220*52
$GPGRS,185947.00,1,0.5,-0.8,-0.0,0.3,-0.1,-0.2,0.2,0.2,-0.0,1.1,,*68
$GPGRS,185947.00,1,-3.0,6.7,3.7,-3.2,-0.2,0.8,-1.1,-2.5,,,,*6F
$GPGRS,185947.00,1,0.1,0.1,-0.0,-0.1,-0.1,,,,,,,*4B
$GPGRS,185947.00,1,0.2,1.1,0.0,-0.0,2.2,0.1,-0.2,-0.2,0.5,-0.5,-0.1,0.6*61
$GPGRS,185947.00,1,-0.5,-1.3,,,,,,,,,,*4F
$GPGSV,6,1,22,16,66,258,48,10,27,171,44,08,11,291,37,15,12,073,40*78
$GPGSV,6,2,22,29,12,101,39,26,50,200,48,27,44,295,47,18,54,057,47*71
$GPGSV,6,3,22,23,52,126,48,07,07,330,38,05,01,029,32,13,03,042,33*71
$GPGSV,6,4,22,31,01,214,38,36,35,170,45,58,13,245,37,57,11,108,38*78
$GPGSV,6,5,22,34,31,208,42,40,24,133,36,49,34,195,44,41,07,108,34*7E
$GPGSV,6,6,22,61,03,257,38*46
$GLGSV,3,1,10,83,60,292,43,80,37,206,50,74,19,331,40,81,15,064,44*69
$GLGSV,3,2,10,67,21,106,48,66,25,050,47,73,49,289,50,82,58,033,50*60
$GLGSV,3,3,10,65,04,006,37,84,03,255,33*6C
$GAGSV,2,1,08,13,87,253,48,27,30,162,43,26,31,235,43,23,34,310,*63
$GAGSV,2,2,08,15,37,054,43,21,68,232,48,03,05,072,36,05,04,025,35*62
$GBGSV,6,1,23,43,61,069,50,33,11,150,,21,19,045,43,46,14,323,*6B
$GBGSV,6,2,23,60,11,108,40,38,21,037,42,05,22,129,38,23,26,208,46*66
$GBGSV,6,3,23,34,15,082,41,58,20,319,,14,23,127,41,31,32,052,*66
$GBGSV,6,4,23,50,27,069,,08,35,040,41,42,29,098,45,13,42,049,45*6D
$GBGSV,6,5,23,11,38,073,46,37,39,268,47,28,49,275,49,27,54,265,*6A
$GBGSV,6,6,23,30,06,258,,02,07,106,35,07,04,115,*52
$GPGGA,185947.00,,,,,0,00,,,M,,M,,*4E
$PTNL,GGK,185947.00,010125,4742.1604969,N,01618.1001873,E,1,37,0.8,EHT751.3209,M*49
$GPGGQ,185947.00,010125,4742.1604969,N,01618.1001873,E,1,37,0.891,708.1144,M*3B
$GPGFA,185947.00,3.798,5.984,0.399,0.318,28.527,0.730,,VVV*37
$GPLLK,185947.00,010125,,M,,M,1,37,1.0,,M*08
$GNGMP,185947.00,,,,,DAAA,37,0.4,,,,*50
$GPGMP,185947.00,,,,,,10,,,,2.7,136*7B
$GLGMP,185947.00,,,,,,08,,,,,*71
$GAGMP,185947.00,,,,,,05,,,,,*71
$GBGMP,185947.00,,,,,,14,,,,,*72
$PSSN,SNC,[0,327605000,2347]*41
$GPZDA,185952.00,01,01,2025,,*61
$GPDTM,W84,,00.0000000,N,00.0000000,E,00.0000000,W84*5F
$PSSN,TFM,185952.00,,,,*6D
$GPRMC,185952.00,A,4742.1604978,N,01618.1001869,E,0.0,,010125,5.1,E,D*16
$GPGLL,4742.1604978,N,01618.1001869,E,185952.00,A,D*67
$GPGGA,185952.00,4742.1604978,N,01618.1001869,E,2,37,0.4,708.1176,M,43.2066,M,3.7,0136*41
$GNGNS,185952.00,4742.1604978,N,01618.1001869,E,DAAA,37,0.4,708.1176,43.2066,,*5D
$GPGNS,185952.00,,,,,,10,,,,3.7,136*7E
$GLGNS,185952.00,,,,,,08,,,,,*75
$GAGNS,185952.00,,,,,,05,,,,,*75
$GBGNS,185952.00,,,,,,14,,,,,*76
$GPLLQ,185952.00,010125,,M,,M,1,37,0.906,,M*18
$GPVTG,,T,,M,0.00,N,0.00,K,D*26
$GPHDT,,T*1B
$GPTHS,,V*0E
$GPROT,,V*08
$PSSN,HRP,185952.00,010125,,,,,,,00,0,,*63
$PTNL,AVR,185952.00,,Yaw,,Tilt,,,,0,,00*35
$GPGSA,A,3,07,08,10,15,16,18,23,26,27,29,,,0.8,0.4,0.7*36
$GPGSA,A,3,66,67,73,74,80,81,82,83,,,,,0.8,0.4,0.7*3F
$GPGSA,A,3,13,15,21,26,27,,,,,,,,0.8,0.4,0.7*3D
$GPGSA,A,3,05,08,11,13,14,21,23,28,34,37,38,42,0.8,0.4,0.7*35
$GPGSA,A,3,43,60,,,,,,,,,,,0.8,0.4,0.7*38
$GPGST,185952.00,1.909,0.407,0.324,28.545,0.390,0.345,0.741*66
$GPGBS,185952.00,2.826,1.971,3.896,67,0.0001,7.129,6.219*58
$GPGRS,185952.00,1,1.0,0.0,-0.3,0.2,0.0,-0.1,0.1,0.0,-0.1,1.1,,*60
$GPGRS,185952.00,1,-2.8,7.1,3.8,-4.1,-1.0,-0.0,-1.0,-2.3,,,,*4F
$GPGRS,185952.00,1,0.1,0.3,-0.2,0.2,0.0,,,,,,,*4D
$GPGRS,185952.00,1,-0.4,0.8,0.6,0.1,2.4,-0.3,0.4,-0.1,0.5,-0.4,-0.1,0.4*6E
$GPGRS,185952.00,1,-0.6,-1.2,,,,,,,,,,*49
$GPGSV,6,1,22,16,66,258,48,10,27,171,44,08,11,291,38,15,12,073,40*77
$GPGSV,6,2,22,29,12,101,39,26,50,200,48,27,44,295,47,18,54,057,47*71
$GPGSV,6,3,22,23,52,126,48,07,07,330,39,05,01,029,31,13,03,042,32*72
$GPGSV,6,4,22,31,01,214,38,36,35,170,45,58,13,245,37,57,11,108,38*78
$GPGSV,6,5,22,34,31,208,42,40,24,133,36,49,34,195,44,41,07,108,34*7E
$GPGSV,6,6,22,61,03,257,38*46
$GLGSV,3,1,10,83,60,292,43,80,37,206,50,74,19,331,40,81,15,064,44*69
$GLGSV,3,2,10,67,21,106,47,66,25,050,47,73,49,289,50,82,58,033,50*6F
$GLGSV,3,3,10,65,04,006,37,84,03,255,33*6C
$GAGSV,2,1,08,13,87,254,48,27,30,162,43,26,32,236,43,23,34,310,*64
$GAGSV,2,2,08,15,37,054,44,21,68,232,49,03,05,072,37,05,04,025,35*65
$GBGSV,6,1,23,43,61,069,50,33,11,150,,21,19,045,43,46,14,323,*6B
$GBGSV,6,2,23,60,11,108,40,38,21,037,42,05,22,129,38,23,26,208,46*66
$GBGSV,6,3,23,34,15,082,41,58,20,319,,14,23,127,41,31,32,052,*66
$GBGSV,6,4,23,50,27,069,,08,35,040,41,42,29,098,45,13,41,048,45*6F
$GBGSV,6,5,23,11,38,073,46,37,39,268,47,28,49,275,49,27,54,265,*6A
$GBGSV,6,6,23,30,06,258,,02,07,106,35,07,04,115,*52
$GPGGA,185952.00,,,,,0,00,,,M,,M,,*4A
$PTNL,GGK,185952.00,010125,4742.1604978,N,01618.1001869,E,1,37,0.8,EHT751.3241,M*4A
$GPGGQ,185952.00,010125,4742.1604978,N,01618.1001869,E,1,37,0.906,708.1176,M*3A
$GPGFA,185952.00,3.870,6.079,0.407,0.324,28.545,0.741,,VVV*3F
$GPLLK,185952.00,010125,,M,,M,1,37,1.0,,M*0C
$GNGMP,185952.00,,,,,DAAA,37,0.4,,,,*54
$GPGMP,185952.00,,,,,,10,,,,3.7,136*7E
$GLGMP,185952.00,,,,,,08,,,,,*75
$GAGMP,185952.00,,,,,,05,,,,,*75
$GBGMP,185952.00,,,,,,14,,,,,*76
$PSSN,SNC,[0,327610000,2347]*45
$GPZDA,185957.00,01,01,2025,,*64
$GPDTM,W84,,00.0000000,N,00.0000000,E,00.0000000,W84*5F
$PSSN,TFM,185957.00,,,,*68
$GPRMC,185957.00,A,4742.1604970,N,01618.1001865,E,0.0,,010125,5.1,E,D*17
$GPGLL,4742.1604970,N,01618.1001865,E,185957.00,A,D*66
$GPGGA,185957.00,4742.1604970,N,01618.1001865,E,2,37,0.4,708.1191,M,43.2066,M,2.0,0136*4F
$GNGNS,185957.00,4742.1604970,N,01618.1001865,E,DAAA,37,0.4,708.1191,43.2066,,*55
$GPGNS,185957.00,,,,,,10,,,,2.0,136*7D
$GLGNS,185957.00,,,,,,08,,,,,*70
$GAGNS,185957.00,,,,,,05,,,,,*70
$GBGNS,185957.00,,,,,,14,,,,,*73
$GPLLQ,185957.00,010125,,M,,M,1,37,0.905,,M*1E
$GPVTG,,T,,M,0.01,N,0.01,K,D*26
$GPHDT,,T*1B
$GPTHS,,V*0E
$GPROT,,V*08
$PSSN,HRP,185957.00,010125,,,,,,,00,0,,*66
$PTNL,AVR,185957.00,,Yaw,,Tilt,,,,0,,00*30
$GPGSA,A,3,07,08,10,15,16,18,23,26,27,29,,,0.8,0.4,0.7*36
$GPGSA,A,3,66,67,73,74,80,81,82,83,,,,,0.8,0.4,0.7*3F
$GPGSA,A,3,13,15,21,26,27,,,,,,,,0.8,0.4,0.7*3D
$GPGSA,A,3,05,08,11,13,14,21,23,28,34,37,38,42,0.8,0.4,0.7*35
$GPGSA,A,3,43,60,,,,,,,,,,,0.8,0.4,0.7*38
$GPGST,185957.00,1.985,0.405,0.323,27.250,0.389,0.341,0.742*61
$GPGBS,185957.00,2.653,1.922,3.816,67,0.0001,6.589,6.219*50
$GPGRS,185957.00,1,0.9,0.2,-0.2,-0.4,0.2,-0.1,0.0,0.0,-0.2,1.0,,*44
$GPGRS,185957.00,1,-3.6,6.6,3.9,-4.8,-1.2,0.6,-0.9,-2.2,,,,*6B
$GPGRS,185957.00,1,-0.0,0.1,-0.3,0.1,-0.4,,,,,,,*4D
$GPGRS,185957.00,1,-0.5,0.4,1.0,-0.2,3.0,-0.6,0.4,-0.2,0.0,-0.5,-0.3,0.6*48
$GPGRS,185957.00,1,-0.8,-1.3,,,,,,,,,,*43
$GPGSV,6,1,22,16,66,258,49,10,27,171,44,08,11,291,38,15,12,073,40*76
$GPGSV,6,2,22,29,12,101,40,26,50,200,48,27,44,295,47,18,54,057,47*7F
$GPGSV,6,3,22,23,52,126,48,07,07,330,39,05,01,029,31,13,03,042,32*72
$GPGSV,6,4,22,31,01,214,38,36,35,170,45,58,13,245,37,57,11,108,37*77
$GPGSV,6,5,22,34,31,208,42,40,24,133,35,49,34,195,44,41,07,108,34*7D
$GPGSV,6,6,22,61,03,257,38*46
$GLGSV,3,1,10,83,60,292,42,80,37,206,50,74,19,331,40,81,15,064,44*68
$GLGSV,3,2,10,67,21,106,47,66,25,050,47,73,49,289,50,82,58,033,50*6F
$GLGSV,3,3,10,65,04,006,38,84,03,256,33*60
$GAGSV,2,1,08,13,87,254,48,27,30,162,43,26,32,236,43,23,34,310,*64
$GAGSV,2,2,08,15,37,054,44,21,68,232,49,03,05,072,37,05,04,025,35*65
$GBGSV,6,1,23,43,61,069,50,33,11,150,,21,19,045,42,46,14,323,*6A
$GBGSV,6,2,23,60,11,108,40,38,21,037,42,05,22,129,38,23,26,208,45*65
$GBGSV,6,3,23,34,15,082,41,58,20,319,,14,23,127,40,31,31,052,*64
$GBGSV,6,4,23,50,27,069,,08,35,040,41,42,29,098,46,13,41,048,45*6C
$GBGSV,6,5,23,11,37,073,46,37,39,268,47,28,49,275,49,27,54,265,*65
$GBGSV,6,6,23,30,06,258,,02,07,106,35,07,04,115,*52
$GPGGA,185957.00,,,,,0,00,,,M,,M,,*4F
$PTNL,GGK,185957.00,010125,4742.1604970,N,01618.1001865,E,1,37,0.8,EHT751.3256,M*4D
$GPGGQ,185957.00,010125,4742.1604970,N,01618.1001865,E,1,37,0.905,708.1191,M*31
$GPGFA,185957.00,3.849,6.085,0.405,0.323,27.250,0.742,,VVV*39
$GPLLK,185957.00,010125,,M,,M,1,37,1.0,,M*09
$GNGMP,185957.00,,,,,DAAA,37,0.4,,,,*51
$GPGMP,185957.00,,,,,,10,,,,2.0,136*7D
$GLGMP,185957.00,,,,,,08,,,,,*70
$GAGMP,185957.00,,,,,,05,,,,,*70
$GBGMP,185957.00,,,,,,14,,,,,*73
$PSSN,SNC,[0,327615000,2347]*40
$GPZDA,190002.00,01,01,2025,,*69
$GPDTM,W84,,00.0000000,N,00.0000000,E,00.0000000,W84*5F
$PSSN,TFM,190002.00,,,,*65
$GPRMC,190002.00,A,4742.1604951,N,01618.1001892,E,0.0,,010125,5.1,E,D*11
$GPGLL,4742.1604951,N,01618.1001892,E,190002.00,A,D*60
$GPGGA,190002.00,4742.1604951,N,01618.1001892,E,2,37,0.4,708.1227,M,43.2066,M,1.7,0136*43
$GNGNS,190002.00,4742.1604951,N,01618.1001892,E,DAAA,37,0.4,708.1227,43.2066,,*5D
$GPGNS,190002.00,,,,,,10,,,,1.7,136*74
$GLGNS,190002.00,,,,,,08,,,,,*7D
$GAGNS,190002.00,,,,,,05,,,,,*7D
$GBGNS,190002.00,,,,,,14,,,,,*7E
$GPLLQ,190002.00,010125,,M,,M,1,37,0.887,,M*18
$GPVTG,,T,,M,0.00,N,0.00,K,D*26
$GPHDT,,T*1B
$GPTHS,,V*0E
$GPROT,,V*08
$PSSN,HRP,190002.00,010125,,,,,,,00,0,,*6B
$PTNL,AVR,190002.00,,Yaw,,Tilt,,,,0,,00*3D
$GPGSA,A,3,07,08,10,15,16,18,23,26,27,29,,,0.8,0.4,0.7*36
$GPGSA,A,3,66,67,73,74,80,81,82,83,,,,,0.8,0.4,0.7*3F
$GPGSA,A,3,13,15,21,26,27,,,,,,,,0.8,0.4,0.7*3D
$GPGSA,A,3,05,08,11,13,14,21,23,28,34,37,38,42,0.8,0.4,0.7*35
$GPGSA,A,3,43,60,,,,,,,,,,,0.8,0.4,0.7*38
$GPGST,190002.00,1.920,0.395,0.315,26.800,0.380,0.333,0.729*67
$GPGBS,190002.00,2.701,1.928,3.814,67,0.0001,6.822,6.219*5F
$GPGRS,190002.00,1,1.1,0.7,0.1,0.2,0.1,-0.3,-0.0,-0.3,-0.3,0.4,,*46
$GPGRS,190002.00,1,-2.7,6.8,3.8,-4.7,-0.4,0.8,-0.8,-2.2,,,,*6E
$GPGRS,190002.00,1,-0.1,-0.0,-0.2,-0.0,-0.5,,,,,,,*41
$GPGRS,190002.00,1,-0.3,0.3,1.0,-0.4,2.5,-0.5,0.1,-0.1,-0.1,-0.5,-0.4,0.1*6F
$GPGRS,190002.00,1,-0.6,-1.7,,,,,,,,,,*44
$GPGSV,6,1,22,16,66,258,49,10,27,171,44,08,11,291,38,15,12,073,40*76
$GPGSV,6,2,22,29,12,101,40,26,50,200,48,27,44,295,47,18,54,057,47*7F
$GPGSV,6,3,22,23,52,126,48,07,07,330,39,05,01,029,31,13,03,042,32*72
$GPGSV,6,4,22,31,01,214,38,36,35,170,44,58,13,245,37,57,11,108,37*76
$GPGSV,6,5,22,34,31,208,42,40,24,133,35,49,34,195,44,41,07,108,34*7D
$GPGSV,6,6,22,61,03,257,38*46
$GLGSV,3,1,10,83,60,292,42,80,37,206,50,74,19,331,40,81,15,064,44*68
$GLGSV,3,2,10,67,21,106,47,66,25,050,47,73,49,289,51,82,58,033,50*6E
$GLGSV,3,3,10,65,04,006,38,84,04,256,33*67
$GAGSV,2,1,08,13,87,255,49,27,30,162,43,26,32,236,44,23,34,310,*63
$GAGSV,2,2,08,15,37,054,44,21,68,232,49,03,05,072,37,05,04,025,35*65
$GBGSV,6,1,23,43,61,069,50,33,11,150,,21,19,045,43,46,14,322,*6A
$GBGSV,6,2,23,60,11,108,40,38,21,037,42,05,22,129,38,23,26,208,45*65
$GBGSV,6,3,23,34,15,082,41,58,20,319,,14,23,127,40,31,31,052,*64
$GBGSV,6,4,23,50,27,069,,08,35,040,41,42,29,098,45,13,41,048,45*6F
$GBGSV,6,5,23,11,37,073,46,37,39,268,47,28,49,275,49,27,54,265,*65
$GBGSV,6,6,23,30,06,259,,02,07,106,35,07,04,115,*53
$GPGGA,190002.00,,,,,0,00,,,M,,M,,*42
$PTNL,GGK,190002.00,010125,4742.1604951,N,01618.1001892,E,1,37,0.8,EHT751.3293,M*42
$GPGGQ,190002.00,010125,4742.1604951,N,01618.1001892,E,1,37,0.887,708.1227,M*32
$GPGFA,190002.00,3.759,5.981,0.395,0.315,26.800,0.729,,VVV*3C
$GPLLK,190002.00,010125,,M,,M,1,37,1.0,,M*04
$GNGMP,190002.00,,,,,DAAA,37,0.4,,,,*5C
$GPGMP,190002.00,,,,,,10,,,,1.7,136*74
$GLGMP,190002.00,,,,,,08,,,,,*7D
$GAGMP,190002.00,,,,,,05,,,,,*7D
$GBGMP,190002.00,,,,,,14,,,,,*7E
$PSSN,SNC,[0,327620000,2347]*46
$GPZDA,190007.00,01,01,2025,,*6C
$GPDTM,W84,,00.0000000,N,00.0000000,E,00.0000000,W84*5F
$PSSN,TFM,190007.00,,,,*60
$GPRMC,190007.00,A,4742.1604937,N,01618.1001901,E,0.0,,010125,5.1,E,D*1F
$GPGLL,4742.1604937,N,01618.1001901,E,190007.00,A,D*6E
$GPGGA,190007.00,4742.1604937,N,01618.1001901,E,2,38,0.4,708.1385,M,43.2066,M,2.7,0136*48
$GNGNS,190007.00,4742.1604937,N,01618.1001901,E,DAAA,38,0.4,708.1385,43.2066,,*55
$GPGNS,190007.00,,,,,,10,,,,2.7,136*72
$GLGNS,190007.00,,,,,,08,,,,,*78
$GAGNS,190007.00,,,,,,05,,,,,*78
$GBGNS,190007.00,,,,,,15,,,,,*7A
$GPLLQ,190007.00,010125,,M,,M,1,38,0.890,,M*14
$GPVTG,,T,,M,0.00,N,0.01,K,D*27
$GPHDT,,T*1B
$GPTHS,,V*0E
$GPROT,,V*08
$PSSN,HRP,190007.00,010125,,,,,,,00,0,,*6E
$PTNL,AVR,190007.00,,Yaw,,Tilt,,,,0,,00*38
$GPGSA,A,3,07,08,10,15,16,18,23,26,27,29,,,0.8,0.4,0.7*36
$GPGSA,A,3,66,67,73,74,80,81,82,83,,,,,0.8,0.4,0.7*3F
$GPGSA,A,3,13,15,21,26,27,,,,,,,,0.8,0.4,0.7*3D
$GPGSA,A,3,02,05,08,11,13,14,21,23,28,34,37,38,0.8,0.4,0.7*31
$GPGSA,A,3,42,43,60,,,,,,,,,,0.8,0.4,0.7*3E
$GPGST,190007.00,1.824,0.399,0.318,28.422,0.382,0.338,0.729*6D
$GPGBS,190007.00,2.754,1.948,3.842,67,0.0001,6.776,6.218*50
$GPGRS,190007.00,1,1.0,1.0,0.2,-0.1,-0.2,-0.2,0.0,-0.3,-0.3,0.6,,*69
$GPGRS,190007.00,1,-2.0,6.8,4.1,-4.2,-0.7,0.3,-0.9,-2.5,,,,*69
$GPGRS,190007.00,1,-0.0,0.0,-0.1,-0.1,-0.4,,,,,,,*6B
$GPGRS,190007.00,1,0.5,-0.0,-0.0,1.2,-0.6,1.9,-0.4,0.1,-0.4,-0.3,-0.5,-0.3*4D
$GPGRS,190007.00,1,-0.5,-0.6,-1.3,,,,,,,,,*43
$GPGSV,6,1,22,16,66,258,49,10,27,171,44,08,11,291,39,15,12,073,39*79
$GPGSV,6,2,22,29,12,101,40,26,50,200,48,27,44,295,47,18,54,057,47*7F
$GPGSV,6,3,22,23,52,126,48,07,07,330,39,05,01,029,31,13,03,042,32*72
$GPGSV,6,4,22,31,01,214,38,36,35,170,45,58,13,245,37,57,11,108,37*77
$GPGSV,6,5,22,34,31,208,42,40,24,133,36,49,34,195,44,41,07,108,34*7E
$GPGSV,6,6,22,61,03,257,38*46
$GLGSV,3,1,10,83,60,292,42,80,37,206,50,74,19,331,39,81,15,064,44*66
$GLGSV,3,2,10,67,21,106,47,66,25,050,47,73,49,289,51,82,58,033,50*6E
$GLGSV,3,3,10,65,04,006,38,84,04,256,34*60
$GAGSV,2,1,08,13,87,255,49,27,30,162,43,26,32,236,44,23,34,310,*63
$GAGSV,2,2,08,15,37,054,45,21,68,232,49,03,05,072,37,05,04,025,35*64
$GBGSV,6,1,23,43,61,070,50,33,11,150,,21,19,045,43,46,14,322,*62
$GBGSV,6,2,23,60,11,108,40,38,21,037,42,05,22,129,38,23,26,208,45*65
$GBGSV,6,3,23,34,14,082,41,58,20,319,,14,23,127,40,31,31,052,*65
$GBGSV,6,4,23,50,27,069,,08,35,040,41,42,30,098,45,13,41,048,45*67
$GBGSV,6,5,23,11,37,073,46,37,39,268,47,28,49,275,49,27,54,265,*65
$GBGSV,6,6,23,30,06,259,,02,07,106,35,07,04,115,*53
$GPGGA,190007.00,,,,,0,00,,,M,,M,,*47
$PTNL,GGK,190007.00,010125,4742.1604937,N,01618.1001901,E,1,38,0.8,EHT751.3451,M*4B
$GPGGQ,190007.00,010125,4742.1604937,N,01618.1001901,E,1,38,0.890,708.1385,M*3C
$GPGFA,190007.00,3.789,5.981,0.399,0.318,28.422,0.729,,VVV*37
$GPLLK,190007.00,010125,,M,,M,1,38,0.9,,M*06
$GNGMP,190007.00,,,,,DAAA,38,0.4,,,,*56
$GPGMP,190007.00,,,,,,10,,,,2.7,136*72
$GLGMP,190007.00,,,,,,08,,,,,*78
$GAGMP,190007.00,,,,,,05,,,,,*78
$GBGMP,190007.00,,,,,,15,,,,,*7A
$PSSN,SNC,[0,327625000,2347]*43
$GPZDA,190012.00,01,01,2025,,*68
$GPDTM,W84,,00.0000000,N,00.0000000,E,00.0000000,W84*5F
$PSSN,TFM,190012.00,,,,*64
$GPRMC,190012.00,A,4742.1604940,N,01618.1001928,E,0.0,,010125,5.1,E,D*10
$GPGLL,4742.1604940,N,01618.1001928,E,190012.00,A,D*61
$GPGGA,190012.00,4742.1604940,N,01618.1001928,E,2,37,0.4,708.1460,M,43.2066,M,3.7,0136*45
$GNGNS,190012.00,4742.1604940,N,01618.1001928,E,DAAA,37,0.4,708.1460,43.2066,,*59
$GPGNS,190012.00,,,,,,10,,,,3.7,136*77
$GLGNS,190012.00,,,,,,08,,,,,*7C
$GAGNS,190012.00,,,,,,05,,,,,*7C
$GBGNS,190012.00,,,,,,14,,,,,*7F
$GPLLQ,190012.00,010125,,M,,M,1,37,0.905,,M*12
$GPVTG,,T,,M,0.00,N,0.00,K,D*26
$GPHDT,,T*1B
$GPTHS,,V*0E
$GPROT,,V*08
$PSSN,HRP,190012.00,010125,,,,,,,00,0,,*6A
$PTNL,AVR,190012.00,,Yaw,,Tilt,,,,0,,00*3C
$GPGSA,A,3,07,08,10,15,16,18,23,26,27,29,,,0.8,0.4,0.7*36
$GPGSA,A,3,66,67,73,74,80,81,82,83,,,,,0.8,0.4,0.7*3F
$GPGSA,A,3,13,15,21,26,27,,,,,,,,0.8,0.4,0.7*3D
$GPGSA,A,3,05,08,11,13,14,21,23,28,34,37,38,42,0.8,0.4,0.7*35
$GPGSA,A,3,43,60,,,,,,,,,,,0.8,0.4,0.7*38
$GPGST,190012.00,2.084,0.406,0.324,28.481,0.389,0.344,0.741*61
$GPGBS,190012.00,2.825,1.968,3.906,67,0.0001,7.248,6.218*57
$GPGRS,190012.00,1,1.3,-0.4,0.0,-0.4,-0.1,-0.1,-0.0,0.2,-0.2,0.8,,*4F
$GPGRS,190012.00,1,-2.8,7.2,3.7,-5.9,-0.0,1.0,-0.4,-2.9,,,,*61
$GPGRS,190012.00,1,0.1,0.2,0.0,0.0,-0.2,,,,,,,*47
$GPGRS,190012.00,1,-0.0,0.6,0.6,-0.8,1.8,-0.2,-0.0,-0.4,-0.1,-0.6,-0.2,-0.1*6B
$GPGRS,190012.00,1,-0.7,-1.9,,,,,,,,,,*4A
$GPGSV,6,1,22,16,66,258,49,10,27,171,45,08,11,291,38,15,12,073,40*77
$GPGSV,6,2,22,29,12,101,40,26,50,200,48,27,44,295,47,18,54,057,47*7F
$GPGSV,6,3,22,23,52,126,48,07,07,330,39,05,01,029,31,13,03,042,33*73
$GPGSV,6,4,22,31,01,214,38,36,35,170,45,58,13,245,37,57,11,108,38*78
$GPGSV,6,5,22,34,31,208,42,40,24,133,35,49,34,195,44,41,07,108,34*7D
$GPGSV,6,6,22,61,03,257,38*46
$GLGSV,3,1,10,83,60,292,42,80,37,206,50,74,19,331,39,81,15,064,44*66
$GLGSV,3,2,10,67,21,106,46,66,25,050,46,73,49,289,51,82,58,033,50*6E
$GLGSV,3,3,10,65,04,006,38,84,04,256,34*60
$GAGSV,2,1,08,13,87,255,48,27,30,162,43,26,32,236,44,23,34,310,*62
$GAGSV,2,2,08,15,37,054,45,21,68,232,49,03,05,072,37,05,04,025,35*64
$GBGSV,6,1,23,43,61,070,50,33,11,150,,21,19,045,43,46,14,322,*62
$GBGSV,6,2,23,60,11,108,40,38,21,037,42,05,22,129,38,23,26,208,44*64
$GBGSV,6,3,23,34,14,082,42,58,20,319,,14,23,127,40,31,31,052,*66
$GBGSV,6,4,23,50,27,069,,08,35,040,41,42,30,098,45,13,41,048,44*66
$GBGSV,6,5,23,11,37,073,45,37,39,268,47,28,49,275,49,27,54,265,*66
$GBGSV,6,6,23,30,06,259,,02,07,106,35,07,04,115,*53
$GPGGA,190012.00,,,,,0,00,,,M,,M,,*43
$PTNL,GGK,190012.00,010125,4742.1604940,N,01618.1001928,E,1,37,0.8,EHT751.3526,M*4A
$GPGGQ,190012.00,010125,4742.1604940,N,01618.1001928,E,1,37,0.905,708.1460,M*3D
$GPGFA,190012.00,3.862,6.080,0.406,0.324,28.481,0.741,,VVV*3B
$GPLLK,190012.00,010125,,M,,M,1,37,1.0,,M*05
$GNGMP,190012.00,,,,,DAAA,37,0.4,,,,*5D
$GPGMP,190012.00,,,,,,10,,,,3.7,136*77
$GLGMP,190012.00,,,,,,08,,,,,*7C
$GAGMP,190012.00,,,,,,05,,,,,*7C
$GBGMP,190012.00,,,,,,14,,,,,*7F
$PSSN,SNC,[0,327630000,2347]*47
$GPZDA,190017.00,01,01,2025,,*6D
$GPDTM,W84,,00.0000000,N,00.0000000,E,00.0000000,W84*5F
$PSSN,TFM,190017.00,,,,*61
$GPRMC,190017.00,A,4742.1604936,N,01618.1001913,E,0.0,,010125,5.1,E,D*1C
$GPGLL,4742.1604936,N,01618.1001913,E,190017.00,A,D*6D
$GPGGA,190017.00,4742.1604936,N,01618.1001913,E,2,37,0.4,708.1460,M,43.2066,M,2.0,0136*4F
$GNGNS,190017.00,4742.1604936,N,01618.1001913,E,DAAA,37,0.4,708.1460,43.2066,,*55
$GPGNS,190017.00,,,,,,10,,,,2.0,136*74
$GLGNS,190017.00,,,,,,08,,,,,*79
$GAGNS,190017.00,,,,,,05,,,,,*79
$GBGNS,190017.00,,,,,,14,,,,,*7A
$GPLLQ,190017.00,010125,,M,,M,1,37,0.906,,M*14
$GPVTG,,T,,M,0.00,N,0.01,K,D*27
$GPHDT,,T*1B
$GPTHS,,V*0E
$GPROT,,V*08
$PSSN,HRP,190017.00,010125,,,,,,,00,0,,*6F
$PTNL,AVR,190017.00,,Yaw,,Tilt,,,,0,,00*39
$GPGSA,A,3,07,08,10,15,16,18,23,26,27,29,,,0.8,0.4,0.7*36
$GPGSA,A,3,66,67,73,74,80,81,82,83,,,,,0.8,0.4,0.7*3F
$GPGSA,A,3,13,15,21,26,27,,,,,,,,0.8,0.4,0.7*3D
$GPGSA,A,3,05,08,11,13,14,21,23,28,34,37,38,42,0.8,0.4,0.7*35
$GPGSA,A,3,43,60,,,,,,,,,,,0.8,0.4,0.7*38
$GPGST,190017.00,1.933,0.404,0.323,27.052,0.389,0.341,0.744*62
$GPGBS,190017.00,2.653,1.918,3.825,67,0.0001,6.508,6.218*58
$GPGRS,190017.00,1,0.8,-0.6,0.3,0.6,0.1,-0.2,0.0,0.1,-0.2,1.0,,*67
$GPGRS,190017.00,1,-3.3,6.5,3.3,-5.8,0.6,1.5,-0.3,-1.9,,,,*47
$GPGRS,190017.00,1,0.3,0.2,0.3,0.1,-0.1,,,,,,,*41
$GPGRS,190017.00,1,0.1,0.6,0.4,-0.2,1.6,-0.3,0.2,-0.1,-0.2,-0.3,-0.1,0.0*46
$GPGRS,190017.00,1,0.3,-1.2,,,,,,,,,,*6D
$GPGSV,6,1,22,16,66,258,49,10,27,171,45,08,11,291,38,15,12,073,40*77
$GPGSV,6,2,22,29,12,101,39,26,50,200,48,27,44,295,47,18,54,057,47*71
$GPGSV,6,3,22,23,52,126,47,07,07,330,39,05,01,029,30,13,03,042,33*7D
$GPGSV,6,4,22,31,01,214,38,36,35,170,45,58,13,245,38,57,11,108,38*77
$GPGSV,6,5,22,34,31,208,42,40,24,133,36,49,34,195,44,41,07,108,34*7E
$GPGSV,6,6,22,61,03,257,38*46
$GLGSV,3,1,10,83,60,292,42,80,37,206,51,74,19,331,39,81,15,064,44*67
$GLGSV,3,2,10,67,21,106,46,66,25,050,46,73,49,289,50,82,58,034,50*68
$GLGSV,3,3,10,65,04,006,37,84,04,256,34*6F
$GAGSV,2,1,08,13,87,256,48,27,30,162,43,26,32,236,44,23,34,310,*61
$GAGSV,2,2,08,15,36,054,44,21,68,232,48,03,05,071,37,05,04,025,35*66
$GBGSV,6,1,23,43,61,070,50,33,11,150,,21,19,045,42,46,15,322,*62
$GBGSV,6,2,23,60,11,108,40,38,21,037,42,05,22,129,38,23,26,208,44*64
$GBGSV,6,3,23,34,14,082,42,58,20,319,,14,23,127,40,31,31,052,*66
$GBGSV,6,4,23,50,27,069,,08,35,040,42,42,30,098,45,13,41,048,44*65
$GBGSV,6,5,23,11,37,073,45,37,39,268,47,28,50,275,49,27,54,265,*6E
$GBGSV,6,6,23,30,06,259,,02,07,106,35,07,04,115,*53
$GPGGA,190017.00,,,,,0,00,,,M,,M,,*46
$PTNL,GGK,190017.00,010125,4742.1604936,N,01618.1001913,E,1,37,0.8,EHT751.3526,M*46
$GPGGQ,190017.00,010125,4742.1604936,N,01618.1001913,E,1,37,0.906,708.1460,M*32
$GPGFA,190017.00,3.845,6.099,0.404,0.323,27.052,0.744,,VVV*36
$GPLLK,190017.00,010125,,M,,M,1,37,1.0,,M*00
$GNGMP,190017.00,,,,,DAAA,37,0.4,,,,*58
$GPGMP,190017.00,,,,,,10,,,,2.0,136*74
$GLGMP,190017.00,,,,,,08,,,,,*79
$GAGMP,190017.00,,,,,,05,,,,,*79
$GBGMP,190017.00,,,,,,14,,,,,*7A
$PSSN,SNC,[0,327635000,2347]*42
$GPZDA,190022.00,01,01,2025,,*6B
$GPDTM,W84,,00.0000000,N,00.0000000,E,00.0000000,W84*5F
$PSSN,TFM,190022.00,,,,*67
$GPRMC,190022.00,A,4742.1604950,N,01618.1001899,E,0.0,,010125,5.1,E,D*19
$GPGLL,4742.1604950,N,01618.1001899,E,190022.00,A,D*68
$GPGGA,190022.00,4742.1604950,N,01618.1001899,E,2,37,0.4,708.1539,M,43.2066,M,1.7,0136*43
$GNGNS,190022.00,4742.1604950,N,01618.1001899,E,DAAA,37,0.4,708.1539,43.2066,,*5D
$GPGNS,190022.00,,,,,,10,,,,1.7,136*76
$GLGNS,190022.00,,,,,,08,,,,,*7F
$GAGNS,190022.00,,,,,,05,,,,,*7F
$GBGNS,190022.00,,,,,,14,,,,,*7C
$GPLLQ,190022.00,010125,,M,,M,1,37,0.894,,M*18
$GPVTG,,T,,M,0.00,N,0.00,K,D*26
$GPHDT,,T*1B
$GPTHS,,V*0E
$GPROT,,V*08
$PSSN,HRP,190022.00,010125,,,,,,,00,0,,*69
$PTNL,AVR,190022.00,,Yaw,,Tilt,,,,0,,00*3F
$GPGSA,A,3,07,08,10,15,16,18,23,26,27,29,,,0.8,0.4,0.7*36
$GPGSA,A,3,66,67,73,74,80,81,82,83,,,,,0.8,0.4,0.7*3F
$GPGSA,A,3,13,15,21,26,27,,,,,,,,0.8,0.4,0.7*3D
$GPGSA,A,3,05,08,11,13,14,21,23,28,34,37,38,42,0.8,0.4,0.7*35
$GPGSA,A,3,43,60,,,,,,,,,,,0.8,0.4,0.7*38
$GPGST,190022.00,1.890,0.396,0.317,27.797,0.381,0.336,0.736*64
$GPGBS,190022.00,2.691,1.966,3.892,67,0.0001,6.749,6.217*5D
$GPGRS,190022.00,1,0.8,0.5,-0.1,0.2,-0.0,-0.2,-0.0,0.0,-0.1,0.8,,*6E
$GPGRS,190022.00,1,-3.4,6.7,2.5,-5.0,0.2,1.3,0.0,-2.1,,,,*6C
$GPGRS,190022.00,1,0.1,-0.1,-0.1,0.1,-0.5,,,,,,,*40
$GPGRS,190022.00,1,-0.0,1.1,0.6,0.1,2.4,-0.1,0.1,-0.4,-0.3,-0.4,-0.0,0.0*44
$GPGRS,190022.00,1,0.1,-1.6,,,,,,,,,,*6D
$GPGSV,6,1,22,16,66,257,49,10,27,171,45,08,11,291,38,15,12,073,39*76
$GPGSV,6,2,22,29,12,101,39,26,50,200,48,27,44,295,47,18,54,057,47*71
$GPGSV,6,3,22,23,52,126,48,07,07,330,38,05,01,029,30,13,03,042,32*72
$GPGSV,6,4,22,31,01,214,38,36,35,170,45,58,13,245,37,57,11,108,38*78
$GPGSV,6,5,22,34,31,208,42,40,24,133,36,49,34,195,44,41,07,108,34*7E
$GPGSV,6,6,22,61,03,257,38*46
$GLGSV,3,1,10,83,60,292,43,80,37,206,50,74,19,331,38,81,15,064,44*66
$GLGSV,3,2,10,67,21,106,46,66,25,050,47,73,49,289,50,82,58,034,50*69
$GLGSV,3,3,10,65,04,006,37,84,04,256,33*68
$GAGSV,2,1,08,13,87,256,48,27,30,162,42,26,32,236,44,23,34,310,*60
$GAGSV,2,2,08,15,36,054,44,21,68,232,49,03,05,071,37,05,04,025,34*66
$GBGSV,6,1,23,43,61,070,50,33,11,150,,21,19,045,42,46,15,322,*62
$GBGSV,6,2,23,60,11,108,40,38,21,037,42,05,22,129,38,23,25,208,44*67
$GBGSV,6,3,23,34,14,082,42,58,20,319,,14,23,127,41,31,31,052,*67
$GBGSV,6,4,23,50,27,069,,08,35,040,42,42,30,098,45,13,41,048,45*64
$GBGSV,6,5,23,11,37,073,45,37,39,268,47,28,50,275,49,27,54,265,*6E
$GBGSV,6,6,23,30,06,259,,02,07,106,35,07,04,115,*53
$GPGGA,190022.00,,,,,0,00,,,M,,M,,*40
$PTNL,GGK,190022.00,010125,4742.1604950,N,01618.1001899,E,1,37,0.8,EHT751.3604,M*40
$GPGGQ,190022.00,010125,4742.1604950,N,01618.1001899,E,1,37,0.894,708.1539,M*30
$GPGFA,190022.00,3.768,6.038,0.396,0.317,27.797,0.736,,VVV*3B
$GPLLK,190022.00,010125,,M,,M,1,37,1.0,,M*06
$GNGMP,190022.00,,,,,DAAA,37,0.4,,,,*5E
$GPGMP,190022.00,,,,,,10,,,,1.7,136*76
$GLGMP,190022.00,,,,,,08,,,,,*7F
$GAGMP,190022.00,,,,,,05,,,,,*7F
$GBGMP,190022.00,,,,,,14,,,,,*7C
$PSSN,SNC,[0,327640000,2347]*40
$GPZDA,190027.00,01,01,2025,,*6E
$GPDTM,W84,,00.0000000,N,00.0000000,E,00.0000000,W84*5F
$PSSN,TFM,190027.00,,,,*62
$GPRMC,190027.00,A,4742.1604940,N,01618.1001939,E,0.0,,010125,5.1,E,D*16
$GPGLL,4742.1604940,N,01618.1001939,E,190027.00,A,D*67
$GPGGA,190027.00,4742.1604940,N,01618.1001939,E,2,38,0.4,708.1544,M,43.2066,M,2.7,0136*4A
$GNGNS,190027.00,4742.1604940,N,01618.1001939,E,DAAA,38,0.4,708.1544,43.2066,,*57
$GPGNS,190027.00,,,,,,10,,,,2.7,136*70
$GLGNS,190027.00,,,,,,08,,,,,*7A
$GAGNS,190027.00,,,,,,05,,,,,*7A
$GBGNS,190027.00,,,,,,15,,,,,*78
$GPLLQ,190027.00,010125,,M,,M,1,38,0.897,,M*11
$GPVTG,,T,,M,0.00,N,0.00,K,D*26
$GPHDT,,T*1B
$GPTHS,,V*0E
$GPROT,,V*08
$PSSN,HRP,190027.00,010125,,,,,,,00,0,,*6C
$PTNL,AVR,190027.00,,Yaw,,Tilt,,,,0,,00*3A
$GPGSA,A,3,07,08,10,15,16,18,23,26,27,29,,,0.8,0.4,0.7*36
$GPGSA,A,3,66,67,73,74,80,81,82,83,,,,,0.8,0.4,0.7*3F
$GPGSA,A,3,13,15,21,26,27,,,,,,,,0.8,0.4,0.7*3D
$GPGSA,A,3,02,05,08,11,13,14,21,23,28,34,37,38,0.8,0.4,0.7*31
$GPGSA,A,3,42,43,60,,,,,,,,,,0.8,0.4,0.7*3E
$GPGST,190027.00,1.729,0.400,0.320,29.527,0.382,0.341,0.736*64
$GPGBS,190027.00,2.744,1.987,3.920,67,0.0001,5.594,6.218*58
$GPGRS,190027.00,1,0.8,0.5,-0.4,-0.5,0.2,-0.0,-0.1,0.2,-0.2,0.6,,*67
$GPGRS,190027.00,1,-2.6,5.6,2.7,-4.9,-0.9,1.5,0.2,-2.4,,,,*45
$GPGRS,190027.00,1,-0.0,0.1,-0.1,0.2,-0.6,,,,,,,*44
$GPGRS,190027.00,1,0.5,-0.2,1.3,1.1,0.2,2.0,0.3,-0.3,-0.3,-0.4,-0.6,-0.2*45
$GPGRS,190027.00,1,-0.5,0.1,-2.0,,,,,,,,,*6B
$GPGSV,6,1,22,16,66,257,49,10,27,171,45,08,11,291,37,15,12,073,38*78
$GPGSV,6,2,22,29,12,101,39,26,50,199,48,27,44,295,47,18,54,057,47*72
$GPGSV,6,3,22,23,52,126,48,07,07,329,38,05,01,029,30,13,03,042,33*7B
$GPGSV,6,4,22,31,01,214,38,36,35,170,45,58,13,245,37,57,11,108,38*78
$GPGSV,6,5,22,34,31,208,42,40,24,133,36,49,34,195,44,41,07,108,34*7E
$GPGSV,6,6,22,61,03,257,38*46
$GLGSV,3,1,10,83,60,292,43,80,37,206,50,74,19,331,40,81,15,064,44*69
$GLGSV,3,2,10,67,21,106,45,66,25,050,47,73,49,289,50,82,58,034,50*6A
$GLGSV,3,3,10,65,04,006,37,84,04,256,34*6F
$GAGSV,2,1,08,13,87,256,48,27,30,162,42,26,32,236,44,23,34,310,*60
$GAGSV,2,2,08,15,36,054,44,21,68,232,48,03,05,071,37,05,04,025,34*67
$GBGSV,6,1,23,43,61,070,50,33,11,150,,21,19,045,42,46,15,322,*62
$GBGSV,6,2,23,60,11,108,40,38,21,037,42,05,22,129,38,23,25,208,45*66
$GBGSV,6,3,23,34,14,082,42,58,20,319,,14,23,127,41,31,31,052,*67
$GBGSV,6,4,23,50,27,069,,08,35,040,42,42,30,098,45,13,41,048,45*64
$GBGSV,6,5,23,11,37,073,46,37,39,268,47,28,50,275,49,27,54,265,*6D
$GBGSV,6,6,23,30,06,259,,02,07,106,35,07,04,115,*53
$GPGGA,190027.00,,,,,0,00,,,M,,M,,*45
$PTNL,GGK,190027.00,010125,4742.1604940,N,01618.1001939,E,1,38,0.8,EHT751.3609,M*4D
$GPGGQ,190027.00,010125,4742.1604940,N,01618.1001939,E,1,38,0.897,708.1544,M*39
$GPGFA,190027.00,3.801,6.039,0.400,0.320,29.527,0.736,,VVV*34
$GPLLK,190027.00,010125,,M,,M,1,38,0.9,,M*04
$GNGMP,190027.00,,,,,DAAA,38,0.4,,,,*54
$GPGMP,190027.00,,,,,,10,,,,2.7,136*70
$GLGMP,190027.00,,,,,,08,,,,,*7A
$GAGMP,190027.00,,,,,,05,,,,,*7A
$GBGMP,190027.00,,,,,,15,,,,,*78
$PSSN,SNC,[0,327645000,2347]*45
$GPZDA,190032.00,01,01,2025,,*6A
$GPDTM,W84,,00.0000000,N,00.0000000,E,00.0000000,W84*5F
$PSSN,TFM,190032.00,,,,*66
$GPRMC,190032.00,A,4742.1604921,N,01618.1001961,E,0.0,,010125,5.1,E,D*18
$GPGLL,4742.1604921,N,01618.1001961,E,190032.00,A,D*69
$GPGGA,190032.00,4742.1604921,N,01618.1001961,E,2,38,0.4,708.1556,M,43.2066,M,3.7,0136*46
$GNGNS,190032.00,4742.1604921,N,01618.1001961,E,DAAA,38,0.4,708.1556,43.2066,,*5A
$GPGNS,190032.00,,,,,,10,,,,3.7,136*75
$GLGNS,190032.00,,,,,,08,,,,,*7E
$GAGNS,190032.00,,,,,,05,,,,,*7E
$GBGNS,190032.00,,,,,,15,,,,,*7C
$GPLLQ,190032.00,010125,,M,,M,1,38,0.913,,M*18
$GPVTG,,T,,M,0.00,N,0.00,K,D*26
$GPHDT,,T*1B
$GPTHS,,V*0E
$GPROT,,V*08
$PSSN,HRP,190032.00,010125,,,,,,,00,0,,*68
$PTNL,AVR,190032.00,,Yaw,,Tilt,,,,0,,00*3E
$GPGSA,A,3,07,08,10,15,16,18,23,26,27,29,,,0.8,0.4,0.7*36
$GPGSA,A,3,66,67,73,74,80,81,82,83,,,,,0.8,0.4,0.7*3F
$GPGSA,A,3,13,15,21,26,27,,,,,,,,0.8,0.4,0.7*3D
$GPGSA,A,3,02,05,08,11,13,14,21,23,28,34,37,38,0.8,0.4,0.7*31
$GPGSA,A,3,42,43,60,,,,,,,,,,0.8,0.4,0.7*3E
$GPGST,190032.00,1.830,0.408,0.326,29.476,0.389,0.347,0.749*69
$GPGBS,190032.00,2.810,2.009,3.968,67,0.0001,6.625,6.217*57
$GPGRS,190032.00,1,0.8,-0.1,-0.4,-0.1,-0.1,-0.1,-0.0,0.1,0.1,0.5,,*4E
$GPGRS,190032.00,1,-3.4,6.6,3.0,-4.9,-0.5,0.3,0.3,-2.6,,,,*4F
$GPGRS,190032.00,1,-0.0,0.1,-0.3,0.1,-0.0,,,,,,,*47
$GPGRS,190032.00,1,0.3,-0.2,1.3,1.2,0.4,0.4,0.4,-0.1,0.1,-0.3,-0.3,0.0*43
$GPGRS,190032.00,1,-0.1,0.1,-1.7,,,,,,,,,*6F
$GPGSV,6,1,22,16,66,257,49,10,28,171,44,08,11,291,38,15,12,072,38*78
$GPGSV,6,2,22,29,12,101,40,26,50,199,48,27,44,295,46,18,54,057,47*7D
$GPGSV,6,3,22,23,52,126,48,07,07,329,38,05,01,029,28,13,03,042,33*72
$GPGSV,6,4,22,31,01,214,37,36,35,170,45,58,13,245,38,57,11,108,38*78
$GPGSV,6,5,22,34,31,208,43,40,24,133,36,49,34,195,44,41,07,108,34*7F
$GPGSV,6,6,22,61,03,257,38*46
$GLGSV,3,1,10,83,60,293,43,80,37,206,50,74,19,331,39,81,15,064,43*61
$GLGSV,3,2,10,67,21,106,46,66,25,050,46,73,49,288,50,82,58,034,51*68
$GLGSV,3,3,10,65,04,006,37,84,04,256,35*6E
$GAGSV,2,1,08,13,87,257,48,27,30,162,43,26,32,236,44,23,34,310,*60
$GAGSV,2,2,08,15,36,054,44,21,68,232,48,03,05,071,36,05,04,025,34*66
$GBGSV,6,1,23,43,61,070,50,33,11,150,,21,19,045,42,46,15,322,*62
$GBGSV,6,2,23,60,11,108,40,38,21,037,42,05,22,129,38,23,25,208,45*66
$GBGSV,6,3,23,34,14,082,42,58,20,319,,14,23,127,40,31,31,052,*66
$GBGSV,6,4,23,50,27,068,,08,35,040,42,42,30,098,45,13,41,048,45*65
$GBGSV,6,5,23,11,37,073,46,37,39,268,47,28,50,275,49,27,54,265,*6D
$GBGSV,6,6,23,30,06,259,,02,07,106,35,07,04,115,*53
$GPGGA,190032.00,,,,,0,00,,,M,,M,,*41
$PTNL,GGK,190032.00,010125,4742.1604921,N,01618.1001961,E,1,38,0.8,EHT751.3621,M*49
$GPGGQ,190032.00,010125,4742.1604921,N,01618.1001961,E,1,38,0.913,708.1556,M*39
$GPGFA,190032.00,3.875,6.141,0.408,0.326,29.476,0.749,,VVV*3E
$GPLLK,190032.00,010125,,M,,M,1,38,0.9,,M*00
$GNGMP,190032.00,,,,,DAAA,38,0.4,,,,*50
$GPGMP,190032.00,,,,,,10,,,,3.7,136*75
$GLGMP,190032.00,,,,,,08,,,,,*7E
$GAGMP,190032.00,,,,,,05,,,,,*7E
$GBGMP,190032.00,,,,,,15,,,,,*7C
$PSSN,SNC,[0,327650000,2347]*41
$GPZDA,190037.00,01,01,2025,,*6F
$GPDTM,W84,,00.0000000,N,00.0000000,E,00.0000000,W84*5F
$PSSN,TFM,190037.00,,,,*63
$GPRMC,190037.00,A,4742.1604904,N,01618.1001964,E,0.0,,010125,5.1,E,D*1F
$GPGLL,4742.1604904,N,01618.1001964,E,190037.00,A,D*6E
$GPGGA,190037.00,4742.1604904,N,01618.1001964,E,2,38,0.4,708.1570,M,43.2066,M,2.0,0136*43
$GNGNS,190037.00,4742.1604904,N,01618.1001964,E,DAAA,38,0.4,708.1570,43.2066,,*59
$GPGNS,190037.00,,,,,,10,,,,2.0,136*76
$GLGNS,190037.00,,,,,,08,,,,,*7B
$GAGNS,190037.00,,,,,,05,,,,,*7B
$GBGNS,190037.00,,,,,,15,,,,,*79
$GPLLQ,190037.00,010125,,M,,M,1,38,0.912,,M*1C
$GPVTG,,T,,M,0.01,N,0.01,K,D*26
$GPHDT,,T*1B
$GPTHS,,V*0E
$GPROT,,V*08
$PSSN,HRP,190037.00,010125,,,,,,,00,0,,*6D
$PTNL,AVR,190037.00,,Yaw,,Tilt,,,,0,,00*3B
$GPGSA,A,3,07,08,10,15,16,18,23,26,27,29,,,0.8,0.4,0.7*36
$GPGSA,A,3,66,67,73,74,80,81,82,83,,,,,0.8,0.4,0.7*3F
$GPGSA,A,3,13,15,21,26,27,,,,,,,,0.8,0.4,0.7*3D
$GPGSA,A,3,02,05,08,11,13,14,21,23,28,34,37,38,0.8,0.4,0.7*31
$GPGSA,A,3,42,43,60,,,,,,,,,,0.8,0.4,0.7*3E
$GPGST,190037.00,1.992,0.405,0.324,28.196,0.389,0.344,0.750*6B
$GPGBS,190037.00,2.639,1.956,3.893,67,0.0001,7.438,6.217*5D
$GPGRS,190037.00,1,1.2,-0.3,-0.4,0.3,0.1,0.1,-0.2,0.1,-0.2,0.9,,*4D
$GPGRS,190037.00,1,-3.6,7.4,3.2,-5.6,-0.0,1.0,0.1,-1.8,,,,*4F
$GPGRS,190037.00,1,-0.1,-0.0,-0.2,-0.1,0.0,,,,,,,*6E
$GPGRS,190037.00,1,0.8,0.4,0.7,0.9,0.4,0.7,0.5,-0.1,0.2,0.1,-0.4,-0.1*6C
$GPGRS,190037.00,1,0.0,0.2,-1.9,,,,,,,,,*4B
$GPGSV,6,1,22,16,66,257,49,10,28,171,43,08,11,291,38,15,12,072,39*7E
$GPGSV,6,2,22,29,12,102,40,26,50,199,47,27,44,295,46,18,54,057,47*71
$GPGSV,6,3,22,23,52,125,48,07,07,329,39,05,01,029,29,13,03,041,33*72
$GPGSV,6,4,22,31,01,214,37,36,35,170,45,58,13,245,38,57,11,108,38*78
$GPGSV,6,5,22,34,31,208,42,40,24,133,36,49,34,195,44,41,07,108,34*7E
$GPGSV,6,6,22,61,03,257,38*46
$GLGSV,3,1,10,83,60,293,43,80,37,206,50,74,19,331,40,81,15,064,44*68
$GLGSV,3,2,10,67,21,106,47,66,25,050,46,73,49,288,50,82,58,034,51*69
$GLGSV,3,3,10,65,04,006,38,84,04,256,34*60
$GAGSV,2,1,08,13,87,258,48,27,30,162,43,26,32,236,44,23,34,310,*6F
$GAGSV,2,2,08,15,36,054,44,21,68,232,48,03,05,071,35,05,04,025,34*65
$GBGSV,6,1,23,43,61,070,50,33,11,150,,21,19,045,41,46,15,322,*61
$GBGSV,6,2,23,60,11,108,40,38,21,037,42,05,22,129,38,23,25,208,45*66
$GBGSV,6,3,23,34,14,082,42,58,20,319,,14,23,127,40,31,31,052,*66
$GBGSV,6,4,23,50,27,068,,08,35,040,42,42,30,098,45,13,41,048,45*65
$GBGSV,6,5,23,11,37,073,45,37,39,268,47,28,50,275,49,27,54,265,*6E
$GBGSV,6,6,23,30,06,259,,02,07,106,35,07,04,115,*53
$GPGGA,190037.00,,,,,0,00,,,M,,M,,*44
$PTNL,GGK,190037.00,010125,4742.1604904,N,01618.1001964,E,1,38,0.8,EHT751.3635,M*4B
$GPGGQ,190037.00,010125,4742.1604904,N,01618.1001964,E,1,38,0.912,708.1570,M*3B
$GPGFA,190037.00,3.854,6.147,0.405,0.324,28.196,0.750,,VVV*33
$GPLLK,190037.00,010125,,M,,M,1,38,0.9,,M*05
$GNGMP,190037.00,,,,,DAAA,38,0.4,,,,*55
$GPGMP,190037.00,,,,,,10,,,,2.0,136*76
$GLGMP,190037.00,,,,,,08,,,,,*7B
$GAGMP,190037.00,,,,,,05,,,,,*7B
$GBGMP,190037.00,,,,,,15,,,,,*79
$PSSN,SNC,[0,327655000,2347]*44
$GPZDA,190042.00,01,01,2025,,*6D
$GPDTM,W84,,00.0000000,N,00.0000000,E,00.0000000,W84*5F
$PSSN,TFM,190042.00,,,,*61
$GPRMC,190042.00,A,4742.1604878,N,01618.1001956,E,0.0,,010125,5.1,E,D*16
$GPGLL,4742.1604878,N,01618.1001956,E,190042.00,A,D*67
$GPGGA,190042.00,4742.1604878,N,01618.1001956,E,2,38,0.4,708.1660,M,43.2066,M,1.7,0136*4C
$GNGNS,190042.00,4742.1604878,N,01618.1001956,E,DAAA,38,0.4,708.1660,43.2066,,*52
$GPGNS,190042.00,,,,,,10,,,,1.7,136*70
$GLGNS,190042.00,,,,,,08,,,,,*79
$GAGNS,190042.00,,,,,,05,,,,,*79
$GBGNS,190042.00,,,,,,15,,,,,*7B
$GPLLQ,190042.00,010125,,M,,M,1,38,0.895,,M*10
$GPVTG,,T,,M,0.00,N,0.01,K,D*27
$GPHDT,,T*1B
$GPTHS,,V*0E
$GPROT,,V*08
$PSSN,HRP,190042.00,010125,,,,,,,00,0,,*6F
$PTNL,AVR,190042.00,,Yaw,,Tilt,,,,0,,00*39
$GPGSA,A,3,07,08,10,15,16,18,23,26,27,29,,,0.8,0.4,0.7*36
$GPGSA,A,3,66,67,73,74,80,81,82,83,,,,,0.8,0.4,0.7*3F
$GPGSA,A,3,13,15,21,26,27,,,,,,,,0.8,0.4,0.7*3D
$GPGSA,A,3,02,05,08,11,13,14,21,23,28,34,37,38,0.8,0.4,0.7*31
$GPGSA,A,3,42,43,60,,,,,,,,,,0.8,0.4,0.7*3E
$GPGST,190042.00,1.983,0.396,0.317,27.665,0.380,0.336,0.738*62
$GPGBS,190042.00,2.686,1.965,3.887,67,0.0001,7.085,6.216*5D
$GPGRS,190042.00,1,1.0,0.9,0.3,0.2,-0.2,0.1,-0.3,-0.2,-0.2,0.4,,*4D
$GPGRS,190042.00,1,-3.2,7.1,2.9,-6.0,-0.2,1.2,-0.4,-1.9,,,,*6A
$GPGRS,190042.00,1,-0.2,0.0,-0.3,-0.1,-0.3,,,,,,,*6D
$GPGRS,190042.00,1,0.4,-0.1,0.4,0.0,0.1,1.8,0.4,-0.4,0.1,0.3,-0.6,0.2*62
$GPGRS,190042.00,1,-0.4,0.1,-2.1,,,,,,,,,*68
$GPGSV,6,1,22,16,66,257,48,10,28,171,44,08,11,291,38,15,12,072,39*78
$GPGSV,6,2,22,29,12,102,40,26,50,199,47,27,44,295,47,18,54,057,47*70
$GPGSV,6,3,22,23,52,125,48,07,07,329,40,05,01,029,28,13,03,041,34*7A
$GPGSV,6,4,22,31,01,214,37,36,35,170,45,58,13,245,38,57,11,108,38*78
$GPGSV,6,5,22,34,31,208,42,40,24,133,36,49,34,195,44,41,07,108,34*7E
$GPGSV,6,6,22,61,03,257,38*46
$GLGSV,3,1,10,83,60,293,43,80,37,206,50,74,20,331,40,81,15,064,43*65
$GLGSV,3,2,10,67,21,106,47,66,25,050,47,73,49,288,50,82,58,034,50*69
$GLGSV,3,3,10,65,04,006,37,84,04,256,33*68
$GAGSV,2,1,08,13,87,258,48,27,30,162,43,26,32,236,44,23,34,310,*6F
$GAGSV,2,2,08,15,36,054,44,21,68,232,48,03,05,071,35,05,04,025,34*65
$GBGSV,6,1,23,43,61,070,50,33,11,150,,21,19,045,42,46,15,322,*62
$GBGSV,6,2,23,60,11,108,40,38,21,037,42,05,22,129,38,23,25,208,45*66
$GBGSV,6,3,23,34,14,082,42,58,20,319,,14,23,127,41,31,31,052,*67
$GBGSV,6,4,23,50,27,068,,08,35,040,42,42,30,098,45,13,41,048,45*65
$GBGSV,6,5,23,11,37,073,45,37,39,268,47,28,50,275,49,27,54,265,*6E
$GBGSV,6,6,23,30,06,259,,02,07,106,35,07,04,115,*53
$GPGGA,190042.00,,,,,0,00,,,M,,M,,*46
$PTNL,GGK,190042.00,010125,4742.1604878,N,01618.1001956,E,1,38,0.8,EHT751.3726,M*41
$GPGGQ,190042.00,010125,4742.1604878,N,01618.1001956,E,1,38,0.895,708.1660,M*3E
$GPGFA,190042.00,3.764,6.048,0.396,0.317,27.665,0.738,,VVV*34
$GPLLK,190042.00,010125,,M,,M,1,38,0.9,,M*07
$GNGMP,190042.00,,,,,DAAA,38,0.4,,,,*57
$GPGMP,190042.00,,,,,,10,,,,1.7,136*70
$GLGMP,190042.00,,,,,,08,,,,,*79
$GAGMP,190042.00,,,,,,05,,,,,*79
$GBGMP,190042.00,,,,,,15,,,,,*7B
$PSSN,SNC,[0,327660000,2347]*42
$GPZDA,190047.00,01,01,2025,,*68
$GPDTM,W84,,00.0000000,N,00.0000000,E,00.0000000,W84*5F
$PSSN,TFM,190047.00,,,,*64
$GPRMC,190047.00,A,4742.1604860,N,01618.1001975,E,0.0,,010125,5.1,E,D*1B
$GPGLL,4742.1604860,N,01618.1001975,E,190047.00,A,D*6A
$GPGGA,190047.00,4742.1604860,N,01618.1001975,E,2,38,0.4,708.1802,M,43.2066,M,2.7,0136*48
$GNGNS,190047.00,4742.1604860,N,01618.1001975,E,DAAA,38,0.4,708.1802,43.2066,,*55
$GPGNS,190047.00,,,,,,10,,,,2.7,136*76
$GLGNS,190047.00,,,,,,08,,,,,*7C
$GAGNS,190047.00,,,,,,05,,,,,*7C
$GBGNS,190047.00,,,,,,15,,,,,*7E
$GPLLQ,190047.00,010125,,M,,M,1,38,0.898,,M*18
$GPVTG,,T,,M,0.00,N,0.01,K,D*27
$GPHDT,,T*1B
$GPTHS,,V*0E
$GPROT,,V*08
$PSSN,HRP,190047.00,010125,,,,,,,00,0,,*6A
$PTNL,AVR,190047.00,,Yaw,,Tilt,,,,0,,00*3C
$GPGSA,A,3,07,08,10,15,16,18,23,26,27,29,,,0.8,0.4,0.7*36
$GPGSA,A,3,66,67,73,74,80,81,82,83,,,,,0.8,0.4,0.7*3F
$GPGSA,A,3,13,15,21,26,27,,,,,,,,0.8,0.4,0.7*3D
$GPGSA,A,3,02,05,08,11,13,14,21,23,28,34,37,38,0.8,0.4,0.7*31
$GPGSA,A,3,42,43,60,,,,,,,,,,0.8,0.4,0.7*3E
$GPGST,190047.00,1.839,0.399,0.320,29.372,0.382,0.341,0.738*63
$GPGBS,190047.00,2.743,1.984,3.928,67,0.0001,6.620,6.216*53
$GPGRS,190047.00,1,0.8,0.2,0.4,0.2,-0.3,-0.1,-0.2,-0.1,0.1,0.3,,*4A
$GPGRS,190047.00,1,-3.4,6.6,3.2,-4.6,-0.2,0.7,-0.6,-2.0,,,,*6D
$GPGRS,190047.00,1,0.1,0.0,-0.2,-0.4,-0.2,,,,,,,*43
$GPGRS,190047.00,1,0.6,0.2,0.7,-0.1,-0.1,2.2,0.7,-0.3,-0.0,0.5,-0.6,0.3*6F
$GPGRS,190047.00,1,-0.2,-0.0,-2.0,,,,,,,,,*46
$GPGSV,6,1,22,16,66,257,49,10,28,171,45,08,11,291,38,15,12,072,39*78
$GPGSV,6,2,22,29,12,102,40,26,50,199,47,27,44,295,47,18,54,057,47*70
$GPGSV,6,3,22,23,53,125,48,07,07,329,39,05,01,029,27,13,03,041,34*7A
$GPGSV,6,4,22,31,01,214,37,36,35,170,45,58,13,245,38,57,11,108,38*78
$GPGSV,6,5,22,34,31,208,42,40,24,133,36,49,34,195,44,41,07,108,34*7E
$GPGSV,6,6,22,61,03,257,38*46
$GLGSV,3,1,10,83,60,293,43,80,37,206,50,74,20,331,40,81,15,064,43*65
$GLGSV,3,2,10,67,21,106,46,66,25,050,46,73,49,288,50,82,58,034,50*69
$GLGSV,3,3,10,65,04,006,37,84,04,256,33*68
$GAGSV,2,1,08,13,87,258,48,27,30,162,44,26,32,236,44,23,34,310,*68
$GAGSV,2,2,08,15,36,054,44,21,68,232,48,03,05,071,34,05,04,025,34*64
$GBGSV,6,1,23,43,61,070,50,33,11,150,,21,19,044,42,46,15,322,*63
$GBGSV,6,2,23,60,11,108,40,38,21,037,42,05,22,129,38,23,25,208,45*66
$GBGSV,6,3,23,34,14,082,42,58,21,319,,14,23,127,41,31,31,052,*66
$GBGSV,6,4,23,50,27,068,,08,35,040,42,42,30,098,45,13,41,048,45*65
$GBGSV,6,5,23,11,37,073,45,37,39,268,47,28,50,275,49,27,55,265,*6F
$GBGSV,6,6,23,30,06,259,,02,07,106,35,07,04,115,*53
$GPGGA,190047.00,,,,,0,00,,,M,,M,,*43
$PTNL,GGK,190047.00,010125,4742.1604860,N,01618.1001975,E,1,38,0.8,EHT751.3868,M*49
$GPGGQ,190047.00,010125,4742.1604860,N,01618.1001975,E,1,38,0.898,708.1802,M*34
$GPGFA,190047.00,3.795,6.051,0.399,0.320,29.372,0.738,,VVV*31
$GPLLK,190047.00,010125,,M,,M,1,38,0.9,,M*02
$GNGMP,190047.00,,,,,DAAA,38,0.4,,,,*52
$GPGMP,190047.00,,,,,,10,,,,2.7,136*76
$GLGMP,190047.00,,,,,,08,,,,,*7C
$GAGMP,190047.00,,,,,,05,,,,,*7C
$GBGMP,190047.00,,,,,,15,,,,,*7E
$PSSN,SNC,[0,327665000,2347]*47
$GPZDA,190052.00,01,01,2025,,*6C
$GPDTM,W84,,00.0000000,N,00.0000000,E,00.0000000,W84*5F
$PSSN,TFM,190052.00,,,,*60
$GPRMC,190052.00,A,4742.1604872,N,01618.1001962,E,0.0,,010125,5.1,E,D*1A
$GPGLL,4742.1604872,N,01618.1001962,E,190052.00,A,D*6B
$GPGGA,190052.00,4742.1604872,N,01618.1001962,E,2,38,0.4,708.1853,M,43.2066,M,3.7,0136*4C
$GNGNS,190052.00,4742.1604872,N,01618.1001962,E,DAAA,38,0.4,708.1853,43.2066,,*50
$GPGNS,190052.00,,,,,,10,,,,3.7,136*73
$GLGNS,190052.00,,,,,,08,,,,,*78
$GAGNS,190052.00,,,,,,05,,,,,*78
$GBGNS,190052.00,,,,,,15,,,,,*7A
$GPLLQ,190052.00,010125,,M,,M,1,38,0.913,,M*1E
$GPVTG,,T,,M,0.00,N,0.00,K,D*26
$GPHDT,,T*1B
$GPTHS,,V*0E
$GPROT,,V*08
$PSSN,HRP,190052.00,010125,,,,,,,00,0,,*6E
$PTNL,AVR,190052.00,,Yaw,,Tilt,,,,0,,00*38
$GPGSA,A,3,07,08,10,15,16,18,23,26,27,29,,,0.8,0.4,0.7*36
$GPGSA,A,3,66,67,73,74,80,81,82,83,,,,,0.8,0.4,0.7*3F
$GPGSA,A,3,13,15,21,26,27,,,,,,,,0.8,0.4,0.7*3D
$GPGSA,A,3,02,05,08,11,13,14,21,23,28,34,37,38,0.8,0.4,0.7*31
$GPGSA,A,3,42,43,60,,,,,,,,,,0.8,0.4,0.7*3E
$GPGST,190052.00,1.763,0.407,0.326,29.389,0.389,0.347,0.749*6E
$GPGBS,190052.00,2.808,2.006,3.977,67,0.0001,6.079,6.216*57
$GPGRS,190052.00,1,0.5,-0.5,0.1,0.4,-0.0,-0.0,-0.2,0.1,-0.1,0.8,,*63
$GPGRS,190052.00,1,-2.9,6.1,3.4,-4.6,-0.0,0.5,-0.2,-2.2,,,,*62
$GPGRS,190052.00,1,0.2,0.2,0.2,-0.0,-0.3,,,,,,,*6E
$GPGRS,190052.00,1,0.7,0.1,1.0,0.6,-0.2,2.2,0.7,-0.3,-0.2,0.7,-0.6,0.3*46
$GPGRS,190052.00,1,0.2,0.0,-1.9,,,,,,,,,*48
$GPGSV,6,1,22,16,66,257,48,10,28,171,45,08,11,291,39,15,12,072,38*79
$GPGSV,6,2,22,29,12,102,40,26,50,199,47,27,44,295,47,18,54,057,47*70
$GPGSV,6,3,22,23,53,125,47,07,07,329,39,05,01,029,27,13,03,041,34*75
$GPGSV,6,4,22,31,01,214,37,36,35,170,45,58,13,245,37,57,11,108,37*78
$GPGSV,6,5,22,34,31,208,42,40,24,133,36,49,34,195,44,41,07,108,34*7E
$GPGSV,6,6,22,61,03,257,38*46
$GLGSV,3,1,10,83,60,293,42,80,37,206,50,81,15,064,43,74,20,331,40*64
$GLGSV,3,2,10,67,21,106,46,66,25,049,47,73,49,288,50,82,58,034,50*60
$GLGSV,3,3,10,65,04,005,38,84,04,256,33*64
$GAGSV,2,1,08,13,87,259,48,27,29,162,43,26,32,236,44,23,34,310,*66
$GAGSV,2,2,08,15,36,054,44,21,68,231,48,03,05,071,34,05,04,025,34*67
$GBGSV,6,1,23,43,61,070,50,33,11,150,,21,19,044,42,46,15,322,*63
$GBGSV,6,2,23,60,11,108,40,38,21,037,42,05,22,129,38,23,25,208,45*66
$GBGSV,6,3,23,34,14,082,42,58,21,319,,31,31,052,,14,23,127,41*66
$GBGSV,6,4,23,50,27,068,,08,35,040,42,42,30,098,46,13,41,048,45*66
$GBGSV,6,5,23,11,37,073,46,37,39,268,47,28,50,275,49,27,55,265,*6C
$GBGSV,6,6,23,02,07,106,35,30,06,259,,07,04,115,*53
$GPGGA,190052.00,,,,,0,00,,,M,,M,,*47
$PTNL,GGK,190052.00,010125,4742.1604872,N,01618.1001962,E,1,38,0.8,EHT751.3919,M*4F
$GPGGQ,190052.00,010125,4742.1604872,N,01618.1001962,E,1,38,0.913,708.1853,M*33
$GPGFA,190052.00,3.867,6.144,0.407,0.326,29.389,0.749,,VVV*36
$GPLLK,190052.00,010125,,M,,M,1,38,0.9,,M*06
$GNGMP,190052.00,,,,,DAAA,38,0.4,,,,*56
$GPGMP,190052.00,,,,,,10,,,,3.7,136*73
$GLGMP,190052.00,,,,,,08,,,,,*78
$GAGMP,190052.00,,,,,,05,,,,,*78
$GBGMP,190052.00,,,,,,15,,,,,*7A
$PSSN,SNC,[0,327670000,2347]*43
$GPZDA,190057.00,01,01,2025,,*69
$GPDTM,W84,,00.0000000,N,00.0000000,E,00.0000000,W84*5F
$PSSN,TFM,190057.00,,,,*65
$GPRMC,190057.00,A,4742.1604866,N,01618.1001961,E,0.0,,010125,5.1,E,D*19
$GPGLL,4742.1604866,N,01618.1001961,E,190057.00,A,D*68
$GPGGA,190057.00,4742.1604866,N,01618.1001961,E,2,38,0.4,708.1888,M,43.2066,M,2.0,0136*4F
$GNGNS,190057.00,4742.1604866,N,01618.1001961,E,DAAA,38,0.4,708.1888,43.2066,,*55
$GPGNS,190057.00,,,,,,10,,,,2.0,136*70
$GLGNS,190057.00,,,,,,08,,,,,*7D
$GAGNS,190057.00,,,,,,05,,,,,*7D
$GBGNS,190057.00,,,,,,15,,,,,*7F
$GPLLQ,190057.00,010125,,M,,M,1,38,0.912,,M*1A
$GPVTG,,T,,M,0.00,N,0.00,K,D*26
$GPHDT,,T*1B
$GPTHS,,V*0E
$GPROT,,V*08
$PSSN,HRP,190057.00,010125,,,,,,,00,0,,*6B
$PTNL,AVR,190057.00,,Yaw,,Tilt,,,,0,,00*3D
$GPGSA,A,3,07,08,10,15,16,18,23,26,27,29,,,0.8,0.4,0.7*36
$GPGSA,A,3,66,67,73,74,80,81,82,83,,,,,0.8,0.4,0.7*3F
$GPGSA,A,3,13,15,21,26,27,,,,,,,,0.8,0.4,0.7*3D
$GPGSA,A,3,02,05,08,11,13,14,21,23,28,34,37,38,0.8,0.4,0.7*31
$GPGSA,A,3,42,43,60,,,,,,,,,,0.8,0.4,0.7*3E
$GPGST,190057.00,1.887,0.405,0.324,28.062,0.388,0.344,0.751*62
$GPGBS,190057.00,2.638,1.953,3.901,67,0.0001,6.558,6.215*51
$GPGRS,190057.00,1,0.5,0.4,0.0,0.2,-0.2,0.1,-0.1,-0.0,-0.1,0.9,,*4D
$GPGRS,190057.00,1,-2.8,6.6,3.3,-5.3,-0.4,2.0,-0.3,-2.2,,,,*60
$GPGRS,190057.00,1,0.1,0.2,0.3,-0.1,-0.5,,,,,,,*6E
$GPGRS,190057.00,1,0.1,0.4,1.0,0.8,0.1,1.7,0.4,-0.1,-0.4,0.6,-0.4,0.2*63
$GPGRS,190057.00,1,-0.0,0.1,-2.0,,,,,,,,,*69
$GPGSV,6,1,22,16,66,257,48,10,28,171,45,08,11,291,39,15,12,072,39*78
$GPGSV,6,2,22,29,12,102,40,26,50,199,47,27,45,295,47,18,54,057,47*71
$GPGSV,6,3,22,23,53,125,47,07,07,329,40,05,01,029,28,13,03,041,34*74
$GPGSV,6,4,22,31,01,214,37,36,35,170,45,58,13,245,38,57,11,108,38*78
$GPGSV,6,5,22,34,31,208,42,40,24,133,36,49,34,195,44,41,07,108,34*7E
$GPGSV,6,6,22,61,03,257,38*46
$GLGSV,3,1,10,83,60,293,43,80,37,206,50,81,15,064,44,74,20,331,40*62
$GLGSV,3,2,10,67,21,106,47,66,25,049,46,73,49,288,50,82,58,034,50*60
$GLGSV,3,3,10,65,04,005,38,84,04,256,34*63
$GAGSV,2,1,08,13,87,259,48,27,29,162,43,26,32,236,43,23,34,309,*69
$GAGSV,2,2,08,15,36,054,44,21,68,231,48,03,05,071,34,05,04,025,35*66
$GBGSV,6,1,23,43,61,070,50,33,11,150,,21,19,044,42,46,15,322,*63
$GBGSV,6,2,23,60,11,108,40,38,21,037,42,05,22,129,38,23,25,208,45*66
$GBGSV,6,3,23,34,14,082,42,58,21,319,,31,31,052,,14,23,127,41*66
$GBGSV,6,4,23,50,27,068,,08,35,040,41,42,30,098,46,13,41,048,44*64
$GBGSV,6,5,23,11,37,073,45,37,39,268,47,28,50,275,49,27,55,265,*6F
$GBGSV,6,6,23,02,07,106,35,30,06,259,,07,04,115,*53
$GPGGA,190057.00,,,,,0,00,,,M,,M,,*42
$PTNL,GGK,190057.00,010125,4742.1604866,N,01618.1001961,E,1,38,0.8,EHT751.3953,M*42
$GPGGQ,190057.00,010125,4742.1604866,N,01618.1001961,E,1,38,0.912,708.1888,M*37
$GPGFA,190057.00,3.847,6.156,0.405,0.324,28.062,0.751,,VVV*3C
$GPLLK,190057.00,010125,,M,,M,1,38,0.9,,M*03
$GNGMP,190057.00,,,,,DAAA,38,0.4,,,,*53
$GPGMP,190057.00,,,,,,10,,,,2.0,136*70
$GLGMP,190057.00,,,,,,08,,,,,*7D
$GAGMP,190057.00,,,,,,05,,,,,*7D
$GBGMP,190057.00,,,,,,15,,,,,*7F
$PSSN,SNC,[0,327675000,2347]*46
$GPZDA,190102.00,01,01,2025,,*68
$GPDTM,W84,,00.0000000,N,00.0000000,E,00.0000000,W84*5F
$PSSN,TFM,190102.00,,,,*64
$GPRMC,190102.00,A,4742.1604850,N,01618.1001950,E,0.0,,010125,5.1,E,D*1F
$GPGLL,4742.1604850,N,01618.1001950,E,190102.00,A,D*6E
$GPGGA,190102.00,4742.1604850,N,01618.1001950,E,2,38,0.4,708.1920,M,43.2066,M,1.7,0136*4E
$GNGNS,190102.00,4742.1604850,N,01618.1001950,E,DAAA,38,0.4,708.1920,43.2066,,*50
$GPGNS,190102.00,,,,,,10,,,,1.7,136*75
$GLGNS,190102.00,,,,,,08,,,,,*7C
$GAGNS,190102.00,,,,,,05,,,,,*7C
$GBGNS,190102.00,,,,,,15,,,,,*7E
$GPLLQ,190102.00,010125,,M,,M,1,38,0.895,,M*15
$GPVTG,,T,,M,0.00,N,0.00,K,D*26
$GPHDT,,T*1B
$GPTHS,,V*0E
$GPROT,,V*08
$PSSN,HRP,190102.00,010125,,,,,,,00,0,,*6A
$PTNL,AVR,190102.00,,Yaw,,Tilt,,,,0,,00*3C
$GPGSA,A,3,07,08,10,15,16,18,23,26,27,29,,,0.8,0.4,0.7*36
$GPGSA,A,3,66,67,73,74,80,81,82,83,,,,,0.8,0.4,0.7*3F
$GPGSA,A,3,13,15,21,26,27,,,,,,,,0.8,0.4,0.7*3D
$GPGSA,A,3,02,05,08,11,13,14,21,23,28,34,37,38,0.8,0.4,0.7*31
$GPGSA,A,3,42,43,60,,,,,,,,,,0.8,0.4,0.7*3E
$GPGST,190102.00,1.932,0.395,0.317,27.566,0.380,0.335,0.738*6D
$GPGBS,190102.00,2.685,1.961,3.896,67,0.0001,7.376,6.215*53
$GPGRS,190102.00,1,0.4,0.5,-0.4,0.0,0.0,-0.1,0.2,0.0,-0.3,0.7,,*6A
$GPGRS,190102.00,1,-2.9,7.4,3.2,-5.2,-0.1,1.8,-0.2,-1.7,,,,*6A
$GPGRS,190102.00,1,0.2,0.1,0.0,0.1,-0.2,,,,,,,*46
$GPGRS,190102.00,1,0.8,0.3,0.4,0.8,-0.1,1.2,0.6,-0.2,-0.1,0.8,-0.4,0.4*4D
$GPGRS,190102.00,1,-0.3,0.0,-1.8,,,,,,,,,*61
$GPGSV,6,1,22,16,66,257,48,10,28,171,44,08,11,292,39,15,12,072,39*7A
$GPGSV,6,2,22,29,12,102,40,26,49,199,48,27,45,295,47,18,54,057,47*76
$GPGSV,6,3,22,23,53,125,47,07,07,329,40,05,01,029,28,13,03,041,35*75
$GPGSV,6,4,22,31,01,214,37,36,35,170,45,58,13,245,37,57,11,108,38*77
$GPGSV,6,5,22,34,31,208,42,40,24,133,36,49,34,195,44,41,07,108,34*7E
$GPGSV,6,6,22,61,03,257,38*46
$GLGSV,3,1,10,83,60,293,43,80,37,206,50,81,15,064,44,74,20,331,40*62
$GLGSV,3,2,10,67,21,106,46,66,25,049,46,73,49,288,50,82,57,034,50*6E
$GLGSV,3,3,10,65,04,005,37,84,04,256,33*6B
$GAGSV,2,1,08,13,87,260,48,27,29,162,43,26,32,236,43,23,34,309,*63
$GAGSV,2,2,08,15,36,054,44,21,68,231,48,03,05,071,35,05,04,024,35*66
$GBGSV,6,1,23,43,61,070,50,33,11,150,,21,19,044,42,46,15,322,*63
$GBGSV,6,2,23,60,11,108,40,38,21,037,42,05,22,129,38,23,25,208,45*66
$GBGSV,6,3,23,34,14,082,42,58,21,319,,31,31,052,,14,23,127,41*66
$GBGSV,6,4,23,50,27,068,,08,35,040,41,42,30,097,45,13,41,048,44*68
$GBGSV,6,5,23,11,37,073,46,37,39,268,47,28,50,275,49,27,55,265,*6C
$GBGSV,6,6,23,02,07,106,35,30,06,259,,07,04,115,*53
$GPGGA,190102.00,,,,,0,00,,,M,,M,,*43
$PTNL,GGK,190102.00,010125,4742.1604850,N,01618.1001950,E,1,38,0.8,EHT751.3986,M*4C
$GPGGQ,190102.00,010125,4742.1604850,N,01618.1001950,E,1,38,0.895,708.1920,M*3C
$GPGFA,190102.00,3.756,6.051,0.395,0.317,27.566,0.738,,VVV*3B
$GPLLK,190102.00,010125,,M,,M,1,38,0.9,,M*02
$GNGMP,190102.00,,,,,DAAA,38,0.4,,,,*52
$GPGMP,190102.00,,,,,,10,,,,1.7,136*75
$GLGMP,190102.00,,,,,,08,,,,,*7C
$GAGMP,190102.00,,,,,,05,,,,,*7C
$GBGMP,190102.00,,,,,,15,,,,,*7E
$PSSN,SNC,[0,327680000,2347]*4C
$GPZDA,190107.00,01,01,2025,,*6D
$GPDTM,W84,,00.0000000,N,00.0000000,E,00.0000000,W84*5F
$PSSN,TFM,190107.00,,,,*61
$GPRMC,190107.00,A,4742.1604849,N,01618.1001919,E,0.0,,010125,5.1,E,D*1F
$GPGLL,4742.1604849,N,01618.1001919,E,190107.00,A,D*6E
$GPGGA,190107.00,4742.1604849,N,01618.1001919,E,2,37,0.4,708.1971,M,43.2066,M,2.7,0136*46
$GNGNS,190107.00,4742.1604849,N,01618.1001919,E,DAAA,37,0.4,708.1971,43.2066,,*5B
$GPGNS,190107.00,,,,,,10,,,,2.7,136*73
$GLGNS,190107.00,,,,,,08,,,,,*79
$GAGNS,190107.00,,,,,,05,,,,,*79
$GBGNS,190107.00,,,,,,14,,,,,*7A
$GPLLQ,190107.00,010125,,M,,M,1,37,0.899,,M*13
$GPVTG,,T,,M,0.01,N,0.01,K,D*26
$GPHDT,,T*1B
$GPTHS,,V*0E
$GPROT,,V*08
$PSSN,HRP,190107.00,010125,,,,,,,00,0,,*6F
$PTNL,AVR,190107.00,,Yaw,,Tilt,,,,0,,00*39
$GPGSA,A,3,07,08,10,15,16,18,23,26,27,29,,,0.8,0.4,0.7*36
$GPGSA,A,3,66,67,73,74,80,81,82,83,,,,,0.8,0.4,0.7*3F
$GPGSA,A,3,13,15,21,26,27,,,,,,,,0.8,0.4,0.7*3D
$GPGSA,A,3,05,08,11,13,14,21,23,28,34,37,38,42,0.8,0.4,0.7*35
$GPGSA,A,3,43,60,,,,,,,,,,,0.8,0.4,0.7*38
$GPGST,190107.00,1.837,0.398,0.320,29.169,0.381,0.340,0.740*6C
$GPGBS,190107.00,2.746,1.980,3.953,67,0.0001,6.223,6.214*5E
$GPGRS,190107.00,1,0.5,-0.5,-0.2,0.0,0.1,-0.1,0.2,0.1,-0.5,0.8,,*4C
$GPGRS,190107.00,1,-3.2,6.2,3.7,-4.4,-0.4,1.6,0.4,-2.3,,,,*47
$GPGRS,190107.00,1,0.0,-0.0,-0.1,0.3,-0.3,,,,,,,*42
$GPGRS,190107.00,1,0.0,0.7,0.8,-0.4,1.6,0.8,-0.3,0.1,0.8,-0.7,0.3,-0.2*48
$GPGRS,190107.00,1,0.1,-1.9,,,,,,,,,,*64
$GPGSV,6,1,22,16,66,257,49,10,28,171,44,08,11,292,38,15,12,072,39*7A
$GPGSV,6,2,22,29,12,102,40,26,49,199,47,27,45,295,47,18,54,057,47*79
$GPGSV,6,3,22,23,53,125,47,07,07,329,39,05,01,029,26,13,03,041,35*75
$GPGSV,6,4,22,31,01,214,37,36,35,170,45,58,13,245,37,57,11,108,38*77
$GPGSV,6,5,22,34,31,208,42,40,24,133,36,49,34,195,44,41,07,108,34*7E
$GPGSV,6,6,22,61,03,257,38*46
$GLGSV,3,1,10,83,60,293,43,80,37,206,50,81,15,064,44,74,20,331,40*62
$GLGSV,3,2,10,67,21,106,47,66,25,049,47,73,49,288,51,82,57,034,50*6F
$GLGSV,3,3,10,65,04,005,38,84,04,256,34*63
$GAGSV,2,1,08,13,87,260,48,27,29,162,43,26,32,236,43,23,34,309,*63
$GAGSV,2,2,08,15,36,054,43,21,68,231,48,03,05,071,35,05,04,024,34*60
$GBGSV,6,1,23,43,61,070,50,33,11,150,,21,19,044,42,46,15,322,*63
$GBGSV,6,2,23,60,11,108,40,38,21,037,42,05,22,129,38,23,25,208,45*66
$GBGSV,6,3,23,34,14,082,41,58,21,319,,31,31,052,,14,23,127,41*65
$GBGSV,6,4,23,50,27,068,,08,35,040,41,42,30,097,45,13,41,048,44*68
$GBGSV,6,5,23,11,37,073,45,37,39,268,47,28,50,275,49,27,55,265,*6F
$GBGSV,6,6,23,02,07,106,35,30,06,259,,07,04,115,*53
$GPGGA,190107.00,,,,,0,00,,,M,,M,,*46
$PTNL,GGK,190107.00,010125,4742.1604849,N,01618.1001919,E,1,37,0.8,EHT751.4036,M*46
$GPGGQ,190107.00,010125,4742.1604849,N,01618.1001919,E,1,37,0.899,708.1971,M*3B
$GPGFA,190107.00,3.788,6.067,0.398,0.320,29.169,0.740,,VVV*3B
$GPLLK,190107.00,010125,,M,,M,1,37,1.0,,M*00
$GNGMP,190107.00,,,,,DAAA,37,0.4,,,,*58
$GPGMP,190107.00,,,,,,10,,,,2.7,136*73
$GLGMP,190107.00,,,,,,08,,,,,*79
$GAGMP,190107.00,,,,,,05,,,,,*79
$GBGMP,190107.00,,,,,,14,,,,,*7A
$PSSN,SNC,[0,327685000,2347]*49
$GPZDA,190112.00,01,01,2025,,*69
$GPDTM,W84,,00.0000000,N,00.0000000,E,00.0000000,W84*5F
$PSSN,TFM,190112.00,,,,*65
$GPRMC,190112.00,A,4742.1604868,N,01618.1001915,E,0.0,,010125,5.1,E,D*14
$GPGLL,4742.1604868,N,01618.1001915,E,190112.00,A,D*65
$GPGGA,190112.00,4742.1604868,N,01618.1001915,E,2,38,0.4,708.1935,M,43.2066,M,3.7,0136*43
$GNGNS,190112.00,4742.1604868,N,01618.1001915,E,DAAA,38,0.4,708.1935,43.2066,,*5F
$GPGNS,190112.00,,,,,,10,,,,3.7,136*76
$GLGNS,190112.00,,,,,,08,,,,,*7D
$GAGNS,190112.00,,,,,,05,,,,,*7D
$GBGNS,190112.00,,,,,,15,,,,,*7F
$GPLLQ,190112.00,010125,,M,,M,1,38,0.914,,M*1C
$GPVTG,,T,,M,0.00,N,0.00,K,D*26
$GPHDT,,T*1B
$GPTHS,,V*0E
$GPROT,,V*08
$PSSN,HRP,190112.00,010125,,,,,,,00,0,,*6B
$PTNL,AVR,190112.00,,Yaw,,Tilt,,,,0,,00*3D
$GPGSA,A,3,07,08,10,15,16,18,23,26,27,29,,,0.8,0.4,0.7*36
$GPGSA,A,3,66,67,73,74,80,81,82,83,,,,,0.8,0.4,0.7*3F
$GPGSA,A,3,13,15,21,26,27,,,,,,,,0.8,0.4,0.7*3D
$GPGSA,A,3,02,05,08,11,13,14,21,23,28,34,37,38,0.8,0.4,0.7*31
$GPGSA,A,3,42,43,60,,,,,,,,,,0.8,0.4,0.7*3E
$GPGST,190112.00,1.831,0.406,0.326,29.180,0.389,0.347,0.752*63
$GPGBS,190112.00,2.807,2.003,3.987,67,0.0001,6.488,6.214*5F
$GPGRS,190112.00,1,-0.0,-0.2,-0.1,-0.2,0.2,0.0,-0.0,0.0,0.1,0.9,,*62
$GPGRS,190112.00,1,-2.8,6.5,3.7,-4.4,-0.3,1.2,0.2,-2.8,,,,*41
$GPGRS,190112.00,1,-0.1,0.0,-0.1,-0.0,-0.4,,,,,,,*6E
$GPGRS,190112.00,1,0.9,0.2,0.5,0.9,-0.6,1.6,0.9,-0.0,0.1,0.2,-0.5,-0.0*4D
$GPGRS,190112.00,1,-0.5,-0.0,-1.9,,,,,,,,,*4A
$GPGSV,6,1,22,16,66,257,49,10,28,171,45,08,11,292,39,15,12,072,39*7A
$GPGSV,6,2,22,29,12,102,40,26,49,199,48,27,45,295,47,18,54,057,47*76
$GPGSV,6,3,22,23,53,125,48,07,07,329,39,05,01,029,28,13,03,041,34*75
$GPGSV,6,4,22,31,01,214,37,36,35,170,45,58,13,245,37,57,11,108,37*78
$GPGSV,6,5,22,34,31,208,42,40,24,133,35,49,34,195,44,41,07,108,34*7D
$GPGSV,6,6,22,61,03,257,38*46
$GLGSV,3,1,10,83,60,293,42,80,37,206,50,81,15,064,44,74,20,331,40*63
$GLGSV,3,2,10,67,21,106,47,66,25,049,47,73,49,288,51,82,57,034,50*6F
$GLGSV,3,3,10,65,04,005,37,84,04,256,35*6D
$GAGSV,2,1,08,13,87,261,48,27,29,162,42,26,32,236,43,23,34,309,*63
$GAGSV,2,2,08,15,36,054,44,21,68,231,48,03,05,071,35,05,04,024,33*60
$GBGSV,6,1,23,43,61,070,50,33,11,150,,21,19,044,42,46,15,322,*63
$GBGSV,6,2,23,60,11,108,40,38,21,037,42,05,22,129,38,23,25,208,45*66
$GBGSV,6,3,23,34,14,082,41,58,21,319,,31,31,052,,14,23,127,41*65
$GBGSV,6,4,23,50,27,068,,08,35,040,41,42,30,097,45,13,41,048,44*68
$GBGSV,6,5,23,11,37,073,45,37,39,268,47,28,50,275,49,27,55,265,*6F
$GBGSV,6,6,23,02,07,106,35,30,06,259,,07,04,115,*53
$GPGGA,190112.00,,,,,0,00,,,M,,M,,*42
$PTNL,GGK,190112.00,010125,4742.1604868,N,01618.1001915,E,1,38,0.8,EHT751.4001,M*46
$GPGGQ,190112.00,010125,4742.1604868,N,01618.1001915,E,1,38,0.914,708.1935,M*3B
$GPGFA,190112.00,3.862,6.164,0.406,0.326,29.180,0.752,,VVV*34
$GPLLK,190112.00,010125,,M,,M,1,38,0.9,,M*03
$GNGMP,190112.00,,,,,DAAA,38,0.4,,,,*53
$GPGMP,190112.00,,,,,,10,,,,3.7,136*76
$GLGMP,190112.00,,,,,,08,,,,,*7D
$GAGMP,190112.00,,,,,,05,,,,,*7D
$GBGMP,190112.00,,,,,,15,,,,,*7F
$PSSN,SNC,[0,327690000,2347]*4D
$GPZDA,190117.00,01,01,2025,,*6C
$GPDTM,W84,,00.0000000,N,00.0000000,E,00.0000000,W84*5F
$PSSN,TFM,190117.00,,,,*60
$GPRMC,190117.00,A,4742.1604880,N,01618.1001940,E,0.0,,010125,5.1,E,D*17
$GPGLL,4742.1604880,N,01618.1001940,E,190117.00,A,D*66
$GPGGA,190117.00,4742.1604880,N,01618.1001940,E,2,38,0.4,708.1957,M,43.2066,M,2.0,0136*42
$GNGNS,190117.00,4742.1604880,N,01618.1001940,E,DAAA,38,0.4,708.1957,43.2066,,*58
$GPGNS,190117.00,,,,,,10,,,,2.0,136*75
$GLGNS,190117.00,,,,,,08,,,,,*78
$GAGNS,190117.00,,,,,,05,,,,,*78
$GBGNS,190117.00,,,,,,15,,,,,*7A
$GPLLQ,190117.00,010125,,M,,M,1,38,0.914,,M*19
$GPVTG,,T,,M,0.00,N,0.01,K,D*27
$GPHDT,,T*1B
$GPTHS,,V*0E
$GPROT,,V*08
$PSSN,HRP,190117.00,010125,,,,,,,00,0,,*6E
$PTNL,AVR,190117.00,,Yaw,,Tilt,,,,0,,00*38
$GPGSA,A,3,07,08,10,15,16,18,23,26,27,29,,,0.8,0.4,0.7*36
$GPGSA,A,3,66,67,73,74,80,81,82,83,,,,,0.8,0.4,0.7*3F
$GPGSA,A,3,13,15,21,26,27,,,,,,,,0.8,0.4,0.7*3D
$GPGSA,A,3,02,05,08,11,13,14,21,23,28,34,37,38,0.8,0.4,0.7*31
$GPGSA,A,3,42,43,60,,,,,,,,,,0.8,0.4,0.7*3E
$GPGST,190117.00,1.912,0.404,0.324,27.856,0.388,0.343,0.753*6E
$GPGBS,190117.00,2.636,1.950,3.910,67,0.0001,6.971,6.214*5F
$GPGRS,190117.00,1,0.4,0.6,-0.1,0.0,-0.1,-0.2,-0.3,0.2,0.1,0.7,,*46
$GPGRS,190117.00,1,-2.8,7.0,3.3,-5.7,-0.4,0.8,0.0,-2.1,,,,*41
$GPGRS,190117.00,1,0.1,0.3,-0.1,-0.2,-0.4,,,,,,,*47
$GPGRS,190117.00,1,0.3,0.3,0.2,0.5,-0.6,1.6,0.8,-0.2,-0.2,0.3,-0.4,0.0*48
$GPGRS,190117.00,1,-0.1,-0.2,-1.7,,,,,,,,,*47
$GPGSV,6,1,22,16,66,256,49,10,28,171,45,08,12,292,39,15,12,072,40*76
$GPGSV,6,2,22,29,12,102,40,26,49,199,48,27,45,295,46,18,54,057,47*77
$GPGSV,6,3,22,23,53,125,47,07,07,329,39,05,01,029,26,13,03,041,34*74
$GPGSV,6,4,22,31,01,214,37,36,35,170,45,58,13,245,37,57,11,108,38*77
$GPGSV,6,5,22,34,31,208,42,40,24,133,35,49,34,195,44,41,07,108,34*7D
$GPGSV,6,6,22,61,03,257,38*46
$GLGSV,3,1,10,83,60,293,43,80,37,206,50,81,15,064,44,74,20,331,40*62
$GLGSV,3,2,10,67,21,106,47,66,25,049,46,73,49,288,51,82,57,034,51*6F
$GLGSV,3,3,10,65,04,005,36,84,04,256,34*6D
$GAGSV,2,1,08,13,87,261,48,27,29,162,42,26,32,236,43,23,34,309,*63
$GAGSV,2,2,08,15,36,054,44,21,68,231,48,03,05,071,36,05,04,024,34*64
